timepoint,stationcode,longitude,latitude,area,positionname,primarypollutant,aqi,pm10,pm10_24h,pm2_5,pm2_5_24h,o3,o3_24h,o3_8h,o3_8h_24h,no2,no2_24h,so2,so2_24h,co,co_24h
2024-09-24T0000,2566A,102.1879,31.914,阿坝藏族羌族自治州,州农科所,,23,16,20,16,10,54,,51,44,7,12,6,7,0,0
2024-09-24T0000,2568A,102.2502,31.8896,阿坝藏族羌族自治州,马师校,,14,14,20,6,7,32,,45,30,8,7,4,4,0.4,0.4
2024-09-24T0000,3994A,102.2165,31.9024,阿坝藏族羌族自治州,马尔康中学西区,,28,,17,19,17,46,,50,38,8,8,5,6,0.5,0.5
2024-09-24T0000,2695A,80.292,41.1694,阿克苏地区,电视台,颗粒物(PM10),93,135,89,45,34,19,,122,78,61,26,6,4,1.1,0.5
2024-09-24T0000,2696A,80.2613,41.1551,阿克苏地区,艺术中心,颗粒物(PM10),94,137,93,50,35,7,,121,76,91,26,4,4,3.6,0.8
2024-09-24T0000,2204A,105.6467,38.8363,阿拉善盟,西城区西花园,,34,31,32,22,15,108,,150,115,18,16,7,8,0.8,0.7
2024-09-24T0000,2205A,105.6985,38.8411,阿拉善盟,蒙二幼,,31,22,23,7,8,98,,127,100,9,13,5,5,0.5,0.5
2024-09-24T0000,2206A,105.724,38.8516,阿拉善盟,环保局新楼,,38,10,16,3,7,120,,123,116,7,9,9,9,0.4,0.4
2024-09-24T0000,2708A,88.1264,47.8517,阿勒泰地区,市站,,32,32,20,10,8,65,,89,71,10,15,7,7,0.4,0.4
2024-09-24T0000,2630A,80.1161,32.5,阿里地区,阿里监测站,,20,15,15,6,7,59,,122,110,40,19,7,7,0.5,0.3
2024-09-24T0000,3192A,80.0903,32.5028,阿里地区,阿里藏医院,,33,33,17,8,4,72,,121,110,29,14,7,6,0.4,0.3
2024-09-24T0000,2642A,109.0318,32.6537,安康市,香溪洞,,34,34,35,16,12,82,,117,109,12,8,11,9,0.3,0.2
2024-09-24T0000,2643A,109.0281,32.6939,安康市,安康市监测站,,34,34,36,19,20,65,,122,92,16,10,8,10,0.4,0.5
2024-09-24T0000,2644A,109.0072,32.6975,安康市,汉滨区检察院,,35,35,33,16,14,65,,124,94,14,11,8,9,0.4,0.4
2024-09-24T0000,2291A,117.0809,30.5177,安庆市,环科院,,36,27,32,13,15,114,,148,134,13,15,8,9,0.4,0.6
2024-09-24T0000,2292A,117.0331,30.5119,安庆市,马山宾馆,,38,22,30,12,14,121,,149,138,14,14,10,11,0.2,0.3
2024-09-24T0000,2294A,116.9896,30.6145,安庆市,安庆大学,,36,36,31,22,15,105,,128,120,11,11,8,9,0.3,0.3
2024-09-24T0000,3173A,117.0598,30.5351,安庆市,市人大,,35,25,31,12,15,112,,143,128,11,12,9,10,0.4,0.5
2024-09-24T0000,3122A,105.9606,26.2611,安顺市,伍家关,,,,28,,26,,,98,,,6,,8,,0.8
2024-09-24T0000,3123A,105.9408,26.2431,安顺市,凤凰山,,46,38,28,32,22,106,,106,104,8,7,13,13,0.5,0.5
2024-09-24T0000,3124A,105.9439,26.2564,安顺市,金钟山,细颗粒物(PM2.5),52,42,29,36,25,98,,107,105,7,6,10,12,0.6,0.6
2024-09-24T0000,3125A,105.8983,26.2481,安顺市,娄家坡,细颗粒物(PM2.5),53,42,33,37,28,100,,106,102,11,8,12,10,0.7,0.6
2024-09-24T0000,1818A,114.4839,36.0621,安阳市,棉研所,颗粒物(PM10),63,76,49,34,24,40,,149,95,72,37,7,9,0.4,0.5
2024-09-24T0000,1819A,114.3551,36.1017,安阳市,红庙街,颗粒物(PM10),55,59,54,30,23,69,,146,121,30,18,7,9,0.7,0.9
2024-09-24T0000,1820A,114.361,36.0681,安阳市,银杏小区,颗粒物(PM10),57,64,48,26,16,40,,141,109,48,19,6,6,0.5,0.5
2024-09-24T0000,3141A,114.3922,36.0878,安阳市,信访局,细颗粒物(PM2.5),58,59,53,41,26,90,,149,129,34,25,6,8,0.5,0.7
2024-09-24T0000,3669A,114.4705,36.0637,安阳市,左辅环卫站,细颗粒物(PM2.5),77,97,62,56,29,38,,138,84,67,38,5,6,1.2,1.2
2024-09-24T0000,3703A,114.2917,36.0949,安阳市,安钢职工学校,细颗粒物(PM2.5),60,66,58,43,27,45,,135,94,44,23,8,8,0.6,0.5
2024-09-24T0000,1748A,123.044,41.1196,鞍山市,深沟寺,,34,34,29,19,17,51,,92,77,22,20,6,9,0.9,0.9
2024-09-24T0000,1749A,123.011,41.0931,鞍山市,太阳城,,29,29,38,15,22,61,,89,71,15,25,8,13,0.7,1.2
2024-09-24T0000,1750A,123.0485,41.1442,鞍山市,太平,,39,39,38,18,18,59,,80,65,27,33,12,13,1.0,1
2024-09-24T0000,1751A,122.9642,41.0971,鞍山市,铁西三道街,颗粒物(PM10),52,53,60,20,24,44,,83,51,42,41,11,11,1.3,1.1
2024-09-24T0000,1752A,122.9341,41.0833,鞍山市,铁西工业园区,颗粒物(PM10),54,57,61,23,24,20,,90,54,59,34,10,10,1.3,0.9
2024-09-24T0000,1753A,123.022,41.0821,鞍山市,明达新区,,31,31,40,14,20,62,,78,65,16,25,8,11,0.7,1.3
2024-09-24T0000,1754A,123.1289,41.0228,鞍山市,千山,,,,24,,16,,,77,,,12,,4,,0.7
2024-09-24T0000,2195A,107.4212,40.761,巴彦淖尔市,附二中,颗粒物(PM10),66,82,94,44,39,54,,60,45,52,61,8,14,1.2,1
2024-09-24T0000,2196A,107.37,40.7372,巴彦淖尔市,市环保大楼,颗粒物(PM10),59,68,69,14,25,34,,148,69,51,41,5,9,0.7,0.7
2024-09-24T0000,1956A,86.1472,41.7538,巴音郭楞蒙古自治州,孔雀公园,,38,38,58,22,18,87,,102,96,14,15,6,6,0.2,0.2
2024-09-24T0000,1957A,86.1972,41.7166,巴音郭楞蒙古自治州,棉纺厂,,38,38,59,6,19,97,,107,102,5,12,5,6,0.2,0.2
2024-09-24T0000,1958A,86.2357,41.7173,巴音郭楞蒙古自治州,经济开发区,,32,24,59,7,17,101,,107,104,2,5,7,7,0.2,0.2
2024-09-24T0000,2914A,106.7677,31.8794,巴中市,苏山坪,,35,28,22,21,15,111,,118,115,8,9,4,3,0.3,0.3
2024-09-24T0000,3182A,106.7656,31.8545,巴中市,丽阳花园,,44,44,33,30,22,36,,113,75,29,20,5,5,0.6,0.5
2024-09-24T0000,3183A,106.7418,31.8654,巴中市,圣泉水务公司,,45,45,29,29,19,40,,120,74,36,21,3,3,0.6,0.5
2024-09-24T0000,3616A,106.7616,31.8344,巴中市,市中心医院,细颗粒物(PM2.5),62,57,30,44,22,19,,117,73,38,20,5,5,0.7,0.5
2024-09-24T0000,2235A,122.7911,45.6077,白城市,洮北区环保局,,25,24,21,11,8,80,,89,79,10,8,7,5,0.1,0.1
2024-09-24T0000,2236A,122.8738,45.5725,白城市,市环保局,,39,39,41,9,6,72,,82,68,12,15,6,5,0.2,0.2
2024-09-24T0000,2231A,126.4219,41.9171,白山市,喜丰,,42,42,35,9,10,7,,62,21,20,18,9,8,0.6,0.5
2024-09-24T0000,2232A,126.4077,41.9419,白山市,环保局,,36,36,35,11,10,7,,55,15,14,17,4,6,0.7,0.6
2024-09-24T0000,2647A,104.1724,36.5446,白银市,第三小学,颗粒物(PM10),64,77,35,22,17,52,,103,72,32,22,78,26,1.4,0.9
2024-09-24T0000,2648A,104.1465,36.5482,白银市,动力公司,颗粒物(PM10),56,62,33,19,16,34,,108,63,35,22,24,13,1.2,0.6
2024-09-24T0000,2512A,106.6103,23.9011,百色市,市监测站,,35,35,36,18,13,51,,120,85,22,15,8,7,0.5,0.5
2024-09-24T0000,2513A,106.6538,23.8859,百色市,市中心血站,颗粒物(PM10),57,64,45,22,14,46,,120,90,22,18,21,8,0.6,0.5
2024-09-24T0000,3406A,106.6085,23.8798,百色市,祈福高中,颗粒物(PM10),58,66,48,25,18,10,,116,67,37,19,4,4,0.6,0.6
2024-09-24T0000,2270A,117.396,32.939,蚌埠市,工人疗养院,,43,43,46,15,17,66,,120,92,24,18,6,7,0.3,0.4
2024-09-24T0000,2271A,117.3605,32.9427,蚌埠市,百货大楼,,40,40,42,17,15,61,,118,90,31,19,8,9,0.4,0.4
2024-09-24T0000,2273A,117.4185,32.8911,蚌埠市,蚌埠学院,,36,36,36,23,18,44,,122,76,45,25,6,9,0.3,0.3
2024-09-24T0000,2274A,117.3533,32.9673,蚌埠市,淮上区政府,,36,36,40,19,18,52,,114,90,35,18,6,7,0.2,0.2
2024-09-24T0000,2275A,117.3145,32.8977,蚌埠市,高新区,,34,34,37,15,18,74,,123,96,23,23,6,9,0.3,0.3
2024-09-24T0000,3715A,117.3092,32.9314,蚌埠市,蚌埠田家炳中学,,48,48,44,21,18,24,,122,85,51,21,8,7,0.4,0.4
2024-09-24T0000,1585A,109.8756,40.6532,包头市,市环境监测站,颗粒物(PM10),91,131,60,23,25,51,,108,48,62,56,12,12,1.0,0.9
2024-09-24T0000,1587A,109.9991,40.5842,包头市,包头八中,颗粒物(PM10),65,80,55,28,28,99,,113,87,30,45,22,16,0.9,1
2024-09-24T0000,1588A,109.8538,40.6821,包头市,青山宾馆,颗粒物(PM10),60,69,45,32,23,5,,108,44,90,47,7,13,0.9,0.9
2024-09-24T0000,1589A,109.8642,40.6288,包头市,惠龙物流,颗粒物(PM10),64,77,64,35,23,46,,113,71,70,57,17,19,1.1,0.9
2024-09-24T0000,1590A,110.0377,40.5546,包头市,东河鸿龙湾,颗粒物(PM10),57,64,44,26,20,53,,111,81,67,39,53,25,0.7,0.7
2024-09-24T0000,3283A,109.9154,40.5685,包头市,滨河大厦,,36,36,42,20,19,74,,112,83,51,48,19,17,0.7,0.7
2024-09-24T0000,3419A,109.9447,40.6261,包头市,包头市委党校,颗粒物(PM10),64,77,49,30,20,26,,122,60,87,54,11,16,1.2,1
2024-09-24T0000,3683A,109.8331,40.6576,包头市,昆区政府,颗粒物(PM10),63,75,50,32,26,13,,113,61,88,48,10,17,1.0,0.9
2024-09-24T0000,1930A,107.185,34.3063,宝鸡市,庙沟村,颗粒物(PM10),55,59,51,36,29,108,,152,136,20,19,8,9,0.5,0.5
2024-09-24T0000,1931A,107.0708,34.3017,宝鸡市,竹园沟,细颗粒物(PM2.5),58,62,48,41,33,62,,138,107,15,12,7,7,0.6,0.6
2024-09-24T0000,1932A,107.1906,34.3672,宝鸡市,三陆医院,细颗粒物(PM2.5),78,74,68,57,43,61,,155,114,40,34,12,12,0.7,0.6
2024-09-24T0000,1933A,107.1431,34.3547,宝鸡市,监测站,细颗粒物(PM2.5),59,58,58,42,38,72,,152,111,21,20,6,7,0.6,0.6
2024-09-24T0000,1934A,107.1186,34.3739,宝鸡市,技工学校,细颗粒物(PM2.5),72,65,59,52,40,65,,154,112,22,22,8,10,0.7,0.7
2024-09-24T0000,1935A,107.3906,34.3528,宝鸡市,陈仓区环保局家属楼,细颗粒物(PM2.5),83,89,62,61,40,22,,159,113,85,35,9,10,0.8,0.7
2024-09-24T0000,1936A,107.2058,34.3497,宝鸡市,文理学院,颗粒物(PM10),59,68,61,29,32,70,,162,121,24,20,8,9,0.6,0.6
2024-09-24T0000,1937A,107.2386,34.3622,宝鸡市,三迪小学,颗粒物(PM10),63,75,63,38,40,70,,154,113,31,32,9,11,0.7,0.7
2024-09-24T0000,1051A,115.493,38.8632,保定市,游泳馆,颗粒物(PM10),53,56,49,27,22,70,,139,112,42,31,2,2,0.5,0.3
2024-09-24T0000,1052A,115.5213,38.8959,保定市,华电二区,颗粒物(PM10),52,53,40,32,26,60,,132,105,30,21,2,3,0.2,0.1
2024-09-24T0000,1053A,115.4713,38.9108,保定市,接待中心,细颗粒物(PM2.5),62,61,45,44,28,53,,131,107,46,29,3,2,0.2,0.1
2024-09-24T0000,1054A,115.4612,38.8416,保定市,地表水厂,颗粒物(PM10),65,79,55,44,28,24,,130,98,73,36,3,3,0,0
2024-09-24T0000,3581A,115.31981,38.95208,保定市,满城区生态环境分局,颗粒物(PM10),53,56,46,27,17,64,,131,96,29,23,3,3,0.3,0.4
2024-09-24T0000,3582A,115.47694,38.76408,保定市,清苑区第二中学,颗粒物(PM10),65,79,53,43,25,64,,134,92,45,34,4,2,0.4,0.3
2024-09-24T0000,3583A,115.62909,39.02311,保定市,徐水物探局,颗粒物(PM10),71,92,47,48,21,6,,132,94,83,32,6,4,0.6,0.5
2024-09-24T0000,4004A,115.4202,38.8656,保定市,双鹰农机,颗粒物(PM10),71,92,56,46,26,28,,134,100,68,36,1,2,0.4,0.3
2024-09-24T0000,4034A,115.5150,38.8590,保定市,植保所站,细颗粒物(PM2.5),58,62,50,41,27,34,,141,96,78,33,5,4,0.2,0.2
2024-09-24T0000,2594A,99.1678,25.1081,保山市,市环境监测站,,36,36,30,22,15,58,,93,76,7,8,6,7,0.5,0.5
2024-09-24T0000,2595A,99.1711,25.1328,保山市,市环保局,,30,30,32,15,15,69,,97,83,4,6,5,6,0.3,0.4
2024-09-24T0000,1866A,109.2262,21.588,北海市,牛尾岭水库,,,,18,,16,,,75,,,4,,4,,0.6
2024-09-24T0000,1867A,109.1436,21.4086,北海市,海滩公园,,30,30,26,17,13,70,,91,76,8,8,7,6,0.5,0.5
2024-09-24T0000,1868A,109.0981,21.4661,北海市,新市环保局,,28,27,26,19,17,72,,102,81,9,8,5,5,0.7,0.7
2024-09-24T0000,1869A,109.1778,21.5233,北海市,北海工业园,,32,,28,22,18,73,,93,77,8,10,5,8,0.6,0.6
2024-09-24T0000,3400A,109.1911,21.4415,北海市,龙潭自来水厂,,35,29,23,24,17,55,,89,71,7,7,8,5,0.6,0.6
2024-09-24T0000,1001A,116.3621,39.8784,北京市,万寿西宫,颗粒物(PM10),51,52,40,24,19,84,,110,99,30,33,2,2,0.4,0.4
2024-09-24T0000,1002A,116.2202,40.2915,北京市,定陵,,30,30,21,20,13,29,,83,58,7,9,2,2,0.4,0.3
2024-09-24T0000,1003A,116.4174,39.9289,北京市,东四,,50,50,40,22,18,88,,120,113,27,29,5,5,0.5,0.5
2024-09-24T0000,1004A,116.4072,39.8863,北京市,天坛,,32,32,30,17,16,39,,107,80,26,27,3,2,0.4,0.4
2024-09-24T0000,1005A,116.462,39.9365,北京市,农展馆,,47,47,42,20,18,83,,104,97,27,34,1,1,0.4,0.4
2024-09-24T0000,1006A,116.3392,39.9295,北京市,官园,,50,50,40,24,19,90,,117,112,23,27,5,6,0.4,0.4
2024-09-24T0000,1007A,116.2878,39.9611,北京市,海淀万柳,颗粒物(PM10),52,54,36,21,14,39,,113,97,39,29,2,3,0.4,0.3
2024-09-24T0000,1008A,116.6636,40.135,北京市,顺义新城,颗粒物(PM10),54,57,38,27,17,20,,95,62,45,32,3,2,0.4,0.3
2024-09-24T0000,1009A,116.6275,40.3275,北京市,怀柔镇,,30,30,26,18,15,53,,105,80,11,15,3,2,0.5,0.4
2024-09-24T0000,1010A,116.2296,40.217,北京市,昌平镇,,45,45,29,21,12,65,,88,79,11,16,4,4,0.3,0.3
2024-09-24T0000,1011A,116.3966,39.9821,北京市,奥体中心,,43,43,35,19,16,89,,104,100,26,30,2,2,0.4,0.4
2024-09-24T0000,1012A,116.184,39.9136,北京市,古城,颗粒物(PM10),56,61,43,22,16,4,,103,72,70,30,2,3,0.5,0.4
2024-09-24T0000,3281A,115.9718,40.4529,北京市,延庆夏都,,47,47,28,21,13,55,,92,85,13,14,3,2,0.3,0.3
2024-09-24T0000,3417A,117.0709,40.1465,北京市,平谷新城,,48,48,32,30,18,35,,116,65,14,14,3,2,0.2,0.3
2024-09-24T0000,3418A,116.8336,40.4095,北京市,密云新城,,38,38,32,14,12,24,,99,51,11,14,3,3,0.4,0.3
2024-09-24T0000,3671A,116.088,39.9726,北京市,门头沟三家店,,47,47,32,20,12,22,,97,57,27,19,6,6,0.3,0.2
2024-09-24T0000,3672A,116.1541,39.8204,北京市,丰台云岗,颗粒物(PM10),60,69,37,31,16,36,,101,69,39,25,4,3,0.2,0.2
2024-09-24T0000,3673A,116.6804,39.9081,北京市,通州东关,颗粒物(PM10),57,64,61,25,22,53,,120,96,62,43,1,1,0.2,0.3
2024-09-24T0000,3674A,115.9577,39.7603,北京市,房山燕山,,35,35,30,20,13,52,,104,88,12,12,3,2,0.3,0.3
2024-09-24T0000,3675A,116.4672,39.7733,北京市,大兴旧宫,,41,41,36,19,17,48,,115,87,28,27,3,3,0.3,0.3
2024-09-24T0000,3694A,115.986,40.4563,北京市,延庆石河营,,36,36,25,23,14,43,,88,78,12,13,3,3,0.3,0.3
2024-09-24T0000,3695A,116.6151,40.3053,北京市,怀柔新城,,30,30,24,17,13,68,,99,86,9,12,3,3,0.4,0.3
2024-09-24T0000,3696A,116.2545,39.8768,北京市,丰台小屯,颗粒物(PM10),54,57,38,23,16,20,,98,74,65,35,3,2,0.5,0.4
2024-09-24T0000,3697A,116.84,40.3844,北京市,密云镇,,34,34,30,19,15,17,,100,51,37,28,2,2,0.3,0.3
2024-09-24T0000,1761A,123.8275,41.3064,本溪市,大峪,,36,36,27,10,10,9,,75,48,37,19,9,9,0.5,0.7
2024-09-24T0000,1762A,123.7567,41.3325,本溪市,溪湖,颗粒物(PM10),83,116,66,28,16,5,,75,35,43,28,6,9,1.1,1.1
2024-09-24T0000,1763A,123.7169,41.3094,本溪市,彩屯,颗粒物(PM10),60,69,41,35,19,23,,67,28,36,35,9,11,1.5,1.2
2024-09-24T0000,1764A,123.7669,41.2864,本溪市,东明,,42,42,38,16,14,6,,81,36,48,34,5,7,0.8,0.9
2024-09-24T0000,1765A,123.7992,41.2664,本溪市,新立屯,,23,15,26,6,5,15,,68,21,46,31,5,5,0.5,0.8
2024-09-24T0000,1766A,123.8142,41.3472,本溪市,威宁,,41,41,39,15,15,7,,73,20,27,26,8,9,1.0,1
2024-09-24T0000,2587A,105.2864,27.3125,毕节市,八中,细颗粒物(PM2.5),54,43,33,38,26,44,,105,77,11,9,6,6,0.5,0.5
2024-09-24T0000,2588A,105.31,27.2944,毕节市,师专,颗粒物(PM10),52,54,37,32,22,41,,111,81,17,11,7,7,0.6,0.5
2024-09-24T0000,3537A,105.3631,27.3533,毕节市,长征村,细颗粒物(PM2.5),60,57,42,43,33,44,,112,83,8,6,6,7,0.6,0.6
2024-09-24T0000,1629A,118.0018,37.3617,滨州市,第二水厂,颗粒物(PM10),57,63,32,31,13,41,,139,96,61,30,16,10,0.6,0.4
2024-09-24T0000,1630A,117.9776,37.393,滨州市,北中新校,颗粒物(PM10),52,53,31,27,12,72,,137,104,24,17,12,10,1.0,0.6
2024-09-24T0000,3514A,117.9378,37.3956,滨州市,中海酒店,颗粒物(PM10),51,51,32,27,18,78,,147,127,38,28,11,10,0.9,0.6
2024-09-24T0000,3515A,117.9378,37.3553,滨州市,开发区一中,颗粒物(PM10),53,56,36,29,17,54,,141,99,46,37,14,13,0.6,0.5
2024-09-24T0000,3516A,118.0917,37.694,滨州市,金海六路,颗粒物(PM10),51,51,36,27,13,93,,143,122,18,31,5,9,0.8,0.6
2024-09-24T0000,4028A,117.9956,37.3753,滨州市,滨州市西街道办事处,细颗粒物(PM2.5),52,51,27,36,18,52,,146,109,50,26,11,11,1.0,0.7
2024-09-24T0000,2311A,115.8072,33.8399,亳州市,污水处理厂,细颗粒物(PM2.5),74,77,44,54,23,50,,129,86,30,21,27,8,0.4,0.3
2024-09-24T0000,2312A,115.7789,33.8518,亳州市,三国揽胜宫,细颗粒物(PM2.5),74,67,38,54,28,72,,127,102,18,14,9,6,0.5,0.4
2024-09-24T0000,3332A,115.7633,33.8034,亳州市,亳州学院,,49,40,41,34,26,90,,135,115,15,14,6,5,0.3,0.4
2024-09-24T0000,2693A,82.0485,44.8556,博尔塔拉蒙古自治州,市党校,,45,45,55,21,23,72,,123,102,16,10,4,7,0.4,0.4
2024-09-24T0000,2694A,82.0806,44.8969,博尔塔拉蒙古自治州,市环保局,颗粒物(PM10),83,115,62,31,21,22,,116,70,40,19,6,6,0.8,0.5
2024-09-24T0000,1071A,116.8842,38.2991,沧州市,沧县城建局,,39,39,35,24,18,69,,129,98,43,28,7,4,0.3,0.4
2024-09-24T0000,1072A,116.8584,38.3254,沧州市,电视转播站,,47,47,27,17,14,82,,142,107,47,27,11,7,0.4,0.4
2024-09-24T0000,1073A,116.8709,38.3228,沧州市,市环保局,,40,40,33,22,19,69,,136,103,42,23,7,5,0.3,0.3
2024-09-24T0000,3324A,116.8136,38.3004,沧州市,河北水利电力学院,,31,31,30,14,19,89,,140,111,33,28,8,6,0.4,0.4
2024-09-24T0000,2622A,97.1806,31.1273,昌都市,昌都监测站,,25,10,11,3,7,77,,73,69,1,7,8,7,0.4,0.5
2024-09-24T0000,3719A,97.1714,31.1406,昌都市,昌都会议中心,,26,7,6,3,4,81,,82,79,1,2,8,8,0.4,0.4
2024-09-24T0000,2690A,88.1236,43.8886,昌吉回族自治州,天山天池,,20,20,19,12,9,57,,89,69,3,5,23,24,0.4,0.5
2024-09-24T0000,2692A,87.2717,44.0297,昌吉回族自治州,新区政务中心,颗粒物(PM10),51,51,48,34,23,9,,114,87,73,25,6,8,0.9,0.7
2024-09-24T0000,3613A,87.3095,44.0142,昌吉回族自治州,亚心广场,颗粒物(PM10),64,78,57,17,14,21,,119,90,69,31,3,6,0.7,0.6
2024-09-24T0000,1119A,125.3325,43.9166,长春市,食品厂,颗粒物(PM10),58,66,41,22,16,7,,73,28,58,41,5,5,0.5,0.4
2024-09-24T0000,1120A,125.2863,43.9027,长春市,客车厂,,47,47,32,18,14,17,,74,34,56,37,6,6,0.4,0.4
2024-09-24T0000,1121A,125.2841,43.8463,长春市,邮电学院,,38,38,26,13,10,14,,75,34,42,27,6,6,0.4,0.3
2024-09-24T0000,1122A,125.3716,43.8772,长春市,劳动公园,颗粒物(PM10),57,64,44,25,15,7,,81,32,54,35,8,8,0.5,0.4
2024-09-24T0000,1123A,125.3297,43.8805,长春市,园林处,颗粒物(PM10),51,51,34,16,15,31,,77,60,43,32,6,5,0.4,0.3
2024-09-24T0000,1124A,125.4605,43.79,长春市,净月潭,,14,13,13,8,6,42,,75,54,10,8,6,6,0.3,0.3
2024-09-24T0000,1125A,125.7194,43.515,长春市,甩湾子,,,,,,,,,,,,,,,,
2024-09-24T0000,1126A,125.3863,43.8447,长春市,经开区环卫处,颗粒物(PM10),60,69,35,22,11,4,,76,23,50,34,9,8,0.7,0.5
2024-09-24T0000,1127A,125.245,43.7783,长春市,高新区管委会,,45,45,26,18,9,6,,78,24,44,27,5,5,0.4,0.4
2024-09-24T0000,1128A,125.1761,43.8325,长春市,岱山公园,颗粒物(PM10),61,72,42,15,15,21,,77,21,49,38,4,5,0.3,0.4
2024-09-24T0000,1335A,113.0833,28.2325,长沙市,经开区环保局,,48,48,42,24,17,135,,151,144,20,19,3,3,0.3,0.3
2024-09-24T0000,1336A,112.8872,28.2189,长沙市,高开区环保局,,49,49,43,21,19,134,,144,137,12,11,8,6,0.3,0.3
2024-09-24T0000,1337A,113.0792,28.2053,长沙市,马坡岭,颗粒物(PM10),52,53,44,24,19,130,,160,142,26,20,6,6,0.6,0.5
2024-09-24T0000,1338A,112.9394,28.19,长沙市,湖南师范大学,,48,48,47,25,21,129,,152,144,16,12,7,6,0.4,0.3
2024-09-24T0000,1339A,113.0178,28.1322,长沙市,雨花区环保局,,47,47,41,24,17,114,,150,139,29,18,9,7,0.5,0.4
2024-09-24T0000,1340A,112.9792,28.2597,长沙市,伍家岭,,48,48,44,23,17,107,,150,137,22,14,5,5,0.7,0.7
2024-09-24T0000,1341A,113.0014,28.1944,长沙市,火车新站,,46,46,46,27,21,108,,144,133,23,15,7,6,0.5,0.4
2024-09-24T0000,1342A,112.9844,28.1178,长沙市,天心区环保局,颗粒物(PM10),54,57,47,26,18,98,,142,130,34,16,5,4,0.5,0.3
2024-09-24T0000,1343A,112.8908,28.1308,长沙市,湖南中医药大学,颗粒物(PM10),54,58,54,32,21,92,,154,134,37,16,8,8,0.8,0.6
2024-09-24T0000,1344A,112.9581,28.3611,长沙市,沙坪,,41,38,38,22,20,130,,154,145,13,12,10,10,0.2,0.2
2024-09-24T0000,1727A,113.1147,36.1547,长治市,清华站,细颗粒物(PM2.5),64,69,42,46,27,46,,136,107,43,22,8,9,0.8,0.7
2024-09-24T0000,1728A,113.1031,36.1989,长治市,监测站,颗粒物(PM10),60,70,46,39,28,65,,128,103,27,24,11,12,1.2,0.7
2024-09-24T0000,1730A,113.0886,36.2125,长治市,审计局,细颗粒物(PM2.5),67,57,42,48,32,76,,129,110,25,23,8,9,0.8,0.5
2024-09-24T0000,1731A,113.0844,36.1856,长治市,长治八中,颗粒物(PM10),59,67,51,32,23,74,,130,111,28,22,8,9,0.8,0.7
2024-09-24T0000,2845A,113.1569,36.1911,长治市,德盛苑,,47,47,38,31,25,118,,139,129,15,14,7,7,1.0,0.9
2024-09-24T0000,3568A,113.06,36.0464,长治市,向阳小学,细颗粒物(PM2.5),63,69,55,45,34,95,,136,113,20,17,10,9,0.3,0.3
2024-09-24T0000,3569A,112.8792,36.3144,长治市,屯留一中,细颗粒物(PM2.5),75,80,58,55,37,82,,137,111,24,21,11,10,1.3,1.1
2024-09-24T0000,3570A,113.235,36.3489,长治市,潞城四中,颗粒物(PM10),54,57,54,31,33,47,,146,90,44,25,6,9,0.8,0.5
2024-09-24T0000,1854A,111.6975,28.9703,常德市,市二中,细颗粒物(PM2.5),90,95,57,67,35,76,,150,124,32,14,11,13,0.7,0.5
2024-09-24T0000,1857A,111.7158,29.1456,常德市,白鹤山,,,,,,,,,,,,,,,,
2024-09-24T0000,3138A,111.7153,29.0289,常德市,武陵区永安,细颗粒物(PM2.5),80,76,51,59,31,118,,154,136,18,14,18,14,0.7,0.6
2024-09-24T0000,3139A,111.6892,28.9881,常德市,鼎城区玉霞,细颗粒物(PM2.5),84,81,53,62,30,28,,158,124,63,15,10,14,0.8,0.6
2024-09-24T0000,3140A,111.6625,29.0531,常德市,武陵区长庚,细颗粒物(PM2.5),69,71,52,50,29,102,,157,145,23,14,12,12,0.5,0.4
2024-09-24T0000,1196A,119.9633,31.762,常州市,市监测站,,40,40,38,18,13,77,,109,91,16,14,7,8,0.4,0.4
2024-09-24T0000,1200A,119.9468,31.7069,常州市,武进监测站,,28,28,27,12,11,87,,115,96,11,14,11,10,0.6,0.6
2024-09-24T0000,1201A,119.9255,31.9087,常州市,安家,颗粒物(PM10),58,65,35,28,16,55,,107,83,40,29,11,9,0.4,0.4
2024-09-24T0000,3002A,119.9805,31.8174,常州市,行政中心,,42,42,27,18,12,81,,110,91,15,17,9,5,0.5,0.4
2024-09-24T0000,3003A,120.0522,31.7748,常州市,经开区,,49,49,30,18,11,54,,115,78,32,21,10,10,0.4,0.3
2024-09-24T0000,3010A,119.9025,31.7964,常州市,钟楼,,36,36,31,17,13,77,,105,90,18,21,8,9,0.4,0.4
2024-09-24T0000,3429A,119.8598,31.7066,常州市,武进经发区,,43,43,34,22,17,68,,110,82,27,21,8,9,0.5,0.5
2024-09-24T0000,3430A,119.5826,31.7245,常州市,金坛城区,颗粒物(PM10),51,51,30,33,15,68,,125,95,28,21,9,9,0.5,0.5
2024-09-24T0000,2220A,120.4318,41.5881,朝阳市,西梁,,28,27,30,16,13,89,,96,94,12,14,7,6,0.6,0.5
2024-09-24T0000,2221A,120.4521,41.5646,朝阳市,河畔小区,,35,26,25,14,12,110,,106,106,8,10,10,8,0.8,0.6
2024-09-24T0000,2222A,120.4176,41.5648,朝阳市,八里堡,,30,30,31,13,14,68,,95,88,25,18,8,10,0.8,0.7
2024-09-24T0000,2223A,120.3806,41.5969,朝阳市,农业园区,,30,24,30,21,17,14,,89,48,36,18,6,9,0.5,0.6
2024-09-24T0000,1705A,116.6367,23.6719,潮州市,西园路,,9,7,9,6,3,26,,49,33,12,8,3,3,0.5,0.6
2024-09-24T0000,3026A,116.6183,23.6608,潮州市,市政府,,10,8,12,3,5,30,,64,38,12,9,4,4,0.7,0.8
2024-09-24T0000,4036A,116.6461,23.6761,潮州市,金山,,11,6,7,3,6,34,,66,44,10,6,8,6,0.5,0.7
2024-09-24T0000,2472A,113.0073,25.9061,郴州市,马头岭,,46,46,48,20,14,23,,92,45,21,12,9,9,0.8,0.8
2024-09-24T0000,2473A,113.0116,25.8226,郴州市,市职中,,42,42,40,28,26,18,,95,44,21,18,4,6,0.6,0.5
2024-09-24T0000,2474A,113.0161,25.8001,郴州市,兴隆步行街,颗粒物(PM10),53,55,50,28,27,20,,86,46,23,20,4,6,0.6,0.5
2024-09-24T0000,2475A,113.0383,25.8071,郴州市,市审计局,,40,40,42,26,27,17,,80,44,25,17,5,8,0.8,0.7
2024-09-24T0000,2476A,113.0348,25.7759,郴州市,市环保局,颗粒物(PM10),54,57,49,37,26,14,,79,41,24,15,6,9,0.9,0.7
2024-09-24T0000,1431A,103.9728,30.7236,成都市,金泉两河,,35,35,37,3,10,29,,96,66,36,19,3,4,0.4,0.5
2024-09-24T0000,1432A,104.176,30.6872,成都市,十里店,,41,41,33,18,17,54,,116,98,32,18,2,2,0.6,0.5
2024-09-24T0000,1433A,104.079,30.5706,成都市,三瓦窑,,31,31,35,13,21,57,,119,96,31,18,3,4,0.5,0.5
2024-09-24T0000,1434A,104.1114,30.63,成都市,沙河铺,,43,43,39,30,19,62,,114,92,22,19,3,3,0.6,0.6
2024-09-24T0000,1437A,104.0786,30.6531,成都市,君平街,,49,,33,34,22,72,,109,92,21,17,3,3,0.5,0.6
2024-09-24T0000,1438A,103.613,31.0283,成都市,灵岩寺,,,,,,,,,,,,,,,,
2024-09-24T0000,2880A,104.0239,30.65639,成都市,大石西路,,28,28,33,8,16,59,,103,87,25,19,5,6,0.8,0.8
2024-09-24T0000,3136A,104.2725,30.5589,成都市,龙泉驿区区政府,,39,39,30,24,18,67,,110,92,22,16,5,4,0.6,0.5
2024-09-24T0000,3357A,104.0106,30.6931,成都市,金博路,,48,48,30,23,14,35,,97,70,40,18,2,3,0.5,0.5
2024-09-24T0000,3359A,104.0578,30.5225,成都市,华阳,,29,29,39,19,21,63,,115,96,24,16,3,4,0.5,0.5
2024-09-24T0000,3487A,104.2394,30.5319,成都市,车城东七路,颗粒物(PM10),54,57,40,37,26,96,,125,114,20,16,3,3,0.6,0.6
2024-09-24T0000,3488A,104.3853,30.7453,成都市,青白江技师分院,,36,36,28,25,17,29,,135,84,51,23,2,3,0.7,0.6
2024-09-24T0000,3489A,104.0789,30.4072,成都市,科学城,,46,46,44,31,33,33,,114,95,45,19,4,4,0.6,0.6
2024-09-24T0000,4011A,103.8506,30.6947,成都市,光华大道三段,,37,37,42,12,22,76,,100,94,15,17,2,3,0.6,0.6
2024-09-24T0000,1062A,117.9531,40.9081,承德市,铁路,颗粒物(PM10),51,51,23,19,8,20,,79,40,21,21,8,10,0.5,0.4
2024-09-24T0000,1063A,117.9392,40.9763,承德市,中国银行,,18,18,20,11,7,7,,87,39,25,17,5,6,0.5,0.4
2024-09-24T0000,1064A,117.9503,40.928,承德市,开发区,,30,30,29,19,11,21,,85,48,22,19,8,8,0.5,0.3
2024-09-24T0000,1065A,117.8051,40.9655,承德市,文化中心,,24,24,30,12,7,11,,79,40,35,23,8,11,0.3,0.5
2024-09-24T0000,1066A,117.9268,41.0026,承德市,离宫,,35,,17,24,16,14,,63,37,13,10,1,3,0.3,0.4
2024-09-24T0000,2314A,117.47,30.6618,池州市,池州学院,,48,48,40,26,19,71,,145,120,32,20,15,11,0.6,0.6
2024-09-24T0000,3237A,117.4918,30.6617,池州市,展览馆,,50,50,38,22,17,63,,142,113,31,18,6,7,0.6,0.7
2024-09-24T0000,3333A,117.5627,30.695,池州市,第八中学,,49,49,41,23,17,46,,138,93,30,23,5,6,0.7,0.8
2024-09-24T0000,3334A,117.5038,30.6243,池州市,第十二中学,,39,39,37,21,16,72,,139,107,25,19,6,6,0.6,0.8
2024-09-24T0000,1744A,118.9233,42.2816,赤峰市,松山一中,,20,19,21,6,7,63,,77,63,21,25,9,9,0.3,0.4
2024-09-24T0000,1745A,118.9576,42.2728,赤峰市,哈达街,,22,11,16,9,7,69,,87,70,14,16,8,8,0.4,0.4
2024-09-24T0000,1746A,118.8788,42.2554,赤峰市,天义路,,27,27,20,8,9,68,,83,68,15,19,7,9,0.3,0.2
2024-09-24T0000,3058A,119.2658,42.0353,赤峰市,银河街,,29,29,35,16,17,60,,88,67,14,16,19,19,0.5,0.5
2024-09-24T0000,3286A,118.9359,42.3147,赤峰市,桥北物流园区,,32,30,22,22,11,9,,84,46,54,25,10,8,0.6,0.6
2024-09-24T0000,2521A,107.3476,22.4136,崇左市,市环保局江州分局,颗粒物(PM10),58,66,28,16,14,31,,102,79,19,7,3,3,0.7,0.6
2024-09-24T0000,2522A,107.3702,22.3707,崇左市,城南新区,,31,31,22,17,11,58,,113,90,16,8,4,4,0.7,0.6
2024-09-24T0000,2298A,118.3093,32.3153,滁州市,老年大学,,38,38,30,13,14,60,,124,96,21,13,6,3,0.2,0.2
2024-09-24T0000,2299A,118.3244,32.2786,滁州市,人大宾馆,,32,32,32,14,13,75,,123,95,16,15,6,7,0.4,0.4
2024-09-24T0000,3207A,118.3118,32.3038,滁州市,市政府原办公楼,,37,37,29,19,17,63,,120,94,22,14,6,6,0.3,0.3
2024-09-24T0000,3331A,118.3267,32.2634,滁州市,图书馆,,38,38,32,14,10,73,,121,99,23,13,4,5,0.3,0.3
2024-09-24T0000,2605A,101.5482,25.0441,楚雄彝族自治州,州环境监测站,,45,45,23,29,18,27,,96,72,36,15,99,18,0.8,0.8
2024-09-24T0000,2606A,101.538,25.0492,楚雄彝族自治州,市经济开发区,,40,39,24,28,19,18,,96,74,42,16,21,26,0.8,0.7
2024-09-24T0000,2548A,107.5277,31.2827,达州市,达州职业技术学院,,39,37,36,27,18,10,,106,56,56,29,5,9,0.6,0.6
2024-09-24T0000,2549A,107.5086,31.2186,达州市,市环境监测站,,35,35,34,19,12,37,,115,79,40,28,6,8,0.4,0.4
2024-09-24T0000,2550A,107.4988,31.2132,达州市,凤凰小区,,39,39,29,19,13,39,,128,91,42,25,7,10,0.5,0.4
2024-09-24T0000,2551A,107.5082,31.1986,达州市,达县机关宾馆,,46,46,29,24,14,16,,119,60,67,37,5,8,0.4,0.4
2024-09-24T0000,2552A,107.4644,31.2124,达州市,市政中心,,44,44,36,27,14,32,,129,84,47,26,4,11,0.4,0.4
2024-09-24T0000,2614A,100.1542,25.7054,大理白族自治州,大理市环境监测站,,25,22,28,17,16,76,,102,87,9,12,7,8,0.6,0.6
2024-09-24T0000,2615A,100.2171,25.5811,大理白族自治州,大理古城,,40,28,21,28,14,54,,96,71,14,9,8,8,0.3,0.3
2024-09-24T0000,1109A,121.612,38.9741,大连市,甘井子,,31,31,30,21,15,62,,108,89,31,28,8,9,0.7,0.7
2024-09-24T0000,1110A,121.565,38.9511,大连市,周水子,,39,32,28,20,16,7,,92,45,78,47,7,8,1.0,0.9
2024-09-24T0000,1111A,121.5637,38.8845,大连市,星海三站,,29,29,25,16,13,32,,109,59,35,22,6,7,0.5,0.4
2024-09-24T0000,1112A,121.6302,38.9117,大连市,青泥洼桥,,29,29,32,15,16,63,,106,65,35,37,7,8,0.3,0.3
2024-09-24T0000,1113A,121.6251,38.8638,大连市,傅家庄,颗粒物(PM10),60,69,52,16,13,76,,113,90,31,23,8,9,0.3,0.3
2024-09-24T0000,1114A,121.5213,38.8661,大连市,七贤岭,,20,20,25,6,11,64,,115,83,11,16,6,7,0.5,0.6
2024-09-24T0000,1115A,121.2529,38.8061,大连市,旅顺,,36,18,22,14,12,115,,125,116,11,15,6,12,0.4,0.4
2024-09-24T0000,1116A,121.7485,39.1311,大连市,金州,,26,26,26,13,14,71,,92,72,20,22,5,6,0.7,0.7
2024-09-24T0000,1117A,121.7811,39.0496,大连市,开发区,细颗粒物(PM2.5),55,51,28,39,15,14,,102,58,68,29,3,4,0.8,0.6
2024-09-24T0000,1118A,121.9762,39.0631,大连市,双D港,,30,21,18,9,8,95,,99,96,19,13,8,9,0.6,0.6
2024-09-24T0000,1789A,124.81117,46.03138,大庆市,大同区,,29,29,34,16,15,56,,78,65,9,10,4,3,0.7,0.7
2024-09-24T0000,1790A,125.129,46.533,大庆市,龙凤区,,35,35,54,11,14,71,,76,70,8,13,5,4,0.4,0.4
2024-09-24T0000,1791A,124.902,46.408,大庆市,红岗区,,30,30,39,19,14,61,,82,71,11,11,5,6,0.4,0.4
2024-09-24T0000,1792A,125.153,46.586,大庆市,萨尔图区,,23,18,32,11,11,73,,78,77,9,11,6,6,0.2,0.3
2024-09-24T0000,1793A,124.9042,46.6215,大庆市,让胡路区,,24,24,26,16,16,65,,80,69,8,12,5,5,0.2,0.2
2024-09-24T0000,3481A,125.141,46.634,大庆市,萨区政府监测点,,26,18,24,12,10,82,,86,84,7,11,7,7,0.5,0.4
2024-09-24T0000,1721A,113.3819,40.1097,大同市,果树场,,36,34,56,25,31,9,,88,51,42,32,6,9,0.6,0.7
2024-09-24T0000,1723A,113.2994,40.0758,大同市,云冈宾馆,颗粒物(PM10),72,93,64,39,23,8,,103,54,62,44,9,12,1.3,0.9
2024-09-24T0000,1724A,113.3444,40.0917,大同市,大同大学,颗粒物(PM10),66,81,50,35,21,34,,107,78,51,32,12,15,1.5,0.6
2024-09-24T0000,1725A,113.2661,40.1269,大同市,安家小村,颗粒物(PM10),55,59,64,27,22,17,,106,82,73,38,12,15,0.7,1.1
2024-09-24T0000,1726A,113.2711,40.0844,大同市,教育学院,颗粒物(PM10),84,118,82,41,31,14,,96,46,69,54,10,12,0.8,1.3
2024-09-24T0000,3282A,113.3397,40.0597,大同市,大同市卫生学校,颗粒物(PM10),89,127,60,47,23,6,,108,60,72,37,9,12,1.1,0.6
2024-09-24T0000,3565A,113.1367,40.1122,大同市,云冈站,颗粒物(PM10),90,129,88,41,32,16,,96,58,33,28,10,14,0.6,0.7
2024-09-24T0000,3566A,113.1186,40.2556,大同市,图书馆,颗粒物(PM10),60,69,55,32,28,14,,104,58,22,21,8,14,0.5,0.5
2024-09-24T0000,3567A,113.5931,40.0461,大同市,区一中,,29,26,33,13,13,92,,114,93,8,15,13,16,0.5,0.6
2024-09-24T0000,3676A,113.2802,40.0995,大同市,第二人民医院,颗粒物(PM10),76,102,72,43,24,7,,106,68,74,38,13,15,1.4,1.2
2024-09-24T0000,2269A,124.1069,50.4097,大兴安岭地区,科技局,,23,17,17,16,15,41,,72,60,5,6,6,6,0.3,0.3
2024-09-24T0000,3663A,124.1164,50.4278,大兴安岭地区,红旗社区,,15,,18,10,10,20,,68,48,12,16,2,2,0.4,0.4
2024-09-24T0000,1600A,124.3303,40.0625,丹东市,江湾东路,颗粒物(PM10),51,51,22,32,11,4,,62,21,30,18,9,11,1.1,0.7
2024-09-24T0000,1601A,124.4256,40.1503,丹东市,临江后街,,43,43,38,20,16,6,,76,25,32,20,6,7,0.7,0.6
2024-09-24T0000,1602A,124.3933,40.1461,丹东市,元宝山,颗粒物(PM10),51,52,18,27,9,18,,64,38,22,12,4,4,0.8,0.7
2024-09-24T0000,1603A,124.3633,40.1092,丹东市,民主桥,,26,26,17,14,7,9,,70,22,32,19,4,5,0.6,0.6
2024-09-24T0000,3541A,109.5726,19.5167,儋州市,第一中学子站,,23,8,9,6,4,71,,74,74,5,5,5,5,0.6,0.8
2024-09-24T0000,3542A,109.5567,19.5187,儋州市,东坡学校子站,,22,10,9,7,5,68,,72,72,4,5,4,4,0.6,0.6
2024-09-24T0000,2616A,98.5842,24.428,德宏傣族景颇族自治州,德宏州监测站,,35,35,35,21,17,45,,82,55,9,15,6,10,0.7,0.6
2024-09-24T0000,3677A,98.5881,24.4368,德宏傣族景颇族自治州,芒市人民政府综合楼,,32,31,25,22,17,40,,87,61,13,13,8,9,0.7,0.6
2024-09-24T0000,1901A,104.4239,31.1208,德阳市,东山公园,颗粒物(PM10),55,59,32,34,18,48,,113,92,25,13,3,3,0.8,0.6
2024-09-24T0000,1902A,104.3826,31.1317,德阳市,西小区,,50,50,32,32,20,63,,106,92,23,14,4,3,0.6,0.5
2024-09-24T0000,1904A,104.3553,31.1091,德阳市,耐火材料厂,颗粒物(PM10),60,70,37,41,20,37,,102,70,29,18,5,4,0.7,0.5
2024-09-24T0000,3639A,104.4019,31.1244,德阳市,市教育局,,47,47,32,29,17,43,,108,90,43,14,3,2,0.6,0.5
2024-09-24T0000,1622A,116.3032,37.4674,德州市,儿童乐园,颗粒物(PM10),54,58,42,27,16,46,,137,100,57,26,9,11,0.7,0.6
2024-09-24T0000,1624A,116.2991,37.4451,德州市,监理站,,48,48,35,27,14,73,,144,115,43,23,12,9,0.4,0.5
2024-09-24T0000,3066A,116.2721,37.4379,德州市,九衢泉纯净水厂,颗粒物(PM10),68,85,46,31,21,13,,133,68,98,44,8,10,0.6,0.5
2024-09-24T0000,3371A,116.3728,37.4403,德州市,开发区人民医院,,48,48,36,24,15,47,,146,98,69,29,10,12,0.5,0.5
2024-09-24T0000,3372A,116.3572,37.4094,德州市,太阳城中学,颗粒物(PM10),54,58,39,29,16,20,,137,76,93,41,12,13,0.5,0.5
2024-09-24T0000,3511A,116.5652,37.3319,德州市,陵城艺术中心,,48,48,36,29,14,10,,124,70,84,36,9,12,0.6,0.6
2024-09-24T0000,2621A,99.7056,27.8317,迪庆藏族自治州,迪庆州站,,25,25,27,17,14,71,,77,66,9,12,8,13,0.4,0.4
2024-09-24T0000,3180A,99.7136,27.8094,迪庆藏族自治州,质量技术监督局,,23,19,24,12,14,72,,76,65,8,11,6,7,0.4,0.4
2024-09-24T0000,2663A,104.6241,35.5734,定西市,东关小学,,44,44,41,21,21,39,,106,73,42,19,6,6,0.3,0.3
2024-09-24T0000,2664A,104.6194,35.5934,定西市,供电公司,,42,42,42,25,26,62,,107,83,19,15,6,7,0.2,0.2
2024-09-24T0000,1389A,113.7547,23.0494,东莞市,莞城梨川,,10,8,13,3,8,31,,58,39,16,12,6,6,0.7,0.7
2024-09-24T0000,1390A,113.7944,23.0128,东莞市,东城石井,,13,10,14,3,8,39,,56,42,12,13,5,4,0.7,0.7
2024-09-24T0000,1391A,113.7383,22.9658,东莞市,南城西平,,12,9,15,3,8,37,,55,38,17,20,5,5,0.8,0.8
2024-09-24T0000,3319A,113.7338,23.0381,东莞市,万江金泰,,10,9,16,3,7,32,,58,39,15,12,7,6,0.5,0.5
2024-09-24T0000,3626A,113.7533,23.0202,东莞市,南城元岭,,13,10,13,6,7,40,,62,44,10,9,6,6,0.7,0.7
2024-09-24T0000,3627A,113.7875,23.0457,东莞市,东城主山,,12,10,12,6,8,38,,59,43,15,15,6,6,0.6,0.6
2024-09-24T0000,1666A,118.6614,37.4309,东营市,市环保局,,44,44,25,22,8,125,,149,140,20,19,10,11,0.6,0.3
2024-09-24T0000,3036A,118.6904,37.4338,东营市,开发区管委会,颗粒物(PM10),54,58,33,27,14,138,,145,140,17,16,12,9,0.6,0.3
2024-09-24T0000,3365A,118.5719,37.565,东营市,垦利区民丰路,,36,36,24,22,12,92,,118,101,24,21,7,7,0.5,0.3
2024-09-24T0000,3498A,118.5055,37.8612,东营市,河口城区,,39,39,33,27,16,120,,142,133,12,18,8,10,0.5,0.4
2024-09-24T0000,3646A,118.4978,37.4623,东营市,胜利站,,39,35,27,27,11,88,,136,119,21,18,9,9,0.7,0.4
2024-09-24T0000,3734A,118.35,37.26,东营市,理想之城,,41,41,26,27,14,64,,138,114,38,22,4,7,0.5,0.2
2024-09-24T0000,1591A,110.0023,39.8129,鄂尔多斯市,综合楼,颗粒物(PM10),64,78,57,22,17,76,,140,118,33,28,16,15,0.7,0.6
2024-09-24T0000,1592A,109.9486,39.8261,鄂尔多斯市,巴音孟克林场办事处,颗粒物(PM10),65,80,52,27,19,75,,131,106,35,30,13,11,0.6,0.5
2024-09-24T0000,1593A,109.7736,39.5986,鄂尔多斯市,康泽苑,颗粒物(PM10),51,51,40,24,15,57,,137,100,30,27,8,9,0.6,0.5
2024-09-24T0000,1594A,109.8119,39.5989,鄂尔多斯市,华泰汽车城,颗粒物(PM10),53,56,41,24,18,47,,131,77,32,32,8,9,0.7,0.6
2024-09-24T0000,1595A,109.9734,39.7884,鄂尔多斯市,奥林花园,颗粒物(PM10),68,85,59,39,19,48,,118,84,47,37,6,5,0.7,0.6
2024-09-24T0000,2436A,114.8938,30.3994,鄂州市,市政府,,43,43,28,14,14,116,,143,123,16,17,13,12,0.9,0.8
2024-09-24T0000,2437A,114.8989,30.3714,鄂州市,赵家坝,,47,47,31,14,14,118,,151,125,14,19,11,10,0.7,0.7
2024-09-24T0000,3654A,114.8094,30.4089,鄂州市,精准医疗中心,颗粒物(PM10),52,54,37,19,16,78,,147,119,43,19,9,9,0.7,0.6
2024-09-24T0000,2454A,109.4978,30.2981,恩施土家族苗族自治州,湖北民院,,50,42,28,35,22,79,,131,104,20,14,9,9,0.8,0.7
2024-09-24T0000,2455A,109.4707,30.2798,恩施土家族苗族自治州,州电力总公司,,46,44,31,32,20,79,,123,99,27,20,9,8,0.9,0.8
2024-09-24T0000,3549A,109.5061,30.3772,恩施土家族苗族自治州,龙凤新区,,42,39,29,29,18,82,,126,100,10,11,7,6,0.9,0.8
2024-09-24T0000,2499A,108.3411,21.6158,防城港市,沙万,,42,42,26,28,22,65,,101,96,39,11,10,8,0.8,0.7
2024-09-24T0000,2500A,108.3514,21.7731,防城港市,防城档案局,颗粒物(PM10),61,72,42,26,18,77,,91,82,23,16,11,9,0.6,0.6
2024-09-24T0000,2501A,108.3506,21.6414,防城港市,大海花园,,36,36,26,22,13,83,,99,97,21,9,7,7,0.9,0.7
2024-09-24T0000,1371A,113.1294,23.0067,佛山市,湾梁,,15,,19,3,7,46,,87,49,21,19,6,6,0.7,0.7
2024-09-24T0000,1372A,113.1083,23.0478,佛山市,华材职中,,18,,19,10,9,27,,81,37,35,23,6,7,0.5,0.5
2024-09-24T0000,1373A,113.144,23.0453,佛山市,南海气象局,,14,,22,6,9,42,,82,43,17,15,6,6,0.5,0.5
2024-09-24T0000,1374A,113.2881,22.8094,佛山市,顺德苏岗,,13,6,16,3,9,20,,58,26,25,20,7,7,0.7,0.7
2024-09-24T0000,1376A,112.8383,22.8678,佛山市,高明孔堂,,16,12,22,11,11,49,,72,52,15,16,4,5,0.4,0.4
2024-09-24T0000,1377A,112.8836,23.1588,佛山市,三水监测站,,20,,13,14,7,47,,77,57,16,15,5,7,0.6,0.5
2024-09-24T0000,1378A,112.867,23.185,佛山市,三水云东海,,15,,16,6,12,48,,77,57,14,14,6,7,0.6,0.6
2024-09-24T0000,3625A,113.2544,22.7642,佛山市,容桂街道办,,13,7,12,7,12,23,,63,27,25,21,6,6,0.8,0.7
2024-09-24T0000,1280A,119.3903,26.0543,福州市,鼓山,,,,5,,,,,80,,,4,,2,,0.6
2024-09-24T0000,1282A,119.2681,26.0504,福州市,师大,,19,6,9,3,2,60,,68,58,8,11,2,2,0.8,0.7
2024-09-24T0000,1283A,119.2984,26.1028,福州市,五四北路,,16,6,9,3,2,51,,73,58,12,10,3,3,0.7,0.6
2024-09-24T0000,1284A,119.2648,26.0768,福州市,杨桥西路,,19,7,9,3,2,60,,72,60,9,10,3,3,0.8,0.7
2024-09-24T0000,1285A,119.317,26.0746,福州市,紫阳,,16,6,11,3,4,50,,60,46,14,17,3,3,0.4,0.3
2024-09-24T0000,3048A,119.5799,26.0936,福州市,九龙,,19,9,11,3,1,58,,66,60,5,7,6,6,0.7,0.6
2024-09-24T0000,3526A,119.5189,25.9664,福州市,吴航,,17,15,10,10,7,52,,78,60,14,9,6,6,0.6,0.5
2024-09-24T0000,1755A,123.7977,41.8491,抚顺市,望花区,细颗粒物(PM2.5),63,69,59,45,21,18,,81,47,41,31,10,13,3.0,0.9
2024-09-24T0000,1756A,123.9161,41.8822,抚顺市,顺城区,颗粒物(PM10),58,66,43,28,17,6,,78,23,36,31,7,8,1.0,0.7
2024-09-24T0000,1757A,124.0436,41.8611,抚顺市,东洲区,,46,46,35,27,15,14,,80,37,26,21,10,12,0.9,0.6
2024-09-24T0000,1758A,123.9247,41.8642,抚顺市,新抚区,颗粒物(PM10),55,59,50,20,18,5,,84,30,36,31,4,5,0.7,0.5
2024-09-24T0000,1759A,124.0972,41.8961,抚顺市,大伙房水库,,28,28,23,14,10,18,,96,52,22,13,6,7,0.6,0.5
2024-09-24T0000,1760A,123.7086,41.8391,抚顺市,沈抚新城,细颗粒物(PM2.5),58,59,54,41,24,14,,85,43,45,37,10,14,0.9,0.8
2024-09-24T0000,2376A,116.2127,28.0814,抚州市,桐源党溪,,32,32,37,21,15,51,,96,64,10,5,10,6,0.5,0.7
2024-09-24T0000,2377A,116.3544,27.9831,抚州市,市站,,28,28,29,12,13,68,,85,71,10,10,4,3,1.0,1
2024-09-24T0000,2378A,116.3565,27.963,抚州市,血防站,,23,21,30,12,13,73,,91,76,11,11,4,5,0.7,0.7
2024-09-24T0000,2379A,116.3564,28.0007,抚州市,采茶剧团,,26,26,27,14,13,65,,89,72,7,5,7,6,0.4,0.7
2024-09-24T0000,2380A,116.385,27.9647,抚州市,医学分院,,24,24,29,9,12,73,,88,74,6,6,5,5,0.8,0.9
2024-09-24T0000,2207A,121.6094,41.998,阜新市,工业园区,,41,41,43,20,16,38,,118,86,35,19,18,18,0.7,0.6
2024-09-24T0000,2208A,121.6697,42.0279,阜新市,长青街,,39,39,44,22,19,62,,110,95,38,20,17,14,0.6,0.8
2024-09-24T0000,2209A,121.6673,42.0705,阜新市,农业园区,细颗粒物(PM2.5),58,,36,41,20,71,,108,95,22,17,15,13,0.4,0.4
2024-09-24T0000,2210A,121.6717,42.0224,阜新市,东苑,,31,31,54,21,20,77,,106,94,20,21,16,18,0.6,0.9
2024-09-24T0000,2211A,121.6506,42.0498,阜新市,玉龙新城,,38,38,39,22,16,17,,119,84,38,20,9,14,0.6,0.7
2024-09-24T0000,2301A,115.8277,32.8929,阜阳市,市监测站,颗粒物(PM10),55,59,47,38,26,63,,136,101,29,20,9,8,0.5,0.4
2024-09-24T0000,2303A,115.8554,32.8605,阜阳市,开发区,颗粒物(PM10),67,84,58,43,26,48,,134,97,39,24,8,8,0.7,0.6
2024-09-24T0000,2875A,115.784,32.8892,阜阳市,阜阳职业技术学院,,50,50,45,25,22,68,,140,108,26,19,6,8,0.5,0.4
2024-09-24T0000,3468A,115.7901,32.8613,阜阳市,市规划展馆,"颗粒物(PM10),细颗粒物(PM2.5)",54,58,44,38,24,75,,142,111,31,21,8,9,0.4,0.4
2024-09-24T0000,3469A,115.836,32.9183,阜阳市,枣园社区,颗粒物(PM10),60,70,47,37,25,18,,139,96,69,28,8,9,0.6,0.5
2024-09-24T0000,2669A,102.9099,34.9841,甘南藏族自治州,州政府,,37,37,30,24,20,12,,95,59,36,13,10,10,0.4,0.4
2024-09-24T0000,3380A,102.8914,34.9617,甘南藏族自治州,甘肃民族师范学院,颗粒物(PM10),58,66,39,17,16,1,,87,41,34,16,4,4,0.6,0.6
2024-09-24T0000,2570A,101.9603,30.0475,甘孜藏族自治州,水桥子,,23,20,10,3,4,15,,84,52,46,22,5,5,0.4,0.4
2024-09-24T0000,3065A,101.9533,29.9972,甘孜藏族自治州,州环保局,,17,17,10,8,4,41,,80,55,26,21,3,3,0.3,0.3
2024-09-24T0000,3414A,115.8347,28.932,赣江新区,桑海产业园,,31,31,39,14,14,68,,130,107,21,12,10,12,0.3,0.3
2024-09-24T0000,2362A,114.9017,25.9149,赣州市,通天岩,,30,23,29,21,20,59,,86,69,3,3,6,7,0.4,0.4
2024-09-24T0000,2363A,114.9367,25.8664,赣州市,地委,,36,36,33,23,22,73,,90,88,10,8,14,9,0.8,0.8
2024-09-24T0000,2364A,114.9461,25.8481,赣州市,气象台,,35,28,34,24,20,56,,86,81,15,9,2,4,0.9,0.9
2024-09-24T0000,2365A,114.9322,25.8333,赣州市,市图书馆,,37,37,35,18,17,69,,98,94,14,7,3,4,0.6,0.6
2024-09-24T0000,2366A,114.8905,25.8471,赣州市,华坚鞋城,,37,37,37,24,19,83,,89,88,8,8,5,4,0.5,0.4
2024-09-24T0000,3109A,115.0093,25.8613,赣州市,赣县区卫计委,,28,28,28,18,17,43,,88,65,17,9,5,6,0.6,0.6
2024-09-24T0000,2683A,106.2319,36.1417,固原市,马园,,42,,30,29,18,61,,111,94,40,26,7,6,1.0,0.8
2024-09-24T0000,2684A,106.2792,36.0022,固原市,监测站,细颗粒物(PM2.5),52,44,36,36,24,49,,85,,25,14,4,4,0.3,0.3
2024-09-24T0000,2685A,106.2375,36.0211,固原市,新区,,44,44,46,25,22,70,,119,102,24,21,5,6,0.4,0.4
2024-09-24T0000,3522A,106.2177,35.9959,固原市,原州区十五小,颗粒物(PM10),54,58,44,30,23,94,,124,111,12,19,5,5,0.7,0.6
2024-09-24T0000,2543A,106.6308,30.5278,广安市,小平旧居,,,,,,,,,,,,,,,,
2024-09-24T0000,2544A,106.6303,30.4576,广安市,市委,颗粒物(PM10),52,53,32,33,21,61,,137,106,23,15,1,2,0.5,0.4
2024-09-24T0000,2545A,106.6271,30.4663,广安市,友谊中学,,40,40,28,27,20,63,,136,105,21,16,3,4,0.6,0.5
2024-09-24T0000,2547A,106.6388,30.4551,广安市,广电花园,颗粒物(PM10),51,51,31,31,19,66,,138,108,19,14,3,3,0.5,0.4
2024-09-24T0000,2902A,106.6351,30.4865,广安市,北辰小学,,45,45,36,29,20,77,,138,110,14,12,5,5,0.5,0.4
2024-09-24T0000,2523A,105.8945,32.4535,广元市,黑石坡,,40,38,25,28,16,75,,116,105,14,12,10,8,0.5,0.4
2024-09-24T0000,2524A,105.821,32.4444,广元市,老城,,36,36,28,14,14,16,,121,63,62,29,1,3,0.8,0.7
2024-09-24T0000,2526A,105.8628,32.4287,广元市,监测站,,48,,24,33,18,64,,122,93,13,13,2,3,0.7,0.6
2024-09-24T0000,3617A,105.8047,32.4166,广元市,经开区,,49,49,36,30,21,13,,127,74,57,23,7,8,0.8,0.6
2024-09-24T0000,1345A,113.2347,23.1423,广州市,广雅中学,,16,10,21,6,13,32,,81,41,32,22,5,5,0.7,0.7
2024-09-24T0000,1346A,113.2612,23.105,广州市,市五中,,14,10,22,3,10,43,,87,50,16,13,4,4,0.8,0.7
2024-09-24T0000,1348A,113.3478,23.0916,广州市,广东商学院,,11,6,17,3,11,31,,78,37,21,15,3,4,0.6,0.6
2024-09-24T0000,1349A,113.4332,23.1047,广州市,市八十六中,,12,10,17,6,9,32,,65,33,23,18,3,3,0.6,0.5
2024-09-24T0000,1350A,113.3505,22.9483,广州市,番禺中学,,15,10,19,3,8,24,,66,34,30,19,4,4,0.7,0.6
2024-09-24T0000,1351A,113.2146,23.3916,广州市,花都师范,,,,23,,7,,,79,,,10,,5,,0.6
2024-09-24T0000,1352A,113.2597,23.1331,广州市,市监测站,,,,23,,15,,,79,,,14,,5,,0.6
2024-09-24T0000,1353A,113.5618,23.312,广州市,九龙镇镇龙,,12,6,14,3,9,38,,65,41,12,11,6,6,0.7,0.7
2024-09-24T0000,1354A,113.2765,23.1544,广州市,麓湖,,12,6,19,3,11,38,,68,45,20,19,5,5,0.5,0.5
2024-09-24T0000,1355A,113.443,23.3035,广州市,帽峰山森林公园,,15,,12,3,9,48,,87,52,9,7,5,6,0.3,0.4
2024-09-24T0000,2846A,113.3221,23.1322,广州市,体育西,,12,8,18,3,9,24,,76,37,24,15,4,4,0.6,0.6
2024-09-24T0000,3298A,113.5717,23.5491,广州市,从化街口,,16,6,13,3,6,51,,86,55,12,8,8,8,0.7,0.6
2024-09-24T0000,3299A,113.3472,23.3692,广州市,白云竹料,,19,6,15,3,9,59,,91,60,8,8,5,5,0.6,0.6
2024-09-24T0000,3300A,113.2981,23.237,广州市,白云嘉禾,,16,10,20,3,11,36,,79,42,32,25,6,6,0.9,0.8
2024-09-24T0000,3301A,113.4256,23.1716,广州市,黄埔科学城,,12,6,18,3,11,36,,76,43,14,10,6,5,0.6,0.7
2024-09-24T0000,3302A,113.3942,23.0483,广州市,番禺大学城,,17,17,16,3,10,32,,62,29,18,18,5,5,0.4,0.4
2024-09-24T0000,3303A,113.4922,22.8168,广州市,南沙黄阁,,13,12,17,8,13,32,,56,34,26,24,6,7,0.7,0.6
2024-09-24T0000,3304A,113.5342,22.7896,广州市,南沙街,,16,,19,11,13,27,,53,31,24,21,6,7,0.6,0.7
2024-09-24T0000,3443A,113.2902,23.5544,广州市,花都梯面,,21,6,15,3,10,66,,76,64,7,7,5,6,0.6,0.6
2024-09-24T0000,3445A,113.7858,23.7478,广州市,从化良口,,16,6,13,3,6,51,,81,53,8,7,7,6,0.7,0.7
2024-09-24T0000,3446A,113.8051,23.2614,广州市,增城荔城,,16,6,10,3,5,50,,67,54,8,9,5,5,0.6,0.6
2024-09-24T0000,2505A,109.568,23.1478,贵港市,德智高中,,,,,,,,,,,,,,,,
2024-09-24T0000,2506A,109.6047,23.0666,贵港市,江南子站,,36,36,36,21,16,87,,121,102,13,10,10,8,0.6,0.6
2024-09-24T0000,2507A,109.6014,23.0948,贵港市,贵城子站,,39,39,36,26,24,83,,117,99,13,9,9,7,0.7,0.7
2024-09-24T0000,2508A,109.5669,23.1065,贵港市,荷城子站,,36,36,37,19,14,90,,114,100,7,8,10,10,0.5,0.5
2024-09-24T0000,3405A,109.5886,23.1172,贵港市,新世纪学校,,36,36,37,23,20,82,,115,95,6,6,7,8,1.0,0.9
2024-09-24T0000,1439A,106.6899,26.5998,贵阳市,马鞍山,,48,48,28,29,12,45,,111,85,19,10,6,8,0.6,0.4
2024-09-24T0000,1440A,106.6971,26.5694,贵阳市,市环保站,,39,39,28,25,20,104,,126,115,15,8,5,5,0.5,0.5
2024-09-24T0000,1441A,106.6243,26.6266,贵阳市,鉴湖路,,,34,35,24,17,,,115,,11,8,6,8,0.6,0.4
2024-09-24T0000,1442A,106.7487,26.6343,贵阳市,燕子冲,,39,,22,27,20,99,,121,110,9,7,6,7,0.4,0.3
2024-09-24T0000,1443A,106.6555,26.4365,贵阳市,碧云窝,,39,39,50,19,15,93,,122,106,16,13,6,5,0.4,0.3
2024-09-24T0000,1444A,106.694,26.5161,贵阳市,中院村,,41,41,31,19,17,104,,122,109,14,10,8,6,0.5,0.4
2024-09-24T0000,1445A,106.7109,26.6027,贵阳市,红边门,,49,46,32,34,23,95,,119,106,17,12,5,5,0.5,0.5
2024-09-24T0000,1446A,106.7164,26.5699,贵阳市,新华路,,39,34,28,27,17,101,,124,117,14,9,13,8,0.3,0.3
2024-09-24T0000,1447A,106.674,26.5424,贵阳市,太慈桥,,39,39,26,22,15,66,,123,106,33,10,5,5,0.4,0.3
2024-09-24T0000,1552A,106.805,26.3003,贵阳市,桐木岭,,,,46,,23,,,121,,,6,,4,,0.5
2024-09-24T0000,1862A,110.4144,25.3167,桂林市,电子科大尧山校区,,40,28,32,19,16,128,,124,124,7,7,4,5,0.7,0.7
2024-09-24T0000,1863A,110.2819,25.2697,桂林市,监测站,,36,36,36,19,16,112,,114,108,10,10,9,8,0.7,0.6
2024-09-24T0000,1864A,110.3089,25.2708,桂林市,龙隐路小学,,35,31,31,23,17,112,,120,116,8,6,11,10,0.5,0.5
2024-09-24T0000,1865A,110.2869,25.2178,桂林市,八中,,37,32,34,19,14,116,,120,114,10,9,10,9,0.6,0.5
2024-09-24T0000,3403A,110.1764,25.2381,桂林市,创业大厦,,48,48,40,19,24,108,,108,105,8,7,9,8,0.4,0.4
2024-09-24T0000,3531A,110.296,25.1253,桂林市,旅游学院,,,36,32,24,16,,,123,121,7,6,8,7,0.4,0.4
2024-09-24T0000,2674A,100.2561,34.4714,果洛藏族自治州,玛沁县大武镇,,40,40,29,14,13,34,,111,86,26,7,9,9,0.5,0.4
2024-09-24T0000,1129A,126.5422,45.755,哈尔滨市,岭北,,30,22,23,11,12,93,,113,98,18,20,7,7,0.7,0.6
2024-09-24T0000,1130A,126.561,45.8167,哈尔滨市,松北商大,,33,33,31,11,11,17,,84,54,55,31,7,8,0.5,0.4
2024-09-24T0000,1131A,126.979,45.5419,哈尔滨市,阿城会宁,,32,32,25,12,10,12,,82,34,33,18,12,12,0.5,0.5
2024-09-24T0000,1132A,126.599,45.7222,哈尔滨市,南岗学府路,颗粒物(PM10),60,70,66,17,19,27,,86,30,41,41,10,9,0.5,0.5
2024-09-24T0000,1133A,126.689,45.7733,哈尔滨市,太平宏伟公园,,36,36,48,16,16,50,,81,48,25,34,9,10,0.6,0.6
2024-09-24T0000,1134A,126.635,45.7667,哈尔滨市,道外承德广场,,38,38,44,14,16,57,,80,50,26,40,8,6,0.2,0.3
2024-09-24T0000,1135A,126.685,45.7319,哈尔滨市,香坊红旗大街,,31,31,47,13,16,38,,82,46,39,40,9,11,0.6,0.6
2024-09-24T0000,1136A,126.6411,45.7258,哈尔滨市,动力和平路,,,41,40,16,16,,,85,55,22,33,14,12,0.5,0.6
2024-09-24T0000,1137A,126.593,45.7478,哈尔滨市,道里建国路,,43,43,35,16,13,30,,86,48,55,33,13,9,1.7,1
2024-09-24T0000,1138A,126.615,45.61,哈尔滨市,平房东轻厂,,26,26,30,10,10,58,,88,67,18,20,9,7,0.6,0.5
2024-09-24T0000,1139A,126.595,45.9855,哈尔滨市,呼兰师专,,45,45,41,20,14,22,,71,43,57,40,9,8,0.7,0.6
2024-09-24T0000,1140A,126.6206,45.6842,哈尔滨市,省农科院,,47,47,71,19,22,7,,72,20,66,47,7,6,0.7,0.7
2024-09-24T0000,2688A,93.5128,42.8172,哈密市,地区监测站,,28,27,127,15,38,89,,97,95,7,35,8,8,0.2,0.3
2024-09-24T0000,2689A,93.4961,42.8328,哈密市,哈密师范学校,,32,32,103,16,35,93,,91,90,7,39,4,5,0.3,0.6
2024-09-24T0000,2671A,100.9048,36.9639,海北藏族自治州,海晏县西海镇,,19,,14,13,14,55,,102,85,10,8,13,15,0.3,0.4
2024-09-24T0000,3867A,102.0738,36.5056,海东市,平安区公安北苑,,41,41,27,23,13,49,,114,88,5,15,6,10,0.4,0.6
2024-09-24T0000,1409A,110.576,19.9507,海口市,东寨港,,,,,,,,,,,,,,,,
2024-09-24T0000,1410A,110.3232,20.0574,海口市,海南大学,,20,10,16,7,8,64,,76,72,7,7,6,6,0.5,0.5
2024-09-24T0000,1411A,110.283,20.0053,海口市,秀英海南医院,,,,14,,8,,,56,,,10,,4,,0.4
2024-09-24T0000,1412A,110.338,19.9969,海口市,海南师范大学,,20,,14,9,9,61,,72,,8,8,5,5,0.5,0.6
2024-09-24T0000,1413A,110.33,20.0356,海口市,龙华路环保局宿舍,,20,10,14,8,8,61,,72,68,8,8,4,4,0.5,0.4
2024-09-24T0000,3539A,110.5111,19.9736,海口市,桂林洋子站,,23,,20,16,16,60,,81,74,8,7,5,5,0.5,0.3
2024-09-24T0000,2673A,100.6188,36.2866,海南藏族自治州,共和县恰卜恰镇,,31,31,28,11,9,57,,101,73,13,13,15,12,0.5,0.5
2024-09-24T0000,2676A,97.3731,37.3753,海西蒙古族藏族自治州,德令哈市,,28,25,21,19,13,63,,106,80,9,10,10,9,0.4,0.4
2024-09-24T0000,1048A,114.5302,36.6116,邯郸市,东污水处理厂,细颗粒物(PM2.5),70,69,45,51,20,102,,131,113,28,32,4,3,0.6,0.6
2024-09-24T0000,1049A,114.4918,36.5713,邯郸市,矿院,细颗粒物(PM2.5),89,104,44,66,16,66,,135,110,30,30,6,4,0.3,0.3
2024-09-24T0000,1050A,114.484,36.6133,邯郸市,丛台公园,细颗粒物(PM2.5),65,57,38,47,19,104,,128,120,21,27,6,4,0.5,0.7
2024-09-24T0000,3458A,114.7895,36.5593,邯郸市,香泉濮院小区,颗粒物(PM10),65,79,52,43,20,81,,136,116,38,31,4,4,0.6,0.4
2024-09-24T0000,3579A,114.50634,36.77178,邯郸市,永年区实验高中,颗粒物(PM10),67,83,61,39,24,72,,150,124,44,33,5,5,0.9,0.7
2024-09-24T0000,3580A,114.20016,36.44293,邯郸市,峰峰矿区临水派出所,,,73,42,24,13,,,143,125,19,12,7,7,0.8,0.8
2024-09-24T0000,2634A,106.9893,33.1842,汉中市,汉川机床厂子校,,40,,26,28,18,68,,121,103,7,6,4,5,0.4,0.6
2024-09-24T0000,2635A,107.0154,33.0706,汉中市,市监测站,,35,35,34,20,17,72,,126,106,10,9,8,8,0.5,0.4
2024-09-24T0000,2636A,107.0089,33.1138,汉中市,鑫源开发区,,36,36,32,23,19,75,,125,97,13,11,10,9,0.4,0.4
2024-09-24T0000,2637A,107.007,33.0323,汉中市,南郑大河坎水厂,颗粒物(PM10),53,55,37,33,22,60,,124,92,13,13,9,9,0.5,0.5
2024-09-24T0000,1223A,120.2072,30.2111,杭州市,滨江,,46,46,38,21,13,39,,87,60,35,23,5,5,0.7,0.6
2024-09-24T0000,1224A,120.0633,30.2747,杭州市,西溪,,42,42,29,20,14,60,,104,75,27,23,5,6,0.9,0.8
2024-09-24T0000,1226A,120.3461,30.3153,杭州市,下沙,,46,42,35,32,17,50,,102,74,52,36,6,7,0.8,0.7
2024-09-24T0000,1227A,120.1269,30.2456,杭州市,卧龙桥,,34,34,28,19,15,36,,104,71,21,20,5,6,0.5,0.5
2024-09-24T0000,1228A,120.1903,30.2692,杭州市,浙江农大,,34,34,29,20,15,52,,97,70,32,28,8,8,0.7,0.7
2024-09-24T0000,1230A,120.1197,30.3119,杭州市,和睦小学,,39,39,29,25,14,58,,110,83,32,25,6,6,0.8,0.7
2024-09-24T0000,1231A,120.3019,30.4183,杭州市,临平镇,颗粒物(PM10),55,59,43,27,16,45,,112,68,42,24,5,5,0.8,0.7
2024-09-24T0000,1232A,120.2697,30.1819,杭州市,城厢镇,,43,42,33,30,19,38,,86,59,32,24,6,6,0.7,0.6
2024-09-24T0000,1233A,120.0883,30.1808,杭州市,云栖,,23,21,21,16,11,19,,99,52,25,20,6,6,0.7,0.7
2024-09-24T0000,3557A,119.9464,30.0494,杭州市,镇二中,,36,29,23,25,13,68,,96,86,23,18,8,8,0.6,0.6
2024-09-24T0000,3558A,119.7183,30.2367,杭州市,市府大楼,,36,36,24,18,14,97,,125,105,13,13,6,7,0.5,0.5
2024-09-24T0000,3656A,120.1556,30.2864,杭州市,消防大队,,46,46,32,26,14,57,,104,84,26,18,8,8,0.7,0.7
2024-09-24T0000,1270A,117.1959,31.7848,合肥市,明珠广场,,26,24,30,9,11,83,,124,106,21,20,7,7,0.6,0.6
2024-09-24T0000,1271A,117.3072,31.8764,合肥市,三里街,,27,27,29,9,12,65,,108,95,22,17,8,8,0.3,0.4
2024-09-24T0000,1272A,117.2588,31.8707,合肥市,琥珀山庄,,31,31,32,14,15,82,,115,103,16,18,7,8,0.3,0.4
2024-09-24T0000,1273A,117.1604,31.9052,合肥市,董铺水库,,41,41,40,14,14,68,,103,87,16,14,3,4,0.4,0.4
2024-09-24T0000,1274A,117.25,31.8571,合肥市,长江中路,,29,29,36,13,16,78,,115,104,20,17,9,9,0.4,0.4
2024-09-24T0000,1275A,117.266,31.9436,合肥市,庐阳区,,39,39,43,14,14,72,,118,99,22,18,4,4,0.4,0.4
2024-09-24T0000,1276A,117.336,31.8586,合肥市,瑶海区,,31,31,31,10,11,78,,108,98,21,18,7,8,0.3,0.3
2024-09-24T0000,1277A,117.3027,31.7964,合肥市,包河区,,34,34,32,12,14,38,,107,68,56,45,12,11,0.5,0.5
2024-09-24T0000,1278A,117.2776,31.7385,合肥市,滨湖新区,,29,29,29,9,10,78,,112,96,22,21,5,5,0.5,0.5
2024-09-24T0000,1279A,117.1318,31.8403,合肥市,高新区,,31,31,37,12,18,71,,109,93,25,24,8,8,0.6,0.7
2024-09-24T0000,3464A,117.3803,31.9147,合肥市,高教基地,,27,27,27,12,14,56,,114,92,22,10,4,4,0.4,0.4
2024-09-24T0000,3614A,79.924,37.0877,和田地区,地区环保局,细颗粒物(PM2.5),185,306,221,139,75,88,,107,95,23,12,10,7,0.9,0.5
2024-09-24T0000,3615A,79.9131,37.113,和田地区,市环保局,颗粒物(PM10),239,377,278,131,78,20,,98,74,75,31,9,8,1.2,0.7
2024-09-24T0000,2516A,108.2011,24.715,河池市,东仁乐园,,26,26,28,13,10,36,,125,75,18,9,5,6,0.5,0.4
2024-09-24T0000,2517A,108.0497,24.6947,河池市,市环保站,,35,35,24,20,10,41,,128,87,27,11,9,9,0.6,0.5
2024-09-24T0000,2518A,108.0983,24.6989,河池市,市疾控中心,,48,45,25,33,14,41,,133,86,28,12,10,10,0.6,0.4
2024-09-24T0000,1696A,114.6778,23.7569,河源市,源西,,17,6,10,3,10,54,,71,60,9,8,4,4,0.6,0.6
2024-09-24T0000,1697A,114.6944,23.7586,河源市,东埔,,16,,14,6,10,50,,64,56,16,12,2,2,0.7,0.7
2024-09-24T0000,1698A,114.6892,23.7233,河源市,老城,,18,9,12,3,3,56,,67,59,8,9,2,2,0.7,0.7
2024-09-24T0000,1718A,115.4208,35.2464,菏泽市,气象局,颗粒物(PM10),56,62,58,33,27,118,,160,134,29,34,7,12,0.4,0.4
2024-09-24T0000,1719A,115.4747,35.2375,菏泽市,市政协,颗粒物(PM10),67,83,60,40,30,75,,157,128,41,26,6,10,0.4,0.4
2024-09-24T0000,3374A,115.5564,35.0891,菏泽市,定陶老年大学,细颗粒物(PM2.5),62,70,60,44,29,83,,158,121,36,28,8,10,0.4,0.4
2024-09-24T0000,3647A,115.4702,35.2706,菏泽市,菏泽医专,颗粒物(PM10),68,85,63,48,32,76,,160,121,58,35,4,13,0.5,0.5
2024-09-24T0000,2514A,111.5264,24.4172,贺州市,环保小区,,37,37,39,24,21,92,,104,84,11,12,8,5,0.6,0.6
2024-09-24T0000,2515A,111.5608,24.4078,贺州市,政协大楼,,35,35,38,24,20,98,,110,94,10,12,8,6,0.6,0.6
2024-09-24T0000,3534A,111.4744,24.4553,贺州市,西湾,,40,33,34,28,18,82,,101,92,9,10,7,7,0.6,0.6
2024-09-24T0000,2385A,114.17,35.9019,鹤壁市,市监测站,颗粒物(PM10),58,66,43,30,17,35,,148,98,29,18,3,5,0.7,0.7
2024-09-24T0000,2386A,114.2956,35.7511,鹤壁市,市交警支队,颗粒物(PM10),61,71,38,29,14,44,,143,92,74,37,4,5,0.5,0.5
2024-09-24T0000,2387A,114.2878,35.7306,鹤壁市,迎宾馆,颗粒物(PM10),56,61,36,26,17,48,,144,97,75,32,5,4,0.6,0.5
2024-09-24T0000,3474A,114.2617,35.6822,鹤壁市,大新区,颗粒物(PM10),61,72,39,38,18,11,,139,76,107,31,7,7,0.5,0.4
2024-09-24T0000,3596A,114.1572,35.9603,鹤壁市,南山宾馆,细颗粒物(PM2.5),70,68,31,51,24,79,,143,110,17,13,5,3,0.6,0.4
2024-09-24T0000,2244A,130.2537,47.3416,鹤岗市,哈啤分公司,,33,30,26,23,18,45,,77,62,13,14,14,14,0.7,0.7
2024-09-24T0000,2245A,130.2684,47.3086,鹤岗市,斯达机电,,35,33,32,24,18,54,,77,67,16,14,12,12,0.3,0.3
2024-09-24T0000,2246A,130.3114,47.3388,鹤岗市,东山纸板厂,颗粒物(PM10),79,108,65,34,25,17,,64,36,37,26,17,18,0.5,0.7
2024-09-24T0000,2247A,130.1097,47.3382,鹤岗市,五号水库,,13,13,16,6,8,30,,82,44,7,6,16,16,0.4,0.4
2024-09-24T0000,2263A,127.4833,50.2524,黑河市,交通局,,34,34,27,23,17,50,,72,58,11,13,7,7,0.3,0.3
2024-09-24T0000,2264A,127.5144,50.2341,黑河市,环保局,,25,20,22,17,12,60,,83,70,7,8,3,4,0.4,0.4
2024-09-24T0000,2265A,127.5291,50.2472,黑河市,大黑河岛,,,,55,16,12,55,,69,56,9,10,2,2,0.2,0.1
2024-09-24T0000,1074A,115.6838,37.7541,衡水市,电机北厂,,43,38,35,30,17,121,,133,119,20,21,8,7,0.5,0.3
2024-09-24T0000,1075A,115.6303,37.7316,衡水市,市监测站,,42,42,34,21,10,102,,133,116,29,31,8,7,0.5,0.4
2024-09-24T0000,3188A,115.6683,37.7217,衡水市,市城管局,,50,47,37,35,15,97,,137,118,37,26,5,4,0.5,0.4
2024-09-24T0000,3459A,115.5989,37.5491,衡水市,地表水厂,,49,49,32,28,16,48,,126,82,52,35,6,6,0.6,0.4
2024-09-24T0000,2456A,112.5003,26.9167,衡阳市,原169医院,,34,34,33,16,16,108,,133,117,21,15,12,11,0.5,0.5
2024-09-24T0000,2457A,112.6194,26.9258,衡阳市,衡阳化工总厂,,39,39,40,24,13,114,,132,124,10,11,15,11,0.6,0.6
2024-09-24T0000,2458A,112.6211,26.8956,衡阳市,珠晖区环保局,,38,38,39,19,19,112,,133,125,16,14,8,10,0.7,0.7
2024-09-24T0000,2459A,112.6197,26.8733,衡阳市,市委党校,,40,35,37,18,17,128,,141,136,11,12,12,12,0.6,0.6
2024-09-24T0000,2460A,112.6006,26.8919,衡阳市,市监测站,,40,39,40,24,22,128,,142,137,10,10,11,9,0.7,0.6
2024-09-24T0000,2461A,112.5664,26.9056,衡阳市,真空机电公司,,41,41,37,20,16,120,,139,134,11,9,14,9,0.7,0.6
2024-09-24T0000,3399A,112.6703,26.882,衡阳市,师范学院,,42,38,40,26,22,132,,140,133,11,13,9,10,0.6,0.7
2024-09-24T0000,2608A,103.3772,23.3993,红河哈尼族彝族自治州,污水处理厂,,27,19,20,18,21,85,,82,77,5,7,5,6,0.4,0.4
2024-09-24T0000,2609A,103.3861,23.35,红河哈尼族彝族自治州,监测站,,42,29,29,29,18,52,,89,72,14,8,10,10,0.5,0.5
2024-09-24T0000,3038A,103.3758,23.368,红河哈尼族彝族自治州,州图书馆,,24,22,26,14,15,74,,82,74,6,7,7,9,0.4,0.5
2024-09-24T0000,1090A,111.6507,40.7517,呼和浩特市,呼市一监,,,,42,,26,,,109,,,26,,9,,0.6
2024-09-24T0000,1091A,111.6572,40.8033,呼和浩特市,小召,颗粒物(PM10),69,88,57,36,26,16,,105,75,73,38,8,10,0.9,0.7
2024-09-24T0000,1094A,111.7516,40.8369,呼和浩特市,如意水处理厂,颗粒物(PM10),64,77,56,26,24,6,,102,64,74,38,7,8,0.6,0.5
2024-09-24T0000,1095A,111.7276,40.8062,呼和浩特市,二十九中,颗粒物(PM10),63,76,53,36,28,8,,104,60,79,44,5,8,0.8,0.7
2024-09-24T0000,1096A,111.5512,40.7866,呼和浩特市,工大金川校区,颗粒物(PM10),57,63,60,26,25,25,,99,59,70,46,3,5,0.6,0.6
2024-09-24T0000,1097A,111.717,40.7612,呼和浩特市,化肥厂生活区,颗粒物(PM10),66,82,64,32,26,30,,104,64,59,40,11,11,0.8,0.8
2024-09-24T0000,3698A,111.5968,40.8178,呼和浩特市,红旗小学,颗粒物(PM10),63,75,59,30,26,7,,98,59,84,49,5,6,0.6,0.5
2024-09-24T0000,3699A,111.6518,40.8389,呼和浩特市,海东办,颗粒物(PM10),52,53,54,29,27,5,,101,56,97,49,6,7,0.6,0.6
2024-09-24T0000,2192A,119.7594,49.2261,呼伦贝尔市,区环保局,,49,49,38,22,17,17,,68,26,29,24,8,7,0.3,0.5
2024-09-24T0000,3061A,119.7512,49.1577,呼伦贝尔市,国华电力东,,30,30,26,17,14,27,,73,39,22,14,3,4,0.4,0.4
2024-09-24T0000,1250A,120.0751,30.8669,湖州市,城西水厂,,24,24,30,10,13,74,,141,112,16,24,4,5,0.3,0.4
2024-09-24T0000,2873A,120.0875,30.8955,湖州市,仁皇山新区,,25,25,29,10,13,66,,144,111,20,20,6,7,0.4,0.5
2024-09-24T0000,2907A,120.1844,30.8596,湖州市,吴兴区站,,20,20,27,10,13,57,,125,93,17,16,6,6,0.4,0.4
2024-09-24T0000,3562A,120.4148,30.8538,湖州市,南浔区站,,25,25,27,12,12,53,,136,101,28,16,7,7,0.4,0.4
2024-09-24T0000,1607A,120.9092,40.7136,葫芦岛市,龙港区,,30,23,33,19,18,96,,127,125,23,23,13,25,0.7,0.7
2024-09-24T0000,1608A,120.8392,40.7514,葫芦岛市,化工街,颗粒物(PM10),51,51,44,17,17,67,,118,104,52,31,19,58,0.7,0.4
2024-09-24T0000,1609A,120.8341,40.7073,葫芦岛市,新区,,42,38,40,29,21,88,,129,121,37,37,12,17,0.6,0.6
2024-09-24T0000,1610A,120.8695,40.7677,葫芦岛市,东城区,颗粒物(PM10),51,51,44,27,19,28,,114,92,83,30,14,72,0.8,0.5
2024-09-24T0000,2482A,109.5981,27.5721,怀化市,林科所,,34,26,25,14,13,106,,129,115,13,11,13,13,0.3,0.4
2024-09-24T0000,2483A,109.9453,27.5444,怀化市,河西地税局,,38,37,47,26,23,53,,133,92,18,13,7,11,0.7,0.7
2024-09-24T0000,2484A,109.9781,27.5342,怀化市,市四医院,,48,48,37,27,20,98,,131,111,13,8,10,12,0.5,0.5
2024-09-24T0000,2485A,109.9972,27.5578,怀化市,监测楼,,48,48,40,28,19,64,,132,103,20,11,4,8,0.4,0.3
2024-09-24T0000,2486A,110.0394,27.583,怀化市,市委党校,颗粒物(PM10),53,55,43,31,24,55,,130,99,30,13,18,19,0.7,0.5
2024-09-24T0000,1210A,119.036,33.5981,淮安市,钵池山,,29,29,28,17,12,71,,111,92,21,16,8,8,0.8,0.7
2024-09-24T0000,1211A,119.007,33.575,淮安市,北京南路,,29,29,30,14,11,84,,112,102,18,17,6,7,0.2,0.3
2024-09-24T0000,1212A,118.989,33.6067,淮安市,市监测站,,30,29,26,17,14,94,,118,108,22,22,7,7,0.4,0.4
2024-09-24T0000,1213A,119.135,33.5039,淮安市,楚州区监测站,,36,34,34,25,14,65,,115,93,27,16,6,6,0.8,0.8
2024-09-24T0000,1214A,119.0186,33.6297,淮安市,淮阴区监测站,,39,39,35,18,12,88,,115,98,23,23,4,4,0.6,0.6
2024-09-24T0000,3426A,118.8755,33.2894,淮安市,新华书店,,36,36,38,18,16,70,,120,98,28,25,8,10,0.7,0.9
2024-09-24T0000,2282A,116.8004,33.975,淮北市,监测站,,31,31,31,18,13,75,,120,94,17,17,7,8,0.5,0.4
2024-09-24T0000,2283A,116.8091,33.9007,淮北市,烈山区政府,,36,36,28,20,14,67,,138,113,22,12,5,6,0.4,0.3
2024-09-24T0000,3330A,116.8873,33.9836,淮北市,杜集区检察院,颗粒物(PM10),57,64,39,23,14,61,,133,97,17,9,8,9,0.5,0.4
2024-09-24T0000,4017A,116.7923,33.9535,淮北市,市博物馆,,46,46,32,24,14,62,,133,104,24,15,6,7,0.7,0.6
2024-09-24T0000,2277A,116.8305,32.7727,淮南市,潘集区政府,颗粒物(PM10),54,58,51,31,27,56,,119,88,33,28,7,10,0.4,0.4
2024-09-24T0000,2278A,117.0067,32.6524,淮南市,师范学院,,45,33,55,31,30,84,,130,96,19,23,6,8,0.5,0.5
2024-09-24T0000,2279A,116.8569,32.5951,淮南市,谢家集区政府,颗粒物(PM10),54,57,49,28,29,60,,128,96,29,21,8,9,0.4,0.5
2024-09-24T0000,2280A,116.8281,32.633,淮南市,八公山区政府,颗粒物(PM10),55,60,50,25,24,67,,128,106,22,16,11,9,0.3,0.3
2024-09-24T0000,2281A,116.6325,32.6201,淮南市,焦岗湖风景区管理处,,47,47,39,27,19,44,,111,68,30,16,5,5,0.1,0.1
2024-09-24T0000,2894A,117.0566,32.6531,淮南市,经济技术开发区消防队,,45,45,54,11,17,71,,131,96,29,23,5,7,0.2,0.3
2024-09-24T0000,3329A,117.0108,32.5893,淮南市,山南新区,颗粒物(PM10),52,54,53,18,20,94,,134,110,22,20,6,6,0.4,0.2
2024-09-24T0000,2446A,114.9028,30.4742,黄冈市,职工中心,颗粒物(PM10),52,54,42,25,22,103,,144,124,17,13,9,8,0.6,0.5
2024-09-24T0000,2929A,114.8858,30.4519,黄冈市,红卫路,,38,38,32,19,19,115,,149,128,17,14,9,8,0.6,0.3
2024-09-24T0000,3398A,114.9136,30.4445,黄冈市,市林业局,颗粒物(PM10),64,78,36,22,17,112,,163,146,20,11,10,8,0.5,0.4
2024-09-24T0000,2672A,102.0199,35.5102,黄南藏族自治州,同仁县隆务镇,,33,33,27,8,10,64,,89,77,4,4,6,7,0.4,0.4
2024-09-24T0000,2295A,118.2903,29.6963,黄山市,延安路89号,,,18,25,3,8,,,89,75,5,6,6,6,0.2,0.2
2024-09-24T0000,2296A,118.327,29.7178,黄山市,黄山东路89号,,25,21,24,12,7,80,,89,81,5,5,4,5,0.3,0.2
2024-09-24T0000,2297A,118.1371,30.2756,黄山市,黄山区政府5号楼,,30,27,29,21,13,43,,114,89,7,7,7,6,0.5,0.4
2024-09-24T0000,2423A,115.0601,30.2313,黄石市,沈家营,,38,32,28,12,9,120,,155,139,7,11,11,9,0.5,0.5
2024-09-24T0000,2424A,115.0817,30.2006,黄石市,陈家湾,,41,38,29,9,12,129,,157,146,4,9,9,9,0.7,0.7
2024-09-24T0000,2426A,114.8988,30.2019,黄石市,铁山,,47,47,31,19,14,82,,168,134,34,14,11,8,0.3,0.3
2024-09-24T0000,2427A,115.0307,30.2092,黄石市,团城山,,39,37,29,7,8,122,,160,146,9,12,7,8,0.6,0.6
2024-09-24T0000,3149A,115.0235,30.1578,黄石市,笔架山北路,,35,32,25,9,7,112,,157,137,10,8,9,9,0.6,0.6
2024-09-24T0000,1392A,114.4183,23.0528,惠州市,河南岸金山湖子站,,15,6,12,3,7,47,,65,52,8,7,4,5,0.5,0.5
2024-09-24T0000,1393A,114.4053,23.0822,惠州市,下埔横江三路子站,,18,6,11,3,8,56,,72,58,8,7,5,4,0.6,0.7
2024-09-24T0000,1394A,114.4103,23.1142,惠州市,江北云山西路子站,,17,6,10,3,7,54,,68,55,5,5,4,4,0.5,0.6
2024-09-24T0000,1395A,114.4645,22.7833,惠州市,惠阳区承修路船湖子站,,10,9,13,7,8,31,,50,36,15,13,5,5,0.6,0.5
2024-09-24T0000,1396A,114.5317,22.7422,惠州市,大亚湾管委会子站,,16,16,12,8,7,29,,52,38,17,12,6,6,0.6,0.6
2024-09-24T0000,3314A,114.4338,22.8134,惠州市,惠阳秋长,,12,,8,6,6,36,,63,46,12,9,4,4,0.7,0.7
2024-09-24T0000,3452A,114.6517,22.775,惠州市,大亚湾霞涌,,9,8,9,3,4,27,,47,37,7,6,4,4,0.7,0.7
2024-09-24T0000,2240A,130.9762,45.3001,鸡西市,环保局,颗粒物(PM10),70,89,36,38,13,2,,69,24,33,14,5,6,0.7,0.3
2024-09-24T0000,2243A,130.9429,45.3039,鸡西市,第一中学,颗粒物(PM10),68,85,48,28,11,0,,71,27,50,18,5,5,0.4,0.1
2024-09-24T0000,3707A,131.0207,45.3073,鸡西市,欧美日汽修厂,颗粒物(PM10),72,94,44,32,15,6,,74,28,22,19,6,6,0.4,0.2
2024-09-24T0000,3709A,130.9967,45.3106,鸡西市,市政设施管理处,颗粒物(PM10),70,90,44,27,16,1,,68,20,34,24,6,7,0.4,0.2
2024-09-24T0000,2367A,114.9754,27.0803,吉安市,红声器材厂,,44,44,42,14,15,99,,120,106,11,14,14,13,0.7,0.7
2024-09-24T0000,2368A,114.9658,27.0999,吉安市,市森林工业局,,32,32,37,17,16,93,,119,105,16,19,15,11,0.5,0.5
2024-09-24T0000,2369A,114.99,27.1312,吉安市,市环境监测站,,36,36,37,19,15,94,,125,110,10,13,30,20,0.6,0.5
2024-09-24T0000,2370A,115.0093,27.0968,吉安市,青原区法院,,32,32,39,18,16,94,,118,101,14,17,18,13,0.6,0.7
2024-09-24T0000,1772A,126.54,43.8622,吉林市,哈达湾,,32,32,26,14,11,24,,72,30,31,23,6,6,0.5,0.5
2024-09-24T0000,1773A,126.5844,43.8358,吉林市,东局子,,22,22,20,9,11,30,,68,39,19,18,4,5,0.6,0.6
2024-09-24T0000,1774A,126.5052,43.8245,吉林市,电力学院,,37,37,34,19,18,4,,72,17,29,20,3,3,0.7,0.7
2024-09-24T0000,1775A,126.6133,43.8972,吉林市,江北,,16,16,31,9,12,37,,70,26,11,18,6,6,0.6,0.7
2024-09-24T0000,1776A,126.555,43.8306,吉林市,江南公园,,40,40,25,12,12,12,,69,31,40,22,6,6,0.7,0.6
2024-09-24T0000,1778A,126.7061,43.7133,吉林市,丰满,,12,8,9,3,5,37,,62,44,3,3,5,5,0.4,0.4
2024-09-24T0000,2868A,126.4739,43.953,吉林市,九站,,41,41,45,16,16,19,,75,20,35,27,10,10,0.6,0.6
2024-09-24T0000,1299A,116.9862,36.6114,济南市,科干所,颗粒物(PM10),53,56,38,20,12,20,,126,77,71,36,6,7,0.7,0.6
2024-09-24T0000,1300A,116.9376,36.665,济南市,农科所,颗粒物(PM10),73,95,48,27,13,7,,119,65,89,47,6,5,0.9,0.6
2024-09-24T0000,1301A,117.1265,36.6734,济南市,开发区,,46,46,34,17,14,45,,109,68,50,36,4,5,0.5,0.4
2024-09-24T0000,1303A,117.0624,36.6868,济南市,省种子仓库,颗粒物(PM10),65,80,52,22,12,6,,111,59,83,45,5,6,0.5,0.3
2024-09-24T0000,1304A,116.9489,36.6447,济南市,机床二厂,颗粒物(PM10),80,110,58,22,14,6,,132,71,83,45,4,5,0.9,0.7
2024-09-24T0000,1305A,117.0495,36.663,济南市,市监测站,,46,46,37,15,11,17,,117,63,80,46,4,5,0.7,0.6
2024-09-24T0000,1306A,116.7675,36.5484,济南市,长清党校,,42,42,28,20,13,65,,146,112,48,33,6,7,0.7,0.7
2024-09-24T0000,1616A,117.6795,36.229,济南市,技术学院,,45,44,38,31,21,48,,126,84,42,31,8,10,0.8,0.8
2024-09-24T0000,1961A,117.532,36.6868,济南市,东山小学,,46,46,34,20,9,66,,114,91,42,37,4,5,0.4,0.3
2024-09-24T0000,3059A,117.7161,36.2049,济南市,泰兴公司,,41,41,35,19,17,14,,119,66,74,40,7,9,0.5,0.5
2024-09-24T0000,3064A,117.6867,36.2171,济南市,莱芜战役纪念馆,颗粒物(PM10),58,66,43,27,19,9,,123,83,82,32,4,5,0.7,0.6
2024-09-24T0000,3494A,117.1673,36.9782,济南市,济阳区政府,颗粒物(PM10),56,61,41,37,15,105,,131,124,25,24,17,13,0.8,0.5
2024-09-24T0000,3495A,117.1171,36.63,济南市,锦屏中学,,37,37,20,15,6,65,,116,82,28,22,4,5,0.4,0.3
2024-09-24T0000,3682A,116.9814,36.6819,济南市,济南四建,颗粒物(PM10),78,105,45,44,16,5,,119,66,100,48,4,4,1.3,0.6
2024-09-24T0000,1653A,116.6251,35.4302,济宁市,火炬城,颗粒物(PM10),65,79,45,34,23,10,,134,92,53,25,10,10,1.1,0.6
2024-09-24T0000,1655A,116.5491,35.4042,济宁市,电化厂,,,,,,,,,,,,,,,,
2024-09-24T0000,3500A,116.5814,35.3707,济宁市,北湖一中,细颗粒物(PM2.5),62,58,46,44,28,84,,138,112,37,29,2,3,0.5,0.4
2024-09-24T0000,3501A,116.8249,35.5593,济宁市,服务中心,颗粒物(PM10),66,82,47,32,19,46,,132,92,61,31,10,8,0.5,0.4
2024-09-24T0000,3678A,116.5907,35.4054,济宁市,市第七中学,细颗粒物(PM2.5),55,58,59,39,25,64,,141,117,42,25,8,10,0.8,0.6
2024-09-24T0000,2255A,130.2751,46.8028,佳木斯市,佳纺,,45,45,27,18,11,12,,88,39,40,16,3,3,0.4,0.4
2024-09-24T0000,2256A,130.3995,46.8307,佳木斯市,发电厂,颗粒物(PM10),71,91,52,46,18,15,,78,21,45,31,6,6,0.3,0.3
2024-09-24T0000,2257A,130.3258,46.7975,佳木斯市,环保局,,34,34,27,14,12,3,,83,47,61,21,8,8,0.9,0.5
2024-09-24T0000,2258A,130.3648,46.8032,佳木斯市,十一中,,35,35,28,22,15,19,,78,33,53,34,6,7,0.5,0.6
2024-09-24T0000,2259A,130.3794,46.7588,佳木斯市,四丰,,21,15,12,6,7,67,,81,69,10,10,1,1,0.2,0.2
2024-09-24T0000,1252A,120.7436,30.778,嘉兴市,清河小学,,24,24,31,11,11,63,,125,80,23,25,4,5,0.6,0.7
2024-09-24T0000,1253A,120.726,30.7478,嘉兴市,嘉兴学院,,23,22,29,8,13,72,,126,73,18,25,3,4,0.5,0.6
2024-09-24T0000,2872A,120.7846,30.7525,嘉兴市,南湖区残联,,27,27,29,8,14,67,,139,87,28,25,5,6,0.4,0.5
2024-09-24T0000,3407A,120.6916,30.7739,嘉兴市,秀洲住建,,18,18,28,9,14,55,,127,84,24,21,5,6,0.5,0.6
2024-09-24T0000,1945A,98.2908,39.7711,嘉峪关市,气象局,颗粒物(PM10),78,105,48,24,13,68,,128,98,41,16,44,11,1.0,0.4
2024-09-24T0000,2884A,98.2672,39.7978,嘉峪关市,酒钢宾馆,颗粒物(PM10),96,141,58,36,19,74,,123,101,44,18,62,30,0.3,0.5
2024-09-24T0000,3248A,98.2643,39.7724,嘉峪关市,雄关区,颗粒物(PM10),79,107,47,32,16,77,,120,100,33,17,22,13,0.4,0.4
2024-09-24T0000,1383A,113.1064,22.6058,江门市,北街,,12,8,19,6,13,31,,70,37,24,22,4,4,0.8,0.7
2024-09-24T0000,1384A,113.0731,22.5835,江门市,西区,,13,6,22,3,9,27,,71,32,25,22,4,5,0.5,0.5
2024-09-24T0000,1385A,113.0219,22.5311,江门市,圭峰西,,11,6,17,3,12,34,,72,43,17,15,3,3,0.6,0.6
2024-09-24T0000,1386A,113.0828,22.5947,江门市,东湖,,10,9,22,3,10,29,,66,35,20,19,3,3,0.5,0.5
2024-09-24T0000,3311A,113.1075,22.5647,江门市,江海富民,,25,25,24,10,14,30,,67,37,23,21,6,6,0.7,0.7
2024-09-24T0000,3449A,113.05,22.4667,江门市,新会银湖,,14,,17,6,13,22,,64,34,27,20,4,4,0.8,0.8
2024-09-24T0000,1828A,113.227,35.2125,焦作市,市环保局,细颗粒物(PM2.5),53,51,40,37,22,106,,141,120,16,19,13,6,0.3,0.2
2024-09-24T0000,1830A,113.1992,35.2590,焦作市,影视城,细颗粒物(PM2.5),54,52,39,38,30,126,,152,140,14,15,9,8,0.5,0.5
2024-09-24T0000,3169A,113.2725,35.2067,焦作市,太极体育中心,颗粒物(PM10),59,67,51,37,23,75,,138,107,24,21,7,5,0.7,0.6
2024-09-24T0000,3335A,113.3137,35.2641,焦作市,马村街道办,颗粒物(PM10),51,52,44,34,23,96,,143,114,18,18,9,4,0.6,0.4
2024-09-24T0000,3336A,113.2465,35.2373,焦作市,焦作技师学院,细颗粒物(PM2.5),55,42,35,39,24,102,,140,117,14,16,12,9,0.4,0.4
2024-09-24T0000,3477A,113.1656,35.2539,焦作市,中站许衡医院,细颗粒物(PM2.5),55,49,38,39,22,94,,150,122,45,24,6,6,0.4,0.3
2024-09-24T0000,3981A,113.2449,35.1803,焦作市,原李万街道办,颗粒物(PM10),54,57,51,37,26,96,,140,117,18,24,12,5,0.5,0.4
2024-09-24T0000,1708A,116.3701,23.5345,揭阳市,新兴,,,,16,7,6,30,,70,42,13,13,4,4,0.6,0.7
2024-09-24T0000,1709A,116.3264,23.5443,揭阳市,西马,,12,,12,3,8,38,,72,47,8,10,4,5,0.5,0.6
2024-09-24T0000,1710A,116.3611,23.5626,揭阳市,东兴,,,,16,7,7,36,,72,47,8,12,2,4,0.8,0.9
2024-09-24T0000,1711A,116.4151,23.5294,揭阳市,渔湖,,11,6,16,3,7,35,,74,45,10,13,5,4,0.5,0.7
2024-09-24T0000,3320A,116.403,23.5699,揭阳市,曲溪,,11,,11,6,11,34,,68,39,10,18,1,6,0.5,0.7
2024-09-24T0000,1944A,102.1692,38.5167,金昌市,天庆家园,,39,39,43,24,26,79,,103,80,23,23,20,17,0.4,0.5
2024-09-24T0000,3170A,102.1864,38.5253,金昌市,市委党校,,42,42,61,16,27,80,,110,82,23,28,17,19,0.7,0.7
2024-09-24T0000,4022A,102.1647,38.5371,金昌市,金川区人防中心,,49,49,64,20,25,65,,98,75,23,23,16,17,0.7,0.6
2024-09-24T0000,1262A,119.647,29.077,金华市,十五中,,26,26,28,16,11,82,,94,75,13,16,2,2,0.5,0.5
2024-09-24T0000,1263A,119.686,29.1029,金华市,监测站,,33,33,28,21,14,60,,90,65,16,17,2,2,0.6,0.6
2024-09-24T0000,3659A,119.656,29.1131,金华市,气象局,,45,37,28,31,13,64,,86,64,15,21,4,5,0.6,0.4
2024-09-24T0000,1767A,121.1115,41.0879,锦州市,南山,,36,30,31,25,21,82,,97,86,36,27,11,12,1.0,0.7
2024-09-24T0000,1768A,121.0533,40.8434,锦州市,开发区,颗粒物(PM10),60,69,69,26,28,73,,97,94,57,40,36,24,1.4,1.2
2024-09-24T0000,1769A,121.1836,41.1119,锦州市,百股街道,,46,46,28,24,11,81,,101,97,32,22,33,14,1.4,0.7
2024-09-24T0000,1770A,121.1178,41.1222,锦州市,天安街道,,48,43,40,33,24,50,,98,86,54,33,12,15,1.0,0.7
2024-09-24T0000,1771A,121.1303,41.1386,锦州市,北湖公园,,40,38,36,28,22,79,,106,98,35,25,11,14,0.9,0.7
2024-09-24T0000,2160A,112.85,35.5051,晋城市,自来水公司,细颗粒物(PM2.5),58,63,46,41,25,61,,146,121,49,27,9,11,0.8,0.8
2024-09-24T0000,2161A,112.8318,35.4936,晋城市,白云商贸,颗粒物(PM10),78,105,56,48,24,50,,143,113,46,29,6,9,0.9,0.8
2024-09-24T0000,2162A,112.8508,35.4887,晋城市,市环保局,颗粒物(PM10),71,91,48,39,23,38,,140,114,71,35,6,9,0.7,0.6
2024-09-24T0000,2163A,112.8676,35.4897,晋城市,技术学院,颗粒物(PM10),70,90,48,39,22,48,,144,115,71,35,8,9,0.8,0.6
2024-09-24T0000,2165A,112.8453,35.546,晋城市,白马寺,,,,38,,18,,,,,,14,,17,,0.7
2024-09-24T0000,3620A,112.8271,35.4828,晋城市,泽州一中,颗粒物(PM10),64,78,45,44,24,69,,138,115,36,32,9,11,0.8,0.8
2024-09-24T0000,2171A,112.7532,37.6945,晋中市,锦纶小区,颗粒物(PM10),56,61,63,27,29,54,,153,100,38,31,8,11,0.6,0.6
2024-09-24T0000,2173A,112.7249,37.7067,晋中市,南都小区,颗粒物(PM10),64,77,60,39,31,44,,149,94,54,36,6,8,1.0,0.9
2024-09-24T0000,2174A,112.6991,37.6982,晋中市,榆次区政府,颗粒物(PM10),54,58,59,31,28,68,,149,103,32,32,8,10,0.5,0.5
2024-09-24T0000,2865A,112.7195,37.6828,晋中市,榆次三中,颗粒物(PM10),56,61,62,27,26,58,,152,104,38,30,9,13,0.8,0.7
2024-09-24T0000,2439A,112.2014,31.0481,荆门市,竹园小学,,,64,54,22,21,110,,159,140,22,19,12,13,,0.5
2024-09-24T0000,2440A,112.1969,30.9891,荆门市,掇刀,颗粒物(PM10),56,61,46,23,19,134,,162,150,17,17,4,4,0.6,0.5
2024-09-24T0000,2441A,112.2213,31.0386,荆门市,石化一小,颗粒物(PM10),58,66,52,19,20,117,,161,141,23,16,22,17,0.5,0.3
2024-09-24T0000,3012A,112.1849,31.0362,荆门市,西山林语,颗粒物(PM10),57,63,46,21,18,154,,164,160,12,15,10,10,0.8,0.7
2024-09-24T0000,3547A,112.1632,31.0138,荆门市,龙泉中学南校,颗粒物(PM10),53,56,46,24,20,96,,163,149,31,19,12,13,0.5,0.5
2024-09-24T0000,1844A,112.2494,30.3197,荆州市,市图书馆,细颗粒物(PM2.5),88,96,44,65,33,79,,146,118,37,23,14,12,0.9,0.6
2024-09-24T0000,1845A,112.2008,30.3544,荆州市,市委党校,细颗粒物(PM2.5),199,180,58,149,47,63,,155,121,45,21,15,10,1.1,0.5
2024-09-24T0000,3194A,112.2747,30.3122,荆州市,管委会,细颗粒物(PM2.5),73,74,39,53,30,42,,149,100,58,25,10,10,0.9,0.6
2024-09-24T0000,3548A,112.1655,30.3364,荆州市,学苑路,细颗粒物(PM2.5),221,175,68,171,47,74,,160,127,38,21,17,10,1.0,0.5
2024-09-24T0000,2342A,117.3102,29.3867,景德镇市,王港中学,,,,,,,,,,,,,,,,
2024-09-24T0000,2343A,117.2117,29.2933,景德镇市,老干部活动中心,,22,14,21,6,12,68,,86,71,7,8,7,7,0.4,0.4
2024-09-24T0000,2344A,117.1894,29.2789,景德镇市,兽医站,,23,13,26,3,11,72,,89,75,5,6,8,8,0.5,0.5
2024-09-24T0000,2345A,117.1547,29.2617,景德镇市,台达陶瓷,,22,10,22,3,10,70,,93,74,5,7,7,7,0.4,0.4
2024-09-24T0000,2346A,117.2461,29.2956,景德镇市,陶研所,,24,8,20,7,10,75,,92,76,7,8,6,6,0.3,0.4
2024-09-24T0000,1803A,115.9872,29.6815,九江市,十里,,34,26,32,20,12,106,,140,131,13,12,10,11,0.5,0.5
2024-09-24T0000,1804A,115.9584,29.7046,九江市,茅山头,,33,33,26,20,13,105,,128,120,11,12,9,9,0.6,0.6
2024-09-24T0000,1805A,115.9877,29.7295,九江市,西园,,33,24,23,11,11,104,,142,130,14,9,10,11,0.3,0.5
2024-09-24T0000,1806A,116.0172,29.6547,九江市,五七二七厂,,46,46,30,19,17,98,,131,122,12,12,13,10,0.6,0.5
2024-09-24T0000,1808A,115.9114,29.6038,九江市,综合工业园,,38,34,29,20,17,119,,142,138,17,17,17,16,0.4,0.4
2024-09-24T0000,1809A,116.0721,29.7535,九江市,石化总厂,,36,36,37,19,20,101,,125,115,11,12,9,9,0.5,0.5
2024-09-24T0000,1810A,115.9773,29.5698,九江市,庐山气象台,,38,30,25,26,21,118,,133,130,8,6,22,9,0.9,0.8
2024-09-24T0000,3190A,116.0254,29.6994,九江市,外国语学校,,37,37,29,12,11,109,,140,130,14,13,15,15,0.3,0.3
2024-09-24T0000,2658A,98.5061,39.7443,酒泉市,仓门街子站,颗粒物(PM10),60,70,46,25,15,98,,124,104,8,13,11,13,0.3,0.4
2024-09-24T0000,2659A,98.4989,39.7256,酒泉市,油田生活基地,颗粒物(PM10),69,88,52,30,15,102,,126,108,12,13,9,12,0.4,0.4
2024-09-24T0000,2698A,76.0072,39.4467,喀什地区,巡警大队,颗粒物(PM10),173,295,178,62,40,5,,97,66,86,38,7,6,1.4,0.8
2024-09-24T0000,2699A,75.9755,39.4694,喀什地区,吾办,细颗粒物(PM2.5),149,242,153,114,62,1,,95,63,81,34,6,6,1.4,0.7
2024-09-24T0000,4027A,75.9483,39.4689,喀什地区,老干局,颗粒物(PM10),146,241,163,69,35,9,,94,66,79,25,5,5,1.1,0.6
2024-09-24T0000,1824A,114.3389,34.7781,开封市,肿瘤医院,细颗粒物(PM2.5),88,109,65,65,41,48,,155,110,60,32,6,10,0.5,0.4
2024-09-24T0000,1826A,114.2885,34.7965,开封市,世纪星幼儿园,颗粒物(PM10),66,82,55,34,26,97,,162,128,30,25,8,11,0.6,0.6
2024-09-24T0000,3147A,114.3438,34.8106,开封市,龙亭公园,颗粒物(PM10),71,92,62,46,38,51,,134,116,61,32,5,8,0.7,0.6
2024-09-24T0000,3210A,114.3644,34.7964,开封市,汴京公园,颗粒物(PM10),72,94,63,45,41,31,,153,107,69,32,6,9,0.7,0.6
2024-09-24T0000,3473A,114.2485,34.8306,开封市,技师学院,颗粒物(PM10),63,75,54,30,24,117,,150,131,24,30,10,13,0.5,0.4
2024-09-24T0000,3592A,114.4644,34.7556,开封市,祥符区生态环境局,颗粒物(PM10),82,114,72,54,39,10,,139,77,105,48,8,11,0.6,0.5
2024-09-24T0000,1951A,84.895,45.6094,克拉玛依市,长征新村,,28,28,22,3,5,77,,100,92,4,7,7,6,0.1,0.2
2024-09-24T0000,1952A,84.8988,45.5893,克拉玛依市,南林小区,,29,27,19,20,16,79,,89,89,3,7,9,8,0.2,0.5
2024-09-24T0000,1954A,84.905,44.3396,克拉玛依市,独山子区,,44,44,50,26,17,69,,120,101,16,12,8,10,0.4,0.4
2024-09-24T0000,1955A,85.6979,46.098,克拉玛依市,乌尔禾区商贸楼,,29,29,24,8,5,86,,100,97,2,7,14,13,0.2,0.2
2024-09-24T0000,3612A,85.1045,45.6899,克拉玛依市,白碱滩区新站,,32,32,28,6,10,90,,109,102,2,10,7,8,0.2,0.3
2024-09-24T0000,2697A,76.1454,39.7142,克孜勒苏柯尔克孜自治州,市人民政府,颗粒物(PM10),71,92,103,38,41,65,,109,95,22,12,7,16,0.5,0.4
2024-09-24T0000,3665A,76.1658,39.7157,克孜勒苏柯尔克孜自治州,克州文化中心,颗粒物(PM10),70,90,91,32,38,57,,110,98,43,8,6,16,0.5,0.4
2024-09-24T0000,1450A,102.8204,24.8886,昆明市,呈贡新区,,32,26,26,22,16,73,,88,78,13,11,3,7,0.5,0.5
2024-09-24T0000,1451A,102.6251,24.9608,昆明市,西山森林公园,,,,,,,,,,,,,,,,
2024-09-24T0000,1452A,102.7252,25.0902,昆明市,龙泉镇,,41,41,22,20,12,12,,96,69,56,15,7,7,0.9,0.7
2024-09-24T0000,1453A,102.7266,25.0375,昆明市,东风东路,,43,43,26,21,15,26,,90,61,52,17,10,6,0.5,0.4
2024-09-24T0000,1454A,102.6742,25.0669,昆明市,金鼎山,,31,31,22,18,13,58,,93,74,26,14,10,7,0.5,0.4
2024-09-24T0000,1455A,102.6644,25.0401,昆明市,碧鸡广场,,36,36,23,24,13,60,,92,71,25,15,7,7,0.6,0.6
2024-09-24T0000,3179A,102.7494,25.0119,昆明市,官渡区博物馆,,28,28,25,15,14,39,,92,58,43,21,9,7,0.6,0.5
2024-09-24T0000,3375A,102.8017,24.8336,昆明市,青年创业园,细颗粒物(PM2.5),52,44,18,36,14,25,,94,64,38,12,4,5,0.3,0.7
2024-09-24T0000,3550A,102.7997,24.9786,昆明市,昆明学院,,39,39,28,25,17,65,,92,74,23,16,8,6,0.5,0.5
2024-09-24T0000,3551A,102.5967,24.6736,昆明市,晋宁区生态环境分局,,40,40,26,27,18,48,,104,74,20,14,4,4,0.6,0.5
2024-09-24T0000,3552A,102.6678,24.9856,昆明市,云天化总部,,33,33,22,22,15,63,,96,77,25,13,5,6,0.5,0.5
2024-09-24T0000,1456A,91.1319,29.6514,拉萨市,八廓街,,30,8,12,3,8,94,,96,86,10,16,7,11,0.1,0.1
2024-09-24T0000,1457A,91.1221,29.6747,拉萨市,市环保局,,28,13,14,8,7,89,,94,79,11,16,8,10,0.4,0.4
2024-09-24T0000,1458A,91.0874,29.6475,拉萨市,区监测站,,28,8,13,7,8,88,,85,76,10,19,5,8,0.3,0.4
2024-09-24T0000,1459A,91.1774,29.6541,拉萨市,西藏大学,,30,12,13,6,7,93,,98,90,6,12,6,9,0.4,0.4
2024-09-24T0000,1460A,90.9798,29.6588,拉萨市,区辐射站,,27,12,16,7,8,84,,83,78,11,21,9,9,0.1,0.2
2024-09-24T0000,1461A,91.0834,29.6292,拉萨市,拉萨火车站,,29,10,12,6,7,91,,86,82,4,17,4,8,0.2,0.4
2024-09-24T0000,2520A,109.2203,23.7256,来宾市,来宾技工学校,,33,33,32,19,16,70,,118,96,20,11,8,8,0.6,0.6
2024-09-24T0000,3535A,109.1781,23.7297,来宾市,兴宾区政府,,35,30,32,24,18,73,,121,98,11,7,7,8,0.6,0.7
2024-09-24T0000,4002A,109.2416,23.7461,来宾市,中南小学,,33,33,37,20,16,70,,124,96,21,11,11,10,0.6,0.6
2024-09-24T0000,1476A,103.631,36.1031,兰州市,兰炼宾馆,细颗粒物(PM2.5),62,61,51,44,29,68,,179,93,40,36,14,18,0.5,0.6
2024-09-24T0000,1477A,104.1373,35.9454,兰州市,榆中兰大校区,,,,,,,,,,,,,,,,
2024-09-24T0000,1478A,103.8412,36.0726,兰州市,生物制品所,颗粒物(PM10),57,64,44,33,26,2,,128,71,84,36,9,12,0.6,0.5
2024-09-24T0000,1479A,103.831,36.0464,兰州市,铁路设计院,"颗粒物(PM10),细颗粒物(PM2.5)",62,73,51,44,31,21,,105,43,75,55,10,12,0.9,0.7
2024-09-24T0000,3186A,103.7158,36.1058,兰州市,教育港,颗粒物(PM10),81,112,49,39,28,24,,146,88,57,30,7,11,0.6,0.5
2024-09-24T0000,3241A,103.7439,36.0842,兰州市,百合公园,颗粒物(PM10),53,56,40,24,17,5,,135,74,83,39,12,12,0.9,0.6
2024-09-24T0000,3242A,103.9611,35.998,兰州市,和平,,39,39,41,22,18,63,,117,90,18,20,9,14,0.4,0.4
2024-09-24T0000,3245A,103.6633,36.533,兰州新区,新区管委会,,48,48,41,25,16,49,,112,67,32,21,13,13,0.5,0.4
2024-09-24T0000,3246A,103.6975,36.4789,兰州新区,舟曲中学,颗粒物(PM10),51,51,26,22,12,62,,119,84,48,19,14,12,0.5,0.4
2024-09-24T0000,1067A,116.6708,39.5111,廊坊市,药材公司,颗粒物(PM10),84,118,52,58,26,51,,124,91,44,31,5,5,0.5,0.4
2024-09-24T0000,1068A,116.7214,39.5589,廊坊市,开发区,颗粒物(PM10),56,61,43,26,20,34,,131,78,39,32,2,3,0.4,0.4
2024-09-24T0000,1070A,116.7244,39.5269,廊坊市,北华航天学院,颗粒物(PM10),76,101,54,41,23,74,,133,101,36,29,5,4,0.5,0.4
2024-09-24T0000,2919A,116.7022,39.5453,廊坊市,河北工业大学,颗粒物(PM10),57,63,45,38,26,80,,131,108,31,30,4,4,0.4,0.4
2024-09-24T0000,2535A,103.7723,29.5462,乐山市,花湖湾,颗粒物(PM10),61,71,54,37,28,39,,92,77,27,23,3,3,0.8,0.6
2024-09-24T0000,2536A,103.7627,29.5844,乐山市,牛耳桥,细颗粒物(PM2.5),79,74,52,58,41,54,,96,86,30,29,5,6,0.7,0.6
2024-09-24T0000,2537A,103.7508,29.6006,乐山市,市第三水厂,细颗粒物(PM2.5),92,92,52,68,42,28,,106,90,55,28,4,6,0.7,0.5
2024-09-24T0000,2538A,103.7571,29.5664,乐山市,市监测站,细颗粒物(PM2.5),78,71,55,57,39,52,,99,91,26,20,4,6,0.6,0.5
2024-09-24T0000,3361A,103.7311,29.5628,乐山市,理工大学,细颗粒物(PM2.5),68,62,47,49,38,36,,96,84,33,25,2,4,0.8,0.7
2024-09-24T0000,2598A,100.2143,26.8576,丽江市,西南郊,,,,18,,10,,,,,,8,,8,,0.9
2024-09-24T0000,2599A,100.2497,26.8802,丽江市,丽江古城,,36,36,25,23,18,43,,79,66,14,11,9,10,0.7,0.6
2024-09-24T0000,2600A,100.2203,26.8906,丽江市,市中心,,23,17,19,16,14,68,,77,71,10,11,9,7,0.6,0.6
2024-09-24T0000,1267A,119.914,28.4514,丽水市,监测站大楼,,19,7,14,3,5,59,,75,70,10,13,4,4,0.3,0.4
2024-09-24T0000,1268A,119.93,28.4586,丽水市,莲都小学,,18,,12,3,8,55,,78,72,15,13,4,4,0.4,0.4
2024-09-24T0000,1269A,119.879,28.4231,丽水市,余庄前,,16,10,16,3,8,51,,67,60,9,12,4,4,0.3,0.3
2024-09-24T0000,1173A,119.176,34.5885,连云港市,市环境监测站,,34,34,31,14,9,104,,128,116,21,21,6,9,0.4,0.7
2024-09-24T0000,3000A,119.3581,34.6972,连云港市,德源药业,,41,41,26,17,8,39,,119,94,56,22,5,6,0.3,0.3
2024-09-24T0000,3007A,119.178,34.844,连云港市,新城一中,,39,39,32,20,13,35,,131,96,73,32,5,8,0.6,0.8
2024-09-24T0000,3008A,119.3608,34.7519,连云港市,胡沟管理处,,34,34,24,17,7,92,,125,112,33,18,8,8,0.3,0.3
2024-09-24T0000,3009A,119.1478,34.5911,连云港市,矿山设计院,,36,36,30,12,12,82,,125,109,23,19,4,8,0.6,0.8
2024-09-24T0000,3434A,119.2413,34.6539,连云港市,工贸学校,,35,24,25,12,10,109,,129,122,14,19,7,9,0.6,0.7
2024-09-24T0000,3664A,119.4172,34.7341,连云港市,连云街道,,29,18,25,7,9,92,,132,122,16,18,4,5,0.3,0.4
2024-09-24T0000,2571A,102.3431,27.8099,凉山彝族自治州,青龙寺,,26,17,18,6,7,81,,122,91,4,5,4,5,0.4,0.5
2024-09-24T0000,2572A,102.2721,27.8415,凉山彝族自治州,邛海宾馆,,24,22,26,14,15,74,,121,93,13,11,8,8,0.5,0.6
2024-09-24T0000,2573A,102.2625,27.898,凉山彝族自治州,西昌市政府,,24,24,22,14,15,64,,115,92,5,7,7,8,0.5,0.4
2024-09-24T0000,2574A,102.2685,27.8851,凉山彝族自治州,凉山州政府,,25,16,22,13,12,79,,123,101,8,9,6,6,0.8,0.8
2024-09-24T0000,2575A,102.237,27.8914,凉山彝族自治州,长安,,28,28,34,17,16,45,,118,91,19,10,13,9,0.8,0.6
2024-09-24T0000,2212A,123.2,41.1953,辽阳市,宏伟区,,36,36,38,18,17,61,,76,58,13,26,12,13,0.6,0.7
2024-09-24T0000,2213A,123.1683,41.2495,辽阳市,新华园,颗粒物(PM10),59,68,60,28,22,11,,69,43,65,40,12,15,1.2,1
2024-09-24T0000,2214A,123.2354,41.2639,辽阳市,滨河路,,40,40,47,21,20,55,,84,57,18,29,11,13,0.7,0.9
2024-09-24T0000,2215A,123.149,41.2991,辽阳市,铁西工业园,颗粒物(PM10),62,74,58,30,26,26,,68,42,36,34,13,16,1.2,1.1
2024-09-24T0000,2227A,125.1358,42.8845,辽源市,环保局,,43,43,30,20,12,5,,76,23,22,17,8,8,0.8,0.7
2024-09-24T0000,3239A,125.0764,42.9078,辽源市,银鹰制药,,,41,27,27,17,4,,17,15,30,26,6,6,,0.7
2024-09-24T0000,1625A,115.9848,36.4372,聊城市,区政府,颗粒物(PM10),62,73,46,30,21,67,,145,110,47,37,8,11,0.5,0.4
2024-09-24T0000,2878A,116.0072,36.4343,聊城市,聊大东校,颗粒物(PM10),69,88,50,48,28,40,,153,110,72,40,9,11,0.5,0.4
2024-09-24T0000,3200A,115.9819,36.4978,聊城市,监控中心,细颗粒物(PM2.5),92,100,56,68,28,9,,144,67,133,57,11,9,0.5,0.3
2024-09-24T0000,3513A,116.0445,36.4361,聊城市,九州社区,颗粒物(PM10),74,97,57,42,25,40,,157,104,86,40,4,6,0.7,0.5
2024-09-24T0000,4018A,116.0567,36.4608,聊城市,星美广场,,49,,50,34,24,64,,156,,54,38,2,16,0.6,0.4
2024-09-24T0000,2632A,94.3681,29.6376,林芝市,林芝监测站,,15,,9,6,6,45,,62,48,3,5,10,10,0.2,0.3
2024-09-24T0000,2633A,94.3616,29.6616,林芝市,林芝人民医院,,12,10,10,6,7,38,,63,50,8,8,8,8,0.2,0.2
2024-09-24T0000,2603A,100.0781,23.8982,临沧市,市环保局,,28,,22,19,17,41,,72,58,11,11,4,5,0.4,0.5
2024-09-24T0000,2604A,100.0894,23.8822,临沧市,市气象局,,35,,20,24,20,36,,76,60,13,10,4,4,0.5,0.5
2024-09-24T0000,1733A,111.5531,36.0783,临汾市,临钢医院,颗粒物(PM10),55,59,76,27,33,42,,143,81,35,33,4,7,0.9,0.7
2024-09-24T0000,1734A,111.5028,36.0714,临汾市,技工学校,颗粒物(PM10),70,90,74,39,42,50,,151,98,50,33,9,7,0.9,1
2024-09-24T0000,1736A,111.5018,36.0855,临汾市,市委,颗粒物(PM10),71,92,73,36,32,35,,155,94,61,33,10,8,0.8,0.8
2024-09-24T0000,3018A,111.505,36.1014,临汾市,唐尧大酒店,颗粒物(PM10),78,105,73,40,35,15,,144,83,75,32,5,6,0.8,0.8
2024-09-24T0000,3668A,111.5036,36.0414,临汾市,城南,颗粒物(PM10),97,144,84,70,45,3,,150,76,76,38,6,6,1.2,0.7
2024-09-24T0000,2667A,103.2069,35.5993,临夏回族自治州,环保局,,50,50,29,20,14,14,,106,59,26,15,8,8,0.6,0.4
2024-09-24T0000,2668A,103.2417,35.6057,临夏回族自治州,建设大厦,,45,45,32,26,14,10,,107,61,24,13,10,9,0.5,0.3
2024-09-24T0000,1618A,118.3429,35.0532,临沂市,沂河小区,颗粒物(PM10),63,75,33,32,15,66,,124,109,31,12,15,9,0.8,0.3
2024-09-24T0000,1619A,118.295,35.0583,临沂市,鲁南制药厂,细颗粒物(PM2.5),67,51,26,48,24,74,,132,107,38,19,13,11,0.6,0.4
2024-09-24T0000,1620A,118.2794,34.9976,临沂市,新光毛纺厂,颗粒物(PM10),56,61,29,25,13,64,,122,98,39,23,14,9,0.7,0.5
2024-09-24T0000,1621A,118.3956,35.0888,临沂市,河东保险公司,颗粒物(PM10),62,73,32,39,14,61,,129,97,68,34,10,8,1.1,0.7
2024-09-24T0000,3370A,118.3564,35.0215,临沂市,十里堡居委,"颗粒物(PM10),细颗粒物(PM2.5)",58,66,24,41,12,72,,128,109,34,18,18,10,1.1,0.5
2024-09-24T0000,3496A,118.3604,35.1084,临沂市,南坊新区,颗粒物(PM10),68,85,35,44,13,44,,124,98,53,26,12,10,1.0,0.5
2024-09-24T0000,3860A,118.3920,35.0300,临沂市,皇山花园小区,颗粒物(PM10),68,85,36,47,19,42,,123,97,65,28,12,9,0.9,0.3
2024-09-24T0000,1870A,109.4856,24.3895,柳州市,柳东小学,,34,25,28,15,16,107,,110,109,6,6,9,8,0.5,0.5
2024-09-24T0000,1871A,109.4157,24.3277,柳州市,环保监测站,,34,24,30,15,15,108,,110,107,6,7,10,9,0.8,0.7
2024-09-24T0000,1872A,109.389,24.341,柳州市,河西水厂,,33,28,38,12,17,104,,108,106,6,8,8,10,0.8,1
2024-09-24T0000,1873A,109.4311,24.2921,柳州市,市四中,,36,21,24,15,10,113,,116,111,6,6,8,8,0.8,0.8
2024-09-24T0000,1874A,109.4006,24.3631,柳州市,市九中,,40,40,36,16,16,98,,110,105,11,8,7,7,0.6,0.6
2024-09-24T0000,1875A,109.4958,24.3134,柳州市,古亭山,,35,23,28,12,13,110,,117,113,11,10,8,8,0.7,0.7
2024-09-24T0000,3402A,109.5422,24.3996,柳州市,市二中,,33,28,29,17,15,103,,116,108,12,11,9,9,0.5,0.5
2024-09-24T0000,2307A,116.5079,31.737,六安市,监测大楼,,32,32,31,21,18,94,,127,116,14,14,5,5,0.4,0.4
2024-09-24T0000,2308A,116.4738,31.7643,六安市,皖西学院,,47,47,44,30,16,78,,130,109,24,18,6,6,0.2,0.2
2024-09-24T0000,2309A,116.4996,31.7905,六安市,朝阳厂,,41,41,32,18,16,79,,126,108,25,17,2,2,0.3,0.3
2024-09-24T0000,2310A,116.5567,31.7886,六安市,开发区,颗粒物(PM10),54,58,44,23,21,51,,126,95,30,19,2,2,0.5,0.4
2024-09-24T0000,2576A,104.8,26.5892,六盘水市,窑上,,,,,,,,,,,,,,,,
2024-09-24T0000,2577A,104.83,26.5917,六盘水市,黄土坡,,33,,21,23,16,84,,99,92,10,8,5,7,0.5,0.5
2024-09-24T0000,2578A,104.89,26.5939,六盘水市,水钢,,31,31,29,20,15,88,,93,93,8,10,7,8,0.4,0.4
2024-09-24T0000,2579A,104.8475,26.5894,六盘水市,民中,,26,25,20,14,14,81,,97,90,9,8,6,7,0.4,0.4
2024-09-24T0000,2580A,104.9544,26.5506,六盘水市,双水,,29,29,26,19,11,82,,95,94,9,9,8,9,0.3,0.3
2024-09-24T0000,2335A,117.0189,25.1181,龙岩市,龙岩师专,,,,,,,,,,,,,,,,
2024-09-24T0000,2336A,117.0217,25.1033,龙岩市,龙岩市监测站,,11,,7,7,5,34,,60,45,10,10,5,7,0.6,0.5
2024-09-24T0000,2337A,117.0258,25.0661,龙岩市,闽西职业技术学院,,13,12,7,9,6,31,,61,45,11,6,5,3,0.7,0.6
2024-09-24T0000,2338A,117.0196,25.0306,龙岩市,龙岩学院,,16,,8,11,5,32,,59,45,11,8,3,2,0.7,0.5
2024-09-24T0000,2665A,105.0822,33.3261,陇南市,汉王镇固水子,,,,,,,,,,,,,,,,
2024-09-24T0000,2885A,104.9339,33.3826,陇南市,滨江中学,,46,46,45,19,16,46,,85,65,14,12,7,8,0.6,0.6
2024-09-24T0000,3247A,104.955,33.371,陇南市,市总工会,,32,32,34,7,8,60,,88,73,3,8,8,8,0.4,0.4
2024-09-24T0000,2487A,111.9589,27.8901,娄底市,电视发射台,,40,,42,26,19,126,,129,129,7,7,5,5,0.3,0.4
2024-09-24T0000,2488A,111.9975,27.725,娄底市,市监测站,颗粒物(PM10),51,51,52,31,22,123,,140,134,23,10,15,8,0.8,0.7
2024-09-24T0000,2489A,112.0194,27.7314,娄底市,市委党校,,48,48,39,31,22,134,,131,131,7,7,6,5,0.6,0.6
2024-09-24T0000,2490A,111.9561,27.7569,娄底市,涟钢,细颗粒物(PM2.5),65,64,42,47,24,67,,111,103,15,13,4,6,0.5,0.7
2024-09-24T0000,2491A,111.9892,27.7044,娄底市,市政府,,49,45,35,34,21,87,,136,129,18,8,8,7,0.5,0.4
2024-09-24T0000,1893A,105.4324,28.9634,泸州市,九狮山,细颗粒物(PM2.5),107,119,49,80,34,37,,136,92,25,14,5,6,0.7,0.5
2024-09-24T0000,1894A,105.4427,28.9063,泸州市,小市上码头,细颗粒物(PM2.5),95,88,51,71,34,70,,129,110,23,20,5,5,0.8,0.7
2024-09-24T0000,1895A,105.4241,28.8573,泸州市,兰田宪桥,细颗粒物(PM2.5),84,73,44,62,31,57,,132,100,22,18,5,5,0.6,0.5
2024-09-24T0000,1896A,105.4379,28.8833,泸州市,市环监站,细颗粒物(PM2.5),107,95,49,80,38,84,,127,111,23,20,7,7,0.8,0.6
2024-09-24T0000,3490A,105.3617,28.7703,泸州市,纳溪区环保局,细颗粒物(PM2.5),83,74,41,61,34,7,,131,73,57,29,5,6,0.8,0.6
2024-09-24T0000,2183A,111.1406,37.5211,吕梁市,环保局,颗粒物(PM10),59,68,68,23,27,26,,132,64,48,33,5,6,0.6,0.6
2024-09-24T0000,2185A,111.1297,37.5136,吕梁市,自来水公司,颗粒物(PM10),66,82,75,26,24,34,,129,78,42,31,5,5,0.5,0.5
2024-09-24T0000,2867A,111.1283,37.51,吕梁市,马茂庄小学,颗粒物(PM10),66,82,73,24,25,16,,135,66,61,38,5,5,0.6,0.7
2024-09-24T0000,1812A,112.3931,34.6516,洛阳市,市委党校,细颗粒物(PM2.5),84,107,64,62,39,8,,151,114,89,35,10,9,0.8,0.6
2024-09-24T0000,1814A,112.4657,34.6871,洛阳市,豫西宾馆,颗粒物(PM10),70,90,63,43,30,72,,136,101,36,28,11,12,0.5,0.5
2024-09-24T0000,1815A,112.494,34.6886,洛阳市,河南林校,颗粒物(PM10),70,90,55,50,35,58,,143,102,45,26,7,8,0.6,0.6
2024-09-24T0000,1816A,112.3844,34.623,洛阳市,开发区管委会,细颗粒物(PM2.5),67,74,55,48,38,79,,148,116,24,25,3,4,0.5,0.4
2024-09-24T0000,1817A,112.4267,34.6258,洛阳市,市委新办公区,细颗粒物(PM2.5),70,72,62,51,44,89,,145,110,19,21,5,4,0.6,0.6
2024-09-24T0000,3340A,112.6005,34.6326,洛阳市,伊滨,细颗粒物(PM2.5),97,97,59,72,41,29,,144,94,52,28,8,10,0.8,0.6
2024-09-24T0000,3341A,112.4951,34.6332,洛阳市,中移产业园,细颗粒物(PM2.5),72,90,61,52,40,61,,151,107,43,28,5,6,0.6,0.5
2024-09-24T0000,3593A,112.5736,34.8993,洛阳市,吉利监测站,颗粒物(PM10),61,72,60,33,28,10,,139,83,75,30,3,7,0.2,0.3
2024-09-24T0000,3635A,112.3677,34.662,洛阳市,河科大西苑校区,细颗粒物(PM2.5),90,109,62,67,39,6,,155,96,79,32,12,8,0.8,0.6
2024-09-24T0000,3636A,112.4388,34.6781,洛阳市,英才小学,颗粒物(PM10),73,95,65,46,31,68,,147,107,45,34,5,6,0.6,0.5
2024-09-24T0000,2399A,114.051,33.5699,漯河市,三五一五工厂,细颗粒物(PM2.5),102,134,74,76,46,40,,165,113,51,26,12,11,0.8,0.6
2024-09-24T0000,2400A,114.0055,33.5698,漯河市,漯河大学,细颗粒物(PM2.5),79,105,76,58,41,55,,169,127,40,25,8,9,0.8,0.6
2024-09-24T0000,2401A,114.0138,33.5828,漯河市,市水利局,细颗粒物(PM2.5),92,127,78,68,40,38,,163,117,61,24,12,11,1.1,0.9
2024-09-24T0000,2402A,114.0261,33.5698,漯河市,市广电局,细颗粒物(PM2.5),83,98,71,61,45,76,,168,132,32,23,15,14,0.7,0.6
2024-09-24T0000,3478A,113.9749,33.5664,漯河市,市图书馆,颗粒物(PM10),79,107,70,53,34,26,,171,131,81,31,6,5,0.7,0.6
2024-09-24T0000,3479A,114.0967,33.5906,漯河市,召陵区卫健委,颗粒物(PM10),94,138,88,66,48,15,,160,91,90,36,15,12,0.9,0.7
2024-09-24T0000,1798A,118.5092,31.6837,马鞍山市,湖东路四小,,24,24,32,14,11,68,,131,102,24,18,6,8,0.6,0.5
2024-09-24T0000,1799A,118.5024,31.6449,马鞍山市,开发区,,28,28,29,13,12,81,,126,102,22,21,6,7,0.7,0.7
2024-09-24T0000,1800A,118.5228,31.7231,马鞍山市,慈湖,,26,22,23,12,12,82,,129,103,18,21,8,8,0.8,0.8
2024-09-24T0000,1802A,118.6245,31.7241,马鞍山市,濮塘,,,,22,,15,53,,117,84,13,13,7,7,0.6,0.6
2024-09-24T0000,3633A,118.4918,31.6809,马鞍山市,雨山,,25,25,29,14,12,72,,129,104,22,17,8,8,0.6,0.6
2024-09-24T0000,1686A,111.0286,21.4688,茂名市,电白南海,,17,12,22,3,8,53,,68,62,10,8,10,10,0.7,0.7
2024-09-24T0000,1687A,110.9294,21.6533,茂名市,茂石化七小,,17,17,15,9,8,36,,63,50,11,9,12,10,0.8,0.7
2024-09-24T0000,1688A,110.9107,21.6687,茂名市,健康路,,14,12,12,7,7,40,,66,50,7,6,42,18,0.9,0.8
2024-09-24T0000,1689A,110.8592,21.6828,茂名市,高岭,,18,14,17,12,10,34,,63,47,14,9,9,9,0.8,0.8
2024-09-24T0000,3450A,111.01,21.5165,茂名市,电白水东,,17,,10,3,9,52,,65,58,8,8,7,6,0.6,0.6
2024-09-24T0000,2539A,104.0308,30.0478,眉山市,黑龙滩水库,,48,45,43,33,29,75,,119,106,12,8,4,4,0.5,0.5
2024-09-24T0000,2540A,103.8416,30.0874,眉山市,气象局,,42,36,45,29,32,46,,96,87,34,31,6,8,0.6,0.6
2024-09-24T0000,3137A,103.8578,30.0744,眉山市,市委党校,,46,46,49,19,27,87,,105,103,23,27,6,8,0.4,0.5
2024-09-24T0000,3148A,103.8291,30.0564,眉山市,区人社局,,44,44,43,29,25,55,,105,100,41,28,5,9,0.5,0.5
2024-09-24T0000,1690A,116.1231,24.3284,梅州市,梅江月梅,,,,9,,4,,,36,27,,11,,6,,0.5
2024-09-24T0000,1691A,116.0797,24.2719,梅州市,梅县新城,,10,6,8,3,3,32,,40,35,8,7,4,4,0.5,0.5
2024-09-24T0000,1692A,116.1248,24.2654,梅州市,环境监控中心,,12,6,11,3,4,15,,36,25,23,14,4,4,0.5,0.6
2024-09-24T0000,3315A,116.1233,24.2991,梅州市,梅龙,,11,,7,3,5,33,,39,34,6,9,8,8,0.6,0.7
2024-09-24T0000,1878A,104.7778,31.4741,绵阳市,富乐山,,40,40,29,28,22,46,,110,85,35,13,6,3,0.7,0.5
2024-09-24T0000,1879A,104.7563,31.4535,绵阳市,市人大,颗粒物(PM10),58,66,34,40,22,53,,114,92,40,15,30,12,0.6,0.5
2024-09-24T0000,1880A,104.6697,31.4668,绵阳市,高新区自来水公司,颗粒物(PM10),57,63,36,34,19,33,,113,82,52,19,8,5,0.7,0.6
2024-09-24T0000,1881A,104.7287,31.5075,绵阳市,三水厂,颗粒物(PM10),51,52,34,29,23,22,,115,70,50,23,7,6,0.7,0.6
2024-09-24T0000,3491A,104.69,31.5322,绵阳市,西科大附属小学,颗粒物(PM10),52,53,43,29,22,30,,115,70,62,29,7,5,0.8,0.7
2024-09-24T0000,3492A,104.5648,31.5343,绵阳市,安州区旅游局,细颗粒物(PM2.5),55,56,35,39,24,47,,120,93,24,17,9,7,0.6,0.6
2024-09-24T0000,1784A,129.61,44.561,牡丹江市,环保大楼,颗粒物(PM10),62,73,28,19,16,2,,60,21,26,16,7,7,0.5,0.3
2024-09-24T0000,1785A,129.6115,44.5782,牡丹江市,文化广场,颗粒物(PM10),57,63,42,22,22,1,,54,9,30,22,9,9,0.8,0.5
2024-09-24T0000,1786A,129.5904,44.5963,牡丹江市,第一医院,,45,45,35,30,22,15,,57,22,17,16,7,7,0.4,0.4
2024-09-24T0000,1787A,129.6364,44.6075,牡丹江市,机车工厂,,38,38,32,18,18,5,,58,23,18,15,24,37,0.5,0.4
2024-09-24T0000,1788A,129.6386,44.5462,牡丹江市,第一中学,,29,29,26,18,14,4,,61,16,19,15,6,6,0.2,0.2
2024-09-24T0000,2531A,105.0703,29.61,内江市,市监测站,细颗粒物(PM2.5),77,,35,56,36,83,,138,117,22,15,9,4,0.8,0.6
2024-09-24T0000,2532A,105.0717,29.5947,内江市,东兴区政府,细颗粒物(PM2.5),73,68,41,53,34,74,,128,102,25,20,9,5,1.1,0.8
2024-09-24T0000,2533A,105.0653,29.5817,内江市,内江二中,细颗粒物(PM2.5),94,,48,70,47,78,,132,102,19,17,14,9,0.9,0.6
2024-09-24T0000,2534A,105.0406,29.5822,内江市,内江日报社,细颗粒物(PM2.5),90,88,43,67,42,49,,129,87,33,23,10,7,0.9,0.6
2024-09-24T0000,2628A,92.0657,31.4846,那曲市,那曲监测站,,23,23,34,11,13,64,,86,80,7,5,8,7,0.6,0.7
2024-09-24T0000,3128A,92.0506,31.4797,那曲市,那曲会议中心,,24,7,37,3,13,75,,92,86,7,15,4,4,1.3,1.1
2024-09-24T0000,1290A,115.8931,28.6843,南昌市,省外办,,35,35,42,17,20,73,,124,111,16,20,8,10,0.5,0.6
2024-09-24T0000,1291A,115.8886,28.7003,南昌市,省林业公司,,29,29,37,14,17,75,,132,118,12,12,6,8,0.5,0.6
2024-09-24T0000,1292A,115.8126,28.7442,南昌市,林科所,,31,31,35,14,13,82,,138,125,26,18,9,8,0.6,0.7
2024-09-24T0000,1294A,115.8518,28.687,南昌市,建工学校,,32,27,39,22,17,81,,133,121,14,15,9,11,0.5,0.5
2024-09-24T0000,1295A,115.8921,28.6424,南昌市,象湖,,30,30,32,18,18,77,,143,126,18,14,8,9,0.6,0.6
2024-09-24T0000,1296A,115.7423,28.7996,南昌市,武术学校,,19,19,18,7,11,56,,129,95,21,9,3,2,0.8,0.8
2024-09-24T0000,1298A,115.9314,28.6842,南昌市,省站,,25,19,32,15,19,78,,126,112,22,23,9,10,0.5,0.5
2024-09-24T0000,3046A,115.9084,28.6062,南昌市,机电学校,,38,38,41,14,17,69,,131,115,20,18,9,8,0.6,0.7
2024-09-24T0000,3690A,115.9721,28.7031,南昌市,外国语学校,,26,21,34,18,14,77,,128,112,10,11,7,8,0.5,0.5
2024-09-24T0000,1905A,106.056,30.8064,南充市,西山风景区,,43,32,24,30,19,85,,127,112,9,6,3,2,0.9,0.8
2024-09-24T0000,1906A,106.0789,30.8023,南充市,南充市委,颗粒物(PM10),52,54,24,26,16,37,,121,92,43,15,4,3,0.5,0.4
2024-09-24T0000,1907A,106.1031,30.8217,南充市,南充炼油厂,颗粒物(PM10),57,63,40,31,23,62,,130,105,27,11,4,3,0.3,0.2
2024-09-24T0000,1908A,106.1064,30.7856,南充市,高坪区监测站,颗粒物(PM10),52,53,33,28,20,51,,128,100,39,17,6,6,0.5,0.4
2024-09-24T0000,1909A,106.0642,30.7636,南充市,嘉陵区环保局,,46,46,34,24,16,47,,123,92,44,17,2,2,0.5,0.4
2024-09-24T0000,1910A,106.1087,30.8388,南充市,市环境监测站,,50,50,40,34,25,73,,127,104,21,13,6,4,0.3,0.2
2024-09-24T0000,1151A,118.8086,32.1065,南京市,迈皋桥,,26,19,19,9,7,34,,114,80,51,24,3,4,0.3,0.3
2024-09-24T0000,1152A,118.7538,32.0551,南京市,草场门,,27,27,25,12,9,53,,111,83,39,27,5,6,0.2,0.2
2024-09-24T0000,1153A,118.7794,32.0745,南京市,山西路,,27,27,30,17,12,53,,113,83,32,21,4,4,0.4,0.4
2024-09-24T0000,1154A,118.7752,32.0023,南京市,中华门,,24,24,26,9,8,59,,112,84,30,20,8,8,0.3,0.3
2024-09-24T0000,1155A,118.8109,32.0309,南京市,瑞金路,,28,24,26,19,11,62,,116,87,31,23,7,7,0.4,0.3
2024-09-24T0000,1156A,118.7997,32.0754,南京市,玄武湖,,29,29,27,14,9,42,,110,76,52,31,6,6,0.7,0.5
2024-09-24T0000,1157A,118.6414,32.0931,南京市,浦口,,,,28,,11,,,106,85,,11,,8,,0.6
2024-09-24T0000,1158A,118.7356,31.9996,南京市,奥体中心,,26,26,28,9,12,59,,124,94,35,19,6,6,0.3,0.3
2024-09-24T0000,1159A,118.9125,32.1028,南京市,仙林大学城,,34,34,26,12,11,40,,120,84,44,27,6,6,0.4,0.4
2024-09-24T0000,3422A,118.8436,31.9198,南京市,江宁彩虹桥,,26,20,29,9,8,83,,121,96,14,16,4,4,0.4,0.5
2024-09-24T0000,3423A,119.0138,31.6494,南京市,溧水永阳,,29,29,23,15,11,61,,120,91,19,14,3,4,0.4,0.4
2024-09-24T0000,3424A,118.879,31.3302,南京市,高淳老职中,,23,22,22,16,11,73,,121,103,19,13,5,4,0.4,0.3
2024-09-24T0000,3427A,118.8554,32.3578,南京市,六合雄州,,33,33,28,16,10,46,,104,72,22,20,8,7,0.3,0.2
2024-09-24T0000,1401A,108.3103,22.7881,南宁市,二十一中,,31,24,23,20,13,99,,104,102,15,13,6,6,0.8,0.7
2024-09-24T0000,1402A,108.3141,22.8528,南宁市,北湖,,29,29,24,18,13,86,,99,93,23,16,4,5,0.7,0.6
2024-09-24T0000,1403A,108.3206,22.8225,南宁市,市监测站,,30,14,22,14,15,95,,101,96,19,18,6,7,0.8,0.7
2024-09-24T0000,1404A,108.3829,22.8037,南宁市,大自然花园,,32,29,25,22,15,95,,107,105,15,12,21,9,0.4,0.4
2024-09-24T0000,1405A,108.4394,22.7904,南宁市,仙葫,,40,40,26,21,12,84,,104,100,14,9,13,8,0.9,0.7
2024-09-24T0000,1406A,108.2397,22.8467,南宁市,区农职院,,28,28,25,15,12,87,,106,93,12,9,6,11,0.5,0.5
2024-09-24T0000,1407A,108.3275,22.735,南宁市,英华嘉园,,43,43,36,18,15,96,,100,99,13,12,6,6,0.8,0.7
2024-09-24T0000,1408A,108.2257,22.7757,南宁市,沙井镇街道办,,36,33,26,25,19,66,,101,90,30,18,5,4,0.6,0.5
2024-09-24T0000,3401A,108.4834,22.7618,南宁市,红星社区,,37,37,27,24,15,50,,114,91,40,12,10,9,0.7,0.6
2024-09-24T0000,2331A,118.0966,26.6761,南平市,茫荡山,,,,,,,,,,,,,,,,
2024-09-24T0000,2332A,118.1681,26.6369,南平市,南平市监测站,,17,6,5,3,3,52,,71,58,8,8,4,4,0.3,0.4
2024-09-24T0000,2333A,118.1825,26.6489,南平市,南平铝业有限公司,,18,6,5,3,2,56,,75,63,8,7,3,4,0.5,0.5
2024-09-24T0000,2334A,118.1756,26.6272,南平市,南平七中,,14,8,10,3,4,42,,72,54,8,6,3,6,0.7,0.7
2024-09-24T0000,1168A,120.9098,31.9663,南通市,狼山街道,,28,18,18,8,7,87,,99,92,10,8,7,7,0.4,0.4
2024-09-24T0000,1169A,120.86,32.0005,南通市,虹桥,,27,22,18,9,8,85,,97,92,12,9,9,6,0.6,0.5
2024-09-24T0000,1170A,120.87,32.02,南通市,城中,,27,27,24,3,6,83,,94,89,13,10,8,7,0.6,0.6
2024-09-24T0000,1171A,120.94,31.93,南通市,星湖花园,,29,15,17,3,6,91,,99,90,12,13,5,5,0.5,0.4
2024-09-24T0000,1172A,120.81,32.0417,南通市,紫琅学院,,27,17,19,13,9,86,,97,84,13,12,8,8,0.5,0.4
2024-09-24T0000,3291A,121.067,32.062,南通市,通州监测站,,29,22,21,7,6,90,,101,96,14,12,3,3,0.5,0.4
2024-09-24T0000,3432A,120.9348,31.9883,南通市,环境教育馆,,30,27,25,3,5,96,,99,93,11,10,4,4,0.5,0.4
2024-09-24T0000,2404A,112.5224,33.0122,南阳市,瓦房庄,颗粒物(PM10),62,73,51,42,29,130,,158,146,23,20,6,6,0.7,0.6
2024-09-24T0000,2405A,112.5003,32.9735,南阳市,汉画馆,细颗粒物(PM2.5),92,84,50,68,36,114,,152,133,22,18,7,8,0.5,0.3
2024-09-24T0000,2406A,112.5573,33.027,南阳市,气象站,颗粒物(PM10),70,90,55,44,23,104,,162,144,35,21,9,9,0.7,0.6
2024-09-24T0000,2407A,112.5481,32.9689,南阳市,理工学院,细颗粒物(PM2.5),89,108,56,66,28,117,,157,140,22,16,8,8,0.6,0.4
2024-09-24T0000,4008A,112.5234,32.9922,南阳市,卧龙区政府,颗粒物(PM10),68,86,56,48,28,123,,158,144,26,20,6,6,0.6,0.5
2024-09-24T0000,1234A,121.8358,29.911,宁波市,区环保大楼,,41,41,39,20,19,18,,76,27,54,39,3,4,0.9,0.9
2024-09-24T0000,1235A,121.56,29.82,宁波市,万里学院,,31,31,30,17,17,48,,81,51,30,23,5,6,0.5,0.5
2024-09-24T0000,1236A,121.713,29.9572,宁波市,龙赛医院,,32,32,28,15,12,43,,62,38,40,40,8,10,0.8,0.8
2024-09-24T0000,1239A,121.633,29.7733,宁波市,钱湖水厂,,33,33,30,18,14,27,,70,48,32,22,8,9,0.6,0.6
2024-09-24T0000,1240A,121.5856,29.8635,宁波市,太古小学,,33,33,35,14,11,59,,75,50,31,29,7,8,0.8,0.8
2024-09-24T0000,1241A,121.524,29.8674,宁波市,市环境监测中心,,30,30,27,14,11,52,,76,48,29,27,10,11,0.7,0.7
2024-09-24T0000,2871A,121.6147,29.9017,宁波市,万里国际学校,,30,29,28,21,14,35,,75,56,55,31,7,8,0.6,0.6
2024-09-24T0000,3710A,121.5594,29.8975,宁波市,白沙活动中心,,32,32,27,14,11,63,,75,56,26,24,8,8,0.5,0.5
2024-09-24T0000,2339A,119.5001,26.6946,宁德市,金涵水库,,,,,,,,,,,,,,,,
2024-09-24T0000,2341A,119.5388,26.6612,宁德市,宁德市监测站,,11,11,8,7,5,33,,67,43,21,19,6,6,0.5,0.6
2024-09-24T0000,3209A,119.5231,26.6562,宁德市,宁德一中,,14,12,7,6,4,42,,71,52,12,10,5,5,0.4,0.4
2024-09-24T0000,2618A,98.8601,25.8567,怒江傈僳族自治州,州监测站,,27,27,26,18,16,63,,94,84,9,8,5,5,0.3,0.3
2024-09-24T0000,2619A,98.8546,25.8417,怒江傈僳族自治州,泸水一中,,27,27,23,15,16,48,,86,74,16,13,6,7,0.5,0.4
2024-09-24T0000,1888A,101.6891,26.571,攀枝花市,弄弄坪,,28,28,29,12,13,54,,115,72,23,17,11,12,0.7,0.7
2024-09-24T0000,1889A,101.5769,26.5928,攀枝花市,河门口,,26,26,28,15,16,42,,118,84,28,20,9,12,0.7,0.8
2024-09-24T0000,1890A,101.7169,26.585,攀枝花市,炳草岗,颗粒物(PM10),51,51,31,25,14,7,,129,70,74,30,11,12,0.9,0.8
2024-09-24T0000,1891A,101.7369,26.5008,攀枝花市,仁和,,30,30,21,18,14,47,,108,71,22,14,6,5,0.6,0.5
2024-09-24T0000,2835A,101.7227,26.567,攀枝花市,四十中小,,39,39,29,19,14,15,,122,66,58,24,23,10,0.8,0.5
2024-09-24T0000,1604A,122.0303,41.1489,盘锦市,开发区,,30,,34,13,22,93,,99,88,15,31,10,14,0.1,0.3
2024-09-24T0000,1605A,122.0485,41.0883,盘锦市,兴隆台,,28,19,30,19,19,62,,102,77,39,38,8,12,0.3,0.5
2024-09-24T0000,1606A,121.8297,41.1028,盘锦市,新生街道,,20,,22,11,15,64,,112,70,15,29,7,10,0.3,0.5
2024-09-24T0000,1832A,113.3257,33.742,平顶山市,新华旅馆,颗粒物(PM10),86,122,61,44,33,74,,158,115,51,25,19,9,0.7,0.5
2024-09-24T0000,1833A,113.2919,33.737,平顶山市,规划设计院,细颗粒物(PM2.5),65,77,57,47,28,88,,162,132,44,27,13,10,0.6,0.6
2024-09-24T0000,1834A,113.182,33.774,平顶山市,平顶山工学院,颗粒物(PM10),60,70,58,34,29,104,,155,135,28,23,9,11,0.5,0.5
2024-09-24T0000,3204A,113.3025,33.73,平顶山市,规划局,颗粒物(PM10),80,110,64,53,36,83,,161,129,47,26,19,8,0.9,0.8
2024-09-24T0000,3594A,112.8867,33.9116,平顶山市,石龙区,颗粒物(PM10),81,112,94,36,29,46,,154,92,84,58,14,17,0.7,0.6
2024-09-24T0000,2656A,106.6692,35.5461,平凉市,聚贤嘉苑,颗粒物(PM10),67,83,61,38,34,96,,132,116,34,31,7,8,0.6,0.5
2024-09-24T0000,2657A,106.7021,35.5307,平凉市,博物馆,细颗粒物(PM2.5),90,105,76,67,35,98,,136,104,40,30,11,11,0.6,0.5
2024-09-24T0000,2347A,114.0997,27.5002,萍乡市,武功山,,23,23,25,3,6,35,,92,56,4,5,7,8,0.3,0.4
2024-09-24T0000,2348A,113.8385,27.6434,萍乡市,中医院,,38,38,40,20,19,94,,113,102,8,9,32,19,0.6,0.7
2024-09-24T0000,2349A,113.8493,27.6253,萍乡市,市政府车库,,38,38,35,25,21,89,,113,100,10,10,27,14,0.6,0.8
2024-09-24T0000,2350A,113.8676,27.6435,萍乡市,市环保局,,50,50,38,34,20,84,,104,96,6,6,38,17,0.5,0.6
2024-09-24T0000,2351A,113.866,27.6198,萍乡市,安源区政府,,45,45,33,18,15,85,,114,96,28,23,11,6,0.7,0.5
2024-09-24T0000,2319A,119.0141,25.4325,莆田市,荔城区仓后路,,18,6,7,3,1,55,,68,56,10,13,7,7,0.4,0.4
2024-09-24T0000,2320A,119.0015,25.4553,莆田市,莆田市监测站,,20,6,6,3,0,62,,74,63,2,3,6,6,0.3,0.3
2024-09-24T0000,2321A,119.1119,25.4561,莆田市,涵江区六中,,18,7,9,3,3,56,,78,57,9,14,7,7,0.6,0.6
2024-09-24T0000,2322A,119.1013,25.3215,莆田市,秀屿区政府,,,,15,0,1,71,,85,75,4,6,6,6,0.6,0.6
2024-09-24T0000,2323A,118.981,25.4792,莆田市,东圳水库,,,,,,,,,,,,,,,,
2024-09-24T0000,2392A,115.0312,35.7636,濮阳市,环保局,细颗粒物(PM2.5),64,56,41,46,26,72,,162,125,41,30,8,12,0.5,0.3
2024-09-24T0000,2394A,115.0574,35.7609,濮阳市,油田运输公司,细颗粒物(PM2.5),79,84,46,58,30,74,,162,123,42,33,6,9,0.6,0.4
2024-09-24T0000,2395A,115.0866,35.7754,濮阳市,油田物探公司,细颗粒物(PM2.5),82,87,54,60,34,83,,162,126,37,35,6,10,0.5,0.3
2024-09-24T0000,3021A,115,35.7668,濮阳市,濮水河管理处,细颗粒物(PM2.5),65,58,45,47,29,47,,156,98,29,33,5,7,0.4,0.3
2024-09-24T0000,2601A,100.98,22.7633,普洱市,市环保局,,36,35,29,25,19,43,,75,60,9,8,10,11,0.4,0.4
2024-09-24T0000,2602A,100.9817,22.8322,普洱市,普洱第二中学,,27,27,27,11,13,56,,80,66,7,6,8,9,0.5,0.4
2024-09-24T0000,2262A,131.0518,45.8751,七台河市,新一中,,25,25,21,9,10,42,,94,49,9,12,10,10,1.1,1.1
2024-09-24T0000,3345A,131.0577,45.7879,七台河市,中波台,,23,23,27,6,8,32,,65,43,14,24,7,6,0.5,0.5
2024-09-24T0000,3637A,131.0176,45.7761,七台河市,人民广场,,28,28,36,11,16,38,,67,34,14,24,10,8,0.5,0.4
2024-09-24T0000,3684A,130.8781,45.8222,七台河市,新建矿广场,,39,39,51,17,17,9,,63,20,40,30,10,7,0.7,0.6
2024-09-24T0000,1779A,123.9305,47.3636,齐齐哈尔市,安居小区,,25,25,33,9,11,78,,77,77,9,15,10,11,0.3,0.4
2024-09-24T0000,1780A,123.9488,47.3386,齐齐哈尔市,中心广场,颗粒物(PM10),63,75,37,6,7,69,,74,73,9,14,2,2,0.3,0.4
2024-09-24T0000,1781A,123.9483,47.3227,齐齐哈尔市,农牧车辆厂,,,,36,4,8,74,,83,82,7,9,8,9,0.2,0.3
2024-09-24T0000,1783A,123.945,47.2988,齐齐哈尔市,市环境监测站,,24,15,25,9,9,74,,83,81,8,9,8,8,0.2,0.2
2024-09-24T0000,3662A,123.6333,47.2075,齐齐哈尔市,富区青少年活动中心,,22,10,23,3,4,70,,78,74,5,8,5,5,0.3,0.4
2024-09-24T0000,2591A,107.9783,26.5747,黔东南苗族侗族自治州,市环境监测站,,33,30,23,23,16,85,,123,109,22,12,5,5,0.5,0.4
2024-09-24T0000,2881A,107.8908,26.5311,黔东南苗族侗族自治州,凯里学院,,28,27,27,19,14,66,,133,104,28,12,3,3,0.7,0.7
2024-09-24T0000,2593A,107.5228,26.2403,黔南布依族苗族自治州,小围寨,,28,24,22,19,11,86,,140,114,9,5,6,5,0.6,0.5
2024-09-24T0000,3538A,107.5175,26.2978,黔南布依族苗族自治州,沙坝,,30,30,25,19,12,59,,138,102,15,7,4,4,0.6,0.5
2024-09-24T0000,2589A,104.9022,25.0925,黔西南布依族苗族自治州,场坝街,颗粒物(PM10),53,56,30,35,18,48,,97,75,29,15,26,13,0.5,0.4
2024-09-24T0000,2590A,104.8811,25.0992,黔西南布依族苗族自治州,坪东大道,细颗粒物(PM2.5),53,39,24,37,18,24,,94,57,41,17,8,8,0.5,0.4
2024-09-24T0000,2502A,108.6236,21.9667,钦州市,市环保站,颗粒物(PM10),62,73,40,29,15,70,,107,96,23,13,8,8,0.6,0.5
2024-09-24T0000,2503A,108.6549,21.9481,钦州市,沙埠小学,,,,41,,14,,,109,,,12,,6,,0.7
2024-09-24T0000,2504A,108.5989,21.7431,钦州市,港区一小,颗粒物(PM10),63,75,61,30,21,73,,104,88,21,19,6,8,0.6,0.6
2024-09-24T0000,3404A,108.5959,21.9633,钦州市,北职校,颗粒物(PM10),54,57,40,34,20,80,,112,97,22,12,9,7,0.8,0.7
2024-09-24T0000,1042A,119.5134,39.8207,秦皇岛市,北戴河环保局,颗粒物(PM10),54,58,33,21,12,89,,135,122,29,26,4,4,0.8,0.7
2024-09-24T0000,1043A,119.7493,40.0116,秦皇岛市,第一关,二氧化氮,66,70,48,42,25,0,,125,60,132,63,5,4,0.7,0.5
2024-09-24T0000,1044A,119.5897,39.9499,秦皇岛市,监测站,颗粒物(PM10),60,69,37,37,21,95,,130,113,29,25,2,3,0.7,0.5
2024-09-24T0000,1046A,119.5251,39.9041,秦皇岛市,建设大厦,颗粒物(PM10),56,61,49,28,16,104,,136,111,23,22,8,5,0.7,0.5
2024-09-24T0000,3132A,119.610547,39.943889,秦皇岛市,文明里,颗粒物(PM10),57,63,50,24,14,94,,131,113,30,27,4,3,0.8,0.7
2024-09-24T0000,1307A,120.6659,36.2403,青岛市,仰口,,31,14,19,13,10,98,,133,109,3,5,6,7,0.3,0.6
2024-09-24T0000,1310A,120.4134,36.0658,青岛市,市南区东部子站,颗粒物(PM10),60,70,39,19,11,27,,135,93,75,30,6,7,0.8,0.6
2024-09-24T0000,1311A,120.3664,36.1032,青岛市,四方区子站,颗粒物(PM10),60,70,41,27,15,23,,137,88,88,41,10,11,0.7,0.6
2024-09-24T0000,1312A,120.2994,36.054,青岛市,市南区西部子站,颗粒物(PM10),60,70,39,17,9,62,,144,116,38,21,10,10,0.7,0.6
2024-09-24T0000,1313A,120.4581,36.0858,青岛市,崂山区子站,,48,48,28,14,6,44,,133,90,60,25,8,9,0.7,0.6
2024-09-24T0000,1314A,120.1983,35.9608,青岛市,黄岛区子站,,39,39,31,20,13,74,,147,122,34,28,9,10,0.5,0.4
2024-09-24T0000,1315A,120.3999,36.3083,青岛市,城阳区子站,颗粒物(PM10),56,61,39,24,14,57,,134,90,40,33,9,9,0.6,0.6
2024-09-24T0000,1966A,120.0405,35.8735,青岛市,黄岛区4号,颗粒物(PM10),51,51,31,17,9,58,,145,115,45,22,7,7,0.6,0.5
2024-09-24T0000,3362A,120.5014,36.4034,青岛市,即墨2号,颗粒物(PM10),57,64,36,30,14,44,,128,85,35,23,7,7,0.5,0.4
2024-09-24T0000,3642A,120.3503,36.0736,青岛市,市北区南部,,48,48,38,24,12,27,,139,93,78,37,7,8,0.8,0.6
2024-09-24T0000,3643A,120.3948,36.1805,青岛市,李沧区北部,颗粒物(PM10),51,51,47,22,18,52,,132,78,50,38,9,10,0.7,0.6
2024-09-24T0000,1702A,113.0426,23.691,清远市,环保大楼,,21,6,19,3,5,65,,77,67,9,10,7,7,0.8,0.8
2024-09-24T0000,1703A,113.0208,23.7106,清远市,凤城街办,,20,6,16,3,9,64,,72,63,5,6,6,6,0.7,0.7
2024-09-24T0000,3025A,113.0477,23.6344,清远市,技师学院,,19,7,21,3,12,60,,75,63,7,8,6,6,0.6,0.7
2024-09-24T0000,3318A,112.9903,23.7403,清远市,清新太和,,18,6,12,3,8,56,,72,66,8,7,1,2,0.6,0.5
2024-09-24T0000,3455A,113.076,23.7198,清远市,清城东城,,7,6,13,3,9,9,,81,,2,5,3,3,0.7,0.7
2024-09-24T0000,2661A,107.6325,35.7357,庆阳市,庆阳五中,颗粒物(PM10),54,57,60,32,31,130,,146,136,11,13,7,8,0.4,0.4
2024-09-24T0000,2662A,107.6364,35.7067,庆阳市,市环保局,颗粒物(PM10),54,57,52,32,27,120,,145,134,16,12,9,7,0.5,0.5
2024-09-24T0000,1916A,103.7897,25.5035,曲靖市,环境监测站,,33,33,24,16,12,26,,89,66,36,15,5,8,0.8,0.8
2024-09-24T0000,1917A,103.8,25.5364,曲靖市,烟厂办公区,,44,44,26,21,18,24,,90,62,32,15,5,6,0.8,0.7
2024-09-24T0000,3376A,103.7947,25.462,曲靖市,南苑二区,,27,27,21,16,13,47,,95,74,14,11,7,10,0.8,0.8
2024-09-24T0000,3377A,103.7444,25.5261,曲靖市,曲靖师范学院,细颗粒物(PM2.5),78,,24,57,19,21,,94,58,34,15,89,16,1.0,1
2024-09-24T0000,1264A,118.8692,28.9398,衢州市,环保大楼,,41,41,24,28,13,61,,95,76,18,14,2,3,0.6,0.6
2024-09-24T0000,1265A,118.8709,28.9666,衢州市,实验学校,,40,33,22,28,14,56,,88,67,15,12,5,5,0.5,0.5
2024-09-24T0000,1266A,118.8621,28.9808,衢州市,衢州学院,,38,35,23,26,14,58,,87,65,18,15,6,6,0.6,0.5
2024-09-24T0000,1611A,118.5819,24.9117,泉州市,涂山街,,22,6,6,3,5,68,,77,71,11,10,2,2,0.6,0.6
2024-09-24T0000,1612A,118.5972,24.8978,泉州市,津头埔,,19,,7,7,6,59,,77,65,21,17,4,3,0.6,0.6
2024-09-24T0000,1613A,118.6663,24.9424,泉州市,万安,,21,6,8,6,5,66,,82,70,9,8,2,2,0.7,0.7
2024-09-24T0000,1614A,118.6117,24.9604,泉州市,清源山,,,,,,,,,,,,,,,,
2024-09-24T0000,3529A,118.6333,24.9264,泉州市,城华南路,,20,6,6,3,5,61,,80,68,8,8,3,3,0.4,0.4
2024-09-24T0000,2626A,88.8876,29.2718,日喀则市,日喀则监测站,,27,12,8,3,4,86,,90,86,6,7,6,5,0.3,0.4
2024-09-24T0000,3726A,88.8781,29.2426,日喀则市,林业技术推广中心,,25,,6,9,5,78,,84,77,6,7,6,6,0.6,0.6
2024-09-24T0000,1659A,119.471,35.4209,日照市,监测站,二氧化氮,53,31,28,21,13,16,,128,74,105,34,12,12,0.6,0.4
2024-09-24T0000,1660A,119.523,35.4216,日照市,市政府广场,,,,24,0,8,39,,154,109,66,22,10,11,0.6,0.6
2024-09-24T0000,1661A,119.5587,35.4044,日照市,港务局,,41,41,29,22,15,96,,155,131,32,16,9,9,0.7,0.6
2024-09-24T0000,3507A,119.5328,35.4625,日照市,职业技术学院,,34,34,26,17,10,74,,146,117,29,17,8,10,0.6,0.5
2024-09-24T0000,3604A,119.3266,35.1044,日照市,岚山环保分局,,41,41,36,19,14,101,,138,124,26,27,12,20,0.7,1.4
2024-09-24T0000,1835A,111.1922,34.7752,三门峡市,市政府,,44,44,38,29,19,127,,143,134,17,15,17,14,0.6,0.5
2024-09-24T0000,1836A,111.1587,34.7942,三门峡市,开发区,颗粒物(PM10),57,64,45,39,23,104,,135,123,18,15,14,11,0.4,0.3
2024-09-24T0000,1838A,111.143,34.7955,三门峡市,风景区,,,,46,,24,,,144,129,,15,,11,,0.8
2024-09-24T0000,3039A,111.1911,34.7829,三门峡市,三门峡市第一小学,,,,45,68,22,110,,136,124,,16,13,11,0.5,0.5
2024-09-24T0000,3598A,111.1,34.7167,三门峡市,富达温泉假日酒店,,49,49,49,28,29,101,,140,118,22,19,10,12,0.6,0.6
2024-09-24T0000,2324A,117.6211,26.2625,三明市,三钢,,16,,6,10,7,50,,69,57,9,7,8,5,0.5,0.5
2024-09-24T0000,2325A,117.635,26.2714,三明市,三明二中,,16,13,6,3,2,50,,70,57,9,6,5,3,0.8,0.7
2024-09-24T0000,2326A,117.6028,26.2378,三明市,三元区政府,,15,6,5,3,2,48,,69,56,10,8,7,3,0.7,0.5
2024-09-24T0000,2327A,117.7275,26.3108,三明市,洋溪,,,,,,,,,,,,,,,,
2024-09-24T0000,1876A,109.5078,18.2489,三亚市,河东子站,,12,12,11,3,5,33,,56,31,5,5,3,3,0.3,0.3
2024-09-24T0000,1877A,109.4964,18.2681,三亚市,河西子站,,14,14,9,3,3,33,,52,30,5,5,3,3,0.4,0.4
2024-09-24T0000,3540A,109.7348,18.3443,三亚市,君悦子站,,15,15,8,3,3,22,,52,33,5,7,3,3,0.3,0.4
2024-09-24T0000,2624A,91.7608,29.2313,山南市,山南监测站,,24,6,10,6,4,76,,86,83,4,4,8,8,0.2,0.3
2024-09-24T0000,2625A,91.7706,29.2436,山南市,山南人民医院,,26,8,14,3,6,83,,89,87,5,6,8,8,0.3,0.3
2024-09-24T0000,1674A,116.6794,23.3667,汕头市,金平子站,,12,6,10,3,6,37,,67,45,6,12,4,7,0.7,0.9
2024-09-24T0000,1675A,116.7244,23.3633,汕头市,龙湖子站,,13,6,8,3,5,39,,61,45,6,8,6,7,0.6,0.8
2024-09-24T0000,1676A,116.7258,23.2775,汕头市,濠江子站,,11,8,8,3,4,35,,52,39,8,13,5,6,0.7,0.8
