timepoint,stationcode,longitude,latitude,area,positionname,primarypollutant,aqi,pm10,pm10_24h,pm2_5,pm2_5_24h,o3,o3_24h,o3_8h,o3_8h_24h,no2,no2_24h,so2,so2_24h,co,co_24h
2024-09-24T1400,2566A,102.1879,31.914,阿坝藏族羌族自治州,州农科所,,19,16,28,10,11,58,,50,50,23,18,7,7,0.0,0
2024-09-24T1400,2568A,102.2502,31.8896,阿坝藏族羌族自治州,马师校,,22,22,18,6,8,61,,50,50,13,10,5,4,0.4,0.4
2024-09-24T1400,3994A,102.2165,31.9024,阿坝藏族羌族自治州,马尔康中学西区,,22,,16,13,19,70,,56,56,9,9,6,6,0.5,0.5
2024-09-24T1400,2695A,80.292,41.1694,阿克苏地区,电视台,,31,31,73,20,29,98,,53,50,14,31,5,5,0.4,0.6
2024-09-24T1400,2696A,80.2613,41.1551,阿克苏地区,艺术中心,,41,41,75,19,31,100,,46,46,15,32,4,4,0.5,0.9
2024-09-24T1400,2204A,105.6467,38.8363,阿拉善盟,西城区西花园,,49,49,40,20,20,128,,128,126,8,16,8,8,0.7,0.8
2024-09-24T1400,2205A,105.6985,38.8411,阿拉善盟,蒙二幼,颗粒物(PM10),53,55,37,12,12,108,,112,112,5,12,6,6,0.4,0.5
2024-09-24T1400,2206A,105.724,38.8516,阿拉善盟,环保局新楼,,44,44,28,13,12,109,,126,120,5,8,8,9,0.4,0.4
2024-09-24T1400,2708A,88.1264,47.8517,阿勒泰地区,市站,,30,24,23,6,8,96,,65,63,12,15,7,7,0.4,0.4
2024-09-24T1400,2630A,80.1161,32.5,阿里地区,阿里监测站,,33,11,16,3,7,104,,62,62,3,21,7,7,0.3,0.4
2024-09-24T1400,3192A,80.0903,32.5028,阿里地区,阿里藏医院,,32,7,15,3,4,100,,70,70,4,12,6,6,0.3,0.3
2024-09-24T1400,2642A,109.0318,32.6537,安康市,香溪洞,颗粒物(PM10),57,63,44,21,19,131,,76,76,18,14,9,9,0.3,0.3
2024-09-24T1400,2643A,109.0281,32.6939,安康市,安康市监测站,,43,28,37,20,21,136,,86,86,6,12,8,11,0.4,0.5
2024-09-24T1400,2644A,109.0072,32.6975,安康市,汉滨区检察院,,43,26,33,17,18,136,,80,80,8,12,9,9,0.4,0.4
2024-09-24T1400,2291A,117.0809,30.5177,安庆市,环科院,,50,35,35,18,19,159,,100,100,12,16,8,9,0.6,0.6
2024-09-24T1400,2292A,117.0331,30.5119,安庆市,马山宾馆,臭氧1小时,58,47,36,24,20,166,,110,110,12,16,11,11,0.3,0.3
2024-09-24T1400,2294A,116.9896,30.6145,安庆市,安庆大学,,47,37,34,18,19,149,,98,98,11,12,9,9,0.4,0.3
2024-09-24T1400,3173A,117.0598,30.5351,安庆市,市人大,臭氧1小时,52,45,34,22,19,161,,102,102,10,13,9,10,0.6,0.5
2024-09-24T1400,3123A,105.9408,26.2431,安顺市,凤凰山,,41,35,40,27,33,131,,108,108,5,10,6,12,0.5,0.5
2024-09-24T1400,3124A,105.9439,26.2564,安顺市,金钟山,,41,38,42,26,37,129,,109,109,4,7,7,10,0.6,0.6
2024-09-24T1400,3125A,105.8983,26.2481,安顺市,娄家坡,,43,35,45,30,41,130,,109,109,6,10,7,10,0.6,0.7
2024-09-24T1400,1819A,114.3551,36.1017,安阳市,红庙街,臭氧1小时,83,58,60,23,30,186,,112,112,7,21,9,9,0.4,0.7
2024-09-24T1400,1820A,114.361,36.0681,安阳市,银杏小区,,,,60,21,25,183,,100,100,7,26,8,7,0.3,0.4
2024-09-24T1400,3141A,114.3922,36.0878,安阳市,信访局,臭氧1小时,85,53,62,25,37,188,,107,107,9,32,7,7,0.5,0.6
2024-09-24T1400,3669A,114.4705,36.0637,安阳市,左辅环卫站,,,62,83,22,45,175,,102,102,,41,7,6,0.4,1.1
2024-09-24T1400,3703A,114.2917,36.0949,安阳市,安钢职工学校,臭氧1小时,75,61,66,26,39,180,,100,100,10,28,11,10,0.5,0.6
2024-09-24T1400,1748A,123.044,41.1196,鞍山市,深沟寺,,33,25,32,9,17,103,,83,83,7,15,5,7,0.5,0.7
2024-09-24T1400,1749A,123.011,41.0931,鞍山市,太阳城,,33,15,29,8,15,105,,88,88,7,15,7,9,0.4,0.6
2024-09-24T1400,1750A,123.0485,41.1442,鞍山市,太平,,33,20,34,8,16,105,,84,84,12,25,8,11,0.6,0.8
2024-09-24T1400,1751A,122.9642,41.0971,鞍山市,铁西三道街,,32,28,48,3,17,100,,75,75,12,31,6,9,0.6,0.8
2024-09-24T1400,1752A,122.9341,41.0833,鞍山市,铁西工业园区,,36,22,47,3,19,114,,79,79,8,32,7,9,0.4,0.9
2024-09-24T1400,1753A,123.022,41.0821,鞍山市,明达新区,,30,18,32,8,16,93,,80,80,7,17,5,8,0.4,0.7
2024-09-24T1400,2195A,107.4212,40.761,巴彦淖尔市,附二中,颗粒物(PM10),56,62,84,24,31,115,,74,74,5,42,6,8,0.5,1
2024-09-24T1400,2196A,107.37,40.7372,巴彦淖尔市,市环保大楼,,,48,68,18,22,120,,78,78,4,28,5,7,,0.5
2024-09-24T1400,1956A,86.1472,41.7538,巴音郭楞蒙古自治州,孔雀公园,,50,50,52,12,14,92,,91,72,14,12,10,7,0.3,0.3
2024-09-24T1400,1957A,86.1972,41.7166,巴音郭楞蒙古自治州,棉纺厂,,46,46,52,19,19,103,,86,71,7,11,6,7,0.2,0.2
2024-09-24T1400,1958A,86.2357,41.7173,巴音郭楞蒙古自治州,经济开发区,,34,29,48,14,15,106,,88,82,2,6,7,7,0.3,0.3
2024-09-24T1400,2914A,106.7677,31.8794,巴中市,苏山坪,,42,30,31,18,22,134,,100,100,8,10,5,4,0.3,0.3
2024-09-24T1400,3182A,106.7656,31.8545,巴中市,丽阳花园,,41,24,41,20,28,130,,83,83,9,23,5,5,0.4,0.6
2024-09-24T1400,3183A,106.7418,31.8654,巴中市,圣泉水务公司,,44,26,33,20,22,140,,86,86,8,21,4,3,0.5,0.5
2024-09-24T1400,3616A,106.7616,31.8344,巴中市,市中心医院,,42,26,41,16,30,132,,68,68,7,24,6,5,0.4,0.5
2024-09-24T1400,2235A,122.7911,45.6077,白城市,洮北区环保局,,,32,27,19,12,78,,71,71,17,10,,6,0.3,0.1
2024-09-24T1400,2236A,122.8738,45.5725,白城市,市环保局,,43,43,40,16,12,78,,69,69,17,13,9,6,0.4,0.3
2024-09-24T1400,2231A,126.4219,41.9171,白山市,喜丰,,27,20,36,6,11,85,,44,44,3,17,8,8,0.5,0.6
2024-09-24T1400,2232A,126.4077,41.9419,白山市,环保局,,25,16,36,11,12,78,,40,40,10,17,7,6,0.6,0.7
2024-09-24T1400,2647A,104.1724,36.5446,白银市,第三小学,颗粒物(PM10),98,145,60,26,23,120,,75,75,6,25,22,33,0.6,1
2024-09-24T1400,2648A,104.1465,36.5482,白银市,动力公司,颗粒物(PM10),109,168,51,39,24,115,,73,73,5,21,6,15,0.2,0.6
2024-09-24T1400,2512A,106.6103,23.9011,百色市,市监测站,,40,24,35,13,16,128,,66,66,6,17,7,7,0.4,0.5
2024-09-24T1400,2513A,106.6538,23.8859,百色市,市中心血站,,44,38,50,23,22,140,,68,68,9,21,12,12,0.5,0.5
2024-09-24T1400,3406A,106.6085,23.8798,百色市,祈福高中,,41,41,48,21,23,126,,62,62,11,21,4,4,0.5,0.6
2024-09-24T1400,2270A,117.396,32.939,蚌埠市,工人疗养院,,47,37,53,13,20,150,,97,97,5,21,6,7,0.3,0.4
2024-09-24T1400,2271A,117.3605,32.9427,蚌埠市,百货大楼,,48,39,47,9,18,153,,102,102,3,21,8,9,0.3,0.4
2024-09-24T1400,2273A,117.4185,32.8911,蚌埠市,蚌埠学院,,47,24,42,12,23,149,,86,86,4,36,7,11,0.2,0.3
2024-09-24T1400,2274A,117.3533,32.9673,蚌埠市,淮上区政府,,45,36,44,19,23,144,,94,94,7,23,6,6,0.2,0.3
2024-09-24T1400,2275A,117.3145,32.8977,蚌埠市,高新区,,49,31,42,14,21,154,,92,92,6,31,6,9,0.3,0.4
2024-09-24T1400,3715A,117.3092,32.9314,蚌埠市,蚌埠田家炳中学,,49,38,54,15,21,155,,91,91,6,31,6,7,0.2,0.4
2024-09-24T1400,1585A,109.8756,40.6532,包头市,市环境监测站,颗粒物(PM10),54,58,74,24,27,130,,65,65,27,63,18,17,1.1,0.9
2024-09-24T1400,1587A,109.9991,40.5842,包头市,包头八中,颗粒物(PM10),52,54,64,27,36,136,,65,65,31,45,19,21,1.2,0.8
2024-09-24T1400,1588A,109.8538,40.6821,包头市,青山宾馆,颗粒物(PM10),55,60,58,17,34,131,,63,63,18,61,12,13,0.7,1
2024-09-24T1400,1589A,109.8642,40.6288,包头市,惠龙物流,颗粒物(PM10),57,64,68,30,28,129,,68,68,42,57,37,24,2.0,0.9
2024-09-24T1400,1590A,110.0377,40.5546,包头市,东河鸿龙湾,,45,40,54,20,27,144,,74,74,17,43,17,32,0.8,0.7
2024-09-24T1400,3283A,109.9154,40.5685,包头市,滨河大厦,颗粒物(PM10),60,69,51,32,27,135,,73,73,42,48,49,20,2.1,0.8
2024-09-24T1400,3419A,109.9447,40.6261,包头市,包头市委党校,颗粒物(PM10),51,52,57,27,24,136,,70,70,24,53,16,18,1.0,0.8
2024-09-24T1400,3683A,109.8331,40.6576,包头市,昆区政府,,,,56,,33,114,,47,,33,50,,19,1.5,0.9
2024-09-24T1400,1930A,107.185,34.3063,宝鸡市,庙沟村,细颗粒物(PM2.5),67,68,61,48,37,170,,94,94,22,20,10,9,0.6,0.5
2024-09-24T1400,1931A,107.0708,34.3017,宝鸡市,竹园沟,细颗粒物(PM2.5),84,88,60,62,42,173,,83,83,17,13,10,8,0.7,0.6
2024-09-24T1400,1932A,107.1906,34.3672,宝鸡市,三陆医院,细颗粒物(PM2.5),80,91,85,59,55,181,,85,85,20,36,9,12,0.7,0.7
2024-09-24T1400,1933A,107.1431,34.3547,宝鸡市,监测站,颗粒物(PM10),73,95,72,51,49,171,,81,81,20,21,8,7,0.6,0.6
2024-09-24T1400,1934A,107.1186,34.3739,宝鸡市,技工学校,细颗粒物(PM2.5),83,108,72,61,51,176,,84,84,25,23,10,9,0.7,0.7
2024-09-24T1400,1935A,107.3906,34.3528,宝鸡市,陈仓区环保局家属楼,臭氧1小时,68,76,79,37,52,174,,88,88,18,38,12,10,0.7,0.8
2024-09-24T1400,1936A,107.2058,34.3497,宝鸡市,文理学院,臭氧1小时,75,80,77,48,42,180,,81,81,16,23,10,10,0.6,0.6
2024-09-24T1400,1937A,107.2386,34.3622,宝鸡市,三迪小学,细颗粒物(PM2.5),73,85,82,53,50,176,,88,88,24,34,11,11,0.6,0.7
2024-09-24T1400,1051A,115.493,38.8632,保定市,游泳馆,臭氧1小时,94,66,62,40,35,195,,120,120,14,27,8,4,0.5,0.4
2024-09-24T1400,1052A,115.5213,38.8959,保定市,华电二区,臭氧1小时,82,69,55,45,34,185,,102,102,12,20,6,3,0.3,0.2
2024-09-24T1400,1053A,115.4713,38.9108,保定市,接待中心,细颗粒物(PM2.5),72,73,56,52,39,175,,102,102,15,26,8,4,0.2,0.2
2024-09-24T1400,1054A,115.4612,38.8416,保定市,地表水厂,臭氧1小时,85,64,66,43,41,188,,109,109,13,32,6,4,0.1,0
2024-09-24T1400,3581A,115.31981,38.95208,保定市,满城区生态环境分局,臭氧1小时,80,85,68,48,32,184,,85,85,18,28,10,5,0.6,0.4
2024-09-24T1400,3582A,115.47694,38.76408,保定市,清苑区第二中学,臭氧1小时,97,76,69,44,39,197,,103,103,11,33,6,3,0.5,0.4
2024-09-24T1400,3583A,115.62909,39.02311,保定市,徐水物探局,臭氧1小时,84,53,61,34,35,187,,85,85,13,38,10,6,0.8,0.6
2024-09-24T1400,4004A,115.4202,38.8656,保定市,双鹰农机,臭氧1小时,83,66,67,36,35,186,,112,112,18,33,6,4,0.5,0.4
2024-09-24T1400,4034A,115.5150,38.8590,保定市,植保所站,臭氧1小时,102,63,63,45,39,204,,102,102,12,38,9,6,0.4,0.3
2024-09-24T1400,2594A,99.1678,25.1081,保山市,市环境监测站,,33,24,32,10,18,104,,70,70,6,10,4,7,0.3,0.5
2024-09-24T1400,2595A,99.1711,25.1328,保山市,市环保局,,35,35,33,6,12,110,,78,78,5,6,5,6,0.4,0.4
2024-09-24T1400,1867A,109.1436,21.4086,北海市,海滩公园,,27,27,27,12,15,64,,67,61,7,7,5,6,0.5,0.5
2024-09-24T1400,1868A,109.0981,21.4661,北海市,新市环保局,,28,24,26,19,18,74,,76,70,6,8,4,4,0.6,0.7
2024-09-24T1400,1869A,109.1778,21.5233,北海市,北海工业园,,29,24,26,20,20,64,,68,60,9,9,6,6,0.6,0.6
2024-09-24T1400,3400A,109.1911,21.4415,北海市,龙潭自来水厂,,29,,24,20,20,63,,63,58,6,6,5,6,0.6,0.6
2024-09-24T1400,1001A,116.3621,39.8784,北京市,万寿西宫,颗粒物(PM10),59,67,59,37,30,158,,63,63,18,43,4,2,0.5,0.5
2024-09-24T1400,1002A,116.2202,40.2915,北京市,定陵,细颗粒物(PM2.5),70,64,37,51,26,125,,72,72,19,10,2,2,0.5,0.4
2024-09-24T1400,1003A,116.4174,39.9289,北京市,东四,臭氧1小时,59,65,58,34,28,167,,65,65,14,38,8,5,0.6,0.6
2024-09-24T1400,1004A,116.4072,39.8863,北京市,天坛,颗粒物(PM10),55,60,45,36,26,160,,60,60,15,32,3,2,0.5,0.5
2024-09-24T1400,1005A,116.462,39.9365,北京市,农展馆,颗粒物(PM10),56,62,59,32,28,151,,53,53,15,42,4,2,0.4,0.5
2024-09-24T1400,1006A,116.3392,39.9295,北京市,官园,颗粒物(PM10),57,64,58,30,27,153,,65,65,15,34,9,6,0.5,0.5
2024-09-24T1400,1007A,116.2878,39.9611,北京市,海淀万柳,颗粒物(PM10),54,57,52,34,23,143,,60,60,17,34,5,3,0.5,0.4
2024-09-24T1400,1008A,116.6636,40.135,北京市,顺义新城,颗粒物(PM10),55,60,55,34,27,148,,72,72,21,38,3,3,0.4,0.4
2024-09-24T1400,1009A,116.6275,40.3275,北京市,怀柔镇,颗粒物(PM10),64,78,41,43,24,130,,84,84,38,18,2,3,0.6,0.5
2024-09-24T1400,1010A,116.2296,40.217,北京市,昌平镇,颗粒物(PM10),69,88,51,49,25,112,,73,73,27,17,5,4,0.5,0.5
2024-09-24T1400,1011A,116.3966,39.9821,北京市,奥体中心,颗粒物(PM10),51,51,53,25,25,144,,58,58,17,41,5,3,0.6,0.5
2024-09-24T1400,1012A,116.184,39.9136,北京市,古城,颗粒物(PM10),52,53,63,23,26,138,,61,61,17,37,4,3,0.5,0.5
2024-09-24T1400,3281A,115.9718,40.4529,北京市,延庆夏都,,47,47,41,27,22,125,,90,90,10,12,1,2,0.4,0.3
2024-09-24T1400,3417A,117.0709,40.1465,北京市,平谷新城,颗粒物(PM10),60,70,45,42,26,164,,94,94,16,16,3,3,0.4,0.2
2024-09-24T1400,3418A,116.8336,40.4095,北京市,密云新城,颗粒物(PM10),61,71,44,40,19,152,,87,87,23,19,2,2,0.4,0.4
2024-09-24T1400,3671A,116.088,39.9726,北京市,门头沟三家店,颗粒物(PM10),53,55,50,27,23,130,,60,60,18,23,7,6,0.4,0.3
2024-09-24T1400,3672A,116.1541,39.8204,北京市,丰台云岗,颗粒物(PM10),52,53,56,29,27,134,,58,58,17,34,6,3,0.5,0.3
2024-09-24T1400,3673A,116.6804,39.9081,北京市,通州东关,颗粒物(PM10),61,71,79,41,36,166,,75,75,17,49,3,2,0.4,0.3
2024-09-24T1400,3674A,115.9577,39.7603,北京市,房山燕山,颗粒物(PM10),53,56,42,26,22,140,,74,74,15,14,3,2,0.5,0.4
2024-09-24T1400,3675A,116.4672,39.7733,北京市,大兴旧宫,臭氧1小时,64,63,49,33,25,171,,81,81,10,23,3,3,0.4,0.3
2024-09-24T1400,3694A,115.986,40.4563,北京市,延庆石河营,,43,43,36,23,21,113,,81,81,10,10,3,3,0.4,0.3
2024-09-24T1400,3695A,116.6151,40.3053,北京市,怀柔新城,细颗粒物(PM2.5),63,69,39,45,24,121,,86,86,40,15,2,3,0.5,0.4
2024-09-24T1400,3696A,116.2545,39.8768,北京市,丰台小屯,颗粒物(PM10),57,63,56,34,27,139,,60,60,18,43,3,2,0.6,0.5
2024-09-24T1400,3697A,116.84,40.3844,北京市,密云镇,细颗粒物(PM2.5),67,62,43,48,25,156,,78,78,19,35,5,3,0.4,0.4
2024-09-24T1400,1761A,123.8275,41.3064,本溪市,大峪,,30,17,27,9,10,94,,55,55,6,19,10,9,0.4,0.5
2024-09-24T1400,1762A,123.7567,41.3325,本溪市,溪湖,,33,33,69,6,20,92,,61,61,10,27,8,8,0.7,1
2024-09-24T1400,1763A,123.7169,41.3094,本溪市,彩屯,,26,21,52,10,25,82,,54,54,18,34,13,11,1.1,1.4
2024-09-24T1400,1764A,123.7669,41.2864,本溪市,东明,,30,29,36,8,13,94,,66,66,10,32,6,6,0.5,0.8
2024-09-24T1400,1765A,123.7992,41.2664,本溪市,新立屯,,32,24,20,3,6,100,,84,84,9,30,5,5,0.6,0.6
2024-09-24T1400,1766A,123.8142,41.3472,本溪市,威宁,,30,15,38,3,14,94,,61,61,6,26,8,9,0.4,1
2024-09-24T1400,2587A,105.2864,27.3125,毕节市,八中,,39,31,37,20,29,122,,65,65,7,11,8,7,0.5,0.5
2024-09-24T1400,2588A,105.31,27.2944,毕节市,师专,,40,28,44,20,29,127,,66,66,11,14,16,8,0.5,0.5
2024-09-24T1400,3537A,105.3631,27.3533,毕节市,长征村,,41,28,51,22,39,129,,66,66,6,8,9,7,0.5,0.6
2024-09-24T1400,1629A,118.0018,37.3617,滨州市,第二水厂,臭氧1小时,80,48,57,27,28,184,,105,105,10,36,20,14,0.6,0.6
2024-09-24T1400,1630A,117.9776,37.393,滨州市,北中新校,臭氧1小时,85,56,54,27,26,188,,114,114,7,21,15,14,0.7,0.8
2024-09-24T1400,3514A,117.9378,37.3956,滨州市,中海酒店,臭氧1小时,75,44,45,27,25,180,,116,116,12,26,12,12,0.5,0.7
2024-09-24T1400,3516A,118.0917,37.694,滨州市,金海六路,臭氧1小时,75,46,57,19,31,180,,119,119,12,21,10,23,0.7,0.8
2024-09-24T1400,4028A,117.9956,37.3753,滨州市,滨州市西街道办事处,臭氧1小时,94,48,50,29,34,195,,116,116,10,32,19,14,0.7,0.9
2024-09-24T1400,2311A,115.8072,33.8399,亳州市,污水处理厂,,46,25,52,3,31,145,,102,102,12,23,6,13,0.1,0.3
2024-09-24T1400,2312A,115.7789,33.8518,亳州市,三国揽胜宫,,45,26,47,13,37,144,,104,104,12,16,5,8,0.3,0.4
2024-09-24T1400,3332A,115.7633,33.8034,亳州市,亳州学院,,49,31,47,20,32,154,,112,112,11,16,3,6,0.3,0.4
2024-09-24T1400,2693A,82.0485,44.8556,博尔塔拉蒙古自治州,市党校,,49,49,46,10,18,100,,63,63,13,9,8,6,0.5,0.4
2024-09-24T1400,2694A,82.0806,44.8969,博尔塔拉蒙古自治州,市环保局,,48,48,57,20,19,103,,52,52,8,17,4,6,0.2,0.5
2024-09-24T1400,1071A,116.8842,38.2991,沧州市,沧县城建局,臭氧1小时,70,48,51,26,31,176,,101,101,12,37,8,8,0.5,0.5
2024-09-24T1400,1072A,116.8584,38.3254,沧州市,电视转播站,臭氧1小时,84,48,45,29,29,187,,110,110,14,40,5,8,0.4,0.4
2024-09-24T1400,1073A,116.8709,38.3228,沧州市,市环保局,臭氧1小时,77,55,47,29,30,181,,108,108,11,32,7,9,0.3,0.4
2024-09-24T1400,3324A,116.8136,38.3004,沧州市,河北水利电力学院,臭氧1小时,80,56,48,25,30,184,,109,109,12,36,8,9,0.4,0.5
2024-09-24T1400,2622A,97.1806,31.1273,昌都市,昌都监测站,,28,10,7,3,4,88,,72,66,5,6,8,7,0.4,0.5
2024-09-24T1400,3719A,97.1714,31.1406,昌都市,昌都会议中心,,30,6,5,3,4,95,,75,70,3,3,8,8,0.4,0.4
2024-09-24T1400,2690A,88.1236,43.8886,昌吉回族自治州,天山天池,,29,6,13,3,8,90,,73,73,3,4,24,22,0.4,0.4
2024-09-24T1400,2692A,87.2717,44.0297,昌吉回族自治州,新区政务中心,,49,49,42,25,22,108,,55,55,12,30,18,7,0.7,0.8
2024-09-24T1400,3613A,87.3095,44.0142,昌吉回族自治州,亚心广场,,46,46,53,17,15,104,,49,49,17,36,16,6,0.7,0.8
2024-09-24T1400,1119A,125.3325,43.9166,长春市,食品厂,,33,23,40,6,15,103,,76,76,14,35,5,6,0.3,0.4
2024-09-24T1400,1120A,125.2863,43.9027,长春市,客车厂,,33,23,33,6,14,104,,80,80,10,29,7,7,0.3,0.4
2024-09-24T1400,1121A,125.2841,43.8463,长春市,邮电学院,,33,23,30,11,10,104,,77,77,11,25,7,7,0.3,0.4
2024-09-24T1400,1122A,125.3716,43.8772,长春市,劳动公园,,,34,49,7,15,105,,84,84,10,34,9,9,,0.4
2024-09-24T1400,1123A,125.3297,43.8805,长春市,园林处,,,21,29,11,14,108,,81,81,8,24,6,6,,0.4
2024-09-24T1400,1124A,125.4605,43.79,长春市,净月潭,,30,20,17,6,8,96,,76,76,7,10,6,6,0.3,0.3
2024-09-24T1400,1126A,125.3863,43.8447,长春市,经开区环卫处,,30,17,38,3,12,94,,69,69,10,31,8,9,0.3,0.5
2024-09-24T1400,1127A,125.245,43.7783,长春市,高新区管委会,,34,13,27,3,11,107,,81,81,6,24,6,5,0.4,0.4
2024-09-24T1400,1128A,125.1761,43.8325,长春市,岱山公园,,34,27,37,15,15,107,,83,83,8,30,5,5,0.4,0.4
2024-09-24T1400,1335A,113.0833,28.2325,长沙市,经开区环保局,臭氧1小时,83,54,48,34,28,186,,123,123,16,23,3,3,0.5,0.4
2024-09-24T1400,1336A,112.8872,28.2189,长沙市,高开区环保局,臭氧1小时,62,58,55,37,30,169,,106,106,11,15,6,6,0.4,0.4
2024-09-24T1400,1337A,113.0792,28.2053,长沙市,马坡岭,,,,54,,29,206,,126,126,11,26,6,6,0.4,0.6
2024-09-24T1400,1338A,112.9394,28.19,长沙市,湖南师范大学,臭氧1小时,82,76,63,33,34,185,,115,115,9,16,8,6,0.5,0.4
2024-09-24T1400,1339A,113.0178,28.1322,长沙市,雨花区环保局,,,,51,27,25,184,,116,116,8,22,8,8,0.5,0.5
2024-09-24T1400,1340A,112.9792,28.2597,长沙市,伍家岭,臭氧1小时,78,64,55,33,29,182,,117,117,6,18,5,5,0.7,0.7
2024-09-24T1400,1341A,113.0014,28.1944,长沙市,火车新站,臭氧1小时,74,57,54,27,29,179,,115,115,9,18,6,6,0.5,0.5
2024-09-24T1400,1342A,112.9844,28.1178,长沙市,天心区环保局,臭氧1小时,64,64,61,17,26,171,,97,97,11,24,4,5,0.4,0.5
2024-09-24T1400,1343A,112.8908,28.1308,长沙市,湖南中医药大学,,,,65,33,35,190,,120,120,,21,7,7,,0.7
2024-09-24T1400,1344A,112.9581,28.3611,长沙市,沙坪,臭氧1小时,70,48,42,36,27,176,,119,119,13,13,12,11,0.6,0.3
2024-09-24T1400,1727A,113.1147,36.1547,长治市,清华站,,47,26,58,17,34,149,,100,100,10,30,8,9,0.5,0.8
2024-09-24T1400,1728A,113.1031,36.1989,长治市,监测站,,44,30,51,17,33,138,,89,89,17,24,13,12,0.4,0.7
2024-09-24T1400,1730A,113.0886,36.2125,长治市,审计局,,45,32,49,19,38,144,,87,87,15,28,11,9,0.2,0.4
2024-09-24T1400,1731A,113.0844,36.1856,长治市,长治八中,,44,38,60,18,30,140,,89,89,12,23,10,9,0.6,0.8
2024-09-24T1400,2845A,113.1569,36.1911,长治市,德盛苑,,47,30,41,14,28,150,,117,117,10,14,6,7,0.5,0.7
2024-09-24T1400,3568A,113.06,36.0464,长治市,向阳小学,,49,48,64,15,41,156,,116,116,12,18,8,9,0.2,0.4
2024-09-24T1400,3569A,112.8792,36.3144,长治市,屯留一中,,47,46,56,27,35,150,,80,80,10,25,10,10,1.0,1
2024-09-24T1400,3570A,113.235,36.3489,长治市,潞城四中,,47,43,58,19,38,149,,96,96,9,29,6,9,0.1,0.6
2024-09-24T1400,1854A,111.6975,28.9703,常德市,市二中,"细颗粒物(PM2.5),臭氧1小时",62,55,74,44,51,169,,108,108,12,21,13,12,0.6,0.6
2024-09-24T1400,3138A,111.7153,29.0289,常德市,武陵区永安,臭氧1小时,73,64,66,40,46,178,,125,125,11,18,15,15,0.6,0.6
2024-09-24T1400,3139A,111.6892,28.9881,常德市,鼎城区玉霞,臭氧1小时,79,60,71,41,48,183,,116,116,10,23,16,13,0.6,0.7
2024-09-24T1400,3140A,111.6625,29.0531,常德市,武陵区长庚,臭氧1小时,80,65,65,42,40,184,,120,120,12,19,16,14,0.4,0.5
2024-09-24T1400,1196A,119.9633,31.762,常州市,市监测站,臭氧1小时,77,45,37,19,16,181,,110,110,14,16,9,8,0.4,0.4
2024-09-24T1400,1200A,119.9468,31.7069,常州市,武进监测站,臭氧1小时,88,38,28,20,12,190,,115,115,12,12,8,10,0.6,0.6
2024-09-24T1400,1201A,119.9255,31.9087,常州市,安家,臭氧1小时,52,24,40,16,20,161,,100,100,12,27,8,10,0.4,0.4
2024-09-24T1400,3002A,119.9805,31.8174,常州市,行政中心,臭氧1小时,65,30,33,17,15,172,,109,109,12,19,11,10,0.4,0.4
2024-09-24T1400,3003A,120.0522,31.7748,常州市,经开区,臭氧1小时,73,41,40,19,17,178,,112,112,19,23,12,10,0.3,0.4
2024-09-24T1400,3010A,119.9025,31.7964,常州市,钟楼,臭氧1小时,54,40,33,19,16,163,,102,102,13,20,8,10,0.3,0.3
2024-09-24T1400,3429A,119.8598,31.7066,常州市,武进经发区,臭氧1小时,62,32,40,17,21,169,,94,94,11,32,8,10,0.6,0.6
2024-09-24T1400,3430A,119.5826,31.7245,常州市,金坛城区,,,18,33,8,20,148,,108,108,,23,,10,0.6,0.6
2024-09-24T1400,2220A,120.4318,41.5881,朝阳市,西梁,,40,26,32,11,17,128,,82,82,8,16,8,6,0.6,0.6
2024-09-24T1400,2221A,120.4521,41.5646,朝阳市,河畔小区,,42,35,28,17,15,133,,92,92,6,10,9,9,0.7,0.7
2024-09-24T1400,2222A,120.4176,41.5648,朝阳市,八里堡,,41,37,34,16,16,131,,85,85,11,20,10,8,0.7,0.8
2024-09-24T1400,2223A,120.3806,41.5969,朝阳市,农业园区,,39,30,40,19,24,123,,73,73,8,19,11,9,0.8,0.7
2024-09-24T1400,1705A,116.6367,23.6719,潮州市,西园路,,16,13,15,11,5,51,,31,31,10,10,3,3,0.6,0.6
2024-09-24T1400,3026A,116.6183,23.6608,潮州市,市政府,,42,42,18,8,6,61,,41,41,10,12,5,5,0.4,0.8
2024-09-24T1400,4036A,116.6461,23.6761,潮州市,金山,,21,16,11,3,0,66,,41,41,7,8,6,7,0.6,0.6
2024-09-24T1400,2472A,113.0073,25.9061,郴州市,马头岭,颗粒物(PM10),51,52,47,14,14,108,,77,77,5,14,15,11,0.8,0.8
2024-09-24T1400,2473A,113.0116,25.8226,郴州市,市职中,,46,37,41,32,25,116,,81,81,11,18,11,8,0.6,0.6
2024-09-24T1400,2474A,113.0161,25.8001,郴州市,兴隆步行街,颗粒物(PM10),53,56,49,35,26,106,,74,74,15,20,12,9,0.6,0.6
2024-09-24T1400,2475A,113.0383,25.8071,郴州市,市审计局,细颗粒物(PM2.5),57,41,43,40,30,107,,76,76,11,17,18,14,0.8,0.8
2024-09-24T1400,2476A,113.0348,25.7759,郴州市,市环保局,,44,44,50,30,28,105,,77,77,9,16,16,12,0.7,0.8
2024-09-24T1400,1431A,103.9728,30.7236,成都市,金泉两河,,43,31,35,11,8,137,,49,49,10,24,5,3,0.5,0.5
2024-09-24T1400,1432A,104.176,30.6872,成都市,十里店,臭氧1小时,60,66,50,39,26,168,,73,73,22,33,3,2,0.7,0.6
2024-09-24T1400,1433A,104.079,30.5706,成都市,三瓦窑,细颗粒物(PM2.5),55,56,42,39,26,151,,70,70,29,33,3,3,0.4,0.6
2024-09-24T1400,1434A,104.1114,30.63,成都市,沙河铺,颗粒物(PM10),53,56,47,21,23,145,,69,69,26,31,4,3,0.7,0.7
2024-09-24T1400,1437A,104.0786,30.6531,成都市,君平街,臭氧1小时,67,56,36,15,20,173,,71,71,18,25,4,3,0.7,0.6
2024-09-24T1400,2880A,104.0239,30.65639,成都市,大石西路,臭氧1小时,52,44,36,29,18,161,,66,66,20,25,6,5,1.0,0.9
2024-09-24T1400,3136A,104.2725,30.5589,成都市,龙泉驿区区政府,臭氧1小时,62,44,37,29,21,169,,97,97,18,22,4,4,0.6,0.6
2024-09-24T1400,3357A,104.0106,30.6931,成都市,金博路,,49,49,33,15,13,149,,55,55,14,25,3,2,0.6,0.5
2024-09-24T1400,3359A,104.0578,30.5225,成都市,华阳,,45,41,42,17,21,141,,71,71,8,26,4,4,0.5,0.6
2024-09-24T1400,3487A,104.2394,30.5319,成都市,车城东七路,臭氧1小时,57,41,50,24,32,165,,86,86,11,25,4,3,0.5,0.7
2024-09-24T1400,3488A,104.3853,30.7453,成都市,青白江技师分院,臭氧1小时,60,38,38,25,23,168,,69,69,10,40,3,3,0.6,0.7
2024-09-24T1400,3489A,104.0789,30.4072,成都市,科学城,,47,41,47,30,34,149,,69,69,11,28,4,4,0.6,0.6
2024-09-24T1400,4011A,103.8506,30.6947,成都市,光华大道三段,,49,33,29,14,14,155,,66,66,10,14,4,4,0.5,0.6
2024-09-24T1400,1062A,117.9531,40.9081,承德市,铁路,,,34,34,15,14,127,,55,55,20,23,12,9,,0.4
2024-09-24T1400,1063A,117.9392,40.9763,承德市,中国银行,,44,26,27,11,10,138,,73,73,12,19,10,6,0.5,0.4
2024-09-24T1400,1064A,117.9503,40.928,承德市,开发区,,43,41,37,20,16,135,,66,66,18,22,12,10,0.4,0.4
2024-09-24T1400,1065A,117.8051,40.9655,承德市,文化中心,,41,38,42,18,14,130,,56,56,16,25,16,11,0.9,0.5
2024-09-24T1400,1066A,117.9268,41.0026,承德市,离宫,,36,34,28,23,19,115,,59,59,8,10,5,3,0.6,0.4
2024-09-24T1400,2314A,117.47,30.6618,池州市,池州学院,,47,45,44,28,23,150,,96,96,16,23,10,11,0.7,0.6
2024-09-24T1400,3237A,117.4918,30.6617,池州市,展览馆,,46,46,43,23,20,145,,94,94,13,22,7,7,0.7,0.7
2024-09-24T1400,3333A,117.5627,30.695,池州市,第八中学,,,36,44,23,20,137,,92,92,15,25,6,6,,0.8
2024-09-24T1400,3334A,117.5038,30.6243,池州市,第十二中学,,45,43,40,24,20,142,,92,92,16,20,6,6,0.7,0.8
2024-09-24T1400,1744A,118.9233,42.2816,赤峰市,松山一中,,31,18,19,10,8,99,,69,69,16,22,10,9,0.3,0.3
2024-09-24T1400,1745A,118.9576,42.2728,赤峰市,哈达街,,35,11,19,9,8,112,,78,78,12,14,9,8,0.3,0.4
2024-09-24T1400,1746A,118.8788,42.2554,赤峰市,天义路,,31,22,22,13,9,99,,72,72,20,18,7,7,0.3,0.3
2024-09-24T1400,3058A,119.2658,42.0353,赤峰市,银河街,,,48,41,18,20,120,,27,,,19,,20,0.3,0.6
2024-09-24T1400,3286A,118.9359,42.3147,赤峰市,桥北物流园区,,36,,24,20,12,115,,65,65,10,28,7,8,0.4,0.5
2024-09-24T1400,2521A,107.3476,22.4136,崇左市,市环保局江州分局,,38,32,32,13,16,119,,74,74,5,9,4,3,0.6,0.7
2024-09-24T1400,2522A,107.3702,22.3707,崇左市,城南新区,,40,32,26,16,15,127,,83,83,5,10,5,4,0.6,0.7
2024-09-24T1400,2298A,118.3093,32.3153,滁州市,老年大学,,42,24,32,8,15,134,,106,106,5,14,6,6,0.2,0.2
2024-09-24T1400,2299A,118.3244,32.2786,滁州市,人大宾馆,,42,30,33,9,14,133,,100,100,12,17,6,7,0.2,0.4
2024-09-24T1400,3207A,118.3118,32.3038,滁州市,市政府原办公楼,,41,23,30,14,18,131,,104,104,6,15,6,6,0.2,0.3
2024-09-24T1400,3331A,118.3267,32.2634,滁州市,图书馆,,44,27,34,8,12,138,,105,105,5,13,5,5,0.2,0.2
2024-09-24T1400,2605A,101.5482,25.0441,楚雄彝族自治州,州环境监测站,,30,21,36,12,28,94,,55,55,4,20,8,32,0.7,0.8
2024-09-24T1400,2606A,101.538,25.0492,楚雄彝族自治州,市经济开发区,,30,23,30,15,24,94,,57,57,5,19,5,15,0.5,0.7
2024-09-24T1400,2548A,107.5277,31.2827,达州市,达州职业技术学院,,42,42,42,13,24,131,,70,70,8,34,6,7,0.6,0.6
2024-09-24T1400,2549A,107.5086,31.2186,达州市,市环境监测站,,45,38,42,14,17,143,,72,72,17,31,10,8,0.6,0.5
2024-09-24T1400,2550A,107.4988,31.2132,达州市,凤凰小区,,48,31,34,12,18,152,,83,83,15,28,11,10,0.6,0.5
2024-09-24T1400,2551A,107.5082,31.1986,达州市,达县机关宾馆,,47,34,37,25,20,148,,80,80,21,40,6,8,0.4,0.4
2024-09-24T1400,2552A,107.4644,31.2124,达州市,市政中心,,50,47,44,24,20,158,,78,78,20,32,23,9,1.2,0.5
2024-09-24T1400,2614A,100.1542,25.7054,大理白族自治州,大理市环境监测站,,28,28,29,10,17,87,,84,76,6,8,7,7,0.6,0.6
2024-09-24T1400,2615A,100.2171,25.5811,大理白族自治州,大理古城,,35,27,25,12,16,110,,87,87,6,11,8,8,0.3,0.3
2024-09-24T1400,1109A,121.612,38.9741,大连市,甘井子,,43,20,23,8,12,137,,99,99,19,26,8,8,0.4,0.6
2024-09-24T1400,1110A,121.565,38.9511,大连市,周水子,,40,28,26,10,13,127,,82,82,13,46,8,7,0.7,0.9
2024-09-24T1400,1111A,121.5637,38.8845,大连市,星海三站,,,24,24,6,11,135,,94,94,,27,,6,0.3,0.4
2024-09-24T1400,1112A,121.6302,38.9117,大连市,青泥洼桥,,43,14,22,6,11,136,,99,99,7,29,7,7,0.2,0.2
2024-09-24T1400,1114A,121.5213,38.8661,大连市,七贤岭,,45,20,22,9,8,144,,109,109,19,15,7,7,0.5,0.5
2024-09-24T1400,1115A,121.2529,38.8061,大连市,旅顺,,,12,16,10,11,145,,116,116,10,14,5,6,,0.4
2024-09-24T1400,1116A,121.7485,39.1311,大连市,金州,,42,16,25,8,13,134,,101,101,11,20,7,6,0.7,0.7
2024-09-24T1400,1117A,121.7811,39.0496,大连市,开发区,,41,26,36,3,19,131,,87,87,6,37,7,4,0.4,0.6
2024-09-24T1400,1118A,121.9762,39.0631,大连市,双D港,,44,12,15,6,9,139,,114,114,10,16,8,8,0.5,0.6
2024-09-24T1400,1789A,124.81117,46.03138,大庆市,大同区,,46,46,37,25,20,98,,72,72,12,11,5,4,0.9,0.8
2024-09-24T1400,1790A,125.129,46.533,大庆市,龙凤区,颗粒物(PM10),53,56,48,28,17,96,,72,72,15,13,4,4,0.5,0.4
2024-09-24T1400,1791A,124.902,46.408,大庆市,红岗区,颗粒物(PM10),52,53,44,29,18,96,,76,76,12,12,7,6,0.5,0.4
2024-09-24T1400,1792A,125.153,46.586,大庆市,萨尔图区,,48,48,36,20,14,89,,72,72,13,11,7,6,0.4,0.3
2024-09-24T1400,1793A,124.9042,46.6215,大庆市,让胡路区,,39,39,31,20,19,87,,70,70,13,12,5,6,0.4,0.3
2024-09-24T1400,3481A,125.141,46.634,大庆市,萨区政府监测点,,37,37,27,18,14,96,,78,78,14,10,7,7,0.6,0.5
2024-09-24T1400,1721A,113.3819,40.1097,大同市,果树场,,48,48,54,32,30,135,,60,60,17,34,11,9,0.7,0.7
2024-09-24T1400,1723A,113.2994,40.0758,大同市,云冈宾馆,颗粒物(PM10),59,68,78,29,31,139,,62,62,24,49,16,11,0.7,0.9
2024-09-24T1400,1724A,113.3444,40.0917,大同市,大同大学,颗粒物(PM10),51,51,63,24,27,140,,68,68,19,37,13,14,0.6,0.7
2024-09-24T1400,1725A,113.2661,40.1269,大同市,安家小村,颗粒物(PM10),65,80,72,34,29,131,,63,63,27,41,18,15,0.7,0.9
2024-09-24T1400,1726A,113.2711,40.0844,大同市,教育学院,,,78,99,28,40,130,,66,66,,63,14,12,0.7,1.1
2024-09-24T1400,3282A,113.3397,40.0597,大同市,大同市卫生学校,颗粒物(PM10),54,58,76,25,30,138,,65,65,19,43,14,11,0.6,0.8
2024-09-24T1400,3565A,113.1367,40.1122,大同市,云冈站,颗粒物(PM10),84,117,98,49,38,111,,53,53,29,32,15,13,0.8,0.7
2024-09-24T1400,3566A,113.1186,40.2556,大同市,图书馆,颗粒物(PM10),66,82,61,32,30,110,,69,69,37,22,18,13,0.7,0.5
2024-09-24T1400,3567A,113.5931,40.0461,大同市,区一中,,50,48,43,18,16,158,,80,80,13,17,22,17,0.7,0.6
2024-09-24T1400,3676A,113.2802,40.0995,大同市,第二人民医院,颗粒物(PM10),66,82,82,30,31,139,,66,66,20,44,18,15,0.6,1
2024-09-24T1400,2269A,124.1069,50.4097,大兴安岭地区,科技局,,25,,14,10,12,80,,54,54,4,5,6,6,0.3,0.3
2024-09-24T1400,3663A,124.1164,50.4278,大兴安岭地区,红旗社区,,25,,10,3,7,78,,52,52,4,11,2,2,0.3,0.3
2024-09-24T1400,1600A,124.3303,40.0625,丹东市,江湾东路,,28,28,38,10,21,84,,49,49,4,20,10,11,0.6,0.8
2024-09-24T1400,1601A,124.4256,40.1503,丹东市,临江后街,,29,16,45,7,21,92,,54,54,3,20,8,8,0.5,0.7
2024-09-24T1400,1602A,124.3933,40.1461,丹东市,元宝山,,26,17,27,13,14,82,,48,48,5,15,4,4,0.4,0.7
2024-09-24T1400,1603A,124.3633,40.1092,丹东市,民主桥,,29,27,26,11,14,90,,49,49,4,22,5,5,0.5,0.6
2024-09-24T1400,3541A,109.5726,19.5167,儋州市,第一中学子站,,25,6,7,3,5,78,,60,60,5,6,5,5,0.6,0.6
2024-09-24T1400,3542A,109.5567,19.5187,儋州市,东坡学校子站,,25,6,8,3,6,77,,58,58,4,5,4,4,0.6,0.6
2024-09-24T1400,2616A,98.5842,24.428,德宏傣族景颇族自治州,德宏州监测站,,37,37,36,22,18,113,,55,55,9,13,18,9,0.6,0.7
2024-09-24T1400,3677A,98.5881,24.4368,德宏傣族景颇族自治州,芒市人民政府综合楼,,38,38,27,19,18,112,,58,58,9,12,12,8,0.6,0.7
2024-09-24T1400,1901A,104.4239,31.1208,德阳市,东山公园,颗粒物(PM10),56,61,50,22,27,161,,72,72,18,22,6,5,1.0,0.7
2024-09-24T1400,1902A,104.3826,31.1317,德阳市,西小区,颗粒物(PM10),60,70,58,38,36,149,,59,59,27,33,5,6,0.7,0.6
2024-09-24T1400,1904A,104.3553,31.1091,德阳市,耐火材料厂,颗粒物(PM10),51,51,67,20,34,151,,69,69,15,31,6,7,0.6,0.7
2024-09-24T1400,3639A,104.4019,31.1244,德阳市,市教育局,颗粒物(PM10),63,76,56,33,29,161,,59,59,27,31,5,4,0.7,0.7
2024-09-24T1400,1622A,116.3032,37.4674,德州市,儿童乐园,臭氧1小时,101,63,57,34,26,202,,134,134,13,30,14,11,0.5,0.6
2024-09-24T1400,1624A,116.2991,37.4451,德州市,监理站,臭氧1小时,104,61,51,27,25,207,,133,133,14,32,13,11,0.4,0.4
2024-09-24T1400,3066A,116.2721,37.4379,德州市,九衢泉纯净水厂,臭氧1小时,98,61,64,29,28,198,,125,125,13,52,14,10,0.5,0.5
2024-09-24T1400,3371A,116.3728,37.4403,德州市,开发区人民医院,臭氧1小时,100,58,51,27,22,200,,120,120,7,41,12,12,0.5,0.5
2024-09-24T1400,3372A,116.3572,37.4094,德州市,太阳城中学,臭氧1小时,98,68,56,22,25,198,,112,112,17,56,15,15,0.5,0.5
2024-09-24T1400,3511A,116.5652,37.3319,德州市,陵城艺术中心,臭氧1小时,83,53,51,24,24,186,,106,106,17,43,14,12,0.8,0.6
2024-09-24T1400,2621A,99.7056,27.8317,迪庆藏族自治州,迪庆州站,,,,22,6,13,72,,60,58,,12,8,9,,0.4
2024-09-24T1400,3180A,99.7136,27.8094,迪庆藏族自治州,质量技术监督局,,22,21,21,3,13,69,,64,61,10,11,6,6,0.4,0.4
2024-09-24T1400,2663A,104.6241,35.5734,定西市,东关小学,,38,34,41,26,22,103,,55,55,4,21,11,7,0.3,0.3
2024-09-24T1400,2664A,104.6194,35.5934,定西市,供电公司,,36,30,39,25,25,106,,55,55,2,18,13,7,0.2,0.2
2024-09-24T1400,1389A,113.7547,23.0494,东莞市,莞城梨川,,48,37,12,33,8,91,,39,39,22,16,6,6,0.8,0.7
2024-09-24T1400,1390A,113.7944,23.0128,东莞市,东城石井,细颗粒物(PM2.5),57,42,15,40,9,95,,35,35,28,18,5,5,0.8,0.7
2024-09-24T1400,1391A,113.7383,22.9658,东莞市,南城西平,细颗粒物(PM2.5),57,46,16,40,10,100,,37,37,25,23,4,5,0.9,0.8
2024-09-24T1400,3319A,113.7338,23.0381,东莞市,万江金泰,,46,43,15,32,8,99,,40,40,24,16,7,6,0.6,0.5
2024-09-24T1400,3626A,113.7533,23.0202,东莞市,南城元岭,细颗粒物(PM2.5),60,48,15,43,10,97,,39,39,30,14,7,6,0.8,0.7
2024-09-24T1400,3627A,113.7875,23.0457,东莞市,东城主山,,48,48,14,26,9,93,,39,39,22,17,6,6,0.6,0.6
2024-09-24T1400,1666A,118.6614,37.4309,东营市,市环保局,臭氧1小时,109,44,41,22,19,217,,136,136,16,22,16,8,0.4,0.4
2024-09-24T1400,3036A,118.6904,37.4338,东营市,开发区管委会,臭氧1小时,103,66,47,27,23,205,,129,129,19,23,14,8,0.5,0.4
2024-09-24T1400,3365A,118.5719,37.565,东营市,垦利区民丰路,臭氧1小时,67,34,37,17,19,173,,116,116,15,23,11,8,0.4,0.5
2024-09-24T1400,3498A,118.5055,37.8612,东营市,河口城区,臭氧1小时,72,44,45,20,25,177,,118,118,14,17,9,16,0.3,0.5
2024-09-24T1400,3646A,118.4978,37.4623,东营市,胜利站,臭氧1小时,70,39,36,12,20,176,,119,119,16,19,10,11,0.4,0.6
2024-09-24T1400,3734A,118.35,37.26,东营市,理想之城,臭氧1小时,105,46,43,27,25,209,,121,121,20,28,10,8,0.3,0.3
2024-09-24T1400,1591A,110.0023,39.8129,鄂尔多斯市,综合楼,颗粒物(PM10),52,53,64,12,21,122,,84,84,6,27,11,16,0.4,0.7
2024-09-24T1400,1592A,109.9486,39.8261,鄂尔多斯市,巴音孟克林场办事处,,46,46,63,9,23,110,,82,82,6,29,6,12,0.3,0.6
2024-09-24T1400,1593A,109.7736,39.5986,鄂尔多斯市,康泽苑,,46,46,51,14,20,123,,67,67,6,29,8,9,0.4,0.5
2024-09-24T1400,1594A,109.8119,39.5989,鄂尔多斯市,华泰汽车城,,46,46,53,14,24,121,,64,64,7,35,9,9,0.5,0.7
2024-09-24T1400,1595A,109.9734,39.7884,鄂尔多斯市,奥林花园,颗粒物(PM10),51,51,66,12,24,111,,72,72,8,34,5,6,0.4,0.7
2024-09-24T1400,2436A,114.8938,30.3994,鄂州市,市政府,臭氧1小时,64,29,35,18,19,171,,121,121,16,21,14,13,1.0,1
2024-09-24T1400,2437A,114.8989,30.3714,鄂州市,赵家坝,臭氧1小时,90,47,40,18,19,192,,119,119,18,23,16,12,1.2,0.8
2024-09-24T1400,3654A,114.8094,30.4089,鄂州市,精准医疗中心,臭氧1小时,68,33,40,11,20,174,,133,133,7,20,7,7,0.7,0.6
2024-09-24T1400,2454A,109.4978,30.2981,恩施土家族苗族自治州,湖北民院,,43,23,34,22,24,136,,102,102,10,16,9,9,0.7,0.8
2024-09-24T1400,2455A,109.4707,30.2798,恩施土家族苗族自治州,州电力总公司,,42,27,37,20,24,133,,90,90,17,25,9,9,0.7,0.8
2024-09-24T1400,3549A,109.5061,30.3772,恩施土家族苗族自治州,龙凤新区,,44,32,32,23,21,138,,105,105,11,12,6,6,0.6,0.8
2024-09-24T1400,2499A,108.3411,21.6158,防城港市,沙万,,37,37,36,20,26,109,,82,82,10,16,8,8,0.7,0.7
2024-09-24T1400,2500A,108.3514,21.7731,防城港市,防城档案局,,38,38,58,24,26,103,,71,71,10,19,8,9,0.6,0.7
2024-09-24T1400,2501A,108.3506,21.6414,防城港市,大海花园,,35,35,37,22,21,103,,77,77,9,12,6,7,0.8,0.8
2024-09-24T1400,1371A,113.1294,23.0067,佛山市,湾梁,,27,27,7,11,4,57,,41,38,34,24,6,6,0.8,0.7
2024-09-24T1400,1372A,113.1083,23.0478,佛山市,华材职中,,24,24,9,12,9,49,,34,34,40,32,7,6,0.6,0.5
2024-09-24T1400,1373A,113.144,23.0453,佛山市,南海气象局,,29,29,10,8,7,51,,36,33,31,20,6,6,0.6,0.5
2024-09-24T1400,1374A,113.2881,22.8094,佛山市,顺德苏岗,,32,26,11,22,5,59,,22,22,29,25,7,7,0.8,0.7
2024-09-24T1400,1376A,112.8383,22.8678,佛山市,高明孔堂,,30,29,15,21,11,63,,46,43,27,20,4,4,0.6,0.5
2024-09-24T1400,1377A,112.8836,23.1588,佛山市,三水监测站,,22,,4,15,11,60,,48,48,19,17,5,6,0.6,0.6
2024-09-24T1400,1378A,112.867,23.185,佛山市,三水云东海,,20,,6,12,9,63,,51,51,14,15,6,6,0.7,0.7
2024-09-24T1400,3625A,113.2544,22.7642,佛山市,容桂街道办,,28,22,7,19,10,54,,22,22,32,28,6,6,0.8,0.8
2024-09-24T1400,1282A,119.2681,26.0504,福州市,师大,,27,22,10,13,3,85,,57,54,15,11,1,2,0.8,0.7
2024-09-24T1400,1283A,119.2984,26.1028,福州市,五四北路,,22,22,12,14,4,70,,52,49,19,12,3,3,0.6,0.6
2024-09-24T1400,1284A,119.2648,26.0768,福州市,杨桥西路,,30,,11,21,4,89,,54,54,14,12,3,3,0.8,0.7
2024-09-24T1400,1285A,119.317,26.0746,福州市,紫阳,,20,17,12,13,4,61,,48,40,22,19,3,3,0.3,0.4
2024-09-24T1400,3048A,119.5799,26.0936,福州市,九龙,,21,9,13,3,2,65,,51,51,2,5,5,6,0.5,0.7
2024-09-24T1400,3526A,119.5189,25.9664,福州市,吴航,,18,18,12,12,9,45,,42,42,20,13,6,6,0.7,0.6
2024-09-24T1400,1755A,123.7977,41.8491,抚顺市,望花区,,31,23,61,3,24,99,,62,62,9,32,11,13,0.4,1
2024-09-24T1400,1756A,123.9161,41.8822,抚顺市,顺城区,,33,23,45,6,18,105,,62,62,11,31,7,8,0.6,0.8
2024-09-24T1400,1757A,124.0436,41.8611,抚顺市,东洲区,,33,16,34,7,15,104,,65,65,6,20,10,11,0.4,0.7
2024-09-24T1400,1758A,123.9247,41.8642,抚顺市,新抚区,,36,27,45,3,16,113,,72,72,11,34,5,5,0.3,0.5
2024-09-24T1400,1759A,124.0972,41.8961,抚顺市,大伙房水库,,35,20,22,6,9,109,,67,67,4,12,7,7,0.4,0.5
2024-09-24T1400,1760A,123.7086,41.8391,抚顺市,沈抚新城,,34,21,54,6,24,107,,73,73,10,36,10,12,0.1,0.7
2024-09-24T1400,2376A,116.2127,28.0814,抚州市,桐源党溪,,33,27,31,15,14,103,,76,76,2,5,6,8,0.6,0.6
2024-09-24T1400,2377A,116.3544,27.9831,抚州市,市站,,27,27,23,11,10,85,,69,69,6,9,3,3,0.9,1
2024-09-24T1400,2378A,116.3565,27.963,抚州市,血防站,,29,26,24,10,9,92,,73,73,7,10,2,4,0.7,0.7
2024-09-24T1400,2379A,116.3564,28.0007,抚州市,采茶剧团,,27,19,21,8,10,86,,69,69,3,6,7,7,0.4,0.5
2024-09-24T1400,2380A,116.385,27.9647,抚州市,医学分院,,30,30,23,6,9,87,,72,72,4,6,5,5,0.7,0.8
2024-09-24T1400,2207A,121.6094,41.998,阜新市,工业园区,臭氧1小时,69,68,54,22,22,175,,109,109,11,25,12,21,0.7,0.8
2024-09-24T1400,2208A,121.6697,42.0279,阜新市,长青街,臭氧1小时,54,48,48,18,23,163,,107,107,10,20,10,16,0.7,0.7
2024-09-24T1400,2209A,121.6673,42.0705,阜新市,农业园区,,49,36,46,9,37,154,,114,114,12,18,9,14,0.6,0.6
2024-09-24T1400,2210A,121.6717,42.0224,阜新市,东苑,,50,42,46,11,24,157,,103,103,12,24,6,17,0.8,0.8
2024-09-24T1400,2211A,121.6506,42.0498,阜新市,玉龙新城,臭氧1小时,65,35,42,19,21,172,,112,112,10,23,11,14,0.7,0.8
2024-09-24T1400,2301A,115.8277,32.8929,阜阳市,市监测站,,49,35,46,15,27,156,,110,110,9,20,7,9,0.3,0.4
2024-09-24T1400,2303A,115.8554,32.8605,阜阳市,开发区,臭氧1小时,52,36,60,16,30,161,,102,102,13,28,7,9,0.5,0.6
2024-09-24T1400,2875A,115.784,32.8892,阜阳市,阜阳职业技术学院,,50,31,41,13,23,158,,110,110,12,18,6,7,0.3,0.4
2024-09-24T1400,3468A,115.7901,32.8613,阜阳市,市规划展馆,臭氧1小时,55,29,41,11,23,164,,112,112,13,22,7,9,0.3,0.4
2024-09-24T1400,3469A,115.836,32.9183,阜阳市,枣园社区,臭氧1小时,54,41,52,16,26,163,,91,91,12,32,7,8,0.5,0.5
2024-09-24T1400,2669A,102.9099,34.9841,甘南藏族自治州,州政府,,33,16,36,9,18,104,,49,49,2,17,11,11,0.3,0.4
2024-09-24T1400,3380A,102.8914,34.9617,甘南藏族自治州,甘肃民族师范学院,,32,8,44,8,18,100,,43,43,4,19,4,4,0.5,0.6
2024-09-24T1400,2570A,101.9603,30.0475,甘孜藏族自治州,水桥子,,16,,13,8,5,50,,22,22,9,24,5,5,0.3,0.4
2024-09-24T1400,3065A,101.9533,29.9972,甘孜藏族自治州,州环保局,,15,9,12,3,5,46,,20,20,16,24,3,3,0.2,0.3
2024-09-24T1400,3414A,115.8347,28.932,赣江新区,桑海产业园,,38,29,38,12,15,119,,95,95,6,16,10,12,0.2,0.3
2024-09-24T1400,2362A,114.9017,25.9149,赣州市,通天岩,,39,39,28,11,23,107,,84,84,2,3,8,7,0.4,0.4
2024-09-24T1400,2363A,114.9367,25.8664,赣州市,地委,,33,25,33,23,22,90,,84,84,6,9,11,9,0.8,0.8
2024-09-24T1400,2364A,114.9461,25.8481,赣州市,气象台,,,36,36,20,22,86,,82,82,,10,7,4,0.4,0.8
2024-09-24T1400,2365A,114.9322,25.8333,赣州市,市图书馆,,31,29,35,14,18,99,,92,92,5,8,5,4,0.6,0.6
2024-09-24T1400,2366A,114.8905,25.8471,赣州市,华坚鞋城,,33,33,37,17,21,89,,84,84,6,9,2,3,0.5,0.4
2024-09-24T1400,3109A,115.0093,25.8613,赣州市,赣县区卫计委,,35,35,30,21,19,86,,75,75,7,10,6,6,0.6,0.6
2024-09-24T1400,2683A,106.2319,36.1417,固原市,马园,,38,26,9,3,18,119,,72,72,6,27,9,7,0.8,0.9
2024-09-24T1400,2684A,106.2792,36.0022,固原市,监测站,,33,22,38,8,23,103,,59,59,6,17,6,4,0.2,0.3
2024-09-24T1400,2685A,106.2375,36.0211,固原市,新区,,39,25,41,11,20,122,,75,75,3,18,7,6,0.3,0.4
2024-09-24T1400,3522A,106.2177,35.9959,固原市,原州区十五小,,40,22,39,10,21,125,,81,81,5,14,7,5,0.5,0.6
2024-09-24T1400,2544A,106.6303,30.4576,广安市,市委,臭氧1小时,84,47,43,22,29,187,,116,116,11,18,5,3,0.5,0.5
2024-09-24T1400,2545A,106.6271,30.4663,广安市,友谊中学,臭氧1小时,77,30,39,29,28,181,,108,108,12,18,4,4,0.5,0.6
2024-09-24T1400,2547A,106.6388,30.4551,广安市,广电花园,臭氧1小时,70,42,44,24,28,176,,109,109,9,17,1,3,0.4,0.5
2024-09-24T1400,2902A,106.6351,30.4865,广安市,北辰小学,臭氧1小时,78,49,46,23,27,182,,113,113,9,15,6,6,0.5,0.5
2024-09-24T1400,2523A,105.8945,32.4535,广元市,黑石坡,,23,10,30,10,19,73,,50,46,14,12,7,9,0.5,0.4
2024-09-24T1400,2524A,105.821,32.4444,广元市,老城,,29,13,28,9,16,90,,60,60,10,33,2,3,0.8,0.8
2024-09-24T1400,2526A,105.8628,32.4287,广元市,监测站,,30,22,26,3,20,94,,67,67,14,14,2,3,0.7,0.7
2024-09-24T1400,3617A,105.8047,32.4166,广元市,经开区,,42,42,41,26,24,95,,64,64,14,28,8,8,0.6,0.7
2024-09-24T1400,1345A,113.2347,23.1423,广州市,广雅中学,,20,20,12,11,6,45,,33,31,31,29,6,5,0.9,0.7
2024-09-24T1400,1346A,113.2612,23.105,广州市,市五中,,44,44,15,17,6,43,,38,31,25,18,4,4,0.9,0.8
2024-09-24T1400,1348A,113.3478,23.0916,广州市,广东商学院,,23,23,8,16,5,30,,26,19,30,22,4,4,0.7,0.6
2024-09-24T1400,1349A,113.4332,23.1047,广州市,市八十六中,,28,28,11,19,6,47,,26,22,31,24,3,3,0.7,0.6
2024-09-24T1400,1350A,113.3505,22.9483,广州市,番禺中学,,42,40,13,29,8,72,,29,29,36,26,6,4,0.8,0.7
2024-09-24T1400,1351A,113.2146,23.3916,广州市,花都师范,,22,15,10,10,5,68,,64,61,12,9,4,3,0.8,0.6
2024-09-24T1400,1353A,113.5618,23.312,广州市,九龙镇镇龙,,17,8,7,6,3,53,,37,37,9,11,6,6,0.7,0.7
2024-09-24T1400,1354A,113.2765,23.1544,广州市,麓湖,,16,16,9,11,6,37,,29,25,20,22,4,5,0.6,0.6
2024-09-24T1400,1355A,113.443,23.3035,广州市,帽峰山森林公园,,15,,3,6,4,48,,45,39,10,10,4,5,0.3,0.3
2024-09-24T1400,2846A,113.3221,23.1322,广州市,体育西,,23,20,11,16,6,34,,22,19,23,21,4,4,0.7,0.6
2024-09-24T1400,3298A,113.5717,23.5491,广州市,从化街口,,18,14,10,8,4,55,,41,40,11,13,8,8,0.7,0.7
2024-09-24T1400,3299A,113.3472,23.3692,广州市,白云竹料,,21,19,8,11,5,65,,56,52,11,9,5,5,0.6,0.6
2024-09-24T1400,3300A,113.2981,23.237,广州市,白云嘉禾,,22,22,12,14,6,44,,41,37,29,29,6,6,0.9,0.9
2024-09-24T1400,3301A,113.4256,23.1716,广州市,黄埔科学城,,22,21,8,15,4,49,,35,34,13,12,5,5,0.6,0.6
2024-09-24T1400,3302A,113.3942,23.0483,广州市,番禺大学城,,46,,15,32,7,62,,22,21,34,23,8,6,0.4,0.4
2024-09-24T1400,3303A,113.4922,22.8168,广州市,南沙黄阁,细颗粒物(PM2.5),60,43,18,43,13,158,,47,47,35,30,6,6,0.7,0.7
2024-09-24T1400,3304A,113.5342,22.7896,广州市,南沙街,,43,36,15,27,12,137,,47,47,30,26,6,7,0.7,0.7
2024-09-24T1400,3443A,113.2902,23.5544,广州市,花都梯面,,20,10,7,8,4,62,,68,62,5,6,5,5,0.6,0.6
2024-09-24T1400,3445A,113.7858,23.7478,广州市,从化良口,,14,6,5,6,3,42,,44,41,5,6,7,7,0.7,0.7
2024-09-24T1400,3446A,113.8051,23.2614,广州市,增城荔城,,18,12,6,11,3,55,,44,39,7,9,5,5,0.5,0.6
2024-09-24T1400,2506A,109.6047,23.0666,贵港市,江南子站,,36,36,42,24,23,114,,86,86,9,13,8,9,0.7,0.7
2024-09-24T1400,2507A,109.6014,23.0948,贵港市,贵城子站,,35,35,40,23,27,106,,82,82,7,12,6,8,0.7,0.7
2024-09-24T1400,2508A,109.5669,23.1065,贵港市,荷城子站,,34,34,40,17,19,90,,80,80,6,10,10,11,0.5,0.6
2024-09-24T1400,3405A,109.5886,23.1172,贵港市,新世纪学校,,31,31,39,17,22,96,,77,77,4,8,7,8,1.0,1
2024-09-24T1400,1439A,106.6899,26.5998,贵阳市,马鞍山,,40,17,31,3,16,125,,87,87,13,14,7,7,0.5,0.5
2024-09-24T1400,1440A,106.6971,26.5694,贵阳市,市环保站,,,,31,,22,138,,122,122,,10,4,5,0.3,0.5
2024-09-24T1400,1441A,106.6243,26.6266,贵阳市,鉴湖路,,43,36,36,17,18,136,,117,117,7,9,5,7,0.4,0.4
2024-09-24T1400,1442A,106.7487,26.6343,贵阳市,燕子冲,,41,,25,12,22,130,,104,104,4,11,5,6,0.3,0.4
2024-09-24T1400,1443A,106.6555,26.4365,贵阳市,碧云窝,颗粒物(PM10),51,51,51,9,18,135,,104,104,9,16,5,5,0.3,0.4
2024-09-24T1400,1444A,106.694,26.5161,贵阳市,中院村,,41,24,34,12,19,129,,113,113,5,13,6,7,0.4,0.5
2024-09-24T1400,1445A,106.7109,26.6027,贵阳市,红边门,,42,24,36,22,26,133,,109,109,8,16,5,5,0.4,0.5
2024-09-24T1400,1446A,106.7164,26.5699,贵阳市,新华路,,42,14,29,12,18,133,,119,119,4,10,4,7,0.2,0.3
2024-09-24T1400,1447A,106.674,26.5424,贵阳市,太慈桥,,41,27,29,9,18,131,,102,102,6,15,4,5,0.3,0.4
2024-09-24T1400,1862A,110.4144,25.3167,桂林市,电子科大尧山校区,,45,36,33,21,19,142,,129,129,6,8,4,5,0.7,0.7
2024-09-24T1400,1863A,110.2819,25.2697,桂林市,监测站,,48,48,35,26,19,135,,122,122,8,10,8,8,0.6,0.6
2024-09-24T1400,1864A,110.3089,25.2708,桂林市,龙隐路小学,,44,38,33,23,20,138,,128,128,5,7,8,10,0.5,0.5
2024-09-24T1400,1865A,110.2869,25.2178,桂林市,八中,颗粒物(PM10),51,52,36,21,18,140,,129,129,9,10,7,9,0.5,0.5
2024-09-24T1400,3403A,110.1764,25.2381,桂林市,创业大厦,,42,39,40,24,26,133,,119,119,7,8,8,8,0.4,0.5
2024-09-24T1400,3531A,110.296,25.1253,桂林市,旅游学院,,44,36,31,19,19,139,,128,128,5,7,8,8,0.4,0.4
2024-09-24T1400,2674A,100.2561,34.4714,果洛藏族自治州,玛沁县大武镇,,34,18,29,3,12,107,,64,64,1,7,9,9,0.4,0.4
2024-09-24T1400,1129A,126.5422,45.755,哈尔滨市,岭北,,45,24,26,12,13,143,,107,107,11,17,7,7,0.8,0.7
2024-09-24T1400,1130A,126.561,45.8167,哈尔滨市,松北商大,,37,34,33,13,12,117,,81,81,12,26,10,9,0.6,0.5
2024-09-24T1400,1131A,126.979,45.5419,哈尔滨市,阿城会宁,,35,30,27,9,11,111,,77,77,10,18,12,12,0.5,0.5
2024-09-24T1400,1132A,126.599,45.7222,哈尔滨市,南岗学府路,颗粒物(PM10),52,54,59,17,15,120,,78,78,12,36,9,9,0.6,0.6
2024-09-24T1400,1133A,126.689,45.7733,哈尔滨市,太平宏伟公园,,47,47,38,14,15,114,,73,73,16,26,10,10,0.6,0.6
2024-09-24T1400,1134A,126.635,45.7667,哈尔滨市,道外承德广场,,,52,40,22,16,107,,75,75,,33,7,7,0.7,0.4
2024-09-24T1400,1135A,126.685,45.7319,哈尔滨市,香坊红旗大街,颗粒物(PM10),53,56,41,13,14,114,,74,74,17,30,9,10,0.7,0.7
2024-09-24T1400,1136A,126.6411,45.7258,哈尔滨市,动力和平路,,37,36,41,18,17,116,,73,73,14,26,10,14,0.7,0.7
2024-09-24T1400,1137A,126.593,45.7478,哈尔滨市,道里建国路,,45,45,38,16,15,117,,81,81,14,33,11,10,1.0,1.2
2024-09-24T1400,1138A,126.615,45.61,哈尔滨市,平房东轻厂,,46,46,31,17,11,116,,80,80,12,18,7,7,0.6,0.5
2024-09-24T1400,1139A,126.595,45.9855,哈尔滨市,呼兰师专,颗粒物(PM10),53,56,44,18,17,102,,66,66,23,38,10,9,0.8,0.7
2024-09-24T1400,1140A,126.6206,45.6842,哈尔滨市,省农科院,,,,64,,23,101,,70,70,,46,5,7,0.6,0.7
2024-09-24T1400,2688A,93.5128,42.8172,哈密市,地区监测站,,37,25,55,14,19,116,,97,97,2,9,6,8,0.2,0.2
2024-09-24T1400,2689A,93.4961,42.8328,哈密市,哈密师范学校,,36,34,47,17,17,114,,95,95,4,13,5,4,0.2,0.3
2024-09-24T1400,2671A,100.9048,36.9639,海北藏族自治州,海晏县西海镇,,,,14,,12,96,,67,67,4,7,11,13,0.3,0.4
2024-09-24T1400,3867A,102.0738,36.5056,海东市,平安区公安北苑,,38,25,35,10,20,120,,54,54,8,16,14,14,0.6,0.7
2024-09-24T1400,1410A,110.3232,20.0574,海口市,海南大学,,25,6,13,3,8,79,,50,46,10,9,6,6,0.5,0.5
2024-09-24T1400,1412A,110.338,19.9969,海口市,海南师范大学,,23,15,13,3,13,72,,49,46,14,11,5,5,0.6,0.6
2024-09-24T1400,1413A,110.33,20.0356,海口市,龙华路环保局宿舍,,25,10,13,3,9,80,,50,48,8,10,4,4,0.5,0.5
2024-09-24T1400,3539A,110.5111,19.9736,海口市,桂林洋子站,,24,10,17,8,19,76,,53,53,10,7,6,5,0.5,0.5
2024-09-24T1400,2673A,100.6188,36.2866,海南藏族自治州,共和县恰卜恰镇,,30,18,27,12,8,93,,70,70,3,9,13,14,0.4,0.5
2024-09-24T1400,2676A,97.3731,37.3753,海西蒙古族藏族自治州,德令哈市,,32,24,32,13,16,102,,71,71,6,12,9,9,0.3,0.5
2024-09-24T1400,1048A,114.5302,36.6116,邯郸市,东污水处理厂,,48,46,73,17,46,153,,86,86,11,36,4,4,0.4,0.6
2024-09-24T1400,1049A,114.4918,36.5713,邯郸市,矿院,颗粒物(PM10),52,53,74,19,44,141,,69,69,8,32,5,4,0.2,0.4
2024-09-24T1400,1050A,114.484,36.6133,邯郸市,丛台公园,,46,33,59,20,40,145,,84,84,9,28,4,4,0.3,0.5
2024-09-24T1400,3458A,114.7895,36.5593,邯郸市,香泉濮院小区,臭氧1小时,59,56,78,23,43,167,,109,109,10,28,5,6,0.4,0.5
2024-09-24T1400,3579A,114.50634,36.77178,邯郸市,永年区实验高中,颗粒物(PM10),60,69,83,35,43,165,,101,101,13,37,5,6,0.6,0.8
2024-09-24T1400,3580A,114.20016,36.44293,邯郸市,峰峰矿区临水派出所,,,64,65,20,24,174,,115,115,,13,7,8,0.6,0.8
2024-09-24T1400,2634A,106.9893,33.1842,汉中市,汉川机床厂子校,,41,39,32,26,26,129,,80,80,7,7,5,5,0.4,0.4
2024-09-24T1400,2635A,107.0154,33.0706,汉中市,市监测站,,41,35,49,26,28,131,,70,70,6,16,9,10,0.4,0.6
2024-09-24T1400,2636A,107.0089,33.1138,汉中市,鑫源开发区,,42,42,39,22,24,132,,75,75,8,16,10,11,0.4,0.4
2024-09-24T1400,2637A,107.007,33.0323,汉中市,南郑大河坎水厂,,41,30,43,21,29,129,,65,65,7,15,9,9,0.4,0.5
2024-09-24T1400,1223A,120.2072,30.2111,杭州市,滨江,,50,50,41,19,17,103,,65,65,20,26,5,5,0.7,0.6
2024-09-24T1400,1224A,120.0633,30.2747,杭州市,西溪,,,47,37,33,20,110,,63,63,24,29,,5,0.7,0.9
2024-09-24T1400,1226A,120.3461,30.3153,杭州市,下沙,,40,34,38,17,22,126,,82,82,21,42,6,6,0.7,0.7
2024-09-24T1400,1227A,120.1269,30.2456,杭州市,卧龙桥,,40,40,34,28,21,111,,63,63,22,23,6,5,0.5,0.5
2024-09-24T1400,1228A,120.1903,30.2692,杭州市,浙江农大,,36,36,32,25,18,105,,65,65,28,32,8,8,0.6,0.7
2024-09-24T1400,1230A,120.1197,30.3119,杭州市,和睦小学,,50,50,36,22,20,127,,80,80,24,29,6,6,0.8,0.7
2024-09-24T1400,1231A,120.3019,30.4183,杭州市,临平镇,,40,37,45,17,20,128,,88,88,9,26,5,5,0.7,0.7
2024-09-24T1400,1232A,120.2697,30.1819,杭州市,城厢镇,,39,38,37,27,26,116,,66,66,19,29,6,6,0.6,0.7
2024-09-24T1400,1233A,120.0883,30.1808,杭州市,云栖,,35,35,25,21,17,84,,49,49,25,25,6,6,0.7,0.7
2024-09-24T1400,3557A,119.9464,30.0494,杭州市,镇二中,,40,35,32,28,25,65,,48,48,29,24,7,8,0.7,0.7
2024-09-24T1400,3558A,119.7183,30.2367,杭州市,市府大楼,,42,28,32,16,18,132,,91,91,12,17,7,7,0.6,0.5
2024-09-24T1400,3656A,120.1556,30.2864,杭州市,消防大队,颗粒物(PM10),52,54,40,27,21,126,,78,78,17,24,8,8,0.8,0.7
2024-09-24T1400,1270A,117.1959,31.7848,合肥市,明珠广场,臭氧1小时,65,44,30,14,11,172,,102,102,15,23,8,7,0.7,0.7
2024-09-24T1400,1271A,117.3072,31.8764,合肥市,三里街,,44,24,30,12,10,140,,94,94,11,16,8,8,0.4,0.4
2024-09-24T1400,1272A,117.2588,31.8707,合肥市,琥珀山庄,,50,39,32,15,14,158,,109,109,11,16,9,8,0.4,0.4
2024-09-24T1400,1273A,117.1604,31.9052,合肥市,董铺水库,,43,34,33,9,11,135,,90,90,8,14,3,3,0.4,0.4
2024-09-24T1400,1274A,117.25,31.8571,合肥市,长江中路,臭氧1小时,52,39,35,21,15,161,,111,111,14,17,8,9,0.5,0.4
2024-09-24T1400,1275A,117.266,31.9436,合肥市,庐阳区,,47,34,40,12,13,149,,102,102,8,19,5,4,0.4,0.4
2024-09-24T1400,1276A,117.336,31.8586,合肥市,瑶海区,,43,31,32,17,12,135,,98,98,14,19,3,7,0.3,0.3
2024-09-24T1400,1277A,117.3027,31.7964,合肥市,包河区,,49,39,34,17,14,155,,89,89,14,44,14,13,0.5,0.5
2024-09-24T1400,1278A,117.2776,31.7385,合肥市,滨湖新区,,49,41,30,17,11,154,,97,97,14,23,6,6,0.6,0.5
2024-09-24T1400,1279A,117.1318,31.8403,合肥市,高新区,,45,34,32,14,15,143,,93,93,10,20,8,8,0.6,0.6
2024-09-24T1400,3464A,117.3803,31.9147,合肥市,高教基地,,43,30,26,9,12,137,,95,95,5,11,5,5,0.4,0.4
2024-09-24T1400,3614A,79.924,37.0877,和田地区,地区环保局,颗粒物(PM10),103,156,203,,75,116,,82,82,5,11,8,8,0.5,0.6
2024-09-24T1400,3615A,79.9131,37.113,和田地区,市环保局,颗粒物(PM10),104,158,249,59,66,114,,66,66,9,28,8,8,0.5,0.7
2024-09-24T1400,2516A,108.2011,24.715,河池市,东仁乐园,颗粒物(PM10),53,56,31,19,15,136,,,,7,11,8,5,0.4,0.5
2024-09-24T1400,2517A,108.0497,24.6947,河池市,市环保站,,,,27,,19,130,,86,86,7,17,10,10,0.4,0.6
2024-09-24T1400,2518A,108.0983,24.6989,河池市,市疾控中心,,44,26,38,18,25,140,,87,87,9,19,11,11,0.4,0.5
2024-09-24T1400,1696A,114.6778,23.7569,河源市,源西,,,20,10,11,8,41,,46,38,10,9,4,4,,0.6
2024-09-24T1400,1697A,114.6944,23.7586,河源市,东埔,,23,23,13,7,8,45,,47,41,16,15,2,2,0.7,0.7
2024-09-24T1400,1698A,114.6892,23.7233,河源市,老城,,15,10,10,10,3,42,,47,39,10,10,2,2,0.7,0.7
2024-09-24T1400,1718A,115.4208,35.2464,菏泽市,气象局,臭氧1小时,75,45,59,20,28,180,,138,138,10,26,7,9,0.3,0.4
2024-09-24T1400,1719A,115.4747,35.2375,菏泽市,市政协,臭氧1小时,60,38,60,12,32,168,,116,116,8,23,6,8,0.2,0.4
2024-09-24T1400,3374A,115.5564,35.0891,菏泽市,定陶老年大学,臭氧1小时,55,36,56,9,26,164,,111,111,11,23,8,8,0.1,0.3
2024-09-24T1400,3647A,115.4702,35.2706,菏泽市,菏泽医专,臭氧1小时,67,45,61,11,29,173,,121,121,13,34,7,7,0.4,0.5
2024-09-24T1400,2514A,111.5264,24.4172,贺州市,环保小区,,48,48,43,30,25,100,,94,94,12,13,4,6,0.7,0.7
2024-09-24T1400,2515A,111.5608,24.4078,贺州市,政协大楼,,50,50,43,21,22,106,,99,99,13,12,5,6,0.7,0.6
2024-09-24T1400,3534A,111.4744,24.4553,贺州市,西湾,,45,45,41,28,24,113,,97,97,11,11,5,7,0.6,0.6
2024-09-24T1400,2385A,114.17,35.9019,鹤壁市,市监测站,臭氧1小时,95,60,56,33,27,196,,116,116,18,20,9,6,0.7,0.7
2024-09-24T1400,2386A,114.2956,35.7511,鹤壁市,市交警支队,臭氧1小时,87,57,61,20,26,189,,110,110,16,46,4,5,0.4,0.6
2024-09-24T1400,2387A,114.2878,35.7306,鹤壁市,迎宾馆,臭氧1小时,93,66,63,33,33,194,,111,111,19,49,9,6,0.5,0.6
2024-09-24T1400,3474A,114.2617,35.6822,鹤壁市,大新区,臭氧1小时,90,62,64,38,39,192,,107,107,18,56,13,9,0.4,0.5
2024-09-24T1400,3596A,114.1572,35.9603,鹤壁市,南山宾馆,臭氧1小时,90,59,53,37,41,192,,123,123,12,16,7,5,0.6,0.6
2024-09-24T1400,2244A,130.2537,47.3416,鹤岗市,哈啤分公司,,29,27,31,18,20,91,,64,64,8,12,17,15,0.5,0.7
2024-09-24T1400,2246A,130.3114,47.3388,鹤岗市,东山纸板厂,,42,42,70,22,26,83,,52,52,11,27,18,18,0.2,0.4
2024-09-24T1400,2247A,130.1097,47.3382,鹤岗市,五号水库,,31,11,16,6,8,97,,66,66,5,7,17,17,0.4,0.4
2024-09-24T1400,2263A,127.4833,50.2524,黑河市,交通局,,31,31,30,20,20,76,,55,55,16,12,7,7,0.4,0.4
2024-09-24T1400,2264A,127.5144,50.2341,黑河市,环保局,,35,35,24,8,14,74,,60,60,11,8,4,4,0.5,0.4
2024-09-24T1400,2265A,127.5291,50.2472,黑河市,大黑河岛,,,,,17,16,68,,51,51,16,10,2,2,0.2,0.1
2024-09-24T1400,1074A,115.6838,37.7541,衡水市,电机北厂,臭氧1小时,80,51,50,21,24,184,,136,136,7,18,9,9,0.4,0.4
2024-09-24T1400,1075A,115.6303,37.7316,衡水市,市监测站,臭氧1小时,85,54,51,27,22,188,,125,125,12,28,9,10,0.4,0.4
2024-09-24T1400,3188A,115.6683,37.7217,衡水市,市城管局,臭氧1小时,94,51,51,18,25,195,,134,134,8,23,9,8,0.3,0.4
2024-09-24T1400,3459A,115.5989,37.5491,衡水市,地表水厂,臭氧1小时,79,48,51,29,32,183,,109,109,12,36,8,7,0.4,0.4
2024-09-24T1400,2456A,112.5003,26.9167,衡阳市,原169医院,,47,45,36,22,19,149,,113,113,9,14,12,13,0.6,0.5
2024-09-24T1400,2457A,112.6194,26.9258,衡阳市,衡阳化工总厂,颗粒物(PM10),51,51,45,24,27,142,,107,107,8,13,14,12,0.6,0.6
2024-09-24T1400,2458A,112.6211,26.8956,衡阳市,珠晖区环保局,,45,45,42,22,23,142,,110,110,8,15,12,10,0.7,0.8
2024-09-24T1400,2459A,112.6197,26.8733,衡阳市,市委党校,颗粒物(PM10),53,56,42,20,21,150,,124,124,8,12,13,14,0.7,0.7
2024-09-24T1400,2460A,112.6006,26.8919,衡阳市,市监测站,颗粒物(PM10),51,52,44,31,28,152,,117,117,8,12,12,10,0.7,0.7
2024-09-24T1400,2461A,112.5664,26.9056,衡阳市,真空机电公司,,46,44,42,21,21,147,,112,112,6,11,10,10,0.7,0.7
2024-09-24T1400,3399A,112.6703,26.882,衡阳市,师范学院,,48,47,44,23,24,152,,121,121,10,14,11,11,0.7,0.7
2024-09-24T1400,2608A,103.3772,23.3993,红河哈尼族彝族自治州,污水处理厂,,40,31,23,24,22,125,,65,65,6,11,17,17,0.5,0.5
2024-09-24T1400,2609A,103.3861,23.35,红河哈尼族彝族自治州,监测站,,,26,29,13,19,131,,84,84,,12,17,13,0.5,0.5
2024-09-24T1400,3038A,103.3758,23.368,红河哈尼族彝族自治州,州图书馆,,39,28,27,15,14,123,,74,74,5,9,18,14,0.4,0.5
2024-09-24T1400,1091A,111.6572,40.8033,呼和浩特市,小召,颗粒物(PM10),63,75,63,38,32,116,,70,70,31,41,14,10,0.9,0.8
2024-09-24T1400,1094A,111.7516,40.8369,呼和浩特市,如意水处理厂,颗粒物(PM10),65,79,68,30,27,115,,65,65,23,44,11,8,0.7,0.6
2024-09-24T1400,1095A,111.7276,40.8062,呼和浩特市,二十九中,细颗粒物(PM2.5),60,66,66,43,35,117,,67,67,27,47,9,7,0.8,0.8
2024-09-24T1400,1096A,111.5512,40.7866,呼和浩特市,工大金川校区,细颗粒物(PM2.5),67,75,71,48,33,107,,52,52,34,55,11,6,0.9,0.7
2024-09-24T1400,1097A,111.717,40.7612,呼和浩特市,化肥厂生活区,颗粒物(PM10),64,78,75,36,35,114,,64,64,29,42,14,10,0.8,0.8
2024-09-24T1400,3698A,111.5968,40.8178,呼和浩特市,红旗小学,细颗粒物(PM2.5),67,80,71,48,33,114,,55,55,36,55,13,7,0.8,0.6
2024-09-24T1400,3699A,111.6518,40.8389,呼和浩特市,海东办,,,85,64,56,33,105,,60,60,35,58,15,7,,0.7
2024-09-24T1400,2192A,119.7594,49.2261,呼伦贝尔市,区环保局,,28,28,42,10,17,51,,31,31,18,26,6,7,0.4,0.5
2024-09-24T1400,3061A,119.7512,49.1577,呼伦贝尔市,国华电力东,,29,29,26,13,15,50,,34,34,14,16,3,4,0.3,0.4
2024-09-24T1400,1250A,120.0751,30.8669,湖州市,城西水厂,,43,28,31,14,15,136,,99,99,11,20,6,6,0.5,0.5
2024-09-24T1400,2873A,120.0875,30.8955,湖州市,仁皇山新区,,50,50,32,13,15,133,,95,95,11,19,9,8,0.5,0.6
2024-09-24T1400,2907A,120.1844,30.8596,湖州市,吴兴区站,,41,41,27,21,14,125,,88,88,7,15,6,6,0.6,0.6
2024-09-24T1400,3562A,120.4148,30.8538,湖州市,南浔区站,,39,32,28,16,14,123,,93,93,12,18,8,7,0.7,0.5
2024-09-24T1400,1607A,120.9092,40.7136,葫芦岛市,龙港区,臭氧1小时,63,15,31,14,19,170,,127,127,11,17,16,14,0.8,0.8
2024-09-24T1400,1608A,120.8392,40.7514,葫芦岛市,化工街,臭氧1小时,59,53,53,12,22,167,,108,108,11,44,19,20,0.5,0.7
2024-09-24T1400,1609A,120.8341,40.7073,葫芦岛市,新区,臭氧1小时,73,35,35,13,21,178,,118,118,16,33,16,13,0.7,0.7
2024-09-24T1400,1610A,120.8695,40.7677,葫芦岛市,东城区,臭氧1小时,67,42,47,12,25,173,,102,102,10,40,14,37,0.6,0.7
2024-09-24T1400,2482A,109.5981,27.5721,怀化市,林科所,,45,30,26,21,15,142,,125,125,10,12,13,16,0.4,0.4
2024-09-24T1400,2483A,109.9453,27.5444,怀化市,河西地税局,,47,30,39,16,23,148,,120,120,6,13,9,9,0.6,0.7
2024-09-24T1400,2484A,109.9781,27.5342,怀化市,市四医院,,46,46,46,14,23,144,,117,117,4,12,7,15,0.4,0.5
2024-09-24T1400,2485A,109.9972,27.5578,怀化市,监测楼,,45,28,45,15,22,144,,110,110,6,14,4,6,0.3,0.3
2024-09-24T1400,2486A,110.0394,27.583,怀化市,市委党校,,,38,48,18,26,146,,104,104,5,17,8,16,,0.6
2024-09-24T1400,1210A,119.036,33.5981,淮安市,钵池山,,40,22,33,16,19,125,,105,105,8,21,8,8,0.8,0.8
2024-09-24T1400,1211A,119.007,33.575,淮安市,北京南路,,38,36,38,17,16,120,,105,105,16,23,7,7,0.4,0.3
2024-09-24T1400,1212A,118.989,33.6067,淮安市,市监测站,,43,27,34,14,22,135,,99,99,15,32,7,7,0.5,0.5
2024-09-24T1400,1213A,119.135,33.5039,淮安市,楚州区监测站,,39,39,43,16,27,124,,108,108,12,21,6,7,0.8,0.8
2024-09-24T1400,1214A,119.0186,33.6297,淮安市,淮阴区监测站,,42,34,45,20,23,134,,100,100,13,31,3,4,0.6,0.6
2024-09-24T1400,3426A,118.8755,33.2894,淮安市,新华书店,,47,37,43,13,20,150,,113,113,11,25,8,10,0.8,0.8
2024-09-24T1400,2282A,116.8004,33.975,淮北市,监测站,,48,29,36,14,17,152,,115,115,9,17,7,8,0.5,0.5
2024-09-24T1400,2283A,116.8091,33.9007,淮北市,烈山区政府,臭氧1小时,52,33,37,14,19,161,,115,115,7,14,7,6,0.4,0.4
2024-09-24T1400,3330A,116.8873,33.9836,淮北市,杜集区检察院,,50,32,49,13,21,159,,108,108,2,12,9,9,0.5,0.4
2024-09-24T1400,4017A,116.7923,33.9535,淮北市,市博物馆,,48,30,39,13,21,151,,116,116,8,19,6,7,0.5,0.6
2024-09-24T1400,2277A,116.8305,32.7727,淮南市,潘集区政府,,43,40,52,20,28,136,,86,86,12,28,7,8,0.3,0.4
2024-09-24T1400,2278A,117.0067,32.6524,淮南市,师范学院,,49,44,53,23,26,154,,110,110,7,21,7,8,0.5,0.5
2024-09-24T1400,2279A,116.8569,32.5951,淮南市,谢家集区政府,,50,31,48,29,28,158,,98,98,12,21,8,9,0.4,0.4
2024-09-24T1400,2280A,116.8281,32.633,淮南市,八公山区政府,臭氧1小时,60,51,53,27,26,168,,102,102,12,16,8,10,0.3,0.3
2024-09-24T1400,2281A,116.6325,32.6201,淮南市,焦岗湖风景区管理处,,39,34,42,10,19,124,,76,76,6,19,6,5,0.0,0.1
2024-09-24T1400,2894A,117.0566,32.6531,淮南市,经济技术开发区消防队,,48,40,49,14,14,151,,106,106,8,21,5,7,0.2,0.2
2024-09-24T1400,3329A,117.0108,32.5893,淮南市,山南新区,颗粒物(PM10),51,51,50,18,18,156,,118,118,11,17,3,6,0.4,0.3
2024-09-24T1400,2446A,114.9028,30.4742,黄冈市,职工中心,臭氧1小时,57,38,45,22,24,165,,125,125,5,14,8,9,0.5,0.5
2024-09-24T1400,2929A,114.8858,30.4519,黄冈市,红卫路,臭氧1小时,73,36,35,20,20,178,,134,134,9,15,10,9,0.6,0.5
2024-09-24T1400,3398A,114.9136,30.4445,黄冈市,市林业局,臭氧1小时,88,44,47,17,20,190,,139,139,10,14,10,9,0.6,0.5
2024-09-24T1400,2672A,102.0199,35.5102,黄南藏族自治州,同仁县隆务镇,,,,29,,9,90,,57,57,9,5,9,8,,0.4
2024-09-24T1400,2295A,118.2903,29.6963,黄山市,延安路89号,,40,26,18,12,7,127,,96,96,4,6,6,6,0.3,0.2
2024-09-24T1400,2296A,118.327,29.7178,黄山市,黄山东路89号,,37,25,22,12,8,117,,100,100,4,5,4,4,0.3,0.3
2024-09-24T1400,2297A,118.1371,30.2756,黄山市,黄山区政府5号楼,,35,25,31,19,15,110,,89,89,6,8,7,7,0.4,0.4
2024-09-24T1400,2423A,115.0601,30.2313,黄石市,沈家营,臭氧1小时,82,34,33,16,12,185,,130,130,10,15,15,16,0.5,0.5
2024-09-24T1400,2424A,115.0817,30.2006,黄石市,陈家湾,臭氧1小时,93,34,34,18,16,194,,126,126,7,13,19,11,0.8,0.9
2024-09-24T1400,2426A,114.8988,30.2019,黄石市,铁山,臭氧1小时,101,46,36,21,18,202,,143,143,6,19,8,10,0.4,0.4
2024-09-24T1400,2427A,115.0307,30.2092,黄石市,团城山,臭氧1小时,89,32,31,14,10,191,,132,132,10,12,15,13,0.6,0.6
2024-09-24T1400,3149A,115.0235,30.1578,黄石市,笔架山北路,臭氧1小时,73,26,28,13,10,178,,131,131,7,10,9,10,0.6,0.6
2024-09-24T1400,1392A,114.4183,23.0528,惠州市,河南岸金山湖子站,,13,12,8,9,5,32,,37,30,9,9,4,5,0.6,0.5
2024-09-24T1400,1393A,114.4053,23.0822,惠州市,下埔横江三路子站,,14,14,9,9,6,39,,47,38,9,9,3,3,0.7,0.7
2024-09-24T1400,1394A,114.4103,23.1142,惠州市,江北云山西路子站,,17,17,7,10,7,37,,41,35,8,7,4,4,0.6,0.6
2024-09-24T1400,1395A,114.4645,22.7833,惠州市,惠阳区承修路船湖子站,,20,16,11,14,8,8,,27,15,27,17,6,5,0.8,0.7
2024-09-24T1400,1396A,114.5317,22.7422,惠州市,大亚湾管委会子站,,26,20,13,18,7,37,,26,20,27,18,7,6,0.8,0.7
2024-09-24T1400,3314A,114.4338,22.8134,惠州市,惠阳秋长,,19,,6,13,7,13,,34,21,21,13,5,4,0.8,0.7
2024-09-24T1400,3452A,114.6517,22.775,惠州市,大亚湾霞涌,,11,6,9,3,5,34,,25,21,8,8,4,4,0.7,0.7
2024-09-24T1400,2240A,130.9762,45.3001,鸡西市,环保局,,27,22,47,3,18,86,,57,57,1,18,5,6,0.2,0.4
2024-09-24T1400,2243A,130.9429,45.3039,鸡西市,第一中学,,29,14,51,3,12,92,,62,62,1,24,4,5,0,0.2
2024-09-24T1400,3707A,131.0207,45.3073,鸡西市,欧美日汽修厂,,28,19,56,3,22,87,,55,55,8,19,4,6,0.0,0.2
2024-09-24T1400,3709A,130.9967,45.3106,鸡西市,市政设施管理处,,28,28,53,3,17,83,,54,54,13,24,8,7,0.1,0.3
2024-09-24T1400,2367A,114.9754,27.0803,吉安市,红声器材厂,颗粒物(PM10),51,51,41,19,18,100,,83,83,13,14,12,16,0.7,0.7
2024-09-24T1400,2368A,114.9658,27.0999,吉安市,市森林工业局,,44,44,38,25,22,98,,79,79,19,19,8,14,0.5,0.5
2024-09-24T1400,2369A,114.99,27.1312,吉安市,市环境监测站,,39,39,39,19,19,104,,84,84,11,12,14,23,0.3,0.5
2024-09-24T1400,2370A,115.0093,27.0968,吉安市,青原区法院,,44,44,39,26,20,102,,82,82,13,18,10,17,0.7,0.7
2024-09-24T1400,1772A,126.54,43.8622,吉林市,哈达湾,,26,14,22,3,11,83,,60,60,7,23,6,6,0.4,0.5
2024-09-24T1400,1773A,126.5844,43.8358,吉林市,东局子,,27,11,17,8,8,84,,60,60,8,15,4,4,0.5,0.5
2024-09-24T1400,1774A,126.5052,43.8245,吉林市,电力学院,,26,11,37,11,20,81,,55,55,6,22,3,4,0.5,0.7
2024-09-24T1400,1775A,126.6133,43.8972,吉林市,江北,,26,15,32,6,12,82,,58,58,7,16,6,6,0.5,0.6
2024-09-24T1400,1776A,126.555,43.8306,吉林市,江南公园,,27,15,23,11,11,84,,57,57,6,21,6,6,0.5,0.6
2024-09-24T1400,1778A,126.7061,43.7133,吉林市,丰满,,25,9,8,3,4,77,,53,53,3,3,6,5,0.5,0.4
2024-09-24T1400,2868A,126.4739,43.953,吉林市,九站,,27,27,40,9,13,83,,65,65,6,25,6,9,0.5,0.6
2024-09-24T1400,1299A,116.9862,36.6114,济南市,科干所,臭氧1小时,73,34,48,12,18,178,,119,119,12,41,9,7,0.6,0.6
2024-09-24T1400,1300A,116.9376,36.665,济南市,农科所,臭氧1小时,59,39,55,17,16,167,,98,98,17,52,8,6,0.5,0.6
2024-09-24T1400,1301A,117.1265,36.6734,济南市,开发区,,49,22,42,15,21,155,,128,128,10,35,7,5,0.4,0.5
2024-09-24T1400,1303A,117.0624,36.6868,济南市,省种子仓库,,,29,59,12,17,164,,101,101,,55,7,5,0.2,0.3
2024-09-24T1400,1304A,116.9489,36.6447,济南市,机床二厂,臭氧1小时,74,46,60,12,18,179,,114,114,16,45,7,5,0.6,0.8
2024-09-24T1400,1305A,117.0495,36.663,济南市,市监测站,臭氧1小时,67,32,46,12,16,173,,110,110,12,55,7,5,0.5,0.6
2024-09-24T1400,1306A,116.7675,36.5484,济南市,长清党校,臭氧1小时,94,51,38,22,17,195,,128,128,15,33,9,7,0.7,0.7
2024-09-24T1400,1616A,117.6795,36.229,济南市,技术学院,臭氧1小时,73,51,56,29,34,178,,110,110,9,32,12,11,0.7,0.9
2024-09-24T1400,1961A,117.532,36.6868,济南市,东山小学,臭氧1小时,60,37,45,15,18,168,,119,119,15,36,6,5,0.4,0.5
2024-09-24T1400,3059A,117.7161,36.2049,济南市,泰兴公司,臭氧1小时,57,51,48,22,25,165,,93,93,14,49,12,10,0.5,0.6
2024-09-24T1400,3064A,117.6867,36.2171,济南市,莱芜战役纪念馆,臭氧1小时,65,48,58,22,29,172,,101,101,15,38,10,7,0.6,0.7
2024-09-24T1400,3494A,117.1673,36.9782,济南市,济阳区政府,臭氧1小时,83,49,66,17,25,186,,98,98,13,42,8,10,0.5,0.6
2024-09-24T1400,3495A,117.1171,36.63,济南市,锦屏中学,,50,22,30,10,14,157,,129,129,14,23,7,5,0.3,0.4
2024-09-24T1400,3682A,116.9814,36.6819,济南市,济南四建,臭氧1小时,62,27,54,15,22,169,,101,101,12,55,6,4,0.5,0.7
2024-09-24T1400,1653A,116.6251,35.4302,济宁市,火炬城,,48,31,52,9,28,153,,102,102,6,30,11,11,0.5,0.7
2024-09-24T1400,1655A,116.5491,35.4042,济宁市,电化厂,,,,,,,164,,,,,,3,3,,
2024-09-24T1400,3500A,116.5814,35.3707,济宁市,北湖一中,,50,25,54,12,39,157,,110,110,10,35,5,4,0.3,0.5
2024-09-24T1400,3501A,116.8249,35.5593,济宁市,服务中心,臭氧1小时,82,54,59,27,26,185,,100,100,13,42,12,8,0.4,0.4
2024-09-24T1400,3678A,116.5907,35.4054,济宁市,市第七中学,,49,42,59,7,33,156,,115,115,8,30,10,10,0.5,0.7
2024-09-24T1400,2255A,130.2751,46.8028,佳木斯市,佳纺,,30,16,33,8,14,94,,61,61,2,23,4,4,0.4,0.4
2024-09-24T1400,2256A,130.3995,46.8307,佳木斯市,发电厂,,28,20,55,8,23,88,,50,50,5,30,7,7,0.2,0.3
2024-09-24T1400,2257A,130.3258,46.7975,佳木斯市,环保局,,28,14,29,6,12,89,,54,54,5,28,8,8,0.4,0.5
2024-09-24T1400,2258A,130.3648,46.8032,佳木斯市,十一中,,27,25,34,8,18,86,,52,52,10,37,7,7,0.5,0.6
2024-09-24T1400,2259A,130.3794,46.7588,佳木斯市,四丰,,26,8,14,3,8,83,,60,60,11,14,1,1,0.2,0.2
2024-09-24T1400,1252A,120.7436,30.778,嘉兴市,清河小学,,38,38,30,12,12,113,,96,96,23,22,5,4,0.8,0.6
2024-09-24T1400,1253A,120.726,30.7478,嘉兴市,嘉兴学院,,36,32,28,22,15,114,,95,95,21,23,3,3,0.6,0.6
2024-09-24T1400,2872A,120.7846,30.7525,嘉兴市,南湖区残联,,,28,27,19,14,,,104,104,17,22,4,5,0.5,0.4
2024-09-24T1400,3407A,120.6916,30.7739,嘉兴市,秀洲住建,,38,32,28,16,13,119,,92,92,16,20,5,5,0.7,0.6
2024-09-24T1400,1945A,98.2908,39.7711,嘉峪关市,气象局,,40,34,69,9,18,127,,70,70,3,26,7,22,0.2,0.6
2024-09-24T1400,2884A,98.2672,39.7978,嘉峪关市,酒钢宾馆,,41,39,74,9,21,129,,92,92,5,26,10,42,0.3,0.6
2024-09-24T1400,3248A,98.2643,39.7724,嘉峪关市,雄关区,,39,36,64,14,22,122,,69,69,6,28,11,17,0.2,0.4
2024-09-24T1400,1383A,113.1064,22.6058,江门市,北街,细颗粒物(PM2.5),53,,13,37,11,75,,36,36,35,27,5,4,0.9,0.8
2024-09-24T1400,1384A,113.0731,22.5835,江门市,西区,,29,20,13,20,7,85,,41,41,34,28,5,5,0.7,0.5
2024-09-24T1400,1385A,113.0219,22.5311,江门市,圭峰西,,40,33,11,28,7,104,,50,50,28,19,3,3,0.8,0.7
2024-09-24T1400,1386A,113.0828,22.5947,江门市,东湖,,46,46,15,31,7,81,,38,38,31,23,4,4,0.6,0.5
2024-09-24T1400,3311A,113.1075,22.5647,江门市,江海富民,,35,35,19,12,12,84,,39,39,33,26,7,6,0.8,0.7
2024-09-24T1400,3449A,113.05,22.4667,江门市,新会银湖,,50,,11,35,11,103,,43,43,28,25,4,4,0.9,0.8
2024-09-24T1400,1828A,113.227,35.2125,焦作市,市环保局,,,62,58,45,38,193,,115,115,,22,8,8,0.6,0.4
2024-09-24T1400,1830A,113.1992,35.2590,焦作市,影视城,臭氧1小时,110,71,48,49,38,220,,153,153,21,17,16,10,0.7,0.5
2024-09-24T1400,3169A,113.2725,35.2067,焦作市,太极体育中心,臭氧1小时,90,71,69,33,36,192,,102,102,12,23,8,7,0.7,0.7
2024-09-24T1400,3335A,113.3137,35.2641,焦作市,马村街道办,臭氧1小时,97,58,58,38,37,197,,107,107,14,21,5,4,0.4,0.5
2024-09-24T1400,3336A,113.2465,35.2373,焦作市,焦作技师学院,臭氧1小时,93,58,53,39,37,194,,124,124,14,17,12,10,0.5,0.5
2024-09-24T1400,3981A,113.2449,35.1803,焦作市,原李万街道办,臭氧1小时,90,39,66,33,40,192,,97,97,21,28,9,8,0.4,0.4
2024-09-24T1400,1708A,116.3701,23.5345,揭阳市,新兴,,28,28,17,8,8,53,,42,42,8,14,3,4,0.6,0.7
2024-09-24T1400,1709A,116.3264,23.5443,揭阳市,西马,,23,23,15,8,7,60,,40,40,9,10,4,5,0.5,0.6
2024-09-24T1400,1710A,116.3611,23.5626,揭阳市,东兴,,21,17,17,6,8,66,,45,45,4,14,3,4,0.8,0.9
2024-09-24T1400,1711A,116.4151,23.5294,揭阳市,渔湖,颗粒物(PM10),53,55,18,3,7,57,,41,41,5,14,3,5,0.5,0.7
2024-09-24T1400,3320A,116.403,23.5699,揭阳市,曲溪,,19,12,12,11,9,59,,44,44,6,19,1,5,0.4,0.6
2024-09-24T1400,1944A,102.1692,38.5167,金昌市,天庆家园,颗粒物(PM10),290,413,250,119,65,114,,94,90,4,17,14,15,0.3,0.4
2024-09-24T1400,3170A,102.1864,38.5253,金昌市,市委党校,颗粒物(PM10),405,505,302,114,66,114,,100,95,4,18,9,10,0.5,0.6
2024-09-24T1400,4022A,102.1647,38.5371,金昌市,金川区人防中心,颗粒物(PM10),374,479,283,115,61,99,,85,80,3,14,9,10,0.4,0.5
2024-09-24T1400,1262A,119.647,29.077,金华市,十五中,,38,31,29,26,17,106,,87,87,26,17,2,2,0.6,0.6
2024-09-24T1400,1263A,119.686,29.1029,金华市,监测站,,35,31,28,24,18,91,,80,80,31,19,2,2,0.7,0.7
2024-09-24T1400,3659A,119.656,29.1131,金华市,气象局,,38,31,27,26,20,94,,83,83,27,19,4,4,0.6,0.5
2024-09-24T1400,1767A,121.1115,41.0879,锦州市,南山,臭氧1小时,54,54,40,25,35,163,,99,99,13,41,14,12,0.8,0.9
2024-09-24T1400,1768A,121.0533,40.8434,锦州市,开发区,颗粒物(PM10),93,136,73,22,30,150,,98,98,23,46,12,25,1.0,1.2
2024-09-24T1400,1769A,121.1836,41.1119,锦州市,百股街道,,50,41,36,19,20,160,,108,108,10,27,10,15,0.7,0.9
2024-09-24T1400,1770A,121.1178,41.1222,锦州市,天安街道,臭氧1小时,58,58,48,20,35,166,,99,99,13,42,15,15,0.8,0.9
2024-09-24T1400,1771A,121.1303,41.1386,锦州市,北湖公园,臭氧1小时,68,50,42,19,35,174,,111,111,14,33,14,13,0.8,0.9
2024-09-24T1400,2160A,112.85,35.5051,晋城市,自来水公司,,50,39,68,19,39,157,,99,99,13,34,9,11,0.8,1.1
2024-09-24T1400,2161A,112.8318,35.4936,晋城市,白云商贸,,48,37,75,12,40,151,,96,96,14,32,8,9,0.7,1.1
2024-09-24T1400,2162A,112.8508,35.4887,晋城市,市环保局,,48,38,66,17,36,151,,96,96,14,42,7,9,0.6,0.9
2024-09-24T1400,2163A,112.8676,35.4897,晋城市,技术学院,,48,33,69,14,35,152,,93,93,17,41,7,10,0.6,0.9
2024-09-24T1400,3620A,112.8271,35.4828,晋城市,泽州一中,颗粒物(PM10),53,55,69,14,42,147,,90,90,16,33,9,11,0.6,1.1
2024-09-24T1400,2171A,112.7532,37.6945,晋中市,锦纶小区,臭氧1小时,78,66,71,34,37,182,,100,100,13,25,11,10,0.7,0.7
2024-09-24T1400,2173A,112.7249,37.7067,晋中市,南都小区,臭氧1小时,77,78,67,36,38,181,,105,105,14,31,10,9,1.0,1.1
2024-09-24T1400,2174A,112.6991,37.6982,晋中市,榆次区政府,臭氧1小时,77,68,69,32,36,181,,114,114,13,27,10,10,0.5,0.6
2024-09-24T1400,2865A,112.7195,37.6828,晋中市,榆次三中,臭氧1小时,74,66,72,29,34,179,,97,97,12,26,12,11,0.8,0.9
2024-09-24T1400,2439A,112.2014,31.0481,荆门市,竹园小学,,,50,68,27,26,177,,124,124,11,25,15,12,,0.6
2024-09-24T1400,2440A,112.1969,30.9891,荆门市,掇刀,臭氧1小时,72,40,54,27,23,177,,152,152,14,17,11,6,0.4,0.5
2024-09-24T1400,2441A,112.2213,31.0386,荆门市,石化一小,臭氧1小时,78,51,69,36,26,182,,132,132,8,21,15,18,0.3,0.4
2024-09-24T1400,3012A,112.1849,31.0362,荆门市,西山林语,臭氧1小时,75,50,54,23,23,180,,145,145,11,15,11,10,0.6,0.7
2024-09-24T1400,3547A,112.1632,31.0138,荆门市,龙泉中学南校,臭氧1小时,77,47,56,21,25,181,,142,142,19,23,12,12,0.4,0.5
2024-09-24T1400,1844A,112.2494,30.3197,荆州市,市图书馆,臭氧1小时,89,52,69,30,51,191,,124,124,17,29,12,12,0.6,0.7
2024-09-24T1400,1845A,112.2008,30.3544,荆州市,市委党校,臭氧1小时,87,40,82,28,69,189,,120,120,13,30,11,11,0.5,0.7
2024-09-24T1400,3194A,112.2747,30.3122,荆州市,管委会,臭氧1小时,93,40,69,32,54,194,,119,119,15,34,12,11,0.6,0.7
2024-09-24T1400,3548A,112.1655,30.3364,荆州市,学苑路,臭氧1小时,85,62,94,26,68,188,,128,128,13,28,6,10,0.5,0.7
2024-09-24T1400,2343A,117.2117,29.2933,景德镇市,老干部活动中心,,31,13,17,11,12,99,,70,70,5,10,7,7,0.4,0.4
2024-09-24T1400,2344A,117.1894,29.2789,景德镇市,兽医站,,33,23,22,3,10,104,,74,74,5,7,7,7,0.5,0.5
2024-09-24T1400,2345A,117.1547,29.2617,景德镇市,台达陶瓷,,33,23,20,7,8,105,,72,72,14,9,36,8,0.4,0.4
2024-09-24T1400,2346A,117.2461,29.2956,景德镇市,陶研所,,34,14,15,3,6,106,,74,74,8,9,6,6,0.4,0.4
2024-09-24T1400,1803A,115.9872,29.6815,九江市,十里,,45,33,33,12,12,144,,109,109,6,13,9,10,0.5,0.5
2024-09-24T1400,1804A,115.9584,29.7046,九江市,茅山头,,44,23,27,16,15,139,,104,104,11,14,8,8,0.6,0.6
2024-09-24T1400,1805A,115.9877,29.7295,九江市,西园,,49,32,27,9,13,154,,117,117,6,12,11,11,0.5,0.5
2024-09-24T1400,1806A,116.0172,29.6547,九江市,五七二七厂,,45,28,31,19,21,141,,111,111,12,12,9,11,0.5,0.6
2024-09-24T1400,1808A,115.9114,29.6038,九江市,综合工业园,,50,38,32,19,17,160,,118,118,19,21,16,16,0.6,0.4
2024-09-24T1400,1809A,116.0721,29.7535,九江市,石化总厂,,41,34,35,13,16,130,,102,102,12,14,9,9,0.5,0.5
2024-09-24T1400,1810A,115.9773,29.5698,九江市,庐山气象台,,46,34,26,27,19,147,,116,116,8,6,12,10,1.0,0.8
2024-09-24T1400,3190A,116.0254,29.6994,九江市,外国语学校,,48,48,32,9,12,140,,110,110,10,14,16,16,0.2,0.3
2024-09-24T1400,2658A,98.5061,39.7443,酒泉市,仓门街子站,,39,39,49,10,17,118,,85,85,4,10,15,11,0.3,0.3
2024-09-24T1400,2659A,98.4989,39.7256,酒泉市,油田生活基地,,46,46,58,13,21,121,,83,83,6,14,15,10,0.3,0.3
2024-09-24T1400,2698A,76.0072,39.4467,喀什地区,巡警大队,颗粒物(PM10),87,124,140,18,35,90,,46,46,10,42,5,6,0.4,0.8
2024-09-24T1400,2699A,75.9755,39.4694,喀什地区,吾办,颗粒物(PM10),82,114,126,54,51,90,,42,42,11,41,6,6,0.4,0.7
2024-09-24T1400,4027A,75.9483,39.4689,喀什地区,老干局,颗粒物(PM10),87,123,154,23,30,90,,51,51,6,32,6,5,0.4,0.6
2024-09-24T1400,1824A,114.3389,34.7781,开封市,肿瘤医院,臭氧1小时,83,52,79,28,49,186,,117,117,13,33,8,8,0.3,0.4
2024-09-24T1400,1826A,114.2885,34.7965,开封市,世纪星幼儿园,臭氧1小时,98,62,66,25,30,198,,127,127,8,20,7,8,0.5,0.6
2024-09-24T1400,3147A,114.3438,34.8106,开封市,龙亭公园,臭氧1小时,85,57,73,23,36,188,,128,128,12,28,6,6,0.5,0.6
2024-09-24T1400,3210A,114.3644,34.7964,开封市,汴京公园,臭氧1小时,77,60,76,22,43,181,,117,117,12,32,7,8,0.6,0.7
2024-09-24T1400,3473A,114.2485,34.8306,开封市,技师学院,臭氧1小时,93,75,60,24,26,194,,135,135,13,19,10,10,0.4,0.4
2024-09-24T1400,3592A,114.4644,34.7556,开封市,祥符区生态环境局,臭氧1小时,67,48,85,23,46,173,,107,107,13,54,8,9,0.4,0.5
2024-09-24T1400,1951A,84.895,45.6094,克拉玛依市,长征新村,,36,36,28,6,6,67,,71,47,15,9,7,6,0.2,0.2
2024-09-24T1400,1952A,84.8988,45.5893,克拉玛依市,南林小区,,42,42,29,13,14,67,,71,40,18,12,10,9,0.3,0.4
2024-09-24T1400,1954A,84.905,44.3396,克拉玛依市,独山子区,,46,46,44,14,15,123,,76,76,8,15,9,9,0.3,0.4
2024-09-24T1400,1955A,85.6979,46.098,克拉玛依市,乌尔禾区商贸楼,,29,29,29,3,5,81,,65,44,9,10,18,15,0.2,0.2
2024-09-24T1400,3612A,85.1045,45.6899,克拉玛依市,白碱滩区新站,,41,41,31,10,10,61,,72,43,16,11,8,8,0.1,0.2
2024-09-24T1400,2697A,76.1454,39.7142,克孜勒苏柯尔克孜自治州,市人民政府,颗粒物(PM10),79,108,81,40,30,108,,78,78,5,14,4,5,0.4,0.5
2024-09-24T1400,3665A,76.1658,39.7157,克孜勒苏柯尔克孜自治州,克州文化中心,颗粒物(PM10),80,110,85,38,32,107,,84,84,1,12,6,9,0.4,0.5
2024-09-24T1400,1450A,102.8204,24.8886,昆明市,呈贡新区,,39,39,37,26,23,117,,62,62,10,24,4,5,0.6,0.6
2024-09-24T1400,1452A,102.7252,25.0902,昆明市,龙泉镇,,43,37,30,25,17,137,,71,71,17,21,7,7,0.8,0.8
2024-09-24T1400,1453A,102.7266,25.0375,昆明市,东风东路,,42,41,36,29,20,129,,71,71,15,24,6,7,0.4,0.5
2024-09-24T1400,1454A,102.6742,25.0669,昆明市,金鼎山,,43,43,32,24,17,135,,74,74,18,20,4,8,0.5,0.5
2024-09-24T1400,1455A,102.6644,25.0401,昆明市,碧鸡广场,,43,30,33,17,18,136,,75,75,12,20,6,8,0.6,0.6
2024-09-24T1400,3179A,102.7494,25.0119,昆明市,官渡区博物馆,,46,46,35,29,19,137,,71,71,13,32,6,7,0.5,0.6
2024-09-24T1400,3375A,102.8017,24.8336,昆明市,青年创业园,,43,37,30,30,23,123,,66,66,7,24,4,4,0.5,0.4
2024-09-24T1400,3550A,102.7997,24.9786,昆明市,昆明学院,,43,43,43,25,26,120,,63,63,19,28,6,7,0.5,0.5
2024-09-24T1400,3551A,102.5967,24.6736,昆明市,晋宁区生态环境分局,,42,,34,17,25,133,,85,85,7,17,4,4,0.5,0.6
2024-09-24T1400,1456A,91.1319,29.6514,拉萨市,八廓街,,37,11,10,10,7,117,,84,84,5,13,10,7,0.2,0.1
2024-09-24T1400,1457A,91.1221,29.6747,拉萨市,市环保局,,35,7,13,7,7,112,,73,73,10,15,10,8,0.4,0.4
2024-09-24T1400,1458A,91.0874,29.6475,拉萨市,区监测站,,35,6,11,6,7,109,,66,66,6,18,7,6,0.3,0.4
2024-09-24T1400,1459A,91.1774,29.6541,拉萨市,西藏大学,,35,6,10,3,6,111,,75,75,3,9,9,6,0.4,0.4
2024-09-24T1400,1460A,90.9798,29.6588,拉萨市,区辐射站,,37,11,13,7,7,118,,66,65,9,17,9,9,0.1,0.2
2024-09-24T1400,1461A,91.0834,29.6292,拉萨市,拉萨火车站,,34,7,11,3,7,106,,69,67,3,15,6,6,0.2,0.3
2024-09-24T1400,2520A,109.2203,23.7256,来宾市,来宾技工学校,,35,30,36,20,20,111,,101,101,9,12,7,8,0.6,0.6
2024-09-24T1400,3535A,109.1781,23.7297,来宾市,兴宾区政府,,37,36,34,21,20,116,,105,105,7,8,7,8,0.6,0.6
2024-09-24T1400,4002A,109.2416,23.7461,来宾市,中南小学,,40,40,37,18,20,115,,104,104,8,13,9,10,0.6,0.6
2024-09-24T1400,1476A,103.631,36.1031,兰州市,兰炼宾馆,,42,42,61,26,31,134,,61,61,15,44,22,15,0.6,0.7
2024-09-24T1400,1478A,103.8412,36.0726,兰州市,生物制品所,细颗粒物(PM2.5),60,50,59,43,32,125,,45,45,13,48,33,13,0.5,0.7
2024-09-24T1400,1479A,103.831,36.0464,兰州市,铁路设计院,,44,44,64,29,37,115,,43,43,23,66,28,16,0.5,1
2024-09-24T1400,3186A,103.7158,36.1058,兰州市,教育港,颗粒物(PM10),52,53,66,28,33,143,,59,59,19,40,23,12,0.6,0.7
2024-09-24T1400,3241A,103.7439,36.0842,兰州市,百合公园,,49,49,52,26,25,143,,61,61,19,48,25,13,0.7,0.8
2024-09-24T1400,3242A,103.9611,35.998,兰州市,和平,,47,47,50,23,22,123,,65,65,8,21,23,17,0.3,0.6
2024-09-24T1400,3245A,103.6633,36.533,兰州新区,新区管委会,颗粒物(PM10),95,139,53,36,22,121,,66,66,4,25,12,21,0.3,0.4
2024-09-24T1400,3246A,103.6975,36.4789,兰州新区,舟曲中学,颗粒物(PM10),85,119,50,32,17,121,,69,69,7,27,7,20,0.3,0.4
2024-09-24T1400,1067A,116.6708,39.5111,廊坊市,药材公司,臭氧1小时,74,69,90,37,48,179,,82,82,13,39,7,7,0.5,0.6
2024-09-24T1400,1068A,116.7214,39.5589,廊坊市,开发区,臭氧1小时,79,77,67,34,35,183,,98,98,16,33,7,4,0.5,0.4
2024-09-24T1400,1070A,116.7244,39.5269,廊坊市,北华航天学院,臭氧1小时,85,77,79,38,39,188,,104,104,14,34,8,7,0.5,0.5
2024-09-24T1400,2919A,116.7022,39.5453,廊坊市,河北工业大学,臭氧1小时,78,67,70,39,44,182,,104,104,12,30,6,6,0.4,0.5
2024-09-24T1400,2535A,103.7723,29.5462,乐山市,花湖湾,,44,38,60,23,33,139,,52,52,10,25,3,3,0.7,0.7
2024-09-24T1400,2536A,103.7627,29.5844,乐山市,牛耳桥,,,,56,,42,149,,64,64,,30,8,6,,0.7
2024-09-24T1400,2537A,103.7508,29.6006,乐山市,市第三水厂,颗粒物(PM10),62,74,61,42,47,157,,69,69,15,30,9,7,0.6,0.6
2024-09-24T1400,2538A,103.7571,29.5664,乐山市,市监测站,细颗粒物(PM2.5),53,50,61,37,46,138,,64,64,11,22,7,6,0.6,0.6
2024-09-24T1400,3361A,103.7311,29.5628,乐山市,理工大学,细颗粒物(PM2.5),63,51,54,45,44,150,,56,56,15,25,6,3,0.8,0.8
2024-09-24T1400,2599A,100.2497,26.8802,丽江市,丽江古城,,29,22,28,17,20,90,,71,71,11,12,10,10,0.6,0.7
2024-09-24T1400,2600A,100.2203,26.8906,丽江市,市中心,,30,24,22,18,17,94,,70,70,8,12,8,8,0.6,0.6
2024-09-24T1400,1267A,119.914,28.4514,丽水市,监测站大楼,,24,18,7,9,3,75,,54,54,8,11,5,4,0.4,0.4
2024-09-24T1400,1268A,119.93,28.4586,丽水市,莲都小学,,25,19,6,14,5,80,,56,56,9,13,4,4,0.5,0.4
2024-09-24T1400,1269A,119.879,28.4231,丽水市,余庄前,,24,12,10,6,5,74,,53,53,9,10,4,4,0.4,0.3
2024-09-24T1400,1173A,119.176,34.5885,连云港市,市环境监测站,,50,34,41,9,18,160,,108,108,14,30,6,8,0.4,0.6
2024-09-24T1400,3000A,119.3581,34.6972,连云港市,德源药业,,45,27,40,9,17,143,,106,106,12,36,5,6,0.3,0.4
2024-09-24T1400,3007A,119.178,34.844,连云港市,新城一中,,49,46,46,7,20,156,,114,114,14,39,5,9,0.5,1
2024-09-24T1400,3008A,119.3608,34.7519,连云港市,胡沟管理处,,46,22,36,9,15,146,,113,113,7,33,7,10,0.3,0.5
2024-09-24T1400,3009A,119.1478,34.5911,连云港市,矿山设计院,,50,34,43,14,20,160,,102,102,13,32,6,7,0.6,0.8
2024-09-24T1400,3434A,119.2413,34.6539,连云港市,工贸学校,,50,19,30,9,15,159,,110,110,14,21,8,9,0.7,0.8
2024-09-24T1400,3664A,119.4172,34.7341,连云港市,连云街道,,48,22,29,11,13,151,,116,116,13,19,5,5,0.4,0.5
2024-09-24T1400,2572A,102.2721,27.8415,凉山彝族自治州,邛海宾馆,,27,25,27,18,16,84,,61,61,11,14,8,9,0.6,0.6
2024-09-24T1400,2573A,102.2625,27.898,凉山彝族自治州,西昌市政府,,38,26,25,26,18,66,,57,52,12,7,8,8,0.6,0.5
2024-09-24T1400,2574A,102.2685,27.8851,凉山彝族自治州,凉山州政府,,26,26,20,17,13,73,,67,62,16,9,6,6,0.8,0.8
2024-09-24T1400,2575A,102.237,27.8914,凉山彝族自治州,长安,,20,20,27,13,14,64,,52,42,16,14,8,9,0.7,0.8
2024-09-24T1400,2212A,123.2,41.1953,辽阳市,宏伟区,,30,18,31,15,17,95,,78,78,7,17,9,12,0.3,0.6
2024-09-24T1400,2213A,123.1683,41.2495,辽阳市,新华园,,29,26,40,18,22,91,,70,70,9,29,8,12,0.4,0.8
2024-09-24T1400,2214A,123.2354,41.2639,辽阳市,滨河路,,32,17,34,11,15,100,,76,76,8,20,10,12,0.3,0.7
2024-09-24T1400,2215A,123.149,41.2991,辽阳市,铁西工业园,,30,24,43,9,19,96,,75,75,9,24,12,13,0.7,0.8
2024-09-24T1400,2227A,125.1358,42.8845,辽源市,环保局,,30,20,27,3,11,93,,65,65,2,18,7,8,0.4,0.7
2024-09-24T1400,3239A,125.0764,42.9078,辽源市,银鹰制药,,30,9,23,3,15,93,,64,64,5,23,5,6,0.5,0.4
2024-09-24T1400,1625A,115.9848,36.4372,聊城市,区政府,臭氧1小时,85,55,62,28,30,188,,125,125,19,35,12,13,0.5,0.5
2024-09-24T1400,2878A,116.0072,36.4343,聊城市,聊大东校,臭氧1小时,102,66,65,41,37,203,,131,131,18,37,14,11,0.5,0.5
2024-09-24T1400,3200A,115.9819,36.4978,聊城市,监控中心,臭氧1小时,87,61,72,24,41,189,,122,122,15,65,10,11,0.3,0.4
2024-09-24T1400,3513A,116.0445,36.4361,聊城市,九州社区,臭氧1小时,102,61,65,24,31,204,,125,125,10,36,7,8,0.5,0.6
2024-09-24T1400,4018A,116.0567,36.4608,聊城市,星美广场,臭氧1小时,99,65,58,31,32,199,,122,122,10,32,7,19,0.4,0.5
2024-09-24T1400,2632A,94.3681,29.6376,林芝市,林芝监测站,,22,9,8,3,5,69,,54,54,1,4,9,10,0.2,0.2
2024-09-24T1400,2633A,94.3616,29.6616,林芝市,林芝人民医院,,22,,8,3,6,70,,52,52,4,7,8,8,0.2,0.2
2024-09-24T1400,2603A,100.0781,23.8982,临沧市,市环保局,,25,21,20,7,15,80,,47,47,6,10,5,4,0.3,0.4
2024-09-24T1400,2604A,100.0894,23.8822,临沧市,市气象局,,,,20,,18,81,,53,53,6,9,5,5,0.3,0.4
2024-09-24T1400,1733A,111.5531,36.0783,临汾市,临钢医院,臭氧1小时,53,45,76,19,29,162,,87,87,12,33,6,6,0.6,0.8
2024-09-24T1400,1734A,111.5028,36.0714,临汾市,技工学校,臭氧1小时,63,58,71,22,38,170,,100,100,12,34,7,7,0.5,0.8
2024-09-24T1400,1736A,111.5018,36.0855,临汾市,市委,臭氧1小时,69,45,72,24,29,175,,105,105,10,33,8,8,0.6,0.7
2024-09-24T1400,3018A,111.505,36.1014,临汾市,唐尧大酒店,臭氧1小时,58,45,72,25,32,166,,93,93,11,34,6,6,0.7,0.8
2024-09-24T1400,3668A,111.5036,36.0414,临汾市,城南,臭氧1小时,69,48,93,23,47,175,,3,,11,43,7,7,0.6,0.9
2024-09-24T1400,2667A,103.2069,35.5993,临夏回族自治州,环保局,,38,38,37,23,15,106,,43,43,7,20,9,8,0.4,0.6
2024-09-24T1400,2668A,103.2417,35.6057,临夏回族自治州,建设大厦,,36,36,42,15,17,113,,48,48,5,16,11,10,0.4,0.4
2024-09-24T1400,1618A,118.3429,35.0532,临沂市,沂河小区,臭氧1小时,62,39,59,20,26,169,,103,103,13,25,9,11,0.5,0.6
2024-09-24T1400,1619A,118.295,35.0583,临沂市,鲁南制药厂,,44,27,52,13,34,138,,94,94,9,28,8,14,0.5,0.6
2024-09-24T1400,1620A,118.2794,34.9976,临沂市,新光毛纺厂,臭氧1小时,63,31,52,21,28,170,,106,106,17,36,6,13,0.6,0.7
2024-09-24T1400,1621A,118.3956,35.0888,临沂市,河东保险公司,臭氧1小时,79,34,55,13,29,183,,106,106,18,51,8,9,0.7,0.9
2024-09-24T1400,3370A,118.3564,35.0215,临沂市,十里堡居委,臭氧1小时,70,31,52,19,30,176,,108,108,13,29,10,12,0.7,0.8
2024-09-24T1400,3496A,118.3604,35.1084,临沂市,南坊新区,臭氧1小时,74,41,55,12,28,179,,105,105,13,34,10,12,0.6,0.8
2024-09-24T1400,3860A,118.3920,35.0300,临沂市,皇山花园小区,臭氧1小时,68,41,64,25,37,174,,102,102,16,43,10,12,0.5,0.6
2024-09-24T1400,1870A,109.4856,24.3895,柳州市,柳东小学,,38,33,31,23,18,121,,115,115,6,6,9,9,0.6,0.6
2024-09-24T1400,1871A,109.4157,24.3277,柳州市,环保监测站,,41,38,32,23,18,129,,116,116,6,7,9,9,0.8,0.8
2024-09-24T1400,1872A,109.389,24.341,柳州市,河西水厂,,44,44,40,21,20,131,,112,112,6,7,8,8,0.8,0.8
2024-09-24T1400,1873A,109.4311,24.2921,柳州市,市四中,,42,42,30,17,15,134,,123,123,6,7,8,8,0.9,0.8
2024-09-24T1400,1874A,109.4006,24.3631,柳州市,市九中,,47,47,41,23,20,134,,113,113,6,8,7,7,0.8,0.7
2024-09-24T1400,1875A,109.4958,24.3134,柳州市,古亭山,颗粒物(PM10),51,51,31,25,16,134,,126,126,11,11,11,9,0.7,0.7
2024-09-24T1400,3402A,109.5422,24.3996,柳州市,市二中,,41,39,31,23,18,129,,121,121,11,12,10,9,0.5,0.5
2024-09-24T1400,2307A,116.5079,31.737,六安市,监测大楼,,46,33,34,20,18,145,,86,86,6,16,5,5,0.4,0.4
2024-09-24T1400,2308A,116.4738,31.7643,六安市,皖西学院,,50,40,46,16,19,157,,95,95,8,17,6,6,0.2,0.2
2024-09-24T1400,2309A,116.4996,31.7905,六安市,朝阳厂,,49,40,37,14,18,154,,91,91,8,17,2,1,0.4,0.3
2024-09-24T1400,2310A,116.5567,31.7886,六安市,开发区,,,,48,,22,147,,90,90,8,19,3,2,0.5,0.4
2024-09-24T1400,2577A,104.83,26.5917,六盘水市,黄土坡,,36,,25,23,19,113,,74,74,10,11,14,7,0.9,0.6
2024-09-24T1400,2578A,104.89,26.5939,六盘水市,水钢,,35,19,39,17,22,109,,62,62,5,16,9,11,0.3,0.8
2024-09-24T1400,2579A,104.8475,26.5894,六盘水市,民中,,34,31,27,12,18,106,,67,67,13,14,19,9,0.9,0.6
2024-09-24T1400,2580A,104.9544,26.5506,六盘水市,双水,,36,31,35,13,19,114,,63,63,7,15,11,10,0.4,0.5
2024-09-24T1400,2336A,117.0217,25.1033,龙岩市,龙岩市监测站,,17,,9,6,7,52,,46,46,6,12,5,6,0.5,0.6
2024-09-24T1400,2337A,117.0258,25.0661,龙岩市,闽西职业技术学院,,17,6,8,3,6,53,,42,42,2,8,2,3,0.4,0.6
2024-09-24T1400,2338A,117.0196,25.0306,龙岩市,龙岩学院,,15,,9,3,7,47,,39,39,2,8,4,3,0.4,0.6
2024-09-24T1400,2885A,104.9339,33.3826,陇南市,滨江中学,,41,41,44,12,17,88,,56,56,8,13,8,9,0.7,0.7
2024-09-24T1400,3247A,104.955,33.371,陇南市,市总工会,,39,39,36,14,9,92,,59,59,5,8,9,9,0.4,0.4
2024-09-24T1400,2487A,111.9589,27.8901,娄底市,电视发射台,,46,28,42,22,23,145,,117,117,6,7,5,5,0.4,0.4
2024-09-24T1400,2488A,111.9975,27.725,娄底市,市监测站,,,57,54,40,35,161,,122,122,6,20,,16,0.8,1
2024-09-24T1400,2489A,112.0194,27.7314,娄底市,市委党校,,46,46,52,31,32,145,,114,114,6,14,8,9,0.6,0.9
2024-09-24T1400,2490A,111.9561,27.7569,娄底市,涟钢,,43,43,51,26,31,122,,96,96,11,15,8,6,0.6,0.7
2024-09-24T1400,2491A,111.9892,27.7044,娄底市,市政府,,49,39,45,34,29,152,,110,110,6,11,8,7,0.4,0.4
2024-09-24T1400,1893A,105.4324,28.9634,泸州市,九狮山,臭氧1小时,88,60,81,31,52,190,,90,90,16,22,5,5,0.4,0.5
2024-09-24T1400,1894A,105.4427,28.9063,泸州市,小市上码头,臭氧1小时,74,46,61,28,44,179,,92,92,13,22,4,4,0.6,0.7
2024-09-24T1400,1895A,105.4241,28.8573,泸州市,兰田宪桥,臭氧1小时,65,48,55,38,47,172,,95,95,8,17,5,5,0.5,0.6
2024-09-24T1400,1896A,105.4379,28.8833,泸州市,市环监站,臭氧1小时,59,24,62,24,51,167,,91,91,8,21,6,7,0.5,0.7
2024-09-24T1400,3490A,105.3617,28.7703,泸州市,纳溪区环保局,细颗粒物(PM2.5),57,51,55,40,48,163,,79,79,13,31,5,6,0.6,0.7
2024-09-24T1400,2183A,111.1406,37.5211,吕梁市,环保局,,49,49,68,23,27,149,,70,70,12,35,8,6,0.6,0.6
2024-09-24T1400,2185A,111.1297,37.5136,吕梁市,自来水公司,,47,46,71,26,27,149,,80,80,16,33,7,5,0.6,0.5
2024-09-24T1400,2867A,111.1283,37.51,吕梁市,马茂庄小学,颗粒物(PM10),53,55,75,19,27,155,,70,70,12,40,6,5,0.6,0.7
2024-09-24T1400,1812A,112.3931,34.6516,洛阳市,市委党校,臭氧1小时,65,65,76,40,50,172,,100,100,9,33,9,9,0.5,0.6
2024-09-24T1400,1814A,112.4657,34.6871,洛阳市,豫西宾馆,臭氧1小时,70,63,78,33,41,176,,100,100,7,32,11,11,0.5,0.5
2024-09-24T1400,1815A,112.494,34.6886,洛阳市,河南林校,臭氧1小时,77,53,71,40,46,181,,101,101,10,29,9,8,0.6,0.7
2024-09-24T1400,1816A,112.3844,34.623,洛阳市,开发区管委会,臭氧1小时,83,69,72,40,51,186,,107,107,13,25,6,4,0.4,0.5
2024-09-24T1400,1817A,112.4267,34.6258,洛阳市,市委新办公区,臭氧1小时,82,71,73,50,53,185,,103,103,7,20,7,4,0.6,0.6
2024-09-24T1400,3340A,112.6005,34.6326,洛阳市,伊滨,臭氧1小时,90,94,77,51,54,192,,107,107,14,31,18,10,0.7,0.7
2024-09-24T1400,3341A,112.4951,34.6332,洛阳市,中移产业园,臭氧1小时,79,54,75,29,51,183,,111,111,8,29,11,6,0.5,0.5
2024-09-24T1400,3593A,112.5736,34.8993,洛阳市,吉利监测站,臭氧1小时,87,76,63,29,35,189,,114,114,9,31,8,6,0.1,0.3
2024-09-24T1400,3635A,112.3677,34.662,洛阳市,河科大西苑校区,臭氧1小时,55,53,74,31,46,164,,95,95,9,33,6,8,0.5,0.6
2024-09-24T1400,3636A,112.4388,34.6781,洛阳市,英才小学,臭氧1小时,73,60,82,36,43,178,,99,99,10,35,6,6,0.5,0.6
2024-09-24T1400,2399A,114.051,33.5699,漯河市,三五一五工厂,臭氧1小时,77,71,95,34,56,181,,119,119,9,33,8,10,0.5,0.6
2024-09-24T1400,2400A,114.0055,33.5698,漯河市,漯河大学,臭氧1小时,83,73,89,29,50,186,,115,115,12,29,7,8,0.5,0.6
2024-09-24T1400,2401A,114.0138,33.5828,漯河市,市水利局,臭氧1小时,80,73,91,29,48,184,,115,115,8,27,7,9,0.4,0.9
2024-09-24T1400,2402A,114.0261,33.5698,漯河市,市广电局,臭氧1小时,80,68,84,33,52,184,,117,117,9,27,11,13,0.5,0.6
2024-09-24T1400,3478A,113.9749,33.5664,漯河市,市图书馆,臭氧1小时,87,60,87,26,44,189,,108,108,10,35,5,5,0.5,0.6
2024-09-24T1400,3479A,114.0967,33.5906,漯河市,召陵区卫健委,臭氧1小时,87,64,99,30,54,189,,122,122,8,36,9,12,0.6,0.8
2024-09-24T1400,1798A,118.5092,31.6837,马鞍山市,湖东路四小,臭氧1小时,60,44,33,14,14,168,,112,112,18,19,14,8,0.9,0.6
2024-09-24T1400,1799A,118.5024,31.6449,马鞍山市,开发区,臭氧1小时,60,42,30,20,14,168,,113,113,26,22,15,7,1.1,0.7
2024-09-24T1400,1800A,118.5228,31.7231,马鞍山市,慈湖,臭氧1小时,62,25,26,16,14,169,,106,106,10,22,9,8,0.9,0.9
2024-09-24T1400,1802A,118.6245,31.7241,马鞍山市,濮塘,,,,,12,12,173,,106,106,12,11,10,8,0.9,0.7
2024-09-24T1400,3633A,118.4918,31.6809,马鞍山市,雨山,,50,37,30,18,14,160,,113,113,21,18,21,10,1.5,0.7
2024-09-24T1400,1686A,111.0286,21.4688,茂名市,电白南海,,,,17,,6,40,,46,37,8,8,8,10,,0.8
2024-09-24T1400,1687A,110.9294,21.6533,茂名市,茂石化七小,,15,6,13,3,8,47,,35,35,8,11,6,10,0.7,0.8
2024-09-24T1400,1688A,110.9107,21.6687,茂名市,健康路,,17,6,11,3,6,54,,40,40,6,7,11,22,0.8,0.8
2024-09-24T1400,1689A,110.8592,21.6828,茂名市,高岭,,16,9,12,9,10,50,,40,40,12,11,6,11,0.9,0.9
2024-09-24T1400,3450A,111.01,21.5165,茂名市,电白水东,,13,,6,3,6,41,,42,36,9,9,6,6,0.7,0.6
2024-09-24T1400,2539A,104.0308,30.0478,眉山市,黑龙滩水库,颗粒物(PM10),60,70,48,33,31,153,,59,59,8,16,5,4,0.5,0.5
2024-09-24T1400,2540A,103.8416,30.0874,眉山市,气象局,颗粒物(PM10),57,64,41,29,32,134,,58,58,21,31,8,7,0.5,0.6
2024-09-24T1400,3137A,103.8578,30.0744,眉山市,市委党校,,45,41,49,19,27,144,,64,64,16,29,7,8,0.4,0.5
2024-09-24T1400,3148A,103.8291,30.0564,眉山市,区人社局,,45,38,46,29,26,142,,56,56,25,33,10,8,0.5,0.5
2024-09-24T1400,1690A,116.1231,24.3284,梅州市,梅江月梅,,18,17,11,6,4,55,,26,26,8,11,6,6,0.5,0.6
2024-09-24T1400,1691A,116.0797,24.2719,梅州市,梅县新城,,18,18,8,8,4,46,,30,30,7,8,4,4,0.6,0.5
2024-09-24T1400,1692A,116.1248,24.2654,梅州市,环境监控中心,,14,10,12,9,4,43,,24,24,9,15,5,4,0.6,0.6
2024-09-24T1400,3315A,116.1233,24.2991,梅州市,梅龙,,17,,8,11,5,54,,30,30,6,8,8,8,0.6,0.6
2024-09-24T1400,1878A,104.7778,31.4741,绵阳市,富乐山,,44,41,39,28,28,139,,67,67,9,22,4,3,0.6,0.6
2024-09-24T1400,1879A,104.7563,31.4535,绵阳市,市人大,颗粒物(PM10),53,55,51,31,30,145,,56,56,16,31,11,12,0.5,0.6
2024-09-24T1400,1880A,104.6697,31.4668,绵阳市,高新区自来水公司,,44,41,51,24,25,138,,60,60,14,33,5,6,0.6,0.7
2024-09-24T1400,1881A,104.7287,31.5075,绵阳市,三水厂,,45,41,50,31,31,140,,50,50,17,34,8,7,0.6,0.7
2024-09-24T1400,3491A,104.69,31.5322,绵阳市,西科大附属小学,,43,41,52,20,26,136,,53,53,17,36,6,6,0.7,0.8
2024-09-24T1400,3492A,104.5648,31.5343,绵阳市,安州区旅游局,,46,32,45,24,30,146,,75,75,8,18,8,7,0.5,0.6
2024-09-24T1400,1784A,129.61,44.561,牡丹江市,环保大楼,,26,24,32,14,16,82,,47,47,6,18,7,7,0.3,0.4
2024-09-24T1400,1785A,129.6115,44.5782,牡丹江市,文化广场,,31,31,53,18,25,79,,42,42,7,25,8,9,0.3,0.6
2024-09-24T1400,1786A,129.5904,44.5963,牡丹江市,第一医院,,26,26,38,11,21,82,,47,47,6,17,7,7,0.2,0.4
2024-09-24T1400,1787A,129.6364,44.6075,牡丹江市,机车工厂,,26,22,36,13,19,82,,45,45,7,16,6,43,0.2,0.4
2024-09-24T1400,1788A,129.6386,44.5462,牡丹江市,第一中学,,28,12,24,7,13,87,,52,52,4,16,6,6,0.3,0.2
2024-09-24T1400,2531A,105.0703,29.61,内江市,市监测站,臭氧1小时,80,,41,37,41,184,,117,117,14,19,6,6,0.5,0.7
2024-09-24T1400,2532A,105.0717,29.5947,内江市,东兴区政府,臭氧1小时,68,,49,31,39,174,,110,110,16,24,5,6,0.8,0.9
2024-09-24T1400,2533A,105.0653,29.5817,内江市,内江二中,臭氧1小时,58,46,62,30,60,166,,93,93,13,20,9,11,0.6,0.7
2024-09-24T1400,2534A,105.0406,29.5822,内江市,内江日报社,臭氧1小时,57,47,53,30,48,165,,109,109,16,27,7,9,0.6,0.7
2024-09-24T1400,2628A,92.0657,31.4846,那曲市,那曲监测站,,29,27,32,8,13,90,,47,47,5,9,6,7,0.6,0.7
2024-09-24T1400,3128A,92.0506,31.4797,那曲市,那曲会议中心,,31,17,37,3,14,99,,54,54,6,16,4,4,1.1,1.3
2024-09-24T1400,1290A,115.8931,28.6843,南昌市,省外办,,46,37,40,24,21,146,,101,101,15,22,11,10,0.5,0.6
2024-09-24T1400,1291A,115.8886,28.7003,南昌市,省林业公司,,48,34,35,14,18,153,,103,103,10,14,9,8,0.6,0.6
2024-09-24T1400,1292A,115.8126,28.7442,南昌市,林科所,,45,27,31,12,13,144,,108,108,15,21,8,9,0.7,0.7
2024-09-24T1400,1294A,115.8518,28.687,南昌市,建工学校,,46,33,39,10,17,146,,102,102,14,18,12,11,0.6,0.5
2024-09-24T1400,1295A,115.8921,28.6424,南昌市,象湖,,47,27,30,19,17,149,,111,111,11,15,9,9,0.7,0.7
2024-09-24T1400,1296A,115.7423,28.7996,南昌市,武术学校,,43,,18,22,12,135,,92,92,6,12,1,2,0.8,0.8
2024-09-24T1400,1298A,115.9314,28.6842,南昌市,省站,,44,42,32,16,18,138,,99,99,22,24,10,11,0.6,0.6
2024-09-24T1400,3046A,115.9084,28.6062,南昌市,机电学校,,43,41,40,14,17,137,,102,102,12,18,9,9,0.7,0.7
2024-09-24T1400,3690A,115.9721,28.7031,南昌市,外国语学校,,41,36,33,11,15,130,,97,97,8,11,7,7,0.5,0.5
2024-09-24T1400,1905A,106.056,30.8064,南充市,西山风景区,,,,37,,30,157,,89,89,7,9,2,3,0.5,0.8
2024-09-24T1400,1906A,106.0789,30.8023,南充市,南充市委,颗粒物(PM10),62,73,48,42,29,165,,86,86,11,23,4,4,0.5,0.5
2024-09-24T1400,1907A,106.1031,30.8217,南充市,南充炼油厂,臭氧1小时,74,53,57,39,37,179,,92,92,10,18,4,4,0.3,0.3
2024-09-24T1400,1908A,106.1064,30.7856,南充市,高坪区监测站,臭氧1小时,64,52,55,33,33,171,,87,87,14,25,7,7,0.5,0.5
2024-09-24T1400,1909A,106.0642,30.7636,南充市,嘉陵区环保局,,50,39,48,27,27,157,,98,98,9,26,2,3,0.4,0.5
2024-09-24T1400,1910A,106.1087,30.8388,南充市,市环境监测站,臭氧1小时,58,60,58,35,36,166,,95,95,12,19,5,5,0.3,0.3
2024-09-24T1400,1151A,118.8086,32.1065,南京市,迈皋桥,臭氧1小时,62,20,21,9,9,169,,101,101,11,28,4,4,0.4,0.3
2024-09-24T1400,1152A,118.7538,32.0551,南京市,草场门,臭氧1小时,64,36,27,22,12,171,,104,104,18,30,10,6,0.5,0.2
2024-09-24T1400,1153A,118.7794,32.0745,南京市,山西路,臭氧1小时,65,41,33,17,14,172,,105,105,8,23,4,4,0.7,0.4
2024-09-24T1400,1154A,118.7752,32.0023,南京市,中华门,,,39,29,19,11,167,,95,95,,24,7,8,0.6,0.4
2024-09-24T1400,1155A,118.8109,32.0309,南京市,瑞金路,臭氧1小时,72,31,27,17,12,177,,107,107,18,25,12,7,0.6,0.4
2024-09-24T1400,1156A,118.7997,32.0754,南京市,玄武湖,,,32,31,15,12,162,,97,97,17,41,8,6,,0.7
2024-09-24T1400,1158A,118.7356,31.9996,南京市,奥体中心,臭氧1小时,88,34,30,22,15,190,,112,112,14,25,8,6,0.5,0.3
2024-09-24T1400,1159A,118.9125,32.1028,南京市,仙林大学城,,50,34,28,7,11,157,,98,98,13,31,6,6,0.4,0.4
2024-09-24T1400,3422A,118.8436,31.9198,南京市,江宁彩虹桥,臭氧1小时,70,31,30,17,10,176,,104,104,5,19,5,4,0.5,0.5
2024-09-24T1400,3423A,119.0138,31.6494,南京市,溧水永阳,,,19,26,17,15,143,,103,103,7,16,4,4,,0.4
2024-09-24T1400,3424A,118.879,31.3302,南京市,高淳老职中,,50,50,26,10,15,142,,98,98,8,15,4,4,0.3,0.4
2024-09-24T1400,3427A,118.8554,32.3578,南京市,六合雄州,,40,14,29,3,13,127,,90,90,9,18,6,7,0.2,0.2
2024-09-24T1400,1401A,108.3103,22.7881,南宁市,二十一中,,35,31,30,17,19,112,,102,102,12,14,6,8,0.8,0.8
2024-09-24T1400,1402A,108.3141,22.8528,南宁市,北湖,,34,28,29,17,18,107,,99,99,13,19,4,6,0.7,0.7
2024-09-24T1400,1403A,108.3206,22.8225,南宁市,市监测站,,35,33,31,22,18,109,,101,101,16,18,8,9,0.8,0.8
2024-09-24T1400,1404A,108.3829,22.8037,南宁市,大自然花园,,36,36,29,20,18,115,,105,105,11,13,7,10,0.4,0.4
2024-09-24T1400,1405A,108.4394,22.7904,南宁市,仙葫,,39,39,32,23,20,117,,104,104,8,11,10,10,0.8,0.8
2024-09-24T1400,1406A,108.2397,22.8467,南宁市,区农职院,,35,26,35,17,18,109,,86,86,10,13,9,11,0.6,0.6
2024-09-24T1400,1407A,108.3275,22.735,南宁市,英华嘉园,,42,29,45,29,27,110,,103,103,12,15,6,8,0.8,0.9
2024-09-24T1400,1408A,108.2257,22.7757,南宁市,沙井镇街道办,,34,33,38,23,24,107,,87,87,19,25,4,6,0.6,0.6
2024-09-24T1400,3401A,108.4834,22.7618,南宁市,红星社区,,39,30,33,22,22,122,,107,107,10,16,10,10,0.7,0.7
2024-09-24T1400,2332A,118.1681,26.6369,南平市,南平市监测站,,26,14,6,6,3,83,,55,55,7,8,8,4,0.6,0.4
2024-09-24T1400,2333A,118.1825,26.6489,南平市,南平铝业有限公司,,24,6,5,3,3,76,,55,55,5,7,4,3,0.5,0.5
2024-09-24T1400,2334A,118.1756,26.6272,南平市,南平七中,,27,21,11,7,4,85,,53,53,8,9,6,5,0.8,0.7
2024-09-24T1400,1168A,120.9098,31.9663,南通市,狼山街道,,32,9,17,7,7,102,,86,86,4,8,7,6,0.4,0.4
2024-09-24T1400,1169A,120.86,32.0005,南通市,虹桥,,33,17,18,10,8,105,,82,81,6,10,6,7,0.6,0.6
2024-09-24T1400,1170A,120.87,32.02,南通市,城中,,31,19,24,3,7,99,,80,77,6,11,7,7,0.6,0.6
2024-09-24T1400,1171A,120.94,31.93,南通市,星湖花园,,34,13,14,8,6,106,,90,90,9,12,5,5,0.5,0.5
2024-09-24T1400,1172A,120.81,32.0417,南通市,紫琅学院,,33,12,21,3,10,105,,81,81,6,13,7,10,0.4,0.5
2024-09-24T1400,3291A,121.067,32.062,南通市,通州监测站,,34,17,23,7,8,106,,84,84,7,11,3,3,0.5,0.5
2024-09-24T1400,3432A,120.9348,31.9883,南通市,环境教育馆,,34,12,24,3,7,107,,86,83,5,13,4,4,0.4,0.5
2024-09-24T1400,2404A,112.5224,33.0122,南阳市,瓦房庄,臭氧1小时,106,71,67,37,38,211,,146,146,18,23,7,8,0.7,0.7
2024-09-24T1400,2405A,112.5003,32.9735,南阳市,汉画馆,臭氧1小时,85,78,72,46,48,188,,124,124,20,24,8,8,0.4,0.4
2024-09-24T1400,2406A,112.5573,33.027,南阳市,气象站,臭氧1小时,104,66,74,36,32,207,,134,134,20,25,10,10,0.6,0.6
2024-09-24T1400,2407A,112.5481,32.9689,南阳市,理工学院,臭氧1小时,93,66,74,33,39,194,,125,125,15,22,9,9,0.4,0.5
2024-09-24T1400,4008A,112.5234,32.9922,南阳市,卧龙区政府,臭氧1小时,99,83,75,38,37,199,,141,141,14,23,7,7,0.5,0.6
2024-09-24T1400,1234A,121.8358,29.911,宁波市,区环保大楼,,39,39,42,18,21,62,,40,36,42,46,4,3,0.8,0.9
2024-09-24T1400,1235A,121.56,29.82,宁波市,万里学院,,33,33,33,22,23,101,,71,71,18,25,5,5,0.6,0.6
2024-09-24T1400,1236A,121.713,29.9572,宁波市,龙赛医院,,29,29,31,14,15,79,,58,52,28,36,9,8,0.8,0.8
2024-09-24T1400,1239A,121.633,29.7733,宁波市,钱湖水厂,,29,28,33,20,20,79,,49,49,23,25,8,8,0.6,0.6
2024-09-24T1400,1240A,121.5856,29.8635,宁波市,太古小学,,38,38,38,18,15,96,,68,68,22,28,7,7,0.8,0.8
2024-09-24T1400,1241A,121.524,29.8674,宁波市,市环境监测中心,,34,34,30,17,14,96,,71,71,23,28,11,11,0.6,0.7
2024-09-24T1400,2871A,121.6147,29.9017,宁波市,万里国际学校,,,23,27,18,19,98,,67,67,26,32,7,7,,0.6
2024-09-24T1400,3710A,121.5594,29.8975,宁波市,白沙活动中心,,39,39,33,17,14,91,,67,67,21,25,8,8,0.5,0.5
2024-09-24T1400,2341A,119.5388,26.6612,宁德市,宁德市监测站,,23,19,11,8,6,71,,51,51,15,19,6,6,0.5,0.6
2024-09-24T1400,3209A,119.5231,26.6562,宁德市,宁德一中,,23,15,8,3,6,71,,54,54,12,11,5,5,0.4,0.4
2024-09-24T1400,2618A,98.8601,25.8567,怒江傈僳族自治州,州监测站,,31,18,28,17,18,99,,60,60,4,10,5,6,0.2,0.3
2024-09-24T1400,2619A,98.8546,25.8417,怒江傈僳族自治州,泸水一中,,28,24,26,15,18,89,,48,48,7,14,6,6,0.4,0.5
2024-09-24T1400,1888A,101.6891,26.571,攀枝花市,弄弄坪,颗粒物(PM10),52,53,46,33,19,140,,76,76,16,30,23,20,0.8,1.2
2024-09-24T1400,1889A,101.5769,26.5928,攀枝花市,河门口,颗粒物(PM10),55,59,38,34,20,148,,74,74,20,20,36,14,1.7,1
2024-09-24T1400,1890A,101.7169,26.585,攀枝花市,炳草岗,,44,34,50,20,24,139,,69,69,12,35,20,25,0.8,0.9
2024-09-24T1400,1891A,101.7369,26.5008,攀枝花市,仁和,,39,24,28,22,22,122,,84,84,8,16,6,6,0.5,0.6
2024-09-24T1400,2835A,101.7227,26.567,攀枝花市,四十中小,颗粒物(PM10),100,150,46,46,24,145,,76,76,13,35,20,27,0.5,0.7
2024-09-24T1400,1604A,122.0303,41.1489,盘锦市,开发区,,50,37,29,18,22,157,,120,120,10,19,10,10,0.2,0.3
2024-09-24T1400,1605A,122.0485,41.0883,盘锦市,兴隆台,,50,31,28,17,21,158,,120,120,13,29,7,6,0.5,0.5
2024-09-24T1400,1606A,121.8297,41.1028,盘锦市,新生街道,,49,29,22,14,15,154,,125,125,12,17,10,8,0.5,0.4
2024-09-24T1400,1832A,113.3257,33.742,平顶山市,新华旅馆,臭氧1小时,83,56,93,36,43,186,,97,97,9,41,8,9,0.5,0.7
2024-09-24T1400,1833A,113.2919,33.737,平顶山市,规划设计院,臭氧1小时,90,66,80,32,42,192,,107,107,11,37,8,9,0.5,0.6
2024-09-24T1400,1834A,113.182,33.774,平顶山市,平顶山工学院,臭氧1小时,80,63,81,27,40,184,,107,107,13,33,8,9,0.4,0.5
2024-09-24T1400,3204A,113.3025,33.73,平顶山市,规划局,臭氧1小时,77,78,89,36,48,181,,99,99,12,36,6,8,0.8,0.9
2024-09-24T1400,3594A,112.8867,33.9116,平顶山市,石龙区,臭氧1小时,74,64,142,24,39,179,,109,109,11,65,11,17,0.5,0.6
2024-09-24T1400,2656A,106.6692,35.5461,平凉市,聚贤嘉苑,,50,47,61,35,37,117,,60,60,16,28,7,7,0.5,0.5
2024-09-24T1400,2657A,106.7021,35.5307,平凉市,博物馆,细颗粒物(PM2.5),62,62,83,44,45,117,,68,68,16,27,5,9,0.4,0.6
2024-09-24T1400,2347A,114.0997,27.5002,萍乡市,武功山,,33,22,27,11,6,104,,,,6,5,9,8,0.4,0.3
2024-09-24T1400,2348A,113.8385,27.6434,萍乡市,中医院,,40,30,42,12,21,128,,108,108,4,9,10,15,0.6,0.7
2024-09-24T1400,2349A,113.8493,27.6253,萍乡市,市政府车库,颗粒物(PM10),62,74,42,30,26,130,,104,104,6,11,12,16,0.6,0.8
2024-09-24T1400,2350A,113.8676,27.6435,萍乡市,市环保局,,38,36,44,21,26,119,,100,100,2,6,8,16,0.5,0.6
2024-09-24T1400,2351A,113.866,27.6198,萍乡市,安源区政府,,41,27,40,9,18,130,,97,97,10,22,8,10,0.5,0.5
2024-09-24T1400,2319A,119.0141,25.4325,莆田市,荔城区仓后路,,25,22,10,17,4,64,,47,43,14,15,8,7,0.8,0.5
2024-09-24T1400,2320A,119.0015,25.4553,莆田市,莆田市监测站,,22,,8,15,1,65,,51,51,10,3,6,6,0.7,0.4
2024-09-24T1400,2321A,119.1119,25.4561,莆田市,涵江区六中,,33,,9,23,5,66,,50,50,18,15,8,8,0.8,0.7
2024-09-24T1400,2322A,119.1013,25.3215,莆田市,秀屿区政府,,38,,18,26,6,67,,56,44,16,10,7,6,0.9,0.7
2024-09-24T1400,2392A,115.0312,35.7636,濮阳市,环保局,臭氧1小时,64,42,58,17,38,171,,125,125,12,30,8,10,0.3,0.4
2024-09-24T1400,2394A,115.0574,35.7609,濮阳市,油田运输公司,臭氧1小时,68,35,65,24,44,174,,115,115,13,33,5,7,0.4,0.5
2024-09-24T1400,2395A,115.0866,35.7754,濮阳市,油田物探公司,臭氧1小时,70,45,72,19,46,176,,119,119,11,30,5,7,0.3,0.4
2024-09-24T1400,3021A,115,35.7668,濮阳市,濮水河管理处,臭氧1小时,65,51,59,20,43,172,,107,107,16,27,7,6,0.2,0.3
2024-09-24T1400,2601A,100.98,22.7633,普洱市,市环保局,,29,23,32,20,21,83,,62,62,5,8,11,11,0.4,0.4
2024-09-24T1400,2602A,100.9817,22.8322,普洱市,普洱第二中学,,28,28,32,6,13,88,,60,60,6,9,9,8,0.5,0.5
2024-09-24T1400,2262A,131.0518,45.8751,七台河市,新一中,,33,22,23,10,11,103,,68,68,7,12,9,10,1.0,1.1
2024-09-24T1400,3345A,131.0577,45.7879,七台河市,中波台,,24,18,26,7,7,75,,48,48,12,17,6,7,0.4,0.4
2024-09-24T1400,3637A,131.0176,45.7761,七台河市,人民广场,,25,12,43,3,15,80,,47,47,8,19,8,8,0.3,0.4
2024-09-24T1400,3684A,130.8781,45.8222,七台河市,新建矿广场,,31,31,51,15,19,77,,53,53,12,33,4,6,0.2,0.5
2024-09-24T1400,1779A,123.9305,47.3636,齐齐哈尔市,安居小区,,43,43,35,19,14,72,,68,58,12,15,12,11,0.4,0.4
2024-09-24T1400,1780A,123.9488,47.3386,齐齐哈尔市,中心广场,颗粒物(PM10),81,112,44,6,6,68,,65,55,17,15,2,2,0.5,0.4
2024-09-24T1400,1781A,123.9483,47.3227,齐齐哈尔市,农牧车辆厂,,46,46,38,19,8,71,,69,58,15,11,9,8,0.3,0.3
2024-09-24T1400,1783A,123.945,47.2988,齐齐哈尔市,市环境监测站,,36,34,29,25,12,73,,73,60,12,10,9,8,0.3,0.3
2024-09-24T1400,3662A,123.6333,47.2075,齐齐哈尔市,富区青少年活动中心,,36,36,28,9,8,62,,52,49,11,10,5,7,0.4,0.3
2024-09-24T1400,2591A,107.9783,26.5747,黔东南苗族侗族自治州,市环境监测站,,41,27,27,20,20,131,,106,106,13,16,5,5,0.4,0.5
2024-09-24T1400,2881A,107.8908,26.5311,黔东南苗族侗族自治州,凯里学院,,45,29,30,17,18,142,,115,115,8,14,3,3,0.8,0.8
2024-09-24T1400,2593A,107.5228,26.2403,黔南布依族苗族自治州,小围寨,,43,14,24,12,16,136,,110,110,2,7,3,6,0.5,0.5
2024-09-24T1400,3538A,107.5175,26.2978,黔南布依族苗族自治州,沙坝,,45,18,28,14,17,143,,102,102,4,10,4,4,0.5,0.6
2024-09-24T1400,2589A,104.9022,25.0925,黔西南布依族苗族自治州,场坝街,,41,23,38,7,28,129,,75,75,8,20,5,39,0.3,0.4
2024-09-24T1400,2590A,104.8811,25.0992,黔西南布依族苗族自治州,坪东大道,,35,,32,17,27,111,,70,70,6,21,9,9,0.3,0.4
2024-09-24T1400,2502A,108.6236,21.9667,钦州市,市环保站,,44,44,52,24,21,91,,79,79,10,15,8,7,0.7,0.6
2024-09-24T1400,2503A,108.6549,21.9481,钦州市,沙埠小学,,50,50,43,24,22,93,,82,82,13,15,6,7,0.8,0.8
2024-09-24T1400,2504A,108.5989,21.7431,钦州市,港区一小,颗粒物(PM10),76,101,69,21,24,97,,74,74,17,20,7,6,0.8,0.6
2024-09-24T1400,3404A,108.5959,21.9633,钦州市,北职校,颗粒物(PM10),51,52,47,35,29,100,,82,82,10,14,6,7,0.8,0.8
2024-09-24T1400,1042A,119.5134,39.8207,秦皇岛市,北戴河环保局,,49,35,52,13,23,155,,113,113,10,19,4,5,0.4,0.9
2024-09-24T1400,1043A,119.7493,40.0116,秦皇岛市,第一关,臭氧1小时,68,52,65,32,37,174,,107,107,14,62,7,8,0.5,0.9
2024-09-24T1400,1044A,119.5897,39.9499,秦皇岛市,监测站,臭氧1小时,63,44,58,33,38,170,,117,117,11,23,3,7,0.5,1
2024-09-24T1400,1046A,119.5251,39.9041,秦皇岛市,建设大厦,臭氧1小时,63,44,61,17,29,170,,120,120,5,20,7,11,0.6,1
2024-09-24T1400,3132A,119.610547,39.943889,秦皇岛市,文明里,臭氧1小时,60,59,70,22,28,168,,118,118,12,24,6,8,0.6,1
2024-09-24T1400,1307A,120.6659,36.2403,青岛市,仰口,,28,14,17,12,11,89,,74,74,6,5,7,7,0.3,0.3
2024-09-24T1400,1310A,120.4134,36.0658,青岛市,市南区东部子站,,,19,42,3,13,106,,81,81,8,37,4,7,,0.6
2024-09-24T1400,1311A,120.3664,36.1032,青岛市,四方区子站,,34,9,43,3,16,108,,70,70,9,51,9,10,0.4,0.6
2024-09-24T1400,1312A,120.2994,36.054,青岛市,市南区西部子站,,35,9,47,3,13,109,,76,76,3,26,8,9,0.5,0.7
2024-09-24T1400,1313A,120.4581,36.0858,青岛市,崂山区子站,,35,6,25,3,7,109,,83,83,8,28,8,8,0.4,0.6
2024-09-24T1400,1314A,120.1983,35.9608,青岛市,黄岛区子站,,35,7,40,3,17,110,,74,74,5,35,8,10,0.4,0.5
2024-09-24T1400,1315A,120.3999,36.3083,青岛市,城阳区子站,,40,14,40,12,16,126,,88,88,12,33,7,8,0.5,0.6
2024-09-24T1400,1966A,120.0405,35.8735,青岛市,黄岛区4号,,33,12,42,3,14,105,,78,78,4,28,6,7,0.4,0.6
2024-09-24T1400,3362A,120.5014,36.4034,青岛市,即墨2号,,34,18,32,3,13,108,,82,82,5,20,6,7,0.4,0.4
2024-09-24T1400,3642A,120.3503,36.0736,青岛市,市北区南部,,35,29,47,3,15,109,,72,72,8,45,6,9,0.6,0.7
2024-09-24T1400,3643A,120.3948,36.1805,青岛市,李沧区北部,,39,31,47,12,18,122,,80,80,17,40,9,9,0.6,0.7
2024-09-24T1400,1702A,113.0426,23.691,清远市,环保大楼,,23,7,10,6,6,73,,61,60,8,11,7,7,0.9,0.8
2024-09-24T1400,1703A,113.0208,23.7106,清远市,凤城街办,,23,10,8,9,6,73,,61,58,6,8,6,6,0.8,0.8
2024-09-24T1400,3025A,113.0477,23.6344,清远市,技师学院,,24,9,12,3,7,76,,62,62,7,9,6,6,0.6,0.6
2024-09-24T1400,3318A,112.9903,23.7403,清远市,清新太和,,21,16,7,11,4,65,,62,50,14,10,1,1,0.7,0.6
2024-09-24T1400,3455A,113.076,23.7198,清远市,清城东城,,23,13,7,6,5,73,,64,64,3,4,2,2,0.8,0.8
2024-09-24T1400,2661A,107.6325,35.7357,庆阳市,庆阳五中,颗粒物(PM10),61,72,71,27,38,154,,142,142,10,13,8,8,0.5,0.5
2024-09-24T1400,2662A,107.6364,35.7067,庆阳市,市环保局,颗粒物(PM10),53,56,63,27,33,152,,140,140,12,13,8,8,0.5,0.5
2024-09-24T1400,1916A,103.7897,25.5035,曲靖市,环境监测站,,43,38,35,29,18,136,,66,66,7,20,8,9,0.7,0.9
2024-09-24T1400,1917A,103.8,25.5364,曲靖市,烟厂办公区,颗粒物(PM10),53,56,38,21,19,135,,74,74,6,18,3,6,0.5,0.8
2024-09-24T1400,3376A,103.7947,25.462,曲靖市,南苑二区,,44,39,28,26,17,139,,75,75,8,13,14,10,0.9,0.8
2024-09-24T1400,3377A,103.7444,25.5261,曲靖市,曲靖师范学院,,46,,39,24,31,146,,73,73,8,27,10,45,0.6,0.9
2024-09-24T1400,1264A,118.8692,28.9398,衢州市,环保大楼,,39,,20,27,15,107,,96,96,14,13,3,3,0.5,0.6
2024-09-24T1400,1265A,118.8709,28.9666,衢州市,实验学校,,42,30,20,29,16,100,,87,87,13,12,4,5,0.6,0.5
2024-09-24T1400,1266A,118.8621,28.9808,衢州市,衢州学院,,35,35,24,24,16,108,,87,87,14,16,6,6,0.6,0.6
2024-09-24T1400,1611A,118.5819,24.9117,泉州市,涂山街,,20,14,10,12,9,61,,48,41,23,15,2,2,0.8,0.7
2024-09-24T1400,1612A,118.5972,24.8978,泉州市,津头埔,,20,15,11,13,10,62,,45,38,22,22,4,4,0.8,0.7
2024-09-24T1400,1613A,118.6663,24.9424,泉州市,万安,,23,19,11,16,10,61,,41,37,18,15,2,2,0.8,0.8
2024-09-24T1400,3529A,118.6333,24.9264,泉州市,城华南路,,18,16,9,3,5,57,,46,38,19,12,4,3,0.6,0.4
2024-09-24T1400,2626A,88.8876,29.2718,日喀则市,日喀则监测站,,34,10,8,3,3,108,,85,82,5,7,4,5,0.3,0.3
2024-09-24T1400,3726A,88.8781,29.2426,日喀则市,林业技术推广中心,,33,6,5,3,5,104,,80,74,6,7,6,6,0.6,0.6
2024-09-24T1400,1659A,119.471,35.4209,日照市,监测站,,,9,33,6,17,115,,92,92,,55,10,12,0.3,0.5
2024-09-24T1400,1660A,119.523,35.4216,日照市,市政府广场,,39,12,29,11,12,122,,106,106,6,26,9,10,0.3,0.5
2024-09-24T1400,1661A,119.5587,35.4044,日照市,港务局,,44,17,32,13,19,138,,113,113,7,21,8,8,0.3,0.6
2024-09-24T1400,3507A,119.5328,35.4625,日照市,职业技术学院,,39,12,30,7,12,123,,108,108,8,20,9,10,0.4,0.5
2024-09-24T1400,3604A,119.3266,35.1044,日照市,岚山环保分局,,38,19,41,7,18,119,,110,110,8,27,10,24,0.5,1.7
2024-09-24T1400,1835A,111.1922,34.7752,三门峡市,市政府,,49,33,46,20,25,156,,119,119,10,17,10,13,0.5,0.6
2024-09-24T1400,1836A,111.1587,34.7942,三门峡市,开发区,,44,26,49,10,26,139,,114,114,10,14,8,11,0.3,0.4
2024-09-24T1400,1838A,111.143,34.7955,三门峡市,风景区,,48,48,49,23,28,150,,135,135,9,14,8,12,0.7,0.8
2024-09-24T1400,3039A,111.1911,34.7829,三门峡市,三门峡市第一小学,,45,33,49,3,29,142,,115,115,10,18,7,10,0.4,0.5
2024-09-24T1400,3598A,111.1,34.7167,三门峡市,富达温泉假日酒店,臭氧1小时,55,44,53,19,33,164,,109,109,16,20,11,11,0.6,0.6
2024-09-24T1400,2324A,117.6211,26.2625,三明市,三钢,,25,11,7,7,7,77,,52,52,7,9,6,6,0.6,0.5
2024-09-24T1400,2325A,117.635,26.2714,三明市,三明二中,,30,30,8,9,4,79,,52,52,6,8,3,4,0.9,0.8
2024-09-24T1400,2326A,117.6028,26.2378,三明市,三元区政府,,27,19,7,11,4,84,,50,50,12,11,8,5,1.0,0.7
2024-09-24T1400,1876A,109.5078,18.2489,三亚市,河东子站,,29,6,9,3,4,90,,74,74,2,5,3,3,0.4,0.4
2024-09-24T1400,1877A,109.4964,18.2681,三亚市,河西子站,,27,6,8,3,2,86,,66,66,2,5,3,3,0.5,0.4
2024-09-24T1400,3540A,109.7348,18.3443,三亚市,君悦子站,,25,10,11,3,3,80,,59,59,10,9,3,3,0.5,0.4
2024-09-24T1400,2624A,91.7608,29.2313,山南市,山南监测站,,30,6,7,3,5,93,,80,80,3,4,8,8,0.3,0.3
2024-09-24T1400,2625A,91.7706,29.2436,山南市,山南人民医院,,31,10,16,6,6,97,,84,84,4,6,8,8,0.3,0.3
2024-09-24T1400,1674A,116.6794,23.3667,汕头市,金平子站,,18,18,13,3,8,44,,32,32,7,8,4,5,0.7,0.8
2024-09-24T1400,1675A,116.7244,23.3633,汕头市,龙湖子站,,15,13,11,9,5,47,,36,36,4,6,7,6,0.6,0.7
2024-09-24T1400,1676A,116.7258,23.2775,汕头市,濠江子站,,16,16,11,3,6,43,,32,32,11,11,6,6,0.7,0.8
2024-09-24T1400,1677A,116.7519,23.4714,汕头市,澄海子站,,18,16,13,7,8,57,,45,45,11,10,4,5,0.8,0.8
2024-09-24T1400,1678A,116.6092,23.2539,汕头市,潮阳子站,,15,8,10,3,4,47,,34,34,2,5,4,4,0.6,0.7
2024-09-24T1400,3444A,116.454,23.2684,汕头市,潮南峡山,,,6,15,3,15,40,,34,34,3,6,,5,0.6,0.7
2024-09-24T1400,3624A,116.4069,23.2533,汕头市,潮南子站,,15,6,19,3,12,46,,31,31,5,13,4,5,0.5,0.7
2024-09-24T1400,1693A,115.3653,22.775,汕尾市,市环保局,,15,6,7,3,4,47,,32,32,3,8,7,7,0.6,0.7
2024-09-24T1400,1694A,115.3706,22.7898,汕尾市,市政府,,15,,6,3,9,47,,32,32,4,11,8,7,0.4,0.5
2024-09-24T1400,1695A,115.3622,22.7925,汕尾市,新城中学,,15,,6,3,2,47,,33,33,3,7,6,6,0.6,0.7
2024-09-24T1400,2645A,109.9154,33.8715,商洛市,监测站,,38,33,35,21,19,119,,61,61,12,21,7,6,0.4,0.4
2024-09-24T1400,3045A,109.9643,33.8471,商洛市,商州区中学,颗粒物(PM10),59,68,56,21,21,122,,57,57,12,30,11,7,0.7,0.7
2024-09-24T1400,2408A,115.6702,34.4285,商丘市,环境监测站,,50,29,43,13,25,157,,108,108,11,28,6,6,0.3,0.4
2024-09-24T1400,2409A,115.6458,34.4045,商丘市,粮食局,臭氧1小时,64,27,35,15,26,171,,134,134,6,13,9,10,0.4,0.5
2024-09-24T1400,2410A,115.6293,34.3948,商丘市,睢阳区环保局,,50,27,43,12,23,158,,110,110,13,31,11,10,0.3,0.4
2024-09-24T1400,3171A,115.6071,34.4465,商丘市,梁园区档案局,,50,29,46,15,25,158,,104,104,10,29,11,10,0.3,0.4
2024-09-24T1400,1141A,121.4,31.238,上海市,普陀,,29,22,29,20,11,68,,65,51,28,22,4,6,0.7,0.8
2024-09-24T1400,1142A,121.478,31.2036,上海市,十五厂,,33,32,27,23,12,69,,74,57,36,24,8,8,0.6,0.5
2024-09-24T1400,1143A,121.467,31.3008,上海市,虹口,,41,41,27,24,11,57,,62,49,33,22,8,9,0.6,0.5
2024-09-24T1400,1144A,121.412,31.1654,上海市,徐汇上师大,,29,21,28,20,14,77,,70,56,31,25,6,6,0.6,0.7
2024-09-24T1400,1145A,121.536,31.2659,上海市,杨浦四漂,,45,45,29,25,11,56,,66,51,39,24,6,6,0.9,0.6
2024-09-24T1400,1147A,121.425,31.2261,上海市,静安监测站,,30,29,29,21,12,66,,70,53,33,25,5,6,0.5,0.5
2024-09-24T1400,1148A,121.703,31.1907,上海市,浦东川沙,,25,25,25,15,7,48,,67,59,42,26,6,6,0.8,0.7
2024-09-24T1400,1149A,121.533,31.2284,上海市,浦东新区监测站,,41,41,26,27,12,56,,65,50,42,27,6,7,0.9,0.6
2024-09-24T1400,1150A,121.577,31.2071,上海市,浦东张江,,48,48,25,26,12,52,,65,56,44,26,5,5,1.0,0.7
2024-09-24T1400,3265A,121.4316,31.3322,上海市,宝山庙行,,32,30,27,22,11,62,,63,53,36,27,7,8,0.7,0.7
2024-09-24T1400,3266A,121.8791,31.4662,上海市,崇明上实东滩,,28,6,15,3,7,87,,76,72,3,5,10,10,0.5,0.5
2024-09-24T1400,3268A,121.3162,31.2838,上海市,嘉定南翔,,24,20,25,11,10,75,,62,56,25,23,6,7,0.6,0.6
2024-09-24T1400,3269A,121.3359,30.7456,上海市,金山新城,,,46,31,21,17,66,,72,,,22,4,6,0.6,0.6
2024-09-24T1400,3270A,121.4996,31.0739,上海市,闵行浦江,,30,30,28,21,11,57,,65,48,43,26,5,6,1.2,0.9
2024-09-24T1400,3271A,121.2886,31.1663,上海市,青浦徐泾,,24,22,26,16,12,75,,67,56,35,25,6,7,0.6,0.6
2024-09-24T1400,3272A,121.2186,31.0378,上海市,松江图书馆,,42,42,29,26,12,79,,72,66,32,23,4,4,0.6,0.6
2024-09-24T1400,3273A,121.3902,31.2059,上海市,长宁仙霞,,25,19,27,17,12,71,,69,56,32,25,8,9,0.8,0.8
2024-09-24T1400,3274A,121.7965,31.0507,上海市,浦东惠南,,17,14,22,9,8,50,,60,55,34,26,8,8,0.8,0.7
2024-09-24T1400,3544A,121.4891,30.925,上海市,奉贤南桥新城,,23,22,25,16,11,55,,72,52,42,24,8,8,0.8,0.6
2024-09-24T1400,2381A,118.005,28.4572,上饶市,百草园,,27,15,22,7,10,85,,66,66,10,8,2,2,0.9,0.7
2024-09-24T1400,2382A,117.9756,28.4436,上饶市,市监测站,,29,19,15,9,7,92,,82,82,11,10,2,3,0.6,0.6
2024-09-24T1400,2383A,117.9519,28.4628,上饶市,凤凰光学,,30,20,15,13,9,95,,74,74,12,10,4,4,0.8,0.7
2024-09-24T1400,3413A,118.1953,28.4401,上饶市,广丰区教体局,,,9,14,6,7,91,,70,70,9,9,9,7,,0.9
2024-09-24T1400,3685A,117.897,28.4315,上饶市,双创科技城,,32,23,16,13,8,101,,72,72,13,12,1,3,0.6,0.5
2024-09-24T1400,1669A,113.5824,24.7733,韶关市,市八中,,25,17,21,13,16,78,,73,73,2,3,9,9,0.7,0.6
