timepoint,stationcode,longitude,latitude,area,positionname,primarypollutant,aqi,pm10,pm10_24h,pm2_5,pm2_5_24h,o3,o3_24h,o3_8h,o3_8h_24h,no2,no2_24h,so2,so2_24h,co,co_24h
2025-04-05T1700,2566A,102.1879,31.914,阿坝藏族羌族自治州,州农科所,,31,31,45,6,14,74,,66,66,23,13,14,13,0.4,0.4
2025-04-05T1700,2568A,102.2502,31.8896,阿坝藏族羌族自治州,马师校,,32,16,25,9,19,100,,75,75,10,12,6,5,0.4,0.5
2025-04-05T1700,3994A,102.2165,31.9024,阿坝藏族羌族自治州,马尔康中学西区,,32,13,22,11,13,102,,84,84,8,8,3,3,0.3,0.3
2025-04-05T1700,2695A,80.292,41.1694,阿克苏地区,电视台,颗粒物(PM10),240,378,411,92,105,101,,74,74,5,18,6,5,0.3,0.4
2025-04-05T1700,2696A,80.2613,41.1551,阿克苏地区,艺术中心,颗粒物(PM10),258,390,447,106,117,94,,72,72,11,23,4,3,0.5,0.7
2025-04-05T1700,2204A,105.6467,38.8363,阿拉善盟,西城区西花园,,43,43,32,13,9,121,,117,117,2,4,11,13,0.6,0.6
2025-04-05T1700,2205A,105.6985,38.8411,阿拉善盟,蒙二幼,,35,32,23,10,8,109,,105,105,6,7,6,6,0.4,0.4
2025-04-05T1700,2206A,105.724,38.8516,阿拉善盟,环保局新楼,,35,33,22,11,7,110,,108,108,3,3,8,8,0.5,0.5
2025-04-05T1700,2708A,88.1264,47.8517,阿勒泰地区,市站,,31,17,12,3,4,97,,94,86,8,6,3,2,0.5,0.4
2025-04-05T1700,2630A,80.1161,32.5,阿里地区,阿里监测站,,,14,16,3,8,132,,117,117,1,5,6,7,,0.5
2025-04-05T1700,3192A,80.0903,32.5028,阿里地区,阿里藏医院,,43,20,18,6,7,135,,127,127,1,4,6,8,0.5,0.5
2025-04-05T1700,2642A,109.0318,32.6537,安康市,香溪洞,颗粒物(PM10),82,114,59,33,31,110,,74,74,8,11,6,8,0.5,0.6
2025-04-05T1700,2644A,109.0072,32.6975,安康市,汉滨区检察院,颗粒物(PM10),86,121,70,30,30,118,,85,85,11,16,8,8,0.4,0.5
2025-04-05T1700,4054A,109.0325,32.6913,安康市,市邮政管理局,颗粒物(PM10),83,115,71,32,30,118,,84,84,9,17,6,9,0.5,0.6
2025-04-05T1700,2291A,117.0809,30.5177,安庆市,环科院,颗粒物(PM10),70,89,84,21,50,138,,128,128,10,35,8,12,0.4,0.7
2025-04-05T1700,2292A,117.0331,30.5119,安庆市,马山宾馆,,,83,80,,48,137,,128,128,8,40,4,8,0.1,0.7
2025-04-05T1700,2294A,116.9896,30.6145,安庆市,安庆大学,颗粒物(PM10),72,94,86,19,45,148,,137,137,6,20,4,10,0.3,0.6
2025-04-05T1700,3173A,117.0598,30.5351,安庆市,市人大,颗粒物(PM10),71,92,86,20,52,138,,128,128,7,22,6,14,0.3,0.7
2025-04-05T1700,3122A,105.9606,26.2611,安顺市,伍家关,细颗粒物(PM2.5),52,48,52,36,40,92,,91,82,9,7,7,5,0.7,0.7
2025-04-05T1700,3123A,105.9408,26.2431,安顺市,凤凰山,细颗粒物(PM2.5),57,51,58,40,42,102,,100,90,10,10,10,9,0.5,0.4
2025-04-05T1700,3124A,105.9439,26.2564,安顺市,金钟山,细颗粒物(PM2.5),60,48,58,43,42,104,,103,92,10,9,9,7,0.6,0.6
2025-04-05T1700,3125A,105.8983,26.2481,安顺市,娄家坡,细颗粒物(PM2.5),60,50,59,43,44,102,,103,92,11,10,10,10,0.8,0.8
2025-04-05T1700,1818A,114.4839,36.0621,安阳市,棉研所,,,,,,,,,,,,,,,,
2025-04-05T1700,1819A,114.3551,36.1017,安阳市,红庙街,颗粒物(PM10),53,56,98,22,40,102,,91,91,3,18,4,6,0.3,0.6
2025-04-05T1700,1820A,114.361,36.0681,安阳市,银杏小区,颗粒物(PM10),56,61,101,26,42,110,,99,99,6,22,5,6,0.1,0.4
2025-04-05T1700,3141A,114.3922,36.0878,安阳市,信访局,颗粒物(PM10),58,66,101,25,43,113,,102,102,8,19,4,6,0.3,0.5
2025-04-05T1700,3669A,114.4705,36.0637,安阳市,左辅环卫站,颗粒物(PM10),62,73,116,15,38,115,,103,103,2,10,4,5,0.2,0.4
2025-04-05T1700,3703A,114.2917,36.0949,安阳市,安钢职工学校,颗粒物(PM10),85,119,121,22,50,101,,92,92,11,28,4,6,0.5,0.8
2025-04-05T1700,1748A,123.044,41.1196,鞍山市,深沟寺,,29,21,42,11,30,92,,87,87,14,12,12,9,0.6,0.7
2025-04-05T1700,1749A,123.011,41.0931,鞍山市,太阳城,,30,16,43,10,32,95,,92,92,12,12,5,4,0.5,0.7
2025-04-05T1700,1750A,123.0485,41.1442,鞍山市,太平,,28,28,46,12,28,83,,82,82,19,14,18,9,1.0,0.8
2025-04-05T1700,1751A,122.9642,41.0971,鞍山市,铁西三道街,,30,22,48,11,32,93,,89,89,16,20,4,4,0.4,0.8
2025-04-05T1700,1753A,123.022,41.0821,鞍山市,明达新区,,29,22,44,12,33,92,,89,89,10,10,6,5,0.4,0.6
2025-04-05T1700,1754A,123.1289,41.0228,鞍山市,千山,,,,20,,10,,,49,,,8,,3,,0.7
2025-04-05T1700,4201A,122.9446,41.0826,鞍山市,兴盛南路290号,,30,22,48,11,32,95,,88,88,15,20,9,8,0.4,0.8
2025-04-05T1700,2195A,107.4212,40.761,巴彦淖尔市,附二中,颗粒物(PM10),62,74,46,9,15,117,,101,101,4,11,8,10,0.2,0.3
2025-04-05T1700,2196A,107.37,40.7372,巴彦淖尔市,市环保大楼,颗粒物(PM10),64,77,47,13,16,112,,98,98,2,9,5,7,0.2,0.3
2025-04-05T1700,1956A,86.1472,41.7538,巴音郭楞蒙古自治州,孔雀公园,颗粒物(PM10),500,1346,561,223,112,88,,74,74,6,16,6,6,0.2,0.3
2025-04-05T1700,1957A,86.1972,41.7166,巴音郭楞蒙古自治州,棉纺厂,颗粒物(PM10),500,1190,637,236,128,89,,77,77,7,14,2,3,0.2,0.3
2025-04-05T1700,1958A,86.2357,41.7173,巴音郭楞蒙古自治州,经济开发区,颗粒物(PM10),500,1435,607,219,112,94,,82,82,6,11,4,5,0.2,0.2
2025-04-05T1700,2914A,106.7677,31.8794,巴中市,苏山坪,颗粒物(PM10),51,52,57,29,37,119,,98,98,11,13,3,4,0.4,0.5
2025-04-05T1700,3181A,106.7768,31.8526,巴中市,市五中,颗粒物(PM10),52,54,72,27,41,125,,88,88,8,29,5,6,0.5,0.7
2025-04-05T1700,3183A,106.7418,31.8654,巴中市,圣泉水务公司,,49,49,59,28,37,126,,94,94,3,24,3,3,0.4,0.5
2025-04-05T1700,3616A,106.7616,31.8344,巴中市,市中心医院,细颗粒物(PM2.5),59,51,67,42,43,124,,90,90,7,28,6,6,0.6,0.7
2025-04-05T1700,2235A,122.7911,45.6077,白城市,洮北区环保局,细颗粒物(PM2.5),112,,111,84,57,72,,59,59,15,19,6,7,0.8,0.8
2025-04-05T1700,2236A,122.8738,45.5725,白城市,市环保局,,50,,102,35,50,54,,57,57,14,19,3,5,0.6,0.5
2025-04-05T1700,2231A,126.4219,41.9171,白山市,喜丰,,35,35,35,13,18,103,,102,102,13,14,6,6,1.0,1
2025-04-05T1700,2232A,126.4077,41.9419,白山市,环保局,,32,28,37,8,18,102,,102,102,13,14,3,5,0.9,0.9
2025-04-05T1700,2647A,104.1724,36.5446,白银市,第三小学,颗粒物(PM10),66,82,99,25,31,120,,101,101,6,20,18,69,0.2,0.6
2025-04-05T1700,2648A,104.1465,36.5482,白银市,动力公司,颗粒物(PM10),66,82,87,28,31,117,,105,105,7,17,5,35,0.3,0.7
2025-04-05T1700,2512A,106.6103,23.9011,百色市,市监测站,颗粒物(PM10),63,76,62,37,42,113,,95,95,12,13,10,12,0.9,0.9
2025-04-05T1700,2513A,106.6538,23.8859,百色市,市中心血站,细颗粒物(PM2.5),75,69,62,55,54,121,,96,96,11,12,14,12,0.8,0.8
2025-04-05T1700,3406A,106.6085,23.8798,百色市,祈福高中,颗粒物(PM10),65,80,58,34,39,108,,92,88,10,11,7,8,0.8,0.8
2025-04-05T1700,2270A,117.396,32.939,蚌埠市,工人疗养院,颗粒物(PM10),82,114,118,25,52,139,,126,126,10,17,5,8,0.5,0.7
2025-04-05T1700,2271A,117.3605,32.9427,蚌埠市,百货大楼,颗粒物(PM10),91,132,121,27,55,134,,121,121,14,22,6,8,0.4,0.6
2025-04-05T1700,2273A,117.4185,32.8911,蚌埠市,蚌埠学院,颗粒物(PM10),85,119,108,24,51,139,,125,125,8,15,4,7,0.4,0.7
2025-04-05T1700,2274A,117.3533,32.9673,蚌埠市,淮上区政府,颗粒物(PM10),92,134,121,32,56,141,,126,126,11,18,6,8,0.3,0.5
2025-04-05T1700,2275A,117.3145,32.8977,蚌埠市,高新区,颗粒物(PM10),76,102,111,26,56,138,,122,122,9,17,6,8,0.4,0.7
2025-04-05T1700,3715A,117.3092,32.9314,蚌埠市,蚌埠田家炳中学,颗粒物(PM10),93,136,131,29,58,142,,126,126,15,22,6,9,0.3,0.5
2025-04-05T1700,1585A,109.8756,40.6532,包头市,市环境监测站,,36,36,41,14,17,104,,100,100,9,26,9,14,0.4,0.7
2025-04-05T1700,1587A,109.9991,40.5842,包头市,包头八中,,42,42,36,11,14,104,,95,95,14,24,11,12,0.5,0.5
2025-04-05T1700,1588A,109.8538,40.6821,包头市,青山宾馆,,35,35,42,13,18,104,,97,97,6,28,8,14,0.4,0.8
2025-04-05T1700,1589A,109.8642,40.6288,包头市,惠龙物流,,37,37,40,13,14,107,,102,102,9,21,7,12,0.4,0.6
2025-04-05T1700,1590A,110.0377,40.5546,包头市,东河鸿龙湾,,38,38,35,3,6,107,,102,102,12,23,10,10,0.5,0.5
2025-04-05T1700,3283A,109.9154,40.5685,包头市,滨河大厦,,37,37,29,3,9,110,,100,100,7,27,11,10,0.6,0.6
2025-04-05T1700,3419A,109.9447,40.6261,包头市,包头市委党校,,44,44,41,6,11,106,,100,100,5,19,6,13,0.4,0.6
2025-04-05T1700,3683A,109.8331,40.6576,包头市,昆区政府,,36,36,38,16,19,103,,97,97,11,27,6,12,0.4,0.7
2025-04-05T1700,1930A,107.185,34.3063,宝鸡市,庙沟村,颗粒物(PM10),94,137,147,45,43,119,,96,96,14,11,8,7,0.4,0.4
2025-04-05T1700,1931A,107.0708,34.3017,宝鸡市,竹园沟,颗粒物(PM10),103,155,158,46,46,123,,100,100,13,12,8,7,0.4,0.3
2025-04-05T1700,1932A,107.1906,34.3672,宝鸡市,三陆医院,颗粒物(PM10),105,160,157,42,46,113,,90,90,16,25,6,7,0.5,0.5
2025-04-05T1700,1933A,107.1431,34.3547,宝鸡市,监测站,颗粒物(PM10),110,169,164,56,56,114,,90,90,16,16,9,8,0.4,0.4
2025-04-05T1700,1934A,107.1186,34.3739,宝鸡市,技工学校,颗粒物(PM10),99,148,159,42,48,114,,89,89,14,13,6,5,0.5,0.5
2025-04-05T1700,1935A,107.3906,34.3528,宝鸡市,陈仓区环保局家属楼,颗粒物(PM10),90,130,159,33,47,114,,90,90,22,30,8,30,0.5,0.7
2025-04-05T1700,1936A,107.2058,34.3497,宝鸡市,文理学院,颗粒物(PM10),97,143,158,48,54,119,,94,94,14,20,7,6,0.4,0.4
2025-04-05T1700,1937A,107.2386,34.3622,宝鸡市,三迪小学,颗粒物(PM10),100,149,162,42,57,114,,90,90,20,32,8,8,0.4,0.5
2025-04-05T1700,1051A,115.493,38.8632,保定市,游泳馆,细颗粒物(PM2.5),59,,50,42,17,105,,93,93,7,11,8,6,0.4,0.4
2025-04-05T1700,1052A,115.5213,38.8959,保定市,华电二区,,36,36,46,24,26,105,,92,92,1,5,3,3,0,0
2025-04-05T1700,1053A,115.4713,38.9108,保定市,接待中心,,32,32,44,8,12,102,,91,91,4,6,1,2,0.1,0.1
2025-04-05T1700,1054A,115.4612,38.8416,保定市,地表水厂,,34,32,58,3,7,106,,95,95,10,19,1,2,0.2,0.2
2025-04-05T1700,3581A,115.31981,38.95208,保定市,满城区生态环境分局,,36,36,35,3,10,104,,97,97,8,8,3,3,0.2,0.2
2025-04-05T1700,3582A,115.47694,38.76408,保定市,清苑区第二中学,,36,36,60,3,9,106,,94,94,5,17,4,3,0.2,0.2
2025-04-05T1700,3583A,115.62909,39.02311,保定市,徐水物探局,,47,47,47,3,1,106,,94,94,5,10,6,5,0.2,0.1
2025-04-05T1700,4004A,115.4202,38.8656,保定市,双鹰农机,颗粒物(PM10),61,71,72,11,34,104,,93,93,7,16,2,2,0.1,0.1
2025-04-05T1700,4034A,115.5150,38.8590,保定市,植保所站,,33,33,71,9,29,104,,90,90,2,5,3,3,0.1,0.1
2025-04-05T1700,2594A,99.1678,25.1081,保山市,市环境监测站,细颗粒物(PM2.5),62,68,67,44,44,115,,106,103,12,11,5,6,0.6,0.6
2025-04-05T1700,2595A,99.1711,25.1328,保山市,市环保局,颗粒物(PM10),63,75,69,43,50,121,,124,122,12,8,6,6,0.8,0.7
2025-04-05T1700,1866A,109.2262,21.588,北海市,牛尾岭水库,,,50,46,44,34,80,,80,80,,,6,6,0.6,0.6
2025-04-05T1700,1867A,109.1436,21.4086,北海市,海滩公园,细颗粒物(PM2.5),77,86,54,56,30,88,,78,78,41,19,7,9,1.3,0.8
2025-04-05T1700,1868A,109.0981,21.4661,北海市,新市环保局,细颗粒物(PM2.5),67,62,55,48,36,113,,99,99,14,16,6,7,0.4,0.3
2025-04-05T1700,1869A,109.1778,21.5233,北海市,北海工业园,细颗粒物(PM2.5),68,81,61,49,37,106,,96,96,14,14,9,10,0.3,0.4
2025-04-05T1700,3400A,109.1911,21.4415,北海市,龙潭自来水厂,细颗粒物(PM2.5),77,73,52,56,35,113,,94,94,15,14,8,9,0.7,0.6
2025-04-05T1700,1001A,116.3621,39.8784,北京市,万寿西宫,,34,30,21,9,6,106,,100,100,11,10,6,6,0.3,0.3
2025-04-05T1700,1002A,116.2202,40.2915,北京市,定陵,,,,,,,,,,,,,,,,
2025-04-05T1700,1003A,116.4174,39.9289,北京市,东四,,32,24,19,9,6,100,,96,96,7,6,6,6,0.3,0.3
2025-04-05T1700,1004A,116.4072,39.8863,北京市,天坛,,30,25,20,9,6,95,,91,91,11,10,1,2,0.5,0.5
2025-04-05T1700,1005A,116.462,39.9365,北京市,农展馆,,32,16,15,8,3,100,,94,94,6,7,6,6,0.2,0.3
2025-04-05T1700,1006A,116.3392,39.9295,北京市,官园,,29,29,22,3,4,91,,76,76,8,7,5,6,0.3,0.3
2025-04-05T1700,1007A,116.2878,39.9611,北京市,海淀万柳,,29,29,18,6,4,86,,83,83,15,11,3,3,0.5,0.5
2025-04-05T1700,1008A,116.6636,40.135,北京市,顺义新城,,33,14,13,3,3,104,,99,99,10,6,5,5,0.3,0.3
2025-04-05T1700,1009A,116.6275,40.3275,北京市,怀柔镇,,29,8,9,3,3,90,,86,86,3,4,3,2,0.2,0.2
2025-04-05T1700,1010A,116.2296,40.217,北京市,昌平镇,,32,17,18,3,4,101,,94,94,4,7,1,2,0.2,0.2
2025-04-05T1700,1011A,116.3966,39.9821,北京市,奥体中心,,31,17,17,3,4,99,,95,95,11,13,3,3,0.4,0.4
2025-04-05T1700,3281A,115.9718,40.4529,北京市,延庆夏都,,32,,17,20,7,100,,91,91,3,5,5,6,0.3,0.3
2025-04-05T1700,3418A,116.8336,40.4095,北京市,密云新城,,29,9,11,3,3,91,,87,87,2,7,4,4,0.3,0.3
2025-04-05T1700,3671A,116.088,39.9726,北京市,门头沟三家店,,,,51,18,12,83,,77,77,11,10,5,5,0.3,0.3
2025-04-05T1700,3672A,116.1541,39.8204,北京市,丰台云岗,,32,31,21,8,6,102,,94,94,11,10,5,5,0.3,0.3
2025-04-05T1700,3673A,116.6804,39.9081,北京市,通州东关,,30,24,22,3,4,94,,89,89,2,5,4,4,0.2,0.2
2025-04-05T1700,3674A,115.9577,39.7603,北京市,房山燕山,,30,30,18,3,3,94,,87,87,10,8,5,4,0.2,0.2
2025-04-05T1700,3675A,116.4672,39.7733,北京市,大兴旧宫,,34,34,25,3,5,93,,87,87,8,7,1,2,0.1,0.2
2025-04-05T1700,3694A,115.986,40.4563,北京市,延庆石河营,,31,10,16,3,4,99,,90,90,2,5,4,4,0.4,0.4
2025-04-05T1700,3695A,116.6151,40.3053,北京市,怀柔新城,,28,8,10,3,3,87,,83,83,6,6,5,5,0.4,0.4
2025-04-05T1700,3696A,116.2545,39.8768,北京市,丰台小屯,,35,35,21,8,4,87,,86,86,13,8,2,2,0.2,0.2
2025-04-05T1700,3697A,116.84,40.3844,北京市,密云镇,,32,9,14,3,4,100,,95,95,2,8,5,5,0.3,0.3
2025-04-05T1700,4182A,116.1942,39.9158,北京市,八角北路9号,,36,36,22,7,6,101,,100,100,9,5,2,2,0.0,0.1
2025-04-05T1700,4194A,117.0790,40.1518,北京市,洳河巡河路,,32,12,6,3,3,100,,96,96,9,6,2,2,0.3,0.3
2025-04-05T1700,1761A,123.8275,41.3064,本溪市,大峪,,35,33,27,24,22,86,,89,77,18,16,8,8,0.7,0.5
2025-04-05T1700,1762A,123.7567,41.3325,本溪市,溪湖,,48,34,35,33,25,85,,97,81,22,19,9,8,1.1,0.9
2025-04-05T1700,1763A,123.7169,41.3094,本溪市,彩屯,,43,43,44,30,30,85,,91,83,23,23,13,12,1.3,1.8
2025-04-05T1700,1764A,123.7669,41.2864,本溪市,东明,,41,41,21,16,17,82,,104,87,18,11,14,13,0.8,0.6
2025-04-05T1700,1765A,123.7992,41.2664,本溪市,新立屯,,31,31,17,16,13,82,,104,92,26,14,6,6,0.8,0.6
2025-04-05T1700,1766A,123.8142,41.3472,本溪市,威宁,,47,47,29,32,21,81,,69,65,14,13,4,4,0.9,0.6
2025-04-05T1700,2587A,105.2864,27.3125,毕节市,八中,细颗粒物(PM2.5),58,61,55,41,36,82,,97,88,18,10,19,14,0.6,0.6
2025-04-05T1700,2588A,105.31,27.2944,毕节市,师专,细颗粒物(PM2.5),55,55,58,39,36,84,,104,92,22,11,13,7,0.7,0.7
2025-04-05T1700,4263A,105.3688,27.3598,毕节市,工业大道,细颗粒物(PM2.5),54,49,57,38,34,91,,99,95,15,13,8,8,0.6,0.6
2025-04-05T1700,1629A,118.0018,37.3617,滨州市,第二水厂,,41,41,86,7,24,107,,100,100,7,12,7,10,0.2,0.5
2025-04-05T1700,1630A,117.9776,37.393,滨州市,北中新校,,35,27,66,3,25,112,,107,107,9,16,6,10,0,0.2
2025-04-05T1700,3514A,117.9378,37.3956,滨州市,中海酒店,,35,24,65,9,31,110,,104,104,6,17,7,10,0.2,0.4
2025-04-05T1700,3515A,117.9378,37.3553,滨州市,开发区一中,,36,36,83,7,25,109,,103,103,16,23,12,14,0.1,0.3
2025-04-05T1700,3516A,118.0917,37.694,滨州市,金海六路,,39,39,61,3,17,110,,103,103,8,17,5,8,0.3,0.4
2025-04-05T1700,4028A,117.9956,37.3753,滨州市,滨州市西街道办事处,,37,34,73,12,29,117,,110,110,8,14,5,8,0.3,0.4
2025-04-05T1700,2311A,115.8072,33.8399,亳州市,污水处理厂,颗粒物(PM10),78,105,120,15,46,121,,105,105,5,13,3,6,0.2,0.5
2025-04-05T1700,2312A,115.7789,33.8518,亳州市,三国揽胜宫,颗粒物(PM10),68,86,117,3,44,120,,105,105,5,12,4,6,0.2,0.4
2025-04-05T1700,3332A,115.7633,33.8034,亳州市,亳州学院,,39,14,109,3,43,122,,108,108,6,12,5,7,0.2,0.5
2025-04-05T1700,2693A,82.0485,44.8556,博尔塔拉蒙古自治州,市党校,颗粒物(PM10),81,111,73,26,21,97,,91,91,25,30,2,2,0.3,0.3
2025-04-05T1700,2694A,82.0806,44.8969,博尔塔拉蒙古自治州,市环保局,颗粒物(PM10),82,113,81,20,19,103,,85,85,20,20,4,4,0.7,0.7
2025-04-05T1700,1071A,116.8842,38.2991,沧州市,沧县城建局,,30,26,62,9,26,95,,92,92,9,13,3,2,0.3,0.4
2025-04-05T1700,1072A,116.8584,38.3254,沧州市,电视转播站,,34,8,60,3,20,106,,102,102,8,14,3,4,0.2,0.2
2025-04-05T1700,1073A,116.8709,38.3228,沧州市,市环保局,,31,22,59,6,24,98,,94,94,7,11,5,5,0.3,0.3
2025-04-05T1700,3324A,116.8136,38.3004,沧州市,河北水利电力学院,,31,19,69,3,21,98,,95,95,9,14,4,4,0.1,0.2
2025-04-05T1700,2622A,97.1806,31.1273,昌都市,昌都监测站,,41,20,10,10,8,131,,116,116,4,5,3,7,0.3,0.1
2025-04-05T1700,3719A,97.1714,31.1406,昌都市,昌都会议中心,,44,,9,23,10,138,,123,123,5,8,4,4,0.1,0.1
2025-04-05T1700,2690A,88.1236,43.8886,昌吉回族自治州,天山天池,,36,35,16,19,9,115,,107,107,11,7,7,4,0.6,0.5
2025-04-05T1700,2692A,87.2717,44.0297,昌吉回族自治州,新区政务中心,,49,49,76,6,17,130,,109,109,9,18,5,7,0.2,0.5
2025-04-05T1700,3613A,87.3095,44.0142,昌吉回族自治州,亚心广场,,,,117,,19,,,106,106,5,18,8,9,0.4,0.8
2025-04-05T1700,1119A,125.3325,43.9166,长春市,食品厂,,33,33,40,20,32,84,,97,81,16,15,8,8,0.4,0.4
2025-04-05T1700,1120A,125.2863,43.9027,长春市,客车厂,,36,36,37,20,33,80,,92,78,18,16,6,6,0.4,0.5
2025-04-05T1700,1121A,125.2841,43.8463,长春市,邮电学院,,30,30,39,20,37,85,,96,82,13,14,6,7,0.3,0.4
2025-04-05T1700,1122A,125.3716,43.8772,长春市,劳动公园,,29,29,37,16,32,87,,100,83,9,10,6,7,0.3,0.3
2025-04-05T1700,1123A,125.3297,43.8805,长春市,园林处,,38,38,37,16,31,84,,98,82,14,11,8,7,0.4,0.4
2025-04-05T1700,1124A,125.4605,43.79,长春市,净月潭,,30,30,37,20,33,72,,92,78,11,8,8,6,0.4,0.4
2025-04-05T1700,1125A,125.7194,43.515,长春市,甩湾子,,,,,,,,,,,,,,,,
2025-04-05T1700,1126A,125.3863,43.8447,长春市,经开区环卫处,,41,41,39,18,34,80,,92,78,11,10,6,6,0.4,0.5
2025-04-05T1700,1127A,125.245,43.7783,长春市,高新区管委会,,29,28,36,20,35,80,,92,80,12,11,7,8,0.4,0.4
2025-04-05T1700,1128A,125.1761,43.8325,长春市,岱山公园,,29,29,33,19,34,84,,95,87,18,14,6,5,0.3,0.4
2025-04-05T1700,1335A,113.0833,28.2325,长沙市,经开区环保局,细颗粒物(PM2.5),78,93,73,57,51,155,,122,122,15,29,8,6,0.6,0.7
2025-04-05T1700,1336A,112.8872,28.2189,长沙市,高开区环保局,颗粒物(PM10),67,84,90,43,67,150,,126,126,8,38,8,8,0.7,0.9
2025-04-05T1700,1337A,113.0792,28.2053,长沙市,马坡岭,细颗粒物(PM2.5),77,96,73,56,48,151,,112,112,14,30,8,6,0.6,0.6
2025-04-05T1700,1338A,112.9394,28.19,长沙市,湖南师范大学,细颗粒物(PM2.5),72,90,84,52,59,152,,121,121,10,31,8,7,0.7,0.9
2025-04-05T1700,1339A,113.0178,28.1322,长沙市,雨花区环保局,颗粒物(PM10),66,82,76,47,57,146,,113,113,15,40,9,8,0.6,0.7
2025-04-05T1700,1340A,112.9792,28.2597,长沙市,伍家岭,颗粒物(PM10),68,85,90,43,58,143,,113,113,12,36,6,5,0.7,0.9
2025-04-05T1700,1341A,113.0014,28.1944,长沙市,火车新站,细颗粒物(PM2.5),77,88,84,56,56,154,,123,123,12,41,10,9,0.7,0.9
2025-04-05T1700,1342A,112.9844,28.1178,长沙市,天心区环保局,颗粒物(PM10),66,81,79,47,54,152,,122,122,17,38,7,7,0.4,1.1
2025-04-05T1700,1343A,112.8908,28.1308,长沙市,湖南中医药大学,细颗粒物(PM2.5),80,84,88,59,61,149,,114,114,11,37,7,5,0.6,0.9
2025-04-05T1700,1344A,112.9581,28.3611,长沙市,沙坪,细颗粒物(PM2.5),55,46,64,39,46,135,,114,114,10,18,9,8,0.8,1
2025-04-05T1700,1727A,113.1147,36.1547,长治市,清华站,,36,18,65,3,12,115,,100,100,6,13,5,10,0.4,0.5
2025-04-05T1700,1730A,113.0886,36.2125,长治市,审计局,,37,17,56,3,14,116,,101,101,10,15,7,12,0.1,0.2
2025-04-05T1700,1731A,113.0844,36.1856,长治市,长治八中,,37,36,74,3,19,118,,102,102,8,15,7,13,0.3,0.3
2025-04-05T1700,2845A,113.1569,36.1911,长治市,德盛苑,,37,18,68,9,15,116,,100,100,5,12,4,14,0.5,0.7
2025-04-05T1700,3568A,113.06,36.0464,长治市,向阳小学,,40,22,78,10,19,125,,112,112,8,13,9,12,0.2,0.3
2025-04-05T1700,3569A,112.8792,36.3144,长治市,屯留一中,,38,33,58,3,13,120,,106,106,13,22,9,11,0.5,0.5
2025-04-05T1700,4189A,113.1131,36.19948,长治市,英华南巷50号,,37,21,71,7,12,118,,104,104,8,14,4,9,0.1,0.2
2025-04-05T1700,4190A,113.2367,36.3344,长治市,学府街1号,,37,20,83,10,19,116,,102,102,6,15,7,23,0.3,0.5
2025-04-05T1700,1854A,111.6975,28.9703,常德市,市二中,颗粒物(PM10),67,84,67,34,50,127,,102,102,9,18,7,6,0.7,0.8
2025-04-05T1700,1857A,111.7158,29.1456,常德市,白鹤山,,,,,,,,,,,,,,,,
2025-04-05T1700,3138A,111.7153,29.0289,常德市,武陵区永安,颗粒物(PM10),75,100,79,37,47,146,,114,114,8,17,6,7,0.6,0.8
2025-04-05T1700,3139A,111.6892,28.9881,常德市,鼎城区玉霞,,,82,71,38,46,144,,124,124,,22,7,6,0.6,0.8
2025-04-05T1700,3140A,111.6625,29.0531,常德市,武陵区长庚,颗粒物(PM10),80,109,76,38,48,151,,112,112,8,17,8,9,0.6,0.8
2025-04-05T1700,1196A,119.9633,31.762,常州市,市监测站,颗粒物(PM10),51,52,98,25,50,146,,145,145,24,43,7,9,0.5,0.8
2025-04-05T1700,1200A,119.9468,31.7069,常州市,武进监测站,颗粒物(PM10),56,62,79,30,37,158,,147,147,17,27,10,13,0.4,0.6
2025-04-05T1700,1201A,119.9255,31.9087,常州市,安家,,46,46,97,19,49,137,,137,137,13,31,8,10,0.1,0.4
2025-04-05T1700,3002A,119.9805,31.8174,常州市,行政中心,,45,40,84,16,44,142,,142,142,13,29,13,15,0.4,0.6
2025-04-05T1700,3003A,120.0522,31.7748,常州市,经开区,颗粒物(PM10),58,65,90,20,45,143,,149,149,21,34,9,12,0.5,0.9
2025-04-05T1700,3010A,119.9025,31.7964,常州市,钟楼,颗粒物(PM10),51,51,87,19,47,145,,144,144,13,25,7,9,0.7,0.9
2025-04-05T1700,3429A,119.8598,31.7066,常州市,武进经发区,颗粒物(PM10),52,54,77,22,40,156,,144,144,13,26,8,10,0.8,0.9
2025-04-05T1700,3430A,119.5826,31.7245,常州市,金坛城区,颗粒物(PM10),52,54,79,21,37,151,,142,142,10,22,7,10,0.5,0.7
2025-04-05T1700,2220A,120.4318,41.5881,朝阳市,西梁,颗粒物(PM10),59,68,47,7,17,99,,95,95,6,17,10,12,0.6,0.7
2025-04-05T1700,2221A,120.4521,41.5646,朝阳市,河畔小区,颗粒物(PM10),62,73,46,10,18,98,,94,94,8,13,6,8,0.4,0.5
2025-04-05T1700,2222A,120.4176,41.5648,朝阳市,八里堡,颗粒物(PM10),67,84,49,10,18,93,,89,89,6,15,6,8,0.4,0.6
2025-04-05T1700,2223A,120.3806,41.5969,朝阳市,农业园区,颗粒物(PM10),68,86,52,13,21,102,,97,97,3,17,8,10,0.4,0.6
2025-04-05T1700,1705A,116.6367,23.6719,潮州市,西园路,,,,,,,,,,,,,,,,
2025-04-05T1700,3026A,116.6183,23.6608,潮州市,市政府,,29,29,28,17,25,71,,88,75,16,16,3,3,0.7,0.7
2025-04-05T1700,4036A,116.6461,23.6761,潮州市,金山,,23,18,25,16,28,62,,86,74,11,11,6,6,0.6,0.6
2025-04-05T1700,2472A,113.0073,25.9061,郴州市,马头岭,颗粒物(PM10),71,91,90,36,40,97,,78,78,21,42,8,9,1.0,1.1
2025-04-05T1700,2473A,113.0116,25.8226,郴州市,市职中,细颗粒物(PM2.5),69,68,84,50,54,117,,98,98,13,34,15,15,0.6,0.7
2025-04-05T1700,2475A,113.0383,25.8071,郴州市,市审计局,细颗粒物(PM2.5),62,64,79,44,53,118,,98,98,12,33,13,16,0.6,0.8
2025-04-05T1700,2476A,113.0348,25.7759,郴州市,市环保局,细颗粒物(PM2.5),70,67,86,51,51,118,,95,95,13,37,15,23,0.6,0.7
2025-04-05T1700,4252A,113.0138,25.8011,郴州市,好美居路49号,细颗粒物(PM2.5),65,67,89,47,55,113,,96,96,15,39,13,14,0.8,0.9
2025-04-05T1700,1431A,103.9728,30.7236,成都市,金泉两河,,31,28,52,7,22,98,,63,,8,16,2,2,0.6,0.7
2025-04-05T1700,1432A,104.176,30.6872,成都市,十里店,,31,27,54,3,29,99,,95,95,18,24,2,3,0.6,0.7
2025-04-05T1700,1433A,104.079,30.5706,成都市,三瓦窑,,34,34,58,10,28,98,,87,87,15,28,3,3,0.4,0.5
2025-04-05T1700,1434A,104.1114,30.63,成都市,沙河铺,,31,31,58,20,32,89,,83,83,12,20,5,5,0.5,0.7
2025-04-05T1700,1437A,104.0786,30.6531,成都市,君平街,,32,27,56,14,34,100,,94,94,14,21,6,6,0.6,0.7
2025-04-05T1700,1438A,103.613,31.0283,成都市,灵岩寺,,,,,,,,,,,,,,,,
2025-04-05T1700,2880A,104.0239,30.65639,成都市,大石西路,,34,34,57,6,31,90,,86,86,18,23,4,4,0.6,0.7
2025-04-05T1700,3136A,104.2725,30.5589,成都市,龙泉驿区区政府,,28,27,47,9,23,89,,87,87,13,16,4,4,0.7,0.7
2025-04-05T1700,3357A,104.0106,30.6931,成都市,金博路,,29,15,45,9,21,91,,83,83,11,20,6,6,0.3,0.4
2025-04-05T1700,3359A,104.0578,30.5225,成都市,华阳,,31,24,46,19,34,98,,89,89,14,23,5,6,0.5,0.6
2025-04-05T1700,3488A,104.3853,30.7453,成都市,青白江技师分院,颗粒物(PM10),51,51,58,10,30,98,,100,100,20,24,6,7,0.5,0.6
2025-04-05T1700,3489A,104.0789,30.4072,成都市,科学城,,32,22,51,12,27,102,,89,89,8,17,4,5,0.4,0.6
2025-04-05T1700,4011A,103.8506,30.6947,成都市,光华大道三段,,31,31,51,3,27,96,,96,96,12,18,1,1,0.5,0.7
2025-04-05T1700,4224A,104.2433,30.5353,成都市,鲸龙路1057号,,31,26,49,13,27,97,,91,91,16,19,3,4,0.7,0.8
2025-04-05T1700,1062A,117.9531,40.9081,承德市,铁路,,31,6,26,3,6,98,,95,95,3,8,6,7,0.2,0.2
2025-04-05T1700,1063A,117.9392,40.9763,承德市,中国银行,,31,18,26,3,6,97,,96,96,4,5,4,3,0.2,0.2
2025-04-05T1700,1064A,117.9503,40.928,承德市,开发区,,31,25,34,8,12,99,,96,96,3,7,6,5,0.2,0.2
2025-04-05T1700,1065A,117.8051,40.9655,承德市,文化中心,,31,15,28,3,6,97,,95,95,3,8,3,4,0.3,0.2
2025-04-05T1700,1066A,117.9268,41.0026,承德市,离宫,,24,17,23,12,16,75,,70,70,2,3,24,21,0.2,0.2
2025-04-05T1700,2314A,117.47,30.6618,池州市,池州学院,颗粒物(PM10),60,69,84,23,48,133,,129,129,11,19,5,17,0.2,0.6
2025-04-05T1700,3237A,117.4918,30.6617,池州市,展览馆,颗粒物(PM10),60,70,84,24,46,133,,131,131,11,18,6,14,0.4,0.8
2025-04-05T1700,3333A,117.5627,30.695,池州市,第八中学,颗粒物(PM10),64,77,82,25,43,134,,132,132,11,18,6,12,0.2,0.6
2025-04-05T1700,3334A,117.5038,30.6243,池州市,第十二中学,颗粒物(PM10),61,71,79,23,45,136,,135,135,7,22,6,9,0.2,0.7
2025-04-05T1700,1744A,118.9233,42.2816,赤峰市,松山一中,,30,30,27,3,5,88,,89,89,9,11,7,8,0.3,0.3
2025-04-05T1700,1745A,118.9576,42.2728,赤峰市,哈达街,,30,24,25,11,6,96,,96,96,7,8,6,7,0.4,0.4
2025-04-05T1700,1746A,118.8788,42.2554,赤峰市,天义路,,30,,18,8,6,94,,94,94,10,11,7,7,0.4,0.3
2025-04-05T1700,3058A,119.2658,42.0353,赤峰市,银河街,,46,46,38,12,10,88,,88,88,7,6,13,13,0.2,0.2
2025-04-05T1700,3286A,118.9359,42.3147,赤峰市,桥北物流园区,,27,20,17,13,7,85,,86,86,15,10,6,7,0.4,0.5
2025-04-05T1700,2521A,107.3476,22.4136,崇左市,市环保局江州分局,颗粒物(PM10),63,76,50,42,31,112,,104,104,9,8,7,6,0.7,0.6
2025-04-05T1700,4256A,107.3750,22.3736,崇左市,石景林东路7号,颗粒物(PM10),62,73,44,43,34,118,,107,107,10,10,6,5,0.7,0.7
2025-04-05T1700,2298A,118.3093,32.3153,滁州市,老年大学,颗粒物(PM10),68,86,88,21,44,142,,130,130,16,23,4,6,0.5,0.9
2025-04-05T1700,2299A,118.3244,32.2786,滁州市,人大宾馆,颗粒物(PM10),76,101,99,25,49,149,,132,132,12,28,8,12,0.4,0.8
2025-04-05T1700,3207A,118.3118,32.3038,滁州市,市政府原办公楼,颗粒物(PM10),64,77,86,22,48,145,,132,132,4,16,5,8,0.3,0.7
2025-04-05T1700,3331A,118.3267,32.2634,滁州市,图书馆,颗粒物(PM10),66,81,94,28,53,144,,129,129,8,21,7,11,0.3,0.6
2025-04-05T1700,2605A,101.5482,25.0441,楚雄彝族自治州,州环境监测站,细颗粒物(PM2.5),64,64,64,46,50,150,,127,127,8,20,7,9,0.6,0.6
2025-04-05T1700,2606A,101.538,25.0492,楚雄彝族自治州,市经济开发区,细颗粒物(PM2.5),63,70,69,45,48,148,,128,128,7,16,6,9,0.7,0.8
2025-04-05T1700,2548A,107.5277,31.2827,达州市,达州职业技术学院,颗粒物(PM10),72,93,66,42,35,122,,82,82,12,27,7,6,0.3,0.3
2025-04-05T1700,2549A,107.5086,31.2186,达州市,市环境监测站,颗粒物(PM10),70,89,73,29,37,128,,79,79,16,41,5,6,0.6,0.8
2025-04-05T1700,2550A,107.4988,31.2132,达州市,凤凰小区,颗粒物(PM10),71,92,69,36,38,125,,81,81,14,40,7,8,0.6,0.6
2025-04-05T1700,2551A,107.5082,31.1986,达州市,达县机关宾馆,颗粒物(PM10),76,102,73,40,37,123,,85,85,14,39,5,5,0.4,0.5
2025-04-05T1700,2552A,107.4644,31.2124,达州市,市政中心,颗粒物(PM10),70,90,77,31,36,125,,80,80,15,43,3,3,0.5,0.7
2025-04-05T1700,2614A,100.1542,25.7054,大理白族自治州,大理市环境监测站,细颗粒物(PM2.5),67,72,58,48,40,126,,135,135,12,11,8,8,1.1,1
2025-04-05T1700,2615A,100.2171,25.5811,大理白族自治州,大理古城,,49,49,43,27,37,115,,130,128,13,7,7,8,0.7,0.6
2025-04-05T1700,1109A,121.612,38.9741,大连市,甘井子,,36,29,46,6,25,113,,103,103,12,24,5,7,0.5,0.7
2025-04-05T1700,1110A,121.565,38.9511,大连市,周水子,,31,30,50,6,30,97,,89,89,12,23,7,9,0.2,0.3
2025-04-05T1700,1111A,121.5637,38.8845,大连市,星海三站,,33,22,42,6,26,104,,95,95,3,10,6,7,0.5,0.6
2025-04-05T1700,1112A,121.6302,38.9117,大连市,青泥洼桥,,34,15,42,6,24,108,,98,98,10,17,8,9,0.2,0.4
2025-04-05T1700,1113A,121.6251,38.8638,大连市,傅家庄,,31,22,48,6,23,99,,90,90,11,18,5,6,0.2,0.2
2025-04-05T1700,1114A,121.5213,38.8661,大连市,七贤岭,,31,16,41,3,23,99,,92,92,6,12,6,6,0.5,0.4
2025-04-05T1700,1115A,121.2529,38.8061,大连市,旅顺,,28,18,37,7,27,88,,89,84,22,22,8,8,0.4,0.4
2025-04-05T1700,1116A,121.7485,39.1311,大连市,金州,,,19,43,8,26,90,,91,82,17,19,6,9,,0.7
2025-04-05T1700,1117A,121.7811,39.0496,大连市,开发区,,36,36,47,7,23,95,,87,87,13,17,8,7,0.3,0.7
2025-04-05T1700,1118A,121.9762,39.0631,大连市,双D港,,35,35,49,6,24,111,,104,104,14,16,7,7,0.3,0.5
2025-04-05T1700,1789A,124.81117,46.03138,大庆市,大同区,,48,40,96,33,49,48,,79,57,17,18,4,5,0.6,0.6
2025-04-05T1700,1790A,125.129,46.533,大庆市,龙凤区,,35,35,87,21,55,63,,74,68,14,18,6,8,0.6,0.7
2025-04-05T1700,1791A,124.902,46.408,大庆市,红岗区,,,,73,22,51,67,,82,,,12,6,7,,0.6
2025-04-05T1700,1792A,125.153,46.586,大庆市,萨尔图区,,32,31,94,22,60,60,,71,66,15,21,8,9,0.5,0.5
2025-04-05T1700,1793A,124.9042,46.6215,大庆市,让胡路区,,40,35,84,28,72,64,,72,63,16,19,6,8,0.4,0.5
2025-04-05T1700,3481A,125.141,46.634,大庆市,萨区政府监测点,,31,31,96,14,51,66,,80,76,14,19,6,8,0.5,0.6
2025-04-05T1700,1721A,113.3819,40.1097,大同市,果树场,,,,42,,14,,,61,,,17,,12,,0.6
2025-04-05T1700,1723A,113.2994,40.0758,大同市,云冈宾馆,,36,30,41,3,13,114,,93,93,9,19,7,12,0.4,0.8
2025-04-05T1700,1724A,113.3444,40.0917,大同市,大同大学,,35,28,46,11,13,112,,87,87,3,17,15,21,0.3,0.5
2025-04-05T1700,1725A,113.2661,40.1269,大同市,安家小村,,38,38,48,7,15,110,,90,90,4,12,8,12,0.3,0.8
2025-04-05T1700,1726A,113.2711,40.0844,大同市,教育学院,,36,36,47,15,15,111,,90,90,8,17,6,12,0.3,1
2025-04-05T1700,3282A,113.3397,40.0597,大同市,大同市卫生学校,,34,27,39,15,14,106,,89,89,9,20,6,11,0.3,0.5
2025-04-05T1700,3565A,113.1367,40.1122,大同市,云冈站,,35,30,33,15,13,110,,93,93,5,12,9,16,0.2,0.3
2025-04-05T1700,3566A,113.1186,40.2556,大同市,图书馆,,32,27,29,3,9,102,,89,89,4,8,8,12,0.3,0.4
2025-04-05T1700,3567A,113.5931,40.0461,大同市,区一中,,37,37,42,6,15,103,,89,89,10,13,16,27,0.3,0.4
2025-04-05T1700,4199A,113.2798,40.0997,大同市,魏都大道141号,,41,41,53,8,23,115,,94,94,7,18,11,15,0.3,1.1
2025-04-05T1700,2269A,124.1069,50.4097,大兴安岭地区,科技局,,25,22,66,17,43,73,,73,73,6,16,8,9,0.4,0.6
2025-04-05T1700,3663A,124.1164,50.4278,大兴安岭地区,红旗社区,,23,6,42,3,31,72,,72,72,7,17,4,6,0.4,0.6
2025-04-05T1700,1600A,124.3303,40.0625,丹东市,江湾东路,,28,16,42,7,23,88,,118,96,25,10,8,7,0.6,0.5
2025-04-05T1700,1601A,124.4256,40.1503,丹东市,临江后街,,31,10,30,3,19,97,,112,92,11,11,8,8,0.6,0.6
2025-04-05T1700,1602A,124.3933,40.1461,丹东市,元宝山,,29,10,27,10,23,90,,113,86,13,14,6,6,0.4,0.4
2025-04-05T1700,1603A,124.3633,40.1092,丹东市,民主桥,,32,32,37,12,20,90,,115,89,19,12,8,8,0.6,0.7
2025-04-05T1700,3541A,109.5726,19.5167,儋州市,第一中学子站,,38,38,36,21,22,86,,82,82,8,8,4,5,0.5,0.6
2025-04-05T1700,3542A,109.5567,19.5187,儋州市,东坡学校子站,,33,28,31,20,21,103,,96,96,6,8,4,4,0.5,0.5
2025-04-05T1700,2616A,98.5842,24.428,德宏傣族景颇族自治州,德宏州监测站,细颗粒物(PM2.5),142,135,103,108,73,54,,60,34,36,38,13,15,1.2,0.9
2025-04-05T1700,3677A,98.5881,24.4368,德宏傣族景颇族自治州,芒市人民政府综合楼,细颗粒物(PM2.5),169,178,124,128,72,50,,91,39,36,27,9,12,1.3,0.9
2025-04-05T1700,1901A,104.4239,31.1208,德阳市,东山公园,颗粒物(PM10),51,51,63,24,33,105,,101,101,10,17,3,3,0.6,0.6
2025-04-05T1700,1902A,104.3826,31.1317,德阳市,西小区,颗粒物(PM10),53,55,80,25,40,90,,90,90,22,33,3,5,0.5,0.6
2025-04-05T1700,1904A,104.3553,31.1091,德阳市,耐火材料厂,,47,47,76,23,41,105,,103,103,9,27,4,6,0.3,0.5
2025-04-05T1700,3639A,104.4019,31.1244,德阳市,市教育局,,45,45,63,25,36,107,,104,104,10,26,4,4,0.5,0.6
2025-04-05T1700,1622A,116.3032,37.4674,德州市,儿童乐园,,35,29,108,7,35,109,,94,94,5,22,9,9,0.3,0.7
2025-04-05T1700,1624A,116.2991,37.4451,德州市,监理站,,37,27,95,3,30,118,,103,103,7,18,15,15,0.3,0.4
2025-04-05T1700,3066A,116.2721,37.4379,德州市,九衢泉纯净水厂,,37,27,92,9,32,116,,98,98,12,26,8,10,0.4,0.5
2025-04-05T1700,3371A,116.3728,37.4403,德州市,开发区人民医院,,35,27,98,24,33,112,,98,98,7,16,9,9,0.5,0.6
2025-04-05T1700,3372A,116.3572,37.4094,德州市,太阳城中学,,37,27,101,19,37,116,,100,100,8,17,6,7,0.6,0.6
2025-04-05T1700,3511A,116.5652,37.3319,德州市,陵城艺术中心,,34,24,95,12,40,107,,96,96,11,21,5,10,0.5,0.6
2025-04-05T1700,2621A,99.7056,27.8317,迪庆藏族自治州,迪庆州站,,36,33,44,23,26,114,,124,118,8,10,8,8,0.4,0.5
2025-04-05T1700,3180A,99.7136,27.8094,迪庆藏族自治州,质量技术监督局,,,39,37,11,24,,,135,,11,9,10,10,0.5,0.6
2025-04-05T1700,4257A,104.6092,35.5962,定西市,将台街,颗粒物(PM10),87,124,138,35,43,129,,104,104,8,24,6,8,0.4,0.5
2025-04-05T1700,4309A,104.6159,35.5701,定西市,正龙路62号,颗粒物(PM10),89,127,146,32,41,132,,108,108,4,12,10,12,0.3,0.3
2025-04-05T1700,1389A,113.7547,23.0494,东莞市,莞城梨川,,33,33,31,23,17,70,,77,73,20,14,4,4,0.6,0.5
2025-04-05T1700,1390A,113.7944,23.0128,东莞市,东城石井,,29,29,29,18,15,73,,75,74,17,15,7,6,0.7,0.6
2025-04-05T1700,1391A,113.7383,22.9658,东莞市,南城西平,,29,26,29,20,15,67,,71,71,22,21,6,6,0.6,0.6
2025-04-05T1700,3319A,113.7338,23.0381,东莞市,万江金泰,,29,29,28,3,14,75,,85,78,14,10,4,4,0.7,0.7
2025-04-05T1700,3626A,113.7533,23.0202,东莞市,南城元岭,,30,28,31,21,16,64,,75,68,16,11,5,5,0.8,0.7
2025-04-05T1700,3627A,113.7875,23.0457,东莞市,东城主山,,29,29,28,18,14,70,,74,71,25,19,3,3,0.7,0.6
2025-04-05T1700,1666A,118.6614,37.4309,东营市,市环保局,,36,36,60,3,17,114,,107,107,12,16,6,6,0.4,0.4
2025-04-05T1700,3036A,118.6904,37.4338,东营市,开发区管委会,,46,46,66,3,22,112,,104,104,9,18,4,5,0.6,0.6
2025-04-05T1700,3365A,118.5719,37.565,东营市,垦利区民丰路,,36,36,54,3,19,111,,103,103,10,16,5,9,0.7,0.8
2025-04-05T1700,3498A,118.5055,37.8612,东营市,河口城区,,36,27,56,3,14,113,,104,104,13,17,3,5,0.6,0.7
2025-04-05T1700,3646A,118.4978,37.4623,东营市,胜利站,颗粒物(PM10),54,58,73,3,23,109,,106,106,15,21,9,9,0.3,0.6
2025-04-05T1700,3734A,118.35,37.26,东营市,理想之城,,41,41,69,3,21,114,,107,107,14,18,9,8,0.3,0.4
2025-04-05T1700,1591A,110.0023,39.8129,鄂尔多斯市,综合楼,颗粒物(PM10),52,53,62,9,11,111,,101,101,9,22,4,7,0.3,0.3
2025-04-05T1700,1592A,109.9486,39.8261,鄂尔多斯市,巴音孟克林场办事处,,41,41,55,9,14,113,,103,103,6,18,6,8,0.3,0.3
2025-04-05T1700,1593A,109.7736,39.5986,鄂尔多斯市,康泽苑,,46,46,45,9,9,114,,101,101,5,9,4,3,0.2,0.2
2025-04-05T1700,1594A,109.8119,39.5989,鄂尔多斯市,华泰汽车城,,39,39,49,9,10,112,,97,97,6,15,4,4,0.3,0.3
2025-04-05T1700,1595A,109.9734,39.7884,鄂尔多斯市,奥林花园,,44,44,60,12,12,106,,101,101,15,25,14,9,0.3,0.4
2025-04-05T1700,2436A,114.8938,30.3994,鄂州市,市政府,颗粒物(PM10),73,95,114,32,68,132,,105,105,5,36,7,11,0.8,1.2
2025-04-05T1700,2437A,114.8989,30.3714,鄂州市,赵家坝,颗粒物(PM10),72,93,116,36,65,112,,91,91,9,33,9,7,1.0,1
2025-04-05T1700,3654A,114.8094,30.4089,鄂州市,精准医疗中心,臭氧1小时,68,84,117,38,65,174,,141,141,3,33,3,7,0.3,0.7
2025-04-05T1700,2454A,109.4978,30.2981,恩施土家族苗族自治州,湖北民院,颗粒物(PM10),67,83,58,36,41,136,,86,86,6,23,2,1,0,0.1
2025-04-05T1700,2455A,109.4707,30.2798,恩施土家族苗族自治州,州电力总公司,颗粒物(PM10),75,100,65,37,40,106,,65,65,9,23,5,4,0.2,0.4
2025-04-05T1700,3549A,109.5061,30.3772,恩施土家族苗族自治州,龙凤新区,颗粒物(PM10),66,81,49,24,31,117,,74,74,9,12,5,6,0.4,0.5
2025-04-05T1700,2499A,108.3411,21.6158,防城港市,沙万,细颗粒物(PM2.5),139,140,57,106,38,111,,101,101,24,23,6,4,0.7,0.5
2025-04-05T1700,2500A,108.3514,21.7731,防城港市,防城档案局,细颗粒物(PM2.5),118,133,66,89,38,117,,96,96,16,17,7,3,0.8,0.6
2025-04-05T1700,2501A,108.3506,21.6414,防城港市,大海花园,细颗粒物(PM2.5),152,138,58,116,35,120,,108,108,18,16,8,5,1.2,0.7
2025-04-05T1700,1371A,113.1294,23.0067,佛山市,湾梁,,31,31,38,15,20,54,,61,47,29,28,6,6,0.6,0.6
2025-04-05T1700,1372A,113.1083,23.0478,佛山市,华材职中,,36,36,37,22,25,55,,63,43,32,32,6,6,0.6,0.6
2025-04-05T1700,1373A,113.144,23.0453,佛山市,南海气象局,,28,25,34,19,30,48,,50,40,20,20,5,5,0.6,0.6
2025-04-05T1700,1374A,113.2881,22.8094,佛山市,顺德苏岗,,31,31,28,14,19,53,,52,52,30,24,5,5,0.7,0.6
2025-04-05T1700,1376A,112.8383,22.8678,佛山市,高明孔堂,颗粒物(PM10),66,81,53,45,37,42,,62,51,48,22,5,5,0.7,0.6
2025-04-05T1700,1377A,112.8836,23.1588,佛山市,三水监测站,颗粒物(PM10),56,61,59,38,45,83,,72,72,30,33,2,2,0.7,0.7
2025-04-05T1700,1378A,112.867,23.185,佛山市,三水云东海,细颗粒物(PM2.5),55,56,62,39,56,79,,63,63,29,29,2,2,0.6,0.7
2025-04-05T1700,3625A,113.2544,22.7642,佛山市,容桂街道办,,32,,22,22,21,60,,54,54,29,26,5,6,0.7,0.7
2025-04-05T1700,1280A,119.3903,26.0543,福州市,鼓山,,,,31,,22,,,113,,,2,,2,,0.5
2025-04-05T1700,1282A,119.2681,26.0504,福州市,师大,,32,32,41,21,30,93,,88,88,12,12,3,4,0.4,0.4
2025-04-05T1700,1283A,119.2984,26.1028,福州市,五四北路,,38,38,37,24,26,74,,84,84,27,15,4,4,0.6,0.6
2025-04-05T1700,1284A,119.2648,26.0768,福州市,杨桥西路,,31,31,40,19,28,94,,89,89,16,16,3,4,0.5,0.5
2025-04-05T1700,1285A,119.317,26.0746,福州市,紫阳,,37,37,40,20,28,73,,97,75,34,19,5,5,0.4,0.5
2025-04-05T1700,3048A,119.5799,26.0936,福州市,九龙,,39,31,33,27,25,72,,98,84,21,12,3,4,0.4,0.4
2025-04-05T1700,3526A,119.5189,25.9664,福州市,吴航,,30,28,41,21,26,86,,84,78,21,16,4,4,0.5,0.5
2025-04-05T1700,1755A,123.7977,41.8491,抚顺市,望花区,,48,48,43,15,40,93,,88,88,20,19,9,14,0.5,0.7
2025-04-05T1700,1756A,123.9161,41.8822,抚顺市,顺城区,颗粒物(PM10),54,57,46,26,33,91,,87,87,23,20,9,8,0.8,0.8
2025-04-05T1700,1757A,124.0436,41.8611,抚顺市,东洲区,,43,43,37,27,29,93,,90,90,19,19,7,6,0.7,0.7
2025-04-05T1700,1758A,123.9247,41.8642,抚顺市,新抚区,颗粒物(PM10),52,53,40,29,25,86,,81,81,19,19,7,6,0.9,0.9
2025-04-05T1700,1759A,124.0972,41.8961,抚顺市,大伙房水库,,46,46,30,27,26,97,,94,94,13,13,8,7,0.6,0.5
2025-04-05T1700,1760A,123.7086,41.8391,抚顺市,沈抚新城,,42,42,42,9,29,93,,88,88,17,20,7,11,0.5,0.7
2025-04-05T1700,2376A,116.2127,28.0814,抚州市,桐源党溪,颗粒物(PM10),58,66,56,31,31,139,,114,114,2,5,6,8,0.5,0.5
2025-04-05T1700,2377A,116.3544,27.9831,抚州市,市站,颗粒物(PM10),58,65,60,30,29,127,,102,102,7,13,14,9,0.8,0.8
2025-04-05T1700,2378A,116.3565,27.963,抚州市,血防站,颗粒物(PM10),58,65,60,32,28,136,,106,106,6,10,8,5,1.1,0.7
2025-04-05T1700,2379A,116.3564,28.0007,抚州市,采茶剧团,颗粒物(PM10),59,67,56,30,31,112,,92,92,4,8,3,3,1.7,1.5
2025-04-05T1700,2380A,116.385,27.9647,抚州市,医学分院,颗粒物(PM10),57,64,57,31,27,109,,83,83,5,11,8,6,2.1,1.6
2025-04-05T1700,2207A,121.6094,41.998,阜新市,工业园区,,50,50,39,7,16,95,,87,87,9,18,6,10,0.3,0.5
2025-04-05T1700,2208A,121.6697,42.0279,阜新市,长青街,,34,34,31,7,21,94,,87,87,10,13,4,6,0.4,0.5
2025-04-05T1700,2209A,121.6673,42.0705,阜新市,农业园区,,40,40,32,7,16,92,,82,82,6,9,6,7,0.4,0.5
2025-04-05T1700,2210A,121.6717,42.0224,阜新市,东苑,,49,49,37,8,21,89,,82,82,11,16,5,9,0.4,0.5
2025-04-05T1700,2211A,121.6506,42.0498,阜新市,玉龙新城,,45,45,35,6,20,91,,85,85,7,18,6,8,0.4,0.6
2025-04-05T1700,2301A,115.8277,32.8929,阜阳市,市监测站,颗粒物(PM10),66,82,104,22,59,128,,111,111,12,18,8,10,0.4,0.7
2025-04-05T1700,2303A,115.8554,32.8605,阜阳市,开发区,颗粒物(PM10),83,115,129,17,51,135,,116,116,9,16,7,9,0.4,0.5
2025-04-05T1700,2875A,115.784,32.8892,阜阳市,阜阳职业技术学院,颗粒物(PM10),76,101,114,25,55,129,,113,113,11,18,8,9,0.2,0.4
2025-04-05T1700,3468A,115.7901,32.8613,阜阳市,市规划展馆,颗粒物(PM10),67,83,114,18,59,136,,121,121,8,14,8,10,0.2,0.5
2025-04-05T1700,3469A,115.836,32.9183,阜阳市,枣园社区,颗粒物(PM10),68,86,118,19,61,138,,121,121,9,16,6,9,0.3,0.6
2025-04-05T1700,2669A,102.9099,34.9841,甘南藏族自治州,州政府,颗粒物(PM10),55,60,144,27,43,105,,90,90,2,23,8,9,0.3,0.5
2025-04-05T1700,3380A,102.8914,34.9617,甘南藏族自治州,甘肃民族师范学院,,44,44,111,27,47,105,,88,88,2,29,9,10,0.4,0.5
2025-04-05T1700,2570A,101.9603,30.0475,甘孜藏族自治州,水桥子,,27,,7,10,7,85,,85,80,10,9,3,3,0.2,0.2
2025-04-05T1700,3065A,101.9533,29.9972,甘孜藏族自治州,州环保局,,27,,8,6,6,85,,86,86,12,9,4,4,0.2,0.2
2025-04-05T1700,3414A,115.8347,28.932,赣江新区,桑海产业园,颗粒物(PM10),64,78,89,19,49,130,,114,114,9,28,7,12,0.4,0.6
2025-04-05T1700,2362A,114.9017,25.9149,赣州市,通天岩,颗粒物(PM10),58,65,58,11,13,75,,52,52,14,11,16,13,1.0,1
2025-04-05T1700,2363A,114.9367,25.8664,赣州市,地委,颗粒物(PM10),53,56,59,35,35,62,,39,39,26,22,17,15,1.1,1.1
2025-04-05T1700,2364A,114.9461,25.8481,赣州市,气象台,颗粒物(PM10),60,69,67,34,32,66,,45,45,30,30,12,11,0.6,0.5
2025-04-05T1700,2365A,114.9322,25.8333,赣州市,市图书馆,,,,67,,38,62,,39,,30,31,,6,1.1,1
2025-04-05T1700,2366A,114.8905,25.8471,赣州市,华坚鞋城,颗粒物(PM10),56,62,68,33,38,62,,41,41,34,32,12,12,0.5,0.6
2025-04-05T1700,3109A,115.0093,25.8613,赣州市,赣县区卫计委,颗粒物(PM10),52,53,56,30,35,73,,49,49,17,21,6,6,0.4,0.5
2025-04-05T1700,2683A,106.2319,36.1417,固原市,马园,颗粒物(PM10),91,132,150,20,32,108,,102,102,10,32,5,5,0.2,0.5
2025-04-05T1700,2684A,106.2792,36.0022,固原市,监测站,颗粒物(PM10),88,126,122,31,35,114,,109,109,7,19,5,7,0.2,0.5
2025-04-05T1700,2685A,106.2375,36.0211,固原市,新区,颗粒物(PM10),84,118,126,32,33,112,,110,110,7,36,5,6,0.2,0.5
2025-04-05T1700,3522A,106.2177,35.9959,固原市,原州区十五小,颗粒物(PM10),82,113,138,32,36,114,,108,108,5,13,6,7,0.2,0.3
2025-04-05T1700,2543A,106.6308,30.5278,广安市,小平旧居,,,,,,,,,,,,,,,,
2025-04-05T1700,2544A,106.6303,30.4576,广安市,市委,细颗粒物(PM2.5),63,56,76,45,56,116,,89,89,8,22,5,6,0.4,0.5
2025-04-05T1700,2545A,106.6271,30.4663,广安市,友谊中学,细颗粒物(PM2.5),57,61,73,40,48,115,,91,91,14,23,3,4,0.5,0.7
2025-04-05T1700,2547A,106.6388,30.4551,广安市,广电花园,细颗粒物(PM2.5),63,57,73,45,54,111,,83,83,10,25,8,9,0.5,0.6
2025-04-05T1700,2902A,106.6351,30.4865,广安市,北辰小学,细颗粒物(PM2.5),59,60,71,42,50,120,,89,89,11,22,7,8,0.7,0.8
2025-04-05T1700,2523A,105.8945,32.4535,广元市,黑石坡,颗粒物(PM10),72,93,68,18,31,111,,84,84,7,13,2,3,0.3,0.5
2025-04-05T1700,2524A,105.821,32.4444,广元市,老城,颗粒物(PM10),57,63,72,19,34,118,,84,84,6,42,1,2,0.6,0.8
2025-04-05T1700,2526A,105.8628,32.4287,广元市,监测站,颗粒物(PM10),59,68,51,32,33,124,,89,89,6,17,6,8,0.4,0.6
2025-04-05T1700,3617A,105.8047,32.4166,广元市,经开区,颗粒物(PM10),58,65,78,25,43,106,,83,83,11,39,4,10,0.6,0.9
2025-04-05T1700,1345A,113.2347,23.1423,广州市,广雅中学,,28,28,36,18,22,51,,58,45,29,33,4,3,0.4,0.4
2025-04-05T1700,1346A,113.2612,23.105,广州市,市五中,,,25,36,17,23,57,,66,49,21,23,2,1,,0.9
2025-04-05T1700,1348A,113.3478,23.0916,广州市,广东商学院,,25,21,34,17,22,45,,48,42,23,26,4,4,0.5,0.5
2025-04-05T1700,1349A,113.4332,23.1047,广州市,市八十六中,,21,21,31,11,16,44,,46,34,24,35,3,3,0.7,0.8
2025-04-05T1700,1350A,113.3505,22.9483,广州市,番禺中学,,,22,31,15,25,58,,62,61,35,27,,4,0.6,0.6
2025-04-05T1700,1351A,113.2146,23.3916,广州市,花都师范,,37,37,60,24,37,80,,70,70,20,27,4,4,0.6,0.6
2025-04-05T1700,1352A,113.2597,23.1331,广州市,市监测站,,26,24,35,18,24,48,,56,43,28,31,4,4,0.4,0.6
2025-04-05T1700,1353A,113.5618,23.312,广州市,九龙镇镇龙,,28,25,30,19,21,74,,70,66,13,15,4,5,0.4,0.5
2025-04-05T1700,1354A,113.2765,23.1544,广州市,麓湖,,26,23,31,18,21,50,,46,46,22,25,2,3,0.5,0.6
2025-04-05T1700,1355A,113.443,23.3035,广州市,帽峰山森林公园,,20,13,28,9,12,64,,83,58,8,14,3,4,0.4,0.4
2025-04-05T1700,2846A,113.3221,23.1322,广州市,体育西,,26,22,36,18,26,54,,60,50,16,22,3,4,0.6,0.6
2025-04-05T1700,3298A,113.5717,23.5491,广州市,从化街口,,36,32,44,25,29,76,,91,64,10,15,8,8,0.7,0.7
2025-04-05T1700,3299A,113.3472,23.3692,广州市,白云竹料,,42,41,52,29,31,80,,92,69,18,19,6,7,0.6,0.6
2025-04-05T1700,3300A,113.2981,23.237,广州市,白云嘉禾,,43,40,50,30,32,47,,69,40,37,35,5,4,0.6,0.6
2025-04-05T1700,3301A,113.4256,23.1716,广州市,黄埔科学城,,23,22,39,16,23,56,,68,55,17,22,5,6,0.5,0.5
2025-04-05T1700,3302A,113.3942,23.0483,广州市,番禺大学城,,28,28,58,12,21,67,,59,55,27,31,10,9,0.4,0.4
2025-04-05T1700,3303A,113.4922,22.8168,广州市,南沙黄阁,,30,26,31,21,22,58,,60,60,32,27,4,4,0.8,0.7
2025-04-05T1700,3304A,113.5342,22.7896,广州市,南沙街,,22,22,30,15,19,68,,67,67,23,28,5,4,0.6,0.6
2025-04-05T1700,3443A,113.2902,23.5544,广州市,花都梯面,,36,30,52,25,33,99,,88,88,10,17,5,5,0.6,0.6
2025-04-05T1700,3445A,113.7858,23.7478,广州市,从化良口,,29,25,28,20,20,74,,78,68,6,10,6,6,0.6,0.6
2025-04-05T1700,3446A,113.8051,23.2614,广州市,增城荔城,,33,32,30,23,18,80,,82,75,10,12,7,7,0.4,0.4
2025-04-05T1700,2505A,109.568,23.1478,贵港市,德智高中,,,,,,,,,,,,,,,,
2025-04-05T1700,2506A,109.6047,23.0666,贵港市,江南子站,细颗粒物(PM2.5),128,153,186,97,145,152,,93,93,21,31,16,17,1.0,1.2
2025-04-05T1700,2508A,109.5669,23.1065,贵港市,荷城子站,细颗粒物(PM2.5),138,,165,105,121,125,,84,84,22,29,13,16,0.7,0.8
2025-04-05T1700,3405A,109.5886,23.1172,贵港市,新世纪学校,细颗粒物(PM2.5),145,158,168,111,126,144,,94,94,23,28,16,14,1.2,1.2
2025-04-05T1700,4260A,109.5933,23.0951,贵港市,中山路155-3号,细颗粒物(PM2.5),124,146,158,94,123,143,,91,91,24,30,20,19,1.2,1.1
2025-04-05T1700,1439A,106.6899,26.5998,贵阳市,马鞍山,颗粒物(PM10),51,51,56,22,32,106,,93,78,6,9,5,6,0.4,0.6
2025-04-05T1700,1441A,106.6243,26.6266,贵阳市,鉴湖路,颗粒物(PM10),53,56,68,29,37,105,,94,88,5,8,8,9,0.4,0.5
2025-04-05T1700,1442A,106.7487,26.6343,贵阳市,燕子冲,细颗粒物(PM2.5),52,44,63,36,45,111,,106,90,9,13,3,5,0.3,0.4
2025-04-05T1700,1443A,106.6555,26.4365,贵阳市,碧云窝,颗粒物(PM10),57,63,77,29,37,110,,110,98,12,14,7,9,0.4,0.5
2025-04-05T1700,1445A,106.7109,26.6027,贵阳市,红边门,颗粒物(PM10),53,56,68,29,40,110,,108,90,7,12,5,7,0.4,0.5
2025-04-05T1700,1446A,106.7164,26.5699,贵阳市,新华路,颗粒物(PM10),53,56,68,29,40,107,,109,92,7,11,9,11,0.5,0.4
2025-04-05T1700,1447A,106.674,26.5424,贵阳市,太慈桥,,48,48,66,27,38,110,,107,92,12,16,6,8,0.4,0.5
2025-04-05T1700,1552A,106.805,26.3003,贵阳市,桐木岭,颗粒物(PM10),59,68,78,41,47,118,,121,106,6,9,4,7,0.5,0.6
2025-04-05T1700,4230A,106.6882,26.5695,贵阳市,花果园大街66号,,46,46,59,32,44,100,,103,84,12,15,4,6,0.4,0.5
2025-04-05T1700,4231A,106.6873,26.5169,贵阳市,漓江路57号,颗粒物(PM10),51,51,65,31,40,106,,112,94,11,13,10,12,0.3,0.4
2025-04-05T1700,1862A,110.4144,25.3167,桂林市,电子科大尧山校区,,,,,,,,,,,,,,,,
2025-04-05T1700,1864A,110.3089,25.2708,桂林市,龙隐路小学,颗粒物(PM10),65,80,135,44,109,136,,102,102,9,27,13,50,0.9,1.2
2025-04-05T1700,1865A,110.2869,25.2178,桂林市,八中,细颗粒物(PM2.5),79,89,154,58,115,128,,95,95,14,36,14,38,1.0,1.1
2025-04-05T1700,3531A,110.296,25.1253,桂林市,旅游学院,细颗粒物(PM2.5),67,70,152,48,122,124,,88,88,9,30,14,22,0.6,0.9
2025-04-05T1700,4222A,110.1835,25.2444,桂林市,环湖路276号,细颗粒物(PM2.5),77,90,154,56,119,112,,80,80,20,41,13,36,0.5,0.8
2025-04-05T1700,4301A,110.2803,25.2773,桂林市,信义路13号,颗粒物(PM10),71,92,145,50,108,134,,104,104,14,39,6,36,0.8,1.2
2025-04-05T1700,2674A,100.2561,34.4714,果洛藏族自治州,玛沁县大武镇,颗粒物(PM10),55,59,68,20,22,110,,96,96,1,3,11,13,0.4,0.4
2025-04-05T1700,1129A,126.5422,45.755,哈尔滨市,岭北,,50,,46,35,41,64,,99,82,22,18,19,16,0.9,0.9
2025-04-05T1700,1130A,126.561,45.8167,哈尔滨市,松北商大,,46,,42,32,39,55,,95,74,18,16,7,8,0.7,0.7
2025-04-05T1700,1131A,126.979,45.5419,哈尔滨市,阿城会宁,,25,19,45,17,37,68,,99,81,10,14,8,10,0.6,0.6
2025-04-05T1700,1132A,126.599,45.7222,哈尔滨市,南岗学府路,,44,44,62,17,34,63,,95,76,23,21,6,7,0.7,0.7
2025-04-05T1700,1133A,126.689,45.7733,哈尔滨市,太平宏伟公园,,40,29,46,28,38,51,,97,78,27,17,4,6,0.8,0.8
2025-04-05T1700,1134A,126.635,45.7667,哈尔滨市,道外承德广场,细颗粒物(PM2.5),52,,23,36,43,52,,92,70,30,25,6,8,0.7,0.4
2025-04-05T1700,1135A,126.685,45.7319,哈尔滨市,香坊红旗大街,,45,,49,31,43,58,,91,75,23,22,9,12,0.5,0.6
2025-04-05T1700,1136A,126.6411,45.7258,哈尔滨市,动力和平路,,38,36,51,26,42,52,,89,72,26,19,10,10,0.6,0.6
2025-04-05T1700,1137A,126.593,45.7478,哈尔滨市,道里建国路,,49,36,49,34,44,50,,93,69,30,23,10,13,0.9,0.8
2025-04-05T1700,1138A,126.615,45.61,哈尔滨市,平房东轻厂,,42,42,47,25,37,58,,91,76,16,10,8,9,0.6,0.7
2025-04-05T1700,1139A,126.595,45.9855,哈尔滨市,呼兰师专,,23,,51,16,45,53,,86,70,27,27,6,7,0.6,0.6
2025-04-05T1700,1140A,126.6206,45.6842,哈尔滨市,省农科院,,,,61,28,46,58,,83,69,20,27,9,10,0.7,0.7
2025-04-05T1700,2688A,93.5128,42.8172,哈密市,地区监测站,颗粒物(PM10),250,385,116,97,30,92,,84,84,,33,,7,0.1,0.5
2025-04-05T1700,2689A,93.4961,42.8328,哈密市,哈密师范学校,颗粒物(PM10),182,314,109,74,35,101,,89,89,5,41,5,8,0,0.4
2025-04-05T1700,2671A,100.9048,36.9639,海北藏族自治州,海晏县西海镇,颗粒物(PM10),54,57,103,26,33,111,,107,107,1,6,12,11,0.3,0.5
2025-04-05T1700,3867A,102.0738,36.5056,海东市,平安区公安北苑,颗粒物(PM10),78,105,166,50,66,124,,102,102,4,9,13,15,0.4,0.6
2025-04-05T1700,1409A,110.576,19.9507,海口市,东寨港,,39,29,38,27,28,37,,34,34,7,6,6,6,0.6,0.5
2025-04-05T1700,1410A,110.3232,20.0574,海口市,海南大学,颗粒物(PM10),51,51,46,30,22,93,,93,92,11,10,1,2,0.5,0.4
2025-04-05T1700,1411A,110.283,20.0053,海口市,秀英海南医院,,45,37,36,31,23,97,,94,94,9,8,4,4,0.3,0.3
2025-04-05T1700,1412A,110.338,19.9969,海口市,海南师范大学,,40,40,40,27,21,99,,97,97,6,5,3,3,0.4,0.4
2025-04-05T1700,1413A,110.33,20.0356,海口市,龙华路环保局宿舍,,44,44,41,30,22,96,,94,94,6,5,4,4,0.4,0.4
2025-04-05T1700,3539A,110.5111,19.9736,海口市,桂林洋子站,,50,50,49,27,22,92,,94,94,12,7,4,4,0.4,0.3
2025-04-05T1700,2673A,100.6188,36.2866,海南藏族自治州,共和县恰卜恰镇,,,,94,,43,121,,116,116,,15,15,15,0.5,0.5
2025-04-05T1700,2676A,97.3731,37.3753,海西蒙古族藏族自治州,德令哈市,颗粒物(PM10),60,69,60,20,18,109,,98,98,2,5,10,11,0.5,0.5
2025-04-05T1700,1048A,114.5302,36.6116,邯郸市,东污水处理厂,,44,44,80,3,16,107,,92,92,12,23,2,5,0.3,0.5
2025-04-05T1700,1049A,114.4918,36.5713,邯郸市,矿院,,44,44,70,3,19,88,,76,76,4,17,2,4,0.3,0.4
2025-04-05T1700,1050A,114.484,36.6133,邯郸市,丛台公园,颗粒物(PM10),66,82,83,3,22,105,,93,93,7,20,4,8,0.3,0.5
2025-04-05T1700,3458A,114.7895,36.5593,邯郸市,香泉濮院小区,颗粒物(PM10),61,72,103,6,26,111,,100,100,4,19,4,6,0.1,0.4
2025-04-05T1700,3579A,114.50634,36.77178,邯郸市,永年区实验高中,颗粒物(PM10),53,56,95,16,31,106,,90,90,6,19,5,7,0.8,0.8
2025-04-05T1700,3580A,114.20016,36.44293,邯郸市,峰峰矿区临水派出所,颗粒物(PM10),51,52,105,19,27,112,,100,100,9,16,10,14,0.5,0.7
2025-04-05T1700,2634A,106.9893,33.1842,汉中市,汉川机床厂子校,颗粒物(PM10),81,111,132,45,42,138,,112,112,4,5,10,8,0.5,0.5
2025-04-05T1700,2635A,107.0154,33.0706,汉中市,市监测站,颗粒物(PM10),82,114,118,41,43,133,,109,109,8,27,6,7,0.5,0.7
2025-04-05T1700,2636A,107.0089,33.1138,汉中市,鑫源开发区,颗粒物(PM10),81,112,130,40,43,124,,104,104,14,23,5,8,0.4,0.5
2025-04-05T1700,2637A,107.007,33.0323,汉中市,南郑大河坎水厂,颗粒物(PM10),80,110,102,41,38,132,,105,105,8,23,7,5,0.5,0.6
2025-04-05T1700,1223A,120.2072,30.2111,杭州市,滨江,颗粒物(PM10),68,85,73,40,31,158,,136,136,17,53,8,8,0.2,0.4
2025-04-05T1700,1224A,120.0633,30.2747,杭州市,西溪,颗粒物(PM10),65,80,72,29,39,153,,136,136,16,35,8,7,0.3,0.4
2025-04-05T1700,1226A,120.3417,30.3150,杭州市,下沙,颗粒物(PM10),71,91,86,41,43,149,,128,128,24,60,9,7,0.6,0.6
2025-04-05T1700,1227A,120.1269,30.2456,杭州市,卧龙桥,颗粒物(PM10),64,78,58,41,35,152,,137,137,15,31,8,6,0.4,0.5
2025-04-05T1700,1228A,120.1903,30.2692,杭州市,浙江农大,颗粒物(PM10),63,75,69,34,34,133,,123,123,29,44,5,5,0.4,0.5
2025-04-05T1700,1230A,120.1197,30.3119,杭州市,和睦小学,颗粒物(PM10),62,74,79,30,38,149,,136,136,13,39,8,8,0.6,0.7
2025-04-05T1700,1231A,120.3019,30.4183,杭州市,临平镇,颗粒物(PM10),90,129,81,44,38,172,,143,143,16,41,8,6,0.6,0.6
2025-04-05T1700,1232A,120.2753,30.1839,杭州市,城厢镇,颗粒物(PM10),68,86,84,36,44,155,,135,135,20,54,9,10,0.4,0.6
2025-04-05T1700,1233A,120.0883,30.1808,杭州市,云栖,颗粒物(PM10),61,72,59,29,30,152,,137,137,23,43,11,9,0.6,0.7
2025-04-05T1700,3557A,119.9464,30.0494,杭州市,镇二中,,48,48,67,22,43,135,,120,120,15,44,7,9,0.6,0.9
2025-04-05T1700,3558A,119.7183,30.2367,杭州市,市府大楼,颗粒物(PM10),62,73,82,32,46,151,,134,134,15,31,9,9,0.4,0.6
2025-04-05T1700,3656A,120.1556,30.2864,杭州市,消防大队,颗粒物(PM10),65,79,77,31,42,154,,142,142,18,41,4,4,0.5,0.6
2025-04-05T1700,1270A,117.1959,31.7848,合肥市,明珠广场,颗粒物(PM10),76,102,92,27,45,137,,126,126,13,25,5,6,0.3,0.5
2025-04-05T1700,1271A,117.3072,31.8764,合肥市,三里街,颗粒物(PM10),80,110,101,27,48,134,,120,120,16,28,7,8,0.6,0.8
2025-04-05T1700,1272A,117.2588,31.8707,合肥市,琥珀山庄,颗粒物(PM10),87,124,99,34,49,138,,124,124,22,29,3,4,0.6,0.8
2025-04-05T1700,1273A,117.1604,31.9052,合肥市,董铺水库,颗粒物(PM10),91,132,97,31,43,149,,134,134,2,7,4,4,0.3,0.4
2025-04-05T1700,1274A,117.25,31.8571,合肥市,长江中路,颗粒物(PM10),87,124,99,36,48,142,,127,127,11,23,9,10,0.5,0.7
2025-04-05T1700,1275A,117.266,31.9436,合肥市,庐阳区,颗粒物(PM10),84,117,95,36,43,141,,125,125,10,21,7,7,0.3,0.5
2025-04-05T1700,1276A,117.3453,31.8616,合肥市,瑶海区,颗粒物(PM10),82,114,103,59,51,134,,119,119,9,24,8,8,0.5,0.6
2025-04-05T1700,1277A,117.3027,31.7964,合肥市,包河区,颗粒物(PM10),81,112,92,31,42,140,,126,126,12,32,6,7,0.3,0.5
2025-04-05T1700,1278A,117.2776,31.7385,合肥市,滨湖新区,颗粒物(PM10),84,117,100,31,48,134,,122,122,11,28,6,7,0.4,0.6
2025-04-05T1700,1279A,117.1318,31.8403,合肥市,高新区,颗粒物(PM10),81,112,96,29,43,136,,124,124,11,21,3,4,0.3,0.5
2025-04-05T1700,3464A,117.3803,31.9147,合肥市,高教基地,颗粒物(PM10),84,118,97,30,42,132,,123,123,19,26,6,6,0.3,0.5
2025-04-05T1700,3614A,79.924,37.0877,和田地区,地区环保局,颗粒物(PM10),255,388,406,75,94,96,,72,72,7,16,1,1,0.4,0.3
2025-04-05T1700,3615A,79.9131,37.113,和田地区,市环保局,颗粒物(PM10),193,336,367,60,77,101,,72,72,2,17,3,2,0.0,0.2
2025-04-05T1700,2516A,108.2011,24.715,河池市,东仁乐园,颗粒物(PM10),75,99,69,45,41,130,,109,109,9,15,10,11,0.8,0.9
2025-04-05T1700,2517A,108.0497,24.6947,河池市,市环保站,颗粒物(PM10),68,85,58,40,39,129,,108,108,7,10,7,9,0.5,0.6
2025-04-05T1700,2518A,108.0983,24.6989,河池市,市疾控中心,颗粒物(PM10),56,62,58,39,46,133,,108,108,10,17,9,10,0.7,0.7
2025-04-05T1700,1696A,114.6778,23.7569,河源市,源西,,26,20,26,18,20,62,,74,62,10,12,3,4,0.6,0.6
2025-04-05T1700,1697A,114.6944,23.7586,河源市,东埔,,28,,35,19,22,67,,85,70,13,14,3,4,0.7,0.6
2025-04-05T1700,1698A,114.6892,23.7233,河源市,老城,,33,,26,23,18,69,,85,70,11,12,4,4,0.5,0.5
2025-04-05T1700,1718A,115.4208,35.2464,菏泽市,气象局,,44,44,132,14,63,118,,103,103,8,19,1,6,0.3,0.5
2025-04-05T1700,3374A,115.5564,35.0891,菏泽市,定陶老年大学,,39,39,108,7,48,119,,101,101,13,21,5,6,0.1,0.4
2025-04-05T1700,4184A,115.4797,35.24401,菏泽市,永昌路1号,,36,36,121,8,59,111,,95,95,8,19,6,12,0.2,0.4
2025-04-05T1700,4193A,115.4715,35.2800,菏泽市,长城路999号,,,40,129,6,57,120,,101,101,13,24,,19,0.2,0.5
2025-04-05T1700,2514A,111.5264,24.4172,贺州市,环保小区,细颗粒物(PM2.5),113,101,135,85,108,139,,97,97,13,27,10,12,0.6,0.9
2025-04-05T1700,2515A,111.5608,24.4078,贺州市,政协大楼,细颗粒物(PM2.5),83,82,118,61,90,118,,88,88,12,27,6,12,0.6,0.7
2025-04-05T1700,3534A,111.4744,24.4553,贺州市,西湾,细颗粒物(PM2.5),104,122,143,78,106,129,,88,88,21,31,12,11,0.8,0.9
2025-04-05T1700,2385A,114.17,35.9019,鹤壁市,市监测站,颗粒物(PM10),63,76,112,15,39,111,,94,94,9,22,6,9,0.5,0.8
2025-04-05T1700,2386A,114.2956,35.7511,鹤壁市,市交警支队,颗粒物(PM10),55,59,109,9,45,114,,95,95,13,29,8,11,0.6,0.9
2025-04-05T1700,2387A,114.2878,35.7306,鹤壁市,迎宾馆,颗粒物(PM10),67,84,126,11,36,118,,97,97,8,21,5,6,0.4,0.7
2025-04-05T1700,3474A,114.2617,35.6822,鹤壁市,大新区,颗粒物(PM10),53,55,110,18,37,115,,96,96,9,21,8,9,0.4,0.6
2025-04-05T1700,3596A,114.1572,35.9603,鹤壁市,南山宾馆,颗粒物(PM10),79,108,118,20,40,110,,99,99,9,20,6,10,0.4,0.7
2025-04-05T1700,2244A,130.2537,47.3416,鹤岗市,哈啤分公司,,43,38,35,30,26,96,,91,91,11,11,16,15,0.3,0.4
2025-04-05T1700,2245A,130.2684,47.3086,鹤岗市,斯达机电,,49,44,41,34,29,102,,97,97,12,12,14,16,0.4,0.5
2025-04-05T1700,2246A,130.3114,47.3388,鹤岗市,东山纸板厂,细颗粒物(PM2.5),59,56,75,42,34,91,,85,85,14,20,14,15,0.5,1.1
2025-04-05T1700,2247A,130.1097,47.3382,鹤岗市,五号水库,,,,,,,,,,,,,,,,
2025-04-05T1700,2263A,127.4833,50.2524,黑河市,交通局,,32,32,48,15,25,75,,77,77,8,16,7,8,0.4,0.5
2025-04-05T1700,2264A,127.5144,50.2341,黑河市,环保局,,35,35,42,23,26,78,,81,81,9,11,4,5,0.5,0.5
2025-04-05T1700,2265A,127.5291,50.2472,黑河市,大黑河岛,,25,25,43,12,22,29,,58,56,16,13,3,2,0.4,0.4
2025-04-05T1700,1074A,115.6838,37.7541,衡水市,电机北厂,,37,33,66,6,20,116,,103,103,9,13,2,4,0.2,0.2
2025-04-05T1700,1075A,115.6303,37.7316,衡水市,市监测站,,37,31,66,14,16,116,,103,103,8,13,10,9,0.2,0.3
2025-04-05T1700,3188A,115.6683,37.7217,衡水市,市城管局,,36,36,68,17,22,114,,101,101,12,14,8,7,0.3,0.3
2025-04-05T1700,3459A,115.5989,37.5491,衡水市,地表水厂,,39,39,88,3,30,121,,108,108,11,16,9,11,0.2,0.4
2025-04-05T1700,2456A,112.5003,26.9167,衡阳市,原169医院,细颗粒物(PM2.5),82,81,122,60,95,95,,53,53,9,28,14,14,0.8,1
2025-04-05T1700,2457A,112.6194,26.9258,衡阳市,衡阳化工总厂,细颗粒物(PM2.5),95,103,122,71,90,86,,46,46,17,30,13,12,1.1,1.1
2025-04-05T1700,2458A,112.6211,26.8956,衡阳市,珠晖区环保局,细颗粒物(PM2.5),88,100,118,65,86,94,,56,56,15,36,13,11,1.2,1.3
2025-04-05T1700,2459A,112.6197,26.8733,衡阳市,市委党校,细颗粒物(PM2.5),82,111,121,60,81,87,,46,46,23,34,12,9,1.0,1.1
2025-04-05T1700,2460A,112.6006,26.8919,衡阳市,市监测站,细颗粒物(PM2.5),83,104,128,61,92,93,,50,50,18,37,14,13,0.9,1.2
2025-04-05T1700,2461A,112.5664,26.9056,衡阳市,真空机电公司,细颗粒物(PM2.5),78,92,142,57,98,102,,50,50,14,34,13,11,0.9,1.2
2025-04-05T1700,3399A,112.6703,26.882,衡阳市,师范学院,细颗粒物(PM2.5),102,110,116,76,82,98,,59,59,22,26,18,12,1.0,1
2025-04-05T1700,2608A,103.3772,23.3993,红河哈尼族彝族自治州,污水处理厂,细颗粒物(PM2.5),89,83,83,66,74,84,,99,96,13,11,8,9,0.6,0.6
2025-04-05T1700,2609A,103.3861,23.35,红河哈尼族彝族自治州,监测站,细颗粒物(PM2.5),75,77,93,55,67,84,,112,97,14,11,14,11,0.3,0.4
2025-04-05T1700,3038A,103.3758,23.368,红河哈尼族彝族自治州,州图书馆,细颗粒物(PM2.5),72,70,88,52,63,85,,110,97,14,11,5,6,0.6,0.6
2025-04-05T1700,1090A,111.6507,40.7517,呼和浩特市,呼市一监,颗粒物(PM10),57,63,34,15,13,117,,92,92,6,10,12,11,0.5,0.5
2025-04-05T1700,1091A,111.6572,40.8033,呼和浩特市,小召,颗粒物(PM10),56,61,30,18,11,108,,85,85,15,15,9,7,0.5,0.4
2025-04-05T1700,1094A,111.7516,40.8369,呼和浩特市,如意水处理厂,,50,50,30,18,10,115,,90,90,9,17,10,8,0.4,0.4
2025-04-05T1700,1095A,111.7276,40.8062,呼和浩特市,二十九中,颗粒物(PM10),54,57,28,17,11,114,,88,88,11,13,8,6,0.6,0.5
2025-04-05T1700,1096A,111.5512,40.7866,呼和浩特市,工大金川校区,,49,49,27,17,10,122,,92,92,10,18,10,9,0.5,0.5
2025-04-05T1700,1097A,111.717,40.7612,呼和浩特市,化肥厂生活区,,48,48,35,20,15,119,,92,92,12,16,10,8,0.4,0.4
2025-04-05T1700,3698A,111.5968,40.8178,呼和浩特市,红旗小学,颗粒物(PM10),59,68,28,18,10,119,,89,89,14,17,8,7,0.5,0.4
2025-04-05T1700,3699A,111.6518,40.8389,呼和浩特市,海东办,颗粒物(PM10),62,73,24,19,9,109,,83,83,9,10,9,8,0.6,0.6
2025-04-05T1700,2192A,119.7594,49.2261,呼伦贝尔市,区环保局,,31,25,30,18,20,97,,88,88,9,7,5,5,0.2,0.3
2025-04-05T1700,3061A,119.7512,49.1577,呼伦贝尔市,国华电力东,,32,22,27,15,14,101,,92,92,4,4,4,4,0.3,0.4
2025-04-05T1700,1250A,120.0751,30.8669,湖州市,城西水厂,颗粒物(PM10),60,70,68,37,33,152,,136,136,21,44,8,8,0.5,0.5
2025-04-05T1700,2873A,120.0830,30.8929,湖州市,仁皇山新区,颗粒物(PM10),75,99,68,42,33,160,,147,147,15,28,6,6,0.7,0.6
2025-04-05T1700,2907A,120.1844,30.8596,湖州市,吴兴区站,颗粒物(PM10),81,111,69,47,29,171,,150,150,13,27,8,8,0.6,0.5
2025-04-05T1700,3562A,120.4148,30.8538,湖州市,南浔区站,颗粒物(PM10),76,102,64,50,32,177,,156,156,17,29,5,6,0.5,0.5
2025-04-05T1700,1607A,120.9049,40.7211,葫芦岛市,龙港区,,31,26,45,9,33,99,,90,90,9,30,8,10,0.3,0.5
2025-04-05T1700,1608A,120.8392,40.7514,葫芦岛市,化工街,,32,19,43,3,26,101,,94,94,13,41,13,16,0.4,0.6
2025-04-05T1700,1609A,120.8341,40.7073,葫芦岛市,新区,,35,25,40,6,31,112,,103,103,10,30,8,10,0.4,0.7
2025-04-05T1700,1610A,120.8695,40.7677,葫芦岛市,东城区,,35,19,47,6,33,109,,101,101,14,39,4,13,0.5,0.7
2025-04-05T1700,2482A,109.5981,27.5721,怀化市,林科所,细颗粒物(PM2.5),90,,84,67,57,82,,59,59,33,31,7,8,0.0,0.2
2025-04-05T1700,2483A,109.9453,27.5444,怀化市,河西地税局,,,,104,69,63,82,,56,56,15,21,15,13,0.4,0.4
2025-04-05T1700,2484A,109.9781,27.5342,怀化市,市四医院,细颗粒物(PM2.5),74,96,104,54,66,86,,60,60,13,22,10,12,0.6,0.7
2025-04-05T1700,2485A,109.9972,27.5578,怀化市,监测楼,细颗粒物(PM2.5),69,86,88,50,59,87,,61,61,13,18,7,8,0.6,0.6
2025-04-05T1700,2486A,110.0394,27.583,怀化市,市委党校,细颗粒物(PM2.5),102,78,81,76,59,86,,64,64,15,22,13,11,0.7,1
2025-04-05T1700,1210A,119.036,33.5981,淮安市,钵池山,颗粒物(PM10),79,107,75,36,51,148,,134,134,8,15,12,11,0.6,0.8
2025-04-05T1700,1211A,119.007,33.575,淮安市,北京南路,颗粒物(PM10),82,114,74,36,47,149,,133,133,10,19,10,9,0.5,0.7
2025-04-05T1700,1212A,118.989,33.6067,淮安市,市监测站,颗粒物(PM10),78,105,73,39,47,144,,130,130,14,20,10,10,0.5,0.7
2025-04-05T1700,1213A,119.135,33.5039,淮安市,楚州区监测站,颗粒物(PM10),80,110,79,38,50,137,,123,123,10,17,11,9,0.5,0.6
2025-04-05T1700,3426A,118.8755,33.2894,淮安市,新华书店,颗粒物(PM10),80,110,75,29,48,140,,135,135,9,18,10,9,0.4,0.6
2025-04-05T1700,4206A,119.0288,33.6319,淮安市,承德北路606号,颗粒物(PM10),84,117,85,38,50,141,,128,128,13,20,10,10,0.5,0.7
2025-04-05T1700,2282A,116.8004,33.975,淮北市,监测站,颗粒物(PM10),59,68,126,14,63,120,,110,110,10,20,6,9,0.5,0.8
2025-04-05T1700,2283A,116.8091,33.9007,淮北市,烈山区政府,颗粒物(PM10),61,72,114,19,64,122,,115,115,9,25,4,7,0.6,0.9
2025-04-05T1700,3330A,116.8873,33.9836,淮北市,杜集区检察院,颗粒物(PM10),71,91,124,14,59,122,,110,110,11,23,6,8,0.6,0.9
2025-04-05T1700,4017A,116.7923,33.9535,淮北市,市博物馆,颗粒物(PM10),59,68,121,7,61,118,,108,108,8,20,6,8,0.6,0.9
2025-04-05T1700,2277A,116.8305,32.7727,淮南市,潘集区政府,颗粒物(PM10),99,147,133,33,66,133,,121,121,10,20,4,6,0.3,0.6
2025-04-05T1700,2279A,116.8569,32.5951,淮南市,谢家集区政府,颗粒物(PM10),79,108,114,25,54,133,,122,122,7,16,7,9,0.2,0.5
2025-04-05T1700,2280A,116.8281,32.633,淮南市,八公山区政府,颗粒物(PM10),84,118,122,22,52,131,,120,120,6,11,6,8,0.3,0.4
2025-04-05T1700,2281A,116.6325,32.6201,淮南市,焦岗湖风景区管理处,颗粒物(PM10),68,86,90,28,46,91,,82,82,13,16,7,8,0.5,0.7
2025-04-05T1700,2894A,117.0566,32.6531,淮南市,经济技术开发区消防队,颗粒物(PM10),93,135,110,10,50,143,,131,131,6,14,8,9,0.3,0.5
2025-04-05T1700,3329A,117.0108,32.5893,淮南市,山南新区,颗粒物(PM10),92,134,128,28,60,136,,128,128,6,14,8,10,0.2,0.5
2025-04-05T1700,4209A,117.0031,32.6445,淮南市,国庆中路369号,颗粒物(PM10),85,120,116,44,56,139,,128,128,9,18,10,12,0.4,0.5
2025-04-05T1700,2446A,114.9028,30.4742,黄冈市,职工中心,颗粒物(PM10),60,70,93,35,64,159,,133,133,11,40,8,12,0.6,1
2025-04-05T1700,2929A,114.8858,30.4519,黄冈市,红卫路,,,80,103,25,59,153,,130,130,,26,8,11,0.8,1.1
2025-04-05T1700,3398A,114.9136,30.4445,黄冈市,市林业局,颗粒物(PM10),67,84,102,32,63,162,,137,137,10,43,9,14,0.8,1.1
2025-04-05T1700,2672A,102.0199,35.5102,黄南藏族自治州,同仁县隆务镇,颗粒物(PM10),83,116,150,45,54,108,,100,100,8,5,20,21,0.3,0.2
2025-04-05T1700,2295A,118.2903,29.6963,黄山市,延安路89号,细颗粒物(PM2.5),60,47,51,43,36,138,,130,130,3,10,6,7,0.1,0.4
2025-04-05T1700,2297A,118.1371,30.2756,黄山市,黄山区政府5号楼,颗粒物(PM10),74,98,65,28,28,144,,134,134,5,5,9,10,0.3,0.4
2025-04-05T1700,4210A,118.3354,29.7203,黄山市,滨江东路7-2号,颗粒物(PM10),60,69,60,14,30,137,,130,130,1,10,6,6,0.4,0.5
2025-04-05T1700,2423A,115.0601,30.2313,黄石市,沈家营,颗粒物(PM10),67,84,99,31,56,161,,150,150,8,28,7,12,0.5,0.8
2025-04-05T1700,2426A,114.8988,30.2019,黄石市,铁山,,,84,98,38,57,157,,140,140,10,37,14,15,,0.3
2025-04-05T1700,2427A,115.0307,30.2092,黄石市,团城山,颗粒物(PM10),65,80,101,26,53,150,,134,134,9,32,8,19,0.5,0.9
2025-04-05T1700,3149A,115.0235,30.1578,黄石市,笔架山北路,颗粒物(PM10),56,61,87,27,55,163,,141,141,4,29,8,15,0.5,1
2025-04-05T1700,4185A,115.0780,30.21118,黄石市,磁湖东路29号,颗粒物(PM10),72,93,108,29,61,163,,150,150,7,27,6,13,0.6,0.9
2025-04-05T1700,1392A,114.4183,23.0528,惠州市,河南岸金山湖子站,,30,27,30,21,19,65,,77,68,20,16,8,8,0.5,0.5
2025-04-05T1700,1393A,114.4053,23.0822,惠州市,下埔横江三路子站,,29,28,32,20,17,72,,82,76,14,14,8,8,0.5,0.5
2025-04-05T1700,1394A,114.4103,23.1142,惠州市,江北云山西路子站,,32,29,30,22,18,74,,86,78,16,14,9,9,0.5,0.5
2025-04-05T1700,1395A,114.4645,22.7833,惠州市,惠阳区承修路船湖子站,,32,29,37,22,21,68,,69,66,16,15,8,8,0.6,0.5
2025-04-05T1700,1396A,114.5317,22.7422,惠州市,大亚湾管委会子站,,26,26,38,18,20,81,,75,66,11,14,6,6,0.5,0.5
2025-04-05T1700,3314A,114.4338,22.8134,惠州市,惠阳秋长,,28,27,31,19,19,77,,77,77,8,10,13,12,0.7,0.7
2025-04-05T1700,3452A,114.6517,22.775,惠州市,大亚湾霞涌,,26,20,29,15,17,83,,69,69,10,13,6,6,0.4,0.4
2025-04-05T1700,2240A,130.9762,45.3001,鸡西市,环保局,颗粒物(PM10),52,54,65,33,48,94,,85,85,14,22,7,10,0.6,0.8
2025-04-05T1700,2243A,130.9429,45.3039,鸡西市,第一中学,细颗粒物(PM2.5),54,49,58,38,42,95,,85,85,14,23,7,9,0.6,0.7
2025-04-05T1700,3707A,131.0207,45.3073,鸡西市,欧美日汽修厂,,,42,79,41,48,96,,98,98,,19,7,10,0.7,0.7
2025-04-05T1700,3709A,130.9967,45.3106,鸡西市,市政设施管理处,细颗粒物(PM2.5),57,60,68,40,48,87,,82,82,15,23,8,9,0.8,0.8
2025-04-05T1700,2367A,114.9754,27.0803,吉安市,红声器材厂,细颗粒物(PM2.5),69,56,77,50,47,96,,56,56,24,37,14,14,0.6,0.6
2025-04-05T1700,2368A,114.9658,27.0999,吉安市,市森林工业局,颗粒物(PM10),60,70,71,42,48,100,,62,62,20,39,13,12,0.5,0.6
2025-04-05T1700,2369A,114.99,27.1312,吉安市,市环境监测站,细颗粒物(PM2.5),63,65,62,45,42,106,,67,67,17,29,18,18,0.5,0.5
2025-04-05T1700,2370A,115.0093,27.0968,吉安市,青原区法院,细颗粒物(PM2.5),64,74,73,46,50,116,,73,73,21,38,13,14,0.6,0.6
2025-04-05T1700,1772A,126.54,43.8622,吉林市,哈达湾,,38,37,36,26,25,75,,107,84,19,12,6,7,0.7,0.7
2025-04-05T1700,1773A,126.5844,43.8358,吉林市,东局子,,50,38,38,35,26,68,,113,87,21,10,8,6,0.7,0.7
2025-04-05T1700,1774A,126.5052,43.8245,吉林市,电力学院,,38,36,33,26,24,79,,106,88,17,12,4,5,0.6,0.6
2025-04-05T1700,1775A,126.6133,43.8972,吉林市,江北,细颗粒物(PM2.5),57,55,40,40,26,69,,107,86,24,12,6,5,0.7,0.5
2025-04-05T1700,1776A,126.555,43.8306,吉林市,江南公园,,43,35,34,30,28,136,,108,102,21,10,6,6,0.5,0.4
2025-04-05T1700,1778A,126.7061,43.7133,吉林市,丰满,,35,26,29,19,21,110,,134,112,8,8,5,5,0.9,0.8
2025-04-05T1700,2868A,126.4739,43.953,吉林市,九站,,43,39,35,30,26,74,,108,84,17,11,11,11,0.5,0.5
2025-04-05T1700,1299A,116.9862,36.6114,济南市,科干所,,35,19,86,10,36,110,,96,96,7,24,5,8,0.4,0.6
2025-04-05T1700,1300A,116.9376,36.665,济南市,农科所,,37,37,102,3,37,107,,96,96,9,28,6,8,0.3,0.5
2025-04-05T1700,1301A,117.1265,36.6734,济南市,开发区,,34,27,87,7,36,107,,96,96,14,25,7,9,0.5,0.6
2025-04-05T1700,1303A,117.0624,36.6868,济南市,省种子仓库,,35,29,101,3,41,110,,99,99,7,26,4,6,0.5,0.8
2025-04-05T1700,1304A,116.9489,36.6447,济南市,机床二厂,,37,29,99,7,42,116,,104,104,10,27,7,9,0.3,0.5
2025-04-05T1700,1305A,117.0495,36.663,济南市,市监测站,,32,24,97,10,41,102,,90,90,8,27,7,9,0.3,0.5
2025-04-05T1700,1306A,116.7675,36.5484,济南市,长清党校,,37,,100,24,35,116,,104,104,8,24,3,6,0.5,0.7
2025-04-05T1700,1616A,117.6795,36.229,济南市,技术学院,,35,27,95,3,40,110,,99,99,12,27,10,12,0.3,0.7
2025-04-05T1700,1961A,117.532,36.6868,济南市,东山小学,,35,22,98,7,40,109,,103,103,3,21,5,8,0.2,0.4
2025-04-05T1700,3059A,117.7161,36.2049,济南市,泰兴公司,,36,22,90,9,42,115,,103,103,11,26,7,10,0.3,0.7
2025-04-05T1700,3064A,117.6867,36.2171,济南市,莱芜战役纪念馆,,36,29,94,3,38,115,,102,102,17,29,4,8,0.3,0.7
2025-04-05T1700,3494A,117.1673,36.9782,济南市,济阳区政府,,37,32,101,3,44,117,,107,107,6,24,9,13,0.3,0.6
2025-04-05T1700,3495A,117.1171,36.63,济南市,锦屏中学,,49,,77,34,39,105,,92,92,11,19,8,9,0.2,0.3
2025-04-05T1700,3682A,116.9814,36.6819,济南市,济南四建,,34,27,91,10,41,108,,96,96,7,31,4,6,0.2,0.5
2025-04-05T1700,1653A,116.6251,35.4302,济宁市,火炬城,,,25,90,14,52,84,,77,77,,13,2,5,0.1,0.5
2025-04-05T1700,1655A,116.5491,35.4042,济宁市,电化厂,,41,41,124,12,59,100,,88,88,12,24,2,5,0.0,0.4
2025-04-05T1700,3500A,116.5814,35.3707,济宁市,北湖一中,,35,32,91,3,44,109,,96,96,10,22,6,10,0.2,0.5
2025-04-05T1700,3501A,116.8249,35.5593,济宁市,服务中心,,36,26,112,3,47,113,,99,99,7,24,5,7,0.4,0.8
2025-04-05T1700,3678A,116.5907,35.4054,济宁市,市第七中学,细颗粒物(PM2.5),98,,104,73,50,105,,72,72,8,21,1,5,0.2,0.5
2025-04-05T1700,2255A,130.2751,46.8028,佳木斯市,佳纺,颗粒物(PM10),53,56,72,34,39,72,,84,84,33,29,7,8,0.6,0.7
2025-04-05T1700,2256A,130.3995,46.8307,佳木斯市,发电厂,,43,41,43,30,32,98,,89,89,17,19,10,4,0.4,0.5
2025-04-05T1700,2257A,130.3258,46.7975,佳木斯市,环保局,细颗粒物(PM2.5),52,52,65,36,42,88,,82,82,27,40,4,5,0.6,0.7
2025-04-05T1700,2258A,130.3648,46.8032,佳木斯市,十一中,细颗粒物(PM2.5),52,42,49,36,37,97,,85,85,15,26,7,8,0.5,0.6
2025-04-05T1700,2259A,130.3794,46.7588,佳木斯市,四丰,,40,40,43,26,27,92,,79,79,10,19,1,1,0.9,1.1
2025-04-05T1700,1252A,120.7436,30.778,嘉兴市,清河小学,颗粒物(PM10),74,98,78,35,28,143,,32,,17,44,7,22,0.7,1
2025-04-05T1700,1253A,120.726,30.7478,嘉兴市,嘉兴学院,颗粒物(PM10),68,86,57,37,28,153,,149,149,16,33,10,10,1.0,1.1
2025-04-05T1700,2872A,120.7846,30.7525,嘉兴市,南湖区残联,颗粒物(PM10),66,81,52,15,26,159,,146,146,13,30,9,10,0.8,0.9
2025-04-05T1700,3407A,120.6916,30.7739,嘉兴市,秀洲住建,颗粒物(PM10),73,96,63,48,24,163,,149,149,16,35,8,8,0.6,0.7
2025-04-05T1700,1945A,98.2908,39.7711,嘉峪关市,气象局,颗粒物(PM10),76,102,127,27,29,112,,108,108,2,17,2,7,0.3,0.4
2025-04-05T1700,2884A,98.2672,39.7978,嘉峪关市,酒钢宾馆,颗粒物(PM10),122,193,158,29,32,104,,108,108,10,12,1,6,0.2,0.2
2025-04-05T1700,3248A,98.2643,39.7724,嘉峪关市,雄关区,颗粒物(PM10),66,82,104,20,27,110,,105,105,4,19,5,6,0.4,0.4
2025-04-05T1700,1383A,113.1064,22.6058,江门市,北街,,20,20,25,12,21,61,,53,53,26,20,2,2,0.7,0.7
2025-04-05T1700,1384A,113.0731,22.5835,江门市,西区,,28,28,27,11,23,56,,56,56,34,25,6,6,0.7,0.6
2025-04-05T1700,1385A,113.0219,22.5311,江门市,圭峰西,,22,22,23,14,21,51,,50,50,31,21,4,4,0.6,0.5
2025-04-05T1700,1386A,113.0828,22.5947,江门市,东湖,,17,14,37,10,19,52,,55,55,29,20,10,8,0.6,0.5
2025-04-05T1700,3311A,113.1075,22.5647,江门市,江海富民,,27,27,46,16,28,60,,50,46,33,24,8,7,0.6,0.6
2025-04-05T1700,3449A,113.05,22.4667,江门市,新会银湖,,23,,32,16,26,40,,35,35,39,29,3,2,0.4,0.3
2025-04-05T1700,1830A,113.1992,35.2590,焦作市,影视城,,,,63,,23,,,,,,3,,5,,0.6
2025-04-05T1700,3169A,113.2725,35.2067,焦作市,太极体育中心,颗粒物(PM10),66,82,100,25,20,122,,109,109,11,10,10,8,0.3,0.4
2025-04-05T1700,3335A,113.3137,35.2641,焦作市,马村街道办,颗粒物(PM10),61,71,86,26,21,112,,98,98,12,12,10,10,0.5,0.4
2025-04-05T1700,3336A,113.2465,35.2373,焦作市,焦作技师学院,颗粒物(PM10),58,66,91,7,12,123,,108,108,10,11,8,7,0.4,0.4
2025-04-05T1700,3477A,113.1656,35.2539,焦作市,中站许衡医院,,,56,81,17,23,126,,111,111,,12,,8,0.6,0.6
2025-04-05T1700,3981A,113.2449,35.1803,焦作市,原李万街道办,颗粒物(PM10),51,51,98,17,28,123,,108,108,12,14,12,12,0.5,0.6
2025-04-05T1700,4264A,113.2340,35.2190,焦作市,新安路1731号,颗粒物(PM10),60,70,94,7,21,120,,105,105,7,10,8,7,0.4,0.4
2025-04-05T1700,1708A,116.3701,23.5345,揭阳市,新兴,,39,31,32,27,34,78,,86,68,22,19,6,6,0.8,0.7
2025-04-05T1700,1709A,116.3264,23.5443,揭阳市,西马,,44,44,34,27,33,59,,83,66,28,15,7,8,0.7,0.6
2025-04-05T1700,1710A,116.3611,23.5626,揭阳市,东兴,,,31,33,26,26,70,,80,70,24,15,,6,0.8,0.8
2025-04-05T1700,1711A,116.4151,23.5294,揭阳市,渔湖,,40,40,32,21,22,56,,90,62,37,22,5,6,0.9,0.7
2025-04-05T1700,3320A,116.403,23.5699,揭阳市,曲溪,,29,24,30,20,24,81,,89,68,25,22,2,2,0.6,0.6
2025-04-05T1700,1944A,102.1692,38.5167,金昌市,天庆家园,颗粒物(PM10),82,113,69,31,31,114,,113,113,4,17,8,19,0.6,0.8
2025-04-05T1700,4022A,102.1647,38.5371,金昌市,金川区人防中心,颗粒物(PM10),99,147,87,52,47,108,,109,109,5,14,15,21,0.4,0.6
2025-04-05T1700,4239A,102.1930,38.5319,金昌市,长春路96号,颗粒物(PM10),95,139,93,29,31,106,,105,105,3,14,22,42,0.7,0.8
2025-04-05T1700,1262A,119.647,29.077,金华市,十五中,颗粒物(PM10),54,58,89,17,47,140,,130,130,16,44,8,9,0.4,0.8
2025-04-05T1700,1263A,119.686,29.1029,金华市,监测站,颗粒物(PM10),57,64,84,28,44,141,,130,130,16,39,7,8,0.3,0.6
2025-04-05T1700,3659A,119.656,29.1131,金华市,气象局,颗粒物(PM10),59,68,94,23,44,140,,129,129,11,42,7,9,0.4,0.7
2025-04-05T1700,1767A,121.1115,41.0879,锦州市,南山,,46,46,45,14,37,90,,87,87,20,22,8,8,0.5,0.7
2025-04-05T1700,1768A,121.0604,40.8428,锦州市,开发区,颗粒物(PM10),53,56,56,7,41,89,,93,93,26,35,9,16,0.4,0.7
2025-04-05T1700,1769A,121.1836,41.1119,锦州市,百股街道,,31,31,46,12,28,96,,90,90,17,28,7,7,0.4,0.6
2025-04-05T1700,1770A,121.1178,41.1222,锦州市,天安街道,颗粒物(PM10),60,70,44,9,32,93,,93,93,23,22,10,11,0.5,0.6
2025-04-05T1700,1771A,121.1303,41.1386,锦州市,北湖公园,颗粒物(PM10),61,71,44,15,30,83,,87,87,24,20,8,9,0.6,0.6
2025-04-05T1700,2160A,112.85,35.5051,晋城市,自来水公司,,35,27,74,3,10,110,,104,104,10,12,5,7,0.3,0.4
2025-04-05T1700,2161A,112.8318,35.4936,晋城市,白云商贸,,35,22,71,3,6,110,,104,104,11,15,3,6,0.4,0.4
2025-04-05T1700,2162A,112.8508,35.4887,晋城市,市环保局,,34,28,74,3,11,108,,103,103,7,12,2,4,0.2,0.3
2025-04-05T1700,2163A,112.8676,35.4897,晋城市,技术学院,,33,20,77,3,11,104,,96,96,10,15,4,7,0.4,0.6
2025-04-05T1700,2165A,112.8453,35.546,晋城市,白马寺,,35,31,63,12,19,112,,105,105,4,6,3,5,0.3,0.4
2025-04-05T1700,3620A,112.8271,35.4828,晋城市,泽州一中,,34,25,68,3,8,107,,102,102,7,9,5,4,0.4,0.4
2025-04-05T1700,2173A,112.7249,37.7067,晋中市,南都小区,,36,33,81,3,11,113,,99,99,7,13,6,6,0.3,0.3
2025-04-05T1700,2174A,112.6991,37.6982,晋中市,榆次区政府,,37,31,90,11,12,118,,104,104,8,15,6,6,0.2,0.2
2025-04-05T1700,2865A,112.7195,37.6828,晋中市,榆次三中,,36,31,100,3,11,114,,100,100,6,13,5,6,0.2,0.3
2025-04-05T1700,4200A,112.7478,37.6954,晋中市,迎宾街26号,,36,36,98,3,10,115,,101,101,6,10,6,5,0.3,0.2
2025-04-05T1700,2439A,112.2014,31.0481,荆门市,竹园小学,颗粒物(PM10),86,122,106,24,50,134,,123,123,12,23,5,6,0.2,0.6
2025-04-05T1700,2440A,112.1969,30.9891,荆门市,掇刀,颗粒物(PM10),78,106,102,33,49,135,,122,122,4,25,8,9,0.2,0.5
2025-04-05T1700,2441A,112.2213,31.0386,荆门市,石化一小,颗粒物(PM10),87,124,116,19,54,132,,122,122,10,33,5,10,0.0,0.6
2025-04-05T1700,3012A,112.1849,31.0362,荆门市,西山林语,颗粒物(PM10),85,119,88,26,44,137,,123,123,5,15,7,7,0.1,0.3
2025-04-05T1700,3547A,112.1632,31.0138,荆门市,龙泉中学南校,,,128,102,33,48,129,,116,116,14,23,,8,,0.6
2025-04-05T1700,1844A,112.2494,30.3197,荆州市,市图书馆,细颗粒物(PM2.5),64,66,76,46,51,142,,115,115,14,37,5,9,0.4,0.6
2025-04-05T1700,1845A,112.2008,30.3544,荆州市,市委党校,颗粒物(PM10),70,90,82,46,56,139,,127,127,16,27,7,9,0.6,0.7
2025-04-05T1700,3194A,112.2747,30.3122,荆州市,管委会,颗粒物(PM10),70,89,84,42,53,144,,118,118,10,31,8,11,0.5,0.7
2025-04-05T1700,4268A,112.1722,30.3366,荆州市,学苑路85号,细颗粒物(PM2.5),67,74,79,48,61,154,,128,128,17,28,11,11,0.5,0.7
2025-04-05T1700,2342A,117.3102,29.3867,景德镇市,王港中学,,,,,,,,,,,,,,,,
2025-04-05T1700,2343A,117.2117,29.2933,景德镇市,老干部活动中心,,44,33,69,23,44,140,,126,126,8,24,10,15,0.3,0.6
2025-04-05T1700,2344A,117.1894,29.2789,景德镇市,兽医站,颗粒物(PM10),60,70,80,28,40,140,,120,120,14,26,8,20,0.7,0.8
2025-04-05T1700,2345A,117.1547,29.2617,景德镇市,台达陶瓷,颗粒物(PM10),64,78,79,35,39,140,,118,118,3,27,11,32,0.6,0.6
2025-04-05T1700,2346A,117.2461,29.2956,景德镇市,陶研所,颗粒物(PM10),52,53,59,30,43,135,,121,121,8,21,9,10,0.4,0.6
2025-04-05T1700,1803A,115.9872,29.6815,九江市,十里,颗粒物(PM10),64,78,83,34,53,167,,146,146,11,30,6,9,0.6,0.9
2025-04-05T1700,1804A,115.9584,29.7046,九江市,茅山头,颗粒物(PM10),61,72,90,36,49,153,,135,135,16,32,9,11,0.5,0.6
2025-04-05T1700,1805A,115.9877,29.7295,九江市,西园,颗粒物(PM10),62,73,85,28,52,145,,134,134,31,39,16,17,0.7,1
2025-04-05T1700,1808A,115.9114,29.6038,九江市,综合工业园,颗粒物(PM10),62,73,79,33,46,155,,141,141,21,39,11,15,0.6,0.9
2025-04-05T1700,1809A,116.0721,29.7535,九江市,石化总厂,颗粒物(PM10),62,74,81,24,72,154,,140,140,22,32,21,25,0.7,1
2025-04-05T1700,1810A,115.9773,29.5698,九江市,庐山气象台,颗粒物(PM10),62,74,58,37,32,142,,125,125,14,12,7,7,0.7,0.8
2025-04-05T1700,3190A,116.0254,29.6994,九江市,外国语学校,颗粒物(PM10),71,92,86,38,56,155,,132,132,16,33,11,17,0.9,1.2
2025-04-05T1700,4253A,116.0102,29.6594,九江市,莲花大道8号,颗粒物(PM10),71,91,81,39,48,157,,140,140,6,13,8,10,0.6,0.8
2025-04-05T1700,4240A,98.4958,39.7339,酒泉市,玉门东路5号,颗粒物(PM10),172,293,164,35,37,105,,101,101,1,11,7,11,0.2,0.3
2025-04-05T1700,4241A,98.5099,39.7506,酒泉市,北大街108号,颗粒物(PM10),312,429,176,39,32,94,,89,89,6,13,10,18,0.4,0.4
2025-04-05T1700,2698A,76.0072,39.4467,喀什地区,巡警大队,颗粒物(PM10),298,418,545,97,134,110,,66,66,10,45,4,6,0.4,1
2025-04-05T1700,2699A,75.9755,39.4694,喀什地区,吾办,颗粒物(PM10),263,394,490,120,154,111,,69,69,10,37,5,6,0.4,0.8
2025-04-05T1700,4027A,75.9483,39.4689,喀什地区,老干局,颗粒物(PM10),298,418,503,97,121,117,,74,74,9,30,3,3,0,0.3
2025-04-05T1700,1824A,114.3389,34.7781,开封市,肿瘤医院,颗粒物(PM10),75,99,106,13,33,125,,109,109,9,17,9,10,0.5,0.6
2025-04-05T1700,1826A,114.2885,34.7965,开封市,世纪星幼儿园,颗粒物(PM10),68,85,99,18,28,125,,108,108,16,22,9,10,0.4,0.6
2025-04-05T1700,3147A,114.3438,34.8106,开封市,龙亭公园,颗粒物(PM10),92,134,133,35,41,118,,104,104,13,22,6,7,0.4,0.5
2025-04-05T1700,3210A,114.3644,34.7964,开封市,汴京公园,颗粒物(PM10),86,122,141,16,39,130,,113,113,14,22,6,6,0.1,0.4
2025-04-05T1700,3473A,114.2485,34.8306,开封市,技师学院,颗粒物(PM10),70,90,94,17,29,116,,99,99,17,28,2,4,0.6,0.7
2025-04-05T1700,3592A,114.4644,34.7556,开封市,祥符区生态环境局,颗粒物(PM10),71,92,132,39,44,118,,98,98,12,22,7,11,0.4,0.6
2025-04-05T1700,1951A,84.895,45.6094,克拉玛依市,长征新村,,33,33,35,8,12,105,,92,92,5,17,7,8,0.2,0.3
2025-04-05T1700,1952A,84.8988,45.5893,克拉玛依市,南林小区,,34,32,29,18,15,108,,91,91,2,12,2,3,0.1,0.6
2025-04-05T1700,1954A,84.905,44.3396,克拉玛依市,独山子区,颗粒物(PM10),51,52,63,27,29,129,,122,122,5,15,7,10,0.3,0.4
2025-04-05T1700,1955A,85.6979,46.098,克拉玛依市,乌尔禾区商贸楼,颗粒物(PM10),59,68,42,11,14,84,,80,80,1,12,6,6,0.2,0.3
2025-04-05T1700,3612A,85.1045,45.6899,克拉玛依市,白碱滩区新站,颗粒物(PM10),52,54,44,13,11,100,,82,82,2,12,9,10,0.2,0.3
2025-04-05T1700,2697A,76.1454,39.7142,克孜勒苏柯尔克孜自治州,市人民政府,颗粒物(PM10),325,440,464,136,135,119,,89,89,1,12,6,8,0.4,0.4
2025-04-05T1700,3665A,76.1658,39.7157,克孜勒苏柯尔克孜自治州,克州文化中心,颗粒物(PM10),329,443,458,122,126,117,,88,88,2,14,6,10,0.4,0.4
2025-04-05T1700,1450A,102.8204,24.8886,昆明市,呈贡新区,细颗粒物(PM2.5),82,88,86,60,73,159,,139,139,13,14,8,8,0.7,0.7
2025-04-05T1700,1451A,102.6251,24.9608,昆明市,西山森林公园,,,,,,,,,,,,,,,,
2025-04-05T1700,1452A,102.7252,25.0902,昆明市,龙泉镇,细颗粒物(PM2.5),68,80,86,49,59,140,,116,116,12,26,8,9,0.7,0.8
2025-04-05T1700,1453A,102.7266,25.0375,昆明市,东风东路,细颗粒物(PM2.5),78,87,93,57,70,148,,125,125,18,21,10,10,0.7,0.7
2025-04-05T1700,1454A,102.6742,25.0669,昆明市,金鼎山,颗粒物(PM10),66,82,88,44,65,138,,120,120,20,22,5,6,0.7,0.8
2025-04-05T1700,1455A,102.6644,25.0401,昆明市,碧鸡广场,细颗粒物(PM2.5),63,63,91,45,66,149,,124,124,17,24,8,8,0.7,0.8
2025-04-05T1700,3179A,102.7494,25.0119,昆明市,官渡区博物馆,细颗粒物(PM2.5),74,91,95,54,61,150,,124,124,17,22,9,9,0.5,0.6
2025-04-05T1700,3375A,102.8017,24.8336,昆明市,青年创业园,细颗粒物(PM2.5),78,77,92,57,66,148,,130,130,11,15,12,12,0.7,0.8
2025-04-05T1700,3550A,102.7997,24.9786,昆明市,昆明学院,细颗粒物(PM2.5),78,86,105,57,72,149,,124,124,17,18,6,7,0.7,0.8
2025-04-05T1700,3551A,102.5967,24.6736,昆明市,晋宁区生态环境分局,细颗粒物(PM2.5),77,68,77,56,62,158,,134,134,6,10,9,10,0.8,0.9
2025-04-05T1700,3552A,102.6678,24.9856,昆明市,云天化总部,细颗粒物(PM2.5),60,66,94,43,63,151,,126,126,13,18,9,9,0.6,0.6
2025-04-05T1700,1456A,91.1319,29.6514,拉萨市,八廓街,,48,31,29,14,16,153,,145,145,7,7,5,5,0.5,0.5
2025-04-05T1700,1457A,91.1221,29.6747,拉萨市,市环保局,,45,21,32,10,17,143,,140,136,13,11,3,3,0.2,0.3
2025-04-05T1700,1458A,91.0874,29.6475,拉萨市,区监测站,,46,16,28,10,16,145,,140,132,13,9,6,6,0.5,0.5
2025-04-05T1700,1459A,91.1774,29.6541,拉萨市,西藏大学,,45,19,28,16,16,144,,138,137,10,8,5,5,0.3,0.2
2025-04-05T1700,1460A,90.9798,29.6588,拉萨市,区辐射站,,43,22,35,12,18,137,,140,134,19,12,7,7,0.4,0.4
2025-04-05T1700,1461A,91.0834,29.6292,拉萨市,拉萨火车站,,45,13,25,10,15,143,,140,136,7,5,3,3,0.6,0.7
2025-04-05T1700,2520A,109.2203,23.7256,来宾市,来宾技工学校,"颗粒物(PM10),细颗粒物(PM2.5)",72,94,100,52,70,164,,123,123,10,17,12,16,0.7,1
2025-04-05T1700,3535A,109.1781,23.7297,来宾市,兴宾区政府,细颗粒物(PM2.5),78,90,100,57,67,155,,115,115,8,13,14,14,0.9,1
2025-04-05T1700,4002A,109.2416,23.7461,来宾市,中南小学,细颗粒物(PM2.5),74,89,104,54,64,158,,119,119,10,17,13,15,0.9,1
2025-04-05T1700,1477A,104.1373,35.9454,兰州市,榆中兰大校区,,,,,,,,,,,,,,,,
2025-04-05T1700,1479A,103.831,36.0464,兰州市,铁路设计院,颗粒物(PM10),61,72,120,24,35,124,,83,83,13,49,9,15,0.5,0.9
2025-04-05T1700,3241A,103.7439,36.0842,兰州市,百合公园,颗粒物(PM10),70,90,115,24,30,118,,92,92,9,31,10,8,0.4,0.5
2025-04-05T1700,3242A,103.9611,35.998,兰州市,和平,,,,148,,51,,,81,,,22,,15,,0.5
2025-04-05T1700,4236A,103.6293,36.0938,兰州市,庄浪东路808号,颗粒物(PM10),79,107,130,45,46,125,,124,124,16,36,15,15,0.4,0.4
2025-04-05T1700,4237A,103.7251,36.1043,兰州市,安宁西路88号,颗粒物(PM10),78,105,138,43,46,131,,108,108,7,27,12,11,0.3,0.4
2025-04-05T1700,4238A,103.8470,36.0676,兰州市,北滨河东路1号,颗粒物(PM10),67,84,117,30,41,130,,94,94,11,44,12,16,0.4,0.8
2025-04-05T1700,3245A,103.6633,36.533,兰州新区,新区管委会,颗粒物(PM10),69,88,87,25,34,128,,111,111,6,16,25,15,0.2,0.2
2025-04-05T1700,3246A,103.6975,36.4789,兰州新区,舟曲中学,颗粒物(PM10),74,97,112,45,45,125,,108,108,8,21,30,9,0.4,0.3
2025-04-05T1700,1067A,116.6708,39.5111,廊坊市,药材公司,,29,28,42,3,10,92,,89,89,8,9,2,1,0.3,0.3
2025-04-05T1700,1068A,116.7214,39.5589,廊坊市,开发区,,34,34,43,3,12,94,,92,92,8,5,2,1,0.2,0.2
2025-04-05T1700,1070A,116.7244,39.5269,廊坊市,北华航天学院,,39,39,46,11,5,89,,87,87,8,6,4,3,0.2,0.2
2025-04-05T1700,2919A,116.7022,39.5453,廊坊市,河北工业大学,,30,17,33,10,12,94,,92,92,7,8,5,4,0.2,0.2
2025-04-05T1700,2535A,103.7723,29.5462,乐山市,花湖湾,,24,24,38,16,26,26,,72,32,29,18,4,5,0.4,0.4
2025-04-05T1700,2536A,103.7627,29.5844,乐山市,牛耳桥,,24,24,42,14,24,39,,71,42,37,26,8,7,0.4,0.4
2025-04-05T1700,2537A,103.7508,29.6006,乐山市,市第三水厂,,23,23,36,15,23,49,,75,46,21,19,4,4,0.5,0.5
2025-04-05T1700,2538A,103.7571,29.5664,乐山市,市监测站,,22,22,36,13,23,43,,74,43,24,16,5,5,0.5,0.4
2025-04-05T1700,3361A,103.7311,29.5628,乐山市,理工大学,,22,21,34,15,21,31,,73,40,33,19,4,4,0.6,0.6
2025-04-05T1700,2598A,100.2143,26.8576,丽江市,西南郊,,39,24,42,19,29,123,,127,126,5,5,5,5,0.8,0.7
2025-04-05T1700,2599A,100.2497,26.8802,丽江市,丽江古城,,37,31,42,24,29,116,,119,119,10,11,8,8,0.6,0.6
2025-04-05T1700,2600A,100.2203,26.8906,丽江市,市中心,,35,34,34,20,27,112,,114,114,15,14,9,9,1.0,1
2025-04-05T1700,1267A,119.914,28.4514,丽水市,监测站大楼,颗粒物(PM10),57,63,47,25,28,132,,121,121,11,16,4,3,0.4,0.4
2025-04-05T1700,1268A,119.93,28.4586,丽水市,莲都小学,颗粒物(PM10),59,67,52,24,24,134,,122,122,10,18,4,4,0.3,0.4
2025-04-05T1700,1269A,119.879,28.4231,丽水市,余庄前,,50,50,45,26,26,140,,126,126,7,13,4,3,0.5,0.4
2025-04-05T1700,1173A,119.176,34.5885,连云港市,市环境监测站,,46,46,82,14,50,126,,112,112,8,22,11,11,0.6,0.6
2025-04-05T1700,3000A,119.3581,34.6972,连云港市,德源药业,,48,48,71,12,43,105,,98,98,17,23,9,9,0.4,0.6
2025-04-05T1700,3007A,119.178,34.844,连云港市,新城一中,,46,46,85,7,45,113,,102,102,8,25,8,9,0.5,0.7
2025-04-05T1700,3008A,119.3608,34.7519,连云港市,胡沟管理处,,35,22,57,9,35,111,,102,102,12,20,8,8,0.3,0.5
2025-04-05T1700,3009A,119.1478,34.5911,连云港市,矿山设计院,,46,46,85,12,48,120,,108,108,15,25,9,10,0.4,0.6
2025-04-05T1700,3434A,119.2413,34.6539,连云港市,工贸学校,,42,42,76,10,47,119,,108,108,13,20,9,10,0.4,0.7
2025-04-05T1700,3664A,119.4172,34.7341,连云港市,连云街道,颗粒物(PM10),52,53,104,15,41,70,,89,89,56,28,10,8,0.5,0.6
2025-04-05T1700,2571A,102.3431,27.8099,凉山彝族自治州,青龙寺,,36,18,23,3,6,114,,91,91,4,4,6,6,0.7,0.7
2025-04-05T1700,2572A,102.2721,27.8415,凉山彝族自治州,邛海宾馆,,32,15,27,7,12,101,,90,90,9,7,7,7,0.4,0.4
2025-04-05T1700,2573A,102.2625,27.898,凉山彝族自治州,西昌市政府,,30,15,26,9,14,96,,89,89,9,6,10,7,0.6,0.4
2025-04-05T1700,2574A,102.2685,27.8851,凉山彝族自治州,凉山州政府,,32,16,22,7,12,101,,91,91,10,8,6,5,0.7,0.7
2025-04-05T1700,4229A,102.2342,27.8859,凉山彝族自治州,凯乐南路30号,,28,18,28,9,10,88,,81,78,9,10,7,7,0.6,0.6
2025-04-05T1700,2212A,123.2,41.1953,辽阳市,宏伟区,,34,34,28,11,28,92,,93,85,13,11,16,10,1.1,1.1
2025-04-05T1700,2213A,123.1683,41.2495,辽阳市,新华园,,35,35,33,6,30,103,,96,92,13,17,12,9,0.4,0.6
2025-04-05T1700,2214A,123.2354,41.2639,辽阳市,滨河路,,36,36,27,13,31,96,,90,83,9,13,8,8,0.5,0.7
2025-04-05T1700,2215A,123.149,41.2991,辽阳市,铁西工业园,,32,24,38,14,35,100,,93,93,9,14,9,10,0.4,0.7
2025-04-05T1700,2227A,125.1358,42.8845,辽源市,环保局,,37,37,37,18,16,86,,91,88,13,13,4,4,0.5,0.5
2025-04-05T1700,3239A,125.0764,42.9078,辽源市,银鹰制药,,31,31,28,19,20,94,,96,93,13,13,5,5,0.5,0.4
2025-04-05T1700,1625A,115.9848,36.4372,聊城市,区政府,,,,,,,,,,,,,,,,
2025-04-05T1700,2878A,116.0072,36.4343,聊城市,聊大东校,,34,29,72,13,22,108,,96,96,11,16,6,8,0.4,0.5
2025-04-05T1700,3200A,115.9819,36.4978,聊城市,监控中心,,35,25,103,3,46,109,,96,96,8,26,10,13,0.4,0.7
2025-04-05T1700,3513A,116.0445,36.4361,聊城市,九州社区,,36,29,102,3,32,115,,101,101,2,15,4,6,0.4,0.5
2025-04-05T1700,4018A,116.0567,36.4608,聊城市,星美广场,,35,33,102,3,34,112,,98,98,5,18,6,10,0.4,0.5
2025-04-05T1700,2632A,94.3681,29.6376,林芝市,林芝监测站,,41,,9,13,10,130,,144,128,6,6,5,5,0.4,0.5
2025-04-05T1700,2633A,94.3616,29.6616,林芝市,林芝人民医院,,39,18,14,10,8,124,,134,119,3,3,8,8,0.5,0.6
2025-04-05T1700,2603A,100.0781,23.8982,临沧市,市环保局,细颗粒物(PM2.5),97,130,92,72,61,140,,106,106,21,19,13,11,1.0,0.8
2025-04-05T1700,2604A,100.0894,23.8822,临沧市,市气象局,细颗粒物(PM2.5),109,111,82,82,65,151,,94,94,17,26,11,9,0.7,0.7
2025-04-05T1700,1733A,111.5531,36.0783,临汾市,临钢医院,,42,42,83,7,8,118,,93,93,7,15,7,4,0.4,0.4
2025-04-05T1700,1734A,111.5028,36.0714,临汾市,技工学校,,50,50,74,9,16,126,,94,94,6,11,11,6,0.6,0.4
2025-04-05T1700,1736A,111.5018,36.0855,临汾市,市委,颗粒物(PM10),58,65,83,8,9,127,,96,96,8,13,9,5,0.5,0.3
2025-04-05T1700,3018A,111.505,36.1014,临汾市,唐尧大酒店,颗粒物(PM10),61,71,90,11,11,120,,93,93,8,10,10,6,0.5,0.4
2025-04-05T1700,4244A,111.4879,36.0530,临汾市,启星学校,颗粒物(PM10),60,69,83,21,16,124,,94,94,6,9,9,3,0.6,0.5
2025-04-05T1700,4271A,103.2464,35.6123,临夏回族自治州,滨河东路1号,颗粒物(PM10),111,172,214,50,72,120,,98,98,6,21,8,7,0.4,0.5
2025-04-05T1700,4310A,103.2093,35.5995,临夏回族自治州,新华街21号,颗粒物(PM10),104,157,203,48,72,112,,93,93,9,22,13,12,0.3,0.6
2025-04-05T1700,1618A,118.3429,35.0532,临沂市,沂河小区,,41,41,83,10,39,110,,101,101,6,18,7,9,0.4,0.6
2025-04-05T1700,1619A,118.295,35.0583,临沂市,鲁南制药厂,,,36,78,14,37,117,,111,111,,30,8,11,0.4,0.6
2025-04-05T1700,1620A,118.2794,34.9976,临沂市,新光毛纺厂,,36,29,72,12,38,115,,105,105,14,34,4,8,0.5,0.8
2025-04-05T1700,1621A,118.3956,35.0888,临沂市,河东保险公司,,38,31,69,11,37,119,,107,107,12,28,3,5,0.2,0.4
2025-04-05T1700,3370A,118.3564,35.0215,临沂市,十里堡居委,,37,36,72,9,35,116,,106,106,10,23,3,5,0.4,0.7
2025-04-05T1700,3496A,118.3604,35.1084,临沂市,南坊新区,,39,39,74,7,34,115,,105,105,9,22,5,7,0.5,0.7
2025-04-05T1700,3860A,118.3920,35.0300,临沂市,皇山花园小区,,44,44,70,10,34,117,,107,107,6,18,6,9,0.2,0.5
2025-04-05T1700,1870A,109.4856,24.3895,柳州市,柳东小学,细颗粒物(PM2.5),88,90,85,65,65,118,,95,95,13,19,14,23,0.7,0.7
2025-04-05T1700,1871A,109.4157,24.3277,柳州市,环保监测站,细颗粒物(PM2.5),88,93,96,65,68,128,,100,100,11,20,18,23,0.8,0.8
2025-04-05T1700,1872A,109.389,24.341,柳州市,河西水厂,细颗粒物(PM2.5),75,88,101,55,61,128,,101,101,14,24,19,30,0.8,0.8
2025-04-05T1700,1873A,109.4311,24.2921,柳州市,市四中,细颗粒物(PM2.5),70,85,88,51,61,120,,94,94,10,19,12,19,0.9,1
2025-04-05T1700,1874A,109.4006,24.3631,柳州市,市九中,细颗粒物(PM2.5),75,88,96,55,61,131,,103,103,8,18,14,24,0.7,1
2025-04-05T1700,1875A,109.4958,24.3134,柳州市,古亭山,"颗粒物(PM10),细颗粒物(PM2.5)",78,105,87,57,58,135,,112,112,8,16,11,19,0.8,0.8
2025-04-05T1700,3402A,109.5422,24.3996,柳州市,市二中,颗粒物(PM10),66,82,85,47,45,138,,106,106,10,18,13,22,0.6,0.7
2025-04-05T1700,2307A,116.5079,31.737,六安市,监测大楼,颗粒物(PM10),83,116,86,39,43,146,,126,126,8,14,8,8,0.6,0.8
2025-04-05T1700,2308A,116.4738,31.7643,六安市,皖西学院,颗粒物(PM10),88,126,100,37,47,149,,130,130,10,16,7,7,0.5,0.6
2025-04-05T1700,2309A,116.4996,31.7905,六安市,朝阳厂,颗粒物(PM10),82,114,87,37,46,144,,124,124,14,20,7,6,0.6,0.7
2025-04-05T1700,2310A,116.5567,31.7886,六安市,开发区,颗粒物(PM10),95,140,107,44,44,149,,131,131,14,22,6,7,0.5,0.7
2025-04-05T1700,2576A,104.8,26.5892,六盘水市,窑上,,29,29,56,15,29,76,,92,88,13,10,4,5,0.7,0.7
2025-04-05T1700,2577A,104.83,26.5917,六盘水市,黄土坡,,39,39,46,24,30,76,,98,84,22,15,9,10,0.7,0.7
2025-04-05T1700,2578A,104.89,26.5939,六盘水市,水钢,,44,44,53,19,34,94,,90,90,11,19,8,9,0.4,0.5
2025-04-05T1700,2579A,104.8475,26.5894,六盘水市,民中,,35,33,44,24,28,85,,95,82,17,16,8,9,0.6,0.6
2025-04-05T1700,2580A,104.9544,26.5506,六盘水市,双水,,44,44,53,23,35,93,,89,85,15,15,9,9,0.4,0.5
2025-04-05T1700,2335A,117.0189,25.1181,龙岩市,龙岩师专,,,,,,,,,,,,,,,,
2025-04-05T1700,2336A,117.0217,25.1033,龙岩市,龙岩市监测站,,49,36,37,34,29,66,,90,72,22,20,11,8,0.5,0.4
2025-04-05T1700,2337A,117.0258,25.0661,龙岩市,闽西职业技术学院,,45,33,40,31,29,56,,91,68,20,17,8,8,0.5,0.5
2025-04-05T1700,2338A,117.0196,25.0306,龙岩市,龙岩学院,,49,34,36,34,30,64,,97,74,18,13,1,2,0.5,0.4
2025-04-05T1700,2665A,105.0822,33.3261,陇南市,汉王镇固水子,,,,,,,,,,,,,,,,
2025-04-05T1700,2885A,104.9339,33.3826,陇南市,滨江中学,颗粒物(PM10),78,106,145,34,44,94,,76,76,3,15,6,9,0.5,0.6
2025-04-05T1700,3247A,104.955,33.371,陇南市,市总工会,颗粒物(PM10),75,99,136,35,48,101,,82,82,3,10,8,8,0.5,0.6
2025-04-05T1700,2487A,111.9589,27.8901,娄底市,电视发射台,颗粒物(PM10),72,93,79,30,40,118,,95,95,6,10,8,12,0.6,0.9
2025-04-05T1700,2488A,111.9975,27.725,娄底市,市监测站,细颗粒物(PM2.5),108,119,112,81,80,100,,73,73,30,38,29,23,1.4,1.2
2025-04-05T1700,2489A,112.0194,27.7314,娄底市,市委党校,细颗粒物(PM2.5),102,120,112,76,79,100,,79,79,,32,14,8,1.4,1
2025-04-05T1700,2490A,111.9561,27.7569,娄底市,涟钢,细颗粒物(PM2.5),90,90,112,67,76,95,,75,75,38,26,26,9,1.7,1.1
2025-04-05T1700,2491A,111.9892,27.7044,娄底市,市政府,细颗粒物(PM2.5),113,123,110,85,79,109,,73,73,20,25,16,9,1.3,1.1
2025-04-05T1700,1893A,105.4324,28.9634,泸州市,九狮山,,,,,,,,,,,,,,,,
2025-04-05T1700,1894A,105.4427,28.9063,泸州市,小市上码头,颗粒物(PM10),59,68,83,28,41,68,,61,61,23,22,7,7,0.7,0.7
2025-04-05T1700,1895A,105.4241,28.8573,泸州市,兰田宪桥,,49,45,58,34,48,57,,49,49,13,17,6,6,0.6,0.6
2025-04-05T1700,1896A,105.4379,28.8833,泸州市,市环监站,,,,,,,,,,,,,,,,
2025-04-05T1700,4272A,105.3689,28.7783,泸州市,纳溪中医医院,颗粒物(PM10),51,51,64,27,45,65,,40,40,11,25,5,6,0.6,0.8
2025-04-05T1700,2183A,111.1406,37.5211,吕梁市,环保局,,32,31,87,22,23,100,,86,86,15,18,3,3,0.2,0.2
2025-04-05T1700,2185A,111.1297,37.5136,吕梁市,自来水公司,,34,27,101,18,15,108,,90,90,7,17,2,4,0.2,0.3
2025-04-05T1700,2867A,111.1283,37.51,吕梁市,马茂庄小学,,40,40,93,8,15,112,,90,90,5,21,3,3,0.2,0.3
2025-04-05T1700,1812A,112.3931,34.6516,洛阳市,市委党校,,46,46,97,10,31,111,,94,94,8,34,3,8,0.4,0.7
2025-04-05T1700,1815A,112.494,34.6886,洛阳市,河南林校,颗粒物(PM10),51,51,119,12,32,118,,98,98,9,29,4,5,0.5,0.6
2025-04-05T1700,1816A,112.3844,34.623,洛阳市,开发区管委会,,36,30,89,12,28,113,,96,96,8,20,6,10,0.2,0.3
2025-04-05T1700,1817A,112.4267,34.6258,洛阳市,市委新办公区,,39,36,92,9,30,122,,102,102,6,23,4,6,0,0.1
2025-04-05T1700,3340A,112.6005,34.6326,洛阳市,伊滨,,48,48,80,11,30,118,,101,101,7,21,6,6,0.2,0.4
2025-04-05T1700,3341A,112.4951,34.6332,洛阳市,中移产业园,颗粒物(PM10),58,65,132,12,32,113,,95,95,7,26,6,8,0.2,0.3
2025-04-05T1700,3593A,112.5736,34.8993,洛阳市,吉利监测站,颗粒物(PM10),55,59,82,3,19,116,,101,101,10,18,8,7,0.4,0.4
2025-04-05T1700,3635A,112.3677,34.662,洛阳市,河科大西苑校区,,46,46,102,15,29,116,,97,97,8,35,6,13,0.3,0.5
2025-04-05T1700,3636A,112.4388,34.6781,洛阳市,英才小学,,36,36,93,10,32,115,,97,97,7,35,7,10,0.3,0.5
2025-04-05T1700,4214A,112.4600,34.6949,洛阳市,春都路1号院,颗粒物(PM10),51,51,116,15,29,123,,104,104,6,31,5,8,0.4,0.6
2025-04-05T1700,2399A,114.051,33.5699,漯河市,三五一五工厂,颗粒物(PM10),77,103,113,16,45,122,,108,108,8,15,6,7,0.3,0.4
2025-04-05T1700,2400A,114.0055,33.5698,漯河市,漯河大学,颗粒物(PM10),74,98,110,22,44,124,,111,111,6,17,6,7,0.3,0.5
2025-04-05T1700,2401A,114.0138,33.5828,漯河市,市水利局,颗粒物(PM10),75,100,115,27,44,124,,109,109,9,17,5,6,0.3,0.4
2025-04-05T1700,2402A,114.0261,33.5698,漯河市,市广电局,颗粒物(PM10),73,95,115,18,43,121,,106,106,7,16,6,7,0.4,0.5
2025-04-05T1700,3478A,113.9749,33.5664,漯河市,市图书馆,颗粒物(PM10),73,95,109,19,47,127,,112,112,10,16,5,7,0.4,0.5
2025-04-05T1700,4250A,114.0892,33.5882,漯河市,韶山路11号,颗粒物(PM10),69,88,110,17,41,130,,112,112,9,16,4,7,0.3,0.4
2025-04-05T1700,1798A,118.5092,31.6837,马鞍山市,湖东路四小,颗粒物(PM10),72,94,101,29,51,148,,132,132,11,33,8,12,0.6,1
2025-04-05T1700,1799A,118.5024,31.6449,马鞍山市,开发区,颗粒物(PM10),73,96,99,28,55,140,,130,130,21,35,5,8,0.5,0.8
2025-04-05T1700,1802A,118.6245,31.7241,马鞍山市,濮塘,颗粒物(PM10),78,105,102,26,51,160,,142,142,6,20,10,13,0.4,0.7
2025-04-05T1700,3633A,118.4918,31.6809,马鞍山市,雨山,颗粒物(PM10),73,95,100,26,48,145,,131,131,10,30,10,12,0.7,0.9
2025-04-05T1700,4191A,118.5274,31.72227,马鞍山市,慈湖高新区,颗粒物(PM10),73,95,105,32,57,145,,129,129,19,40,9,13,0.7,1.1
2025-04-05T1700,1686A,111.0286,21.4688,茂名市,电白南海,细颗粒物(PM2.5),67,51,55,48,32,33,,58,50,29,16,2,3,1.2,1
2025-04-05T1700,1687A,110.9294,21.6533,茂名市,茂石化七小,细颗粒物(PM2.5),70,75,59,51,33,49,,60,50,16,12,6,10,1.0,0.9
2025-04-05T1700,1688A,110.9107,21.6687,茂名市,健康路,,,80,57,48,32,55,,64,58,,13,9,14,0.8,0.8
2025-04-05T1700,1689A,110.8592,21.6828,茂名市,高岭,颗粒物(PM10),60,70,64,36,32,76,,61,61,10,12,6,17,0.8,0.7
2025-04-05T1700,3450A,111.01,21.5165,茂名市,电白水东,,42,36,46,29,24,38,,59,53,31,17,2,5,0.8,0.7
2025-04-05T1700,2539A,104.0308,30.0478,眉山市,黑龙滩水库,,24,,32,10,20,74,,64,64,1,4,2,2,0.2,0.3
2025-04-05T1700,2540A,103.8416,30.0874,眉山市,气象局,,28,28,49,12,25,78,,76,70,15,19,1,2,0.5,0.5
2025-04-05T1700,3137A,103.8578,30.0744,眉山市,市委党校,,,,70,,31,,,122,,,29,,6,,0.6
2025-04-05T1700,3148A,103.8291,30.0564,眉山市,区人社局,,23,22,44,7,24,72,,70,65,22,25,3,4,0.5,0.6
2025-04-05T1700,1690A,116.1231,24.3284,梅州市,梅江月梅,,46,,32,32,28,54,,92,69,20,11,4,4,0.5,0.5
2025-04-05T1700,1691A,116.0797,24.2719,梅州市,梅县新城,,29,29,35,20,29,66,,98,76,12,13,5,5,0.4,0.5
2025-04-05T1700,1692A,116.1248,24.2654,梅州市,环境监控中心,,43,,31,30,29,61,,103,77,26,15,6,6,0.6,0.6
2025-04-05T1700,3315A,116.1233,24.2991,梅州市,梅龙,,45,31,30,31,24,55,,91,72,19,10,6,6,0.6,0.5
2025-04-05T1700,1878A,104.7778,31.4741,绵阳市,富乐山,,48,48,60,22,33,110,,96,96,11,29,2,3,0.4,0.6
2025-04-05T1700,1880A,104.6697,31.4668,绵阳市,高新区自来水公司,颗粒物(PM10),52,54,83,24,35,109,,98,98,10,44,2,3,0.3,0.6
2025-04-05T1700,1881A,104.7287,31.5075,绵阳市,三水厂,颗粒物(PM10),57,64,90,24,41,106,,92,92,12,44,5,6,0.4,0.8
2025-04-05T1700,3491A,104.69,31.5322,绵阳市,西科大附属小学,颗粒物(PM10),53,56,78,21,37,106,,93,93,11,39,6,7,0.4,0.6
2025-04-05T1700,3492A,104.5648,31.5343,绵阳市,安州区旅游局,,50,50,73,19,31,101,,90,90,12,31,7,6,0.8,1
2025-04-05T1700,4226A,104.7651,31.4531,绵阳市,绵阳市气象局,颗粒物(PM10),56,61,72,28,35,99,,91,91,16,43,4,6,0.2,0.5
2025-04-05T1700,1784A,129.61,44.561,牡丹江市,环保大楼,,36,,66,25,49,88,,82,82,22,31,6,8,0.4,0.6
2025-04-05T1700,1785A,129.6115,44.5782,牡丹江市,文化广场,,40,30,81,28,61,91,,85,85,22,33,10,16,0.6,0.7
2025-04-05T1700,1786A,129.5904,44.5963,牡丹江市,第一医院,,31,27,66,17,53,99,,91,91,10,23,11,13,0.4,0.5
2025-04-05T1700,1787A,129.6364,44.6075,牡丹江市,机车工厂,,36,29,67,25,44,94,,84,84,17,30,12,54,0.5,0.6
2025-04-05T1700,1788A,129.6386,44.5462,牡丹江市,第一中学,,44,44,64,21,41,89,,89,89,16,33,8,9,0.6,0.6
2025-04-05T1700,2531A,105.0703,29.61,内江市,市监测站,细颗粒物(PM2.5),55,49,60,39,43,71,,73,73,22,31,3,4,0.6,0.7
2025-04-05T1700,2532A,105.0717,29.5947,内江市,东兴区政府,,48,40,52,33,36,71,,73,73,16,27,3,2,0.7,0.8
2025-04-05T1700,2533A,105.0653,29.5817,内江市,内江二中,细颗粒物(PM2.5),57,54,65,40,44,76,,74,74,18,30,6,6,0.5,0.6
2025-04-05T1700,2534A,105.0406,29.5822,内江市,内江日报社,细颗粒物(PM2.5),55,51,60,39,44,76,,76,76,14,26,5,5,0.5,0.6
2025-04-05T1700,2628A,92.0657,31.4846,那曲市,那曲监测站,,37,21,28,9,16,116,,103,103,5,12,4,6,0.4,0.6
2025-04-05T1700,4243A,92.0515,31.4787,那曲市,那曲市委宣传部,,48,48,29,15,14,123,,111,111,4,8,4,4,0.2,0.3
2025-04-05T1700,1290A,115.8931,28.6843,南昌市,省外办,细颗粒物(PM2.5),64,66,79,46,56,130,,118,118,17,30,8,15,0.5,0.6
2025-04-05T1700,1291A,115.8886,28.7003,南昌市,省林业公司,颗粒物(PM10),70,90,79,27,47,125,,110,110,9,22,9,17,0.3,0.5
2025-04-05T1700,1292A,115.8126,28.7442,南昌市,林科所,颗粒物(PM10),56,61,60,19,38,143,,126,126,13,41,6,11,0.4,0.5
2025-04-05T1700,1294A,115.8518,28.687,南昌市,建工学校,颗粒物(PM10),62,74,90,22,56,140,,118,118,11,33,5,14,0.4,0.7
2025-04-05T1700,1295A,115.8921,28.6424,南昌市,象湖,颗粒物(PM10),58,66,79,24,48,159,,136,136,10,25,8,18,0.4,0.6
2025-04-05T1700,1296A,115.7423,28.7996,南昌市,武术学校,颗粒物(PM10),60,69,44,16,24,122,,126,126,3,5,8,8,0.6,0.6
2025-04-05T1700,3046A,115.9084,28.6062,南昌市,机电学校,颗粒物(PM10),68,85,92,24,53,142,,123,123,15,27,4,13,0.5,0.7
2025-04-05T1700,3690A,115.9721,28.7031,南昌市,外国语学校,颗粒物(PM10),65,79,82,22,50,150,,132,132,10,24,6,15,0.0,0.1
2025-04-05T1700,4192A,115.9316,28.68677,南昌市,南京东路235号,颗粒物(PM10),63,75,87,19,48,146,,131,131,18,35,11,19,0.3,0.6
2025-04-05T1700,1905A,106.056,30.8064,南充市,西山风景区,,37,35,54,24,41,118,,84,84,8,13,4,6,0.6,0.8
2025-04-05T1700,1906A,106.0789,30.8023,南充市,南充市委,,43,43,70,26,48,113,,82,82,14,23,4,5,0.6,0.7
2025-04-05T1700,1907A,106.1031,30.8217,南充市,南充炼油厂,颗粒物(PM10),58,66,74,34,48,112,,81,81,12,20,4,6,0.5,0.6
2025-04-05T1700,1909A,106.0642,30.7636,南充市,嘉陵区环保局,,,,,,,,,,,,,,,,
2025-04-05T1700,4227A,106.1083,30.7884,南充市,梨树横街98号,,45,45,72,21,42,116,,82,82,11,19,6,7,0.0,0.2
2025-04-05T1700,4304A,106.1172,30.843,南充市,清泉寺北路188号,细颗粒物(PM2.5),53,52,80,37,44,114,,82,82,16,21,8,8,0.4,0.5
2025-04-05T1700,1151A,118.8086,32.1065,南京市,迈皋桥,颗粒物(PM10),57,64,89,27,50,140,,131,131,4,44,4,4,0.1,0.7
2025-04-05T1700,1152A,118.7538,32.0551,南京市,草场门,颗粒物(PM10),70,90,96,19,51,135,,126,126,13,37,5,6,0.5,0.8
2025-04-05T1700,1153A,118.7794,32.0745,南京市,山西路,颗粒物(PM10),75,100,109,14,52,140,,129,129,14,28,4,6,0.1,0.4
2025-04-05T1700,1154A,118.7752,32.0023,南京市,中华门,颗粒物(PM10),62,73,94,12,50,122,,115,115,9,28,8,10,0.3,0.5
2025-04-05T1700,1155A,118.8109,32.0309,南京市,瑞金路,颗粒物(PM10),67,83,104,22,51,129,,119,119,5,20,6,7,0.4,0.4
2025-04-05T1700,1156A,118.7997,32.0754,南京市,玄武湖,颗粒物(PM10),66,81,92,16,50,116,,105,105,10,22,6,8,0.4,0.6
2025-04-05T1700,1157A,118.6414,32.0931,南京市,浦口,颗粒物(PM10),82,113,106,18,46,144,,133,133,12,26,7,8,0.2,0.4
2025-04-05T1700,1158A,118.7356,31.9996,南京市,奥体中心,颗粒物(PM10),66,82,100,17,56,130,,121,121,11,36,7,9,0.3,0.5
2025-04-05T1700,1159A,118.9125,32.1028,南京市,仙林大学城,颗粒物(PM10),67,83,99,19,56,132,,124,124,8,29,9,11,0.7,1
2025-04-05T1700,3422A,118.8436,31.9198,南京市,江宁彩虹桥,颗粒物(PM10),69,87,103,22,50,142,,133,133,2,21,4,4,0.4,0.6
2025-04-05T1700,3427A,118.8554,32.3578,南京市,六合雄州,颗粒物(PM10),52,53,81,32,50,129,,120,120,4,17,5,7,0.3,0.6
2025-04-05T1700,4249A,118.8708,31.3402,南京市,汶溪路181号,颗粒物(PM10),72,93,87,31,49,147,,140,140,9,30,5,6,0.5,0.9
2025-04-05T1700,4312A,119.019,31.6512,南京市,中山西路1号,颗粒物(PM10),57,63,81,24,45,144,,136,136,13,25,4,7,0.4,0.7
2025-04-05T1700,1401A,108.3103,22.7881,南宁市,二十一中,细颗粒物(PM2.5),95,103,55,71,39,128,,92,92,18,21,6,7,1.1,0.9
2025-04-05T1700,1402A,108.3141,22.8528,南宁市,北湖,细颗粒物(PM2.5),102,94,60,76,42,132,,92,92,15,19,8,11,0.8,0.6
2025-04-05T1700,1403A,108.3206,22.8225,南宁市,市监测站,细颗粒物(PM2.5),84,115,60,62,35,116,,84,84,18,20,8,10,0.8,0.5
2025-04-05T1700,1404A,108.3829,22.8037,南宁市,大自然花园,细颗粒物(PM2.5),108,123,66,81,39,127,,98,98,19,15,8,8,1.1,0.9
2025-04-05T1700,1405A,108.4394,22.7904,南宁市,仙葫,细颗粒物(PM2.5),124,112,66,94,52,115,,82,82,16,23,4,4,0.9,0.7
2025-04-05T1700,1406A,108.2397,22.8467,南宁市,区农职院,细颗粒物(PM2.5),89,97,52,66,35,118,,83,83,12,14,4,5,0.9,0.7
2025-04-05T1700,1407A,108.3275,22.735,南宁市,英华嘉园,细颗粒物(PM2.5),108,118,57,81,38,127,,91,91,18,20,8,8,0.8,0.6
2025-04-05T1700,3401A,108.4834,22.7618,南宁市,红星社区,细颗粒物(PM2.5),109,105,67,82,47,140,,110,110,14,17,9,11,0.9,0.8
2025-04-05T1700,4221A,108.2177,22.7774,南宁市,乐贤路16号,细颗粒物(PM2.5),83,98,56,61,32,118,,85,85,15,20,14,16,0.8,0.9
2025-04-05T1700,2331A,118.0966,26.6761,南平市,茫荡山,,,,,,,,,,,,,,,,
2025-04-05T1700,2332A,118.1681,26.6369,南平市,南平市监测站,,49,47,45,34,32,92,,89,89,14,16,5,5,0.8,0.7
2025-04-05T1700,2333A,118.1825,26.6489,南平市,南平铝业有限公司,,48,48,41,25,30,95,,90,90,10,12,4,5,0.8,0.7
2025-04-05T1700,2334A,118.1756,26.6272,南平市,南平七中,,43,43,39,28,29,91,,86,86,10,13,7,6,0.9,0.7
2025-04-05T1700,1168A,120.9098,31.9663,南通市,狼山街道,颗粒物(PM10),62,73,66,34,34,134,,131,131,22,46,6,8,0.6,0.8
2025-04-05T1700,1169A,120.86,32.0005,南通市,虹桥,颗粒物(PM10),56,62,69,23,41,137,,127,127,15,47,6,9,0.5,0.7
2025-04-05T1700,1170A,120.87,32.02,南通市,城中,,,81,73,,35,144,,140,140,14,45,6,8,0.7,0.8
2025-04-05T1700,1171A,120.94,31.93,南通市,星湖花园,颗粒物(PM10),57,64,67,31,40,120,,118,118,33,53,6,9,0.2,0.4
2025-04-05T1700,1172A,120.81,32.0417,南通市,紫琅学院,颗粒物(PM10),60,69,66,24,39,139,,130,130,11,46,4,6,0.3,0.5
2025-04-05T1700,3291A,121.067,32.062,南通市,通州监测站,颗粒物(PM10),59,68,63,41,38,141,,133,133,15,30,4,6,0.7,0.7
2025-04-05T1700,3432A,120.9348,31.9883,南通市,环境教育馆,颗粒物(PM10),57,63,62,36,37,148,,140,140,10,39,6,8,0.4,0.5
2025-04-05T1700,2404A,112.5224,33.0122,南阳市,瓦房庄,,,,,,,,,,,,,,,,
2025-04-05T1700,2405A,112.5003,32.9735,南阳市,汉画馆,颗粒物(PM10),72,93,96,24,52,125,,88,88,13,32,6,6,0.4,0.7
2025-04-05T1700,2406A,112.5573,33.027,南阳市,气象站,颗粒物(PM10),80,109,113,17,45,124,,102,102,15,25,6,8,0.4,0.6
2025-04-05T1700,2407A,112.5481,32.9689,南阳市,理工学院,颗粒物(PM10),71,91,100,19,46,130,,104,104,12,27,4,5,0.4,0.6
2025-04-05T1700,4008A,112.5234,32.9922,南阳市,卧龙区政府,颗粒物(PM10),75,99,106,23,53,130,,98,98,5,24,5,6,0.4,0.7
2025-04-05T1700,1234A,121.8358,29.911,宁波市,区环保大楼,颗粒物(PM10),67,83,51,40,21,137,,134,134,53,32,12,9,0.6,0.6
2025-04-05T1700,1235A,121.56,29.82,宁波市,万里学院,颗粒物(PM10),57,63,40,31,20,160,,143,143,11,12,11,11,0.5,0.6
2025-04-05T1700,1236A,121.713,29.9572,宁波市,龙赛医院,颗粒物(PM10),69,87,50,35,21,173,,142,142,24,23,9,8,0.6,0.5
2025-04-05T1700,1239A,121.633,29.7733,宁波市,钱湖水厂,颗粒物(PM10),60,69,37,34,19,164,,144,144,20,15,9,8,0.6,0.6
2025-04-05T1700,1240A,121.5856,29.8635,宁波市,太古小学,颗粒物(PM10),56,62,42,25,19,157,,138,138,12,15,9,9,0.4,0.4
2025-04-05T1700,1241A,121.524,29.8674,宁波市,市环境监测中心,颗粒物(PM10),57,63,40,30,20,152,,136,136,23,28,9,9,0.3,0.4
2025-04-05T1700,2871A,121.6147,29.9017,宁波市,万里国际学校,颗粒物(PM10),52,54,36,34,20,148,,135,135,35,17,9,8,0.7,0.6
2025-04-05T1700,3710A,121.5594,29.8975,宁波市,白沙活动中心,,50,50,39,29,20,150,,133,133,11,18,7,7,0.4,0.4
2025-04-05T1700,2339A,119.5001,26.6946,宁德市,金涵水库,,,,,,,,,,,,,,,,
2025-04-05T1700,2341A,119.5388,26.6612,宁德市,宁德市监测站,,46,46,37,26,29,80,,91,91,28,15,4,4,0.6,0.6
2025-04-05T1700,3209A,119.5231,26.6562,宁德市,宁德一中,,50,50,35,33,29,85,,92,92,28,11,5,6,0.4,0.3
2025-04-05T1700,2618A,98.8601,25.8567,怒江傈僳族自治州,州监测站,,,,61,66,46,114,,112,112,4,8,7,8,,0.5
2025-04-05T1700,2619A,98.8546,25.8417,怒江傈僳族自治州,泸水一中,颗粒物(PM10),62,73,54,32,41,110,,104,104,9,13,6,8,0.5,0.6
2025-04-05T1700,1888A,101.6891,26.571,攀枝花市,弄弄坪,,48,48,57,29,26,119,,90,90,20,24,9,21,0.7,1.5
2025-04-05T1700,1889A,101.5769,26.5928,攀枝花市,河门口,颗粒物(PM10),53,55,50,31,28,130,,101,101,14,15,19,14,1.5,0.9
2025-04-05T1700,1890A,101.7169,26.585,攀枝花市,炳草岗,,49,49,50,29,23,128,,88,88,20,25,14,14,0.8,0.8
2025-04-05T1700,1891A,101.7369,26.5008,攀枝花市,仁和,颗粒物(PM10),54,57,49,32,29,129,,101,101,14,19,10,9,0.6,0.7
2025-04-05T1700,2835A,101.7227,26.567,攀枝花市,四十中小,颗粒物(PM10),52,54,50,27,28,132,,99,99,14,15,7,9,0.8,0.8
2025-04-05T1700,1604A,122.0303,41.1489,盘锦市,开发区,,44,44,39,8,40,104,,97,97,12,25,8,9,0.4,0.7
2025-04-05T1700,1605A,122.0485,41.0883,盘锦市,兴隆台,,42,42,44,9,43,99,,90,90,12,32,9,8,0.5,0.8
2025-04-05T1700,1606A,121.8297,41.1028,盘锦市,新生街道,,34,22,33,6,36,106,,94,94,11,32,9,10,0.7,0.9
2025-04-05T1700,1832A,113.3257,33.742,平顶山市,新华旅馆,颗粒物(PM10),62,73,110,8,35,118,,106,106,11,22,5,6,0.4,0.5
2025-04-05T1700,1833A,113.2919,33.737,平顶山市,规划设计院,颗粒物(PM10),63,75,107,15,36,119,,107,107,7,22,5,7,0.2,0.4
2025-04-05T1700,1834A,113.182,33.774,平顶山市,平顶山工学院,颗粒物(PM10),61,71,93,14,28,121,,105,105,8,13,6,7,0.4,0.5
2025-04-05T1700,3204A,113.3025,33.73,平顶山市,规划局,颗粒物(PM10),71,92,115,17,44,122,,109,109,9,17,5,7,0.5,0.7
2025-04-05T1700,3594A,112.8867,33.9116,平顶山市,石龙区,细颗粒物(PM2.5),67,76,139,48,28,122,,109,109,7,21,6,7,0.3,0.3
2025-04-05T1700,2656A,106.6692,35.5461,平凉市,聚贤嘉苑,颗粒物(PM10),87,124,125,33,30,127,,100,100,8,22,22,20,0.4,0.5
2025-04-05T1700,2657A,106.7021,35.5307,平凉市,博物馆,颗粒物(PM10),95,140,126,31,30,124,,98,98,9,20,10,10,0.5,0.6
2025-04-05T1700,2347A,114.0997,27.5002,萍乡市,武功山,"颗粒物(PM10),细颗粒物(PM2.5)",53,56,43,37,30,119,,103,103,10,10,13,10,1.2,1
2025-04-05T1700,2348A,113.8385,27.6434,萍乡市,中医院,颗粒物(PM10),69,87,88,31,54,127,,107,107,18,23,19,21,1.2,1.2
2025-04-05T1700,2349A,113.8493,27.6253,萍乡市,市政府车库,颗粒物(PM10),60,69,80,33,57,123,,110,110,19,28,14,17,0.8,1
2025-04-05T1700,2350A,113.8676,27.6435,萍乡市,市环保局,细颗粒物(PM2.5),72,68,81,52,55,128,,106,106,17,26,13,19,0.9,1
2025-04-05T1700,2351A,113.866,27.6198,萍乡市,安源区政府,颗粒物(PM10),63,75,89,43,58,128,,106,106,18,29,20,19,0.6,0.9
2025-04-05T1700,2319A,119.0141,25.4325,莆田市,荔城区仓后路,,46,36,43,32,26,67,,114,70,17,11,3,2,0.6,0.5
2025-04-05T1700,2320A,119.0015,25.4553,莆田市,莆田市监测站,,46,43,36,32,22,60,,117,71,18,9,4,4,0.4,0.4
2025-04-05T1700,2321A,119.1119,25.4561,莆田市,涵江区六中,细颗粒物(PM2.5),69,55,43,50,30,58,,112,66,48,20,3,2,0.7,0.6
2025-04-05T1700,2322A,119.1013,25.3215,莆田市,秀屿区政府,细颗粒物(PM2.5),59,48,42,42,31,73,,118,82,31,17,5,4,0.6,0.6
2025-04-05T1700,2323A,118.981,25.4792,莆田市,东圳水库,,,,,,,,,,,,,,,,
2025-04-05T1700,2392A,115.0312,35.7636,濮阳市,环保局,颗粒物(PM10),62,73,95,8,36,113,,100,100,12,18,6,8,0.3,0.5
2025-04-05T1700,2394A,115.0574,35.7609,濮阳市,油田运输公司,,39,38,93,10,38,123,,109,109,11,18,4,6,0.3,0.6
2025-04-05T1700,3021A,115,35.7668,濮阳市,濮水河管理处,,41,41,96,26,45,118,,104,104,13,25,5,6,0.5,0.7
2025-04-05T1700,4216A,115.0924,35.7686,濮阳市,任丘路479号,,40,39,101,18,42,127,,111,111,8,20,5,7,0.3,0.7
2025-04-05T1700,2601A,100.98,22.7633,普洱市,市环保局,细颗粒物(PM2.5),105,144,158,79,80,170,,125,125,11,17,8,7,0.8,1.1
2025-04-05T1700,2602A,100.9817,22.8322,普洱市,普洱第二中学,颗粒物(PM10),74,97,119,46,79,154,,119,119,11,29,9,7,0.7,1
2025-04-05T1700,2262A,131.0518,45.8751,七台河市,新一中,颗粒物(PM10),58,66,41,40,27,113,,104,104,20,14,15,12,1.0,1
2025-04-05T1700,3345A,131.0577,45.7879,七台河市,中波台,细颗粒物(PM2.5),59,63,43,42,27,85,,90,90,44,19,10,7,0.6,0.6
2025-04-05T1700,3637A,131.0176,45.7761,七台河市,人民广场,颗粒物(PM10),68,85,58,47,38,105,,97,97,27,22,11,9,0.6,0.6
2025-04-05T1700,3684A,130.8781,45.8222,七台河市,新建矿广场,颗粒物(PM10),52,53,72,20,32,107,,99,99,17,27,5,11,0.6,0.7
2025-04-05T1700,1779A,123.9305,47.3636,齐齐哈尔市,安居小区,细颗粒物(PM2.5),59,66,127,42,53,46,,79,53,19,25,2,4,0.6,0.6
2025-04-05T1700,1780A,123.9488,47.3386,齐齐哈尔市,中心广场,颗粒物(PM10),54,57,135,36,58,46,,72,50,40,27,7,7,0.7,0.7
2025-04-05T1700,1781A,123.9483,47.3227,齐齐哈尔市,农牧车辆厂,,46,46,105,31,46,71,,78,63,23,22,6,6,0.3,0.4
2025-04-05T1700,1783A,123.945,47.2988,齐齐哈尔市,市环境监测站,,45,45,113,31,53,70,,80,62,23,18,2,4,0.5,0.6
2025-04-05T1700,3662A,123.6333,47.2075,齐齐哈尔市,富区青少年活动中心,,,144,156,,84,39,,71,50,20,18,3,3,0.8,0.8
2025-04-05T1700,2591A,107.9783,26.5747,黔东南苗族侗族自治州,市环境监测站,颗粒物(PM10),51,51,67,33,46,105,,76,73,7,12,3,5,0.4,0.5
2025-04-05T1700,2881A,107.8908,26.5311,黔东南苗族侗族自治州,凯里学院,颗粒物(PM10),53,56,68,36,46,104,,87,71,6,10,3,4,0.5,0.6
2025-04-05T1700,2593A,107.5228,26.2403,黔南布依族苗族自治州,小围寨,,44,44,56,27,38,119,,100,99,6,10,6,9,0.4,0.5
2025-04-05T1700,3538A,107.5175,26.2978,黔南布依族苗族自治州,沙坝,,48,48,67,22,41,117,,94,94,9,13,6,10,0.5,0.6
2025-04-05T1700,2589A,104.9022,25.0925,黔西南布依族苗族自治州,场坝街,细颗粒物(PM2.5),72,68,76,52,55,113,,104,104,15,14,7,13,0.4,0.5
2025-04-05T1700,2590A,104.8811,25.0992,黔西南布依族苗族自治州,坪东大道,细颗粒物(PM2.5),75,68,68,55,53,109,,107,101,16,15,6,7,0.4,0.4
2025-04-05T1700,2502A,108.6236,21.9667,钦州市,市环保站,细颗粒物(PM2.5),110,141,80,83,42,112,,99,99,23,21,14,12,0.8,0.7
2025-04-05T1700,2503A,108.6549,21.9481,钦州市,沙埠小学,细颗粒物(PM2.5),128,144,83,97,50,117,,97,97,19,22,16,11,1.1,0.9
2025-04-05T1700,2504A,108.5989,21.7431,钦州市,港区一小,细颗粒物(PM2.5),143,154,74,109,42,116,,101,101,26,25,16,11,1.1,0.8
2025-04-05T1700,3404A,108.5959,21.9633,钦州市,北职校,细颗粒物(PM2.5),123,147,74,93,46,114,,98,98,19,21,15,12,1.1,0.8
2025-04-05T1700,1043A,119.7493,40.0116,秦皇岛市,第一关,,32,17,35,9,23,100,,96,96,7,30,3,4,0.2,0.3
2025-04-05T1700,1044A,119.5897,39.9499,秦皇岛市,监测站,,33,20,42,7,20,104,,100,100,1,17,3,3,0.3,0.4
2025-04-05T1700,1046A,119.5251,39.9041,秦皇岛市,建设大厦,,32,10,50,3,27,102,,96,96,8,33,2,3,0.2,0.4
2025-04-05T1700,3132A,119.610547,39.943889,秦皇岛市,文明里,,31,30,44,6,20,99,,95,95,2,16,3,3,0.2,0.3
2025-04-05T1700,4198A,119.5090,39.8253,秦皇岛市,北戴河轮滑馆,,32,21,46,3,22,102,,96,96,1,16,5,6,0.2,0.4
2025-04-05T1700,1307A,120.6659,36.2403,青岛市,仰口,,37,24,47,16,30,118,,104,104,4,8,4,4,0.5,0.6
2025-04-05T1700,1310A,120.4134,36.0658,青岛市,市南区东部子站,,39,39,49,17,18,118,,96,96,8,13,8,7,0.5,0.5
2025-04-05T1700,1311A,120.3664,36.1032,青岛市,四方区子站,,44,44,47,14,21,127,,103,103,8,14,6,7,0.4,0.5
2025-04-05T1700,1312A,120.2994,36.054,青岛市,市南区西部子站,,37,36,44,17,17,118,,96,96,15,20,8,7,0.5,0.6
2025-04-05T1700,1313A,120.4581,36.0858,青岛市,崂山区子站,,39,31,43,7,14,124,,104,104,8,10,8,8,0.5,0.5
2025-04-05T1700,1315A,120.3999,36.3083,青岛市,城阳区子站,,40,31,51,12,23,128,,109,109,8,19,10,9,0.5,0.6
2025-04-05T1700,1966A,120.0405,35.8735,青岛市,黄岛区4号,,39,36,44,3,15,122,,101,101,9,16,8,8,0.5,0.7
2025-04-05T1700,3362A,120.5014,36.4034,青岛市,即墨2号,,39,39,59,11,28,114,,96,96,7,15,8,8,0.5,0.6
2025-04-05T1700,3642A,120.3503,36.0736,青岛市,市北区南部,,36,32,44,9,18,115,,91,91,15,12,6,7,0.4,0.5
2025-04-05T1700,3643A,120.3948,36.1805,青岛市,李沧区北部,,37,31,46,17,25,118,,96,96,10,17,8,8,0.5,0.6
2025-04-05T1700,4290A,120.1969,35.9546,青岛市,珠江路669号,,39,39,43,15,19,120,,102,102,8,17,7,7,0.7,0.7
2025-04-05T1700,1702A,113.0426,23.691,清远市,环保大楼,细颗粒物(PM2.5),55,54,53,39,42,90,,103,80,16,14,11,10,0.9,0.7
2025-04-05T1700,1703A,113.0208,23.7106,清远市,凤城街办,,,56,64,34,36,78,,89,67,25,23,,11,,0.6
2025-04-05T1700,3025A,113.0477,23.6344,清远市,技师学院,,50,50,64,33,36,88,,94,86,21,21,13,11,1.0,0.9
2025-04-05T1700,3318A,112.9903,23.7403,清远市,清新太和,颗粒物(PM10),56,62,66,38,37,102,,103,84,26,24,16,11,0.9,0.7
2025-04-05T1700,3455A,113.076,23.7198,清远市,清城东城,颗粒物(PM10),55,60,71,37,39,81,,92,75,18,18,12,11,1.1,0.9
2025-04-05T1700,2661A,107.6325,35.7357,庆阳市,庆阳五中,颗粒物(PM10),97,144,129,48,36,126,,117,117,7,12,4,4,0.2,0.3
2025-04-05T1700,2662A,107.6364,35.7067,庆阳市,市环保局,颗粒物(PM10),92,134,122,42,32,126,,117,117,7,9,5,5,0.2,0.2
2025-04-05T1700,1916A,103.7897,25.5035,曲靖市,环境监测站,,48,48,81,29,41,88,,105,81,20,15,4,6,0.7,0.7
2025-04-05T1700,1917A,103.8,25.5364,曲靖市,烟厂办公区,颗粒物(PM10),57,63,79,34,42,87,,98,80,16,14,4,5,0.6,0.6
2025-04-05T1700,3376A,103.7947,25.462,曲靖市,南苑二区,颗粒物(PM10),54,57,77,35,44,82,,96,80,18,15,7,7,0.7,0.6
2025-04-05T1700,3377A,103.7444,25.5261,曲靖市,曲靖师范学院,细颗粒物(PM2.5),60,58,83,43,57,89,,98,79,17,14,6,9,0.6,0.6
2025-04-05T1700,1264A,118.8692,28.9398,衢州市,环保大楼,颗粒物(PM10),55,59,72,25,36,134,,126,126,8,23,4,5,0.4,0.6
2025-04-05T1700,1265A,118.8709,28.9666,衢州市,实验学校,,50,50,66,26,35,136,,131,131,12,31,5,8,0.4,0.5
2025-04-05T1700,1266A,118.8621,28.9808,衢州市,衢州学院,颗粒物(PM10),54,57,69,26,38,129,,121,121,11,31,5,9,0.2,0.3
