timepoint,stationcode,longitude,latitude,area,positionname,primarypollutant,aqi,pm10,pm10_24h,pm2_5,pm2_5_24h,o3,o3_24h,o3_8h,o3_8h_24h,no2,no2_24h,so2,so2_24h,co,co_24h
2025-04-05T1400,2566A,102.1879,31.914,阿坝藏族羌族自治州,州农科所,,25,21,44,6,14,77,,56,56,14,12,13,13,0.5,0.4
2025-04-05T1400,2568A,102.2502,31.8896,阿坝藏族羌族自治州,马师校,,27,10,27,7,20,85,,57,57,10,11,5,5,0.5,0.4
2025-04-05T1400,3994A,102.2165,31.9024,阿坝藏族羌族自治州,马尔康中学西区,,30,15,23,9,14,93,,70,70,8,8,4,3,0.3,0.3
2025-04-05T1400,2695A,80.292,41.1694,阿克苏地区,电视台,颗粒物(PM10),245,381,418,79,106,88,,53,53,6,18,6,5,0.3,0.4
2025-04-05T1400,2696A,80.2613,41.1551,阿克苏地区,艺术中心,颗粒物(PM10),280,406,452,96,119,88,,49,49,9,22,3,3,0.5,0.7
2025-04-05T1400,2204A,105.6467,38.8363,阿拉善盟,西城区西花园,,39,37,33,14,9,122,,107,107,2,4,12,13,0.6,0.6
2025-04-05T1400,2205A,105.6985,38.8411,阿拉善盟,蒙二幼,,36,36,24,11,8,108,,97,97,8,7,6,5,0.4,0.4
2025-04-05T1400,2206A,105.724,38.8516,阿拉善盟,环保局新楼,,35,35,22,12,7,111,,105,105,3,3,9,8,0.6,0.5
2025-04-05T1400,2708A,88.1264,47.8517,阿勒泰地区,市站,,26,21,11,8,4,83,,94,84,15,6,3,2,0.5,0.4
2025-04-05T1400,2630A,80.1161,32.5,阿里地区,阿里监测站,,42,16,16,9,8,132,,98,98,1,4,6,7,0.4,0.5
2025-04-05T1400,3192A,80.0903,32.5028,阿里地区,阿里藏医院,,45,17,18,7,7,141,,110,110,1,4,7,8,0.5,0.5
2025-04-05T1400,2642A,109.0318,32.6537,安康市,香溪洞,颗粒物(PM10),88,125,51,30,31,89,,42,42,10,11,9,8,0.5,0.6
2025-04-05T1400,2644A,109.0072,32.6975,安康市,汉滨区检察院,,,87,65,28,31,103,,40,40,9,16,8,9,,0.5
2025-04-05T1400,4054A,109.0325,32.6913,安康市,市邮政管理局,颗粒物(PM10),69,87,67,30,30,102,,45,45,10,18,7,9,0.5,0.6
2025-04-05T1400,2291A,117.0809,30.5177,安庆市,环科院,颗粒物(PM10),71,92,84,24,52,138,,92,92,10,37,8,13,0.4,0.7
2025-04-05T1400,2292A,117.0331,30.5119,安庆市,马山宾馆,颗粒物(PM10),74,98,80,3,52,137,,84,84,6,41,5,9,0.2,0.8
2025-04-05T1400,2294A,116.9896,30.6145,安庆市,安庆大学,颗粒物(PM10),71,92,82,21,46,146,,103,103,7,21,6,10,0.3,0.6
2025-04-05T1400,3173A,117.0598,30.5351,安庆市,市人大,颗粒物(PM10),72,93,85,23,54,140,,96,96,6,24,8,16,0.3,0.7
2025-04-05T1400,3122A,105.9606,26.2611,安顺市,伍家关,,48,48,58,33,42,77,,91,80,7,7,5,5,0.7,0.7
2025-04-05T1400,3123A,105.9408,26.2431,安顺市,凤凰山,细颗粒物(PM2.5),57,48,62,40,45,86,,100,89,9,10,8,9,0.4,0.5
2025-04-05T1400,3124A,105.9439,26.2564,安顺市,金钟山,细颗粒物(PM2.5),62,50,61,44,45,86,,103,90,9,10,6,7,0.6,0.6
2025-04-05T1400,3125A,105.8983,26.2481,安顺市,娄家坡,细颗粒物(PM2.5),59,51,63,42,47,88,,103,90,9,10,7,11,0.8,0.8
2025-04-05T1400,1818A,114.4839,36.0621,安阳市,棉研所,,,,,,,,,,,,,,,,
2025-04-05T1400,1819A,114.3551,36.1017,安阳市,红庙街,,39,39,108,19,49,99,,73,73,2,23,4,7,0.3,0.7
2025-04-05T1400,1820A,114.361,36.0681,安阳市,银杏小区,,43,43,110,17,52,103,,78,78,4,26,3,7,0.0,0.5
2025-04-05T1400,3141A,114.3922,36.0878,安阳市,信访局,,34,31,112,3,54,108,,83,83,3,24,3,7,0.2,0.6
2025-04-05T1400,3669A,114.4705,36.0637,安阳市,左辅环卫站,,40,40,128,9,48,108,,86,86,2,12,3,6,0.2,0.5
2025-04-05T1400,3703A,114.2917,36.0949,安阳市,安钢职工学校,颗粒物(PM10),52,53,128,19,60,97,,73,73,5,32,2,7,0.4,0.9
2025-04-05T1400,1748A,123.044,41.1196,鞍山市,深沟寺,,30,28,47,19,35,94,,72,72,13,12,12,9,0.7,0.7
2025-04-05T1400,1749A,123.011,41.0931,鞍山市,太阳城,,32,25,49,18,36,101,,76,76,11,13,5,4,0.6,0.7
2025-04-05T1400,1750A,123.0485,41.1442,鞍山市,太平,,30,30,52,16,32,89,,81,70,16,14,14,8,0.8,0.7
2025-04-05T1400,1751A,122.9642,41.0971,鞍山市,铁西三道街,,,23,56,13,37,96,,76,72,14,21,4,4,,0.8
2025-04-05T1400,1753A,123.022,41.0821,鞍山市,明达新区,,38,37,49,26,37,96,,77,77,9,10,6,5,0.5,0.6
2025-04-05T1400,1754A,123.1289,41.0228,鞍山市,千山,,,,22,,11,,,64,,,7,,3,,0.7
2025-04-05T1400,4201A,122.9446,41.0826,鞍山市,兴盛南路290号,,31,21,56,13,36,98,,78,72,15,20,9,8,0.5,0.8
2025-04-05T1400,2195A,107.4212,40.761,巴彦淖尔市,附二中,,40,40,42,12,15,108,,78,78,4,11,7,10,0.3,0.3
2025-04-05T1400,2196A,107.37,40.7372,巴彦淖尔市,市环保大楼,颗粒物(PM10),51,51,43,16,15,104,,74,74,2,9,4,7,0.2,0.3
2025-04-05T1400,1956A,86.1472,41.7538,巴音郭楞蒙古自治州,孔雀公园,颗粒物(PM10),500,676,466,165,95,90,,57,57,5,16,7,6,0.2,0.3
2025-04-05T1400,1957A,86.1972,41.7166,巴音郭楞蒙古自治州,棉纺厂,颗粒物(PM10),497,597,544,115,108,89,,63,63,9,14,6,3,0.2,0.3
2025-04-05T1400,1958A,86.2357,41.7173,巴音郭楞蒙古自治州,经济开发区,颗粒物(PM10),457,557,490,102,94,91,,71,71,7,11,8,5,0.2,0.2
2025-04-05T1400,2914A,106.7677,31.8794,巴中市,苏山坪,"颗粒物(PM10),细颗粒物(PM2.5)",55,59,57,39,37,115,,77,77,11,14,4,4,0.5,0.5
2025-04-05T1400,3181A,106.7768,31.8526,巴中市,市五中,颗粒物(PM10),56,62,72,35,41,116,,45,45,7,30,6,6,0.6,0.7
2025-04-05T1400,3183A,106.7418,31.8654,巴中市,圣泉水务公司,颗粒物(PM10),53,56,59,36,37,123,,51,51,4,25,4,3,0.5,0.5
2025-04-05T1400,3616A,106.7616,31.8344,巴中市,市中心医院,细颗粒物(PM2.5),64,59,67,46,43,114,,46,46,7,28,7,6,0.6,0.7
2025-04-05T1400,2235A,122.7911,45.6077,白城市,洮北区环保局,细颗粒物(PM2.5),79,64,113,58,53,55,,52,52,16,18,7,7,0.8,0.7
2025-04-05T1400,2236A,122.8738,45.5725,白城市,市环保局,细颗粒物(PM2.5),62,51,112,44,51,57,,50,50,15,19,3,6,0.5,0.5
2025-04-05T1400,2231A,126.4219,41.9171,白山市,喜丰,,34,20,38,10,20,106,,96,96,13,14,7,6,1.0,1
2025-04-05T1400,2232A,126.4077,41.9419,白山市,环保局,,34,30,38,3,20,107,,96,92,11,14,5,6,0.9,0.8
2025-04-05T1400,2647A,104.1724,36.5446,白银市,第三小学,颗粒物(PM10),79,108,104,37,31,106,,70,70,16,19,126,65,0.6,0.6
2025-04-05T1400,2648A,104.1465,36.5482,白银市,动力公司,颗粒物(PM10),84,118,106,40,33,113,,82,82,17,18,113,34,0.6,0.7
2025-04-05T1400,2512A,106.6103,23.9011,百色市,市监测站,细颗粒物(PM2.5),70,70,60,51,41,105,,94,80,15,13,14,13,1.0,0.9
2025-04-05T1400,2513A,106.6538,23.8859,百色市,市中心血站,细颗粒物(PM2.5),94,79,61,70,52,111,,94,78,11,12,19,12,0.9,0.8
2025-04-05T1400,3406A,106.6085,23.8798,百色市,祈福高中,细颗粒物(PM2.5),65,62,56,47,39,100,,92,74,12,11,10,8,0.9,0.8
2025-04-05T1400,2270A,117.396,32.939,蚌埠市,工人疗养院,颗粒物(PM10),83,115,121,29,58,137,,100,100,8,19,5,9,0.5,0.8
2025-04-05T1400,2271A,117.3605,32.9427,蚌埠市,百货大楼,颗粒物(PM10),90,130,121,31,61,130,,92,92,11,25,6,9,0.4,0.6
2025-04-05T1400,2273A,117.4185,32.8911,蚌埠市,蚌埠学院,颗粒物(PM10),87,124,107,24,56,133,,100,100,8,17,4,8,0.5,0.7
2025-04-05T1400,2274A,117.3533,32.9673,蚌埠市,淮上区政府,颗粒物(PM10),96,141,120,37,61,137,,97,97,9,20,6,9,0.3,0.6
2025-04-05T1400,2275A,117.3145,32.8977,蚌埠市,高新区,颗粒物(PM10),84,117,116,27,63,128,,95,95,6,20,5,9,0.4,0.7
2025-04-05T1400,3715A,117.3092,32.9314,蚌埠市,蚌埠田家炳中学,颗粒物(PM10),93,136,133,28,65,132,,96,96,12,25,5,11,0.3,0.6
2025-04-05T1400,1585A,109.8756,40.6532,包头市,市环境监测站,颗粒物(PM10),57,63,54,28,17,113,,71,71,14,24,21,14,0.8,0.6
2025-04-05T1400,1587A,109.9991,40.5842,包头市,包头八中,,47,47,48,16,14,107,,63,63,11,23,9,11,0.4,0.5
2025-04-05T1400,1588A,109.8538,40.6821,包头市,青山宾馆,颗粒物(PM10),54,57,51,27,18,109,,63,63,14,27,22,13,1.0,0.7
2025-04-05T1400,1589A,109.8642,40.6288,包头市,惠龙物流,颗粒物(PM10),53,56,50,19,13,114,,75,75,10,20,18,11,0.7,0.6
2025-04-05T1400,1590A,110.0377,40.5546,包头市,东河鸿龙湾,,48,48,43,14,6,118,,71,71,8,22,9,10,0.4,0.5
2025-04-05T1400,3283A,109.9154,40.5685,包头市,滨河大厦,,35,34,36,11,10,111,,68,68,5,26,10,10,0.5,0.6
2025-04-05T1400,3419A,109.9447,40.6261,包头市,包头市委党校,颗粒物(PM10),53,56,52,15,10,113,,73,73,8,18,18,12,0.7,0.5
2025-04-05T1400,3683A,109.8331,40.6576,包头市,昆区政府,颗粒物(PM10),53,56,48,35,18,108,,69,69,17,25,20,12,0.9,0.6
2025-04-05T1400,1930A,107.185,34.3063,宝鸡市,庙沟村,颗粒物(PM10),87,123,164,37,45,102,,80,78,12,10,9,7,0.4,0.3
2025-04-05T1400,1931A,107.0708,34.3017,宝鸡市,竹园沟,颗粒物(PM10),102,154,177,42,48,100,,75,75,15,11,9,6,0.4,0.3
2025-04-05T1400,1932A,107.1906,34.3672,宝鸡市,三陆医院,颗粒物(PM10),99,147,171,31,48,103,,58,58,11,23,6,7,0.4,0.5
2025-04-05T1400,1933A,107.1431,34.3547,宝鸡市,监测站,颗粒物(PM10),104,157,181,56,59,102,,63,63,11,15,9,8,0.4,0.4
2025-04-05T1400,1934A,107.1186,34.3739,宝鸡市,技工学校,颗粒物(PM10),102,153,176,35,51,100,,66,66,14,12,7,5,0.5,0.5
2025-04-05T1400,1935A,107.3906,34.3528,宝鸡市,陈仓区环保局家属楼,颗粒物(PM10),95,140,174,33,48,102,,73,64,18,30,8,30,0.5,0.7
2025-04-05T1400,1936A,107.2058,34.3497,宝鸡市,文理学院,颗粒物(PM10),94,137,174,48,55,106,,66,66,12,19,7,6,0.4,0.4
2025-04-05T1400,1937A,107.2386,34.3622,宝鸡市,三迪小学,颗粒物(PM10),99,148,176,42,59,104,,58,58,17,31,8,8,0.4,0.5
2025-04-05T1400,1051A,115.493,38.8632,保定市,游泳馆,颗粒物(PM10),68,85,64,13,22,94,,72,72,6,14,6,7,0.4,0.4
2025-04-05T1400,1052A,115.5213,38.8959,保定市,华电二区,,41,41,58,18,30,93,,76,76,1,9,3,3,0,0
2025-04-05T1400,1053A,115.4713,38.9108,保定市,接待中心,,30,28,61,11,21,93,,76,76,3,8,1,3,0.1,0.1
2025-04-05T1400,1054A,115.4612,38.8416,保定市,地表水厂,,32,32,78,3,14,94,,69,69,9,21,1,2,0.2,0.3
2025-04-05T1400,3581A,115.31981,38.95208,保定市,满城区生态环境分局,颗粒物(PM10),56,61,48,7,18,98,,80,80,5,10,3,3,0.2,0.3
2025-04-05T1400,3582A,115.47694,38.76408,保定市,清苑区第二中学,,,26,78,3,17,93,,69,69,,18,3,3,0.2,0.3
2025-04-05T1400,3583A,115.62909,39.02311,保定市,徐水物探局,,43,43,67,3,10,99,,72,72,4,14,6,6,0.2,0.1
2025-04-05T1400,4004A,115.4202,38.8656,保定市,双鹰农机,颗粒物(PM10),110,169,84,25,40,95,,70,70,6,19,2,2,0.1,0.1
2025-04-05T1400,4034A,115.5150,38.8590,保定市,植保所站,,35,35,83,6,38,90,,71,71,2,9,3,3,0.0,0.1
2025-04-05T1400,2594A,99.1678,25.1081,保山市,市环境监测站,细颗粒物(PM2.5),69,65,69,50,43,107,,106,98,9,11,6,6,0.6,0.6
2025-04-05T1400,2595A,99.1711,25.1328,保山市,市环保局,细颗粒物(PM2.5),64,69,72,46,50,127,,124,121,8,8,5,6,0.8,0.7
2025-04-05T1400,1866A,109.2262,21.588,北海市,牛尾岭水库,,,57,44,46,33,93,,60,60,,6,6,6,0.6,0.6
2025-04-05T1400,1867A,109.1436,21.4086,北海市,海滩公园,细颗粒物(PM2.5),74,78,49,54,26,72,,78,71,41,15,8,9,1.3,0.7
2025-04-05T1400,1868A,109.0981,21.4661,北海市,新市环保局,细颗粒物(PM2.5),70,74,52,51,33,114,,85,82,14,16,6,7,0.4,0.3
2025-04-05T1400,1869A,109.1778,21.5233,北海市,北海工业园,细颗粒物(PM2.5),70,71,58,51,34,108,,80,80,10,14,9,10,0.3,0.4
2025-04-05T1400,3400A,109.1911,21.4415,北海市,龙潭自来水厂,细颗粒物(PM2.5),70,57,47,51,31,96,,70,70,12,13,9,9,0.7,0.5
2025-04-05T1400,1001A,116.3621,39.8784,北京市,万寿西宫,,32,10,22,3,6,102,,93,93,6,10,6,6,0.3,0.3
2025-04-05T1400,1002A,116.2202,40.2915,北京市,定陵,,,,,,,,,,,,,,,,
2025-04-05T1400,1003A,116.4174,39.9289,北京市,东四,,31,10,21,3,6,97,,88,88,3,6,6,6,0.3,0.3
2025-04-05T1400,1004A,116.4072,39.8863,北京市,天坛,,,,25,,6,,,87,,,10,,2,,0.5
2025-04-05T1400,1005A,116.462,39.9365,北京市,农展馆,,30,8,16,3,3,96,,87,87,3,7,6,6,0.2,0.3
2025-04-05T1400,1006A,116.3392,39.9295,北京市,官园,,29,10,24,3,4,90,,70,66,4,7,6,6,0.3,0.3
2025-04-05T1400,1007A,116.2878,39.9611,北京市,海淀万柳,,27,9,19,3,4,85,,75,75,8,11,3,3,0.5,0.5
2025-04-05T1400,1008A,116.6636,40.135,北京市,顺义新城,,32,10,14,3,3,101,,92,92,7,6,5,5,0.3,0.3
2025-04-05T1400,1009A,116.6275,40.3275,北京市,怀柔镇,,27,9,9,3,3,85,,81,81,4,4,3,2,0.2,0.2
2025-04-05T1400,1010A,116.2296,40.217,北京市,昌平镇,,30,14,20,3,4,95,,87,87,3,7,2,2,0.3,0.2
2025-04-05T1400,1011A,116.3966,39.9821,北京市,奥体中心,,30,9,19,3,4,96,,86,86,8,13,3,2,0.4,0.4
2025-04-05T1400,3281A,115.9718,40.4529,北京市,延庆夏都,,29,15,18,3,6,92,,83,83,4,6,6,6,0.3,0.3
2025-04-05T1400,3418A,116.8336,40.4095,北京市,密云新城,,28,8,13,3,4,89,,74,74,3,8,4,4,0.3,0.3
2025-04-05T1400,3671A,116.088,39.9726,北京市,门头沟三家店,,29,29,57,14,12,76,,72,72,11,10,5,5,0.3,0.3
2025-04-05T1400,3672A,116.1541,39.8204,北京市,丰台云岗,,30,8,25,3,10,95,,87,87,8,11,5,5,0.3,0.3
2025-04-05T1400,3673A,116.6804,39.9081,北京市,通州东关,,29,12,28,3,5,90,,80,80,2,6,4,4,0.2,0.2
2025-04-05T1400,3674A,115.9577,39.7603,北京市,房山燕山,,28,17,24,3,7,88,,80,80,8,9,4,5,0.2,0.2
2025-04-05T1400,3675A,116.4672,39.7733,北京市,大兴旧宫,,28,21,29,3,8,87,,77,77,6,8,1,2,0.1,0.2
2025-04-05T1400,3694A,115.986,40.4563,北京市,延庆石河营,,29,11,17,3,4,92,,82,82,4,5,5,4,0.4,0.4
2025-04-05T1400,3695A,116.6151,40.3053,北京市,怀柔新城,,26,10,10,3,3,81,,79,79,9,6,6,5,0.4,0.4
2025-04-05T1400,3696A,116.2545,39.8768,北京市,丰台小屯,,28,11,24,3,4,87,,75,75,6,8,2,2,0.2,0.2
2025-04-05T1400,3697A,116.84,40.3844,北京市,密云镇,,31,7,16,3,4,97,,76,76,2,9,5,5,0.3,0.3
2025-04-05T1400,4182A,116.1942,39.9158,北京市,八角北路9号,,33,12,23,3,6,103,,89,89,1,5,2,2,0,0.1
2025-04-05T1400,4194A,117.0790,40.1518,北京市,洳河巡河路,,30,8,8,3,4,96,,85,85,9,7,2,2,0.3,0.3
2025-04-05T1400,1761A,123.8275,41.3064,本溪市,大峪,,29,22,28,20,22,69,,89,76,29,15,8,8,0.7,0.4
2025-04-05T1400,1762A,123.7567,41.3325,本溪市,溪湖,,36,29,37,25,25,81,,97,84,22,17,8,8,1.1,0.8
2025-04-05T1400,1763A,123.7169,41.3094,本溪市,彩屯,,32,32,46,22,31,89,,91,84,21,23,12,12,1.6,1.8
2025-04-05T1400,1764A,123.7669,41.2864,本溪市,东明,,29,14,24,10,19,91,,104,91,12,10,13,13,0.6,0.6
2025-04-05T1400,1765A,123.7992,41.2664,本溪市,新立屯,,29,11,19,6,15,92,,104,98,15,13,6,6,0.6,0.6
2025-04-05T1400,1766A,123.8142,41.3472,本溪市,威宁,,23,19,30,16,19,70,,69,61,16,11,4,4,0.7,0.6
2025-04-05T1400,2587A,105.2864,27.3125,毕节市,八中,,43,43,59,28,38,86,,97,89,15,9,14,14,0.6,0.6
2025-04-05T1400,2588A,105.31,27.2944,毕节市,师专,,41,41,62,28,37,89,,104,96,18,10,9,6,0.6,0.7
2025-04-05T1400,4263A,105.3688,27.3598,毕节市,工业大道,,48,46,62,33,35,94,,99,98,15,12,10,8,0.6,0.6
2025-04-05T1400,1629A,118.0018,37.3617,滨州市,第二水厂,,48,48,89,7,28,107,,82,82,5,14,7,11,0.2,0.6
2025-04-05T1400,1630A,117.9776,37.393,滨州市,北中新校,,36,34,75,7,31,115,,88,88,6,18,5,12,0,0.2
2025-04-05T1400,3514A,117.9378,37.3956,滨州市,中海酒店,,36,27,75,9,37,114,,85,85,7,19,6,10,0.2,0.4
2025-04-05T1400,3515A,117.9378,37.3553,滨州市,开发区一中,颗粒物(PM10),51,51,93,14,30,111,,84,84,13,24,9,15,0,0.3
2025-04-05T1400,3516A,118.0917,37.694,滨州市,金海六路,,39,39,70,3,22,108,,91,91,7,19,7,9,0.3,0.5
2025-04-05T1400,4028A,117.9956,37.3753,滨州市,滨州市西街道办事处,,41,41,83,7,34,119,,91,91,7,16,6,9,0.2,0.5
2025-04-05T1400,2311A,115.8072,33.8399,亳州市,污水处理厂,颗粒物(PM10),77,104,116,9,49,111,,79,79,4,15,3,6,0.2,0.5
2025-04-05T1400,2312A,115.7789,33.8518,亳州市,三国揽胜宫,颗粒物(PM10),67,83,117,8,48,109,,80,80,5,13,4,7,0.2,0.5
2025-04-05T1400,3332A,115.7633,33.8034,亳州市,亳州学院,颗粒物(PM10),70,90,111,10,47,113,,83,83,6,13,4,8,0.2,0.5
2025-04-05T1400,2693A,82.0485,44.8556,博尔塔拉蒙古自治州,市党校,颗粒物(PM10),58,66,70,22,21,101,,71,71,33,30,3,2,0.4,0.3
2025-04-05T1400,2694A,82.0806,44.8969,博尔塔拉蒙古自治州,市环保局,颗粒物(PM10),73,96,75,27,18,108,,56,56,23,20,4,4,0.8,0.7
2025-04-05T1400,1071A,116.8842,38.2991,沧州市,沧县城建局,,29,24,75,7,33,92,,82,82,7,15,2,3,0.3,0.4
2025-04-05T1400,1072A,116.8584,38.3254,沧州市,电视转播站,,32,19,72,7,27,101,,90,90,8,16,4,5,0.2,0.3
2025-04-05T1400,1073A,116.8709,38.3228,沧州市,市环保局,,30,29,70,11,31,93,,83,83,6,13,4,5,0.3,0.3
2025-04-05T1400,3324A,116.8136,38.3004,沧州市,河北水利电力学院,,30,29,85,8,29,95,,84,84,8,16,3,4,0.1,0.2
2025-04-05T1400,2622A,97.1806,31.1273,昌都市,昌都监测站,,,18,9,14,8,129,,96,95,7,5,,8,0.4,0.1
2025-04-05T1400,3719A,97.1714,31.1406,昌都市,昌都会议中心,,44,,8,13,10,138,,101,101,7,8,4,3,0.1,0.1
2025-04-05T1400,2690A,88.1236,43.8886,昌吉回族自治州,天山天池,,38,,15,26,9,107,,95,95,6,7,4,4,0.5,0.5
2025-04-05T1400,2692A,87.2717,44.0297,昌吉回族自治州,新区政务中心,颗粒物(PM10),83,115,72,15,17,102,,101,98,13,18,10,7,0.6,0.5
2025-04-05T1400,3613A,87.3095,44.0142,昌吉回族自治州,亚心广场,颗粒物(PM10),101,151,112,22,18,105,,100,98,12,18,11,8,1.0,0.8
2025-04-05T1400,1119A,125.3325,43.9166,长春市,食品厂,,40,40,46,20,36,82,,97,78,16,15,7,8,0.3,0.4
2025-04-05T1400,1120A,125.2863,43.9027,长春市,客车厂,,32,32,42,21,37,82,,92,74,14,17,5,6,0.4,0.5
2025-04-05T1400,1121A,125.2841,43.8463,长春市,邮电学院,,32,32,45,18,41,84,,96,79,12,15,6,7,0.3,0.4
2025-04-05T1400,1122A,125.3716,43.8772,长春市,劳动公园,,39,39,44,14,36,83,,100,82,8,10,6,7,0.2,0.3
2025-04-05T1400,1123A,125.3297,43.8805,长春市,园林处,,28,28,41,16,35,83,,98,81,11,11,7,7,0.4,0.5
2025-04-05T1400,1124A,125.4605,43.79,长春市,净月潭,,42,42,42,22,35,81,,92,80,6,8,6,7,0.4,0.4
2025-04-05T1400,1125A,125.7194,43.515,长春市,甩湾子,,,,,,,,,,,,,,,,
2025-04-05T1400,1126A,125.3863,43.8447,长春市,经开区环卫处,,29,29,44,18,37,79,,92,77,9,11,5,6,0.4,0.5
2025-04-05T1400,1127A,125.245,43.7783,长春市,高新区管委会,,28,28,40,16,40,83,,92,78,10,12,7,8,0.3,0.5
2025-04-05T1400,1128A,125.1761,43.8325,长春市,岱山公园,,30,28,38,16,38,93,,95,82,9,15,5,5,0.3,0.4
2025-04-05T1400,1335A,113.0833,28.2325,长沙市,经开区环保局,颗粒物(PM10),59,67,71,22,52,141,,76,76,7,31,7,6,0.5,0.7
2025-04-05T1400,1336A,112.8872,28.2189,长沙市,高开区环保局,颗粒物(PM10),62,73,89,38,66,146,,74,74,7,40,9,8,0.7,0.8
2025-04-05T1400,1337A,113.0792,28.2053,长沙市,马坡岭,颗粒物(PM10),59,67,71,27,47,137,,70,70,7,31,7,6,0.5,0.6
2025-04-05T1400,1338A,112.9394,28.19,长沙市,湖南师范大学,颗粒物(PM10),66,81,82,40,58,143,,70,70,11,33,8,7,0.7,0.9
2025-04-05T1400,1339A,113.0178,28.1322,长沙市,雨花区环保局,颗粒物(PM10),62,74,74,37,58,135,,62,62,14,41,8,8,0.6,0.7
2025-04-05T1400,1340A,112.9792,28.2597,长沙市,伍家岭,细颗粒物(PM2.5),69,82,89,50,57,141,,64,64,12,38,8,5,0.8,0.9
2025-04-05T1400,1341A,113.0014,28.1944,长沙市,火车新站,颗粒物(PM10),66,81,82,46,54,145,,74,74,11,42,10,9,0.7,0.9
2025-04-05T1400,1342A,112.9844,28.1178,长沙市,天心区环保局,"颗粒物(PM10),细颗粒物(PM2.5)",59,68,77,42,54,144,,69,69,16,39,6,7,0.5,1.2
2025-04-05T1400,1343A,112.8908,28.1308,长沙市,湖南中医药大学,颗粒物(PM10),64,77,87,40,60,141,,63,63,11,39,6,5,0.7,0.9
2025-04-05T1400,1344A,112.9581,28.3611,长沙市,沙坪,细颗粒物(PM2.5),78,67,66,57,46,122,,83,83,15,20,12,8,1.0,1
2025-04-05T1400,1727A,113.1147,36.1547,长治市,清华站,,33,21,76,3,15,105,,74,74,6,13,8,10,0.5,0.5
2025-04-05T1400,1730A,113.0886,36.2125,长治市,审计局,,33,11,65,3,17,104,,80,80,8,15,10,12,0.1,0.2
2025-04-05T1400,1731A,113.0844,36.1856,长治市,长治八中,,34,25,86,9,23,106,,79,79,8,15,9,13,0.3,0.3
2025-04-05T1400,2845A,113.1569,36.1911,长治市,德盛苑,,32,24,79,3,17,102,,85,85,6,12,9,13,0.6,0.7
2025-04-05T1400,3568A,113.06,36.0464,长治市,向阳小学,,37,32,87,3,21,116,,94,94,9,14,10,12,0.2,0.4
2025-04-05T1400,3569A,112.8792,36.3144,长治市,屯留一中,,35,16,63,3,14,111,,79,79,11,21,10,11,0.5,0.5
2025-04-05T1400,4189A,113.1131,36.19948,长治市,英华南巷50号,,34,25,82,3,14,108,,80,80,6,14,8,9,0.2,0.2
2025-04-05T1400,4190A,113.2367,36.3344,长治市,学府街1号,,34,29,96,8,21,106,,82,82,4,16,12,22,0.3,0.5
2025-04-05T1400,1854A,111.6975,28.9703,常德市,市二中,细颗粒物(PM2.5),58,64,66,41,52,125,,59,59,9,20,8,6,0.7,0.8
2025-04-05T1400,1857A,111.7158,29.1456,常德市,白鹤山,,,,,,,,,,,,,,,,
2025-04-05T1400,3138A,111.7153,29.0289,常德市,武陵区永安,颗粒物(PM10),63,76,77,37,49,140,,71,71,6,19,6,8,0.6,0.8
2025-04-05T1400,3139A,111.6892,28.9881,常德市,鼎城区玉霞,,,66,70,42,47,141,,60,60,6,22,,6,0.7,0.8
2025-04-05T1400,3140A,111.6625,29.0531,常德市,武陵区长庚,颗粒物(PM10),64,78,72,41,49,143,,64,64,7,19,8,11,0.6,0.8
2025-04-05T1400,1196A,119.9633,31.762,常州市,市监测站,颗粒物(PM10),74,97,101,53,52,161,,102,102,24,46,9,9,0.7,0.8
2025-04-05T1400,1200A,119.9468,31.7069,常州市,武进监测站,颗粒物(PM10),67,83,80,47,37,159,,103,103,17,29,12,13,0.6,0.6
2025-04-05T1400,1201A,119.9255,31.9087,常州市,安家,"颗粒物(PM10),细颗粒物(PM2.5)",64,78,102,46,52,154,,98,98,13,34,9,10,0.2,0.5
2025-04-05T1400,3002A,119.9805,31.8174,常州市,行政中心,颗粒物(PM10),61,72,87,41,46,157,,103,103,15,31,14,15,0.5,0.6
2025-04-05T1400,3003A,120.0522,31.7748,常州市,经开区,颗粒物(PM10),70,90,90,48,46,163,,110,110,21,37,10,12,0.6,0.9
2025-04-05T1400,3010A,119.9025,31.7964,常州市,钟楼,颗粒物(PM10),67,83,90,46,49,157,,103,103,15,26,8,9,0.8,0.9
2025-04-05T1400,3429A,119.8598,31.7066,常州市,武进经发区,颗粒物(PM10),65,80,79,38,43,160,,102,102,15,28,8,10,0.9,0.9
2025-04-05T1400,3430A,119.5826,31.7245,常州市,金坛城区,颗粒物(PM10),55,59,84,26,40,148,,106,106,9,23,8,10,0.5,0.8
2025-04-05T1400,2220A,120.4318,41.5881,朝阳市,西梁,颗粒物(PM10),79,108,45,9,20,98,,85,85,5,19,9,13,0.6,0.8
2025-04-05T1400,2221A,120.4521,41.5646,朝阳市,河畔小区,颗粒物(PM10),78,106,44,12,22,97,,84,84,6,14,6,8,0.4,0.6
2025-04-05T1400,2222A,120.4176,41.5648,朝阳市,八里堡,颗粒物(PM10),84,118,47,10,21,93,,78,78,5,16,6,9,0.4,0.6
2025-04-05T1400,2223A,120.3806,41.5969,朝阳市,农业园区,颗粒物(PM10),91,132,51,14,24,100,,85,85,4,19,8,10,0.5,0.6
2025-04-05T1400,1705A,116.6367,23.6719,潮州市,西园路,,,,,,,,,,,,,,,,
2025-04-05T1400,3026A,116.6183,23.6608,潮州市,市政府,,24,22,35,16,29,74,,88,81,14,16,3,4,0.8,0.7
2025-04-05T1400,4036A,116.6461,23.6761,潮州市,金山,,24,,30,14,33,76,,86,81,13,12,6,7,0.6,0.6
2025-04-05T1400,2472A,113.0073,25.9061,郴州市,马头岭,颗粒物(PM10),63,75,89,32,40,90,,47,47,28,45,9,9,0.9,1
2025-04-05T1400,2473A,113.0116,25.8226,郴州市,市职中,颗粒物(PM10),57,63,90,37,55,125,,56,56,13,38,14,14,0.5,0.8
2025-04-05T1400,2475A,113.0383,25.8071,郴州市,市审计局,颗粒物(PM10),53,56,85,34,55,129,,58,58,11,38,12,16,0.5,0.9
2025-04-05T1400,2476A,113.0348,25.7759,郴州市,市环保局,颗粒物(PM10),62,73,88,37,50,126,,52,52,12,39,16,22,0.5,0.7
2025-04-05T1400,4252A,113.0138,25.8011,郴州市,好美居路49号,"颗粒物(PM10),细颗粒物(PM2.5)",54,58,95,38,57,120,,56,56,15,44,11,14,0.6,0.9
2025-04-05T1400,1431A,103.9728,30.7236,成都市,金泉两河,,37,37,58,7,26,93,,63,,7,16,2,2,0.6,0.7
2025-04-05T1400,1432A,104.176,30.6872,成都市,十里店,,32,29,61,12,31,101,,92,92,16,24,3,3,0.5,0.7
2025-04-05T1400,1433A,104.079,30.5706,成都市,三瓦窑,,29,22,64,8,31,91,,81,81,18,28,3,3,0.4,0.5
2025-04-05T1400,1434A,104.1114,30.63,成都市,沙河铺,,28,27,64,13,36,89,,78,78,13,20,5,5,0.5,0.7
2025-04-05T1400,1437A,104.0786,30.6531,成都市,君平街,,31,25,62,12,37,99,,90,90,12,21,5,6,0.6,0.7
2025-04-05T1400,1438A,103.613,31.0283,成都市,灵岩寺,,,,,,,,,,,,,,,,
2025-04-05T1400,2880A,104.0239,30.65639,成都市,大石西路,,35,35,63,19,36,88,,82,82,14,23,4,5,0.6,0.7
2025-04-05T1400,3136A,104.2725,30.5589,成都市,龙泉驿区区政府,,32,24,52,12,27,101,,77,77,10,17,4,4,0.6,0.8
2025-04-05T1400,3357A,104.0106,30.6931,成都市,金博路,,27,25,51,10,24,84,,79,79,13,20,6,6,0.3,0.5
2025-04-05T1400,3359A,104.0578,30.5225,成都市,华阳,,30,27,52,17,37,95,,83,83,13,23,6,6,0.5,0.6
2025-04-05T1400,3488A,104.3853,30.7453,成都市,青白江技师分院,,41,41,61,11,34,110,,88,88,13,24,6,7,0.5,0.6
2025-04-05T1400,3489A,104.0789,30.4072,成都市,科学城,,30,22,56,13,30,96,,74,74,10,18,5,5,0.5,0.6
2025-04-05T1400,4011A,103.8506,30.6947,成都市,光华大道三段,,34,34,57,14,31,97,,93,93,11,18,1,1,0.5,0.7
2025-04-05T1400,4224A,104.2433,30.5353,成都市,鲸龙路1057号,,33,22,53,12,30,104,,79,79,13,19,4,4,0.7,0.8
2025-04-05T1400,1062A,117.9531,40.9081,承德市,铁路,,31,14,32,3,7,99,,81,81,2,8,7,7,0.2,0.2
2025-04-05T1400,1063A,117.9392,40.9763,承德市,中国银行,,31,14,32,3,6,98,,81,81,3,5,4,3,0.2,0.2
2025-04-05T1400,1064A,117.9503,40.928,承德市,开发区,,31,21,38,3,13,98,,79,79,3,8,6,5,0.2,0.2
2025-04-05T1400,1065A,117.8051,40.9655,承德市,文化中心,,31,13,35,3,6,97,,77,77,3,8,3,4,0.2,0.2
2025-04-05T1400,1066A,117.9268,41.0026,承德市,离宫,,23,,28,11,17,71,,67,67,2,4,21,21,0.2,0.2
2025-04-05T1400,2314A,117.47,30.6618,池州市,池州学院,颗粒物(PM10),63,75,85,32,51,137,,108,108,9,22,6,18,0.2,0.7
2025-04-05T1400,3237A,117.4918,30.6617,池州市,展览馆,颗粒物(PM10),63,75,86,32,48,138,,110,110,8,21,6,14,0.4,0.8
2025-04-05T1400,3333A,117.5627,30.695,池州市,第八中学,颗粒物(PM10),60,70,84,26,45,135,,110,110,8,20,6,14,0.2,0.7
2025-04-05T1400,3334A,117.5038,30.6243,池州市,第十二中学,颗粒物(PM10),64,78,82,30,50,141,,112,112,8,25,6,10,0.3,0.8
2025-04-05T1400,1744A,118.9233,42.2816,赤峰市,松山一中,,44,44,36,3,5,89,,85,85,8,11,7,8,0.3,0.4
2025-04-05T1400,1745A,118.9576,42.2728,赤峰市,哈达街,,31,28,34,9,6,98,,91,91,6,8,6,7,0.4,0.4
2025-04-05T1400,1746A,118.8788,42.2554,赤峰市,天义路,,35,35,26,3,8,95,,88,88,9,11,7,7,0.4,0.3
2025-04-05T1400,3058A,119.2658,42.0353,赤峰市,银河街,颗粒物(PM10),53,56,44,7,10,89,,84,84,6,6,13,13,0.2,0.2
2025-04-05T1400,3286A,118.9359,42.3147,赤峰市,桥北物流园区,,28,,23,9,8,87,,80,80,12,10,7,7,0.4,0.5
2025-04-05T1400,2521A,107.3476,22.4136,崇左市,市环保局江州分局,颗粒物(PM10),58,66,45,24,29,108,,91,91,8,7,8,6,0.6,0.6
2025-04-05T1400,4256A,107.3750,22.3736,崇左市,石景林东路7号,颗粒物(PM10),64,77,40,33,33,119,,96,96,12,10,8,5,0.8,0.7
2025-04-05T1400,2298A,118.3093,32.3153,滁州市,老年大学,颗粒物(PM10),65,79,89,25,46,133,,112,112,14,24,3,7,0.5,0.9
2025-04-05T1400,2299A,118.3244,32.2786,滁州市,人大宾馆,,,,93,,50,135,,114,114,,31,,13,0.4,0.8
2025-04-05T1400,3207A,118.3118,32.3038,滁州市,市政府原办公楼,颗粒物(PM10),68,86,86,27,50,136,,114,114,2,18,5,10,0.3,0.8
2025-04-05T1400,3331A,118.3267,32.2634,滁州市,图书馆,颗粒物(PM10),70,89,94,30,55,133,,111,111,9,22,7,12,0.3,0.7
2025-04-05T1400,2605A,101.5482,25.0441,楚雄彝族自治州,州环境监测站,细颗粒物(PM2.5),69,73,63,50,48,144,,87,87,9,19,8,9,0.6,0.6
2025-04-05T1400,2606A,101.538,25.0492,楚雄彝族自治州,市经济开发区,细颗粒物(PM2.5),68,69,65,49,46,140,,96,96,10,16,8,9,0.8,0.7
2025-04-05T1400,2548A,107.5277,31.2827,达州市,达州职业技术学院,颗粒物(PM10),63,76,62,38,34,106,,38,38,14,27,8,7,0.2,0.2
2025-04-05T1400,2549A,107.5086,31.2186,达州市,市环境监测站,细颗粒物(PM2.5),67,81,69,48,36,102,,34,34,29,41,7,6,0.7,0.8
2025-04-05T1400,2550A,107.4988,31.2132,达州市,凤凰小区,"颗粒物(PM10),细颗粒物(PM2.5)",64,78,65,46,37,103,,38,38,24,40,9,8,0.6,0.6
2025-04-05T1400,2551A,107.5082,31.1986,达州市,达县机关宾馆,,,80,67,45,35,99,,41,41,27,39,,5,,0.5
2025-04-05T1400,2552A,107.4644,31.2124,达州市,市政中心,颗粒物(PM10),68,86,74,36,35,105,,36,36,18,43,5,3,0.6,0.7
2025-04-05T1400,2614A,100.1542,25.7054,大理白族自治州,大理市环境监测站,细颗粒物(PM2.5),62,69,55,44,40,141,,131,131,10,10,9,8,1.0,0.9
2025-04-05T1400,2615A,100.2171,25.5811,大理白族自治州,大理古城,细颗粒物(PM2.5),64,51,43,46,37,125,,130,129,8,7,8,8,0.7,0.5
2025-04-05T1400,1109A,121.612,38.9741,大连市,甘井子,,34,33,47,8,26,108,,88,88,12,25,6,7,0.6,0.8
2025-04-05T1400,1110A,121.565,38.9511,大连市,周水子,,31,31,51,7,32,94,,75,75,10,25,8,9,0.2,0.4
2025-04-05T1400,1111A,121.5637,38.8845,大连市,星海三站,,31,25,45,9,29,97,,86,84,3,12,6,7,0.5,0.6
2025-04-05T1400,1112A,121.6302,38.9117,大连市,青泥洼桥,,33,17,44,8,26,104,,89,89,9,18,8,9,0.3,0.4
2025-04-05T1400,1113A,121.6251,38.8638,大连市,傅家庄,,29,25,50,9,25,91,,86,82,12,20,7,6,0.2,0.2
2025-04-05T1400,1114A,121.5213,38.8661,大连市,七贤岭,,30,17,44,6,26,94,,90,88,5,14,7,6,0.5,0.4
2025-04-05T1400,1115A,121.2529,38.8061,大连市,旅顺,,28,16,39,6,29,87,,89,78,13,23,7,8,0.3,0.4
2025-04-05T1400,1116A,121.7485,39.1311,大连市,金州,,,26,45,18,27,83,,91,80,14,20,7,9,,0.7
2025-04-05T1400,1117A,121.7811,39.0496,大连市,开发区,,47,47,47,15,24,85,,87,83,17,18,10,7,0.3,0.8
2025-04-05T1400,1118A,121.9762,39.0631,大连市,双D港,,33,32,52,8,27,105,,101,101,14,17,8,7,0.4,0.5
2025-04-05T1400,1789A,124.81117,46.03138,大庆市,大同区,,40,28,122,28,55,57,,79,64,14,19,5,6,0.5,0.6
2025-04-05T1400,1790A,125.129,46.533,大庆市,龙凤区,,41,41,100,27,60,67,,74,71,14,19,6,9,0.6,0.7
2025-04-05T1400,1791A,124.902,46.408,大庆市,红岗区,,,,90,29,59,,,82,,9,13,,7,0.5,0.6
2025-04-05T1400,1792A,125.153,46.586,大庆市,萨尔图区,,37,37,112,23,67,68,,71,68,17,23,7,10,0.4,0.6
2025-04-05T1400,1793A,124.9042,46.6215,大庆市,让胡路区,细颗粒物(PM2.5),52,36,98,36,77,64,,72,66,22,18,6,8,0.3,0.5
2025-04-05T1400,3481A,125.141,46.634,大庆市,萨区政府监测点,,31,31,114,17,58,77,,80,79,13,20,6,8,0.5,0.6
2025-04-05T1400,1721A,113.3819,40.1097,大同市,果树场,,30,20,45,10,15,95,,50,50,5,16,7,12,0.3,0.6
2025-04-05T1400,1723A,113.2994,40.0758,大同市,云冈宾馆,,33,18,42,3,13,104,,68,68,7,19,8,11,0.4,0.8
2025-04-05T1400,1724A,113.3444,40.0917,大同市,大同大学,,32,18,48,3,12,100,,61,61,3,17,15,21,0.3,0.5
2025-04-05T1400,1725A,113.2661,40.1269,大同市,安家小村,,32,21,51,3,17,100,,68,68,3,12,8,12,0.3,0.8
2025-04-05T1400,1726A,113.2711,40.0844,大同市,教育学院,,31,25,51,8,15,99,,66,66,7,16,6,12,0.3,1
2025-04-05T1400,3282A,113.3397,40.0597,大同市,大同市卫生学校,,31,26,42,12,14,97,,64,64,7,19,6,11,0.3,0.5
2025-04-05T1400,3565A,113.1367,40.1122,大同市,云冈站,,31,21,38,6,14,97,,71,71,6,11,9,16,0.2,0.3
2025-04-05T1400,3566A,113.1186,40.2556,大同市,图书馆,,29,18,28,3,9,91,,66,66,5,8,8,12,0.4,0.4
2025-04-05T1400,3567A,113.5931,40.0461,大同市,区一中,颗粒物(PM10),54,57,45,8,15,94,,64,64,12,12,28,26,0.4,0.4
2025-04-05T1400,4199A,113.2798,40.0997,大同市,魏都大道141号,,33,27,57,10,26,104,,69,69,6,18,11,15,0.4,1.1
2025-04-05T1400,2269A,124.1069,50.4097,大兴安岭地区,科技局,,,,75,15,48,73,,71,70,6,17,8,9,,0.7
2025-04-05T1400,3663A,124.1164,50.4278,大兴安岭地区,红旗社区,,23,,51,3,37,73,,71,71,7,18,5,6,0.4,0.6
2025-04-05T1400,1600A,124.3303,40.0625,丹东市,江湾东路,,32,19,52,6,27,102,,118,102,10,9,8,7,0.6,0.5
2025-04-05T1400,1601A,124.4256,40.1503,丹东市,临江后街,,31,9,35,3,23,98,,112,93,8,11,8,8,0.6,0.6
2025-04-05T1400,1602A,124.3933,40.1461,丹东市,元宝山,,29,11,31,10,26,90,,113,90,13,14,6,6,0.4,0.4
2025-04-05T1400,1603A,124.3633,40.1092,丹东市,民主桥,,36,36,40,8,22,96,,115,93,14,10,8,8,0.6,0.7
2025-04-05T1400,3541A,109.5726,19.5167,儋州市,第一中学子站,,33,33,36,22,21,85,,71,71,4,9,4,5,0.5,0.6
2025-04-05T1400,3542A,109.5567,19.5187,儋州市,东坡学校子站,,35,35,31,19,21,97,,82,82,3,8,5,4,0.5,0.5
2025-04-05T1400,2616A,98.5842,24.428,德宏傣族景颇族自治州,德宏州监测站,细颗粒物(PM2.5),143,150,100,109,70,38,,60,28,55,33,23,14,1.2,0.8
2025-04-05T1400,3677A,98.5881,24.4368,德宏傣族景颇族自治州,芒市人民政府综合楼,细颗粒物(PM2.5),149,180,122,114,68,47,,91,51,44,22,12,12,1.3,0.8
2025-04-05T1400,1901A,104.4239,31.1208,德阳市,东山公园,颗粒物(PM10),60,69,64,21,34,110,,83,83,10,17,3,3,0.5,0.7
2025-04-05T1400,1902A,104.3826,31.1317,德阳市,西小区,颗粒物(PM10),62,73,82,21,42,103,,68,68,16,32,3,5,0.5,0.6
2025-04-05T1400,1904A,104.3553,31.1091,德阳市,耐火材料厂,颗粒物(PM10),60,70,76,16,43,113,,80,80,8,27,4,6,0.3,0.5
2025-04-05T1400,3639A,104.4019,31.1244,德阳市,市教育局,颗粒物(PM10),52,53,65,16,37,113,,83,83,9,26,3,4,0.5,0.6
2025-04-05T1400,1622A,116.3032,37.4674,德州市,儿童乐园,,,,120,7,41,94,,78,78,6,24,6,11,0.3,0.8
2025-04-05T1400,1624A,116.2991,37.4451,德州市,监理站,,33,31,110,3,39,105,,88,88,6,20,10,15,0.2,0.4
2025-04-05T1400,3066A,116.2721,37.4379,德州市,九衢泉纯净水厂,,33,29,106,3,39,104,,83,83,11,28,6,11,0.4,0.6
2025-04-05T1400,3371A,116.3728,37.4403,德州市,开发区人民医院,,46,46,113,17,33,102,,84,84,8,18,10,9,0.5,0.6
2025-04-05T1400,3372A,116.3572,37.4094,德州市,太阳城中学,,36,36,115,24,43,103,,84,84,6,19,4,8,0.8,0.6
2025-04-05T1400,3511A,116.5652,37.3319,德州市,陵城艺术中心,,31,27,107,9,47,98,,80,80,9,23,6,11,0.4,0.6
2025-04-05T1400,2621A,99.7056,27.8317,迪庆藏族自治州,迪庆州站,,38,26,46,23,27,119,,124,122,10,10,8,8,0.5,0.5
2025-04-05T1400,3180A,99.7136,27.8094,迪庆藏族自治州,质量技术监督局,,40,28,39,15,26,128,,135,133,10,9,9,9,0.6,0.6
2025-04-05T1400,4257A,104.6092,35.5962,定西市,将台街,,,,148,,44,125,,57,57,,24,7,9,0.4,0.5
2025-04-05T1400,4309A,104.6159,35.5701,定西市,正龙路62号,颗粒物(PM10),85,119,160,18,44,126,,68,68,6,12,11,12,0.3,0.3
2025-04-05T1400,1389A,113.7547,23.0494,东莞市,莞城梨川,,26,12,34,9,18,81,,77,69,14,14,4,4,0.6,0.5
2025-04-05T1400,1390A,113.7944,23.0128,东莞市,东城石井,,24,19,32,10,16,74,,75,72,18,14,6,6,0.7,0.6
2025-04-05T1400,1391A,113.7383,22.9658,东莞市,南城西平,,23,15,32,11,16,72,,67,67,24,21,6,6,0.6,0.6
2025-04-05T1400,3319A,113.7338,23.0381,东莞市,万江金泰,,27,12,31,3,16,85,,85,74,9,10,4,5,0.7,0.7
2025-04-05T1400,3626A,113.7533,23.0202,东莞市,南城元岭,,24,14,34,10,17,76,,75,66,12,11,5,5,0.8,0.7
2025-04-05T1400,3627A,113.7875,23.0457,东莞市,东城主山,,25,11,31,7,14,80,,74,68,17,18,3,3,0.7,0.6
2025-04-05T1400,1666A,118.6614,37.4309,东营市,市环保局,,39,39,67,3,21,112,,91,91,9,19,6,7,0.3,0.4
2025-04-05T1400,3036A,118.6904,37.4338,东营市,开发区管委会,,37,37,71,9,27,109,,88,88,6,22,4,5,0.5,0.6
2025-04-05T1400,3365A,118.5719,37.565,东营市,垦利区民丰路,,34,31,61,3,24,108,,87,87,8,19,5,11,0.7,0.8
2025-04-05T1400,3498A,118.5055,37.8612,东营市,河口城区,,34,34,67,3,19,108,,92,92,12,18,3,7,0.6,0.8
2025-04-05T1400,3646A,118.4978,37.4623,东营市,胜利站,,39,39,80,7,29,108,,89,89,13,24,9,10,0.3,0.6
2025-04-05T1400,3734A,118.35,37.26,东营市,理想之城,,44,44,78,7,26,113,,91,91,12,20,8,9,0.3,0.5
2025-04-05T1400,1591A,110.0023,39.8129,鄂尔多斯市,综合楼,,33,27,93,3,13,105,,86,86,8,22,4,6,0.2,0.3
2025-04-05T1400,1592A,109.9486,39.8261,鄂尔多斯市,巴音孟克林场办事处,,34,31,84,3,16,106,,91,91,6,18,6,8,0.3,0.3
2025-04-05T1400,1593A,109.7736,39.5986,鄂尔多斯市,康泽苑,,34,31,60,9,9,106,,75,75,4,9,4,3,0.2,0.2
2025-04-05T1400,1594A,109.8119,39.5989,鄂尔多斯市,华泰汽车城,,33,31,63,9,10,103,,67,67,5,15,4,4,0.3,0.3
2025-04-05T1400,1595A,109.9734,39.7884,鄂尔多斯市,奥林花园,,33,31,97,9,14,104,,83,83,9,24,10,8,0.3,0.4
2025-04-05T1400,2436A,114.8938,30.3994,鄂州市,市政府,颗粒物(PM10),69,87,113,31,70,117,,66,66,6,39,7,12,0.8,1.3
2025-04-05T1400,2437A,114.8989,30.3714,鄂州市,赵家坝,颗粒物(PM10),74,97,117,33,67,104,,60,60,6,35,6,8,0.6,1.1
2025-04-05T1400,3654A,114.8094,30.4089,鄂州市,精准医疗中心,颗粒物(PM10),67,84,117,29,66,148,,91,91,2,36,4,8,0.3,0.7
2025-04-05T1400,2454A,109.4978,30.2981,恩施土家族苗族自治州,湖北民院,颗粒物(PM10),56,62,55,35,41,96,,47,47,14,24,1,1,0,0.1
2025-04-05T1400,2455A,109.4707,30.2798,恩施土家族苗族自治州,州电力总公司,颗粒物(PM10),53,55,61,31,40,79,,29,29,12,24,5,4,0.3,0.4
2025-04-05T1400,3549A,109.5061,30.3772,恩施土家族苗族自治州,龙凤新区,颗粒物(PM10),52,54,46,35,31,89,,32,32,16,13,6,6,0.5,0.5
2025-04-05T1400,2499A,108.3411,21.6158,防城港市,沙万,细颗粒物(PM2.5),105,116,46,79,28,107,,87,87,15,23,4,3,0.6,0.4
2025-04-05T1400,2500A,108.3514,21.7731,防城港市,防城档案局,细颗粒物(PM2.5),109,121,54,82,28,106,,75,75,12,18,6,3,0.8,0.5
2025-04-05T1400,2501A,108.3506,21.6414,防城港市,大海花园,细颗粒物(PM2.5),97,111,46,72,23,112,,92,92,11,16,6,4,0.9,0.7
2025-04-05T1400,1371A,113.1294,23.0067,佛山市,湾梁,,24,24,43,16,21,52,,61,50,34,28,6,6,0.7,0.6
2025-04-05T1400,1372A,113.1083,23.0478,佛山市,华材职中,,31,31,40,21,25,51,,63,43,41,31,6,6,0.6,0.5
2025-04-05T1400,1373A,113.144,23.0453,佛山市,南海气象局,,30,21,42,21,32,48,,50,40,25,20,5,5,0.7,0.5
2025-04-05T1400,1374A,113.2881,22.8094,佛山市,顺德苏岗,,19,18,30,12,20,59,,50,47,30,22,5,5,0.7,0.6
2025-04-05T1400,1376A,112.8383,22.8678,佛山市,高明孔堂,细颗粒物(PM2.5),59,52,48,42,33,50,,62,56,33,18,4,5,0.7,0.6
2025-04-05T1400,1377A,112.8836,23.1588,佛山市,三水监测站,细颗粒物(PM2.5),58,56,59,41,44,83,,59,57,30,33,2,2,0.7,0.7
2025-04-05T1400,1378A,112.867,23.185,佛山市,三水云东海,细颗粒物(PM2.5),64,71,62,46,54,75,,40,40,30,29,2,2,0.6,0.7
2025-04-05T1400,3625A,113.2544,22.7642,佛山市,容桂街道办,,20,,25,12,22,61,,51,48,30,25,5,6,0.7,0.7
2025-04-05T1400,1280A,119.3903,26.0543,福州市,鼓山,,,,35,,23,,,120,,,2,,2,,0.5
2025-04-05T1400,1282A,119.2681,26.0504,福州市,师大,,45,31,43,31,29,90,,88,86,11,11,3,4,0.4,0.3
2025-04-05T1400,1283A,119.2984,26.1028,福州市,五四北路,,33,,40,23,26,93,,84,72,14,13,4,4,0.6,0.6
2025-04-05T1400,1284A,119.2648,26.0768,福州市,杨桥西路,,36,30,44,25,28,97,,83,83,12,15,4,4,0.5,0.5
2025-04-05T1400,1285A,119.317,26.0746,福州市,紫阳,,39,33,42,27,27,78,,97,71,27,17,5,5,0.5,0.4
2025-04-05T1400,3048A,119.5799,26.0936,福州市,九龙,,36,26,34,25,24,103,,98,88,16,11,4,4,0.4,0.4
2025-04-05T1400,3526A,119.5189,25.9664,福州市,吴航,,43,38,42,30,25,78,,84,62,25,14,4,4,0.6,0.5
2025-04-05T1400,1755A,123.7977,41.8491,抚顺市,望花区,颗粒物(PM10),54,57,46,27,43,94,,85,78,17,19,12,14,0.6,0.7
2025-04-05T1400,1756A,123.9161,41.8822,抚顺市,顺城区,,36,36,48,22,33,93,,67,67,14,20,8,8,0.7,0.8
2025-04-05T1400,1757A,124.0436,41.8611,抚顺市,东洲区,,30,27,39,18,30,93,,71,71,13,19,6,6,0.7,0.7
2025-04-05T1400,1758A,123.9247,41.8642,抚顺市,新抚区,,37,37,43,17,26,86,,60,60,12,19,5,6,0.8,0.9
2025-04-05T1400,1759A,124.0972,41.8961,抚顺市,大伙房水库,,32,24,32,20,27,102,,77,77,11,13,7,7,0.6,0.5
2025-04-05T1400,1760A,123.7086,41.8391,抚顺市,沈抚新城,,42,38,45,29,31,94,,80,80,17,19,11,11,0.7,0.7
2025-04-05T1400,2376A,116.2127,28.0814,抚州市,桐源党溪,颗粒物(PM10),55,60,58,27,32,144,,81,81,2,4,10,8,0.6,0.6
2025-04-05T1400,2377A,116.3544,27.9831,抚州市,市站,颗粒物(PM10),54,58,61,26,30,111,,77,77,8,15,15,10,0.8,0.8
2025-04-05T1400,2378A,116.3565,27.963,抚州市,血防站,颗粒物(PM10),55,59,62,25,28,118,,76,76,6,11,11,5,0.9,0.8
2025-04-05T1400,2379A,116.3564,28.0007,抚州市,采茶剧团,颗粒物(PM10),53,55,56,30,31,100,,70,70,4,9,5,3,1.6,1.4
2025-04-05T1400,2380A,116.385,27.9647,抚州市,医学分院,颗粒物(PM10),52,53,56,23,27,92,,59,59,6,12,12,6,2.0,1.6
2025-04-05T1400,2207A,121.6094,41.998,阜新市,工业园区,,36,36,45,3,18,89,,70,70,8,19,7,11,0.3,0.5
2025-04-05T1400,2208A,121.6697,42.0279,阜新市,长青街,,30,30,36,3,25,90,,72,72,7,15,5,7,0.4,0.5
2025-04-05T1400,2209A,121.6673,42.0705,阜新市,农业园区,,32,32,38,3,20,84,,70,70,6,11,6,8,0.4,0.5
2025-04-05T1400,2210A,121.6717,42.0224,阜新市,东苑,,35,35,44,7,25,85,,67,67,8,18,5,10,0.4,0.5
2025-04-05T1400,2211A,121.6506,42.0498,阜新市,玉龙新城,,31,31,40,3,24,88,,66,66,3,20,7,9,0.4,0.6
2025-04-05T1400,2301A,115.8277,32.8929,阜阳市,市监测站,颗粒物(PM10),68,86,102,36,60,118,,85,85,10,19,8,11,0.4,0.7
2025-04-05T1400,2303A,115.8554,32.8605,阜阳市,开发区,颗粒物(PM10),97,144,127,22,53,123,,88,88,8,17,7,10,0.4,0.5
2025-04-05T1400,2875A,115.784,32.8892,阜阳市,阜阳职业技术学院,颗粒物(PM10),86,121,111,24,58,122,,85,85,10,19,7,9,0.2,0.4
2025-04-05T1400,3468A,115.7901,32.8613,阜阳市,市规划展馆,颗粒物(PM10),75,99,113,29,61,128,,93,93,8,15,7,10,0.3,0.6
2025-04-05T1400,3469A,115.836,32.9183,阜阳市,枣园社区,颗粒物(PM10),75,100,117,25,62,130,,92,92,8,17,6,9,0.4,0.6
2025-04-05T1400,2669A,102.9099,34.9841,甘南藏族自治州,州政府,颗粒物(PM10),65,80,152,39,44,107,,62,62,2,23,8,9,0.3,0.5
2025-04-05T1400,3380A,102.8914,34.9617,甘南藏族自治州,甘肃民族师范学院,颗粒物(PM10),58,66,117,33,49,105,,56,56,1,29,8,10,0.4,0.5
2025-04-05T1400,2570A,101.9603,30.0475,甘孜藏族自治州,水桥子,,27,6,9,3,7,84,,85,74,11,8,3,3,0.2,0.1
2025-04-05T1400,3065A,101.9533,29.9972,甘孜藏族自治州,州环保局,,28,13,8,3,6,89,,82,81,10,9,4,4,0.2,0.2
2025-04-05T1400,3414A,115.8347,28.932,赣江新区,桑海产业园,颗粒物(PM10),63,75,91,20,52,124,,80,80,9,32,8,13,0.4,0.7
2025-04-05T1400,2362A,114.9017,25.9149,赣州市,通天岩,颗粒物(PM10),65,79,58,17,12,46,,30,30,22,12,16,13,1.1,1
2025-04-05T1400,2363A,114.9367,25.8664,赣州市,地委,颗粒物(PM10),51,51,60,32,36,39,,26,25,21,25,13,16,1.0,1.1
2025-04-05T1400,2364A,114.9461,25.8481,赣州市,气象台,颗粒物(PM10),56,62,69,30,32,54,,34,32,21,32,14,11,0.5,0.5
2025-04-05T1400,2365A,114.9322,25.8333,赣州市,市图书馆,,,62,68,43,38,36,,39,,,32,9,6,1.1,0.9
2025-04-05T1400,2366A,114.8905,25.8471,赣州市,华坚鞋城,颗粒物(PM10),56,61,69,29,38,47,,33,31,25,33,13,12,0.5,0.6
2025-04-05T1400,3109A,115.0093,25.8613,赣州市,赣县区卫计委,,45,37,61,31,36,50,,35,32,11,24,6,6,0.3,0.6
2025-04-05T1400,2683A,106.2319,36.1417,固原市,马园,颗粒物(PM10),126,201,153,31,33,109,,69,69,8,31,5,5,0.2,0.5
2025-04-05T1400,2684A,106.2792,36.0022,固原市,监测站,颗粒物(PM10),109,168,130,41,35,117,,80,80,5,19,6,7,0.2,0.5
2025-04-05T1400,2685A,106.2375,36.0211,固原市,新区,颗粒物(PM10),112,174,135,37,34,114,,79,79,7,36,6,6,0.3,0.5
2025-04-05T1400,3522A,106.2177,35.9959,固原市,原州区十五小,颗粒物(PM10),110,169,148,45,35,112,,98,98,5,13,7,7,0.2,0.3
2025-04-05T1400,2543A,106.6308,30.5278,广安市,小平旧居,,,,,,,,,,,,,,,,
2025-04-05T1400,2544A,106.6303,30.4576,广安市,市委,细颗粒物(PM2.5),74,62,78,54,58,106,,61,61,10,23,7,7,0.4,0.6
2025-04-05T1400,2545A,106.6271,30.4663,广安市,友谊中学,"颗粒物(PM10),细颗粒物(PM2.5)",57,64,76,40,51,110,,64,64,13,24,4,4,0.6,0.7
2025-04-05T1400,2547A,106.6388,30.4551,广安市,广电花园,细颗粒物(PM2.5),68,63,75,49,57,101,,56,56,11,26,10,9,0.5,0.6
2025-04-05T1400,2902A,106.6351,30.4865,广安市,北辰小学,细颗粒物(PM2.5),69,66,74,50,52,109,,50,50,14,22,9,9,0.7,0.8
2025-04-05T1400,2523A,105.8945,32.4535,广元市,黑石坡,颗粒物(PM10),64,78,65,24,31,106,,67,58,9,13,3,4,0.4,0.5
2025-04-05T1400,2524A,105.821,32.4444,广元市,老城,颗粒物(PM10),52,54,72,31,34,109,,42,42,6,43,1,2,0.7,0.9
2025-04-05T1400,2526A,105.8628,32.4287,广元市,监测站,颗粒物(PM10),54,57,49,28,33,115,,56,56,7,18,7,8,0.5,0.6
2025-04-05T1400,3617A,105.8047,32.4166,广元市,经开区,颗粒物(PM10),55,59,78,29,44,97,,47,47,8,39,5,11,0.7,0.9
2025-04-05T1400,1345A,113.2347,23.1423,广州市,广雅中学,,25,24,41,17,23,38,,58,43,34,33,3,4,0.5,0.4
2025-04-05T1400,1346A,113.2612,23.105,广州市,市五中,,19,19,39,13,24,42,,66,49,25,23,2,2,0.9,0.8
2025-04-05T1400,1348A,113.3478,23.0916,广州市,广东商学院,,14,11,39,8,24,37,,48,41,27,26,4,4,0.5,0.5
2025-04-05T1400,1349A,113.4332,23.1047,广州市,市八十六中,,14,10,36,6,17,42,,46,30,23,37,3,4,0.8,0.8
2025-04-05T1400,1350A,113.3505,22.9483,广州市,番禺中学,,22,16,35,12,26,68,,61,61,28,26,3,4,0.7,0.5
2025-04-05T1400,1351A,113.2146,23.3916,广州市,花都师范,,42,37,64,29,37,85,,68,65,17,28,4,5,0.6,0.6
2025-04-05T1400,1352A,113.2597,23.1331,广州市,市监测站,,,15,40,14,25,36,,56,39,29,32,4,4,,0.6
2025-04-05T1400,1353A,113.5618,23.312,广州市,九龙镇镇龙,,21,,37,8,24,65,,70,65,10,16,4,5,0.4,0.5
2025-04-05T1400,1354A,113.2765,23.1544,广州市,麓湖,,16,13,36,11,22,42,,46,35,22,25,2,3,0.5,0.5
2025-04-05T1400,1355A,113.443,23.3035,广州市,帽峰山森林公园,,18,9,34,8,12,57,,83,57,15,15,3,5,0.4,0.4
2025-04-05T1400,2846A,113.3221,23.1322,广州市,体育西,,23,17,42,16,27,45,,60,48,20,22,3,4,0.6,0.6
2025-04-05T1400,3298A,113.5717,23.5491,广州市,从化街口,,49,41,47,34,29,60,,91,66,18,15,7,8,0.8,0.7
2025-04-05T1400,3299A,113.3472,23.3692,广州市,白云竹料,,36,33,57,25,31,59,,92,70,21,20,7,8,0.6,0.6
2025-04-05T1400,3300A,113.2981,23.237,广州市,白云嘉禾,,26,22,53,18,33,47,,69,40,28,35,4,4,0.6,0.6
2025-04-05T1400,3301A,113.4256,23.1716,广州市,黄埔科学城,,20,12,43,8,24,64,,68,55,15,24,5,7,0.5,0.5
2025-04-05T1400,3302A,113.3942,23.0483,广州市,番禺大学城,,28,28,61,8,22,49,,59,51,34,32,9,9,0.5,0.4
2025-04-05T1400,3303A,113.4922,22.8168,广州市,南沙黄阁,,22,12,36,7,23,68,,60,57,25,27,4,4,0.7,0.7
2025-04-05T1400,3304A,113.5342,22.7896,广州市,南沙街,,21,15,35,10,20,67,,60,59,27,28,4,4,0.6,0.6
2025-04-05T1400,3443A,113.2902,23.5544,广州市,花都梯面,,40,31,57,28,34,91,,86,81,12,19,5,5,0.6,0.6
2025-04-05T1400,3445A,113.7858,23.7478,广州市,从化良口,,18,11,33,9,23,57,,78,64,6,11,6,6,0.6,0.6
2025-04-05T1400,3446A,113.8051,23.2614,广州市,增城荔城,,23,12,35,10,20,73,,82,70,11,12,7,8,0.4,0.4
2025-04-05T1400,2505A,109.568,23.1478,贵港市,德智高中,,,,,,,,,,,,,,,,
2025-04-05T1400,2506A,109.6047,23.0666,贵港市,江南子站,细颗粒物(PM2.5),137,153,176,104,138,110,,60,51,24,30,19,16,1.0,1.2
2025-04-05T1400,2508A,109.5669,23.1065,贵港市,荷城子站,细颗粒物(PM2.5),175,,142,132,112,91,,63,63,30,27,15,16,0.8,0.8
2025-04-05T1400,3405A,109.5886,23.1172,贵港市,新世纪学校,细颗粒物(PM2.5),193,200,156,145,118,100,,68,68,33,27,15,14,1.3,1.1
2025-04-05T1400,4260A,109.5933,23.0951,贵港市,中山路155-3号,细颗粒物(PM2.5),168,203,148,127,115,99,,64,64,32,29,20,19,1.2,1
2025-04-05T1400,1439A,106.6899,26.5998,贵阳市,马鞍山,,45,44,60,31,34,95,,93,62,7,10,6,6,0.5,0.6
2025-04-05T1400,1441A,106.6243,26.6266,贵阳市,鉴湖路,颗粒物(PM10),54,58,71,31,39,100,,94,76,7,9,9,10,0.7,0.5
2025-04-05T1400,1442A,106.7487,26.6343,贵阳市,燕子冲,细颗粒物(PM2.5),64,58,68,46,47,100,,106,81,12,14,4,5,0.4,0.5
2025-04-05T1400,1443A,106.6555,26.4365,贵阳市,碧云窝,颗粒物(PM10),56,61,80,31,40,109,,110,90,10,14,8,9,0.4,0.5
2025-04-05T1400,1445A,106.7109,26.6027,贵阳市,红边门,颗粒物(PM10),54,58,72,34,44,101,,108,82,8,13,6,7,0.5,0.6
2025-04-05T1400,1446A,106.7164,26.5699,贵阳市,新华路,颗粒物(PM10),54,58,72,29,42,102,,109,88,9,12,8,13,0.5,0.4
2025-04-05T1400,1447A,106.674,26.5424,贵阳市,太慈桥,颗粒物(PM10),53,56,71,34,41,105,,107,82,13,17,6,8,0.4,0.5
2025-04-05T1400,1552A,106.805,26.3003,贵阳市,桐木岭,颗粒物(PM10),59,68,82,41,49,108,,121,104,6,10,2,7,0.6,0.6
2025-04-05T1400,4230A,106.6882,26.5695,贵阳市,花果园大街66号,细颗粒物(PM2.5),53,48,63,37,48,93,,103,80,14,16,5,6,0.4,0.5
2025-04-05T1400,4231A,106.6873,26.5169,贵阳市,漓江路57号,颗粒物(PM10),53,56,68,34,41,102,,112,88,11,14,10,12,0.3,0.4
2025-04-05T1400,1862A,110.4144,25.3167,桂林市,电子科大尧山校区,,,,,,,,,,,,,,,,
2025-04-05T1400,1864A,110.3089,25.2708,桂林市,龙隐路小学,细颗粒物(PM2.5),89,111,144,66,118,122,,61,61,13,29,19,52,1.0,1.2
2025-04-05T1400,1865A,110.2869,25.2178,桂林市,八中,细颗粒物(PM2.5),95,114,165,71,124,120,,51,51,17,38,20,41,0.9,1.1
2025-04-05T1400,3531A,110.296,25.1253,桂林市,旅游学院,细颗粒物(PM2.5),94,105,153,70,123,110,,46,46,14,30,22,22,0.7,0.9
2025-04-05T1400,4222A,110.1835,25.2444,桂林市,环湖路276号,细颗粒物(PM2.5),83,92,170,61,133,107,,40,40,21,45,17,44,0.5,0.9
2025-04-05T1400,4301A,110.2803,25.2773,桂林市,信义路13号,细颗粒物(PM2.5),92,115,153,68,115,125,,60,60,15,41,12,38,0.9,1.3
2025-04-05T1400,2674A,100.2561,34.4714,果洛藏族自治州,玛沁县大武镇,颗粒物(PM10),63,75,66,25,21,103,,73,73,2,3,12,13,0.4,0.4
2025-04-05T1400,1129A,126.5422,45.755,哈尔滨市,岭北,,26,13,50,13,42,82,,99,91,14,18,18,15,0.9,0.8
2025-04-05T1400,1130A,126.561,45.8167,哈尔滨市,松北商大,,29,,48,20,41,75,,95,86,13,16,7,8,0.7,0.7
2025-04-05T1400,1131A,126.979,45.5419,哈尔滨市,阿城会宁,,,,53,,42,82,,99,91,7,15,6,11,0.6,0.6
2025-04-05T1400,1132A,126.599,45.7222,哈尔滨市,南岗学府路,,25,25,68,12,38,73,,95,84,20,20,7,8,0.6,0.7
2025-04-05T1400,1133A,126.689,45.7733,哈尔滨市,太平宏伟公园,,25,,52,12,40,78,,97,89,12,17,4,6,0.8,0.8
2025-04-05T1400,1134A,126.635,45.7667,哈尔滨市,道外承德广场,,28,,28,19,46,71,,92,81,22,26,7,9,0.3,0.4
2025-04-05T1400,1135A,126.685,45.7319,哈尔滨市,香坊红旗大街,,23,12,56,11,44,73,,91,84,19,21,10,12,0.5,0.6
2025-04-05T1400,1136A,126.6411,45.7258,哈尔滨市,动力和平路,,23,20,57,11,46,73,,89,82,15,19,10,11,0.5,0.6
2025-04-05T1400,1137A,126.593,45.7478,哈尔滨市,道里建国路,,23,19,56,16,46,70,,93,79,23,23,11,14,0.9,0.8
2025-04-05T1400,1138A,126.615,45.61,哈尔滨市,平房东轻厂,,23,,53,15,40,73,,91,84,4,10,8,9,0.6,0.7
2025-04-05T1400,1139A,126.595,45.9855,哈尔滨市,呼兰师专,,22,14,60,12,50,69,,86,79,24,27,6,8,0.6,0.6
2025-04-05T1400,1140A,126.6206,45.6842,哈尔滨市,省农科院,,28,19,67,19,48,70,,83,74,18,27,9,10,0.7,0.7
2025-04-05T1400,2688A,93.5128,42.8172,哈密市,地区监测站,颗粒物(PM10),53,56,73,22,23,99,,58,58,6,32,6,7,0.1,0.6
2025-04-05T1400,2689A,93.4961,42.8328,哈密市,哈密师范学校,,42,42,68,23,26,104,,58,58,8,41,6,8,0,0.4
2025-04-05T1400,2671A,100.9048,36.9639,海北藏族自治州,海晏县西海镇,颗粒物(PM10),69,88,99,38,31,121,,85,85,2,6,14,10,0.5,0.5
2025-04-05T1400,3867A,102.0738,36.5056,海东市,平安区公安北苑,颗粒物(PM10),88,125,171,52,68,118,,74,74,4,9,15,14,0.6,0.5
2025-04-05T1400,1409A,110.576,19.9507,海口市,东寨港,细颗粒物(PM2.5),62,70,37,44,26,39,,28,28,7,6,6,6,0.6,0.5
2025-04-05T1400,1410A,110.3232,20.0574,海口市,海南大学,,44,44,44,27,20,93,,93,93,7,10,1,2,0.4,0.4
2025-04-05T1400,1411A,110.283,20.0053,海口市,秀英海南医院,,40,40,36,27,22,97,,93,93,8,8,4,4,0.3,0.3
2025-04-05T1400,1412A,110.338,19.9969,海口市,海南师范大学,颗粒物(PM10),51,51,39,27,19,98,,96,96,3,4,3,3,0.4,0.4
2025-04-05T1400,1413A,110.33,20.0356,海口市,龙华路环保局宿舍,,48,48,39,29,20,95,,94,94,4,5,4,4,0.4,0.4
2025-04-05T1400,3539A,110.5111,19.9736,海口市,桂林洋子站,颗粒物(PM10),59,68,46,36,20,95,,91,91,8,7,4,4,0.3,0.3
2025-04-05T1400,2673A,100.6188,36.2866,海南藏族自治州,共和县恰卜恰镇,颗粒物(PM10),87,124,87,50,41,127,,90,90,3,13,15,15,0.4,0.5
2025-04-05T1400,2676A,97.3731,37.3753,海西蒙古族藏族自治州,德令哈市,颗粒物(PM10),55,59,56,22,17,107,,87,85,2,5,11,11,0.3,0.5
2025-04-05T1400,1048A,114.5302,36.6116,邯郸市,东污水处理厂,,30,26,93,3,25,96,,75,75,11,27,3,6,0.4,0.5
2025-04-05T1400,1049A,114.4918,36.5713,邯郸市,矿院,,25,13,82,3,28,79,,57,57,4,21,3,5,0.3,0.5
2025-04-05T1400,1050A,114.484,36.6133,邯郸市,丛台公园,,29,23,95,3,32,92,,63,63,7,24,5,9,0.3,0.5
2025-04-05T1400,3458A,114.7895,36.5593,邯郸市,香泉濮院小区,,33,18,116,3,34,105,,84,84,2,22,3,7,0.1,0.5
2025-04-05T1400,3579A,114.50634,36.77178,邯郸市,永年区实验高中,,40,40,108,8,37,92,,67,67,6,23,4,8,0.7,0.9
2025-04-05T1400,3580A,114.20016,36.44293,邯郸市,峰峰矿区临水派出所,,42,42,115,13,36,106,,81,81,10,19,12,17,0.6,0.9
2025-04-05T1400,2634A,106.9893,33.1842,汉中市,汉川机床厂子校,颗粒物(PM10),107,164,124,47,40,124,,84,84,3,5,9,8,0.5,0.4
2025-04-05T1400,2635A,107.0154,33.0706,汉中市,市监测站,颗粒物(PM10),113,175,109,45,42,124,,73,73,10,27,6,7,0.5,0.7
2025-04-05T1400,2636A,107.0089,33.1138,汉中市,鑫源开发区,颗粒物(PM10),113,176,121,43,41,121,,74,74,8,22,5,8,0.4,0.5
2025-04-05T1400,2637A,107.007,33.0323,汉中市,南郑大河坎水厂,颗粒物(PM10),110,170,93,41,36,127,,68,68,7,23,6,5,0.5,0.6
2025-04-05T1400,1223A,120.2072,30.2111,杭州市,滨江,,43,43,76,15,33,136,,91,91,13,57,7,8,0.1,0.4
2025-04-05T1400,1224A,120.0633,30.2747,杭州市,西溪,,42,38,79,18,44,134,,95,95,10,39,7,7,0.2,0.4
2025-04-05T1400,1226A,120.3417,30.3150,杭州市,下沙,,45,45,90,13,47,129,,91,91,14,62,7,7,0.4,0.6
2025-04-05T1400,1227A,120.1269,30.2456,杭州市,卧龙桥,,42,37,64,20,38,134,,94,94,11,35,6,7,0.2,0.5
2025-04-05T1400,1228A,120.1903,30.2692,杭州市,浙江农大,,41,32,76,15,38,130,,88,88,14,46,4,6,0.3,0.5
2025-04-05T1400,1230A,120.1197,30.3119,杭州市,和睦小学,,43,38,86,23,42,137,,101,101,9,43,7,8,0.5,0.7
2025-04-05T1400,1231A,120.3019,30.4183,杭州市,临平镇,颗粒物(PM10),53,56,80,14,41,141,,114,114,10,43,6,6,0.4,0.6
2025-04-05T1400,1232A,120.2753,30.1839,杭州市,城厢镇,,44,43,90,19,47,139,,99,99,16,57,8,10,0.3,0.7
2025-04-05T1400,1233A,120.0883,30.1808,杭州市,云栖,,43,38,64,15,34,137,,91,91,16,48,9,10,0.5,0.7
2025-04-05T1400,3557A,119.9464,30.0494,杭州市,镇二中,,39,33,70,18,45,122,,83,83,13,47,6,9,0.6,0.9
2025-04-05T1400,3558A,119.7183,30.2367,杭州市,市府大楼,,42,35,87,18,49,132,,99,99,12,35,8,9,0.3,0.6
2025-04-05T1400,3656A,120.1556,30.2864,杭州市,消防大队,,45,41,84,15,47,142,,112,112,11,45,4,4,0.4,0.7
2025-04-05T1400,1270A,117.1959,31.7848,合肥市,明珠广场,颗粒物(PM10),81,112,90,34,51,140,,105,105,10,27,5,6,0.3,0.5
2025-04-05T1400,1271A,117.3072,31.8764,合肥市,三里街,颗粒物(PM10),78,105,99,27,50,127,,100,100,10,30,7,8,0.6,0.9
2025-04-05T1400,1272A,117.2588,31.8707,合肥市,琥珀山庄,颗粒物(PM10),79,107,96,27,50,128,,103,103,9,30,4,4,0.5,0.8
2025-04-05T1400,1273A,117.1604,31.9052,合肥市,董铺水库,颗粒物(PM10),97,144,92,64,43,133,,112,112,1,8,3,4,0.2,0.5
2025-04-05T1400,1274A,117.25,31.8571,合肥市,长江中路,颗粒物(PM10),86,122,96,30,51,132,,106,106,8,24,9,10,0.5,0.7
2025-04-05T1400,1275A,117.266,31.9436,合肥市,庐阳区,颗粒物(PM10),81,112,92,24,45,129,,106,106,8,22,6,7,0.3,0.5
2025-04-05T1400,1276A,117.3453,31.8616,合肥市,瑶海区,颗粒物(PM10),82,114,100,44,53,124,,100,100,8,26,7,8,0.4,0.7
2025-04-05T1400,1277A,117.3027,31.7964,合肥市,包河区,颗粒物(PM10),79,107,89,24,44,130,,108,108,9,33,6,7,0.3,0.5
2025-04-05T1400,1278A,117.2776,31.7385,合肥市,滨湖新区,颗粒物(PM10),86,122,97,36,52,134,,105,105,9,29,6,7,0.4,0.6
2025-04-05T1400,1279A,117.1318,31.8403,合肥市,高新区,颗粒物(PM10),86,122,93,33,45,133,,104,104,10,23,4,4,0.3,0.5
2025-04-05T1400,3464A,117.3803,31.9147,合肥市,高教基地,颗粒物(PM10),89,127,93,28,43,131,,94,94,15,27,5,6,0.3,0.5
2025-04-05T1400,3614A,79.924,37.0877,和田地区,地区环保局,颗粒物(PM10),250,385,415,92,96,80,,54,54,9,16,2,2,0.3,0.3
2025-04-05T1400,3615A,79.9131,37.113,和田地区,市环保局,颗粒物(PM10),212,358,377,76,80,81,,49,49,2,18,1,2,0.1,0.2
2025-04-05T1400,2516A,108.2011,24.715,河池市,东仁乐园,颗粒物(PM10),69,87,65,41,39,117,,79,79,9,15,13,11,0.9,0.9
2025-04-05T1400,2517A,108.0497,24.6947,河池市,市环保站,颗粒物(PM10),62,74,56,42,38,115,,82,82,6,11,9,9,0.5,0.6
2025-04-05T1400,2518A,108.0983,24.6989,河池市,市疾控中心,细颗粒物(PM2.5),60,60,55,43,44,121,,75,75,9,17,12,11,0.7,0.7
2025-04-05T1400,1696A,114.6778,23.7569,河源市,源西,,23,,30,16,20,65,,74,62,8,12,3,4,0.6,0.6
2025-04-05T1400,1697A,114.6944,23.7586,河源市,东埔,,24,18,38,15,22,74,,85,73,12,15,3,4,0.6,0.6
2025-04-05T1400,1698A,114.6892,23.7233,河源市,老城,,26,18,30,18,18,72,,85,72,10,13,3,4,0.5,0.4
2025-04-05T1400,1718A,115.4208,35.2464,菏泽市,气象局,颗粒物(PM10),56,62,145,13,72,108,,83,83,8,20,2,6,0.3,0.5
2025-04-05T1400,3374A,115.5564,35.0891,菏泽市,定陶老年大学,,48,48,117,7,55,106,,81,81,12,22,4,7,0.1,0.5
2025-04-05T1400,4184A,115.4797,35.24401,菏泽市,永昌路1号,颗粒物(PM10),52,53,134,14,67,98,,77,77,8,20,4,12,0.2,0.4
2025-04-05T1400,4193A,115.4715,35.2800,菏泽市,长城路999号,,,56,140,3,65,105,,80,80,12,25,,18,0.2,0.5
2025-04-05T1400,2514A,111.5264,24.4172,贺州市,环保小区,细颗粒物(PM2.5),119,106,137,90,107,128,,58,58,15,27,12,13,0.7,0.9
2025-04-05T1400,2515A,111.5608,24.4078,贺州市,政协大楼,,,,119,,89,109,,42,42,,28,,13,0.7,0.7
2025-04-05T1400,3534A,111.4744,24.4553,贺州市,西湾,细颗粒物(PM2.5),123,133,143,93,105,112,,49,49,16,31,10,13,0.7,0.9
2025-04-05T1400,2385A,114.17,35.9019,鹤壁市,市监测站,颗粒物(PM10),56,61,120,3,44,102,,72,72,8,24,6,9,0.5,0.8
2025-04-05T1400,2386A,114.2956,35.7511,鹤壁市,市交警支队,,33,31,119,3,52,104,,74,74,12,31,12,12,0.6,1
2025-04-05T1400,2387A,114.2878,35.7306,鹤壁市,迎宾馆,颗粒物(PM10),60,70,134,24,43,104,,79,79,6,22,4,7,0.5,0.8
2025-04-05T1400,3474A,114.2617,35.6822,鹤壁市,大新区,,45,45,122,9,47,99,,80,80,9,24,7,10,0.3,0.7
2025-04-05T1400,3596A,114.1572,35.9603,鹤壁市,南山宾馆,,46,46,126,11,47,104,,79,79,7,23,5,10,0.4,0.8
2025-04-05T1400,2244A,130.2537,47.3416,鹤岗市,哈啤分公司,,40,40,34,25,25,92,,78,78,8,11,15,15,0.3,0.4
2025-04-05T1400,2245A,130.2684,47.3086,鹤岗市,斯达机电,,40,40,40,20,28,100,,77,77,7,12,15,16,0.4,0.5
2025-04-05T1400,2246A,130.3114,47.3388,鹤岗市,东山纸板厂,,49,43,76,34,34,87,,71,71,10,20,14,15,0.5,1.1
2025-04-05T1400,2247A,130.1097,47.3382,鹤岗市,五号水库,,,,,,,,,,,,,,,,
2025-04-05T1400,2263A,127.4833,50.2524,黑河市,交通局,颗粒物(PM10),52,53,48,24,25,77,,58,58,18,15,14,8,0.5,0.5
2025-04-05T1400,2264A,127.5144,50.2341,黑河市,环保局,,48,48,40,28,26,89,,75,75,12,10,6,5,0.6,0.5
2025-04-05T1400,2265A,127.5291,50.2472,黑河市,大黑河岛,颗粒物(PM10),54,57,42,23,22,64,,58,58,14,12,2,2,0.4,0.4
2025-04-05T1400,1074A,115.6838,37.7541,衡水市,电机北厂,,35,18,83,11,28,109,,83,83,7,15,3,5,0.2,0.3
2025-04-05T1400,1075A,115.6303,37.7316,衡水市,市监测站,,35,21,81,3,24,111,,82,82,6,15,9,10,0.2,0.3
2025-04-05T1400,3188A,115.6683,37.7217,衡水市,市城管局,,34,20,81,6,29,108,,84,84,8,16,6,8,0.3,0.3
2025-04-05T1400,3459A,115.5989,37.5491,衡水市,地表水厂,,35,23,104,6,37,112,,88,88,8,17,10,11,0.2,0.4
2025-04-05T1400,2456A,112.5003,26.9167,衡阳市,原169医院,细颗粒物(PM2.5),104,118,138,78,106,56,,26,26,18,31,26,15,1.0,1.1
2025-04-05T1400,2457A,112.6194,26.9258,衡阳市,衡阳化工总厂,细颗粒物(PM2.5),125,143,131,95,100,51,,21,21,28,31,21,13,1.4,1.2
2025-04-05T1400,2458A,112.6211,26.8956,衡阳市,珠晖区环保局,细颗粒物(PM2.5),105,106,123,79,92,59,,28,28,28,37,14,12,1.4,1.3
2025-04-05T1400,2459A,112.6197,26.8733,衡阳市,市委党校,细颗粒物(PM2.5),108,138,124,81,84,39,,20,20,35,33,15,9,1.6,1.1
2025-04-05T1400,2460A,112.6006,26.8919,衡阳市,市监测站,细颗粒物(PM2.5),117,120,132,88,97,48,,24,24,31,38,17,13,1.2,1.2
2025-04-05T1400,2461A,112.5664,26.9056,衡阳市,真空机电公司,细颗粒物(PM2.5),108,138,148,81,104,55,,22,22,21,36,16,11,1.1,1.2
2025-04-05T1400,3399A,112.6703,26.882,衡阳市,师范学院,细颗粒物(PM2.5),107,121,121,80,89,81,,31,31,22,26,17,12,1.1,1
2025-04-05T1400,2608A,103.3772,23.3993,红河哈尼族彝族自治州,污水处理厂,细颗粒物(PM2.5),74,75,87,54,76,97,,99,92,9,11,8,9,0.6,0.6
2025-04-05T1400,2609A,103.3861,23.35,红河哈尼族彝族自治州,监测站,细颗粒物(PM2.5),72,75,95,52,69,105,,112,100,9,10,10,11,0.4,0.4
2025-04-05T1400,3038A,103.3758,23.368,红河哈尼族彝族自治州,州图书馆,细颗粒物(PM2.5),84,80,89,62,66,105,,110,100,8,11,6,6,0.5,0.6
2025-04-05T1400,1090A,111.6507,40.7517,呼和浩特市,呼市一监,颗粒物(PM10),52,53,36,24,12,96,,63,63,10,9,19,10,0.6,0.5
2025-04-05T1400,1091A,111.6572,40.8033,呼和浩特市,小召,,41,41,32,17,9,87,,64,64,17,14,15,6,0.5,0.4
2025-04-05T1400,1094A,111.7516,40.8369,呼和浩特市,如意水处理厂,,50,50,30,22,8,94,,63,63,12,16,17,8,0.5,0.4
2025-04-05T1400,1095A,111.7276,40.8062,呼和浩特市,二十九中,,46,46,31,26,10,92,,63,63,14,12,16,5,0.6,0.5
2025-04-05T1400,1096A,111.5512,40.7866,呼和浩特市,工大金川校区,,34,34,31,15,9,96,,63,63,12,16,16,8,0.6,0.5
2025-04-05T1400,1097A,111.717,40.7612,呼和浩特市,化肥厂生活区,,43,43,35,24,13,96,,64,64,14,15,14,8,0.5,0.4
2025-04-05T1400,3698A,111.5968,40.8178,呼和浩特市,红旗小学,,48,48,29,16,8,94,,62,62,14,15,15,6,0.5,0.4
2025-04-05T1400,3699A,111.6518,40.8389,呼和浩特市,海东办,,44,44,23,17,7,85,,64,64,11,8,18,8,0.7,0.6
2025-04-05T1400,2192A,119.7594,49.2261,呼伦贝尔市,区环保局,,30,28,36,21,21,89,,74,74,6,7,5,5,0.2,0.3
2025-04-05T1400,3061A,119.7512,49.1577,呼伦贝尔市,国华电力东,,30,21,33,10,15,93,,78,78,4,4,4,4,0.3,0.4
2025-04-05T1400,1250A,120.0751,30.8669,湖州市,城西水厂,颗粒物(PM10),61,71,73,31,36,133,,100,100,35,46,10,9,0.6,0.5
2025-04-05T1400,2873A,120.0830,30.8929,湖州市,仁皇山新区,颗粒物(PM10),68,86,67,38,34,154,,125,125,13,31,8,6,0.7,0.6
2025-04-05T1400,2907A,120.1844,30.8596,湖州市,吴兴区站,颗粒物(PM10),61,71,66,29,29,158,,122,122,10,29,9,8,0.6,0.5
2025-04-05T1400,3562A,120.4148,30.8538,湖州市,南浔区站,臭氧1小时,62,62,60,33,31,169,,116,116,13,31,7,6,0.5,0.5
2025-04-05T1400,1607A,120.9049,40.7211,葫芦岛市,龙港区,,30,24,46,7,35,96,,69,69,8,31,8,10,0.3,0.6
2025-04-05T1400,1608A,120.8392,40.7514,葫芦岛市,化工街,,31,22,47,12,28,97,,75,75,13,42,12,16,0.4,0.6
2025-04-05T1400,1609A,120.8341,40.7073,葫芦岛市,新区,,34,27,42,8,33,106,,88,88,9,31,9,10,0.4,0.7
2025-04-05T1400,1610A,120.8695,40.7677,葫芦岛市,东城区,,36,36,48,3,36,104,,79,79,13,40,5,13,0.5,0.8
2025-04-05T1400,2482A,109.5981,27.5721,怀化市,林科所,细颗粒物(PM2.5),115,115,83,87,53,58,,41,41,43,30,17,9,0.4,0.2
2025-04-05T1400,2483A,109.9453,27.5444,怀化市,河西地税局,细颗粒物(PM2.5),94,131,100,70,60,59,,32,32,16,20,20,13,0.3,0.4
2025-04-05T1400,2484A,109.9781,27.5342,怀化市,市四医院,细颗粒物(PM2.5),93,125,104,69,66,66,,31,31,17,22,16,12,0.7,0.7
2025-04-05T1400,2485A,109.9972,27.5578,怀化市,监测楼,细颗粒物(PM2.5),90,102,89,67,60,69,,35,35,18,18,9,9,0.7,0.6
2025-04-05T1400,2486A,110.0394,27.583,怀化市,市委党校,细颗粒物(PM2.5),87,99,81,64,58,67,,38,38,21,22,12,11,0.7,1
2025-04-05T1400,1210A,119.036,33.5981,淮安市,钵池山,颗粒物(PM10),74,97,75,38,54,137,,109,109,7,17,10,10,0.6,0.8
2025-04-05T1400,1211A,119.007,33.575,淮安市,北京南路,颗粒物(PM10),70,90,73,37,50,140,,102,102,8,21,9,10,0.6,0.7
2025-04-05T1400,1212A,118.989,33.6067,淮安市,市监测站,颗粒物(PM10),70,90,73,36,51,135,,101,101,9,22,10,11,0.5,0.7
2025-04-05T1400,1213A,119.135,33.5039,淮安市,楚州区监测站,颗粒物(PM10),69,88,81,38,53,126,,95,95,6,19,10,9,0.5,0.6
2025-04-05T1400,3426A,118.8755,33.2894,淮安市,新华书店,颗粒物(PM10),72,94,76,43,53,143,,111,111,10,20,10,10,0.5,0.6
2025-04-05T1400,4206A,119.0288,33.6319,淮安市,承德北路606号,颗粒物(PM10),76,102,86,42,53,132,,102,102,10,22,9,10,0.5,0.7
2025-04-05T1400,2282A,116.8004,33.975,淮北市,监测站,颗粒物(PM10),81,111,129,28,67,120,,87,87,9,22,6,9,0.5,0.8
2025-04-05T1400,2283A,116.8091,33.9007,淮北市,烈山区政府,颗粒物(PM10),72,94,115,50,67,124,,90,90,10,26,5,8,0.6,0.9
2025-04-05T1400,3330A,116.8873,33.9836,淮北市,杜集区检察院,颗粒物(PM10),93,135,122,28,64,122,,83,83,11,25,7,8,0.6,1
2025-04-05T1400,4017A,116.7923,33.9535,淮北市,市博物馆,颗粒物(PM10),77,104,123,20,67,117,,83,83,7,22,6,9,0.7,1
2025-04-05T1400,2277A,116.8305,32.7727,淮南市,潘集区政府,颗粒物(PM10),87,124,130,49,70,132,,91,91,10,22,4,7,0.4,0.6
2025-04-05T1400,2279A,116.8569,32.5951,淮南市,谢家集区政府,颗粒物(PM10),86,121,112,37,57,132,,99,99,8,18,8,10,0.3,0.5
2025-04-05T1400,2280A,116.8281,32.633,淮南市,八公山区政府,颗粒物(PM10),92,134,121,34,56,128,,98,98,6,13,7,8,0.3,0.5
2025-04-05T1400,2281A,116.6325,32.6201,淮南市,焦岗湖风景区管理处,颗粒物(PM10),82,113,89,47,47,78,,62,62,13,16,8,8,0.5,0.7
2025-04-05T1400,2894A,117.0566,32.6531,淮南市,经济技术开发区消防队,颗粒物(PM10),94,137,106,27,54,142,,101,101,6,15,7,10,0.3,0.5
2025-04-05T1400,3329A,117.0108,32.5893,淮南市,山南新区,颗粒物(PM10),100,150,124,39,62,140,,102,102,8,16,9,10,0.4,0.6
2025-04-05T1400,4209A,117.0031,32.6445,淮南市,国庆中路369号,颗粒物(PM10),83,115,113,49,58,139,,98,98,8,19,10,13,0.4,0.5
2025-04-05T1400,2446A,114.9028,30.4742,黄冈市,职工中心,颗粒物(PM10),61,72,95,36,67,147,,86,86,13,42,8,13,0.6,1
2025-04-05T1400,2929A,114.8858,30.4519,黄冈市,红卫路,颗粒物(PM10),65,80,104,28,61,142,,84,84,4,28,7,11,0.7,1.2
2025-04-05T1400,3398A,114.9136,30.4445,黄冈市,市林业局,颗粒物(PM10),66,81,102,33,66,151,,88,88,8,46,10,15,0.8,1.2
2025-04-05T1400,2672A,102.0199,35.5102,黄南藏族自治州,同仁县隆务镇,颗粒物(PM10),103,155,155,60,54,112,,83,83,4,4,19,21,0.3,0.2
2025-04-05T1400,2295A,118.2903,29.6963,黄山市,延安路89号,细颗粒物(PM2.5),53,40,52,37,36,133,,100,100,1,10,6,7,0.2,0.5
2025-04-05T1400,2297A,118.1371,30.2756,黄山市,黄山区政府5号楼,颗粒物(PM10),76,101,58,27,27,137,,107,107,3,5,10,10,0.3,0.5
2025-04-05T1400,4210A,118.3354,29.7203,黄山市,滨江东路7-2号,颗粒物(PM10),53,56,60,20,31,133,,102,102,2,11,6,6,0.4,0.6
2025-04-05T1400,2423A,115.0601,30.2313,黄石市,沈家营,颗粒物(PM10),71,91,98,47,57,164,,106,106,12,30,10,12,0.7,0.8
2025-04-05T1400,2426A,114.8988,30.2019,黄石市,铁山,颗粒物(PM10),68,85,97,37,59,142,,95,95,11,38,13,15,0.2,0.4
2025-04-05T1400,2427A,115.0307,30.2092,黄石市,团城山,颗粒物(PM10),67,83,100,32,55,146,,95,95,14,33,9,19,0.6,0.9
2025-04-05T1400,3149A,115.0235,30.1578,黄石市,笔架山北路,颗粒物(PM10),59,67,88,30,57,153,,102,102,6,31,10,16,0.6,1
2025-04-05T1400,4185A,115.0780,30.21118,黄石市,磁湖东路29号,"颗粒物(PM10),细颗粒物(PM2.5)",73,95,107,53,63,172,,106,106,9,28,11,13,0.8,0.9
2025-04-05T1400,1392A,114.4183,23.0528,惠州市,河南岸金山湖子站,,24,17,32,13,19,75,,77,70,14,15,8,8,0.5,0.6
2025-04-05T1400,1393A,114.4053,23.0822,惠州市,下埔横江三路子站,,25,14,33,9,17,80,,82,75,11,14,8,8,0.5,0.5
2025-04-05T1400,1394A,114.4103,23.1142,惠州市,江北云山西路子站,,26,16,32,13,17,82,,86,78,13,13,8,9,0.5,0.5
2025-04-05T1400,1395A,114.4645,22.7833,惠州市,惠阳区承修路船湖子站,,21,10,40,7,21,66,,69,61,16,16,8,9,0.5,0.5
2025-04-05T1400,1396A,114.5317,22.7422,惠州市,大亚湾管委会子站,,20,7,42,3,21,64,,75,60,12,14,6,7,0.6,0.5
2025-04-05T1400,3314A,114.4338,22.8134,惠州市,惠阳秋长,,26,,35,6,20,83,,76,70,7,12,11,12,0.7,0.7
2025-04-05T1400,3452A,114.6517,22.775,惠州市,大亚湾霞涌,,23,6,34,3,18,71,,68,66,12,14,6,7,0.5,0.5
2025-04-05T1400,2240A,130.9762,45.3001,鸡西市,环保局,细颗粒物(PM2.5),64,75,62,46,47,99,,66,66,13,22,9,10,0.6,0.8
2025-04-05T1400,2243A,130.9429,45.3039,鸡西市,第一中学,"颗粒物(PM10),细颗粒物(PM2.5)",57,63,55,40,40,101,,66,66,15,22,8,9,0.6,0.6
2025-04-05T1400,3707A,131.0207,45.3073,鸡西市,欧美日汽修厂,颗粒物(PM10),53,56,79,36,47,113,,78,78,13,19,9,10,0.5,0.7
2025-04-05T1400,3709A,130.9967,45.3106,鸡西市,市政设施管理处,颗粒物(PM10),57,64,65,37,47,92,,63,63,14,22,9,10,0.7,0.8
2025-04-05T1400,2367A,114.9754,27.0803,吉安市,红声器材厂,颗粒物(PM10),68,85,79,46,46,65,,27,27,27,40,15,14,0.6,0.7
2025-04-05T1400,2368A,114.9658,27.0999,吉安市,市森林工业局,细颗粒物(PM2.5),67,71,70,48,48,76,,34,34,29,42,15,12,0.6,0.7
2025-04-05T1400,2369A,114.99,27.1312,吉安市,市环境监测站,细颗粒物(PM2.5),62,64,62,44,41,82,,40,40,22,32,22,18,0.3,0.5
2025-04-05T1400,2370A,115.0093,27.0968,吉安市,青原区法院,细颗粒物(PM2.5),65,71,74,47,51,80,,34,34,28,42,15,14,0.5,0.6
2025-04-05T1400,1772A,126.54,43.8622,吉林市,哈达湾,,30,30,38,21,26,88,,107,89,9,12,6,7,0.6,0.6
2025-04-05T1400,1773A,126.5844,43.8358,吉林市,东局子,,30,28,38,21,26,92,,113,94,8,10,5,7,0.6,0.6
2025-04-05T1400,1774A,126.5052,43.8245,吉林市,电力学院,,29,28,33,19,24,90,,106,90,9,12,4,5,0.5,0.5
2025-04-05T1400,1775A,126.6133,43.8972,吉林市,江北,,35,35,40,19,26,89,,107,91,10,11,7,5,0.5,0.5
2025-04-05T1400,1776A,126.555,43.8306,吉林市,江南公园,,39,29,35,27,29,91,,108,91,7,10,5,6,0.4,0.4
2025-04-05T1400,1778A,126.7061,43.7133,吉林市,丰满,,35,24,31,16,22,110,,134,118,7,8,5,6,0.9,0.8
2025-04-05T1400,2868A,126.4739,43.953,吉林市,九站,,33,33,36,22,26,84,,108,90,8,10,11,11,0.5,0.5
2025-04-05T1400,1299A,116.9862,36.6114,济南市,科干所,,31,22,97,15,41,99,,78,78,7,26,6,8,0.4,0.6
2025-04-05T1400,1300A,116.9376,36.665,济南市,农科所,,32,29,111,3,43,100,,76,76,8,30,5,9,0.3,0.5
2025-04-05T1400,1301A,117.1265,36.6734,济南市,开发区,,34,34,97,3,42,102,,81,81,6,27,6,9,0.4,0.7
2025-04-05T1400,1303A,117.0624,36.6868,济南市,省种子仓库,,33,22,112,3,47,103,,81,81,5,28,4,7,0.5,0.8
2025-04-05T1400,1304A,116.9489,36.6447,济南市,机床二厂,,34,22,111,10,48,108,,86,86,9,29,7,10,0.3,0.5
2025-04-05T1400,1305A,117.0495,36.663,济南市,市监测站,,30,29,108,3,46,93,,73,73,8,29,7,10,0.3,0.6
2025-04-05T1400,1306A,116.7675,36.5484,济南市,长清党校,,35,29,110,15,39,109,,88,88,8,27,3,6,0.6,0.8
2025-04-05T1400,1616A,117.6795,36.229,济南市,技术学院,,41,41,105,7,46,104,,86,86,10,30,8,13,0.3,0.8
2025-04-05T1400,1961A,117.532,36.6868,济南市,东山小学,,36,29,109,24,45,114,,86,86,2,24,6,8,0.2,0.4
2025-04-05T1400,3059A,117.7161,36.2049,济南市,泰兴公司,,36,36,100,3,48,107,,89,89,11,29,7,11,0.3,0.8
2025-04-05T1400,3064A,117.6867,36.2171,济南市,莱芜战役纪念馆,,46,46,104,3,44,107,,88,88,15,30,4,8,0.3,0.7
2025-04-05T1400,3494A,117.1673,36.9782,济南市,济阳区政府,,35,24,112,7,50,109,,85,85,4,26,9,14,0.3,0.6
2025-04-05T1400,3495A,117.1171,36.63,济南市,锦屏中学,,31,20,86,10,40,97,,78,78,8,20,7,10,0.1,0.4
2025-04-05T1400,3682A,116.9814,36.6819,济南市,济南四建,,32,22,100,3,46,100,,79,79,6,35,4,7,0.2,0.5
2025-04-05T1400,1653A,116.6251,35.4302,济宁市,火炬城,,,45,98,7,59,80,,70,70,,15,2,7,0.1,0.6
2025-04-05T1400,1655A,116.5491,35.4042,济宁市,电化厂,颗粒物(PM10),53,55,132,12,66,91,,69,69,10,26,2,5,0.0,0.5
2025-04-05T1400,3500A,116.5814,35.3707,济宁市,北湖一中,,36,36,97,7,51,99,,78,78,10,25,7,11,0.2,0.5
2025-04-05T1400,3501A,116.8249,35.5593,济宁市,服务中心,颗粒物(PM10),52,54,121,3,53,103,,75,75,5,27,4,8,0.4,0.9
2025-04-05T1400,3678A,116.5907,35.4054,济宁市,市第七中学,颗粒物(PM10),61,71,109,9,52,73,,54,54,7,23,2,6,0.2,0.6
2025-04-05T1400,2255A,130.2751,46.8028,佳木斯市,佳纺,,50,50,72,33,39,92,,62,62,20,28,19,8,0.7,0.7
2025-04-05T1400,2256A,130.3995,46.8307,佳木斯市,发电厂,,49,37,42,34,32,98,,64,64,11,18,4,4,0.5,0.5
2025-04-05T1400,2257A,130.3258,46.7975,佳木斯市,环保局,细颗粒物(PM2.5),55,47,65,39,42,88,,56,56,24,39,7,5,0.6,0.7
2025-04-05T1400,2258A,130.3648,46.8032,佳木斯市,十一中,细颗粒物(PM2.5),53,45,49,37,37,92,,62,62,12,26,9,8,0.6,0.6
2025-04-05T1400,2259A,130.3794,46.7588,佳木斯市,四丰,细颗粒物(PM2.5),52,47,41,36,26,87,,55,55,14,18,1,1,1.1,1.1
2025-04-05T1400,1252A,120.7436,30.778,嘉兴市,清河小学,,,,68,,25,,,107,,,43,,19,,0.9
2025-04-05T1400,1253A,120.726,30.7478,嘉兴市,嘉兴学院,颗粒物(PM10),55,59,54,24,27,154,,84,84,12,34,10,10,1.0,1
2025-04-05T1400,2872A,120.7846,30.7525,嘉兴市,南湖区残联,颗粒物(PM10),57,63,49,25,26,163,,94,94,10,32,10,10,0.8,0.9
2025-04-05T1400,3407A,120.6916,30.7739,嘉兴市,秀洲住建,臭氧1小时,57,56,59,29,21,165,,90,90,11,37,8,8,0.7,0.7
2025-04-05T1400,1945A,98.2908,39.7711,嘉峪关市,气象局,颗粒物(PM10),108,166,129,41,29,110,,99,99,1,18,3,8,0.3,0.4
2025-04-05T1400,2884A,98.2672,39.7978,嘉峪关市,酒钢宾馆,颗粒物(PM10),109,168,150,29,32,109,,98,98,2,12,3,6,0.2,0.2
2025-04-05T1400,3248A,98.2643,39.7724,嘉峪关市,雄关区,颗粒物(PM10),91,132,106,22,27,108,,94,94,5,19,5,6,0.4,0.4
2025-04-05T1400,1383A,113.1064,22.6058,江门市,北街,,20,17,29,6,23,61,,46,46,22,18,2,2,0.8,0.7
2025-04-05T1400,1384A,113.0731,22.5835,江门市,西区,,21,,31,9,26,66,,49,49,28,23,6,7,0.7,0.6
2025-04-05T1400,1385A,113.0219,22.5311,江门市,圭峰西,,18,15,30,6,23,55,,46,44,25,19,4,4,0.6,0.4
2025-04-05T1400,1386A,113.0828,22.5947,江门市,东湖,,22,,42,13,20,68,,49,49,22,18,10,8,0.6,0.5
2025-04-05T1400,3311A,113.1075,22.5647,江门市,江海富民,,33,30,49,23,28,37,,50,41,37,22,8,7,0.7,0.5
2025-04-05T1400,3449A,113.05,22.4667,江门市,新会银湖,,26,,37,18,27,21,,33,29,42,26,1,2,0.5,0.3
2025-04-05T1400,1830A,113.1992,35.2590,焦作市,影视城,,,,63,,23,,,,,,3,,5,,0.6
2025-04-05T1400,3169A,113.2725,35.2067,焦作市,太极体育中心,颗粒物(PM10),66,82,112,18,24,119,,89,89,6,10,11,8,0.4,0.4
2025-04-05T1400,3335A,113.3137,35.2641,焦作市,马村街道办,颗粒物(PM10),56,61,95,24,25,107,,81,81,10,12,10,10,0.6,0.5
2025-04-05T1400,3336A,113.2465,35.2373,焦作市,焦作技师学院,颗粒物(PM10),58,66,103,14,15,115,,94,94,10,12,10,7,0.4,0.5
2025-04-05T1400,3477A,113.1656,35.2539,焦作市,中站许衡医院,颗粒物(PM10),55,60,92,27,26,113,,96,96,8,13,12,8,0.6,0.6
2025-04-05T1400,3981A,113.2449,35.1803,焦作市,原李万街道办,颗粒物(PM10),62,74,115,24,37,117,,87,87,10,15,12,12,0.6,0.6
2025-04-05T1400,4264A,113.2340,35.2190,焦作市,新安路1731号,颗粒物(PM10),64,78,108,17,26,111,,90,90,6,10,10,7,0.4,0.4
2025-04-05T1400,1708A,116.3701,23.5345,揭阳市,新兴,,43,,36,30,35,59,,86,69,31,18,6,7,0.7,0.7
2025-04-05T1400,1709A,116.3264,23.5443,揭阳市,西马,,43,,38,30,34,54,,83,69,34,13,9,8,0.7,0.6
2025-04-05T1400,1710A,116.3611,23.5626,揭阳市,东兴,,36,32,37,25,27,71,,80,72,21,13,6,6,0.8,0.8
2025-04-05T1400,1711A,116.4151,23.5294,揭阳市,渔湖,,22,17,36,15,23,67,,90,70,28,20,5,6,0.8,0.7
2025-04-05T1400,3320A,116.403,23.5699,揭阳市,曲溪,,29,24,35,20,26,64,,89,72,32,20,1,3,0.7,0.6
2025-04-05T1400,1944A,102.1692,38.5167,金昌市,天庆家园,颗粒物(PM10),62,74,59,28,29,116,,91,91,4,17,10,19,0.5,0.8
2025-04-05T1400,4022A,102.1647,38.5371,金昌市,金川区人防中心,颗粒物(PM10),72,93,75,49,44,108,,88,88,8,14,16,21,0.4,0.6
2025-04-05T1400,4239A,102.1930,38.5319,金昌市,长春路96号,颗粒物(PM10),81,111,81,32,29,109,,83,83,3,14,20,41,0.6,0.8
2025-04-05T1400,1262A,119.647,29.077,金华市,十五中,颗粒物(PM10),55,59,90,20,48,146,,91,91,12,47,8,9,0.5,0.8
2025-04-05T1400,1263A,119.686,29.1029,金华市,监测站,颗粒物(PM10),59,67,85,30,44,146,,98,98,15,42,7,7,0.4,0.6
2025-04-05T1400,3659A,119.656,29.1131,金华市,气象局,颗粒物(PM10),59,68,95,23,46,146,,98,98,9,46,8,9,0.4,0.7
2025-04-05T1400,1767A,121.1115,41.0879,锦州市,南山,,41,41,42,9,40,91,,71,71,7,23,6,8,0.5,0.7
2025-04-05T1400,1768A,121.0604,40.8428,锦州市,开发区,颗粒物(PM10),52,54,54,6,44,94,,68,68,17,35,11,17,0.4,0.8
2025-04-05T1400,1769A,121.1836,41.1119,锦州市,百股街道,,48,48,44,3,30,92,,72,72,11,28,6,8,0.3,0.6
2025-04-05T1400,1770A,121.1178,41.1222,锦州市,天安街道,,36,36,41,3,35,96,,80,80,9,23,10,11,0.4,0.6
2025-04-05T1400,1771A,121.1303,41.1386,锦州市,北湖公园,,37,37,41,9,32,90,,75,75,8,20,7,10,0.5,0.7
2025-04-05T1400,2160A,112.85,35.5051,晋城市,自来水公司,,47,47,87,3,13,108,,90,90,6,12,6,7,0.3,0.4
2025-04-05T1400,2161A,112.8318,35.4936,晋城市,白云商贸,,,36,83,,10,108,,90,90,10,15,4,6,0.4,0.4
2025-04-05T1400,2162A,112.8508,35.4887,晋城市,市环保局,,37,37,88,7,14,107,,87,87,5,12,2,4,0.2,0.3
2025-04-05T1400,2163A,112.8676,35.4897,晋城市,技术学院,,50,50,90,3,15,101,,80,80,8,15,5,7,0.4,0.6
2025-04-05T1400,2165A,112.8453,35.546,晋城市,白马寺,,34,26,75,17,23,108,,96,96,3,6,4,5,0.3,0.4
2025-04-05T1400,3620A,112.8271,35.4828,晋城市,泽州一中,,42,42,84,3,12,106,,90,90,6,9,4,4,0.4,0.4
2025-04-05T1400,2173A,112.7249,37.7067,晋中市,南都小区,,43,43,91,7,14,103,,78,78,10,13,9,6,0.4,0.3
2025-04-05T1400,2174A,112.6991,37.6982,晋中市,榆次区政府,,39,39,103,9,13,107,,82,82,11,15,9,6,0.3,0.2
2025-04-05T1400,2865A,112.7195,37.6828,晋中市,榆次三中,,48,48,115,19,12,105,,75,75,10,13,8,5,0.4,0.3
2025-04-05T1400,4200A,112.7478,37.6954,晋中市,迎宾街26号,,46,46,110,9,12,105,,80,80,9,10,8,5,0.4,0.2
2025-04-05T1400,2439A,112.2014,31.0481,荆门市,竹园小学,颗粒物(PM10),86,122,99,25,51,134,,93,93,8,23,7,6,0.2,0.7
2025-04-05T1400,2440A,112.1969,30.9891,荆门市,掇刀,颗粒物(PM10),91,131,95,33,49,132,,83,83,5,26,9,9,0.2,0.5
2025-04-05T1400,2441A,112.2213,31.0386,荆门市,石化一小,颗粒物(PM10),85,119,110,24,55,132,,90,90,7,34,10,10,0.0,0.7
2025-04-05T1400,3012A,112.1849,31.0362,荆门市,西山林语,颗粒物(PM10),81,111,81,28,45,133,,94,94,4,16,7,7,0.1,0.3
2025-04-05T1400,3547A,112.1632,31.0138,荆门市,龙泉中学南校,颗粒物(PM10),90,130,93,37,49,126,,90,90,9,24,11,8,0.3,0.6
2025-04-05T1400,1844A,112.2494,30.3197,荆州市,市图书馆,细颗粒物(PM2.5),75,87,73,55,49,147,,68,68,24,38,9,9,0.5,0.7
2025-04-05T1400,1845A,112.2008,30.3544,荆州市,市委党校,细颗粒物(PM2.5),70,83,78,51,55,143,,87,87,12,27,7,9,0.6,0.8
2025-04-05T1400,3194A,112.2747,30.3122,荆州市,管委会,颗粒物(PM10),73,95,81,50,52,144,,72,72,23,31,13,11,0.6,0.7
2025-04-05T1400,4268A,112.1722,30.3366,荆州市,学苑路85号,颗粒物(PM10),70,89,74,46,60,148,,81,81,21,28,10,11,0.6,0.7
2025-04-05T1400,2342A,117.3102,29.3867,景德镇市,王港中学,,,,,,,,,,,,,,,,
2025-04-05T1400,2343A,117.2117,29.2933,景德镇市,老干部活动中心,颗粒物(PM10),58,66,69,38,42,143,,91,91,11,25,13,15,0.5,0.6
2025-04-05T1400,2344A,117.1894,29.2789,景德镇市,兽医站,颗粒物(PM10),62,74,78,41,38,135,,89,89,12,26,11,20,0.8,0.8
2025-04-05T1400,2345A,117.1547,29.2617,景德镇市,台达陶瓷,颗粒物(PM10),64,77,78,36,38,130,,91,91,15,29,18,34,0.6,0.6
2025-04-05T1400,2346A,117.2461,29.2956,景德镇市,陶研所,细颗粒物(PM2.5),57,61,57,40,42,140,,89,89,12,21,11,10,0.6,0.6
2025-04-05T1400,1803A,115.9872,29.6815,九江市,十里,颗粒物(PM10),64,78,82,44,55,159,,114,114,16,32,9,10,0.8,0.9
2025-04-05T1400,1804A,115.9584,29.7046,九江市,茅山头,颗粒物(PM10),72,94,90,41,51,148,,101,101,18,34,11,12,0.6,0.7
2025-04-05T1400,1805A,115.9877,29.7295,九江市,西园,颗粒物(PM10),67,84,85,37,55,141,,107,107,23,45,11,18,0.7,1
2025-04-05T1400,1808A,115.9114,29.6038,九江市,综合工业园,颗粒物(PM10),59,67,79,29,48,145,,111,111,18,42,13,16,0.9,0.9
2025-04-05T1400,1809A,116.0721,29.7535,九江市,石化总厂,颗粒物(PM10),64,78,78,38,75,156,,104,104,11,33,21,25,0.7,1
2025-04-05T1400,1810A,115.9773,29.5698,九江市,庐山气象台,颗粒物(PM10),62,73,52,30,32,124,,119,119,12,12,6,7,0.5,0.9
2025-04-05T1400,3190A,116.0254,29.6994,九江市,外国语学校,颗粒物(PM10),66,81,85,35,58,143,,102,102,17,35,15,18,1.0,1.2
2025-04-05T1400,4253A,116.0102,29.6594,九江市,莲花大道8号,颗粒物(PM10),71,92,79,47,49,152,,116,116,9,15,12,10,0.7,0.8
2025-04-05T1400,4240A,98.4958,39.7339,酒泉市,玉门东路5号,颗粒物(PM10),134,217,147,28,37,103,,91,91,2,11,11,11,0.2,0.3
2025-04-05T1400,4241A,98.5099,39.7506,酒泉市,北大街108号,颗粒物(PM10),163,276,143,25,30,93,,80,80,3,13,12,19,0.4,0.4
2025-04-05T1400,2698A,76.0072,39.4467,喀什地区,巡警大队,颗粒物(PM10),374,479,560,121,137,85,,31,31,18,45,4,6,0.5,1
2025-04-05T1400,2699A,75.9755,39.4694,喀什地区,吾办,颗粒物(PM10),350,460,504,132,158,86,,43,43,17,37,7,6,0.4,0.8
2025-04-05T1400,4027A,75.9483,39.4689,喀什地区,老干局,颗粒物(PM10),360,468,517,108,124,95,,50,50,14,30,3,3,0.1,0.3
2025-04-05T1400,1824A,114.3389,34.7781,开封市,肿瘤医院,颗粒物(PM10),65,79,108,12,37,116,,89,89,6,19,8,10,0.5,0.7
2025-04-05T1400,1826A,114.2885,34.7965,开封市,世纪星幼儿园,颗粒物(PM10),65,80,101,10,32,114,,85,85,11,23,10,10,0.4,0.6
2025-04-05T1400,3147A,114.3438,34.8106,开封市,龙亭公园,颗粒物(PM10),86,122,131,25,43,111,,84,84,10,23,4,7,0.4,0.6
2025-04-05T1400,3210A,114.3644,34.7964,开封市,汴京公园,颗粒物(PM10),82,113,142,14,44,118,,90,90,11,23,5,7,0.1,0.4
2025-04-05T1400,3473A,114.2485,34.8306,开封市,技师学院,颗粒物(PM10),68,85,98,14,35,104,,75,75,15,30,4,5,0.6,0.8
2025-04-05T1400,3592A,114.4644,34.7556,开封市,祥符区生态环境局,颗粒物(PM10),70,90,135,12,48,102,,77,77,15,23,9,11,0.5,0.7
2025-04-05T1400,1951A,84.895,45.6094,克拉玛依市,长征新村,,39,39,31,10,12,100,,74,74,15,17,8,8,0.3,0.3
2025-04-05T1400,1952A,84.8988,45.5893,克拉玛依市,南林小区,,,26,26,20,13,,,70,69,3,12,3,3,0.4,0.6
2025-04-05T1400,1954A,84.905,44.3396,克拉玛依市,独山子区,颗粒物(PM10),54,58,61,29,28,158,,101,101,15,14,11,9,0.4,0.4
2025-04-05T1400,1955A,85.6979,46.098,克拉玛依市,乌尔禾区商贸楼,,,,31,25,11,94,,60,60,2,12,6,6,0.2,0.3
2025-04-05T1400,3612A,85.1045,45.6899,克拉玛依市,白碱滩区新站,,37,37,38,9,11,98,,71,66,13,12,10,10,0.3,0.3
2025-04-05T1400,2697A,76.1454,39.7142,克孜勒苏柯尔克孜自治州,市人民政府,颗粒物(PM10),387,489,473,152,136,110,,73,73,6,12,7,8,0.5,0.5
2025-04-05T1400,3665A,76.1658,39.7157,克孜勒苏柯尔克孜自治州,克州文化中心,颗粒物(PM10),399,499,463,146,128,105,,70,70,7,14,8,10,0.5,0.4
2025-04-05T1400,1450A,102.8204,24.8886,昆明市,呈贡新区,细颗粒物(PM2.5),100,87,84,75,70,147,,121,121,16,14,8,8,0.8,0.7
2025-04-05T1400,1451A,102.6251,24.9608,昆明市,西山森林公园,,,,,,,,,,,,,,,,
2025-04-05T1400,1452A,102.7252,25.0902,昆明市,龙泉镇,细颗粒物(PM2.5),98,96,81,73,56,142,,100,100,20,25,11,9,0.8,0.7
2025-04-05T1400,1453A,102.7266,25.0375,昆明市,东风东路,细颗粒物(PM2.5),113,114,88,85,66,151,,106,106,21,20,11,10,0.8,0.7
2025-04-05T1400,1454A,102.6742,25.0669,昆明市,金鼎山,细颗粒物(PM2.5),98,114,85,73,62,143,,103,103,22,20,8,6,0.9,0.8
2025-04-05T1400,1455A,102.6644,25.0401,昆明市,碧鸡广场,细颗粒物(PM2.5),103,100,87,77,63,145,,105,105,21,24,10,8,0.9,0.8
2025-04-05T1400,3179A,102.7494,25.0119,昆明市,官渡区博物馆,细颗粒物(PM2.5),95,112,90,71,58,149,,98,98,17,21,10,9,0.6,0.5
2025-04-05T1400,3375A,102.8017,24.8336,昆明市,青年创业园,细颗粒物(PM2.5),108,103,88,81,64,143,,111,111,13,15,13,12,0.8,0.7
2025-04-05T1400,3550A,102.7997,24.9786,昆明市,昆明学院,细颗粒物(PM2.5),104,114,100,78,68,132,,104,104,18,17,7,7,0.8,0.7
2025-04-05T1400,3551A,102.5967,24.6736,昆明市,晋宁区生态环境分局,细颗粒物(PM2.5),85,85,76,63,60,140,,113,112,11,10,11,10,0.9,0.9
2025-04-05T1400,3552A,102.6678,24.9856,昆明市,云天化总部,细颗粒物(PM2.5),93,102,90,69,60,147,,103,103,16,17,10,9,0.8,0.6
2025-04-05T1400,1456A,91.1319,29.6514,拉萨市,八廓街,,48,28,28,11,16,151,,144,140,8,7,5,5,0.5,0.5
2025-04-05T1400,1457A,91.1221,29.6747,拉萨市,市环保局,,45,28,32,19,17,144,,140,130,11,11,3,3,0.3,0.3
2025-04-05T1400,1458A,91.0874,29.6475,拉萨市,区监测站,,44,20,28,11,16,140,,140,125,10,9,6,6,0.5,0.5
2025-04-05T1400,1459A,91.1774,29.6541,拉萨市,西藏大学,,45,24,28,12,16,141,,138,132,9,7,5,5,0.2,0.2
2025-04-05T1400,1460A,90.9798,29.6588,拉萨市,区辐射站,,44,24,36,15,18,140,,140,129,12,12,7,7,0.4,0.4
2025-04-05T1400,1461A,91.0834,29.6292,拉萨市,拉萨火车站,,44,22,26,8,15,138,,140,130,7,4,3,3,0.6,0.7
2025-04-05T1400,2520A,109.2203,23.7256,来宾市,来宾技工学校,细颗粒物(PM2.5),85,116,96,63,68,143,,85,85,11,17,15,16,0.8,0.9
2025-04-05T1400,3535A,109.1781,23.7297,来宾市,兴宾区政府,细颗粒物(PM2.5),87,102,96,64,64,136,,81,81,9,13,17,14,1.0,1
2025-04-05T1400,4002A,109.2416,23.7461,来宾市,中南小学,"颗粒物(PM10),细颗粒物(PM2.5)",80,110,102,59,62,139,,82,82,10,17,15,15,0.9,1
2025-04-05T1400,1477A,104.1373,35.9454,兰州市,榆中兰大校区,,,,,,,,,,,,,,,,
2025-04-05T1400,1479A,103.831,36.0464,兰州市,铁路设计院,颗粒物(PM10),82,114,133,33,38,98,,44,44,30,48,15,15,0.7,0.9
2025-04-05T1400,3241A,103.7439,36.0842,兰州市,百合公园,颗粒物(PM10),83,116,126,25,33,111,,57,57,22,30,14,8,0.5,0.5
2025-04-05T1400,3242A,103.9611,35.998,兰州市,和平,颗粒物(PM10),97,143,160,60,52,110,,69,69,8,20,14,15,0.2,0.5
2025-04-05T1400,4236A,103.6293,36.0938,兰州市,庄浪东路808号,颗粒物(PM10),93,136,141,45,47,154,,85,85,25,35,23,14,0.5,0.4
2025-04-05T1400,4237A,103.7251,36.1043,兰州市,安宁西路88号,颗粒物(PM10),103,155,149,49,47,132,,68,68,21,25,17,10,0.4,0.4
2025-04-05T1400,4238A,103.8470,36.0676,兰州市,北滨河东路1号,颗粒物(PM10),75,99,131,20,44,109,,53,53,22,43,19,16,0.7,0.8
2025-04-05T1400,3245A,103.6633,36.533,兰州新区,新区管委会,颗粒物(PM10),62,74,94,36,36,121,,75,75,7,16,12,13,0.1,0.2
2025-04-05T1400,3246A,103.6975,36.4789,兰州新区,舟曲中学,颗粒物(PM10),69,88,127,44,50,120,,78,78,8,20,8,7,0.3,0.3
2025-04-05T1400,1067A,116.6708,39.5111,廊坊市,药材公司,,28,9,52,3,17,87,,79,79,10,10,2,1,0.3,0.3
2025-04-05T1400,1068A,116.7214,39.5589,廊坊市,开发区,,29,24,55,3,21,91,,84,84,4,6,2,2,0.2,0.2
2025-04-05T1400,1070A,116.7244,39.5269,廊坊市,北华航天学院,,27,19,58,3,8,86,,79,79,8,5,4,4,0.2,0.2
2025-04-05T1400,2919A,116.7022,39.5453,廊坊市,河北工业大学,,29,13,43,8,16,91,,83,83,7,9,5,4,0.2,0.2
2025-04-05T1400,2535A,103.7723,29.5462,乐山市,花湖湾,,32,31,42,22,28,25,,72,45,33,16,4,5,0.6,0.4
2025-04-05T1400,2536A,103.7627,29.5844,乐山市,牛耳桥,,24,24,47,16,27,38,,71,53,36,25,6,7,0.5,0.4
2025-04-05T1400,2537A,103.7508,29.6006,乐山市,市第三水厂,,22,21,41,15,25,46,,75,54,24,17,4,4,0.5,0.5
2025-04-05T1400,2538A,103.7571,29.5664,乐山市,市监测站,,22,21,41,15,28,42,,74,54,24,15,5,5,0.5,0.4
2025-04-05T1400,3361A,103.7311,29.5628,乐山市,理工大学,,20,20,40,14,24,37,,73,48,27,17,4,4,0.7,0.6
2025-04-05T1400,2598A,100.2143,26.8576,丽江市,西南郊,,40,37,43,24,29,126,,126,122,4,5,5,5,0.7,0.7
2025-04-05T1400,2599A,100.2497,26.8802,丽江市,丽江古城,,38,34,43,20,28,119,,112,112,11,11,8,8,0.6,0.6
2025-04-05T1400,2600A,100.2203,26.8906,丽江市,市中心,,37,32,34,23,26,116,,111,110,14,14,8,9,1.0,1
2025-04-05T1400,1267A,119.914,28.4514,丽水市,监测站大楼,颗粒物(PM10),54,57,46,23,28,126,,95,95,9,17,3,3,0.4,0.4
2025-04-05T1400,1268A,119.93,28.4586,丽水市,莲都小学,颗粒物(PM10),53,56,49,21,23,127,,91,91,8,20,4,4,0.3,0.4
2025-04-05T1400,1269A,119.879,28.4231,丽水市,余庄前,,45,45,44,24,26,132,,86,86,6,14,3,3,0.4,0.4
2025-04-05T1400,1173A,119.176,34.5885,连云港市,市环境监测站,颗粒物(PM10),67,83,85,29,54,122,,83,83,10,24,11,12,0.5,0.6
2025-04-05T1400,3000A,119.3581,34.6972,连云港市,德源药业,颗粒物(PM10),57,63,75,14,47,110,,71,71,12,24,8,10,0.4,0.6
2025-04-05T1400,3007A,119.178,34.844,连云港市,新城一中,,50,50,88,11,50,112,,83,83,8,27,8,10,0.5,0.8
2025-04-05T1400,3008A,119.3608,34.7519,连云港市,胡沟管理处,,36,36,62,9,39,112,,90,86,12,21,9,9,0.3,0.6
2025-04-05T1400,3009A,119.1478,34.5911,连云港市,矿山设计院,颗粒物(PM10),70,90,90,27,52,118,,81,81,15,27,10,10,0.5,0.6
2025-04-05T1400,3434A,119.2413,34.6539,连云港市,工贸学校,颗粒物(PM10),55,59,83,21,53,117,,84,84,15,21,9,10,0.5,0.7
2025-04-05T1400,3664A,119.4172,34.7341,连云港市,连云街道,,37,37,111,12,46,102,,83,77,24,27,8,9,0.5,0.7
2025-04-05T1400,2571A,102.3431,27.8099,凉山彝族自治州,青龙寺,,31,11,27,3,8,98,,90,81,3,3,6,6,0.7,0.7
2025-04-05T1400,2572A,102.2721,27.8415,凉山彝族自治州,邛海宾馆,,30,13,35,6,15,94,,88,83,7,8,6,8,0.3,0.4
2025-04-05T1400,2573A,102.2625,27.898,凉山彝族自治州,西昌市政府,,29,7,32,3,17,91,,89,83,8,5,10,8,0.5,0.5
2025-04-05T1400,2574A,102.2685,27.8851,凉山彝族自治州,凉山州政府,,30,10,26,3,14,94,,90,84,10,9,6,5,0.7,0.7
2025-04-05T1400,4229A,102.2342,27.8859,凉山彝族自治州,凯乐南路30号,,27,14,33,3,13,84,,81,73,10,10,7,8,0.6,0.6
2025-04-05T1400,2212A,123.2,41.1953,辽阳市,宏伟区,颗粒物(PM10),54,58,30,27,31,90,,93,69,15,11,13,10,1.3,1.1
2025-04-05T1400,2213A,123.1683,41.2495,辽阳市,新华园,颗粒物(PM10),52,53,35,19,34,108,,96,75,14,17,12,8,0.6,0.6
2025-04-05T1400,2214A,123.2354,41.2639,辽阳市,滨河路,,49,49,29,27,33,92,,90,69,13,13,10,8,0.9,0.7
2025-04-05T1400,2215A,123.149,41.2991,辽阳市,铁西工业园,,34,34,42,19,38,108,,92,79,8,14,11,10,0.4,0.7
2025-04-05T1400,2227A,125.1358,42.8845,辽源市,环保局,,33,33,39,11,17,91,,91,86,11,13,4,5,0.4,0.5
2025-04-05T1400,3239A,125.0764,42.9078,辽源市,银鹰制药,,30,23,29,14,21,96,,96,88,11,13,5,6,0.4,0.4
2025-04-05T1400,1625A,115.9848,36.4372,聊城市,区政府,,,,,,,,,,,,,,,,
2025-04-05T1400,2878A,116.0072,36.4343,聊城市,聊大东校,,,,,,,,,,,,,,,,
2025-04-05T1400,3200A,115.9819,36.4978,聊城市,监控中心,,32,23,117,3,55,100,,75,75,7,29,10,13,0.4,0.7
2025-04-05T1400,3513A,116.0445,36.4361,聊城市,九州社区,,34,28,114,7,39,107,,82,82,2,17,4,6,0.4,0.6
2025-04-05T1400,4018A,116.0567,36.4608,聊城市,星美广场,,33,30,115,3,41,103,,78,78,4,19,7,10,0.4,0.6
2025-04-05T1400,2632A,94.3681,29.6376,林芝市,林芝监测站,,40,,10,21,9,127,,144,131,8,6,5,5,0.5,0.6
2025-04-05T1400,2633A,94.3616,29.6616,林芝市,林芝人民医院,,37,27,15,16,7,117,,134,121,7,3,8,8,0.7,0.6
2025-04-05T1400,2603A,100.0781,23.8982,临沧市,市环保局,"颗粒物(PM10),细颗粒物(PM2.5)",80,110,90,59,61,115,,90,88,27,17,12,11,0.9,0.8
2025-04-05T1400,2604A,100.0894,23.8822,临沧市,市气象局,细颗粒物(PM2.5),90,97,79,67,63,101,,94,73,47,23,11,9,0.8,0.7
2025-04-05T1400,1733A,111.5531,36.0783,临汾市,临钢医院,颗粒物(PM10),59,68,90,7,9,95,,60,60,7,15,4,3,0.3,0.4
2025-04-05T1400,1734A,111.5028,36.0714,临汾市,技工学校,颗粒物(PM10),57,63,79,15,17,94,,61,61,8,11,7,5,0.4,0.4
2025-04-05T1400,1736A,111.5018,36.0855,临汾市,市委,颗粒物(PM10),64,77,88,7,10,96,,67,67,10,12,6,4,0.3,0.3
2025-04-05T1400,3018A,111.505,36.1014,临汾市,唐尧大酒店,颗粒物(PM10),66,82,92,9,12,94,,64,64,8,9,8,6,0.4,0.3
2025-04-05T1400,4244A,111.4879,36.0530,临汾市,启星学校,颗粒物(PM10),58,66,88,16,17,95,,62,62,6,9,4,2,0.5,0.4
2025-04-05T1400,4271A,103.2464,35.6123,临夏回族自治州,滨河东路1号,颗粒物(PM10),115,180,222,50,74,116,,60,60,5,21,9,7,0.4,0.5
2025-04-05T1400,4310A,103.2093,35.5995,临夏回族自治州,新华街21号,颗粒物(PM10),104,158,211,48,74,106,,59,59,8,21,14,12,0.3,0.6
2025-04-05T1400,1618A,118.3429,35.0532,临沂市,沂河小区,颗粒物(PM10),54,58,90,17,47,106,,76,76,7,20,9,10,0.5,0.7
2025-04-05T1400,1619A,118.295,35.0583,临沂市,鲁南制药厂,,,44,88,15,45,114,,81,81,13,30,10,12,,0.7
2025-04-05T1400,1620A,118.2794,34.9976,临沂市,新光毛纺厂,,39,39,81,13,44,108,,76,76,14,37,7,9,0.6,0.8
2025-04-05T1400,1621A,118.3956,35.0888,临沂市,河东保险公司,,39,39,77,11,44,113,,77,77,12,31,4,6,0.3,0.5
2025-04-05T1400,3370A,118.3564,35.0215,临沂市,十里堡居委,,48,48,79,7,41,110,,79,79,13,25,4,6,0.5,0.8
2025-04-05T1400,3496A,118.3604,35.1084,临沂市,南坊新区,,46,46,81,3,41,111,,80,80,8,25,8,8,0.5,0.7
2025-04-05T1400,3860A,118.3920,35.0300,临沂市,皇山花园小区,,36,34,77,11,38,113,,84,84,5,20,8,10,0.2,0.6
2025-04-05T1400,1870A,109.4856,24.3895,柳州市,柳东小学,细颗粒物(PM2.5),82,78,80,60,62,110,,76,76,14,19,15,23,0.7,0.7
2025-04-05T1400,1871A,109.4157,24.3277,柳州市,环保监测站,细颗粒物(PM2.5),94,82,93,70,65,120,,71,71,10,21,19,23,0.7,0.8
2025-04-05T1400,1872A,109.389,24.341,柳州市,河西水厂,颗粒物(PM10),72,93,98,44,58,119,,69,69,14,25,17,29,0.7,0.8
2025-04-05T1400,1873A,109.4311,24.2921,柳州市,市四中,细颗粒物(PM2.5),74,86,86,54,59,113,,70,70,12,20,16,19,0.9,1
2025-04-05T1400,1874A,109.4006,24.3631,柳州市,市九中,,,,93,,58,119,,68,68,9,19,18,23,,1
2025-04-05T1400,1875A,109.4958,24.3134,柳州市,古亭山,颗粒物(PM10),76,101,82,54,55,129,,75,75,9,17,14,23,0.8,0.8
2025-04-05T1400,3402A,109.5422,24.3996,柳州市,市二中,颗粒物(PM10),71,92,82,48,44,126,,71,71,10,18,15,23,0.6,0.7
2025-04-05T1400,2307A,116.5079,31.737,六安市,监测大楼,颗粒物(PM10),79,108,79,21,42,128,,106,106,7,16,7,7,0.6,0.8
2025-04-05T1400,2308A,116.4738,31.7643,六安市,皖西学院,颗粒物(PM10),88,126,94,43,46,135,,106,106,9,17,6,7,0.4,0.6
2025-04-05T1400,2309A,116.4996,31.7905,六安市,朝阳厂,颗粒物(PM10),76,102,80,34,45,131,,103,103,12,22,6,6,0.6,0.7
2025-04-05T1400,2310A,116.5567,31.7886,六安市,开发区,颗粒物(PM10),99,148,97,44,43,137,,109,109,13,23,6,7,0.5,0.7
2025-04-05T1400,2576A,104.8,26.5892,六盘水市,窑上,,30,29,64,12,33,96,,92,86,9,10,4,5,0.7,0.7
2025-04-05T1400,2577A,104.83,26.5917,六盘水市,黄土坡,,31,31,50,16,33,83,,98,89,20,14,10,10,0.8,0.7
2025-04-05T1400,2578A,104.89,26.5939,六盘水市,水钢,,31,31,62,21,38,86,,87,87,13,19,9,10,0.4,0.5
2025-04-05T1400,2579A,104.8475,26.5894,六盘水市,民中,,28,28,50,17,32,87,,95,83,16,16,8,9,0.6,0.6
2025-04-05T1400,2580A,104.9544,26.5506,六盘水市,双水,,32,31,62,22,41,85,,89,80,16,15,10,9,0.5,0.5
2025-04-05T1400,2335A,117.0189,25.1181,龙岩市,龙岩师专,,,,,,,,,,,,,,,,
2025-04-05T1400,2336A,117.0217,25.1033,龙岩市,龙岩市监测站,,38,31,38,26,28,70,,90,80,20,19,5,8,0.5,0.4
2025-04-05T1400,2337A,117.0258,25.0661,龙岩市,闽西职业技术学院,,42,34,42,29,28,73,,91,76,19,16,4,8,0.6,0.5
2025-04-05T1400,2338A,117.0196,25.0306,龙岩市,龙岩学院,,45,,37,31,28,78,,97,80,18,12,3,3,0.4,0.4
2025-04-05T1400,2665A,105.0822,33.3261,陇南市,汉王镇固水子,,,,,,,,,,,,,,,,
2025-04-05T1400,2885A,104.9339,33.3826,陇南市,滨江中学,颗粒物(PM10),80,110,144,33,43,85,,57,57,9,15,8,9,0.5,0.6
2025-04-05T1400,3247A,104.955,33.371,陇南市,市总工会,颗粒物(PM10),72,94,134,41,48,91,,64,60,8,10,9,8,0.5,0.6
2025-04-05T1400,2487A,111.9589,27.8901,娄底市,电视发射台,细颗粒物(PM2.5),84,112,72,62,38,101,,70,70,15,10,21,11,1.2,0.9
2025-04-05T1400,2488A,111.9975,27.725,娄底市,市监测站,细颗粒物(PM2.5),124,135,108,94,76,79,,41,41,47,37,43,22,2.4,1.1
2025-04-05T1400,2489A,112.0194,27.7314,娄底市,市委党校,细颗粒物(PM2.5),119,125,107,90,76,90,,47,47,36,31,15,7,1.5,0.9
2025-04-05T1400,2490A,111.9561,27.7569,娄底市,涟钢,细颗粒物(PM2.5),124,145,112,94,75,102,,42,42,25,27,21,7,1.3,1
2025-04-05T1400,2491A,111.9892,27.7044,娄底市,市政府,细颗粒物(PM2.5),134,140,107,102,75,90,,40,40,29,25,25,8,1.8,1
2025-04-05T1400,1893A,105.4324,28.9634,泸州市,九狮山,,,,,,,,,,,,,,,,
2025-04-05T1400,1894A,105.4427,28.9063,泸州市,小市上码头,颗粒物(PM10),60,69,79,35,40,60,,56,56,21,21,6,7,0.7,0.6
2025-04-05T1400,1895A,105.4241,28.8573,泸州市,兰田宪桥,细颗粒物(PM2.5),60,48,58,43,48,49,,44,44,14,16,7,6,0.6,0.6
2025-04-05T1400,1896A,105.4379,28.8833,泸州市,市环监站,,,,,,,,,,,,,,,,
2025-04-05T1400,4272A,105.3689,28.7783,泸州市,纳溪中医医院,颗粒物(PM10),52,53,66,30,46,48,,38,36,23,24,5,6,0.7,0.8
2025-04-05T1400,2183A,111.1406,37.5211,吕梁市,环保局,,40,40,100,11,25,97,,59,59,8,17,3,4,0.2,0.2
2025-04-05T1400,2185A,111.1297,37.5136,吕梁市,自来水公司,,48,48,116,8,17,98,,61,61,10,17,3,4,0.3,0.3
2025-04-05T1400,2867A,111.1283,37.51,吕梁市,马茂庄小学,,42,42,105,7,17,99,,60,60,10,21,1,3,0.3,0.3
2025-04-05T1400,1812A,112.3931,34.6516,洛阳市,市委党校,颗粒物(PM10),53,55,115,10,37,103,,62,62,11,34,5,8,0.5,0.7
2025-04-05T1400,1815A,112.494,34.6886,洛阳市,河南林校,颗粒物(PM10),67,83,143,13,37,104,,64,64,12,30,6,6,0.6,0.6
2025-04-05T1400,1816A,112.3844,34.623,洛阳市,开发区管委会,,48,48,106,11,33,104,,70,70,11,20,9,10,0.3,0.3
2025-04-05T1400,1817A,112.4267,34.6258,洛阳市,市委新办公区,,44,44,107,13,34,110,,73,73,10,24,6,6,0.1,0.2
2025-04-05T1400,3340A,112.6005,34.6326,洛阳市,伊滨,,42,42,93,12,36,107,,71,71,9,22,6,6,0.4,0.4
2025-04-05T1400,3341A,112.4951,34.6332,洛阳市,中移产业园,颗粒物(PM10),64,77,146,11,36,101,,64,64,10,27,8,9,0.3,0.4
2025-04-05T1400,3593A,112.5736,34.8993,洛阳市,吉利监测站,颗粒物(PM10),62,74,94,7,26,102,,76,76,10,19,8,8,0.4,0.4
2025-04-05T1400,3635A,112.3677,34.662,洛阳市,河科大西苑校区,颗粒物(PM10),53,56,122,17,32,104,,62,62,13,36,8,13,0.4,0.5
2025-04-05T1400,3636A,112.4388,34.6781,洛阳市,英才小学,,48,48,114,15,36,102,,62,62,12,36,9,10,0.4,0.5
2025-04-05T1400,4214A,112.4600,34.6949,洛阳市,春都路1号院,颗粒物(PM10),56,62,141,19,34,110,,68,68,10,32,8,8,0.5,0.6
2025-04-05T1400,2399A,114.051,33.5699,漯河市,三五一五工厂,颗粒物(PM10),69,88,114,12,52,117,,87,87,6,16,5,7,0.3,0.5
2025-04-05T1400,2400A,114.0055,33.5698,漯河市,漯河大学,颗粒物(PM10),66,81,111,17,48,117,,85,85,3,18,6,7,0.3,0.5
2025-04-05T1400,2401A,114.0138,33.5828,漯河市,市水利局,颗粒物(PM10),70,90,116,14,48,116,,85,85,8,18,4,7,0.3,0.4
2025-04-05T1400,2402A,114.0261,33.5698,漯河市,市广电局,颗粒物(PM10),72,93,116,16,47,114,,84,84,5,16,5,7,0.3,0.5
2025-04-05T1400,3478A,113.9749,33.5664,漯河市,市图书馆,颗粒物(PM10),66,81,112,14,53,121,,88,88,7,16,4,7,0.3,0.6
2025-04-05T1400,4250A,114.0892,33.5882,漯河市,韶山路11号,颗粒物(PM10),67,84,115,10,47,120,,88,88,8,16,4,8,0.3,0.5
2025-04-05T1400,1798A,118.5092,31.6837,马鞍山市,湖东路四小,颗粒物(PM10),78,105,101,20,52,136,,109,109,11,35,10,12,0.9,1
2025-04-05T1400,1799A,118.5024,31.6449,马鞍山市,开发区,颗粒物(PM10),74,98,98,31,57,140,,99,99,13,37,5,8,0.6,0.9
2025-04-05T1400,1802A,118.6245,31.7241,马鞍山市,濮塘,颗粒物(PM10),82,113,100,28,53,149,,119,119,3,21,9,13,0.3,0.7
2025-04-05T1400,3633A,118.4918,31.6809,马鞍山市,雨山,颗粒物(PM10),76,102,101,24,50,135,,109,109,8,32,11,12,0.7,1
2025-04-05T1400,4191A,118.5274,31.72227,马鞍山市,慈湖高新区,颗粒物(PM10),61,71,104,28,59,137,,104,104,14,42,8,13,0.5,1.1
2025-04-05T1400,1686A,111.0286,21.4688,茂名市,电白南海,细颗粒物(PM2.5),58,61,57,41,30,55,,58,53,21,13,4,3,1.1,1
2025-04-05T1400,1687A,110.9294,21.6533,茂名市,茂石化七小,细颗粒物(PM2.5),73,83,55,53,30,60,,60,52,16,10,22,9,1.0,0.9
2025-04-05T1400,1688A,110.9107,21.6687,茂名市,健康路,细颗粒物(PM2.5),67,68,53,48,30,72,,64,59,17,12,20,13,1.0,0.7
2025-04-05T1400,1689A,110.8592,21.6828,茂名市,高岭,细颗粒物(PM2.5),64,75,62,46,29,66,,48,48,12,11,41,15,0.9,0.7
2025-04-05T1400,3450A,111.01,21.5165,茂名市,电白水东,,46,46,46,29,22,61,,59,54,20,15,5,5,0.8,0.7
2025-04-05T1400,2539A,104.0308,30.0478,眉山市,黑龙滩水库,,21,,36,8,21,67,,54,51,5,4,2,2,0.3,0.3
2025-04-05T1400,2540A,103.8416,30.0874,眉山市,气象局,,30,30,52,12,28,72,,76,64,20,19,1,2,0.5,0.5
2025-04-05T1400,3137A,103.8578,30.0744,眉山市,市委党校,,,,62,,32,,,107,,,16,,6,,0.5
2025-04-05T1400,3148A,103.8291,30.0564,眉山市,区人社局,,32,32,49,9,26,66,,70,58,22,24,3,4,0.6,0.6
2025-04-05T1400,1690A,116.1231,24.3284,梅州市,梅江月梅,,43,33,36,30,27,76,,92,79,12,9,3,4,0.5,0.5
2025-04-05T1400,1691A,116.0797,24.2719,梅州市,梅县新城,,38,30,39,26,30,81,,98,83,16,13,5,6,0.5,0.5
2025-04-05T1400,1692A,116.1248,24.2654,梅州市,环境监控中心,,32,25,34,22,29,82,,103,86,13,14,6,6,0.6,0.6
2025-04-05T1400,3315A,116.1233,24.2991,梅州市,梅龙,,38,27,32,26,23,79,,91,80,10,9,6,6,0.5,0.5
2025-04-05T1400,1878A,104.7778,31.4741,绵阳市,富乐山,,48,48,61,21,34,112,,67,67,11,29,3,3,0.4,0.6
2025-04-05T1400,1880A,104.6697,31.4668,绵阳市,高新区自来水公司,颗粒物(PM10),53,56,83,22,35,116,,62,62,8,44,2,3,0.3,0.6
2025-04-05T1400,1881A,104.7287,31.5075,绵阳市,三水厂,颗粒物(PM10),60,69,89,19,42,109,,54,54,11,44,6,6,0.5,0.8
2025-04-05T1400,3491A,104.69,31.5322,绵阳市,西科大附属小学,颗粒物(PM10),51,52,79,18,39,109,,58,58,9,39,6,7,0.4,0.6
2025-04-05T1400,3492A,104.5648,31.5343,绵阳市,安州区旅游局,颗粒物(PM10),57,64,75,14,31,105,,65,65,8,31,8,6,0.7,1
2025-04-05T1400,4226A,104.7651,31.4531,绵阳市,绵阳市气象局,,47,47,71,9,35,108,,64,64,9,43,10,5,0.2,0.5
2025-04-05T1400,1784A,129.61,44.561,牡丹江市,环保大楼,,48,38,68,33,50,95,,61,61,17,30,5,8,0.4,0.5
2025-04-05T1400,1785A,129.6115,44.5782,牡丹江市,文化广场,细颗粒物(PM2.5),69,,84,50,63,96,,64,64,17,32,11,16,0.6,0.7
2025-04-05T1400,1786A,129.5904,44.5963,牡丹江市,第一医院,细颗粒物(PM2.5),54,43,68,38,55,90,,66,66,15,23,11,13,0.4,0.5
2025-04-05T1400,1787A,129.6364,44.6075,牡丹江市,机车工厂,,49,46,69,34,46,87,,61,61,26,29,8,54,0.6,0.6
2025-04-05T1400,1788A,129.6386,44.5462,牡丹江市,第一中学,细颗粒物(PM2.5),58,,64,41,41,101,,60,60,14,33,8,8,0.6,0.6
2025-04-05T1400,2531A,105.0703,29.61,内江市,市监测站,细颗粒物(PM2.5),53,40,56,37,43,77,,61,61,18,30,5,4,0.6,0.7
2025-04-05T1400,2532A,105.0717,29.5947,内江市,东兴区政府,细颗粒物(PM2.5),54,38,52,38,36,79,,65,65,12,27,3,2,0.7,0.7
2025-04-05T1400,2533A,105.0653,29.5817,内江市,内江二中,细颗粒物(PM2.5),60,55,64,43,43,81,,70,70,16,30,6,6,0.5,0.6
2025-04-05T1400,2534A,105.0406,29.5822,内江市,内江日报社,细颗粒物(PM2.5),59,53,60,42,43,79,,70,70,11,26,4,5,0.5,0.6
2025-04-05T1400,2628A,92.0657,31.4846,那曲市,那曲监测站,,33,22,29,11,16,105,,78,78,5,12,5,6,0.4,0.7
2025-04-05T1400,4243A,92.0515,31.4787,那曲市,那曲市委宣传部,,35,22,27,6,13,111,,88,88,2,8,4,4,0.2,0.3
2025-04-05T1400,1290A,115.8931,28.6843,南昌市,省外办,细颗粒物(PM2.5),64,63,82,46,58,129,,87,87,14,32,9,16,0.5,0.7
2025-04-05T1400,1291A,115.8886,28.7003,南昌市,省林业公司,颗粒物(PM10),65,80,81,27,52,123,,83,83,8,24,9,19,0.4,0.5
2025-04-05T1400,1292A,115.8126,28.7442,南昌市,林科所,颗粒物(PM10),54,58,65,17,45,139,,92,92,13,45,7,12,0.4,0.5
2025-04-05T1400,1294A,115.8518,28.687,南昌市,建工学校,颗粒物(PM10),58,66,95,25,62,134,,88,88,9,36,5,16,0.4,0.7
2025-04-05T1400,1295A,115.8921,28.6424,南昌市,象湖,颗粒物(PM10),58,66,84,27,52,154,,94,94,9,26,9,19,0.4,0.6
2025-04-05T1400,1296A,115.7423,28.7996,南昌市,武术学校,颗粒物(PM10),59,67,43,8,28,132,,89,89,4,6,9,8,0.6,0.6
2025-04-05T1400,3046A,115.9084,28.6062,南昌市,机电学校,颗粒物(PM10),67,83,94,27,57,137,,85,85,12,29,5,14,0.5,0.7
2025-04-05T1400,3690A,115.9721,28.7031,南昌市,外国语学校,颗粒物(PM10),66,81,83,35,54,149,,98,98,9,26,8,16,0.1,0.1
2025-04-05T1400,4192A,115.9316,28.68677,南昌市,南京东路235号,颗粒物(PM10),61,71,91,23,52,145,,97,97,18,37,12,20,0.4,0.7
2025-04-05T1400,1905A,106.056,30.8064,南充市,西山风景区,,37,37,55,24,41,106,,68,60,6,14,4,6,0.6,0.8
2025-04-05T1400,1906A,106.0789,30.8023,南充市,南充市委,,37,37,73,24,50,104,,59,59,9,23,4,5,0.5,0.7
2025-04-05T1400,1907A,106.1031,30.8217,南充市,南充炼油厂,,47,47,74,28,49,101,,58,58,7,20,4,6,0.4,0.6
2025-04-05T1400,1909A,106.0642,30.7636,南充市,嘉陵区环保局,,,,,,,,,,,,,,,,
2025-04-05T1400,4227A,106.1083,30.7884,南充市,梨树横街98号,,43,41,74,30,44,98,,56,56,11,20,7,7,0.0,0.2
2025-04-05T1400,4304A,106.1172,30.843,南充市,清泉寺北路188号,,46,46,80,30,45,101,,56,56,12,21,8,9,0.4,0.5
2025-04-05T1400,1151A,118.8086,32.1065,南京市,迈皋桥,颗粒物(PM10),62,74,90,31,53,137,,106,106,8,48,4,4,0.4,0.7
2025-04-05T1400,1152A,118.7538,32.0551,南京市,草场门,颗粒物(PM10),73,95,94,29,54,128,,101,101,10,39,4,7,0.7,0.8
2025-04-05T1400,1153A,118.7794,32.0745,南京市,山西路,颗粒物(PM10),79,107,107,17,55,131,,105,105,13,29,3,6,0.2,0.4
2025-04-05T1400,1154A,118.7752,32.0023,南京市,中华门,颗粒物(PM10),65,80,94,22,53,117,,94,94,8,30,8,11,0.3,0.5
2025-04-05T1400,1155A,118.8109,32.0309,南京市,瑞金路,颗粒物(PM10),70,90,105,27,53,124,,94,94,2,22,7,7,0.3,0.4
2025-04-05T1400,1156A,118.7997,32.0754,南京市,玄武湖,颗粒物(PM10),68,85,91,20,53,109,,83,83,12,23,6,8,0.5,0.6
2025-04-05T1400,1157A,118.6414,32.0931,南京市,浦口,颗粒物(PM10),71,91,103,16,48,135,,117,117,11,29,7,8,0.2,0.4
2025-04-05T1400,1158A,118.7356,31.9996,南京市,奥体中心,颗粒物(PM10),68,85,100,27,59,124,,93,93,10,38,7,9,0.3,0.5
2025-04-05T1400,1159A,118.9125,32.1028,南京市,仙林大学城,颗粒物(PM10),74,97,98,31,60,136,,99,99,9,30,10,12,0.7,1
2025-04-05T1400,3422A,118.8436,31.9198,南京市,江宁彩虹桥,颗粒物(PM10),110,169,100,34,54,141,,103,103,2,23,4,4,0.4,0.7
2025-04-05T1400,3427A,118.8554,32.3578,南京市,六合雄州,细颗粒物(PM2.5),59,42,84,42,52,126,,91,91,2,18,5,7,0.3,0.6
2025-04-05T1400,4249A,118.8708,31.3402,南京市,汶溪路181号,颗粒物(PM10),77,103,84,46,51,146,,112,112,11,32,6,7,0.6,0.9
2025-04-05T1400,4312A,119.019,31.6512,南京市,中山西路1号,颗粒物(PM10),65,80,82,36,49,146,,109,109,13,27,5,8,0.4,0.7
2025-04-05T1400,1401A,108.3103,22.7881,南宁市,二十一中,细颗粒物(PM2.5),93,90,46,69,32,99,,75,66,21,19,12,7,1.1,0.9
2025-04-05T1400,1402A,108.3141,22.8528,南宁市,北湖,细颗粒物(PM2.5),123,95,52,93,34,97,,84,74,20,18,16,11,0.8,0.6
2025-04-05T1400,1403A,108.3206,22.8225,南宁市,市监测站,细颗粒物(PM2.5),83,109,51,61,29,94,,79,68,22,19,10,10,0.7,0.5
2025-04-05T1400,1404A,108.3829,22.8037,南宁市,大自然花园,细颗粒物(PM2.5),93,98,56,69,32,103,,81,75,16,14,8,8,1.1,0.9
2025-04-05T1400,1405A,108.4394,22.7904,南宁市,仙葫,细颗粒物(PM2.5),127,,56,96,42,86,,53,53,22,21,5,4,0.8,0.6
2025-04-05T1400,1406A,108.2397,22.8467,南宁市,区农职院,细颗粒物(PM2.5),98,91,45,73,28,87,,79,68,13,13,5,5,0.9,0.7
2025-04-05T1400,1407A,108.3275,22.735,南宁市,英华嘉园,细颗粒物(PM2.5),84,98,48,62,30,105,,69,62,17,19,11,8,0.7,0.6
2025-04-05T1400,3401A,108.4834,22.7618,南宁市,红星社区,细颗粒物(PM2.5),92,87,60,68,40,108,,78,78,12,16,10,11,0.9,0.7
2025-04-05T1400,4221A,108.2177,22.7774,南宁市,乐贤路16号,,,98,48,50,27,85,,68,63,19,19,12,15,,0.9
2025-04-05T1400,2331A,118.0966,26.6761,南平市,茫荡山,,,,,,,,,,,,,,,,
2025-04-05T1400,2332A,118.1681,26.6369,南平市,南平市监测站,,42,42,45,28,30,102,,66,66,9,16,6,5,0.6,0.7
2025-04-05T1400,2333A,118.1825,26.6489,南平市,南平铝业有限公司,,45,45,41,25,30,103,,69,69,7,13,6,6,0.7,0.7
2025-04-05T1400,2334A,118.1756,26.6272,南平市,南平七中,,48,48,38,28,28,96,,65,65,7,13,7,6,0.7,0.7
2025-04-05T1400,1168A,120.9098,31.9663,南通市,狼山街道,细颗粒物(PM2.5),79,104,65,58,33,160,,85,85,24,48,8,9,0.9,0.8
2025-04-05T1400,1169A,120.86,32.0005,南通市,虹桥,细颗粒物(PM2.5),80,92,69,59,41,149,,84,84,18,51,7,9,0.7,0.7
2025-04-05T1400,1170A,120.87,32.02,南通市,城中,,,100,71,,35,157,,91,91,15,49,7,9,0.8,0.8
2025-04-05T1400,1171A,120.94,31.93,南通市,星湖花园,细颗粒物(PM2.5),87,101,65,64,39,166,,79,79,25,53,9,10,0.4,0.4
2025-04-05T1400,1172A,120.81,32.0417,南通市,紫琅学院,细颗粒物(PM2.5),75,97,64,55,39,150,,88,88,14,49,4,6,0.5,0.5
2025-04-05T1400,3291A,121.067,32.062,南通市,通州监测站,细颗粒物(PM2.5),70,88,62,51,37,151,,90,90,14,32,6,6,0.8,0.7
2025-04-05T1400,3432A,120.9348,31.9883,南通市,环境教育馆,细颗粒物(PM2.5),83,102,60,61,36,159,,91,91,12,42,7,8,0.6,0.5
2025-04-05T1400,2404A,112.5224,33.0122,南阳市,瓦房庄,,,,,,,,,,,,,,,,
2025-04-05T1400,2405A,112.5003,32.9735,南阳市,汉画馆,颗粒物(PM10),66,81,98,26,57,104,,48,48,13,34,6,6,0.4,0.7
2025-04-05T1400,2406A,112.5573,33.027,南阳市,气象站,颗粒物(PM10),66,81,116,12,51,111,,73,73,14,26,8,8,0.4,0.6
2025-04-05T1400,2407A,112.5481,32.9689,南阳市,理工学院,颗粒物(PM10),65,79,104,16,52,115,,69,69,12,28,4,6,0.4,0.7
2025-04-05T1400,4008A,112.5234,32.9922,南阳市,卧龙区政府,颗粒物(PM10),68,86,109,22,58,114,,59,59,5,26,5,6,0.5,0.7
2025-04-05T1400,1234A,121.8358,29.911,宁波市,区环保大楼,颗粒物(PM10),71,91,45,40,18,156,,83,83,24,29,10,9,0.6,0.6
2025-04-05T1400,1235A,121.56,29.82,宁波市,万里学院,颗粒物(PM10),55,60,36,30,18,151,,116,116,11,12,11,11,0.6,0.6
2025-04-05T1400,1236A,121.713,29.9572,宁波市,龙赛医院,颗粒物(PM10),68,85,42,32,19,155,,99,99,23,22,10,8,0.6,0.5
2025-04-05T1400,1239A,121.633,29.7733,宁波市,钱湖水厂,颗粒物(PM10),52,54,31,26,16,150,,115,115,13,15,8,7,0.6,0.6
2025-04-05T1400,1240A,121.5856,29.8635,宁波市,太古小学,颗粒物(PM10),52,54,38,26,18,149,,111,111,9,15,9,9,0.4,0.4
2025-04-05T1400,1241A,121.524,29.8674,宁波市,市环境监测中心,颗粒物(PM10),52,54,36,25,19,147,,100,100,19,29,9,9,0.4,0.4
2025-04-05T1400,2871A,121.6147,29.9017,宁波市,万里国际学校,,46,40,33,27,17,145,,108,108,15,15,8,8,0.6,0.6
2025-04-05T1400,3710A,121.5594,29.8975,宁波市,白沙活动中心,,46,43,37,22,18,145,,97,97,8,19,7,7,0.4,0.4
2025-04-05T1400,2339A,119.5001,26.6946,宁德市,金涵水库,,,,,,,,,,,,,,,,
2025-04-05T1400,2341A,119.5388,26.6612,宁德市,宁德市监测站,,42,42,38,24,29,101,,76,76,17,15,4,5,0.5,0.6
2025-04-05T1400,3209A,119.5231,26.6562,宁德市,宁德一中,,38,34,36,26,30,108,,85,85,12,10,6,6,0.3,0.3
2025-04-05T1400,2618A,98.8601,25.8567,怒江傈僳族自治州,州监测站,细颗粒物(PM2.5),53,49,62,37,45,115,,104,104,7,8,7,8,0.5,0.5
2025-04-05T1400,2619A,98.8546,25.8417,怒江傈僳族自治州,泸水一中,细颗粒物(PM2.5),78,,56,57,43,93,,91,91,18,12,7,8,0.6,0.6
2025-04-05T1400,1888A,101.6891,26.571,攀枝花市,弄弄坪,颗粒物(PM10),51,51,58,21,25,86,,79,79,22,24,7,23,0.6,1.6
2025-04-05T1400,1889A,101.5769,26.5928,攀枝花市,河门口,,,46,51,,27,103,,78,78,18,15,21,12,1.9,0.7
2025-04-05T1400,1890A,101.7169,26.585,攀枝花市,炳草岗,,43,43,49,20,23,77,,79,79,32,23,14,14,0.7,0.7
2025-04-05T1400,1891A,101.7369,26.5008,攀枝花市,仁和,,38,36,46,26,28,110,,77,77,13,18,8,9,0.6,0.6
2025-04-05T1400,2835A,101.7227,26.567,攀枝花市,四十中小,,50,50,51,26,29,95,,89,89,15,14,7,9,0.7,0.8
2025-04-05T1400,1604A,122.0303,41.1489,盘锦市,开发区,,33,30,40,6,45,104,,72,72,8,26,11,9,0.4,0.7
2025-04-05T1400,1605A,122.0485,41.0883,盘锦市,兴隆台,,31,31,48,6,49,97,,63,63,9,34,12,8,0.5,0.9
2025-04-05T1400,1606A,121.8297,41.1028,盘锦市,新生街道,,31,31,33,3,41,99,,72,72,11,33,11,9,0.7,0.9
2025-04-05T1400,1832A,113.3257,33.742,平顶山市,新华旅馆,颗粒物(PM10),54,57,115,9,40,112,,78,78,8,24,5,6,0.4,0.6
2025-04-05T1400,1833A,113.2919,33.737,平顶山市,规划设计院,颗粒物(PM10),51,52,114,7,41,113,,83,83,4,24,5,8,0.2,0.5
2025-04-05T1400,1834A,113.182,33.774,平顶山市,平顶山工学院,颗粒物(PM10),55,59,101,12,35,112,,83,83,5,15,7,7,0.4,0.5
2025-04-05T1400,3204A,113.3025,33.73,平顶山市,规划局,颗粒物(PM10),59,68,118,14,50,115,,86,86,5,20,5,8,0.5,0.7
2025-04-05T1400,3594A,112.8867,33.9116,平顶山市,石龙区,颗粒物(PM10),65,79,142,12,30,116,,87,87,2,23,4,7,0.3,0.3
2025-04-05T1400,2656A,106.6692,35.5461,平凉市,聚贤嘉苑,颗粒物(PM10),95,140,135,36,31,107,,72,72,10,22,26,20,0.5,0.5
2025-04-05T1400,2657A,106.7021,35.5307,平凉市,博物馆,颗粒物(PM10),95,139,134,26,31,107,,71,71,10,20,12,10,0.5,0.6
2025-04-05T1400,2347A,114.0997,27.5002,萍乡市,武功山,细颗粒物(PM2.5),53,54,41,37,30,117,,70,70,10,10,13,9,1.3,1
2025-04-05T1400,2348A,113.8385,27.6434,萍乡市,中医院,颗粒物(PM10),61,72,91,34,56,131,,65,65,14,26,13,24,0.9,1.2
2025-04-05T1400,2349A,113.8493,27.6253,萍乡市,市政府车库,细颗粒物(PM2.5),60,64,84,43,61,138,,67,67,15,31,10,19,0.9,1.2
2025-04-05T1400,2350A,113.8676,27.6435,萍乡市,市环保局,颗粒物(PM10),60,69,85,38,57,130,,65,65,12,29,9,21,0.8,1
2025-04-05T1400,2351A,113.866,27.6198,萍乡市,安源区政府,颗粒物(PM10),64,77,93,42,60,132,,62,62,20,32,18,22,1.3,0.9
2025-04-05T1400,2319A,119.0141,25.4325,莆田市,荔城区仓后路,,,50,45,44,24,74,,114,77,,10,2,2,0.6,0.5
2025-04-05T1400,2320A,119.0015,25.4553,莆田市,莆田市监测站,,43,39,37,30,20,79,,117,78,15,8,4,4,0.5,0.4
2025-04-05T1400,2321A,119.1119,25.4561,莆田市,涵江区六中,细颗粒物(PM2.5),57,44,44,40,27,78,,112,66,29,16,2,2,0.6,0.6
2025-04-05T1400,2322A,119.1013,25.3215,莆田市,秀屿区政府,细颗粒物(PM2.5),60,,42,43,29,85,,118,84,26,15,4,4,0.6,0.6
2025-04-05T1400,2323A,118.981,25.4792,莆田市,东圳水库,,,,,,,,,,,,,,,,
2025-04-05T1400,2392A,115.0312,35.7636,濮阳市,环保局,,34,34,96,6,45,104,,86,86,9,20,6,9,0.3,0.6
2025-04-05T1400,2394A,115.0574,35.7609,濮阳市,油田运输公司,,41,41,104,9,46,112,,92,92,9,20,4,7,0.3,0.6
2025-04-05T1400,3021A,115,35.7668,濮阳市,濮水河管理处,,35,33,109,15,50,109,,90,90,11,27,4,7,0.4,0.7
2025-04-05T1400,4216A,115.0924,35.7686,濮阳市,任丘路479号,,41,41,113,10,49,116,,95,95,8,21,5,7,0.4,0.7
2025-04-05T1400,2601A,100.98,22.7633,普洱市,市环保局,,,124,160,72,79,144,,78,78,10,17,,7,1.0,1.2
2025-04-05T1400,2602A,100.9817,22.8322,普洱市,普洱第二中学,颗粒物(PM10),84,117,119,60,82,138,,69,69,11,29,10,7,0.8,1
2025-04-05T1400,2262A,131.0518,45.8751,七台河市,新一中,,36,36,37,20,25,105,,88,88,10,14,13,12,0.7,1
2025-04-05T1400,3345A,131.0577,45.7879,七台河市,中波台,,34,34,41,16,25,94,,74,74,21,17,8,6,0.5,0.6
2025-04-05T1400,3637A,131.0176,45.7761,七台河市,人民广场,,42,39,53,29,35,103,,79,79,17,22,9,9,0.5,0.6
2025-04-05T1400,3684A,130.8781,45.8222,七台河市,新建矿广场,颗粒物(PM10),56,61,70,19,32,106,,80,80,14,27,2,15,0.6,0.7
2025-04-05T1400,1779A,123.9305,47.3636,齐齐哈尔市,安居小区,,50,50,135,26,53,52,,79,61,25,25,3,5,0.6,0.6
2025-04-05T1400,1780A,123.9488,47.3386,齐齐哈尔市,中心广场,颗粒物(PM10),51,51,148,34,61,51,,72,56,27,26,6,8,0.7,0.7
2025-04-05T1400,1781A,123.9483,47.3227,齐齐哈尔市,农牧车辆厂,,38,36,118,26,49,58,,78,65,22,21,6,7,0.3,0.4
2025-04-05T1400,1783A,123.945,47.2988,齐齐哈尔市,市环境监测站,,40,30,125,28,56,56,,80,65,19,18,3,4,0.5,0.6
2025-04-05T1400,3662A,123.6333,47.2075,齐齐哈尔市,富区青少年活动中心,颗粒物(PM10),110,170,161,,83,65,,71,53,22,17,3,4,0.9,0.7
2025-04-05T1400,2591A,107.9783,26.5747,黔东南苗族侗族自治州,市环境监测站,细颗粒物(PM2.5),63,67,71,45,48,81,,76,56,13,12,4,6,0.5,0.5
2025-04-05T1400,2881A,107.8908,26.5311,黔东南苗族侗族自治州,凯里学院,细颗粒物(PM2.5),64,61,70,46,47,74,,87,57,9,10,2,5,0.6,0.6
2025-04-05T1400,2593A,107.5228,26.2403,黔南布依族苗族自治州,小围寨,细颗粒物(PM2.5),52,51,59,36,40,102,,100,86,9,10,10,9,0.4,0.5
2025-04-05T1400,3538A,107.5175,26.2978,黔南布依族苗族自治州,沙坝,颗粒物(PM10),54,58,70,34,43,98,,92,81,10,13,9,10,0.5,0.7
2025-04-05T1400,2589A,104.9022,25.0925,黔西南布依族苗族自治州,场坝街,颗粒物(PM10),51,52,77,29,54,107,,104,98,12,14,13,12,0.4,0.5
2025-04-05T1400,2590A,104.8811,25.0992,黔西南布依族苗族自治州,坪东大道,颗粒物(PM10),51,51,67,31,53,104,,107,94,14,14,8,7,0.3,0.4
2025-04-05T1400,2502A,108.6236,21.9667,钦州市,市环保站,细颗粒物(PM2.5),147,158,67,112,32,115,,79,79,21,20,17,11,1.3,0.7
2025-04-05T1400,2503A,108.6549,21.9481,钦州市,沙埠小学,细颗粒物(PM2.5),172,159,69,130,38,120,,72,72,16,20,14,10,1.1,0.8
2025-04-05T1400,2504A,108.5989,21.7431,钦州市,港区一小,细颗粒物(PM2.5),129,142,60,98,31,116,,78,78,24,24,16,10,1.0,0.7
2025-04-05T1400,3404A,108.5959,21.9633,钦州市,北职校,细颗粒物(PM2.5),150,150,60,115,35,111,,75,75,20,21,19,11,1.3,0.8
2025-04-05T1400,1043A,119.7493,40.0116,秦皇岛市,第一关,,31,11,41,11,28,98,,85,85,6,33,3,5,0.2,0.4
2025-04-05T1400,1044A,119.5897,39.9499,秦皇岛市,监测站,,32,13,48,6,23,102,,89,89,2,21,2,4,0.2,0.5
2025-04-05T1400,1046A,119.5251,39.9041,秦皇岛市,建设大厦,,31,13,58,9,31,98,,84,84,8,36,2,4,0.2,0.5
2025-04-05T1400,3132A,119.610547,39.943889,秦皇岛市,文明里,,31,17,50,3,23,98,,84,84,2,19,2,4,0.1,0.4
2025-04-05T1400,4198A,119.5090,39.8253,秦皇岛市,北戴河轮滑馆,,31,13,52,6,25,98,,86,86,2,19,5,6,0.1,0.5
2025-04-05T1400,1307A,120.6659,36.2403,青岛市,仰口,,34,28,50,13,32,107,,93,93,5,9,4,4,0.6,0.6
2025-04-05T1400,1310A,120.4134,36.0658,青岛市,市南区东部子站,,34,34,49,9,18,98,,76,76,6,13,7,7,0.5,0.5
2025-04-05T1400,1311A,120.3664,36.1032,青岛市,四方区子站,,34,31,48,7,22,106,,81,81,5,14,6,7,0.4,0.5
2025-04-05T1400,1312A,120.2994,36.054,青岛市,市南区西部子站,,31,31,43,3,17,99,,74,74,11,21,8,7,0.5,0.6
2025-04-05T1400,1313A,120.4581,36.0858,青岛市,崂山区子站,,34,29,43,3,15,106,,84,84,5,10,8,8,0.5,0.4
2025-04-05T1400,1315A,120.3999,36.3083,青岛市,城阳区子站,,36,27,54,3,25,115,,84,84,7,20,10,9,0.5,0.6
2025-04-05T1400,1966A,120.0405,35.8735,青岛市,黄岛区4号,,39,39,43,7,16,104,,80,80,10,16,8,8,0.6,0.7
2025-04-05T1400,3362A,120.5014,36.4034,青岛市,即墨2号,,37,37,64,6,31,99,,76,76,7,15,7,8,0.5,0.6
2025-04-05T1400,3642A,120.3503,36.0736,青岛市,市北区南部,,40,40,44,3,19,98,,70,70,11,11,6,6,0.4,0.6
2025-04-05T1400,3643A,120.3948,36.1805,青岛市,李沧区北部,,31,31,47,9,26,98,,76,76,9,18,8,8,0.5,0.6
2025-04-05T1400,4290A,120.1969,35.9546,青岛市,珠江路669号,,34,27,44,12,20,106,,83,83,8,17,7,7,0.7,0.7
2025-04-05T1400,1702A,113.0426,23.691,清远市,环保大楼,细颗粒物(PM2.5),60,54,54,43,42,84,,103,78,14,16,10,10,0.8,0.7
2025-04-05T1400,1703A,113.0208,23.7106,清远市,凤城街办,细颗粒物(PM2.5),59,63,65,42,36,60,,89,65,33,25,10,11,0.7,0.6
2025-04-05T1400,3025A,113.0477,23.6344,清远市,技师学院,,50,50,67,33,36,90,,94,85,19,23,13,11,1.0,0.9
2025-04-05T1400,3318A,112.9903,23.7403,清远市,清新太和,细颗粒物(PM2.5),67,75,67,48,36,81,,103,78,28,25,10,10,0.8,0.7
2025-04-05T1400,3455A,113.076,23.7198,清远市,清城东城,颗粒物(PM10),56,61,73,37,38,84,,92,73,15,19,12,11,1.0,0.8
2025-04-05T1400,2661A,107.6325,35.7357,庆阳市,庆阳五中,颗粒物(PM10),93,136,133,44,35,121,,96,96,9,11,5,4,0.2,0.3
2025-04-05T1400,2662A,107.6364,35.7067,庆阳市,市环保局,颗粒物(PM10),87,124,128,36,32,121,,104,104,8,8,6,5,0.2,0.2
2025-04-05T1400,1916A,103.7897,25.5035,曲靖市,环境监测站,,45,45,82,28,41,89,,105,76,17,14,4,6,0.7,0.6
2025-04-05T1400,1917A,103.8,25.5364,曲靖市,烟厂办公区,,46,46,78,28,42,88,,98,74,14,13,5,5,0.6,0.6
2025-04-05T1400,3376A,103.7947,25.462,曲靖市,南苑二区,颗粒物(PM10),57,63,74,35,43,79,,96,75,16,14,4,8,0.7,0.6
2025-04-05T1400,3377A,103.7444,25.5261,曲靖市,曲靖师范学院,细颗粒物(PM2.5),65,48,82,47,55,90,,98,75,14,13,6,9,0.6,0.6
2025-04-05T1400,1264A,118.8692,28.9398,衢州市,环保大楼,颗粒物(PM10),56,61,73,26,37,135,,104,104,7,25,5,5,0.4,0.6
2025-04-05T1400,1265A,118.8709,28.9666,衢州市,实验学校,颗粒物(PM10),53,56,68,30,37,139,,104,104,10,33,7,9,0.4,0.5
2025-04-05T1400,1266A,118.8621,28.9808,衢州市,衢州学院,颗粒物(PM10),54,58,71,28,40,130,,95,95,10,32,7,9,0.2,0.3
2025-04-05T1400,1611A,118.5819,24.9117,泉州市,涂山街,,42,42,48,29,32,96,,95,83,12,12,3,4,0.7,0.8
2025-04-05T1400,1612A,118.5972,24.8978,泉州市,津头埔,,40,36,48,28,32,88,,95,81,24,16,2,3,0.5,0.8
2025-04-05T1400,1613A,118.6663,24.9424,泉州市,万安,,43,41,46,30,29,98,,103,84,16,15,3,4,0.6,0.6
2025-04-05T1400,1614A,118.6117,24.9604,泉州市,清源山,,,,,,,,,,,,,,,,
2025-04-05T1400,3529A,118.6333,24.9264,泉州市,城华南路,,44,44,50,29,28,90,,108,84,20,14,3,4,0.5,0.5
2025-04-05T1400,2626A,88.8876,29.2718,日喀则市,日喀则监测站,,47,31,38,25,22,149,,149,139,3,5,4,5,0.4,0.5
