timepoint,stationcode,longitude,latitude,area,positionname,primarypollutant,aqi,pm10,pm10_24h,pm2_5,pm2_5_24h,o3,o3_24h,o3_8h,o3_8h_24h,no2,no2_24h,so2,so2_24h,co,co_24h
2023-05-16T01:00:00,1001A,116.3621,39.8784,北京市,万寿西宫,颗粒物(PM10),81,112,98,40,54,246,110,110,110,24,24,2,3,0.8,1
2023-05-16T01:00:00,1002A,116.2202,40.2915,北京市,定陵,臭氧1小时,92,120,79,46,37,308,193,193,193,11,14,3,4,0.8,0.8
2023-05-16T01:00:00,1003A,116.4174,39.9289,北京市,东四,颗粒物(PM10),85,120,107,39,57,276,132,132,132,18,23,4,5,1.0,1.1
2023-05-16T01:00:00,1004A,116.4072,39.8863,北京市,天坛,颗粒物(PM10),78,105,95,34,52,261,129,129,129,17,25,2,3,0.5,0.8
2023-05-16T01:00:00,1005A,116.462,39.9365,北京市,农展馆,颗粒物(PM10),80,110,102,37,54,246,126,126,126,17,30,1,3,0.6,0.9
2023-05-16T01:00:00,1006A,116.3392,39.9295,北京市,官园,颗粒物(PM10),80,110,101,38,57,243,117,117,117,19,28,5,5,0.6,0.8
2023-05-16T01:00:00,1007A,116.2878,39.9611,北京市,海淀万柳,颗粒物(PM10),80,109,104,33,55,192,107,107,107,20,42,3,3,0.6,0.7
2023-05-16T01:00:00,1008A,116.6636,40.135,北京市,顺义新城,细颗粒物(PM2.5),80,107,119,59,70,271,106,106,106,25,20,2,4,0.8,1
2023-05-16T01:00:00,1009A,116.6275,40.3275,北京市,怀柔镇,细颗粒物(PM2.5),77,95,113,56,58,288,148,148,148,22,21,2,4,0.8,0.8
2023-05-16T01:00:00,1010A,116.2296,40.217,北京市,昌平镇,颗粒物(PM10),79,108,93,44,49,273,164,164,164,6,6,1,2,0.7,0.8
2023-05-16T01:00:00,1011A,116.3966,39.9821,北京市,奥体中心,颗粒物(PM10),77,103,104,33,51,243,126,126,126,20,32,3,3,0.5,0.8
2023-05-16T01:00:00,1012A,116.184,39.9136,北京市,古城,颗粒物(PM10),96,142,109,34,52,238,117,117,117,23,30,2,3,0.7,0.8
2023-05-16T01:00:00,1015A,117.1444,39.1661,天津市,勤俭道,颗粒物(PM10),86,122,120,37,62,239,119,119,119,15,31,11,11,0.7,0.8
2023-05-16T01:00:00,1017A,117.237,39.1082,天津市,大直沽八号路,颗粒物(PM10),82,114,107,45,63,220,111,111,111,14,36,5,9,0.5,0.6
2023-05-16T01:00:00,1018A,117.202,39.0927,天津市,前进道,颗粒物(PM10),85,119,131,45,68,234,118,118,118,23,41,9,9,0.6,0.8
2023-05-16T01:00:00,1019A,117.1837,39.2133,天津市,淮河道,颗粒物(PM10),94,138,90,42,50,259,131,131,131,16,32,9,9,0.6,0.8
2023-05-16T01:00:00,1021A,117.307,39.0877,天津市,跃进路,颗粒物(PM10),83,116,122,44,59,248,125,125,125,13,34,8,10,0.7,0.8
2023-05-16T01:00:00,1023A,117.707,39.0343,天津市,第四大街,颗粒物(PM10),75,99,84,40,46,250,127,127,127,12,43,4,5,0.7,0.9
2023-05-16T01:00:00,1024A,117.457,38.8394,天津市,永明路,颗粒物(PM10),75,99,90,42,42,243,118,118,118,14,26,8,10,0.6,0.6
2023-05-16T01:00:00,1026A,117.764,39.1587,天津市,汉北路,颗粒物(PM10),75,99,75,20,41,256,134,134,134,11,22,4,7,0.8,0.9
2023-05-16T01:00:00,1027A,117.157,38.9194,天津市,团泊洼,细颗粒物(PM2.5),93,86,92,69,58,244,125,125,125,21,35,4,6,0.6,0.8
2023-05-16T01:00:00,1029A,114.4422,38.0444,石家庄市,职工医院,颗粒物(PM10),65,79,112,35,43,245,115,115,115,21,37,8,13,0.4,0.5
2023-05-16T01:00:00,1030A,114.6063,38.0266,石家庄市,高新区,颗粒物(PM10),78,105,108,33,39,243,89,89,89,16,25,5,8,0.9,0.7
2023-05-16T01:00:00,1031A,114.4898,38.1328,石家庄市,西北水源,颗粒物(PM10),78,106,120,47,46,244,111,111,111,24,30,10,10,0.8,0.8
2023-05-16T01:00:00,1032A,114.4586,38.0058,石家庄市,西南高教,颗粒物(PM10),87,124,108,44,44,247,116,116,116,23,37,9,10,0.9,0.9
2023-05-16T01:00:00,1033A,114.5331,38.0178,石家庄市,世纪公园,颗粒物(PM10),66,81,98,43,41,231,73,73,73,25,30,8,9,0.8,0.8
2023-05-16T01:00:00,1034A,114.509,38.0457,石家庄市,人民会堂,颗粒物(PM10),66,82,109,36,44,249,98,98,98,23,33,14,14,0.8,0.8
2023-05-16T01:00:00,1035A,114.3524,37.8911,石家庄市,封龙山,颗粒物(PM10),92,133,108,47,30,264,145,145,145,4,11,22,11,0.3,0.7
2023-05-16T01:00:00,1037A,118.131,39.6363,唐山市,雷达站,颗粒物(PM10),94,137,118,56,67,310,98,98,98,32,25,7,10,0.7,1.4
2023-05-16T01:00:00,1038A,118.1725,39.6334,唐山市,物资局,颗粒物(PM10),108,165,128,78,60,293,70,70,70,43,31,10,13,0.8,1.5
2023-05-16T01:00:00,1040A,118.1705,39.6506,唐山市,十二中,细颗粒物(PM2.5),102,142,109,76,62,309,58,58,58,45,28,11,14,1.1,1.5
2023-05-16T01:00:00,1041A,118.1869,39.622,唐山市,小山,颗粒物(PM10),103,155,126,60,57,322,69,69,69,38,22,10,13,0.8,1.4
2023-05-16T01:00:00,1042A,119.5134,39.8207,秦皇岛市,北戴河环保局,细颗粒物(PM2.5),72,79,69,52,54,168,127,127,127,12,15,2,3,0.4,0.2
2023-05-16T01:00:00,1043A,119.7493,40.0116,秦皇岛市,第一关,细颗粒物(PM2.5),117,103,88,88,65,172,107,107,107,42,36,1,2,0.5,0.5
2023-05-16T01:00:00,1044A,119.5897,39.9499,秦皇岛市,监测站,细颗粒物(PM2.5),102,117,102,76,70,172,123,123,123,17,30,2,2,0.6,0.5
2023-05-16T01:00:00,1046A,119.5251,39.9041,秦皇岛市,建设大厦,细颗粒物(PM2.5),85,107,95,63,64,158,128,128,128,15,25,5,7,0.5,0.5
2023-05-16T01:00:00,1048A,114.5302,36.6116,邯郸市,东污水处理厂,颗粒物(PM10),59,68,92,30,37,174,100,100,100,12,23,5,4,0.6,0.4
2023-05-16T01:00:00,1049A,114.4918,36.5713,邯郸市,矿院,颗粒物(PM10),56,62,74,31,41,183,100,100,100,14,32,4,8,0.5,0.7
2023-05-16T01:00:00,1050A,114.484,36.6133,邯郸市,丛台公园,颗粒物(PM10),54,57,96,35,40,180,99,99,99,12,22,5,8,0.6,0.8
2023-05-16T01:00:00,1051A,115.493,38.8632,保定市,游泳馆,细颗粒物(PM2.5),67,68,84,48,61,230,74,74,74,12,28,14,15,0.2,0.4
2023-05-16T01:00:00,1052A,115.5213,38.8959,保定市,华电二区,颗粒物(PM10),64,77,113,37,48,223,100,100,100,12,28,8,9,0.6,0.7
2023-05-16T01:00:00,1053A,115.4713,38.9108,保定市,接待中心,颗粒物(PM10),63,75,120,22,40,219,107,107,107,6,27,10,10,0.5,0.6
2023-05-16T01:00:00,1054A,115.4612,38.8416,保定市,地表水厂,颗粒物(PM10),74,97,127,30,42,218,88,88,88,19,38,8,12,0.5,0.7
2023-05-16T01:00:00,1056A,115.5086,38.8639,保定市,监测站,"颗粒物(PM10),细颗粒物(PM2.5)",68,86,120,49,52,236,98,98,98,19,31,9,10,0.4,0.4
2023-05-16T01:00:00,1057A,114.8883,40.8336,张家口市,人民公园,颗粒物(PM10),58,65,60,20,17,145,99,99,99,8,11,4,5,0.3,0.4
2023-05-16T01:00:00,1059A,114.8687,40.8042,张家口市,五金库,颗粒物(PM10),61,71,58,35,20,140,83,83,83,27,21,4,4,0.5,0.4
2023-05-16T01:00:00,1060A,114.8902,40.762,张家口市,世纪豪园,颗粒物(PM10),70,90,65,43,34,143,114,114,114,27,18,4,3,0.4,0.3
2023-05-16T01:00:00,1061A,114.8916,40.8661,张家口市,北泵房,颗粒物(PM10),55,60,59,24,19,147,72,72,72,14,11,9,10,0.4,0.4
2023-05-16T01:00:00,1062A,117.9531,40.9081,承德市,铁路,颗粒物(PM10),90,130,79,56,33,224,185,185,185,31,24,14,12,0.8,0.6
2023-05-16T01:00:00,1063A,117.9392,40.9763,承德市,中国银行,颗粒物(PM10),82,114,80,54,37,255,140,140,140,32,22,8,10,0.8,0.5
2023-05-16T01:00:00,1064A,117.9503,40.928,承德市,开发区,颗粒物(PM10),81,111,76,53,34,254,175,175,175,27,24,12,11,0.9,0.6
2023-05-16T01:00:00,1065A,117.8051,40.9655,承德市,文化中心,"颗粒物(PM10),细颗粒物(PM2.5)",83,116,81,61,39,189,123,123,123,44,27,8,12,0.7,0.6
2023-05-16T01:00:00,1066A,117.9268,41.0026,承德市,离宫,细颗粒物(PM2.5),90,111,69,67,33,189,154,154,154,21,17,6,7,0.7,0.5
2023-05-16T01:00:00,1067A,116.6708,39.5111,廊坊市,药材公司,颗粒物(PM10),87,124,120,43,56,257,110,110,110,20,25,7,7,0.5,0.8
2023-05-16T01:00:00,1068A,116.7214,39.5589,廊坊市,开发区,颗粒物(PM10),86,122,113,62,68,262,123,123,123,26,29,10,9,0.6,0.8
2023-05-16T01:00:00,1070A,116.7244,39.5269,廊坊市,北华航天学院,颗粒物(PM10),98,146,130,56,65,253,115,115,115,17,23,8,8,0.5,0.7
2023-05-16T01:00:00,1071A,116.8842,38.2991,沧州市,沧县城建局,颗粒物(PM10),56,61,90,35,41,209,109,109,109,11,19,8,12,0.6,0.7
2023-05-16T01:00:00,1072A,116.8584,38.3254,沧州市,电视转播站,细颗粒物(PM2.5),62,69,97,44,54,214,103,103,103,19,25,10,14,0.4,0.6
2023-05-16T01:00:00,1073A,116.8709,38.3228,沧州市,市环保局,颗粒物(PM10),60,70,103,42,46,214,107,107,107,18,27,7,13,0.3,0.4
2023-05-16T01:00:00,1074A,115.6838,37.7541,衡水市,电机北厂,颗粒物(PM10),69,88,117,40,46,217,117,117,117,6,18,6,8,0.6,0.7
2023-05-16T01:00:00,1075A,115.6303,37.7316,衡水市,市监测站,颗粒物(PM10),69,88,111,43,49,214,120,120,120,9,19,8,10,0.7,0.7
2023-05-16T01:00:00,1077A,114.4704,37.0886,邢台市,达活泉,颗粒物(PM10),68,85,103,37,32,250,100,100,100,15,24,14,13,1.1,1
2023-05-16T01:00:00,1078A,114.5062,37.0349,邢台市,邢师高专,颗粒物(PM10),64,78,107,38,39,225,90,90,90,19,29,8,10,0.7,1
2023-05-16T01:00:00,1079A,114.5237,37.0851,邢台市,路桥公司,细颗粒物(PM2.5),69,83,99,50,37,234,96,96,96,19,27,11,11,0.6,0.6
2023-05-16T01:00:00,1080A,114.4725,37.0719,邢台市,市环保局,颗粒物(PM10),68,85,100,44,42,249,98,98,98,8,20,8,11,0.7,0.9
2023-05-16T01:00:00,1081A,112.522,37.8873,太原市,尖草坪,颗粒物(PM10),85,120,118,47,44,195,62,62,62,51,46,18,13,0.7,0.7
2023-05-16T01:00:00,1083A,112.434,38.0108,太原市,上兰,颗粒物(PM10),64,77,86,44,49,188,106,106,106,8,14,7,15,0.6,0.7
2023-05-16T01:00:00,1084A,112.469,37.7124,太原市,晋源,颗粒物(PM10),94,138,117,53,50,208,23,23,23,75,50,20,15,0.6,0.6
2023-05-16T01:00:00,1085A,112.5583,37.7394,太原市,小店,颗粒物(PM10),101,151,148,52,59,195,53,53,53,58,57,19,14,0.6,0.7
2023-05-16T01:00:00,1086A,112.5369,37.8692,太原市,桃园,细颗粒物(PM2.5),98,116,103,73,47,191,66,66,66,50,48,20,12,0.5,0.6
2023-05-16T01:00:00,1087A,112.57,37.8195,太原市,坞城,颗粒物(PM10),85,120,128,47,49,194,65,65,65,55,49,20,12,0.6,0.7
2023-05-16T01:00:00,1088A,112.549,37.9854,太原市,南寨,颗粒物(PM10),102,154,121,50,50,188,4,4,4,90,50,7,14,0.6,0.8
2023-05-16T01:00:00,1090A,111.6507,40.7517,呼和浩特市,呼市一监,颗粒物(PM10),78,105,100,36,33,148,88,88,88,23,31,18,11,0.5,0.4
2023-05-16T01:00:00,1091A,111.6572,40.8033,呼和浩特市,小召,颗粒物(PM10),65,80,84,36,33,139,85,85,85,28,32,26,13,0.5,0.4
2023-05-16T01:00:00,1094A,111.7516,40.8369,呼和浩特市,如意水处理厂,细颗粒物(PM2.5),89,116,92,66,32,138,97,97,97,19,28,14,10,0.4,0.4
2023-05-16T01:00:00,1095A,111.7276,40.8062,呼和浩特市,二十九中,颗粒物(PM10),81,112,90,38,27,142,102,102,102,22,36,16,9,0.5,0.4
2023-05-16T01:00:00,1096A,111.5512,40.7866,呼和浩特市,工大金川校区,颗粒物(PM10),82,113,92,39,31,144,89,89,89,28,33,9,10,0.4,0.4
2023-05-16T01:00:00,1097A,111.717,40.7612,呼和浩特市,化肥厂生活区,颗粒物(PM10),89,128,126,60,48,126,88,88,88,22,35,11,10,0.4,0.3
2023-05-16T01:00:00,1098A,123.6836,41.9339,沈阳市,森林路,,,,,,,,,,,,,,,,
2023-05-16T01:00:00,1099A,123.505,41.7406,沈阳市,浑南东路,颗粒物(PM10),53,56,53,28,28,175,136,136,136,17,26,14,18,0.7,0.8
2023-05-16T01:00:00,1100A,123.4231,41.6989,沈阳市,新秀街,颗粒物(PM10),66,81,62,33,25,175,125,125,125,25,18,21,21,1.2,0.9
2023-05-16T01:00:00,1102A,123.5903,41.8411,沈阳市,东陵路,颗粒物(PM10),52,54,65,29,25,181,150,150,150,12,23,8,15,0.7,0.9
2023-05-16T01:00:00,1103A,123.4264,41.8467,沈阳市,陵东街,颗粒物(PM10),56,61,60,31,27,180,142,142,142,16,21,12,14,0.9,0.9
2023-05-16T01:00:00,1104A,123.4114,41.7653,沈阳市,文化路,颗粒物(PM10),63,76,67,42,35,184,137,137,137,21,19,15,17,0.9,0.8
2023-05-16T01:00:00,1105A,123.4678,41.7867,沈阳市,小河沿,颗粒物(PM10),56,61,57,34,28,177,139,139,139,19,25,10,13,0.7,0.8
2023-05-16T01:00:00,1106A,123.4017,41.7972,沈阳市,太原街,颗粒物(PM10),64,77,60,39,31,184,137,137,137,24,24,18,19,0.8,0.6
2023-05-16T01:00:00,1108A,123.3783,41.9228,沈阳市,京沈街,细颗粒物(PM2.5),65,71,62,47,31,179,137,137,137,16,18,15,18,0.8,0.8
2023-05-16T01:00:00,1109A,121.612,38.9741,大连市,甘井子,颗粒物(PM10),66,82,53,31,30,147,122,122,122,22,22,11,6,0.7,0.6
2023-05-16T01:00:00,1110A,121.565,38.9511,大连市,周水子,颗粒物(PM10),62,74,53,31,30,149,115,115,115,33,27,6,5,0.7,0.7
2023-05-16T01:00:00,1111A,121.5637,38.8845,大连市,星海三站,颗粒物(PM10),59,67,64,33,32,160,89,89,89,17,19,3,4,0.6,0.6
2023-05-16T01:00:00,1112A,121.6302,38.9117,大连市,青泥洼桥,颗粒物(PM10),66,81,58,29,28,160,127,127,127,15,15,5,5,0.7,0.7
2023-05-16T01:00:00,1113A,121.6251,38.8638,大连市,傅家庄,颗粒物(PM10),55,59,50,36,32,188,137,137,137,12,11,7,6,0.8,0.7
2023-05-16T01:00:00,1114A,121.5213,38.8661,大连市,七贤岭,颗粒物(PM10),63,76,58,40,35,189,143,143,143,12,12,6,6,0.5,0.4
2023-05-16T01:00:00,1115A,121.2529,38.8061,大连市,旅顺,颗粒物(PM10),64,78,58,35,32,194,158,158,158,13,16,9,8,0.7,0.6
2023-05-16T01:00:00,1116A,121.7485,39.1311,大连市,金州,,49,49,40,33,26,173,126,126,126,10,12,6,7,1.1,0.7
2023-05-16T01:00:00,1117A,121.7811,39.0496,大连市,开发区,颗粒物(PM10),53,56,44,27,25,153,123,123,123,15,19,3,4,0.5,0.5
2023-05-16T01:00:00,1118A,121.9762,39.0631,大连市,双D港,,39,39,27,25,18,138,121,121,121,7,8,5,5,0.5,0.5
2023-05-16T01:00:00,1119A,125.3325,43.9166,长春市,食品厂,颗粒物(PM10),75,99,55,22,21,133,16,16,16,65,36,13,9,0.4,0.5
2023-05-16T01:00:00,1120A,125.2863,43.9027,长春市,客车厂,颗粒物(PM10),65,79,65,24,22,132,26,26,26,61,33,6,6,0.5,0.5
2023-05-16T01:00:00,1121A,125.2841,43.8463,长春市,邮电学院,颗粒物(PM10),55,59,54,31,22,134,6,6,6,71,26,5,7,0.6,0.5
2023-05-16T01:00:00,1122A,125.3716,43.8772,长春市,劳动公园,颗粒物(PM10),58,66,50,25,20,146,4,4,4,76,24,7,7,0.7,0.5
2023-05-16T01:00:00,1123A,125.3297,43.8805,长春市,园林处,颗粒物(PM10),67,83,54,13,15,129,14,14,14,69,29,6,4,0.6,0.5
2023-05-16T01:00:00,1124A,125.4605,43.79,长春市,净月潭,,50,50,39,10,15,148,40,40,40,18,12,4,5,0.4,0.5
2023-05-16T01:00:00,1125A,125.7194,43.515,长春市,甩湾子,,,,,,,,,,,,,,,,
2023-05-16T01:00:00,1126A,125.3863,43.8447,长春市,经开区环卫处,颗粒物(PM10),99,148,52,26,18,143,5,5,5,78,28,8,8,0.5,0.4
2023-05-16T01:00:00,1127A,125.245,43.7783,长春市,高新区管委会,颗粒物(PM10),70,90,56,26,19,147,3,3,3,64,24,6,7,0.3,0.4
2023-05-16T01:00:00,1128A,125.1761,43.8325,长春市,岱山公园,颗粒物(PM10),64,77,58,19,18,136,5,5,5,79,30,7,6,0.8,0.4
2023-05-16T01:00:00,1129A,126.5422,45.755,哈尔滨市,岭北,颗粒物(PM10),59,67,37,12,13,115,50,50,50,23,13,5,13,0.5,0.2
2023-05-16T01:00:00,1130A,126.561,45.8167,哈尔滨市,松北商大,,42,42,34,8,11,109,32,32,32,50,20,5,6,0.4,0.5
2023-05-16T01:00:00,1131A,126.979,45.5419,哈尔滨市,阿城会宁,,46,46,38,15,15,105,24,24,24,35,17,8,9,0.3,0.4
2023-05-16T01:00:00,1132A,126.599,45.7222,哈尔滨市,南岗学府路,,37,37,44,10,12,107,62,62,62,20,13,4,6,0.4,0.5
2023-05-16T01:00:00,1133A,126.689,45.7733,哈尔滨市,太平宏伟公园,,41,41,42,12,16,105,50,50,50,31,21,5,6,0.4,0.4
2023-05-16T01:00:00,1134A,126.635,45.7667,哈尔滨市,道外承德广场,,30,30,37,7,13,112,75,75,75,17,19,8,9,0.4,0.5
2023-05-16T01:00:00,1135A,126.685,45.7319,哈尔滨市,香坊红旗大街,,36,36,42,1,22,112,68,68,68,23,19,9,10,0.3,0.4
2023-05-16T01:00:00,1136A,126.6411,45.7258,哈尔滨市,动力和平路,,34,34,41,9,16,109,60,60,60,33,22,9,11,0.4,0.5
2023-05-16T01:00:00,1137A,126.593,45.7478,哈尔滨市,道里建国路,,,,,,,,,,,,,,,,
2023-05-16T01:00:00,1138A,126.615,45.61,哈尔滨市,平房东轻厂,,45,45,39,11,13,109,14,14,14,60,22,7,6,0.6,0.6
2023-05-16T01:00:00,1139A,126.595,45.9855,哈尔滨市,呼兰师专,,38,38,41,10,12,111,47,47,47,30,17,8,9,0.4,0.5
2023-05-16T01:00:00,1140A,126.6206,45.6842,哈尔滨市,省农科院,,37,37,46,7,12,114,62,62,62,28,22,10,12,0.3,0.5
2023-05-16T01:00:00,1141A,121.4,31.238,上海市,普陀,颗粒物(PM10),53,55,71,26,39,215,114,114,114,36,37,9,8,0.6,0.6
2023-05-16T01:00:00,1142A,121.478,31.2036,上海市,十五厂,颗粒物(PM10),54,58,75,26,48,215,97,97,97,33,48,8,10,0.6,0.6
2023-05-16T01:00:00,1143A,121.467,31.3008,上海市,虹口,颗粒物(PM10),53,56,71,25,36,202,109,109,109,30,34,10,11,0.5,0.6
2023-05-16T01:00:00,1144A,121.412,31.1654,上海市,徐汇上师大,颗粒物(PM10),58,66,66,29,43,210,92,92,92,52,44,11,11,0.5,0.6
2023-05-16T01:00:00,1145A,121.536,31.2659,上海市,杨浦四漂,颗粒物(PM10),54,58,79,28,39,211,104,104,104,31,46,8,9,0.7,0.8
2023-05-16T01:00:00,1147A,121.425,31.2261,上海市,静安监测站,颗粒物(PM10),55,59,70,26,37,207,112,112,112,32,35,14,8,0.6,0.7
2023-05-16T01:00:00,1148A,121.703,31.1907,上海市,浦东川沙,,,65,86,26,51,228,114,114,114,,28,6,9,0.6,0.7
2023-05-16T01:00:00,1149A,121.533,31.2284,上海市,浦东新区监测站,颗粒物(PM10),53,56,74,26,42,232,111,111,111,26,34,8,9,0.5,0.6
2023-05-16T01:00:00,1150A,121.577,31.2071,上海市,浦东张江,颗粒物(PM10),54,58,79,24,45,207,113,113,113,29,41,6,6,0.7,0.8
2023-05-16T01:00:00,1151A,118.8086,32.1065,南京市,迈皋桥,颗粒物(PM10),53,56,69,31,30,227,19,19,19,82,36,10,15,0.5,0.8
2023-05-16T01:00:00,1152A,118.7538,32.0551,南京市,草场门,颗粒物(PM10),59,68,70,39,32,209,13,13,13,100,39,4,12,0.9,1.4
2023-05-16T01:00:00,1153A,118.7794,32.0745,南京市,山西路,颗粒物(PM10),62,73,72,36,31,212,24,24,24,75,30,7,16,0.4,1.1
2023-05-16T01:00:00,1154A,118.7752,32.0023,南京市,中华门,二氧化氮,54,53,58,29,26,215,19,19,19,108,36,6,10,0.9,1
2023-05-16T01:00:00,1155A,118.8109,32.0309,南京市,瑞金路,颗粒物(PM10),65,79,69,41,31,222,4,4,4,99,42,3,8,0.8,0.9
2023-05-16T01:00:00,1156A,118.7997,32.0754,南京市,玄武湖,颗粒物(PM10),56,61,65,32,30,209,53,53,53,51,28,7,13,0.8,1.2
2023-05-16T01:00:00,1157A,118.6414,32.0931,南京市,浦口,颗粒物(PM10),70,89,72,34,34,206,73,73,73,42,22,12,11,0.5,0.5
2023-05-16T01:00:00,1158A,118.7356,31.9996,南京市,奥体中心,颗粒物(PM10),71,92,77,36,33,199,52,52,52,74,46,17,16,0.6,1
2023-05-16T01:00:00,1159A,118.9125,32.1028,南京市,仙林大学城,颗粒物(PM10),65,80,66,31,29,222,14,14,14,103,34,10,15,0.7,0.9
2023-05-16T01:00:00,1160A,120.561,31.2472,苏州市,上方山,颗粒物(PM10),59,68,58,34,35,191,80,80,80,32,24,10,9,0.5,0.5
2023-05-16T01:00:00,1162A,120.591,31.3019,苏州市,彩香,颗粒物(PM10),70,89,65,40,32,209,89,89,89,35,22,9,8,0.7,0.6
2023-05-16T01:00:00,1163A,120.596,31.3264,苏州市,轧钢厂,颗粒物(PM10),68,85,67,43,32,201,90,90,90,31,22,11,9,0.8,0.7
2023-05-16T01:00:00,1164A,120.613,31.2703,苏州市,吴中区,颗粒物(PM10),68,86,68,43,33,206,84,84,84,45,34,11,10,0.8,0.7
2023-05-16T01:00:00,1165A,120.543,31.2994,苏州市,苏州新区,"颗粒物(PM10),细颗粒物(PM2.5)",65,80,66,47,35,204,98,98,98,32,18,8,7,0.7,0.6
2023-05-16T01:00:00,1166A,120.669,31.3097,苏州市,苏州工业园区,颗粒物(PM10),71,91,67,50,33,208,100,100,100,23,23,12,10,0.6,0.6
2023-05-16T01:00:00,1167A,120.641,31.3708,苏州市,相城区,颗粒物(PM10),61,72,63,42,31,206,97,97,97,30,24,10,8,0.7,0.6
2023-05-16T01:00:00,1168A,120.9098,31.9663,南通市,狼山街道,颗粒物(PM10),63,75,60,39,32,175,57,57,57,90,42,12,10,0.5,0.5
2023-05-16T01:00:00,1169A,120.86,32.0005,南通市,虹桥,颗粒物(PM10),63,76,73,32,35,182,115,115,115,36,50,10,12,0.5,0.7
2023-05-16T01:00:00,1170A,120.87,32.02,南通市,城中,颗粒物(PM10),62,73,69,31,33,184,113,113,113,31,39,10,11,0.6,0.7
2023-05-16T01:00:00,1171A,120.94,31.93,南通市,星湖花园,颗粒物(PM10),59,67,68,31,31,179,85,85,85,49,38,11,10,0.5,0.6
2023-05-16T01:00:00,1172A,120.81,32.0417,南通市,紫琅学院,颗粒物(PM10),63,75,76,34,33,172,104,104,104,39,64,9,12,0.5,0.7
2023-05-16T01:00:00,1173A,119.176,34.5885,连云港市,市环境监测站,颗粒物(PM10),65,80,89,31,34,186,110,110,110,16,11,10,9,0.4,0.4
2023-05-16T01:00:00,1177A,117.179,34.2761,徐州市,黄河新村,颗粒物(PM10),74,97,82,45,36,180,109,109,109,14,12,11,10,0.7,0.7
2023-05-16T01:00:00,1178A,117.1918,34.2384,徐州市,淮塔,颗粒物(PM10),73,95,78,48,36,182,108,108,108,19,12,14,12,0.8,0.7
2023-05-16T01:00:00,1180A,117.256,34.2153,徐州市,新城区,颗粒物(PM10),64,78,79,40,33,172,91,91,91,22,14,6,8,0.7,0.7
2023-05-16T01:00:00,1181A,117.244,34.2911,徐州市,桃园路,颗粒物(PM10),63,75,81,39,33,171,106,106,106,14,13,10,10,0.8,0.7
2023-05-16T01:00:00,1182A,117.2933,34.2778,徐州市,农科院,颗粒物(PM10),65,80,72,29,28,184,114,114,114,15,14,8,9,0.6,0.7
2023-05-16T01:00:00,1186A,119.389,32.3761,扬州市,邗江监测站,颗粒物(PM10),69,88,74,45,33,190,87,87,87,57,29,12,13,0.7,0.9
2023-05-16T01:00:00,1188A,120.269,31.4867,无锡市,雪浪,颗粒物(PM10),60,70,53,36,25,210,127,127,127,20,13,12,10,0.7,0.6
2023-05-16T01:00:00,1189A,120.275,31.6219,无锡市,黄巷,,,81,59,34,25,194,,,,40,26,8,7,0.9,0.8
2023-05-16T01:00:00,1190A,120.294,31.56,无锡市,曹张,颗粒物(PM10),61,71,57,36,26,189,118,118,118,25,30,8,7,0.8,0.7
2023-05-16T01:00:00,1191A,120.242,31.5031,无锡市,漆塘,颗粒物(PM10),58,66,50,36,27,204,125,125,125,18,12,9,7,0.5,0.4
2023-05-16T01:00:00,1192A,120.3489,31.5863,无锡市,东亭,颗粒物(PM10),64,78,53,41,27,204,84,84,84,63,29,13,11,1.1,1
2023-05-16T01:00:00,1193A,120.354,31.5475,无锡市,旺庄,颗粒物(PM10),68,85,58,39,27,199,81,81,81,56,35,10,8,0.7,0.6
2023-05-16T01:00:00,1194A,120.245,31.5631,无锡市,荣巷,颗粒物(PM10),54,58,50,31,25,207,129,129,129,16,14,9,9,0.7,0.6
2023-05-16T01:00:00,1195A,120.299,31.6817,无锡市,堰桥,颗粒物(PM10),62,73,58,34,26,181,93,93,93,48,28,9,10,0.7,0.5
2023-05-16T01:00:00,1196A,119.9633,31.762,常州市,市监测站,颗粒物(PM10),68,86,58,38,32,183,133,133,133,26,24,8,9,0.5,0.5
2023-05-16T01:00:00,1200A,119.9468,31.7069,常州市,武进监测站,颗粒物(PM10),70,90,58,36,29,194,147,147,147,17,18,16,13,0.7,0.6
2023-05-16T01:00:00,1201A,119.9255,31.9087,常州市,安家,颗粒物(PM10),65,80,64,43,35,192,140,140,140,23,30,8,9,0.7,0.6
2023-05-16T01:00:00,1203A,119.6707,32.1875,镇江市,新区办事处,颗粒物(PM10),74,98,67,42,30,186,135,135,135,30,22,6,4,0.6,0.5
2023-05-16T01:00:00,1204A,119.4974,32.1968,镇江市,职教中心,"颗粒物(PM10),细颗粒物(PM2.5)",67,84,64,48,30,174,120,120,120,38,24,7,4,0.8,0.7
2023-05-16T01:00:00,1205A,119.4303,32.1328,镇江市,丹徒区监测站,细颗粒物(PM2.5),77,93,70,56,34,176,113,113,113,46,22,8,6,0.6,0.6
2023-05-16T01:00:00,1206A,119.905,32.4878,泰州市,公园路,细颗粒物(PM2.5),73,75,56,53,45,193,99,99,99,34,28,14,12,0.8,0.7
2023-05-16T01:00:00,1207A,119.9189,32.4625,泰州市,莲花,颗粒物(PM10),70,90,62,48,36,204,103,103,103,38,30,13,11,0.7,0.7
2023-05-16T01:00:00,1209A,119.888,32.4639,泰州市,留学生创业园,颗粒物(PM10),78,105,69,43,31,194,120,120,120,36,41,12,11,0.8,0.8
2023-05-16T01:00:00,1210A,119.036,33.5981,淮安市,钵池山,,41,41,53,28,32,188,129,129,129,19,18,15,13,0.6,0.8
2023-05-16T01:00:00,1211A,119.007,33.575,淮安市,北京南路,颗粒物(PM10),54,58,66,29,34,195,101,101,101,40,27,12,15,0.5,1
2023-05-16T01:00:00,1212A,118.989,33.6067,淮安市,市监测站,颗粒物(PM10),58,66,71,31,33,201,115,115,115,29,22,21,15,0.9,1
2023-05-16T01:00:00,1213A,119.135,33.5039,淮安市,楚州区监测站,细颗粒物(PM2.5),62,63,71,44,38,191,107,107,107,30,18,10,12,0.6,0.6
2023-05-16T01:00:00,1214A,119.0186,33.6297,淮安市,淮阴区监测站,颗粒物(PM10),56,62,74,24,32,181,119,119,119,18,20,14,12,0.5,0.6
2023-05-16T01:00:00,1215A,120.118,33.4022,盐城市,盐城电厂,,49,39,59,34,32,240,99,99,99,24,13,19,11,0.5,0.6
2023-05-16T01:00:00,1216A,120.156,33.3942,盐城市,市监测站,,50,50,59,30,32,223,90,90,90,25,13,24,14,0.4,0.5
2023-05-16T01:00:00,1218A,120.2144,33.38,盐城市,开发区管委会,颗粒物(PM10),52,53,60,32,29,217,87,87,87,22,13,15,11,0.5,0.5
2023-05-16T01:00:00,1220A,118.293,33.9528,宿迁市,宿迁学院,颗粒物(PM10),62,74,73,39,37,188,122,122,122,14,14,14,12,0.6,0.7
2023-05-16T01:00:00,1221A,118.2442,33.9592,宿迁市,宿迁中学,颗粒物(PM10),63,76,70,41,37,190,117,117,117,19,15,11,10,0.4,0.5
2023-05-16T01:00:00,1223A,120.2072,30.2111,杭州市,滨江,颗粒物(PM10),62,74,78,37,35,211,94,94,94,32,29,10,10,0.5,0.6
2023-05-16T01:00:00,1224A,120.0633,30.2747,杭州市,西溪,颗粒物(PM10),64,78,62,31,26,167,4,4,4,61,32,6,7,0.7,0.6
2023-05-16T01:00:00,1226A,120.3461,30.3153,杭州市,下沙,细颗粒物(PM2.5),77,98,75,56,34,199,30,30,30,105,35,9,7,0.8,0.6
2023-05-16T01:00:00,1227A,120.1269,30.2456,杭州市,卧龙桥,细颗粒物(PM2.5),55,56,42,39,27,201,52,52,52,30,20,9,8,0.6,0.5
2023-05-16T01:00:00,1228A,120.1903,30.2692,杭州市,浙江农大,颗粒物(PM10),61,72,61,38,35,213,100,100,100,30,32,8,8,0.4,0.4
2023-05-16T01:00:00,1230A,120.1197,30.3119,杭州市,和睦小学,颗粒物(PM10),59,67,64,36,35,180,91,91,91,30,41,6,7,0.6,0.6
2023-05-16T01:00:00,1231A,120.3019,30.4183,杭州市,临平镇,细颗粒物(PM2.5),84,94,57,62,37,205,35,35,35,93,37,6,6,0.8,0.6
2023-05-16T01:00:00,1232A,120.2697,30.1819,杭州市,城厢镇,颗粒物(PM10),62,73,68,36,40,199,102,102,102,29,31,5,5,0.5,0.5
2023-05-16T01:00:00,1233A,120.0883,30.1808,杭州市,云栖,颗粒物(PM10),54,58,47,18,23,182,30,30,30,49,29,7,7,0.6,0.5
2023-05-16T01:00:00,1234A,121.8358,29.911,宁波市,区环保大楼,,37,28,51,18,34,230,117,117,117,18,49,4,7,0.5,0.6
2023-05-16T01:00:00,1235A,121.56,29.82,宁波市,万里学院,,50,50,64,13,31,218,105,105,105,25,31,5,5,0.5,0.6
2023-05-16T01:00:00,1236A,121.713,29.9572,宁波市,龙赛医院,,45,35,64,24,37,316,141,141,141,11,34,6,7,0.3,0.4
2023-05-16T01:00:00,1239A,121.633,29.7733,宁波市,钱湖水厂,,37,26,52,9,32,212,116,116,116,6,11,5,6,0.3,0.4
2023-05-16T01:00:00,1240A,121.5856,29.8635,宁波市,太古小学,,49,49,58,28,37,203,112,112,112,16,32,7,8,0.6,0.7
2023-05-16T01:00:00,1241A,121.524,29.8674,宁波市,市环境监测中心,颗粒物(PM10),51,51,61,22,29,199,104,104,104,23,24,7,6,0.4,0.4
2023-05-16T01:00:00,1242A,120.634,28.0089,温州市,瓯海,颗粒物(PM10),64,77,74,32,41,247,80,80,80,30,38,7,9,0.5,0.6
2023-05-16T01:00:00,1243A,120.6748,27.9939,温州市,南浦,细颗粒物(PM2.5),79,88,73,58,43,258,100,100,100,15,31,7,8,0.4,0.5
2023-05-16T01:00:00,1244A,120.76,27.9747,温州市,龙湾,颗粒物(PM10),77,104,76,43,38,185,100,100,100,19,43,6,8,0.5,0.7
2023-05-16T01:00:00,1245A,120.6709,28.0167,温州市,市站,细颗粒物(PM2.5),70,87,83,51,46,255,79,79,79,34,45,6,7,0.6,0.7
2023-05-16T01:00:00,1247A,120.6053,29.9928,绍兴市,城东开发委,颗粒物(PM10),54,57,62,29,34,185,144,144,144,13,21,7,8,0.6,0.7
2023-05-16T01:00:00,1250A,120.0751,30.8669,湖州市,城西水厂,颗粒物(PM10),69,87,62,45,32,180,68,68,68,72,48,8,7,0.7,0.5
2023-05-16T01:00:00,1252A,120.7436,30.778,嘉兴市,清河小学,颗粒物(PM10),62,74,75,35,34,197,115,115,115,23,36,6,7,0.5,0.4
2023-05-16T01:00:00,1253A,120.726,30.7478,嘉兴市,嘉兴学院,颗粒物(PM10),62,74,69,37,36,203,126,126,126,19,32,7,7,0.4,0.4
2023-05-16T01:00:00,1255A,121.273,28.6459,台州市,黄岩环保大楼,,46,46,57,31,33,186,128,128,128,10,17,8,8,0.4,0.5
2023-05-16T01:00:00,1256A,121.419,28.6542,台州市,台州环保大楼,颗粒物(PM10),53,56,64,34,38,211,96,96,96,8,19,5,6,0.5,0.6
2023-05-16T01:00:00,1257A,121.377,28.5773,台州市,路桥田洋王,"颗粒物(PM10),细颗粒物(PM2.5)",52,54,63,36,38,184,83,83,83,16,22,12,11,0.7,0.6
2023-05-16T01:00:00,1258A,122.122,30.0203,舟山市,定海檀枫,,33,29,52,23,32,198,99,99,99,15,33,6,7,0.5,0.6
2023-05-16T01:00:00,1259A,122.3094,29.9558,舟山市,普陀东港,,36,21,54,14,35,169,114,114,114,4,20,5,8,0.3,0.5
2023-05-16T01:00:00,1260A,122.19,29.9944,舟山市,临城新区,,35,28,54,20,33,208,109,109,109,11,28,5,8,0.5,0.5
2023-05-16T01:00:00,1262A,119.647,29.077,金华市,十五中,颗粒物(PM10),60,69,66,37,37,205,127,127,127,18,24,9,10,0.5,0.5
2023-05-16T01:00:00,1263A,119.686,29.1029,金华市,监测站,颗粒物(PM10),64,78,65,33,37,194,81,81,81,57,30,6,7,0.6,0.6
2023-05-16T01:00:00,1264A,118.8692,28.9398,衢州市,环保大楼,颗粒物(PM10),58,65,79,20,37,179,3,3,3,71,29,7,13,0.5,0.6
2023-05-16T01:00:00,1265A,118.8709,28.9666,衢州市,实验学校,颗粒物(PM10),59,67,65,28,35,172,20,20,20,74,34,8,11,0.4,0.4
2023-05-16T01:00:00,1266A,118.8621,28.9808,衢州市,衢州学院,颗粒物(PM10),57,64,72,30,37,172,5,5,5,93,45,5,9,0.3,0.4
2023-05-16T01:00:00,1267A,119.914,28.4514,丽水市,监测站大楼,,48,48,61,21,31,189,98,98,98,22,23,6,6,0.4,0.4
2023-05-16T01:00:00,1268A,119.93,28.4586,丽水市,莲都小学,颗粒物(PM10),51,52,61,21,29,198,80,80,80,31,18,5,6,0.4,0.4
2023-05-16T01:00:00,1269A,119.879,28.4231,丽水市,余庄前,,48,48,57,30,33,194,77,77,77,21,22,7,8,0.4,0.4
2023-05-16T01:00:00,1270A,117.1959,31.7848,合肥市,明珠广场,颗粒物(PM10),53,56,75,34,45,179,116,116,116,18,23,6,7,0.5,0.6
2023-05-16T01:00:00,1271A,117.3072,31.8764,合肥市,三里街,颗粒物(PM10),63,75,87,36,44,164,66,66,66,54,36,6,7,0.8,0.8
2023-05-16T01:00:00,1272A,117.2588,31.8707,合肥市,琥珀山庄,颗粒物(PM10),57,63,74,34,39,178,121,121,121,16,21,5,5,0.7,0.8
2023-05-16T01:00:00,1273A,117.1604,31.9052,合肥市,董铺水库,颗粒物(PM10),53,56,70,24,32,168,120,120,120,12,15,4,4,0.3,0.4
2023-05-16T01:00:00,1274A,117.25,31.8571,合肥市,长江中路,颗粒物(PM10),58,66,82,39,44,165,109,109,109,19,21,11,12,0.5,0.6
2023-05-16T01:00:00,1275A,117.266,31.9436,合肥市,庐阳区,,48,48,65,31,42,162,115,115,115,18,27,7,7,0.3,0.4
2023-05-16T01:00:00,1276A,117.336,31.8586,合肥市,瑶海区,颗粒物(PM10),76,102,102,42,46,162,86,86,86,32,27,8,9,0.7,0.7
2023-05-16T01:00:00,1277A,117.3027,31.7964,合肥市,包河区,颗粒物(PM10),58,66,86,39,44,164,92,92,92,23,15,8,8,0.5,0.6
2023-05-16T01:00:00,1278A,117.2776,31.7385,合肥市,滨湖新区,颗粒物(PM10),53,56,71,31,39,154,107,107,107,16,14,7,10,0.7,0.8
2023-05-16T01:00:00,1279A,117.1318,31.8403,合肥市,高新区,颗粒物(PM10),57,63,72,39,39,177,121,121,121,18,20,9,10,0.4,0.4
2023-05-16T01:00:00,1280A,119.3903,26.0543,福州市,鼓山,,,,,,,,,,,,,,,,
2023-05-16T01:00:00,1282A,119.2681,26.0504,福州市,师大,细颗粒物(PM2.5),97,62,65,72,48,197,96,96,96,25,23,7,9,0.7,0.7
2023-05-16T01:00:00,1283A,119.2984,26.1028,福州市,五四北路,细颗粒物(PM2.5),69,45,66,50,53,189,95,95,95,22,27,6,5,0.7,0.8
2023-05-16T01:00:00,1284A,119.2648,26.0768,福州市,杨桥西路,细颗粒物(PM2.5),83,58,65,61,49,191,102,102,102,17,21,6,7,0.6,0.7
2023-05-16T01:00:00,1285A,119.317,26.0746,福州市,紫阳,细颗粒物(PM2.5),80,49,69,59,52,162,95,95,95,19,24,7,6,0.8,0.8
2023-05-16T01:00:00,1286A,118.1608,24.8169,厦门市,溪东,,,,,,,,,,,,,,,,
2023-05-16T01:00:00,1287A,118.1514,24.4767,厦门市,洪文,,29,24,56,20,40,178,56,56,56,14,20,2,4,0.3,0.5
2023-05-16T01:00:00,1288A,118.0661,24.4444,厦门市,鼓浪屿,,43,43,60,2,42,168,48,48,48,46,40,6,6,0.3,0.3
2023-05-16T01:00:00,1290A,115.8931,28.6843,南昌市,省外办,颗粒物(PM10),62,74,70,41,39,165,23,23,23,66,22,11,16,0.7,0.5
2023-05-16T01:00:00,1291A,115.8886,28.7003,南昌市,省林业公司,颗粒物(PM10),65,80,64,31,39,167,8,8,8,91,27,10,16,0.5,0.4
2023-05-16T01:00:00,1292A,115.8126,28.7442,南昌市,林科所,颗粒物(PM10),76,102,63,31,34,174,2,2,2,93,41,15,16,0.7,0.7
2023-05-16T01:00:00,1294A,115.8518,28.687,南昌市,建工学校,颗粒物(PM10),71,91,79,28,38,169,5,5,5,81,29,10,15,0.9,0.6
2023-05-16T01:00:00,1295A,115.8921,28.6424,南昌市,象湖,颗粒物(PM10),62,74,74,37,41,164,3,3,3,85,39,8,20,0.8,0.7
2023-05-16T01:00:00,1296A,115.7423,28.7996,南昌市,武术学校,,19,19,43,12,22,176,53,53,53,12,5,2,8,0.0,0.5
2023-05-16T01:00:00,1298A,115.9314,28.6842,南昌市,省站,颗粒物(PM10),68,86,85,48,42,162,36,36,36,54,25,15,22,0.8,0.7
2023-05-16T01:00:00,1299A,116.9862,36.6114,济南市,科干所,颗粒物(PM10),60,70,93,34,35,206,146,146,146,9,12,11,11,0.5,0.4
2023-05-16T01:00:00,1300A,116.9376,36.665,济南市,农科所,颗粒物(PM10),74,98,106,29,33,200,141,141,141,15,21,5,6,0.2,0.2
2023-05-16T01:00:00,1301A,117.1265,36.6734,济南市,开发区,颗粒物(PM10),62,73,106,29,35,196,151,151,151,13,39,8,7,0.5,0.5
2023-05-16T01:00:00,1303A,117.0624,36.6868,济南市,省种子仓库,,,70,104,34,18,202,159,159,159,3,28,,6,0.3,0.3
2023-05-16T01:00:00,1304A,116.9489,36.6447,济南市,机床二厂,颗粒物(PM10),78,105,119,32,34,204,111,111,111,4,19,2,7,0.3,0.4
2023-05-16T01:00:00,1305A,117.0495,36.663,济南市,市监测站,颗粒物(PM10),61,71,100,34,42,214,167,167,167,12,23,11,11,0.7,0.6
2023-05-16T01:00:00,1306A,116.7675,36.5484,济南市,长清党校,颗粒物(PM10),62,73,97,37,38,218,144,144,144,13,16,12,12,0.6,0.5
2023-05-16T01:00:00,1307A,120.6659,36.2403,青岛市,仰口,颗粒物(PM10),65,80,89,27,44,179,161,161,161,9,13,7,7,0.2,0.3
2023-05-16T01:00:00,1310A,120.4134,36.0658,青岛市,市南区东部子站,颗粒物(PM10),54,58,86,27,48,203,121,121,121,19,21,9,9,0.5,0.7
2023-05-16T01:00:00,1311A,120.3664,36.1032,青岛市,四方区子站,颗粒物(PM10),56,61,90,34,50,222,138,138,138,22,35,11,11,0.7,1
2023-05-16T01:00:00,1312A,120.2994,36.054,青岛市,市南区西部子站,颗粒物(PM10),57,63,81,29,46,221,127,127,127,24,22,8,7,0.7,0.8
2023-05-16T01:00:00,1313A,120.4581,36.0858,青岛市,崂山区子站,颗粒物(PM10),57,63,91,34,55,200,120,120,120,24,23,9,9,0.4,0.6
2023-05-16T01:00:00,1314A,120.1983,35.9608,青岛市,黄岛区子站,颗粒物(PM10),59,68,94,34,53,208,136,136,136,13,18,7,9,0.5,0.7
2023-05-16T01:00:00,1315A,120.3999,36.3083,青岛市,城阳区子站,颗粒物(PM10),65,80,100,29,34,200,142,142,142,18,28,11,9,0.7,0.7
2023-05-16T01:00:00,1316A,113.69031,34.76122,郑州市,烟厂,颗粒物(PM10),68,86,106,46,42,224,120,120,120,17,41,8,8,0.6,0.6
2023-05-16T01:00:00,1317A,113.65724,34.77134,郑州市,郑纺机,,,77,94,,36,203,119,119,119,15,37,6,7,0.7,0.7
2023-05-16T01:00:00,1318A,113.67526,34.80246,郑州市,银行学校,细颗粒物(PM2.5),64,70,92,46,41,217,122,122,122,14,28,10,10,0.6,0.7
2023-05-16T01:00:00,1319A,113.56746,34.81334,郑州市,供水公司,颗粒物(PM10),59,68,101,36,37,194,116,116,116,16,28,10,10,0.4,0.5
2023-05-16T01:00:00,1320A,113.7329,34.7178,郑州市,经开区管委,细颗粒物(PM2.5),72,83,88,52,43,200,121,121,121,16,26,5,6,0.5,0.5
2023-05-16T01:00:00,1321A,113.73961,34.77172,郑州市,四十七中,细颗粒物(PM2.5),73,92,104,53,38,211,119,119,119,13,28,7,8,0.8,0.8
2023-05-16T01:00:00,1322A,113.60532,34.74838,郑州市,市监测站,颗粒物(PM10),64,78,112,44,43,201,123,123,123,15,40,4,7,0.7,0.7
2023-05-16T01:00:00,1323A,113.64164,34.7525,郑州市,河医大,颗粒物(PM10),61,71,97,42,39,191,121,121,121,11,28,8,8,0.7,0.7
2023-05-16T01:00:00,1324A,113.51488,34.91089,郑州市,岗李水库,颗粒物(PM10),57,64,83,33,27,232,106,106,106,28,22,8,9,0.5,0.4
2023-05-16T01:00:00,1325A,114.3677,30.5584,武汉市,东湖梨园,细颗粒物(PM2.5),85,97,55,63,36,166,58,58,58,44,24,8,7,0.7,0.5
2023-05-16T01:00:00,1326A,114.2529,30.558,武汉市,汉阳月湖,颗粒物(PM10),53,56,68,31,35,158,21,21,21,90,49,9,8,0.6,0.5
2023-05-16T01:00:00,1327A,114.282,30.6189,武汉市,汉口花桥,颗粒物(PM10),55,60,77,34,38,182,50,50,50,50,32,8,8,0.8,0.7
2023-05-16T01:00:00,1328A,114.3025,30.5332,武汉市,武昌紫阳,细颗粒物(PM2.5),59,63,54,42,36,177,57,57,57,54,37,9,9,0.8,0.7
2023-05-16T01:00:00,1329A,114.3646,30.6217,武汉市,青山钢花,细颗粒物(PM2.5),104,127,83,78,46,185,61,61,61,49,39,11,9,1.0,0.8
2023-05-16T01:00:00,1330A,114.1566,30.4825,武汉市,沌口新区,细颗粒物(PM2.5),54,49,64,38,38,184,82,82,82,27,28,8,13,0.5,0.6
2023-05-16T01:00:00,1331A,114.3014,30.5944,武汉市,汉口江滩,颗粒物(PM10),58,65,62,36,34,180,12,12,12,105,53,9,8,0.8,0.7
2023-05-16T01:00:00,1333A,114.135,30.6319,武汉市,吴家山,颗粒物(PM10),55,60,59,34,32,175,66,66,66,46,33,10,9,0.7,0.6
2023-05-16T01:00:00,1334A,113.8454,30.2917,武汉市,沉湖七壕,,,64,58,34,35,159,54,54,54,33,20,,7,0.5,0.5
2023-05-16T01:00:00,1335A,113.0833,28.2325,长沙市,经开区环保局,"颗粒物(PM10),细颗粒物(PM2.5)",62,74,63,44,43,154,47,47,47,43,22,8,9,0.7,0.7
2023-05-16T01:00:00,1336A,112.8872,28.2189,长沙市,高开区环保局,颗粒物(PM10),54,58,69,36,51,163,89,89,89,24,14,14,18,0.8,1
2023-05-16T01:00:00,1337A,113.0792,28.2053,长沙市,马坡岭,细颗粒物(PM2.5),62,67,64,44,45,152,38,38,38,45,23,2,4,0.5,0.4
2023-05-16T01:00:00,1338A,112.9394,28.19,长沙市,湖南师范大学,细颗粒物(PM2.5),59,62,73,42,52,155,66,66,66,22,17,6,12,0.7,0.9
2023-05-16T01:00:00,1339A,113.0178,28.1322,长沙市,雨花区环保局,,49,49,60,34,43,157,82,82,82,30,23,10,13,0.4,0.4
2023-05-16T01:00:00,1340A,112.9792,28.2597,长沙市,伍家岭,颗粒物(PM10),55,60,75,37,46,173,21,21,21,66,40,2,7,0.7,0.8
2023-05-16T01:00:00,1341A,113.0014,28.1944,长沙市,火车新站,颗粒物(PM10),57,63,70,31,45,149,60,60,60,41,32,10,13,0.7,0.8
2023-05-16T01:00:00,1342A,112.9844,28.1178,长沙市,天心区环保局,颗粒物(PM10),53,56,69,32,42,154,78,78,78,24,17,3,6,0.6,0.6
2023-05-16T01:00:00,1343A,112.8908,28.1308,长沙市,湖南中医药大学,细颗粒物(PM2.5),64,72,71,46,53,166,50,50,50,52,28,7,11,0.8,0.9
2023-05-16T01:00:00,1344A,112.9581,28.3611,长沙市,沙坪,颗粒物(PM10),57,63,69,39,46,156,38,38,38,40,25,5,9,0.5,0.7
2023-05-16T01:00:00,1345A,113.2347,23.1423,广州市,广雅中学,细颗粒物(PM2.5),57,60,54,40,34,245,78,78,78,31,44,5,5,1.0,0.9
2023-05-16T01:00:00,1346A,113.2612,23.105,广州市,市五中,细颗粒物(PM2.5),57,56,56,40,38,266,94,94,94,22,38,6,6,0.9,0.8
2023-05-16T01:00:00,1348A,113.3478,23.0916,广州市,广东商学院,细颗粒物(PM2.5),62,61,61,44,36,245,53,53,53,48,43,5,5,1.0,0.8
2023-05-16T01:00:00,1349A,113.4332,23.1047,广州市,市八十六中,颗粒物(PM10),62,74,73,35,36,236,52,52,52,48,49,4,5,0.8,0.8
2023-05-16T01:00:00,1350A,113.3505,22.9483,广州市,番禺中学,,40,36,46,28,31,254,94,94,94,26,38,11,9,0.7,0.5
2023-05-16T01:00:00,1351A,113.2146,23.3916,广州市,花都师范,颗粒物(PM10),63,76,70,36,39,235,77,77,77,44,41,6,8,1.0,0.9
2023-05-16T01:00:00,1352A,113.2597,23.1331,广州市,市监测站,颗粒物(PM10),59,67,47,33,31,262,97,97,97,23,43,8,7,1.0,1
2023-05-16T01:00:00,1353A,113.5618,23.312,广州市,九龙镇镇龙,颗粒物(PM10),69,88,65,48,35,243,53,53,53,51,42,6,6,0.7,0.7
2023-05-16T01:00:00,1354A,113.2765,23.1544,广州市,麓湖,细颗粒物(PM2.5),57,59,51,40,33,263,88,88,88,27,38,6,5,0.9,0.8
2023-05-16T01:00:00,1355A,113.443,23.3035,广州市,帽峰山森林公园,颗粒物(PM10),58,65,46,33,27,263,83,83,83,29,18,3,2,0.6,0.6
2023-05-16T01:00:00,1356A,114.1063,22.5545,深圳市,通心岭子站,,34,34,36,23,26,166,63,63,63,13,21,3,3,0.7,0.8
2023-05-16T01:00:00,1357A,114.117,22.5625,深圳市,洪湖,,35,35,40,20,28,197,80,80,80,15,27,8,8,0.6,0.7
2023-05-16T01:00:00,1358A,113.987,22.5417,深圳市,华侨城,,49,47,41,34,35,182,48,48,48,35,30,7,7,0.9,0.9
2023-05-16T01:00:00,1359A,113.9181,22.5171,深圳市,南海子站,颗粒物(PM10),55,59,53,38,30,183,70,70,70,26,28,4,5,0.8,0.8
2023-05-16T01:00:00,1360A,114.2458,22.5689,深圳市,盐田,,27,27,34,11,22,137,27,27,27,50,24,5,5,0.8,0.9
2023-05-16T01:00:00,1361A,114.2283,22.7244,深圳市,龙岗,,30,28,36,16,22,187,95,95,95,14,23,2,3,0.6,0.7
2023-05-16T01:00:00,1363A,114.494,22.5422,深圳市,南澳,,22,22,26,15,19,135,56,56,56,6,9,3,3,0.6,0.7
2023-05-16T01:00:00,1364A,114.41,22.6342,深圳市,葵涌,,27,27,26,18,20,140,33,33,33,12,9,5,5,0.6,0.6
2023-05-16T01:00:00,1365A,114.297,22.5978,深圳市,梅沙,,20,18,32,8,25,143,64,64,64,9,11,4,4,0.7,0.7
2023-05-16T01:00:00,1366A,114.0678,22.738,深圳市,观澜,颗粒物(PM10),58,65,52,37,36,220,30,30,30,55,36,5,5,0.6,0.8
2023-05-16T01:00:00,1367A,113.5814,22.2618,珠海市,吉大,,30,22,27,15,23,189,96,96,96,10,15,6,6,0.5,0.6
2023-05-16T01:00:00,1368A,113.4881,22.2335,珠海市,前山,,32,18,23,15,20,177,101,101,101,24,23,4,4,0.3,0.4
2023-05-16T01:00:00,1369A,113.628,22.4251,珠海市,唐家,,35,28,49,14,30,180,110,110,110,9,18,5,5,0.4,0.3
2023-05-16T01:00:00,1370A,113.299,22.2281,珠海市,斗门,,31,19,28,15,21,148,97,97,97,12,21,6,5,0.6,0.6
2023-05-16T01:00:00,1371A,113.1294,23.0067,佛山市,湾梁,,48,48,60,29,28,286,93,93,93,16,25,6,5,0.8,0.8
2023-05-16T01:00:00,1372A,113.1083,23.0478,佛山市,华材职中,细颗粒物(PM2.5),52,41,47,36,29,269,89,89,89,23,25,8,8,0.8,0.8
2023-05-16T01:00:00,1373A,113.144,23.0453,佛山市,南海气象局,细颗粒物(PM2.5),57,9,47,40,31,220,75,75,75,21,29,5,5,0.8,0.9
2023-05-16T01:00:00,1374A,113.2881,22.8094,佛山市,顺德苏岗,细颗粒物(PM2.5),52,27,38,36,36,195,80,80,80,18,26,8,5,0.9,0.8
2023-05-16T01:00:00,1376A,112.8383,22.8678,佛山市,高明孔堂,,41,41,41,23,23,177,71,71,71,11,14,4,4,0.8,0.9
2023-05-16T01:00:00,1377A,112.8836,23.1588,佛山市,三水监测站,细颗粒物(PM2.5),52,44,61,36,36,231,52,52,52,46,60,4,6,0.8,0.8
2023-05-16T01:00:00,1378A,112.867,23.185,佛山市,三水云东海,,49,47,54,34,31,228,48,48,48,44,29,9,6,0.7,0.7
2023-05-16T01:00:00,1379A,113.3769,22.5211,中山市,华柏园,,34,32,42,23,25,205,106,106,106,12,22,6,6,0.5,0.6
2023-05-16T01:00:00,1380A,113.3881,22.5497,中山市,张溪,,32,31,48,17,25,228,100,100,100,12,23,4,3,0.6,0.7
2023-05-16T01:00:00,1381A,113.4075,22.5111,中山市,紫马岭,,30,8,35,13,25,195,94,94,94,7,16,5,5,0.4,0.5
2023-05-16T01:00:00,1382A,113.4411,22.4853,中山市,长江旅游区,,32,18,35,15,22,186,101,101,101,8,15,8,7,0.4,0.6
2023-05-16T01:00:00,1383A,113.1064,22.6058,江门市,北街,,30,28,44,18,22,201,93,93,93,12,20,6,6,0.5,0.7
2023-05-16T01:00:00,1384A,113.0731,22.5835,江门市,西区,,36,36,40,24,27,206,99,99,99,16,28,7,7,0.5,0.8
2023-05-16T01:00:00,1385A,113.0219,22.5311,江门市,圭峰西,,45,31,39,31,20,170,92,92,92,14,16,4,5,0.3,0.4
2023-05-16T01:00:00,1386A,113.0828,22.5947,江门市,东湖,,40,40,43,22,23,220,107,107,107,15,22,6,7,0.5,0.8
2023-05-16T01:00:00,1389A,113.7547,23.0494,东莞市,莞城梨川,细颗粒物(PM2.5),53,53,46,37,32,281,105,105,105,19,25,8,10,0.7,0.8
2023-05-16T01:00:00,1390A,113.7944,23.0128,东莞市,东城石井,颗粒物(PM10),55,59,48,34,30,286,49,49,49,25,25,9,11,0.7,0.7
2023-05-16T01:00:00,1391A,113.7383,22.9658,东莞市,南城西平,,37,34,45,5,24,276,118,118,118,13,30,6,8,0.5,0.6
2023-05-16T01:00:00,1392A,114.4183,23.0528,惠州市,河南岸金山湖子站,,42,41,43,29,22,147,73,73,73,17,16,10,5,0.6,0.6
2023-05-16T01:00:00,1393A,114.4053,23.0822,惠州市,下埔横江三路子站,,40,24,35,28,18,161,89,89,89,15,15,12,6,0.7,0.7
2023-05-16T01:00:00,1394A,114.4103,23.1142,惠州市,江北云山西路子站,,46,46,38,28,19,158,82,82,82,14,15,17,8,0.7,0.7
2023-05-16T01:00:00,1395A,114.4645,22.7833,惠州市,惠阳区承修路船湖子站,,,,36,,21,149,,,,11,16,4,5,,0.7
2023-05-16T01:00:00,1396A,114.5317,22.7422,惠州市,大亚湾管委会子站,,30,22,34,18,19,138,95,95,95,24,19,8,9,0.5,0.5
2023-05-16T01:00:00,1397A,112.4267,23.0706,肇庆市,睦岗子站,,48,48,52,26,30,156,80,80,80,17,25,16,22,0.7,0.8
2023-05-16T01:00:00,1398A,112.4645,23.0475,肇庆市,城中子站,,47,47,57,31,41,156,69,69,69,25,29,22,17,0.5,0.5
2023-05-16T01:00:00,1399A,112.5544,23.1522,肇庆市,坑口子站,,48,47,38,33,26,164,72,72,72,23,20,12,6,0.3,0.3
2023-05-16T01:00:00,1400A,112.4753,23.1,肇庆市,七星岩子站,细颗粒物(PM2.5),54,48,40,38,27,160,69,69,69,23,19,17,10,0.6,0.6
2023-05-16T01:00:00,1401A,108.3103,22.7881,南宁市,二十一中,,33,22,34,23,24,139,75,75,75,14,12,8,7,0.9,0.8
2023-05-16T01:00:00,1402A,108.3141,22.8528,南宁市,北湖,,26,26,56,17,28,146,71,71,71,10,18,11,10,0.7,0.8
2023-05-16T01:00:00,1403A,108.3206,22.8225,南宁市,市监测站,,30,19,51,21,28,139,73,73,73,13,32,14,10,0.8,0.9
2023-05-16T01:00:00,1404A,108.3829,22.8037,南宁市,大自然花园,,36,22,31,25,23,114,60,60,60,12,8,8,7,1.1,0.9
2023-05-16T01:00:00,1405A,108.4394,22.7904,南宁市,仙葫,,31,31,43,19,28,118,66,66,66,18,23,6,6,0.7,0.6
2023-05-16T01:00:00,1406A,108.2397,22.8467,南宁市,区农职院,,36,36,46,18,24,148,68,68,68,16,20,10,11,0.8,0.8
2023-05-16T01:00:00,1407A,108.3275,22.735,南宁市,英华嘉园,,29,28,41,20,24,109,56,56,56,21,23,8,8,0.9,0.9
2023-05-16T01:00:00,1408A,108.2257,22.7757,南宁市,沙井镇街道办,,42,42,55,20,23,124,41,41,41,35,23,5,7,0.7,0.7
2023-05-16T01:00:00,1409A,110.576,19.9507,海口市,东寨港,,,,,,,,,,,,,,,,
2023-05-16T01:00:00,1410A,110.3232,20.0574,海口市,海南大学,,25,14,15,7,8,130,77,77,77,6,8,6,6,0.6,0.6
2023-05-16T01:00:00,1411A,110.283,20.0053,海口市,秀英海南医院,,21,21,20,10,11,122,54,54,54,21,15,4,4,0.4,0.5
2023-05-16T01:00:00,1412A,110.338,19.9969,海口市,海南师范大学,,19,17,18,10,8,110,59,59,59,8,11,5,4,0.4,0.4
2023-05-16T01:00:00,1413A,110.33,20.0356,海口市,龙华路环保局宿舍,,23,14,17,9,10,123,71,71,71,5,9,5,5,0.4,0.4
2023-05-16T01:00:00,1414A,106.3787,29.8279,重庆市,缙云山,,50,50,53,25,25,146,86,86,86,30,18,12,13,0.3,0.3
2023-05-16T01:00:00,1416A,106.4213,29.8253,重庆市,天生,细颗粒物(PM2.5),64,62,80,46,48,122,12,12,12,80,67,8,10,1.1,1.1
2023-05-16T01:00:00,1417A,106.6263,29.7228,重庆市,两路,细颗粒物(PM2.5),55,50,68,39,36,114,74,74,74,40,62,8,10,1.0,1.1
2023-05-16T01:00:00,1418A,106.2953,29.5983,重庆市,虎溪,细颗粒物(PM2.5),89,94,73,66,46,99,7,7,7,110,71,6,8,1.1,0.9
2023-05-16T01:00:00,1419A,106.5777,29.5102,重庆市,南坪,颗粒物(PM10),75,99,86,48,48,96,32,32,32,78,50,10,14,1.1,0.9
2023-05-16T01:00:00,1420A,106.6556,29.6277,重庆市,唐家沱,细颗粒物(PM2.5),79,58,85,58,47,114,69,69,69,38,66,10,10,0.8,0.9
2023-05-16T01:00:00,1421A,106.6349,29.4906,重庆市,茶园,细颗粒物(PM2.5),75,82,119,55,52,98,17,17,17,102,90,7,9,1.1,1
2023-05-16T01:00:00,1422A,106.3754,29.4572,重庆市,白市驿,颗粒物(PM10),75,100,109,52,48,98,36,36,36,73,65,16,13,1.0,1
2023-05-16T01:00:00,1425A,106.6205,29.7166,重庆市,空港,细颗粒物(PM2.5),60,50,73,43,44,126,88,88,88,34,53,10,11,0.8,0.9
2023-05-16T01:00:00,1426A,106.4782,29.4875,重庆市,新山村,颗粒物(PM10),78,105,106,55,52,67,10,10,10,101,111,9,12,1.0,1.2
2023-05-16T01:00:00,1427A,106.5616,29.6453,重庆市,礼嘉,颗粒物(PM10),70,89,93,38,35,97,16,16,16,100,100,10,10,1.2,1.2
2023-05-16T01:00:00,1428A,106.4522,29.7091,重庆市,蔡家,颗粒物(PM10),71,91,89,31,40,94,7,7,7,94,64,8,8,1.0,0.9
2023-05-16T01:00:00,1429A,106.5093,29.3917,重庆市,鱼新街,颗粒物(PM10),80,109,84,51,42,84,33,33,33,36,91,5,13,1.3,1.5
2023-05-16T01:00:00,1431A,103.9728,30.7236,成都市,金泉两河,细颗粒物(PM2.5),82,76,96,60,63,200,46,46,46,52,38,3,4,0.7,0.6
2023-05-16T01:00:00,1432A,104.176,30.6872,成都市,十里店,颗粒物(PM10),80,110,95,56,50,179,35,35,35,80,54,2,3,0.8,0.7
2023-05-16T01:00:00,1433A,104.079,30.5706,成都市,三瓦窑,细颗粒物(PM2.5),68,78,87,49,54,184,31,31,31,81,61,1,3,0.7,0.7
2023-05-16T01:00:00,1434A,104.1114,30.63,成都市,沙河铺,细颗粒物(PM2.5),75,76,77,55,45,172,19,19,19,64,46,2,2,0.9,0.8
2023-05-16T01:00:00,1437A,104.0786,30.6531,成都市,君平街,细颗粒物(PM2.5),105,119,95,79,64,195,50,50,50,77,55,8,7,0.9,0.9
2023-05-16T01:00:00,1438A,103.613,31.0283,成都市,灵岩寺,细颗粒物(PM2.5),58,62,46,41,31,188,145,145,145,12,12,14,16,0.7,0.6
2023-05-16T01:00:00,1439A,106.6899,26.5998,贵阳市,马鞍山,,28,24,39,19,31,97,32,32,32,23,16,4,4,0.5,0.5
2023-05-16T01:00:00,1440A,106.6971,26.5694,贵阳市,市环保站,,42,17,44,29,37,113,34,34,34,28,24,4,5,0.2,0.3
2023-05-16T01:00:00,1441A,106.6243,26.6266,贵阳市,鉴湖路,,36,36,46,22,29,108,63,63,63,11,13,4,4,0.8,0.8
2023-05-16T01:00:00,1442A,106.7487,26.6343,贵阳市,燕子冲,,39,34,47,27,38,119,30,30,30,33,19,5,6,0.7,0.7
2023-05-16T01:00:00,1443A,106.6555,26.4365,贵阳市,碧云窝,,36,36,44,19,26,112,61,61,61,12,10,4,5,0.5,0.5
2023-05-16T01:00:00,1444A,106.694,26.5161,贵阳市,中院村,,48,48,52,27,32,102,43,43,43,23,22,7,9,0.5,0.5
2023-05-16T01:00:00,1445A,106.7109,26.6027,贵阳市,红边门,,46,46,49,24,36,110,33,33,33,34,24,4,5,0.6,0.6
2023-05-16T01:00:00,1446A,106.7164,26.5699,贵阳市,新华路,,41,41,47,24,32,115,28,28,28,40,22,3,4,0.5,0.4
2023-05-16T01:00:00,1447A,106.674,26.5424,贵阳市,太慈桥,,29,29,45,14,24,109,33,33,33,28,18,4,5,0.4,0.5
2023-05-16T01:00:00,1450A,102.8204,24.8886,昆明市,呈贡新区,,27,20,22,9,15,93,86,86,86,7,18,7,6,0.6,0.7
2023-05-16T01:00:00,1451A,102.6251,24.9608,昆明市,西山森林公园,,,,,,,,,,,,,,,,
2023-05-16T01:00:00,1452A,102.7252,25.0902,昆明市,龙泉镇,,24,9,29,6,17,76,76,76,76,13,31,6,6,0.4,0.6
2023-05-16T01:00:00,1453A,102.7266,25.0375,昆明市,东风东路,,21,11,31,7,19,79,65,65,65,10,30,6,9,0.6,0.8
2023-05-16T01:00:00,1454A,102.6742,25.0669,昆明市,金鼎山,,23,13,37,7,23,76,72,72,72,11,27,3,23,0.4,0.6
2023-05-16T01:00:00,1455A,102.6644,25.0401,昆明市,碧鸡广场,,21,8,32,10,17,75,67,67,67,16,29,4,6,0.5,0.7
2023-05-16T01:00:00,1456A,91.1319,29.6514,拉萨市,八廓街,,48,15,24,9,13,160,152,152,152,8,12,6,8,0.4,0.3
2023-05-16T01:00:00,1457A,91.1221,29.6747,拉萨市,市环保局,,48,11,20,5,8,170,153,153,153,11,17,6,6,0.3,0.2
2023-05-16T01:00:00,1458A,91.0874,29.6475,拉萨市,区监测站,,48,12,20,6,12,159,152,152,152,12,16,8,9,0.2,0.2
2023-05-16T01:00:00,1459A,91.1774,29.6541,拉萨市,西藏大学,,49,14,19,9,9,168,156,156,156,6,10,8,10,0.3,0.2
2023-05-16T01:00:00,1460A,90.9798,29.6588,拉萨市,区辐射站,,47,10,25,6,12,150,148,148,148,9,17,8,9,0.3,0.4
2023-05-16T01:00:00,1461A,91.0834,29.6292,拉萨市,拉萨火车站,,47,12,26,4,9,156,150,150,150,8,14,8,9,0.3,0.4
2023-05-16T01:00:00,1462A,108.882,34.2749,西安市,高压开关厂,颗粒物(PM10),77,104,72,53,37,236,4,4,4,130,58,10,9,0.8,0.5
2023-05-16T01:00:00,1463A,108.993,34.2629,西安市,兴庆小区,,38,38,53,25,22,214,86,86,86,19,25,6,7,0.3,0.6
2023-05-16T01:00:00,1464A,109.06,34.2572,西安市,纺织城,颗粒物(PM10),52,54,55,20,26,212,56,56,56,35,28,6,6,0.4,0.5
2023-05-16T01:00:00,1465A,108.9356,34.2173,西安市,小寨,,44,44,51,19,26,237,46,46,46,49,32,7,9,0.1,0.1
2023-05-16T01:00:00,1466A,108.954,34.2713,西安市,市人民体育场,细颗粒物(PM2.5),69,76,67,50,35,209,4,4,4,94,47,6,8,1.0,0.6
2023-05-16T01:00:00,1467A,108.8922,34.2322,西安市,高新西区,,48,48,56,26,25,254,41,41,41,52,38,7,8,0.7,0.7
2023-05-16T01:00:00,1468A,108.935,34.3474,西安市,经开区,细颗粒物(PM2.5),52,47,68,36,35,195,21,21,21,60,44,3,5,0.5,0.5
2023-05-16T01:00:00,1469A,108.906,34.1546,西安市,长安区,,43,43,49,10,23,257,99,99,99,14,29,7,7,0.2,0.3
2023-05-16T01:00:00,1471A,109.2186,34.3731,西安市,临潼区,,42,35,60,20,25,197,132,132,132,6,27,6,9,0.1,0.3
2023-05-16T01:00:00,1472A,108.869,34.378,西安市,草滩,颗粒物(PM10),69,88,71,35,29,180,33,33,33,41,31,14,17,0.0,0.1
2023-05-16T01:00:00,1473A,108.985,34.1978,西安市,曲江文化产业集团,,36,34,49,18,22,247,113,113,113,15,29,4,6,0.1,0.3
2023-05-16T01:00:00,1474A,109.051,34.3213,西安市,广运潭,,41,41,54,25,27,182,63,63,63,44,27,7,8,0.3,0.4
2023-05-16T01:00:00,1476A,103.631,36.1031,兰州市,兰炼宾馆,细颗粒物(PM2.5),58,61,87,41,37,178,103,103,103,18,40,11,21,0.6,0.7
2023-05-16T01:00:00,1477A,104.1373,35.9454,兰州市,榆中兰大校区,,,,,,,,,,,,,,,,
2023-05-16T01:00:00,1478A,103.8412,36.0726,兰州市,生物制品所,颗粒物(PM10),58,65,78,35,30,153,98,98,98,20,40,10,14,0.8,0.8
2023-05-16T01:00:00,1479A,103.831,36.0464,兰州市,铁路设计院,颗粒物(PM10),53,56,79,33,32,158,91,91,91,32,50,5,16,0.3,0.6
2023-05-16T01:00:00,1483A,101.524,36.6867,西宁市,第五水厂,,,,,,,,,,,,,,,,
2023-05-16T01:00:00,1484A,105.9512,38.6016,银川市,贺兰山马莲口,,46,30,35,18,16,182,146,146,146,7,10,10,13,0.4,0.5
2023-05-16T01:00:00,1488A,106.2328,38.4975,银川市,贺兰山东路,颗粒物(PM10),60,70,68,23,22,176,84,84,84,29,47,8,11,0.3,0.4
2023-05-16T01:00:00,1489A,106.1358,38.5036,银川市,学院路,颗粒物(PM10),65,79,74,17,23,174,63,63,63,47,50,9,13,0.5,0.6
2023-05-16T01:00:00,1490A,87.5801,43.8303,乌鲁木齐市,监测站,,29,29,35,8,12,94,79,79,79,17,21,5,8,0.3,0.3
2023-05-16T01:00:00,1491A,87.6046,43.768,乌鲁木齐市,收费所,,25,25,40,3,13,94,79,79,79,8,20,8,7,0.1,0.2
2023-05-16T01:00:00,1492A,87.4754,43.9469,乌鲁木齐市,新疆农科院农场,,24,24,30,0,9,86,65,65,65,28,23,6,7,0.6,0.6
2023-05-16T01:00:00,1493A,87.5525,43.8711,乌鲁木齐市,铁路局,,27,27,32,11,13,92,78,78,78,16,19,6,9,0.4,0.5
2023-05-16T01:00:00,1494A,87.6432,43.831,乌鲁木齐市,三十一中学,,29,24,34,1,8,106,92,92,92,13,15,10,13,0.3,0.4
2023-05-16T01:00:00,1496A,87.7216,44.1747,乌鲁木齐市,米东区环保局,,37,37,43,4,26,110,62,62,62,21,9,2,5,0.3,0.3
2023-05-16T01:00:00,1508A,112.9433,27.8614,湘潭市,板塘,颗粒物(PM10),70,89,75,46,50,128,66,66,66,40,27,13,14,0.4,0.4
2023-05-16T01:00:00,1511A,112.9118,27.8403,湘潭市,市监测站,细颗粒物(PM2.5),73,78,72,53,51,137,91,91,91,29,25,15,16,1.1,1
2023-05-16T01:00:00,1512A,112.8937,27.8728,湘潭市,江麓,细颗粒物(PM2.5),85,110,81,63,59,136,44,44,44,42,22,19,26,0.6,0.8
2023-05-16T01:00:00,1513A,112.9227,27.8159,湘潭市,岳塘,细颗粒物(PM2.5),75,87,74,55,52,140,70,70,70,26,14,10,11,0.5,0.2
2023-05-16T01:00:00,1514A,112.9074,27.9119,湘潭市,科大,颗粒物(PM10),82,114,81,45,51,143,28,28,28,62,24,6,12,0.8,0.9
2023-05-16T01:00:00,1515A,113.135,27.8244,株洲市,天台山庄,细颗粒物(PM2.5),63,61,62,45,42,145,58,58,58,22,16,10,12,0.7,0.7
2023-05-16T01:00:00,1518A,113.095,27.8867,株洲市,株冶医院,"颗粒物(PM10),细颗粒物(PM2.5)",64,78,67,46,45,140,34,34,34,48,24,6,6,0.8,0.7
2023-05-16T01:00:00,1519A,113.167,27.8667,株洲市,市四中,细颗粒物(PM2.5),58,55,52,41,41,138,56,56,56,22,16,15,11,0.8,0.7
2023-05-16T01:00:00,1520A,113.143,27.8381,株洲市,火车站,细颗粒物(PM2.5),60,66,62,43,42,139,48,48,48,28,20,9,9,0.7,0.7
2023-05-16T01:00:00,1524A,113.13,27.8528,株洲市,市监测站,细颗粒物(PM2.5),69,68,59,50,46,148,51,51,51,30,19,9,10,0.7,0.7
2023-05-16T01:00:00,1552A,106.805,26.3003,贵阳市,桐木岭,,39,27,43,27,33,111,88,88,88,2,2,2,2,0.3,0.3
2023-05-16T01:00:00,1559A,113.251,27.8336,株洲市,大京风景区,,41,41,47,28,22,111,31,31,31,7,5,2,4,0.6,0.6
2023-05-16T01:00:00,1562A,113.0048,27.9153,湘潭市,昭山,颗粒物(PM10),65,80,69,41,44,137,43,43,43,57,23,6,9,0.6,0.6
2023-05-16T01:00:00,1564A,112.4876,27.9164,湘潭市,韶山,颗粒物(PM10),52,54,59,33,29,127,65,65,65,10,11,7,7,0.5,0.3
2023-05-16T01:00:00,1585A,109.8756,40.6532,包头市,市环境监测站,颗粒物(PM10),57,64,69,25,28,146,69,69,69,45,41,18,17,0.9,0.8
2023-05-16T01:00:00,1587A,109.9991,40.5842,包头市,包头八中,颗粒物(PM10),55,60,80,27,33,151,84,84,84,30,41,12,15,0.5,0.6
2023-05-16T01:00:00,1588A,109.8538,40.6821,包头市,青山宾馆,颗粒物(PM10),57,64,77,39,37,148,69,69,69,40,46,24,18,1.7,1.2
2023-05-16T01:00:00,1589A,109.8642,40.6288,包头市,惠龙物流,颗粒物(PM10),65,79,73,25,25,145,75,75,75,42,41,17,16,1.0,0.6
2023-05-16T01:00:00,1590A,110.0377,40.5546,包头市,东河鸿龙湾,颗粒物(PM10),67,83,75,31,30,152,92,92,92,19,29,5,7,0.3,0.4
2023-05-16T01:00:00,1591A,110.0023,39.8129,鄂尔多斯市,综合楼,颗粒物(PM10),69,88,95,39,31,133,90,90,90,29,32,13,10,0.6,0.6
2023-05-16T01:00:00,1592A,109.9486,39.8261,鄂尔多斯市,巴音孟克林场办事处,颗粒物(PM10),68,85,75,29,26,140,105,105,105,19,16,10,9,0.7,0.6
2023-05-16T01:00:00,1593A,109.7736,39.5986,鄂尔多斯市,康泽苑,颗粒物(PM10),57,63,75,25,23,136,110,110,110,13,15,10,9,0.5,0.6
2023-05-16T01:00:00,1594A,109.8119,39.5989,鄂尔多斯市,华泰汽车城,颗粒物(PM10),59,68,68,27,27,133,89,89,89,21,24,7,7,0.6,0.5
2023-05-16T01:00:00,1595A,109.9734,39.7884,鄂尔多斯市,奥林花园,颗粒物(PM10),68,85,90,36,24,137,87,87,87,26,33,10,6,0.8,0.6
2023-05-16T01:00:00,1597A,122.2703,40.7094,营口市,大庆路,,,73,73,45,40,200,,,,12,20,10,9,0.9,1
2023-05-16T01:00:00,1598A,122.2150,40.6511,营口市,镜湖西路,,,,,,,,,,,,,,,,
2023-05-16T01:00:00,1599A,122.1658,40.6789,营口市,西炮台,,,,65,36,25,171,142,142,142,16,20,270,21,,0.6
2023-05-16T01:00:00,1600A,124.3303,40.0625,丹东市,江湾东路,颗粒物(PM10),52,53,36,35,21,167,110,110,110,13,12,8,11,0.9,0.7
2023-05-16T01:00:00,1601A,124.4256,40.1503,丹东市,临江后街,,46,46,33,22,16,172,98,98,98,9,5,4,6,0.7,0.6
2023-05-16T01:00:00,1602A,124.3933,40.1461,丹东市,元宝山,,43,24,24,30,20,160,119,119,119,10,15,8,8,0.5,0.5
2023-05-16T01:00:00,1603A,124.3633,40.1092,丹东市,民主桥,,42,42,32,21,17,166,101,101,101,13,10,6,8,0.6,0.5
2023-05-16T01:00:00,1604A,122.0303,41.1489,盘锦市,开发区,细颗粒物(PM2.5),72,79,56,52,45,175,147,147,147,18,20,11,7,1.2,0.9
2023-05-16T01:00:00,1605A,122.0485,41.0883,盘锦市,兴隆台,颗粒物(PM10),69,88,66,48,40,170,153,153,153,16,21,10,6,1.0,0.8
2023-05-16T01:00:00,1606A,121.8297,41.1028,盘锦市,新生街道,颗粒物(PM10),60,69,47,36,34,157,155,155,155,16,19,8,10,0.8,0.7
2023-05-16T01:00:00,1607A,120.9092,40.7136,葫芦岛市,龙港区,细颗粒物(PM2.5),64,48,57,46,47,210,142,142,142,8,11,8,10,0.7,0.8
2023-05-16T01:00:00,1608A,120.8392,40.7514,葫芦岛市,化工街,"颗粒物(PM10),细颗粒物(PM2.5)",62,73,82,44,53,207,134,134,134,2,8,6,7,0.8,0.9
2023-05-16T01:00:00,1609A,120.8341,40.7073,葫芦岛市,新区,细颗粒物(PM2.5),82,78,69,60,65,204,134,134,134,8,13,10,10,0.7,0.8
2023-05-16T01:00:00,1610A,120.8695,40.7677,葫芦岛市,东城区,细颗粒物(PM2.5),72,79,77,52,60,210,138,138,138,12,19,8,13,0.7,0.8
2023-05-16T01:00:00,1611A,118.5819,24.9117,泉州市,涂山街,细颗粒物(PM2.5),53,48,82,37,60,261,59,59,59,35,33,8,11,0.8,0.9
2023-05-16T01:00:00,1612A,118.5972,24.8978,泉州市,津头埔,细颗粒物(PM2.5),65,51,79,47,65,247,45,45,45,52,38,8,11,0.7,0.8
2023-05-16T01:00:00,1613A,118.6663,24.9424,泉州市,万安,细颗粒物(PM2.5),60,53,76,43,70,257,36,36,36,49,32,8,10,0.8,0.8
2023-05-16T01:00:00,1614A,118.6117,24.9604,泉州市,清源山,,,,,,,,,,,,,,,,
2023-05-16T01:00:00,1616A,117.6795,36.229,济南市,技术学院,颗粒物(PM10),62,73,102,32,37,215,156,156,156,14,24,13,11,0.9,0.7
2023-05-16T01:00:00,1618A,118.3429,35.0532,临沂市,沂河小区,颗粒物(PM10),59,68,82,35,33,194,106,106,106,22,21,20,15,0.2,0.4
2023-05-16T01:00:00,1619A,118.295,35.0583,临沂市,鲁南制药厂,颗粒物(PM10),59,68,81,31,35,205,111,111,111,27,23,22,18,0.4,0.4
2023-05-16T01:00:00,1620A,118.2794,34.9976,临沂市,新光毛纺厂,颗粒物(PM10),64,78,82,34,31,191,92,92,92,29,19,24,16,0.5,0.5
2023-05-16T01:00:00,1621A,118.3956,35.0888,临沂市,河东保险公司,颗粒物(PM10),58,66,72,28,33,209,115,115,115,19,19,14,15,0.2,0.3
2023-05-16T01:00:00,1622A,116.3032,37.4674,德州市,儿童乐园,颗粒物(PM10),64,78,110,41,41,206,117,117,117,8,14,7,9,0.8,0.7
2023-05-16T01:00:00,1624A,116.2991,37.4451,德州市,监理站,颗粒物(PM10),63,75,113,34,39,211,124,124,124,15,22,15,16,0.6,0.5
2023-05-16T01:00:00,1625A,115.9848,36.4372,聊城市,区政府,"颗粒物(PM10),细颗粒物(PM2.5)",64,78,101,46,38,199,94,94,94,8,21,8,10,0.5,0.6
2023-05-16T01:00:00,1628A,118.0062,37.3803,滨州市,市环保局,颗粒物(PM10),84,117,139,42,57,264,117,117,117,19,34,10,19,0.6,0.8
2023-05-16T01:00:00,1629A,118.0018,37.3617,滨州市,第二水厂,颗粒物(PM10),78,105,143,38,51,261,114,114,114,20,40,8,20,0.8,0.9
2023-05-16T01:00:00,1630A,117.9776,37.393,滨州市,北中新校,颗粒物(PM10),79,108,129,46,51,215,97,97,97,16,39,5,13,1.1,0.9
2023-05-16T01:00:00,1631A,118.0414,36.8103,淄博市,人民公园,细颗粒物(PM2.5),82,83,102,60,47,220,154,154,154,8,16,12,13,0.5,0.5
2023-05-16T01:00:00,1633A,117.8525,36.4847,淄博市,双山,颗粒物(PM10),59,68,93,33,37,209,146,146,146,13,16,11,13,0.4,0.4
2023-05-16T01:00:00,1634A,117.9592,36.6331,淄博市,气象站,颗粒物(PM10),71,92,107,34,36,212,150,150,150,10,20,8,9,0.4,0.5
2023-05-16T01:00:00,1635A,118.3092,36.8194,淄博市,莆田园,颗粒物(PM10),78,105,111,39,43,213,162,162,162,13,24,13,16,0.5,0.9
2023-05-16T01:00:00,1637A,117.558,34.8438,枣庄市,市中区政府,颗粒物(PM10),65,80,79,34,34,240,124,124,124,21,17,15,11,0.4,0.5
2023-05-16T01:00:00,1638A,117.2852,34.7837,枣庄市,薛城环保局,颗粒物(PM10),69,88,80,31,38,209,107,107,107,27,18,13,11,0.6,0.6
2023-05-16T01:00:00,1639A,117.5852,34.7745,枣庄市,峄城区政府,颗粒物(PM10),67,83,84,34,32,217,99,99,99,23,16,19,14,0.4,0.4
2023-05-16T01:00:00,1640A,117.7276,34.5578,枣庄市,台儿庄区环保局,颗粒物(PM10),68,85,81,31,32,186,91,91,91,32,28,16,13,0.8,0.7
2023-05-16T01:00:00,1641A,117.4518,35.0992,枣庄市,山亭区环保局,颗粒物(PM10),58,66,75,34,39,222,140,140,140,17,17,12,12,0.2,0.3
2023-05-16T01:00:00,1642A,121.2514,37.5639,烟台市,开发区,臭氧1小时,67,73,76,44,44,193,173,173,173,18,22,9,8,0.9,0.8
2023-05-16T01:00:00,1643A,121.3719,37.5433,烟台市,轴承厂,臭氧1小时,75,80,78,45,49,197,180,180,180,10,10,5,4,0.7,0.6
2023-05-16T01:00:00,1644A,121.3181,37.5436,烟台市,西郊化工站,臭氧1小时,78,75,83,45,37,197,182,182,182,10,12,6,5,0.6,0.6
2023-05-16T01:00:00,1645A,121.4478,37.4822,烟台市,莱山环保局,臭氧1小时,69,80,84,42,52,195,175,175,175,13,16,7,6,0.6,0.6
2023-05-16T01:00:00,1646A,121.2611,37.4967,烟台市,福山环保局,颗粒物(PM10),68,85,85,39,43,186,154,154,154,22,21,8,11,0.4,0.3
2023-05-16T01:00:00,1650A,119.1437,36.7023,潍坊市,环保局,颗粒物(PM10),62,73,101,36,50,198,121,121,121,21,24,11,10,0.5,0.6
2023-05-16T01:00:00,1653A,116.6251,35.4302,济宁市,火炬城,细颗粒物(PM2.5),55,53,90,39,32,178,120,120,120,8,8,17,15,0.8,0.8
2023-05-16T01:00:00,1655A,116.5491,35.4042,济宁市,电化厂,颗粒物(PM10),61,71,89,34,36,158,124,124,124,10,8,11,12,0.7,0.7
2023-05-16T01:00:00,1656A,117.1437,36.1937,泰安市,监测站,颗粒物(PM10),60,70,98,37,47,226,147,147,147,8,16,9,9,0.5,0.5
2023-05-16T01:00:00,1657A,117.0885,36.2017,泰安市,人口学校,颗粒物(PM10),64,78,102,30,38,201,145,145,145,11,17,9,10,0.4,0.5
2023-05-16T01:00:00,1658A,117.1089,36.1758,泰安市,电力学校,颗粒物(PM10),59,68,102,39,40,208,137,137,137,8,22,11,12,0.4,0.4
2023-05-16T01:00:00,1659A,119.471,35.4209,日照市,监测站,颗粒物(PM10),58,66,85,39,45,226,102,102,102,29,34,6,7,0.4,0.4
2023-05-16T01:00:00,1660A,119.523,35.4216,日照市,市政府广场,颗粒物(PM10),70,90,93,49,42,221,78,78,78,60,37,15,12,0.9,0.7
2023-05-16T01:00:00,1661A,119.5587,35.4044,日照市,港务局,颗粒物(PM10),68,85,128,38,46,198,90,90,90,50,52,15,15,0.8,0.8
2023-05-16T01:00:00,1662A,122.1214,37.4236,威海市,华夏技校,细颗粒物(PM2.5),55,56,73,39,49,222,160,160,160,13,20,5,7,0.4,0.6
2023-05-16T01:00:00,1663A,122.0508,37.5236,威海市,山大分校,臭氧1小时,78,68,83,34,38,232,182,182,182,10,14,9,9,0.5,0.6
2023-05-16T01:00:00,1664A,122.1067,37.5072,威海市,市监测站,臭氧1小时,95,68,78,34,39,227,196,196,196,7,13,10,8,0.6,0.7
2023-05-16T01:00:00,1666A,118.6614,37.4309,东营市,市环保局,颗粒物(PM10),78,105,118,41,50,245,95,95,95,40,33,12,24,0.7,0.9
2023-05-16T01:00:00,1669A,113.5824,24.7733,韶关市,市八中,颗粒物(PM10),51,52,48,31,29,154,85,85,85,23,21,10,14,0.7,0.7
2023-05-16T01:00:00,1671A,113.5917,24.7972,韶关市,园林处,,50,50,52,28,30,152,44,44,44,28,18,12,15,0.9,0.8
2023-05-16T01:00:00,1672A,113.6735,24.7791,韶关市,韶关学院,颗粒物(PM10),54,58,56,37,36,176,56,56,56,15,21,11,16,0.6,0.8
2023-05-16T01:00:00,1673A,113.5971,24.6863,韶关市,曲江监测站,细颗粒物(PM2.5),58,50,56,41,34,153,89,89,89,19,19,10,9,0.7,0.8
2023-05-16T01:00:00,1674A,116.6794,23.3667,汕头市,金平子站,,30,11,40,12,28,161,93,93,93,14,20,5,10,0.7,0.9
2023-05-16T01:00:00,1675A,116.7244,23.3633,汕头市,龙湖子站,,34,7,43,10,28,165,108,108,108,6,17,2,7,0.6,0.8
2023-05-16T01:00:00,1676A,116.7258,23.2775,汕头市,濠江子站,,30,3,41,7,28,151,93,93,93,12,17,7,10,0.6,0.9
2023-05-16T01:00:00,1677A,116.7519,23.4714,汕头市,澄海子站,,34,16,41,13,29,176,108,108,108,10,20,4,11,0.6,0.7
2023-05-16T01:00:00,1678A,116.6092,23.2539,汕头市,潮阳子站,,30,6,38,8,22,165,94,94,94,6,12,8,11,0.6,0.8
2023-05-16T01:00:00,1680A,110.3539,21.2706,湛江市,湛江影剧院,,48,48,36,28,25,118,84,84,84,18,18,16,12,1.0,0.7
2023-05-16T01:00:00,1681A,110.3928,21.2228,湛江市,市环境监测站,,43,28,26,30,23,120,86,86,86,17,13,11,8,0.9,0.6
2023-05-16T01:00:00,1682A,110.4019,21.1997,湛江市,环保局宿舍,,30,24,25,21,21,125,93,93,93,15,16,6,7,0.5,0.6
2023-05-16T01:00:00,1683A,110.4111,21.2028,湛江市,霞山游泳场,,45,34,24,31,20,133,96,96,96,16,13,13,7,0.8,0.7
2023-05-16T01:00:00,1684A,110.3316,21.2679,湛江市,麻章区环保局,细颗粒物(PM2.5),65,49,41,47,28,129,44,44,44,53,24,7,7,0.7,0.7
2023-05-16T01:00:00,1685A,110.4558,21.2567,湛江市,坡头区环保局,,32,32,25,21,19,128,87,87,87,18,11,7,7,0.6,0.6
2023-05-16T01:00:00,1686A,111.0286,21.4688,茂名市,电白南海,,31,19,34,14,22,130,98,98,98,6,16,5,7,0.5,0.6
2023-05-16T01:00:00,1687A,110.9294,21.6533,茂名市,茂石化七小,,39,38,38,27,29,154,74,74,74,14,17,7,10,0.6,0.8
2023-05-16T01:00:00,1688A,110.9107,21.6687,茂名市,健康路,,33,27,30,23,19,155,101,101,101,8,10,5,7,0.8,0.9
2023-05-16T01:00:00,1689A,110.8592,21.6828,茂名市,高岭,颗粒物(PM10),53,56,43,36,32,147,77,77,77,26,18,4,10,0.6,0.6
2023-05-16T01:00:00,1690A,116.1231,24.3284,梅州市,梅江月梅,,49,48,36,34,26,146,105,105,105,14,13,10,8,0.6,0.5
2023-05-16T01:00:00,1691A,116.0797,24.2719,梅州市,梅县新城,细颗粒物(PM2.5),59,51,38,42,23,134,81,81,81,25,21,12,7,0.7,0.6
2023-05-16T01:00:00,1692A,116.1248,24.2654,梅州市,环境监控中心,颗粒物(PM10),54,58,39,35,22,147,37,37,37,69,26,5,5,0.6,0.6
2023-05-16T01:00:00,1693A,115.3653,22.775,汕尾市,市环保局,,46,34,34,32,26,148,102,102,102,6,7,9,9,0.7,0.7
2023-05-16T01:00:00,1694A,115.3706,22.7898,汕尾市,市政府,细颗粒物(PM2.5),54,44,35,38,35,151,109,109,109,8,10,5,5,0.6,0.7
2023-05-16T01:00:00,1695A,115.3622,22.7925,汕尾市,新城中学,颗粒物(PM10),51,52,39,34,28,151,92,92,92,9,7,7,7,0.7,0.7
2023-05-16T01:00:00,1696A,114.6778,23.7569,河源市,源西,,46,39,42,32,23,153,91,91,91,12,21,5,4,0.7,0.7
2023-05-16T01:00:00,1697A,114.6944,23.7586,河源市,东埔,颗粒物(PM10),58,66,42,31,21,145,77,77,77,16,17,6,6,0.5,0.6
2023-05-16T01:00:00,1698A,114.6892,23.7233,河源市,老城,颗粒物(PM10),56,62,59,23,20,148,83,83,83,16,17,7,6,0.7,0.6
2023-05-16T01:00:00,1699A,111.9797,21.8593,阳江市,鸳鸯湖,,,,34,17,24,134,107,107,107,6,14,6,8,0.8,0.9
2023-05-16T01:00:00,1701A,111.9491,21.8658,阳江市,马南垌,,35,19,36,21,32,124,109,109,109,6,16,5,6,0.7,0.8
2023-05-16T01:00:00,1702A,113.0426,23.691,清远市,环保大楼,细颗粒物(PM2.5),73,89,64,53,45,213,86,86,86,32,25,6,9,1.2,1.1
2023-05-16T01:00:00,1703A,113.0208,23.7106,清远市,凤城街办,细颗粒物(PM2.5),80,96,81,59,53,200,92,92,92,31,22,5,7,0.7,0.7
2023-05-16T01:00:00,1705A,116.6367,23.6719,潮州市,西园路,细颗粒物(PM2.5),64,34,43,46,37,112,61,61,61,16,12,6,6,0.5,0.4
2023-05-16T01:00:00,1706A,116.6447,23.6706,潮州市,档案局,,48,40,44,33,29,173,68,68,68,11,7,18,9,0.6,0.5
2023-05-16T01:00:00,1708A,116.3701,23.5345,揭阳市,新兴,颗粒物(PM10),51,52,50,27,33,195,103,103,103,9,15,7,12,0.6,0.7
2023-05-16T01:00:00,1709A,116.3264,23.5443,揭阳市,西马,,46,46,51,27,31,194,100,100,100,13,17,5,10,0.7,0.8
2023-05-16T01:00:00,1710A,116.3611,23.5626,揭阳市,东兴,颗粒物(PM10),54,58,55,36,31,194,102,102,102,10,17,5,10,0.9,0.9
2023-05-16T01:00:00,1711A,116.4151,23.5294,揭阳市,渔湖,,47,47,50,30,33,209,98,98,98,10,14,6,11,0.7,0.7
2023-05-16T01:00:00,1712A,112.0392,22.9169,云浮市,新市府,,33,25,39,23,25,116,42,42,42,7,7,2,3,0.8,0.8
2023-05-16T01:00:00,1714A,112.0539,22.9539,云浮市,牧羊,,38,24,57,26,48,140,37,37,37,21,23,10,9,0.7,0.8
2023-05-16T01:00:00,1715A,102.575,24.3711,玉溪市,东风水库,,13,3,28,7,21,82,39,39,39,15,16,7,8,0.6,0.8
2023-05-16T01:00:00,1718A,115.4208,35.2464,菏泽市,气象局,颗粒物(PM10),63,76,93,40,37,165,116,116,116,12,13,7,9,0.5,0.5
2023-05-16T01:00:00,1719A,115.4747,35.2375,菏泽市,市政协,颗粒物(PM10),60,70,81,42,42,164,120,120,120,9,10,9,10,0.5,0.5
2023-05-16T01:00:00,1721A,113.3819,40.1097,大同市,果树场,颗粒物(PM10),78,105,100,48,39,147,35,35,35,45,38,15,16,0.4,0.5
2023-05-16T01:00:00,1723A,113.2994,40.0758,大同市,云冈宾馆,颗粒物(PM10),98,146,104,45,33,152,79,79,79,37,34,12,15,0.5,0.8
2023-05-16T01:00:00,1724A,113.3444,40.0917,大同市,大同大学,颗粒物(PM10),102,154,94,52,29,144,40,40,40,53,26,13,15,0.4,0.6
2023-05-16T01:00:00,1725A,113.2661,40.1269,大同市,安家小村,颗粒物(PM10),83,116,100,31,29,153,103,103,103,18,24,10,16,0.2,1
2023-05-16T01:00:00,1726A,113.2711,40.0844,大同市,教育学院,颗粒物(PM10),141,232,113,29,39,139,87,87,87,30,41,24,18,0.4,1.3
2023-05-16T01:00:00,1727A,113.1147,36.1547,长治市,清华站,颗粒物(PM10),68,86,105,22,34,173,129,129,129,13,22,10,10,0.5,0.6
2023-05-16T01:00:00,1728A,113.1031,36.1989,长治市,监测站,,50,50,100,29,35,164,127,127,127,11,25,8,10,0.6,0.8
2023-05-16T01:00:00,1730A,113.0886,36.2125,长治市,审计局,颗粒物(PM10),52,53,95,31,40,161,128,128,128,11,28,11,12,0.6,0.6
2023-05-16T01:00:00,1731A,113.0844,36.1856,长治市,长治八中,细颗粒物(PM2.5),62,68,109,44,44,174,132,132,132,9,19,8,8,0.6,0.5
2023-05-16T01:00:00,1733A,111.5531,36.0783,临汾市,临钢医院,颗粒物(PM10),76,102,91,42,25,184,3,3,3,89,41,4,5,0.7,0.7
2023-05-16T01:00:00,1734A,111.5028,36.0714,临汾市,技工学校,颗粒物(PM10),81,112,81,38,29,214,19,19,19,74,31,5,8,0.7,0.7
2023-05-16T01:00:00,1736A,111.5018,36.0855,临汾市,市委,颗粒物(PM10),93,136,102,38,36,221,22,22,22,70,35,2,5,1.0,1
2023-05-16T01:00:00,1738A,113.5758,37.8572,阳泉市,市中心,颗粒物(PM10),83,116,102,36,33,158,2,2,2,108,57,9,21,0.8,0.9
2023-05-16T01:00:00,1739A,113.4894,37.8731,阳泉市,赛鱼,颗粒物(PM10),64,77,95,31,30,159,75,75,75,26,47,8,13,0.6,0.8
2023-05-16T01:00:00,1740A,113.5819,37.8486,阳泉市,南庄,颗粒物(PM10),86,121,110,39,42,166,25,25,25,78,46,8,20,0.7,0.8
2023-05-16T01:00:00,1742A,113.5614,37.8703,阳泉市,平坦,颗粒物(PM10),77,103,110,43,37,159,4,4,4,109,58,9,19,0.7,0.7
2023-05-16T01:00:00,1743A,113.5158,37.8392,阳泉市,大阳泉,颗粒物(PM10),66,82,77,26,30,163,160,160,160,13,19,10,12,0.5,0.5
2023-05-16T01:00:00,1744A,118.9233,42.2816,赤峰市,松山一中,颗粒物(PM10),75,100,89,34,24,150,46,46,46,53,34,14,14,0.7,0.7
2023-05-16T01:00:00,1745A,118.9576,42.2728,赤峰市,哈达街,颗粒物(PM10),89,128,99,36,32,148,54,54,54,38,34,19,21,0.6,0.7
2023-05-16T01:00:00,1746A,118.8788,42.2554,赤峰市,天义路,颗粒物(PM10),59,68,66,22,23,166,65,65,65,30,32,17,15,0.6,0.6
2023-05-16T01:00:00,1748A,123.044,41.1196,鞍山市,深沟寺,"颗粒物(PM10),臭氧1小时",52,53,44,34,29,165,161,161,161,6,8,9,9,0.5,0.5
2023-05-16T01:00:00,1749A,123.011,41.0931,鞍山市,太阳城,臭氧1小时,69,64,48,38,32,179,175,175,175,8,10,8,8,0.8,0.7
2023-05-16T01:00:00,1750A,123.0485,41.1442,鞍山市,太平,颗粒物(PM10),56,62,58,35,32,156,156,156,156,8,12,11,10,0.6,0.6
2023-05-16T01:00:00,1751A,122.9642,41.0971,鞍山市,铁西三道街,臭氧1小时,75,71,65,36,34,180,180,180,180,9,17,5,5,0.7,0.7
2023-05-16T01:00:00,1752A,122.9341,41.0833,鞍山市,铁西工业园区,臭氧1小时,67,75,63,38,31,173,173,173,173,14,16,8,9,0.7,0.8
2023-05-16T01:00:00,1753A,123.022,41.0821,鞍山市,明达新区,臭氧1小时,73,58,46,36,30,181,178,178,178,8,9,7,6,0.6,0.5
2023-05-16T01:00:00,1754A,123.1289,41.0228,鞍山市,千山,,,,,,,,,,,,,,,,
2023-05-16T01:00:00,1755A,123.7977,41.8491,抚顺市,望花区,"颗粒物(PM10),细颗粒物(PM2.5),臭氧1小时",55,60,54,39,36,189,164,164,164,24,22,21,17,0.1,0.2
2023-05-16T01:00:00,1756A,123.9161,41.8822,抚顺市,顺城区,臭氧1小时,73,57,54,29,33,197,178,178,178,6,20,4,5,0.3,0.4
2023-05-16T01:00:00,1757A,124.0436,41.8611,抚顺市,东洲区,臭氧1小时,72,52,53,30,32,182,177,177,177,5,9,10,13,0.3,0.4
2023-05-16T01:00:00,1758A,123.9247,41.8642,抚顺市,新抚区,臭氧1小时,65,68,59,33,30,196,172,172,172,7,16,9,9,0.4,0.6
2023-05-16T01:00:00,1759A,124.0972,41.8961,抚顺市,大伙房水库,臭氧1小时,83,35,39,28,28,191,186,186,186,4,5,5,6,0.3,0.3
2023-05-16T01:00:00,1760A,123.7086,41.8391,抚顺市,沈抚新城,臭氧1小时,75,43,60,28,32,193,180,180,180,8,15,8,10,0.7,0.5
2023-05-16T01:00:00,1761A,123.8275,41.3064,本溪市,大峪,颗粒物(PM10),56,62,54,28,25,148,121,121,121,12,11,5,5,0.7,0.7
2023-05-16T01:00:00,1762A,123.7567,41.3325,本溪市,溪湖,颗粒物(PM10),53,55,48,36,34,161,161,161,161,12,16,10,14,0.7,0.8
2023-05-16T01:00:00,1763A,123.7169,41.3094,本溪市,彩屯,颗粒物(PM10),69,87,89,38,42,116,115,115,115,47,36,47,53,2.1,1.9
2023-05-16T01:00:00,1764A,123.7669,41.2864,本溪市,东明,"颗粒物(PM10),臭氧1小时",65,79,48,31,27,172,172,172,172,13,15,7,6,0.6,0.6
2023-05-16T01:00:00,1765A,123.7992,41.2664,本溪市,新立屯,细颗粒物(PM2.5),60,65,54,43,33,166,166,166,166,7,9,7,6,0.7,0.6
2023-05-16T01:00:00,1766A,123.8142,41.3472,本溪市,威宁,细颗粒物(PM2.5),52,48,49,36,32,143,123,123,123,12,14,6,6,0.5,0.5
2023-05-16T01:00:00,1767A,121.1115,41.0879,锦州市,南山,细颗粒物(PM2.5),94,80,69,70,66,192,128,128,128,16,17,7,11,0.5,0.5
2023-05-16T01:00:00,1768A,121.0533,40.8434,锦州市,开发区,细颗粒物(PM2.5),75,59,71,55,57,181,145,145,145,14,18,7,18,0.5,0.5
2023-05-16T01:00:00,1769A,121.1836,41.1119,锦州市,百股街道,细颗粒物(PM2.5),64,53,57,46,50,202,161,161,161,10,14,7,8,0.6,0.5
2023-05-16T01:00:00,1770A,121.1178,41.1222,锦州市,天安街道,颗粒物(PM10),75,99,80,42,54,206,143,143,143,14,18,7,11,0.7,0.8
2023-05-16T01:00:00,1771A,121.1303,41.1386,锦州市,北湖公园,细颗粒物(PM2.5),84,73,73,62,61,202,140,140,140,14,15,6,9,0.5,0.5
2023-05-16T01:00:00,1772A,126.54,43.8622,吉林市,哈达湾,,37,37,44,12,21,169,55,55,55,31,14,5,5,0.6,0.6
2023-05-16T01:00:00,1773A,126.5844,43.8358,吉林市,东局子,,35,35,45,15,25,170,32,32,32,37,22,6,6,0.7,0.7
2023-05-16T01:00:00,1774A,126.5052,43.8245,吉林市,电力学院,,39,39,44,20,25,174,38,38,38,29,20,8,8,0.5,0.5
2023-05-16T01:00:00,1775A,126.6133,43.8972,吉林市,江北,二氧化氮,93,30,47,14,21,167,15,15,15,186,26,11,8,0.6,0.7
2023-05-16T01:00:00,1776A,126.555,43.8306,吉林市,江南公园,,26,26,47,10,25,165,66,66,66,19,19,6,6,0.5,0.6
2023-05-16T01:00:00,1778A,126.7061,43.7133,吉林市,丰满,,21,21,36,14,27,164,61,61,61,7,8,5,5,0.4,0.5
2023-05-16T01:00:00,1779A,123.9305,47.3636,齐齐哈尔市,安居小区,,24,13,30,12,7,104,76,76,76,5,7,2,3,0.1,0.2
2023-05-16T01:00:00,1780A,123.9488,47.3386,齐齐哈尔市,中心广场,,24,15,24,3,3,97,76,76,76,4,8,5,5,0.2,0.2
2023-05-16T01:00:00,1781A,123.9483,47.3227,齐齐哈尔市,农牧车辆厂,,36,36,40,2,7,101,73,73,73,6,7,5,5,0.2,0.2
2023-05-16T01:00:00,1783A,123.945,47.2988,齐齐哈尔市,市环境监测站,,32,32,44,2,20,100,71,71,71,6,6,6,6,0.2,0.2
2023-05-16T01:00:00,1784A,129.61,44.561,牡丹江市,环保大楼,,26,25,30,18,19,138,64,64,64,18,14,4,5,0.3,0.3
2023-05-16T01:00:00,1785A,129.6115,44.5782,牡丹江市,文化广场,,33,33,32,20,22,136,57,57,57,32,18,4,5,0.6,0.5
2023-05-16T01:00:00,1786A,129.5904,44.5963,牡丹江市,第一医院,,46,45,33,32,21,138,66,66,66,11,13,3,3,0.3,0.4
2023-05-16T01:00:00,1787A,129.6364,44.6075,牡丹江市,机车工厂,,36,36,32,19,15,137,65,65,65,12,11,3,3,0.2,0.3
2023-05-16T01:00:00,1788A,129.6386,44.5462,牡丹江市,第一中学,,42,39,33,29,19,136,40,40,40,13,16,3,3,0.4,0.4
2023-05-16T01:00:00,1789A,124.81117,46.03138,大庆市,大同区,,44,44,50,8,10,108,76,76,76,5,7,4,4,0.3,0.3
2023-05-16T01:00:00,1790A,125.129,46.533,大庆市,龙凤区,,27,27,48,10,15,104,85,85,85,9,15,1,2,0.1,0.2
2023-05-16T01:00:00,1791A,124.902,46.408,大庆市,红岗区,,32,32,40,16,16,107,75,75,75,8,10,3,4,0.3,0.3
2023-05-16T01:00:00,1792A,125.153,46.586,大庆市,萨尔图区,,29,29,40,15,12,93,74,74,74,9,14,7,7,0.3,0.4
2023-05-16T01:00:00,1793A,124.9042,46.6215,大庆市,让胡路区,,30,30,32,15,14,100,81,81,81,5,8,7,6,0.2,0.2
2023-05-16T01:00:00,1794A,118.3606,31.3519,芜湖市,监测站,细颗粒物(PM2.5),54,55,66,38,36,199,103,103,103,27,27,16,11,0.7,0.7
2023-05-16T01:00:00,1795A,118.3714,31.4134,芜湖市,科创中心,颗粒物(PM10),61,71,71,42,39,201,86,86,86,38,38,16,11,1.0,0.9
2023-05-16T01:00:00,1796A,118.3673,31.3131,芜湖市,四水厂,细颗粒物(PM2.5),64,75,65,46,37,194,88,88,88,33,31,16,12,0.8,0.7
2023-05-16T01:00:00,1798A,118.5092,31.6837,马鞍山市,湖东路四小,细颗粒物(PM2.5),73,69,68,53,39,217,64,64,64,52,28,15,11,1.3,0.9
2023-05-16T01:00:00,1799A,118.5024,31.6449,马鞍山市,开发区,颗粒物(PM10),71,91,80,49,39,212,42,42,42,65,43,16,11,1.7,1.1
2023-05-16T01:00:00,1800A,118.5228,31.7231,马鞍山市,慈湖,细颗粒物(PM2.5),72,81,70,52,39,216,49,49,49,63,32,13,12,1.1,0.9
2023-05-16T01:00:00,1802A,118.6245,31.7241,马鞍山市,濮塘,细颗粒物(PM2.5),60,63,60,43,35,214,79,79,79,33,19,16,10,1.8,1.4
2023-05-16T01:00:00,1803A,115.9872,29.6815,九江市,十里,细颗粒物(PM2.5),60,61,57,43,34,180,55,55,55,44,26,11,12,0.7,0.6
2023-05-16T01:00:00,1804A,115.9584,29.7046,九江市,茅山头,颗粒物(PM10),65,80,66,42,39,179,22,22,22,66,35,9,12,1.0,0.7
2023-05-16T01:00:00,1805A,115.9877,29.7295,九江市,西园,,48,37,50,33,39,171,15,15,15,95,39,8,10,0.4,0.6
2023-05-16T01:00:00,1806A,116.0172,29.6547,九江市,五七二七厂,,45,36,50,23,31,182,141,141,141,7,10,8,10,0.4,0.4
2023-05-16T01:00:00,1808A,115.9114,29.6038,九江市,综合工业园,,40,40,68,28,41,180,121,121,121,30,25,12,14,0.5,0.8
2023-05-16T01:00:00,1809A,116.0721,29.7535,九江市,石化总厂,颗粒物(PM10),77,103,76,48,38,163,82,82,82,25,23,15,17,0.6,0.6
2023-05-16T01:00:00,1810A,115.9773,29.5698,九江市,庐山气象台,,49,49,41,22,27,171,142,142,142,3,5,7,7,0.6,0.7
2023-05-16T01:00:00,1812A,112.3931,34.6516,洛阳市,市委党校,颗粒物(PM10),61,71,71,43,29,164,121,121,121,12,14,6,5,0.6,0.5
2023-05-16T01:00:00,1814A,112.4657,34.6871,洛阳市,豫西宾馆,颗粒物(PM10),65,80,92,41,39,192,122,122,122,13,26,10,7,0.7,0.7
2023-05-16T01:00:00,1815A,112.494,34.6886,洛阳市,河南林校,颗粒物(PM10),61,71,71,37,30,186,120,120,120,14,16,11,10,0.5,0.4
2023-05-16T01:00:00,1816A,112.3844,34.623,洛阳市,开发区管委会,颗粒物(PM10),59,67,68,37,29,176,123,123,123,11,13,8,7,0.3,0.3
2023-05-16T01:00:00,1817A,112.4267,34.6258,洛阳市,市委新办公区,细颗粒物(PM2.5),67,68,71,48,37,170,122,122,122,14,16,14,11,0.6,0.4
2023-05-16T01:00:00,1818A,114.4839,36.0621,安阳市,棉研所,颗粒物(PM10),67,83,124,40,37,174,84,84,84,8,13,7,9,0.6,0.6
2023-05-16T01:00:00,1819A,114.3551,36.1017,安阳市,红庙街,,,,,,,,,,,,,,,,
2023-05-16T01:00:00,1820A,114.361,36.0681,安阳市,银杏小区,颗粒物(PM10),62,73,111,35,45,199,103,103,103,3,21,10,20,0.6,0.7
2023-05-16T01:00:00,1824A,114.3389,34.7781,开封市,肿瘤医院,"颗粒物(PM10),细颗粒物(PM2.5)",57,63,89,40,38,171,114,114,114,4,11,8,8,0.7,0.7
2023-05-16T01:00:00,1826A,114.2885,34.7965,开封市,世纪星幼儿园,颗粒物(PM10),116,181,111,42,38,169,106,106,106,11,15,5,5,0.8,0.7
2023-05-16T01:00:00,1828A,113.227,35.2125,焦作市,市环保局,颗粒物(PM10),64,77,111,23,40,227,94,94,94,18,23,10,16,0.7,0.6
2023-05-16T01:00:00,1830A,113.1992,35.2590,焦作市,影视城,,,,,,,,,,,,,,,,
2023-05-16T01:00:00,1832A,113.3257,33.742,平顶山市,新华旅馆,颗粒物(PM10),65,80,78,44,45,169,109,109,109,18,12,4,5,0.5,0.5
2023-05-16T01:00:00,1833A,113.2919,33.737,平顶山市,规划设计院,细颗粒物(PM2.5),64,68,80,46,45,174,130,130,130,14,17,7,8,0.5,0.4
2023-05-16T01:00:00,1834A,113.182,33.774,平顶山市,平顶山工学院,颗粒物(PM10),57,64,70,39,39,169,123,123,123,6,6,5,6,0.4,0.5
2023-05-16T01:00:00,1835A,111.1922,34.7752,三门峡市,市政府,颗粒物(PM10),64,77,67,23,28,170,71,71,71,22,22,9,9,0.6,0.5
2023-05-16T01:00:00,1836A,111.1587,34.7942,三门峡市,开发区,颗粒物(PM10),63,76,77,27,29,175,61,61,61,37,24,12,8,0.6,0.5
2023-05-16T01:00:00,1838A,111.143,34.7955,三门峡市,风景区,颗粒物(PM10),64,78,72,34,42,186,61,61,61,29,17,15,11,0.6,0.5
2023-05-16T01:00:00,1840A,111.2992,30.6981,宜昌市,白龙岗,细颗粒物(PM2.5),73,88,69,53,36,193,33,33,33,44,36,8,8,0.7,0.6
2023-05-16T01:00:00,1841A,111.3549,30.6465,宜昌市,伍家岗,细颗粒物(PM2.5),113,101,73,85,43,201,32,32,32,44,40,9,9,1.0,0.7
2023-05-16T01:00:00,1842A,111.2628,30.6961,宜昌市,点军区,颗粒物(PM10),67,84,69,46,34,172,32,32,32,29,39,7,8,0.7,0.6
2023-05-16T01:00:00,1843A,111.3275,30.7819,宜昌市,夷陵区,颗粒物(PM10),68,86,73,46,37,187,49,49,49,26,36,8,8,0.5,0.6
2023-05-16T01:00:00,1844A,112.2494,30.3197,荆州市,市图书馆,细颗粒物(PM2.5),119,96,84,90,63,156,98,98,98,14,16,9,10,0.9,0.8
2023-05-16T01:00:00,1845A,112.2008,30.3544,荆州市,市委党校,细颗粒物(PM2.5),119,98,91,90,68,154,97,97,97,16,16,10,10,0.8,0.7
2023-05-16T01:00:00,1847A,113.1094,29.3578,岳阳市,南湖风景区,细颗粒物(PM2.5),57,52,59,40,41,161,108,108,108,14,17,12,15,0.5,0.5
2023-05-16T01:00:00,1848A,113.1493,29.4251,岳阳市,城陵矶,颗粒物(PM10),56,61,66,33,40,157,100,100,100,21,19,29,13,0.8,0.8
2023-05-16T01:00:00,1849A,113.1497,29.3575,岳阳市,开发区,,50,50,63,33,39,158,95,95,95,22,21,16,15,0.6,0.7
2023-05-16T01:00:00,1850A,113.2621,29.4758,岳阳市,云溪区,,45,45,52,24,33,153,123,123,123,15,13,11,12,0.6,0.6
2023-05-16T01:00:00,1851A,112.9943,29.4402,岳阳市,君山区,颗粒物(PM10),52,53,61,35,42,171,94,94,94,18,19,10,12,0.5,0.6
2023-05-16T01:00:00,1852A,113.2117,29.355,岳阳市,金凤水库,细颗粒物(PM2.5),53,54,54,37,35,161,93,93,93,17,12,10,8,0.9,0.9
2023-05-16T01:00:00,1854A,111.6975,28.9703,常德市,市二中,颗粒物(PM10),56,61,61,35,41,118,80,80,80,7,11,8,11,0.3,0.3
2023-05-16T01:00:00,1857A,111.7158,29.1456,常德市,白鹤山,细颗粒物(PM2.5),100,109,63,75,45,115,56,56,56,12,6,11,10,0.7,0.5
2023-05-16T01:00:00,1858A,110.5319,29.1217,张家界市,永定新区,,48,39,58,33,37,134,54,54,54,8,22,3,4,0,0.3
2023-05-16T01:00:00,1859A,110.4697,29.1242,张家界市,电业局,,46,42,64,32,38,114,63,63,63,9,21,3,4,0.3,0.4
2023-05-16T01:00:00,1860A,110.5594,29.3547,张家界市,未央路,,38,38,47,24,26,123,60,60,60,10,20,3,4,0.3,0.3
2023-05-16T01:00:00,1861A,110.4417,29.315,张家界市,袁家界,细颗粒物(PM2.5),54,35,45,38,25,118,71,71,71,4,8,7,8,0.6,0.5
2023-05-16T01:00:00,1862A,110.4144,25.3167,桂林市,电子科大尧山校区,,46,44,39,32,28,132,43,43,43,10,7,4,7,0.8,0.7
2023-05-16T01:00:00,1863A,110.2819,25.2697,桂林市,监测站,颗粒物(PM10),56,62,49,39,33,145,50,50,50,27,11,6,7,0.7,0.6
2023-05-16T01:00:00,1864A,110.3089,25.2708,桂林市,龙隐路小学,"颗粒物(PM10),细颗粒物(PM2.5)",53,56,45,37,30,138,31,31,31,31,15,6,6,0.8,0.6
2023-05-16T01:00:00,1865A,110.2869,25.2178,桂林市,八中,细颗粒物(PM2.5),63,64,48,45,30,138,37,37,37,36,19,5,5,0.5,0.4
2023-05-16T01:00:00,1866A,109.2262,21.588,北海市,牛尾岭水库,,16,11,33,11,23,143,46,46,46,8,10,6,10,0.7,0.9
2023-05-16T01:00:00,1867A,109.1436,21.4086,北海市,海滩公园,,28,10,36,5,20,168,88,88,88,5,8,4,6,0.5,0.6
2023-05-16T01:00:00,1868A,109.0981,21.4661,北海市,新市环保局,,28,12,34,5,22,169,88,88,88,5,10,2,5,0.6,0.7
2023-05-16T01:00:00,1869A,109.1778,21.5233,北海市,北海工业园,,33,33,44,12,26,159,83,83,83,6,9,4,8,0.5,0.6
2023-05-16T01:00:00,1870A,109.4856,24.3895,柳州市,柳东小学,颗粒物(PM10),51,51,53,19,37,147,82,82,82,16,17,8,15,0.6,0.6
2023-05-16T01:00:00,1871A,109.4157,24.3277,柳州市,环保监测站,,38,38,59,24,40,141,75,75,75,11,22,4,6,0.6,0.9
2023-05-16T01:00:00,1872A,109.389,24.341,柳州市,河西水厂,,36,36,59,18,37,137,61,61,61,17,25,6,9,0.5,0.8
2023-05-16T01:00:00,1873A,109.4311,24.2921,柳州市,市四中,,41,41,57,24,40,149,73,73,73,14,21,8,11,0.8,1
2023-05-16T01:00:00,1874A,109.4006,24.3631,柳州市,市九中,,41,41,61,26,36,141,71,71,71,13,19,7,9,0.4,0.6
2023-05-16T01:00:00,1875A,109.4958,24.3134,柳州市,古亭山,,37,37,51,22,34,140,82,82,82,9,20,2,5,0.5,0.7
2023-05-16T01:00:00,1876A,109.5078,18.2489,三亚市,河东子站,,24,17,13,8,8,88,75,75,75,3,6,3,3,0.5,0.5
2023-05-16T01:00:00,1877A,109.4964,18.2681,三亚市,河西子站,,23,15,12,8,6,88,73,73,73,6,7,2,2,0.3,0.4
2023-05-16T01:00:00,1878A,104.7778,31.4741,绵阳市,富乐山,细颗粒物(PM2.5),74,75,80,54,57,187,100,100,100,22,26,6,5,0.6,0.6
2023-05-16T01:00:00,1879A,104.7563,31.4535,绵阳市,市人大,细颗粒物(PM2.5),128,93,87,97,64,178,98,98,98,29,33,3,7,0.6,0.6
2023-05-16T01:00:00,1880A,104.6697,31.4668,绵阳市,高新区自来水公司,颗粒物(PM10),108,165,109,70,57,206,33,33,33,98,35,9,9,0.8,0.7
2023-05-16T01:00:00,1881A,104.7287,31.5075,绵阳市,三水厂,细颗粒物(PM2.5),92,108,109,68,72,214,55,55,55,68,44,7,8,0.8,0.8
2023-05-16T01:00:00,1882A,104.563,28.793,宜宾市,石马中学,颗粒物(PM10),78,105,83,47,49,168,28,28,28,59,38,9,8,0.8,0.7
2023-05-16T01:00:00,1883A,104.6201,28.7728,宜宾市,市委,细颗粒物(PM2.5),120,140,97,91,58,146,52,52,52,45,36,10,11,0.8,0.7
2023-05-16T01:00:00,1884A,104.6055,28.793,宜宾市,宜宾四中,细颗粒物(PM2.5),119,134,103,90,65,145,36,36,36,61,43,14,10,0.8,0.7
2023-05-16T01:00:00,1885A,104.639,28.7562,宜宾市,市政府,细颗粒物(PM2.5),129,135,103,98,65,147,59,59,59,47,46,10,10,0.9,0.8
2023-05-16T01:00:00,1886A,104.5742,28.7199,宜宾市,黄金嘴,细颗粒物(PM2.5),99,111,86,74,51,137,19,19,19,60,40,8,9,0.8,0.7
2023-05-16T01:00:00,1888A,101.6891,26.571,攀枝花市,弄弄坪,细颗粒物(PM2.5),60,44,35,43,31,100,56,56,56,26,21,11,11,1.0,0.9
2023-05-16T01:00:00,1889A,101.5769,26.5928,攀枝花市,河门口,,32,32,28,22,20,107,62,62,62,19,19,6,6,0.7,0.7
2023-05-16T01:00:00,1890A,101.7169,26.585,攀枝花市,炳草岗,细颗粒物(PM2.5),107,100,36,80,29,104,40,40,40,44,29,44,11,2.2,1.1
2023-05-16T01:00:00,1891A,101.7369,26.5008,攀枝花市,仁和,细颗粒物(PM2.5),95,86,49,71,39,110,36,36,36,19,23,16,19,1.6,1.4
2023-05-16T01:00:00,1893A,105.4324,28.9634,泸州市,九狮山,细颗粒物(PM2.5),79,92,74,58,47,156,81,81,81,27,26,14,13,0.2,0.4
2023-05-16T01:00:00,1894A,105.4427,28.9063,泸州市,小市上码头,细颗粒物(PM2.5),132,131,113,100,78,148,75,75,75,18,36,16,18,0.8,0.9
2023-05-16T01:00:00,1895A,105.4241,28.8573,泸州市,兰田宪桥,细颗粒物(PM2.5),139,135,106,106,79,162,60,60,60,25,29,24,14,1.0,1
2023-05-16T01:00:00,1896A,105.4379,28.8833,泸州市,市环监站,细颗粒物(PM2.5),119,128,101,90,68,147,65,65,65,26,38,13,18,0.7,0.8
2023-05-16T01:00:00,1901A,104.4239,31.1208,德阳市,东山公园,细颗粒物(PM2.5),63,73,93,45,48,205,118,118,118,24,29,6,6,0.7,0.7
2023-05-16T01:00:00,1902A,104.3826,31.1317,德阳市,西小区,细颗粒物(PM2.5),78,103,111,57,66,210,101,101,101,36,45,5,5,0.7,0.7
2023-05-16T01:00:00,1904A,104.3553,31.1091,德阳市,耐火材料厂,"颗粒物(PM10),细颗粒物(PM2.5)",83,115,128,61,70,226,67,67,67,52,46,5,6,0.6,0.7
2023-05-16T01:00:00,1905A,106.056,30.8064,南充市,西山风景区,细颗粒物(PM2.5),124,97,86,94,72,172,116,116,116,18,19,23,15,0.7,0.7
2023-05-16T01:00:00,1906A,106.0789,30.8023,南充市,南充市委,细颗粒物(PM2.5),114,133,102,86,63,173,81,81,81,36,31,28,16,0.9,0.8
2023-05-16T01:00:00,1907A,106.1031,30.8217,南充市,南充炼油厂,细颗粒物(PM2.5),115,127,113,87,68,169,84,84,84,35,26,24,17,0.9,0.8
2023-05-16T01:00:00,1908A,106.1064,30.7856,南充市,高坪区监测站,细颗粒物(PM2.5),140,133,100,107,72,169,85,85,85,35,32,42,18,0.9,0.8
2023-05-16T01:00:00,1909A,106.0642,30.7636,南充市,嘉陵区环保局,细颗粒物(PM2.5),140,132,110,107,78,180,96,96,96,29,36,24,37,1.0,0.8
2023-05-16T01:00:00,1910A,106.1087,30.8388,南充市,市环境监测站,细颗粒物(PM2.5),113,115,107,85,70,166,90,90,90,34,33,19,16,0.8,0.8
2023-05-16T01:00:00,1911A,106.9222,27.6869,遵义市,丁字口,细颗粒物(PM2.5),95,45,59,71,57,86,19,19,19,31,34,5,9,0.8,0.9
2023-05-16T01:00:00,1912A,106.9242,27.7019,遵义市,凤凰山,,46,40,59,32,36,111,64,64,64,20,22,6,9,0.5,0.6
2023-05-16T01:00:00,1913A,106.8906,27.6486,遵义市,忠庄,细颗粒物(PM2.5),69,51,88,50,52,92,31,31,31,22,30,3,4,0.6,0.7
2023-05-16T01:00:00,1914A,106.9231,27.6506,遵义市,舟水桥,细颗粒物(PM2.5),58,52,76,41,48,92,21,21,21,21,24,2,3,0.7,0.7
2023-05-16T01:00:00,1915A,106.9178,27.72,遵义市,干田坝,颗粒物(PM10),60,69,64,42,38,109,17,17,17,30,31,5,8,0.8,0.7
2023-05-16T01:00:00,1916A,103.7897,25.5035,曲靖市,环境监测站,,23,12,28,2,15,95,73,73,73,7,15,2,7,0.5,0.5
2023-05-16T01:00:00,1917A,103.8,25.5364,曲靖市,烟厂办公区,,29,16,30,9,17,109,90,90,90,6,17,4,11,0.4,0.5
2023-05-16T01:00:00,1918A,108.7197,34.3956,咸阳市,气象站,"颗粒物(PM10),细颗粒物(PM2.5)",65,80,63,47,29,213,16,16,16,97,50,5,7,0.8,0.7
2023-05-16T01:00:00,1919A,108.673,34.3155,咸阳市,实验中学,颗粒物(PM10),96,141,73,40,32,259,39,39,39,59,41,6,6,0.9,0.7
2023-05-16T01:00:00,1920A,108.7233,34.3617,咸阳市,师范学院,颗粒物(PM10),67,84,71,45,31,226,10,10,10,106,43,7,9,0.6,0.6
2023-05-16T01:00:00,1922A,109.0656,35.0994,铜川市,党校,颗粒物(PM10),63,76,72,27,23,168,3,3,3,72,34,9,11,0.8,0.7
2023-05-16T01:00:00,1923A,109.0697,35.0697,铜川市,王益区政府,,42,42,57,23,25,170,29,29,29,37,24,9,8,0.4,0.4
2023-05-16T01:00:00,1924A,108.9344,34.9058,铜川市,新区管委会,颗粒物(PM10),52,54,67,25,29,180,87,87,87,20,23,7,8,0.4,0.4
2023-05-16T01:00:00,1926A,109.4131,36.6275,延安市,枣园,颗粒物(PM10),56,61,70,23,25,170,31,31,31,43,28,5,6,0.3,0.3
2023-05-16T01:00:00,1927A,109.4761,36.6028,延安市,延大医附院,二氧化氮,60,64,78,17,24,163,13,13,13,120,61,4,4,0.6,0.6
2023-05-16T01:00:00,1929A,109.5056,36.6106,延安市,百米大道,颗粒物(PM10),67,83,83,30,31,153,23,23,23,70,39,6,7,0.6,0.5
2023-05-16T01:00:00,1930A,107.185,34.3063,宝鸡市,庙沟村,,39,39,40,20,20,176,116,116,116,9,9,11,8,0.2,0.3
2023-05-16T01:00:00,1931A,107.0708,34.3017,宝鸡市,竹园沟,,28,28,33,19,20,180,87,87,87,18,17,7,7,0.4,0.4
2023-05-16T01:00:00,1932A,107.1906,34.3672,宝鸡市,三陆医院,颗粒物(PM10),55,59,62,22,26,178,47,47,47,59,37,10,10,0.6,0.5
2023-05-16T01:00:00,1933A,107.1431,34.3547,宝鸡市,监测站,,44,44,52,22,25,181,104,104,104,22,24,6,7,0.3,0.4
2023-05-16T01:00:00,1934A,107.1186,34.3739,宝鸡市,技工学校,,33,29,52,22,26,182,105,105,105,16,24,5,6,0.4,0.5
2023-05-16T01:00:00,1935A,107.3906,34.3528,宝鸡市,陈仓区环保局家属楼,,48,47,64,33,27,181,70,70,70,30,27,6,8,0.4,0.5
2023-05-16T01:00:00,1936A,107.2058,34.3497,宝鸡市,文理学院,颗粒物(PM10),58,66,54,32,29,187,65,65,65,40,28,10,5,0.5,0.5
2023-05-16T01:00:00,1937A,107.2386,34.3622,宝鸡市,三迪小学,颗粒物(PM10),63,76,60,29,27,186,58,58,58,50,33,11,8,0.4,0.4
2023-05-16T01:00:00,1938A,109.5293,34.5101,渭南市,农科所,,35,34,57,19,29,172,109,109,109,11,26,9,10,0.4,0.5
2023-05-16T01:00:00,1939A,109.4974,34.4877,渭南市,日报社,,,,65,15,18,192,109,109,109,25,26,6,8,0.3,0.5
2023-05-16T01:00:00,1940A,109.4636,34.493,渭南市,体育馆,,44,44,60,24,31,190,117,117,117,12,35,6,8,0.2,0.4
2023-05-16T01:00:00,1941A,109.4259,34.5023,渭南市,高新一小,,,,,,,,,,,,,,,,
2023-05-16T01:00:00,1943A,102.1725,38.5339,金昌市,新川苑,颗粒物(PM10),56,62,84,22,21,138,104,104,104,14,19,6,11,0.5,0.5
2023-05-16T01:00:00,1944A,102.1692,38.5167,金昌市,天庆家园,,48,48,62,29,24,147,113,113,113,14,18,8,13,0.5,0.6
2023-05-16T01:00:00,1945A,98.2908,39.7711,嘉峪关市,气象局,颗粒物(PM10),65,80,149,22,38,142,108,108,108,7,17,7,29,0.3,0.6
2023-05-16T01:00:00,1947A,106.3394,38.817,石嘴山市,沙湖旅游区,,,,,,,,,,,,,,,,
2023-05-16T01:00:00,1948A,106.3668,39.0145,石嘴山市,大武口朝阳西街,细颗粒物(PM2.5),92,108,87,68,38,182,59,59,59,60,35,165,64,1.5,0.6
2023-05-16T01:00:00,1949A,106.7704,39.2282,石嘴山市,惠农南大街,细颗粒物(PM2.5),110,150,93,83,29,149,15,15,15,85,41,36,37,1.5,0.6
2023-05-16T01:00:00,1950A,106.7099,39.1325,石嘴山市,红果子镇惠新街,颗粒物(PM10),66,81,73,39,36,159,83,83,83,30,25,19,13,0.5,0.5
2023-05-16T01:00:00,1951A,84.895,45.6094,克拉玛依市,长征新村,,33,7,24,0,5,111,103,103,103,2,3,7,8,0.1,0.2
2023-05-16T01:00:00,1952A,84.8988,45.5893,克拉玛依市,南林小区,,31,10,28,20,15,112,98,98,98,2,4,2,3,0.2,0.1
2023-05-16T01:00:00,1954A,84.905,44.3396,克拉玛依市,独山子区,,28,21,52,10,15,116,88,88,88,5,6,7,7,0.3,0.3
2023-05-16T01:00:00,1955A,85.6979,46.098,克拉玛依市,乌尔禾区商贸楼,,29,29,29,4,8,104,80,80,80,2,2,10,10,0.2,0.2
2023-05-16T01:00:00,1956A,86.1472,41.7538,巴音郭楞州,孔雀公园,,33,33,78,15,20,121,91,91,91,4,8,3,4,0.2,0.2
2023-05-16T01:00:00,1957A,86.1972,41.7166,巴音郭楞州,棉纺厂,,46,46,74,12,22,132,85,85,85,10,12,3,3,0.3,0.3
2023-05-16T01:00:00,1958A,86.2357,41.7173,巴音郭楞州,经济开发区,,47,47,60,7,18,124,95,95,95,3,10,2,2,0.2,0.2
2023-05-16T01:00:00,1961A,117.532,36.6868,济南市,东山小学,颗粒物(PM10),68,85,114,32,35,208,154,154,154,9,15,7,8,0.5,0.5
2023-05-16T01:00:00,1966A,120.0405,35.8735,青岛市,黄岛区4号,颗粒物(PM10),60,70,102,29,52,208,152,152,152,18,26,11,12,0.9,1.1
2023-05-16T01:00:00,1982A,122.0693,37.2174,威海市,文登开发区,颗粒物(PM10),59,68,90,36,48,200,153,153,153,10,15,6,7,0.6,0.7
2023-05-16T01:00:00,2031A,113.1817,27.9958,株洲市,云田中学,细颗粒物(PM2.5),63,56,60,45,44,178,61,61,61,23,15,8,8,0.5,0.6
2023-05-16T01:00:00,2054A,114.1099,32.1059,信阳市,平桥分局,,47,47,59,31,36,163,128,128,128,15,14,9,10,0.5,0.6
2023-05-16T01:00:00,2064A,113.9956,32.1271,信阳市,南湾水厂,,,,,,,,,,,,,,,,
2023-05-16T01:00:00,2065A,114.0775,32.1195,信阳市,市酿酒公司,,50,50,59,31,42,162,125,125,125,14,11,10,10,0.5,0.6
2023-05-16T01:00:00,2066A,114.0609,32.1399,信阳市,审计局,颗粒物(PM10),53,56,68,35,44,167,134,134,134,12,10,10,10,0.3,0.5
2023-05-16T01:00:00,2067A,114.6613,33.6128,周口市,市环境监测站,细颗粒物(PM2.5),60,63,71,43,40,170,137,137,137,9,8,7,6,0.5,0.6
2023-05-16T01:00:00,2068A,114.6758,33.6347,周口市,周口师范,细颗粒物(PM2.5),62,62,66,44,38,160,131,131,131,9,11,4,5,0.4,0.5
2023-05-16T01:00:00,2069A,114.6546,33.5979,周口市,市运管处,颗粒物(PM10),53,56,73,34,36,163,129,129,129,9,9,8,8,0.7,0.7
2023-05-16T01:00:00,2070A,114.6369,33.6406,周口市,川汇区环保局,颗粒物(PM10),55,60,70,34,33,154,131,131,131,8,10,9,9,0.6,0.6
2023-05-16T01:00:00,2075A,117.6336,24.4674,漳州市,九湖,,,,,,,,,,,,,,,,
2023-05-16T01:00:00,2160A,112.85,35.5051,晋城市,自来水公司,颗粒物(PM10),53,55,90,24,32,213,94,94,94,28,28,17,15,0.5,0.5
2023-05-16T01:00:00,2161A,112.8318,35.4936,晋城市,白云商贸,颗粒物(PM10),60,69,99,31,32,191,58,58,58,43,23,13,11,0.7,0.6
2023-05-16T01:00:00,2162A,112.8508,35.4887,晋城市,市环保局,颗粒物(PM10),55,60,98,29,36,201,88,88,88,38,32,11,10,0.6,0.7
2023-05-16T01:00:00,2163A,112.8676,35.4897,晋城市,技术学院,颗粒物(PM10),54,58,86,29,33,191,86,86,86,28,28,10,10,0.3,0.6
2023-05-16T01:00:00,2165A,112.8453,35.546,晋城市,白马寺,"颗粒物(PM10),细颗粒物(PM2.5)",52,54,84,36,30,189,117,117,117,21,20,11,9,0.7,0.7
2023-05-16T01:00:00,2166A,112.4397,39.3522,朔州市,平朔,颗粒物(PM10),68,85,101,42,42,140,67,67,67,29,28,14,11,0.4,0.4
2023-05-16T01:00:00,2167A,112.4575,39.3617,朔州市,朔唯,颗粒物(PM10),181,312,129,50,41,142,30,30,30,82,38,24,17,0.6,0.5
2023-05-16T01:00:00,2168A,112.4258,39.3197,朔州市,区政府,颗粒物(PM10),69,87,87,33,23,144,86,86,86,22,16,6,6,0.4,0.5
2023-05-16T01:00:00,2169A,112.4072,39.3278,朔州市,市环保局,颗粒物(PM10),61,72,104,17,32,131,81,81,81,31,28,4,8,0.3,0.5
2023-05-16T01:00:00,2170A,112.4272,39.3681,朔州市,市二中,颗粒物(PM10),73,96,110,47,41,147,41,41,41,48,28,13,13,0.3,0.4
2023-05-16T01:00:00,2171A,112.7532,37.6945,晋中市,锦纶小区,颗粒物(PM10),70,90,112,30,42,196,104,104,104,26,31,9,13,0.3,0.5
2023-05-16T01:00:00,2173A,112.7249,37.7067,晋中市,南都小区,颗粒物(PM10),76,102,121,33,34,201,110,110,110,20,29,8,13,0.6,0.9
2023-05-16T01:00:00,2174A,112.6991,37.6982,晋中市,榆次区政府,颗粒物(PM10),96,142,120,27,29,198,94,94,94,26,30,9,15,0.6,0.7
2023-05-16T01:00:00,2175A,110.9956,35.0147,运城市,运城中学,,43,43,76,13,27,168,119,119,119,18,17,5,7,0.6,0.7
2023-05-16T01:00:00,2178A,110.9686,35.0303,运城市,地区技校,,39,37,83,17,24,182,124,124,124,4,17,4,6,0.3,0.6
2023-05-16T01:00:00,2179A,111.0414,35.1147,运城市,空港新区,,49,49,84,21,34,167,87,87,87,13,25,6,11,0.5,1.1
2023-05-16T01:00:00,2181A,112.7383,38.4519,忻州市,开发区,颗粒物(PM10),70,90,94,25,34,193,106,106,106,24,35,9,16,0.4,0.5
2023-05-16T01:00:00,2182A,112.7003,38.4928,忻州市,会展中心,颗粒物(PM10),68,86,98,25,35,180,75,75,75,42,39,12,14,0.3,0.4
2023-05-16T01:00:00,2183A,111.1406,37.5211,吕梁市,环保局,颗粒物(PM10),92,133,110,25,21,163,6,6,6,86,44,6,8,0.5,0.5
2023-05-16T01:00:00,2185A,111.1297,37.5136,吕梁市,自来水公司,颗粒物(PM10),87,123,118,22,21,150,26,26,26,58,38,5,7,0.7,0.6
2023-05-16T01:00:00,2187A,106.8174,39.6973,乌海市,市林业局,颗粒物(PM10),57,63,84,26,30,184,74,74,74,27,30,12,39,0.7,1.2
2023-05-16T01:00:00,2188A,106.7907,39.6667,乌海市,中海勃湾学校,颗粒物(PM10),95,140,107,40,34,187,7,7,7,101,48,36,45,0.9,1.2
2023-05-16T01:00:00,2191A,122.2532,43.6801,通辽市,艺术职业学校,颗粒物(PM10),66,82,75,26,27,123,67,67,67,15,15,6,6,0.2,0.3
2023-05-16T01:00:00,2192A,119.7594,49.2261,呼伦贝尔市,区环保局,,30,25,57,17,17,99,93,93,93,3,3,5,4,0.2,0.2
2023-05-16T01:00:00,2195A,107.4212,40.761,巴彦淖尔市,附二中,颗粒物(PM10),55,59,52,13,12,143,57,57,57,38,19,3,4,0.5,0.5
2023-05-16T01:00:00,2196A,107.37,40.7372,巴彦淖尔市,市环保大楼,颗粒物(PM10),57,64,64,35,25,146,57,57,57,39,23,3,4,0.4,0.5
2023-05-16T01:00:00,2197A,113.1306,40.9923,乌兰察布市,集宁新区,颗粒物(PM10),75,100,56,29,20,150,116,116,116,13,18,13,23,0.4,0.5
2023-05-16T01:00:00,2200A,122.0392,46.0656,兴安盟,胜华新制药厂,,29,15,29,10,13,103,90,90,90,9,9,2,2,0.2,0.3
2023-05-16T01:00:00,2201A,121.9504,46.0741,兴安盟,科右前旗环保局,,26,11,32,17,11,103,82,82,82,8,6,2,3,0,0.2
2023-05-16T01:00:00,2202A,116.1042,43.9317,锡林郭勒盟,市环保监测站,,39,39,33,5,6,105,48,48,48,20,7,12,13,0.3,0.2
2023-05-16T01:00:00,2203A,116.0781,43.9311,锡林郭勒盟,市政府,,44,44,38,2,6,105,17,17,17,66,13,10,11,0.3,0.2
2023-05-16T01:00:00,2204A,105.6467,38.8363,阿拉善盟,西城区西花园,颗粒物(PM10),54,58,61,19,23,140,101,101,101,8,10,8,8,0.4,0.5
2023-05-16T01:00:00,2205A,105.6985,38.8411,阿拉善盟,蒙二幼,颗粒物(PM10),52,54,59,26,25,148,108,108,108,4,7,5,6,0.2,0.2
2023-05-16T01:00:00,2206A,105.724,38.8516,阿拉善盟,环保局新楼,,42,42,40,26,26,146,116,116,116,4,6,7,8,0.3,0.4
2023-05-16T01:00:00,2207A,121.6094,41.998,阜新市,工业园区,颗粒物(PM10),81,111,107,36,36,179,139,139,139,10,12,16,16,0.8,0.6
2023-05-16T01:00:00,2208A,121.6697,42.0279,阜新市,长青街,颗粒物(PM10),65,80,80,40,37,183,148,148,148,16,17,19,17,0.8,0.8
2023-05-16T01:00:00,2209A,121.6673,42.0705,阜新市,农业园区,颗粒物(PM10),72,93,64,51,46,183,162,162,162,15,18,17,18,0.8,0.8
2023-05-16T01:00:00,2210A,121.6717,42.0224,阜新市,东苑,颗粒物(PM10),71,92,75,49,40,177,149,149,149,17,18,27,19,0.9,1
2023-05-16T01:00:00,2211A,121.6506,42.0498,阜新市,玉龙新城,颗粒物(PM10),81,112,74,42,42,183,150,150,150,12,15,15,15,0.8,0.7
2023-05-16T01:00:00,2212A,123.2,41.1953,辽阳市,宏伟区,颗粒物(PM10),51,51,38,26,21,150,150,150,150,6,6,10,10,0.6,0.6
2023-05-16T01:00:00,2213A,123.1683,41.2495,辽阳市,新华园,颗粒物(PM10),53,55,47,33,31,149,149,149,149,5,7,10,10,0.5,0.6
2023-05-16T01:00:00,2214A,123.2354,41.2639,辽阳市,滨河路,细颗粒物(PM2.5),59,54,43,42,26,146,146,146,146,12,13,5,5,0.7,0.7
2023-05-16T01:00:00,2215A,123.149,41.2991,辽阳市,铁西工业园,颗粒物(PM10),55,59,49,31,28,154,154,154,154,7,12,6,6,0.5,0.5
2023-05-16T01:00:00,2216A,123.8139,42.3022,铁岭市,汇工街西,细颗粒物(PM2.5),55,56,69,39,35,198,138,138,138,17,16,10,14,0.5,0.6
2023-05-16T01:00:00,2217A,123.8649,42.2923,铁岭市,水上乐园,细颗粒物(PM2.5),55,56,55,39,32,191,128,128,128,22,19,8,10,0.6,0.7
2023-05-16T01:00:00,2218A,123.8486,42.2867,铁岭市,银州路东段,颗粒物(PM10),71,91,69,43,28,197,117,117,117,30,17,10,11,0.6,0.6
2023-05-16T01:00:00,2219A,123.7153,42.2217,铁岭市,金沙江路北,颗粒物(PM10),55,60,60,36,32,196,146,146,146,14,20,10,13,0.7,0.7
2023-05-16T01:00:00,2220A,120.4318,41.5881,朝阳市,西梁,细颗粒物(PM2.5),103,98,70,77,61,175,131,131,131,14,13,11,14,1.0,0.9
2023-05-16T01:00:00,2221A,120.4521,41.5646,朝阳市,河畔小区,细颗粒物(PM2.5),102,121,78,76,40,187,168,168,168,10,10,10,11,1.0,0.8
2023-05-16T01:00:00,2222A,120.4176,41.5648,朝阳市,八里堡,细颗粒物(PM2.5),122,113,76,92,52,190,131,131,131,19,18,8,9,1.0,0.9
2023-05-16T01:00:00,2223A,120.3806,41.5969,朝阳市,农业园区,细颗粒物(PM2.5),122,121,88,92,60,191,82,82,82,22,17,9,11,1.0,1
2023-05-16T01:00:00,2225A,124.4002,43.1713,四平市,一商场,细颗粒物(PM2.5),64,68,67,46,32,187,113,113,113,16,14,7,10,0.5,0.5
2023-05-16T01:00:00,2226A,124.388,43.193,四平市,境园,细颗粒物(PM2.5),63,57,56,45,34,178,107,107,107,18,12,8,10,0.4,0.5
2023-05-16T01:00:00,2227A,125.1358,42.8845,辽源市,环保局,,48,44,36,33,26,201,142,142,142,9,11,7,8,0.7,0.7
2023-05-16T01:00:00,2229A,125.9358,41.7173,通化市,光明,,45,42,36,23,20,168,142,142,142,8,6,14,9,0.6,0.4
2023-05-16T01:00:00,2230A,125.9446,41.7325,通化市,铁路,,43,27,37,24,21,158,135,135,135,10,12,7,8,0.3,0.3
2023-05-16T01:00:00,2231A,126.4219,41.9171,白山市,喜丰,颗粒物(PM10),55,60,60,29,27,162,136,136,136,11,14,10,12,1.7,1.7
2023-05-16T01:00:00,2232A,126.4077,41.9419,白山市,环保局,颗粒物(PM10),60,69,57,34,26,173,122,122,122,12,12,12,11,1.2,1.1
2023-05-16T01:00:00,2233A,124.8006,45.1214,松原市,江南,,45,45,42,7,13,131,78,78,78,7,11,6,5,0.3,0.3
2023-05-16T01:00:00,2234A,124.7965,45.1722,松原市,江北,,28,28,35,7,12,119,70,70,70,9,8,6,4,0.5,0.5
2023-05-16T01:00:00,2235A,122.7911,45.6077,白城市,洮北区环保局,,33,33,32,9,7,114,78,78,78,9,10,3,5,0.1,0.1
2023-05-16T01:00:00,2236A,122.8738,45.5725,白城市,市环保局,,37,37,39,7,11,116,86,86,86,9,11,3,3,0.2,0.2
2023-05-16T01:00:00,2237A,129.47,42.8883,延边朝鲜族自治州,妇幼医院,,22,10,25,12,15,87,68,68,68,9,13,8,8,0.6,0.6
2023-05-16T01:00:00,2238A,129.5055,42.9108,延边朝鲜族自治州,延边医院,,22,14,23,12,13,89,68,68,68,10,12,7,8,0.5,0.5
2023-05-16T01:00:00,2239A,129.3964,42.8881,延边朝鲜族自治州,朝阳川镇医院,,46,46,42,13,15,92,82,82,82,5,9,10,9,0.5,0.5
2023-05-16T01:00:00,2240A,130.9762,45.3001,鸡西市,环保局,,38,38,33,17,19,101,57,57,57,18,15,6,6,0.4,0.4
2023-05-16T01:00:00,2243A,130.9429,45.3039,鸡西市,第一中学,,29,26,32,20,20,106,72,72,72,6,10,7,5,0.3,0.4
2023-05-16T01:00:00,2244A,130.2537,47.3416,鹤岗市,哈啤分公司,,23,19,24,15,16,101,72,72,72,9,14,12,13,0.2,0.3
2023-05-16T01:00:00,2245A,130.2684,47.3086,鹤岗市,斯达机电,,33,33,31,19,18,114,96,96,96,10,12,9,9,0.1,0.2
2023-05-16T01:00:00,2246A,130.3114,47.3388,鹤岗市,东山纸板厂,,28,27,27,19,17,103,22,22,22,35,20,12,12,1.0,0.4
2023-05-16T01:00:00,2247A,130.1097,47.3382,鹤岗市,五号水库,,20,19,19,14,13,105,50,50,50,7,8,9,10,0.1,0.1
2023-05-16T01:00:00,2248A,131.1511,46.6937,双鸭山市,双合村,颗粒物(PM10),109,168,44,47,18,106,7,7,7,50,12,102,15,6.4,0.8
2023-05-16T01:00:00,2249A,131.1652,46.6191,双鸭山市,南小市,,16,9,27,10,19,104,51,51,51,5,9,4,5,0.2,0.3
2023-05-16T01:00:00,2250A,131.1524,46.6554,双鸭山市,环保局,,36,28,26,25,15,98,47,47,47,7,10,7,7,0.2,0.4
2023-05-16T01:00:00,2251A,131.12,46.5656,双鸭山市,苗圃,,25,22,20,17,12,121,58,58,58,5,6,3,4,0.3,0.3
2023-05-16T01:00:00,2252A,128.5159,47.4311,伊春市,环保局,,22,18,17,15,12,109,62,62,62,5,11,6,4,0.3,0.4
2023-05-16T01:00:00,2253A,128.9102,47.7412,伊春市,电力嘉园,,26,26,37,17,15,108,40,40,40,16,9,6,6,0.5,0.6
2023-05-16T01:00:00,2254A,129.5029,48.471,伊春市,汤旺河国家公园,,20,16,21,14,19,111,23,23,23,2,3,4,4,1.0,1.2
2023-05-16T01:00:00,2255A,130.2751,46.8028,佳木斯市,佳纺,,36,36,32,9,20,111,48,48,48,21,10,4,5,0.4,0.5
2023-05-16T01:00:00,2256A,130.3995,46.8307,佳木斯市,发电厂,,22,22,30,7,16,112,63,63,63,13,14,5,7,0.2,0.3
2023-05-16T01:00:00,2257A,130.3258,46.7975,佳木斯市,环保局,,20,19,26,6,17,111,63,63,63,16,11,4,5,0.3,0.4
2023-05-16T01:00:00,2258A,130.3648,46.8032,佳木斯市,十一中,,29,29,28,10,18,109,68,68,68,19,15,6,7,0.3,0.4
2023-05-16T01:00:00,2259A,130.3794,46.7588,佳木斯市,四丰,,35,16,22,8,16,177,109,109,109,5,6,1,1,0.2,0.4
2023-05-16T01:00:00,2262A,131.0518,45.8751,七台河市,新一中,,35,32,31,24,27,114,55,55,55,12,11,9,8,0.6,0.7
2023-05-16T01:00:00,2263A,127.4833,50.2524,黑河市,交通局,颗粒物(PM10),63,76,19,11,9,94,63,63,63,4,8,5,9,0.5,0.5
2023-05-16T01:00:00,2264A,127.5144,50.2341,黑河市,环保局,颗粒物(PM10),68,85,31,21,10,106,58,58,58,9,10,19,6,0.3,0.3
2023-05-16T01:00:00,2265A,127.5291,50.2472,黑河市,大黑河岛,颗粒物(PM10),55,60,20,16,8,120,75,75,75,2,3,15,15,0.2,0.3
2023-05-16T01:00:00,2266A,126.9785,46.6365,绥化市,人和东街,,40,40,29,12,15,110,62,62,62,18,11,7,9,0.4,0.4
2023-05-16T01:00:00,2267A,126.964,46.6528,绥化市,党政办公中心,,34,34,33,10,13,116,86,86,86,11,11,6,6,0.3,0.4
2023-05-16T01:00:00,2269A,124.1069,50.4097,大兴安岭地区,科技局,,25,8,22,9,9,104,79,79,79,2,2,6,6,0.3,0.2
2023-05-16T01:00:00,2270A,117.396,32.939,蚌埠市,工人疗养院,细颗粒物(PM2.5),60,58,67,43,30,207,120,120,120,18,18,10,11,0.5,0.5
2023-05-16T01:00:00,2271A,117.3605,32.9427,蚌埠市,百货大楼,颗粒物(PM10),64,78,71,39,31,211,116,116,116,14,14,18,8,0.8,0.5
2023-05-16T01:00:00,2273A,117.4185,32.8911,蚌埠市,蚌埠学院,颗粒物(PM10),54,58,64,34,32,197,110,110,110,15,16,8,12,0.5,0.6
2023-05-16T01:00:00,2274A,117.3533,32.9673,蚌埠市,淮上区政府,颗粒物(PM10),64,78,71,39,32,203,113,113,113,13,10,21,11,0.8,0.5
2023-05-16T01:00:00,2275A,117.3145,32.8977,蚌埠市,高新区,颗粒物(PM10),65,80,77,44,38,212,109,109,109,18,17,18,12,0.8,0.5
2023-05-16T01:00:00,2277A,116.8305,32.7727,淮南市,潘集区政府,细颗粒物(PM2.5),63,74,69,45,37,171,88,88,88,19,15,9,9,0.3,0.2
2023-05-16T01:00:00,2278A,117.0067,32.6524,淮南市,师范学院,颗粒物(PM10),61,72,67,37,35,195,111,111,111,12,12,9,7,0.6,0.6
2023-05-16T01:00:00,2279A,116.8569,32.5951,淮南市,谢家集区政府,颗粒物(PM10),63,76,59,36,25,172,96,96,96,21,16,7,5,0.3,0.2
2023-05-16T01:00:00,2280A,116.8281,32.633,淮南市,八公山区政府,颗粒物(PM10),69,88,68,38,30,166,90,90,90,23,15,3,5,0.3,0.2
2023-05-16T01:00:00,2281A,116.6325,32.6201,淮南市,焦岗湖风景区管理处,颗粒物(PM10),55,59,49,35,30,153,84,84,84,10,4,10,9,0.2,0.2
2023-05-16T01:00:00,2282A,116.8004,33.975,淮北市,监测站,颗粒物(PM10),63,76,73,42,42,176,116,116,116,15,11,8,6,0.5,0.6
2023-05-16T01:00:00,2283A,116.8091,33.9007,淮北市,烈山区政府,细颗粒物(PM2.5),57,61,69,40,39,174,107,107,107,20,15,8,9,0.6,0.6
2023-05-16T01:00:00,2284A,116.7856,33.9477,淮北市,职业技术学院,颗粒物(PM10),65,79,76,43,41,178,118,118,118,16,14,8,8,0.7,0.8
2023-05-16T01:00:00,2285A,117.8177,30.9412,铜陵市,市第四中学,颗粒物(PM10),61,72,59,36,28,158,74,74,74,27,18,17,23,0.6,0.8
2023-05-16T01:00:00,2286A,117.8059,30.9273,铜陵市,市公路局,细颗粒物(PM2.5),60,66,66,43,33,157,86,86,86,20,14,11,12,0.8,1
2023-05-16T01:00:00,2287A,117.7807,30.9413,铜陵市,市新民污水厂,颗粒物(PM10),77,104,79,46,36,159,13,13,13,99,40,32,31,0.6,0.7
2023-05-16T01:00:00,2288A,117.7439,30.8792,铜陵市,市第九中学,颗粒物(PM10),93,136,84,43,33,160,24,24,24,67,36,8,11,0.5,0.5
2023-05-16T01:00:00,2289A,117.846,30.9413,铜陵市,车站新区,颗粒物(PM10),55,60,56,35,23,162,82,82,82,26,19,13,13,0.6,0.6
2023-05-16T01:00:00,2290A,117.8483,30.97,铜陵市,市职教基地,颗粒物(PM10),56,62,55,39,26,149,69,69,69,25,23,15,10,0.9,0.7
2023-05-16T01:00:00,2291A,117.0809,30.5177,安庆市,环科院,细颗粒物(PM2.5),74,69,59,54,40,155,35,35,35,63,25,10,10,0.6,0.5
2023-05-16T01:00:00,2292A,117.0331,30.5119,安庆市,马山宾馆,细颗粒物(PM2.5),74,80,63,54,43,157,70,70,70,39,27,10,12,0.6,0.4
2023-05-16T01:00:00,2294A,116.9896,30.6145,安庆市,安庆大学,细颗粒物(PM2.5),60,17,62,43,39,165,99,99,99,19,16,16,14,0.6,0.4
2023-05-16T01:00:00,2295A,118.2903,29.6963,黄山市,延安路89号,,50,50,47,24,30,142,40,40,40,19,12,5,6,0.2,0.2
2023-05-16T01:00:00,2296A,118.327,29.7178,黄山市,黄山东路89号,细颗粒物(PM2.5),69,62,48,50,30,140,30,30,30,19,15,4,5,0.5,0.4
2023-05-16T01:00:00,2297A,118.1371,30.2756,黄山市,黄山区政府5号楼,,48,48,45,23,26,138,43,43,43,10,9,6,7,0.6,0.6
2023-05-16T01:00:00,2298A,118.3093,32.3153,滁州市,老年大学,颗粒物(PM10),54,57,61,36,34,188,104,104,104,23,16,17,13,0.4,0.4
2023-05-16T01:00:00,2299A,118.3244,32.2786,滁州市,人大宾馆,细颗粒物(PM2.5),70,71,67,51,44,186,60,60,60,45,25,12,12,0.7,0.6
2023-05-16T01:00:00,2301A,115.8277,32.8929,阜阳市,市监测站,颗粒物(PM10),52,53,56,31,28,160,145,145,145,14,16,8,9,0.5,0.5
2023-05-16T01:00:00,2303A,115.8554,32.8605,阜阳市,开发区,颗粒物(PM10),52,54,65,32,30,164,128,128,128,13,13,9,10,0.5,0.6
2023-05-16T01:00:00,2307A,116.5079,31.737,六安市,监测大楼,颗粒物(PM10),51,52,48,33,30,151,132,132,132,6,10,5,5,0.3,0.2
2023-05-16T01:00:00,2308A,116.4738,31.7643,六安市,皖西学院,颗粒物(PM10),52,54,53,26,20,163,132,132,132,8,14,6,6,0.3,0.3
2023-05-16T01:00:00,2309A,116.4996,31.7905,六安市,朝阳厂,,48,48,43,24,21,165,125,125,125,7,10,7,6,0.4,0.3
2023-05-16T01:00:00,2310A,116.5567,31.7886,六安市,开发区,细颗粒物(PM2.5),73,83,65,53,33,158,103,103,103,16,16,6,9,0.5,0.5
2023-05-16T01:00:00,2311A,115.8072,33.8399,亳州市,污水处理厂,颗粒物(PM10),56,61,64,32,34,173,164,164,164,3,6,6,12,0.6,0.6
2023-05-16T01:00:00,2312A,115.7789,33.8518,亳州市,三国揽胜宫,颗粒物(PM10),57,63,67,34,35,164,154,154,154,8,8,9,12,0.6,0.6
2023-05-16T01:00:00,2314A,117.47,30.6618,池州市,池州学院,,50,50,59,31,35,162,88,88,88,17,13,6,8,0.7,0.6
2023-05-16T01:00:00,2316A,118.7581,30.9454,宣城市,鳌峰子站,颗粒物(PM10),56,61,44,26,26,109,50,50,50,36,21,7,6,0.5,0.4
2023-05-16T01:00:00,2317A,118.7385,30.9743,宣城市,敬亭山子站,细颗粒物(PM2.5),54,42,42,38,27,121,72,72,72,25,18,6,6,0.5,0.4
2023-05-16T01:00:00,2318A,118.7173,30.9427,宣城市,开发区子站,,48,47,45,33,28,112,15,15,15,63,29,5,7,0.5,0.5
2023-05-16T01:00:00,2319A,119.0141,25.4325,莆田市,荔城区仓后路,颗粒物(PM10),53,55,73,31,47,195,71,71,71,18,22,6,7,0.8,1.1
2023-05-16T01:00:00,2320A,119.0015,25.4553,莆田市,莆田市监测站,,50,50,67,29,44,212,63,63,63,12,16,6,7,0.7,0.8
2023-05-16T01:00:00,2321A,119.1119,25.4561,莆田市,涵江区六中,颗粒物(PM10),62,73,77,32,54,190,29,29,29,47,26,8,9,0.8,0.9
2023-05-16T01:00:00,2322A,119.1013,25.3215,莆田市,秀屿区政府,细颗粒物(PM2.5),77,52,58,56,47,165,68,68,68,26,20,7,9,0.9,0.9
2023-05-16T01:00:00,2323A,118.981,25.4792,莆田市,东圳水库,,,,,,,,,,,,,,,,
2023-05-16T01:00:00,2324A,117.6211,26.2625,三明市,三钢,,50,50,50,33,33,131,33,33,33,30,24,10,13,1.6,1.3
2023-05-16T01:00:00,2325A,117.635,26.2714,三明市,三明二中,,42,34,46,29,32,139,40,40,40,24,26,5,10,0.8,1.4
2023-05-16T01:00:00,2326A,117.6028,26.2378,三明市,三元区政府,细颗粒物(PM2.5),60,60,51,43,38,130,36,36,36,27,25,8,10,0.8,0.9
2023-05-16T01:00:00,2327A,117.7275,26.3108,三明市,洋溪,,,,,,,,,,,,,,,,
2023-05-16T01:00:00,2331A,118.0966,26.6761,南平市,茫荡山,,,,,,,,,,,,,,,,
2023-05-16T01:00:00,2332A,118.1681,26.6369,南平市,南平市监测站,,45,44,43,31,31,133,38,38,38,22,18,6,4,0.6,0.7
2023-05-16T01:00:00,2333A,118.1825,26.6489,南平市,南平铝业有限公司,细颗粒物(PM2.5),53,47,43,37,30,134,24,24,24,37,19,14,8,1.0,0.8
2023-05-16T01:00:00,2334A,118.1756,26.6272,南平市,南平七中,,45,40,46,31,30,141,45,45,45,19,15,6,4,0.8,0.7
2023-05-16T01:00:00,2335A,117.0189,25.1181,龙岩市,龙岩师专,,,,,,,,,,,,,,,,
2023-05-16T01:00:00,2336A,117.0217,25.1033,龙岩市,龙岩市监测站,细颗粒物(PM2.5),55,53,47,39,31,158,101,101,101,20,19,18,11,0.5,0.5
2023-05-16T01:00:00,2337A,117.0258,25.0661,龙岩市,闽西职业技术学院,细颗粒物(PM2.5),57,49,54,40,34,151,97,97,97,17,19,22,19,0.5,0.5
2023-05-16T01:00:00,2338A,117.0196,25.0306,龙岩市,龙岩学院,,45,44,45,31,27,146,90,90,90,13,12,4,6,0.4,0.5
2023-05-16T01:00:00,2339A,119.5001,26.6946,宁德市,金涵水库,,,,,,,,,,,,,,,,
2023-05-16T01:00:00,2341A,119.5388,26.6612,宁德市,宁德市监测站,细颗粒物(PM2.5),68,57,52,49,40,169,81,81,81,11,14,8,8,0.8,0.7
2023-05-16T01:00:00,2342A,117.3102,29.3867,景德镇市,王港中学,,45,45,51,29,32,135,35,35,35,5,5,14,14,0.1,0.2
2023-05-16T01:00:00,2343A,117.2117,29.2933,景德镇市,老干部活动中心,细颗粒物(PM2.5),65,71,70,47,39,141,31,31,31,36,19,8,9,0.5,0.5
2023-05-16T01:00:00,2344A,117.1894,29.2789,景德镇市,兽医站,颗粒物(PM10),53,55,55,35,38,155,41,41,41,28,16,8,12,0.5,0.5
2023-05-16T01:00:00,2345A,117.1547,29.2617,景德镇市,台达陶瓷,颗粒物(PM10),63,76,68,38,40,128,15,15,15,56,36,9,36,0.6,0.6
2023-05-16T01:00:00,2346A,117.2461,29.2956,景德镇市,陶研所,颗粒物(PM10),68,86,63,42,35,141,26,26,26,34,20,7,7,0.5,0.5
2023-05-16T01:00:00,2347A,114.0997,27.5002,萍乡市,武功山,,,,,,,,,,,,,,,,
2023-05-16T01:00:00,2348A,113.8385,27.6434,萍乡市,中医院,细颗粒物(PM2.5),67,72,58,48,38,129,9,9,9,47,24,8,11,1.0,1
2023-05-16T01:00:00,2349A,113.8493,27.6253,萍乡市,市政府车库,细颗粒物(PM2.5),65,57,61,47,39,126,37,37,37,21,17,16,16,0.7,0.9
2023-05-16T01:00:00,2350A,113.8676,27.6435,萍乡市,市环保局,"颗粒物(PM10),细颗粒物(PM2.5)",78,105,68,57,39,138,24,24,24,40,24,16,17,0.9,0.8
2023-05-16T01:00:00,2351A,113.866,27.6198,萍乡市,安源区政府,细颗粒物(PM2.5),55,49,54,39,37,121,33,33,33,26,21,16,17,0.6,0.8
2023-05-16T01:00:00,2352A,115.0861,27.9317,新余市,北岗,,49,41,43,34,35,113,30,30,30,35,18,6,9,0.6,0.6
2023-05-16T01:00:00,2353A,114.9886,27.8431,新余市,飞宇,颗粒物(PM10),57,64,65,30,36,128,42,42,42,35,20,6,7,0.6,0.6
2023-05-16T01:00:00,2354A,114.9231,27.8246,新余市,第二水厂,颗粒物(PM10),70,89,71,34,37,116,34,34,34,34,20,22,17,1.0,0.8
2023-05-16T01:00:00,2355A,114.9308,27.8036,新余市,市气象局,颗粒物(PM10),57,64,62,29,39,131,57,57,57,22,14,10,12,1.4,0.9
2023-05-16T01:00:00,2357A,116.9822,28.1136,鹰潭市,龙虎山,,22,22,34,10,16,111,70,70,70,2,2,2,4,0.2,0.6
2023-05-16T01:00:00,2358A,117.0564,28.2642,鹰潭市,新监测站,,33,32,47,23,23,147,71,71,71,6,10,9,10,0.3,0.4
2023-05-16T01:00:00,2359A,117.0311,28.2475,鹰潭市,财苑宾馆,,30,26,48,21,24,149,47,47,47,31,18,5,7,0.2,0.3
2023-05-16T01:00:00,2360A,117.0222,28.2264,鹰潭市,体育馆,,33,33,46,17,21,140,55,55,55,13,14,1,6,0.3,0.4
2023-05-16T01:00:00,2361A,117.0017,28.2131,鹰潭市,三川水表,,27,27,46,15,19,138,70,70,70,2,7,1,2,0.3,0.3
2023-05-16T01:00:00,2362A,114.9017,25.9149,赣州市,通天岩,细颗粒物(PM2.5),54,13,54,38,36,166,54,54,54,12,17,6,11,0.8,0.8
2023-05-16T01:00:00,2363A,114.9367,25.8664,赣州市,地委,颗粒物(PM10),64,77,68,40,38,158,20,20,20,36,22,11,11,1.3,1.3
2023-05-16T01:00:00,2364A,114.9461,25.8481,赣州市,气象台,颗粒物(PM10),60,70,59,42,34,156,26,26,26,49,25,18,8,0.9,0.9
2023-05-16T01:00:00,2365A,114.9322,25.8333,赣州市,市图书馆,颗粒物(PM10),66,81,66,40,34,152,4,4,4,57,30,6,7,1.4,1.3
2023-05-16T01:00:00,2366A,114.8905,25.8471,赣州市,华坚鞋城,颗粒物(PM10),75,99,82,41,39,150,13,13,13,45,33,12,15,1.0,0.9
2023-05-16T01:00:00,2367A,114.9754,27.0803,吉安市,红声器材厂,颗粒物(PM10),58,66,62,39,36,133,72,72,72,8,11,21,16,0.5,0.5
2023-05-16T01:00:00,2368A,114.9658,27.0999,吉安市,市森林工业局,颗粒物(PM10),68,85,62,40,38,132,74,74,74,6,16,17,14,0.5,0.7
2023-05-16T01:00:00,2369A,114.99,27.1312,吉安市,市环境监测站,颗粒物(PM10),56,62,56,37,33,140,83,83,83,12,15,17,16,0.4,0.5
2023-05-16T01:00:00,2370A,115.0093,27.0968,吉安市,青原区法院,颗粒物(PM10),53,55,56,35,34,134,88,88,88,10,17,21,17,0.6,0.6
2023-05-16T01:00:00,2371A,114.3408,27.8064,宜春市,槟榔水业,颗粒物(PM10),53,56,59,30,36,127,29,29,29,24,16,16,14,0.7,0.8
2023-05-16T01:00:00,2373A,114.3956,27.7844,宜春市,市石油公司,颗粒物(PM10),52,53,61,33,36,142,65,65,65,16,16,5,5,0.6,0.7
2023-05-16T01:00:00,2374A,114.3703,27.7914,宜春市,市气象局,颗粒物(PM10),57,64,61,34,42,138,74,74,74,19,18,6,6,0.7,0.7
2023-05-16T01:00:00,2375A,114.4013,27.8074,宜春市,市广电局,颗粒物(PM10),57,64,62,31,36,133,83,83,83,13,16,12,11,0.5,0.6
2023-05-16T01:00:00,2376A,116.2127,28.0814,抚州市,桐源党溪,,38,36,40,26,24,161,44,44,44,29,7,1,1,0.6,0.6
2023-05-16T01:00:00,2377A,116.3544,27.9831,抚州市,市站,颗粒物(PM10),56,61,53,31,28,132,62,62,62,19,16,4,3,0.6,0.5
2023-05-16T01:00:00,2378A,116.3565,27.963,抚州市,血防站,颗粒物(PM10),57,63,54,29,28,131,57,57,57,20,15,7,6,0.7,0.6
2023-05-16T01:00:00,2379A,116.3564,28.0007,抚州市,采茶剧团,颗粒物(PM10),53,56,52,32,27,136,57,57,57,20,15,8,7,0.7,0.6
2023-05-16T01:00:00,2380A,116.385,27.9647,抚州市,医学分院,颗粒物(PM10),54,57,53,28,24,127,54,54,54,22,17,11,13,0.8,0.7
2023-05-16T01:00:00,2381A,118.005,28.4572,上饶市,百草园,颗粒物(PM10),55,60,51,38,30,172,65,65,65,10,8,21,13,0.2,0.2
2023-05-16T01:00:00,2382A,117.9756,28.4436,上饶市,市监测站,颗粒物(PM10),61,71,64,39,35,179,46,46,46,20,17,29,16,0.7,0.6
2023-05-16T01:00:00,2383A,117.9519,28.4628,上饶市,凤凰光学,颗粒物(PM10),67,84,70,44,36,173,54,54,54,28,24,35,19,0.8,0.7
2023-05-16T01:00:00,2385A,114.17,35.9019,鹤壁市,市监测站,细颗粒物(PM2.5),69,79,114,50,48,231,106,106,106,22,34,2,9,0.5,0.6
