timepoint,stationcode,longitude,latitude,area,positionname,primarypollutant,aqi,pm10,pm10_24h,pm2_5,pm2_5_24h,o3,o3_24h,o3_8h,o3_8h_24h,no2,no2_24h,so2,so2_24h,co,co_24h
2023-02-08T12:00:00,1001A,116.3621,39.8784,北京市,万寿西宫,,22,13,46,7,29,71,69,54,54,9,37,3,4,0.2,0.6
2023-02-08T12:00:00,1002A,116.2202,40.2915,北京市,定陵,,,,,,,,,,,,,,,,
2023-02-08T12:00:00,1003A,116.4174,39.9289,北京市,东四,,21,14,48,8,29,66,66,57,57,12,33,3,5,0.2,0.6
2023-02-08T12:00:00,1004A,116.4072,39.8863,北京市,天坛,,21,12,42,8,31,71,67,56,56,13,32,1,3,0.2,0.6
2023-02-08T12:00:00,1005A,116.462,39.9365,北京市,农展馆,,22,12,47,6,28,73,70,54,54,12,39,3,4,0.1,0.5
2023-02-08T12:00:00,1006A,116.3392,39.9295,北京市,官园,,25,13,47,8,30,88,80,66,66,8,34,1,5,0.2,0.6
2023-02-08T12:00:00,1007A,116.2878,39.9611,北京市,海淀万柳,,17,15,52,8,32,67,52,40,40,15,49,1,3,0.2,0.6
2023-02-08T12:00:00,1008A,116.6636,40.135,北京市,顺义新城,,26,11,45,6,28,85,81,70,70,5,25,3,4,0.1,0.5
2023-02-08T12:00:00,1009A,116.6275,40.3275,北京市,怀柔镇,,22,18,55,6,29,72,68,45,45,5,24,3,4,0.1,0.6
2023-02-08T12:00:00,1010A,116.2296,40.217,北京市,昌平镇,,23,12,41,7,27,72,72,66,59,2,25,3,4,0.2,0.5
2023-02-08T12:00:00,1011A,116.3966,39.9821,北京市,奥体中心,,22,13,48,8,32,74,68,53,53,8,40,3,4,0.2,0.7
2023-02-08T12:00:00,1012A,116.184,39.9136,北京市,古城,,22,20,51,9,30,88,68,46,46,11,38,1,3,0.5,0.8
2023-02-08T12:00:00,1015A,117.1444,39.1661,天津市,勤俭道,,,57,79,40,52,75,59,11,11,29,54,11,7,,1.1
2023-02-08T12:00:00,1017A,117.237,39.1082,天津市,大直沽八号路,颗粒物(PM10),52,54,72,35,47,73,64,22,22,30,51,14,8,1.2,0.9
2023-02-08T12:00:00,1018A,117.202,39.0927,天津市,前进道,,,,66,,43,76,68,24,24,,49,,5,0.9,0.7
2023-02-08T12:00:00,1019A,117.1837,39.2133,天津市,淮河道,细颗粒物(PM2.5),79,95,100,58,56,76,46,15,15,46,58,13,9,1.0,1.1
2023-02-08T12:00:00,1021A,117.307,39.0877,天津市,跃进路,细颗粒物(PM2.5),54,56,75,38,51,73,65,17,17,27,54,17,10,1.3,0.8
2023-02-08T12:00:00,1023A,117.707,39.0343,天津市,第四大街,细颗粒物(PM2.5),90,93,82,67,55,54,50,12,12,51,69,36,11,2.9,1.2
2023-02-08T12:00:00,1024A,117.457,38.8394,天津市,永明路,细颗粒物(PM2.5),70,75,71,51,52,76,47,16,16,45,56,24,10,1.8,1.1
2023-02-08T12:00:00,1026A,117.764,39.1587,天津市,汉北路,细颗粒物(PM2.5),78,70,68,57,53,75,39,11,11,47,51,23,9,1.5,0.8
2023-02-08T12:00:00,1027A,117.157,38.9194,天津市,团泊洼,细颗粒物(PM2.5),69,72,76,50,53,64,47,11,11,44,59,22,8,2.8,0.9
2023-02-08T12:00:00,1029A,114.4422,38.0444,石家庄市,职工医院,细颗粒物(PM2.5),88,91,142,65,92,99,69,20,20,28,58,7,10,1.1,1.2
2023-02-08T12:00:00,1030A,114.6063,38.0266,石家庄市,高新区,细颗粒物(PM2.5),72,90,135,52,82,101,64,32,32,29,43,5,7,0.9,1
2023-02-08T12:00:00,1031A,114.4898,38.1328,石家庄市,西北水源,细颗粒物(PM2.5),69,53,148,50,92,95,67,21,21,19,53,7,9,0.6,1
2023-02-08T12:00:00,1032A,114.4586,38.0058,石家庄市,西南高教,颗粒物(PM10),105,160,143,60,97,92,64,20,19,,47,7,10,,1
2023-02-08T12:00:00,1033A,114.5331,38.0178,石家庄市,世纪公园,颗粒物(PM10),78,106,122,49,86,92,58,33,33,24,34,5,7,1.0,1
2023-02-08T12:00:00,1034A,114.509,38.0457,石家庄市,人民会堂,细颗粒物(PM2.5),119,83,125,90,91,98,66,32,32,26,41,4,7,0.9,1
2023-02-08T12:00:00,1035A,114.3524,37.8911,石家庄市,封龙山,细颗粒物(PM2.5),90,84,138,67,88,91,76,81,70,32,31,5,9,0.9,1
2023-02-08T12:00:00,1037A,118.131,39.6363,唐山市,雷达站,,26,17,80,9,48,90,81,38,38,11,44,4,13,0.4,1.1
2023-02-08T12:00:00,1038A,118.1725,39.6334,唐山市,物资局,,24,21,79,13,47,86,75,36,36,20,53,8,16,0.5,1.1
2023-02-08T12:00:00,1040A,118.1705,39.6506,唐山市,十二中,,21,19,78,4,55,76,65,26,26,20,54,4,14,0.5,1.1
2023-02-08T12:00:00,1041A,118.1869,39.622,唐山市,小山,,27,27,81,10,46,85,66,29,29,23,52,8,16,0.4,1
2023-02-08T12:00:00,1042A,119.5134,39.8207,秦皇岛市,北戴河环保局,颗粒物(PM10),51,52,55,30,41,84,62,42,31,32,46,13,11,0.6,0.6
2023-02-08T12:00:00,1043A,119.7493,40.0116,秦皇岛市,第一关,,49,49,64,32,40,79,70,26,26,18,46,6,9,0.4,0.6
2023-02-08T12:00:00,1044A,119.5897,39.9499,秦皇岛市,监测站,颗粒物(PM10),54,57,74,28,53,75,61,19,19,32,47,9,10,0.5,0.7
2023-02-08T12:00:00,1046A,119.5251,39.9041,秦皇岛市,建设大厦,,45,45,68,23,39,81,72,22,22,18,44,8,10,0.5,0.7
2023-02-08T12:00:00,1047A,114.5129,36.61763,邯郸市,环保局,,,,,,,,,,,,,,,,
2023-02-08T12:00:00,1048A,114.5302,36.6116,邯郸市,东污水处理厂,细颗粒物(PM2.5),99,113,165,74,117,91,46,29,29,45,59,13,13,1.0,1.1
2023-02-08T12:00:00,1049A,114.4918,36.5713,邯郸市,矿院,细颗粒物(PM2.5),107,100,164,80,131,90,45,30,30,34,45,12,12,1.0,1.2
2023-02-08T12:00:00,1050A,114.484,36.6133,邯郸市,丛台公园,细颗粒物(PM2.5),109,106,159,82,123,87,44,31,31,32,42,15,15,1.0,1.2
2023-02-08T12:00:00,1051A,115.493,38.8632,保定市,游泳馆,细颗粒物(PM2.5),53,51,92,37,57,82,56,45,45,36,43,10,12,0.7,0.7
2023-02-08T12:00:00,1052A,115.5213,38.8959,保定市,华电二区,细颗粒物(PM2.5),65,77,90,47,68,90,50,33,33,60,66,8,11,1.0,1.2
2023-02-08T12:00:00,1053A,115.4713,38.9108,保定市,接待中心,细颗粒物(PM2.5),52,45,91,36,63,76,52,34,34,29,46,7,9,0.8,1
2023-02-08T12:00:00,1054A,115.4612,38.8416,保定市,地表水厂,颗粒物(PM10),63,75,99,44,52,76,53,40,40,38,53,9,10,0.7,0.8
2023-02-08T12:00:00,1055A,115.4323,38.8697,保定市,胶片厂,,,,,,,,,,,,,,,,
2023-02-08T12:00:00,1056A,115.5086,38.8639,保定市,监测站,,,,92,,63,85,,43,43,41,44,10,11,,0.9
2023-02-08T12:00:00,1057A,114.8883,40.8336,张家口市,人民公园,,26,2,30,3,15,89,82,68,60,2,9,4,5,0.4,0.6
2023-02-08T12:00:00,1059A,114.8687,40.8042,张家口市,五金库,,24,10,25,10,20,79,74,65,60,7,12,9,9,0.3,0.4
2023-02-08T12:00:00,1060A,114.8902,40.762,张家口市,世纪豪园,,24,8,37,8,23,86,75,67,62,4,12,3,18,0.4,0.5
2023-02-08T12:00:00,1061A,114.8916,40.8661,张家口市,北泵房,,26,1,27,6,21,92,83,67,62,4,9,7,9,0.2,0.3
2023-02-08T12:00:00,1062A,117.9531,40.9081,承德市,铁路,,,16,54,14,33,81,64,66,44,,30,12,21,0.3,0.7
2023-02-08T12:00:00,1063A,117.9392,40.9763,承德市,中国银行,,21,5,44,8,28,84,66,39,35,14,31,9,16,0.3,0.6
2023-02-08T12:00:00,1064A,117.9503,40.928,承德市,开发区,,41,41,57,20,41,87,71,37,26,17,44,8,21,0.4,0.8
2023-02-08T12:00:00,1065A,117.8051,40.9655,承德市,文化中心,,24,17,59,2,27,91,75,76,40,10,30,10,30,0.3,0.7
2023-02-08T12:00:00,1066A,117.9268,41.0026,承德市,离宫,,20,14,28,9,24,90,63,70,57,12,11,10,16,0.3,0.4
2023-02-08T12:00:00,1067A,116.6708,39.5111,廊坊市,药材公司,,23,21,76,8,46,72,72,36,36,19,52,3,7,0.5,0.8
2023-02-08T12:00:00,1068A,116.7214,39.5589,廊坊市,开发区,,24,21,79,8,54,74,74,28,28,17,62,6,10,0.4,0.9
2023-02-08T12:00:00,1070A,116.7244,39.5269,廊坊市,北华航天学院,,27,27,84,11,49,77,77,26,26,11,58,8,13,0.2,0.7
2023-02-08T12:00:00,1071A,116.8842,38.2991,沧州市,沧县城建局,细颗粒物(PM2.5),65,73,97,47,68,88,66,26,26,32,49,17,15,0.8,0.9
2023-02-08T12:00:00,1072A,116.8584,38.3254,沧州市,电视转播站,,,84,91,51,61,90,67,20,20,29,48,,11,0.8,0.8
2023-02-08T12:00:00,1073A,116.8709,38.3228,沧州市,市环保局,颗粒物(PM10),63,76,94,35,57,88,66,26,24,33,50,14,10,0.8,0.9
2023-02-08T12:00:00,1074A,115.6838,37.7541,衡水市,电机北厂,,,,122,,86,82,52,17,17,29,51,,9,1.1,0.8
2023-02-08T12:00:00,1075A,115.6303,37.7316,衡水市,市监测站,细颗粒物(PM2.5),90,102,134,67,83,75,59,18,18,29,49,20,16,1.0,0.8
2023-02-08T12:00:00,1077A,114.4704,37.0886,邢台市,达活泉,细颗粒物(PM2.5),108,97,126,81,120,103,60,45,45,34,37,9,10,0.8,0.9
2023-02-08T12:00:00,1078A,114.5062,37.0349,邢台市,邢师高专,细颗粒物(PM2.5),97,82,123,72,109,107,61,45,44,29,39,10,10,0.9,1
2023-02-08T12:00:00,1079A,114.5237,37.0851,邢台市,路桥公司,,,,129,,105,107,58,38,38,,36,13,13,0.9,1
2023-02-08T12:00:00,1080A,114.4725,37.0719,邢台市,市环保局,细颗粒物(PM2.5),110,86,139,83,120,107,64,48,47,32,36,11,10,0.7,0.8
2023-02-08T12:00:00,1081A,112.522,37.8873,太原市,尖草坪,细颗粒物(PM2.5),105,129,142,79,87,117,,51,51,31,64,18,21,,1.2
2023-02-08T12:00:00,1082A,112.573,37.9103,太原市,涧河,,,,,,,,,,,,,,,,
2023-02-08T12:00:00,1083A,112.434,38.0108,太原市,上兰,,,,,,,,,,,,,,,,
2023-02-08T12:00:00,1084A,112.469,37.7124,太原市,晋源,细颗粒物(PM2.5),122,143,152,92,103,124,82,50,50,36,72,15,28,1.0,1.4
2023-02-08T12:00:00,1085A,112.5583,37.7394,太原市,小店,细颗粒物(PM2.5),105,136,182,79,115,122,82,63,63,32,78,10,24,0.9,1.4
2023-02-08T12:00:00,1086A,112.5369,37.8692,太原市,桃园,细颗粒物(PM2.5),114,132,155,86,100,116,93,47,47,26,78,8,24,0.7,1.4
2023-02-08T12:00:00,1087A,112.57,37.8195,太原市,坞城,细颗粒物(PM2.5),117,132,145,88,99,120,88,57,57,35,76,10,24,0.9,1.4
2023-02-08T12:00:00,1088A,112.549,37.9854,太原市,南寨,细颗粒物(PM2.5),87,116,146,64,89,114,94,66,66,21,63,6,16,0.8,1.3
2023-02-08T12:00:00,1089A,112.4783,37.7778,太原市,金胜,,,,,,,,,,,,,,,,
2023-02-08T12:00:00,1090A,111.6507,40.7517,呼和浩特市,呼市一监,,29,29,32,11,14,75,70,51,51,12,18,7,10,0.4,0.4
2023-02-08T12:00:00,1091A,111.6572,40.8033,呼和浩特市,小召,,31,31,31,12,14,77,62,47,46,24,26,12,17,0.5,0.5
2023-02-08T12:00:00,1094A,111.7516,40.8369,呼和浩特市,如意水处理厂,,25,25,28,9,10,82,75,44,39,13,24,10,13,0.4,0.4
2023-02-08T12:00:00,1095A,111.7276,40.8062,呼和浩特市,二十九中,,25,25,30,9,14,84,73,46,46,11,20,7,10,0.4,0.5
2023-02-08T12:00:00,1096A,111.5512,40.7866,呼和浩特市,工大金川校区,,27,27,44,9,16,74,64,63,29,21,26,14,15,0.5,0.5
2023-02-08T12:00:00,1097A,111.717,40.7612,呼和浩特市,化肥厂生活区,,,,27,,11,90,82,61,61,8,15,,11,,0.3
2023-02-08T12:00:00,1098A,123.6836,41.9339,沈阳市,森林路,,,,,,,,,,,,,,,,
2023-02-08T12:00:00,1099A,123.505,41.7406,沈阳市,浑南东路,,40,40,70,18,47,49,38,14,14,35,44,20,16,0.5,0.9
2023-02-08T12:00:00,1100A,123.4231,41.6989,沈阳市,新秀街,,44,44,80,26,50,48,48,16,16,31,46,14,15,0.7,1
2023-02-08T12:00:00,1102A,123.5903,41.8411,沈阳市,东陵路,颗粒物(PM10),54,57,57,33,38,66,42,15,15,41,42,16,12,0.8,0.8
2023-02-08T12:00:00,1103A,123.4264,41.8467,沈阳市,陵东街,,32,32,48,20,27,69,64,29,29,18,36,10,12,0.4,0.5
2023-02-08T12:00:00,1104A,123.4114,41.7653,沈阳市,文化路,,38,36,65,26,44,54,52,19,19,31,48,18,17,0.7,0.9
2023-02-08T12:00:00,1105A,123.4678,41.7867,沈阳市,小河沿,,32,32,53,19,32,58,51,20,20,30,44,14,17,0.6,0.8
2023-02-08T12:00:00,1106A,123.4017,41.7972,沈阳市,太原街,,,52,62,40,36,53,49,25,25,,43,11,15,,0.8
2023-02-08T12:00:00,1108A,123.3783,41.9228,沈阳市,京沈街,,42,42,61,28,46,70,66,30,30,14,39,8,12,0.6,0.9
2023-02-08T12:00:00,1109A,121.612,38.9741,大连市,甘井子,颗粒物(PM10),51,52,80,35,48,78,72,57,42,16,34,13,14,0.5,0.8
2023-02-08T12:00:00,1110A,121.565,38.9511,大连市,周水子,颗粒物(PM10),53,56,106,33,57,67,66,51,33,23,48,15,19,0.9,1
2023-02-08T12:00:00,1111A,121.5637,38.8845,大连市,星海三站,,,38,50,30,40,71,54,52,27,33,37,,25,0.9,1
2023-02-08T12:00:00,1112A,121.6302,38.9117,大连市,青泥洼桥,颗粒物(PM10),56,62,67,29,46,79,66,53,43,20,41,15,20,0.7,0.9
2023-02-08T12:00:00,1113A,121.6251,38.8638,大连市,傅家庄,,49,49,61,26,30,88,66,56,46,24,30,15,20,0.8,0.8
2023-02-08T12:00:00,1114A,121.5213,38.8661,大连市,七贤岭,,35,34,47,24,37,91,81,71,52,11,22,10,12,0.7,0.8
2023-02-08T12:00:00,1115A,121.2529,38.8061,大连市,旅顺,,35,32,46,24,39,88,80,67,48,9,22,10,14,0.7,1
2023-02-08T12:00:00,1116A,121.7485,39.1311,大连市,金州,,40,33,71,28,54,71,71,55,46,16,38,12,16,0.7,1.2
2023-02-08T12:00:00,1117A,121.7811,39.0496,大连市,开发区,,42,40,48,29,35,72,62,72,46,21,37,16,16,0.8,1
2023-02-08T12:00:00,1118A,121.9762,39.0631,大连市,双D港,,46,38,38,32,32,92,75,66,59,17,24,18,19,0.8,0.8
2023-02-08T12:00:00,1119A,125.3325,43.9166,长春市,食品厂,,,,56,,36,67,67,36,36,,36,7,10,,0.6
2023-02-08T12:00:00,1120A,125.2863,43.9027,长春市,客车厂,,36,22,52,25,39,64,64,40,40,14,35,6,17,0.3,0.5
2023-02-08T12:00:00,1121A,125.2841,43.8463,长春市,邮电学院,,37,37,57,15,38,69,68,44,44,12,37,11,18,0.4,0.6
2023-02-08T12:00:00,1122A,125.3716,43.8772,长春市,劳动公园,,31,31,51,16,32,67,66,45,45,14,40,10,18,0.3,0.5
2023-02-08T12:00:00,1123A,125.3297,43.8805,长春市,园林处,,33,33,48,17,33,62,62,39,39,14,36,9,19,0.1,0.3
2023-02-08T12:00:00,1124A,125.4605,43.79,长春市,净月潭,,34,34,48,15,26,66,64,34,32,11,22,6,6,0.4,0.6
2023-02-08T12:00:00,1125A,125.7194,43.515,长春市,甩湾子,,,,,,,,,,,,,,,,
2023-02-08T12:00:00,1126A,125.3863,43.8447,长春市,经开区环卫处,,34,34,56,19,34,62,61,35,35,18,42,12,18,0.4,0.7
2023-02-08T12:00:00,1127A,125.245,43.7783,长春市,高新区管委会,,29,29,58,15,45,73,70,44,44,9,32,7,8,0.4,0.6
2023-02-08T12:00:00,1128A,125.1761,43.8325,长春市,岱山公园,,,27,55,11,38,75,72,42,42,,33,6,6,0.4,0.6
2023-02-08T12:00:00,1129A,126.5422,45.755,哈尔滨市,岭北,细颗粒物(PM2.5),104,82,73,78,60,85,66,33,33,17,43,29,25,,0.9
2023-02-08T12:00:00,1130A,126.561,45.8167,哈尔滨市,松北商大,细颗粒物(PM2.5),83,103,81,61,57,86,59,28,28,32,48,33,13,0.9,0.9
2023-02-08T12:00:00,1131A,126.979,45.5419,哈尔滨市,阿城会宁,细颗粒物(PM2.5),104,111,80,78,61,76,54,44,44,28,28,20,16,0.8,0.7
2023-02-08T12:00:00,1132A,126.599,45.7222,哈尔滨市,南岗学府路,颗粒物(PM10),86,121,93,52,50,80,62,30,30,28,47,42,37,0.6,0.8
2023-02-08T12:00:00,1133A,126.689,45.7733,哈尔滨市,太平宏伟公园,细颗粒物(PM2.5),92,112,87,68,57,88,62,31,31,26,40,12,10,0.8,0.7
2023-02-08T12:00:00,1134A,126.635,45.7667,哈尔滨市,道外承德广场,细颗粒物(PM2.5),88,107,75,65,52,77,56,26,26,28,50,11,14,0.9,0.9
2023-02-08T12:00:00,1135A,126.685,45.7319,哈尔滨市,香坊红旗大街,细颗粒物(PM2.5),109,100,82,82,66,72,62,27,27,41,49,27,20,,1.1
2023-02-08T12:00:00,1136A,126.6411,45.7258,哈尔滨市,动力和平路,细颗粒物(PM2.5),85,85,76,63,57,73,54,23,23,26,47,17,22,0.8,0.8
2023-02-08T12:00:00,1137A,126.593,45.7478,哈尔滨市,道里建国路,细颗粒物(PM2.5),95,100,76,71,59,71,52,22,22,27,49,29,27,0.8,1.2
2023-02-08T12:00:00,1138A,126.615,45.61,哈尔滨市,平房东轻厂,细颗粒物(PM2.5),77,86,76,56,58,89,69,54,42,21,40,14,16,1.0,1.1
2023-02-08T12:00:00,1139A,126.595,45.9855,哈尔滨市,呼兰师专,,,,81,,67,70,50,20,20,23,41,,16,0.9,0.9
2023-02-08T12:00:00,1140A,126.6206,45.6842,哈尔滨市,省农科院,细颗粒物(PM2.5),92,110,111,68,73,89,62,27,27,20,50,27,30,1.1,1.4
2023-02-08T12:00:00,1141A,121.4,31.238,上海市,普陀,细颗粒物(PM2.5),103,62,56,77,49,113,82,102,95,30,26,7,5,0.8,0.8
2023-02-08T12:00:00,1142A,121.478,31.2036,上海市,十五厂,细颗粒物(PM2.5),88,51,53,65,48,97,72,88,87,33,32,6,7,0.8,0.7
2023-02-08T12:00:00,1143A,121.467,31.3008,上海市,虹口,细颗粒物(PM2.5),117,75,70,88,54,94,72,82,76,29,30,7,6,0.9,0.7
2023-02-08T12:00:00,1144A,121.412,31.1654,上海市,徐汇上师大,细颗粒物(PM2.5),82,56,50,60,44,98,74,90,88,30,27,8,8,0.7,0.5
2023-02-08T12:00:00,1145A,121.536,31.2659,上海市,杨浦四漂,细颗粒物(PM2.5),93,46,66,69,54,99,80,83,82,24,32,6,8,0.6,0.7
2023-02-08T12:00:00,1146A,120.978,31.0935,上海市,青浦淀山湖,,,,,,,,,,,,,,,,
2023-02-08T12:00:00,1147A,121.425,31.2261,上海市,静安监测站,细颗粒物(PM2.5),87,99,72,64,48,106,82,99,92,31,31,8,8,0.7,0.6
2023-02-08T12:00:00,1148A,121.703,31.1907,上海市,浦东川沙,细颗粒物(PM2.5),67,34,52,48,54,102,80,86,86,15,24,5,5,0.7,0.7
2023-02-08T12:00:00,1149A,121.533,31.2284,上海市,浦东新区监测站,细颗粒物(PM2.5),83,90,74,61,52,99,73,80,80,24,30,6,7,1.0,0.8
2023-02-08T12:00:00,1150A,121.577,31.2071,上海市,浦东张江,,40,32,52,28,43,94,78,85,80,16,29,4,4,0.9,0.9
2023-02-08T12:00:00,1151A,118.8086,32.1065,南京市,迈皋桥,细颗粒物(PM2.5),92,115,83,68,50,69,69,43,43,25,38,3,4,0.5,0.4
2023-02-08T12:00:00,1152A,118.7538,32.0551,南京市,草场门,,,99,74,58,44,87,87,46,46,26,44,,1,0.6,0.5
2023-02-08T12:00:00,1153A,118.7794,32.0745,南京市,山西路,细颗粒物(PM2.5),89,105,77,66,50,77,77,45,45,25,43,4,4,0.5,0.4
2023-02-08T12:00:00,1154A,118.7752,32.0023,南京市,中华门,细颗粒物(PM2.5),79,90,67,58,42,90,90,47,47,22,37,6,5,0.7,0.6
2023-02-08T12:00:00,1155A,118.8109,32.0309,南京市,瑞金路,细颗粒物(PM2.5),83,96,74,61,44,94,94,50,50,26,40,4,3,0.5,0.4
2023-02-08T12:00:00,1156A,118.7997,32.0754,南京市,玄武湖,细颗粒物(PM2.5),93,99,77,69,54,63,63,33,33,26,42,4,4,0.5,0.5
2023-02-08T12:00:00,1157A,118.6414,32.0931,南京市,浦口,细颗粒物(PM2.5),89,111,80,66,49,64,54,56,33,43,34,6,5,0.4,0.3
2023-02-08T12:00:00,1158A,118.7356,31.9996,南京市,奥体中心,细颗粒物(PM2.5),94,95,80,70,49,88,88,53,53,34,47,4,4,0.7,0.7
2023-02-08T12:00:00,1159A,118.9125,32.1028,南京市,仙林大学城,细颗粒物(PM2.5),94,102,72,70,52,63,63,41,41,32,43,4,4,0.7,0.5
2023-02-08T12:00:00,1160A,120.561,31.2472,苏州市,上方山,细颗粒物(PM2.5),123,130,66,93,48,78,66,74,73,35,27,6,6,1.1,0.8
2023-02-08T12:00:00,1161A,120.628,31.2864,苏州市,南门,,,,,,,,,,,,,,,,
2023-02-08T12:00:00,1162A,120.591,31.3019,苏州市,彩香,细颗粒物(PM2.5),129,128,73,98,52,94,77,87,86,32,25,5,5,0.9,0.6
2023-02-08T12:00:00,1163A,120.596,31.3264,苏州市,轧钢厂,细颗粒物(PM2.5),120,132,76,91,48,84,68,77,76,34,25,5,5,0.9,0.7
2023-02-08T12:00:00,1164A,120.613,31.2703,苏州市,吴中区,细颗粒物(PM2.5),123,126,72,93,48,85,,80,78,36,31,5,5,0.9,0.6
2023-02-08T12:00:00,1165A,120.543,31.2994,苏州市,苏州新区,细颗粒物(PM2.5),127,121,68,96,51,88,72,82,81,26,17,6,6,0.8,0.7
2023-02-08T12:00:00,1166A,120.669,31.3097,苏州市,苏州工业园区,细颗粒物(PM2.5),127,133,75,96,52,97,77,87,86,31,24,6,7,0.9,0.7
2023-02-08T12:00:00,1167A,120.641,31.3708,苏州市,相城区,细颗粒物(PM2.5),124,114,67,94,54,94,76,80,80,27,22,5,5,0.9,0.7
2023-02-08T12:00:00,1168A,120.9098,31.9663,南通市,狼山街道,颗粒物(PM10),65,79,76,41,50,115,84,103,96,16,15,8,8,0.6,0.6
2023-02-08T12:00:00,1169A,120.86,32.0005,南通市,虹桥,,,86,79,49,54,107,,98,92,18,17,5,5,0.7,0.7
2023-02-08T12:00:00,1170A,120.87,32.02,南通市,城中,颗粒物(PM10),69,87,84,44,56,116,88,106,97,16,15,5,5,0.3,0.3
2023-02-08T12:00:00,1171A,120.94,31.93,南通市,星湖花园,,,90,77,51,54,110,77,92,86,,15,8,8,0.7,0.6
2023-02-08T12:00:00,1172A,120.81,32.0417,南通市,紫琅学院,颗粒物(PM10),70,90,82,44,50,107,81,99,90,18,16,5,5,0.4,0.4
2023-02-08T12:00:00,1173A,119.176,34.5885,连云港市,市环境监测站,细颗粒物(PM2.5),178,166,104,134,84,92,48,45,35,36,36,8,7,0.8,0.5
2023-02-08T12:00:00,1177A,117.179,34.2761,徐州市,黄河新村,细颗粒物(PM2.5),155,141,121,118,87,107,25,44,17,36,43,9,11,1.3,1.2
2023-02-08T12:00:00,1178A,117.1918,34.2384,徐州市,淮塔,细颗粒物(PM2.5),138,129,131,105,88,120,30,29,13,33,44,6,8,1.0,0.8
2023-02-08T12:00:00,1180A,117.256,34.2153,徐州市,新城区,细颗粒物(PM2.5),155,134,116,118,92,121,24,35,14,30,39,8,11,1.1,0.9
2023-02-08T12:00:00,1181A,117.244,34.2911,徐州市,桃园路,,,,139,,95,107,,10,10,,52,,8,,1
2023-02-08T12:00:00,1182A,117.2933,34.2778,徐州市,农科院,细颗粒物(PM2.5),147,134,133,112,90,112,23,14,14,28,48,6,8,1.2,1
2023-02-08T12:00:00,1186A,119.389,32.3761,扬州市,邗江监测站,细颗粒物(PM2.5),129,122,81,98,65,87,83,68,68,28,26,3,4,0.7,0.5
2023-02-08T12:00:00,1188A,120.269,31.4867,无锡市,雪浪,,,,72,,46,72,65,68,68,30,32,8,8,1.1,1.1
2023-02-08T12:00:00,1189A,120.275,31.6219,无锡市,黄巷,细颗粒物(PM2.5),107,131,91,80,50,76,68,67,67,48,39,7,8,0.8,0.8
2023-02-08T12:00:00,1190A,120.294,31.56,无锡市,曹张,细颗粒物(PM2.5),100,121,73,75,47,79,65,67,67,39,35,5,5,0.8,0.6
2023-02-08T12:00:00,1191A,120.242,31.5031,无锡市,漆塘,细颗粒物(PM2.5),110,124,72,83,50,82,77,76,76,24,24,7,7,1.2,1.1
2023-02-08T12:00:00,1192A,120.3489,31.5863,无锡市,东亭,细颗粒物(PM2.5),110,117,75,83,52,79,70,67,67,43,40,10,9,1.0,0.8
2023-02-08T12:00:00,1193A,120.354,31.5475,无锡市,旺庄,细颗粒物(PM2.5),110,124,72,83,50,75,69,69,69,35,33,4,5,0.8,0.7
2023-02-08T12:00:00,1194A,120.245,31.5631,无锡市,荣巷,细颗粒物(PM2.5),107,122,73,80,47,73,65,65,65,32,28,10,10,1.0,0.8
2023-02-08T12:00:00,1195A,120.299,31.6817,无锡市,堰桥,细颗粒物(PM2.5),110,114,74,83,49,80,78,69,69,22,24,8,10,1.2,0.9
2023-02-08T12:00:00,1196A,119.9633,31.762,常州市,市监测站,细颗粒物(PM2.5),155,161,100,118,70,78,60,56,48,48,38,7,6,1.4,1
2023-02-08T12:00:00,1200A,119.9468,31.7069,常州市,武进监测站,细颗粒物(PM2.5),150,162,104,115,70,75,62,45,45,40,38,8,10,1.4,1.3
2023-02-08T12:00:00,1201A,119.9255,31.9087,常州市,安家,细颗粒物(PM2.5),127,125,81,96,59,91,82,73,73,28,23,7,6,0.9,0.6
2023-02-08T12:00:00,1203A,119.6707,32.1875,镇江市,新区办事处,细颗粒物(PM2.5),132,124,81,100,63,85,85,77,77,22,30,2,3,0.6,0.5
2023-02-08T12:00:00,1204A,119.4974,32.1968,镇江市,职教中心,细颗粒物(PM2.5),117,97,62,88,58,96,90,73,73,29,33,5,6,0.8,0.6
2023-02-08T12:00:00,1205A,119.4303,32.1328,镇江市,丹徒区监测站,细颗粒物(PM2.5),117,114,78,88,58,88,72,63,63,36,28,3,3,0.6,0.6
2023-02-08T12:00:00,1206A,119.905,32.4878,泰州市,公园路,细颗粒物(PM2.5),113,119,75,85,58,105,91,86,86,17,16,6,6,1.0,0.8
2023-02-08T12:00:00,1207A,119.9189,32.4625,泰州市,莲花,细颗粒物(PM2.5),119,107,76,90,65,105,93,87,87,15,16,6,6,1.0,0.8
2023-02-08T12:00:00,1209A,119.888,32.4639,泰州市,留学生创业园,细颗粒物(PM2.5),105,117,83,79,53,101,91,84,84,19,20,6,6,1.0,0.9
2023-02-08T12:00:00,1210A,119.036,33.5981,淮安市,钵池山,,,114,78,,71,99,84,70,70,16,19,,5,0.8,0.7
2023-02-08T12:00:00,1211A,119.007,33.575,淮安市,北京南路,细颗粒物(PM2.5),123,127,83,93,65,95,80,67,67,20,23,6,6,0.9,0.7
2023-02-08T12:00:00,1212A,118.989,33.6067,淮安市,市监测站,细颗粒物(PM2.5),138,122,84,105,68,97,88,72,72,19,25,5,5,0.9,0.7
2023-02-08T12:00:00,1213A,119.135,33.5039,淮安市,楚州区监测站,细颗粒物(PM2.5),128,125,87,97,69,99,80,70,70,16,20,5,5,0.9,0.7
2023-02-08T12:00:00,1214A,119.0186,33.6297,淮安市,淮阴区监测站,细颗粒物(PM2.5),158,133,92,120,79,97,83,68,68,18,22,6,6,0.8,0.6
2023-02-08T12:00:00,1215A,120.118,33.4022,盐城市,盐城电厂,,,,83,,49,118,97,110,96,15,16,6,6,0.5,0.6
2023-02-08T12:00:00,1216A,120.156,33.3942,盐城市,市监测站,颗粒物(PM10),58,65,85,32,43,110,91,107,92,10,13,8,7,0.5,0.6
2023-02-08T12:00:00,1218A,120.2144,33.38,盐城市,开发区管委会,颗粒物(PM10),58,66,95,31,64,111,90,109,93,14,13,6,6,0.6,0.7
2023-02-08T12:00:00,1220A,118.293,33.9528,宿迁市,宿迁学院,细颗粒物(PM2.5),134,131,98,102,68,87,58,40,39,25,30,5,6,1.2,0.9
2023-02-08T12:00:00,1221A,118.2442,33.9592,宿迁市,宿迁中学,,,,98,,68,90,,46,31,26,25,6,7,0.9,0.5
2023-02-08T12:00:00,1223A,120.2072,30.2111,杭州市,滨江,颗粒物(PM10),62,73,41,36,25,87,74,71,69,33,40,7,7,0.6,0.6
2023-02-08T12:00:00,1224A,120.0633,30.2747,杭州市,西溪,"颗粒物(PM10),细颗粒物(PM2.5)",74,98,49,54,28,83,66,72,72,33,29,8,7,0.7,0.6
2023-02-08T12:00:00,1225A,119.026,29.635,杭州市,千岛湖,,,,,,,,,,,,,,,,
2023-02-08T12:00:00,1226A,120.3461,30.3153,杭州市,下沙,细颗粒物(PM2.5),114,124,57,86,40,94,69,73,69,43,41,7,6,0.7,0.6
2023-02-08T12:00:00,1227A,120.1269,30.2456,杭州市,卧龙桥,细颗粒物(PM2.5),77,80,43,56,31,85,70,78,78,33,32,6,6,0.6,0.6
2023-02-08T12:00:00,1228A,120.1903,30.2692,杭州市,浙江农大,细颗粒物(PM2.5),125,126,41,95,48,84,64,75,73,33,34,4,3,0.8,0.7
2023-02-08T12:00:00,1229A,120.157,30.2897,杭州市,朝晖五区,,,,,,,,,,,,,,,,
2023-02-08T12:00:00,1230A,120.1197,30.3119,杭州市,和睦小学,,,108,61,61,38,72,,63,63,40,47,,4,0.6,0.6
2023-02-08T12:00:00,1231A,120.3019,30.4183,杭州市,临平镇,细颗粒物(PM2.5),99,107,56,74,40,90,82,70,69,23,27,7,6,0.9,0.8
2023-02-08T12:00:00,1232A,120.2697,30.1819,杭州市,城厢镇,细颗粒物(PM2.5),73,70,36,53,30,92,82,75,75,33,39,7,7,0.8,0.7
2023-02-08T12:00:00,1233A,120.0883,30.1808,杭州市,云栖,颗粒物(PM10),60,70,40,31,22,82,79,71,71,29,29,6,6,0.7,0.7
2023-02-08T12:00:00,1234A,121.8358,29.911,宁波市,区环保大楼,,,78,45,55,32,87,,83,64,42,37,,9,0.8,0.7
2023-02-08T12:00:00,1235A,121.56,29.82,宁波市,万里学院,颗粒物(PM10),78,106,53,47,20,110,87,97,78,35,25,6,6,0.7,0.6
2023-02-08T12:00:00,1236A,121.713,29.9572,宁波市,龙赛医院,,,,36,,22,107,,98,84,33,25,,6,0.9,0.7
2023-02-08T12:00:00,1239A,121.633,29.7733,宁波市,钱湖水厂,细颗粒物(PM2.5),80,71,35,59,28,91,91,83,83,20,17,5,5,0.7,0.5
2023-02-08T12:00:00,1240A,121.5856,29.8635,宁波市,太古小学,细颗粒物(PM2.5),99,100,51,74,33,106,89,89,80,38,26,11,10,0.8,0.7
2023-02-08T12:00:00,1241A,121.524,29.8674,宁波市,市环境监测中心,颗粒物(PM10),62,74,38,37,16,100,86,100,77,28,20,5,5,0.7,0.5
2023-02-08T12:00:00,1242A,120.634,28.0089,温州市,瓯海,,22,20,22,9,19,49,41,48,40,43,33,6,6,0.6,0.6
2023-02-08T12:00:00,1243A,120.6748,27.9939,温州市,南浦,,23,16,22,16,20,56,54,54,46,32,29,4,5,0.4,0.4
2023-02-08T12:00:00,1244A,120.76,27.9747,温州市,龙湾,,,18,23,15,16,58,41,57,45,48,31,,5,0.5,0.5
2023-02-08T12:00:00,1245A,120.6709,28.0167,温州市,市站,,23,23,26,15,23,56,52,54,43,34,33,4,4,0.7,0.7
2023-02-08T12:00:00,1246A,120.598,30.0911,绍兴市,袍江站,,,,,,,,,,,,,,,,
2023-02-08T12:00:00,1247A,120.6053,29.9928,绍兴市,城东开发委,细颗粒物(PM2.5),79,88,43,58,27,98,77,81,77,32,33,4,4,0.9,0.7
2023-02-08T12:00:00,1250A,120.0751,30.8669,湖州市,城西水厂,细颗粒物(PM2.5),118,,42,89,43,87,,83,83,26,36,5,4,,0.6
2023-02-08T12:00:00,1252A,120.7436,30.778,嘉兴市,清河小学,细颗粒物(PM2.5),107,108,61,80,43,73,73,58,58,35,36,6,5,1.0,0.8
2023-02-08T12:00:00,1253A,120.726,30.7478,嘉兴市,嘉兴学院,细颗粒物(PM2.5),113,107,57,85,44,92,80,68,68,42,38,8,8,0.6,0.5
2023-02-08T12:00:00,1255A,121.273,28.6459,台州市,黄岩环保大楼,,,51,25,35,17,78,78,52,50,,20,9,7,0.6,0.4
2023-02-08T12:00:00,1256A,121.419,28.6542,台州市,台州环保大楼,颗粒物(PM10),53,55,30,19,13,90,90,77,77,16,12,9,8,0.5,0.4
2023-02-08T12:00:00,1257A,121.377,28.5773,台州市,路桥田洋王,,50,50,31,9,8,92,92,72,72,17,16,7,7,0.5,0.4
2023-02-08T12:00:00,1258A,122.122,30.0203,舟山市,定海檀枫,细颗粒物(PM2.5),98,129,49,73,29,120,115,95,95,19,15,5,4,0.8,0.5
2023-02-08T12:00:00,1259A,122.3094,29.9558,舟山市,普陀东港,细颗粒物(PM2.5),122,144,56,92,33,124,124,107,107,15,14,6,5,0.8,0.5
2023-02-08T12:00:00,1260A,122.19,29.9944,舟山市,临城新区,细颗粒物(PM2.5),108,132,58,81,29,120,120,98,94,18,20,6,5,0.9,0.5
2023-02-08T12:00:00,1261A,119.649,29.1131,金华市,四中,,,,,,,,,,,,,,,,
2023-02-08T12:00:00,1262A,119.647,29.077,金华市,十五中,细颗粒物(PM2.5),57,33,29,40,37,66,61,48,41,32,26,5,5,0.6,0.5
2023-02-08T12:00:00,1263A,119.686,29.1029,金华市,监测站,,,37,27,43,37,70,62,44,40,,29,6,5,,0.7
2023-02-08T12:00:00,1264A,118.8692,28.9398,衢州市,环保大楼,,45,43,32,31,29,66,66,42,42,22,22,4,3,0.6,0.6
2023-02-08T12:00:00,1265A,118.8709,28.9666,衢州市,实验学校,,38,34,29,26,24,60,60,37,37,22,23,9,6,0.7,0.6
2023-02-08T12:00:00,1266A,118.8621,28.9808,衢州市,衢州学院,,49,39,29,34,28,64,64,43,43,16,17,4,3,0.6,0.6
2023-02-08T12:00:00,1267A,119.914,28.4514,丽水市,监测站大楼,,17,13,16,6,10,52,52,42,38,12,16,7,7,0.5,0.6
2023-02-08T12:00:00,1268A,119.93,28.4586,丽水市,莲都小学,,19,17,19,13,16,58,58,49,45,15,17,6,6,0.3,0.4
2023-02-08T12:00:00,1269A,119.879,28.4231,丽水市,余庄前,,18,17,21,12,14,49,48,26,26,13,18,8,8,0.4,0.5
2023-02-08T12:00:00,1270A,117.1959,31.7848,合肥市,明珠广场,颗粒物(PM10),67,83,64,46,39,60,60,44,44,32,35,7,7,0.9,0.9
2023-02-08T12:00:00,1271A,117.3072,31.8764,合肥市,三里街,细颗粒物(PM2.5),98,97,63,73,53,46,45,38,37,32,33,4,4,0.9,0.8
2023-02-08T12:00:00,1272A,117.2588,31.8707,合肥市,琥珀山庄,细颗粒物(PM2.5),70,88,58,51,39,58,58,48,48,33,33,4,4,0.9,0.8
2023-02-08T12:00:00,1273A,117.1604,31.9052,合肥市,董铺水库,细颗粒物(PM2.5),70,88,58,51,36,60,60,52,52,21,18,4,3,0.5,0.5
2023-02-08T12:00:00,1274A,117.25,31.8571,合肥市,长江中路,细颗粒物(PM2.5),92,85,62,68,55,58,58,46,46,25,24,10,9,0.9,0.9
2023-02-08T12:00:00,1275A,117.266,31.9436,合肥市,庐阳区,细颗粒物(PM2.5),83,88,61,61,42,57,51,47,47,28,26,5,5,0.8,0.6
2023-02-08T12:00:00,1276A,117.336,31.8586,合肥市,瑶海区,细颗粒物(PM2.5),90,88,65,67,51,54,54,42,42,25,27,5,5,0.9,0.8
2023-02-08T12:00:00,1277A,117.3027,31.7964,合肥市,包河区,细颗粒物(PM2.5),85,85,68,63,50,52,42,30,30,37,44,6,6,0.9,0.8
2023-02-08T12:00:00,1278A,117.2776,31.7385,合肥市,滨湖新区,颗粒物(PM10),65,80,65,46,40,67,60,49,49,23,29,1,2,0.8,0.7
2023-02-08T12:00:00,1279A,117.1318,31.8403,合肥市,高新区,细颗粒物(PM2.5),77,83,58,56,44,68,68,52,52,24,28,6,6,0.9,0.9
2023-02-08T12:00:00,1280A,119.3903,26.0543,福州市,鼓山,,,,,,,,,,,,,,,,
2023-02-08T12:00:00,1282A,119.2681,26.0504,福州市,师大,,24,18,15,4,8,82,75,73,67,15,19,3,3,0.4,0.4
2023-02-08T12:00:00,1283A,119.2984,26.1028,福州市,五四北路,,24,16,13,5,8,86,76,83,76,14,15,2,2,0.6,0.5
2023-02-08T12:00:00,1284A,119.2648,26.0768,福州市,杨桥西路,,26,26,16,6,9,84,79,78,76,10,14,3,3,0.6,0.5
2023-02-08T12:00:00,1285A,119.317,26.0746,福州市,紫阳,,,16,16,3,9,80,76,79,72,9,15,,2,0.5,0.5
2023-02-08T12:00:00,1286A,118.1608,24.8169,厦门市,溪东,,,,,,,,,,,,,,,,
2023-02-08T12:00:00,1287A,118.1514,24.4767,厦门市,洪文,,24,14,17,8,13,96,74,70,65,26,24,2,2,0.8,0.8
2023-02-08T12:00:00,1288A,118.0661,24.4444,厦门市,鼓浪屿,,22,13,17,10,15,97,68,65,55,25,27,3,3,0.6,0.7
2023-02-08T12:00:00,1290A,115.8931,28.6843,南昌市,省外办,,48,36,59,33,52,61,18,10,10,24,30,8,7,0.6,0.7
2023-02-08T12:00:00,1291A,115.8886,28.7003,南昌市,省林业公司,,42,27,45,29,50,60,15,9,9,27,30,4,4,1.2,1.3
2023-02-08T12:00:00,1292A,115.8126,28.7442,南昌市,林科所,,13,9,44,9,39,63,23,20,15,17,21,5,5,0.9,1
2023-02-08T12:00:00,1294A,115.8518,28.687,南昌市,建工学校,,,26,63,20,47,65,21,14,12,19,24,6,10,,1.1
2023-02-08T12:00:00,1295A,115.8921,28.6424,南昌市,象湖,,36,19,42,25,47,59,17,10,9,26,29,4,4,0.9,1
2023-02-08T12:00:00,1296A,115.7423,28.7996,南昌市,武术学校,,23,10,35,16,42,57,22,22,15,16,19,6,6,0.9,1
2023-02-08T12:00:00,1298A,115.9314,28.6842,南昌市,省站,细颗粒物(PM2.5),59,30,56,42,61,65,26,14,14,17,20,7,7,1.0,1.1
2023-02-08T12:00:00,1299A,116.9862,36.6114,济南市,科干所,颗粒物(PM10),67,83,240,42,165,78,78,31,31,28,75,8,18,0.7,1.5
2023-02-08T12:00:00,1300A,116.9376,36.665,济南市,农科所,"颗粒物(PM10),细颗粒物(PM2.5)",83,115,247,61,155,62,54,18,18,51,87,15,18,0.8,1.5
2023-02-08T12:00:00,1301A,117.1265,36.6734,济南市,开发区,颗粒物(PM10),69,88,242,39,172,76,76,24,24,34,86,14,20,0.6,1.5
2023-02-08T12:00:00,1303A,117.0624,36.6868,济南市,省种子仓库,颗粒物(PM10),69,88,266,41,186,72,72,20,20,24,75,14,27,0.5,1.5
2023-02-08T12:00:00,1304A,116.9489,36.6447,济南市,机床二厂,颗粒物(PM10),79,107,255,39,183,75,75,25,25,28,75,12,29,0.7,1.6
2023-02-08T12:00:00,1305A,117.0495,36.663,济南市,市监测站,颗粒物(PM10),69,88,248,36,178,78,78,23,23,36,92,10,20,0.6,1.5
2023-02-08T12:00:00,1306A,116.7675,36.5484,济南市,长清党校,细颗粒物(PM2.5),119,137,250,90,178,81,65,25,25,53,77,13,18,1.0,1.5
2023-02-08T12:00:00,1307A,120.6659,36.2403,青岛市,仰口,,,,124,,97,99,76,88,59,25,27,15,8,0.8,0.9
2023-02-08T12:00:00,1308A,120.3905,36.1851,青岛市,李沧区子站,,,,,,,,,,,,,,,,
2023-02-08T12:00:00,1309A,120.3471,36.0699,青岛市,市北区子站,,,,,,,,,,,,,,,,
2023-02-08T12:00:00,1310A,120.4134,36.0658,青岛市,市南区东部子站,细颗粒物(PM2.5),134,139,141,102,101,97,53,92,26,53,44,11,9,1.0,1
2023-02-08T12:00:00,1311A,120.3664,36.1032,青岛市,四方区子站,细颗粒物(PM2.5),100,127,157,75,113,72,32,69,17,70,58,17,9,1.1,1.2
2023-02-08T12:00:00,1312A,120.2994,36.054,青岛市,市南区西部子站,细颗粒物(PM2.5),110,119,132,83,95,100,65,60,24,52,52,12,9,1.1,1.2
2023-02-08T12:00:00,1313A,120.4581,36.0858,青岛市,崂山区子站,细颗粒物(PM2.5),100,112,149,75,101,97,59,48,37,53,47,10,8,0.9,0.9
2023-02-08T12:00:00,1314A,120.1983,35.9608,青岛市,黄岛区子站,细颗粒物(PM2.5),108,122,141,81,102,102,40,74,18,,44,12,7,1.1,1.1
2023-02-08T12:00:00,1315A,120.3999,36.3083,青岛市,城阳区子站,颗粒物(PM10),54,58,164,27,93,82,82,32,32,18,67,10,8,0.5,1.2
2023-02-08T12:00:00,1316A,113.69031,34.76122,郑州市,烟厂,细颗粒物(PM2.5),149,164,197,114,159,78,47,44,44,30,56,15,11,1.2,1.1
2023-02-08T12:00:00,1317A,113.65724,34.77134,郑州市,郑纺机,细颗粒物(PM2.5),155,176,191,118,160,85,52,47,47,29,54,12,8,1.2,1.2
2023-02-08T12:00:00,1318A,113.67526,34.80246,郑州市,银行学校,细颗粒物(PM2.5),158,156,195,120,162,84,54,46,46,31,53,15,11,1.3,1.2
2023-02-08T12:00:00,1319A,113.56746,34.81334,郑州市,供水公司,细颗粒物(PM2.5),150,157,197,115,154,82,56,49,49,30,60,11,10,1.3,1.4
2023-02-08T12:00:00,1320A,113.7329,34.7178,郑州市,经开区管委,细颗粒物(PM2.5),159,166,201,121,162,83,49,47,47,31,55,16,12,1.1,1.1
2023-02-08T12:00:00,1321A,113.73961,34.77172,郑州市,四十七中,细颗粒物(PM2.5),165,170,206,125,163,83,52,47,47,26,50,12,8,1.1,1
2023-02-08T12:00:00,1322A,113.60532,34.74838,郑州市,市监测站,细颗粒物(PM2.5),158,172,204,120,163,85,56,51,51,26,48,16,13,1.0,1
2023-02-08T12:00:00,1323A,113.64164,34.7525,郑州市,河医大,细颗粒物(PM2.5),155,166,194,118,157,76,44,40,40,31,55,14,10,1.4,1.4
2023-02-08T12:00:00,1324A,113.51488,34.91089,郑州市,岗李水库,,,,,,,,,,,,,,,,
2023-02-08T12:00:00,1325A,114.3677,30.5584,武汉市,东湖梨园,,,34,53,46,50,98,23,34,31,,28,7,7,1.0,1
2023-02-08T12:00:00,1326A,114.2529,30.558,武汉市,汉阳月湖,,45,29,53,31,52,81,29,28,28,26,30,6,6,0.7,0.8
2023-02-08T12:00:00,1327A,114.282,30.6189,武汉市,汉口花桥,,35,33,58,24,44,69,20,26,23,27,25,4,4,0.7,0.8
2023-02-08T12:00:00,1328A,114.3025,30.5332,武汉市,武昌紫阳,,46,34,56,32,47,78,17,20,20,35,32,9,9,1.2,1
2023-02-08T12:00:00,1329A,114.3646,30.6217,武汉市,青山钢花,,39,24,55,27,49,86,21,21,21,28,32,8,8,0.9,1
2023-02-08T12:00:00,1330A,114.1566,30.4825,武汉市,沌口新区,颗粒物(PM10),52,54,62,22,43,66,23,19,19,33,41,7,7,0.9,1
2023-02-08T12:00:00,1331A,114.3014,30.5944,武汉市,汉口江滩,,30,30,50,21,37,82,23,31,26,26,26,6,6,0.7,0.7
2023-02-08T12:00:00,1333A,114.135,30.6319,武汉市,吴家山,,40,40,53,27,43,79,22,27,22,36,36,6,6,0.7,0.8
2023-02-08T12:00:00,1334A,113.8454,30.2917,武汉市,沉湖七壕,,31,31,59,16,38,86,25,21,20,22,26,8,8,0.8,0.9
2023-02-08T12:00:00,1335A,113.0833,28.2325,长沙市,经开区环保局,,,,117,,111,4,,5,,,36,,3,,0.9
2023-02-08T12:00:00,1336A,112.8872,28.2189,长沙市,高开区环保局,,46,32,105,32,105,32,22,24,24,28,29,5,5,0.9,1
2023-02-08T12:00:00,1337A,113.0792,28.2053,长沙市,马坡岭,细颗粒物(PM2.5),64,8,89,46,98,13,9,4,4,36,37,6,5,1.1,1
2023-02-08T12:00:00,1338A,112.9394,28.19,长沙市,湖南师范大学,,42,35,102,29,101,23,18,14,14,30,31,4,4,1.0,0.9
2023-02-08T12:00:00,1339A,113.0178,28.1322,长沙市,雨花区环保局,,44,44,104,14,99,18,14,7,7,31,35,1,2,0.8,0.7
2023-02-08T12:00:00,1340A,112.9792,28.2597,长沙市,伍家岭,,39,36,112,27,104,22,19,14,14,33,36,5,5,1.0,0.9
2023-02-08T12:00:00,1341A,113.0014,28.1944,长沙市,火车新站,,,45,107,46,104,21,18,11,11,31,35,,6,1.1,1
2023-02-08T12:00:00,1342A,112.9844,28.1178,长沙市,天心区环保局,细颗粒物(PM2.5),55,56,134,39,100,20,17,13,13,35,38,2,2,0.9,0.8
2023-02-08T12:00:00,1343A,112.8908,28.1308,长沙市,湖南中医药大学,,47,47,119,26,108,27,17,18,18,29,30,3,3,1.2,1.2
2023-02-08T12:00:00,1344A,112.9581,28.3611,长沙市,沙坪,细颗粒物(PM2.5),52,35,103,36,90,30,26,20,17,29,40,4,5,1.1,1.1
2023-02-08T12:00:00,1345A,113.2347,23.1423,广州市,广雅中学,,28,28,44,17,25,52,52,17,17,26,47,4,4,0.6,1
2023-02-08T12:00:00,1346A,113.2612,23.105,广州市,市五中,,28,28,47,17,30,51,51,19,19,27,48,7,6,0.7,1.1
2023-02-08T12:00:00,1348A,113.3478,23.0916,广州市,广东商学院,,28,28,45,17,28,52,52,22,22,31,49,5,5,0.7,1
2023-02-08T12:00:00,1349A,113.4332,23.1047,广州市,市八十六中,,39,39,61,18,29,58,58,25,25,33,48,5,4,0.7,1
2023-02-08T12:00:00,1350A,113.3505,22.9483,广州市,番禺中学,,23,23,46,12,26,58,58,44,44,24,49,5,5,0.7,1
2023-02-08T12:00:00,1351A,113.2146,23.3916,广州市,花都师范,,45,45,29,24,18,38,11,15,7,40,28,6,6,1.1,1
2023-02-08T12:00:00,1352A,113.2597,23.1331,广州市,市监测站,,29,29,47,16,25,51,51,17,17,28,49,6,6,0.8,1.1
2023-02-08T12:00:00,1353A,113.5618,23.312,广州市,九龙镇镇龙,,32,32,32,21,21,67,55,14,14,23,27,4,4,0.7,1
2023-02-08T12:00:00,1354A,113.2765,23.1544,广州市,麓湖,,24,24,42,16,24,52,52,17,17,25,40,4,4,0.6,1
2023-02-08T12:00:00,1355A,113.443,23.3035,广州市,帽峰山森林公园,,22,21,27,15,17,51,47,20,20,23,21,8,5,0.6,0.8
2023-02-08T12:00:00,1356A,114.1063,22.5545,深圳市,通心岭子站,,16,13,22,8,12,63,50,62,46,12,22,2,2,0.8,0.8
2023-02-08T12:00:00,1357A,114.117,22.5625,深圳市,洪湖,,20,19,21,9,12,78,62,74,64,14,17,7,7,0.5,0.6
2023-02-08T12:00:00,1358A,113.987,22.5417,深圳市,华侨城,,17,17,24,8,12,74,51,72,60,18,29,6,6,0.6,0.7
2023-02-08T12:00:00,1359A,113.9181,22.5171,深圳市,南海子站,,19,19,36,9,16,69,52,67,57,13,30,4,4,0.6,0.6
2023-02-08T12:00:00,1360A,114.2458,22.5689,深圳市,盐田,,18,17,26,9,11,66,57,41,40,15,37,6,7,0.6,0.6
2023-02-08T12:00:00,1361A,114.2283,22.7244,深圳市,龙岗,,18,18,19,11,11,79,54,74,59,16,18,3,3,0.9,0.8
2023-02-08T12:00:00,1362A,113.8953,22.5861,深圳市,西乡,,,,,,,,,,,,,,,,
2023-02-08T12:00:00,1363A,114.494,22.5422,深圳市,南澳,,22,10,14,6,8,83,69,83,68,9,13,5,5,0.8,0.8
2023-02-08T12:00:00,1364A,114.41,22.6342,深圳市,葵涌,,19,12,15,7,12,77,58,76,59,10,14,7,7,0.6,0.6
2023-02-08T12:00:00,1365A,114.297,22.5978,深圳市,梅沙,,,13,18,8,11,92,,84,73,11,10,4,4,1.0,0.8
2023-02-08T12:00:00,1366A,114.0678,22.738,深圳市,观澜,,25,25,34,10,16,101,52,64,52,21,29,6,6,0.6,0.6
2023-02-08T12:00:00,1367A,113.5814,22.2618,珠海市,吉大,,16,15,21,2,11,72,51,62,60,26,29,8,8,0.5,0.5
2023-02-08T12:00:00,1368A,113.4881,22.2335,珠海市,前山,,16,16,30,4,12,67,47,61,54,30,35,3,4,0.5,0.5
2023-02-08T12:00:00,1369A,113.628,22.4251,珠海市,唐家,,17,17,24,8,14,73,53,64,55,21,29,6,7,0.3,0.3
2023-02-08T12:00:00,1370A,113.299,22.2281,珠海市,斗门,,19,19,25,8,11,65,48,59,54,24,25,2,3,0.4,0.4
2023-02-08T12:00:00,1371A,113.1294,23.0067,佛山市,湾梁,,22,22,48,11,22,61,61,15,15,19,47,8,8,0.5,1.1
2023-02-08T12:00:00,1372A,113.1083,23.0478,佛山市,华材职中,,29,29,45,9,21,56,56,22,22,20,40,8,8,0.4,0.7
2023-02-08T12:00:00,1373A,113.144,23.0453,佛山市,南海气象局,,31,31,36,11,21,46,46,18,18,22,42,7,8,0.5,0.9
2023-02-08T12:00:00,1374A,113.2881,22.8094,佛山市,顺德苏岗,,17,16,35,9,25,52,52,47,47,20,43,7,7,0.6,0.9
2023-02-08T12:00:00,1375A,113.2544,22.7642,佛山市,容桂街道办,,,,,,,,,,,,,,,,
2023-02-08T12:00:00,1376A,112.8383,22.8678,佛山市,高明孔堂,,,44,46,5,24,46,,13,13,14,40,3,6,0.5,0.9
2023-02-08T12:00:00,1377A,112.8836,23.1588,佛山市,三水监测站,,36,36,30,19,20,31,30,8,8,42,31,7,6,0.8,1
2023-02-08T12:00:00,1378A,112.867,23.185,佛山市,三水云东海,,48,38,26,21,16,35,20,10,7,95,54,8,6,0.9,0.8
2023-02-08T12:00:00,1379A,113.3769,22.5211,中山市,华柏园,,21,21,32,8,18,52,44,45,45,20,33,5,6,0.5,0.8
2023-02-08T12:00:00,1380A,113.3881,22.5497,中山市,张溪,,32,32,32,7,15,62,55,52,52,18,34,3,4,0.5,0.6
2023-02-08T12:00:00,1381A,113.4075,22.5111,中山市,紫马岭,,17,17,24,8,11,66,51,51,50,14,25,4,4,0.3,0.4
2023-02-08T12:00:00,1382A,113.4411,22.4853,中山市,长江旅游区,,,,,,,,,,,,,,,,
2023-02-08T12:00:00,1383A,113.1064,22.6058,江门市,北街,,27,27,50,8,26,55,54,36,36,22,64,8,8,0.5,0.9
2023-02-08T12:00:00,1384A,113.0731,22.5835,江门市,西区,,25,25,52,10,28,63,46,28,28,21,64,5,9,0.6,0.9
2023-02-08T12:00:00,1385A,113.0219,22.5311,江门市,圭峰西,,18,12,49,4,30,56,56,47,47,20,63,4,5,0.7,1.1
2023-02-08T12:00:00,1386A,113.0828,22.5947,江门市,东湖,,,18,60,7,29,63,56,33,33,,58,8,8,0.6,0.9
2023-02-08T12:00:00,1387A,113.7875,23.0457,东莞市,东城主山,,,,,,,,,,,,,,,,
2023-02-08T12:00:00,1388A,113.7533,23.0202,东莞市,南城元岭,,,,,,,,,,,,,,,,
2023-02-08T12:00:00,1389A,113.7547,23.0494,东莞市,莞城梨川,,21,19,48,11,30,117,67,57,57,23,32,7,8,0.7,0.9
2023-02-08T12:00:00,1390A,113.7944,23.0128,东莞市,东城石井,,22,19,38,11,25,120,68,55,55,20,26,7,7,0.5,0.6
2023-02-08T12:00:00,1391A,113.7383,22.9658,东莞市,南城西平,,33,33,45,8,20,103,60,53,53,21,39,10,10,0.5,0.7
2023-02-08T12:00:00,1392A,114.4183,23.0528,惠州市,河南岸金山湖子站,,19,14,32,13,19,82,53,60,49,9,17,4,4,0.7,0.7
2023-02-08T12:00:00,1393A,114.4053,23.0822,惠州市,下埔横江三路子站,,,,29,,18,92,62,66,56,,19,4,3,,0.7
2023-02-08T12:00:00,1394A,114.4103,23.1142,惠州市,江北云山西路子站,,25,14,27,17,22,89,65,70,59,7,11,5,4,0.7,0.7
2023-02-08T12:00:00,1395A,114.4645,22.7833,惠州市,惠阳区承修路船湖子站,,29,29,24,14,19,110,52,70,55,19,11,4,4,0.7,0.6
2023-02-08T12:00:00,1396A,114.5317,22.7422,惠州市,大亚湾管委会子站,,33,33,26,16,17,112,51,74,54,21,19,5,4,0.5,0.5
2023-02-08T12:00:00,1397A,112.4267,23.0706,肇庆市,睦岗子站,,44,44,43,15,22,49,31,18,14,32,39,10,9,0.6,0.7
2023-02-08T12:00:00,1398A,112.4645,23.0475,肇庆市,城中子站,颗粒物(PM10),51,52,53,25,36,53,26,12,12,27,35,8,8,1.2,0.9
2023-02-08T12:00:00,1399A,112.5544,23.1522,肇庆市,坑口子站,颗粒物(PM10),51,52,56,27,33,25,15,8,8,27,35,12,11,0.7,0.6
2023-02-08T12:00:00,1400A,112.4753,23.1,肇庆市,七星岩子站,,36,36,32,19,20,16,14,9,9,21,27,8,7,1.0,1
2023-02-08T12:00:00,1401A,108.3103,22.7881,南宁市,二十一中,,17,17,13,8,7,19,8,14,9,20,19,6,5,1.1,1.1
2023-02-08T12:00:00,1402A,108.3141,22.8528,南宁市,北湖,,20,20,15,14,9,16,7,12,7,17,18,6,6,1.2,1.2
2023-02-08T12:00:00,1403A,108.3206,22.8225,南宁市,市监测站,,20,20,12,8,9,18,11,12,8,21,23,6,6,1.1,1.1
2023-02-08T12:00:00,1404A,108.3829,22.8037,南宁市,大自然花园,,12,8,10,7,7,20,8,12,8,16,17,5,5,1.2,1.2
2023-02-08T12:00:00,1405A,108.4394,22.7904,南宁市,仙葫,,12,10,10,8,8,21,7,16,9,17,15,6,6,1.1,1.1
2023-02-08T12:00:00,1406A,108.2397,22.8467,南宁市,区农职院,,14,14,16,4,7,12,4,5,5,22,22,7,6,1.2,1.1
2023-02-08T12:00:00,1407A,108.3275,22.735,南宁市,英华嘉园,,13,8,13,7,9,18,6,7,6,21,19,5,5,1.3,1.2
2023-02-08T12:00:00,1408A,108.2257,22.7757,南宁市,沙井镇街道办,,16,16,15,9,12,6,0,1,1,27,28,6,6,1.1,1
2023-02-08T12:00:00,1409A,110.576,19.9507,海口市,东寨港,,,31,22,15,6,30,30,25,20,,,8,8,0.5,0.5
2023-02-08T12:00:00,1410A,110.3232,20.0574,海口市,海南大学,,21,21,21,12,8,63,50,52,42,12,21,5,5,0.5,0.5
2023-02-08T12:00:00,1411A,110.283,20.0053,海口市,秀英海南医院,,28,28,20,8,9,49,47,48,39,10,10,6,6,0.4,0.4
2023-02-08T12:00:00,1412A,110.338,19.9969,海口市,海南师范大学,,,22,22,8,8,48,48,46,40,4,6,,3,0.6,0.6
2023-02-08T12:00:00,1413A,110.33,20.0356,海口市,龙华路环保局宿舍,,23,23,22,7,7,53,45,43,38,9,9,5,5,0.6,0.6
2023-02-08T12:00:00,1414A,106.3787,29.8279,重庆市,缙云山,,,,75,,54,74,36,68,38,35,34,3,2,1.0,0.8
2023-02-08T12:00:00,1416A,106.4213,29.8253,重庆市,天生,细颗粒物(PM2.5),143,155,193,109,152,6,6,3,3,52,56,15,16,1.6,1.4
2023-02-08T12:00:00,1417A,106.6263,29.7228,重庆市,两路,细颗粒物(PM2.5),118,114,109,89,83,39,24,39,13,44,48,13,11,1.3,1.1
2023-02-08T12:00:00,1418A,106.2953,29.5983,重庆市,虎溪,细颗粒物(PM2.5),199,157,149,149,145,7,6,4,4,59,69,12,8,1.6,1.6
2023-02-08T12:00:00,1419A,106.5777,29.5102,重庆市,南坪,细颗粒物(PM2.5),110,86,113,83,90,39,39,28,28,34,52,12,12,1.1,1.2
2023-02-08T12:00:00,1420A,106.6556,29.6277,重庆市,唐家沱,细颗粒物(PM2.5),114,105,114,86,92,30,30,14,11,49,62,11,8,1.1,0.9
2023-02-08T12:00:00,1421A,106.6349,29.4906,重庆市,茶园,细颗粒物(PM2.5),142,132,142,108,102,18,18,10,10,48,62,8,9,0.5,0.6
2023-02-08T12:00:00,1422A,106.3754,29.4572,重庆市,白市驿,细颗粒物(PM2.5),148,219,163,113,119,13,,4,4,71,76,12,18,1.5,1.4
2023-02-08T12:00:00,1425A,106.6205,29.7166,重庆市,空港,细颗粒物(PM2.5),137,103,105,104,90,47,30,46,17,51,53,9,8,1.1,1
2023-02-08T12:00:00,1426A,106.4782,29.4875,重庆市,新山村,细颗粒物(PM2.5),144,144,141,110,101,11,11,6,6,61,82,14,13,0.8,1
2023-02-08T12:00:00,1427A,106.5616,29.6453,重庆市,礼嘉,,,121,143,68,79,42,14,42,6,,69,,9,1.0,1
2023-02-08T12:00:00,1428A,106.4522,29.7091,重庆市,蔡家,细颗粒物(PM2.5),117,112,126,88,92,20,20,8,8,47,58,8,7,1.3,1.3
2023-02-08T12:00:00,1429A,106.5093,29.3917,重庆市,鱼新街,细颗粒物(PM2.5),140,142,127,107,106,33,11,8,7,55,62,12,13,1.3,1.4
2023-02-08T12:00:00,1431A,103.9728,30.7236,成都市,金泉两河,细颗粒物(PM2.5),69,68,110,50,90,74,41,59,27,24,33,3,2,0.7,0.8
2023-02-08T12:00:00,1432A,104.176,30.6872,成都市,十里店,细颗粒物(PM2.5),99,91,128,74,108,66,40,41,40,21,39,3,3,0.9,1.1
2023-02-08T12:00:00,1433A,104.079,30.5706,成都市,三瓦窑,细颗粒物(PM2.5),89,87,120,66,105,78,13,47,35,40,34,2,3,0.8,0.7
2023-02-08T12:00:00,1434A,104.1114,30.63,成都市,沙河铺,细颗粒物(PM2.5),104,88,121,78,111,55,24,42,33,35,37,3,3,0.8,0.8
2023-02-08T12:00:00,1435A,104.074,30.685,成都市,梁家巷,,,,,,,,,,,,,,,,
2023-02-08T12:00:00,1436A,104.026,30.6544,成都市,草堂寺,,,,,,,,,,,,,,,,
2023-02-08T12:00:00,1437A,104.0786,30.6531,成都市,君平街,细颗粒物(PM2.5),97,83,118,72,111,89,23,60,46,44,38,2,2,0.9,0.8
2023-02-08T12:00:00,1438A,103.613,31.0283,成都市,灵岩寺,颗粒物(PM10),52,53,50,14,32,78,51,65,56,14,14,7,4,0.7,0.6
2023-02-08T12:00:00,1439A,106.6899,26.5998,贵阳市,马鞍山,,10,5,13,7,12,61,20,29,23,15,12,5,5,0.9,0.8
2023-02-08T12:00:00,1440A,106.6971,26.5694,贵阳市,市环保站,,10,7,15,7,15,56,17,34,21,20,16,4,5,0.7,0.6
2023-02-08T12:00:00,1441A,106.6243,26.6266,贵阳市,鉴湖路,,14,14,20,0,9,56,13,29,18,20,14,5,3,0.7,0.6
2023-02-08T12:00:00,1442A,106.7487,26.6343,贵阳市,燕子冲,,25,7,20,17,20,61,25,30,24,10,8,4,5,0.8,0.6
2023-02-08T12:00:00,1443A,106.6555,26.4365,贵阳市,碧云窝,,,,37,,20,41,13,27,17,20,20,20,13,,0.9
2023-02-08T12:00:00,1444A,106.694,26.5161,贵阳市,中院村,,19,19,35,5,17,45,14,29,18,23,22,12,10,0.8,0.7
2023-02-08T12:00:00,1445A,106.7109,26.6027,贵阳市,红边门,,20,12,17,14,16,46,17,26,18,16,14,8,8,0.9,0.7
2023-02-08T12:00:00,1446A,106.7164,26.5699,贵阳市,新华路,,12,12,23,5,14,58,21,35,24,14,11,5,5,0.7,0.6
2023-02-08T12:00:00,1447A,106.674,26.5424,贵阳市,太慈桥,,14,14,30,5,13,53,18,29,20,22,20,3,4,0.8,0.6
2023-02-08T12:00:00,1450A,102.8204,24.8886,昆明市,呈贡新区,细颗粒物(PM2.5),62,55,54,44,46,135,126,85,85,10,15,8,9,0.7,0.7
2023-02-08T12:00:00,1451A,102.6251,24.9608,昆明市,西山森林公园,细颗粒物(PM2.5),65,64,67,47,50,143,122,99,99,16,14,9,12,0.8,0.8
2023-02-08T12:00:00,1452A,102.7252,25.0902,昆明市,龙泉镇,细颗粒物(PM2.5),78,55,76,57,60,133,117,34,34,17,38,7,7,0.8,0.8
2023-02-08T12:00:00,1453A,102.7266,25.0375,昆明市,东风东路,细颗粒物(PM2.5),80,73,73,59,59,136,115,86,58,19,23,11,11,0.7,0.7
2023-02-08T12:00:00,1454A,102.6742,25.0669,昆明市,金鼎山,细颗粒物(PM2.5),80,66,84,59,68,135,119,42,39,16,34,3,13,0.7,0.8
2023-02-08T12:00:00,1455A,102.6644,25.0401,昆明市,碧鸡广场,,,75,76,56,59,122,112,61,59,22,30,,6,0.7,0.7
2023-02-08T12:00:00,1456A,91.1319,29.6514,拉萨市,八廓街,,50,50,32,25,11,107,88,88,78,13,14,6,6,0.6,0.5
2023-02-08T12:00:00,1457A,91.1221,29.6747,拉萨市,市环保局,,28,28,25,11,8,111,88,84,76,12,12,6,7,0.5,0.5
2023-02-08T12:00:00,1458A,91.0874,29.6475,拉萨市,区监测站,,28,27,25,12,8,113,89,93,80,14,11,6,6,0.6,0.5
2023-02-08T12:00:00,1459A,91.1774,29.6541,拉萨市,西藏大学,,30,23,24,10,20,111,94,88,81,7,9,5,5,0.3,0.3
2023-02-08T12:00:00,1460A,90.9798,29.6588,拉萨市,区辐射站,,35,35,26,22,12,109,89,89,66,19,20,6,6,0.5,0.5
2023-02-08T12:00:00,1461A,91.0834,29.6292,拉萨市,拉萨火车站,,42,42,26,14,5,109,72,74,64,24,14,9,9,0.4,0.4
2023-02-08T12:00:00,1462A,108.882,34.2749,西安市,高压开关厂,细颗粒物(PM2.5),269,290,330,219,244,100,40,23,23,49,93,13,16,1.7,1.8
2023-02-08T12:00:00,1463A,108.993,34.2629,西安市,兴庆小区,细颗粒物(PM2.5),257,251,267,207,248,104,39,17,17,43,78,12,15,1.9,2.2
2023-02-08T12:00:00,1464A,109.06,34.2572,西安市,纺织城,细颗粒物(PM2.5),275,272,301,225,250,96,28,10,10,55,85,14,16,1.7,1.8
2023-02-08T12:00:00,1465A,108.9356,34.2173,西安市,小寨,细颗粒物(PM2.5),280,295,348,230,273,74,,14,14,56,106,,15,1.5,1.7
2023-02-08T12:00:00,1466A,108.954,34.2713,西安市,市人民体育场,细颗粒物(PM2.5),271,262,277,221,233,98,38,21,21,49,85,13,15,1.7,1.8
2023-02-08T12:00:00,1467A,108.8922,34.2322,西安市,高新西区,细颗粒物(PM2.5),280,276,339,230,283,92,36,20,20,48,100,13,15,1.8,2
2023-02-08T12:00:00,1468A,108.935,34.3474,西安市,经开区,细颗粒物(PM2.5),271,228,231,221,233,106,48,46,37,36,58,13,17,1.6,1.6
2023-02-08T12:00:00,1469A,108.906,34.1546,西安市,长安区,细颗粒物(PM2.5),370,398,365,320,297,77,9,7,7,103,99,11,13,2.2,2.1
2023-02-08T12:00:00,1470A,109.2,34.6575,西安市,阎良区,,,,,,,,,,,,,,,,
2023-02-08T12:00:00,1471A,109.2186,34.3731,西安市,临潼区,细颗粒物(PM2.5),290,304,277,240,232,102,32,37,33,45,57,14,17,1.6,1.6
2023-02-08T12:00:00,1472A,108.869,34.378,西安市,草滩,细颗粒物(PM2.5),163,231,251,124,137,100,45,35,35,31,58,12,15,0.6,0.5
2023-02-08T12:00:00,1473A,108.985,34.1978,西安市,曲江文化产业集团,细颗粒物(PM2.5),287,345,353,237,271,98,24,10,10,62,105,12,13,2.3,2.3
2023-02-08T12:00:00,1474A,109.051,34.3213,西安市,广运潭,细颗粒物(PM2.5),263,266,287,213,234,116,40,15,15,33,70,11,15,1.7,1.7
2023-02-08T12:00:00,1476A,103.631,36.1031,兰州市,兰炼宾馆,细颗粒物(PM2.5),74,69,100,54,57,132,80,65,62,21,55,14,21,0.5,1.1
2023-02-08T12:00:00,1477A,104.1373,35.9454,兰州市,榆中兰大校区,,,,,,,,,,,,,,,,
2023-02-08T12:00:00,1478A,103.8412,36.0726,兰州市,生物制品所,细颗粒物(PM2.5),68,59,92,49,51,84,62,76,65,30,55,3,15,0.7,1.1
2023-02-08T12:00:00,1479A,103.831,36.0464,兰州市,铁路设计院,细颗粒物(PM2.5),77,82,97,56,66,84,60,82,55,36,64,8,21,1.1,1.6
2023-02-08T12:00:00,1480A,101.748,36.6428,西宁市,市环境监测站,,,,,,,,,,,,,,,,
2023-02-08T12:00:00,1482A,101.834,36.5819,西宁市,四陆医院,,,,,,,,,,,,,,,,
2023-02-08T12:00:00,1483A,101.524,36.6867,西宁市,第五水厂,,,,,,,,,,,,,,,,
2023-02-08T12:00:00,1484A,105.9512,38.6016,银川市,贺兰山马莲口,,35,35,38,20,17,105,64,92,75,30,22,28,24,0.8,0.7
2023-02-08T12:00:00,1488A,106.2328,38.4975,银川市,贺兰山东路,颗粒物(PM10),54,58,76,32,37,114,52,68,59,29,30,9,15,0.8,0.9
2023-02-08T12:00:00,1489A,106.1358,38.5036,银川市,学院路,颗粒物(PM10),53,55,79,26,40,110,52,56,41,28,34,12,23,0.9,1.4
2023-02-08T12:00:00,1490A,87.5801,43.8303,乌鲁木齐市,监测站,细颗粒物(PM2.5),117,134,213,88,143,59,22,45,41,74,88,3,3,1.9,1.8
2023-02-08T12:00:00,1491A,87.6046,43.768,乌鲁木齐市,收费所,细颗粒物(PM2.5),137,172,254,104,147,58,32,34,34,59,91,5,5,1.9,1.9
2023-02-08T12:00:00,1492A,87.4754,43.9469,乌鲁木齐市,新疆农科院农场,细颗粒物(PM2.5),155,81,102,118,151,112,49,76,64,46,35,7,8,2.0,2
2023-02-08T12:00:00,1493A,87.5525,43.8711,乌鲁木齐市,铁路局,细颗粒物(PM2.5),102,91,187,76,155,90,52,61,59,44,63,2,3,1.8,2
2023-02-08T12:00:00,1494A,87.6432,43.831,乌鲁木齐市,三十一中学,,,114,186,,147,55,49,51,51,40,61,5,6,1.8,1.8
2023-02-08T12:00:00,1496A,87.7216,44.1747,乌鲁木齐市,米东区环保局,,50,50,104,22,59,116,91,96,95,9,16,6,7,0.6,1
2023-02-08T12:00:00,1508A,112.9433,27.8614,湘潭市,板塘,细颗粒物(PM2.5),60,36,102,43,114,22,18,14,14,30,34,3,3,0.8,0.8
2023-02-08T12:00:00,1511A,112.9118,27.8403,湘潭市,市监测站,细颗粒物(PM2.5),73,44,107,53,133,23,18,14,14,27,28,5,5,1.0,1
2023-02-08T12:00:00,1512A,112.8937,27.8728,湘潭市,江麓,细颗粒物(PM2.5),57,32,119,40,116,30,28,25,25,27,29,2,5,0.6,0.8
2023-02-08T12:00:00,1513A,112.9227,27.8159,湘潭市,岳塘,细颗粒物(PM2.5),67,28,101,48,116,28,24,18,18,36,39,8,9,1.0,1
2023-02-08T12:00:00,1514A,112.9074,27.9119,湘潭市,科大,,,,117,,118,28,26,20,20,30,35,,12,1.1,1.1
2023-02-08T12:00:00,1515A,113.135,27.8244,株洲市,天台山庄,细颗粒物(PM2.5),62,59,88,44,84,14,13,8,8,35,35,4,4,1.3,1.3
2023-02-08T12:00:00,1518A,113.095,27.8867,株洲市,株冶医院,,42,39,85,29,83,20,20,10,10,31,38,2,2,1.0,1.1
2023-02-08T12:00:00,1519A,113.167,27.8667,株洲市,市四中,细颗粒物(PM2.5),59,27,75,42,91,15,13,6,6,30,37,6,6,1.2,1.2
2023-02-08T12:00:00,1520A,113.143,27.8381,株洲市,火车站,细颗粒物(PM2.5),59,48,90,42,92,13,12,7,7,40,42,4,4,1.4,1.3
2023-02-08T12:00:00,1524A,113.13,27.8528,株洲市,市监测站,细颗粒物(PM2.5),68,46,88,49,99,14,14,9,9,38,40,8,6,1.0,0.9
2023-02-08T12:00:00,1552A,106.805,26.3003,贵阳市,桐木岭,,,,,,,,,,,,,,,,
2023-02-08T12:00:00,1559A,113.251,27.8336,株洲市,大京风景区,,46,27,50,32,59,18,18,9,9,18,28,3,3,1.0,1
2023-02-08T12:00:00,1562A,113.0048,27.9153,湘潭市,昭山,细颗粒物(PM2.5),80,61,119,59,105,18,14,9,9,28,31,1,1,0.8,0.7
2023-02-08T12:00:00,1564A,112.4876,27.9164,湘潭市,韶山,,26,12,90,18,84,48,36,40,39,17,23,5,6,1.0,0.9
2023-02-08T12:00:00,1585A,109.8756,40.6532,包头市,市环境监测站,,,86,37,44,18,80,,41,20,35,25,64,16,1.5,0.8
2023-02-08T12:00:00,1587A,109.9991,40.5842,包头市,包头八中,颗粒物(PM10),71,91,67,36,23,91,36,38,12,38,39,115,28,1.7,1.1
2023-02-08T12:00:00,1588A,109.8538,40.6821,包头市,青山宾馆,颗粒物(PM10),54,57,33,35,16,97,43,54,29,39,23,38,11,1.6,0.9
2023-02-08T12:00:00,1589A,109.8642,40.6288,包头市,惠龙物流,颗粒物(PM10),58,65,49,39,20,97,45,47,23,34,30,70,17,1.2,0.6
2023-02-08T12:00:00,1590A,110.0377,40.5546,包头市,东河鸿龙湾,,45,45,59,19,19,90,51,28,19,22,35,32,16,0.7,0.8
2023-02-08T12:00:00,1591A,110.0023,39.8129,鄂尔多斯市,综合楼,颗粒物(PM10),106,161,76,24,16,98,38,50,21,41,47,16,12,0.8,0.7
2023-02-08T12:00:00,1592A,109.9486,39.8261,鄂尔多斯市,巴音孟克林场办事处,颗粒物(PM10),70,90,59,17,17,100,39,38,38,35,37,14,11,0.7,0.6
2023-02-08T12:00:00,1593A,109.7736,39.5986,鄂尔多斯市,康泽苑,颗粒物(PM10),57,63,52,7,13,102,56,33,33,32,29,10,8,0.6,0.7
2023-02-08T12:00:00,1594A,109.8119,39.5989,鄂尔多斯市,华泰汽车城,颗粒物(PM10),53,56,52,19,20,105,53,21,21,33,36,13,9,0.6,0.7
2023-02-08T12:00:00,1595A,109.9734,39.7884,鄂尔多斯市,奥林花园,颗粒物(PM10),79,107,63,22,16,101,37,47,35,44,34,13,9,0.7,0.6
2023-02-08T12:00:00,1596A,122.2414,40.6592,营口市,学府南路,,,,,,,,,,,,,,,,
2023-02-08T12:00:00,1597A,122.2703,40.7094,营口市,大庆路,颗粒物(PM10),51,51,119,29,100,79,71,28,28,19,46,13,18,0.5,1.4
2023-02-08T12:00:00,1598A,122.2150,40.6511,营口市,镜湖西路,颗粒物(PM10),62,74,105,33,64,80,73,35,35,23,35,16,21,0.9,1
2023-02-08T12:00:00,1599A,122.1658,40.6789,营口市,西炮台,,50,50,108,29,79,94,79,32,32,25,49,13,21,0.5,0.9
2023-02-08T12:00:00,1600A,124.3303,40.0625,丹东市,江湾东路,,25,20,45,9,25,87,79,56,56,8,25,12,18,0.6,0.9
2023-02-08T12:00:00,1601A,124.4256,40.1503,丹东市,临江后街,,25,18,41,8,24,83,78,57,57,8,27,8,17,0.4,0.7
2023-02-08T12:00:00,1602A,124.3933,40.1461,丹东市,元宝山,,25,25,38,10,22,74,74,52,52,6,20,12,19,0.6,0.9
2023-02-08T12:00:00,1603A,124.3633,40.1092,丹东市,民主桥,,24,24,43,11,25,78,68,48,48,14,29,10,14,0.7,1.1
2023-02-08T12:00:00,1604A,122.0303,41.1489,盘锦市,开发区,,,32,81,8,58,76,76,22,22,,38,8,14,0.3,1.2
2023-02-08T12:00:00,1605A,122.0485,41.0883,盘锦市,兴隆台,,27,27,76,13,54,68,66,19,19,16,40,11,14,0.5,1
2023-02-08T12:00:00,1606A,121.8297,41.1028,盘锦市,新生街道,,40,40,92,18,50,71,70,28,28,20,44,12,13,0.6,0.9
2023-02-08T12:00:00,1607A,120.9092,40.7136,葫芦岛市,龙港区,细颗粒物(PM2.5),98,122,95,73,73,70,42,24,24,55,46,340,52,1.3,1
2023-02-08T12:00:00,1608A,120.8392,40.7514,葫芦岛市,化工街,,46,46,107,28,65,67,67,26,26,24,57,9,48,0.4,1
2023-02-08T12:00:00,1609A,120.8341,40.7073,葫芦岛市,新区,细颗粒物(PM2.5),88,80,87,65,66,70,50,26,26,48,55,162,45,1.6,1.4
2023-02-08T12:00:00,1610A,120.8695,40.7677,葫芦岛市,东城区,,47,47,82,8,56,75,75,27,27,10,41,11,31,0.4,1
2023-02-08T12:00:00,1611A,118.5819,24.9117,泉州市,涂山街,,,17,16,11,16,86,68,69,57,14,16,,9,0.5,0.6
2023-02-08T12:00:00,1612A,118.5972,24.8978,泉州市,津头埔,,23,18,16,7,15,85,72,70,58,17,20,9,9,0.6,0.6
2023-02-08T12:00:00,1613A,118.6663,24.9424,泉州市,万安,,24,17,17,9,15,89,76,76,63,10,14,8,8,0.5,0.6
2023-02-08T12:00:00,1614A,118.6117,24.9604,泉州市,清源山,,,,,,,,,,,,,,,,
2023-02-08T12:00:00,1616A,117.6795,36.229,济南市,技术学院,细颗粒物(PM2.5),125,129,247,95,191,117,97,36,36,31,72,8,15,1.2,1.8
2023-02-08T12:00:00,1618A,118.3429,35.0532,临沂市,沂河小区,细颗粒物(PM2.5),224,197,135,174,117,88,37,26,26,28,30,5,8,1.5,1.1
2023-02-08T12:00:00,1619A,118.295,35.0583,临沂市,鲁南制药厂,细颗粒物(PM2.5),209,207,143,159,110,94,59,29,29,41,50,15,17,1.1,0.8
2023-02-08T12:00:00,1620A,118.2794,34.9976,临沂市,新光毛纺厂,细颗粒物(PM2.5),207,188,148,157,111,93,47,25,25,32,39,7,9,1.4,1
2023-02-08T12:00:00,1621A,118.3956,35.0888,临沂市,河东保险公司,细颗粒物(PM2.5),222,215,128,172,103,94,43,26,26,40,43,8,8,1.6,1.2
2023-02-08T12:00:00,1622A,116.3032,37.4674,德州市,儿童乐园,颗粒物(PM10),59,68,112,36,72,88,70,22,22,13,42,13,15,0.7,0.8
2023-02-08T12:00:00,1624A,116.2991,37.4451,德州市,监理站,颗粒物(PM10),61,72,117,41,82,96,71,34,26,18,44,15,16,0.8,0.9
2023-02-08T12:00:00,1625A,115.9848,36.4372,聊城市,区政府,细颗粒物(PM2.5),100,118,206,75,139,79,65,55,28,30,54,21,18,0.8,1.1
2023-02-08T12:00:00,1628A,118.0062,37.3803,滨州市,市环保局,颗粒物(PM10),59,67,169,35,120,81,78,32,32,20,47,9,9,0.5,1
2023-02-08T12:00:00,1629A,118.0018,37.3617,滨州市,第二水厂,颗粒物(PM10),54,58,161,31,117,78,78,31,31,21,52,9,7,0.6,1.2
2023-02-08T12:00:00,1630A,117.9776,37.393,滨州市,北中新校,颗粒物(PM10),60,69,168,31,115,80,80,32,32,21,50,10,10,0.3,0.9
2023-02-08T12:00:00,1631A,118.0414,36.8103,淄博市,人民公园,,,75,225,55,184,70,57,21,21,35,69,,8,0.6,1.3
2023-02-08T12:00:00,1632A,118.0253,36.8406,淄博市,东风化工厂,,,,,,,,,,,,,,,,
2023-02-08T12:00:00,1633A,117.8525,36.4847,淄博市,双山,细颗粒物(PM2.5),180,168,281,136,221,86,63,17,17,55,77,10,17,,1.6
2023-02-08T12:00:00,1634A,117.9592,36.6331,淄博市,气象站,颗粒物(PM10),65,79,299,44,211,75,75,20,20,25,74,16,24,0.8,1.6
2023-02-08T12:00:00,1635A,118.3092,36.8194,淄博市,莆田园,细颗粒物(PM2.5),67,61,180,48,155,59,59,17,17,26,51,9,8,0.6,1.2
2023-02-08T12:00:00,1636A,117.8661,36.805,淄博市,三金集团,,,,,,,,,,,,,,,,
2023-02-08T12:00:00,1637A,117.558,34.8438,枣庄市,市中区政府,细颗粒物(PM2.5),230,246,178,180,116,103,53,23,19,44,55,14,18,1.2,0.9
2023-02-08T12:00:00,1638A,117.2852,34.7837,枣庄市,薛城环保局,细颗粒物(PM2.5),225,225,142,175,98,106,37,29,23,54,59,10,12,1.5,1.1
2023-02-08T12:00:00,1639A,117.5852,34.7745,枣庄市,峄城区政府,细颗粒物(PM2.5),233,251,170,183,114,113,41,21,20,47,51,11,14,1.3,0.9
2023-02-08T12:00:00,1640A,117.7276,34.5578,枣庄市,台儿庄区环保局,细颗粒物(PM2.5),153,156,140,117,97,103,30,20,17,46,60,7,10,2.0,1.2
2023-02-08T12:00:00,1641A,117.4518,35.0992,枣庄市,山亭区环保局,细颗粒物(PM2.5),189,193,157,142,114,117,96,54,54,42,41,12,18,1.2,1.1
2023-02-08T12:00:00,1642A,121.2514,37.5639,烟台市,开发区,,29,29,23,19,15,74,63,48,48,13,30,16,14,0.9,0.8
2023-02-08T12:00:00,1643A,121.3719,37.5433,烟台市,轴承厂,,,,18,,3,83,,75,,,8,,3,,0.3
2023-02-08T12:00:00,1644A,121.3181,37.5436,烟台市,西郊化工站,,34,34,37,15,15,83,79,43,43,8,32,12,9,0.7,0.7
2023-02-08T12:00:00,1645A,121.4478,37.4822,烟台市,莱山环保局,,29,29,19,20,11,85,77,67,63,8,14,12,9,0.8,0.7
2023-02-08T12:00:00,1646A,121.2611,37.4967,烟台市,福山环保局,,39,39,45,14,25,69,69,26,26,13,37,10,9,0.4,0.9
2023-02-08T12:00:00,1648A,119.12,36.7019,潍坊市,仲裁委,,,,,,,,,,,,,,,,
2023-02-08T12:00:00,1650A,119.1437,36.7023,潍坊市,环保局,颗粒物(PM10),53,56,122,30,105,73,73,35,35,20,46,10,4,0.7,1.2
2023-02-08T12:00:00,1652A,119.1936,36.7729,潍坊市,寒亭监测站,,,,,,,,,,,,,,,,
2023-02-08T12:00:00,1653A,116.6251,35.4302,济宁市,火炬城,细颗粒物(PM2.5),294,307,253,244,215,98,43,32,16,66,64,17,16,1.6,1.5
2023-02-08T12:00:00,1655A,116.5491,35.4042,济宁市,电化厂,细颗粒物(PM2.5),299,311,263,249,220,82,27,39,13,66,58,13,13,1.7,1.5
2023-02-08T12:00:00,1656A,117.1437,36.1937,泰安市,监测站,细颗粒物(PM2.5),205,207,248,155,204,120,97,47,47,40,65,10,12,1.4,1.5
2023-02-08T12:00:00,1657A,117.0885,36.2017,泰安市,人口学校,细颗粒物(PM2.5),204,219,230,154,182,120,98,54,54,45,61,11,11,1.4,1.4
2023-02-08T12:00:00,1658A,117.1089,36.1758,泰安市,电力学校,细颗粒物(PM2.5),196,200,242,147,206,123,97,42,42,33,61,18,19,1.4,1.6
2023-02-08T12:00:00,1659A,119.471,35.4209,日照市,监测站,细颗粒物(PM2.5),182,168,141,137,104,78,55,55,30,49,48,10,9,1.2,1.2
2023-02-08T12:00:00,1660A,119.523,35.4216,日照市,市政府广场,细颗粒物(PM2.5),180,171,139,136,105,75,56,60,38,40,31,7,5,1.4,1.3
2023-02-08T12:00:00,1661A,119.5587,35.4044,日照市,港务局,细颗粒物(PM2.5),188,175,147,141,111,74,54,56,40,46,36,8,5,1.4,1.2
2023-02-08T12:00:00,1662A,122.1214,37.4236,威海市,华夏技校,,36,36,25,17,16,81,79,65,65,10,23,4,2,0.5,0.5
2023-02-08T12:00:00,1663A,122.0508,37.5236,威海市,山大分校,,37,37,23,17,11,84,77,67,67,8,11,3,2,0.3,0.3
2023-02-08T12:00:00,1664A,122.1067,37.5072,威海市,市监测站,,34,34,22,20,11,80,80,65,65,10,20,7,5,0.5,0.4
2023-02-08T12:00:00,1665A,118.5019,37.4658,东营市,西城阳光环保公司,,,,,,,,,,,,,,,,
2023-02-08T12:00:00,1666A,118.6614,37.4309,东营市,市环保局,细颗粒物(PM2.5),83,83,126,61,102,82,82,54,54,18,28,13,8,0.7,1
2023-02-08T12:00:00,1669A,113.5824,24.7733,韶关市,市八中,,25,21,20,17,14,18,13,11,11,16,16,8,8,0.9,0.9
2023-02-08T12:00:00,1670A,113.5556,24.8082,韶关市,碧湖山庄,,,,,,,,,,,,,,,,
2023-02-08T12:00:00,1671A,113.5917,24.7972,韶关市,园林处,,17,17,17,11,13,21,18,13,13,11,14,8,8,0.9,1
2023-02-08T12:00:00,1672A,113.6735,24.7791,韶关市,韶关学院,,20,18,13,14,13,22,19,14,14,13,16,7,7,0.8,0.8
2023-02-08T12:00:00,1673A,113.5971,24.6863,韶关市,曲江监测站,,28,27,20,19,18,36,16,16,16,18,18,10,13,0.9,0.9
2023-02-08T12:00:00,1674A,116.6794,23.3667,汕头市,金平子站,,26,21,19,7,16,83,83,72,64,12,15,12,11,0.6,0.7
2023-02-08T12:00:00,1675A,116.7244,23.3633,汕头市,龙湖子站,,27,17,19,4,15,84,84,74,69,12,14,11,10,0.6,0.7
2023-02-08T12:00:00,1676A,116.7258,23.2775,汕头市,濠江子站,,39,39,18,10,14,87,81,75,67,13,13,10,8,0.6,0.7
2023-02-08T12:00:00,1677A,116.7519,23.4714,汕头市,澄海子站,,26,9,20,9,17,83,83,72,65,13,16,5,5,0.7,0.7
2023-02-08T12:00:00,1678A,116.6092,23.2539,汕头市,潮阳子站,,27,16,17,5,12,86,86,75,68,9,10,6,6,0.5,0.6
2023-02-08T12:00:00,1679A,116.4069,23.2533,汕头市,潮南子站,,,,,,,,,,,,,,,,
2023-02-08T12:00:00,1680A,110.3539,21.2706,湛江市,湛江影剧院,,23,23,18,12,13,76,58,76,62,10,8,5,5,0.5,0.5
2023-02-08T12:00:00,1681A,110.3928,21.2228,湛江市,市环境监测站,,29,24,17,20,13,77,60,77,60,9,9,6,6,0.5,0.5
2023-02-08T12:00:00,1682A,110.4019,21.1997,湛江市,环保局宿舍,,19,19,18,13,14,74,59,72,57,7,9,4,4,0.5,0.5
2023-02-08T12:00:00,1683A,110.4111,21.2028,湛江市,霞山游泳场,,20,17,15,14,13,79,59,77,61,9,8,5,5,0.5,0.5
2023-02-08T12:00:00,1684A,110.3316,21.2679,湛江市,麻章区环保局,,19,19,20,10,14,74,59,74,61,10,9,5,6,0.5,0.5
2023-02-08T12:00:00,1685A,110.4558,21.2567,湛江市,坡头区环保局,,25,20,16,17,15,74,60,72,60,8,8,5,5,0.5,0.5
2023-02-08T12:00:00,1686A,111.0286,21.4688,茂名市,电白南海,,22,22,23,12,11,76,66,63,54,10,13,5,6,0.5,0.5
2023-02-08T12:00:00,1687A,110.9294,21.6533,茂名市,茂石化七小,,29,29,28,19,19,66,55,42,42,7,11,4,4,0.4,0.5
2023-02-08T12:00:00,1688A,110.9107,21.6687,茂名市,健康路,,29,29,24,15,13,71,62,52,50,7,11,11,12,0.6,0.7
2023-02-08T12:00:00,1689A,110.8592,21.6828,茂名市,高岭,,,29,29,14,20,75,59,49,49,14,19,12,13,,0.6
2023-02-08T12:00:00,1690A,116.1231,24.3284,梅州市,梅江月梅,,16,6,19,6,14,62,49,32,32,5,15,6,6,0.5,0.5
2023-02-08T12:00:00,1691A,116.0797,24.2719,梅州市,梅县新城,,19,18,24,12,20,68,58,34,34,12,15,6,5,0.8,0.9
2023-02-08T12:00:00,1692A,116.1248,24.2654,梅州市,环境监控中心,,24,24,30,11,19,76,51,25,25,9,21,9,7,0.6,0.6
2023-02-08T12:00:00,1693A,115.3653,22.775,汕尾市,市环保局,,24,24,18,8,13,100,70,71,62,8,7,9,8,0.5,0.6
2023-02-08T12:00:00,1694A,115.3706,22.7898,汕尾市,市政府,,25,25,19,13,18,101,73,76,64,12,10,8,8,0.6,0.7
2023-02-08T12:00:00,1695A,115.3622,22.7925,汕尾市,新城中学,,29,29,22,13,18,98,67,72,61,9,7,6,6,0.4,0.5
2023-02-08T12:00:00,1696A,114.6778,23.7569,河源市,源西,,23,19,21,16,10,59,15,11,8,13,18,5,5,0.9,0.8
2023-02-08T12:00:00,1697A,114.6944,23.7586,河源市,东埔,,32,32,24,20,13,66,16,13,5,15,15,4,4,1.0,0.8
2023-02-08T12:00:00,1698A,114.6892,23.7233,河源市,老城,,29,25,24,20,15,72,23,13,8,12,14,4,4,1.1,0.9
2023-02-08T12:00:00,1699A,111.9797,21.8593,阳江市,鸳鸯湖,,27,27,22,13,20,91,63,46,42,4,9,4,5,0.6,0.7
2023-02-08T12:00:00,1700A,111.9508,21.8536,阳江市,南恩路,,,,,,,,,,,,,,,,
2023-02-08T12:00:00,1701A,111.9491,21.8658,阳江市,马南垌,,,,31,7,19,85,61,50,41,,14,5,5,0.6,0.7
2023-02-08T12:00:00,1702A,113.0426,23.691,清远市,环保大楼,,30,24,13,21,16,20,6,9,6,24,23,4,4,0.9,0.7
2023-02-08T12:00:00,1703A,113.0208,23.7106,清远市,凤城街办,,33,33,19,19,12,10,3,2,2,21,20,6,6,1.2,1
2023-02-08T12:00:00,1705A,116.6367,23.6719,潮州市,西园路,,,,32,,44,70,,62,46,6,13,5,4,0.8,0.9
2023-02-08T12:00:00,1706A,116.6447,23.6706,潮州市,档案局,,29,29,36,15,42,68,68,55,45,7,14,8,7,0.5,0.6
2023-02-08T12:00:00,1708A,116.3701,23.5345,揭阳市,新兴,,34,34,35,22,39,85,69,58,49,14,19,7,7,0.7,0.8
2023-02-08T12:00:00,1709A,116.3264,23.5443,揭阳市,西马,,,,41,,37,94,67,60,50,,13,,8,0.7,0.7
2023-02-08T12:00:00,1710A,116.3611,23.5626,揭阳市,东兴,,35,35,39,24,37,103,77,69,57,14,18,6,6,0.7,0.8
2023-02-08T12:00:00,1711A,116.4151,23.5294,揭阳市,渔湖,,32,32,34,17,24,84,71,62,49,8,14,8,8,0.6,0.7
2023-02-08T12:00:00,1712A,112.0392,22.9169,云浮市,新市府,,32,32,28,21,21,34,10,10,9,31,28,4,4,1.1,1
2023-02-08T12:00:00,1713A,112.0369,22.9394,云浮市,市监测站,,,,,,,,,,,,,,,,
2023-02-08T12:00:00,1714A,112.0539,22.9539,云浮市,牧羊,,46,46,40,20,26,40,11,18,10,32,28,6,6,0.8,0.8
2023-02-08T12:00:00,1715A,102.575,24.3711,玉溪市,东风水库,细颗粒物(PM2.5),62,48,38,44,27,115,94,80,54,23,12,9,6,0.9,0.6
2023-02-08T12:00:00,1718A,115.4208,35.2464,菏泽市,气象局,,,,247,,180,101,43,38,25,,58,16,16,1.4,1.3
2023-02-08T12:00:00,1719A,115.4747,35.2375,菏泽市,市政协,细颗粒物(PM2.5),234,256,250,184,177,94,35,29,28,49,60,16,17,1.4,1.2
2023-02-08T12:00:00,1720A,115.455,35.27,菏泽市,菏泽学院,,,,,,,,,,,,,,,,
2023-02-08T12:00:00,1721A,113.3819,40.1097,大同市,果树场,,,,,,,,,,,,,,,,
2023-02-08T12:00:00,1723A,113.2994,40.0758,大同市,云冈宾馆,,43,43,47,20,15,107,62,59,44,17,18,15,16,0.6,0.7
2023-02-08T12:00:00,1724A,113.3444,40.0917,大同市,大同大学,,39,39,43,11,10,100,61,57,48,15,15,13,16,0.3,0.4
2023-02-08T12:00:00,1725A,113.2661,40.1269,大同市,安家小村,颗粒物(PM10),51,51,50,24,12,104,61,60,36,20,17,14,9,0.7,0.6
2023-02-08T12:00:00,1726A,113.2711,40.0844,大同市,教育学院,,41,41,51,21,24,89,54,57,33,18,20,11,11,0.6,0.6
2023-02-08T12:00:00,1727A,113.1147,36.1547,长治市,清华站,,,54,156,,136,136,95,68,68,20,36,9,17,1.4,1.3
2023-02-08T12:00:00,1728A,113.1031,36.1989,长治市,监测站,细颗粒物(PM2.5),180,141,138,136,133,130,86,65,58,22,39,,14,,1.5
2023-02-08T12:00:00,1730A,113.0886,36.2125,长治市,审计局,细颗粒物(PM2.5),195,160,151,146,144,133,90,66,60,16,34,10,15,1.3,1.4
2023-02-08T12:00:00,1731A,113.0844,36.1856,长治市,长治八中,细颗粒物(PM2.5),178,159,166,134,123,140,96,66,66,17,33,6,13,1.3,1.3
2023-02-08T12:00:00,1733A,111.5531,36.0783,临汾市,临钢医院,细颗粒物(PM2.5),192,187,240,144,163,124,90,52,46,19,50,2,17,1.2,1.9
2023-02-08T12:00:00,1734A,111.5028,36.0714,临汾市,技工学校,细颗粒物(PM2.5),215,211,240,165,161,119,87,28,28,20,61,8,33,1.1,1.9
2023-02-08T12:00:00,1735A,111.5169,36.0822,临汾市,工商学校,,,,,,,,,,,,,,,,
2023-02-08T12:00:00,1736A,111.5018,36.0855,临汾市,市委,细颗粒物(PM2.5),208,275,248,158,155,116,94,35,30,20,61,3,30,,2.5
2023-02-08T12:00:00,1738A,113.5758,37.8572,阳泉市,市中心,细颗粒物(PM2.5),112,111,216,84,140,92,67,47,20,28,66,19,31,,1.8
2023-02-08T12:00:00,1739A,113.4894,37.8731,阳泉市,赛鱼,细颗粒物(PM2.5),105,114,183,79,134,119,71,26,25,34,56,17,17,1.1,1.5
2023-02-08T12:00:00,1740A,113.5819,37.8486,阳泉市,南庄,细颗粒物(PM2.5),98,127,213,73,140,92,69,46,21,30,54,20,30,1.1,1.6
2023-02-08T12:00:00,1741A,113.6292,37.8531,阳泉市,白羊墅,,,,,,,,,,,,,,,,
2023-02-08T12:00:00,1742A,113.5614,37.8703,阳泉市,平坦,颗粒物(PM10),113,175,228,72,146,87,73,56,18,,68,16,29,,1.9
2023-02-08T12:00:00,1743A,113.5158,37.8392,阳泉市,大阳泉,细颗粒物(PM2.5),110,109,160,83,122,122,69,71,52,33,40,16,18,1.1,1.2
2023-02-08T12:00:00,1744A,118.9233,42.2816,赤峰市,松山一中,,24,21,65,10,42,76,76,37,37,15,40,9,23,0.6,1.1
2023-02-08T12:00:00,1745A,118.9576,42.2728,赤峰市,哈达街,,43,43,60,16,35,67,67,41,41,21,33,14,26,0.6,1.1
2023-02-08T12:00:00,1746A,118.8788,42.2554,赤峰市,天义路,,38,38,48,15,27,78,78,43,38,12,33,12,21,0.4,1
2023-02-08T12:00:00,1748A,123.044,41.1196,鞍山市,深沟寺,细颗粒物(PM2.5),80,89,84,59,54,70,58,27,27,32,38,24,17,1.0,1.1
2023-02-08T12:00:00,1749A,123.011,41.0931,鞍山市,太阳城,细颗粒物(PM2.5),108,124,93,81,58,61,46,33,20,58,44,49,22,3.3,1.5
2023-02-08T12:00:00,1750A,123.0485,41.1442,鞍山市,太平,细颗粒物(PM2.5),84,98,95,62,61,64,55,22,22,36,47,24,19,0.8,1.1
2023-02-08T12:00:00,1751A,122.9642,41.0971,鞍山市,铁西三道街,,,,114,59,67,57,49,17,17,40,53,30,26,2.0,1.9
2023-02-08T12:00:00,1752A,122.9341,41.0833,鞍山市,铁西工业园区,颗粒物(PM10),58,66,133,38,86,60,59,21,21,30,59,22,23,1.0,2.1
2023-02-08T12:00:00,1753A,123.022,41.0821,鞍山市,明达新区,细颗粒物(PM2.5),105,117,93,79,61,62,,33,17,67,52,53,23,3.5,1.7
2023-02-08T12:00:00,1754A,123.1289,41.0228,鞍山市,千山,,,,,,,,,,,,,,,,
2023-02-08T12:00:00,1755A,123.7977,41.8491,抚顺市,望花区,颗粒物(PM10),82,113,88,30,51,71,41,12,12,38,35,20,14,1.2,1.2
2023-02-08T12:00:00,1756A,123.9161,41.8822,抚顺市,顺城区,,,,71,,56,83,47,13,13,,37,,8,1.3,1
2023-02-08T12:00:00,1757A,124.0436,41.8611,抚顺市,东洲区,颗粒物(PM10),87,123,80,36,47,78,54,23,23,31,28,10,7,0.7,0.6
2023-02-08T12:00:00,1758A,123.9247,41.8642,抚顺市,新抚区,颗粒物(PM10),86,122,83,50,50,75,48,17,17,39,34,21,9,1.4,0.9
2023-02-08T12:00:00,1759A,124.0972,41.8961,抚顺市,大伙房水库,颗粒物(PM10),70,90,54,49,37,91,60,36,36,36,22,14,8,1.1,0.5
2023-02-08T12:00:00,1760A,123.7086,41.8391,抚顺市,沈抚新城,"颗粒物(PM10),细颗粒物(PM2.5)",53,55,68,37,38,71,48,22,22,39,35,14,16,0.6,0.8
2023-02-08T12:00:00,1761A,123.8275,41.3064,本溪市,大峪,颗粒物(PM10),74,98,73,46,37,58,37,28,12,44,40,30,17,1.8,1.2
2023-02-08T12:00:00,1762A,123.7567,41.3325,本溪市,溪湖,颗粒物(PM10),65,80,91,26,34,74,61,21,21,21,39,13,14,0.8,0.9
2023-02-08T12:00:00,1763A,123.7169,41.3094,本溪市,彩屯,颗粒物(PM10),58,65,76,24,44,77,61,26,26,17,40,18,15,0.8,1
2023-02-08T12:00:00,1764A,123.7669,41.2864,本溪市,东明,,,100,85,40,44,65,50,14,14,36,50,33,24,,1.4
2023-02-08T12:00:00,1765A,123.7992,41.2664,本溪市,新立屯,,,,76,,50,66,46,16,16,39,49,32,18,,1.7
2023-02-08T12:00:00,1766A,123.8142,41.3472,本溪市,威宁,颗粒物(PM10),84,118,85,40,49,62,47,16,16,32,43,18,10,1.1,0.8
2023-02-08T12:00:00,1767A,121.1115,41.0879,锦州市,南山,,26,23,72,16,62,83,83,43,43,13,37,19,37,0.5,0.9
2023-02-08T12:00:00,1768A,121.0533,40.8434,锦州市,开发区,颗粒物(PM10),58,65,147,22,86,87,87,26,26,15,55,23,41,0.7,1.2
2023-02-08T12:00:00,1769A,121.1836,41.1119,锦州市,百股街道,细颗粒物(PM2.5),123,148,116,93,74,79,62,25,25,49,48,21,32,0.9,1.1
2023-02-08T12:00:00,1770A,121.1178,41.1222,锦州市,天安街道,,32,32,82,17,62,78,78,33,33,17,41,20,26,0.4,0.8
2023-02-08T12:00:00,1771A,121.1303,41.1386,锦州市,北湖公园,,,,73,,56,83,,31,31,22,40,18,21,0.7,1
2023-02-08T12:00:00,1772A,126.54,43.8622,吉林市,哈达湾,,,24,48,14,34,82,70,52,52,,26,9,11,0.5,0.8
2023-02-08T12:00:00,1773A,126.5844,43.8358,吉林市,东局子,,25,25,55,14,40,77,65,45,42,10,28,10,14,0.5,0.8
2023-02-08T12:00:00,1774A,126.5052,43.8245,吉林市,电力学院,,,23,71,17,54,79,,33,33,9,35,13,18,0.6,1.1
2023-02-08T12:00:00,1775A,126.6133,43.8972,吉林市,江北,,26,24,50,18,39,71,65,46,46,14,28,12,15,0.6,0.9
2023-02-08T12:00:00,1776A,126.555,43.8306,吉林市,江南公园,,22,18,51,15,40,78,68,46,46,13,34,9,11,0.5,0.8
2023-02-08T12:00:00,1778A,126.7061,43.7133,吉林市,丰满,,,,,,,,,,,,,,,,
2023-02-08T12:00:00,1779A,123.9305,47.3636,齐齐哈尔市,安居小区,,35,35,33,21,21,79,74,54,52,9,22,8,8,0.2,0.4
2023-02-08T12:00:00,1780A,123.9488,47.3386,齐齐哈尔市,中心广场,,21,15,28,10,12,74,66,66,59,13,17,6,7,0.3,0.4
2023-02-08T12:00:00,1781A,123.9483,47.3227,齐齐哈尔市,农牧车辆厂,,27,27,29,10,16,70,66,59,50,13,21,4,5,0.4,0.5
2023-02-08T12:00:00,1783A,123.945,47.2988,齐齐哈尔市,市环境监测站,颗粒物(PM10),52,54,34,35,24,72,60,60,41,19,21,11,10,0.4,0.5
2023-02-08T12:00:00,1784A,129.61,44.561,牡丹江市,环保大楼,,42,37,64,29,43,84,69,40,40,15,35,9,11,0.5,0.7
2023-02-08T12:00:00,1785A,129.6115,44.5782,牡丹江市,文化广场,细颗粒物(PM2.5),63,48,69,45,48,76,62,33,33,15,40,12,14,0.6,0.9
2023-02-08T12:00:00,1786A,129.5904,44.5963,牡丹江市,第一医院,颗粒物(PM10),51,51,71,31,55,76,60,30,30,20,40,11,10,0.8,1.1
2023-02-08T12:00:00,1787A,129.6364,44.6075,牡丹江市,机车工厂,,,51,81,31,49,79,64,26,26,17,38,,2,0.6,0.9
2023-02-08T12:00:00,1788A,129.6386,44.5462,牡丹江市,第一中学,,42,42,44,28,38,84,72,41,41,10,25,5,6,0.6,0.7
2023-02-08T12:00:00,1789A,124.81117,46.03138,大庆市,大同区,,33,19,45,23,34,67,65,54,54,7,17,7,9,0.4,0.6
2023-02-08T12:00:00,1790A,125.129,46.533,大庆市,龙凤区,颗粒物(PM10),53,55,43,33,29,61,55,39,38,22,25,16,7,0.8,0.8
2023-02-08T12:00:00,1791A,124.902,46.408,大庆市,红岗区,,22,22,30,10,26,72,68,50,50,9,23,12,12,0.3,0.4
2023-02-08T12:00:00,1792A,125.153,46.586,大庆市,萨尔图区,细颗粒物(PM2.5),72,68,42,52,28,60,57,38,38,24,30,12,11,0.4,0.4
2023-02-08T12:00:00,1793A,124.9042,46.6215,大庆市,让胡路区,颗粒物(PM10),52,54,34,29,26,72,71,55,55,12,24,7,5,0.2,0.3
2023-02-08T12:00:00,1794A,118.3606,31.3519,芜湖市,监测站,细颗粒物(PM2.5),120,103,64,91,54,68,68,47,47,35,43,4,5,1.0,0.9
2023-02-08T12:00:00,1795A,118.3714,31.4134,芜湖市,科创中心,细颗粒物(PM2.5),132,121,76,100,56,67,67,48,48,30,38,4,5,1.1,0.9
2023-02-08T12:00:00,1796A,118.3673,31.3131,芜湖市,四水厂,细颗粒物(PM2.5),97,65,59,72,45,68,68,45,44,33,34,6,6,0.9,0.8
2023-02-08T12:00:00,1797A,118.4022,31.3839,芜湖市,济民医院,,,,,,,,,,,,,,,,
2023-02-08T12:00:00,1798A,118.5092,31.6837,马鞍山市,湖东路四小,细颗粒物(PM2.5),110,78,49,83,48,74,62,61,61,29,30,6,6,0.9,0.7
2023-02-08T12:00:00,1799A,118.5024,31.6449,马鞍山市,开发区,,,,53,,52,70,53,61,54,33,27,8,8,1.1,0.8
2023-02-08T12:00:00,1800A,118.5228,31.7231,马鞍山市,慈湖,细颗粒物(PM2.5),112,74,55,84,55,69,66,61,59,24,30,8,7,0.9,0.7
2023-02-08T12:00:00,1801A,118.48,31.6928,马鞍山市,马钢动力厂,,,,,,,,,,,,,,,,
2023-02-08T12:00:00,1802A,118.6245,31.7241,马鞍山市,濮塘,,,95,63,61,41,63,62,53,53,,22,5,5,,0.8
2023-02-08T12:00:00,1803A,115.9872,29.6815,九江市,十里,,,,51,,45,42,27,27,27,,27,,7,,1
2023-02-08T12:00:00,1804A,115.9584,29.7046,九江市,茅山头,细颗粒物(PM2.5),89,76,51,66,45,39,28,29,26,28,27,10,9,1.1,1.2
2023-02-08T12:00:00,1805A,115.9877,29.7295,九江市,西园,细颗粒物(PM2.5),87,78,51,64,43,38,28,25,24,30,28,7,6,1.2,1.2
2023-02-08T12:00:00,1806A,116.0172,29.6547,九江市,五七二七厂,细颗粒物(PM2.5),93,70,51,69,49,43,28,30,30,21,18,6,6,1.0,1
2023-02-08T12:00:00,1808A,115.9114,29.6038,九江市,综合工业园,细颗粒物(PM2.5),104,59,47,78,55,34,23,25,25,32,30,7,7,1.0,1.1
2023-02-08T12:00:00,1809A,116.0721,29.7535,九江市,石化总厂,细颗粒物(PM2.5),77,84,57,56,36,40,26,25,24,38,33,8,8,0.9,1
2023-02-08T12:00:00,1810A,115.9773,29.5698,九江市,庐山气象台,,10,2,6,2,6,78,30,47,30,13,15,6,6,0.6,0.7
2023-02-08T12:00:00,1811A,112.3628,34.6692,洛阳市,中信二小,,,,,,,,,,,,,,,,
2023-02-08T12:00:00,1812A,112.3931,34.6516,洛阳市,市委党校,细颗粒物(PM2.5),135,181,283,103,198,80,59,41,41,25,58,14,13,0.9,1.3
2023-02-08T12:00:00,1814A,112.4657,34.6871,洛阳市,豫西宾馆,细颗粒物(PM2.5),149,184,283,114,204,78,58,39,39,27,51,17,16,1.1,1.5
2023-02-08T12:00:00,1815A,112.494,34.6886,洛阳市,河南林校,细颗粒物(PM2.5),147,174,277,112,203,75,43,29,29,29,58,12,9,0.9,1.4
2023-02-08T12:00:00,1816A,112.3844,34.623,洛阳市,开发区管委会,细颗粒物(PM2.5),144,179,272,110,201,87,70,46,46,28,59,11,11,0.8,1.2
2023-02-08T12:00:00,1817A,112.4267,34.6258,洛阳市,市委新办公区,细颗粒物(PM2.5),175,176,277,132,244,79,62,34,34,,66,10,10,0.8,1.5
2023-02-08T12:00:00,1818A,114.4839,36.0621,安阳市,棉研所,,,,,,,,,,,,,,,,
2023-02-08T12:00:00,1819A,114.3551,36.1017,安阳市,红庙街,细颗粒物(PM2.5),109,126,197,82,148,103,42,36,36,44,56,12,12,1.0,1.3
2023-02-08T12:00:00,1820A,114.361,36.0681,安阳市,银杏小区,细颗粒物(PM2.5),119,102,172,90,158,104,42,37,37,38,47,14,13,1.2,1.4
2023-02-08T12:00:00,1824A,114.3389,34.7781,开封市,肿瘤医院,细颗粒物(PM2.5),196,206,244,147,173,101,41,36,31,30,44,15,13,1.1,1
2023-02-08T12:00:00,1826A,114.2885,34.7965,开封市,世纪星幼儿园,细颗粒物(PM2.5),202,181,221,152,186,92,39,54,30,34,45,16,13,1.2,1.2
2023-02-08T12:00:00,1828A,113.227,35.2125,焦作市,市环保局,细颗粒物(PM2.5),153,172,259,117,194,93,,54,54,,42,10,14,1.1,1.5
2023-02-08T12:00:00,1829A,113.2464,35.1764,焦作市,高新区政府,,,,,,,,,,,,,,,,
2023-02-08T12:00:00,1830A,113.1992,35.2590,焦作市,影视城,,,,,,,,,,,,,,,,
2023-02-08T12:00:00,1832A,113.3257,33.742,平顶山市,新华旅馆,细颗粒物(PM2.5),206,228,227,156,167,108,47,58,37,37,49,16,13,1.0,1
2023-02-08T12:00:00,1833A,113.2919,33.737,平顶山市,规划设计院,细颗粒物(PM2.5),208,225,215,158,163,112,53,53,42,37,50,12,10,1.0,1
2023-02-08T12:00:00,1834A,113.182,33.774,平顶山市,平顶山工学院,细颗粒物(PM2.5),208,247,248,158,174,120,58,46,46,20,29,13,9,0.9,1
2023-02-08T12:00:00,1835A,111.1922,34.7752,三门峡市,市政府,细颗粒物(PM2.5),231,,228,181,221,98,53,74,60,,32,10,15,1.4,1.4
2023-02-08T12:00:00,1836A,111.1587,34.7942,三门峡市,开发区,细颗粒物(PM2.5),229,258,287,179,212,97,47,82,57,31,35,9,15,1.3,1.3
2023-02-08T12:00:00,1838A,111.143,34.7955,三门峡市,风景区,,,,,,,,,,,,,,,,
2023-02-08T12:00:00,1839A,111.3009,30.7157,宜昌市,四零三,,,,,,,,,,,,,,,,
2023-02-08T12:00:00,1840A,111.2992,30.6981,宜昌市,白龙岗,细颗粒物(PM2.5),223,185,186,173,160,100,13,22,15,40,44,4,6,1.0,1
2023-02-08T12:00:00,1841A,111.3549,30.6465,宜昌市,伍家岗,细颗粒物(PM2.5),223,187,196,173,168,101,6,14,8,48,48,8,10,1.3,1.1
2023-02-08T12:00:00,1842A,111.2628,30.6961,宜昌市,点军区,细颗粒物(PM2.5),208,163,188,158,158,92,12,18,14,28,40,5,6,1.1,1.2
2023-02-08T12:00:00,1843A,111.3275,30.7819,宜昌市,夷陵区,细颗粒物(PM2.5),225,263,167,175,159,91,,25,15,42,46,6,7,1.2,1.1
2023-02-08T12:00:00,1844A,112.2494,30.3197,荆州市,市图书馆,细颗粒物(PM2.5),124,100,131,94,128,102,28,50,26,29,29,5,6,1.0,0.9
2023-02-08T12:00:00,1845A,112.2008,30.3544,荆州市,市委党校,细颗粒物(PM2.5),122,97,131,92,132,101,29,44,24,23,29,5,6,1.0,1.1
2023-02-08T12:00:00,1847A,113.1094,29.3578,岳阳市,南湖风景区,细颗粒物(PM2.5),62,18,115,44,95,68,16,36,13,32,39,5,8,1.1,1
2023-02-08T12:00:00,1848A,113.1493,29.4251,岳阳市,城陵矶,细颗粒物(PM2.5),52,45,100,36,83,62,20,37,15,33,39,2,4,1.1,0.9
2023-02-08T12:00:00,1849A,113.1497,29.3575,岳阳市,开发区,细颗粒物(PM2.5),63,37,106,45,105,60,16,34,10,25,34,5,6,1.2,1.1
2023-02-08T12:00:00,1850A,113.2621,29.4758,岳阳市,云溪区,,48,35,94,33,72,68,22,41,13,25,31,6,7,1.2,1.2
2023-02-08T12:00:00,1851A,112.9943,29.4402,岳阳市,君山区,细颗粒物(PM2.5),72,54,99,52,94,76,15,51,15,24,24,6,6,0.7,0.6
2023-02-08T12:00:00,1852A,113.2117,29.355,岳阳市,金凤水库,细颗粒物(PM2.5),58,62,104,41,86,60,16,26,12,16,19,5,6,1.1,1
2023-02-08T12:00:00,1854A,111.6975,28.9703,常德市,市二中,细颗粒物(PM2.5),69,73,158,50,117,48,23,28,27,15,28,4,5,1.2,1.4
2023-02-08T12:00:00,1857A,111.7158,29.1456,常德市,白鹤山,细颗粒物(PM2.5),68,56,127,49,111,74,38,52,39,7,12,4,4,0.7,0.8
2023-02-08T12:00:00,1858A,110.5319,29.1217,张家界市,永定新区,细颗粒物(PM2.5),155,130,161,118,137,49,23,45,30,44,33,4,4,0.9,0.9
2023-02-08T12:00:00,1859A,110.4697,29.1242,张家界市,电业局,细颗粒物(PM2.5),129,106,144,98,132,58,41,48,42,32,32,4,4,0.9,1
2023-02-08T12:00:00,1860A,110.5594,29.3547,张家界市,未央路,细颗粒物(PM2.5),143,131,160,109,125,86,68,57,56,10,13,6,7,1.2,1.3
2023-02-08T12:00:00,1861A,110.4417,29.315,张家界市,袁家界,细颗粒物(PM2.5),58,42,120,41,106,92,77,84,79,14,16,7,8,0.9,1
2023-02-08T12:00:00,1862A,110.4144,25.3167,桂林市,电子科大尧山校区,,,,,,,,,,,,,,,,
2023-02-08T12:00:00,1863A,110.2819,25.2697,桂林市,监测站,,20,20,17,14,18,40,26,34,27,13,10,1,1,1.1,1
2023-02-08T12:00:00,1864A,110.3089,25.2708,桂林市,龙隐路小学,,26,19,16,18,17,45,22,31,26,20,13,4,4,1.1,1
2023-02-08T12:00:00,1865A,110.2869,25.2178,桂林市,八中,,28,17,16,19,17,37,18,27,20,22,17,3,3,0.9,0.8
2023-02-08T12:00:00,1866A,109.2262,21.588,北海市,牛尾岭水库,,25,25,27,17,14,46,46,30,30,8,14,6,5,0.5,0.9
2023-02-08T12:00:00,1867A,109.1436,21.4086,北海市,海滩公园,,27,27,37,12,16,71,58,53,51,5,9,4,4,0.6,0.8
2023-02-08T12:00:00,1868A,109.0981,21.4661,北海市,新市环保局,,29,29,29,9,16,53,51,38,38,12,15,1,2,0.4,0.8
2023-02-08T12:00:00,1869A,109.1778,21.5233,北海市,北海工业园,,,41,41,22,24,52,,34,34,12,16,4,5,0.5,0.8
2023-02-08T12:00:00,1870A,109.4856,24.3895,柳州市,柳东小学,,25,6,16,17,22,32,20,22,17,5,6,5,5,1.0,1
2023-02-08T12:00:00,1871A,109.4157,24.3277,柳州市,环保监测站,,18,18,16,11,13,28,14,19,12,16,16,5,4,1.0,1
2023-02-08T12:00:00,1872A,109.389,24.341,柳州市,河西水厂,,21,21,21,4,13,18,12,14,13,14,14,9,10,1.4,1.4
2023-02-08T12:00:00,1873A,109.4311,24.2921,柳州市,市四中,,16,16,19,8,12,26,16,20,14,14,14,7,7,1.1,1.1
2023-02-08T12:00:00,1874A,109.4006,24.3631,柳州市,市九中,,20,20,20,13,13,20,15,19,11,15,16,5,5,1.2,1.2
2023-02-08T12:00:00,1875A,109.4958,24.3134,柳州市,古亭山,,18,18,18,12,12,34,20,22,17,7,8,8,8,1.0,1
2023-02-08T12:00:00,1876A,109.5078,18.2489,三亚市,河东子站,,23,23,15,9,9,45,42,40,38,4,4,2,2,0.3,0.3
2023-02-08T12:00:00,1877A,109.4964,18.2681,三亚市,河西子站,,15,13,15,8,8,48,46,40,39,3,3,3,2,0.3,0.3
2023-02-08T12:00:00,1878A,104.7778,31.4741,绵阳市,富乐山,细颗粒物(PM2.5),84,73,83,62,67,99,32,68,38,13,16,3,3,0.8,0.7
2023-02-08T12:00:00,1879A,104.7563,31.4535,绵阳市,市人大,细颗粒物(PM2.5),93,76,94,69,74,79,29,79,34,17,27,6,7,0.9,0.9
2023-02-08T12:00:00,1880A,104.6697,31.4668,绵阳市,高新区自来水公司,细颗粒物(PM2.5),102,70,87,76,82,86,22,82,36,28,29,4,5,0.9,0.9
2023-02-08T12:00:00,1881A,104.7287,31.5075,绵阳市,三水厂,细颗粒物(PM2.5),100,78,95,75,75,91,26,78,31,20,24,2,3,0.8,0.8
2023-02-08T12:00:00,1882A,104.563,28.793,宜宾市,石马中学,细颗粒物(PM2.5),213,191,200,163,164,33,17,4,4,25,31,5,6,1.2,1.2
2023-02-08T12:00:00,1883A,104.6201,28.7728,宜宾市,市委,细颗粒物(PM2.5),188,168,183,141,153,32,20,29,9,41,40,8,9,1.1,1.1
2023-02-08T12:00:00,1884A,104.6055,28.793,宜宾市,宜宾四中,细颗粒物(PM2.5),206,180,199,156,172,34,29,22,8,29,40,6,7,1.1,1.2
2023-02-08T12:00:00,1885A,104.639,28.7562,宜宾市,市政府,细颗粒物(PM2.5),158,134,171,120,151,37,34,18,18,31,38,7,8,0.8,0.9
2023-02-08T12:00:00,1886A,104.5742,28.7199,宜宾市,黄金嘴,细颗粒物(PM2.5),156,134,167,119,144,38,22,20,20,34,35,6,7,1.4,1.4
2023-02-08T12:00:00,1888A,101.6891,26.571,攀枝花市,弄弄坪,细颗粒物(PM2.5),69,68,77,50,53,147,84,86,35,32,34,25,24,1.3,1.6
2023-02-08T12:00:00,1889A,101.5769,26.5928,攀枝花市,河门口,颗粒物(PM10),65,80,62,46,37,142,68,68,40,33,25,20,17,1.1,0.9
2023-02-08T12:00:00,1890A,101.7169,26.585,攀枝花市,炳草岗,颗粒物(PM10),87,123,77,60,44,147,48,75,25,75,47,58,33,3.9,1.9
2023-02-08T12:00:00,1891A,101.7369,26.5008,攀枝花市,仁和,细颗粒物(PM2.5),72,68,74,52,55,140,100,81,57,27,24,18,15,1.4,1
2023-02-08T12:00:00,1893A,105.4324,28.9634,泸州市,九狮山,细颗粒物(PM2.5),192,187,187,144,134,26,6,4,4,31,28,18,13,0.6,0.6
2023-02-08T12:00:00,1894A,105.4427,28.9063,泸州市,小市上码头,,,,233,,176,26,12,13,7,42,48,18,17,,1.6
2023-02-08T12:00:00,1895A,105.4241,28.8573,泸州市,兰田宪桥,细颗粒物(PM2.5),235,204,224,185,199,20,20,15,15,32,39,17,18,1.1,1.2
2023-02-08T12:00:00,1896A,105.4379,28.8833,泸州市,市环监站,细颗粒物(PM2.5),213,202,227,163,178,18,13,14,9,37,42,10,14,1.0,1
2023-02-08T12:00:00,1897A,104.7547,29.3628,自贡市,大塘山,,,,,,,,,,,,,,,,
2023-02-08T12:00:00,1900A,104.7692,29.3411,自贡市,春华路,,,,,,,,,,,,,,,,
2023-02-08T12:00:00,1901A,104.4239,31.1208,德阳市,东山公园,细颗粒物(PM2.5),104,88,122,78,105,95,32,44,44,27,34,2,3,1.0,1
2023-02-08T12:00:00,1902A,104.3826,31.1317,德阳市,西小区,细颗粒物(PM2.5),117,93,117,88,111,85,27,33,33,34,37,2,3,1.1,1.1
2023-02-08T12:00:00,1903A,104.4053,31.1167,德阳市,市检察院,,,,,,,,,,,,,,,,
2023-02-08T12:00:00,1904A,104.3553,31.1091,德阳市,耐火材料厂,细颗粒物(PM2.5),112,102,115,84,103,92,19,36,27,,32,2,3,1.0,1
2023-02-08T12:00:00,1905A,106.056,30.8064,南充市,西山风景区,,,,,,,,,,,,,,,,
2023-02-08T12:00:00,1906A,106.0789,30.8023,南充市,南充市委,细颗粒物(PM2.5),128,120,119,97,104,23,6,13,6,32,36,8,9,1.2,1.1
2023-02-08T12:00:00,1907A,106.1031,30.8217,南充市,南充炼油厂,细颗粒物(PM2.5),138,124,127,105,104,17,4,17,8,26,33,8,9,1.0,1
2023-02-08T12:00:00,1908A,106.1064,30.7856,南充市,高坪区监测站,细颗粒物(PM2.5),142,120,128,108,114,17,6,16,9,35,43,9,12,1.2,1.2
2023-02-08T12:00:00,1909A,106.0642,30.7636,南充市,嘉陵区环保局,细颗粒物(PM2.5),119,126,132,90,102,22,5,18,11,37,42,8,12,1.2,1
2023-02-08T12:00:00,1910A,106.1087,30.8388,南充市,市环境监测站,细颗粒物(PM2.5),133,110,124,101,102,18,8,15,11,26,35,8,8,0.9,1.1
2023-02-08T12:00:00,1911A,106.9222,27.6869,遵义市,丁字口,,33,32,34,23,29,68,66,64,64,19,17,14,11,0.9,0.9
2023-02-08T12:00:00,1912A,106.9242,27.7019,遵义市,凤凰山,,,29,34,15,25,71,60,61,61,,15,4,4,,0.8
2023-02-08T12:00:00,1913A,106.8906,27.6486,遵义市,忠庄,,,36,41,22,27,68,56,57,57,19,15,2,2,,0.5
2023-02-08T12:00:00,1914A,106.9231,27.6506,遵义市,舟水桥,,40,26,38,28,30,73,69,62,62,10,9,6,7,0.6,0.5
2023-02-08T12:00:00,1915A,106.9178,27.72,遵义市,干田坝,,30,21,35,21,26,71,68,60,60,18,17,10,9,1.0,0.9
2023-02-08T12:00:00,1916A,103.7897,25.5035,曲靖市,环境监测站,,46,46,43,28,22,120,115,69,60,6,15,5,6,0.8,0.8
2023-02-08T12:00:00,1917A,103.8,25.5364,曲靖市,烟厂办公区,颗粒物(PM10),51,51,47,27,26,123,113,75,46,7,21,3,6,0.5,0.5
2023-02-08T12:00:00,1918A,108.7197,34.3956,咸阳市,气象站,细颗粒物(PM2.5),254,213,249,204,238,101,44,38,38,40,73,15,17,1.5,1.6
2023-02-08T12:00:00,1919A,108.673,34.3155,咸阳市,实验中学,细颗粒物(PM2.5),276,265,318,226,270,92,53,46,46,39,80,10,11,1.6,1.7
2023-02-08T12:00:00,1920A,108.7233,34.3617,咸阳市,师范学院,细颗粒物(PM2.5),255,261,300,205,250,103,44,44,44,38,64,9,12,1.7,1.8
2023-02-08T12:00:00,1922A,109.0656,35.0994,铜川市,党校,细颗粒物(PM2.5),124,191,174,94,87,134,98,112,108,28,51,18,23,1.5,1.6
2023-02-08T12:00:00,1923A,109.0697,35.0697,铜川市,王益区政府,细颗粒物(PM2.5),202,187,173,152,137,118,90,71,71,28,61,12,16,1.2,1.4
2023-02-08T12:00:00,1924A,108.9344,34.9058,铜川市,新区管委会,细颗粒物(PM2.5),226,202,214,176,175,122,83,67,67,27,47,14,25,1.2,1.5
2023-02-08T12:00:00,1925A,108.9589,34.8731,铜川市,新区兰芝公司,,,,,,,,,,,,,,,,
2023-02-08T12:00:00,1926A,109.4131,36.6275,延安市,枣园,细颗粒物(PM2.5),95,78,102,71,71,130,38,14,14,47,54,9,8,1.0,1
2023-02-08T12:00:00,1927A,109.4761,36.6028,延安市,延大医附院,,,104,102,74,82,117,22,11,11,62,64,,10,1.2,1.3
2023-02-08T12:00:00,1928A,109.4824,36.5767,延安市,市监测站,,,,,,,,,,,,,,,,
2023-02-08T12:00:00,1929A,109.5056,36.6106,延安市,百米大道,细颗粒物(PM2.5),89,116,123,66,88,119,38,17,17,76,85,18,15,1.3,1.5
2023-02-08T12:00:00,1930A,107.185,34.3063,宝鸡市,庙沟村,细颗粒物(PM2.5),260,228,226,210,195,98,52,56,56,34,53,4,9,1.6,1.5
2023-02-08T12:00:00,1931A,107.0708,34.3017,宝鸡市,竹园沟,细颗粒物(PM2.5),270,211,203,220,191,125,41,41,36,36,47,4,7,1.5,1.4
2023-02-08T12:00:00,1932A,107.1906,34.3672,宝鸡市,三陆医院,细颗粒物(PM2.5),296,253,269,246,245,114,53,36,36,41,66,10,15,1.4,1.5
2023-02-08T12:00:00,1933A,107.1431,34.3547,宝鸡市,监测站,细颗粒物(PM2.5),284,232,238,234,219,122,52,33,33,46,66,5,9,1.5,1.5
2023-02-08T12:00:00,1934A,107.1186,34.3739,宝鸡市,技工学校,细颗粒物(PM2.5),270,193,234,220,206,109,57,46,46,42,59,6,13,1.5,1.4
2023-02-08T12:00:00,1935A,107.3906,34.3528,宝鸡市,陈仓区环保局家属楼,细颗粒物(PM2.5),291,264,291,241,254,95,41,26,26,47,80,13,16,2.0,2
2023-02-08T12:00:00,1936A,107.2058,34.3497,宝鸡市,文理学院,细颗粒物(PM2.5),283,248,261,233,213,121,51,36,36,48,67,11,15,1.7,1.7
2023-02-08T12:00:00,1937A,107.2386,34.3622,宝鸡市,三迪小学,细颗粒物(PM2.5),280,246,279,230,239,108,58,33,33,45,74,10,15,1.6,1.5
2023-02-08T12:00:00,1938A,109.5293,34.5101,渭南市,农科所,细颗粒物(PM2.5),274,310,278,224,206,106,48,30,30,34,54,12,15,1.6,2
2023-02-08T12:00:00,1939A,109.4974,34.4877,渭南市,日报社,细颗粒物(PM2.5),282,315,283,232,231,98,49,27,27,62,83,12,17,1.7,1.7
2023-02-08T12:00:00,1940A,109.4636,34.493,渭南市,体育馆,细颗粒物(PM2.5),288,312,273,238,230,114,59,42,42,,58,,16,1.3,1.6
2023-02-08T12:00:00,1941A,109.4259,34.5023,渭南市,高新一小,细颗粒物(PM2.5),280,313,276,230,233,114,58,48,48,32,47,12,17,1.2,1.6
2023-02-08T12:00:00,1943A,102.1725,38.5339,金昌市,新川苑,,47,47,60,14,17,106,72,72,72,12,17,9,10,0.6,0.7
2023-02-08T12:00:00,1944A,102.1692,38.5167,金昌市,天庆家园,,,,51,,28,104,70,71,71,11,18,,10,0.8,0.7
2023-02-08T12:00:00,1945A,98.2908,39.7711,嘉峪关市,气象局,颗粒物(PM10),167,283,649,56,102,98,74,54,54,27,27,18,7,0.7,0.4
2023-02-08T12:00:00,1947A,106.3394,38.817,石嘴山市,沙湖旅游区,颗粒物(PM10),59,68,94,27,36,112,63,48,45,29,44,24,34,1.0,1.5
2023-02-08T12:00:00,1948A,106.3668,39.0145,石嘴山市,大武口朝阳西街,颗粒物(PM10),61,72,77,28,32,103,50,48,42,40,42,41,39,1.0,1.1
2023-02-08T12:00:00,1949A,106.7704,39.2282,石嘴山市,惠农南大街,,,47,84,,33,95,61,36,32,30,47,14,36,0.9,1.3
2023-02-08T12:00:00,1950A,106.7099,39.1325,石嘴山市,红果子镇惠新街,颗粒物(PM10),52,54,66,20,25,104,68,65,47,19,26,16,19,0.7,0.7
2023-02-08T12:00:00,1951A,84.895,45.6094,克拉玛依市,长征新村,细颗粒物(PM2.5),55,32,28,39,20,99,93,95,92,16,11,5,5,0.7,0.7
2023-02-08T12:00:00,1952A,84.8988,45.5893,克拉玛依市,南林小区,,47,47,34,26,28,94,91,93,90,18,17,2,2,0.5,0.4
2023-02-08T12:00:00,1953A,85.1186,45.6886,克拉玛依市,白碱滩区,,,,,,,,,,,,,,,,
2023-02-08T12:00:00,1954A,84.905,44.3396,克拉玛依市,独山子区,细颗粒物(PM2.5),59,46,110,42,70,102,82,91,87,17,18,8,8,0.9,1
2023-02-08T12:00:00,1955A,85.6979,46.098,克拉玛依市,乌尔禾区商贸楼,,48,31,30,33,23,117,92,116,101,10,10,2,2,0.5,0.6
2023-02-08T12:00:00,1956A,86.1472,41.7538,巴音郭楞州,孔雀公园,颗粒物(PM10),54,58,55,19,24,92,21,85,37,74,26,5,5,1.2,0.5
2023-02-08T12:00:00,1957A,86.1972,41.7166,巴音郭楞州,棉纺厂,颗粒物(PM10),103,156,71,35,25,92,46,71,38,45,35,4,4,0.5,0.4
2023-02-08T12:00:00,1958A,86.2357,41.7173,巴音郭楞州,经济开发区,颗粒物(PM10),74,98,54,35,22,101,55,92,59,43,19,5,5,0.7,0.4
2023-02-08T12:00:00,1959A,118.746,36.881,寿光市,监测站,,,,,,,,,,,,,,,,
2023-02-08T12:00:00,1960A,118.780,36.864,寿光市,世纪学校,,,,,,,,,,,,,,,,
2023-02-08T12:00:00,1961A,117.532,36.6868,济南市,东山小学,颗粒物(PM10),74,98,262,51,190,73,67,24,24,36,72,7,7,0.8,1.3
2023-02-08T12:00:00,1962A,117.541,36.710,章丘市,明水开发区,,,,,,,,,,,,,,,,
2023-02-08T12:00:00,1963A,120.610,36.440,即墨市,环保局子站,,,,,,,,,,,,,,,,
2023-02-08T12:00:00,1964A,120.470,36.390,即墨市,开发区子站,,,,,,,,,,,,,,,,
2023-02-08T12:00:00,1965A,120.005,35.878,胶南市,JN子站,,,,,,,,,,,,,,,,
2023-02-08T12:00:00,1966A,120.0405,35.8735,青岛市,黄岛区4号,,,,131,,108,97,48,52,28,,48,,7,,1.4
2023-02-08T12:00:00,1967A,120.008,36.283,胶州市,胶州环保局,,,,,,,,,,,,,,,,
2023-02-08T12:00:00,1968A,120.014,36.253,胶州市,胶州一中,,,,,,,,,,,,,,,,
2023-02-08T12:00:00,1969A,120.537,36.865,莱西市,环保局子站,,,,,,,,,,,,,,,,
2023-02-08T12:00:00,1970A,120.515,36.885,莱西市,人民广场子站,,,,,,,,,,,,,,,,
2023-02-08T12:00:00,1971A,119.952,36.792,平度市,1号,,,,,,,,,,,,,,,,
2023-02-08T12:00:00,1972A,119.976,36.799,平度市,2号,,,,,,,,,,,,,,,,
2023-02-08T12:00:00,1973A,120.747,37.825,蓬莱市,蓬莱环保局,,,,,,,,,,,,,,,,
2023-02-08T12:00:00,1974A,120.773,37.809,蓬莱市,蓬莱博物馆,,,,,,,,,,,,,,,,
2023-02-08T12:00:00,1975A,120.399,37.374,招远市,招远环保局,,,,,,,,,,,,,,,,
2023-02-08T12:00:00,1976A,120.394,37.364,招远市,招远教育局,,,,,,,,,,,,,,,,
2023-02-08T12:00:00,1977A,119.941,37.177,莱州市,莱州环保局,,,,,,,,,,,,,,,,
2023-02-08T12:00:00,1978A,119.959,37.180,莱州市,莱州外经委,,,,,,,,,,,,,,,,
2023-02-08T12:00:00,1979A,122.471,37.154,荣成市,荣成市环保局办公楼,,,,,,,,,,,,,,,,
2023-02-08T12:00:00,1980A,122.410,37.161,荣成市,山东成山轮胎公司,,,,,,,,,,,,,,,,
2023-02-08T12:00:00,1981A,122.038,37.197,文登市,文登市环保局,,,,,,,,,,,,,,,,
2023-02-08T12:00:00,1982A,122.0693,37.2174,威海市,文登开发区,,41,41,40,17,23,77,77,47,47,6,13,7,6,0.2,0.3
2023-02-08T12:00:00,1983A,121.531,36.913,乳山市,乳山市环保局,,,,,,,,,,,,,,,,
2023-02-08T12:00:00,1984A,121.544,36.907,乳山市,乳山市气象局,,,,,,,,,,,,,,,,
2023-02-08T12:00:00,1985A,120.636,31.155,吴江市,吴江市环保局,,,,,,,,,,,,,,,,
2023-02-08T12:00:00,1986A,120.635,31.170,吴江市,教师进修学校,,,,,,,,,,,,,,,,
2023-02-08T12:00:00,1987A,120.658,31.172,吴江市,吴江开发区,,,,,,,,,,,,,,,,
2023-02-08T12:00:00,1988A,120.953,31.388,昆山市,昆山实验小学,,,,,,,,,,,,,,,,
2023-02-08T12:00:00,1989A,120.999,31.381,昆山市,震川中学,,,,,,,,,,,,,,,,
2023-02-08T12:00:00,1990A,120.758,31.670,常熟市,海虞子站,,,,,,,,,,,,,,,,
2023-02-08T12:00:00,1991A,120.721,31.671,常熟市,兴福子站,,,,,,,,,,,,,,,,
2023-02-08T12:00:00,1992A,120.734,31.656,常熟市,菱塘子站,,,,,,,,,,,,,,,,
2023-02-08T12:00:00,1993A,120.526,31.874,张家港市,张家港市监测站,,,,,,,,,,,,,,,,
2023-02-08T12:00:00,1994A,120.550,31.882,张家港市,城北小学,,,,,,,,,,,,,,,,
2023-02-08T12:00:00,1995A,121.115,31.453,太仓市,太仓市监测站,,,,,,,,,,,,,,,,
2023-02-08T12:00:00,1996A,121.140,31.422,太仓市,科教新城实小,,,,,,,,,,,,,,,,
2023-02-08T12:00:00,1997A,119.146,31.955,句容市,消防指挥中心,,,,,,,,,,,,,,,,
2023-02-08T12:00:00,1998A,119.180,31.955,句容市,房家坝,,,,,,,,,,,,,,,,
2023-02-08T12:00:00,1999A,120.268,31.920,江阴市,虹桥邮政,,,,,,,,,,,,,,,,
2023-02-08T12:00:00,2000A,120.237,31.909,江阴市,五星公园,,,,,,,,,,,,,,,,
2023-02-08T12:00:00,2001A,120.302,31.920,江阴市,第二实验小学,,,,,,,,,,,,,,,,
2023-02-08T12:00:00,2002A,119.818,31.354,宜兴市,宜兴市环保局,,,,,,,,,,,,,,,,
2023-02-08T12:00:00,2003A,119.794,31.371,宜兴市,宜园,,,,,,,,,,,,,,,,
2023-02-08T12:00:00,2004A,119.579,31.751,金坛市,金坛市环境监测站,,,,,,,,,,,,,,,,
2023-02-08T12:00:00,2005A,119.579,31.737,金坛市,金坛市自来水公司,,,,,,,,,,,,,,,,
2023-02-08T12:00:00,2006A,119.460,31.400,溧阳市,溧阳市东门子站,,,,,,,,,,,,,,,,
2023-02-08T12:00:00,2007A,119.438,31.317,溧阳市,燕山子站,,,,,,,,,,,,,,,,
2023-02-08T12:00:00,2008A,121.173,31.896,海门市,海门市监测站,,,,,,,,,,,,,,,,
2023-02-08T12:00:00,2009A,121.1518,31.89708,海门市,社会福利院,,,,,,,,,,,,,,,,
2023-02-08T12:00:00,2010A,119.7183,30.2366,临安市,市政府,,,,,,,,,,,,,,,,
2023-02-08T12:00:00,2011A,119.6942,30.2311,临安市,四中,,,,,,,,,,,,,,,,
2023-02-08T12:00:00,2012A,119.954,30.054,富阳市,监测站,,,,,,,,,,,,,,,,
2023-02-08T12:00:00,2013A,119.946,30.049,富阳市,富春二小,,,,,,,,,,,,,,,,
2023-02-08T12:00:00,2014A,120.091,29.305,义乌市,江东,,,,,,,,,,,,,,,,
2023-02-08T12:00:00,2015A,120.040,29.334,义乌市,北苑,,,,,,,,,,,,,,,,
2023-02-08T12:00:00,2016A,120.251,29.719,诸暨市,图书馆,,,,,,,,,,,,,,,,
2023-02-08T12:00:00,2017A,120.209,29.732,诸暨市,富林印务,,,,,,,,,,,,,,,,
2023-02-08T12:00:00,2018A,121.989,39.625,瓦房店市,抱龙山庄,,,,,,,,,,,,,,,,
2023-02-08T12:00:00,2019A,122.011,39.617,瓦房店市,东山公园,,,,,,,,,,,,,,,,
2023-02-08T12:00:00,2031A,113.1817,27.9958,株洲市,云田中学,,50,31,83,35,91,15,14,6,6,33,40,5,4,1.3,1.3
2023-02-08T12:00:00,2054A,114.1099,32.1059,信阳市,平桥分局,细颗粒物(PM2.5),93,96,88,69,76,51,50,46,37,19,19,10,9,0.4,0.4
2023-02-08T12:00:00,2064A,113.9956,32.1271,信阳市,南湾水厂,,,110,93,66,68,57,53,50,40,18,18,8,7,,0.9
2023-02-08T12:00:00,2065A,114.0775,32.1195,信阳市,市酿酒公司,细颗粒物(PM2.5),100,102,81,75,73,57,54,50,42,20,20,9,8,0.7,0.7
2023-02-08T12:00:00,2066A,114.0609,32.1399,信阳市,审计局,颗粒物(PM10),94,138,84,67,72,56,49,49,40,21,20,8,7,0.6,0.6
2023-02-08T12:00:00,2067A,114.6613,33.6128,周口市,市环境监测站,细颗粒物(PM2.5),196,191,125,147,98,92,50,32,32,28,39,11,10,0.6,0.6
2023-02-08T12:00:00,2068A,114.6758,33.6347,周口市,周口师范,,,,123,,103,100,53,33,33,34,40,13,11,1.0,0.7
2023-02-08T12:00:00,2069A,114.6546,33.5979,周口市,市运管处,细颗粒物(PM2.5),185,164,115,139,101,100,57,42,42,27,39,11,13,0.6,0.5
2023-02-08T12:00:00,2070A,114.6369,33.6406,周口市,川汇区环保局,细颗粒物(PM2.5),204,187,130,154,100,94,52,27,27,30,41,22,15,0.9,0.8
2023-02-08T12:00:00,2075A,117.6336,24.4674,漳州市,九湖,,,,,,,,,,,,,,,,
2023-02-08T12:00:00,2160A,112.85,35.5051,晋城市,自来水公司,细颗粒物(PM2.5),230,237,233,180,184,124,48,38,17,35,47,12,13,1.5,1.3
2023-02-08T12:00:00,2161A,112.8318,35.4936,晋城市,白云商贸,细颗粒物(PM2.5),228,239,236,178,192,117,49,39,20,32,40,10,11,1.6,1.5
2023-02-08T12:00:00,2162A,112.8508,35.4887,晋城市,市环保局,,,,233,,181,128,53,13,13,,56,10,12,1.5,1.3
2023-02-08T12:00:00,2163A,112.8676,35.4897,晋城市,技术学院,细颗粒物(PM2.5),228,215,238,178,191,130,56,19,19,32,55,11,11,1.5,1.4
2023-02-08T12:00:00,2164A,112.8271,35.4828,晋城市,泽州一中,,,,,,,,,,,,,,,,
2023-02-08T12:00:00,2165A,112.8453,35.546,晋城市,白马寺 ,,,,,,,,,,,,,,,,
2023-02-08T12:00:00,2166A,112.4397,39.3522,朔州市,平朔,颗粒物(PM10),53,56,80,27,28,96,51,37,21,17,27,14,16,0.5,0.6
2023-02-08T12:00:00,2167A,112.4575,39.3617,朔州市,朔唯,,,,95,30,29,104,51,33,11,,36,13,17,0.5,0.5
2023-02-08T12:00:00,2168A,112.4258,39.3197,朔州市,区政府,颗粒物(PM10),56,61,84,21,26,102,62,42,34,16,25,14,14,0.4,0.5
2023-02-08T12:00:00,2169A,112.4072,39.3278,朔州市,市环保局,颗粒物(PM10),58,66,79,38,32,102,56,44,28,20,27,21,17,0.7,0.7
2023-02-08T12:00:00,2170A,112.4272,39.3681,朔州市,市二中,颗粒物(PM10),55,59,96,26,30,106,52,36,19,21,26,12,16,0.6,0.7
2023-02-08T12:00:00,2171A,112.7532,37.6945,晋中市,锦纶小区,细颗粒物(PM2.5),127,148,171,96,115,128,92,89,89,19,45,10,17,0.8,1.1
2023-02-08T12:00:00,2173A,112.7249,37.7067,晋中市,南都小区,颗粒物(PM10),105,160,175,69,103,129,85,77,77,22,56,11,19,0.8,1.2
2023-02-08T12:00:00,2174A,112.6991,37.6982,晋中市,榆次区政府,颗粒物(PM10),104,157,187,71,101,125,82,74,74,22,59,11,20,0.9,1.2
2023-02-08T12:00:00,2175A,110.9956,35.0147,运城市,运城中学,细颗粒物(PM2.5),215,234,237,165,166,102,74,91,89,22,30,6,13,1.2,1.4
2023-02-08T12:00:00,2176A,111.0233,35.0611,运城市,禹都开发区,,,,,,,,,,,,,,,,
2023-02-08T12:00:00,2178A,110.9686,35.0303,运城市,地区技校,细颗粒物(PM2.5),208,231,249,158,175,104,78,92,92,22,36,5,11,1.1,1.5
2023-02-08T12:00:00,2179A,111.0414,35.1147,运城市,空港新区,细颗粒物(PM2.5),223,224,241,173,185,106,88,78,78,14,28,6,12,0.9,1.6
2023-02-08T12:00:00,2181A,112.7383,38.4519,忻州市,开发区,,,,143,,101,36,,40,,,55,,16,,1.5
2023-02-08T12:00:00,2182A,112.7003,38.4928,忻州市,会展中心,细颗粒物(PM2.5),132,135,143,100,100,84,52,23,23,41,58,18,17,1.2,1.2
2023-02-08T12:00:00,2183A,111.1406,37.5211,吕梁市,环保局,颗粒物(PM10),86,122,107,41,34,89,43,12,12,53,68,24,24,0.9,0.7
2023-02-08T12:00:00,2185A,111.1297,37.5136,吕梁市,自来水公司,,,134,105,41,35,80,31,12,12,,58,23,22,0.9,0.8
2023-02-08T12:00:00,2186A,106.8288,39.6778,乌海市,聚英学校,,,,,,,,,,,,,,,,
2023-02-08T12:00:00,2187A,106.8174,39.6973,乌海市,市林业局,颗粒物(PM10),56,61,60,30,29,107,41,86,32,20,21,22,17,0.9,0.8
2023-02-08T12:00:00,2188A,106.7907,39.6667,乌海市,中海勃湾学校,,37,37,69,14,29,109,45,52,45,13,23,17,21,0.6,0.6
2023-02-08T12:00:00,2191A,122.2532,43.6801,通辽市,艺术职业学校,,28,28,43,8,14,74,74,61,56,11,20,6,8,0.4,0.5
2023-02-08T12:00:00,2192A,119.7594,49.2261,呼伦贝尔市,区环保局,细颗粒物(PM2.5),60,46,47,43,35,68,63,20,20,7,39,6,6,0.3,0.7
2023-02-08T12:00:00,2194A,107.5936,40.916,巴彦淖尔市,秋林养殖基地,,,,,,,,,,,,,,,,
2023-02-08T12:00:00,2195A,107.4212,40.761,巴彦淖尔市,附二中,,42,42,52,15,21,85,58,49,48,12,14,11,9,0.7,0.6
2023-02-08T12:00:00,2196A,107.37,40.7372,巴彦淖尔市,市环保大楼,,39,39,47,27,21,91,60,65,53,17,16,20,19,0.7,0.6
2023-02-08T12:00:00,2197A,113.1306,40.9923,乌兰察布市,集宁新区,,23,17,29,13,16,84,71,66,52,9,12,10,11,0.1,0.4
2023-02-08T12:00:00,2200A,122.0392,46.0656,兴安盟,胜华新制药厂,,24,11,22,12,17,74,74,56,51,9,14,5,5,0.4,0.5
2023-02-08T12:00:00,2201A,121.9504,46.0741,兴安盟,科右前旗环保局,,24,16,21,12,16,76,76,65,59,9,11,3,2,0.7,0.3
2023-02-08T12:00:00,2202A,116.1042,43.9317,锡林郭勒盟,市环保监测站,,,13,8,8,6,76,,63,63,2,6,10,7,,0.3
2023-02-08T12:00:00,2203A,116.0781,43.9311,锡林郭勒盟,市政府,,21,2,11,10,7,71,67,64,61,4,8,18,8,0.2,0.2
2023-02-08T12:00:00,2204A,105.6467,38.8363,阿拉善盟,西城区西花园,颗粒物(PM10),63,75,107,16,33,121,58,87,54,13,15,8,11,0.6,0.7
2023-02-08T12:00:00,2205A,105.6985,38.8411,阿拉善盟,蒙二幼,颗粒物(PM10),85,119,121,46,40,117,51,90,60,18,18,8,13,0.5,0.6
2023-02-08T12:00:00,2206A,105.724,38.8516,阿拉善盟,环保局新楼,,,104,92,46,38,120,52,94,74,19,16,,11,0.8,0.8
2023-02-08T12:00:00,2207A,121.6094,41.998,阜新市,工业园区,,31,31,101,16,44,66,66,29,29,12,30,9,17,0.6,1.2
2023-02-08T12:00:00,2208A,121.6697,42.0279,阜新市,长青街,,37,37,61,14,29,78,78,46,46,9,29,9,15,0.6,1
2023-02-08T12:00:00,2209A,121.6673,42.0705,阜新市,农业园区,,38,38,32,10,19,70,70,55,55,5,11,8,10,0.4,0.6
2023-02-08T12:00:00,2210A,121.6717,42.0224,阜新市,东苑,,45,45,80,10,42,74,74,42,42,4,27,6,22,0.4,0.9
2023-02-08T12:00:00,2211A,121.6506,42.0498,阜新市,玉龙新城,,26,26,69,14,29,76,76,40,40,3,27,8,15,0.5,0.9
2023-02-08T12:00:00,2212A,123.2,41.1953,辽阳市,宏伟区,细颗粒物(PM2.5),65,75,85,47,67,64,55,20,20,31,41,17,23,0.9,1.1
2023-02-08T12:00:00,2213A,123.1683,41.2495,辽阳市,新华园,细颗粒物(PM2.5),62,66,94,44,71,69,60,22,22,29,44,14,27,0.8,1.3
2023-02-08T12:00:00,2214A,123.2354,41.2639,辽阳市,滨河路,,,56,88,47,72,60,55,19,19,22,42,10,13,,1.6
2023-02-08T12:00:00,2215A,123.149,41.2991,辽阳市,铁西工业园,颗粒物(PM10),67,84,109,47,85,58,54,17,17,26,47,14,15,0.7,1.2
2023-02-08T12:00:00,2216A,123.8139,42.3022,铁岭市,汇工街西,,39,39,89,20,59,71,64,22,22,16,36,8,22,0.5,1
2023-02-08T12:00:00,2217A,123.8649,42.2923,铁岭市,水上乐园,,46,46,71,19,46,67,65,32,32,16,30,12,12,0.3,0.5
2023-02-08T12:00:00,2218A,123.8486,42.2867,铁岭市,银州路东段,颗粒物(PM10),62,73,88,18,49,67,62,21,21,19,36,9,10,0.5,0.7
2023-02-08T12:00:00,2219A,123.7153,42.2217,铁岭市,金沙江路北,颗粒物(PM10),51,52,75,24,45,66,56,19,19,21,39,11,17,0.4,0.6
2023-02-08T12:00:00,2220A,120.4318,41.5881,朝阳市,西梁,,,67,67,14,37,74,,21,21,16,36,16,19,0.8,1.2
2023-02-08T12:00:00,2221A,120.4521,41.5646,朝阳市,河畔小区,颗粒物(PM10),62,73,53,25,32,82,72,46,46,16,25,23,15,1.0,0.9
2023-02-08T12:00:00,2222A,120.4176,41.5648,朝阳市,八里堡,颗粒物(PM10),55,59,62,16,34,73,67,26,26,20,35,23,17,0.9,1
2023-02-08T12:00:00,2223A,120.3806,41.5969,朝阳市,农业园区,,31,31,65,4,40,80,80,28,28,7,39,8,14,0.5,1
2023-02-08T12:00:00,2225A,124.4002,43.1713,四平市,一商场,,,,71,,41,68,66,30,30,10,37,7,8,,0.5
2023-02-08T12:00:00,2226A,124.388,43.193,四平市,境园,颗粒物(PM10),51,52,66,24,34,74,72,39,39,10,34,4,4,0.2,0.6
2023-02-08T12:00:00,2227A,125.1358,42.8845,辽源市,环保局,,36,28,56,25,44,80,71,30,30,4,31,9,11,0.3,0.8
2023-02-08T12:00:00,2229A,125.9358,41.7173,通化市,光明,颗粒物(PM10),56,61,46,34,26,75,67,37,30,12,33,20,17,0.0,0.4
2023-02-08T12:00:00,2230A,125.9446,41.7325,通化市,铁路,,48,41,49,33,32,77,67,45,28,17,32,17,24,0.1,0.5
2023-02-08T12:00:00,2231A,126.4219,41.9171,白山市,喜丰,颗粒物(PM10),70,89,50,41,25,81,62,53,40,17,24,22,15,0.6,0.5
2023-02-08T12:00:00,2232A,126.4077,41.9419,白山市,环保局,颗粒物(PM10),64,78,61,41,32,72,54,41,31,16,23,24,14,1.1,1
2023-02-08T12:00:00,2233A,124.8006,45.1214,松原市,江南,,27,27,35,7,20,64,60,36,36,8,22,7,9,0.4,0.5
2023-02-08T12:00:00,2234A,124.7965,45.1722,松原市,江北,,22,22,25,4,16,67,67,45,45,5,14,6,4,0.5,0.5
2023-02-08T12:00:00,2235A,122.7911,45.6077,白城市,洮北区环保局,,,42,32,24,15,82,79,82,74,10,12,,5,0.4,0.4
2023-02-08T12:00:00,2236A,122.8738,45.5725,白城市,市环保局,,26,26,35,4,12,75,75,55,51,8,19,5,5,0.4,0.5
2023-02-08T12:00:00,2237A,129.47,42.8883,延边朝鲜族自治州,妇幼医院,,,65,48,9,35,80,74,43,41,,28,8,16,0.4,0.8
2023-02-08T12:00:00,2238A,129.5055,42.9108,延边朝鲜族自治州,延边医院,,37,37,43,11,31,85,80,46,46,8,31,8,19,0.5,0.8
2023-02-08T12:00:00,2239A,129.3964,42.8881,延边朝鲜族自治州,朝阳川镇医院,,41,41,33,9,23,88,79,55,55,6,15,7,7,0.5,0.6
2023-02-08T12:00:00,2240A,130.9762,45.3001,鸡西市,环保局,,,65,63,52,45,69,62,54,50,17,33,13,9,,0.8
2023-02-08T12:00:00,2243A,130.9429,45.3039,鸡西市,第一中学,细颗粒物(PM2.5),57,57,45,40,32,72,70,55,50,9,16,7,8,0.7,0.7
2023-02-08T12:00:00,2244A,130.2537,47.3416,鹤岗市,哈啤分公司,颗粒物(PM10),52,54,41,33,28,77,58,74,59,28,11,17,11,0.5,0.4
2023-02-08T12:00:00,2245A,130.2684,47.3086,鹤岗市,斯达机电,颗粒物(PM10),72,93,50,39,32,79,45,75,52,37,19,16,10,0.5,0.4
2023-02-08T12:00:00,2246A,130.3114,47.3388,鹤岗市,东山纸板厂,,,85,78,44,37,74,50,72,35,34,15,21,16,,0.6
2023-02-08T12:00:00,2247A,130.1097,47.3382,鹤岗市,五号水库,,31,31,28,18,24,80,72,80,65,9,7,6,6,0.4,0.4
2023-02-08T12:00:00,2248A,131.1511,46.6937,双鸭山市,双合村,细颗粒物(PM2.5),99,41,63,74,50,81,61,62,45,17,17,14,14,0.7,1
2023-02-08T12:00:00,2249A,131.1652,46.6191,双鸭山市,南小市,细颗粒物(PM2.5),57,51,67,40,44,86,61,63,43,20,19,22,13,0.9,0.8
2023-02-08T12:00:00,2250A,131.1524,46.6554,双鸭山市,环保局,细颗粒物(PM2.5),55,41,60,39,48,90,70,72,36,15,29,7,10,0.7,0.9
2023-02-08T12:00:00,2251A,131.12,46.5656,双鸭山市,苗圃,,40,22,48,28,47,93,78,70,63,10,12,9,7,0.4,0.3
2023-02-08T12:00:00,2252A,128.5159,47.4311,伊春市,环保局,细颗粒物(PM2.5),74,47,46,54,44,76,56,64,50,28,19,6,6,0.8,0.7
2023-02-08T12:00:00,2253A,128.9102,47.7412,伊春市,电力嘉园,颗粒物(PM10),51,52,51,27,38,71,65,63,43,12,12,12,6,0.6,0.6
2023-02-08T12:00:00,2254A,129.5029,48.471,伊春市,汤旺河国家公园,,26,26,37,14,28,80,61,50,45,4,4,8,6,0.2,0.2
2023-02-08T12:00:00,2255A,130.2751,46.8028,佳木斯市,佳纺,细颗粒物(PM2.5),110,92,69,83,61,78,66,45,34,13,25,7,11,0.6,0.8
2023-02-08T12:00:00,2256A,130.3995,46.8307,佳木斯市,发电厂,细颗粒物(PM2.5),85,65,52,63,49,79,65,66,32,18,28,5,7,0.5,0.6
2023-02-08T12:00:00,2257A,130.3258,46.7975,佳木斯市,环保局,细颗粒物(PM2.5),92,74,58,68,50,75,67,49,36,14,30,7,10,0.4,0.6
2023-02-08T12:00:00,2258A,130.3648,46.8032,佳木斯市,十一中,细颗粒物(PM2.5),63,49,53,45,46,74,61,54,36,18,34,6,9,0.5,0.6
2023-02-08T12:00:00,2259A,130.3794,46.7588,佳木斯市,四丰,细颗粒物(PM2.5),67,48,43,48,37,142,128,110,110,8,10,1,1,0.5,0.6
2023-02-08T12:00:00,2262A,131.0518,45.8751,七台河市,新一中,细颗粒物(PM2.5),108,97,44,81,37,92,72,70,60,23,14,11,7,1.1,0.9
2023-02-08T12:00:00,2263A,127.4833,50.2524,黑河市,交通局,,15,11,24,7,21,62,45,45,42,12,18,5,9,0.6,0.7
2023-02-08T12:00:00,2264A,127.5144,50.2341,黑河市,环保局,颗粒物(PM10),61,72,52,29,32,61,44,42,36,24,22,22,13,0.7,0.6
2023-02-08T12:00:00,2265A,127.5291,50.2472,黑河市,大黑河岛,,13,4,20,8,20,41,41,35,35,2,6,3,2,0.4,0.4
2023-02-08T12:00:00,2266A,126.9785,46.6365,绥化市,人和东街,细颗粒物(PM2.5),172,197,88,130,70,86,37,36,28,50,32,13,5,1.3,0.9
2023-02-08T12:00:00,2267A,126.964,46.6528,绥化市,党政办公中心,细颗粒物(PM2.5),143,146,100,109,86,98,62,33,28,34,35,11,6,1.0,0.8
2023-02-08T12:00:00,2269A,124.1069,50.4097,大兴安岭地区,科技局,,19,9,29,10,20,66,60,50,50,4,9,4,8,0.2,0.3
2023-02-08T12:00:00,2270A,117.396,32.939,蚌埠市,工人疗养院,细颗粒物(PM2.5),108,95,78,81,58,96,96,49,49,5,16,2,2,0.5,0.4
2023-02-08T12:00:00,2271A,117.3605,32.9427,蚌埠市,百货大楼,细颗粒物(PM2.5),114,93,88,86,64,74,,34,34,16,32,9,8,,0.6
2023-02-08T12:00:00,2273A,117.4185,32.8911,蚌埠市,蚌埠学院,细颗粒物(PM2.5),100,102,73,75,62,75,75,25,25,34,55,14,12,0.6,0.6
2023-02-08T12:00:00,2274A,117.3533,32.9673,蚌埠市,淮上区政府,细颗粒物(PM2.5),100,112,86,75,55,88,88,46,46,15,30,7,7,0.6,0.5
2023-02-08T12:00:00,2275A,117.3145,32.8977,蚌埠市,高新区,细颗粒物(PM2.5),94,97,81,70,62,88,88,48,38,21,42,15,10,0.6,0.6
2023-02-08T12:00:00,2277A,116.8305,32.7727,淮南市,潘集区政府,细颗粒物(PM2.5),142,127,89,108,73,79,79,22,22,16,31,6,4,0.4,0.5
2023-02-08T12:00:00,2278A,117.0067,32.6524,淮南市,师范学院,细颗粒物(PM2.5),107,103,81,80,64,67,67,49,43,20,22,9,8,0.7,0.5
2023-02-08T12:00:00,2279A,116.8569,32.5951,淮南市,谢家集区政府,细颗粒物(PM2.5),90,84,77,67,58,63,63,46,46,20,25,8,6,0.4,0.4
2023-02-08T12:00:00,2280A,116.8281,32.633,淮南市,八公山区政府,细颗粒物(PM2.5),94,83,74,70,64,65,65,46,41,14,20,9,9,0.5,0.5
2023-02-08T12:00:00,2281A,116.6325,32.6201,淮南市,焦岗湖风景区管理处,细颗粒物(PM2.5),79,93,81,58,60,46,46,33,30,24,30,5,4,0.3,0.1
2023-02-08T12:00:00,2282A,116.8004,33.975,淮北市,监测站,细颗粒物(PM2.5),138,146,109,105,77,126,72,51,36,22,29,10,8,0.8,0.7
2023-02-08T12:00:00,2283A,116.8091,33.9007,淮北市,烈山区政府,细颗粒物(PM2.5),150,123,93,115,76,129,75,45,44,,34,5,5,0.7,0.6
2023-02-08T12:00:00,2284A,116.7856,33.9477,淮北市,职业技术学院,细颗粒物(PM2.5),147,133,105,112,78,129,77,54,49,25,29,10,9,0.8,0.6
2023-02-08T12:00:00,2285A,117.8177,30.9412,铜陵市,市第四中学,细颗粒物(PM2.5),64,66,58,46,44,55,55,34,34,26,29,8,7,0.7,0.8
2023-02-08T12:00:00,2286A,117.8059,30.9273,铜陵市,市公路局,细颗粒物(PM2.5),74,66,61,54,47,56,56,34,34,22,25,5,4,0.7,0.8
2023-02-08T12:00:00,2287A,117.7807,30.9413,铜陵市,市新民污水厂,细颗粒物(PM2.5),63,60,50,45,36,63,63,42,42,20,30,3,3,0.5,0.6
2023-02-08T12:00:00,2288A,117.7439,30.8792,铜陵市,市第九中学,颗粒物(PM10),59,68,69,39,44,55,55,37,35,19,28,7,7,0.9,1.1
2023-02-08T12:00:00,2289A,117.846,30.9413,铜陵市,车站新区,细颗粒物(PM2.5),59,60,58,42,41,63,63,38,38,17,23,7,10,0.5,0.6
2023-02-08T12:00:00,2290A,117.8483,30.97,铜陵市,市职教基地,颗粒物(PM10),54,58,51,36,31,68,68,42,42,19,23,8,8,0.3,0.4
2023-02-08T12:00:00,2291A,117.0809,30.5177,安庆市,环科院,细颗粒物(PM2.5),88,91,66,65,58,46,46,32,32,26,23,8,6,0.9,0.8
2023-02-08T12:00:00,2292A,117.0331,30.5119,安庆市,马山宾馆,细颗粒物(PM2.5),78,99,65,57,49,38,37,36,29,27,24,9,6,1.0,0.9
2023-02-08T12:00:00,2294A,116.9896,30.6145,安庆市,安庆大学,细颗粒物(PM2.5),85,83,66,63,64,52,52,32,32,26,24,8,7,1.1,1
2023-02-08T12:00:00,2295A,118.2903,29.6963,黄山市,延安路89号,,42,42,30,21,18,60,60,35,35,11,15,5,5,0.5,0.6
2023-02-08T12:00:00,2296A,118.327,29.7178,黄山市,黄山东路89号,,40,36,26,28,17,59,59,43,43,12,15,6,6,0.5,0.7
2023-02-08T12:00:00,2297A,118.1371,30.2756,黄山市,黄山区政府5号楼,细颗粒物(PM2.5),63,44,33,45,31,52,52,25,25,15,22,6,6,0.4,0.7
2023-02-08T12:00:00,2298A,118.3093,32.3153,滁州市,老年大学,细颗粒物(PM2.5),128,108,71,97,61,74,74,67,58,21,24,5,5,0.5,0.5
2023-02-08T12:00:00,2299A,118.3244,32.2786,滁州市,人大宾馆,细颗粒物(PM2.5),138,132,80,105,63,68,65,57,53,25,29,4,4,0.6,0.5
2023-02-08T12:00:00,2301A,115.8277,32.8929,阜阳市,市监测站,细颗粒物(PM2.5),87,77,77,64,63,89,89,55,55,13,24,6,4,0.4,0.5
2023-02-08T12:00:00,2303A,115.8554,32.8605,阜阳市,开发区,细颗粒物(PM2.5),88,90,95,65,67,86,86,46,46,12,24,8,6,0.3,0.3
2023-02-08T12:00:00,2306A,116.989,33.6306,宿州市,火车站,,,,,,,,,,,,,,,,
2023-02-08T12:00:00,2307A,116.5079,31.737,六安市,监测大楼,细颗粒物(PM2.5),77,77,55,56,46,62,62,41,41,25,20,5,5,0.7,0.6
2023-02-08T12:00:00,2308A,116.4738,31.7643,六安市,皖西学院,细颗粒物(PM2.5),73,84,61,53,40,58,58,44,44,29,24,5,4,0.5,0.5
2023-02-08T12:00:00,2309A,116.4996,31.7905,六安市,朝阳厂,细颗粒物(PM2.5),72,75,51,52,43,63,63,44,44,25,19,5,4,0.6,0.5
2023-02-08T12:00:00,2310A,116.5567,31.7886,六安市,开发区,细颗粒物(PM2.5),74,86,61,54,41,62,62,43,43,22,16,6,6,0.6,0.5
2023-02-08T12:00:00,2311A,115.8072,33.8399,亳州市,污水处理厂,,,,86,,70,102,,40,22,18,20,,7,0.7,0.6
2023-02-08T12:00:00,2312A,115.7789,33.8518,亳州市,三国揽胜宫,细颗粒物(PM2.5),124,145,110,94,69,111,54,49,30,22,24,6,5,0.8,0.7
2023-02-08T12:00:00,2314A,117.47,30.6618,池州市,池州学院,细颗粒物(PM2.5),72,81,65,52,42,47,47,24,24,15,28,6,7,0.7,0.7
2023-02-08T12:00:00,2315A,117.4974,30.6539,池州市,平天湖,,,,,,,,,,,,,,,,
2023-02-08T12:00:00,2316A,118.7581,30.9454,宣城市,鳌峰子站,细颗粒物(PM2.5),100,83,53,75,46,71,71,54,54,19,22,8,6,0.6,0.6
2023-02-08T12:00:00,2317A,118.7385,30.9743,宣城市,敬亭山子站,细颗粒物(PM2.5),94,78,60,70,47,77,77,48,48,20,31,6,6,0.5,0.6
2023-02-08T12:00:00,2318A,118.7173,30.9427,宣城市,开发区子站,细颗粒物(PM2.5),99,84,53,74,43,72,72,50,50,22,29,5,5,0.7,0.6
2023-02-08T12:00:00,2319A,119.0141,25.4325,莆田市,荔城区仓后路,,23,15,18,6,11,74,73,71,62,13,15,7,7,0.6,0.6
2023-02-08T12:00:00,2320A,119.0015,25.4553,莆田市,莆田市监测站,,24,15,17,6,12,75,75,68,64,9,13,6,6,0.6,0.7
2023-02-08T12:00:00,2321A,119.1119,25.4561,莆田市,涵江区六中,,26,22,17,6,11,82,82,80,64,10,14,6,6,0.4,0.4
2023-02-08T12:00:00,2322A,119.1013,25.3215,莆田市,秀屿区政府,,,,15,,15,78,,77,,,12,,5,,0.7
2023-02-08T12:00:00,2323A,118.981,25.4792,莆田市,东圳水库,,,,,,,,,,,,,,,,
2023-02-08T12:00:00,2324A,117.6211,26.2625,三明市,三钢,,18,16,15,12,17,36,36,22,22,13,15,6,7,0.5,0.5
2023-02-08T12:00:00,2325A,117.635,26.2714,三明市,三明二中,,14,14,15,8,13,34,34,22,22,16,18,4,4,0.6,0.6
2023-02-08T12:00:00,2326A,117.6028,26.2378,三明市,三元区政府,,14,14,16,9,14,34,34,20,20,13,15,5,6,0.8,0.9
2023-02-08T12:00:00,2327A,117.7275,26.3108,三明市,洋溪,,,,,,,,,,,,,,,,
2023-02-08T12:00:00,2331A,118.0966,26.6761,南平市,茫荡山,,,,,,,,,,,,,,,,
2023-02-08T12:00:00,2332A,118.1681,26.6369,南平市,南平市监测站,,18,7,11,7,9,56,56,44,44,9,11,3,2,0.5,0.6
2023-02-08T12:00:00,2333A,118.1825,26.6489,南平市,南平铝业有限公司,,15,14,10,9,10,48,48,40,40,11,11,6,5,0.7,0.7
2023-02-08T12:00:00,2334A,118.1756,26.6272,南平市,南平七中,,17,10,12,4,8,53,53,45,45,9,13,3,3,0.6,0.7
2023-02-08T12:00:00,2335A,117.0189,25.1181,龙岩市,龙岩师专,,,,,,,,,,,,,,,,
2023-02-08T12:00:00,2336A,117.0217,25.1033,龙岩市,龙岩市监测站,,19,16,20,10,17,58,58,40,40,12,20,7,8,0.6,0.7
2023-02-08T12:00:00,2337A,117.0258,25.0661,龙岩市,闽西职业技术学院,,20,20,26,6,18,57,56,37,37,11,21,7,10,0.4,0.7
