timepoint,stationcode,longitude,latitude,area,positionname,primarypollutant,aqi,pm10,pm10_24h,pm2_5,pm2_5_24h,o3,o3_24h,o3_8h,o3_8h_24h,no2,no2_24h,so2,so2_24h,co,co_24h
2023-02-08T22:00:00,1001A,116.3621,39.8784,北京市,万寿西宫,"颗粒物(PM10),细颗粒物(PM2.5)",65,80,35,47,21,71,25,68,52,58,34,3,2,0.6,0.5
2023-02-08T22:00:00,1002A,116.2202,40.2915,北京市,定陵,,,,,,,,,,,,,,,,
2023-02-08T22:00:00,1003A,116.4174,39.9289,北京市,东四,颗粒物(PM10),60,69,35,40,20,70,33,67,56,42,28,3,3,0.5,0.4
2023-02-08T22:00:00,1004A,116.4072,39.8863,北京市,天坛,细颗粒物(PM2.5),62,63,29,44,21,74,31,69,56,47,29,3,2,0.5,0.4
2023-02-08T22:00:00,1005A,116.462,39.9365,北京市,农展馆,细颗粒物(PM2.5),72,78,34,52,20,75,39,69,56,41,33,2,3,0.5,0.3
2023-02-08T22:00:00,1006A,116.3392,39.9295,北京市,官园,颗粒物(PM10),57,63,35,39,22,83,51,80,66,34,29,4,3,0.4,0.4
2023-02-08T22:00:00,1007A,116.2878,39.9611,北京市,海淀万柳,颗粒物(PM10),56,61,39,32,23,61,28,56,44,46,41,1,2,0.4,0.4
2023-02-08T22:00:00,1008A,116.6636,40.135,北京市,顺义新城,,38,38,28,24,17,88,5,81,52,67,23,3,2,0.8,0.4
2023-02-08T22:00:00,1009A,116.6275,40.3275,北京市,怀柔镇,,35,35,38,18,19,72,43,67,54,15,18,3,2,0.3,0.4
2023-02-08T22:00:00,1010A,116.2296,40.217,北京市,昌平镇,,45,45,26,26,16,74,34,70,52,29,16,3,3,0.4,0.3
2023-02-08T22:00:00,1011A,116.3966,39.9821,北京市,奥体中心,颗粒物(PM10),52,53,36,35,24,73,37,69,57,41,33,2,3,0.5,0.5
2023-02-08T22:00:00,1012A,116.184,39.9136,北京市,古城,颗粒物(PM10),56,61,39,31,21,75,18,70,54,62,33,1,1,0.4,0.6
2023-02-08T22:00:00,1015A,117.1444,39.1661,天津市,勤俭道,,39,39,72,23,47,78,52,69,60,34,51,7,8,0.4,1
2023-02-08T22:00:00,1017A,117.237,39.1082,天津市,大直沽八号路,细颗粒物(PM2.5),70,84,70,51,45,78,23,68,52,66,52,9,9,0.7,0.9
2023-02-08T22:00:00,1018A,117.202,39.0927,天津市,前进道,,45,45,61,29,40,82,50,74,62,40,50,4,6,0.3,0.8
2023-02-08T22:00:00,1019A,117.1837,39.2133,天津市,淮河道,颗粒物(PM10),53,56,97,30,54,78,50,62,54,42,58,8,9,0.5,1
2023-02-08T22:00:00,1021A,117.307,39.0877,天津市,跃进路,细颗粒物(PM2.5),72,74,72,52,49,80,31,64,51,53,53,9,11,0.6,0.9
2023-02-08T22:00:00,1023A,117.707,39.0343,天津市,第四大街,"颗粒物(PM10),细颗粒物(PM2.5)",53,55,79,37,53,65,11,50,32,79,69,9,12,0.6,1.3
2023-02-08T22:00:00,1024A,117.457,38.8394,天津市,永明路,细颗粒物(PM2.5),69,69,74,50,54,82,15,63,47,69,56,8,12,0.7,1.1
2023-02-08T22:00:00,1026A,117.764,39.1587,天津市,汉北路,细颗粒物(PM2.5),59,54,67,42,55,65,11,54,42,74,55,9,11,0.4,0.9
2023-02-08T22:00:00,1027A,117.157,38.9194,天津市,团泊洼,细颗粒物(PM2.5),89,88,74,66,52,68,16,55,43,63,58,6,9,0.7,1
2023-02-08T22:00:00,1029A,114.4422,38.0444,石家庄市,职工医院,颗粒物(PM10),85,119,120,59,77,84,42,79,74,61,56,8,8,1.1,1.1
2023-02-08T22:00:00,1030A,114.6063,38.0266,石家庄市,高新区,颗粒物(PM10),86,121,116,61,71,84,40,79,71,58,43,8,6,1.0,1
2023-02-08T22:00:00,1031A,114.4898,38.1328,石家庄市,西北水源,细颗粒物(PM2.5),109,123,127,82,81,76,36,72,62,57,50,8,8,0.9,1
2023-02-08T22:00:00,1032A,114.4586,38.0058,石家庄市,西南高教,细颗粒物(PM2.5),110,101,120,83,79,80,52,75,68,46,46,8,8,0.9,0.9
2023-02-08T22:00:00,1033A,114.5331,38.0178,石家庄市,世纪公园,细颗粒物(PM2.5),107,108,101,80,72,75,53,72,67,31,32,6,6,0.9,0.9
2023-02-08T22:00:00,1034A,114.509,38.0457,石家庄市,人民会堂,细颗粒物(PM2.5),92,108,113,68,76,80,49,78,73,46,40,5,4,0.9,0.9
2023-02-08T22:00:00,1035A,114.3524,37.8911,石家庄市,封龙山,细颗粒物(PM2.5),104,100,98,78,59,82,78,81,76,30,32,6,6,1.0,0.9
2023-02-08T22:00:00,1037A,118.131,39.6363,唐山市,雷达站,细颗粒物(PM2.5),70,69,80,51,50,81,43,74,58,48,46,9,13,0.7,1.2
2023-02-08T22:00:00,1038A,118.1725,39.6334,唐山市,物资局,细颗粒物(PM2.5),90,72,82,67,51,82,34,70,50,63,56,12,16,0.6,1.1
2023-02-08T22:00:00,1040A,118.1705,39.6506,唐山市,十二中,细颗粒物(PM2.5),64,52,78,46,54,74,41,64,49,54,55,9,15,0.5,1.1
2023-02-08T22:00:00,1041A,118.1869,39.622,唐山市,小山,颗粒物(PM10),63,76,78,44,45,77,28,68,51,60,54,11,16,0.5,1
2023-02-08T22:00:00,1042A,119.5134,39.8207,秦皇岛市,北戴河环保局,细颗粒物(PM2.5),54,38,49,38,38,84,57,75,73,26,46,4,8,0.4,0.6
2023-02-08T22:00:00,1043A,119.7493,40.0116,秦皇岛市,第一关,,,89,61,54,37,87,7,75,54,76,46,14,9,1.1,0.6
2023-02-08T22:00:00,1044A,119.5897,39.9499,秦皇岛市,监测站,颗粒物(PM10),51,52,67,30,46,68,33,64,55,46,46,7,8,0.4,0.6
2023-02-08T22:00:00,1046A,119.5251,39.9041,秦皇岛市,建设大厦,颗粒物(PM10),51,52,64,30,33,84,17,77,62,70,43,9,8,0.9,0.7
2023-02-08T22:00:00,1047A,114.5129,36.61763,邯郸市,环保局,,,,,,,,,,,,,,,,
2023-02-08T22:00:00,1048A,114.5302,36.6116,邯郸市,东污水处理厂,细颗粒物(PM2.5),75,94,127,55,87,93,52,78,71,47,52,11,12,0.9,0.9
2023-02-08T22:00:00,1049A,114.4918,36.5713,邯郸市,矿院,细颗粒物(PM2.5),79,83,118,58,92,92,63,79,77,28,36,9,11,0.9,1
2023-02-08T22:00:00,1050A,114.484,36.6133,邯郸市,丛台公园,细颗粒物(PM2.5),74,85,117,54,89,87,59,76,74,26,36,14,14,1.0,1.1
2023-02-08T22:00:00,1051A,115.493,38.8632,保定市,游泳馆,细颗粒物(PM2.5),87,92,80,64,59,78,23,68,58,76,44,12,12,1.1,0.8
2023-02-08T22:00:00,1052A,115.5213,38.8959,保定市,华电二区,细颗粒物(PM2.5),64,59,87,46,69,82,6,68,48,111,70,8,10,1.7,1.3
2023-02-08T22:00:00,1053A,115.4713,38.9108,保定市,接待中心,细颗粒物(PM2.5),85,102,89,63,64,71,7,62,46,70,47,10,9,1.2,1
2023-02-08T22:00:00,1054A,115.4612,38.8416,保定市,地表水厂,细颗粒物(PM2.5),82,106,97,60,52,74,13,63,49,93,55,11,10,1.1,0.8
2023-02-08T22:00:00,1055A,115.4323,38.8697,保定市,胶片厂,,,,,,,,,,,,,,,,
2023-02-08T22:00:00,1056A,115.5086,38.8639,保定市,监测站,细颗粒物(PM2.5),84,100,88,62,65,77,8,68,50,96,50,12,11,1.5,1
2023-02-08T22:00:00,1057A,114.8883,40.8336,张家口市,人民公园,,45,45,22,27,13,86,49,81,66,25,12,23,7,0.9,0.6
2023-02-08T22:00:00,1059A,114.8687,40.8042,张家口市,五金库,细颗粒物(PM2.5),64,51,19,46,19,78,36,74,65,45,16,20,10,0.8,0.4
2023-02-08T22:00:00,1060A,114.8902,40.762,张家口市,世纪豪园,细颗粒物(PM2.5),57,55,26,40,18,83,59,75,69,21,12,5,18,0.6,0.5
2023-02-08T22:00:00,1061A,114.8916,40.8661,张家口市,北泵房,,49,49,23,34,18,92,48,83,64,25,13,28,11,0.5,0.3
2023-02-08T22:00:00,1062A,117.9531,40.9081,承德市,铁路,颗粒物(PM10),52,54,36,30,22,74,26,66,39,34,27,15,13,0.9,0.5
2023-02-08T22:00:00,1063A,117.9392,40.9763,承德市,中国银行,,49,49,33,30,18,73,9,64,40,54,29,10,8,0.9,0.5
2023-02-08T22:00:00,1064A,117.9503,40.928,承德市,开发区,细颗粒物(PM2.5),59,51,42,42,30,76,9,66,40,55,41,13,10,1.0,0.6
2023-02-08T22:00:00,1065A,117.8051,40.9655,承德市,文化中心,颗粒物(PM10),67,83,47,27,19,79,5,76,29,57,27,16,14,0.9,0.6
2023-02-08T22:00:00,1066A,117.9268,41.0026,承德市,离宫,,33,21,16,23,15,70,26,70,46,31,13,15,10,0.6,0.3
2023-02-08T22:00:00,1067A,116.6708,39.5111,廊坊市,药材公司,细颗粒物(PM2.5),63,66,60,45,37,81,42,74,59,47,44,9,6,1.0,0.7
2023-02-08T22:00:00,1068A,116.7214,39.5589,廊坊市,开发区,细颗粒物(PM2.5),69,78,63,50,42,81,54,76,65,47,53,13,8,0.9,0.7
2023-02-08T22:00:00,1070A,116.7244,39.5269,廊坊市,北华航天学院,细颗粒物(PM2.5),65,76,67,47,38,82,55,76,65,41,48,17,11,0.7,0.6
2023-02-08T22:00:00,1071A,116.8842,38.2991,沧州市,沧县城建局,细颗粒物(PM2.5),67,70,77,48,54,82,55,70,64,49,44,27,15,0.6,0.8
2023-02-08T22:00:00,1072A,116.8584,38.3254,沧州市,电视转播站,细颗粒物(PM2.5),69,57,69,50,47,84,66,78,70,32,43,27,11,0.5,0.8
2023-02-08T22:00:00,1073A,116.8709,38.3228,沧州市,市环保局,颗粒物(PM10),66,82,76,41,43,83,53,72,64,45,45,16,10,0.6,0.7
2023-02-08T22:00:00,1074A,115.6838,37.7541,衡水市,电机北厂,颗粒物(PM10),63,75,100,43,66,81,51,69,64,33,47,9,9,0.4,0.8
2023-02-08T22:00:00,1075A,115.6303,37.7316,衡水市,市监测站,颗粒物(PM10),65,80,108,45,66,83,59,74,72,26,42,17,16,0.5,0.8
2023-02-08T22:00:00,1077A,114.4704,37.0886,邢台市,达活泉,细颗粒物(PM2.5),117,96,99,88,94,85,46,75,70,44,33,13,9,1.0,0.9
2023-02-08T22:00:00,1078A,114.5062,37.0349,邢台市,邢师高专,,,,98,,85,88,,84,84,,30,,10,,0.9
2023-02-08T22:00:00,1079A,114.5237,37.0851,邢台市,路桥公司,细颗粒物(PM2.5),104,95,103,78,82,89,52,76,71,31,29,19,13,1.2,1
2023-02-08T22:00:00,1080A,114.4725,37.0719,邢台市,市环保局,细颗粒物(PM2.5),113,97,109,85,95,88,54,79,75,39,32,14,10,1.0,0.8
2023-02-08T22:00:00,1081A,112.522,37.8873,太原市,尖草坪,细颗粒物(PM2.5),98,114,124,73,76,90,72,85,75,31,52,9,16,0.5,0.9
2023-02-08T22:00:00,1082A,112.573,37.9103,太原市,涧河,,,,,,,,,,,,,,,,
2023-02-08T22:00:00,1083A,112.434,38.0108,太原市,上兰,,,,,,,,,,,,,,,,
2023-02-08T22:00:00,1084A,112.469,37.7124,太原市,晋源,细颗粒物(PM2.5),70,82,123,51,79,86,60,81,71,37,60,14,20,0.7,1.1
2023-02-08T22:00:00,1085A,112.5583,37.7394,太原市,小店,颗粒物(PM10),71,92,155,44,91,100,60,87,72,38,60,8,16,0.6,1.1
2023-02-08T22:00:00,1086A,112.5369,37.8692,太原市,桃园,细颗粒物(PM2.5),103,114,133,77,85,93,73,86,74,33,60,8,18,0.6,1.1
2023-02-08T22:00:00,1087A,112.57,37.8195,太原市,坞城,细颗粒物(PM2.5),92,95,126,68,85,106,81,93,87,30,59,9,18,0.6,1.1
2023-02-08T22:00:00,1088A,112.549,37.9854,太原市,南寨,细颗粒物(PM2.5),74,74,117,54,71,94,46,89,71,55,47,9,9,0.7,0.9
2023-02-08T22:00:00,1089A,112.4783,37.7778,太原市,金胜,,,,,,,,,,,,,,,,
2023-02-08T22:00:00,1090A,111.6507,40.7517,呼和浩特市,呼市一监,,41,41,23,26,13,88,37,78,66,36,18,15,9,0.6,0.4
2023-02-08T22:00:00,1091A,111.6572,40.8033,呼和浩特市,小召,,41,41,23,17,11,71,28,65,52,44,27,26,16,0.7,0.5
2023-02-08T22:00:00,1094A,111.7516,40.8369,呼和浩特市,如意水处理厂,,46,46,27,20,11,94,22,83,63,57,29,18,13,0.8,0.5
2023-02-08T22:00:00,1095A,111.7276,40.8062,呼和浩特市,二十九中,颗粒物(PM10),53,55,25,23,14,90,25,80,64,47,23,12,10,0.8,0.5
2023-02-08T22:00:00,1096A,111.5512,40.7866,呼和浩特市,工大金川校区,,47,47,30,26,12,85,12,66,50,64,34,17,16,0.7,0.5
2023-02-08T22:00:00,1097A,111.717,40.7612,呼和浩特市,化肥厂生活区,颗粒物(PM10),51,51,30,23,13,100,48,92,74,31,15,15,10,0.6,0.3
2023-02-08T22:00:00,1098A,123.6836,41.9339,沈阳市,森林路,,,,,,,,,,,,,,,,
2023-02-08T22:00:00,1099A,123.505,41.7406,沈阳市,浑南东路,细颗粒物(PM2.5),149,137,76,114,52,66,10,52,35,80,49,20,16,1.6,0.9
2023-02-08T22:00:00,1100A,123.4231,41.6989,沈阳市,新秀街,细颗粒物(PM2.5),90,99,81,67,52,73,7,60,32,78,52,14,13,1.1,1.1
2023-02-08T22:00:00,1102A,123.5903,41.8411,沈阳市,东陵路,细颗粒物(PM2.5),89,88,59,66,38,79,8,64,46,72,44,16,12,1.2,0.8
2023-02-08T22:00:00,1103A,123.4264,41.8467,沈阳市,陵东街,颗粒物(PM10),57,63,50,27,28,84,15,74,56,75,41,13,11,0.8,0.5
2023-02-08T22:00:00,1104A,123.4114,41.7653,沈阳市,文化路,细颗粒物(PM2.5),89,96,67,66,46,77,6,63,41,90,53,13,15,1.2,0.9
2023-02-08T22:00:00,1105A,123.4678,41.7867,沈阳市,小河沿,"颗粒物(PM10),细颗粒物(PM2.5)",75,100,59,55,35,76,9,63,44,93,51,18,17,1.4,0.9
2023-02-08T22:00:00,1106A,123.4017,41.7972,沈阳市,太原街,细颗粒物(PM2.5),67,78,62,48,38,76,9,63,39,75,46,26,16,0.7,0.7
2023-02-08T22:00:00,1108A,123.3783,41.9228,沈阳市,京沈街,颗粒物(PM10),51,52,61,30,43,83,17,73,48,75,44,30,13,0.7,0.9
2023-02-08T22:00:00,1109A,121.612,38.9741,大连市,甘井子,,37,37,73,24,47,91,58,76,67,29,29,13,15,0.5,0.7
2023-02-08T22:00:00,1110A,121.565,38.9511,大连市,周水子,颗粒物(PM10),64,78,98,44,55,86,22,72,51,69,42,15,17,1.2,1.1
2023-02-08T22:00:00,1111A,121.5637,38.8845,大连市,星海三站,,46,41,59,32,46,70,26,64,50,46,38,53,30,0.9,1
2023-02-08T22:00:00,1112A,121.6302,38.9117,大连市,青泥洼桥,颗粒物(PM10),52,54,72,27,44,82,35,71,56,56,35,16,18,0.7,0.8
2023-02-08T22:00:00,1113A,121.6251,38.8638,大连市,傅家庄,颗粒物(PM10),51,52,61,28,35,84,38,76,64,54,33,27,23,0.6,0.8
2023-02-08T22:00:00,1114A,121.5213,38.8661,大连市,七贤岭,,41,41,51,22,41,95,72,89,83,21,21,19,16,0.6,0.8
2023-02-08T22:00:00,1115A,121.2529,38.8061,大连市,旅顺,细颗粒物(PM2.5),58,44,49,41,45,89,75,82,80,15,20,14,15,0.8,1
2023-02-08T22:00:00,1116A,121.7485,39.1311,大连市,金州,,43,36,59,30,47,84,52,72,61,29,30,16,15,0.8,1
2023-02-08T22:00:00,1117A,121.7811,39.0496,大连市,开发区,细颗粒物(PM2.5),52,46,44,36,32,78,48,72,58,37,29,21,16,0.8,0.8
2023-02-08T22:00:00,1118A,121.9762,39.0631,大连市,双D港,,39,33,39,27,34,90,74,81,77,18,21,18,20,0.7,0.8
2023-02-08T22:00:00,1119A,125.3325,43.9166,长春市,食品厂,颗粒物(PM10),67,84,52,47,30,72,12,62,34,68,36,8,9,1.1,0.6
2023-02-08T22:00:00,1120A,125.2863,43.9027,长春市,客车厂,细颗粒物(PM2.5),94,115,50,70,33,68,5,61,33,70,33,11,11,1.4,0.6
2023-02-08T22:00:00,1121A,125.2841,43.8463,长春市,邮电学院,颗粒物(PM10),55,60,47,37,30,73,19,65,43,55,33,22,17,0.7,0.5
2023-02-08T22:00:00,1122A,125.3716,43.8772,长春市,劳动公园,,50,50,44,32,26,73,30,65,45,46,35,11,17,0.5,0.4
2023-02-08T22:00:00,1123A,125.3297,43.8805,长春市,园林处,,43,40,41,30,26,68,34,58,41,38,32,10,15,0.3,0.3
2023-02-08T22:00:00,1124A,125.4605,43.79,长春市,净月潭,,40,40,40,18,20,74,36,66,52,22,19,6,5,0.5,0.5
2023-02-08T22:00:00,1125A,125.7194,43.515,长春市,甩湾子,,,,,,,,,,,,,,,,
2023-02-08T22:00:00,1126A,125.3863,43.8447,长春市,经开区环卫处,颗粒物(PM10),54,58,49,27,27,71,11,61,39,58,37,12,17,0.8,0.6
2023-02-08T22:00:00,1127A,125.245,43.7783,长春市,高新区管委会,细颗粒物(PM2.5),80,79,46,59,34,73,6,68,42,57,29,8,7,0.9,0.6
2023-02-08T22:00:00,1128A,125.1761,43.8325,长春市,岱山公园,细颗粒物(PM2.5),79,96,50,58,28,74,15,67,39,66,34,13,7,1.2,0.6
2023-02-08T22:00:00,1129A,126.5422,45.755,哈尔滨市,岭北,,44,44,70,24,57,78,53,68,63,23,40,15,25,0.5,0.8
2023-02-08T22:00:00,1130A,126.561,45.8167,哈尔滨市,松北商大,,45,41,84,31,57,77,11,63,41,64,50,6,16,0.7,0.9
2023-02-08T22:00:00,1131A,126.979,45.5419,哈尔滨市,阿城会宁,细颗粒物(PM2.5),129,131,80,98,57,72,10,60,38,54,30,14,15,1.2,0.7
2023-02-08T22:00:00,1132A,126.599,45.7222,哈尔滨市,南岗学府路,细颗粒物(PM2.5),64,62,91,46,49,75,14,65,49,70,47,20,38,0.9,0.8
2023-02-08T22:00:00,1133A,126.689,45.7733,哈尔滨市,太平宏伟公园,,40,40,91,18,60,81,53,68,62,31,42,8,13,0.4,0.8
2023-02-08T22:00:00,1134A,126.635,45.7667,哈尔滨市,道外承德广场,颗粒物(PM10),67,83,73,24,49,72,9,61,48,72,47,11,14,0.7,0.9
2023-02-08T22:00:00,1135A,126.685,45.7319,哈尔滨市,香坊红旗大街,,50,41,80,35,67,75,31,68,57,52,45,11,19,0.6,0.9
2023-02-08T22:00:00,1136A,126.6411,45.7258,哈尔滨市,动力和平路,,45,38,77,31,58,68,25,59,47,54,47,11,21,0.6,0.8
2023-02-08T22:00:00,1137A,126.593,45.7478,哈尔滨市,道里建国路,细颗粒物(PM2.5),55,42,74,39,57,65,15,55,43,66,48,16,27,0.9,1.2
2023-02-08T22:00:00,1138A,126.615,45.61,哈尔滨市,平房东轻厂,细颗粒物(PM2.5),69,61,76,50,59,81,16,67,37,75,40,20,15,1.5,1.1
2023-02-08T22:00:00,1139A,126.595,45.9855,哈尔滨市,呼兰师专,细颗粒物(PM2.5),58,53,87,41,75,72,36,53,45,38,44,16,16,0.8,1
2023-02-08T22:00:00,1140A,126.6206,45.6842,哈尔滨市,省农科院,细颗粒物(PM2.5),114,136,114,86,74,80,10,64,36,85,51,48,29,1.9,1.4
2023-02-08T22:00:00,1141A,121.4,31.238,上海市,普陀,,,31,51,8,43,107,76,102,72,25,26,4,5,,0.7
2023-02-08T22:00:00,1142A,121.478,31.2036,上海市,十五厂,,28,28,49,12,42,97,66,88,65,30,32,5,6,0.5,0.7
2023-02-08T22:00:00,1143A,121.467,31.3008,上海市,虹口,,29,29,65,16,49,89,71,82,62,22,31,8,7,0.6,0.8
2023-02-08T22:00:00,1144A,121.412,31.1654,上海市,徐汇上师大,,28,28,45,13,37,98,67,90,65,26,26,7,7,0.4,0.6
2023-02-08T22:00:00,1145A,121.536,31.2659,上海市,杨浦四漂,,22,22,60,12,46,90,70,83,67,26,33,6,7,0.4,0.6
2023-02-08T22:00:00,1146A,120.978,31.0935,上海市,青浦淀山湖,,,,,,,,,,,,,,,,
2023-02-08T22:00:00,1147A,121.425,31.2261,上海市,静安监测站,,30,30,67,12,43,106,72,99,69,31,32,7,8,0.5,0.6
2023-02-08T22:00:00,1148A,121.703,31.1907,上海市,浦东川沙,,32,28,46,22,46,94,73,86,66,15,23,5,5,0.6,0.7
2023-02-08T22:00:00,1149A,121.533,31.2284,上海市,浦东新区监测站,,29,29,67,15,45,94,70,80,67,22,29,5,6,0.6,0.7
2023-02-08T22:00:00,1150A,121.577,31.2071,上海市,浦东张江,,30,30,48,11,36,94,64,85,62,24,26,4,4,0.8,0.9
2023-02-08T22:00:00,1151A,118.8086,32.1065,南京市,迈皋桥,,37,37,88,12,55,80,66,70,67,10,32,3,4,0.2,0.5
2023-02-08T22:00:00,1152A,118.7538,32.0551,南京市,草场门,,38,38,78,17,47,87,57,70,64,17,36,1,2,0.4,0.6
2023-02-08T22:00:00,1153A,118.7794,32.0745,南京市,山西路,,34,34,83,17,54,77,65,73,70,13,35,4,4,0.2,0.4
2023-02-08T22:00:00,1154A,118.7752,32.0023,南京市,中华门,,36,36,74,17,47,90,52,72,59,21,31,6,5,0.5,0.6
2023-02-08T22:00:00,1155A,118.8109,32.0309,南京市,瑞金路,,38,38,85,14,48,94,55,74,62,24,35,4,4,0.3,0.5
2023-02-08T22:00:00,1156A,118.7997,32.0754,南京市,玄武湖,,40,40,90,23,59,63,53,59,56,17,36,4,4,0.3,0.5
2023-02-08T22:00:00,1157A,118.6414,32.0931,南京市,浦口,,39,39,93,14,55,79,57,65,61,25,36,6,5,0.1,0.3
2023-02-08T22:00:00,1158A,118.7356,31.9996,南京市,奥体中心,,45,45,92,24,55,93,54,74,62,31,42,4,4,0.5,0.7
2023-02-08T22:00:00,1159A,118.9125,32.1028,南京市,仙林大学城,,34,34,78,17,56,74,66,68,68,15,36,4,4,0.3,0.6
2023-02-08T22:00:00,1160A,120.561,31.2472,苏州市,上方山,,42,33,71,29,54,78,58,74,53,24,27,6,6,0.7,0.9
2023-02-08T22:00:00,1161A,120.628,31.2864,苏州市,南门,,,,,,,,,,,,,,,,
2023-02-08T22:00:00,1162A,120.591,31.3019,苏州市,彩香,,26,26,72,15,52,94,59,87,60,28,24,5,5,0.5,0.7
2023-02-08T22:00:00,1163A,120.596,31.3264,苏州市,轧钢厂,,25,25,75,12,47,84,54,77,52,28,25,5,5,0.5,0.7
2023-02-08T22:00:00,1164A,120.613,31.2703,苏州市,吴中区,,24,24,69,13,47,85,65,80,57,24,29,5,5,0.5,0.6
2023-02-08T22:00:00,1165A,120.543,31.2994,苏州市,苏州新区,,24,24,68,15,50,88,49,82,54,28,19,6,6,0.5,0.6
2023-02-08T22:00:00,1166A,120.669,31.3097,苏州市,苏州工业园区,,27,27,74,14,50,97,67,87,64,23,23,6,6,0.5,0.7
2023-02-08T22:00:00,1167A,120.641,31.3708,苏州市,相城区,,27,27,68,13,52,85,60,80,57,22,22,5,5,0.5,0.7
2023-02-08T22:00:00,1168A,120.9098,31.9663,南通市,狼山街道,,27,27,65,10,42,109,82,103,85,13,14,8,8,0.4,0.5
2023-02-08T22:00:00,1169A,120.86,32.0005,南通市,虹桥,,30,30,76,14,51,101,84,98,83,14,17,4,4,0.4,0.6
2023-02-08T22:00:00,1170A,120.87,32.02,南通市,城中,,28,28,77,12,49,109,85,106,86,16,16,4,5,0.1,0.3
2023-02-08T22:00:00,1171A,120.94,31.93,南通市,星湖花园,,27,27,76,12,49,99,74,92,76,16,16,8,8,0.3,0.6
2023-02-08T22:00:00,1172A,120.81,32.0417,南通市,紫琅学院,,35,35,75,12,44,104,74,99,77,17,17,5,4,0.2,0.4
2023-02-08T22:00:00,1173A,119.176,34.5885,连云港市,市环境监测站,颗粒物(PM10),52,53,107,34,85,85,82,78,78,18,33,7,7,0.3,0.5
2023-02-08T22:00:00,1177A,117.179,34.2761,徐州市,黄河新村,细颗粒物(PM2.5),107,117,144,80,112,63,63,52,52,23,42,12,10,1.1,1.4
2023-02-08T22:00:00,1178A,117.1918,34.2384,徐州市,淮塔,细颗粒物(PM2.5),100,117,155,75,115,66,64,55,55,25,42,9,8,0.9,1.1
2023-02-08T22:00:00,1180A,117.256,34.2153,徐州市,新城区,细颗粒物(PM2.5),153,115,147,117,120,63,58,52,52,22,39,10,10,0.9,1.1
2023-02-08T22:00:00,1181A,117.244,34.2911,徐州市,桃园路,细颗粒物(PM2.5),110,117,165,83,121,61,58,59,59,20,48,10,7,1.0,1.2
2023-02-08T22:00:00,1182A,117.2933,34.2778,徐州市,农科院,细颗粒物(PM2.5),77,95,156,56,115,62,58,53,53,18,40,11,8,0.9,1.2
2023-02-08T22:00:00,1186A,119.389,32.3761,扬州市,邗江监测站,,35,35,83,14,65,92,75,81,73,19,24,3,3,0.3,0.5
2023-02-08T22:00:00,1188A,120.269,31.4867,无锡市,雪浪,,31,31,64,12,41,72,49,68,47,29,28,7,8,0.5,0.8
2023-02-08T22:00:00,1189A,120.275,31.6219,无锡市,黄巷,,47,47,88,12,45,73,61,68,57,32,38,7,7,0.3,0.6
2023-02-08T22:00:00,1190A,120.294,31.56,无锡市,曹张,,29,29,74,7,43,79,63,69,57,20,30,4,4,0.2,0.4
2023-02-08T22:00:00,1191A,120.242,31.5031,无锡市,漆塘,,29,29,68,17,45,82,64,76,59,16,21,6,7,0.7,0.9
2023-02-08T22:00:00,1192A,120.3489,31.5863,无锡市,东亭,,34,34,72,14,49,79,59,68,55,24,35,8,9,0.5,0.7
2023-02-08T22:00:00,1193A,120.354,31.5475,无锡市,旺庄,,24,24,66,14,45,75,61,70,55,25,30,3,4,0.3,0.5
2023-02-08T22:00:00,1194A,120.245,31.5631,无锡市,荣巷,,24,24,68,9,43,73,58,67,54,22,26,9,10,0.4,0.6
2023-02-08T22:00:00,1195A,120.299,31.6817,无锡市,堰桥,,29,29,67,9,46,78,64,73,64,16,19,5,8,0.6,0.9
2023-02-08T22:00:00,1196A,119.9633,31.762,常州市,市监测站,,26,26,103,16,72,68,60,59,55,25,37,6,7,0.6,1.1
2023-02-08T22:00:00,1200A,119.9468,31.7069,常州市,武进监测站,,30,25,104,21,72,71,62,62,58,22,35,9,10,0.9,1.4
2023-02-08T22:00:00,1201A,119.9255,31.9087,常州市,安家,,29,27,78,20,57,83,48,77,57,35,26,9,7,0.6,0.7
2023-02-08T22:00:00,1203A,119.6707,32.1875,镇江市,新区办事处,,27,27,76,16,58,88,74,81,75,13,17,2,2,0.3,0.4
2023-02-08T22:00:00,1204A,119.4974,32.1968,镇江市,职教中心,,25,17,60,14,56,90,78,83,78,15,28,3,5,0.1,0.6
2023-02-08T22:00:00,1205A,119.4303,32.1328,镇江市,丹徒区监测站,,29,29,79,18,60,84,71,77,74,19,28,3,3,0.3,0.5
2023-02-08T22:00:00,1206A,119.905,32.4878,泰州市,公园路,,29,29,69,14,52,94,78,90,79,13,14,6,6,0.6,0.8
2023-02-08T22:00:00,1207A,119.9189,32.4625,泰州市,莲花,,29,29,69,15,57,94,78,90,79,14,14,6,6,0.5,0.8
2023-02-08T22:00:00,1209A,119.888,32.4639,泰州市,留学生创业园,,25,25,74,12,47,92,77,87,76,12,16,6,6,0.5,0.8
2023-02-08T22:00:00,1210A,119.036,33.5981,淮安市,钵池山,,41,41,80,24,69,90,61,86,79,16,15,5,5,0.5,0.7
2023-02-08T22:00:00,1211A,119.007,33.575,淮安市,北京南路,细颗粒物(PM2.5),53,34,81,37,67,86,57,82,75,18,18,6,6,0.5,0.7
2023-02-08T22:00:00,1212A,118.989,33.6067,淮安市,市监测站,,41,41,81,24,66,92,64,89,83,19,18,5,5,0.5,0.7
2023-02-08T22:00:00,1213A,119.135,33.5039,淮安市,楚州区监测站,,43,34,83,30,68,84,55,80,72,19,16,5,5,0.5,0.7
2023-02-08T22:00:00,1214A,119.0186,33.6297,淮安市,淮阴区监测站,,44,44,92,21,75,88,56,85,78,23,17,7,6,0.5,0.6
2023-02-08T22:00:00,1215A,120.118,33.4022,盐城市,盐城电厂,,41,41,73,20,45,115,96,110,86,12,16,7,6,0.4,0.6
2023-02-08T22:00:00,1216A,120.156,33.3942,盐城市,市监测站,,39,39,74,20,40,110,93,107,84,13,12,7,7,0.5,0.6
2023-02-08T22:00:00,1218A,120.2144,33.38,盐城市,开发区管委会,,46,46,82,19,51,111,87,109,83,16,14,5,6,0.5,0.6
2023-02-08T22:00:00,1220A,118.293,33.9528,宿迁市,宿迁学院,细颗粒物(PM2.5),92,55,123,68,93,84,60,74,73,24,27,4,5,0.7,1
2023-02-08T22:00:00,1221A,118.2442,33.9592,宿迁市,宿迁中学,细颗粒物(PM2.5),75,53,131,55,95,79,51,68,68,23,25,7,7,0.4,0.6
2023-02-08T22:00:00,1223A,120.2072,30.2111,杭州市,滨江,,40,40,58,19,31,101,42,84,73,42,37,6,7,0.6,0.6
2023-02-08T22:00:00,1224A,120.0633,30.2747,杭州市,西溪,细颗粒物(PM2.5),70,72,84,51,48,100,43,80,70,30,28,7,8,0.7,0.6
2023-02-08T22:00:00,1225A,119.026,29.635,杭州市,千岛湖,,,,,,,,,,,,,,,,
2023-02-08T22:00:00,1226A,120.3461,30.3153,杭州市,下沙,,49,44,83,34,57,110,32,85,62,50,39,5,6,0.5,0.6
2023-02-08T22:00:00,1227A,120.1269,30.2456,杭州市,卧龙桥,细颗粒物(PM2.5),60,56,67,43,47,100,36,85,70,28,30,5,6,0.6,0.6
2023-02-08T22:00:00,1228A,120.1903,30.2692,杭州市,浙江农大,细颗粒物(PM2.5),54,45,72,38,66,101,45,83,69,33,33,4,4,0.4,0.7
2023-02-08T22:00:00,1229A,120.157,30.2897,杭州市,朝晖五区,,,,,,,,,,,,,,,,
2023-02-08T22:00:00,1230A,120.1197,30.3119,杭州市,和睦小学,细颗粒物(PM2.5),80,85,94,59,61,92,29,80,57,52,42,4,4,0.8,0.7
2023-02-08T22:00:00,1231A,120.3019,30.4183,杭州市,临平镇,细颗粒物(PM2.5),65,68,89,47,62,104,36,81,57,36,29,6,6,0.9,0.9
2023-02-08T22:00:00,1232A,120.2697,30.1819,杭州市,城厢镇,,40,40,51,23,37,96,42,85,68,40,37,8,7,0.7,0.8
2023-02-08T22:00:00,1233A,120.0883,30.1808,杭州市,云栖,,43,43,62,24,31,102,44,88,77,34,29,5,6,0.7,0.7
2023-02-08T22:00:00,1234A,121.8358,29.911,宁波市,区环保大楼,,36,19,49,10,35,97,13,84,58,72,42,8,8,0.6,0.7
2023-02-08T22:00:00,1235A,121.56,29.82,宁波市,万里学院,,36,36,70,19,29,110,36,97,74,52,30,5,6,0.5,0.6
2023-02-08T22:00:00,1236A,121.713,29.9572,宁波市,龙赛医院,,31,31,47,12,28,102,37,98,60,48,30,6,6,0.4,0.7
2023-02-08T22:00:00,1239A,121.633,29.7733,宁波市,钱湖水厂,,25,24,48,17,38,94,28,88,65,32,21,4,5,0.5,0.6
2023-02-08T22:00:00,1240A,121.5856,29.8635,宁波市,太古小学,,32,32,64,20,44,103,29,90,67,56,33,9,10,0.7,0.8
2023-02-08T22:00:00,1241A,121.524,29.8674,宁波市,市环境监测中心,,27,27,47,8,22,104,39,100,70,38,23,5,5,0.4,0.5
2023-02-08T22:00:00,1242A,120.634,28.0089,温州市,瓯海,,20,20,19,14,13,75,48,58,51,28,27,5,6,0.4,0.4
2023-02-08T22:00:00,1243A,120.6748,27.9939,温州市,南浦,,26,18,20,18,19,73,60,66,62,22,23,4,4,0.4,0.3
2023-02-08T22:00:00,1244A,120.76,27.9747,温州市,龙湾,,25,17,21,17,15,70,62,57,46,30,32,5,5,0.5,0.5
2023-02-08T22:00:00,1245A,120.6709,28.0167,温州市,市站,,30,23,23,21,20,69,56,65,64,26,26,4,4,0.6,0.6
2023-02-08T22:00:00,1246A,120.598,30.0911,绍兴市,袍江站,,,,,,,,,,,,,,,,
2023-02-08T22:00:00,1247A,120.6053,29.9928,绍兴市,城东开发委,,32,32,61,18,38,98,56,83,73,34,32,4,4,0.7,0.8
2023-02-08T22:00:00,1250A,120.0751,30.8669,湖州市,城西水厂,,34,34,57,18,60,87,42,83,55,37,34,4,5,0.4,0.7
2023-02-08T22:00:00,1252A,120.7436,30.778,嘉兴市,清河小学,,29,21,66,20,49,73,31,68,44,42,39,5,6,0.8,0.9
2023-02-08T22:00:00,1253A,120.726,30.7478,嘉兴市,嘉兴学院,,38,38,69,15,48,92,41,79,46,38,41,4,7,0.3,0.5
2023-02-08T22:00:00,1255A,121.273,28.6459,台州市,黄岩环保大楼,,50,45,42,35,28,87,69,76,66,23,25,6,7,0.5,0.5
2023-02-08T22:00:00,1256A,121.419,28.6542,台州市,台州环保大楼,细颗粒物(PM2.5),57,54,49,40,24,94,55,82,62,31,20,7,8,0.7,0.5
2023-02-08T22:00:00,1257A,121.377,28.5773,台州市,路桥田洋王,细颗粒物(PM2.5),63,59,52,45,18,92,69,83,74,24,20,6,7,0.6,0.5
2023-02-08T22:00:00,1258A,122.122,30.0203,舟山市,定海檀枫,,27,27,53,10,26,121,80,104,87,16,16,4,4,0.5,0.6
2023-02-08T22:00:00,1259A,122.3094,29.9558,舟山市,普陀东港,,,28,57,16,34,124,,112,93,12,13,5,5,0.3,0.6
2023-02-08T22:00:00,1260A,122.19,29.9944,舟山市,临城新区,,32,32,58,14,30,124,81,106,89,18,19,4,5,0.4,0.5
2023-02-08T22:00:00,1261A,119.649,29.1131,金华市,四中,,,,,,,,,,,,,,,,
2023-02-08T22:00:00,1262A,119.647,29.077,金华市,十五中,细颗粒物(PM2.5),82,55,38,60,46,70,64,65,62,29,28,4,5,0.7,0.6
2023-02-08T22:00:00,1263A,119.686,29.1029,金华市,监测站,细颗粒物(PM2.5),82,34,33,60,46,72,67,64,64,29,30,4,5,0.7,0.6
2023-02-08T22:00:00,1264A,118.8692,28.9398,衢州市,环保大楼,,46,27,34,32,30,75,66,69,67,18,21,3,3,0.5,0.5
2023-02-08T22:00:00,1265A,118.8709,28.9666,衢州市,实验学校,,36,33,32,25,25,81,75,74,74,13,20,3,6,0.7,0.7
2023-02-08T22:00:00,1266A,118.8621,28.9808,衢州市,衢州学院,,39,32,33,27,29,78,73,72,72,14,16,3,3,0.6,0.5
2023-02-08T22:00:00,1267A,119.914,28.4514,丽水市,监测站大楼,,22,5,13,1,6,69,68,62,62,10,13,6,7,0.5,0.5
2023-02-08T22:00:00,1268A,119.93,28.4586,丽水市,莲都小学,,24,5,12,3,10,79,76,70,70,10,14,6,6,0.3,0.3
2023-02-08T22:00:00,1269A,119.879,28.4231,丽水市,余庄前,,20,7,16,10,11,71,64,63,63,10,15,8,8,0.4,0.4
2023-02-08T22:00:00,1270A,117.1959,31.7848,合肥市,明珠广场,细颗粒物(PM2.5),98,112,89,73,55,75,48,62,60,33,34,6,7,1.0,0.9
2023-02-08T22:00:00,1271A,117.3072,31.8764,合肥市,三里街,细颗粒物(PM2.5),118,110,91,89,72,70,38,56,54,38,34,4,4,0.9,0.8
2023-02-08T22:00:00,1272A,117.2588,31.8707,合肥市,琥珀山庄,细颗粒物(PM2.5),94,110,86,70,55,80,46,66,63,39,35,4,4,0.9,0.8
2023-02-08T22:00:00,1273A,117.1604,31.9052,合肥市,董铺水库,细颗粒物(PM2.5),94,117,87,70,53,77,56,68,65,20,20,4,4,0.6,0.5
2023-02-08T22:00:00,1274A,117.25,31.8571,合肥市,长江中路,细颗粒物(PM2.5),128,114,87,97,73,69,42,61,56,31,26,9,10,1.0,0.9
2023-02-08T22:00:00,1275A,117.266,31.9436,合肥市,庐阳区,细颗粒物(PM2.5),98,114,87,73,57,72,52,62,60,24,26,6,6,0.8,0.7
2023-02-08T22:00:00,1276A,117.336,31.8586,合肥市,瑶海区,细颗粒物(PM2.5),112,114,92,84,69,70,43,59,56,30,28,5,5,0.9,0.9
2023-02-08T22:00:00,1277A,117.3027,31.7964,合肥市,包河区,细颗粒物(PM2.5),113,114,93,85,69,65,22,50,44,54,43,6,6,0.9,0.9
2023-02-08T22:00:00,1278A,117.2776,31.7385,合肥市,滨湖新区,细颗粒物(PM2.5),100,122,91,75,57,71,51,65,64,28,28,6,3,0.7,0.7
2023-02-08T22:00:00,1279A,117.1318,31.8403,合肥市,高新区,细颗粒物(PM2.5),104,105,84,78,62,75,45,66,62,32,28,6,6,1.0,0.9
2023-02-08T22:00:00,1280A,119.3903,26.0543,福州市,鼓山,,,,,,,,,,,,,,,,
2023-02-08T22:00:00,1282A,119.2681,26.0504,福州市,师大,,18,17,17,11,6,82,57,73,63,21,19,3,3,0.6,0.4
2023-02-08T22:00:00,1283A,119.2984,26.1028,福州市,五四北路,,18,11,10,7,4,86,56,83,73,19,12,2,2,0.8,0.5
2023-02-08T22:00:00,1284A,119.2648,26.0768,福州市,杨桥西路,,18,16,14,8,4,84,57,79,75,16,11,2,2,0.7,0.5
2023-02-08T22:00:00,1285A,119.317,26.0746,福州市,紫阳,,19,16,14,9,4,80,58,79,68,18,12,3,6,0.7,0.5
2023-02-08T22:00:00,1286A,118.1608,24.8169,厦门市,溪东,,,,,,,,,,,,,,,,
2023-02-08T22:00:00,1287A,118.1514,24.4767,厦门市,洪文,,34,34,18,23,12,84,59,76,67,34,27,2,2,0.5,0.7
2023-02-08T22:00:00,1288A,118.0661,24.4444,厦门市,鼓浪屿,,28,14,14,19,13,78,58,70,63,32,29,3,3,0.6,0.6
2023-02-08T22:00:00,1290A,115.8931,28.6843,南昌市,省外办,细颗粒物(PM2.5),64,52,52,46,47,33,33,23,23,26,29,6,6,0.5,0.7
2023-02-08T22:00:00,1291A,115.8886,28.7003,南昌市,省林业公司,细颗粒物(PM2.5),64,41,41,46,46,33,33,23,23,29,31,4,4,1.0,1.2
2023-02-08T22:00:00,1292A,115.8126,28.7442,南昌市,林科所,,35,27,33,24,30,31,28,26,26,25,22,5,5,1.0,1
2023-02-08T22:00:00,1294A,115.8518,28.687,南昌市,建工学校,细颗粒物(PM2.5),54,55,51,38,38,34,34,23,23,24,26,6,8,1.1,1.2
2023-02-08T22:00:00,1295A,115.8921,28.6424,南昌市,象湖,细颗粒物(PM2.5),52,30,34,36,41,31,31,20,20,28,31,4,4,0.8,0.9
2023-02-08T22:00:00,1296A,115.7423,28.7996,南昌市,武术学校,细颗粒物(PM2.5),54,17,30,38,32,30,30,23,23,8,17,7,6,0.9,1
2023-02-08T22:00:00,1298A,115.9314,28.6842,南昌市,省站,细颗粒物(PM2.5),73,54,48,53,55,41,41,27,27,18,21,7,7,0.9,1
2023-02-08T22:00:00,1299A,116.9862,36.6114,济南市,科干所,细颗粒物(PM2.5),95,117,185,71,122,89,59,81,76,45,61,20,16,0.8,1.3
2023-02-08T22:00:00,1300A,116.9376,36.665,济南市,农科所,"颗粒物(PM10),细颗粒物(PM2.5)",83,115,215,61,125,80,28,72,61,73,71,20,18,0.9,1.3
2023-02-08T22:00:00,1301A,117.1265,36.6734,济南市,开发区,颗粒物(PM10),83,115,185,59,128,85,38,79,69,67,66,20,18,0.8,1.2
2023-02-08T22:00:00,1303A,117.0624,36.6868,济南市,省种子仓库,颗粒物(PM10),85,119,210,58,141,90,41,80,67,49,56,20,23,0.6,1.1
2023-02-08T22:00:00,1304A,116.9489,36.6447,济南市,机床二厂,细颗粒物(PM2.5),89,122,204,66,138,88,43,80,69,56,61,18,24,0.8,1.3
2023-02-08T22:00:00,1305A,117.0495,36.663,济南市,市监测站,细颗粒物(PM2.5),92,110,192,68,134,88,41,82,70,66,71,17,17,0.8,0.9
2023-02-08T22:00:00,1306A,116.7675,36.5484,济南市,长清党校,细颗粒物(PM2.5),98,120,202,73,137,90,51,79,71,66,72,20,18,0.9,1.3
2023-02-08T22:00:00,1307A,120.6659,36.2403,青岛市,仰口,,28,24,91,17,70,103,88,95,93,10,24,7,9,0.2,0.6
2023-02-08T22:00:00,1308A,120.3905,36.1851,青岛市,李沧区子站,,,,,,,,,,,,,,,,
2023-02-08T22:00:00,1309A,120.3471,36.0699,青岛市,市北区子站,,,,,,,,,,,,,,,,
2023-02-08T22:00:00,1310A,120.4134,36.0658,青岛市,市南区东部子站,,42,36,112,29,79,92,86,92,87,17,42,8,9,0.4,0.9
2023-02-08T22:00:00,1311A,120.3664,36.1032,青岛市,四方区子站,,36,36,114,19,79,73,73,69,68,20,47,4,8,0.6,1
2023-02-08T22:00:00,1312A,120.2994,36.054,青岛市,市南区西部子站,,48,48,102,27,71,95,91,92,92,14,47,8,9,0.6,1
2023-02-08T22:00:00,1313A,120.4581,36.0858,青岛市,崂山区子站,,48,48,118,9,75,97,92,95,94,13,42,7,9,0.4,0.8
2023-02-08T22:00:00,1314A,120.1983,35.9608,青岛市,黄岛区子站,,29,29,113,17,79,94,90,85,85,13,44,5,8,0.5,1
2023-02-08T22:00:00,1315A,120.3999,36.3083,青岛市,城阳区子站,"颗粒物(PM10),细颗粒物(PM2.5)",64,78,118,46,66,95,79,84,76,16,48,6,9,0.4,1
2023-02-08T22:00:00,1316A,113.69031,34.76122,郑州市,烟厂,细颗粒物(PM2.5),90,84,176,67,125,65,58,63,62,26,43,6,11,0.9,1.1
2023-02-08T22:00:00,1317A,113.65724,34.77134,郑州市,郑纺机,细颗粒物(PM2.5),93,86,169,69,126,66,58,63,62,26,43,4,8,0.9,1.1
2023-02-08T22:00:00,1318A,113.67526,34.80246,郑州市,银行学校,细颗粒物(PM2.5),93,96,168,69,124,69,60,65,64,28,43,6,11,1.0,1.2
2023-02-08T22:00:00,1319A,113.56746,34.81334,郑州市,供水公司,细颗粒物(PM2.5),93,86,164,69,118,69,52,66,64,32,45,6,10,1.1,1.3
2023-02-08T22:00:00,1320A,113.7329,34.7178,郑州市,经开区管委,细颗粒物(PM2.5),97,97,179,72,132,70,58,64,63,26,44,8,12,0.8,1
2023-02-08T22:00:00,1321A,113.73961,34.77172,郑州市,四十七中,细颗粒物(PM2.5),88,89,185,65,129,71,65,66,66,21,38,4,8,0.7,0.9
2023-02-08T22:00:00,1322A,113.60532,34.74838,郑州市,市监测站,细颗粒物(PM2.5),103,90,176,77,128,70,55,67,65,28,35,6,13,0.8,0.9
2023-02-08T22:00:00,1323A,113.64164,34.7525,郑州市,河医大,细颗粒物(PM2.5),92,94,178,68,125,60,40,54,51,40,46,4,10,1.1,1.3
2023-02-08T22:00:00,1324A,113.51488,34.91089,郑州市,岗李水库,,,,,,,,,,,,,,,,
2023-02-08T22:00:00,1325A,114.3677,30.5584,武汉市,东湖梨园,细颗粒物(PM2.5),77,63,45,56,40,49,49,40,40,24,27,6,7,0.7,0.9
2023-02-08T22:00:00,1326A,114.2529,30.558,武汉市,汉阳月湖,细颗粒物(PM2.5),83,68,42,61,42,43,43,38,38,31,29,5,5,0.8,0.8
2023-02-08T22:00:00,1327A,114.282,30.6189,武汉市,汉口花桥,细颗粒物(PM2.5),70,68,49,51,38,45,45,36,36,24,24,4,4,0.7,0.7
2023-02-08T22:00:00,1328A,114.3025,30.5332,武汉市,武昌紫阳,细颗粒物(PM2.5),63,68,50,45,40,40,40,27,27,29,33,9,9,0.9,1.1
2023-02-08T22:00:00,1329A,114.3646,30.6217,武汉市,青山钢花,细颗粒物(PM2.5),77,67,44,56,42,41,41,35,35,32,31,8,8,1.0,1
2023-02-08T22:00:00,1330A,114.1566,30.4825,武汉市,沌口新区,细颗粒物(PM2.5),57,60,50,40,34,36,36,24,24,28,37,6,7,0.9,1
2023-02-08T22:00:00,1331A,114.3014,30.5944,武汉市,汉口江滩,颗粒物(PM10),56,61,40,38,33,47,47,40,40,24,26,5,6,0.7,0.7
2023-02-08T22:00:00,1333A,114.135,30.6319,武汉市,吴家山,细颗粒物(PM2.5),77,68,46,56,39,47,47,34,34,28,34,6,6,0.7,0.8
2023-02-08T22:00:00,1334A,113.8454,30.2917,武汉市,沉湖七壕,,32,32,40,21,21,35,32,29,29,19,25,8,8,0.9,0.9
2023-02-08T22:00:00,1335A,113.0833,28.2325,长沙市,经开区环保局,,,,118,,104,2,,2,,,38,,3,,0.9
2023-02-08T22:00:00,1336A,112.8872,28.2189,长沙市,高开区环保局,,42,23,66,29,68,30,6,24,15,31,29,5,5,0.8,0.9
2023-02-08T22:00:00,1337A,113.0792,28.2053,长沙市,马坡岭,细颗粒物(PM2.5),52,46,62,36,75,14,1,10,6,38,37,5,5,1.1,1.1
2023-02-08T22:00:00,1338A,112.9394,28.19,长沙市,湖南师范大学,,28,28,66,17,64,21,1,18,12,34,31,3,4,1.0,0.9
2023-02-08T22:00:00,1339A,113.0178,28.1322,长沙市,雨花区环保局,,37,37,77,12,63,19,0,15,8,38,35,1,1,0.9,0.7
2023-02-08T22:00:00,1340A,112.9792,28.2597,长沙市,伍家岭,,32,32,74,21,69,21,4,17,11,36,36,4,5,1.1,1
2023-02-08T22:00:00,1341A,113.0014,28.1944,长沙市,火车新站,,42,40,79,29,75,18,3,15,10,38,36,5,5,1.2,1.1
2023-02-08T22:00:00,1342A,112.9844,28.1178,长沙市,天心区环保局,,46,46,95,22,70,21,3,19,13,38,36,2,2,0.9,0.8
2023-02-08T22:00:00,1343A,112.8908,28.1308,长沙市,湖南中医药大学,,38,38,82,17,64,26,2,19,10,29,29,2,3,1.0,1.4
2023-02-08T22:00:00,1344A,112.9581,28.3611,长沙市,沙坪,,36,21,70,25,61,26,5,24,16,42,40,4,4,1.2,1.1
2023-02-08T22:00:00,1345A,113.2347,23.1423,广州市,广雅中学,,38,38,29,19,16,58,12,52,37,63,35,4,4,0.7,0.8
2023-02-08T22:00:00,1346A,113.2612,23.105,广州市,市五中,,39,39,30,20,18,58,11,52,35,58,35,6,6,0.7,0.9
2023-02-08T22:00:00,1348A,113.3478,23.0916,广州市,广东商学院,,37,37,34,18,20,70,7,52,31,69,42,5,5,0.7,0.9
2023-02-08T22:00:00,1349A,113.4332,23.1047,广州市,市八十六中,颗粒物(PM10),51,51,44,17,20,74,2,51,20,75,48,5,4,0.8,0.9
2023-02-08T22:00:00,1350A,113.3505,22.9483,广州市,番禺中学,,43,43,36,23,20,62,5,55,33,71,41,5,5,0.9,0.9
2023-02-08T22:00:00,1351A,113.2146,23.3916,广州市,花都师范,,40,40,31,18,17,50,5,34,29,66,37,6,6,0.7,0.9
2023-02-08T22:00:00,1352A,113.2597,23.1331,广州市,市监测站,,38,38,31,19,17,60,11,52,35,65,36,6,6,0.7,1
2023-02-08T22:00:00,1353A,113.5618,23.312,广州市,九龙镇镇龙,,49,49,28,25,17,87,2,65,44,60,32,5,4,0.8,0.9
2023-02-08T22:00:00,1354A,113.2765,23.1544,广州市,麓湖,,38,38,29,22,17,64,13,56,38,56,30,5,4,0.6,0.8
2023-02-08T22:00:00,1355A,113.443,23.3035,广州市,帽峰山森林公园,,37,37,23,16,13,66,7,54,31,66,29,7,5,0.7,0.8
2023-02-08T22:00:00,1356A,114.1063,22.5545,深圳市,通心岭子站,,24,8,18,3,11,76,74,70,70,8,9,3,2,0.8,0.8
2023-02-08T22:00:00,1357A,114.117,22.5625,深圳市,洪湖,,27,27,21,11,11,85,83,78,78,16,14,7,7,0.5,0.5
2023-02-08T22:00:00,1358A,113.987,22.5417,深圳市,华侨城,,24,22,19,13,9,75,75,72,70,18,14,6,6,0.6,0.6
2023-02-08T22:00:00,1359A,113.9181,22.5171,深圳市,南海子站,,27,27,23,14,11,70,70,67,64,15,12,4,4,0.6,0.6
2023-02-08T22:00:00,1360A,114.2458,22.5689,深圳市,盐田,,23,19,23,9,10,87,72,72,69,15,29,6,6,0.6,0.6
2023-02-08T22:00:00,1361A,114.2283,22.7244,深圳市,龙岗,,24,24,19,11,10,77,66,74,66,16,12,4,3,0.9,0.8
2023-02-08T22:00:00,1362A,113.8953,22.5861,深圳市,西乡,,,,,,,,,,,,,,,,
2023-02-08T22:00:00,1363A,114.494,22.5422,深圳市,南澳,,26,18,13,8,7,91,81,84,84,9,10,5,5,0.8,0.8
2023-02-08T22:00:00,1364A,114.41,22.6342,深圳市,葵涌,,26,24,15,10,10,86,81,81,81,12,11,8,7,0.6,0.6
2023-02-08T22:00:00,1365A,114.297,22.5978,深圳市,梅沙,,27,25,17,13,11,95,86,90,90,9,7,4,4,0.5,0.7
2023-02-08T22:00:00,1366A,114.0678,22.738,深圳市,观澜,,43,43,29,19,13,67,58,64,47,25,26,7,6,0.5,0.5
2023-02-08T22:00:00,1367A,113.5814,22.2618,珠海市,吉大,,18,17,18,11,8,73,55,62,59,31,24,8,8,0.5,0.5
2023-02-08T22:00:00,1368A,113.4881,22.2335,珠海市,前山,,33,33,26,17,11,70,40,61,53,51,28,4,3,0.6,0.5
2023-02-08T22:00:00,1369A,113.628,22.4251,珠海市,唐家,,27,23,21,13,11,73,36,64,44,53,30,8,7,0.3,0.3
2023-02-08T22:00:00,1370A,113.299,22.2281,珠海市,斗门,,28,28,26,13,11,75,45,61,56,35,22,3,3,0.4,0.4
2023-02-08T22:00:00,1371A,113.1294,23.0067,佛山市,湾梁,,36,36,31,14,14,67,31,62,41,43,34,9,8,0.6,0.8
2023-02-08T22:00:00,1372A,113.1083,23.0478,佛山市,华材职中,,36,36,29,21,13,69,33,57,45,38,29,8,8,0.4,0.6
2023-02-08T22:00:00,1373A,113.144,23.0453,佛山市,南海气象局,,33,33,29,22,15,57,18,47,33,50,33,8,8,0.7,0.8
2023-02-08T22:00:00,1374A,113.2881,22.8094,佛山市,顺德苏岗,,32,19,24,22,16,54,11,50,34,59,33,7,7,0.7,0.8
2023-02-08T22:00:00,1375A,113.2544,22.7642,佛山市,容桂街道办,,,,,,,,,,,,,,,,
2023-02-08T22:00:00,1376A,112.8383,22.8678,佛山市,高明孔堂,,36,36,29,17,12,62,44,58,54,25,25,5,5,0.6,0.7
2023-02-08T22:00:00,1377A,112.8836,23.1588,佛山市,三水监测站,颗粒物(PM10),60,70,41,33,22,30,2,20,9,51,38,9,6,1.3,1.1
2023-02-08T22:00:00,1378A,112.867,23.185,佛山市,三水云东海,颗粒物(PM10),51,51,32,25,19,28,2,19,10,37,53,5,7,1.0,0.9
2023-02-08T22:00:00,1379A,113.3769,22.5211,中山市,华柏园,,33,33,22,12,13,52,34,45,40,41,27,6,6,0.5,0.6
2023-02-08T22:00:00,1380A,113.3881,22.5497,中山市,张溪,,31,31,30,10,11,62,30,52,40,45,28,4,4,0.5,0.5
2023-02-08T22:00:00,1381A,113.4075,22.5111,中山市,紫马岭,,21,21,19,12,10,66,40,51,46,33,21,5,4,0.4,0.4
2023-02-08T22:00:00,1382A,113.4411,22.4853,中山市,长江旅游区,,,,,,,,,,,,,,,,
2023-02-08T22:00:00,1383A,113.1064,22.6058,江门市,北街,,26,26,31,13,13,60,32,56,50,36,34,7,8,0.6,0.7
2023-02-08T22:00:00,1384A,113.0731,22.5835,江门市,西区,,35,35,35,17,16,58,40,55,52,30,36,5,7,0.5,0.6
2023-02-08T22:00:00,1385A,113.0219,22.5311,江门市,圭峰西,,28,28,31,16,15,72,45,63,59,34,37,4,5,0.8,0.9
2023-02-08T22:00:00,1386A,113.0828,22.5947,江门市,东湖,,41,41,34,22,16,63,37,60,54,31,36,8,8,0.6,0.7
2023-02-08T22:00:00,1387A,113.7875,23.0457,东莞市,东城主山,,,,,,,,,,,,,,,,
2023-02-08T22:00:00,1388A,113.7533,23.0202,东莞市,南城元岭,,,,,,,,,,,,,,,,
2023-02-08T22:00:00,1389A,113.7547,23.0494,东莞市,莞城梨川,,,27,28,13,17,78,,62,45,40,28,8,8,0.5,0.8
2023-02-08T22:00:00,1390A,113.7944,23.0128,东莞市,东城石井,,,26,26,13,16,80,,60,39,37,25,7,7,,0.6
2023-02-08T22:00:00,1391A,113.7383,22.9658,东莞市,南城西平,,37,37,39,19,17,61,47,53,38,28,35,10,10,0.5,0.6
2023-02-08T22:00:00,1392A,114.4183,23.0528,惠州市,河南岸金山湖子站,,43,43,29,23,18,85,54,65,63,19,12,4,4,0.7,0.7
2023-02-08T22:00:00,1393A,114.4053,23.0822,惠州市,下埔横江三路子站,,39,39,32,24,18,88,56,73,68,25,16,4,4,0.6,0.6
2023-02-08T22:00:00,1394A,114.4103,23.1142,惠州市,江北云山西路子站,,36,33,27,25,22,88,65,76,72,16,10,5,4,0.7,0.7
2023-02-08T22:00:00,1395A,114.4645,22.7833,惠州市,惠阳区承修路船湖子站,,40,40,26,17,15,80,68,71,70,16,12,5,4,0.6,0.7
2023-02-08T22:00:00,1396A,114.5317,22.7422,惠州市,大亚湾管委会子站,,48,48,26,18,16,83,70,75,74,23,19,5,4,0.4,0.5
2023-02-08T22:00:00,1397A,112.4267,23.0706,肇庆市,睦岗子站,颗粒物(PM10),56,61,43,26,18,45,7,25,16,65,42,12,10,0.8,0.7
2023-02-08T22:00:00,1398A,112.4645,23.0475,肇庆市,城中子站,颗粒物(PM10),54,57,46,33,28,35,15,26,20,56,40,10,9,0.8,1
2023-02-08T22:00:00,1399A,112.5544,23.1522,肇庆市,坑口子站,"颗粒物(PM10),细颗粒物(PM2.5)",57,63,44,40,25,20,4,15,10,48,39,12,12,0.8,0.6
2023-02-08T22:00:00,1400A,112.4753,23.1,肇庆市,七星岩子站,颗粒物(PM10),51,51,36,31,21,19,2,15,11,56,34,9,8,1.1,1
2023-02-08T22:00:00,1401A,108.3103,22.7881,南宁市,二十一中,,16,14,11,11,7,18,4,14,11,25,20,5,5,1.2,1.1
2023-02-08T22:00:00,1402A,108.3141,22.8528,南宁市,北湖,,20,15,14,14,9,15,5,12,6,24,19,6,6,1.4,1.2
2023-02-08T22:00:00,1403A,108.3206,22.8225,南宁市,市监测站,,15,15,13,10,8,14,9,12,6,27,24,6,6,1.2,1.1
2023-02-08T22:00:00,1404A,108.3829,22.8037,南宁市,大自然花园,,21,21,10,9,7,16,6,12,7,23,19,5,5,1.4,1.2
2023-02-08T22:00:00,1405A,108.4394,22.7904,南宁市,仙葫,,18,18,11,9,8,21,7,16,12,23,17,6,6,1.3,1.1
2023-02-08T22:00:00,1406A,108.2397,22.8467,南宁市,区农职院,,21,21,14,12,7,8,2,5,4,33,25,6,6,1.3,1.2
2023-02-08T22:00:00,1407A,108.3275,22.735,南宁市,英华嘉园,,19,17,12,13,9,12,5,9,7,24,21,5,5,1.4,1.3
2023-02-08T22:00:00,1408A,108.2257,22.7757,南宁市,沙井镇街道办,,23,16,14,16,12,4,0,2,2,32,31,6,6,1.2,1.1
2023-02-08T22:00:00,1409A,110.576,19.9507,海口市,东寨港,,,14,17,4,7,32,28,31,30,,,8,7,0.5,0.5
2023-02-08T22:00:00,1410A,110.3232,20.0574,海口市,海南大学,,26,26,22,12,9,63,52,52,51,11,17,5,5,0.5,0.5
2023-02-08T22:00:00,1411A,110.283,20.0053,海口市,秀英海南医院,,24,24,20,11,8,52,49,49,49,9,9,6,6,0.5,0.4
2023-02-08T22:00:00,1412A,110.338,19.9969,海口市,海南师范大学,,25,25,23,10,9,52,46,49,48,8,6,3,3,0.6,0.6
2023-02-08T22:00:00,1413A,110.33,20.0356,海口市,龙华路环保局宿舍,,27,27,22,7,7,53,46,48,46,9,9,5,5,0.6,0.6
2023-02-08T22:00:00,1414A,106.3787,29.8279,重庆市,缙云山,,49,48,72,34,54,72,70,68,56,27,35,1,2,0.7,0.9
2023-02-08T22:00:00,1416A,106.4213,29.8253,重庆市,天生,细颗粒物(PM2.5),133,141,160,101,129,30,20,23,23,34,48,9,14,1.2,1.4
2023-02-08T22:00:00,1417A,106.6263,29.7228,重庆市,两路,细颗粒物(PM2.5),82,82,95,60,75,46,30,39,36,33,37,9,10,0.9,1.1
2023-02-08T22:00:00,1418A,106.2953,29.5983,重庆市,虎溪,细颗粒物(PM2.5),113,89,129,85,125,38,20,29,28,51,56,8,8,1.2,1.5
2023-02-08T22:00:00,1419A,106.5777,29.5102,重庆市,南坪,细颗粒物(PM2.5),94,90,101,70,81,50,20,43,36,57,43,6,9,1.0,1.1
2023-02-08T22:00:00,1420A,106.6556,29.6277,重庆市,唐家沱,细颗粒物(PM2.5),109,99,105,82,84,54,44,43,42,33,51,6,8,0.7,0.9
2023-02-08T22:00:00,1421A,106.6349,29.4906,重庆市,茶园,细颗粒物(PM2.5),100,91,128,75,95,39,30,35,35,38,49,6,7,0.6,0.5
2023-02-08T22:00:00,1422A,106.3754,29.4572,重庆市,白市驿,细颗粒物(PM2.5),82,81,138,60,97,35,28,27,26,47,65,8,14,1.0,1.3
2023-02-08T22:00:00,1425A,106.6205,29.7166,重庆市,空港,细颗粒物(PM2.5),80,90,89,59,78,66,40,52,46,35,41,5,6,0.7,0.9
2023-02-08T22:00:00,1426A,106.4782,29.4875,重庆市,新山村,细颗粒物(PM2.5),113,89,121,85,89,51,24,36,32,55,64,5,11,0.3,0.8
2023-02-08T22:00:00,1427A,106.5616,29.6453,重庆市,礼嘉,细颗粒物(PM2.5),78,91,119,57,67,50,43,42,42,34,52,6,8,0.7,0.9
2023-02-08T22:00:00,1428A,106.4522,29.7091,重庆市,蔡家,细颗粒物(PM2.5),87,83,104,64,80,56,30,38,36,42,47,6,8,1.0,1.2
2023-02-08T22:00:00,1429A,106.5093,29.3917,重庆市,鱼新街,细颗粒物(PM2.5),94,87,114,70,96,47,44,42,42,23,47,10,11,0.9,1.2
2023-02-08T22:00:00,1431A,103.9728,30.7236,成都市,金泉两河,颗粒物(PM10),54,58,88,33,71,74,21,59,19,24,29,3,3,0.7,0.7
2023-02-08T22:00:00,1432A,104.176,30.6872,成都市,十里店,细颗粒物(PM2.5),63,54,95,45,81,58,27,41,38,19,25,3,3,0.9,0.9
2023-02-08T22:00:00,1433A,104.079,30.5706,成都市,三瓦窑,细颗粒物(PM2.5),63,57,94,45,80,78,35,47,31,16,30,2,2,0.6,0.7
2023-02-08T22:00:00,1434A,104.1114,30.63,成都市,沙河铺,细颗粒物(PM2.5),69,63,93,50,84,55,34,42,40,21,29,3,3,0.7,0.7
2023-02-08T22:00:00,1435A,104.074,30.685,成都市,梁家巷,,,,,,,,,,,,,,,,
2023-02-08T22:00:00,1436A,104.026,30.6544,成都市,草堂寺,,,,,,,,,,,,,,,,
2023-02-08T22:00:00,1437A,104.0786,30.6531,成都市,君平街,细颗粒物(PM2.5),78,48,92,57,87,69,39,60,41,25,32,2,2,0.7,0.8
2023-02-08T22:00:00,1438A,103.613,31.0283,成都市,灵岩寺,,45,45,41,13,26,77,20,65,41,20,14,6,5,0.7,0.6
2023-02-08T22:00:00,1439A,106.6899,26.5998,贵阳市,马鞍山,,10,5,9,7,9,38,26,29,26,16,13,5,4,0.9,0.8
2023-02-08T22:00:00,1440A,106.6971,26.5694,贵阳市,市环保站,,11,5,9,3,10,38,33,34,24,18,17,3,4,0.7,0.7
2023-02-08T22:00:00,1441A,106.6243,26.6266,贵阳市,鉴湖路,,19,19,16,7,6,37,24,29,20,19,17,5,4,0.8,0.6
2023-02-08T22:00:00,1442A,106.7487,26.6343,贵阳市,燕子冲,,25,14,16,17,18,36,32,30,28,11,10,4,4,0.8,0.7
2023-02-08T22:00:00,1443A,106.6555,26.4365,贵阳市,碧云窝,,14,14,28,7,14,29,27,27,16,20,20,16,20,0.8,0.8
2023-02-08T22:00:00,1444A,106.694,26.5161,贵阳市,中院村,,24,24,28,12,14,34,30,29,18,20,21,13,11,0.9,0.8
2023-02-08T22:00:00,1445A,106.7109,26.6027,贵阳市,红边门,,18,14,13,12,12,31,22,26,20,21,16,10,8,0.9,0.8
2023-02-08T22:00:00,1446A,106.7164,26.5699,贵阳市,新华路,,19,19,16,7,9,41,39,35,30,10,11,5,4,0.7,0.7
2023-02-08T22:00:00,1447A,106.674,26.5424,贵阳市,太慈桥,,19,19,23,9,10,36,32,29,22,20,21,3,3,0.8,0.7
2023-02-08T22:00:00,1450A,102.8204,24.8886,昆明市,呈贡新区,细颗粒物(PM2.5),70,58,50,51,39,126,93,124,114,21,15,5,9,0.6,0.6
2023-02-08T22:00:00,1451A,102.6251,24.9608,昆明市,西山森林公园,,45,39,58,31,41,129,109,122,116,11,13,11,11,0.5,0.7
2023-02-08T22:00:00,1452A,102.7252,25.0902,昆明市,龙泉镇,,46,46,72,26,54,130,86,117,104,24,37,6,7,0.5,0.8
2023-02-08T22:00:00,1453A,102.7266,25.0375,昆明市,东风东路,,46,46,63,31,49,124,82,113,100,26,23,13,11,0.5,0.6
2023-02-08T22:00:00,1454A,102.6742,25.0669,昆明市,金鼎山,,46,36,80,32,63,136,98,121,109,14,34,10,12,0.5,0.8
2023-02-08T22:00:00,1455A,102.6644,25.0401,昆明市,碧鸡广场,,48,48,70,32,53,130,67,119,101,40,29,7,6,0.7,0.7
2023-02-08T22:00:00,1456A,91.1319,29.6514,拉萨市,八廓街,,28,23,26,9,10,102,88,99,96,18,14,6,6,0.7,0.6
2023-02-08T22:00:00,1457A,91.1221,29.6747,拉萨市,市环保局,,29,22,21,9,8,105,92,99,97,16,13,8,7,0.6,0.5
2023-02-08T22:00:00,1458A,91.0874,29.6475,拉萨市,区监测站,,29,16,21,6,7,108,92,103,101,11,11,6,6,0.5,0.5
2023-02-08T22:00:00,1459A,91.1774,29.6541,拉萨市,西藏大学,,30,17,20,3,18,107,93,103,102,11,9,6,5,0.2,0.3
2023-02-08T22:00:00,1460A,90.9798,29.6588,拉萨市,区辐射站,,33,15,23,6,11,117,104,111,111,11,18,6,6,0.4,0.5
2023-02-08T22:00:00,1461A,91.0834,29.6292,拉萨市,拉萨火车站,,32,16,23,5,6,104,100,102,102,8,14,8,9,0.3,0.4
2023-02-08T22:00:00,1462A,108.882,34.2749,西安市,高压开关厂,细颗粒物(PM2.5),189,188,300,142,216,56,37,48,46,37,72,7,13,1.2,1.6
2023-02-08T22:00:00,1463A,108.993,34.2629,西安市,兴庆小区,细颗粒物(PM2.5),192,134,249,144,224,50,33,44,42,34,64,6,12,1.3,2
2023-02-08T22:00:00,1464A,109.06,34.2572,西安市,纺织城,细颗粒物(PM2.5),195,150,273,146,231,51,28,40,39,42,68,8,12,1.1,1.6
2023-02-08T22:00:00,1465A,108.9356,34.2173,西安市,小寨,细颗粒物(PM2.5),198,191,313,148,246,50,28,43,38,43,80,7,12,1.0,1.5
2023-02-08T22:00:00,1466A,108.954,34.2713,西安市,市人民体育场,细颗粒物(PM2.5),199,159,260,149,217,51,36,44,42,35,67,7,13,1.2,1.6
2023-02-08T22:00:00,1467A,108.8922,34.2322,西安市,高新西区,细颗粒物(PM2.5),202,158,302,152,252,53,33,46,43,38,73,7,12,1.3,1.8
2023-02-08T22:00:00,1468A,108.935,34.3474,西安市,经开区,细颗粒物(PM2.5),190,106,219,143,220,75,44,54,51,26,46,6,14,1.1,1.5
2023-02-08T22:00:00,1469A,108.906,34.1546,西安市,长安区,细颗粒物(PM2.5),264,241,342,214,280,34,15,26,24,52,81,6,11,1.8,2.1
2023-02-08T22:00:00,1470A,109.2,34.6575,西安市,阎良区,,,,,,,,,,,,,,,,
2023-02-08T22:00:00,1471A,109.2186,34.3731,西安市,临潼区,细颗粒物(PM2.5),201,157,254,151,219,48,30,38,37,27,43,8,17,1.1,1.5
2023-02-08T22:00:00,1472A,108.869,34.378,西安市,草滩,细颗粒物(PM2.5),113,140,241,85,128,50,33,45,41,24,45,4,12,0.0,0.4
2023-02-08T22:00:00,1473A,108.985,34.1978,西安市,曲江文化产业集团,细颗粒物(PM2.5),185,179,328,139,244,46,32,38,37,38,80,6,11,1.6,2.2
2023-02-08T22:00:00,1474A,109.051,34.3213,西安市,广运潭,细颗粒物(PM2.5),190,146,269,143,221,46,33,43,40,28,55,6,11,1.2,1.6
2023-02-08T22:00:00,1476A,103.631,36.1031,兰州市,兰炼宾馆,细颗粒物(PM2.5),67,77,84,48,53,91,50,81,77,44,33,9,13,0.6,0.7
2023-02-08T22:00:00,1477A,104.1373,35.9454,兰州市,榆中兰大校区,,,,,,,,,,,,,,,,
2023-02-08T22:00:00,1478A,103.8412,36.0726,兰州市,生物制品所,细颗粒物(PM2.5),64,62,74,46,46,91,42,80,74,48,33,8,8,0.7,0.7
2023-02-08T22:00:00,1479A,103.831,36.0464,兰州市,铁路设计院,细颗粒物(PM2.5),73,77,80,53,59,84,40,82,65,60,41,16,13,1.3,1.1
2023-02-08T22:00:00,1480A,101.748,36.6428,西宁市,市环境监测站,,,,,,,,,,,,,,,,
2023-02-08T22:00:00,1482A,101.834,36.5819,西宁市,四陆医院,,,,,,,,,,,,,,,,
2023-02-08T22:00:00,1483A,101.524,36.6867,西宁市,第五水厂,,,,,,,,,,,,,,,,
2023-02-08T22:00:00,1484A,105.9512,38.6016,银川市,贺兰山马莲口,,45,38,36,31,18,93,48,92,52,31,26,10,19,0.7,0.6
2023-02-08T22:00:00,1488A,106.2328,38.4975,银川市,贺兰山东路,细颗粒物(PM2.5),77,89,68,56,36,72,23,68,39,51,33,4,8,0.9,0.9
2023-02-08T22:00:00,1489A,106.1358,38.5036,银川市,学院路,细颗粒物(PM2.5),79,79,72,58,39,61,28,56,40,45,36,6,15,1.1,1.2
2023-02-08T22:00:00,1490A,87.5801,43.8303,乌鲁木齐市,监测站,细颗粒物(PM2.5),118,128,180,89,113,59,26,45,42,86,70,2,3,1.3,1.7
2023-02-08T22:00:00,1491A,87.6046,43.768,乌鲁木齐市,收费所,细颗粒物(PM2.5),128,167,226,97,130,55,4,43,32,110,79,4,4,1.8,1.8
2023-02-08T22:00:00,1492A,87.4754,43.9469,乌鲁木齐市,新疆农科院农场,细颗粒物(PM2.5),144,52,60,110,117,98,80,82,82,36,34,7,7,1.6,1.9
2023-02-08T22:00:00,1493A,87.5525,43.8711,乌鲁木齐市,铁路局,细颗粒物(PM2.5),110,113,146,83,117,82,55,61,60,47,48,2,2,1.4,1.8
2023-02-08T22:00:00,1494A,87.6432,43.831,乌鲁木齐市,三十一中学,细颗粒物(PM2.5),85,99,150,63,97,69,53,63,62,43,45,5,5,1.3,1.7
2023-02-08T22:00:00,1496A,87.7216,44.1747,乌鲁木齐市,米东区环保局,细颗粒物(PM2.5),77,68,75,56,51,115,108,106,106,13,11,7,7,1.1,0.8
2023-02-08T22:00:00,1508A,112.9433,27.8614,湘潭市,板塘,细颗粒物(PM2.5),52,35,72,36,77,27,0,21,16,38,33,3,3,0.8,0.8
2023-02-08T22:00:00,1511A,112.9118,27.8403,湘潭市,市监测站,,,42,72,44,91,26,,19,16,,27,,5,,1
2023-02-08T22:00:00,1512A,112.8937,27.8728,湘潭市,江麓,,48,40,80,33,76,32,10,29,21,28,29,1,4,0.8,0.7
2023-02-08T22:00:00,1513A,112.9227,27.8159,湘潭市,岳塘,,50,42,63,35,82,31,3,22,19,31,38,18,9,1.1,1
2023-02-08T22:00:00,1514A,112.9074,27.9119,湘潭市,科大,,42,40,77,29,76,27,2,23,12,30,33,3,9,1.2,1.1
2023-02-08T22:00:00,1515A,113.135,27.8244,株洲市,天台山庄,细颗粒物(PM2.5),62,42,67,44,61,14,3,12,7,45,39,3,4,1.4,1.4
2023-02-08T22:00:00,1518A,113.095,27.8867,株洲市,株冶医院,细颗粒物(PM2.5),62,46,62,44,60,20,0,16,5,46,41,2,2,1.3,1.1
2023-02-08T22:00:00,1519A,113.167,27.8667,株洲市,市四中,细颗粒物(PM2.5),60,34,57,43,69,13,0,11,4,43,40,6,6,1.3,1.3
2023-02-08T22:00:00,1520A,113.143,27.8381,株洲市,火车站,细颗粒物(PM2.5),57,44,69,40,67,14,2,10,7,48,44,3,4,1.5,1.4
2023-02-08T22:00:00,1524A,113.13,27.8528,株洲市,市监测站,细颗粒物(PM2.5),69,46,67,50,73,15,3,14,8,46,42,7,7,1.1,1
2023-02-08T22:00:00,1552A,106.805,26.3003,贵阳市,桐木岭,,,,,,,,,,,,,,,,
2023-02-08T22:00:00,1559A,113.251,27.8336,株洲市,大京风景区,细颗粒物(PM2.5),57,34,37,40,41,25,1,19,12,40,28,3,3,0.9,0.9
2023-02-08T22:00:00,1562A,113.0048,27.9153,湘潭市,昭山,细颗粒物(PM2.5),69,49,88,50,78,21,1,16,10,33,31,1,1,0.9,0.8
2023-02-08T22:00:00,1564A,112.4876,27.9164,湘潭市,韶山,,32,6,51,22,50,44,13,40,22,18,20,5,6,1.0,1
2023-02-08T22:00:00,1585A,109.8756,40.6532,包头市,市环境监测站,颗粒物(PM10),55,60,47,33,20,71,19,57,45,72,35,24,21,1.1,0.9
2023-02-08T22:00:00,1587A,109.9991,40.5842,包头市,包头八中,细颗粒物(PM2.5),84,112,74,62,32,83,2,63,46,91,49,23,35,1.3,1.2
2023-02-08T22:00:00,1588A,109.8538,40.6821,包头市,青山宾馆,颗粒物(PM10),56,62,38,32,21,84,21,59,46,67,37,17,15,0.9,0.9
2023-02-08T22:00:00,1589A,109.8642,40.6288,包头市,惠龙物流,颗粒物(PM10),61,72,47,43,21,88,7,65,54,92,39,20,20,1.1,0.6
2023-02-08T22:00:00,1590A,110.0377,40.5546,包头市,东河鸿龙湾,颗粒物(PM10),70,89,62,43,27,90,11,74,57,64,38,17,18,1.1,0.8
2023-02-08T22:00:00,1591A,110.0023,39.8129,鄂尔多斯市,综合楼,颗粒物(PM10),100,149,90,39,17,84,24,57,44,64,53,18,14,0.9,0.7
2023-02-08T22:00:00,1592A,109.9486,39.8261,鄂尔多斯市,巴音孟克林场办事处,颗粒物(PM10),85,119,72,34,19,60,30,50,43,60,40,18,12,0.9,0.7
2023-02-08T22:00:00,1593A,109.7736,39.5986,鄂尔多斯市,康泽苑,颗粒物(PM10),79,107,64,53,17,96,96,71,66,24,35,13,9,1.0,0.7
2023-02-08T22:00:00,1594A,109.8119,39.5989,鄂尔多斯市,华泰汽车城,细颗粒物(PM2.5),83,92,61,61,23,104,104,74,71,20,39,13,10,1.0,0.8
2023-02-08T22:00:00,1595A,109.9734,39.7884,鄂尔多斯市,奥林花园,颗粒物(PM10),82,114,66,39,17,89,39,67,54,60,43,12,10,0.8,0.7
2023-02-08T22:00:00,1596A,122.2414,40.6592,营口市,学府南路,,,,,,,,,,,,,,,,
2023-02-08T22:00:00,1597A,122.2703,40.7094,营口市,大庆路,细颗粒物(PM2.5),68,59,97,49,79,89,47,78,67,41,42,9,17,0.9,1.2
2023-02-08T22:00:00,1598A,122.2150,40.6511,营口市,镜湖西路,颗粒物(PM10),61,72,91,40,52,90,40,80,69,48,36,9,20,0.8,1
2023-02-08T22:00:00,1599A,122.1658,40.6789,营口市,西炮台,细颗粒物(PM2.5),78,74,80,57,54,115,17,93,74,83,48,8,19,0.8,0.8
2023-02-08T22:00:00,1600A,124.3303,40.0625,丹东市,江湾东路,颗粒物(PM10),52,53,37,33,22,85,68,79,75,23,20,20,18,0.8,0.8
2023-02-08T22:00:00,1601A,124.4256,40.1503,丹东市,临江后街,颗粒物(PM10),55,59,39,33,22,82,56,75,64,30,24,23,16,0.9,0.7
2023-02-08T22:00:00,1602A,124.3933,40.1461,丹东市,元宝山,,42,42,39,29,23,74,65,70,68,16,20,19,19,0.9,0.9
2023-02-08T22:00:00,1603A,124.3633,40.1092,丹东市,民主桥,,49,49,40,24,21,72,67,66,63,18,25,15,14,1.0,1
2023-02-08T22:00:00,1604A,122.0303,41.1489,盘锦市,开发区,细颗粒物(PM2.5),62,51,81,44,58,89,22,73,49,53,43,10,15,0.7,1.1
2023-02-08T22:00:00,1605A,122.0485,41.0883,盘锦市,兴隆台,细颗粒物(PM2.5),57,46,78,40,57,83,15,66,41,65,46,10,14,0.8,1
2023-02-08T22:00:00,1606A,121.8297,41.1028,盘锦市,新生街道,,43,39,85,30,47,89,28,73,49,46,42,9,13,0.7,0.9
2023-02-08T22:00:00,1607A,120.9092,40.7136,葫芦岛市,龙港区,,49,38,90,34,68,77,45,67,65,28,41,20,55,0.7,1
2023-02-08T22:00:00,1608A,120.8392,40.7514,葫芦岛市,化工街,细颗粒物(PM2.5),107,107,93,80,60,72,10,66,48,89,56,24,32,1.3,0.9
2023-02-08T22:00:00,1609A,120.8341,40.7073,葫芦岛市,新区,细颗粒物(PM2.5),77,55,81,56,61,71,16,64,55,69,52,24,37,1.1,1.3
2023-02-08T22:00:00,1610A,120.8695,40.7677,葫芦岛市,东城区,细颗粒物(PM2.5),147,84,74,112,51,75,9,67,46,74,42,26,40,1.8,1
2023-02-08T22:00:00,1611A,118.5819,24.9117,泉州市,涂山街,,39,30,20,27,16,73,56,69,64,21,15,9,9,0.6,0.5
2023-02-08T22:00:00,1612A,118.5972,24.8978,泉州市,津头埔,,26,24,19,18,11,76,60,70,60,24,22,9,9,0.7,0.6
2023-02-08T22:00:00,1613A,118.6663,24.9424,泉州市,万安,,30,25,19,21,14,78,65,76,70,16,14,10,8,0.5,0.5
2023-02-08T22:00:00,1614A,118.6117,24.9604,泉州市,清源山,,,,,,,,,,,,,,,,
2023-02-08T22:00:00,1616A,117.6795,36.229,济南市,技术学院,颗粒物(PM10),71,92,194,48,140,105,67,93,76,41,65,12,12,1.1,1.5
2023-02-08T22:00:00,1618A,118.3429,35.0532,临沂市,沂河小区,颗粒物(PM10),65,80,147,38,125,65,42,57,55,39,33,13,8,1.6,1.3
2023-02-08T22:00:00,1619A,118.295,35.0583,临沂市,鲁南制药厂,颗粒物(PM10),62,73,160,34,124,76,51,62,60,47,50,20,17,1.4,1.1
2023-02-08T22:00:00,1620A,118.2794,34.9976,临沂市,新光毛纺厂,颗粒物(PM10),57,63,157,30,121,63,63,59,59,26,39,12,8,1.0,1.2
2023-02-08T22:00:00,1621A,118.3956,35.0888,临沂市,河东保险公司,颗粒物(PM10),59,68,142,31,112,77,45,60,56,47,44,14,9,1.3,1.4
2023-02-08T22:00:00,1622A,116.3032,37.4674,德州市,儿童乐园,细颗粒物(PM2.5),110,114,93,83,61,92,61,82,77,28,33,22,18,0.6,0.8
2023-02-08T22:00:00,1624A,116.2991,37.4451,德州市,监理站,细颗粒物(PM2.5),113,117,97,85,68,94,67,85,82,32,37,26,19,0.7,0.9
2023-02-08T22:00:00,1625A,115.9848,36.4372,聊城市,区政府,细颗粒物(PM2.5),97,118,168,72,111,84,67,79,78,36,44,21,20,0.7,1
2023-02-08T22:00:00,1628A,118.0062,37.3803,滨州市,市环保局,细颗粒物(PM2.5),65,58,105,47,74,98,47,87,71,34,38,7,8,0.6,0.8
2023-02-08T22:00:00,1629A,118.0018,37.3617,滨州市,第二水厂,细颗粒物(PM2.5),65,66,99,47,69,93,42,85,70,42,43,11,7,0.7,0.9
2023-02-08T22:00:00,1630A,117.9776,37.393,滨州市,北中新校,"颗粒物(PM10),细颗粒物(PM2.5)",59,67,105,42,68,100,46,88,72,39,40,8,9,0.4,0.6
2023-02-08T22:00:00,1631A,118.0414,36.8103,淄博市,人民公园,细颗粒物(PM2.5),64,66,139,46,115,94,46,80,73,36,46,20,9,0.7,1
2023-02-08T22:00:00,1632A,118.0253,36.8406,淄博市,东风化工厂,,,,,,,,,,,,,,,,
2023-02-08T22:00:00,1633A,117.8525,36.4847,淄博市,双山,细颗粒物(PM2.5),80,95,213,59,158,83,44,76,66,42,59,20,16,1.0,1.4
2023-02-08T22:00:00,1634A,117.9592,36.6331,淄博市,气象站,细颗粒物(PM2.5),77,94,216,56,146,88,33,77,65,48,55,24,20,1.2,1.3
2023-02-08T22:00:00,1635A,118.3092,36.8194,淄博市,莆田园,细颗粒物(PM2.5),58,61,104,41,92,93,26,78,67,52,36,24,10,0.6,1
2023-02-08T22:00:00,1636A,117.8661,36.805,淄博市,三金集团,,,,,,,,,,,,,,,,
2023-02-08T22:00:00,1637A,117.558,34.8438,枣庄市,市中区政府,颗粒物(PM10),67,83,206,41,139,79,52,66,61,43,57,26,18,0.6,1.1
2023-02-08T22:00:00,1638A,117.2852,34.7837,枣庄市,薛城环保局,颗粒物(PM10),64,78,176,44,130,78,78,61,61,36,57,10,11,0.6,1.2
2023-02-08T22:00:00,1639A,117.5852,34.7745,枣庄市,峄城区政府,颗粒物(PM10),52,53,185,24,128,80,80,71,71,26,48,9,12,0.4,1
2023-02-08T22:00:00,1640A,117.7276,34.5578,枣庄市,台儿庄区环保局,颗粒物(PM10),54,58,158,31,114,76,62,66,66,37,53,11,9,0.7,1.4
2023-02-08T22:00:00,1641A,117.4518,35.0992,枣庄市,山亭区环保局,细颗粒物(PM2.5),108,119,169,81,124,116,57,104,82,46,42,14,13,1.6,1.2
2023-02-08T22:00:00,1642A,121.2514,37.5639,烟台市,开发区,,35,34,26,24,19,72,51,68,64,31,26,17,14,1.1,0.9
2023-02-08T22:00:00,1643A,121.3719,37.5433,烟台市,轴承厂,细颗粒物(PM2.5),55,41,34,39,23,87,55,85,75,24,14,6,6,0.8,0.5
2023-02-08T22:00:00,1644A,121.3181,37.5436,烟台市,西郊化工站,,42,41,42,29,20,86,45,79,70,35,32,9,10,1.1,0.8
2023-02-08T22:00:00,1645A,121.4478,37.4822,烟台市,莱山环保局,,34,34,26,17,17,86,59,78,68,16,13,8,9,0.9,0.8
2023-02-08T22:00:00,1646A,121.2611,37.4967,烟台市,福山环保局,细颗粒物(PM2.5),77,88,57,56,32,72,4,66,41,76,41,12,9,1.2,0.9
2023-02-08T22:00:00,1648A,119.12,36.7019,潍坊市,仲裁委,,,,,,,,,,,,,,,,
2023-02-08T22:00:00,1650A,119.1437,36.7023,潍坊市,环保局,,44,44,89,30,71,90,53,78,71,31,36,5,5,0.7,1
2023-02-08T22:00:00,1652A,119.1936,36.7729,潍坊市,寒亭监测站,,,,,,,,,,,,,,,,
2023-02-08T22:00:00,1653A,116.6251,35.4302,济宁市,火炬城,细颗粒物(PM2.5),175,154,253,132,210,124,71,95,91,36,58,8,15,1.0,1.5
2023-02-08T22:00:00,1655A,116.5491,35.4042,济宁市,电化厂,细颗粒物(PM2.5),238,229,269,188,222,90,32,63,53,43,55,8,11,1.4,1.5
2023-02-08T22:00:00,1656A,117.1437,36.1937,泰安市,监测站,颗粒物(PM10),78,105,211,55,160,118,67,104,89,39,58,12,10,1.2,1.4
2023-02-08T22:00:00,1657A,117.0885,36.2017,泰安市,人口学校,颗粒物(PM10),79,107,195,50,140,121,71,108,94,41,54,11,9,1.1,1.3
2023-02-08T22:00:00,1658A,117.1089,36.1758,泰安市,电力学校,颗粒物(PM10),80,110,210,52,159,119,62,99,78,34,52,17,15,1.3,1.5
2023-02-08T22:00:00,1659A,119.471,35.4209,日照市,监测站,颗粒物(PM10),53,56,109,34,81,87,87,77,77,25,37,8,8,0.5,1.1
2023-02-08T22:00:00,1660A,119.523,35.4216,日照市,市政府广场,颗粒物(PM10),53,56,110,35,83,86,86,70,70,9,26,5,5,0.7,1.2
2023-02-08T22:00:00,1661A,119.5587,35.4044,日照市,港务局,颗粒物(PM10),53,56,113,33,83,98,98,89,89,14,30,5,5,0.6,1.1
2023-02-08T22:00:00,1662A,122.1214,37.4236,威海市,华夏技校,,25,19,28,17,18,90,67,84,78,21,20,2,2,0.5,0.5
2023-02-08T22:00:00,1663A,122.0508,37.5236,威海市,山大分校,,25,15,25,12,13,90,78,87,84,11,11,2,2,0.3,0.3
2023-02-08T22:00:00,1664A,122.1067,37.5072,威海市,市监测站,,24,24,25,12,14,88,58,83,74,28,19,5,5,0.5,0.5
2023-02-08T22:00:00,1665A,118.5019,37.4658,东营市,西城阳光环保公司,,,,,,,,,,,,,,,,
2023-02-08T22:00:00,1666A,118.6614,37.4309,东营市,市环保局,,36,36,54,22,42,96,82,88,86,17,20,8,8,0.5,0.7
2023-02-08T22:00:00,1669A,113.5824,24.7733,韶关市,市八中,,25,23,20,17,15,16,6,14,11,18,17,8,8,0.9,0.9
2023-02-08T22:00:00,1670A,113.5556,24.8082,韶关市,碧湖山庄,,,,,,,,,,,,,,,,
2023-02-08T22:00:00,1671A,113.5917,24.7972,韶关市,园林处,,25,17,18,17,13,20,8,19,8,16,14,6,8,0.8,1
2023-02-08T22:00:00,1672A,113.6735,24.7791,韶关市,韶关学院,,25,18,13,17,15,19,6,16,10,19,17,7,7,0.7,0.8
2023-02-08T22:00:00,1673A,113.5971,24.6863,韶关市,曲江监测站,,35,24,20,24,20,23,9,19,15,22,20,9,13,0.9,0.9
2023-02-08T22:00:00,1674A,116.6794,23.3667,汕头市,金平子站,,25,20,17,13,9,105,79,93,90,17,14,12,11,0.7,0.7
2023-02-08T22:00:00,1675A,116.7244,23.3633,汕头市,龙湖子站,,26,18,17,13,10,93,81,89,86,16,14,10,10,0.6,0.6
2023-02-08T22:00:00,1676A,116.7258,23.2775,汕头市,濠江子站,,25,19,19,14,11,102,80,95,93,14,11,9,8,0.6,0.6
2023-02-08T22:00:00,1677A,116.7519,23.4714,汕头市,澄海子站,,25,21,20,16,12,109,80,100,96,19,15,6,5,0.7,0.7
2023-02-08T22:00:00,1678A,116.6092,23.2539,汕头市,潮阳子站,,25,20,18,17,8,101,76,95,92,12,10,6,6,0.5,0.5
2023-02-08T22:00:00,1679A,116.4069,23.2533,汕头市,潮南子站,,,,,,,,,,,,,,,,
2023-02-08T22:00:00,1680A,110.3539,21.2706,湛江市,湛江影剧院,,29,29,21,17,13,81,78,79,79,5,7,5,5,0.5,0.5
2023-02-08T22:00:00,1681A,110.3928,21.2228,湛江市,市环境监测站,,26,26,23,16,14,81,76,78,78,9,9,6,6,0.5,0.5
2023-02-08T22:00:00,1682A,110.4019,21.1997,湛江市,环保局宿舍,,34,34,23,17,14,81,73,75,75,9,8,3,4,0.5,0.5
2023-02-08T22:00:00,1683A,110.4111,21.2028,湛江市,霞山游泳场,,50,50,22,19,14,87,80,83,83,6,7,5,5,0.5,0.5
2023-02-08T22:00:00,1684A,110.3316,21.2679,湛江市,麻章区环保局,,28,28,22,13,12,81,73,76,76,8,8,5,5,0.5,0.5
2023-02-08T22:00:00,1685A,110.4558,21.2567,湛江市,坡头区环保局,,30,30,21,21,16,79,73,76,76,8,8,5,5,0.5,0.5
2023-02-08T22:00:00,1686A,111.0286,21.4688,茂名市,电白南海,,31,31,25,14,12,88,78,84,84,10,12,5,6,0.5,0.5
2023-02-08T22:00:00,1687A,110.9294,21.6533,茂名市,茂石化七小,,22,22,26,12,18,71,60,69,68,7,10,4,4,0.4,0.5
2023-02-08T22:00:00,1688A,110.9107,21.6687,茂名市,健康路,,23,19,23,15,13,76,72,74,74,7,10,10,12,0.6,0.6
2023-02-08T22:00:00,1689A,110.8592,21.6828,茂名市,高岭,,27,27,30,17,19,73,67,65,65,12,18,10,13,0.5,0.6
2023-02-08T22:00:00,1690A,116.1231,24.3284,梅州市,梅江月梅,,35,30,20,24,15,73,53,60,60,9,12,5,6,0.5,0.5
2023-02-08T22:00:00,1691A,116.0797,24.2719,梅州市,梅县新城,,35,31,24,24,20,70,27,55,44,24,15,6,6,0.9,0.8
2023-02-08T22:00:00,1692A,116.1248,24.2654,梅州市,环境监控中心,,36,20,28,25,22,61,7,54,36,35,21,7,7,0.6,0.6
2023-02-08T22:00:00,1693A,115.3653,22.775,汕尾市,市环保局,,27,27,19,14,11,96,81,91,88,6,6,11,8,0.5,0.5
2023-02-08T22:00:00,1694A,115.3706,22.7898,汕尾市,市政府,,,14,18,17,13,106,,94,92,,10,11,8,0.5,0.6
2023-02-08T22:00:00,1695A,115.3622,22.7925,汕尾市,新城中学,,25,25,22,17,15,96,75,88,86,7,7,8,6,0.4,0.4
2023-02-08T22:00:00,1696A,114.6778,23.7569,河源市,源西,,24,24,20,15,12,44,5,30,22,39,20,5,5,1.0,0.9
2023-02-08T22:00:00,1697A,114.6944,23.7586,河源市,东埔,,50,50,28,24,15,56,19,40,35,24,16,4,4,0.9,0.9
2023-02-08T22:00:00,1698A,114.6892,23.7233,河源市,老城,,46,46,27,30,18,48,17,38,33,21,15,4,4,1.0,1
2023-02-08T22:00:00,1699A,111.9797,21.8593,阳江市,鸳鸯湖,,22,10,18,15,17,74,67,68,68,9,8,5,5,0.6,0.7
2023-02-08T22:00:00,1700A,111.9508,21.8536,阳江市,南恩路,,,,,,,,,,,,,,,,
2023-02-08T22:00:00,1701A,111.9491,21.8658,阳江市,马南垌,,24,24,28,15,15,74,68,67,67,11,13,5,5,0.5,0.6
2023-02-08T22:00:00,1702A,113.0426,23.691,清远市,环保大楼,,42,26,19,29,20,15,1,10,7,33,24,3,3,0.9,0.8
2023-02-08T22:00:00,1703A,113.0208,23.7106,清远市,凤城街办,,38,38,27,24,16,10,1,6,4,25,19,6,6,1.2,1.1
2023-02-08T22:00:00,1705A,116.6367,23.6719,潮州市,西园路,,48,37,31,33,33,97,67,90,83,15,14,5,5,0.7,0.8
2023-02-08T22:00:00,1706A,116.6447,23.6706,潮州市,档案局,,42,29,29,29,30,96,61,86,78,16,14,8,7,0.6,0.6
2023-02-08T22:00:00,1708A,116.3701,23.5345,揭阳市,新兴,,43,31,26,30,25,104,68,88,82,18,17,8,7,0.7,0.7
2023-02-08T22:00:00,1709A,116.3264,23.5443,揭阳市,西马,,40,39,32,28,24,114,72,97,91,13,10,8,8,0.5,0.6
2023-02-08T22:00:00,1710A,116.3611,23.5626,揭阳市,东兴,,40,34,31,28,25,118,79,101,96,18,16,8,7,0.6,0.7
2023-02-08T22:00:00,1711A,116.4151,23.5294,揭阳市,渔湖,,35,35,27,21,16,102,68,90,84,14,12,9,8,0.6,0.6
2023-02-08T22:00:00,1712A,112.0392,22.9169,云浮市,新市府,,40,40,32,24,22,13,4,10,8,34,30,5,4,1.3,1.1
2023-02-08T22:00:00,1713A,112.0369,22.9394,云浮市,市监测站,,,,,,,,,,,,,,,,
2023-02-08T22:00:00,1714A,112.0539,22.9539,云浮市,牧羊,,43,43,45,27,27,36,18,18,12,44,35,8,7,0.8,0.8
2023-02-08T22:00:00,1715A,102.575,24.3711,玉溪市,东风水库,细颗粒物(PM2.5),84,83,43,62,34,129,94,118,109,16,14,7,6,0.9,0.7
2023-02-08T22:00:00,1718A,115.4208,35.2464,菏泽市,气象局,细颗粒物(PM2.5),124,144,230,94,164,76,52,64,62,43,56,14,16,1.0,1.2
2023-02-08T22:00:00,1719A,115.4747,35.2375,菏泽市,市政协,细颗粒物(PM2.5),132,144,235,100,167,71,52,61,61,43,58,19,18,0.9,1.2
2023-02-08T22:00:00,1720A,115.455,35.27,菏泽市,菏泽学院,,,,,,,,,,,,,,,,
2023-02-08T22:00:00,1721A,113.3819,40.1097,大同市,果树场,,,,,,,,,,,,,,,,
2023-02-08T22:00:00,1723A,113.2994,40.0758,大同市,云冈宾馆,"颗粒物(PM10),细颗粒物(PM2.5)",64,77,52,46,25,97,61,84,78,29,20,11,15,0.5,0.7
2023-02-08T22:00:00,1724A,113.3444,40.0917,大同市,大同大学,颗粒物(PM10),64,77,43,36,20,97,61,89,83,24,16,10,14,0.3,0.4
2023-02-08T22:00:00,1725A,113.2661,40.1269,大同市,安家小村,颗粒物(PM10),69,88,51,41,18,102,70,86,83,24,20,12,10,0.7,0.7
2023-02-08T22:00:00,1726A,113.2711,40.0844,大同市,教育学院,细颗粒物(PM2.5),83,82,46,61,30,87,59,74,70,26,24,8,10,0.5,0.6
2023-02-08T22:00:00,1727A,113.1147,36.1547,长治市,清华站,细颗粒物(PM2.5),110,107,159,83,141,99,77,92,86,24,30,7,13,1.3,1.4
2023-02-08T22:00:00,1728A,113.1031,36.1989,长治市,监测站,细颗粒物(PM2.5),100,81,135,75,128,86,73,81,80,24,31,5,10,1.3,1.5
2023-02-08T22:00:00,1730A,113.0886,36.2125,长治市,审计局,细颗粒物(PM2.5),100,87,145,75,139,90,70,86,81,22,26,10,12,1.4,1.4
2023-02-08T22:00:00,1731A,113.0844,36.1856,长治市,长治八中,细颗粒物(PM2.5),107,109,161,80,120,97,83,92,90,21,27,5,10,1.0,1.3
2023-02-08T22:00:00,1733A,111.5531,36.0783,临汾市,临钢医院,细颗粒物(PM2.5),203,187,235,153,162,90,69,82,72,26,38,2,10,1.6,1.6
2023-02-08T22:00:00,1734A,111.5028,36.0714,临汾市,技工学校,细颗粒物(PM2.5),219,207,239,169,163,88,69,80,71,24,47,6,24,1.3,1.6
2023-02-08T22:00:00,1735A,111.5169,36.0822,临汾市,工商学校,,,,,,,,,,,,,,,,
2023-02-08T22:00:00,1736A,111.5018,36.0855,临汾市,市委,细颗粒物(PM2.5),226,226,253,176,160,94,76,80,75,25,51,2,21,1.5,2
2023-02-08T22:00:00,1738A,113.5758,37.8572,阳泉市,市中心,颗粒物(PM10),61,71,166,39,104,75,51,67,60,34,52,16,23,0.7,1.4
2023-02-08T22:00:00,1739A,113.4894,37.8731,阳泉市,赛鱼,颗粒物(PM10),56,61,136,33,98,79,59,74,69,36,46,12,12,0.9,1.2
2023-02-08T22:00:00,1740A,113.5819,37.8486,阳泉市,南庄,细颗粒物(PM2.5),60,65,151,43,95,80,57,72,66,31,42,21,23,0.8,1.3
2023-02-08T22:00:00,1741A,113.6292,37.8531,阳泉市,白羊墅,,,,,,,,,,,,,,,,
2023-02-08T22:00:00,1742A,113.5614,37.8703,阳泉市,平坦,颗粒物(PM10),80,110,173,35,103,80,57,75,67,33,55,14,21,0.8,1.5
2023-02-08T22:00:00,1743A,113.5158,37.8392,阳泉市,大阳泉,细颗粒物(PM2.5),62,50,123,44,94,83,61,76,71,29,34,14,13,0.8,1
2023-02-08T22:00:00,1744A,118.9233,42.2816,赤峰市,松山一中,颗粒物(PM10),67,83,48,35,30,78,12,71,39,61,38,18,16,1.4,1
2023-02-08T22:00:00,1745A,118.9576,42.2728,赤峰市,哈达街,颗粒物(PM10),71,92,44,51,26,79,12,69,43,68,33,91,21,1.4,1
2023-02-08T22:00:00,1746A,118.8788,42.2554,赤峰市,天义路,颗粒物(PM10),67,83,36,38,18,81,8,74,40,63,32,17,14,1.4,0.9
2023-02-08T22:00:00,1748A,123.044,41.1196,鞍山市,深沟寺,颗粒物(PM10),54,57,72,37,46,78,47,70,60,29,34,12,15,0.8,1
2023-02-08T22:00:00,1749A,123.011,41.0931,鞍山市,太阳城,颗粒物(PM10),63,75,85,43,51,82,51,72,66,28,38,14,22,0.9,1.5
2023-02-08T22:00:00,1750A,123.0485,41.1442,鞍山市,太平,,,82,86,53,55,72,,63,52,60,48,14,17,1.0,1.1
2023-02-08T22:00:00,1751A,122.9642,41.0971,鞍山市,铁西三道街,颗粒物(PM10),103,156,132,68,71,74,9,61,38,76,55,28,26,1.4,1.9
2023-02-08T22:00:00,1752A,122.9341,41.0833,鞍山市,铁西工业园区,细颗粒物(PM2.5),95,121,143,71,91,73,13,61,38,78,60,28,22,1.6,2
2023-02-08T22:00:00,1753A,123.022,41.0821,鞍山市,明达新区,细颗粒物(PM2.5),64,72,82,46,52,82,46,75,63,39,46,14,20,0.8,1.5
2023-02-08T22:00:00,1754A,123.1289,41.0228,鞍山市,千山,,,,,,,,,,,,,,,,
2023-02-08T22:00:00,1755A,123.7977,41.8491,抚顺市,望花区,细颗粒物(PM2.5),109,130,87,82,51,77,8,58,43,59,41,11,14,1.5,1.3
2023-02-08T22:00:00,1756A,123.9161,41.8822,抚顺市,顺城区,细颗粒物(PM2.5),104,112,78,78,60,89,6,72,45,54,42,9,8,1.2,1
2023-02-08T22:00:00,1757A,124.0436,41.8611,抚顺市,东洲区,细颗粒物(PM2.5),93,103,82,69,49,87,31,64,51,26,31,8,7,0.9,0.7
2023-02-08T22:00:00,1758A,123.9247,41.8642,抚顺市,新抚区,细颗粒物(PM2.5),102,128,86,76,52,80,8,64,46,60,39,9,9,1.3,0.9
2023-02-08T22:00:00,1759A,124.0972,41.8961,抚顺市,大伙房水库,细颗粒物(PM2.5),53,50,56,37,38,92,54,73,69,16,21,7,8,0.5,0.5
2023-02-08T22:00:00,1760A,123.7086,41.8391,抚顺市,沈抚新城,细颗粒物(PM2.5),122,125,75,92,45,87,14,69,51,61,39,63,20,1.4,0.8
2023-02-08T22:00:00,1761A,123.8275,41.3064,本溪市,大峪,颗粒物(PM10),55,60,70,31,34,71,31,54,46,38,36,15,16,0.9,1.2
2023-02-08T22:00:00,1762A,123.7567,41.3325,本溪市,溪湖,"颗粒物(PM10),细颗粒物(PM2.5)",80,109,89,59,38,83,18,67,46,49,38,13,13,1.0,0.9
2023-02-08T22:00:00,1763A,123.7169,41.3094,本溪市,彩屯,细颗粒物(PM2.5),77,77,74,56,43,82,35,64,46,35,37,10,13,0.8,1
2023-02-08T22:00:00,1764A,123.7669,41.2864,本溪市,东明,细颗粒物(PM2.5),72,77,83,52,44,73,7,60,42,73,49,16,22,1.1,1.3
2023-02-08T22:00:00,1765A,123.7992,41.2664,本溪市,新立屯,,48,48,72,32,49,81,30,62,38,46,48,9,16,0.7,1.7
2023-02-08T22:00:00,1766A,123.8142,41.3472,本溪市,威宁,颗粒物(PM10),66,82,79,43,43,71,6,53,35,63,40,6,8,0.7,0.8
2023-02-08T22:00:00,1767A,121.1115,41.0879,锦州市,南山,细颗粒物(PM2.5),67,29,66,48,58,88,26,77,53,68,40,18,27,0.6,0.9
2023-02-08T22:00:00,1768A,121.0533,40.8434,锦州市,开发区,细颗粒物(PM2.5),75,71,136,55,79,101,6,74,43,90,58,28,47,0.9,1.2
2023-02-08T22:00:00,1769A,121.1836,41.1119,锦州市,百股街道,细颗粒物(PM2.5),68,68,110,49,71,88,39,69,54,55,50,19,25,0.9,1.1
2023-02-08T22:00:00,1770A,121.1178,41.1222,锦州市,天安街道,细颗粒物(PM2.5),88,72,77,65,56,82,17,72,52,76,41,28,26,0.9,0.8
2023-02-08T22:00:00,1771A,121.1303,41.1386,锦州市,北湖公园,细颗粒物(PM2.5),67,45,68,48,51,91,39,76,63,54,40,25,19,0.8,1
2023-02-08T22:00:00,1772A,126.54,43.8622,吉林市,哈达湾,,40,40,41,25,28,76,51,71,65,27,23,9,10,0.6,0.7
2023-02-08T22:00:00,1773A,126.5844,43.8358,吉林市,东局子,,48,48,41,29,27,71,42,65,56,30,22,12,12,0.7,0.7
2023-02-08T22:00:00,1774A,126.5052,43.8245,吉林市,电力学院,,,,49,,36,73,10,69,50,58,30,28,15,2.4,1
2023-02-08T22:00:00,1775A,126.6133,43.8972,吉林市,江北,细颗粒物(PM2.5),65,65,40,47,30,74,36,68,53,32,28,20,13,1.2,0.8
2023-02-08T22:00:00,1776A,126.555,43.8306,吉林市,江南公园,,40,39,39,28,30,73,59,69,66,21,25,8,10,0.6,0.7
2023-02-08T22:00:00,1778A,126.7061,43.7133,吉林市,丰满,,,,,,,,,,,,,,,,
2023-02-08T22:00:00,1779A,123.9305,47.3636,齐齐哈尔市,安居小区,颗粒物(PM10),51,52,32,35,23,82,62,74,61,20,22,9,8,0.3,0.4
2023-02-08T22:00:00,1780A,123.9488,47.3386,齐齐哈尔市,中心广场,,40,40,25,18,11,76,71,68,60,8,15,6,7,0.3,0.4
2023-02-08T22:00:00,1781A,123.9483,47.3227,齐齐哈尔市,农牧车辆厂,,48,39,30,33,17,72,63,63,53,14,21,5,6,0.4,0.4
2023-02-08T22:00:00,1783A,123.945,47.2988,齐齐哈尔市,市环境监测站,细颗粒物(PM2.5),64,26,41,46,31,73,65,65,53,14,24,9,11,0.3,0.5
2023-02-08T22:00:00,1784A,129.61,44.561,牡丹江市,环保大楼,,39,27,51,27,37,76,52,71,65,22,26,6,9,0.5,0.6
2023-02-08T22:00:00,1785A,129.6115,44.5782,牡丹江市,文化广场,,41,41,56,28,41,67,35,62,52,34,31,13,12,0.8,0.8
2023-02-08T22:00:00,1786A,129.5904,44.5963,牡丹江市,第一医院,细颗粒物(PM2.5),64,41,60,46,46,75,34,68,60,32,32,5,8,0.8,1
2023-02-08T22:00:00,1787A,129.6364,44.6075,牡丹江市,机车工厂,,29,26,70,20,43,74,52,68,64,14,29,1,2,0.6,0.9
2023-02-08T22:00:00,1788A,129.6386,44.5462,牡丹江市,第一中学,,40,31,40,28,32,76,14,71,58,49,20,5,5,0.7,0.6
2023-02-08T22:00:00,1789A,124.81117,46.03138,大庆市,大同区,细颗粒物(PM2.5),69,68,45,50,33,75,37,68,54,35,17,10,9,0.9,0.6
2023-02-08T22:00:00,1790A,125.129,46.533,大庆市,龙凤区,细颗粒物(PM2.5),109,65,48,82,34,58,27,52,42,44,30,8,15,1.3,0.8
2023-02-08T22:00:00,1791A,124.902,46.408,大庆市,红岗区,"颗粒物(PM10),细颗粒物(PM2.5)",57,63,34,40,25,75,26,68,48,49,24,12,12,0.7,0.4
2023-02-08T22:00:00,1792A,125.153,46.586,大庆市,萨尔图区,颗粒物(PM10),52,54,47,28,34,63,28,52,34,47,36,8,11,0.6,0.5
2023-02-08T22:00:00,1793A,124.9042,46.6215,大庆市,让胡路区,,31,31,37,15,25,76,15,70,45,62,27,6,6,0.5,0.3
2023-02-08T22:00:00,1794A,118.3606,31.3519,芜湖市,监测站,细颗粒物(PM2.5),60,59,94,43,73,78,52,74,65,34,40,4,5,0.8,1
2023-02-08T22:00:00,1795A,118.3714,31.4134,芜湖市,科创中心,细颗粒物(PM2.5),85,89,105,63,78,76,42,69,59,35,37,4,5,0.8,1.1
2023-02-08T22:00:00,1796A,118.3673,31.3131,芜湖市,四水厂,细颗粒物(PM2.5),57,48,79,40,63,79,57,71,66,32,37,6,6,0.7,0.9
2023-02-08T22:00:00,1797A,118.4022,31.3839,芜湖市,济民医院,,,,,,,,,,,,,,,,
2023-02-08T22:00:00,1798A,118.5092,31.6837,马鞍山市,湖东路四小,细颗粒物(PM2.5),59,55,69,42,69,74,39,67,55,39,31,7,7,0.7,0.8
2023-02-08T22:00:00,1799A,118.5024,31.6449,马鞍山市,开发区,细颗粒物(PM2.5),54,53,74,38,73,70,44,61,52,32,32,8,8,0.8,0.9
2023-02-08T22:00:00,1800A,118.5228,31.7231,马鞍山市,慈湖,细颗粒物(PM2.5),64,63,77,46,73,80,39,72,61,40,30,16,9,1.1,0.9
2023-02-08T22:00:00,1801A,118.48,31.6928,马鞍山市,马钢动力厂,,,,,,,,,,,,,,,,
2023-02-08T22:00:00,1802A,118.6245,31.7241,马鞍山市,濮塘,颗粒物(PM10),70,89,91,48,57,74,38,71,58,34,26,5,5,1.0,1
2023-02-08T22:00:00,1803A,115.9872,29.6815,九江市,十里,细颗粒物(PM2.5),83,71,57,61,50,68,68,55,55,21,24,6,6,0.8,0.9
2023-02-08T22:00:00,1804A,115.9584,29.7046,九江市,茅山头,细颗粒物(PM2.5),90,87,57,67,50,59,59,52,52,24,24,8,9,1.1,1.1
2023-02-08T22:00:00,1805A,115.9877,29.7295,九江市,西园,细颗粒物(PM2.5),97,90,58,72,49,63,62,55,55,23,25,6,6,1.1,1.2
2023-02-08T22:00:00,1806A,116.0172,29.6547,九江市,五七二七厂,细颗粒物(PM2.5),85,74,56,63,54,68,68,55,55,11,18,5,5,0.9,1
2023-02-08T22:00:00,1808A,115.9114,29.6038,九江市,综合工业园,细颗粒物(PM2.5),92,67,51,68,59,62,51,48,48,30,26,7,7,1.0,1.1
2023-02-08T22:00:00,1809A,116.0721,29.7535,九江市,石化总厂,细颗粒物(PM2.5),98,93,66,73,43,64,64,55,55,25,31,8,8,0.9,0.9
2023-02-08T22:00:00,1810A,115.9773,29.5698,九江市,庐山气象台,细颗粒物(PM2.5),52,3,3,36,5,50,48,47,38,12,13,5,6,0.3,0.6
2023-02-08T22:00:00,1811A,112.3628,34.6692,洛阳市,中信二小,,,,,,,,,,,,,,,,
2023-02-08T22:00:00,1812A,112.3931,34.6516,洛阳市,市委党校,细颗粒物(PM2.5),107,106,228,80,155,76,49,66,66,32,47,6,12,0.8,1.1
2023-02-08T22:00:00,1814A,112.4657,34.6871,洛阳市,豫西宾馆,细颗粒物(PM2.5),119,103,222,90,159,82,55,71,70,28,40,7,14,1.1,1.3
2023-02-08T22:00:00,1815A,112.494,34.6886,洛阳市,河南林校,细颗粒物(PM2.5),113,97,218,85,157,88,39,62,62,37,45,1,8,0.9,1.2
2023-02-08T22:00:00,1816A,112.3844,34.623,洛阳市,开发区管委会,细颗粒物(PM2.5),114,99,214,86,158,89,67,80,80,32,49,4,10,0.7,1
2023-02-08T22:00:00,1817A,112.4267,34.6258,洛阳市,市委新办公区,细颗粒物(PM2.5),128,98,217,97,187,80,56,73,72,31,52,2,8,0.8,1.2
2023-02-08T22:00:00,1818A,114.4839,36.0621,安阳市,棉研所,,,,,,,,,,,,,,,,
2023-02-08T22:00:00,1819A,114.3551,36.1017,安阳市,红庙街,细颗粒物(PM2.5),95,100,147,71,107,74,47,61,57,50,52,9,12,0.9,1.2
2023-02-08T22:00:00,1820A,114.361,36.0681,安阳市,银杏小区,细颗粒物(PM2.5),98,97,131,73,115,73,52,62,60,39,42,11,13,1.0,1.3
2023-02-08T22:00:00,1824A,114.3389,34.7781,开封市,肿瘤医院,细颗粒物(PM2.5),84,110,217,62,146,75,55,66,64,23,36,9,13,0.6,1
2023-02-08T22:00:00,1826A,114.2885,34.7965,开封市,世纪星幼儿园,,,94,196,67,155,75,54,65,63,,38,9,13,0.8,1.1
2023-02-08T22:00:00,1828A,113.227,35.2125,焦作市,市环保局,细颗粒物(PM2.5),117,134,204,88,147,78,77,75,75,26,33,11,14,1.2,1.4
2023-02-08T22:00:00,1829A,113.2464,35.1764,焦作市,高新区政府,,,,,,,,,,,,,,,,
2023-02-08T22:00:00,1830A,113.1992,35.2590,焦作市,影视城,,,,,,,,,,,,,,,,
2023-02-08T22:00:00,1832A,113.3257,33.742,平顶山市,新华旅馆,细颗粒物(PM2.5),140,132,222,107,159,66,54,60,58,28,45,6,12,1.0,1.1
2023-02-08T22:00:00,1833A,113.2919,33.737,平顶山市,规划设计院,细颗粒物(PM2.5),144,120,213,110,156,72,55,64,61,28,47,3,8,1.0,1
2023-02-08T22:00:00,1834A,113.182,33.774,平顶山市,平顶山工学院,细颗粒物(PM2.5),138,149,239,105,159,81,60,69,66,18,27,3,8,0.9,1
2023-02-08T22:00:00,1835A,111.1922,34.7752,三门峡市,市政府,细颗粒物(PM2.5),142,80,192,108,190,77,56,74,52,27,31,7,11,1.1,1.3
2023-02-08T22:00:00,1836A,111.1587,34.7942,三门峡市,开发区,细颗粒物(PM2.5),173,151,254,131,188,82,50,82,49,30,32,7,11,1.0,1.2
2023-02-08T22:00:00,1838A,111.143,34.7955,三门峡市,风景区,,,,,,,,,,,,,,,,
2023-02-08T22:00:00,1839A,111.3009,30.7157,宜昌市,四零三,,,,,,,,,,,,,,,,
2023-02-08T22:00:00,1840A,111.2992,30.6981,宜昌市,白龙岗,细颗粒物(PM2.5),55,48,153,39,140,47,47,39,39,17,38,4,4,0.6,1
2023-02-08T22:00:00,1841A,111.3549,30.6465,宜昌市,伍家岗,细颗粒物(PM2.5),77,64,176,56,154,55,25,38,37,29,44,7,8,0.8,1.1
2023-02-08T22:00:00,1842A,111.2628,30.6961,宜昌市,点军区,细颗粒物(PM2.5),67,48,177,48,147,45,36,37,37,17,30,5,5,0.9,1.1
2023-02-08T22:00:00,1843A,111.3275,30.7819,宜昌市,夷陵区,,,70,149,,156,38,28,26,26,22,38,5,6,0.8,1.1
2023-02-08T22:00:00,1844A,112.2494,30.3197,荆州市,市图书馆,,26,20,81,18,78,52,40,50,30,16,26,4,5,0.7,0.9
2023-02-08T22:00:00,1845A,112.2008,30.3544,荆州市,市委党校,,38,31,82,26,83,46,36,44,28,17,26,4,5,0.9,1
2023-02-08T22:00:00,1847A,113.1094,29.3578,岳阳市,南湖风景区,细颗粒物(PM2.5),62,43,77,44,63,42,17,36,21,35,34,4,6,0.8,1
2023-02-08T22:00:00,1848A,113.1493,29.4251,岳阳市,城陵矶,,39,33,64,27,55,51,23,37,23,33,34,3,3,0.8,0.9
2023-02-08T22:00:00,1849A,113.1497,29.3575,岳阳市,开发区,细颗粒物(PM2.5),54,31,67,38,70,41,17,34,16,25,29,5,6,0.9,1.1
2023-02-08T22:00:00,1850A,113.2621,29.4758,岳阳市,云溪区,,33,29,60,23,45,42,28,41,27,23,28,5,7,1.0,1.2
2023-02-08T22:00:00,1851A,112.9943,29.4402,岳阳市,君山区,,49,36,66,34,62,51,35,51,22,20,24,6,6,0.5,0.7
2023-02-08T22:00:00,1852A,113.2117,29.355,岳阳市,金凤水库,,38,28,72,26,59,31,16,26,18,16,18,5,5,0.8,1
2023-02-08T22:00:00,1854A,111.6975,28.9703,常德市,市二中,,27,27,105,12,71,43,18,28,23,15,21,3,4,1.1,1.3
2023-02-08T22:00:00,1857A,111.7158,29.1456,常德市,白鹤山,,12,12,77,8,66,58,28,52,34,11,10,3,4,0.6,0.7
2023-02-08T22:00:00,1858A,110.5319,29.1217,张家界市,永定新区,细颗粒物(PM2.5),68,56,127,49,110,47,29,45,32,24,30,3,4,0.7,0.8
2023-02-08T22:00:00,1859A,110.4697,29.1242,张家界市,电业局,,,,115,44,109,58,,48,42,10,25,4,4,0.7,0.9
2023-02-08T22:00:00,1860A,110.5594,29.3547,张家界市,未央路,,50,39,121,35,99,68,43,63,55,14,12,5,6,0.8,1.2
2023-02-08T22:00:00,1861A,110.4417,29.315,张家界市,袁家界,,,,73,,69,86,58,84,66,12,14,7,7,0.9,0.9
2023-02-08T22:00:00,1862A,110.4144,25.3167,桂林市,电子科大尧山校区,,,,,,,,,,,,,,,,
2023-02-08T22:00:00,1863A,110.2819,25.2697,桂林市,监测站,,32,18,16,22,16,35,26,34,30,22,13,2,2,1.3,1
2023-02-08T22:00:00,1864A,110.3089,25.2708,桂林市,龙隐路小学,,30,18,14,21,16,36,29,32,30,19,14,4,4,1.0,1
2023-02-08T22:00:00,1865A,110.2869,25.2178,桂林市,八中,,40,27,15,28,16,30,16,27,24,32,20,3,3,1.2,0.9
2023-02-08T22:00:00,1866A,109.2262,21.588,北海市,牛尾岭水库,,25,25,25,16,13,63,55,58,58,7,11,6,6,0.4,0.7
2023-02-08T22:00:00,1867A,109.1436,21.4086,北海市,海滩公园,,41,41,30,22,12,82,63,74,73,6,6,4,4,0.7,0.7
2023-02-08T22:00:00,1868A,109.0981,21.4661,北海市,新市环保局,,37,37,26,19,14,73,61,66,66,10,13,2,2,0.5,0.6
2023-02-08T22:00:00,1869A,109.1778,21.5233,北海市,北海工业园,,42,42,32,24,19,71,60,64,64,7,12,4,4,0.4,0.6
2023-02-08T22:00:00,1870A,109.4856,24.3895,柳州市,柳东小学,,29,11,14,20,21,34,27,30,30,10,7,5,5,1.1,1
2023-02-08T22:00:00,1871A,109.4157,24.3277,柳州市,环保监测站,,13,10,16,9,12,27,19,23,23,19,16,4,4,1.1,1
2023-02-08T22:00:00,1872A,109.389,24.341,柳州市,河西水厂,,15,7,16,10,11,29,25,26,26,12,12,8,9,1.4,1.4
2023-02-08T22:00:00,1873A,109.4311,24.2921,柳州市,市四中,,21,21,17,8,10,29,9,21,20,27,15,6,6,1.4,1.1
2023-02-08T22:00:00,1874A,109.4006,24.3631,柳州市,市九中,,13,10,15,7,9,30,25,27,27,13,15,4,5,1.3,1.2
2023-02-08T22:00:00,1875A,109.4958,24.3134,柳州市,古亭山,,12,8,15,8,10,28,23,25,24,11,9,8,8,1.1,1
2023-02-08T22:00:00,1876A,109.5078,18.2489,三亚市,河东子站,,,,17,12,10,47,45,43,43,4,4,2,2,0.4,0.3
2023-02-08T22:00:00,1877A,109.4964,18.2681,三亚市,河西子站,,18,18,16,8,8,53,52,46,46,3,3,2,2,0.3,0.3
2023-02-08T22:00:00,1878A,104.7778,31.4741,绵阳市,富乐山,,39,30,68,27,57,75,34,68,36,11,12,2,3,0.7,0.7
2023-02-08T22:00:00,1879A,104.7563,31.4535,绵阳市,市人大,,38,37,72,26,59,79,22,79,27,24,20,6,6,0.9,0.9
2023-02-08T22:00:00,1880A,104.6697,31.4668,绵阳市,高新区自来水公司,,45,17,60,31,68,82,38,82,38,15,20,4,4,0.8,0.9
2023-02-08T22:00:00,1881A,104.7287,31.5075,绵阳市,三水厂,,48,39,78,33,68,81,37,78,38,11,18,2,2,0.7,0.8
2023-02-08T22:00:00,1882A,104.563,28.793,宜宾市,石马中学,细颗粒物(PM2.5),213,207,188,163,156,52,34,46,45,26,28,6,5,1.1,1.1
2023-02-08T22:00:00,1883A,104.6201,28.7728,宜宾市,市委,细颗粒物(PM2.5),215,208,175,165,146,58,29,45,43,42,36,9,8,1.1,1.1
2023-02-08T22:00:00,1884A,104.6055,28.793,宜宾市,宜宾四中,细颗粒物(PM2.5),234,224,190,184,163,53,27,40,39,39,38,8,7,1.2,1.1
2023-02-08T22:00:00,1885A,104.639,28.7562,宜宾市,市政府,细颗粒物(PM2.5),215,195,164,165,143,58,39,45,45,30,35,8,7,0.9,0.9
2023-02-08T22:00:00,1886A,104.5742,28.7199,宜宾市,黄金嘴,细颗粒物(PM2.5),207,199,159,157,136,57,28,45,43,40,33,7,6,1.5,1.4
2023-02-08T22:00:00,1888A,101.6891,26.571,攀枝花市,弄弄坪,颗粒物(PM10),57,64,72,34,45,105,83,97,91,20,32,10,32,0.8,2
2023-02-08T22:00:00,1889A,101.5769,26.5928,攀枝花市,河门口,,46,46,57,27,33,116,91,110,106,13,20,8,14,0.5,0.7
2023-02-08T22:00:00,1890A,101.7169,26.585,攀枝花市,炳草岗,,41,41,67,27,36,109,60,101,94,39,37,10,31,0.8,1.6
2023-02-08T22:00:00,1891A,101.7369,26.5008,攀枝花市,仁和,颗粒物(PM10),57,64,58,39,43,111,59,108,95,22,19,8,10,0.6,0.7
2023-02-08T22:00:00,1893A,105.4324,28.9634,泸州市,九狮山,细颗粒物(PM2.5),192,213,187,144,137,53,5,32,28,29,27,9,11,0.8,0.7
2023-02-08T22:00:00,1894A,105.4427,28.9063,泸州市,小市上码头,细颗粒物(PM2.5),255,260,220,205,174,48,18,33,32,46,41,12,14,1.2,1.4
2023-02-08T22:00:00,1895A,105.4241,28.8573,泸州市,兰田宪桥,细颗粒物(PM2.5),270,237,205,220,185,48,9,38,32,46,35,6,13,1.3,1.1
2023-02-08T22:00:00,1896A,105.4379,28.8833,泸州市,市环监站,细颗粒物(PM2.5),243,246,212,193,169,46,13,28,26,40,38,5,9,1.0,1
2023-02-08T22:00:00,1897A,104.7547,29.3628,自贡市,大塘山,,,,,,,,,,,,,,,,
2023-02-08T22:00:00,1900A,104.7692,29.3411,自贡市,春华路,,,,,,,,,,,,,,,,
2023-02-08T22:00:00,1901A,104.4239,31.1208,德阳市,东山公园,,48,44,90,33,80,59,38,44,42,17,24,2,2,0.9,1
2023-02-08T22:00:00,1902A,104.3826,31.1317,德阳市,西小区,细颗粒物(PM2.5),52,51,86,36,82,48,30,40,38,21,26,2,3,1.0,1
2023-02-08T22:00:00,1903A,104.4053,31.1167,德阳市,市检察院,,,,,,,,,,,,,,,,
2023-02-08T22:00:00,1904A,104.3553,31.1091,德阳市,耐火材料厂,细颗粒物(PM2.5),60,40,82,43,77,64,34,41,38,15,22,1,2,1.0,1
2023-02-08T22:00:00,1905A,106.056,30.8064,南充市,西山风景区,,,,,,,,,,,,,,,,
2023-02-08T22:00:00,1906A,106.0789,30.8023,南充市,南充市委,细颗粒物(PM2.5),70,63,101,51,86,32,21,24,24,23,28,7,8,0.9,1
2023-02-08T22:00:00,1907A,106.1031,30.8217,南充市,南充炼油厂,细颗粒物(PM2.5),69,54,100,50,85,35,30,29,29,10,22,7,8,0.7,0.9
2023-02-08T22:00:00,1908A,106.1064,30.7856,南充市,高坪区监测站,细颗粒物(PM2.5),82,53,102,60,92,36,27,25,25,23,33,9,10,0.9,1
2023-02-08T22:00:00,1909A,106.0642,30.7636,南充市,嘉陵区环保局,细颗粒物(PM2.5),64,62,106,46,80,34,29,25,25,18,32,6,8,0.7,0.9
2023-02-08T22:00:00,1910A,106.1087,30.8388,南充市,市环境监测站,细颗粒物(PM2.5),72,59,99,52,84,30,23,21,21,17,26,6,7,0.7,0.9
2023-02-08T22:00:00,1911A,106.9222,27.6869,遵义市,丁字口,,22,16,27,15,23,66,47,64,56,24,19,15,12,1.0,0.9
2023-02-08T22:00:00,1912A,106.9242,27.7019,遵义市,凤凰山,,32,21,27,22,18,65,46,62,56,21,15,4,3,1.0,0.9
2023-02-08T22:00:00,1913A,106.8906,27.6486,遵义市,忠庄,,23,23,33,10,20,61,47,58,54,16,16,2,2,0.8,0.6
2023-02-08T22:00:00,1914A,106.9231,27.6506,遵义市,舟水桥,,28,25,29,19,24,72,37,68,61,25,10,6,7,0.7,0.6
2023-02-08T22:00:00,1915A,106.9178,27.72,遵义市,干田坝,,25,19,28,17,20,68,42,63,52,22,18,7,8,1.1,1
2023-02-08T22:00:00,1916A,103.7897,25.5035,曲靖市,环境监测站,,,48,45,36,25,131,,123,118,12,15,4,6,0.5,0.7
2023-02-08T22:00:00,1917A,103.8,25.5364,曲靖市,烟厂办公区,颗粒物(PM10),51,51,51,32,27,134,88,124,115,20,22,6,6,0.4,0.5
2023-02-08T22:00:00,1918A,108.7197,34.3956,咸阳市,气象站,细颗粒物(PM2.5),166,137,224,126,208,51,36,47,42,30,59,8,14,1.2,1.5
2023-02-08T22:00:00,1919A,108.673,34.3155,咸阳市,实验中学,细颗粒物(PM2.5),202,156,286,152,238,61,43,56,52,30,57,4,8,1.2,1.5
2023-02-08T22:00:00,1920A,108.7233,34.3617,咸阳市,师范学院,细颗粒物(PM2.5),188,144,270,141,219,53,38,47,44,26,50,5,9,1.3,1.7
2023-02-08T22:00:00,1922A,109.0656,35.0994,铜川市,党校,,43,43,141,28,70,120,66,112,63,20,33,12,18,1.3,1.5
2023-02-08T22:00:00,1923A,109.0697,35.0697,铜川市,王益区政府,细颗粒物(PM2.5),73,42,139,53,112,92,52,83,54,23,47,4,10,1.0,1.2
2023-02-08T22:00:00,1924A,108.9344,34.9058,铜川市,新区管委会,细颗粒物(PM2.5),135,88,172,103,146,84,40,72,51,24,40,10,17,1.1,1.3
2023-02-08T22:00:00,1925A,108.9589,34.8731,铜川市,新区兰芝公司,,,,,,,,,,,,,,,,
2023-02-08T22:00:00,1926A,109.4131,36.6275,延安市,枣园,细颗粒物(PM2.5),140,86,109,107,92,117,33,80,72,44,48,5,7,1.3,1
2023-02-08T22:00:00,1927A,109.4761,36.6028,延安市,延大医附院,细颗粒物(PM2.5),132,87,105,100,91,104,27,74,66,54,55,6,9,1.2,1.3
2023-02-08T22:00:00,1928A,109.4824,36.5767,延安市,市监测站,,,,,,,,,,,,,,,,
2023-02-08T22:00:00,1929A,109.5056,36.6106,延安市,百米大道,细颗粒物(PM2.5),138,99,123,105,102,114,38,82,73,55,67,9,13,1.3,1.5
2023-02-08T22:00:00,1930A,107.185,34.3063,宝鸡市,庙沟村,细颗粒物(PM2.5),215,167,218,165,200,71,14,56,27,42,46,4,6,1.9,1.7
2023-02-08T22:00:00,1931A,107.0708,34.3017,宝鸡市,竹园沟,细颗粒物(PM2.5),245,171,201,195,204,54,12,47,25,28,40,4,4,1.9,1.5
2023-02-08T22:00:00,1932A,107.1906,34.3672,宝鸡市,三陆医院,细颗粒物(PM2.5),258,185,256,208,236,78,15,46,22,46,62,10,12,1.6,1.6
2023-02-08T22:00:00,1933A,107.1431,34.3547,宝鸡市,监测站,细颗粒物(PM2.5),252,197,228,202,223,63,10,40,20,52,60,4,6,1.9,1.7
2023-02-08T22:00:00,1934A,107.1186,34.3739,宝鸡市,技工学校,细颗粒物(PM2.5),248,161,220,198,222,77,20,48,26,38,53,5,9,1.6,1.5
2023-02-08T22:00:00,1935A,107.3906,34.3528,宝鸡市,陈仓区环保局家属楼,细颗粒物(PM2.5),287,231,276,237,255,49,14,38,27,51,69,9,13,2.4,2.2
2023-02-08T22:00:00,1936A,107.2058,34.3497,宝鸡市,文理学院,细颗粒物(PM2.5),251,221,255,201,218,58,15,41,22,50,63,7,11,2.0,1.9
2023-02-08T22:00:00,1937A,107.2386,34.3622,宝鸡市,三迪小学,,,,272,,242,60,,45,26,,73,,11,,1.7
2023-02-08T22:00:00,1938A,109.5293,34.5101,渭南市,农科所,细颗粒物(PM2.5),180,161,270,136,198,48,34,44,41,25,46,6,10,0.9,1.6
2023-02-08T22:00:00,1939A,109.4974,34.4877,渭南市,日报社,细颗粒物(PM2.5),195,146,268,146,218,53,36,49,46,48,70,7,12,1.3,1.6
2023-02-08T22:00:00,1940A,109.4636,34.493,渭南市,体育馆,细颗粒物(PM2.5),202,166,265,152,218,59,44,55,51,32,48,5,10,1.0,1.4
2023-02-08T22:00:00,1941A,109.4259,34.5023,渭南市,高新一小,细颗粒物(PM2.5),193,141,257,145,218,58,41,53,49,30,43,8,13,1.1,1.4
2023-02-08T22:00:00,1943A,102.1725,38.5339,金昌市,新川苑,颗粒物(PM10),68,86,53,47,19,90,52,83,78,31,17,21,14,1.0,0.7
2023-02-08T22:00:00,1944A,102.1692,38.5167,金昌市,天庆家园,颗粒物(PM10),64,77,45,34,23,88,64,81,74,19,17,24,12,1.0,0.8
2023-02-08T22:00:00,1945A,98.2908,39.7711,嘉峪关市,气象局,颗粒物(PM10),101,151,404,34,70,91,54,86,79,25,27,5,7,0.3,0.4
2023-02-08T22:00:00,1947A,106.3394,38.817,石嘴山市,沙湖旅游区,细颗粒物(PM2.5),69,78,78,50,34,83,25,64,51,41,40,15,30,1.4,1.4
2023-02-08T22:00:00,1948A,106.3668,39.0145,石嘴山市,大武口朝阳西街,,36,34,60,25,27,71,48,62,56,10,32,7,27,0.5,0.8
2023-02-08T22:00:00,1949A,106.7704,39.2282,石嘴山市,惠农南大街,,,59,73,,25,89,31,66,51,31,40,12,26,1.4,1.2
2023-02-08T22:00:00,1950A,106.7099,39.1325,石嘴山市,红果子镇惠新街,细颗粒物(PM2.5),58,61,59,41,25,92,40,75,67,25,23,88,24,0.8,0.7
2023-02-08T22:00:00,1951A,84.895,45.6094,克拉玛依市,长征新村,,45,28,32,31,22,99,94,95,90,15,15,6,6,0.8,0.7
2023-02-08T22:00:00,1952A,84.8988,45.5893,克拉玛依市,南林小区,,46,34,38,32,29,94,87,93,86,17,17,1,2,0.6,0.5
2023-02-08T22:00:00,1953A,85.1186,45.6886,克拉玛依市,白碱滩区,,,,,,,,,,,,,,,,
2023-02-08T22:00:00,1954A,84.905,44.3396,克拉玛依市,独山子区,颗粒物(PM10),56,61,77,39,53,104,98,98,98,17,16,8,8,0.8,0.8
2023-02-08T22:00:00,1955A,85.6979,46.098,克拉玛依市,乌尔禾区商贸楼,,32,20,29,13,23,117,101,116,102,10,10,2,2,0.5,0.6
2023-02-08T22:00:00,1956A,86.1472,41.7538,巴音郭楞州,孔雀公园,颗粒物(PM10),81,111,65,31,25,104,18,93,84,83,32,8,6,1.1,0.5
2023-02-08T22:00:00,1957A,86.1972,41.7166,巴音郭楞州,棉纺厂,颗粒物(PM10),88,125,84,33,24,101,28,90,81,68,30,5,4,0.9,0.4
2023-02-08T22:00:00,1958A,86.2357,41.7173,巴音郭楞州,经济开发区,颗粒物(PM10),87,123,73,26,22,101,18,93,80,56,20,5,5,0.6,0.4
2023-02-08T22:00:00,1959A,118.746,36.881,寿光市,监测站,,,,,,,,,,,,,,,,
2023-02-08T22:00:00,1960A,118.780,36.864,寿光市,世纪学校,,,,,,,,,,,,,,,,
2023-02-08T22:00:00,1961A,117.532,36.6868,济南市,东山小学,颗粒物(PM10),72,93,189,51,129,88,35,78,67,54,57,6,6,0.7,1.1
2023-02-08T22:00:00,1962A,117.541,36.710,章丘市,明水开发区,,,,,,,,,,,,,,,,
2023-02-08T22:00:00,1963A,120.610,36.440,即墨市,环保局子站,,,,,,,,,,,,,,,,
2023-02-08T22:00:00,1964A,120.470,36.390,即墨市,开发区子站,,,,,,,,,,,,,,,,
2023-02-08T22:00:00,1965A,120.005,35.878,胶南市,JN子站,,,,,,,,,,,,,,,,
2023-02-08T22:00:00,1966A,120.0405,35.8735,青岛市,黄岛区4号,细颗粒物(PM2.5),55,51,106,39,84,90,86,85,85,16,41,6,8,0.7,1.2
2023-02-08T22:00:00,1967A,120.008,36.283,胶州市,胶州环保局,,,,,,,,,,,,,,,,
2023-02-08T22:00:00,1968A,120.014,36.253,胶州市,胶州一中,,,,,,,,,,,,,,,,
2023-02-08T22:00:00,1969A,120.537,36.865,莱西市,环保局子站,,,,,,,,,,,,,,,,
2023-02-08T22:00:00,1970A,120.515,36.885,莱西市,人民广场子站,,,,,,,,,,,,,,,,
2023-02-08T22:00:00,1971A,119.952,36.792,平度市,1号,,,,,,,,,,,,,,,,
2023-02-08T22:00:00,1972A,119.976,36.799,平度市,2号,,,,,,,,,,,,,,,,
2023-02-08T22:00:00,1973A,120.747,37.825,蓬莱市,蓬莱环保局,,,,,,,,,,,,,,,,
2023-02-08T22:00:00,1974A,120.773,37.809,蓬莱市,蓬莱博物馆,,,,,,,,,,,,,,,,
2023-02-08T22:00:00,1975A,120.399,37.374,招远市,招远环保局,,,,,,,,,,,,,,,,
2023-02-08T22:00:00,1976A,120.394,37.364,招远市,招远教育局,,,,,,,,,,,,,,,,
2023-02-08T22:00:00,1977A,119.941,37.177,莱州市,莱州环保局,,,,,,,,,,,,,,,,
2023-02-08T22:00:00,1978A,119.959,37.180,莱州市,莱州外经委,,,,,,,,,,,,,,,,
2023-02-08T22:00:00,1979A,122.471,37.154,荣成市,荣成市环保局办公楼,,,,,,,,,,,,,,,,
2023-02-08T22:00:00,1980A,122.410,37.161,荣成市,山东成山轮胎公司,,,,,,,,,,,,,,,,
2023-02-08T22:00:00,1981A,122.038,37.197,文登市,文登市环保局,,,,,,,,,,,,,,,,
2023-02-08T22:00:00,1982A,122.0693,37.2174,威海市,文登开发区,颗粒物(PM10),56,61,42,39,25,80,37,75,64,15,11,5,6,0.4,0.3
2023-02-08T22:00:00,1983A,121.531,36.913,乳山市,乳山市环保局,,,,,,,,,,,,,,,,
2023-02-08T22:00:00,1984A,121.544,36.907,乳山市,乳山市气象局,,,,,,,,,,,,,,,,
2023-02-08T22:00:00,1985A,120.636,31.155,吴江市,吴江市环保局,,,,,,,,,,,,,,,,
2023-02-08T22:00:00,1986A,120.635,31.170,吴江市,教师进修学校,,,,,,,,,,,,,,,,
2023-02-08T22:00:00,1987A,120.658,31.172,吴江市,吴江开发区,,,,,,,,,,,,,,,,
2023-02-08T22:00:00,1988A,120.953,31.388,昆山市,昆山实验小学,,,,,,,,,,,,,,,,
2023-02-08T22:00:00,1989A,120.999,31.381,昆山市,震川中学,,,,,,,,,,,,,,,,
2023-02-08T22:00:00,1990A,120.758,31.670,常熟市,海虞子站,,,,,,,,,,,,,,,,
2023-02-08T22:00:00,1991A,120.721,31.671,常熟市,兴福子站,,,,,,,,,,,,,,,,
2023-02-08T22:00:00,1992A,120.734,31.656,常熟市,菱塘子站,,,,,,,,,,,,,,,,
2023-02-08T22:00:00,1993A,120.526,31.874,张家港市,张家港市监测站,,,,,,,,,,,,,,,,
2023-02-08T22:00:00,1994A,120.550,31.882,张家港市,城北小学,,,,,,,,,,,,,,,,
2023-02-08T22:00:00,1995A,121.115,31.453,太仓市,太仓市监测站,,,,,,,,,,,,,,,,
2023-02-08T22:00:00,1996A,121.140,31.422,太仓市,科教新城实小,,,,,,,,,,,,,,,,
2023-02-08T22:00:00,1997A,119.146,31.955,句容市,消防指挥中心,,,,,,,,,,,,,,,,
2023-02-08T22:00:00,1998A,119.180,31.955,句容市,房家坝,,,,,,,,,,,,,,,,
2023-02-08T22:00:00,1999A,120.268,31.920,江阴市,虹桥邮政,,,,,,,,,,,,,,,,
2023-02-08T22:00:00,2000A,120.237,31.909,江阴市,五星公园,,,,,,,,,,,,,,,,
2023-02-08T22:00:00,2001A,120.302,31.920,江阴市,第二实验小学,,,,,,,,,,,,,,,,
2023-02-08T22:00:00,2002A,119.818,31.354,宜兴市,宜兴市环保局,,,,,,,,,,,,,,,,
2023-02-08T22:00:00,2003A,119.794,31.371,宜兴市,宜园,,,,,,,,,,,,,,,,
2023-02-08T22:00:00,2004A,119.579,31.751,金坛市,金坛市环境监测站,,,,,,,,,,,,,,,,
2023-02-08T22:00:00,2005A,119.579,31.737,金坛市,金坛市自来水公司,,,,,,,,,,,,,,,,
2023-02-08T22:00:00,2006A,119.460,31.400,溧阳市,溧阳市东门子站,,,,,,,,,,,,,,,,
2023-02-08T22:00:00,2007A,119.438,31.317,溧阳市,燕山子站,,,,,,,,,,,,,,,,
2023-02-08T22:00:00,2008A,121.173,31.896,海门市,海门市监测站,,,,,,,,,,,,,,,,
2023-02-08T22:00:00,2009A,121.1518,31.89708,海门市,社会福利院,,,,,,,,,,,,,,,,
2023-02-08T22:00:00,2010A,119.7183,30.2366,临安市,市政府,,,,,,,,,,,,,,,,
2023-02-08T22:00:00,2011A,119.6942,30.2311,临安市,四中,,,,,,,,,,,,,,,,
2023-02-08T22:00:00,2012A,119.954,30.054,富阳市,监测站,,,,,,,,,,,,,,,,
2023-02-08T22:00:00,2013A,119.946,30.049,富阳市,富春二小,,,,,,,,,,,,,,,,
2023-02-08T22:00:00,2014A,120.091,29.305,义乌市,江东,,,,,,,,,,,,,,,,
2023-02-08T22:00:00,2015A,120.040,29.334,义乌市,北苑,,,,,,,,,,,,,,,,
2023-02-08T22:00:00,2016A,120.251,29.719,诸暨市,图书馆,,,,,,,,,,,,,,,,
2023-02-08T22:00:00,2017A,120.209,29.732,诸暨市,富林印务,,,,,,,,,,,,,,,,
2023-02-08T22:00:00,2018A,121.989,39.625,瓦房店市,抱龙山庄,,,,,,,,,,,,,,,,
2023-02-08T22:00:00,2019A,122.011,39.617,瓦房店市,东山公园,,,,,,,,,,,,,,,,
2023-02-08T22:00:00,2031A,113.1817,27.9958,株洲市,云田中学,细颗粒物(PM2.5),63,39,61,45,67,20,0,14,7,46,40,4,4,1.5,1.3
2023-02-08T22:00:00,2054A,114.1099,32.1059,信阳市,平桥分局,细颗粒物(PM2.5),117,111,77,88,63,100,93,81,81,18,17,9,9,0.6,0.4
2023-02-08T22:00:00,2064A,113.9956,32.1271,信阳市,南湾水厂,细颗粒物(PM2.5),104,104,83,78,56,113,104,89,89,17,16,8,7,0.6,0.7
2023-02-08T22:00:00,2065A,114.0775,32.1195,信阳市,市酿酒公司,细颗粒物(PM2.5),117,89,70,88,63,108,100,86,86,22,19,9,8,0.7,0.7
2023-02-08T22:00:00,2066A,114.0609,32.1399,信阳市,审计局,细颗粒物(PM2.5),99,89,79,74,64,106,96,85,85,20,20,7,7,0.7,0.6
2023-02-08T22:00:00,2067A,114.6613,33.6128,周口市,市环境监测站,细颗粒物(PM2.5),196,227,166,147,143,76,50,61,50,30,39,7,11,0.8,0.7
2023-02-08T22:00:00,2068A,114.6758,33.6347,周口市,周口师范,细颗粒物(PM2.5),238,267,179,188,157,76,42,62,49,38,47,8,12,1.1,0.9
2023-02-08T22:00:00,2069A,114.6546,33.5979,周口市,市运管处,,,,144,,129,44,,38,,,40,,14,,0.6
2023-02-08T22:00:00,2070A,114.6369,33.6406,周口市,川汇区环保局,细颗粒物(PM2.5),247,269,180,197,148,70,28,57,43,45,46,14,15,1.4,1
2023-02-08T22:00:00,2075A,117.6336,24.4674,漳州市,九湖,,,,,,,,,,,,,,,,
2023-02-08T22:00:00,2160A,112.85,35.5051,晋城市,自来水公司,细颗粒物(PM2.5),147,158,225,112,177,92,80,80,80,24,45,7,11,1.1,1.4
2023-02-08T22:00:00,2161A,112.8318,35.4936,晋城市,白云商贸,细颗粒物(PM2.5),128,152,226,97,179,85,81,78,78,27,40,5,8,1.1,1.5
2023-02-08T22:00:00,2162A,112.8508,35.4887,晋城市,市环保局,细颗粒物(PM2.5),140,138,224,107,175,94,84,82,82,24,54,6,10,1.0,1.4
2023-02-08T22:00:00,2163A,112.8676,35.4897,晋城市,技术学院,细颗粒物(PM2.5),149,153,230,114,184,88,86,80,80,23,53,5,9,1.0,1.4
2023-02-08T22:00:00,2164A,112.8271,35.4828,晋城市,泽州一中,,,,,,,,,,,,,,,,
2023-02-08T22:00:00,2165A,112.8453,35.546,晋城市,白马寺 ,,,,,,,,,,,,,,,,
2023-02-08T22:00:00,2166A,112.4397,39.3522,朔州市,平朔,细颗粒物(PM2.5),100,107,87,75,41,65,51,60,57,32,28,12,16,0.8,0.7
2023-02-08T22:00:00,2167A,112.4575,39.3617,朔州市,朔唯,细颗粒物(PM2.5),95,110,104,71,42,73,47,65,59,34,33,14,17,0.6,0.6
2023-02-08T22:00:00,2168A,112.4258,39.3197,朔州市,区政府,细颗粒物(PM2.5),93,107,86,69,36,82,68,74,74,28,24,11,14,0.6,0.5
2023-02-08T22:00:00,2169A,112.4072,39.3278,朔州市,市环保局,细颗粒物(PM2.5),105,118,84,79,41,70,52,64,60,35,27,20,18,0.9,0.8
2023-02-08T22:00:00,2170A,112.4272,39.3681,朔州市,市二中,细颗粒物(PM2.5),97,142,103,72,41,74,46,65,60,32,29,13,16,0.8,0.8
2023-02-08T22:00:00,2171A,112.7532,37.6945,晋中市,锦纶小区,细颗粒物(PM2.5),64,72,148,46,98,105,69,92,76,24,33,10,12,0.5,0.9
2023-02-08T22:00:00,2173A,112.7249,37.7067,晋中市,南都小区,细颗粒物(PM2.5),64,75,153,46,84,88,65,84,72,26,43,10,14,0.5,0.9
2023-02-08T22:00:00,2174A,112.6991,37.6982,晋中市,榆次区政府,颗粒物(PM10),65,79,160,41,80,86,65,82,71,26,43,10,14,0.5,0.9
2023-02-08T22:00:00,2175A,110.9956,35.0147,运城市,运城中学,细颗粒物(PM2.5),128,118,209,97,147,102,76,91,77,17,21,5,7,1.0,1.2
2023-02-08T22:00:00,2176A,111.0233,35.0611,运城市,禹都开发区,,,,,,,,,,,,,,,,
2023-02-08T22:00:00,2178A,110.9686,35.0303,运城市,地区技校,细颗粒物(PM2.5),158,141,219,120,152,104,75,92,77,21,23,5,7,1.0,1.2
2023-02-08T22:00:00,2179A,111.0414,35.1147,运城市,空港新区,细颗粒物(PM2.5),218,173,227,168,178,90,68,84,70,17,24,5,8,1.1,1.5
2023-02-08T22:00:00,2181A,112.7383,38.4519,忻州市,开发区,,,,127,,85,16,,20,,,55,,12,,1.3
2023-02-08T22:00:00,2182A,112.7003,38.4928,忻州市,会展中心,细颗粒物(PM2.5),64,69,113,46,75,89,58,75,70,30,45,6,11,0.7,1
2023-02-08T22:00:00,2183A,111.1406,37.5211,吕梁市,环保局,细颗粒物(PM2.5),170,203,152,129,59,102,38,80,77,74,66,10,16,1.5,1
2023-02-08T22:00:00,2185A,111.1297,37.5136,吕梁市,自来水公司,细颗粒物(PM2.5),156,188,156,119,60,102,49,82,80,54,62,13,18,1.8,1.1
2023-02-08T22:00:00,2186A,106.8288,39.6778,乌海市,聚英学校,,,,,,,,,,,,,,,,
2023-02-08T22:00:00,2187A,106.8174,39.6973,乌海市,市林业局,颗粒物(PM10),60,70,68,28,28,88,49,86,50,12,20,10,15,0.7,0.8
2023-02-08T22:00:00,2188A,106.7907,39.6667,乌海市,中海勃湾学校,,43,42,63,30,25,70,51,54,54,12,18,11,16,0.5,0.5
2023-02-08T22:00:00,2191A,122.2532,43.6801,通辽市,艺术职业学校,颗粒物(PM10),65,79,45,21,13,85,55,78,67,28,17,12,7,0.7,0.5
2023-02-08T22:00:00,2192A,119.7594,49.2261,呼伦贝尔市,区环保局,细颗粒物(PM2.5),94,75,56,70,43,71,5,61,28,56,44,6,6,0.9,0.7
2023-02-08T22:00:00,2194A,107.5936,40.916,巴彦淖尔市,秋林养殖基地,,,,,,,,,,,,,,,,
2023-02-08T22:00:00,2195A,107.4212,40.761,巴彦淖尔市,附二中,,,,50,,21,62,58,59,59,19,15,6,9,0.6,0.7
2023-02-08T22:00:00,2196A,107.37,40.7372,巴彦淖尔市,市环保大楼,,,,35,,18,58,,60,,,16,,14,,0.6
2023-02-08T22:00:00,2197A,113.1306,40.9923,乌兰察布市,集宁新区,,32,26,24,22,16,72,41,69,56,33,18,11,11,0.4,0.4
2023-02-08T22:00:00,2200A,122.0392,46.0656,兴安盟,胜华新制药厂,,32,32,22,18,17,79,54,75,71,22,15,5,5,0.6,0.5
2023-02-08T22:00:00,2201A,121.9504,46.0741,兴安盟,科右前旗环保局,,39,22,22,27,17,80,76,77,76,10,12,3,2,0.2,0.4
2023-02-08T22:00:00,2202A,116.1042,43.9317,锡林郭勒盟,市环保监测站,,20,9,9,8,6,80,64,78,67,10,6,8,7,0.2,0.3
2023-02-08T22:00:00,2203A,116.0781,43.9311,锡林郭勒盟,市政府,,15,14,11,10,5,74,48,69,59,25,9,8,8,0.2,0.2
2023-02-08T22:00:00,2204A,105.6467,38.8363,阿拉善盟,西城区西花园,颗粒物(PM10),66,82,77,27,26,109,58,87,55,16,16,9,10,0.7,0.7
2023-02-08T22:00:00,2205A,105.6985,38.8411,阿拉善盟,蒙二幼,颗粒物(PM10),76,101,71,43,35,104,62,90,57,15,17,10,12,0.6,0.6
2023-02-08T22:00:00,2206A,105.724,38.8516,阿拉善盟,环保局新楼,颗粒物(PM10),71,91,64,44,34,108,61,94,58,15,16,7,9,0.5,0.7
2023-02-08T22:00:00,2207A,121.6094,41.998,阜新市,工业园区,,,,102,,66,71,19,65,37,51,33,34,17,3.0,1.3
2023-02-08T22:00:00,2208A,121.6697,42.0279,阜新市,长青街,细颗粒物(PM2.5),102,118,62,76,32,87,7,80,52,62,28,20,11,1.7,1
2023-02-08T22:00:00,2209A,121.6673,42.0705,阜新市,农业园区,细颗粒物(PM2.5),85,44,30,63,19,76,38,72,66,37,11,27,10,0.8,0.5
2023-02-08T22:00:00,2210A,121.6717,42.0224,阜新市,东苑,细颗粒物(PM2.5),142,143,77,108,44,82,6,74,45,60,27,32,16,1.7,0.8
2023-02-08T22:00:00,2211A,121.6506,42.0498,阜新市,玉龙新城,细颗粒物(PM2.5),82,110,67,60,31,83,9,77,43,46,27,22,13,1.3,0.8
2023-02-08T22:00:00,2212A,123.2,41.1953,辽阳市,宏伟区,细颗粒物(PM2.5),65,58,71,47,59,77,26,64,48,48,40,14,22,1.0,1
2023-02-08T22:00:00,2213A,123.1683,41.2495,辽阳市,新华园,细颗粒物(PM2.5),225,201,95,175,81,82,15,72,50,77,46,25,26,2.9,1.4
2023-02-08T22:00:00,2214A,123.2354,41.2639,辽阳市,滨河路,细颗粒物(PM2.5),102,65,74,76,63,76,25,67,55,44,37,8,11,0.8,1.2
2023-02-08T22:00:00,2215A,123.149,41.2991,辽阳市,铁西工业园,细颗粒物(PM2.5),235,160,113,185,92,72,7,58,32,74,49,18,14,2.0,1.3
2023-02-08T22:00:00,2216A,123.8139,42.3022,铁岭市,汇工街西,细颗粒物(PM2.5),72,73,88,52,59,82,5,68,40,76,44,33,20,1.1,1
2023-02-08T22:00:00,2217A,123.8649,42.2923,铁岭市,水上乐园,细颗粒物(PM2.5),82,70,70,60,46,82,48,70,59,34,28,19,11,0.5,0.5
2023-02-08T22:00:00,2218A,123.8486,42.2867,铁岭市,银州路东段,颗粒物(PM10),57,63,84,33,43,79,28,65,53,50,35,10,9,0.6,0.6
2023-02-08T22:00:00,2219A,123.7153,42.2217,铁岭市,金沙江路北,颗粒物(PM10),59,68,81,29,47,74,20,63,41,63,47,14,15,0.5,0.6
2023-02-08T22:00:00,2220A,120.4318,41.5881,朝阳市,西梁,细颗粒物(PM2.5),94,120,72,70,42,86,8,68,38,63,43,32,21,1.8,1.4
2023-02-08T22:00:00,2221A,120.4521,41.5646,朝阳市,河畔小区,细颗粒物(PM2.5),95,93,52,71,35,90,13,79,56,57,30,14,13,1.6,1
2023-02-08T22:00:00,2222A,120.4176,41.5648,朝阳市,八里堡,细颗粒物(PM2.5),117,130,72,88,48,90,7,74,42,68,42,30,17,2.0,1.2
2023-02-08T22:00:00,2223A,120.3806,41.5969,朝阳市,农业园区,颗粒物(PM10),53,55,55,29,33,87,20,78,53,50,36,10,12,0.8,0.9
2023-02-08T22:00:00,2225A,124.4002,43.1713,四平市,一商场,颗粒物(PM10),75,100,68,52,36,75,16,68,45,64,37,10,8,0.9,0.5
2023-02-08T22:00:00,2226A,124.388,43.193,四平市,境园,颗粒物(PM10),79,108,65,41,30,81,16,72,45,48,36,5,4,1.3,0.5
2023-02-08T22:00:00,2227A,125.1358,42.8845,辽源市,环保局,细颗粒物(PM2.5),89,79,51,66,41,79,13,73,50,62,33,12,10,1.4,0.8
2023-02-08T22:00:00,2229A,125.9358,41.7173,通化市,光明,"颗粒物(PM10),细颗粒物(PM2.5)",54,58,38,38,23,81,34,72,57,35,28,14,15,0.5,0.3
2023-02-08T22:00:00,2230A,125.9446,41.7325,通化市,铁路,,34,34,42,14,26,89,43,76,66,26,26,17,21,0.4,0.3
2023-02-08T22:00:00,2231A,126.4219,41.9171,白山市,喜丰,,48,48,49,30,25,82,37,70,58,35,24,16,14,0.6,0.5
2023-02-08T22:00:00,2232A,126.4077,41.9419,白山市,环保局,颗粒物(PM10),57,63,61,34,30,75,34,65,50,31,26,12,14,1.1,1.1
2023-02-08T22:00:00,2233A,124.8006,45.1214,松原市,江南,颗粒物(PM10),84,118,40,49,26,68,5,59,32,60,26,23,11,1.3,0.7
2023-02-08T22:00:00,2234A,124.7965,45.1722,松原市,江北,,40,40,26,19,16,70,6,66,46,57,16,4,5,0.6,0.5
2023-02-08T22:00:00,2235A,122.7911,45.6077,白城市,洮北区环保局,细颗粒物(PM2.5),80,62,34,59,23,94,75,83,73,12,11,7,7,0.5,0.4
2023-02-08T22:00:00,2236A,122.8738,45.5725,白城市,市环保局,颗粒物(PM10),57,63,39,27,11,88,27,81,51,51,24,9,6,0.7,0.5
2023-02-08T22:00:00,2237A,129.47,42.8883,延边朝鲜族自治州,妇幼医院,,37,37,41,20,22,78,49,70,62,30,24,40,17,0.4,0.6
2023-02-08T22:00:00,2238A,129.5055,42.9108,延边朝鲜族自治州,延边医院,,,,33,,21,57,,50,,,24,,18,,0.7
2023-02-08T22:00:00,2239A,129.3964,42.8881,延边朝鲜族自治州,朝阳川镇医院,,22,19,27,13,15,82,70,80,75,8,10,7,7,0.5,0.6
2023-02-08T22:00:00,2240A,130.9762,45.3001,鸡西市,环保局,细颗粒物(PM2.5),72,69,66,52,49,73,34,67,57,49,29,21,10,0.3,0.6
2023-02-08T22:00:00,2243A,130.9429,45.3039,鸡西市,第一中学,细颗粒物(PM2.5),74,62,52,54,39,75,51,67,58,23,18,22,9,0.9,0.8
2023-02-08T22:00:00,2244A,130.2537,47.3416,鹤岗市,哈啤分公司,细颗粒物(PM2.5),72,66,54,52,36,77,51,74,48,25,20,12,13,0.5,0.4
2023-02-08T22:00:00,2245A,130.2684,47.3086,鹤岗市,斯达机电,细颗粒物(PM2.5),84,102,64,62,40,79,34,75,50,42,24,12,11,0.7,0.4
2023-02-08T22:00:00,2246A,130.3114,47.3388,鹤岗市,东山纸板厂,颗粒物(PM10),133,215,96,72,47,74,15,72,35,,19,16,16,1.1,0.7
2023-02-08T22:00:00,2247A,130.1097,47.3382,鹤岗市,五号水库,细颗粒物(PM2.5),52,52,40,36,31,80,38,80,52,16,9,5,6,0.4,0.4
2023-02-08T22:00:00,2248A,131.1511,46.6937,双鸭山市,双合村,细颗粒物(PM2.5),99,117,80,74,54,68,15,63,37,48,24,17,15,1.7,1.1
2023-02-08T22:00:00,2249A,131.1652,46.6191,双鸭山市,南小市,细颗粒物(PM2.5),64,51,69,46,42,70,60,63,52,20,23,11,17,0.9,0.8
2023-02-08T22:00:00,2250A,131.1524,46.6554,双鸭山市,环保局,细颗粒物(PM2.5),84,84,70,62,48,75,26,72,37,51,35,12,10,1.2,0.9
2023-02-08T22:00:00,2251A,131.12,46.5656,双鸭山市,苗圃,细颗粒物(PM2.5),62,57,50,44,42,79,79,70,64,12,17,5,9,0.2,0.3
2023-02-08T22:00:00,2252A,128.5159,47.4311,伊春市,环保局,,38,30,41,26,38,71,64,64,54,14,22,5,6,0.6,0.7
2023-02-08T22:00:00,2253A,128.9102,47.7412,伊春市,电力嘉园,,30,30,46,20,31,71,71,63,59,4,14,7,7,0.4,0.6
2023-02-08T22:00:00,2254A,129.5029,48.471,伊春市,汤旺河国家公园,,21,21,23,10,17,165,47,70,64,2,3,6,6,0.2,0.2
2023-02-08T22:00:00,2255A,130.2751,46.8028,佳木斯市,佳纺,细颗粒物(PM2.5),98,84,69,73,60,79,22,66,42,48,28,8,10,0.8,0.8
2023-02-08T22:00:00,2256A,130.3995,46.8307,佳木斯市,发电厂,细颗粒物(PM2.5),92,88,61,68,50,73,20,66,41,55,33,6,7,0.8,0.6
2023-02-08T22:00:00,2257A,130.3258,46.7975,佳木斯市,环保局,细颗粒物(PM2.5),77,59,55,56,49,73,46,55,43,28,30,9,10,0.5,0.6
2023-02-08T22:00:00,2258A,130.3648,46.8032,佳木斯市,十一中,细颗粒物(PM2.5),82,72,52,60,44,65,39,54,32,38,38,5,8,0.7,0.6
2023-02-08T22:00:00,2259A,130.3794,46.7588,佳木斯市,四丰,细颗粒物(PM2.5),57,48,39,40,33,136,116,132,127,11,10,1,1,0.6,0.6
2023-02-08T22:00:00,2262A,131.0518,45.8751,七台河市,新一中,细颗粒物(PM2.5),63,52,51,45,44,96,77,90,86,18,16,8,8,0.9,1
2023-02-08T22:00:00,2263A,127.4833,50.2524,黑河市,交通局,,35,34,24,24,20,53,39,45,33,18,16,8,9,0.4,0.7
2023-02-08T22:00:00,2264A,127.5144,50.2341,黑河市,环保局,颗粒物(PM10),79,108,72,43,42,45,14,42,25,43,29,11,16,1.0,0.7
2023-02-08T22:00:00,2265A,127.5291,50.2472,黑河市,大黑河岛,,19,19,23,12,21,45,43,39,33,3,5,3,2,0.4,0.4
2023-02-08T22:00:00,2266A,126.9785,46.6365,绥化市,人和东街,细颗粒物(PM2.5),72,66,117,52,91,102,70,86,84,21,35,3,6,0.7,1
2023-02-08T22:00:00,2267A,126.964,46.6528,绥化市,党政办公中心,,,65,130,55,109,115,78,94,91,15,39,5,7,,0.9
2023-02-08T22:00:00,2269A,124.1069,50.4097,大兴安岭地区,科技局,,,42,27,,18,69,45,62,56,13,8,8,7,0.4,0.2
2023-02-08T22:00:00,2270A,117.396,32.939,蚌埠市,工人疗养院,,49,49,93,28,69,106,67,93,81,6,14,2,2,0.3,0.5
2023-02-08T22:00:00,2271A,117.3605,32.9427,蚌埠市,百货大楼,颗粒物(PM10),68,86,109,22,78,98,61,85,73,17,29,8,8,0.4,0.6
2023-02-08T22:00:00,2273A,117.4185,32.8911,蚌埠市,蚌埠学院,,34,34,97,22,73,93,38,81,61,42,50,10,12,0.4,0.6
2023-02-08T22:00:00,2274A,117.3533,32.9673,蚌埠市,淮上区政府,,46,46,104,27,70,96,66,89,79,13,26,7,7,0.4,0.6
2023-02-08T22:00:00,2275A,117.3145,32.8977,蚌埠市,高新区,,39,39,90,27,70,100,67,89,80,17,35,14,13,0.4,0.6
2023-02-08T22:00:00,2277A,116.8305,32.7727,淮南市,潘集区政府,细颗粒物(PM2.5),132,117,104,100,85,96,50,82,71,18,28,4,5,0.5,0.5
2023-02-08T22:00:00,2278A,117.0067,32.6524,淮南市,师范学院,细颗粒物(PM2.5),115,93,104,87,79,84,49,72,65,21,20,8,8,0.7,0.6
2023-02-08T22:00:00,2279A,116.8569,32.5951,淮南市,谢家集区政府,细颗粒物(PM2.5),123,130,90,93,69,97,54,77,68,17,22,6,7,0.5,0.4
2023-02-08T22:00:00,2280A,116.8281,32.633,淮南市,八公山区政府,细颗粒物(PM2.5),119,117,88,90,78,89,56,79,72,16,16,8,9,0.6,0.6
2023-02-08T22:00:00,2281A,116.6325,32.6201,淮南市,焦岗湖风景区管理处,细颗粒物(PM2.5),134,128,92,102,69,80,31,64,55,33,26,5,4,0.5,0.2
2023-02-08T22:00:00,2282A,116.8004,33.975,淮北市,监测站,细颗粒物(PM2.5),205,201,139,155,103,74,62,62,59,25,30,7,7,1.0,0.9
2023-02-08T22:00:00,2283A,116.8091,33.9007,淮北市,烈山区政府,细颗粒物(PM2.5),216,182,118,166,105,76,62,68,63,27,32,4,4,0.9,0.7
2023-02-08T22:00:00,2284A,116.7856,33.9477,淮北市,职业技术学院,细颗粒物(PM2.5),213,205,132,163,104,79,65,68,64,28,29,8,8,1.0,0.8
2023-02-08T22:00:00,2285A,117.8177,30.9412,铜陵市,市第四中学,细颗粒物(PM2.5),98,84,72,73,57,89,70,79,78,28,27,7,7,0.8,0.8
2023-02-08T22:00:00,2286A,117.8059,30.9273,铜陵市,市公路局,细颗粒物(PM2.5),89,105,74,66,61,92,71,79,78,23,23,3,4,0.8,0.8
2023-02-08T22:00:00,2287A,117.7807,30.9413,铜陵市,市新民污水厂,细颗粒物(PM2.5),89,85,69,66,50,97,75,88,86,25,26,5,4,0.7,0.6
2023-02-08T22:00:00,2288A,117.7439,30.8792,铜陵市,市第九中学,细颗粒物(PM2.5),84,79,82,62,54,91,82,83,83,19,20,8,7,0.9,1.1
2023-02-08T22:00:00,2289A,117.846,30.9413,铜陵市,车站新区,细颗粒物(PM2.5),95,92,74,71,55,95,75,86,84,20,19,7,6,0.7,0.6
2023-02-08T22:00:00,2290A,117.8483,30.97,铜陵市,市职教基地,细颗粒物(PM2.5),82,85,68,60,44,93,75,86,84,22,22,8,8,0.5,0.4
2023-02-08T22:00:00,2291A,117.0809,30.5177,安庆市,环科院,细颗粒物(PM2.5),115,99,79,87,68,88,70,78,78,22,23,6,7,0.9,0.8
2023-02-08T22:00:00,2292A,117.0331,30.5119,安庆市,马山宾馆,细颗粒物(PM2.5),108,100,80,81,60,80,68,70,70,22,24,7,7,0.9,0.9
2023-02-08T22:00:00,2294A,116.9896,30.6145,安庆市,安庆大学,细颗粒物(PM2.5),142,103,84,108,81,90,73,78,78,23,26,7,7,1.0,1
2023-02-08T22:00:00,2295A,118.2903,29.6963,黄山市,延安路89号,,24,17,26,6,14,78,75,73,73,11,13,4,5,0.4,0.5
2023-02-08T22:00:00,2296A,118.327,29.7178,黄山市,黄山东路89号,,23,11,22,11,18,73,73,69,69,13,13,6,6,0.5,0.5
2023-02-08T22:00:00,2297A,118.1371,30.2756,黄山市,黄山区政府5号楼,,50,32,32,35,30,69,57,61,61,15,17,6,6,0.4,0.5
2023-02-08T22:00:00,2298A,118.3093,32.3153,滁州市,老年大学,,42,38,89,29,77,96,59,84,75,20,23,5,5,0.3,0.5
2023-02-08T22:00:00,2299A,118.3244,32.2786,滁州市,人大宾馆,,40,39,96,28,76,91,61,78,72,20,27,4,4,0.3,0.6
2023-02-08T22:00:00,2301A,115.8277,32.8929,阜阳市,市监测站,细颗粒物(PM2.5),128,109,94,97,77,112,70,97,88,15,21,3,4,0.7,0.5
2023-02-08T22:00:00,2303A,115.8554,32.8605,阜阳市,开发区,细颗粒物(PM2.5),138,132,115,105,77,109,67,96,88,15,22,5,6,0.5,0.4
2023-02-08T22:00:00,2306A,116.989,33.6306,宿州市,火车站,,,,,,,,,,,,,,,,
2023-02-08T22:00:00,2307A,116.5079,31.737,六安市,监测大楼,细颗粒物(PM2.5),120,111,80,91,65,78,52,69,67,28,24,5,5,0.6,0.7
2023-02-08T22:00:00,2308A,116.4738,31.7643,六安市,皖西学院,细颗粒物(PM2.5),113,115,89,85,58,80,52,72,69,32,27,5,5,0.6,0.5
2023-02-08T22:00:00,2309A,116.4996,31.7905,六安市,朝阳厂,细颗粒物(PM2.5),114,105,77,86,64,80,49,71,68,32,23,5,5,0.7,0.6
2023-02-08T22:00:00,2310A,116.5567,31.7886,六安市,开发区,细颗粒物(PM2.5),124,131,91,94,61,75,50,68,65,28,20,6,6,0.7,0.6
2023-02-08T22:00:00,2311A,115.8072,33.8399,亳州市,污水处理厂,细颗粒物(PM2.5),213,188,123,163,101,97,38,78,66,24,23,5,7,1.3,0.8
2023-02-08T22:00:00,2312A,115.7789,33.8518,亳州市,三国揽胜宫,细颗粒物(PM2.5),188,209,143,141,90,99,39,76,66,27,26,4,5,1.4,0.8
2023-02-08T22:00:00,2314A,117.47,30.6618,池州市,池州学院,细颗粒物(PM2.5),112,103,80,84,54,84,69,74,74,15,25,5,8,0.7,0.7
2023-02-08T22:00:00,2315A,117.4974,30.6539,池州市,平天湖,,,,,,,,,,,,,,,,
2023-02-08T22:00:00,2316A,118.7581,30.9454,宣城市,鳌峰子站,细颗粒物(PM2.5),114,105,83,86,71,82,49,75,66,36,24,7,7,0.7,0.7
2023-02-08T22:00:00,2317A,118.7385,30.9743,宣城市,敬亭山子站,细颗粒物(PM2.5),104,104,88,78,72,80,56,74,68,28,30,7,6,0.6,0.6
2023-02-08T22:00:00,2318A,118.7173,30.9427,宣城市,开发区子站,细颗粒物(PM2.5),118,107,85,89,73,79,56,72,67,35,29,5,5,0.8,0.7
2023-02-08T22:00:00,2319A,119.0141,25.4325,莆田市,荔城区仓后路,,24,12,16,8,7,78,74,75,74,12,13,7,7,0.6,0.6
2023-02-08T22:00:00,2320A,119.0015,25.4553,莆田市,莆田市监测站,,24,7,11,8,7,81,75,78,77,10,10,6,6,0.6,0.6
2023-02-08T22:00:00,2321A,119.1119,25.4561,莆田市,涵江区六中,,36,22,17,25,12,86,73,82,77,10,14,6,6,0.5,0.4
2023-02-08T22:00:00,2322A,119.1013,25.3215,莆田市,秀屿区政府,,25,16,14,16,13,86,80,84,82,14,13,4,4,0.6,0.5
2023-02-08T22:00:00,2323A,118.981,25.4792,莆田市,东圳水库,,,,,,,,,,,,,,,,
2023-02-08T22:00:00,2324A,117.6211,26.2625,三明市,三钢,,20,7,14,14,15,49,37,40,38,14,14,6,7,0.4,0.4
2023-02-08T22:00:00,2325A,117.635,26.2714,三明市,三明二中,,15,9,13,10,11,47,38,40,39,16,16,4,4,0.5,0.6
2023-02-08T22:00:00,2326A,117.6028,26.2378,三明市,三元区政府,,18,16,14,12,13,48,37,39,37,14,14,4,5,0.8,0.8
2023-02-08T22:00:00,2327A,117.7275,26.3108,三明市,洋溪,,,,,,,,,,,,,,,,
2023-02-08T22:00:00,2331A,118.0966,26.6761,南平市,茫荡山,,,,,,,,,,,,,,,,
2023-02-08T22:00:00,2332A,118.1681,26.6369,南平市,南平市监测站,,17,7,11,6,9,60,53,54,48,9,12,3,3,0.5,0.6
2023-02-08T22:00:00,2333A,118.1825,26.6489,南平市,南平铝业有限公司,,13,10,11,8,10,64,39,50,41,14,12,6,5,0.6,0.7
