timepoint,stationcode,longitude,latitude,area,positionname,primarypollutant,aqi,pm10,pm10_24h,pm2_5,pm2_5_24h,o3,o3_24h,o3_8h,o3_8h_24h,no2,no2_24h,so2,so2_24h,co,co_24h
2026-01-08T1900,2568A,102.2503,31.8896,阿坝藏族羌族自治州,马师校,,43,43,19,28,15,39,,65,64,28,15,5,4,0.7,0.5
2026-01-08T1900,3994A,102.2174,31.9016,阿坝藏族羌族自治州,马尔康中学西区,,,,10,,10,32,,66,63,43,11,6,6,,0.5
2026-01-08T1900,2695A,80.2899,41.1684,阿克苏地区,电视台,细颗粒物(PM2.5),93,97,103,69,68,53,,48,48,38,44,5,5,0.8,1.4
2026-01-08T1900,2696A,80.2592,41.1541,阿克苏地区,艺术中心,细颗粒物(PM2.5),72,71,86,52,63,60,,48,48,20,34,5,4,0.6,1
2026-01-08T1900,2205A,105.699,38.8409,阿拉善盟,蒙二幼,颗粒物(PM10),73,95,33,21,11,72,,86,84,16,10,10,10,0.7,0.6
2026-01-08T1900,2206A,105.7198,38.8508,阿拉善盟,环保局新楼,颗粒物(PM10),70,89,26,23,9,79,,84,82,9,6,9,9,0.6,0.6
2026-01-08T1900,2708A,88.1266,47.8515,阿勒泰地区,市站,颗粒物(PM10),52,53,26,30,16,51,,56,56,30,29,2,4,0.6,0.4
2026-01-08T1900,4166A,88.1198,47.7931,阿勒泰地区,阿勒泰路33号,细颗粒物(PM2.5),58,52,27,41,16,60,,66,62,23,15,2,2,0.7,0.5
2026-01-08T1900,2630A,80.1171,32.4999,阿里地区,阿里监测站,,20,6,3,3,3,64,,64,64,1,8,5,10,0.4,0.5
2026-01-08T1900,3192A,80.0906,32.5029,阿里地区,阿里藏医院,,26,6,11,3,7,83,,75,75,2,6,8,12,0.5,0.6
2026-01-08T1900,2644A,109.0088,32.6974,安康市,汉滨区检察院,细颗粒物(PM2.5),73,82,47,53,33,14,,58,57,63,23,6,5,1.1,0.6
2026-01-08T1900,4054A,109.0324,32.6913,安康市,市邮政管理局,细颗粒物(PM2.5),75,75,54,55,39,4,,53,51,73,28,7,7,2.5,0.8
2026-01-08T1900,2291A,117.0806,30.5181,安庆市,环科院,颗粒物(PM10),58,65,67,35,44,56,,85,85,45,53,6,8,0.6,0.7
2026-01-08T1900,2292A,117.0331,30.5118,安庆市,马山宾馆,颗粒物(PM10),61,71,68,35,46,67,,84,84,40,52,6,8,0.5,0.8
2026-01-08T1900,2294A,116.9897,30.6146,安庆市,安庆大学,细颗粒物(PM2.5),64,72,61,46,43,39,,84,84,68,33,5,5,0.6,0.8
2026-01-08T1900,3173A,117.0598,30.5351,安庆市,市人大,细颗粒物(PM2.5),63,67,72,45,48,37,,82,82,71,52,8,9,0.6,0.8
2026-01-08T1900,3123A,105.9408,26.2431,安顺市,凤凰山,,48,42,41,33,33,95,,102,102,20,15,23,16,0.5,0.4
2026-01-08T1900,3124A,105.9443,26.2567,安顺市,金钟山,,45,40,41,31,32,95,,102,102,17,13,23,18,0.7,0.7
2026-01-08T1900,3125A,105.8983,26.248,安顺市,娄家坡,,49,44,45,34,39,97,,102,102,14,14,12,16,0.6,0.6
2026-01-08T1900,1819A,114.3552,36.1017,安阳市,红庙街,颗粒物(PM10),61,72,75,28,40,57,,63,63,23,32,3,4,0.4,0.7
2026-01-08T1900,1820A,114.361,36.0681,安阳市,银杏小区,颗粒物(PM10),56,61,77,32,48,59,,65,65,24,34,4,6,0.3,0.7
2026-01-08T1900,3141A,114.3921,36.0879,安阳市,信访局,颗粒物(PM10),57,64,76,34,41,60,,66,66,20,31,5,7,0.5,0.8
2026-01-08T1900,3669A,114.4706,36.0634,安阳市,左辅环卫站,颗粒物(PM10),62,73,89,38,54,55,,70,68,18,31,4,7,0.4,0.7
2026-01-08T1900,4117A,114.2918,36.0769,安阳市,钢三路198号,颗粒物(PM10),60,69,90,36,46,51,,59,59,25,36,3,5,0.5,0.8
2026-01-08T1900,1748A,123.0441,41.1201,鞍山市,深沟寺,,38,38,41,20,18,66,,62,62,12,19,7,12,0.6,0.9
2026-01-08T1900,1749A,123.011,41.0931,鞍山市,太阳城,,42,42,43,17,16,68,,63,63,12,20,10,18,0.6,1
2026-01-08T1900,1750A,123.0483,41.1445,鞍山市,太平,颗粒物(PM10),56,62,55,29,19,54,,58,58,22,25,9,15,0.6,0.9
2026-01-08T1900,1751A,122.964,41.0968,鞍山市,铁西三道街,颗粒物(PM10),63,76,65,29,22,56,,56,56,26,31,41,22,0.8,1.3
2026-01-08T1900,1753A,123.0219,41.0822,鞍山市,明达新区,,39,39,42,20,17,67,,64,64,12,16,13,15,0.4,0.8
2026-01-08T1900,4201A,122.944647,41.082639,鞍山市,兴盛南路290号,颗粒物(PM10),56,62,69,20,29,57,,58,58,31,38,18,16,1.0,1.2
2026-01-08T1900,2195A,107.4206,40.7609,巴彦淖尔市,附二中,颗粒物(PM10),98,145,100,33,27,58,,65,65,13,9,3,3,0.4,0.4
2026-01-08T1900,2196A,107.37,40.7372,巴彦淖尔市,市环保大楼,颗粒物(PM10),95,140,102,25,22,61,,74,73,13,10,4,4,0.4,0.4
2026-01-08T1900,1956A,86.1476,41.7529,巴音郭楞蒙古自治州,孔雀公园,颗粒物(PM10),96,142,69,37,30,56,,47,47,14,22,7,7,0.6,0.6
2026-01-08T1900,1957A,86.1971,41.7166,巴音郭楞蒙古自治州,棉纺厂,颗粒物(PM10),353,462,88,28,17,,,51,51,12,13,/,/,/,/
2026-01-08T1900,1958A,86.236,41.7172,巴音郭楞蒙古自治州,经济开发区,颗粒物(PM10),314,431,80,34,17,54,,46,46,14,16,5,5,0.5,0.4
2026-01-08T1900,3181A,106.776805,31.852614,巴中市,市五中,细颗粒物(PM2.5),75,74,76,55,57,67,,66,66,28,27,6,6,0.9,1
2026-01-08T1900,3183A,106.7419,31.8654,巴中市,圣泉水务公司,细颗粒物(PM2.5),87,83,68,64,52,22,,69,69,71,34,5,4,0.9,0.6
2026-01-08T1900,3616A,106.7617,31.8343,巴中市,市中心医院,细颗粒物(PM2.5),72,70,81,52,62,43,,68,68,51,32,7,7,1.0,0.9
2026-01-08T1900,2235A,122.7909,45.608,白城市,洮北区环保局,颗粒物(PM10),65,79,44,17,28,47,,53,53,13,17,7,5,0.2,0.3
2026-01-08T1900,2236A,122.8741,45.5725,白城市,市环保局,颗粒物(PM10),81,112,53,24,27,42,,51,50,15,24,5,6,0.2,0.3
2026-01-08T1900,2231A,126.4219,41.9172,白山市,喜丰,颗粒物(PM10),62,73,46,21,21,14,,53,50,55,24,14,12,0.9,0.6
2026-01-08T1900,2232A,126.4082,41.9416,白山市,环保局,细颗粒物(PM2.5),74,59,35,54,26,12,,49,42,42,23,13,10,1.2,0.9
2026-01-08T1900,2647A,104.1727,36.5448,白银市,第三小学,,21,14,58,13,38,66,,67,67,22,37,5,44,0.5,1.2
2026-01-08T1900,2648A,104.1467,36.5482,白银市,动力公司,,25,20,49,8,31,79,,77,77,12,30,3,19,0.4,0.9
2026-01-08T1900,2512A,106.6102,23.901,百色市,市监测站,"颗粒物(PM10),细颗粒物(PM2.5)",52,53,52,36,40,56,,71,71,19,20,8,8,0.7,0.7
2026-01-08T1900,2513A,106.6524,23.8842,百色市,市中心血站,细颗粒物(PM2.5),69,61,72,50,53,36,,74,74,50,36,10,9,0.9,0.9
2026-01-08T1900,4133A,106.6273,23.8798,百色市,龙景西路,细颗粒物(PM2.5),62,62,67,44,45,43,,80,80,39,24,8,7,0.9,0.7
2026-01-08T1900,2270A,117.396,32.9389,蚌埠市,工人疗养院,颗粒物(PM10),68,86,100,47,58,53,,67,67,43,40,7,8,0.6,0.6
2026-01-08T1900,2271A,117.3606,32.9428,蚌埠市,百货大楼,细颗粒物(PM2.5),64,75,89,46,58,43,,68,68,44,41,8,9,0.7,0.6
2026-01-08T1900,2273A,117.4183,32.8909,蚌埠市,蚌埠学院,细颗粒物(PM2.5),70,88,96,51,59,60,,65,65,42,45,7,8,0.4,0.5
2026-01-08T1900,2274A,117.3534,32.9672,蚌埠市,淮上区政府,颗粒物(PM10),67,83,100,46,63,45,,70,67,54,47,4,5,0.7,0.6
2026-01-08T1900,2275A,117.3143,32.8977,蚌埠市,高新区,"颗粒物(PM10),细颗粒物(PM2.5)",68,85,102,49,66,3,,59,55,87,47,8,11,0.7,0.5
2026-01-08T1900,3715A,117.3091,32.9314,蚌埠市,蚌埠田家炳中学,细颗粒物(PM2.5),84,110,107,62,67,19,,64,61,84,46,9,9,0.7,0.6
2026-01-08T1900,1585A,109.8761,40.6533,包头市,市环境监测站,颗粒物(PM10),138,226,83,30,29,39,,51,51,46,46,18,11,2.5,1.1
2026-01-08T1900,1587A,109.9992,40.5843,包头市,包头八中,颗粒物(PM10),81,112,81,45,46,23,,51,48,62,47,6,7,0.7,0.8
2026-01-08T1900,1589A,109.8641,40.6288,包头市,惠龙物流,颗粒物(PM10),121,191,77,33,34,47,,52,52,38,45,15,14,0.7,0.9
2026-01-08T1900,1590A,110.0376,40.5546,包头市,东河鸿龙湾,颗粒物(PM10),61,72,69,39,30,21,,54,53,77,55,12,10,1.2,1
2026-01-08T1900,3283A,109.9154,40.5684,包头市,滨河大厦,颗粒物(PM10),87,124,65,25,31,57,,51,51,21,39,6,8,0.5,0.8
2026-01-08T1900,3419A,109.9449,40.6259,包头市,包头市委党校,颗粒物(PM10),95,140,83,37,36,51,,53,53,34,48,21,13,0.7,1
2026-01-08T1900,3683A,109.8332,40.6577,包头市,昆区政府,颗粒物(PM10),126,202,79,36,39,48,,50,50,44,53,23,14,2.5,1.3
2026-01-08T1900,1931A,107.0802,34.3129,宝鸡市,竹园沟,细颗粒物(PM2.5),72,64,32,52,24,44,,68,68,28,17,6,6,0.5,0.3
2026-01-08T1900,1933A,107.1429,34.3549,宝鸡市,监测站,细颗粒物(PM2.5),62,49,46,44,33,54,,63,63,36,32,6,5,0.5,0.5
2026-01-08T1900,1934A,107.1172,34.3759,宝鸡市,技工学校,颗粒物(PM10),55,59,56,34,35,58,,66,66,29,22,5,8,0.5,0.5
2026-01-08T1900,1936A,107.2025,34.3518,宝鸡市,文理学院,,50,44,47,35,34,69,,71,71,27,30,6,5,0.4,0.5
2026-01-08T1900,1937A,107.2396,34.3626,宝鸡市,三迪小学,细颗粒物(PM2.5),54,56,55,38,40,58,,67,67,36,36,4,4,0.4,0.5
2026-01-08T1900,4155A,107.1721,34.3558,宝鸡市,滨河北路,,50,50,52,31,34,58,,67,67,30,30,6,5,0.4,0.7
2026-01-08T1900,4308A,107.3898,34.3601,宝鸡市,陈仓区北开路21号,细颗粒物(PM2.5),78,85,68,57,49,56,,66,66,34,33,8,38,0.2,0.6
2026-01-08T1900,1051A,115.4803,38.8568,保定市,游泳馆,颗粒物(PM10),73,96,81,38,49,47,,54,54,25,46,10,7,0.6,0.6
2026-01-08T1900,1052A,115.509,38.8895,保定市,华电二区,,,,65,,43,,,58,58,,37,4,5,0.7,1.2
2026-01-08T1900,1053A,115.4588,38.9037,保定市,接待中心,颗粒物(PM10),66,81,82,36,46,46,,54,54,25,36,4,4,0.3,0.5
2026-01-08T1900,1054A,115.4484,38.8344,保定市,地表水厂,颗粒物(PM10),77,104,98,46,49,48,,56,56,31,47,7,5,0.6,0.5
2026-01-08T1900,3581A,115.3136,38.9511,保定市,满城区生态环境分局,颗粒物(PM10),82,114,99,58,52,30,,54,54,48,54,10,7,0.7,0.9
2026-01-08T1900,3582A,115.4709,38.7628,保定市,清苑区第二中学,颗粒物(PM10),80,109,94,40,41,44,,56,56,27,39,10,8,0.8,0.6
2026-01-08T1900,3583A,115.6231,39.0223,保定市,徐水物探局,颗粒物(PM10),75,99,114,46,53,42,,54,54,29,50,9,9,0.5,0.7
2026-01-08T1900,4004A,115.4199,38.8665,保定市,双鹰农机,颗粒物(PM10),69,87,107,31,51,48,,60,60,27,43,8,8,0.5,0.6
2026-01-08T1900,4034A,115.515,38.8589,保定市,植保所站,颗粒物(PM10),71,91,85,47,52,38,,50,50,40,60,6,5,0.7,0.8
2026-01-08T1900,2594A,99.1589,25.1137,保山市,市环境监测站,,28,28,28,18,20,87,,85,85,8,11,3,4,0.2,0.4
2026-01-08T1900,2595A,99.1616,25.1381,保山市,市环保局,,39,37,29,27,20,89,,88,88,4,6,4,4,0.4,0.4
2026-01-08T1900,1867A,109.1435,21.4085,北海市,海滩公园,细颗粒物(PM2.5),53,48,50,37,33,132,,120,120,16,16,9,10,0.9,0.4
2026-01-08T1900,1868A,109.0983,21.466,北海市,新市环保局,颗粒物(PM10),53,56,51,34,44,122,,119,119,17,17,4,5,0.6,0.6
2026-01-08T1900,1869A,109.1775,21.5232,北海市,北海工业园,细颗粒物(PM2.5),64,54,52,46,41,104,,107,107,20,19,9,9,0.7,0.6
2026-01-08T1900,3400A,109.1844,21.4396,北海市,龙潭自来水厂,颗粒物(PM10),53,56,55,31,42,99,,110,110,31,19,7,9,0.7,0.6
2026-01-08T1900,1001A,116.3611,39.8786,北京市,万寿西宫,颗粒物(PM10),78,105,62,53,31,38,,36,36,37,64,4,3,0.5,0.6
2026-01-08T1900,1003A,116.4174,39.9289,北京市,东四,颗粒物(PM10),77,103,54,43,24,40,,38,38,33,48,6,5,0.5,0.7
2026-01-08T1900,1004A,116.4073,39.8858,北京市,天坛,颗粒物(PM10),70,90,54,43,27,39,,39,39,33,46,3,3,0.6,0.6
2026-01-08T1900,1005A,116.4622,39.9364,北京市,农展馆,颗粒物(PM10),76,101,51,46,24,39,,38,38,31,48,5,5,0.8,0.7
2026-01-08T1900,1006A,116.3399,39.9293,北京市,官园,"颗粒物(PM10),细颗粒物(PM2.5)",77,103,54,56,31,34,,34,34,38,53,6,5,0.7,0.7
2026-01-08T1900,1007A,116.2879,39.9613,北京市,海淀万柳,颗粒物(PM10),77,104,60,55,28,27,,33,33,48,59,4,4,0.7,0.8
2026-01-08T1900,1008A,116.6635,40.1349,北京市,顺义新城,颗粒物(PM10),73,96,40,46,19,13,,40,38,65,32,4,3,0.8,0.5
2026-01-08T1900,1009A,116.6275,40.327,北京市,怀柔镇,细颗粒物(PM2.5),62,72,33,44,19,4,,30,24,78,34,7,7,0.9,0.5
2026-01-08T1900,1010A,116.2295,40.217,北京市,昌平镇,颗粒物(PM10),68,85,48,42,25,21,,27,27,57,44,5,5,0.9,0.7
2026-01-08T1900,1011A,116.3968,39.982,北京市,奥体中心,颗粒物(PM10),73,96,49,50,22,33,,36,36,41,51,5,4,0.9,0.8
2026-01-08T1900,3418A,116.8336,40.4095,北京市,密云新城,颗粒物(PM10),72,93,35,47,17,11,,38,34,62,30,4,4,0.7,0.4
2026-01-08T1900,3671A,116.0879,39.9725,北京市,门头沟三家店,细颗粒物(PM2.5),93,126,61,69,29,15,,41,38,55,36,3,3,0.9,0.6
2026-01-08T1900,3672A,116.1507,39.8246,北京市,丰台云岗,颗粒物(PM10),79,107,63,50,31,41,,42,42,31,47,4,4,0.8,0.7
2026-01-08T1900,3674A,115.9578,39.7602,北京市,房山燕山,细颗粒物(PM2.5),94,110,58,70,38,44,,48,48,27,28,7,5,0.5,0.5
2026-01-08T1900,3675A,116.4669,39.7734,北京市,大兴旧宫,颗粒物(PM10),83,115,67,40,27,35,,43,43,31,48,3,3,0.5,0.6
2026-01-08T1900,3694A,115.9859,40.4562,北京市,延庆石河营,颗粒物(PM10),53,55,51,27,31,32,,58,57,46,29,4,3,0.6,0.8
2026-01-08T1900,3695A,116.6151,40.3052,北京市,怀柔新城,颗粒物(PM10),59,67,32,41,19,8,,31,26,65,27,5,5,0.6,0.4
2026-01-08T1900,3696A,116.2542,39.8764,北京市,丰台小屯,颗粒物(PM10),79,108,72,48,31,21,,30,30,50,59,4,5,0.6,0.6
2026-01-08T1900,3697A,116.8399,40.3843,北京市,密云镇,颗粒物(PM10),79,108,41,53,18,3,,39,34,77,45,3,2,0.9,0.5
2026-01-08T1900,4057A,115.9423,40.4431,北京市,延庆百泉,颗粒物(PM10),54,58,57,25,32,43,,55,55,28,27,5,2,0.5,0.7
2026-01-08T1900,4058A,116.6598,39.9164,北京市,通州新华,颗粒物(PM10),85,120,67,38,26,32,,30,30,44,61,4,5,0.4,0.5
2026-01-08T1900,4182A,116.1942,39.9158,北京市,石景山八角,颗粒物(PM10),84,118,68,50,30,25,,36,36,47,54,2,2,0.6,0.6
2026-01-08T1900,4194A,117.078628,40.151726,北京市,平谷新城,细颗粒物(PM2.5),82,106,42,60,26,7,,33,29,74,32,2,2,0.8,0.5
2026-01-08T1900,1761A,123.8274146,41.31234549,本溪市,大峪,,34,34,63,11,26,58,,52,52,13,36,9,9,0.7,1.1
2026-01-08T1900,1763A,123.7169,41.3094,本溪市,彩屯,,47,47,69,14,38,44,,49,49,36,38,15,12,2.7,2.1
2026-01-08T1900,1764A,123.7672166,41.28649327,本溪市,东明,颗粒物(PM10),70,90,64,13,30,61,,60,60,12,31,9,9,0.6,1.1
2026-01-08T1900,1765A,123.799345,41.266614,本溪市,新立屯,,42,42,44,3,19,61,,58,58,11,32,10,10,0.8,1
2026-01-08T1900,1766A,123.829144,41.336777,本溪市,威宁,,39,39,75,21,32,38,,46,46,31,35,8,7,0.6,1.1
2026-01-08T1900,2587A,105.287,27.3133,毕节市,八中,细颗粒物(PM2.5),79,71,34,58,33,67,,79,79,30,12,17,13,0.8,0.6
2026-01-08T1900,2588A,105.3079,27.2987,毕节市,师专,细颗粒物(PM2.5),54,48,37,38,31,84,,87,87,23,14,12,12,0.6,0.5
2026-01-08T1900,4263A,105.3688,27.3598,毕节市,工业大道,颗粒物(PM10),51,52,42,34,33,76,,84,84,26,14,11,11,/,/
2026-01-08T1900,1629A,117.9961,37.3604,滨州市,第二水厂,颗粒物(PM10),64,78,50,30,26,36,,55,55,38,45,13,18,0.4,0.6
2026-01-08T1900,1630A,117.9789,37.3931,滨州市,北中新校,颗粒物(PM10),58,66,48,34,24,50,,60,60,32,45,8,11,0.5,0.6
2026-01-08T1900,3514A,117.9379,37.3959,滨州市,中海酒店,颗粒物(PM10),62,73,55,34,35,47,,62,62,36,44,12,15,0.6,0.7
2026-01-08T1900,3515A,117.9381509,37.35547456,滨州市,开发区一中,颗粒物(PM10),69,88,57,36,30,36,,59,58,36,40,16,23,0.5,0.6
2026-01-08T1900,3516A,118.0914,37.6938,滨州市,金海六路,颗粒物(PM10),64,78,58,22,28,42,,66,63,42,54,4,12,0.6,0.8
2026-01-08T1900,4028A,117.9955,37.3752,滨州市,滨州市西街道办事处,颗粒物(PM10),64,78,49,41,29,48,,63,63,27,36,11,14,0.4,0.4
2026-01-08T1900,2311A,115.8071,33.8399,亳州市,污水处理厂,颗粒物(PM10),69,88,80,41,49,62,,72,72,29,41,6,11,0.4,0.5
2026-01-08T1900,2312A,115.7789,33.8519,亳州市,三国揽胜宫,细颗粒物(PM2.5),90,78,85,67,54,53,,68,68,32,38,7,8,0.6,0.6
2026-01-08T1900,3332A,115.7631,33.803,亳州市,亳州学院,细颗粒物(PM2.5),72,91,73,52,41,56,,76,73,41,41,6,6,0.4,0.5
2026-01-08T1900,2693A,82.0482,44.8553,博尔塔拉蒙古自治州,市党校,颗粒物(PM10),60,70,93,36,45,33,,49,49,48,32,12,5,0.8,0.8
2026-01-08T1900,2694A,82.0805,44.8966,博尔塔拉蒙古自治州,市环保局,,,57,110,32,51,44,,47,47,39,44,,13,0.9,1.1
2026-01-08T1900,1071A,116.8733,38.2922,沧州市,沧县城建局,颗粒物(PM10),72,94,71,51,37,42,,60,59,42,54,8,8,0.6,0.5
2026-01-08T1900,1072A,116.8462,38.3189,沧州市,电视转播站,颗粒物(PM10),69,88,61,48,35,50,,58,58,32,48,5,4,0.6,0.6
2026-01-08T1900,1073A,116.8588,38.3161,沧州市,市环保局,颗粒物(PM10),71,92,62,50,40,43,,57,55,32,46,8,8,0.7,0.6
2026-01-08T1900,3324A,116.8011,38.294,沧州市,河北水利电力学院,颗粒物(PM10),81,112,73,44,34,30,,51,50,47,58,12,11,0.8,0.7
2026-01-08T1900,2622A,97.1813,31.1289,昌都市,昌都监测站,,29,24,38,20,16,62,,78,78,40,18,2,2,1.1,0.8
2026-01-08T1900,3719A,97.1707,31.1428,昌都市,昌都会议中心,,26,12,15,6,9,83,,82,82,3,5,1,2,0.2,0.5
2026-01-08T1900,2692A,87.2722,44.0298,昌吉回族自治州,新区政务中心,细颗粒物(PM2.5),135,122,154,103,112,,,63,63,35,51,8,8,1.2,1.4
2026-01-08T1900,3613A,87.3069,44.0093,昌吉回族自治州,亚心广场,细颗粒物(PM2.5),160,175,168,122,123,62,,67,67,35,41,8,7,1.2,1.4
2026-01-08T1900,4164A,87.2057,43.9289,昌吉回族自治州,财政所,细颗粒物(PM2.5),104,105,77,78,55,42,,63,63,42,20,6,5,1.0,0.7
2026-01-08T1900,1120A,125.2874,43.9024,长春市,客车厂,,42,36,49,29,49,47,,49,49,22,38,8,9,0.4,0.6
2026-01-08T1900,1121A,125.2943,43.8508,长春市,邮电学院,,39,38,44,27,34,39,,44,44,26,30,15,12,0.4,0.5
2026-01-08T1900,1122A,125.3648,43.8745,长春市,劳动公园,,32,32,49,19,35,54,,56,56,16,27,8,9,0.5,0.7
2026-01-08T1900,1123A,125.3233,43.8781,长春市,园林处,,38,36,41,26,32,49,,52,52,17,25,8,10,0.6,0.6
2026-01-08T1900,1124A,125.4604,43.7904,长春市,净月潭,,28,24,39,19,26,59,,59,59,8,21,7,5,0.3,0.4
2026-01-08T1900,1126A,125.38,43.8422,长春市,经开区环卫处,,35,35,50,18,30,52,,52,52,16,29,6,6,0.4,0.6
2026-01-08T1900,1127A,125.234,43.7761,长春市,高新区管委会,,36,34,59,25,57,55,,59,59,15,36,5,6,0.4,0.8
2026-01-08T1900,1128A,125.1695,43.83,长春市,岱山公园,,36,36,65,22,53,35,,44,43,38,43,7,8,0.4,0.7
2026-01-08T1900,4281A,125.334645,43.916281,长春市,北亚泰大街1068号,,32,32,46,15,36,45,,50,50,6,32,7,7,0.5,0.8
2026-01-08T1900,1335A,113.082,28.2421,长沙市,经开区环保局,细颗粒物(PM2.5),59,53,62,42,42,83,,87,87,35,47,5,5,0.4,0.5
2026-01-08T1900,1336A,112.8873,28.2202,长沙市,高开区环保局,,50,49,63,35,48,81,,83,83,23,46,6,6,0.4,0.6
2026-01-08T1900,1337A,113.0785,28.2012,长沙市,马坡岭,细颗粒物(PM2.5),59,56,74,42,50,85,,88,88,32,48,5,5,0.7,0.8
2026-01-08T1900,1338A,112.9448,28.1894,长沙市,湖南师范大学,,,,58,29,37,,,95,95,19,47,7,6,0.4,0.6
2026-01-08T1900,1339A,113.0177,28.1322,长沙市,雨花区环保局,细颗粒物(PM2.5),58,52,70,41,46,92,,85,85,25,50,8,8,0.5,0.7
2026-01-08T1900,1340A,112.9795,28.2593,长沙市,伍家岭,细颗粒物(PM2.5),52,47,88,36,50,81,,83,83,43,51,6,6,0.3,0.6
2026-01-08T1900,1341A,113.002,28.1944,长沙市,火车新站,细颗粒物(PM2.5),62,62,70,44,49,91,,89,89,28,52,10,10,0.4,0.7
2026-01-08T1900,1342A,112.9846,28.1177,长沙市,天心区环保局,细颗粒物(PM2.5),54,48,60,38,43,96,,93,93,26,48,7,7,0.6,0.8
2026-01-08T1900,1343A,112.8906,28.1307,长沙市,湖南中医药大学,颗粒物(PM10),53,56,67,34,30,68,,87,87,53,58,7,7,0.5,0.7
2026-01-08T1900,1727A,113.1146,36.1547,长治市,清华站,,29,29,55,14,27,68,,76,76,22,26,10,12,0.5,0.6
2026-01-08T1900,1730A,113.0887,36.2126,长治市,审计局,,30,30,56,14,28,75,,73,73,13,27,7,12,0.4,0.6
2026-01-08T1900,1731A,113.0845,36.1856,长治市,长治八中,颗粒物(PM10),53,55,70,19,33,68,,73,73,14,21,9,12,0.5,0.6
2026-01-08T1900,2845A,113.1561,36.1912,长治市,德盛苑,,31,31,54,14,31,78,,78,78,15,18,7,11,0.3,0.8
2026-01-08T1900,3568A,113.0603,36.0464,长治市,向阳小学,颗粒物(PM10),56,61,80,18,32,70,,82,82,25,23,11,12,0.4,0.6
2026-01-08T1900,3569A,112.8788,36.315,长治市,屯留一中,,46,46,57,15,24,73,,77,77,7,19,4,7,0.6,0.5
2026-01-08T1900,4189A,113.113092,36.199482,长治市,英华南巷50号,,49,38,62,34,44,66,,74,74,22,21,6,10,0.4,0.6
2026-01-08T1900,4190A,113.23666,36.33435,长治市,学府街1号,,38,38,63,17,28,70,,74,74,13,28,7,11,0.5,0.7
2026-01-08T1900,1854A,111.696,28.9725,常德市,市二中,细颗粒物(PM2.5),69,52,52,50,45,95,,100,100,19,24,6,6,0.5,0.5
2026-01-08T1900,3138A,111.7152,29.0288,常德市,武陵区永安,细颗粒物(PM2.5),82,71,58,60,45,88,,94,94,22,29,7,5,0.7,0.7
2026-01-08T1900,3139A,111.6891,28.9881,常德市,鼎城区玉霞,,,,58,63,48,85,,94,93,,26,,8,0.9,0.8
2026-01-08T1900,3140A,111.6651,29.0526,常德市,武陵区长庚,细颗粒物(PM2.5),82,72,61,60,51,99,,98,98,15,30,7,4,0.6,0.7
2026-01-08T1900,1196A,119.9524,31.7586,常州市,市监测站,细颗粒物(PM2.5),94,110,83,70,58,42,,67,67,60,62,6,6,0.9,0.9
2026-01-08T1900,1200A,119.9351,31.703,常州市,武进监测站,细颗粒物(PM2.5),102,112,80,76,58,35,,66,66,66,57,10,10,0.8,0.6
2026-01-08T1900,3002A,119.9701,31.813,常州市,行政中心,细颗粒物(PM2.5),85,102,87,63,55,46,,73,69,57,58,8,9,0.7,0.7
2026-01-08T1900,3003A,120.0434,31.7726,常州市,经开区,细颗粒物(PM2.5),94,122,95,70,55,48,,76,76,56,53,15,12,0.7,0.7
2026-01-08T1900,3010A,119.8919,31.7892,常州市,钟楼,细颗粒物(PM2.5),79,94,84,58,56,53,,66,66,43,55,9,9,0.6,0.7
2026-01-08T1900,3429A,119.8595,31.706,常州市,武进经发区,细颗粒物(PM2.5),100,91,82,75,64,44,,71,71,58,49,10,10,0.7,0.7
2026-01-08T1900,3430A,119.5812,31.7256,常州市,金坛城区,细颗粒物(PM2.5),102,94,82,76,57,47,,58,58,41,36,8,9,0.9,0.8
2026-01-08T1900,4089A,119.9551,31.863,常州市,崇义南街5-H号,细颗粒物(PM2.5),113,125,94,85,66,25,,70,70,72,67,6,9,1.0,0.8
2026-01-08T1900,2220A,120.4318,41.588,朝阳市,西梁,颗粒物(PM10),69,87,74,26,39,52,,54,54,30,37,14,12,1.6,1.1
2026-01-08T1900,2221A,120.452,41.565,朝阳市,河畔小区,,50,50,50,26,29,60,,60,60,23,29,10,10,0.8,0.9
2026-01-08T1900,2222A,120.4176,41.5648,朝阳市,八里堡,颗粒物(PM10),59,68,60,22,33,52,,57,57,33,37,25,14,1.3,1
2026-01-08T1900,3026A,116.6179,23.6608,潮州市,市政府,细颗粒物(PM2.5),57,48,42,40,29,101,,99,99,22,13,10,9,0.5,0.4
2026-01-08T1900,4036A,116.646,23.676,潮州市,金山,细颗粒物(PM2.5),100,,36,75,26,97,,94,94,26,12,9,4,0.6,0.3
2026-01-08T1900,2473A,113.0116,25.8228,郴州市,市职中,,,42,43,30,35,74,,91,91,,22,,7,0.6,0.6
2026-01-08T1900,2475A,113.0381,25.8074,郴州市,市审计局,,38,38,48,23,36,70,,94,94,26,31,9,6,/,/
2026-01-08T1900,2476A,113.0348,25.7757,郴州市,市环保局,颗粒物(PM10),52,53,58,30,37,64,,90,90,35,32,14,7,0.7,0.7
2026-01-08T1900,4252A,113.0138,25.8011,郴州市,好美居路49号,,35,35,46,22,38,89,,98,98,22,32,5,6,/,/
2026-01-08T1900,1431A,103.9727,30.7242,成都市,金泉两河,细颗粒物(PM2.5),72,,87,52,57,61,,74,74,42,59,2,3,0.8,0.9
2026-01-08T1900,1432A,104.1423,30.6765,成都市,十里店,细颗粒物(PM2.5),65,64,72,47,48,94,,87,87,27,48,5,6,0.5,0.7
2026-01-08T1900,1433A,104.0594,30.5765,成都市,三瓦窑,细颗粒物(PM2.5),73,60,74,53,57,93,,82,82,25,57,4,5,0.6,0.7
2026-01-08T1900,1434A,104.1122,30.6306,成都市,沙河铺,细颗粒物(PM2.5),67,59,73,48,58,77,,74,74,28,51,3,3,0.5,0.7
2026-01-08T1900,2880A,104.0219,30.6561,成都市,大石西路,细颗粒物(PM2.5),59,58,83,42,57,86,,75,75,24,54,5,6,0.6,0.8
2026-01-08T1900,3136A,104.2724,30.559,成都市,龙泉驿区区政府,细颗粒物(PM2.5),58,56,46,41,36,64,,64,64,20,18,8,7,0.7,0.6
2026-01-08T1900,3357A,104.0028,30.6891,成都市,金博路,细颗粒物(PM2.5),68,63,69,49,56,82,,78,78,36,57,4,5,0.7,1
2026-01-08T1900,3359A,104.056,30.5228,成都市,华阳,细颗粒物(PM2.5),52,46,72,36,56,84,,81,81,29,44,4,4,0.6,0.9
2026-01-08T1900,3488A,104.387954,30.746684,成都市,青石路225号,细颗粒物(PM2.5),83,64,68,61,53,87,,93,93,31,52,7,6,0.5,0.6
2026-01-08T1900,3489A,104.0788,30.4054,成都市,科学城,细颗粒物(PM2.5),78,64,56,57,44,86,,79,79,19,29,7,7,0.2,0.6
2026-01-08T1900,4011A,103.8505,30.6946,成都市,光华大道三段,细颗粒物(PM2.5),75,76,94,55,68,78,,82,82,33,45,3,5,0.6,0.8
2026-01-08T1900,4144A,104.3257,30.6406,成都市,八角井街185号,颗粒物(PM10),70,89,61,50,41,91,,81,81,20,30,4,3,0.5,0.8
2026-01-08T1900,4224A,104.2433276,30.53529463,成都市,鲸龙路1057号,细颗粒物(PM2.5),65,59,65,47,51,86,,87,87,25,39,7,7,0.4,0.4
2026-01-08T1900,1062A,117.9531,40.908,承德市,铁路,细颗粒物(PM2.5),73,92,52,53,27,9,,28,25,51,35,10,5,1.2,0.7
2026-01-08T1900,1063A,117.9397,40.9763,承德市,中国银行,颗粒物(PM10),69,87,49,42,21,9,,40,35,55,31,5,3,1.4,0.7
2026-01-08T1900,4073A,117.9462,40.95,承德市,杏林街1号,细颗粒物(PM2.5),72,76,43,52,27,9,,46,43,52,28,8,5,1.0,0.6
2026-01-08T1900,4274A,117.7994,40.9605,承德市,滨河大街98号,,39,37,60,27,26,46,,36,36,20,35,16,10,0.5,0.8
2026-01-08T1900,2314A,117.4698,30.6617,池州市,池州学院,细颗粒物(PM2.5),63,71,53,45,38,73,,89,89,34,35,6,5,0.8,1.4
2026-01-08T1900,3237A,117.4918,30.6617,池州市,展览馆,颗粒物(PM10),54,58,52,32,32,56,,86,86,34,40,2,3,0.7,1.2
2026-01-08T1900,3333A,117.5626,30.695,池州市,第八中学,"颗粒物(PM10),细颗粒物(PM2.5)",57,64,52,40,36,77,,87,87,33,39,5,6,0.6,0.9
2026-01-08T1900,3334A,117.5037,30.6242,池州市,第十二中学,颗粒物(PM10),69,87,64,49,39,33,,80,80,72,48,4,6,0.5,1.2
2026-01-08T1900,1744A,118.9229,42.2816,赤峰市,松山一中,,47,47,36,14,16,54,,58,58,20,31,10,10,0.8,1
2026-01-08T1900,1745A,118.9588,42.2733,赤峰市,哈达街,,44,44,36,14,15,60,,65,65,15,23,4,8,0.6,0.9
2026-01-08T1900,1746A,118.8792,42.2551,赤峰市,天义路,,38,28,21,26,17,71,,76,76,12,21,5,7,0.5,0.7
2026-01-08T1900,3058A,119.2656,42.0356,赤峰市,银河街,颗粒物(PM10),65,79,79,35,39,59,,66,66,20,21,68,25,0.8,1.1
2026-01-08T1900,3286A,118.9359,42.3146,赤峰市,桥北物流园区,,43,30,26,30,19,59,,59,59,16,29,4,8,0.7,0.8
2026-01-08T1900,2521A,107.3473,22.4137,崇左市,市环保局江州分局,,45,45,50,30,34,85,,87,87,14,20,8,7,0.6,0.6
2026-01-08T1900,4256A,107.375,22.3736,崇左市,石景林东路7号,,46,,46,32,35,91,,90,90,18,21,10,8,0.5,0.5
2026-01-08T1900,3207A,118.31131,32.3033,滁州市,市政府原办公楼,细颗粒物(PM2.5),73,92,81,53,54,27,,72,70,71,33,6,7,1.0,0.6
2026-01-08T1900,3331A,118.3268,32.2633,滁州市,图书馆,,,71,76,43,47,,,78,78,50,26,8,11,0.7,0.6
2026-01-08T1900,4101A,118.3196,32.3335,滁州市,银山路666号,,,78,75,53,67,,,79,79,46,30,,10,0.6,0.8
2026-01-08T1900,4102A,118.3426,32.2979,滁州市,黄山路555号,细颗粒物(PM2.5),103,109,95,77,69,60,,85,85,45,28,12,12,0.8,0.7
2026-01-08T1900,2606A,101.5379,25.0492,楚雄彝族自治州,市经济开发区,,26,26,16,14,15,42,,39,39,7,7,2,2,0.8,0.7
2026-01-08T1900,4153A,101.5536,25.0343,楚雄彝族自治州,团结路562号,,22,,13,15,11,42,,41,41,1,2,3,2,0.5,0.7
2026-01-08T1900,2549A,107.5087,31.2186,达州市,市环境监测站,,,,108,,88,11,,63,63,89,40,8,6,1.4,0.7
2026-01-08T1900,2550A,107.4988,31.2132,达州市,凤凰小区,细颗粒物(PM2.5),110,132,116,83,89,8,,67,66,95,39,7,5,1.5,0.7
2026-01-08T1900,2551A,107.5081,31.1987,达州市,达县机关宾馆,细颗粒物(PM2.5),115,136,116,87,84,5,,59,58,90,43,5,3,1.4,0.9
2026-01-08T1900,2552A,107.4644,31.2124,达州市,市政中心,细颗粒物(PM2.5),110,159,125,83,84,13,,63,63,101,43,8,7,1.2,0.8
2026-01-08T1900,2614A,100.2168,25.5818,大理白族自治州,大理市环境监测站,,27,27,22,11,19,76,,76,76,11,8,6,6,0.6,0.5
2026-01-08T1900,2615A,100.1542,25.7055,大理白族自治州,大理古城,,35,,19,24,15,76,,84,84,10,11,8,8,0.8,0.7
2026-01-08T1900,1109A,121.6119,38.974,大连市,甘井子,,43,43,39,28,21,58,,66,64,34,20,9,10,0.5,0.5
2026-01-08T1900,1110A,121.565,38.9509,大连市,周水子,,43,43,35,29,21,51,,58,58,36,22,19,6,0.6,0.4
2026-01-08T1900,1111A,121.5637,38.8849,大连市,星海三站,,40,33,27,28,19,62,,62,62,23,19,8,8,0.5,0.4
2026-01-08T1900,1112A,121.6301,38.9117,大连市,青泥洼桥,,42,42,36,24,18,62,,62,62,26,21,10,9,0.4,0.3
2026-01-08T1900,1113A,121.6248,38.8643,大连市,傅家庄,,36,36,30,25,19,63,,62,62,22,17,8,8,0.4,0.3
2026-01-08T1900,1114A,121.5117,38.8636,大连市,七贤岭,,36,36,34,23,18,64,,62,62,21,17,9,9,0.6,0.6
2026-01-08T1900,1116A,121.7507,39.1339,大连市,金州,细颗粒物(PM2.5),57,57,39,40,24,43,,62,56,49,20,10,9,0.6,0.4
2026-01-08T1900,1117A,121.7811,39.0495,大连市,开发区,,39,37,31,27,18,44,,55,54,36,17,5,5,0.7,0.6
2026-01-08T1900,1118A,121.9762,39.0631,大连市,双D港,,38,38,37,19,18,62,,70,69,25,13,8,12,0.3,0.5
2026-01-08T1900,4082A,121.2548,38.8188,大连市,旅顺,,41,41,34,23,21,66,,64,64,16,12,5,6,0.6,0.7
2026-01-08T1900,1789A,124.8085,46.0381,大庆市,大同区,颗粒物(PM10),69,88,50,40,32,54,,57,57,14,22,8,6,0.6,0.5
2026-01-08T1900,1790A,125.1166,46.5255,大庆市,龙凤区,,50,50,46,21,31,49,,51,51,22,27,10,9,0.6,0.6
2026-01-08T1900,1791A,124.8894,46.4007,大庆市,红岗区,颗粒物(PM10),71,91,37,25,21,48,,49,49,16,22,6,5,0.6,0.6
2026-01-08T1900,1792A,125.1391,46.578,大庆市,萨尔图区,颗粒物(PM10),54,58,48,30,27,48,,47,47,14,20,8,8,0.5,0.5
2026-01-08T1900,1793A,124.9026,46.6217,大庆市,让胡路区,,45,44,31,31,28,53,,54,54,14,14,6,6,0.5,0.5
2026-01-08T1900,3481A,125.127,46.6277,大庆市,萨区政府监测点,颗粒物(PM10),63,75,42,27,24,51,,51,51,14,24,8,9,0.5,0.7
2026-01-08T1900,1723A,113.2926,40.0759,大同市,云冈宾馆,颗粒物(PM10),63,76,81,22,31,46,,58,58,37,33,8,8,0.7,0.9
2026-01-08T1900,1724A,113.3437,40.0921,大同市,大同大学,颗粒物(PM10),52,54,83,28,36,53,,64,64,30,36,5,7,0.5,0.9
2026-01-08T1900,1725A,113.2637,40.129,大同市,安家小村,颗粒物(PM10),53,55,94,24,39,59,,69,69,27,37,8,9,0.5,1.7
2026-01-08T1900,3282A,113.3399,40.0586,大同市,大同市卫生学校,颗粒物(PM10),54,58,83,21,30,55,,62,62,30,35,6,7,0.3,0.6
2026-01-08T1900,3565A,113.1371,40.1122,大同市,云冈站,颗粒物(PM10),53,55,74,13,31,57,,73,71,18,29,6,6,0.5,0.7
2026-01-08T1900,3566A,113.1186,40.2556,大同市,图书馆,颗粒物(PM10),52,53,75,22,41,56,,71,71,21,19,18,10,0.5,0.7
2026-01-08T1900,3567A,113.5931,40.0459,大同市,区一中,颗粒物(PM10),63,76,96,27,41,64,,74,74,24,32,3,4,0.4,0.7
2026-01-08T1900,4199A,113.2798248,40.09972476,大同市,魏都大道141号,颗粒物(PM10),59,68,107,18,37,55,,63,63,29,39,6,7,0.5,1.3
2026-01-08T1900,2269A,124.1068,50.4091,大兴安岭地区,科技局,,35,,21,24,17,49,,48,48,7,4,5,5,0.3,0.4
2026-01-08T1900,3663A,124.117,50.4279,大兴安岭地区,红旗社区,,17,17,16,6,10,51,,51,51,12,18,5,7,0.3,0.3
2026-01-08T1900,1600A,124.33,40.0625,丹东市,江湾东路,颗粒物(PM10),80,110,51,58,23,23,,53,49,45,18,24,11,1.3,0.7
2026-01-08T1900,1601A,124.4242,40.1513,丹东市,临江后街,颗粒物(PM10),56,62,44,26,17,43,,60,59,27,20,23,13,1.3,0.7
2026-01-08T1900,1602A,124.3935,40.1461,丹东市,元宝山,,42,42,37,20,17,41,,54,53,28,14,9,11,0.5,0.5
2026-01-08T1900,1603A,124.3634,40.1093,丹东市,民主桥,颗粒物(PM10),55,59,47,32,19,39,,54,53,30,20,13,10,0.6,0.5
2026-01-08T1900,3541A,109.5726195,19.51688767,儋州市,第一中学子站,,,38,39,25,28,,,101,101,9,8,6,9,,0.6
2026-01-08T1900,3542A,109.5567,19.5187,儋州市,东坡学校子站,,34,32,37,20,24,108,,108,108,10,7,5,5,0.6,0.6
2026-01-08T1900,2616A,98.5611,24.4273,德宏傣族景颇族自治州,德宏州监测站,,47,47,59,28,47,80,,80,80,20,25,6,7,0.6,0.7
2026-01-08T1900,3677A,98.5887,24.4366,德宏傣族景颇族自治州,芒市人民政府综合楼,颗粒物(PM10),52,54,59,20,38,73,,73,73,15,18,4,5,0.7,0.8
2026-01-08T1900,1901A,104.424,31.1209,德阳市,东山公园,细颗粒物(PM2.5),58,42,67,41,56,101,,91,91,10,23,6,5,0.6,0.7
2026-01-08T1900,1902A,104.3827,31.1318,德阳市,西小区,细颗粒物(PM2.5),62,62,107,44,68,80,,75,75,29,58,5,5,0.7,1
2026-01-08T1900,1904A,104.3553,31.1091,德阳市,耐火材料厂,细颗粒物(PM2.5),60,66,106,43,80,78,,79,79,36,58,4,4,0.6,0.8
2026-01-08T1900,4145A,104.4144,31.1495,德阳市,市林业局,细颗粒物(PM2.5),52,49,76,36,62,84,,85,85,26,43,5,3,0.7,0.8
2026-01-08T1900,1622A,116.3034,37.4675,德州市,儿童乐园,颗粒物(PM10),75,100,68,48,30,59,,64,64,29,44,14,14,1.0,1.1
2026-01-08T1900,1624A,116.2992,37.4449,德州市,监理站,颗粒物(PM10),75,100,69,46,34,67,,72,72,27,45,15,16,0.8,0.9
2026-01-08T1900,3066A,116.2722,37.438,德州市,九衢泉纯净水厂,颗粒物(PM10),73,95,88,44,47,50,,61,61,33,59,16,19,0.7,0.9
2026-01-08T1900,3371A,116.3693,37.44,德州市,开发区人民医院,颗粒物(PM10),75,100,63,36,28,67,,70,70,43,61,14,16,0.6,0.6
2026-01-08T1900,3511A,116.5687,37.3331,德州市,陵城艺术中心,颗粒物(PM10),76,102,78,39,42,45,,59,59,42,51,12,19,0.3,0.5
2026-01-08T1900,4292A,116.352738,37.420875,德州市,新河东路,颗粒物(PM10),73,95,69,46,38,54,,62,62,31,66,14,16,0.6,0.9
2026-01-08T1900,2621A,99.7054,27.8319,迪庆藏族自治州,迪庆州站,,26,26,31,17,21,80,,83,83,7,10,5,5,0.4,0.5
2026-01-08T1900,3180A,99.7122,27.8129,迪庆藏族自治州,质量技术监督局,,27,20,32,9,20,84,,87,87,8,12,4,4,0.3,0.5
2026-01-08T1900,4257A,104.6092,35.5962,定西市,将台街,细颗粒物(PM2.5),53,47,60,37,41,72,,81,81,21,29,13,16,0.4,0.7
2026-01-08T1900,4309A,104.6159,35.5701,定西市,正龙路62号,颗粒物(PM10),59,68,64,40,40,69,,75,75,16,13,15,11,0.5,0.7
2026-01-08T1900,1390A,113.7943,23.0132,东莞市,东城石井,,25,21,28,12,18,78,,101,101,18,24,6,7,0.4,0.5
2026-01-08T1900,1391A,113.7384,22.9659,东莞市,南城西平,,24,24,34,14,20,70,,96,96,39,57,9,9,0.4,0.5
2026-01-08T1900,3319A,113.7283,23.041,东莞市,万江金泰,,31,31,29,16,17,71,,95,93,28,21,6,6,0.6,0.5
2026-01-08T1900,4129A,113.8666,23.1062,东莞市,裕兴路,,35,35,35,12,19,74,,116,113,51,29,7,6,0.7,0.6
2026-01-08T1900,4130A,114.0076,22.9739,东莞市,教育路1号,,50,38,53,35,28,50,,98,94,67,40,6,6,0.5,0.5
2026-01-08T1900,4131A,113.7981,22.8124,东莞市,长怡路1号,,32,32,43,13,22,65,,90,88,45,42,8,10,0.4,0.5
2026-01-08T1900,1666A,118.6612,37.4313,东营市,市环保局,颗粒物(PM10),68,85,52,41,24,27,,57,56,56,50,16,22,0.8,0.8
2026-01-08T1900,3036A,118.6903,37.4337,东营市,开发区管委会,颗粒物(PM10),67,83,56,34,27,18,,57,56,69,49,18,23,0.7,0.8
2026-01-08T1900,3365A,118.5721,37.5654,东营市,垦利区民丰路,颗粒物(PM10),67,83,49,39,25,26,,59,58,54,50,17,10,1.0,1
2026-01-08T1900,3498A,118.5063,37.8606,东营市,河口城区,颗粒物(PM10),71,92,53,39,25,35,,61,60,41,52,7,7,0.7,0.8
2026-01-08T1900,3646A,118.4979,37.4623,东营市,胜利站,,,69,48,48,27,15,,50,48,,45,24,20,,1.1
2026-01-08T1900,3734A,118.5753,37.4405,东营市,理想之城,,,83,54,46,32,6,,53,50,,52,,17,0.8,0.9
2026-01-08T1900,1591A,110.0024,39.8127,鄂尔多斯市,综合楼,,34,34,42,12,20,57,,60,60,26,17,8,6,0.5,0.6
2026-01-08T1900,1592A,109.9485,39.8259,鄂尔多斯市,巴音孟克林场办事处,,41,41,50,12,20,66,,68,68,19,15,7,7,0.3,0.3
2026-01-08T1900,1593A,109.7734,39.5987,鄂尔多斯市,康泽苑,颗粒物(PM10),56,61,60,24,26,74,,76,76,14,18,7,6,0.5,0.4
2026-01-08T1900,1594A,109.8121,39.5987,鄂尔多斯市,华泰汽车城,颗粒物(PM10),56,61,64,17,24,74,,74,74,15,22,5,5,0.4,0.4
2026-01-08T1900,1595A,109.9734,39.7884,鄂尔多斯市,奥林花园,,39,39,58,14,20,62,,66,66,22,24,2,2,0.4,0.5
2026-01-08T1900,2436A,114.894,30.3989,鄂州市,市政府,,46,46,64,29,43,42,,64,64,43,42,4,5,0.7,0.8
2026-01-08T1900,2437A,114.8986,30.3714,鄂州市,赵家坝,,49,49,76,32,46,55,,87,82,24,33,6,8,0.7,0.5
2026-01-08T1900,3654A,114.8093,30.4091,鄂州市,精准医疗中心,,47,47,64,31,43,77,,89,89,30,34,4,5,0.2,0.4
2026-01-08T1900,2454A,109.4978,30.2979,恩施土家族苗族自治州,湖北民院,"颗粒物(PM10),细颗粒物(PM2.5)",52,54,65,36,63,51,,76,76,35,8,7,6,0.7,0.8
2026-01-08T1900,3549A,109.5061,30.3771,恩施土家族苗族自治州,龙凤新区,,,37,66,25,56,41,,66,66,25,13,,7,0.5,0.4
2026-01-08T1900,2499A,108.3411,21.6159,防城港市,沙万,颗粒物(PM10),51,52,48,31,35,89,,94,94,15,17,6,7,0.4,0.4
2026-01-08T1900,2500A,108.3515,21.7733,防城港市,防城档案局,细颗粒物(PM2.5),62,60,75,44,38,66,,96,95,38,22,6,6,0.6,0.5
2026-01-08T1900,2501A,108.3506,21.6414,防城港市,大海花园,,,45,44,33,34,99,,107,107,,11,,8,0.5,0.6
2026-01-08T1900,1371A,113.1293,23.0065,佛山市,湾梁,,31,31,31,20,19,84,,94,94,28,26,/,/,/,/
2026-01-08T1900,1372A,113.1082,23.0477,佛山市,华材职中,颗粒物(PM10),51,51,36,24,22,70,,90,89,42,33,8,8,0.5,0.5
2026-01-08T1900,1373A,113.1439,23.045,佛山市,南海气象局,,35,26,31,24,24,78,,95,95,34,30,/,/,/,/
2026-01-08T1900,1374A,113.2879,22.8094,佛山市,顺德苏岗,,34,34,28,19,18,77,,89,89,37,34,/,/,0.6,0.5
2026-01-08T1900,1376A,112.8384,22.8678,佛山市,高明孔堂,,41,41,41,26,27,84,,93,93,24,27,/,/,/,/
2026-01-08T1900,1377A,112.8835,23.1584,佛山市,三水监测站,颗粒物(PM10),56,61,47,26,29,53,,82,80,57,35,4,7,0.6,0.6
2026-01-08T1900,1378A,112.8668,23.185,佛山市,三水云东海,,34,34,36,17,27,72,,89,89,23,28,/,/,/,/
2026-01-08T1900,3625A,113.2568,22.7629,佛山市,容桂街道办,,44,44,35,24,21,77,,86,86,36,32,/,/,/,/
2026-01-08T1900,1282A,119.2681,26.0506,福州市,师大,,43,43,41,28,30,103,,102,102,29,27,4,4,0.5,0.5
2026-01-08T1900,1283A,119.2983,26.1028,福州市,五四北路,,49,49,39,31,30,102,,100,100,26,24,5,5,0.6,0.6
2026-01-08T1900,1284A,119.2648,26.0769,福州市,杨桥西路,,49,44,39,34,29,99,,102,102,21,21,5,5,/,/
2026-01-08T1900,3048A,119.5799,26.0937,福州市,九龙,,38,36,33,25,29,119,,114,114,17,19,5,5,0.5,0.6
2026-01-08T1900,3526A,119.5188,25.9666,福州市,吴航,,37,37,42,25,32,111,,111,111,19,30,6,6,0.5,0.6
2026-01-08T1900,4104A,119.3106,26.0648,福州市,路通桥巷6号,颗粒物(PM10),53,55,46,33,36,85,,97,97,29,21,/,/,/,/
2026-01-08T1900,1755A,123.7974,41.8494,抚顺市,望花区,,,52,89,30,45,,,48,48,28,41,10,11,0.6,1.4
2026-01-08T1900,1756A,123.9161,41.8827,抚顺市,顺城区,颗粒物(PM10),51,51,79,25,47,37,,43,43,41,43,10,10,0.9,1.1
2026-01-08T1900,1757A,124.0437,41.8615,抚顺市,东洲区,,,38,83,14,62,55,,56,56,,33,11,12,0.7,1.1
2026-01-08T1900,1758A,123.9246,41.8638,抚顺市,新抚区,颗粒物(PM10),58,65,82,31,47,21,,44,43,63,43,11,8,1.3,1.2
2026-01-08T1900,1759A,124.0972,41.8961,抚顺市,大伙房水库,,45,45,73,16,47,53,,60,60,11,27,10,11,0.8,1
2026-01-08T1900,1760A,123.708,41.8386,抚顺市,沈抚新城,细颗粒物(PM2.5),63,65,80,45,43,42,,46,46,40,40,9,10,1.0,1.5
2026-01-08T1900,2377A,116.3544,27.9833,抚州市,市站,,45,45,52,26,34,100,,101,101,15,26,10,10,0.4,0.5
2026-01-08T1900,2378A,116.3562,27.9631,抚州市,血防站,,43,41,58,30,32,96,,94,94,17,30,11,8,0.8,0.9
2026-01-08T1900,2379A,116.3561,28.0007,抚州市,采茶剧团,,,73,54,28,34,,,101,101,13,30,,8,0.6,0.7
2026-01-08T1900,2380A,116.3854,27.9648,抚州市,医学分院,颗粒物(PM10),51,52,55,28,31,98,,102,102,13,22,30,8,0.6,0.6
2026-01-08T1900,2207A,121.6095,41.9978,阜新市,工业园区,细颗粒物(PM2.5),67,70,91,48,35,50,,59,59,19,28,15,16,0.6,0.6
2026-01-08T1900,2208A,121.6567,42.0188,阜新市,长青街,,49,49,46,32,21,48,,53,53,24,22,14,11,0.6,0.5
2026-01-08T1900,2209A,121.6672,42.07,阜新市,农业园区,"颗粒物(PM10),细颗粒物(PM2.5)",52,54,45,36,18,52,,55,55,20,14,12,12,0.5,0.3
2026-01-08T1900,2211A,121.6343,42.0455,阜新市,玉龙新城,细颗粒物(PM2.5),64,63,69,46,28,49,,57,57,22,33,11,10,0.6,0.6
2026-01-08T1900,2301A,115.8276,32.8929,阜阳市,市监测站,细颗粒物(PM2.5),80,105,97,59,61,58,,74,74,39,53,6,6,0.5,0.8
2026-01-08T1900,2303A,115.8551,32.8606,阜阳市,开发区,颗粒物(PM10),71,91,89,50,55,58,,76,76,45,50,7,7,0.5,0.7
2026-01-08T1900,2875A,115.783962,32.889217,阜阳市,阜阳职业技术学院,细颗粒物(PM2.5),80,107,76,59,49,16,,75,70,84,50,9,9,0.5,0.6
2026-01-08T1900,3468A,115.79,32.8614,阜阳市,市规划展馆,细颗粒物(PM2.5),83,65,76,61,54,59,,83,83,44,45,8,8,0.6,0.6
2026-01-08T1900,3469A,115.835101,32.918568,阜阳市,枣园社区,,,,92,,57,,,78,78,65,62,8,8,0.4,0.5
2026-01-08T1900,2669A,102.9097,34.9841,甘南藏族自治州,州政府,,27,27,41,16,22,80,,81,81,12,32,5,5,0.3,0.7
2026-01-08T1900,3380A,102.8915,34.9618,甘南藏族自治州,甘肃民族师范学院,,,28,43,8,15,,,79,79,13,30,7,9,0.2,0.4
2026-01-08T1900,2570A,101.96,30.048,甘孜藏族自治州,水桥子,,26,13,14,13,6,82,,80,80,6,20,6,6,0.9,0.8
2026-01-08T1900,3065A,101.9534,29.9976,甘孜藏族自治州,州环保局,,25,20,15,7,6,79,,82,82,12,14,6,5,0.6,0.5
2026-01-08T1900,2363A,114.9368,25.8663,赣州市,地委,,33,33,40,17,24,100,,102,102,17,24,9,8,0.8,0.8
2026-01-08T1900,2364A,114.946,25.8483,赣州市,气象台,颗粒物(PM10),53,56,53,17,21,100,,101,101,25,36,5,3,0.5,0.5
2026-01-08T1900,2365A,114.932,25.8332,赣州市,市图书馆,,43,43,40,23,24,87,,87,87,23,32,4,4,0.5,0.5
2026-01-08T1900,2366A,114.8905,25.8472,赣州市,华坚鞋城,,,34,42,19,22,,,89,89,19,26,5,7,0.4,0.3
2026-01-08T1900,3109A,115.0094,25.8614,赣州市,赣县区卫计委,细颗粒物(PM2.5),54,,38,38,30,100,,101,101,14,23,8,8,0.4,0.4
2026-01-08T1900,2684A,106.2753,36.0057,固原市,监测站,颗粒物(PM10),55,60,46,24,24,58,,77,77,28,30,7,6,0.5,0.9
2026-01-08T1900,2685A,106.2384,36.0189,固原市,新区,细颗粒物(PM2.5),54,45,42,38,18,63,,85,84,31,27,6,3,0.6,0.7
2026-01-08T1900,2544A,106.6307,30.4577,广安市,市委,细颗粒物(PM2.5),112,128,93,84,71,28,,68,67,93,40,9,9,1.7,1.1
2026-01-08T1900,2545A,106.6266,30.4662,广安市,友谊中学,细颗粒物(PM2.5),99,101,79,74,67,50,,90,84,60,25,6,7,1.2,0.9
2026-01-08T1900,2547A,106.6386,30.4551,广安市,广电花园,细颗粒物(PM2.5),95,91,85,71,67,51,,69,69,65,34,9,9,1.0,0.9
2026-01-08T1900,2902A,106.6347,30.4868,广安市,北辰小学,细颗粒物(PM2.5),89,90,84,66,67,82,,85,85,36,24,27,22,1.2,0.9
2026-01-08T1900,2524A,105.8211,32.4444,广元市,老城,细颗粒物(PM2.5),72,78,49,52,35,91,,74,74,34,49,9,8,0.8,0.9
2026-01-08T1900,2526A,105.8629,32.429,广元市,监测站,,,84,61,54,39,,,60,60,33,38,5,6,0.8,1
2026-01-08T1900,3617A,105.8047,32.4167,广元市,经开区,细颗粒物(PM2.5),70,67,63,51,41,91,,54,54,13,42,3,5,0.7,1
2026-01-08T1900,1345A,113.2346,23.1423,广州市,广雅中学,,40,40,40,23,24,71,,95,94,38,39,5,6,0.5,0.5
2026-01-08T1900,1346A,113.2611,23.105,广州市,市五中,,38,38,36,21,23,90,,108,108,36,32,10,11,/,/
2026-01-08T1900,1348A,113.3477,23.0916,广州市,广东商学院,,31,31,28,20,19,79,,94,94,28,21,8,7,0.1,0.1
2026-01-08T1900,1349A,113.4332,23.105,广州市,市八十六中,,28,28,28,18,19,82,,98,98,28,30,9,8,/,/
2026-01-08T1900,1350A,113.3506,22.9488,广州市,番禺中学,,49,49,31,25,20,75,,97,96,48,31,3,3,0.4,0.3
2026-01-08T1900,1351A,113.2147,23.3918,广州市,花都师范,,38,38,32,22,20,90,,100,100,28,19,10,9,0.5,0.5
2026-01-08T1900,1352A,113.2599,23.1329,广州市,市监测站,,36,36,38,20,24,68,,95,94,43,38,3,4,/,/
2026-01-08T1900,1353A,113.5618,23.3119,广州市,九龙镇镇龙,,32,32,32,19,20,84,,92,92,19,23,6,6,0.4,0.4
2026-01-08T1900,1354A,113.2764,23.1544,广州市,麓湖,,24,24,31,15,22,71,,95,94,27,29,10,11,0.4,0.4
2026-01-08T1900,2846A,113.3209,23.1323,广州市,体育西,,42,42,37,21,22,80,,93,93,19,24,8,8,0.5,0.4
2026-01-08T1900,3298A,113.5718,23.5493,广州市,从化街口,,29,25,30,17,22,92,,100,100,14,32,9,10,0.2,0.5
2026-01-08T1900,3299A,113.3463,23.369,广州市,白云竹料,,,54,34,33,22,94,,108,108,29,22,6,6,,0.4
2026-01-08T1900,3300A,113.2981,23.2365,广州市,白云嘉禾,颗粒物(PM10),54,57,44,25,23,75,,103,102,43,48,7,7,/,/
2026-01-08T1900,3301A,113.4256,23.1716,广州市,黄埔科学城,,,30,27,16,18,,,110,110,28,19,8,6,0.6,0.6
2026-01-08T1900,3302A,113.3942,23.0485,广州市,番禺大学城,,30,30,30,20,17,95,,105,105,24,28,10,9,0.4,0.4
2026-01-08T1900,3303A,113.4923,22.8169,广州市,南沙黄阁,,45,45,44,23,21,65,,100,96,52,40,7,11,/,/
2026-01-08T1900,3304A,113.534,22.7893,广州市,南沙街,,36,36,39,16,19,65,,93,92,38,27,6,7,0.3,0.4
2026-01-08T1900,3443A,113.2905,23.5541,广州市,花都梯面,,31,28,25,17,17,98,,103,103,14,14,9,10,/,/
2026-01-08T1900,3445A,113.786,23.7479,广州市,从化良口,,27,24,21,17,15,85,,99,99,13,8,9,9,/,/
2026-01-08T1900,3446A,113.805,23.2614,广州市,增城荔城,,24,24,25,15,17,58,,98,94,34,16,6,7,0.5,0.4
2026-01-08T1900,2506A,109.604387,23.066791,贵港市,江南子站,颗粒物(PM10),51,51,90,26,60,94,,110,110,28,33,6,7,0.5,0.8
2026-01-08T1900,2508A,109.5669,23.1065,贵港市,荷城子站,颗粒物(PM10),53,56,54,29,41,82,,104,104,29,17,6,6,0.8,0.4
2026-01-08T1900,3405A,109.5886,23.1172,贵港市,新世纪学校,"颗粒物(PM10),细颗粒物(PM2.5)",52,53,60,36,44,84,,106,106,31,17,/,/,0.5,0.5
2026-01-08T1900,4260A,109.5933,23.095,贵港市,中山路155-3号,,43,37,53,30,46,100,,111,111,23,19,/,/,0.5,0.6
2026-01-08T1900,1439A,106.6863,26.6035,贵阳市,马鞍山,,42,39,47,29,41,76,,94,94,22,15,9,9,/,/
2026-01-08T1900,1441A,106.6241,26.6266,贵阳市,鉴湖路,颗粒物(PM10),51,51,52,27,32,89,,97,96,28,19,8,6,0.5,0.5
2026-01-08T1900,1442A,106.7468,26.6344,贵阳市,燕子冲,细颗粒物(PM2.5),58,53,56,41,50,83,,98,98,26,17,10,11,0.5,0.6
2026-01-08T1900,1443A,106.6556,26.4362,贵阳市,碧云窝,,46,46,61,29,41,89,,93,93,15,17,8,10,/,/
2026-01-08T1900,1445A,106.6963,26.6063,贵阳市,红边门,颗粒物(PM10),51,51,54,34,45,71,,80,80,41,19,15,13,/,/
2026-01-08T1900,1446A,106.7162383,26.56964667,贵阳市,新华路,颗粒物(PM10),63,75,65,36,44,69,,94,94,44,19,18,12,0.7,0.6
2026-01-08T1900,1447A,106.6742,26.542,贵阳市,太慈桥,,44,44,50,22,38,73,,84,84,42,22,5,7,/,/
2026-01-08T1900,4230A,106.688212,26.56952,贵阳市,花果园大街66号,,46,46,46,26,30,72,,81,81,45,20,10,8,/,/
2026-01-08T1900,4231A,106.687268,26.516892,贵阳市,漓江路57号,细颗粒物(PM2.5),55,53,53,39,41,68,,90,90,48,22,15,12,0.8,0.7
2026-01-08T1900,1864A,110.3091,25.2705,桂林市,龙隐路小学,,33,33,40,23,35,73,,96,95,16,14,8,9,0.2,0.2
2026-01-08T1900,1865A,110.2849361,25.22909545,桂林市,八中,,35,34,42,24,35,79,,90,90,23,23,8,10,0.3,0.4
2026-01-08T1900,3531A,110.296,25.1254,桂林市,旅游学院,细颗粒物(PM2.5),85,75,39,63,32,68,,102,100,35,21,7,6,0.4,0.5
2026-01-08T1900,4222A,110.1835,25.2444,桂林市,环湖路276号,,36,36,40,24,31,76,,91,91,21,22,10,17,0.4,0.5
2026-01-08T1900,4301A,110.2803,25.2773,桂林市,信义路13号,,29,29,38,16,32,82,,96,96,22,18,6,9,0.4,0.5
2026-01-08T1900,2674A,100.2262,34.4854,果洛藏族自治州,玛沁县大武镇,颗粒物(PM10),55,59,34,10,10,96,,91,91,2,5,9,17,0.4,0.4
2026-01-08T1900,1130A,126.5557,45.8109,哈尔滨市,松北商大,,42,42,37,24,28,47,,46,46,19,26,8,7,0.5,0.6
2026-01-08T1900,1132A,126.6162,45.719,哈尔滨市,南岗学府路,,44,44,35,30,25,40,,42,42,26,21,11,12,0.8,0.7
2026-01-08T1900,1133A,126.6894,45.7733,哈尔滨市,太平宏伟公园,,45,40,39,31,27,45,,48,47,22,23,15,20,0.6,0.6
2026-01-08T1900,1134A,126.6361,45.7672,哈尔滨市,道外承德广场,颗粒物(PM10),61,72,50,39,26,38,,44,44,44,30,29,16,0.9,0.9
2026-01-08T1900,1136A,126.644,45.7261,哈尔滨市,动力和平路,细颗粒物(PM2.5),52,52,41,36,28,43,,44,44,22,25,12,11,0.7,0.7
2026-01-08T1900,1137A,126.5933,45.7479,哈尔滨市,道里建国路,细颗粒物(PM2.5),53,43,36,37,29,38,,39,39,32,26,25,11,0.8,0.8
2026-01-08T1900,1138A,126.6127,45.6119,哈尔滨市,平房东轻厂,,45,36,43,31,33,45,,50,50,16,30,8,7,0.6,0.7
2026-01-08T1900,1139A,126.5875,45.9827,哈尔滨市,呼兰师专,细颗粒物(PM2.5),57,51,36,40,35,36,,40,38,30,25,11,11,0.7,0.7
2026-01-08T1900,1140A,126.6299,45.6799,哈尔滨市,省农科院,,48,47,40,33,31,32,,40,38,41,35,13,12,0.4,0.4
2026-01-08T1900,4282A,126.6769,45.7379,哈尔滨市,华山路1号,,46,46,38,31,28,44,,45,45,22,26,20,21,0.6,0.6
2026-01-08T1900,4283A,126.9717,45.5356,哈尔滨市,解放大街52号,,26,22,40,18,35,61,,59,59,11,19,12,11,0.6,0.7
2026-01-08T1900,2688A,93.5124,42.8176,哈密市,地区监测站,颗粒物(PM10),81,111,87,58,40,32,,45,44,22,19,2,2,0.7,0.5
2026-01-08T1900,2689A,93.5014,42.8312,哈密市,哈密师范学校,颗粒物(PM10),75,99,90,29,31,34,,43,43,24,31,6,5,0.5,0.7
2026-01-08T1900,2671A,100.9016,36.9464,海北藏族自治州,海晏县西海镇,颗粒物(PM10),79,107,24,21,14,88,,78,78,1,4,6,7,0.3,0.4
2026-01-08T1900,3867A,102.074,36.5056,海东市,平安区公安局北苑,颗粒物(PM10),65,79,49,18,32,47,,60,60,35,19,37,21,1.0,1
2026-01-08T1900,4163A,102.0984,36.5119,海东市,滨河路,颗粒物(PM10),65,79,47,40,31,39,,62,62,55,35,41,20,1.1,0.9
2026-01-08T1900,1410A,110.3189,20.0596,海口市,海南大学,,39,30,36,17,23,124,,117,117,8,10,7,8,0.2,0.2
2026-01-08T1900,1411A,110.2827,20.0051,海口市,秀英海南医院,,,40,41,16,24,122,,109,109,,19,9,10,0.3,0.3
2026-01-08T1900,1412A,110.3391,19.9979,海口市,海南师范大学,,40,32,38,16,24,125,,120,120,11,17,8,8,0.3,0.4
2026-01-08T1900,1413A,110.3303,20.0359,海口市,龙华路环保局宿舍,,,,36,,23,,,118,118,,13,,,,0.4
2026-01-08T1900,3539A,110.5111,19.9737,海口市,桂林洋子站,,36,35,35,19,22,114,,116,116,14,13,/,/,/,/
2026-01-08T1900,4134A,110.1952,20.0451,海口市,长滨二路9号,,37,24,35,17,25,118,,110,110,6,11,/,/,/,/
2026-01-08T1900,2673A,100.6158,36.2985,海南藏族自治州,共和县恰卜恰镇,颗粒物(PM10),154,257,38,14,17,91,,79,79,4,21,10,13,0.2,0.4
2026-01-08T1900,2676A,97.373,37.376,海西蒙古族藏族自治州,德令哈市,,29,13,16,6,10,91,,80,80,4,5,11,12,0.5,0.5
2026-01-08T1900,1049A,114.492,36.5712,邯郸市,矿院,细颗粒物(PM2.5),70,68,73,51,58,63,,67,67,19,41,4,5,0.5,0.7
2026-01-08T1900,1050A,114.4839,36.6136,邯郸市,丛台公园,细颗粒物(PM2.5),67,61,65,48,45,64,,68,68,23,43,7,7,0.5,0.7
2026-01-08T1900,3458A,114.7893,36.5592,邯郸市,香泉濮院小区,细颗粒物(PM2.5),79,102,71,58,47,62,,77,77,25,36,6,8,0.6,0.7
2026-01-08T1900,3580A,114.1998,36.4439,邯郸市,峰峰矿区临水派出所,,,58,50,,36,75,,79,79,18,19,9,11,0.6,0.7
2026-01-08T1900,4068A,114.5209,36.7697,邯郸市,建安街268号,细颗粒物(PM2.5),68,78,87,49,52,56,,54,54,24,51,6,6,0.4,0.7
2026-01-08T1900,4069A,114.5488,36.6177,邯郸市,丛台东路558号,细颗粒物(PM2.5),87,84,76,64,50,34,,62,62,46,54,7,8,0.6,0.8
2026-01-08T1900,2635A,107.0155,33.0707,汉中市,市监测站,细颗粒物(PM2.5),73,56,83,53,77,36,,69,69,71,41,8,6,1.2,1.2
2026-01-08T1900,2636A,107.0083,33.114,汉中市,鑫源开发区,细颗粒物(PM2.5),84,,76,62,72,64,,76,76,49,39,8,7,0.7,0.8
2026-01-08T1900,2637A,107.0072,33.0323,汉中市,南郑大河坎水厂,细颗粒物(PM2.5),74,65,91,54,73,36,,70,70,57,31,9,7,1.1,1
2026-01-08T1900,1223A,120.2073,30.2111,杭州市,滨江,细颗粒物(PM2.5),100,119,70,75,41,52,,70,70,45,51,10,7,0.7,0.6
2026-01-08T1900,1224A,120.0625,30.2737,杭州市,西溪,细颗粒物(PM2.5),84,86,47,62,32,50,,81,80,39,38,10,10,1.1,0.8
2026-01-08T1900,1226A,120.3417,30.315,杭州市,下沙,细颗粒物(PM2.5),92,91,59,68,40,50,,76,75,58,57,12,10,0.6,0.7
2026-01-08T1900,1227A,120.1252,30.2465,杭州市,卧龙桥,细颗粒物(PM2.5),62,71,44,44,30,33,,84,79,46,27,10,10,0.6,0.4
2026-01-08T1900,1228A,120.1902,30.2691,杭州市,浙江农大,细颗粒物(PM2.5),102,115,71,76,46,56,,78,78,47,54,10,7,0.6,0.6
2026-01-08T1900,1230A,120.1195,30.3121,杭州市,和睦小学,颗粒物(PM10),83,116,63,57,41,58,,80,80,44,49,9,6,0.7,0.7
2026-01-08T1900,1231A,120.3076,30.4146,杭州市,临平镇,细颗粒物(PM2.5),89,105,66,66,38,66,,79,79,31,29,10,9,0.6,0.5
2026-01-08T1900,1232A,120.2753,30.1839,杭州市,城厢镇,,,,62,,36,56,,85,81,42,52,12,9,0.6,0.6
2026-01-08T1900,1233A,120.0883,30.1808,杭州市,云栖,颗粒物(PM10),56,62,43,36,27,48,,82,79,29,24,4,5,0.5,0.5
2026-01-08T1900,3557A,119.9463,30.0496,杭州市,镇二中,细颗粒物(PM2.5),69,72,48,50,40,49,,73,73,45,44,6,6,0.8,0.7
2026-01-08T1900,3558A,119.7184,30.2367,杭州市,市府大楼,颗粒物(PM10),61,72,52,41,36,67,,81,81,25,23,12,11,0.6,0.6
2026-01-08T1900,3656A,120.1554,30.2863,杭州市,消防大队,细颗粒物(PM2.5),92,90,55,68,40,52,,76,76,45,44,10,8,0.6,0.5
2026-01-08T1900,1270A,117.1957,31.7845,合肥市,明珠广场,颗粒物(PM10),79,107,82,56,41,20,,50,50,89,78,8,8,0.9,0.8
2026-01-08T1900,1271A,117.307,31.8765,合肥市,三里街,细颗粒物(PM2.5),77,100,72,56,38,13,,52,51,91,61,8,8,0.9,0.8
2026-01-08T1900,1272A,117.2587,31.8703,合肥市,琥珀山庄,细颗粒物(PM2.5),77,100,70,56,41,19,,66,63,85,53,9,9,1.1,0.9
2026-01-08T1900,1275A,117.2593,31.9376,合肥市,庐阳区,颗粒物(PM10),74,97,76,48,37,39,,74,73,70,47,8,7,0.8,0.7
2026-01-08T1900,1276A,117.345251,31.861615,合肥市,瑶海区,颗粒物(PM10),85,119,71,56,39,8,,56,53,107,55,8,7,0.7,0.6
2026-01-08T1900,1277A,117.3033,31.7967,合肥市,包河区,颗粒物(PM10),81,112,76,58,42,20,,50,50,94,74,9,9,1.0,0.9
2026-01-08T1900,1278A,117.278,31.7392,合肥市,滨湖新区,细颗粒物(PM2.5),70,80,82,51,51,62,,60,60,43,66,5,6,1.0,0.9
2026-01-08T1900,1279A,117.1324,31.8395,合肥市,高新区,,,88,67,46,35,,,80,80,62,51,6,6,0.6,0.6
2026-01-08T1900,3464A,117.3802,31.9148,合肥市,高教基地,,,95,73,59,43,30,,70,67,53,48,8,8,,0.7
2026-01-08T1900,4098A,117.2518,31.8404,合肥市,中国科学技术大学,颗粒物(PM10),68,85,65,42,34,44,,68,68,63,47,10,10,0.7,0.6
2026-01-08T1900,3614A,79.9241,37.0878,和田地区,地区环保局,颗粒物(PM10),59,68,94,26,54,69,,56,56,10,35,2,5,0.5,0.8
2026-01-08T1900,3615A,79.9132,37.1137,和田地区,市环保局,颗粒物(PM10),53,55,81,23,39,72,,56,56,16,42,1,4,0.4,1.3
2026-01-08T1900,2517A,108.0496,24.6957,河池市,市环保站,,29,,40,20,26,85,,92,92,14,23,5,3,0.6,0.6
2026-01-08T1900,4302A,108.0901,24.6945,河池市,上任中路54号,,50,,48,35,33,74,,84,84,18,30,9,6,0.6,0.7
2026-01-08T1900,1697A,114.6962,23.7538,河源市,东埔,,29,23,25,20,21,89,,104,103,20,16,6,8,0.5,0.5
2026-01-08T1900,1698A,114.6895,23.7232,河源市,老城,,46,46,32,18,18,88,,92,,17,15,6,7,0.7,0.7
2026-01-08T1900,3374A,115.5562,35.089,菏泽市,定陶老年大学,"颗粒物(PM10),细颗粒物(PM2.5)",73,95,74,53,42,65,,74,73,26,32,5,9,0.4,0.7
2026-01-08T1900,4114A,115.4239,35.2593,菏泽市,黄河路600号,颗粒物(PM10),81,112,87,59,52,68,,74,74,26,40,4,6,0.6,0.7
2026-01-08T1900,4115A,115.5025,35.2727,菏泽市,菏泽市人社局,颗粒物(PM10),71,91,80,50,45,68,,71,71,24,39,5,8,0.5,0.6
2026-01-08T1900,4184A,115.479691,35.244011,菏泽市,永昌路1号,细颗粒物(PM2.5),83,99,82,61,48,61,,70,70,31,40,8,11,0.5,0.6
2026-01-08T1900,4193A,115.471542,35.280012,菏泽市,长城路999号,颗粒物(PM10),76,101,82,44,43,74,,77,77,23,40,6,10,0.5,0.7
2026-01-08T1900,2514A,111.5264,24.4178,贺州市,环保小区,,,43,46,20,36,,,97,97,25,22,6,8,0.4,0.4
2026-01-08T1900,2515A,111.561,24.4074,贺州市,政协大楼,,49,49,41,26,30,88,,100,100,24,29,8,9,0.6,0.6
2026-01-08T1900,3534A,111.4744,24.455,贺州市,西湾,,41,41,53,20,35,80,,89,89,26,27,9,8,0.4,0.5
2026-01-08T1900,2385A,114.17,35.9019,鹤壁市,市监测站,颗粒物(PM10),56,61,84,23,44,62,,62,62,28,30,1,7,0.5,0.7
2026-01-08T1900,2386A,114.2953,35.7512,鹤壁市,市交警支队,颗粒物(PM10),59,68,78,23,42,57,,60,60,25,34,4,6,0.5,0.7
2026-01-08T1900,2387A,114.2877,35.7302,鹤壁市,迎宾馆,颗粒物(PM10),65,80,83,32,42,59,,62,62,24,31,5,7,0.6,0.7
2026-01-08T1900,3474A,114.2616,35.6824,鹤壁市,大新区,颗粒物(PM10),53,56,79,20,39,45,,62,62,29,30,5,6,0.5,0.6
2026-01-08T1900,3596A,114.1573,35.9607,鹤壁市,南山宾馆,颗粒物(PM10),59,68,77,33,40,59,,64,64,22,19,6,9,0.5,0.7
2026-01-08T1900,2244A,130.2537,47.3416,鹤岗市,哈啤分公司,细颗粒物(PM2.5),94,,28,70,22,22,,66,47,43,11,8,7,0.9,0.4
2026-01-08T1900,2245A,130.2683,47.3087,鹤岗市,斯达机电,细颗粒物(PM2.5),62,53,29,44,20,35,,60,47,29,11,10,6,0.7,0.4
2026-01-08T1900,2246A,130.3114,47.3388,鹤岗市,东山纸板厂,细颗粒物(PM2.5),54,45,27,38,19,31,,54,45,35,15,15,9,0.6,0.8
2026-01-08T1900,2263A,127.4832,50.2524,黑河市,交通局,,42,42,21,27,17,26,,48,42,39,17,13,6,0.6,0.4
2026-01-08T1900,2264A,127.5146,50.2339,黑河市,环保局,,33,33,20,22,19,32,,45,38,19,18,9,9,0.9,0.5
2026-01-08T1900,1074A,115.6839,37.754,衡水市,电机北厂,颗粒物(PM10),73,96,61,50,31,62,,61,61,19,32,5,7,0.5,0.5
2026-01-08T1900,1075A,115.6303,37.7318,衡水市,市监测站,颗粒物(PM10),73,95,59,49,33,52,,58,58,29,46,7,10,0.5,0.6
2026-01-08T1900,3188A,115.6684,37.7216,衡水市,市城管局,颗粒物(PM10),71,92,67,47,36,56,,59,59,31,54,8,9,0.6,0.6
2026-01-08T1900,3459A,115.599,37.5491,衡水市,地表水厂,细颗粒物(PM2.5),70,83,69,51,44,38,,60,60,41,54,7,11,0.5,0.6
2026-01-08T1900,2457A,112.6209,26.9268,衡阳市,衡阳化工总厂,,48,45,58,33,46,80,,82,82,20,35,8,9,0.7,0.8
2026-01-08T1900,2458A,112.621,26.8957,衡阳市,珠晖区环保局,细颗粒物(PM2.5),53,49,64,37,54,48,,65,65,54,48,5,7,0.9,1.1
2026-01-08T1900,2459A,112.628,26.8654,衡阳市,市委党校,,50,,67,35,52,87,,88,88,20,38,10,11,0.6,1.1
2026-01-08T1900,2460A,112.6007,26.8977,衡阳市,市监测站,颗粒物(PM10),60,69,91,41,61,69,,77,77,35,45,7,8,1.2,1.3
2026-01-08T1900,2461A,112.5658,26.9013,衡阳市,真空机电公司,,40,39,71,28,47,69,,82,82,35,38,8,9,0.9,1
2026-01-08T1900,3399A,112.6703,26.8817,衡阳市,师范学院,,38,36,69,26,46,86,,88,88,25,37,3,5,0.6,0.9
2026-01-08T1900,3038A,103.3757,23.3679,红河哈尼族彝族自治州,州图书馆,,38,33,24,26,19,44,,41,41,9,8,6,7,0.6,0.6
2026-01-08T1900,4154A,103.401,23.3561,红河哈尼族彝族自治州,蒙自市朝阳路,,40,40,19,28,17,40,,42,42,6,6,4,4,0.6,0.6
2026-01-08T1900,1090A,111.6506,40.7517,呼和浩特市,呼市一监,颗粒物(PM10),76,102,98,46,60,9,,35,34,57,44,5,4,0.8,1.4
2026-01-08T1900,1094A,111.7516,40.8369,呼和浩特市,如意水处理厂,颗粒物(PM10),64,77,89,36,48,20,,37,35,56,51,11,11,0.4,0.8
2026-01-08T1900,1095A,111.727798,40.806187,呼和浩特市,二十九中,颗粒物(PM10),69,88,90,37,47,14,,37,35,54,43,12,13,0.7,0.6
2026-01-08T1900,1097A,111.717,40.7617,呼和浩特市,化肥厂生活区,颗粒物(PM10),70,90,95,40,52,19,,34,33,52,47,7,7,0.8,0.9
2026-01-08T1900,3699A,111.6519,40.8389,呼和浩特市,海东办,颗粒物(PM10),70,90,95,35,48,15,,39,38,56,45,8,6,0.8,0.8
2026-01-08T1900,4275A,111.591512,40.827312,呼和浩特市,成吉思汗西街8号,颗粒物(PM10),76,102,80,35,41,7,,34,33,62,42,7,5,0.7,0.7
2026-01-08T1900,4276A,111.6597,40.8077,呼和浩特市,公园东路75号,颗粒物(PM10),74,97,94,42,50,22,,35,34,52,47,7,8,0.6,0.6
2026-01-08T1900,4277A,111.5427,40.7846,呼和浩特市,金海路35号,颗粒物(PM10),74,97,102,36,56,14,,36,35,51,45,10,9,0.9,1.1
2026-01-08T1900,3061A,119.7511,49.1576,呼伦贝尔市,国华电力东,,39,32,21,27,17,56,,58,40,30,24,6,6,0.4,0.4
2026-01-08T1900,4279A,119.7569,49.2222,呼伦贝尔市,伊敏大街东7号,,40,34,29,28,20,53,,56,34,16,19,8,8,0.5,0.5
2026-01-08T1900,1250A,120.075,30.867,湖州市,城西水厂,细颗粒物(PM2.5),90,109,78,67,45,78,,78,78,31,50,13,14,0.6,0.6
2026-01-08T1900,2873A,120.083,30.8929,湖州市,仁皇山新区,细颗粒物(PM2.5),108,114,81,81,55,59,,71,71,50,55,13,15,0.8,0.7
2026-01-08T1900,2907A,120.1846,30.8592,湖州市,吴兴区站,细颗粒物(PM2.5),103,102,69,77,54,75,,74,74,37,42,9,10,0.7,0.7
2026-01-08T1900,3562A,120.4146,30.8538,湖州市,南浔区站,细颗粒物(PM2.5),98,106,69,73,51,73,,74,74,35,43,10,10,0.9,0.8
2026-01-08T1900,1607A,120.904878,40.721091,葫芦岛市,龙港区,颗粒物(PM10),55,60,62,24,32,47,,57,57,33,37,18,24,0.7,1
2026-01-08T1900,1608A,120.8382,40.7521,葫芦岛市,化工街,颗粒物(PM10),62,73,79,34,40,31,,50,47,47,43,30,42,0.6,0.9
2026-01-08T1900,1609A,120.8339,40.7078,葫芦岛市,新区,颗粒物(PM10),54,58,50,28,28,42,,53,53,39,46,12,17,0.7,0.9
2026-01-08T1900,1610A,120.8697,40.7679,葫芦岛市,东城区,颗粒物(PM10),60,70,60,36,37,31,,50,50,51,45,18,30,1.0,0.9
2026-01-08T1900,2483A,109.9297,27.5383,怀化市,河西地税局,颗粒物(PM10),54,58,54,36,45,40,,72,72,44,22,4,4,/,/
2026-01-08T1900,2484A,109.9783,27.5342,怀化市,市四医院,颗粒物(PM10),51,51,64,25,49,60,,72,72,18,27,10,11,0.5,0.7
2026-01-08T1900,2485A,109.9971,27.5579,怀化市,监测楼,,48,35,65,33,54,51,,79,79,31,30,4,4,0.3,0.3
2026-01-08T1900,1210A,119.0566,33.5991,淮安市,钵池山,细颗粒物(PM2.5),60,63,70,43,50,76,,80,80,24,43,10,10,0.4,0.5
2026-01-08T1900,1211A,119.0083,33.578,淮安市,北京南路,颗粒物(PM10),68,85,70,45,47,40,,65,64,49,42,10,10,0.6,0.7
2026-01-08T1900,1212A,118.9938,33.6083,淮安市,市监测站,细颗粒物(PM2.5),62,58,59,44,39,55,,72,72,39,41,12,12,0.8,0.9
2026-01-08T1900,1213A,119.135,33.5038,淮安市,楚州区监测站,细颗粒物(PM2.5),73,85,70,53,44,56,,71,71,41,42,10,11,0.6,0.7
2026-01-08T1900,3426A,118.8757,33.2897,淮安市,新华书店,,,89,77,54,51,54,,71,71,,42,,13,1.5,1.4
2026-01-08T1900,4092A,119.119691,33.550006,淮安市,枚皋中路89号,细颗粒物(PM2.5),65,67,70,47,48,62,,80,80,36,39,10,10,0.6,0.7
2026-01-08T1900,4206A,119.028838,33.631911,淮安市,承德北路606号,颗粒物(PM10),60,70,75,39,46,62,,74,74,32,44,10,11,0.6,0.7
2026-01-08T1900,2282A,116.8005,33.9749,淮北市,监测站,细颗粒物(PM2.5),70,77,86,51,53,55,,71,71,44,39,12,12,0.9,0.9
2026-01-08T1900,2283A,116.8094,33.9008,淮北市,烈山区政府,,,106,88,56,53,53,,73,70,,29,13,12,0.5,0.6
2026-01-08T1900,4017A,116.7926,33.9534,淮北市,市博物馆,"颗粒物(PM10),细颗粒物(PM2.5)",67,83,87,48,55,61,,72,71,36,38,8,9,0.7,0.7
2026-01-08T1900,4100A,116.8322,33.9884,淮北市,杜集区第一实验学校,颗粒物(PM10),66,81,89,46,52,52,,98,98,30,35,11,13,0.7,0.6
2026-01-08T1900,2277A,116.8304,32.7726,淮南市,潘集区政府,细颗粒物(PM2.5),107,132,96,80,63,55,,65,65,38,36,9,9,0.7,0.7
2026-01-08T1900,2279A,116.8569,32.5949,淮南市,谢家集区政府,颗粒物(PM10),71,92,92,35,38,87,,75,75,25,32,12,12,0.3,0.5
2026-01-08T1900,2280A,116.8279,32.6333,淮南市,八公山区政府,颗粒物(PM10),61,72,68,38,36,81,,71,71,24,26,9,10,0.5,0.5
2026-01-08T1900,2894A,117.0561,32.6536,淮南市,经济技术开发区消防队,,,,112,,58,,,62,62,48,42,8,11,0.6,0.6
2026-01-08T1900,3329A,117.011,32.5891,淮南市,山南新区,颗粒物(PM10),69,87,94,33,44,75,,70,70,32,33,5,7,0.5,0.6
2026-01-08T1900,4209A,117.003137,32.644456,淮南市,国庆中路369号,细颗粒物(PM2.5),73,92,80,53,56,45,,61,61,47,45,9,11,0.9,0.8
2026-01-08T1900,2446A,114.9021,30.474,黄冈市,职工中心,,48,48,49,23,32,70,,87,87,32,30,6,7,0.7,0.7
2026-01-08T1900,2929A,114.8858,30.4519,黄冈市,红卫路,颗粒物(PM10),51,51,49,32,34,73,,86,85,27,34,6,6,0.5,0.6
2026-01-08T1900,3398A,114.9134,30.4446,黄冈市,市林业局,颗粒物(PM10),51,52,54,18,33,88,,90,90,18,33,5,4,0.6,0.6
2026-01-08T1900,2672A,102.02,35.5101,黄南藏族自治州,同仁县隆务镇,,39,39,24,22,11,53,,63,63,14,7,13,11,0.7,0.4
2026-01-08T1900,2295A,118.2905,29.6965,黄山市,延安路89号,细颗粒物(PM2.5),59,59,32,42,25,80,,98,98,18,16,5,4,0.6,0.4
2026-01-08T1900,2297A,118.1369,30.2755,黄山市,黄山区政府5号楼,,48,48,36,24,25,67,,94,94,17,12,3,3,0.4,0.3
2026-01-08T1900,4210A,118.335445,29.720283,黄山市,滨江东路7-2号,细颗粒物(PM2.5),77,90,48,56,32,55,,89,89,29,17,/,/,/,/
2026-01-08T1900,2423A,115.0547,30.2332,黄石市,沈家营,,44,44,62,22,36,70,,82,82,26,38,5,7,1.1,1.2
2026-01-08T1900,2426A,114.899,30.211,黄石市,铁山,颗粒物(PM10),56,61,69,27,48,67,,83,83,13,36,6,7,0.6,0.6
2026-01-08T1900,2427A,115.0259,30.2108,黄石市,团城山,,48,48,64,20,39,84,,92,92,23,36,6,6,0.4,0.7
2026-01-08T1900,3149A,115.0174,30.1591,黄石市,笔架山北路,颗粒物(PM10),55,60,89,18,46,83,,85,85,12,31,6,7,0.9,1.1
2026-01-08T1900,4185A,115.078022,30.21118,黄石市,磁湖东路29号,细颗粒物(PM2.5),98,86,63,73,43,19,,68,68,80,41,7,7,1.6,1
2026-01-08T1900,1392A,114.4181,23.0528,惠州市,河南岸金山湖子站,,37,37,34,21,21,79,,91,91,29,24,7,7,0.5,0.6
2026-01-08T1900,1393A,114.4055,23.0824,惠州市,下埔横江三路子站,,29,29,32,16,20,86,,98,97,19,16,8,9,0.3,0.3
2026-01-08T1900,1395A,114.4645,22.7832,惠州市,惠阳区承修路船湖子站,,28,28,37,16,23,77,,98,97,27,22,7,8,0.6,0.4
2026-01-08T1900,1396A,114.5316,22.7423,惠州市,大亚湾管委会子站,,32,32,31,18,19,79,,93,93,23,13,7,7,0.2,0.3
2026-01-08T1900,3314A,114.4334,22.8134,惠州市,惠阳秋长,,36,36,41,16,22,94,,105,105,22,21,/,/,/,/
2026-01-08T1900,3452A,114.6521,22.7755,惠州市,大亚湾霞涌,,41,41,36,14,20,82,,97,97,19,13,/,/,/,/
2026-01-08T1900,4300A,114.4089,23.1147,惠州市,文华一路1号,,31,31,33,15,21,94,,106,106,21,18,/,/,/,/
2026-01-08T1900,2240A,130.9618,45.2926,鸡西市,环保局,,17,17,16,8,11,45,,55,53,14,6,7,6,0.5,0.4
2026-01-08T1900,2243A,130.9294,45.2959,鸡西市,第一中学,,33,25,13,23,9,61,,58,58,5,5,4,4,0.6,0.6
2026-01-08T1900,3707A,131.0069,45.2988,鸡西市,欧美日汽修厂,,,54,22,18,11,,,58,57,20,8,9,6,0.3,0.5
2026-01-08T1900,2367A,114.9753,27.0803,吉安市,红声器材厂,,46,46,52,22,30,95,,94,94,24,33,11,9,0.6,0.6
2026-01-08T1900,2369A,114.9903,27.1313,吉安市,市环境监测站,,,39,48,22,28,98,,97,97,,33,10,13,/,/
2026-01-08T1900,2370A,115.009527,27.096792,吉安市,青原区法院,颗粒物(PM10),51,52,46,30,27,62,,90,90,50,34,11,12,0.7,0.6
2026-01-08T1900,1772A,126.54,43.8622,吉林市,哈达湾,,36,35,51,25,30,56,,63,63,22,23,8,9,1.1,1.1
2026-01-08T1900,1773A,126.5843,43.8358,吉林市,东局子,,33,24,33,23,27,56,,55,55,14,24,6,4,0.7,1.1
2026-01-08T1900,1774A,126.5051,43.8243,吉林市,电力学院,,35,31,49,24,31,50,,55,55,23,25,13,11,0.7,0.9
2026-01-08T1900,1775A,126.6133,43.8971,吉林市,江北,,,38,50,22,35,,,58,58,11,20,8,7,0.9,1.4
2026-01-08T1900,1776A,126.5549,43.8304,吉林市,江南公园,,39,32,41,27,30,57,,60,60,18,24,10,14,0.6,0.7
2026-01-08T1900,2868A,126.4737,43.953,吉林市,九站,,36,36,42,25,31,57,,57,57,17,29,8,10,0.6,0.7
2026-01-08T1900,1299A,116.9866,36.6118,济南市,科干所,颗粒物(PM10),59,68,46,32,20,68,,70,70,23,34,9,12,0.8,0.8
2026-01-08T1900,1300A,116.9379,36.6652,济南市,农科所,颗粒物(PM10),63,76,58,32,21,60,,64,64,25,44,8,10,0.7,0.8
2026-01-08T1900,1301A,117.1265,36.6736,济南市,开发区,颗粒物(PM10),57,63,44,32,21,65,,72,72,30,41,7,5,0.8,0.7
2026-01-08T1900,1303A,117.0616,36.6865,济南市,省种子仓库,颗粒物(PM10),60,70,56,29,20,66,,71,71,27,45,7,6,0.8,0.7
2026-01-08T1900,1304A,116.9495185,36.644937,济南市,机床二厂,颗粒物(PM10),70,90,69,39,27,63,,67,67,32,46,14,22,0.8,1
2026-01-08T1900,1305A,117.0496,36.6629,济南市,市监测站,颗粒物(PM10),58,66,40,29,16,66,,70,70,21,28,7,5,0.6,0.6
2026-01-08T1900,1306A,116.7674,36.5458,济南市,长清党校,颗粒物(PM10),62,73,41,39,18,64,,70,70,26,39,10,8,0.8,0.7
2026-01-08T1900,1961A,117.5323,36.6865,济南市,东山小学,颗粒物(PM10),59,68,41,32,17,61,,74,71,31,34,8,5,0.9,0.8
2026-01-08T1900,3059A,117.7181,36.205,济南市,泰兴公司,细颗粒物(PM2.5),67,78,70,48,44,61,,71,71,35,48,8,9,0.7,0.9
2026-01-08T1900,3064A,117.6861,36.2172,济南市,莱芜战役纪念馆,细颗粒物(PM2.5),70,73,65,51,42,54,,64,64,38,46,10,12,0.5,0.7
2026-01-08T1900,3494A,117.1673,36.9782,济南市,济阳区政府,,,78,64,24,26,,,58,,36,44,9,12,0.5,0.5
2026-01-08T1900,3495A,117.1168,36.6299,济南市,锦屏中学,颗粒物(PM10),58,66,33,24,13,69,,74,73,26,22,4,4,0.6,0.6
2026-01-08T1900,4108A,117.7107,36.2385,济南市,山财大街5号,颗粒物(PM10),71,92,64,42,23,67,,75,75,28,36,20,11,0.9,0.7
2026-01-08T1900,4109A,116.9744,36.6889,济南市,无影山路12号,颗粒物(PM10),58,66,56,30,20,63,,68,68,24,42,11,13,0.1,0.3
2026-01-08T1900,1653A,116.6229,35.4288,济宁市,火炬城,细颗粒物(PM2.5),58,49,57,41,39,66,,76,76,23,36,4,8,0.4,0.5
2026-01-08T1900,3500A,116.5808,35.3703,济宁市,北湖一中,细颗粒物(PM2.5),59,52,52,42,39,67,,72,72,26,34,7,9,0.5,0.6
2026-01-08T1900,3501A,116.8251,35.5592,济宁市,服务中心,颗粒物(PM10),56,61,71,37,33,52,,63,63,38,53,12,14,0.6,0.8
2026-01-08T1900,3678A,116.5907,35.4054,济宁市,市第七中学,颗粒物(PM10),54,57,59,36,30,70,,77,77,25,34,7,11,0.6,0.6
2026-01-08T1900,4111A,116.6075,35.4566,济宁市,任和路,,,69,70,34,31,,,73,73,26,41,6,10,0.5,0.6
2026-01-08T1900,4112A,116.5648,35.3921,济宁市,文体南路1号,"颗粒物(PM10),细颗粒物(PM2.5)",59,67,61,42,28,70,,73,72,23,36,6,16,0.6,0.7
2026-01-08T1900,2255A,130.2749,46.8028,佳木斯市,佳纺,,42,42,24,25,16,48,,51,50,13,12,7,8,0.5,0.4
2026-01-08T1900,2257A,130.3258,46.7975,佳木斯市,环保局,,45,32,21,31,17,43,,52,50,20,14,9,8,0.4,0.7
2026-01-08T1900,4285A,130.363,46.806,佳木斯市,顺和街,,33,25,19,23,14,44,,45,44,16,15,10,10,0.5,0.4
2026-01-08T1900,4286A,130.3952,46.8268,佳木斯市,长安路196号,,45,36,19,31,13,44,,49,47,17,11,7,6,0.5,0.4
2026-01-08T1900,1252A,120.7439,30.778,嘉兴市,清河小学,细颗粒物(PM2.5),115,122,83,87,54,58,,77,77,54,51,10,9,0.8,0.8
2026-01-08T1900,1253A,120.7261,30.7477,嘉兴市,嘉兴学院,细颗粒物(PM2.5),108,122,74,81,49,59,,81,78,48,46,10,10,0.7,0.9
2026-01-08T1900,2872A,120.7845,30.7524,嘉兴市,南湖区残联,细颗粒物(PM2.5),115,127,74,87,53,67,,88,88,58,48,8,7,0.9,0.8
2026-01-08T1900,3407A,120.6915,30.7741,嘉兴市,秀洲住建,细颗粒物(PM2.5),120,128,84,91,58,63,,81,81,45,48,10,9,0.8,0.7
2026-01-08T1900,1945A,98.291,39.7705,嘉峪关市,气象局,颗粒物(PM10),65,80,42,31,21,70,,74,74,19,19,18,24,0.6,0.6
2026-01-08T1900,2884A,98.2672,39.7978,嘉峪关市,酒钢宾馆,,,,54,,26,,,71,71,17,17,18,27,0.5,0.7
2026-01-08T1900,3248A,98.2644,39.7723,嘉峪关市,雄关区,颗粒物(PM10),58,65,34,34,22,72,,77,76,19,21,14,21,0.6,0.4
2026-01-08T1900,1383A,113.1063,22.6058,江门市,北街,,33,33,38,20,22,84,,95,95,34,31,/,/,/,/
2026-01-08T1900,1384A,113.073,22.5835,江门市,西区,,41,41,44,28,25,70,,90,89,43,31,/,/,/,/
2026-01-08T1900,1385A,113.0218,22.531,江门市,圭峰西,,,,37,,26,,,100,,,30,,,,
2026-01-08T1900,1386A,113.0826,22.5947,江门市,东湖,,36,36,36,16,24,80,,94,94,34,32,8,8,0.5,0.4
2026-01-08T1900,3311A,113.1077,22.5647,江门市,江海富民,,36,36,43,10,22,82,,95,95,43,42,/,/,0.4,0.5
2026-01-08T1900,3449A,113.0496,22.4669,江门市,新会银湖,颗粒物(PM10),52,53,43,24,27,67,,88,88,40,37,8,8,0.4,0.4
2026-01-08T1900,3335A,113.3137,35.2643,焦作市,马村街道办,颗粒物(PM10),55,60,67,38,34,54,,70,70,29,20,9,8,0.5,0.5
2026-01-08T1900,3336A,113.2464,35.2374,焦作市,焦作技师学院,颗粒物(PM10),61,71,61,27,28,39,,73,70,48,21,9,9,0.5,0.4
2026-01-08T1900,3477A,113.1656,35.2536,焦作市,中站许衡医院,"颗粒物(PM10),细颗粒物(PM2.5)",53,56,55,37,30,59,,74,72,29,16,11,7,0.7,0.5
2026-01-08T1900,3981A,113.2456,35.18,焦作市,原李万街道办,颗粒物(PM10),76,102,74,34,28,35,,73,70,38,15,9,10,0.6,0.6
2026-01-08T1900,4264A,113.234,35.219,焦作市,新安路1731号,颗粒物(PM10),64,78,65,33,30,38,,71,68,43,20,5,5,0.6,0.5
2026-01-08T1900,4295A,113.2722,35.2121,焦作市,人民路3066号,颗粒物(PM10),51,52,69,23,27,44,,66,64,28,15,5,7,0.4,0.5
2026-01-08T1900,1708A,116.3701,23.5345,揭阳市,新兴,细颗粒物(PM2.5),54,49,61,38,40,81,,89,89,38,39,9,11,0.6,0.6
2026-01-08T1900,1709A,116.3261,23.5442,揭阳市,西马,颗粒物(PM10),53,55,60,31,32,82,,88,88,23,31,5,6,0.8,0.9
2026-01-08T1900,1710A,116.361,23.5627,揭阳市,东兴,颗粒物(PM10),54,57,60,31,32,67,,84,84,36,38,11,11,/,/
2026-01-08T1900,1711A,116.4151,23.5295,揭阳市,渔湖,颗粒物(PM10),63,75,66,21,41,90,,87,87,30,46,7,8,/,/
2026-01-08T1900,3320A,116.4028,23.5699,揭阳市,曲溪,颗粒物(PM10),56,61,61,17,39,84,,96,96,39,34,29,9,0.6,0.5
2026-01-08T1900,1944A,102.1691,38.5166,金昌市,天庆家园,颗粒物(PM10),52,53,57,23,26,57,,68,68,23,26,8,19,0.8,0.9
2026-01-08T1900,4022A,102.1648,38.5369,金昌市,金川区人防中心,,35,35,40,15,24,72,,70,70,13,19,5,14,0.6,0.9
2026-01-08T1900,4239A,102.193042,38.531887,金昌市,长春路96号,,,40,57,16,27,,,68,68,11,29,6,24,0.6,1.1
2026-01-08T1900,1262A,119.6478,29.0773,金华市,十五中,细颗粒物(PM2.5),62,71,58,44,39,61,,90,90,51,41,4,5,0.5,0.4
2026-01-08T1900,1263A,119.6859,29.1032,金华市,监测站,颗粒物(PM10),65,80,60,45,38,34,,74,74,77,45,5,4,0.4,0.4
2026-01-08T1900,3659A,119.656,29.1132,金华市,气象局,颗粒物(PM10),63,76,68,41,44,27,,79,77,79,54,3,4,0.6,1
2026-01-08T1900,1767A,121.1114,41.0879,锦州市,南山,细颗粒物(PM2.5),70,66,50,51,34,17,,55,50,62,33,14,16,0.9,0.9
2026-01-08T1900,1768A,121.060361,40.842794,锦州市,开发区,颗粒物(PM10),89,128,75,35,29,38,,52,50,42,41,19,27,0.6,0.9
2026-01-08T1900,1769A,121.1836,41.1118,锦州市,百股街道,颗粒物(PM10),61,72,46,41,25,25,,59,55,58,36,14,19,1.0,1
2026-01-08T1900,1770A,121.1176,41.1224,锦州市,天安街道,颗粒物(PM10),60,69,39,42,21,24,,62,57,57,25,15,13,1.2,0.7
2026-01-08T1900,1771A,121.1303,41.1385,锦州市,北湖公园,细颗粒物(PM2.5),59,66,42,42,22,22,,56,52,53,22,13,13,1.1,0.8
2026-01-08T1900,2160A,112.8496,35.5051,晋城市,自来水公司,,48,48,61,14,26,51,,68,67,36,21,5,6,0.8,0.8
2026-01-08T1900,2162A,112.8509,35.4886,晋城市,市环保局,,32,32,57,17,22,56,,77,76,41,20,4,5,0.6,0.6
2026-01-08T1900,3620A,112.8258,35.4804,晋城市,泽州一中,,36,36,61,3,20,79,,79,79,15,13,3,4,0.1,0.3
2026-01-08T1900,4078A,112.8246,35.5152,晋城市,前书院路,颗粒物(PM10),60,70,65,29,20,44,,71,69,39,18,4,5,0.5,0.4
2026-01-08T1900,4079A,112.8864,35.4773,晋城市,祥云街666号,,46,46,57,22,26,64,,76,76,29,22,4,5,0.3,0.4
2026-01-08T1900,2174A,112.6992,37.6984,晋中市,榆次区政府,颗粒物(PM10),67,83,94,33,41,55,,65,65,32,33,14,15,0.6,0.7
2026-01-08T1900,2865A,112.7195,37.683,晋中市,榆次三中,颗粒物(PM10),68,85,94,22,31,50,,64,64,29,27,13,14,0.7,0.9
2026-01-08T1900,4080A,112.7375,37.7215,晋中市,广安街188号,颗粒物(PM10),60,70,93,32,38,52,,61,61,34,35,14,11,0.4,0.5
2026-01-08T1900,4200A,112.7478,37.6954,晋中市,迎宾街26号,颗粒物(PM10),67,83,94,27,35,56,,65,65,31,32,14,15,0.7,0.7
2026-01-08T1900,2439A,112.2012,31.048,荆门市,竹园小学,,,91,60,37,40,,,89,89,20,33,2,2,0.3,0.4
2026-01-08T1900,2440A,112.1968,30.9892,荆门市,掇刀,"颗粒物(PM10),细颗粒物(PM2.5)",52,54,56,36,38,83,,97,97,26,28,5,5,0.5,0.5
2026-01-08T1900,3012A,112.1849,31.0361,荆门市,西山林语,,47,47,49,30,33,81,,92,92,23,20,6,6,0.3,0.3
2026-01-08T1900,3547A,112.1631,31.0134,荆门市,龙泉中学南校,颗粒物(PM10),56,62,53,31,36,86,,93,93,21,13,10,9,0.5,0.5
2026-01-08T1900,4124A,112.2213,31.0654,荆门市,新台西路6号,"颗粒物(PM10),细颗粒物(PM2.5)",62,73,75,44,58,79,,88,88,27,35,10,9,0.5,0.6
2026-01-08T1900,1844A,112.2493,30.3198,荆州市,市图书馆,,,,59,61,54,93,,96,96,,36,9,9,0.8,0.8
2026-01-08T1900,1845A,112.2009,30.3543,荆州市,市委党校,细颗粒物(PM2.5),80,74,67,59,57,71,,82,82,36,44,7,5,0.8,0.9
2026-01-08T1900,3194A,112.2749,30.3124,荆州市,管委会,细颗粒物(PM2.5),88,,57,65,56,88,,90,90,26,37,8,8,0.7,0.8
2026-01-08T1900,4268A,112.1722,30.3366,荆州市,学苑路85号,细颗粒物(PM2.5),70,61,60,51,54,100,,102,102,20,33,14,14,0.7,0.7
2026-01-08T1900,2343A,117.2114,29.2931,景德镇市,老干部活动中心,细颗粒物(PM2.5),52,45,46,36,36,72,,83,83,14,24,9,9,0.4,0.5
2026-01-08T1900,2344A,117.1893,29.2789,景德镇市,兽医站,细颗粒物(PM2.5),55,41,48,39,36,69,,89,89,22,27,10,10,0.9,0.9
2026-01-08T1900,2346A,117.246,29.2958,景德镇市,陶研所,细颗粒物(PM2.5),52,40,42,36,34,60,,84,84,15,23,3,3,0.4,0.4
2026-01-08T1900,4289A,117.154766,29.256967,景德镇市,青少年活动中心,颗粒物(PM10),56,62,52,34,32,50,,85,85,47,37,44,25,/,/
2026-01-08T1900,1803A,115.9873,29.6816,九江市,十里,颗粒物(PM10),59,67,55,41,40,35,,96,93,77,59,5,6,1.2,0.9
2026-01-08T1900,1804A,115.9583,29.7047,九江市,茅山头,颗粒物(PM10),57,64,54,36,35,43,,83,83,58,45,4,6,1.3,0.8
2026-01-08T1900,1805A,115.9877,29.7295,九江市,西园,颗粒物(PM10),54,58,54,36,36,42,,85,84,79,54,3,4,1.2,0.8
2026-01-08T1900,1808A,115.9112,29.6038,九江市,综合工业园,细颗粒物(PM2.5),70,87,62,51,49,55,,92,92,82,67,3,6,0.8,0.8
2026-01-08T1900,3190A,116.0254,29.6995,九江市,外国语学校,颗粒物(PM10),51,52,54,28,37,19,,78,74,88,55,8,10,0.8,0.9
2026-01-08T1900,4253A,116.010205,29.659402,九江市,莲花大道8号,颗粒物(PM10),53,56,58,27,41,39,,81,80,45,22,3,5,0.5,0.5
2026-01-08T1900,4240A,98.495752,39.733935,酒泉市,玉门东路5号,颗粒物(PM10),67,83,65,32,32,55,,63,63,22,25,13,13,0.7,0.7
2026-01-08T1900,4241A,98.5099,39.7506,酒泉市,北大街108号,,,75,63,37,32,52,,64,62,,28,12,12,0.7,0.8
2026-01-08T1900,2698A,76.0071,39.466,喀什地区,巡警大队,细颗粒物(PM2.5),97,107,128,72,88,60,,47,47,43,44,13,4,1.7,2.2
2026-01-08T1900,2699A,75.9756,39.4693,喀什地区,吾办,细颗粒物(PM2.5),89,98,131,66,104,63,,49,49,35,46,10,4,1.3,2.3
2026-01-08T1900,4027A,75.9485,39.4688,喀什地区,老干局,细颗粒物(PM2.5),74,94,167,54,112,73,,52,52,23,43,5,4,1.2,3.1
2026-01-08T1900,1824A,114.3389,34.778,开封市,肿瘤医院,细颗粒物(PM2.5),79,102,95,58,55,60,,65,65,32,44,6,7,0.6,0.8
2026-01-08T1900,1826A,114.2884,34.7966,开封市,世纪星幼儿园,细颗粒物(PM2.5),82,102,86,60,57,60,,65,65,34,42,5,5,0.5,0.6
2026-01-08T1900,3147A,114.3434,34.8101,开封市,龙亭公园,细颗粒物(PM2.5),82,98,90,60,59,63,,66,66,38,52,9,10,0.4,0.5
2026-01-08T1900,3210A,114.3645,34.7955,开封市,汴京公园,细颗粒物(PM2.5),79,106,102,58,58,56,,61,61,39,46,6,7,0.6,0.7
2026-01-08T1900,3473A,114.2485,34.8306,开封市,技师学院,颗粒物(PM10),69,87,80,47,45,66,,68,68,26,39,8,8,0.7,0.7
2026-01-08T1900,3592A,114.4518,34.7503,开封市,祥符区生态环境局,颗粒物(PM10),97,144,93,64,60,52,,66,66,47,47,6,8,0.6,0.7
2026-01-08T1900,1951A,84.886,45.6029,克拉玛依市,长征新村,细颗粒物(PM2.5),119,135,146,90,107,65,,46,46,30,32,5,4,0.8,0.9
2026-01-08T1900,1952A,84.8894,45.5827,克拉玛依市,南林小区,细颗粒物(PM2.5),102,132,143,76,85,65,,45,45,,22,4,4,1.2,1.3
2026-01-08T1900,1954A,84.896,44.3328,克拉玛依市,独山子区,,31,31,82,21,54,68,,68,68,14,31,5,5,0.5,0.8
2026-01-08T1900,1955A,85.6888,46.0909,克拉玛依市,乌尔禾区商贸楼,细颗粒物(PM2.5),195,156,120,146,103,59,,53,53,35,35,5,5,1.2,1.2
2026-01-08T1900,3612A,85.1045,45.6895,克拉玛依市,白碱滩区新站,细颗粒物(PM2.5),144,148,159,110,117,55,,39,39,21,22,7,7,1.0,1
2026-01-08T1900,2697A,76.1457,39.7143,克孜勒苏柯尔克孜自治州,市人民政府,细颗粒物(PM2.5),69,72,85,50,55,89,,70,70,13,15,2,5,0.6,0.4
2026-01-08T1900,3665A,76.1654,39.7157,克孜勒苏柯尔克孜自治州,克州文化中心,细颗粒物(PM2.5),67,64,74,48,57,87,,63,63,11,19,4,3,0.7,0.9
2026-01-08T1900,1450A,102.8203,24.889,昆明市,呈贡新区,,31,31,25,16,19,30,,29,29,21,17,3,2,0.4,0.5
2026-01-08T1900,1452A,102.7253,25.0904,昆明市,龙泉镇,,50,50,34,31,28,6,,28,20,32,19,2,2,1.1,0.9
2026-01-08T1900,1453A,102.7267,25.0378,昆明市,东风东路,,46,46,44,30,34,21,,24,19,26,29,4,3,0.7,0.7
2026-01-08T1900,1454A,102.6744,25.0671,昆明市,金鼎山,颗粒物(PM10),54,58,44,26,27,12,,25,19,32,25,2,2,1.0,0.9
2026-01-08T1900,1455A,102.6643,25.0401,昆明市,碧鸡广场,,45,37,36,31,28,11,,22,17,37,29,2,3,0.7,0.6
2026-01-08T1900,3179A,102.7491,25.012,昆明市,官渡区博物馆,,39,39,38,25,30,27,,22,19,20,32,2,2,0.8,0.8
2026-01-08T1900,3375A,102.8016,24.8336,昆明市,青年创业园,,29,29,23,19,17,36,,34,34,11,10,2,2,0.7,0.7
2026-01-08T1900,3550A,102.8,24.9787,昆明市,昆明学院,,46,43,36,32,27,9,,23,18,40,26,2,2,1.0,0.9
2026-01-08T1900,3551A,102.5969,24.6738,昆明市,晋宁区生态环境分局,,,40,32,29,23,,,21,21,19,15,2,2,0.7,0.7
2026-01-08T1900,3552A,102.6673,24.9861,昆明市,云天化总部,,,,36,,25,19,,21,19,26,28,,4,0.9,0.9
2026-01-08T1900,1456A,91.132,29.6515,拉萨市,八廓街,,27,16,30,7,18,85,,85,85,11,23,8,8,0.5,0.8
2026-01-08T1900,1457A,91.1221,29.6748,拉萨市,市环保局,,27,17,29,13,20,86,,80,80,11,21,8,8,0.7,1
2026-01-08T1900,1458A,91.0874,29.6476,拉萨市,区监测站,,25,13,19,6,10,78,,78,78,18,28,4,4,0.6,0.8
2026-01-08T1900,1459A,91.1774,29.6541,拉萨市,西藏大学,,26,19,25,7,12,82,,78,78,16,21,5,5,0.2,0.5
2026-01-08T1900,1460A,90.9798,29.6586,拉萨市,区辐射站,,30,30,44,9,23,84,,75,75,18,37,4,5,0.4,0.8
2026-01-08T1900,1461A,91.0831,29.6292,拉萨市,拉萨火车站,,26,14,22,6,10,82,,73,73,12,28,4,5,0.5,0.7
2026-01-08T1900,2520A,109.2203,23.7252,来宾市,来宾技工学校,,42,34,60,29,47,95,,100,100,13,20,7,9,0.4,0.6
2026-01-08T1900,3535A,109.1781,23.7293,来宾市,兴宾区政府,,31,31,54,20,42,97,,108,108,19,12,6,7,0.4,0.5
2026-01-08T1900,4002A,109.2312,23.7428,来宾市,中南小学,,43,43,62,28,48,83,,104,104,28,28,5,9,0.5,0.6
2026-01-08T1900,1479A,103.8309,36.0467,兰州市,铁路设计院,,,,,,,,,,,,,,,,
2026-01-08T1900,3241A,103.7439,36.0841,兰州市,百合公园,细颗粒物(PM2.5),74,94,83,54,60,12,,43,43,100,66,16,23,1.2,1.3
2026-01-08T1900,3242A,103.9613,35.9985,兰州市,和平,细颗粒物(PM2.5),102,96,76,76,61,47,,61,61,45,38,32,14,1.3,1.4
2026-01-08T1900,4236A,103.629272,36.093822,兰州市,庄浪东路808号,细颗粒物(PM2.5),85,94,86,63,57,23,,57,57,84,52,18,25,1.2,1.3
2026-01-08T1900,4237A,103.7251,36.104344,兰州市,安宁西路88号,细颗粒物(PM2.5),87,118,98,64,60,22,,56,56,102,69,17,24,1.6,1.3
2026-01-08T1900,4238A,103.846982,36.067567,兰州市,北滨河东路1号,,,,88,,54,,,52,52,89,71,19,16,1.3,1.7
2026-01-08T1900,1067A,116.6712,39.5109,廊坊市,药材公司,颗粒物(PM10),80,109,75,44,40,39,,45,45,32,53,4,4,0.7,0.8
2026-01-08T1900,1068A,116.7215,39.5592,廊坊市,开发区,颗粒物(PM10),80,110,79,43,40,35,,44,44,42,60,6,5,0.5,0.8
2026-01-08T1900,1070A,116.7246,39.5273,廊坊市,北华航天学院,颗粒物(PM10),81,112,85,40,47,38,,47,47,38,56,3,4,0.6,0.9
2026-01-08T1900,2919A,116.7022,39.5454,廊坊市,河北工业大学,颗粒物(PM10),86,121,71,48,40,39,,47,47,35,56,5,5,0.6,0.7
2026-01-08T1900,2536A,103.7629,29.5844,乐山市,牛耳桥,细颗粒物(PM2.5),77,65,61,56,49,65,,63,63,30,32,9,8,0.6,0.6
2026-01-08T1900,2537A,103.7501,29.6002,乐山市,市第三水厂,细颗粒物(PM2.5),69,66,65,50,51,62,,63,63,35,36,7,6,0.6,0.7
2026-01-08T1900,2538A,103.7571,29.5664,乐山市,市监测站,细颗粒物(PM2.5),74,67,65,54,50,68,,67,67,21,30,8,8,0.5,0.9
2026-01-08T1900,3361A,103.7313,29.563,乐山市,理工大学,细颗粒物(PM2.5),80,72,66,59,52,74,,64,64,15,29,6,5,0.4,0.6
2026-01-08T1900,2599A,100.2497,26.8802,丽江市,丽江古城,,31,31,30,10,16,78,,88,88,18,14,8,8,0.5,0.5
2026-01-08T1900,2600A,100.2203,26.8906,丽江市,市中心,,25,24,21,11,10,79,,90,90,18,15,7,7,0.4,0.4
2026-01-08T1900,1267A,119.9141,28.4513,丽水市,监测站大楼,细颗粒物(PM2.5),54,43,43,38,29,70,,84,84,23,32,6,9,0.4,0.4
2026-01-08T1900,1268A,119.93,28.4589,丽水市,莲都小学,,45,45,42,24,25,73,,85,85,24,29,/,/,/,/
2026-01-08T1900,1269A,119.8794,28.4232,丽水市,余庄前,,34,34,40,18,29,56,,81,81,15,24,5,5,0.3,0.3
2026-01-08T1900,1173A,119.1759,34.5885,连云港市,市环境监测站,细颗粒物(PM2.5),52,51,48,36,28,43,,57,57,39,41,17,15,0.9,0.9
2026-01-08T1900,3000A,119.3577,34.6971,连云港市,德源药业,颗粒物(PM10),62,73,74,19,23,15,,58,50,60,38,8,8,0.4,0.6
2026-01-08T1900,3007A,119.178,34.8442,连云港市,新城一中,,,57,63,37,27,,,64,64,,38,12,19,,1.2
2026-01-08T1900,3008A,119.3607,34.7519,连云港市,胡沟管理处,,31,31,31,19,16,36,,63,56,47,30,6,8,0.6,0.6
2026-01-08T1900,3009A,119.1478,34.5913,连云港市,矿山设计院,,41,41,51,24,25,49,,62,62,29,39,10,10,0.8,1
2026-01-08T1900,3434A,119.2414,34.6539,连云港市,工贸学校,,37,37,39,22,25,54,,60,60,19,24,14,14,0.7,0.7
2026-01-08T1900,3664A,119.4171,34.734,连云港市,连云街道,,27,27,31,14,17,60,,51,49,26,31,6,8,0.6,0.7
2026-01-08T1900,2573A,102.2629,27.8981,凉山彝族自治州,西昌市政府,,48,33,27,33,20,61,,66,66,16,8,4,4,0.7,0.6
2026-01-08T1900,2574A,102.2686,27.885,凉山彝族自治州,凉山州政府,,32,32,28,18,21,64,,65,65,13,10,7,6,0.6,0.2
2026-01-08T1900,4229A,102.2342,27.8859,凉山彝族自治州,凯乐南路30号,,50,50,30,31,16,53,,65,64,22,11,4,5,0.4,0.5
2026-01-08T1900,2212A,123.1978,41.2036,辽阳市,宏伟区,,40,40,54,22,20,68,,62,62,6,15,5,7,0.5,0.6
2026-01-08T1900,2213A,123.1684,41.2497,辽阳市,新华园,,39,39,69,14,26,62,,56,56,14,29,6,12,0.3,0.9
2026-01-08T1900,2214A,123.2355,41.2663,辽阳市,滨河路,,29,29,54,16,21,49,,50,50,15,20,29,13,0.4,0.5
2026-01-08T1900,4083A,123.153,41.2874,辽阳市,铁西路150号,,43,43,72,12,26,61,,55,55,12,32,7,13,0.5,0.9
2026-01-08T1900,2227A,125.1359,42.8845,辽源市,环保局,,35,27,135,24,42,50,,58,58,23,30,4,4,0.6,1.1
2026-01-08T1900,4085A,125.0998,42.9134,辽源市,安宁大街333号,,36,36,58,17,40,48,,14,,21,29,6,4,0.4,0.7
2026-01-08T1900,1625A,115.9789,36.4372,聊城市,区政府,颗粒物(PM10),76,101,61,48,28,67,,71,71,29,43,13,14,0.8,0.8
2026-01-08T1900,3200A,115.9772,36.4986,聊城市,监控中心,颗粒物(PM10),73,96,62,46,34,73,,74,74,25,46,12,15,0.6,0.6
2026-01-08T1900,3513A,116.0443,36.436,聊城市,九州社区,颗粒物(PM10),75,99,66,45,33,69,,79,79,18,34,5,11,0.6,0.5
2026-01-08T1900,4018A,116.0564,36.4609,聊城市,星美广场,颗粒物(PM10),73,96,65,38,28,70,,74,74,18,28,6,7,0.5,0.5
2026-01-08T1900,4113A,116.0091,36.4495,聊城市,利民路,颗粒物(PM10),68,86,52,44,27,68,,68,68,29,44,10,10,0.5,0.5
2026-01-08T1900,2632A,94.3683,29.6373,林芝市,林芝监测站,,25,,12,16,11,79,,86,85,7,3,4,3,0.3,0.3
2026-01-08T1900,2633A,94.3616,29.6634,林芝市,林芝人民医院,,22,20,15,11,9,69,,75,75,12,5,6,6,0.4,0.5
2026-01-08T1900,2603A,100.0779,23.8981,临沧市,市环保局,细颗粒物(PM2.5),63,45,39,45,44,49,,56,56,15,13,3,4,0.5,0.5
2026-01-08T1900,2604A,100.0894,23.882,临沧市,市气象局,,,57,36,39,24,,,56,56,10,12,6,6,0.5,0.5
2026-01-08T1900,1733A,111.5552,36.0791,临汾市,临钢医院,,,,85,,34,,,63,,,27,,7,,0.7
2026-01-08T1900,1734A,111.4984,36.0734,临汾市,技工学校,颗粒物(PM10),66,81,80,30,33,52,,63,63,29,20,9,7,0.9,0.7
2026-01-08T1900,1736A,111.5017,36.0857,临汾市,市委,颗粒物(PM10),65,79,84,24,24,58,,68,68,31,23,11,10,1.1,0.8
2026-01-08T1900,3018A,111.5048,36.1015,临汾市,唐尧大酒店,颗粒物(PM10),65,80,82,19,26,62,,70,70,28,22,6,6,0.8,0.8
2026-01-08T1900,4244A,111.4879,36.053,临汾市,启星学校,颗粒物(PM10),65,79,74,30,28,55,,67,67,41,31,11,9,1.3,1
2026-01-08T1900,4271A,103.2464,35.6123,临夏回族自治州,滨河东路1号,细颗粒物(PM2.5),103,116,148,77,83,26,,53,53,62,35,,5,1.4,1.6
2026-01-08T1900,4310A,103.207136,35.599807,临夏回族自治州,新华街21号,细颗粒物(PM2.5),84,107,127,62,87,34,,54,54,43,38,13,10,0.7,1.3
2026-01-08T1900,1618A,118.3429,35.0532,临沂市,沂河小区,细颗粒物(PM2.5),67,75,60,48,37,50,,62,62,43,45,20,16,0.7,0.8
2026-01-08T1900,1619A,118.2962,35.0568,临沂市,鲁南制药厂,细颗粒物(PM2.5),78,85,59,57,34,49,,62,62,48,44,25,19,0.6,0.7
2026-01-08T1900,1620A,118.2793,34.9976,临沂市,新光毛纺厂,颗粒物(PM10),64,78,59,45,36,51,,62,62,42,42,16,17,0.7,0.8
2026-01-08T1900,1621A,118.3955,35.0889,临沂市,河东保险公司,颗粒物(PM10),57,63,62,38,37,64,,69,69,32,45,14,14,0.7,0.8
2026-01-08T1900,3370A,118.3563,35.0215,临沂市,十里堡居委,颗粒物(PM10),74,97,62,53,28,37,,65,60,58,50,35,18,0.7,0.9
2026-01-08T1900,3496A,118.359,35.1067,临沂市,南坊新区,细颗粒物(PM2.5),64,66,58,46,35,65,,69,69,35,45,16,15,0.6,0.7
2026-01-08T1900,3860A,118.3915,35.0297,临沂市,皇山花园小区,,,,69,,36,62,,68,68,38,56,22,18,0.7,0.9
2026-01-08T1900,1870A,109.4854,24.3898,柳州市,柳东小学,,48,39,54,33,50,114,,111,111,13,12,12,11,0.5,0.5
2026-01-08T1900,1871A,109.4109,24.3304,柳州市,环保监测站,,48,48,80,21,61,88,,99,99,20,32,8,10,0.4,0.6
2026-01-08T1900,1872A,109.3886,24.3408,柳州市,河西水厂,,35,30,102,24,73,99,,105,105,17,36,7,16,0.4,0.7
2026-01-08T1900,1873A,109.4263,24.2951,柳州市,市四中,,45,39,72,31,55,62,,98,98,42,35,11,12,0.6,0.8
2026-01-08T1900,1874A,109.396,24.3658,柳州市,市九中,,,38,78,,66,99,,105,105,20,33,10,13,,0.8
2026-01-08T1900,1875A,109.4912,24.3164,柳州市,古亭山,颗粒物(PM10),52,54,46,26,31,58,,99,98,34,31,12,12,0.5,0.6
2026-01-08T1900,3402A,109.5422,24.3994,柳州市,市二中,,46,46,71,28,65,82,,103,103,28,31,11,9,0.5,0.7
2026-01-08T1900,2307A,116.5078,31.7369,六安市,监测大楼,颗粒物(PM10),57,64,52,36,31,60,,74,74,35,35,4,4,0.5,0.4
2026-01-08T1900,2308A,116.4738,31.7642,六安市,皖西学院,细颗粒物(PM2.5),77,85,56,56,31,64,,81,81,32,29,6,5,0.4,0.4
2026-01-08T1900,2309A,116.4997,31.7904,六安市,朝阳厂,颗粒物(PM10),61,72,54,41,31,52,,74,74,47,28,7,6,0.5,0.5
2026-01-08T1900,2310A,116.5566,31.7885,六安市,开发区,颗粒物(PM10),73,95,73,49,39,22,,71,68,63,45,5,5,0.5,0.5
2026-01-08T1900,2577A,104.8293,26.592,六盘水市,黄土坡,,50,50,28,29,20,64,,77,77,24,14,13,14,0.7,0.6
2026-01-08T1900,2579A,104.8481,26.5898,六盘水市,民中,,49,44,29,34,21,68,,78,78,22,14,8,9,0.6,0.6
2026-01-08T1900,2580A,104.9541,26.5506,六盘水市,双水,,41,41,34,27,22,77,,84,84,17,10,7,5,0.5,0.5
2026-01-08T1900,4151A,104.8899,26.5685,六盘水市,钟山大道中段564号,,46,46,39,30,23,81,,77,77,11,18,7,12,0.5,0.9
2026-01-08T1900,2336A,117.022,25.1031,龙岩市,龙岩市监测站,,29,18,28,14,18,92,,100,100,14,17,11,21,0.3,0.4
2026-01-08T1900,2337A,117.0257,25.0662,龙岩市,闽西职业技术学院,,29,13,39,13,19,92,,103,103,12,19,8,12,0.4,0.5
2026-01-08T1900,2338A,117.0195,25.0306,龙岩市,龙岩学院,,28,14,30,13,21,88,,97,97,8,14,8,10,/,/
2026-01-08T1900,2885A,104.9344,33.3827,陇南市,滨江中学,细颗粒物(PM2.5),149,207,88,114,49,7,,54,51,91,49,40,18,4.2,2.3
2026-01-08T1900,3247A,104.9551,33.3709,陇南市,市总工会,颗粒物(PM10),65,80,73,32,34,46,,55,55,27,36,9,10,0.8,0.9
2026-01-08T1900,2488A,111.9984,27.7346,娄底市,市监测站,,50,50,70,24,53,89,,95,95,23,34,7,16,0.8,1.3
2026-01-08T1900,2491A,111.9888,27.7035,娄底市,市政府,,33,33,63,19,48,88,,89,89,24,26,5,6,0.8,1
2026-01-08T1900,4127A,111.9812,27.7591,娄底市,涟钢职大,细颗粒物(PM2.5),74,74,62,54,37,77,,93,93,35,29,12,8,0.4,1.2
2026-01-08T1900,4128A,112.0303,27.7457,娄底市,娄底体校,,49,48,50,34,43,92,,90,90,16,20,4,4,0.4,0.7
2026-01-08T1900,1894A,105.4427,28.9063,泸州市,小市上码头,细颗粒物(PM2.5),84,87,80,62,57,73,,61,61,18,36,10,11,1.0,1.1
2026-01-08T1900,1895A,105.4241,28.8573,泸州市,兰田宪桥,细颗粒物(PM2.5),73,64,80,53,64,62,,64,64,32,27,8,9,1.0,1.1
2026-01-08T1900,1896A,105.4378,28.8833,泸州市,市环监站,细颗粒物(PM2.5),80,74,78,59,59,70,,66,66,32,38,8,10,0.9,1
2026-01-08T1900,4272A,105.3689,28.7783,泸州市,纳溪中医医院,细颗粒物(PM2.5),75,70,85,55,65,66,,60,60,22,26,8,8,0.8,0.9
2026-01-08T1900,2183A,111.1447,37.5212,吕梁市,环保局,颗粒物(PM10),77,104,97,37,39,4,,53,46,71,35,5,7,0.7,0.6
2026-01-08T1900,2185A,111.1285,37.5338,吕梁市,自来水公司,颗粒物(PM10),67,83,107,30,39,39,,52,52,32,29,4,6,0.5,0.5
2026-01-08T1900,2867A,111.1225,37.5093,吕梁市,马茂庄小学,,,112,113,42,39,,,49,49,68,37,10,9,,0.7
2026-01-08T1900,1812A,112.3934,34.6517,洛阳市,市委党校,颗粒物(PM10),57,64,61,24,27,27,,74,71,63,26,9,9,0.8,0.5
2026-01-08T1900,1815A,112.494,34.6883,洛阳市,河南林校,颗粒物(PM10),57,63,73,24,26,42,,73,72,47,29,10,10,0.8,0.6
2026-01-08T1900,1816A,112.3843,34.623,洛阳市,开发区管委会,,49,49,60,24,26,52,,72,71,48,25,24,12,0.4,0.4
2026-01-08T1900,1817A,112.4263,34.6249,洛阳市,市委新办公区,,49,49,61,22,31,57,,80,80,30,20,8,9,0.6,0.5
2026-01-08T1900,3340A,112.6005,34.6323,洛阳市,伊滨,,36,33,63,25,28,41,,75,74,40,17,6,7,0.3,0.4
2026-01-08T1900,3341A,112.495,34.6338,洛阳市,中移产业园,,43,43,63,21,28,71,,77,77,26,27,9,10,0.4,0.4
2026-01-08T1900,3593A,112.5736,34.8993,洛阳市,吉利监测站,,47,47,62,24,23,46,,83,81,48,30,7,7,0.8,0.6
2026-01-08T1900,3635A,112.3678,34.6623,洛阳市,河科大西苑校区,颗粒物(PM10),58,65,65,20,24,29,,78,74,57,23,8,9,0.7,0.5
2026-01-08T1900,3636A,112.4387,34.678,洛阳市,英才小学,颗粒物(PM10),52,54,68,23,32,34,,81,74,61,37,10,10,0.8,0.6
2026-01-08T1900,4214A,112.460027,34.694929,洛阳市,春都路1号院,,,62,77,20,27,,,80,80,38,27,9,9,0.8,0.7
2026-01-08T1900,2399A,114.051,33.5721,漯河市,三五一五工厂,颗粒物(PM10),72,93,89,50,48,52,,77,77,39,25,9,9,0.8,0.8
2026-01-08T1900,2400A,114.0055,33.5698,漯河市,漯河大学,,,87,81,41,38,,,79,79,20,33,7,8,0.6,0.7
2026-01-08T1900,2401A,114.0134,33.5826,漯河市,市水利局,颗粒物(PM10),70,90,86,41,46,60,,66,66,17,26,8,9,0.6,0.7
2026-01-08T1900,2402A,114.0261,33.5697,漯河市,市广电局,颗粒物(PM10),75,100,85,49,45,72,,84,84,24,26,9,9,0.7,0.7
2026-01-08T1900,3478A,113.9691,33.568,漯河市,市图书馆,颗粒物(PM10),71,92,92,38,48,46,,65,65,34,24,7,7,0.7,0.7
2026-01-08T1900,4250A,114.089259,33.588274,漯河市,韶山路11号,颗粒物(PM10),68,86,87,36,44,58,,71,71,33,31,8,9,0.4,0.5
2026-01-08T1900,1798A,118.5084,31.6838,马鞍山市,湖东路四小,颗粒物(PM10),77,104,78,51,41,22,,72,69,79,42,7,13,1.1,1
2026-01-08T1900,1799A,118.5019,31.6449,马鞍山市,开发区,细颗粒物(PM2.5),77,93,75,56,47,12,,80,72,90,48,6,9,0.6,0.7
2026-01-08T1900,3633A,118.4914,31.681,马鞍山市,雨山,颗粒物(PM10),65,80,80,46,47,50,,78,78,58,47,8,14,0.7,1
2026-01-08T1900,4191A,118.527362,31.722269,马鞍山市,慈湖高新区,细颗粒物(PM2.5),85,105,95,63,59,38,,76,74,64,47,7,19,0.6,0.8
2026-01-08T1900,1686A,111.0285,21.469,茂名市,电白南海,颗粒物(PM10),53,56,53,27,28,110,,116,116,22,22,11,17,0.5,0.5
2026-01-08T1900,1687A,110.9294,21.6533,茂名市,茂石化七小,颗粒物(PM10),56,61,52,29,31,97,,109,109,32,24,10,15,0.5,0.5
2026-01-08T1900,1688A,110.9108,21.6688,茂名市,健康路,细颗粒物(PM2.5),55,53,53,39,38,116,,120,120,28,30,13,27,0.6,0.7
2026-01-08T1900,1689A,110.8592,21.6826,茂名市,高岭,颗粒物(PM10),63,75,73,27,32,117,,117,117,22,32,17,19,/,/
2026-01-08T1900,3450A,111.0101,21.5165,茂名市,电白水东,,37,36,44,24,27,116,,114,114,12,16,9,14,/,/
2026-01-08T1900,2540A,103.8414,30.0871,眉山市,气象局,颗粒物(PM10),61,71,81,39,60,76,,72,72,34,36,10,9,0.5,0.6
2026-01-08T1900,3148A,103.829,30.0563,眉山市,区人社局,细颗粒物(PM2.5),62,54,76,44,57,58,,66,66,49,40,8,7,0.7,0.8
2026-01-08T1900,4148A,103.8836,30.0695,眉山市,眉职院,颗粒物(PM10),52,53,69,32,43,76,,71,71,20,31,2,2,0.5,0.6
2026-01-08T1900,1690A,116.1248,24.3307,梅州市,梅江月梅,,36,36,41,22,28,90,,94,94,16,32,/,/,/,/
2026-01-08T1900,1691A,116.0798,24.2719,梅州市,梅县新城,,,36,37,24,23,67,,87,87,33,34,7,7,,0.5
2026-01-08T1900,3315A,116.1234,24.2994,梅州市,梅龙,,39,39,37,16,20,66,,85,85,30,27,8,10,0.6,0.5
2026-01-08T1900,1878A,104.7775,31.4741,绵阳市,富乐山,细颗粒物(PM2.5),70,56,73,51,57,82,,77,77,11,33,11,11,0.3,0.7
2026-01-08T1900,1880A,104.6698,31.4668,绵阳市,高新区自来水公司,细颗粒物(PM2.5),64,60,112,46,66,70,,75,75,46,46,9,9,0.7,1
2026-01-08T1900,3491A,104.6899,31.5324,绵阳市,西科大附属小学,细颗粒物(PM2.5),99,91,103,74,65,64,,69,69,46,46,9,9,0.2,0.6
2026-01-08T1900,3492A,104.5647,31.5343,绵阳市,安州区旅游局,细颗粒物(PM2.5),79,64,88,58,64,82,,77,77,36,40,9,11,1.2,1.2
2026-01-08T1900,4146A,104.7092,31.4972,绵阳市,科技城新区公安局,细颗粒物(PM2.5),59,52,90,42,63,88,,76,76,27,50,4,4,0.8,0.8
2026-01-08T1900,4226A,104.765114,31.453094,绵阳市,绵阳市气象局,细颗粒物(PM2.5),55,57,85,39,61,79,,68,68,24,45,6,9,0.3,0.9
2026-01-08T1900,1784A,129.61,44.561,牡丹江市,环保大楼,,35,25,27,24,17,44,,58,54,21,12,2,3,0.4,0.3
2026-01-08T1900,1787A,129.6364,44.6075,牡丹江市,机车工厂,,47,47,32,31,18,27,,54,48,31,14,11,3,0.5,0.3
2026-01-08T1900,1788A,129.6386,44.5462,牡丹江市,第一中学,,45,45,23,29,22,34,,55,49,20,9,5,4,0.6,0.4
2026-01-08T1900,4287A,129.5992,44.5964,牡丹江市,东晓云街98号,,,90,37,,28,17,,54,46,42,12,15,4,1.1,0.5
2026-01-08T1900,2531A,105.0703,29.61,内江市,市监测站,,,,71,,66,,,92,85,,29,,5,,0.8
2026-01-08T1900,2533A,105.0657,29.5807,内江市,内江二中,细颗粒物(PM2.5),84,103,84,62,68,77,,76,76,40,39,5,5,0.9,0.9
2026-01-08T1900,2534A,105.0407,29.5828,内江市,内江日报社,细颗粒物(PM2.5),79,76,70,58,64,77,,79,79,50,37,3,3,0.7,0.7
2026-01-08T1900,4147A,105.0433,29.6105,内江市,玉峰路西段888号,细颗粒物(PM2.5),77,62,82,56,59,85,,84,84,42,33,3,3,0.8,0.7
2026-01-08T1900,2628A,92.0653,31.4846,那曲市,那曲监测站,,35,35,67,3,39,82,,76,76,9,29,5,11,0.7,1.5
2026-01-08T1900,4243A,92.0515,31.4787,那曲市,那曲市委宣传部,,28,17,39,3,21,89,,77,77,1,22,3,8,0.5,1.2
2026-01-08T1900,1291A,115.8887,28.7006,南昌市,省林业公司,颗粒物(PM10),57,63,62,39,35,79,,88,88,21,47,4,6,0.8,0.7
2026-01-08T1900,1292A,115.813,28.7443,南昌市,林科所,,44,44,42,29,28,69,,99,97,34,35,7,7,0.5,0.5
2026-01-08T1900,1294A,115.8518,28.687,南昌市,建工学校,,49,49,63,34,37,82,,90,90,19,37,13,14,0.6,0.8
2026-01-08T1900,1295A,115.8926,28.6425,南昌市,象湖,细颗粒物(PM2.5),58,43,64,41,41,73,,91,91,34,53,10,11,0.8,1
2026-01-08T1900,3046A,115.9084,28.6062,南昌市,机电学校,颗粒物(PM10),64,77,77,41,43,44,,94,87,65,53,6,7,0.6,0.7
2026-01-08T1900,3690A,115.9718,28.7032,南昌市,外国语学校,颗粒物(PM10),56,61,60,35,42,82,,98,98,35,55,12,13,0.6,0.6
2026-01-08T1900,4106A,115.7923,28.6873,南昌市,工业二路,,,,51,30,31,,,124,124,32,47,4,5,0.3,0.3
2026-01-08T1900,4192A,115.931587,28.686774,南昌市,南京东路235号,颗粒物(PM10),54,57,61,37,42,73,,96,96,52,54,6,7,0.5,0.5
2026-01-08T1900,1906A,106.0791,30.8022,南充市,南充市委,细颗粒物(PM2.5),102,91,96,76,74,20,,61,61,101,42,5,5,1.2,0.9
2026-01-08T1900,1907A,106.1038,30.8215,南充市,南充炼油厂,细颗粒物(PM2.5),102,110,98,76,72,,,73,73,78,38,6,6,0.9,0.7
2026-01-08T1900,4227A,106.108336,30.788436,南充市,梨树横街98号,细颗粒物(PM2.5),79,84,85,58,61,65,,75,75,63,39,8,7,1.0,0.9
2026-01-08T1900,4304A,106.1172,30.843,南充市,清泉寺北路188号,细颗粒物(PM2.5),95,,74,71,66,100,,83,83,31,29,7,6,0.5,0.5
2026-01-08T1900,4305A,106.067,30.7616,南充市,同庆路1号,细颗粒物(PM2.5),85,88,81,63,64,11,,71,70,96,39,7,7,1.4,1.1
2026-01-08T1900,1151A,118.8033,32.1085,南京市,迈皋桥,细颗粒物(PM2.5),73,86,73,53,47,28,,78,75,61,32,4,4,1.2,0.8
2026-01-08T1900,1152A,118.7487,32.057,南京市,草场门,细颗粒物(PM2.5),79,100,86,58,48,31,,66,65,66,44,8,10,0.7,0.5
2026-01-08T1900,1154A,118.770105,32.004342,南京市,中华门,颗粒物(PM10),68,85,76,44,46,50,,68,68,37,39,5,5,0.7,0.6
2026-01-08T1900,1155A,118.8059,32.0329,南京市,瑞金路,细颗粒物(PM2.5),83,95,82,61,51,23,,61,59,74,53,4,4,1.2,1
2026-01-08T1900,1156A,118.7946,32.0774,南京市,玄武湖,颗粒物(PM10),65,79,75,42,46,21,,64,62,27,28,4,4,1.1,0.8
2026-01-08T1900,1157A,118.6415,32.0964,南京市,浦口,颗粒物(PM10),69,88,86,48,49,64,,71,71,26,25,9,11,0.4,0.6
2026-01-08T1900,1158A,118.730129,32.000956,南京市,奥体中心,细颗粒物(PM2.5),79,96,77,58,48,33,,81,75,68,48,7,8,0.9,0.6
2026-01-08T1900,1159A,118.9072,32.1047,南京市,仙林大学城,"颗粒物(PM10),细颗粒物(PM2.5)",64,78,84,46,48,35,,65,65,54,50,8,9,1.0,1
2026-01-08T1900,3422A,118.8443,31.919,南京市,江宁彩虹桥,颗粒物(PM10),63,75,70,41,43,23,,67,65,59,40,4,5,0.6,0.6
2026-01-08T1900,3427A,118.8497,32.3599,南京市,六合雄州,细颗粒物(PM2.5),70,80,76,51,49,37,,78,76,60,34,10,9,0.8,0.8
2026-01-08T1900,4086A,118.7641,32.0841,南京市,新模范马路66号,,,73,87,49,54,,,67,67,,40,4,9,,1
2026-01-08T1900,4249A,118.8707617,31.34017673,南京市,汶溪路181号,细颗粒物(PM2.5),84,80,59,62,45,68,,73,73,40,43,8,8,0.8,0.7
2026-01-08T1900,4312A,119.019,31.6512,南京市,中山西路1号,细颗粒物(PM2.5),82,90,62,60,49,10,,61,58,67,32,4,4,1.0,0.6
2026-01-08T1900,1401A,108.3098,22.788,南宁市,二十一中,细颗粒物(PM2.5),52,42,52,36,41,78,,83,83,16,31,5,10,0.4,0.5
2026-01-08T1900,1402A,108.3135,22.8529,南宁市,北湖,,39,39,57,25,38,88,,93,93,19,46,5,7,0.6,0.7
2026-01-08T1900,1403A,108.3205,22.8222,南宁市,市监测站,,41,41,52,27,36,82,,89,89,23,38,8,13,0.6,0.7
2026-01-08T1900,1404A,108.3828,22.8038,南宁市,大自然花园,,42,42,48,29,34,83,,93,93,23,26,7,9,0.6,0.6
2026-01-08T1900,1406A,108.2397,22.8462,南宁市,区农职院,,43,,45,30,34,73,,93,93,31,29,9,15,0.7,0.7
2026-01-08T1900,1407A,108.3285,22.7356,南宁市,英华嘉园,细颗粒物(PM2.5),57,,50,40,40,79,,90,90,25,29,5,7,0.7,0.6
2026-01-08T1900,3401A,108.4829,22.762,南宁市,红星社区,,48,42,47,33,35,105,,104,104,10,25,7,8,0.6,0.6
2026-01-08T1900,4132A,108.2927,23.1477,南宁市,起凤路9号,,43,43,58,29,48,69,,94,94,29,26,2,3,0.5,0.6
2026-01-08T1900,4221A,108.2177,22.7774,南宁市,乐贤路16号,,50,48,57,35,35,67,,90,90,40,35,4,4,0.4,0.5
2026-01-08T1900,2332A,118.1682,26.6371,南平市,南平市监测站,,,44,36,33,27,,,90,90,31,29,5,4,0.8,0.5
2026-01-08T1900,2334A,118.1757,26.6276,南平市,南平七中,,25,17,38,17,26,64,,89,89,25,23,6,5,0.6,0.5
2026-01-08T1900,1168A,120.9056,31.9669,南通市,狼山街道,细颗粒物(PM2.5),85,84,84,63,62,58,,78,78,17,36,2,3,0.5,0.5
2026-01-08T1900,1170A,120.8635,32.0231,南通市,城中,细颗粒物(PM2.5),95,114,97,71,64,48,,72,71,46,54,6,6,0.7,0.7
2026-01-08T1900,1171A,120.9376,31.9301,南通市,星湖花园,细颗粒物(PM2.5),85,93,85,63,58,63,,82,82,29,44,5,5,0.5,0.6
2026-01-08T1900,1172A,120.8053,32.046,南通市,紫琅学院,细颗粒物(PM2.5),105,120,109,79,73,28,,80,74,67,54,5,6,,0.8
2026-01-08T1900,3291A,121.0631,32.0644,南通市,通州监测站,细颗粒物(PM2.5),94,95,90,70,67,60,,84,84,38,43,3,4,0.8,0.8
2026-01-08T1900,3432A,120.9348,31.9874,南通市,环境教育馆,细颗粒物(PM2.5),88,92,88,65,64,58,,82,82,27,57,4,5,0.7,0.7
2026-01-08T1900,4091A,120.8692,31.9885,南通市,洪江路,,,111,93,71,64,54,,75,74,30,51,,4,0.8,0.6
2026-01-08T1900,2404A,112.5338,33.0086,南阳市,瓦房庄,颗粒物(PM10),61,72,73,38,45,58,,80,80,30,29,8,7,0.7,0.7
2026-01-08T1900,2405A,112.5002,32.9734,南阳市,汉画馆,颗粒物(PM10),60,70,74,32,42,52,,78,78,33,32,6,6,0.6,0.7
2026-01-08T1900,2406A,112.5778,33.0144,南阳市,气象站,颗粒物(PM10),67,83,74,34,37,58,,82,82,38,28,6,6,0.6,0.6
2026-01-08T1900,2407A,112.548,32.9687,南阳市,理工学院,颗粒物(PM10),60,70,69,32,39,68,,82,82,32,32,7,6,0.5,0.6
2026-01-08T1900,4008A,112.5233,32.9921,南阳市,卧龙区政府,颗粒物(PM10),60,70,73,29,42,50,,73,73,40,34,6,6,0.6,0.7
2026-01-08T1900,1234A,121.8352,29.9111,宁波市,区环保大楼,细颗粒物(PM2.5),82,96,79,60,49,50,,63,63,68,69,9,9,0.9,0.9
2026-01-08T1900,1235A,121.5595,29.8208,宁波市,万里学院,细颗粒物(PM2.5),68,77,71,49,49,76,,80,80,30,52,6,6,0.6,0.6
2026-01-08T1900,1236A,121.713,29.9564,宁波市,龙赛医院,细颗粒物(PM2.5),88,103,87,65,55,42,,60,60,67,64,7,6,0.7,0.7
2026-01-08T1900,1240A,121.5855,29.8635,宁波市,太古小学,细颗粒物(PM2.5),73,81,72,53,49,64,,83,83,39,49,6,4,0.7,0.7
2026-01-08T1900,1241A,121.5239,29.8673,宁波市,市环境监测中心,细颗粒物(PM2.5),74,82,72,54,43,65,,74,74,37,53,8,8,0.8,0.8
2026-01-08T1900,2871A,121.6156,29.9015,宁波市,万里国际学校,细颗粒物(PM2.5),68,71,68,49,48,70,,81,81,39,60,6,6,0.6,0.7
2026-01-08T1900,3710A,121.5593,29.8976,宁波市,白沙活动中心,细颗粒物(PM2.5),65,61,58,47,44,52,,76,76,53,53,6,6,0.7,0.7
2026-01-08T1900,4095A,121.8962,29.7529,宁波市,中科路88号,细颗粒物(PM2.5),80,78,66,59,49,67,,80,80,42,47,8,8,0.5,0.7
2026-01-08T1900,2341A,119.5387,26.6611,宁德市,宁德市监测站,,40,40,32,25,23,98,,94,94,30,19,7,7,0.5,0.5
2026-01-08T1900,3209A,119.5231,26.6562,宁德市,宁德一中,细颗粒物(PM2.5),58,,34,41,24,89,,93,93,20,15,6,6,0.6,0.6
2026-01-08T1900,2618A,98.859,25.8541,怒江傈僳族自治州,州监测站,,34,34,38,19,23,75,,78,78,16,13,7,6,0.4,0.5
2026-01-08T1900,2619A,98.8607,25.8168,怒江傈僳族自治州,泸水一中,,34,34,32,3,24,59,,68,68,22,16,6,6,0.6,0.6
2026-01-08T1900,1888A,101.6891,26.571,攀枝花市,弄弄坪,,,57,52,42,35,61,,70,70,24,23,17,13,,0.9
2026-01-08T1900,1889A,101.577,26.5914,攀枝花市,河门口,颗粒物(PM10),52,53,48,35,33,68,,71,71,19,18,23,22,1.5,1.5
2026-01-08T1900,1891A,101.7365,26.4986,攀枝花市,仁和,颗粒物(PM10),51,51,44,32,29,47,,65,65,29,19,14,10,0.9,0.9
2026-01-08T1900,2835A,101.7222,26.567,攀枝花市,四十中小,,47,47,46,31,27,60,,67,67,22,16,15,16,0.9,0.9
2026-01-08T1900,1604A,122.0303,41.1489,盘锦市,开发区,,33,33,34,19,22,46,,54,54,17,17,5,4,1.0,0.9
2026-01-08T1900,1605A,122.0486,41.0883,盘锦市,兴隆台,,35,35,40,20,27,47,,56,55,29,32,5,6,0.5,0.7
2026-01-08T1900,1606A,121.8297,41.1026,盘锦市,新生街道,,32,32,33,21,17,46,,62,60,26,32,8,7,0.6,0.5
2026-01-08T1900,1832A,113.3257,33.7423,平顶山市,新华旅馆,颗粒物(PM10),71,91,81,35,28,70,,85,84,28,24,6,8,0.4,0.4
2026-01-08T1900,1833A,113.2917,33.737,平顶山市,规划设计院,颗粒物(PM10),65,79,85,38,35,73,,85,85,24,29,7,9,0.2,0.4
2026-01-08T1900,1834A,113.182,33.7738,平顶山市,平顶山工学院,颗粒物(PM10),64,77,73,39,32,74,,86,84,20,19,8,10,0.4,0.3
2026-01-08T1900,3594A,112.8736,33.9068,平顶山市,石龙区,颗粒物(PM10),76,102,84,48,29,70,,87,86,28,30,8,6,0.6,0.5
2026-01-08T1900,4116A,113.284,33.7139,平顶山市,姚电大道23号,颗粒物(PM10),99,148,105,52,41,55,,81,80,35,32,9,10,0.6,0.6
2026-01-08T1900,2656A,106.6633,35.5338,平凉市,聚贤嘉苑,"颗粒物(PM10),细颗粒物(PM2.5)",52,54,34,36,21,24,,67,64,68,31,15,12,0.8,0.7
2026-01-08T1900,2657A,106.7021,35.5307,平凉市,博物馆,颗粒物(PM10),68,86,47,46,28,16,,62,60,75,33,17,12,0.9,0.9
2026-01-08T1900,2348A,113.8384,27.6436,萍乡市,中医院,细颗粒物(PM2.5),70,78,84,51,55,71,,100,100,41,38,4,6,1.1,1.2
2026-01-08T1900,2350A,113.8677,27.6438,萍乡市,市环保局,,48,46,72,33,56,83,,108,108,33,33,13,13,0.7,1
2026-01-08T1900,2351A,113.8663,27.6202,萍乡市,安源区政府,细颗粒物(PM2.5),55,48,76,39,64,66,,82,82,32,26,9,10,0.8,1.6
2026-01-08T1900,4107A,113.8686,27.6668,萍乡市,联洪村委会,颗粒物(PM10),55,59,77,34,57,93,,103,103,24,31,6,8,0.8,1.1
2026-01-08T1900,2319A,119.0142,25.4324,莆田市,荔城区仓后路,,47,47,40,27,28,104,,106,106,20,16,/,/,/,/
2026-01-08T1900,2320A,119.0016,25.4553,莆田市,莆田市监测站,,43,43,33,30,25,104,,108,108,19,11,5,3,0.6,0.5
2026-01-08T1900,2321A,119.112,25.4561,莆田市,涵江区六中,,47,47,37,26,26,107,,110,110,20,18,/,/,0.7,0.6
2026-01-08T1900,2322A,119.1014,25.3215,莆田市,秀屿区政府,,40,,40,28,31,116,,113,113,12,14,5,4,0.5,0.5
2026-01-08T1900,2392A,115.0312,35.7636,濮阳市,环保局,颗粒物(PM10),62,73,63,40,27,59,,65,65,29,38,8,9,0.5,0.6
2026-01-08T1900,3021A,115,35.7667,濮阳市,濮水河管理处,颗粒物(PM10),72,93,72,25,29,58,,67,67,18,26,8,10,0.7,0.8
2026-01-08T1900,4118A,115.0552,35.7816,濮阳市,中原东路68号,颗粒物(PM10),72,94,78,48,37,60,,68,68,33,43,7,9,0.4,0.6
2026-01-08T1900,4216A,115.0923632,35.76857718,濮阳市,任丘路479号,,,,66,,41,,,64,64,29,43,7,10,0.5,0.6
2026-01-08T1900,2601A,100.9801,22.7634,普洱市,市环保局,,46,46,32,16,18,42,,52,50,10,6,4,4,0.5,0.4
2026-01-08T1900,2602A,100.9763,22.8237,普洱市,普洱第二中学,,,41,30,29,17,,,53,53,10,7,5,4,0.4,0.5
2026-01-08T1900,3345A,131.0413,45.7795,七台河市,中波台,,27,27,22,17,16,38,,56,52,26,14,11,7,0.3,0.3
2026-01-08T1900,3637A,131.0136,45.7688,七台河市,人民广场,,36,26,29,25,23,43,,52,50,24,19,9,9,0.4,0.4
2026-01-08T1900,3684A,130.8639,45.8144,七台河市,新建矿广场,,36,,26,25,22,32,,52,48,23,10,8,8,0.4,0.2
2026-01-08T1900,1779A,123.9307,47.3641,齐齐哈尔市,安居小区,,34,34,32,12,14,45,,47,47,15,18,9,8,0.6,0.6
2026-01-08T1900,1780A,123.9497,47.3389,齐齐哈尔市,中心广场,,28,26,26,19,14,40,,42,42,16,18,6,6,0.5,0.7
2026-01-08T1900,1781A,123.9483,47.3229,齐齐哈尔市,农牧车辆厂,,36,36,34,15,16,46,,49,49,11,15,4,4,0.3,0.4
2026-01-08T1900,1783A,123.9442,47.2994,齐齐哈尔市,市环境监测站,,34,34,40,3,18,51,,54,54,10,16,6,8,0.5,0.6
2026-01-08T1900,3662A,123.6341,47.2079,齐齐哈尔市,富区青少年活动中心,,38,38,46,17,19,44,,50,50,11,15,4,6,0.4,0.6
2026-01-08T1900,2591A,107.9765,26.5724,黔东南苗族侗族自治州,市环境监测站,,50,43,44,35,38,36,,76,74,46,26,1,3,0.6,0.6
2026-01-08T1900,2881A,107.8909,26.531,黔东南苗族侗族自治州,凯里学院,颗粒物(PM10),56,61,46,30,36,75,,87,87,15,19,4,5,0.4,0.5
2026-01-08T1900,2593A,107.5223,26.2371,黔南布依族苗族自治州,小围寨,,35,29,46,24,41,87,,96,95,5,9,5,10,0.7,0.8
2026-01-08T1900,3538A,107.5175,26.2977,黔南布依族苗族自治州,沙坝,,39,39,55,27,42,85,,94,94,10,13,6,9,0.7,0.8
2026-01-08T1900,2589A,104.9022,25.0943,黔西南布依族苗族自治州,场坝街,细颗粒物(PM2.5),87,74,72,64,60,78,,76,76,16,18,7,20,0.7,0.7
2026-01-08T1900,2590A,104.8812,25.0994,黔西南布依族苗族自治州,坪东大道,细颗粒物(PM2.5),94,,62,70,58,79,,77,77,14,18,9,16,0.7,0.7
2026-01-08T1900,2502A,108.6238,21.9667,钦州市,市环保站,颗粒物(PM10),70,90,83,39,45,91,,106,106,34,31,6,6,0.7,1.5
2026-01-08T1900,2503A,108.655,21.9481,钦州市,沙埠小学,细颗粒物(PM2.5),63,71,77,45,50,101,,110,110,29,29,10,10,0.9,0.9
2026-01-08T1900,2504A,108.5989,21.7435,钦州市,港区一小,颗粒物(PM10),80,109,68,37,43,79,,99,99,43,32,8,10,0.6,0.8
2026-01-08T1900,3404A,108.5959,21.9634,钦州市,北职校,细颗粒物(PM2.5),53,52,67,37,46,85,,104,104,30,24,10,11,0.9,1.2
2026-01-08T1900,1046A,119.5247,39.9346,秦皇岛市,建设大厦,颗粒物(PM10),73,96,58,50,35,28,,48,48,49,45,12,8,0.7,0.6
2026-01-08T1900,3132A,119.5979,39.938,秦皇岛市,文明里,颗粒物(PM10),71,92,54,36,21,22,,42,41,55,34,14,11,0.6,0.5
2026-01-08T1900,4066A,119.7458,39.9952,秦皇岛市,南园路157号,颗粒物(PM10),72,94,50,41,21,26,,47,45,52,38,10,10,0.6,0.5
2026-01-08T1900,4067A,119.5131,39.8858,秦皇岛市,翠岛大街1号,颗粒物(PM10),70,89,52,34,21,25,,48,46,49,30,14,10,0.6,0.5
2026-01-08T1900,4198A,119.509013,39.825305,秦皇岛市,北戴河轮滑馆,颗粒物(PM10),70,89,51,38,25,30,,51,49,46,35,6,7,0.6,0.5
2026-01-08T1900,1310A,120.404,36.0625,青岛市,市南区东部子站,,24,24,32,9,15,64,,63,63,17,25,10,10,0.7,0.6
2026-01-08T1900,1311A,120.362344,36.10282,青岛市,四方区子站,颗粒物(PM10),51,51,72,22,21,57,,61,61,26,30,5,7,0.7,0.6
2026-01-08T1900,1312A,120.294373,36.054183,青岛市,市南区西部子站,,31,31,37,15,18,55,,57,56,28,26,5,5,0.5,0.5
2026-01-08T1900,1313A,120.4581,36.0858,青岛市,崂山区子站,,20,17,24,9,11,63,,66,66,18,24,11,10,0.4,0.6
2026-01-08T1900,1315A,120.3945,36.3083,青岛市,城阳区子站,颗粒物(PM10),51,51,57,20,29,26,,59,56,63,40,8,10,0.9,1
2026-01-08T1900,3642A,120.3454,36.0735,青岛市,市北区南部,,33,33,39,12,16,55,,58,58,20,25,3,4,0.5,0.5
2026-01-08T1900,3643A,120.3897,36.18,青岛市,李沧区北部,,48,48,41,29,30,33,,58,55,47,34,10,10,1.0,0.9
2026-01-08T1900,4110A,120.5222,36.4089,青岛市,盟旺路653号,,,,53,,29,17,,62,57,69,33,10,6,0.8,0.7
2026-01-08T1900,4290A,120.196923,35.954556,青岛市,珠江路669号,,22,19,41,15,25,64,,71,71,23,46,11,12,0.6,0.6
2026-01-08T1900,4291A,120.0424,35.8656,青岛市,黄岛区人民政府广场,,29,29,48,12,24,54,,70,70,34,38,8,10,0.7,0.8
2026-01-08T1900,1703A,113.0218,23.7086,清远市,凤城街办,,31,31,28,19,20,94,,102,102,22,21,/,/,/,/
2026-01-08T1900,3025A,113.0479,23.6343,清远市,技师学院,,35,35,35,18,19,86,,95,95,24,25,7,10,0.5,0.4
2026-01-08T1900,3318A,112.9898,23.7403,清远市,清新太和,,34,25,27,16,18,108,,114,114,14,15,7,7,0.4,0.5
2026-01-08T1900,3455A,113.076,23.72,清远市,清城东城,,33,26,28,16,18,103,,102,102,14,18,/,/,/,/
2026-01-08T1900,2661A,107.6325,35.7357,庆阳市,庆阳五中,细颗粒物(PM2.5),79,95,42,58,19,55,,92,89,55,16,12,6,1.3,0.5
2026-01-08T1900,2662A,107.6361,35.7067,庆阳市,市环保局,细颗粒物(PM2.5),72,72,43,52,18,84,,84,84,25,17,7,12,0.6,0.5
2026-01-08T1900,1916A,103.7897,25.5036,曲靖市,环境监测站,细颗粒物(PM2.5),65,75,53,47,30,33,,50,44,28,18,3,4,0.9,0.7
2026-01-08T1900,1917A,103.8013,25.5357,曲靖市,烟厂办公区,,,82,55,52,31,,,46,42,26,18,4,6,0.8,0.7
2026-01-08T1900,3376A,103.7926,25.4651,曲靖市,南苑二区,细颗粒物(PM2.5),72,75,52,52,35,23,,46,39,21,14,4,5,0.8,0.7
2026-01-08T1900,3377A,103.7442,25.5259,曲靖市,曲靖师范学院,细颗粒物(PM2.5),83,72,47,61,36,11,,40,33,34,21,1,2,0.7,0.6
2026-01-08T1900,1264A,118.8694,28.94,衢州市,环保大楼,颗粒物(PM10),64,78,55,45,37,28,,94,88,87,30,/,/,/,/
2026-01-08T1900,1266A,118.8622,28.9809,衢州市,衢州学院,颗粒物(PM10),53,55,53,30,32,34,,92,88,61,42,6,8,0.6,0.6
2026-01-08T1900,4097A,118.9646,28.9832,衢州市,衢州三中,颗粒物(PM10),57,64,54,34,36,37,,94,90,64,27,6,11,0.6,0.7
2026-01-08T1900,1611A,118.5818,24.9116,泉州市,涂山街,,45,45,41,26,30,103,,106,106,16,17,4,4,0.6,0.6
2026-01-08T1900,1612A,118.597,24.8976,泉州市,津头埔,,,54,40,27,31,101,,106,106,,20,6,5,0.6,0.6
2026-01-08T1900,1613A,118.6669,24.9422,泉州市,万安,,46,46,41,26,27,98,,103,103,16,18,4,4,0.6,0.6
2026-01-08T1900,4105A,118.6355,24.9148,泉州市,霞新路6号,,40,40,41,27,28,97,,108,108,29,26,/,/,0.5,0.2
2026-01-08T1900,2626A,88.8873,29.2723,日喀则市,日喀则监测站,,33,33,33,11,16,94,,87,87,4,22,6,12,0.4,0.9
2026-01-08T1900,3726A,88.8775,29.2425,日喀则市,林业技术推广中心,,42,42,29,7,12,95,,81,81,3,6,10,11,0.1,0.3
2026-01-08T1900,1659A,119.4711,35.421,日照市,监测站,颗粒物(PM10),67,83,47,43,25,12,,55,52,75,39,27,12,1.4,0.9
2026-01-08T1900,1660A,119.523,35.4216,日照市,市政府广场,颗粒物(PM10),58,66,40,28,19,18,,54,48,72,32,26,13,1.2,0.5
2026-01-08T1900,1661A,119.5511,35.4113,日照市,港务局,颗粒物(PM10),58,66,43,37,27,18,,56,48,70,28,20,11,1.5,0.6
2026-01-08T1900,3507A,119.5326,35.4627,日照市,职业技术学院,颗粒物(PM10),57,63,40,29,18,26,,58,52,67,30,20,10,1.4,0.7
2026-01-08T1900,3604A,119.3267,35.1043,日照市,岚山环保分局,颗粒物(PM10),56,61,62,38,37,39,,64,61,52,42,20,32,0.8,2.3
2026-01-08T1900,1835A,111.1922,34.7752,三门峡市,市政府,颗粒物(PM10),54,57,65,32,37,20,,67,66,71,42,14,14,1.2,0.7
2026-01-08T1900,1836A,111.1588,34.794,三门峡市,开发区,颗粒物(PM10),58,65,68,26,30,58,,69,69,24,34,6,7,0.4,0.5
2026-01-08T1900,3039A,111.1911,34.7829,三门峡市,三门峡市第一小学,颗粒物(PM10),55,59,69,26,30,34,,65,65,60,37,12,12,0.8,0.6
2026-01-08T1900,3598A,111.1031,34.719,三门峡市,富达温泉假日酒店,颗粒物(PM10),53,55,75,23,34,48,,65,65,30,29,7,12,0.4,0.8
2026-01-08T1900,2324A,117.621,26.2626,三明市,三钢,细颗粒物(PM2.5),57,45,40,40,28,50,,94,94,47,27,6,7,0.7,1.4
2026-01-08T1900,2325A,117.6352,26.2714,三明市,三明二中,,32,26,33,22,25,70,,90,90,18,22,4,5,0.6,0.9
2026-01-08T1900,2326A,117.6028,26.2377,三明市,三元区政府,颗粒物(PM10),56,62,41,38,28,32,,87,87,53,27,5,7,1.1,0.9
2026-01-08T1900,1877A,109.4962,18.2682,三亚市,河西子站,,41,41,45,17,26,105,,122,122,26,11,7,6,0.6,0.6
2026-01-08T1900,3540A,109.7348,18.3443,三亚市,君悦子站,,50,50,45,15,28,115,,114,114,8,11,6,7,0.5,0.6
2026-01-08T1900,4135A,109.1714,18.3739,三亚市,城东小学站,,40,38,40,28,31,122,,116,116,12,10,/,/,/,/
2026-01-08T1900,2624A,91.7592,29.234,山南市,山南监测站,颗粒物(PM10),52,53,31,10,12,94,,82,82,2,12,5,5,0.3,0.4
2026-01-08T1900,2625A,91.7701,29.2436,山南市,山南人民医院,,,,29,36,10,80,,75,75,8,12,4,6,0.4,0.4
2026-01-08T1900,1674A,116.6795,23.3666,汕头市,金平子站,,49,49,48,28,32,102,,105,105,28,30,6,9,0.9,0.8
2026-01-08T1900,1675A,116.7248,23.3632,汕头市,龙湖子站,颗粒物(PM10),51,52,42,28,25,100,,101,101,26,21,11,13,/,/
2026-01-08T1900,1676A,116.7257,23.2774,汕头市,濠江子站,,42,41,43,29,30,116,,105,105,18,22,8,9,/,/
2026-01-08T1900,1677A,116.7518,23.4712,汕头市,澄海子站,颗粒物(PM10),53,56,46,26,30,114,,106,106,24,24,8,10,0.4,0.4
2026-01-08T1900,1678A,116.6088,23.2539,汕头市,潮阳子站,,47,47,45,25,25,117,,109,109,19,26,7,9,0.4,0.6
2026-01-08T1900,3444A,116.4539,23.2684,汕头市,潮南峡山,,,54,51,32,31,108,,110,110,,23,10,11,0.6,0.7
2026-01-08T1900,3624A,116.4069,23.2533,汕头市,潮南子站,,,76,70,33,41,106,,99,99,,31,8,9,/,/
2026-01-08T1900,1693A,115.3653,22.7751,汕尾市,市环保局,,45,45,27,24,17,90,,88,88,35,12,8,8,0.5,0.4
2026-01-08T1900,1695A,115.362,22.7926,汕尾市,新城中学,,43,43,30,23,17,71,,88,86,32,16,6,6,0.6,0.5
2026-01-08T1900,2645A,109.9155,33.8714,商洛市,监测站,,49,49,33,32,18,31,,72,70,61,28,6,5,0.6,0.3
2026-01-08T1900,3045A,109.9647,33.8486,商洛市,商州区中学,颗粒物(PM10),56,61,43,24,17,20,,65,63,61,34,9,7,0.7,0.6
2026-01-08T1900,2408A,115.6701,34.4283,商丘市,环境监测站,细颗粒物(PM2.5),72,63,77,52,59,79,,79,79,26,44,4,6,0.3,0.3
2026-01-08T1900,2409A,115.6458,34.4047,商丘市,粮食局,细颗粒物(PM2.5),72,61,71,52,48,77,,77,77,24,32,6,8,0.2,0.4
2026-01-08T1900,3171A,115.6069,34.4465,商丘市,梁园区档案局,,,,74,,51,,,70,70,22,43,5,9,0.5,0.5
2026-01-08T1900,4119A,115.6701,34.3767,商丘市,北海东路185号,"颗粒物(PM10),细颗粒物(PM2.5)",70,90,86,51,46,66,,74,74,33,36,5,6,0.5,0.6
2026-01-08T1900,4120A,115.6172,34.3704,商丘市,中山大街3号,细颗粒物(PM2.5),92,112,92,68,53,48,,68,68,41,36,5,6,0.4,0.5
2026-01-08T1900,1141A,121.401,31.2382,上海市,普陀,细颗粒物(PM2.5),102,106,97,76,70,55,,76,76,59,75,8,9,0.8,1
2026-01-08T1900,1142A,121.4774,31.2043,上海市,十五厂,细颗粒物(PM2.5),98,97,95,73,66,69,,82,82,45,71,9,9,0.9,1.1
2026-01-08T1900,1143A,121.4673,31.3011,上海市,虹口,细颗粒物(PM2.5),95,115,106,71,66,31,,70,70,70,65,8,9,0.7,0.9
2026-01-08T1900,1147A,121.4253,31.226,上海市,静安监测站,,,100,94,72,64,,,84,84,50,73,8,9,,0.9
2026-01-08T1900,1148A,121.7029,31.1905,上海市,浦东川沙,细颗粒物(PM2.5),63,55,102,45,66,48,,80,76,44,67,7,9,0.6,0.9
2026-01-08T1900,1149A,121.5339,31.229,上海市,浦东新区监测站,细颗粒物(PM2.5),103,101,96,77,72,59,,77,77,57,74,8,9,0.9,1
2026-01-08T1900,1150A,121.5776,31.2038,上海市,浦东张江,细颗粒物(PM2.5),87,97,100,64,63,53,,77,77,57,65,7,9,0.6,0.8
2026-01-08T1900,3265A,121.4242,31.3303,上海市,宝山庙行,细颗粒物(PM2.5),100,111,101,75,72,19,,78,71,88,75,8,9,0.6,0.9
2026-01-08T1900,3266A,121.8789,31.4662,上海市,崇明上实东滩,细颗粒物(PM2.5),58,63,108,41,66,50,,80,78,29,19,4,5,0.6,0.7
2026-01-08T1900,3268A,121.316,31.2839,上海市,嘉定南翔,细颗粒物(PM2.5),99,100,96,74,68,28,,72,70,68,64,5,7,0.8,0.9
2026-01-08T1900,3269A,121.3357,30.7455,上海市,金山新城,细颗粒物(PM2.5),112,92,73,84,62,66,,71,71,41,55,11,11,0.7,0.7
2026-01-08T1900,3270A,121.4996,31.0741,上海市,闵行浦江,细颗粒物(PM2.5),98,98,97,73,65,45,,75,75,62,71,7,9,0.6,0.7
2026-01-08T1900,3271A,121.2886,31.1663,上海市,青浦徐泾,,,104,89,20,57,,,77,77,57,71,7,7,0.9,1
2026-01-08T1900,3272A,121.2193,31.0382,上海市,松江图书馆,细颗粒物(PM2.5),94,100,88,70,57,36,,62,62,85,71,8,8,0.7,0.7
2026-01-08T1900,3273A,121.3904,31.206,上海市,长宁仙霞,细颗粒物(PM2.5),92,98,92,68,64,51,,72,72,60,68,8,9,0.6,0.9
2026-01-08T1900,3274A,121.7964,31.0507,上海市,浦东惠南,颗粒物(PM10),57,64,98,37,65,49,,76,76,47,67,5,7,0.7,1
2026-01-08T1900,3544A,121.4891,30.925,上海市,奉贤南桥新城,细颗粒物(PM2.5),94,105,91,70,64,39,,68,68,81,76,8,9,0.7,0.8
2026-01-08T1900,4183A,121.417401,31.16637,上海市,冠生园路458号,,,,88,,64,,,70,,,76,,7,,0.9
2026-01-08T1900,4205A,121.541914,31.268301,上海市,宁武路151号,细颗粒物(PM2.5),98,103,101,73,67,43,,73,72,63,67,6,6,0.8,0.9
2026-01-08T1900,2382A,117.9758,28.4439,上饶市,市监测站,,42,42,52,23,31,85,,96,96,21,23,9,18,/,/
2026-01-08T1900,2383A,117.9521,28.4637,上饶市,凤凰光学,颗粒物(PM10),53,55,52,24,29,59,,92,92,40,36,10,16,0.9,0.7
2026-01-08T1900,3685A,117.897,28.4316,上饶市,双创科技城,,45,45,52,26,36,70,,93,93,41,45,8,16,0.8,0.7
2026-01-08T1900,4211A,118.190438,28.444845,上饶市,裕丰大道,颗粒物(PM10),62,73,58,32,37,24,,109,97,83,27,16,13,0.8,0.6
2026-01-08T1900,1669A,113.5821,24.7733,韶关市,市八中,,40,40,40,24,27,57,,92,92,48,33,10,9,0.6,0.6
2026-01-08T1900,1671A,113.5916,24.7973,韶关市,园林处,,36,28,32,25,29,85,,101,101,27,34,11,11,/,/
2026-01-08T1900,1673A,113.5971,24.6864,韶关市,曲江监测站,,48,45,50,33,32,65,,92,92,29,31,12,18,0.5,0.7
2026-01-08T1900,2809A,113.6668,24.7756,韶关市,大学路288号,,,25,26,10,20,,,100,100,8,19,5,6,/,/
2026-01-08T1900,3622A,113.5556,24.8082,韶关市,碧湖山庄,,41,41,45,27,29,100,,105,105,16,18,7,9,0.3,0.4
2026-01-08T1900,2464A,111.5277,27.2442,邵阳市,市化工厂,,,39,79,25,57,81,,94,94,28,34,,6,,1.1
2026-01-08T1900,2466A,111.4327,27.2276,邵阳市,市环保局,,43,43,68,29,60,92,,98,98,19,29,10,9,0.8,1.1
