timepoint,stationcode,longitude,latitude,area,positionname,primarypollutant,aqi,pm10,pm10_24h,pm2_5,pm2_5_24h,o3,o3_24h,o3_8h,o3_8h_24h,no2,no2_24h,so2,so2_24h,co,co_24h
2024-04-01T2200,2566A,102.1879,31.914,阿坝藏族羌族自治州,州农科所,颗粒物(PM10),66,81,23,24,10,10,,29,23,38,12,1,3,0.5,0.4
2024-04-01T2200,2568A,102.2502,31.8896,阿坝藏族羌族自治州,马师校,,28,19,14,19,14,33,,96,74,31,11,4,4,0.5,0.4
2024-04-01T2200,3994A,102.2165,31.9024,阿坝藏族羌族自治州,马尔康中学西区,,30,30,20,16,12,65,,99,90,13,6,5,5,0.5,0.4
2024-04-01T2200,2695A,80.292,41.1694,阿克苏地区,电视台,颗粒物(PM10),62,73,55,23,16,87,,102,100,12,8,3,5,0.5,0.5
2024-04-01T2200,2696A,80.2613,41.1551,阿克苏地区,艺术中心,颗粒物(PM10),51,51,52,23,17,91,,108,106,11,8,4,4,0.5,0.6
2024-04-01T2200,2204A,105.6467,38.8363,阿拉善盟,西城区西花园,颗粒物(PM10),243,380,149,90,43,87,,122,110,7,10,8,8,0.7,0.7
2024-04-01T2200,2205A,105.6985,38.8411,阿拉善盟,蒙二幼,颗粒物(PM10),229,370,162,112,51,87,,109,99,4,10,7,8,0.3,0.5
2024-04-01T2200,2206A,105.724,38.8516,阿拉善盟,环保局新楼,颗粒物(PM10),307,425,145,106,42,94,,116,107,6,7,6,8,0.3,0.3
2024-04-01T2200,2708A,88.1264,47.8517,阿勒泰地区,市站,,19,15,19,11,6,60,,70,70,10,7,4,5,0.2,0.2
2024-04-01T2200,2630A,80.1161,32.5,阿里地区,阿里监测站,,35,6,12,2,6,110,,108,108,4,7,10,11,0.5,0.4
2024-04-01T2200,3192A,80.0903,32.5028,阿里地区,阿里藏医院,,37,10,17,3,7,116,,116,116,3,6,8,9,0.4,0.4
2024-04-01T2200,2642A,109.0318,32.6537,安康市,香溪洞,,42,33,34,29,26,38,,78,45,12,11,5,7,0.5,0.4
2024-04-01T2200,2643A,109.0281,32.6939,安康市,安康市监测站,细颗粒物(PM2.5),75,64,59,55,38,10,,30,17,38,27,9,12,1.0,0.8
2024-04-01T2200,2644A,109.0072,32.6975,安康市,汉滨区检察院,颗粒物(PM10),54,57,53,33,29,12,,42,17,25,21,9,10,0.6,0.5
2024-04-01T2200,2291A,117.0809,30.5177,安庆市,环科院,,25,17,53,10,32,78,,110,91,13,36,9,8,0.9,0.9
2024-04-01T2200,2292A,117.0331,30.5119,安庆市,马山宾馆,,27,18,55,9,31,84,,114,90,11,35,7,9,0.6,0.8
2024-04-01T2200,2294A,116.9896,30.6145,安庆市,安庆大学,,22,22,49,14,26,69,,116,95,22,30,6,8,0.4,0.6
2024-04-01T2200,3173A,117.0598,30.5351,安庆市,市人大,,25,16,57,11,33,78,,119,100,13,25,6,7,0.6,0.8
2024-04-01T2200,3123A,105.9408,26.2431,安顺市,凤凰山,,35,24,35,12,22,112,,126,122,10,10,6,7,0.3,0.6
2024-04-01T2200,3124A,105.9439,26.2564,安顺市,金钟山,,36,21,28,10,10,114,,130,128,7,7,4,5,0.3,0.6
2024-04-01T2200,3125A,105.8983,26.2481,安顺市,娄家坡,颗粒物(PM10),53,55,37,16,27,113,,130,128,5,4,5,6,0.3,0.4
2024-04-01T2200,1819A,114.3551,36.1017,安阳市,红庙街,颗粒物(PM10),106,162,167,71,90,43,,104,60,40,29,7,9,0.7,0.3
2024-04-01T2200,1820A,114.361,36.0681,安阳市,银杏小区,颗粒物(PM10),95,140,149,64,99,43,,107,63,36,21,8,10,1.0,1
2024-04-01T2200,3141A,114.3922,36.0878,安阳市,信访局,颗粒物(PM10),114,177,174,57,71,46,,105,64,39,23,5,6,0.5,0.6
2024-04-01T2200,3669A,114.4705,36.0637,安阳市,左辅环卫站,颗粒物(PM10),104,157,157,59,93,42,,80,56,45,38,7,7,0.6,0.7
2024-04-01T2200,3703A,114.2917,36.0949,安阳市,安钢职工学校,颗粒物(PM10),110,170,191,71,99,34,,111,62,51,34,10,11,1.0,1.1
2024-04-01T2200,1748A,123.044,41.1196,鞍山市,深沟寺,细颗粒物(PM2.5),92,104,79,68,46,76,,96,88,29,27,20,9,0.7,0.7
2024-04-01T2200,1749A,123.011,41.0931,鞍山市,太阳城,细颗粒物(PM2.5),80,90,68,59,36,78,,102,94,29,22,19,11,0.6,0.5
2024-04-01T2200,1750A,123.0485,41.1442,鞍山市,太平,细颗粒物(PM2.5),99,142,98,74,52,67,,97,84,40,36,24,9,0.6,0.7
2024-04-01T2200,1751A,122.9642,41.0971,鞍山市,铁西三道街,细颗粒物(PM2.5),87,98,85,64,50,78,,101,94,33,39,14,11,0.6,0.9
2024-04-01T2200,1752A,122.9341,41.0833,鞍山市,铁西工业园区,细颗粒物(PM2.5),87,109,88,64,49,78,,92,89,32,48,13,15,0.6,1.2
2024-04-01T2200,1753A,123.022,41.0821,鞍山市,明达新区,细颗粒物(PM2.5),73,77,66,53,35,82,,94,87,27,24,25,13,0.6,0.6
2024-04-01T2200,2195A,107.4212,40.761,巴彦淖尔市,附二中,颗粒物(PM10),63,76,220,33,60,79,,103,86,7,20,2,24,0.4,0.5
2024-04-01T2200,2196A,107.37,40.7372,巴彦淖尔市,市环保大楼,颗粒物(PM10),66,81,210,42,60,80,,100,86,8,17,3,14,0.2,0.4
2024-04-01T2200,1956A,86.1472,41.7538,巴音郭楞蒙古自治州,孔雀公园,,39,39,66,5,18,83,,89,84,5,3,5,5,0.2,0.2
2024-04-01T2200,1957A,86.1972,41.7166,巴音郭楞蒙古自治州,棉纺厂,,29,29,53,11,13,71,,79,76,13,8,2,2,0.3,0.3
2024-04-01T2200,1958A,86.2357,41.7173,巴音郭楞蒙古自治州,经济开发区,,25,18,48,13,11,79,,83,81,6,5,7,5,0.2,0.2
2024-04-01T2200,2914A,106.7677,31.8794,巴中市,苏山坪,,20,18,29,12,17,61,,89,57,4,6,3,3,0.4,0.4
2024-04-01T2200,3182A,106.7656,31.8545,巴中市,丽阳花园,,31,31,38,20,26,6,,45,34,33,30,4,3,0.7,0.6
2024-04-01T2200,3183A,106.7418,31.8654,巴中市,圣泉水务公司,,25,22,28,17,20,13,,39,30,26,30,4,4,0.5,0.5
2024-04-01T2200,3616A,106.7616,31.8344,巴中市,市中心医院,,35,35,47,24,30,1,,47,36,29,28,4,5,0.6,0.6
2024-04-01T2200,2235A,122.7911,45.6077,白城市,洮北区环保局,颗粒物(PM10),67,84,85,44,49,66,,106,94,18,12,7,8,0.5,0.5
2024-04-01T2200,2236A,122.8738,45.5725,白城市,市环保局,颗粒物(PM10),183,315,86,61,47,24,,99,78,51,18,4,4,0.6,0.6
2024-04-01T2200,2231A,126.4219,41.9171,白山市,喜丰,颗粒物(PM10),67,84,53,28,17,76,,94,88,22,15,10,11,0.8,0.8
2024-04-01T2200,2232A,126.4077,41.9419,白山市,环保局,颗粒物(PM10),72,93,65,41,21,83,,94,91,12,10,9,9,0.5,0.6
2024-04-01T2200,2647A,104.1724,36.5446,白银市,第三小学,颗粒物(PM10),153,256,134,58,34,96,,105,103,2,9,7,72,0.6,0.9
2024-04-01T2200,2648A,104.1465,36.5482,白银市,动力公司,颗粒物(PM10),133,215,113,55,32,92,,104,102,7,15,6,22,0.2,0.4
2024-04-01T2200,2512A,106.6103,23.9011,百色市,市监测站,颗粒物(PM10),69,88,96,44,53,61,,128,109,26,17,10,19,0.9,0.9
2024-04-01T2200,2513A,106.6538,23.8859,百色市,市中心血站,颗粒物(PM10),71,92,91,47,55,75,,125,108,37,20,14,16,0.7,0.8
2024-04-01T2200,3406A,106.6085,23.8798,百色市,祈福高中,颗粒物(PM10),72,94,85,43,57,82,,124,114,26,19,12,18,0.8,0.9
2024-04-01T2200,2270A,117.396,32.939,蚌埠市,工人疗养院,颗粒物(PM10),67,84,107,36,45,133,,175,162,36,20,18,11,0.7,0.7
2024-04-01T2200,2271A,117.3605,32.9427,蚌埠市,百货大楼,颗粒物(PM10),69,87,108,39,47,140,,168,156,27,24,8,7,0.6,0.7
2024-04-01T2200,2273A,117.4185,32.8911,蚌埠市,蚌埠学院,颗粒物(PM10),58,66,91,36,45,136,,167,149,17,20,6,8,0.6,0.7
2024-04-01T2200,2274A,117.3533,32.9673,蚌埠市,淮上区政府,颗粒物(PM10),68,85,106,43,55,127,,165,150,36,28,10,9,0.6,0.6
2024-04-01T2200,2275A,117.3145,32.8977,蚌埠市,高新区,"颗粒物(PM10),细颗粒物(PM2.5)",59,68,90,42,45,136,,164,150,19,19,7,8,0.7,0.7
2024-04-01T2200,3715A,117.3092,32.9314,蚌埠市,蚌埠田家炳中学,颗粒物(PM10),66,82,100,40,46,142,,169,157,19,19,7,9,0.5,0.6
2024-04-01T2200,1585A,109.8756,40.6532,包头市,市环境监测站,颗粒物(PM10),65,79,112,17,40,81,,141,110,9,43,7,19,0.4,1
2024-04-01T2200,1587A,109.9991,40.5842,包头市,包头八中,颗粒物(PM10),73,95,112,11,39,76,,137,111,13,31,10,31,0.3,0.6
2024-04-01T2200,1588A,109.8538,40.6821,包头市,青山宾馆,颗粒物(PM10),64,78,123,9,45,78,,129,106,7,46,9,21,0.7,1.3
2024-04-01T2200,1589A,109.8642,40.6288,包头市,惠龙物流,颗粒物(PM10),64,77,106,16,38,82,,138,109,8,40,7,21,0.5,0.9
2024-04-01T2200,1590A,110.0377,40.5546,包头市,东河鸿龙湾,颗粒物(PM10),67,84,109,16,40,73,,142,112,14,27,11,21,0.5,0.8
2024-04-01T2200,3283A,109.9154,40.5685,包头市,滨河大厦,颗粒物(PM10),55,60,94,15,42,84,,142,117,4,24,7,20,0.6,0.9
2024-04-01T2200,3419A,109.9447,40.6261,包头市,包头市委党校,颗粒物(PM10),60,69,96,34,36,80,,139,111,9,41,8,27,0.4,0.9
2024-04-01T2200,3683A,109.8331,40.6576,包头市,昆区政府,颗粒物(PM10),60,70,105,12,44,80,,126,105,10,46,8,21,0.2,0.8
2024-04-01T2200,1930A,107.185,34.3063,宝鸡市,庙沟村,"颗粒物(PM10),细颗粒物(PM2.5)",68,86,103,49,54,63,,85,74,20,30,13,13,0.8,0.7
2024-04-01T2200,1931A,107.0708,34.3017,宝鸡市,竹园沟,细颗粒物(PM2.5),72,89,108,52,59,48,,103,90,22,26,4,6,0.7,0.7
2024-04-01T2200,1932A,107.1906,34.3672,宝鸡市,三陆医院,颗粒物(PM10),66,82,115,45,62,53,,86,80,32,46,9,14,0.8,0.8
2024-04-01T2200,1933A,107.1431,34.3547,宝鸡市,监测站,细颗粒物(PM2.5),79,77,103,58,61,51,,99,87,31,38,10,10,0.8,0.8
2024-04-01T2200,1934A,107.1186,34.3739,宝鸡市,技工学校,细颗粒物(PM2.5),63,66,94,45,59,59,,98,92,27,28,8,9,0.7,0.7
2024-04-01T2200,1935A,107.3906,34.3528,宝鸡市,陈仓区环保局家属楼,细颗粒物(PM2.5),89,80,114,66,68,50,,98,95,45,47,33,33,0.7,0.7
2024-04-01T2200,1936A,107.2058,34.3497,宝鸡市,文理学院,"颗粒物(PM10),细颗粒物(PM2.5)",65,79,112,47,57,61,,91,90,29,35,11,9,0.7,0.6
2024-04-01T2200,1937A,107.2386,34.3622,宝鸡市,三迪小学,细颗粒物(PM2.5),74,86,112,54,62,66,,88,86,37,50,9,10,1.0,0.9
2024-04-01T2200,1051A,115.493,38.8632,保定市,游泳馆,颗粒物(PM10),94,138,146,52,58,87,,78,77,28,31,7,8,0.7,0.8
2024-04-01T2200,1052A,115.5213,38.8959,保定市,华电二区,颗粒物(PM10),78,106,119,51,56,72,,75,71,30,31,6,6,0.6,0.8
2024-04-01T2200,1053A,115.4713,38.9108,保定市,接待中心,颗粒物(PM10),77,103,112,51,50,62,,75,69,40,33,5,6,0.5,0.6
2024-04-01T2200,1054A,115.4612,38.8416,保定市,地表水厂,颗粒物(PM10),94,137,134,59,54,90,,78,78,26,32,9,9,1.1,1.2
2024-04-01T2200,3581A,115.31981,38.95208,保定市,满城区生态环境分局,颗粒物(PM10),85,119,152,51,56,98,,92,92,22,31,9,9,0.4,0.6
2024-04-01T2200,3582A,115.47694,38.76408,保定市,清苑区第二中学,颗粒物(PM10),97,144,149,52,51,72,,79,78,45,42,8,11,0.6,0.8
2024-04-01T2200,3583A,115.62909,39.02311,保定市,徐水物探局,颗粒物(PM10),76,102,142,36,49,85,,82,82,24,32,9,11,0.6,0.8
2024-04-01T2200,4004A,115.4202,38.8656,保定市,双鹰农机,颗粒物(PM10),85,120,120,46,52,73,,84,81,38,33,9,10,0.8,0.9
2024-04-01T2200,4034A,115.5150,38.8590,保定市,植保所站,颗粒物(PM10),84,117,121,53,57,87,,77,77,29,35,5,6,0.7,0.9
2024-04-01T2200,2594A,99.1678,25.1081,保山市,市环境监测站,颗粒物(PM10),54,58,43,36,26,122,,120,120,6,7,9,7,0.6,0.6
2024-04-01T2200,2595A,99.1711,25.1328,保山市,市环保局,细颗粒物(PM2.5),57,54,47,40,27,120,,117,117,4,5,8,7,0.6,0.6
2024-04-01T2200,1867A,109.1436,21.4086,北海市,海滩公园,颗粒物(PM10),73,96,59,27,30,54,,68,64,22,18,7,9,0.5,0.6
2024-04-01T2200,1868A,109.0981,21.4661,北海市,新市环保局,,41,41,49,27,29,39,,84,76,31,16,6,6,0.6,0.6
2024-04-01T2200,1869A,109.1778,21.5233,北海市,北海工业园,,41,41,61,20,39,57,,87,79,11,16,7,11,0.5,0.6
2024-04-01T2200,3400A,109.1911,21.4415,北海市,龙潭自来水厂,细颗粒物(PM2.5),52,37,47,36,42,67,,82,80,11,14,4,8,0.5,0.5
2024-04-01T2200,1001A,116.3621,39.8784,北京市,万寿西宫,,,,120,33,46,88,,98,98,20,27,3,6,0.4,0.7
2024-04-01T2200,1003A,116.4174,39.9289,北京市,东四,颗粒物(PM10),88,126,112,35,48,88,,97,97,20,27,3,7,0.4,0.8
2024-04-01T2200,1004A,116.4072,39.8863,北京市,天坛,颗粒物(PM10),77,103,96,33,45,91,,101,101,20,26,4,6,0.4,0.8
2024-04-01T2200,1005A,116.462,39.9365,北京市,农展馆,颗粒物(PM10),83,116,107,33,46,95,,102,102,19,30,4,7,0.3,0.7
2024-04-01T2200,1006A,116.3392,39.9295,北京市,官园,颗粒物(PM10),90,129,109,38,46,95,,103,103,19,25,4,8,0.5,0.8
2024-04-01T2200,1007A,116.2878,39.9611,北京市,海淀万柳,颗粒物(PM10),83,116,105,35,47,97,,103,103,21,29,5,7,0.6,0.9
2024-04-01T2200,1008A,116.6636,40.135,北京市,顺义新城,颗粒物(PM10),110,169,136,39,47,90,,102,102,21,36,4,7,0.5,1
2024-04-01T2200,1009A,116.6275,40.3275,北京市,怀柔镇,颗粒物(PM10),104,157,110,37,44,98,,102,102,17,27,5,6,0.6,1
2024-04-01T2200,1010A,116.2296,40.217,北京市,昌平镇,颗粒物(PM10),112,174,117,39,44,82,,90,88,26,33,3,4,0.3,0.6
2024-04-01T2200,1011A,116.3966,39.9821,北京市,奥体中心,颗粒物(PM10),80,110,100,34,46,84,,89,89,20,29,2,5,0.5,0.8
2024-04-01T2200,1012A,116.184,39.9136,北京市,古城,颗粒物(PM10),87,124,109,40,48,98,,103,103,25,37,3,5,0.6,0.8
2024-04-01T2200,3281A,115.9718,40.4529,北京市,延庆夏都,颗粒物(PM10),108,165,105,45,44,85,,92,85,22,27,4,5,0.6,0.7
2024-04-01T2200,3417A,117.0709,40.1465,北京市,平谷新城,颗粒物(PM10),81,112,113,40,50,95,,105,104,23,30,9,6,0.6,0.9
2024-04-01T2200,3418A,116.8336,40.4095,北京市,密云新城,颗粒物(PM10),117,183,123,40,48,92,,98,98,16,29,5,6,0.5,0.9
2024-04-01T2200,3672A,116.1541,39.8204,北京市,丰台云岗,颗粒物(PM10),84,118,107,54,49,74,,94,92,35,31,3,5,0.4,0.7
2024-04-01T2200,3673A,116.6804,39.9081,北京市,通州东关,颗粒物(PM10),90,129,116,35,44,80,,99,98,27,29,3,6,0.5,0.9
2024-04-01T2200,3674A,115.9577,39.7603,北京市,房山燕山,颗粒物(PM10),78,105,90,47,49,82,,92,90,26,32,3,4,0.4,0.5
2024-04-01T2200,3675A,116.4672,39.7733,北京市,大兴旧宫,颗粒物(PM10),77,103,97,33,44,93,,100,100,13,23,2,4,0.4,0.7
2024-04-01T2200,3694A,115.986,40.4563,北京市,延庆石河营,颗粒物(PM10),107,164,101,48,48,82,,106,94,27,23,3,4,0.6,0.7
2024-04-01T2200,3695A,116.6151,40.3053,北京市,怀柔新城,颗粒物(PM10),105,160,113,37,46,96,,102,102,21,30,3,5,0.4,0.8
2024-04-01T2200,3696A,116.2545,39.8768,北京市,丰台小屯,颗粒物(PM10),82,113,105,34,46,89,,95,95,22,30,3,5,0.3,0.6
2024-04-01T2200,3697A,116.84,40.3844,北京市,密云镇,颗粒物(PM10),111,172,117,39,46,80,,96,96,24,34,3,4,0.6,1
2024-04-01T2200,1761A,123.8275,41.3064,本溪市,大峪,细颗粒物(PM2.5),74,86,92,54,40,70,,91,88,22,30,9,10,0.7,1
2024-04-01T2200,1762A,123.7567,41.3325,本溪市,溪湖,细颗粒物(PM2.5),84,100,87,62,38,71,,101,99,34,35,7,6,1.0,1.1
2024-04-01T2200,1763A,123.7169,41.3094,本溪市,彩屯,细颗粒物(PM2.5),105,132,84,79,45,68,,88,83,44,40,18,11,1.1,1.3
2024-04-01T2200,1764A,123.7669,41.2864,本溪市,东明,颗粒物(PM10),67,83,76,47,41,73,,90,88,30,43,8,10,1.0,1.2
2024-04-01T2200,1765A,123.7992,41.2664,本溪市,新立屯,颗粒物(PM10),62,74,52,35,30,58,,97,93,29,32,10,12,0.6,0.9
2024-04-01T2200,1766A,123.8142,41.3472,本溪市,威宁,细颗粒物(PM2.5),77,91,82,56,41,33,,85,71,64,37,7,6,0.7,0.7
2024-04-01T2200,2587A,105.2864,27.3125,毕节市,八中,细颗粒物(PM2.5),73,63,40,53,30,86,,115,104,12,11,8,9,0.7,0.6
2024-04-01T2200,2588A,105.31,27.2944,毕节市,师专,细颗粒物(PM2.5),62,57,39,44,28,114,,113,110,12,12,5,5,0.5,0.5
2024-04-01T2200,3537A,105.3631,27.3533,毕节市,长征村,细颗粒物(PM2.5),80,76,55,59,42,130,,127,126,10,10,8,7,0.6,0.5
2024-04-01T2200,1629A,118.0018,37.3617,滨州市,第二水厂,颗粒物(PM10),81,112,130,46,58,74,,148,127,36,47,13,19,0.7,1
2024-04-01T2200,1630A,117.9776,37.393,滨州市,北中新校,颗粒物(PM10),80,110,127,46,55,65,,152,123,41,46,15,19,0.6,1
2024-04-01T2200,3514A,117.9378,37.3956,滨州市,中海酒店,颗粒物(PM10),73,95,119,46,61,70,,158,131,31,37,15,22,0.6,0.9
2024-04-01T2200,3515A,117.9378,37.3553,滨州市,开发区一中,颗粒物(PM10),82,114,131,46,55,70,,131,110,38,46,15,25,0.7,0.9
2024-04-01T2200,3516A,118.0917,37.694,滨州市,金海六路,颗粒物(PM10),53,56,96,19,40,69,,119,102,24,26,9,13,0.5,0.6
2024-04-01T2200,4028A,117.9956,37.3753,滨州市,滨州市西街道办事处,颗粒物(PM10),81,112,130,51,66,69,,139,118,33,41,18,25,0.8,1.1
2024-04-01T2200,2311A,115.8072,33.8399,亳州市,污水处理厂,细颗粒物(PM2.5),89,104,100,66,47,157,,146,146,15,17,13,13,0.8,0.6
2024-04-01T2200,2312A,115.7789,33.8518,亳州市,三国揽胜宫,细颗粒物(PM2.5),87,91,96,64,50,152,,141,141,14,14,9,9,0.8,0.6
2024-04-01T2200,3332A,115.7633,33.8034,亳州市,亳州学院,颗粒物(PM10),85,119,116,59,53,147,,147,147,14,12,10,9,0.9,0.7
2024-04-01T2200,2693A,82.0485,44.8556,博尔塔拉蒙古自治州,市党校,,23,9,14,9,8,72,,77,77,7,5,7,6,0.3,0.3
2024-04-01T2200,2694A,82.0806,44.8969,博尔塔拉蒙古自治州,市环保局,,32,32,22,11,11,60,,72,72,16,11,6,8,0.5,0.5
2024-04-01T2200,1071A,116.8842,38.2991,沧州市,沧县城建局,颗粒物(PM10),61,72,93,43,41,82,,85,83,23,37,6,7,0.8,0.8
2024-04-01T2200,1072A,116.8584,38.3254,沧州市,电视转播站,颗粒物(PM10),59,67,91,27,37,75,,78,77,22,33,5,7,0.6,0.6
2024-04-01T2200,1073A,116.8709,38.3228,沧州市,市环保局,颗粒物(PM10),64,77,90,42,50,76,,79,77,20,31,4,5,0.5,0.5
2024-04-01T2200,3324A,116.8136,38.3004,沧州市,河北水利电力学院,颗粒物(PM10),60,70,100,39,43,81,,83,81,20,33,10,11,0.5,0.5
2024-04-01T2200,2622A,97.1806,31.1273,昌都市,昌都监测站,,32,28,9,14,6,100,,114,112,11,6,7,7,0.4,0.3
2024-04-01T2200,3719A,97.1714,31.1406,昌都市,昌都会议中心,,33,21,9,12,6,103,,117,116,10,9,9,8,0.5,0.5
2024-04-01T2200,2690A,88.1236,43.8886,昌吉回族自治州,天山天池,,19,14,45,9,9,59,,72,64,11,7,8,7,0.7,0.7
2024-04-01T2200,2692A,87.2717,44.0297,昌吉回族自治州,新区政务中心,,,46,30,28,18,41,,61,56,26,13,8,9,,0.5
2024-04-01T2200,3613A,87.3095,44.0142,昌吉回族自治州,亚心广场,,41,41,29,24,11,50,,61,59,22,12,4,5,0.3,0.2
2024-04-01T2200,1119A,125.3325,43.9166,长春市,食品厂,细颗粒物(PM2.5),55,57,72,39,42,44,,84,66,41,34,7,8,0.5,0.5
2024-04-01T2200,1120A,125.2863,43.9027,长春市,客车厂,颗粒物(PM10),52,54,68,34,42,40,,86,64,50,33,6,7,0.8,0.6
2024-04-01T2200,1121A,125.2841,43.8463,长春市,邮电学院,,,,82,60,50,22,,92,74,67,33,15,10,0.4,0.4
2024-04-01T2200,1122A,125.3716,43.8772,长春市,劳动公园,颗粒物(PM10),52,53,87,26,60,63,,96,84,22,30,5,6,0.5,0.7
2024-04-01T2200,1123A,125.3297,43.8805,长春市,园林处,,31,31,61,16,33,57,,88,75,28,28,13,10,0.4,0.5
2024-04-01T2200,1124A,125.4605,43.79,长春市,净月潭,,47,47,67,29,43,55,,93,79,14,17,6,7,0.4,0.5
2024-04-01T2200,1126A,125.3863,43.8447,长春市,经开区环卫处,颗粒物(PM10),81,112,88,47,48,6,,90,66,78,35,7,7,0.8,0.6
2024-04-01T2200,1127A,125.245,43.7783,长春市,高新区管委会,细颗粒物(PM2.5),156,,100,119,70,21,,93,62,59,32,11,9,1.1,0.9
2024-04-01T2200,1128A,125.1761,43.8325,长春市,岱山公园,细颗粒物(PM2.5),75,97,89,55,61,6,,90,60,90,35,14,8,0.8,0.6
2024-04-01T2200,1335A,113.0833,28.2325,长沙市,经开区环保局,,43,38,33,30,22,54,,89,81,19,17,7,8,0.5,0.4
2024-04-01T2200,1336A,112.8872,28.2189,长沙市,高开区环保局,,38,38,37,23,22,68,,102,89,9,16,5,6,0.6,0.6
2024-04-01T2200,1337A,113.0792,28.2053,长沙市,马坡岭,细颗粒物(PM2.5),52,,39,36,24,65,,85,79,12,19,6,7,0.5,0.5
2024-04-01T2200,1338A,112.9394,28.19,长沙市,湖南师范大学,,43,34,40,30,24,72,,104,92,12,14,4,6,0.6,0.6
2024-04-01T2200,1339A,113.0178,28.1322,长沙市,雨花区环保局,,32,32,36,19,20,64,,96,80,6,16,4,6,0.7,0.7
2024-04-01T2200,1340A,112.9792,28.2597,长沙市,伍家岭,,50,38,50,35,28,58,,84,78,11,26,5,5,0.7,0.8
2024-04-01T2200,1341A,113.0014,28.1944,长沙市,火车新站,,40,40,38,24,23,66,,85,80,15,20,4,5,0.7,0.7
2024-04-01T2200,1342A,112.9844,28.1178,长沙市,天心区环保局,,48,37,38,33,22,52,,94,69,18,19,2,4,0.4,0.4
2024-04-01T2200,1343A,112.8908,28.1308,长沙市,湖南中医药大学,,37,37,40,23,22,56,,86,81,17,25,4,5,0.9,0.9
2024-04-01T2200,1344A,112.9581,28.3611,长沙市,沙坪,,28,25,23,19,14,43,,63,57,4,6,5,6,0.5,0.4
2024-04-01T2200,1727A,113.1147,36.1547,长治市,清华站,细颗粒物(PM2.5),73,78,55,53,24,137,,132,131,16,14,11,10,1.0,0.8
2024-04-01T2200,1728A,113.1031,36.1989,长治市,监测站,细颗粒物(PM2.5),94,90,57,70,29,127,,137,132,28,18,14,13,0.8,0.5
2024-04-01T2200,1730A,113.0886,36.2125,长治市,审计局,细颗粒物(PM2.5),85,75,54,63,28,142,,135,135,19,17,13,13,0.6,0.4
2024-04-01T2200,1731A,113.0844,36.1856,长治市,长治八中,颗粒物(PM10),71,92,71,36,27,147,,139,138,20,20,9,8,0.6,0.7
2024-04-01T2200,2845A,113.1569,36.1911,长治市,德盛苑,细颗粒物(PM2.5),85,74,52,63,27,145,,140,140,21,16,11,10,0.9,0.5
2024-04-01T2200,3568A,113.06,36.0464,长治市,向阳小学,细颗粒物(PM2.5),70,82,78,51,37,138,,143,141,16,16,15,15,0.7,0.6
2024-04-01T2200,3569A,112.8792,36.3144,长治市,屯留一中,细颗粒物(PM2.5),75,82,89,55,54,110,,142,130,18,17,14,14,0.5,0.8
2024-04-01T2200,3570A,113.235,36.3489,长治市,潞城四中,细颗粒物(PM2.5),175,173,111,132,67,79,,183,159,44,36,13,11,1.8,0.9
2024-04-01T2200,1854A,111.6975,28.9703,常德市,市二中,,28,27,39,19,25,84,,107,105,8,18,7,9,0.6,0.7
2024-04-01T2200,1857A,111.7158,29.1456,常德市,白鹤山,,40,40,45,22,27,38,,51,50,2,2,7,8,0.6,0.6
2024-04-01T2200,3138A,111.7153,29.0289,常德市,武陵区永安,,30,30,38,19,24,80,,111,107,8,11,9,8,0.4,0.5
2024-04-01T2200,3139A,111.6892,28.9881,常德市,鼎城区玉霞,,30,30,39,18,24,83,,111,109,9,15,9,10,0.5,0.6
2024-04-01T2200,3140A,111.6625,29.0531,常德市,武陵区长庚,,33,30,36,23,28,86,,113,110,6,9,8,8,0.7,0.7
2024-04-01T2200,1196A,119.9633,31.762,常州市,市监测站,,43,43,138,25,61,112,,166,147,38,52,9,11,0.5,1
2024-04-01T2200,1200A,119.9468,31.7069,常州市,武进监测站,,45,45,141,20,56,120,,171,155,23,46,13,19,0.7,1.2
2024-04-01T2200,1201A,119.9255,31.9087,常州市,安家,,43,43,128,22,54,107,,162,144,42,48,7,8,0.6,0.9
2024-04-01T2200,3002A,119.9805,31.8174,常州市,行政中心,,47,47,116,21,59,112,,163,146,31,41,10,10,0.6,0.8
2024-04-01T2200,3003A,120.0522,31.7748,常州市,经开区,,43,43,131,30,56,108,,159,144,35,48,8,10,0.5,0.8
2024-04-01T2200,3010A,119.9025,31.7964,常州市,钟楼,,45,45,137,22,63,120,,163,148,25,48,9,11,0.9,1.4
2024-04-01T2200,3429A,119.8598,31.7066,常州市,武进经发区,,38,37,122,18,58,121,,175,163,31,53,9,10,0.7,1.1
2024-04-01T2200,3430A,119.5826,31.7245,常州市,金坛城区,,41,33,118,16,50,130,,191,180,25,47,9,10,0.8,1.1
2024-04-01T2200,2220A,120.4318,41.5881,朝阳市,西梁,,34,34,52,23,26,91,,104,98,15,20,9,17,0.6,0.7
2024-04-01T2200,2221A,120.4521,41.5646,朝阳市,河畔小区,,48,48,54,26,26,94,,106,100,13,17,9,16,0.6,0.7
2024-04-01T2200,2222A,120.4176,41.5648,朝阳市,八里堡,,43,43,54,22,26,94,,106,100,17,22,11,18,0.7,0.8
2024-04-01T2200,2223A,120.3806,41.5969,朝阳市,农业园区,,45,42,65,31,31,97,,107,102,14,19,9,13,0.5,0.5
2024-04-01T2200,1705A,116.6367,23.6719,潮州市,西园路,,38,38,35,25,20,59,,50,50,18,17,8,7,0.4,0.5
2024-04-01T2200,3026A,116.6183,23.6608,潮州市,市政府,,31,31,31,19,22,79,,64,64,15,19,7,11,0.7,0.8
2024-04-01T2200,4036A,116.6461,23.6761,潮州市,金山,,35,28,28,24,22,55,,52,52,20,17,9,8,0.6,0.7
2024-04-01T2200,2472A,113.0073,25.9061,郴州市,马头岭,,41,41,40,22,17,68,,90,84,10,16,5,6,0.5,0.6
2024-04-01T2200,2473A,113.0116,25.8226,郴州市,市职中,,43,37,34,30,27,71,,100,91,7,16,8,7,0.5,0.7
2024-04-01T2200,2474A,113.0161,25.8001,郴州市,兴隆步行街,,46,44,45,32,30,72,,98,90,8,18,6,5,0.6,0.8
2024-04-01T2200,2475A,113.0383,25.8071,郴州市,市审计局,,45,42,36,31,28,75,,98,92,7,17,8,7,0.5,0.7
2024-04-01T2200,2476A,113.0348,25.7759,郴州市,市环保局,颗粒物(PM10),52,54,46,32,34,74,,93,87,8,24,9,7,0.7,0.9
2024-04-01T2200,1431A,103.9728,30.7236,成都市,金泉两河,颗粒物(PM10),51,52,57,25,34,55,,136,118,35,24,2,3,0.6,0.6
2024-04-01T2200,1432A,104.176,30.6872,成都市,十里店,颗粒物(PM10),60,69,51,38,28,80,,144,126,29,34,1,2,0.5,0.5
2024-04-01T2200,1433A,104.079,30.5706,成都市,三瓦窑,颗粒物(PM10),56,61,50,30,27,74,,140,125,35,28,3,3,0.6,0.4
2024-04-01T2200,1434A,104.1114,30.63,成都市,沙河铺,颗粒物(PM10),59,67,52,31,30,52,,127,111,37,31,2,4,0.7,0.5
2024-04-01T2200,1437A,104.0786,30.6531,成都市,君平街,颗粒物(PM10),58,66,48,33,28,87,,145,134,30,28,4,6,0.5,0.5
2024-04-01T2200,1438A,103.613,31.0283,成都市,灵岩寺,,43,36,41,22,25,135,,143,142,10,12,6,13,0.6,0.7
2024-04-01T2200,2880A,104.0239,30.65639,成都市,大石西路,细颗粒物(PM2.5),59,47,50,42,31,72,,149,138,32,26,3,4,0.7,0.6
2024-04-01T2200,3136A,104.2725,30.5589,成都市,龙泉驿区区政府,,,36,30,19,18,,,132,126,14,15,3,3,,0.5
2024-04-01T2200,3357A,104.0106,30.6931,成都市,金博路,颗粒物(PM10),56,61,59,35,32,46,,151,127,44,33,2,3,0.8,0.7
2024-04-01T2200,3359A,104.0578,30.5225,成都市,华阳,细颗粒物(PM2.5),52,48,45,36,31,60,,135,119,37,24,2,3,0.8,0.7
2024-04-01T2200,3487A,104.2394,30.5319,成都市,车城东七路,,48,48,42,31,27,79,,135,124,21,19,3,4,0.6,0.6
2024-04-01T2200,3488A,104.3853,30.7453,成都市,青白江技师分院,,35,35,23,24,11,75,,130,101,20,30,2,3,0.5,0.5
2024-04-01T2200,3489A,104.0789,30.4072,成都市,科学城,,44,44,44,28,31,94,,142,133,17,19,4,4,0.7,0.6
2024-04-01T2200,4011A,103.8506,30.6947,成都市,光华大道三段,颗粒物(PM10),52,54,64,33,42,67,,142,122,33,33,1,2,0.6,0.6
2024-04-01T2200,1062A,117.9531,40.9081,承德市,铁路,颗粒物(PM10),52,54,57,32,24,107,,108,108,23,20,12,10,0.5,0.4
2024-04-01T2200,1063A,117.9392,40.9763,承德市,中国银行,颗粒物(PM10),57,64,58,28,25,120,,120,120,15,15,12,10,0.5,0.4
2024-04-01T2200,1064A,117.9503,40.928,承德市,开发区,颗粒物(PM10),55,60,60,32,29,111,,114,114,21,19,11,8,0.5,0.4
2024-04-01T2200,1065A,117.8051,40.9655,承德市,文化中心,颗粒物(PM10),59,67,66,27,23,115,,106,102,12,17,9,10,0.4,0.5
2024-04-01T2200,1066A,117.9268,41.0026,承德市,离宫,颗粒物(PM10),56,62,46,34,28,104,,112,112,9,8,7,6,0.4,0.3
2024-04-01T2200,2314A,117.47,30.6618,池州市,池州学院,,35,35,44,23,25,78,,122,101,19,22,4,4,0.6,0.8
2024-04-01T2200,3237A,117.4918,30.6617,池州市,展览馆,,34,34,41,18,23,64,,120,101,12,15,2,3,0.5,0.6
2024-04-01T2200,3333A,117.5627,30.695,池州市,第八中学,,31,31,44,16,24,68,,121,100,10,15,2,4,0.6,0.8
2024-04-01T2200,3334A,117.5038,30.6243,池州市,第十二中学,,32,32,40,22,24,64,,129,105,15,23,3,4,0.7,0.8
2024-04-01T2200,1744A,118.9233,42.2816,赤峰市,松山一中,颗粒物(PM10),57,64,56,36,27,63,,87,80,35,36,16,16,0.9,0.9
2024-04-01T2200,1745A,118.9576,42.2728,赤峰市,哈达街,细颗粒物(PM2.5),65,76,57,47,51,59,,82,72,34,35,16,21,0.9,0.9
2024-04-01T2200,1746A,118.8788,42.2554,赤峰市,天义路,颗粒物(PM10),52,53,48,33,25,70,,78,74,16,21,13,16,0.5,0.5
2024-04-01T2200,3058A,119.2658,42.0353,赤峰市,银河街,颗粒物(PM10),55,60,65,28,35,74,,83,80,16,25,16,17,0.5,0.6
2024-04-01T2200,3286A,118.9359,42.3147,赤峰市,桥北物流园区,颗粒物(PM10),64,77,55,38,32,70,,84,75,27,41,29,23,0.6,0.7
2024-04-01T2200,2521A,107.3476,22.4136,崇左市,市环保局江州分局,细颗粒物(PM2.5),87,90,75,64,49,117,,155,154,10,8,10,9,0.9,0.8
2024-04-01T2200,2522A,107.3702,22.3707,崇左市,城南新区,细颗粒物(PM2.5),72,82,69,52,45,122,,153,152,15,9,10,8,0.8,0.8
2024-04-01T2200,2298A,118.3093,32.3153,滁州市,老年大学,臭氧1小时,67,75,101,42,56,173,,181,171,25,39,10,11,0.7,0.8
2024-04-01T2200,2299A,118.3244,32.2786,滁州市,人大宾馆,臭氧1小时,70,73,112,41,61,176,,183,176,21,37,8,8,0.7,0.8
2024-04-01T2200,3207A,118.3118,32.3038,滁州市,市政府原办公楼,臭氧1小时,70,74,109,46,59,176,,185,179,24,38,7,8,0.7,0.8
2024-04-01T2200,3331A,118.3267,32.2634,滁州市,图书馆,臭氧1小时,64,71,109,43,58,171,,178,172,25,37,9,10,0.9,0.9
2024-04-01T2200,2605A,101.5482,25.0441,楚雄彝族自治州,州环境监测站,,30,,30,21,21,67,,119,109,22,14,11,9,1.1,0.5
2024-04-01T2200,2606A,101.538,25.0492,楚雄彝族自治州,市经济开发区,,31,31,29,20,18,64,,117,105,26,12,4,6,0.6,0.5
2024-04-01T2200,2548A,107.5277,31.2827,达州市,达州职业技术学院,,31,31,44,3,18,33,,57,54,24,25,8,7,0.6,0.6
2024-04-01T2200,2549A,107.5086,31.2186,达州市,市环境监测站,,25,25,36,7,18,32,,58,45,34,37,10,8,0.6,0.5
2024-04-01T2200,2550A,107.4988,31.2132,达州市,凤凰小区,,22,22,37,5,20,35,,64,49,34,37,11,8,0.7,0.7
2024-04-01T2200,2551A,107.5082,31.1986,达州市,达县机关宾馆,,22,22,37,6,23,32,,56,49,38,41,8,6,0.5,0.6
2024-04-01T2200,2552A,107.4644,31.2124,达州市,市政中心,,39,39,42,14,21,19,,59,48,49,43,9,9,0.7,0.7
2024-04-01T2200,2614A,100.1542,25.7054,大理白族自治州,大理市环境监测站,,,20,21,,24,,,109,107,12,8,7,7,0.5,0.5
2024-04-01T2200,2615A,100.2171,25.5811,大理白族自治州,大理古城,,35,31,23,23,19,109,,116,114,6,6,6,6,0.5,0.5
2024-04-01T2200,1109A,121.612,38.9741,大连市,甘井子,颗粒物(PM10),56,61,63,18,21,96,,105,102,19,23,5,5,0.5,0.5
2024-04-01T2200,1110A,121.565,38.9511,大连市,周水子,颗粒物(PM10),52,54,58,18,23,97,,104,96,17,24,4,4,0.8,0.9
2024-04-01T2200,1111A,121.5637,38.8845,大连市,星海三站,,43,43,43,15,15,103,,109,108,12,11,4,4,0.5,0.5
2024-04-01T2200,1112A,121.6302,38.9117,大连市,青泥洼桥,颗粒物(PM10),51,52,53,16,17,95,,108,104,14,15,9,9,0.6,0.6
2024-04-01T2200,1113A,121.6251,38.8638,大连市,傅家庄,颗粒物(PM10),52,53,48,14,13,106,,117,114,10,8,9,12,0.6,0.6
2024-04-01T2200,1114A,121.5213,38.8661,大连市,七贤岭,颗粒物(PM10),51,52,49,16,16,94,,124,106,14,16,10,10,0.6,0.8
2024-04-01T2200,1115A,121.2529,38.8061,大连市,旅顺,,50,50,44,15,15,89,,100,98,16,12,8,8,0.5,0.6
2024-04-01T2200,1116A,121.7485,39.1311,大连市,金州,,44,44,65,14,27,121,,130,126,6,11,5,8,0.5,0.9
2024-04-01T2200,1117A,121.7811,39.0496,大连市,开发区,颗粒物(PM10),53,55,64,14,21,106,,111,110,12,17,6,7,0.4,0.4
2024-04-01T2200,1118A,121.9762,39.0631,大连市,双D港,颗粒物(PM10),53,56,69,16,23,110,,114,114,11,13,8,8,0.5,0.6
2024-04-01T2200,1789A,124.81117,46.03138,大庆市,大同区,细颗粒物(PM2.5),158,153,61,120,49,67,,79,77,26,13,10,7,0.9,0.6
2024-04-01T2200,1790A,125.129,46.533,大庆市,龙凤区,细颗粒物(PM2.5),103,99,35,77,25,62,,84,75,32,17,154,12,0.7,0.4
2024-04-01T2200,1791A,124.902,46.408,大庆市,红岗区,细颗粒物(PM2.5),69,63,42,50,23,69,,92,88,25,10,7,5,0.7,0.5
2024-04-01T2200,1792A,125.153,46.586,大庆市,萨尔图区,细颗粒物(PM2.5),84,90,37,62,21,49,,77,64,42,17,10,6,0.6,0.7
2024-04-01T2200,1793A,124.9042,46.6215,大庆市,让胡路区,颗粒物(PM10),62,73,32,26,19,54,,86,79,39,10,8,7,0.7,0.3
2024-04-01T2200,3481A,125.141,46.634,大庆市,萨区政府监测点,细颗粒物(PM2.5),83,69,28,61,23,54,,86,78,39,23,12,7,0.6,0.4
2024-04-01T2200,1723A,113.2994,40.0758,大同市,云冈宾馆,颗粒物(PM10),58,66,76,26,33,91,,163,141,32,30,8,13,0.5,0.9
2024-04-01T2200,1724A,113.3444,40.0917,大同市,大同大学,颗粒物(PM10),53,55,73,30,28,94,,159,141,28,22,17,20,0.5,0.5
2024-04-01T2200,1725A,113.2661,40.1269,大同市,安家小村,颗粒物(PM10),55,59,110,22,37,84,,151,131,28,29,13,21,0.5,1.1
2024-04-01T2200,1726A,113.2711,40.0844,大同市,教育学院,颗粒物(PM10),52,54,98,25,39,86,,149,129,29,30,22,18,0.5,0.8
2024-04-01T2200,3282A,113.3397,40.0597,大同市,大同市卫生学校,颗粒物(PM10),64,78,84,36,33,98,,162,144,28,27,8,12,0.5,0.5
2024-04-01T2200,3565A,113.1367,40.1122,大同市,云冈站,,47,47,96,23,35,98,,157,140,17,31,8,20,0.5,0.7
2024-04-01T2200,3566A,113.1186,40.2556,大同市,图书馆,颗粒物(PM10),55,60,82,30,39,78,,128,114,12,14,18,16,0.9,0.9
2024-04-01T2200,3567A,113.5931,40.0461,大同市,区一中,颗粒物(PM10),68,85,79,29,33,118,,170,153,19,19,10,9,0.5,0.6
2024-04-01T2200,3676A,113.2802,40.0995,大同市,第二人民医院,,48,48,90,30,39,94,,162,144,33,30,11,15,0.9,1
2024-04-01T2200,2269A,124.1069,50.4097,大兴安岭地区,科技局,,35,35,17,23,15,56,,81,71,8,4,11,9,0.4,0.3
2024-04-01T2200,3663A,124.1164,50.4278,大兴安岭地区,红旗社区,,36,36,8,23,6,40,,83,71,18,5,14,11,0.7,0.5
2024-04-01T2200,1600A,124.3303,40.0625,丹东市,江湾东路,细颗粒物(PM2.5),74,82,85,54,39,79,,103,96,22,26,10,10,0.7,0.9
2024-04-01T2200,1601A,124.4256,40.1503,丹东市,临江后街,细颗粒物(PM2.5),74,91,77,54,34,77,,110,97,18,24,15,13,0.9,0.9
2024-04-01T2200,1602A,124.3933,40.1461,丹东市,元宝山,细颗粒物(PM2.5),69,79,69,50,31,60,,98,92,27,21,17,10,1.6,0.9
2024-04-01T2200,1603A,124.3633,40.1092,丹东市,民主桥,颗粒物(PM10),61,71,75,40,28,69,,98,92,27,26,17,12,0.7,0.5
2024-04-01T2200,3541A,109.5726,19.5167,儋州市,第一中学子站,,38,38,41,20,28,72,,101,96,6,4,8,8,0.4,0.5
2024-04-01T2200,3542A,109.5567,19.5187,儋州市,东坡学校子站,,47,47,41,21,28,74,,105,99,3,3,8,9,0.5,0.6
2024-04-01T2200,2616A,98.5842,24.428,德宏傣族景颇族自治州,德宏州监测站,细颗粒物(PM2.5),77,102,67,56,39,54,,110,96,29,27,7,10,1.0,0.7
2024-04-01T2200,3677A,98.5881,24.4368,德宏傣族景颇族自治州,芒市人民政府综合楼,细颗粒物(PM2.5),69,77,59,50,39,71,,116,100,17,18,7,7,0.7,0.6
2024-04-01T2200,1901A,104.4239,31.1208,德阳市,东山公园,,29,,31,20,23,85,,127,114,7,14,3,5,0.4,0.5
2024-04-01T2200,1902A,104.3826,31.1317,德阳市,西小区,,36,36,53,22,34,78,,124,110,12,26,3,5,0.5,0.6
2024-04-01T2200,1904A,104.3553,31.1091,德阳市,耐火材料厂,,31,31,56,14,33,79,,130,114,13,27,4,5,0.2,0.4
2024-04-01T2200,3639A,104.4019,31.1244,德阳市,市教育局,,31,31,44,19,25,78,,122,109,7,25,3,4,0.4,0.5
2024-04-01T2200,1622A,116.3032,37.4674,德州市,儿童乐园,颗粒物(PM10),75,100,144,44,62,54,,82,64,32,33,7,13,0.6,0.8
2024-04-01T2200,1624A,116.2991,37.4451,德州市,监理站,颗粒物(PM10),73,95,146,39,64,60,,91,70,36,35,12,17,0.5,0.7
2024-04-01T2200,3066A,116.2721,37.4379,德州市,九衢泉纯净水厂,颗粒物(PM10),74,97,143,36,56,63,,85,67,33,39,7,12,0.4,0.8
2024-04-01T2200,3371A,116.3728,37.4403,德州市,开发区人民医院,颗粒物(PM10),81,112,145,46,56,50,,82,66,38,30,8,14,0.5,0.7
2024-04-01T2200,3372A,116.3572,37.4094,德州市,太阳城中学,颗粒物(PM10),78,105,148,46,68,49,,70,66,38,37,8,13,0.7,0.8
2024-04-01T2200,3511A,116.5652,37.3319,德州市,陵城艺术中心,颗粒物(PM10),67,83,140,34,62,62,,91,79,26,34,5,12,0.6,0.8
2024-04-01T2200,2621A,99.7056,27.8317,迪庆藏族自治州,迪庆州站,,29,18,11,17,11,91,,110,104,14,10,9,8,0.6,0.5
2024-04-01T2200,3180A,99.7136,27.8094,迪庆藏族自治州,质量技术监督局,,28,10,13,6,3,87,,104,95,12,10,6,6,0.4,0.5
2024-04-01T2200,2663A,104.6241,35.5734,定西市,东关小学,颗粒物(PM10),143,236,78,48,25,89,,110,105,14,18,3,9,0.2,0.4
2024-04-01T2200,2664A,104.6194,35.5934,定西市,供电公司,颗粒物(PM10),130,210,68,58,33,88,,105,102,14,22,10,12,0.1,0.2
2024-04-01T2200,1389A,113.7547,23.0494,东莞市,莞城梨川,细颗粒物(PM2.5),70,65,42,51,28,59,,55,55,7,11,8,7,0.6,0.6
2024-04-01T2200,1390A,113.7944,23.0128,东莞市,东城石井,细颗粒物(PM2.5),72,69,42,52,27,54,,53,53,7,10,8,8,0.5,0.5
2024-04-01T2200,1391A,113.7383,22.9658,东莞市,南城西平,细颗粒物(PM2.5),70,71,42,51,28,56,,55,55,5,8,7,6,0.7,0.7
2024-04-01T2200,3319A,113.7338,23.0381,东莞市,万江金泰,细颗粒物(PM2.5),69,65,40,50,27,53,,51,51,4,7,10,10,0.5,0.8
2024-04-01T2200,3626A,113.7533,23.0202,东莞市,南城元岭,细颗粒物(PM2.5),73,63,41,53,28,54,,52,52,6,9,10,10,0.6,0.6
2024-04-01T2200,3627A,113.7875,23.0457,东莞市,东城主山,细颗粒物(PM2.5),70,59,38,51,28,53,,51,51,6,9,8,8,0.5,0.5
2024-04-01T2200,1666A,118.6614,37.4309,东营市,市环保局,颗粒物(PM10),70,90,90,29,34,114,,122,115,19,28,10,13,0.5,0.5
2024-04-01T2200,3036A,118.6904,37.4338,东营市,开发区管委会,颗粒物(PM10),68,85,86,29,40,110,,110,108,27,35,6,9,0.7,0.7
2024-04-01T2200,3365A,118.5719,37.565,东营市,垦利区民丰路,颗粒物(PM10),74,97,86,34,35,81,,126,116,34,32,10,12,0.8,0.8
2024-04-01T2200,3498A,118.5055,37.8612,东营市,河口城区,颗粒物(PM10),59,68,86,33,40,72,,102,94,31,24,5,7,0.5,0.6
2024-04-01T2200,3646A,118.4978,37.4623,东营市,胜利站,颗粒物(PM10),75,100,88,51,38,67,,128,116,43,30,12,15,1.1,1.2
2024-04-01T2200,3734A,118.35,37.26,东营市,理想之城,颗粒物(PM10),75,100,94,36,40,68,,108,97,36,32,12,15,0.7,0.8
2024-04-01T2200,1591A,110.0023,39.8129,鄂尔多斯市,综合楼,颗粒物(PM10),104,158,133,34,36,76,,138,116,15,24,5,12,0.4,0.6
2024-04-01T2200,1592A,109.9486,39.8261,鄂尔多斯市,巴音孟克林场办事处,颗粒物(PM10),104,158,116,31,31,64,,134,115,25,22,7,16,0.5,0.7
2024-04-01T2200,1593A,109.7736,39.5986,鄂尔多斯市,康泽苑,颗粒物(PM10),114,178,109,31,27,90,,143,130,9,22,7,11,0.5,0.7
2024-04-01T2200,1594A,109.8119,39.5989,鄂尔多斯市,华泰汽车城,颗粒物(PM10),107,163,111,36,34,82,,130,118,12,31,7,16,0.3,0.5
2024-04-01T2200,1595A,109.9734,39.7884,鄂尔多斯市,奥林花园,颗粒物(PM10),102,153,126,27,35,68,,134,114,25,26,7,13,0.5,0.7
2024-04-01T2200,2436A,114.8938,30.3994,鄂州市,市政府,,27,27,44,6,18,80,,102,81,6,15,7,12,1.0,1.1
2024-04-01T2200,2437A,114.8989,30.3714,鄂州市,赵家坝,,25,19,36,8,19,77,,99,79,4,10,5,9,0.8,0.9
2024-04-01T2200,3654A,114.8094,30.4089,鄂州市,精准医疗中心,,29,29,52,10,21,72,,104,79,19,24,19,20,1.4,1.5
2024-04-01T2200,2454A,109.4978,30.2981,恩施土家族苗族自治州,湖北民院,颗粒物(PM10),55,59,47,34,28,0,,16,7,46,35,8,8,1.2,1.1
2024-04-01T2200,2455A,109.4707,30.2798,恩施土家族苗族自治州,州电力总公司,颗粒物(PM10),52,53,44,33,26,4,,20,13,35,34,8,7,1.1,0.9
2024-04-01T2200,3549A,109.5061,30.3772,恩施土家族苗族自治州,龙凤新区,,48,45,30,33,23,1,,19,4,21,21,6,6,0.8,0.6
2024-04-01T2200,2499A,108.3411,21.6158,防城港市,沙万,,38,38,45,26,24,58,,56,56,16,13,11,9,0.4,0.4
2024-04-01T2200,2500A,108.3514,21.7731,防城港市,防城档案局,,35,35,42,21,25,68,,68,68,7,7,7,8,0.4,0.5
2024-04-01T2200,2501A,108.3506,21.6414,防城港市,大海花园,,35,35,38,21,22,69,,64,64,8,6,4,4,0.5,0.5
2024-04-01T2200,1371A,113.1294,23.0067,佛山市,湾梁,颗粒物(PM10),53,56,46,35,24,42,,42,40,8,21,10,10,0.4,0.4
2024-04-01T2200,1372A,113.1083,23.0478,佛山市,华材职中,细颗粒物(PM2.5),58,56,44,41,28,38,,39,37,4,18,10,10,0.3,0.4
2024-04-01T2200,1373A,113.144,23.0453,佛山市,南海气象局,细颗粒物(PM2.5),58,56,43,41,29,34,,37,34,12,23,7,9,0.4,0.5
2024-04-01T2200,1374A,113.2881,22.8094,佛山市,顺德苏岗,细颗粒物(PM2.5),67,59,40,48,27,46,,36,36,7,18,5,4,0.5,0.6
2024-04-01T2200,1376A,112.8383,22.8678,佛山市,高明孔堂,,48,45,37,33,24,46,,47,47,2,11,4,4,0.4,0.5
2024-04-01T2200,1377A,112.8836,23.1588,佛山市,三水监测站,细颗粒物(PM2.5),53,48,46,37,27,22,,34,31,17,28,6,6,0.4,0.5
2024-04-01T2200,1378A,112.867,23.185,佛山市,三水云东海,细颗粒物(PM2.5),55,53,45,39,31,26,,39,37,20,24,3,2,0.3,0.4
2024-04-01T2200,3625A,113.2544,22.7642,佛山市,容桂街道办,细颗粒物(PM2.5),77,61,38,56,25,34,,28,28,16,19,6,6,0.4,0.5
2024-04-01T2200,1282A,119.2681,26.0504,福州市,师大,细颗粒物(PM2.5),62,,30,44,23,82,,94,94,24,27,5,4,0.5,0.5
2024-04-01T2200,1283A,119.2984,26.1028,福州市,五四北路,细颗粒物(PM2.5),60,49,33,43,25,62,,82,80,35,30,4,4,0.5,0.5
2024-04-01T2200,1284A,119.2648,26.0768,福州市,杨桥西路,细颗粒物(PM2.5),64,48,32,46,23,79,,94,94,24,26,4,4,0.5,0.5
2024-04-01T2200,1285A,119.317,26.0746,福州市,紫阳,细颗粒物(PM2.5),72,,36,52,28,59,,93,89,35,28,4,3,0.6,0.7
2024-04-01T2200,3048A,119.5799,26.0936,福州市,九龙,细颗粒物(PM2.5),68,,26,49,21,56,,109,105,26,18,4,4,0.6,0.5
2024-04-01T2200,3526A,119.5189,25.9664,福州市,吴航,细颗粒物(PM2.5),72,65,39,52,26,76,,110,102,25,24,9,5,0.7,0.7
2024-04-01T2200,1755A,123.7977,41.8491,抚顺市,望花区,细颗粒物(PM2.5),178,162,91,134,57,74,,119,113,40,31,12,10,0.9,0.7
2024-04-01T2200,1756A,123.9161,41.8822,抚顺市,顺城区,细颗粒物(PM2.5),185,201,97,139,55,37,,129,109,74,39,9,7,1.2,0.7
2024-04-01T2200,1757A,124.0436,41.8611,抚顺市,东洲区,细颗粒物(PM2.5),87,88,85,64,56,78,,110,102,19,23,4,5,0.5,0.7
2024-04-01T2200,1758A,123.9247,41.8642,抚顺市,新抚区,细颗粒物(PM2.5),127,175,97,96,53,67,,133,116,39,33,8,9,0.9,0.8
2024-04-01T2200,1759A,124.0972,41.8961,抚顺市,大伙房水库,细颗粒物(PM2.5),74,80,80,54,50,93,,143,132,16,26,7,7,0.4,0.6
2024-04-01T2200,1760A,123.7086,41.8391,抚顺市,沈抚新城,细颗粒物(PM2.5),166,156,74,126,44,75,,111,101,28,29,16,6,0.7,0.5
2024-04-01T2200,2376A,116.2127,28.0814,抚州市,桐源党溪,,23,9,30,3,19,72,,72,67,18,18,5,7,0.4,0.5
2024-04-01T2200,2377A,116.3544,27.9831,抚州市,市站,,27,21,26,13,14,84,,80,80,8,10,1,1,0.6,0.6
2024-04-01T2200,2378A,116.3565,27.963,抚州市,血防站,,30,20,26,10,13,94,,85,83,11,14,3,4,0.9,0.8
2024-04-01T2200,2379A,116.3564,28.0007,抚州市,采茶剧团,,27,18,24,8,13,86,,78,77,8,12,5,7,0.8,0.8
2024-04-01T2200,2380A,116.385,27.9647,抚州市,医学分院,,26,23,28,8,10,83,,76,73,14,16,7,8,0.8,0.8
2024-04-01T2200,2207A,121.6094,41.998,阜新市,工业园区,细颗粒物(PM2.5),62,70,87,44,37,96,,115,112,16,24,18,12,0.8,0.9
2024-04-01T2200,2208A,121.6697,42.0279,阜新市,长青街,细颗粒物(PM2.5),72,69,69,52,36,83,,108,105,22,23,24,17,0.6,0.7
2024-04-01T2200,2209A,121.6673,42.0705,阜新市,农业园区,颗粒物(PM10),59,67,76,41,30,92,,109,106,15,13,37,24,0.5,0.6
2024-04-01T2200,2210A,121.6717,42.0224,阜新市,东苑,细颗粒物(PM2.5),67,53,81,48,40,86,,105,101,23,29,24,27,0.6,0.9
2024-04-01T2200,2211A,121.6506,42.0498,阜新市,玉龙新城,细颗粒物(PM2.5),69,64,69,50,34,84,,116,112,22,23,24,15,0.6,0.7
2024-04-01T2200,2301A,115.8277,32.8929,阜阳市,市监测站,颗粒物(PM10),66,81,111,44,57,95,,146,134,23,18,11,10,0.9,0.8
2024-04-01T2200,2303A,115.8554,32.8605,阜阳市,开发区,细颗粒物(PM2.5),67,78,102,48,69,91,,148,132,24,17,10,8,0.5,0.5
2024-04-01T2200,2875A,115.784,32.8892,阜阳市,阜阳职业技术学院,细颗粒物(PM2.5),67,74,95,48,45,104,,153,143,22,17,10,8,0.8,0.7
2024-04-01T2200,3468A,115.7901,32.8613,阜阳市,市规划展馆,颗粒物(PM10),59,68,89,41,57,108,,156,149,20,14,10,8,0.8,0.9
2024-04-01T2200,3469A,115.836,32.9183,阜阳市,枣园社区,颗粒物(PM10),62,74,89,43,61,103,,150,138,24,20,12,11,0.6,0.6
2024-04-01T2200,2669A,102.9099,34.9841,甘南藏族自治州,州政府,颗粒物(PM10),65,79,71,36,29,83,,106,101,14,30,15,15,0.8,0.9
2024-04-01T2200,3380A,102.8914,34.9617,甘南藏族自治州,甘肃民族师范学院,颗粒物(PM10),73,96,81,13,27,85,,112,106,17,32,12,15,0.8,0.8
2024-04-01T2200,2570A,101.9603,30.0475,甘孜藏族自治州,水桥子,,20,,12,7,10,14,,80,68,39,21,11,11,0.4,0.3
2024-04-01T2200,3065A,101.9533,29.9972,甘孜藏族自治州,州环保局,,18,8,14,3,5,56,,82,76,21,18,8,8,0.2,0.2
2024-04-01T2200,3414A,115.8347,28.932,赣江新区,桑海产业园,,23,9,24,8,11,71,,72,59,16,39,6,8,0.3,0.4
2024-04-01T2200,2363A,114.9367,25.8664,赣州市,地委,,48,48,34,18,20,37,,64,62,25,17,16,13,1.2,1.2
2024-04-01T2200,2364A,114.9461,25.8481,赣州市,气象台,,40,40,33,22,22,52,,66,65,24,27,12,12,0.6,0.7
2024-04-01T2200,2365A,114.9322,25.8333,赣州市,市图书馆,,,41,33,32,17,39,,62,60,,21,12,22,0.9,1
2024-04-01T2200,2366A,114.8905,25.8471,赣州市,华坚鞋城,,48,48,40,29,21,35,,56,53,26,23,19,20,0.7,0.8
2024-04-01T2200,3109A,115.0093,25.8613,赣州市,赣县区卫计委,,40,,25,28,18,50,,65,64,10,18,9,10,0.5,0.6
2024-04-01T2200,2683A,106.2319,36.1417,固原市,马园,颗粒物(PM10),402,502,278,144,69,61,,100,78,22,29,13,5,0.7,0.6
2024-04-01T2200,2684A,106.2792,36.0022,固原市,监测站,颗粒物(PM10),500,647,312,149,70,60,,103,85,19,19,9,7,0.4,0.4
2024-04-01T2200,2685A,106.2375,36.0211,固原市,新区,颗粒物(PM10),365,472,213,144,61,53,,103,82,28,18,8,8,0.3,0.4
2024-04-01T2200,3522A,106.2177,35.9959,固原市,原州区十五小,颗粒物(PM10),362,469,196,134,55,76,,116,94,24,13,7,7,0.2,0.2
2024-04-01T2200,2544A,106.6303,30.4576,广安市,市委,,34,34,40,23,23,53,,79,76,17,18,5,5,0.7,0.7
2024-04-01T2200,2545A,106.6271,30.4663,广安市,友谊中学,,40,38,44,28,22,52,,82,79,19,19,6,5,0.9,0.8
2024-04-01T2200,2547A,106.6388,30.4551,广安市,广电花园,,34,34,37,23,24,51,,80,78,19,20,8,7,0.7,0.6
2024-04-01T2200,2902A,106.6351,30.4865,广安市,北辰小学,,33,31,36,23,23,49,,77,75,14,14,11,10,0.6,0.6
2024-04-01T2200,2523A,105.8945,32.4535,广元市,黑石坡,,32,30,20,22,14,43,,86,54,20,16,6,6,0.5,0.4
2024-04-01T2200,2524A,105.821,32.4444,广元市,老城,颗粒物(PM10),55,60,43,22,18,28,,56,51,45,47,6,7,0.8,0.7
2024-04-01T2200,2526A,105.8628,32.4287,广元市,监测站,,42,42,28,19,17,13,,59,50,28,22,7,7,0.8,0.6
2024-04-01T2200,3617A,105.8047,32.4166,广元市,经开区,,50,50,43,27,25,20,,60,50,49,41,7,8,0.9,0.7
2024-04-01T2200,1345A,113.2347,23.1423,广州市,广雅中学,细颗粒物(PM2.5),73,72,45,53,26,38,,41,39,18,29,5,5,0.7,0.8
2024-04-01T2200,1346A,113.2612,23.105,广州市,市五中,细颗粒物(PM2.5),83,69,46,61,33,26,,25,23,18,25,7,6,0.6,0.7
2024-04-01T2200,1348A,113.3478,23.0916,广州市,广东商学院,细颗粒物(PM2.5),70,82,44,51,15,24,,23,23,24,23,4,4,0.6,0.6
2024-04-01T2200,1349A,113.4332,23.1047,广州市,市八十六中,细颗粒物(PM2.5),75,74,47,55,29,15,,22,20,39,32,6,6,0.5,0.5
2024-04-01T2200,1350A,113.3505,22.9483,广州市,番禺中学,细颗粒物(PM2.5),75,68,43,55,28,44,,38,38,14,25,7,7,0.5,0.6
2024-04-01T2200,1351A,113.2146,23.3916,广州市,花都师范,细颗粒物(PM2.5),65,71,48,47,29,34,,26,26,14,30,6,6,0.5,0.5
2024-04-01T2200,1352A,113.2597,23.1331,广州市,市监测站,细颗粒物(PM2.5),73,66,44,53,29,35,,35,34,13,26,6,5,0.3,0.4
2024-04-01T2200,1353A,113.5618,23.312,广州市,九龙镇镇龙,细颗粒物(PM2.5),73,73,50,53,31,39,,36,36,14,23,6,6,0.4,0.5
2024-04-01T2200,1354A,113.2765,23.1544,广州市,麓湖,细颗粒物(PM2.5),69,68,44,50,26,37,,36,36,12,23,5,5,0.4,0.5
2024-04-01T2200,1355A,113.443,23.3035,广州市,帽峰山森林公园,细颗粒物(PM2.5),67,81,40,48,24,32,,30,30,20,23,5,5,0.3,0.4
2024-04-01T2200,2846A,113.3221,23.1322,广州市,体育西,细颗粒物(PM2.5),75,84,49,55,29,22,,25,24,23,24,8,7,0.6,0.6
2024-04-01T2200,3298A,113.5717,23.5491,广州市,从化街口,细颗粒物(PM2.5),73,66,46,53,31,45,,44,44,11,19,8,7,0.5,0.6
2024-04-01T2200,3299A,113.3472,23.3692,广州市,白云竹料,细颗粒物(PM2.5),77,76,49,56,30,34,,34,33,19,28,7,6,0.5,0.6
2024-04-01T2200,3300A,113.2981,23.237,广州市,白云嘉禾,细颗粒物(PM2.5),77,81,47,56,27,21,,23,21,36,37,4,4,0.6,0.6
2024-04-01T2200,3301A,113.4256,23.1716,广州市,黄埔科学城,细颗粒物(PM2.5),84,80,50,62,32,28,,26,26,30,34,9,8,0.7,0.7
2024-04-01T2200,3302A,113.3942,23.0483,广州市,番禺大学城,细颗粒物(PM2.5),79,,36,58,28,30,,24,24,18,25,4,3,0.5,0.8
2024-04-01T2200,3303A,113.4922,22.8168,广州市,南沙黄阁,细颗粒物(PM2.5),77,70,42,56,29,44,,39,39,18,20,6,6,0.5,0.6
2024-04-01T2200,3304A,113.5342,22.7896,广州市,南沙街,细颗粒物(PM2.5),82,69,41,60,29,44,,41,41,12,17,7,6,0.5,0.5
2024-04-01T2200,3443A,113.2902,23.5544,广州市,花都梯面,细颗粒物(PM2.5),72,65,49,52,28,35,,36,35,17,26,7,6,0.6,0.7
2024-04-01T2200,3445A,113.7858,23.7478,广州市,从化良口,细颗粒物(PM2.5),58,53,37,41,28,47,,54,51,7,12,4,4,0.6,0.7
2024-04-01T2200,3446A,113.8051,23.2614,广州市,增城荔城,细颗粒物(PM2.5),77,74,51,56,32,52,,48,48,10,16,7,6,0.4,0.4
2024-04-01T2200,2505A,109.568,23.1478,贵港市,德智高中,颗粒物(PM10),57,63,66,36,41,55,,90,85,36,20,5,6,0.4,0.5
2024-04-01T2200,2506A,109.6047,23.0666,贵港市,江南子站,颗粒物(PM10),52,53,75,32,43,92,,112,110,8,16,6,9,0.7,0.9
2024-04-01T2200,2507A,109.6014,23.0948,贵港市,贵城子站,颗粒物(PM10),52,54,71,34,44,84,,101,101,13,17,8,9,0.9,1
2024-04-01T2200,2508A,109.5669,23.1065,贵港市,荷城子站,颗粒物(PM10),52,53,64,29,39,85,,100,99,10,14,10,12,0.6,0.6
2024-04-01T2200,3405A,109.5886,23.1172,贵港市,新世纪学校,颗粒物(PM10),52,53,66,33,38,88,,108,106,13,19,9,10,0.6,0.7
2024-04-01T2200,1439A,106.6899,26.5998,贵阳市,马鞍山,颗粒物(PM10),51,51,34,27,18,65,,124,111,24,10,10,9,0.4,0.6
2024-04-01T2200,1440A,106.6971,26.5694,贵阳市,市环保站,,46,46,40,30,32,96,,121,113,27,18,7,5,0.6,0.6
2024-04-01T2200,1441A,106.6243,26.6266,贵阳市,鉴湖路,颗粒物(PM10),51,51,46,19,24,117,,129,128,9,8,3,3,0.3,0.4
2024-04-01T2200,1442A,106.7487,26.6343,贵阳市,燕子冲,颗粒物(PM10),51,51,38,29,26,92,,128,116,19,12,6,6,0.4,0.5
2024-04-01T2200,1443A,106.6555,26.4365,贵阳市,碧云窝,颗粒物(PM10),52,53,39,22,21,127,,130,130,10,8,6,5,0.1,0.5
2024-04-01T2200,1444A,106.694,26.5161,贵阳市,中院村,,46,46,39,29,25,88,,110,102,24,17,10,9,0.3,0.4
2024-04-01T2200,1445A,106.7109,26.6027,贵阳市,红边门,颗粒物(PM10),53,56,45,36,32,79,,121,111,36,16,6,5,0.5,0.4
2024-04-01T2200,1446A,106.7164,26.5699,贵阳市,新华路,颗粒物(PM10),52,53,41,29,26,95,,124,117,28,15,6,5,0.5,0.6
2024-04-01T2200,1447A,106.674,26.5424,贵阳市,太慈桥,颗粒物(PM10),51,51,41,31,21,103,,118,117,20,13,10,7,0.5,0.2
2024-04-01T2200,1862A,110.4144,25.3167,桂林市,电子科大尧山校区,细颗粒物(PM2.5),55,57,36,39,39,26,,77,57,8,6,3,5,1.0,0.9
2024-04-01T2200,1863A,110.2819,25.2697,桂林市,监测站,颗粒物(PM10),86,121,58,58,34,4,,72,43,53,27,12,12,2.0,1.1
2024-04-01T2200,1864A,110.3089,25.2708,桂林市,龙隐路小学,细颗粒物(PM2.5),62,67,47,44,31,10,,77,53,37,19,8,8,1.2,0.9
2024-04-01T2200,1865A,110.2869,25.2178,桂林市,八中,细颗粒物(PM2.5),78,102,53,57,31,4,,73,49,49,25,9,8,1.1,0.5
2024-04-01T2200,3403A,110.1764,25.2381,桂林市,创业大厦,细颗粒物(PM2.5),79,80,57,58,40,73,,70,65,16,26,8,14,0.8,0.7
2024-04-01T2200,3531A,110.296,25.1253,桂林市,旅游学院,细颗粒物(PM2.5),83,80,46,61,30,42,,68,58,25,21,10,7,0.8,0.7
2024-04-01T2200,2674A,100.2561,34.4714,果洛藏族自治州,玛沁县大武镇,,35,21,22,15,16,112,,117,116,6,9,10,11,0.4,0.5
2024-04-01T2200,1129A,126.5422,45.755,哈尔滨市,岭北,,48,48,40,26,25,61,,84,76,29,18,14,13,0.6,0.7
2024-04-01T2200,1130A,126.561,45.8167,哈尔滨市,松北商大,颗粒物(PM10),51,51,46,27,23,20,,79,62,50,18,4,7,0.7,0.6
2024-04-01T2200,1131A,126.979,45.5419,哈尔滨市,阿城会宁,细颗粒物(PM2.5),73,77,61,53,33,23,,79,65,45,19,6,7,0.7,0.5
2024-04-01T2200,1132A,126.599,45.7222,哈尔滨市,南岗学府路,颗粒物(PM10),53,55,54,31,20,32,,72,62,46,19,9,9,0.7,0.5
2024-04-01T2200,1133A,126.689,45.7733,哈尔滨市,太平宏伟公园,,44,44,46,26,24,54,,82,74,15,12,10,10,0.7,0.6
2024-04-01T2200,1134A,126.635,45.7667,哈尔滨市,道外承德广场,,43,43,45,26,24,20,,73,60,67,30,8,8,0.8,0.7
2024-04-01T2200,1135A,126.685,45.7319,哈尔滨市,香坊红旗大街,,49,37,50,34,28,56,,80,74,22,21,10,9,0.5,0.4
2024-04-01T2200,1136A,126.6411,45.7258,哈尔滨市,动力和平路,,47,47,50,26,24,46,,83,73,38,21,6,6,0.6,0.5
2024-04-01T2200,1137A,126.593,45.7478,哈尔滨市,道里建国路,,44,44,49,23,29,30,,73,60,44,18,6,6,0.6,0.4
2024-04-01T2200,1138A,126.615,45.61,哈尔滨市,平房东轻厂,颗粒物(PM10),64,77,56,36,30,5,,78,48,72,29,7,6,0.6,0.3
2024-04-01T2200,1139A,126.595,45.9855,哈尔滨市,呼兰师专,细颗粒物(PM2.5),59,60,66,42,36,39,,76,64,44,21,9,7,0.7,0.6
2024-04-01T2200,1140A,126.6206,45.6842,哈尔滨市,省农科院,"颗粒物(PM10),细颗粒物(PM2.5)",82,114,57,60,35,10,,88,62,73,28,15,9,1.1,0.5
2024-04-01T2200,2688A,93.5128,42.8172,哈密市,地区监测站,颗粒物(PM10),73,95,119,23,20,80,,96,94,12,6,3,4,0.2,0.2
2024-04-01T2200,2689A,93.4961,42.8328,哈密市,哈密师范学校,颗粒物(PM10),75,99,174,21,26,79,,93,92,15,8,5,5,0.5,0.5
2024-04-01T2200,2671A,100.9048,36.9639,海北藏族自治州,海晏县西海镇,,48,48,60,30,28,92,,103,95,11,11,16,14,0,0.4
2024-04-01T2200,3867A,102.0738,36.5056,海东市,平安区公安北苑,颗粒物(PM10),61,72,75,30,33,80,,101,98,24,23,20,10,1.2,0.6
2024-04-01T2200,1410A,110.3232,20.0574,海口市,海南大学,,36,36,38,21,23,40,,87,67,5,7,8,7,0.2,0.3
2024-04-01T2200,1411A,110.283,20.0053,海口市,秀英海南医院,,,36,39,23,25,38,,92,,7,8,9,9,,0.4
2024-04-01T2200,1412A,110.338,19.9969,海口市,海南师范大学,,30,27,35,21,23,37,,89,68,5,6,8,8,0.4,0.4
2024-04-01T2200,1413A,110.33,20.0356,海口市,龙华路环保局宿舍,,32,32,43,20,23,38,,83,64,5,7,8,8,0.3,0.3
2024-04-01T2200,3539A,110.5111,19.9736,海口市,桂林洋子站,,34,34,32,20,20,40,,73,55,3,6,7,7,0.3,0.3
2024-04-01T2200,2673A,100.6188,36.2866,海南藏族自治州,共和县恰卜恰镇,,37,37,53,13,21,90,,114,102,14,13,12,14,0.4,0.5
2024-04-01T2200,2676A,97.3731,37.3753,海西蒙古族藏族自治州,德令哈市,颗粒物(PM10),349,459,119,89,30,107,,106,106,9,9,11,11,0.6,0.5
2024-04-01T2200,1048A,114.5302,36.6116,邯郸市,东污水处理厂,颗粒物(PM10),92,133,165,53,91,44,,61,46,32,33,5,5,0.5,0.6
2024-04-01T2200,1049A,114.4918,36.5713,邯郸市,矿院,细颗粒物(PM2.5),93,97,146,69,83,46,,73,54,35,34,4,5,0.8,0.9
2024-04-01T2200,1050A,114.484,36.6133,邯郸市,丛台公园,颗粒物(PM10),86,121,150,49,85,39,,69,48,37,32,6,7,0.5,0.6
2024-04-01T2200,3458A,114.7895,36.5593,邯郸市,香泉濮院小区,颗粒物(PM10),105,160,167,41,82,52,,54,49,24,26,6,7,0.3,0.4
2024-04-01T2200,3579A,114.50634,36.77178,邯郸市,永年区实验高中,颗粒物(PM10),103,155,187,54,92,57,,74,59,31,43,7,8,0.7,0.9
2024-04-01T2200,3580A,114.20016,36.44293,邯郸市,峰峰矿区临水派出所,细颗粒物(PM2.5),97,139,161,72,99,42,,112,73,32,20,15,12,1.5,1.2
2024-04-01T2200,2634A,106.9893,33.1842,汉中市,汉川机床厂子校,,30,26,31,21,24,88,,96,96,6,14,3,5,0.7,0.8
2024-04-01T2200,2635A,107.0154,33.0706,汉中市,市监测站,,41,41,45,26,26,88,,96,96,10,23,8,8,0.5,0.6
2024-04-01T2200,2636A,107.0089,33.1138,汉中市,鑫源开发区,,38,38,52,24,31,93,,98,98,6,30,8,10,0.6,0.8
2024-04-01T2200,2637A,107.007,33.0323,汉中市,南郑大河坎水厂,,44,44,43,28,23,83,,92,92,9,17,8,8,0.5,0.5
2024-04-01T2200,1223A,120.2072,30.2111,杭州市,滨江,,38,22,97,9,38,120,,154,140,8,48,3,5,0.4,0.8
2024-04-01T2200,1224A,120.0633,30.2747,杭州市,西溪,,26,15,53,7,34,83,,165,144,16,33,6,7,0.5,0.8
2024-04-01T2200,1226A,120.3461,30.3153,杭州市,下沙,,35,35,107,8,49,107,,188,151,16,51,6,8,0.4,0.9
2024-04-01T2200,1227A,120.1269,30.2456,杭州市,卧龙桥,,36,24,61,8,50,115,,168,148,11,28,3,5,0.5,0.9
2024-04-01T2200,1228A,120.1903,30.2692,杭州市,浙江农大,,34,19,87,6,45,108,,164,146,13,54,5,7,0.4,0.9
2024-04-01T2200,1230A,120.1197,30.3119,杭州市,和睦小学,,32,13,74,8,48,102,,173,153,16,52,6,8,0.4,0.9
2024-04-01T2200,1231A,120.3019,30.4183,杭州市,临平镇,,35,25,126,10,97,110,,183,143,12,41,5,6,0.5,0.9
2024-04-01T2200,1232A,120.2697,30.1819,杭州市,城厢镇,,37,26,71,7,47,117,,149,137,11,41,4,6,0.4,0.9
2024-04-01T2200,1233A,120.0883,30.1808,杭州市,云栖,,35,15,64,6,31,109,,142,131,16,28,8,8,0.5,0.8
2024-04-01T2200,3557A,119.9464,30.0494,杭州市,镇二中,,32,20,45,9,28,102,,128,120,20,38,6,6,0.5,0.8
2024-04-01T2200,3558A,119.7183,30.2367,杭州市,市府大楼,,29,18,46,10,34,92,,143,124,18,28,5,6,0.5,0.7
2024-04-01T2200,3656A,120.1556,30.2864,杭州市,消防大队,,33,12,80,8,50,104,,169,153,20,57,7,9,0.6,1.1
2024-04-01T2200,1270A,117.1959,31.7848,合肥市,明珠广场,,49,34,109,34,59,74,,156,128,33,41,4,8,0.5,0.7
2024-04-01T2200,1271A,117.3072,31.8764,合肥市,三里街,细颗粒物(PM2.5),52,51,126,36,63,58,,106,90,36,48,5,6,0.7,0.8
2024-04-01T2200,1272A,117.2588,31.8707,合肥市,琥珀山庄,,46,46,113,27,50,94,,152,132,29,33,4,6,0.7,0.8
2024-04-01T2200,1273A,117.1604,31.9052,合肥市,董铺水库,,42,42,133,27,54,117,,150,142,16,25,1,4,0.5,0.7
2024-04-01T2200,1274A,117.25,31.8571,合肥市,长江中路,细颗粒物(PM2.5),60,51,118,43,66,98,,149,128,25,29,2,9,0.9,1
2024-04-01T2200,1275A,117.266,31.9436,合肥市,庐阳区,细颗粒物(PM2.5),55,53,136,39,65,103,,118,111,22,44,4,7,0.6,0.8
2024-04-01T2200,1276A,117.336,31.8586,合肥市,瑶海区,细颗粒物(PM2.5),57,56,131,40,67,96,,138,120,26,51,7,9,0.9,1
2024-04-01T2200,1277A,117.3027,31.7964,合肥市,包河区,细颗粒物(PM2.5),52,39,119,36,61,90,,149,131,22,50,7,9,0.5,0.7
2024-04-01T2200,1278A,117.2776,31.7385,合肥市,滨湖新区,,35,29,111,24,56,79,,155,133,18,18,8,10,0.4,0.6
2024-04-01T2200,1279A,117.1318,31.8403,合肥市,高新区,细颗粒物(PM2.5),52,46,109,36,61,88,,147,132,32,27,7,10,0.8,0.9
2024-04-01T2200,3464A,117.3803,31.9147,合肥市,高教基地,,45,41,114,31,41,106,,158,145,20,43,7,9,0.6,0.7
2024-04-01T2200,3614A,79.924,37.0877,和田地区,地区环保局,颗粒物(PM10),117,183,459,42,132,97,,118,115,18,6,6,6,0.6,0.5
2024-04-01T2200,3615A,79.9131,37.113,和田地区,市环保局,颗粒物(PM10),93,136,441,51,98,101,,120,117,6,3,5,6,0.4,0.4
2024-04-01T2200,2516A,108.2011,24.715,河池市,东仁乐园,颗粒物(PM10),86,121,103,62,54,35,,64,57,17,12,5,5,0.7,0.7
2024-04-01T2200,2517A,108.0497,24.6947,河池市,市环保站,细颗粒物(PM2.5),79,83,71,58,51,109,,121,121,15,11,8,8,0.8,0.8
2024-04-01T2200,2518A,108.0983,24.6989,河池市,市疾控中心,细颗粒物(PM2.5),79,101,73,58,51,93,,126,123,33,19,7,7,0.9,0.8
2024-04-01T2200,1696A,114.6778,23.7569,河源市,源西,细颗粒物(PM2.5),123,,42,93,43,38,,50,48,13,18,4,4,0.6,0.8
2024-04-01T2200,1697A,114.6944,23.7586,河源市,东埔,细颗粒物(PM2.5),83,91,58,61,31,45,,48,47,5,12,7,6,0.5,0.7
2024-04-01T2200,1698A,114.6892,23.7233,河源市,老城,细颗粒物(PM2.5),65,58,39,47,25,47,,52,51,6,12,6,6,0.5,0.6
2024-04-01T2200,1718A,115.4208,35.2464,菏泽市,气象局,颗粒物(PM10),111,172,129,69,55,20,,155,111,48,22,4,5,0.6,0.6
2024-04-01T2200,1719A,115.4747,35.2375,菏泽市,市政协,颗粒物(PM10),120,190,123,89,57,16,,153,112,45,18,4,5,0.6,0.5
2024-04-01T2200,3374A,115.5564,35.0891,菏泽市,定陶老年大学,细颗粒物(PM2.5),104,151,108,78,52,81,,144,125,32,18,6,6,0.8,0.5
2024-04-01T2200,3647A,115.4702,35.2706,菏泽市,菏泽医专,颗粒物(PM10),113,175,119,77,54,16,,118,86,49,20,6,6,0.7,0.6
2024-04-01T2200,2514A,111.5264,24.4172,贺州市,环保小区,,47,47,54,25,35,74,,83,81,7,14,7,8,0.6,0.8
2024-04-01T2200,2515A,111.5608,24.4078,贺州市,政协大楼,,46,45,55,32,38,69,,78,76,9,13,6,8,0.7,0.7
2024-04-01T2200,3534A,111.4744,24.4553,贺州市,西湾,,47,47,59,30,38,68,,76,72,12,20,6,6,0.5,0.6
2024-04-01T2200,2385A,114.17,35.9019,鹤壁市,市监测站,细颗粒物(PM2.5),109,156,182,82,109,36,,122,80,35,30,13,12,0.8,1
2024-04-01T2200,2386A,114.2956,35.7511,鹤壁市,市交警支队,细颗粒物(PM2.5),125,163,168,95,102,27,,122,78,42,24,12,13,0.7,0.7
2024-04-01T2200,2387A,114.2878,35.7306,鹤壁市,迎宾馆,细颗粒物(PM2.5),119,148,144,90,106,31,,127,81,39,26,11,13,0.9,0.8
2024-04-01T2200,3474A,114.2617,35.6822,鹤壁市,大新区,细颗粒物(PM2.5),104,149,149,78,85,35,,130,84,47,34,13,11,1.1,1
2024-04-01T2200,3596A,114.1572,35.9603,鹤壁市,南山宾馆,颗粒物(PM10),107,163,190,79,108,40,,128,83,35,32,10,13,1.1,1.2
2024-04-01T2200,2244A,130.2537,47.3416,鹤岗市,哈啤分公司,,28,23,17,19,16,59,,66,64,4,4,13,13,0.6,0.5
2024-04-01T2200,2245A,130.2684,47.3086,鹤岗市,斯达机电,,35,24,20,24,15,59,,71,66,9,5,10,10,0.6,0.5
2024-04-01T2200,2246A,130.3114,47.3388,鹤岗市,东山纸板厂,,29,29,24,20,16,64,,70,67,3,3,12,12,0.2,0.3
2024-04-01T2200,2247A,130.1097,47.3382,鹤岗市,五号水库,,25,25,17,12,11,74,,83,79,5,4,10,9,0.4,0.4
2024-04-01T2200,2263A,127.4833,50.2524,黑河市,交通局,,39,39,16,27,13,40,,76,64,19,5,4,3,0.4,0.3
2024-04-01T2200,2264A,127.5144,50.2341,黑河市,环保局,,40,40,16,24,14,43,,74,66,26,8,7,6,0.5,0.3
2024-04-01T2200,2265A,127.5291,50.2472,黑河市,大黑河岛,,,33,26,19,11,,,,,16,19,2,3,0.5,0.4
2024-04-01T2200,1074A,115.6838,37.7541,衡水市,电机北厂,颗粒物(PM10),76,101,116,52,60,65,,63,63,24,28,3,4,0.5,0.5
2024-04-01T2200,1075A,115.6303,37.7316,衡水市,市监测站,颗粒物(PM10),67,83,106,39,54,62,,71,61,27,30,4,6,0.6,0.6
2024-04-01T2200,3188A,115.6683,37.7217,衡水市,市城管局,颗粒物(PM10),76,102,115,50,58,59,,61,59,29,32,7,9,0.5,0.5
2024-04-01T2200,3459A,115.5989,37.5491,衡水市,地表水厂,颗粒物(PM10),72,94,127,29,56,70,,65,58,15,27,4,6,0.4,0.6
2024-04-01T2200,2456A,112.5003,26.9167,衡阳市,原169医院,,34,34,39,12,23,47,,76,74,27,23,13,13,0.7,0.7
2024-04-01T2200,2457A,112.6194,26.9258,衡阳市,衡阳化工总厂,,38,30,35,26,23,73,,88,88,8,12,8,7,0.6,0.6
2024-04-01T2200,2458A,112.6211,26.8956,衡阳市,珠晖区环保局,,38,38,40,24,25,37,,82,77,36,21,7,9,0.8,0.8
2024-04-01T2200,2459A,112.6197,26.8733,衡阳市,市委党校,,39,39,38,21,22,66,,89,87,12,13,10,13,0.8,0.8
2024-04-01T2200,2460A,112.6006,26.8919,衡阳市,市监测站,,41,41,37,27,29,52,,85,82,22,20,8,9,0.7,0.7
2024-04-01T2200,2461A,112.5664,26.9056,衡阳市,真空机电公司,,34,34,35,23,22,60,,80,79,16,17,9,10,0.7,0.7
2024-04-01T2200,3399A,112.6703,26.882,衡阳市,师范学院,,40,40,39,26,26,59,,85,84,12,13,9,13,0.8,0.8
2024-04-01T2200,2608A,103.3772,23.3993,红河哈尼族彝族自治州,污水处理厂,细颗粒物(PM2.5),63,71,61,45,38,105,,124,120,12,9,7,11,0.4,0.3
2024-04-01T2200,2609A,103.3861,23.35,红河哈尼族彝族自治州,监测站,"颗粒物(PM10),细颗粒物(PM2.5)",60,70,56,43,36,89,,117,109,24,7,18,14,0.5,0.5
2024-04-01T2200,3038A,103.3758,23.368,红河哈尼族彝族自治州,州图书馆,细颗粒物(PM2.5),58,62,50,41,33,84,,114,106,21,8,6,10,0.5,0.4
2024-04-01T2200,1090A,111.6507,40.7517,呼和浩特市,呼市一监,颗粒物(PM10),81,112,92,28,31,97,,158,136,11,23,8,11,0.4,0.6
2024-04-01T2200,1091A,111.6572,40.8033,呼和浩特市,小召,颗粒物(PM10),80,110,104,19,31,99,,144,130,14,36,7,10,0.5,0.7
2024-04-01T2200,1094A,111.7516,40.8369,呼和浩特市,如意水处理厂,颗粒物(PM10),77,103,87,18,30,97,,139,126,8,39,8,10,0.3,0.5
2024-04-01T2200,1095A,111.7276,40.8062,呼和浩特市,二十九中,颗粒物(PM10),82,113,92,20,31,101,,145,132,10,30,9,12,0.5,0.6
2024-04-01T2200,1096A,111.5512,40.7866,呼和浩特市,工大金川校区,颗粒物(PM10),92,133,103,32,38,96,,142,127,8,38,6,9,0.3,0.5
2024-04-01T2200,1097A,111.717,40.7612,呼和浩特市,化肥厂生活区,颗粒物(PM10),79,107,90,19,28,100,,141,128,10,24,9,12,0.3,0.5
2024-04-01T2200,3698A,111.5968,40.8178,呼和浩特市,红旗小学,颗粒物(PM10),95,139,122,26,38,99,,140,127,12,47,5,8,0.3,0.6
2024-04-01T2200,3699A,111.6518,40.8389,呼和浩特市,海东办,颗粒物(PM10),103,156,119,25,38,99,,127,112,8,50,4,10,0.2,0.5
2024-04-01T2200,2192A,119.7594,49.2261,呼伦贝尔市,区环保局,,45,41,35,31,22,42,,88,80,47,24,5,4,0.5,0.4
2024-04-01T2200,3061A,119.7512,49.1577,呼伦贝尔市,国华电力东,,38,37,31,26,15,67,,90,83,14,8,4,4,0.4,0.3
2024-04-01T2200,2873A,120.0875,30.8955,湖州市,仁皇山新区,,30,29,92,15,65,95,,188,162,32,43,6,7,0.6,0.9
2024-04-01T2200,2907A,120.1844,30.8596,湖州市,吴兴区站,,31,31,74,17,65,85,,186,157,34,46,5,7,0.5,0.8
2024-04-01T2200,3562A,120.4148,30.8538,湖州市,南浔区站,,33,33,76,19,55,95,,182,157,28,40,9,10,0.7,0.8
2024-04-01T2200,1607A,120.9092,40.7136,葫芦岛市,龙港区,细颗粒物(PM2.5),70,76,71,51,34,72,,100,96,36,35,93,52,0.7,0.7
2024-04-01T2200,1608A,120.8392,40.7514,葫芦岛市,化工街,细颗粒物(PM2.5),70,75,75,51,37,83,,99,94,28,34,14,16,0.6,0.6
2024-04-01T2200,1609A,120.8341,40.7073,葫芦岛市,新区,细颗粒物(PM2.5),63,62,66,45,37,75,,100,96,37,42,24,26,0.8,0.9
2024-04-01T2200,1610A,120.8695,40.7677,葫芦岛市,东城区,细颗粒物(PM2.5),62,56,69,44,35,87,,103,98,28,37,12,14,0.7,0.9
2024-04-01T2200,2482A,109.5981,27.5721,怀化市,林科所,,25,24,21,10,10,80,,113,100,4,4,9,9,0.6,0.6
2024-04-01T2200,2483A,109.9453,27.5444,怀化市,河西地税局,,28,22,28,19,19,70,,98,88,5,12,8,6,0.6,0.6
2024-04-01T2200,2484A,109.9781,27.5342,怀化市,市四医院,,32,27,33,22,22,73,,106,95,7,19,6,7,0.6,0.6
2024-04-01T2200,2485A,109.9972,27.5578,怀化市,监测楼,,27,27,32,15,17,67,,100,90,6,11,6,8,0.6,0.6
2024-04-01T2200,2486A,110.0394,27.583,怀化市,市委党校,,32,27,25,22,17,64,,99,89,4,5,14,10,0.7,0.7
2024-04-01T2200,1210A,119.036,33.5981,淮安市,钵池山,细颗粒物(PM2.5),88,80,107,65,65,86,,187,154,28,30,10,14,1.0,1.1
2024-04-01T2200,1211A,119.007,33.575,淮安市,北京南路,细颗粒物(PM2.5),92,80,105,68,62,94,,206,170,24,30,8,11,0.8,0.9
2024-04-01T2200,1212A,118.989,33.6067,淮安市,市监测站,颗粒物(PM10),65,80,111,44,52,101,,202,172,26,27,8,13,1.0,1
2024-04-01T2200,1213A,119.135,33.5039,淮安市,楚州区监测站,细颗粒物(PM2.5),87,68,118,64,66,98,,196,163,26,40,6,10,0.7,0.9
2024-04-01T2200,1214A,119.0186,33.6297,淮安市,淮阴区监测站,细颗粒物(PM2.5),88,90,123,65,60,103,,200,164,26,33,8,10,0.6,0.8
2024-04-01T2200,3426A,118.8755,33.2894,淮安市,新华书店,颗粒物(PM10),61,72,113,41,63,91,,207,178,28,32,6,8,0.6,0.8
2024-04-01T2200,2282A,116.8004,33.975,淮北市,监测站,细颗粒物(PM2.5),109,92,95,82,52,207,,182,182,15,18,9,10,0.8,0.7
2024-04-01T2200,2283A,116.8091,33.9007,淮北市,烈山区政府,细颗粒物(PM2.5),112,120,109,84,58,201,,182,182,15,18,8,11,0.8,0.6
2024-04-01T2200,3330A,116.8873,33.9836,淮北市,杜集区检察院,臭氧1小时,110,107,97,65,46,219,,197,197,16,16,12,11,1.0,0.8
2024-04-01T2200,4017A,116.7923,33.9535,淮北市,市博物馆,臭氧1小时,100,90,91,59,44,200,,182,182,11,16,8,10,0.9,0.7
2024-04-01T2200,2277A,116.8305,32.7727,淮南市,潘集区政府,颗粒物(PM10),72,94,118,45,62,111,,147,128,24,21,7,5,0.5,0.6
2024-04-01T2200,2278A,117.0067,32.6524,淮南市,师范学院,颗粒物(PM10),67,83,123,46,64,118,,151,135,24,19,11,12,0.2,0.3
2024-04-01T2200,2279A,116.8569,32.5951,淮南市,谢家集区政府,颗粒物(PM10),51,52,104,32,48,121,,155,140,22,28,7,11,0.4,0.5
2024-04-01T2200,2280A,116.8281,32.633,淮南市,八公山区政府,颗粒物(PM10),61,72,128,39,63,127,,160,148,13,16,4,7,0.5,0.6
2024-04-01T2200,2281A,116.6325,32.6201,淮南市,焦岗湖风景区管理处,颗粒物(PM10),52,53,107,20,67,96,,134,119,17,23,4,5,0.1,0.3
2024-04-01T2200,2894A,117.0566,32.6531,淮南市,经济技术开发区消防队,颗粒物(PM10),64,77,109,44,56,121,,154,140,34,27,6,7,0.6,0.7
2024-04-01T2200,3329A,117.0108,32.5893,淮南市,山南新区,细颗粒物(PM2.5),78,86,122,57,66,134,,166,151,28,25,8,8,0.7,0.7
2024-04-01T2200,2446A,114.9028,30.4742,黄冈市,职工中心,,36,34,49,25,27,68,,111,86,12,13,20,15,0.5,0.4
2024-04-01T2200,2929A,114.8858,30.4519,黄冈市,红卫路,,26,17,41,14,27,83,,115,92,8,17,8,11,0.4,0.4
2024-04-01T2200,3398A,114.9136,30.4445,黄冈市,市林业局,,26,23,48,18,29,75,,112,80,4,16,7,8,0.3,0.4
2024-04-01T2200,2672A,102.0199,35.5102,黄南藏族自治州,同仁县隆务镇,颗粒物(PM10),55,59,56,32,27,70,,99,91,7,11,7,8,0.5,0.4
2024-04-01T2200,2295A,118.2903,29.6963,黄山市,延安路89号,,27,27,33,9,13,80,,105,99,8,9,5,6,0.6,0.6
2024-04-01T2200,2296A,118.327,29.7178,黄山市,黄山东路89号,,26,26,31,11,14,72,,103,87,8,9,5,5,0.4,0.4
2024-04-01T2200,2297A,118.1371,30.2756,黄山市,黄山区政府5号楼,,24,13,23,8,14,76,,111,98,9,9,4,4,0.4,0.6
2024-04-01T2200,2423A,115.0601,30.2313,黄石市,沈家营,,32,32,43,12,20,79,,103,73,14,30,14,18,0.6,1
2024-04-01T2200,2424A,115.0817,30.2006,黄石市,陈家湾,,29,25,39,7,17,91,,111,87,3,17,10,15,0.7,0.7
2024-04-01T2200,2426A,114.8988,30.2019,黄石市,铁山,,27,16,38,10,18,85,,104,87,6,18,7,13,0.5,0.7
2024-04-01T2200,2427A,115.0307,30.2092,黄石市,团城山,,29,27,41,5,12,91,,110,82,3,18,8,12,0.6,0.8
2024-04-01T2200,3149A,115.0235,30.1578,黄石市,笔架山北路,,28,24,39,6,14,88,,105,84,7,19,6,9,0.4,0.5
2024-04-01T2200,1392A,114.4183,23.0528,惠州市,河南岸金山湖子站,细颗粒物(PM2.5),77,67,41,56,27,40,,53,53,11,11,5,5,0.5,0.5
2024-04-01T2200,1393A,114.4053,23.0822,惠州市,下埔横江三路子站,细颗粒物(PM2.5),75,72,45,55,30,49,,57,57,11,13,6,5,0.6,0.6
2024-04-01T2200,1394A,114.4103,23.1142,惠州市,江北云山西路子站,细颗粒物(PM2.5),67,65,43,48,26,49,,52,52,5,10,5,6,0.4,0.5
2024-04-01T2200,1395A,114.4645,22.7833,惠州市,惠阳区承修路船湖子站,细颗粒物(PM2.5),69,64,41,50,27,47,,52,52,6,9,2,2,0.5,0.5
2024-04-01T2200,1396A,114.5317,22.7422,惠州市,大亚湾管委会子站,细颗粒物(PM2.5),67,66,42,48,26,45,,49,49,18,18,3,2,0.6,0.6
2024-04-01T2200,3314A,114.4338,22.8134,惠州市,惠阳秋长,细颗粒物(PM2.5),68,,37,49,27,58,,59,59,10,16,8,8,0.6,0.6
2024-04-01T2200,3452A,114.6517,22.775,惠州市,大亚湾霞涌,,45,38,26,31,20,43,,51,50,5,9,5,5,0.4,0.4
2024-04-01T2200,2240A,130.9762,45.3001,鸡西市,环保局,,29,29,37,10,16,66,,78,74,7,4,5,5,0.3,0.2
2024-04-01T2200,2243A,130.9429,45.3039,鸡西市,第一中学,,23,14,33,8,16,73,,90,82,6,6,6,6,0.1,0.1
2024-04-01T2200,3707A,131.0207,45.3073,鸡西市,欧美日汽修厂,,27,27,37,9,19,67,,79,75,7,5,2,3,0.3,0.3
2024-04-01T2200,3709A,130.9967,45.3106,鸡西市,市政设施管理处,,32,32,45,11,18,59,,83,76,12,9,4,4,0.2,0.2
2024-04-01T2200,2367A,114.9754,27.0803,吉安市,红声器材厂,,30,30,32,14,15,56,,77,77,21,22,10,13,0.6,0.3
2024-04-01T2200,2368A,114.9658,27.0999,吉安市,市森林工业局,,29,29,32,17,20,49,,75,75,24,20,10,20,0.4,0.3
2024-04-01T2200,2369A,114.99,27.1312,吉安市,市环境监测站,,32,32,32,18,16,65,,85,83,14,14,17,28,0.7,0.7
2024-04-01T2200,2370A,115.0093,27.0968,吉安市,青原区法院,,,33,32,11,17,41,,81,78,,16,17,17,0.6,0.6
2024-04-01T2200,1772A,126.54,43.8622,吉林市,哈达湾,颗粒物(PM10),62,74,76,42,49,78,,100,90,21,17,8,6,0.6,0.6
2024-04-01T2200,1773A,126.5844,43.8358,吉林市,东局子,颗粒物(PM10),69,87,87,45,41,36,,100,83,51,20,6,5,0.8,0.6
2024-04-01T2200,1774A,126.5052,43.8245,吉林市,电力学院,细颗粒物(PM2.5),105,132,88,79,54,29,,103,80,55,22,12,8,1.4,0.8
2024-04-01T2200,1775A,126.6133,43.8972,吉林市,江北,颗粒物(PM10),69,87,89,45,45,46,,96,78,32,26,10,8,1.2,0.9
2024-04-01T2200,1776A,126.555,43.8306,吉林市,江南公园,细颗粒物(PM2.5),69,81,74,50,46,60,,101,87,35,19,6,5,0.7,0.7
2024-04-01T2200,2868A,126.4739,43.953,吉林市,九站,细颗粒物(PM2.5),63,71,66,45,37,46,,98,78,44,21,7,10,0.9,0.8
2024-04-01T2200,1299A,116.9862,36.6114,济南市,科干所,颗粒物(PM10),98,146,122,56,47,49,,165,143,45,28,10,10,0.9,0.9
2024-04-01T2200,1300A,116.9376,36.665,济南市,农科所,颗粒物(PM10),91,132,150,54,57,42,,162,132,35,57,9,9,0.5,0.8
2024-04-01T2200,1301A,117.1265,36.6734,济南市,开发区,颗粒物(PM10),125,200,130,90,50,113,,184,179,47,52,13,11,1.0,0.8
2024-04-01T2200,1303A,117.0624,36.6868,济南市,省种子仓库,颗粒物(PM10),102,153,165,66,58,23,,168,138,49,84,8,10,0.5,0.8
2024-04-01T2200,1304A,116.9489,36.6447,济南市,机床二厂,颗粒物(PM10),97,144,147,68,60,46,,178,145,35,57,6,9,0.7,0.9
2024-04-01T2200,1305A,117.0495,36.663,济南市,市监测站,颗粒物(PM10),97,144,131,54,49,33,,179,154,60,62,14,14,0.8,0.9
2024-04-01T2200,1306A,116.7675,36.5484,济南市,长清党校,颗粒物(PM10),102,154,124,63,54,48,,172,136,36,16,11,10,0.7,0.8
2024-04-01T2200,1616A,117.6795,36.229,济南市,技术学院,颗粒物(PM10),95,139,130,58,55,145,,179,173,25,41,12,13,0.9,1
2024-04-01T2200,1961A,117.532,36.6868,济南市,东山小学,"颗粒物(PM10),细颗粒物(PM2.5)",138,225,143,105,59,106,,188,168,45,30,13,12,0.9,0.7
2024-04-01T2200,3059A,117.7161,36.2049,济南市,泰兴公司,颗粒物(PM10),89,127,127,63,54,125,,169,157,32,49,12,13,1.0,1.2
2024-04-01T2200,3064A,117.6867,36.2171,济南市,莱芜战役纪念馆,颗粒物(PM10),91,132,138,58,55,141,,177,170,26,44,10,11,1.0,1
2024-04-01T2200,3494A,117.1673,36.9782,济南市,济阳区政府,颗粒物(PM10),83,115,160,54,74,43,,163,129,44,52,11,20,0.7,1
2024-04-01T2200,3495A,117.1171,36.63,济南市,锦屏中学,细颗粒物(PM2.5),129,198,111,98,50,84,,168,157,47,21,12,9,1.0,0.8
2024-04-01T2200,3682A,116.9814,36.6819,济南市,济南四建,细颗粒物(PM2.5),80,102,148,59,61,41,,161,133,34,69,10,11,0.6,1
2024-04-01T2200,1653A,116.6251,35.4302,济宁市,火炬城,颗粒物(PM10),75,100,103,48,37,131,,164,160,18,17,13,10,1.0,0.9
2024-04-01T2200,1655A,116.5491,35.4042,济宁市,电化厂,颗粒物(PM10),89,128,119,41,35,152,,176,173,12,13,12,9,1.0,1
2024-04-01T2200,3500A,116.5814,35.3707,济宁市,北湖一中,细颗粒物(PM2.5),79,89,101,58,42,148,,180,173,15,16,4,3,1.1,1
2024-04-01T2200,3501A,116.8249,35.5593,济宁市,服务中心,颗粒物(PM10),86,122,117,47,37,112,,155,142,34,20,5,6,0.8,0.7
2024-04-01T2200,3678A,116.5907,35.4054,济宁市,市第七中学,颗粒物(PM10),72,94,101,51,39,140,,164,160,17,16,8,6,1.0,0.9
2024-04-01T2200,2255A,130.2751,46.8028,佳木斯市,佳纺,,27,27,26,12,10,65,,77,71,6,7,5,6,0.4,0.4
2024-04-01T2200,2256A,130.3995,46.8307,佳木斯市,发电厂,,21,14,15,6,6,66,,78,73,5,5,2,3,0.4,0.4
2024-04-01T2200,2257A,130.3258,46.7975,佳木斯市,环保局,,23,23,15,15,10,63,,79,68,8,7,4,4,0.4,0.4
2024-04-01T2200,2258A,130.3648,46.8032,佳木斯市,十一中,,22,22,17,14,10,63,,81,70,13,6,10,7,0.4,0.4
2024-04-01T2200,2259A,130.3794,46.7588,佳木斯市,四丰,,25,11,14,4,6,78,,88,82,2,3,1,1,0.4,0.4
2024-04-01T2200,1252A,120.7436,30.778,嘉兴市,清河小学,,44,44,68,19,33,112,,182,147,24,38,8,9,0.8,1
2024-04-01T2200,1253A,120.726,30.7478,嘉兴市,嘉兴学院,,47,47,95,23,45,106,,204,160,24,37,8,9,0.4,0.5
2024-04-01T2200,2872A,120.7846,30.7525,嘉兴市,南湖区残联,颗粒物(PM10),56,62,106,27,52,113,,195,156,22,35,9,10,0.7,0.8
2024-04-01T2200,3407A,120.6916,30.7739,嘉兴市,秀洲住建,,44,44,65,25,40,116,,197,156,20,40,7,8,0.6,0.8
2024-04-01T2200,1945A,98.2908,39.7711,嘉峪关市,气象局,颗粒物(PM10),63,75,193,22,37,86,,98,97,18,19,28,36,0.8,0.6
2024-04-01T2200,2884A,98.2672,39.7978,嘉峪关市,酒钢宾馆,颗粒物(PM10),71,92,218,29,38,89,,95,94,19,17,49,61,0.9,0.8
2024-04-01T2200,3248A,98.2643,39.7724,嘉峪关市,雄关区,颗粒物(PM10),67,84,149,26,35,83,,89,88,20,21,20,29,0.6,0.5
2024-04-01T2200,1383A,113.1064,22.6058,江门市,北街,细颗粒物(PM2.5),63,51,38,45,28,55,,46,46,5,10,7,6,0.3,0.3
2024-04-01T2200,1384A,113.0731,22.5835,江门市,西区,"颗粒物(PM10),细颗粒物(PM2.5)",55,59,41,39,23,58,,47,47,8,13,7,6,0.3,0.4
2024-04-01T2200,1385A,113.0219,22.5311,江门市,圭峰西,细颗粒物(PM2.5),60,52,38,43,26,49,,40,40,11,16,8,7,0.6,0.6
2024-04-01T2200,1386A,113.0828,22.5947,江门市,东湖,细颗粒物(PM2.5),62,63,44,44,26,59,,48,48,7,12,6,7,0.3,0.4
2024-04-01T2200,3311A,113.1075,22.5647,江门市,江海富民,细颗粒物(PM2.5),65,56,51,47,30,59,,48,48,6,11,7,7,0.3,0.3
2024-04-01T2200,3449A,113.05,22.4667,江门市,新会银湖,细颗粒物(PM2.5),52,48,35,36,22,59,,49,49,5,9,5,4,0.5,0.5
2024-04-01T2200,1828A,113.227,35.2125,焦作市,市环保局,细颗粒物(PM2.5),183,206,149,138,86,94,,152,142,28,22,11,10,1.5,1.1
2024-04-01T2200,3169A,113.2725,35.2067,焦作市,太极体育中心,细颗粒物(PM2.5),180,184,163,136,95,83,,157,143,37,29,7,12,0.9,0.6
2024-04-01T2200,3335A,113.3137,35.2641,焦作市,马村街道办,细颗粒物(PM2.5),178,205,150,134,89,75,,151,137,41,28,46,12,1.1,0.8
2024-04-01T2200,3336A,113.2465,35.2373,焦作市,焦作技师学院,细颗粒物(PM2.5),185,222,158,139,90,85,,138,130,31,25,8,8,0.9,0.8
2024-04-01T2200,3477A,113.1656,35.2539,焦作市,中站许衡医院,细颗粒物(PM2.5),162,166,116,123,68,105,,145,139,30,18,6,6,1.1,0.7
2024-04-01T2200,3981A,113.2449,35.1803,焦作市,原李万街道办,细颗粒物(PM2.5),156,201,150,119,85,77,,144,132,32,23,11,15,1.0,0.9
2024-04-01T2200,1708A,116.3701,23.5345,揭阳市,新兴,,47,47,43,28,28,54,,50,50,22,26,11,12,0.7,0.7
2024-04-01T2200,1709A,116.3264,23.5443,揭阳市,西马,,40,40,43,23,27,66,,55,55,11,19,8,11,0.6,0.7
2024-04-01T2200,1710A,116.3611,23.5626,揭阳市,东兴,颗粒物(PM10),51,52,48,28,28,44,,54,50,20,23,11,14,0.8,0.8
2024-04-01T2200,1711A,116.4151,23.5294,揭阳市,渔湖,,42,42,42,20,17,53,,52,52,21,28,10,10,0.8,0.7
2024-04-01T2200,3320A,116.403,23.5699,揭阳市,曲溪,,40,40,33,22,22,57,,56,56,17,22,4,10,0.5,0.6
2024-04-01T2200,1944A,102.1692,38.5167,金昌市,天庆家园,颗粒物(PM10),65,80,199,18,26,104,,109,96,6,6,8,8,0.4,0.4
2024-04-01T2200,3170A,102.1864,38.5253,金昌市,市委党校,颗粒物(PM10),81,111,225,29,54,101,,107,95,5,4,8,18,0.3,0.4
2024-04-01T2200,4022A,102.1647,38.5371,金昌市,金川区人防中心,颗粒物(PM10),80,110,229,22,36,106,,113,102,4,2,4,4,0.3,0.3
2024-04-01T2200,1262A,119.647,29.077,金华市,十五中,,35,24,35,14,20,112,,125,116,13,22,3,4,0.4,0.4
2024-04-01T2200,1263A,119.686,29.1029,金华市,监测站,,32,28,37,18,22,101,,118,109,13,24,2,3,0.5,0.6
2024-04-01T2200,3659A,119.656,29.1131,金华市,气象局,,33,26,38,8,18,104,,124,112,15,28,3,3,0.3,0.2
2024-04-01T2200,1767A,121.1115,41.0879,锦州市,南山,细颗粒物(PM2.5),73,70,55,53,37,104,,107,106,21,22,53,27,0.4,0.5
2024-04-01T2200,1768A,121.0533,40.8434,锦州市,开发区,细颗粒物(PM2.5),73,64,72,53,42,98,,106,104,22,36,14,14,0.5,0.5
2024-04-01T2200,1769A,121.1836,41.1119,锦州市,百股街道,细颗粒物(PM2.5),85,76,67,63,47,98,,110,107,24,28,23,18,0.4,0.6
2024-04-01T2200,1770A,121.1178,41.1222,锦州市,天安街道,细颗粒物(PM2.5),80,71,60,59,37,91,,96,94,24,22,12,15,0.5,0.6
2024-04-01T2200,1771A,121.1303,41.1386,锦州市,北湖公园,细颗粒物(PM2.5),93,76,57,69,38,94,,98,96,20,20,13,15,0.5,0.6
2024-04-01T2200,2160A,112.85,35.5051,晋城市,自来水公司,颗粒物(PM10),67,84,97,46,43,152,,162,162,16,34,9,8,0.7,0.8
2024-04-01T2200,2161A,112.8318,35.4936,晋城市,白云商贸,颗粒物(PM10),84,118,114,58,46,148,,157,157,15,34,9,8,0.8,0.8
2024-04-01T2200,2162A,112.8508,35.4887,晋城市,市环保局,颗粒物(PM10),72,94,110,46,43,147,,155,155,18,42,11,10,0.8,0.8
2024-04-01T2200,2163A,112.8676,35.4897,晋城市,技术学院,颗粒物(PM10),64,77,116,44,42,143,,155,155,18,49,5,5,0.7,0.8
2024-04-01T2200,3620A,112.8271,35.4828,晋城市,泽州一中,颗粒物(PM10),74,98,103,53,43,156,,162,162,15,25,10,9,0.8,0.8
2024-04-01T2200,2171A,112.7532,37.6945,晋中市,锦纶小区,细颗粒物(PM2.5),119,168,174,90,81,103,,158,142,28,32,12,14,0.7,0.7
2024-04-01T2200,2173A,112.7249,37.7067,晋中市,南都小区,细颗粒物(PM2.5),129,156,160,98,72,96,,158,140,28,37,11,13,0.8,0.8
2024-04-01T2200,2174A,112.6991,37.6982,晋中市,榆次区政府,细颗粒物(PM2.5),112,146,155,84,70,100,,157,143,26,34,13,15,0.7,0.7
2024-04-01T2200,2865A,112.7195,37.6828,晋中市,榆次三中,细颗粒物(PM2.5),110,166,184,83,76,100,,159,143,28,33,11,13,0.8,0.8
2024-04-01T2200,2439A,112.2014,31.0481,荆门市,竹园小学,,49,,64,34,50,75,,103,90,18,23,7,14,0.7,0.7
2024-04-01T2200,2440A,112.1969,30.9891,荆门市,掇刀,细颗粒物(PM2.5),53,,58,37,45,69,,102,92,13,15,10,16,0.6,0.6
2024-04-01T2200,2441A,112.2213,31.0386,荆门市,石化一小,,43,43,71,24,47,79,,108,95,22,27,15,22,0.6,0.6
2024-04-01T2200,3012A,112.1849,31.0362,荆门市,西山林语,,43,37,53,30,36,75,,106,94,17,16,8,13,0.6,0.6
2024-04-01T2200,3547A,112.1632,31.0138,荆门市,龙泉中学南校,,23,23,43,14,26,66,,105,95,10,9,5,9,0.8,0.7
2024-04-01T2200,1844A,112.2494,30.3197,荆州市,市图书馆,,21,21,40,14,23,60,,89,86,29,25,6,8,0.9,0.9
2024-04-01T2200,1845A,112.2008,30.3544,荆州市,市委党校,,26,,39,18,26,70,,91,89,21,24,6,8,0.9,0.9
2024-04-01T2200,3194A,112.2747,30.3122,荆州市,管委会,,21,21,39,13,22,65,,93,90,18,19,7,11,0.7,0.7
2024-04-01T2200,3548A,112.1655,30.3364,荆州市,学苑路,,39,,34,27,36,64,,97,92,25,28,6,7,0.6,0.6
2024-04-01T2200,2343A,117.2117,29.2933,景德镇市,老干部活动中心,,21,18,24,8,14,65,,87,67,7,13,4,6,0.2,0.2
2024-04-01T2200,2344A,117.1894,29.2789,景德镇市,兽医站,,25,15,28,15,16,77,,97,78,8,13,6,9,0.8,0.8
2024-04-01T2200,2345A,117.1547,29.2617,景德镇市,台达陶瓷,,23,22,26,16,17,69,,87,65,9,22,16,22,0.5,0.6
2024-04-01T2200,2346A,117.2461,29.2956,景德镇市,陶研所,,22,18,26,2,13,70,,91,70,8,14,6,11,0.2,0.3
2024-04-01T2200,1803A,115.9872,29.6815,九江市,十里,,24,24,23,10,11,52,,96,82,28,24,10,11,0.7,0.5
2024-04-01T2200,1804A,115.9584,29.7046,九江市,茅山头,,42,,25,29,18,51,,87,72,30,37,10,11,0.7,0.7
2024-04-01T2200,1805A,115.9877,29.7295,九江市,西园,,23,17,23,14,13,72,,84,82,17,21,11,15,0.7,0.7
2024-04-01T2200,1806A,116.0172,29.6547,九江市,五七二七厂,,25,24,14,11,12,80,,97,80,12,13,8,9,0.7,0.5
2024-04-01T2200,1808A,115.9114,29.6038,九江市,综合工业园,,34,34,24,20,14,27,,85,50,45,36,10,11,1.0,0.7
2024-04-01T2200,1809A,116.0721,29.7535,九江市,石化总厂,,,,28,7,14,78,,93,84,10,13,12,13,0.6,0.6
2024-04-01T2200,1810A,115.9773,29.5698,九江市,庐山气象台,,31,,7,10,9,97,,111,99,3,2,7,7,1.1,1
2024-04-01T2200,3190A,116.0254,29.6994,九江市,外国语学校,,25,,19,12,12,79,,96,85,16,21,12,16,0.7,0.6
2024-04-01T2200,2658A,98.5061,39.7443,酒泉市,仓门街子站,颗粒物(PM10),76,102,210,27,34,93,,93,93,5,4,6,6,0.2,0.2
2024-04-01T2200,2659A,98.4989,39.7256,酒泉市,油田生活基地,颗粒物(PM10),82,114,201,35,36,97,,96,96,4,4,8,8,0.2,0.2
2024-04-01T2200,2698A,76.0072,39.4467,喀什地区,巡警大队,颗粒物(PM10),105,160,153,31,15,89,,110,109,29,51,2,9,0.5,0.4
2024-04-01T2200,2699A,75.9755,39.4694,喀什地区,吾办,颗粒物(PM10),113,175,166,43,30,82,,106,105,35,22,3,3,0.7,0.5
2024-04-01T2200,4027A,75.9483,39.4689,喀什地区,老干局,颗粒物(PM10),114,178,197,26,22,100,,118,116,19,11,4,2,0.7,0.6
2024-04-01T2200,1824A,114.3389,34.7781,开封市,肿瘤医院,细颗粒物(PM2.5),144,185,133,110,66,37,,113,76,27,18,4,5,0.8,0.6
2024-04-01T2200,1826A,114.2885,34.7965,开封市,世纪星幼儿园,颗粒物(PM10),101,152,123,70,56,32,,108,73,31,19,3,5,0.8,0.7
2024-04-01T2200,3147A,114.3438,34.8106,开封市,龙亭公园,颗粒物(PM10),115,180,139,78,64,32,,125,80,31,18,3,6,0.9,0.8
2024-04-01T2200,3210A,114.3644,34.7964,开封市,汴京公园,细颗粒物(PM2.5),152,188,137,116,87,27,,112,70,31,21,3,6,1.0,0.9
2024-04-01T2200,3473A,114.2485,34.8306,开封市,技师学院,细颗粒物(PM2.5),176,160,129,133,92,34,,114,80,26,12,6,8,1.0,0.9
2024-04-01T2200,3592A,114.4644,34.7556,开封市,祥符区生态环境局,颗粒物(PM10),116,181,112,83,62,24,,131,80,38,25,5,7,0.9,0.7
2024-04-01T2200,1951A,84.895,45.6094,克拉玛依市,长征新村,,22,16,11,7,5,70,,76,76,8,7,9,8,0.2,0.2
2024-04-01T2200,1952A,84.8988,45.5893,克拉玛依市,南林小区,,24,17,12,7,8,76,,80,80,4,7,7,7,0.3,0.4
2024-04-01T2200,1954A,84.905,44.3396,克拉玛依市,独山子区,,21,6,8,3,3,67,,82,80,19,7,6,6,0.5,0.4
2024-04-01T2200,1955A,85.6979,46.098,克拉玛依市,乌尔禾区商贸楼,,23,11,10,9,6,73,,79,78,4,6,7,7,0.2,0.2
2024-04-01T2200,3612A,85.1045,45.6899,克拉玛依市,白碱滩区新站,,24,24,12,10,9,70,,80,80,11,7,8,7,0.2,0.2
2024-04-01T2200,2697A,76.1454,39.7142,克孜勒苏柯尔克孜自治州,市人民政府,颗粒物(PM10),81,112,56,31,14,84,,112,109,25,5,6,6,0.2,0.1
2024-04-01T2200,3665A,76.1658,39.7157,克孜勒苏柯尔克孜自治州,克州文化中心,颗粒物(PM10),88,125,42,41,17,91,,118,110,21,6,7,6,0.4,0.3
2024-04-01T2200,1450A,102.8204,24.8886,昆明市,呈贡新区,,34,30,30,13,16,107,,115,112,11,9,5,6,0.6,0.6
2024-04-01T2200,1452A,102.7252,25.0902,昆明市,龙泉镇,,35,33,29,11,14,109,,114,112,10,11,6,6,0.5,0.5
2024-04-01T2200,1453A,102.7266,25.0375,昆明市,东风东路,,34,26,32,17,22,108,,114,112,11,14,7,7,0.4,0.5
2024-04-01T2200,1454A,102.6742,25.0669,昆明市,金鼎山,,35,24,29,14,16,112,,116,114,11,14,3,4,0.4,0.5
2024-04-01T2200,1455A,102.6644,25.0401,昆明市,碧鸡广场,,35,25,29,15,19,110,,118,115,10,11,7,9,0.4,0.5
2024-04-01T2200,3179A,102.7494,25.0119,昆明市,官渡区博物馆,,32,24,32,15,20,102,,121,117,14,12,9,9,0.5,0.7
2024-04-01T2200,3375A,102.8017,24.8336,昆明市,青年创业园,,38,23,26,12,18,119,,126,123,5,6,10,10,0.5,0.5
2024-04-01T2200,3550A,102.7997,24.9786,昆明市,昆明学院,,34,28,31,13,18,108,,119,116,12,10,10,8,0.6,0.5
2024-04-01T2200,3551A,102.5967,24.6736,昆明市,晋宁区生态环境分局,,35,30,25,9,17,110,,117,114,5,5,2,2,0.5,0.5
2024-04-01T2200,3552A,102.6678,24.9856,昆明市,云天化总部,,37,17,27,11,18,118,,129,125,8,7,8,9,0.7,0.7
2024-04-01T2200,1456A,91.1319,29.6514,拉萨市,八廓街,,28,28,21,19,9,79,,126,117,47,18,9,7,0.6,0.4
2024-04-01T2200,1457A,91.1221,29.6747,拉萨市,市环保局,,43,43,30,17,9,63,,120,108,38,17,8,6,0.7,0.4
2024-04-01T2200,1458A,91.0874,29.6475,拉萨市,区监测站,,34,30,20,17,8,53,,124,110,68,19,6,5,0.7,0.5
2024-04-01T2200,1459A,91.1774,29.6541,拉萨市,西藏大学,,29,25,22,13,7,90,,127,121,26,7,4,4,0.5,0.4
2024-04-01T2200,1460A,90.9798,29.6588,拉萨市,区辐射站,,32,32,24,16,10,85,,117,113,30,18,6,6,0.6,0.5
2024-04-01T2200,1461A,91.0834,29.6292,拉萨市,拉萨火车站,,,27,27,13,16,,,122,119,18,10,6,4,0.4,0.4
2024-04-01T2200,2520A,109.2203,23.7256,来宾市,来宾技工学校,"颗粒物(PM10),细颗粒物(PM2.5)",55,60,69,39,41,87,,105,104,9,8,11,10,0.6,0.7
2024-04-01T2200,3535A,109.1781,23.7297,来宾市,兴宾区政府,细颗粒物(PM2.5),53,49,56,37,39,103,,110,108,8,11,6,6,0.5,0.6
2024-04-01T2200,4002A,109.2416,23.7461,来宾市,中南小学,颗粒物(PM10),51,52,67,35,40,85,,109,106,12,11,10,8,0.8,0.8
2024-04-01T2200,1476A,103.631,36.1031,兰州市,兰炼宾馆,颗粒物(PM10),125,200,96,60,38,95,,96,96,10,29,7,11,0.2,0.3
2024-04-01T2200,1478A,103.8412,36.0726,兰州市,生物制品所,颗粒物(PM10),137,223,97,68,39,98,,98,97,10,24,8,11,0.2,0.4
2024-04-01T2200,1479A,103.831,36.0464,兰州市,铁路设计院,颗粒物(PM10),126,201,91,61,34,86,,92,88,25,31,6,10,0.3,0.4
2024-04-01T2200,3186A,103.7158,36.1058,兰州市,教育港,颗粒物(PM10),124,198,96,35,30,95,,100,100,19,31,8,9,0.3,0.4
2024-04-01T2200,3241A,103.7439,36.0842,兰州市,百合公园,颗粒物(PM10),125,200,95,55,31,97,,97,97,9,31,6,6,0.4,0.5
2024-04-01T2200,3242A,103.9611,35.998,兰州市,和平,颗粒物(PM10),169,287,101,99,35,82,,108,103,24,16,11,12,0.3,0.4
2024-04-01T2200,3245A,103.6633,36.533,兰州新区,新区管委会,颗粒物(PM10),117,184,92,60,32,92,,106,105,6,14,5,15,0.3,0.5
2024-04-01T2200,3246A,103.6975,36.4789,兰州新区,舟曲中学,颗粒物(PM10),147,243,116,64,34,88,,97,96,8,16,14,17,0.4,0.5
2024-04-01T2200,1067A,116.6708,39.5111,廊坊市,药材公司,颗粒物(PM10),73,95,111,32,44,94,,102,101,20,29,4,5,0.7,0.8
2024-04-01T2200,1068A,116.7214,39.5589,廊坊市,开发区,颗粒物(PM10),63,76,105,34,43,95,,102,102,21,28,4,5,0.6,0.7
2024-04-01T2200,1070A,116.7244,39.5269,廊坊市,北华航天学院,颗粒物(PM10),64,77,103,31,41,96,,101,101,18,26,4,5,0.6,0.7
2024-04-01T2200,2919A,116.7022,39.5453,廊坊市,河北工业大学,颗粒物(PM10),69,87,104,33,43,96,,103,102,18,29,4,6,0.6,0.7
2024-04-01T2200,2535A,103.7723,29.5462,乐山市,花湖湾,颗粒物(PM10),69,87,89,43,37,89,,133,126,12,14,2,4,0.7,0.7
2024-04-01T2200,2536A,103.7627,29.5844,乐山市,牛耳桥,细颗粒物(PM2.5),63,54,46,45,39,97,,139,130,20,21,4,6,0.7,0.7
2024-04-01T2200,2537A,103.7508,29.6006,乐山市,市第三水厂,细颗粒物(PM2.5),54,46,49,38,37,106,,137,129,25,25,3,6,0.7,0.7
2024-04-01T2200,2538A,103.7571,29.5664,乐山市,市监测站,,47,47,45,22,29,106,,144,137,13,16,4,6,0.7,0.7
2024-04-01T2200,3361A,103.7311,29.5628,乐山市,理工大学,,49,34,45,34,37,111,,147,138,14,16,6,10,0.5,0.6
2024-04-01T2200,2599A,100.2497,26.8802,丽江市,丽江古城,,28,28,24,17,15,87,,93,90,11,11,9,9,0.7,0.7
2024-04-01T2200,2600A,100.2203,26.8906,丽江市,市中心,,28,14,11,9,6,88,,91,88,9,10,6,7,0.6,0.6
2024-04-01T2200,1267A,119.914,28.4514,丽水市,监测站大楼,,36,18,29,7,12,114,,121,121,8,22,3,3,0.3,0.4
2024-04-01T2200,1268A,119.93,28.4586,丽水市,莲都小学,,38,19,29,6,12,121,,130,130,5,17,3,2,0.2,0.3
2024-04-01T2200,1269A,119.879,28.4231,丽水市,余庄前,,31,22,30,11,17,99,,116,116,8,14,4,4,0.4,0.5
2024-04-01T2200,1173A,119.176,34.5885,连云港市,市环境监测站,颗粒物(PM10),63,75,97,34,44,102,,147,128,17,20,10,10,0.3,0.3
2024-04-01T2200,3000A,119.3581,34.6972,连云港市,德源药业,颗粒物(PM10),53,56,84,19,31,91,,135,120,14,19,5,6,0.6,0.6
2024-04-01T2200,3007A,119.178,34.844,连云港市,新城一中,颗粒物(PM10),56,61,79,12,28,94,,116,113,21,35,6,8,0.6,0.7
2024-04-01T2200,3008A,119.3608,34.7519,连云港市,胡沟管理处,颗粒物(PM10),53,56,79,17,30,36,,103,79,61,33,14,12,0.8,0.8
2024-04-01T2200,3009A,119.1478,34.5911,连云港市,矿山设计院,颗粒物(PM10),67,83,101,24,37,101,,145,126,18,21,6,7,0.8,0.8
2024-04-01T2200,3434A,119.2413,34.6539,连云港市,工贸学校,颗粒物(PM10),62,74,93,32,44,92,,171,153,34,21,9,10,0.5,0.6
2024-04-01T2200,3664A,119.4172,34.7341,连云港市,连云街道,颗粒物(PM10),76,102,100,20,34,172,,142,142,15,53,6,6,0.9,0.7
2024-04-01T2200,2571A,102.3431,27.8099,凉山彝族自治州,青龙寺,,36,15,16,2,3,115,,115,115,4,6,4,5,0.8,0.8
2024-04-01T2200,2572A,102.2721,27.8415,凉山彝族自治州,邛海宾馆,,36,17,17,9,9,114,,116,115,7,7,14,12,0.4,0.4
2024-04-01T2200,2573A,102.2625,27.898,凉山彝族自治州,西昌市政府,,34,20,20,11,12,107,,110,109,5,7,10,13,0.6,0.8
2024-04-01T2200,2574A,102.2685,27.8851,凉山彝族自治州,凉山州政府,,32,21,18,10,9,101,,105,104,7,7,11,12,0.7,0.8
2024-04-01T2200,2575A,102.237,27.8914,凉山彝族自治州,长安,,35,22,20,9,10,109,,114,113,7,7,9,12,0.4,0.6
2024-04-01T2200,2212A,123.2,41.1953,辽阳市,宏伟区,细颗粒物(PM2.5),100,95,74,75,56,74,,90,85,34,30,25,18,1.0,0.9
2024-04-01T2200,2213A,123.1683,41.2495,辽阳市,新华园,细颗粒物(PM2.5),104,95,87,78,65,80,,96,88,29,36,20,14,0.8,0.9
2024-04-01T2200,2214A,123.2354,41.2639,辽阳市,滨河路,细颗粒物(PM2.5),152,135,83,116,68,78,,95,86,31,37,24,13,1.0,0.8
2024-04-01T2200,2215A,123.149,41.2991,辽阳市,铁西工业园,细颗粒物(PM2.5),100,100,87,75,66,66,,95,82,31,34,19,15,1.1,1.1
2024-04-01T2200,2227A,125.1358,42.8845,辽源市,环保局,细颗粒物(PM2.5),99,88,52,74,36,41,,110,97,53,22,12,9,1.2,0.7
2024-04-01T2200,3239A,125.0764,42.9078,辽源市,银鹰制药,细颗粒物(PM2.5),109,113,56,82,36,48,,105,89,37,29,10,10,0.9,0.6
2024-04-01T2200,1625A,115.9848,36.4372,聊城市,区政府,颗粒物(PM10),87,123,143,42,59,48,,118,76,31,23,11,16,0.6,0.8
2024-04-01T2200,2878A,116.0072,36.4343,聊城市,聊大东校,颗粒物(PM10),85,119,131,46,57,50,,150,90,30,23,8,12,0.6,0.9
2024-04-01T2200,3200A,115.9819,36.4978,聊城市,监控中心,颗粒物(PM10),88,125,144,44,62,49,,134,75,28,19,9,13,0.6,0.7
2024-04-01T2200,3513A,116.0445,36.4361,聊城市,九州社区,颗粒物(PM10),86,122,151,29,45,46,,132,81,26,17,12,13,0.5,0.6
2024-04-01T2200,4018A,116.0567,36.4608,聊城市,星美广场,颗粒物(PM10),84,118,144,36,52,50,,140,85,24,17,8,11,0.5,0.8
2024-04-01T2200,2632A,94.3681,29.6376,林芝市,林芝监测站,,22,13,6,8,3,68,,114,104,17,3,5,5,0.6,0.5
2024-04-01T2200,2633A,94.3616,29.6616,林芝市,林芝人民医院,,26,26,11,14,6,75,,119,109,14,6,6,6,0.6,0.4
2024-04-01T2200,2603A,100.0781,23.8982,临沧市,市环保局,细颗粒物(PM2.5),72,52,46,52,45,85,,115,108,13,11,6,6,0.5,0.4
2024-04-01T2200,2604A,100.0894,23.8822,临沧市,市气象局,细颗粒物(PM2.5),57,58,52,40,38,112,,118,115,10,12,7,6,0.5,0.5
2024-04-01T2200,1733A,111.5531,36.0783,临汾市,临钢医院,颗粒物(PM10),77,103,125,44,44,97,,152,130,21,36,13,10,0.8,0.8
2024-04-01T2200,1734A,111.5028,36.0714,临汾市,技工学校,细颗粒物(PM2.5),78,87,118,57,50,98,,156,134,25,35,13,11,0.8,0.9
2024-04-01T2200,1736A,111.5018,36.0855,临汾市,市委,颗粒物(PM10),72,94,117,40,42,100,,152,130,30,39,19,12,1.1,0.9
2024-04-01T2200,3018A,111.505,36.1014,临汾市,唐尧大酒店,颗粒物(PM10),71,92,117,45,43,102,,142,123,18,29,12,9,0.9,0.8
2024-04-01T2200,3668A,111.5036,36.0414,临汾市,城南,细颗粒物(PM2.5),80,82,132,59,50,83,,159,122,25,43,15,10,0.8,0.8
2024-04-01T2200,2667A,103.2069,35.5993,临夏回族自治州,环保局,颗粒物(PM10),94,138,107,41,43,57,,91,87,25,21,8,7,0.5,0.6
2024-04-01T2200,2668A,103.2417,35.6057,临夏回族自治州,建设大厦,颗粒物(PM10),87,124,98,37,41,68,,92,90,21,24,9,8,0.4,0.5
2024-04-01T2200,1618A,118.3429,35.0532,临沂市,沂河小区,颗粒物(PM10),78,105,129,45,66,77,,166,143,27,32,15,13,2.0,0.8
2024-04-01T2200,1619A,118.295,35.0583,临沂市,鲁南制药厂,颗粒物(PM10),78,105,127,41,50,87,,174,155,28,34,14,13,1.7,0.4
2024-04-01T2200,1620A,118.2794,34.9976,临沂市,新光毛纺厂,颗粒物(PM10),75,100,120,45,62,92,,173,154,30,38,7,10,1.5,1
2024-04-01T2200,1621A,118.3956,35.0888,临沂市,河东保险公司,颗粒物(PM10),73,95,115,44,57,68,,165,140,35,38,16,10,1.8,0.5
2024-04-01T2200,3370A,118.3564,35.0215,临沂市,十里堡居委,,,,112,,51,,,119,,,38,,11,,0.9
2024-04-01T2200,3496A,118.3604,35.1084,临沂市,南坊新区,颗粒物(PM10),80,110,121,46,56,71,,175,150,33,33,19,13,2.1,0.9
2024-04-01T2200,3860A,118.3920,35.0300,临沂市,皇山花园小区,颗粒物(PM10),73,95,114,51,58,76,,167,144,30,35,17,13,2.7,1.2
2024-04-01T2200,1870A,109.4856,24.3895,柳州市,柳东小学,细颗粒物(PM2.5),62,65,51,44,40,113,,121,121,5,14,6,7,0.4,0.5
2024-04-01T2200,1871A,109.4157,24.3277,柳州市,环保监测站,细颗粒物(PM2.5),52,,53,36,40,97,,112,110,7,11,6,6,0.6,0.7
2024-04-01T2200,1872A,109.389,24.341,柳州市,河西水厂,颗粒物(PM10),54,58,62,36,38,98,,115,113,8,12,4,4,0.6,0.7
2024-04-01T2200,1873A,109.4311,24.2921,柳州市,市四中,,50,50,64,32,38,101,,113,112,8,13,6,6,0.6,0.7
2024-04-01T2200,1874A,109.4006,24.3631,柳州市,市九中,颗粒物(PM10),58,65,65,37,37,100,,116,115,10,15,6,6,0.7,0.8
2024-04-01T2200,1875A,109.4958,24.3134,柳州市,古亭山,"颗粒物(PM10),细颗粒物(PM2.5)",54,57,61,38,39,113,,120,120,5,11,6,6,0.5,0.6
2024-04-01T2200,3402A,109.5422,24.3996,柳州市,市二中,颗粒物(PM10),57,64,61,38,38,102,,119,119,10,20,8,8,0.8,0.9
2024-04-01T2200,2307A,116.5079,31.737,六安市,监测大楼,,33,,70,17,54,104,,141,125,6,15,4,6,0.5,0.7
2024-04-01T2200,2308A,116.4738,31.7643,六安市,皖西学院,,34,23,75,13,45,108,,144,129,6,13,3,5,0.5,0.7
2024-04-01T2200,2309A,116.4996,31.7905,六安市,朝阳厂,,31,,61,16,53,99,,140,125,5,13,5,6,0.3,0.6
2024-04-01T2200,2310A,116.5567,31.7886,六安市,开发区,,32,32,90,11,51,94,,141,124,15,22,6,10,0.6,0.8
2024-04-01T2200,2577A,104.83,26.5917,六盘水市,黄土坡,,35,15,32,11,20,109,,121,119,10,9,7,8,0.6,0.6
2024-04-01T2200,2578A,104.89,26.5939,六盘水市,水钢,颗粒物(PM10),64,77,45,7,20,100,,124,119,28,8,14,8,1.4,0.7
2024-04-01T2200,2579A,104.8475,26.5894,六盘水市,民中,,37,19,28,9,18,116,,121,120,6,7,6,7,0.3,0.6
2024-04-01T2200,2580A,104.9544,26.5506,六盘水市,双水,,36,22,36,11,19,113,,126,123,12,8,6,7,0.2,0.4
2024-04-01T2200,2336A,117.0217,25.1033,龙岩市,龙岩市监测站,,32,23,29,22,29,28,,36,28,26,21,8,11,0.7,0.8
2024-04-01T2200,2337A,117.0258,25.0661,龙岩市,闽西职业技术学院,,22,16,28,15,23,37,,46,44,16,17,12,9,0.5,0.6
2024-04-01T2200,2338A,117.0196,25.0306,龙岩市,龙岩学院,,17,17,31,10,23,30,,38,36,16,17,4,6,0.6,0.7
2024-04-01T2200,2885A,104.9339,33.3826,陇南市,滨江中学,,47,47,47,28,21,84,,127,110,7,8,8,8,0.7,0.6
2024-04-01T2200,3247A,104.955,33.371,陇南市,市总工会,,36,36,39,12,12,83,,117,106,6,9,10,10,0.5,0.5
2024-04-01T2200,2487A,111.9589,27.8901,娄底市,电视发射台,,42,42,31,26,19,25,,90,64,19,17,6,6,0.7,0.6
2024-04-01T2200,2488A,111.9975,27.725,娄底市,市监测站,,,43,46,33,31,,,71,67,12,18,8,10,0.8,0.8
2024-04-01T2200,2489A,112.0194,27.7314,娄底市,市委党校,,33,30,42,23,28,46,,70,60,14,16,5,6,0.7,0.7
2024-04-01T2200,2490A,111.9561,27.7569,娄底市,涟钢,,47,47,47,32,31,45,,66,61,24,28,13,14,0.9,1
2024-04-01T2200,2491A,111.9892,27.7044,娄底市,市政府,,28,28,41,17,29,63,,75,70,12,16,8,8,0.7,0.6
2024-04-01T2200,1893A,105.4324,28.9634,泸州市,九狮山,颗粒物(PM10),58,65,63,37,38,93,,140,131,11,15,7,7,0.4,0.4
2024-04-01T2200,1894A,105.4427,28.9063,泸州市,小市上码头,颗粒物(PM10),52,54,57,29,36,94,,129,124,15,21,12,12,0.4,0.5
2024-04-01T2200,1895A,105.4241,28.8573,泸州市,兰田宪桥,颗粒物(PM10),58,65,65,33,43,76,,135,126,20,20,10,11,0.4,0.4
2024-04-01T2200,1896A,105.4379,28.8833,泸州市,市环监站,细颗粒物(PM2.5),55,53,53,39,38,87,,132,118,14,19,12,13,0.4,0.4
2024-04-01T2200,3490A,105.3617,28.7703,泸州市,纳溪区环保局,细颗粒物(PM2.5),62,56,60,44,45,71,,137,128,28,26,8,6,0.6,0.6
2024-04-01T2200,2183A,111.1406,37.5211,吕梁市,环保局,颗粒物(PM10),59,68,121,24,45,111,,153,148,26,42,8,11,0.4,0.6
2024-04-01T2200,2185A,111.1297,37.5136,吕梁市,自来水公司,颗粒物(PM10),61,71,134,25,48,102,,149,144,34,38,7,10,0.6,0.6
2024-04-01T2200,2867A,111.1283,37.51,吕梁市,马茂庄小学,颗粒物(PM10),62,74,137,25,45,107,,152,144,30,43,6,11,0.6,0.6
2024-04-01T2200,1812A,112.3931,34.6516,洛阳市,市委党校,细颗粒物(PM2.5),178,157,163,134,108,76,,121,109,20,43,5,8,1.0,0.9
2024-04-01T2200,1814A,112.4657,34.6871,洛阳市,豫西宾馆,细颗粒物(PM2.5),150,184,182,115,92,96,,128,122,22,31,6,11,0.8,0.8
2024-04-01T2200,1815A,112.494,34.6886,洛阳市,河南林校,细颗粒物(PM2.5),199,,148,149,112,87,,123,116,23,30,4,8,0.9,0.8
2024-04-01T2200,1816A,112.3844,34.623,洛阳市,开发区管委会,细颗粒物(PM2.5),202,196,180,152,113,80,,131,118,20,31,8,10,0.7,0.6
2024-04-01T2200,1817A,112.4267,34.6258,洛阳市,市委新办公区,细颗粒物(PM2.5),180,204,180,136,99,81,,124,112,20,32,7,11,1.0,0.9
2024-04-01T2200,3340A,112.6005,34.6326,洛阳市,伊滨,细颗粒物(PM2.5),162,,144,123,97,61,,119,107,24,32,9,10,1.0,0.9
2024-04-01T2200,3341A,112.4951,34.6332,洛阳市,中移产业园,细颗粒物(PM2.5),163,125,151,124,100,66,,117,106,24,30,8,12,1.1,1.1
2024-04-01T2200,3593A,112.5736,34.8993,洛阳市,吉利监测站,细颗粒物(PM2.5),143,152,157,109,86,108,,142,140,20,42,7,10,1.4,1.2
2024-04-01T2200,3635A,112.3677,34.662,洛阳市,河科大西苑校区,细颗粒物(PM2.5),117,145,169,88,87,81,,121,111,19,42,5,10,0.6,0.6
2024-04-01T2200,3636A,112.4388,34.6781,洛阳市,英才小学,细颗粒物(PM2.5),133,151,170,101,84,79,,108,101,18,31,6,12,1.1,1
2024-04-01T2200,2399A,114.051,33.5699,漯河市,三五一五工厂,细颗粒物(PM2.5),65,78,88,47,58,89,,120,110,20,13,11,10,0.7,0.7
2024-04-01T2200,2400A,114.0055,33.5698,漯河市,漯河大学,颗粒物(PM10),69,87,95,41,49,99,,124,114,17,11,6,5,0.5,0.5
2024-04-01T2200,2401A,114.0138,33.5828,漯河市,市水利局,颗粒物(PM10),67,83,90,41,48,103,,126,118,17,11,10,8,0.6,0.6
2024-04-01T2200,2402A,114.0261,33.5698,漯河市,市广电局,颗粒物(PM10),68,85,94,36,43,104,,124,114,16,11,6,4,0.8,0.8
2024-04-01T2200,3478A,113.9749,33.5664,漯河市,市图书馆,颗粒物(PM10),58,66,93,34,45,104,,126,119,16,11,10,9,0.7,0.7
2024-04-01T2200,3479A,114.0967,33.5906,漯河市,召陵区卫健委,颗粒物(PM10),75,99,91,42,50,71,,122,102,37,15,13,6,0.7,0.6
2024-04-01T2200,1798A,118.5092,31.6837,马鞍山市,湖东路四小,颗粒物(PM10),76,102,125,18,53,110,,180,174,14,35,8,11,0.8,0.9
2024-04-01T2200,1799A,118.5024,31.6449,马鞍山市,开发区,颗粒物(PM10),52,54,112,12,59,105,,178,171,17,46,6,9,1.0,1.2
2024-04-01T2200,1800A,118.5228,31.7231,马鞍山市,慈湖,颗粒物(PM10),62,73,107,21,60,114,,176,172,23,35,11,14,0.9,1.2
2024-04-01T2200,1802A,118.6245,31.7241,马鞍山市,濮塘,,46,46,83,16,42,127,,189,186,12,16,6,7,0.7,1
2024-04-01T2200,3633A,118.4918,31.6809,马鞍山市,雨山,颗粒物(PM10),54,57,85,15,45,109,,182,176,18,35,6,9,1.0,1.1
2024-04-01T2200,1686A,111.0286,21.4688,茂名市,电白南海,,36,36,38,19,20,37,,43,40,5,7,6,6,0.4,0.5
2024-04-01T2200,1687A,110.9294,21.6533,茂名市,茂石化七小,,34,34,41,22,26,47,,61,52,7,9,6,7,0.5,0.6
2024-04-01T2200,1688A,110.9107,21.6687,茂名市,健康路,,24,24,32,12,18,44,,61,51,6,8,6,6,0.3,0.3
2024-04-01T2200,1689A,110.8592,21.6828,茂名市,高岭,,48,48,54,22,22,43,,66,53,3,6,10,8,0.7,0.7
2024-04-01T2200,3450A,111.01,21.5165,茂名市,电白水东,,24,24,27,14,16,40,,48,44,6,7,4,5,0.5,0.5
2024-04-01T2200,2539A,104.0308,30.0478,眉山市,黑龙滩水库,,40,40,30,21,25,73,,153,142,7,6,4,5,0.5,0.5
2024-04-01T2200,2540A,103.8416,30.0874,眉山市,气象局,,50,50,51,34,21,73,,143,128,37,24,10,12,0.7,0.5
2024-04-01T2200,3137A,103.8578,30.0744,眉山市,市委党校,颗粒物(PM10),53,56,42,36,24,70,,137,123,42,23,9,10,0.5,0.4
2024-04-01T2200,3148A,103.8291,30.0564,眉山市,区人社局,颗粒物(PM10),53,55,42,36,28,84,,140,127,33,27,13,14,0.6,0.5
2024-04-01T2200,1690A,116.1231,24.3284,梅州市,梅江月梅,,35,29,20,24,13,50,,77,54,7,10,8,7,0.3,0.4
2024-04-01T2200,1691A,116.0797,24.2719,梅州市,梅县新城,,47,47,26,32,18,13,,72,41,41,18,4,6,0.5,0.7
2024-04-01T2200,1692A,116.1248,24.2654,梅州市,环境监控中心,,45,38,22,31,17,34,,70,46,16,12,2,6,0.4,0.5
2024-04-01T2200,3315A,116.1233,24.2991,梅州市,梅龙,,49,41,20,34,17,40,,68,50,13,8,8,8,0.6,0.6
2024-04-01T2200,1878A,104.7778,31.4741,绵阳市,富乐山,,33,29,36,23,24,68,,118,103,7,20,7,8,0.4,0.5
2024-04-01T2200,1879A,104.7563,31.4535,绵阳市,市人大,,35,35,46,18,27,64,,107,92,24,37,7,8,0.5,0.6
2024-04-01T2200,1880A,104.6697,31.4668,绵阳市,高新区自来水公司,,31,31,55,18,31,77,,119,104,16,33,8,9,0.3,0.4
2024-04-01T2200,1881A,104.7287,31.5075,绵阳市,三水厂,,28,28,46,18,33,79,,114,100,10,35,4,5,0.7,0.8
2024-04-01T2200,3491A,104.69,31.5322,绵阳市,西科大附属小学,,35,35,50,21,28,75,,112,97,13,39,7,8,0.5,0.6
2024-04-01T2200,3492A,104.5648,31.5343,绵阳市,安州区旅游局,颗粒物(PM10),51,51,57,18,37,69,,113,98,13,21,6,8,0.4,0.5
2024-04-01T2200,1784A,129.61,44.561,牡丹江市,环保大楼,,34,34,54,21,33,88,,99,93,8,10,6,6,0.4,0.4
2024-04-01T2200,1785A,129.6115,44.5782,牡丹江市,文化广场,,50,46,60,35,39,73,,90,81,14,11,9,9,0.5,0.5
2024-04-01T2200,1786A,129.5904,44.5963,牡丹江市,第一医院,,47,47,62,22,35,74,,91,84,12,12,8,7,0.5,0.6
2024-04-01T2200,1787A,129.6364,44.6075,牡丹江市,机车工厂,颗粒物(PM10),53,56,60,22,30,69,,93,86,14,12,9,8,0.4,0.4
2024-04-01T2200,1788A,129.6386,44.5462,牡丹江市,第一中学,,43,32,52,30,30,79,,93,86,9,11,7,7,0.5,0.5
2024-04-01T2200,2531A,105.0703,29.61,内江市,市监测站,颗粒物(PM10),56,61,36,39,31,82,,112,109,17,16,6,8,0.3,0.3
2024-04-01T2200,2532A,105.0717,29.5947,内江市,东兴区政府,,40,40,30,23,21,90,,118,115,14,15,11,12,0.5,0.5
2024-04-01T2200,2533A,105.0653,29.5817,内江市,内江二中,,50,41,27,35,20,85,,112,110,14,15,7,7,0.7,0.6
2024-04-01T2200,2534A,105.0406,29.5822,内江市,内江日报社,,45,39,23,31,24,90,,122,119,21,19,14,14,0.7,0.7
2024-04-01T2200,2628A,92.0657,31.4846,那曲市,那曲监测站,,41,41,41,25,19,65,,120,106,21,10,11,6,1.2,0.9
2024-04-01T2200,3128A,92.0506,31.4797,那曲市,那曲会议中心,,31,29,49,12,16,99,,122,116,6,6,6,7,0.1,0.3
2024-04-01T2200,1290A,115.8931,28.6843,南昌市,省外办,,20,17,37,14,20,49,,67,51,18,33,5,7,0.4,0.6
2024-04-01T2200,1291A,115.8886,28.7003,南昌市,省林业公司,,17,14,36,9,18,52,,67,50,21,45,3,7,0.5,0.6
2024-04-01T2200,1292A,115.8126,28.7442,南昌市,林科所,,18,14,22,12,13,48,,69,48,29,34,6,8,0.3,0.4
2024-04-01T2200,1294A,115.8518,28.687,南昌市,建工学校,,22,18,37,15,17,48,,67,54,21,41,4,7,0.6,0.7
2024-04-01T2200,1295A,115.8921,28.6424,南昌市,象湖,,32,26,33,22,18,40,,73,52,23,32,4,6,0.9,0.8
2024-04-01T2200,1296A,115.7423,28.7996,南昌市,武术学校,,22,10,14,7,15,70,,74,61,6,7,15,15,0.5,0.4
2024-04-01T2200,1298A,115.9314,28.6842,南昌市,省站,,28,28,36,14,21,51,,75,58,14,24,6,10,0.8,0.8
2024-04-01T2200,3046A,115.9084,28.6062,南昌市,机电学校,,32,28,43,22,18,34,,67,46,26,32,6,8,1.0,1
2024-04-01T2200,3690A,115.9721,28.7031,南昌市,外国语学校,,30,,28,21,21,58,,78,61,10,21,3,6,0.5,0.5
2024-04-01T2200,1905A,106.056,30.8064,南充市,西山风景区,,29,25,24,20,22,68,,78,78,6,8,2,3,0.5,0.4
2024-04-01T2200,1906A,106.0789,30.8023,南充市,南充市委,,29,27,38,20,23,63,,82,80,12,17,6,7,0.4,0.5
2024-04-01T2200,1907A,106.1031,30.8217,南充市,南充炼油厂,,42,35,43,29,30,60,,81,79,13,17,5,8,0.5,0.4
2024-04-01T2200,1908A,106.1064,30.7856,南充市,高坪区监测站,,29,29,42,12,23,65,,80,79,11,21,9,8,0.1,0.1
2024-04-01T2200,1909A,106.0642,30.7636,南充市,嘉陵区环保局,,31,31,39,17,26,61,,79,77,15,25,4,6,0.4,0.4
2024-04-01T2200,1910A,106.1087,30.8388,南充市,市环境监测站,,39,27,36,27,29,66,,83,82,10,13,4,9,0.1,0.2
2024-04-01T2200,1151A,118.8086,32.1065,南京市,迈皋桥,颗粒物(PM10),57,64,108,39,64,154,,171,170,21,39,5,6,0.8,0.9
2024-04-01T2200,1152A,118.7538,32.0551,南京市,草场门,细颗粒物(PM2.5),58,56,105,41,60,141,,168,163,31,48,4,4,0.8,1.1
2024-04-01T2200,1153A,118.7794,32.0745,南京市,山西路,颗粒物(PM10),59,68,115,29,59,159,,185,182,27,37,3,4,0.5,0.7
2024-04-01T2200,1154A,118.7752,32.0023,南京市,中华门,颗粒物(PM10),57,63,120,36,62,150,,180,174,21,41,6,8,0.7,0.9
2024-04-01T2200,1155A,118.8109,32.0309,南京市,瑞金路,颗粒物(PM10),60,70,119,39,57,150,,180,174,28,43,4,4,0.4,0.7
2024-04-01T2200,1156A,118.7997,32.0754,南京市,玄武湖,颗粒物(PM10),54,57,102,34,59,158,,181,178,21,34,10,10,0.6,0.8
2024-04-01T2200,1157A,118.6414,32.0931,南京市,浦口,颗粒物(PM10),52,54,107,24,48,150,,170,166,22,44,6,7,0.6,0.8
2024-04-01T2200,1158A,118.7356,31.9996,南京市,奥体中心,颗粒物(PM10),60,69,126,36,62,156,,186,181,21,38,9,10,0.6,0.8
2024-04-01T2200,1159A,118.9125,32.1028,南京市,仙林大学城,颗粒物(PM10),59,68,117,24,66,149,,182,174,22,35,10,10,0.6,1
2024-04-01T2200,3422A,118.8436,31.9198,南京市,江宁彩虹桥,"颗粒物(PM10),细颗粒物(PM2.5)",55,60,99,39,65,156,,196,189,20,34,4,5,0.5,0.8
2024-04-01T2200,3423A,119.0138,31.6494,南京市,溧水永阳,颗粒物(PM10),54,58,107,31,48,144,,193,185,27,30,3,4,0.5,0.8
2024-04-01T2200,3424A,118.879,31.3302,南京市,高淳老职中,,35,,72,24,44,103,,182,176,4,17,5,7,0.5,0.8
2024-04-01T2200,3427A,118.8554,32.3578,南京市,六合雄州,,48,48,95,20,52,143,,165,152,25,41,7,9,0.6,0.8
2024-04-01T2200,1401A,108.3103,22.7881,南宁市,二十一中,"颗粒物(PM10),细颗粒物(PM2.5)",52,53,50,36,34,82,,98,96,13,9,4,4,0.8,0.8
2024-04-01T2200,1402A,108.3141,22.8528,南宁市,北湖,颗粒物(PM10),54,57,53,36,36,72,,92,88,17,10,6,5,0.9,0.9
2024-04-01T2200,1403A,108.3206,22.8225,南宁市,市监测站,颗粒物(PM10),53,56,55,36,34,78,,93,91,15,11,6,6,0.9,0.9
2024-04-01T2200,1404A,108.3829,22.8037,南宁市,大自然花园,,46,43,51,32,36,81,,92,91,9,8,5,5,0.5,0.6
2024-04-01T2200,1405A,108.4394,22.7904,南宁市,仙葫,,48,44,48,33,32,84,,92,91,10,10,8,8,0.8,0.8
2024-04-01T2200,1406A,108.2397,22.8467,南宁市,区农职院,颗粒物(PM10),55,60,57,38,36,72,,96,90,21,16,6,6,0.8,0.8
2024-04-01T2200,1407A,108.3275,22.735,南宁市,英华嘉园,细颗粒物(PM2.5),54,52,52,38,35,69,,83,82,23,16,6,6,0.7,0.7
2024-04-01T2200,1408A,108.2257,22.7757,南宁市,沙井镇街道办,颗粒物(PM10),55,60,61,34,36,66,,94,86,22,16,5,5,0.7,0.8
2024-04-01T2200,3401A,108.4834,22.7618,南宁市,红星社区,,49,43,45,34,35,86,,94,93,10,11,7,6,0.8,0.9
2024-04-01T2200,2332A,118.1681,26.6369,南平市,南平市监测站,,26,23,26,6,16,82,,97,95,10,15,3,4,0.6,0.7
2024-04-01T2200,2333A,118.1825,26.6489,南平市,南平铝业有限公司,,28,,23,19,17,75,,99,95,15,15,6,7,0.7,0.7
2024-04-01T2200,2334A,118.1756,26.6272,南平市,南平七中,,29,18,22,16,18,90,,103,102,7,11,4,4,0.5,0.6
2024-04-01T2200,1168A,120.9098,31.9663,南通市,狼山街道,,32,32,85,20,34,99,,165,149,26,35,10,11,0.6,0.7
2024-04-01T2200,1169A,120.86,32.0005,南通市,虹桥,,45,45,97,29,44,90,,153,138,24,31,6,7,0.6,0.7
2024-04-01T2200,1170A,120.87,32.02,南通市,城中,,48,48,105,30,41,90,,153,138,24,29,7,8,0.8,0.9
2024-04-01T2200,1171A,120.94,31.93,南通市,星湖花园,,30,30,91,19,40,83,,121,119,29,36,8,10,0.6,0.8
2024-04-01T2200,1172A,120.81,32.0417,南通市,紫琅学院,,43,43,98,18,39,87,,156,141,30,39,9,10,0.7,0.8
2024-04-01T2200,3291A,121.067,32.062,南通市,通州监测站,,45,41,91,31,42,103,,167,142,10,16,8,10,0.5,0.7
2024-04-01T2200,3432A,120.9348,31.9883,南通市,环境教育馆,,41,41,87,27,39,92,,144,126,26,31,8,9,0.6,0.6
2024-04-01T2200,2404A,112.5224,33.0122,南阳市,瓦房庄,,33,33,72,23,38,96,,113,96,11,23,5,5,0.6,0.7
2024-04-01T2200,2405A,112.5003,32.9735,南阳市,汉画馆,,45,40,76,31,47,95,,115,94,12,27,6,7,0.7,0.9
2024-04-01T2200,2406A,112.5573,33.027,南阳市,气象站,,32,30,66,22,42,98,,122,106,13,22,6,6,0.4,0.6
2024-04-01T2200,2407A,112.5481,32.9689,南阳市,理工学院,,42,32,66,29,41,98,,117,104,11,20,3,5,0.5,0.7
2024-04-01T2200,4008A,112.5234,32.9922,南阳市,卧龙区政府,,35,33,70,24,39,91,,112,90,13,25,5,6,0.8,0.9
2024-04-01T2200,1234A,121.8358,29.911,宁波市,区环保大楼,,42,42,90,19,42,84,,139,132,36,52,6,9,0.8,1.2
2024-04-01T2200,1235A,121.56,29.82,宁波市,万里学院,,40,28,64,19,36,127,,134,125,19,38,11,10,0.7,0.9
2024-04-01T2200,1236A,121.713,29.9572,宁波市,龙赛医院,,37,25,59,14,29,116,,136,136,16,54,7,10,0.4,0.7
2024-04-01T2200,1239A,121.633,29.7733,宁波市,钱湖水厂,,34,32,54,18,32,108,,130,128,13,16,8,7,0.8,0.9
2024-04-01T2200,1240A,121.5856,29.8635,宁波市,太古小学,,42,42,91,15,33,108,,141,132,18,38,8,9,0.8,1
2024-04-01T2200,1241A,121.524,29.8674,宁波市,市环境监测中心,,41,22,58,18,33,130,,142,131,17,44,7,7,0.6,0.9
2024-04-01T2200,2871A,121.6147,29.9017,宁波市,万里国际学校,,45,45,95,17,39,121,,156,149,17,43,8,10,0.6,0.8
2024-04-01T2200,3710A,121.5594,29.8975,宁波市,白沙活动中心,,47,47,75,19,30,113,,147,136,23,43,8,8,0.6,0.9
2024-04-01T2200,2341A,119.5388,26.6612,宁德市,宁德市监测站,细颗粒物(PM2.5),55,,30,39,30,61,,68,68,21,21,6,7,0.7,0.7
2024-04-01T2200,3209A,119.5231,26.6562,宁德市,宁德一中,,43,,31,30,25,75,,64,64,11,19,7,7,0.5,0.7
2024-04-01T2200,2618A,98.8601,25.8567,怒江傈僳族自治州,州监测站,,23,18,16,10,8,73,,78,78,4,4,7,7,0.4,0.5
2024-04-01T2200,2619A,98.8546,25.8417,怒江傈僳族自治州,泸水一中,,20,8,12,8,8,64,,66,66,10,12,6,6,0.3,0.3
2024-04-01T2200,1888A,101.6891,26.571,攀枝花市,弄弄坪,颗粒物(PM10),57,63,38,23,15,83,,104,94,33,21,48,29,3.7,1.7
2024-04-01T2200,1889A,101.5769,26.5928,攀枝花市,河门口,,31,31,25,15,12,94,,118,114,22,16,7,10,0.6,0.8
2024-04-01T2200,1890A,101.7169,26.585,攀枝花市,炳草岗,,39,39,27,14,13,102,,114,110,17,19,15,16,1.0,0.9
2024-04-01T2200,1891A,101.7369,26.5008,攀枝花市,仁和,,29,29,23,15,15,79,,124,115,19,11,6,7,0.5,0.4
2024-04-01T2200,2835A,101.7227,26.567,攀枝花市,四十中小,,37,32,24,13,13,117,,124,122,12,15,9,12,0.8,0.9
2024-04-01T2200,1604A,122.0303,41.1489,盘锦市,开发区,细颗粒物(PM2.5),70,78,58,51,37,87,,111,106,20,18,27,18,0.6,0.6
2024-04-01T2200,1605A,122.0485,41.0883,盘锦市,兴隆台,细颗粒物(PM2.5),79,88,56,58,36,85,,107,104,22,21,11,9,0.6,0.6
2024-04-01T2200,1606A,121.8297,41.1028,盘锦市,新生街道,细颗粒物(PM2.5),70,66,50,51,33,84,,106,101,25,25,12,14,0.7,0.7
2024-04-01T2200,1832A,113.3257,33.742,平顶山市,新华旅馆,颗粒物(PM10),54,57,94,14,41,70,,130,105,34,31,8,10,0.6,0.7
2024-04-01T2200,1833A,113.2919,33.737,平顶山市,规划设计院,颗粒物(PM10),57,63,95,32,55,67,,120,95,21,24,6,8,0.8,0.8
2024-04-01T2200,1834A,113.182,33.774,平顶山市,平顶山工学院,颗粒物(PM10),56,62,96,29,46,64,,122,98,18,17,5,6,0.6,0.7
2024-04-01T2200,3204A,113.3025,33.73,平顶山市,规划局,颗粒物(PM10),57,63,101,37,49,70,,118,95,24,27,8,10,0.6,0.6
2024-04-01T2200,3594A,112.8867,33.9116,平顶山市,石龙区,,46,46,100,30,59,48,,130,98,26,25,8,11,0.5,0.7
2024-04-01T2200,2656A,106.6692,35.5461,平凉市,聚贤嘉苑,颗粒物(PM10),303,422,176,109,49,91,,126,111,18,29,9,10,0.4,0.5
2024-04-01T2200,2657A,106.7021,35.5307,平凉市,博物馆,颗粒物(PM10),330,444,183,112,52,90,,127,111,13,25,7,11,0.3,0.5
2024-04-01T2200,2347A,114.0997,27.5002,萍乡市,武功山,,35,35,18,12,10,33,,57,47,12,9,13,11,0.6,0.4
2024-04-01T2200,2348A,113.8385,27.6434,萍乡市,中医院,细颗粒物(PM2.5),55,43,34,39,25,35,,81,50,16,19,9,14,0.7,0.7
2024-04-01T2200,2349A,113.8493,27.6253,萍乡市,市政府车库,,45,33,33,31,24,32,,68,47,20,21,14,19,2.0,1.5
2024-04-01T2200,2350A,113.8676,27.6435,萍乡市,市环保局,,35,35,32,23,24,29,,68,44,15,18,16,22,0.6,0.7
2024-04-01T2200,2351A,113.866,27.6198,萍乡市,安源区政府,,49,49,35,18,18,31,,72,44,21,21,14,19,1.5,1
2024-04-01T2200,2319A,119.0141,25.4325,莆田市,荔城区仓后路,细颗粒物(PM2.5),57,40,35,40,17,64,,109,96,29,18,6,5,1.1,0.9
2024-04-01T2200,2320A,119.0015,25.4553,莆田市,莆田市监测站,,35,32,27,24,12,71,,108,96,10,7,7,7,0.9,0.7
2024-04-01T2200,2321A,119.1119,25.4561,莆田市,涵江区六中,细颗粒物(PM2.5),72,53,32,52,18,65,,108,92,32,25,8,7,1.0,0.8
2024-04-01T2200,2322A,119.1013,25.3215,莆田市,秀屿区政府,细颗粒物(PM2.5),57,41,29,40,18,96,,103,100,16,21,10,11,1.0,1
2024-04-01T2200,2392A,115.0312,35.7636,濮阳市,环保局,细颗粒物(PM2.5),112,143,130,84,86,30,,120,53,32,22,9,12,0.5,0.8
2024-04-01T2200,2394A,115.0574,35.7609,濮阳市,油田运输公司,颗粒物(PM10),115,180,172,84,87,30,,120,55,33,23,10,14,0.7,0.8
2024-04-01T2200,2395A,115.0866,35.7754,濮阳市,油田物探公司,颗粒物(PM10),117,184,172,86,93,27,,114,50,32,22,7,10,0.5,0.6
2024-04-01T2200,3021A,115,35.7668,濮阳市,濮水河管理处,细颗粒物(PM2.5),105,156,140,79,86,33,,109,50,36,26,8,11,0.4,0.5
2024-04-01T2200,2601A,100.98,22.7633,普洱市,市环保局,细颗粒物(PM2.5),67,79,73,48,45,114,,126,123,12,12,7,8,0.6,0.7
2024-04-01T2200,2602A,100.9817,22.8322,普洱市,普洱第二中学,颗粒物(PM10),52,53,62,34,39,122,,132,126,16,16,9,10,0.7,0.8
2024-04-01T2200,2262A,131.0518,45.8751,七台河市,新一中,,24,9,19,6,13,75,,99,86,6,6,8,8,0.6,0.6
2024-04-01T2200,3345A,131.0577,45.7879,七台河市,中波台,,21,19,24,7,12,67,,93,77,18,15,6,6,0.7,0.8
2024-04-01T2200,3637A,131.0176,45.7761,七台河市,人民广场,,30,30,34,19,21,59,,91,76,24,13,7,6,0.7,0.7
2024-04-01T2200,3684A,130.8781,45.8222,七台河市,新建矿广场,,33,,27,23,22,67,,88,77,11,13,6,7,0.6,0.6
2024-04-01T2200,1779A,123.9305,47.3636,齐齐哈尔市,安居小区,细颗粒物(PM2.5),79,74,34,58,20,80,,87,79,24,11,10,8,0.4,0.2
2024-04-01T2200,1780A,123.9488,47.3386,齐齐哈尔市,中心广场,颗粒物(PM10),55,59,31,34,10,83,,85,79,19,10,7,5,0.5,0.4
2024-04-01T2200,1781A,123.9483,47.3227,齐齐哈尔市,农牧车辆厂,颗粒物(PM10),52,53,34,29,13,89,,87,87,11,8,9,7,0.4,0.3
2024-04-01T2200,1783A,123.945,47.2988,齐齐哈尔市,市环境监测站,,50,50,32,28,14,95,,92,92,8,6,4,3,0.3,0.3
2024-04-01T2200,3662A,123.6333,47.2075,齐齐哈尔市,富区青少年活动中心,细颗粒物(PM2.5),105,102,50,79,19,83,,94,92,19,12,11,8,0.7,0.5
2024-04-01T2200,2591A,107.9783,26.5747,黔东南苗族侗族自治州,市环境监测站,细颗粒物(PM2.5),82,71,44,60,36,126,,114,114,7,14,3,3,0.6,0.6
2024-04-01T2200,2881A,107.8908,26.5311,黔东南苗族侗族自治州,凯里学院,,,,34,,25,132,,123,123,4,11,4,3,0.5,0.5
2024-04-01T2200,2593A,107.5228,26.2403,黔南布依族苗族自治州,小围寨,细颗粒物(PM2.5),67,68,31,48,24,99,,108,107,7,7,5,4,0.6,0.5
2024-04-01T2200,3538A,107.5175,26.2978,黔南布依族苗族自治州,沙坝,细颗粒物(PM2.5),64,66,35,46,22,102,,110,109,5,4,4,4,0.4,0.3
2024-04-01T2200,2589A,104.9022,25.0925,黔西南布依族苗族自治州,场坝街,,35,31,34,18,18,111,,123,118,8,7,2,2,0.1,0.2
2024-04-01T2200,2590A,104.8811,25.0992,黔西南布依族苗族自治州,坪东大道,,,,48,21,21,109,,121,118,4,6,2,2,,0
2024-04-01T2200,2502A,108.6236,21.9667,钦州市,市环保站,,46,46,49,17,24,53,,70,64,19,18,9,10,0.9,0.8
2024-04-01T2200,2503A,108.6549,21.9481,钦州市,沙埠小学,,33,33,48,20,28,56,,75,67,16,16,12,10,0.7,0.8
2024-04-01T2200,2504A,108.5989,21.7431,钦州市,港区一小,颗粒物(PM10),61,72,72,23,28,50,,68,60,14,15,7,8,0.6,0.8
2024-04-01T2200,1042A,119.5134,39.8207,秦皇岛市,北戴河环保局,颗粒物(PM10),57,64,73,23,23,90,,102,98,23,27,8,10,0.3,0.4
2024-04-01T2200,1043A,119.7493,40.0116,秦皇岛市,第一关,,50,50,69,34,34,95,,96,90,25,36,8,10,0.3,0.4
2024-04-01T2200,1044A,119.5897,39.9499,秦皇岛市,监测站,颗粒物(PM10),54,57,79,24,36,102,,96,93,14,37,7,9,0.3,0.4
2024-04-01T2200,1046A,119.5251,39.9041,秦皇岛市,建设大厦,,30,29,66,20,29,94,,100,96,15,28,6,8,0.3,0.3
2024-04-01T2200,3132A,119.610547,39.943889,秦皇岛市,文明里,颗粒物(PM10),62,74,89,30,36,104,,94,93,13,32,5,8,0.4,0.5
2024-04-01T2200,1307A,120.6659,36.2403,青岛市,仰口,,46,46,56,19,27,108,,95,95,10,22,3,4,0.2,0.3
2024-04-01T2200,1310A,120.4134,36.0658,青岛市,市南区东部子站,,41,41,52,5,16,75,,86,72,27,24,8,9,0.5,0.5
2024-04-01T2200,1311A,120.3664,36.1032,青岛市,四方区子站,,34,34,62,14,23,93,,112,99,28,28,4,5,0.6,0.7
2024-04-01T2200,1312A,120.2994,36.054,青岛市,市南区西部子站,,29,29,42,12,15,74,,85,77,35,31,7,7,0.6,0.6
2024-04-01T2200,1313A,120.4581,36.0858,青岛市,崂山区子站,,29,29,44,12,16,87,,88,88,23,25,7,7,0.3,0.4
2024-04-01T2200,1314A,120.1983,35.9608,青岛市,黄岛区子站,,36,36,48,22,21,74,,92,86,30,22,6,6,0.6,0.6
2024-04-01T2200,1315A,120.3999,36.3083,青岛市,城阳区子站,,38,22,75,5,22,119,,137,135,11,26,6,8,0.5,0.7
2024-04-01T2200,1966A,120.0405,35.8735,青岛市,黄岛区4号,,44,44,44,14,14,74,,90,85,26,21,7,7,0.5,0.5
2024-04-01T2200,3362A,120.5014,36.4034,青岛市,即墨2号,,49,49,72,12,27,101,,104,104,18,24,5,6,0.4,0.5
2024-04-01T2200,3642A,120.3503,36.0736,青岛市,市北区南部,,45,45,53,9,16,87,,108,93,32,24,7,7,0.4,0.5
2024-04-01T2200,3643A,120.3948,36.1805,青岛市,李沧区北部,,46,46,72,17,24,107,,129,118,25,29,8,9,0.5,0.5
2024-04-01T2200,1702A,113.0426,23.691,清远市,环保大楼,细颗粒物(PM2.5),54,49,44,38,31,27,,28,27,8,21,4,4,0.6,0.8
2024-04-01T2200,1703A,113.0208,23.7106,清远市,凤城街办,颗粒物(PM10),53,55,54,33,34,31,,35,34,15,34,4,4,0.3,0.6
2024-04-01T2200,3025A,113.0477,23.6344,清远市,技师学院,颗粒物(PM10),56,62,58,30,32,34,,40,40,10,30,4,5,0.4,0.5
2024-04-01T2200,3318A,112.9903,23.7403,清远市,清新太和,颗粒物(PM10),56,62,54,38,31,28,,32,31,21,34,6,6,0.5,0.7
2024-04-01T2200,3455A,113.076,23.7198,清远市,清城东城,细颗粒物(PM2.5),60,63,52,43,33,26,,31,30,19,28,6,5,0.1,0.3
2024-04-01T2200,2661A,107.6325,35.7357,庆阳市,庆阳五中,,45,43,66,31,37,79,,121,98,19,15,8,7,0.5,0.4
2024-04-01T2200,2662A,107.6364,35.7067,庆阳市,市环保局,,46,40,60,32,35,82,,124,99,14,13,10,8,0.5,0.4
2024-04-01T2200,1916A,103.7897,25.5035,曲靖市,环境监测站,,35,33,39,12,15,112,,128,123,9,8,6,4,0.4,0.4
2024-04-01T2200,1917A,103.8,25.5364,曲靖市,烟厂办公区,,35,33,37,12,14,112,,128,123,10,8,4,4,0.4,0.5
2024-04-01T2200,3376A,103.7947,25.462,曲靖市,南苑二区,,33,21,28,11,16,105,,116,113,7,8,5,5,0.4,0.5
2024-04-01T2200,3377A,103.7444,25.5261,曲靖市,曲靖师范学院,,37,37,35,14,17,107,,120,115,8,9,4,10,0.4,0.5
2024-04-01T2200,1264A,118.8692,28.9398,衢州市,环保大楼,,30,30,37,17,25,78,,123,107,14,22,5,6,0.4,0.5
2024-04-01T2200,1265A,118.8709,28.9666,衢州市,实验学校,,29,29,39,17,24,80,,125,107,13,20,9,5,0.4,0.5
2024-04-01T2200,1266A,118.8621,28.9808,衢州市,衢州学院,,26,26,36,16,25,76,,123,105,20,22,5,5,0.4,0.4
2024-04-01T2200,1611A,118.5819,24.9117,泉州市,涂山街,,48,36,40,33,23,103,,105,101,15,24,12,7,0.7,0.7
2024-04-01T2200,1612A,118.5972,24.8978,泉州市,津头埔,,42,39,32,29,19,93,,101,97,21,30,12,8,0.8,0.8
2024-04-01T2200,1613A,118.6663,24.9424,泉州市,万安,,46,42,31,32,19,75,,110,103,29,26,6,6,0.7,0.7
2024-04-01T2200,3529A,118.6333,24.9264,泉州市,城华南路,颗粒物(PM10),51,51,32,32,20,79,,105,97,23,28,11,8,0.5,0.5
2024-04-01T2200,2626A,88.8876,29.2718,日喀则市,日喀则监测站,,27,27,19,12,7,83,,117,104,15,6,4,3,0.4,0.3
2024-04-01T2200,3726A,88.8781,29.2426,日喀则市,林业技术推广中心,,29,25,16,8,5,90,,117,107,11,5,6,5,0.4,0.4
2024-04-01T2200,1659A,119.471,35.4209,日照市,监测站,颗粒物(PM10),51,51,76,17,30,90,,115,100,23,40,8,10,0.5,0.6
