timepoint,stationcode,longitude,latitude,area,positionname,primarypollutant,aqi,pm10,pm10_24h,pm2_5,pm2_5_24h,o3,o3_24h,o3_8h,o3_8h_24h,no2,no2_24h,so2,so2_24h,co,co_24h
2026-01-03T0700,2568A,102.2503,31.8896,阿坝藏族羌族自治州,马师校,,29,,16,20,15,32,,,,10,14,4,4,0.6,0.6
2026-01-03T0700,3994A,102.2174,31.9016,阿坝藏族羌族自治州,马尔康中学西区,,13,,9,6,7,39,,,,7,14,5,5,0.5,0.6
2026-01-03T0700,2695A,80.2899,41.1684,阿克苏地区,电视台,细颗粒物(PM2.5),68,79,80,49,47,9,,,,49,35,4,4,1.6,1
2026-01-03T0700,2696A,80.2592,41.1541,阿克苏地区,艺术中心,细颗粒物(PM2.5),100,92,76,75,56,5,,,,49,30,4,4,1.3,0.9
2026-01-03T0700,2205A,105.699,38.8409,阿拉善盟,蒙二幼,细颗粒物(PM2.5),83,63,25,61,16,48,,,,20,17,14,12,1.0,0.6
2026-01-03T0700,2206A,105.7198,38.8508,阿拉善盟,环保局新楼,细颗粒物(PM2.5),67,60,16,48,12,36,,,,20,11,15,11,1.1,0.6
2026-01-03T0700,2708A,88.1266,47.8515,阿勒泰地区,市站,,26,6,17,3,12,83,,,,4,29,7,7,0.3,0.4
2026-01-03T0700,4166A,88.1198,47.7931,阿勒泰地区,阿勒泰路33号,,27,6,11,3,3,84,,,,6,24,4,5,0.2,0.3
2026-01-03T0700,2630A,80.1171,32.4999,阿里地区,阿里监测站,,16,6,3,3,3,50,,,,16,12,12,10,0.5,0.4
2026-01-03T0700,3192A,80.0906,32.5029,阿里地区,阿里藏医院,,19,19,15,12,8,58,,,,11,6,14,12,0.6,0.5
2026-01-03T0700,2644A,109.0088,32.6974,安康市,汉滨区检察院,细颗粒物(PM2.5),55,,40,39,40,36,,,,13,12,7,4,0.6,0.6
2026-01-03T0700,4054A,109.0324,32.6913,安康市,市邮政管理局,细颗粒物(PM2.5),55,41,46,39,40,30,,,,14,13,6,4,0.6,0.7
2026-01-03T0700,2291A,117.0806,30.5181,安庆市,环科院,细颗粒物(PM2.5),95,112,67,71,53,14,,,,31,12,5,4,0.5,0.4
2026-01-03T0700,2292A,117.0331,30.5118,安庆市,马山宾馆,细颗粒物(PM2.5),88,82,63,65,50,26,,,,33,22,5,4,0.9,0.7
2026-01-03T0700,2294A,116.9897,30.6146,安庆市,安庆大学,细颗粒物(PM2.5),73,64,50,53,42,20,,,,21,15,3,3,0.5,0.5
2026-01-03T0700,3173A,117.0598,30.5351,安庆市,市人大,细颗粒物(PM2.5),93,83,64,69,49,14,,,,34,18,5,5,0.8,0.5
2026-01-03T0700,3123A,105.9408,26.2431,安顺市,凤凰山,,11,11,19,3,16,34,,,,9,15,8,12,0.7,0.8
2026-01-03T0700,3124A,105.9443,26.2567,安顺市,金钟山,,13,13,21,8,17,35,,,,8,13,11,14,0.7,0.8
2026-01-03T0700,3125A,105.8983,26.248,安顺市,娄家坡,,12,12,21,7,16,33,,,,9,14,12,17,0.7,0.8
2026-01-03T0700,1819A,114.3552,36.1017,安阳市,红庙街,细颗粒物(PM2.5),165,,101,125,94,3,,,,43,27,2,5,1.1,1.1
2026-01-03T0700,1820A,114.361,36.0681,安阳市,银杏小区,细颗粒物(PM2.5),178,,106,134,105,2,,,,42,30,2,4,0.9,0.9
2026-01-03T0700,3141A,114.3921,36.0879,安阳市,信访局,细颗粒物(PM2.5),169,130,106,128,98,4,,,,42,32,3,3,1.0,0.9
2026-01-03T0700,3669A,114.4706,36.0634,安阳市,左辅环卫站,细颗粒物(PM2.5),170,141,120,129,101,15,,,,20,19,2,5,0.7,0.8
2026-01-03T0700,4117A,114.2918,36.0769,安阳市,钢三路198号,细颗粒物(PM2.5),185,162,132,139,106,5,,,,37,25,3,5,1.1,1
2026-01-03T0700,1748A,123.0441,41.1201,鞍山市,深沟寺,,32,32,58,19,39,44,,,,12,34,6,24,0.8,2.2
2026-01-03T0700,1749A,123.011,41.0931,鞍山市,太阳城,,27,27,51,18,33,64,,,,9,27,11,15,0.8,1.4
2026-01-03T0700,1750A,123.0483,41.1445,鞍山市,太平,,40,40,64,25,37,23,,,,34,34,9,16,1.1,1.5
2026-01-03T0700,1751A,122.964,41.0968,鞍山市,铁西三道街,颗粒物(PM10),77,103,73,55,37,14,,,,53,41,12,21,2.0,1.5
2026-01-03T0700,1753A,123.0219,41.0822,鞍山市,明达新区,,25,25,51,17,33,43,,,,13,20,11,17,1.2,1.6
2026-01-03T0700,4201A,122.944647,41.082639,鞍山市,兴盛南路290号,细颗粒物(PM2.5),107,134,108,80,45,4,,,,56,44,16,13,2.0,1.4
2026-01-03T0700,2195A,107.4206,40.7609,巴彦淖尔市,附二中,颗粒物(PM10),53,55,54,35,29,3,,,,57,33,6,9,0.5,0.6
2026-01-03T0700,2196A,107.37,40.7372,巴彦淖尔市,市环保大楼,,48,48,45,21,26,13,,,,33,35,5,11,0.5,0.6
2026-01-03T0700,1956A,86.1476,41.7529,巴音郭楞蒙古自治州,孔雀公园,颗粒物(PM10),129,207,236,22,34,50,,,,16,31,7,7,0.2,0.5
2026-01-03T0700,1957A,86.1971,41.7166,巴音郭楞蒙古自治州,棉纺厂,颗粒物(PM10),133,216,257,25,28,54,,,,11,26,/,/,/,/
2026-01-03T0700,1958A,86.236,41.7172,巴音郭楞蒙古自治州,经济开发区,颗粒物(PM10),108,165,211,18,20,46,,,,12,20,4,5,0.5,0.5
2026-01-03T0700,3181A,106.776805,31.852614,巴中市,市五中,,45,36,40,31,33,18,,,,18,13,5,5,0.9,0.9
2026-01-03T0700,3183A,106.7419,31.8654,巴中市,圣泉水务公司,,39,27,30,27,28,27,,,,16,14,5,4,0.6,0.6
2026-01-03T0700,3616A,106.7617,31.8343,巴中市,市中心医院,,40,31,35,28,32,24,,,,18,15,6,6,0.8,0.8
2026-01-03T0700,2235A,122.7909,45.608,白城市,洮北区环保局,,16,14,28,11,21,50,,,,17,17,9,7,0.2,0.3
2026-01-03T0700,2236A,122.8741,45.5725,白城市,市环保局,,26,,36,18,27,57,,,,7,16,4,5,0.3,0.4
2026-01-03T0700,2231A,126.4219,41.9172,白山市,喜丰,细颗粒物(PM2.5),57,62,64,40,34,14,,,,36,28,16,18,1.0,0.8
2026-01-03T0700,2232A,126.4082,41.9416,白山市,环保局,细颗粒物(PM2.5),55,52,56,39,39,11,,,,32,25,11,14,1.1,1
2026-01-03T0700,2647A,104.1727,36.5448,白银市,第三小学,细颗粒物(PM2.5),79,62,65,58,67,53,,,,14,23,1,17,0.8,1.1
2026-01-03T0700,2648A,104.1467,36.5482,白银市,动力公司,细颗粒物(PM2.5),80,60,59,59,61,58,,,,10,19,2,9,0.6,0.8
2026-01-03T0700,2512A,106.6102,23.901,百色市,市监测站,,19,15,14,13,11,36,,,,9,11,6,7,0.6,0.6
2026-01-03T0700,2513A,106.6524,23.8842,百色市,市中心血站,,29,22,17,20,15,40,,,,11,13,7,7,0.6,0.7
2026-01-03T0700,4133A,106.6273,23.8798,百色市,龙景西路,,35,,17,24,15,36,,,,3,5,6,7,0.5,0.6
2026-01-03T0700,2270A,117.396,32.9389,蚌埠市,工人疗养院,细颗粒物(PM2.5),82,94,67,60,41,31,,,,27,26,7,6,0.7,0.5
2026-01-03T0700,2271A,117.3606,32.9428,蚌埠市,百货大楼,细颗粒物(PM2.5),78,81,48,57,37,34,,,,27,23,5,6,0.6,0.5
2026-01-03T0700,2273A,117.4183,32.8909,蚌埠市,蚌埠学院,细颗粒物(PM2.5),58,63,51,41,38,32,,,,23,30,4,5,0.4,0.4
2026-01-03T0700,2274A,117.3534,32.9672,蚌埠市,淮上区政府,细颗粒物(PM2.5),82,75,56,60,43,38,,,,21,24,2,3,0.6,0.5
2026-01-03T0700,2275A,117.3143,32.8977,蚌埠市,高新区,细颗粒物(PM2.5),64,68,56,46,42,23,,,,30,30,6,7,0.4,0.4
2026-01-03T0700,3715A,117.3091,32.9314,蚌埠市,蚌埠田家炳中学,细颗粒物(PM2.5),72,80,64,52,45,23,,,,34,36,24,13,0.5,0.5
2026-01-03T0700,1585A,109.8761,40.6533,包头市,市环境监测站,颗粒物(PM10),51,51,103,13,57,3,,,,47,58,8,32,1.2,2.6
2026-01-03T0700,1587A,109.9992,40.5843,包头市,包头八中,细颗粒物(PM2.5),144,132,102,110,72,6,,,,64,60,16,18,3.5,2.3
2026-01-03T0700,1589A,109.8641,40.6288,包头市,惠龙物流,颗粒物(PM10),58,66,95,36,56,1,,,,52,57,14,36,1.5,2.3
2026-01-03T0700,1590A,110.0376,40.5546,包头市,东河鸿龙湾,细颗粒物(PM2.5),92,105,89,68,52,10,,,,71,65,10,20,1.5,1.8
2026-01-03T0700,3283A,109.9154,40.5684,包头市,滨河大厦,细颗粒物(PM2.5),98,98,74,73,51,2,,,,58,43,10,16,2.6,1.8
2026-01-03T0700,3419A,109.9449,40.6259,包头市,包头市委党校,颗粒物(PM10),67,83,92,38,59,2,,,,63,59,18,29,2.4,2.4
2026-01-03T0700,3683A,109.8332,40.6577,包头市,昆区政府,,47,47,89,32,61,10,,,,46,61,13,47,1.3,2.6
2026-01-03T0700,1931A,107.0802,34.3129,宝鸡市,竹园沟,细颗粒物(PM2.5),124,,84,94,90,15,,,,16,21,6,6,0.8,0.7
2026-01-03T0700,1933A,107.1429,34.3549,宝鸡市,监测站,细颗粒物(PM2.5),150,,96,115,101,14,,,,27,29,4,5,1.0,0.9
2026-01-03T0700,1934A,107.1172,34.3759,宝鸡市,技工学校,细颗粒物(PM2.5),147,,90,112,97,23,,,,20,24,2,4,0.9,0.9
2026-01-03T0700,1936A,107.2025,34.3518,宝鸡市,文理学院,细颗粒物(PM2.5),156,,93,119,105,15,,,,28,28,3,4,0.8,0.8
2026-01-03T0700,1937A,107.2396,34.3626,宝鸡市,三迪小学,细颗粒物(PM2.5),160,,95,122,108,16,,,,33,28,3,4,0.9,0.9
2026-01-03T0700,4155A,107.1721,34.3558,宝鸡市,滨河北路,细颗粒物(PM2.5),145,121,102,111,89,25,,,,26,32,5,6,0.9,0.9
2026-01-03T0700,4308A,107.3898,34.3601,宝鸡市,陈仓区北开路21号,细颗粒物(PM2.5),158,129,104,120,107,10,,,,38,26,4,4,0.7,0.7
2026-01-03T0700,1051A,115.4803,38.8568,保定市,游泳馆,细颗粒物(PM2.5),142,134,107,108,86,4,,,,61,51,7,11,1.2,1.2
2026-01-03T0700,1052A,115.509,38.8895,保定市,华电二区,细颗粒物(PM2.5),155,123,97,118,85,2,,,,52,37,2,7,1.7,1.4
2026-01-03T0700,1053A,115.4588,38.9037,保定市,接待中心,细颗粒物(PM2.5),132,125,115,100,88,1,,,,53,43,3,8,1.2,0.9
2026-01-03T0700,1054A,115.4484,38.8344,保定市,地表水厂,细颗粒物(PM2.5),149,145,134,114,90,8,,,,55,48,4,9,1.2,1.2
2026-01-03T0700,3581A,115.3136,38.9511,保定市,满城区生态环境分局,细颗粒物(PM2.5),138,151,134,105,88,1,,,,62,57,5,8,1.7,1.2
2026-01-03T0700,3582A,115.4709,38.7628,保定市,清苑区第二中学,细颗粒物(PM2.5),125,136,131,95,82,1,,,,55,50,7,12,0.9,0.9
2026-01-03T0700,3583A,115.6231,39.0223,保定市,徐水物探局,细颗粒物(PM2.5),130,156,149,99,99,3,,,,51,55,9,11,1.6,1.2
2026-01-03T0700,4004A,115.4199,38.8665,保定市,双鹰农机,细颗粒物(PM2.5),143,171,141,109,82,10,,,,57,46,8,13,1.2,1.1
2026-01-03T0700,4034A,115.515,38.8589,保定市,植保所站,细颗粒物(PM2.5),148,135,112,113,94,0,,,,66,57,2,8,1.1,1.1
2026-01-03T0700,2594A,99.1589,25.1137,保山市,市环境监测站,,32,,24,22,22,43,,,,6,8,8,7,0.3,0.4
2026-01-03T0700,2595A,99.1616,25.1381,保山市,市环保局,,30,,28,21,20,53,,,,3,6,4,4,0.4,0.4
2026-01-03T0700,1867A,109.1435,21.4085,北海市,海滩公园,,32,29,31,22,21,39,,,,17,16,8,8,0.4,0.5
2026-01-03T0700,1868A,109.0983,21.466,北海市,新市环保局,,39,,26,27,25,39,,,,14,14,4,4,0.7,0.7
2026-01-03T0700,1869A,109.1775,21.5232,北海市,北海工业园,,32,31,32,22,24,36,,,,12,12,6,6,0.6,0.7
2026-01-03T0700,3400A,109.1844,21.4396,北海市,龙潭自来水厂,,40,35,29,28,23,35,,,,14,13,9,8,0.6,0.9
2026-01-03T0700,1001A,116.3611,39.8786,北京市,万寿西宫,,,,64,,40,,,40,,,48,,4,,0.6
2026-01-03T0700,1003A,116.4174,39.9289,北京市,东四,,24,24,55,13,32,4,,,,44,37,2,3,0.6,0.8
2026-01-03T0700,1004A,116.4073,39.8858,北京市,天坛,,25,24,63,14,39,2,,,,50,42,1,3,0.6,0.7
2026-01-03T0700,1005A,116.4622,39.9364,北京市,农展馆,,25,25,56,14,32,2,,,,45,38,3,5,0.7,0.7
2026-01-03T0700,1006A,116.3399,39.9293,北京市,官园,,29,29,56,15,34,0,,,,57,41,4,5,0.7,0.6
2026-01-03T0700,1007A,116.2879,39.9613,北京市,海淀万柳,,29,29,48,15,25,1,,,,56,49,3,3,0.6,0.6
2026-01-03T0700,1008A,116.6635,40.1349,北京市,顺义新城,,27,27,33,14,17,31,,,,17,27,4,5,0.4,0.5
2026-01-03T0700,1009A,116.6275,40.327,北京市,怀柔镇,,17,17,22,11,15,24,,,,24,22,6,6,0.5,0.5
2026-01-03T0700,1010A,116.2295,40.217,北京市,昌平镇,,47,47,40,29,20,1,,,,49,42,4,5,0.7,0.6
2026-01-03T0700,1011A,116.3968,39.982,北京市,奥体中心,,31,26,42,15,26,0,,,,61,46,4,5,0.8,0.8
2026-01-03T0700,3418A,116.8336,40.4095,北京市,密云新城,,22,22,21,11,10,41,,,,11,11,3,3,0.5,0.4
2026-01-03T0700,3671A,116.0879,39.9725,北京市,门头沟三家店,颗粒物(PM10),53,55,60,30,26,3,,,,35,36,2,3,0.6,0.6
2026-01-03T0700,3672A,116.1507,39.8246,北京市,丰台云岗,颗粒物(PM10),52,53,67,27,38,12,,,,47,45,2,3,0.5,0.6
2026-01-03T0700,3674A,115.9578,39.7602,北京市,房山燕山,,42,42,61,28,32,14,,,,29,28,4,4,0.6,0.5
2026-01-03T0700,3675A,116.4669,39.7734,北京市,大兴旧宫,,,,84,,45,,,42,,,43,,3,,0.8
2026-01-03T0700,3694A,115.9859,40.4562,北京市,延庆石河营,,42,40,37,29,24,3,,,,22,24,2,3,1.3,0.8
2026-01-03T0700,3695A,116.6151,40.3052,北京市,怀柔新城,,20,18,23,14,14,28,,,,18,16,4,4,0.3,0.3
2026-01-03T0700,3696A,116.2542,39.8764,北京市,丰台小屯,颗粒物(PM10),56,61,68,28,35,2,,,,55,53,3,4,0.7,0.8
2026-01-03T0700,3697A,116.8399,40.3843,北京市,密云镇,,,,28,,13,,,59,,,25,,1,,0.5
2026-01-03T0700,4057A,115.9423,40.4431,北京市,延庆百泉,,49,49,34,31,24,0,,,,29,22,1,2,0.9,0.6
2026-01-03T0700,4058A,116.6598,39.9164,北京市,通州新华,,35,35,65,18,34,4,,,,53,49,4,4,0.5,0.6
2026-01-03T0700,4182A,116.1942,39.9158,北京市,石景山八角,颗粒物(PM10),53,56,59,30,29,4,,,,47,45,3,3,0.4,0.4
2026-01-03T0700,4194A,117.078628,40.151726,北京市,平谷新城,,,,40,,26,,,47,,,31,,2,,0.5
2026-01-03T0700,1761A,123.8274146,41.31234549,本溪市,大峪,颗粒物(PM10),72,94,97,49,55,2,,,,43,41,7,12,2.0,2.6
2026-01-03T0700,1763A,123.7169,41.3094,本溪市,彩屯,细颗粒物(PM2.5),143,148,94,109,68,1,,,,55,39,13,10,4.3,2.2
2026-01-03T0700,1764A,123.7672166,41.28649327,本溪市,东明,"颗粒物(PM10),细颗粒物(PM2.5)",74,97,100,54,60,3,,,,45,43,8,13,2.3,3
2026-01-03T0700,1765A,123.799345,41.266614,本溪市,新立屯,,36,36,65,22,42,4,,,,42,40,8,14,1.6,2.5
2026-01-03T0700,1766A,123.829144,41.336777,本溪市,威宁,颗粒物(PM10),73,96,113,52,63,5,,,,43,42,6,10,1.8,2.1
2026-01-03T0700,2587A,105.287,27.3133,毕节市,八中,,15,14,19,10,17,33,,,,11,14,9,9,0.7,0.8
2026-01-03T0700,2588A,105.3079,27.2987,毕节市,师专,,12,12,16,8,13,34,,,,10,14,8,8,0.7,0.8
2026-01-03T0700,4263A,105.3688,27.3598,毕节市,工业大道,,18,13,14,12,12,31,,,,9,11,9,9,/,/
2026-01-03T0700,1629A,117.9961,37.3604,滨州市,第二水厂,细颗粒物(PM2.5),59,58,50,42,28,25,,,,34,35,13,14,0.7,0.6
2026-01-03T0700,1630A,117.9789,37.3931,滨州市,北中新校,细颗粒物(PM2.5),70,68,48,51,30,27,,,,34,33,9,10,0.5,0.5
2026-01-03T0700,3514A,117.9379,37.3959,滨州市,中海酒店,细颗粒物(PM2.5),83,70,50,61,37,30,,,,38,34,12,12,0.6,0.6
2026-01-03T0700,3515A,117.9381509,37.35547456,滨州市,开发区一中,细颗粒物(PM2.5),64,66,55,46,35,24,,,,27,32,15,16,0.6,0.5
2026-01-03T0700,3516A,118.0914,37.6938,滨州市,金海六路,细颗粒物(PM2.5),62,71,53,44,29,9,,,,54,42,11,12,0.7,0.6
2026-01-03T0700,4028A,117.9955,37.3752,滨州市,滨州市西街道办事处,细颗粒物(PM2.5),70,61,46,51,34,24,,,,30,26,10,12,0.7,0.6
2026-01-03T0700,2311A,115.8071,33.8399,亳州市,污水处理厂,细颗粒物(PM2.5),117,,84,88,73,58,,,,20,28,6,7,0.4,0.5
2026-01-03T0700,2312A,115.7789,33.8519,亳州市,三国揽胜宫,细颗粒物(PM2.5),87,89,95,64,69,47,,,,14,21,3,5,0.5,0.6
2026-01-03T0700,3332A,115.7631,33.803,亳州市,亳州学院,细颗粒物(PM2.5),100,91,95,75,75,44,,,,22,27,4,6,0.5,0.5
2026-01-03T0700,2693A,82.0482,44.8553,博尔塔拉蒙古自治州,市党校,颗粒物(PM10),67,83,87,41,40,30,,,,21,21,2,3,1.1,1.1
2026-01-03T0700,2694A,82.0805,44.8966,博尔塔拉蒙古自治州,市环保局,颗粒物(PM10),85,120,86,46,39,26,,,,28,25,6,7,1.0,1
2026-01-03T0700,1071A,116.8733,38.2922,沧州市,沧县城建局,细颗粒物(PM2.5),109,90,70,82,48,19,,,,39,40,3,3,0.8,0.7
2026-01-03T0700,1072A,116.8462,38.3189,沧州市,电视转播站,细颗粒物(PM2.5),104,101,62,78,47,21,,,,30,31,5,9,0.6,0.6
2026-01-03T0700,1073A,116.8588,38.3161,沧州市,市环保局,细颗粒物(PM2.5),118,93,70,89,49,20,,,,27,28,5,7,0.7,0.6
2026-01-03T0700,3324A,116.8011,38.294,沧州市,河北水利电力学院,细颗粒物(PM2.5),100,97,73,75,43,14,,,,41,44,8,9,0.7,0.6
2026-01-03T0700,2622A,97.1813,31.1289,昌都市,昌都监测站,,16,9,25,3,9,49,,,,7,8,2,2,0.2,0.4
2026-01-03T0700,3719A,97.1707,31.1428,昌都市,昌都会议中心,,17,7,12,6,10,53,,,,1,3,3,2,0.4,0.4
2026-01-03T0700,2692A,87.2722,44.0298,昌吉回族自治州,新区政务中心,细颗粒物(PM2.5),97,112,128,72,70,14,,,,50,50,6,7,0.9,1.1
2026-01-03T0700,3613A,87.3069,44.0093,昌吉回族自治州,亚心广场,细颗粒物(PM2.5),100,114,135,75,75,28,,,,39,42,8,7,1.0,1.2
2026-01-03T0700,4164A,87.2057,43.9289,昌吉回族自治州,财政所,颗粒物(PM10),60,70,98,40,53,56,,,,9,18,5,5,0.5,0.6
2026-01-03T0700,1120A,125.2874,43.9024,长春市,客车厂,细颗粒物(PM2.5),59,47,64,42,57,18,,,,44,37,14,12,0.8,0.8
2026-01-03T0700,1121A,125.2943,43.8508,长春市,邮电学院,细颗粒物(PM2.5),58,52,71,41,51,25,,,,24,29,8,11,0.7,0.8
2026-01-03T0700,1122A,125.3648,43.8745,长春市,劳动公园,"颗粒物(PM10),细颗粒物(PM2.5)",53,56,71,37,47,27,,,,25,34,7,9,0.9,1
2026-01-03T0700,1123A,125.3233,43.8781,长春市,园林处,细颗粒物(PM2.5),54,49,65,38,49,18,,,,33,31,14,14,0.7,0.6
2026-01-03T0700,1124A,125.4604,43.7904,长春市,净月潭,,46,39,60,32,43,42,,,,12,22,6,8,0.7,0.8
2026-01-03T0700,1126A,125.38,43.8422,长春市,经开区环卫处,细颗粒物(PM2.5),57,55,74,40,45,9,,,,44,37,5,7,0.9,0.8
2026-01-03T0700,1127A,125.234,43.7761,长春市,高新区管委会,细颗粒物(PM2.5),72,62,70,52,57,6,,,,43,36,6,8,0.9,1
2026-01-03T0700,1128A,125.1695,43.83,长春市,岱山公园,细颗粒物(PM2.5),62,57,65,44,50,11,,,,48,37,11,11,0.7,0.7
2026-01-03T0700,4281A,125.334645,43.916281,长春市,北亚泰大街1068号,细颗粒物(PM2.5),73,70,72,53,60,12,,,,47,40,18,13,0.8,0.8
2026-01-03T0700,1335A,113.082,28.2421,长沙市,经开区环保局,细颗粒物(PM2.5),69,61,55,50,46,27,,,,16,18,3,3,0.4,0.4
2026-01-03T0700,1336A,112.8873,28.2202,长沙市,高开区环保局,细颗粒物(PM2.5),77,58,51,56,50,32,,,,14,11,4,4,0.7,0.6
2026-01-03T0700,1337A,113.0785,28.2012,长沙市,马坡岭,细颗粒物(PM2.5),69,63,52,50,43,29,,,,24,24,6,4,0.7,0.7
2026-01-03T0700,1338A,112.9448,28.1894,长沙市,湖南师范大学,细颗粒物(PM2.5),64,60,54,46,41,31,,,,26,20,4,4,0.5,0.5
2026-01-03T0700,1339A,113.0177,28.1322,长沙市,雨花区环保局,细颗粒物(PM2.5),65,61,53,47,47,33,,,,16,18,8,7,0.5,0.5
2026-01-03T0700,1340A,112.9795,28.2593,长沙市,伍家岭,细颗粒物(PM2.5),68,65,56,49,43,23,,,,17,15,4,4,0.5,0.4
2026-01-03T0700,1341A,113.002,28.1944,长沙市,火车新站,细颗粒物(PM2.5),70,65,57,51,47,34,,,,18,16,8,7,0.4,0.4
2026-01-03T0700,1342A,112.9846,28.1177,长沙市,天心区环保局,细颗粒物(PM2.5),63,57,51,45,42,37,,,,21,23,6,5,0.5,0.5
2026-01-03T0700,1343A,112.8906,28.1307,长沙市,湖南中医药大学,细颗粒物(PM2.5),67,56,50,48,47,38,,,,17,17,5,5,0.5,0.5
2026-01-03T0700,1727A,113.1146,36.1547,长治市,清华站,细颗粒物(PM2.5),132,105,103,100,103,2,,,,50,38,13,14,1.3,1.3
2026-01-03T0700,1730A,113.0887,36.2126,长治市,审计局,细颗粒物(PM2.5),107,86,102,80,105,3,,,,52,41,16,15,1.1,1.4
2026-01-03T0700,1731A,113.0845,36.1856,长治市,长治八中,细颗粒物(PM2.5),134,115,124,102,113,0,,,,44,36,14,13,1.5,1.5
2026-01-03T0700,2845A,113.1561,36.1912,长治市,德盛苑,细颗粒物(PM2.5),122,,89,92,94,15,,,,42,24,11,10,1.1,1.1
2026-01-03T0700,3568A,113.0603,36.0464,长治市,向阳小学,细颗粒物(PM2.5),107,91,114,80,97,22,,,,31,32,12,14,1.2,1.4
2026-01-03T0700,3569A,112.8788,36.315,长治市,屯留一中,细颗粒物(PM2.5),85,69,82,63,83,21,,,,33,32,2,7,0.7,0.8
2026-01-03T0700,4189A,113.113092,36.199482,长治市,英华南巷50号,细颗粒物(PM2.5),117,95,113,88,100,1,,,,49,36,11,12,1.6,1.5
2026-01-03T0700,4190A,113.23666,36.33435,长治市,学府街1号,细颗粒物(PM2.5),119,90,99,90,103,8,,,,48,34,13,11,2.3,1.6
2026-01-03T0700,1854A,111.696,28.9725,常德市,市二中,细颗粒物(PM2.5),90,71,69,67,65,46,,,,13,14,4,5,0.5,0.5
2026-01-03T0700,3138A,111.7152,29.0288,常德市,武陵区永安,细颗粒物(PM2.5),85,78,74,63,62,49,,,,12,15,3,3,0.6,0.6
2026-01-03T0700,3139A,111.6891,28.9881,常德市,鼎城区玉霞,细颗粒物(PM2.5),87,70,65,64,62,49,,,,14,16,7,7,0.6,0.6
2026-01-03T0700,3140A,111.6651,29.0526,常德市,武陵区长庚,细颗粒物(PM2.5),87,75,71,64,63,56,,,,13,14,5,4,0.6,0.6
2026-01-03T0700,1196A,119.9524,31.7586,常州市,市监测站,,48,46,34,33,24,3,,,,60,29,2,3,0.6,0.5
2026-01-03T0700,1200A,119.9351,31.703,常州市,武进监测站,,48,47,33,33,24,13,,,,44,31,9,6,0.6,0.4
2026-01-03T0700,3002A,119.9701,31.813,常州市,行政中心,,50,50,36,27,20,9,,,,55,28,5,5,0.5,0.5
2026-01-03T0700,3003A,120.0434,31.7726,常州市,经开区,颗粒物(PM10),51,51,36,28,19,6,,,,52,25,2,4,0.9,0.7
2026-01-03T0700,3010A,119.8919,31.7892,常州市,钟楼,,48,46,40,33,24,5,,,,52,31,6,7,0.6,0.4
2026-01-03T0700,3429A,119.8595,31.706,常州市,武进经发区,细颗粒物(PM2.5),59,56,38,42,28,5,,,,50,31,7,8,0.7,0.5
2026-01-03T0700,3430A,119.5812,31.7256,常州市,金坛城区,细颗粒物(PM2.5),55,53,39,39,28,4,,,,43,23,6,7,0.8,0.7
2026-01-03T0700,4089A,119.9551,31.863,常州市,崇义南街5-H号,细颗粒物(PM2.5),57,55,35,40,22,0,,,,67,32,5,5,0.6,0.5
2026-01-03T0700,2220A,120.4318,41.588,朝阳市,西梁,细颗粒物(PM2.5),118,134,118,89,70,1,,,,45,41,21,18,2.3,1.7
2026-01-03T0700,2221A,120.452,41.565,朝阳市,河畔小区,颗粒物(PM10),65,79,79,44,60,4,,,,42,35,17,13,1.4,1.4
2026-01-03T0700,2222A,120.4176,41.5648,朝阳市,八里堡,细颗粒物(PM2.5),80,90,72,59,54,3,,,,45,38,19,18,1.8,1.4
2026-01-03T0700,3026A,116.6179,23.6608,潮州市,市政府,,21,21,17,11,8,33,,,,7,4,6,5,0.3,0.3
2026-01-03T0700,4036A,116.646,23.676,潮州市,金山,,15,15,16,8,10,34,,,,5,4,3,3,0.3,0.3
2026-01-03T0700,2473A,113.0116,25.8228,郴州市,市职中,细颗粒物(PM2.5),54,41,35,38,32,15,,,,10,9,2,2,0.5,0.4
2026-01-03T0700,2475A,113.0381,25.8074,郴州市,市审计局,细颗粒物(PM2.5),54,42,39,38,34,20,,,,12,13,1,1,/,/
2026-01-03T0700,2476A,113.0348,25.7757,郴州市,市环保局,细颗粒物(PM2.5),53,44,38,37,31,21,,,,12,14,2,2,0.5,0.5
2026-01-03T0700,4252A,113.0138,25.8011,郴州市,好美居路49号,细颗粒物(PM2.5),68,49,41,49,40,25,,,,8,7,3,2,/,/
2026-01-03T0700,1431A,103.9727,30.7242,成都市,金泉两河,,16,16,38,3,20,27,,,,20,23,2,2,0.6,0.6
2026-01-03T0700,1432A,104.1423,30.6765,成都市,十里店,,11,11,27,3,18,25,,,,17,19,3,3,0.6,0.5
2026-01-03T0700,1433A,104.0594,30.5765,成都市,三瓦窑,,13,11,30,9,20,27,,,,18,22,2,2,0.6,0.6
2026-01-03T0700,1434A,104.1122,30.6306,成都市,沙河铺,,23,23,36,10,26,22,,,,18,22,3,4,0.5,0.5
2026-01-03T0700,2880A,104.0219,30.6561,成都市,大石西路,,26,26,41,3,25,22,,,,15,20,4,4,0.5,0.5
2026-01-03T0700,3136A,104.2724,30.559,成都市,龙泉驿区区政府,,7,6,16,3,16,16,,,,13,15,6,6,0.7,0.6
2026-01-03T0700,3357A,104.0028,30.6891,成都市,金博路,,15,,25,10,21,22,,,,19,22,4,4,0.7,0.7
2026-01-03T0700,3359A,104.056,30.5228,成都市,华阳,,12,12,25,7,22,24,,,,19,23,2,2,0.6,0.6
2026-01-03T0700,3488A,104.387954,30.746684,成都市,青石路225号,,,,30,,26,,,60,,,15,,4,,0.6
2026-01-03T0700,3489A,104.0788,30.4054,成都市,科学城,,9,7,25,6,21,27,,,,10,15,5,5,0.8,0.8
2026-01-03T0700,4011A,103.8505,30.6946,成都市,光华大道三段,,15,12,36,10,24,26,,,,19,20,2,3,0.6,0.6
2026-01-03T0700,4144A,104.3257,30.6406,成都市,八角井街185号,,20,20,33,6,18,24,,,,12,15,1,1,1.0,1
2026-01-03T0700,4224A,104.2433276,30.53529463,成都市,鲸龙路1057号,,9,7,22,6,21,21,,,,18,20,5,5,0.4,0.6
2026-01-03T0700,1062A,117.9531,40.908,承德市,铁路,细颗粒物(PM2.5),64,68,51,46,29,2,,,,36,32,4,12,1.0,1
2026-01-03T0700,1063A,117.9397,40.9763,承德市,中国银行,颗粒物(PM10),53,55,52,27,28,5,,,,28,27,2,7,0.8,0.8
2026-01-03T0700,4073A,117.9462,40.95,承德市,杏林街1号,颗粒物(PM10),52,54,49,35,31,2,,,,33,32,4,11,0.9,0.9
2026-01-03T0700,4274A,117.7994,40.9605,承德市,滨河大街98号,颗粒物(PM10),63,76,45,29,20,3,,,,41,33,3,14,0.7,0.7
2026-01-03T0700,2314A,117.4698,30.6617,池州市,池州学院,细颗粒物(PM2.5),98,80,71,73,63,16,,,,28,20,2,3,1.2,0.5
2026-01-03T0700,3237A,117.4918,30.6617,池州市,展览馆,细颗粒物(PM2.5),80,74,68,59,53,7,,,,34,24,1,2,1.3,0.7
2026-01-03T0700,3333A,117.5626,30.695,池州市,第八中学,细颗粒物(PM2.5),90,78,75,67,61,27,,,,23,22,2,3,0.7,0.6
2026-01-03T0700,3334A,117.5037,30.6242,池州市,第十二中学,细颗粒物(PM2.5),94,85,75,70,60,7,,,,36,30,5,3,1.6,0.9
2026-01-03T0700,1744A,118.9229,42.2816,赤峰市,松山一中,颗粒物(PM10),55,59,88,32,50,1,,,,47,53,6,19,1.4,1.7
2026-01-03T0700,1745A,118.9588,42.2733,赤峰市,哈达街,,39,39,90,17,55,12,,,,38,42,12,23,1.3,1.5
2026-01-03T0700,1746A,118.8792,42.2551,赤峰市,天义路,,28,28,56,19,47,8,,,,41,45,7,18,0.9,1.3
2026-01-03T0700,3058A,119.2656,42.0356,赤峰市,银河街,细颗粒物(PM2.5),137,145,121,104,84,5,,,,33,36,22,24,3.4,2.3
2026-01-03T0700,3286A,118.9359,42.3146,赤峰市,桥北物流园区,,30,23,66,21,54,7,,,,35,40,4,20,1.0,1.2
2026-01-03T0700,2521A,107.3473,22.4137,崇左市,市环保局江州分局,,28,26,21,19,14,32,,,,10,12,7,7,0.5,0.6
2026-01-03T0700,4256A,107.375,22.3736,崇左市,石景林东路7号,,25,,19,17,10,30,,,,14,14,8,7,0.5,0.6
2026-01-03T0700,3207A,118.31131,32.3033,滁州市,市政府原办公楼,,48,47,50,33,37,16,,,,33,24,4,5,0.5,0.5
2026-01-03T0700,3331A,118.3268,32.2633,滁州市,图书馆,,,,42,,32,,,66,,,16,,8,,0.5
2026-01-03T0700,4101A,118.3196,32.3335,滁州市,银山路666号,细颗粒物(PM2.5),58,,43,41,48,0,,,,25,16,7,8,0.6,0.7
2026-01-03T0700,4102A,118.3426,32.2979,滁州市,黄山路555号,细颗粒物(PM2.5),60,44,53,43,42,2,,,,39,21,8,9,0.4,0.5
2026-01-03T0700,2606A,101.5379,25.0492,楚雄彝族自治州,市经济开发区,,33,27,32,23,24,1,,,,20,22,6,5,0.4,0.5
2026-01-03T0700,4153A,101.5536,25.0343,楚雄彝族自治州,团结路562号,,38,31,25,26,21,2,,,,24,14,6,3,0.5,0.5
2026-01-03T0700,2549A,107.5087,31.2186,达州市,市环境监测站,,32,28,31,22,23,7,,,,24,24,5,6,0.4,0.4
2026-01-03T0700,2550A,107.4988,31.2132,达州市,凤凰小区,,39,29,30,27,24,14,,,,17,19,3,4,0.4,0.4
2026-01-03T0700,2551A,107.5081,31.1987,达州市,达县机关宾馆,细颗粒物(PM2.5),65,,34,47,33,4,,,,25,29,3,3,0.7,0.7
2026-01-03T0700,2552A,107.4644,31.2124,达州市,市政中心,,39,39,43,22,26,16,,,,18,25,5,6,0.3,0.4
2026-01-03T0700,2614A,100.2168,25.5818,大理白族自治州,大理市环境监测站,,17,17,18,10,19,44,,,,16,9,6,6,0.5,0.4
2026-01-03T0700,2615A,100.1542,25.7055,大理白族自治州,大理古城,颗粒物(PM10),88,126,25,9,10,85,,,,1,7,8,8,0.4,0.5
2026-01-03T0700,1109A,121.6119,38.974,大连市,甘井子,细颗粒物(PM2.5),107,,40,80,31,23,,,,39,28,15,10,0.7,0.3
2026-01-03T0700,1110A,121.565,38.9509,大连市,周水子,细颗粒物(PM2.5),103,90,42,77,33,13,,,,49,30,4,5,0.8,0.6
2026-01-03T0700,1111A,121.5637,38.8849,大连市,星海三站,细颗粒物(PM2.5),102,76,33,76,32,36,,,,23,19,8,10,1.1,0.7
2026-01-03T0700,1112A,121.6301,38.9117,大连市,青泥洼桥,细颗粒物(PM2.5),104,91,50,78,30,20,,,,41,26,13,10,1.2,0.6
2026-01-03T0700,1113A,121.6248,38.8643,大连市,傅家庄,细颗粒物(PM2.5),100,86,35,75,28,27,,,,33,21,23,13,0.7,0.4
2026-01-03T0700,1114A,121.5117,38.8636,大连市,七贤岭,细颗粒物(PM2.5),90,78,33,67,25,35,,,,28,14,11,8,1.1,0.7
2026-01-03T0700,1116A,121.7507,39.1339,大连市,金州,细颗粒物(PM2.5),127,123,46,96,36,24,,,,41,24,12,12,1.1,0.6
2026-01-03T0700,1117A,121.7811,39.0495,大连市,开发区,细颗粒物(PM2.5),115,100,47,87,38,15,,,,41,29,8,8,1.2,0.8
2026-01-03T0700,1118A,121.9762,39.0631,大连市,双D港,细颗粒物(PM2.5),94,92,40,70,27,26,,,,30,18,12,12,1.1,0.6
2026-01-03T0700,4082A,121.2548,38.8188,大连市,旅顺,细颗粒物(PM2.5),92,107,45,68,27,30,,,,25,13,11,7,0.9,0.6
2026-01-03T0700,1789A,124.8085,46.0381,大庆市,大同区,,49,49,52,31,36,30,,,,20,20,3,6,0.4,0.5
2026-01-03T0700,1790A,125.1166,46.5255,大庆市,龙凤区,,50,38,47,35,33,12,,,,54,37,14,11,0.7,0.6
2026-01-03T0700,1791A,124.8894,46.4007,大庆市,红岗区,细颗粒物(PM2.5),64,,35,46,23,28,,,,27,25,5,7,0.8,0.6
2026-01-03T0700,1792A,125.1391,46.578,大庆市,萨尔图区,,38,37,49,26,29,24,,,,31,25,8,8,0.5,0.6
2026-01-03T0700,1793A,124.9026,46.6217,大庆市,让胡路区,,50,,33,35,32,45,,,,16,18,7,9,0.4,0.5
2026-01-03T0700,3481A,125.127,46.6277,大庆市,萨区政府监测点,,35,35,40,19,22,34,,,,20,28,9,12,0.7,0.8
2026-01-03T0700,1723A,113.2926,40.0759,大同市,云冈宾馆,颗粒物(PM10),66,82,98,43,55,4,,,,50,54,13,20,2.4,2.2
2026-01-03T0700,1724A,113.3437,40.0921,大同市,大同大学,颗粒物(PM10),58,66,78,40,44,6,,,,54,43,22,20,1.7,1.1
2026-01-03T0700,1725A,113.2637,40.129,大同市,安家小村,颗粒物(PM10),55,59,99,37,48,7,,,,44,50,13,25,1.9,2
2026-01-03T0700,3282A,113.3399,40.0586,大同市,大同市卫生学校,颗粒物(PM10),58,66,82,35,43,2,,,,56,49,16,19,1.7,1.2
2026-01-03T0700,3565A,113.1371,40.1122,大同市,云冈站,颗粒物(PM10),59,68,72,34,34,2,,,,40,38,12,16,0.9,0.9
2026-01-03T0700,3566A,113.1186,40.2556,大同市,图书馆,颗粒物(PM10),52,54,59,28,40,5,,,,23,25,8,15,0.9,1
2026-01-03T0700,3567A,113.5931,40.0459,大同市,区一中,细颗粒物(PM2.5),97,,94,72,48,21,,,,43,44,22,36,1.5,1.2
2026-01-03T0700,4199A,113.2798248,40.09972476,大同市,魏都大道141号,颗粒物(PM10),76,101,135,46,61,7,,,,46,53,12,22,2.1,2.4
2026-01-03T0700,2269A,124.1068,50.4091,大兴安岭地区,科技局,,22,,15,15,13,53,,,,2,2,4,5,0.3,0.3
2026-01-03T0700,3663A,124.117,50.4279,大兴安岭地区,红旗社区,,19,14,7,8,5,58,,,,5,4,5,5,0.2,0.2
2026-01-03T0700,1600A,124.33,40.0625,丹东市,江湾东路,细颗粒物(PM2.5),79,69,45,58,35,25,,,,27,20,12,12,0.9,1
2026-01-03T0700,1601A,124.4242,40.1513,丹东市,临江后街,,42,42,40,28,27,10,,,,36,24,23,9,1.1,1
2026-01-03T0700,1602A,124.3935,40.1461,丹东市,元宝山,细颗粒物(PM2.5),59,50,29,42,23,7,,,,36,17,15,9,1.3,0.8
2026-01-03T0700,1603A,124.3634,40.1093,丹东市,民主桥,,39,39,42,24,30,20,,,,30,23,10,9,0.7,0.7
2026-01-03T0700,3541A,109.5726195,19.51688767,儋州市,第一中学子站,,28,28,40,17,28,74,,,,6,6,4,4,0.6,0.6
2026-01-03T0700,3542A,109.5567,19.5187,儋州市,东坡学校子站,,30,30,41,15,25,80,,,,6,6,4,4,0.5,0.6
2026-01-03T0700,2616A,98.5611,24.4273,德宏傣族景颇族自治州,德宏州监测站,细颗粒物(PM2.5),65,57,58,47,46,4,,,,27,23,6,6,0.8,0.8
2026-01-03T0700,3677A,98.5887,24.4366,德宏傣族景颇族自治州,芒市人民政府综合楼,,48,45,51,33,34,3,,,,23,15,8,9,0.8,0.8
2026-01-03T0700,1901A,104.424,31.1209,德阳市,东山公园,,15,,24,10,23,30,,,,7,9,2,2,0.7,0.7
2026-01-03T0700,1902A,104.3827,31.1318,德阳市,西小区,,19,19,36,10,24,32,,,,10,13,1,2,0.8,0.8
2026-01-03T0700,1904A,104.3553,31.1091,德阳市,耐火材料厂,,19,17,29,13,26,29,,,,14,18,1,2,0.7,0.7
2026-01-03T0700,4145A,104.4144,31.1495,德阳市,市林业局,,16,16,27,3,25,27,,,,9,9,2,2,0.7,0.6
2026-01-03T0700,1622A,116.3034,37.4675,德州市,儿童乐园,细颗粒物(PM2.5),113,112,78,85,48,28,,,,32,30,12,13,1.1,1
2026-01-03T0700,1624A,116.2992,37.4449,德州市,监理站,细颗粒物(PM2.5),117,105,71,88,45,32,,,,39,33,13,15,0.9,0.7
2026-01-03T0700,3066A,116.2722,37.438,德州市,九衢泉纯净水厂,细颗粒物(PM2.5),113,105,74,85,51,11,,,,43,36,8,15,0.7,0.6
2026-01-03T0700,3371A,116.3693,37.44,德州市,开发区人民医院,细颗粒物(PM2.5),117,114,75,88,45,32,,,,38,36,12,14,0.9,0.8
2026-01-03T0700,3511A,116.5687,37.3331,德州市,陵城艺术中心,细颗粒物(PM2.5),107,107,72,80,44,19,,,,45,40,26,19,1.2,0.7
2026-01-03T0700,4292A,116.352738,37.420875,德州市,新河东路,细颗粒物(PM2.5),110,102,74,83,50,14,,,,53,45,12,14,1.0,1
2026-01-03T0700,2621A,99.7054,27.8319,迪庆藏族自治州,迪庆州站,,27,16,21,10,14,84,,,,4,7,5,5,0.2,0.4
2026-01-03T0700,3180A,99.7122,27.8129,迪庆藏族自治州,质量技术监督局,,29,,22,15,17,91,,,,3,9,5,6,0.3,0.4
2026-01-03T0700,4257A,104.6092,35.5962,定西市,将台街,细颗粒物(PM2.5),70,,47,51,40,40,,,,25,14,9,8,0.7,0.6
2026-01-03T0700,4309A,104.6159,35.5701,定西市,正龙路62号,细颗粒物(PM2.5),64,51,49,46,39,45,,,,14,7,3,3,0.7,0.6
2026-01-03T0700,1390A,113.7943,23.0132,东莞市,东城石井,,26,26,18,16,10,48,,,,18,14,9,8,0.6,0.6
2026-01-03T0700,1391A,113.7384,22.9659,东莞市,南城西平,,27,27,19,16,9,41,,,,27,20,10,9,0.5,0.5
2026-01-03T0700,3319A,113.7283,23.041,东莞市,万江金泰,,24,24,17,14,9,52,,,,14,12,5,5,0.5,0.5
2026-01-03T0700,4129A,113.8666,23.1062,东莞市,裕兴路,,27,27,21,18,10,60,,,,12,10,5,4,0.6,0.5
2026-01-03T0700,4130A,114.0076,22.9739,东莞市,教育路1号,,36,36,25,20,12,43,,,,23,18,6,5,0.7,0.7
2026-01-03T0700,4131A,113.7981,22.8124,东莞市,长怡路1号,,34,34,24,15,10,28,,,,20,18,7,7,0.6,0.6
2026-01-03T0700,1666A,118.6612,37.4313,东营市,市环保局,细颗粒物(PM2.5),67,75,51,48,29,2,,,,63,44,18,16,1.3,0.9
2026-01-03T0700,3036A,118.6903,37.4337,东营市,开发区管委会,细颗粒物(PM2.5),79,93,57,58,31,2,,,,64,46,26,18,1.5,1
2026-01-03T0700,3365A,118.5721,37.5654,东营市,垦利区民丰路,细颗粒物(PM2.5),64,68,55,46,30,9,,,,57,43,13,12,1.0,0.9
2026-01-03T0700,3498A,118.5063,37.8606,东营市,河口城区,颗粒物(PM10),64,78,52,39,27,9,,,,51,36,5,5,0.9,0.7
2026-01-03T0700,3646A,118.4979,37.4623,东营市,胜利站,细颗粒物(PM2.5),77,80,55,56,35,1,,,,72,52,70,31,1.2,0.9
2026-01-03T0700,3734A,118.5753,37.4405,东营市,理想之城,细颗粒物(PM2.5),85,92,55,63,35,1,,,,55,43,15,11,1.4,0.9
2026-01-03T0700,1591A,110.0024,39.8127,鄂尔多斯市,综合楼,细颗粒物(PM2.5),58,46,51,41,28,6,,,,65,52,23,14,1.5,0.9
2026-01-03T0700,1592A,109.9485,39.8259,鄂尔多斯市,巴音孟克林场办事处,,30,24,48,14,23,4,,,,59,44,8,11,0.9,0.8
2026-01-03T0700,1593A,109.7734,39.5987,鄂尔多斯市,康泽苑,,13,9,20,9,11,34,,,,17,20,3,4,0.3,0.4
2026-01-03T0700,1594A,109.8121,39.5987,鄂尔多斯市,华泰汽车城,,19,19,27,7,11,5,,,,31,32,2,2,0.3,0.4
2026-01-03T0700,1595A,109.9734,39.7884,鄂尔多斯市,奥林花园,颗粒物(PM10),62,73,60,29,21,0,,,,70,55,6,8,1.3,0.8
2026-01-03T0700,2436A,114.894,30.3989,鄂州市,市政府,细颗粒物(PM2.5),55,57,43,39,32,20,,,,31,27,8,4,0.6,0.6
2026-01-03T0700,2437A,114.8986,30.3714,鄂州市,赵家坝,细颗粒物(PM2.5),64,65,49,46,35,13,,,,26,21,7,7,0.3,0.3
2026-01-03T0700,3654A,114.8093,30.4091,鄂州市,精准医疗中心,细颗粒物(PM2.5),70,58,48,51,37,2,,,,40,13,4,4,1.0,1
2026-01-03T0700,2454A,109.4978,30.2979,恩施土家族苗族自治州,湖北民院,细颗粒物(PM2.5),64,,37,46,37,46,,,,6,11,6,6,0.6,0.6
2026-01-03T0700,3549A,109.5061,30.3771,恩施土家族苗族自治州,龙凤新区,细颗粒物(PM2.5),53,40,38,37,34,38,,,,4,7,7,6,0.4,0.4
2026-01-03T0700,2499A,108.3411,21.6159,防城港市,沙万,颗粒物(PM10),54,58,32,27,16,42,,,,14,12,6,5,0.5,0.5
2026-01-03T0700,2500A,108.3515,21.7733,防城港市,防城档案局,,,,35,,10,,,41,,,13,,5,,0.6
2026-01-03T0700,2501A,108.3506,21.6414,防城港市,大海花园,,33,26,23,23,19,44,,,,8,6,6,6,0.6,0.6
2026-01-03T0700,1371A,113.1293,23.0065,佛山市,湾梁,,24,24,23,16,8,49,,,,19,20,/,/,/,/
2026-01-03T0700,1372A,113.1082,23.0477,佛山市,华材职中,,40,29,29,28,16,42,,,,23,16,6,7,0.5,0.4
2026-01-03T0700,1373A,113.1439,23.045,佛山市,南海气象局,,30,30,25,17,13,46,,,,22,21,/,/,/,/
2026-01-03T0700,1374A,113.2879,22.8094,佛山市,顺德苏岗,,28,28,20,14,9,45,,,,23,20,/,/,0.5,0.6
2026-01-03T0700,1376A,112.8384,22.8678,佛山市,高明孔堂,,,34,28,16,14,48,,,,,17,/,/,/,/
2026-01-03T0700,1377A,112.8835,23.1584,佛山市,三水监测站,,36,29,28,25,15,52,,,,16,17,4,5,0.4,0.5
2026-01-03T0700,1378A,112.8668,23.185,佛山市,三水云东海,,44,44,29,25,14,51,,,,13,15,/,/,/,/
2026-01-03T0700,3625A,113.2568,22.7629,佛山市,容桂街道办,,20,19,23,14,12,56,,,,15,18,/,/,/,/
2026-01-03T0700,1282A,119.2681,26.0506,福州市,师大,,26,19,18,18,13,66,,,,14,16,7,7,0.4,0.4
2026-01-03T0700,1283A,119.2983,26.1028,福州市,五四北路,,19,18,19,12,11,59,,,,12,14,5,4,0.4,0.4
2026-01-03T0700,1284A,119.2648,26.0769,福州市,杨桥西路,,18,18,21,11,9,56,,,,11,12,5,4,/,/
2026-01-03T0700,3048A,119.5799,26.0937,福州市,九龙,,24,24,18,16,11,61,,,,20,14,5,5,0.4,0.4
2026-01-03T0700,3526A,119.5188,25.9666,福州市,吴航,,35,34,22,24,16,53,,,,18,12,4,5,0.4,0.5
2026-01-03T0700,4104A,119.3106,26.0648,福州市,路通桥巷6号,,30,,18,21,15,64,,,,8,9,/,/,/,/
2026-01-03T0700,1755A,123.7974,41.8494,抚顺市,望花区,细颗粒物(PM2.5),84,83,109,62,74,11,,,,42,41,7,9,1.2,1.3
2026-01-03T0700,1756A,123.9161,41.8827,抚顺市,顺城区,细颗粒物(PM2.5),64,55,97,46,65,21,,,,34,44,8,12,1.0,1.5
2026-01-03T0700,1757A,124.0437,41.8615,抚顺市,东洲区,细颗粒物(PM2.5),82,63,86,60,65,12,,,,38,39,6,8,1.2,1.4
2026-01-03T0700,1758A,123.9246,41.8638,抚顺市,新抚区,细颗粒物(PM2.5),89,85,104,66,72,4,,,,47,43,7,9,1.4,1.6
2026-01-03T0700,1759A,124.0972,41.8961,抚顺市,大伙房水库,细颗粒物(PM2.5),62,67,82,44,58,29,,,,24,31,12,13,1.0,1.3
2026-01-03T0700,1760A,123.708,41.8386,抚顺市,沈抚新城,细颗粒物(PM2.5),79,77,109,58,83,14,,,,43,43,14,12,1.9,1.8
2026-01-03T0700,2377A,116.3544,27.9833,抚州市,市站,细颗粒物(PM2.5),54,50,40,38,26,46,,,,12,10,8,6,0.3,0.4
2026-01-03T0700,2378A,116.3562,27.9631,抚州市,血防站,颗粒物(PM10),64,78,44,42,27,49,,,,12,11,4,4,0.6,0.4
2026-01-03T0700,2379A,116.3561,28.0007,抚州市,采茶剧团,细颗粒物(PM2.5),65,52,39,47,28,44,,,,9,6,4,4,0.6,0.5
2026-01-03T0700,2380A,116.3854,27.9648,抚州市,医学分院,细颗粒物(PM2.5),59,64,44,42,25,53,,,,10,8,13,5,0.6,0.4
2026-01-03T0700,2207A,121.6095,41.9978,阜新市,工业园区,细颗粒物(PM2.5),87,110,108,64,58,4,,,,35,31,18,23,1.2,0.9
2026-01-03T0700,2208A,121.6567,42.0188,阜新市,长青街,细颗粒物(PM2.5),92,83,65,68,52,1,,,,37,30,9,21,1.3,0.8
2026-01-03T0700,2209A,121.6672,42.07,阜新市,农业园区,细颗粒物(PM2.5),67,60,55,48,34,26,,,,25,21,24,22,0.8,0.6
2026-01-03T0700,2211A,121.6343,42.0455,阜新市,玉龙新城,细颗粒物(PM2.5),77,97,92,56,53,3,,,,39,40,6,13,1.6,1
2026-01-03T0700,2301A,115.8276,32.8929,阜阳市,市监测站,细颗粒物(PM2.5),92,83,93,68,75,53,,,,18,25,4,4,0.6,0.7
2026-01-03T0700,2303A,115.8551,32.8606,阜阳市,开发区,细颗粒物(PM2.5),99,87,88,74,73,29,,,,18,26,4,5,0.5,0.5
2026-01-03T0700,2875A,115.783962,32.889217,阜阳市,阜阳职业技术学院,细颗粒物(PM2.5),73,67,82,53,70,63,,,,12,20,5,5,0.6,0.6
2026-01-03T0700,3468A,115.79,32.8614,阜阳市,市规划展馆,细颗粒物(PM2.5),92,75,92,68,77,64,,,,13,20,5,6,0.4,0.5
2026-01-03T0700,3469A,115.835101,32.918568,阜阳市,枣园社区,细颗粒物(PM2.5),95,84,94,71,82,51,,,,19,29,4,5,0.5,0.5
2026-01-03T0700,2669A,102.9097,34.9841,甘南藏族自治州,州政府,细颗粒物(PM2.5),67,58,56,48,43,58,,,,9,14,3,3,0.7,0.7
2026-01-03T0700,3380A,102.8915,34.9618,甘南藏族自治州,甘肃民族师范学院,细颗粒物(PM2.5),73,56,65,53,41,67,,,,11,22,2,4,0.4,0.6
2026-01-03T0700,2570A,101.96,30.048,甘孜藏族自治州,水桥子,,9,,8,6,6,27,,,,18,12,6,6,0.5,0.6
2026-01-03T0700,3065A,101.9534,29.9976,甘孜藏族自治州,州环保局,,14,,12,9,6,42,,,,9,13,6,6,0.7,0.8
2026-01-03T0700,2363A,114.9368,25.8663,赣州市,地委,,36,36,34,17,14,50,,,,9,10,7,6,0.5,0.5
2026-01-03T0700,2364A,114.946,25.8483,赣州市,气象台,,42,42,39,9,11,50,,,,12,10,3,2,0.6,0.6
2026-01-03T0700,2365A,114.932,25.8332,赣州市,市图书馆,,35,26,21,24,16,53,,,,10,13,4,3,0.4,0.4
2026-01-03T0700,2366A,114.8905,25.8472,赣州市,华坚鞋城,,28,28,24,14,13,48,,,,11,10,5,3,0.2,0.2
2026-01-03T0700,3109A,115.0094,25.8614,赣州市,赣县区卫计委,,45,34,21,31,20,19,,,,14,7,7,7,0.3,0.3
2026-01-03T0700,2684A,106.2753,36.0057,固原市,监测站,细颗粒物(PM2.5),78,,45,57,51,59,,,,16,15,3,3,0.7,0.6
2026-01-03T0700,2685A,106.2384,36.0189,固原市,新区,细颗粒物(PM2.5),85,,44,63,58,62,,,,11,15,3,3,0.8,0.7
2026-01-03T0700,2544A,106.6307,30.4577,广安市,市委,,30,29,27,21,21,45,,,,16,18,6,5,0.7,0.8
2026-01-03T0700,2545A,106.6266,30.4662,广安市,友谊中学,,33,23,22,23,22,50,,,,3,6,6,7,0.5,0.5
2026-01-03T0700,2547A,106.6386,30.4551,广安市,广电花园,,30,23,23,21,23,39,,,,12,16,8,8,0.5,0.6
2026-01-03T0700,2902A,106.6347,30.4868,广安市,北辰小学,,32,25,22,22,23,51,,,,9,10,12,10,0.8,0.9
2026-01-03T0700,2524A,105.8211,32.4444,广元市,老城,,43,,32,30,31,38,,,,19,19,2,3,0.8,0.7
2026-01-03T0700,2526A,105.8629,32.429,广元市,监测站,,35,30,40,24,30,38,,,,16,21,3,3,0.9,0.8
2026-01-03T0700,3617A,105.8047,32.4167,广元市,经开区,,40,,33,28,40,30,,,,24,22,2,2,0.8,0.8
2026-01-03T0700,1345A,113.2346,23.1423,广州市,广雅中学,,38,38,26,22,14,46,,,,19,13,2,3,0.2,0.4
2026-01-03T0700,1346A,113.2611,23.105,广州市,市五中,,42,33,21,29,16,50,,,,25,21,8,8,/,/
2026-01-03T0700,1348A,113.3477,23.0916,广州市,广东商学院,,29,28,19,20,10,42,,,,21,15,5,5,0.3,0.3
2026-01-03T0700,1349A,113.4332,23.105,广州市,市八十六中,,35,27,18,24,14,45,,,,20,16,7,6,/,/
2026-01-03T0700,1350A,113.3506,22.9488,广州市,番禺中学,,34,34,21,20,11,44,,,,39,28,3,3,0.2,0.3
2026-01-03T0700,1351A,113.2147,23.3918,广州市,花都师范,,33,33,24,21,13,57,,,,11,15,9,6,0.4,0.4
2026-01-03T0700,1352A,113.2599,23.1329,广州市,市监测站,,42,42,25,28,15,39,,,,26,20,1,2,/,/
2026-01-03T0700,1353A,113.5618,23.3119,广州市,九龙镇镇龙,,27,27,16,18,10,43,,,,11,12,5,5,0.6,0.6
2026-01-03T0700,1354A,113.2764,23.1544,广州市,麓湖,,40,38,22,28,14,35,,,,25,16,8,8,0.3,0.3
2026-01-03T0700,2846A,113.3209,23.1323,广州市,体育西,,38,32,21,26,15,41,,,,21,15,5,5,0.4,0.5
2026-01-03T0700,3298A,113.5718,23.5493,广州市,从化街口,,29,25,15,20,11,49,,,,12,10,7,7,0.5,0.5
2026-01-03T0700,3299A,113.3463,23.369,广州市,白云竹料,,30,28,17,21,11,50,,,,14,11,4,5,0.3,0.3
2026-01-03T0700,3300A,113.2981,23.2365,广州市,白云嘉禾,,35,34,24,24,13,46,,,,21,18,3,5,/,/
2026-01-03T0700,3301A,113.4256,23.1716,广州市,黄埔科学城,,39,37,19,27,12,41,,,,18,11,5,6,0.5,0.6
2026-01-03T0700,3302A,113.3942,23.0485,广州市,番禺大学城,,26,21,21,18,10,49,,,,17,13,6,6,0.4,0.4
2026-01-03T0700,3303A,113.4923,22.8169,广州市,南沙黄阁,,26,26,27,17,11,45,,,,28,25,16,9,/,/
2026-01-03T0700,3304A,113.534,22.7893,广州市,南沙街,,26,26,27,17,11,45,,,,24,22,7,7,0.5,0.5
2026-01-03T0700,3443A,113.2905,23.5541,广州市,花都梯面,,32,28,18,22,13,52,,,,11,9,13,7,/,/
2026-01-03T0700,3445A,113.786,23.7479,广州市,从化良口,,20,19,13,14,10,41,,,,7,7,7,7,/,/
2026-01-03T0700,3446A,113.805,23.2614,广州市,增城荔城,,23,23,14,16,8,53,,,,10,9,6,6,0.4,0.4
2026-01-03T0700,2506A,109.604387,23.066791,贵港市,江南子站,,36,36,30,23,22,34,,,,16,15,9,5,0.6,0.7
2026-01-03T0700,2508A,109.5669,23.1065,贵港市,荷城子站,,39,39,29,24,20,30,,,,18,12,7,3,0.7,0.6
2026-01-03T0700,3405A,109.5886,23.1172,贵港市,新世纪学校,,45,41,35,31,25,28,,,,22,16,/,/,0.5,0.5
2026-01-03T0700,4260A,109.5933,23.095,贵港市,中山路155-3号,,49,,29,34,26,33,,,,19,15,/,/,0.8,0.7
2026-01-03T0700,1439A,106.6863,26.6035,贵阳市,马鞍山,,14,14,19,9,17,36,,,,8,9,3,4,/,/
2026-01-03T0700,1441A,106.6241,26.6266,贵阳市,鉴湖路,,17,17,26,9,15,43,,,,11,14,1,1,0.5,0.5
2026-01-03T0700,1442A,106.7468,26.6344,贵阳市,燕子冲,,28,,21,19,23,46,,,,7,8,6,6,0.7,0.7
2026-01-03T0700,1443A,106.6556,26.4362,贵阳市,碧云窝,,22,22,31,9,17,32,,,,12,14,2,2,/,/
2026-01-03T0700,1445A,106.6963,26.6063,贵阳市,红边门,,13,12,23,9,18,37,,,,8,10,5,5,/,/
2026-01-03T0700,1446A,106.7162383,26.56964667,贵阳市,新华路,,19,19,29,7,16,36,,,,10,11,3,4,0.3,0.4
2026-01-03T0700,1447A,106.6742,26.542,贵阳市,太慈桥,,13,9,21,7,16,40,,,,13,14,3,4,/,/
2026-01-03T0700,4230A,106.688212,26.56952,贵阳市,花果园大街66号,,12,,14,8,18,33,,,,11,12,3,2,/,/
2026-01-03T0700,4231A,106.687268,26.516892,贵阳市,漓江路57号,,14,14,22,3,16,32,,,,13,13,4,5,0.6,0.6
2026-01-03T0700,1864A,110.3091,25.2705,桂林市,龙隐路小学,细颗粒物(PM2.5),63,,21,45,28,43,,,,7,7,6,6,0.2,0.2
2026-01-03T0700,1865A,110.2849361,25.22909545,桂林市,八中,细颗粒物(PM2.5),53,,22,37,25,40,,,,13,12,6,6,0.6,0.6
2026-01-03T0700,3531A,110.296,25.1254,桂林市,旅游学院,,28,27,17,19,15,47,,,,8,7,3,3,0.5,0.5
2026-01-03T0700,4222A,110.1835,25.2444,桂林市,环湖路276号,,49,,26,34,26,44,,,,11,9,5,6,0.5,0.4
2026-01-03T0700,4301A,110.2803,25.2773,桂林市,信义路13号,细颗粒物(PM2.5),53,,25,37,22,46,,,,12,11,4,4,0.5,0.5
2026-01-03T0700,2674A,100.2262,34.4854,果洛藏族自治州,玛沁县大武镇,,39,39,42,3,10,47,,,,3,7,16,14,0.5,0.5
2026-01-03T0700,1130A,126.5557,45.8109,哈尔滨市,松北商大,细颗粒物(PM2.5),89,85,66,66,52,14,,,,39,33,7,9,1.0,0.8
2026-01-03T0700,1132A,126.6162,45.719,哈尔滨市,南岗学府路,细颗粒物(PM2.5),99,106,80,74,60,5,,,,41,31,8,10,1.2,1
2026-01-03T0700,1133A,126.6894,45.7733,哈尔滨市,太平宏伟公园,细颗粒物(PM2.5),90,89,79,67,58,12,,,,41,38,14,16,1.0,0.8
2026-01-03T0700,1134A,126.6361,45.7672,哈尔滨市,道外承德广场,细颗粒物(PM2.5),94,110,92,70,60,7,,,,52,44,11,17,0.7,0.5
2026-01-03T0700,1136A,126.644,45.7261,哈尔滨市,动力和平路,细颗粒物(PM2.5),92,98,79,68,63,6,,,,45,35,10,12,1.1,0.9
2026-01-03T0700,1137A,126.5933,45.7479,哈尔滨市,道里建国路,细颗粒物(PM2.5),102,82,79,76,67,9,,,,42,36,13,16,0.7,0.6
2026-01-03T0700,1138A,126.6127,45.6119,哈尔滨市,平房东轻厂,细颗粒物(PM2.5),78,81,71,57,57,10,,,,38,30,4,6,0.8,0.7
2026-01-03T0700,1139A,126.5875,45.9827,哈尔滨市,呼兰师专,细颗粒物(PM2.5),120,100,69,91,67,8,,,,43,37,8,13,1.1,0.9
2026-01-03T0700,1140A,126.6299,45.6799,哈尔滨市,省农科院,细颗粒物(PM2.5),99,98,82,74,66,7,,,,52,40,12,12,1.3,1
2026-01-03T0700,4282A,126.6769,45.7379,哈尔滨市,华山路1号,细颗粒物(PM2.5),89,100,83,66,62,12,,,,47,42,25,25,1.1,0.9
2026-01-03T0700,4283A,126.9717,45.5356,哈尔滨市,解放大街52号,颗粒物(PM10),57,64,79,36,67,29,,,,24,24,14,13,0.7,0.9
2026-01-03T0700,2688A,93.5124,42.8176,哈密市,地区监测站,,38,38,56,26,43,61,,,,8,18,3,6,0.0,0.3
2026-01-03T0700,2689A,93.5014,42.8312,哈密市,哈密师范学校,,35,32,67,24,35,54,,,,17,32,6,6,0.2,0.7
2026-01-03T0700,2671A,100.9016,36.9464,海北藏族自治州,海晏县西海镇,细颗粒物(PM2.5),97,,55,72,48,57,,,,20,17,15,11,1.2,0.9
2026-01-03T0700,3867A,102.074,36.5056,海东市,平安区公安局北苑,细颗粒物(PM2.5),95,,72,71,62,25,,,,20,19,13,15,1.0,1
2026-01-03T0700,4163A,102.0984,36.5119,海东市,滨河路,细颗粒物(PM2.5),97,80,72,72,67,20,,,,45,37,10,18,1.1,1
2026-01-03T0700,1410A,110.3189,20.0596,海口市,海南大学,,32,32,31,14,17,67,,,,10,9,7,6,0.3,0.4
2026-01-03T0700,1411A,110.2827,20.0051,海口市,秀英海南医院,,34,34,36,14,17,64,,,,11,11,9,8,0.4,0.4
2026-01-03T0700,1412A,110.3391,19.9979,海口市,海南师范大学,,33,33,35,16,18,68,,,,12,11,6,6,0.5,0.5
2026-01-03T0700,1413A,110.3303,20.0359,海口市,龙华路环保局宿舍,,35,35,37,16,18,69,,,,12,12,/,/,0.6,0.6
2026-01-03T0700,3539A,110.5111,19.9737,海口市,桂林洋子站,,33,33,29,17,18,62,,,,13,11,/,/,/,/
2026-01-03T0700,4134A,110.1952,20.0451,海口市,长滨二路9号,,30,30,28,17,19,67,,,,9,8,/,/,/,/
2026-01-03T0700,2673A,100.6158,36.2985,海南藏族自治州,共和县恰卜恰镇,细颗粒物(PM2.5),57,42,59,40,48,31,,,,18,21,9,11,0.7,0.7
2026-01-03T0700,2676A,97.373,37.376,海西蒙古族藏族自治州,德令哈市,,18,,22,10,9,56,,,,7,10,12,12,0.5,0.6
2026-01-03T0700,1049A,114.492,36.5712,邯郸市,矿院,细颗粒物(PM2.5),185,,98,139,102,4,,,,43,34,1,4,0.9,0.9
2026-01-03T0700,1050A,114.4839,36.6136,邯郸市,丛台公园,细颗粒物(PM2.5),160,134,105,122,94,10,,,,40,31,2,5,0.9,0.9
2026-01-03T0700,3458A,114.7893,36.5592,邯郸市,香泉濮院小区,细颗粒物(PM2.5),182,,102,137,94,27,,,,29,26,3,5,0.9,0.8
2026-01-03T0700,3580A,114.1998,36.4439,邯郸市,峰峰矿区临水派出所,细颗粒物(PM2.5),175,,77,132,102,16,,,,42,26,11,11,1.7,1.2
2026-01-03T0700,4068A,114.5209,36.7697,邯郸市,建安街268号,细颗粒物(PM2.5),176,142,108,133,98,4,,,,46,43,7,9,1.5,1.1
2026-01-03T0700,4069A,114.5488,36.6177,邯郸市,丛台东路558号,细颗粒物(PM2.5),159,159,135,121,93,11,,,,41,43,4,7,0.7,0.6
2026-01-03T0700,2635A,107.0155,33.0707,汉中市,市监测站,细颗粒物(PM2.5),60,,37,43,43,43,,,,14,16,4,4,0.5,0.6
2026-01-03T0700,2636A,107.0083,33.114,汉中市,鑫源开发区,细颗粒物(PM2.5),72,,37,52,48,36,,,,18,16,4,4,0.4,0.5
2026-01-03T0700,2637A,107.0072,33.0323,汉中市,南郑大河坎水厂,细颗粒物(PM2.5),65,,52,47,50,43,,,,13,17,4,5,0.7,0.8
2026-01-03T0700,1223A,120.2073,30.2111,杭州市,滨江,细颗粒物(PM2.5),117,101,91,88,72,4,,,,43,29,6,7,0.6,0.5
2026-01-03T0700,1224A,120.0625,30.2737,杭州市,西溪,细颗粒物(PM2.5),90,80,77,67,64,8,,,,38,32,8,9,0.8,0.8
2026-01-03T0700,1226A,120.3417,30.315,杭州市,下沙,细颗粒物(PM2.5),100,97,76,75,61,2,,,,49,32,8,9,1.5,1.2
2026-01-03T0700,1227A,120.1252,30.2465,杭州市,卧龙桥,细颗粒物(PM2.5),88,78,80,65,64,17,,,,12,14,9,10,0.8,0.8
2026-01-03T0700,1228A,120.1902,30.2691,杭州市,浙江农大,细颗粒物(PM2.5),117,110,92,88,72,15,,,,35,36,3,4,0.6,0.5
2026-01-03T0700,1230A,120.1195,30.3121,杭州市,和睦小学,细颗粒物(PM2.5),105,104,92,79,67,2,,,,38,24,5,6,0.8,0.7
2026-01-03T0700,1231A,120.3076,30.4146,杭州市,临平镇,细颗粒物(PM2.5),104,96,81,78,61,7,,,,41,21,7,8,0.6,0.6
2026-01-03T0700,1232A,120.2753,30.1839,杭州市,城厢镇,细颗粒物(PM2.5),90,85,74,67,59,5,,,,42,27,7,9,0.5,0.5
2026-01-03T0700,1233A,120.0883,30.1808,杭州市,云栖,细颗粒物(PM2.5),95,82,75,71,64,17,,,,15,15,2,3,0.8,0.7
2026-01-03T0700,3557A,119.9463,30.0496,杭州市,镇二中,细颗粒物(PM2.5),100,,67,75,65,8,,,,35,26,5,5,0.7,0.6
2026-01-03T0700,3558A,119.7184,30.2367,杭州市,市府大楼,细颗粒物(PM2.5),93,90,82,69,61,12,,,,20,15,9,9,0.8,0.7
2026-01-03T0700,3656A,120.1554,30.2863,杭州市,消防大队,细颗粒物(PM2.5),112,96,79,84,72,12,,,,32,23,6,7,0.3,0.3
2026-01-03T0700,1270A,117.1957,31.7845,合肥市,明珠广场,细颗粒物(PM2.5),92,85,80,68,61,16,,,,42,35,5,6,0.8,0.8
2026-01-03T0700,1271A,117.307,31.8765,合肥市,三里街,细颗粒物(PM2.5),85,83,76,63,60,3,,,,59,37,6,6,0.8,0.8
2026-01-03T0700,1272A,117.2587,31.8703,合肥市,琥珀山庄,细颗粒物(PM2.5),109,90,81,82,64,21,,,,40,36,8,8,0.9,0.9
2026-01-03T0700,1275A,117.2593,31.9376,合肥市,庐阳区,细颗粒物(PM2.5),85,90,82,63,59,3,,,,63,40,2,2,1.0,0.8
2026-01-03T0700,1276A,117.345251,31.861615,合肥市,瑶海区,细颗粒物(PM2.5),83,90,80,61,61,11,,,,54,42,5,4,1.0,0.9
2026-01-03T0700,1277A,117.3033,31.7967,合肥市,包河区,细颗粒物(PM2.5),100,95,83,75,68,2,,,,92,49,12,6,1.0,0.8
2026-01-03T0700,1278A,117.278,31.7392,合肥市,滨湖新区,细颗粒物(PM2.5),104,90,77,78,69,27,,,,41,37,4,3,0.8,0.8
2026-01-03T0700,1279A,117.1324,31.8395,合肥市,高新区,细颗粒物(PM2.5),87,80,75,64,59,33,,,,29,32,3,4,0.6,0.7
2026-01-03T0700,3464A,117.3802,31.9148,合肥市,高教基地,细颗粒物(PM2.5),80,75,82,59,62,3,,,,51,30,6,6,0.8,0.7
2026-01-03T0700,4098A,117.2518,31.8404,合肥市,中国科学技术大学,细颗粒物(PM2.5),104,90,74,78,55,31,,,,34,30,5,5,0.6,0.6
2026-01-03T0700,3614A,79.9241,37.0878,和田地区,地区环保局,,48,48,76,33,52,28,,,,17,24,2,3,0.5,0.7
2026-01-03T0700,3615A,79.9132,37.1137,和田地区,市环保局,细颗粒物(PM2.5),68,49,62,49,41,28,,,,34,29,1,2,0.9,0.8
2026-01-03T0700,2517A,108.0496,24.6957,河池市,市环保站,,25,,11,17,12,44,,,,7,7,2,2,0.6,0.6
2026-01-03T0700,4302A,108.0901,24.6945,河池市,上任中路54号,,35,,17,24,19,38,,,,8,10,4,4,0.6,0.6
2026-01-03T0700,1697A,114.6962,23.7538,河源市,东埔,,33,26,16,23,14,42,,,,13,9,8,6,0.6,0.6
2026-01-03T0700,1698A,114.6895,23.7232,河源市,老城,,24,24,20,15,11,45,,,,9,7,8,6,0.6,0.6
2026-01-03T0700,3374A,115.5562,35.089,菏泽市,定陶老年大学,细颗粒物(PM2.5),107,95,74,80,56,32,,,,21,23,1,5,0.6,0.6
2026-01-03T0700,4114A,115.4239,35.2593,菏泽市,黄河路600号,细颗粒物(PM2.5),135,,79,103,66,33,,,,23,28,1,5,1.0,0.8
2026-01-03T0700,4115A,115.5025,35.2727,菏泽市,菏泽市人社局,细颗粒物(PM2.5),123,96,77,93,59,38,,,,19,24,1,5,0.6,0.6
2026-01-03T0700,4184A,115.479691,35.244011,菏泽市,永昌路1号,细颗粒物(PM2.5),127,97,81,96,65,35,,,,20,27,1,7,0.5,0.5
2026-01-03T0700,4193A,115.471542,35.280012,菏泽市,长城路999号,细颗粒物(PM2.5),108,96,80,81,56,41,,,,18,24,3,7,0.9,0.9
2026-01-03T0700,2514A,111.5264,24.4178,贺州市,环保小区,,43,32,27,30,24,17,,,,14,12,7,5,0.6,0.5
2026-01-03T0700,2515A,111.561,24.4074,贺州市,政协大楼,,45,32,32,31,25,9,,,,13,13,8,8,0.6,0.5
2026-01-03T0700,3534A,111.4744,24.455,贺州市,西湾,,43,31,31,30,24,26,,,,11,11,7,6,0.7,0.6
2026-01-03T0700,2385A,114.17,35.9019,鹤壁市,市监测站,细颗粒物(PM2.5),133,140,114,101,96,2,,,,22,21,5,4,1.1,1
2026-01-03T0700,2386A,114.2953,35.7512,鹤壁市,市交警支队,细颗粒物(PM2.5),175,153,117,132,94,6,,,,42,32,2,5,1.0,0.9
2026-01-03T0700,2387A,114.2877,35.7302,鹤壁市,迎宾馆,细颗粒物(PM2.5),159,140,117,121,99,5,,,,40,28,5,5,1.2,1
2026-01-03T0700,3474A,114.2616,35.6824,鹤壁市,大新区,细颗粒物(PM2.5),113,126,110,85,97,3,,,,44,34,5,5,1.2,1
2026-01-03T0700,3596A,114.1573,35.9607,鹤壁市,南山宾馆,细颗粒物(PM2.5),130,118,112,99,93,26,,,,16,19,5,7,0.8,0.8
2026-01-03T0700,2244A,130.2537,47.3416,鹤岗市,哈啤分公司,细颗粒物(PM2.5),52,,23,36,21,58,,,,11,7,7,7,0.4,0.3
2026-01-03T0700,2245A,130.2683,47.3087,鹤岗市,斯达机电,,40,,26,28,20,66,,,,9,8,6,6,0.4,0.4
2026-01-03T0700,2246A,130.3114,47.3388,鹤岗市,东山纸板厂,,45,,31,31,19,62,,,,12,18,8,8,1.0,0.6
2026-01-03T0700,2263A,127.4832,50.2524,黑河市,交通局,,21,,26,14,21,67,,,,2,24,4,8,0.3,0.4
2026-01-03T0700,2264A,127.5146,50.2339,黑河市,环保局,,20,17,43,13,23,63,,,,7,28,5,15,0.3,0.7
2026-01-03T0700,1074A,115.6839,37.754,衡水市,电机北厂,细颗粒物(PM2.5),129,112,79,98,55,19,,,,29,31,4,8,0.7,0.6
2026-01-03T0700,1075A,115.6303,37.7318,衡水市,市监测站,细颗粒物(PM2.5),120,105,76,91,51,13,,,,34,36,6,8,0.8,0.7
2026-01-03T0700,3188A,115.6684,37.7216,衡水市,市城管局,细颗粒物(PM2.5),130,99,75,99,53,20,,,,30,35,6,9,0.8,0.7
2026-01-03T0700,3459A,115.599,37.5491,衡水市,地表水厂,细颗粒物(PM2.5),119,93,68,90,55,3,,,,40,39,6,8,0.8,0.7
2026-01-03T0700,2457A,112.6209,26.9268,衡阳市,衡阳化工总厂,细颗粒物(PM2.5),74,,43,54,43,43,,,,12,15,6,5,1.0,0.9
2026-01-03T0700,2458A,112.621,26.8957,衡阳市,珠晖区环保局,细颗粒物(PM2.5),69,,40,50,43,36,,,,16,18,4,4,0.9,0.9
2026-01-03T0700,2459A,112.628,26.8654,衡阳市,市委党校,细颗粒物(PM2.5),73,,40,53,45,37,,,,17,16,10,8,0.9,0.9
2026-01-03T0700,2460A,112.6007,26.8977,衡阳市,市监测站,细颗粒物(PM2.5),75,70,63,55,50,41,,,,11,12,6,6,0.8,0.8
2026-01-03T0700,2461A,112.5658,26.9013,衡阳市,真空机电公司,细颗粒物(PM2.5),78,70,54,57,44,40,,,,16,15,7,6,0.9,0.8
2026-01-03T0700,3399A,112.6703,26.8817,衡阳市,师范学院,细颗粒物(PM2.5),73,62,51,53,42,39,,,,16,16,6,3,1.3,1.2
2026-01-03T0700,3038A,103.3757,23.3679,红河哈尼族彝族自治州,州图书馆,,,4,16,,12,40,,,,5,7,6,7,0.6,0.6
2026-01-03T0700,4154A,103.401,23.3561,红河哈尼族彝族自治州,蒙自市朝阳路,,14,9,16,3,14,42,,,,3,5,8,9,0.5,0.5
2026-01-03T0700,1090A,111.6506,40.7517,呼和浩特市,呼市一监,细颗粒物(PM2.5),62,51,86,44,61,6,,,,53,47,4,10,1.4,1.2
2026-01-03T0700,1094A,111.7516,40.8369,呼和浩特市,如意水处理厂,,50,50,75,32,48,2,,,,58,54,22,17,0.8,1
2026-01-03T0700,1095A,111.727798,40.806187,呼和浩特市,二十九中,,42,40,68,29,41,6,,,,50,48,11,18,0.9,0.9
2026-01-03T0700,1097A,111.717,40.7617,呼和浩特市,化肥厂生活区,颗粒物(PM10),52,53,77,32,46,5,,,,50,50,8,14,1.3,1.1
2026-01-03T0700,3699A,111.6519,40.8389,呼和浩特市,海东办,颗粒物(PM10),52,53,80,35,49,4,,,,52,51,5,11,0.9,0.9
2026-01-03T0700,4275A,111.591512,40.827312,呼和浩特市,成吉思汗西街8号,,32,22,68,22,42,2,,,,47,49,6,11,0.8,0.9
2026-01-03T0700,4276A,111.6597,40.8077,呼和浩特市,公园东路75号,,36,36,73,25,44,6,,,,61,54,6,12,0.7,0.8
2026-01-03T0700,4277A,111.5427,40.7846,呼和浩特市,金海路35号,,26,26,75,14,46,7,,,,50,50,8,14,0.5,0.8
2026-01-03T0700,3061A,119.7511,49.1576,呼伦贝尔市,国华电力东,,29,21,22,20,17,37,,,,24,20,5,5,0.3,0.3
2026-01-03T0700,4279A,119.7569,49.2222,呼伦贝尔市,伊敏大街东7号,,36,,24,25,21,3,,,,47,22,8,6,0.5,0.4
2026-01-03T0700,1250A,120.075,30.867,湖州市,城西水厂,细颗粒物(PM2.5),105,97,81,79,58,9,,,,37,37,9,10,0.8,0.6
2026-01-03T0700,2873A,120.083,30.8929,湖州市,仁皇山新区,细颗粒物(PM2.5),114,102,67,86,53,8,,,,56,37,10,10,0.6,0.5
2026-01-03T0700,2907A,120.1846,30.8592,湖州市,吴兴区站,细颗粒物(PM2.5),105,94,64,79,50,3,,,,45,31,5,7,0.7,0.6
2026-01-03T0700,3562A,120.4146,30.8538,湖州市,南浔区站,细颗粒物(PM2.5),104,120,56,78,35,0,,,,52,27,6,7,0.8,0.6
2026-01-03T0700,1607A,120.904878,40.721091,葫芦岛市,龙港区,细颗粒物(PM2.5),124,,84,94,68,8,,,,47,40,43,31,2.2,1.8
2026-01-03T0700,1608A,120.8382,40.7521,葫芦岛市,化工街,细颗粒物(PM2.5),73,90,86,53,56,7,,,,46,41,54,59,1.0,1.1
2026-01-03T0700,1609A,120.8339,40.7078,葫芦岛市,新区,细颗粒物(PM2.5),64,74,59,46,47,3,,,,53,46,23,19,1.5,1.1
2026-01-03T0700,1610A,120.8697,40.7679,葫芦岛市,东城区,细颗粒物(PM2.5),72,57,80,52,62,4,,,,44,43,22,33,1.4,1.3
2026-01-03T0700,2483A,109.9297,27.5383,怀化市,河西地税局,细颗粒物(PM2.5),63,49,51,45,48,46,,,,10,11,3,5,/,/
2026-01-03T0700,2484A,109.9783,27.5342,怀化市,市四医院,细颗粒物(PM2.5),60,,54,43,46,34,,,,8,10,10,9,0.6,0.5
2026-01-03T0700,2485A,109.9971,27.5579,怀化市,监测楼,,,,42,,37,,,60,,,12,,4,,0.2
2026-01-03T0700,1210A,119.0566,33.5991,淮安市,钵池山,细颗粒物(PM2.5),55,56,39,39,29,16,,,,45,19,11,8,1.2,0.3
2026-01-03T0700,1211A,119.0083,33.578,淮安市,北京南路,细颗粒物(PM2.5),53,53,53,37,30,9,,,,44,32,8,8,1.0,0.8
2026-01-03T0700,1212A,118.9938,33.6083,淮安市,市监测站,细颗粒物(PM2.5),55,41,34,39,27,31,,,,29,27,9,10,0.6,0.4
2026-01-03T0700,1213A,119.135,33.5038,淮安市,楚州区监测站,细颗粒物(PM2.5),53,49,42,37,30,0,,,,47,34,8,10,0.6,0.5
2026-01-03T0700,3426A,118.8757,33.2897,淮安市,新华书店,细颗粒物(PM2.5),54,49,40,38,28,16,,,,37,22,9,9,0.6,0.6
2026-01-03T0700,4092A,119.119691,33.550006,淮安市,枚皋中路89号,细颗粒物(PM2.5),84,82,46,62,36,6,,,,43,31,7,8,0.7,0.7
2026-01-03T0700,4206A,119.028838,33.631911,淮安市,承德北路606号,颗粒物(PM10),54,58,44,37,30,32,,,,29,22,9,8,0.8,0.7
2026-01-03T0700,2282A,116.8005,33.9749,淮北市,监测站,细颗粒物(PM2.5),122,117,92,92,62,43,,,,33,32,8,10,0.6,0.6
2026-01-03T0700,2283A,116.8094,33.9008,淮北市,烈山区政府,细颗粒物(PM2.5),137,122,84,104,65,25,,,,45,39,9,10,0.6,0.5
2026-01-03T0700,4017A,116.7926,33.9534,淮北市,市博物馆,细颗粒物(PM2.5),110,118,87,83,39,35,,,,35,30,9,12,0.6,0.5
2026-01-03T0700,4100A,116.8322,33.9884,淮北市,杜集区第一实验学校,细颗粒物(PM2.5),134,120,85,102,64,26,,,,28,20,7,9,0.7,0.6
2026-01-03T0700,2277A,116.8304,32.7726,淮南市,潘集区政府,细颗粒物(PM2.5),105,88,66,79,53,19,,,,33,29,5,6,0.6,0.6
2026-01-03T0700,2279A,116.8569,32.5949,淮南市,谢家集区政府,细颗粒物(PM2.5),89,84,68,66,43,23,,,,33,32,6,9,0.4,0.4
2026-01-03T0700,2280A,116.8279,32.6333,淮南市,八公山区政府,细颗粒物(PM2.5),88,76,55,65,41,40,,,,20,21,3,5,0.5,0.5
2026-01-03T0700,2894A,117.0561,32.6536,淮南市,经济技术开发区消防队,细颗粒物(PM2.5),105,90,66,79,45,14,,,,38,31,4,6,0.5,0.5
2026-01-03T0700,3329A,117.011,32.5891,淮南市,山南新区,细颗粒物(PM2.5),139,110,68,106,44,27,,,,26,25,1,3,0.5,0.5
2026-01-03T0700,4209A,117.003137,32.644456,淮南市,国庆中路369号,细颗粒物(PM2.5),138,,59,105,42,20,,,,29,29,4,5,0.6,0.6
2026-01-03T0700,2446A,114.9021,30.474,黄冈市,职工中心,,49,47,40,34,29,24,,,,15,16,5,5,0.7,0.6
2026-01-03T0700,2929A,114.8858,30.4519,黄冈市,红卫路,细颗粒物(PM2.5),54,47,42,38,32,23,,,,17,20,5,6,0.5,0.6
2026-01-03T0700,3398A,114.9134,30.4446,黄冈市,市林业局,细颗粒物(PM2.5),54,49,40,38,33,25,,,,18,18,4,5,0.6,0.7
2026-01-03T0700,2672A,102.02,35.5101,黄南藏族自治州,同仁县隆务镇,细颗粒物(PM2.5),62,50,57,44,45,45,,,,3,6,10,10,0.5,0.5
2026-01-03T0700,2295A,118.2905,29.6965,黄山市,延安路89号,,35,27,28,24,25,16,,,,8,9,3,3,0.4,0.4
2026-01-03T0700,2297A,118.1369,30.2755,黄山市,黄山区政府5号楼,细颗粒物(PM2.5),52,46,42,36,34,36,,,,11,10,5,6,0.6,0.5
2026-01-03T0700,4210A,118.335445,29.720283,黄山市,滨江东路7-2号,,50,50,42,31,35,15,,,,12,11,/,/,/,/
2026-01-03T0700,2423A,115.0547,30.2332,黄石市,沈家营,颗粒物(PM10),53,56,42,36,29,40,,,,13,14,4,5,1.2,1
2026-01-03T0700,2426A,114.899,30.211,黄石市,铁山,细颗粒物(PM2.5),70,55,43,51,34,19,,,,34,16,5,5,0.7,0.8
2026-01-03T0700,2427A,115.0259,30.2108,黄石市,团城山,颗粒物(PM10),55,60,46,38,32,58,,,,12,16,7,6,0.7,0.6
2026-01-03T0700,3149A,115.0174,30.1591,黄石市,笔架山北路,颗粒物(PM10),61,72,55,43,32,38,,,,14,14,7,7,0.9,0.9
2026-01-03T0700,4185A,115.078022,30.21118,黄石市,磁湖东路29号,细颗粒物(PM2.5),65,63,45,47,36,44,,,,18,17,18,6,1.0,0.7
2026-01-03T0700,1392A,114.4181,23.0528,惠州市,河南岸金山湖子站,,27,27,20,15,9,46,,,,16,13,5,4,0.5,0.5
2026-01-03T0700,1393A,114.4055,23.0824,惠州市,下埔横江三路子站,,28,26,18,19,11,47,,,,10,8,8,6,0.5,0.5
2026-01-03T0700,1395A,114.4645,22.7832,惠州市,惠阳区承修路船湖子站,,28,28,24,17,12,46,,,,13,11,6,7,0.5,0.5
2026-01-03T0700,1396A,114.5316,22.7423,惠州市,大亚湾管委会子站,,22,22,18,11,8,48,,,,7,6,5,5,0.2,0.3
2026-01-03T0700,3314A,114.4334,22.8134,惠州市,惠阳秋长,,26,22,24,18,11,54,,,,10,9,/,/,/,/
2026-01-03T0700,3452A,114.6521,22.7755,惠州市,大亚湾霞涌,,20,18,24,14,10,51,,,,9,10,/,/,/,/
2026-01-03T0700,4300A,114.4089,23.1147,惠州市,文华一路1号,,29,27,20,20,12,51,,,,10,9,/,/,/,/
2026-01-03T0700,2240A,130.9618,45.2926,鸡西市,环保局,,33,26,23,23,17,42,,,,10,7,7,6,0.4,0.3
2026-01-03T0700,2243A,130.9294,45.2959,鸡西市,第一中学,,46,42,21,32,16,45,,,,12,7,3,3,0.4,0.4
2026-01-03T0700,3707A,131.0069,45.2988,鸡西市,欧美日汽修厂,,49,41,24,34,19,35,,,,22,11,8,7,0.6,0.4
2026-01-03T0700,2367A,114.9753,27.0803,吉安市,红声器材厂,,48,48,34,29,19,29,,,,19,17,10,10,0.5,0.4
2026-01-03T0700,2369A,114.9903,27.1313,吉安市,市环境监测站,,48,44,32,33,22,57,,,,9,11,22,15,/,/
2026-01-03T0700,2370A,115.009527,27.096792,吉安市,青原区法院,,42,42,34,29,21,62,,,,12,15,15,11,0.5,0.5
2026-01-03T0700,1772A,126.54,43.8622,吉林市,哈达湾,,46,39,41,32,31,32,,,,29,19,10,9,1.4,1.4
2026-01-03T0700,1773A,126.5843,43.8358,吉林市,东局子,,42,38,40,29,30,34,,,,21,18,4,5,1.0,1
2026-01-03T0700,1774A,126.5051,43.8243,吉林市,电力学院,细颗粒物(PM2.5),80,71,63,59,50,20,,,,34,26,12,11,1.1,1.1
2026-01-03T0700,1775A,126.6133,43.8971,吉林市,江北,细颗粒物(PM2.5),87,78,47,64,34,32,,,,22,18,5,7,1.2,0.9
2026-01-03T0700,1776A,126.5549,43.8304,吉林市,江南公园,,46,35,42,32,36,34,,,,21,20,10,8,0.9,1
2026-01-03T0700,2868A,126.4737,43.953,吉林市,九站,细颗粒物(PM2.5),64,58,43,46,32,11,,,,48,24,7,6,1.1,0.9
2026-01-03T0700,1299A,116.9866,36.6118,济南市,科干所,细颗粒物(PM2.5),98,97,51,73,28,70,,,,16,22,7,10,1.0,0.8
2026-01-03T0700,1300A,116.9379,36.6652,济南市,农科所,细颗粒物(PM2.5),108,95,56,81,31,56,,,,23,25,7,7,0.9,0.8
2026-01-03T0700,1301A,117.1265,36.6736,济南市,开发区,细颗粒物(PM2.5),108,90,44,81,31,64,,,,11,15,4,5,0.9,0.7
2026-01-03T0700,1303A,117.0616,36.6865,济南市,省种子仓库,细颗粒物(PM2.5),110,100,51,83,28,65,,,,20,23,6,7,0.8,0.6
2026-01-03T0700,1304A,116.9495185,36.644937,济南市,机床二厂,细颗粒物(PM2.5),110,95,61,83,36,62,,,,21,28,11,14,1.0,0.8
2026-01-03T0700,1305A,117.0496,36.6629,济南市,市监测站,细颗粒物(PM2.5),108,93,46,81,28,62,,,,12,16,4,6,0.8,0.7
2026-01-03T0700,1306A,116.7674,36.5458,济南市,长清党校,细颗粒物(PM2.5),102,95,54,76,35,52,,,,18,23,8,9,0.8,0.7
2026-01-03T0700,1961A,117.5323,36.6865,济南市,东山小学,细颗粒物(PM2.5),70,66,42,51,24,42,,,,30,19,4,5,0.9,0.8
2026-01-03T0700,3059A,117.7181,36.205,济南市,泰兴公司,细颗粒物(PM2.5),85,88,72,63,53,6,,,,52,42,11,8,1.2,1.1
2026-01-03T0700,3064A,117.6861,36.2172,济南市,莱芜战役纪念馆,细颗粒物(PM2.5),84,83,65,62,48,4,,,,55,33,8,10,0.9,0.8
2026-01-03T0700,3494A,117.1673,36.9782,济南市,济阳区政府,细颗粒物(PM2.5),104,103,61,78,32,54,,,,25,31,8,8,0.7,0.5
2026-01-03T0700,3495A,117.1168,36.6299,济南市,锦屏中学,细颗粒物(PM2.5),95,88,39,71,24,71,,,,15,16,3,3,0.8,0.5
2026-01-03T0700,4108A,117.7107,36.2385,济南市,山财大街5号,细颗粒物(PM2.5),79,95,69,58,38,20,,,,42,27,11,8,1.0,0.7
2026-01-03T0700,4109A,116.9744,36.6889,济南市,无影山路12号,细颗粒物(PM2.5),122,100,66,92,38,58,,,,19,25,8,10,0.8,0.6
2026-01-03T0700,1653A,116.6229,35.4288,济宁市,火炬城,细颗粒物(PM2.5),125,,62,95,54,45,,,,18,23,4,7,0.5,0.4
2026-01-03T0700,3500A,116.5808,35.3703,济宁市,北湖一中,细颗粒物(PM2.5),123,104,62,93,58,48,,,,19,28,3,8,0.6,0.6
2026-01-03T0700,3501A,116.8251,35.5592,济宁市,服务中心,细颗粒物(PM2.5),109,108,73,82,46,36,,,,28,40,10,13,0.6,0.5
2026-01-03T0700,3678A,116.5907,35.4054,济宁市,市第七中学,细颗粒物(PM2.5),110,108,66,83,48,48,,,,17,23,4,8,0.6,0.6
2026-01-03T0700,4111A,116.6075,35.4566,济宁市,任和路,细颗粒物(PM2.5),127,115,77,96,53,47,,,,18,26,4,8,0.6,0.5
2026-01-03T0700,4112A,116.5648,35.3921,济宁市,文体南路1号,细颗粒物(PM2.5),135,111,75,103,58,47,,,,16,25,2,8,0.7,0.5
2026-01-03T0700,2255A,130.2749,46.8028,佳木斯市,佳纺,,46,40,34,32,24,41,,,,18,17,8,7,0.4,0.3
2026-01-03T0700,2257A,130.3258,46.7975,佳木斯市,环保局,,47,47,39,28,23,46,,,,17,15,7,7,0.4,0.5
2026-01-03T0700,4285A,130.363,46.806,佳木斯市,顺和街,,46,46,34,29,26,39,,,,22,17,11,9,0.4,0.4
2026-01-03T0700,4286A,130.3952,46.8268,佳木斯市,长安路196号,,40,40,30,26,19,42,,,,22,17,7,6,0.4,0.4
2026-01-03T0700,1252A,120.7439,30.778,嘉兴市,清河小学,二氧化氮(NO2),82,51,49,33,47,2,,,,163,136,6,7,0.8,0.7
2026-01-03T0700,1253A,120.7261,30.7477,嘉兴市,嘉兴学院,颗粒物(PM10),53,56,44,36,28,0,,,,53,22,7,8,0.7,0.6
2026-01-03T0700,2872A,120.7845,30.7524,嘉兴市,南湖区残联,,40,37,41,28,29,11,,,,46,23,4,5,0.7,0.6
2026-01-03T0700,3407A,120.6915,30.7741,嘉兴市,秀洲住建,细颗粒物(PM2.5),59,62,53,42,34,1,,,,51,33,5,8,0.5,0.5
2026-01-03T0700,1945A,98.291,39.7705,嘉峪关市,气象局,颗粒物(PM10),52,53,69,27,46,12,,,,73,25,9,22,0.4,0.8
2026-01-03T0700,2884A,98.2672,39.7978,嘉峪关市,酒钢宾馆,颗粒物(PM10),68,85,84,41,52,57,,,,10,17,18,43,0.3,0.8
2026-01-03T0700,3248A,98.2644,39.7723,嘉峪关市,雄关区,颗粒物(PM10),51,51,68,22,45,16,,,,64,32,18,31,0.7,1
2026-01-03T0700,1383A,113.1063,22.6058,江门市,北街,,29,22,26,20,13,51,,,,17,19,/,/,/,/
2026-01-03T0700,1384A,113.073,22.5835,江门市,西区,,24,24,31,13,7,39,,,,26,22,/,/,/,/
2026-01-03T0700,1385A,113.0218,22.531,江门市,圭峰西,,23,23,25,16,11,46,,,,20,17,/,/,/,/
2026-01-03T0700,1386A,113.0826,22.5947,江门市,东湖,,27,27,22,17,13,43,,,,25,24,7,7,0.4,0.4
2026-01-03T0700,3311A,113.1077,22.5647,江门市,江海富民,,19,19,30,8,8,47,,,,22,20,/,/,0.3,0.4
2026-01-03T0700,3449A,113.0496,22.4669,江门市,新会银湖,,28,27,30,19,12,31,,,,30,19,7,7,0.5,0.5
2026-01-03T0700,3335A,113.3137,35.2643,焦作市,马村街道办,细颗粒物(PM2.5),156,134,119,119,109,18,,,,28,29,5,6,1.3,1.1
2026-01-03T0700,3336A,113.2464,35.2374,焦作市,焦作技师学院,细颗粒物(PM2.5),147,138,125,112,108,13,,,,34,32,7,8,1.6,1.3
2026-01-03T0700,3477A,113.1656,35.2536,焦作市,中站许衡医院,细颗粒物(PM2.5),128,,117,97,110,34,,,,24,30,7,6,1.5,1.6
2026-01-03T0700,3981A,113.2456,35.18,焦作市,原李万街道办,细颗粒物(PM2.5),128,101,113,97,106,18,,,,26,25,3,4,1.0,1
2026-01-03T0700,4264A,113.234,35.219,焦作市,新安路1731号,细颗粒物(PM2.5),130,122,124,99,114,19,,,,21,21,6,6,1.1,1.1
2026-01-03T0700,4295A,113.2722,35.2121,焦作市,人民路3066号,细颗粒物(PM2.5),112,115,118,84,91,18,,,,25,23,5,5,1.1,1
2026-01-03T0700,1708A,116.3701,23.5345,揭阳市,新兴,,26,26,25,18,14,30,,,,18,18,9,9,0.5,0.5
2026-01-03T0700,1709A,116.3261,23.5442,揭阳市,西马,,25,20,24,17,12,30,,,,14,12,6,4,0.6,0.6
2026-01-03T0700,1710A,116.361,23.5627,揭阳市,东兴,,28,28,29,13,12,14,,,,24,20,9,9,/,/
2026-01-03T0700,1711A,116.4151,23.5295,揭阳市,渔湖,,25,17,23,17,14,31,,,,19,16,6,6,/,/
2026-01-03T0700,3320A,116.4028,23.5699,揭阳市,曲溪,,39,39,25,20,14,13,,,,28,15,3,2,0.4,0.4
2026-01-03T0700,1944A,102.1691,38.5166,金昌市,天庆家园,细颗粒物(PM2.5),93,85,68,69,60,41,,,,20,14,15,4,1.0,0.8
2026-01-03T0700,4022A,102.1648,38.5369,金昌市,金川区人防中心,细颗粒物(PM2.5),89,,62,66,61,36,,,,17,14,16,7,0.8,0.8
2026-01-03T0700,4239A,102.193042,38.531887,金昌市,长春路96号,细颗粒物(PM2.5),87,78,66,64,55,39,,,,20,11,6,4,0.9,0.8
2026-01-03T0700,1262A,119.6478,29.0773,金华市,十五中,细颗粒物(PM2.5),99,104,63,74,45,15,,,,32,23,2,3,0.9,0.6
2026-01-03T0700,1263A,119.6859,29.1032,金华市,监测站,细颗粒物(PM2.5),117,108,66,88,52,3,,,,51,28,2,2,0.7,0.6
2026-01-03T0700,3659A,119.656,29.1132,金华市,气象局,细颗粒物(PM2.5),107,99,65,80,49,9,,,,42,31,2,2,0.8,0.6
2026-01-03T0700,1767A,121.1114,41.0879,锦州市,南山,细颗粒物(PM2.5),94,84,51,70,45,4,,,,43,33,13,15,1.3,1.1
2026-01-03T0700,1768A,121.060361,40.842794,锦州市,开发区,细颗粒物(PM2.5),82,74,86,60,52,11,,,,40,46,46,32,1.6,1.3
2026-01-03T0700,1769A,121.1836,41.1118,锦州市,百股街道,细颗粒物(PM2.5),73,61,56,53,47,7,,,,42,39,14,24,1.2,1.1
2026-01-03T0700,1770A,121.1176,41.1224,锦州市,天安街道,细颗粒物(PM2.5),74,68,50,54,37,3,,,,42,33,19,19,1.6,1.1
2026-01-03T0700,1771A,121.1303,41.1385,锦州市,北湖公园,细颗粒物(PM2.5),53,40,48,37,35,12,,,,36,28,9,16,0.9,0.9
2026-01-03T0700,2160A,112.8496,35.5051,晋城市,自来水公司,细颗粒物(PM2.5),168,139,144,127,123,3,,,,45,40,7,4,2.4,2
2026-01-03T0700,2162A,112.8509,35.4886,晋城市,市环保局,细颗粒物(PM2.5),144,127,148,110,112,6,,,,45,40,7,4,2.3,2
2026-01-03T0700,3620A,112.8258,35.4804,晋城市,泽州一中,细颗粒物(PM2.5),122,92,136,92,102,11,,,,37,33,3,3,1.1,1
2026-01-03T0700,4078A,112.8246,35.5152,晋城市,前书院路,细颗粒物(PM2.5),102,130,148,76,86,6,,,,48,42,3,3,1.7,1.5
2026-01-03T0700,4079A,112.8864,35.4773,晋城市,祥云街666号,细颗粒物(PM2.5),155,155,157,118,130,7,,,,42,40,8,4,2.1,1.9
2026-01-03T0700,2174A,112.6992,37.6984,晋中市,榆次区政府,细颗粒物(PM2.5),175,178,183,132,142,2,,,,51,52,15,19,1.3,1.3
2026-01-03T0700,2865A,112.7195,37.683,晋中市,榆次三中,细颗粒物(PM2.5),134,151,173,102,122,0,,,,47,46,12,18,0.9,1.3
2026-01-03T0700,4080A,112.7375,37.7215,晋中市,广安街188号,细颗粒物(PM2.5),182,205,203,137,137,3,,,,54,53,11,15,1.5,1.2
2026-01-03T0700,4200A,112.7478,37.6954,晋中市,迎宾街26号,细颗粒物(PM2.5),163,171,170,124,127,2,,,,49,47,14,20,1.4,1.4
2026-01-03T0700,2439A,112.2012,31.048,荆门市,竹园小学,细颗粒物(PM2.5),122,105,106,92,86,51,,,,17,24,1,4,0.4,0.4
2026-01-03T0700,2440A,112.1968,30.9892,荆门市,掇刀,细颗粒物(PM2.5),114,96,102,86,83,60,,,,12,18,3,3,0.7,0.7
2026-01-03T0700,3012A,112.1849,31.0361,荆门市,西山林语,细颗粒物(PM2.5),108,96,95,81,76,47,,,,18,21,5,5,0.7,0.8
2026-01-03T0700,3547A,112.1631,31.0134,荆门市,龙泉中学南校,细颗粒物(PM2.5),122,113,105,92,87,40,,,,12,10,6,8,0.4,0.4
2026-01-03T0700,4124A,112.2213,31.0654,荆门市,新台西路6号,细颗粒物(PM2.5),159,131,120,121,104,3,,,,54,27,7,8,0.9,0.7
2026-01-03T0700,1844A,112.2493,30.3198,荆州市,市图书馆,细颗粒物(PM2.5),113,,67,85,76,50,,,,21,20,8,6,0.8,0.8
2026-01-03T0700,1845A,112.2009,30.3543,荆州市,市委党校,细颗粒物(PM2.5),117,,73,88,76,29,,,,32,21,4,3,0.9,0.8
2026-01-03T0700,3194A,112.2749,30.3124,荆州市,管委会,细颗粒物(PM2.5),105,,64,79,73,48,,,,24,24,7,5,0.8,0.7
2026-01-03T0700,4268A,112.1722,30.3366,荆州市,学苑路85号,细颗粒物(PM2.5),100,,67,75,69,47,,,,22,18,1,1,0.7,0.7
2026-01-03T0700,2343A,117.2114,29.2931,景德镇市,老干部活动中心,,42,34,26,29,24,30,,,,9,6,6,6,0.7,0.6
2026-01-03T0700,2344A,117.1893,29.2789,景德镇市,兽医站,,43,43,30,26,19,44,,,,8,7,7,7,0.3,0.4
2026-01-03T0700,2346A,117.246,29.2958,景德镇市,陶研所,,38,26,23,26,22,13,,,,6,5,4,5,0.5,0.6
2026-01-03T0700,4289A,117.154766,29.256967,景德镇市,青少年活动中心,,43,34,26,30,22,39,,,,14,10,3,4,/,/
2026-01-03T0700,1803A,115.9873,29.6816,九江市,十里,细颗粒物(PM2.5),67,52,44,48,39,32,,,,31,25,3,3,0.7,0.6
2026-01-03T0700,1804A,115.9583,29.7047,九江市,茅山头,细颗粒物(PM2.5),62,57,46,44,38,40,,,,21,12,4,4,0.8,0.7
2026-01-03T0700,1805A,115.9877,29.7295,九江市,西园,细颗粒物(PM2.5),64,51,42,46,32,47,,,,30,21,3,1,0.8,0.7
2026-01-03T0700,1808A,115.9112,29.6038,九江市,综合工业园,细颗粒物(PM2.5),80,,44,59,44,28,,,,38,25,2,2,0.8,0.8
2026-01-03T0700,3190A,116.0254,29.6995,九江市,外国语学校,细颗粒物(PM2.5),64,48,40,46,36,38,,,,21,19,7,6,0.7,0.6
2026-01-03T0700,4253A,116.010205,29.659402,九江市,莲花大道8号,细颗粒物(PM2.5),74,79,51,54,40,58,,,,4,4,4,3,0.4,0.3
2026-01-03T0700,4240A,98.495752,39.733935,酒泉市,玉门东路5号,,46,46,54,22,34,56,,,,10,11,8,9,0.3,0.5
2026-01-03T0700,4241A,98.5099,39.7506,酒泉市,北大街108号,,39,39,50,19,32,54,,,,13,15,8,8,0.4,0.5
2026-01-03T0700,2698A,76.0071,39.466,喀什地区,巡警大队,,50,43,62,35,43,50,,,,7,16,2,2,0.6,0.7
2026-01-03T0700,2699A,75.9756,39.4693,喀什地区,吾办,细颗粒物(PM2.5),54,44,61,38,46,57,,,,3,13,2,3,0.6,0.8
2026-01-03T0700,4027A,75.9485,39.4688,喀什地区,老干局,,48,48,64,32,40,60,,,,4,10,1,1,0.7,0.8
2026-01-03T0700,1824A,114.3389,34.778,开封市,肿瘤医院,细颗粒物(PM2.5),123,,81,93,74,12,,,,33,28,3,5,1.2,1.1
2026-01-03T0700,1826A,114.2884,34.7966,开封市,世纪星幼儿园,细颗粒物(PM2.5),145,,80,111,85,12,,,,34,29,1,3,0.7,0.6
2026-01-03T0700,3147A,114.3434,34.8101,开封市,龙亭公园,细颗粒物(PM2.5),140,,77,107,85,14,,,,29,23,2,4,1.6,1.3
2026-01-03T0700,3210A,114.3645,34.7955,开封市,汴京公园,细颗粒物(PM2.5),127,100,87,96,76,14,,,,32,29,3,5,1.0,0.8
2026-01-03T0700,3473A,114.2485,34.8306,开封市,技师学院,细颗粒物(PM2.5),145,,82,111,82,18,,,,32,27,5,6,1.0,0.8
2026-01-03T0700,3592A,114.4518,34.7503,开封市,祥符区生态环境局,细颗粒物(PM2.5),124,123,85,94,79,17,,,,37,34,2,5,0.6,0.6
2026-01-03T0700,1951A,84.886,45.6029,克拉玛依市,长征新村,细颗粒物(PM2.5),75,75,64,55,40,11,,,,40,34,4,5,0.9,1
2026-01-03T0700,1952A,84.8894,45.5827,克拉玛依市,南林小区,颗粒物(PM10),60,69,60,40,31,28,,,,18,27,4,3,0.9,1.1
2026-01-03T0700,1954A,84.896,44.3328,克拉玛依市,独山子区,颗粒物(PM10),62,73,83,39,42,55,,,,17,31,4,5,0.6,0.7
2026-01-03T0700,1955A,85.6888,46.0909,克拉玛依市,乌尔禾区商贸楼,细颗粒物(PM2.5),59,53,58,42,38,35,,,,19,23,5,5,1.0,1
2026-01-03T0700,3612A,85.1045,45.6895,克拉玛依市,白碱滩区新站,细颗粒物(PM2.5),84,108,94,62,49,8,,,,23,20,7,7,0.7,0.7
2026-01-03T0700,2697A,76.1457,39.7143,克孜勒苏柯尔克孜自治州,市人民政府,细颗粒物(PM2.5),58,56,72,41,40,55,,,,8,10,5,5,0.4,0.4
2026-01-03T0700,3665A,76.1654,39.7157,克孜勒苏柯尔克孜自治州,克州文化中心,细颗粒物(PM2.5),52,50,68,36,41,51,,,,7,11,3,3,0.6,0.6
2026-01-03T0700,1450A,102.8203,24.889,昆明市,呈贡新区,,20,19,26,14,16,52,,,,14,16,6,4,0.2,0.2
2026-01-03T0700,1452A,102.7253,25.0904,昆明市,龙泉镇,,24,24,31,15,14,21,,,,29,24,2,3,0.5,0.5
2026-01-03T0700,1453A,102.7267,25.0378,昆明市,东风东路,,26,20,23,18,18,56,,,,14,16,4,4,0.4,0.5
2026-01-03T0700,1454A,102.6744,25.0671,昆明市,金鼎山,,36,36,32,12,17,36,,,,19,16,2,4,0.4,0.4
2026-01-03T0700,1455A,102.6643,25.0401,昆明市,碧鸡广场,,26,26,29,18,20,39,,,,19,19,5,5,0.5,0.5
2026-01-03T0700,3179A,102.7491,25.012,昆明市,官渡区博物馆,,20,19,24,14,14,37,,,,20,16,3,3,0.3,0.3
2026-01-03T0700,3375A,102.8016,24.8336,昆明市,青年创业园,,20,20,22,13,20,55,,,,6,8,4,5,0.3,0.3
2026-01-03T0700,3550A,102.8,24.9787,昆明市,昆明学院,,22,22,23,15,14,57,,,,8,9,2,3,0.5,0.4
2026-01-03T0700,3551A,102.5969,24.6738,昆明市,晋宁区生态环境分局,,32,26,26,22,19,31,,,,15,13,2,2,0.7,0.5
2026-01-03T0700,3552A,102.6673,24.9861,昆明市,云天化总部,,23,23,21,16,13,43,,,,17,14,5,5,0.5,0.5
2026-01-03T0700,1456A,91.132,29.6515,拉萨市,八廓街,,30,30,22,15,13,43,,,,24,17,8,8,0.7,0.6
2026-01-03T0700,1457A,91.1221,29.6748,拉萨市,市环保局,,18,18,28,11,15,47,,,,19,21,7,9,0.8,0.9
2026-01-03T0700,1458A,91.0874,29.6476,拉萨市,区监测站,,15,7,14,3,8,48,,,,28,21,4,4,1.1,0.8
2026-01-03T0700,1459A,91.1774,29.6541,拉萨市,西藏大学,,19,13,20,7,12,60,,,,18,22,6,6,0.3,0.4
2026-01-03T0700,1460A,90.9798,29.6586,拉萨市,区辐射站,,15,11,24,9,15,46,,,,26,23,4,4,0.7,0.6
2026-01-03T0700,1461A,91.0831,29.6292,拉萨市,拉萨火车站,,22,8,20,3,11,68,,,,13,24,4,5,0.6,0.6
2026-01-03T0700,2520A,109.2203,23.7252,来宾市,来宾技工学校,,32,22,24,22,15,42,,,,9,10,5,6,0.2,0.3
2026-01-03T0700,3535A,109.1781,23.7293,来宾市,兴宾区政府,,32,27,25,22,21,51,,,,7,8,4,6,0.4,0.5
2026-01-03T0700,4002A,109.2312,23.7428,来宾市,中南小学,,32,27,26,22,19,40,,,,11,11,4,5,0.4,0.5
2026-01-03T0700,1479A,103.8309,36.0467,兰州市,铁路设计院,,,,,,,,,,,,,,,,
2026-01-03T0700,3241A,103.7439,36.0841,兰州市,百合公园,细颗粒物(PM2.5),70,80,66,51,50,44,,,,18,29,7,9,0.8,1
2026-01-03T0700,3242A,103.9613,35.9985,兰州市,和平,细颗粒物(PM2.5),114,,64,86,66,48,,,,11,19,2,3,0.9,0.8
2026-01-03T0700,4236A,103.629272,36.093822,兰州市,庄浪东路808号,细颗粒物(PM2.5),72,70,79,52,60,49,,,,20,32,11,15,0.8,0.9
2026-01-03T0700,4237A,103.7251,36.104344,兰州市,安宁西路88号,细颗粒物(PM2.5),85,83,78,63,53,52,,,,19,33,5,7,0.6,0.9
2026-01-03T0700,4238A,103.846982,36.067567,兰州市,北滨河东路1号,细颗粒物(PM2.5),80,73,65,59,54,46,,,,21,29,6,10,0.9,0.9
2026-01-03T0700,1067A,116.6712,39.5109,廊坊市,药材公司,细颗粒物(PM2.5),139,134,93,106,68,2,,,,67,48,4,5,1.3,0.9
2026-01-03T0700,1068A,116.7215,39.5592,廊坊市,开发区,细颗粒物(PM2.5),134,131,91,102,64,0,,,,74,51,5,5,1.5,0.9
2026-01-03T0700,1070A,116.7246,39.5273,廊坊市,北华航天学院,细颗粒物(PM2.5),132,151,96,100,64,2,,,,69,46,5,5,1.3,0.8
2026-01-03T0700,2919A,116.7022,39.5454,廊坊市,河北工业大学,细颗粒物(PM2.5),124,154,99,94,63,1,,,,72,45,7,7,1.4,0.9
2026-01-03T0700,2536A,103.7629,29.5844,乐山市,牛耳桥,,32,25,38,22,33,30,,,,14,20,7,7,0.5,0.5
2026-01-03T0700,2537A,103.7501,29.6002,乐山市,市第三水厂,,26,23,36,18,31,32,,,,14,20,5,6,0.5,0.5
2026-01-03T0700,2538A,103.7571,29.5664,乐山市,市监测站,,35,25,36,24,31,27,,,,12,16,6,6,0.6,0.6
2026-01-03T0700,3361A,103.7313,29.563,乐山市,理工大学,,29,24,34,20,29,23,,,,12,14,4,4,0.5,0.6
2026-01-03T0700,2599A,100.2497,26.8802,丽江市,丽江古城,,19,15,21,8,11,59,,,,13,11,7,8,0.6,0.5
2026-01-03T0700,2600A,100.2203,26.8906,丽江市,市中心,,23,8,14,7,12,72,,,,13,12,6,6,0.3,0.3
2026-01-03T0700,1267A,119.9141,28.4513,丽水市,监测站大楼,细颗粒物(PM2.5),52,41,29,36,17,14,,,,22,17,6,4,0.7,0.4
2026-01-03T0700,1268A,119.93,28.4589,丽水市,莲都小学,细颗粒物(PM2.5),75,67,40,55,37,24,,,,25,21,/,/,/,/
2026-01-03T0700,1269A,119.8794,28.4232,丽水市,余庄前,细颗粒物(PM2.5),68,53,34,49,28,7,,,,10,13,4,4,0.3,0.3
2026-01-03T0700,1173A,119.1759,34.5885,连云港市,市环境监测站,细颗粒物(PM2.5),92,85,52,68,38,9,,,,42,19,12,12,0.9,0.8
2026-01-03T0700,3000A,119.3577,34.6971,连云港市,德源药业,细颗粒物(PM2.5),104,153,56,78,35,17,,,,48,35,11,5,0.9,0.6
2026-01-03T0700,3007A,119.178,34.8442,连云港市,新城一中,细颗粒物(PM2.5),103,87,54,77,48,6,,,,51,30,16,12,1.0,0.8
2026-01-03T0700,3008A,119.3607,34.7519,连云港市,胡沟管理处,细颗粒物(PM2.5),98,78,45,73,34,20,,,,47,34,22,11,1.1,0.9
2026-01-03T0700,3009A,119.1478,34.5913,连云港市,矿山设计院,细颗粒物(PM2.5),89,90,56,66,35,22,,,,34,23,11,9,1.0,0.8
2026-01-03T0700,3434A,119.2414,34.6539,连云港市,工贸学校,细颗粒物(PM2.5),102,84,55,76,41,44,,,,20,17,21,14,1.0,0.8
2026-01-03T0700,3664A,119.4171,34.734,连云港市,连云街道,细颗粒物(PM2.5),54,52,50,38,32,63,,,,18,17,6,6,0.6,0.6
2026-01-03T0700,2573A,102.2629,27.8981,凉山彝族自治州,西昌市政府,,46,42,34,32,23,19,,,,28,19,8,9,0.8,0.7
2026-01-03T0700,2574A,102.2686,27.885,凉山彝族自治州,凉山州政府,,28,28,35,18,22,21,,,,22,18,8,10,0.8,0.7
2026-01-03T0700,4229A,102.2342,27.8859,凉山彝族自治州,凯乐南路30号,,30,30,35,14,18,20,,,,23,21,6,8,0.6,0.6
2026-01-03T0700,2212A,123.1978,41.2036,辽阳市,宏伟区,细颗粒物(PM2.5),59,52,67,42,49,13,,,,21,21,10,18,1.4,1.2
2026-01-03T0700,2213A,123.1684,41.2497,辽阳市,新华园,颗粒物(PM10),56,61,77,36,50,11,,,,38,36,36,36,1.4,1.3
2026-01-03T0700,2214A,123.2355,41.2663,辽阳市,滨河路,,46,42,72,32,43,23,,,,30,29,15,12,0.7,0.9
2026-01-03T0700,4083A,123.153,41.2874,辽阳市,铁西路150号,颗粒物(PM10),55,59,82,37,47,14,,,,39,35,40,31,1.4,1.5
2026-01-03T0700,2227A,125.1359,42.8845,辽源市,环保局,颗粒物(PM10),94,138,114,53,49,9,,,,40,31,7,4,1.6,1.3
2026-01-03T0700,4085A,125.0998,42.9134,辽源市,安宁大街333号,细颗粒物(PM2.5),80,83,71,59,56,13,,,,40,33,4,5,1.2,0.9
2026-01-03T0700,1625A,115.9789,36.4372,聊城市,区政府,细颗粒物(PM2.5),110,103,74,83,50,38,,,,31,35,10,13,0.8,0.8
2026-01-03T0700,3200A,115.9772,36.4986,聊城市,监控中心,细颗粒物(PM2.5),125,97,75,95,54,42,,,,28,31,10,13,0.8,0.8
2026-01-03T0700,3513A,116.0443,36.436,聊城市,九州社区,细颗粒物(PM2.5),107,108,81,80,51,42,,,,19,26,2,6,0.6,0.6
2026-01-03T0700,4018A,116.0564,36.4609,聊城市,星美广场,细颗粒物(PM2.5),112,104,81,84,50,42,,,,18,23,3,6,0.7,0.6
2026-01-03T0700,4113A,116.0091,36.4495,聊城市,利民路,细颗粒物(PM2.5),120,114,70,91,50,35,,,,30,32,9,12,0.6,0.5
2026-01-03T0700,2632A,94.3683,29.6373,林芝市,林芝监测站,,30,20,12,3,5,95,,,,2,3,4,4,0.2,0.3
2026-01-03T0700,2633A,94.3616,29.6634,林芝市,林芝人民医院,,28,20,17,6,6,88,,,,1,3,5,5,0.2,0.3
2026-01-03T0700,2603A,100.0779,23.8981,临沧市,市环保局,,45,,32,31,38,21,,,,6,8,5,6,0.4,0.5
2026-01-03T0700,2604A,100.0894,23.882,临沧市,市气象局,,38,,35,26,24,19,,,,8,9,4,4,0.4,0.5
2026-01-03T0700,1733A,111.5552,36.0791,临汾市,临钢医院,细颗粒物(PM2.5),118,117,124,89,102,22,,,,24,26,4,4,1.2,1.1
2026-01-03T0700,1734A,111.4984,36.0734,临汾市,技工学校,细颗粒物(PM2.5),133,132,116,101,96,8,,,,35,30,4,3,1.4,1.4
2026-01-03T0700,1736A,111.5017,36.0857,临汾市,市委,细颗粒物(PM2.5),135,141,131,103,101,8,,,,42,35,7,6,1.2,1.1
2026-01-03T0700,3018A,111.5048,36.1015,临汾市,唐尧大酒店,细颗粒物(PM2.5),122,122,120,92,93,4,,,,40,34,3,2,1.4,1.2
2026-01-03T0700,4244A,111.4879,36.053,临汾市,启星学校,细颗粒物(PM2.5),118,102,109,89,86,7,,,,44,44,4,5,1.3,1.2
2026-01-03T0700,4271A,103.2464,35.6123,临夏回族自治州,滨河东路1号,细颗粒物(PM2.5),90,96,121,67,90,40,,,,18,22,6,5,0.8,1.1
2026-01-03T0700,4310A,103.207136,35.599807,临夏回族自治州,新华街21号,细颗粒物(PM2.5),85,84,107,63,85,37,,,,16,21,6,12,0.8,0.9
2026-01-03T0700,1618A,118.3429,35.0532,临沂市,沂河小区,细颗粒物(PM2.5),117,110,73,88,53,12,,,,63,40,16,15,1.0,0.7
2026-01-03T0700,1619A,118.2962,35.0568,临沂市,鲁南制药厂,细颗粒物(PM2.5),123,132,83,93,57,4,,,,66,50,19,19,1.0,0.7
2026-01-03T0700,1620A,118.2793,34.9976,临沂市,新光毛纺厂,细颗粒物(PM2.5),107,112,76,80,50,12,,,,55,38,19,17,1.0,0.7
2026-01-03T0700,1621A,118.3955,35.0889,临沂市,河东保险公司,细颗粒物(PM2.5),94,85,62,70,44,28,,,,39,26,12,13,0.8,0.6
2026-01-03T0700,3370A,118.3563,35.0215,临沂市,十里堡居委,细颗粒物(PM2.5),119,132,74,90,45,5,,,,80,48,24,18,1.4,0.9
2026-01-03T0700,3496A,118.359,35.1067,临沂市,南坊新区,细颗粒物(PM2.5),89,80,65,66,46,31,,,,40,35,12,14,0.7,0.6
2026-01-03T0700,3860A,118.3915,35.0297,临沂市,皇山花园小区,细颗粒物(PM2.5),100,110,71,75,44,12,,,,67,40,21,17,1.1,0.8
2026-01-03T0700,1870A,109.4854,24.3898,柳州市,柳东小学,,29,22,21,20,20,45,,,,8,8,7,8,0.6,0.6
2026-01-03T0700,1871A,109.4109,24.3304,柳州市,环保监测站,,28,21,22,19,16,47,,,,9,10,5,5,0.4,0.4
2026-01-03T0700,1872A,109.3886,24.3408,柳州市,河西水厂,,30,27,27,21,20,53,,,,10,12,5,5,0.3,0.4
2026-01-03T0700,1873A,109.4263,24.2951,柳州市,市四中,,28,,20,19,17,48,,,,10,12,9,8,0.5,0.5
2026-01-03T0700,1874A,109.396,24.3658,柳州市,市九中,,29,23,24,20,20,49,,,,10,11,8,7,0.5,0.5
2026-01-03T0700,1875A,109.4912,24.3164,柳州市,古亭山,,22,16,17,15,9,46,,,,7,7,9,9,0.6,0.6
2026-01-03T0700,3402A,109.5422,24.3994,柳州市,市二中,,29,20,16,20,18,46,,,,10,10,7,7,0.5,0.5
2026-01-03T0700,2307A,116.5078,31.7369,六安市,监测大楼,细颗粒物(PM2.5),54,49,53,38,44,30,,,,22,21,2,2,0.5,0.5
2026-01-03T0700,2308A,116.4738,31.7642,六安市,皖西学院,颗粒物(PM10),52,54,62,34,44,33,,,,23,22,4,4,0.4,0.5
2026-01-03T0700,2309A,116.4997,31.7904,六安市,朝阳厂,细颗粒物(PM2.5),55,46,58,39,45,22,,,,25,24,3,5,0.5,0.6
2026-01-03T0700,2310A,116.5566,31.7885,六安市,开发区,细颗粒物(PM2.5),74,60,69,54,53,12,,,,24,31,3,2,0.5,0.4
2026-01-03T0700,2577A,104.8293,26.592,六盘水市,黄土坡,,8,,9,3,8,25,,,,10,17,2,4,0.7,0.8
2026-01-03T0700,2579A,104.8481,26.5898,六盘水市,民中,,8,6,15,3,8,25,,,,6,14,2,3,0.6,0.8
2026-01-03T0700,2580A,104.9541,26.5506,六盘水市,双水,,9,6,9,3,6,26,,,,8,12,3,3,0.4,0.5
2026-01-03T0700,4151A,104.8899,26.5685,六盘水市,钟山大道中段564号,,9,6,12,3,9,26,,,,6,11,4,7,0.7,0.9
2026-01-03T0700,2336A,117.022,25.1031,龙岩市,龙岩市监测站,,20,,12,14,8,36,,,,14,10,16,10,0.6,0.4
2026-01-03T0700,2337A,117.0257,25.0662,龙岩市,闽西职业技术学院,,22,17,16,15,8,42,,,,10,7,10,7,0.5,0.4
2026-01-03T0700,2338A,117.0195,25.0306,龙岩市,龙岩学院,,26,18,14,18,11,29,,,,9,8,9,8,/,/
2026-01-03T0700,2885A,104.9344,33.3827,陇南市,滨江中学,,33,24,58,23,31,53,,,,10,27,5,7,0.8,0.9
2026-01-03T0700,3247A,104.9551,33.3709,陇南市,市总工会,,37,37,66,13,36,50,,,,12,23,2,3,0.7,1
2026-01-03T0700,2488A,111.9984,27.7346,娄底市,市监测站,细颗粒物(PM2.5),68,60,54,49,48,48,,,,10,10,3,3,0.5,0.5
2026-01-03T0700,2491A,111.9888,27.7035,娄底市,市政府,细颗粒物(PM2.5),75,59,52,55,47,51,,,,7,9,4,3,0.4,0.4
2026-01-03T0700,4127A,111.9812,27.7591,娄底市,涟钢职大,细颗粒物(PM2.5),67,56,52,48,37,46,,,,13,11,4,3,0.5,0.4
2026-01-03T0700,4128A,112.0303,27.7457,娄底市,娄底体校,细颗粒物(PM2.5),65,55,52,47,42,45,,,,10,9,2,2,0.5,0.5
2026-01-03T0700,1894A,105.4427,28.9063,泸州市,小市上码头,,30,28,31,21,24,38,,,,11,17,8,7,0.7,0.8
2026-01-03T0700,1895A,105.4241,28.8573,泸州市,兰田宪桥,,32,25,28,22,24,22,,,,12,14,7,7,0.8,1
2026-01-03T0700,1896A,105.4378,28.8833,泸州市,市环监站,,27,27,29,18,22,40,,,,12,19,8,8,0.5,0.6
2026-01-03T0700,4272A,105.3689,28.7783,泸州市,纳溪中医医院,,32,25,30,22,29,22,,,,11,14,7,7,0.8,0.9
2026-01-03T0700,2183A,111.1447,37.5212,吕梁市,环保局,颗粒物(PM10),60,69,72,25,32,1,,,,40,42,4,9,0.6,0.7
2026-01-03T0700,2185A,111.1285,37.5338,吕梁市,自来水公司,颗粒物(PM10),70,90,90,36,35,1,,,,38,39,10,11,0.8,0.9
2026-01-03T0700,2867A,111.1225,37.5093,吕梁市,马茂庄小学,颗粒物(PM10),73,96,87,45,34,0,,,,39,42,12,14,0.7,0.8
2026-01-03T0700,1812A,112.3934,34.6517,洛阳市,市委党校,细颗粒物(PM2.5),114,93,99,86,90,36,,,,27,28,7,8,0.8,0.9
2026-01-03T0700,1815A,112.494,34.6883,洛阳市,河南林校,细颗粒物(PM2.5),132,,100,100,96,22,,,,28,28,8,9,0.9,1
2026-01-03T0700,1816A,112.3843,34.623,洛阳市,开发区管委会,细颗粒物(PM2.5),137,114,112,104,98,17,,,,31,26,9,8,0.9,0.9
2026-01-03T0700,1817A,112.4263,34.6249,洛阳市,市委新办公区,细颗粒物(PM2.5),135,117,114,103,101,18,,,,30,26,8,8,0.9,0.9
2026-01-03T0700,3340A,112.6005,34.6323,洛阳市,伊滨,细颗粒物(PM2.5),139,127,116,106,97,33,,,,29,32,6,6,1.1,1.1
2026-01-03T0700,3341A,112.495,34.6338,洛阳市,中移产业园,细颗粒物(PM2.5),133,,102,101,101,20,,,,39,37,9,10,0.9,1
2026-01-03T0700,3593A,112.5736,34.8993,洛阳市,吉利监测站,细颗粒物(PM2.5),120,,103,91,103,26,,,,30,36,5,6,0.9,1.1
2026-01-03T0700,3635A,112.3678,34.6623,洛阳市,河科大西苑校区,细颗粒物(PM2.5),112,100,106,84,88,32,,,,32,29,7,8,0.8,0.9
2026-01-03T0700,3636A,112.4387,34.678,洛阳市,英才小学,细颗粒物(PM2.5),137,118,109,104,99,16,,,,47,35,8,10,1.0,1
2026-01-03T0700,4214A,112.460027,34.694929,洛阳市,春都路1号院,细颗粒物(PM2.5),115,121,119,87,83,17,,,,27,25,7,8,1.0,1.1
2026-01-03T0700,2399A,114.051,33.5721,漯河市,三五一五工厂,细颗粒物(PM2.5),109,113,116,82,88,18,,,,29,23,7,7,0.9,0.9
2026-01-03T0700,2400A,114.0055,33.5698,漯河市,漯河大学,细颗粒物(PM2.5),113,,90,85,85,22,,,,29,28,6,5,0.8,0.7
2026-01-03T0700,2401A,114.0134,33.5826,漯河市,市水利局,细颗粒物(PM2.5),107,85,93,80,86,21,,,,31,30,6,7,0.8,0.8
2026-01-03T0700,2402A,114.0261,33.5697,漯河市,市广电局,细颗粒物(PM2.5),113,90,93,85,89,16,,,,31,26,6,6,0.7,0.7
2026-01-03T0700,3478A,113.9691,33.568,漯河市,市图书馆,细颗粒物(PM2.5),118,102,103,89,87,29,,,,23,27,4,5,0.9,0.9
2026-01-03T0700,4250A,114.089259,33.588274,漯河市,韶山路11号,细颗粒物(PM2.5),115,110,114,87,93,18,,,,28,29,6,6,0.7,0.7
2026-01-03T0700,1798A,118.5084,31.6838,马鞍山市,湖东路四小,细颗粒物(PM2.5),72,84,78,52,52,1,,,,51,42,4,6,1.0,0.8
2026-01-03T0700,1799A,118.5019,31.6449,马鞍山市,开发区,细颗粒物(PM2.5),98,104,82,73,60,2,,,,51,43,5,7,1.4,0.9
2026-01-03T0700,3633A,118.4914,31.681,马鞍山市,雨山,细颗粒物(PM2.5),82,72,83,60,56,0,,,,56,46,6,11,1.0,1
2026-01-03T0700,4191A,118.527362,31.722269,马鞍山市,慈湖高新区,细颗粒物(PM2.5),87,94,67,64,51,7,,,,52,36,6,5,0.8,0.5
2026-01-03T0700,1686A,111.0285,21.469,茂名市,电白南海,,34,34,42,9,20,48,,,,16,16,17,12,0.5,0.7
2026-01-03T0700,1687A,110.9294,21.6533,茂名市,茂石化七小,,29,29,35,12,21,57,,,,14,15,7,11,0.5,0.7
2026-01-03T0700,1688A,110.9108,21.6688,茂名市,健康路,,28,,28,19,18,55,,,,19,17,15,12,0.7,0.8
2026-01-03T0700,1689A,110.8592,21.6826,茂名市,高岭,颗粒物(PM10),51,51,42,22,18,34,,,,20,18,55,14,/,/
2026-01-03T0700,3450A,111.0101,21.5165,茂名市,电白水东,,27,27,32,17,20,52,,,,14,14,10,10,/,/
2026-01-03T0700,2540A,103.8414,30.0871,眉山市,气象局,,17,17,39,7,29,27,,,,13,20,7,7,0.6,0.7
2026-01-03T0700,3148A,103.829,30.0563,眉山市,区人社局,,24,24,38,7,22,30,,,,12,21,6,4,0.6,0.7
2026-01-03T0700,4148A,103.8836,30.0695,眉山市,眉职院,,13,13,29,3,17,26,,,,9,13,4,4,0.9,0.9
2026-01-03T0700,1690A,116.1248,24.3307,梅州市,梅江月梅,,27,27,16,11,9,6,,,,27,17,/,/,/,/
2026-01-03T0700,1691A,116.0798,24.2719,梅州市,梅县新城,,20,18,15,14,11,4,,,,27,17,8,7,0.4,0.4
2026-01-03T0700,3315A,116.1234,24.2994,梅州市,梅龙,,24,24,19,13,10,8,,,,26,16,9,8,0.4,0.4
2026-01-03T0700,1878A,104.7775,31.4741,绵阳市,富乐山,,18,14,31,12,27,33,,,,8,10,11,11,0.7,0.7
2026-01-03T0700,1880A,104.6698,31.4668,绵阳市,高新区自来水公司,,18,,25,12,25,30,,,,13,16,8,8,0.7,0.6
2026-01-03T0700,3491A,104.6899,31.5324,绵阳市,西科大附属小学,,12,9,28,7,22,31,,,,10,11,8,8,1.2,1.1
2026-01-03T0700,3492A,104.5647,31.5343,绵阳市,安州区旅游局,,10,9,21,7,25,31,,,,14,15,1,10,0.6,0.6
2026-01-03T0700,4146A,104.7092,31.4972,绵阳市,科技城新区公安局,,10,7,28,6,26,31,,,,7,10,3,3,0.6,0.7
2026-01-03T0700,4226A,104.765114,31.453094,绵阳市,绵阳市气象局,,19,13,30,13,27,34,,,,7,11,8,15,0.7,0.7
2026-01-03T0700,1784A,129.61,44.561,牡丹江市,环保大楼,,50,50,44,34,28,22,,,,30,20,18,11,0.9,0.9
2026-01-03T0700,1787A,129.6364,44.6075,牡丹江市,机车工厂,细颗粒物(PM2.5),52,52,43,36,28,9,,,,48,23,4,3,0.5,0.4
2026-01-03T0700,1788A,129.6386,44.5462,牡丹江市,第一中学,,43,43,33,22,25,10,,,,28,18,11,6,0.6,0.5
2026-01-03T0700,4287A,129.5992,44.5964,牡丹江市,东晓云街98号,细颗粒物(PM2.5),72,,41,52,37,17,,,,34,20,5,5,0.8,0.7
2026-01-03T0700,2531A,105.0703,29.61,内江市,市监测站,,29,21,18,20,16,36,,,,17,16,4,4,0.5,0.4
2026-01-03T0700,2533A,105.0657,29.5807,内江市,内江二中,,35,,24,24,15,25,,,,20,18,4,4,0.8,0.8
2026-01-03T0700,2534A,105.0407,29.5828,内江市,内江日报社,,19,19,18,6,12,16,,,,20,20,2,2,0.6,0.6
2026-01-03T0700,4147A,105.0433,29.6105,内江市,玉峰路西段888号,,9,7,15,3,11,28,,,,10,14,3,3,0.6,0.6
2026-01-03T0700,2628A,92.0653,31.4846,那曲市,那曲监测站,,15,13,51,3,31,47,,,,11,24,9,12,1.0,1.3
2026-01-03T0700,4243A,92.0515,31.4787,那曲市,那曲市委宣传部,,15,14,29,7,16,48,,,,7,16,5,7,0.9,1
2026-01-03T0700,1291A,115.8887,28.7006,南昌市,省林业公司,细颗粒物(PM2.5),83,66,43,61,41,35,,,,22,9,5,4,1.1,0.9
2026-01-03T0700,1292A,115.813,28.7443,南昌市,林科所,细颗粒物(PM2.5),73,63,41,53,36,44,,,,18,16,6,5,0.6,0.5
2026-01-03T0700,1294A,115.8518,28.687,南昌市,建工学校,细颗粒物(PM2.5),82,69,52,60,42,44,,,,25,22,13,12,0.7,0.5
2026-01-03T0700,1295A,115.8926,28.6425,南昌市,象湖,细颗粒物(PM2.5),77,57,47,56,41,41,,,,21,17,10,8,0.9,0.7
2026-01-03T0700,3046A,115.9084,28.6062,南昌市,机电学校,细颗粒物(PM2.5),83,81,55,61,44,41,,,,20,15,5,4,0.7,0.6
2026-01-03T0700,3690A,115.9718,28.7032,南昌市,外国语学校,细颗粒物(PM2.5),70,73,50,51,40,40,,,,24,25,11,10,0.6,0.5
2026-01-03T0700,4106A,115.7923,28.6873,南昌市,工业二路,细颗粒物(PM2.5),68,66,48,49,36,44,,,,18,11,5,5,0.5,0.3
2026-01-03T0700,4192A,115.931587,28.686774,南昌市,南京东路235号,细颗粒物(PM2.5),82,69,47,60,44,43,,,,28,26,7,5,0.4,0.2
2026-01-03T0700,1906A,106.0791,30.8022,南充市,南充市委,,30,24,24,21,21,36,,,,14,20,4,4,0.6,0.7
2026-01-03T0700,1907A,106.1038,30.8215,南充市,南充炼油厂,,34,34,36,22,27,36,,,,13,16,6,6,0.4,0.4
2026-01-03T0700,4227A,106.108336,30.788436,南充市,梨树横街98号,,33,25,27,23,19,34,,,,17,17,5,5,0.5,0.6
2026-01-03T0700,4304A,106.1172,30.843,南充市,清泉寺北路188号,,33,24,17,23,20,35,,,,13,10,6,6,0.8,0.8
2026-01-03T0700,4305A,106.067,30.7616,南充市,同庆路1号,,42,,26,29,25,50,,,,9,20,5,6,0.4,0.5
2026-01-03T0700,1151A,118.8033,32.1085,南京市,迈皋桥,,39,39,40,24,25,21,,,,30,16,4,4,0.6,0.6
2026-01-03T0700,1152A,118.7487,32.057,南京市,草场门,,46,46,46,27,30,2,,,,60,35,5,6,0.4,0.3
2026-01-03T0700,1154A,118.770105,32.004342,南京市,中华门,,42,31,42,29,31,0,,,,53,31,4,4,0.5,0.5
2026-01-03T0700,1155A,118.8059,32.0329,南京市,瑞金路,,48,44,42,29,31,1,,,,95,42,4,4,0.7,0.7
2026-01-03T0700,1156A,118.7946,32.0774,南京市,玄武湖,,40,39,43,28,25,16,,,,23,20,4,4,0.5,0.6
2026-01-03T0700,1157A,118.6415,32.0964,南京市,浦口,,50,50,48,28,33,14,,,,44,24,6,8,0.5,0.6
2026-01-03T0700,1158A,118.730129,32.000956,南京市,奥体中心,,49,39,46,34,34,14,,,,57,39,5,6,0.5,0.5
2026-01-03T0700,1159A,118.9072,32.1047,南京市,仙林大学城,,32,29,39,22,23,1,,,,48,30,5,6,0.6,0.6
2026-01-03T0700,3422A,118.8443,31.919,南京市,江宁彩虹桥,,47,47,50,29,33,0,,,,51,34,3,4,0.4,0.5
2026-01-03T0700,3427A,118.8497,32.3599,南京市,六合雄州,,40,39,36,28,24,6,,,,28,24,10,8,0.4,0.4
2026-01-03T0700,4086A,118.7641,32.0841,南京市,新模范马路66号,,,46,47,38,25,0,,,,,24,5,6,1.1,0.9
2026-01-03T0700,4249A,118.8707617,31.34017673,南京市,汶溪路181号,细颗粒物(PM2.5),100,,66,75,61,15,,,,46,33,5,6,0.7,0.6
2026-01-03T0700,4312A,119.019,31.6512,南京市,中山西路1号,,43,,42,30,41,3,,,,36,31,4,4,0.6,0.6
2026-01-03T0700,1401A,108.3098,22.788,南宁市,二十一中,,23,23,20,15,11,36,,,,13,15,5,4,0.7,0.8
2026-01-03T0700,1402A,108.3135,22.8529,南宁市,北湖,,21,21,20,13,12,45,,,,13,15,3,3,0.7,0.7
2026-01-03T0700,1403A,108.3205,22.8222,南宁市,市监测站,,32,30,23,22,18,37,,,,8,10,7,6,0.6,0.6
2026-01-03T0700,1404A,108.3828,22.8038,南宁市,大自然花园,,23,22,21,16,13,44,,,,11,12,7,5,0.6,0.6
2026-01-03T0700,1406A,108.2397,22.8462,南宁市,区农职院,,36,,24,25,21,34,,,,17,17,8,9,0.7,0.7
2026-01-03T0700,1407A,108.3285,22.7356,南宁市,英华嘉园,,28,28,20,13,12,43,,,,8,11,4,3,0.6,0.6
2026-01-03T0700,3401A,108.4829,22.762,南宁市,红星社区,,36,30,20,25,16,45,,,,10,9,6,5,0.6,0.6
2026-01-03T0700,4132A,108.2927,23.1477,南宁市,起凤路9号,,30,24,22,21,19,42,,,,8,8,1,2,0.7,0.7
2026-01-03T0700,4221A,108.2177,22.7774,南宁市,乐贤路16号,,26,22,27,18,17,41,,,,1,7,3,3,0.5,0.5
2026-01-03T0700,2332A,118.1682,26.6371,南平市,南平市监测站,,16,16,12,11,8,20,,,,14,12,4,3,0.4,0.4
2026-01-03T0700,2334A,118.1757,26.6276,南平市,南平七中,,25,25,13,12,11,7,,,,17,14,4,6,0.5,0.4
2026-01-03T0700,1168A,120.9056,31.9669,南通市,狼山街道,,36,29,24,25,17,39,,,,15,9,3,3,0.6,0.5
2026-01-03T0700,1170A,120.8635,32.0231,南通市,城中,,45,45,33,24,18,37,,,,22,13,4,5,0.6,0.4
2026-01-03T0700,1171A,120.9376,31.9301,南通市,星湖花园,,32,32,26,22,17,37,,,,21,11,6,5,0.8,0.6
2026-01-03T0700,1172A,120.8053,32.046,南通市,紫琅学院,,50,50,32,35,18,29,,,,30,15,4,5,0.5,0.4
2026-01-03T0700,3291A,121.0631,32.0644,南通市,通州监测站,细颗粒物(PM2.5),55,41,31,39,22,17,,,,41,20,3,3,0.6,0.4
2026-01-03T0700,3432A,120.9348,31.9874,南通市,环境教育馆,,31,31,28,18,16,36,,,,29,15,3,4,0.5,0.4
2026-01-03T0700,4091A,120.8692,31.9885,南通市,洪江路,,36,34,33,25,17,42,,,,20,14,5,5,0.5,0.3
2026-01-03T0700,2404A,112.5338,33.0086,南阳市,瓦房庄,细颗粒物(PM2.5),139,116,106,106,99,36,,,,17,19,5,6,0.9,0.8
2026-01-03T0700,2405A,112.5002,32.9734,南阳市,汉画馆,细颗粒物(PM2.5),138,116,108,105,97,23,,,,22,22,5,5,0.9,0.9
2026-01-03T0700,2406A,112.5778,33.0144,南阳市,气象站,细颗粒物(PM2.5),138,129,117,105,95,42,,,,16,19,5,5,0.8,0.8
2026-01-03T0700,2407A,112.548,32.9687,南阳市,理工学院,细颗粒物(PM2.5),123,107,98,93,84,26,,,,21,19,5,5,1.0,0.9
2026-01-03T0700,4008A,112.5233,32.9921,南阳市,卧龙区政府,细颗粒物(PM2.5),137,130,120,104,96,32,,,,17,20,5,5,0.8,0.9
2026-01-03T0700,1234A,121.8352,29.9111,宁波市,区环保大楼,,47,47,48,30,28,29,,,,34,25,6,7,0.7,0.7
2026-01-03T0700,1235A,121.5595,29.8208,宁波市,万里学院,细颗粒物(PM2.5),75,75,56,55,39,4,,,,48,25,3,5,0.6,0.5
2026-01-03T0700,1236A,121.713,29.9564,宁波市,龙赛医院,细颗粒物(PM2.5),60,64,46,43,28,14,,,,44,25,6,4,0.7,0.6
2026-01-03T0700,1240A,121.5855,29.8635,宁波市,太古小学,,46,46,49,22,26,35,,,,22,17,4,4,0.7,0.6
2026-01-03T0700,1241A,121.5239,29.8673,宁波市,市环境监测中心,细颗粒物(PM2.5),52,47,53,36,31,12,,,,34,21,5,6,0.6,0.6
2026-01-03T0700,2871A,121.6156,29.9015,宁波市,万里国际学校,,48,47,45,33,34,29,,,,29,25,4,5,0.5,0.5
2026-01-03T0700,3710A,121.5593,29.8976,宁波市,白沙活动中心,,43,40,39,30,30,29,,,,26,22,4,5,0.7,0.6
2026-01-03T0700,4095A,121.8962,29.7529,宁波市,中科路88号,,38,38,37,26,25,37,,,,19,14,4,5,0.7,0.7
2026-01-03T0700,2341A,119.5387,26.6611,宁德市,宁德市监测站,,16,,19,11,12,29,,,,20,17,6,7,0.4,0.4
2026-01-03T0700,3209A,119.5231,26.6562,宁德市,宁德一中,,21,21,20,3,12,33,,,,13,13,5,6,0.6,0.5
2026-01-03T0700,2618A,98.859,25.8541,怒江傈僳族自治州,州监测站,,22,,31,15,21,52,,,,5,10,7,7,0.3,0.4
2026-01-03T0700,2619A,98.8607,25.8168,怒江傈僳族自治州,泸水一中,,16,11,29,11,23,36,,,,7,16,5,6,0.3,0.5
2026-01-03T0700,1888A,101.6891,26.571,攀枝花市,弄弄坪,"颗粒物(PM10),细颗粒物(PM2.5)",67,83,52,48,31,2,,,,52,35,33,42,2.4,2.1
2026-01-03T0700,1889A,101.577,26.5914,攀枝花市,河门口,,44,44,44,22,23,13,,,,28,23,12,21,0.8,1
2026-01-03T0700,1891A,101.7365,26.4986,攀枝花市,仁和,,24,24,36,14,23,19,,,,24,20,9,11,1.4,1.1
2026-01-03T0700,2835A,101.7222,26.567,攀枝花市,四十中小,,42,42,43,25,27,2,,,,45,32,29,20,1.8,1.7
2026-01-03T0700,1604A,122.0303,41.1489,盘锦市,开发区,细颗粒物(PM2.5),105,,51,79,40,3,,,,44,30,19,11,1.9,1.2
2026-01-03T0700,1605A,122.0486,41.0883,盘锦市,兴隆台,细颗粒物(PM2.5),99,77,52,74,39,2,,,,60,46,15,15,2.9,1.5
2026-01-03T0700,1606A,121.8297,41.1026,盘锦市,新生街道,细颗粒物(PM2.5),60,54,44,43,25,3,,,,51,33,12,14,1.9,0.9
2026-01-03T0700,1832A,113.3257,33.7423,平顶山市,新华旅馆,细颗粒物(PM2.5),120,112,118,91,94,25,,,,22,28,8,8,1.1,1.1
2026-01-03T0700,1833A,113.2917,33.737,平顶山市,规划设计院,细颗粒物(PM2.5),118,116,123,89,96,10,,,,41,31,5,6,1.0,0.9
2026-01-03T0700,1834A,113.182,33.7738,平顶山市,平顶山工学院,细颗粒物(PM2.5),113,107,107,85,96,34,,,,18,22,6,7,0.6,0.6
2026-01-03T0700,3594A,112.8736,33.9068,平顶山市,石龙区,细颗粒物(PM2.5),110,106,114,83,93,10,,,,54,36,5,8,1.5,1
2026-01-03T0700,4116A,113.284,33.7139,平顶山市,姚电大道23号,细颗粒物(PM2.5),147,,140,112,109,9,,,,28,25,6,6,1.4,1.1
2026-01-03T0700,2656A,106.6633,35.5338,平凉市,聚贤嘉苑,细颗粒物(PM2.5),75,80,62,55,46,45,,,,27,21,10,9,1.0,0.9
2026-01-03T0700,2657A,106.7021,35.5307,平凉市,博物馆,细颗粒物(PM2.5),78,81,66,57,52,53,,,,21,24,9,9,1.2,0.9
2026-01-03T0700,2348A,113.8384,27.6436,萍乡市,中医院,细颗粒物(PM2.5),59,51,54,42,39,55,,,,13,20,6,4,0.7,0.8
2026-01-03T0700,2350A,113.8677,27.6438,萍乡市,市环保局,细颗粒物(PM2.5),60,52,46,43,39,64,,,,15,18,13,12,0.2,0.3
2026-01-03T0700,2351A,113.8663,27.6202,萍乡市,安源区政府,细颗粒物(PM2.5),63,60,52,45,42,41,,,,19,21,12,9,0.9,1
2026-01-03T0700,4107A,113.8686,27.6668,萍乡市,联洪村委会,颗粒物(PM10),54,58,51,36,37,51,,,,16,20,10,7,0.7,0.8
2026-01-03T0700,2319A,119.0142,25.4324,莆田市,荔城区仓后路,,30,23,24,21,14,60,,,,11,10,/,/,/,/
2026-01-03T0700,2320A,119.0016,25.4553,莆田市,莆田市监测站,,29,,17,20,11,66,,,,7,7,3,4,0.5,0.5
2026-01-03T0700,2321A,119.112,25.4561,莆田市,涵江区六中,,35,27,23,24,14,68,,,,9,10,/,/,0.3,0.4
2026-01-03T0700,2322A,119.1014,25.3215,莆田市,秀屿区政府,,36,26,26,25,15,67,,,,8,7,2,3,0.5,0.5
2026-01-03T0700,2392A,115.0312,35.7636,濮阳市,环保局,细颗粒物(PM2.5),109,,62,82,48,27,,,,19,30,5,7,1.4,1.3
2026-01-03T0700,3021A,115,35.7667,濮阳市,濮水河管理处,细颗粒物(PM2.5),112,100,80,84,51,27,,,,32,35,5,8,0.9,0.8
2026-01-03T0700,4118A,115.0552,35.7816,濮阳市,中原东路68号,细颗粒物(PM2.5),142,117,87,108,61,32,,,,20,26,4,8,0.8,0.7
2026-01-03T0700,4216A,115.0923632,35.76857718,濮阳市,任丘路479号,细颗粒物(PM2.5),138,110,75,105,62,23,,,,22,27,3,6,0.7,0.6
2026-01-03T0700,2601A,100.9801,22.7634,普洱市,市环保局,,34,34,44,17,21,17,,,,15,11,5,4,0.5,0.4
2026-01-03T0700,2602A,100.9763,22.8237,普洱市,普洱第二中学,,32,26,36,22,18,11,,,,18,15,4,5,0.4,0.5
2026-01-03T0700,3345A,131.0413,45.7795,七台河市,中波台,,48,42,40,33,30,40,,,,18,19,11,9,0.6,0.5
2026-01-03T0700,3637A,131.0136,45.7688,七台河市,人民广场,细颗粒物(PM2.5),64,46,47,46,37,29,,,,33,25,13,10,0.7,0.6
2026-01-03T0700,3684A,130.8639,45.8144,七台河市,新建矿广场,细颗粒物(PM2.5),64,61,50,46,32,19,,,,28,16,13,11,0.6,0.5
2026-01-03T0700,1779A,123.9307,47.3641,齐齐哈尔市,安居小区,,18,18,32,10,16,43,,,,21,22,4,6,0.4,0.5
2026-01-03T0700,1780A,123.9497,47.3389,齐齐哈尔市,中心广场,,18,12,24,7,14,57,,,,8,18,6,7,0.4,0.6
2026-01-03T0700,1781A,123.9483,47.3229,齐齐哈尔市,农牧车辆厂,,17,12,35,6,15,52,,,,10,21,3,5,0.3,0.5
2026-01-03T0700,1783A,123.9442,47.2994,齐齐哈尔市,市环境监测站,,17,17,34,8,17,54,,,,16,19,9,9,0.4,0.5
2026-01-03T0700,3662A,123.6341,47.2079,齐齐哈尔市,富区青少年活动中心,,28,27,49,19,29,38,,,,22,22,5,8,0.7,1
2026-01-03T0700,2591A,107.9765,26.5724,黔东南苗族侗族自治州,市环境监测站,,18,13,28,12,27,42,,,,7,10,4,4,0.6,0.6
2026-01-03T0700,2881A,107.8909,26.531,黔东南苗族侗族自治州,凯里学院,,16,,32,11,26,43,,,,8,11,4,4,0.7,0.6
2026-01-03T0700,2593A,107.5223,26.2371,黔南布依族苗族自治州,小围寨,,12,6,15,3,14,37,,,,4,5,4,4,0.7,0.7
2026-01-03T0700,3538A,107.5175,26.2977,黔南布依族苗族自治州,沙坝,,13,7,19,3,17,41,,,,5,8,4,4,0.7,0.7
2026-01-03T0700,2589A,104.9022,25.0943,黔西南布依族苗族自治州,场坝街,,12,12,16,3,8,20,,,,6,7,3,4,0.6,0.7
2026-01-03T0700,2590A,104.8812,25.0994,黔西南布依族苗族自治州,坪东大道,,15,10,16,10,9,22,,,,4,6,4,4,0.6,0.7
2026-01-03T0700,2502A,108.6238,21.9667,钦州市,市环保站,,35,34,35,24,19,38,,,,16,16,3,3,0.6,1
2026-01-03T0700,2503A,108.655,21.9481,钦州市,沙埠小学,,33,29,30,23,12,40,,,,18,18,5,4,0.6,0.6
2026-01-03T0700,2504A,108.5989,21.7435,钦州市,港区一小,颗粒物(PM10),52,54,37,28,23,31,,,,24,22,6,7,0.6,0.7
2026-01-03T0700,3404A,108.5959,21.9634,钦州市,北职校,,39,27,24,27,21,34,,,,14,9,8,7,1.4,0.8
2026-01-03T0700,1046A,119.5247,39.9346,秦皇岛市,建设大厦,颗粒物(PM10),76,101,60,54,37,5,,,,63,41,11,12,1.3,0.8
2026-01-03T0700,3132A,119.5979,39.938,秦皇岛市,文明里,颗粒物(PM10),62,74,55,32,26,1,,,,53,39,12,14,1.0,0.8
2026-01-03T0700,4066A,119.7458,39.9952,秦皇岛市,南园路157号,颗粒物(PM10),60,70,65,34,34,3,,,,56,47,9,10,0.9,0.9
2026-01-03T0700,4067A,119.5131,39.8858,秦皇岛市,翠岛大街1号,颗粒物(PM10),55,60,55,33,27,7,,,,51,40,14,14,1.1,0.9
2026-01-03T0700,4198A,119.509013,39.825305,秦皇岛市,北戴河轮滑馆,细颗粒物(PM2.5),67,71,58,48,34,10,,,,50,38,11,13,1.4,1
2026-01-03T0700,1310A,120.404,36.0625,青岛市,市南区东部子站,颗粒物(PM10),57,63,49,36,27,33,,,,34,27,11,12,0.7,0.7
2026-01-03T0700,1311A,120.362344,36.10282,青岛市,四方区子站,细颗粒物(PM2.5),62,53,44,44,31,35,,,,29,25,6,6,0.8,0.7
2026-01-03T0700,1312A,120.294373,36.054183,青岛市,市南区西部子站,颗粒物(PM10),52,53,43,34,26,38,,,,24,22,7,7,0.6,0.6
2026-01-03T0700,1313A,120.4581,36.0858,青岛市,崂山区子站,,46,46,39,29,23,24,,,,41,27,12,12,0.9,0.8
2026-01-03T0700,1315A,120.3945,36.3083,青岛市,城阳区子站,颗粒物(PM10),54,58,59,37,31,23,,,,44,35,10,11,0.9,0.9
2026-01-03T0700,3642A,120.3454,36.0735,青岛市,市北区南部,颗粒物(PM10),54,57,50,36,24,41,,,,20,20,4,6,0.6,0.7
2026-01-03T0700,3643A,120.3897,36.18,青岛市,李沧区北部,细颗粒物(PM2.5),62,51,48,44,37,28,,,,32,27,10,12,0.8,0.9
2026-01-03T0700,4110A,120.5222,36.4089,青岛市,盟旺路653号,颗粒物(PM10),55,59,61,36,35,29,,,,39,37,6,8,0.5,0.6
2026-01-03T0700,4290A,120.196923,35.954556,青岛市,珠江路669号,细颗粒物(PM2.5),62,51,41,44,31,39,,,,26,19,11,12,0.6,0.6
2026-01-03T0700,4291A,120.0424,35.8656,青岛市,黄岛区人民政府广场,细颗粒物(PM2.5),64,73,69,46,37,15,,,,53,33,10,9,0.9,0.9
2026-01-03T0700,1703A,113.0218,23.7086,清远市,凤城街办,,32,29,20,22,14,59,,,,14,14,/,/,/,/
2026-01-03T0700,3025A,113.0479,23.6343,清远市,技师学院,,39,,22,27,13,54,,,,15,15,8,6,0.7,0.6
2026-01-03T0700,3318A,112.9898,23.7403,清远市,清新太和,,25,23,17,17,11,65,,,,11,10,5,7,0.4,0.5
2026-01-03T0700,3455A,113.076,23.72,清远市,清城东城,,26,26,20,16,11,56,,,,14,13,/,/,/,/
2026-01-03T0700,2661A,107.6325,35.7357,庆阳市,庆阳五中,细颗粒物(PM2.5),75,61,63,55,58,67,,,,18,22,4,6,0.6,0.8
2026-01-03T0700,2662A,107.6361,35.7067,庆阳市,市环保局,细颗粒物(PM2.5),80,71,69,59,64,62,,,,16,18,1,3,0.6,0.6
2026-01-03T0700,1916A,103.7897,25.5036,曲靖市,环境监测站,,18,9,29,8,14,55,,,,6,12,3,4,0.5,0.7
2026-01-03T0700,1917A,103.8013,25.5357,曲靖市,烟厂办公区,,18,16,28,8,15,56,,,,7,11,3,4,0.3,0.5
2026-01-03T0700,3376A,103.7926,25.4651,曲靖市,南苑二区,,20,14,26,11,16,61,,,,1,7,4,4,0.4,0.6
2026-01-03T0700,3377A,103.7442,25.5259,曲靖市,曲靖师范学院,,19,18,25,11,18,59,,,,5,8,2,2,0.4,0.5
2026-01-03T0700,1264A,118.8694,28.94,衢州市,环保大楼,细颗粒物(PM2.5),87,80,45,64,34,6,,,,46,24,/,/,/,/
2026-01-03T0700,1266A,118.8622,28.9809,衢州市,衢州学院,细颗粒物(PM2.5),69,58,38,50,32,13,,,,32,20,4,4,0.3,0.2
2026-01-03T0700,4097A,118.9646,28.9832,衢州市,衢州三中,细颗粒物(PM2.5),89,87,48,66,35,3,,,,41,22,4,4,0.5,0.4
2026-01-03T0700,1611A,118.5818,24.9116,泉州市,涂山街,,29,25,25,20,15,69,,,,8,10,2,3,0.4,0.5
2026-01-03T0700,1612A,118.597,24.8976,泉州市,津头埔,,35,26,24,24,16,68,,,,10,11,4,4,0.4,0.5
2026-01-03T0700,1613A,118.6669,24.9422,泉州市,万安,,30,30,27,20,13,64,,,,12,10,4,4,0.2,0.4
2026-01-03T0700,4105A,118.6355,24.9148,泉州市,霞新路6号,,43,38,29,30,20,66,,,,9,9,/,/,0.3,0.4
2026-01-03T0700,2626A,88.8873,29.2723,日喀则市,日喀则监测站,,25,10,25,3,12,80,,,,3,15,8,12,0.3,0.6
2026-01-03T0700,3726A,88.8775,29.2425,日喀则市,林业技术推广中心,,29,9,20,3,5,90,,,,2,3,11,10,0.2,0.3
2026-01-03T0700,1659A,119.4711,35.421,日照市,监测站,细颗粒物(PM2.5),89,95,59,66,39,1,,,,56,42,13,13,1.3,0.8
2026-01-03T0700,1660A,119.523,35.4216,日照市,市政府广场,细颗粒物(PM2.5),83,78,52,61,35,15,,,,50,35,12,13,0.6,0.5
2026-01-03T0700,1661A,119.5511,35.4113,日照市,港务局,细颗粒物(PM2.5),92,88,66,68,42,5,,,,60,39,12,13,0.8,0.6
2026-01-03T0700,3507A,119.5326,35.4627,日照市,职业技术学院,细颗粒物(PM2.5),70,75,53,51,28,23,,,,45,36,11,11,0.9,0.7
2026-01-03T0700,3604A,119.3267,35.1043,日照市,岚山环保分局,细颗粒物(PM2.5),129,119,74,98,52,13,,,,52,36,22,18,1.4,1
2026-01-03T0700,1835A,111.1922,34.7752,三门峡市,市政府,细颗粒物(PM2.5),166,,97,126,112,41,,,,21,27,6,8,0.8,0.8
2026-01-03T0700,1836A,111.1588,34.794,三门峡市,开发区,细颗粒物(PM2.5),147,127,117,112,107,37,,,,19,23,3,4,0.8,0.8
2026-01-03T0700,3039A,111.1911,34.7829,三门峡市,三门峡市第一小学,细颗粒物(PM2.5),148,,100,113,106,39,,,,17,24,7,9,0.8,0.9
2026-01-03T0700,3598A,111.1031,34.719,三门峡市,富达温泉假日酒店,细颗粒物(PM2.5),152,126,114,116,109,39,,,,30,36,11,13,0.9,0.9
2026-01-03T0700,2324A,117.621,26.2626,三明市,三钢,,22,22,18,8,13,13,,,,18,15,7,4,0.6,0.8
2026-01-03T0700,2325A,117.6352,26.2714,三明市,三明二中,,19,19,18,12,12,12,,,,15,12,6,4,0.6,0.6
2026-01-03T0700,2326A,117.6028,26.2377,三明市,三元区政府,,12,10,13,8,9,6,,,,18,14,3,3,0.5,0.4
2026-01-03T0700,1877A,109.4962,18.2682,三亚市,河西子站,,27,24,42,17,35,85,,,,8,8,4,4,0.6,0.6
2026-01-03T0700,3540A,109.7348,18.3443,三亚市,君悦子站,,25,23,42,17,25,74,,,,9,8,5,6,0.6,0.6
2026-01-03T0700,4135A,109.1714,18.3739,三亚市,城东小学站,,26,22,37,18,30,76,,,,6,8,/,/,/,/
2026-01-03T0700,2624A,91.7592,29.234,山南市,山南监测站,,25,6,17,3,6,78,,,,1,4,2,4,0.2,0.2
2026-01-03T0700,2625A,91.7701,29.2436,山南市,山南人民医院,,22,8,15,6,6,69,,,,2,4,1,2,0.2,0.3
2026-01-03T0700,1674A,116.6795,23.3666,汕头市,金平子站,,28,23,25,19,14,28,,,,20,14,11,6,0.8,0.7
2026-01-03T0700,1675A,116.7248,23.3632,汕头市,龙湖子站,,23,23,23,10,11,34,,,,17,11,13,10,/,/
2026-01-03T0700,1676A,116.7257,23.2774,汕头市,濠江子站,,32,26,29,22,16,45,,,,17,15,8,8,/,/
2026-01-03T0700,1677A,116.7518,23.4712,汕头市,澄海子站,,25,25,24,15,12,24,,,,20,13,11,7,0.7,0.7
2026-01-03T0700,1678A,116.6088,23.2539,汕头市,潮阳子站,,21,21,25,14,11,34,,,,16,12,9,7,0.5,0.6
2026-01-03T0700,3444A,116.4539,23.2684,汕头市,潮南峡山,,25,25,23,17,13,28,,,,18,14,11,9,0.6,0.6
2026-01-03T0700,3624A,116.4069,23.2533,汕头市,潮南子站,,22,22,27,15,16,29,,,,17,16,9,7,/,/
2026-01-03T0700,1693A,115.3653,22.7751,汕尾市,市环保局,,20,15,20,14,10,47,,,,8,9,7,7,0.4,0.5
2026-01-03T0700,1695A,115.362,22.7926,汕尾市,新城中学,,22,,18,15,10,47,,,,6,6,6,5,0.4,0.4
2026-01-03T0700,2645A,109.9155,33.8714,商洛市,监测站,细颗粒物(PM2.5),78,64,60,57,55,36,,,,25,30,6,7,1.0,0.9
2026-01-03T0700,3045A,109.9647,33.8486,商洛市,商州区中学,细颗粒物(PM2.5),87,,57,64,59,27,,,,28,22,7,8,0.8,0.9
2026-01-03T0700,2408A,115.6701,34.4283,商丘市,环境监测站,细颗粒物(PM2.5),95,,86,71,73,65,,,,8,20,2,5,0.4,0.6
2026-01-03T0700,2409A,115.6458,34.4047,商丘市,粮食局,细颗粒物(PM2.5),95,,75,71,68,55,,,,9,24,3,7,0.5,0.5
2026-01-03T0700,3171A,115.6069,34.4465,商丘市,梁园区档案局,细颗粒物(PM2.5),95,,73,71,66,49,,,,12,24,3,7,0.5,0.5
2026-01-03T0700,4119A,115.6701,34.3767,商丘市,北海东路185号,细颗粒物(PM2.5),95,93,88,71,67,42,,,,16,22,1,5,0.8,0.8
2026-01-03T0700,4120A,115.6172,34.3704,商丘市,中山大街3号,细颗粒物(PM2.5),104,103,122,78,77,37,,,,16,28,1,5,0.5,0.6
2026-01-03T0700,1141A,121.401,31.2382,上海市,普陀,,47,47,37,28,22,14,,,,50,29,8,7,0.7,0.6
2026-01-03T0700,1142A,121.4774,31.2043,上海市,十五厂,,43,43,35,25,19,33,,,,35,20,11,7,1.0,0.7
2026-01-03T0700,1143A,121.4673,31.3011,上海市,虹口,,47,47,37,26,20,18,,,,39,20,12,10,0.4,0.3
2026-01-03T0700,1147A,121.4253,31.226,上海市,静安监测站,,42,41,33,29,23,28,,,,39,24,9,7,0.6,0.4
2026-01-03T0700,1148A,121.7029,31.1905,上海市,浦东川沙,,45,44,33,31,19,12,,,,49,20,8,7,0.8,0.4
2026-01-03T0700,1149A,121.5339,31.229,上海市,浦东新区监测站,,40,40,33,21,21,37,,,,32,21,11,7,1.0,0.7
2026-01-03T0700,1150A,121.5776,31.2038,上海市,浦东张江,,40,40,31,25,19,14,,,,48,18,9,7,0.9,0.6
2026-01-03T0700,3265A,121.4242,31.3303,上海市,宝山庙行,,44,44,34,27,20,14,,,,48,27,8,6,0.6,0.4
2026-01-03T0700,3266A,121.8789,31.4662,上海市,崇明上实东滩,细颗粒物(PM2.5),65,63,25,47,16,35,,,,13,7,4,4,0.1,0.1
2026-01-03T0700,3268A,121.316,31.2839,上海市,嘉定南翔,,46,46,38,30,21,2,,,,59,34,5,4,0.6,0.5
2026-01-03T0700,3269A,121.3357,30.7455,上海市,金山新城,,46,39,35,32,30,18,,,,40,27,7,8,0.7,0.8
2026-01-03T0700,3270A,121.4996,31.0741,上海市,闵行浦江,,41,41,34,23,21,0,,,,62,28,7,7,0.4,0.3
2026-01-03T0700,3271A,121.2886,31.1663,上海市,青浦徐泾,,42,42,33,26,22,0,,,,61,34,6,6,0.8,0.7
2026-01-03T0700,3272A,121.2193,31.0382,上海市,松江图书馆,,41,41,41,12,14,17,,,,40,28,6,8,0.4,0.5
2026-01-03T0700,3273A,121.3904,31.206,上海市,长宁仙霞,,43,43,34,26,20,7,,,,55,28,6,7,0.5,0.4
2026-01-03T0700,3274A,121.7964,31.0507,上海市,浦东惠南,,45,45,35,27,17,4,,,,56,25,5,4,0.9,0.6
2026-01-03T0700,3544A,121.4891,30.925,上海市,奉贤南桥新城,,47,47,38,32,24,11,,,,55,26,7,7,0.6,0.6
2026-01-03T0700,4183A,121.417401,31.16637,上海市,冠生园路458号,,,44,33,26,22,26,,,,45,28,,7,1.1,0.8
2026-01-03T0700,4205A,121.541914,31.268301,上海市,宁武路151号,,37,37,29,22,20,34,,,,31,21,7,6,1.2,0.8
2026-01-03T0700,2382A,117.9758,28.4439,上饶市,市监测站,颗粒物(PM10),52,54,33,33,20,31,,,,26,19,6,8,/,/
2026-01-03T0700,2383A,117.9521,28.4637,上饶市,凤凰光学,颗粒物(PM10),57,63,34,34,18,32,,,,21,19,12,10,0.6,0.6
2026-01-03T0700,3685A,117.897,28.4316,上饶市,双创科技城,细颗粒物(PM2.5),72,,33,52,30,48,,,,28,26,6,5,0.7,0.6
2026-01-03T0700,4211A,118.190438,28.444845,上饶市,裕丰大道,,,,29,,22,,,64,,,19,,8,,0.5
2026-01-03T0700,1669A,113.5821,24.7733,韶关市,市八中,,36,30,21,25,16,35,,,,22,13,7,7,0.5,0.5
2026-01-03T0700,1671A,113.5916,24.7973,韶关市,园林处,,36,30,21,25,17,54,,,,10,11,8,7,/,/
2026-01-03T0700,1673A,113.5971,24.6864,韶关市,曲江监测站,,28,25,20,19,15,13,,,,19,13,6,7,0.3,0.3
2026-01-03T0700,2809A,113.6668,24.7756,韶关市,大学路288号,,33,,15,23,17,27,,,,12,13,4,4,/,/
2026-01-03T0700,3622A,113.5556,24.8082,韶关市,碧湖山庄,,43,38,21,30,15,37,,,,14,11,11,6,0.4,0.4
2026-01-03T0700,2464A,111.5277,27.2442,邵阳市,市化工厂,细颗粒物(PM2.5),67,60,48,48,41,43,,,,16,15,13,10,0.8,0.8
2026-01-03T0700,2466A,111.4327,27.2276,邵阳市,市环保局,细颗粒物(PM2.5),67,,39,48,42,47,,,,12,13,7,5,1.0,1
2026-01-03T0700,4218A,111.446,27.2472,邵阳市,北塔二期4-26地块,细颗粒物(PM2.5),73,,42,53,46,44,,,,13,13,7,5,0.8,1.3
2026-01-03T0700,4219A,111.4739,27.2282,邵阳市,邵水西路287号,细颗粒物(PM2.5),69,,40,50,42,48,,,,17,18,14,12,0.5,0.6
2026-01-03T0700,1247A,120.6053,29.9927,绍兴市,城东开发委,细颗粒物(PM2.5),79,68,70,58,60,8,,,,33,26,7,9,0.8,0.7
2026-01-03T0700,2921A,120.5482,30.0003,绍兴市,树下王站,细颗粒物(PM2.5),64,67,75,46,54,12,,,,36,30,6,8,0.7,0.7
2026-01-03T0700,3408A,120.5685,29.936,绍兴市,绍兴中专,细颗粒物(PM2.5),72,70,77,52,60,3,,,,34,23,7,7,0.6,0.6
2026-01-03T0700,3409A,120.4905,30.086,绍兴市,柯桥区政府,细颗粒物(PM2.5),74,69,70,54,46,12,,,,35,30,4,6,0.6,0.6
2026-01-03T0700,3410A,120.8751,30.0249,绍兴市,重华小学,细颗粒物(PM2.5),72,68,62,52,50,21,,,,22,22,5,7,0.7,0.7
2026-01-03T0700,3411A,120.837,30.0137,绍兴市,上虞中学,细颗粒物(PM2.5),73,63,68,53,54,3,,,,37,31,10,10,0.6,0.6
2026-01-03T0700,3560A,120.4715,30.0414,绍兴市,柯桥妇保,细颗粒物(PM2.5),77,79,75,56,56,6,,,,28,24,5,6,0.8,0.8
2026-01-03T0700,3658A,120.6156,30.0762,绍兴市,袍江中学,细颗粒物(PM2.5),88,79,74,65,58,14,,,,35,30,6,7,0.9,0.8
2026-01-03T0700,1356A,114.0948,22.5506,深圳市,通心岭子站,,26,26,21,11,9,46,,,,8,9,7,7,0.6,0.6
2026-01-03T0700,1357A,114.1153,22.5713,深圳市,洪湖,,28,28,22,15,10,46,,,,10,10,8,8,0.6,0.6
2026-01-03T0700,1358A,113.9823,22.5398,深圳市,华侨城,,24,24,25,15,12,41,,,,17,22,/,/,/,/
2026-01-03T0700,1359A,113.9181,22.517,深圳市,南海子站,,28,28,29,12,12,39,,,,14,15,6,6,0.6,0.6
2026-01-03T0700,1360A,114.2345,22.565,深圳市,盐田,,23,23,20,11,8,56,,,,6,8,7,7,0.5,0.5
2026-01-03T0700,1363A,114.4911,22.5381,深圳市,南澳,,18,18,15,8,7,54,,,,8,8,/,/,/,/
2026-01-03T0700,1364A,114.41,22.6346,深圳市,葵涌,,19,19,17,12,8,47,,,,10,11,8,7,0.5,0.5
2026-01-03T0700,1365A,114.2967,22.5978,深圳市,梅沙,,22,22,19,15,9,54,,,,8,10,/,/,/,/
2026-01-03T0700,1366A,114.0563,22.7353,深圳市,观澜,,40,40,33,18,12,28,,,,33,16,7,7,0.6,0.6
2026-01-03T0700,3305A,114.0614,22.556,深圳市,莲花,,23,23,20,16,12,44,,,,13,14,/,/,/,/
2026-01-03T0700,3306A,114.0144,22.6163,深圳市,民治,,20,20,20,12,11,45,,,,13,15,/,/,/,/
2026-01-03T0700,3307A,114.1756,22.6421,深圳市,横岗,,27,27,21,18,12,48,,,,11,11,/,/,/,/
2026-01-03T0700,3447A,114.344,22.7115,深圳市,坪山,,27,27,25,17,11,48,,,,12,17,9,8,0.5,0.6
2026-01-03T0700,3623A,113.8952,22.586,深圳市,西乡,,26,26,24,16,10,41,,,,18,16,6,6,0.6,0.6
2026-01-03T0700,4220A,114.214113,22.713717,深圳市,黄阁路,,23,23,18,15,9,46,,,,10,9,7,7,0.5,0.5
2026-01-03T0700,1099A,123.5058,41.7084,沈阳市,浑南东路,细颗粒物(PM2.5),103,105,100,77,76,5,,,,56,59,7,14,2.0,1.5
2026-01-03T0700,1100A,123.4238,41.6992,沈阳市,新秀街,细颗粒物(PM2.5),97,115,108,72,70,8,,,,50,50,9,12,1.7,1.5
2026-01-03T0700,1102A,123.5903,41.8412,沈阳市,东陵路,细颗粒物(PM2.5),73,74,102,53,69,16,,,,38,46,14,14,1.4,1.5
2026-01-03T0700,1103A,123.4267,41.8466,沈阳市,陵东街,细颗粒物(PM2.5),90,100,95,67,72,0,,,,51,57,33,24,2.5,1.8
2026-01-03T0700,1104A,123.4116,41.7654,沈阳市,文化路,细颗粒物(PM2.5),104,112,98,78,70,5,,,,50,48,14,15,2.1,1.3
2026-01-03T0700,1105A,123.4673,41.787,沈阳市,小河沿,细颗粒物(PM2.5),87,90,95,64,72,4,,,,52,51,15,18,1.9,1.5
2026-01-03T0700,1106A,123.4019,41.7978,沈阳市,太原街,细颗粒物(PM2.5),125,121,103,95,84,0,,,,54,56,22,28,1.9,1.4
2026-01-03T0700,1108A,123.3778,41.9233,沈阳市,京沈街,细颗粒物(PM2.5),92,95,99,68,73,0,,,,57,59,27,24,2.2,1.4
2026-01-03T0700,2897A,123.2429,41.7341,沈阳市,沈辽西路,细颗粒物(PM2.5),88,96,109,65,79,0,,,,58,56,12,14,2.1,1.5
2026-01-03T0700,2900A,123.5951,41.9085,沈阳市,裕农路,颗粒物(PM10),54,58,82,35,61,33,,,,24,42,6,11,1.3,1.4
2026-01-03T0700,2429A,110.78,32.6494,十堰市,滨河新村,细颗粒物(PM2.5),117,,72,88,76,45,,,,18,17,/,/,1.0,1
2026-01-03T0700,2430A,110.7305,32.6408,十堰市,刘家沟,细颗粒物(PM2.5),123,98,81,93,74,30,,,,18,18,/,/,/,/
2026-01-03T0700,2431A,110.8843,32.5712,十堰市,铁二处,细颗粒物(PM2.5),119,,73,90,78,23,,,,20,24,6,6,1.0,1
2026-01-03T0700,3545A,110.8053,32.8401,十堰市,郧阳区金沙路,细颗粒物(PM2.5),100,76,74,75,63,48,,,,16,18,8,6,0.9,0.9
2026-01-03T0700,2709A,86.0391,44.298,石河子市,艾青诗歌馆,细颗粒物(PM2.5),120,134,99,91,79,5,,,,50,39,8,7,1.4,1.1
2026-01-03T0700,3442A,86.047,44.2331,石河子市,南区管委会,颗粒物(PM10),59,67,85,37,51,73,,,,15,22,6,6,0.8,0.9
2026-01-03T0700,4051A,86.0791,44.3018,石河子市,世纪广场,细颗粒物(PM2.5),147,158,109,112,75,3,,,,62,45,7,6,1.3,1.1
2026-01-03T0700,4167A,86.0126,44.2349,石河子市,城南景苑小区,颗粒物(PM10),56,61,80,25,39,67,,,,9,21,4,4,0.2,0.4
2026-01-03T0700,1030A,114.5919,38.0328,石家庄市,高新区,细颗粒物(PM2.5),118,139,116,89,76,3,,,,57,48,4,9,1.1,1.2
2026-01-03T0700,1032A,114.4556,38.0136,石家庄市,西南高教,细颗粒物(PM2.5),140,161,139,107,94,4,,,,57,50,1,4,1.5,1.4
2026-01-03T0700,1033A,114.533,38.0177,石家庄市,世纪公园,细颗粒物(PM2.5),115,128,115,87,79,4,,,,48,44,4,10,1.1,1.2
2026-01-03T0700,1034A,114.5105,38.0489,石家庄市,人民会堂,细颗粒物(PM2.5),134,153,125,102,85,5,,,,56,45,2,6,1.2,1.3
2026-01-03T0700,3456A,114.2887,38.0905,石家庄市,鹿泉一中,细颗粒物(PM2.5),113,127,124,85,77,14,,,,52,42,14,17,1.6,1.5
2026-01-03T0700,4024A,114.6491,37.9014,石家庄市,栾城区星河路,细颗粒物(PM2.5),155,143,107,118,79,11,,,,49,44,8,10,1.2,1
