timepoint,stationcode,longitude,latitude,area,positionname,primarypollutant,aqi,pm10,pm10_24h,pm2_5,pm2_5_24h,o3,o3_24h,o3_8h,o3_8h_24h,no2,no2_24h,so2,so2_24h,co,co_24h
2026-01-03T1800,2568A,102.2503,31.8896,阿坝藏族羌族自治州,马师校,,34,34,17,23,15,50,,63,63,25,15,4,4,0.6,0.6
2026-01-03T1800,3994A,102.2174,31.9016,阿坝藏族羌族自治州,马尔康中学西区,,23,23,9,15,8,61,,67,67,17,12,6,5,0.5,0.6
2026-01-03T1800,2695A,80.2899,41.1684,阿克苏地区,电视台,细颗粒物(PM2.5),58,58,82,41,48,48,,41,41,21,37,4,5,0.5,0.9
2026-01-03T1800,2696A,80.2592,41.1541,阿克苏地区,艺术中心,细颗粒物(PM2.5),64,55,82,46,60,55,,44,44,11,34,4,4,0.5,0.9
2026-01-03T1800,2205A,105.699,38.8409,阿拉善盟,蒙二幼,细颗粒物(PM2.5),84,67,51,62,42,74,,66,66,16,18,10,13,0.8,0.8
2026-01-03T1800,2206A,105.7198,38.8508,阿拉善盟,环保局新楼,细颗粒物(PM2.5),78,68,47,57,37,63,,58,58,17,15,10,12,0.9,0.9
2026-01-03T1800,2708A,88.1266,47.8515,阿勒泰地区,市站,,22,10,16,3,9,48,,82,43,43,29,18,9,0.3,0.4
2026-01-03T1800,4166A,88.1198,47.7931,阿勒泰地区,阿勒泰路33号,,22,22,13,3,4,64,,87,60,28,23,6,5,0.4,0.3
2026-01-03T1800,2630A,80.1171,32.4999,阿里地区,阿里监测站,,,6,3,3,3,81,,75,75,2,12,,10,0.3,0.4
2026-01-03T1800,3192A,80.0906,32.5029,阿里地区,阿里藏医院,,28,6,16,3,9,87,,76,76,2,9,9,14,0.4,0.5
2026-01-03T1800,2644A,109.0088,32.6974,安康市,汉滨区检察院,细颗粒物(PM2.5),74,56,44,54,44,28,,40,29,32,17,16,6,0.8,0.6
2026-01-03T1800,4054A,109.0324,32.6913,安康市,市邮政管理局,细颗粒物(PM2.5),78,63,47,57,43,18,,36,27,33,17,6,4,0.9,0.7
2026-01-03T1800,2291A,117.0806,30.5181,安庆市,环科院,细颗粒物(PM2.5),54,50,75,38,57,78,,72,72,17,19,7,5,0.4,0.5
2026-01-03T1800,2292A,117.0331,30.5118,安庆市,马山宾馆,细颗粒物(PM2.5),60,46,70,43,54,66,,74,74,27,27,6,5,0.4,0.7
2026-01-03T1800,2294A,116.9897,30.6146,安庆市,安庆大学,细颗粒物(PM2.5),59,46,59,42,50,67,,70,70,36,25,5,4,0.6,0.6
2026-01-03T1800,3173A,117.0598,30.5351,安庆市,市人大,细颗粒物(PM2.5),55,57,70,39,55,68,,72,72,29,25,8,6,0.4,0.6
2026-01-03T1800,3123A,105.9408,26.2431,安顺市,凤凰山,,19,14,14,13,10,20,,32,23,13,14,13,12,0.9,0.8
2026-01-03T1800,3124A,105.9443,26.2567,安顺市,金钟山,,15,12,16,10,12,22,,34,26,11,12,13,13,0.8,0.7
2026-01-03T1800,3125A,105.8983,26.248,安顺市,娄家坡,,19,17,16,13,12,17,,32,21,15,13,19,15,0.9,0.8
2026-01-03T1800,1819A,114.3552,36.1017,安阳市,红庙街,细颗粒物(PM2.5),149,,120,114,118,56,,47,47,32,32,5,4,1.1,1.2
2026-01-03T1800,1820A,114.361,36.0681,安阳市,银杏小区,细颗粒物(PM2.5),160,,125,122,130,54,,47,47,33,33,6,4,1.0,1
2026-01-03T1800,3141A,114.3921,36.0879,安阳市,信访局,细颗粒物(PM2.5),155,,126,118,122,58,,52,52,33,35,2,3,1.0,1.1
2026-01-03T1800,3669A,114.4706,36.0634,安阳市,左辅环卫站,细颗粒物(PM2.5),169,147,137,128,125,51,,55,55,25,19,6,4,0.9,0.8
2026-01-03T1800,4117A,114.2918,36.0769,安阳市,钢三路198号,细颗粒物(PM2.5),172,152,156,130,130,38,,46,46,45,30,5,5,1.0,1.1
2026-01-03T1800,1748A,123.0441,41.1201,鞍山市,深沟寺,细颗粒物(PM2.5),90,85,58,67,39,20,,42,39,54,33,13,15,1.3,1.5
2026-01-03T1800,1749A,123.011,41.0931,鞍山市,太阳城,细颗粒物(PM2.5),68,70,51,49,34,25,,58,33,48,33,17,23,1.1,1.9
2026-01-03T1800,1750A,123.0483,41.1445,鞍山市,太平,细颗粒物(PM2.5),93,110,71,69,42,21,,36,32,55,38,13,16,1.2,1.4
2026-01-03T1800,1751A,122.964,41.0968,鞍山市,铁西三道街,颗粒物(PM10),62,73,87,43,45,25,,38,38,56,46,26,25,1.8,2
2026-01-03T1800,1753A,123.0219,41.0822,鞍山市,明达新区,细颗粒物(PM2.5),73,76,56,53,37,24,,42,32,34,23,17,24,0.9,2
2026-01-03T1800,4201A,122.944647,41.082639,鞍山市,兴盛南路290号,细颗粒物(PM2.5),156,170,113,119,56,6,,35,34,81,51,22,20,1.6,1.7
2026-01-03T1800,2195A,107.4206,40.7609,巴彦淖尔市,附二中,细颗粒物(PM2.5),73,84,69,53,40,25,,31,31,42,37,11,11,0.7,0.7
2026-01-03T1800,2196A,107.37,40.7372,巴彦淖尔市,市环保大楼,颗粒物(PM10),64,77,64,39,37,30,,39,39,39,41,10,12,0.7,0.8
2026-01-03T1800,1956A,86.1476,41.7529,巴音郭楞蒙古自治州,孔雀公园,颗粒物(PM10),66,82,192,29,29,60,,52,52,7,24,7,7,0.3,0.4
2026-01-03T1800,1957A,86.1971,41.7166,巴音郭楞蒙古自治州,棉纺厂,颗粒物(PM10),69,88,201,6,23,62,,53,53,9,20,/,/,/,/
2026-01-03T1800,1958A,86.236,41.7172,巴音郭楞蒙古自治州,经济开发区,颗粒物(PM10),59,68,156,16,17,54,,47,47,10,17,4,4,0.5,0.5
2026-01-03T1800,3181A,106.776805,31.852614,巴中市,市五中,细颗粒物(PM2.5),52,44,39,36,33,65,,56,56,11,14,5,5,0.8,0.9
2026-01-03T1800,3183A,106.7419,31.8654,巴中市,圣泉水务公司,细颗粒物(PM2.5),52,38,29,36,27,53,,59,59,20,16,5,5,0.6,0.6
2026-01-03T1800,3616A,106.7617,31.8343,巴中市,市中心医院,,49,40,33,34,30,64,,60,60,17,17,6,6,0.8,0.8
2026-01-03T1800,2235A,122.7909,45.608,白城市,洮北区环保局,细颗粒物(PM2.5),53,49,30,37,27,39,,56,56,32,17,6,7,0.5,0.3
2026-01-03T1800,2236A,122.8741,45.5725,白城市,市环保局,,35,29,27,24,23,10,,52,49,57,18,8,6,0.4,0.4
2026-01-03T1800,2231A,126.4219,41.9172,白山市,喜丰,细颗粒物(PM2.5),55,57,67,39,36,47,,53,53,28,32,7,15,0.9,0.9
2026-01-03T1800,2232A,126.4082,41.9416,白山市,环保局,颗粒物(PM10),74,97,59,51,40,8,,43,41,56,29,14,12,1.8,1.2
2026-01-03T1800,2647A,104.1727,36.5448,白银市,第三小学,细颗粒物(PM2.5),59,47,50,42,53,77,,71,71,15,15,2,4,0.6,0.8
2026-01-03T1800,2648A,104.1467,36.5482,白银市,动力公司,细颗粒物(PM2.5),62,51,52,44,54,79,,73,73,12,12,4,4,0.5,0.6
2026-01-03T1800,2512A,106.6102,23.901,百色市,市监测站,颗粒物(PM10),53,55,26,34,18,40,,42,42,16,11,10,9,0.7,0.6
2026-01-03T1800,2513A,106.6524,23.8842,百色市,市中心血站,细颗粒物(PM2.5),59,61,29,42,26,41,,44,44,20,14,9,9,0.7,0.6
2026-01-03T1800,4133A,106.6273,23.8798,百色市,龙景西路,细颗粒物(PM2.5),78,67,31,57,30,38,,40,40,13,6,11,9,0.6,0.6
2026-01-03T1800,2270A,117.396,32.9389,蚌埠市,工人疗养院,颗粒物(PM10),93,135,86,53,55,77,,77,77,18,27,7,6,0.4,0.6
2026-01-03T1800,2271A,117.3606,32.9428,蚌埠市,百货大楼,细颗粒物(PM2.5),64,46,64,46,49,80,,76,76,13,25,6,6,0.4,0.6
2026-01-03T1800,2273A,117.4183,32.8909,蚌埠市,蚌埠学院,细颗粒物(PM2.5),54,56,58,38,44,70,,79,79,24,28,5,4,0.3,0.4
2026-01-03T1800,2274A,117.3534,32.9672,蚌埠市,淮上区政府,细颗粒物(PM2.5),65,56,71,47,55,74,,76,76,16,25,3,3,0.5,0.6
2026-01-03T1800,2275A,117.3143,32.8977,蚌埠市,高新区,细颗粒物(PM2.5),75,70,71,55,55,47,,68,68,37,32,7,7,0.4,0.4
2026-01-03T1800,3715A,117.3091,32.9314,蚌埠市,蚌埠田家炳中学,细颗粒物(PM2.5),79,73,78,58,57,64,,72,72,30,38,20,14,0.5,0.5
2026-01-03T1800,1585A,109.8761,40.6533,包头市,市环境监测站,细颗粒物(PM2.5),169,221,144,128,89,11,,13,13,127,71,60,30,5.3,3.2
2026-01-03T1800,1587A,109.9992,40.5843,包头市,包头八中,细颗粒物(PM2.5),138,166,134,105,98,13,,21,21,84,69,36,22,2.5,2.9
2026-01-03T1800,1589A,109.8641,40.6288,包头市,惠龙物流,细颗粒物(PM2.5),142,166,108,108,66,10,,16,16,100,66,56,29,3.5,2.6
2026-01-03T1800,1590A,110.0376,40.5546,包头市,东河鸿龙湾,细颗粒物(PM2.5),107,120,109,80,70,17,,30,30,97,77,34,21,2.4,2
2026-01-03T1800,3283A,109.9154,40.5684,包头市,滨河大厦,细颗粒物(PM2.5),119,120,96,90,70,19,,20,20,75,56,30,17,3.1,2.2
2026-01-03T1800,3419A,109.9449,40.6259,包头市,包头市委党校,细颗粒物(PM2.5),142,164,121,108,85,12,,17,17,90,70,48,30,3.1,2.9
2026-01-03T1800,3683A,109.8332,40.6577,包头市,昆区政府,细颗粒物(PM2.5),149,194,142,114,80,5,,12,12,120,74,68,40,4.6,3.2
2026-01-03T1800,1931A,107.0802,34.3129,宝鸡市,竹园沟,细颗粒物(PM2.5),70,,77,51,85,43,,53,53,12,17,6,6,0.6,0.7
2026-01-03T1800,1933A,107.1429,34.3549,宝鸡市,监测站,细颗粒物(PM2.5),89,,95,66,102,52,,47,47,21,28,4,4,0.8,0.9
2026-01-03T1800,1934A,107.1172,34.3759,宝鸡市,技工学校,细颗粒物(PM2.5),89,,90,66,101,58,,54,54,15,20,3,2,0.8,0.9
2026-01-03T1800,1936A,107.2025,34.3518,宝鸡市,文理学院,细颗粒物(PM2.5),88,,93,65,105,57,,52,52,23,26,4,3,0.7,0.7
2026-01-03T1800,1937A,107.2396,34.3626,宝鸡市,三迪小学,细颗粒物(PM2.5),89,,92,66,106,52,,54,54,31,27,3,3,0.8,0.9
2026-01-03T1800,4155A,107.1721,34.3558,宝鸡市,滨河北路,细颗粒物(PM2.5),75,63,104,55,92,58,,55,55,24,30,5,5,0.8,0.9
2026-01-03T1800,4308A,107.3898,34.3601,宝鸡市,陈仓区北开路21号,,,,105,,107,56,,49,49,27,28,5,4,,0.7
2026-01-03T1800,1051A,115.4803,38.8568,保定市,游泳馆,细颗粒物(PM2.5),189,182,127,142,104,20,,35,35,81,59,11,11,1.4,1.3
2026-01-03T1800,1052A,115.509,38.8895,保定市,华电二区,细颗粒物(PM2.5),202,163,114,152,101,31,,37,37,52,41,7,8,1.7,1.5
2026-01-03T1800,1053A,115.4588,38.9037,保定市,接待中心,细颗粒物(PM2.5),153,146,126,117,98,20,,30,30,64,50,7,6,,1
2026-01-03T1800,1054A,115.4484,38.8344,保定市,地表水厂,细颗粒物(PM2.5),173,195,157,131,110,18,,34,34,82,57,8,8,1.5,1.4
2026-01-03T1800,3581A,115.3136,38.9511,保定市,满城区生态环境分局,细颗粒物(PM2.5),178,180,152,134,106,18,,32,32,80,66,11,8,1.7,1.4
2026-01-03T1800,3582A,115.4709,38.7628,保定市,清苑区第二中学,细颗粒物(PM2.5),172,196,154,130,102,41,,38,38,61,55,13,11,1.3,1
2026-01-03T1800,3583A,115.6231,39.0223,保定市,徐水物探局,细颗粒物(PM2.5),182,210,170,137,108,20,,31,31,76,60,14,12,1.5,1.3
2026-01-03T1800,4004A,115.4199,38.8665,保定市,双鹰农机,细颗粒物(PM2.5),156,174,164,119,98,31,,40,40,62,53,12,12,1.4,1.2
2026-01-03T1800,4034A,115.515,38.8589,保定市,植保所站,细颗粒物(PM2.5),220,174,126,170,107,20,,31,31,90,64,8,7,1.4,1.2
2026-01-03T1800,2594A,99.1589,25.1137,保山市,市环境监测站,,26,19,17,18,19,62,,67,67,7,7,7,8,0.3,0.3
2026-01-03T1800,2595A,99.1616,25.1381,保山市,市环保局,,33,,20,23,20,64,,71,71,2,4,4,4,0.4,0.4
2026-01-03T1800,1867A,109.1435,21.4085,北海市,海滩公园,,44,44,36,20,23,139,,105,105,14,16,11,9,0.6,0.5
2026-01-03T1800,1868A,109.0983,21.466,北海市,新市环保局,,43,42,34,24,27,135,,96,96,16,15,6,4,0.7,0.7
2026-01-03T1800,1869A,109.1775,21.5232,北海市,北海工业园,,42,40,37,29,25,130,,100,100,12,12,11,8,0.7,0.6
2026-01-03T1800,3400A,109.1844,21.4396,北海市,龙潭自来水厂,,46,46,35,26,26,134,,103,103,14,14,10,9,0.6,0.6
2026-01-03T1800,1001A,116.3611,39.8786,北京市,万寿西宫,细颗粒物(PM2.5),85,86,62,63,38,15,,30,30,66,57,4,4,0.5,0.6
2026-01-03T1800,1003A,116.4174,39.9289,北京市,东四,颗粒物(PM10),59,67,54,33,30,13,,38,36,57,42,4,3,0.8,0.9
2026-01-03T1800,1004A,116.4073,39.8858,北京市,天坛,颗粒物(PM10),55,60,57,34,37,7,,34,34,62,47,3,3,0.7,0.7
2026-01-03T1800,1005A,116.4622,39.9364,北京市,农展馆,颗粒物(PM10),54,57,52,31,30,11,,39,37,57,41,6,5,0.8,0.7
2026-01-03T1800,1006A,116.3399,39.9293,北京市,官园,细颗粒物(PM2.5),80,90,59,59,35,25,,32,32,49,49,6,6,0.7,0.7
2026-01-03T1800,1007A,116.2879,39.9613,北京市,海淀万柳,颗粒物(PM10),61,72,52,40,28,17,,25,25,56,56,5,4,0.7,0.7
2026-01-03T1800,1008A,116.6635,40.1349,北京市,顺义新城,颗粒物(PM10),52,54,33,27,17,7,,54,48,60,26,6,4,0.6,0.5
2026-01-03T1800,1009A,116.6275,40.327,北京市,怀柔镇,颗粒物(PM10),53,56,25,29,15,9,,54,50,66,24,8,6,0.7,0.5
2026-01-03T1800,1010A,116.2295,40.217,北京市,昌平镇,,46,46,52,20,28,25,,23,23,44,45,5,5,0.7,0.8
2026-01-03T1800,1011A,116.3968,39.982,北京市,奥体中心,颗粒物(PM10),57,64,46,37,28,7,,30,30,78,56,6,5,0.9,0.8
2026-01-03T1800,3418A,116.8336,40.4095,北京市,密云新城,颗粒物(PM10),59,68,24,38,12,21,,60,55,55,14,5,3,0.7,0.5
2026-01-03T1800,3671A,116.0879,39.9725,北京市,门头沟三家店,颗粒物(PM10),68,86,67,40,32,21,,34,34,51,39,5,3,0.7,0.6
2026-01-03T1800,3672A,116.1507,39.8246,北京市,丰台云岗,细颗粒物(PM2.5),92,108,75,68,42,15,,33,32,67,51,5,3,0.8,0.6
2026-01-03T1800,3674A,115.9578,39.7602,北京市,房山燕山,颗粒物(PM10),65,79,62,42,36,27,,39,39,39,31,5,4,0.5,0.5
2026-01-03T1800,3675A,116.4669,39.7734,北京市,大兴旧宫,颗粒物(PM10),53,55,76,24,40,14,,34,34,52,48,3,3,0.6,0.8
2026-01-03T1800,3694A,115.9859,40.4562,北京市,延庆石河营,颗粒物(PM10),57,63,48,35,31,16,,41,41,51,28,4,4,0.9,1
2026-01-03T1800,3695A,116.6151,40.3052,北京市,怀柔新城,颗粒物(PM10),51,52,25,25,15,23,,52,50,42,17,5,4,0.5,0.3
2026-01-03T1800,3696A,116.2542,39.8764,北京市,丰台小屯,颗粒物(PM10),69,87,78,49,40,10,,21,21,62,59,5,4,0.8,0.9
2026-01-03T1800,3697A,116.8399,40.3843,北京市,密云镇,颗粒物(PM10),58,65,32,36,17,21,,55,54,48,32,3,1,0.6,0.5
2026-01-03T1800,4057A,115.9423,40.4431,北京市,延庆百泉,,42,42,45,25,31,31,,41,41,37,27,5,3,0.7,0.8
2026-01-03T1800,4058A,116.6598,39.9164,北京市,通州新华,颗粒物(PM10),51,52,63,24,33,7,,26,25,64,54,4,4,0.4,0.6
2026-01-03T1800,4182A,116.1942,39.9158,北京市,石景山八角,颗粒物(PM10),72,94,66,48,33,16,,25,25,57,53,6,4,0.5,0.5
2026-01-03T1800,4194A,117.078628,40.151726,北京市,平谷新城,细颗粒物(PM2.5),78,96,62,57,40,16,,31,31,71,39,6,2,0.8,0.7
2026-01-03T1800,1761A,123.8274146,41.31234549,本溪市,大峪,颗粒物(PM10),63,76,96,43,54,28,,35,35,40,42,15,16,1.4,2.6
2026-01-03T1800,1763A,123.7169,41.3094,本溪市,彩屯,细颗粒物(PM2.5),95,109,115,71,83,16,,38,38,58,46,12,17,1.4,2.8
2026-01-03T1800,1764A,123.7672166,41.28649327,本溪市,东明,细颗粒物(PM2.5),80,81,107,59,67,21,,34,34,56,47,19,16,2.8,3.2
2026-01-03T1800,1765A,123.799345,41.266614,本溪市,新立屯,细颗粒物(PM2.5),78,64,65,57,41,6,,28,27,60,45,13,17,1.6,2.6
2026-01-03T1800,1766A,123.829144,41.336777,本溪市,威宁,细颗粒物(PM2.5),125,96,110,95,62,12,,34,33,74,44,11,11,1.6,2
2026-01-03T1800,2587A,105.287,27.3133,毕节市,八中,,19,16,17,13,16,28,,33,26,16,15,9,9,0.8,0.7
2026-01-03T1800,2588A,105.3079,27.2987,毕节市,师专,,18,16,15,12,12,26,,34,27,16,13,8,8,0.8,0.7
2026-01-03T1800,4263A,105.3688,27.3598,毕节市,工业大道,,25,19,13,17,12,27,,33,29,11,9,9,9,/,/
2026-01-03T1800,1629A,117.9961,37.3604,滨州市,第二水厂,细颗粒物(PM2.5),122,144,86,92,54,46,,58,58,44,40,14,16,1.0,0.8
2026-01-03T1800,1630A,117.9789,37.3931,滨州市,北中新校,细颗粒物(PM2.5),138,132,83,105,60,55,,61,61,38,36,9,11,0.8,0.6
2026-01-03T1800,3514A,117.9379,37.3959,滨州市,中海酒店,细颗粒物(PM2.5),149,136,84,114,68,52,,68,68,47,38,10,13,1.7,0.7
2026-01-03T1800,3515A,117.9381509,37.35547456,滨州市,开发区一中,细颗粒物(PM2.5),156,139,91,119,68,48,,62,62,37,35,13,18,0.9,0.7
2026-01-03T1800,3516A,118.0914,37.6938,滨州市,金海六路,细颗粒物(PM2.5),149,154,90,114,61,28,,61,61,70,49,10,13,1.1,0.8
2026-01-03T1800,4028A,117.9955,37.3752,滨州市,滨州市西街道办事处,细颗粒物(PM2.5),160,144,84,122,68,44,,62,62,39,30,11,14,1.2,0.8
2026-01-03T1800,2311A,115.8071,33.8399,亳州市,污水处理厂,细颗粒物(PM2.5),67,60,77,48,70,68,,75,75,29,23,4,5,0.4,0.4
2026-01-03T1800,2312A,115.7789,33.8519,亳州市,三国揽胜宫,细颗粒物(PM2.5),62,61,87,44,63,64,,68,68,21,17,4,3,0.4,0.5
2026-01-03T1800,3332A,115.7631,33.803,亳州市,亳州学院,细颗粒物(PM2.5),65,59,89,47,73,68,,74,74,22,23,2,5,0.3,0.4
2026-01-03T1800,2693A,82.0482,44.8553,博尔塔拉蒙古自治州,市党校,细颗粒物(PM2.5),72,89,84,52,41,49,,48,48,21,23,5,4,1.1,1.1
2026-01-03T1800,2694A,82.0805,44.8966,博尔塔拉蒙古自治州,市环保局,颗粒物(PM10),68,86,93,45,43,40,,43,43,32,27,11,8,1.0,1
2026-01-03T1800,1071A,116.8733,38.2922,沧州市,沧县城建局,细颗粒物(PM2.5),208,172,105,158,84,37,,50,50,59,44,3,3,1.3,0.8
2026-01-03T1800,1072A,116.8462,38.3189,沧州市,电视转播站,细颗粒物(PM2.5),168,163,98,127,80,48,,49,49,40,33,14,9,1.0,0.7
2026-01-03T1800,1073A,116.8588,38.3161,沧州市,市环保局,细颗粒物(PM2.5),186,159,103,140,82,31,,36,36,44,31,8,7,1.0,0.7
2026-01-03T1800,3324A,116.8011,38.294,沧州市,河北水利电力学院,细颗粒物(PM2.5),163,178,108,124,73,30,,43,43,62,46,11,10,1.1,0.8
2026-01-03T1800,2622A,97.1813,31.1289,昌都市,昌都监测站,,39,39,30,3,9,101,,79,79,1,10,2,2,0.2,0.3
2026-01-03T1800,3719A,97.1707,31.1428,昌都市,昌都会议中心,,28,8,10,3,7,89,,74,74,1,2,1,2,0.4,0.4
2026-01-03T1800,2692A,87.2722,44.0298,昌吉回族自治州,新区政务中心,细颗粒物(PM2.5),93,114,123,69,74,47,,45,45,39,49,6,7,1.1,1.1
2026-01-03T1800,3613A,87.3069,44.0093,昌吉回族自治州,亚心广场,细颗粒物(PM2.5),119,144,135,90,82,52,,47,47,35,44,7,7,1.2,1.2
2026-01-03T1800,4164A,87.2057,43.9289,昌吉回族自治州,财政所,细颗粒物(PM2.5),83,88,87,61,51,77,,71,71,20,17,6,5,0.6,0.5
2026-01-03T1800,1120A,125.2874,43.9024,长春市,客车厂,细颗粒物(PM2.5),155,,74,118,69,18,,35,34,63,44,13,15,1.1,0.9
2026-01-03T1800,1121A,125.2943,43.8508,长春市,邮电学院,细颗粒物(PM2.5),134,123,81,102,59,25,,36,36,49,33,9,12,1.1,0.8
2026-01-03T1800,1122A,125.3648,43.8745,长春市,劳动公园,细颗粒物(PM2.5),125,123,80,95,57,28,,34,34,49,38,9,9,1.3,1.1
2026-01-03T1800,1123A,125.3233,43.8781,长春市,园林处,细颗粒物(PM2.5),122,111,74,92,58,26,,33,33,44,34,10,14,0.9,0.7
2026-01-03T1800,1124A,125.4604,43.7904,长春市,净月潭,细颗粒物(PM2.5),97,102,71,72,48,29,,40,36,43,25,8,10,1.1,0.9
2026-01-03T1800,1126A,125.38,43.8422,长春市,经开区环卫处,细颗粒物(PM2.5),120,134,90,91,56,19,,35,34,62,43,15,9,1.1,0.9
2026-01-03T1800,1127A,125.234,43.7761,长春市,高新区管委会,细颗粒物(PM2.5),158,128,85,120,73,14,,41,40,64,42,9,9,1.4,1.1
2026-01-03T1800,1128A,125.1695,43.83,长春市,岱山公园,细颗粒物(PM2.5),134,103,77,102,65,15,,44,42,62,43,9,12,1.0,0.8
2026-01-03T1800,4281A,125.334645,43.916281,长春市,北亚泰大街1068号,细颗粒物(PM2.5),135,111,80,103,68,20,,32,31,56,44,10,16,1.1,0.9
2026-01-03T1800,1335A,113.082,28.2421,长沙市,经开区环保局,细颗粒物(PM2.5),70,51,59,51,49,31,,32,28,20,22,3,3,0.5,0.4
2026-01-03T1800,1336A,112.8873,28.2202,长沙市,高开区环保局,细颗粒物(PM2.5),83,66,56,61,53,12,,39,28,35,16,4,4,0.8,0.7
2026-01-03T1800,1337A,113.0785,28.2012,长沙市,马坡岭,细颗粒物(PM2.5),65,58,55,47,46,39,,36,34,25,26,4,4,0.8,0.7
2026-01-03T1800,1338A,112.9448,28.1894,长沙市,湖南师范大学,细颗粒物(PM2.5),69,61,58,50,44,26,,40,40,40,24,4,4,0.7,0.5
2026-01-03T1800,1339A,113.0177,28.1322,长沙市,雨花区环保局,细颗粒物(PM2.5),62,57,57,44,46,28,,44,44,32,20,7,7,0.5,0.5
2026-01-03T1800,1340A,112.9795,28.2593,长沙市,伍家岭,细颗粒物(PM2.5),69,68,62,50,47,24,,31,25,21,19,4,4,0.5,0.5
2026-01-03T1800,1341A,113.002,28.1944,长沙市,火车新站,细颗粒物(PM2.5),70,71,62,51,50,26,,35,33,30,22,7,8,0.5,0.4
2026-01-03T1800,1342A,112.9846,28.1177,长沙市,天心区环保局,细颗粒物(PM2.5),63,52,54,45,43,36,,47,47,38,26,5,5,0.6,0.5
2026-01-03T1800,1343A,112.8906,28.1307,长沙市,湖南中医药大学,细颗粒物(PM2.5),60,51,53,43,46,42,,44,44,30,21,6,5,0.6,0.6
2026-01-03T1800,1727A,113.1146,36.1547,长治市,清华站,细颗粒物(PM2.5),92,,103,68,98,18,,42,42,71,48,17,15,1.0,1.3
2026-01-03T1800,1730A,113.0887,36.2126,长治市,审计局,细颗粒物(PM2.5),98,,97,73,95,13,,41,41,67,46,13,16,1.0,1.4
2026-01-03T1800,1731A,113.0845,36.1856,长治市,长治八中,细颗粒物(PM2.5),83,86,120,61,106,10,,40,40,63,42,15,15,1.1,1.5
2026-01-03T1800,2845A,113.1561,36.1912,长治市,德盛苑,细颗粒物(PM2.5),77,69,81,56,86,49,,54,54,35,28,10,11,0.9,1
2026-01-03T1800,3568A,113.0603,36.0464,长治市,向阳小学,细颗粒物(PM2.5),118,141,108,89,86,32,,55,55,68,39,19,17,1.1,1.2
2026-01-03T1800,3569A,112.8788,36.315,长治市,屯留一中,细颗粒物(PM2.5),103,82,77,77,74,33,,44,44,45,37,19,11,0.8,0.8
2026-01-03T1800,4189A,113.113092,36.199482,长治市,英华南巷50号,细颗粒物(PM2.5),85,86,107,63,98,26,,45,43,52,42,11,13,0.9,1.5
2026-01-03T1800,4190A,113.23666,36.33435,长治市,学府街1号,细颗粒物(PM2.5),87,,91,64,91,47,,55,55,42,38,13,14,1.2,1.8
2026-01-03T1800,1854A,111.696,28.9725,常德市,市二中,细颗粒物(PM2.5),90,70,74,67,69,43,,50,43,16,15,4,5,0.6,0.6
2026-01-03T1800,3138A,111.7152,29.0288,常德市,武陵区永安,细颗粒物(PM2.5),88,77,79,65,66,44,,52,45,16,15,3,3,0.7,0.6
2026-01-03T1800,3139A,111.6891,28.9881,常德市,鼎城区玉霞,细颗粒物(PM2.5),92,74,73,68,68,44,,53,41,18,17,6,7,0.7,0.7
2026-01-03T1800,3140A,111.6651,29.0526,常德市,武陵区长庚,细颗粒物(PM2.5),90,75,80,67,70,49,,55,38,16,18,3,4,0.6,0.6
2026-01-03T1800,1196A,119.9524,31.7586,常州市,市监测站,细颗粒物(PM2.5),98,118,53,73,35,55,,68,68,47,38,6,4,0.8,0.6
2026-01-03T1800,1200A,119.9351,31.703,常州市,武进监测站,细颗粒物(PM2.5),79,79,49,58,36,70,,73,73,30,34,10,8,0.5,0.5
2026-01-03T1800,3002A,119.9701,31.813,常州市,行政中心,细颗粒物(PM2.5),68,69,47,49,31,58,,67,67,37,35,7,6,0.8,0.6
2026-01-03T1800,3003A,120.0434,31.7726,常州市,经开区,细颗粒物(PM2.5),83,111,55,61,31,59,,70,70,35,34,13,5,1.4,0.9
2026-01-03T1800,3010A,119.8919,31.7892,常州市,钟楼,细颗粒物(PM2.5),62,64,48,44,32,48,,64,64,42,35,9,8,0.6,0.5
2026-01-03T1800,3429A,119.8595,31.706,常州市,武进经发区,细颗粒物(PM2.5),84,70,50,62,38,66,,75,75,33,35,11,9,0.8,0.6
2026-01-03T1800,3430A,119.5812,31.7256,常州市,金坛城区,细颗粒物(PM2.5),79,68,54,58,41,65,,63,63,25,27,10,8,0.8,0.8
2026-01-03T1800,4089A,119.9551,31.863,常州市,崇义南街5-H号,颗粒物(PM10),52,53,44,33,32,48,,66,66,45,41,6,6,0.7,0.6
2026-01-03T1800,2220A,120.4318,41.588,朝阳市,西梁,"颗粒物(PM10),细颗粒物(PM2.5)",58,65,139,41,83,33,,34,34,39,44,14,19,0.9,1.8
2026-01-03T1800,2221A,120.452,41.565,朝阳市,河畔小区,,30,25,87,21,65,50,,42,42,22,38,11,17,0.6,1.5
2026-01-03T1800,2222A,120.4176,41.5648,朝阳市,八里堡,细颗粒物(PM2.5),89,89,82,66,60,14,,37,37,66,42,20,19,1.5,1.5
2026-01-03T1800,3026A,116.6179,23.6608,潮州市,市政府,颗粒物(PM10),56,62,26,38,15,108,,91,91,14,6,8,6,0.4,0.3
2026-01-03T1800,4036A,116.646,23.676,潮州市,金山,细颗粒物(PM2.5),63,54,23,45,16,109,,89,89,14,5,5,4,0.3,0.3
2026-01-03T1800,2473A,113.0116,25.8228,郴州市,市职中,细颗粒物(PM2.5),53,41,38,37,36,36,,37,37,12,9,6,3,0.5,0.5
2026-01-03T1800,2475A,113.0381,25.8074,郴州市,市审计局,细颗粒物(PM2.5),58,46,41,41,38,36,,36,36,16,12,5,2,/,/
2026-01-03T1800,2476A,113.0348,25.7757,郴州市,市环保局,,49,49,45,33,34,36,,36,36,16,14,4,3,0.5,0.5
2026-01-03T1800,4252A,113.0138,25.8011,郴州市,好美居路49号,细颗粒物(PM2.5),57,54,45,40,42,39,,40,40,15,8,7,4,/,/
2026-01-03T1800,1431A,103.9727,30.7242,成都市,金泉两河,,15,14,23,3,9,17,,29,19,29,24,2,2,0.6,0.6
2026-01-03T1800,1432A,104.1423,30.6765,成都市,十里店,,15,,16,10,10,20,,31,20,25,20,3,3,0.6,0.6
2026-01-03T1800,1433A,104.0594,30.5765,成都市,三瓦窑,,18,18,18,3,9,21,,30,20,27,22,3,2,0.6,0.6
2026-01-03T1800,1434A,104.1122,30.6306,成都市,沙河铺,,27,27,25,17,14,17,,26,15,29,23,3,3,0.6,0.5
2026-01-03T1800,2880A,104.0219,30.6561,成都市,大石西路,,30,22,27,21,17,14,,24,15,27,21,4,4,0.5,0.5
2026-01-03T1800,3136A,104.2724,30.559,成都市,龙泉驿区区政府,,13,9,9,9,8,15,,18,12,18,15,5,6,0.7,0.7
2026-01-03T1800,3357A,104.0028,30.6891,成都市,金博路,,15,,13,3,11,13,,24,15,29,23,4,4,0.8,0.7
2026-01-03T1800,3359A,104.056,30.5228,成都市,华阳,,14,9,14,9,12,17,,28,16,28,24,3,2,0.6,0.6
2026-01-03T1800,3488A,104.387954,30.746684,成都市,青石路225号,,8,6,19,3,17,24,,,,15,15,5,4,0.8,0.7
2026-01-03T1800,3489A,104.0788,30.4054,成都市,科学城,,12,9,13,8,11,15,,30,17,22,16,5,5,0.8,0.8
2026-01-03T1800,4011A,103.8505,30.6946,成都市,光华大道三段,,17,17,23,3,13,18,,34,20,26,20,2,2,0.7,0.7
2026-01-03T1800,4144A,104.3257,30.6406,成都市,八角井街185号,,18,18,22,10,10,20,,26,19,21,15,4,2,1.0,1
2026-01-03T1800,4224A,104.2433276,30.53529463,成都市,鲸龙路1057号,,17,17,14,10,12,21,,26,17,24,20,5,5,0.4,0.5
2026-01-03T1800,1062A,117.9531,40.908,承德市,铁路,细颗粒物(PM2.5),87,101,62,64,34,4,,24,23,58,36,19,11,1.7,1.2
2026-01-03T1800,1063A,117.9397,40.9763,承德市,中国银行,颗粒物(PM10),59,68,66,36,34,6,,30,29,45,31,8,6,1.4,1
2026-01-03T1800,4073A,117.9462,40.95,承德市,杏林街1号,颗粒物(PM10),54,58,56,36,35,9,,32,31,51,35,20,11,1.5,1.1
2026-01-03T1800,4274A,117.7994,40.9605,承德市,滨河大街98号,"颗粒物(PM10),细颗粒物(PM2.5)",54,58,66,38,27,20,,34,34,35,38,26,22,1.1,1.1
2026-01-03T1800,2314A,117.4698,30.6617,池州市,池州学院,细颗粒物(PM2.5),72,69,78,52,69,62,,64,64,35,26,5,5,0.5,0.7
2026-01-03T1800,3237A,117.4918,30.6617,池州市,展览馆,细颗粒物(PM2.5),57,55,72,40,56,63,,67,67,38,29,4,3,0.7,0.9
2026-01-03T1800,3333A,117.5626,30.695,池州市,第八中学,细颗粒物(PM2.5),68,60,75,49,62,59,,72,72,43,26,3,3,0.7,0.6
2026-01-03T1800,3334A,117.5037,30.6242,池州市,第十二中学,细颗粒物(PM2.5),69,63,80,50,65,66,,69,69,41,34,4,4,0.6,1.1
2026-01-03T1800,1744A,118.9229,42.2816,赤峰市,松山一中,颗粒物(PM10),87,124,96,53,52,5,,25,25,78,56,48,25,2.2,1.8
2026-01-03T1800,1745A,118.9588,42.2733,赤峰市,哈达街,颗粒物(PM10),94,137,97,66,57,12,,34,33,68,47,56,31,2.2,1.6
2026-01-03T1800,1746A,118.8792,42.2551,赤峰市,天义路,细颗粒物(PM2.5),109,84,60,82,49,10,,41,40,81,50,56,20,2.0,1.3
2026-01-03T1800,3058A,119.2656,42.0356,赤峰市,银河街,细颗粒物(PM2.5),104,136,142,78,98,32,,45,45,64,38,40,30,3.2,2.8
2026-01-03T1800,3286A,118.9359,42.3146,赤峰市,桥北物流园区,细颗粒物(PM2.5),124,101,64,94,54,20,,39,39,64,43,28,21,2.1,1.3
2026-01-03T1800,2521A,107.3473,22.4137,崇左市,市环保局江州分局,颗粒物(PM10),53,55,30,32,20,53,,44,44,22,13,9,8,0.9,0.6
2026-01-03T1800,4256A,107.375,22.3736,崇左市,石景林东路7号,,43,36,27,30,18,62,,51,51,18,16,8,8,0.6,0.6
2026-01-03T1800,3207A,118.31131,32.3033,滁州市,市政府原办公楼,细颗粒物(PM2.5),64,71,54,46,38,45,,66,66,46,29,7,5,1.1,0.6
2026-01-03T1800,3331A,118.3268,32.2633,滁州市,图书馆,细颗粒物(PM2.5),88,,41,65,43,47,,68,65,45,21,10,9,1.1,0.6
2026-01-03T1800,4101A,118.3196,32.3335,滁州市,银山路666号,细颗粒物(PM2.5),75,67,44,55,49,45,,64,64,40,21,12,8,1.4,0.7
2026-01-03T1800,4102A,118.3426,32.2979,滁州市,黄山路555号,细颗粒物(PM2.5),69,69,57,50,47,62,,71,71,38,27,13,10,1.2,0.6
2026-01-03T1800,2606A,101.5379,25.0492,楚雄彝族自治州,市经济开发区,,22,12,30,8,22,69,,59,59,5,19,4,5,0.5,0.5
2026-01-03T1800,4153A,101.5536,25.0343,楚雄彝族自治州,团结路562号,,21,11,25,3,22,67,,60,60,4,15,2,3,0.4,0.5
2026-01-03T1800,2549A,107.5087,31.2186,达州市,市环境监测站,细颗粒物(PM2.5),55,51,36,39,27,35,,55,52,36,24,5,5,0.4,0.4
2026-01-03T1800,2550A,107.4988,31.2132,达州市,凤凰小区,细颗粒物(PM2.5),55,51,37,39,29,42,,57,55,27,19,3,3,0.4,0.4
2026-01-03T1800,2551A,107.5081,31.1987,达州市,达县机关宾馆,,,63,42,35,36,40,,56,55,28,27,,2,,0.7
2026-01-03T1800,2552A,107.4644,31.2124,达州市,市政中心,颗粒物(PM10),58,66,48,39,30,54,,61,60,23,24,5,5,0.3,0.3
2026-01-03T1800,2614A,100.2168,25.5818,大理白族自治州,大理市环境监测站,,22,16,18,15,19,63,,62,62,11,11,6,6,0.5,0.5
2026-01-03T1800,2615A,100.1542,25.7055,大理白族自治州,大理古城,,23,17,23,16,9,56,,86,74,15,5,8,8,0.6,0.5
2026-01-03T1800,1109A,121.6119,38.974,大连市,甘井子,细颗粒物(PM2.5),58,62,58,41,48,52,,57,57,34,35,10,12,0.6,0.4
2026-01-03T1800,1110A,121.565,38.9509,大连市,周水子,细颗粒物(PM2.5),55,56,60,39,46,30,,50,50,53,37,13,6,0.6,0.8
2026-01-03T1800,1111A,121.5637,38.8849,大连市,星海三站,,45,45,51,28,46,45,,56,56,30,23,12,10,0.7,0.8
2026-01-03T1800,1112A,121.6301,38.9117,大连市,青泥洼桥,细颗粒物(PM2.5),59,48,54,42,47,29,,43,43,55,35,10,11,0.7,0.8
2026-01-03T1800,1113A,121.6248,38.8643,大连市,傅家庄,,50,50,55,31,43,34,,46,46,43,28,12,15,0.3,0.5
2026-01-03T1800,1114A,121.5117,38.8636,大连市,七贤岭,,48,48,52,24,39,60,,56,56,21,22,10,10,0.8,0.8
2026-01-03T1800,1116A,121.7507,39.1339,大连市,金州,细颗粒物(PM2.5),112,118,69,84,53,21,,61,56,66,33,14,13,1.0,0.8
2026-01-03T1800,1117A,121.7811,39.0495,大连市,开发区,细颗粒物(PM2.5),84,95,74,62,57,9,,39,38,67,42,6,8,1.0,1.1
2026-01-03T1800,1118A,121.9762,39.0631,大连市,双D港,,50,50,61,35,43,58,,57,57,24,25,16,14,0.8,0.9
2026-01-03T1800,4082A,121.2548,38.8188,大连市,旅顺,细颗粒物(PM2.5),90,86,68,67,44,43,,54,54,26,19,10,9,0.9,0.8
2026-01-03T1800,1789A,124.8085,46.0381,大庆市,大同区,细颗粒物(PM2.5),54,50,51,38,35,45,,52,50,22,19,7,6,0.5,0.4
2026-01-03T1800,1790A,125.1166,46.5255,大庆市,龙凤区,,39,39,44,21,33,39,,45,45,35,37,10,11,1.2,0.8
2026-01-03T1800,1791A,124.8894,46.4007,大庆市,红岗区,,38,32,37,26,27,38,,48,48,29,26,7,7,0.9,0.6
2026-01-03T1800,1792A,125.1391,46.578,大庆市,萨尔图区,,46,46,48,26,29,30,,40,40,34,29,8,9,0.5,0.6
2026-01-03T1800,1793A,124.9026,46.6217,大庆市,让胡路区,,45,35,33,31,31,43,,56,56,24,18,8,8,0.5,0.5
2026-01-03T1800,3481A,125.127,46.6277,大庆市,萨区政府监测点,,34,34,38,19,20,34,,49,49,31,26,9,11,0.7,0.8
2026-01-03T1800,1723A,113.2926,40.0759,大同市,云冈宾馆,颗粒物(PM10),87,123,95,59,51,6,,22,21,74,57,23,17,1.4,2.4
2026-01-03T1800,1724A,113.3437,40.0921,大同市,大同大学,颗粒物(PM10),72,93,73,44,40,3,,31,28,72,47,18,18,1.0,1.3
2026-01-03T1800,1725A,113.2637,40.129,大同市,安家小村,颗粒物(PM10),74,98,90,49,44,9,,29,28,68,51,23,20,1.3,1.7
2026-01-03T1800,3282A,113.3399,40.0586,大同市,大同市卫生学校,颗粒物(PM10),80,109,82,46,41,3,,22,20,74,55,21,17,0.9,1.5
2026-01-03T1800,3565A,113.1371,40.1122,大同市,云冈站,颗粒物(PM10),80,110,65,40,28,4,,26,25,70,41,25,16,1.5,0.9
2026-01-03T1800,3566A,113.1186,40.2556,大同市,图书馆,细颗粒物(PM2.5),99,116,73,74,51,15,,34,34,61,32,19,15,1.9,1.3
2026-01-03T1800,3567A,113.5931,40.0459,大同市,区一中,颗粒物(PM10),64,78,97,31,48,14,,39,37,66,49,38,35,1.0,1.2
2026-01-03T1800,4199A,113.2798248,40.09972476,大同市,魏都大道141号,颗粒物(PM10),87,124,129,54,56,6,,23,22,71,54,23,19,1.4,2.6
2026-01-03T1800,2269A,124.1068,50.4091,大兴安岭地区,科技局,,26,18,15,18,14,57,,55,55,3,3,5,5,0.3,0.3
2026-01-03T1800,3663A,124.117,50.4279,大兴安岭地区,红旗社区,,20,9,7,9,7,62,,63,63,5,4,6,6,0.2,0.2
2026-01-03T1800,1600A,124.33,40.0625,丹东市,江湾东路,细颗粒物(PM2.5),170,155,56,129,45,12,,45,42,60,26,20,15,2.0,1.2
2026-01-03T1800,1601A,124.4242,40.1513,丹东市,临江后街,细颗粒物(PM2.5),64,64,50,46,35,15,,49,47,57,30,24,13,2.1,1.2
2026-01-03T1800,1602A,124.3935,40.1461,丹东市,元宝山,细颗粒物(PM2.5),55,46,40,39,33,38,,45,45,30,24,13,13,1.0,1
2026-01-03T1800,1603A,124.3634,40.1093,丹东市,民主桥,细颗粒物(PM2.5),128,109,53,97,39,11,,48,43,63,30,17,16,1.7,0.9
2026-01-03T1800,3541A,109.5726195,19.51688767,儋州市,第一中学子站,,36,36,32,21,20,80,,73,72,6,6,4,4,0.6,0.6
2026-01-03T1800,3542A,109.5567,19.5187,儋州市,东坡学校子站,,34,34,34,18,18,85,,79,76,6,6,4,4,0.5,0.5
2026-01-03T1800,2616A,98.5611,24.4273,德宏傣族景颇族自治州,德宏州监测站,,33,33,52,22,44,60,,51,51,9,23,6,6,0.7,0.8
2026-01-03T1800,3677A,98.5887,24.4366,德宏傣族景颇族自治州,芒市人民政府综合楼,,44,44,47,15,32,53,,49,49,8,15,9,8,0.6,0.8
2026-01-03T1800,1901A,104.424,31.1209,德阳市,东山公园,,10,9,12,7,13,28,,31,26,10,9,2,2,0.7,0.7
2026-01-03T1800,1902A,104.3827,31.1318,德阳市,西小区,,22,22,25,12,14,28,,36,26,18,14,2,2,0.8,0.8
2026-01-03T1800,1904A,104.3553,31.1091,德阳市,耐火材料厂,,13,13,18,9,15,25,,31,22,20,18,1,2,0.7,0.7
2026-01-03T1800,4145A,104.4144,31.1495,德阳市,市林业局,,12,12,20,8,11,27,,30,25,12,10,2,2,0.7,0.7
2026-01-03T1800,1622A,116.3034,37.4675,德州市,儿童乐园,细颗粒物(PM2.5),153,166,112,117,81,48,,57,57,46,32,11,13,1.4,1.1
2026-01-03T1800,1624A,116.2992,37.4449,德州市,监理站,细颗粒物(PM2.5),160,156,106,122,80,56,,66,66,47,34,14,15,1.1,0.8
2026-01-03T1800,3066A,116.2722,37.438,德州市,九衢泉纯净水厂,细颗粒物(PM2.5),153,161,107,117,85,33,,54,54,57,36,21,16,0.9,0.7
2026-01-03T1800,3371A,116.3693,37.44,德州市,开发区人民医院,细颗粒物(PM2.5),128,144,109,97,73,58,,55,55,50,39,12,14,1.2,0.9
2026-01-03T1800,3511A,116.5687,37.3331,德州市,陵城艺术中心,细颗粒物(PM2.5),163,149,110,124,81,49,,54,54,53,46,17,21,1.1,0.9
2026-01-03T1800,4292A,116.352738,37.420875,德州市,新河东路,细颗粒物(PM2.5),153,153,107,117,81,43,,58,58,60,47,12,14,1.2,1
2026-01-03T1800,2621A,99.7054,27.8319,迪庆藏族自治州,迪庆州站,,27,22,18,10,12,86,,90,90,5,5,4,5,0.3,0.3
2026-01-03T1800,3180A,99.7122,27.8129,迪庆藏族自治州,质量技术监督局,,38,38,17,17,14,93,,96,96,6,6,6,5,0.5,0.4
2026-01-03T1800,4257A,104.6092,35.5962,定西市,将台街,细颗粒物(PM2.5),64,60,54,46,45,72,,64,64,14,16,8,8,0.5,0.6
2026-01-03T1800,4309A,104.6159,35.5701,定西市,正龙路62号,细颗粒物(PM2.5),70,68,56,51,47,64,,55,55,11,9,5,4,0.7,0.7
2026-01-03T1800,1390A,113.7943,23.0132,东莞市,东城石井,,40,40,29,24,18,97,,89,89,20,16,9,9,0.7,0.6
2026-01-03T1800,1391A,113.7384,22.9659,东莞市,南城西平,,38,38,29,23,16,102,,92,92,26,23,9,9,0.6,0.5
2026-01-03T1800,3319A,113.7283,23.041,东莞市,万江金泰,颗粒物(PM10),51,51,30,30,18,112,,90,90,20,16,6,6,0.7,0.6
2026-01-03T1800,4129A,113.8666,23.1062,东莞市,裕兴路,颗粒物(PM10),51,51,32,26,18,129,,102,102,18,12,6,5,0.7,0.6
2026-01-03T1800,4130A,114.0076,22.9739,东莞市,教育路1号,,47,47,35,24,19,76,,78,78,39,22,6,5,0.8,0.7
2026-01-03T1800,4131A,113.7981,22.8124,东莞市,长怡路1号,颗粒物(PM10),52,53,38,25,17,104,,74,74,23,21,8,8,0.6,0.6
2026-01-03T1800,1666A,118.6612,37.4313,东营市,市环保局,细颗粒物(PM2.5),134,132,87,102,60,50,,58,58,49,53,15,21,1.1,1.1
2026-01-03T1800,3036A,118.6903,37.4337,东营市,开发区管委会,细颗粒物(PM2.5),140,138,93,107,61,56,,59,59,50,57,19,23,1.1,1.2
2026-01-03T1800,3365A,118.5721,37.5654,东营市,垦利区民丰路,细颗粒物(PM2.5),138,136,90,105,61,62,,68,68,41,51,10,14,1.1,1
2026-01-03T1800,3498A,118.5063,37.8606,东营市,河口城区,细颗粒物(PM2.5),175,178,93,132,60,57,,66,66,46,42,7,5,1.2,0.9
2026-01-03T1800,3646A,118.4979,37.4623,东营市,胜利站,细颗粒物(PM2.5),153,150,91,117,64,25,,53,53,83,61,16,34,1.5,1.2
2026-01-03T1800,3734A,118.5753,37.4405,东营市,理想之城,细颗粒物(PM2.5),140,129,91,107,66,51,,58,58,48,53,8,14,1.2,1.2
2026-01-03T1800,1591A,110.0024,39.8127,鄂尔多斯市,综合楼,,31,31,52,7,29,36,,44,44,38,58,8,16,0.4,1
2026-01-03T1800,1592A,109.9485,39.8259,鄂尔多斯市,巴音孟克林场办事处,,36,36,50,17,23,36,,56,56,36,50,13,11,0.5,0.9
2026-01-03T1800,1593A,109.7734,39.5987,鄂尔多斯市,康泽苑,,22,19,19,12,11,68,,66,66,13,20,3,4,0.3,0.4
2026-01-03T1800,1594A,109.8121,39.5987,鄂尔多斯市,华泰汽车城,,19,19,27,3,11,56,,54,54,22,32,3,2,0.3,0.5
2026-01-03T1800,1595A,109.9734,39.7884,鄂尔多斯市,奥林花园,,41,41,65,3,23,43,,48,48,33,58,4,6,0.5,0.9
2026-01-03T1800,2436A,114.894,30.3989,鄂州市,市政府,细颗粒物(PM2.5),72,56,51,52,43,47,,62,62,35,30,9,6,0.9,0.7
2026-01-03T1800,2437A,114.8986,30.3714,鄂州市,赵家坝,细颗粒物(PM2.5),77,57,59,56,44,40,,60,60,29,25,10,8,0.5,0.4
2026-01-03T1800,3654A,114.8093,30.4091,鄂州市,精准医疗中心,细颗粒物(PM2.5),79,61,56,58,46,60,,72,72,25,20,5,4,0.8,1
2026-01-03T1800,2454A,109.4978,30.2979,恩施土家族苗族自治州,湖北民院,细颗粒物(PM2.5),69,,42,50,44,52,,58,55,17,10,6,6,0.7,0.6
2026-01-03T1800,3549A,109.5061,30.3771,恩施土家族苗族自治州,龙凤新区,细颗粒物(PM2.5),60,45,44,43,40,33,,47,45,13,9,7,7,0.6,0.5
2026-01-03T1800,2499A,108.3411,21.6159,防城港市,沙万,,,,41,36,23,85,,64,64,25,15,8,6,0.7,0.6
2026-01-03T1800,2500A,108.3515,21.7733,防城港市,防城档案局,细颗粒物(PM2.5),62,61,44,44,20,83,,61,61,22,15,6,5,0.8,0.6
2026-01-03T1800,2501A,108.3506,21.6414,防城港市,大海花园,颗粒物(PM10),59,68,33,31,23,86,,67,67,22,10,12,7,1.1,0.7
2026-01-03T1800,1371A,113.1293,23.0065,佛山市,湾梁,颗粒物(PM10),51,51,32,29,17,80,,70,70,36,24,/,/,/,/
2026-01-03T1800,1372A,113.1082,23.0477,佛山市,华材职中,,46,46,35,24,21,78,,73,73,35,22,6,7,0.5,0.5
2026-01-03T1800,1373A,113.1439,23.045,佛山市,南海气象局,颗粒物(PM10),51,51,33,28,18,73,,69,69,36,25,/,/,/,/
2026-01-03T1800,1374A,113.2879,22.8094,佛山市,顺德苏岗,,45,45,28,29,16,82,,69,69,36,24,/,/,0.7,0.6
2026-01-03T1800,1376A,112.8384,22.8678,佛山市,高明孔堂,细颗粒物(PM2.5),60,55,34,43,21,89,,79,79,32,20,/,/,/,/
2026-01-03T1800,1377A,112.8835,23.1584,佛山市,三水监测站,颗粒物(PM10),52,53,34,33,22,84,,74,74,25,19,5,5,0.5,0.5
2026-01-03T1800,1378A,112.8668,23.185,佛山市,三水云东海,颗粒物(PM10),61,71,35,28,21,74,,76,76,24,16,/,/,/,/
2026-01-03T1800,3625A,113.2568,22.7629,佛山市,容桂街道办,,48,48,28,29,18,82,,58,58,28,21,/,/,/,/
2026-01-03T1800,1282A,119.2681,26.0506,福州市,师大,,42,42,25,26,23,84,,90,90,33,18,7,7,0.4,0.4
2026-01-03T1800,1283A,119.2983,26.1028,福州市,五四北路,,28,25,23,16,18,87,,89,89,22,15,5,5,0.5,0.4
2026-01-03T1800,1284A,119.2648,26.0769,福州市,杨桥西路,,39,39,26,25,18,89,,90,90,20,12,5,5,/,/
2026-01-03T1800,3048A,119.5799,26.0937,福州市,九龙,,27,25,25,13,19,84,,92,92,17,17,6,5,0.4,0.4
2026-01-03T1800,3526A,119.5188,25.9666,福州市,吴航,,27,17,31,12,23,86,,94,94,14,14,5,5,0.5,0.4
2026-01-03T1800,4104A,119.3106,26.0648,福州市,路通桥巷6号,,41,41,30,20,22,88,,87,87,17,11,/,/,/,/
2026-01-03T1800,1755A,123.7974,41.8494,抚顺市,望花区,细颗粒物(PM2.5),128,139,124,97,85,22,,31,30,63,52,19,13,1.4,1.8
2026-01-03T1800,1756A,123.9161,41.8827,抚顺市,顺城区,细颗粒物(PM2.5),102,96,101,76,68,16,,37,34,71,49,14,14,1.4,1.7
2026-01-03T1800,1757A,124.0437,41.8615,抚顺市,东洲区,细颗粒物(PM2.5),119,117,87,90,66,4,,37,31,82,44,29,10,2.2,1.5
2026-01-03T1800,1758A,123.9246,41.8638,抚顺市,新抚区,细颗粒物(PM2.5),107,124,112,80,78,4,,34,30,81,50,14,11,1.7,1.7
2026-01-03T1800,1759A,124.0972,41.8961,抚顺市,大伙房水库,细颗粒物(PM2.5),109,104,79,82,58,6,,48,42,75,34,22,16,1.9,1.4
2026-01-03T1800,1760A,123.708,41.8386,抚顺市,沈抚新城,细颗粒物(PM2.5),143,144,116,109,91,20,,34,32,73,53,17,16,1.3,2
2026-01-03T1800,2377A,116.3544,27.9833,抚州市,市站,,45,44,49,31,35,70,,68,68,15,11,9,8,0.4,0.4
2026-01-03T1800,2378A,116.3562,27.9631,抚州市,血防站,,50,50,56,31,35,72,,64,64,17,15,9,6,0.7,0.6
2026-01-03T1800,2379A,116.3561,28.0007,抚州市,采茶剧团,,45,45,50,28,35,64,,65,65,15,9,11,6,0.6,0.6
2026-01-03T1800,2380A,116.3854,27.9648,抚州市,医学分院,颗粒物(PM10),51,51,52,26,33,78,,73,73,14,11,8,6,0.5,0.5
2026-01-03T1800,2207A,121.6095,41.9978,阜新市,工业园区,细颗粒物(PM2.5),90,92,115,67,61,16,,52,51,60,34,29,25,1.1,1
2026-01-03T1800,2208A,121.6567,42.0188,阜新市,长青街,,40,40,63,14,50,43,,56,56,24,31,12,20,0.4,0.8
2026-01-03T1800,2209A,121.6672,42.07,阜新市,农业园区,,41,41,50,19,31,50,,61,60,21,21,20,22,0.6,0.6
2026-01-03T1800,2211A,121.6343,42.0455,阜新市,玉龙新城,细颗粒物(PM2.5),84,84,92,62,56,8,,50,49,73,42,14,13,0.9,1
2026-01-03T1800,2301A,115.8276,32.8929,阜阳市,市监测站,,,62,85,52,69,67,,71,71,,21,4,4,0.5,0.6
2026-01-03T1800,2303A,115.8551,32.8606,阜阳市,开发区,细颗粒物(PM2.5),58,51,77,41,65,68,,72,72,22,23,4,4,0.4,0.5
2026-01-03T1800,2875A,115.783962,32.889217,阜阳市,阜阳职业技术学院,颗粒物(PM10),60,70,69,42,59,78,,78,78,15,18,5,5,0.6,0.6
2026-01-03T1800,3468A,115.79,32.8614,阜阳市,市规划展馆,细颗粒物(PM2.5),65,,81,47,69,78,,77,77,17,18,5,5,0.4,0.4
2026-01-03T1800,3469A,115.835101,32.918568,阜阳市,枣园社区,细颗粒物(PM2.5),73,53,82,53,73,66,,69,69,28,26,5,5,0.3,0.5
2026-01-03T1800,2669A,102.9097,34.9841,甘南藏族自治州,州政府,,,65,59,41,49,73,,69,69,,15,4,3,0.7,0.7
2026-01-03T1800,3380A,102.8915,34.9618,甘南藏族自治州,甘肃民族师范学院,细颗粒物(PM2.5),57,54,71,40,48,83,,75,75,14,22,3,3,0.4,0.6
2026-01-03T1800,2570A,101.96,30.048,甘孜藏族自治州,水桥子,,21,8,11,3,6,66,,54,54,9,14,7,6,0.5,0.5
2026-01-03T1800,3065A,101.9534,29.9976,甘孜藏族自治州,州环保局,,22,22,15,3,6,67,,60,60,11,14,6,6,0.5,0.7
2026-01-03T1800,2363A,114.9368,25.8663,赣州市,地委,,34,34,33,17,16,57,,64,64,22,12,8,7,0.7,0.5
2026-01-03T1800,2364A,114.946,25.8483,赣州市,气象台,,48,48,40,16,13,52,,67,67,41,15,3,2,0.8,0.6
2026-01-03T1800,2365A,114.932,25.8332,赣州市,市图书馆,,39,39,26,17,16,55,,58,58,30,15,3,4,0.7,0.5
2026-01-03T1800,2366A,114.8905,25.8472,赣州市,华坚鞋城,,37,37,29,22,17,54,,58,58,26,13,5,4,0.4,0.3
2026-01-03T1800,3109A,115.0094,25.8614,赣州市,赣县区卫计委,,32,,27,22,24,67,,65,65,14,11,8,7,0.4,0.3
2026-01-03T1800,2684A,106.2753,36.0057,固原市,监测站,细颗粒物(PM2.5),77,63,55,56,58,74,,66,66,18,16,3,3,0.6,0.6
2026-01-03T1800,2685A,106.2384,36.0189,固原市,新区,细颗粒物(PM2.5),80,66,56,59,64,75,,70,70,15,12,3,3,0.8,0.7
2026-01-03T1800,2544A,106.6307,30.4577,广安市,市委,,48,45,32,33,24,57,,54,54,18,18,6,6,0.8,0.8
2026-01-03T1800,2545A,106.6266,30.4662,广安市,友谊中学,细颗粒物(PM2.5),54,45,28,38,25,64,,64,64,7,6,6,6,0.5,0.5
2026-01-03T1800,2547A,106.6386,30.4551,广安市,广电花园,,48,43,28,33,25,41,,47,47,27,16,8,8,0.6,0.6
2026-01-03T1800,2902A,106.6347,30.4868,广安市,北辰小学,细颗粒物(PM2.5),52,46,29,36,25,60,,62,62,11,10,14,11,0.9,0.8
2026-01-03T1800,2524A,105.8211,32.4444,广元市,老城,,30,26,35,21,30,49,,45,45,25,23,2,3,0.9,0.8
2026-01-03T1800,2526A,105.8629,32.429,广元市,监测站,,39,39,38,27,29,41,,44,42,26,22,3,3,0.9,0.9
2026-01-03T1800,3617A,105.8047,32.4167,广元市,经开区,细颗粒物(PM2.5),52,39,32,36,36,41,,37,36,26,24,3,3,0.9,0.9
2026-01-03T1800,1345A,113.2346,23.1423,广州市,广雅中学,颗粒物(PM10),52,53,39,30,22,74,,68,68,33,20,3,3,0.6,0.4
2026-01-03T1800,1346A,113.2611,23.105,广州市,市五中,颗粒物(PM10),51,51,34,30,24,87,,78,78,40,27,8,8,/,/
2026-01-03T1800,1348A,113.3477,23.0916,广州市,广东商学院,,41,41,29,27,17,71,,65,65,30,19,6,6,0.4,0.3
2026-01-03T1800,1349A,113.4332,23.105,广州市,市八十六中,,39,39,28,21,20,66,,69,69,44,21,7,7,/,/
2026-01-03T1800,1350A,113.3506,22.9488,广州市,番禺中学,,39,39,35,27,21,86,,75,75,34,32,3,4,0.4,0.3
2026-01-03T1800,1351A,113.2147,23.3918,广州市,花都师范,,42,42,33,25,20,98,,82,82,27,16,8,8,0.5,0.4
2026-01-03T1800,1352A,113.2599,23.1329,广州市,市监测站,,43,42,36,30,24,78,,68,68,35,25,1,2,/,/
2026-01-03T1800,1353A,113.5618,23.3119,广州市,九龙镇镇龙,,49,49,26,31,18,88,,76,76,21,13,6,5,0.4,0.6
2026-01-03T1800,1354A,113.2764,23.1544,广州市,麓湖,,41,41,32,24,22,73,,69,69,26,20,8,8,0.3,0.3
2026-01-03T1800,2846A,113.3209,23.1323,广州市,体育西,颗粒物(PM10),51,52,32,30,22,82,,70,70,29,19,6,6,0.5,0.5
2026-01-03T1800,3298A,113.5718,23.5493,广州市,从化街口,,35,35,25,24,19,78,,79,79,25,12,10,8,0.6,0.5
2026-01-03T1800,3299A,113.3463,23.369,广州市,白云竹料,,43,43,28,25,19,92,,81,81,20,14,5,5,0.4,0.3
2026-01-03T1800,3300A,113.2981,23.2365,广州市,白云嘉禾,,50,50,36,26,22,87,,77,77,35,22,4,5,/,/
2026-01-03T1800,3301A,113.4256,23.1716,广州市,黄埔科学城,,36,36,30,22,20,87,,76,76,20,14,10,6,0.6,0.6
2026-01-03T1800,3302A,113.3942,23.0485,广州市,番禺大学城,,37,37,25,20,18,80,,76,76,24,18,6,6,0.5,0.5
2026-01-03T1800,3303A,113.4923,22.8169,广州市,南沙黄阁,颗粒物(PM10),62,73,36,42,22,120,,98,98,40,29,12,10,/,/
2026-01-03T1800,3304A,113.534,22.7893,广州市,南沙街,颗粒物(PM10),57,64,34,39,21,118,,97,97,37,26,10,8,0.6,0.5
2026-01-03T1800,3443A,113.2905,23.5541,广州市,花都梯面,,27,22,24,15,18,86,,78,78,11,10,6,9,/,/
2026-01-03T1800,3445A,113.786,23.7479,广州市,从化良口,,33,27,19,23,15,60,,67,67,13,8,7,7,/,/
2026-01-03T1800,3446A,113.805,23.2614,广州市,增城荔城,,28,26,22,19,15,83,,79,79,12,10,6,7,0.5,0.4
2026-01-03T1800,2506A,109.604387,23.066791,贵港市,江南子站,颗粒物(PM10),54,58,39,33,26,88,,70,70,19,16,8,7,0.8,0.7
2026-01-03T1800,2508A,109.5669,23.1065,贵港市,荷城子站,颗粒物(PM10),52,53,36,27,24,79,,65,65,19,15,6,4,0.7,0.6
2026-01-03T1800,3405A,109.5886,23.1172,贵港市,新世纪学校,颗粒物(PM10),53,56,40,35,29,83,,67,67,21,18,/,/,0.5,0.4
2026-01-03T1800,4260A,109.5933,23.095,贵港市,中山路155-3号,细颗粒物(PM2.5),52,47,35,36,32,91,,72,72,18,17,/,/,0.7,0.7
2026-01-03T1800,1439A,106.6863,26.6035,贵阳市,马鞍山,,14,14,14,9,14,19,,42,21,19,13,4,4,/,/
2026-01-03T1800,1441A,106.6241,26.6266,贵阳市,鉴湖路,,17,17,21,3,10,19,,48,27,25,16,3,2,0.7,0.5
2026-01-03T1800,1442A,106.7468,26.6344,贵阳市,燕子冲,,32,,16,22,20,22,,52,25,17,11,7,7,0.8,0.8
2026-01-03T1800,1443A,106.6556,26.4362,贵阳市,碧云窝,,24,24,24,3,11,21,,38,28,14,12,3,2,/,/
2026-01-03T1800,1445A,106.6963,26.6063,贵阳市,红边门,,28,,18,19,14,10,,43,13,24,14,10,6,/,/
2026-01-03T1800,1446A,106.7162383,26.56964667,贵阳市,新华路,,22,22,23,7,10,15,,45,19,23,14,7,5,0.5,0.4
2026-01-03T1800,1447A,106.6742,26.542,贵阳市,太慈桥,,14,14,17,3,11,26,,45,28,18,16,6,4,/,/
2026-01-03T1800,4230A,106.688212,26.56952,贵阳市,花果园大街66号,,12,,8,8,12,14,,37,18,22,16,1,2,/,/
2026-01-03T1800,4231A,106.687268,26.516892,贵阳市,漓江路57号,,10,9,16,3,11,16,,38,22,20,15,8,6,0.7,0.6
2026-01-03T1800,1864A,110.3091,25.2705,桂林市,龙隐路小学,细颗粒物(PM2.5),72,,29,52,40,42,,47,43,14,9,6,6,0.4,0.3
2026-01-03T1800,1865A,110.2849361,25.22909545,桂林市,八中,细颗粒物(PM2.5),65,58,30,47,35,34,,44,39,26,14,7,6,0.6,0.6
2026-01-03T1800,3531A,110.296,25.1254,桂林市,旅游学院,细颗粒物(PM2.5),52,39,24,36,22,45,,48,48,17,9,4,3,0.6,0.5
2026-01-03T1800,4222A,110.1835,25.2444,桂林市,环湖路276号,,49,44,34,34,30,38,,46,43,20,12,6,5,0.5,0.5
2026-01-03T1800,4301A,110.2803,25.2773,桂林市,信义路13号,细颗粒物(PM2.5),52,52,31,36,30,36,,49,41,26,14,4,4,0.6,0.5
2026-01-03T1800,2674A,100.2262,34.4854,果洛藏族自治州,玛沁县大武镇,颗粒物(PM10),52,54,49,16,11,80,,70,70,1,8,9,15,0.2,0.5
2026-01-03T1800,1130A,126.5557,45.8109,哈尔滨市,松北商大,细颗粒物(PM2.5),89,84,87,66,70,19,,36,36,50,37,11,9,0.9,0.9
2026-01-03T1800,1132A,126.6162,45.719,哈尔滨市,南岗学府路,细颗粒物(PM2.5),104,105,108,78,82,17,,25,25,43,37,9,10,1.1,1.1
2026-01-03T1800,1133A,126.6894,45.7733,哈尔滨市,太平宏伟公园,细颗粒物(PM2.5),85,83,97,63,73,22,,28,28,50,43,18,18,0.8,0.9
2026-01-03T1800,1134A,126.6361,45.7672,哈尔滨市,道外承德广场,细颗粒物(PM2.5),93,109,119,69,78,13,,27,26,60,48,12,16,0.4,0.7
2026-01-03T1800,1136A,126.644,45.7261,哈尔滨市,动力和平路,细颗粒物(PM2.5),90,95,106,67,81,22,,27,27,40,42,14,14,0.9,1.1
2026-01-03T1800,1137A,126.5933,45.7479,哈尔滨市,道里建国路,细颗粒物(PM2.5),117,97,101,88,86,14,,25,24,50,40,20,18,0.5,0.6
2026-01-03T1800,1138A,126.6127,45.6119,哈尔滨市,平房东轻厂,细颗粒物(PM2.5),254,,91,204,89,14,,28,28,54,35,6,5,,0.8
2026-01-03T1800,1139A,126.5875,45.9827,哈尔滨市,呼兰师专,细颗粒物(PM2.5),114,109,88,86,84,31,,40,40,36,39,12,13,1.0,1
2026-01-03T1800,1140A,126.6299,45.6799,哈尔滨市,省农科院,细颗粒物(PM2.5),129,118,108,98,86,12,,28,27,60,46,16,13,1.2,1.2
2026-01-03T1800,4282A,126.6769,45.7379,哈尔滨市,华山路1号,细颗粒物(PM2.5),105,102,112,79,81,19,,23,23,49,50,24,28,1.0,1.1
2026-01-03T1800,4283A,126.9717,45.5356,哈尔滨市,解放大街52号,细颗粒物(PM2.5),198,,91,148,82,24,,41,40,52,29,14,15,1.3,0.9
2026-01-03T1800,2688A,93.5124,42.8176,哈密市,地区监测站,颗粒物(PM10),51,52,46,23,33,57,,57,57,12,15,4,4,0.0,0.1
2026-01-03T1800,2689A,93.5014,42.8312,哈密市,哈密师范学校,,42,42,52,15,26,57,,56,56,13,26,6,7,0.1,0.4
2026-01-03T1800,2671A,100.9016,36.9464,海北藏族自治州,海晏县西海镇,,29,,62,20,54,86,,83,83,7,19,7,14,0.4,1
2026-01-03T1800,3867A,102.074,36.5056,海东市,平安区公安局北苑,细颗粒物(PM2.5),67,71,79,48,67,74,,66,66,21,20,29,16,1.0,1
2026-01-03T1800,4163A,102.0984,36.5119,海东市,滨河路,细颗粒物(PM2.5),93,79,74,69,72,62,,68,68,45,39,32,18,1.0,1
2026-01-03T1800,1410A,110.3189,20.0596,海口市,海南大学,,39,39,31,16,14,102,,96,96,9,9,5,6,0.3,0.3
2026-01-03T1800,1411A,110.2827,20.0051,海口市,秀英海南医院,,37,37,33,16,14,91,,86,86,9,10,8,8,0.3,0.4
2026-01-03T1800,1412A,110.3391,19.9979,海口市,海南师范大学,,42,42,35,17,15,99,,95,95,11,11,6,6,0.4,0.5
2026-01-03T1800,1413A,110.3303,20.0359,海口市,龙华路环保局宿舍,,37,37,34,18,15,102,,97,97,11,11,/,/,0.6,0.6
2026-01-03T1800,3539A,110.5111,19.9737,海口市,桂林洋子站,,41,41,29,20,16,96,,92,92,9,10,/,/,/,/
2026-01-03T1800,4134A,110.1952,20.0451,海口市,长滨二路9号,,31,30,26,17,16,98,,92,92,7,8,/,/,/,/
2026-01-03T1800,2673A,100.6158,36.2985,海南藏族自治州,共和县恰卜恰镇,细颗粒物(PM2.5),69,60,61,50,50,70,,69,69,17,22,11,12,0.7,0.8
2026-01-03T1800,2676A,97.373,37.376,海西蒙古族藏族自治州,德令哈市,,30,21,21,7,9,94,,91,91,14,10,11,12,0.5,0.6
2026-01-03T1800,1049A,114.492,36.5712,邯郸市,矿院,细颗粒物(PM2.5),201,,124,151,138,57,,48,48,38,35,6,4,1.2,1.1
2026-01-03T1800,1050A,114.4839,36.6136,邯郸市,丛台公园,细颗粒物(PM2.5),192,159,139,144,129,62,,52,52,32,33,9,7,1.2,1.2
2026-01-03T1800,3458A,114.7893,36.5592,邯郸市,香泉濮院小区,细颗粒物(PM2.5),175,,120,132,126,64,,63,63,29,25,5,5,1.0,1
2026-01-03T1800,3580A,114.1998,36.4439,邯郸市,峰峰矿区临水派出所,细颗粒物(PM2.5),180,,97,136,131,64,,60,60,29,33,9,12,1.1,1.4
2026-01-03T1800,4068A,114.5209,36.7697,邯郸市,建安街268号,细颗粒物(PM2.5),192,148,139,144,135,48,,44,44,54,48,16,10,1.7,1.5
2026-01-03T1800,4069A,114.5488,36.6177,邯郸市,丛台东路558号,细颗粒物(PM2.5),245,,168,195,129,67,,54,54,36,45,10,8,1.2,0.9
2026-01-03T1800,2635A,107.0155,33.0707,汉中市,市监测站,细颗粒物(PM2.5),65,,38,47,46,48,,47,44,23,17,4,4,0.7,0.6
2026-01-03T1800,2636A,107.0083,33.114,汉中市,鑫源开发区,细颗粒物(PM2.5),64,,38,46,51,49,,48,48,21,17,4,4,0.5,0.5
2026-01-03T1800,2637A,107.0072,33.0323,汉中市,南郑大河坎水厂,细颗粒物(PM2.5),74,56,54,54,52,42,,43,38,24,19,5,5,1.0,0.8
2026-01-03T1800,1223A,120.2073,30.2111,杭州市,滨江,细颗粒物(PM2.5),102,97,90,76,74,50,,59,59,52,33,8,7,0.5,0.5
2026-01-03T1800,1224A,120.0625,30.2737,杭州市,西溪,细颗粒物(PM2.5),85,81,83,63,69,55,,68,68,37,36,8,8,0.9,0.8
2026-01-03T1800,1226A,120.3417,30.315,杭州市,下沙,细颗粒物(PM2.5),132,105,85,100,69,40,,59,59,61,39,10,9,0.9,1.2
2026-01-03T1800,1227A,120.1252,30.2465,杭州市,卧龙桥,细颗粒物(PM2.5),83,74,82,61,68,47,,68,68,23,17,9,9,0.8,0.8
2026-01-03T1800,1228A,120.1902,30.2691,杭州市,浙江农大,细颗粒物(PM2.5),102,94,92,76,73,46,,64,64,60,40,5,4,0.5,0.5
2026-01-03T1800,1230A,120.1195,30.3121,杭州市,和睦小学,细颗粒物(PM2.5),90,85,96,67,74,54,,68,68,42,27,5,5,0.7,0.8
2026-01-03T1800,1231A,120.3076,30.4146,杭州市,临平镇,细颗粒物(PM2.5),105,109,89,79,68,40,,58,58,51,29,8,8,0.7,0.6
2026-01-03T1800,1232A,120.2753,30.1839,杭州市,城厢镇,细颗粒物(PM2.5),88,98,81,65,61,38,,61,61,69,36,10,8,0.4,0.5
2026-01-03T1800,1233A,120.0883,30.1808,杭州市,云栖,细颗粒物(PM2.5),84,83,86,62,71,55,,65,65,26,20,3,3,0.8,0.8
2026-01-03T1800,3557A,119.9463,30.0496,杭州市,镇二中,细颗粒物(PM2.5),100,76,74,75,74,64,,67,67,35,30,6,5,0.6,0.7
2026-01-03T1800,3558A,119.7184,30.2367,杭州市,市府大楼,细颗粒物(PM2.5),93,101,97,69,72,60,,72,72,30,20,10,10,0.8,0.8
2026-01-03T1800,3656A,120.1554,30.2863,杭州市,消防大队,细颗粒物(PM2.5),97,84,85,72,74,45,,62,62,49,28,7,6,0.3,0.3
2026-01-03T1800,1270A,117.1957,31.7845,合肥市,明珠广场,细颗粒物(PM2.5),67,68,82,48,62,58,,65,65,34,41,6,6,0.7,0.8
2026-01-03T1800,1271A,117.307,31.8765,合肥市,三里街,细颗粒物(PM2.5),70,66,79,51,59,57,,64,64,42,42,6,6,0.8,0.8
2026-01-03T1800,1272A,117.2587,31.8703,合肥市,琥珀山庄,细颗粒物(PM2.5),75,68,79,55,66,66,,74,74,31,39,8,9,0.9,0.9
2026-01-03T1800,1275A,117.2593,31.9376,合肥市,庐阳区,细颗粒物(PM2.5),70,73,83,51,59,60,,72,72,46,46,2,3,0.8,0.9
2026-01-03T1800,1276A,117.345251,31.861615,合肥市,瑶海区,细颗粒物(PM2.5),74,75,83,54,60,56,,71,71,44,47,5,5,0.9,1
2026-01-03T1800,1277A,117.3033,31.7967,合肥市,包河区,细颗粒物(PM2.5),77,61,84,56,70,65,,75,75,31,54,6,8,0.8,0.9
2026-01-03T1800,1278A,117.278,31.7392,合肥市,滨湖新区,细颗粒物(PM2.5),83,66,79,61,72,74,,78,78,26,37,5,5,0.8,0.9
2026-01-03T1800,1279A,117.1324,31.8395,合肥市,高新区,细颗粒物(PM2.5),53,46,73,37,57,60,,72,72,39,35,5,5,0.6,0.7
2026-01-03T1800,3464A,117.3802,31.9148,合肥市,高教基地,细颗粒物(PM2.5),82,66,82,60,65,60,,73,73,33,34,8,7,0.8,0.8
2026-01-03T1800,4098A,117.2518,31.8404,合肥市,中国科学技术大学,细颗粒物(PM2.5),57,50,75,40,58,76,,81,81,29,34,6,6,0.6,0.6
2026-01-03T1800,3614A,79.9241,37.0878,和田地区,地区环保局,,44,44,73,24,50,61,,44,44,8,24,1,3,1.0,0.7
2026-01-03T1800,3615A,79.9132,37.1137,和田地区,市环保局,颗粒物(PM10),57,64,69,21,44,55,,37,37,15,34,1,2,0.2,1.3
2026-01-03T1800,2517A,108.0496,24.6957,河池市,市环保站,,35,35,21,21,17,45,,46,43,10,9,10,4,0.7,0.6
2026-01-03T1800,4302A,108.0901,24.6945,河池市,上任中路54号,,43,36,24,30,24,38,,38,38,13,10,11,6,0.6,0.6
2026-01-03T1800,1697A,114.6962,23.7538,河源市,东埔,,33,29,22,23,19,67,,66,66,16,11,6,7,0.7,0.6
2026-01-03T1800,1698A,114.6895,23.7232,河源市,老城,,49,,22,34,16,71,,69,69,11,8,6,7,0.7,0.6
2026-01-03T1800,3374A,115.5562,35.089,菏泽市,定陶老年大学,细颗粒物(PM2.5),100,97,92,75,77,63,,69,69,30,21,2,2,0.7,0.7
2026-01-03T1800,4114A,115.4239,35.2593,菏泽市,黄河路600号,细颗粒物(PM2.5),124,115,102,94,97,74,,69,69,28,24,4,3,1.0,0.9
2026-01-03T1800,4115A,115.5025,35.2727,菏泽市,菏泽市人社局,细颗粒物(PM2.5),107,100,96,80,85,71,,65,65,26,21,2,2,0.6,0.6
2026-01-03T1800,4184A,115.479691,35.244011,菏泽市,永昌路1号,细颗粒物(PM2.5),107,97,100,80,86,75,,69,69,29,23,5,4,0.6,0.6
2026-01-03T1800,4193A,115.471542,35.280012,菏泽市,长城路999号,细颗粒物(PM2.5),100,100,98,75,78,83,,73,73,22,20,4,5,1.0,1
2026-01-03T1800,2514A,111.5264,24.4178,贺州市,环保小区,,43,34,35,30,30,80,,63,63,13,13,6,5,0.5,0.5
2026-01-03T1800,2515A,111.561,24.4074,贺州市,政协大楼,,41,41,35,25,28,71,,62,62,17,14,8,8,0.5,0.5
2026-01-03T1800,3534A,111.4744,24.455,贺州市,西湾,,36,36,35,22,29,83,,67,67,21,12,10,7,0.9,0.7
2026-01-03T1800,2385A,114.17,35.9019,鹤壁市,市监测站,细颗粒物(PM2.5),179,,131,135,113,44,,49,49,45,26,6,4,1.1,1.1
2026-01-03T1800,2386A,114.2953,35.7512,鹤壁市,市交警支队,细颗粒物(PM2.5),163,133,137,124,118,39,,37,37,51,39,7,6,1.0,1
2026-01-03T1800,2387A,114.2877,35.7302,鹤壁市,迎宾馆,细颗粒物(PM2.5),158,143,138,120,120,46,,44,44,38,33,8,6,1.1,1.1
2026-01-03T1800,3474A,114.2616,35.6824,鹤壁市,大新区,细颗粒物(PM2.5),132,108,132,100,106,38,,45,45,49,40,8,6,1.2,1.2
2026-01-03T1800,3596A,114.1573,35.9607,鹤壁市,南山宾馆,细颗粒物(PM2.5),156,131,121,119,104,49,,57,57,42,23,9,7,1.0,0.9
2026-01-03T1800,2244A,130.2537,47.3416,鹤岗市,哈啤分公司,,35,29,22,24,21,64,,65,65,7,6,7,7,0.4,0.3
2026-01-03T1800,2245A,130.2683,47.3087,鹤岗市,斯达机电,,39,32,26,27,23,69,,71,71,10,7,6,6,0.4,0.4
2026-01-03T1800,2246A,130.3114,47.3388,鹤岗市,东山纸板厂,,29,29,21,20,17,72,,72,72,6,6,7,7,0.3,0.4
2026-01-03T1800,2263A,127.4832,50.2524,黑河市,交通局,,25,19,14,17,15,62,,67,65,16,8,4,4,0.4,0.3
2026-01-03T1800,2264A,127.5146,50.2339,黑河市,环保局,,30,21,15,21,15,60,,64,63,14,10,5,5,0.4,0.3
2026-01-03T1800,1074A,115.6839,37.754,衡水市,电机北厂,细颗粒物(PM2.5),172,155,111,130,89,54,,51,51,34,28,7,6,1.0,0.7
2026-01-03T1800,1075A,115.6303,37.7318,衡水市,市监测站,细颗粒物(PM2.5),175,157,104,132,85,43,,50,50,44,34,7,7,1.2,0.8
2026-01-03T1800,3188A,115.6684,37.7216,衡水市,市城管局,细颗粒物(PM2.5),165,149,104,125,83,44,,51,51,50,33,9,8,1.0,0.8
2026-01-03T1800,3459A,115.599,37.5491,衡水市,地表水厂,细颗粒物(PM2.5),178,,90,134,88,28,,51,51,55,38,6,7,0.8,0.7
2026-01-03T1800,2457A,112.6209,26.9268,衡阳市,衡阳化工总厂,细颗粒物(PM2.5),59,50,49,42,48,64,,57,57,16,14,6,6,0.9,1
2026-01-03T1800,2458A,112.621,26.8957,衡阳市,珠晖区环保局,细颗粒物(PM2.5),65,53,46,47,47,51,,49,49,21,18,4,4,0.9,0.9
2026-01-03T1800,2459A,112.628,26.8654,衡阳市,市委党校,细颗粒物(PM2.5),60,,46,43,49,62,,54,54,15,16,8,9,0.9,0.9
2026-01-03T1800,2460A,112.6007,26.8977,衡阳市,市监测站,细颗粒物(PM2.5),67,69,72,48,53,60,,55,55,15,12,6,6,0.8,0.8
2026-01-03T1800,2461A,112.5658,26.9013,衡阳市,真空机电公司,细颗粒物(PM2.5),64,58,63,46,51,58,,55,55,17,16,8,8,0.8,0.8
2026-01-03T1800,3399A,112.6703,26.8817,衡阳市,师范学院,细颗粒物(PM2.5),63,60,62,45,46,56,,55,55,22,17,2,3,0.7,1.1
2026-01-03T1800,3038A,103.3757,23.3679,红河哈尼族彝族自治州,州图书馆,,15,12,7,6,4,48,,41,39,9,6,6,6,0.6,0.6
2026-01-03T1800,4154A,103.401,23.3561,红河哈尼族彝族自治州,蒙自市朝阳路,,23,,12,16,10,41,,47,39,6,5,9,9,0.6,0.5
2026-01-03T1800,1090A,111.6506,40.7517,呼和浩特市,呼市一监,细颗粒物(PM2.5),74,83,86,54,60,21,,35,35,57,51,11,8,1.0,1.3
2026-01-03T1800,1094A,111.7516,40.8369,呼和浩特市,如意水处理厂,细颗粒物(PM2.5),88,105,78,65,49,19,,35,35,61,58,18,16,1.0,1
2026-01-03T1800,1095A,111.727798,40.806187,呼和浩特市,二十九中,细颗粒物(PM2.5),95,96,70,71,43,20,,32,32,59,54,20,16,1.0,0.9
2026-01-03T1800,1097A,111.717,40.7617,呼和浩特市,化肥厂生活区,细颗粒物(PM2.5),77,92,76,56,45,23,,35,35,59,53,16,12,0.9,1.2
2026-01-03T1800,3699A,111.6519,40.8389,呼和浩特市,海东办,细颗粒物(PM2.5),78,102,85,57,50,11,,27,26,62,56,17,10,0.9,1
2026-01-03T1800,4275A,111.591512,40.827312,呼和浩特市,成吉思汗西街8号,细颗粒物(PM2.5),83,110,71,61,41,6,,19,19,61,52,12,11,1.1,1
2026-01-03T1800,4276A,111.6597,40.8077,呼和浩特市,公园东路75号,细颗粒物(PM2.5),77,102,80,56,47,21,,29,29,59,60,16,11,0.8,0.9
2026-01-03T1800,4277A,111.5427,40.7846,呼和浩特市,金海路35号,细颗粒物(PM2.5),79,93,74,58,44,5,,22,21,59,54,15,14,0.8,0.8
2026-01-03T1800,3061A,119.7511,49.1576,呼伦贝尔市,国华电力东,,27,27,24,14,18,36,,53,52,29,24,6,6,0.4,0.4
2026-01-03T1800,4279A,119.7569,49.2222,呼伦贝尔市,伊敏大街东7号,颗粒物(PM10),51,52,30,30,23,17,,32,28,41,28,8,7,0.6,0.5
2026-01-03T1800,1250A,120.075,30.867,湖州市,城西水厂,细颗粒物(PM2.5),74,81,89,54,67,57,,77,77,38,38,9,10,0.5,0.6
2026-01-03T1800,2873A,120.083,30.8929,湖州市,仁皇山新区,细颗粒物(PM2.5),104,91,83,78,67,60,,79,79,51,45,10,10,0.5,0.5
2026-01-03T1800,2907A,120.1846,30.8592,湖州市,吴兴区站,细颗粒物(PM2.5),100,95,78,75,64,66,,78,78,40,35,6,7,0.7,0.6
2026-01-03T1800,3562A,120.4146,30.8538,湖州市,南浔区站,细颗粒物(PM2.5),85,88,77,63,52,50,,68,68,46,32,6,6,0.7,0.6
2026-01-03T1800,1607A,120.904878,40.721091,葫芦岛市,龙港区,细颗粒物(PM2.5),92,73,103,68,84,42,,48,48,32,46,24,44,1.1,2.1
2026-01-03T1800,1608A,120.8382,40.7521,葫芦岛市,化工街,,49,46,97,34,64,40,,45,45,33,45,20,54,0.6,1.2
2026-01-03T1800,1609A,120.8339,40.7078,葫芦岛市,新区,,35,35,72,24,55,49,,49,49,27,50,14,23,0.7,1.3
2026-01-03T1800,1610A,120.8697,40.7679,葫芦岛市,东城区,细颗粒物(PM2.5),73,55,85,53,68,32,,46,46,48,46,20,32,1.1,1.5
2026-01-03T1800,2483A,109.9297,27.5383,怀化市,河西地税局,细颗粒物(PM2.5),64,,53,46,50,40,,49,41,13,11,4,4,/,/
2026-01-03T1800,2484A,109.9783,27.5342,怀化市,市四医院,细颗粒物(PM2.5),63,46,55,45,48,24,,37,29,13,10,10,9,0.7,0.6
2026-01-03T1800,2485A,109.9971,27.5579,怀化市,监测楼,,39,35,14,27,20,39,,42,41,12,12,2,6,0.3,0.4
2026-01-03T1800,1210A,119.0566,33.5991,淮安市,钵池山,,49,41,49,34,34,68,,71,71,23,24,8,10,0.5,0.5
2026-01-03T1800,1211A,119.0083,33.578,淮安市,北京南路,细颗粒物(PM2.5),52,46,64,36,36,47,,59,59,34,38,8,10,0.8,1
2026-01-03T1800,1212A,118.9938,33.6083,淮安市,市监测站,,42,29,42,29,35,58,,67,67,27,29,9,10,0.5,0.6
2026-01-03T1800,1213A,119.135,33.5038,淮安市,楚州区监测站,,46,44,51,32,36,53,,63,63,30,38,10,10,0.5,0.5
2026-01-03T1800,3426A,118.8757,33.2897,淮安市,新华书店,细颗粒物(PM2.5),64,68,49,46,37,54,,64,64,31,26,9,9,0.7,0.6
2026-01-03T1800,4092A,119.119691,33.550006,淮安市,枚皋中路89号,,40,35,59,28,46,70,,75,75,19,35,8,8,0.4,0.6
2026-01-03T1800,4206A,119.028838,33.631911,淮安市,承德北路606号,,43,41,53,30,34,65,,66,66,24,28,8,9,0.6,0.7
2026-01-03T1800,2282A,116.8005,33.9749,淮北市,监测站,细颗粒物(PM2.5),83,64,107,61,80,69,,72,72,29,32,9,9,0.5,0.6
2026-01-03T1800,2283A,116.8094,33.9008,淮北市,烈山区政府,,,,102,,83,67,,72,72,30,42,9,10,0.4,0.6
2026-01-03T1800,4017A,116.7926,33.9534,淮北市,市博物馆,细颗粒物(PM2.5),74,71,108,54,57,66,,71,71,26,31,10,11,0.3,0.6
2026-01-03T1800,4100A,116.8322,33.9884,淮北市,杜集区第一实验学校,细颗粒物(PM2.5),79,87,101,58,83,64,,68,68,18,21,8,8,0.5,0.6
2026-01-03T1800,2277A,116.8304,32.7726,淮南市,潘集区政府,细颗粒物(PM2.5),69,66,74,50,62,67,,73,73,27,29,5,6,0.6,0.6
2026-01-03T1800,2279A,116.8569,32.5949,淮南市,谢家集区政府,颗粒物(PM10),62,73,68,43,45,60,,70,70,38,31,6,8,0.4,0.4
2026-01-03T1800,2280A,116.8279,32.6333,淮南市,八公山区政府,细颗粒物(PM2.5),64,50,57,46,46,71,,73,73,17,19,4,5,0.4,0.5
2026-01-03T1800,2894A,117.0561,32.6536,淮南市,经济技术开发区消防队,细颗粒物(PM2.5),72,58,74,52,54,58,,65,65,33,34,5,5,0.4,0.5
2026-01-03T1800,3329A,117.011,32.5891,淮南市,山南新区,颗粒物(PM10),54,57,71,35,50,70,,70,70,22,26,2,2,0.4,0.5
2026-01-03T1800,4209A,117.003137,32.644456,淮南市,国庆中路369号,细颗粒物(PM2.5),70,61,63,51,60,57,,60,60,30,29,5,5,0.6,0.6
2026-01-03T1800,2446A,114.9021,30.474,黄冈市,职工中心,细颗粒物(PM2.5),59,61,49,42,34,55,,69,69,30,20,10,7,0.8,0.7
2026-01-03T1800,2929A,114.8858,30.4519,黄冈市,红卫路,细颗粒物(PM2.5),67,60,50,48,38,50,,63,63,36,24,10,8,0.7,0.6
2026-01-03T1800,3398A,114.9134,30.4446,黄冈市,市林业局,细颗粒物(PM2.5),64,67,50,46,40,51,,66,66,35,22,10,7,0.9,0.7
2026-01-03T1800,2672A,102.02,35.5101,黄南藏族自治州,同仁县隆务镇,细颗粒物(PM2.5),70,61,60,51,49,68,,70,70,16,6,12,10,0.9,0.6
2026-01-03T1800,2295A,118.2905,29.6965,黄山市,延安路89号,,48,35,32,33,29,73,,71,71,18,11,4,4,0.5,0.4
2026-01-03T1800,2297A,118.1369,30.2755,黄山市,黄山区政府5号楼,细颗粒物(PM2.5),55,56,48,39,37,44,,63,63,20,13,5,5,0.6,0.5
2026-01-03T1800,4210A,118.335445,29.720283,黄山市,滨江东路7-2号,细颗粒物(PM2.5),67,64,48,48,39,57,,69,69,28,13,/,/,/,/
2026-01-03T1800,2423A,115.0547,30.2332,黄石市,沈家营,"颗粒物(PM10),细颗粒物(PM2.5)",58,65,55,41,37,53,,66,65,19,16,7,7,1.2,1.1
2026-01-03T1800,2426A,114.899,30.211,黄石市,铁山,细颗粒物(PM2.5),78,,49,57,45,50,,64,63,31,18,5,5,0.8,0.8
2026-01-03T1800,2427A,115.0259,30.2108,黄石市,团城山,细颗粒物(PM2.5),63,60,55,45,42,68,,76,76,17,18,6,6,0.7,0.7
2026-01-03T1800,3149A,115.0174,30.1591,黄石市,笔架山北路,细颗粒物(PM2.5),64,74,67,46,41,58,,63,63,17,15,6,7,1.0,0.9
2026-01-03T1800,4185A,115.078022,30.21118,黄石市,磁湖东路29号,细颗粒物(PM2.5),72,63,57,52,45,51,,59,59,24,19,9,10,0.8,0.8
2026-01-03T1800,1392A,114.4181,23.0528,惠州市,河南岸金山湖子站,,32,32,26,22,14,72,,68,68,23,14,4,5,0.6,0.5
2026-01-03T1800,1393A,114.4055,23.0824,惠州市,下埔横江三路子站,,30,30,24,18,15,84,,74,74,13,9,8,7,0.6,0.5
2026-01-03T1800,1395A,114.4645,22.7832,惠州市,惠阳区承修路船湖子站,,,41,29,24,17,,,75,75,18,12,7,7,0.5,0.5
2026-01-03T1800,1396A,114.5316,22.7423,惠州市,大亚湾管委会子站,,36,36,26,19,13,100,,86,86,15,10,6,6,0.3,0.3
2026-01-03T1800,3314A,114.4334,22.8134,惠州市,惠阳秋长,颗粒物(PM10),52,53,26,26,16,101,,88,88,23,11,/,/,/,/
2026-01-03T1800,3452A,114.6521,22.7755,惠州市,大亚湾霞涌,,46,46,27,18,14,106,,86,86,12,11,/,/,/,/
2026-01-03T1800,4300A,114.4089,23.1147,惠州市,文华一路1号,,31,31,24,18,16,91,,81,81,13,10,/,/,/,/
2026-01-03T1800,2240A,130.9618,45.2926,鸡西市,环保局,,28,28,28,17,20,52,,55,55,12,8,7,6,0.4,0.3
2026-01-03T1800,2243A,130.9294,45.2959,鸡西市,第一中学,,27,27,25,15,19,59,,60,60,10,8,3,3,0.4,0.4
2026-01-03T1800,3707A,131.0069,45.2988,鸡西市,欧美日汽修厂,,30,27,30,21,22,60,,60,60,10,12,6,7,0.5,0.5
2026-01-03T1800,2367A,114.9753,27.0803,吉安市,红声器材厂,,34,34,41,20,23,77,,76,76,17,18,9,11,0.4,0.4
2026-01-03T1800,2369A,114.9903,27.1313,吉安市,市环境监测站,,35,35,38,23,26,75,,76,76,12,12,12,15,/,/
2026-01-03T1800,2370A,115.009527,27.096792,吉安市,青原区法院,,39,39,40,22,26,74,,73,73,15,16,9,14,0.5,0.5
2026-01-03T1800,1772A,126.54,43.8622,吉林市,哈达湾,,,80,51,59,40,35,,47,47,,27,14,11,,1.5
2026-01-03T1800,1773A,126.5843,43.8358,吉林市,东局子,细颗粒物(PM2.5),105,79,45,79,36,22,,45,43,48,23,11,8,1.8,1.1
2026-01-03T1800,1774A,126.5051,43.8243,吉林市,电力学院,细颗粒物(PM2.5),120,114,77,91,62,33,,49,49,48,33,20,15,1.6,1.2
2026-01-03T1800,1775A,126.6133,43.8971,吉林市,江北,细颗粒物(PM2.5),115,117,60,87,45,22,,43,41,51,25,13,10,1.8,1.1
2026-01-03T1800,1776A,126.5549,43.8304,吉林市,江南公园,细颗粒物(PM2.5),92,92,50,68,42,26,,49,48,46,24,34,13,1.5,1.1
2026-01-03T1800,2868A,126.4737,43.953,吉林市,九站,细颗粒物(PM2.5),140,142,58,107,45,21,,43,42,60,30,13,9,1.9,1.1
2026-01-03T1800,1299A,116.9866,36.6118,济南市,科干所,细颗粒物(PM2.5),92,100,79,68,52,79,,81,81,27,20,6,8,0.9,0.9
2026-01-03T1800,1300A,116.9379,36.6652,济南市,农科所,细颗粒物(PM2.5),110,103,83,83,67,57,,70,70,41,26,6,7,0.9,0.9
2026-01-03T1800,1301A,117.1265,36.6736,济南市,开发区,细颗粒物(PM2.5),117,147,78,88,61,29,,67,67,65,20,5,6,1.0,0.8
2026-01-03T1800,1303A,117.0616,36.6865,济南市,省种子仓库,细颗粒物(PM2.5),107,105,84,80,60,79,,82,82,28,22,6,7,0.9,0.7
2026-01-03T1800,1304A,116.9495185,36.644937,济南市,机床二厂,细颗粒物(PM2.5),125,110,88,95,67,60,,71,71,42,29,12,14,1.0,0.9
2026-01-03T1800,1305A,117.0496,36.6629,济南市,市监测站,细颗粒物(PM2.5),108,100,76,81,58,71,,78,78,22,14,4,6,0.8,0.7
2026-01-03T1800,1306A,116.7674,36.5458,济南市,长清党校,细颗粒物(PM2.5),113,103,86,85,66,60,,68,68,30,20,8,9,0.9,0.8
2026-01-03T1800,1961A,117.5323,36.6865,济南市,东山小学,细颗粒物(PM2.5),129,127,73,98,52,37,,77,74,60,23,6,6,1.2,0.9
2026-01-03T1800,3059A,117.7181,36.205,济南市,泰兴公司,细颗粒物(PM2.5),149,132,99,114,79,48,,71,71,55,48,7,9,0.9,1
2026-01-03T1800,3064A,117.6861,36.2172,济南市,莱芜战役纪念馆,细颗粒物(PM2.5),133,114,89,101,72,70,,70,70,37,37,7,10,0.7,0.6
2026-01-03T1800,3494A,117.1673,36.9782,济南市,济阳区政府,细颗粒物(PM2.5),125,127,91,95,62,47,,69,69,48,32,8,9,0.7,0.6
2026-01-03T1800,3495A,117.1168,36.6299,济南市,锦屏中学,细颗粒物(PM2.5),89,98,66,66,50,50,,83,81,44,19,3,4,0.9,0.6
2026-01-03T1800,4108A,117.7107,36.2385,济南市,山财大街5号,细颗粒物(PM2.5),127,158,102,96,65,58,,71,71,44,33,8,11,1.0,0.8
2026-01-03T1800,4109A,116.9744,36.6889,济南市,无影山路12号,细颗粒物(PM2.5),114,113,90,86,68,58,,69,69,39,24,7,9,0.8,0.7
2026-01-03T1800,1653A,116.6229,35.4288,济宁市,火炬城,细颗粒物(PM2.5),89,,78,66,77,85,,80,80,15,20,6,7,0.4,0.5
2026-01-03T1800,3500A,116.5808,35.3703,济宁市,北湖一中,细颗粒物(PM2.5),92,,79,68,78,78,,76,76,21,24,4,6,0.5,0.6
2026-01-03T1800,3501A,116.8251,35.5592,济宁市,服务中心,细颗粒物(PM2.5),83,93,99,61,68,65,,67,67,28,35,10,12,0.6,0.6
2026-01-03T1800,3678A,116.5907,35.4054,济宁市,市第七中学,细颗粒物(PM2.5),77,71,81,56,69,83,,81,81,22,22,6,7,0.7,0.6
2026-01-03T1800,4111A,116.6075,35.4566,济宁市,任和路,细颗粒物(PM2.5),84,93,97,62,75,74,,75,75,30,24,5,7,0.5,0.5
2026-01-03T1800,4112A,116.5648,35.3921,济宁市,文体南路1号,细颗粒物(PM2.5),75,89,99,55,80,78,,76,76,20,23,3,5,0.4,0.6
2026-01-03T1800,2255A,130.2749,46.8028,佳木斯市,佳纺,细颗粒物(PM2.5),59,56,44,42,33,47,,48,48,23,20,12,9,0.4,0.3
2026-01-03T1800,2257A,130.3258,46.7975,佳木斯市,环保局,细颗粒物(PM2.5),64,52,48,46,33,52,,54,54,21,17,11,8,0.2,0.3
2026-01-03T1800,4285A,130.363,46.806,佳木斯市,顺和街,,50,42,42,35,30,42,,47,44,28,19,10,9,0.6,0.4
2026-01-03T1800,4286A,130.3952,46.8268,佳木斯市,长安路196号,,,53,39,39,26,56,,51,51,12,18,,6,,0.4
2026-01-03T1800,1252A,120.7439,30.778,嘉兴市,清河小学,细颗粒物(PM2.5),89,93,62,66,44,58,,65,65,42,259,7,7,0.5,0.7
2026-01-03T1800,1253A,120.7261,30.7477,嘉兴市,嘉兴学院,细颗粒物(PM2.5),90,99,63,67,40,60,,65,65,32,29,8,8,0.9,0.7
2026-01-03T1800,2872A,120.7845,30.7524,嘉兴市,南湖区残联,细颗粒物(PM2.5),109,105,56,82,41,62,,69,69,42,30,6,5,0.7,0.7
2026-01-03T1800,3407A,120.6915,30.7741,嘉兴市,秀洲住建,细颗粒物(PM2.5),90,88,72,67,49,57,,64,64,42,43,8,8,0.5,0.5
2026-01-03T1800,1945A,98.291,39.7705,嘉峪关市,气象局,细颗粒物(PM2.5),64,75,67,46,38,79,,70,70,21,30,8,20,0.6,0.6
2026-01-03T1800,2884A,98.2672,39.7978,嘉峪关市,酒钢宾馆,细颗粒物(PM2.5),89,107,80,66,44,72,,69,69,25,18,27,31,1.2,0.6
2026-01-03T1800,3248A,98.2644,39.7723,嘉峪关市,雄关区,,,,61,,34,70,,70,70,31,34,27,24,,0.9
2026-01-03T1800,1383A,113.1063,22.6058,江门市,北街,颗粒物(PM10),53,55,34,35,23,79,,71,71,37,24,/,/,/,/
2026-01-03T1800,1384A,113.073,22.5835,江门市,西区,细颗粒物(PM2.5),54,56,38,38,18,78,,71,71,39,26,/,/,/,/
2026-01-03T1800,1385A,113.0218,22.531,江门市,圭峰西,颗粒物(PM10),57,63,34,38,21,85,,76,76,33,23,/,/,/,/
2026-01-03T1800,1386A,113.0826,22.5947,江门市,东湖,颗粒物(PM10),53,56,36,29,20,74,,72,72,37,28,8,8,0.5,0.5
2026-01-03T1800,3311A,113.1077,22.5647,江门市,江海富民,颗粒物(PM10),52,54,40,27,13,79,,71,71,41,26,/,/,0.4,0.4
2026-01-03T1800,3449A,113.0496,22.4669,江门市,新会银湖,颗粒物(PM10),61,72,36,43,23,65,,70,70,44,25,10,8,0.6,0.5
2026-01-03T1800,3335A,113.3137,35.2643,焦作市,马村街道办,细颗粒物(PM2.5),172,143,126,130,120,56,,49,49,28,30,6,6,1.0,1.2
2026-01-03T1800,3336A,113.2464,35.2374,焦作市,焦作技师学院,细颗粒物(PM2.5),168,160,134,127,109,36,,44,44,49,34,9,10,1.1,1.3
2026-01-03T1800,3477A,113.1656,35.2536,焦作市,中站许衡医院,细颗粒物(PM2.5),198,180,120,148,109,24,,41,40,,33,8,8,,1.7
2026-01-03T1800,3981A,113.2456,35.18,焦作市,原李万街道办,细颗粒物(PM2.5),170,136,114,129,104,40,,52,52,34,26,12,5,1.3,1
2026-01-03T1800,4264A,113.234,35.219,焦作市,新安路1731号,细颗粒物(PM2.5),182,157,123,137,111,46,,46,46,26,22,6,7,1.1,1.1
2026-01-03T1800,4295A,113.2722,35.2121,焦作市,人民路3066号,细颗粒物(PM2.5),142,159,119,108,91,43,,44,44,31,25,7,7,1.0,1
2026-01-03T1800,1708A,116.3701,23.5345,揭阳市,新兴,细颗粒物(PM2.5),63,57,33,45,23,98,,89,89,24,21,9,10,0.6,0.6
2026-01-03T1800,1709A,116.3261,23.5442,揭阳市,西马,"颗粒物(PM10),细颗粒物(PM2.5)",55,60,32,39,18,104,,86,86,15,14,5,6,0.8,0.6
2026-01-03T1800,1710A,116.361,23.5627,揭阳市,东兴,颗粒物(PM10),51,52,38,28,16,99,,84,84,13,19,8,10,/,/
2026-01-03T1800,1711A,116.4151,23.5295,揭阳市,渔湖,颗粒物(PM10),54,58,30,26,17,100,,92,92,23,18,5,8,/,/
2026-01-03T1800,3320A,116.4028,23.5699,揭阳市,曲溪,颗粒物(PM10),58,66,35,31,19,105,,96,96,22,17,4,4,0.5,0.4
2026-01-03T1800,1944A,102.1691,38.5166,金昌市,天庆家园,"颗粒物(PM10),细颗粒物(PM2.5)",53,56,70,37,59,80,,76,76,10,15,3,8,0.6,0.8
2026-01-03T1800,4022A,102.1648,38.5369,金昌市,金川区人防中心,细颗粒物(PM2.5),57,45,68,40,62,81,,75,75,10,16,5,10,0.6,0.8
2026-01-03T1800,4239A,102.193042,38.531887,金昌市,长春路96号,细颗粒物(PM2.5),54,52,66,38,53,80,,77,77,9,12,6,6,0.7,0.8
2026-01-03T1800,1262A,119.6478,29.0773,金华市,十五中,细颗粒物(PM2.5),94,93,93,70,68,66,,81,81,45,28,4,3,0.7,0.8
2026-01-03T1800,1263A,119.6859,29.1032,金华市,监测站,细颗粒物(PM2.5),94,92,97,70,78,55,,71,71,66,40,3,2,0.7,0.7
2026-01-03T1800,3659A,119.656,29.1132,金华市,气象局,细颗粒物(PM2.5),93,110,95,69,71,46,,50,50,49,37,3,3,0.7,0.7
2026-01-03T1800,1767A,121.1114,41.0879,锦州市,南山,细颗粒物(PM2.5),84,,54,62,52,41,,53,53,36,36,15,16,0.8,1.1
2026-01-03T1800,1768A,121.060361,40.842794,锦州市,开发区,细颗粒物(PM2.5),53,,81,37,58,43,,53,53,31,42,30,28,0.7,1.3
2026-01-03T1800,1769A,121.1836,41.1118,锦州市,百股街道,细颗粒物(PM2.5),77,71,65,56,55,34,,54,54,43,41,16,30,1.0,1.1
2026-01-03T1800,1770A,121.1176,41.1224,锦州市,天安街道,细颗粒物(PM2.5),65,55,55,47,45,44,,53,53,36,37,20,20,1.1,1.2
2026-01-03T1800,1771A,121.1303,41.1385,锦州市,北湖公园,细颗粒物(PM2.5),72,65,55,52,46,36,,52,52,40,30,26,16,0.9,0.9
2026-01-03T1800,2160A,112.8496,35.5051,晋城市,自来水公司,细颗粒物(PM2.5),68,62,137,49,118,56,,54,54,26,42,8,7,0.9,2.4
2026-01-03T1800,2162A,112.8509,35.4886,晋城市,市环保局,细颗粒物(PM2.5),73,86,143,53,106,56,,58,58,29,42,8,7,1.1,2.3
2026-01-03T1800,3620A,112.8258,35.4804,晋城市,泽州一中,颗粒物(PM10),61,72,112,36,91,50,,57,57,33,36,5,4,0.6,1.1
2026-01-03T1800,4078A,112.8246,35.5152,晋城市,前书院路,颗粒物(PM10),59,68,130,37,73,54,,49,49,31,44,5,5,0.8,1.5
2026-01-03T1800,4079A,112.8864,35.4773,晋城市,祥云街666号,细颗粒物(PM2.5),89,83,158,66,133,49,,54,53,36,44,9,8,0.6,2.2
2026-01-03T1800,2174A,112.6992,37.6984,晋中市,榆次区政府,细颗粒物(PM2.5),122,158,163,92,118,6,,26,25,83,58,22,18,1.5,1.2
2026-01-03T1800,2865A,112.7195,37.683,晋中市,榆次三中,,,134,147,,99,19,,28,28,62,50,22,16,1.5,1
2026-01-03T1800,4080A,112.7375,37.7215,晋中市,广安街188号,细颗粒物(PM2.5),142,173,190,108,123,5,,25,24,83,62,19,16,1.5,1.3
2026-01-03T1800,4200A,112.7478,37.6954,晋中市,迎宾街26号,细颗粒物(PM2.5),117,141,149,88,107,8,,31,30,79,51,21,17,1.7,1.4
2026-01-03T1800,2439A,112.2012,31.048,荆门市,竹园小学,细颗粒物(PM2.5),120,112,117,91,96,43,,48,48,29,26,1,6,0.3,0.4
2026-01-03T1800,2440A,112.1968,30.9892,荆门市,掇刀,细颗粒物(PM2.5),109,104,111,82,92,52,,52,52,23,21,6,4,0.8,0.7
2026-01-03T1800,3012A,112.1849,31.0361,荆门市,西山林语,细颗粒物(PM2.5),117,104,103,88,87,41,,49,49,30,22,6,6,0.8,0.7
2026-01-03T1800,3547A,112.1631,31.0134,荆门市,龙泉中学南校,细颗粒物(PM2.5),135,127,116,103,97,48,,51,51,21,12,9,8,0.4,0.4
2026-01-03T1800,4124A,112.2213,31.0654,荆门市,新台西路6号,细颗粒物(PM2.5),114,96,124,86,110,46,,48,48,28,35,10,9,0.6,0.8
2026-01-03T1800,1844A,112.2493,30.3198,荆州市,市图书馆,细颗粒物(PM2.5),103,,69,77,78,33,,56,51,36,21,7,7,0.9,0.8
2026-01-03T1800,1845A,112.2009,30.3543,荆州市,市委党校,细颗粒物(PM2.5),98,76,74,73,80,22,,49,45,44,24,4,4,1.0,0.9
2026-01-03T1800,3194A,112.2749,30.3124,荆州市,管委会,细颗粒物(PM2.5),99,76,65,74,76,31,,52,47,35,25,5,5,0.8,0.8
2026-01-03T1800,4268A,112.1722,30.3366,荆州市,学苑路85号,,,,69,68,70,46,,58,57,24,19,,9,0.8,0.7
2026-01-03T1800,2343A,117.2114,29.2931,景德镇市,老干部活动中心,,39,,34,27,26,48,,53,53,19,9,7,7,0.4,0.5
2026-01-03T1800,2344A,117.1893,29.2789,景德镇市,兽医站,,36,29,31,25,23,63,,66,66,15,9,18,8,0.6,0.4
2026-01-03T1800,2346A,117.246,29.2958,景德镇市,陶研所,,32,25,26,22,24,57,,65,65,8,7,5,4,0.6,0.6
2026-01-03T1800,4289A,117.154766,29.256967,景德镇市,青少年活动中心,,36,33,32,25,25,70,,66,66,22,13,13,5,/,/
2026-01-03T1800,1803A,115.9873,29.6816,九江市,十里,细颗粒物(PM2.5),57,47,52,40,44,56,,73,73,42,30,6,5,0.9,0.8
2026-01-03T1800,1804A,115.9583,29.7047,九江市,茅山头,细颗粒物(PM2.5),59,54,55,42,45,57,,62,62,33,21,4,5,0.9,0.8
2026-01-03T1800,1805A,115.9877,29.7295,九江市,西园,颗粒物(PM10),52,53,51,30,38,60,,69,69,43,30,3,3,0.9,0.8
2026-01-03T1800,1808A,115.9112,29.6038,九江市,综合工业园,细颗粒物(PM2.5),72,52,51,52,53,48,,54,54,52,36,4,4,0.6,0.8
2026-01-03T1800,3190A,116.0254,29.6995,九江市,外国语学校,,50,,47,35,42,48,,62,62,38,24,9,8,0.8,0.7
2026-01-03T1800,4253A,116.010205,29.659402,九江市,莲花大道8号,细颗粒物(PM2.5),58,42,59,41,46,56,,64,64,18,10,3,4,0.4,0.4
2026-01-03T1800,4240A,98.495752,39.733935,酒泉市,玉门东路5号,颗粒物(PM10),52,53,59,22,30,75,,70,70,8,13,10,9,0.4,0.5
2026-01-03T1800,4241A,98.5099,39.7506,酒泉市,北大街108号,颗粒物(PM10),51,51,55,23,29,70,,69,69,13,17,10,9,0.4,0.5
2026-01-03T1800,2698A,76.0071,39.466,喀什地区,巡警大队,细颗粒物(PM2.5),59,58,57,42,41,51,,53,47,14,13,3,2,0.7,0.7
2026-01-03T1800,2699A,75.9756,39.4693,喀什地区,吾办,细颗粒物(PM2.5),58,56,56,41,45,48,,50,43,11,11,7,5,0.7,0.7
2026-01-03T1800,4027A,75.9485,39.4688,喀什地区,老干局,细颗粒物(PM2.5),57,58,60,40,39,56,,58,50,8,10,2,2,0.8,0.8
2026-01-03T1800,1824A,114.3389,34.778,开封市,肿瘤医院,细颗粒物(PM2.5),122,93,97,92,91,58,,56,56,25,27,3,4,1.3,1.2
2026-01-03T1800,1826A,114.2884,34.7966,开封市,世纪星幼儿园,细颗粒物(PM2.5),137,,95,104,108,58,,57,57,26,28,3,2,0.7,0.7
2026-01-03T1800,3147A,114.3434,34.8101,开封市,龙亭公园,细颗粒物(PM2.5),144,111,94,110,111,62,,59,59,23,23,3,3,1.4,1.5
2026-01-03T1800,3210A,114.3645,34.7955,开封市,汴京公园,细颗粒物(PM2.5),134,123,105,102,98,60,,59,59,28,28,4,4,0.8,0.9
2026-01-03T1800,3473A,114.2485,34.8306,开封市,技师学院,细颗粒物(PM2.5),127,,99,96,103,59,,58,58,23,26,7,6,1.0,1
2026-01-03T1800,3592A,114.4518,34.7503,开封市,祥符区生态环境局,细颗粒物(PM2.5),125,132,102,95,97,56,,61,61,33,32,3,3,0.8,0.7
2026-01-03T1800,1951A,84.886,45.6029,克拉玛依市,长征新村,细颗粒物(PM2.5),83,77,78,61,53,45,,40,40,25,35,5,5,0.9,0.9
2026-01-03T1800,1952A,84.8894,45.5827,克拉玛依市,南林小区,颗粒物(PM10),66,82,77,47,43,44,,38,38,19,27,3,3,1.0,1
2026-01-03T1800,1954A,84.896,44.3328,克拉玛依市,独山子区,颗粒物(PM10),60,70,75,23,40,56,,73,73,34,29,6,5,0.8,0.7
2026-01-03T1800,1955A,85.6888,46.0909,克拉玛依市,乌尔禾区商贸楼,细颗粒物(PM2.5),72,66,62,52,46,40,,44,44,29,22,5,5,1.0,1
2026-01-03T1800,3612A,85.1045,45.6895,克拉玛依市,白碱滩区新站,颗粒物(PM10),93,136,111,60,60,47,,40,40,9,18,8,7,0.7,0.7
2026-01-03T1800,2697A,76.1457,39.7143,克孜勒苏柯尔克孜自治州,市人民政府,细颗粒物(PM2.5),62,69,68,44,46,60,,58,58,8,11,5,5,0.5,0.5
2026-01-03T1800,3665A,76.1654,39.7157,克孜勒苏柯尔克孜自治州,克州文化中心,细颗粒物(PM2.5),62,53,58,44,45,55,,56,56,8,10,3,4,0.6,0.7
2026-01-03T1800,1450A,102.8203,24.889,昆明市,呈贡新区,,23,12,24,6,13,73,,74,74,9,13,4,5,0.2,0.2
2026-01-03T1800,1452A,102.7253,25.0904,昆明市,龙泉镇,,21,,28,3,13,66,,69,69,9,24,2,3,0.4,0.5
2026-01-03T1800,1453A,102.7267,25.0378,昆明市,东风东路,,22,12,21,11,16,69,,70,70,14,15,4,4,0.4,0.5
2026-01-03T1800,1454A,102.6744,25.0671,昆明市,金鼎山,,20,14,30,7,16,64,,68,68,10,16,2,3,0.4,0.4
2026-01-03T1800,1455A,102.6643,25.0401,昆明市,碧鸡广场,,21,10,26,9,18,65,,69,69,12,18,3,4,0.5,0.5
2026-01-03T1800,3179A,102.7491,25.012,昆明市,官渡区博物馆,,22,,23,7,14,68,,70,70,13,17,3,3,0.3,0.3
2026-01-03T1800,3375A,102.8016,24.8336,昆明市,青年创业园,,23,22,21,15,21,72,,75,75,5,7,4,5,0.4,0.3
2026-01-03T1800,3550A,102.8,24.9787,昆明市,昆明学院,,22,14,21,8,13,70,,73,73,10,9,2,2,0.7,0.4
2026-01-03T1800,3551A,102.5969,24.6738,昆明市,晋宁区生态环境分局,,21,21,24,9,16,56,,63,63,6,12,2,2,0.5,0.5
2026-01-03T1800,3552A,102.6673,24.9861,昆明市,云天化总部,,22,17,19,12,13,70,,73,73,10,13,7,6,0.6,0.5
2026-01-03T1800,1456A,91.132,29.6515,拉萨市,八廓街,,29,22,25,13,15,90,,84,84,3,15,7,8,0.4,0.6
2026-01-03T1800,1457A,91.1221,29.6748,拉萨市,市环保局,,26,17,30,7,16,82,,82,82,13,20,7,9,0.4,0.9
2026-01-03T1800,1458A,91.0874,29.6476,拉萨市,区监测站,,27,8,13,3,8,85,,83,83,10,20,4,4,0.8,0.8
2026-01-03T1800,1459A,91.1774,29.6541,拉萨市,西藏大学,,28,12,23,7,16,88,,81,81,10,23,5,6,0.2,0.5
2026-01-03T1800,1460A,90.9798,29.6586,拉萨市,区辐射站,,27,10,24,7,16,86,,80,80,10,20,4,4,0.4,0.6
2026-01-03T1800,1461A,91.0831,29.6292,拉萨市,拉萨火车站,,29,20,15,7,8,90,,85,85,9,18,5,4,0.4,0.5
2026-01-03T1800,2520A,109.2203,23.7252,来宾市,来宾技工学校,,38,35,28,26,21,54,,52,52,11,10,5,6,0.3,0.3
2026-01-03T1800,3535A,109.1781,23.7293,来宾市,兴宾区政府,,36,33,30,25,24,59,,57,57,10,8,4,6,0.4,0.4
2026-01-03T1800,4002A,109.2312,23.7428,来宾市,中南小学,,39,33,28,27,23,55,,53,53,12,11,4,5,0.5,0.5
2026-01-03T1800,1479A,103.8309,36.0467,兰州市,铁路设计院,,,,,,,,,,,,,,,,
2026-01-03T1800,3241A,103.7439,36.0841,兰州市,百合公园,细颗粒物(PM2.5),84,78,64,62,53,58,,50,50,22,22,7,8,0.8,0.9
2026-01-03T1800,3242A,103.9613,35.9985,兰州市,和平,细颗粒物(PM2.5),102,,67,76,71,78,,66,66,10,13,3,3,0.6,0.8
2026-01-03T1800,4236A,103.629272,36.093822,兰州市,庄浪东路808号,细颗粒物(PM2.5),104,90,73,78,58,59,,54,54,31,29,10,11,0.7,0.8
2026-01-03T1800,4237A,103.7251,36.104344,兰州市,安宁西路88号,细颗粒物(PM2.5),92,83,76,68,55,70,,58,58,23,24,5,5,0.6,0.7
2026-01-03T1800,4238A,103.846982,36.067567,兰州市,北滨河东路1号,细颗粒物(PM2.5),93,70,65,69,58,74,,65,65,22,22,8,7,0.7,0.9
2026-01-03T1800,1067A,116.6712,39.5109,廊坊市,药材公司,细颗粒物(PM2.5),59,66,106,42,76,17,,30,30,61,57,3,5,0.7,1
2026-01-03T1800,1068A,116.7215,39.5592,廊坊市,开发区,颗粒物(PM10),64,78,108,40,74,7,,31,27,74,64,4,5,0.7,1.1
2026-01-03T1800,1070A,116.7246,39.5273,廊坊市,北华航天学院,颗粒物(PM10),58,66,112,35,75,11,,29,28,69,56,4,6,0.6,1
2026-01-03T1800,2919A,116.7022,39.5454,廊坊市,河北工业大学,细颗粒物(PM2.5),62,71,118,44,72,11,,28,28,69,56,5,7,0.7,1
2026-01-03T1800,2536A,103.7629,29.5844,乐山市,牛耳桥,,28,23,32,19,28,16,,29,18,26,20,7,7,0.6,0.6
2026-01-03T1800,2537A,103.7501,29.6002,乐山市,市第三水厂,,29,24,30,20,25,11,,32,17,32,20,6,5,0.6,0.5
2026-01-03T1800,2538A,103.7571,29.5664,乐山市,市监测站,,28,23,30,19,27,19,,28,18,20,16,6,6,0.7,0.6
2026-01-03T1800,3361A,103.7313,29.563,乐山市,理工大学,,29,23,28,20,24,17,,26,21,21,15,4,4,0.6,0.5
2026-01-03T1800,2599A,100.2497,26.8802,丽江市,丽江古城,,28,20,23,3,10,89,,90,90,11,12,8,8,0.5,0.5
2026-01-03T1800,2600A,100.2203,26.8906,丽江市,市中心,,29,8,11,8,10,90,,92,92,13,12,6,6,0.3,0.3
2026-01-03T1800,1267A,119.9141,28.4513,丽水市,监测站大楼,细颗粒物(PM2.5),60,51,43,43,32,40,,68,68,35,22,5,5,0.7,0.6
2026-01-03T1800,1268A,119.93,28.4589,丽水市,莲都小学,细颗粒物(PM2.5),54,56,59,38,47,50,,71,71,45,28,/,/,/,/
2026-01-03T1800,1269A,119.8794,28.4232,丽水市,余庄前,,42,42,52,29,42,31,,62,62,30,17,4,4,0.3,0.3
2026-01-03T1800,1173A,119.1759,34.5885,连云港市,市环境监测站,细颗粒物(PM2.5),83,80,77,61,61,58,,68,68,30,26,12,12,0.9,0.9
2026-01-03T1800,3000A,119.3577,34.6971,连云港市,德源药业,细颗粒物(PM2.5),83,100,82,61,58,42,,71,69,46,39,5,6,0.6,0.8
2026-01-03T1800,3007A,119.178,34.8442,连云港市,新城一中,细颗粒物(PM2.5),113,102,84,85,76,68,,79,79,28,36,16,19,0.8,0.9
2026-01-03T1800,3008A,119.3607,34.7519,连云港市,胡沟管理处,细颗粒物(PM2.5),67,66,71,48,56,69,,72,72,27,40,8,12,0.9,1
2026-01-03T1800,3009A,119.1478,34.5913,连云港市,矿山设计院,细颗粒物(PM2.5),85,88,83,63,58,67,,71,71,25,26,10,9,0.9,0.9
2026-01-03T1800,3434A,119.2414,34.6539,连云港市,工贸学校,细颗粒物(PM2.5),94,83,83,70,68,65,,64,64,23,23,15,15,0.6,0.8
2026-01-03T1800,3664A,119.4171,34.734,连云港市,连云街道,细颗粒物(PM2.5),72,68,61,52,45,76,,78,78,27,19,9,6,0.7,0.6
2026-01-03T1800,2573A,102.2629,27.8981,凉山彝族自治州,西昌市政府,,32,32,37,12,22,81,,74,74,8,20,10,8,0.5,0.7
2026-01-03T1800,2574A,102.2686,27.885,凉山彝族自治州,凉山州政府,,26,23,35,18,20,81,,71,71,7,19,9,10,0.3,0.7
2026-01-03T1800,4229A,102.2342,27.8859,凉山彝族自治州,凯乐南路30号,,28,28,35,11,17,83,,71,71,10,22,9,8,0.5,0.7
2026-01-03T1800,2212A,123.1978,41.2036,辽阳市,宏伟区,细颗粒物(PM2.5),127,107,77,96,54,13,,37,36,49,26,13,16,1.4,1.4
2026-01-03T1800,2213A,123.1684,41.2497,辽阳市,新华园,细颗粒物(PM2.5),115,94,84,87,58,10,,36,35,66,42,14,39,1.5,1.5
2026-01-03T1800,2214A,123.2355,41.2663,辽阳市,滨河路,细颗粒物(PM2.5),145,149,84,111,52,15,,38,36,67,35,10,15,1.7,1.1
2026-01-03T1800,4083A,123.153,41.2874,辽阳市,铁西路150号,细颗粒物(PM2.5),119,134,97,90,62,10,,35,35,66,43,18,35,1.8,1.7
2026-01-03T1800,2227A,125.1359,42.8845,辽源市,环保局,颗粒物(PM10),76,102,127,47,60,42,,47,47,32,37,8,7,1.4,1.6
2026-01-03T1800,4085A,125.0998,42.9134,辽源市,安宁大街333号,细颗粒物(PM2.5),82,101,88,60,66,29,,49,49,51,38,13,9,1.0,1.1
2026-01-03T1800,1625A,115.9789,36.4372,聊城市,区政府,细颗粒物(PM2.5),117,121,99,88,76,45,,58,58,52,33,11,12,1.0,0.9
2026-01-03T1800,3200A,115.9772,36.4986,聊城市,监控中心,细颗粒物(PM2.5),138,119,97,105,84,57,,64,64,41,29,9,11,0.8,0.8
2026-01-03T1800,3513A,116.0443,36.436,聊城市,九州社区,细颗粒物(PM2.5),114,113,105,86,77,68,,68,68,25,24,4,4,0.7,0.6
2026-01-03T1800,4018A,116.0564,36.4609,聊城市,星美广场,细颗粒物(PM2.5),118,119,106,89,77,62,,65,65,25,21,4,4,0.7,0.7
2026-01-03T1800,4113A,116.0091,36.4495,聊城市,利民路,细颗粒物(PM2.5),132,126,102,100,83,58,,60,60,36,30,11,12,0.7,0.6
2026-01-03T1800,2632A,94.3683,29.6373,林芝市,林芝监测站,,29,12,13,6,5,90,,92,92,2,2,4,4,0.3,0.3
2026-01-03T1800,2633A,94.3616,29.6634,林芝市,林芝人民医院,,27,11,16,6,6,84,,86,86,3,2,6,6,0.2,0.3
2026-01-03T1800,2603A,100.0779,23.8981,临沧市,市环保局,细颗粒物(PM2.5),62,,30,44,43,73,,72,72,4,7,6,6,0.4,0.4
2026-01-03T1800,2604A,100.0894,23.882,临沧市,市气象局,,34,34,32,13,22,71,,69,69,8,9,6,4,0.4,0.5
2026-01-03T1800,1733A,111.5552,36.0791,临汾市,临钢医院,细颗粒物(PM2.5),228,228,140,178,114,38,,43,43,37,28,5,4,2.7,1.3
2026-01-03T1800,1734A,111.4984,36.0734,临汾市,技工学校,细颗粒物(PM2.5),209,206,143,159,114,37,,40,40,39,33,5,4,2.4,1.6
2026-01-03T1800,1736A,111.5017,36.0857,临汾市,市委,细颗粒物(PM2.5),219,210,161,169,119,40,,45,45,43,39,6,7,2.0,1.4
2026-01-03T1800,3018A,111.5048,36.1015,临汾市,唐尧大酒店,细颗粒物(PM2.5),193,188,141,145,110,43,,44,44,37,37,3,3,2.0,1.5
2026-01-03T1800,4244A,111.4879,36.053,临汾市,启星学校,细颗粒物(PM2.5),213,205,133,163,102,33,,38,38,50,45,5,5,2.8,1.5
2026-01-03T1800,4271A,103.2464,35.6123,临夏回族自治州,滨河东路1号,细颗粒物(PM2.5),75,63,100,55,75,78,,61,61,17,20,7,6,0.7,1
2026-01-03T1800,4310A,103.207136,35.599807,临夏回族自治州,新华街21号,细颗粒物(PM2.5),79,71,88,58,70,61,,51,51,17,17,11,9,0.8,0.9
2026-01-03T1800,1618A,118.3429,35.0532,临沂市,沂河小区,细颗粒物(PM2.5),122,114,103,92,84,53,,67,67,48,47,18,18,1.0,0.9
2026-01-03T1800,1619A,118.2962,35.0568,临沂市,鲁南制药厂,细颗粒物(PM2.5),110,114,112,83,84,54,,66,66,48,53,22,21,0.8,0.8
2026-01-03T1800,1620A,118.2793,34.9976,临沂市,新光毛纺厂,细颗粒物(PM2.5),110,107,111,83,79,57,,70,70,40,46,16,22,0.8,0.9
2026-01-03T1800,1621A,118.3955,35.0889,临沂市,河东保险公司,细颗粒物(PM2.5),97,97,90,72,67,72,,80,80,30,31,15,15,0.8,0.8
2026-01-03T1800,3370A,118.3563,35.0215,临沂市,十里堡居委,细颗粒物(PM2.5),98,114,114,73,76,55,,70,70,49,57,22,23,1.0,1.1
2026-01-03T1800,3496A,118.359,35.1067,临沂市,南坊新区,细颗粒物(PM2.5),92,95,91,68,68,68,,74,74,39,40,15,15,0.8,0.7
2026-01-03T1800,3860A,118.3915,35.0297,临沂市,皇山花园小区,细颗粒物(PM2.5),97,110,102,72,69,65,,75,75,42,48,19,22,0.9,1
2026-01-03T1800,1870A,109.4854,24.3898,柳州市,柳东小学,,36,32,25,25,23,55,,57,57,11,8,9,8,0.7,0.6
2026-01-03T1800,1871A,109.4109,24.3304,柳州市,环保监测站,,41,41,25,27,20,56,,56,56,14,10,6,5,0.5,0.4
2026-01-03T1800,1872A,109.3886,24.3408,柳州市,河西水厂,,45,33,29,31,24,60,,60,60,16,13,5,5,0.5,0.4
2026-01-03T1800,1873A,109.4263,24.2951,柳州市,市四中,,38,38,23,26,19,54,,54,54,20,13,11,9,0.6,0.5
2026-01-03T1800,1874A,109.396,24.3658,柳州市,市九中,,40,34,28,28,25,61,,60,60,13,11,7,8,0.6,0.5
2026-01-03T1800,1875A,109.4912,24.3164,柳州市,古亭山,,40,40,23,26,16,52,,54,54,14,9,14,9,0.6,0.6
2026-01-03T1800,3402A,109.5422,24.3994,柳州市,市二中,,35,28,22,24,21,53,,55,55,14,11,9,8,0.5,0.5
2026-01-03T1800,2307A,116.5078,31.7369,六安市,监测大楼,,49,41,49,34,40,77,,73,73,21,24,3,3,0.4,0.5
2026-01-03T1800,2308A,116.4738,31.7642,六安市,皖西学院,,42,39,56,29,39,78,,77,77,21,24,4,4,0.4,0.4
2026-01-03T1800,2309A,116.4997,31.7904,六安市,朝阳厂,,47,47,54,30,42,70,,72,72,26,29,4,5,0.5,0.6
2026-01-03T1800,2310A,116.5566,31.7885,六安市,开发区,颗粒物(PM10),51,51,65,32,48,77,,75,75,23,31,1,2,0.4,0.4
2026-01-03T1800,2577A,104.8293,26.592,六盘水市,黄土坡,,26,26,13,14,10,16,,28,16,18,15,9,5,0.9,0.8
2026-01-03T1800,2579A,104.8481,26.5898,六盘水市,民中,,20,20,15,12,9,15,,26,14,17,12,4,3,0.8,0.7
2026-01-03T1800,2580A,104.9541,26.5506,六盘水市,双水,,17,17,8,11,5,18,,29,24,16,10,3,3,0.6,0.5
2026-01-03T1800,4151A,104.8899,26.5685,六盘水市,钟山大道中段564号,,21,21,12,12,9,22,,29,21,12,10,5,6,0.8,0.8
2026-01-03T1800,2336A,117.022,25.1031,龙岩市,龙岩市监测站,,26,23,18,15,12,82,,80,80,17,12,14,12,0.4,0.4
2026-01-03T1800,2337A,117.0257,25.0662,龙岩市,闽西职业技术学院,,25,25,18,14,13,80,,82,82,18,9,14,9,0.5,0.4
2026-01-03T1800,2338A,117.0195,25.0306,龙岩市,龙岩学院,,29,29,19,18,16,70,,75,75,12,10,10,9,/,/
2026-01-03T1800,2885A,104.9344,33.3827,陇南市,滨江中学,颗粒物(PM10),51,52,43,23,22,40,,46,40,31,27,9,7,1.1,0.9
2026-01-03T1800,3247A,104.9551,33.3709,陇南市,市总工会,,,68,48,20,21,39,,46,42,32,21,,3,0.8,0.9
2026-01-03T1800,2488A,111.9984,27.7346,娄底市,市监测站,细颗粒物(PM2.5),69,56,59,50,50,47,,52,50,15,12,5,4,0.7,0.5
2026-01-03T1800,2491A,111.9888,27.7035,娄底市,市政府,细颗粒物(PM2.5),67,54,53,48,52,47,,53,50,13,10,5,4,0.5,0.5
2026-01-03T1800,4127A,111.9812,27.7591,娄底市,涟钢职大,细颗粒物(PM2.5),59,60,56,42,42,43,,54,51,14,13,3,4,0.5,0.5
2026-01-03T1800,4128A,112.0303,27.7457,娄底市,娄底体校,细颗粒物(PM2.5),60,56,55,43,44,41,,47,46,15,11,2,2,0.7,0.5
2026-01-03T1800,1894A,105.4427,28.9063,泸州市,小市上码头,,32,31,29,22,21,38,,43,41,14,15,7,7,0.8,0.8
2026-01-03T1800,1895A,105.4241,28.8573,泸州市,兰田宪桥,,35,27,26,24,22,34,,35,35,16,14,7,7,0.9,0.9
2026-01-03T1800,1896A,105.4378,28.8833,泸州市,市环监站,,28,28,28,17,20,33,,41,38,20,19,7,8,0.6,0.6
2026-01-03T1800,4272A,105.3689,28.7783,泸州市,纳溪中医医院,,36,36,31,20,25,26,,32,26,19,15,7,7,0.8,0.8
2026-01-03T1800,2183A,111.1447,37.5212,吕梁市,环保局,颗粒物(PM10),66,81,79,43,36,3,,16,15,61,44,14,11,0.8,0.7
2026-01-03T1800,2185A,111.1285,37.5338,吕梁市,自来水公司,颗粒物(PM10),72,94,97,37,40,2,,15,14,58,42,13,12,1.0,0.9
2026-01-03T1800,2867A,111.1225,37.5093,吕梁市,马茂庄小学,颗粒物(PM10),73,95,95,43,38,2,,11,10,62,45,14,15,0.8,0.8
2026-01-03T1800,1812A,112.3934,34.6517,洛阳市,市委党校,细颗粒物(PM2.5),85,92,99,63,87,48,,54,54,34,29,12,9,1.0,0.9
2026-01-03T1800,1815A,112.494,34.6883,洛阳市,河南林校,细颗粒物(PM2.5),103,90,103,77,99,44,,48,48,34,29,12,10,1.0,1
2026-01-03T1800,1816A,112.3843,34.623,洛阳市,开发区管委会,细颗粒物(PM2.5),108,101,115,81,99,48,,52,52,30,28,10,9,1.0,1
2026-01-03T1800,1817A,112.4263,34.6249,洛阳市,市委新办公区,细颗粒物(PM2.5),115,98,118,87,104,52,,56,56,30,28,12,9,0.9,1
2026-01-03T1800,3340A,112.6005,34.6323,洛阳市,伊滨,细颗粒物(PM2.5),107,99,120,80,98,51,,56,56,38,34,9,7,1.0,1.1
2026-01-03T1800,3341A,112.495,34.6338,洛阳市,中移产业园,细颗粒物(PM2.5),108,90,103,81,100,47,,51,51,42,38,11,10,0.9,0.9
2026-01-03T1800,3593A,112.5736,34.8993,洛阳市,吉利监测站,细颗粒物(PM2.5),123,102,93,93,98,39,,59,59,45,34,10,7,1.1,1
2026-01-03T1800,3635A,112.3678,34.6623,洛阳市,河科大西苑校区,细颗粒物(PM2.5),103,99,106,77,87,48,,53,53,34,31,12,9,0.9,0.9
2026-01-03T1800,3636A,112.4387,34.678,洛阳市,英才小学,细颗粒物(PM2.5),109,93,113,82,101,51,,55,55,45,38,14,10,1.0,1
2026-01-03T1800,4214A,112.460027,34.694929,洛阳市,春都路1号院,细颗粒物(PM2.5),93,109,126,69,86,34,,40,40,36,27,12,10,1.1,1.1
2026-01-03T1800,2399A,114.051,33.5721,漯河市,三五一五工厂,细颗粒物(PM2.5),107,94,113,80,87,54,,59,59,19,23,7,7,0.9,0.9
2026-01-03T1800,2400A,114.0055,33.5698,漯河市,漯河大学,细颗粒物(PM2.5),94,86,91,70,83,56,,62,62,24,28,6,6,0.7,0.7
2026-01-03T1800,2401A,114.0134,33.5826,漯河市,市水利局,细颗粒物(PM2.5),98,80,89,73,83,49,,55,55,21,28,7,7,0.8,0.8
2026-01-03T1800,2402A,114.0261,33.5697,漯河市,市广电局,细颗粒物(PM2.5),105,85,93,79,87,54,,64,63,19,27,7,7,0.7,0.7
2026-01-03T1800,3478A,113.9691,33.568,漯河市,市图书馆,细颗粒物(PM2.5),105,92,104,79,86,52,,58,58,22,25,4,5,1.0,0.9
2026-01-03T1800,4250A,114.089259,33.588274,漯河市,韶山路11号,细颗粒物(PM2.5),90,91,108,67,85,51,,56,56,22,25,7,6,0.7,0.7
2026-01-03T1800,1798A,118.5084,31.6838,马鞍山市,湖东路四小,细颗粒物(PM2.5),74,69,76,54,50,65,,71,71,33,41,4,4,0.7,0.7
2026-01-03T1800,1799A,118.5019,31.6449,马鞍山市,开发区,细颗粒物(PM2.5),105,,79,79,61,76,,76,76,27,41,5,5,0.6,0.7
2026-01-03T1800,3633A,118.4914,31.681,马鞍山市,雨山,细颗粒物(PM2.5),82,74,79,60,56,75,,73,73,26,41,6,6,0.6,0.7
2026-01-03T1800,4191A,118.527362,31.722269,马鞍山市,慈湖高新区,细颗粒物(PM2.5),88,79,78,65,57,63,,69,69,36,38,4,6,0.7,0.6
2026-01-03T1800,1686A,111.0285,21.469,茂名市,电白南海,颗粒物(PM10),52,53,42,14,19,111,,97,97,14,16,10,16,0.6,0.5
2026-01-03T1800,1687A,110.9294,21.6533,茂名市,茂石化七小,颗粒物(PM10),52,53,37,27,17,99,,94,94,21,17,6,10,0.5,0.6
2026-01-03T1800,1688A,110.9108,21.6688,茂名市,健康路,颗粒物(PM10),53,56,32,27,16,113,,104,104,21,19,8,14,0.7,0.7
2026-01-03T1800,1689A,110.8592,21.6826,茂名市,高岭,颗粒物(PM10),58,66,47,14,16,108,,106,106,24,20,34,17,/,/
2026-01-03T1800,3450A,111.0101,21.5165,茂名市,电白水东,二氧化硫(SO2),52,44,34,17,20,93,,92,92,25,16,160,21,/,/
2026-01-03T1800,2540A,103.8414,30.0871,眉山市,气象局,,38,38,28,22,19,10,,31,16,30,19,8,7,0.8,0.7
2026-01-03T1800,3148A,103.829,30.0563,眉山市,区人社局,,30,30,28,9,11,8,,33,14,29,19,7,5,0.7,0.7
2026-01-03T1800,4148A,103.8836,30.0695,眉山市,眉职院,,,11,18,3,8,14,,26,15,,13,,4,0.7,0.9
2026-01-03T1800,1690A,116.1248,24.3307,梅州市,梅江月梅,,29,,21,20,13,73,,59,59,16,20,/,/,/,/
2026-01-03T1800,1691A,116.0798,24.2719,梅州市,梅县新城,,36,36,21,20,16,60,,57,57,27,21,8,7,0.5,0.4
2026-01-03T1800,3315A,116.1234,24.2994,梅州市,梅龙,,,19,23,12,14,,,55,55,,19,13,9,0.4,0.4
2026-01-03T1800,1878A,104.7775,31.4741,绵阳市,富乐山,,26,19,21,18,18,34,,35,33,10,9,11,11,0.7,0.7
2026-01-03T1800,1880A,104.6698,31.4668,绵阳市,高新区自来水公司,,25,,14,17,16,34,,34,30,18,16,8,8,0.6,0.6
2026-01-03T1800,3491A,104.6899,31.5324,绵阳市,西科大附属小学,,25,20,16,17,13,34,,34,34,14,11,8,8,1.2,1.2
2026-01-03T1800,3492A,104.5647,31.5343,绵阳市,安州区旅游局,,25,,10,17,13,35,,33,32,15,15,12,7,0.6,0.6
2026-01-03T1800,4146A,104.7092,31.4972,绵阳市,科技城新区公安局,,23,17,15,16,14,36,,35,33,10,10,3,3,0.6,0.6
2026-01-03T1800,4226A,104.765114,31.453094,绵阳市,绵阳市气象局,,35,,19,24,18,32,,35,30,15,11,10,11,0.7,0.7
2026-01-03T1800,1784A,129.61,44.561,牡丹江市,环保大楼,颗粒物(PM10),51,52,46,28,32,24,,46,45,45,23,13,13,1.1,0.9
2026-01-03T1800,1787A,129.6364,44.6075,牡丹江市,机车工厂,细颗粒物(PM2.5),68,78,56,49,35,49,,44,44,23,29,6,4,0.7,0.5
2026-01-03T1800,1788A,129.6386,44.5462,牡丹江市,第一中学,颗粒物(PM10),73,96,41,50,32,5,,42,39,52,23,12,7,1.0,0.6
2026-01-03T1800,4287A,129.5992,44.5964,牡丹江市,东晓云街98号,细颗粒物(PM2.5),57,54,53,40,43,56,,45,45,17,26,5,6,0.6,0.8
2026-01-03T1800,2531A,105.0703,29.61,内江市,市监测站,细颗粒物(PM2.5),53,42,27,37,22,36,,35,34,18,16,4,4,0.5,0.5
2026-01-03T1800,2533A,105.0657,29.5807,内江市,内江二中,,,103,32,39,21,21,,29,26,28,18,2,4,,0.8
2026-01-03T1800,2534A,105.0407,29.5828,内江市,内江日报社,细颗粒物(PM2.5),52,39,22,36,18,28,,28,26,23,21,2,2,0.6,0.6
2026-01-03T1800,4147A,105.0433,29.6105,内江市,玉峰路西段888号,颗粒物(PM10),51,51,23,34,17,35,,37,35,16,14,3,3,0.6,0.6
2026-01-03T1800,2628A,92.0653,31.4846,那曲市,那曲监测站,,30,30,39,11,23,94,,91,91,8,21,7,10,0.9,1.2
2026-01-03T1800,4243A,92.0515,31.4787,那曲市,那曲市委宣传部,,31,18,21,3,9,97,,94,94,1,11,4,5,0.4,0.8
2026-01-03T1800,1291A,115.8887,28.7006,南昌市,省林业公司,细颗粒物(PM2.5),58,44,52,41,49,70,,61,61,11,16,6,5,1.0,1
2026-01-03T1800,1292A,115.813,28.7443,南昌市,林科所,,49,48,50,34,42,61,,64,64,25,20,8,6,0.5,0.5
2026-01-03T1800,1294A,115.8518,28.687,南昌市,建工学校,细颗粒物(PM2.5),58,49,59,41,50,62,,58,58,26,26,15,13,0.5,0.6
2026-01-03T1800,1295A,115.8926,28.6425,南昌市,象湖,细颗粒物(PM2.5),52,,54,36,50,64,,57,57,21,22,11,11,0.8,0.9
2026-01-03T1800,3046A,115.9084,28.6062,南昌市,机电学校,细颗粒物(PM2.5),62,60,68,44,53,65,,61,61,24,21,9,7,0.8,0.7
2026-01-03T1800,3690A,115.9718,28.7032,南昌市,外国语学校,细颗粒物(PM2.5),64,50,59,46,47,64,,62,62,25,27,14,12,0.6,0.6
2026-01-03T1800,4106A,115.7923,28.6873,南昌市,工业二路,细颗粒物(PM2.5),53,50,56,37,42,60,,63,63,19,14,6,5,0.4,0.4
2026-01-03T1800,4192A,115.931587,28.686774,南昌市,南京东路235号,细颗粒物(PM2.5),60,43,54,43,53,71,,67,67,30,29,8,7,0.3,0.3
2026-01-03T1800,1906A,106.0791,30.8022,南充市,南充市委,,36,27,25,25,23,36,,40,40,22,20,4,4,0.6,0.6
2026-01-03T1800,1907A,106.1038,30.8215,南充市,南充炼油厂,,43,38,39,30,30,42,,46,46,17,16,6,6,0.4,0.4
2026-01-03T1800,4227A,106.108336,30.788436,南充市,梨树横街98号,,28,26,29,19,20,48,,50,50,20,19,5,5,0.5,0.6
2026-01-03T1800,4304A,106.1172,30.843,南充市,清泉寺北路188号,,35,26,20,24,23,49,,50,50,12,12,6,6,0.7,0.8
2026-01-03T1800,4305A,106.067,30.7616,南充市,同庆路1号,,35,,28,24,26,33,,47,44,25,19,5,6,0.6,0.5
2026-01-03T1800,1151A,118.8033,32.1085,南京市,迈皋桥,,49,46,44,34,29,53,,64,64,17,22,4,4,0.9,0.7
2026-01-03T1800,1152A,118.7487,32.057,南京市,草场门,,49,46,48,34,34,39,,51,51,43,41,6,6,0.4,0.4
2026-01-03T1800,1154A,118.770105,32.004342,南京市,中华门,,42,41,42,29,32,57,,57,57,26,37,5,4,0.5,0.5
2026-01-03T1800,1155A,118.8059,32.0329,南京市,瑞金路,细颗粒物(PM2.5),55,46,42,39,33,52,,56,56,47,53,4,4,0.8,0.7
2026-01-03T1800,1156A,118.7946,32.0774,南京市,玄武湖,,39,39,43,25,27,52,,57,57,20,21,4,4,0.5,0.5
2026-01-03T1800,1157A,118.6415,32.0964,南京市,浦口,细颗粒物(PM2.5),59,62,52,42,36,44,,53,53,45,32,9,10,0.8,0.8
2026-01-03T1800,1158A,118.730129,32.000956,南京市,奥体中心,,49,44,47,34,35,68,,67,67,34,45,6,7,0.5,0.5
2026-01-03T1800,1159A,118.9072,32.1047,南京市,仙林大学城,,49,48,44,34,28,58,,60,60,24,35,6,6,0.7,0.7
2026-01-03T1800,3422A,118.8443,31.919,南京市,江宁彩虹桥,细颗粒物(PM2.5),58,42,47,41,33,57,,58,58,24,38,3,4,0.4,0.5
2026-01-03T1800,3427A,118.8497,32.3599,南京市,六合雄州,细颗粒物(PM2.5),59,57,48,42,30,41,,66,66,45,32,10,12,0.6,0.5
2026-01-03T1800,4086A,118.7641,32.0841,南京市,新模范马路66号,颗粒物(PM10),52,53,52,24,33,50,,54,54,32,30,6,6,0.7,0.9
2026-01-03T1800,4249A,118.8707617,31.34017673,南京市,汶溪路181号,细颗粒物(PM2.5),74,57,62,54,58,73,,85,85,37,32,6,5,0.6,0.6
2026-01-03T1800,4312A,119.019,31.6512,南京市,中山西路1号,细颗粒物(PM2.5),89,68,42,66,43,61,,69,69,30,31,3,4,0.7,0.6
2026-01-03T1800,1401A,108.3098,22.788,南宁市,二十一中,细颗粒物(PM2.5),58,,29,41,19,62,,53,53,20,15,5,5,0.8,0.7
2026-01-03T1800,1402A,108.3135,22.8529,南宁市,北湖,,46,46,29,31,19,65,,58,58,26,18,5,5,0.8,0.7
2026-01-03T1800,1403A,108.3205,22.8222,南宁市,市监测站,,36,36,31,23,23,65,,53,53,14,12,7,7,0.7,0.6
2026-01-03T1800,1404A,108.3828,22.8038,南宁市,大自然花园,,45,44,30,31,18,70,,62,62,19,14,6,7,0.7,0.6
2026-01-03T1800,1406A,108.2397,22.8462,南宁市,区农职院,,48,41,30,33,27,65,,52,52,26,19,9,10,0.8,0.7
2026-01-03T1800,1407A,108.3285,22.7356,南宁市,英华嘉园,,48,38,26,33,17,66,,58,58,19,10,4,4,0.7,0.6
2026-01-03T1800,3401A,108.4829,22.762,南宁市,红星社区,颗粒物(PM10),51,51,26,34,23,71,,65,65,10,9,6,6,0.7,0.6
2026-01-03T1800,4132A,108.2927,23.1477,南宁市,起凤路9号,细颗粒物(PM2.5),53,46,28,37,24,48,,51,51,13,9,2,2,0.8,0.7
2026-01-03T1800,4221A,108.2177,22.7774,南宁市,乐贤路16号,颗粒物(PM10),51,52,33,31,21,56,,50,50,18,7,5,4,0.7,0.5
2026-01-03T1800,2332A,118.1682,26.6371,南平市,南平市监测站,,33,29,17,23,12,54,,69,69,24,13,5,4,0.7,0.4
2026-01-03T1800,2334A,118.1757,26.6276,南平市,南平七中,,37,37,19,15,14,64,,72,71,17,15,5,5,0.5,0.5
2026-01-03T1800,1168A,120.9056,31.9669,南通市,狼山街道,细颗粒物(PM2.5),68,61,38,49,29,35,,49,46,48,22,6,7,1.2,0.8
2026-01-03T1800,1170A,120.8635,32.0231,南通市,城中,细颗粒物(PM2.5),73,79,49,53,30,10,,46,35,91,31,20,10,1.5,0.7
2026-01-03T1800,1171A,120.9376,31.9301,南通市,星湖花园,细颗粒物(PM2.5),64,63,42,46,31,34,,52,50,53,25,8,9,1.9,1
2026-01-03T1800,1172A,120.8053,32.046,南通市,紫琅学院,细颗粒物(PM2.5),84,102,52,62,33,5,,46,35,95,34,17,11,2.0,0.8
2026-01-03T1800,3291A,121.0631,32.0644,南通市,通州监测站,细颗粒物(PM2.5),64,68,43,46,33,9,,56,48,89,35,12,7,1.6,0.7
2026-01-03T1800,3432A,120.9348,31.9874,南通市,环境教育馆,细颗粒物(PM2.5),63,73,38,45,26,30,,50,46,68,32,8,7,1.2,0.7
2026-01-03T1800,4091A,120.8692,31.9885,南通市,洪江路,细颗粒物(PM2.5),73,82,43,53,30,12,,47,36,87,29,8,8,1.1,0.6
2026-01-03T1800,2404A,112.5338,33.0086,南阳市,瓦房庄,细颗粒物(PM2.5),148,121,117,113,111,41,,47,47,15,19,6,6,0.9,0.9
2026-01-03T1800,2405A,112.5002,32.9734,南阳市,汉画馆,细颗粒物(PM2.5),143,124,122,109,110,38,,44,44,20,22,6,5,0.9,0.9
2026-01-03T1800,2406A,112.5778,33.0144,南阳市,气象站,细颗粒物(PM2.5),140,137,126,107,103,42,,49,49,18,19,5,5,0.8,0.8
2026-01-03T1800,2407A,112.548,32.9687,南阳市,理工学院,细颗粒物(PM2.5),124,110,106,94,93,44,,48,48,15,19,5,5,1.0,1
2026-01-03T1800,4008A,112.5233,32.9921,南阳市,卧龙区政府,细颗粒物(PM2.5),138,138,134,105,106,35,,42,42,19,20,5,5,0.8,0.8
2026-01-03T1800,1234A,121.8352,29.9111,宁波市,区环保大楼,,45,45,51,26,29,41,,63,63,62,35,8,8,0.6,0.7
2026-01-03T1800,1235A,121.5595,29.8208,宁波市,万里学院,细颗粒物(PM2.5),62,71,56,44,38,57,,66,66,58,32,6,5,0.5,0.5
2026-01-03T1800,1236A,121.713,29.9564,宁波市,龙赛医院,颗粒物(PM10),54,58,54,32,34,49,,74,74,58,30,3,4,0.6,0.6
2026-01-03T1800,1240A,121.5855,29.8635,宁波市,太古小学,细颗粒物(PM2.5),58,60,51,41,28,62,,74,74,46,22,6,4,0.6,0.6
2026-01-03T1800,1241A,121.5239,29.8673,宁波市,市环境监测中心,细颗粒物(PM2.5),63,63,54,45,35,56,,65,65,53,25,8,6,0.7,0.6
2026-01-03T1800,2871A,121.6156,29.9015,宁波市,万里国际学校,细颗粒物(PM2.5),62,59,49,44,37,68,,76,76,43,31,6,5,0.5,0.5
2026-01-03T1800,3710A,121.5593,29.8976,宁波市,白沙活动中心,,,58,43,45,32,56,,69,69,53,28,6,5,,0.7
2026-01-03T1800,4095A,121.8962,29.7529,宁波市,中科路88号,细颗粒物(PM2.5),53,45,42,37,31,49,,75,74,46,19,7,6,0.9,0.7
2026-01-03T1800,2341A,119.5387,26.6611,宁德市,宁德市监测站,,36,32,23,25,17,82,,81,81,21,18,7,8,0.5,0.5
2026-01-03T1800,3209A,119.5231,26.6562,宁德市,宁德一中,,46,32,24,32,17,78,,81,81,10,13,5,7,0.6,0.6
2026-01-03T1800,2618A,98.859,25.8541,怒江傈僳族自治州,州监测站,,29,29,28,20,20,72,,66,66,10,10,7,7,0.4,0.4
2026-01-03T1800,2619A,98.8607,25.8168,怒江傈僳族自治州,泸水一中,,29,29,27,15,19,62,,53,53,11,18,6,6,0.5,0.5
2026-01-03T1800,1888A,101.6891,26.571,攀枝花市,弄弄坪,,25,25,56,9,30,69,,71,71,21,38,27,47,1.6,2.4
2026-01-03T1800,1889A,101.577,26.5914,攀枝花市,河门口,,28,24,42,10,20,87,,70,70,5,23,9,18,0.4,0.7
2026-01-03T1800,1891A,101.7365,26.4986,攀枝花市,仁和,,22,16,32,8,19,69,,75,75,19,21,7,12,0.6,1
2026-01-03T1800,2835A,101.7222,26.567,攀枝花市,四十中小,,29,29,40,17,24,78,,66,66,7,32,8,22,0.6,1.7
2026-01-03T1800,1604A,122.0303,41.1489,盘锦市,开发区,颗粒物(PM10),60,70,60,41,47,40,,53,53,27,32,8,14,0.6,1.2
2026-01-03T1800,1605A,122.0486,41.0883,盘锦市,兴隆台,细颗粒物(PM2.5),58,46,63,41,48,32,,47,47,48,50,8,15,1.0,1.9
2026-01-03T1800,1606A,121.8297,41.1026,盘锦市,新生街道,,50,46,46,35,31,51,,57,57,24,38,8,14,0.5,1
2026-01-03T1800,1832A,113.3257,33.7423,平顶山市,新华旅馆,细颗粒物(PM2.5),110,92,110,83,88,60,,62,62,,26,7,8,0.6,1.1
2026-01-03T1800,1833A,113.2917,33.737,平顶山市,规划设计院,细颗粒物(PM2.5),112,100,114,84,88,63,,65,65,23,28,6,6,1.0,0.9
2026-01-03T1800,1834A,113.182,33.7738,平顶山市,平顶山工学院,细颗粒物(PM2.5),107,84,99,80,89,65,,69,69,,21,6,6,0.5,0.6
2026-01-03T1800,3594A,112.8736,33.9068,平顶山市,石龙区,细颗粒物(PM2.5),118,105,107,89,87,67,,63,63,22,41,6,7,1.0,1
2026-01-03T1800,4116A,113.284,33.7139,平顶山市,姚电大道23号,细颗粒物(PM2.5),134,114,128,102,97,51,,61,61,22,22,7,6,1.0,1.1
2026-01-03T1800,2656A,106.6633,35.5338,平凉市,聚贤嘉苑,细颗粒物(PM2.5),75,83,70,55,51,66,,67,67,16,20,8,9,0.9,0.9
2026-01-03T1800,2657A,106.7021,35.5307,平凉市,博物馆,细颗粒物(PM2.5),92,72,70,68,57,68,,66,66,15,21,9,9,0.9,0.9
2026-01-03T1800,2348A,113.8384,27.6436,萍乡市,中医院,细颗粒物(PM2.5),62,64,65,44,46,69,,70,70,20,20,7,6,0.8,0.8
2026-01-03T1800,2350A,113.8677,27.6438,萍乡市,市环保局,细颗粒物(PM2.5),70,58,59,51,49,80,,80,80,20,19,14,13,0.3,0.3
2026-01-03T1800,2351A,113.8663,27.6202,萍乡市,安源区政府,细颗粒物(PM2.5),67,62,64,48,51,54,,53,53,25,23,12,11,1.0,1.1
2026-01-03T1800,4107A,113.8686,27.6668,萍乡市,联洪村委会,细颗粒物(PM2.5),73,60,61,53,45,66,,67,67,20,21,9,9,0.9,0.8
2026-01-03T1800,2319A,119.0142,25.4324,莆田市,荔城区仓后路,颗粒物(PM10),53,56,34,28,22,88,,93,93,23,12,/,/,/,/
2026-01-03T1800,2320A,119.0016,25.4553,莆田市,莆田市监测站,,48,48,27,26,18,97,,98,98,17,9,4,3,0.6,0.5
2026-01-03T1800,2321A,119.112,25.4561,莆田市,涵江区六中,颗粒物(PM10),53,55,31,28,23,90,,96,96,19,10,/,/,0.5,0.4
2026-01-03T1800,2322A,119.1014,25.3215,莆田市,秀屿区政府,,49,49,32,29,27,92,,97,97,14,9,5,3,0.7,0.5
2026-01-03T1800,2392A,115.0312,35.7636,濮阳市,环保局,细颗粒物(PM2.5),117,,75,88,77,60,,55,55,29,24,6,7,1.5,1.4
2026-01-03T1800,3021A,115,35.7667,濮阳市,濮水河管理处,细颗粒物(PM2.5),117,120,102,88,76,55,,59,59,44,34,7,7,1.0,0.9
2026-01-03T1800,4118A,115.0552,35.7816,濮阳市,中原东路68号,细颗粒物(PM2.5),122,123,112,92,86,70,,62,62,28,23,6,6,0.8,0.8
2026-01-03T1800,4216A,115.0923632,35.76857718,濮阳市,任丘路479号,细颗粒物(PM2.5),138,113,95,105,90,53,,53,53,38,26,5,5,0.8,0.8
2026-01-03T1800,2601A,100.9801,22.7634,普洱市,市环保局,,30,30,42,20,24,65,,67,67,11,11,4,4,0.4,0.4
2026-01-03T1800,2602A,100.9763,22.8237,普洱市,普洱第二中学,,25,19,35,17,19,68,,67,67,9,15,4,5,0.4,0.5
2026-01-03T1800,3345A,131.0413,45.7795,七台河市,中波台,,46,46,47,25,31,45,,54,54,24,20,12,10,0.6,0.5
2026-01-03T1800,3637A,131.0136,45.7688,七台河市,人民广场,,50,40,53,35,38,42,,52,52,30,27,11,12,0.6,0.6
2026-01-03T1800,3684A,130.8639,45.8144,七台河市,新建矿广场,,42,41,55,29,33,47,,54,54,16,16,9,10,0.5,0.5
2026-01-03T1800,1779A,123.9307,47.3641,齐齐哈尔市,安居小区,细颗粒物(PM2.5),53,39,34,37,24,47,,52,52,26,21,6,7,0.7,0.5
2026-01-03T1800,1780A,123.9497,47.3389,齐齐哈尔市,中心广场,,25,22,24,17,16,48,,57,51,24,16,6,7,0.8,0.5
2026-01-03T1800,1781A,123.9483,47.3229,齐齐哈尔市,农牧车辆厂,,31,31,32,15,18,41,,54,49,25,14,3,4,0.5,0.3
2026-01-03T1800,1783A,123.9442,47.2994,齐齐哈尔市,市环境监测站,,37,37,31,20,17,29,,59,54,46,17,8,8,0.7,0.5
2026-01-03T1800,3662A,123.6341,47.2079,齐齐哈尔市,富区青少年活动中心,细颗粒物(PM2.5),79,77,45,58,31,36,,49,49,36,23,18,8,0.9,0.8
2026-01-03T1800,2591A,107.9765,26.5724,黔东南苗族侗族自治州,市环境监测站,,19,13,20,13,19,23,,44,27,16,10,4,4,0.9,0.7
2026-01-03T1800,2881A,107.8909,26.531,黔东南苗族侗族自治州,凯里学院,,10,9,20,7,16,26,,47,30,18,12,3,4,0.7,0.7
2026-01-03T1800,2593A,107.5223,26.2371,黔南布依族苗族自治州,小围寨,,8,6,9,3,9,24,,39,29,10,6,6,4,0.8,0.7
2026-01-03T1800,3538A,107.5175,26.2977,黔南布依族苗族自治州,沙坝,,10,7,11,7,10,21,,44,27,16,9,3,4,0.8,0.7
2026-01-03T1800,2589A,104.9022,25.0943,黔西南布依族苗族自治州,场坝街,,25,25,14,8,8,22,,22,22,8,7,3,3,0.7,0.7
2026-01-03T1800,2590A,104.8812,25.0994,黔西南布依族苗族自治州,坪东大道,,32,32,16,20,8,24,,24,23,7,6,4,4,0.7,0.7
2026-01-03T1800,2502A,108.6238,21.9667,钦州市,市环保站,颗粒物(PM10),57,63,43,22,23,77,,66,66,22,17,3,3,0.7,0.8
2026-01-03T1800,2503A,108.655,21.9481,钦州市,沙埠小学,"颗粒物(PM10),细颗粒物(PM2.5)",52,54,36,36,21,73,,68,68,29,19,5,5,0.6,0.6
2026-01-03T1800,2504A,108.5989,21.7435,钦州市,港区一小,颗粒物(PM10),52,54,42,29,25,83,,59,59,23,22,12,8,0.6,0.6
2026-01-03T1800,3404A,108.5959,21.9634,钦州市,北职校,,42,38,32,29,25,78,,68,68,15,11,8,8,0.6,0.8
2026-01-03T1800,1046A,119.5247,39.9346,秦皇岛市,建设大厦,细颗粒物(PM2.5),63,52,64,45,40,39,,50,50,30,41,7,12,0.6,0.8
2026-01-03T1800,3132A,119.5979,39.938,秦皇岛市,文明里,颗粒物(PM10),54,57,63,37,31,37,,47,47,29,48,10,15,0.5,0.8
2026-01-03T1800,4066A,119.7458,39.9952,秦皇岛市,南园路157号,细颗粒物(PM2.5),80,71,65,59,34,23,,50,50,52,44,6,10,0.9,0.9
2026-01-03T1800,4067A,119.5131,39.8858,秦皇岛市,翠岛大街1号,,40,40,51,24,29,39,,50,50,31,40,11,15,0.7,0.9
2026-01-03T1800,4198A,119.509013,39.825305,秦皇岛市,北戴河轮滑馆,,50,47,64,35,38,29,,46,46,39,42,4,12,0.6,0.9
2026-01-03T1800,1310A,120.404,36.0625,青岛市,市南区东部子站,颗粒物(PM10),53,56,54,36,33,60,,65,65,40,35,11,13,0.6,0.7
2026-01-03T1800,1311A,120.362344,36.10282,青岛市,四方区子站,细颗粒物(PM2.5),55,56,51,39,38,53,,59,59,42,35,5,10,0.8,0.7
2026-01-03T1800,1312A,120.294373,36.054183,青岛市,市南区西部子站,细颗粒物(PM2.5),68,80,51,49,33,55,,62,62,40,29,6,7,0.6,0.6
2026-01-03T1800,1313A,120.4581,36.0858,青岛市,崂山区子站,颗粒物(PM10),52,53,47,34,29,46,,64,64,50,34,12,13,0.8,0.8
2026-01-03T1800,1315A,120.3945,36.3083,青岛市,城阳区子站,颗粒物(PM10),74,97,73,42,38,17,,56,54,84,48,11,11,1.0,1
2026-01-03T1800,3642A,120.3454,36.0735,青岛市,市北区南部,颗粒物(PM10),53,55,59,36,30,61,,61,61,28,25,5,6,0.6,0.6
2026-01-03T1800,3643A,120.3897,36.18,青岛市,李沧区北部,细颗粒物(PM2.5),85,83,56,63,43,29,,51,51,69,37,12,12,1.1,0.9
2026-01-03T1800,4110A,120.5222,36.4089,青岛市,盟旺路653号,细颗粒物(PM2.5),72,74,70,52,45,33,,63,63,78,45,8,9,0.6,0.6
2026-01-03T1800,4290A,120.196923,35.954556,青岛市,珠江路669号,细颗粒物(PM2.5),77,75,50,56,40,67,,76,76,35,25,12,12,0.8,0.6
2026-01-03T1800,4291A,120.0424,35.8656,青岛市,黄岛区人民政府广场,细颗粒物(PM2.5),83,97,75,61,51,45,,68,68,57,44,10,10,1.0,1
2026-01-03T1800,1703A,113.0218,23.7086,清远市,凤城街办,,29,29,26,19,19,84,,78,78,21,14,/,/,/,/
2026-01-03T1800,3025A,113.0479,23.6343,清远市,技师学院,,27,26,24,16,18,84,,81,81,23,15,6,7,0.7,0.6
2026-01-03T1800,3318A,112.9898,23.7403,清远市,清新太和,,34,34,27,23,18,86,,77,77,19,14,6,6,0.4,0.5
2026-01-03T1800,3455A,113.076,23.72,清远市,清城东城,,35,35,26,21,16,81,,78,78,21,14,/,/,/,/
2026-01-03T1800,2661A,107.6325,35.7357,庆阳市,庆阳五中,细颗粒物(PM2.5),62,45,61,44,57,69,,76,76,22,22,4,5,0.7,0.7
2026-01-03T1800,2662A,107.6361,35.7067,庆阳市,市环保局,细颗粒物(PM2.5),54,43,65,38,60,76,,77,77,14,16,1,2,0.5,0.6
2026-01-03T1800,1916A,103.7897,25.5036,曲靖市,环境监测站,,39,39,28,3,13,73,,74,74,7,10,3,3,0.5,0.6
2026-01-03T1800,1917A,103.8013,25.5357,曲靖市,烟厂办公区,,24,23,26,9,13,76,,76,76,7,10,4,4,0.4,0.4
2026-01-03T1800,3376A,103.7926,25.4651,曲靖市,南苑二区,,25,15,22,9,13,78,,77,77,4,6,4,4,0.4,0.5
2026-01-03T1800,3377A,103.7442,25.5259,曲靖市,曲靖师范学院,,30,30,25,6,15,74,,75,75,6,8,7,3,0.6,0.5
2026-01-03T1800,1264A,118.8694,28.94,衢州市,环保大楼,细颗粒物(PM2.5),89,89,73,66,56,67,,74,74,42,30,/,/,/,/
2026-01-03T1800,1266A,118.8622,28.9809,衢州市,衢州学院,细颗粒物(PM2.5),89,84,64,66,53,71,,77,77,34,26,5,4,0.4,0.3
2026-01-03T1800,4097A,118.9646,28.9832,衢州市,衢州三中,细颗粒物(PM2.5),95,92,82,71,62,76,,73,73,25,29,5,5,0.5,0.5
2026-01-03T1800,1611A,118.5818,24.9116,泉州市,涂山街,颗粒物(PM10),51,51,30,30,22,95,,97,97,18,11,3,3,0.5,0.5
2026-01-03T1800,1612A,118.597,24.8976,泉州市,津头埔,,50,50,30,30,24,93,,95,95,20,13,5,4,0.5,0.4
2026-01-03T1800,1613A,118.6669,24.9422,泉州市,万安,颗粒物(PM10),52,53,34,24,20,92,,96,96,16,11,4,4,0.5,0.3
2026-01-03T1800,4105A,118.6355,24.9148,泉州市,霞新路6号,,40,34,40,28,29,90,,95,95,19,10,/,/,0.4,0.3
2026-01-03T1800,2626A,88.8873,29.2723,日喀则市,日喀则监测站,,31,6,20,3,8,99,,94,94,2,12,9,11,0.3,0.5
2026-01-03T1800,3726A,88.8775,29.2425,日喀则市,林业技术推广中心,,35,35,20,3,5,94,,90,90,2,3,11,11,0.3,0.3
2026-01-03T1800,1659A,119.4711,35.421,日照市,监测站,细颗粒物(PM2.5),125,127,89,95,64,42,,70,70,68,52,18,15,1.1,1
2026-01-03T1800,1660A,119.523,35.4216,日照市,市政府广场,细颗粒物(PM2.5),108,110,78,81,57,65,,74,74,47,44,12,15,0.6,0.6
2026-01-03T1800,1661A,119.5511,35.4113,日照市,港务局,细颗粒物(PM2.5),115,119,100,87,65,48,,70,70,63,50,11,15,0.8,0.7
2026-01-03T1800,3507A,119.5326,35.4627,日照市,职业技术学院,细颗粒物(PM2.5),117,132,78,88,48,53,,73,73,66,45,12,12,1.0,0.9
2026-01-03T1800,3604A,119.3267,35.1043,日照市,岚山环保分局,细颗粒物(PM2.5),104,110,104,78,77,66,,75,75,42,45,17,21,1.0,1.3
2026-01-03T1800,1835A,111.1922,34.7752,三门峡市,市政府,细颗粒物(PM2.5),193,,115,145,130,48,,49,49,32,26,9,8,1.1,0.9
2026-01-03T1800,1836A,111.1588,34.794,三门峡市,开发区,细颗粒物(PM2.5),189,159,133,142,122,48,,47,47,24,22,4,4,1.1,0.9
2026-01-03T1800,3039A,111.1911,34.7829,三门峡市,三门峡市第一小学,细颗粒物(PM2.5),190,144,118,143,122,46,,46,46,29,23,9,8,1.1,1
2026-01-03T1800,3598A,111.1031,34.719,三门峡市,富达温泉假日酒店,细颗粒物(PM2.5),188,147,133,141,122,48,,48,48,45,37,14,13,1.2,1
2026-01-03T1800,2324A,117.621,26.2626,三明市,三钢,,38,34,24,26,18,66,,66,66,17,16,10,6,0.7,0.8
2026-01-03T1800,2325A,117.6352,26.2714,三明市,三明二中,,28,20,22,19,16,65,,63,63,13,14,11,7,0.6,0.6
2026-01-03T1800,2326A,117.6028,26.2377,三明市,三元区政府,,35,31,21,24,13,67,,66,66,18,16,9,5,0.5,0.5
2026-01-03T1800,1877A,109.4962,18.2682,三亚市,河西子站,,40,40,35,19,24,103,,100,100,10,9,4,4,0.5,0.6
2026-01-03T1800,3540A,109.7348,18.3443,三亚市,君悦子站,,42,42,36,15,19,100,,95,95,8,9,6,5,0.5,0.6
2026-01-03T1800,4135A,109.1714,18.3739,三亚市,城东小学站,,43,43,31,16,21,93,,96,96,10,8,/,/,/,/
2026-01-03T1800,2624A,91.7592,29.234,山南市,山南监测站,,28,22,17,7,7,89,,83,83,2,3,4,3,0.2,0.2
2026-01-03T1800,2625A,91.7701,29.2436,山南市,山南人民医院,,27,10,15,3,7,85,,80,80,3,3,1,2,0.3,0.3
2026-01-03T1800,1674A,116.6795,23.3666,汕头市,金平子站,,45,42,30,31,20,116,,101,101,14,14,4,7,0.7,0.7
2026-01-03T1800,1675A,116.7248,23.3632,汕头市,龙湖子站,,46,46,29,26,14,112,,97,97,13,12,10,11,/,/
2026-01-03T1800,1676A,116.7257,23.2774,汕头市,濠江子站,,49,49,32,32,21,109,,95,95,15,15,7,8,/,/
2026-01-03T1800,1677A,116.7518,23.4712,汕头市,澄海子站,,49,49,32,33,19,115,,100,100,16,15,6,8,0.7,0.7
2026-01-03T1800,1678A,116.6088,23.2539,汕头市,潮阳子站,,47,47,31,28,17,118,,103,103,14,13,6,7,0.5,0.5
2026-01-03T1800,3444A,116.4539,23.2684,汕头市,潮南峡山,,46,46,32,30,20,113,,100,100,14,15,9,10,0.5,0.6
2026-01-03T1800,3624A,116.4069,23.2533,汕头市,潮南子站,颗粒物(PM10),61,72,37,32,20,107,,93,93,15,16,6,8,/,/
2026-01-03T1800,1693A,115.3653,22.7751,汕尾市,市环保局,颗粒物(PM10),51,52,24,27,14,99,,80,80,29,12,7,7,0.5,0.4
2026-01-03T1800,1695A,115.362,22.7926,汕尾市,新城中学,,38,33,22,26,15,115,,88,88,13,8,6,6,0.4,0.4
2026-01-03T1800,2645A,109.9155,33.8714,商洛市,监测站,细颗粒物(PM2.5),72,61,63,52,57,63,,44,44,27,34,4,6,0.7,0.9
2026-01-03T1800,3045A,109.9647,33.8486,商洛市,商州区中学,细颗粒物(PM2.5),72,57,63,52,63,65,,39,39,18,28,5,9,0.7,0.8
2026-01-03T1800,2408A,115.6701,34.4283,商丘市,环境监测站,细颗粒物(PM2.5),73,55,78,53,74,77,,80,80,18,14,2,2,0.3,0.4
2026-01-03T1800,2409A,115.6458,34.4047,商丘市,粮食局,细颗粒物(PM2.5),72,,71,52,71,74,,76,76,19,17,4,4,0.5,0.6
2026-01-03T1800,3171A,115.6069,34.4465,商丘市,梁园区档案局,细颗粒物(PM2.5),67,,65,48,68,70,,71,71,14,17,2,4,0.5,0.5
2026-01-03T1800,4119A,115.6701,34.3767,商丘市,北海东路185号,细颗粒物(PM2.5),70,66,94,51,72,68,,77,77,21,18,2,2,0.4,0.7
2026-01-03T1800,4120A,115.6172,34.3704,商丘市,中山大街3号,,,78,116,74,83,59,,71,71,24,23,,2,0.6,0.6
2026-01-03T1800,1141A,121.401,31.2382,上海市,普陀,颗粒物(PM10),54,58,46,37,30,32,,56,54,62,39,7,8,0.6,0.6
2026-01-03T1800,1142A,121.4774,31.2043,上海市,十五厂,颗粒物(PM10),53,55,45,36,27,29,,57,55,71,31,8,9,0.8,0.8
2026-01-03T1800,1143A,121.4673,31.3011,上海市,虹口,颗粒物(PM10),62,74,49,40,26,2,,47,42,88,32,13,12,0.6,0.4
2026-01-03T1800,1147A,121.4253,31.226,上海市,静安监测站,颗粒物(PM10),53,56,44,32,29,44,,59,58,52,33,8,8,0.5,0.5
2026-01-03T1800,1148A,121.7029,31.1905,上海市,浦东川沙,细颗粒物(PM2.5),74,82,48,54,29,4,,42,37,90,38,12,9,1.3,0.8
2026-01-03T1800,1149A,121.5339,31.229,上海市,浦东新区监测站,细颗粒物(PM2.5),57,56,43,40,28,16,,50,46,79,33,9,9,0.8,0.8
2026-01-03T1800,1150A,121.5776,31.2038,上海市,浦东张江,细颗粒物(PM2.5),62,72,44,44,25,4,,56,50,92,31,13,9,1.2,0.8
2026-01-03T1800,3265A,121.4242,31.3303,上海市,宝山庙行,颗粒物(PM10),62,73,47,43,29,2,,48,44,96,41,9,8,0.7,0.6
2026-01-03T1800,3266A,121.8789,31.4662,上海市,崇明上实东滩,颗粒物(PM10),52,54,35,35,23,51,,60,60,28,16,6,6,0.3,0.3
2026-01-03T1800,3268A,121.316,31.2839,上海市,嘉定南翔,"颗粒物(PM10),细颗粒物(PM2.5)",54,58,48,38,30,19,,54,52,69,44,5,5,0.6,0.6
2026-01-03T1800,3269A,121.3357,30.7455,上海市,金山新城,细颗粒物(PM2.5),85,65,45,63,39,78,,78,78,42,33,11,10,0.9,0.8
2026-01-03T1800,3270A,121.4996,31.0741,上海市,闵行浦江,颗粒物(PM10),53,56,43,35,27,28,,54,52,59,39,8,8,0.5,0.4
2026-01-03T1800,3271A,121.2886,31.1663,上海市,青浦徐泾,细颗粒物(PM2.5),53,54,44,37,29,27,,62,60,64,41,6,6,0.8,0.8
2026-01-03T1800,3272A,121.2193,31.0382,上海市,松江图书馆,颗粒物(PM10),56,62,50,26,18,37,,62,60,54,34,8,8,0.5,0.4
2026-01-03T1800,3273A,121.3904,31.206,上海市,长宁仙霞,细颗粒物(PM2.5),58,61,45,41,27,21,,56,53,72,40,8,8,0.7,0.5
2026-01-03T1800,3274A,121.7964,31.0507,上海市,浦东惠南,细颗粒物(PM2.5),62,71,45,44,26,42,,52,52,50,35,6,7,0.7,0.7
2026-01-03T1800,3544A,121.4891,30.925,上海市,奉贤南桥新城,细颗粒物(PM2.5),80,80,49,59,32,63,,62,62,58,36,11,8,0.8,0.7
