timepoint,stationcode,longitude,latitude,area,positionname,primarypollutant,aqi,pm10,pm10_24h,pm2_5,pm2_5_24h,o3,o3_24h,o3_8h,o3_8h_24h,no2,no2_24h,so2,so2_24h,co,co_24h
2023-09-01T19:00:00,1001A,116.3621,39.8784,北京市,万寿西宫,,41,30,41,15,28,141,129,132,132,15,21,3,2,0.7,0.8
2023-09-01T19:00:00,1002A,116.2202,40.2915,北京市,定陵,,25,25,25,11,16,143,74,112,112,7,5,3,3,0.4,0.4
2023-09-01T19:00:00,1003A,116.4174,39.9289,北京市,东四,,45,31,39,13,24,163,141,146,146,11,18,3,2,0.5,0.6
2023-09-01T19:00:00,1004A,116.4072,39.8863,北京市,天坛,,40,29,36,16,27,159,127,133,133,12,16,3,3,0.5,0.7
2023-09-01T19:00:00,1005A,116.462,39.9365,北京市,农展馆,,44,36,39,15,23,168,138,139,139,17,28,3,3,0.5,0.6
2023-09-01T19:00:00,1006A,116.3392,39.9295,北京市,官园,,40,23,44,10,30,159,126,144,144,12,20,4,5,0.4,0.7
2023-09-01T19:00:00,1007A,116.2878,39.9611,北京市,海淀万柳,,29,15,42,7,26,142,92,123,123,17,25,3,3,0.3,0.6
2023-09-01T19:00:00,1008A,116.6636,40.135,北京市,顺义新城,,40,26,32,13,20,166,127,134,134,25,16,3,3,0.4,0.5
2023-09-01T19:00:00,1009A,116.6275,40.3275,北京市,怀柔镇,,37,23,27,14,18,147,117,115,115,18,11,3,3,0.5,0.4
2023-09-01T19:00:00,1010A,116.2296,40.217,北京市,昌平镇,,31,25,30,11,20,148,97,120,120,16,16,3,3,0.3,0.4
2023-09-01T19:00:00,1011A,116.3966,39.9821,北京市,奥体中心,,37,31,40,11,27,143,117,120,120,15,23,3,2,0.5,0.7
2023-09-01T19:00:00,1012A,116.184,39.9136,北京市,古城,,33,31,49,13,30,145,104,124,124,20,20,3,3,0.6,0.7
2023-09-01T19:00:00,1015A,117.1444,39.1661,天津市,勤俭道,,50,29,42,13,26,207,157,180,180,25,25,8,8,0.6,0.9
2023-09-01T19:00:00,1017A,117.237,39.1082,天津市,大直沽八号路,,45,23,42,11,25,181,141,152,152,24,27,4,5,0.7,1
2023-09-01T19:00:00,1018A,117.202,39.0927,天津市,前进道,,44,24,39,9,22,179,138,150,150,24,23,6,7,0.5,0.8
2023-09-01T19:00:00,1019A,117.1837,39.2133,天津市,淮河道,,46,24,43,11,27,188,145,168,168,22,30,6,6,0.6,0.9
2023-09-01T19:00:00,1021A,117.307,39.0877,天津市,跃进路,,45,21,40,10,24,191,144,166,166,28,32,6,7,0.7,0.9
2023-09-01T19:00:00,1023A,117.707,39.0343,天津市,第四大街,,46,46,44,27,26,170,141,137,137,57,40,5,6,0.9,1
2023-09-01T19:00:00,1024A,117.457,38.8394,天津市,永明路,,40,23,38,11,23,192,125,164,164,30,31,7,8,0.7,0.9
2023-09-01T19:00:00,1026A,117.764,39.1587,天津市,汉北路,颗粒物(PM10),54,58,44,29,25,173,149,157,157,65,30,11,7,1.1,1.1
2023-09-01T19:00:00,1027A,117.157,38.9194,天津市,团泊洼,,40,19,33,8,20,159,128,143,143,18,29,4,5,0.6,0.9
2023-09-01T19:00:00,1029A,114.4422,38.0444,石家庄市,职工医院,,,,64,,45,194,148,182,182,16,11,1,6,,0.6
2023-09-01T19:00:00,1030A,114.6063,38.0266,石家庄市,高新区,,,,65,,39,192,149,174,174,13,14,2,2,,0.5
2023-09-01T19:00:00,1031A,114.4898,38.1328,石家庄市,西北水源,细颗粒物(PM2.5),64,34,59,46,38,184,152,172,172,16,12,3,2,0.7,0.7
2023-09-01T19:00:00,1032A,114.4586,38.0058,石家庄市,西南高教,,46,46,59,32,41,188,136,174,172,15,10,3,2,0.5,0.6
2023-09-01T19:00:00,1033A,114.5331,38.0178,石家庄市,世纪公园,细颗粒物(PM2.5),54,55,65,38,36,175,136,161,159,16,14,1,2,0.8,0.6
2023-09-01T19:00:00,1034A,114.509,38.0457,石家庄市,人民会堂,细颗粒物(PM2.5),58,59,59,41,42,192,154,179,179,12,13,3,4,0.4,0.5
2023-09-01T19:00:00,1035A,114.3524,37.8911,石家庄市,封龙山,颗粒物(PM10),60,70,60,31,31,189,148,164,163,12,12,2,3,0.8,1
2023-09-01T19:00:00,1037A,118.131,39.6363,唐山市,雷达站,,,,42,,21,122,,115,115,,34,,3,,0.7
2023-09-01T19:00:00,1038A,118.1725,39.6334,唐山市,物资局,,42,42,35,18,21,146,132,121,121,20,19,3,6,0.6,0.8
2023-09-01T19:00:00,1040A,118.1705,39.6506,唐山市,十二中,,41,41,27,22,22,141,125,121,121,24,24,2,4,0.5,0.8
2023-09-01T19:00:00,1041A,118.1869,39.622,唐山市,小山,,41,36,34,20,14,142,130,122,122,24,22,1,3,0.6,0.8
2023-09-01T19:00:00,1042A,119.5134,39.8207,秦皇岛市,北戴河环保局,,49,24,14,19,7,176,156,127,127,26,23,9,9,0.9,0.3
2023-09-01T19:00:00,1043A,119.7493,40.0116,秦皇岛市,第一关,,48,48,22,22,13,163,151,118,118,20,43,9,9,1.0,0.4
2023-09-01T19:00:00,1044A,119.5897,39.9499,秦皇岛市,监测站,,35,35,22,17,11,135,108,109,109,42,34,6,6,0.8,0.3
2023-09-01T19:00:00,1046A,119.5251,39.9041,秦皇岛市,建设大厦,,,45,36,4,8,104,,91,91,23,35,2,4,0.5,0.3
2023-09-01T19:00:00,1048A,114.5302,36.6116,邯郸市,东污水处理厂,颗粒物(PM10),54,57,53,36,38,144,128,133,133,15,15,4,5,0.4,0.5
2023-09-01T19:00:00,1049A,114.4918,36.5713,邯郸市,矿院,细颗粒物(PM2.5),55,45,43,39,40,155,134,136,136,12,14,3,3,0.5,0.6
2023-09-01T19:00:00,1050A,114.484,36.6133,邯郸市,丛台公园,细颗粒物(PM2.5),54,52,53,38,33,166,126,132,132,10,11,3,4,0.4,0.4
2023-09-01T19:00:00,1051A,115.493,38.8632,保定市,游泳馆,颗粒物(PM10),54,57,58,24,30,162,131,148,148,18,20,10,8,0.5,0.7
2023-09-01T19:00:00,1052A,115.5213,38.8959,保定市,华电二区,,43,38,50,22,29,153,136,142,142,10,15,13,7,0.5,0.8
2023-09-01T19:00:00,1053A,115.4713,38.9108,保定市,接待中心,,47,47,66,22,31,171,131,149,149,10,14,9,8,0.3,0.6
2023-09-01T19:00:00,1054A,115.4612,38.8416,保定市,地表水厂,颗粒物(PM10),53,56,68,23,29,162,108,141,141,28,24,10,10,0.4,0.7
2023-09-01T19:00:00,1056A,115.5086,38.8639,保定市,监测站,细颗粒物(PM2.5),52,50,53,36,31,157,140,146,146,13,19,5,6,0.4,0.7
2023-09-01T19:00:00,1057A,114.8883,40.8336,张家口市,人民公园,,36,29,17,12,3,126,114,111,111,12,8,2,2,0.2,0.1
2023-09-01T19:00:00,1059A,114.8687,40.8042,张家口市,五金库,,33,32,22,23,9,121,103,106,106,18,9,2,2,0.4,0.3
2023-09-01T19:00:00,1060A,114.8902,40.762,张家口市,世纪豪园,,34,33,22,15,10,124,108,107,107,14,12,3,4,0.3,0.2
2023-09-01T19:00:00,1061A,114.8916,40.8661,张家口市,北泵房,,36,29,15,13,5,134,115,117,117,9,5,7,6,0.3,0.2
2023-09-01T19:00:00,1062A,117.9531,40.9081,承德市,铁路,,33,33,20,12,8,96,53,70,70,47,22,8,9,0.4,0.4
2023-09-01T19:00:00,1063A,117.9392,40.9763,承德市,中国银行,,44,44,18,25,6,102,45,76,76,29,17,8,9,0.5,0.3
2023-09-01T19:00:00,1064A,117.9503,40.928,承德市,开发区,,29,29,23,10,13,108,59,77,77,24,22,6,6,0.4,0.4
2023-09-01T19:00:00,1065A,117.8051,40.9655,承德市,文化中心,颗粒物(PM10),54,57,37,18,16,97,48,75,75,23,27,6,21,0.4,0.6
2023-09-01T19:00:00,1066A,117.9268,41.0026,承德市,离宫,,31,31,18,21,14,94,57,72,72,6,11,2,3,0.3,0.3
2023-09-01T19:00:00,1067A,116.6708,39.5111,廊坊市,药材公司,颗粒物(PM10),53,55,47,23,30,166,112,148,148,18,25,1,2,0.5,0.6
2023-09-01T19:00:00,1068A,116.7214,39.5589,廊坊市,开发区,,45,45,33,18,28,173,136,154,154,19,23,2,2,0.4,0.6
2023-09-01T19:00:00,1070A,116.7244,39.5269,廊坊市,北华航天学院,,,54,50,26,26,172,142,158,158,13,30,3,3,,0.6
2023-09-01T19:00:00,1071A,116.8842,38.2991,沧州市,沧县城建局,,48,45,41,26,22,181,153,160,160,34,22,5,6,0.8,0.9
2023-09-01T19:00:00,1072A,116.8584,38.3254,沧州市,电视转播站,臭氧1小时,73,50,45,22,23,178,178,157,157,20,23,7,8,0.6,0.7
2023-09-01T19:00:00,1073A,116.8709,38.3228,沧州市,市环保局,颗粒物(PM10),60,70,49,31,26,174,164,154,154,24,21,4,6,0.6,0.6
2023-09-01T19:00:00,1074A,115.6838,37.7541,衡水市,电机北厂,,48,48,59,30,36,175,143,155,155,9,9,5,6,0.5,0.6
2023-09-01T19:00:00,1075A,115.6303,37.7316,衡水市,市监测站,颗粒物(PM10),52,54,54,22,29,178,148,157,157,12,13,2,3,0.6,0.7
2023-09-01T19:00:00,1077A,114.4704,37.0886,邢台市,达活泉,颗粒物(PM10),58,66,64,35,33,155,132,151,143,4,5,2,3,0.5,0.6
2023-09-01T19:00:00,1078A,114.5062,37.0349,邢台市,邢师高专,颗粒物(PM10),55,60,64,37,40,160,120,142,141,9,10,4,4,0.5,0.6
2023-09-01T19:00:00,1079A,114.5237,37.0851,邢台市,路桥公司,细颗粒物(PM2.5),53,52,57,37,35,149,115,132,132,10,10,7,7,0.8,0.8
2023-09-01T19:00:00,1080A,114.4725,37.0719,邢台市,市环保局,细颗粒物(PM2.5),53,54,69,37,36,152,123,140,140,6,6,5,4,0.7,0.7
2023-09-01T19:00:00,1081A,112.522,37.8873,太原市,尖草坪,臭氧1小时,58,64,84,36,53,224,166,190,190,17,39,8,7,0.9,1.1
2023-09-01T19:00:00,1083A,112.434,38.0108,太原市,上兰,,,,,,,,,,,,,,,,
2023-09-01T19:00:00,1084A,112.469,37.7124,太原市,晋源,,44,44,78,22,48,196,134,175,173,16,29,3,5,0.7,1
2023-09-01T19:00:00,1085A,112.5583,37.7394,太原市,小店,,44,41,97,23,47,185,139,171,171,14,24,4,5,0.7,0.9
2023-09-01T19:00:00,1086A,112.5369,37.8692,太原市,桃园,细颗粒物(PM2.5),65,68,70,47,46,213,155,182,182,19,44,6,7,0.9,1.1
2023-09-01T19:00:00,1087A,112.57,37.8195,太原市,坞城,细颗粒物(PM2.5),64,70,78,46,46,221,147,182,182,19,34,8,9,0.9,1.1
2023-09-01T19:00:00,1088A,112.549,37.9854,太原市,南寨,,,,86,,46,208,,193,193,,44,,6,,1
2023-09-01T19:00:00,1090A,111.6507,40.7517,呼和浩特市,呼市一监,,41,41,26,6,9,179,124,150,150,12,18,6,7,0.4,0.5
2023-09-01T19:00:00,1091A,111.6572,40.8033,呼和浩特市,小召,,39,27,33,6,10,176,123,148,148,17,24,5,7,0.5,0.5
2023-09-01T19:00:00,1094A,111.7516,40.8369,呼和浩特市,如意水处理厂,,40,40,28,8,8,185,127,154,154,14,23,6,8,0.4,0.4
2023-09-01T19:00:00,1095A,111.7276,40.8062,呼和浩特市,二十九中,颗粒物(PM10),72,93,32,9,11,184,132,154,154,14,27,6,9,0.5,0.6
2023-09-01T19:00:00,1096A,111.5512,40.7866,呼和浩特市,工大金川校区,颗粒物(PM10),55,59,30,8,9,186,117,148,148,18,23,4,6,0.5,0.5
2023-09-01T19:00:00,1097A,111.717,40.7612,呼和浩特市,化肥厂生活区,,41,40,31,11,9,181,131,157,157,16,19,5,8,0.4,0.4
2023-09-01T19:00:00,1098A,123.6836,41.9339,沈阳市,森林路,,,,,,,,,,,,,,,,
2023-09-01T19:00:00,1099A,123.505,41.7406,沈阳市,浑南东路,,28,28,34,13,15,118,83,108,107,40,27,10,21,0.6,0.9
2023-09-01T19:00:00,1100A,123.4231,41.6989,沈阳市,新秀街,,45,45,40,12,14,106,69,95,94,58,32,9,26,0.7,1
2023-09-01T19:00:00,1102A,123.5903,41.8411,沈阳市,东陵路,,31,31,34,11,13,127,70,103,102,33,26,6,10,0.6,0.9
2023-09-01T19:00:00,1103A,123.4264,41.8467,沈阳市,陵东街,,25,24,28,11,16,115,80,99,99,27,25,7,9,0.5,0.9
2023-09-01T19:00:00,1104A,123.4114,41.7653,沈阳市,文化路,,25,25,36,9,18,120,78,105,105,39,23,7,15,0.5,0.9
2023-09-01T19:00:00,1105A,123.4678,41.7867,沈阳市,小河沿,,30,30,36,13,16,117,84,101,101,32,26,6,10,0.6,1.1
2023-09-01T19:00:00,1106A,123.4017,41.7972,沈阳市,太原街,,26,26,36,9,18,118,80,100,100,35,25,7,14,0.5,0.9
2023-09-01T19:00:00,1108A,123.3783,41.9228,沈阳市,京沈街,,36,36,35,12,19,116,65,104,103,21,13,11,13,0.6,1
2023-09-01T19:00:00,1109A,121.612,38.9741,大连市,甘井子,,36,36,37,12,17,166,86,126,117,29,24,4,4,0.9,0.9
2023-09-01T19:00:00,1110A,121.565,38.9511,大连市,周水子,,,24,29,12,17,145,84,123,116,,30,8,10,,0.4
2023-09-01T19:00:00,1111A,121.5637,38.8845,大连市,星海三站,,31,22,27,11,19,179,97,153,148,13,12,5,6,0.3,0.4
2023-09-01T19:00:00,1112A,121.6302,38.9117,大连市,青泥洼桥,,27,27,31,13,20,178,69,147,140,36,23,5,5,0.8,0.7
2023-09-01T19:00:00,1113A,121.6251,38.8638,大连市,傅家庄,,42,17,28,11,18,188,133,162,159,13,13,10,10,0.6,0.4
2023-09-01T19:00:00,1114A,121.5213,38.8661,大连市,七贤岭,,30,22,25,12,17,191,96,162,153,20,12,5,5,0.5,0.6
2023-09-01T19:00:00,1115A,121.2529,38.8061,大连市,旅顺,,41,24,23,17,15,150,129,127,124,19,15,7,5,1.0,0.7
2023-09-01T19:00:00,1116A,121.7485,39.1311,大连市,金州,,34,31,26,10,16,135,107,121,118,16,17,7,7,0.4,0.4
2023-09-01T19:00:00,1117A,121.7811,39.0496,大连市,开发区,,29,26,31,9,20,181,91,150,143,26,25,5,6,0.6,0.6
2023-09-01T19:00:00,1118A,121.9762,39.0631,大连市,双D港,,24,23,25,12,16,203,75,172,158,24,13,7,7,0.5,0.5
2023-09-01T19:00:00,1119A,125.3325,43.9166,长春市,食品厂,,40,40,30,20,16,76,17,67,61,62,23,4,4,0.7,0.5
2023-09-01T19:00:00,1120A,125.2863,43.9027,长春市,客车厂,,24,24,25,15,16,78,36,71,67,45,19,5,5,0.6,0.5
2023-09-01T19:00:00,1121A,125.2841,43.8463,长春市,邮电学院,,30,30,26,13,16,83,54,79,77,20,12,5,5,0.4,0.4
2023-09-01T19:00:00,1122A,125.3716,43.8772,长春市,劳动公园,,21,16,24,8,12,85,65,80,79,21,14,7,6,0.4,0.4
2023-09-01T19:00:00,1123A,125.3297,43.8805,长春市,园林处,,21,21,26,6,13,79,53,75,74,21,14,5,5,0.4,0.5
2023-09-01T19:00:00,1124A,125.4605,43.79,长春市,净月潭,,16,13,18,5,9,86,50,77,75,12,8,5,6,0.2,0.3
2023-09-01T19:00:00,1125A,125.7194,43.515,长春市,甩湾子,,,,,,,,,,,,,,,,
2023-09-01T19:00:00,1126A,125.3863,43.8447,长春市,经开区环卫处,,30,20,28,21,17,78,48,71,70,24,13,4,5,0.4,0.4
2023-09-01T19:00:00,1127A,125.245,43.7783,长春市,高新区管委会,,25,25,22,11,13,81,38,76,72,28,12,5,5,0.4,0.5
2023-09-01T19:00:00,1128A,125.1761,43.8325,长春市,岱山公园,,33,9,31,19,15,76,14,70,63,66,19,3,4,0.5,0.5
2023-09-01T19:00:00,1129A,126.5422,45.755,哈尔滨市,岭北,,17,12,11,7,8,67,53,61,61,12,10,8,8,0.3,0.3
2023-09-01T19:00:00,1130A,126.561,45.8167,哈尔滨市,松北商大,,15,15,14,8,6,48,28,38,37,25,17,6,6,0.5,0.4
2023-09-01T19:00:00,1131A,126.979,45.5419,哈尔滨市,阿城会宁,,32,32,25,13,12,63,18,55,50,32,11,7,5,1.5,0.7
2023-09-01T19:00:00,1132A,126.599,45.7222,哈尔滨市,南岗学府路,,33,33,23,10,6,59,40,52,51,21,13,6,7,0.5,0.5
2023-09-01T19:00:00,1133A,126.689,45.7733,哈尔滨市,太平宏伟公园,,30,30,18,12,7,56,37,50,48,25,18,4,4,0.6,0.4
2023-09-01T19:00:00,1134A,126.635,45.7667,哈尔滨市,道外承德广场,,26,26,16,4,10,55,40,48,48,27,24,7,8,0.5,0.4
2023-09-01T19:00:00,1135A,126.685,45.7319,哈尔滨市,香坊红旗大街,,36,16,22,25,10,64,40,57,56,32,26,7,8,0.8,0.6
2023-09-01T19:00:00,1136A,126.6411,45.7258,哈尔滨市,动力和平路,,,27,19,,,60,32,52,50,37,24,7,7,0.6,0.5
2023-09-01T19:00:00,1137A,126.593,45.7478,哈尔滨市,道里建国路,,20,13,19,7,10,52,18,46,43,40,22,4,4,0.6,0.4
2023-09-01T19:00:00,1138A,126.615,45.61,哈尔滨市,平房东轻厂,,22,22,17,8,6,63,24,57,54,33,15,6,6,0.4,0.3
2023-09-01T19:00:00,1139A,126.595,45.9855,哈尔滨市,呼兰师专,,21,21,16,11,6,60,48,51,51,13,11,5,6,0.5,0.5
2023-09-01T19:00:00,1140A,126.6206,45.6842,哈尔滨市,省农科院,,30,30,23,5,6,68,54,63,63,16,20,6,4,0.4,0.4
2023-09-01T19:00:00,1141A,121.4,31.238,上海市,普陀,,31,20,16,7,9,109,98,104,103,10,20,4,4,0.6,0.6
2023-09-01T19:00:00,1142A,121.478,31.2036,上海市,十五厂,,31,26,17,13,9,114,98,107,106,18,23,10,11,0.3,0.4
2023-09-01T19:00:00,1143A,121.467,31.3008,上海市,虹口,,30,18,12,19,11,106,93,103,102,19,25,6,6,0.5,0.5
2023-09-01T19:00:00,1144A,121.412,31.1654,上海市,徐汇上师大,,30,19,17,14,12,116,96,109,106,16,25,6,11,0.3,0.5
2023-09-01T19:00:00,1145A,121.536,31.2659,上海市,杨浦四漂,,33,21,16,11,11,117,103,111,110,9,15,6,7,0.7,0.7
2023-09-01T19:00:00,1147A,121.425,31.2261,上海市,静安监测站,,33,18,14,8,9,117,103,110,110,13,20,3,3,0.4,0.5
2023-09-01T19:00:00,1148A,121.703,31.1907,上海市,浦东川沙,,32,23,17,15,13,113,101,107,106,9,10,6,6,0.6,0.6
2023-09-01T19:00:00,1149A,121.533,31.2284,上海市,浦东新区监测站,,29,21,14,10,9,108,90,103,101,12,16,7,6,0.5,0.5
2023-09-01T19:00:00,1150A,121.577,31.2071,上海市,浦东张江,,,,15,,8,102,90,95,94,,19,,5,0.5,0.5
2023-09-01T19:00:00,1151A,118.8086,32.1065,南京市,迈皋桥,,41,31,22,14,9,162,129,151,151,18,22,5,5,0.3,0.3
2023-09-01T19:00:00,1152A,118.7538,32.0551,南京市,草场门,,42,31,24,12,9,176,134,157,157,22,21,4,3,0.5,0.5
2023-09-01T19:00:00,1153A,118.7794,32.0745,南京市,山西路,,42,31,28,12,9,177,134,158,158,15,15,3,4,0.3,0.3
2023-09-01T19:00:00,1154A,118.7752,32.0023,南京市,中华门,,42,34,24,17,9,160,133,150,150,18,18,4,3,0.6,0.6
2023-09-01T19:00:00,1155A,118.8109,32.0309,南京市,瑞金路,,40,31,22,14,8,155,127,145,145,12,15,9,8,0.4,0.4
2023-09-01T19:00:00,1156A,118.7997,32.0754,南京市,玄武湖,,42,35,27,17,9,167,132,150,150,13,21,6,6,0.3,0.2
2023-09-01T19:00:00,1157A,118.6414,32.0931,南京市,浦口,,46,32,26,16,11,156,145,150,150,17,21,14,8,0.9,0.6
2023-09-01T19:00:00,1158A,118.7356,31.9996,南京市,奥体中心,,48,39,26,22,12,172,151,162,162,17,20,6,6,0.4,0.4
2023-09-01T19:00:00,1159A,118.9125,32.1028,南京市,仙林大学城,,42,31,24,17,10,166,132,156,156,17,16,8,8,0.6,0.5
2023-09-01T19:00:00,1160A,120.561,31.2472,苏州市,上方山,,31,17,21,14,14,108,97,106,106,11,16,7,7,0.6,0.5
2023-09-01T19:00:00,1162A,120.591,31.3019,苏州市,彩香,,34,19,19,10,11,126,106,121,121,8,19,7,7,0.7,0.7
2023-09-01T19:00:00,1163A,120.596,31.3264,苏州市,轧钢厂,,31,20,21,7,9,128,98,121,119,17,27,8,9,0.7,0.7
2023-09-01T19:00:00,1164A,120.613,31.2703,苏州市,吴中区,,30,19,20,7,8,127,95,123,120,21,24,8,8,0.7,0.6
2023-09-01T19:00:00,1165A,120.543,31.2994,苏州市,苏州新区,,32,16,20,7,9,125,102,120,118,13,26,8,8,0.7,0.7
2023-09-01T19:00:00,1166A,120.669,31.3097,苏州市,苏州工业园区,,33,19,17,12,9,128,103,122,121,16,25,8,8,0.7,0.7
2023-09-01T19:00:00,1167A,120.641,31.3708,苏州市,相城区,,30,21,21,7,8,121,96,117,115,15,20,7,7,0.8,0.7
2023-09-01T19:00:00,1168A,120.9098,31.9663,南通市,狼山街道,,33,17,15,8,3,114,105,112,111,16,18,7,7,0.4,0.4
2023-09-01T19:00:00,1169A,120.86,32.0005,南通市,虹桥,,34,18,19,12,11,114,107,110,110,14,17,6,6,0.5,0.5
2023-09-01T19:00:00,1170A,120.87,32.02,南通市,城中,,33,15,16,7,7,112,105,108,108,7,11,6,6,0.6,0.5
2023-09-01T19:00:00,1171A,120.94,31.93,南通市,星湖花园,,32,17,18,6,5,110,100,107,106,15,15,5,5,0.5,0.5
2023-09-01T19:00:00,1172A,120.81,32.0417,南通市,紫琅学院,,34,15,21,2,8,114,106,111,111,15,22,6,7,0.5,0.5
2023-09-01T19:00:00,1173A,119.176,34.5885,连云港市,市环境监测站,,,,48,,26,203,185,189,189,,18,,9,0.6,0.5
2023-09-01T19:00:00,1177A,117.179,34.2761,徐州市,黄河新村,臭氧1小时,59,56,42,27,21,202,167,189,189,18,20,10,10,0.4,0.3
2023-09-01T19:00:00,1178A,117.1918,34.2384,徐州市,淮塔,臭氧1小时,63,51,43,34,20,202,170,190,190,18,19,9,9,0.3,0.3
2023-09-01T19:00:00,1180A,117.256,34.2153,徐州市,新城区,臭氧1小时,62,58,46,28,19,197,169,183,183,22,24,6,6,0.5,0.5
2023-09-01T19:00:00,1181A,117.244,34.2911,徐州市,桃园路,颗粒物(PM10),54,58,45,24,20,196,161,183,183,11,15,10,9,0.6,0.6
2023-09-01T19:00:00,1182A,117.2933,34.2778,徐州市,农科院,臭氧1小时,63,56,37,36,21,198,170,185,185,16,26,8,8,0.4,0.3
2023-09-01T19:00:00,1186A,119.389,32.3761,扬州市,邗江监测站,,40,39,27,13,12,147,127,136,136,16,16,10,6,0.4,0.4
2023-09-01T19:00:00,1188A,120.269,31.4867,无锡市,雪浪,,,34,31,7,12,144,103,134,132,,25,5,6,0.5,0.7
2023-09-01T19:00:00,1189A,120.275,31.6219,无锡市,黄巷,,26,24,44,7,14,125,82,118,113,26,39,6,8,0.6,0.9
2023-09-01T19:00:00,1190A,120.294,31.56,无锡市,曹张,,46,46,33,12,14,134,88,120,118,23,33,8,9,0.6,0.7
2023-09-01T19:00:00,1191A,120.242,31.5031,无锡市,漆塘,,32,24,24,9,12,139,102,130,128,21,24,6,6,0.6,0.7
2023-09-01T19:00:00,1192A,120.3489,31.5863,无锡市,东亭,,27,27,30,9,17,130,80,116,113,34,39,6,7,0.4,0.6
2023-09-01T19:00:00,1193A,120.354,31.5475,无锡市,旺庄,,29,22,28,12,16,133,91,122,120,18,24,9,11,0.7,0.9
2023-09-01T19:00:00,1194A,120.245,31.5631,无锡市,荣巷,,31,24,23,9,10,144,99,130,128,14,15,10,11,0.6,0.8
2023-09-01T19:00:00,1195A,120.299,31.6817,无锡市,堰桥,,27,22,24,7,10,124,86,114,112,16,22,7,7,1.0,0.9
2023-09-01T19:00:00,1196A,119.9633,31.762,常州市,市监测站,,32,28,20,10,12,134,101,125,123,26,26,8,8,0.4,0.5
2023-09-01T19:00:00,1200A,119.9468,31.7069,常州市,武进监测站,,36,26,23,13,9,149,113,135,135,18,20,7,7,0.8,0.7
2023-09-01T19:00:00,1201A,119.9255,31.9087,常州市,安家,,35,20,21,8,11,131,110,123,121,14,21,5,7,0.5,0.6
2023-09-01T19:00:00,1203A,119.6707,32.1875,镇江市,新区办事处,,30,21,23,9,10,140,93,127,124,19,20,3,4,0.5,0.5
2023-09-01T19:00:00,1204A,119.4974,32.1968,镇江市,职教中心,,32,20,23,14,14,154,102,139,137,26,21,1,3,0.4,0.5
2023-09-01T19:00:00,1205A,119.4303,32.1328,镇江市,丹徒区监测站,,39,29,28,12,12,167,122,153,152,12,15,3,4,0.5,0.6
2023-09-01T19:00:00,1206A,119.905,32.4878,泰州市,公园路,,34,19,22,14,16,136,106,130,128,11,13,6,8,0.6,0.7
2023-09-01T19:00:00,1207A,119.9189,32.4625,泰州市,莲花,,32,22,23,9,12,132,100,125,123,14,12,4,6,0.5,0.6
2023-09-01T19:00:00,1209A,119.888,32.4639,泰州市,留学生创业园,,34,21,28,7,13,132,106,126,125,14,16,6,8,0.4,0.5
2023-09-01T19:00:00,1210A,119.036,33.5981,淮安市,钵池山,,45,36,32,25,19,154,143,148,148,13,20,8,8,0.8,0.8
2023-09-01T19:00:00,1211A,119.007,33.575,淮安市,北京南路,,46,46,36,25,18,160,146,152,152,13,25,8,9,0.6,0.6
2023-09-01T19:00:00,1212A,118.989,33.6067,淮安市,市监测站,,48,48,37,22,16,162,149,156,156,15,22,7,8,0.9,0.7
2023-09-01T19:00:00,1213A,119.135,33.5039,淮安市,楚州区监测站,,46,46,33,28,20,157,138,146,146,14,24,8,8,0.7,0.7
2023-09-01T19:00:00,1214A,119.0186,33.6297,淮安市,淮阴区监测站,颗粒物(PM10),52,53,39,29,21,160,129,147,147,28,26,7,8,1.0,0.7
2023-09-01T19:00:00,1215A,120.118,33.4022,盐城市,盐城电厂,,48,46,36,27,17,178,151,165,165,12,17,7,7,0.6,0.4
2023-09-01T19:00:00,1216A,120.156,33.3942,盐城市,市监测站,,48,39,31,22,15,179,152,166,166,11,17,7,6,0.6,0.5
2023-09-01T19:00:00,1218A,120.2144,33.38,盐城市,开发区管委会,,50,37,27,20,14,181,159,167,167,10,13,7,8,0.7,0.4
2023-09-01T19:00:00,1220A,118.293,33.9528,宿迁市,宿迁学院,臭氧1小时,58,49,42,32,28,200,166,183,183,17,33,10,10,0.5,0.5
2023-09-01T19:00:00,1221A,118.2442,33.9592,宿迁市,宿迁中学,臭氧1小时,59,54,47,34,30,192,167,177,177,15,22,6,7,0.7,0.6
2023-09-01T19:00:00,1223A,120.2072,30.2111,杭州市,滨江,,48,28,31,14,16,174,151,156,156,17,24,7,7,0.6,0.6
2023-09-01T19:00:00,1224A,120.0633,30.2747,杭州市,西溪,,44,33,36,13,19,167,138,150,150,13,19,5,4,0.7,0.8
2023-09-01T19:00:00,1226A,120.3461,30.3153,杭州市,下沙,,39,29,33,16,16,164,124,149,149,27,28,4,3,0.7,0.8
2023-09-01T19:00:00,1227A,120.1269,30.2456,杭州市,卧龙桥,,47,28,31,12,18,178,148,161,161,14,19,4,4,0.6,0.7
2023-09-01T19:00:00,1228A,120.1903,30.2692,杭州市,浙江农大,,37,27,27,15,17,152,118,137,137,22,26,8,8,0.6,0.6
2023-09-01T19:00:00,1230A,120.1197,30.3119,杭州市,和睦小学,,44,32,37,18,22,159,140,147,147,20,34,7,8,0.5,0.9
2023-09-01T19:00:00,1231A,120.3019,30.4183,杭州市,临平镇,,43,21,27,8,14,168,135,151,151,14,19,4,5,0.5,0.6
2023-09-01T19:00:00,1232A,120.2697,30.1819,杭州市,城厢镇,,45,45,35,20,21,167,128,151,151,25,22,6,6,0.5,0.9
2023-09-01T19:00:00,1233A,120.0883,30.1808,杭州市,云栖,,24,17,30,15,17,176,76,153,143,18,16,6,6,0.4,0.9
2023-09-01T19:00:00,1234A,121.8358,29.911,宁波市,区环保大楼,,,20,16,,8,118,98,114,111,21,22,4,4,0.5,0.4
2023-09-01T19:00:00,1235A,121.56,29.82,宁波市,万里学院,,,,31,10,7,131,101,122,120,13,15,5,5,0.6,0.6
2023-09-01T19:00:00,1236A,121.713,29.9572,宁波市,龙赛医院,,34,34,24,11,8,122,99,114,111,18,13,7,7,0.5,0.5
2023-09-01T19:00:00,1239A,121.633,29.7733,宁波市,钱湖水厂,,33,24,18,15,11,135,104,128,126,9,15,5,6,0.5,0.5
2023-09-01T19:00:00,1240A,121.5856,29.8635,宁波市,太古小学,,31,23,18,11,8,126,97,118,115,14,18,6,6,0.7,0.7
2023-09-01T19:00:00,1241A,121.524,29.8674,宁波市,市环境监测中心,,34,20,18,10,8,132,107,123,121,6,10,9,8,0.5,0.4
2023-09-01T19:00:00,1242A,120.634,28.0089,温州市,瓯海,,38,38,29,20,14,93,64,93,76,20,18,5,6,0.5,0.5
2023-09-01T19:00:00,1243A,120.6748,27.9939,温州市,南浦,,26,24,24,18,12,103,79,97,82,9,13,4,5,0.5,0.5
2023-09-01T19:00:00,1244A,120.76,27.9747,温州市,龙湾,,25,24,24,10,7,108,80,98,81,13,13,6,6,0.5,0.5
2023-09-01T19:00:00,1245A,120.6709,28.0167,温州市,市站,,28,28,24,15,15,81,73,78,75,11,14,5,5,0.4,0.5
2023-09-01T19:00:00,1247A,120.6053,29.9928,绍兴市,城东开发委,,36,18,36,8,24,143,113,134,133,18,19,6,6,0.4,0.6
2023-09-01T19:00:00,1250A,120.0751,30.8669,湖州市,城西水厂,,43,13,39,6,24,167,135,156,156,18,40,3,3,0.5,0.8
2023-09-01T19:00:00,1252A,120.7436,30.778,嘉兴市,清河小学,,32,17,19,8,8,139,102,127,127,16,22,5,5,0.8,0.9
2023-09-01T19:00:00,1253A,120.726,30.7478,嘉兴市,嘉兴学院,,35,19,17,8,10,151,109,136,136,17,22,3,4,0.5,0.5
2023-09-01T19:00:00,1255A,121.273,28.6459,台州市,黄岩环保大楼,,41,31,27,18,16,140,131,124,124,13,11,5,5,0.5,0.5
2023-09-01T19:00:00,1256A,121.419,28.6542,台州市,台州环保大楼,,41,27,23,18,13,132,130,122,122,11,11,6,6,0.4,0.5
2023-09-01T19:00:00,1257A,121.377,28.5773,台州市,路桥田洋王,,43,22,22,18,15,138,135,124,124,7,8,4,4,0.4,0.5
2023-09-01T19:00:00,1258A,122.122,30.0203,舟山市,定海檀枫,,30,24,16,13,8,102,94,99,98,6,5,5,6,0.5,0.5
2023-09-01T19:00:00,1259A,122.3094,29.9558,舟山市,普陀东港,,34,25,19,10,9,120,107,111,111,6,6,4,4,0.5,0.5
2023-09-01T19:00:00,1260A,122.19,29.9944,舟山市,临城新区,,32,22,18,9,6,105,102,104,104,4,4,7,7,0.4,0.4
2023-09-01T19:00:00,1262A,119.647,29.077,金华市,十五中,,45,27,47,10,20,169,143,148,148,21,21,4,3,0.5,0.5
2023-09-01T19:00:00,1263A,119.686,29.1029,金华市,监测站,,46,46,42,16,24,156,125,138,138,24,22,4,4,0.5,0.6
2023-09-01T19:00:00,1264A,118.8692,28.9398,衢州市,环保大楼,,44,42,38,24,23,151,138,127,127,21,15,4,4,0.6,0.6
2023-09-01T19:00:00,1265A,118.8709,28.9666,衢州市,实验学校,颗粒物(PM10),52,53,43,29,22,150,135,128,128,18,17,3,4,0.5,0.5
2023-09-01T19:00:00,1266A,118.8621,28.9808,衢州市,衢州学院,,46,46,38,26,23,152,123,128,128,18,18,4,4,0.5,0.5
2023-09-01T19:00:00,1267A,119.914,28.4514,丽水市,监测站大楼,,45,45,35,20,19,99,70,87,83,21,13,5,5,0.5,0.5
2023-09-01T19:00:00,1268A,119.93,28.4586,丽水市,莲都小学,,49,49,34,26,20,103,79,92,86,19,12,5,5,0.6,0.5
2023-09-01T19:00:00,1269A,119.879,28.4231,丽水市,余庄前,,38,38,42,21,19,100,31,83,74,18,13,4,4,0.6,0.5
2023-09-01T19:00:00,1270A,117.1959,31.7848,合肥市,明珠广场,,42,34,39,19,19,164,132,141,141,24,27,6,8,0.6,0.7
2023-09-01T19:00:00,1271A,117.3072,31.8764,合肥市,三里街,,40,29,38,19,22,139,127,128,128,17,28,5,7,0.4,0.4
2023-09-01T19:00:00,1272A,117.2588,31.8707,合肥市,琥珀山庄,,44,31,34,12,16,151,138,140,140,13,19,5,6,0.6,0.6
2023-09-01T19:00:00,1273A,117.1604,31.9052,合肥市,董铺水库,,45,20,37,7,15,151,142,135,135,8,24,5,6,0.4,0.5
2023-09-01T19:00:00,1274A,117.25,31.8571,合肥市,长江中路,,43,36,43,18,20,152,137,136,136,14,18,7,8,0.6,0.6
2023-09-01T19:00:00,1275A,117.266,31.9436,合肥市,庐阳区,,40,31,47,12,21,147,127,131,131,17,29,5,6,0.4,0.5
2023-09-01T19:00:00,1276A,117.336,31.8586,合肥市,瑶海区,,40,34,45,12,16,136,128,125,125,9,21,5,5,0.5,0.6
2023-09-01T19:00:00,1277A,117.3027,31.7964,合肥市,包河区,,32,29,41,17,19,149,102,124,124,42,42,6,7,0.5,0.6
2023-09-01T19:00:00,1278A,117.2776,31.7385,合肥市,滨湖新区,,43,31,36,7,15,157,136,137,137,14,19,5,7,0.4,0.5
2023-09-01T19:00:00,1279A,117.1318,31.8403,合肥市,高新区,,41,29,39,16,22,150,130,133,133,20,26,9,9,0.5,0.6
2023-09-01T19:00:00,1280A,119.3903,26.0543,福州市,鼓山,,,,,,,,,,,,,,,,
2023-09-01T19:00:00,1282A,119.2681,26.0504,福州市,师大,,30,26,19,17,7,96,94,90,90,4,3,3,3,0.5,0.4
2023-09-01T19:00:00,1283A,119.2984,26.1028,福州市,五四北路,,30,29,18,16,9,100,93,91,91,12,7,3,3,0.5,0.5
2023-09-01T19:00:00,1284A,119.2648,26.0768,福州市,杨桥西路,,30,30,21,18,10,98,91,90,90,10,6,3,3,0.6,0.5
2023-09-01T19:00:00,1285A,119.317,26.0746,福州市,紫阳,,29,24,18,13,7,96,91,89,89,6,4,4,4,0.4,0.4
2023-09-01T19:00:00,1286A,118.1608,24.8169,厦门市,溪东,,,,,,,,,,,,,,,,
2023-09-01T19:00:00,1287A,118.1514,24.4767,厦门市,洪文,,25,25,17,8,6,51,42,46,44,5,3,3,2,0.3,0.3
2023-09-01T19:00:00,1288A,118.0661,24.4444,厦门市,鼓浪屿,,21,20,15,14,10,72,65,66,66,8,5,1,1,0.3,0.2
2023-09-01T19:00:00,1290A,115.8931,28.6843,南昌市,省外办,,46,46,36,24,19,133,133,125,125,14,13,8,6,0.7,0.7
2023-09-01T19:00:00,1291A,115.8886,28.7003,南昌市,省林业公司,,41,36,28,19,20,130,130,123,123,8,13,10,7,0.8,0.7
2023-09-01T19:00:00,1292A,115.8126,28.7442,南昌市,林科所,,45,24,21,14,14,143,143,131,131,8,12,8,8,0.8,0.8
2023-09-01T19:00:00,1294A,115.8518,28.687,南昌市,建工学校,,47,30,28,4,13,148,148,140,140,13,15,11,10,0.8,0.7
2023-09-01T19:00:00,1295A,115.8921,28.6424,南昌市,象湖,,47,35,28,26,20,148,148,136,136,11,15,9,7,0.5,0.5
2023-09-01T19:00:00,1296A,115.7423,28.7996,南昌市,武术学校,,39,16,18,10,12,149,124,135,135,10,9,1,2,0.3,0.3
2023-09-01T19:00:00,1298A,115.9314,28.6842,南昌市,省站,,44,40,33,21,17,140,140,130,130,17,14,9,9,0.8,0.7
2023-09-01T19:00:00,1299A,116.9862,36.6114,济南市,科干所,细颗粒物(PM2.5),95,100,65,71,41,220,159,193,193,25,21,8,6,0.7,0.6
2023-09-01T19:00:00,1300A,116.9376,36.665,济南市,农科所,细颗粒物(PM2.5),64,73,59,46,33,210,158,194,193,27,25,7,7,0.5,0.5
2023-09-01T19:00:00,1301A,117.1265,36.6734,济南市,开发区,细颗粒物(PM2.5),64,76,64,46,36,213,161,188,188,24,27,11,7,0.8,0.7
2023-09-01T19:00:00,1303A,117.0624,36.6868,济南市,省种子仓库,颗粒物(PM10),70,90,68,46,35,205,152,185,185,26,34,8,7,0.9,0.9
2023-09-01T19:00:00,1304A,116.9489,36.6447,济南市,机床二厂,"颗粒物(PM10),细颗粒物(PM2.5)",68,85,66,49,34,206,152,187,187,27,28,7,6,0.9,0.8
2023-09-01T19:00:00,1305A,117.0495,36.663,济南市,市监测站,细颗粒物(PM2.5),70,85,63,51,37,211,151,186,186,36,31,9,6,0.7,0.6
2023-09-01T19:00:00,1306A,116.7675,36.5484,济南市,长清党校,细颗粒物(PM2.5),83,93,60,61,40,212,159,193,193,26,23,4,3,0.6,0.5
2023-09-01T19:00:00,1307A,120.6659,36.2403,青岛市,仰口,,49,41,41,34,30,151,100,136,133,7,7,6,7,0.6,0.5
2023-09-01T19:00:00,1310A,120.4134,36.0658,青岛市,市南区东部子站,臭氧1小时,70,63,49,34,26,217,176,204,204,29,17,8,10,0.8,0.9
2023-09-01T19:00:00,1311A,120.3664,36.1032,青岛市,四方区子站,细颗粒物(PM2.5),70,68,47,51,28,216,175,189,189,38,20,10,11,0.9,0.9
2023-09-01T19:00:00,1312A,120.2994,36.054,青岛市,市南区西部子站,臭氧1小时,70,68,57,39,25,224,176,188,188,32,24,8,9,0.8,0.9
2023-09-01T19:00:00,1313A,120.4581,36.0858,青岛市,崂山区子站,臭氧1小时,95,68,52,48,33,226,196,213,213,24,22,11,11,0.6,0.6
2023-09-01T19:00:00,1314A,120.1983,35.9608,青岛市,黄岛区子站,臭氧1小时,103,66,45,44,29,219,206,196,196,20,20,8,9,0.8,0.8
2023-09-01T19:00:00,1315A,120.3999,36.3083,青岛市,城阳区子站,,,44,50,22,22,179,136,166,162,,26,,8,,0.8
2023-09-01T19:00:00,1316A,113.69031,34.76122,郑州市,烟厂,,47,47,55,22,27,174,142,160,160,34,19,2,3,0.6,0.7
2023-09-01T19:00:00,1317A,113.65724,34.77134,郑州市,郑纺机,,50,50,59,20,20,179,154,167,167,20,17,2,2,0.6,0.7
2023-09-01T19:00:00,1318A,113.67526,34.80246,郑州市,银行学校,,,,,,,,,,,,,,,,
2023-09-01T19:00:00,1319A,113.56746,34.81334,郑州市,供水公司,颗粒物(PM10),54,58,56,21,28,176,146,156,156,26,23,3,3,0.4,0.6
2023-09-01T19:00:00,1320A,113.7329,34.7178,郑州市,经开区管委,颗粒物(PM10),51,51,52,23,30,167,142,157,157,15,13,4,5,0.7,0.7
2023-09-01T19:00:00,1321A,113.73961,34.77172,郑州市,四十七中,,,60,49,28,32,157,143,147,147,35,21,,7,,0.5
2023-09-01T19:00:00,1322A,113.60532,34.74838,郑州市,市监测站,颗粒物(PM10),55,59,56,23,27,180,137,163,163,31,18,5,6,0.5,0.6
2023-09-01T19:00:00,1323A,113.64164,34.7525,郑州市,河医大,,45,30,52,23,26,168,143,156,156,23,16,4,5,0.6,0.7
2023-09-01T19:00:00,1324A,113.51488,34.91089,郑州市,岗李水库,,,,,,,,,,,,,,,,
2023-09-01T19:00:00,1325A,114.3677,30.5584,武汉市,东湖梨园,,44,14,30,10,21,198,138,161,161,13,19,8,10,0.4,0.5
2023-09-01T19:00:00,1326A,114.2529,30.558,武汉市,汉阳月湖,,32,13,35,12,21,161,102,150,148,27,33,6,8,0.4,0.6
2023-09-01T19:00:00,1327A,114.282,30.6189,武汉市,汉口花桥,,36,22,39,12,24,171,115,153,150,26,26,6,8,0.5,0.7
2023-09-01T19:00:00,1328A,114.3025,30.5332,武汉市,武昌紫阳,,40,24,37,17,24,201,127,175,174,22,27,7,9,0.4,0.6
2023-09-01T19:00:00,1329A,114.3646,30.6217,武汉市,青山钢花,,35,17,38,9,26,174,109,155,152,34,28,8,10,0.5,0.8
2023-09-01T19:00:00,1330A,114.1566,30.4825,武汉市,沌口新区,,48,18,39,21,31,216,152,182,182,20,37,10,9,0.6,0.7
2023-09-01T19:00:00,1331A,114.3014,30.5944,武汉市,汉口江滩,,40,14,34,10,22,188,128,160,156,20,26,6,8,0.3,0.6
2023-09-01T19:00:00,1333A,114.135,30.6319,武汉市,吴家山,,42,21,33,12,20,176,133,156,155,14,22,8,9,0.5,0.7
2023-09-01T19:00:00,1334A,113.8454,30.2917,武汉市,沉湖七壕,,46,22,36,25,20,222,146,188,188,14,20,3,4,0.6,0.7
2023-09-01T19:00:00,1335A,113.0833,28.2325,长沙市,经开区环保局,,49,31,29,24,20,169,155,144,144,12,10,7,7,0.5,0.4
2023-09-01T19:00:00,1336A,112.8872,28.2189,长沙市,高开区环保局,,,32,39,24,23,171,157,156,156,,10,,7,0.6,0.6
2023-09-01T19:00:00,1337A,113.0792,28.2053,长沙市,马坡岭,臭氧1小时,58,53,39,18,21,177,166,154,154,14,5,7,6,0.8,0.7
2023-09-01T19:00:00,1338A,112.9394,28.19,长沙市,湖南师范大学,,50,44,43,25,24,171,159,158,158,2,5,4,4,0.7,0.7
2023-09-01T19:00:00,1339A,113.0178,28.1322,长沙市,雨花区环保局,,50,33,32,18,21,173,157,155,155,13,14,7,7,0.4,0.4
2023-09-01T19:00:00,1340A,112.9792,28.2597,长沙市,伍家岭,,,50,37,23,20,177,166,158,158,,18,,4,0.6,1
2023-09-01T19:00:00,1341A,113.0014,28.1944,长沙市,火车新站,,48,37,31,24,22,165,153,149,149,11,12,6,6,0.7,0.7
2023-09-01T19:00:00,1342A,112.9844,28.1178,长沙市,天心区环保局,,49,37,33,16,19,175,156,159,159,10,12,4,4,0.6,0.5
2023-09-01T19:00:00,1343A,112.8908,28.1308,长沙市,湖南中医药大学,,46,39,45,22,26,176,146,160,160,8,12,3,3,0.7,0.8
2023-09-01T19:00:00,1344A,112.9581,28.3611,长沙市,沙坪,臭氧1小时,59,41,41,19,23,174,167,156,156,9,9,8,7,0.7,0.7
2023-09-01T19:00:00,1345A,113.2347,23.1423,广州市,广雅中学,,28,28,30,15,18,72,46,63,62,21,26,5,8,1.0,0.9
2023-09-01T19:00:00,1346A,113.2612,23.105,广州市,市五中,,29,29,30,16,18,89,52,77,75,17,15,6,7,0.7,0.8
2023-09-01T19:00:00,1348A,113.3478,23.0916,广州市,广东商学院,,,28,40,14,16,69,42,60,58,19,23,3,4,,0.9
2023-09-01T19:00:00,1349A,113.4332,23.1047,广州市,市八十六中,,22,22,22,12,13,71,52,65,63,7,8,4,4,0.6,0.6
2023-09-01T19:00:00,1350A,113.3505,22.9483,广州市,番禺中学,,20,20,22,13,13,79,52,70,68,18,17,5,5,0.7,0.7
2023-09-01T19:00:00,1351A,113.2146,23.3916,广州市,花都师范,,21,21,21,12,14,84,61,74,74,10,11,6,8,0.8,0.8
2023-09-01T19:00:00,1352A,113.2597,23.1331,广州市,市监测站,,28,28,31,15,18,79,43,68,66,29,24,6,8,0.7,0.7
2023-09-01T19:00:00,1353A,113.5618,23.312,广州市,九龙镇镇龙,,26,26,22,15,13,64,54,62,59,6,7,7,7,0.5,0.6
2023-09-01T19:00:00,1354A,113.2765,23.1544,广州市,麓湖,,22,22,25,13,14,80,44,69,66,20,19,6,7,0.8,0.8
2023-09-01T19:00:00,1355A,113.443,23.3035,广州市,帽峰山森林公园,,16,14,16,10,13,69,49,64,61,9,10,7,8,0.3,0.4
2023-09-01T19:00:00,1356A,114.1063,22.5545,深圳市,通心岭子站,,14,13,20,6,11,54,44,49,48,8,12,5,6,0.4,0.5
2023-09-01T19:00:00,1357A,114.117,22.5625,深圳市,洪湖,,22,22,25,6,9,50,42,46,45,7,12,5,5,0.5,0.6
2023-09-01T19:00:00,1358A,113.987,22.5417,深圳市,华侨城,,14,12,19,4,7,62,44,54,52,7,10,6,6,0.6,0.7
2023-09-01T19:00:00,1359A,113.9181,22.5171,深圳市,南海子站,,21,21,25,10,14,62,40,52,50,10,14,4,4,0.8,0.9
2023-09-01T19:00:00,1360A,114.2458,22.5689,深圳市,盐田,,16,8,18,1,8,57,51,53,52,4,8,4,5,0.6,0.7
2023-09-01T19:00:00,1361A,114.2283,22.7244,深圳市,龙岗,,17,4,17,1,8,55,52,51,51,4,9,8,8,0.7,0.7
2023-09-01T19:00:00,1363A,114.494,22.5422,深圳市,南澳,,16,2,13,0,9,63,50,52,52,5,6,4,4,0.6,0.6
2023-09-01T19:00:00,1364A,114.41,22.6342,深圳市,葵涌,,15,3,16,1,10,58,48,50,48,5,8,4,5,0.5,0.6
2023-09-01T19:00:00,1365A,114.297,22.5978,深圳市,梅沙,,16,7,18,1,12,54,49,50,50,4,7,5,6,0.6,0.6
2023-09-01T19:00:00,1366A,114.0678,22.738,深圳市,观澜,,16,13,22,7,11,60,49,58,53,7,12,8,9,0.6,0.7
2023-09-01T19:00:00,1367A,113.5814,22.2618,珠海市,吉大,,19,19,22,8,10,87,57,74,73,8,13,3,4,0.5,0.5
2023-09-01T19:00:00,1368A,113.4881,22.2335,珠海市,前山,,20,14,21,14,16,90,53,71,70,9,17,7,8,0.4,0.5
2023-09-01T19:00:00,1369A,113.628,22.4251,珠海市,唐家,,27,27,26,15,13,88,55,74,72,8,11,4,5,0.5,0.5
2023-09-01T19:00:00,1370A,113.299,22.2281,珠海市,斗门,,19,16,22,12,15,107,59,85,84,9,13,7,7,0.6,0.7
2023-09-01T19:00:00,1371A,113.1294,23.0067,佛山市,湾梁,,17,17,18,11,13,90,54,76,75,15,12,10,9,0.6,0.7
2023-09-01T19:00:00,1372A,113.1083,23.0478,佛山市,华材职中,,20,19,23,14,16,80,48,67,66,16,17,8,10,0.4,0.5
2023-09-01T19:00:00,1373A,113.144,23.0453,佛山市,南海气象局,,28,28,24,12,15,81,49,68,67,16,15,7,7,0.6,0.7
2023-09-01T19:00:00,1374A,113.2881,22.8094,佛山市,顺德苏岗,,23,23,21,12,11,80,53,70,69,9,11,6,7,0.7,0.7
2023-09-01T19:00:00,1376A,112.8383,22.8678,佛山市,高明孔堂,,22,22,30,12,15,101,65,85,84,14,18,5,7,0.5,0.6
2023-09-01T19:00:00,1377A,112.8836,23.1588,佛山市,三水监测站,,24,24,22,15,16,89,58,76,75,14,14,5,5,0.7,0.7
2023-09-01T19:00:00,1378A,112.867,23.185,佛山市,三水云东海,,22,17,25,15,16,87,59,75,74,11,14,6,5,0.6,0.7
2023-09-01T19:00:00,1379A,113.3769,22.5211,中山市,华柏园,,19,8,22,13,12,100,56,81,78,12,14,4,5,0.5,0.5
2023-09-01T19:00:00,1380A,113.3881,22.5497,中山市,张溪,,25,22,26,17,14,95,55,78,75,9,12,3,4,0.6,0.6
2023-09-01T19:00:00,1381A,113.4075,22.5111,中山市,紫马岭,,19,5,22,13,14,93,54,77,75,9,11,5,6,0.5,0.5
2023-09-01T19:00:00,1382A,113.4411,22.4853,中山市,长江旅游区,,,,,,,,,,,,,,,,
2023-09-01T19:00:00,1383A,113.1064,22.6058,江门市,北街,,26,26,27,10,15,107,57,83,82,13,16,5,7,0.4,0.5
2023-09-01T19:00:00,1384A,113.0731,22.5835,江门市,西区,,28,28,27,13,16,110,58,86,84,15,16,5,7,0.6,0.6
2023-09-01T19:00:00,1385A,113.0219,22.5311,江门市,圭峰西,,24,24,24,13,14,111,64,90,88,12,13,4,5,0.5,0.5
2023-09-01T19:00:00,1386A,113.0828,22.5947,江门市,东湖,,21,21,30,7,15,117,65,95,91,11,13,6,8,0.5,0.6
2023-09-01T19:00:00,1389A,113.7547,23.0494,东莞市,莞城梨川,,25,25,22,16,14,62,41,56,51,16,16,9,10,0.7,0.7
2023-09-01T19:00:00,1390A,113.7944,23.0128,东莞市,东城石井,,28,28,18,13,10,67,44,60,54,9,9,7,7,0.8,0.7
2023-09-01T19:00:00,1391A,113.7383,22.9658,东莞市,南城西平,,22,22,22,12,13,60,41,53,50,13,15,5,5,1.0,0.9
2023-09-01T19:00:00,1392A,114.4183,23.0528,惠州市,河南岸金山湖子站,,18,12,19,12,11,55,47,51,51,6,9,4,4,0.4,0.5
2023-09-01T19:00:00,1393A,114.4053,23.0822,惠州市,下埔横江三路子站,,16,10,19,5,12,57,50,54,53,4,6,4,4,0.4,0.5
2023-09-01T19:00:00,1394A,114.4103,23.1142,惠州市,江北云山西路子站,,16,10,18,4,12,55,50,53,53,2,3,4,5,0.4,0.4
2023-09-01T19:00:00,1395A,114.4645,22.7833,惠州市,惠阳区承修路船湖子站,,14,9,20,5,11,51,42,46,46,4,7,4,4,0.6,0.7
2023-09-01T19:00:00,1396A,114.5317,22.7422,惠州市,大亚湾管委会子站,,15,5,18,4,12,59,47,50,50,4,8,4,5,0.5,0.5
2023-09-01T19:00:00,1397A,112.4267,23.0706,肇庆市,睦岗子站,,,29,24,21,15,87,74,82,80,,8,9,9,0.4,0.4
2023-09-01T19:00:00,1398A,112.4645,23.0475,肇庆市,城中子站,,23,23,23,16,14,76,71,74,73,7,9,9,9,0.5,0.6
2023-09-01T19:00:00,1399A,112.5544,23.1522,肇庆市,坑口子站,,23,22,18,16,14,74,68,71,70,8,10,3,4,0.4,0.4
2023-09-01T19:00:00,1400A,112.4753,23.1,肇庆市,七星岩子站,,,,,,,,,,,,,,,,
2023-09-01T19:00:00,1401A,108.3103,22.7881,南宁市,二十一中,,30,26,37,19,22,146,94,121,120,16,19,5,8,0.7,0.7
2023-09-01T19:00:00,1402A,108.3141,22.8528,南宁市,北湖,,37,37,40,20,24,144,88,122,120,15,17,6,11,0.6,0.7
2023-09-01T19:00:00,1403A,108.3206,22.8225,南宁市,市监测站,,43,43,38,17,21,130,70,108,106,41,32,7,12,0.8,0.8
2023-09-01T19:00:00,1404A,108.3829,22.8037,南宁市,大自然花园,,30,26,33,21,23,107,78,96,94,14,15,6,15,0.7,0.7
2023-09-01T19:00:00,1405A,108.4394,22.7904,南宁市,仙葫,,,,39,,24,106,,95,95,,24,,7,,0.6
2023-09-01T19:00:00,1406A,108.2397,22.8467,南宁市,区农职院,,38,38,36,15,21,139,90,123,122,14,14,6,9,0.7,0.7
2023-09-01T19:00:00,1407A,108.3275,22.735,南宁市,英华嘉园,细颗粒物(PM2.5),52,32,38,36,25,120,80,106,103,22,25,6,8,0.7,0.7
2023-09-01T19:00:00,1408A,108.2257,22.7757,南宁市,沙井镇街道办,,45,45,45,29,24,136,93,122,122,17,27,8,12,0.5,0.7
2023-09-01T19:00:00,1409A,110.576,19.9507,海口市,东寨港,,,,,,,,,,,,,,,,
2023-09-01T19:00:00,1410A,110.3232,20.0574,海口市,海南大学,,44,38,35,24,24,154,139,142,142,10,10,8,9,0.5,0.6
2023-09-01T19:00:00,1411A,110.283,20.0053,海口市,秀英海南医院,,41,41,36,27,26,144,130,134,134,14,14,8,9,0.5,0.6
2023-09-01T19:00:00,1412A,110.338,19.9969,海口市,海南师范大学,,44,44,34,23,22,144,133,135,135,11,12,8,10,0.5,0.6
2023-09-01T19:00:00,1413A,110.33,20.0356,海口市,龙华路环保局宿舍,,43,36,33,22,23,150,137,138,138,8,10,7,9,0.4,0.6
2023-09-01T19:00:00,1414A,106.3787,29.8279,重庆市,缙云山,,45,34,26,20,13,194,142,151,151,9,10,11,9,0.4,0.3
2023-09-01T19:00:00,1416A,106.4213,29.8253,重庆市,天生,细颗粒物(PM2.5),58,50,44,41,29,142,100,122,122,25,33,8,8,0.7,0.6
2023-09-01T19:00:00,1417A,106.6263,29.7228,重庆市,两路,,41,39,37,28,29,176,129,153,153,19,42,12,10,0.8,0.8
2023-09-01T19:00:00,1418A,106.2953,29.5983,重庆市,虎溪,,44,44,48,29,28,158,134,138,138,20,52,10,7,0.7,0.8
2023-09-01T19:00:00,1419A,106.5777,29.5102,重庆市,南坪,,45,41,48,31,27,222,126,165,165,32,27,7,11,0.8,0.9
2023-09-01T19:00:00,1420A,106.6556,29.6277,重庆市,唐家沱,,39,37,41,23,27,202,122,166,166,38,43,9,8,0.5,0.6
2023-09-01T19:00:00,1421A,106.6349,29.4906,重庆市,茶园,,50,50,82,22,34,251,122,192,189,43,66,6,8,0.8,1.1
2023-09-01T19:00:00,1422A,106.3754,29.4572,重庆市,白市驿,,50,50,54,24,30,208,143,163,163,18,39,9,9,0.6,0.8
2023-09-01T19:00:00,1425A,106.6205,29.7166,重庆市,空港,,40,29,37,22,23,184,127,158,158,28,31,11,8,0.7,0.7
2023-09-01T19:00:00,1426A,106.4782,29.4875,重庆市,新山村,,45,31,58,26,30,211,142,174,174,35,68,11,13,0.6,0.8
2023-09-01T19:00:00,1427A,106.5616,29.6453,重庆市,礼嘉,,43,43,52,30,28,166,102,136,136,32,58,10,11,0.8,0.9
2023-09-01T19:00:00,1428A,106.4522,29.7091,重庆市,蔡家,颗粒物(PM10),69,87,61,31,30,162,110,137,137,30,31,9,7,0.8,0.8
2023-09-01T19:00:00,1429A,106.5093,29.3917,重庆市,鱼新街,,41,38,47,22,30,225,131,158,158,22,47,6,9,0.7,1
2023-09-01T19:00:00,1431A,103.9728,30.7236,成都市,金泉两河,颗粒物(PM10),52,53,33,16,16,120,108,86,86,6,19,4,4,0.4,0.5
2023-09-01T19:00:00,1432A,104.176,30.6872,成都市,十里店,,49,37,39,34,26,129,113,110,110,19,16,3,3,0.6,0.6
2023-09-01T19:00:00,1433A,104.079,30.5706,成都市,三瓦窑,,43,43,33,21,21,136,114,113,109,27,21,3,3,0.5,0.4
2023-09-01T19:00:00,1434A,104.1114,30.63,成都市,沙河铺,,50,50,37,34,24,127,91,98,98,21,18,3,3,0.6,0.6
2023-09-01T19:00:00,1437A,104.0786,30.6531,成都市,君平街,,41,41,35,23,26,142,121,110,110,17,20,5,4,0.6,0.6
2023-09-01T19:00:00,1438A,103.613,31.0283,成都市,灵岩寺,,28,12,16,10,13,126,87,106,91,5,4,9,11,0.7,0.7
2023-09-01T19:00:00,1439A,106.6899,26.5998,贵阳市,马鞍山,,33,19,22,17,13,123,104,117,115,7,12,4,4,0.4,0.4
2023-09-01T19:00:00,1440A,106.6971,26.5694,贵阳市,市环保站,,35,22,22,20,19,135,112,128,126,17,19,5,4,0.3,0.3
2023-09-01T19:00:00,1441A,106.6243,26.6266,贵阳市,鉴湖路,,34,29,28,14,13,124,106,119,117,10,13,4,4,0.5,0.5
2023-09-01T19:00:00,1442A,106.7487,26.6343,贵阳市,燕子冲,,32,17,29,13,16,115,101,110,109,3,13,5,5,0.6,0.6
2023-09-01T19:00:00,1443A,106.6555,26.4365,贵阳市,碧云窝,,33,31,36,14,17,127,105,123,121,11,13,5,5,0.5,0.6
2023-09-01T19:00:00,1444A,106.694,26.5161,贵阳市,中院村,,32,24,31,9,16,120,100,116,114,13,22,6,6,0.4,0.4
2023-09-01T19:00:00,1445A,106.7109,26.6027,贵阳市,红边门,,36,24,33,9,20,128,115,122,122,7,19,8,5,0.5,0.5
2023-09-01T19:00:00,1446A,106.7164,26.5699,贵阳市,新华路,,35,27,28,12,16,130,112,124,123,5,15,6,6,0.2,0.3
2023-09-01T19:00:00,1447A,106.674,26.5424,贵阳市,太慈桥,,34,17,21,9,12,122,106,117,116,12,19,5,4,0.5,0.5
2023-09-01T19:00:00,1450A,102.8204,24.8886,昆明市,呈贡新区,,45,41,37,31,22,129,129,118,118,29,23,7,5,0.8,0.7
2023-09-01T19:00:00,1451A,102.6251,24.9608,昆明市,西山森林公园,,49,27,25,20,18,181,156,163,163,18,12,10,10,0.8,0.8
2023-09-01T19:00:00,1452A,102.7252,25.0902,昆明市,龙泉镇,,37,37,28,21,10,127,115,122,122,17,20,11,10,0.6,0.5
2023-09-01T19:00:00,1453A,102.7266,25.0375,昆明市,东风东路,,43,43,38,21,19,145,130,134,134,22,31,10,9,0.6,0.5
2023-09-01T19:00:00,1454A,102.6742,25.0669,昆明市,金鼎山,,43,43,53,16,17,134,109,126,125,18,23,13,9,0.5,0.5
2023-09-01T19:00:00,1455A,102.6644,25.0401,昆明市,碧鸡广场,,41,41,39,16,20,150,116,133,133,16,18,11,9,0.6,0.5
2023-09-01T19:00:00,1456A,91.1319,29.6514,拉萨市,八廓街,臭氧1小时,59,10,16,5,9,169,167,152,152,13,19,7,7,0.2,0.4
2023-09-01T19:00:00,1457A,91.1221,29.6747,拉萨市,市环保局,,48,12,20,5,8,152,152,134,134,16,22,5,6,0.2,0.3
2023-09-01T19:00:00,1458A,91.0874,29.6475,拉萨市,区监测站,,50,8,15,5,7,163,160,144,144,10,19,8,8,0.2,0.3
2023-09-01T19:00:00,1459A,91.1774,29.6541,拉萨市,西藏大学,,50,9,9,7,7,161,159,143,143,5,12,8,8,0.1,0.3
2023-09-01T19:00:00,1460A,90.9798,29.6588,拉萨市,区辐射站,,47,16,18,6,8,157,150,139,139,19,17,10,10,0.1,0.1
2023-09-01T19:00:00,1461A,91.0834,29.6292,拉萨市,拉萨火车站,,48,16,15,7,7,158,152,140,140,8,15,6,6,0.1,0.2
2023-09-01T19:00:00,1462A,108.882,34.2749,西安市,高压开关厂,颗粒物(PM10),52,53,67,20,27,158,114,120,120,27,46,9,9,0.7,0.7
2023-09-01T19:00:00,1463A,108.993,34.2629,西安市,兴庆小区,,38,38,52,20,19,144,121,111,111,18,30,8,8,0.6,0.5
2023-09-01T19:00:00,1464A,109.06,34.2572,西安市,纺织城,,49,49,51,26,26,145,116,115,115,24,41,7,5,0.7,0.6
2023-09-01T19:00:00,1465A,108.9356,34.2173,西安市,小寨,颗粒物(PM10),51,51,48,20,20,154,110,121,121,24,39,7,7,0.6,0.7
2023-09-01T19:00:00,1466A,108.954,34.2713,西安市,市人民体育场,,48,48,57,24,24,149,109,111,111,26,41,8,8,0.6,0.6
2023-09-01T19:00:00,1467A,108.8922,34.2322,西安市,高新西区,,40,40,52,22,25,168,122,128,128,24,37,8,7,0.6,0.6
2023-09-01T19:00:00,1468A,108.935,34.3474,西安市,经开区,,40,40,57,22,26,144,106,108,108,21,49,5,5,0.7,0.7
2023-09-01T19:00:00,1469A,108.906,34.1546,西安市,长安区,颗粒物(PM10),54,57,60,23,25,180,138,150,150,26,38,8,7,0.5,0.5
2023-09-01T19:00:00,1471A,109.2186,34.3731,西安市,临潼区,颗粒物(PM10),59,67,55,26,25,134,101,113,113,26,32,7,8,0.5,0.5
2023-09-01T19:00:00,1472A,108.869,34.378,西安市,草滩,颗粒物(PM10),51,51,56,18,16,168,117,130,130,29,49,13,15,0.7,0.7
2023-09-01T19:00:00,1473A,108.985,34.1978,西安市,曲江文化产业集团,颗粒物(PM10),55,59,51,21,22,161,116,125,125,26,44,7,7,0.7,0.7
2023-09-01T19:00:00,1474A,109.051,34.3213,西安市,广运潭,,50,50,50,25,22,126,108,102,102,19,32,9,9,0.7,0.6
2023-09-01T19:00:00,1476A,103.631,36.1031,兰州市,兰炼宾馆,颗粒物(PM10),67,83,55,35,26,138,129,130,130,13,15,7,17,0.3,0.4
2023-09-01T19:00:00,1477A,104.1373,35.9454,兰州市,榆中兰大校区,,,,,,,,,,,,,,,,
2023-09-01T19:00:00,1478A,103.8412,36.0726,兰州市,生物制品所,颗粒物(PM10),69,87,65,35,32,140,120,132,132,24,23,6,12,0.4,0.7
2023-09-01T19:00:00,1479A,103.831,36.0464,兰州市,铁路设计院,颗粒物(PM10),78,105,59,34,27,140,137,134,134,24,32,9,15,0.6,0.7
2023-09-01T19:00:00,1483A,101.524,36.6867,西宁市,第五水厂,,,,,,,,,,,,,,,,
2023-09-01T19:00:00,1484A,105.9512,38.6016,银川市,贺兰山马莲口,臭氧1小时,79,33,23,7,14,208,183,190,190,14,12,6,10,0.3,0.4
2023-09-01T19:00:00,1488A,106.2328,38.4975,银川市,贺兰山东路,臭氧1小时,74,60,53,19,25,193,179,183,183,26,61,10,14,0.6,0.8
2023-09-01T19:00:00,1489A,106.1358,38.5036,银川市,学院路,臭氧1小时,64,52,57,15,21,186,171,176,176,16,60,10,13,0.5,0.7
2023-09-01T19:00:00,1490A,87.5801,43.8303,乌鲁木齐市,监测站,颗粒物(PM10),90,130,171,16,28,117,99,99,99,14,23,6,6,0.4,0.6
2023-09-01T19:00:00,1491A,87.6046,43.768,乌鲁木齐市,收费所,颗粒物(PM10),80,110,176,19,40,127,106,108,108,15,22,7,5,0.3,0.3
2023-09-01T19:00:00,1492A,87.4754,43.9469,乌鲁木齐市,新疆农科院农场,颗粒物(PM10),360,468,225,29,38,106,86,81,81,15,48,4,4,0.4,1
2023-09-01T19:00:00,1493A,87.5525,43.8711,乌鲁木齐市,铁路局,颗粒物(PM10),103,155,177,32,43,120,102,99,99,12,22,6,5,0.4,0.5
2023-09-01T19:00:00,1494A,87.6432,43.831,乌鲁木齐市,三十一中学,颗粒物(PM10),83,116,186,19,30,108,97,100,100,7,12,5,6,0.1,0.2
2023-09-01T19:00:00,1496A,87.7216,44.1747,乌鲁木齐市,米东区环保局,颗粒物(PM10),165,279,168,23,33,121,100,100,100,3,9,6,8,0.3,0.3
2023-09-01T19:00:00,1508A,112.9433,27.8614,湘潭市,板塘,,46,46,43,22,21,173,140,160,160,10,16,6,7,0.6,0.6
2023-09-01T19:00:00,1511A,112.9118,27.8403,湘潭市,市监测站,,45,39,40,20,21,182,142,169,169,14,17,4,5,0.7,0.7
2023-09-01T19:00:00,1512A,112.8937,27.8728,湘潭市,江麓,,43,40,48,23,24,168,136,158,158,13,19,8,10,0.3,0.3
2023-09-01T19:00:00,1513A,112.9227,27.8159,湘潭市,岳塘,,49,49,41,20,21,173,139,161,161,14,17,6,6,0.3,0.3
2023-09-01T19:00:00,1514A,112.9074,27.9119,湘潭市,科大,,50,50,48,20,22,167,135,157,157,7,14,4,5,0.4,0.4
2023-09-01T19:00:00,1515A,113.135,27.8244,株洲市,天台山庄,,47,46,43,28,22,149,149,144,144,17,16,5,7,0.5,0.6
2023-09-01T19:00:00,1518A,113.095,27.8867,株洲市,株冶医院,,50,50,44,32,24,165,151,146,146,16,17,4,5,0.7,0.7
2023-09-01T19:00:00,1519A,113.167,27.8667,株洲市,市四中,,50,50,48,32,27,146,146,138,138,13,15,7,8,0.4,0.5
2023-09-01T19:00:00,1520A,113.143,27.8381,株洲市,火车站,,50,49,43,35,26,150,150,141,141,18,16,6,7,0.4,0.4
2023-09-01T19:00:00,1524A,113.13,27.8528,株洲市,市监测站,,50,29,43,32,29,159,159,140,140,15,15,6,8,0.6,0.8
2023-09-01T19:00:00,1552A,106.805,26.3003,贵阳市,桐木岭,,,,,,,,,,,,,,,,
2023-09-01T19:00:00,1559A,113.251,27.8336,株洲市,大京风景区,"颗粒物(PM10),细颗粒物(PM2.5)",52,54,34,36,22,130,88,120,118,8,5,6,6,0.6,0.5
2023-09-01T19:00:00,1562A,113.0048,27.9153,湘潭市,昭山,,45,41,46,23,23,183,143,164,164,12,24,5,5,0.5,0.6
2023-09-01T19:00:00,1564A,112.4876,27.9164,湘潭市,韶山,,48,43,43,13,20,152,152,147,145,6,8,8,8,0.4,0.4
2023-09-01T19:00:00,1585A,109.8756,40.6532,包头市,市环境监测站,颗粒物(PM10),63,75,47,15,14,190,109,148,148,29,34,7,17,0.6,0.6
2023-09-01T19:00:00,1587A,109.9991,40.5842,包头市,包头八中,颗粒物(PM10),84,117,54,12,18,187,136,151,151,18,27,10,39,0.6,0.7
2023-09-01T19:00:00,1588A,109.8538,40.6821,包头市,青山宾馆,颗粒物(PM10),53,56,45,7,15,186,123,149,149,19,39,7,14,0.5,0.7
2023-09-01T19:00:00,1589A,109.8642,40.6288,包头市,惠龙物流,颗粒物(PM10),61,72,36,17,16,196,126,154,154,24,30,7,19,0.7,0.6
2023-09-01T19:00:00,1590A,110.0377,40.5546,包头市,东河鸿龙湾,颗粒物(PM10),74,98,40,17,13,187,138,150,150,18,24,9,23,0.5,0.5
2023-09-01T19:00:00,1591A,110.0023,39.8129,鄂尔多斯市,综合楼,颗粒物(PM10),67,83,58,14,16,150,113,134,134,33,36,33,13,0.4,0.7
2023-09-01T19:00:00,1592A,109.9486,39.8261,鄂尔多斯市,巴音孟克林场办事处,颗粒物(PM10),56,61,51,17,17,162,125,147,147,26,28,8,16,0.5,0.6
2023-09-01T19:00:00,1593A,109.7736,39.5986,鄂尔多斯市,康泽苑,,45,24,40,13,16,148,144,141,141,16,35,9,10,0.5,0.5
2023-09-01T19:00:00,1594A,109.8119,39.5989,鄂尔多斯市,华泰汽车城,,41,27,46,14,18,133,130,127,127,17,43,6,7,0.4,0.4
2023-09-01T19:00:00,1595A,109.9734,39.7884,鄂尔多斯市,奥林花园,颗粒物(PM10),51,51,58,17,18,145,120,133,133,22,39,15,11,0.5,0.7
2023-09-01T19:00:00,1597A,122.2703,40.7094,营口市,大庆路,,30,20,19,14,12,119,93,111,111,15,15,4,4,0.7,0.7
2023-09-01T19:00:00,1598A,122.2150,40.6511,营口市,镜湖西路,,33,19,19,10,8,110,103,106,106,16,15,7,7,0.4,0.4
2023-09-01T19:00:00,1599A,122.1658,40.6789,营口市,西炮台,,37,19,16,12,6,122,118,109,109,10,11,6,5,0.4,0.4
2023-09-01T19:00:00,1600A,124.3303,40.0625,丹东市,江湾东路,,27,19,26,14,17,146,85,123,118,43,17,7,6,0.6,0.7
2023-09-01T19:00:00,1601A,124.4256,40.1503,丹东市,临江后街,,30,22,28,10,15,146,93,123,123,21,15,6,7,0.6,0.7
2023-09-01T19:00:00,1602A,124.3933,40.1461,丹东市,元宝山,,25,16,19,10,12,136,77,111,109,10,12,8,9,0.8,0.9
2023-09-01T19:00:00,1603A,124.3633,40.1092,丹东市,民主桥,,25,25,24,13,13,138,75,118,116,22,9,5,5,0.7,0.7
2023-09-01T19:00:00,1604A,122.0303,41.1489,盘锦市,开发区,,40,40,22,14,12,126,85,113,112,28,30,9,9,0.6,0.6
2023-09-01T19:00:00,1605A,122.0485,41.0883,盘锦市,兴隆台,,40,40,24,16,12,125,78,112,111,26,25,6,10,0.5,0.5
2023-09-01T19:00:00,1606A,121.8297,41.1028,盘锦市,新生街道,,28,21,22,8,10,130,88,111,111,19,30,7,13,0.4,0.5
2023-09-01T19:00:00,1607A,120.9092,40.7136,葫芦岛市,龙港区,,37,14,22,7,8,126,116,120,120,8,17,6,14,0.4,0.5
2023-09-01T19:00:00,1608A,120.8392,40.7514,葫芦岛市,化工街,,32,19,38,8,14,133,100,112,112,6,34,6,12,0.4,0.5
2023-09-01T19:00:00,1609A,120.8341,40.7073,葫芦岛市,新区,,29,16,24,12,11,118,90,106,106,14,25,5,9,0.6,0.7
2023-09-01T19:00:00,1610A,120.8695,40.7677,葫芦岛市,东城区,,30,17,44,15,14,145,94,116,116,25,36,8,22,0.5,0.6
2023-09-01T19:00:00,1611A,118.5819,24.9117,泉州市,涂山街,,,39,18,20,8,88,85,88,84,11,6,4,4,,0.7
2023-09-01T19:00:00,1612A,118.5972,24.8978,泉州市,津头埔,,33,33,18,18,11,87,79,87,83,20,11,5,4,0.6,0.6
2023-09-01T19:00:00,1613A,118.6663,24.9424,泉州市,万安,,29,29,21,15,12,92,88,91,89,15,9,3,2,0.6,0.6
2023-09-01T19:00:00,1614A,118.6117,24.9604,泉州市,清源山,,,,,,,,,,,,,,,,
2023-09-01T19:00:00,1616A,117.6795,36.229,济南市,技术学院,臭氧1小时,99,92,69,45,38,204,199,184,184,27,34,8,9,0.9,1.1
2023-09-01T19:00:00,1618A,118.3429,35.0532,临沂市,沂河小区,臭氧1小时,64,75,60,41,31,198,171,181,181,14,25,6,9,0.6,0.4
2023-09-01T19:00:00,1619A,118.295,35.0583,临沂市,鲁南制药厂,臭氧1小时,101,70,63,39,30,229,201,210,210,10,29,5,10,0.6,0.5
2023-09-01T19:00:00,1620A,118.2794,34.9976,临沂市,新光毛纺厂,"颗粒物(PM10),臭氧1小时",64,78,56,44,30,206,171,187,187,14,32,13,12,0.8,0.7
2023-09-01T19:00:00,1621A,118.3956,35.0888,临沂市,河东保险公司,臭氧1小时,59,58,46,38,32,205,167,183,183,14,21,3,6,0.6,0.5
2023-09-01T19:00:00,1622A,116.3032,37.4674,德州市,儿童乐园,,46,46,48,19,30,173,114,168,150,20,13,8,8,0.7,0.8
2023-09-01T19:00:00,1624A,116.2991,37.4451,德州市,监理站,,39,34,44,24,30,166,122,161,150,16,16,4,5,0.6,0.6
2023-09-01T19:00:00,1625A,115.9848,36.4372,聊城市,区政府,臭氧1小时,83,83,60,52,38,208,186,188,188,12,11,6,8,0.7,0.4
2023-09-01T19:00:00,1628A,118.0062,37.3803,滨州市,市环保局,,42,42,39,12,23,168,130,163,159,18,10,6,5,0.4,0.3
2023-09-01T19:00:00,1629A,118.0018,37.3617,滨州市,第二水厂,,42,34,37,20,23,178,134,168,163,12,8,2,4,0.6,0.6
2023-09-01T19:00:00,1630A,117.9776,37.393,滨州市,北中新校,,45,39,47,19,26,174,143,164,162,15,11,6,7,0.6,0.5
2023-09-01T19:00:00,1631A,118.0414,36.8103,淄博市,人民公园,,46,46,63,22,37,237,143,214,208,22,21,6,8,0.3,0.5
2023-09-01T19:00:00,1633A,117.8525,36.4847,淄博市,双山,臭氧1小时,97,83,67,43,39,234,197,205,205,25,20,13,9,0.4,0.5
2023-09-01T19:00:00,1634A,117.9592,36.6331,淄博市,气象站,臭氧1小时,54,55,64,29,43,231,163,200,200,21,26,7,10,0.5,0.4
2023-09-01T19:00:00,1635A,118.3092,36.8194,淄博市,莆田园,,39,34,63,14,37,201,124,182,173,30,40,7,13,0.5,0.7
2023-09-01T19:00:00,1637A,117.558,34.8438,枣庄市,市中区政府,臭氧1小时,79,70,59,31,26,225,183,191,191,22,30,10,12,0.4,0.4
2023-09-01T19:00:00,1638A,117.2852,34.7837,枣庄市,薛城环保局,臭氧1小时,94,68,57,30,24,208,195,198,198,17,35,10,11,0.6,0.7
2023-09-01T19:00:00,1639A,117.5852,34.7745,枣庄市,峄城区政府,臭氧1小时,95,68,60,29,20,215,196,193,193,17,28,9,14,0.6,0.5
2023-09-01T19:00:00,1640A,117.7276,34.5578,枣庄市,台儿庄区环保局,颗粒物(PM10),63,75,44,39,21,208,134,184,183,57,26,8,8,0.7,0.5
2023-09-01T19:00:00,1641A,117.4518,35.0992,枣庄市,山亭区环保局,臭氧1小时,82,56,40,32,26,192,185,178,178,19,17,9,9,0.5,0.4
2023-09-01T19:00:00,1642A,121.2514,37.5639,烟台市,开发区,,,17,30,12,17,140,136,123,120,8,24,,3,,0.8
2023-09-01T19:00:00,1643A,121.3719,37.5433,烟台市,轴承厂,,,,36,18,23,176,124,157,156,19,18,6,8,0.5,0.5
2023-09-01T19:00:00,1644A,121.3181,37.5436,烟台市,西郊化工站,,44,14,32,17,21,177,138,159,159,8,13,6,7,0.6,0.7
2023-09-01T19:00:00,1645A,121.4478,37.4822,烟台市,莱山环保局,,41,14,27,8,17,176,129,158,158,9,9,4,6,0.6,0.6
2023-09-01T19:00:00,1646A,121.2611,37.4967,烟台市,福山环保局,,39,27,40,5,12,167,123,150,149,16,24,6,7,0.8,0.8
2023-09-01T19:00:00,1650A,119.1437,36.7023,潍坊市,环保局,,,,,,,,,,,,,,,,
2023-09-01T19:00:00,1653A,116.6251,35.4302,济宁市,火炬城,臭氧1小时,58,57,47,19,13,196,166,175,175,11,14,8,9,0.6,0.5
2023-09-01T19:00:00,1655A,116.5491,35.4042,济宁市,电化厂,颗粒物(PM10),59,68,56,22,15,188,148,166,166,15,15,8,11,0.6,0.6
2023-09-01T19:00:00,1656A,117.1437,36.1937,泰安市,监测站,,50,39,74,35,46,214,151,184,184,11,26,7,9,0.6,0.6
2023-09-01T19:00:00,1657A,117.0885,36.2017,泰安市,人口学校,,50,41,50,35,32,209,157,178,178,11,16,4,5,0.6,0.5
2023-09-01T19:00:00,1658A,117.1089,36.1758,泰安市,电力学校,,46,44,70,25,39,230,146,188,188,9,32,7,9,0.4,0.5
2023-09-01T19:00:00,1659A,119.471,35.4209,日照市,监测站,,49,46,40,28,24,190,156,178,175,22,29,6,6,0.8,0.8
2023-09-01T19:00:00,1660A,119.523,35.4216,日照市,市政府广场,,50,46,41,27,21,182,160,173,172,15,22,6,7,0.7,0.7
2023-09-01T19:00:00,1661A,119.5587,35.4044,日照市,港务局,臭氧1小时,60,48,46,25,23,188,168,177,176,13,25,7,9,0.6,0.6
2023-09-01T19:00:00,1662A,122.1214,37.4236,威海市,华夏技校,,44,34,28,22,18,164,140,152,150,15,10,6,6,0.5,0.5
2023-09-01T19:00:00,1663A,122.0508,37.5236,威海市,山大分校,,49,27,30,20,16,173,156,161,161,5,9,10,9,0.5,0.5
2023-09-01T19:00:00,1664A,122.1067,37.5072,威海市,市监测站,,49,37,31,17,18,163,156,153,153,8,10,10,10,0.6,0.6
2023-09-01T19:00:00,1666A,118.6614,37.4309,东营市,市环保局,,,,,,,,,,,,,,,,
2023-09-01T19:00:00,1669A,113.5824,24.7733,韶关市,市八中,,19,19,24,13,14,67,53,60,59,6,8,9,11,0.5,0.6
2023-09-01T19:00:00,1671A,113.5917,24.7972,韶关市,园林处,,20,20,22,14,16,65,52,61,60,4,4,8,10,0.6,0.6
2023-09-01T19:00:00,1672A,113.6735,24.7791,韶关市,韶关学院,,14,8,19,8,13,65,43,62,57,8,8,6,9,0.5,0.5
2023-09-01T19:00:00,1673A,113.5971,24.6863,韶关市,曲江监测站,,19,14,26,13,16,70,53,66,62,6,9,6,11,0.5,0.6
2023-09-01T19:00:00,1674A,116.6794,23.3667,汕头市,金平子站,,23,8,10,9,6,72,72,68,68,10,10,4,4,0.6,0.6
2023-09-01T19:00:00,1675A,116.7244,23.3633,汕头市,龙湖子站,,,,,,,,,,,,,,,,
2023-09-01T19:00:00,1676A,116.7258,23.2775,汕头市,濠江子站,,,,,,,,,,,,,,,,
2023-09-01T19:00:00,1677A,116.7519,23.4714,汕头市,澄海子站,,,,,,,,,,,,,,,,
2023-09-01T19:00:00,1678A,116.6092,23.2539,汕头市,潮阳子站,,,,,,,,,,,,,,,,
2023-09-01T19:00:00,1680A,110.3539,21.2706,湛江市,湛江影剧院,,45,44,38,31,22,106,101,102,102,11,11,20,16,0.8,0.8
2023-09-01T19:00:00,1681A,110.3928,21.2228,湛江市,市环境监测站,,38,38,33,26,25,106,93,99,99,17,11,9,11,0.7,0.7
2023-09-01T19:00:00,1682A,110.4019,21.1997,湛江市,环保局宿舍,,45,41,36,31,25,108,103,102,102,12,12,6,9,0.6,0.6
2023-09-01T19:00:00,1683A,110.4111,21.2028,湛江市,霞山游泳场,,38,36,36,26,22,107,103,104,104,10,11,7,12,0.8,0.8
2023-09-01T19:00:00,1684A,110.3316,21.2679,湛江市,麻章区环保局,颗粒物(PM10),51,51,42,27,27,108,98,101,101,17,16,7,10,0.8,0.8
2023-09-01T19:00:00,1685A,110.4558,21.2567,湛江市,坡头区环保局,,39,39,34,24,25,109,104,103,103,9,11,9,14,0.7,0.7
2023-09-01T19:00:00,1686A,111.0286,21.4688,茂名市,电白南海,,32,31,40,22,24,143,73,110,108,9,11,7,11,0.7,0.7
2023-09-01T19:00:00,1687A,110.9294,21.6533,茂名市,茂石化七小,,31,31,33,19,23,102,74,91,90,9,9,6,8,0.6,0.6
2023-09-01T19:00:00,1688A,110.9107,21.6687,茂名市,健康路,,27,27,31,14,18,110,82,99,98,5,7,6,9,0.5,0.6
2023-09-01T19:00:00,1689A,110.8592,21.6828,茂名市,高岭,,29,29,34,17,26,105,81,97,96,8,9,4,12,0.6,0.7
2023-09-01T19:00:00,1690A,116.1231,24.3284,梅州市,梅江月梅,,12,6,14,4,5,45,38,42,42,6,12,2,2,0.5,0.6
2023-09-01T19:00:00,1691A,116.0797,24.2719,梅州市,梅县新城,,12,7,14,6,5,46,36,41,41,9,14,6,6,0.7,0.7
2023-09-01T19:00:00,1692A,116.1248,24.2654,梅州市,环境监控中心,,14,2,12,2,6,47,42,45,45,7,9,6,8,0.5,0.5
2023-09-01T19:00:00,1693A,115.3653,22.775,汕尾市,市环保局,,,,,,,,,,,,,,,,
2023-09-01T19:00:00,1694A,115.3706,22.7898,汕尾市,市政府,,,,,,,,,,,,,,,,
2023-09-01T19:00:00,1695A,115.3622,22.7925,汕尾市,新城中学,,20,12,10,5,6,62,62,56,56,1,2,6,6,0.8,0.8
2023-09-01T19:00:00,1696A,114.6778,23.7569,河源市,源西,,19,17,24,13,16,58,44,54,52,5,9,4,5,0.7,0.7
2023-09-01T19:00:00,1697A,114.6944,23.7586,河源市,东埔,,21,21,28,9,20,56,40,52,50,8,8,5,6,0.7,0.7
2023-09-01T19:00:00,1698A,114.6892,23.7233,河源市,老城,,25,25,28,9,16,57,40,53,51,9,9,4,5,0.6,0.6
2023-09-01T19:00:00,1699A,111.9797,21.8593,阳江市,鸳鸯湖,,30,30,27,15,18,91,66,80,77,8,8,5,6,0.7,0.7
2023-09-01T19:00:00,1701A,111.9491,21.8658,阳江市,马南垌,,35,35,32,11,19,90,68,81,79,6,7,5,6,0.4,0.5
2023-09-01T19:00:00,1702A,113.0426,23.691,清远市,环保大楼,,28,20,18,19,15,69,54,64,62,5,4,6,6,0.8,0.8
2023-09-01T19:00:00,1703A,113.0208,23.7106,清远市,凤城街办,,26,26,21,16,13,62,51,59,57,6,6,7,7,0.5,0.5
2023-09-01T19:00:00,1705A,116.6367,23.6719,潮州市,西园路,,21,6,9,11,6,70,67,68,68,5,5,3,3,0.2,0.2
2023-09-01T19:00:00,1706A,116.6447,23.6706,潮州市,档案局,,,11,8,6,5,70,66,68,68,,3,5,5,0.3,0.3
2023-09-01T19:00:00,1708A,116.3701,23.5345,揭阳市,新兴,,19,2,11,6,7,66,60,63,63,5,4,6,7,0.6,0.5
2023-09-01T19:00:00,1709A,116.3264,23.5443,揭阳市,西马,,20,5,10,7,6,67,61,64,64,4,4,6,6,0.6,0.6
2023-09-01T19:00:00,1710A,116.3611,23.5626,揭阳市,东兴,,19,8,9,7,5,65,58,62,62,11,8,4,3,0.8,0.7
2023-09-01T19:00:00,1711A,116.4151,23.5294,揭阳市,渔湖,,20,1,12,0,8,68,64,66,66,8,11,4,7,0.6,0.5
2023-09-01T19:00:00,1712A,112.0392,22.9169,云浮市,新市府,,23,23,25,12,15,89,62,76,72,11,12,12,15,0.8,0.8
2023-09-01T19:00:00,1714A,112.0539,22.9539,云浮市,牧羊,,26,26,33,17,17,90,64,76,72,15,27,51,30,0.6,0.7
2023-09-01T19:00:00,1715A,102.575,24.3711,玉溪市,东风水库,,40,40,31,21,22,119,94,111,111,19,13,5,8,0.9,0.9
2023-09-01T19:00:00,1718A,115.4208,35.2464,菏泽市,气象局,臭氧1小时,62,72,53,33,28,181,169,169,169,22,14,5,5,0.6,0.5
2023-09-01T19:00:00,1719A,115.4747,35.2375,菏泽市,市政协,臭氧1小时,70,58,50,39,29,196,176,183,183,15,10,6,5,0.5,0.5
2023-09-01T19:00:00,1721A,113.3819,40.1097,大同市,果树场,,,,,,,,,,,,,,,,
2023-09-01T19:00:00,1723A,113.2994,40.0758,大同市,云冈宾馆,颗粒物(PM10),57,64,45,34,18,159,142,142,142,28,26,11,13,0.7,0.7
2023-09-01T19:00:00,1724A,113.3444,40.0917,大同市,大同大学,,49,49,38,28,19,163,141,147,147,21,22,11,26,0.5,0.5
2023-09-01T19:00:00,1725A,113.2661,40.1269,大同市,安家小村,颗粒物(PM10),57,64,58,25,16,156,154,144,144,13,23,13,14,0.6,0.8
2023-09-01T19:00:00,1726A,113.2711,40.0844,大同市,教育学院,颗粒物(PM10),62,73,50,30,20,162,152,146,146,24,30,9,10,0.8,1
2023-09-01T19:00:00,1727A,113.1147,36.1547,长治市,清华站,,46,42,43,22,23,180,147,163,163,13,15,13,11,0.8,1.1
2023-09-01T19:00:00,1728A,113.1031,36.1989,长治市,监测站,,49,41,47,27,27,195,156,176,174,19,24,8,8,0.9,1.4
2023-09-01T19:00:00,1730A,113.0886,36.2125,长治市,审计局,,45,39,44,29,28,189,142,163,163,17,18,9,9,1.2,1.4
2023-09-01T19:00:00,1731A,113.0844,36.1856,长治市,长治八中,,45,44,52,24,24,179,144,163,163,19,22,11,12,1.3,1.4
2023-09-01T19:00:00,1733A,111.5531,36.0783,临汾市,临钢医院,,,57,69,22,22,170,124,148,148,13,30,,13,1.1,1
2023-09-01T19:00:00,1734A,111.5028,36.0714,临汾市,技工学校,颗粒物(PM10),60,70,70,38,31,164,117,146,146,21,29,9,12,0.9,0.9
2023-09-01T19:00:00,1736A,111.5018,36.0855,临汾市,市委,颗粒物(PM10),54,58,67,24,28,161,110,140,140,23,33,10,12,0.8,0.8
2023-09-01T19:00:00,1738A,113.5758,37.8572,阳泉市,市中心,细颗粒物(PM2.5),60,65,65,43,40,198,132,170,148,20,16,11,10,1.1,1.1
2023-09-01T19:00:00,1739A,113.4894,37.8731,阳泉市,赛鱼,颗粒物(PM10),66,82,75,46,45,198,123,172,148,30,17,9,8,1.0,1
2023-09-01T19:00:00,1740A,113.5819,37.8486,阳泉市,南庄,颗粒物(PM10),67,84,98,39,44,199,131,175,150,21,15,11,11,1.1,1.1
2023-09-01T19:00:00,1742A,113.5614,37.8703,阳泉市,平坦,细颗粒物(PM2.5),68,76,82,49,57,200,139,173,150,19,15,9,9,1.0,1
2023-09-01T19:00:00,1743A,113.5158,37.8392,阳泉市,大阳泉,细颗粒物(PM2.5),79,73,77,58,59,199,123,162,144,17,14,9,9,0.9,1
2023-09-01T19:00:00,1744A,118.9233,42.2816,赤峰市,松山一中,,20,16,17,11,7,90,64,87,85,32,26,8,10,0.5,0.4
2023-09-01T19:00:00,1745A,118.9576,42.2728,赤峰市,哈达街,,18,5,17,7,6,91,55,86,84,35,24,12,14,0.4,0.3
2023-09-01T19:00:00,1746A,118.8788,42.2554,赤峰市,天义路,,28,5,12,5,6,92,41,89,83,55,18,8,12,0.5,0.2
2023-09-01T19:00:00,1748A,123.044,41.1196,鞍山市,深沟寺,,30,29,37,13,19,119,94,106,106,21,17,4,7,0.5,1
2023-09-01T19:00:00,1749A,123.011,41.0931,鞍山市,太阳城,,31,31,32,14,15,122,95,110,110,26,18,8,8,0.7,1.2
2023-09-01T19:00:00,1750A,123.0485,41.1442,鞍山市,太平,,44,44,41,22,20,101,94,93,93,38,27,9,14,0.7,1.3
2023-09-01T19:00:00,1751A,122.9642,41.0971,鞍山市,铁西三道街,,35,35,44,19,21,114,100,107,107,26,24,7,12,0.8,1.4
2023-09-01T19:00:00,1752A,122.9341,41.0833,鞍山市,铁西工业园区,,34,34,38,17,17,115,95,109,109,22,15,8,9,0.7,1
2023-09-01T19:00:00,1753A,123.022,41.0821,鞍山市,明达新区,,35,27,31,13,15,113,110,108,108,17,15,6,8,0.6,1
2023-09-01T19:00:00,1754A,123.1289,41.0228,鞍山市,千山,,,,,,,,,,,,,,,,
2023-09-01T19:00:00,1755A,123.7977,41.8491,抚顺市,望花区,,36,36,42,20,28,142,100,116,116,26,27,15,17,0.4,1
2023-09-01T19:00:00,1756A,123.9161,41.8822,抚顺市,顺城区,,43,43,40,23,20,144,50,112,109,62,29,8,10,0.5,0.8
2023-09-01T19:00:00,1757A,124.0436,41.8611,抚顺市,东洲区,,37,37,34,17,18,142,95,120,120,25,17,11,8,0.7,0.8
2023-09-01T19:00:00,1758A,123.9247,41.8642,抚顺市,新抚区,,41,41,37,18,23,140,70,114,112,39,22,7,8,0.8,0.9
2023-09-01T19:00:00,1759A,124.0972,41.8961,抚顺市,大伙房水库,,33,29,30,14,14,139,103,116,116,14,13,8,8,0.5,0.7
2023-09-01T19:00:00,1760A,123.7086,41.8391,抚顺市,沈抚新城,,30,30,31,12,17,130,70,105,104,38,20,7,9,0.5,0.9
2023-09-01T19:00:00,1761A,123.8275,41.3064,本溪市,大峪,,27,27,36,11,16,125,62,107,105,15,20,5,7,0.6,1
2023-09-01T19:00:00,1762A,123.7567,41.3325,本溪市,溪湖,,32,32,36,14,20,126,63,110,106,18,20,10,11,0.6,1.4
2023-09-01T19:00:00,1763A,123.7169,41.3094,本溪市,彩屯,,45,45,42,22,27,123,31,105,97,33,21,9,9,0.9,1.5
2023-09-01T19:00:00,1764A,123.7669,41.2864,本溪市,东明,,50,50,43,23,20,127,52,112,108,49,30,12,11,1.4,1.2
2023-09-01T19:00:00,1765A,123.7992,41.2664,本溪市,新立屯,,50,50,31,17,13,117,23,96,82,48,24,10,11,0.8,1
2023-09-01T19:00:00,1766A,123.8142,41.3472,本溪市,威宁,,45,45,34,13,18,112,40,91,86,23,20,6,7,0.7,1
2023-09-01T19:00:00,1767A,121.1115,41.0879,锦州市,南山,,28,26,33,8,19,137,88,108,107,28,18,10,11,0.5,0.7
2023-09-01T19:00:00,1768A,121.0533,40.8434,锦州市,开发区,颗粒物(PM10),52,53,51,16,20,139,101,110,110,19,40,81,23,1.0,1.1
2023-09-01T19:00:00,1769A,121.1836,41.1119,锦州市,百股街道,,31,31,35,14,16,145,92,108,108,24,15,12,15,0.6,0.8
2023-09-01T19:00:00,1770A,121.1178,41.1222,锦州市,天安街道,,47,47,36,14,31,122,91,100,100,27,17,14,13,0.8,0.8
2023-09-01T19:00:00,1771A,121.1303,41.1386,锦州市,北湖公园,,31,26,30,16,17,126,98,102,102,29,16,19,14,0.6,0.6
2023-09-01T19:00:00,1772A,126.54,43.8622,吉林市,哈达湾,,22,18,21,9,14,88,69,83,82,19,12,6,6,0.5,0.6
2023-09-01T19:00:00,1773A,126.5844,43.8358,吉林市,东局子,,23,23,23,14,13,88,54,82,79,32,12,6,6,0.7,0.7
2023-09-01T19:00:00,1774A,126.5052,43.8245,吉林市,电力学院,,32,32,24,22,15,92,55,86,83,22,13,8,8,0.7,0.6
2023-09-01T19:00:00,1775A,126.6133,43.8972,吉林市,江北,,44,44,28,25,15,87,39,81,76,38,12,10,8,0.9,0.7
2023-09-01T19:00:00,1776A,126.555,43.8306,吉林市,江南公园,,25,25,22,17,16,85,59,81,78,25,14,6,6,0.8,0.7
2023-09-01T19:00:00,1778A,126.7061,43.7133,吉林市,丰满,,,,,,,,,,,,,,,,
2023-09-01T19:00:00,1779A,123.9305,47.3636,齐齐哈尔市,安居小区,,40,40,19,12,12,68,48,64,62,20,7,5,5,0.4,0.3
2023-09-01T19:00:00,1780A,123.9488,47.3386,齐齐哈尔市,中心广场,,21,21,16,10,9,60,43,59,57,21,9,3,2,0.5,0.4
2023-09-01T19:00:00,1781A,123.9483,47.3227,齐齐哈尔市,农牧车辆厂,,36,36,17,6,4,62,41,60,58,22,7,6,6,0.4,0.3
2023-09-01T19:00:00,1783A,123.945,47.2988,齐齐哈尔市,市环境监测站,,28,28,11,13,10,66,54,62,62,13,6,6,3,0.3,0.2
2023-09-01T19:00:00,1784A,129.61,44.561,牡丹江市,环保大楼,,22,21,15,15,10,78,43,68,62,21,12,5,5,0.5,0.4
2023-09-01T19:00:00,1785A,129.6115,44.5782,牡丹江市,文化广场,,32,32,15,13,13,73,42,60,53,21,15,6,6,0.4,0.4
2023-09-01T19:00:00,1786A,129.5904,44.5963,牡丹江市,第一医院,,26,26,20,16,11,69,47,59,54,12,15,4,5,0.3,0.4
2023-09-01T19:00:00,1787A,129.6364,44.6075,牡丹江市,机车工厂,,43,43,22,16,7,69,45,59,53,6,15,3,3,0.6,0.5
2023-09-01T19:00:00,1788A,129.6386,44.5462,牡丹江市,第一中学,,15,14,16,3,5,80,45,67,63,16,14,5,5,0.5,0.4
2023-09-01T19:00:00,1789A,124.81117,46.03138,大庆市,大同区,,29,29,15,13,11,67,39,59,57,28,11,6,6,0.4,0.3
2023-09-01T19:00:00,1790A,125.129,46.533,大庆市,龙凤区,,24,24,11,9,7,68,44,63,62,24,11,4,3,0.6,0.5
2023-09-01T19:00:00,1791A,124.902,46.408,大庆市,红岗区,,26,24,13,18,10,71,50,61,61,20,8,3,3,0.8,0.6
2023-09-01T19:00:00,1792A,125.153,46.586,大庆市,萨尔图区,,50,50,16,13,8,63,24,55,52,43,13,6,6,0.6,0.1
2023-09-01T19:00:00,1793A,124.9042,46.6215,大庆市,让胡路区,,24,24,10,5,7,63,32,59,56,31,8,5,5,0.6,0.4
2023-09-01T19:00:00,1794A,118.3606,31.3519,芜湖市,监测站,,42,30,30,14,18,149,132,130,130,25,18,6,6,0.5,0.6
2023-09-01T19:00:00,1795A,118.3714,31.4134,芜湖市,科创中心,,36,32,31,17,15,143,113,126,126,57,38,7,7,0.2,0.5
2023-09-01T19:00:00,1796A,118.3673,31.3131,芜湖市,四水厂,,45,34,31,15,15,153,143,135,135,26,20,5,5,0.4,0.6
2023-09-01T19:00:00,1798A,118.5092,31.6837,马鞍山市,湖东路四小,,45,40,24,14,10,169,141,150,150,16,15,8,8,0.4,0.4
2023-09-01T19:00:00,1799A,118.5024,31.6449,马鞍山市,开发区,,44,36,29,13,10,165,140,146,146,20,23,7,7,0.6,0.7
2023-09-01T19:00:00,1800A,118.5228,31.7231,马鞍山市,慈湖,,48,48,29,18,15,179,145,156,156,22,18,25,14,0.5,0.5
2023-09-01T19:00:00,1802A,118.6245,31.7241,马鞍山市,濮塘,,40,29,18,19,17,164,127,144,144,7,8,4,4,0.7,0.7
2023-09-01T19:00:00,1803A,115.9872,29.6815,九江市,十里,,43,21,32,12,20,143,136,136,136,11,13,10,9,0.7,0.7
2023-09-01T19:00:00,1804A,115.9584,29.7046,九江市,茅山头,,41,26,34,14,22,141,129,133,133,19,17,8,8,0.7,0.7
2023-09-01T19:00:00,1805A,115.9877,29.7295,九江市,西园,,43,28,33,18,21,147,136,141,141,18,16,9,10,0.7,0.7
2023-09-01T19:00:00,1806A,116.0172,29.6547,九江市,五七二七厂,,39,29,30,17,20,144,122,131,131,10,10,10,10,0.6,0.6
2023-09-01T19:00:00,1808A,115.9114,29.6038,九江市,综合工业园,,44,25,31,19,19,152,140,142,142,15,18,12,12,0.6,0.7
2023-09-01T19:00:00,1809A,116.0721,29.7535,九江市,石化总厂,,41,30,36,18,21,150,131,140,140,19,17,8,9,0.8,0.8
2023-09-01T19:00:00,1810A,115.9773,29.5698,九江市,庐山气象台,,40,22,12,20,11,135,24,112,104,79,11,9,9,0.9,0.7
2023-09-01T19:00:00,1812A,112.3931,34.6516,洛阳市,市委党校,细颗粒物(PM2.5),74,83,59,54,41,172,168,155,155,15,14,8,9,0.6,0.6
2023-09-01T19:00:00,1814A,112.4657,34.6871,洛阳市,豫西宾馆,细颗粒物(PM2.5),83,102,70,61,43,171,171,150,150,15,23,4,5,0.8,0.9
2023-09-01T19:00:00,1815A,112.494,34.6886,洛阳市,河南林校,颗粒物(PM10),66,81,58,43,34,172,172,152,152,18,29,6,6,0.6,0.6
2023-09-01T19:00:00,1816A,112.3844,34.623,洛阳市,开发区管委会,颗粒物(PM10),69,88,59,42,31,180,169,162,162,12,14,3,3,0.6,0.5
2023-09-01T19:00:00,1817A,112.4267,34.6258,洛阳市,市委新办公区,细颗粒物(PM2.5),92,92,60,68,45,169,162,154,154,12,8,5,6,0.8,0.6
2023-09-01T19:00:00,1818A,114.4839,36.0621,安阳市,棉研所,,,,,,,,,,,,,,,,
2023-09-01T19:00:00,1819A,114.3551,36.1017,安阳市,红庙街,颗粒物(PM10),62,73,65,40,42,165,135,140,140,9,16,2,3,0.7,0.8
2023-09-01T19:00:00,1820A,114.361,36.0681,安阳市,银杏小区,,,80,63,,,169,145,144,144,5,11,4,5,0.6,0.7
2023-09-01T19:00:00,1824A,114.3389,34.7781,开封市,肿瘤医院,颗粒物(PM10),57,64,55,25,30,160,145,149,149,10,10,6,5,0.6,0.6
2023-09-01T19:00:00,1826A,114.2885,34.7965,开封市,世纪星幼儿园,,,58,51,,27,158,140,148,148,16,14,10,9,0.9,0.9
2023-09-01T19:00:00,1828A,113.227,35.2125,焦作市,市环保局,,45,43,57,27,43,167,142,151,151,12,16,4,7,0.6,0.7
2023-09-01T19:00:00,1830A,113.1992,35.2590,焦作市,影视城,,,,,,,,,,,,,,,,
2023-09-01T19:00:00,1832A,113.3257,33.742,平顶山市,新华旅馆,颗粒物(PM10),61,71,59,31,30,167,138,156,156,17,26,4,5,0.4,0.5
2023-09-01T19:00:00,1833A,113.2919,33.737,平顶山市,规划设计院,,,41,60,23,32,165,141,155,155,17,20,7,8,,0.7
2023-09-01T19:00:00,1834A,113.182,33.774,平顶山市,平顶山工学院,颗粒物(PM10),51,52,57,17,26,169,122,158,156,35,20,5,6,0.4,0.5
2023-09-01T19:00:00,1835A,111.1922,34.7752,三门峡市,市政府,颗粒物(PM10),59,67,43,40,21,144,132,130,130,15,24,5,6,0.8,0.6
2023-09-01T19:00:00,1836A,111.1587,34.7942,三门峡市,开发区,颗粒物(PM10),68,86,54,35,24,140,135,131,131,21,19,4,6,0.7,0.6
2023-09-01T19:00:00,1838A,111.143,34.7955,三门峡市,风景区,,,,,,,,,,,,,,,,
2023-09-01T19:00:00,1840A,111.2992,30.6981,宜昌市,白龙岗,,39,39,36,14,17,167,111,139,139,30,22,4,3,0.5,0.5
2023-09-01T19:00:00,1841A,111.3549,30.6465,宜昌市,伍家岗,,43,39,32,19,21,178,136,148,148,13,24,4,4,0.4,0.5
2023-09-01T19:00:00,1842A,111.2628,30.6961,宜昌市,点军区,,42,18,33,17,18,180,133,156,156,19,16,7,7,0.5,0.5
2023-09-01T19:00:00,1843A,111.3275,30.7819,宜昌市,夷陵区,,39,32,35,14,18,155,122,139,139,23,22,6,5,0.4,0.4
2023-09-01T19:00:00,1844A,112.2494,30.3197,荆州市,市图书馆,,38,12,46,18,28,158,121,148,146,15,18,9,12,0.4,0.7
2023-09-01T19:00:00,1845A,112.2008,30.3544,荆州市,市委党校,,,29,52,,30,155,119,146,144,13,21,9,11,0.5,0.8
2023-09-01T19:00:00,1847A,113.1094,29.3578,岳阳市,南湖风景区,,,44,43,21,29,181,176,167,167,,20,,11,0.7,0.7
2023-09-01T19:00:00,1848A,113.1493,29.4251,岳阳市,城陵矶,臭氧1小时,68,42,48,27,29,177,174,159,159,19,31,11,12,0.9,0.8
2023-09-01T19:00:00,1849A,113.1497,29.3575,岳阳市,开发区,臭氧1小时,83,40,40,32,28,186,186,168,168,14,18,10,11,0.7,0.7
2023-09-01T19:00:00,1850A,113.2621,29.4758,岳阳市,云溪区,臭氧1小时,73,38,33,30,24,185,178,158,158,14,12,11,9,0.6,0.6
2023-09-01T19:00:00,1851A,112.9943,29.4402,岳阳市,君山区,臭氧1小时,53,46,49,23,34,178,162,152,152,13,14,9,9,0.7,0.7
2023-09-01T19:00:00,1852A,113.2117,29.355,岳阳市,金凤水库,臭氧1小时,85,34,32,12,19,188,188,165,165,28,17,7,5,0.4,0.5
2023-09-01T19:00:00,1854A,111.6975,28.9703,常德市,市二中,细颗粒物(PM2.5),64,45,51,46,41,157,127,153,150,8,11,6,9,0.7,0.8
2023-09-01T19:00:00,1857A,111.7158,29.1456,常德市,白鹤山,,,,,,,,,,,,,,,,
2023-09-01T19:00:00,1858A,110.5319,29.1217,张家界市,永定新区,,37,37,38,24,27,124,113,119,119,13,12,6,5,0.4,0.4
2023-09-01T19:00:00,1859A,110.4697,29.1242,张家界市,电业局,,,,,,,,,,,,,,,,
2023-09-01T19:00:00,1860A,110.5594,29.3547,张家界市,未央路,,,31,29,32,21,137,122,133,131,,5,4,4,,0.3
2023-09-01T19:00:00,1861A,110.4417,29.315,张家界市,袁家界,,,,25,10,17,134,130,130,130,5,5,8,8,0.7,0.6
2023-09-01T19:00:00,1862A,110.4144,25.3167,桂林市,电子科大尧山校区,,37,37,40,23,22,130,106,116,106,7,8,4,4,0.7,0.7
2023-09-01T19:00:00,1863A,110.2819,25.2697,桂林市,监测站,,43,40,39,30,25,133,117,121,118,12,10,8,8,0.7,0.7
2023-09-01T19:00:00,1864A,110.3089,25.2708,桂林市,龙隐路小学,,38,36,37,26,26,133,119,124,122,7,7,7,8,0.6,0.6
2023-09-01T19:00:00,1865A,110.2869,25.2178,桂林市,八中,,39,34,36,24,23,137,122,127,124,12,11,6,6,0.7,0.7
2023-09-01T19:00:00,1866A,109.2262,21.588,北海市,牛尾岭水库,,34,26,30,17,22,106,106,99,99,10,9,5,5,0.6,0.6
2023-09-01T19:00:00,1867A,109.1436,21.4086,北海市,海滩公园,,43,43,40,22,23,121,120,118,118,8,8,4,5,0.6,0.8
2023-09-01T19:00:00,1868A,109.0981,21.4661,北海市,新市环保局,,40,38,36,24,24,128,127,125,125,7,8,5,6,0.6,0.7
2023-09-01T19:00:00,1869A,109.1778,21.5233,北海市,北海工业园,,39,39,42,24,28,125,121,120,120,9,10,6,9,0.7,0.7
2023-09-01T19:00:00,1870A,109.4856,24.3895,柳州市,柳东小学,,36,22,30,25,25,112,87,104,100,6,6,8,8,0.5,0.5
2023-09-01T19:00:00,1871A,109.4157,24.3277,柳州市,环保监测站,,25,18,37,6,24,107,80,98,95,8,11,5,8,0.4,0.4
2023-09-01T19:00:00,1872A,109.389,24.341,柳州市,河西水厂,,38,38,45,22,25,103,84,96,94,11,19,6,15,0.4,0.6
2023-09-01T19:00:00,1873A,109.4311,24.2921,柳州市,市四中,,40,40,34,28,22,113,85,104,100,12,11,9,10,0.7,0.7
2023-09-01T19:00:00,1874A,109.4006,24.3631,柳州市,市九中,,34,34,44,20,25,106,84,99,97,7,13,7,11,0.4,0.4
2023-09-01T19:00:00,1875A,109.4958,24.3134,柳州市,古亭山,,,35,35,24,23,120,96,111,108,,9,6,7,0.4,0.6
2023-09-01T19:00:00,1876A,109.5078,18.2489,三亚市,河东子站,,23,22,21,16,13,119,66,98,96,22,8,2,2,0.7,0.6
2023-09-01T19:00:00,1877A,109.4964,18.2681,三亚市,河西子站,,28,28,19,15,12,119,59,93,88,16,7,1,2,0.5,0.4
2023-09-01T19:00:00,1878A,104.7778,31.4741,绵阳市,富乐山,,34,34,34,22,23,127,76,88,88,16,18,4,4,0.7,0.7
2023-09-01T19:00:00,1879A,104.7563,31.4535,绵阳市,市人大,,43,35,46,30,29,118,108,93,93,16,32,9,7,0.5,0.6
2023-09-01T19:00:00,1880A,104.6697,31.4668,绵阳市,高新区自来水公司,,33,27,46,23,25,118,102,92,92,20,32,8,7,0.3,0.4
2023-09-01T19:00:00,1881A,104.7287,31.5075,绵阳市,三水厂,,,27,53,28,36,114,,82,82,43,45,19,8,0.5,0.8
2023-09-01T19:00:00,1882A,104.563,28.793,宜宾市,石马中学,,,,,,,,,,,,,,,,
2023-09-01T19:00:00,1883A,104.6201,28.7728,宜宾市,市委,,50,48,60,35,35,112,108,104,104,21,29,8,9,0.7,0.7
2023-09-01T19:00:00,1884A,104.6055,28.793,宜宾市,宜宾四中,细颗粒物(PM2.5),52,50,68,36,42,118,115,110,110,16,33,4,7,0.7,0.8
2023-09-01T19:00:00,1885A,104.639,28.7562,宜宾市,市政府,细颗粒物(PM2.5),53,48,59,37,36,119,118,114,114,16,37,8,10,0.7,0.8
2023-09-01T19:00:00,1886A,104.5742,28.7199,宜宾市,黄金嘴,,46,41,47,32,31,128,125,118,118,15,26,7,8,0.6,0.6
2023-09-01T19:00:00,1888A,101.6891,26.571,攀枝花市,弄弄坪,,42,42,48,24,29,89,57,45,36,18,25,9,11,0.8,1.4
2023-09-01T19:00:00,1889A,101.5769,26.5928,攀枝花市,河门口,,49,49,45,33,24,67,32,44,40,49,27,28,15,1.9,1.4
2023-09-01T19:00:00,1890A,101.7169,26.585,攀枝花市,炳草岗,,42,42,52,19,28,63,31,28,28,42,41,13,18,1.3,1.7
2023-09-01T19:00:00,1891A,101.7369,26.5008,攀枝花市,仁和,,32,26,46,22,35,69,54,53,53,22,22,6,12,0.7,1
2023-09-01T19:00:00,1893A,105.4324,28.9634,泸州市,九狮山,,48,48,41,30,21,175,89,128,128,14,22,5,6,0.5,0.5
2023-09-01T19:00:00,1894A,105.4427,28.9063,泸州市,小市上码头,颗粒物(PM10),62,73,59,42,37,183,102,155,154,17,26,5,19,0.6,0.5
2023-09-01T19:00:00,1895A,105.4241,28.8573,泸州市,兰田宪桥,细颗粒物(PM2.5),67,66,60,48,42,175,110,156,156,10,20,8,7,0.6,0.8
2023-09-01T19:00:00,1896A,105.4379,28.8833,泸州市,市环监站,颗粒物(PM10),62,74,55,41,32,160,98,137,137,37,32,5,14,0.5,0.7
2023-09-01T19:00:00,1901A,104.4239,31.1208,德阳市,东山公园,颗粒物(PM10),52,53,63,25,30,149,135,108,96,16,21,1,3,0.6,0.7
2023-09-01T19:00:00,1902A,104.3826,31.1317,德阳市,西小区,颗粒物(PM10),53,55,60,36,34,136,120,97,97,34,28,2,4,0.8,0.7
2023-09-01T19:00:00,1904A,104.3553,31.1091,德阳市,耐火材料厂,颗粒物(PM10),54,57,57,36,31,141,126,106,106,29,20,3,4,0.7,0.7
2023-09-01T19:00:00,1905A,106.056,30.8064,南充市,西山风景区,,37,22,46,25,36,136,117,110,110,7,12,3,5,0.5,0.6
2023-09-01T19:00:00,1906A,106.0789,30.8023,南充市,南充市委,,37,37,56,1,27,124,102,107,107,20,24,9,9,0.5,0.6
2023-09-01T19:00:00,1907A,106.1031,30.8217,南充市,南充炼油厂,颗粒物(PM10),54,57,67,22,38,117,101,104,104,21,23,9,9,0.4,0.6
2023-09-01T19:00:00,1908A,106.1064,30.7856,南充市,高坪区监测站,,33,33,57,23,39,117,102,103,103,17,29,8,8,0.3,0.3
2023-09-01T19:00:00,1909A,106.0642,30.7636,南充市,嘉陵区环保局,,45,35,53,31,36,127,100,104,104,18,28,8,8,0.4,0.5
2023-09-01T19:00:00,1910A,106.1087,30.8388,南充市,市环境监测站,,45,45,67,30,43,109,94,96,96,25,26,7,8,0.4,0.5
2023-09-01T19:00:00,1911A,106.9222,27.6869,遵义市,丁字口,,30,23,25,16,20,128,93,117,116,24,23,6,6,0.7,0.6
2023-09-01T19:00:00,1912A,106.9242,27.7019,遵义市,凤凰山,,,34,31,29,25,144,114,132,132,16,14,,10,0.6,0.5
2023-09-01T19:00:00,1913A,106.8906,27.6486,遵义市,忠庄,,30,28,35,16,22,142,93,126,124,18,19,3,3,0.5,0.5
2023-09-01T19:00:00,1914A,106.9231,27.6506,遵义市,舟水桥,,43,43,58,25,28,136,73,125,122,31,19,2,2,0.8,0.6
2023-09-01T19:00:00,1915A,106.9178,27.72,遵义市,干田坝,,38,31,25,26,18,142,105,130,128,15,19,7,6,0.6,0.6
2023-09-01T19:00:00,1916A,103.7897,25.5035,曲靖市,环境监测站,,41,26,30,3,14,139,130,124,124,14,16,5,6,0.7,0.6
2023-09-01T19:00:00,1917A,103.8,25.5364,曲靖市,烟厂办公区,,40,22,24,17,11,130,126,123,123,11,11,4,6,0.5,0.5
2023-09-01T19:00:00,1918A,108.7197,34.3956,咸阳市,气象站,,,,,,,,,,,,,,,,
2023-09-01T19:00:00,1919A,108.673,34.3155,咸阳市,实验中学,,,,,,,,,,,,,,,,
2023-09-01T19:00:00,1920A,108.7233,34.3617,咸阳市,师范学院,颗粒物(PM10),51,52,53,23,26,162,114,126,126,28,42,5,5,0.8,0.7
2023-09-01T19:00:00,1922A,109.0656,35.0994,铜川市,党校,颗粒物(PM10),51,51,41,23,18,133,76,117,114,20,28,13,13,0.9,0.7
2023-09-01T19:00:00,1923A,109.0697,35.0697,铜川市,王益区政府,,,49,36,25,20,133,91,117,115,36,25,,8,0.7,0.6
2023-09-01T19:00:00,1924A,108.9344,34.9058,铜川市,新区管委会,颗粒物(PM10),51,52,40,23,17,145,126,128,128,22,21,8,7,0.8,0.6
2023-09-01T19:00:00,1926A,109.4131,36.6275,延安市,枣园,,35,19,29,10,12,117,109,111,111,10,28,7,6,0.4,0.3
2023-09-01T19:00:00,1927A,109.4761,36.6028,延安市,延大医附院,,34,19,30,8,8,119,106,109,109,7,31,5,5,0.5,0.6
2023-09-01T19:00:00,1929A,109.5056,36.6106,延安市,百米大道,,31,25,38,10,11,122,98,106,106,12,33,5,5,0.6,0.7
2023-09-01T19:00:00,1930A,107.185,34.3063,宝鸡市,庙沟村,,37,37,26,17,14,116,87,92,90,13,17,9,7,0.2,0.3
2023-09-01T19:00:00,1931A,107.0708,34.3017,宝鸡市,竹园沟,,39,39,24,23,17,162,114,129,129,14,16,8,6,0.6,0.6
2023-09-01T19:00:00,1932A,107.1906,34.3672,宝鸡市,三陆医院,颗粒物(PM10),53,55,47,30,28,152,146,133,133,22,31,9,13,0.6,0.7
2023-09-01T19:00:00,1933A,107.1431,34.3547,宝鸡市,监测站,颗粒物(PM10),52,54,36,26,21,149,141,132,132,26,30,11,9,0.6,0.5
2023-09-01T19:00:00,1934A,107.1186,34.3739,宝鸡市,技工学校,,48,48,39,28,23,157,144,133,133,26,22,7,7,0.6,0.6
2023-09-01T19:00:00,1935A,107.3906,34.3528,宝鸡市,陈仓区环保局家属楼,颗粒物(PM10),60,69,46,27,20,148,133,129,129,37,38,9,9,0.6,0.6
2023-09-01T19:00:00,1936A,107.2058,34.3497,宝鸡市,文理学院,,47,47,39,20,21,160,145,136,136,20,26,9,7,0.6,0.6
2023-09-01T19:00:00,1937A,107.2386,34.3622,宝鸡市,三迪小学,颗粒物(PM10),53,56,42,26,25,158,142,135,135,24,27,8,8,0.6,0.6
2023-09-01T19:00:00,1938A,109.5293,34.5101,渭南市,农科所,,39,39,38,17,22,122,84,101,101,27,24,5,5,0.4,0.4
2023-09-01T19:00:00,1939A,109.4974,34.4877,渭南市,日报社,,44,44,43,24,26,132,118,113,113,16,37,6,6,0.4,0.4
2023-09-01T19:00:00,1940A,109.4636,34.493,渭南市,体育馆,,41,41,43,22,22,137,123,119,119,13,40,4,5,0.5,0.5
2023-09-01T19:00:00,1941A,109.4259,34.5023,渭南市,高新一小,,46,46,56,22,27,130,110,108,108,20,34,6,6,0.5,0.5
2023-09-01T19:00:00,1943A,102.1725,38.5339,金昌市,新川苑,,,,,,,,,,,,,,,,
2023-09-01T19:00:00,1944A,102.1692,38.5167,金昌市,天庆家园,颗粒物(PM10),74,98,83,35,34,140,111,125,125,17,24,15,16,0.2,0.5
2023-09-01T19:00:00,1945A,98.2908,39.7711,嘉峪关市,气象局,,48,48,155,14,54,117,112,114,114,14,12,2,5,0.2,0.3
2023-09-01T19:00:00,1947A,106.3394,38.817,石嘴山市,沙湖旅游区,臭氧1小时,104,41,56,30,39,225,207,208,208,12,26,9,15,0.6,0.7
2023-09-01T19:00:00,1948A,106.3668,39.0145,石嘴山市,大武口朝阳西街,臭氧1小时,78,44,62,11,32,212,182,191,191,28,44,3,38,0.4,0.8
2023-09-01T19:00:00,1949A,106.7704,39.2282,石嘴山市,惠农南大街,臭氧1小时,63,37,46,15,23,195,170,165,165,25,32,13,22,0.6,0.8
2023-09-01T19:00:00,1950A,106.7099,39.1325,石嘴山市,红果子镇惠新街,,46,35,43,10,20,204,145,168,168,22,28,15,16,0.3,0.5
2023-09-01T19:00:00,1951A,84.895,45.6094,克拉玛依市,长征新村,,35,20,38,5,4,113,109,110,101,2,5,9,9,0.2,0.2
2023-09-01T19:00:00,1952A,84.8988,45.5893,克拉玛依市,南林小区,,34,14,30,6,13,113,108,112,104,9,8,7,7,0.5,0.3
2023-09-01T19:00:00,1954A,84.905,44.3396,克拉玛依市,独山子区,,44,44,74,20,28,109,104,103,103,4,5,8,8,0.4,0.4
2023-09-01T19:00:00,1955A,85.6979,46.098,克拉玛依市,乌尔禾区商贸楼,,30,21,56,5,8,108,96,102,99,3,5,6,7,0.2,0.2
2023-09-01T19:00:00,1956A,86.1472,41.7538,巴音郭楞州,孔雀公园,颗粒物(PM10),73,96,99,41,28,116,102,105,105,6,31,7,10,0.3,0.5
2023-09-01T19:00:00,1957A,86.1972,41.7166,巴音郭楞州,棉纺厂,颗粒物(PM10),85,120,108,26,31,115,108,110,110,6,27,5,7,0.3,0.4
2023-09-01T19:00:00,1958A,86.2357,41.7173,巴音郭楞州,经济开发区,颗粒物(PM10),72,94,125,41,35,117,106,112,112,16,17,7,9,0.3,0.3
2023-09-01T19:00:00,1961A,117.532,36.6868,济南市,东山小学,颗粒物(PM10),66,81,69,44,40,220,168,204,204,31,23,8,7,0.7,0.7
2023-09-01T19:00:00,1966A,120.0405,35.8735,青岛市,黄岛区4号,臭氧1小时,110,56,44,39,24,220,220,196,196,16,19,7,9,0.7,0.6
2023-09-01T19:00:00,1982A,122.0693,37.2174,威海市,文登开发区,,,36,38,19,17,180,134,165,162,,12,9,7,,0.9
2023-09-01T19:00:00,2031A,113.1817,27.9958,株洲市,云田中学,,49,38,39,22,22,156,156,141,141,12,12,6,6,0.7,0.7
2023-09-01T19:00:00,2054A,114.1099,32.1059,信阳市,平桥分局,,41,34,35,17,19,147,131,139,138,12,17,3,3,0.5,0.6
2023-09-01T19:00:00,2064A,113.9956,32.1271,信阳市,南湾水厂,,41,39,41,13,20,145,131,140,139,9,9,3,3,0.7,0.7
2023-09-01T19:00:00,2065A,114.0775,32.1195,信阳市,市酿酒公司,,43,43,40,16,23,149,129,141,139,16,20,3,3,0.5,0.6
2023-09-01T19:00:00,2066A,114.0609,32.1399,信阳市,审计局,,44,4,39,26,18,152,138,146,143,11,19,4,4,0.5,0.6
2023-09-01T19:00:00,2067A,114.6613,33.6128,周口市,市环境监测站,颗粒物(PM10),58,66,44,17,25,163,130,153,151,29,18,5,7,0.4,0.4
2023-09-01T19:00:00,2068A,114.6758,33.6347,周口市,周口师范,,46,33,45,17,17,157,146,147,147,10,9,3,6,0.4,0.5
2023-09-01T19:00:00,2069A,114.6546,33.5979,周口市,市运管处,,46,39,45,14,24,153,146,147,147,20,20,10,9,0.4,0.5
2023-09-01T19:00:00,2070A,114.6369,33.6406,周口市,川汇区环保局,,,40,37,9,14,155,148,147,147,,12,5,7,,0.5
2023-09-01T19:00:00,2075A,117.6336,24.4674,漳州市,九湖,,,,,,,,,,,,,,,,
2023-09-01T19:00:00,2160A,112.85,35.5051,晋城市,自来水公司,颗粒物(PM10),81,111,69,53,32,177,174,162,162,14,27,11,10,1.2,1.1
2023-09-01T19:00:00,2161A,112.8318,35.4936,晋城市,白云商贸,颗粒物(PM10),78,105,69,53,30,169,167,159,159,22,27,10,9,1.2,1.1
2023-09-01T19:00:00,2162A,112.8508,35.4887,晋城市,市环保局,颗粒物(PM10),75,100,73,53,34,164,158,152,152,20,35,9,9,1.1,1
2023-09-01T19:00:00,2163A,112.8676,35.4897,晋城市,技术学院,细颗粒物(PM2.5),73,62,53,53,31,168,162,155,155,20,29,10,9,1.1,1
2023-09-01T19:00:00,2165A,112.8453,35.546,晋城市,白马寺,,,,,,,,,,,,,,,,
2023-09-01T19:00:00,2166A,112.4397,39.3522,朔州市,平朔,,43,43,68,22,25,157,116,129,129,14,33,5,11,0.7,0.7
2023-09-01T19:00:00,2167A,112.4575,39.3617,朔州市,朔唯,,49,49,93,26,27,150,112,124,124,15,36,6,13,0.7,0.6
2023-09-01T19:00:00,2168A,112.4258,39.3197,朔州市,区政府,,36,34,60,23,21,140,113,117,117,14,28,4,12,0.6,0.7
2023-09-01T19:00:00,2169A,112.4072,39.3278,朔州市,市环保局,颗粒物(PM10),51,51,61,18,22,150,112,123,123,19,27,4,15,0.6,0.6
2023-09-01T19:00:00,2170A,112.4272,39.3681,朔州市,市二中,颗粒物(PM10),52,54,87,23,30,150,106,126,126,14,38,6,11,0.8,0.8
2023-09-01T19:00:00,2171A,112.7532,37.6945,晋中市,锦纶小区,,45,41,62,25,32,196,141,173,172,16,16,9,9,0.4,0.6
2023-09-01T19:00:00,2173A,112.7249,37.7067,晋中市,南都小区,,50,41,73,35,45,197,137,173,172,15,17,6,7,0.6,0.8
2023-09-01T19:00:00,2174A,112.6991,37.6982,晋中市,榆次区政府,,48,34,56,33,35,194,137,170,169,18,17,9,10,0.5,0.7
2023-09-01T19:00:00,2175A,110.9956,35.0147,运城市,运城中学,颗粒物(PM10),53,55,40,29,21,134,134,124,124,11,15,4,5,0.6,0.8
2023-09-01T19:00:00,2178A,110.9686,35.0303,运城市,地区技校,颗粒物(PM10),57,64,57,31,23,132,132,125,125,9,21,4,4,0.4,0.5
2023-09-01T19:00:00,2179A,111.0414,35.1147,运城市,空港新区,,49,49,57,31,29,130,130,124,124,11,30,4,7,0.6,0.9
2023-09-01T19:00:00,2181A,112.7383,38.4519,忻州市,开发区,细颗粒物(PM2.5),77,64,67,56,44,161,142,149,149,14,22,9,12,0.9,1
2023-09-01T19:00:00,2182A,112.7003,38.4928,忻州市,会展中心,细颗粒物(PM2.5),70,54,62,51,46,160,112,143,143,28,26,10,13,0.8,0.8
2023-09-01T19:00:00,2183A,111.1406,37.5211,吕梁市,环保局,颗粒物(PM10),58,66,70,31,22,179,113,144,144,25,44,6,5,0.7,0.6
2023-09-01T19:00:00,2185A,111.1297,37.5136,吕梁市,自来水公司,颗粒物(PM10),56,62,67,29,24,176,129,149,149,18,33,6,5,0.7,0.7
2023-09-01T19:00:00,2187A,106.8174,39.6973,乌海市,市林业局,臭氧1小时,57,46,65,24,26,221,165,176,176,10,30,13,51,0.8,1.4
2023-09-01T19:00:00,2188A,106.7907,39.6667,乌海市,中海勃湾学校,臭氧1小时,79,40,60,19,25,229,183,186,186,20,39,17,48,0.5,1.2
2023-09-01T19:00:00,2191A,122.2532,43.6801,通辽市,艺术职业学校,颗粒物(PM10),71,92,25,15,8,92,46,87,83,44,15,5,5,0.3,0.2
2023-09-01T19:00:00,2192A,119.7594,49.2261,呼伦贝尔市,区环保局,,39,34,27,27,24,86,63,79,78,22,14,5,5,0.5,0.4
2023-09-01T19:00:00,2195A,107.4212,40.761,巴彦淖尔市,附二中,,50,50,67,18,18,178,152,153,153,9,15,5,8,0.5,0.6
2023-09-01T19:00:00,2196A,107.37,40.7372,巴彦淖尔市,市环保大楼,颗粒物(PM10),51,52,64,18,21,163,132,140,140,15,15,6,7,0.6,0.5
2023-09-01T19:00:00,2197A,113.1306,40.9923,乌兰察布市,集宁新区,,41,30,26,17,13,167,129,141,141,16,17,13,14,0.4,0.4
2023-09-01T19:00:00,2200A,122.0392,46.0656,兴安盟,胜华新制药厂,颗粒物(PM10),65,80,22,22,13,86,32,79,74,34,12,2,2,0.5,0.3
2023-09-01T19:00:00,2201A,121.9504,46.0741,兴安盟,科右前旗环保局,,,,16,,17,84,35,78,73,37,11,,3,0.6,0.4
2023-09-01T19:00:00,2202A,116.1042,43.9317,锡林郭勒盟,市环保监测站,,30,17,26,6,9,104,93,94,94,9,17,7,10,0.3,0.2
2023-09-01T19:00:00,2203A,116.0781,43.9311,锡林郭勒盟,市政府,,29,18,28,7,5,104,92,95,95,14,22,10,11,0.3,0.2
2023-09-01T19:00:00,2204A,105.6467,38.8363,阿拉善盟,西城区西花园,,47,47,41,26,22,113,99,108,108,16,13,7,10,0.5,0.5
2023-09-01T19:00:00,2205A,105.6985,38.8411,阿拉善盟,蒙二幼,,49,49,44,20,19,136,127,131,131,9,10,7,8,0.3,0.4
2023-09-01T19:00:00,2206A,105.724,38.8516,阿拉善盟,环保局新楼,,49,49,34,19,18,142,116,135,126,8,8,8,10,0.4,0.4
2023-09-01T19:00:00,2207A,121.6094,41.998,阜新市,工业园区,颗粒物(PM10),54,57,44,15,20,84,30,78,71,43,25,4,11,0.6,0.6
2023-09-01T19:00:00,2208A,121.6697,42.0279,阜新市,长青街,,33,33,39,11,21,84,46,80,77,28,22,5,13,0.4,0.6
2023-09-01T19:00:00,2209A,121.6673,42.0705,阜新市,农业园区,,24,23,34,10,18,81,74,78,78,12,17,6,16,0.6,0.8
2023-09-01T19:00:00,2210A,121.6717,42.0224,阜新市,东苑,,30,30,38,18,24,83,53,80,78,28,21,5,23,0.4,0.6
2023-09-01T19:00:00,2211A,121.6506,42.0498,阜新市,玉龙新城,,40,40,49,16,18,79,25,72,68,42,20,5,6,0.6,0.6
2023-09-01T19:00:00,2212A,123.2,41.1953,辽阳市,宏伟区,,42,42,30,11,13,128,86,110,110,33,21,12,14,0.6,0.9
2023-09-01T19:00:00,2213A,123.1683,41.2495,辽阳市,新华园,,40,40,36,21,15,110,73,100,99,34,25,11,13,0.8,1
2023-09-01T19:00:00,2214A,123.2354,41.2639,辽阳市,滨河路,,39,39,29,21,16,120,87,108,108,33,20,15,15,1.0,1
2023-09-01T19:00:00,2215A,123.149,41.2991,辽阳市,铁西工业园,颗粒物(PM10),53,56,40,15,18,131,98,113,113,26,23,12,11,1.4,1.1
2023-09-01T19:00:00,2216A,123.8139,42.3022,铁岭市,汇工街西,,29,29,28,15,15,111,74,100,99,29,18,8,12,0.6,0.8
2023-09-01T19:00:00,2217A,123.8649,42.2923,铁岭市,水上乐园,,27,27,34,14,18,113,77,99,99,39,23,2,3,0.6,0.9
2023-09-01T19:00:00,2218A,123.8486,42.2867,铁岭市,银州路东段,,25,25,36,17,15,99,76,90,90,30,26,7,8,0.5,0.9
2023-09-01T19:00:00,2219A,123.7153,42.2217,铁岭市,金沙江路北,,32,32,32,12,17,109,65,95,94,32,26,6,5,0.6,0.9
2023-09-01T19:00:00,2220A,120.4318,41.5881,朝阳市,西梁,,34,34,25,12,13,95,37,86,84,50,16,6,8,0.6,0.7
2023-09-01T19:00:00,2221A,120.4521,41.5646,朝阳市,河畔小区,颗粒物(PM10),53,55,23,15,9,93,47,86,84,40,14,8,10,0.5,0.6
2023-09-01T19:00:00,2222A,120.4176,41.5648,朝阳市,八里堡,,,,32,15,15,153,48,88,86,51,21,8,10,1.1,0.8
2023-09-01T19:00:00,2223A,120.3806,41.5969,朝阳市,农业园区,,32,32,19,12,11,90,34,82,78,46,13,6,8,0.6,0.7
2023-09-01T19:00:00,2225A,124.4002,43.1713,四平市,一商场,颗粒物(PM10),58,65,36,24,21,88,55,83,81,40,13,7,7,0.7,0.4
2023-09-01T19:00:00,2226A,124.388,43.193,四平市,境园,,36,36,27,13,22,86,61,78,77,25,12,2,2,0.4,0.5
2023-09-01T19:00:00,2227A,125.1358,42.8845,辽源市,环保局,,24,19,17,10,11,107,75,99,97,16,7,7,7,0.6,0.6
2023-09-01T19:00:00,2229A,125.9358,41.7173,通化市,光明,,15,15,10,4,3,86,37,81,73,24,7,8,8,0.4,0.3
2023-09-01T19:00:00,2230A,125.9446,41.7325,通化市,铁路,,16,15,9,11,5,86,35,80,72,20,7,7,6,0.6,0.5
2023-09-01T19:00:00,2231A,126.4219,41.9171,白山市,喜丰,,32,32,27,17,10,97,39,87,79,26,13,10,9,0.7,0.8
2023-09-01T19:00:00,2232A,126.4077,41.9419,白山市,环保局,,46,46,31,16,11,101,26,91,80,32,16,9,10,0.9,0.8
2023-09-01T19:00:00,2233A,124.8006,45.1214,松原市,江南,,32,32,14,12,7,79,51,70,69,28,12,5,6,0.6,0.4
2023-09-01T19:00:00,2234A,124.7965,45.1722,松原市,江北,,19,17,11,9,7,78,58,72,71,11,9,2,4,0.5,0.4
2023-09-01T19:00:00,2235A,122.7911,45.6077,白城市,洮北区环保局,,32,32,14,9,6,103,70,93,91,20,12,6,6,0.1,0.1
2023-09-01T19:00:00,2236A,122.8738,45.5725,白城市,市环保局,,31,31,21,7,6,104,36,94,88,47,18,7,7,0.3,0.3
2023-09-01T19:00:00,2237A,129.47,42.8883,延边朝鲜族自治州,妇幼医院,,22,22,15,11,7,87,64,81,79,12,10,8,8,0.5,0.5
2023-09-01T19:00:00,2238A,129.5055,42.9108,延边朝鲜族自治州,延边医院,颗粒物(PM10),51,52,28,19,10,89,57,83,79,21,15,6,6,0.7,0.6
2023-09-01T19:00:00,2239A,129.3964,42.8881,延边朝鲜族自治州,朝阳川镇医院,,27,27,13,8,4,93,63,88,84,11,6,8,8,0.6,0.5
2023-09-01T19:00:00,2240A,130.9762,45.3001,鸡西市,环保局,,23,23,40,10,14,57,39,49,48,16,21,4,5,0.3,0.4
2023-09-01T19:00:00,2243A,130.9429,45.3039,鸡西市,第一中学,,19,17,24,11,10,75,58,68,68,6,11,6,8,0.2,0.2
2023-09-01T19:00:00,2244A,130.2537,47.3416,鹤岗市,哈啤分公司,,20,15,13,14,9,49,25,43,38,10,10,11,12,0.3,0.3
2023-09-01T19:00:00,2245A,130.2684,47.3086,鹤岗市,斯达机电,,24,24,15,9,7,56,14,44,34,21,9,8,9,0.4,0.4
2023-09-01T19:00:00,2246A,130.3114,47.3388,鹤岗市,东山纸板厂,,23,21,15,16,9,45,16,39,35,18,13,11,11,0.7,0.4
2023-09-01T19:00:00,2247A,130.1097,47.3382,鹤岗市,五号水库,,20,20,11,7,7,48,28,44,39,4,6,11,12,0.3,0.2
2023-09-01T19:00:00,2248A,131.1511,46.6937,双鸭山市,双合村,,16,15,25,6,9,62,51,58,56,4,8,6,9,0.1,0.4
2023-09-01T19:00:00,2249A,131.1652,46.6191,双鸭山市,南小市,,14,9,23,9,8,61,44,55,52,7,6,6,6,0.1,0.2
2023-09-01T19:00:00,2250A,131.1524,46.6554,双鸭山市,环保局,,22,22,24,8,10,62,41,55,52,10,12,8,9,0.3,0.4
2023-09-01T19:00:00,2251A,131.12,46.5656,双鸭山市,苗圃,,29,8,6,20,8,74,58,70,68,2,3,3,3,0.4,0.3
2023-09-01T19:00:00,2252A,128.5159,47.4311,伊春市,环保局,,21,21,13,1,4,51,16,42,33,17,6,9,5,0.4,0.3
2023-09-01T19:00:00,2253A,128.9102,47.7412,伊春市,电力嘉园,,40,36,9,28,11,53,28,45,42,16,5,5,5,1.0,0.5
2023-09-01T19:00:00,2254A,129.5029,48.471,伊春市,汤旺河国家公园,,24,24,20,9,12,46,12,40,35,2,2,17,15,0.5,1.5
2023-09-01T19:00:00,2255A,130.2751,46.8028,佳木斯市,佳纺,,18,18,16,12,8,58,31,51,46,11,5,1,3,0.4,0.4
2023-09-01T19:00:00,2256A,130.3995,46.8307,佳木斯市,发电厂,,12,12,13,8,8,64,36,55,50,11,7,2,5,0.4,0.3
2023-09-01T19:00:00,2257A,130.3258,46.7975,佳木斯市,环保局,,13,13,18,9,6,58,27,51,45,16,7,3,4,0.4,0.3
2023-09-01T19:00:00,2258A,130.3648,46.8032,佳木斯市,十一中,,17,17,19,8,9,59,33,53,47,16,11,3,3,0.5,0.4
2023-09-01T19:00:00,2259A,130.3794,46.7588,佳木斯市,四丰,,16,10,11,2,5,79,49,67,61,4,3,1,1,0.3,0.3
2023-09-01T19:00:00,2262A,131.0518,45.8751,七台河市,新一中,,23,17,17,6,10,80,72,74,74,5,8,8,9,0.4,0.5
2023-09-01T19:00:00,2263A,127.4833,50.2524,黑河市,交通局,,31,31,10,14,6,46,12,41,37,35,9,5,4,0.7,0.3
2023-09-01T19:00:00,2264A,127.5144,50.2341,黑河市,环保局,,28,28,14,9,6,52,37,47,47,14,6,5,3,0.4,0.3
2023-09-01T19:00:00,2265A,127.5291,50.2472,黑河市,大黑河岛,,,23,10,5,9,,,,,2,2,3,3,0.6,0.5
2023-09-01T19:00:00,2266A,126.9785,46.6365,绥化市,人和东街,,23,23,12,15,7,49,33,49,42,18,9,4,4,0.4,0.3
2023-09-01T19:00:00,2267A,126.964,46.6528,绥化市,党政办公中心,,17,17,15,5,7,46,31,44,39,19,8,8,8,0.3,0.3
2023-09-01T19:00:00,2269A,124.1069,50.4097,大兴安岭地区,科技局,,22,22,14,11,9,73,44,59,58,7,3,5,4,0.2,0.2
2023-09-01T19:00:00,2270A,117.396,32.939,蚌埠市,工人疗养院,臭氧1小时,64,45,37,19,14,171,171,155,155,9,16,3,4,0.5,0.4
2023-09-01T19:00:00,2271A,117.3605,32.9427,蚌埠市,百货大楼,臭氧1小时,64,49,39,26,15,171,171,155,155,10,14,5,5,0.5,0.3
2023-09-01T19:00:00,2273A,117.4185,32.8911,蚌埠市,蚌埠学院,颗粒物(PM10),52,53,37,24,18,168,159,154,154,26,20,6,6,0.5,0.3
2023-09-01T19:00:00,2274A,117.3533,32.9673,蚌埠市,淮上区政府,,48,46,36,24,20,153,153,144,144,17,20,5,6,0.4,0.4
2023-09-01T19:00:00,2275A,117.3145,32.8977,蚌埠市,高新区,臭氧1小时,67,44,31,19,16,173,173,163,163,15,20,6,6,0.5,0.4
2023-09-01T19:00:00,2277A,116.8305,32.7727,淮南市,潘集区政府,,42,39,37,18,19,167,132,153,153,12,14,4,8,0.3,0.3
2023-09-01T19:00:00,2278A,117.0067,32.6524,淮南市,师范学院,,45,40,39,13,17,160,141,148,148,18,16,10,9,0.5,0.5
2023-09-01T19:00:00,2279A,116.8569,32.5951,淮南市,谢家集区政府,,47,39,30,8,11,155,148,151,151,16,21,7,17,0.2,0.3
2023-09-01T19:00:00,2280A,116.8281,32.633,淮南市,八公山区政府,,45,40,43,20,22,168,142,153,153,14,18,6,9,0.4,0.3
2023-09-01T19:00:00,2281A,116.6325,32.6201,淮南市,焦岗湖风景区管理处,,41,27,30,18,17,168,129,148,148,20,26,4,4,0.4,0.4
2023-09-01T19:00:00,2282A,116.8004,33.975,淮北市,监测站,,45,39,36,26,17,161,141,153,153,16,17,5,6,0.6,0.6
2023-09-01T19:00:00,2283A,116.8091,33.9007,淮北市,烈山区政府,,47,46,47,22,21,172,150,167,167,10,20,6,8,0.5,0.5
2023-09-01T19:00:00,2285A,117.8177,30.9412,铜陵市,市第四中学,,42,25,32,18,18,133,133,115,115,9,9,5,6,0.2,0.3
2023-09-01T19:00:00,2286A,117.8059,30.9273,铜陵市,市公路局,,47,30,31,30,20,150,150,128,128,12,11,10,10,0.4,0.4
2023-09-01T19:00:00,2287A,117.7807,30.9413,铜陵市,市新民污水厂,,48,32,34,10,14,152,152,132,132,9,17,4,4,0.4,0.4
2023-09-01T19:00:00,2288A,117.7439,30.8792,铜陵市,市第九中学,,40,40,48,2,18,121,106,116,116,52,29,4,9,0.3,1.2
2023-09-01T19:00:00,2289A,117.846,30.9413,铜陵市,车站新区,,46,18,27,16,19,145,145,124,124,11,14,5,5,0.3,0.3
2023-09-01T19:00:00,2290A,117.8483,30.97,铜陵市,市职教基地,,,22,25,15,10,145,142,123,123,,9,4,4,,0.5
2023-09-01T19:00:00,2291A,117.0809,30.5177,安庆市,环科院,,44,24,28,13,19,154,140,144,144,7,9,9,8,0.6,0.6
2023-09-01T19:00:00,2292A,117.0331,30.5119,安庆市,马山宾馆,,45,33,32,12,20,156,143,147,147,14,14,6,6,0.6,0.7
2023-09-01T19:00:00,2294A,116.9896,30.6145,安庆市,安庆大学,,45,21,25,11,16,149,144,140,140,13,11,6,6,0.6,0.6
2023-09-01T19:00:00,2295A,118.2903,29.6963,黄山市,延安路89号,,35,33,31,1,6,110,110,101,101,6,5,4,4,0.4,0.4
2023-09-01T19:00:00,2296A,118.327,29.7178,黄山市,黄山东路89号,,32,26,24,2,7,103,100,96,96,8,5,4,4,0.5,0.5
2023-09-01T19:00:00,2297A,118.1371,30.2756,黄山市,黄山区政府5号楼,,45,45,27,17,7,136,136,108,108,10,8,8,6,0.5,0.4
2023-09-01T19:00:00,2298A,118.3093,32.3153,滁州市,老年大学,,48,34,27,19,13,156,152,149,149,14,20,8,7,0.3,0.3
2023-09-01T19:00:00,2299A,118.3244,32.2786,滁州市,人大宾馆,,47,33,26,20,12,155,148,145,145,18,21,8,8,0.4,0.4
2023-09-01T19:00:00,2301A,115.8277,32.8929,阜阳市,市监测站,,44,31,37,15,21,156,138,148,148,17,22,8,8,0.5,0.5
2023-09-01T19:00:00,2303A,115.8554,32.8605,阜阳市,开发区,,45,18,38,21,27,158,144,150,150,16,20,7,9,0.5,0.5
2023-09-01T19:00:00,2307A,116.5079,31.737,六安市,监测大楼,,36,21,28,1,11,156,115,143,143,10,9,4,5,0.3,0.4
2023-09-01T19:00:00,2308A,116.4738,31.7643,六安市,皖西学院,,36,20,33,6,14,159,113,144,144,8,12,5,7,0.1,0.3
2023-09-01T19:00:00,2309A,116.4996,31.7905,六安市,朝阳厂,,36,20,24,8,12,161,114,144,144,8,10,7,8,0.4,0.6
2023-09-01T19:00:00,2310A,116.5567,31.7886,六安市,开发区,,31,17,41,9,21,151,98,132,132,13,12,6,7,0.4,0.6
2023-09-01T19:00:00,2311A,115.8072,33.8399,亳州市,污水处理厂,,50,44,38,19,22,179,158,163,163,11,11,10,12,0.6,0.6
2023-09-01T19:00:00,2312A,115.7789,33.8518,亳州市,三国揽胜宫,臭氧1小时,73,11,36,19,20,178,178,161,161,11,13,7,8,0.6,0.4
2023-09-01T19:00:00,2314A,117.47,30.6618,池州市,池州学院,,39,28,35,12,20,128,124,124,124,20,15,5,5,0.5,0.6
2023-09-01T19:00:00,2316A,118.7581,30.9454,宣城市,鳌峰子站,,41,35,34,14,20,136,129,126,126,14,21,5,4,0.7,0.8
2023-09-01T19:00:00,2317A,118.7385,30.9743,宣城市,敬亭山子站,,41,41,33,15,16,140,106,122,122,35,20,6,8,0.4,0.5
2023-09-01T19:00:00,2318A,118.7173,30.9427,宣城市,开发区子站,,45,33,33,13,21,149,142,136,136,14,21,6,5,0.6,0.6
2023-09-01T19:00:00,2319A,119.0141,25.4325,莆田市,荔城区仓后路,,26,23,17,16,7,88,83,88,82,9,5,8,8,1.0,1
2023-09-01T19:00:00,2320A,119.0015,25.4553,莆田市,莆田市监测站,,26,24,18,11,5,86,81,86,79,8,4,7,6,0.6,0.5
2023-09-01T19:00:00,2321A,119.1119,25.4561,莆田市,涵江区六中,,38,31,18,26,8,101,99,98,93,9,5,7,7,0.6,0.5
2023-09-01T19:00:00,2322A,119.1013,25.3215,莆田市,秀屿区政府,,33,33,23,13,10,100,100,97,90,10,6,7,7,0.6,0.6
2023-09-01T19:00:00,2323A,118.981,25.4792,莆田市,东圳水库,,,,,,,,,,,,,,,,
2023-09-01T19:00:00,2324A,117.6211,26.2625,三明市,三钢,,40,40,19,16,14,70,41,62,61,23,10,8,9,0.7,0.4
2023-09-01T19:00:00,2325A,117.635,26.2714,三明市,三明二中,,28,28,16,18,6,68,51,62,62,20,12,4,5,1.1,0.6
2023-09-01T19:00:00,2326A,117.6028,26.2378,三明市,三元区政府,颗粒物(PM10),54,58,21,16,6,64,15,57,52,29,10,7,8,1.0,0.7
2023-09-01T19:00:00,2327A,117.7275,26.3108,三明市,洋溪,,,,,,,,,,,,,,,,
2023-09-01T19:00:00,2331A,118.0966,26.6761,南平市,茫荡山,,,,,,,,,,,,,,,,
2023-09-01T19:00:00,2332A,118.1681,26.6369,南平市,南平市监测站,,28,28,19,9,6,88,46,78,73,18,8,5,5,0.9,0.6
2023-09-01T19:00:00,2333A,118.1825,26.6489,南平市,南平铝业有限公司,,31,31,18,12,7,83,52,78,73,12,10,4,4,0.7,0.6
2023-09-01T19:00:00,2334A,118.1756,26.6272,南平市,南平七中,,17,17,17,7,5,89,47,76,70,10,6,4,5,0.7,0.7
2023-09-01T19:00:00,2335A,117.0189,25.1181,龙岩市,龙岩师专,,,,,,,,,,,,,,,,
2023-09-01T19:00:00,2336A,117.0217,25.1033,龙岩市,龙岩市监测站,,16,14,12,11,6,47,35,44,41,12,8,6,6,0.6,0.4
2023-09-01T19:00:00,2337A,117.0258,25.0661,龙岩市,闽西职业技术学院,,13,10,11,9,5,52,34,51,43,12,4,5,4,0.7,0.4
2023-09-01T19:00:00,2338A,117.0196,25.0306,龙岩市,龙岩学院,,16,16,11,9,5,54,26,52,39,10,8,4,5,0.4,0.3
2023-09-01T19:00:00,2339A,119.5001,26.6946,宁德市,金涵水库,,,,,,,,,,,,,,,,
2023-09-01T19:00:00,2341A,119.5388,26.6612,宁德市,宁德市监测站,,30,30,21,13,12,107,71,89,89,14,13,4,5,0.6,0.6
2023-09-01T19:00:00,2342A,117.3102,29.3867,景德镇市,王港中学,,17,11,18,8,8,79,52,68,67,3,3,4,4,0.5,0.5
2023-09-01T19:00:00,2343A,117.2117,29.2933,景德镇市,老干部活动中心,,25,25,25,8,14,84,75,75,75,8,9,3,4,0.3,0.3
2023-09-01T19:00:00,2344A,117.1894,29.2789,景德镇市,兽医站,,,,30,,25,84,,78,78,,9,,6,,0.6
2023-09-01T19:00:00,2345A,117.1547,29.2617,景德镇市,台达陶瓷,,25,23,21,4,10,88,78,81,81,10,9,3,5,0.4,0.4
2023-09-01T19:00:00,2346A,117.2461,29.2956,景德镇市,陶研所,,24,12,29,13,8,85,76,77,77,5,5,5,6,0.3,0.3
2023-09-01T19:00:00,2347A,114.0997,27.5002,萍乡市,武功山,,23,6,8,2,6,104,72,91,90,5,4,8,9,0.5,0.4
2023-09-01T19:00:00,2348A,113.8385,27.6434,萍乡市,中医院,,31,31,32,7,20,108,89,102,101,11,9,8,20,0.6,0.6
2023-09-01T19:00:00,2349A,113.8493,27.6253,萍乡市,市政府车库,,27,26,37,6,20,119,84,111,109,20,13,11,19,0.4,0.5
2023-09-01T19:00:00,2350A,113.8676,27.6435,萍乡市,市环保局,,32,24,34,15,22,121,101,117,116,10,8,6,16,0.4,0.5
2023-09-01T19:00:00,2351A,113.866,27.6198,萍乡市,安源区政府,,33,33,35,20,22,118,91,111,109,13,12,9,14,0.5,0.8
2023-09-01T19:00:00,2352A,115.0861,27.9317,新余市,北岗,,37,24,22,14,15,127,117,112,112,7,8,10,14,0.6,0.7
2023-09-01T19:00:00,2353A,114.9886,27.8431,新余市,飞宇,,39,39,35,20,17,123,112,111,111,13,11,7,11,0.4,0.4
2023-09-01T19:00:00,2354A,114.9231,27.8246,新余市,第二水厂,,38,32,32,21,17,134,121,121,121,17,15,9,12,0.4,0.5
2023-09-01T19:00:00,2355A,114.9308,27.8036,新余市,市气象局,,37,37,33,23,18,124,113,112,112,11,8,10,11,0.8,0.7
2023-09-01T19:00:00,2357A,116.9822,28.1136,鹰潭市,龙虎山,,38,26,27,19,19,131,120,127,127,3,5,5,5,0.5,0.4
2023-09-01T19:00:00,2358A,117.0564,28.2642,鹰潭市,新监测站,,39,35,31,26,16,138,122,127,126,11,7,8,14,0.6,0.6
2023-09-01T19:00:00,2359A,117.0311,28.2475,鹰潭市,财苑宾馆,,40,30,32,17,17,142,128,130,129,9,8,4,18,0.4,0.5
2023-09-01T19:00:00,2360A,117.0222,28.2264,鹰潭市,体育馆,,39,38,35,26,19,144,123,129,128,11,9,8,16,0.5,0.6
2023-09-01T19:00:00,2361A,117.0017,28.2131,鹰潭市,三川水表,,38,38,37,15,21,148,119,131,128,13,11,4,12,0.5,0.6
2023-09-01T19:00:00,2362A,114.9017,25.9149,赣州市,通天岩,,,,,,,,,,,,,,,,
2023-09-01T19:00:00,2363A,114.9367,25.8664,赣州市,地委,,44,44,34,22,22,94,50,94,70,16,6,13,14,1.1,1
2023-09-01T19:00:00,2364A,114.9461,25.8481,赣州市,气象台,,49,30,28,34,22,102,47,100,70,24,11,5,6,0.9,0.8
2023-09-01T19:00:00,2365A,114.9322,25.8333,赣州市,市图书馆,,45,32,41,31,23,92,58,92,71,16,9,7,8,1.1,1
2023-09-01T19:00:00,2366A,114.8905,25.8471,赣州市,华坚鞋城,,36,36,34,23,21,90,56,88,67,18,7,1,3,0.7,0.6
2023-09-01T19:00:00,2367A,114.9754,27.0803,吉安市,红声器材厂,,42,42,35,23,17,119,111,104,104,15,11,18,11,0.8,0.7
2023-09-01T19:00:00,2368A,114.9658,27.0999,吉安市,市森林工业局,,,40,33,22,19,117,117,107,107,8,7,7,11,,0.6
2023-09-01T19:00:00,2369A,114.99,27.1312,吉安市,市环境监测站,,38,38,33,20,16,116,113,105,105,14,13,10,12,0.7,0.6
2023-09-01T19:00:00,2370A,115.0093,27.0968,吉安市,青原区法院,,40,40,32,19,18,112,108,102,102,14,13,14,15,0.9,0.8
2023-09-01T19:00:00,2371A,114.3408,27.8064,宜春市,槟榔水业,,23,23,29,10,13,105,73,80,59,14,14,1,4,1.0,0.8
2023-09-01T19:00:00,2373A,114.3956,27.7844,宜春市,市石油公司,,34,34,32,20,18,107,92,102,102,10,11,10,7,0.7,0.8
2023-09-01T19:00:00,2374A,114.3703,27.7914,宜春市,市气象局,,32,32,37,16,17,104,92,100,100,18,15,11,9,0.8,0.7
2023-09-01T19:00:00,2375A,114.4013,27.8074,宜春市,市广电局,,41,41,31,14,15,106,98,102,102,12,12,10,12,0.8,0.8
2023-09-01T19:00:00,2376A,116.2127,28.0814,抚州市,桐源党溪,,34,31,24,11,10,108,108,90,90,3,3,3,2,0.7,0.7
2023-09-01T19:00:00,2377A,116.3544,27.9831,抚州市,市站,,34,34,31,22,15,99,90,92,92,6,8,3,4,0.8,0.9
2023-09-01T19:00:00,2378A,116.3565,27.963,抚州市,血防站,,37,37,34,20,14,103,90,95,95,2,3,2,2,1.1,1
2023-09-01T19:00:00,2379A,116.3564,28.0007,抚州市,采茶剧团,,35,35,29,17,13,99,82,90,90,10,5,5,4,0.9,0.9
2023-09-01T19:00:00,2380A,116.385,27.9647,抚州市,医学分院,,32,32,30,15,14,102,87,96,95,6,2,5,10,1.0,0.9
2023-09-01T19:00:00,2381A,118.005,28.4572,上饶市,百草园,,48,25,36,33,18,127,127,118,118,6,6,76,39,0.8,0.8
2023-09-01T19:00:00,2382A,117.9756,28.4436,上饶市,市监测站,,44,30,33,15,17,139,139,126,126,4,8,5,7,0.4,0.4
2023-09-01T19:00:00,2383A,117.9519,28.4628,上饶市,凤凰光学,,41,31,30,14,13,131,131,124,124,4,14,1,9,0.4,0.4
2023-09-01T19:00:00,2385A,114.17,35.9019,鹤壁市,市监测站,细颗粒物(PM2.5),77,60,76,56,53,165,155,147,147,14,21,3,4,0.8,0.8
2023-09-01T19:00:00,2386A,114.2956,35.7511,鹤壁市,市交警支队,细颗粒物(PM2.5),79,79,70,58,48,157,136,140,140,14,17,3,4,0.7,0.7
2023-09-01T19:00:00,2387A,114.2878,35.7306,鹤壁市,迎宾馆,细颗粒物(PM2.5),84,64,71,62,49,164,146,147,147,13,18,4,7,1.0,0.8
2023-09-01T19:00:00,2389A,113.836,35.311,新乡市,环保西院,细颗粒物(PM2.5),54,49,66,38,45,154,138,143,143,11,17,5,6,0.8,0.8
2023-09-01T19:00:00,2390A,113.884,35.272,新乡市,开发区,,49,49,56,34,43,154,133,142,142,6,13,3,5,0.3,0.3
2023-09-01T19:00:00,2391A,113.883,35.303,新乡市,环保东院,细颗粒物(PM2.5),59,62,71,42,40,151,132,140,140,13,19,4,5,0.8,0.8
2023-09-01T19:00:00,2392A,115.0312,35.7636,濮阳市,环保局,,46,36,51,32,43,167,133,151,151,15,14,5,8,0.7,0.7
2023-09-01T19:00:00,2394A,115.0574,35.7609,濮阳市,油田运输公司,颗粒物(PM10),53,56,64,31,44,165,134,152,152,15,14,6,9,0.6,0.6
2023-09-01T19:00:00,2395A,115.0866,35.7754,濮阳市,油田物探公司,"颗粒物(PM10),细颗粒物(PM2.5)",54,57,64,38,50,183,126,158,157,16,12,4,7,0.6,0.6
2023-09-01T19:00:00,2396A,113.8276,34.0159,许昌市,监测站,,,34,47,13,26,157,137,150,150,15,19,,3,0.3,0.5
2023-09-01T19:00:00,2398A,113.7906,33.9953,许昌市,开发区,,45,33,43,15,27,159,143,153,153,8,19,3,3,0.4,0.5
2023-09-01T19:00:00,2399A,114.051,33.5699,漯河市,三五一五工厂,,43,39,40,14,23,170,136,154,154,12,14,11,10,0.5,0.5
2023-09-01T19:00:00,2400A,114.0055,33.5698,漯河市,漯河大学,,47,32,39,15,22,174,148,161,161,8,10,4,5,0.4,0.5
2023-09-01T19:00:00,2401A,114.0138,33.5828,漯河市,市水利局,,43,34,35,18,25,169,136,156,155,15,12,8,8,0.4,0.5
2023-09-01T19:00:00,2402A,114.0261,33.5698,漯河市,市广电局,,46,34,42,17,25,171,145,158,158,13,12,7,6,0.4,0.5
2023-09-01T19:00:00,2404A,112.5224,33.0122,南阳市,瓦房庄,,44,44,48,24,28,164,138,151,151,16,16,5,5,0.6,0.6
2023-09-01T19:00:00,2405A,112.5003,32.9735,南阳市,汉画馆,,45,37,42,20,25,165,142,154,154,14,16,7,6,0.5,0.6
2023-09-01T19:00:00,2406A,112.5573,33.027,南阳市,气象站,,43,35,38,14,22,159,137,149,149,17,13,8,6,0.6,0.7
2023-09-01T19:00:00,2407A,112.5481,32.9689,南阳市,理工学院,,46,36,42,26,28,163,147,155,155,9,14,7,7,0.4,0.5
2023-09-01T19:00:00,2408A,115.6702,34.4285,商丘市,环境监测站,颗粒物(PM10),55,59,41,21,23,166,141,156,156,11,11,6,7,0.8,0.8
2023-09-01T19:00:00,2409A,115.6458,34.4045,商丘市,粮食局,,46,42,38,20,25,175,146,162,162,9,9,5,6,0.5,0.5
2023-09-01T19:00:00,2410A,115.6293,34.3948,商丘市,睢阳区环保局,,50,50,44,23,20,176,154,165,165,8,12,7,8,0.5,0.4
2023-09-01T19:00:00,2420A,114.0189,32.9656,驻马店市,市一纸厂,,47,31,43,18,20,156,150,150,150,8,14,9,6,0.3,0.5
2023-09-01T19:00:00,2421A,114.0114,33.015,驻马店市,市彩印厂,,48,30,42,24,25,156,151,150,150,8,10,10,7,0.3,0.4
2023-09-01T19:00:00,2422A,113.9976,32.9771,驻马店市,天方二分厂,,46,24,34,30,25,150,146,145,145,5,9,8,6,0.3,0.3
2023-09-01T19:00:00,2423A,115.0601,30.2313,黄石市,沈家营,,41,24,34,9,15,157,130,147,147,13,12,9,9,0.6,0.8
2023-09-01T19:00:00,2424A,115.0817,30.2006,黄石市,陈家湾,,44,33,32,11,18,154,139,144,144,4,9,7,9,0.4,0.5
2023-09-01T19:00:00,2426A,114.8988,30.2019,黄石市,铁山,,47,34,31,13,17,167,148,157,157,9,16,8,8,0.6,0.7
2023-09-01T19:00:00,2427A,115.0307,30.2092,黄石市,团城山,,48,28,34,8,12,174,152,158,158,11,11,6,9,0.4,0.5
2023-09-01T19:00:00,2428A,111.0419,32.395,十堰市,武当山,,33,12,19,15,13,128,104,110,110,8,7,10,10,0.8,0.7
2023-09-01T19:00:00,2429A,110.78,32.6494,十堰市,滨河新村,,33,31,44,18,25,150,104,126,126,15,15,7,8,0.6,0.6
2023-09-01T19:00:00,2430A,110.7258,32.6389,十堰市,刘家沟,,44,44,33,13,21,156,96,124,124,8,6,7,6,0.7,0.7
2023-09-01T19:00:00,2431A,110.8839,32.5714,十堰市,铁二处,,30,27,33,7,17,158,95,139,136,14,5,6,6,0.7,0.7
2023-09-01T19:00:00,2432A,112.155,32.0197,襄阳市,襄城运动路,,40,31,51,20,25,157,126,142,142,14,21,7,9,0.5,0.7
2023-09-01T19:00:00,2433A,112.1392,32.0564,襄阳市,樊城新华路,,40,23,58,11,31,160,127,144,144,16,22,8,10,0.4,0.5
2023-09-01T19:00:00,2434A,112.1825,32.1142,襄阳市,高新管委会,,40,39,47,12,37,149,125,142,142,14,23,7,8,0.8,0.9
2023-09-01T19:00:00,2435A,112.2106,32.0903,襄阳市,襄州航空路,,41,25,54,11,30,146,129,141,141,14,19,6,7,0.6,0.8
2023-09-01T19:00:00,2436A,114.8938,30.3994,鄂州市,市政府,,42,26,35,12,18,158,134,147,147,12,18,2,4,0.7,0.8
2023-09-01T19:00:00,2437A,114.8989,30.3714,鄂州市,赵家坝,,47,18,40,11,17,167,149,150,150,12,19,3,5,0.5,0.5
2023-09-01T19:00:00,2439A,112.2014,31.0481,荆门市,竹园小学,,41,26,58,17,30,166,130,154,154,23,22,9,11,0.6,0.7
2023-09-01T19:00:00,2440A,112.1969,30.9891,荆门市,掇刀,,37,26,52,15,30,153,118,143,142,15,21,11,12,0.4,0.5
2023-09-01T19:00:00,2441A,112.2213,31.0386,荆门市,石化一小,,41,27,47,21,32,163,130,151,151,11,20,7,9,0.4,0.6
2023-09-01T19:00:00,2443A,113.9153,30.9285,孝感市,文化路,,37,27,35,12,21,160,116,143,142,8,13,7,8,0.7,0.8
2023-09-01T19:00:00,2444A,113.942,30.9075,孝感市,东城区,,38,38,40,12,19,163,114,148,145,12,13,8,8,0.6,0.8
2023-09-01T19:00:00,2446A,114.9028,30.4742,黄冈市,职工中心,细颗粒物(PM2.5),60,62,42,43,22,172,139,157,157,19,6,11,10,0.8,0.7
2023-09-01T19:00:00,2447A,114.3175,29.8142,咸宁市,森林公园,臭氧1小时,65,28,29,14,16,181,172,162,162,5,4,8,6,0.7,0.7
2023-09-01T19:00:00,2448A,114.3107,29.8454,咸宁市,市发改委,臭氧1小时,70,32,30,24,20,195,176,174,174,6,7,11,10,0.4,0.5
2023-09-01T19:00:00,2449A,114.2936,29.8566,咸宁市,咸安区政府,臭氧1小时,58,48,33,34,22,195,166,174,174,19,13,11,11,0.6,0.6
2023-09-01T19:00:00,2451A,113.3583,31.7275,随州市,市委党校,,41,31,39,14,22,153,129,143,143,8,10,6,8,0.6,0.6
2023-09-01T19:00:00,2452A,113.3833,31.6908,随州市,市林业局,,44,25,33,14,23,156,139,148,148,11,14,5,5,0.7,0.8
2023-09-01T19:00:00,2453A,113.3983,31.7308,随州市,市立交桥水厂,,39,27,30,15,21,150,124,141,140,16,18,8,9,0.5,0.6
2023-09-01T19:00:00,2454A,109.4978,30.2981,恩施土家族苗族自治州,湖北民院,细颗粒物(PM2.5),54,18,35,38,21,150,80,124,124,2,6,10,11,0.7,0.7
2023-09-01T19:00:00,2455A,109.4707,30.2798,恩施土家族苗族自治州,州电力总公司,颗粒物(PM10),51,51,34,14,37,122,85,109,109,26,17,8,8,0.9,0.8
2023-09-01T19:00:00,2456A,112.5003,26.9167,衡阳市,原169医院,,40,13,38,21,24,133,125,125,125,12,21,10,10,0.5,0.6
2023-09-01T19:00:00,2457A,112.6194,26.9258,衡阳市,衡阳化工总厂,细颗粒物(PM2.5),63,68,49,45,26,159,134,135,135,14,12,8,13,0.7,0.8
2023-09-01T19:00:00,2458A,112.6211,26.8956,衡阳市,珠晖区环保局,,47,47,44,24,20,160,140,141,141,10,17,6,9,0.7,0.8
2023-09-01T19:00:00,2459A,112.6197,26.8733,衡阳市,市委党校,,47,44,41,22,22,179,149,152,152,9,11,9,12,0.7,0.8
2023-09-01T19:00:00,2460A,112.6006,26.8919,衡阳市,市监测站,,50,46,44,35,30,168,142,146,146,13,14,7,12,0.7,0.8
