timepoint,stationcode,longitude,latitude,area,positionname,primarypollutant,aqi,pm10,pm10_24h,pm2_5,pm2_5_24h,o3,o3_24h,o3_8h,o3_8h_24h,no2,no2_24h,so2,so2_24h,co,co_24h
2026-01-21T2100,2568A,102.2503,31.8896,阿坝藏族羌族自治州,马师校,,48,37,24,33,19,36,,68,61,20,13,4,4,0.6,0.5
2026-01-21T2100,3994A,102.2174,31.9016,阿坝藏族羌族自治州,马尔康中学西区,颗粒物(PM10),55,59,22,28,11,38,,76,73,22,12,6,6,0.6,0.5
2026-01-21T2100,2695A,80.2899,41.1684,阿克苏地区,电视台,颗粒物(PM10),428,528,595,87,92,57,,64,64,17,24,8,6,1.2,1.3
2026-01-21T2100,2696A,80.2592,41.1541,阿克苏地区,艺术中心,颗粒物(PM10),431,531,553,79,103,54,,68,68,19,19,5,4,0.7,0.7
2026-01-21T2100,2205A,105.699,38.8409,阿拉善盟,蒙二幼,颗粒物(PM10),57,63,38,36,16,45,,68,63,29,14,13,10,1.0,0.7
2026-01-21T2100,2206A,105.7198,38.8508,阿拉善盟,环保局新楼,颗粒物(PM10),51,52,28,21,9,41,,63,58,24,10,8,9,0.7,0.6
2026-01-21T2100,2708A,88.1266,47.8515,阿勒泰地区,市站,,37,26,13,9,8,8,,73,40,74,30,8,6,0.4,0.5
2026-01-21T2100,4166A,88.1198,47.7931,阿勒泰地区,阿勒泰路33号,,25,25,13,3,3,19,,69,48,48,24,8,7,0.5,0.4
2026-01-21T2100,2630A,80.1171,32.4999,阿里地区,阿里监测站,,22,6,3,3,3,70,,70,69,1,5,6,8,0.5,0.5
2026-01-21T2100,3192A,80.0906,32.5029,阿里地区,阿里藏医院,,28,6,16,3,10,88,,86,86,1,5,10,12,0.5,0.7
2026-01-21T2100,2644A,109.0088,32.6974,安康市,汉滨区检察院,,38,31,33,26,31,54,,54,54,13,10,6,5,0.5,0.5
2026-01-21T2100,4054A,109.0324,32.6913,安康市,市邮政管理局,,39,36,38,27,32,54,,55,55,13,11,8,4,0.4,0.4
2026-01-21T2100,2291A,117.0806,30.5181,安庆市,环科院,,,,69,45,41,82,,87,87,11,7,8,5,0.5,0.4
2026-01-21T2100,2292A,117.0331,30.5118,安庆市,马山宾馆,细颗粒物(PM2.5),60,64,54,43,39,85,,88,88,20,17,6,4,0.3,0.2
2026-01-21T2100,2294A,116.9897,30.6146,安庆市,安庆大学,细颗粒物(PM2.5),67,67,49,48,38,89,,94,94,16,14,4,4,0.5,0.4
2026-01-21T2100,3173A,117.0598,30.5351,安庆市,市人大,细颗粒物(PM2.5),67,70,60,48,41,82,,86,86,16,11,6,5,0.5,0.5
2026-01-21T2100,3123A,105.9408,26.2431,安顺市,凤凰山,,38,38,26,20,13,20,,38,32,30,19,19,13,0.6,0.6
2026-01-21T2100,3124A,105.9443,26.2567,安顺市,金钟山,细颗粒物(PM2.5),54,,24,38,24,20,,38,35,20,13,19,12,0.7,0.6
2026-01-21T2100,3125A,105.8983,26.248,安顺市,娄家坡,细颗粒物(PM2.5),52,38,23,36,21,21,,39,36,20,14,19,13,0.9,0.8
2026-01-21T2100,1819A,114.3552,36.1017,安阳市,红庙街,细颗粒物(PM2.5),74,71,68,54,51,56,,62,62,24,28,5,6,0.6,0.6
2026-01-21T2100,1820A,114.361,36.0681,安阳市,银杏小区,细颗粒物(PM2.5),83,68,71,61,60,56,,65,65,24,31,4,5,0.5,0.5
2026-01-21T2100,3141A,114.3921,36.0879,安阳市,信访局,细颗粒物(PM2.5),82,69,70,60,50,56,,65,65,20,30,7,8,0.4,0.7
2026-01-21T2100,3669A,114.4706,36.0634,安阳市,左辅环卫站,细颗粒物(PM2.5),90,78,83,67,65,55,,65,65,23,33,4,5,0.6,0.7
2026-01-21T2100,4117A,114.2918,36.0769,安阳市,钢三路198号,细颗粒物(PM2.5),92,92,87,68,57,49,,54,54,21,23,4,4,0.5,0.6
2026-01-21T2100,1748A,123.0441,41.1201,鞍山市,深沟寺,,45,43,34,31,20,27,,59,46,31,22,6,8,0.9,0.8
2026-01-21T2100,1749A,123.011,41.0931,鞍山市,太阳城,,42,41,32,29,19,37,,60,46,23,22,12,13,0.8,0.9
2026-01-21T2100,1750A,123.0483,41.1445,鞍山市,太平,颗粒物(PM10),58,65,47,34,25,28,,58,43,34,27,9,10,0.9,0.9
2026-01-21T2100,1751A,122.964,41.0968,鞍山市,铁西三道街,颗粒物(PM10),73,95,63,41,28,16,,59,40,58,38,26,19,1.0,1.1
2026-01-21T2100,1753A,123.0219,41.0822,鞍山市,明达新区,细颗粒物(PM2.5),58,58,33,41,19,37,,62,50,25,19,13,14,1.1,0.8
2026-01-21T2100,4201A,122.944647,41.082639,鞍山市,兴盛南路290号,颗粒物(PM10),91,131,90,56,34,4,,56,34,60,37,13,11,1.3,1.3
2026-01-21T2100,2195A,107.4206,40.7609,巴彦淖尔市,附二中,颗粒物(PM10),65,80,38,34,19,17,,58,49,49,19,8,6,0.6,0.4
2026-01-21T2100,2196A,107.37,40.7372,巴彦淖尔市,市环保大楼,颗粒物(PM10),61,72,35,36,14,10,,49,42,46,19,7,6,0.7,0.4
2026-01-21T2100,1956A,86.1476,41.7529,巴音郭楞蒙古自治州,孔雀公园,颗粒物(PM10),403,503,410,80,58,46,,62,62,18,22,8,8,0.6,0.6
2026-01-21T2100,1957A,86.1971,41.7166,巴音郭楞蒙古自治州,棉纺厂,颗粒物(PM10),490,590,412,70,50,48,,64,63,15,17,/,/,/,/
2026-01-21T2100,1958A,86.236,41.7172,巴音郭楞蒙古自治州,经济开发区,颗粒物(PM10),402,502,360,58,40,40,,61,58,27,22,4,5,0.5,0.4
2026-01-21T2100,3181A,106.776805,31.852614,巴中市,市五中,,45,43,37,31,25,42,,48,44,11,16,5,5,0.7,0.7
2026-01-21T2100,3183A,106.7419,31.8654,巴中市,圣泉水务公司,,38,36,30,26,22,32,,54,47,24,13,4,4,0.6,0.6
2026-01-21T2100,3616A,106.7617,31.8343,巴中市,市中心医院,,41,41,33,28,24,36,,56,48,22,14,7,7,0.7,0.6
2026-01-21T2100,2235A,122.7909,45.608,白城市,洮北区环保局,,44,44,27,23,16,52,,64,59,9,7,4,5,0.1,0.1
2026-01-21T2100,2236A,122.8741,45.5725,白城市,市环保局,,36,36,28,16,15,42,,53,44,12,10,4,5,0.3,0.3
2026-01-21T2100,2231A,126.4219,41.9172,白山市,喜丰,细颗粒物(PM2.5),62,55,61,44,36,25,,52,48,44,32,18,17,0.9,0.9
2026-01-21T2100,2232A,126.4082,41.9416,白山市,环保局,细颗粒物(PM2.5),60,,45,43,36,36,,55,52,22,21,9,12,0.7,0.6
2026-01-21T2100,2647A,104.1727,36.5448,白银市,第三小学,,45,45,72,22,46,65,,67,67,19,39,9,38,0.5,0.9
2026-01-21T2100,2648A,104.1467,36.5482,白银市,动力公司,,38,38,64,22,41,83,,75,75,11,25,12,26,0.7,1.1
2026-01-21T2100,2512A,106.6102,23.901,百色市,市监测站,,24,24,17,6,3,29,,28,28,12,14,7,8,0.7,0.7
2026-01-21T2100,2513A,106.6524,23.8842,百色市,市中心血站,,20,20,15,14,5,32,,31,31,7,10,7,8,0.6,0.7
2026-01-21T2100,4133A,106.6273,23.8798,百色市,龙景西路,,29,29,18,13,4,27,,25,25,9,11,8,8,0.5,0.5
2026-01-21T2100,2270A,117.396,32.9389,蚌埠市,工人疗养院,细颗粒物(PM2.5),58,58,57,41,42,72,,77,77,18,17,6,7,0.2,0.3
2026-01-21T2100,2271A,117.3606,32.9428,蚌埠市,百货大楼,,46,39,47,32,35,73,,81,81,22,19,7,6,0.5,0.5
2026-01-21T2100,2273A,117.4183,32.8909,蚌埠市,蚌埠学院,,40,36,46,28,36,47,,80,75,34,20,4,5,0.4,0.4
2026-01-21T2100,2274A,117.3534,32.9672,蚌埠市,淮上区政府,颗粒物(PM10),54,58,57,37,43,58,,81,79,33,18,3,3,0.3,0.4
2026-01-21T2100,2275A,117.3143,32.8977,蚌埠市,高新区,细颗粒物(PM2.5),59,51,55,42,45,73,,74,74,20,22,8,8,0.3,0.2
2026-01-21T2100,3715A,117.3091,32.9314,蚌埠市,蚌埠田家炳中学,细颗粒物(PM2.5),74,58,60,54,48,63,,76,74,29,28,5,6,0.5,0.5
2026-01-21T2100,1585A,109.8761,40.6533,包头市,市环境监测站,细颗粒物(PM2.5),74,90,51,54,25,1,,36,25,77,39,28,18,2.9,1.4
2026-01-21T2100,1587A,109.9992,40.5843,包头市,包头八中,细颗粒物(PM2.5),90,99,53,67,33,5,,42,33,68,46,17,12,2.1,1.3
2026-01-21T2100,1589A,109.8641,40.6288,包头市,惠龙物流,颗粒物(PM10),57,64,52,38,30,7,,42,34,73,42,24,19,2.8,1.5
2026-01-21T2100,1590A,110.0376,40.5546,包头市,东河鸿龙湾,颗粒物(PM10),56,62,38,27,19,4,,48,40,96,50,18,13,2.0,1.1
2026-01-21T2100,3283A,109.9154,40.5684,包头市,滨河大厦,,45,44,40,31,24,19,,42,38,63,42,11,13,1.2,0.9
2026-01-21T2100,3419A,109.9449,40.6259,包头市,包头市委党校,颗粒物(PM10),68,85,54,38,27,3,,39,28,77,53,19,16,2.4,1.4
2026-01-21T2100,3683A,109.8332,40.6577,包头市,昆区政府,细颗粒物(PM2.5),89,88,51,66,30,2,,36,25,89,43,31,21,2.9,1.7
2026-01-21T2100,1931A,107.0802,34.3129,宝鸡市,竹园沟,细颗粒物(PM2.5),87,,50,64,48,17,,25,25,23,20,5,5,0.7,0.6
2026-01-21T2100,1933A,107.1429,34.3549,宝鸡市,监测站,细颗粒物(PM2.5),97,83,63,72,59,22,,23,23,33,28,4,4,0.6,0.5
2026-01-21T2100,1934A,107.1172,34.3759,宝鸡市,技工学校,细颗粒物(PM2.5),109,83,63,82,56,20,,23,22,33,24,2,3,0.6,0.5
2026-01-21T2100,1936A,107.2025,34.3518,宝鸡市,文理学院,细颗粒物(PM2.5),83,74,63,61,58,32,,32,32,29,29,3,3,0.7,0.7
2026-01-21T2100,1937A,107.2396,34.3626,宝鸡市,三迪小学,细颗粒物(PM2.5),87,73,67,64,62,36,,33,33,27,27,2,2,0.6,0.6
2026-01-21T2100,4155A,107.1721,34.3558,宝鸡市,滨河北路,细颗粒物(PM2.5),84,85,68,62,51,24,,28,27,30,26,4,4,0.7,0.6
2026-01-21T2100,4308A,107.3898,34.3601,宝鸡市,陈仓区北开路21号,细颗粒物(PM2.5),83,71,65,61,56,32,,46,45,33,26,5,5,0.9,0.9
2026-01-21T2100,1051A,115.4803,38.8568,保定市,游泳馆,细颗粒物(PM2.5),68,74,65,49,44,14,,50,40,68,48,3,3,0.7,0.7
2026-01-21T2100,1052A,115.509,38.8895,保定市,华电二区,细颗粒物(PM2.5),74,63,58,54,46,19,,52,45,50,43,4,4,0.8,0.8
2026-01-21T2100,1053A,115.4588,38.9037,保定市,接待中心,颗粒物(PM10),76,102,64,54,44,2,,45,36,62,42,2,2,0.9,0.5
2026-01-21T2100,1054A,115.4484,38.8344,保定市,地表水厂,颗粒物(PM10),77,103,82,42,41,5,,45,36,74,53,5,6,0.7,0.6
2026-01-21T2100,3581A,115.3136,38.9511,保定市,满城区生态环境分局,颗粒物(PM10),87,124,85,60,48,3,,49,34,77,54,4,6,1.0,0.9
2026-01-21T2100,3582A,115.4709,38.7628,保定市,清苑区第二中学,颗粒物(PM10),80,110,96,46,48,5,,50,41,74,49,7,5,0.7,0.6
2026-01-21T2100,3583A,115.6231,39.0223,保定市,徐水物探局,细颗粒物(PM2.5),109,124,87,82,55,4,,47,33,67,45,3,2,0.9,0.8
2026-01-21T2100,4004A,115.4199,38.8665,保定市,双鹰农机,颗粒物(PM10),73,95,80,48,41,28,,55,46,50,58,8,6,0.7,0.6
2026-01-21T2100,4034A,115.515,38.8589,保定市,植保所站,细颗粒物(PM2.5),75,68,65,55,52,6,,44,37,70,52,3,3,1.1,0.9
2026-01-21T2100,2594A,99.1589,25.1137,保山市,市环境监测站,,28,22,25,19,17,62,,86,82,10,9,4,6,0.3,0.3
2026-01-21T2100,2595A,99.1616,25.1381,保山市,市环保局,,32,24,27,22,21,74,,88,86,4,6,3,4,0.4,0.4
2026-01-21T2100,1867A,109.1435,21.4085,北海市,海滩公园,细颗粒物(PM2.5),64,59,61,46,34,24,,35,34,21,18,7,8,0.9,0.9
2026-01-21T2100,1868A,109.0983,21.466,北海市,新市环保局,细颗粒物(PM2.5),52,,49,36,35,25,,34,32,22,20,5,6,0.9,0.8
2026-01-21T2100,1869A,109.1775,21.5232,北海市,北海工业园,细颗粒物(PM2.5),68,61,60,49,39,20,,30,28,21,18,6,7,0.6,0.8
2026-01-21T2100,3400A,109.1844,21.4396,北海市,龙潭自来水厂,细颗粒物(PM2.5),73,62,60,53,38,22,,33,32,21,18,5,6,0.9,0.8
2026-01-21T2100,1001A,116.3611,39.8786,北京市,万寿西宫,,48,48,26,27,14,40,,58,50,36,29,3,2,0.5,0.5
2026-01-21T2100,1003A,116.4174,39.9289,北京市,东四,,40,40,23,23,11,37,,52,47,28,21,4,4,0.5,0.3
2026-01-21T2100,1004A,116.4073,39.8858,北京市,天坛,,42,42,28,25,14,40,,57,48,25,22,1,2,0.5,0.4
2026-01-21T2100,1005A,116.4622,39.9364,北京市,农展馆,,38,38,22,20,10,46,,61,54,23,16,3,3,0.6,0.4
2026-01-21T2100,1006A,116.3399,39.9293,北京市,官园,细颗粒物(PM2.5),57,50,26,40,16,34,,54,48,35,24,5,4,0.5,0.2
2026-01-21T2100,1007A,116.2879,39.9613,北京市,海淀万柳,,49,49,23,28,11,26,,53,46,43,29,3,2,0.5,0.4
2026-01-21T2100,1008A,116.6635,40.1349,北京市,顺义新城,,30,28,18,21,10,51,,66,63,14,9,3,3,0.3,0.2
2026-01-21T2100,1009A,116.6275,40.327,北京市,怀柔镇,,17,17,14,10,8,50,,59,57,6,15,3,3,0.4,0.4
2026-01-21T2100,1010A,116.2295,40.217,北京市,昌平镇,,26,26,17,12,7,50,,64,60,11,8,1,1,0.4,0.5
2026-01-21T2100,1011A,116.3968,39.982,北京市,奥体中心,,46,46,20,26,9,35,,62,53,45,24,4,4,0.7,0.4
2026-01-21T2100,3418A,116.8336,40.4095,北京市,密云新城,,29,29,21,16,9,40,,64,56,15,8,1,1,0.5,0.4
2026-01-21T2100,3671A,116.0879,39.9725,北京市,门头沟三家店,,35,35,22,23,11,18,,61,45,39,25,2,2,0.4,0.4
2026-01-21T2100,3672A,116.1507,39.8246,北京市,丰台云岗,颗粒物(PM10),56,62,27,37,14,21,,66,54,52,25,2,2,0.6,0.4
2026-01-21T2100,3674A,115.9578,39.7602,北京市,房山燕山,,25,25,26,16,17,43,,57,51,14,16,4,4,0.4,0.5
2026-01-21T2100,3675A,116.4669,39.7734,北京市,大兴旧宫,颗粒物(PM10),52,53,28,27,12,29,,50,43,36,26,3,2,0.5,0.5
2026-01-21T2100,3694A,115.9859,40.4562,北京市,延庆石河营,,37,37,19,19,9,14,,63,53,40,21,3,3,0.5,0.4
2026-01-21T2100,3695A,116.6151,40.3052,北京市,怀柔新城,,17,14,15,9,9,53,,58,58,4,10,4,4,0.2,0.4
2026-01-21T2100,3696A,116.2542,39.8764,北京市,丰台小屯,颗粒物(PM10),55,60,28,37,14,17,,50,39,50,32,3,3,0.7,0.5
2026-01-21T2100,3697A,116.8399,40.3843,北京市,密云镇,,48,48,19,24,10,14,,64,47,41,18,1,1,0.4,0.2
2026-01-21T2100,4057A,115.9423,40.4431,北京市,延庆百泉,,22,22,15,11,8,35,,54,50,18,8,2,2,0.4,0.4
2026-01-21T2100,4058A,116.6598,39.9164,北京市,通州新华,,,,26,25,11,23,,53,43,49,32,2,2,0.5,0.6
2026-01-21T2100,4182A,116.1942,39.9158,北京市,石景山八角,颗粒物(PM10),58,65,28,34,12,22,,56,45,43,19,3,2,0.5,0.3
2026-01-21T2100,4194A,117.078628,40.151726,北京市,平谷新城,,42,39,12,29,7,30,,63,55,19,5,1,1,0.6,0.2
2026-01-21T2100,1761A,123.8274146,41.31234549,本溪市,大峪,颗粒物(PM10),60,70,70,38,37,21,,60,48,47,38,7,8,0.8,1.3
2026-01-21T2100,1763A,123.7169,41.3094,本溪市,彩屯,颗粒物(PM10),57,63,89,32,51,34,,56,42,34,41,6,8,0.8,1.2
2026-01-21T2100,1764A,123.7672166,41.28649327,本溪市,东明,细颗粒物(PM2.5),79,,67,58,50,10,,61,48,65,41,5,6,1.2,1.2
2026-01-21T2100,1765A,123.799345,41.266614,本溪市,新立屯,,47,47,44,19,26,12,,55,37,54,36,8,10,0.7,0.9
2026-01-21T2100,1766A,123.829144,41.336777,本溪市,威宁,细颗粒物(PM2.5),95,84,72,71,42,6,,50,38,57,38,6,6,1.4,1.1
2026-01-21T2100,2587A,105.287,27.3133,毕节市,八中,,13,,6,9,8,30,,24,22,12,12,8,8,0.8,0.8
2026-01-21T2100,2588A,105.3079,27.2987,毕节市,师专,,11,9,8,3,4,33,,26,25,12,13,7,7,0.8,0.9
2026-01-21T2100,4263A,105.3688,27.3598,毕节市,工业大道,,15,11,8,10,7,44,,27,27,6,10,9,9,/,/
2026-01-21T2100,1629A,117.9961,37.3604,滨州市,第二水厂,颗粒物(PM10),59,68,57,33,33,11,,49,42,56,40,14,15,0.8,0.8
2026-01-21T2100,1630A,117.9789,37.3931,滨州市,北中新校,,,,53,36,31,4,,52,43,12,36,7,9,,0.7
2026-01-21T2100,3514A,117.9379,37.3959,滨州市,中海酒店,颗粒物(PM10),60,70,60,39,40,19,,55,46,57,41,9,14,0.9,0.8
2026-01-21T2100,3515A,117.9381509,37.35547456,滨州市,开发区一中,细颗粒物(PM2.5),64,75,62,46,34,3,,51,40,68,39,18,20,0.7,0.7
2026-01-21T2100,3516A,118.0914,37.6938,滨州市,金海六路,颗粒物(PM10),51,51,49,31,24,9,,60,46,66,42,7,4,0.7,0.6
2026-01-21T2100,4028A,117.9955,37.3752,滨州市,滨州市西街道办事处,颗粒物(PM10),63,75,54,44,36,6,,53,44,54,32,13,13,0.9,0.7
2026-01-21T2100,2311A,115.8071,33.8399,亳州市,污水处理厂,细颗粒物(PM2.5),75,65,48,55,35,57,,76,72,35,21,8,5,0.4,0.3
2026-01-21T2100,2312A,115.7789,33.8519,亳州市,三国揽胜宫,细颗粒物(PM2.5),90,77,51,67,39,57,,74,72,34,22,6,5,0.6,0.4
2026-01-21T2100,3332A,115.7631,33.803,亳州市,亳州学院,细颗粒物(PM2.5),67,68,49,48,33,42,,72,67,46,23,6,5,0.6,0.5
2026-01-21T2100,2693A,82.0482,44.8553,博尔塔拉蒙古自治州,市党校,,,94,87,57,45,17,,42,39,,29,,7,1.3,1.1
2026-01-21T2100,2694A,82.0805,44.8966,博尔塔拉蒙古自治州,市环保局,颗粒物(PM10),101,152,104,58,51,37,,42,41,45,30,12,11,1.0,1
2026-01-21T2100,1071A,116.8733,38.2922,沧州市,沧县城建局,颗粒物(PM10),79,107,64,49,34,10,,53,39,75,47,11,5,1.1,0.7
2026-01-21T2100,1072A,116.8462,38.3189,沧州市,电视转播站,细颗粒物(PM2.5),85,86,67,63,42,9,,54,41,63,51,10,5,1.0,0.8
2026-01-21T2100,1073A,116.8588,38.3161,沧州市,市环保局,颗粒物(PM10),78,105,64,54,40,2,,48,36,69,42,8,8,1.1,0.7
2026-01-21T2100,3324A,116.8011,38.294,沧州市,河北水利电力学院,颗粒物(PM10),69,88,63,45,36,11,,51,43,72,48,7,4,0.8,0.6
2026-01-21T2100,2622A,97.1813,31.1289,昌都市,昌都监测站,细颗粒物(PM2.5),58,56,47,41,20,24,,79,74,55,26,6,5,1.4,0.8
2026-01-21T2100,3719A,97.1707,31.1428,昌都市,昌都会议中心,,21,19,14,12,11,67,,77,77,2,6,1,1,0.3,0.3
2026-01-21T2100,2692A,87.2722,44.0298,昌吉回族自治州,新区政务中心,细颗粒物(PM2.5),156,153,121,119,92,39,,46,46,37,42,7,7,1.1,1.1
2026-01-21T2100,3613A,87.3069,44.0093,昌吉回族自治州,亚心广场,细颗粒物(PM2.5),178,173,122,134,94,34,,48,48,37,39,6,7,1.2,1.1
2026-01-21T2100,4164A,87.2057,43.9289,昌吉回族自治州,财政所,细颗粒物(PM2.5),183,156,104,138,77,11,,42,34,52,34,4,4,1.2,0.9
2026-01-21T2100,1120A,125.2874,43.9024,长春市,客车厂,,40,31,45,28,40,40,,54,47,31,34,11,18,0.5,0.7
2026-01-21T2100,1121A,125.2943,43.8508,长春市,邮电学院,,45,31,45,31,38,34,,49,44,37,40,12,14,0.5,0.5
2026-01-21T2100,1122A,125.3648,43.8745,长春市,劳动公园,,36,35,46,25,32,36,,57,51,39,38,7,7,0.7,0.7
2026-01-21T2100,1123A,125.3233,43.8781,长春市,园林处,,36,36,40,24,30,28,,52,46,41,29,15,11,0.8,0.7
2026-01-21T2100,1124A,125.4604,43.7904,长春市,净月潭,,43,34,48,30,33,46,,53,52,15,22,6,7,0.5,0.6
2026-01-21T2100,1126A,125.38,43.8422,长春市,经开区环卫处,,43,41,49,30,33,28,,54,49,44,40,6,7,0.6,0.7
2026-01-21T2100,1127A,125.234,43.7761,长春市,高新区管委会,,42,42,54,27,43,36,,62,52,40,37,8,8,0.6,0.7
2026-01-21T2100,1128A,125.1695,43.83,长春市,岱山公园,,48,33,49,33,42,18,,59,52,52,30,9,7,0.8,0.7
2026-01-21T2100,4281A,125.334645,43.916281,长春市,北亚泰大街1068号,,35,25,45,24,34,31,,52,47,37,36,10,18,0.4,0.6
2026-01-21T2100,1335A,113.082,28.2421,长沙市,经开区环保局,细颗粒物(PM2.5),64,62,61,46,50,42,,46,45,21,18,3,2,0.4,0.4
2026-01-21T2100,1336A,112.8873,28.2202,长沙市,高开区环保局,细颗粒物(PM2.5),57,42,52,40,44,54,,57,54,12,10,4,4,0.4,0.4
2026-01-21T2100,1337A,113.0785,28.2012,长沙市,马坡岭,,,61,61,46,49,51,,53,53,,18,4,4,,0.7
2026-01-21T2100,1338A,112.9448,28.1894,长沙市,湖南师范大学,,49,49,53,30,36,56,,63,62,15,12,4,4,0.4,0.5
2026-01-21T2100,1339A,113.0177,28.1322,长沙市,雨花区环保局,细颗粒物(PM2.5),67,56,58,48,47,47,,51,50,23,20,7,6,0.6,0.6
2026-01-21T2100,1340A,112.9795,28.2593,长沙市,伍家岭,,50,50,56,31,39,54,,60,58,16,14,4,4,0.6,0.5
2026-01-21T2100,1341A,113.002,28.1944,长沙市,火车新站,细颗粒物(PM2.5),64,53,58,46,49,55,,60,58,18,15,1,1,0.6,0.6
2026-01-21T2100,1342A,112.9846,28.1177,长沙市,天心区环保局,细颗粒物(PM2.5),59,50,53,42,42,54,,59,58,21,16,5,4,0.4,0.4
2026-01-21T2100,1343A,112.8906,28.1307,长沙市,湖南中医药大学,,50,50,51,6,35,59,,62,60,16,16,6,6,0.5,0.5
2026-01-21T2100,1727A,113.1146,36.1547,长治市,清华站,细颗粒物(PM2.5),92,,52,68,39,49,,55,54,30,30,24,21,1.1,0.9
2026-01-21T2100,1730A,113.0887,36.2126,长治市,审计局,细颗粒物(PM2.5),85,65,48,63,36,42,,54,51,35,30,18,19,1.3,1.1
2026-01-21T2100,1731A,113.0845,36.1856,长治市,长治八中,细颗粒物(PM2.5),74,91,59,54,40,42,,56,53,28,25,21,19,1.4,1.1
2026-01-21T2100,2845A,113.1561,36.1912,长治市,德盛苑,细颗粒物(PM2.5),79,66,52,58,44,54,,59,58,26,25,23,19,1.2,1.1
2026-01-21T2100,3568A,113.0603,36.0464,长治市,向阳小学,,,,77,,49,31,,55,51,52,35,15,18,1.4,1.1
2026-01-21T2100,3569A,112.8788,36.315,长治市,屯留一中,细颗粒物(PM2.5),117,88,49,88,30,37,,56,51,36,19,26,14,2.0,1.2
2026-01-21T2100,4189A,113.113092,36.199482,长治市,英华南巷50号,细颗粒物(PM2.5),79,72,56,58,37,42,,55,52,33,28,20,20,1.3,1
2026-01-21T2100,4190A,113.23666,36.33435,长治市,学府街1号,细颗粒物(PM2.5),73,57,60,53,40,53,,56,55,25,36,18,18,0.9,1.1
2026-01-21T2100,1854A,111.696,28.9725,常德市,市二中,细颗粒物(PM2.5),60,61,47,43,41,63,,70,69,12,11,5,5,0.5,0.5
2026-01-21T2100,3138A,111.7152,29.0288,常德市,武陵区永安,细颗粒物(PM2.5),72,,51,52,39,62,,69,68,12,14,5,5,0.7,0.6
2026-01-21T2100,3139A,111.6891,28.9881,常德市,鼎城区玉霞,细颗粒物(PM2.5),62,58,45,44,38,66,,74,72,11,11,7,7,0.5,0.5
2026-01-21T2100,3140A,111.6651,29.0526,常德市,武陵区长庚,细颗粒物(PM2.5),63,61,49,45,39,62,,67,66,16,11,4,4,0.4,0.5
2026-01-21T2100,1196A,119.9524,31.7586,常州市,市监测站,,50,50,49,30,35,41,,66,61,36,24,4,6,1.0,1
2026-01-21T2100,1200A,119.9351,31.703,常州市,武进监测站,,46,40,42,32,35,43,,63,59,33,23,12,12,1.0,0.9
2026-01-21T2100,3002A,119.9701,31.813,常州市,行政中心,,45,45,50,28,32,36,,62,57,41,26,5,6,0.6,0.6
2026-01-21T2100,3003A,120.0434,31.7726,常州市,经开区,,48,48,48,23,31,34,,61,55,34,20,4,5,0.5,0.6
2026-01-21T2100,3010A,119.8919,31.7892,常州市,钟楼,,44,44,46,28,33,42,,61,57,34,24,7,8,0.6,0.6
2026-01-21T2100,3429A,119.8595,31.706,常州市,武进经发区,,49,43,48,34,36,45,,70,65,38,23,5,6,0.7,0.8
2026-01-21T2100,3430A,119.5812,31.7256,常州市,金坛城区,,40,39,34,28,26,42,,70,62,30,18,8,7,0.9,0.8
2026-01-21T2100,4089A,119.9551,31.863,常州市,崇义南街5-H号,,43,43,47,23,29,34,,69,60,39,22,5,6,0.6,0.7
2026-01-21T2100,2220A,120.4318,41.588,朝阳市,西梁,,,102,72,,44,6,,64,53,66,28,19,12,1.9,1.3
2026-01-21T2100,2221A,120.452,41.565,朝阳市,河畔小区,,22,22,46,12,27,46,,64,62,19,28,7,8,0.7,0.9
2026-01-21T2100,2222A,120.4176,41.5648,朝阳市,八里堡,细颗粒物(PM2.5),55,43,55,39,35,14,,61,53,54,32,11,10,0.9,1
2026-01-21T2100,3026A,116.6179,23.6608,潮州市,市政府,,50,50,71,14,17,27,,35,34,9,10,3,3,0.4,0.5
2026-01-21T2100,4036A,116.646,23.676,潮州市,金山,,28,28,30,18,20,25,,33,32,13,15,3,3,0.5,0.5
2026-01-21T2100,2473A,113.0116,25.8228,郴州市,市职中,,38,27,22,26,22,29,,28,28,12,11,2,2,0.5,0.5
2026-01-21T2100,2475A,113.0381,25.8074,郴州市,市审计局,,40,30,25,28,22,28,,27,27,17,17,1,2,/,/
2026-01-21T2100,2476A,113.0348,25.7757,郴州市,市环保局,,36,35,27,25,21,26,,26,26,15,14,2,2,0.5,0.5
2026-01-21T2100,4252A,113.0138,25.8011,郴州市,好美居路49号,,46,46,26,32,26,38,,37,37,13,12,2,2,/,/
2026-01-21T2100,1431A,103.9727,30.7242,成都市,金泉两河,颗粒物(PM10),59,67,54,38,27,34,,49,46,34,28,1,2,0.5,0.5
2026-01-21T2100,1432A,104.1423,30.6765,成都市,十里店,颗粒物(PM10),56,61,58,39,32,38,,51,50,25,25,3,3,0.4,0.5
2026-01-21T2100,1433A,104.0594,30.5765,成都市,三瓦窑,细颗粒物(PM2.5),52,51,51,36,34,49,,48,48,23,30,3,3,0.4,0.6
2026-01-21T2100,1434A,104.1122,30.6306,成都市,沙河铺,颗粒物(PM10),59,67,51,38,34,37,,45,45,31,28,3,3,0.7,0.6
2026-01-21T2100,2880A,104.0219,30.6561,成都市,大石西路,细颗粒物(PM2.5),60,64,54,43,34,46,,46,46,13,16,4,5,0.6,0.6
2026-01-21T2100,3136A,104.2724,30.559,成都市,龙泉驿区区政府,细颗粒物(PM2.5),52,46,41,36,30,40,,51,50,15,17,6,6,0.8,0.7
2026-01-21T2100,3357A,104.0028,30.6891,成都市,金博路,,49,49,44,30,29,44,,48,48,24,22,4,4,0.5,0.4
2026-01-21T2100,3359A,104.056,30.5228,成都市,华阳,细颗粒物(PM2.5),55,48,46,39,31,39,,45,45,30,30,2,2,0.6,0.5
2026-01-21T2100,3488A,104.387954,30.746684,成都市,青石路225号,细颗粒物(PM2.5),75,66,52,55,38,36,,49,48,20,22,4,4,0.7,0.6
2026-01-21T2100,3489A,104.0788,30.4054,成都市,科学城,细颗粒物(PM2.5),60,55,53,43,41,40,,46,46,15,18,6,6,0.9,0.9
2026-01-21T2100,4011A,103.8505,30.6946,成都市,光华大道三段,,,66,59,43,34,,,60,58,38,26,2,3,,0.3
2026-01-21T2100,4144A,104.3257,30.6406,成都市,八角井街185号,细颗粒物(PM2.5),68,74,60,49,40,35,,45,45,14,18,3,3,1.0,1
2026-01-21T2100,4224A,104.2433276,30.53529463,成都市,鲸龙路1057号,颗粒物(PM10),51,51,44,35,32,33,,48,47,21,19,5,5,0.7,0.6
2026-01-21T2100,1062A,117.9531,40.908,承德市,铁路,细颗粒物(PM2.5),63,65,34,45,16,11,,65,48,52,19,12,5,1.0,0.4
2026-01-21T2100,1063A,117.9397,40.9763,承德市,中国银行,,44,44,31,17,12,25,,66,55,34,18,2,2,0.6,0.4
2026-01-21T2100,4073A,117.9462,40.95,承德市,杏林街1号,,30,28,23,21,13,39,,65,60,18,12,4,3,0.5,0.3
2026-01-21T2100,4274A,117.7994,40.9605,承德市,滨河大街98号,,35,35,25,19,12,37,,67,59,19,12,3,2,0.4,0.3
2026-01-21T2100,2314A,117.4698,30.6617,池州市,池州学院,细颗粒物(PM2.5),75,61,59,55,51,76,,79,79,21,17,6,4,0.6,0.5
2026-01-21T2100,3237A,117.4918,30.6617,池州市,展览馆,细颗粒物(PM2.5),64,61,64,46,44,77,,80,80,23,22,4,3,0.9,0.8
2026-01-21T2100,3333A,117.5626,30.695,池州市,第八中学,细颗粒物(PM2.5),70,69,66,51,48,72,,78,78,26,20,7,5,0.5,0.5
2026-01-21T2100,3334A,117.5037,30.6242,池州市,第十二中学,细颗粒物(PM2.5),70,68,61,51,46,74,,76,76,25,22,6,4,0.7,0.7
2026-01-21T2100,1744A,118.9229,42.2816,赤峰市,松山一中,,24,24,30,8,8,50,,59,56,19,23,4,4,0.6,0.7
2026-01-21T2100,1745A,118.9588,42.2733,赤峰市,哈达街,,25,25,26,9,12,48,,62,58,19,19,3,2,0.8,0.7
2026-01-21T2100,1746A,118.8792,42.2551,赤峰市,天义路,,20,,14,14,11,42,,64,57,27,18,7,6,0.6,0.6
2026-01-21T2100,3058A,119.2656,42.0356,赤峰市,银河街,,45,45,33,29,18,49,,75,66,16,9,18,13,0.8,0.7
2026-01-21T2100,3286A,118.9359,42.3146,赤峰市,桥北物流园区,,25,25,17,14,12,46,,69,62,26,19,5,5,0.5,0.5
2026-01-21T2100,2521A,107.3473,22.4137,崇左市,市环保局江州分局,,28,28,30,14,24,19,,22,20,13,14,9,6,1.0,1
2026-01-21T2100,4256A,107.375,22.3736,崇左市,石景林东路7号,,25,25,27,8,11,16,,20,20,17,16,3,6,0.8,0.8
2026-01-21T2100,3207A,118.31131,32.3033,滁州市,市政府原办公楼,,43,38,54,30,38,59,,74,72,24,19,5,5,0.5,0.5
2026-01-21T2100,3331A,118.3268,32.2633,滁州市,图书馆,,32,32,52,17,40,56,,78,73,18,13,7,10,0.4,0.6
2026-01-21T2100,4101A,118.3196,32.3335,滁州市,银山路666号,,49,38,46,34,49,61,,77,73,15,14,3,3,0.4,0.4
2026-01-21T2100,4102A,118.3426,32.2979,滁州市,黄山路555号,,43,43,60,29,47,66,,81,78,13,11,14,15,0.6,0.7
2026-01-21T2100,2606A,101.5379,25.0492,楚雄彝族自治州,市经济开发区,,26,26,21,16,14,61,,75,72,13,15,2,3,0.5,0.5
2026-01-21T2100,4153A,101.5536,25.0343,楚雄彝族自治州,团结路562号,,21,19,19,12,12,66,,74,73,7,14,6,6,0.4,0.3
2026-01-21T2100,2549A,107.5087,31.2186,达州市,市环境监测站,细颗粒物(PM2.5),62,63,46,44,28,18,,32,27,31,18,8,8,0.6,0.5
2026-01-21T2100,2550A,107.4988,31.2132,达州市,凤凰小区,细颗粒物(PM2.5),62,61,41,44,30,23,,32,30,30,20,6,6,0.6,0.5
2026-01-21T2100,2551A,107.5081,31.1987,达州市,达县机关宾馆,颗粒物(PM10),60,70,48,42,33,5,,28,20,43,30,4,5,0.9,0.8
2026-01-21T2100,2552A,107.4644,31.2124,达州市,市政中心,,,63,48,,26,,,35,32,35,22,7,8,0.5,0.5
2026-01-21T2100,2614A,100.2168,25.5818,大理白族自治州,大理市环境监测站,,30,,21,21,18,77,,78,78,7,7,6,6,0.5,0.6
2026-01-21T2100,2615A,100.1542,25.7055,大理白族自治州,大理古城,,25,23,25,15,15,79,,88,87,7,7,8,8,0.7,0.7
2026-01-21T2100,1109A,121.6119,38.974,大连市,甘井子,,30,30,26,20,14,39,,67,62,32,12,17,7,0.1,0.2
2026-01-21T2100,1110A,121.565,38.9509,大连市,周水子,,21,21,25,13,13,37,,65,58,33,14,11,10,0.3,0.3
2026-01-21T2100,1111A,121.5637,38.8849,大连市,星海三站,,20,20,24,14,14,50,,65,62,19,14,8,7,0.7,0.5
2026-01-21T2100,1112A,121.6301,38.9117,大连市,青泥洼桥,,28,28,25,14,12,54,,63,61,13,8,9,8,0.5,0.5
2026-01-21T2100,1113A,121.6248,38.8643,大连市,傅家庄,,27,27,25,14,11,43,,58,54,23,13,6,6,0.5,0.4
2026-01-21T2100,1114A,121.5117,38.8636,大连市,七贤岭,颗粒物(PM10),72,94,42,21,13,50,,62,59,14,8,7,6,0.6,0.7
2026-01-21T2100,1116A,121.7507,39.1339,大连市,金州,,26,26,31,16,20,59,,70,66,22,16,11,8,0.3,0.3
2026-01-21T2100,1117A,121.7811,39.0495,大连市,开发区,,35,,23,24,15,51,,67,63,19,10,4,4,0.7,0.5
2026-01-21T2100,1118A,121.9762,39.0631,大连市,双D港,,33,28,32,23,19,48,,71,65,18,14,7,8,0.4,0.4
2026-01-21T2100,4082A,121.2548,38.8188,大连市,旅顺,,39,38,38,27,16,46,,62,57,18,13,7,8,0.6,0.6
2026-01-21T2100,1789A,124.8085,46.0381,大庆市,大同区,细颗粒物(PM2.5),82,69,42,60,24,42,,65,55,31,17,8,7,0.9,0.7
2026-01-21T2100,1790A,125.1166,46.5255,大庆市,龙凤区,,50,50,37,22,22,24,,55,41,48,27,10,10,0.5,0.4
2026-01-21T2100,1791A,124.8894,46.4007,大庆市,红岗区,,46,43,28,32,21,38,,50,41,23,18,6,5,0.8,0.3
2026-01-21T2100,1792A,125.1391,46.578,大庆市,萨尔图区,颗粒物(PM10),55,60,33,35,18,20,,57,46,53,21,10,8,0.8,0.5
2026-01-21T2100,1793A,124.9026,46.6217,大庆市,让胡路区,,46,38,29,32,26,58,,67,59,17,14,8,8,0.7,0.7
2026-01-21T2100,3481A,125.127,46.6277,大庆市,萨区政府监测点,细颗粒物(PM2.5),64,56,30,46,18,11,,61,46,57,23,10,9,1.0,0.6
2026-01-21T2100,1723A,113.2926,40.0759,大同市,云冈宾馆,颗粒物(PM10),61,72,55,27,26,24,,39,35,45,33,16,15,1.0,1
2026-01-21T2100,1724A,113.3437,40.0921,大同市,大同大学,细颗粒物(PM2.5),77,92,53,56,28,5,,46,37,66,30,16,17,1.1,1
2026-01-21T2100,1725A,113.2637,40.129,大同市,安家小村,颗粒物(PM10),56,62,65,28,31,15,,38,32,49,35,18,18,0.8,1.6
2026-01-21T2100,3282A,113.3399,40.0586,大同市,大同市卫生学校,细颗粒物(PM2.5),80,88,54,59,26,9,,43,36,65,35,16,13,1.2,1.1
2026-01-21T2100,3565A,113.1371,40.1122,大同市,云冈站,颗粒物(PM10),81,111,62,51,29,1,,42,29,54,34,17,15,0.8,0.7
2026-01-21T2100,3566A,113.1186,40.2556,大同市,图书馆,细颗粒物(PM2.5),68,75,45,49,30,12,,46,36,38,23,10,12,0.9,0.9
2026-01-21T2100,3567A,113.5931,40.0459,大同市,区一中,细颗粒物(PM2.5),109,129,70,82,37,18,,51,40,43,25,45,26,2.0,1
2026-01-21T2100,4199A,113.2798248,40.09972476,大同市,魏都大道141号,颗粒物(PM10),96,142,73,44,33,14,,40,32,63,43,17,15,1.0,1
2026-01-21T2100,2269A,124.1068,50.4091,大兴安岭地区,科技局,,20,17,19,7,11,62,,63,63,3,2,6,4,0.2,0.2
2026-01-21T2100,3663A,124.117,50.4279,大兴安岭地区,红旗社区,,21,,5,10,6,66,,64,64,2,3,5,5,0.3,0.3
2026-01-21T2100,1600A,124.33,40.0625,丹东市,江湾东路,,29,29,28,15,12,50,,62,59,20,14,9,7,0.7,0.5
2026-01-21T2100,1601A,124.4242,40.1513,丹东市,临江后街,,27,27,26,15,13,53,,58,56,13,10,7,6,0.5,0.5
2026-01-21T2100,1602A,124.3935,40.1461,丹东市,元宝山,,25,25,25,13,11,52,,62,60,15,10,11,9,0.4,0.3
2026-01-21T2100,1603A,124.3634,40.1093,丹东市,民主桥,,35,35,27,21,13,50,,60,57,17,13,9,9,0.6,0.5
2026-01-21T2100,3541A,109.5726195,19.51688767,儋州市,第一中学子站,细颗粒物(PM2.5),74,89,45,54,25,65,,96,89,9,4,4,4,0.8,0.6
2026-01-21T2100,3542A,109.5567,19.5187,儋州市,东坡学校子站,细颗粒物(PM2.5),64,61,39,46,24,73,,104,97,7,3,3,4,0.8,0.5
2026-01-21T2100,2616A,98.5611,24.4273,德宏傣族景颇族自治州,德宏州监测站,"颗粒物(PM10),细颗粒物(PM2.5)",64,77,50,46,36,26,,78,73,43,25,7,7,0.8,0.6
2026-01-21T2100,3677A,98.5887,24.4366,德宏傣族景颇族自治州,芒市人民政府综合楼,颗粒物(PM10),52,53,45,15,27,50,,75,74,18,15,4,5,0.7,0.7
2026-01-21T2100,1901A,104.424,31.1209,德阳市,东山公园,细颗粒物(PM2.5),55,47,40,39,30,35,,52,50,7,11,1,1,0.6,0.4
2026-01-21T2100,1902A,104.3827,31.1318,德阳市,西小区,细颗粒物(PM2.5),60,58,49,43,31,38,,57,54,13,16,2,2,0.6,0.5
2026-01-21T2100,1904A,104.3553,31.1091,德阳市,耐火材料厂,细颗粒物(PM2.5),58,46,44,41,30,34,,51,48,17,22,1,1,0.5,0.6
2026-01-21T2100,4145A,104.4144,31.1495,德阳市,市林业局,细颗粒物(PM2.5),59,47,42,42,32,35,,55,52,17,18,2,2,0.6,0.4
2026-01-21T2100,1622A,116.3034,37.4675,德州市,儿童乐园,颗粒物(PM10),64,78,55,36,31,31,,54,46,43,39,13,13,1.0,0.8
2026-01-21T2100,1624A,116.2992,37.4449,德州市,监理站,颗粒物(PM10),58,66,50,36,29,31,,68,60,53,39,10,10,0.8,0.8
2026-01-21T2100,3066A,116.2722,37.438,德州市,九衢泉纯净水厂,细颗粒物(PM2.5),94,127,62,70,35,4,,58,43,77,41,19,8,1.4,0.8
2026-01-21T2100,3371A,116.3693,37.44,德州市,开发区人民医院,颗粒物(PM10),63,75,55,44,30,10,,62,50,81,50,15,15,0.8,0.6
2026-01-21T2100,3511A,116.5687,37.3331,德州市,陵城艺术中心,细颗粒物(PM2.5),119,146,67,90,37,0,,50,38,75,41,28,17,1.5,0.7
2026-01-21T2100,4292A,116.352738,37.420875,德州市,新河东路,细颗粒物(PM2.5),64,75,63,46,37,5,,57,45,84,44,12,14,1.0,1
2026-01-21T2100,2621A,99.7054,27.8319,迪庆藏族自治州,迪庆州站,,34,34,25,20,18,73,,79,78,10,7,5,4,0.8,1.1
2026-01-21T2100,3180A,99.7122,27.8129,迪庆藏族自治州,质量技术监督局,,25,24,24,17,15,78,,83,82,6,7,6,6,0.4,0.4
2026-01-21T2100,4257A,104.6092,35.5962,定西市,将台街,颗粒物(PM10),62,74,65,43,37,54,,75,73,26,25,15,14,0.6,0.6
2026-01-21T2100,4309A,104.6159,35.5701,定西市,正龙路62号,颗粒物(PM10),55,59,71,33,36,53,,74,72,12,11,9,9,0.6,0.7
2026-01-21T2100,1390A,113.7943,23.0132,东莞市,东城石井,,28,28,35,12,18,35,,42,40,19,19,6,6,0.6,0.6
2026-01-21T2100,1391A,113.7384,22.9659,东莞市,南城西平,,26,25,33,10,16,21,,39,35,51,29,6,6,0.6,0.8
2026-01-21T2100,3319A,113.7283,23.041,东莞市,万江金泰,,21,21,31,10,18,35,,46,42,18,19,5,5,0.6,0.7
2026-01-21T2100,4129A,113.8666,23.1062,东莞市,裕兴路,,19,19,30,8,16,43,,54,54,17,16,5,4,0.7,0.8
2026-01-21T2100,4130A,114.0076,22.9739,东莞市,教育路1号,,29,29,36,12,19,34,,49,46,27,23,5,4,0.6,0.7
2026-01-21T2100,4131A,113.7981,22.8124,东莞市,长怡路1号,,33,33,41,11,21,27,,41,40,31,28,7,6,0.6,0.9
2026-01-21T2100,1666A,118.6612,37.4313,东营市,市环保局,,31,31,35,12,14,39,,63,56,30,33,8,11,0.7,0.7
2026-01-21T2100,3036A,118.6903,37.4337,东营市,开发区管委会,,,30,38,14,15,,,64,62,20,29,6,10,0.5,0.4
2026-01-21T2100,3365A,118.5721,37.5654,东营市,垦利区民丰路,,19,19,36,3,16,42,,63,58,32,32,4,7,0.5,0.6
2026-01-21T2100,3498A,118.5063,37.8606,东营市,河口城区,,27,27,37,3,12,37,,62,57,32,31,2,2,0.7,0.7
2026-01-21T2100,3646A,118.4979,37.4623,东营市,胜利站,,26,26,37,12,17,40,,59,52,36,39,14,14,0.5,0.6
2026-01-21T2100,3734A,118.5753,37.4405,东营市,理想之城,,36,36,39,19,19,5,,56,41,60,32,2,7,0.6,0.5
2026-01-21T2100,1591A,110.0024,39.8127,鄂尔多斯市,综合楼,,46,46,20,14,11,29,,63,58,42,24,12,9,0.5,0.4
2026-01-21T2100,1592A,109.9485,39.8259,鄂尔多斯市,巴音孟克林场办事处,,39,39,18,19,8,39,,66,56,29,20,8,8,0.5,0.5
2026-01-21T2100,1593A,109.7734,39.5987,鄂尔多斯市,康泽苑,,41,41,20,20,18,50,,65,63,26,19,8,4,0.5,0.4
2026-01-21T2100,1594A,109.8121,39.5987,鄂尔多斯市,华泰汽车城,,48,48,25,20,12,47,,68,62,28,22,6,6,0.5,0.3
2026-01-21T2100,1595A,109.9734,39.7884,鄂尔多斯市,奥林花园,,35,34,28,12,10,1,,58,43,69,37,6,8,0.5,0.5
2026-01-21T2100,2436A,114.894,30.3989,鄂州市,市政府,细颗粒物(PM2.5),59,51,47,42,44,62,,65,65,16,14,4,4,0.7,0.5
2026-01-21T2100,2437A,114.8986,30.3714,鄂州市,赵家坝,细颗粒物(PM2.5),59,55,52,42,44,59,,65,64,12,6,9,7,1.1,0.8
2026-01-21T2100,3654A,114.8093,30.4091,鄂州市,精准医疗中心,细颗粒物(PM2.5),67,60,52,48,45,69,,73,72,10,7,7,10,0.5,1
2026-01-21T2100,2454A,109.4978,30.2979,恩施土家族苗族自治州,湖北民院,细颗粒物(PM2.5),89,66,50,66,45,48,,60,57,12,8,6,6,0.7,0.4
2026-01-21T2100,3549A,109.5061,30.3771,恩施土家族苗族自治州,龙凤新区,细颗粒物(PM2.5),75,69,50,55,43,36,,56,52,18,17,6,7,0.7,0.6
2026-01-21T2100,2499A,108.3411,21.6159,防城港市,沙万,,27,27,44,8,16,34,,30,30,15,17,6,6,0.6,0.6
2026-01-21T2100,2500A,108.3515,21.7733,防城港市,防城档案局,,25,25,41,3,9,26,,22,22,13,14,4,5,0.6,0.6
2026-01-21T2100,2501A,108.3506,21.6414,防城港市,大海花园,,26,26,34,14,24,34,,30,30,14,15,5,6,0.7,0.6
2026-01-21T2100,1371A,113.1293,23.0065,佛山市,湾梁,,,,39,,11,,,21,20,31,29,/,/,/,/
2026-01-21T2100,1372A,113.1082,23.0477,佛山市,华材职中,,46,46,45,25,24,19,,22,20,24,24,8,7,0.6,0.7
2026-01-21T2100,1373A,113.1439,23.045,佛山市,南海气象局,,18,18,30,11,17,14,,21,19,31,30,/,/,/,/
2026-01-21T2100,1374A,113.2879,22.8094,佛山市,顺德苏岗,,35,30,34,24,20,13,,27,21,35,32,/,/,0.8,0.9
2026-01-21T2100,1376A,112.8384,22.8678,佛山市,高明孔堂,,48,48,40,24,20,11,,22,19,25,21,/,/,/,/
2026-01-21T2100,1377A,112.8835,23.1584,佛山市,三水监测站,,29,29,34,17,15,20,,24,24,22,20,3,3,0.7,0.7
2026-01-21T2100,1378A,112.8668,23.185,佛山市,三水云东海,,37,37,31,16,15,19,,24,24,29,28,/,/,/,/
2026-01-21T2100,3625A,113.2568,22.7629,佛山市,容桂街道办,,48,48,44,22,25,6,,24,17,45,35,/,/,/,/
2026-01-21T2100,1282A,119.2681,26.0506,福州市,师大,,45,35,25,31,15,58,,48,48,24,22,4,3,0.6,0.6
2026-01-21T2100,1283A,119.2983,26.1028,福州市,五四北路,,43,36,25,30,15,58,,49,49,22,19,5,4,0.6,0.6
2026-01-21T2100,1284A,119.2648,26.0769,福州市,杨桥西路,,32,32,23,22,12,59,,48,48,15,14,5,4,/,/
2026-01-21T2100,3048A,119.5799,26.0937,福州市,九龙,,30,30,18,21,9,59,,65,65,18,14,4,4,0.5,0.5
2026-01-21T2100,3526A,119.5188,25.9666,福州市,吴航,,43,43,24,30,15,62,,64,64,16,13,4,4,0.5,0.5
2026-01-21T2100,4104A,119.3106,26.0648,福州市,路通桥巷6号,,50,40,23,35,19,55,,46,46,20,16,/,/,/,/
2026-01-21T2100,1755A,123.7974,41.8494,抚顺市,望花区,细颗粒物(PM2.5),100,106,105,75,69,6,,51,37,60,45,9,5,1.5,1.4
2026-01-21T2100,1756A,123.9161,41.8827,抚顺市,顺城区,细颗粒物(PM2.5),137,111,92,104,64,12,,62,44,63,47,10,9,1.5,1.4
2026-01-21T2100,1757A,124.0437,41.8615,抚顺市,东洲区,细颗粒物(PM2.5),89,102,78,66,49,34,,50,44,46,31,10,12,0.8,0.9
2026-01-21T2100,1758A,123.9246,41.8638,抚顺市,新抚区,细颗粒物(PM2.5),117,114,96,88,62,7,,52,39,69,46,7,7,1.7,1.4
2026-01-21T2100,1759A,124.0972,41.8961,抚顺市,大伙房水库,,49,42,59,34,45,46,,55,55,18,26,11,10,0.9,0.9
2026-01-21T2100,1760A,123.708,41.8386,抚顺市,沈抚新城,细颗粒物(PM2.5),150,135,81,115,73,13,,52,41,57,35,8,7,1.6,1.7
2026-01-21T2100,2377A,116.3544,27.9833,抚州市,市站,,,56,42,34,31,49,,46,46,15,12,6,6,,1.1
2026-01-21T2100,2378A,116.3562,27.9631,抚州市,血防站,细颗粒物(PM2.5),59,60,51,42,32,48,,45,45,15,13,4,4,1.1,1
2026-01-21T2100,2379A,116.3561,28.0007,抚州市,采茶剧团,细颗粒物(PM2.5),63,59,45,45,35,45,,44,44,10,8,3,3,1.1,1.1
2026-01-21T2100,2380A,116.3854,27.9648,抚州市,医学分院,颗粒物(PM10),61,72,52,41,29,47,,46,46,13,10,6,5,0.6,0.5
2026-01-21T2100,2207A,121.6095,41.9978,阜新市,工业园区,颗粒物(PM10),60,70,47,21,18,39,,65,52,24,16,18,11,0.5,0.4
2026-01-21T2100,2208A,121.6567,42.0188,阜新市,长青街,,44,44,27,28,18,53,,67,60,14,13,7,8,0.5,0.5
2026-01-21T2100,2209A,121.6672,42.07,阜新市,农业园区,,36,36,26,11,4,51,,62,57,11,8,6,7,0,0.2
2026-01-21T2100,2211A,121.6343,42.0455,阜新市,玉龙新城,颗粒物(PM10),64,77,50,24,17,32,,64,50,30,27,13,5,0.7,0.6
2026-01-21T2100,2301A,115.8276,32.8929,阜阳市,市监测站,细颗粒物(PM2.5),74,68,55,54,39,65,,78,78,40,24,5,5,0.5,0.4
2026-01-21T2100,2303A,115.8551,32.8606,阜阳市,开发区,细颗粒物(PM2.5),84,77,39,62,35,65,,79,79,39,25,6,6,0.7,0.5
2026-01-21T2100,2875A,115.783962,32.889217,阜阳市,阜阳职业技术学院,细颗粒物(PM2.5),74,63,48,54,33,82,,83,83,22,17,8,8,0.6,0.5
2026-01-21T2100,3468A,115.79,32.8614,阜阳市,市规划展馆,细颗粒物(PM2.5),77,80,50,56,34,88,,88,88,24,16,9,8,0.8,0.7
2026-01-21T2100,3469A,115.835101,32.918568,阜阳市,枣园社区,细颗粒物(PM2.5),87,88,54,64,39,60,,80,79,39,20,6,6,0.5,0.5
2026-01-21T2100,2669A,102.9097,34.9841,甘南藏族自治州,州政府,颗粒物(PM10),67,84,61,41,34,30,,77,69,47,20,14,7,1.1,0.7
2026-01-21T2100,3380A,102.8915,34.9618,甘南藏族自治州,甘肃民族师范学院,颗粒物(PM10),72,94,69,41,32,20,,74,66,46,26,10,10,0.4,0.3
2026-01-21T2100,2570A,101.96,30.048,甘孜藏族自治州,水桥子,,22,22,10,3,5,52,,57,57,14,13,6,6,0.8,0.8
2026-01-21T2100,3065A,101.9534,29.9976,甘孜藏族自治州,州环保局,,19,17,10,8,7,58,,61,61,12,12,6,6,0.6,0.5
2026-01-21T2100,2363A,114.9368,25.8663,赣州市,地委,,31,31,29,16,13,33,,38,36,16,13,7,7,0.4,0.4
2026-01-21T2100,2364A,114.946,25.8483,赣州市,气象台,,43,43,42,12,11,31,,35,33,16,15,5,5,0.4,0.4
2026-01-21T2100,2365A,114.932,25.8332,赣州市,市图书馆,,26,22,20,18,14,30,,35,32,20,19,4,4,0.6,0.6
2026-01-21T2100,2366A,114.8905,25.8472,赣州市,华坚鞋城,,28,22,24,19,16,31,,35,33,16,14,4,4,0.2,0.2
2026-01-21T2100,3109A,115.0094,25.8614,赣州市,赣县区卫计委,,,,22,27,21,32,,44,40,,8,8,7,0.6,0.6
2026-01-21T2100,2684A,106.2753,36.0057,固原市,监测站,颗粒物(PM10),58,65,66,37,39,48,,63,62,24,21,6,5,0.8,0.7
2026-01-21T2100,2685A,106.2384,36.0189,固原市,新区,颗粒物(PM10),76,102,68,50,42,37,,61,59,34,21,10,7,1.0,0.9
2026-01-21T2100,2544A,106.6307,30.4577,广安市,市委,,45,43,36,31,28,25,,29,27,18,13,8,8,0.9,0.8
2026-01-21T2100,2545A,106.6266,30.4662,广安市,友谊中学,,48,39,32,33,28,24,,33,28,19,16,6,7,1.2,1.2
2026-01-21T2100,2547A,106.6386,30.4551,广安市,广电花园,,49,40,34,34,31,24,,30,25,18,15,8,8,0.7,0.7
2026-01-21T2100,2902A,106.6347,30.4868,广安市,北辰小学,,48,37,30,33,30,28,,31,29,16,12,4,4,1.0,0.9
2026-01-21T2100,2524A,105.8211,32.4444,广元市,老城,,38,38,33,21,24,60,,50,50,18,18,3,1,0.5,0.6
2026-01-21T2100,2526A,105.8629,32.429,广元市,监测站,,50,50,36,22,23,50,,46,43,20,18,6,6,0.6,0.6
2026-01-21T2100,3617A,105.8047,32.4167,广元市,经开区,,32,31,35,22,25,54,,43,42,14,16,1,2,0.5,0.6
2026-01-21T2100,1345A,113.2346,23.1423,广州市,广雅中学,,42,42,39,22,21,11,,22,18,33,29,3,4,0.5,0.1
2026-01-21T2100,1346A,113.2611,23.105,广州市,市五中,,29,29,34,15,21,28,,34,33,29,25,8,9,/,/
2026-01-21T2100,1348A,113.3477,23.0916,广州市,广东商学院,,30,30,32,15,17,23,,32,30,13,11,7,7,0.7,0.7
2026-01-21T2100,1349A,113.4332,23.105,广州市,市八十六中,,34,34,34,22,21,19,,35,32,30,24,9,8,/,/
2026-01-21T2100,1350A,113.3506,22.9488,广州市,番禺中学,颗粒物(PM10),55,60,44,22,22,24,,33,32,26,30,4,4,0.7,0.9
2026-01-21T2100,1351A,113.2147,23.3918,广州市,花都师范,,34,34,33,18,17,24,,25,25,25,24,10,8,0.7,0.7
2026-01-21T2100,1352A,113.2599,23.1329,广州市,市监测站,,29,20,36,20,22,27,,28,25,25,29,3,3,/,/
2026-01-21T2100,1353A,113.5618,23.3119,广州市,九龙镇镇龙,,23,23,26,12,14,27,,37,35,20,19,6,5,0.5,0.6
2026-01-21T2100,1354A,113.2764,23.1544,广州市,麓湖,,33,33,37,18,21,24,,28,25,20,23,11,10,0.7,0.7
2026-01-21T2100,2846A,113.3209,23.1323,广州市,体育西,,,32,18,10,16,20,,28,26,28,24,,8,0.9,0.9
2026-01-21T2100,3298A,113.5718,23.5493,广州市,从化街口,,17,17,20,8,11,40,,38,38,14,17,8,9,0.6,0.7
2026-01-21T2100,3299A,113.3463,23.369,广州市,白云竹料,,23,23,24,12,15,32,,36,35,19,18,8,5,0.7,0.7
2026-01-21T2100,3300A,113.2981,23.2365,广州市,白云嘉禾,,29,29,32,15,17,27,,30,28,25,25,7,7,/,/
2026-01-21T2100,3301A,113.4256,23.1716,广州市,黄埔科学城,,32,32,29,18,18,23,,38,35,26,21,7,5,0.9,0.9
2026-01-21T2100,3302A,113.3942,23.0485,广州市,番禺大学城,,33,33,38,16,17,21,,37,35,28,22,8,8,0.6,0.6
2026-01-21T2100,3303A,113.4923,22.8169,广州市,南沙黄阁,,27,27,29,17,20,13,,33,26,44,36,7,6,/,/
2026-01-21T2100,3304A,113.534,22.7893,广州市,南沙街,,48,48,53,18,22,8,,30,22,47,35,10,9,0.8,0.7
2026-01-21T2100,3443A,113.2905,23.5541,广州市,花都梯面,,29,29,28,17,16,25,,26,26,14,15,10,7,/,/
2026-01-21T2100,3445A,113.786,23.7479,广州市,从化良口,,16,16,14,8,8,40,,40,40,10,12,8,8,/,/
2026-01-21T2100,3446A,113.805,23.2614,广州市,增城荔城,,13,13,18,7,12,33,,45,44,13,14,6,6,0.5,0.5
2026-01-21T2100,2506A,109.604387,23.066791,贵港市,江南子站,,34,34,40,22,19,27,,31,30,11,16,3,4,0.7,0.7
2026-01-21T2100,2508A,109.5669,23.1065,贵港市,荷城子站,,44,44,36,22,16,24,,29,28,19,16,4,4,0.9,0.8
2026-01-21T2100,3405A,109.5886,23.1172,贵港市,新世纪学校,,44,44,44,24,22,25,,29,28,15,16,/,/,0.5,0.5
2026-01-21T2100,4260A,109.5933,23.095,贵港市,中山路155-3号,,35,35,29,24,20,27,,31,30,15,16,/,/,0.8,0.6
2026-01-21T2100,1439A,106.6863,26.6035,贵阳市,马鞍山,,28,,13,19,12,39,,41,36,10,9,5,5,/,/
2026-01-21T2100,1441A,106.6241,26.6266,贵阳市,鉴湖路,,29,29,22,17,12,31,,44,33,13,11,2,3,0.6,0.5
2026-01-21T2100,1442A,106.7468,26.6344,贵阳市,燕子冲,,39,,14,27,21,42,,43,39,9,9,7,7,0.7,0.8
2026-01-21T2100,1443A,106.6556,26.4362,贵阳市,碧云窝,,29,29,27,14,12,46,,39,37,10,10,2,3,/,/
2026-01-21T2100,1445A,106.6963,26.6063,贵阳市,红边门,,25,24,18,17,14,45,,44,37,8,10,6,10,/,/
2026-01-21T2100,1446A,106.7162383,26.56964667,贵阳市,新华路,,17,17,24,9,10,46,,44,40,14,12,4,3,0.5,0.4
2026-01-21T2100,1447A,106.6742,26.542,贵阳市,太慈桥,,27,27,17,17,11,44,,43,40,15,12,4,3,/,/
2026-01-21T2100,4230A,106.688212,26.56952,贵阳市,花果园大街66号,,35,,12,24,14,37,,37,32,12,11,2,2,/,/
2026-01-21T2100,4231A,106.687268,26.516892,贵阳市,漓江路57号,,25,24,18,17,12,41,,39,37,13,11,7,6,0.5,0.4
2026-01-21T2100,1864A,110.3091,25.2705,桂林市,龙隐路小学,,39,30,15,27,20,36,,36,36,10,9,6,6,0.6,0.6
2026-01-21T2100,1865A,110.2849361,25.22909545,桂林市,八中,,29,20,16,20,16,35,,35,35,13,12,6,6,1.0,1
2026-01-21T2100,3531A,110.296,25.1254,桂林市,旅游学院,,,,7,17,14,46,,44,44,6,7,4,4,0.3,0.4
2026-01-21T2100,4222A,110.1835,25.2444,桂林市,环湖路276号,,42,,23,29,24,32,,30,30,7,7,8,8,0.5,0.5
2026-01-21T2100,4301A,110.2803,25.2773,桂林市,信义路13号,,,,15,27,14,36,,34,34,12,11,,3,,0.7
2026-01-21T2100,2674A,100.2262,34.4854,果洛藏族自治州,玛沁县大武镇,颗粒物(PM10),54,58,59,22,9,83,,90,90,2,4,12,14,0.3,0.4
2026-01-21T2100,1130A,126.5557,45.8109,哈尔滨市,松北商大,,38,38,42,21,30,43,,52,48,22,25,7,9,0.6,0.6
2026-01-21T2100,1132A,126.6162,45.719,哈尔滨市,南岗学府路,"颗粒物(PM10),细颗粒物(PM2.5)",53,55,50,37,33,37,,51,48,31,25,12,11,0.7,0.7
2026-01-21T2100,1133A,126.6894,45.7733,哈尔滨市,太平宏伟公园,,23,22,34,16,22,57,,64,63,13,13,20,16,0.6,0.6
2026-01-21T2100,1134A,126.6361,45.7672,哈尔滨市,道外承德广场,,43,43,41,24,24,43,,62,59,34,21,10,12,0.2,0.3
2026-01-21T2100,1136A,126.644,45.7261,哈尔滨市,动力和平路,,37,37,44,22,28,35,,55,50,32,27,11,17,0.7,0.6
2026-01-21T2100,1137A,126.5933,45.7479,哈尔滨市,道里建国路,,49,42,39,34,29,28,,54,50,40,23,12,12,0.4,0.4
2026-01-21T2100,1138A,126.6127,45.6119,哈尔滨市,平房东轻厂,,49,45,46,34,36,12,,51,35,59,40,12,10,1.0,1
2026-01-21T2100,1139A,126.5875,45.9827,哈尔滨市,呼兰师专,细颗粒物(PM2.5),74,54,62,54,61,30,,49,42,32,30,14,13,0.8,0.9
2026-01-21T2100,1140A,126.6299,45.6799,哈尔滨市,省农科院,细颗粒物(PM2.5),73,68,65,53,57,26,,49,38,41,42,20,20,0.8,0.9
2026-01-21T2100,4282A,126.6769,45.7379,哈尔滨市,华山路1号,,41,41,41,27,25,27,,54,49,40,26,41,20,0.4,0.6
2026-01-21T2100,4283A,126.9717,45.5356,哈尔滨市,解放大街52号,细颗粒物(PM2.5),79,68,66,58,55,34,,57,53,32,23,15,14,0.7,0.6
2026-01-21T2100,2688A,93.5124,42.8176,哈密市,地区监测站,,,101,90,42,34,,,50,48,23,17,10,3,,0.3
2026-01-21T2100,2689A,93.5014,42.8312,哈密市,哈密师范学校,颗粒物(PM10),77,103,87,33,27,31,,48,46,28,27,6,6,0.8,0.6
2026-01-21T2100,2671A,100.9016,36.9464,海北藏族自治州,海晏县西海镇,,49,49,52,17,28,92,,90,90,1,10,7,13,0.3,0.6
2026-01-21T2100,3867A,102.074,36.5056,海东市,平安区公安局北苑,,,77,62,58,39,,,71,71,19,19,28,18,0.9,0.9
2026-01-21T2100,4163A,102.0984,36.5119,海东市,滨河路,细颗粒物(PM2.5),74,86,68,54,41,66,,81,76,31,38,31,25,0.7,0.9
2026-01-21T2100,1410A,110.3189,20.0596,海口市,海南大学,颗粒物(PM10),53,55,59,30,30,94,,105,88,12,12,6,6,0.5,0.4
2026-01-21T2100,1411A,110.2827,20.0051,海口市,秀英海南医院,颗粒物(PM10),53,55,52,28,31,89,,103,84,14,13,8,8,0.5,0.5
2026-01-21T2100,1412A,110.3391,19.9979,海口市,海南师范大学,颗粒物(PM10),52,54,50,30,31,91,,102,85,14,14,6,6,0.5,0.7
2026-01-21T2100,1413A,110.3303,20.0359,海口市,龙华路环保局宿舍,颗粒物(PM10),51,51,50,31,30,91,,102,85,14,14,/,/,0.8,0.7
2026-01-21T2100,3539A,110.5111,19.9737,海口市,桂林洋子站,,50,50,58,30,32,84,,93,82,13,14,/,/,/,/
2026-01-21T2100,4134A,110.1952,20.0451,海口市,长滨二路9号,,50,50,53,34,34,90,,101,86,10,10,/,/,/,/
2026-01-21T2100,2673A,100.6158,36.2985,海南藏族自治州,共和县恰卜恰镇,,32,26,61,22,37,96,,92,92,3,19,10,12,0.4,0.9
2026-01-21T2100,2676A,97.373,37.376,海西蒙古族藏族自治州,德令哈市,细颗粒物(PM2.5),78,57,34,57,11,62,,98,94,18,6,10,11,0.5,0.6
2026-01-21T2100,1049A,114.492,36.5712,邯郸市,矿院,细颗粒物(PM2.5),88,82,70,65,63,46,,60,59,29,38,6,12,0.6,0.6
2026-01-21T2100,1050A,114.4839,36.6136,邯郸市,丛台公园,细颗粒物(PM2.5),89,69,64,66,56,60,,66,66,24,30,3,4,0.6,0.6
2026-01-21T2100,3458A,114.7893,36.5592,邯郸市,香泉濮院小区,细颗粒物(PM2.5),97,92,69,72,55,41,,66,62,31,33,10,9,0.9,0.8
2026-01-21T2100,3580A,114.1998,36.4439,邯郸市,峰峰矿区临水派出所,细颗粒物(PM2.5),79,64,53,58,36,66,,71,71,16,13,6,8,0.8,0.8
2026-01-21T2100,4068A,114.5209,36.7697,邯郸市,建安街268号,细颗粒物(PM2.5),72,70,81,52,60,54,,58,58,20,37,6,7,0.6,0.9
2026-01-21T2100,4069A,114.5488,36.6177,邯郸市,丛台东路558号,细颗粒物(PM2.5),114,86,66,86,56,10,,50,43,59,32,11,8,0.9,0.8
2026-01-21T2100,2635A,107.0155,33.0707,汉中市,市监测站,细颗粒物(PM2.5),59,,35,42,31,43,,52,51,20,17,4,5,0.6,0.5
2026-01-21T2100,2636A,107.0083,33.114,汉中市,鑫源开发区,细颗粒物(PM2.5),60,,32,43,33,41,,58,55,20,15,4,4,0.6,0.4
2026-01-21T2100,2637A,107.0072,33.0323,汉中市,南郑大河坎水厂,细颗粒物(PM2.5),82,,43,60,37,19,,46,41,37,18,6,4,0.9,0.7
2026-01-21T2100,1223A,120.2073,30.2111,杭州市,滨江,,39,39,47,26,35,52,,61,60,35,25,7,6,0.5,0.4
2026-01-21T2100,1224A,120.0625,30.2737,杭州市,西溪,,43,43,44,28,33,51,,66,63,30,18,11,8,0.5,0.5
2026-01-21T2100,1226A,120.3417,30.315,杭州市,下沙,,45,45,45,30,34,51,,65,64,30,23,9,7,0.8,0.7
2026-01-21T2100,1227A,120.1252,30.2465,杭州市,卧龙桥,,41,41,47,28,32,44,,65,61,34,17,11,9,0.5,0.4
2026-01-21T2100,1228A,120.1902,30.2691,杭州市,浙江农大,,39,38,45,27,32,55,,66,65,35,26,7,5,0.6,0.5
2026-01-21T2100,1230A,120.1195,30.3121,杭州市,和睦小学,,48,40,47,33,35,48,,66,62,31,17,6,5,0.7,0.7
2026-01-21T2100,1231A,120.3076,30.4146,杭州市,临平镇,,38,38,48,25,34,57,,69,68,18,15,8,7,0.6,0.6
2026-01-21T2100,1232A,120.2753,30.1839,杭州市,城厢镇,,42,42,46,27,36,56,,65,65,28,18,8,7,0.7,0.7
2026-01-21T2100,1233A,120.0883,30.1808,杭州市,云栖,,45,45,44,29,34,46,,66,62,26,16,4,3,0.6,0.7
2026-01-21T2100,3557A,119.9463,30.0496,杭州市,镇二中,,48,37,39,33,35,55,,64,63,28,20,5,4,0.7,0.6
2026-01-21T2100,3558A,119.7184,30.2367,杭州市,市府大楼,颗粒物(PM10),90,129,130,36,35,64,,68,68,15,13,11,9,0.9,0.8
2026-01-21T2100,3656A,120.1554,30.2863,杭州市,消防大队,,45,42,43,31,37,51,,72,60,28,20,8,6,0.3,0.5
2026-01-21T2100,1270A,117.1957,31.7845,合肥市,明珠广场,,27,27,55,14,38,66,,79,78,18,16,6,6,0.8,0.9
2026-01-21T2100,1271A,117.307,31.8765,合肥市,三里街,,32,24,51,22,35,65,,77,75,23,21,6,6,0.6,0.7
2026-01-21T2100,1272A,117.2587,31.8703,合肥市,琥珀山庄,,40,36,58,28,39,68,,82,81,21,16,8,9,0.5,0.6
2026-01-21T2100,1275A,117.2593,31.9376,合肥市,庐阳区,,29,29,56,19,35,70,,80,79,24,23,4,4,0.6,0.7
2026-01-21T2100,1276A,117.345251,31.861615,合肥市,瑶海区,,31,31,53,20,35,66,,81,79,24,20,5,5,0.3,0.5
2026-01-21T2100,1277A,117.3033,31.7967,合肥市,包河区,,32,24,56,22,42,46,,68,63,38,28,5,6,0.4,0.7
2026-01-21T2100,1278A,117.278,31.7392,合肥市,滨湖新区,,28,22,54,19,43,64,,77,76,22,20,2,3,0.5,0.7
2026-01-21T2100,1279A,117.1324,31.8395,合肥市,高新区,,,,53,,35,69,,85,83,18,23,4,4,0.5,0.6
2026-01-21T2100,3464A,117.3802,31.9148,合肥市,高教基地,,36,34,51,25,36,63,,84,80,19,17,8,9,0.5,0.6
2026-01-21T2100,4098A,117.2518,31.8404,合肥市,中国科学技术大学,,27,27,51,16,34,67,,84,82,19,15,8,9,0.3,0.5
2026-01-21T2100,3614A,79.9241,37.0878,和田地区,地区环保局,颗粒物(PM10),500,1443,1699,324,372,46,,51,51,18,17,2,4,0.3,0.3
2026-01-21T2100,3615A,79.9132,37.1137,和田地区,市环保局,颗粒物(PM10),500,1505,1829,303,347,44,,54,54,16,13,1,2,1.4,0.6
2026-01-21T2100,2517A,108.0496,24.6957,河池市,市环保站,,13,13,4,3,5,37,,39,39,9,9,2,2,0.7,0.6
2026-01-21T2100,4302A,108.0901,24.6945,河池市,上任中路54号,,18,18,11,12,5,33,,35,34,7,8,3,3,0.5,0.6
2026-01-21T2100,1697A,114.6962,23.7538,河源市,东埔,,39,27,15,27,15,30,,43,41,16,12,5,6,0.4,0.3
2026-01-21T2100,1698A,114.6895,23.7232,河源市,老城,,22,22,21,14,11,31,,45,43,14,10,6,6,0.6,0.6
2026-01-21T2100,3374A,115.5562,35.089,菏泽市,定陶老年大学,细颗粒物(PM2.5),70,75,51,51,33,56,,69,68,27,23,6,7,0.2,0.2
2026-01-21T2100,4114A,115.4239,35.2593,菏泽市,黄河路600号,,,,59,51,32,,,62,61,32,33,5,6,0.6,0.6
2026-01-21T2100,4115A,115.5025,35.2727,菏泽市,菏泽市人社局,细颗粒物(PM2.5),62,67,52,44,33,62,,59,59,25,26,9,12,0.4,0.5
2026-01-21T2100,4184A,115.479691,35.244011,菏泽市,永昌路1号,细颗粒物(PM2.5),78,68,50,57,34,57,,64,63,28,22,6,8,0.2,0.2
2026-01-21T2100,4193A,115.471542,35.280012,菏泽市,长城路999号,颗粒物(PM10),60,69,54,42,32,62,,58,58,25,29,11,11,0.5,0.5
2026-01-21T2100,2514A,111.5264,24.4178,贺州市,环保小区,,46,32,26,32,20,25,,28,25,14,13,3,4,0.5,0.5
2026-01-21T2100,2515A,111.561,24.4074,贺州市,政协大楼,,28,26,28,19,16,26,,26,26,15,13,9,9,0.6,0.5
2026-01-21T2100,3534A,111.4744,24.455,贺州市,西湾,,31,31,24,19,13,28,,27,27,16,15,7,7,0.6,0.6
2026-01-21T2100,2385A,114.17,35.9019,鹤壁市,市监测站,细颗粒物(PM2.5),89,81,86,66,59,51,,59,59,22,22,5,5,0.7,0.7
2026-01-21T2100,2386A,114.2953,35.7512,鹤壁市,市交警支队,细颗粒物(PM2.5),98,90,84,73,63,53,,56,56,29,34,13,6,0.6,0.7
2026-01-21T2100,2387A,114.2877,35.7302,鹤壁市,迎宾馆,细颗粒物(PM2.5),94,84,85,70,59,59,,64,64,29,34,8,6,0.7,0.8
2026-01-21T2100,3474A,114.2616,35.6824,鹤壁市,大新区,细颗粒物(PM2.5),82,86,82,60,63,40,,60,56,46,39,8,6,0.6,0.7
2026-01-21T2100,3596A,114.1573,35.9607,鹤壁市,南山宾馆,细颗粒物(PM2.5),84,86,79,62,55,64,,68,68,15,15,3,5,0.7,0.6
2026-01-21T2100,2244A,130.2537,47.3416,鹤岗市,哈啤分公司,,24,23,22,14,17,74,,74,74,5,6,6,6,0.3,0.3
2026-01-21T2100,2245A,130.2683,47.3087,鹤岗市,斯达机电,,28,28,27,9,10,68,,67,67,6,6,5,5,0.4,0.4
2026-01-21T2100,2246A,130.3114,47.3388,鹤岗市,东山纸板厂,,28,24,20,19,21,68,,68,67,4,8,7,7,0.4,0.6
2026-01-21T2100,2263A,127.4832,50.2524,黑河市,交通局,,,,14,,12,42,,70,55,32,10,5,5,0.3,0.2
2026-01-21T2100,2264A,127.5146,50.2339,黑河市,环保局,,22,17,12,15,14,66,,68,64,12,10,4,4,0.5,0.4
2026-01-21T2100,1074A,115.6839,37.754,衡水市,电机北厂,细颗粒物(PM2.5),72,65,51,52,37,16,,53,46,54,37,10,10,0.7,0.5
2026-01-21T2100,1075A,115.6303,37.7318,衡水市,市监测站,颗粒物(PM10),59,68,55,37,34,6,,55,45,63,44,7,8,0.8,0.6
2026-01-21T2100,3188A,115.6684,37.7216,衡水市,市城管局,"颗粒物(PM10),细颗粒物(PM2.5)",58,66,62,41,35,9,,57,48,65,44,7,8,0.6,0.5
2026-01-21T2100,3459A,115.599,37.5491,衡水市,地表水厂,细颗粒物(PM2.5),73,92,55,53,41,5,,60,44,83,47,18,10,1.1,0.7
2026-01-21T2100,2457A,112.6209,26.9268,衡阳市,衡阳化工总厂,细颗粒物(PM2.5),58,,33,41,36,49,,49,49,12,14,7,6,0.9,0.9
2026-01-21T2100,2458A,112.621,26.8957,衡阳市,珠晖区环保局,细颗粒物(PM2.5),57,,36,40,32,48,,45,45,16,18,3,3,0.8,0.9
2026-01-21T2100,2459A,112.628,26.8654,衡阳市,市委党校,细颗粒物(PM2.5),53,40,36,37,34,52,,50,50,16,15,8,9,0.8,0.8
2026-01-21T2100,2460A,112.6007,26.8977,衡阳市,市监测站,细颗粒物(PM2.5),67,58,47,48,35,46,,46,46,13,11,6,4,1.1,1.1
2026-01-21T2100,2461A,112.5658,26.9013,衡阳市,真空机电公司,细颗粒物(PM2.5),52,48,46,36,43,50,,48,45,14,15,6,6,0.8,0.8
2026-01-21T2100,3399A,112.6703,26.8817,衡阳市,师范学院,细颗粒物(PM2.5),57,47,41,40,35,57,,55,55,12,11,1,2,1.2,1.2
2026-01-21T2100,3038A,103.3757,23.3679,红河哈尼族彝族自治州,州图书馆,颗粒物(PM10),51,52,36,32,25,77,,82,81,10,7,7,6,0.5,0.5
2026-01-21T2100,4154A,103.401,23.3561,红河哈尼族彝族自治州,蒙自市朝阳路,,49,39,27,34,26,79,,82,82,6,5,6,6,0.5,0.5
2026-01-21T2100,1090A,111.6506,40.7517,呼和浩特市,呼市一监,细颗粒物(PM2.5),97,129,56,72,32,2,,44,36,64,36,15,13,1.2,0.7
2026-01-21T2100,1094A,111.7516,40.8369,呼和浩特市,如意水处理厂,,47,47,40,24,22,4,,46,35,57,42,10,11,0.8,0.8
2026-01-21T2100,1095A,111.727798,40.806187,呼和浩特市,二十九中,细颗粒物(PM2.5),67,63,47,48,26,7,,45,36,63,35,17,14,0.9,0.6
2026-01-21T2100,1097A,111.717,40.7617,呼和浩特市,化肥厂生活区,细颗粒物(PM2.5),130,146,61,99,37,5,,47,36,68,37,13,7,1.5,0.8
2026-01-21T2100,3699A,111.6519,40.8389,呼和浩特市,海东办,,,73,40,35,19,2,,40,31,56,41,12,9,,0.7
2026-01-21T2100,4275A,111.591512,40.827312,呼和浩特市,成吉思汗西街8号,颗粒物(PM10),59,68,42,28,18,7,,36,27,56,39,11,11,0.7,0.6
2026-01-21T2100,4276A,111.6597,40.8077,呼和浩特市,公园东路75号,颗粒物(PM10),67,83,43,35,22,7,,41,35,62,40,19,11,0.9,0.7
2026-01-21T2100,4277A,111.5427,40.7846,呼和浩特市,金海路35号,颗粒物(PM10),60,69,51,31,24,2,,37,26,52,41,12,13,0.8,0.8
2026-01-21T2100,3061A,119.7511,49.1576,呼伦贝尔市,国华电力东,,42,31,24,29,15,52,,60,55,18,13,8,8,0.5,0.4
2026-01-21T2100,4279A,119.7569,49.2222,呼伦贝尔市,伊敏大街东7号,,38,28,31,26,22,36,,52,46,24,13,7,8,0.2,0.6
2026-01-21T2100,1250A,120.075,30.867,湖州市,城西水厂,,37,37,46,23,51,57,,75,70,34,26,8,6,0.3,0.4
2026-01-21T2100,2873A,120.083,30.8929,湖州市,仁皇山新区,,40,40,48,28,38,60,,77,72,32,25,7,6,0.4,0.5
2026-01-21T2100,2907A,120.1846,30.8592,湖州市,吴兴区站,,40,40,46,26,35,53,,72,68,29,24,6,5,0.2,0.2
2026-01-21T2100,3562A,120.4146,30.8538,湖州市,南浔区站,,45,45,51,28,30,50,,71,66,27,18,6,7,0.8,0.8
2026-01-21T2100,1607A,120.904878,40.721091,葫芦岛市,龙港区,细颗粒物(PM2.5),108,91,64,81,41,33,,63,52,34,38,14,30,1.4,1
2026-01-21T2100,1608A,120.8382,40.7521,葫芦岛市,化工街,细颗粒物(PM2.5),79,88,67,58,41,13,,54,46,63,40,36,47,1.1,0.9
2026-01-21T2100,1609A,120.8339,40.7078,葫芦岛市,新区,细颗粒物(PM2.5),54,46,48,38,32,16,,58,50,57,45,20,25,1.0,1
2026-01-21T2100,1610A,120.8697,40.7679,葫芦岛市,东城区,细颗粒物(PM2.5),118,94,59,89,44,9,,58,46,77,41,34,32,1.9,1.1
2026-01-21T2100,2483A,109.9297,27.5383,怀化市,河西地税局,,45,43,40,31,34,61,,61,61,9,10,3,3,/,/
2026-01-21T2100,2484A,109.9783,27.5342,怀化市,市四医院,,,50,44,,29,56,,59,59,8,9,4,4,0.3,0.5
2026-01-21T2100,2485A,109.9971,27.5579,怀化市,监测楼,,48,43,38,33,29,61,,65,65,11,9,2,2,0.1,0.1
2026-01-21T2100,1210A,119.0566,33.5991,淮安市,钵池山,,48,48,43,32,32,45,,59,54,28,21,8,8,0.4,0.4
2026-01-21T2100,1211A,119.0083,33.578,淮安市,北京南路,颗粒物(PM10),54,58,50,29,32,13,,56,44,57,24,8,9,0.5,0.5
2026-01-21T2100,1212A,118.9938,33.6083,淮安市,市监测站,细颗粒物(PM2.5),52,51,42,36,32,8,,61,45,71,30,12,10,0.6,0.5
2026-01-21T2100,1213A,119.135,33.5038,淮安市,楚州区监测站,颗粒物(PM10),52,54,43,33,27,28,,61,55,43,24,9,10,0.2,0.8
2026-01-21T2100,3426A,118.8757,33.2897,淮安市,新华书店,,45,43,50,31,34,51,,61,60,23,23,10,11,0.6,0.6
2026-01-21T2100,4092A,119.119691,33.550006,淮安市,枚皋中路89号,,47,47,49,32,33,27,,66,58,44,25,8,11,0.8,0.8
2026-01-21T2100,4206A,119.028838,33.631911,淮安市,承德北路606号,颗粒物(PM10),56,61,52,30,31,41,,61,53,36,25,9,9,0.6,0.6
2026-01-21T2100,2282A,116.8005,33.9749,淮北市,监测站,,,,65,68,44,,,72,72,,30,,7,,0.7
2026-01-21T2100,2283A,116.8094,33.9008,淮北市,烈山区政府,细颗粒物(PM2.5),105,98,64,79,47,52,,70,67,47,26,7,7,0.6,0.5
2026-01-21T2100,4017A,116.7926,33.9534,淮北市,市博物馆,细颗粒物(PM2.5),109,109,71,82,50,51,,69,67,41,24,9,9,0.6,0.6
2026-01-21T2100,4100A,116.8322,33.9884,淮北市,杜集区第一实验学校,细颗粒物(PM2.5),102,105,70,76,48,63,,82,80,39,22,10,10,0.7,0.6
2026-01-21T2100,2277A,116.8304,32.7726,淮南市,潘集区政府,细颗粒物(PM2.5),52,42,72,36,60,66,,72,72,25,30,6,6,0.6,0.8
2026-01-21T2100,2279A,116.8569,32.5949,淮南市,谢家集区政府,,50,50,73,18,46,62,,73,72,20,23,8,10,0.4,0.6
2026-01-21T2100,2280A,116.8279,32.6333,淮南市,八公山区政府,,41,41,57,28,44,63,,74,73,24,25,6,5,0.6,0.6
2026-01-21T2100,2894A,117.0561,32.6536,淮南市,经济技术开发区消防队,,38,38,71,25,52,44,,66,63,35,21,6,6,0.6,0.5
2026-01-21T2100,3329A,117.011,32.5891,淮南市,山南新区,,38,38,59,12,32,60,,74,72,32,24,8,9,0.6,0.6
2026-01-21T2100,4209A,117.003137,32.644456,淮南市,国庆中路369号,颗粒物(PM10),56,62,62,32,49,32,,60,58,44,29,7,6,0.6,0.7
2026-01-21T2100,2446A,114.9021,30.474,黄冈市,职工中心,,43,41,43,30,32,66,,69,69,8,6,6,6,1.0,1
2026-01-21T2100,2929A,114.8858,30.4519,黄冈市,红卫路,细颗粒物(PM2.5),55,45,47,39,37,67,,68,68,10,8,6,6,0.4,0.4
2026-01-21T2100,3398A,114.9134,30.4446,黄冈市,市林业局,细颗粒物(PM2.5),54,43,43,38,43,70,,72,72,11,8,4,5,0.4,0.4
2026-01-21T2100,2672A,102.02,35.5101,黄南藏族自治州,同仁县隆务镇,颗粒物(PM10),64,77,58,31,34,61,,73,72,8,6,11,10,0.5,0.6
2026-01-21T2100,2295A,118.2905,29.6965,黄山市,延安路89号,,45,,30,31,31,70,,67,67,10,11,4,3,0.5,0.5
2026-01-21T2100,2297A,118.1369,30.2755,黄山市,黄山区政府5号楼,颗粒物(PM10),51,51,51,34,39,71,,72,72,14,15,2,2,0.6,0.7
2026-01-21T2100,4210A,118.335445,29.720283,黄山市,滨江东路7-2号,细颗粒物(PM2.5),52,43,44,36,40,71,,69,69,12,15,/,/,/,/
2026-01-21T2100,2423A,115.0547,30.2332,黄石市,沈家营,颗粒物(PM10),52,54,55,34,42,57,,58,58,18,15,6,6,1.2,1.3
2026-01-21T2100,2426A,114.899,30.211,黄石市,铁山,细颗粒物(PM2.5),69,,56,50,56,50,,59,58,8,10,6,6,0.5,0.6
2026-01-21T2100,2427A,115.0259,30.2108,黄石市,团城山,颗粒物(PM10),53,55,59,35,46,54,,51,45,8,12,7,7,0.5,0.8
2026-01-21T2100,3149A,115.0174,30.1591,黄石市,笔架山北路,颗粒物(PM10),65,79,71,43,47,47,,49,48,16,11,7,7,1.1,1.1
2026-01-21T2100,4185A,115.078022,30.21118,黄石市,磁湖东路29号,细颗粒物(PM2.5),63,49,53,45,52,65,,62,62,13,12,6,6,1.2,1.2
2026-01-21T2100,1392A,114.4181,23.0528,惠州市,河南岸金山湖子站,,30,30,31,12,14,35,,56,53,19,17,5,4,0.7,0.7
2026-01-21T2100,1393A,114.4055,23.0824,惠州市,下埔横江三路子站,,26,26,27,14,15,35,,58,55,17,13,8,6,0.7,0.6
2026-01-21T2100,1395A,114.4645,22.7832,惠州市,惠阳区承修路船湖子站,,30,30,38,15,20,39,,64,61,17,17,7,7,0.6,0.6
2026-01-21T2100,1396A,114.5316,22.7423,惠州市,大亚湾管委会子站,,26,26,38,11,20,45,,62,62,12,14,5,6,0.5,0.6
2026-01-21T2100,3314A,114.4334,22.8134,惠州市,惠阳秋长,,34,34,42,14,20,42,,65,64,17,17,/,/,/,/
2026-01-21T2100,3452A,114.6521,22.7755,惠州市,大亚湾霞涌,,31,31,42,12,21,48,,71,70,14,15,/,/,/,/
2026-01-21T2100,4300A,114.4089,23.1147,惠州市,文华一路1号,,26,26,26,14,16,37,,59,56,18,16,/,/,/,/
2026-01-21T2100,2240A,130.9618,45.2926,鸡西市,环保局,,35,26,25,24,17,58,,61,61,9,8,6,6,0.2,0.2
2026-01-21T2100,2243A,130.9294,45.2959,鸡西市,第一中学,,35,31,23,24,18,62,,65,64,8,7,3,3,0.4,0.4
2026-01-21T2100,3707A,131.0069,45.2988,鸡西市,欧美日汽修厂,,40,32,30,28,19,63,,66,66,8,7,7,7,0.4,0.4
2026-01-21T2100,2367A,114.9753,27.0803,吉安市,红声器材厂,颗粒物(PM10),51,52,36,33,22,30,,41,34,24,20,9,8,0.3,0.3
2026-01-21T2100,2369A,114.9903,27.1313,吉安市,市环境监测站,,48,41,33,33,25,31,,41,37,15,12,10,11,/,/
2026-01-21T2100,2370A,115.009527,27.096792,吉安市,青原区法院,,43,41,33,30,24,28,,41,32,23,16,11,10,0.7,0.7
2026-01-21T2100,1772A,126.54,43.8622,吉林市,哈达湾,,39,38,41,27,27,60,,62,61,17,17,7,16,0.8,0.8
2026-01-21T2100,1773A,126.5843,43.8358,吉林市,东局子,,40,35,41,28,29,56,,56,56,16,19,3,4,0.7,1
2026-01-21T2100,1774A,126.5051,43.8243,吉林市,电力学院,,45,43,50,31,35,55,,64,62,21,21,6,11,0.7,0.9
2026-01-21T2100,1775A,126.6133,43.8971,吉林市,江北,,46,41,45,32,28,51,,55,54,17,17,7,10,1.1,1
2026-01-21T2100,1776A,126.5549,43.8304,吉林市,江南公园,,45,37,46,31,34,61,,60,60,12,18,7,8,0.6,0.6
2026-01-21T2100,2868A,126.4737,43.953,吉林市,九站,,32,25,50,22,38,53,,56,56,21,28,5,6,0.6,0.7
2026-01-21T2100,1299A,116.9866,36.6118,济南市,科干所,,,66,42,34,19,,,57,53,35,25,16,12,0.6,0.5
2026-01-21T2100,1300A,116.9379,36.6652,济南市,农科所,颗粒物(PM10),63,76,42,37,18,9,,54,38,70,39,30,11,1.0,0.7
2026-01-21T2100,1301A,117.1265,36.6736,济南市,开发区,细颗粒物(PM2.5),53,54,40,37,23,27,,57,44,46,35,5,7,0.7,0.6
2026-01-21T2100,1303A,117.0616,36.6865,济南市,省种子仓库,颗粒物(PM10),58,66,40,34,19,13,,59,50,65,32,8,6,0.9,0.6
2026-01-21T2100,1304A,116.9495185,36.644937,济南市,机床二厂,细颗粒物(PM2.5),85,98,47,63,26,4,,58,43,78,39,79,19,1.1,0.6
2026-01-21T2100,1305A,117.0496,36.6629,济南市,市监测站,颗粒物(PM10),56,61,37,32,18,23,,58,46,50,28,7,6,0.8,0.6
2026-01-21T2100,1306A,116.7674,36.5458,济南市,长清党校,,,49,35,42,22,24,,60,54,58,38,7,9,,0.6
2026-01-21T2100,1961A,117.5323,36.6865,济南市,东山小学,颗粒物(PM10),57,63,35,37,18,9,,58,44,63,28,7,5,0.4,0.3
2026-01-21T2100,3059A,117.7181,36.205,济南市,泰兴公司,颗粒物(PM10),64,78,39,39,23,6,,69,51,75,38,9,5,0.9,0.8
2026-01-21T2100,3064A,117.6861,36.2172,济南市,莱芜战役纪念馆,,,,39,,23,,,64,63,,30,,7,,0.7
2026-01-21T2100,3494A,117.1673,36.9782,济南市,济阳区政府,颗粒物(PM10),73,95,50,46,24,18,,57,49,65,43,7,6,0.8,0.7
2026-01-21T2100,3495A,117.1168,36.6299,济南市,锦屏中学,,49,49,31,27,15,32,,60,48,36,23,6,3,0.9,0.7
2026-01-21T2100,4108A,117.7107,36.2385,济南市,山财大街5号,,46,46,23,26,14,10,,66,52,67,32,10,9,0.7,0.6
2026-01-21T2100,4109A,116.9744,36.6889,济南市,无影山路12号,细颗粒物(PM2.5),62,70,40,44,21,19,,55,45,59,35,18,10,0.9,0.7
2026-01-21T2100,1653A,116.6229,35.4288,济宁市,火炬城,细颗粒物(PM2.5),64,55,37,46,24,49,,59,54,23,20,4,4,0.4,0.3
2026-01-21T2100,3500A,116.5808,35.3703,济宁市,北湖一中,细颗粒物(PM2.5),67,51,38,48,26,44,,56,51,34,26,4,5,0.5,0.4
2026-01-21T2100,3501A,116.8251,35.5592,济宁市,服务中心,颗粒物(PM10),51,52,45,22,17,44,,55,51,25,23,5,5,0.4,0.3
2026-01-21T2100,3678A,116.5907,35.4054,济宁市,市第七中学,颗粒物(PM10),55,60,40,36,15,52,,66,59,27,20,6,6,0.7,0.4
2026-01-21T2100,4111A,116.6075,35.4566,济宁市,任和路,颗粒物(PM10),60,69,38,35,19,40,,57,53,33,25,8,8,0.7,0.6
2026-01-21T2100,4112A,116.5648,35.3921,济宁市,文体南路1号,细颗粒物(PM2.5),72,76,38,52,17,42,,62,53,33,19,6,6,0.6,0.5
2026-01-21T2100,2255A,130.2749,46.8028,佳木斯市,佳纺,,,,26,,17,,,60,,,10,,5,,0.5
2026-01-21T2100,2257A,130.3258,46.7975,佳木斯市,环保局,,50,,23,35,17,60,,59,58,12,12,8,6,0.3,0.5
2026-01-21T2100,4285A,130.363,46.806,佳木斯市,顺和街,,,,22,25,19,55,,58,57,,14,,6,0.5,0.4
2026-01-21T2100,4286A,130.3952,46.8268,佳木斯市,长安路196号,,23,23,22,13,17,66,,65,65,8,10,5,5,0.4,0.4
2026-01-21T2100,1252A,120.7439,30.778,嘉兴市,清河小学,,46,45,47,32,28,48,,64,58,22,16,5,5,1.1,1.1
2026-01-21T2100,1253A,120.7261,30.7477,嘉兴市,嘉兴学院,,46,46,49,27,30,48,,67,61,20,15,4,5,1.1,1
2026-01-21T2100,2872A,120.7845,30.7524,嘉兴市,南湖区残联,,46,46,40,31,33,44,,66,58,30,19,4,4,0.8,0.9
2026-01-21T2100,3407A,120.6915,30.7741,嘉兴市,秀洲住建,,49,49,47,31,33,43,,66,59,28,20,6,6,0.8,0.6
2026-01-21T2100,1945A,98.291,39.7705,嘉峪关市,气象局,颗粒物(PM10),57,63,66,22,24,71,,82,82,17,17,12,19,0.5,0.6
2026-01-21T2100,2884A,98.2672,39.7978,嘉峪关市,酒钢宾馆,颗粒物(PM10),56,61,88,22,34,74,,82,82,14,23,14,37,1.0,1.3
2026-01-21T2100,3248A,98.2644,39.7723,嘉峪关市,雄关区,颗粒物(PM10),53,55,60,19,27,71,,83,83,22,23,10,22,0.6,0.7
2026-01-21T2100,1383A,113.1063,22.6058,江门市,北街,,34,34,45,21,23,2,,18,12,52,41,/,/,/,/
2026-01-21T2100,1384A,113.073,22.5835,江门市,西区,颗粒物(PM10),51,51,55,16,12,2,,19,13,47,39,/,/,/,/
2026-01-21T2100,1385A,113.0218,22.531,江门市,圭峰西,,33,33,43,18,24,5,,21,17,32,29,/,/,/,/
2026-01-21T2100,1386A,113.0826,22.5947,江门市,东湖,,43,43,47,24,26,2,,19,13,35,26,8,8,0.6,0.7
2026-01-21T2100,3311A,113.1077,22.5647,江门市,江海富民,颗粒物(PM10),56,61,58,18,22,2,,19,13,50,38,/,/,0.8,0.8
2026-01-21T2100,3449A,113.0496,22.4669,江门市,新会银湖,,,,44,,26,,,17,14,,35,,9,,0.6
2026-01-21T2100,3335A,113.3137,35.2643,焦作市,马村街道办,细颗粒物(PM2.5),175,150,106,132,91,52,,84,82,34,22,7,7,1.3,0.9
2026-01-21T2100,3336A,113.2464,35.2374,焦作市,焦作技师学院,细颗粒物(PM2.5),170,147,104,129,88,56,,78,78,33,22,11,11,1.5,1.2
2026-01-21T2100,3477A,113.1656,35.2536,焦作市,中站许衡医院,细颗粒物(PM2.5),135,115,104,103,81,42,,73,70,53,28,4,5,1.1,0.9
2026-01-21T2100,3981A,113.2456,35.18,焦作市,原李万街道办,细颗粒物(PM2.5),178,140,105,134,92,53,,76,74,41,32,8,6,1.2,0.9
2026-01-21T2100,4264A,113.234,35.219,焦作市,新安路1731号,细颗粒物(PM2.5),179,143,117,135,98,65,,79,79,31,24,8,7,1.1,0.9
2026-01-21T2100,4295A,113.2722,35.2121,焦作市,人民路3066号,细颗粒物(PM2.5),160,139,112,122,88,,,73,73,38,32,6,5,1.1,1.3
2026-01-21T2100,1708A,116.3701,23.5345,揭阳市,新兴,,,38,38,18,22,29,,34,33,,24,8,9,0.6,0.6
2026-01-21T2100,1709A,116.3261,23.5442,揭阳市,西马,,35,35,42,19,23,32,,36,35,15,16,4,5,0.6,0.6
2026-01-21T2100,1710A,116.361,23.5627,揭阳市,东兴,,37,37,43,19,24,24,,34,32,22,18,10,9,/,/
2026-01-21T2100,1711A,116.4151,23.5295,揭阳市,渔湖,,28,28,41,19,22,21,,33,30,25,21,6,8,/,/
2026-01-21T2100,3320A,116.4028,23.5699,揭阳市,曲溪,,37,37,39,24,24,21,,35,32,20,15,1,3,0.6,0.6
2026-01-21T2100,1944A,102.1691,38.5166,金昌市,天庆家园,细颗粒物(PM2.5),127,110,118,96,73,43,,78,69,27,22,10,39,0.8,1
2026-01-21T2100,4022A,102.1648,38.5369,金昌市,金川区人防中心,细颗粒物(PM2.5),98,128,110,73,66,46,,72,64,23,20,9,37,0.8,0.9
2026-01-21T2100,4239A,102.193042,38.531887,金昌市,长春路96号,细颗粒物(PM2.5),118,146,90,89,49,43,,62,60,32,20,45,61,0.8,0.9
2026-01-21T2100,1262A,119.6478,29.0773,金华市,十五中,,43,38,35,30,28,59,,65,61,31,25,3,3,0.3,0.3
2026-01-21T2100,1263A,119.6859,29.1032,金华市,监测站,,43,42,38,30,28,51,,53,49,27,26,3,2,0.3,0.3
2026-01-21T2100,3659A,119.656,29.1132,金华市,气象局,,41,41,36,26,23,49,,54,49,26,21,3,3,0.7,0.6
2026-01-21T2100,1767A,121.1114,41.0879,锦州市,南山,细颗粒物(PM2.5),57,61,44,40,35,13,,68,57,62,23,19,16,0.8,0.8
2026-01-21T2100,1768A,121.060361,40.842794,锦州市,开发区,颗粒物(PM10),62,73,61,25,40,6,,60,46,66,42,16,44,0.5,0.9
2026-01-21T2100,1769A,121.1836,41.1118,锦州市,百股街道,细颗粒物(PM2.5),77,65,40,56,27,18,,65,49,47,23,12,11,1.3,0.9
2026-01-21T2100,1770A,121.1176,41.1224,锦州市,天安街道,细颗粒物(PM2.5),95,77,37,71,24,12,,73,60,63,18,19,9,2.0,0.7
2026-01-21T2100,1771A,121.1303,41.1385,锦州市,北湖公园,,46,35,31,32,17,40,,68,62,29,10,15,10,0.8,0.6
2026-01-21T2100,2160A,112.8496,35.5051,晋城市,自来水公司,细颗粒物(PM2.5),144,133,110,110,88,,,55,55,25,26,5,8,0.8,1.4
2026-01-21T2100,2162A,112.8509,35.4886,晋城市,市环保局,细颗粒物(PM2.5),144,134,105,110,85,72,,66,66,25,23,4,6,1.0,1.1
2026-01-21T2100,3620A,112.8258,35.4804,晋城市,泽州一中,细颗粒物(PM2.5),138,127,106,105,88,68,,63,63,27,23,4,5,0.9,1.1
2026-01-21T2100,4078A,112.8246,35.5152,晋城市,前书院路,细颗粒物(PM2.5),130,145,119,99,72,50,,54,54,32,28,5,6,0.9,1.2
2026-01-21T2100,4079A,112.8864,35.4773,晋城市,祥云街666号,细颗粒物(PM2.5),160,153,113,122,94,68,,62,62,29,28,3,4,0.8,0.9
2026-01-21T2100,2174A,112.6992,37.6984,晋中市,榆次区政府,颗粒物(PM10),75,100,70,43,27,5,,35,26,75,46,18,16,0.7,0.7
2026-01-21T2100,2865A,112.7195,37.683,晋中市,榆次三中,颗粒物(PM10),76,102,63,35,19,14,,37,30,62,39,21,16,0.9,0.6
2026-01-21T2100,4080A,112.7375,37.7215,晋中市,广安街188号,颗粒物(PM10),82,114,68,46,28,3,,38,28,67,45,19,17,1.0,0.7
2026-01-21T2100,4200A,112.7478,37.6954,晋中市,迎宾街26号,颗粒物(PM10),78,105,64,39,25,9,,40,32,61,37,22,17,1.0,0.8
2026-01-21T2100,2439A,112.2012,31.048,荆门市,竹园小学,细颗粒物(PM2.5),75,66,70,55,54,64,,73,71,32,23,1,2,0.1,0
2026-01-21T2100,2440A,112.1968,30.9892,荆门市,掇刀,,,,73,,53,60,,70,68,23,16,19,4,0.2,0.5
2026-01-21T2100,3012A,112.1849,31.0361,荆门市,西山林语,颗粒物(PM10),74,97,70,51,51,60,,68,64,26,18,5,7,0.8,0.7
2026-01-21T2100,3547A,112.1631,31.0134,荆门市,龙泉中学南校,细颗粒物(PM2.5),82,89,70,60,57,73,,74,74,14,9,6,4,1.0,1
2026-01-21T2100,4124A,112.2213,31.0654,荆门市,新台西路6号,细颗粒物(PM2.5),92,84,80,68,70,57,,63,61,26,18,10,9,0.7,0.6
2026-01-21T2100,1844A,112.2493,30.3198,荆州市,市图书馆,细颗粒物(PM2.5),59,45,48,42,47,72,,66,66,17,16,8,7,0.8,0.8
2026-01-21T2100,1845A,112.2009,30.3543,荆州市,市委党校,细颗粒物(PM2.5),69,59,57,50,49,66,,61,61,22,16,4,4,0.7,0.8
2026-01-21T2100,3194A,112.2749,30.3124,荆州市,管委会,细颗粒物(PM2.5),55,51,45,39,46,70,,66,66,19,16,7,6,0.7,0.7
2026-01-21T2100,4268A,112.1722,30.3366,荆州市,学苑路85号,细颗粒物(PM2.5),67,61,48,48,47,76,,68,68,10,12,12,11,0.7,0.7
2026-01-21T2100,2343A,117.2114,29.2931,景德镇市,老干部活动中心,,39,34,26,27,27,47,,41,41,8,8,4,4,0.7,0.7
2026-01-21T2100,2344A,117.1893,29.2789,景德镇市,兽医站,,46,46,33,24,17,56,,49,49,9,9,3,3,0.4,0.5
2026-01-21T2100,2346A,117.246,29.2958,景德镇市,陶研所,,42,,22,29,28,52,,44,44,7,7,3,3,0.6,0.5
2026-01-21T2100,4289A,117.154766,29.256967,景德镇市,青少年活动中心,,40,36,26,28,21,57,,50,50,10,10,3,2,/,/
2026-01-21T2100,1803A,115.9873,29.6816,九江市,十里,细颗粒物(PM2.5),55,56,39,39,35,80,,78,78,18,16,6,4,0.6,0.5
2026-01-21T2100,1804A,115.9583,29.7047,九江市,茅山头,,,,38,,33,80,,77,77,7,7,5,7,,0.6
2026-01-21T2100,1805A,115.9877,29.7295,九江市,西园,细颗粒物(PM2.5),53,37,25,37,27,84,,82,82,17,16,4,3,0.4,0.5
2026-01-21T2100,1808A,115.9112,29.6038,九江市,综合工业园,细颗粒物(PM2.5),72,,42,52,42,78,,76,76,17,15,2,2,0.8,0.7
2026-01-21T2100,3190A,116.0254,29.6995,九江市,外国语学校,颗粒物(PM10),59,67,42,34,34,71,,66,66,13,11,8,7,0.7,0.7
2026-01-21T2100,4253A,116.010205,29.659402,九江市,莲花大道8号,颗粒物(PM10),57,64,51,37,36,68,,63,63,5,4,4,3,0.6,0.6
2026-01-21T2100,4240A,98.495752,39.733935,酒泉市,玉门东路5号,颗粒物(PM10),67,83,72,30,25,58,,68,68,13,13,10,14,0.4,0.6
2026-01-21T2100,4241A,98.5099,39.7506,酒泉市,北大街108号,颗粒物(PM10),59,68,62,19,22,62,,68,68,25,20,11,14,0.5,0.6
2026-01-21T2100,2698A,76.0071,39.466,喀什地区,巡警大队,颗粒物(PM10),500,880,975,202,189,47,,54,40,17,16,3,3,0.6,0.7
2026-01-21T2100,2699A,75.9756,39.4693,喀什地区,吾办,颗粒物(PM10),500,744,863,209,203,50,,55,50,16,15,7,5,0.5,0.7
2026-01-21T2100,4027A,75.9485,39.4688,喀什地区,老干局,颗粒物(PM10),500,832,914,159,153,53,,53,53,11,14,2,2,0.4,0.7
2026-01-21T2100,1824A,114.3389,34.778,开封市,肿瘤医院,细颗粒物(PM2.5),102,94,77,76,61,89,,91,91,26,31,12,11,0.7,0.7
2026-01-21T2100,1826A,114.2884,34.7966,开封市,世纪星幼儿园,细颗粒物(PM2.5),112,,67,84,66,90,,89,89,26,31,7,7,0.6,0.7
2026-01-21T2100,3147A,114.3434,34.8101,开封市,龙亭公园,细颗粒物(PM2.5),103,85,69,77,63,90,,89,89,28,33,9,8,0.6,0.7
2026-01-21T2100,3210A,114.3645,34.7955,开封市,汴京公园,细颗粒物(PM2.5),113,,73,85,64,81,,82,82,32,30,5,5,0.8,0.8
2026-01-21T2100,3473A,114.2485,34.8306,开封市,技师学院,细颗粒物(PM2.5),87,84,70,64,55,98,,93,93,23,31,7,7,0.4,0.8
2026-01-21T2100,3592A,114.4518,34.7503,开封市,祥符区生态环境局,细颗粒物(PM2.5),117,100,90,88,63,50,,88,82,61,40,5,6,0.6,0.5
2026-01-21T2100,1951A,84.886,45.6029,克拉玛依市,长征新村,细颗粒物(PM2.5),57,60,53,40,40,51,,58,58,23,23,9,8,0.4,0.6
2026-01-21T2100,1952A,84.8894,45.5827,克拉玛依市,南林小区,,,54,51,35,32,,,62,62,,10,,4,,0.8
2026-01-21T2100,1954A,84.896,44.3328,克拉玛依市,独山子区,细颗粒物(PM2.5),84,88,73,62,48,40,,84,79,65,38,5,5,0.7,0.6
2026-01-21T2100,1955A,85.6888,46.0909,克拉玛依市,乌尔禾区商贸楼,,39,39,41,16,26,46,,50,50,26,33,6,6,0.7,0.8
2026-01-21T2100,3612A,85.1045,45.6895,克拉玛依市,白碱滩区新站,颗粒物(PM10),58,66,53,31,32,43,,55,55,31,31,9,10,0.4,0.3
2026-01-21T2100,2697A,76.1457,39.7143,克孜勒苏柯尔克孜自治州,市人民政府,颗粒物(PM10),500,798,783,162,137,56,,59,59,11,8,3,3,0.5,0.4
2026-01-21T2100,3665A,76.1654,39.7157,克孜勒苏柯尔克孜自治州,克州文化中心,颗粒物(PM10),500,870,768,168,134,54,,58,57,11,6,3,2,0.6,0.5
2026-01-21T2100,1450A,102.8203,24.889,昆明市,呈贡新区,,29,29,31,15,17,64,,79,75,15,13,1,3,0.3,0.3
2026-01-21T2100,1452A,102.7253,25.0904,昆明市,龙泉镇,,29,29,35,14,17,70,,83,81,13,27,2,3,0.2,0.5
2026-01-21T2100,1453A,102.7267,25.0378,昆明市,东风东路,,25,25,29,15,20,75,,83,82,12,18,4,6,0.3,0.4
2026-01-21T2100,1454A,102.6744,25.0671,昆明市,金鼎山,,33,30,31,23,18,66,,83,80,15,14,3,4,0.3,0.5
2026-01-21T2100,1455A,102.6643,25.0401,昆明市,碧鸡广场,,33,30,33,23,18,64,,84,80,19,23,3,4,0.4,0.4
2026-01-21T2100,3179A,102.7491,25.012,昆明市,官渡区博物馆,,24,22,27,16,17,74,,87,84,13,18,4,4,0.3,0.5
2026-01-21T2100,3375A,102.8016,24.8336,昆明市,青年创业园,,26,26,22,15,13,71,,88,85,8,9,4,4,0.5,0.6
2026-01-21T2100,3550A,102.8,24.9787,昆明市,昆明学院,,25,25,25,13,15,75,,87,85,9,10,3,3,0.3,0.4
2026-01-21T2100,3551A,102.5969,24.6738,昆明市,晋宁区生态环境分局,,28,28,27,17,15,68,,57,57,7,9,4,3,0.5,0.6
2026-01-21T2100,3552A,102.6673,24.9861,昆明市,云天化总部,,25,22,26,10,15,80,,86,85,8,19,5,6,0.3,0.4
2026-01-21T2100,1456A,91.132,29.6515,拉萨市,八廓街,,31,31,32,20,21,65,,88,88,30,23,9,8,0.7,0.7
2026-01-21T2100,1457A,91.1221,29.6748,拉萨市,市环保局,细颗粒物(PM2.5),74,,39,54,19,38,,78,76,52,31,11,9,1.3,1.2
2026-01-21T2100,1458A,91.0874,29.6476,拉萨市,区监测站,,21,8,16,7,11,66,,81,81,26,23,5,5,0.6,0.9
2026-01-21T2100,1459A,91.1774,29.6541,拉萨市,西藏大学,,23,19,18,16,11,69,,88,87,31,23,6,6,0.8,0.7
2026-01-21T2100,1460A,90.9798,29.6586,拉萨市,区辐射站,,,15,30,6,17,22,,76,72,,30,,5,1.4,0.7
2026-01-21T2100,1461A,91.0831,29.6292,拉萨市,拉萨火车站,,28,8,16,6,8,87,,86,86,6,17,4,4,0.2,0.3
2026-01-21T2100,2520A,109.2203,23.7252,来宾市,来宾技工学校,细颗粒物(PM2.5),52,42,21,36,9,27,,30,29,13,9,8,6,0.7,0.9
2026-01-21T2100,3535A,109.1781,23.7293,来宾市,兴宾区政府,,28,28,18,18,12,32,,34,34,13,13,4,4,0.7,0.7
2026-01-21T2100,4002A,109.2312,23.7428,来宾市,中南小学,,29,25,20,20,12,27,,29,29,11,11,6,4,0.8,0.8
2026-01-21T2100,1479A,103.8309,36.0467,兰州市,铁路设计院,,,,,,,,,,,,,,,,
2026-01-21T2100,3241A,103.7439,36.0841,兰州市,百合公园,颗粒物(PM10),58,66,72,36,40,59,,67,67,20,31,7,13,0.3,1
2026-01-21T2100,3242A,103.9613,35.9985,兰州市,和平,细颗粒物(PM2.5),78,99,77,57,48,56,,81,79,26,32,19,11,0.9,1
2026-01-21T2100,4236A,103.629272,36.093822,兰州市,庄浪东路808号,颗粒物(PM10),72,94,85,43,45,42,,67,67,42,38,13,19,0.6,0.8
2026-01-21T2100,4237A,103.7251,36.104344,兰州市,安宁西路88号,颗粒物(PM10),68,85,82,43,39,67,,76,76,26,33,11,15,0.5,0.7
2026-01-21T2100,4238A,103.846982,36.067567,兰州市,北滨河东路1号,"颗粒物(PM10),细颗粒物(PM2.5)",65,79,74,47,43,69,,78,78,25,33,9,15,0.6,1
2026-01-21T2100,1067A,116.6712,39.5109,廊坊市,药材公司,细颗粒物(PM2.5),65,65,29,47,18,6,,60,46,65,30,2,2,0.8,0.5
2026-01-21T2100,1068A,116.7215,39.5592,廊坊市,开发区,,49,45,25,34,15,15,,62,47,51,31,2,2,0.6,0.4
2026-01-21T2100,1070A,116.7246,39.5273,廊坊市,北华航天学院,颗粒物(PM10),52,53,29,33,13,18,,60,49,50,28,2,2,0.6,0.4
2026-01-21T2100,2919A,116.7022,39.5454,廊坊市,河北工业大学,颗粒物(PM10),51,51,27,35,13,26,,62,51,40,24,1,3,0.6,0.4
2026-01-21T2100,2536A,103.7629,29.5844,乐山市,牛耳桥,细颗粒物(PM2.5),65,63,53,47,38,33,,44,43,22,19,4,4,0.6,0.6
2026-01-21T2100,2537A,103.7501,29.6002,乐山市,市第三水厂,细颗粒物(PM2.5),64,57,52,46,39,35,,46,46,26,22,6,6,0.7,0.7
2026-01-21T2100,2538A,103.7571,29.5664,乐山市,市监测站,细颗粒物(PM2.5),57,56,50,40,36,37,,45,45,18,16,7,7,0.6,0.5
2026-01-21T2100,3361A,103.7313,29.563,乐山市,理工大学,细颗粒物(PM2.5),62,57,52,44,38,40,,48,48,14,16,5,6,0.4,0.4
2026-01-21T2100,2599A,100.2497,26.8802,丽江市,丽江古城,,39,39,23,12,11,59,,81,77,23,12,10,10,0.5,0.4
2026-01-21T2100,2600A,100.2203,26.8906,丽江市,市中心,,26,12,17,3,7,81,,81,81,12,11,6,6,0.3,0.3
2026-01-21T2100,1267A,119.9141,28.4513,丽水市,监测站大楼,,39,32,22,27,20,50,,55,55,23,20,4,4,0.5,0.5
2026-01-21T2100,1268A,119.93,28.4589,丽水市,莲都小学,,45,44,34,31,27,48,,56,54,22,18,/,/,/,/
2026-01-21T2100,1269A,119.8794,28.4232,丽水市,余庄前,,45,43,35,31,28,47,,54,53,21,19,4,4,0.3,0.4
2026-01-21T2100,1173A,119.1759,34.5885,连云港市,市环境监测站,颗粒物(PM10),53,56,36,31,21,16,,59,50,55,21,18,13,0.7,0.7
2026-01-21T2100,3000A,119.3577,34.6971,连云港市,德源药业,颗粒物(PM10),56,61,54,27,16,7,,60,45,56,20,8,8,0.5,0.9
2026-01-21T2100,3007A,119.178,34.8442,连云港市,新城一中,,49,44,41,34,24,20,,60,51,66,34,20,16,0.8,0.8
2026-01-21T2100,3008A,119.3607,34.7519,连云港市,胡沟管理处,,27,27,21,14,11,62,,65,65,20,18,11,9,0.8,0.7
2026-01-21T2100,3009A,119.1478,34.5913,连云港市,矿山设计院,颗粒物(PM10),54,58,32,24,15,8,,58,47,55,20,16,12,0.8,0.8
2026-01-21T2100,3434A,119.2414,34.6539,连云港市,工贸学校,,46,46,33,25,18,43,,60,57,19,20,15,14,0.7,0.6
2026-01-21T2100,3664A,119.4171,34.734,连云港市,连云街道,,42,42,40,19,17,35,,53,47,37,31,10,7,1.0,0.8
2026-01-21T2100,2573A,102.2629,27.8981,凉山彝族自治州,西昌市政府,,,58,96,40,60,,,91,91,18,21,8,9,0.5,0.8
2026-01-21T2100,2574A,102.2686,27.885,凉山彝族自治州,凉山州政府,颗粒物(PM10),56,62,78,39,62,54,,82,80,32,31,7,8,0.6,0.8
2026-01-21T2100,4229A,102.2342,27.8859,凉山彝族自治州,凯乐南路30号,细颗粒物(PM2.5),63,70,92,45,68,67,,93,93,22,31,9,8,0.7,0.8
2026-01-21T2100,2212A,123.1978,41.2036,辽阳市,宏伟区,,42,42,50,25,36,33,,66,56,24,19,6,12,0.5,0.7
2026-01-21T2100,2213A,123.1684,41.2497,辽阳市,新华园,细颗粒物(PM2.5),74,71,50,54,33,18,,62,44,50,32,43,19,0.9,0.6
2026-01-21T2100,2214A,123.2355,41.2663,辽阳市,滨河路,颗粒物(PM10),53,56,47,25,29,27,,59,44,34,29,7,8,0.5,0.6
2026-01-21T2100,4083A,123.153,41.2874,辽阳市,铁西路150号,,50,50,59,29,40,19,,66,52,45,35,29,13,0.9,1.2
2026-01-21T2100,2227A,125.1359,42.8845,辽源市,环保局,,47,47,63,23,44,50,,61,56,25,34,6,4,0.7,1.1
2026-01-21T2100,4085A,125.0998,42.9134,辽源市,安宁大街333号,,48,42,61,33,47,30,,61,56,36,27,4,5,0.7,1
2026-01-21T2100,1625A,115.9789,36.4372,聊城市,区政府,细颗粒物(PM2.5),94,113,59,70,33,13,,56,44,72,39,22,15,1.1,0.8
2026-01-21T2100,3200A,115.9772,36.4986,聊城市,监控中心,颗粒物(PM10),69,88,63,48,40,23,,64,53,64,45,12,8,0.8,0.9
2026-01-21T2100,3513A,116.0443,36.436,聊城市,九州社区,颗粒物(PM10),67,83,63,47,38,52,,71,68,25,25,9,10,0.8,0.6
2026-01-21T2100,4018A,116.0564,36.4609,聊城市,星美广场,细颗粒物(PM2.5),69,83,64,50,34,46,,60,57,25,28,13,9,0.8,0.6
2026-01-21T2100,4113A,116.0091,36.4495,聊城市,利民路,细颗粒物(PM2.5),78,81,49,57,29,32,,55,50,44,32,16,13,1.0,0.7
2026-01-21T2100,2632A,94.3683,29.6373,林芝市,林芝监测站,,27,,13,11,9,86,,86,86,2,3,3,3,0.5,0.4
2026-01-21T2100,2633A,94.3616,29.6634,林芝市,林芝人民医院,,26,18,17,12,9,83,,83,83,3,6,2,2,0.3,0.3
2026-01-21T2100,2603A,100.0779,23.8981,临沧市,市环保局,细颗粒物(PM2.5),120,,38,91,39,52,,82,80,19,14,8,6,0.8,0.6
2026-01-21T2100,2604A,100.0894,23.882,临沧市,市气象局,颗粒物(PM10),52,54,37,29,21,39,,82,78,28,12,3,4,0.7,0.5
2026-01-21T2100,1733A,111.5552,36.0791,临汾市,临钢医院,细颗粒物(PM2.5),55,54,53,39,30,35,,57,50,39,27,11,8,2.1,1.3
2026-01-21T2100,1734A,111.4984,36.0734,临汾市,技工学校,细颗粒物(PM2.5),69,62,48,50,33,19,,55,48,46,28,10,9,1.7,0.8
2026-01-21T2100,1736A,111.5017,36.0857,临汾市,市委,颗粒物(PM10),61,71,53,31,23,26,,57,51,48,28,13,11,1.7,1.1
2026-01-21T2100,3018A,111.5048,36.1015,临汾市,唐尧大酒店,颗粒物(PM10),66,82,61,33,25,31,,58,54,43,28,11,7,1.5,1
2026-01-21T2100,4244A,111.4879,36.053,临汾市,启星学校,颗粒物(PM10),62,74,47,41,30,6,,58,48,76,39,11,10,1.8,1
2026-01-21T2100,4271A,103.2464,35.6123,临夏回族自治州,滨河东路1号,细颗粒物(PM2.5),142,123,143,108,80,1,,69,61,71,30,9,8,1.8,1.3
2026-01-21T2100,4310A,103.207136,35.599807,临夏回族自治州,新华街21号,颗粒物(PM10),79,107,129,57,77,63,,65,65,26,27,14,9,0.8,1.3
2026-01-21T2100,1618A,118.3429,35.0532,临沂市,沂河小区,颗粒物(PM10),59,68,46,39,27,38,,54,49,39,27,24,14,0.9,0.7
2026-01-21T2100,1619A,118.2962,35.0568,临沂市,鲁南制药厂,细颗粒物(PM2.5),60,68,48,43,30,29,,54,46,50,33,26,16,1.0,0.8
2026-01-21T2100,1620A,118.2793,34.9976,临沂市,新光毛纺厂,细颗粒物(PM2.5),55,58,46,39,31,42,,57,54,38,35,20,14,1.0,0.8
2026-01-21T2100,1621A,118.3955,35.0889,临沂市,河东保险公司,细颗粒物(PM2.5),54,53,38,38,23,46,,61,56,37,30,18,13,0.9,0.8
2026-01-21T2100,3370A,118.3563,35.0215,临沂市,十里堡居委,颗粒物(PM10),53,56,36,34,16,46,,64,56,42,29,20,14,0.9,0.6
2026-01-21T2100,3496A,118.359,35.1067,临沂市,南坊新区,细颗粒物(PM2.5),58,58,44,41,26,41,,59,51,42,32,20,14,0.7,0.6
2026-01-21T2100,3860A,118.3915,35.0297,临沂市,皇山花园小区,细颗粒物(PM2.5),54,56,38,38,18,44,,62,55,47,34,21,14,0.9,0.7
2026-01-21T2100,1870A,109.4854,24.3898,柳州市,柳东小学,,,28,20,24,17,28,,29,29,7,8,,7,0.6,0.7
2026-01-21T2100,1871A,109.4109,24.3304,柳州市,环保监测站,,,30,16,3,9,,,33,33,13,14,4,4,0.6,0.8
2026-01-21T2100,1872A,109.3886,24.3408,柳州市,河西水厂,,32,23,19,22,13,29,,31,30,15,17,6,7,0.8,0.9
2026-01-21T2100,1873A,109.4263,24.2951,柳州市,市四中,,16,16,14,10,6,33,,33,33,10,12,8,8,0.8,0.9
2026-01-21T2100,1874A,109.396,24.3658,柳州市,市九中,,29,25,18,20,11,33,,32,32,13,14,8,8,0.5,0.6
2026-01-21T2100,1875A,109.4912,24.3164,柳州市,古亭山,,19,,10,13,6,27,,29,29,9,10,6,6,1.0,0.9
2026-01-21T2100,3402A,109.5422,24.3994,柳州市,市二中,,38,38,24,22,14,22,,24,23,17,13,7,7,0.7,0.6
2026-01-21T2100,2307A,116.5078,31.7369,六安市,监测大楼,细颗粒物(PM2.5),73,70,54,53,44,83,,89,89,22,19,4,4,0.5,0.4
2026-01-21T2100,2308A,116.4738,31.7642,六安市,皖西学院,细颗粒物(PM2.5),75,77,64,55,42,92,,100,100,22,18,6,6,0.5,0.5
2026-01-21T2100,2309A,116.4997,31.7904,六安市,朝阳厂,细颗粒物(PM2.5),73,68,57,53,41,86,,97,97,29,20,6,6,0.6,0.5
2026-01-21T2100,2310A,116.5566,31.7885,六安市,开发区,细颗粒物(PM2.5),78,73,60,57,49,85,,95,94,24,18,4,4,0.5,0.5
2026-01-21T2100,2577A,104.8293,26.592,六盘水市,黄土坡,,39,,17,27,15,16,,24,17,25,20,10,8,0.9,1
2026-01-21T2100,2579A,104.8481,26.5898,六盘水市,民中,,28,24,18,19,12,16,,20,17,19,17,4,4,0.9,0.8
2026-01-21T2100,2580A,104.9541,26.5506,六盘水市,双水,,26,,16,18,9,24,,27,26,15,14,5,5,0.7,0.9
2026-01-21T2100,4151A,104.8899,26.5685,六盘水市,钟山大道中段564号,,25,22,18,17,11,16,,19,19,17,15,6,6,0.8,0.8
2026-01-21T2100,2336A,117.022,25.1031,龙岩市,龙岩市监测站,,29,29,20,18,12,23,,24,24,19,15,12,12,0.5,0.6
2026-01-21T2100,2337A,117.0257,25.0662,龙岩市,闽西职业技术学院,,30,,23,21,14,27,,26,26,13,12,6,6,0.7,0.7
2026-01-21T2100,2338A,117.0195,25.0306,龙岩市,龙岩学院,,35,30,26,24,17,25,,25,24,13,13,8,9,/,/
2026-01-21T2100,2885A,104.9344,33.3827,陇南市,滨江中学,,50,50,74,32,34,50,,62,62,17,25,6,6,1.0,1
2026-01-21T2100,3247A,104.9551,33.3709,陇南市,市总工会,颗粒物(PM10),54,57,71,30,40,52,,60,60,13,21,7,8,0.6,0.8
2026-01-21T2100,2488A,111.9984,27.7346,娄底市,市监测站,细颗粒物(PM2.5),60,49,49,43,47,62,,60,60,17,16,7,6,0.5,0.5
2026-01-21T2100,2491A,111.9888,27.7035,娄底市,市政府,细颗粒物(PM2.5),65,49,49,47,47,62,,58,58,8,10,5,4,0.6,0.6
2026-01-21T2100,4127A,111.9812,27.7591,娄底市,涟钢职大,颗粒物(PM10),53,56,48,34,38,62,,60,60,9,9,3,3,0.4,0.5
2026-01-21T2100,4128A,112.0303,27.7457,娄底市,娄底体校,"颗粒物(PM10),细颗粒物(PM2.5)",53,56,46,37,41,57,,54,54,2,4,2,2,0.2,0.2
2026-01-21T2100,1894A,105.4427,28.9063,泸州市,小市上码头,,36,36,22,21,16,20,,22,22,19,15,4,4,1.1,1.1
2026-01-21T2100,1895A,105.4241,28.8573,泸州市,兰田宪桥,,43,43,26,24,16,23,,23,21,15,7,7,6,0.9,1.1
2026-01-21T2100,1896A,105.4378,28.8833,泸州市,市环监站,,40,40,24,26,16,22,,24,22,17,13,8,8,1.0,1
2026-01-21T2100,4272A,105.3689,28.7783,泸州市,纳溪中医医院,,46,43,26,32,18,12,,25,19,22,11,7,7,0.9,0.8
2026-01-21T2100,2183A,111.1447,37.5212,吕梁市,环保局,颗粒物(PM10),59,67,60,34,22,5,,30,20,60,41,6,5,0.3,0.3
2026-01-21T2100,2185A,111.1285,37.5338,吕梁市,自来水公司,颗粒物(PM10),53,56,78,25,28,23,,29,25,33,35,5,6,0.6,0.6
2026-01-21T2100,2867A,111.1225,37.5093,吕梁市,马茂庄小学,颗粒物(PM10),62,74,66,26,20,9,,31,20,52,43,7,6,0.5,0.5
2026-01-21T2100,1812A,112.3934,34.6517,洛阳市,市委党校,细颗粒物(PM2.5),123,107,101,93,94,80,,70,70,30,37,12,10,1.1,1.1
2026-01-21T2100,1815A,112.494,34.6883,洛阳市,河南林校,细颗粒物(PM2.5),180,140,104,136,99,60,,71,70,43,39,7,8,1.1,0.9
2026-01-21T2100,1816A,112.3843,34.623,洛阳市,开发区管委会,细颗粒物(PM2.5),135,117,112,103,98,84,,78,78,28,28,15,12,0.9,1
2026-01-21T2100,1817A,112.4263,34.6249,洛阳市,市委新办公区,细颗粒物(PM2.5),133,122,114,101,100,77,,70,70,32,33,12,9,0.9,0.9
2026-01-21T2100,3340A,112.6005,34.6323,洛阳市,伊滨,细颗粒物(PM2.5),172,176,132,130,112,56,,68,66,46,34,6,7,0.9,1
2026-01-21T2100,3341A,112.495,34.6338,洛阳市,中移产业园,细颗粒物(PM2.5),188,151,112,141,108,47,,64,61,56,42,9,11,1.2,1
2026-01-21T2100,3593A,112.5736,34.8993,洛阳市,吉利监测站,细颗粒物(PM2.5),173,135,100,131,100,69,,86,84,33,37,7,8,1.0,1
2026-01-21T2100,3635A,112.3678,34.6623,洛阳市,河科大西苑校区,细颗粒物(PM2.5),128,109,109,97,95,81,,72,72,31,46,12,9,0.9,0.9
2026-01-21T2100,3636A,112.4387,34.678,洛阳市,英才小学,细颗粒物(PM2.5),185,154,117,139,106,58,,67,66,50,45,9,9,1.0,0.9
2026-01-21T2100,4214A,112.460027,34.694929,洛阳市,春都路1号院,细颗粒物(PM2.5),156,168,123,119,83,63,,66,66,35,32,9,8,1.2,1.1
2026-01-21T2100,2399A,114.051,33.5721,漯河市,三五一五工厂,细颗粒物(PM2.5),93,95,62,69,46,84,,89,89,28,18,9,8,0.9,0.7
2026-01-21T2100,2400A,114.0055,33.5698,漯河市,漯河大学,细颗粒物(PM2.5),89,78,55,66,43,85,,88,88,21,16,7,7,0.8,0.7
2026-01-21T2100,2401A,114.0134,33.5826,漯河市,市水利局,,,90,59,66,47,,,79,79,22,20,5,5,0.7,0.7
2026-01-21T2100,2402A,114.0261,33.5697,漯河市,市广电局,细颗粒物(PM2.5),94,85,56,70,48,79,,83,83,24,19,8,8,0.6,0.6
2026-01-21T2100,3478A,113.9691,33.568,漯河市,市图书馆,细颗粒物(PM2.5),94,75,67,70,49,77,,83,83,24,16,8,6,0.7,0.6
2026-01-21T2100,4250A,114.089259,33.588274,漯河市,韶山路11号,细颗粒物(PM2.5),99,78,71,74,53,62,,82,80,41,24,8,7,0.8,0.8
2026-01-21T2100,1798A,118.5084,31.6838,马鞍山市,湖东路四小,,37,37,56,21,36,55,,66,65,31,25,6,6,0.6,0.7
2026-01-21T2100,1799A,118.5019,31.6449,马鞍山市,开发区,,36,36,57,22,40,55,,69,67,33,27,9,8,0.9,0.8
2026-01-21T2100,3633A,118.4914,31.681,马鞍山市,雨山,,36,36,63,24,39,56,,67,66,31,27,12,14,0.7,1
2026-01-21T2100,4191A,118.527362,31.722269,马鞍山市,慈湖高新区,,36,36,51,23,33,56,,67,60,31,27,5,5,0.6,0.7
2026-01-21T2100,1686A,111.0285,21.469,茂名市,电白南海,细颗粒物(PM2.5),64,75,85,46,49,38,,69,63,23,20,14,12,1.0,1
2026-01-21T2100,1687A,110.9294,21.6533,茂名市,茂石化七小,细颗粒物(PM2.5),58,63,77,41,42,23,,48,41,25,23,6,11,1.0,1
2026-01-21T2100,1688A,110.9108,21.6688,茂名市,健康路,细颗粒物(PM2.5),58,58,66,41,42,25,,53,43,26,24,9,16,0.8,0.9
2026-01-21T2100,1689A,110.8592,21.6826,茂名市,高岭,,,,76,,34,18,,53,41,23,21,27,19,/,/
2026-01-21T2100,3450A,111.0101,21.5165,茂名市,电白水东,细颗粒物(PM2.5),64,68,83,46,47,31,,63,57,24,18,10,10,/,/
2026-01-21T2100,2540A,103.8414,30.0871,眉山市,气象局,细颗粒物(PM2.5),62,61,59,44,36,43,,50,50,19,20,9,10,0.6,0.6
2026-01-21T2100,3148A,103.829,30.0563,眉山市,区人社局,颗粒物(PM10),56,61,56,39,31,35,,42,42,22,21,5,5,0.7,0.6
2026-01-21T2100,4148A,103.8836,30.0695,眉山市,眉职院,颗粒物(PM10),54,58,50,34,26,38,,48,47,16,14,1,1,0.7,0.7
2026-01-21T2100,1690A,116.1248,24.3307,梅州市,梅江月梅,,33,25,19,23,16,22,,37,34,18,15,/,/,/,/
2026-01-21T2100,1691A,116.0798,24.2719,梅州市,梅县新城,,26,,17,18,10,26,,36,35,17,16,7,7,0.7,0.6
2026-01-21T2100,3315A,116.1234,24.2994,梅州市,梅龙,,25,24,21,17,11,21,,32,31,16,13,8,8,0.8,0.7
2026-01-21T2100,1878A,104.7775,31.4741,绵阳市,富乐山,细颗粒物(PM2.5),54,47,35,38,24,37,,53,49,11,9,8,8,0.5,0.4
2026-01-21T2100,1880A,104.6698,31.4668,绵阳市,高新区自来水公司,细颗粒物(PM2.5),55,52,38,39,27,35,,54,49,16,14,7,7,0.7,0.6
2026-01-21T2100,3491A,104.6899,31.5324,绵阳市,西科大附属小学,颗粒物(PM10),58,66,42,39,23,30,,56,49,23,17,8,8,0.5,0.6
2026-01-21T2100,3492A,104.5647,31.5343,绵阳市,安州区旅游局,细颗粒物(PM2.5),52,51,39,36,28,35,,54,51,14,13,10,10,0.4,0.3
2026-01-21T2100,4146A,104.7092,31.4972,绵阳市,科技城新区公安局,细颗粒物(PM2.5),57,,37,40,24,40,,59,55,16,12,8,8,0.7,0.8
2026-01-21T2100,4226A,104.765114,31.453094,绵阳市,绵阳市气象局,细颗粒物(PM2.5),63,48,33,45,26,36,,50,46,12,13,9,9,0.6,0.5
2026-01-21T2100,1784A,129.61,44.561,牡丹江市,环保大楼,,47,47,36,23,20,62,,60,60,10,13,2,4,0.3,0.3
2026-01-21T2100,1787A,129.6364,44.6075,牡丹江市,机车工厂,,35,32,40,24,25,59,,64,63,12,11,2,3,0.3,0.4
2026-01-21T2100,1788A,129.6386,44.5462,牡丹江市,第一中学,,45,,43,31,24,59,,59,59,7,9,3,4,0.5,0.5
2026-01-21T2100,4287A,129.5992,44.5964,牡丹江市,东晓云街98号,,38,34,36,26,30,59,,64,63,12,9,4,4,0.6,0.6
2026-01-21T2100,2531A,105.0703,29.61,内江市,市监测站,,46,38,32,32,28,28,,40,36,18,14,4,4,0.8,0.8
2026-01-21T2100,2533A,105.0657,29.5807,内江市,内江二中,,45,40,36,31,23,17,,27,24,27,22,3,4,1.0,0.9
2026-01-21T2100,2534A,105.0407,29.5828,内江市,内江日报社,,50,,27,35,24,22,,30,26,24,19,4,5,0.7,0.7
2026-01-21T2100,4147A,105.0433,29.6105,内江市,玉峰路西段888号,细颗粒物(PM2.5),52,39,32,36,27,26,,35,28,16,16,1,1,1.1,1
2026-01-21T2100,2628A,92.0653,31.4846,那曲市,那曲监测站,,,31,50,14,25,,,77,77,10,27,6,9,0.5,1.6
2026-01-21T2100,4243A,92.0515,31.4787,那曲市,那曲市委宣传部,,22,6,29,3,14,68,,84,82,1,18,3,6,0.4,1.1
2026-01-21T2100,1291A,115.8887,28.7006,南昌市,省林业公司,细颗粒物(PM2.5),55,44,44,39,40,67,,65,65,6,4,4,5,0.1,0.2
2026-01-21T2100,1292A,115.813,28.7443,南昌市,林科所,,42,31,38,29,33,56,,56,56,24,16,4,2,0.2,0.3
2026-01-21T2100,1294A,115.8518,28.687,南昌市,建工学校,颗粒物(PM10),53,55,50,31,38,57,,54,54,27,24,8,6,0.6,0.6
2026-01-21T2100,1295A,115.8926,28.6425,南昌市,象湖,细颗粒物(PM2.5),52,50,44,36,39,56,,53,53,16,14,9,8,0.5,0.5
2026-01-21T2100,3046A,115.9084,28.6062,南昌市,机电学校,细颗粒物(PM2.5),62,60,55,44,43,62,,61,61,14,11,4,3,0.7,0.7
2026-01-21T2100,3690A,115.9718,28.7032,南昌市,外国语学校,细颗粒物(PM2.5),63,63,52,45,40,57,,58,58,22,18,12,11,0.5,0.7
2026-01-21T2100,4106A,115.7923,28.6873,南昌市,工业二路,,37,37,47,25,32,64,,66,60,14,11,4,3,0.4,0.3
2026-01-21T2100,4192A,115.931587,28.686774,南昌市,南京东路235号,细颗粒物(PM2.5),60,61,49,43,44,62,,61,61,13,11,6,5,0.5,0.4
2026-01-21T2100,1906A,106.0791,30.8022,南充市,南充市委,,40,31,38,28,31,13,,29,17,26,23,4,4,0.8,0.8
2026-01-21T2100,1907A,106.1038,30.8215,南充市,南充炼油厂,,42,30,43,29,35,17,,32,19,9,14,5,5,0.6,0.8
2026-01-21T2100,4227A,106.108336,30.788436,南充市,梨树横街98号,,35,31,37,24,25,14,,36,20,24,18,5,5,0.7,0.7
2026-01-21T2100,4304A,106.1172,30.843,南充市,清泉寺北路188号,,27,27,28,18,24,20,,38,25,13,13,6,6,0.5,0.5
2026-01-21T2100,4305A,106.067,30.7616,南充市,同庆路1号,,35,,32,24,27,13,,30,15,28,27,6,6,0.8,0.8
2026-01-21T2100,1151A,118.8033,32.1085,南京市,迈皋桥,,34,34,45,19,29,52,,71,68,34,28,6,5,0.5,0.5
2026-01-21T2100,1152A,118.7487,32.057,南京市,草场门,,44,44,51,27,31,36,,47,46,35,28,4,3,0.3,0.4
2026-01-21T2100,1154A,118.770105,32.004342,南京市,中华门,,41,41,53,27,35,55,,67,65,19,19,10,7,0.4,0.7
2026-01-21T2100,1155A,118.8059,32.0329,南京市,瑞金路,,,39,53,29,38,,,66,65,11,18,4,4,1.8,1.7
2026-01-21T2100,1156A,118.7946,32.0774,南京市,玄武湖,,38,38,50,23,31,48,,68,66,21,20,4,4,0.0,0.2
2026-01-21T2100,1157A,118.6415,32.0964,南京市,浦口,,36,36,51,19,34,56,,66,65,24,20,8,8,1.2,1.2
2026-01-21T2100,1158A,118.730129,32.000956,南京市,奥体中心,,41,41,52,27,35,62,,76,74,32,24,7,8,0.6,0.7
2026-01-21T2100,1159A,118.9072,32.1047,南京市,仙林大学城,,34,34,52,19,32,50,,64,62,25,22,7,7,0.6,0.7
2026-01-21T2100,3422A,118.8443,31.919,南京市,江宁彩虹桥,,37,37,45,24,33,65,,84,80,30,25,4,5,0.6,0.6
2026-01-21T2100,3427A,118.8497,32.3599,南京市,六合雄州,,,36,47,27,33,,,74,74,20,22,4,5,0.3,0.5
2026-01-21T2100,4086A,118.7641,32.0841,南京市,新模范马路66号,,,51,55,17,27,73,,95,92,,7,13,4,0.5,1.1
2026-01-21T2100,4249A,118.8707617,31.34017673,南京市,汶溪路181号,,40,33,47,28,42,60,,70,68,26,24,6,6,0.6,0.8
2026-01-21T2100,4312A,119.019,31.6512,南京市,中山西路1号,,38,27,41,26,38,56,,68,65,22,19,4,4,0.7,0.8
2026-01-21T2100,1401A,108.3098,22.788,南宁市,二十一中,,21,21,21,13,9,20,,18,18,21,22,3,4,0.6,0.7
2026-01-21T2100,1402A,108.3135,22.8529,南宁市,北湖,,29,29,23,10,9,15,,22,21,25,20,2,2,0.7,0.7
2026-01-21T2100,1403A,108.3205,22.8222,南宁市,市监测站,,32,27,24,22,21,13,,15,13,23,23,5,5,0.8,0.8
2026-01-21T2100,1404A,108.3828,22.8038,南宁市,大自然花园,,,,27,,13,28,,25,25,10,18,5,5,0.6,0.8
2026-01-21T2100,1406A,108.2397,22.8462,南宁市,区农职院,,19,18,23,13,12,24,,24,24,19,20,8,7,0.9,0.8
2026-01-21T2100,1407A,108.3285,22.7356,南宁市,英华嘉园,,19,19,21,10,9,23,,22,22,14,15,3,3,0.8,0.8
2026-01-21T2100,3401A,108.4829,22.762,南宁市,红星社区,,19,14,16,13,13,29,,30,30,14,13,4,4,0.6,0.5
2026-01-21T2100,4132A,108.2927,23.1477,南宁市,起凤路9号,,18,18,17,10,10,30,,29,29,8,9,1,1,0.8,0.8
2026-01-21T2100,4221A,108.2177,22.7774,南宁市,乐贤路16号,,24,24,25,15,18,6,,18,14,30,21,9,5,0.9,0.7
2026-01-21T2100,2332A,118.1682,26.6371,南平市,南平市监测站,,22,22,9,15,5,33,,38,36,12,12,3,3,0.2,0.3
2026-01-21T2100,2334A,118.1757,26.6276,南平市,南平七中,,29,,9,20,8,31,,39,35,16,13,5,7,0.6,0.6
2026-01-21T2100,1168A,120.9056,31.9669,南通市,狼山街道,,30,30,35,18,25,58,,66,65,13,10,2,3,0.4,0.5
2026-01-21T2100,1170A,120.8635,32.0231,南通市,城中,,33,33,38,21,23,55,,64,62,16,14,3,5,0.8,0.8
2026-01-21T2100,1171A,120.9376,31.9301,南通市,星湖花园,,27,27,36,17,24,64,,70,69,17,15,4,4,0.3,0.4
2026-01-21T2100,1172A,120.8053,32.046,南通市,紫琅学院,,34,34,38,21,24,61,,70,68,15,12,2,3,0.6,0.6
2026-01-21T2100,3291A,121.0631,32.0644,南通市,通州监测站,,32,22,31,22,24,60,,70,68,17,14,2,3,0.5,0.5
2026-01-21T2100,3432A,120.9348,31.9874,南通市,环境教育馆,,36,36,37,19,25,59,,69,67,19,15,3,4,0.5,0.5
2026-01-21T2100,4091A,120.8692,31.9885,南通市,洪江路,,28,26,31,19,23,57,,65,63,14,12,2,2,0.4,0.4
2026-01-21T2100,2404A,112.5338,33.0086,南阳市,瓦房庄,细颗粒物(PM2.5),103,,65,77,60,75,,85,85,24,15,8,7,1.0,0.8
2026-01-21T2100,2405A,112.5002,32.9734,南阳市,汉画馆,细颗粒物(PM2.5),120,91,69,91,57,50,,81,78,48,18,6,7,0.7,0.8
2026-01-21T2100,2406A,112.5778,33.0144,南阳市,气象站,细颗粒物(PM2.5),73,73,71,53,53,89,,93,93,21,16,7,6,0.7,0.7
2026-01-21T2100,2407A,112.548,32.9687,南阳市,理工学院,细颗粒物(PM2.5),78,80,64,57,48,77,,86,86,21,16,6,6,0.7,0.6
2026-01-21T2100,4008A,112.5233,32.9921,南阳市,卧龙区政府,细颗粒物(PM2.5),79,76,70,58,54,81,,84,84,18,14,6,6,0.9,0.7
2026-01-21T2100,1234A,121.8352,29.9111,宁波市,区环保大楼,,36,35,42,25,20,41,,59,53,35,21,4,5,0.7,0.7
2026-01-21T2100,1235A,121.5595,29.8208,宁波市,万里学院,细颗粒物(PM2.5),53,51,38,37,30,50,,68,63,27,17,4,2,0.7,0.5
2026-01-21T2100,1236A,121.713,29.9564,宁波市,龙赛医院,,48,48,44,29,31,40,,58,50,33,24,3,4,0.5,0.4
2026-01-21T2100,1240A,121.5855,29.8635,宁波市,太古小学,,49,49,38,34,31,50,,73,66,28,16,4,3,0.5,0.4
2026-01-21T2100,1241A,121.5239,29.8673,宁波市,市环境监测中心,,,50,37,34,28,,,74,,23,15,6,6,0.7,0.5
2026-01-21T2100,2871A,121.6156,29.9015,宁波市,万里国际学校,细颗粒物(PM2.5),54,49,34,38,29,44,,71,61,31,16,4,3,0.8,0.6
2026-01-21T2100,3710A,121.5593,29.8976,宁波市,白沙活动中心,,43,43,30,30,22,47,,68,61,27,15,4,4,0.6,0.5
2026-01-21T2100,4095A,121.8962,29.7529,宁波市,中科路88号,,30,30,30,21,25,56,,64,60,24,21,5,4,0.5,0.4
2026-01-21T2100,2341A,119.5387,26.6611,宁德市,宁德市监测站,,35,25,17,24,13,40,,51,50,20,20,3,4,0.4,0.4
2026-01-21T2100,3209A,119.5231,26.6562,宁德市,宁德一中,,35,33,19,24,13,45,,52,52,18,18,2,3,0.4,0.3
2026-01-21T2100,2618A,98.859,25.8541,怒江傈僳族自治州,州监测站,,45,45,39,28,24,49,,78,76,23,12,6,4,0.6,0.5
2026-01-21T2100,2619A,98.8607,25.8168,怒江傈僳族自治州,泸水一中,颗粒物(PM10),53,56,37,11,32,11,,73,57,55,19,4,5,1.2,0.6
2026-01-21T2100,1888A,101.6891,26.571,攀枝花市,弄弄坪,细颗粒物(PM2.5),89,88,97,66,57,51,,87,82,29,41,14,29,0.9,1.9
2026-01-21T2100,1889A,101.577,26.5914,攀枝花市,河门口,细颗粒物(PM2.5),95,102,73,71,42,59,,93,91,28,32,66,30,1.0,1.3
2026-01-21T2100,1891A,101.7365,26.4986,攀枝花市,仁和,细颗粒物(PM2.5),69,83,54,50,33,42,,87,77,27,25,10,11,1.0,0.9
2026-01-21T2100,2835A,101.7222,26.567,攀枝花市,四十中小,细颗粒物(PM2.5),67,70,64,48,41,30,,75,65,53,32,13,17,1.3,1.2
2026-01-21T2100,1604A,122.0303,41.1489,盘锦市,开发区,细颗粒物(PM2.5),58,62,48,41,28,21,,62,50,29,19,4,3,1.1,0.9
2026-01-21T2100,1605A,122.0486,41.0883,盘锦市,兴隆台,细颗粒物(PM2.5),88,88,39,65,27,3,,58,43,76,32,9,11,1.3,0.8
2026-01-21T2100,1606A,121.8297,41.1026,盘锦市,新生街道,,30,30,25,11,13,8,,69,53,51,24,5,7,0.4,0.4
2026-01-21T2100,1832A,113.3257,33.7423,平顶山市,新华旅馆,细颗粒物(PM2.5),82,92,95,60,59,93,,92,92,20,33,7,9,0.5,0.6
2026-01-21T2100,1833A,113.2917,33.737,平顶山市,规划设计院,细颗粒物(PM2.5),92,92,84,68,62,85,,89,89,16,18,8,9,0.5,0.6
2026-01-21T2100,1834A,113.182,33.7738,平顶山市,平顶山工学院,细颗粒物(PM2.5),77,73,78,56,65,88,,93,93,18,22,8,8,0.5,0.6
2026-01-21T2100,3594A,112.8736,33.9068,平顶山市,石龙区,细颗粒物(PM2.5),90,92,97,67,78,79,,92,92,15,16,8,7,0.6,0.8
2026-01-21T2100,4116A,113.284,33.7139,平顶山市,姚电大道23号,细颗粒物(PM2.5),98,97,90,73,66,82,,94,94,27,24,8,8,0.6,0.8
2026-01-21T2100,2656A,106.6633,35.5338,平凉市,聚贤嘉苑,,50,49,62,35,35,60,,66,66,19,19,21,18,0.4,0.6
2026-01-21T2100,2657A,106.7021,35.5307,平凉市,博物馆,颗粒物(PM10),53,55,65,30,38,71,,74,74,15,20,12,15,0.6,0.6
2026-01-21T2100,2348A,113.8384,27.6436,萍乡市,中医院,细颗粒物(PM2.5),72,69,61,52,44,25,,29,29,39,35,3,3,0.9,0.9
2026-01-21T2100,2350A,113.8677,27.6438,萍乡市,市环保局,细颗粒物(PM2.5),83,64,49,61,47,21,,25,25,24,23,12,12,1.2,1
2026-01-21T2100,2351A,113.8663,27.6202,萍乡市,安源区政府,细颗粒物(PM2.5),84,68,52,62,43,22,,29,28,26,21,11,9,1.0,0.9
2026-01-21T2100,4107A,113.8686,27.6668,萍乡市,联洪村委会,细颗粒物(PM2.5),77,71,68,56,49,20,,21,21,33,29,3,3,1.0,1
2026-01-21T2100,2319A,119.0142,25.4324,莆田市,荔城区仓后路,,35,30,25,24,13,55,,52,50,16,13,/,/,/,/
2026-01-21T2100,2320A,119.0016,25.4553,莆田市,莆田市监测站,,33,23,21,23,13,55,,54,51,13,10,3,2,0.5,0.5
2026-01-21T2100,2321A,119.112,25.4561,莆田市,涵江区六中,,33,29,22,23,12,66,,55,55,12,11,/,/,0.3,0.3
2026-01-21T2100,2322A,119.1014,25.3215,莆田市,秀屿区政府,,35,24,29,24,13,68,,59,59,10,8,2,2,0.5,0.7
2026-01-21T2100,2392A,115.0312,35.7636,濮阳市,环保局,颗粒物(PM10),58,65,47,31,22,50,,56,56,27,27,7,9,0.7,0.7
2026-01-21T2100,3021A,115,35.7667,濮阳市,濮水河管理处,颗粒物(PM10),67,83,51,30,22,46,,66,62,24,22,7,9,0.7,0.5
2026-01-21T2100,4118A,115.0552,35.7816,濮阳市,中原东路68号,细颗粒物(PM2.5),63,72,58,45,32,57,,66,66,26,27,7,11,0.5,0.4
2026-01-21T2100,4216A,115.0923632,35.76857718,濮阳市,任丘路479号,细颗粒物(PM2.5),74,73,59,54,34,51,,61,59,25,28,8,13,0.7,0.7
2026-01-21T2100,2601A,100.9801,22.7634,普洱市,市环保局,细颗粒物(PM2.5),83,61,51,61,17,51,,85,80,19,13,5,5,0.4,0.4
2026-01-21T2100,2602A,100.9763,22.8237,普洱市,普洱第二中学,颗粒物(PM10),59,67,43,25,16,59,,91,85,16,21,5,5,0.4,0.3
2026-01-21T2100,3345A,131.0413,45.7795,七台河市,中波台,颗粒物(PM10),60,70,38,37,26,52,,62,58,16,15,6,8,0.5,0.4
2026-01-21T2100,3637A,131.0136,45.7688,七台河市,人民广场,颗粒物(PM10),51,51,44,34,32,57,,63,62,18,18,6,7,0.6,0.5
2026-01-21T2100,3684A,130.8639,45.8144,七台河市,新建矿广场,,50,48,31,35,22,51,,59,57,14,12,4,5,0.4,0.3
2026-01-21T2100,1779A,123.9307,47.3641,齐齐哈尔市,安居小区,,26,26,22,14,12,41,,61,51,26,15,9,5,0.5,0.4
2026-01-21T2100,1780A,123.9497,47.3389,齐齐哈尔市,中心广场,,20,18,14,14,9,55,,61,58,12,11,8,5,0.6,0.7
2026-01-21T2100,1781A,123.9483,47.3229,齐齐哈尔市,农牧车辆厂,,29,29,20,15,12,53,,61,57,12,9,8,5,0.3,0.3
2026-01-21T2100,1783A,123.9442,47.2994,齐齐哈尔市,市环境监测站,,23,23,20,9,7,59,,62,59,8,8,5,4,0.4,0.4
2026-01-21T2100,3662A,123.6341,47.2079,齐齐哈尔市,富区青少年活动中心,,26,26,27,9,8,60,,62,54,8,12,4,6,0.5,0.6
2026-01-21T2100,2591A,107.9765,26.5724,黔东南苗族侗族自治州,市环境监测站,细颗粒物(PM2.5),58,44,25,41,23,66,,59,58,6,4,5,4,0.6,0.5
2026-01-21T2100,2881A,107.8909,26.531,黔东南苗族侗族自治州,凯里学院,细颗粒物(PM2.5),55,51,26,39,20,63,,59,58,8,8,1,2,0.6,0.6
2026-01-21T2100,2593A,107.5223,26.2371,黔南布依族苗族自治州,小围寨,,32,24,14,22,14,48,,46,46,4,6,4,5,0.8,0.8
2026-01-21T2100,3538A,107.5175,26.2977,黔南布依族苗族自治州,沙坝,,32,27,20,22,17,53,,51,50,6,7,5,5,0.6,0.8
2026-01-21T2100,2589A,104.9022,25.0943,黔西南布依族苗族自治州,场坝街,,,36,41,33,27,,,30,29,10,12,2,3,0.7,0.8
2026-01-21T2100,2590A,104.8812,25.0994,黔西南布依族苗族自治州,坪东大道,细颗粒物(PM2.5),55,40,34,39,26,32,,33,30,12,14,5,6,0.9,0.9
2026-01-21T2100,2502A,108.6238,21.9667,钦州市,市环保站,,27,27,47,3,16,19,,24,24,23,20,1,2,0.9,1.1
2026-01-21T2100,2503A,108.655,21.9481,钦州市,沙埠小学,,16,16,40,6,7,24,,26,26,22,21,3,3,0.5,0.5
2026-01-21T2100,2504A,108.5989,21.7435,钦州市,港区一小,细颗粒物(PM2.5),62,,59,44,22,17,,18,18,18,24,2,6,0.7,0.9
2026-01-21T2100,3404A,108.5959,21.9634,钦州市,北职校,,20,17,34,14,19,24,,27,27,11,11,1,2,0.6,0.6
2026-01-21T2100,1046A,119.5247,39.9346,秦皇岛市,建设大厦,颗粒物(PM10),51,52,51,26,21,6,,56,41,58,34,8,7,0.7,0.7
2026-01-21T2100,3132A,119.5979,39.938,秦皇岛市,文明里,颗粒物(PM10),59,67,41,40,22,3,,57,43,73,35,11,9,0.7,0.4
2026-01-21T2100,4066A,119.7458,39.9952,秦皇岛市,南园路157号,,36,36,40,13,23,10,,61,43,60,41,11,9,0.7,0.6
2026-01-21T2100,4067A,119.5131,39.8858,秦皇岛市,翠岛大街1号,,47,47,46,22,17,10,,56,43,55,35,10,9,0.6,0.6
2026-01-21T2100,4198A,119.509013,39.825305,秦皇岛市,北戴河轮滑馆,,42,42,44,29,27,10,,59,49,59,41,8,6,1.0,0.8
2026-01-21T2100,1310A,120.404,36.0625,青岛市,市南区东部子站,,22,22,30,7,14,57,,66,65,15,14,9,11,0.4,0.5
2026-01-21T2100,1311A,120.362344,36.10282,青岛市,四方区子站,,21,19,29,12,16,66,,70,70,7,13,4,6,0.5,0.7
2026-01-21T2100,1312A,120.294373,36.054183,青岛市,市南区西部子站,,22,9,25,3,12,69,,70,70,8,15,2,4,0.3,0.4
2026-01-21T2100,1313A,120.4581,36.0858,青岛市,崂山区子站,,19,17,25,7,13,58,,66,66,15,18,10,12,0.2,0.2
2026-01-21T2100,1315A,120.3945,36.3083,青岛市,城阳区子站,,29,29,36,17,16,54,,70,67,24,23,10,10,0.9,0.9
2026-01-21T2100,3642A,120.3454,36.0735,青岛市,市北区南部,,22,22,30,7,12,49,,58,57,19,19,5,5,0.5,0.6
2026-01-21T2100,3643A,120.3897,36.18,青岛市,李沧区北部,,25,24,33,17,22,47,,64,62,24,19,10,12,0.7,0.7
2026-01-21T2100,4110A,120.5222,36.4089,青岛市,盟旺路653号,,35,35,41,17,18,47,,63,60,28,27,3,4,0.6,0.7
2026-01-21T2100,4290A,120.196923,35.954556,青岛市,珠江路669号,,24,19,25,12,16,30,,64,56,47,24,4,6,0.6,0.7
2026-01-21T2100,4291A,120.0424,35.8656,青岛市,黄岛区人民政府广场,,22,22,29,3,11,58,,68,65,19,21,6,10,0.6,0.7
2026-01-21T2100,1703A,113.0218,23.7086,清远市,凤城街办,,22,22,18,14,11,26,,28,28,21,20,/,/,/,/
2026-01-21T2100,3025A,113.0479,23.6343,清远市,技师学院,,31,31,26,14,13,22,,24,24,23,21,5,4,0.7,0.6
2026-01-21T2100,3318A,112.9898,23.7403,清远市,清新太和,,25,25,21,13,10,29,,30,30,17,16,1,2,0.7,0.6
2026-01-21T2100,3455A,113.076,23.72,清远市,清城东城,,24,24,19,11,10,27,,29,29,22,20,/,/,/,/
2026-01-21T2100,2661A,107.6325,35.7357,庆阳市,庆阳五中,细颗粒物(PM2.5),62,64,55,44,32,54,,71,69,28,15,8,6,0.7,0.5
2026-01-21T2100,2662A,107.6361,35.7067,庆阳市,市环保局,细颗粒物(PM2.5),60,56,56,43,31,71,,69,69,16,14,7,7,0.6,0.6
2026-01-21T2100,1916A,103.7897,25.5036,曲靖市,环境监测站,,38,38,28,7,11,77,,96,94,13,10,3,4,0.4,0.4
2026-01-21T2100,1917A,103.8013,25.5357,曲靖市,烟厂办公区,,26,26,27,8,13,81,,95,94,11,9,3,4,0.2,0.2
2026-01-21T2100,3376A,103.7926,25.4651,曲靖市,南苑二区,,26,18,24,6,12,81,,91,89,7,5,4,4,0.3,0.4
2026-01-21T2100,3377A,103.7442,25.5259,曲靖市,曲靖师范学院,,31,31,27,17,17,83,,99,97,8,18,3,3,0.3,0.3
2026-01-21T2100,1264A,118.8694,28.94,衢州市,环保大楼,,46,38,34,32,28,55,,56,56,15,17,/,/,/,/
2026-01-21T2100,1266A,118.8622,28.9809,衢州市,衢州学院,,40,30,29,28,26,52,,55,55,18,16,4,4,0.5,0.6
2026-01-21T2100,4097A,118.9646,28.9832,衢州市,衢州三中,,43,36,32,30,27,50,,54,54,17,17,4,4,0.9,0.8
2026-01-21T2100,1611A,118.5818,24.9116,泉州市,涂山街,,33,32,25,23,15,48,,57,52,19,14,3,3,0.6,0.5
2026-01-21T2100,1612A,118.597,24.8976,泉州市,津头埔,,39,34,28,27,18,50,,56,51,16,14,4,4,0.5,0.5
2026-01-21T2100,1613A,118.6669,24.9422,泉州市,万安,,34,34,28,22,16,49,,52,49,18,15,4,3,0.3,0.3
2026-01-21T2100,4105A,118.6355,24.9148,泉州市,霞新路6号,,,,29,,15,51,,56,51,20,14,/,/,,0.5
2026-01-21T2100,2626A,88.8873,29.2723,日喀则市,日喀则监测站,,23,22,16,10,6,72,,90,89,20,5,12,8,0.6,0.4
2026-01-21T2100,3726A,88.8775,29.2425,日喀则市,林业技术推广中心,,28,12,17,3,5,88,,88,88,2,4,9,9,0.2,0.2
2026-01-21T2100,1659A,119.4711,35.421,日照市,监测站,,39,36,28,27,16,44,,68,60,30,17,12,9,0.7,0.6
2026-01-21T2100,1660A,119.523,35.4216,日照市,市政府广场,,46,46,27,26,13,50,,70,64,28,17,12,9,0.5,0.4
2026-01-21T2100,1661A,119.5511,35.4113,日照市,港务局,,,41,31,40,24,,,66,66,24,16,8,7,,0.6
2026-01-21T2100,3507A,119.5326,35.4627,日照市,职业技术学院,,36,36,31,24,12,48,,66,61,29,20,10,9,0.7,0.6
2026-01-21T2100,3604A,119.3267,35.1043,日照市,岚山环保分局,颗粒物(PM10),53,56,33,33,23,50,,68,64,24,13,23,12,1.6,0.7
2026-01-21T2100,1835A,111.1922,34.7752,三门峡市,市政府,细颗粒物(PM2.5),107,,36,80,37,69,,69,69,22,34,13,12,1.0,0.7
2026-01-21T2100,1836A,111.1588,34.794,三门峡市,开发区,细颗粒物(PM2.5),140,,57,107,40,64,,62,62,25,26,10,9,0.7,0.6
2026-01-21T2100,3039A,111.1911,34.7829,三门峡市,三门峡市第一小学,细颗粒物(PM2.5),144,,53,110,38,66,,66,66,26,32,11,10,0.8,0.7
2026-01-21T2100,3598A,111.1031,34.719,三门峡市,富达温泉假日酒店,细颗粒物(PM2.5),124,96,59,94,40,44,,62,58,42,30,11,14,0.8,0.8
2026-01-21T2100,2324A,117.621,26.2626,三明市,三钢,,29,23,11,20,9,34,,38,38,12,12,4,4,0.5,0.6
2026-01-21T2100,2325A,117.6352,26.2714,三明市,三明二中,,22,,12,15,8,35,,38,38,10,11,2,2,0.5,0.6
2026-01-21T2100,2326A,117.6028,26.2377,三明市,三元区政府,,13,,7,9,8,39,,40,40,10,12,3,3,0.4,0.5
2026-01-21T2100,1877A,109.4962,18.2682,三亚市,河西子站,颗粒物(PM10),51,51,43,26,20,117,,119,118,6,7,3,3,0.5,0.4
2026-01-21T2100,3540A,109.7348,18.3443,三亚市,君悦子站,,,56,42,24,16,,,116,116,6,11,4,4,0.4,0.4
2026-01-21T2100,4135A,109.1714,18.3739,三亚市,城东小学站,,42,33,32,29,20,95,,106,106,14,8,/,/,/,/
2026-01-21T2100,2624A,91.7592,29.234,山南市,山南监测站,颗粒物(PM10),58,65,54,12,16,85,,84,84,3,9,4,4,0.2,0.2
2026-01-21T2100,2625A,91.7701,29.2436,山南市,山南人民医院,颗粒物(PM10),78,105,76,34,20,72,,82,82,18,11,8,8,0.6,0.5
2026-01-21T2100,1674A,116.6795,23.3666,汕头市,金平子站,,39,34,44,27,27,30,,45,42,18,16,6,7,0.8,0.7
2026-01-21T2100,1675A,116.7248,23.3632,汕头市,龙湖子站,,33,32,36,23,19,27,,47,41,20,16,13,11,/,/
2026-01-21T2100,1676A,116.7257,23.2774,汕头市,濠江子站,,35,26,32,24,22,35,,58,56,17,15,8,8,/,/
2026-01-21T2100,1677A,116.7518,23.4712,汕头市,澄海子站,,40,37,39,28,24,26,,39,32,16,17,8,9,0.6,0.5
2026-01-21T2100,1678A,116.6088,23.2539,汕头市,潮阳子站,,29,29,37,20,20,35,,53,51,11,12,6,7,0.7,0.6
2026-01-21T2100,3444A,116.4539,23.2684,汕头市,潮南峡山,,40,40,48,24,28,28,,46,44,23,20,12,9,0.7,0.7
2026-01-21T2100,3624A,116.4069,23.2533,汕头市,潮南子站,,50,50,54,25,27,20,,36,34,27,21,9,7,/,/
2026-01-21T2100,1693A,115.3653,22.7751,汕尾市,市环保局,,39,39,29,25,25,49,,69,68,16,15,7,7,0.6,0.6
2026-01-21T2100,1695A,115.362,22.7926,汕尾市,新城中学,,40,40,34,22,25,49,,72,70,14,12,6,5,0.6,0.6
2026-01-21T2100,2645A,109.9155,33.8714,商洛市,监测站,"颗粒物(PM10),细颗粒物(PM2.5)",52,54,37,36,20,54,,65,64,24,16,4,5,0.5,0.4
2026-01-21T2100,3045A,109.9647,33.8486,商洛市,商州区中学,,48,34,39,33,20,53,,67,64,22,17,5,5,0.8,0.7
2026-01-21T2100,2408A,115.6701,34.4283,商丘市,环境监测站,细颗粒物(PM2.5),88,,48,65,42,65,,84,82,34,29,3,4,0.7,0.6
2026-01-21T2100,2409A,115.6458,34.4047,商丘市,粮食局,细颗粒物(PM2.5),82,,46,60,38,61,,68,67,30,23,6,5,0.6,0.5
2026-01-21T2100,3171A,115.6069,34.4465,商丘市,梁园区档案局,细颗粒物(PM2.5),77,,44,56,39,38,,77,69,57,32,8,7,0.5,0.4
2026-01-21T2100,4119A,115.6701,34.3767,商丘市,北海东路185号,细颗粒物(PM2.5),78,72,50,57,33,41,,77,70,48,24,2,4,0.7,0.6
2026-01-21T2100,4120A,115.6172,34.3704,商丘市,中山大街3号,,,108,66,,46,,,69,63,86,35,5,3,0.6,0.5
2026-01-21T2100,1141A,121.401,31.2382,上海市,普陀,,35,30,37,24,28,61,,65,65,15,17,5,6,0.7,0.7
2026-01-21T2100,1142A,121.4774,31.2043,上海市,十五厂,,30,30,36,21,24,56,,66,64,27,23,6,6,0.8,0.7
2026-01-21T2100,1143A,121.4673,31.3011,上海市,虹口,,32,32,40,19,25,50,,58,56,21,18,8,7,0.5,0.5
2026-01-21T2100,1147A,121.4253,31.226,上海市,静安监测站,,30,27,36,21,28,62,,67,66,20,21,6,6,0.3,0.4
2026-01-21T2100,1148A,121.7029,31.1905,上海市,浦东川沙,,31,31,35,17,23,52,,60,58,21,20,7,7,0.2,0.2
2026-01-21T2100,1149A,121.5339,31.229,上海市,浦东新区监测站,,30,26,37,21,30,65,,64,64,13,17,5,6,0.6,0.7
2026-01-21T2100,1150A,121.5776,31.2038,上海市,浦东张江,,28,26,33,19,24,66,,69,68,14,16,6,6,0.5,0.6
2026-01-21T2100,3265A,121.4242,31.3303,上海市,宝山庙行,,28,28,35,18,25,54,,62,60,17,16,6,6,0.4,0.4
2026-01-21T2100,3266A,121.8789,31.4662,上海市,崇明上实东滩,,24,24,31,16,21,69,,72,71,9,10,4,4,0.2,0.2
2026-01-21T2100,3268A,121.316,31.2839,上海市,嘉定南翔,,31,31,36,20,24,53,,62,61,22,17,3,4,0.6,0.6
2026-01-21T2100,3269A,121.3357,30.7455,上海市,金山新城,,36,29,35,25,28,46,,60,55,27,23,8,8,0.5,0.9
2026-01-21T2100,3270A,121.4996,31.0741,上海市,闵行浦江,,24,24,34,16,24,61,,64,64,8,13,6,6,0.3,0.3
2026-01-21T2100,3271A,121.2886,31.1663,上海市,青浦徐泾,,32,29,35,22,27,56,,64,63,21,20,4,4,0.7,0.7
2026-01-21T2100,3272A,121.2193,31.0382,上海市,松江图书馆,,35,35,38,24,30,46,,59,57,30,22,5,6,0.5,0.6
2026-01-21T2100,3273A,121.3904,31.206,上海市,长宁仙霞,,29,27,35,20,25,51,,63,62,17,13,6,7,0.2,0.3
2026-01-21T2100,3274A,121.7964,31.0507,上海市,浦东惠南,,26,26,33,14,21,59,,64,62,18,19,4,4,0.6,0.6
2026-01-21T2100,3544A,121.4891,30.925,上海市,奉贤南桥新城,,36,33,39,25,27,59,,65,63,17,19,2,3,0.5,0.5
2026-01-21T2100,4183A,121.417401,31.16637,上海市,冠生园路458号,,30,28,35,21,25,63,,66,66,19,20,4,4,0.6,0.6
2026-01-21T2100,4205A,121.541914,31.268301,上海市,宁武路151号,,26,26,33,16,24,60,,64,64,18,20,5,5,0.6,0.7
2026-01-21T2100,2382A,117.9758,28.4439,上饶市,市监测站,,38,36,24,26,14,57,,60,57,16,17,4,5,/,/
2026-01-21T2100,2383A,117.9521,28.4637,上饶市,凤凰光学,,45,45,29,24,14,47,,49,46,17,18,8,8,0.6,0.5
2026-01-21T2100,3685A,117.897,28.4316,上饶市,双创科技城,,48,40,25,33,22,55,,60,57,21,20,4,4,0.8,0.7
2026-01-21T2100,4211A,118.190438,28.444845,上饶市,裕丰大道,,47,47,26,28,22,50,,53,53,21,18,9,8,0.7,0.6
2026-01-21T2100,1669A,113.5821,24.7733,韶关市,市八中,,15,15,21,6,10,20,,23,22,17,16,6,7,0.7,0.6
2026-01-21T2100,1671A,113.5916,24.7973,韶关市,园林处,,29,29,20,18,11,27,,24,24,16,16,7,7,/,/
2026-01-21T2100,1673A,113.5971,24.6864,韶关市,曲江监测站,,28,28,19,18,10,30,,26,26,19,15,25,13,0.6,0.6
2026-01-21T2100,2809A,113.6668,24.7756,韶关市,大学路288号,,18,18,17,12,11,39,,26,25,14,16,6,5,/,/
2026-01-21T2100,3622A,113.5556,24.8082,韶关市,碧湖山庄,,29,29,21,18,11,19,,23,22,17,15,6,6,0.7,0.6
2026-01-21T2100,2464A,111.5277,27.2442,邵阳市,市化工厂,细颗粒物(PM2.5),52,52,44,36,37,55,,59,58,13,13,6,7,0.3,0.4
2026-01-21T2100,2466A,111.4327,27.2276,邵阳市,市环保局,细颗粒物(PM2.5),55,39,31,39,37,55,,62,62,10,10,1,2,0.9,0.9
2026-01-21T2100,4218A,111.446,27.2472,邵阳市,北塔二期4-26地块,细颗粒物(PM2.5),64,,32,46,41,51,,58,58,8,8,6,6,1.2,1.2
2026-01-21T2100,4219A,111.4739,27.2282,邵阳市,邵水西路287号,细颗粒物(PM2.5),60,,38,43,35,51,,60,58,11,10,8,8,0.7,0.8
2026-01-21T2100,1247A,120.6053,29.9927,绍兴市,城东开发委,细颗粒物(PM2.5),52,49,45,36,35,54,,65,64,30,18,9,7,0.7,0.6
2026-01-21T2100,2921A,120.5482,30.0003,绍兴市,树下王站,,46,45,41,32,32,50,,59,58,29,21,7,6,0.8,0.7
2026-01-21T2100,3408A,120.5685,29.936,绍兴市,绍兴中专,细颗粒物(PM2.5),53,49,42,37,31,54,,65,63,24,14,8,7,0.7,0.7
2026-01-21T2100,3409A,120.4905,30.086,绍兴市,柯桥区政府,,50,45,46,35,38,57,,69,67,29,21,7,6,0.5,0.5
2026-01-21T2100,3410A,120.8751,30.0249,绍兴市,重华小学,,50,47,42,35,32,52,,63,60,36,25,7,6,0.6,0.6
2026-01-21T2100,3411A,120.837,30.0137,绍兴市,上虞中学,细颗粒物(PM2.5),54,43,41,38,36,54,,60,57,30,21,8,7,0.5,0.5
2026-01-21T2100,3560A,120.4715,30.0414,绍兴市,柯桥妇保,,48,45,46,33,34,57,,68,66,25,17,8,5,0.4,0.3
2026-01-21T2100,3658A,120.6156,30.0762,绍兴市,袍江中学,,45,42,47,31,37,51,,63,60,30,20,7,3,0.6,0.6
2026-01-21T2100,1356A,114.0948,22.5506,深圳市,通心岭子站,,49,49,50,20,26,31,,35,34,35,23,9,8,0.7,0.7
2026-01-21T2100,1357A,114.1153,22.5713,深圳市,洪湖,,46,46,51,21,27,33,,34,33,38,28,8,8,0.8,0.8
2026-01-21T2100,1358A,113.9823,22.5398,深圳市,华侨城,,36,36,43,20,30,34,,40,40,34,26,/,/,/,/
2026-01-21T2100,1359A,113.9181,22.517,深圳市,南海子站,,44,44,54,23,33,29,,42,41,40,27,6,6,0.9,0.9
2026-01-21T2100,1360A,114.2345,22.565,深圳市,盐田,,37,37,49,16,26,51,,46,46,20,19,8,7,0.6,0.8
2026-01-21T2100,1363A,114.4911,22.5381,深圳市,南澳,,20,19,40,9,23,62,,63,63,13,17,/,/,/,/
2026-01-21T2100,1364A,114.41,22.6346,深圳市,葵涌,,24,24,36,10,20,51,,53,53,15,17,8,8,0.7,0.8
2026-01-21T2100,1365A,114.2967,22.5978,深圳市,梅沙,,36,36,42,16,23,48,,50,50,22,22,/,/,/,/
2026-01-21T2100,1366A,114.0563,22.7353,深圳市,观澜,,38,38,54,15,29,34,,40,39,33,27,8,8,0.7,0.8
2026-01-21T2100,3305A,114.0614,22.556,深圳市,莲花,,42,42,47,23,30,29,,35,33,35,27,/,/,/,/
2026-01-21T2100,3306A,114.0144,22.6163,深圳市,民治,,36,36,48,20,32,38,,44,43,31,25,/,/,/,/
