timepoint,stationcode,longitude,latitude,area,positionname,primarypollutant,aqi,pm10,pm10_24h,pm2_5,pm2_5_24h,o3,o3_24h,o3_8h,o3_8h_24h,no2,no2_24h,so2,so2_24h,co,co_24h
2026-02-13T0400,2568A,102.2503,31.8896,阿坝藏族羌族自治州,马师校,,32,32,19,6,9,72,,,,2,5,4,4,0.4,0.4
2026-02-13T0400,3994A,102.2174,31.9016,阿坝藏族羌族自治州,马尔康中学西区,,24,20,20,6,8,75,,,,3,5,5,5,0.4,0.4
2026-02-13T0400,2695A,80.2899,41.1684,阿克苏地区,电视台,颗粒物(PM10),219,363,396,112,114,31,,,,38,31,18,11,1.1,1.1
2026-02-13T0400,2696A,80.2592,41.1541,阿克苏地区,艺术中心,颗粒物(PM10),236,375,364,134,119,11,,,,70,37,6,6,1.5,0.9
2026-02-13T0400,2205A,105.699,38.8409,阿拉善盟,蒙二幼,,35,35,62,6,14,86,,,,5,10,10,10,0.4,0.5
2026-02-13T0400,2206A,105.7198,38.8508,阿拉善盟,环保局新楼,,28,28,58,7,15,85,,,,3,5,8,9,0.4,0.4
2026-02-13T0400,2708A,88.1266,47.8515,阿勒泰地区,市站,,25,14,28,3,13,78,,,,10,22,2,2,0.1,0.2
2026-02-13T0400,4166A,88.1198,47.7931,阿勒泰地区,阿勒泰路33号,,26,22,36,18,14,69,,,,14,18,4,4,0.3,0.4
2026-02-13T0400,2630A,80.1171,32.4999,阿里地区,阿里监测站,,18,,3,7,6,56,,,,2,6,11,11,0.3,0.3
2026-02-13T0400,3192A,80.0906,32.5029,阿里地区,阿里藏医院,,21,10,9,3,4,66,,,,8,6,18,11,0.5,0.4
2026-02-13T0400,2644A,109.0088,32.6974,安康市,汉滨区检察院,,50,50,68,33,38,33,,,,7,13,3,3,0.5,0.6
2026-02-13T0400,4054A,109.0324,32.6913,安康市,市邮政管理局,颗粒物(PM10),58,65,83,38,43,28,,,,19,24,4,5,0.7,1
2026-02-13T0400,2291A,117.0806,30.5181,安庆市,环科院,颗粒物(PM10),73,96,99,48,50,38,,,,40,44,7,7,0.6,0.7
2026-02-13T0400,2292A,117.0331,30.5118,安庆市,马山宾馆,细颗粒物(PM2.5),73,90,104,53,58,40,,,,22,37,5,6,0.7,0.7
2026-02-13T0400,2294A,116.9897,30.6146,安庆市,安庆大学,细颗粒物(PM2.5),83,110,100,61,47,21,,,,45,30,6,5,1.2,0.8
2026-02-13T0400,3173A,117.0598,30.5351,安庆市,市人大,颗粒物(PM10),80,109,110,56,53,42,,,,29,35,6,7,0.6,0.6
2026-02-13T0400,3123A,105.9408,26.2431,安顺市,凤凰山,细颗粒物(PM2.5),70,57,40,51,26,55,,,,8,10,12,14,0.5,0.6
2026-02-13T0400,3124A,105.9443,26.2567,安顺市,金钟山,细颗粒物(PM2.5),69,,27,50,26,52,,,,7,9,12,14,0.8,0.8
2026-02-13T0400,3125A,105.8983,26.248,安顺市,娄家坡,细颗粒物(PM2.5),69,55,37,50,27,54,,,,9,10,23,18,0.8,0.8
2026-02-13T0400,1819A,114.3552,36.1017,安阳市,红庙街,细颗粒物(PM2.5),140,176,148,107,78,22,,,,42,34,6,11,1.2,1.2
2026-02-13T0400,1820A,114.361,36.0681,安阳市,银杏小区,细颗粒物(PM2.5),117,167,147,88,76,19,,,,36,32,7,11,1.4,1.1
2026-02-13T0400,3141A,114.3921,36.0879,安阳市,信访局,细颗粒物(PM2.5),142,187,146,108,78,31,,,,33,27,10,12,,1.2
2026-02-13T0400,3669A,114.4706,36.0634,安阳市,左辅环卫站,细颗粒物(PM2.5),132,200,164,100,77,41,,,,30,24,6,9,1.0,1
2026-02-13T0400,4117A,114.2918,36.0769,安阳市,钢三路198号,颗粒物(PM10),120,189,172,88,74,26,,,,31,32,9,11,1.5,1.1
2026-02-13T0400,1748A,123.0441,41.1201,鞍山市,深沟寺,细颗粒物(PM2.5),110,130,124,83,77,97,,,,18,30,8,14,0.9,1.1
2026-02-13T0400,1749A,123.011,41.0931,鞍山市,太阳城,细颗粒物(PM2.5),118,126,128,89,89,116,,,,17,32,14,18,0.9,1.2
2026-02-13T0400,1750A,123.0483,41.1445,鞍山市,太平,细颗粒物(PM2.5),109,121,129,82,85,60,,,,32,43,9,15,1.1,1.4
2026-02-13T0400,1751A,122.964,41.0968,鞍山市,铁西三道街,细颗粒物(PM2.5),109,132,154,82,97,93,,,,37,50,26,21,1.0,1.4
2026-02-13T0400,1753A,123.0219,41.0822,鞍山市,明达新区,细颗粒物(PM2.5),122,136,127,92,86,113,,,,20,34,12,17,0.8,1.2
2026-02-13T0400,4201A,122.944647,41.082639,鞍山市,兴盛南路290号,细颗粒物(PM2.5),107,120,150,80,100,104,,,,24,49,17,21,1.2,1.5
2026-02-13T0400,2195A,107.4206,40.7609,巴彦淖尔市,附二中,颗粒物(PM10),65,80,77,18,26,58,,,,7,11,6,7,0.3,0.4
2026-02-13T0400,2196A,107.37,40.7372,巴彦淖尔市,市环保大楼,颗粒物(PM10),59,67,81,20,24,60,,,,6,10,4,5,0.4,0.4
2026-02-13T0400,1956A,86.1476,41.7529,巴音郭楞蒙古自治州,孔雀公园,颗粒物(PM10),198,346,345,82,83,77,,,,11,37,9,9,0.6,0.8
2026-02-13T0400,1957A,86.1971,41.7166,巴音郭楞蒙古自治州,棉纺厂,颗粒物(PM10),299,419,382,85,80,65,,,,19,21,/,/,/,/
2026-02-13T0400,1958A,86.236,41.7172,巴音郭楞蒙古自治州,经济开发区,颗粒物(PM10),194,337,309,59,46,62,,,,11,15,7,6,0.8,0.6
2026-02-13T0400,3181A,106.776805,31.852614,巴中市,市五中,细颗粒物(PM2.5),84,80,74,62,52,10,,,,25,25,6,6,1.0,1
2026-02-13T0400,3183A,106.7419,31.8654,巴中市,圣泉水务公司,细颗粒物(PM2.5),70,62,62,51,47,23,,,,16,24,6,6,0.9,1
2026-02-13T0400,3616A,106.7617,31.8343,巴中市,市中心医院,细颗粒物(PM2.5),87,82,75,64,53,3,,,,32,31,6,6,1.2,1.1
2026-02-13T0400,2235A,122.7909,45.608,白城市,洮北区环保局,,33,32,81,23,75,58,,,,9,16,4,7,0.3,0.7
2026-02-13T0400,2236A,122.8741,45.5725,白城市,市环保局,,41,41,90,20,63,58,,,,7,13,6,6,0.3,0.6
2026-02-13T0400,2231A,126.4219,41.9172,白山市,喜丰,细颗粒物(PM2.5),87,84,72,64,49,18,,,,68,48,12,15,1.5,1.3
2026-02-13T0400,2232A,126.4082,41.9416,白山市,环保局,细颗粒物(PM2.5),84,70,66,62,52,36,,,,27,32,13,14,1.3,1.3
2026-02-13T0400,2647A,104.1727,36.5448,白银市,第三小学,细颗粒物(PM2.5),98,104,75,73,36,16,,,,55,33,52,23,1.9,1
2026-02-13T0400,2648A,104.1467,36.5482,白银市,动力公司,细颗粒物(PM2.5),80,88,71,59,33,34,,,,34,22,30,18,1.9,1.3
2026-02-13T0400,2512A,106.6102,23.901,百色市,市监测站,,43,35,37,30,31,14,,,,20,17,14,15,0.9,0.8
2026-02-13T0400,2513A,106.6524,23.8842,百色市,市中心血站,细颗粒物(PM2.5),55,,37,39,31,14,,,,17,11,16,15,1.0,0.9
2026-02-13T0400,4133A,106.6273,23.8798,百色市,龙景西路,细颗粒物(PM2.5),52,51,45,36,32,9,,,,21,16,14,16,0.8,0.7
2026-02-13T0400,2270A,117.396,32.9389,蚌埠市,工人疗养院,颗粒物(PM10),73,96,116,44,53,98,,,,15,21,5,6,0.5,0.6
2026-02-13T0400,2271A,117.3606,32.9428,蚌埠市,百货大楼,颗粒物(PM10),74,98,119,45,52,97,,,,14,19,6,7,0.6,0.6
2026-02-13T0400,2273A,117.4183,32.8909,蚌埠市,蚌埠学院,颗粒物(PM10),75,100,114,46,52,104,,,,15,20,5,6,0.5,0.6
2026-02-13T0400,2274A,117.3534,32.9672,蚌埠市,淮上区政府,颗粒物(PM10),96,141,123,50,54,100,,,,14,20,6,7,0.6,0.6
2026-02-13T0400,2275A,117.3143,32.8977,蚌埠市,高新区,细颗粒物(PM2.5),85,105,123,63,63,53,,,,20,19,6,8,0.6,0.6
2026-02-13T0400,3715A,117.3091,32.9314,蚌埠市,蚌埠田家炳中学,颗粒物(PM10),87,123,128,60,61,83,,,,21,22,172,41,0.6,0.6
2026-02-13T0400,1585A,109.8761,40.6533,包头市,市环境监测站,,29,23,98,14,44,9,,,,58,51,6,23,0.6,1.4
2026-02-13T0400,1587A,109.9992,40.5843,包头市,包头八中,细颗粒物(PM2.5),94,110,105,70,56,15,,,,50,52,27,17,2.5,1.3
2026-02-13T0400,1589A,109.8641,40.6288,包头市,惠龙物流,颗粒物(PM10),69,88,100,46,52,3,,,,74,57,11,28,1.0,1.6
2026-02-13T0400,1590A,110.0376,40.5546,包头市,东河鸿龙湾,细颗粒物(PM2.5),89,124,95,66,42,5,,,,91,68,10,12,3.2,1.3
2026-02-13T0400,3283A,109.9154,40.5684,包头市,滨河大厦,颗粒物(PM10),64,78,88,39,42,1,,,,82,56,11,14,1.5,1
2026-02-13T0400,3419A,109.9449,40.6259,包头市,包头市委党校,颗粒物(PM10),64,78,86,38,45,24,,,,58,45,31,21,2.4,1.2
2026-02-13T0400,3683A,109.8332,40.6577,包头市,昆区政府,,48,48,94,22,48,38,,,,34,53,9,26,0.7,1.5
2026-02-13T0400,1931A,107.0802,34.3129,宝鸡市,竹园沟,,46,46,77,23,33,40,,,,17,19,6,6,0.4,0.4
2026-02-13T0400,1933A,107.1429,34.3549,宝鸡市,监测站,颗粒物(PM10),73,95,101,34,35,24,,,,28,29,4,6,0.5,0.6
2026-02-13T0400,1934A,107.1172,34.3759,宝鸡市,技工学校,细颗粒物(PM2.5),64,76,104,46,47,23,,,,22,23,5,8,0.9,0.6
2026-02-13T0400,1936A,107.2025,34.3518,宝鸡市,文理学院,颗粒物(PM10),61,72,96,39,44,25,,,,26,29,4,6,0.5,0.6
2026-02-13T0400,1937A,107.2396,34.3626,宝鸡市,三迪小学,颗粒物(PM10),64,77,117,45,48,21,,,,30,40,3,4,0.7,0.8
2026-02-13T0400,4155A,107.1721,34.3558,宝鸡市,滨河北路,颗粒物(PM10),66,82,108,39,44,30,,,,16,22,4,6,0.6,0.7
2026-02-13T0400,4308A,107.3898,34.3601,宝鸡市,陈仓区北开路21号,颗粒物(PM10),83,115,137,58,63,24,,,,25,30,41,57,1.0,0.9
2026-02-13T0400,1051A,115.4803,38.8568,保定市,游泳馆,细颗粒物(PM2.5),165,148,125,125,88,5,,,,94,62,,9,1.3,1
2026-02-13T0400,1052A,115.509,38.8895,保定市,华电二区,细颗粒物(PM2.5),183,168,108,138,73,5,,,,72,47,10,7,1.2,1.1
2026-02-13T0400,1053A,115.4588,38.9037,保定市,接待中心,细颗粒物(PM2.5),169,180,114,128,75,4,,,,68,44,7,6,1.1,0.8
2026-02-13T0400,1054A,115.4484,38.8344,保定市,地表水厂,细颗粒物(PM2.5),185,234,150,139,79,11,,,,82,54,14,8,1.1,0.8
2026-02-13T0400,3581A,115.3136,38.9511,保定市,满城区生态环境分局,细颗粒物(PM2.5),150,178,140,115,72,3,,,,70,44,9,8,1.6,1.2
2026-02-13T0400,3582A,115.4709,38.7628,保定市,清苑区第二中学,细颗粒物(PM2.5),169,226,174,128,89,20,,,,72,46,18,12,1.1,0.8
2026-02-13T0400,3583A,115.6231,39.0223,保定市,徐水物探局,细颗粒物(PM2.5),152,188,171,116,92,3,,,,60,51,19,14,1.3,1.1
2026-02-13T0400,4004A,115.4199,38.8665,保定市,双鹰农机,细颗粒物(PM2.5),196,261,161,147,86,18,,,,77,45,11,7,1.4,0.8
2026-02-13T0400,4034A,115.515,38.8589,保定市,植保所站,细颗粒物(PM2.5),147,,122,112,76,0,,,,94,59,6,4,1.4,1.1
2026-02-13T0400,2594A,99.1589,25.1137,保山市,市环境监测站,,22,20,24,11,12,68,,,,5,9,4,5,0.3,0.4
2026-02-13T0400,2595A,99.1616,25.1381,保山市,市环保局,,24,17,26,11,12,74,,,,3,5,3,3,0.4,0.5
2026-02-13T0400,1867A,109.1435,21.4085,北海市,海滩公园,,33,33,45,7,22,93,,,,8,12,2,3,0.6,0.7
2026-02-13T0400,1868A,109.0983,21.466,北海市,新市环保局,,34,34,36,10,20,90,,,,8,13,7,8,0.5,0.6
2026-02-13T0400,1869A,109.1775,21.5232,北海市,北海工业园,,39,34,41,27,23,79,,,,6,8,6,6,0.6,0.7
2026-02-13T0400,3400A,109.1844,21.4396,北海市,龙潭自来水厂,,30,30,41,16,26,86,,,,4,9,2,3,0.7,0.8
2026-02-13T0400,1001A,116.3611,39.8786,北京市,万寿西宫,颗粒物(PM10),68,86,95,45,53,40,,,,39,41,4,5,0.6,0.7
2026-02-13T0400,1003A,116.4174,39.9289,北京市,东四,颗粒物(PM10),63,76,92,40,47,30,,,,40,36,6,7,0.7,0.8
2026-02-13T0400,1004A,116.4073,39.8858,北京市,天坛,细颗粒物(PM2.5),70,88,92,51,50,13,,,,59,39,2,4,0.9,0.8
2026-02-13T0400,1005A,116.4622,39.9364,北京市,农展馆,细颗粒物(PM2.5),78,101,92,57,50,6,,,,72,38,6,8,1.0,0.8
2026-02-13T0400,1006A,116.3399,39.9293,北京市,官园,颗粒物(PM10),70,89,91,47,50,31,,,,42,38,6,6,0.6,0.6
2026-02-13T0400,1007A,116.2879,39.9613,北京市,海淀万柳,颗粒物(PM10),71,91,86,51,47,3,,,,74,51,3,5,0.9,0.8
2026-02-13T0400,1008A,116.6635,40.1349,北京市,顺义新城,颗粒物(PM10),57,64,79,27,39,40,,,,20,28,6,7,0.5,0.6
2026-02-13T0400,1009A,116.6275,40.327,北京市,怀柔镇,颗粒物(PM10),60,69,71,38,37,40,,,,17,28,5,5,0.8,0.8
2026-02-13T0400,1010A,116.2295,40.217,北京市,昌平镇,颗粒物(PM10),65,79,75,43,41,3,,,,61,42,3,4,1.0,0.9
2026-02-13T0400,1011A,116.3968,39.982,北京市,奥体中心,颗粒物(PM10),60,69,87,34,46,34,,,,46,50,5,7,0.5,0.7
2026-02-13T0400,3418A,116.8336,40.4095,北京市,密云新城,颗粒物(PM10),54,57,61,27,29,55,,,,8,12,3,4,0.5,0.5
2026-02-13T0400,3671A,116.0879,39.9725,北京市,门头沟三家店,颗粒物(PM10),61,72,81,33,40,32,,,,23,27,4,5,0.5,0.6
2026-02-13T0400,3672A,116.1507,39.8246,北京市,丰台云岗,颗粒物(PM10),68,86,81,36,43,44,,,,33,28,4,4,0.7,0.6
2026-02-13T0400,3674A,115.9578,39.7602,北京市,房山燕山,颗粒物(PM10),57,64,72,33,40,49,,,,14,20,5,5,0.5,0.5
2026-02-13T0400,3675A,116.4669,39.7734,北京市,大兴旧宫,细颗粒物(PM2.5),108,146,116,81,59,6,,,,66,43,4,6,0.8,0.7
2026-02-13T0400,3694A,115.9859,40.4562,北京市,延庆石河营,颗粒物(PM10),63,75,70,40,36,6,,,,22,19,3,5,1.2,0.7
2026-02-13T0400,3695A,116.6151,40.3052,北京市,怀柔新城,细颗粒物(PM2.5),67,72,68,48,41,36,,,,13,18,2,4,0.6,0.6
2026-02-13T0400,3696A,116.2542,39.8764,北京市,丰台小屯,颗粒物(PM10),91,132,100,61,50,2,,,,71,50,4,6,1.0,0.7
2026-02-13T0400,3697A,116.8399,40.3843,北京市,密云镇,颗粒物(PM10),51,52,64,28,31,40,,,,18,27,4,4,0.5,0.6
2026-02-13T0400,4057A,115.9423,40.4431,北京市,延庆百泉,颗粒物(PM10),65,80,65,42,34,17,,,,18,17,3,3,0.8,0.6
2026-02-13T0400,4058A,116.6598,39.9164,北京市,通州新华,细颗粒物(PM2.5),87,112,103,64,55,1,,,,83,52,6,5,1.1,0.9
2026-02-13T0400,4182A,116.1942,39.9158,北京市,石景山八角,颗粒物(PM10),65,80,90,38,44,20,,,,42,39,5,6,0.5,0.6
2026-02-13T0400,4194A,117.078628,40.151726,北京市,平谷新城,细颗粒物(PM2.5),73,93,106,53,56,44,,,,21,28,3,6,0.7,0.8
2026-02-13T0400,1761A,123.8274146,41.31234549,本溪市,大峪,细颗粒物(PM2.5),97,120,100,72,57,53,,,,32,37,8,11,1.0,1.1
2026-02-13T0400,1763A,123.7169,41.3094,本溪市,彩屯,细颗粒物(PM2.5),120,118,95,91,69,56,,,,28,39,8,19,1.4,2.3
2026-02-13T0400,1764A,123.7672166,41.28649327,本溪市,东明,细颗粒物(PM2.5),114,93,84,86,64,40,,,,38,30,10,12,1.4,1.2
2026-02-13T0400,1765A,123.799345,41.266614,本溪市,新立屯,细颗粒物(PM2.5),102,102,77,76,55,84,,,,23,30,12,13,0.8,0.8
2026-02-13T0400,1766A,123.829144,41.336777,本溪市,威宁,细颗粒物(PM2.5),104,133,103,78,63,27,,,,32,31,5,9,1.1,1
2026-02-13T0400,2587A,105.287,27.3133,毕节市,八中,,49,38,47,34,32,75,,,,7,8,9,9,0.6,0.7
2026-02-13T0400,2588A,105.3079,27.2987,毕节市,师专,,40,36,44,28,28,77,,,,8,10,8,8,0.5,0.6
2026-02-13T0400,4263A,105.3688,27.3598,毕节市,工业大道,,46,46,46,29,33,86,,,,9,9,9,9,/,/
2026-02-13T0400,1629A,117.9961,37.3604,滨州市,第二水厂,细颗粒物(PM2.5),119,161,149,90,77,57,,,,29,29,25,16,0.9,0.9
2026-02-13T0400,1630A,117.9789,37.3931,滨州市,北中新校,细颗粒物(PM2.5),99,136,142,74,72,63,,,,31,30,16,12,0.8,0.8
2026-02-13T0400,3514A,117.9379,37.3959,滨州市,中海酒店,细颗粒物(PM2.5),104,146,148,78,75,64,,,,37,36,15,16,1.0,1.1
2026-02-13T0400,3515A,117.9381509,37.35547456,滨州市,开发区一中,细颗粒物(PM2.5),112,158,162,84,74,57,,,,24,33,28,20,1.0,0.9
2026-02-13T0400,3516A,118.0914,37.6938,滨州市,金海六路,细颗粒物(PM2.5),159,203,180,121,102,48,,,,49,60,21,17,1.0,1
2026-02-13T0400,4028A,117.9955,37.3752,滨州市,滨州市西街道办事处,细颗粒物(PM2.5),110,146,152,83,78,47,,,,25,27,14,14,1.0,0.9
2026-02-13T0400,2311A,115.8071,33.8399,亳州市,污水处理厂,细颗粒物(PM2.5),89,107,115,66,52,78,,,,18,18,6,6,0.6,0.6
2026-02-13T0400,2312A,115.7789,33.8519,亳州市,三国揽胜宫,,,,135,,55,,,114,,,22,,5,,0.6
2026-02-13T0400,3332A,115.7631,33.803,亳州市,亳州学院,颗粒物(PM10),84,117,122,61,55,68,,,,14,14,5,5,0.6,0.6
2026-02-13T0400,2693A,82.0482,44.8553,博尔塔拉蒙古自治州,市党校,,41,41,40,9,10,75,,,,9,12,2,2,0.5,0.5
2026-02-13T0400,2694A,82.0805,44.8966,博尔塔拉蒙古自治州,市环保局,,46,46,50,10,10,65,,,,11,16,5,6,0.6,0.7
2026-02-13T0400,1071A,116.8733,38.2922,沧州市,沧县城建局,细颗粒物(PM2.5),137,157,164,104,95,60,,,,41,53,14,14,1.0,1.1
2026-02-13T0400,1072A,116.8462,38.3189,沧州市,电视转播站,细颗粒物(PM2.5),140,145,164,107,110,41,,,,49,46,9,11,0.9,1
2026-02-13T0400,1073A,116.8588,38.3161,沧州市,市环保局,细颗粒物(PM2.5),117,160,170,88,92,50,,,,35,49,12,14,0.9,1.1
2026-02-13T0400,3324A,116.8011,38.294,沧州市,河北水利电力学院,细颗粒物(PM2.5),122,173,172,92,94,54,,,,37,33,15,15,0.9,0.9
2026-02-13T0400,2622A,97.1813,31.1289,昌都市,昌都监测站,,22,9,16,3,8,70,,,,2,4,2,2,0.5,0.6
2026-02-13T0400,3719A,97.1707,31.1428,昌都市,昌都会议中心,,24,8,11,3,8,76,,,,1,2,5,5,0.3,0.3
2026-02-13T0400,2692A,87.2722,44.0298,昌吉回族自治州,新区政务中心,细颗粒物(PM2.5),98,95,114,73,81,92,,,,15,25,4,5,0.9,1.2
2026-02-13T0400,3613A,87.3069,44.0093,昌吉回族自治州,亚心广场,细颗粒物(PM2.5),107,92,114,80,85,101,,,,11,29,7,10,1.0,1.2
2026-02-13T0400,4164A,87.2057,43.9289,昌吉回族自治州,财政所,细颗粒物(PM2.5),137,133,113,104,73,74,,,,15,18,6,7,1.1,0.9
2026-02-13T0400,1120A,125.2874,43.9024,长春市,客车厂,细颗粒物(PM2.5),198,150,103,148,93,67,,,,35,45,16,15,1.4,1.2
2026-02-13T0400,1121A,125.2943,43.8508,长春市,邮电学院,细颗粒物(PM2.5),190,170,108,143,94,60,,,,28,40,15,15,1.3,1.2
2026-02-13T0400,1122A,125.3648,43.8745,长春市,劳动公园,细颗粒物(PM2.5),186,186,132,140,96,68,,,,30,36,20,17,1.7,1.8
2026-02-13T0400,1123A,125.3233,43.8781,长春市,园林处,细颗粒物(PM2.5),198,152,111,148,98,67,,,,31,40,16,18,1.2,1.1
2026-02-13T0400,1124A,125.4604,43.7904,长春市,净月潭,细颗粒物(PM2.5),132,123,96,100,81,64,,,,22,24,6,8,1.1,0.9
2026-02-13T0400,1126A,125.38,43.8422,长春市,经开区环卫处,细颗粒物(PM2.5),172,158,115,130,93,65,,,,28,42,8,9,1.1,1.2
2026-02-13T0400,1127A,125.234,43.7761,长春市,高新区管委会,细颗粒物(PM2.5),186,145,122,140,99,68,,,,30,41,13,11,1.2,1.7
2026-02-13T0400,1128A,125.1695,43.83,长春市,岱山公园,细颗粒物(PM2.5),206,161,118,156,112,62,,,,31,41,10,11,1.3,1.2
2026-02-13T0400,4281A,125.334645,43.916281,长春市,北亚泰大街1068号,细颗粒物(PM2.5),207,168,119,157,109,68,,,,28,45,14,14,1.4,1.4
2026-02-13T0400,1335A,113.082,28.2421,长沙市,经开区环保局,颗粒物(PM10),51,51,64,34,39,31,,,,12,21,2,2,0.7,0.7
2026-02-13T0400,1336A,112.8873,28.2202,长沙市,高开区环保局,细颗粒物(PM2.5),75,61,66,55,47,16,,,,26,22,5,5,1.6,1.2
2026-02-13T0400,1337A,113.0785,28.2012,长沙市,马坡岭,细颗粒物(PM2.5),55,53,66,39,44,32,,,,12,20,3,4,0.8,0.9
2026-02-13T0400,1338A,112.9448,28.1894,长沙市,湖南师范大学,颗粒物(PM10),59,68,66,34,33,19,,,,22,24,4,4,1.5,1.1
2026-02-13T0400,1339A,113.0177,28.1322,长沙市,雨花区环保局,细颗粒物(PM2.5),62,57,57,44,38,24,,,,31,26,6,7,1.3,1
2026-02-13T0400,1340A,112.9795,28.2593,长沙市,伍家岭,细颗粒物(PM2.5),78,62,77,57,49,6,,,,29,26,4,5,1.1,1
2026-02-13T0400,1341A,113.002,28.1944,长沙市,火车新站,细颗粒物(PM2.5),75,64,66,55,45,5,,,,33,31,1,2,1.2,1.1
2026-02-13T0400,1342A,112.9846,28.1177,长沙市,天心区环保局,细颗粒物(PM2.5),79,66,65,58,47,16,,,,28,29,5,6,1.1,0.9
2026-02-13T0400,1343A,112.8906,28.1307,长沙市,湖南中医药大学,细颗粒物(PM2.5),70,69,65,51,41,9,,,,31,26,6,6,1.5,1.1
2026-02-13T0400,1727A,113.1146,36.1547,长治市,清华站,细颗粒物(PM2.5),74,96,89,54,41,60,,,,18,28,12,14,1.0,0.8
2026-02-13T0400,1730A,113.0887,36.2126,长治市,审计局,细颗粒物(PM2.5),84,112,92,62,46,40,,,,51,34,18,21,1.1,0.8
2026-02-13T0400,1731A,113.0845,36.1856,长治市,长治八中,颗粒物(PM10),89,128,111,63,45,39,,,,29,28,17,20,1.1,0.8
2026-02-13T0400,2845A,113.1561,36.1912,长治市,德盛苑,细颗粒物(PM2.5),85,101,88,63,46,84,,,,18,20,19,14,1.3,0.9
2026-02-13T0400,3568A,113.0603,36.0464,长治市,向阳小学,颗粒物(PM10),84,117,114,52,40,58,,,,21,25,32,21,0.9,0.7
2026-02-13T0400,3569A,112.8788,36.315,长治市,屯留一中,细颗粒物(PM2.5),93,103,90,69,41,54,,,,29,27,19,14,1.3,0.8
2026-02-13T0400,4189A,113.113092,36.199482,长治市,英华南巷50号,"颗粒物(PM10),细颗粒物(PM2.5)",80,109,102,59,45,48,,,,23,31,18,17,1.2,0.7
2026-02-13T0400,4190A,113.23666,36.33435,长治市,学府街1号,细颗粒物(PM2.5),84,116,107,62,46,53,,,,39,35,16,25,1.5,1.5
2026-02-13T0400,1854A,111.696,28.9725,常德市,市二中,细颗粒物(PM2.5),107,100,96,80,66,2,,,,28,23,5,6,1.6,1.3
2026-02-13T0400,3138A,111.7152,29.0288,常德市,武陵区永安,细颗粒物(PM2.5),97,90,103,72,72,9,,,,22,25,4,6,1.4,1.3
2026-02-13T0400,3139A,111.6891,28.9881,常德市,鼎城区玉霞,细颗粒物(PM2.5),104,103,95,78,63,2,,,,34,26,4,5,1.4,1.3
2026-02-13T0400,3140A,111.6651,29.0526,常德市,武陵区长庚,细颗粒物(PM2.5),102,88,98,76,72,10,,,,22,25,4,6,1.2,1.1
2026-02-13T0400,1196A,119.9524,31.7586,常州市,市监测站,细颗粒物(PM2.5),109,130,118,82,77,80,,,,26,36,8,8,0.9,0.8
2026-02-13T0400,1200A,119.9351,31.703,常州市,武进监测站,细颗粒物(PM2.5),112,127,110,84,73,88,,,,21,22,8,8,0.9,0.9
2026-02-13T0400,3002A,119.9701,31.813,常州市,行政中心,细颗粒物(PM2.5),112,124,126,84,78,87,,,,23,39,7,7,1.0,1
2026-02-13T0400,3003A,120.0434,31.7726,常州市,经开区,细颗粒物(PM2.5),115,154,128,87,79,50,,,,45,37,5,9,0.9,1
2026-02-13T0400,3010A,119.8919,31.7892,常州市,钟楼,细颗粒物(PM2.5),108,123,112,81,75,87,,,,26,28,7,8,0.9,0.9
2026-02-13T0400,3429A,119.8595,31.706,常州市,武进经发区,细颗粒物(PM2.5),124,136,121,94,83,87,,,,23,25,6,7,0.8,0.9
2026-02-13T0400,3430A,119.5812,31.7256,常州市,金坛城区,细颗粒物(PM2.5),134,147,128,102,86,107,,,,15,18,8,8,0.9,0.9
2026-02-13T0400,4089A,119.9551,31.863,常州市,崇义南街5-H号,细颗粒物(PM2.5),107,112,116,80,78,69,,,,42,43,6,7,1.1,1.2
2026-02-13T0400,2220A,120.4318,41.588,朝阳市,西梁,细颗粒物(PM2.5),180,147,111,136,83,3,,,,64,50,26,20,2.7,1.6
2026-02-13T0400,2221A,120.452,41.565,朝阳市,河畔小区,细颗粒物(PM2.5),100,118,97,75,69,36,,,,29,33,17,16,1.4,1.3
2026-02-13T0400,2222A,120.4176,41.5648,朝阳市,八里堡,细颗粒物(PM2.5),133,122,101,101,80,18,,,,44,45,16,20,1.8,1.7
2026-02-13T0400,3026A,116.6179,23.6608,潮州市,市政府,,,42,50,32,30,,,,,7,9,4,5,0.4,0.5
2026-02-13T0400,4036A,116.646,23.676,潮州市,金山,,45,38,47,31,29,72,,,,11,11,2,3,0.5,0.6
2026-02-13T0400,2473A,113.0116,25.8228,郴州市,市职中,细颗粒物(PM2.5),74,59,42,54,38,0,,,,12,14,4,6,1.0,0.9
2026-02-13T0400,2475A,113.0381,25.8074,郴州市,市审计局,细颗粒物(PM2.5),65,55,43,47,34,1,,,,14,15,1,3,/,/
2026-02-13T0400,2476A,113.0348,25.7757,郴州市,市环保局,细颗粒物(PM2.5),75,58,49,55,39,9,,,,17,17,10,8,0.8,0.8
2026-02-13T0400,4252A,113.0138,25.8011,郴州市,好美居路49号,细颗粒物(PM2.5),67,61,46,48,38,15,,,,15,17,4,5,/,/
2026-02-13T0400,1431A,103.9727,30.7242,成都市,金泉两河,细颗粒物(PM2.5),109,112,81,82,53,34,,,,36,42,2,2,0.9,1
2026-02-13T0400,1432A,104.1423,30.6765,成都市,十里店,细颗粒物(PM2.5),102,104,91,76,54,22,,,,55,39,4,4,0.9,0.7
2026-02-13T0400,1433A,104.0594,30.5765,成都市,三瓦窑,细颗粒物(PM2.5),105,96,82,79,58,5,,,,68,55,3,3,1.1,0.9
2026-02-13T0400,1434A,104.1122,30.6306,成都市,沙河铺,细颗粒物(PM2.5),97,87,84,72,60,31,,,,46,58,4,4,0.6,0.7
2026-02-13T0400,2880A,104.0219,30.6561,成都市,大石西路,细颗粒物(PM2.5),125,111,97,95,68,4,,,,73,48,5,5,1.3,1.1
2026-02-13T0400,3136A,104.2724,30.559,成都市,龙泉驿区区政府,细颗粒物(PM2.5),77,68,66,56,47,70,,,,13,15,6,6,0.4,0.4
2026-02-13T0400,3357A,104.0028,30.6891,成都市,金博路,细颗粒物(PM2.5),90,91,83,67,53,25,,,,46,49,4,5,0.7,0.8
2026-02-13T0400,3359A,104.056,30.5228,成都市,华阳,细颗粒物(PM2.5),110,97,89,83,63,14,,,,59,53,3,3,0.6,0.7
2026-02-13T0400,3488A,104.387954,30.746684,成都市,青石路225号,细颗粒物(PM2.5),89,77,74,66,51,24,,,,53,43,4,5,0.8,1.3
2026-02-13T0400,3489A,104.0788,30.4054,成都市,科学城,细颗粒物(PM2.5),62,66,63,44,44,42,,,,17,17,6,6,0.7,0.7
2026-02-13T0400,4011A,103.8505,30.6946,成都市,光华大道三段,细颗粒物(PM2.5),92,114,102,68,59,31,,,,33,40,3,3,0.9,0.8
2026-02-13T0400,4144A,104.3257,30.6406,成都市,八角井街185号,细颗粒物(PM2.5),74,79,72,54,45,67,,,,20,21,4,4,0.7,0.6
2026-02-13T0400,4224A,104.2433276,30.53529463,成都市,鲸龙路1057号,细颗粒物(PM2.5),72,77,72,52,47,70,,,,14,30,6,5,0.6,0.6
2026-02-13T0400,1062A,117.9531,40.908,承德市,铁路,细颗粒物(PM2.5),59,66,73,42,37,12,,,,33,36,6,12,1.2,1.2
2026-02-13T0400,1063A,117.9397,40.9763,承德市,中国银行,颗粒物(PM10),61,72,72,41,33,12,,,,30,32,4,11,1.0,1.1
2026-02-13T0400,4073A,117.9462,40.95,承德市,杏林街1号,细颗粒物(PM2.5),64,74,65,46,39,13,,,,35,33,6,12,1.2,1.1
2026-02-13T0400,4274A,117.7994,40.9605,承德市,滨河大街98号,颗粒物(PM10),56,62,72,18,35,25,,,,26,34,6,53,0.5,1.4
2026-02-13T0400,2314A,117.4698,30.6617,池州市,池州学院,颗粒物(PM10),63,75,91,42,46,48,,,,27,26,4,6,1.6,1.3
2026-02-13T0400,3237A,117.4918,30.6617,池州市,展览馆,颗粒物(PM10),60,69,86,36,39,14,,,,29,27,2,4,1.3,1
2026-02-13T0400,3333A,117.5626,30.695,池州市,第八中学,颗粒物(PM10),68,85,96,41,42,50,,,,21,25,3,7,1.1,1
2026-02-13T0400,3334A,117.5037,30.6242,池州市,第十二中学,颗粒物(PM10),62,74,95,38,44,38,,,,32,32,5,7,1.7,1
2026-02-13T0400,1744A,118.9229,42.2816,赤峰市,松山一中,细颗粒物(PM2.5),52,39,103,36,58,7,,,,41,52,6,16,1.2,2
2026-02-13T0400,1745A,118.9588,42.2733,赤峰市,哈达街,颗粒物(PM10),56,62,79,15,47,20,,,,40,53,13,26,1.1,1.4
2026-02-13T0400,1746A,118.8792,42.2551,赤峰市,天义路,,46,46,79,15,46,40,,,,15,39,5,13,0.7,1.3
2026-02-13T0400,3058A,119.2656,42.0356,赤峰市,银河街,细颗粒物(PM2.5),145,159,110,111,74,10,,,,37,37,20,20,2.3,1.9
2026-02-13T0400,3286A,118.9359,42.3146,赤峰市,桥北物流园区,,,26,48,11,35,,,,,21,37,3,9,0.9,1.1
2026-02-13T0400,2521A,107.3473,22.4137,崇左市,市环保局江州分局,细颗粒物(PM2.5),62,57,53,44,39,4,,,,14,15,4,5,1.0,1
2026-02-13T0400,4256A,107.375,22.3736,崇左市,石景林东路7号,细颗粒物(PM2.5),67,,40,48,41,6,,,,23,19,2,2,1.1,0.9
2026-02-13T0400,3207A,118.31131,32.3033,滁州市,市政府原办公楼,细颗粒物(PM2.5),75,84,98,55,63,25,,,,26,39,4,6,0.6,0.7
2026-02-13T0400,3331A,118.3268,32.2633,滁州市,图书馆,颗粒物(PM10),73,95,96,52,50,62,,,,23,32,10,9,0.8,0.9
2026-02-13T0400,4101A,118.3196,32.3335,滁州市,银山路666号,细颗粒物(PM2.5),82,76,96,60,64,6,,,,33,28,9,15,0.6,0.8
2026-02-13T0400,4102A,118.3426,32.2979,滁州市,黄山路555号,细颗粒物(PM2.5),85,106,122,63,68,30,,,,30,42,4,6,0.7,0.8
2026-02-13T0400,2606A,101.5379,25.0492,楚雄彝族自治州,市经济开发区,,27,27,28,18,15,42,,,,10,12,2,3,0.3,0.4
2026-02-13T0400,4153A,101.5536,25.0343,楚雄彝族自治州,团结路562号,,26,26,22,18,13,35,,,,19,13,4,5,0.5,0.5
2026-02-13T0400,2549A,107.5087,31.2186,达州市,市环境监测站,细颗粒物(PM2.5),88,82,81,65,51,10,,,,28,39,5,7,0.6,0.7
2026-02-13T0400,2550A,107.4988,31.2132,达州市,凤凰小区,细颗粒物(PM2.5),89,83,87,66,54,9,,,,32,42,4,7,0.6,0.9
2026-02-13T0400,2551A,107.5081,31.1987,达州市,达县机关宾馆,,,,89,,53,,,71,,,47,,6,,0.9
2026-02-13T0400,2552A,107.4644,31.2124,达州市,市政中心,细颗粒物(PM2.5),89,93,89,66,49,4,,,,46,48,3,6,0.8,0.8
2026-02-13T0400,2614A,100.2168,25.5818,大理白族自治州,大理市环境监测站,,25,15,16,7,12,78,,,,6,6,7,7,0.4,0.4
2026-02-13T0400,2615A,100.1542,25.7055,大理白族自治州,大理古城,,26,20,18,18,12,63,,,,8,7,8,8,0.5,0.5
2026-02-13T0400,1109A,121.6119,38.974,大连市,甘井子,细颗粒物(PM2.5),163,179,155,124,109,27,,,,54,52,9,16,0.8,0.8
2026-02-13T0400,1110A,121.565,38.9509,大连市,周水子,细颗粒物(PM2.5),158,172,145,120,104,1,,,,72,57,3,12,1.3,1
2026-02-13T0400,1111A,121.5637,38.8849,大连市,星海三站,细颗粒物(PM2.5),176,163,130,133,109,11,,,,46,29,3,8,1.2,1
2026-02-13T0400,1112A,121.6301,38.9117,大连市,青泥洼桥,细颗粒物(PM2.5),156,170,142,119,105,29,,,,53,43,8,12,1.4,1.1
2026-02-13T0400,1113A,121.6248,38.8643,大连市,傅家庄,细颗粒物(PM2.5),143,164,135,109,96,43,,,,39,33,10,12,0.9,0.8
2026-02-13T0400,1114A,121.5117,38.8636,大连市,七贤岭,细颗粒物(PM2.5),144,156,139,110,100,66,,,,30,31,11,12,1.0,1
2026-02-13T0400,1116A,121.7507,39.1339,大连市,金州,细颗粒物(PM2.5),142,149,138,108,100,63,,,,24,32,13,16,1.5,0.9
2026-02-13T0400,1117A,121.7811,39.0495,大连市,开发区,细颗粒物(PM2.5),163,168,137,124,106,10,,,,51,57,6,8,1.9,1.2
2026-02-13T0400,1118A,121.9762,39.0631,大连市,双D港,细颗粒物(PM2.5),128,122,122,97,94,47,,,,20,36,4,8,1.2,1.1
2026-02-13T0400,4082A,121.2548,38.8188,大连市,旅顺,细颗粒物(PM2.5),149,160,149,114,107,58,,,,29,30,10,12,1.0,1
2026-02-13T0400,1789A,124.8085,46.0381,大庆市,大同区,颗粒物(PM10),57,64,54,24,27,45,,,,12,14,7,10,0.7,0.7
2026-02-13T0400,1790A,125.1166,46.5255,大庆市,龙凤区,,50,50,60,34,42,23,,,,36,29,11,11,0.6,0.6
2026-02-13T0400,1791A,124.8894,46.4007,大庆市,红岗区,,48,48,46,30,27,35,,,,15,19,5,6,0.7,0.7
2026-02-13T0400,1792A,125.1391,46.578,大庆市,萨尔图区,,,,55,,30,,,39,,,38,,11,,0.7
2026-02-13T0400,1793A,124.9026,46.6217,大庆市,让胡路区,颗粒物(PM10),51,51,47,31,33,57,,,,12,23,9,8,0.6,0.6
2026-02-13T0400,3481A,125.127,46.6277,大庆市,萨区政府监测点,颗粒物(PM10),61,71,62,29,26,20,,,,42,24,10,12,1.4,0.8
2026-02-13T0400,1723A,113.2926,40.0759,大同市,云冈宾馆,颗粒物(PM10),73,95,103,42,40,17,,,,48,35,14,19,2.8,1.3
2026-02-13T0400,1724A,113.3437,40.0921,大同市,大同大学,颗粒物(PM10),60,69,104,25,34,66,,,,15,26,10,17,0.6,0.8
2026-02-13T0400,1725A,113.2637,40.129,大同市,安家小村,颗粒物(PM10),86,121,117,46,45,18,,,,42,35,20,24,4.2,1.5
2026-02-13T0400,3282A,113.3399,40.0586,大同市,大同市卫生学校,颗粒物(PM10),62,74,103,24,36,62,,,,20,34,9,17,0.6,0.9
2026-02-13T0400,3565A,113.1371,40.1122,大同市,云冈站,颗粒物(PM10),75,100,88,50,35,23,,,,27,27,25,19,0.7,0.7
2026-02-13T0400,3566A,113.1186,40.2556,大同市,图书馆,,,68,87,37,35,21,,,,,16,7,9,0.8,0.7
2026-02-13T0400,3567A,113.5931,40.0459,大同市,区一中,颗粒物(PM10),68,86,130,37,58,48,,,,16,28,14,29,1.0,1.3
2026-02-13T0400,4199A,113.2798248,40.09972476,大同市,魏都大道141号,颗粒物(PM10),84,118,128,47,48,15,,,,46,46,13,19,3.5,1.6
2026-02-13T0400,2269A,124.1068,50.4091,大兴安岭地区,科技局,,20,20,29,11,15,56,,,,3,6,4,5,0.3,0.3
2026-02-13T0400,3663A,124.117,50.4279,大兴安岭地区,红旗社区,,22,,39,15,25,49,,,,27,30,13,13,0.3,0.4
2026-02-13T0400,1600A,124.33,40.0625,丹东市,江湾东路,细颗粒物(PM2.5),139,144,102,106,74,45,,,,29,31,26,16,3.5,1.5
2026-02-13T0400,1601A,124.4242,40.1513,丹东市,临江后街,细颗粒物(PM2.5),124,124,105,94,76,55,,,,18,28,10,18,1.4,1.5
2026-02-13T0400,1602A,124.3935,40.1461,丹东市,元宝山,细颗粒物(PM2.5),112,114,94,84,67,73,,,,18,24,9,13,1.1,1.1
2026-02-13T0400,1603A,124.3634,40.1093,丹东市,民主桥,细颗粒物(PM2.5),118,123,99,89,68,73,,,,21,29,15,14,1.2,1
2026-02-13T0400,3541A,109.5726195,19.51688767,儋州市,第一中学子站,,22,20,21,8,10,69,,,,2,2,4,4,0.6,0.6
2026-02-13T0400,3542A,109.5567,19.5187,儋州市,东坡学校子站,,25,21,24,7,9,77,,,,1,2,3,4,0.5,0.5
2026-02-13T0400,2616A,98.5611,24.4273,德宏傣族景颇族自治州,德宏州监测站,,46,32,48,32,33,14,,,,39,24,6,7,0.5,0.6
2026-02-13T0400,3677A,98.5887,24.4366,德宏傣族景颇族自治州,芒市人民政府综合楼,,40,40,55,17,28,34,,,,14,13,4,4,0.8,0.8
2026-02-13T0400,1901A,104.424,31.1209,德阳市,东山公园,细颗粒物(PM2.5),90,76,71,67,52,69,,,,14,16,3,4,0.5,0.5
2026-02-13T0400,1902A,104.3827,31.1318,德阳市,西小区,细颗粒物(PM2.5),94,116,104,70,69,38,,,,35,46,4,6,0.8,0.9
2026-02-13T0400,1904A,104.3553,31.1091,德阳市,耐火材料厂,细颗粒物(PM2.5),95,88,102,71,78,46,,,,30,39,2,3,0.7,0.8
2026-02-13T0400,4145A,104.4144,31.1495,德阳市,市林业局,细颗粒物(PM2.5),87,78,75,64,52,57,,,,17,31,6,6,0.6,0.8
2026-02-13T0400,1622A,116.3034,37.4675,德州市,儿童乐园,细颗粒物(PM2.5),129,183,175,98,88,70,,,,29,29,17,17,1.2,1.2
2026-02-13T0400,1624A,116.2992,37.4449,德州市,监理站,细颗粒物(PM2.5),132,188,177,100,88,70,,,,34,34,19,17,0.9,0.9
2026-02-13T0400,3066A,116.2722,37.438,德州市,九衢泉纯净水厂,细颗粒物(PM2.5),142,183,170,108,91,60,,,,37,37,12,12,1.0,1
2026-02-13T0400,3371A,116.3693,37.44,德州市,开发区人民医院,细颗粒物(PM2.5),142,195,178,108,89,61,,,,33,26,25,17,0.9,0.9
2026-02-13T0400,3511A,116.5687,37.3331,德州市,陵城艺术中心,细颗粒物(PM2.5),109,161,167,82,82,72,,,,28,31,21,18,1.0,0.9
2026-02-13T0400,4292A,116.352738,37.420875,德州市,新河东路,细颗粒物(PM2.5),135,197,177,103,82,46,,,,43,37,21,18,1.0,1
2026-02-13T0400,2621A,99.7054,27.8319,迪庆藏族自治州,迪庆州站,,22,20,28,15,19,70,,,,5,8,5,5,0.6,0.7
2026-02-13T0400,3180A,99.7122,27.8129,迪庆藏族自治州,质量技术监督局,,25,19,23,13,13,78,,,,7,8,4,5,0.5,0.5
2026-02-13T0400,4257A,104.6092,35.5962,定西市,将台街,细颗粒物(PM2.5),80,81,105,59,59,17,,,,26,29,12,20,1.1,1.1
2026-02-13T0400,4309A,104.6159,35.5701,定西市,正龙路62号,细颗粒物(PM2.5),75,94,99,55,55,28,,,,12,15,6,14,1.2,0.9
2026-02-13T0400,1390A,113.7943,23.0132,东莞市,东城石井,,40,40,41,26,26,74,,,,19,20,4,4,0.6,0.6
2026-02-13T0400,1391A,113.7384,22.9659,东莞市,南城西平,,46,43,39,32,28,54,,,,26,23,5,5,0.6,0.6
2026-02-13T0400,3319A,113.7283,23.041,东莞市,万江金泰,,42,42,48,27,29,62,,,,17,20,5,5,0.7,0.7
2026-02-13T0400,4129A,113.8666,23.1062,东莞市,裕兴路,,37,37,42,17,23,91,,,,12,16,5,5,0.7,0.7
2026-02-13T0400,4130A,114.0076,22.9739,东莞市,教育路1号,,40,40,45,18,25,107,,,,11,19,4,4,0.6,0.6
2026-02-13T0400,4131A,113.7981,22.8124,东莞市,长怡路1号,颗粒物(PM10),52,54,46,30,26,63,,,,13,16,6,6,0.6,0.6
2026-02-13T0400,1666A,118.6612,37.4313,东营市,市环保局,细颗粒物(PM2.5),148,175,149,113,85,41,,,,48,45,20,18,1.1,1
2026-02-13T0400,3036A,118.6903,37.4337,东营市,开发区管委会,细颗粒物(PM2.5),135,173,144,103,76,45,,,,52,44,18,16,1.0,0.9
2026-02-13T0400,3365A,118.5721,37.5654,东营市,垦利区民丰路,细颗粒物(PM2.5),148,183,154,113,86,46,,,,47,49,17,15,1.2,1.1
2026-02-13T0400,3498A,118.5063,37.8606,东营市,河口城区,细颗粒物(PM2.5),183,217,176,138,96,36,,,,58,44,13,14,1.3,1.2
2026-02-13T0400,3646A,118.4979,37.4623,东营市,胜利站,细颗粒物(PM2.5),107,149,136,80,76,46,,,,49,66,19,16,1.4,1.2
2026-02-13T0400,3734A,118.5753,37.4405,东营市,理想之城,细颗粒物(PM2.5),149,185,153,114,81,34,,,,57,53,11,13,1.1,1
2026-02-13T0400,1591A,110.0024,39.8127,鄂尔多斯市,综合楼,颗粒物(PM10),63,75,77,14,18,60,,,,17,17,7,6,0.4,0.4
2026-02-13T0400,1592A,109.9485,39.8259,鄂尔多斯市,巴音孟克林场办事处,颗粒物(PM10),63,75,72,19,21,77,,,,9,13,4,5,0.3,0.4
2026-02-13T0400,1593A,109.7734,39.5987,鄂尔多斯市,康泽苑,颗粒物(PM10),60,70,77,26,21,49,,,,13,13,4,4,0.3,0.4
2026-02-13T0400,1594A,109.8121,39.5987,鄂尔多斯市,华泰汽车城,颗粒物(PM10),57,63,76,21,23,30,,,,20,18,7,7,0.5,0.4
2026-02-13T0400,1595A,109.9734,39.7884,鄂尔多斯市,奥林花园,颗粒物(PM10),62,73,80,19,17,53,,,,24,27,6,4,0.4,0.4
2026-02-13T0400,2436A,114.894,30.3989,鄂州市,市政府,细颗粒物(PM2.5),79,95,104,58,67,28,,,,30,37,19,18,1.4,0.9
2026-02-13T0400,2437A,114.8986,30.3714,鄂州市,赵家坝,颗粒物(PM10),75,100,100,53,59,48,,,,4,20,9,14,1.0,1
2026-02-13T0400,3654A,114.8093,30.4091,鄂州市,精准医疗中心,颗粒物(PM10),71,91,105,48,63,43,,,,20,32,57,21,0.8,1
2026-02-13T0400,2454A,109.4978,30.2979,恩施土家族苗族自治州,湖北民院,细颗粒物(PM2.5),70,70,68,51,42,16,,,,11,9,6,6,0.9,0.8
2026-02-13T0400,3549A,109.5061,30.3771,恩施土家族苗族自治州,龙凤新区,颗粒物(PM10),58,65,63,36,36,8,,,,6,11,7,7,0.7,0.7
2026-02-13T0400,2499A,108.3411,21.6159,防城港市,沙万,颗粒物(PM10),52,54,67,27,36,34,,,,35,30,7,7,0.7,0.8
2026-02-13T0400,2500A,108.3515,21.7733,防城港市,防城档案局,细颗粒物(PM2.5),69,52,64,50,47,21,,,,15,16,5,5,0.9,1
2026-02-13T0400,2501A,108.3506,21.6414,防城港市,大海花园,,40,36,64,28,46,48,,,,25,25,7,8,0.6,1
2026-02-13T0400,1371A,113.1293,23.0065,佛山市,湾梁,,45,41,44,31,31,49,,,,25,26,/,/,/,/
2026-02-13T0400,1372A,113.1082,23.0477,佛山市,华材职中,,42,41,44,29,26,53,,,,25,27,6,6,0.4,0.5
2026-02-13T0400,1373A,113.1439,23.045,佛山市,南海气象局,,49,37,41,34,30,53,,,,22,25,/,/,/,/
2026-02-13T0400,1374A,113.2879,22.8094,佛山市,顺德苏岗,细颗粒物(PM2.5),52,50,43,36,26,54,,,,24,25,/,/,0.7,0.7
2026-02-13T0400,1376A,112.8384,22.8678,佛山市,高明孔堂,,36,36,35,20,22,72,,,,10,17,/,/,/,/
2026-02-13T0400,1377A,112.8835,23.1584,佛山市,三水监测站,,48,48,42,32,27,54,,,,19,22,3,3,0.5,0.6
2026-02-13T0400,1378A,112.8668,23.185,佛山市,三水云东海,,46,46,40,29,24,59,,,,23,24,/,/,/,/
2026-02-13T0400,3625A,113.2568,22.7629,佛山市,容桂街道办,,50,48,39,35,26,52,,,,19,21,/,/,/,/
2026-02-13T0400,1282A,119.2681,26.0506,福州市,师大,,44,44,52,28,30,73,,,,15,18,3,4,0.4,0.5
2026-02-13T0400,1283A,119.2983,26.1028,福州市,五四北路,细颗粒物(PM2.5),53,40,51,37,35,84,,,,18,19,5,5,0.5,0.6
2026-02-13T0400,1284A,119.2648,26.0769,福州市,杨桥西路,,42,42,51,28,32,74,,,,17,19,4,4,/,/
2026-02-13T0400,3048A,119.5799,26.0937,福州市,九龙,,33,33,43,22,29,66,,,,16,14,4,4,0.5,0.5
2026-02-13T0400,3526A,119.5188,25.9666,福州市,吴航,细颗粒物(PM2.5),59,66,52,42,31,75,,,,24,17,5,5,0.6,0.6
2026-02-13T0400,4104A,119.3106,26.0648,福州市,路通桥巷6号,细颗粒物(PM2.5),57,53,58,40,38,72,,,,19,19,/,/,/,/
2026-02-13T0400,1755A,123.7974,41.8494,抚顺市,望花区,细颗粒物(PM2.5),196,185,151,147,104,2,,,,64,54,11,16,2.0,1.7
2026-02-13T0400,1756A,123.9161,41.8827,抚顺市,顺城区,细颗粒物(PM2.5),183,155,122,138,98,4,,,,60,54,11,16,2.2,1.7
2026-02-13T0400,1757A,124.0437,41.8615,抚顺市,东洲区,细颗粒物(PM2.5),94,92,92,70,60,38,,,,25,27,8,14,1.0,1.2
2026-02-13T0400,1758A,123.9246,41.8638,抚顺市,新抚区,细颗粒物(PM2.5),139,155,127,106,82,6,,,,52,43,6,11,1.4,1.2
2026-02-13T0400,1759A,124.0972,41.8961,抚顺市,大伙房水库,细颗粒物(PM2.5),87,82,70,64,51,50,,,,23,21,9,12,1.0,1
2026-02-13T0400,1760A,123.708,41.8386,抚顺市,沈抚新城,细颗粒物(PM2.5),163,169,141,124,93,2,,,,79,65,8,15,2.0,1.7
2026-02-13T0400,2377A,116.3544,27.9833,抚州市,市站,细颗粒物(PM2.5),67,,64,48,52,47,,,,12,17,7,6,1.2,1.3
2026-02-13T0400,2378A,116.3562,27.9631,抚州市,血防站,细颗粒物(PM2.5),62,54,66,44,48,42,,,,6,14,6,6,1.2,1.1
2026-02-13T0400,2379A,116.3561,28.0007,抚州市,采茶剧团,细颗粒物(PM2.5),74,64,65,54,43,27,,,,10,13,4,5,1.5,1.5
2026-02-13T0400,2380A,116.3854,27.9648,抚州市,医学分院,细颗粒物(PM2.5),64,61,69,46,46,37,,,,11,18,6,5,1.2,1.2
2026-02-13T0400,2207A,121.6095,41.9978,阜新市,工业园区,细颗粒物(PM2.5),182,235,153,137,108,28,,,,27,39,20,21,1.3,1.3
2026-02-13T0400,2208A,121.6567,42.0188,阜新市,长青街,细颗粒物(PM2.5),206,,109,156,102,8,,,,53,43,14,17,1.7,1.3
2026-02-13T0400,2209A,121.6672,42.07,阜新市,农业园区,细颗粒物(PM2.5),134,142,111,102,81,67,,,,,23,34,24,1.0,0.9
2026-02-13T0400,2211A,121.6343,42.0455,阜新市,玉龙新城,细颗粒物(PM2.5),155,141,131,118,96,11,,,,50,48,12,17,1.5,1.4
2026-02-13T0400,2301A,115.8276,32.8929,阜阳市,市监测站,细颗粒物(PM2.5),83,107,116,61,50,94,,,,13,18,5,6,0.6,0.6
2026-02-13T0400,2303A,115.8551,32.8606,阜阳市,开发区,细颗粒物(PM2.5),88,119,119,65,49,65,,,,16,17,6,6,0.5,0.5
2026-02-13T0400,2875A,115.783962,32.889217,阜阳市,阜阳职业技术学院,细颗粒物(PM2.5),80,108,113,59,44,93,,,,14,17,7,7,0.6,0.5
2026-02-13T0400,3468A,115.79,32.8614,阜阳市,市规划展馆,颗粒物(PM10),84,118,120,59,48,97,,,,10,13,7,7,0.7,0.6
2026-02-13T0400,3469A,115.835101,32.918568,阜阳市,枣园社区,细颗粒物(PM2.5),82,111,123,60,37,88,,,,16,28,7,7,0.6,0.5
2026-02-13T0400,2669A,102.9097,34.9841,甘南藏族自治州,州政府,,32,31,48,22,29,24,,,,16,20,5,9,0.5,0.7
2026-02-13T0400,3380A,102.8915,34.9618,甘南藏族自治州,甘肃民族师范学院,,46,46,52,10,22,26,,,,21,21,7,13,0.3,0.4
2026-02-13T0400,2570A,101.96,30.048,甘孜藏族自治州,水桥子,,24,23,19,16,10,75,,,,3,6,7,6,0.3,0.6
2026-02-13T0400,3065A,101.9534,29.9976,甘孜藏族自治州,州环保局,,27,27,17,16,11,83,,,,2,6,5,6,0.7,0.7
2026-02-13T0400,2363A,114.9368,25.8663,赣州市,地委,细颗粒物(PM2.5),53,40,52,37,32,39,,,,10,23,7,7,0.8,0.9
2026-02-13T0400,2364A,114.946,25.8483,赣州市,气象台,细颗粒物(PM2.5),53,50,60,37,42,37,,,,12,29,4,6,0.5,0.7
2026-02-13T0400,2365A,114.932,25.8332,赣州市,市图书馆,细颗粒物(PM2.5),53,43,51,37,39,36,,,,10,25,4,4,1.1,1.1
2026-02-13T0400,2366A,114.8905,25.8472,赣州市,华坚鞋城,,50,46,58,35,38,33,,,,12,29,5,6,0.6,0.7
2026-02-13T0400,3109A,115.0094,25.8614,赣州市,赣县区卫计委,,,38,51,38,36,21,,,,18,26,7,7,,0.9
2026-02-13T0400,2684A,106.2753,36.0057,固原市,监测站,细颗粒物(PM2.5),68,78,103,49,47,18,,,,51,31,14,14,2.1,1.1
2026-02-13T0400,2685A,106.2384,36.0189,固原市,新区,颗粒物(PM10),51,51,84,23,29,40,,,,27,30,6,7,0.4,0.6
2026-02-13T0400,2544A,106.6307,30.4577,广安市,市委,细颗粒物(PM2.5),143,119,113,109,96,10,,,,39,36,6,7,1.1,1.1
2026-02-13T0400,2545A,106.6266,30.4662,广安市,友谊中学,,,,94,,66,,,99,,,28,,8,,1.3
2026-02-13T0400,2547A,106.6386,30.4551,广安市,广电花园,细颗粒物(PM2.5),155,,91,118,95,11,,,,25,27,6,7,0.9,0.9
2026-02-13T0400,2902A,106.6347,30.4868,广安市,北辰小学,细颗粒物(PM2.5),134,,92,102,82,13,,,,16,22,9,9,0.9,0.9
2026-02-13T0400,2524A,105.8211,32.4444,广元市,老城,颗粒物(PM10),52,53,82,34,46,8,,,,53,46,3,11,0.5,0.8
2026-02-13T0400,2526A,105.8629,32.429,广元市,监测站,细颗粒物(PM2.5),53,54,63,37,40,36,,,,18,25,6,9,0.5,0.8
2026-02-13T0400,3617A,105.8047,32.4167,广元市,经开区,细颗粒物(PM2.5),73,78,74,53,48,13,,,,35,33,8,8,0.9,0.9
2026-02-13T0400,1345A,113.2346,23.1423,广州市,广雅中学,颗粒物(PM10),51,51,43,32,26,63,,,,26,29,2,2,0.5,0.6
2026-02-13T0400,1346A,113.2611,23.105,广州市,市五中,,49,49,43,34,25,54,,,,27,24,6,6,/,/
2026-02-13T0400,1348A,113.3477,23.0916,广州市,广东商学院,细颗粒物(PM2.5),52,49,41,36,30,31,,,,38,25,6,5,0.8,0.8
2026-02-13T0400,1349A,113.4332,23.105,广州市,市八十六中,,48,48,37,30,26,29,,,,49,34,4,4,/,/
2026-02-13T0400,1350A,113.3506,22.9488,广州市,番禺中学,颗粒物(PM10),67,84,54,29,27,37,,,,34,24,3,3,0.7,0.7
2026-02-13T0400,1351A,113.2147,23.3918,广州市,花都师范,,49,49,42,33,29,53,,,,24,25,5,5,0.7,0.7
2026-02-13T0400,1352A,113.2599,23.1329,广州市,市监测站,颗粒物(PM10),53,56,45,36,28,41,,,,30,22,1,1,/,/
2026-02-13T0400,1353A,113.5618,23.3119,广州市,九龙镇镇龙,细颗粒物(PM2.5),53,54,42,37,30,11,,,,33,22,4,5,0.7,0.6
2026-02-13T0400,1354A,113.2764,23.1544,广州市,麓湖,细颗粒物(PM2.5),52,47,39,36,27,30,,,,39,26,4,3,0.5,0.5
2026-02-13T0400,2846A,113.3209,23.1323,广州市,体育西,,50,50,43,33,27,32,,,,44,28,7,6,0.8,0.8
2026-02-13T0400,3298A,113.5718,23.5493,广州市,从化街口,细颗粒物(PM2.5),58,64,44,41,30,17,,,,30,22,6,7,0.6,0.6
2026-02-13T0400,3299A,113.3463,23.369,广州市,白云竹料,"颗粒物(PM10),细颗粒物(PM2.5)",55,60,44,39,30,6,,,,43,22,2,3,0.7,0.7
2026-02-13T0400,3300A,113.2981,23.2365,广州市,白云嘉禾,"颗粒物(PM10),细颗粒物(PM2.5)",52,53,43,36,28,35,,,,41,27,5,5,/,/
2026-02-13T0400,3301A,113.4256,23.1716,广州市,黄埔科学城,细颗粒物(PM2.5),58,54,43,41,32,38,,,,34,23,5,5,0.6,0.7
2026-02-13T0400,3302A,113.3942,23.0485,广州市,番禺大学城,颗粒物(PM10),63,76,58,35,28,46,,,,28,21,8,8,0.6,0.6
2026-02-13T0400,3303A,113.4923,22.8169,广州市,南沙黄阁,,44,44,42,28,28,65,,,,20,24,5,5,/,/
2026-02-13T0400,3304A,113.534,22.7893,广州市,南沙街,,38,38,45,25,28,62,,,,21,23,5,4,0.6,0.6
2026-02-13T0400,3443A,113.2905,23.5541,广州市,花都梯面,,43,41,38,30,27,4,,,,28,18,4,4,/,/
2026-02-13T0400,3445A,113.786,23.7479,广州市,从化良口,,45,38,32,31,26,36,,,,13,11,7,8,/,/
2026-02-13T0400,3446A,113.805,23.2614,广州市,增城荔城,细颗粒物(PM2.5),55,56,44,39,29,32,,,,26,19,6,6,0.5,0.5
2026-02-13T0400,2506A,109.604387,23.066791,贵港市,江南子站,细颗粒物(PM2.5),63,68,66,45,39,1,,,,21,21,8,6,1.0,1
2026-02-13T0400,2508A,109.5669,23.1065,贵港市,荷城子站,细颗粒物(PM2.5),60,68,63,43,34,4,,,,23,25,7,6,1.4,1.3
2026-02-13T0400,3405A,109.5886,23.1172,贵港市,新世纪学校,细颗粒物(PM2.5),92,83,54,68,39,2,,,,32,27,/,/,1.1,0.9
2026-02-13T0400,4260A,109.5933,23.095,贵港市,中山路155-3号,细颗粒物(PM2.5),89,84,69,66,51,2,,,,20,22,/,/,1.0,0.9
2026-02-13T0400,1439A,106.6863,26.6035,贵阳市,马鞍山,细颗粒物(PM2.5),84,83,46,62,37,37,,,,10,15,6,7,/,/
2026-02-13T0400,1441A,106.6241,26.6266,贵阳市,鉴湖路,细颗粒物(PM2.5),80,80,54,59,39,35,,,,11,16,4,5,0.7,0.7
2026-02-13T0400,1442A,106.7468,26.6344,贵阳市,燕子冲,细颗粒物(PM2.5),65,63,46,47,36,42,,,,9,13,8,9,0.6,0.6
2026-02-13T0400,1443A,106.6556,26.4362,贵阳市,碧云窝,细颗粒物(PM2.5),60,63,45,43,27,44,,,,11,14,11,16,/,/
2026-02-13T0400,1445A,106.6963,26.6063,贵阳市,红边门,细颗粒物(PM2.5),65,66,46,47,38,43,,,,12,19,8,12,/,/
2026-02-13T0400,1446A,106.7162383,26.56964667,贵阳市,新华路,细颗粒物(PM2.5),72,73,50,52,36,34,,,,14,20,6,8,0.5,0.5
2026-02-13T0400,1447A,106.6742,26.542,贵阳市,太慈桥,细颗粒物(PM2.5),79,70,42,58,37,33,,,,14,21,4,6,/,/
2026-02-13T0400,4230A,106.688212,26.56952,贵阳市,花果园大街66号,细颗粒物(PM2.5),73,70,40,53,38,30,,,,12,20,5,4,/,/
2026-02-13T0400,4231A,106.687268,26.516892,贵阳市,漓江路57号,细颗粒物(PM2.5),70,61,44,51,34,36,,,,15,20,8,10,0.8,0.8
2026-02-13T0400,1864A,110.3091,25.2705,桂林市,龙隐路小学,,35,,30,24,29,1,,,,26,20,3,3,0.9,0.9
2026-02-13T0400,1865A,110.2849361,25.22909545,桂林市,八中,,28,27,33,19,21,0,,,,31,28,3,3,0.9,0.8
2026-02-13T0400,3531A,110.296,25.1254,桂林市,旅游学院,,49,44,34,34,26,1,,,,26,17,5,4,1.1,0.9
2026-02-13T0400,4222A,110.1835,25.2444,桂林市,环湖路276号,,36,29,34,25,30,0,,,,39,34,3,4,1.2,1.1
2026-02-13T0400,4301A,110.2803,25.2773,桂林市,信义路13号,,29,23,29,20,25,0,,,,29,26,6,5,1.4,1.3
2026-02-13T0400,2674A,100.2262,34.4854,果洛藏族自治州,玛沁县大武镇,,31,31,41,20,13,42,,,,2,4,16,17,0.3,0.4
2026-02-13T0400,1130A,126.5557,45.8109,哈尔滨市,松北商大,,44,44,59,27,47,58,,,,9,25,8,10,0.6,0.8
2026-02-13T0400,1132A,126.6162,45.719,哈尔滨市,南岗学府路,颗粒物(PM10),53,56,75,26,49,52,,,,12,24,10,12,0.8,0.9
2026-02-13T0400,1133A,126.6894,45.7733,哈尔滨市,太平宏伟公园,,46,46,78,26,54,60,,,,7,17,21,14,0.7,1
2026-02-13T0400,1134A,126.6361,45.7672,哈尔滨市,道外承德广场,颗粒物(PM10),57,64,77,31,44,54,,,,21,40,10,13,0.3,0.6
2026-02-13T0400,1136A,126.644,45.7261,哈尔滨市,动力和平路,,46,46,66,28,45,55,,,,17,29,9,13,0.6,0.8
2026-02-13T0400,1137A,126.5933,45.7479,哈尔滨市,道里建国路,,48,38,69,33,51,56,,,,23,42,22,33,0.1,0.5
2026-02-13T0400,1138A,126.6127,45.6119,哈尔滨市,平房东轻厂,细颗粒物(PM2.5),90,92,72,67,63,54,,,,14,24,8,10,0.8,0.9
2026-02-13T0400,1139A,126.5875,45.9827,哈尔滨市,呼兰师专,,43,43,61,27,43,56,,,,14,24,12,15,0.8,0.9
2026-02-13T0400,1140A,126.6299,45.6799,哈尔滨市,省农科院,,,72,81,51,61,36,,,,28,34,,12,0.8,0.9
2026-02-13T0400,4282A,126.6769,45.7379,哈尔滨市,华山路1号,颗粒物(PM10),51,51,70,34,46,51,,,,24,36,7,12,0.8,1
2026-02-13T0400,4283A,126.9717,45.5356,哈尔滨市,解放大街52号,细颗粒物(PM2.5),112,108,77,84,56,62,,,,16,18,22,25,1.0,0.9
2026-02-13T0400,2688A,93.5124,42.8176,哈密市,地区监测站,颗粒物(PM10),133,216,182,61,56,35,,,,18,15,5,6,0.5,0.3
2026-02-13T0400,2689A,93.5014,42.8312,哈密市,哈密师范学校,颗粒物(PM10),128,205,173,47,42,54,,,,16,20,4,5,0.5,0.5
2026-02-13T0400,2671A,100.9016,36.9464,海北藏族自治州,海晏县西海镇,,29,29,34,8,14,54,,,,1,3,9,8,0.4,0.4
2026-02-13T0400,3867A,102.074,36.5056,海东市,平安区公安局北苑,细颗粒物(PM2.5),58,59,83,41,51,31,,,,17,29,13,23,1.1,1.3
2026-02-13T0400,4163A,102.0984,36.5119,海东市,滨河路,细颗粒物(PM2.5),67,76,96,48,56,11,,,,44,45,15,27,0.9,1.2
2026-02-13T0400,1410A,110.3189,20.0596,海口市,海南大学,,40,40,30,16,13,86,,,,3,4,5,5,0.4,0.3
2026-02-13T0400,1411A,110.2827,20.0051,海口市,秀英海南医院,,31,31,27,16,14,82,,,,4,6,7,7,0.3,0.3
2026-02-13T0400,1412A,110.3391,19.9979,海口市,海南师范大学,,33,33,28,18,15,83,,,,5,6,6,5,0.4,0.4
2026-02-13T0400,1413A,110.3303,20.0359,海口市,龙华路环保局宿舍,,35,35,30,17,15,88,,,,5,6,/,/,0.6,0.6
2026-02-13T0400,3539A,110.5111,19.9737,海口市,桂林洋子站,,36,36,27,15,14,72,,,,4,4,/,/,/,/
2026-02-13T0400,4134A,110.1952,20.0451,海口市,长滨二路9号,,32,32,25,16,13,79,,,,4,6,/,/,/,/
2026-02-13T0400,2673A,100.6158,36.2985,海南藏族自治州,共和县恰卜恰镇,,35,24,47,24,32,42,,,,11,19,9,13,0.5,0.6
2026-02-13T0400,2676A,97.373,37.376,海西蒙古族藏族自治州,德令哈市,,30,30,36,14,14,80,,,,1,4,19,19,0.4,0.4
2026-02-13T0400,1049A,114.492,36.5712,邯郸市,矿院,细颗粒物(PM2.5),186,178,125,140,82,18,,,,49,34,6,10,1.1,1
2026-02-13T0400,1050A,114.4839,36.6136,邯郸市,丛台公园,细颗粒物(PM2.5),142,161,125,108,80,9,,,,71,45,9,12,1.3,1.1
2026-02-13T0400,3458A,114.7893,36.5592,邯郸市,香泉濮院小区,细颗粒物(PM2.5),129,178,157,98,71,42,,,,33,24,7,12,1.0,1
2026-02-13T0400,3580A,114.1998,36.4439,邯郸市,峰峰矿区临水派出所,颗粒物(PM10),87,124,99,62,48,82,,,,17,15,44,21,2.3,1.3
2026-02-13T0400,4068A,114.5209,36.7697,邯郸市,建安街268号,细颗粒物(PM2.5),148,161,136,113,84,5,,,,51,44,16,13,1.6,1.3
2026-02-13T0400,4069A,114.5488,36.6177,邯郸市,丛台东路558号,细颗粒物(PM2.5),182,172,145,137,110,6,,,,78,38,9,11,1.5,1.1
2026-02-13T0400,2635A,107.0155,33.0707,汉中市,市监测站,细颗粒物(PM2.5),110,107,90,83,57,13,,,,39,32,6,7,1.4,1.2
2026-02-13T0400,2636A,107.0083,33.114,汉中市,鑫源开发区,细颗粒物(PM2.5),83,70,78,61,50,19,,,,23,23,5,6,1.1,1.1
2026-02-13T0400,2637A,107.0072,33.0323,汉中市,南郑大河坎水厂,细颗粒物(PM2.5),98,114,90,73,56,17,,,,23,26,5,7,1.1,1
2026-02-13T0400,1223A,120.2073,30.2111,杭州市,滨江,细颗粒物(PM2.5),132,140,114,100,72,35,,,,39,29,7,7,0.8,0.7
2026-02-13T0400,1224A,120.0625,30.2737,杭州市,西溪,细颗粒物(PM2.5),82,91,93,60,58,20,,,,20,23,8,8,1.0,0.9
2026-02-13T0400,1226A,120.3417,30.315,杭州市,下沙,细颗粒物(PM2.5),144,147,118,110,81,58,,,,21,35,9,10,0.6,0.6
2026-02-13T0400,1227A,120.1252,30.2465,杭州市,卧龙桥,细颗粒物(PM2.5),89,103,88,66,56,21,,,,14,18,8,9,0.6,0.6
2026-02-13T0400,1228A,120.1902,30.2691,杭州市,浙江农大,细颗粒物(PM2.5),119,147,109,90,64,23,,,,41,28,5,6,0.9,0.8
2026-02-13T0400,1230A,120.1195,30.3121,杭州市,和睦小学,细颗粒物(PM2.5),113,128,115,85,70,44,,,,29,25,5,5,0.7,0.7
2026-02-13T0400,1231A,120.3076,30.4146,杭州市,临平镇,细颗粒物(PM2.5),134,132,118,102,82,52,,,,21,24,6,7,0.8,0.8
2026-02-13T0400,1232A,120.2753,30.1839,杭州市,城厢镇,细颗粒物(PM2.5),138,140,111,105,70,34,,,,36,27,7,8,0.9,0.9
2026-02-13T0400,1233A,120.0883,30.1808,杭州市,云栖,细颗粒物(PM2.5),92,108,91,68,52,38,,,,18,20,4,5,0.8,0.7
2026-02-13T0400,3557A,119.9463,30.0496,杭州市,镇二中,细颗粒物(PM2.5),75,70,76,55,53,43,,,,22,25,4,5,0.9,1
2026-02-13T0400,3558A,119.7184,30.2367,杭州市,市府大楼,细颗粒物(PM2.5),79,71,73,58,55,42,,,,15,16,10,10,0.6,0.6
2026-02-13T0400,3656A,120.1554,30.2863,杭州市,消防大队,细颗粒物(PM2.5),113,119,109,85,73,53,,,,23,25,7,7,0.8,0.8
2026-02-13T0400,1270A,117.1957,31.7845,合肥市,明珠广场,颗粒物(PM10),71,92,117,39,56,32,,,,54,40,6,7,0.7,0.7
2026-02-13T0400,1271A,117.307,31.8765,合肥市,三里街,颗粒物(PM10),69,88,116,47,54,49,,,,37,51,7,7,1.0,1.2
2026-02-13T0400,1272A,117.2587,31.8703,合肥市,琥珀山庄,细颗粒物(PM2.5),79,88,123,58,62,7,,,,83,60,7,8,1.1,1.2
2026-02-13T0400,1275A,117.2593,31.9376,合肥市,庐阳区,颗粒物(PM10),75,100,117,50,52,26,,,,72,50,10,10,0.8,0.8
2026-02-13T0400,1276A,117.345251,31.861615,合肥市,瑶海区,颗粒物(PM10),68,85,109,41,46,61,,,,39,42,6,6,0.4,0.5
2026-02-13T0400,1277A,117.3033,31.7967,合肥市,包河区,颗粒物(PM10),71,92,127,51,58,9,,,,84,71,9,10,0.9,1
2026-02-13T0400,1278A,117.278,31.7392,合肥市,滨湖新区,颗粒物(PM10),70,90,122,43,56,65,,,,16,17,4,4,0.7,0.8
2026-02-13T0400,1279A,117.1324,31.8395,合肥市,高新区,颗粒物(PM10),71,92,111,48,53,46,,,,42,22,5,5,0.7,0.7
2026-02-13T0400,3464A,117.3802,31.9148,合肥市,高教基地,细颗粒物(PM2.5),69,80,103,50,44,5,,,,63,34,8,8,0.7,0.7
2026-02-13T0400,4098A,117.2518,31.8404,合肥市,中国科学技术大学,颗粒物(PM10),71,92,117,46,55,49,,,,33,39,8,8,0.9,0.9
2026-02-13T0400,3614A,79.9241,37.0878,和田地区,地区环保局,颗粒物(PM10),312,429,508,120,129,34,,,,35,30,3,6,3.0,2.6
2026-02-13T0400,3615A,79.9132,37.1137,和田地区,市环保局,颗粒物(PM10),333,446,504,122,128,29,,,,52,40,3,4,1.0,1.5
2026-02-13T0400,2517A,108.0496,24.6957,河池市,市环保站,,15,15,23,3,16,4,,,,13,16,2,2,0.9,0.9
2026-02-13T0400,4302A,108.0901,24.6945,河池市,上任中路54号,,19,19,28,12,17,8,,,,10,16,4,5,0.8,0.8
2026-02-13T0400,1697A,114.6962,23.7538,河源市,东埔,,44,44,34,28,25,91,,,,12,13,5,5,0.6,0.7
2026-02-13T0400,1698A,114.6895,23.7232,河源市,老城,,46,46,36,27,25,94,,,,10,11,5,6,0.6,0.6
2026-02-13T0400,3374A,115.5562,35.089,菏泽市,定陶老年大学,细颗粒物(PM2.5),137,166,154,104,83,63,,,,29,21,5,6,0.8,0.7
2026-02-13T0400,4114A,115.4239,35.2593,菏泽市,黄河路600号,细颗粒物(PM2.5),130,151,159,99,85,71,,,,18,17,8,7,0.7,0.6
2026-02-13T0400,4115A,115.5025,35.2727,菏泽市,菏泽市人社局,细颗粒物(PM2.5),110,141,148,83,74,81,,,,22,22,6,7,0.7,0.7
2026-02-13T0400,4184A,115.479691,35.244011,菏泽市,永昌路1号,细颗粒物(PM2.5),112,143,151,84,81,94,,,,14,16,4,5,0.7,0.6
2026-02-13T0400,4193A,115.471542,35.280012,菏泽市,长城路999号,细颗粒物(PM2.5),100,135,147,75,67,90,,,,18,20,6,6,0.7,0.7
2026-02-13T0400,2514A,111.5264,24.4178,贺州市,环保小区,,40,32,34,28,27,9,,,,13,14,3,3,0.6,0.5
2026-02-13T0400,2515A,111.561,24.4074,贺州市,政协大楼,,45,33,37,31,30,3,,,,19,18,3,4,1.1,1
2026-02-13T0400,3534A,111.4744,24.455,贺州市,西湾,,48,48,41,28,26,1,,,,17,16,5,5,0.9,0.9
2026-02-13T0400,2385A,114.17,35.9019,鹤壁市,市监测站,颗粒物(PM10),89,127,120,64,63,47,,,,25,32,2,6,0.8,0.7
2026-02-13T0400,2386A,114.2953,35.7512,鹤壁市,市交警支队,细颗粒物(PM2.5),143,177,160,109,83,26,,,,36,41,12,9,0.9,0.9
2026-02-13T0400,2387A,114.2877,35.7302,鹤壁市,迎宾馆,细颗粒物(PM2.5),134,161,160,102,83,15,,,,46,38,4,8,1.1,1
2026-02-13T0400,3474A,114.2616,35.6824,鹤壁市,大新区,细颗粒物(PM2.5),115,158,166,87,82,32,,,,25,40,8,11,1.1,1
2026-02-13T0400,3596A,114.1573,35.9607,鹤壁市,南山宾馆,细颗粒物(PM2.5),109,148,137,82,68,69,,,,16,16,24,15,0.8,0.8
2026-02-13T0400,2244A,130.2537,47.3416,鹤岗市,哈啤分公司,,27,27,33,11,25,85,,,,7,11,8,9,0.3,0.4
2026-02-13T0400,2245A,130.2683,47.3087,鹤岗市,斯达机电,,33,33,36,8,17,80,,,,7,11,6,7,0.4,0.5
2026-02-13T0400,2246A,130.3114,47.3388,鹤岗市,东山纸板厂,颗粒物(PM10),77,104,63,43,26,26,,,,40,22,17,12,2.0,1.1
2026-02-13T0400,2263A,127.4832,50.2524,黑河市,交通局,,21,20,36,14,18,65,,,,7,18,5,6,0.3,0.4
2026-02-13T0400,2264A,127.5146,50.2339,黑河市,环保局,细颗粒物(PM2.5),68,,54,49,47,30,,,,29,30,15,13,1.1,0.9
2026-02-13T0400,1074A,115.6839,37.754,衡水市,电机北厂,细颗粒物(PM2.5),135,180,149,103,76,74,,,,31,36,13,11,1.0,0.9
2026-02-13T0400,1075A,115.6303,37.7318,衡水市,市监测站,细颗粒物(PM2.5),127,171,139,96,70,69,,,,32,31,15,12,0.8,0.8
2026-02-13T0400,3188A,115.6684,37.7216,衡水市,市城管局,细颗粒物(PM2.5),127,200,155,96,72,54,,,,34,30,16,14,0.9,0.9
2026-02-13T0400,3459A,115.599,37.5491,衡水市,地表水厂,细颗粒物(PM2.5),160,194,155,122,79,36,,,,52,41,14,13,1.0,0.8
2026-02-13T0400,2457A,112.6209,26.9268,衡阳市,衡阳化工总厂,细颗粒物(PM2.5),68,55,61,49,56,10,,,,16,21,8,8,1.2,1.2
2026-02-13T0400,2458A,112.621,26.8957,衡阳市,珠晖区环保局,细颗粒物(PM2.5),60,51,62,43,53,12,,,,20,25,4,5,1.4,1.4
2026-02-13T0400,2459A,112.628,26.8654,衡阳市,市委党校,细颗粒物(PM2.5),62,48,54,44,50,12,,,,17,21,8,8,1.2,1.3
2026-02-13T0400,2460A,112.6007,26.8977,衡阳市,市监测站,细颗粒物(PM2.5),64,66,74,46,58,5,,,,24,24,6,7,1.3,1.5
2026-02-13T0400,2461A,112.5658,26.9013,衡阳市,真空机电公司,细颗粒物(PM2.5),80,61,65,59,63,3,,,,30,28,6,7,1.4,1.4
2026-02-13T0400,3399A,112.6703,26.8817,衡阳市,师范学院,细颗粒物(PM2.5),52,47,58,36,45,13,,,,19,24,2,3,1.1,1.2
2026-02-13T0400,3038A,103.3757,23.3679,红河哈尼族彝族自治州,州图书馆,,26,24,25,18,20,50,,,,4,4,2,4,0.7,0.6
2026-02-13T0400,4154A,103.401,23.3561,红河哈尼族彝族自治州,蒙自市朝阳路,,22,15,15,15,17,44,,,,2,3,6,6,0.5,0.4
2026-02-13T0400,1090A,111.6506,40.7517,呼和浩特市,呼市一监,,,88,116,51,62,42,,,,34,43,,13,0.8,1
2026-02-13T0400,1094A,111.7516,40.8369,呼和浩特市,如意水处理厂,颗粒物(PM10),72,93,104,49,48,33,,,,37,47,11,15,0.7,0.8
2026-02-13T0400,1095A,111.727798,40.806187,呼和浩特市,二十九中,颗粒物(PM10),72,93,105,51,48,39,,,,28,39,13,17,0.7,0.8
2026-02-13T0400,1097A,111.717,40.7617,呼和浩特市,化肥厂生活区,颗粒物(PM10),74,98,119,51,56,40,,,,30,41,10,12,0.8,0.9
2026-02-13T0400,3699A,111.6519,40.8389,呼和浩特市,海东办,细颗粒物(PM2.5),97,117,107,72,52,3,,,,64,48,6,10,1.3,0.9
2026-02-13T0400,4275A,111.591512,40.827312,呼和浩特市,成吉思汗西街8号,细颗粒物(PM2.5),88,114,106,65,50,25,,,,49,42,8,10,0.8,0.7
2026-02-13T0400,4276A,111.6597,40.8077,呼和浩特市,公园东路75号,"颗粒物(PM10),细颗粒物(PM2.5)",73,95,117,53,57,26,,,,53,49,9,12,0.8,0.8
2026-02-13T0400,4277A,111.5427,40.7846,呼和浩特市,金海路35号,细颗粒物(PM2.5),79,100,112,58,53,38,,,,35,43,9,12,0.5,0.5
2026-02-13T0400,3061A,119.7511,49.1576,呼伦贝尔市,国华电力东,,24,24,25,11,12,62,,,,16,15,5,6,0.4,0.4
2026-02-13T0400,4279A,119.7569,49.2222,呼伦贝尔市,伊敏大街东7号,,34,34,30,22,21,12,,,,50,26,6,6,0.4,0.4
2026-02-13T0400,1250A,120.075,30.867,湖州市,城西水厂,细颗粒物(PM2.5),102,117,104,76,67,16,,,,67,30,6,6,0.6,0.6
2026-02-13T0400,2873A,120.083,30.8929,湖州市,仁皇山新区,细颗粒物(PM2.5),107,114,103,80,68,53,,,,31,30,5,6,0.6,0.5
2026-02-13T0400,2907A,120.1846,30.8592,湖州市,吴兴区站,细颗粒物(PM2.5),123,132,115,93,78,50,,,,32,25,5,6,0.9,0.8
2026-02-13T0400,3562A,120.4146,30.8538,湖州市,南浔区站,细颗粒物(PM2.5),117,133,113,88,66,70,,,,20,21,7,8,0.7,0.7
2026-02-13T0400,1607A,120.904878,40.721091,葫芦岛市,龙港区,细颗粒物(PM2.5),215,282,167,165,124,5,,,,60,58,139,76,1.5,1.8
2026-02-13T0400,1608A,120.8382,40.7521,葫芦岛市,化工街,细颗粒物(PM2.5),196,207,166,147,124,6,,,,73,69,30,46,2.2,1.7
2026-02-13T0400,1609A,120.8339,40.7078,葫芦岛市,新区,细颗粒物(PM2.5),227,193,116,177,117,2,,,,72,58,37,39,2.1,1.9
2026-02-13T0400,1610A,120.8697,40.7679,葫芦岛市,东城区,细颗粒物(PM2.5),189,162,143,142,132,6,,,,61,59,13,30,2.2,1.9
2026-02-13T0400,2483A,109.9297,27.5383,怀化市,河西地税局,细颗粒物(PM2.5),85,79,72,63,52,0,,,,28,25,3,2,/,/
2026-02-13T0400,2484A,109.9783,27.5342,怀化市,市四医院,细颗粒物(PM2.5),67,70,82,48,54,0,,,,25,23,7,7,0.7,0.8
2026-02-13T0400,2485A,109.9971,27.5579,怀化市,监测楼,细颗粒物(PM2.5),79,78,73,58,54,0,,,,24,23,3,4,0.4,0.4
2026-02-13T0400,1210A,119.0566,33.5991,淮安市,钵池山,细颗粒物(PM2.5),95,105,128,71,84,66,,,,27,29,11,11,0.6,0.7
2026-02-13T0400,1211A,119.0083,33.578,淮安市,北京南路,细颗粒物(PM2.5),100,110,132,75,86,45,,,,31,32,8,10,0.6,0.7
2026-02-13T0400,1212A,118.9938,33.6083,淮安市,市监测站,细颗粒物(PM2.5),93,95,125,69,84,60,,,,31,32,14,14,1.3,1.2
2026-02-13T0400,1213A,119.135,33.5038,淮安市,楚州区监测站,细颗粒物(PM2.5),113,122,147,85,96,26,,,,60,44,6,8,0.6,0.8
2026-02-13T0400,3426A,118.8757,33.2897,淮安市,新华书店,细颗粒物(PM2.5),93,111,132,69,78,70,,,,25,31,8,9,0.5,0.6
2026-02-13T0400,4092A,119.119691,33.550006,淮安市,枚皋中路89号,细颗粒物(PM2.5),110,135,143,83,89,52,,,,25,31,10,12,0.8,0.8
2026-02-13T0400,4206A,119.028838,33.631911,淮安市,承德北路606号,细颗粒物(PM2.5),92,114,139,68,81,63,,,,22,29,8,11,0.6,0.7
2026-02-13T0400,2282A,116.8005,33.9749,淮北市,监测站,颗粒物(PM10),93,136,146,65,61,72,,,,26,29,7,7,0.6,0.8
2026-02-13T0400,2283A,116.8094,33.9008,淮北市,烈山区政府,细颗粒物(PM2.5),109,151,154,82,66,60,,,,27,26,7,7,0.5,0.5
2026-02-13T0400,4017A,116.7926,33.9534,淮北市,市博物馆,细颗粒物(PM2.5),105,145,152,79,67,68,,,,24,26,6,6,0.6,0.7
2026-02-13T0400,4100A,116.8322,33.9884,淮北市,杜集区第一实验学校,细颗粒物(PM2.5),104,145,148,78,64,62,,,,24,24,6,9,0.5,0.5
2026-02-13T0400,2277A,116.8304,32.7726,淮南市,潘集区政府,颗粒物(PM10),78,105,127,50,53,79,,,,18,22,6,7,0.5,0.8
2026-02-13T0400,2279A,116.8569,32.5949,淮南市,谢家集区政府,颗粒物(PM10),74,98,108,46,43,76,,,,19,18,10,8,0.5,0.5
2026-02-13T0400,2280A,116.8279,32.6333,淮南市,八公山区政府,颗粒物(PM10),72,94,107,48,49,82,,,,14,16,5,5,0.4,0.4
2026-02-13T0400,2894A,117.0561,32.6536,淮南市,经济技术开发区消防队,颗粒物(PM10),88,125,119,51,48,56,,,,29,27,5,6,0.5,0.4
2026-02-13T0400,3329A,117.011,32.5891,淮南市,山南新区,颗粒物(PM10),85,120,129,48,48,87,,,,16,18,10,9,0.5,0.5
2026-02-13T0400,4209A,117.003137,32.644456,淮南市,国庆中路369号,颗粒物(PM10),73,96,102,43,46,77,,,,15,22,10,9,0.5,0.6
2026-02-13T0400,2446A,114.9021,30.474,黄冈市,职工中心,细颗粒物(PM2.5),75,84,90,55,65,32,,,,22,17,4,7,1.0,0.9
2026-02-13T0400,2929A,114.8858,30.4519,黄冈市,红卫路,细颗粒物(PM2.5),70,72,86,51,68,38,,,,22,20,6,9,0.7,0.7
2026-02-13T0400,3398A,114.9134,30.4446,黄冈市,市林业局,细颗粒物(PM2.5),79,95,109,58,67,39,,,,21,20,4,4,0.5,0.6
2026-02-13T0400,2672A,102.02,35.5101,黄南藏族自治州,同仁县隆务镇,,28,28,40,11,21,62,,,,1,5,7,9,0.3,0.4
2026-02-13T0400,2295A,118.2905,29.6965,黄山市,延安路89号,,33,33,57,20,33,14,,,,12,12,4,4,0.5,0.5
2026-02-13T0400,2297A,118.1369,30.2755,黄山市,黄山区政府5号楼,,46,37,57,32,33,13,,,,7,8,2,2,0.4,0.4
2026-02-13T0400,4210A,118.335445,29.720283,黄山市,滨江东路7-2号,细颗粒物(PM2.5),57,54,76,40,34,7,,,,16,16,/,/,/,/
2026-02-13T0400,2423A,115.0547,30.2332,黄石市,沈家营,细颗粒物(PM2.5),84,99,101,62,58,35,,,,13,13,6,8,1.2,1
2026-02-13T0400,2426A,114.899,30.211,黄石市,铁山,,,78,94,54,62,46,,,,19,27,7,9,,0.5
2026-02-13T0400,2427A,115.0259,30.2108,黄石市,团城山,细颗粒物(PM2.5),80,104,101,59,60,32,,,,24,23,13,7,1.1,0.8
2026-02-13T0400,3149A,115.0174,30.1591,黄石市,笔架山北路,颗粒物(PM10),82,114,128,58,64,45,,,,29,22,8,9,1.1,1.1
2026-02-13T0400,4185A,115.078022,30.21118,黄石市,磁湖东路29号,,,97,102,57,68,36,,,,18,34,8,8,,1.1
2026-02-13T0400,1392A,114.4181,23.0528,惠州市,河南岸金山湖子站,颗粒物(PM10),53,56,45,25,26,79,,,,12,11,6,6,0.6,0.6
2026-02-13T0400,1393A,114.4055,23.0824,惠州市,下埔横江三路子站,,44,44,42,24,26,94,,,,10,11,7,6,0.5,0.5
2026-02-13T0400,1395A,114.4645,22.7832,惠州市,惠阳区承修路船湖子站,,37,37,46,18,24,104,,,,10,10,6,6,0.5,0.6
2026-02-13T0400,1396A,114.5316,22.7423,惠州市,大亚湾管委会子站,,39,39,43,20,24,103,,,,9,9,7,6,0.7,0.7
2026-02-13T0400,3314A,114.4334,22.8134,惠州市,惠阳秋长,,36,36,47,18,23,115,,,,10,11,/,/,/,/
2026-02-13T0400,3452A,114.6521,22.7755,惠州市,大亚湾霞涌,,28,28,43,18,23,64,,,,12,12,/,/,/,/
2026-02-13T0400,4300A,114.4089,23.1147,惠州市,文华一路1号,,44,44,39,24,24,92,,,,13,13,/,/,/,/
2026-02-13T0400,2240A,130.9618,45.2926,鸡西市,环保局,细颗粒物(PM2.5),72,89,39,52,28,14,,,,45,23,13,10,1.0,0.5
2026-02-13T0400,2243A,130.9294,45.2959,鸡西市,第一中学,,35,33,38,24,26,54,,,,21,22,8,7,0.5,0.5
2026-02-13T0400,3707A,131.0069,45.2988,鸡西市,欧美日汽修厂,细颗粒物(PM2.5),89,90,50,66,30,10,,,,40,17,26,15,1.0,0.3
2026-02-13T0400,2367A,114.9753,27.0803,吉安市,红声器材厂,细颗粒物(PM2.5),58,45,54,41,43,11,,,,14,17,6,6,1.0,1
2026-02-13T0400,2369A,114.9903,27.1313,吉安市,市环境监测站,细颗粒物(PM2.5),67,50,47,48,42,14,,,,14,17,7,7,/,/
2026-02-13T0400,2370A,115.009527,27.096792,吉安市,青原区法院,细颗粒物(PM2.5),53,48,49,37,40,15,,,,15,20,8,8,0.9,0.9
2026-02-13T0400,1772A,126.54,43.8622,吉林市,哈达湾,细颗粒物(PM2.5),122,102,74,92,65,88,,,,22,27,12,12,1.5,1.3
2026-02-13T0400,1773A,126.5843,43.8358,吉林市,东局子,细颗粒物(PM2.5),109,116,77,82,56,76,,,,22,30,10,8,1.1,1
2026-02-13T0400,1774A,126.5051,43.8243,吉林市,电力学院,细颗粒物(PM2.5),113,102,95,85,75,74,,,,25,35,12,11,1.4,1.4
2026-02-13T0400,1775A,126.6133,43.8971,吉林市,江北,细颗粒物(PM2.5),127,110,86,96,72,86,,,,20,30,12,10,1.2,1.1
2026-02-13T0400,1776A,126.5549,43.8304,吉林市,江南公园,细颗粒物(PM2.5),112,99,69,84,60,78,,,,19,27,12,12,1.2,1
2026-02-13T0400,2868A,126.4737,43.953,吉林市,九站,细颗粒物(PM2.5),120,109,92,91,78,62,,,,40,44,12,12,1.2,1.1
2026-02-13T0400,1299A,116.9866,36.6118,济南市,科干所,颗粒物(PM10),89,127,131,51,51,110,,,,12,13,7,9,0.6,0.6
2026-02-13T0400,1300A,116.9379,36.6652,济南市,农科所,颗粒物(PM10),86,122,135,62,60,80,,,,23,21,8,9,0.7,0.7
2026-02-13T0400,1301A,117.1265,36.6736,济南市,开发区,细颗粒物(PM2.5),82,112,121,60,55,44,,,,54,26,4,5,0.6,0.6
2026-02-13T0400,1303A,117.0616,36.6865,济南市,省种子仓库,颗粒物(PM10),95,139,140,68,59,3,,,,81,29,5,6,1.0,0.7
2026-02-13T0400,1304A,116.9495185,36.644937,济南市,机床二厂,颗粒物(PM10),88,125,128,61,57,80,,,,21,18,10,12,0.7,0.6
2026-02-13T0400,1305A,117.0496,36.6629,济南市,市监测站,颗粒物(PM10),83,115,132,56,52,56,,,,38,20,4,6,0.8,0.7
2026-02-13T0400,1306A,116.7674,36.5458,济南市,长清党校,颗粒物(PM10),94,137,149,60,58,95,,,,23,22,4,6,0.6,0.6
2026-02-13T0400,1961A,117.5323,36.6865,济南市,东山小学,颗粒物(PM10),86,122,138,49,48,71,,,,25,16,3,5,0.5,0.5
2026-02-13T0400,3059A,117.7181,36.205,济南市,泰兴公司,细颗粒物(PM2.5),113,141,157,85,77,6,,,,65,52,12,13,1.2,1.1
2026-02-13T0400,3064A,117.6861,36.2172,济南市,莱芜战役纪念馆,"颗粒物(PM10),细颗粒物(PM2.5)",100,149,154,75,70,50,,,,34,36,15,14,1.2,1
2026-02-13T0400,3494A,117.1673,36.9782,济南市,济阳区政府,细颗粒物(PM2.5),97,139,145,72,64,67,,,,22,24,12,10,0.5,0.5
2026-02-13T0400,3495A,117.1168,36.6299,济南市,锦屏中学,颗粒物(PM10),83,115,126,59,53,93,,,,12,13,4,5,0.5,0.5
2026-02-13T0400,4108A,117.7107,36.2385,济南市,山财大街5号,颗粒物(PM10),97,144,153,69,64,78,,,,32,43,24,19,1.7,1.3
2026-02-13T0400,4109A,116.9744,36.6889,济南市,无影山路12号,细颗粒物(PM2.5),87,122,131,64,58,56,,,,35,19,7,8,0.7,0.5
2026-02-13T0400,1653A,116.6229,35.4288,济宁市,火炬城,细颗粒物(PM2.5),102,150,137,76,62,56,,,,23,21,5,4,0.8,0.7
2026-02-13T0400,3500A,116.5808,35.3703,济宁市,北湖一中,细颗粒物(PM2.5),102,146,129,76,60,55,,,,26,18,8,8,0.8,0.6
2026-02-13T0400,3501A,116.8251,35.5592,济宁市,服务中心,细颗粒物(PM2.5),128,182,170,97,82,33,,,,44,21,9,7,0.6,0.5
2026-02-13T0400,3678A,116.5907,35.4054,济宁市,市第七中学,"颗粒物(PM10),细颗粒物(PM2.5)",104,158,144,78,63,51,,,,33,27,8,8,0.7,0.6
2026-02-13T0400,4111A,116.6075,35.4566,济宁市,任和路,颗粒物(PM10),109,168,156,76,62,69,,,,22,23,8,7,0.8,0.7
2026-02-13T0400,4112A,116.5648,35.3921,济宁市,文体南路1号,颗粒物(PM10),105,160,143,75,61,56,,,,26,19,6,5,0.7,0.6
2026-02-13T0400,2255A,130.2749,46.8028,佳木斯市,佳纺,细颗粒物(PM2.5),80,95,49,59,36,26,,,,40,23,7,9,0.9,0.5
2026-02-13T0400,2257A,130.3258,46.7975,佳木斯市,环保局,细颗粒物(PM2.5),79,59,41,58,32,12,,,,50,23,9,10,0.9,0.5
2026-02-13T0400,4285A,130.363,46.806,佳木斯市,顺和街,细颗粒物(PM2.5),67,,38,48,30,41,,,,31,25,8,8,0.6,0.4
2026-02-13T0400,4286A,130.3952,46.8268,佳木斯市,长安路196号,细颗粒物(PM2.5),63,46,38,45,32,46,,,,22,21,5,7,0.7,0.5
2026-02-13T0400,1252A,120.7439,30.778,嘉兴市,清河小学,细颗粒物(PM2.5),93,114,113,69,71,63,,,,27,30,6,7,0.2,0.2
2026-02-13T0400,1253A,120.7261,30.7477,嘉兴市,嘉兴学院,,,111,112,71,65,73,,,,21,22,5,6,,0.8
2026-02-13T0400,2872A,120.7845,30.7524,嘉兴市,南湖区残联,,,101,111,68,69,86,,,,21,25,6,6,,0.8
2026-02-13T0400,3407A,120.6915,30.7741,嘉兴市,秀洲住建,细颗粒物(PM2.5),95,104,109,71,68,52,,,,21,22,6,7,0.6,0.7
2026-02-13T0400,1945A,98.291,39.7705,嘉峪关市,气象局,,22,22,65,3,20,50,,,,17,19,5,8,0.3,0.5
2026-02-13T0400,2884A,98.2672,39.7978,嘉峪关市,酒钢宾馆,,36,36,67,9,22,58,,,,7,10,8,12,0.3,0.5
2026-02-13T0400,3248A,98.2644,39.7723,嘉峪关市,雄关区,,34,34,52,6,18,54,,,,16,17,10,11,0.3,0.4
2026-02-13T0400,1383A,113.1063,22.6058,江门市,北街,细颗粒物(PM2.5),54,,35,38,26,52,,,,17,19,/,/,/,/
2026-02-13T0400,1384A,113.073,22.5835,江门市,西区,,46,40,40,32,26,64,,,,15,19,/,/,/,/
2026-02-13T0400,1385A,113.0218,22.531,江门市,圭峰西,,33,29,35,23,24,64,,,,13,18,/,/,/,/
2026-02-13T0400,1386A,113.0826,22.5947,江门市,东湖,,48,48,39,32,26,52,,,,15,18,5,5,0.4,0.5
2026-02-13T0400,3311A,113.1077,22.5647,江门市,江海富民,颗粒物(PM10),57,64,45,39,27,52,,,,24,22,/,/,0.5,0.5
2026-02-13T0400,3449A,113.0496,22.4669,江门市,新会银湖,细颗粒物(PM2.5),52,,36,36,27,13,,,,31,20,5,6,0.5,0.5
2026-02-13T0400,3335A,113.3137,35.2643,焦作市,马村街道办,颗粒物(PM10),99,148,146,62,58,52,,,,24,26,16,14,1.9,1.1
2026-02-13T0400,3336A,113.2464,35.2374,焦作市,焦作技师学院,颗粒物(PM10),84,118,134,56,54,55,,,,24,33,11,14,1.0,0.9
2026-02-13T0400,3477A,113.1656,35.2536,焦作市,中站许衡医院,颗粒物(PM10),72,93,109,38,45,89,,,,15,23,16,16,1.2,1
2026-02-13T0400,3981A,113.2456,35.18,焦作市,原李万街道办,细颗粒物(PM2.5),103,146,132,77,57,47,,,,26,24,16,16,0.9,0.8
2026-02-13T0400,4264A,113.234,35.219,焦作市,新安路1731号,颗粒物(PM10),93,136,133,64,56,45,,,,35,33,15,17,1.4,1
2026-02-13T0400,4295A,113.2722,35.2121,焦作市,人民路3066号,细颗粒物(PM2.5),117,180,139,88,63,20,,,,48,35,14,14,1.5,1.1
2026-02-13T0400,1708A,116.3701,23.5345,揭阳市,新兴,颗粒物(PM10),51,51,53,32,29,71,,,,19,18,7,7,0.7,0.8
2026-02-13T0400,1709A,116.3261,23.5442,揭阳市,西马,颗粒物(PM10),55,60,56,35,30,72,,,,14,13,5,5,0.7,0.7
2026-02-13T0400,1710A,116.361,23.5627,揭阳市,东兴,颗粒物(PM10),52,54,54,35,32,70,,,,16,15,8,8,/,/
2026-02-13T0400,1711A,116.4151,23.5295,揭阳市,渔湖,,49,49,53,34,29,85,,,,14,17,6,6,/,/
2026-02-13T0400,3320A,116.4028,23.5699,揭阳市,曲溪,颗粒物(PM10),53,56,53,34,30,69,,,,19,12,2,3,0.7,0.8
2026-02-13T0400,1944A,102.1691,38.5166,金昌市,天庆家园,,27,27,96,15,37,47,,,,15,18,6,26,0.6,0.6
2026-02-13T0400,4022A,102.1648,38.5369,金昌市,金川区人防中心,,21,21,85,8,35,56,,,,8,14,5,29,0.4,0.5
2026-02-13T0400,4239A,102.193042,38.531887,金昌市,长春路96号,,42,42,98,16,34,25,,,,21,21,11,42,0.7,0.8
2026-02-13T0400,1262A,119.6478,29.0773,金华市,十五中,颗粒物(PM10),65,80,68,46,38,16,,,,37,20,1,2,0.7,0.7
2026-02-13T0400,1263A,119.6859,29.1032,金华市,监测站,颗粒物(PM10),63,76,69,44,36,9,,,,46,30,3,3,0.7,0.6
2026-02-13T0400,3659A,119.656,29.1132,金华市,气象局,颗粒物(PM10),68,86,74,48,40,1,,,,57,44,3,3,0.7,0.7
2026-02-13T0400,1767A,121.1114,41.0879,锦州市,南山,细颗粒物(PM2.5),179,,125,135,118,6,,,,65,56,8,20,1.9,1.6
2026-02-13T0400,1768A,121.060361,40.842794,锦州市,开发区,细颗粒物(PM2.5),148,136,113,113,105,1,,,,55,49,5,11,1.5,1.4
2026-02-13T0400,1769A,121.1836,41.1118,锦州市,百股街道,细颗粒物(PM2.5),155,,120,118,123,4,,,,65,52,45,25,1.7,1.5
2026-02-13T0400,1770A,121.1176,41.1224,锦州市,天安街道,细颗粒物(PM2.5),180,161,150,136,128,13,,,,52,54,8,16,2.3,2.2
2026-02-13T0400,1771A,121.1303,41.1385,锦州市,北湖公园,细颗粒物(PM2.5),195,151,136,146,127,3,,,,61,50,12,22,2.0,1.6
2026-02-13T0400,2160A,112.8496,35.5051,晋城市,自来水公司,颗粒物(PM10),82,113,118,44,40,70,,,,16,20,12,12,0.8,1
2026-02-13T0400,2162A,112.8509,35.4886,晋城市,市环保局,颗粒物(PM10),72,94,109,46,44,54,,,,30,30,10,10,0.8,1.1
2026-02-13T0400,3620A,112.8258,35.4804,晋城市,泽州一中,颗粒物(PM10),85,120,126,49,42,84,,,,15,16,8,10,1.0,1
2026-02-13T0400,4078A,112.8246,35.5152,晋城市,前书院路,颗粒物(PM10),83,115,126,46,38,69,,,,16,21,11,12,0.8,1.1
2026-02-13T0400,4079A,112.8864,35.4773,晋城市,祥云街666号,颗粒物(PM10),96,142,123,51,47,66,,,,23,19,19,14,0.9,1
2026-02-13T0400,2174A,112.6992,37.6984,晋中市,榆次区政府,颗粒物(PM10),78,105,135,53,61,21,,,,38,47,16,21,0.8,1
2026-02-13T0400,2865A,112.7195,37.683,晋中市,榆次三中,颗粒物(PM10),79,107,131,47,48,17,,,,35,41,15,20,0.8,1.4
2026-02-13T0400,4080A,112.7375,37.7215,晋中市,广安街188号,颗粒物(PM10),89,128,128,52,50,14,,,,44,49,16,24,1.1,0.9
2026-02-13T0400,4200A,112.7478,37.6954,晋中市,迎宾街26号,颗粒物(PM10),82,114,128,51,56,26,,,,27,38,16,20,0.8,0.9
2026-02-13T0400,2439A,112.2012,31.048,荆门市,竹园小学,细颗粒物(PM2.5),88,102,111,65,74,50,,,,15,27,1,2,1.4,1.3
2026-02-13T0400,2440A,112.1968,30.9892,荆门市,掇刀,细颗粒物(PM2.5),103,110,108,77,77,54,,,,14,21,4,6,0.9,0.9
2026-02-13T0400,3012A,112.1849,31.0361,荆门市,西山林语,细颗粒物(PM2.5),82,92,103,60,68,41,,,,14,19,2,3,0.9,0.9
2026-02-13T0400,3547A,112.1631,31.0134,荆门市,龙泉中学南校,细颗粒物(PM2.5),89,110,106,66,64,55,,,,12,17,4,5,1.5,1.3
2026-02-13T0400,4124A,112.2213,31.0654,荆门市,新台西路6号,细颗粒物(PM2.5),92,88,101,68,70,51,,,,14,21,8,9,0.9,0.9
2026-02-13T0400,1844A,112.2493,30.3198,荆州市,市图书馆,细颗粒物(PM2.5),79,71,81,58,59,26,,,,22,23,6,8,1.0,0.9
2026-02-13T0400,1845A,112.2009,30.3543,荆州市,市委党校,细颗粒物(PM2.5),90,88,86,67,63,11,,,,36,27,6,7,1.3,1.2
2026-02-13T0400,3194A,112.2749,30.3124,荆州市,管委会,细颗粒物(PM2.5),82,69,79,60,62,18,,,,31,28,9,11,1.1,1
2026-02-13T0400,4268A,112.1722,30.3366,荆州市,学苑路85号,细颗粒物(PM2.5),80,80,77,59,60,16,,,,22,17,1,5,0.6,0.6
2026-02-13T0400,2343A,117.2114,29.2931,景德镇市,老干部活动中心,细颗粒物(PM2.5),74,75,63,54,39,3,,,,24,19,4,5,1.1,0.9
2026-02-13T0400,2344A,117.1893,29.2789,景德镇市,兽医站,细颗粒物(PM2.5),77,82,70,56,41,8,,,,32,24,4,4,0.8,0.5
2026-02-13T0400,2346A,117.246,29.2958,景德镇市,陶研所,颗粒物(PM10),56,61,54,32,38,14,,,,14,15,3,4,0.9,0.8
2026-02-13T0400,4289A,117.154766,29.256967,景德镇市,青少年活动中心,细颗粒物(PM2.5),70,79,71,51,40,9,,,,40,23,5,6,/,/
2026-02-13T0400,1803A,115.9873,29.6816,九江市,十里,细颗粒物(PM2.5),68,81,89,49,46,19,,,,33,36,6,7,0.9,0.9
2026-02-13T0400,1804A,115.9583,29.7047,九江市,茅山头,细颗粒物(PM2.5),82,82,82,60,47,9,,,,45,28,7,7,0.7,0.6
2026-02-13T0400,1805A,115.9877,29.7295,九江市,西园,细颗粒物(PM2.5),72,87,96,52,53,17,,,,66,45,4,5,0.9,0.8
2026-02-13T0400,1808A,115.9112,29.6038,九江市,综合工业园,细颗粒物(PM2.5),73,78,82,53,35,44,,,,26,24,6,6,0.8,0.8
2026-02-13T0400,3190A,116.0254,29.6995,九江市,外国语学校,细颗粒物(PM2.5),84,84,79,62,46,28,,,,31,31,5,5,0.7,0.6
2026-02-13T0400,4253A,116.010205,29.659402,九江市,莲花大道8号,颗粒物(PM10),62,73,86,41,40,38,,,,13,15,3,4,0.4,0.6
2026-02-13T0400,4240A,98.495752,39.733935,酒泉市,玉门东路5号,,29,29,86,3,31,59,,,,1,14,9,12,0.2,0.5
2026-02-13T0400,4241A,98.5099,39.7506,酒泉市,北大街108号,,34,34,80,6,36,55,,,,3,19,10,13,0.3,0.7
2026-02-13T0400,2698A,76.0071,39.466,喀什地区,巡警大队,颗粒物(PM10),365,472,433,192,147,3,,,,63,44,9,8,3.1,2.1
2026-02-13T0400,2699A,75.9756,39.4693,喀什地区,吾办,颗粒物(PM10),266,396,402,158,155,8,,,,61,49,3,5,2.7,1.9
2026-02-13T0400,4027A,75.9485,39.4688,喀什地区,老干局,颗粒物(PM10),375,480,451,169,177,0,,,,72,45,9,7,4.9,2.3
2026-02-13T0400,1824A,114.3389,34.778,开封市,肿瘤医院,细颗粒物(PM2.5),112,150,154,84,69,48,,,,29,30,7,9,0.9,0.8
2026-02-13T0400,1826A,114.2884,34.7966,开封市,世纪星幼儿园,细颗粒物(PM2.5),108,153,150,81,72,45,,,,34,30,9,10,0.8,0.8
2026-02-13T0400,3147A,114.3434,34.8101,开封市,龙亭公园,细颗粒物(PM2.5),102,143,149,76,64,46,,,,36,33,9,10,0.7,0.7
2026-02-13T0400,3210A,114.3645,34.7955,开封市,汴京公园,颗粒物(PM10),103,156,158,66,61,46,,,,30,33,4,6,0.8,0.8
2026-02-13T0400,3473A,114.2485,34.8306,开封市,技师学院,细颗粒物(PM2.5),103,150,138,77,68,53,,,,30,25,12,10,0.8,0.7
2026-02-13T0400,3592A,114.4518,34.7503,开封市,祥符区生态环境局,细颗粒物(PM2.5),114,171,169,86,71,39,,,,36,33,5,6,0.6,0.6
2026-02-13T0400,1951A,84.886,45.6029,克拉玛依市,长征新村,细颗粒物(PM2.5),83,83,70,61,47,65,,,,20,23,5,5,0.8,0.8
2026-02-13T0400,1952A,84.8894,45.5827,克拉玛依市,南林小区,细颗粒物(PM2.5),74,86,70,54,46,46,,,,21,17,1,2,0.9,0.8
2026-02-13T0400,1954A,84.896,44.3328,克拉玛依市,独山子区,,23,18,26,14,15,72,,,,10,12,3,3,0.4,0.5
2026-02-13T0400,1955A,85.6888,46.0909,克拉玛依市,乌尔禾区商贸楼,细颗粒物(PM2.5),59,63,75,42,54,66,,,,9,13,7,8,0.7,0.9
2026-02-13T0400,3612A,85.1045,45.6895,克拉玛依市,白碱滩区新站,细颗粒物(PM2.5),93,84,70,69,56,56,,,,24,26,9,9,0.9,0.8
2026-02-13T0400,2697A,76.1457,39.7143,克孜勒苏柯尔克孜自治州,市人民政府,颗粒物(PM10),292,414,426,120,132,56,,,,10,13,4,4,0.6,0.5
2026-02-13T0400,3665A,76.1654,39.7157,克孜勒苏柯尔克孜自治州,克州文化中心,颗粒物(PM10),239,377,408,110,121,58,,,,10,17,5,6,0.8,0.9
2026-02-13T0400,1450A,102.8203,24.889,昆明市,呈贡新区,,30,29,28,21,17,78,,,,7,9,5,4,0.2,0.3
2026-02-13T0400,1452A,102.7253,25.0904,昆明市,龙泉镇,,39,39,30,21,16,20,,,,37,25,2,3,0.4,0.4
2026-02-13T0400,1453A,102.7267,25.0378,昆明市,东风东路,,29,29,27,18,15,66,,,,11,14,7,8,0.4,0.5
2026-02-13T0400,1454A,102.6744,25.0671,昆明市,金鼎山,,34,34,30,23,17,51,,,,17,16,4,4,0.5,0.4
2026-02-13T0400,1455A,102.6643,25.0401,昆明市,碧鸡广场,,30,30,29,17,16,67,,,,11,18,6,7,0.3,0.3
2026-02-13T0400,3179A,102.7491,25.012,昆明市,官渡区博物馆,,28,24,26,19,14,77,,,,10,14,5,5,0.4,0.4
2026-02-13T0400,3375A,102.8016,24.8336,昆明市,青年创业园,,29,27,24,20,17,79,,,,6,7,5,4,0.5,0.5
2026-02-13T0400,3550A,102.8,24.9787,昆明市,昆明学院,,43,43,28,27,14,38,,,,24,10,4,5,0.7,0.6
2026-02-13T0400,3551A,102.5969,24.6738,昆明市,晋宁区生态环境分局,,27,23,22,13,16,84,,,,5,5,1,1,0.5,0.4
2026-02-13T0400,3552A,102.6673,24.9861,昆明市,云天化总部,,36,36,25,15,14,52,,,,24,14,7,8,0.4,0.4
2026-02-13T0400,1456A,91.132,29.6515,拉萨市,八廓街,,28,9,13,6,7,87,,,,8,8,6,7,0.6,0.5
2026-02-13T0400,1457A,91.1221,29.6748,拉萨市,市环保局,,23,7,12,6,6,73,,,,14,10,6,6,0.5,0.3
2026-02-13T0400,1458A,91.0874,29.6476,拉萨市,区监测站,,22,9,12,3,6,70,,,,19,9,4,4,0.9,0.6
2026-02-13T0400,1459A,91.1774,29.6541,拉萨市,西藏大学,,28,7,9,3,6,89,,,,6,8,3,3,0.3,0.3
2026-02-13T0400,1460A,90.9798,29.6586,拉萨市,区辐射站,,27,11,13,8,9,84,,,,7,12,3,3,0.3,0.4
2026-02-13T0400,1461A,91.0831,29.6292,拉萨市,拉萨火车站,,22,8,9,7,6,70,,,,20,5,4,4,0.3,0.2
2026-02-13T0400,2520A,109.2203,23.7252,来宾市,来宾技工学校,细颗粒物(PM2.5),58,42,32,41,29,6,,,,16,15,4,4,1.4,1.2
2026-02-13T0400,3535A,109.1781,23.7293,来宾市,兴宾区政府,颗粒物(PM10),51,52,30,34,25,7,,,,16,18,4,4,1.2,1.1
2026-02-13T0400,4002A,109.2312,23.7428,来宾市,中南小学,细颗粒物(PM2.5),57,44,33,40,29,6,,,,16,18,4,4,1.2,0.9
2026-02-13T0400,1479A,103.8309,36.0467,兰州市,铁路设计院,,,,,,,,,,,,,,,,
2026-02-13T0400,3241A,103.7439,36.0841,兰州市,百合公园,细颗粒物(PM2.5),87,92,99,64,58,4,,,,60,58,14,22,1.7,1.3
2026-02-13T0400,3242A,103.9613,35.9985,兰州市,和平,"颗粒物(PM10),细颗粒物(PM2.5)",63,76,107,45,48,30,,,,38,35,16,20,1.5,1.4
2026-02-13T0400,4236A,103.629272,36.093822,兰州市,庄浪东路808号,细颗粒物(PM2.5),72,84,108,52,53,34,,,,34,51,30,28,1.0,1.1
2026-02-13T0400,4237A,103.7251,36.104344,兰州市,安宁西路88号,颗粒物(PM10),91,132,121,63,54,3,,,,70,59,16,28,1.3,1
2026-02-13T0400,4238A,103.846982,36.067567,兰州市,北滨河东路1号,颗粒物(PM10),84,117,112,60,53,2,,,,72,72,12,19,1.6,1.5
2026-02-13T0400,1067A,116.6712,39.5109,廊坊市,药材公司,细颗粒物(PM2.5),160,167,146,122,99,36,,,,41,37,4,6,1.0,0.9
2026-02-13T0400,1068A,116.7215,39.5592,廊坊市,开发区,细颗粒物(PM2.5),140,155,138,107,88,1,,,,94,51,4,5,1.0,0.9
2026-02-13T0400,1070A,116.7246,39.5273,廊坊市,北华航天学院,细颗粒物(PM2.5),160,183,144,122,99,5,,,,88,50,7,8,1.1,0.9
2026-02-13T0400,2919A,116.7022,39.5454,廊坊市,河北工业大学,细颗粒物(PM2.5),147,173,153,112,95,33,,,,55,48,6,6,1.0,0.9
2026-02-13T0400,2536A,103.7629,29.5844,乐山市,牛耳桥,细颗粒物(PM2.5),88,95,80,65,55,10,,,,29,34,5,5,0.8,0.8
2026-02-13T0400,2537A,103.7501,29.6002,乐山市,市第三水厂,细颗粒物(PM2.5),84,90,81,62,52,12,,,,32,42,2,3,1.0,1
2026-02-13T0400,2538A,103.7571,29.5664,乐山市,市监测站,细颗粒物(PM2.5),85,83,76,63,52,18,,,,26,25,5,6,1.0,0.9
2026-02-13T0400,3361A,103.7313,29.563,乐山市,理工大学,细颗粒物(PM2.5),77,82,80,56,53,9,,,,28,22,2,3,0.9,0.8
2026-02-13T0400,2599A,100.2497,26.8802,丽江市,丽江古城,,25,23,27,17,15,79,,,,8,11,6,6,0.4,0.5
2026-02-13T0400,2600A,100.2203,26.8906,丽江市,市中心,,27,,15,17,14,86,,,,7,10,5,6,0.4,0.4
2026-02-13T0400,1267A,119.9141,28.4513,丽水市,监测站大楼,细颗粒物(PM2.5),63,46,42,45,33,95,,,,9,10,4,6,0.5,0.5
2026-02-13T0400,1268A,119.93,28.4589,丽水市,莲都小学,颗粒物(PM10),58,66,48,38,27,92,,,,9,13,/,/,/,/
2026-02-13T0400,1269A,119.8794,28.4232,丽水市,余庄前,,48,46,41,33,27,50,,,,8,8,4,4,0.6,0.5
2026-02-13T0400,1173A,119.1759,34.5885,连云港市,市环境监测站,细颗粒物(PM2.5),132,149,142,100,95,61,,,,35,27,10,10,0.8,0.7
2026-02-13T0400,3000A,119.3577,34.6971,连云港市,德源药业,细颗粒物(PM2.5),94,132,145,70,86,66,,,,28,25,7,7,0.7,0.8
2026-02-13T0400,3007A,119.178,34.8442,连云港市,新城一中,细颗粒物(PM2.5),115,138,134,87,91,42,,,,66,45,11,11,0.6,0.7
2026-02-13T0400,3008A,119.3607,34.7519,连云港市,胡沟管理处,细颗粒物(PM2.5),85,110,135,63,84,70,,,,24,27,10,11,0.7,0.6
2026-02-13T0400,3009A,119.1478,34.5913,连云港市,矿山设计院,细颗粒物(PM2.5),117,149,142,88,82,56,,,,33,25,8,10,1.0,1
2026-02-13T0400,3434A,119.2414,34.6539,连云港市,工贸学校,细颗粒物(PM2.5),92,126,128,68,79,84,,,,24,24,12,14,0.9,0.9
2026-02-13T0400,3664A,119.4171,34.734,连云港市,连云街道,颗粒物(PM10),83,115,139,50,79,58,,,,45,35,7,10,0.6,0.7
2026-02-13T0400,2573A,102.2629,27.8981,凉山彝族自治州,西昌市政府,,42,30,34,29,25,75,,,,5,13,5,9,0.7,0.8
2026-02-13T0400,2574A,102.2686,27.885,凉山彝族自治州,凉山州政府,,35,31,33,24,24,54,,,,12,17,8,10,0.7,0.9
2026-02-13T0400,4229A,102.2342,27.8859,凉山彝族自治州,凯乐南路30号,,39,39,41,20,23,67,,,,11,20,9,12,0.5,0.8
2026-02-13T0400,2212A,123.1978,41.2036,辽阳市,宏伟区,细颗粒物(PM2.5),112,107,78,84,62,89,,,,10,14,6,9,1.0,1
2026-02-13T0400,2213A,123.1684,41.2497,辽阳市,新华园,细颗粒物(PM2.5),124,114,99,94,80,67,,,,26,36,5,14,0.9,1.1
2026-02-13T0400,2214A,123.2355,41.2663,辽阳市,滨河路,细颗粒物(PM2.5),110,92,73,83,63,94,,,,13,21,12,19,1.0,1.1
2026-02-13T0400,4083A,123.153,41.2874,辽阳市,铁西路150号,细颗粒物(PM2.5),125,120,105,95,81,53,,,,29,37,10,17,1.3,1.4
2026-02-13T0400,2227A,125.1359,42.8845,辽源市,环保局,颗粒物(PM10),111,172,106,79,92,11,,,,55,42,6,8,1.6,1.7
2026-02-13T0400,4085A,125.0998,42.9134,辽源市,安宁大街333号,细颗粒物(PM2.5),129,117,103,98,83,57,,,,23,33,10,10,1.3,1.2
2026-02-13T0400,1625A,115.9789,36.4372,聊城市,区政府,细颗粒物(PM2.5),109,156,157,82,75,72,,,,21,19,17,16,0.9,0.8
2026-02-13T0400,3200A,115.9772,36.4986,聊城市,监控中心,细颗粒物(PM2.5),109,156,164,82,77,89,,,,26,23,14,13,0.7,0.7
2026-02-13T0400,3513A,116.0443,36.436,聊城市,九州社区,细颗粒物(PM2.5),109,152,159,82,77,83,,,,15,12,7,5,0.8,0.7
2026-02-13T0400,4018A,116.0564,36.4609,聊城市,星美广场,颗粒物(PM10),114,178,166,74,68,81,,,,21,18,4,4,1.0,0.9
2026-02-13T0400,4113A,116.0091,36.4495,聊城市,利民路,细颗粒物(PM2.5),108,141,142,81,70,79,,,,22,24,13,12,1.0,1
2026-02-13T0400,2632A,94.3683,29.6373,林芝市,林芝监测站,,23,10,13,8,11,72,,,,2,2,4,4,0.4,0.4
2026-02-13T0400,2633A,94.3616,29.6634,林芝市,林芝人民医院,,23,14,16,14,11,73,,,,2,2,5,5,0.4,0.4
2026-02-13T0400,2603A,100.0779,23.8981,临沧市,市环保局,,33,25,33,23,24,47,,,,8,9,5,5,0.7,0.7
2026-02-13T0400,2604A,100.0894,23.882,临沧市,市气象局,,40,40,41,25,26,46,,,,8,8,4,5,0.5,0.5
2026-02-13T0400,1733A,111.5552,36.0791,临汾市,临钢医院,颗粒物(PM10),107,163,159,79,72,29,,,,23,32,6,12,1.4,1.5
2026-02-13T0400,1734A,111.4984,36.0734,临汾市,技工学校,细颗粒物(PM2.5),145,179,160,111,82,21,,,,40,37,15,20,1.0,0.9
2026-02-13T0400,1736A,111.5017,36.0857,临汾市,市委,细颗粒物(PM2.5),129,199,163,98,74,20,,,,49,39,13,17,1.5,1.4
2026-02-13T0400,3018A,111.5048,36.1015,临汾市,唐尧大酒店,细颗粒物(PM2.5),140,188,160,107,78,18,,,,48,40,11,18,1.6,1.5
2026-02-13T0400,4244A,111.4879,36.053,临汾市,启星学校,细颗粒物(PM2.5),139,176,159,106,82,3,,,,71,50,11,18,1.5,1.4
2026-02-13T0400,4271A,103.2464,35.6123,临夏回族自治州,滨河东路1号,细颗粒物(PM2.5),119,156,146,90,85,24,,,,14,26,7,10,1.6,1.6
2026-02-13T0400,4310A,103.207136,35.599807,临夏回族自治州,新华街21号,细颗粒物(PM2.5),172,194,152,130,88,13,,,,35,36,10,13,2.7,1.6
2026-02-13T0400,1618A,118.3429,35.0532,临沂市,沂河小区,细颗粒物(PM2.5),124,158,158,94,85,28,,,,47,32,18,19,0.9,0.7
2026-02-13T0400,1619A,118.2962,35.0568,临沂市,鲁南制药厂,细颗粒物(PM2.5),133,163,156,101,87,43,,,,46,38,25,21,0.9,0.7
2026-02-13T0400,1620A,118.2793,34.9976,临沂市,新光毛纺厂,细颗粒物(PM2.5),134,163,156,102,93,34,,,,44,34,24,21,1.4,0.9
2026-02-13T0400,1621A,118.3955,35.0889,临沂市,河东保险公司,细颗粒物(PM2.5),152,173,164,116,100,22,,,,142,59,12,14,1.4,1
2026-02-13T0400,3370A,118.3563,35.0215,临沂市,十里堡居委,细颗粒物(PM2.5),138,158,156,105,96,29,,,,52,38,21,22,1.2,0.9
2026-02-13T0400,3496A,118.359,35.1067,临沂市,南坊新区,细颗粒物(PM2.5),139,168,151,106,82,32,,,,57,35,15,15,0.9,0.7
2026-02-13T0400,3860A,118.3915,35.0297,临沂市,皇山花园小区,细颗粒物(PM2.5),137,161,158,104,97,33,,,,71,37,17,21,1.0,0.9
2026-02-13T0400,1870A,109.4854,24.3898,柳州市,柳东小学,,48,43,28,33,25,6,,,,10,9,4,4,0.9,0.9
2026-02-13T0400,1871A,109.4109,24.3304,柳州市,环保监测站,,48,48,34,31,24,8,,,,17,20,4,4,1.0,1
2026-02-13T0400,1872A,109.3886,24.3408,柳州市,河西水厂,,42,42,34,26,25,4,,,,17,15,5,5,0.8,0.8
2026-02-13T0400,1873A,109.4263,24.2951,柳州市,市四中,"颗粒物(PM10),细颗粒物(PM2.5)",52,54,32,36,26,8,,,,13,16,5,5,1.0,1
2026-02-13T0400,1874A,109.396,24.3658,柳州市,市九中,,43,37,33,30,24,11,,,,10,12,8,8,0.9,1
2026-02-13T0400,1875A,109.4912,24.3164,柳州市,古亭山,细颗粒物(PM2.5),55,39,27,39,25,1,,,,18,15,6,6,0.9,0.9
2026-02-13T0400,3402A,109.5422,24.3994,柳州市,市二中,,42,36,25,29,22,8,,,,11,14,5,5,0.7,0.6
2026-02-13T0400,2307A,116.5078,31.7369,六安市,监测大楼,细颗粒物(PM2.5),62,70,82,44,42,52,,,,18,16,3,4,0.4,0.4
2026-02-13T0400,2308A,116.4738,31.7642,六安市,皖西学院,颗粒物(PM10),70,90,88,49,40,43,,,,20,22,4,5,0.5,0.5
2026-02-13T0400,2309A,116.4997,31.7904,六安市,朝阳厂,细颗粒物(PM2.5),75,85,82,55,43,33,,,,31,27,4,5,0.6,0.5
2026-02-13T0400,2310A,116.5566,31.7885,六安市,开发区,细颗粒物(PM2.5),75,87,92,55,42,51,,,,18,17,4,5,0.6,0.5
2026-02-13T0400,2577A,104.8293,26.592,六盘水市,黄土坡,细颗粒物(PM2.5),69,66,43,50,35,43,,,,12,17,8,10,0.9,1
2026-02-13T0400,2579A,104.8481,26.5898,六盘水市,民中,细颗粒物(PM2.5),72,64,42,52,36,41,,,,11,15,4,6,0.7,0.9
2026-02-13T0400,2580A,104.9541,26.5506,六盘水市,双水,"颗粒物(PM10),细颗粒物(PM2.5)",63,75,37,45,26,42,,,,10,13,5,7,0.7,0.8
2026-02-13T0400,4151A,104.8899,26.5685,六盘水市,钟山大道中段564号,细颗粒物(PM2.5),69,86,48,50,29,38,,,,10,10,7,8,1.0,1
2026-02-13T0400,2336A,117.022,25.1031,龙岩市,龙岩市监测站,,36,25,29,25,24,26,,,,16,12,9,8,0.8,0.9
2026-02-13T0400,2337A,117.0257,25.0662,龙岩市,闽西职业技术学院,,40,40,32,24,22,61,,,,10,11,6,7,0.7,0.8
2026-02-13T0400,2338A,117.0195,25.0306,龙岩市,龙岩学院,,33,33,29,22,21,29,,,,11,11,4,5,/,/
2026-02-13T0400,2885A,104.9344,33.3827,陇南市,滨江中学,细颗粒物(PM2.5),82,91,94,60,72,8,,,,48,39,11,11,2.1,1.5
2026-02-13T0400,3247A,104.9551,33.3709,陇南市,市总工会,颗粒物(PM10),59,67,81,31,37,35,,,,20,26,3,4,0.9,0.9
2026-02-13T0400,2488A,111.9984,27.7346,娄底市,市监测站,细颗粒物(PM2.5),69,52,60,50,56,15,,,,12,20,2,3,0.7,0.8
2026-02-13T0400,2491A,111.9888,27.7035,娄底市,市政府,细颗粒物(PM2.5),58,49,54,41,48,12,,,,1,6,1,2,0.7,0.6
2026-02-13T0400,4127A,111.9812,27.7591,娄底市,涟钢职大,细颗粒物(PM2.5),62,60,62,44,43,3,,,,16,21,3,3,1.2,1.3
2026-02-13T0400,4128A,112.0303,27.7457,娄底市,娄底体校,细颗粒物(PM2.5),65,50,56,47,49,13,,,,4,8,2,2,0.9,0.7
2026-02-13T0400,1894A,105.4427,28.9063,泸州市,小市上码头,细颗粒物(PM2.5),107,102,82,80,63,5,,,,37,25,4,5,1.1,1
2026-02-13T0400,1895A,105.4241,28.8573,泸州市,兰田宪桥,细颗粒物(PM2.5),99,106,81,74,56,30,,,,15,21,9,9,0.9,0.9
2026-02-13T0400,1896A,105.4378,28.8833,泸州市,市环监站,细颗粒物(PM2.5),84,111,89,62,56,36,,,,19,29,6,6,0.8,0.8
2026-02-13T0400,4272A,105.3689,28.7783,泸州市,纳溪中医医院,细颗粒物(PM2.5),94,84,82,70,62,10,,,,14,17,8,8,0.6,0.7
2026-02-13T0400,2183A,111.1447,37.5212,吕梁市,环保局,颗粒物(PM10),78,106,101,32,35,17,,,,37,34,3,6,0.3,0.4
2026-02-13T0400,2185A,111.1285,37.5338,吕梁市,自来水公司,颗粒物(PM10),102,153,141,40,38,1,,,,49,38,13,13,0.5,0.5
2026-02-13T0400,2867A,111.1225,37.5093,吕梁市,马茂庄小学,颗粒物(PM10),89,128,126,37,40,5,,,,45,42,8,12,0.2,0.4
2026-02-13T0400,1812A,112.3934,34.6517,洛阳市,市委党校,细颗粒物(PM2.5),113,142,134,85,63,48,,,,33,28,11,10,0.9,0.8
2026-02-13T0400,1815A,112.494,34.6883,洛阳市,河南林校,细颗粒物(PM2.5),100,141,148,75,68,22,,,,53,38,13,15,0.9,0.7
2026-02-13T0400,1816A,112.3843,34.623,洛阳市,开发区管委会,颗粒物(PM10),114,177,156,72,56,49,,,,24,23,12,12,0.7,0.7
2026-02-13T0400,1817A,112.4263,34.6249,洛阳市,市委新办公区,颗粒物(PM10),106,162,149,68,56,57,,,,25,20,12,11,0.6,0.5
2026-02-13T0400,3340A,112.6005,34.6323,洛阳市,伊滨,颗粒物(PM10),108,166,157,64,56,70,,,,23,24,10,11,0.6,0.7
2026-02-13T0400,3341A,112.495,34.6338,洛阳市,中移产业园,细颗粒物(PM2.5),100,139,135,75,62,53,,,,26,23,11,11,0.9,0.8
2026-02-13T0400,3593A,112.5736,34.8993,洛阳市,吉利监测站,颗粒物(PM10),84,118,125,47,44,75,,,,19,21,10,11,0.7,0.7
2026-02-13T0400,3635A,112.3678,34.6623,洛阳市,河科大西苑校区,颗粒物(PM10),100,149,145,70,61,41,,,,36,28,15,13,1.0,0.9
2026-02-13T0400,3636A,112.4387,34.678,洛阳市,英才小学,细颗粒物(PM2.5),99,144,157,74,67,28,,,,57,44,13,18,1.0,1
2026-02-13T0400,4214A,112.460027,34.694929,洛阳市,春都路1号院,颗粒物(PM10),99,147,165,65,62,42,,,,38,40,20,16,1.0,0.9
2026-02-13T0400,2399A,114.051,33.5721,漯河市,三五一五工厂,细颗粒物(PM2.5),89,120,139,66,58,67,,,,21,30,6,6,0.9,0.8
2026-02-13T0400,2400A,114.0055,33.5698,漯河市,漯河大学,细颗粒物(PM2.5),97,115,120,72,56,54,,,,34,30,8,8,0.7,0.7
2026-02-13T0400,2401A,114.0134,33.5826,漯河市,市水利局,细颗粒物(PM2.5),100,114,124,75,58,72,,,,18,25,6,7,0.7,0.7
2026-02-13T0400,2402A,114.0261,33.5697,漯河市,市广电局,细颗粒物(PM2.5),97,107,122,72,57,68,,,,17,24,8,8,0.7,0.6
2026-02-13T0400,3478A,113.9691,33.568,漯河市,市图书馆,细颗粒物(PM2.5),92,131,130,68,55,68,,,,16,16,9,9,1.0,0.8
2026-02-13T0400,4250A,114.089259,33.588274,漯河市,韶山路11号,颗粒物(PM10),86,122,133,60,56,72,,,,18,30,8,8,0.7,0.6
2026-02-13T0400,1798A,118.5084,31.6838,马鞍山市,湖东路四小,细颗粒物(PM2.5),104,111,119,78,63,46,,,,36,32,6,7,0.6,0.7
2026-02-13T0400,1799A,118.5019,31.6449,马鞍山市,开发区,细颗粒物(PM2.5),118,131,122,89,66,64,,,,32,29,6,5,0.5,0.7
2026-02-13T0400,3633A,118.4914,31.681,马鞍山市,雨山,细颗粒物(PM2.5),105,121,123,79,64,61,,,,30,30,6,7,0.7,0.9
2026-02-13T0400,4191A,118.527362,31.722269,马鞍山市,慈湖高新区,细颗粒物(PM2.5),92,132,121,68,61,36,,,,54,36,5,6,0.6,0.7
2026-02-13T0400,1686A,111.0285,21.469,茂名市,电白南海,,46,46,49,22,21,74,,,,12,14,9,9,0.9,0.9
2026-02-13T0400,1687A,110.9294,21.6533,茂名市,茂石化七小,,36,36,43,21,19,65,,,,6,8,6,6,0.3,0.4
2026-02-13T0400,1688A,110.9108,21.6688,茂名市,健康路,,31,31,36,19,18,78,,,,8,10,4,5,0.6,0.6
2026-02-13T0400,1689A,110.8592,21.6826,茂名市,高岭,,48,48,51,23,21,75,,,,8,10,9,6,/,/
2026-02-13T0400,3450A,111.0101,21.5165,茂名市,电白水东,,34,34,40,17,20,83,,,,15,18,4,5,/,/
2026-02-13T0400,2540A,103.8414,30.0871,眉山市,气象局,细颗粒物(PM2.5),95,79,82,71,54,46,,,,20,30,10,9,0.8,0.9
2026-02-13T0400,3148A,103.829,30.0563,眉山市,区人社局,细颗粒物(PM2.5),87,94,85,64,58,45,,,,15,35,4,5,0.7,0.9
2026-02-13T0400,4148A,103.8836,30.0695,眉山市,眉职院,细颗粒物(PM2.5),92,104,76,68,48,45,,,,12,20,4,5,0.8,0.8
2026-02-13T0400,1690A,116.1248,24.3307,梅州市,梅江月梅,细颗粒物(PM2.5),54,47,26,38,21,71,,,,14,13,/,/,/,/
2026-02-13T0400,1691A,116.0798,24.2719,梅州市,梅县新城,细颗粒物(PM2.5),55,46,34,39,25,53,,,,17,15,7,7,0.8,0.8
2026-02-13T0400,3315A,116.1234,24.2994,梅州市,梅龙,颗粒物(PM10),54,58,29,36,22,70,,,,12,13,8,8,0.8,0.8
2026-02-13T0400,1878A,104.7775,31.4741,绵阳市,富乐山,细颗粒物(PM2.5),74,78,70,54,43,1,,,,56,29,8,8,1.1,0.8
2026-02-13T0400,1880A,104.6698,31.4668,绵阳市,高新区自来水公司,细颗粒物(PM2.5),97,114,81,72,47,0,,,,46,39,7,7,1.0,1
2026-02-13T0400,3491A,104.6899,31.5324,绵阳市,西科大附属小学,细颗粒物(PM2.5),78,100,78,57,47,5,,,,47,32,8,8,0.8,0.7
2026-02-13T0400,3492A,104.5647,31.5343,绵阳市,安州区旅游局,细颗粒物(PM2.5),87,76,71,64,47,12,,,,27,31,6,7,1.2,1.1
2026-02-13T0400,4146A,104.7092,31.4972,绵阳市,科技城新区公安局,细颗粒物(PM2.5),79,84,72,58,40,4,,,,70,37,5,5,1.0,0.8
2026-02-13T0400,4226A,104.765114,31.453094,绵阳市,绵阳市气象局,细颗粒物(PM2.5),74,84,75,54,47,0,,,,56,36,10,6,0.8,0.5
2026-02-13T0400,1784A,129.61,44.561,牡丹江市,环保大楼,细颗粒物(PM2.5),62,50,66,44,48,28,,,,26,32,4,6,0.6,0.7
2026-02-13T0400,1787A,129.6364,44.6075,牡丹江市,机车工厂,细颗粒物(PM2.5),105,118,71,79,45,4,,,,48,40,7,8,1.3,0.8
2026-02-13T0400,1788A,129.6386,44.5462,牡丹江市,第一中学,,49,38,37,34,30,26,,,,27,25,8,7,0.7,0.7
2026-02-13T0400,4287A,129.5992,44.5964,牡丹江市,东晓云街98号,细颗粒物(PM2.5),65,57,63,47,45,37,,,,22,32,6,8,0.9,0.9
2026-02-13T0400,2531A,105.0703,29.61,内江市,市监测站,细颗粒物(PM2.5),114,,73,86,59,12,,,,37,31,5,6,0.6,0.8
2026-02-13T0400,2533A,105.0657,29.5807,内江市,内江二中,细颗粒物(PM2.5),97,99,80,72,56,20,,,,38,35,7,7,0.7,0.6
2026-02-13T0400,2534A,105.0407,29.5828,内江市,内江日报社,细颗粒物(PM2.5),97,91,68,72,54,37,,,,38,31,10,8,0.5,0.5
2026-02-13T0400,4147A,105.0433,29.6105,内江市,玉峰路西段888号,细颗粒物(PM2.5),87,,65,64,55,8,,,,37,18,4,5,0.7,0.6
2026-02-13T0400,2628A,92.0653,31.4846,那曲市,那曲监测站,,45,,45,31,38,37,,,,18,25,8,13,1.6,1.4
2026-02-13T0400,4243A,92.0515,31.4787,那曲市,那曲市委宣传部,,28,,17,19,16,39,,,,9,9,10,8,1.0,0.8
2026-02-13T0400,1291A,115.8887,28.7006,南昌市,省林业公司,细颗粒物(PM2.5),68,53,87,49,59,51,,,,9,31,3,5,0.6,0.8
2026-02-13T0400,1292A,115.813,28.7443,南昌市,林科所,颗粒物(PM10),56,61,90,39,42,41,,,,9,25,7,9,0.8,1
2026-02-13T0400,1294A,115.8518,28.687,南昌市,建工学校,细颗粒物(PM2.5),70,69,101,51,60,44,,,,13,33,6,7,0.3,0.5
2026-02-13T0400,1295A,115.8926,28.6425,南昌市,象湖,细颗粒物(PM2.5),77,,94,56,62,45,,,,13,24,8,8,0.9,1
2026-02-13T0400,3046A,115.9084,28.6062,南昌市,机电学校,细颗粒物(PM2.5),74,70,97,54,61,42,,,,14,23,4,5,0.6,0.7
2026-02-13T0400,3690A,115.9718,28.7032,南昌市,外国语学校,细颗粒物(PM2.5),59,56,94,42,66,56,,,,13,24,12,13,0.7,1
2026-02-13T0400,4106A,115.7923,28.6873,南昌市,工业二路,细颗粒物(PM2.5),74,77,95,54,58,41,,,,12,28,3,5,0.7,0.8
2026-02-13T0400,4192A,115.931587,28.686774,南昌市,南京东路235号,细颗粒物(PM2.5),59,59,113,42,71,51,,,,12,25,4,8,0.5,1
2026-02-13T0400,1906A,106.0791,30.8022,南充市,南充市委,细颗粒物(PM2.5),69,74,66,50,46,6,,,,36,38,6,5,0.6,0.8
2026-02-13T0400,1907A,106.1038,30.8215,南充市,南充炼油厂,细颗粒物(PM2.5),78,80,78,57,46,0,,,,49,40,5,6,0.7,0.6
2026-02-13T0400,4227A,106.108336,30.788436,南充市,梨树横街98号,细颗粒物(PM2.5),98,96,76,73,53,32,,,,28,26,6,6,0.6,0.6
2026-02-13T0400,4304A,106.1172,30.843,南充市,清泉寺北路188号,细颗粒物(PM2.5),90,79,62,67,47,20,,,,36,26,5,5,0.8,0.7
2026-02-13T0400,4305A,106.067,30.7616,南充市,同庆路1号,细颗粒物(PM2.5),90,74,76,67,48,10,,,,34,43,5,6,0.6,0.7
2026-02-13T0400,1151A,118.8033,32.1085,南京市,迈皋桥,细颗粒物(PM2.5),73,88,91,53,53,74,,,,25,26,6,7,0.5,0.6
2026-02-13T0400,1152A,118.7487,32.057,南京市,草场门,颗粒物(PM10),80,110,105,58,54,56,,,,32,36,8,8,0.8,0.8
2026-02-13T0400,1154A,118.770105,32.004342,南京市,中华门,细颗粒物(PM2.5),100,102,103,75,60,77,,,,18,24,3,4,0.7,0.7
2026-02-13T0400,1155A,118.8059,32.0329,南京市,瑞金路,细颗粒物(PM2.5),88,83,100,65,59,25,,,,43,48,4,4,1.7,1.4
2026-02-13T0400,1156A,118.7946,32.0774,南京市,玄武湖,细颗粒物(PM2.5),80,107,100,59,52,92,,,,21,24,1,1,0.8,0.9
2026-02-13T0400,1157A,118.6415,32.0964,南京市,浦口,细颗粒物(PM2.5),90,107,112,67,54,77,,,,27,29,7,6,0.7,0.8
2026-02-13T0400,1158A,118.730129,32.000956,南京市,奥体中心,细颗粒物(PM2.5),94,105,109,70,57,42,,,,54,37,5,6,0.6,0.6
2026-02-13T0400,1159A,118.9072,32.1047,南京市,仙林大学城,细颗粒物(PM2.5),88,110,107,65,54,90,,,,24,26,7,8,0.7,0.7
2026-02-13T0400,3422A,118.8443,31.919,南京市,江宁彩虹桥,细颗粒物(PM2.5),83,106,109,61,53,32,,,,71,40,4,4,0.9,0.9
2026-02-13T0400,3427A,118.8497,32.3599,南京市,六合雄州,细颗粒物(PM2.5),88,110,116,65,60,18,,,,52,38,5,3,0.9,0.8
2026-02-13T0400,4086A,118.7641,32.0841,南京市,新模范马路66号,细颗粒物(PM2.5),102,112,116,76,56,88,,,,10,24,3,4,0.9,0.8
2026-02-13T0400,4249A,118.8707617,31.34017673,南京市,汶溪路181号,细颗粒物(PM2.5),90,126,106,67,51,74,,,,22,25,5,5,0.8,0.8
2026-02-13T0400,4312A,119.019,31.6512,南京市,中山西路1号,细颗粒物(PM2.5),90,92,92,67,53,41,,,,26,23,3,4,1.0,0.9
2026-02-13T0400,1401A,108.3098,22.788,南宁市,二十一中,细颗粒物(PM2.5),70,,42,51,37,11,,,,27,26,3,3,0.9,0.8
2026-02-13T0400,1402A,108.3135,22.8529,南宁市,北湖,细颗粒物(PM2.5),80,60,55,59,47,0,,,,33,27,2,3,0.9,0.9
2026-02-13T0400,1403A,108.3205,22.8222,南宁市,市监测站,细颗粒物(PM2.5),69,,45,50,39,12,,,,27,31,5,5,1.0,0.9
2026-02-13T0400,1404A,108.3828,22.8038,南宁市,大自然花园,细颗粒物(PM2.5),55,50,40,39,32,21,,,,18,18,5,5,1.0,0.9
2026-02-13T0400,1406A,108.2397,22.8462,南宁市,区农职院,细颗粒物(PM2.5),57,51,48,40,34,0,,,,30,28,3,3,1.3,1.2
2026-02-13T0400,1407A,108.3285,22.7356,南宁市,英华嘉园,细颗粒物(PM2.5),64,49,44,46,35,8,,,,21,20,2,3,0.7,0.7
2026-02-13T0400,3401A,108.4829,22.762,南宁市,红星社区,细颗粒物(PM2.5),58,48,46,41,34,5,,,,20,17,5,4,1.2,1
2026-02-13T0400,4132A,108.2927,23.1477,南宁市,起凤路9号,细颗粒物(PM2.5),54,44,33,38,30,2,,,,16,15,2,2,0.8,0.7
2026-02-13T0400,4221A,108.2177,22.7774,南宁市,乐贤路16号,细颗粒物(PM2.5),75,59,49,55,40,0,,,,26,31,1,2,1.5,1.2
2026-02-13T0400,2332A,118.1682,26.6371,南平市,南平市监测站,,46,46,47,24,25,17,,,,15,17,4,4,0.7,0.8
2026-02-13T0400,2334A,118.1757,26.6276,南平市,南平七中,,39,33,43,27,25,37,,,,10,13,5,3,0.7,0.8
2026-02-13T0400,1168A,120.9056,31.9669,南通市,狼山街道,细颗粒物(PM2.5),118,128,119,89,80,29,,,,46,51,2,4,0.7,0.7
2026-02-13T0400,1170A,120.8635,32.0231,南通市,城中,细颗粒物(PM2.5),117,142,129,88,87,69,,,,37,42,6,7,0.8,0.8
2026-02-13T0400,1171A,120.9376,31.9301,南通市,星湖花园,细颗粒物(PM2.5),105,113,114,79,80,67,,,,42,42,7,7,0.7,0.7
2026-02-13T0400,1172A,120.8053,32.046,南通市,紫琅学院,细颗粒物(PM2.5),113,121,132,85,86,34,,,,58,63,5,7,0.8,0.9
2026-02-13T0400,3291A,121.0631,32.0644,南通市,通州监测站,细颗粒物(PM2.5),122,134,117,92,78,63,,,,36,37,4,6,0.8,0.8
2026-02-13T0400,3432A,120.9348,31.9874,南通市,环境教育馆,细颗粒物(PM2.5),109,124,113,82,80,13,,,,51,39,4,6,0.6,0.8
2026-02-13T0400,4091A,120.8692,31.9885,南通市,洪江路,细颗粒物(PM2.5),123,124,110,93,86,62,,,,37,44,6,7,0.7,0.8
2026-02-13T0400,2404A,112.5338,33.0086,南阳市,瓦房庄,细颗粒物(PM2.5),75,97,117,55,57,55,,,,13,20,6,6,0.9,0.9
2026-02-13T0400,2405A,112.5002,32.9734,南阳市,汉画馆,细颗粒物(PM2.5),93,111,134,69,72,56,,,,16,24,5,5,0.9,0.9
2026-02-13T0400,2406A,112.5778,33.0144,南阳市,气象站,细颗粒物(PM2.5),109,113,140,82,54,60,,,,13,19,6,7,0.9,0.9
2026-02-13T0400,2407A,112.548,32.9687,南阳市,理工学院,细颗粒物(PM2.5),88,103,125,65,59,56,,,,13,20,6,7,0.8,0.8
2026-02-13T0400,4008A,112.5233,32.9921,南阳市,卧龙区政府,颗粒物(PM10),91,131,145,63,58,50,,,,13,21,6,7,0.8,0.8
2026-02-13T0400,1234A,121.8352,29.9111,宁波市,区环保大楼,颗粒物(PM10),58,65,100,33,59,120,,,,22,30,6,6,0.5,0.7
2026-02-13T0400,1235A,121.5595,29.8208,宁波市,万里学院,细颗粒物(PM2.5),67,80,101,48,63,117,,,,15,21,4,3,0.7,0.8
2026-02-13T0400,1236A,121.713,29.9564,宁波市,龙赛医院,颗粒物(PM10),57,63,90,34,60,113,,,,18,28,4,5,0.7,0.9
2026-02-13T0400,1240A,121.5855,29.8635,宁波市,太古小学,颗粒物(PM10),62,73,90,40,57,119,,,,16,22,3,3,0.5,0.7
2026-02-13T0400,1241A,121.5239,29.8673,宁波市,市环境监测中心,细颗粒物(PM2.5),72,82,92,52,61,102,,,,13,18,3,3,0.8,0.8
2026-02-13T0400,2871A,121.6156,29.9015,宁波市,万里国际学校,颗粒物(PM10),59,68,87,38,58,125,,,,11,19,4,4,0.6,0.7
2026-02-13T0400,3710A,121.5593,29.8976,宁波市,白沙活动中心,细颗粒物(PM2.5),65,71,86,47,61,113,,,,18,23,4,4,0.5,0.6
2026-02-13T0400,4095A,121.8962,29.7529,宁波市,中科路88号,细颗粒物(PM2.5),68,67,86,49,70,64,,,,32,20,5,5,0.6,0.7
2026-02-13T0400,2341A,119.5387,26.6611,宁德市,宁德市监测站,,42,39,48,29,32,47,,,,12,16,3,3,0.7,0.7
2026-02-13T0400,3209A,119.5231,26.6562,宁德市,宁德一中,,48,41,47,33,35,52,,,,12,15,2,3,0.5,0.5
2026-02-13T0400,2618A,98.859,25.8541,怒江傈僳族自治州,州监测站,,22,21,28,15,15,55,,,,5,8,5,6,0.4,0.4
2026-02-13T0400,2619A,98.8607,25.8168,怒江傈僳族自治州,泸水一中,,23,,27,16,22,35,,,,8,13,4,4,0.6,0.6
2026-02-13T0400,1888A,101.6891,26.571,攀枝花市,弄弄坪,颗粒物(PM10),62,74,66,40,36,6,,,,62,43,126,78,5.8,3.3
2026-02-13T0400,1889A,101.577,26.5914,攀枝花市,河门口,,34,34,40,18,22,22,,,,22,16,11,13,0.5,0.5
2026-02-13T0400,1891A,101.7365,26.4986,攀枝花市,仁和,,23,23,28,13,17,46,,,,11,15,8,10,0.5,0.7
2026-02-13T0400,2835A,101.7222,26.567,攀枝花市,四十中小,,40,40,44,19,25,24,,,,48,39,48,40,2.3,2.4
2026-02-13T0400,1604A,122.0303,41.1489,盘锦市,开发区,细颗粒物(PM2.5),127,,109,96,111,20,,,,32,29,4,6,1.2,1
2026-02-13T0400,1605A,122.0486,41.0883,盘锦市,兴隆台,细颗粒物(PM2.5),114,,94,86,118,19,,,,42,51,3,7,1.2,1
2026-02-13T0400,1606A,121.8297,41.1026,盘锦市,新生街道,细颗粒物(PM2.5),115,,67,87,99,46,,,,30,37,7,7,1.2,1.1
2026-02-13T0400,1832A,113.3257,33.7423,平顶山市,新华旅馆,细颗粒物(PM2.5),113,168,139,85,64,36,,,,49,31,6,6,0.5,0.4
2026-02-13T0400,1833A,113.2917,33.737,平顶山市,规划设计院,颗粒物(PM10),101,151,144,74,63,12,,,,52,23,6,7,0.8,0.6
2026-02-13T0400,1834A,113.182,33.7738,平顶山市,平顶山工学院,细颗粒物(PM2.5),89,121,133,66,60,90,,,,13,15,8,9,0.5,0.5
2026-02-13T0400,3594A,112.8736,33.9068,平顶山市,石龙区,颗粒物(PM10),84,117,139,47,62,71,,,,18,21,6,7,0.6,0.8
2026-02-13T0400,4116A,113.284,33.7139,平顶山市,姚电大道23号,颗粒物(PM10),107,163,155,74,63,80,,,,13,18,3,5,0.5,0.5
2026-02-13T0400,2656A,106.6633,35.5338,平凉市,聚贤嘉苑,,50,50,73,19,30,60,,,,10,15,5,7,0.4,0.5
2026-02-13T0400,2657A,106.7021,35.5307,平凉市,博物馆,颗粒物(PM10),53,56,78,27,35,53,,,,12,16,3,10,0.6,0.7
2026-02-13T0400,2348A,113.8384,27.6436,萍乡市,中医院,细颗粒物(PM2.5),69,59,79,50,52,16,,,,22,24,3,4,1.2,1.5
2026-02-13T0400,2350A,113.8677,27.6438,萍乡市,市环保局,细颗粒物(PM2.5),67,69,77,48,54,20,,,,25,27,4,5,1.0,1.2
2026-02-13T0400,2351A,113.8663,27.6202,萍乡市,安源区政府,细颗粒物(PM2.5),68,77,81,49,50,9,,,,22,24,3,5,1.3,1.3
2026-02-13T0400,4107A,113.8686,27.6668,萍乡市,联洪村委会,细颗粒物(PM2.5),60,65,66,43,50,23,,,,12,16,3,2,0.6,0.7
2026-02-13T0400,2319A,119.0142,25.4324,莆田市,荔城区仓后路,细颗粒物(PM2.5),53,50,54,37,32,64,,,,15,15,/,/,/,/
2026-02-13T0400,2320A,119.0016,25.4553,莆田市,莆田市监测站,,36,36,46,21,28,72,,,,7,10,2,3,0.6,0.6
2026-02-13T0400,2321A,119.112,25.4561,莆田市,涵江区六中,,41,41,52,25,31,67,,,,15,13,/,/,0.7,0.8
2026-02-13T0400,2322A,119.1014,25.3215,莆田市,秀屿区政府,细颗粒物(PM2.5),53,51,49,37,34,62,,,,16,11,3,3,0.8,0.6
2026-02-13T0400,2392A,115.0312,35.7636,濮阳市,环保局,颗粒物(PM10),99,148,135,73,65,47,,,,29,23,7,8,0.7,0.6
2026-02-13T0400,3021A,115,35.7667,濮阳市,濮水河管理处,细颗粒物(PM2.5),110,146,148,83,67,48,,,,26,21,6,8,1.0,0.8
2026-02-13T0400,4118A,115.0552,35.7816,濮阳市,中原东路68号,"颗粒物(PM10),细颗粒物(PM2.5)",109,168,162,82,65,53,,,,28,26,7,8,0.8,0.6
2026-02-13T0400,4216A,115.0923632,35.76857718,濮阳市,任丘路479号,细颗粒物(PM2.5),119,155,153,90,73,52,,,,28,27,6,8,0.7,0.7
2026-02-13T0400,2601A,100.9801,22.7634,普洱市,市环保局,,43,43,54,15,21,50,,,,6,8,5,5,0.4,0.4
2026-02-13T0400,2602A,100.9763,22.8237,普洱市,普洱第二中学,颗粒物(PM10),51,52,56,29,31,22,,,,32,24,5,5,0.4,0.6
2026-02-13T0400,3345A,131.0413,45.7795,七台河市,中波台,,33,29,27,23,19,50,,,,16,16,10,9,0.5,0.3
2026-02-13T0400,3637A,131.0136,45.7688,七台河市,人民广场,,30,30,39,18,19,37,,,,32,23,10,10,0.8,0.5
2026-02-13T0400,3684A,130.8639,45.8144,七台河市,新建矿广场,,30,,41,21,26,47,,,,20,22,13,10,0.3,0.4
2026-02-13T0400,1779A,123.9307,47.3641,齐齐哈尔市,安居小区,,34,34,81,20,39,61,,,,8,28,12,16,0.4,0.8
2026-02-13T0400,1780A,123.9497,47.3389,齐齐哈尔市,中心广场,,23,21,68,7,41,71,,,,7,27,8,11,0.4,0.9
2026-02-13T0400,1781A,123.9483,47.3229,齐齐哈尔市,农牧车辆厂,,24,24,69,10,39,68,,,,7,27,5,8,0.2,0.6
2026-02-13T0400,1783A,123.9442,47.2994,齐齐哈尔市,市环境监测站,,32,32,73,8,41,70,,,,8,23,5,8,0.4,0.7
2026-02-13T0400,3662A,123.6341,47.2079,齐齐哈尔市,富区青少年活动中心,细颗粒物(PM2.5),153,135,105,117,57,59,,,,9,25,7,13,0.8,1.3
2026-02-13T0400,2591A,107.9765,26.5724,黔东南苗族侗族自治州,市环境监测站,,43,40,45,30,33,5,,,,16,12,4,4,0.8,0.8
2026-02-13T0400,2881A,107.8909,26.531,黔东南苗族侗族自治州,凯里学院,,50,44,46,35,35,20,,,,9,12,3,3,0.7,0.7
2026-02-13T0400,2593A,107.5223,26.2371,黔南布依族苗族自治州,小围寨,,49,34,27,34,25,23,,,,8,9,4,6,1.1,1
2026-02-13T0400,3538A,107.5175,26.2977,黔南布依族苗族自治州,沙坝,,48,41,33,33,27,14,,,,12,10,4,5,0.8,0.8
2026-02-13T0400,2589A,104.9022,25.0943,黔西南布依族苗族自治州,场坝街,,30,30,26,21,18,18,,,,10,10,10,4,0.8,0.8
2026-02-13T0400,2590A,104.8812,25.0994,黔西南布依族苗族自治州,坪东大道,,23,21,27,16,17,14,,,,8,9,5,5,1.0,0.9
2026-02-13T0400,2502A,108.6238,21.9667,钦州市,市环保站,,39,34,62,27,33,72,,,,6,18,2,2,0.5,0.8
2026-02-13T0400,2503A,108.655,21.9481,钦州市,沙埠小学,,42,42,60,16,32,81,,,,5,18,3,4,0.4,0.7
2026-02-13T0400,2504A,108.5989,21.7435,钦州市,港区一小,,35,35,51,20,22,74,,,,12,29,1,2,0.4,0.6
2026-02-13T0400,3404A,108.5959,21.9634,钦州市,北职校,,43,43,42,23,27,75,,,,9,15,2,3,0.6,0.7
2026-02-13T0400,1046A,119.5247,39.9346,秦皇岛市,建设大厦,细颗粒物(PM2.5),140,176,176,107,108,27,,,,53,64,16,18,1.7,1.6
2026-02-13T0400,3132A,119.5979,39.938,秦皇岛市,文明里,细颗粒物(PM2.5),145,180,182,111,106,21,,,,66,89,18,19,1.7,1.6
2026-02-13T0400,4066A,119.7458,39.9952,秦皇岛市,南园路157号,细颗粒物(PM2.5),198,203,172,148,112,3,,,,87,80,12,16,1.8,1.5
2026-02-13T0400,4067A,119.5131,39.8858,秦皇岛市,翠岛大街1号,细颗粒物(PM2.5),147,152,153,112,108,33,,,,49,55,25,22,1.6,1.6
2026-02-13T0400,4198A,119.509013,39.825305,秦皇岛市,北戴河轮滑馆,细颗粒物(PM2.5),142,182,181,108,102,40,,,,53,61,33,21,2.0,1.6
2026-02-13T0400,1310A,120.404,36.0625,青岛市,市南区东部子站,细颗粒物(PM2.5),152,173,159,116,125,76,,,,26,23,11,10,1.1,0.9
2026-02-13T0400,1311A,120.362344,36.10282,青岛市,四方区子站,细颗粒物(PM2.5),133,149,154,101,119,70,,,,31,31,7,8,1.2,1.2
2026-02-13T0400,1312A,120.294373,36.054183,青岛市,市南区西部子站,细颗粒物(PM2.5),165,156,148,125,131,49,,,,50,33,6,5,1.2,1.1
2026-02-13T0400,1313A,120.4581,36.0858,青岛市,崂山区子站,细颗粒物(PM2.5),139,139,151,106,117,75,,,,24,27,9,10,1.0,1
2026-02-13T0400,1315A,120.3945,36.3083,青岛市,城阳区子站,细颗粒物(PM2.5),112,132,153,84,104,65,,,,38,38,11,11,1.2,1.2
2026-02-13T0400,3642A,120.3454,36.0735,青岛市,市北区南部,细颗粒物(PM2.5),132,159,163,100,125,63,,,,34,25,5,3,1.3,1.2
2026-02-13T0400,3643A,120.3897,36.18,青岛市,李沧区北部,细颗粒物(PM2.5),109,139,150,82,111,74,,,,39,41,12,12,1.1,1.1
2026-02-13T0400,4110A,120.5222,36.4089,青岛市,盟旺路653号,颗粒物(PM10),94,137,147,65,82,80,,,,25,22,8,7,1.1,1.1
2026-02-13T0400,4290A,120.196923,35.954556,青岛市,珠江路669号,细颗粒物(PM2.5),140,151,150,107,117,69,,,,21,23,9,9,0.9,0.9
2026-02-13T0400,4291A,120.0424,35.8656,青岛市,黄岛区人民政府广场,细颗粒物(PM2.5),148,168,158,113,118,31,,,,49,46,8,9,1.3,1.1
2026-02-13T0400,1703A,113.0218,23.7086,清远市,凤城街办,细颗粒物(PM2.5),83,84,51,61,36,2,,,,59,40,/,/,/,/
2026-02-13T0400,3025A,113.0479,23.6343,清远市,技师学院,"颗粒物(PM10),细颗粒物(PM2.5)",62,73,45,44,29,6,,,,40,29,4,4,0.8,0.7
2026-02-13T0400,3318A,112.9898,23.7403,清远市,清新太和,,49,49,41,29,27,54,,,,21,24,12,10,0.7,0.8
2026-02-13T0400,3455A,113.076,23.72,清远市,清城东城,颗粒物(PM10),64,78,50,41,29,16,,,,24,31,/,/,/,/
2026-02-13T0400,2661A,107.6325,35.7357,庆阳市,庆阳五中,颗粒物(PM10),70,90,97,40,35,80,,,,11,14,7,6,0.7,0.6
2026-02-13T0400,2662A,107.6361,35.7067,庆阳市,市环保局,颗粒物(PM10),64,77,94,38,38,84,,,,7,14,4,8,0.4,0.5
2026-02-13T0400,1916A,103.7897,25.5036,曲靖市,环境监测站,,32,29,24,22,13,78,,,,7,8,5,5,0.3,0.3
2026-02-13T0400,1917A,103.8013,25.5357,曲靖市,烟厂办公区,,41,41,27,27,14,60,,,,13,13,5,5,0.4,0.3
2026-02-13T0400,3376A,103.7926,25.4651,曲靖市,南苑二区,,29,29,23,19,14,76,,,,4,10,4,4,0.4,0.3
2026-02-13T0400,3377A,103.7442,25.5259,曲靖市,曲靖师范学院,,40,40,28,28,16,64,,,,11,9,5,3,0.4,0.3
2026-02-13T0400,1264A,118.8694,28.94,衢州市,环保大楼,颗粒物(PM10),59,67,77,38,40,10,,,,44,34,/,/,/,/
2026-02-13T0400,1266A,118.8622,28.9809,衢州市,衢州学院,颗粒物(PM10),55,59,68,34,37,1,,,,49,34,5,6,0.5,0.5
2026-02-13T0400,4097A,118.9646,28.9832,衢州市,衢州三中,颗粒物(PM10),55,59,68,34,36,22,,,,22,21,5,5,0.7,0.7
2026-02-13T0400,1611A,118.5818,24.9116,泉州市,涂山街,细颗粒物(PM2.5),52,50,54,36,30,58,,,,16,13,3,4,0.6,0.6
2026-02-13T0400,1612A,118.597,24.8976,泉州市,津头埔,细颗粒物(PM2.5),54,52,53,38,31,58,,,,15,13,3,3,0.5,0.5
2026-02-13T0400,1613A,118.6669,24.9422,泉州市,万安,,41,41,54,3,26,59,,,,18,13,3,4,0.5,0.5
2026-02-13T0400,4105A,118.6355,24.9148,泉州市,霞新路6号,,45,44,52,31,29,59,,,,16,13,/,/,0.6,0.6
2026-02-13T0400,2626A,88.8873,29.2723,日喀则市,日喀则监测站,,22,,22,15,14,67,,,,10,16,11,13,0.6,0.6
2026-02-13T0400,3726A,88.8775,29.2425,日喀则市,林业技术推广中心,,19,13,21,9,8,59,,,,8,7,11,11,0.5,0.3
2026-02-13T0400,1659A,119.4711,35.421,日照市,监测站,细颗粒物(PM2.5),145,151,170,111,119,0,,,,74,69,15,18,2.1,1.8
2026-02-13T0400,1660A,119.523,35.4216,日照市,市政府广场,细颗粒物(PM2.5),135,161,181,103,116,57,,,,49,61,26,20,1.4,1.3
2026-02-13T0400,1661A,119.5511,35.4113,日照市,港务局,细颗粒物(PM2.5),120,168,202,91,119,4,,,,88,74,8,15,1.1,1.5
2026-02-13T0400,3507A,119.5326,35.4627,日照市,职业技术学院,细颗粒物(PM2.5),124,156,175,94,111,61,,,,46,55,18,15,1.6,1.6
2026-02-13T0400,3604A,119.3267,35.1043,日照市,岚山环保分局,细颗粒物(PM2.5),129,178,164,98,100,48,,,,62,47,33,18,1.6,1.1
2026-02-13T0400,1835A,111.1922,34.7752,三门峡市,市政府,颗粒物(PM10),88,125,151,57,61,19,,,,44,46,11,14,0.8,0.8
2026-02-13T0400,1836A,111.1588,34.794,三门峡市,开发区,颗粒物(PM10),104,158,168,60,67,30,,,,36,33,6,9,0.7,0.7
2026-02-13T0400,3039A,111.1911,34.7829,三门峡市,三门峡市第一小学,颗粒物(PM10),100,150,168,66,72,24,,,,47,48,14,16,0.9,1
2026-02-13T0400,3598A,111.1031,34.719,三门峡市,富达温泉假日酒店,细颗粒物(PM2.5),129,192,176,98,80,37,,,,33,36,17,17,1.2,1
2026-02-13T0400,2324A,117.621,26.2626,三明市,三钢,,42,29,30,29,28,12,,,,13,14,4,7,0.5,0.5
2026-02-13T0400,2325A,117.6352,26.2714,三明市,三明二中,,35,,28,24,23,15,,,,13,14,4,6,0.5,0.5
2026-02-13T0400,2326A,117.6028,26.2377,三明市,三元区政府,,35,,29,24,22,4,,,,15,15,3,6,0.9,0.9
2026-02-13T0400,1877A,109.4962,18.2682,三亚市,河西子站,,25,22,25,10,11,80,,,,2,4,1,1,0.3,0.3
2026-02-13T0400,3540A,109.7348,18.3443,三亚市,君悦子站,,19,15,24,13,13,57,,,,7,6,3,3,0.4,0.4
2026-02-13T0400,4135A,109.1714,18.3739,三亚市,城东小学站,,23,20,24,16,14,48,,,,9,8,/,/,/,/
2026-02-13T0400,2624A,91.7592,29.234,山南市,山南监测站,,22,12,16,3,6,70,,,,3,5,2,4,0.3,0.4
2026-02-13T0400,2625A,91.7701,29.2436,山南市,山南人民医院,,25,12,18,3,7,78,,,,5,6,8,9,0.4,0.4
2026-02-13T0400,1674A,116.6795,23.3666,汕头市,金平子站,,31,29,46,20,24,97,,,,8,12,5,5,0.6,0.7
2026-02-13T0400,1675A,116.7248,23.3632,汕头市,龙湖子站,,37,37,47,22,24,93,,,,8,11,10,10,/,/
2026-02-13T0400,1676A,116.7257,23.2774,汕头市,濠江子站,,36,36,47,21,23,91,,,,13,15,9,8,/,/
2026-02-13T0400,1677A,116.7518,23.4712,汕头市,澄海子站,,40,34,48,28,25,89,,,,8,10,7,7,0.7,0.7
2026-02-13T0400,1678A,116.6088,23.2539,汕头市,潮阳子站,,43,42,43,30,26,81,,,,11,10,6,6,0.7,0.6
2026-02-13T0400,3444A,116.4539,23.2684,汕头市,潮南峡山,颗粒物(PM10),52,53,51,33,28,85,,,,10,10,6,6,0.7,0.7
2026-02-13T0400,3624A,116.4069,23.2533,汕头市,潮南子站,颗粒物(PM10),58,65,62,36,30,85,,,,8,9,6,6,/,/
2026-02-13T0400,1693A,115.3653,22.7751,汕尾市,市环保局,,48,42,43,33,25,92,,,,12,10,5,5,0.7,0.7
2026-02-13T0400,1695A,115.362,22.7926,汕尾市,新城中学,,49,49,41,33,26,87,,,,10,9,6,6,0.7,0.7
2026-02-13T0400,2645A,109.9155,33.8714,商洛市,监测站,颗粒物(PM10),67,83,102,32,43,45,,,,16,17,4,5,0.5,0.6
2026-02-13T0400,3045A,109.9647,33.8486,商洛市,商州区中学,颗粒物(PM10),57,63,99,30,36,28,,,,26,17,5,5,0.7,0.7
2026-02-13T0400,2408A,115.6701,34.4283,商丘市,环境监测站,"颗粒物(PM10),细颗粒物(PM2.5)",97,144,146,72,66,70,,,,19,18,6,6,0.7,0.6
2026-02-13T0400,2409A,115.6458,34.4047,商丘市,粮食局,细颗粒物(PM2.5),104,144,134,78,65,70,,,,20,21,4,3,0.7,0.6
2026-02-13T0400,3171A,115.6069,34.4465,商丘市,梁园区档案局,细颗粒物(PM2.5),109,145,139,82,64,67,,,,16,17,3,3,0.7,0.6
2026-02-13T0400,4119A,115.6701,34.3767,商丘市,北海东路185号,颗粒物(PM10),106,162,157,73,64,50,,,,30,25,3,4,0.6,0.6
2026-02-13T0400,4120A,115.6172,34.3704,商丘市,中山大街3号,颗粒物(PM10),107,164,169,79,70,54,,,,29,28,4,4,0.6,0.6
2026-02-13T0400,1141A,121.401,31.2382,上海市,普陀,细颗粒物(PM2.5),80,84,98,59,73,108,,,,24,32,7,7,0.8,0.8
2026-02-13T0400,1142A,121.4774,31.2043,上海市,十五厂,细颗粒物(PM2.5),88,88,106,65,80,96,,,,22,34,7,8,0.7,0.9
2026-02-13T0400,1143A,121.4673,31.3011,上海市,虹口,细颗粒物(PM2.5),78,78,96,57,74,101,,,,21,33,5,5,0.2,0.3
2026-02-13T0400,1147A,121.4253,31.226,上海市,静安监测站,细颗粒物(PM2.5),77,85,100,56,72,107,,,,27,34,8,8,0.5,0.7
2026-02-13T0400,1148A,121.7029,31.1905,上海市,浦东川沙,细颗粒物(PM2.5),89,87,112,66,88,96,,,,25,36,8,9,0.7,0.8
2026-02-13T0400,1149A,121.5339,31.229,上海市,浦东新区监测站,细颗粒物(PM2.5),97,85,106,72,88,102,,,,21,31,6,7,0.8,0.9
2026-02-13T0400,1150A,121.5776,31.2038,上海市,浦东张江,细颗粒物(PM2.5),90,90,108,67,82,99,,,,34,41,7,7,0.6,0.5
2026-02-13T0400,3265A,121.4242,31.3303,上海市,宝山庙行,细颗粒物(PM2.5),82,94,107,60,76,101,,,,20,31,9,9,0.7,0.8
2026-02-13T0400,3266A,121.8789,31.4662,上海市,崇明上实东滩,细颗粒物(PM2.5),78,74,93,57,75,82,,,,21,23,4,5,0.6,0.7
2026-02-13T0400,3268A,121.316,31.2839,上海市,嘉定南翔,细颗粒物(PM2.5),94,93,102,70,79,90,,,,32,34,4,5,0.7,0.8
2026-02-13T0400,3269A,121.3357,30.7455,上海市,金山新城,细颗粒物(PM2.5),74,65,96,54,88,116,,,,16,24,5,6,0.8,1
2026-02-13T0400,3270A,121.4996,31.0741,上海市,闵行浦江,细颗粒物(PM2.5),83,78,97,61,78,101,,,,19,33,7,8,0.5,0.6
2026-02-13T0400,3271A,121.2886,31.1663,上海市,青浦徐泾,细颗粒物(PM2.5),97,99,109,72,80,86,,,,28,32,5,6,0.7,0.8
2026-02-13T0400,3272A,121.2193,31.0382,上海市,松江图书馆,细颗粒物(PM2.5),90,91,108,67,80,93,,,,21,26,6,7,0.7,0.7
2026-02-13T0400,3273A,121.3904,31.206,上海市,长宁仙霞,细颗粒物(PM2.5),70,87,96,51,64,101,,,,24,29,8,9,1.1,1.1
2026-02-13T0400,3274A,121.7964,31.0507,上海市,浦东惠南,细颗粒物(PM2.5),78,73,105,57,82,91,,,,21,30,4,5,0.8,0.9
2026-02-13T0400,3544A,121.4891,30.925,上海市,奉贤南桥新城,细颗粒物(PM2.5),83,83,100,61,80,104,,,,22,29,2,3,0.7,0.7
2026-02-13T0400,4183A,121.417401,31.16637,上海市,冠生园路458号,细颗粒物(PM2.5),94,86,98,70,81,84,,,,23,31,5,6,0.6,0.6
2026-02-13T0400,4205A,121.541914,31.268301,上海市,宁武路151号,细颗粒物(PM2.5),85,82,102,63,81,102,,,,19,35,5,6,0.8,0.9
2026-02-13T0400,2382A,117.9758,28.4439,上饶市,市监测站,细颗粒物(PM2.5),59,65,73,42,37,47,,,,17,22,8,8,/,/
2026-02-13T0400,2383A,117.9521,28.4637,上饶市,凤凰光学,颗粒物(PM10),63,75,80,44,40,42,,,,21,31,14,12,0.7,0.8
2026-02-13T0400,3685A,117.897,28.4316,上饶市,双创科技城,细颗粒物(PM2.5),75,96,80,55,41,47,,,,22,30,25,10,1.0,0.9
2026-02-13T0400,4211A,118.190438,28.444845,上饶市,裕丰大道,颗粒物(PM10),59,68,73,38,41,45,,,,19,24,12,13,0.8,0.9
2026-02-13T0400,1669A,113.5821,24.7733,韶关市,市八中,颗粒物(PM10),58,65,43,38,26,8,,,,37,28,7,8,0.9,0.8
2026-02-13T0400,1671A,113.5916,24.7973,韶关市,园林处,细颗粒物(PM2.5),59,50,32,42,27,6,,,,29,26,5,7,/,/
2026-02-13T0400,1673A,113.5971,24.6864,韶关市,曲江监测站,,46,46,42,30,30,10,,,,28,25,8,14,0.9,0.9
2026-02-13T0400,2809A,113.6668,24.7756,韶关市,大学路288号,,35,32,29,24,22,16,,,,18,15,1,4,/,/
2026-02-13T0400,3622A,113.5556,24.8082,韶关市,碧湖山庄,,50,50,44,34,31,11,,,,16,12,6,6,0.8,0.8
2026-02-13T0400,2464A,111.5277,27.2442,邵阳市,市化工厂,细颗粒物(PM2.5),74,56,65,54,59,12,,,,18,23,3,4,0.9,1
2026-02-13T0400,2466A,111.4327,27.2276,邵阳市,市环保局,细颗粒物(PM2.5),74,,59,54,56,33,,,,10,17,6,6,0.9,1.1
2026-02-13T0400,4218A,111.446,27.2472,邵阳市,北塔二期4-26地块,,50,44,51,35,48,19,,,,11,12,6,6,0.9,1
2026-02-13T0400,4219A,111.4739,27.2282,邵阳市,邵水西路287号,细颗粒物(PM2.5),68,,55,49,55,21,,,,11,18,3,5,0.8,1
2026-02-13T0400,1247A,120.6053,29.9927,绍兴市,城东开发委,细颗粒物(PM2.5),105,106,93,79,63,31,,,,23,24,7,8,0.9,0.7
2026-02-13T0400,2921A,120.5482,30.0003,绍兴市,树下王站,细颗粒物(PM2.5),100,92,92,75,67,30,,,,15,19,6,7,0.7,0.7
2026-02-13T0400,3408A,120.5685,29.936,绍兴市,绍兴中专,细颗粒物(PM2.5),104,109,88,78,55,22,,,,26,24,6,7,0.8,0.6
2026-02-13T0400,3409A,120.4905,30.086,绍兴市,柯桥区政府,细颗粒物(PM2.5),123,140,108,93,67,48,,,,24,26,6,6,0.8,0.7
2026-02-13T0400,3410A,120.8751,30.0249,绍兴市,重华小学,细颗粒物(PM2.5),80,80,80,59,57,96,,,,11,17,7,7,0.6,0.6
2026-02-13T0400,3411A,120.837,30.0137,绍兴市,上虞中学,细颗粒物(PM2.5),79,85,86,58,58,99,,,,14,19,6,7,0.7,0.7
2026-02-13T0400,3560A,120.4715,30.0414,绍兴市,柯桥妇保,细颗粒物(PM2.5),107,99,91,80,67,36,,,,16,19,5,6,0.6,0.6
2026-02-13T0400,3658A,120.6156,30.0762,绍兴市,袍江中学,细颗粒物(PM2.5),147,149,119,112,80,34,,,,30,22,7,7,0.8,0.7
2026-02-13T0400,1356A,114.0948,22.5506,深圳市,通心岭子站,,48,48,44,26,20,90,,,,10,6,5,4,0.4,0.4
2026-02-13T0400,1357A,114.1153,22.5713,深圳市,洪湖,,48,48,44,27,22,75,,,,21,11,5,4,0.6,0.5
2026-02-13T0400,1358A,113.9823,22.5398,深圳市,华侨城,,39,38,37,27,24,89,,,,8,11,/,/,/,/
