timepoint,stationcode,longitude,latitude,area,positionname,primarypollutant,aqi,pm10,pm10_24h,pm2_5,pm2_5_24h,o3,o3_24h,o3_8h,o3_8h_24h,no2,no2_24h,so2,so2_24h,co,co_24h
2026-02-13T0000,2568A,102.2503,31.8896,阿坝藏族羌族自治州,马师校,,26,24,17,6,10,83,,89,88,3,5,4,4,0.4,0.4
2026-02-13T0000,3994A,102.2174,31.9016,阿坝藏族羌族自治州,马尔康中学西区,,26,23,19,7,8,82,,93,90,5,6,5,5,0.5,0.5
2026-02-13T0000,2695A,80.2899,41.1684,阿克苏地区,电视台,颗粒物(PM10),278,404,391,123,108,26,,83,70,68,28,10,10,1.3,0.9
2026-02-13T0000,2696A,80.2592,41.1541,阿克苏地区,艺术中心,颗粒物(PM10),262,393,363,135,115,7,,83,62,83,32,8,5,1.3,0.9
2026-02-13T0000,2205A,105.699,38.8409,阿拉善盟,蒙二幼,,32,32,70,8,16,82,,86,79,7,10,10,10,0.4,0.6
2026-02-13T0000,2206A,105.7198,38.8508,阿拉善盟,环保局新楼,,34,34,65,11,17,86,,88,81,4,6,9,9,0.4,0.4
2026-02-13T0000,2708A,88.1266,47.8515,阿勒泰地区,市站,,26,26,28,15,12,59,,86,71,29,22,2,2,0.2,0.2
2026-02-13T0000,4166A,88.1198,47.7931,阿勒泰地区,阿勒泰路33号,,22,18,36,12,11,68,,79,76,18,17,4,4,0.3,0.4
2026-02-13T0000,2630A,80.1171,32.4999,阿里地区,阿里监测站,,19,,3,12,5,58,,82,73,12,7,8,11,0.3,0.3
2026-02-13T0000,3192A,80.0906,32.5029,阿里地区,阿里藏医院,,23,14,9,3,4,71,,93,88,14,5,13,10,0.5,0.4
2026-02-13T0000,2644A,109.0088,32.6974,安康市,汉滨区检察院,颗粒物(PM10),61,72,69,38,36,41,,82,62,12,13,2,2,0.6,0.6
2026-02-13T0000,4054A,109.0324,32.6913,安康市,市邮政管理局,细颗粒物(PM2.5),79,101,83,58,42,25,,77,38,31,24,4,5,1.1,0.9
2026-02-13T0000,2291A,117.0806,30.5181,安庆市,环科院,细颗粒物(PM2.5),79,106,108,58,56,3,,91,42,82,44,7,7,0.7,0.7
2026-02-13T0000,2292A,117.0331,30.5118,安庆市,马山宾馆,细颗粒物(PM2.5),97,121,109,72,64,7,,91,57,85,40,7,6,0.9,0.7
2026-02-13T0000,2294A,116.9897,30.6146,安庆市,安庆大学,颗粒物(PM10),69,87,102,35,49,47,,78,74,25,26,4,5,0.5,0.7
2026-02-13T0000,3173A,117.0598,30.5351,安庆市,市人大,颗粒物(PM10),88,126,120,63,60,32,,96,68,56,36,7,7,0.7,0.7
2026-02-13T0000,3123A,105.9408,26.2431,安顺市,凤凰山,细颗粒物(PM2.5),73,86,32,53,20,30,,55,42,13,10,15,13,0.8,0.5
2026-02-13T0000,3124A,105.9443,26.2567,安顺市,金钟山,细颗粒物(PM2.5),73,,23,53,20,31,,54,40,10,9,14,14,1.0,0.8
2026-02-13T0000,3125A,105.8983,26.248,安顺市,娄家坡,细颗粒物(PM2.5),69,72,29,50,20,32,,57,42,10,10,19,16,0.9,0.8
2026-02-13T0000,1819A,114.3552,36.1017,安阳市,红庙街,细颗粒物(PM2.5),123,185,142,93,70,35,,102,77,47,32,9,10,1.0,1.1
2026-02-13T0000,1820A,114.361,36.0681,安阳市,银杏小区,细颗粒物(PM2.5),120,161,142,91,71,29,,102,76,49,31,8,13,1.0,1
2026-02-13T0000,3141A,114.3921,36.0879,安阳市,信访局,细颗粒物(PM2.5),127,164,140,96,72,33,,109,86,42,24,7,12,0.9,1.1
2026-02-13T0000,3669A,114.4706,36.0634,安阳市,左辅环卫站,细颗粒物(PM2.5),129,185,157,98,69,55,,102,80,28,23,7,9,0.9,0.9
2026-02-13T0000,4117A,114.2918,36.0769,安阳市,钢三路198号,颗粒物(PM10),129,208,167,95,69,30,,94,72,47,31,8,11,1.0,1
2026-02-13T0000,1748A,123.0441,41.1201,鞍山市,深沟寺,细颗粒物(PM2.5),102,114,120,76,75,115,,94,77,18,29,11,14,0.9,1.1
2026-02-13T0000,1749A,123.011,41.0931,鞍山市,太阳城,细颗粒物(PM2.5),107,103,127,80,87,106,,87,68,20,32,15,18,0.8,1.2
2026-02-13T0000,1750A,123.0483,41.1445,鞍山市,太平,细颗粒物(PM2.5),140,153,120,107,78,32,,83,54,50,37,9,16,1.6,1.2
2026-02-13T0000,1751A,122.964,41.0968,鞍山市,铁西三道街,细颗粒物(PM2.5),115,128,148,87,93,84,,87,58,38,49,18,22,1.3,1.3
2026-02-13T0000,1753A,123.0219,41.0822,鞍山市,明达新区,细颗粒物(PM2.5),102,106,123,76,83,112,,89,72,21,33,13,16,0.8,1.2
2026-02-13T0000,4201A,122.944647,41.082639,鞍山市,兴盛南路290号,细颗粒物(PM2.5),110,112,147,83,98,94,,84,51,24,49,18,21,1.0,1.5
2026-02-13T0000,2195A,107.4206,40.7609,巴彦淖尔市,附二中,颗粒物(PM10),67,83,78,30,28,63,,80,65,12,12,6,7,0.3,0.4
2026-02-13T0000,2196A,107.37,40.7372,巴彦淖尔市,市环保大楼,颗粒物(PM10),70,90,82,23,26,63,,82,66,11,12,4,5,0.4,0.4
2026-02-13T0000,1956A,86.1476,41.7529,巴音郭楞蒙古自治州,孔雀公园,颗粒物(PM10),182,314,355,90,87,66,,73,61,15,44,10,9,0.6,0.8
2026-02-13T0000,1957A,86.1971,41.7166,巴音郭楞蒙古自治州,棉纺厂,颗粒物(PM10),212,358,384,91,79,54,,75,63,23,19,/,/,/,/
2026-02-13T0000,1958A,86.236,41.7172,巴音郭楞蒙古自治州,经济开发区,颗粒物(PM10),162,273,307,43,45,66,,68,65,5,16,6,6,0.6,0.6
2026-02-13T0000,3181A,106.776805,31.852614,巴中市,市五中,细颗粒物(PM2.5),95,98,72,71,51,14,,75,53,30,26,6,6,1.1,1
2026-02-13T0000,3183A,106.7419,31.8654,巴中市,圣泉水务公司,细颗粒物(PM2.5),79,78,61,58,45,23,,73,42,28,23,6,6,1.0,1
2026-02-13T0000,3616A,106.7617,31.8343,巴中市,市中心医院,细颗粒物(PM2.5),98,102,71,73,49,6,,73,41,40,31,6,6,1.3,1.1
2026-02-13T0000,2235A,122.7909,45.608,白城市,洮北区环保局,,43,43,90,25,86,64,,76,67,8,18,6,7,0.3,0.8
2026-02-13T0000,2236A,122.8741,45.5725,白城市,市环保局,,44,44,98,28,70,60,,76,67,7,17,6,7,0.3,0.7
2026-02-13T0000,2231A,126.4219,41.9172,白山市,喜丰,细颗粒物(PM2.5),103,100,67,77,47,11,,88,47,83,45,17,15,1.7,1.2
2026-02-13T0000,2232A,126.4082,41.9416,白山市,环保局,细颗粒物(PM2.5),78,67,64,57,50,42,,81,40,26,31,13,14,1.3,1.2
2026-02-13T0000,2647A,104.1727,36.5448,白银市,第三小学,细颗粒物(PM2.5),73,90,68,53,29,25,,82,55,44,27,69,14,1.9,0.7
2026-02-13T0000,2648A,104.1467,36.5482,白银市,动力公司,细颗粒物(PM2.5),74,91,66,54,28,33,,84,56,26,18,33,13,2.0,1
2026-02-13T0000,2512A,106.6102,23.901,百色市,市监测站,,49,49,35,34,29,25,,33,23,21,15,18,14,0.9,0.8
2026-02-13T0000,2513A,106.6524,23.8842,百色市,市中心血站,细颗粒物(PM2.5),58,42,36,41,28,28,,33,29,14,10,17,14,1.0,0.8
2026-02-13T0000,4133A,106.6273,23.8798,百色市,龙景西路,,46,46,43,30,30,19,,29,20,20,15,17,15,0.7,0.7
2026-02-13T0000,2270A,117.396,32.9389,蚌埠市,工人疗养院,颗粒物(PM10),82,113,120,56,57,91,,117,106,28,22,6,7,0.6,0.7
2026-02-13T0000,2271A,117.3606,32.9428,蚌埠市,百货大楼,颗粒物(PM10),79,107,123,50,56,102,,116,108,18,21,7,8,0.7,0.6
2026-02-13T0000,2273A,117.4183,32.8909,蚌埠市,蚌埠学院,颗粒物(PM10),79,107,117,55,56,99,,120,108,19,21,6,6,0.6,0.6
2026-02-13T0000,2274A,117.3534,32.9672,蚌埠市,淮上区政府,颗粒物(PM10),79,107,125,47,59,108,,119,106,16,22,6,7,0.6,0.6
2026-02-13T0000,2275A,117.3143,32.8977,蚌埠市,高新区,细颗粒物(PM2.5),90,119,129,67,70,80,,109,96,19,21,8,8,0.6,0.6
2026-02-13T0000,3715A,117.3091,32.9314,蚌埠市,蚌埠田家炳中学,颗粒物(PM10),88,126,132,62,66,92,,114,102,21,23,56,27,0.6,0.6
2026-02-13T0000,1585A,109.8761,40.6533,包头市,市环境监测站,颗粒物(PM10),71,91,104,34,46,10,,104,38,68,47,6,25,0.9,1.4
2026-02-13T0000,1587A,109.9992,40.5843,包头市,包头八中,颗粒物(PM10),75,99,105,42,52,48,,89,40,29,54,7,14,0.9,1.1
2026-02-13T0000,1589A,109.8641,40.6288,包头市,惠龙物流,颗粒物(PM10),70,90,102,42,50,24,,105,44,61,55,12,28,1.1,1.8
2026-02-13T0000,1590A,110.0376,40.5546,包头市,东河鸿龙湾,颗粒物(PM10),77,103,94,47,38,4,,88,42,115,67,12,12,1.7,1.1
2026-02-13T0000,3283A,109.9154,40.5684,包头市,滨河大厦,颗粒物(PM10),76,101,92,55,45,3,,88,46,96,55,13,14,1.5,1
2026-02-13T0000,3419A,109.9449,40.6259,包头市,包头市委党校,颗粒物(PM10),65,79,90,41,44,42,,102,65,40,50,8,20,0.8,1.1
2026-02-13T0000,3683A,109.8332,40.6577,包头市,昆区政府,"颗粒物(PM10),细颗粒物(PM2.5)",68,86,99,49,49,9,,109,36,86,51,8,29,1.1,1.5
2026-02-13T0000,1931A,107.0802,34.3129,宝鸡市,竹园沟,颗粒物(PM10),51,51,90,15,36,77,,80,66,12,19,5,6,0.2,0.4
2026-02-13T0000,1933A,107.1429,34.3549,宝鸡市,监测站,颗粒物(PM10),59,68,115,30,36,31,,74,37,23,29,4,6,0.5,0.6
2026-02-13T0000,1934A,107.1172,34.3759,宝鸡市,技工学校,细颗粒物(PM2.5),73,78,116,53,49,30,,80,42,25,22,5,8,0.7,0.6
2026-02-13T0000,1936A,107.2025,34.3518,宝鸡市,文理学院,细颗粒物(PM2.5),78,84,110,57,48,32,,70,35,28,29,5,6,0.6,0.6
2026-02-13T0000,1937A,107.2396,34.3626,宝鸡市,三迪小学,颗粒物(PM10),81,112,130,59,50,13,,72,26,51,40,4,4,0.9,0.8
2026-02-13T0000,4155A,107.1721,34.3558,宝鸡市,滨河北路,颗粒物(PM10),73,95,123,47,48,25,,73,36,28,21,5,6,0.8,0.6
2026-02-13T0000,4308A,107.3898,34.3601,宝鸡市,陈仓区北开路21号,颗粒物(PM10),102,154,155,68,68,24,,80,43,34,31,16,59,0.7,0.9
2026-02-13T0000,1051A,115.4803,38.8568,保定市,游泳馆,细颗粒物(PM2.5),159,166,123,121,85,7,,82,42,100,61,9,9,1.2,1
2026-02-13T0000,1052A,115.509,38.8895,保定市,华电二区,细颗粒物(PM2.5),134,159,107,102,69,4,,96,61,88,47,7,7,1.4,1.2
2026-02-13T0000,1053A,115.4588,38.9037,保定市,接待中心,细颗粒物(PM2.5),144,155,110,110,71,26,,78,41,60,44,8,6,1.0,0.8
2026-02-13T0000,1054A,115.4484,38.8344,保定市,地表水厂,细颗粒物(PM2.5),142,200,141,108,73,22,,84,57,93,58,9,7,0.8,0.8
2026-02-13T0000,3581A,115.3136,38.9511,保定市,满城区生态环境分局,细颗粒物(PM2.5),127,168,139,96,68,21,,83,,59,46,11,8,1.4,1.2
2026-02-13T0000,3582A,115.4709,38.7628,保定市,清苑区第二中学,细颗粒物(PM2.5),155,233,167,118,85,29,,88,77,72,45,14,12,1.0,0.8
2026-02-13T0000,3583A,115.6231,39.0223,保定市,徐水物探局,细颗粒物(PM2.5),173,228,171,131,90,0,,81,36,88,49,14,13,1.4,1
2026-02-13T0000,4004A,115.4199,38.8665,保定市,双鹰农机,细颗粒物(PM2.5),150,211,154,115,79,41,,83,57,58,46,9,7,1.0,0.8
2026-02-13T0000,4034A,115.515,38.8589,保定市,植保所站,细颗粒物(PM2.5),149,163,124,114,75,0,,77,42,110,57,6,5,2.0,1
2026-02-13T0000,2594A,99.1589,25.1137,保山市,市环境监测站,,27,27,24,17,12,75,,94,84,6,9,4,5,0.3,0.4
2026-02-13T0000,2595A,99.1616,25.1381,保山市,市环保局,,27,27,25,11,12,83,,92,85,3,5,3,3,0.3,0.5
2026-02-13T0000,1867A,109.1435,21.4085,北海市,海滩公园,颗粒物(PM10),53,55,46,20,25,88,,117,106,10,13,3,3,0.7,0.7
2026-02-13T0000,1868A,109.0983,21.466,北海市,新市环保局,,38,38,36,16,22,87,,103,96,10,15,7,8,0.6,0.7
2026-02-13T0000,1869A,109.1775,21.5232,北海市,北海工业园,颗粒物(PM10),51,51,42,18,24,85,,106,95,6,10,6,6,0.8,0.8
2026-02-13T0000,3400A,109.1844,21.4396,北海市,龙潭自来水厂,,43,43,42,23,29,86,,108,98,5,10,2,3,0.8,0.9
2026-02-13T0000,1001A,116.3611,39.8786,北京市,万寿西宫,细颗粒物(PM2.5),93,121,91,69,50,43,,82,71,66,41,6,5,0.8,0.7
2026-02-13T0000,1003A,116.4174,39.9289,北京市,东四,"颗粒物(PM10),细颗粒物(PM2.5)",83,116,89,61,46,48,,76,69,46,37,8,7,1.4,0.8
2026-02-13T0000,1004A,116.4073,39.8858,北京市,天坛,细颗粒物(PM2.5),92,115,87,68,47,42,,74,66,29,40,2,3,0.8,0.7
2026-02-13T0000,1005A,116.4622,39.9364,北京市,农展馆,细颗粒物(PM2.5),90,119,90,67,48,54,,81,73,40,38,8,8,1.0,0.8
2026-02-13T0000,1006A,116.3399,39.9293,北京市,官园,细颗粒物(PM2.5),82,111,86,60,47,40,,74,68,47,40,6,6,0.8,0.6
2026-02-13T0000,1007A,116.2879,39.9613,北京市,海淀万柳,颗粒物(PM10),78,106,87,55,43,24,,69,55,62,49,4,5,0.9,0.7
2026-02-13T0000,1008A,116.6635,40.1349,北京市,顺义新城,颗粒物(PM10),74,97,76,44,39,44,,75,52,29,29,7,7,0.7,0.6
2026-02-13T0000,1009A,116.6275,40.327,北京市,怀柔镇,颗粒物(PM10),66,82,66,44,35,32,,71,44,34,26,5,5,0.9,0.8
2026-02-13T0000,1010A,116.2295,40.217,北京市,昌平镇,颗粒物(PM10),65,79,71,40,39,35,,65,55,36,37,4,4,0.9,0.8
2026-02-13T0000,1011A,116.3968,39.982,北京市,奥体中心,颗粒物(PM10),79,107,82,57,43,26,,74,64,72,52,7,7,0.8,0.7
2026-02-13T0000,3418A,116.8336,40.4095,北京市,密云新城,颗粒物(PM10),55,60,60,25,30,51,,79,62,16,12,3,4,0.5,0.5
2026-02-13T0000,3671A,116.0879,39.9725,北京市,门头沟三家店,颗粒物(PM10),72,94,76,47,38,36,,71,49,27,27,4,5,0.6,0.6
2026-02-13T0000,3672A,116.1507,39.8246,北京市,丰台云岗,颗粒物(PM10),72,94,74,45,40,55,,78,69,30,27,5,4,0.7,0.6
2026-02-13T0000,3674A,115.9578,39.7602,北京市,房山燕山,颗粒物(PM10),58,65,73,33,41,56,,76,63,15,20,5,5,0.5,0.5
2026-02-13T0000,3675A,116.4669,39.7734,北京市,大兴旧宫,细颗粒物(PM2.5),103,150,113,77,57,40,,79,64,46,46,5,6,0.8,0.7
2026-02-13T0000,3694A,115.9859,40.4562,北京市,延庆石河营,颗粒物(PM10),68,86,65,41,34,25,,82,57,21,21,4,5,1.1,0.7
2026-02-13T0000,3695A,116.6151,40.3052,北京市,怀柔新城,细颗粒物(PM2.5),70,75,63,51,38,47,,72,59,18,17,4,3,0.7,0.6
2026-02-13T0000,3696A,116.2542,39.8764,北京市,丰台小屯,细颗粒物(PM2.5),90,127,91,67,47,10,,70,55,75,49,4,6,1.0,0.7
2026-02-13T0000,3697A,116.8399,40.3843,北京市,密云镇,颗粒物(PM10),54,58,64,29,32,39,,75,36,23,30,4,4,0.6,0.6
2026-02-13T0000,4057A,115.9423,40.4431,北京市,延庆百泉,颗粒物(PM10),66,81,59,40,33,37,,81,67,18,18,1,3,0.8,0.6
2026-02-13T0000,4058A,116.6598,39.9164,北京市,通州新华,细颗粒物(PM2.5),112,146,103,84,56,10,,71,58,72,52,4,5,1.1,0.9
2026-02-13T0000,4182A,116.1942,39.9158,北京市,石景山八角,颗粒物(PM10),84,118,87,56,43,21,,72,56,54,41,6,5,0.8,0.6
2026-02-13T0000,4194A,117.078628,40.151726,北京市,平谷新城,细颗粒物(PM2.5),93,121,102,69,55,27,,73,46,29,27,4,6,0.9,0.7
2026-02-13T0000,1761A,123.8274146,41.31234549,本溪市,大峪,细颗粒物(PM2.5),82,102,92,60,51,58,,88,72,34,41,9,11,0.9,1.1
2026-02-13T0000,1763A,123.7169,41.3094,本溪市,彩屯,细颗粒物(PM2.5),95,98,92,71,66,64,,79,67,21,41,10,19,0.9,2.4
2026-02-13T0000,1764A,123.7672166,41.28649327,本溪市,东明,细颗粒物(PM2.5),92,79,78,68,58,93,,93,90,21,32,11,13,0.9,1.2
2026-02-13T0000,1765A,123.799345,41.266614,本溪市,新立屯,细颗粒物(PM2.5),85,94,68,63,48,95,,95,92,21,35,13,12,0.7,0.9
2026-02-13T0000,1766A,123.829144,41.336777,本溪市,威宁,细颗粒物(PM2.5),99,117,94,74,56,49,,85,64,30,33,7,9,1.0,1.1
2026-02-13T0000,2587A,105.287,27.3133,毕节市,八中,颗粒物(PM10),55,60,51,38,34,58,,64,59,8,9,9,9,0.7,0.8
2026-02-13T0000,2588A,105.3079,27.2987,毕节市,师专,颗粒物(PM10),55,59,48,35,30,64,,70,65,10,11,8,9,0.6,0.6
2026-02-13T0000,4263A,105.3688,27.3598,毕节市,工业大道,"颗粒物(PM10),细颗粒物(PM2.5)",55,59,49,39,35,62,,72,66,8,10,9,10,/,/
2026-02-13T0000,1629A,117.9961,37.3604,滨州市,第二水厂,细颗粒物(PM2.5),115,166,143,87,75,70,,107,86,28,37,18,17,0.9,0.9
2026-02-13T0000,1630A,117.9789,37.3931,滨州市,北中新校,细颗粒物(PM2.5),115,161,137,87,69,68,,108,84,37,34,16,13,0.9,0.9
2026-02-13T0000,3514A,117.9379,37.3959,滨州市,中海酒店,细颗粒物(PM2.5),120,171,141,91,72,74,,116,87,40,38,21,17,1.5,1.1
2026-02-13T0000,3515A,117.9381509,37.35547456,滨州市,开发区一中,"颗粒物(PM10),细颗粒物(PM2.5)",117,183,157,88,72,66,,104,72,34,39,25,22,1.0,1
2026-02-13T0000,3516A,118.0914,37.6938,滨州市,金海六路,细颗粒物(PM2.5),186,212,163,140,93,29,,110,48,82,61,18,18,1.2,0.9
2026-02-13T0000,4028A,117.9955,37.3752,滨州市,滨州市西街道办事处,细颗粒物(PM2.5),128,171,147,97,76,44,,111,67,39,32,14,16,1.1,0.9
2026-02-13T0000,2311A,115.8071,33.8399,亳州市,污水处理厂,颗粒物(PM10),86,122,119,53,53,79,,112,96,21,17,6,6,0.6,0.6
2026-02-13T0000,2312A,115.7789,33.8519,亳州市,三国揽胜宫,颗粒物(PM10),101,151,139,53,56,77,,114,94,,22,6,6,0.6,0.6
2026-02-13T0000,3332A,115.7631,33.803,亳州市,亳州学院,颗粒物(PM10),91,132,128,54,59,79,,114,101,18,13,6,6,0.6,0.6
2026-02-13T0000,2693A,82.0482,44.8553,博尔塔拉蒙古自治州,市党校,,41,41,43,14,11,77,,83,80,10,12,2,2,0.5,0.5
2026-02-13T0000,2694A,82.0805,44.8966,博尔塔拉蒙古自治州,市环保局,,,,57,,14,,,74,70,18,18,7,6,0.5,0.8
2026-02-13T0000,1071A,116.8733,38.2922,沧州市,沧县城建局,细颗粒物(PM2.5),143,179,159,109,91,31,,100,49,79,48,12,16,1.4,1.1
2026-02-13T0000,1072A,116.8462,38.3189,沧州市,电视转播站,细颗粒物(PM2.5),183,162,160,138,105,16,,103,56,81,42,9,13,1.4,1
2026-02-13T0000,1073A,116.8588,38.3161,沧州市,市环保局,细颗粒物(PM2.5),142,188,168,108,90,12,,88,39,85,46,12,15,1.5,1
2026-02-13T0000,3324A,116.8011,38.294,沧州市,河北水利电力学院,细颗粒物(PM2.5),127,171,171,96,93,47,,92,71,52,32,15,16,1.0,0.9
2026-02-13T0000,2622A,97.1813,31.1289,昌都市,昌都监测站,,29,19,16,3,8,92,,98,96,1,4,2,2,0.5,0.6
2026-02-13T0000,3719A,97.1707,31.1428,昌都市,昌都会议中心,,30,13,12,7,8,94,,101,100,1,2,5,5,0.3,0.3
2026-02-13T0000,2692A,87.2722,44.0298,昌吉回族自治州,新区政务中心,细颗粒物(PM2.5),122,123,123,92,84,83,,86,85,18,26,5,5,1.3,1.3
2026-02-13T0000,3613A,87.3069,44.0093,昌吉回族自治州,亚心广场,细颗粒物(PM2.5),135,122,125,103,94,88,,90,90,20,30,8,10,1.3,1.2
2026-02-13T0000,4164A,87.2057,43.9289,昌吉回族自治州,财政所,细颗粒物(PM2.5),133,138,120,101,79,69,,82,77,24,18,6,7,1.0,0.9
2026-02-13T0000,1120A,125.2874,43.9024,长春市,客车厂,细颗粒物(PM2.5),180,141,92,136,82,60,,75,62,43,52,15,14,1.5,1.2
2026-02-13T0000,1121A,125.2943,43.8508,长春市,邮电学院,细颗粒物(PM2.5),188,182,95,141,84,57,,62,54,37,47,14,14,1.5,1.1
2026-02-13T0000,1122A,125.3648,43.8745,长春市,劳动公园,细颗粒物(PM2.5),180,178,121,136,86,63,,82,57,35,42,18,16,1.9,2
2026-02-13T0000,1123A,125.3233,43.8781,长春市,园林处,细颗粒物(PM2.5),186,155,100,140,88,50,,75,57,51,44,24,17,1.4,1.1
2026-02-13T0000,1124A,125.4604,43.7904,长春市,净月潭,细颗粒物(PM2.5),145,131,84,111,71,52,,93,69,34,24,9,7,1.5,0.8
2026-02-13T0000,1126A,125.38,43.8422,长春市,经开区环卫处,细颗粒物(PM2.5),168,147,101,127,82,48,,79,49,44,47,11,8,1.5,1.1
2026-02-13T0000,1127A,125.234,43.7761,长春市,高新区管委会,细颗粒物(PM2.5),168,129,116,127,93,48,,76,44,47,44,12,10,1.6,1.8
2026-02-13T0000,1128A,125.1695,43.83,长春市,岱山公园,细颗粒物(PM2.5),206,157,109,156,101,55,,85,62,41,49,12,11,1.5,1.2
2026-02-13T0000,4281A,125.334645,43.916281,长春市,北亚泰大街1068号,细颗粒物(PM2.5),202,155,112,152,101,50,,68,48,46,50,15,13,1.5,1.5
2026-02-13T0000,1335A,113.082,28.2421,长沙市,经开区环保局,细颗粒物(PM2.5),67,48,66,48,39,23,,44,34,19,26,2,2,0.9,0.7
2026-02-13T0000,1336A,112.8873,28.2202,长沙市,高开区环保局,细颗粒物(PM2.5),75,60,68,55,47,30,,54,47,20,24,4,5,1.3,1.1
2026-02-13T0000,1337A,113.0785,28.2012,长沙市,马坡岭,细颗粒物(PM2.5),74,,70,54,45,25,,43,35,19,24,4,4,1.1,0.9
2026-02-13T0000,1338A,112.9448,28.1894,长沙市,湖南师范大学,颗粒物(PM10),56,62,65,31,34,26,,43,43,20,24,3,4,1.2,1
2026-02-13T0000,1339A,113.0177,28.1322,长沙市,雨花区环保局,细颗粒物(PM2.5),62,46,59,44,38,33,,41,39,25,28,6,8,1.2,0.9
2026-02-13T0000,1340A,112.9795,28.2593,长沙市,伍家岭,细颗粒物(PM2.5),72,60,91,52,52,16,,38,31,32,26,4,5,1.3,1
2026-02-13T0000,1341A,113.002,28.1944,长沙市,火车新站,细颗粒物(PM2.5),68,,69,49,45,20,,42,36,30,33,2,2,1.2,1.1
2026-02-13T0000,1342A,112.9846,28.1177,长沙市,天心区环保局,细颗粒物(PM2.5),70,57,66,51,44,18,,44,39,34,33,5,6,1.0,0.9
2026-02-13T0000,1343A,112.8906,28.1307,长沙市,湖南中医药大学,细颗粒物(PM2.5),69,61,67,50,40,16,,44,36,29,26,6,6,1.3,1.1
2026-02-13T0000,1727A,113.1146,36.1547,长治市,清华站,细颗粒物(PM2.5),77,96,87,56,38,60,,93,84,25,28,11,14,0.9,0.7
2026-02-13T0000,1730A,113.0887,36.2126,长治市,审计局,细颗粒物(PM2.5),89,108,88,66,40,56,,94,87,42,34,17,20,1.0,0.8
2026-02-13T0000,1731A,113.0845,36.1856,长治市,长治八中,颗粒物(PM10),88,126,106,60,41,46,,93,83,37,28,15,20,1.0,0.7
2026-02-13T0000,2845A,113.1561,36.1912,长治市,德盛苑,细颗粒物(PM2.5),82,99,85,60,40,98,,108,101,18,18,17,12,1.0,0.8
2026-02-13T0000,3568A,113.0603,36.0464,长治市,向阳小学,颗粒物(PM10),88,125,110,55,37,61,,98,85,32,23,29,19,0.8,0.6
2026-02-13T0000,3569A,112.8788,36.315,长治市,屯留一中,颗粒物(PM10),89,127,82,65,35,90,,105,101,23,32,14,16,1.2,0.7
2026-02-13T0000,4189A,113.113092,36.199482,长治市,英华南巷50号,颗粒物(PM10),84,117,97,60,41,51,,86,67,34,31,12,17,0.7,0.6
2026-02-13T0000,4190A,113.23666,36.33435,长治市,学府街1号,颗粒物(PM10),84,117,102,58,42,96,,92,83,22,35,17,24,1.2,1.4
2026-02-13T0000,1854A,111.696,28.9725,常德市,市二中,细颗粒物(PM2.5),108,101,94,81,62,12,,48,29,26,23,5,6,1.6,1.3
2026-02-13T0000,3138A,111.7152,29.0288,常德市,武陵区永安,细颗粒物(PM2.5),115,100,103,87,70,17,,51,33,25,28,5,6,1.4,1.3
2026-02-13T0000,3139A,111.6891,28.9881,常德市,鼎城区玉霞,细颗粒物(PM2.5),107,104,91,80,58,12,,54,31,32,25,5,5,1.4,1.3
2026-02-13T0000,3140A,111.6651,29.0526,常德市,武陵区长庚,细颗粒物(PM2.5),110,92,99,83,68,13,,51,35,28,26,5,6,1.3,1.1
2026-02-13T0000,1196A,119.9524,31.7586,常州市,市监测站,细颗粒物(PM2.5),97,118,124,72,83,75,,123,84,37,42,8,8,0.9,0.9
2026-02-13T0000,1200A,119.9351,31.703,常州市,武进监测站,细颗粒物(PM2.5),80,98,113,59,78,102,,122,108,22,24,9,8,0.8,1
2026-02-13T0000,3002A,119.9701,31.813,常州市,行政中心,细颗粒物(PM2.5),89,123,129,66,84,92,,124,104,31,45,8,7,0.9,1
2026-02-13T0000,3003A,120.0434,31.7726,常州市,经开区,细颗粒物(PM2.5),92,126,133,68,85,73,,126,98,38,40,6,9,0.7,1.1
2026-02-13T0000,3010A,119.8919,31.7892,常州市,钟楼,细颗粒物(PM2.5),83,103,116,61,82,104,,126,108,27,33,8,8,0.8,0.9
2026-02-13T0000,3429A,119.8595,31.706,常州市,武进经发区,细颗粒物(PM2.5),109,129,122,82,86,96,,128,103,25,27,7,7,0.8,1
2026-02-13T0000,3430A,119.5812,31.7256,常州市,金坛城区,细颗粒物(PM2.5),100,126,124,75,86,109,,129,121,16,20,8,8,0.9,0.9
2026-02-13T0000,4089A,119.9551,31.863,常州市,崇义南街5-H号,细颗粒物(PM2.5),90,112,122,67,86,69,,118,90,51,51,16,7,1.7,1.2
2026-02-13T0000,2220A,120.4318,41.588,朝阳市,西梁,细颗粒物(PM2.5),143,154,102,109,72,5,,86,47,71,49,16,19,2.0,1.5
2026-02-13T0000,2221A,120.452,41.565,朝阳市,河畔小区,细颗粒物(PM2.5),144,132,93,110,67,28,,93,63,51,38,18,15,1.6,1.4
2026-02-13T0000,2222A,120.4176,41.5648,朝阳市,八里堡,细颗粒物(PM2.5),159,143,94,121,74,28,,84,57,51,46,20,20,1.9,1.6
2026-02-13T0000,3026A,116.6179,23.6608,潮州市,市政府,颗粒物(PM10),55,59,48,35,28,80,,124,108,14,9,4,4,0.6,0.5
2026-02-13T0000,4036A,116.646,23.676,潮州市,金山,,50,50,44,31,28,92,,130,115,11,11,3,3,0.6,0.6
2026-02-13T0000,2473A,113.0116,25.8228,郴州市,市职中,细颗粒物(PM2.5),82,65,37,60,34,3,,26,13,14,15,4,6,1.0,0.9
2026-02-13T0000,2475A,113.0381,25.8074,郴州市,市审计局,细颗粒物(PM2.5),75,57,39,55,31,3,,27,14,17,16,3,3,/,/
2026-02-13T0000,2476A,113.0348,25.7757,郴州市,市环保局,细颗粒物(PM2.5),75,58,45,55,36,10,,25,20,19,17,5,7,0.8,0.8
2026-02-13T0000,4252A,113.0138,25.8011,郴州市,好美居路49号,细颗粒物(PM2.5),77,60,41,56,34,14,,41,23,20,17,4,5,/,/
2026-02-13T0000,1431A,103.9727,30.7242,成都市,金泉两河,细颗粒物(PM2.5),72,79,75,52,48,1,,116,60,85,41,2,2,1.8,0.9
2026-02-13T0000,1432A,104.1423,30.6765,成都市,十里店,细颗粒物(PM2.5),90,121,89,67,50,20,,119,79,79,34,4,4,1.1,0.7
2026-02-13T0000,1433A,104.0594,30.5765,成都市,三瓦窑,细颗粒物(PM2.5),83,99,75,61,54,38,,107,74,74,53,3,2,0.9,0.9
2026-02-13T0000,1434A,104.1122,30.6306,成都市,沙河铺,细颗粒物(PM2.5),110,114,80,83,56,2,,97,50,88,54,5,4,1.1,0.6
2026-02-13T0000,2880A,104.0219,30.6561,成都市,大石西路,细颗粒物(PM2.5),113,129,91,85,63,0,,105,57,90,39,5,5,1.9,0.9
2026-02-13T0000,3136A,104.2724,30.559,成都市,龙泉驿区区政府,细颗粒物(PM2.5),65,61,63,47,45,75,,109,92,14,15,6,6,0.4,0.4
2026-02-13T0000,3357A,104.0028,30.6891,成都市,金博路,细颗粒物(PM2.5),94,94,78,70,51,2,,107,56,84,44,5,5,1.0,0.7
2026-02-13T0000,3359A,104.056,30.5228,成都市,华阳,细颗粒物(PM2.5),117,129,81,88,58,4,,110,64,97,52,3,3,1.6,0.6
2026-02-13T0000,3488A,104.387954,30.746684,成都市,青石路225号,细颗粒物(PM2.5),70,81,72,51,49,26,,106,62,63,44,4,5,0.8,1.4
2026-02-13T0000,3489A,104.0788,30.4054,成都市,科学城,颗粒物(PM10),60,69,61,41,43,33,,85,71,21,17,6,6,0.7,0.7
2026-02-13T0000,4011A,103.8505,30.6946,成都市,光华大道三段,细颗粒物(PM2.5),132,153,97,100,55,,,118,77,80,41,3,3,1.4,0.8
2026-02-13T0000,4144A,104.3257,30.6406,成都市,八角井街185号,颗粒物(PM10),59,67,71,36,44,82,,106,93,16,22,4,4,0.5,0.6
2026-02-13T0000,4224A,104.2433276,30.53529463,成都市,鲸龙路1057号,细颗粒物(PM2.5),69,79,69,50,45,35,,116,74,50,31,5,5,0.6,0.6
2026-02-13T0000,1062A,117.9531,40.908,承德市,铁路,细颗粒物(PM2.5),70,81,68,51,36,19,,51,22,37,35,13,12,1.4,1.1
2026-02-13T0000,1063A,117.9397,40.9763,承德市,中国银行,细颗粒物(PM2.5),74,92,70,54,32,10,,56,21,43,32,7,11,1.4,1.1
2026-02-13T0000,4073A,117.9462,40.95,承德市,杏林街1号,细颗粒物(PM2.5),75,81,61,55,36,13,,64,34,48,32,11,12,1.5,1.1
2026-02-13T0000,4274A,117.7994,40.9605,承德市,滨河大街98号,颗粒物(PM10),55,60,68,38,35,31,,56,40,29,34,9,53,0.6,1.4
2026-02-13T0000,2314A,117.4698,30.6617,池州市,池州学院,颗粒物(PM10),71,91,92,49,45,48,,98,78,33,25,4,6,1.3,1.2
2026-02-13T0000,3237A,117.4918,30.6617,池州市,展览馆,颗粒物(PM10),69,88,87,45,39,22,,93,50,32,27,2,4,0.9,1
2026-02-13T0000,3333A,117.5626,30.695,池州市,第八中学,颗粒物(PM10),77,104,97,48,42,41,,102,87,52,24,5,7,0.8,1
2026-02-13T0000,3334A,117.5037,30.6242,池州市,第十二中学,颗粒物(PM10),74,97,96,48,43,27,,98,65,45,32,5,7,1.2,0.9
2026-02-13T0000,1744A,118.9229,42.2816,赤峰市,松山一中,细颗粒物(PM2.5),235,287,94,185,57,4,,53,12,75,52,28,16,5.7,1.9
2026-02-13T0000,1745A,118.9588,42.2733,赤峰市,哈达街,颗粒物(PM10),108,165,76,71,48,8,,54,17,64,57,23,26,1.7,1.4
2026-02-13T0000,1746A,118.8792,42.2551,赤峰市,天义路,颗粒物(PM10),150,250,71,114,43,6,,62,14,59,40,15,13,2.0,1.2
2026-02-13T0000,3058A,119.2656,42.0356,赤峰市,银河街,细颗粒物(PM2.5),172,159,94,130,61,13,,86,,55,33,21,20,2.4,1.7
2026-02-13T0000,3286A,118.9359,42.3146,赤峰市,桥北物流园区,细颗粒物(PM2.5),53,46,49,37,35,30,,71,36,46,35,4,9,1.1,1.1
2026-02-13T0000,2521A,107.3473,22.4137,崇左市,市环保局江州分局,细颗粒物(PM2.5),69,54,48,50,34,13,,28,22,17,15,7,5,1.0,0.9
2026-02-13T0000,4256A,107.375,22.3736,崇左市,石景林东路7号,细颗粒物(PM2.5),78,,38,57,36,16,,32,24,22,20,2,2,1.1,0.8
2026-02-13T0000,3207A,118.31131,32.3033,滁州市,市政府原办公楼,细颗粒物(PM2.5),90,,101,67,68,16,,107,62,73,39,5,6,1.1,0.7
2026-02-13T0000,3331A,118.3268,32.2633,滁州市,图书馆,颗粒物(PM10),74,97,99,49,53,42,,110,75,48,31,8,9,0.9,0.9
2026-02-13T0000,4101A,118.3196,32.3335,滁州市,银山路666号,细颗粒物(PM2.5),99,109,98,74,67,9,,116,62,48,28,11,14,0.8,0.8
2026-02-13T0000,4102A,118.3426,32.2979,滁州市,黄山路555号,细颗粒物(PM2.5),90,126,126,67,73,27,,110,64,63,43,5,6,0.9,0.8
2026-02-13T0000,2606A,101.5379,25.0492,楚雄彝族自治州,市经济开发区,,49,49,27,26,15,42,,86,72,24,13,3,3,0.5,0.4
2026-02-13T0000,4153A,101.5536,25.0343,楚雄彝族自治州,团结路562号,,32,,22,22,13,58,,85,79,16,12,4,4,0.5,0.5
2026-02-13T0000,2549A,107.5087,31.2186,达州市,市环境监测站,细颗粒物(PM2.5),90,94,79,67,48,10,,85,34,50,39,5,7,0.8,0.7
2026-02-13T0000,2550A,107.4988,31.2132,达州市,凤凰小区,细颗粒物(PM2.5),94,97,85,70,50,3,,79,32,66,42,6,7,1.1,0.8
2026-02-13T0000,2551A,107.5081,31.1987,达州市,达县机关宾馆,细颗粒物(PM2.5),122,107,86,92,51,3,,71,19,58,46,4,6,0.9,0.9
2026-02-13T0000,2552A,107.4644,31.2124,达州市,市政中心,细颗粒物(PM2.5),94,113,86,70,45,4,,79,38,81,47,6,6,1.3,0.8
2026-02-13T0000,2614A,100.2168,25.5818,大理白族自治州,大理市环境监测站,,26,17,17,15,13,83,,85,83,4,7,7,7,0.4,0.4
2026-02-13T0000,2615A,100.1542,25.7055,大理白族自治州,大理古城,,30,25,17,21,11,76,,87,82,4,7,8,8,0.6,0.5
2026-02-13T0000,1109A,121.6119,38.974,大连市,甘井子,细颗粒物(PM2.5),180,204,142,136,104,25,,109,70,80,46,16,17,0.9,0.8
2026-02-13T0000,1110A,121.565,38.9509,大连市,周水子,细颗粒物(PM2.5),175,195,132,132,98,1,,106,43,94,50,12,12,0.9,0.9
2026-02-13T0000,1111A,121.5637,38.8849,大连市,星海三站,细颗粒物(PM2.5),185,167,118,139,100,14,,89,63,55,25,7,8,1.3,0.9
2026-02-13T0000,1112A,121.6301,38.9117,大连市,青泥洼桥,细颗粒物(PM2.5),162,170,126,123,95,28,,106,68,70,37,9,12,1.3,1
2026-02-13T0000,1113A,121.6248,38.8643,大连市,傅家庄,细颗粒物(PM2.5),124,138,123,94,88,74,,89,84,36,29,12,12,0.7,0.8
2026-02-13T0000,1114A,121.5117,38.8636,大连市,七贤岭,细颗粒物(PM2.5),149,166,126,114,92,64,,108,76,43,29,18,11,1.0,0.9
2026-02-13T0000,1116A,121.7507,39.1339,大连市,金州,细颗粒物(PM2.5),168,189,131,127,96,41,,123,85,32,33,10,16,1.3,0.8
2026-02-13T0000,1117A,121.7811,39.0495,大连市,开发区,细颗粒物(PM2.5),178,179,127,134,101,4,,76,41,69,55,6,8,1.7,1
2026-02-13T0000,1118A,121.9762,39.0631,大连市,双D港,细颗粒物(PM2.5),143,142,116,109,90,48,,78,61,36,38,6,9,1.1,1
2026-02-13T0000,4082A,121.2548,38.8188,大连市,旅顺,细颗粒物(PM2.5),169,186,136,128,102,44,,110,72,41,27,10,12,1.2,1
2026-02-13T0000,1789A,124.8085,46.0381,大庆市,大同区,,46,46,55,18,31,51,,74,59,11,15,9,10,0.7,0.8
2026-02-13T0000,1790A,125.1166,46.5255,大庆市,龙凤区,细颗粒物(PM2.5),58,63,61,41,45,40,,66,46,20,34,11,13,0.4,0.7
2026-02-13T0000,1791A,124.8894,46.4007,大庆市,红岗区,,38,38,47,14,30,42,,60,50,18,21,6,7,0.6,0.7
2026-02-13T0000,1792A,125.1391,46.578,大庆市,萨尔图区,,,,58,,34,,,39,,,41,,12,,0.8
2026-02-13T0000,1793A,124.9026,46.6217,大庆市,让胡路区,,43,43,47,23,35,47,,71,59,24,26,8,7,0.7,0.6
2026-02-13T0000,3481A,125.127,46.6277,大庆市,萨区政府监测点,颗粒物(PM10),53,56,59,19,27,54,,68,59,15,25,12,12,0.8,0.8
2026-02-13T0000,1723A,113.2926,40.0759,大同市,云冈宾馆,颗粒物(PM10),79,107,102,56,38,32,,75,63,46,37,12,19,1.3,1.3
2026-02-13T0000,1724A,113.3437,40.0921,大同市,大同大学,颗粒物(PM10),75,100,107,35,33,62,,81,69,24,27,12,18,1.4,0.7
2026-02-13T0000,1725A,113.2637,40.129,大同市,安家小村,颗粒物(PM10),90,129,119,52,44,38,,77,61,40,36,19,24,1.5,1.5
2026-02-13T0000,3282A,113.3399,40.0586,大同市,大同市卫生学校,颗粒物(PM10),74,98,107,41,36,58,,86,74,39,37,12,17,1.0,0.7
2026-02-13T0000,3565A,113.1371,40.1122,大同市,云冈站,颗粒物(PM10),67,83,89,30,32,20,,87,56,41,28,24,19,0.7,0.7
2026-02-13T0000,3566A,113.1186,40.2556,大同市,图书馆,颗粒物(PM10),62,74,92,30,35,44,,88,60,9,17,4,9,0.5,0.8
2026-02-13T0000,3567A,113.5931,40.0459,大同市,区一中,细颗粒物(PM2.5),99,142,128,74,56,40,,88,62,39,27,30,28,1.1,1.4
2026-02-13T0000,4199A,113.2798248,40.09972476,大同市,魏都大道141号,颗粒物(PM10),99,148,127,68,45,12,,73,49,71,45,17,19,1.5,1.5
2026-02-13T0000,2269A,124.1068,50.4091,大兴安岭地区,科技局,,32,32,30,12,16,57,,70,57,5,6,4,5,0.3,0.3
2026-02-13T0000,3663A,124.117,50.4279,大兴安岭地区,红旗社区,细颗粒物(PM2.5),69,63,41,50,25,9,,75,38,77,31,41,12,0.7,0.4
2026-02-13T0000,1600A,124.33,40.0625,丹东市,江湾东路,细颗粒物(PM2.5),97,100,94,72,68,65,,90,62,18,34,7,15,1.1,1.4
2026-02-13T0000,1601A,124.4242,40.1513,丹东市,临江后街,细颗粒物(PM2.5),162,186,99,123,72,36,,90,69,33,29,17,18,2.4,1.5
2026-02-13T0000,1602A,124.3935,40.1461,丹东市,元宝山,细颗粒物(PM2.5),97,104,86,72,63,83,,95,90,22,24,18,14,1.7,1.2
2026-02-13T0000,1603A,124.3634,40.1093,丹东市,民主桥,细颗粒物(PM2.5),98,108,94,73,66,81,,93,88,17,33,8,13,0.8,1
2026-02-13T0000,3541A,109.5726195,19.51688767,儋州市,第一中学子站,,22,20,21,9,11,70,,78,77,2,2,4,4,0.6,0.6
2026-02-13T0000,3542A,109.5567,19.5187,儋州市,东坡学校子站,,24,20,25,9,10,76,,85,83,2,3,3,4,0.5,0.5
2026-02-13T0000,2616A,98.5611,24.4273,德宏傣族景颇族自治州,德宏州监测站,细颗粒物(PM2.5),63,59,49,45,33,51,,98,75,21,23,6,7,0.6,0.6
2026-02-13T0000,3677A,98.5887,24.4366,德宏傣族景颇族自治州,芒市人民政府综合楼,颗粒物(PM10),57,64,54,24,27,47,,91,71,12,13,4,4,0.9,0.8
2026-02-13T0000,1901A,104.424,31.1209,德阳市,东山公园,细颗粒物(PM2.5),67,68,70,48,52,86,,104,98,10,16,2,3,0.4,0.6
2026-02-13T0000,1902A,104.3827,31.1318,德阳市,西小区,细颗粒物(PM2.5),143,127,96,109,66,12,,96,58,74,42,5,6,1.0,0.9
2026-02-13T0000,1904A,104.3553,31.1091,德阳市,耐火材料厂,细颗粒物(PM2.5),134,122,95,102,75,20,,98,66,52,36,2,3,0.9,0.7
2026-02-13T0000,4145A,104.4144,31.1495,德阳市,市林业局,细颗粒物(PM2.5),92,91,73,68,51,9,,103,59,62,32,5,6,0.6,0.8
2026-02-13T0000,1622A,116.3034,37.4675,德州市,儿童乐园,细颗粒物(PM2.5),148,205,172,113,82,78,,108,96,34,28,17,16,1.3,1.1
2026-02-13T0000,1624A,116.2992,37.4449,德州市,监理站,细颗粒物(PM2.5),150,210,173,115,83,84,,113,102,40,33,17,16,1.0,0.9
2026-02-13T0000,3066A,116.2722,37.438,德州市,九衢泉纯净水厂,细颗粒物(PM2.5),152,202,167,116,87,73,,110,92,42,36,15,12,1.0,1
2026-02-13T0000,3371A,116.3693,37.44,德州市,开发区人民医院,细颗粒物(PM2.5),158,219,176,120,85,75,,110,102,35,25,20,17,0.9,0.8
2026-02-13T0000,3511A,116.5687,37.3331,德州市,陵城艺术中心,细颗粒物(PM2.5),124,190,167,94,83,77,,99,91,32,33,26,18,0.9,1
2026-02-13T0000,4292A,116.352738,37.420875,德州市,新河东路,细颗粒物(PM2.5),149,229,171,114,78,67,,107,91,35,36,22,18,1.1,1
2026-02-13T0000,2621A,99.7054,27.8319,迪庆藏族自治州,迪庆州站,,29,20,28,15,18,90,,90,89,5,8,5,5,0.6,0.7
2026-02-13T0000,3180A,99.7122,27.8129,迪庆藏族自治州,质量技术监督局,,29,19,22,16,13,92,,97,95,6,8,4,5,0.6,0.5
2026-02-13T0000,4257A,104.6092,35.5962,定西市,将台街,细颗粒物(PM2.5),108,130,105,81,58,10,,83,47,52,28,25,20,1.4,1.1
2026-02-13T0000,4309A,104.6159,35.5701,定西市,正龙路62号,细颗粒物(PM2.5),88,115,100,65,54,34,,84,61,18,15,16,14,1.1,1
2026-02-13T0000,1390A,113.7943,23.0132,东莞市,东城石井,,46,46,37,32,24,56,,109,86,24,19,4,4,0.6,0.6
2026-02-13T0000,1391A,113.7384,22.9659,东莞市,南城西平,,50,44,36,35,24,77,,103,87,22,22,5,5,0.6,0.5
2026-02-13T0000,3319A,113.7283,23.041,东莞市,万江金泰,颗粒物(PM10),54,58,44,35,26,65,,104,86,29,19,5,5,0.8,0.7
2026-02-13T0000,4129A,113.8666,23.1062,东莞市,裕兴路,颗粒物(PM10),54,58,38,35,20,72,,103,86,22,15,5,5,0.7,0.7
2026-02-13T0000,4130A,114.0076,22.9739,东莞市,教育路1号,,35,35,42,20,23,88,,107,88,17,20,4,3,0.6,0.6
2026-02-13T0000,4131A,113.7981,22.8124,东莞市,长怡路1号,,,55,42,33,23,,,99,,15,17,6,6,0.6,0.6
2026-02-13T0000,1666A,118.6612,37.4313,东营市,市环保局,细颗粒物(PM2.5),135,171,135,103,76,59,,120,86,53,49,21,21,1.0,1
2026-02-13T0000,3036A,118.6903,37.4337,东营市,开发区管委会,细颗粒物(PM2.5),120,157,131,91,69,62,,118,94,57,49,18,20,1.0,0.9
2026-02-13T0000,3365A,118.5721,37.5654,东营市,垦利区民丰路,细颗粒物(PM2.5),143,193,136,109,74,36,,117,63,67,50,15,15,1.2,1
2026-02-13T0000,3498A,118.5063,37.8606,东营市,河口城区,细颗粒物(PM2.5),170,200,155,129,81,70,,123,102,43,46,11,16,1.3,1.1
2026-02-13T0000,3646A,118.4979,37.4623,东营市,胜利站,细颗粒物(PM2.5),135,168,125,103,68,36,,104,50,78,71,16,18,1.5,1.2
2026-02-13T0000,3734A,118.5753,37.4405,东营市,理想之城,细颗粒物(PM2.5),152,190,137,116,70,43,,123,64,64,56,17,16,1.2,1
2026-02-13T0000,1591A,110.0024,39.8127,鄂尔多斯市,综合楼,颗粒物(PM10),69,88,79,14,20,74,,89,68,16,18,6,7,0.3,0.5
2026-02-13T0000,1592A,109.9485,39.8259,鄂尔多斯市,巴音孟克林场办事处,颗粒物(PM10),62,73,72,19,22,86,,94,70,8,14,4,5,0.3,0.4
2026-02-13T0000,1593A,109.7734,39.5987,鄂尔多斯市,康泽苑,颗粒物(PM10),64,78,80,22,22,54,,98,78,20,14,4,4,0.4,0.4
2026-02-13T0000,1594A,109.8121,39.5987,鄂尔多斯市,华泰汽车城,颗粒物(PM10),60,70,80,24,24,45,,97,71,22,19,7,7,0.4,0.4
2026-02-13T0000,1595A,109.9734,39.7884,鄂尔多斯市,奥林花园,颗粒物(PM10),67,83,82,22,18,72,,90,56,21,27,2,4,0.3,0.4
2026-02-13T0000,2436A,114.894,30.3989,鄂州市,市政府,细颗粒物(PM2.5),97,126,113,72,74,20,,90,56,63,39,8,22,1.1,0.8
2026-02-13T0000,2437A,114.8986,30.3714,鄂州市,赵家坝,细颗粒物(PM2.5),97,99,102,72,63,28,,103,71,52,19,10,14,1.3,0.9
2026-02-13T0000,3654A,114.8093,30.4091,鄂州市,精准医疗中心,颗粒物(PM10),79,107,112,56,71,38,,97,74,48,35,8,22,0.9,1.1
2026-02-13T0000,2454A,109.4978,30.2979,恩施土家族苗族自治州,湖北民院,细颗粒物(PM2.5),80,93,66,59,40,28,,78,52,19,7,6,6,0.9,0.8
2026-02-13T0000,3549A,109.5061,30.3771,恩施土家族苗族自治州,龙凤新区,颗粒物(PM10),69,87,60,48,33,24,,72,41,11,11,7,7,0.7,0.7
2026-02-13T0000,2499A,108.3411,21.6159,防城港市,沙万,颗粒物(PM10),102,154,56,62,33,1,,46,34,62,24,7,7,1.0,0.7
2026-02-13T0000,2500A,108.3515,21.7733,防城港市,防城档案局,细颗粒物(PM2.5),110,122,54,83,39,6,,44,29,33,14,6,5,1.7,0.8
2026-02-13T0000,2501A,108.3506,21.6414,防城港市,大海花园,细颗粒物(PM2.5),88,85,62,65,46,23,,47,40,48,23,8,7,1.0,1.1
2026-02-13T0000,1371A,113.1293,23.0065,佛山市,湾梁,颗粒物(PM10),51,51,40,35,29,46,,76,67,33,24,/,/,/,/
2026-02-13T0000,1372A,113.1082,23.0477,佛山市,华材职中,颗粒物(PM10),51,51,40,32,25,58,,80,76,30,27,5,6,0.5,0.5
2026-02-13T0000,1373A,113.1439,23.045,佛山市,南海气象局,,45,41,39,31,28,56,,72,67,27,24,/,/,/,/
2026-02-13T0000,1374A,113.2879,22.8094,佛山市,顺德苏岗,,45,45,42,31,25,70,,78,73,20,26,/,/,0.7,0.8
2026-02-13T0000,1376A,112.8384,22.8678,佛山市,高明孔堂,,34,34,33,22,22,69,,79,78,17,18,/,/,/,/
2026-02-13T0000,1377A,112.8835,23.1584,佛山市,三水监测站,颗粒物(PM10),57,63,36,36,25,47,,70,68,28,18,2,2,0.6,0.6
2026-02-13T0000,1378A,112.8668,23.185,佛山市,三水云东海,,47,47,35,28,22,27,,68,60,32,22,/,/,/,/
2026-02-13T0000,3625A,113.2568,22.7629,佛山市,容桂街道办,,43,36,37,30,24,72,,77,75,17,22,/,/,/,/
2026-02-13T0000,1282A,119.2681,26.0506,福州市,师大,"颗粒物(PM10),细颗粒物(PM2.5)",52,53,50,36,30,96,,115,107,20,17,4,4,0.5,0.5
2026-02-13T0000,1283A,119.2983,26.1028,福州市,五四北路,细颗粒物(PM2.5),53,51,50,37,33,82,,113,97,23,18,5,5,0.5,0.6
2026-02-13T0000,1284A,119.2648,26.0769,福州市,杨桥西路,,50,50,50,35,31,75,,116,103,26,17,4,4,/,/
2026-02-13T0000,3048A,119.5799,26.0937,福州市,九龙,,38,35,43,26,29,77,,125,106,16,13,4,4,0.5,0.5
2026-02-13T0000,3526A,119.5188,25.9666,福州市,吴航,颗粒物(PM10),56,61,52,36,30,91,,115,103,19,16,5,5,0.6,0.6
2026-02-13T0000,4104A,119.3106,26.0648,福州市,路通桥巷6号,细颗粒物(PM2.5),63,54,56,45,37,80,,108,95,24,18,/,/,/,/
2026-02-13T0000,1755A,123.7974,41.8494,抚顺市,望花区,细颗粒物(PM2.5),208,230,138,158,91,7,,68,45,71,53,14,16,2.4,1.6
2026-02-13T0000,1756A,123.9161,41.8827,抚顺市,顺城区,细颗粒物(PM2.5),205,174,111,155,88,7,,80,37,69,54,13,16,2.3,1.7
2026-02-13T0000,1757A,124.0437,41.8615,抚顺市,东洲区,细颗粒物(PM2.5),104,110,88,78,56,52,,77,58,24,27,10,14,1.1,1.2
2026-02-13T0000,1758A,123.9246,41.8638,抚顺市,新抚区,细颗粒物(PM2.5),148,166,119,113,74,13,,84,58,63,42,7,11,1.5,1.2
2026-02-13T0000,1759A,124.0972,41.8961,抚顺市,大伙房水库,细颗粒物(PM2.5),84,81,66,62,47,70,,92,77,15,21,11,12,1.0,1
2026-02-13T0000,1760A,123.708,41.8386,抚顺市,沈抚新城,细颗粒物(PM2.5),196,198,127,147,83,2,,70,41,99,63,11,16,2.0,1.7
2026-02-13T0000,2377A,116.3544,27.9833,抚州市,市站,细颗粒物(PM2.5),74,70,69,54,54,51,,73,47,16,19,6,6,1.2,1.3
2026-02-13T0000,2378A,116.3562,27.9631,抚州市,血防站,细颗粒物(PM2.5),82,73,69,60,50,41,,63,44,14,19,6,6,1.2,1.1
2026-02-13T0000,2379A,116.3561,28.0007,抚州市,采茶剧团,细颗粒物(PM2.5),67,65,68,48,43,42,,64,44,10,15,4,5,1.5,1.5
2026-02-13T0000,2380A,116.3854,27.9648,抚州市,医学分院,细颗粒物(PM2.5),87,77,72,64,46,31,,65,42,23,20,4,5,1.3,1.2
2026-02-13T0000,2207A,121.6095,41.9978,阜新市,工业园区,细颗粒物(PM2.5),238,259,144,188,99,11,,92,51,58,40,30,20,2.1,1.2
2026-02-13T0000,2208A,121.6567,42.0188,阜新市,长青街,细颗粒物(PM2.5),225,180,102,175,91,5,,99,55,76,43,16,17,1.7,1.2
2026-02-13T0000,2209A,121.6672,42.07,阜新市,农业园区,细颗粒物(PM2.5),185,146,104,139,75,61,,94,82,34,23,34,22,1.2,0.8
2026-02-13T0000,2211A,121.6343,42.0455,阜新市,玉龙新城,细颗粒物(PM2.5),170,173,122,129,88,11,,90,36,63,48,17,18,2.0,1.3
2026-02-13T0000,2301A,115.8276,32.8929,阜阳市,市监测站,颗粒物(PM10),84,117,121,47,52,73,,107,83,20,18,6,6,0.5,0.6
2026-02-13T0000,2303A,115.8551,32.8606,阜阳市,开发区,颗粒物(PM10),80,109,124,45,51,70,,100,85,22,17,6,6,0.5,0.5
2026-02-13T0000,2875A,115.783962,32.889217,阜阳市,阜阳职业技术学院,颗粒物(PM10),75,100,117,38,43,96,,113,101,16,18,7,7,0.5,0.5
2026-02-13T0000,3468A,115.79,32.8614,阜阳市,市规划展馆,颗粒物(PM10),84,117,127,51,48,81,,114,96,13,14,7,7,0.5,0.6
2026-02-13T0000,3469A,115.835101,32.918568,阜阳市,枣园社区,颗粒物(PM10),85,119,129,47,35,59,,108,73,40,27,7,7,0.4,0.5
2026-02-13T0000,2669A,102.9097,34.9841,甘南藏族自治州,州政府,,49,43,50,34,31,26,,78,56,32,19,10,9,0.9,0.7
2026-02-13T0000,3380A,102.8915,34.9618,甘南藏族自治州,甘肃民族师范学院,颗粒物(PM10),53,55,54,21,23,22,,79,53,35,20,8,13,0.5,0.4
2026-02-13T0000,2570A,101.96,30.048,甘孜藏族自治州,水桥子,,,26,18,17,9,76,,78,78,,6,6,6,0.4,0.7
2026-02-13T0000,3065A,101.9534,29.9976,甘孜藏族自治州,州环保局,,26,24,15,17,9,81,,85,83,4,6,5,6,0.8,0.7
2026-02-13T0000,2363A,114.9368,25.8663,赣州市,地委,颗粒物(PM10),58,66,51,26,32,42,,53,33,10,24,7,7,0.8,0.8
2026-02-13T0000,2364A,114.946,25.8483,赣州市,气象台,颗粒物(PM10),65,79,60,23,42,37,,53,27,24,29,6,6,0.5,0.7
2026-02-13T0000,2365A,114.932,25.8332,赣州市,市图书馆,颗粒物(PM10),58,65,51,30,39,31,,45,23,18,25,4,4,1.0,1.1
2026-02-13T0000,2366A,114.8905,25.8472,赣州市,华坚鞋城,颗粒物(PM10),69,88,58,36,37,33,,50,22,23,30,6,5,0.6,0.7
2026-02-13T0000,3109A,115.0094,25.8614,赣州市,赣县区卫计委,颗粒物(PM10),61,71,48,29,35,7,,52,24,51,23,7,7,1.1,0.8
2026-02-13T0000,2684A,106.2753,36.0057,固原市,监测站,细颗粒物(PM2.5),143,154,106,109,44,14,,88,44,74,23,30,13,2.8,0.8
2026-02-13T0000,2685A,106.2384,36.0189,固原市,新区,颗粒物(PM10),69,88,96,33,33,33,,88,34,56,28,8,8,0.6,0.7
2026-02-13T0000,2544A,106.6307,30.4577,广安市,市委,细颗粒物(PM2.5),163,136,109,124,91,45,,92,67,39,36,7,7,1.1,1.2
2026-02-13T0000,2545A,106.6266,30.4662,广安市,友谊中学,,,,92,,67,,,99,,,29,,8,,1.3
2026-02-13T0000,2547A,106.6386,30.4551,广安市,广电花园,细颗粒物(PM2.5),165,,87,125,91,41,,87,67,33,27,7,7,1.0,0.9
2026-02-13T0000,2902A,106.6347,30.4868,广安市,北辰小学,细颗粒物(PM2.5),135,109,89,103,78,36,,96,70,31,22,9,9,1.0,0.9
2026-02-13T0000,2524A,105.8211,32.4444,广元市,老城,细颗粒物(PM2.5),72,83,81,52,46,22,,83,47,58,44,7,11,0.9,0.7
2026-02-13T0000,2526A,105.8629,32.429,广元市,监测站,细颗粒物(PM2.5),62,68,61,44,39,32,,83,63,36,23,10,9,1.0,0.7
2026-02-13T0000,3617A,105.8047,32.4167,广元市,经开区,细颗粒物(PM2.5),62,70,75,44,48,23,,78,46,39,34,3,8,0.8,0.9
2026-02-13T0000,1345A,113.2346,23.1423,广州市,广雅中学,,48,48,40,29,25,69,,78,70,29,31,2,2,0.6,0.6
2026-02-13T0000,1346A,113.2611,23.105,广州市,市五中,,46,46,41,26,23,74,,88,79,24,24,6,6,/,/
2026-02-13T0000,1348A,113.3477,23.0916,广州市,广东商学院,,46,46,37,32,28,52,,85,66,31,22,5,5,0.8,0.8
2026-02-13T0000,1349A,113.4332,23.105,广州市,市八十六中,,41,41,35,28,24,53,,100,75,45,31,4,4,/,/
2026-02-13T0000,1350A,113.3506,22.9488,广州市,番禺中学,,,73,47,31,25,72,,80,,22,23,,3,0.7,0.7
2026-02-13T0000,1351A,113.2147,23.3918,广州市,花都师范,颗粒物(PM10),53,55,37,34,26,55,,78,66,28,23,5,5,0.7,0.7
2026-02-13T0000,1352A,113.2599,23.1329,广州市,市监测站,,50,50,42,32,26,59,,77,65,27,21,1,1,/,/
2026-02-13T0000,1353A,113.5618,23.3119,广州市,九龙镇镇龙,,50,50,37,34,27,26,,103,72,33,19,4,5,0.7,0.6
2026-02-13T0000,1354A,113.2764,23.1544,广州市,麓湖,,43,42,36,30,25,45,,83,63,37,26,3,4,0.6,0.6
2026-02-13T0000,2846A,113.3209,23.1323,广州市,体育西,,44,44,39,27,26,70,,84,73,28,26,5,6,0.8,0.8
2026-02-13T0000,3298A,113.5718,23.5493,广州市,从化街口,颗粒物(PM10),56,61,38,39,26,34,,104,82,32,20,6,8,0.7,0.7
2026-02-13T0000,3299A,113.3463,23.369,广州市,白云竹料,细颗粒物(PM2.5),57,61,37,40,26,48,,94,77,29,19,3,3,0.7,0.7
2026-02-13T0000,3300A,113.2981,23.2365,广州市,白云嘉禾,颗粒物(PM10),53,56,39,35,26,50,,94,71,38,26,5,5,/,/
2026-02-13T0000,3301A,113.4256,23.1716,广州市,黄埔科学城,细颗粒物(PM2.5),52,51,38,36,29,50,,106,77,25,20,4,5,0.7,0.7
2026-02-13T0000,3302A,113.3942,23.0485,广州市,番禺大学城,颗粒物(PM10),60,70,52,29,25,84,,97,84,18,21,7,7,0.5,0.6
2026-02-13T0000,3303A,113.4923,22.8169,广州市,南沙黄阁,,43,33,42,30,26,67,,84,79,20,28,4,6,/,/
2026-02-13T0000,3304A,113.534,22.7893,广州市,南沙街,,48,42,45,33,27,74,,82,73,17,25,4,5,0.6,0.6
2026-02-13T0000,3443A,113.2905,23.5541,广州市,花都梯面,,49,49,34,32,24,22,,80,63,24,15,4,5,/,/
2026-02-13T0000,3445A,113.786,23.7479,广州市,从化良口,,49,45,28,34,23,63,,104,98,15,11,8,8,/,/
2026-02-13T0000,3446A,113.805,23.2614,广州市,增城荔城,颗粒物(PM10),55,59,37,36,24,47,,119,87,31,16,8,5,0.6,0.5
2026-02-13T0000,2506A,109.604387,23.066791,贵港市,江南子站,细颗粒物(PM2.5),72,92,56,52,34,1,,52,21,27,20,7,5,1.1,1
2026-02-13T0000,2508A,109.5669,23.1065,贵港市,荷城子站,细颗粒物(PM2.5),83,100,53,61,28,5,,34,14,35,23,7,6,1.8,1.3
2026-02-13T0000,3405A,109.5886,23.1172,贵港市,新世纪学校,细颗粒物(PM2.5),65,66,45,47,33,11,,38,16,37,25,/,/,1.0,0.8
2026-02-13T0000,4260A,109.5933,23.095,贵港市,中山路155-3号,细颗粒物(PM2.5),102,109,58,76,44,2,,44,20,29,21,/,/,1.4,0.8
2026-02-13T0000,1439A,106.6863,26.6035,贵阳市,马鞍山,细颗粒物(PM2.5),115,97,37,87,29,19,,34,26,14,15,8,7,/,/
2026-02-13T0000,1441A,106.6241,26.6266,贵阳市,鉴湖路,细颗粒物(PM2.5),108,95,43,81,29,25,,34,27,15,16,6,5,0.7,0.7
2026-02-13T0000,1442A,106.7468,26.6344,贵阳市,燕子冲,细颗粒物(PM2.5),87,78,40,64,30,38,,43,38,13,13,10,9,0.6,0.6
2026-02-13T0000,1443A,106.6556,26.4362,贵阳市,碧云窝,细颗粒物(PM2.5),82,92,37,60,21,32,,41,38,14,14,15,16,/,/
2026-02-13T0000,1445A,106.6963,26.6063,贵阳市,红边门,细颗粒物(PM2.5),92,83,39,68,32,34,,37,33,16,20,12,11,/,/
2026-02-13T0000,1446A,106.7162383,26.56964667,贵阳市,新华路,细颗粒物(PM2.5),98,88,44,73,30,23,,40,30,17,21,11,8,0.5,0.5
2026-02-13T0000,1447A,106.6742,26.542,贵阳市,太慈桥,细颗粒物(PM2.5),94,75,34,70,30,36,,38,36,17,21,6,6,/,/
2026-02-13T0000,4230A,106.688212,26.56952,贵阳市,花果园大街66号,细颗粒物(PM2.5),95,75,32,71,31,23,,27,26,17,20,5,4,/,/
2026-02-13T0000,4231A,106.687268,26.516892,贵阳市,漓江路57号,细颗粒物(PM2.5),95,80,36,71,27,22,,38,32,19,20,10,10,0.8,0.8
2026-02-13T0000,1864A,110.3091,25.2705,桂林市,龙隐路小学,细颗粒物(PM2.5),53,40,29,37,29,1,,27,8,28,18,3,3,1.1,0.8
2026-02-13T0000,1865A,110.2849361,25.22909545,桂林市,八中,,42,42,34,28,21,1,,20,7,33,27,3,2,1.0,0.8
2026-02-13T0000,3531A,110.296,25.1254,桂林市,旅游学院,,39,,33,27,25,4,,33,16,25,15,6,4,0.9,0.8
2026-02-13T0000,4222A,110.1835,25.2444,桂林市,环湖路276号,,46,44,32,32,28,0,,26,7,44,30,8,3,1.2,1.1
2026-02-13T0000,4301A,110.2803,25.2773,桂林市,信义路13号,,35,28,29,24,26,0,,22,6,32,23,6,5,1.4,1.3
2026-02-13T0000,2674A,100.2262,34.4854,果洛藏族自治州,玛沁县大武镇,,43,43,42,15,13,50,,87,72,4,3,16,17,0.4,0.4
2026-02-13T0000,1130A,126.5557,45.8109,哈尔滨市,松北商大,细颗粒物(PM2.5),63,51,63,45,54,59,,69,56,13,32,9,10,0.7,0.9
2026-02-13T0000,1132A,126.6162,45.719,哈尔滨市,南岗学府路,颗粒物(PM10),60,70,85,38,59,68,,78,62,15,34,10,12,0.8,1.1
2026-02-13T0000,1133A,126.6894,45.7733,哈尔滨市,太平宏伟公园,颗粒物(PM10),55,60,96,34,73,67,,80,62,6,23,15,13,0.6,1.3
2026-02-13T0000,1134A,126.6361,45.7672,哈尔滨市,道外承德广场,颗粒物(PM10),63,75,85,34,52,55,,73,56,28,49,12,13,0.4,0.8
2026-02-13T0000,1136A,126.644,45.7261,哈尔滨市,动力和平路,细颗粒物(PM2.5),58,63,72,41,53,61,,72,60,19,39,9,14,0.6,0.9
2026-02-13T0000,1137A,126.5933,45.7479,哈尔滨市,道里建国路,细颗粒物(PM2.5),65,72,79,47,63,44,,68,53,28,51,30,32,0.2,0.8
2026-02-13T0000,1138A,126.6127,45.6119,哈尔滨市,平房东轻厂,,,56,72,48,65,58,,85,70,,32,10,10,0.7,0.9
2026-02-13T0000,1139A,126.5875,45.9827,哈尔滨市,呼兰师专,颗粒物(PM10),52,53,73,33,57,57,,70,54,16,29,14,15,0.8,1
2026-02-13T0000,1140A,126.6299,45.6799,哈尔滨市,省农科院,细颗粒物(PM2.5),77,77,84,56,66,44,,72,51,28,41,10,12,0.8,0.9
2026-02-13T0000,4282A,126.6769,45.7379,哈尔滨市,华山路1号,细颗粒物(PM2.5),58,63,84,41,56,55,,70,53,22,46,4,13,0.8,1.3
2026-02-13T0000,4283A,126.9717,45.5356,哈尔滨市,解放大街52号,细颗粒物(PM2.5),75,82,74,55,53,60,,91,74,18,19,24,25,1.0,0.9
2026-02-13T0000,2688A,93.5124,42.8176,哈密市,地区监测站,颗粒物(PM10),124,198,162,76,51,41,,65,47,19,15,9,7,0.3,0.3
2026-02-13T0000,2689A,93.5014,42.8312,哈密市,哈密师范学校,颗粒物(PM10),122,194,159,54,40,45,,74,54,30,23,9,5,0.5,0.6
2026-02-13T0000,2671A,100.9016,36.9464,海北藏族自治州,海晏县西海镇,,30,30,32,19,14,66,,88,82,2,3,8,8,0.4,0.4
2026-02-13T0000,3867A,102.074,36.5056,海东市,平安区公安局北苑,细颗粒物(PM2.5),77,74,82,56,50,34,,71,58,24,24,18,23,1.2,1.3
2026-02-13T0000,4163A,102.0984,36.5119,海东市,滨河路,颗粒物(PM10),93,136,95,66,55,15,,80,42,49,43,24,27,1.1,1.2
2026-02-13T0000,1410A,110.3189,20.0596,海口市,海南大学,,35,35,30,14,13,94,,108,101,3,5,5,5,0.3,0.3
2026-02-13T0000,1411A,110.2827,20.0051,海口市,秀英海南医院,,37,37,27,18,14,87,,100,95,5,6,8,7,0.3,0.3
2026-02-13T0000,1412A,110.3391,19.9979,海口市,海南师范大学,,34,34,28,18,15,91,,106,100,5,6,5,5,0.4,0.4
2026-02-13T0000,1413A,110.3303,20.0359,海口市,龙华路环保局宿舍,,36,36,28,16,15,93,,109,103,6,7,/,/,0.7,0.6
2026-02-13T0000,3539A,110.5111,19.9737,海口市,桂林洋子站,,32,32,27,15,14,83,,102,92,4,4,/,/,/,/
2026-02-13T0000,4134A,110.1952,20.0451,海口市,长滨二路9号,,31,31,24,16,13,83,,98,92,7,6,/,/,/,/
2026-02-13T0000,2673A,100.6158,36.2985,海南藏族自治州,共和县恰卜恰镇,细颗粒物(PM2.5),70,,47,51,32,37,,87,62,23,19,11,13,0.6,0.6
2026-02-13T0000,2676A,97.373,37.376,海西蒙古族藏族自治州,德令哈市,,33,33,37,18,14,77,,104,90,3,4,21,19,0.4,0.5
2026-02-13T0000,1049A,114.492,36.5712,邯郸市,矿院,细颗粒物(PM2.5),153,150,115,117,72,49,,114,89,46,33,9,9,1.0,1
2026-02-13T0000,1050A,114.4839,36.6136,邯郸市,丛台公园,细颗粒物(PM2.5),134,146,120,102,71,49,,109,87,53,39,9,12,1.0,1
2026-02-13T0000,3458A,114.7893,36.5592,邯郸市,香泉濮院小区,细颗粒物(PM2.5),127,198,150,96,63,60,,114,91,33,21,11,11,1.0,1
2026-02-13T0000,3580A,114.1998,36.4439,邯郸市,峰峰矿区临水派出所,细颗粒物(PM2.5),92,118,92,68,42,91,,123,110,15,14,15,19,0.9,1.2
2026-02-13T0000,4068A,114.5209,36.7697,邯郸市,建安街268号,细颗粒物(PM2.5),196,204,127,147,74,5,,104,60,71,40,13,12,1.5,1.2
2026-02-13T0000,4069A,114.5488,36.6177,邯郸市,丛台东路558号,细颗粒物(PM2.5),169,169,140,128,102,58,,116,93,36,34,12,10,1.2,1
2026-02-13T0000,2635A,107.0155,33.0707,汉中市,市监测站,细颗粒物(PM2.5),118,110,90,89,55,33,,80,55,35,30,6,7,1.4,1.1
2026-02-13T0000,2636A,107.0083,33.114,汉中市,鑫源开发区,细颗粒物(PM2.5),107,111,78,80,49,9,,76,50,49,24,6,6,1.4,1.1
2026-02-13T0000,2637A,107.0072,33.0323,汉中市,南郑大河坎水厂,细颗粒物(PM2.5),102,104,86,76,52,39,,79,56,25,24,6,7,1.1,1
2026-02-13T0000,1223A,120.2073,30.2111,杭州市,滨江,细颗粒物(PM2.5),120,151,110,91,66,80,,112,99,31,33,7,7,0.7,0.7
2026-02-13T0000,1224A,120.0625,30.2737,杭州市,西溪,细颗粒物(PM2.5),98,105,92,73,55,42,,118,96,27,24,8,8,1.1,0.9
2026-02-13T0000,1226A,120.3417,30.315,杭州市,下沙,细颗粒物(PM2.5),139,151,113,106,76,74,,120,103,31,42,10,10,0.6,0.6
2026-02-13T0000,1227A,120.1252,30.2465,杭州市,卧龙桥,细颗粒物(PM2.5),93,106,84,69,53,40,,107,67,19,18,8,9,0.6,0.6
2026-02-13T0000,1228A,120.1902,30.2691,杭州市,浙江农大,细颗粒物(PM2.5),105,154,103,79,60,87,,131,116,31,32,6,6,0.8,0.8
2026-02-13T0000,1230A,120.1195,30.3121,杭州市,和睦小学,细颗粒物(PM2.5),123,154,109,93,66,77,,120,108,32,27,5,5,0.7,0.8
2026-02-13T0000,1231A,120.3076,30.4146,杭州市,临平镇,细颗粒物(PM2.5),134,143,116,102,78,85,,124,113,23,26,7,7,0.8,0.8
2026-02-13T0000,1232A,120.2753,30.1839,杭州市,城厢镇,细颗粒物(PM2.5),123,139,106,93,64,63,,122,104,41,28,8,8,0.9,0.9
2026-02-13T0000,1233A,120.0883,30.1808,杭州市,云栖,细颗粒物(PM2.5),87,108,87,64,50,53,,114,80,22,19,4,5,0.7,0.7
2026-02-13T0000,3557A,119.9463,30.0496,杭州市,镇二中,细颗粒物(PM2.5),80,89,76,59,52,32,,112,88,39,25,4,5,1.2,1
2026-02-13T0000,3558A,119.7184,30.2367,杭州市,市府大楼,细颗粒物(PM2.5),85,90,70,63,52,37,,109,78,22,16,10,11,0.8,0.6
2026-02-13T0000,3656A,120.1554,30.2863,杭州市,消防大队,细颗粒物(PM2.5),130,144,106,99,70,72,,111,99,32,27,7,7,0.8,0.9
2026-02-13T0000,1270A,117.1957,31.7845,合肥市,明珠广场,颗粒物(PM10),74,97,122,48,59,46,,103,74,56,35,7,8,0.8,0.7
2026-02-13T0000,1271A,117.307,31.8765,合肥市,三里街,颗粒物(PM10),80,110,121,52,55,26,,98,39,74,52,7,7,1.3,1.2
2026-02-13T0000,1272A,117.2587,31.8703,合肥市,琥珀山庄,细颗粒物(PM2.5),94,127,128,70,64,7,,105,42,117,57,8,9,1.8,1.1
2026-02-13T0000,1275A,117.2593,31.9376,合肥市,庐阳区,颗粒物(PM10),78,105,122,51,53,31,,105,60,84,50,10,10,0.8,0.8
2026-02-13T0000,1276A,117.345251,31.861615,合肥市,瑶海区,颗粒物(PM10),73,95,113,46,48,49,,111,77,76,39,6,6,0.5,0.5
2026-02-13T0000,1277A,117.3033,31.7967,合肥市,包河区,颗粒物(PM10),82,114,130,59,59,4,,110,35,129,67,12,10,1.2,1
2026-02-13T0000,1278A,117.278,31.7392,合肥市,滨湖新区,颗粒物(PM10),74,97,129,45,58,85,,110,92,21,18,3,4,0.7,0.8
2026-02-13T0000,1279A,117.1324,31.8395,合肥市,高新区,颗粒物(PM10),70,90,119,40,57,81,,104,94,24,20,5,6,0.6,0.7
2026-02-13T0000,3464A,117.3802,31.9148,合肥市,高教基地,颗粒物(PM10),80,110,106,54,46,23,,118,54,58,31,8,8,0.7,0.7
2026-02-13T0000,4098A,117.2518,31.8404,合肥市,中国科学技术大学,颗粒物(PM10),79,107,121,54,56,42,,115,64,58,38,8,8,1.1,0.9
2026-02-13T0000,3614A,79.9241,37.0878,和田地区,地区环保局,颗粒物(PM10),425,525,531,166,137,36,,82,60,50,34,7,7,3.2,2.8
2026-02-13T0000,3615A,79.9132,37.1137,和田地区,市环保局,颗粒物(PM10),399,499,517,178,141,24,,98,65,60,43,6,5,2.2,1.7
2026-02-13T0000,2517A,108.0496,24.6957,河池市,市环保站,,21,21,25,13,17,10,,39,17,14,16,2,3,1.0,0.8
2026-02-13T0000,4302A,108.0901,24.6945,河池市,上任中路54号,,10,10,30,3,18,9,,34,11,11,15,4,5,0.8,0.7
2026-02-13T0000,1697A,114.6962,23.7538,河源市,东埔,细颗粒物(PM2.5),57,57,28,40,23,90,,102,100,17,12,6,5,0.7,0.7
2026-02-13T0000,1698A,114.6895,23.7232,河源市,老城,细颗粒物(PM2.5),58,62,30,41,22,88,,107,105,16,10,6,6,0.7,0.6
2026-02-13T0000,3374A,115.5562,35.089,菏泽市,定陶老年大学,细颗粒物(PM2.5),124,153,152,94,77,90,,107,95,20,20,6,6,0.7,0.7
2026-02-13T0000,4114A,115.4239,35.2593,菏泽市,黄河路600号,细颗粒物(PM2.5),120,163,163,91,82,83,,100,89,18,18,11,7,0.6,0.6
2026-02-13T0000,4115A,115.5025,35.2727,菏泽市,菏泽市人社局,细颗粒物(PM2.5),124,175,150,94,72,79,,101,91,34,21,10,7,0.8,0.6
2026-02-13T0000,4184A,115.479691,35.244011,菏泽市,永昌路1号,细颗粒物(PM2.5),105,149,153,79,77,100,,114,104,15,16,10,5,0.6,0.6
2026-02-13T0000,4193A,115.471542,35.280012,菏泽市,长城路999号,颗粒物(PM10),95,140,151,69,66,97,,111,104,20,20,10,6,0.7,0.6
2026-02-13T0000,2514A,111.5264,24.4178,贺州市,环保小区,,42,41,31,29,25,13,,32,21,15,13,3,3,0.6,0.5
2026-02-13T0000,2515A,111.561,24.4074,贺州市,政协大楼,细颗粒物(PM2.5),52,39,34,36,27,6,,25,11,22,17,4,4,1.1,1
2026-02-13T0000,3534A,111.4744,24.455,贺州市,西湾,颗粒物(PM10),52,53,37,26,23,8,,29,19,17,15,5,5,0.9,0.9
2026-02-13T0000,2385A,114.17,35.9019,鹤壁市,市监测站,颗粒物(PM10),92,133,120,63,62,50,,103,78,35,31,7,6,0.2,0.7
2026-02-13T0000,2386A,114.2953,35.7512,鹤壁市,市交警支队,细颗粒物(PM2.5),155,195,154,118,75,34,,90,62,47,38,6,8,0.9,0.8
2026-02-13T0000,2387A,114.2877,35.7302,鹤壁市,迎宾馆,细颗粒物(PM2.5),143,176,156,109,75,32,,94,65,47,36,9,8,1.1,0.9
2026-02-13T0000,3474A,114.2616,35.6824,鹤壁市,大新区,细颗粒物(PM2.5),134,205,163,102,77,40,,94,59,48,40,11,11,1.2,1
2026-02-13T0000,3596A,114.1573,35.9607,鹤壁市,南山宾馆,细颗粒物(PM2.5),93,132,136,69,64,82,,103,89,13,16,12,14,0.7,0.7
2026-02-13T0000,2244A,130.2537,47.3416,鹤岗市,哈啤分公司,,33,31,34,23,27,90,,95,83,7,11,8,9,0.3,0.4
2026-02-13T0000,2245A,130.2683,47.3087,鹤岗市,斯达机电,,26,26,38,14,21,79,,100,78,9,11,8,7,0.5,0.5
2026-02-13T0000,2246A,130.3114,47.3388,鹤岗市,东山纸板厂,颗粒物(PM10),80,110,46,30,26,43,,85,66,34,18,14,11,1.4,1.1
2026-02-13T0000,2263A,127.4832,50.2524,黑河市,交通局,细颗粒物(PM2.5),53,48,34,37,18,58,,72,55,15,17,5,6,0.5,0.4
2026-02-13T0000,2264A,127.5146,50.2339,黑河市,环保局,细颗粒物(PM2.5),119,98,52,90,43,19,,71,48,53,29,15,13,1.2,0.8
2026-02-13T0000,1074A,115.6839,37.754,衡水市,电机北厂,颗粒物(PM10),117,183,144,86,71,21,,97,78,85,31,11,11,0.9,0.8
2026-02-13T0000,1075A,115.6303,37.7318,衡水市,市监测站,细颗粒物(PM2.5),122,157,137,92,67,68,,92,86,38,30,11,12,0.8,0.8
2026-02-13T0000,3188A,115.6684,37.7216,衡水市,市城管局,细颗粒物(PM2.5),122,179,149,92,66,60,,90,83,36,28,14,13,0.9,0.8
2026-02-13T0000,3459A,115.599,37.5491,衡水市,地表水厂,颗粒物(PM10),108,166,151,72,76,20,,96,67,85,40,12,13,0.8,0.8
2026-02-13T0000,2457A,112.6209,26.9268,衡阳市,衡阳化工总厂,细颗粒物(PM2.5),70,,63,51,57,9,,26,20,23,21,8,9,1.2,1.3
2026-02-13T0000,2458A,112.621,26.8957,衡阳市,珠晖区环保局,细颗粒物(PM2.5),75,55,67,55,57,9,,20,16,28,26,5,5,1.4,1.5
2026-02-13T0000,2459A,112.628,26.8654,衡阳市,市委党校,细颗粒物(PM2.5),79,62,60,58,55,8,,23,17,27,22,9,8,1.3,1.3
2026-02-13T0000,2460A,112.6007,26.8977,衡阳市,市监测站,细颗粒物(PM2.5),73,58,83,53,63,6,,25,20,31,25,7,7,1.4,1.6
2026-02-13T0000,2461A,112.5658,26.9013,衡阳市,真空机电公司,细颗粒物(PM2.5),78,,70,57,66,5,,19,16,35,28,6,7,1.3,1.5
2026-02-13T0000,3399A,112.6703,26.8817,衡阳市,师范学院,细颗粒物(PM2.5),57,53,62,40,49,15,,24,21,24,25,3,3,1.1,1.2
2026-02-13T0000,3038A,103.3757,23.3679,红河哈尼族彝族自治州,州图书馆,,32,31,23,22,20,53,,88,69,5,4,2,5,0.7,0.6
2026-02-13T0000,4154A,103.401,23.3561,红河哈尼族彝族自治州,蒙自市朝阳路,,26,19,15,18,17,54,,88,72,3,2,6,6,0.5,0.5
2026-02-13T0000,1090A,111.6506,40.7517,呼和浩特市,呼市一监,细颗粒物(PM2.5),120,146,113,91,60,16,,80,56,64,44,12,12,1.1,1
2026-02-13T0000,1094A,111.7516,40.8369,呼和浩特市,如意水处理厂,颗粒物(PM10),81,112,100,58,45,19,,76,48,58,51,13,15,0.8,0.8
2026-02-13T0000,1095A,111.727798,40.806187,呼和浩特市,二十九中,细颗粒物(PM2.5),84,116,102,62,45,14,,75,48,64,39,17,17,1.0,0.8
2026-02-13T0000,1097A,111.717,40.7617,呼和浩特市,化肥厂生活区,细颗粒物(PM2.5),88,124,117,65,53,18,,80,51,63,41,9,11,1.0,0.9
2026-02-13T0000,3699A,111.6519,40.8389,呼和浩特市,海东办,,,,105,62,49,15,,68,38,62,49,8,9,1.0,0.9
2026-02-13T0000,4275A,111.591512,40.827312,呼和浩特市,成吉思汗西街8号,颗粒物(PM10),78,105,97,54,44,43,,64,42,33,43,7,10,0.6,0.6
2026-02-13T0000,4276A,111.6597,40.8077,呼和浩特市,公园东路75号,细颗粒物(PM2.5),102,139,110,76,51,15,,72,55,73,49,10,12,1.0,0.8
2026-02-13T0000,4277A,111.5427,40.7846,呼和浩特市,金海路35号,颗粒物(PM10),80,109,106,57,48,32,,71,44,49,44,10,11,0.5,0.4
2026-02-13T0000,3061A,119.7511,49.1576,呼伦贝尔市,国华电力东,,32,32,25,10,12,58,,73,63,18,14,6,6,0.5,0.4
2026-02-13T0000,4279A,119.7569,49.2222,呼伦贝尔市,伊敏大街东7号,细颗粒物(PM2.5),54,48,28,38,20,9,,72,49,57,20,6,6,0.7,0.4
2026-02-13T0000,1250A,120.075,30.867,湖州市,城西水厂,细颗粒物(PM2.5),102,126,100,76,65,106,,126,117,23,31,7,6,0.6,0.6
2026-02-13T0000,2873A,120.083,30.8929,湖州市,仁皇山新区,细颗粒物(PM2.5),102,121,101,76,66,107,,112,112,26,34,6,6,0.5,0.5
2026-02-13T0000,2907A,120.1846,30.8592,湖州市,吴兴区站,细颗粒物(PM2.5),109,124,113,82,77,101,,123,114,19,28,7,6,0.8,0.8
2026-02-13T0000,3562A,120.4146,30.8538,湖州市,南浔区站,细颗粒物(PM2.5),113,143,112,85,66,92,,124,113,24,23,8,8,0.7,0.7
2026-02-13T0000,1607A,120.904878,40.721091,葫芦岛市,龙港区,细颗粒物(PM2.5),145,122,144,111,111,4,,68,24,68,57,7,64,1.3,1.8
2026-02-13T0000,1608A,120.8382,40.7521,葫芦岛市,化工街,细颗粒物(PM2.5),213,212,158,163,116,7,,66,21,91,69,26,45,2.3,1.7
2026-02-13T0000,1609A,120.8339,40.7078,葫芦岛市,新区,细颗粒物(PM2.5),118,,106,89,106,15,,52,35,58,58,8,35,1.6,1.8
2026-02-13T0000,1610A,120.8697,40.7679,葫芦岛市,东城区,细颗粒物(PM2.5),240,209,141,190,127,2,,72,23,67,60,14,33,2.1,2
2026-02-13T0000,2483A,109.9297,27.5383,怀化市,河西地税局,细颗粒物(PM2.5),79,73,71,58,50,8,,37,24,20,24,1,2,/,/
2026-02-13T0000,2484A,109.9783,27.5342,怀化市,市四医院,细颗粒物(PM2.5),74,84,81,54,56,9,,37,25,25,22,8,7,0.7,0.8
2026-02-13T0000,2485A,109.9971,27.5579,怀化市,监测楼,细颗粒物(PM2.5),72,64,73,52,54,15,,34,28,20,22,3,4,0.3,0.4
2026-02-13T0000,1210A,119.0566,33.5991,淮安市,钵池山,细颗粒物(PM2.5),102,122,130,76,89,87,,114,96,24,30,11,11,0.6,0.7
2026-02-13T0000,1211A,119.0083,33.578,淮安市,北京南路,细颗粒物(PM2.5),104,119,134,78,91,62,,106,89,38,35,10,10,0.6,0.7
2026-02-13T0000,1212A,118.9938,33.6083,淮安市,市监测站,细颗粒物(PM2.5),108,117,127,81,88,73,,109,96,36,31,20,14,2.0,1.2
2026-02-13T0000,1213A,119.135,33.5038,淮安市,楚州区监测站,细颗粒物(PM2.5),112,137,152,84,105,30,,103,74,78,51,6,8,0.6,0.8
2026-02-13T0000,3426A,118.8757,33.2897,淮安市,新华书店,细颗粒物(PM2.5),100,123,133,75,84,65,,105,86,37,31,7,9,0.5,0.6
2026-02-13T0000,4092A,119.119691,33.550006,淮安市,枚皋中路89号,细颗粒物(PM2.5),105,132,144,79,95,80,,113,96,29,33,12,11,0.7,0.8
2026-02-13T0000,4206A,119.028838,33.631911,淮安市,承德北路606号,细颗粒物(PM2.5),99,127,143,74,87,84,,111,96,26,33,10,10,0.6,0.7
2026-02-13T0000,2282A,116.8005,33.9749,淮北市,监测站,颗粒物(PM10),96,142,147,62,61,80,,109,94,30,30,7,7,0.7,0.8
2026-02-13T0000,2283A,116.8094,33.9008,淮北市,烈山区政府,颗粒物(PM10),105,160,160,74,71,61,,108,85,36,28,7,7,0.5,0.5
2026-02-13T0000,4017A,116.7926,33.9534,淮北市,市博物馆,颗粒物(PM10),103,155,155,71,67,76,,106,88,26,27,7,7,0.7,0.7
2026-02-13T0000,4100A,116.8322,33.9884,淮北市,杜集区第一实验学校,颗粒物(PM10),100,149,152,63,67,78,,106,90,23,24,10,8,0.5,0.6
2026-02-13T0000,2277A,116.8304,32.7726,淮南市,潘集区政府,颗粒物(PM10),88,126,132,55,55,81,,108,92,23,22,7,7,0.5,0.8
2026-02-13T0000,2279A,116.8569,32.5949,淮南市,谢家集区政府,颗粒物(PM10),74,98,114,36,46,91,,114,102,16,19,8,8,0.5,0.5
2026-02-13T0000,2280A,116.8279,32.6333,淮南市,八公山区政府,颗粒物(PM10),75,100,112,48,52,93,,112,103,15,16,5,6,0.4,0.5
2026-02-13T0000,2894A,117.0561,32.6536,淮南市,经济技术开发区消防队,颗粒物(PM10),83,115,121,36,49,86,,105,96,22,28,6,6,0.4,0.5
2026-02-13T0000,3329A,117.011,32.5891,淮南市,山南新区,颗粒物(PM10),83,116,133,38,49,101,,112,102,16,19,9,9,0.5,0.5
2026-02-13T0000,4209A,117.003137,32.644456,淮南市,国庆中路369号,颗粒物(PM10),70,89,106,41,48,84,,98,82,22,22,9,9,0.6,0.6
2026-02-13T0000,2446A,114.9021,30.474,黄冈市,职工中心,细颗粒物(PM2.5),82,87,99,60,77,72,,110,87,22,15,6,7,0.9,0.9
2026-02-13T0000,2929A,114.8858,30.4519,黄冈市,红卫路,细颗粒物(PM2.5),93,86,95,69,80,69,,107,88,26,17,11,9,0.7,0.7
2026-02-13T0000,3398A,114.9134,30.4446,黄冈市,市林业局,细颗粒物(PM2.5),89,113,120,66,80,66,,96,83,23,18,4,4,0.5,0.6
2026-02-13T0000,2672A,102.02,35.5101,黄南藏族自治州,同仁县隆务镇,,40,40,38,17,20,58,,66,58,1,5,7,9,0.2,0.3
2026-02-13T0000,2295A,118.2905,29.6965,黄山市,延安路89号,颗粒物(PM10),55,59,57,37,31,23,,90,61,19,12,4,4,0.6,0.5
2026-02-13T0000,2297A,118.1369,30.2755,黄山市,黄山区政府5号楼,细颗粒物(PM2.5),65,61,58,47,32,22,,88,49,12,8,2,2,0.5,0.4
2026-02-13T0000,4210A,118.335445,29.720283,黄山市,滨江东路7-2号,颗粒物(PM10),65,80,77,42,33,21,,87,40,15,15,/,/,/,/
2026-02-13T0000,2423A,115.0547,30.2332,黄石市,沈家营,细颗粒物(PM2.5),73,94,105,53,62,50,,93,67,28,18,6,8,1.2,1
2026-02-13T0000,2426A,114.899,30.211,黄石市,铁山,细颗粒物(PM2.5),92,116,95,68,67,9,,99,55,52,26,8,9,0.5,0.5
2026-02-13T0000,2427A,115.0259,30.2108,黄石市,团城山,细颗粒物(PM2.5),77,99,106,56,67,64,,81,69,20,28,7,7,0.7,0.9
2026-02-13T0000,3149A,115.0174,30.1591,黄石市,笔架山北路,细颗粒物(PM2.5),92,132,135,68,71,51,,97,82,30,22,10,9,1.1,1.1
2026-02-13T0000,4185A,115.078022,30.21118,黄石市,磁湖东路29号,细颗粒物(PM2.5),87,101,108,64,74,33,,84,46,32,39,6,8,1.1,1.2
2026-02-13T0000,1392A,114.4181,23.0528,惠州市,河南岸金山湖子站,颗粒物(PM10),52,53,39,29,24,84,,104,97,12,11,6,6,0.7,0.6
2026-02-13T0000,1393A,114.4055,23.0824,惠州市,下埔横江三路子站,颗粒物(PM10),53,56,36,32,23,97,,110,103,14,11,7,6,0.6,0.5
2026-02-13T0000,1395A,114.4645,22.7832,惠州市,惠阳区承修路船湖子站,,50,50,46,24,24,111,,114,114,10,10,6,6,0.6,0.5
2026-02-13T0000,1396A,114.5316,22.7423,惠州市,大亚湾管委会子站,,45,45,43,24,24,109,,114,114,9,9,6,6,0.7,0.6
2026-02-13T0000,3314A,114.4334,22.8134,惠州市,惠阳秋长,颗粒物(PM10),51,51,48,23,23,124,,124,124,11,11,/,/,/,/
2026-02-13T0000,3452A,114.6521,22.7755,惠州市,大亚湾霞涌,,43,43,43,26,23,89,,126,121,13,12,/,/,/,/
2026-02-13T0000,4300A,114.4089,23.1147,惠州市,文华一路1号,颗粒物(PM10),52,54,34,30,22,92,,110,102,16,12,/,/,/,/
2026-02-13T0000,2240A,130.9618,45.2926,鸡西市,环保局,细颗粒物(PM2.5),72,64,30,52,22,19,,79,45,44,16,18,8,1.0,0.4
2026-02-13T0000,2243A,130.9294,45.2959,鸡西市,第一中学,细颗粒物(PM2.5),77,65,31,56,23,28,,80,47,42,17,13,6,0.8,0.5
2026-02-13T0000,3707A,131.0069,45.2988,鸡西市,欧美日汽修厂,"颗粒物(PM10),细颗粒物(PM2.5)",67,83,40,48,24,31,,77,50,27,13,24,12,0.7,0.1
2026-02-13T0000,2367A,114.9753,27.0803,吉安市,红声器材厂,颗粒物(PM10),53,56,58,34,44,32,,35,34,14,17,6,6,0.9,0.9
2026-02-13T0000,2369A,114.9903,27.1313,吉安市,市环境监测站,细颗粒物(PM2.5),55,41,50,39,43,32,,39,38,12,20,7,7,/,/
2026-02-13T0000,2370A,115.009527,27.096792,吉安市,青原区法院,,47,47,50,32,40,29,,36,34,20,21,8,8,0.9,0.9
2026-02-13T0000,1772A,126.54,43.8622,吉林市,哈达湾,细颗粒物(PM2.5),103,92,66,77,59,92,,105,90,25,28,14,12,1.5,1.3
2026-02-13T0000,1773A,126.5843,43.8358,吉林市,东局子,细颗粒物(PM2.5),95,112,70,71,53,68,,90,69,32,32,10,8,1.1,1
2026-02-13T0000,1774A,126.5051,43.8243,吉林市,电力学院,细颗粒物(PM2.5),125,122,82,95,71,55,,102,68,42,35,11,11,1.9,1.3
2026-02-13T0000,1775A,126.6133,43.8971,吉林市,江北,细颗粒物(PM2.5),104,96,81,78,69,69,,90,77,30,32,10,11,1.3,1.1
2026-02-13T0000,1776A,126.5549,43.8304,吉林市,江南公园,细颗粒物(PM2.5),93,78,63,69,55,78,,98,82,23,32,14,10,1.2,1
2026-02-13T0000,2868A,126.4737,43.953,吉林市,九站,细颗粒物(PM2.5),102,88,83,76,72,72,,91,76,42,47,12,12,1.2,1.1
2026-02-13T0000,1299A,116.9866,36.6118,济南市,科干所,颗粒物(PM10),90,129,132,51,52,110,,118,111,13,13,8,9,0.6,0.6
2026-02-13T0000,1300A,116.9379,36.6652,济南市,农科所,颗粒物(PM10),91,132,139,62,61,84,,110,96,25,20,8,9,0.7,0.7
2026-02-13T0000,1301A,117.1265,36.6736,济南市,开发区,颗粒物(PM10),97,144,123,58,54,39,,124,98,70,19,4,5,0.7,0.6
2026-02-13T0000,1303A,117.0616,36.6865,济南市,省种子仓库,颗粒物(PM10),101,151,136,68,56,61,,118,96,42,17,7,7,0.8,0.6
2026-02-13T0000,1304A,116.9495185,36.644937,济南市,机床二厂,颗粒物(PM10),92,134,133,59,57,100,,116,106,17,18,13,11,0.6,0.6
2026-02-13T0000,1305A,117.0496,36.6629,济南市,市监测站,颗粒物(PM10),91,132,135,55,52,97,,119,105,23,17,7,6,0.8,0.7
2026-02-13T0000,1306A,116.7674,36.5458,济南市,长清党校,颗粒物(PM10),97,144,152,57,58,105,,115,108,22,24,7,7,0.6,0.7
2026-02-13T0000,1961A,117.5323,36.6865,济南市,东山小学,颗粒物(PM10),92,134,143,50,50,88,,119,108,21,14,4,6,0.6,0.6
2026-02-13T0000,3059A,117.7181,36.205,济南市,泰兴公司,细颗粒物(PM2.5),118,166,156,89,79,8,,117,52,77,53,14,13,1.2,1.1
2026-02-13T0000,3064A,117.6861,36.2172,济南市,莱芜战役纪念馆,颗粒物(PM10),109,168,155,76,73,19,,112,82,71,36,12,14,1.1,1
2026-02-13T0000,3494A,117.1673,36.9782,济南市,济阳区政府,颗粒物(PM10),94,137,145,66,64,83,,106,93,20,25,11,9,0.4,0.5
2026-02-13T0000,3495A,117.1168,36.6299,济南市,锦屏中学,颗粒物(PM10),88,125,130,56,53,103,,118,107,13,14,5,6,0.5,0.5
2026-02-13T0000,4108A,117.7107,36.2385,济南市,山财大街5号,颗粒物(PM10),104,158,153,70,66,39,,116,89,75,43,16,18,1.3,1.2
2026-02-13T0000,4109A,116.9744,36.6889,济南市,无影山路12号,颗粒物(PM10),91,132,134,59,58,93,,110,99,20,17,9,8,0.5,0.5
2026-02-13T0000,1653A,116.6229,35.4288,济宁市,火炬城,颗粒物(PM10),99,148,134,71,60,68,,108,92,26,19,5,4,0.7,0.6
2026-02-13T0000,3500A,116.5808,35.3703,济宁市,北湖一中,颗粒物(PM10),97,143,127,66,58,73,,110,99,25,17,8,7,0.7,0.6
2026-02-13T0000,3501A,116.8251,35.5592,济宁市,服务中心,颗粒物(PM10),121,192,171,90,82,42,,104,77,39,20,9,6,0.6,0.5
2026-02-13T0000,3678A,116.5907,35.4054,济宁市,市第七中学,颗粒物(PM10),109,168,140,77,60,53,,113,92,44,24,9,8,0.9,0.6
2026-02-13T0000,4111A,116.6075,35.4566,济宁市,任和路,颗粒物(PM10),113,176,154,78,58,30,,112,86,64,22,7,6,0.8,0.7
2026-02-13T0000,4112A,116.5648,35.3921,济宁市,文体南路1号,颗粒物(PM10),108,166,142,73,59,65,,115,100,33,17,5,5,0.7,0.6
2026-02-13T0000,2255A,130.2749,46.8028,佳木斯市,佳纺,细颗粒物(PM2.5),77,69,47,56,34,39,,83,53,33,19,14,8,0.8,0.5
2026-02-13T0000,2257A,130.3258,46.7975,佳木斯市,环保局,细颗粒物(PM2.5),69,60,40,50,31,43,,82,55,38,17,12,10,0.7,0.5
2026-02-13T0000,4285A,130.363,46.806,佳木斯市,顺和街,细颗粒物(PM2.5),73,62,40,53,32,44,,80,51,42,24,10,8,0.6,0.4
2026-02-13T0000,4286A,130.3952,46.8268,佳木斯市,长安路196号,细颗粒物(PM2.5),62,56,40,44,33,32,,83,61,53,19,9,7,0.7,0.5
2026-02-13T0000,1252A,120.7439,30.778,嘉兴市,清河小学,细颗粒物(PM2.5),93,119,119,69,76,81,,125,108,32,34,7,7,0.2,0.3
2026-02-13T0000,1253A,120.7261,30.7477,嘉兴市,嘉兴学院,细颗粒物(PM2.5),94,116,119,70,68,90,,130,117,24,23,6,6,0.6,0.9
2026-02-13T0000,2872A,120.7845,30.7524,嘉兴市,南湖区残联,细颗粒物(PM2.5),93,107,120,69,76,97,,140,123,25,27,6,5,0.8,0.8
2026-02-13T0000,3407A,120.6915,30.7741,嘉兴市,秀洲住建,细颗粒物(PM2.5),94,117,113,70,72,80,,139,121,28,24,7,7,0.6,0.7
2026-02-13T0000,1945A,98.291,39.7705,嘉峪关市,气象局,,31,31,72,20,24,52,,88,71,23,19,7,8,0.4,0.6
2026-02-13T0000,2884A,98.2672,39.7978,嘉峪关市,酒钢宾馆,,41,41,74,12,25,50,,86,68,7,11,11,12,0.4,0.6
2026-02-13T0000,3248A,98.2644,39.7723,嘉峪关市,雄关区,,31,31,58,13,20,66,,85,75,14,19,12,11,0.3,0.5
2026-02-13T0000,1383A,113.1063,22.6058,江门市,北街,,46,,35,32,24,67,,92,83,16,20,/,/,/,/
2026-02-13T0000,1384A,113.073,22.5835,江门市,西区,,49,39,38,34,25,69,,96,87,19,21,/,/,/,/
2026-02-13T0000,1385A,113.0218,22.531,江门市,圭峰西,,40,31,34,28,24,78,,98,91,17,19,/,/,/,/
2026-02-13T0000,1386A,113.0826,22.5947,江门市,东湖,颗粒物(PM10),52,53,36,35,24,71,,94,85,18,20,5,5,0.4,0.5
2026-02-13T0000,3311A,113.1077,22.5647,江门市,江海富民,,49,46,42,34,25,68,,100,87,23,22,/,/,0.5,0.5
2026-02-13T0000,3449A,113.0496,22.4669,江门市,新会银湖,,48,34,37,33,25,60,,96,84,20,20,6,6,0.6,0.5
2026-02-13T0000,3335A,113.3137,35.2643,焦作市,马村街道办,颗粒物(PM10),99,148,141,69,54,55,,86,71,26,25,12,14,1.2,1
2026-02-13T0000,3336A,113.2464,35.2374,焦作市,焦作技师学院,颗粒物(PM10),92,134,128,56,49,41,,83,67,52,31,11,13,0.8,0.8
2026-02-13T0000,3477A,113.1656,35.2536,焦作市,中站许衡医院,颗粒物(PM10),79,107,110,47,43,88,,93,91,18,23,14,15,0.9,0.8
2026-02-13T0000,3981A,113.2456,35.18,焦作市,原李万街道办,颗粒物(PM10),97,144,126,66,53,40,,96,80,42,27,20,15,0.9,0.8
2026-02-13T0000,4264A,113.234,35.219,焦作市,新安路1731号,颗粒物(PM10),96,141,126,60,52,44,,92,71,44,31,15,16,1.1,0.9
2026-02-13T0000,4295A,113.2722,35.2121,焦作市,人民路3066号,细颗粒物(PM2.5),105,140,131,79,56,29,,89,66,58,33,11,13,1.3,1
2026-02-13T0000,1708A,116.3701,23.5345,揭阳市,新兴,颗粒物(PM10),53,56,49,31,27,90,,113,102,18,17,7,7,0.8,0.7
2026-02-13T0000,1709A,116.3261,23.5442,揭阳市,西马,颗粒物(PM10),53,56,52,31,28,89,,117,108,14,13,5,5,0.8,0.7
2026-02-13T0000,1710A,116.361,23.5627,揭阳市,东兴,颗粒物(PM10),53,56,50,31,28,86,,108,100,15,14,8,8,/,/
2026-02-13T0000,1711A,116.4151,23.5295,揭阳市,渔湖,,49,42,49,34,26,96,,130,115,17,16,6,6,/,/
2026-02-13T0000,3320A,116.4028,23.5699,揭阳市,曲溪,,48,48,49,30,27,101,,128,116,12,12,4,3,0.7,0.7
2026-02-13T0000,1944A,102.1691,38.5166,金昌市,天庆家园,,34,34,112,12,41,75,,101,79,8,18,6,29,0.4,0.6
2026-02-13T0000,4022A,102.1648,38.5369,金昌市,金川区人防中心,颗粒物(PM10),51,51,99,17,37,70,,94,75,9,14,8,32,0.4,0.5
2026-02-13T0000,4239A,102.193042,38.531887,金昌市,长春路96号,颗粒物(PM10),54,58,111,24,35,34,,93,54,15,20,16,38,0.6,0.9
2026-02-13T0000,1262A,119.6478,29.0773,金华市,十五中,颗粒物(PM10),52,54,68,30,39,44,,96,58,18,17,1,2,0.8,0.6
2026-02-13T0000,1263A,119.6859,29.1032,金华市,监测站,颗粒物(PM10),58,65,67,29,35,32,,74,51,28,26,3,3,0.6,0.6
2026-02-13T0000,3659A,119.656,29.1132,金华市,气象局,颗粒物(PM10),70,90,73,45,39,6,,91,34,63,41,4,3,0.9,0.7
2026-02-13T0000,1767A,121.1114,41.0879,锦州市,南山,细颗粒物(PM2.5),203,153,119,153,109,4,,83,48,84,53,10,20,2.3,1.4
2026-02-13T0000,1768A,121.060361,40.842794,锦州市,开发区,细颗粒物(PM2.5),104,,122,78,106,5,,58,29,62,52,7,12,1.4,1.5
2026-02-13T0000,1769A,121.1836,41.1118,锦州市,百股街道,细颗粒物(PM2.5),138,,120,105,119,12,,78,30,65,49,4,21,1.4,1.5
2026-02-13T0000,1770A,121.1176,41.1224,锦州市,天安街道,细颗粒物(PM2.5),236,242,137,186,117,9,,83,33,82,51,8,17,2.8,2
2026-02-13T0000,1771A,121.1303,41.1385,锦州市,北湖公园,细颗粒物(PM2.5),266,,126,216,116,4,,87,37,77,46,18,22,3.3,1.5
2026-02-13T0000,2160A,112.8496,35.5051,晋城市,自来水公司,颗粒物(PM10),87,124,116,34,38,90,,88,88,22,23,10,12,0.8,1
2026-02-13T0000,2162A,112.8509,35.4886,晋城市,市环保局,颗粒物(PM10),89,128,107,60,41,104,,100,95,23,33,9,10,0.9,1
2026-02-13T0000,3620A,112.8258,35.4804,晋城市,泽州一中,颗粒物(PM10),96,142,122,58,38,105,,102,102,13,17,9,9,1.1,1
2026-02-13T0000,4078A,112.8246,35.5152,晋城市,前书院路,颗粒物(PM10),93,136,122,53,34,97,,89,89,14,22,12,12,1.0,1.1
2026-02-13T0000,4079A,112.8864,35.4773,晋城市,祥云街666号,颗粒物(PM10),95,140,120,55,45,106,,102,102,15,21,13,15,1.0,1
2026-02-13T0000,2174A,112.6992,37.6984,晋中市,榆次区政府,颗粒物(PM10),93,136,130,66,58,32,,86,47,43,48,23,21,0.9,0.9
2026-02-13T0000,2865A,112.7195,37.683,晋中市,榆次三中,颗粒物(PM10),102,153,124,58,46,17,,92,51,54,40,22,19,1.1,1
2026-02-13T0000,4080A,112.7375,37.7215,晋中市,广安街188号,颗粒物(PM10),94,138,123,60,50,10,,86,39,60,49,19,24,0.8,0.9
2026-02-13T0000,4200A,112.7478,37.6954,晋中市,迎宾街26号,颗粒物(PM10),97,144,121,66,54,16,,90,51,57,34,21,20,0.9,0.9
2026-02-13T0000,2439A,112.2012,31.048,荆门市,竹园小学,细颗粒物(PM2.5),82,112,112,60,75,59,,81,69,21,27,2,2,1.2,1.2
2026-02-13T0000,2440A,112.1968,30.9892,荆门市,掇刀,细颗粒物(PM2.5),100,118,110,75,77,55,,87,70,22,21,8,6,1.0,0.9
2026-02-13T0000,3012A,112.1849,31.0361,荆门市,西山林语,细颗粒物(PM2.5),87,101,104,64,69,47,,82,60,20,20,3,3,0.8,0.9
2026-02-13T0000,3547A,112.1631,31.0134,荆门市,龙泉中学南校,细颗粒物(PM2.5),99,120,107,74,64,57,,87,71,19,18,5,6,1.4,1.2
2026-02-13T0000,4124A,112.2213,31.0654,荆门市,新台西路6号,细颗粒物(PM2.5),100,109,104,75,72,54,,82,63,21,22,9,9,0.8,0.9
2026-02-13T0000,1844A,112.2493,30.3198,荆州市,市图书馆,细颗粒物(PM2.5),74,67,83,54,61,25,,65,51,37,21,7,8,1.0,0.9
2026-02-13T0000,1845A,112.2009,30.3543,荆州市,市委党校,细颗粒物(PM2.5),80,96,87,59,63,22,,54,43,40,26,7,7,1.2,1.2
2026-02-13T0000,3194A,112.2749,30.3124,荆州市,管委会,细颗粒物(PM2.5),84,83,81,62,64,20,,64,47,42,26,10,11,1.0,0.9
2026-02-13T0000,4268A,112.1722,30.3366,荆州市,学苑路85号,细颗粒物(PM2.5),80,81,77,59,61,28,,64,51,24,15,8,6,0.6,0.6
2026-02-13T0000,2343A,117.2114,29.2931,景德镇市,老干部活动中心,细颗粒物(PM2.5),83,81,60,61,34,7,,87,54,40,18,5,5,1.2,0.9
2026-02-13T0000,2344A,117.1893,29.2789,景德镇市,兽医站,颗粒物(PM10),78,105,67,56,38,8,,91,62,55,21,3,4,0.6,0.5
2026-02-13T0000,2346A,117.246,29.2958,景德镇市,陶研所,细颗粒物(PM2.5),67,54,51,48,35,27,,82,53,18,15,4,4,1.0,0.8
2026-02-13T0000,4289A,117.154766,29.256967,景德镇市,青少年活动中心,颗粒物(PM10),73,95,72,49,38,23,,87,59,33,22,5,5,/,/
2026-02-13T0000,1803A,115.9873,29.6816,九江市,十里,细颗粒物(PM2.5),79,98,90,58,46,33,,88,55,48,33,7,7,1.0,0.9
2026-02-13T0000,1804A,115.9583,29.7047,九江市,茅山头,细颗粒物(PM2.5),78,87,83,57,46,57,,100,80,26,30,6,6,0.6,0.5
2026-02-13T0000,1805A,115.9877,29.7295,九江市,西园,颗粒物(PM10),76,102,101,51,54,55,,94,66,47,48,4,5,0.8,0.9
2026-02-13T0000,1808A,115.9112,29.6038,九江市,综合工业园,颗粒物(PM10),69,87,81,42,32,64,,104,84,25,24,6,6,0.8,0.8
2026-02-13T0000,3190A,116.0254,29.6995,九江市,外国语学校,细颗粒物(PM2.5),78,93,79,57,43,19,,91,52,63,29,5,5,0.8,0.6
2026-02-13T0000,4253A,116.010205,29.659402,九江市,莲花大道8号,颗粒物(PM10),65,79,89,39,40,44,,86,66,14,15,3,4,0.4,0.6
2026-02-13T0000,4240A,98.495752,39.733935,酒泉市,玉门东路5号,,46,46,93,29,35,45,,85,54,10,15,10,12,0.3,0.5
2026-02-13T0000,4241A,98.5099,39.7506,酒泉市,北大街108号,颗粒物(PM10),53,56,86,33,38,43,,83,50,12,19,10,13,0.4,0.7
2026-02-13T0000,2698A,76.0071,39.466,喀什地区,巡警大队,颗粒物(PM10),322,437,435,171,146,3,,81,68,91,45,14,7,3.0,2.1
2026-02-13T0000,2699A,75.9756,39.4693,喀什地区,吾办,颗粒物(PM10),313,430,401,189,157,6,,78,67,88,48,11,5,2.5,1.7
2026-02-13T0000,4027A,75.9485,39.4688,喀什地区,老干局,颗粒物(PM10),345,456,452,165,175,17,,75,64,70,44,13,7,2.8,2.1
2026-02-13T0000,1824A,114.3389,34.778,开封市,肿瘤医院,颗粒物(PM10),105,159,154,74,65,,,102,94,28,30,8,9,0.9,0.8
2026-02-13T0000,1826A,114.2884,34.7966,开封市,世纪星幼儿园,颗粒物(PM10),108,166,149,74,66,69,,101,89,31,30,9,10,0.8,0.7
2026-02-13T0000,3147A,114.3434,34.8101,开封市,龙亭公园,细颗粒物(PM2.5),103,142,149,77,60,69,,103,88,34,32,10,10,0.7,0.7
2026-02-13T0000,3210A,114.3645,34.7955,开封市,汴京公园,颗粒物(PM10),107,163,159,64,58,66,,100,83,33,32,6,6,0.8,0.7
2026-02-13T0000,3473A,114.2485,34.8306,开封市,技师学院,细颗粒物(PM2.5),104,139,138,78,64,79,,109,102,24,24,11,10,0.7,0.6
2026-02-13T0000,3592A,114.4518,34.7503,开封市,祥符区生态环境局,"颗粒物(PM10),细颗粒物(PM2.5)",119,188,168,90,66,44,,100,68,47,31,6,6,0.7,0.6
2026-02-13T0000,1951A,84.886,45.6029,克拉玛依市,长征新村,细颗粒物(PM2.5),78,81,66,57,43,52,,67,48,24,21,4,5,0.8,0.8
2026-02-13T0000,1952A,84.8894,45.5827,克拉玛依市,南林小区,细颗粒物(PM2.5),72,78,66,52,42,59,,71,50,14,16,2,2,0.8,0.8
2026-02-13T0000,1954A,84.896,44.3328,克拉玛依市,独山子区,,30,,36,21,21,73,,87,75,13,13,3,3,0.4,0.5
2026-02-13T0000,1955A,85.6888,46.0909,克拉玛依市,乌尔禾区商贸楼,细颗粒物(PM2.5),74,86,76,54,55,65,,74,72,13,14,7,8,0.8,0.9
2026-02-13T0000,3612A,85.1045,45.6895,克拉玛依市,白碱滩区新站,细颗粒物(PM2.5),79,62,65,58,53,79,,68,61,16,25,9,9,0.8,0.8
2026-02-13T0000,2697A,76.1457,39.7143,克孜勒苏柯尔克孜自治州,市人民政府,颗粒物(PM10),303,422,430,128,128,48,,90,80,35,12,5,4,0.6,0.4
2026-02-13T0000,3665A,76.1654,39.7157,克孜勒苏柯尔克孜自治州,克州文化中心,颗粒物(PM10),273,401,412,114,122,60,,89,76,24,16,5,5,1.0,0.8
2026-02-13T0000,1450A,102.8203,24.889,昆明市,呈贡新区,,36,36,28,24,17,72,,82,77,10,10,4,4,0.2,0.3
2026-02-13T0000,1452A,102.7253,25.0904,昆明市,龙泉镇,颗粒物(PM10),51,52,28,28,15,2,,86,65,62,22,3,3,0.5,0.4
2026-02-13T0000,1453A,102.7267,25.0378,昆明市,东风东路,,36,32,26,25,14,70,,89,83,14,14,8,8,0.5,0.5
2026-02-13T0000,1454A,102.6744,25.0671,昆明市,金鼎山,,44,44,32,24,18,60,,86,74,19,17,4,4,0.4,0.4
2026-02-13T0000,1455A,102.6643,25.0401,昆明市,碧鸡广场,,34,34,29,19,16,64,,88,73,18,19,6,7,0.3,0.4
2026-02-13T0000,3179A,102.7491,25.012,昆明市,官渡区博物馆,,32,29,27,22,15,72,,88,80,13,16,4,5,0.4,0.4
2026-02-13T0000,3375A,102.8016,24.8336,昆明市,青年创业园,,43,43,24,25,16,76,,87,81,6,6,4,4,0.5,0.5
2026-02-13T0000,3550A,102.8,24.9787,昆明市,昆明学院,,33,33,27,22,14,80,,92,84,8,8,5,5,0.6,0.6
2026-02-13T0000,3551A,102.5969,24.6738,昆明市,晋宁区生态环境分局,,28,28,23,17,16,84,,91,84,6,5,1,1,0.4,0.4
2026-02-13T0000,3552A,102.6673,24.9861,昆明市,云天化总部,,26,26,25,18,14,81,,90,85,8,14,8,8,0.3,0.4
2026-02-13T0000,1456A,91.132,29.6515,拉萨市,八廓街,,32,10,14,8,8,102,,119,112,6,8,6,7,0.5,0.5
2026-02-13T0000,1457A,91.1221,29.6748,拉萨市,市环保局,,30,,14,10,6,93,,109,104,12,10,6,6,0.4,0.3
2026-02-13T0000,1458A,91.0874,29.6476,拉萨市,区监测站,,31,8,12,3,6,97,,112,108,10,9,4,4,0.6,0.6
2026-02-13T0000,1459A,91.1774,29.6541,拉萨市,西藏大学,,30,10,10,6,6,95,,114,108,13,8,4,3,0.4,0.3
2026-02-13T0000,1460A,90.9798,29.6586,拉萨市,区辐射站,,28,12,14,10,10,88,,112,106,15,13,4,3,0.5,0.4
2026-02-13T0000,1461A,91.0831,29.6292,拉萨市,拉萨火车站,,29,7,9,6,6,92,,114,107,7,5,3,4,0.3,0.2
2026-02-13T0000,2520A,109.2203,23.7252,来宾市,来宾技工学校,细颗粒物(PM2.5),64,58,28,46,25,4,,32,10,24,15,5,4,1.3,1.1
2026-02-13T0000,3535A,109.1781,23.7293,来宾市,兴宾区政府,细颗粒物(PM2.5),60,54,25,43,22,8,,35,13,25,17,4,4,1.3,1
2026-02-13T0000,4002A,109.2312,23.7428,来宾市,中南小学,细颗粒物(PM2.5),64,56,29,46,25,4,,31,10,24,17,4,4,1.1,0.9
2026-02-13T0000,1479A,103.8309,36.0467,兰州市,铁路设计院,,,,,,,,,,,,,,,,
2026-02-13T0000,3241A,103.7439,36.0841,兰州市,百合公园,细颗粒物(PM2.5),97,115,98,72,55,0,,42,11,80,58,21,21,1.9,1.2
2026-02-13T0000,3242A,103.9613,35.9985,兰州市,和平,颗粒物(PM10),70,90,111,38,47,48,,68,54,26,32,15,20,1.1,1.3
2026-02-13T0000,4236A,103.629272,36.093822,兰州市,庄浪东路808号,细颗粒物(PM2.5),78,93,106,57,50,26,,54,30,55,49,16,27,1.0,1
2026-02-13T0000,4237A,103.7251,36.104344,兰州市,安宁西路88号,细颗粒物(PM2.5),92,132,115,68,50,6,,54,22,76,53,17,27,1.2,0.9
2026-02-13T0000,4238A,103.846982,36.067567,兰州市,北滨河东路1号,颗粒物(PM10),89,127,106,64,48,2,,32,11,81,70,15,18,1.5,1.4
2026-02-13T0000,1067A,116.6712,39.5109,廊坊市,药材公司,细颗粒物(PM2.5),145,171,140,111,94,79,,93,87,26,38,7,6,0.9,0.9
2026-02-13T0000,1068A,116.7215,39.5592,廊坊市,开发区,细颗粒物(PM2.5),127,149,136,96,87,70,,88,80,36,50,6,5,0.9,0.8
2026-02-13T0000,1070A,116.7246,39.5273,廊坊市,北华航天学院,细颗粒物(PM2.5),144,161,140,110,96,63,,90,84,45,47,9,8,0.9,0.9
2026-02-13T0000,2919A,116.7022,39.5454,廊坊市,河北工业大学,细颗粒物(PM2.5),134,173,148,102,92,83,,90,84,32,50,7,6,0.9,0.9
2026-02-13T0000,2536A,103.7629,29.5844,乐山市,牛耳桥,细颗粒物(PM2.5),85,100,76,63,52,10,,92,49,47,33,5,5,0.9,0.8
2026-02-13T0000,2537A,103.7501,29.6002,乐山市,市第三水厂,细颗粒物(PM2.5),82,97,79,60,50,8,,93,50,59,43,3,3,1.2,1
2026-02-13T0000,2538A,103.7571,29.5664,乐山市,市监测站,细颗粒物(PM2.5),78,87,74,57,49,58,,92,76,18,26,5,6,0.9,0.9
2026-02-13T0000,3361A,103.7313,29.563,乐山市,理工大学,细颗粒物(PM2.5),77,93,78,56,51,44,,99,80,21,22,2,3,0.8,0.8
2026-02-13T0000,2599A,100.2497,26.8802,丽江市,丽江古城,,35,33,26,24,14,76,,91,80,12,11,5,6,0.5,0.5
2026-02-13T0000,2600A,100.2203,26.8906,丽江市,市中心,,27,,15,18,13,86,,97,89,9,10,6,6,0.4,0.3
2026-02-13T0000,1267A,119.9141,28.4513,丽水市,监测站大楼,细颗粒物(PM2.5),64,,41,46,30,93,,82,82,8,10,4,6,0.5,0.5
2026-02-13T0000,1268A,119.93,28.4589,丽水市,莲都小学,,50,50,45,27,25,49,,81,69,20,13,/,/,/,/
2026-02-13T0000,1269A,119.8794,28.4232,丽水市,余庄前,,48,48,40,33,26,55,,69,56,8,8,4,4,0.7,0.5
2026-02-13T0000,1173A,119.1759,34.5885,连云港市,市环境监测站,细颗粒物(PM2.5),122,149,144,92,102,77,,110,96,34,27,11,10,0.7,0.7
2026-02-13T0000,3000A,119.3577,34.6971,连云港市,德源药业,细颗粒物(PM2.5),100,146,152,75,95,85,,107,94,25,28,8,7,0.7,0.8
2026-02-13T0000,3007A,119.178,34.8442,连云港市,新城一中,细颗粒物(PM2.5),105,134,139,79,101,86,,113,90,33,43,12,11,0.6,0.7
2026-02-13T0000,3008A,119.3607,34.7519,连云港市,胡沟管理处,颗粒物(PM10),86,122,138,63,89,109,,109,106,14,27,10,11,0.7,0.6
2026-02-13T0000,3009A,119.1478,34.5913,连云港市,矿山设计院,细颗粒物(PM2.5),107,146,146,80,90,77,,111,100,32,24,9,9,1.0,1
2026-02-13T0000,3434A,119.2414,34.6539,连云港市,工贸学校,细颗粒物(PM2.5),104,146,131,78,86,103,,114,107,24,23,12,14,0.9,0.9
2026-02-13T0000,3664A,119.4171,34.734,连云港市,连云街道,颗粒物(PM10),92,134,139,64,84,115,,122,118,19,34,8,11,0.7,0.7
2026-02-13T0000,2573A,102.2629,27.8981,凉山彝族自治州,西昌市政府,,35,27,36,24,24,74,,96,88,7,14,6,9,0.6,0.9
2026-02-13T0000,2574A,102.2686,27.885,凉山彝族自治州,凉山州政府,,42,38,33,29,23,45,,86,74,19,17,7,10,1.0,0.9
2026-02-13T0000,4229A,102.2342,27.8859,凉山彝族自治州,凯乐南路30号,,45,45,41,26,23,47,,92,78,24,20,8,12,0.7,0.8
2026-02-13T0000,2212A,123.1978,41.2036,辽阳市,宏伟区,细颗粒物(PM2.5),92,89,73,68,59,85,,92,85,11,15,8,10,0.9,1
2026-02-13T0000,2213A,123.1684,41.2497,辽阳市,新华园,细颗粒物(PM2.5),124,,92,94,72,57,,87,69,33,33,5,18,0.9,1
2026-02-13T0000,2214A,123.2355,41.2663,辽阳市,滨河路,细颗粒物(PM2.5),92,70,66,68,58,82,,91,80,13,21,62,17,1.1,1.1
2026-02-13T0000,4083A,123.153,41.2874,辽阳市,铁西路150号,细颗粒物(PM2.5),118,92,96,89,72,40,,71,60,32,32,8,20,1.3,1.3
2026-02-13T0000,2227A,125.1359,42.8845,辽源市,环保局,细颗粒物(PM2.5),160,147,90,122,86,14,,94,37,58,40,7,8,2.1,1.7
2026-02-13T0000,4085A,125.0998,42.9134,辽源市,安宁大街333号,细颗粒物(PM2.5),152,128,95,116,75,49,,93,46,32,34,8,9,1.5,1.2
2026-02-13T0000,1625A,115.9789,36.4372,聊城市,区政府,颗粒物(PM10),107,163,160,76,74,78,,109,98,22,19,15,16,0.9,0.8
2026-02-13T0000,3200A,115.9772,36.4986,聊城市,监控中心,细颗粒物(PM2.5),107,160,168,80,76,96,,124,113,28,23,12,13,0.7,0.8
2026-02-13T0000,3513A,116.0443,36.436,聊城市,九州社区,细颗粒物(PM2.5),112,165,162,84,76,80,,115,101,21,11,5,5,0.8,0.7
2026-02-13T0000,4018A,116.0564,36.4609,聊城市,星美广场,颗粒物(PM10),110,169,168,69,70,79,,114,100,26,17,4,4,1.0,0.8
2026-02-13T0000,4113A,116.0091,36.4495,聊城市,利民路,细颗粒物(PM2.5),104,144,146,78,69,82,,119,106,26,24,10,12,1.0,1
2026-02-13T0000,2632A,94.3683,29.6373,林芝市,林芝监测站,,25,16,13,13,11,79,,96,92,2,2,4,4,0.4,0.4
2026-02-13T0000,2633A,94.3616,29.6634,林芝市,林芝人民医院,,25,17,16,8,10,80,,100,97,3,2,5,5,0.4,0.4
2026-02-13T0000,2603A,100.0779,23.8981,临沧市,市环保局,,42,,32,29,24,58,,96,80,10,9,5,5,0.7,0.6
2026-02-13T0000,2604A,100.0894,23.882,临沧市,市气象局,,49,49,40,32,25,63,,92,82,8,8,5,5,0.6,0.5
2026-02-13T0000,1733A,111.5552,36.0791,临汾市,临钢医院,细颗粒物(PM2.5),139,214,143,106,64,15,,90,58,50,29,9,12,1.8,1.4
2026-02-13T0000,1734A,111.4984,36.0734,临汾市,技工学校,细颗粒物(PM2.5),159,222,144,121,72,41,,91,70,44,36,22,19,1.2,0.7
2026-02-13T0000,1736A,111.5017,36.0857,临汾市,市委,细颗粒物(PM2.5),153,229,146,117,64,30,,93,73,57,38,19,16,1.7,1.2
2026-02-13T0000,3018A,111.5048,36.1015,临汾市,唐尧大酒店,细颗粒物(PM2.5),169,237,146,128,67,28,,101,78,62,42,20,18,1.8,1.4
2026-02-13T0000,4244A,111.4879,36.053,临汾市,启星学校,细颗粒物(PM2.5),159,240,143,121,72,8,,96,62,86,47,16,17,1.8,1.3
2026-02-13T0000,4271A,103.2464,35.6123,临夏回族自治州,滨河东路1号,细颗粒物(PM2.5),189,249,139,142,79,7,,86,36,38,26,11,10,2.8,1.5
2026-02-13T0000,4310A,103.207136,35.599807,临夏回族自治州,新华街21号,细颗粒物(PM2.5),204,230,144,154,82,18,,79,47,51,34,15,13,2.5,1.5
2026-02-13T0000,1618A,118.3429,35.0532,临沂市,沂河小区,细颗粒物(PM2.5),109,161,161,82,90,61,,105,80,36,32,24,19,0.8,0.7
2026-02-13T0000,1619A,118.2962,35.0568,临沂市,鲁南制药厂,"颗粒物(PM10),细颗粒物(PM2.5)",109,168,159,82,93,54,,100,79,43,38,28,20,0.8,0.7
2026-02-13T0000,1620A,118.2793,34.9976,临沂市,新光毛纺厂,细颗粒物(PM2.5),118,166,158,89,97,52,,107,81,45,34,28,21,1.1,0.9
2026-02-13T0000,1621A,118.3955,35.0889,临沂市,河东保险公司,细颗粒物(PM2.5),124,163,164,94,103,33,,115,73,65,51,14,14,1.1,1
2026-02-13T0000,3370A,118.3563,35.0215,临沂市,十里堡居委,细颗粒物(PM2.5),123,163,161,93,101,52,,116,74,46,38,29,22,1.0,0.9
2026-02-13T0000,3496A,118.359,35.1067,临沂市,南坊新区,颗粒物(PM10),102,153,150,72,84,68,,112,89,35,30,21,15,0.7,0.7
2026-02-13T0000,3860A,118.3915,35.0297,临沂市,皇山花园小区,细颗粒物(PM2.5),118,163,161,89,102,64,,117,83,37,35,24,21,0.8,0.9
2026-02-13T0000,1870A,109.4854,24.3898,柳州市,柳东小学,,46,34,25,32,22,8,,34,18,10,9,3,4,0.9,0.9
2026-02-13T0000,1871A,109.4109,24.3304,柳州市,环保监测站,,49,46,27,34,20,3,,34,10,25,19,4,3,1.1,1
2026-02-13T0000,1872A,109.3886,24.3408,柳州市,河西水厂,,49,43,31,34,23,7,,34,13,16,15,6,5,0.8,0.8
2026-02-13T0000,1873A,109.4263,24.2951,柳州市,市四中,,,,27,,23,,,31,14,,15,,5,,0.9
2026-02-13T0000,1874A,109.396,24.3658,柳州市,市九中,细颗粒物(PM2.5),53,51,27,37,21,4,,30,15,17,11,8,8,1.1,0.9
2026-02-13T0000,1875A,109.4912,24.3164,柳州市,古亭山,,38,30,23,26,21,9,,32,17,12,13,6,6,0.9,0.9
2026-02-13T0000,3402A,109.5422,24.3994,柳州市,市二中,,42,30,21,29,19,7,,34,17,15,14,5,5,0.7,0.6
2026-02-13T0000,2307A,116.5078,31.7369,六安市,监测大楼,细颗粒物(PM2.5),77,97,83,56,43,73,,98,90,20,15,4,4,0.5,0.4
2026-02-13T0000,2308A,116.4738,31.7642,六安市,皖西学院,细颗粒物(PM2.5),77,97,89,56,40,37,,112,75,32,21,4,5,0.6,0.5
2026-02-13T0000,2309A,116.4997,31.7904,六安市,朝阳厂,细颗粒物(PM2.5),72,90,83,52,42,37,,104,76,47,25,5,5,0.6,0.5
2026-02-13T0000,2310A,116.5566,31.7885,六安市,开发区,颗粒物(PM10),73,96,94,51,41,91,,111,98,16,17,6,5,0.5,0.4
2026-02-13T0000,2577A,104.8293,26.592,六盘水市,黄土坡,,39,,38,27,31,70,,80,76,14,18,9,10,0.7,1
2026-02-13T0000,2579A,104.8481,26.5898,六盘水市,民中,,46,38,38,32,32,60,,79,74,13,15,6,6,0.7,1
2026-02-13T0000,2580A,104.9541,26.5506,六盘水市,双水,,42,41,31,29,22,59,,75,68,10,12,6,6,0.7,0.8
2026-02-13T0000,4151A,104.8899,26.5685,六盘水市,钟山大道中段564号,,46,46,41,26,25,58,,79,73,10,10,6,7,0.8,1
2026-02-13T0000,2336A,117.022,25.1031,龙岩市,龙岩市监测站,,33,24,28,23,23,33,,82,62,20,10,8,8,0.9,0.9
2026-02-13T0000,2337A,117.0257,25.0662,龙岩市,闽西职业技术学院,,32,30,28,22,22,60,,83,72,23,11,7,6,0.7,0.8
2026-02-13T0000,2338A,117.0195,25.0306,龙岩市,龙岩学院,,32,29,27,22,20,38,,86,59,12,11,4,5,/,/
2026-02-13T0000,2885A,104.9344,33.3827,陇南市,滨江中学,细颗粒物(PM2.5),193,,89,145,65,11,,72,36,64,34,20,9,2.8,1.2
2026-02-13T0000,3247A,104.9551,33.3709,陇南市,市总工会,颗粒物(PM10),71,92,79,40,35,38,,69,49,30,24,4,4,1.1,0.9
2026-02-13T0000,2488A,111.9984,27.7346,娄底市,市监测站,细颗粒物(PM2.5),74,,66,54,58,10,,29,19,26,23,2,3,0.9,0.8
2026-02-13T0000,2491A,111.9888,27.7035,娄底市,市政府,细颗粒物(PM2.5),55,,60,39,51,11,,26,21,9,7,1,2,0.7,0.6
2026-02-13T0000,4127A,111.9812,27.7591,娄底市,涟钢职大,"颗粒物(PM10),细颗粒物(PM2.5)",54,57,66,38,45,7,,27,16,21,23,3,2,1.3,1.2
2026-02-13T0000,4128A,112.0303,27.7457,娄底市,娄底体校,细颗粒物(PM2.5),63,51,59,45,50,11,,28,19,7,9,2,2,0.9,0.6
2026-02-13T0000,1894A,105.4427,28.9063,泸州市,小市上码头,细颗粒物(PM2.5),122,114,80,92,60,30,,85,69,31,24,6,5,1.1,1
2026-02-13T0000,1895A,105.4241,28.8573,泸州市,兰田宪桥,细颗粒物(PM2.5),112,122,78,84,53,26,,76,56,30,21,9,9,1.2,0.9
2026-02-13T0000,1896A,105.4378,28.8833,泸州市,市环监站,细颗粒物(PM2.5),97,120,86,72,56,10,,80,67,64,26,7,7,1.1,0.8
2026-02-13T0000,4272A,105.3689,28.7783,泸州市,纳溪中医医院,细颗粒物(PM2.5),103,90,82,77,61,27,,77,52,18,18,8,8,0.7,0.7
2026-02-13T0000,2183A,111.1447,37.5212,吕梁市,环保局,颗粒物(PM10),73,96,102,33,36,20,,68,46,43,31,4,7,0.3,0.5
2026-02-13T0000,2185A,111.1285,37.5338,吕梁市,自来水公司,颗粒物(PM10),113,175,145,45,38,2,,66,40,57,38,16,13,0.4,0.5
2026-02-13T0000,2867A,111.1225,37.5093,吕梁市,马茂庄小学,颗粒物(PM10),97,143,122,45,40,6,,62,34,56,39,18,11,0.4,0.5
2026-02-13T0000,1812A,112.3934,34.6517,洛阳市,市委党校,颗粒物(PM10),89,128,136,62,63,82,,100,91,27,33,9,10,0.8,0.9
2026-02-13T0000,1815A,112.494,34.6883,洛阳市,河南林校,细颗粒物(PM2.5),110,151,151,83,67,54,,92,75,48,44,14,15,0.9,0.8
2026-02-13T0000,1816A,112.3843,34.623,洛阳市,开发区管委会,颗粒物(PM10),107,164,153,60,57,77,,106,95,24,25,10,11,0.6,0.7
2026-02-13T0000,1817A,112.4263,34.6249,洛阳市,市委新办公区,颗粒物(PM10),113,175,147,62,57,86,,102,96,20,23,12,11,0.5,0.5
2026-02-13T0000,3340A,112.6005,34.6323,洛阳市,伊滨,颗粒物(PM10),111,171,156,63,58,90,,105,96,24,28,12,11,0.7,0.7
2026-02-13T0000,3341A,112.495,34.6338,洛阳市,中移产业园,颗粒物(PM10),97,144,136,59,63,86,,101,94,22,27,11,10,0.7,0.8
2026-02-13T0000,3593A,112.5736,34.8993,洛阳市,吉利监测站,颗粒物(PM10),86,122,123,54,42,88,,105,98,24,21,11,11,0.8,0.7
2026-02-13T0000,3635A,112.3678,34.6623,洛阳市,河科大西苑校区,颗粒物(PM10),92,133,147,53,62,93,,107,97,20,31,10,13,0.8,1
2026-02-13T0000,3636A,112.4387,34.678,洛阳市,英才小学,颗粒物(PM10),100,149,161,68,67,76,,99,84,35,50,13,18,0.9,1.1
2026-02-13T0000,4214A,112.460027,34.694929,洛阳市,春都路1号院,颗粒物(PM10),106,162,167,68,62,62,,92,76,40,46,14,16,0.9,0.9
2026-02-13T0000,2399A,114.051,33.5721,漯河市,三五一五工厂,细颗粒物(PM2.5),117,170,137,88,55,35,,106,62,53,30,6,6,1.1,0.8
2026-02-13T0000,2400A,114.0055,33.5698,漯河市,漯河大学,"颗粒物(PM10),细颗粒物(PM2.5)",94,137,119,70,51,36,,108,66,58,28,11,8,0.9,0.7
2026-02-13T0000,2401A,114.0134,33.5826,漯河市,市水利局,细颗粒物(PM2.5),105,156,125,79,54,40,,108,70,47,25,8,7,0.9,0.6
2026-02-13T0000,2402A,114.0261,33.5697,漯河市,市广电局,细颗粒物(PM2.5),104,137,121,78,54,57,,99,68,31,24,8,7,0.8,0.6
2026-02-13T0000,3478A,113.9691,33.568,漯河市,市图书馆,细颗粒物(PM2.5),102,148,129,76,52,59,,100,80,26,17,11,9,1.0,0.8
2026-02-13T0000,4250A,114.089259,33.588274,漯河市,韶山路11号,"颗粒物(PM10),细颗粒物(PM2.5)",102,153,132,76,53,37,,103,68,53,30,8,7,0.9,0.6
2026-02-13T0000,1798A,118.5084,31.6838,马鞍山市,湖东路四小,细颗粒物(PM2.5),100,120,125,75,65,71,,103,73,36,35,14,6,0.6,0.8
2026-02-13T0000,1799A,118.5019,31.6449,马鞍山市,开发区,细颗粒物(PM2.5),119,131,126,90,67,81,,107,82,27,31,8,5,0.5,0.8
2026-02-13T0000,3633A,118.4914,31.681,马鞍山市,雨山,细颗粒物(PM2.5),105,126,127,79,65,77,,104,78,34,33,15,6,0.9,1
2026-02-13T0000,4191A,118.527362,31.722269,马鞍山市,慈湖高新区,颗粒物(PM10),102,153,126,70,65,86,,105,82,34,35,19,6,0.6,0.7
2026-02-13T0000,1686A,111.0285,21.469,茂名市,电白南海,颗粒物(PM10),51,51,49,21,21,90,,100,94,13,14,8,9,1.0,0.9
2026-02-13T0000,1687A,110.9294,21.6533,茂名市,茂石化七小,,48,48,42,20,19,78,,94,85,9,9,4,6,0.4,0.4
2026-02-13T0000,1688A,110.9108,21.6688,茂名市,健康路,,34,34,35,19,18,93,,106,98,9,10,3,5,0.6,0.6
2026-02-13T0000,1689A,110.8592,21.6826,茂名市,高岭,,48,48,50,22,21,90,,102,94,8,10,2,6,/,/
2026-02-13T0000,3450A,111.0101,21.5165,茂名市,电白水东,,44,44,40,22,21,99,,105,102,17,19,3,6,/,/
2026-02-13T0000,2540A,103.8414,30.0871,眉山市,气象局,细颗粒物(PM2.5),119,113,78,90,49,32,,103,65,43,31,10,9,1.1,0.8
2026-02-13T0000,3148A,103.829,30.0563,眉山市,区人社局,细颗粒物(PM2.5),118,115,79,89,53,33,,85,48,41,35,5,4,0.9,0.9
2026-02-13T0000,4148A,103.8836,30.0695,眉山市,眉职院,细颗粒物(PM2.5),77,94,70,56,44,20,,97,63,30,19,4,5,0.9,0.8
2026-02-13T0000,1690A,116.1248,24.3307,梅州市,梅江月梅,,45,37,21,31,16,79,,89,81,14,13,/,/,/,/
2026-02-13T0000,1691A,116.0798,24.2719,梅州市,梅县新城,细颗粒物(PM2.5),55,48,29,39,20,59,,86,68,20,15,8,7,0.7,0.7
2026-02-13T0000,3315A,116.1234,24.2994,梅州市,梅龙,,45,39,23,31,18,60,,78,66,18,13,12,8,0.8,0.8
2026-02-13T0000,1878A,104.7775,31.4741,绵阳市,富乐山,细颗粒物(PM2.5),73,64,68,53,42,17,,95,75,68,22,8,8,1.1,0.8
2026-02-13T0000,1880A,104.6698,31.4668,绵阳市,高新区自来水公司,细颗粒物(PM2.5),75,95,79,55,46,0,,92,48,70,37,8,7,1.1,1
2026-02-13T0000,3491A,104.6899,31.5324,绵阳市,西科大附属小学,细颗粒物(PM2.5),78,94,74,57,45,2,,103,66,66,28,9,8,0.8,0.7
2026-02-13T0000,3492A,104.5647,31.5343,绵阳市,安州区旅游局,细颗粒物(PM2.5),103,114,71,77,45,10,,104,52,51,32,3,9,1.3,1.1
2026-02-13T0000,4146A,104.7092,31.4972,绵阳市,科技城新区公安局,颗粒物(PM10),64,78,73,45,40,22,,102,78,79,29,5,5,1.0,0.8
2026-02-13T0000,4226A,104.765114,31.453094,绵阳市,绵阳市气象局,细颗粒物(PM2.5),74,94,76,54,48,0,,98,66,81,32,2,6,0.9,0.5
2026-02-13T0000,1784A,129.61,44.561,牡丹江市,环保大楼,细颗粒物(PM2.5),124,113,63,94,43,16,,80,35,56,30,7,5,1.1,0.7
2026-02-13T0000,1787A,129.6364,44.6075,牡丹江市,机车工厂,细颗粒物(PM2.5),85,84,66,63,43,5,,71,18,54,39,8,7,1.0,0.8
2026-02-13T0000,1788A,129.6386,44.5462,牡丹江市,第一中学,,45,38,35,31,29,25,,78,36,42,24,7,6,0.7,0.6
2026-02-13T0000,4287A,129.5992,44.5964,牡丹江市,东晓云街98号,细颗粒物(PM2.5),69,59,62,50,42,35,,78,34,30,31,8,8,1.0,0.9
2026-02-13T0000,2531A,105.0703,29.61,内江市,市监测站,,,129,71,74,55,22,,115,84,52,28,7,6,,0.8
2026-02-13T0000,2533A,105.0657,29.5807,内江市,内江二中,细颗粒物(PM2.5),97,101,77,72,54,25,,98,70,48,34,7,7,0.7,0.6
2026-02-13T0000,2534A,105.0407,29.5828,内江市,内江日报社,细颗粒物(PM2.5),90,79,65,67,51,7,,110,78,66,29,9,7,0.8,0.4
2026-02-13T0000,4147A,105.0433,29.6105,内江市,玉峰路西段888号,细颗粒物(PM2.5),89,66,62,66,54,17,,118,81,53,15,4,5,0.9,0.6
2026-02-13T0000,2628A,92.0653,31.4846,那曲市,那曲监测站,细颗粒物(PM2.5),158,154,41,120,36,20,,95,70,80,23,29,13,4.2,1.3
2026-02-13T0000,4243A,92.0515,31.4787,那曲市,那曲市委宣传部,,48,36,15,33,14,45,,105,88,28,8,11,8,1.5,0.8
2026-02-13T0000,1291A,115.8887,28.7006,南昌市,省林业公司,细颗粒物(PM2.5),83,83,100,61,65,48,,74,62,18,40,5,5,0.7,0.9
2026-02-13T0000,1292A,115.813,28.7443,南昌市,林科所,细颗粒物(PM2.5),70,75,93,51,39,39,,81,62,20,33,8,9,0.9,1.1
2026-02-13T0000,1294A,115.8518,28.687,南昌市,建工学校,细颗粒物(PM2.5),84,99,114,62,64,46,,73,57,18,40,7,7,0.4,0.5
2026-02-13T0000,1295A,115.8926,28.6425,南昌市,象湖,细颗粒物(PM2.5),84,85,105,62,67,51,,80,65,15,30,8,8,0.9,1.1
2026-02-13T0000,3046A,115.9084,28.6062,南昌市,机电学校,细颗粒物(PM2.5),83,85,108,61,68,52,,86,67,18,29,5,5,0.6,0.7
2026-02-13T0000,3690A,115.9718,28.7032,南昌市,外国语学校,细颗粒物(PM2.5),84,80,107,62,77,54,,77,59,17,28,13,13,0.8,1.1
2026-02-13T0000,4106A,115.7923,28.6873,南昌市,工业二路,细颗粒物(PM2.5),82,90,98,60,56,57,,85,66,13,35,4,4,0.8,0.8
2026-02-13T0000,4192A,115.931587,28.686774,南昌市,南京东路235号,细颗粒物(PM2.5),87,98,130,64,82,50,,76,59,18,31,6,8,0.6,1.1
2026-02-13T0000,1906A,106.0791,30.8022,南充市,南充市委,细颗粒物(PM2.5),74,81,64,54,45,0,,82,31,65,34,6,4,1.1,0.8
2026-02-13T0000,1907A,106.1038,30.8215,南充市,南充炼油厂,细颗粒物(PM2.5),93,100,76,69,44,26,,80,45,58,38,6,6,0.8,0.6
2026-02-13T0000,4227A,106.108336,30.788436,南充市,梨树横街98号,细颗粒物(PM2.5),107,104,73,80,51,48,,88,69,33,30,7,6,0.6,0.6
2026-02-13T0000,4304A,106.1172,30.843,南充市,清泉寺北路188号,细颗粒物(PM2.5),94,87,59,70,44,49,,94,73,44,24,6,6,0.9,0.7
2026-02-13T0000,4305A,106.067,30.7616,南充市,同庆路1号,细颗粒物(PM2.5),94,104,72,70,44,1,,76,33,71,46,6,6,1.0,0.6
2026-02-13T0000,1151A,118.8033,32.1085,南京市,迈皋桥,细颗粒物(PM2.5),62,71,96,44,57,62,,109,73,32,31,6,7,0.6,0.7
2026-02-13T0000,1152A,118.7487,32.057,南京市,草场门,"颗粒物(PM10),细颗粒物(PM2.5)",79,107,110,58,57,61,,74,62,36,45,8,8,0.8,0.9
2026-02-13T0000,1154A,118.770105,32.004342,南京市,中华门,细颗粒物(PM2.5),88,100,108,65,63,88,,114,88,21,31,4,4,0.7,0.8
2026-02-13T0000,1155A,118.8059,32.0329,南京市,瑞金路,细颗粒物(PM2.5),73,83,103,53,64,4,,116,50,104,51,3,4,1.9,1.5
2026-02-13T0000,1156A,118.7946,32.0774,南京市,玄武湖,颗粒物(PM10),66,82,105,42,56,98,,119,93,22,28,1,1,0.8,1
2026-02-13T0000,1157A,118.6415,32.0964,南京市,浦口,颗粒物(PM10),73,96,115,52,56,66,,107,88,40,29,5,6,0.7,0.7
2026-02-13T0000,1158A,118.730129,32.000956,南京市,奥体中心,细颗粒物(PM2.5),82,110,114,60,60,52,,111,78,61,43,5,6,0.7,0.6
2026-02-13T0000,1159A,118.9072,32.1047,南京市,仙林大学城,颗粒物(PM10),80,110,110,56,57,107,,117,103,26,32,11,7,0.7,0.7
2026-02-13T0000,3422A,118.8443,31.919,南京市,江宁彩虹桥,细颗粒物(PM2.5),84,113,112,62,56,94,,122,91,42,45,4,4,0.9,0.9
2026-02-13T0000,3427A,118.8497,32.3599,南京市,六合雄州,颗粒物(PM10),82,113,119,58,67,36,,72,57,45,42,4,3,0.9,0.8
2026-02-13T0000,4086A,118.7641,32.0841,南京市,新模范马路66号,颗粒物(PM10),78,105,120,53,58,117,,115,106,1,38,4,4,0.6,0.8
2026-02-13T0000,4249A,118.8707617,31.34017673,南京市,汶溪路181号,"颗粒物(PM10),细颗粒物(PM2.5)",94,137,108,70,52,36,,102,78,53,24,5,5,1.0,0.8
2026-02-13T0000,4312A,119.019,31.6512,南京市,中山西路1号,细颗粒物(PM2.5),92,105,92,68,53,87,,102,93,25,24,3,4,1.0,1
2026-02-13T0000,1401A,108.3098,22.788,南宁市,二十一中,细颗粒物(PM2.5),68,50,35,49,33,10,,22,11,34,24,3,4,0.9,0.8
2026-02-13T0000,1402A,108.3135,22.8529,南宁市,北湖,细颗粒物(PM2.5),103,92,45,77,40,1,,19,6,39,26,5,3,1.6,0.8
2026-02-13T0000,1403A,108.3205,22.8222,南宁市,市监测站,细颗粒物(PM2.5),65,59,40,47,34,4,,22,6,40,28,5,5,1.1,0.9
2026-02-13T0000,1404A,108.3828,22.8038,南宁市,大自然花园,细颗粒物(PM2.5),62,57,35,44,28,22,,28,16,22,16,5,5,1.0,0.9
2026-02-13T0000,1406A,108.2397,22.8462,南宁市,区农职院,细颗粒物(PM2.5),65,71,42,47,30,1,,15,4,31,27,3,3,1.4,1.2
2026-02-13T0000,1407A,108.3285,22.7356,南宁市,英华嘉园,细颗粒物(PM2.5),62,58,38,44,30,0,,27,10,28,17,3,3,0.9,0.7
2026-02-13T0000,3401A,108.4829,22.762,南宁市,红星社区,细颗粒物(PM2.5),64,62,40,46,29,3,,37,15,33,15,4,4,1.2,0.9
2026-02-13T0000,4132A,108.2927,23.1477,南宁市,起凤路9号,细颗粒物(PM2.5),53,42,31,37,28,6,,27,8,15,14,2,2,0.8,0.7
2026-02-13T0000,4221A,108.2177,22.7774,南宁市,乐贤路16号,细颗粒物(PM2.5),83,77,43,61,36,0,,11,3,32,31,2,2,1.5,1.1
2026-02-13T0000,2332A,118.1682,26.6371,南平市,南平市监测站,颗粒物(PM10),56,62,46,33,24,13,,76,36,28,17,4,4,1.0,0.8
2026-02-13T0000,2334A,118.1757,26.6276,南平市,南平七中,细颗粒物(PM2.5),54,53,41,38,23,13,,80,41,27,13,2,3,1.0,0.7
2026-02-13T0000,1168A,120.9056,31.9669,南通市,狼山街道,细颗粒物(PM2.5),120,135,113,91,77,17,,121,86,86,46,3,4,0.7,0.7
2026-02-13T0000,1170A,120.8635,32.0231,南通市,城中,细颗粒物(PM2.5),127,140,122,96,86,44,,126,96,76,41,6,7,0.9,0.8
2026-02-13T0000,1171A,120.9376,31.9301,南通市,星湖花园,细颗粒物(PM2.5),117,130,109,88,79,27,,131,85,90,41,6,6,0.8,0.7
2026-02-13T0000,1172A,120.8053,32.046,南通市,紫琅学院,细颗粒物(PM2.5),125,156,125,95,84,26,,102,57,84,57,6,7,0.9,1
2026-02-13T0000,3291A,121.0631,32.0644,南通市,通州监测站,细颗粒物(PM2.5),102,114,110,76,76,90,,127,111,29,34,5,5,0.9,0.8
2026-02-13T0000,3432A,120.9348,31.9874,南通市,环境教育馆,细颗粒物(PM2.5),123,127,108,93,77,41,,116,90,42,40,4,5,0.7,0.8
2026-02-13T0000,4091A,120.8692,31.9885,南通市,洪江路,细颗粒物(PM2.5),124,121,105,94,84,32,,118,82,82,45,6,7,0.8,0.8
2026-02-13T0000,2404A,112.5338,33.0086,南阳市,瓦房庄,细颗粒物(PM2.5),92,107,120,68,53,72,,98,78,17,21,6,6,0.9,0.9
2026-02-13T0000,2405A,112.5002,32.9734,南阳市,汉画馆,细颗粒物(PM2.5),113,133,134,85,70,64,,100,70,27,25,6,5,1.0,0.9
2026-02-13T0000,2406A,112.5778,33.0144,南阳市,气象站,颗粒物(PM10),91,132,145,64,50,75,,101,84,18,20,7,7,0.9,0.8
2026-02-13T0000,2407A,112.548,32.9687,南阳市,理工学院,细颗粒物(PM2.5),98,143,127,73,53,58,,101,80,30,21,6,7,0.9,0.7
2026-02-13T0000,4008A,112.5233,32.9921,南阳市,卧龙区政府,颗粒物(PM10),99,148,145,70,55,64,,91,69,20,23,7,7,0.8,0.8
2026-02-13T0000,1234A,121.8352,29.9111,宁波市,区环保大楼,颗粒物(PM10),63,75,112,39,69,136,,133,133,19,36,6,6,0.6,0.7
2026-02-13T0000,1235A,121.5595,29.8208,宁波市,万里学院,颗粒物(PM10),74,97,106,52,69,117,,127,122,19,25,4,3,0.7,0.8
2026-02-13T0000,1236A,121.713,29.9564,宁波市,龙赛医院,颗粒物(PM10),60,70,101,39,71,130,,126,126,18,33,4,5,0.8,0.9
2026-02-13T0000,1240A,121.5855,29.8635,宁波市,太古小学,颗粒物(PM10),66,82,98,47,63,124,,127,127,19,26,3,3,0.5,0.7
2026-02-13T0000,1241A,121.5239,29.8673,宁波市,市环境监测中心,细颗粒物(PM2.5),70,84,100,51,68,110,,111,109,16,25,3,3,0.8,0.9
2026-02-13T0000,2871A,121.6156,29.9015,宁波市,万里国际学校,颗粒物(PM10),64,78,95,45,66,130,,129,129,14,21,4,4,0.7,0.7
2026-02-13T0000,3710A,121.5593,29.8976,宁波市,白沙活动中心,细颗粒物(PM2.5),73,78,95,53,67,115,,122,121,21,29,4,4,0.5,0.6
2026-02-13T0000,4095A,121.8962,29.7529,宁波市,中科路88号,细颗粒物(PM2.5),87,81,96,64,78,92,,134,127,28,22,5,5,0.7,0.7
2026-02-13T0000,2341A,119.5387,26.6611,宁德市,宁德市监测站,,50,50,46,32,32,74,,112,92,16,16,3,3,0.6,0.7
2026-02-13T0000,3209A,119.5231,26.6562,宁德市,宁德一中,,46,34,47,32,34,71,,112,92,13,15,3,3,0.5,0.5
2026-02-13T0000,2618A,98.859,25.8541,怒江傈僳族自治州,州监测站,,32,32,27,22,15,60,,89,76,10,8,6,6,0.5,0.4
2026-02-13T0000,2619A,98.8607,25.8168,怒江傈僳族自治州,泸水一中,细颗粒物(PM2.5),55,,27,39,22,32,,79,53,20,13,5,4,0.8,0.6
2026-02-13T0000,1888A,101.6891,26.571,攀枝花市,弄弄坪,颗粒物(PM10),75,100,72,41,37,4,,84,55,75,44,121,90,4.2,3.7
2026-02-13T0000,1889A,101.577,26.5914,攀枝花市,河门口,颗粒物(PM10),53,56,40,32,21,26,,92,69,32,16,30,13,0.6,0.5
2026-02-13T0000,1891A,101.7365,26.4986,攀枝花市,仁和,,27,27,30,14,18,50,,90,67,14,16,7,10,0.5,0.7
2026-02-13T0000,2835A,101.7222,26.567,攀枝花市,四十中小,,40,39,43,28,24,40,,86,70,46,37,13,38,1.0,2.4
2026-02-13T0000,1604A,122.0303,41.1489,盘锦市,开发区,细颗粒物(PM2.5),119,,110,90,110,22,,72,43,28,27,4,6,1.1,0.9
2026-02-13T0000,1605A,122.0486,41.0883,盘锦市,兴隆台,细颗粒物(PM2.5),165,,94,125,116,23,,79,38,55,48,4,7,1.1,0.9
2026-02-13T0000,1606A,121.8297,41.1026,盘锦市,新生街道,细颗粒物(PM2.5),107,,67,80,97,41,,77,56,33,34,5,7,1.3,1
2026-02-13T0000,1832A,113.3257,33.7423,平顶山市,新华旅馆,细颗粒物(PM2.5),110,148,134,83,60,62,,105,85,37,27,6,6,0.5,0.4
2026-02-13T0000,1833A,113.2917,33.737,平顶山市,规划设计院,细颗粒物(PM2.5),107,158,140,80,58,49,,103,82,33,17,6,7,0.7,0.5
2026-02-13T0000,1834A,113.182,33.7738,平顶山市,平顶山工学院,颗粒物(PM10),98,146,129,66,56,94,,110,96,14,15,8,9,0.5,0.5
2026-02-13T0000,3594A,112.8736,33.9068,平顶山市,石龙区,颗粒物(PM10),103,156,141,74,62,64,,111,94,32,19,8,7,0.8,0.8
2026-02-13T0000,4116A,113.284,33.7139,平顶山市,姚电大道23号,颗粒物(PM10),110,169,148,69,59,80,,101,87,17,18,4,5,0.5,0.5
2026-02-13T0000,2656A,106.6633,35.5338,平凉市,聚贤嘉苑,颗粒物(PM10),60,69,80,33,34,51,,89,62,20,16,7,7,0.5,0.5
2026-02-13T0000,2657A,106.7021,35.5307,平凉市,博物馆,颗粒物(PM10),62,74,84,39,37,45,,89,59,20,17,15,11,0.9,0.8
2026-02-13T0000,2348A,113.8384,27.6436,萍乡市,中医院,细颗粒物(PM2.5),78,77,85,57,56,25,,25,25,23,24,3,4,1.4,1.5
2026-02-13T0000,2350A,113.8677,27.6438,萍乡市,市环保局,细颗粒物(PM2.5),69,68,78,50,54,28,,30,30,29,28,3,6,1.2,1.1
2026-02-13T0000,2351A,113.8663,27.6202,萍乡市,安源区政府,颗粒物(PM10),67,84,85,45,52,29,,24,24,19,24,3,6,1.1,1.3
2026-02-13T0000,4107A,113.8686,27.6668,萍乡市,联洪村委会,细颗粒物(PM2.5),77,71,68,56,50,28,,29,29,14,18,1,1,0.8,0.7
2026-02-13T0000,2319A,119.0142,25.4324,莆田市,荔城区仓后路,颗粒物(PM10),51,51,54,34,29,69,,119,95,22,14,/,/,/,/
2026-02-13T0000,2320A,119.0016,25.4553,莆田市,莆田市监测站,,36,33,47,25,27,69,,121,96,10,10,2,3,0.7,0.6
2026-02-13T0000,2321A,119.112,25.4561,莆田市,涵江区六中,,45,45,56,29,31,80,,118,100,14,12,/,/,0.8,0.7
2026-02-13T0000,2322A,119.1014,25.3215,莆田市,秀屿区政府,,43,34,50,30,33,87,,125,112,15,11,3,3,0.7,0.6
2026-02-13T0000,2392A,115.0312,35.7636,濮阳市,环保局,细颗粒物(PM2.5),114,141,131,86,59,66,,101,89,30,21,7,8,0.6,0.5
2026-02-13T0000,3021A,115,35.7667,濮阳市,濮水河管理处,细颗粒物(PM2.5),110,153,144,83,62,73,,103,90,23,19,7,8,0.9,0.7
2026-02-13T0000,4118A,115.0552,35.7816,濮阳市,中原东路68号,颗粒物(PM10),114,178,158,83,60,68,,104,94,34,25,7,8,0.8,0.6
2026-02-13T0000,4216A,115.0923632,35.76857718,濮阳市,任丘路479号,细颗粒物(PM2.5),122,173,148,92,67,64,,98,82,32,26,7,8,0.7,0.6
2026-02-13T0000,2601A,100.9801,22.7634,普洱市,市环保局,颗粒物(PM10),51,52,57,22,22,59,,101,82,7,8,5,5,0.4,0.5
2026-02-13T0000,2602A,100.9763,22.8237,普洱市,普洱第二中学,颗粒物(PM10),63,75,57,34,32,13,,101,67,52,24,5,5,0.5,0.6
2026-02-13T0000,3345A,131.0413,45.7795,七台河市,中波台,,39,30,29,27,20,58,,80,66,18,15,10,9,0.4,0.3
2026-02-13T0000,3637A,131.0136,45.7688,七台河市,人民广场,,45,34,41,31,20,41,,76,60,42,23,9,10,0.7,0.5
2026-02-13T0000,3684A,130.8639,45.8144,七台河市,新建矿广场,,43,39,43,30,26,41,,72,51,37,20,12,7,0.5,0.3
2026-02-13T0000,1779A,123.9307,47.3641,齐齐哈尔市,安居小区,细颗粒物(PM2.5),118,119,81,89,37,20,,68,36,51,29,20,16,1.1,0.8
2026-02-13T0000,1780A,123.9497,47.3389,齐齐哈尔市,中心广场,颗粒物(PM10),79,107,67,51,42,54,,72,40,24,30,13,11,0.9,0.9
2026-02-13T0000,1781A,123.9483,47.3229,齐齐哈尔市,农牧车辆厂,细颗粒物(PM2.5),87,95,70,64,38,43,,70,39,28,31,10,8,0.6,0.7
2026-02-13T0000,1783A,123.9442,47.2994,齐齐哈尔市,市环境监测站,细颗粒物(PM2.5),109,125,72,82,40,18,,77,37,51,24,10,8,1.1,0.7
2026-02-13T0000,3662A,123.6341,47.2079,齐齐哈尔市,富区青少年活动中心,细颗粒物(PM2.5),118,133,101,89,50,45,,70,55,23,29,10,13,0.9,1.3
2026-02-13T0000,2591A,107.9765,26.5724,黔东南苗族侗族自治州,市环境监测站,细颗粒物(PM2.5),55,50,44,39,33,6,,40,18,19,10,6,4,1.0,0.8
2026-02-13T0000,2881A,107.8909,26.531,黔东南苗族侗族自治州,凯里学院,细颗粒物(PM2.5),53,41,43,37,33,14,,46,22,12,12,4,3,0.8,0.7
2026-02-13T0000,2593A,107.5223,26.2371,黔南布依族苗族自治州,小围寨,,48,36,26,33,22,16,,25,16,11,9,5,6,1.1,0.9
2026-02-13T0000,3538A,107.5175,26.2977,黔南布依族苗族自治州,沙坝,细颗粒物(PM2.5),55,46,31,39,24,12,,36,19,14,9,5,5,0.9,0.7
2026-02-13T0000,2589A,104.9022,25.0943,黔西南布依族苗族自治州,场坝街,,37,37,25,21,16,16,,30,26,16,10,4,3,0.9,0.8
2026-02-13T0000,2590A,104.8812,25.0994,黔西南布依族苗族自治州,坪东大道,,30,30,27,19,16,25,,31,29,10,9,4,5,1.0,0.9
2026-02-13T0000,2502A,108.6238,21.9667,钦州市,市环保站,颗粒物(PM10),52,53,61,33,32,54,,57,55,20,18,3,2,0.6,0.8
2026-02-13T0000,2503A,108.655,21.9481,钦州市,沙埠小学,颗粒物(PM10),55,59,58,32,31,48,,60,58,25,20,4,4,0.5,0.7
2026-02-13T0000,2504A,108.5989,21.7435,钦州市,港区一小,,42,42,52,16,24,74,,61,60,19,31,1,2,0.4,0.6
2026-02-13T0000,3404A,108.5959,21.9634,钦州市,北职校,颗粒物(PM10),61,72,41,32,25,44,,74,69,25,15,4,2,0.9,0.8
2026-02-13T0000,1046A,119.5247,39.9346,秦皇岛市,建设大厦,细颗粒物(PM2.5),183,232,165,138,103,3,,56,32,98,59,16,19,2.0,1.5
2026-02-13T0000,3132A,119.5979,39.938,秦皇岛市,文明里,细颗粒物(PM2.5),193,249,171,145,101,2,,52,22,117,82,15,19,1.8,1.5
2026-02-13T0000,4066A,119.7458,39.9952,秦皇岛市,南园路157号,细颗粒物(PM2.5),200,225,161,150,102,3,,54,28,106,73,14,17,1.6,1.4
2026-02-13T0000,4067A,119.5131,39.8858,秦皇岛市,翠岛大街1号,细颗粒物(PM2.5),182,196,147,137,106,20,,55,42,70,55,23,22,1.9,1.6
2026-02-13T0000,4198A,119.509013,39.825305,秦皇岛市,北戴河轮滑馆,细颗粒物(PM2.5),158,223,174,120,101,34,,58,48,67,63,19,19,1.8,1.6
2026-02-13T0000,1310A,120.404,36.0625,青岛市,市南区东部子站,细颗粒物(PM2.5),163,158,157,124,125,100,,116,112,22,24,10,10,1.0,0.9
2026-02-13T0000,1311A,120.362344,36.10282,青岛市,四方区子站,细颗粒物(PM2.5),149,151,153,114,121,103,,128,120,25,30,5,8,1.1,1.2
2026-02-13T0000,1312A,120.294373,36.054183,青岛市,市南区西部子站,细颗粒物(PM2.5),155,144,146,118,130,101,,111,107,24,31,4,5,1.1,1
2026-02-13T0000,1313A,120.4581,36.0858,青岛市,崂山区子站,细颗粒物(PM2.5),153,151,150,117,114,103,,113,111,24,29,10,11,1.1,1
2026-02-13T0000,1315A,120.3945,36.3083,青岛市,城阳区子站,细颗粒物(PM2.5),129,149,152,98,107,107,,128,122,28,38,10,11,1.1,1.2
2026-02-13T0000,3642A,120.3454,36.0735,青岛市,市北区南部,细颗粒物(PM2.5),152,154,160,116,127,103,,119,113,19,24,1,3,1.2,1.1
2026-02-13T0000,3643A,120.3897,36.18,青岛市,李沧区北部,细颗粒物(PM2.5),147,139,147,112,113,111,,121,114,30,40,9,11,1.1,1.1
2026-02-13T0000,4110A,120.5222,36.4089,青岛市,盟旺路653号,细颗粒物(PM2.5),108,145,146,81,86,106,,127,120,18,21,6,7,1.1,1.1
2026-02-13T0000,4290A,120.196923,35.954556,青岛市,珠江路669号,细颗粒物(PM2.5),140,144,149,107,119,97,,121,114,20,22,7,9,0.8,0.9
2026-02-13T0000,4291A,120.0424,35.8656,青岛市,黄岛区人民政府广场,细颗粒物(PM2.5),162,175,157,123,120,56,,108,85,53,44,8,9,1.2,1.1
2026-02-13T0000,1703A,113.0218,23.7086,清远市,凤城街办,细颗粒物(PM2.5),93,98,40,69,28,5,,56,33,78,33,/,/,/,/
2026-02-13T0000,3025A,113.0479,23.6343,清远市,技师学院,细颗粒物(PM2.5),68,80,35,49,23,13,,61,45,49,24,4,4,0.9,0.6
2026-02-13T0000,3318A,112.9898,23.7403,清远市,清新太和,颗粒物(PM10),59,67,33,41,23,52,,73,68,23,22,10,10,0.7,0.8
2026-02-13T0000,3455A,113.076,23.72,清远市,清城东城,颗粒物(PM10),62,74,37,39,24,14,,53,30,41,29,/,/,/,/
2026-02-13T0000,2661A,107.6325,35.7357,庆阳市,庆阳五中,颗粒物(PM10),70,90,106,30,38,88,,91,75,14,15,5,6,0.5,0.6
2026-02-13T0000,2662A,107.6361,35.7067,庆阳市,市环保局,颗粒物(PM10),69,88,105,37,41,73,,89,72,23,14,22,6,0.4,0.5
2026-02-13T0000,1916A,103.7897,25.5036,曲靖市,环境监测站,,27,27,25,17,14,78,,96,86,7,8,4,5,0.3,0.3
2026-02-13T0000,1917A,103.8013,25.5357,曲靖市,烟厂办公区,,,20,27,15,13,65,,92,81,,10,4,4,,0.3
2026-02-13T0000,3376A,103.7926,25.4651,曲靖市,南苑二区,,24,22,22,9,14,74,,84,78,6,10,4,4,0.3,0.3
2026-02-13T0000,3377A,103.7442,25.5259,曲靖市,曲靖师范学院,,26,26,29,14,17,59,,93,80,16,9,4,4,0.3,0.3
2026-02-13T0000,1264A,118.8694,28.94,衢州市,环保大楼,细颗粒物(PM2.5),73,94,77,53,39,14,,92,50,51,31,/,/,/,/
2026-02-13T0000,1266A,118.8622,28.9809,衢州市,衢州学院,颗粒物(PM10),59,67,72,37,39,1,,93,43,58,30,5,6,0.5,0.5
2026-02-13T0000,4097A,118.9646,28.9832,衢州市,衢州三中,颗粒物(PM10),57,63,72,32,38,39,,92,59,23,25,4,5,0.8,0.7
2026-02-13T0000,1611A,118.5818,24.9116,泉州市,涂山街,,39,39,57,26,28,91,,109,97,15,12,4,4,0.6,0.5
2026-02-13T0000,1612A,118.597,24.8976,泉州市,津头埔,,40,40,56,28,30,89,,107,94,14,13,3,3,0.5,0.5
2026-02-13T0000,1613A,118.6669,24.9422,泉州市,万安,,43,43,58,28,31,83,,101,88,13,12,4,4,0.6,0.5
2026-02-13T0000,4105A,118.6355,24.9148,泉州市,霞新路6号,,45,45,53,25,28,89,,112,96,16,12,/,/,0.7,0.6
2026-02-13T0000,2626A,88.8873,29.2723,日喀则市,日喀则监测站,细颗粒物(PM2.5),69,51,22,50,12,66,,118,91,34,14,17,13,1.3,0.5
2026-02-13T0000,3726A,88.8775,29.2425,日喀则市,林业技术推广中心,,29,23,22,20,7,76,,108,94,15,6,12,11,0.6,0.3
2026-02-13T0000,1659A,119.4711,35.421,日照市,监测站,细颗粒物(PM2.5),130,156,173,99,128,6,,100,44,92,69,24,16,2.0,1.8
2026-02-13T0000,1660A,119.523,35.4216,日照市,市政府广场,细颗粒物(PM2.5),107,153,185,80,125,61,,91,68,47,64,15,19,1.0,1.3
2026-02-13T0000,1661A,119.5511,35.4113,日照市,港务局,颗粒物(PM10),111,171,204,82,128,32,,82,53,79,74,13,15,1.2,1.5
2026-02-13T0000,3507A,119.5326,35.4627,日照市,职业技术学院,"颗粒物(PM10),细颗粒物(PM2.5)",103,156,179,77,121,71,,100,80,46,57,15,15,1.4,1.6
2026-02-13T0000,3604A,119.3267,35.1043,日照市,岚山环保分局,颗粒物(PM10),101,151,168,71,108,72,,101,82,46,49,17,17,1.0,1.2
2026-02-13T0000,1835A,111.1922,34.7752,三门峡市,市政府,颗粒物(PM10),105,160,148,77,57,10,,89,47,69,44,16,14,1.3,0.8
2026-02-13T0000,1836A,111.1588,34.794,三门峡市,开发区,颗粒物(PM10),112,174,167,68,64,58,,96,82,29,31,7,10,0.7,0.7
2026-02-13T0000,3039A,111.1911,34.7829,三门峡市,三门峡市第一小学,颗粒物(PM10),115,179,162,85,66,8,,96,63,87,41,15,17,1.5,0.8
2026-02-13T0000,3598A,111.1031,34.719,三门峡市,富达温泉假日酒店,细颗粒物(PM2.5),120,175,168,91,73,46,,106,77,37,33,12,16,0.9,1
2026-02-13T0000,2324A,117.621,26.2626,三明市,三钢,,40,29,30,28,28,18,,50,37,16,14,3,7,0.5,0.5
2026-02-13T0000,2325A,117.6352,26.2714,三明市,三明二中,,35,31,28,24,22,23,,51,40,14,14,4,6,0.5,0.5
2026-02-13T0000,2326A,117.6028,26.2377,三明市,三元区政府,,35,33,29,24,21,9,,52,35,17,15,4,6,0.8,0.8
2026-02-13T0000,1877A,109.4962,18.2682,三亚市,河西子站,,25,25,26,14,11,75,,96,89,5,4,1,1,0.3,0.3
2026-02-13T0000,3540A,109.7348,18.3443,三亚市,君悦子站,,31,31,28,13,13,69,,95,86,8,5,3,3,0.4,0.4
2026-02-13T0000,4135A,109.1714,18.3739,三亚市,城东小学站,,30,30,23,17,13,69,,94,84,8,8,/,/,/,/
2026-02-13T0000,2624A,91.7592,29.234,山南市,山南监测站,,26,17,15,3,7,83,,109,102,11,5,3,4,0.5,0.4
2026-02-13T0000,2625A,91.7701,29.2436,山南市,山南人民医院,,26,16,18,9,7,82,,108,100,13,5,9,9,0.6,0.4
2026-02-13T0000,1674A,116.6795,23.3666,汕头市,金平子站,,39,39,45,25,22,103,,132,115,12,12,6,5,0.7,0.7
2026-02-13T0000,1675A,116.7248,23.3632,汕头市,龙湖子站,,42,42,46,27,23,97,,127,113,11,11,11,10,/,/
2026-02-13T0000,1676A,116.7257,23.2774,汕头市,濠江子站,,35,32,46,24,22,99,,129,117,16,14,7,8,/,/
2026-02-13T0000,1677A,116.7518,23.4712,汕头市,澄海子站,,44,44,47,26,24,95,,124,112,10,10,8,7,0.6,0.7
2026-02-13T0000,1678A,116.6088,23.2539,汕头市,潮阳子站,细颗粒物(PM2.5),53,47,41,37,23,95,,131,118,13,10,6,6,0.8,0.6
2026-02-13T0000,3444A,116.4539,23.2684,汕头市,潮南峡山,细颗粒物(PM2.5),67,75,46,48,25,78,,135,116,14,9,6,6,0.8,0.7
2026-02-13T0000,3624A,116.4069,23.2533,汕头市,潮南子站,颗粒物(PM10),61,72,57,41,27,94,,122,110,8,9,6,6,/,/
2026-02-13T0000,1693A,115.3653,22.7751,汕尾市,市环保局,,48,48,41,26,23,112,,124,124,13,9,5,5,0.7,0.7
