timepoint,stationcode,longitude,latitude,area,positionname,primarypollutant,aqi,pm10,pm10_24h,pm2_5,pm2_5_24h,o3,o3_24h,o3_8h,o3_8h_24h,no2,no2_24h,so2,so2_24h,co,co_24h
2024-09-05T2200,2566A,102.1879,31.914,阿坝藏族羌族自治州,州农科所,,26,20,28,8,8,82,,81,77,10,16,6,8,0,0
2024-09-05T2200,2568A,102.2502,31.8896,阿坝藏族羌族自治州,马师校,,25,21,14,9,7,80,,108,101,14,7,4,4,0.3,0.4
2024-09-05T2200,3994A,102.2165,31.9024,阿坝藏族羌族自治州,马尔康中学西区,,28,20,23,17,12,87,,101,100,12,9,5,5,0.3,0.4
2024-09-05T2200,2695A,80.292,41.1694,阿克苏地区,电视台,颗粒物(PM10),144,237,159,100,58,76,,112,109,26,18,3,4,0.5,0.4
2024-09-05T2200,2696A,80.2613,41.1551,阿克苏地区,艺术中心,颗粒物(PM10),141,232,155,78,51,95,,117,114,14,12,5,4,0.6,0.5
2024-09-05T2200,2204A,105.6467,38.8363,阿拉善盟,西城区西花园,颗粒物(PM10),62,74,31,23,12,84,,105,99,14,12,11,9,1.1,0.8
2024-09-05T2200,2205A,105.6985,38.8411,阿拉善盟,蒙二幼,,49,49,29,24,13,53,,83,77,21,9,8,8,0.7,0.6
2024-09-05T2200,2206A,105.724,38.8516,阿拉善盟,环保局新楼,,40,40,31,17,11,64,,87,84,14,8,9,10,0.4,0.4
2024-09-05T2200,2708A,88.1264,47.8517,阿勒泰地区,市站,颗粒物(PM10),57,63,20,12,6,48,,86,69,25,16,7,7,0.6,0.5
2024-09-05T2200,2630A,80.1161,32.5,阿里地区,阿里监测站,,35,6,4,3,3,110,,116,116,6,6,10,10,0.3,0.3
2024-09-05T2200,3192A,80.0903,32.5028,阿里地区,阿里藏医院,,33,8,7,3,0,104,,108,108,6,5,6,6,0.3,0.3
2024-09-05T2200,2642A,109.0318,32.6537,安康市,香溪洞,,30,21,68,14,14,96,,92,92,4,10,6,7,0.3,0.4
2024-09-05T2200,2643A,109.0281,32.6939,安康市,安康市监测站,,26,20,24,11,12,83,,91,90,7,6,7,7,0.5,0.5
2024-09-05T2200,2644A,109.0072,32.6975,安康市,汉滨区检察院,,29,20,22,11,12,91,,96,96,6,7,8,7,0.5,0.6
2024-09-05T2200,2291A,117.0809,30.5177,安庆市,环科院,,42,28,42,18,29,134,,169,163,14,13,8,8,0.8,0.8
2024-09-05T2200,2292A,117.0331,30.5119,安庆市,马山宾馆,,46,37,40,21,28,145,,166,162,11,11,8,10,0.6,0.7
2024-09-05T2200,2294A,116.9896,30.6145,安庆市,安庆大学,臭氧1小时,53,30,40,18,28,162,,172,172,8,9,8,8,0.6,0.7
2024-09-05T2200,3173A,117.0598,30.5351,安庆市,市人大,,43,38,40,24,30,136,,163,157,9,9,8,8,1.2,1.3
2024-09-05T2200,3123A,105.9408,26.2431,安顺市,凤凰山,颗粒物(PM10),66,82,35,34,23,101,,135,126,8,16,9,11,0.6,0.6
2024-09-05T2200,3124A,105.9439,26.2564,安顺市,金钟山,细颗粒物(PM2.5),53,40,25,37,23,100,,136,128,8,6,8,8,0.6,0.4
2024-09-05T2200,3125A,105.8983,26.2481,安顺市,娄家坡,细颗粒物(PM2.5),58,54,33,41,22,97,,130,124,10,11,6,7,0.8,0.7
2024-09-05T2200,1819A,114.3551,36.1017,安阳市,红庙街,,35,35,40,13,17,91,,107,105,14,16,4,4,0.5,0.5
2024-09-05T2200,1820A,114.361,36.0681,安阳市,银杏小区,,,35,38,,,93,,107,105,15,14,4,3,0.6,0.6
2024-09-05T2200,3141A,114.3922,36.0878,安阳市,信访局,,30,29,40,3,16,94,,110,107,16,16,4,3,0.5,0.5
2024-09-05T2200,3669A,114.4705,36.0637,安阳市,左辅环卫站,,38,38,50,17,20,77,,108,102,17,12,8,11,0.5,0.5
2024-09-05T2200,3703A,114.2917,36.0949,安阳市,安钢职工学校,,,38,48,12,24,88,,100,99,15,18,5,6,,0.6
2024-09-05T2200,1748A,123.044,41.1196,鞍山市,深沟寺,,14,14,23,6,12,35,,86,64,22,10,5,6,0.5,0.8
2024-09-05T2200,1749A,123.011,41.0931,鞍山市,太阳城,,20,18,27,8,18,63,,81,71,12,13,7,6,0.5,0.8
2024-09-05T2200,1750A,123.0485,41.1442,鞍山市,太平,,19,19,27,10,13,40,,82,65,32,17,7,8,0.5,0.8
2024-09-05T2200,1751A,122.9642,41.0971,鞍山市,铁西三道街,,42,42,28,27,16,11,,84,56,65,21,47,11,4.0,1.2
2024-09-05T2200,1752A,122.9341,41.0833,鞍山市,铁西工业园区,,26,26,24,14,13,52,,85,74,21,14,11,8,0.9,0.8
2024-09-05T2200,1753A,123.022,41.0821,鞍山市,明达新区,,16,15,26,3,13,51,,76,66,16,14,4,4,0.4,0.7
2024-09-05T2200,2195A,107.4212,40.761,巴彦淖尔市,附二中,颗粒物(PM10),55,59,54,21,18,55,,92,82,24,10,7,7,0.5,0.4
2024-09-05T2200,2196A,107.37,40.7372,巴彦淖尔市,市环保大楼,颗粒物(PM10),52,53,53,23,15,62,,96,83,16,8,4,4,0.3,0.3
2024-09-05T2200,1956A,86.1472,41.7538,巴音郭楞蒙古自治州,孔雀公园,颗粒物(PM10),166,281,191,66,35,86,,95,94,9,17,5,5,0.2,0.4
2024-09-05T2200,1957A,86.1972,41.7166,巴音郭楞蒙古自治州,棉纺厂,颗粒物(PM10),319,435,214,85,39,76,,98,95,17,13,4,4,0.2,0.2
2024-09-05T2200,1958A,86.2357,41.7173,巴音郭楞蒙古自治州,经济开发区,颗粒物(PM10),169,287,195,65,38,77,,95,92,19,9,7,6,0.4,0.3
2024-09-05T2200,2914A,106.7677,31.8794,巴中市,苏山坪,,28,21,29,16,22,88,,113,110,7,7,3,3,0.7,0.6
2024-09-05T2200,3182A,106.7656,31.8545,巴中市,丽阳花园,,28,27,33,19,26,80,,110,105,8,13,4,4,0.5,0.6
2024-09-05T2200,3183A,106.7418,31.8654,巴中市,圣泉水务公司,,25,23,23,17,19,80,,114,109,9,10,3,3,0.6,0.5
2024-09-05T2200,3616A,106.7616,31.8344,巴中市,市中心医院,,26,20,32,17,25,81,,110,106,8,15,4,4,0.5,0.6
2024-09-05T2200,2235A,122.7911,45.6077,白城市,洮北区环保局,,20,20,16,3,6,52,,80,70,6,5,6,5,0.2,0.2
2024-09-05T2200,2236A,122.8738,45.5725,白城市,市环保局,,29,29,25,7,3,38,,74,57,20,10,8,5,0.2,0.2
2024-09-05T2200,2231A,126.4219,41.9171,白山市,喜丰,,44,44,23,13,8,12,,91,52,19,8,3,5,0.4,0.5
2024-09-05T2200,2232A,126.4077,41.9419,白山市,环保局,,23,23,20,9,9,16,,83,50,14,10,9,9,0.6,0.7
2024-09-05T2200,2647A,104.1724,36.5446,白银市,第三小学,,21,15,16,7,9,65,,84,74,13,15,8,10,0.6,0.6
2024-09-05T2200,2648A,104.1465,36.5482,白银市,动力公司,,19,7,12,3,8,60,,88,78,14,11,6,8,0.4,0.4
2024-09-05T2200,2512A,106.6103,23.9011,百色市,市监测站,,48,37,27,33,13,43,,91,81,14,12,5,5,3.9,0.8
2024-09-05T2200,2513A,106.6538,23.8859,百色市,市中心血站,,46,46,33,14,15,34,,91,78,28,17,2,3,0.7,0.6
2024-09-05T2200,3406A,106.6085,23.8798,百色市,祈福高中,,44,44,42,8,16,50,,93,81,13,13,3,3,0.7,0.7
2024-09-05T2200,2270A,117.396,32.939,蚌埠市,工人疗养院,,50,50,57,29,24,143,,169,153,6,16,13,12,0.5,0.5
2024-09-05T2200,2271A,117.3605,32.9427,蚌埠市,百货大楼,细颗粒物(PM2.5),62,65,58,44,31,134,,164,148,4,16,6,8,0.7,0.7
2024-09-05T2200,2273A,117.4185,32.8911,蚌埠市,蚌埠学院,颗粒物(PM10),51,51,47,35,28,135,,156,144,8,18,6,8,0.7,0.7
2024-09-05T2200,2274A,117.3533,32.9673,蚌埠市,淮上区政府,细颗粒物(PM2.5),63,63,50,45,29,128,,154,141,8,12,7,8,0.9,0.9
2024-09-05T2200,2275A,117.3145,32.8977,蚌埠市,高新区,细颗粒物(PM2.5),67,61,49,48,30,134,,159,140,7,15,6,7,0.8,0.8
2024-09-05T2200,3715A,117.3092,32.9314,蚌埠市,蚌埠田家炳中学,"颗粒物(PM10),细颗粒物(PM2.5)",60,70,56,43,30,122,,163,137,7,13,4,5,0.8,0.7
2024-09-05T2200,1585A,109.8756,40.6532,包头市,市环境监测站,,26,26,14,7,6,42,,94,79,47,15,5,5,0.5,0.5
2024-09-05T2200,1587A,109.9991,40.5842,包头市,包头八中,,18,15,18,8,7,55,,87,80,32,17,6,6,0.5,0.6
2024-09-05T2200,1588A,109.8538,40.6821,包头市,青山宾馆,,30,30,13,6,5,46,,95,86,35,11,4,5,0.6,0.5
2024-09-05T2200,1589A,109.8642,40.6288,包头市,惠龙物流,,27,27,15,3,5,49,,94,83,36,13,6,6,0.5,0.5
2024-09-05T2200,1590A,110.0377,40.5546,包头市,东河鸿龙湾,,27,27,17,10,7,40,,91,76,28,14,7,9,0.5,0.5
2024-09-05T2200,3283A,109.9154,40.5685,包头市,滨河大厦,,28,27,17,9,9,20,,93,74,55,19,7,10,0.6,0.6
2024-09-05T2200,3419A,109.9447,40.6261,包头市,包头市委党校,,22,18,14,3,7,43,,94,82,44,15,4,6,0.5,0.5
2024-09-05T2200,3683A,109.8331,40.6576,包头市,昆区政府,,24,24,16,12,7,69,,94,87,26,20,4,5,0.6,0.3
2024-09-05T2200,1930A,107.185,34.3063,宝鸡市,庙沟村,,22,19,15,8,6,68,,87,80,10,7,8,8,0.2,0.2
2024-09-05T2200,1931A,107.0708,34.3017,宝鸡市,竹园沟,,20,20,15,8,5,41,,85,72,12,10,9,9,0.3,0.3
2024-09-05T2200,1932A,107.1906,34.3672,宝鸡市,三陆医院,,27,27,17,6,6,35,,87,78,26,16,8,9,0.5,0.5
2024-09-05T2200,1933A,107.1431,34.3547,宝鸡市,监测站,,31,31,20,14,5,27,,84,69,30,15,6,6,0.5,0.5
2024-09-05T2200,1934A,107.1186,34.3739,宝鸡市,技工学校,,26,21,16,18,8,41,,88,79,18,13,7,8,0.5,0.4
2024-09-05T2200,1935A,107.3906,34.3528,宝鸡市,陈仓区环保局家属楼,颗粒物(PM10),51,52,21,14,11,34,,90,77,38,17,8,8,0.6,0.4
2024-09-05T2200,1936A,107.2058,34.3497,宝鸡市,文理学院,,,40,18,,6,32,,88,80,26,15,9,9,0.5,0.4
2024-09-05T2200,1937A,107.2386,34.3622,宝鸡市,三迪小学,,33,33,21,8,2,38,,90,78,30,17,8,8,0.5,0.4
2024-09-05T2200,1051A,115.493,38.8632,保定市,游泳馆,,40,40,33,10,14,61,,106,98,37,14,3,3,0.1,0.1
2024-09-05T2200,1052A,115.5213,38.8959,保定市,华电二区,,42,42,37,12,24,71,,98,84,22,10,2,3,0.1,0.2
2024-09-05T2200,1053A,115.4713,38.9108,保定市,接待中心,,40,40,35,18,20,56,,97,82,31,11,2,1,0.3,0.2
2024-09-05T2200,1054A,115.4612,38.8416,保定市,地表水厂,颗粒物(PM10),51,51,39,9,15,54,,99,90,38,10,2,1,0.1,0.2
2024-09-05T2200,3581A,115.31981,38.95208,保定市,满城区生态环境分局,,29,29,26,9,11,48,,108,92,28,13,3,3,0.4,0.3
2024-09-05T2200,3582A,115.47694,38.76408,保定市,清苑区第二中学,,49,49,36,24,26,52,,104,90,42,11,3,3,0.3,0.4
2024-09-05T2200,3583A,115.62909,39.02311,保定市,徐水物探局,颗粒物(PM10),51,52,31,9,20,0,,97,74,64,14,3,3,0.5,0.4
2024-09-05T2200,4004A,115.4202,38.8656,保定市,双鹰农机,,34,34,34,15,20,66,,108,99,32,12,1,2,0.4,0.2
2024-09-05T2200,4034A,115.5150,38.8590,保定市,植保所站,,34,34,32,8,21,77,,108,98,31,9,3,3,0.1,0.2
2024-09-05T2200,2594A,99.1678,25.1081,保山市,市环境监测站,,24,24,26,15,15,58,,58,57,8,8,6,6,0.4,0.4
2024-09-05T2200,2595A,99.1711,25.1328,保山市,市环保局,,24,23,27,7,12,75,,64,64,5,6,4,4,0.4,0.4
2024-09-05T2200,1867A,109.1436,21.4086,北海市,海滩公园,颗粒物(PM10),54,57,44,29,22,98,,128,113,10,9,5,4,0.8,0.8
2024-09-05T2200,1868A,109.0981,21.4661,北海市,新市环保局,细颗粒物(PM2.5),55,54,41,39,29,108,,127,110,12,11,6,6,0.7,0.7
2024-09-05T2200,1869A,109.1778,21.5233,北海市,北海工业园,细颗粒物(PM2.5),59,63,46,42,29,95,,115,95,16,14,8,8,0.8,0.7
2024-09-05T2200,3400A,109.1911,21.4415,北海市,龙潭自来水厂,细颗粒物(PM2.5),70,57,41,51,32,53,,114,87,16,9,6,5,0.8,0.8
2024-09-05T2200,1001A,116.3621,39.8784,北京市,万寿西宫,,29,17,15,10,12,18,,77,60,57,18,3,3,0.7,0.5
2024-09-05T2200,1002A,116.2202,40.2915,北京市,定陵,,6,6,7,3,5,13,,59,37,5,4,4,4,0.3,0.3
2024-09-05T2200,1003A,116.4174,39.9289,北京市,东四,,23,23,20,14,16,30,,82,67,44,16,3,3,0.6,0.5
2024-09-05T2200,1004A,116.4072,39.8863,北京市,天坛,,15,9,13,6,11,7,,79,52,29,15,3,3,0.5,0.4
2024-09-05T2200,1005A,116.462,39.9365,北京市,农展馆,,37,22,18,12,16,4,,70,51,74,20,1,2,0.9,0.5
2024-09-05T2200,1006A,116.3392,39.9295,北京市,官园,,28,21,15,9,10,8,,76,61,55,16,4,3,0.7,0.4
2024-09-05T2200,1007A,116.2878,39.9611,北京市,海淀万柳,,18,15,20,6,14,21,,72,54,35,15,2,2,0.6,0.4
2024-09-05T2200,1008A,116.6636,40.135,北京市,顺义新城,,20,16,15,9,10,7,,70,50,40,8,3,3,0.5,0.3
2024-09-05T2200,1009A,116.6275,40.3275,北京市,怀柔镇,,15,6,13,3,10,45,,73,58,7,9,3,3,0.2,0.3
2024-09-05T2200,1010A,116.2296,40.217,北京市,昌平镇,,13,6,7,3,4,39,,62,53,8,10,3,3,0.2,0.3
2024-09-05T2200,1011A,116.3966,39.9821,北京市,奥体中心,,35,16,17,10,13,4,,60,42,69,26,2,1,1.0,0.5
2024-09-05T2200,1012A,116.184,39.9136,北京市,古城,,19,10,22,3,13,23,,74,57,38,17,2,2,0.4,0.4
2024-09-05T2200,3281A,115.9718,40.4529,北京市,延庆夏都,,16,14,5,8,4,14,,74,58,31,7,3,3,0.4,0.3
2024-09-05T2200,3417A,117.0709,40.1465,北京市,平谷新城,,14,14,18,8,13,13,,72,42,12,5,3,3,0.3,0.3
2024-09-05T2200,3671A,116.088,39.9726,北京市,门头沟三家店,,11,6,8,3,5,33,,62,39,9,7,3,3,0.3,0.3
2024-09-05T2200,3672A,116.1541,39.8204,北京市,丰台云岗,,10,8,16,3,16,31,,67,54,17,8,6,3,0.3,0.4
2024-09-05T2200,3673A,116.6804,39.9081,北京市,通州东关,,25,22,23,12,19,11,,78,55,50,17,1,1,0.7,0.4
2024-09-05T2200,3674A,115.9577,39.7603,北京市,房山燕山,,14,6,14,3,10,42,,63,54,9,6,1,3,0.5,0.4
2024-09-05T2200,3675A,116.4672,39.7733,北京市,大兴旧宫,,9,6,19,3,15,10,,79,55,17,13,3,3,0.4,0.4
2024-09-05T2200,3694A,115.986,40.4563,北京市,延庆石河营,,15,11,5,6,3,8,,68,48,30,8,3,3,0.3,0.2
2024-09-05T2200,3695A,116.6151,40.3053,北京市,怀柔新城,,15,6,13,3,10,48,,71,56,2,4,3,3,0.3,0.4
2024-09-05T2200,3696A,116.2545,39.8768,北京市,丰台小屯,,24,13,19,6,15,2,,69,45,47,12,3,3,0.5,0.4
2024-09-05T2200,3697A,116.84,40.3844,北京市,密云镇,,13,13,14,6,9,20,,69,46,21,9,3,3,0.4,0.3
2024-09-05T2200,1761A,123.8275,41.3064,本溪市,大峪,,14,8,19,3,13,44,,86,72,10,15,8,8,0.6,1
2024-09-05T2200,1762A,123.7567,41.3325,本溪市,溪湖,,18,17,19,3,10,24,,94,75,35,12,5,5,0.6,0.8
2024-09-05T2200,1763A,123.7169,41.3094,本溪市,彩屯,,17,17,26,8,14,33,,87,60,30,19,10,8,0.6,0.7
2024-09-05T2200,1764A,123.7669,41.2864,本溪市,东明,,31,31,25,10,12,27,,89,72,40,22,7,7,0.7,1.1
2024-09-05T2200,1765A,123.7992,41.2664,本溪市,新立屯,,20,15,16,7,8,15,,100,60,40,17,4,4,0.5,0.8
2024-09-05T2200,1766A,123.8142,41.3472,本溪市,威宁,,31,31,19,9,14,8,,68,46,33,17,8,8,0.5,0.8
2024-09-05T2200,2587A,105.2864,27.3125,毕节市,八中,,35,26,23,24,19,91,,112,108,11,12,5,7,0.6,0.5
2024-09-05T2200,2588A,105.31,27.2944,毕节市,师专,,36,25,32,19,21,115,,121,120,9,17,6,8,0.6,0.6
2024-09-05T2200,3537A,105.3631,27.3533,毕节市,长征村,,34,27,27,22,22,107,,123,120,7,11,6,8,0.6,0.5
2024-09-05T2200,1629A,118.0018,37.3617,滨州市,第二水厂,,19,14,38,7,22,59,,90,81,19,19,6,5,0.4,0.7
2024-09-05T2200,1630A,117.9776,37.393,滨州市,北中新校,,22,22,41,7,21,46,,96,88,27,15,9,6,0.7,0.9
2024-09-05T2200,3514A,117.9378,37.3956,滨州市,中海酒店,,22,22,41,9,23,52,,95,86,25,21,3,6,0.5,0.7
2024-09-05T2200,3515A,117.9378,37.3553,滨州市,开发区一中,,21,19,44,9,24,66,,91,85,16,22,9,8,0.3,0.6
2024-09-05T2200,3516A,118.0917,37.694,滨州市,金海六路,,32,32,40,3,18,47,,99,83,29,13,2,3,0.5,0.7
2024-09-05T2200,4028A,117.9956,37.3753,滨州市,滨州市西街道办事处,,20,,37,12,24,61,,92,83,17,13,7,6,0.5,0.8
2024-09-05T2200,2311A,115.8072,33.8399,亳州市,污水处理厂,,31,31,50,17,31,87,,104,104,9,13,3,15,0.8,0.7
2024-09-05T2200,2312A,115.7789,33.8518,亳州市,三国揽胜宫,,34,34,51,21,34,87,,105,105,5,7,2,10,0.9,0.8
2024-09-05T2200,3332A,115.7633,33.8034,亳州市,亳州学院,,29,29,48,19,31,92,,113,111,8,10,2,15,0.8,0.7
2024-09-05T2200,2693A,82.0485,44.8556,博尔塔拉蒙古自治州,市党校,,42,42,30,16,13,71,,118,114,34,11,6,6,0.6,0.4
2024-09-05T2200,2694A,82.0806,44.8969,博尔塔拉蒙古自治州,市环保局,,,45,33,12,12,64,,111,106,,13,6,5,0.7,0.5
2024-09-05T2200,1071A,116.8842,38.2991,沧州市,沧县城建局,,38,38,37,20,25,72,,102,97,31,15,5,4,0.6,0.6
2024-09-05T2200,1072A,116.8584,38.3254,沧州市,电视转播站,,27,27,34,14,23,83,,115,110,21,14,3,3,0.5,0.5
2024-09-05T2200,1073A,116.8709,38.3228,沧州市,市环保局,,27,25,38,17,26,84,,105,99,19,13,4,3,0.4,0.4
2024-09-05T2200,3324A,116.8136,38.3004,沧州市,河北水利电力学院,,34,34,36,18,23,79,,118,110,31,16,4,4,0.4,0.5
2024-09-05T2200,2622A,97.1806,31.1273,昌都市,昌都监测站,,12,,9,8,5,22,,69,54,24,12,7,7,0.7,0.6
2024-09-05T2200,3719A,97.1714,31.1406,昌都市,昌都会议中心,,13,12,10,6,5,40,,70,57,11,10,7,7,0.6,0.6
2024-09-05T2200,2690A,88.1236,43.8886,昌吉回族自治州,天山天池,,22,22,6,3,2,47,,94,79,7,5,4,3,0.5,0.4
2024-09-05T2200,2692A,87.2717,44.0297,昌吉回族自治州,新区政务中心,颗粒物(PM10),55,59,37,25,12,95,,125,124,40,28,13,8,0.8,0.7
2024-09-05T2200,3613A,87.3095,44.0142,昌吉回族自治州,亚心广场,颗粒物(PM10),62,73,55,22,12,103,,124,124,40,34,9,8,0.8,0.6
2024-09-05T2200,1119A,125.3325,43.9166,长春市,食品厂,颗粒物(PM10),56,62,17,22,12,6,,59,34,56,19,5,4,0.9,0.5
2024-09-05T2200,1120A,125.2863,43.9027,长春市,客车厂,颗粒物(PM10),59,67,20,24,13,7,,57,32,50,20,7,6,0.8,0.6
2024-09-05T2200,1121A,125.2841,43.8463,长春市,邮电学院,,36,36,16,13,12,4,,65,40,47,15,6,6,0.7,0.4
2024-09-05T2200,1122A,125.3716,43.8772,长春市,劳动公园,,41,41,14,16,8,8,,68,46,50,15,7,7,0.7,0.4
2024-09-05T2200,1123A,125.3297,43.8805,长春市,园林处,,28,28,12,3,9,6,,60,43,47,12,4,4,0.8,0.5
2024-09-05T2200,1124A,125.4605,43.79,长春市,净月潭,,12,12,12,3,8,16,,66,48,9,7,5,6,0.3,0.4
2024-09-05T2200,1126A,125.3863,43.8447,长春市,经开区环卫处,,35,35,14,10,7,4,,63,43,46,14,7,7,0.8,0.6
2024-09-05T2200,1127A,125.245,43.7783,长春市,高新区管委会,,43,43,16,23,10,5,,65,38,42,16,4,3,0.7,0.5
2024-09-05T2200,1128A,125.1761,43.8325,长春市,岱山公园,,28,28,14,3,9,8,,68,42,49,18,4,3,0.4,0.4
2024-09-05T2200,1335A,113.0833,28.2325,长沙市,经开区环保局,,34,34,44,13,22,93,,124,116,17,18,3,3,0.5,0.6
2024-09-05T2200,1336A,112.8872,28.2189,长沙市,高开区环保局,,37,37,53,18,31,68,,147,126,26,13,3,2,0.8,0.9
2024-09-05T2200,1337A,113.0792,28.2053,长沙市,马坡岭,,36,36,47,13,25,100,,129,121,13,17,3,2,0.6,0.7
2024-09-05T2200,1338A,112.9394,28.19,长沙市,湖南师范大学,,,32,52,20,30,,,136,130,12,13,2,3,0.7,0.7
2024-09-05T2200,1339A,113.0178,28.1322,长沙市,雨花区环保局,,36,36,48,22,27,100,,126,116,13,22,5,4,0.5,0.5
2024-09-05T2200,1340A,112.9792,28.2597,长沙市,伍家岭,,40,40,50,9,24,71,,127,106,18,14,1,1,0.7,0.6
2024-09-05T2200,1341A,113.0014,28.1944,长沙市,火车新站,,35,33,46,24,28,95,,127,117,12,16,3,3,0.6,0.6
2024-09-05T2200,1342A,112.9844,28.1178,长沙市,天心区环保局,,42,36,54,29,35,89,,109,85,12,20,3,4,1.1,1.1
2024-09-05T2200,1343A,112.8908,28.1308,长沙市,湖南中医药大学,,30,20,56,8,30,94,,147,132,16,20,4,4,0.9,1
2024-09-05T2200,1344A,112.9581,28.3611,长沙市,沙坪,,29,,26,20,28,80,,133,120,11,7,7,7,0.6,0.6
2024-09-05T2200,1727A,113.1147,36.1547,长治市,清华站,,29,25,18,9,8,90,,89,89,10,10,6,7,0.5,0.5
2024-09-05T2200,1728A,113.1031,36.1989,长治市,监测站,,28,20,22,7,7,89,,85,85,14,13,9,9,0.6,0.6
2024-09-05T2200,1730A,113.0886,36.2125,长治市,审计局,,29,18,17,7,5,92,,88,88,10,9,6,6,0.4,0.4
2024-09-05T2200,1731A,113.0844,36.1856,长治市,长治八中,,31,18,19,15,11,99,,89,89,6,9,6,7,0.5,0.6
2024-09-05T2200,2845A,113.1569,36.1911,长治市,德盛苑,,32,12,19,7,7,102,,94,94,5,7,4,8,0.4,0.6
2024-09-05T2200,3568A,113.06,36.0464,长治市,向阳小学,,41,41,38,18,22,69,,86,83,14,11,7,8,0.4,0.4
2024-09-05T2200,3569A,112.8792,36.3144,长治市,屯留一中,,35,35,29,12,14,99,,98,96,13,12,10,9,0.8,0.4
2024-09-05T2200,3570A,113.235,36.3489,长治市,潞城四中,,32,27,27,12,11,102,,94,94,7,9,7,7,0.6,0.6
2024-09-05T2200,1854A,111.6975,28.9703,常德市,市二中,颗粒物(PM10),59,67,66,30,44,127,,148,137,5,11,9,6,0.7,0.8
2024-09-05T2200,3138A,111.7153,29.0289,常德市,武陵区永安,颗粒物(PM10),59,67,64,29,40,119,,142,132,6,8,9,7,0.7,0.8
2024-09-05T2200,3139A,111.6892,28.9881,常德市,鼎城区玉霞,颗粒物(PM10),60,69,67,31,46,126,,149,139,6,12,8,7,0.7,0.8
2024-09-05T2200,3140A,111.6625,29.0531,常德市,武陵区长庚,颗粒物(PM10),57,64,69,29,41,119,,149,138,8,9,9,9,0.6,0.7
2024-09-05T2200,1196A,119.9633,31.762,常州市,市监测站,,28,24,39,19,18,73,,204,173,25,19,7,8,0.6,0.6
2024-09-05T2200,1200A,119.9468,31.7069,常州市,武进监测站,,34,34,28,20,16,74,,174,156,20,13,7,7,1.0,0.9
2024-09-05T2200,1201A,119.9255,31.9087,常州市,安家,,43,37,37,30,21,48,,184,145,35,22,9,8,1.0,0.8
2024-09-05T2200,3002A,119.9805,31.8174,常州市,行政中心,,36,36,38,18,23,72,,193,158,21,24,8,10,0.5,0.5
2024-09-05T2200,3003A,120.0522,31.7748,常州市,经开区,,27,27,37,17,19,50,,190,168,20,21,10,11,0.7,0.7
2024-09-05T2200,3010A,119.9025,31.7964,常州市,钟楼,,38,27,32,26,18,73,,184,155,24,17,9,9,0.8,0.7
2024-09-05T2200,3429A,119.8598,31.7066,常州市,武进经发区,,47,47,33,26,17,78,,157,146,24,17,12,11,0.7,0.5
2024-09-05T2200,3430A,119.5826,31.7245,常州市,金坛城区,细颗粒物(PM2.5),58,51,26,41,18,89,,182,171,31,13,8,8,0.8,0.7
2024-09-05T2200,2220A,120.4318,41.5881,朝阳市,西梁,,,28,17,,21,14,,73,51,33,15,4,5,0.5,0.4
2024-09-05T2200,2221A,120.4521,41.5646,朝阳市,河畔小区,,18,18,16,3,11,25,,72,59,26,9,6,6,0.5,0.5
2024-09-05T2200,2222A,120.4176,41.5648,朝阳市,八里堡,,49,49,23,10,12,10,,76,50,43,18,9,9,0.7,0.6
2024-09-05T2200,2223A,120.3806,41.5969,朝阳市,农业园区,,25,25,12,7,8,29,,70,52,16,7,6,6,0.5,0.5
2024-09-05T2200,1705A,116.6367,23.6719,潮州市,西园路,,24,24,34,13,16,49,,69,68,10,11,16,8,0.3,0.3
2024-09-05T2200,3026A,116.6183,23.6608,潮州市,市政府,,22,21,28,15,14,51,,73,72,7,7,14,8,0.6,0.6
2024-09-05T2200,4036A,116.6461,23.6761,潮州市,金山,,30,29,32,21,18,53,,71,70,8,10,17,8,0.6,0.6
2024-09-05T2200,2472A,113.0073,25.9061,郴州市,马头岭,,34,34,35,3,10,72,,111,98,21,9,11,9,0.6,0.5
2024-09-05T2200,2473A,113.0116,25.8226,郴州市,市职中,,39,33,34,27,25,77,,123,78,14,14,4,5,0.6,0.6
2024-09-05T2200,2474A,113.0161,25.8001,郴州市,兴隆步行街,,30,30,40,14,24,84,,118,83,12,12,7,8,0.6,0.7
2024-09-05T2200,2475A,113.0383,25.8071,郴州市,市审计局,,36,33,34,25,27,77,,114,75,11,12,3,6,0.6,0.6
2024-09-05T2200,2476A,113.0348,25.7759,郴州市,市环保局,,44,44,40,24,27,62,,112,67,15,19,4,7,0.8,0.7
2024-09-05T2200,1431A,103.9728,30.7236,成都市,金泉两河,,29,26,20,9,9,91,,140,133,22,6,2,2,0.4,0.3
2024-09-05T2200,1432A,104.176,30.6872,成都市,十里店,,36,36,25,21,12,96,,153,144,19,6,5,5,0.4,0.3
2024-09-05T2200,1433A,104.079,30.5706,成都市,三瓦窑,,,31,24,18,16,,,167,167,32,18,4,2,0.5,0.4
2024-09-05T2200,1434A,104.1114,30.63,成都市,沙河铺,,36,32,30,15,13,115,,170,162,19,13,8,6,0.4,0.4
2024-09-05T2200,1437A,104.0786,30.6531,成都市,君平街,,35,23,24,16,13,111,,160,156,19,11,4,3,0.6,0.5
2024-09-05T2200,2880A,104.0239,30.65639,成都市,大石西路,,43,43,28,19,16,108,,146,142,15,12,6,5,0.4,0.5
2024-09-05T2200,3136A,104.2725,30.5589,成都市,龙泉驿区区政府,,34,34,20,17,10,92,,154,143,20,13,5,5,0.4,0.4
2024-09-05T2200,3357A,104.0106,30.6931,成都市,金博路,,42,42,21,20,10,79,,139,128,29,10,2,2,0.5,0.3
2024-09-05T2200,3359A,104.0578,30.5225,成都市,华阳,,36,27,25,9,8,114,,166,160,19,13,4,4,0.6,0.5
2024-09-05T2200,3487A,104.2394,30.5319,成都市,车城东七路,,48,48,30,20,17,87,,158,148,37,16,3,3,0.6,0.5
2024-09-05T2200,3488A,104.3853,30.7453,成都市,青白江技师分院,,42,42,21,3,11,26,,145,121,70,19,3,2,0.6,0.5
2024-09-05T2200,3489A,104.0789,30.4072,成都市,科学城,,36,32,24,21,16,113,,179,171,26,8,4,4,0.5,0.4
2024-09-05T2200,4011A,103.8506,30.6947,成都市,光华大道三段,,35,24,22,6,8,111,,156,149,24,7,2,2,0.4,0.3
2024-09-05T2200,1062A,117.9531,40.9081,承德市,铁路,,22,22,25,10,16,14,,77,47,27,20,7,8,0.2,0.3
2024-09-05T2200,1063A,117.9392,40.9763,承德市,中国银行,,31,31,27,3,16,10,,78,51,24,14,4,4,0.2,0.3
2024-09-05T2200,1064A,117.9503,40.928,承德市,开发区,,26,26,28,10,15,23,,78,54,20,14,4,5,0.3,0.4
2024-09-05T2200,1065A,117.8051,40.9655,承德市,文化中心,,35,35,27,11,12,8,,78,46,35,20,9,8,0.5,0.5
2024-09-05T2200,1066A,117.9268,41.0026,承德市,离宫,,26,,25,18,16,9,,61,33,18,6,2,3,0.2,0.3
2024-09-05T2200,2314A,117.47,30.6618,池州市,池州学院,,35,33,44,20,27,110,,175,151,13,13,6,7,0.6,0.9
2024-09-05T2200,3237A,117.4918,30.6617,池州市,展览馆,,34,32,41,18,28,106,,177,150,11,12,5,5,0.7,0.9
2024-09-05T2200,3333A,117.5627,30.695,池州市,第八中学,,,34,41,18,25,,,184,164,13,14,4,4,0.6,0.8
2024-09-05T2200,3334A,117.5038,30.6243,池州市,第十二中学,,36,28,40,18,27,113,,189,160,11,12,4,4,0.6,0.9
2024-09-05T2200,1744A,118.9233,42.2816,赤峰市,松山一中,颗粒物(PM10),52,54,11,21,5,6,,75,49,48,18,9,9,0.9,0.5
2024-09-05T2200,1745A,118.9576,42.2728,赤峰市,哈达街,,33,33,8,19,9,11,,66,44,30,14,7,8,0.4,0.2
2024-09-05T2200,1746A,118.8788,42.2554,赤峰市,天义路,颗粒物(PM10),51,52,13,12,6,9,,72,43,32,16,13,7,0.3,0.2
2024-09-05T2200,3058A,119.2658,42.0353,赤峰市,银河街,,43,43,16,13,9,8,,74,51,36,14,18,13,0.7,0.3
2024-09-05T2200,3286A,118.9359,42.3147,赤峰市,桥北物流园区,颗粒物(PM10),57,64,19,9,6,3,,76,44,25,15,9,8,0.6,0.5
2024-09-05T2200,2521A,107.3476,22.4136,崇左市,市环保局江州分局,颗粒物(PM10),75,100,37,41,18,31,,106,90,23,8,6,6,0.9,0.7
2024-09-05T2200,2522A,107.3702,22.3707,崇左市,城南新区,,,56,33,38,21,51,,109,100,16,9,,4,0.9,0.7
2024-09-05T2200,2298A,118.3093,32.3153,滁州市,老年大学,,49,34,40,26,26,155,,162,158,11,14,8,11,0.4,0.5
2024-09-05T2200,2299A,118.3244,32.2786,滁州市,人大宾馆,,49,47,47,29,32,155,,162,154,15,17,6,7,0.6,0.6
2024-09-05T2200,3207A,118.3118,32.3038,滁州市,市政府原办公楼,,48,38,39,26,30,153,,155,152,12,14,7,7,0.6,0.6
2024-09-05T2200,3331A,118.3267,32.2634,滁州市,图书馆,,49,39,42,21,27,155,,164,157,11,12,5,6,0.2,0.3
2024-09-05T2200,2605A,101.5482,25.0441,楚雄彝族自治州,州环境监测站,,32,,12,22,9,43,,88,78,21,10,7,6,0.6,0.5
2024-09-05T2200,2606A,101.538,25.0492,楚雄彝族自治州,市经济开发区,,30,30,15,18,8,46,,85,76,20,9,6,8,0.7,0.5
2024-09-05T2200,2548A,107.5277,31.2827,达州市,达州职业技术学院,细颗粒物(PM2.5),53,54,54,37,34,59,,117,92,8,11,8,8,0.6,0.7
2024-09-05T2200,2549A,107.5086,31.2186,达州市,市环境监测站,颗粒物(PM10),78,106,49,19,24,73,,127,102,21,25,9,9,0.5,0.6
2024-09-05T2200,2550A,107.4988,31.2132,达州市,凤凰小区,颗粒物(PM10),59,68,42,24,26,87,,137,115,12,20,9,10,0.5,0.6
2024-09-05T2200,2551A,107.5082,31.1986,达州市,达县机关宾馆,颗粒物(PM10),63,75,50,17,25,77,,132,102,21,29,7,9,0.4,0.5
2024-09-05T2200,2552A,107.4644,31.2124,达州市,市政中心,颗粒物(PM10),59,68,50,22,25,84,,134,105,13,25,7,11,0.4,0.7
2024-09-05T2200,2614A,100.1542,25.7054,大理白族自治州,大理市环境监测站,,22,,14,15,11,44,,78,71,25,12,4,3,0.6,0.6
2024-09-05T2200,2615A,100.2171,25.5811,大理白族自治州,大理古城,,20,15,15,11,9,64,,71,70,9,9,6,7,0.6,0.6
2024-09-05T2200,1109A,121.612,38.9741,大连市,甘井子,,24,18,23,6,12,74,,117,89,18,16,9,9,0.5,0.5
2024-09-05T2200,1110A,121.565,38.9511,大连市,周水子,,18,12,19,6,11,56,,103,80,30,18,8,8,0.4,0.4
2024-09-05T2200,1111A,121.5637,38.8845,大连市,星海三站,,21,17,20,7,11,65,,106,85,18,11,6,6,0.4,0.5
2024-09-05T2200,1112A,121.6302,38.9117,大连市,青泥洼桥,,23,15,21,6,13,71,,104,83,16,14,9,9,0.2,0.4
2024-09-05T2200,1113A,121.6251,38.8638,大连市,傅家庄,,24,14,19,6,12,74,,107,92,16,13,10,9,0.5,0.6
2024-09-05T2200,1114A,121.5213,38.8661,大连市,七贤岭,,26,20,20,6,11,82,,107,96,10,8,7,6,0.5,0.4
2024-09-05T2200,1115A,121.2529,38.8061,大连市,旅顺,,29,13,12,3,9,91,,104,96,8,10,6,7,0.4,0.5
2024-09-05T2200,1116A,121.7485,39.1311,大连市,金州,,21,11,18,3,12,67,,104,85,17,13,10,8,0.4,0.6
2024-09-05T2200,1117A,121.7811,39.0496,大连市,开发区,,25,17,23,3,12,78,,102,87,10,10,8,8,0.4,0.4
2024-09-05T2200,1118A,121.9762,39.0631,大连市,双D港,,26,17,19,3,13,83,,94,93,15,14,8,6,0.5,0.6
2024-09-05T2200,1789A,124.81117,46.03138,大庆市,大同区,,28,28,20,15,11,46,,59,50,9,6,5,4,0.3,0.3
2024-09-05T2200,1790A,125.129,46.533,大庆市,龙凤区,,49,49,33,9,10,31,,64,49,21,10,3,3,0.4,0.3
2024-09-05T2200,1791A,124.902,46.408,大庆市,红岗区,,21,21,21,6,13,44,,62,54,10,9,5,5,0.3,0.3
2024-09-05T2200,1792A,125.153,46.586,大庆市,萨尔图区,,32,32,19,11,6,42,,56,48,18,10,12,5,0.3,0.3
2024-09-05T2200,1793A,124.9042,46.6215,大庆市,让胡路区,,38,38,19,17,12,25,,58,44,30,11,4,4,0.4,0.3
2024-09-05T2200,3481A,125.141,46.634,大庆市,萨区政府监测点,,26,26,16,3,5,50,,60,56,12,10,6,5,0.3,0.2
2024-09-05T2200,1723A,113.2994,40.0758,大同市,云冈宾馆,,,19,8,3,5,,,87,83,26,12,8,7,0.3,0.3
2024-09-05T2200,1724A,113.3444,40.0917,大同市,大同大学,,20,18,9,9,5,61,,86,80,18,9,16,8,0.3,0.3
2024-09-05T2200,1725A,113.2661,40.1269,大同市,安家小村,,19,19,8,3,4,45,,84,73,25,7,12,10,0.8,0.7
2024-09-05T2200,1726A,113.2711,40.0844,大同市,教育学院,,19,18,12,8,6,59,,82,73,22,9,7,6,0.5,0.5
2024-09-05T2200,3282A,113.3397,40.0597,大同市,大同市卫生学校,,24,24,11,10,7,59,,89,78,19,11,7,7,0.4,0.5
2024-09-05T2200,3565A,113.1367,40.1122,大同市,云冈站,,20,20,15,12,4,40,,85,72,13,10,13,11,0.3,0.1
2024-09-05T2200,3566A,113.1186,40.2556,大同市,图书馆,,15,13,8,10,5,35,,82,68,15,9,8,9,0.5,0.5
2024-09-05T2200,3567A,113.5931,40.0461,大同市,区一中,,20,14,10,3,4,61,,86,78,6,6,7,9,0.4,0.4
2024-09-05T2200,3676A,113.2802,40.0995,大同市,第二人民医院,,24,24,10,13,6,50,,84,75,30,10,11,10,0.4,0.4
2024-09-05T2200,2269A,124.1069,50.4097,大兴安岭地区,科技局,,30,26,15,21,14,28,,66,54,8,4,5,5,0.3,0.2
2024-09-05T2200,3663A,124.1164,50.4278,大兴安岭地区,红旗社区,,48,48,16,22,9,2,,61,40,22,9,4,5,0.4,0.3
2024-09-05T2200,1600A,124.3303,40.0625,丹东市,江湾东路,,22,7,16,3,10,68,,96,70,9,8,5,4,0.5,0.6
2024-09-05T2200,1601A,124.4256,40.1503,丹东市,临江后街,,25,10,15,3,8,80,,108,79,3,6,5,5,0.6,0.7
2024-09-05T2200,1602A,124.3933,40.1461,丹东市,元宝山,,21,16,14,10,9,67,,94,69,8,6,2,2,0.7,0.8
2024-09-05T2200,1603A,124.3633,40.1092,丹东市,民主桥,,22,12,18,6,10,69,,96,62,9,14,2,2,0.5,0.6
2024-09-05T2200,3541A,109.5726,19.5167,儋州市,第一中学子站,,24,24,26,13,16,58,,98,87,4,5,4,4,0.6,0.7
2024-09-05T2200,3542A,109.5567,19.5187,儋州市,东坡学校子站,,28,,23,19,17,57,,99,88,4,5,4,4,0.6,0.6
2024-09-05T2200,2616A,98.5842,24.428,德宏傣族景颇族自治州,德宏州监测站,,20,20,24,8,13,34,,62,51,14,10,7,7,0.7,0.6
2024-09-05T2200,3677A,98.5881,24.4368,德宏傣族景颇族自治州,芒市人民政府综合楼,,21,21,24,3,14,35,,68,56,16,11,4,6,0.7,0.7
2024-09-05T2200,1901A,104.4239,31.1208,德阳市,东山公园,,39,37,23,27,13,72,,130,123,32,10,6,4,0.6,0.5
2024-09-05T2200,1902A,104.3826,31.1317,德阳市,西小区,,48,42,28,33,15,57,,125,113,35,12,5,5,0.7,0.5
2024-09-05T2200,1904A,104.3553,31.1091,德阳市,耐火材料厂,,42,40,23,29,12,77,,126,116,16,8,4,4,0.6,0.5
2024-09-05T2200,3639A,104.4019,31.1244,德阳市,市教育局,,39,39,28,26,14,74,,126,117,27,10,6,4,0.8,0.5
2024-09-05T2200,1622A,116.3032,37.4674,德州市,儿童乐园,,27,27,31,14,19,82,,106,99,19,10,10,8,0.5,0.6
2024-09-05T2200,1624A,116.2991,37.4451,德州市,监理站,,30,17,27,7,16,95,,111,106,10,6,13,9,0.6,0.7
2024-09-05T2200,3066A,116.2721,37.4379,德州市,九衢泉纯净水厂,,31,14,31,3,17,98,,110,106,11,12,13,8,0.6,0.7
2024-09-05T2200,3371A,116.3728,37.4403,德州市,开发区人民医院,,28,17,33,9,16,88,,108,100,15,12,20,8,0.5,0.6
2024-09-05T2200,3372A,116.3572,37.4094,德州市,太阳城中学,,29,17,31,7,15,91,,111,104,14,12,20,10,0.5,0.6
2024-09-05T2200,3511A,116.5652,37.3319,德州市,陵城艺术中心,,26,24,30,3,10,81,,109,101,20,13,12,10,0.5,0.5
2024-09-05T2200,2621A,99.7056,27.8317,迪庆藏族自治州,迪庆州站,,22,20,20,10,10,68,,73,70,13,13,7,8,0.6,0.6
2024-09-05T2200,3180A,99.7136,27.8094,迪庆藏族自治州,质量技术监督局,,20,13,14,8,9,64,,68,66,11,13,9,9,0.5,0.5
2024-09-05T2200,2663A,104.6241,35.5734,定西市,东关小学,,33,33,21,17,15,54,,80,66,10,6,3,3,0.3,0.2
2024-09-05T2200,2664A,104.6194,35.5934,定西市,供电公司,,31,31,20,15,15,48,,80,64,16,8,6,5,0.2,0.2
2024-09-05T2200,1389A,113.7547,23.0494,东莞市,莞城梨川,,13,13,26,3,13,39,,64,52,10,14,5,5,0.6,0.6
2024-09-05T2200,1390A,113.7944,23.0128,东莞市,东城石井,,17,17,24,9,12,34,,66,49,16,18,6,5,0.6,0.6
2024-09-05T2200,1391A,113.7383,22.9658,东莞市,南城西平,,,19,27,9,12,,,71,60,21,26,7,4,,0.7
2024-09-05T2200,3319A,113.7338,23.0381,东莞市,万江金泰,,14,12,24,3,12,42,,67,54,9,16,9,9,0.5,0.6
2024-09-05T2200,3626A,113.7533,23.0202,东莞市,南城元岭,,15,13,25,3,11,45,,75,62,7,14,7,8,0.5,0.6
2024-09-05T2200,3627A,113.7875,23.0457,东莞市,东城主山,,,14,23,7,14,,,71,63,8,16,8,9,0.6,0.7
2024-09-05T2200,1666A,118.6614,37.4309,东营市,市环保局,,25,12,35,3,16,77,,122,92,12,19,3,6,0.1,0.5
2024-09-05T2200,3036A,118.6904,37.4338,东营市,开发区管委会,,25,19,37,3,18,77,,123,90,11,16,3,6,0.1,0.4
2024-09-05T2200,3365A,118.5719,37.565,东营市,垦利区民丰路,,18,17,34,3,18,56,,123,85,21,13,3,3,0.3,0.7
2024-09-05T2200,3498A,118.5055,37.8612,东营市,河口城区,,27,27,30,10,16,37,,111,79,38,10,5,6,0.6,0.9
2024-09-05T2200,3646A,118.4978,37.4623,东营市,胜利站,,18,15,33,3,20,55,,116,82,23,17,10,10,0.6,1
2024-09-05T2200,3734A,118.35,37.26,东营市,理想之城,,17,17,36,9,22,54,,100,74,22,20,3,5,0.2,0.5
2024-09-05T2200,1591A,110.0023,39.8129,鄂尔多斯市,综合楼,,39,39,26,7,6,66,,87,80,31,13,8,8,0.5,0.5
2024-09-05T2200,1592A,109.9486,39.8261,鄂尔多斯市,巴音孟克林场办事处,,39,39,24,12,9,62,,82,76,32,13,7,6,0.5,0.5
2024-09-05T2200,1593A,109.7736,39.5986,鄂尔多斯市,康泽苑,,34,34,23,7,7,29,,80,68,33,10,6,7,0.4,0.4
2024-09-05T2200,1594A,109.8119,39.5989,鄂尔多斯市,华泰汽车城,,31,31,24,14,10,15,,76,53,46,11,7,6,0.4,0.4
2024-09-05T2200,1595A,109.9734,39.7884,鄂尔多斯市,奥林花园,,,,,5,8,73,,78,73,21,13,5,6,0.5,0.5
2024-09-05T2200,2436A,114.8938,30.3994,鄂州市,市政府,,50,50,58,22,25,89,,140,119,14,19,9,12,1.0,0.8
2024-09-05T2200,2437A,114.8989,30.3714,鄂州市,赵家坝,颗粒物(PM10),55,60,56,15,24,111,,148,117,13,17,8,10,1.1,1.1
2024-09-05T2200,3654A,114.8094,30.4089,鄂州市,精准医疗中心,颗粒物(PM10),53,56,49,29,25,115,,143,127,17,18,7,8,0.7,0.8
2024-09-05T2200,2454A,109.4978,30.2981,恩施土家族苗族自治州,湖北民院,,36,36,31,22,22,91,,110,100,15,13,8,8,0.8,0.8
2024-09-05T2200,2455A,109.4707,30.2798,恩施土家族苗族自治州,州电力总公司,,40,39,37,28,28,77,,95,,14,21,8,8,0.7,0.7
2024-09-05T2200,3549A,109.5061,30.3772,恩施土家族苗族自治州,龙凤新区,,31,31,28,17,22,81,,108,96,10,10,6,6,0.8,0.7
2024-09-05T2200,2499A,108.3411,21.6158,防城港市,沙万,,40,40,32,26,24,83,,115,108,13,10,8,7,0.7,0.6
2024-09-05T2200,2500A,108.3514,21.7731,防城港市,防城档案局,颗粒物(PM10),82,114,57,30,25,12,,107,76,37,16,7,7,0.8,0.6
2024-09-05T2200,2501A,108.3506,21.6414,防城港市,大海花园,,36,34,32,25,22,63,,113,101,17,11,9,7,0.7,0.5
2024-09-05T2200,1371A,113.1294,23.0067,佛山市,湾梁,,25,,28,17,19,41,,84,64,21,32,6,7,0.6,0.7
2024-09-05T2200,1372A,113.1083,23.0478,佛山市,华材职中,,14,7,32,6,20,44,,84,63,14,36,6,7,0.3,0.4
2024-09-05T2200,1373A,113.144,23.0453,佛山市,南海气象局,,16,14,29,11,18,40,,80,60,11,27,5,6,0.4,0.5
2024-09-05T2200,1374A,113.2881,22.8094,佛山市,顺德苏岗,,13,13,22,3,12,28,,80,58,21,20,8,8,0.6,0.7
2024-09-05T2200,1376A,112.8383,22.8678,佛山市,高明孔堂,,22,22,32,11,19,41,,108,75,19,22,5,6,0.7,0.7
2024-09-05T2200,1378A,112.867,23.185,佛山市,三水云东海,,16,16,31,10,22,11,,86,50,21,27,9,10,0.6,0.7
2024-09-05T2200,3625A,113.2544,22.7642,佛山市,容桂街道办,,18,,25,12,14,40,,88,66,17,23,6,7,0.6,0.7
2024-09-05T2200,1282A,119.2681,26.0504,福州市,师大,,16,16,22,3,9,36,,58,44,6,5,4,4,0.2,0.3
2024-09-05T2200,1283A,119.2984,26.1028,福州市,五四北路,,,,20,5,9,41,,61,47,5,6,3,4,0.3,0.5
2024-09-05T2200,1284A,119.2648,26.0768,福州市,杨桥西路,,14,14,22,3,8,38,,62,47,6,5,3,3,0.2,0.3
2024-09-05T2200,3048A,119.5799,26.0936,福州市,九龙,,16,12,19,3,6,49,,62,55,2,4,5,6,0.3,0.4
2024-09-05T2200,3526A,119.5189,25.9664,福州市,吴航,,13,9,15,3,8,40,,57,49,2,2,5,6,0.1,0.4
2024-09-05T2200,1755A,123.7977,41.8491,抚顺市,望花区,,23,23,17,10,10,39,,78,64,21,11,8,8,0.6,0.7
2024-09-05T2200,1756A,123.9161,41.8822,抚顺市,顺城区,,32,32,19,16,12,8,,88,50,34,15,4,4,0.4,0.5
2024-09-05T2200,1757A,124.0436,41.8611,抚顺市,东洲区,,39,,16,27,12,26,,85,57,20,10,6,7,0.5,0.7
2024-09-05T2200,1758A,123.9247,41.8642,抚顺市,新抚区,,26,26,14,14,9,8,,90,58,35,13,7,7,0.4,0.5
2024-09-05T2200,1759A,124.0972,41.8961,抚顺市,大伙房水库,,26,26,19,9,9,32,,96,60,21,9,5,5,0.4,0.7
2024-09-05T2200,1760A,123.7086,41.8391,抚顺市,沈抚新城,,27,20,16,11,10,6,,85,59,53,16,6,6,0.1,0.2
2024-09-05T2200,2376A,116.2127,28.0814,抚州市,桐源党溪,,40,40,44,25,29,80,,140,114,3,4,5,7,0.5,0.6
2024-09-05T2200,2377A,116.3544,27.9831,抚州市,市站,,40,40,43,22,27,78,,115,104,10,7,5,6,0.7,0.9
2024-09-05T2200,2378A,116.3565,27.963,抚州市,血防站,,39,39,41,21,27,78,,118,104,13,10,1,3,0.9,0.9
2024-09-05T2200,2379A,116.3564,28.0007,抚州市,采茶剧团,,39,39,41,22,26,76,,122,104,7,7,5,8,1.2,1.3
2024-09-05T2200,2380A,116.385,27.9647,抚州市,医学分院,,45,45,42,15,22,70,,132,112,16,9,5,4,0.7,0.7
2024-09-05T2200,2207A,121.6094,41.998,阜新市,工业园区,,44,44,18,6,5,2,,78,51,47,17,6,5,0.5,0.5
2024-09-05T2200,2208A,121.6697,42.0279,阜新市,长青街,,44,44,16,3,7,6,,75,54,38,13,6,5,0.8,0.5
2024-09-05T2200,2209A,121.6673,42.0705,阜新市,农业园区,,27,,9,7,4,65,,72,69,10,8,4,4,2.7,0.5
2024-09-05T2200,2210A,121.6717,42.0224,阜新市,东苑,颗粒物(PM10),56,61,16,19,8,6,,77,56,42,11,11,7,0.7,0.6
2024-09-05T2200,2211A,121.6506,42.0498,阜新市,玉龙新城,,32,32,16,6,6,6,,79,47,39,16,7,7,0.4,0.4
2024-09-05T2200,2301A,115.8277,32.8929,阜阳市,市监测站,,41,41,49,17,30,106,,147,122,9,14,8,9,0.6,0.8
2024-09-05T2200,2303A,115.8554,32.8605,阜阳市,开发区,,35,17,54,12,31,111,,153,126,11,16,6,7,0.6,0.7
2024-09-05T2200,2875A,115.784,32.8892,阜阳市,阜阳职业技术学院,,50,50,58,14,25,110,,145,124,8,14,8,7,0.5,0.7
2024-09-05T2200,3468A,115.7901,32.8613,阜阳市,市规划展馆,,39,39,58,15,39,108,,157,124,14,14,9,7,0.7,0.8
2024-09-05T2200,3469A,115.836,32.9183,阜阳市,枣园社区,,34,34,58,12,38,102,,135,117,12,16,5,6,0.6,0.8
2024-09-05T2200,2669A,102.9099,34.9841,甘南藏族自治州,州政府,,,31,14,18,11,,,81,73,8,4,9,8,0.5,0.4
2024-09-05T2200,3380A,102.8914,34.9617,甘南藏族自治州,甘肃民族师范学院,,20,,9,14,6,52,,85,76,5,4,4,4,0.5,0.5
2024-09-05T2200,2570A,101.9603,30.0475,甘孜藏族自治州,水桥子,,20,12,7,8,6,64,,92,88,16,10,5,5,0.4,0.3
2024-09-05T2200,3065A,101.9533,29.9972,甘孜藏族自治州,州环保局,,22,22,10,3,4,66,,101,92,15,14,2,2,0.2,0.2
2024-09-05T2200,3414A,115.8347,28.932,赣江新区,桑海产业园,细颗粒物(PM2.5),53,,40,37,33,135,,140,140,9,16,11,12,0.3,0.5
2024-09-05T2200,2363A,114.9367,25.8664,赣州市,地委,,30,30,25,16,17,54,,87,79,17,12,9,12,1.0,1
2024-09-05T2200,2364A,114.9461,25.8481,赣州市,气象台,,24,24,28,14,17,53,,87,78,6,11,3,6,0.8,0.8
2024-09-05T2200,2365A,114.9322,25.8333,赣州市,市图书馆,,20,20,27,12,14,64,,101,89,8,11,4,6,0.8,0.9
2024-09-05T2200,3109A,115.0093,25.8613,赣州市,赣县区卫计委,,22,16,21,15,13,54,,89,79,9,10,5,6,0.6,0.6
2024-09-05T2200,2683A,106.2319,36.1417,固原市,马园,,15,15,17,3,5,30,,92,77,24,13,6,6,0.8,0.7
2024-09-05T2200,2684A,106.2792,36.0022,固原市,监测站,,26,16,9,3,8,81,,94,90,8,8,4,4,0.4,0.4
2024-09-05T2200,2685A,106.2375,36.0211,固原市,新区,,22,12,11,3,5,68,,86,74,11,8,7,7,0.3,0.3
2024-09-05T2200,3522A,106.2177,35.9959,固原市,原州区十五小,,25,11,15,6,8,80,,92,86,11,7,8,8,0.4,0.4
2024-09-05T2200,2544A,106.6303,30.4576,广安市,市委,颗粒物(PM10),51,52,40,32,28,136,,176,164,14,18,2,6,0.5,0.5
2024-09-05T2200,2545A,106.6271,30.4663,广安市,友谊中学,,48,46,37,33,27,130,,178,164,21,20,5,6,0.6,0.5
2024-09-05T2200,2547A,106.6388,30.4551,广安市,广电花园,颗粒物(PM10),52,54,55,32,27,135,,168,152,14,21,1,4,0.5,0.5
2024-09-05T2200,2902A,106.6351,30.4865,广安市,北辰小学,颗粒物(PM10),55,59,46,33,27,130,,186,173,14,15,7,8,0.5,0.4
2024-09-05T2200,2523A,105.8945,32.4535,广元市,黑石坡,,20,20,15,12,10,56,,71,67,6,4,5,4,0.3,0.4
2024-09-05T2200,2524A,105.821,32.4444,广元市,老城,,22,10,14,3,6,70,,78,74,4,4,3,2,0.2,0.2
2024-09-05T2200,2526A,105.8628,32.4287,广元市,监测站,,21,14,13,9,8,65,,84,76,10,5,4,3,0.5,0.5
2024-09-05T2200,3617A,105.8047,32.4166,广元市,经开区,,21,15,13,7,4,66,,80,74,9,5,3,3,0.4,0.4
2024-09-05T2200,1345A,113.2347,23.1423,广州市,广雅中学,,,16,30,10,16,,,82,64,25,34,5,5,0.7,0.8
2024-09-05T2200,1346A,113.2612,23.105,广州市,市五中,,15,14,23,10,16,48,,87,67,10,18,4,4,0.6,0.7
2024-09-05T2200,1348A,113.3478,23.0916,广州市,广东商学院,,16,16,26,9,15,30,,73,57,20,25,4,4,0.6,0.6
2024-09-05T2200,1349A,113.4332,23.1047,广州市,市八十六中,,17,17,27,8,14,23,,72,53,28,28,4,4,0.6,0.6
2024-09-05T2200,1350A,113.3505,22.9483,广州市,番禺中学,,21,21,28,11,14,27,,83,60,31,24,7,5,0.7,0.7
2024-09-05T2200,1351A,113.2146,23.3916,广州市,花都师范,,32,32,28,20,17,34,,81,61,21,26,4,5,0.7,0.8
2024-09-05T2200,1352A,113.2597,23.1331,广州市,市监测站,,14,14,24,8,14,35,,79,56,17,23,4,5,0.6,0.7
2024-09-05T2200,1353A,113.5618,23.312,广州市,九龙镇镇龙,,12,12,28,7,14,36,,61,50,10,18,6,6,0.5,0.6
2024-09-05T2200,1354A,113.2765,23.1544,广州市,麓湖,,17,17,28,8,13,22,,82,54,26,28,4,4,0.5,0.6
2024-09-05T2200,1355A,113.443,23.3035,广州市,帽峰山森林公园,,16,,15,7,14,50,,78,62,5,7,5,5,0.4,0.5
2024-09-05T2200,2846A,113.3221,23.1322,广州市,体育西,,13,13,23,9,13,36,,76,58,12,18,5,5,0.6,0.7
2024-09-05T2200,3298A,113.5717,23.5491,广州市,从化街口,,15,13,25,10,15,37,,65,53,12,17,7,6,0.5,0.6
2024-09-05T2200,3299A,113.3472,23.3692,广州市,白云竹料,,18,18,24,11,17,31,,77,56,15,14,4,5,0.6,0.7
2024-09-05T2200,3300A,113.2981,23.237,广州市,白云嘉禾,,20,20,31,9,16,36,,76,56,21,29,4,5,0.7,0.8
2024-09-05T2200,3301A,113.4256,23.1716,广州市,黄埔科学城,,15,15,24,7,13,28,,75,56,16,18,4,3,0.6,0.6
2024-09-05T2200,3302A,113.3942,23.0483,广州市,番禺大学城,,19,19,27,8,14,22,,70,49,27,29,5,5,0.5,0.5
2024-09-05T2200,3303A,113.4922,22.8168,广州市,南沙黄阁,,14,14,33,7,15,42,,79,58,17,29,5,5,0.7,0.8
2024-09-05T2200,3304A,113.5342,22.7896,广州市,南沙街,,17,17,29,8,16,42,,78,57,12,25,4,7,0.6,0.6
2024-09-05T2200,3443A,113.2902,23.5544,广州市,花都梯面,,20,17,24,14,15,36,,76,57,14,16,5,5,0.5,0.6
2024-09-05T2200,3445A,113.7858,23.7478,广州市,从化良口,,17,17,19,10,12,38,,59,49,10,7,6,6,0.6,0.7
2024-09-05T2200,3446A,113.8051,23.2614,广州市,增城荔城,,12,11,20,8,13,35,,67,54,8,12,4,5,0.5,0.6
2024-09-05T2200,2506A,109.6047,23.0666,贵港市,江南子站,,39,36,51,27,28,90,,126,115,11,21,8,9,0.7,0.7
2024-09-05T2200,2507A,109.6014,23.0948,贵港市,贵城子站,,48,44,46,33,29,88,,121,110,11,16,6,7,0.8,0.7
2024-09-05T2200,2508A,109.5669,23.1065,贵港市,荷城子站,,36,36,35,24,17,83,,115,94,10,14,10,10,0.6,0.5
2024-09-05T2200,3405A,109.5886,23.1172,贵港市,新世纪学校,,46,46,37,21,18,82,,116,99,9,10,8,9,0.7,0.6
2024-09-05T2200,1439A,106.6899,26.5998,贵阳市,马鞍山,,30,17,17,7,5,96,,116,110,8,11,3,3,0.6,0.5
2024-09-05T2200,1440A,106.6971,26.5694,贵阳市,市环保站,,38,,29,26,20,101,,123,117,8,18,4,4,0.5,0.5
2024-09-05T2200,1441A,106.6243,26.6266,贵阳市,鉴湖路,,29,24,24,14,12,92,,112,109,6,10,5,6,0.4,0.4
2024-09-05T2200,1442A,106.7487,26.6343,贵阳市,燕子冲,,31,,19,17,17,97,,120,114,6,14,5,5,0.5,0.5
2024-09-05T2200,1443A,106.6555,26.4365,贵阳市,碧云窝,,34,34,33,14,13,71,,116,94,14,11,4,5,0.4,0.3
2024-09-05T2200,1444A,106.694,26.5161,贵阳市,中院村,,30,29,34,14,18,95,,111,100,8,24,7,8,0.4,0.5
2024-09-05T2200,1445A,106.7109,26.6027,贵阳市,红边门,,45,31,28,31,22,92,,119,112,12,17,5,5,0.5,0.5
2024-09-05T2200,1446A,106.7164,26.5699,贵阳市,新华路,,32,14,23,14,16,101,,124,118,8,17,5,5,0.5,0.4
2024-09-05T2200,1447A,106.674,26.5424,贵阳市,太慈桥,,32,22,22,19,10,100,,116,110,8,15,4,4,0.5,0.4
2024-09-05T2200,1862A,110.4144,25.3167,桂林市,电子科大尧山校区,颗粒物(PM10),52,53,49,26,34,117,,125,123,7,9,5,6,0.7,0.7
2024-09-05T2200,1863A,110.2819,25.2697,桂林市,监测站,,32,30,47,22,31,93,,119,104,12,11,6,8,0.6,0.6
2024-09-05T2200,1864A,110.3089,25.2708,桂林市,龙隐路小学,,39,,46,27,34,98,,122,111,8,8,7,14,0.5,0.6
2024-09-05T2200,1865A,110.2869,25.2178,桂林市,八中,,33,32,49,23,32,96,,122,110,7,9,8,11,0.5,0.6
2024-09-05T2200,3403A,110.1764,25.2381,桂林市,创业大厦,,42,29,45,29,34,80,,108,94,8,12,23,19,0.5,0.4
2024-09-05T2200,3531A,110.296,25.1253,桂林市,旅游学院,,39,,31,27,27,114,,123,118,7,15,6,8,0.6,0.6
2024-09-05T2200,2674A,100.2561,34.4714,果洛藏族自治州,玛沁县大武镇,,,22,14,22,14,,,,,4,4,10,8,0.1,0.2
2024-09-05T2200,1129A,126.5422,45.755,哈尔滨市,岭北,,25,10,8,7,5,79,,86,86,19,9,9,8,0.0,0.3
2024-09-05T2200,1130A,126.561,45.8167,哈尔滨市,松北商大,,30,30,14,3,6,13,,55,36,32,16,7,7,0.5,0.4
2024-09-05T2200,1131A,126.979,45.5419,哈尔滨市,阿城会宁,,31,31,24,9,10,8,,57,35,27,17,8,11,0.7,1.3
2024-09-05T2200,1132A,126.599,45.7222,哈尔滨市,南岗学府路,颗粒物(PM10),51,52,24,10,7,29,,64,46,34,14,7,6,0.6,0.5
2024-09-05T2200,1133A,126.689,45.7733,哈尔滨市,太平宏伟公园,颗粒物(PM10),55,60,17,9,7,5,,57,46,54,17,2,5,0.7,0.4
2024-09-05T2200,1134A,126.635,45.7667,哈尔滨市,道外承德广场,,49,49,19,3,9,4,,58,40,69,19,7,7,0.6,0.3
2024-09-05T2200,1135A,126.685,45.7319,哈尔滨市,香坊红旗大街,颗粒物(PM10),74,97,25,30,10,8,,65,46,67,15,8,5,0.9,0.5
2024-09-05T2200,1136A,126.6411,45.7258,哈尔滨市,动力和平路,,28,28,15,3,4,13,,61,47,53,14,7,6,0.7,0.5
2024-09-05T2200,1137A,126.593,45.7478,哈尔滨市,道里建国路,颗粒物(PM10),53,56,17,6,6,6,,58,36,55,13,8,7,0.4,0.3
2024-09-05T2200,1138A,126.615,45.61,哈尔滨市,平房东轻厂,,43,43,21,3,6,5,,60,33,60,25,5,5,0.2,0.3
2024-09-05T2200,1139A,126.595,45.9855,哈尔滨市,呼兰师专,,34,34,17,3,6,22,,49,39,39,16,9,10,0.4,0.4
2024-09-05T2200,1140A,126.6206,45.6842,哈尔滨市,省农科院,颗粒物(PM10),57,63,24,7,5,5,,58,34,63,19,11,7,0.6,0.4
2024-09-05T2200,2688A,93.5128,42.8172,哈密市,地区监测站,,28,28,60,14,18,81,,116,112,28,27,7,6,0.6,0.3
2024-09-05T2200,2689A,93.4961,42.8328,哈密市,哈密师范学校,颗粒物(PM10),55,60,50,19,19,44,,115,102,54,34,4,5,0.8,0.5
2024-09-05T2200,2671A,100.9048,36.9639,海北藏族自治州,海晏县西海镇,,26,,9,18,10,83,,97,95,8,6,11,13,0.5,0.5
2024-09-05T2200,3867A,102.0738,36.5056,海东市,平安区公安北苑,,,30,17,12,10,65,,88,82,,10,11,9,0.6,0.7
2024-09-05T2200,1410A,110.3232,20.0574,海口市,海南大学,,23,20,23,9,14,73,,108,98,6,9,6,6,0.4,0.5
2024-09-05T2200,1411A,110.283,20.0053,海口市,秀英海南医院,,31,31,26,13,16,77,,107,92,7,13,4,4,0.4,0.4
2024-09-05T2200,1412A,110.338,19.9969,海口市,海南师范大学,,46,46,27,8,18,74,,119,101,6,11,5,5,0.4,0.5
2024-09-05T2200,1413A,110.33,20.0356,海口市,龙华路环保局宿舍,,26,26,23,8,14,73,,110,100,5,7,4,4,0.3,0.4
2024-09-05T2200,3539A,110.5111,19.9736,海口市,桂林洋子站,,25,19,31,3,16,78,,113,100,4,8,4,4,0.3,0.4
2024-09-05T2200,2673A,100.6188,36.2866,海南藏族自治州,共和县恰卜恰镇,,,26,15,3,1,76,,86,81,6,5,14,13,,0.3
2024-09-05T2200,2676A,97.3731,37.3753,海西蒙古族藏族自治州,德令哈市,,30,25,47,15,17,95,,95,92,8,8,8,8,0.5,0.4
2024-09-05T2200,1048A,114.5302,36.6116,邯郸市,东污水处理厂,,35,35,34,9,12,75,,91,90,18,11,3,3,0.4,0.4
2024-09-05T2200,1049A,114.4918,36.5713,邯郸市,矿院,,29,17,34,14,12,91,,102,101,14,9,2,2,0.4,0.4
2024-09-05T2200,1050A,114.484,36.6133,邯郸市,丛台公园,,33,33,31,12,13,90,,98,97,12,8,3,3,0.3,0.4
2024-09-05T2200,3458A,114.7895,36.5593,邯郸市,香泉濮院小区,,31,31,42,14,17,86,,103,101,14,13,2,1,0.5,0.4
2024-09-05T2200,3579A,114.50634,36.77178,邯郸市,永年区实验高中,,48,48,40,27,22,81,,101,98,26,12,2,2,0.5,0.5
2024-09-05T2200,3580A,114.20016,36.44293,邯郸市,峰峰矿区临水派出所,,28,24,25,7,12,87,,104,102,11,4,1,2,0.2,0.3
2024-09-05T2200,2634A,106.9893,33.1842,汉中市,汉川机床厂子校,,22,22,12,7,5,58,,91,85,9,5,5,4,0.7,0.6
2024-09-05T2200,2635A,107.0154,33.0706,汉中市,市监测站,,23,23,11,3,10,61,,101,94,10,5,8,8,0.5,0.5
2024-09-05T2200,2636A,107.0089,33.1138,汉中市,鑫源开发区,细颗粒物(PM2.5),67,,12,48,26,68,,104,100,10,6,10,12,0.4,0.4
2024-09-05T2200,2637A,107.007,33.0323,汉中市,南郑大河坎水厂,,42,42,13,15,6,48,,97,86,11,4,10,8,0.6,0.4
2024-09-05T2200,1223A,120.2072,30.2111,杭州市,滨江,,32,32,38,14,20,59,,157,118,18,17,5,5,0.7,0.7
2024-09-05T2200,1224A,120.0633,30.2747,杭州市,西溪,,28,23,31,15,20,87,,157,132,15,20,6,6,0.6,0.7
2024-09-05T2200,1226A,120.3461,30.3153,杭州市,下沙,,20,18,26,14,20,62,,150,114,24,25,7,8,0.6,0.7
2024-09-05T2200,1227A,120.1269,30.2456,杭州市,卧龙桥,,28,28,31,14,21,85,,172,139,14,17,6,6,0.6,0.6
2024-09-05T2200,1228A,120.1903,30.2692,杭州市,浙江农大,,27,27,32,13,19,71,,154,121,15,22,8,10,0.5,0.6
2024-09-05T2200,1230A,120.1197,30.3119,杭州市,和睦小学,,29,24,30,20,21,83,,177,134,16,21,6,7,0.5,0.7
2024-09-05T2200,1231A,120.3019,30.4183,杭州市,临平镇,,23,20,30,14,9,72,,150,119,8,12,4,5,0.6,0.7
2024-09-05T2200,1232A,120.2697,30.1819,杭州市,城厢镇,,30,30,35,17,22,63,,160,125,23,24,7,7,0.5,0.6
2024-09-05T2200,1233A,120.0883,30.1808,杭州市,云栖,,28,22,27,12,16,87,,159,138,15,17,6,7,0.7,0.7
2024-09-05T2200,3557A,119.9464,30.0494,杭州市,镇二中,,29,26,31,17,22,92,,163,146,16,19,8,8,0.7,0.8
2024-09-05T2200,3558A,119.7183,30.2367,杭州市,市府大楼,,32,24,29,21,24,102,,185,168,21,16,6,6,0.6,0.6
2024-09-05T2200,3656A,120.1556,30.2864,杭州市,消防大队,,25,23,36,12,22,79,,165,130,10,15,7,8,0.7,0.8
2024-09-05T2200,1270A,117.1959,31.7848,合肥市,明珠广场,,41,29,42,22,30,129,,171,149,13,22,7,9,0.6,0.7
2024-09-05T2200,1271A,117.3072,31.8764,合肥市,三里街,,41,41,42,27,29,114,,151,137,12,17,5,6,0.5,0.6
2024-09-05T2200,1272A,117.2588,31.8707,合肥市,琥珀山庄,,39,39,41,24,30,123,,158,145,11,13,6,7,0.7,0.8
2024-09-05T2200,1273A,117.1604,31.9052,合肥市,董铺水库,,44,44,44,22,29,116,,149,130,10,15,2,3,0.5,0.6
2024-09-05T2200,1274A,117.25,31.8571,合肥市,长江中路,,44,44,48,27,31,124,,162,148,11,13,8,9,0.8,0.9
2024-09-05T2200,1275A,117.266,31.9436,合肥市,庐阳区,颗粒物(PM10),51,51,48,24,27,132,,171,149,13,20,4,4,0.7,0.7
2024-09-05T2200,1276A,117.336,31.8586,合肥市,瑶海区,,40,34,44,28,27,119,,147,136,13,20,6,6,0.6,0.7
2024-09-05T2200,1277A,117.3027,31.7964,合肥市,包河区,,46,46,49,22,30,85,,153,120,40,47,6,11,0.5,0.7
2024-09-05T2200,1278A,117.2776,31.7385,合肥市,滨湖新区,,39,39,44,22,28,110,,163,137,17,16,6,7,0.5,0.6
2024-09-05T2200,1279A,117.1318,31.8403,合肥市,高新区,,41,41,47,23,28,108,,158,133,21,20,7,7,1.0,0.9
2024-09-05T2200,3464A,117.3803,31.9147,合肥市,高教基地,,36,36,39,25,26,110,,152,134,9,11,2,2,0.6,0.6
2024-09-05T2200,3614A,79.924,37.0877,和田地区,地区环保局,颗粒物(PM10),154,257,126,64,29,58,,116,109,26,17,7,7,0.6,0.7
2024-09-05T2200,3615A,79.9131,37.113,和田地区,市环保局,颗粒物(PM10),136,221,104,45,30,63,,114,108,32,22,7,8,0.6,0.5
2024-09-05T2200,2516A,108.2011,24.715,河池市,东仁乐园,,29,29,35,17,22,30,,91,68,12,11,4,5,0.7,0.6
2024-09-05T2200,2517A,108.0497,24.6947,河池市,市环保站,,20,19,33,11,24,63,,97,88,14,12,8,8,0.6,0.6
2024-09-05T2200,2518A,108.0983,24.6989,河池市,市疾控中心,,38,38,36,16,21,50,,95,79,22,17,8,9,0.7,0.6
2024-09-05T2200,1696A,114.6778,23.7569,河源市,源西,,19,18,20,13,13,6,,62,43,35,17,4,4,0.7,0.6
2024-09-05T2200,1697A,114.6944,23.7586,河源市,东埔,,33,33,20,12,13,24,,63,47,20,14,2,3,0.7,0.6
2024-09-05T2200,1698A,114.6892,23.7233,河源市,老城,,14,14,20,3,7,20,,64,46,20,12,2,2,0.7,0.7
2024-09-05T2200,1718A,115.4208,35.2464,菏泽市,气象局,,28,27,51,9,20,88,,117,106,7,9,2,4,0.2,0.3
2024-09-05T2200,1719A,115.4747,35.2375,菏泽市,市政协,,26,23,50,6,23,82,,111,100,8,8,3,5,0.1,0.3
2024-09-05T2200,3374A,115.5564,35.0891,菏泽市,定陶老年大学,,25,24,51,3,16,77,,106,97,10,11,4,5,0.3,0.5
2024-09-05T2200,3647A,115.4702,35.2706,菏泽市,菏泽医专,,26,23,52,6,17,81,,112,101,9,8,3,5,0.5,0.6
2024-09-05T2200,2514A,111.5264,24.4172,贺州市,环保小区,,41,41,39,28,19,74,,101,88,14,15,4,6,0.7,0.7
2024-09-05T2200,2515A,111.5608,24.4078,贺州市,政协大楼,,45,45,35,25,21,95,,108,91,13,19,7,7,0.6,0.6
2024-09-05T2200,3534A,111.4744,24.4553,贺州市,西湾,颗粒物(PM10),55,59,39,35,24,61,,103,80,20,17,4,4,0.7,0.7
2024-09-05T2200,2385A,114.17,35.9019,鹤壁市,市监测站,,40,40,42,15,23,80,,103,95,13,10,3,2,0.4,0.5
2024-09-05T2200,2386A,114.2956,35.7511,鹤壁市,市交警支队,,,27,44,,24,79,,104,97,16,13,2,4,0.5,0.6
2024-09-05T2200,2387A,114.2878,35.7306,鹤壁市,迎宾馆,,29,29,38,7,20,91,,111,105,15,14,2,3,0.6,0.7
2024-09-05T2200,3474A,114.2617,35.6822,鹤壁市,大新区,,32,32,39,3,5,91,,111,106,13,13,4,5,0.4,0.4
2024-09-05T2200,3596A,114.1572,35.9603,鹤壁市,南山宾馆,,33,33,32,14,18,85,,104,102,11,8,2,3,0.5,0.7
2024-09-05T2200,2244A,130.2537,47.3416,鹤岗市,哈啤分公司,,26,22,21,18,16,39,,46,45,4,3,15,14,0.3,0.3
2024-09-05T2200,2245A,130.2684,47.3086,鹤岗市,斯达机电,,35,34,25,24,17,39,,47,46,14,7,13,13,0.3,0.2
2024-09-05T2200,2246A,130.3114,47.3388,鹤岗市,东山纸板厂,,35,33,29,24,17,40,,43,38,7,6,16,16,0.6,0.3
2024-09-05T2200,2247A,130.1097,47.3382,鹤岗市,五号水库,,15,13,11,10,7,18,,50,43,7,4,6,6,0.4,0.4
2024-09-05T2200,2263A,127.4833,50.2524,黑河市,交通局,,25,23,18,17,11,34,,51,44,5,3,4,4,0.3,0.3
2024-09-05T2200,2264A,127.5144,50.2341,黑河市,环保局,,26,26,16,17,10,9,,56,42,30,6,4,3,0.4,0.2
2024-09-05T2200,2265A,127.5291,50.2472,黑河市,大黑河岛,,16,13,13,11,8,41,,58,52,2,2,1,2,0,0
2024-09-05T2200,1074A,115.6838,37.7541,衡水市,电机北厂,,35,35,39,3,23,71,,111,100,24,11,5,4,0.2,0.3
2024-09-05T2200,1075A,115.6303,37.7316,衡水市,市监测站,,36,36,43,3,21,88,,113,109,22,11,5,4,0.3,0.3
2024-09-05T2200,3188A,115.6683,37.7217,衡水市,市城管局,,35,35,37,7,24,75,,116,106,29,9,2,2,0.4,0.4
2024-09-05T2200,3459A,115.5989,37.5491,衡水市,地表水厂,,37,37,38,3,16,27,,115,96,67,15,2,3,0.2,0.3
2024-09-05T2200,2456A,112.5003,26.9167,衡阳市,原169医院,,43,40,48,30,30,82,,136,120,17,11,5,6,0.7,0.7
2024-09-05T2200,2457A,112.6194,26.9258,衡阳市,衡阳化工总厂,,,33,52,,,97,,134,118,6,8,8,10,0.7,0.8
2024-09-05T2200,2458A,112.6211,26.8956,衡阳市,珠晖区环保局,,,38,65,,,76,,134,114,29,16,7,13,0.8,0.9
2024-09-05T2200,2459A,112.6197,26.8733,衡阳市,市委党校,,38,38,52,24,28,101,,140,124,9,13,8,13,0.8,0.9
2024-09-05T2200,2460A,112.6006,26.8919,衡阳市,市监测站,,43,40,48,30,31,104,,143,126,8,12,8,15,0.8,0.9
2024-09-05T2200,2461A,112.5664,26.9056,衡阳市,真空机电公司,,38,29,51,26,33,102,,141,124,5,10,7,8,0.8,1
2024-09-05T2200,3399A,112.6703,26.882,衡阳市,师范学院,,37,37,48,23,29,95,,140,121,10,13,9,18,0.7,0.8
2024-09-05T2200,2608A,103.3772,23.3993,红河哈尼族彝族自治州,污水处理厂,,39,33,26,27,20,43,,103,90,17,12,6,17,0.5,0.4
2024-09-05T2200,2609A,103.3861,23.35,红河哈尼族彝族自治州,监测站,,48,46,26,33,17,46,,109,91,18,14,7,30,0.6,0.6
2024-09-05T2200,3038A,103.3758,23.368,红河哈尼族彝族自治州,州图书馆,,27,27,29,13,13,51,,100,88,17,12,6,31,0.3,0.3
2024-09-05T2200,1090A,111.6507,40.7517,呼和浩特市,呼市一监,,27,27,9,14,4,46,,89,74,20,8,5,4,0.5,0.4
2024-09-05T2200,1091A,111.6572,40.8033,呼和浩特市,小召,,22,17,8,7,4,70,,94,86,19,12,6,6,0.4,0.4
2024-09-05T2200,1094A,111.7516,40.8369,呼和浩特市,如意水处理厂,,19,12,5,3,2,58,,88,77,20,7,8,6,0.4,0.3
2024-09-05T2200,1095A,111.7276,40.8062,呼和浩特市,二十九中,,22,20,9,7,4,70,,91,83,17,10,5,4,0.5,0.4
2024-09-05T2200,1096A,111.5512,40.7866,呼和浩特市,工大金川校区,,45,45,14,12,4,30,,88,77,48,13,3,2,0.6,0.4
2024-09-05T2200,1097A,111.717,40.7612,呼和浩特市,化肥厂生活区,,20,20,8,3,3,61,,95,85,22,9,8,8,0.4,0.3
2024-09-05T2200,3698A,111.5968,40.8178,呼和浩特市,红旗小学,,22,22,12,7,4,66,,92,80,23,17,3,2,0.4,0.3
2024-09-05T2200,3699A,111.6518,40.8389,呼和浩特市,海东办,,20,17,8,6,3,63,,95,83,26,13,6,6,0.5,0.4
2024-09-05T2200,2192A,119.7594,49.2261,呼伦贝尔市,区环保局,,35,35,26,18,14,52,,68,65,12,9,6,6,0.3,0.3
2024-09-05T2200,3061A,119.7512,49.1577,呼伦贝尔市,国华电力东,,22,16,22,15,13,47,,68,63,6,5,4,4,0.3,0.3
2024-09-05T2200,1250A,120.0751,30.8669,湖州市,城西水厂,,24,24,27,16,16,72,,160,147,20,13,8,5,0.4,0.4
2024-09-05T2200,2873A,120.0875,30.8955,湖州市,仁皇山新区,,26,26,30,16,18,74,,162,150,17,12,8,7,0.7,0.7
2024-09-05T2200,2907A,120.1844,30.8596,湖州市,吴兴区站,,25,25,27,14,16,62,,147,130,19,13,5,5,0.6,0.5
2024-09-05T2200,3562A,120.4148,30.8538,湖州市,南浔区站,,24,24,23,16,16,57,,126,110,16,13,7,7,0.5,0.6
2024-09-05T2200,1607A,120.9092,40.7136,葫芦岛市,龙港区,,28,28,23,6,16,30,,74,58,49,21,22,11,0.6,0.4
2024-09-05T2200,1608A,120.8392,40.7514,葫芦岛市,化工街,,27,27,21,9,8,8,,72,52,50,21,10,9,0.4,0.4
2024-09-05T2200,1609A,120.8341,40.7073,葫芦岛市,新区,细颗粒物(PM2.5),74,,18,54,14,20,,74,63,61,20,25,12,0.3,0.4
2024-09-05T2200,1610A,120.8695,40.7677,葫芦岛市,东城区,,19,12,14,3,10,42,,71,66,37,13,11,8,0.4,0.4
2024-09-05T2200,2482A,109.5981,27.5721,怀化市,林科所,,29,29,35,17,26,60,,86,80,8,9,5,13,0.8,0.5
2024-09-05T2200,2483A,109.9453,27.5444,怀化市,河西地税局,,30,30,39,14,29,50,,105,98,22,13,4,5,0.7,0.3
2024-09-05T2200,2484A,109.9781,27.5342,怀化市,市四医院,,26,,49,18,38,79,,101,98,13,16,6,17,0.6,0.7
2024-09-05T2200,2485A,109.9972,27.5578,怀化市,监测楼,,24,21,55,9,32,74,,107,102,13,15,1,25,0.9,0.9
2024-09-05T2200,2486A,110.0394,27.583,怀化市,市委党校,颗粒物(PM10),53,56,98,18,39,56,,98,92,23,19,5,51,0.6,0.8
2024-09-05T2200,1210A,119.036,33.5981,淮安市,钵池山,细颗粒物(PM2.5),62,66,35,44,23,136,,159,140,19,19,9,9,1.2,0.9
2024-09-05T2200,1211A,119.007,33.575,淮安市,北京南路,细颗粒物(PM2.5),79,70,42,58,28,138,,154,139,14,14,8,7,1.1,0.9
2024-09-05T2200,1212A,118.989,33.6067,淮安市,市监测站,细颗粒物(PM2.5),67,68,40,48,29,137,,164,147,13,14,8,9,1.1,0.9
2024-09-05T2200,1213A,119.135,33.5039,淮安市,楚州区监测站,细颗粒物(PM2.5),70,83,50,51,25,154,,173,151,15,18,8,7,1.1,0.8
2024-09-05T2200,1214A,119.0186,33.6297,淮安市,淮阴区监测站,"颗粒物(PM10),细颗粒物(PM2.5)",60,70,46,43,21,132,,162,142,18,21,6,6,1.0,0.8
2024-09-05T2200,3426A,118.8755,33.2894,淮安市,新华书店,,50,50,44,21,28,133,,181,156,18,19,10,7,0.8,0.9
2024-09-05T2200,2282A,116.8004,33.975,淮北市,监测站,,38,38,54,24,30,79,,136,103,13,11,6,7,1.0,0.8
2024-09-05T2200,2283A,116.8091,33.9007,淮北市,烈山区政府,,41,41,57,26,31,87,,154,113,10,12,6,6,0.8,0.7
2024-09-05T2200,3330A,116.8873,33.9836,淮北市,杜集区检察院,细颗粒物(PM2.5),57,,48,40,39,85,,147,113,9,8,2,3,1.0,0.7
2024-09-05T2200,4017A,116.7923,33.9535,淮北市,市博物馆,,39,39,51,24,33,80,,144,108,17,14,4,5,1.1,0.9
2024-09-05T2200,2277A,116.8305,32.7727,淮南市,潘集区政府,颗粒物(PM10),61,72,47,39,30,86,,155,126,14,12,6,7,1.1,1
2024-09-05T2200,2278A,117.0067,32.6524,淮南市,师范学院,细颗粒物(PM2.5),102,80,61,76,41,90,,174,142,9,11,5,7,0.8,0.9
2024-09-05T2200,2279A,116.8569,32.5951,淮南市,谢家集区政府,细颗粒物(PM2.5),79,70,51,58,33,83,,167,137,18,14,9,8,0.7,0.8
2024-09-05T2200,2280A,116.8281,32.633,淮南市,八公山区政府,,,91,51,55,37,,,160,138,15,13,4,7,0.8,0.7
2024-09-05T2200,2281A,116.6325,32.6201,淮南市,焦岗湖风景区管理处,细颗粒物(PM2.5),94,117,61,70,29,68,,129,103,13,15,11,11,0.4,0.3
2024-09-05T2200,2894A,117.0566,32.6531,淮南市,经济技术开发区消防队,颗粒物(PM10),68,86,47,48,26,87,,179,139,27,16,4,7,0.7,1
2024-09-05T2200,3329A,117.0108,32.5893,淮南市,山南新区,细颗粒物(PM2.5),82,92,66,60,36,101,,189,156,16,14,7,6,1.0,0.9
2024-09-05T2200,2446A,114.9028,30.4742,黄冈市,职工中心,颗粒物(PM10),51,52,47,29,27,94,,139,109,13,11,8,9,0.6,0.7
2024-09-05T2200,2929A,114.8858,30.4519,黄冈市,红卫路,,50,50,43,33,30,105,,142,116,11,10,8,10,0.6,0.5
2024-09-05T2200,3398A,114.9136,30.4445,黄冈市,市林业局,颗粒物(PM10),52,53,53,23,26,92,,150,116,16,11,8,8,0.5,0.5
2024-09-05T2200,2672A,102.0199,35.5102,黄南藏族自治州,同仁县隆务镇,,29,29,18,7,6,70,,85,77,3,4,10,10,0.5,0.5
2024-09-05T2200,2295A,118.2903,29.6963,黄山市,延安路89号,,45,45,41,16,14,128,,119,117,6,6,6,6,0.5,0.5
2024-09-05T2200,2296A,118.327,29.7178,黄山市,黄山东路89号,,37,36,29,20,12,118,,115,107,6,6,4,4,0.4,0.4
2024-09-05T2200,2297A,118.1371,30.2756,黄山市,黄山区政府5号楼,,33,33,29,3,19,94,,136,133,9,8,7,6,0.5,0.5
2024-09-05T2200,2423A,115.0601,30.2313,黄石市,沈家营,颗粒物(PM10),52,54,61,8,20,20,,144,102,45,16,5,14,0.5,0.6
2024-09-05T2200,2424A,115.0817,30.2006,黄石市,陈家湾,,46,46,55,23,23,37,,142,101,18,11,8,11,1.4,0.6
2024-09-05T2200,2426A,114.8988,30.2019,黄石市,铁山,,37,34,40,19,22,117,,165,,5,8,4,7,0.4,0.5
2024-09-05T2200,2427A,115.0307,30.2092,黄石市,团城山,颗粒物(PM10),53,56,48,14,21,64,,144,106,16,12,8,13,0.5,0.6
2024-09-05T2200,3149A,115.0235,30.1578,黄石市,笔架山北路,颗粒物(PM10),61,72,51,24,22,62,,145,110,2,7,9,10,1.2,0.8
2024-09-05T2200,1392A,114.4183,23.0528,惠州市,河南岸金山湖子站,,15,10,19,3,10,47,,63,55,3,5,4,4,0.7,0.8
2024-09-05T2200,1393A,114.4053,23.0822,惠州市,下埔横江三路子站,,15,15,18,10,11,48,,67,59,8,7,4,5,0.6,0.6
2024-09-05T2200,1394A,114.4103,23.1142,惠州市,江北云山西路子站,,15,12,18,6,11,47,,64,56,2,4,4,4,0.7,0.7
2024-09-05T2200,1395A,114.4645,22.7833,惠州市,惠阳区承修路船湖子站,,15,14,24,8,14,48,,60,57,13,16,4,5,0.5,0.5
2024-09-05T2200,1396A,114.5317,22.7422,惠州市,大亚湾管委会子站,,18,17,22,8,12,57,,64,61,14,15,6,7,0.5,0.5
2024-09-05T2200,3314A,114.4338,22.8134,惠州市,惠阳秋长,,16,14,21,10,14,51,,72,63,12,14,4,5,0.4,0.4
2024-09-05T2200,3452A,114.6517,22.775,惠州市,大亚湾霞涌,,17,6,21,3,5,53,,64,63,8,10,3,4,0.7,0.7
2024-09-05T2200,2240A,130.9762,45.3001,鸡西市,环保局,,16,16,10,3,4,38,,48,42,2,3,5,5,0,0
2024-09-05T2200,2243A,130.9429,45.3039,鸡西市,第一中学,,12,11,8,3,4,37,,41,41,3,4,4,4,0.1,0.1
2024-09-05T2200,3707A,131.0207,45.3073,鸡西市,欧美日汽修厂,,13,12,8,9,6,41,,45,40,8,10,3,3,0.0,0.1
2024-09-05T2200,3709A,130.9967,45.3106,鸡西市,市政设施管理处,,20,20,12,7,3,36,,45,36,9,10,5,6,0.1,0.2
2024-09-05T2200,2367A,114.9754,27.0803,吉安市,红声器材厂,,50,50,51,34,35,91,,123,111,14,15,10,8,0.6,0.7
2024-09-05T2200,2368A,114.9658,27.0999,吉安市,市森林工业局,,47,47,50,29,36,100,,120,109,17,20,10,8,0.7,0.7
2024-09-05T2200,2369A,114.99,27.1312,吉安市,市环境监测站,,44,44,50,28,31,98,,125,109,13,15,10,10,0.8,0.8
2024-09-05T2200,2370A,115.0093,27.0968,吉安市,青原区法院,,48,47,50,33,35,92,,120,108,14,16,13,10,0.7,0.7
2024-09-05T2200,1772A,126.54,43.8622,吉林市,哈达湾,,22,22,17,11,10,20,,70,49,32,14,5,8,0.5,0.6
2024-09-05T2200,1773A,126.5844,43.8358,吉林市,东局子,,31,31,14,12,11,9,,68,42,32,15,5,6,0.6,0.6
2024-09-05T2200,1774A,126.5052,43.8245,吉林市,电力学院,,27,27,14,11,12,15,,68,44,18,9,3,4,0.5,0.5
2024-09-05T2200,1775A,126.6133,43.8972,吉林市,江北,,30,30,18,13,10,17,,63,42,26,11,7,7,0.6,0.6
2024-09-05T2200,1776A,126.555,43.8306,吉林市,江南公园,,20,20,16,6,10,17,,68,43,25,15,5,6,0.7,0.7
2024-09-05T2200,2868A,126.4739,43.953,吉林市,九站,,16,15,16,11,13,32,,61,46,22,17,7,10,0.5,0.6
2024-09-05T2200,1299A,116.9862,36.6114,济南市,科干所,,24,24,28,7,14,69,,120,76,20,15,6,6,0.6,0.7
2024-09-05T2200,1300A,116.9376,36.665,济南市,农科所,,32,32,28,7,15,52,,95,72,39,24,7,7,0.4,0.6
2024-09-05T2200,1301A,117.1265,36.6734,济南市,开发区,,22,22,27,10,17,65,,98,72,24,24,13,8,0.4,0.5
2024-09-05T2200,1303A,117.0624,36.6868,济南市,省种子仓库,,29,29,39,3,13,62,,83,78,24,32,5,5,0.6,0.7
2024-09-05T2200,1304A,116.9489,36.6447,济南市,机床二厂,,24,24,27,3,10,64,,106,77,29,22,9,8,0.5,0.6
2024-09-05T2200,1305A,117.0495,36.663,济南市,市监测站,,22,22,29,3,15,70,,117,76,21,20,9,9,0.4,0.6
2024-09-05T2200,1306A,116.7675,36.5484,济南市,长清党校,,29,29,26,10,14,67,,117,85,28,14,7,7,0.7,0.8
2024-09-05T2200,1616A,117.6795,36.229,济南市,技术学院,,22,14,30,3,17,69,,80,77,10,24,9,12,0.7,1
2024-09-05T2200,1961A,117.532,36.6868,济南市,东山小学,,24,24,32,3,17,64,,113,72,23,21,5,6,0.5,0.7
2024-09-05T2200,3059A,117.7161,36.2049,济南市,泰兴公司,,22,12,34,3,17,70,,75,73,10,36,9,10,0.6,0.8
2024-09-05T2200,3064A,117.6867,36.2171,济南市,莱芜战役纪念馆,,23,17,32,3,16,72,,77,75,8,26,6,7,0.4,0.7
2024-09-05T2200,3494A,117.1673,36.9782,济南市,济阳区政府,,24,22,41,3,13,74,,95,92,13,24,8,8,0.5,0.7
2024-09-05T2200,3495A,117.1171,36.63,济南市,锦屏中学,,24,20,24,3,12,76,,124,83,21,17,15,6,0.5,0.6
2024-09-05T2200,3682A,116.9814,36.6819,济南市,济南四建,,19,17,25,3,15,60,,103,74,24,20,7,7,0.5,0.7
2024-09-05T2200,1653A,116.6251,35.4302,济宁市,火炬城,,,45,46,17,22,,,92,89,14,16,8,10,0.6,1
2024-09-05T2200,1655A,116.5491,35.4042,济宁市,电化厂,,26,26,43,9,22,74,,96,87,12,15,6,8,0.5,0.8
2024-09-05T2200,3500A,116.5814,35.3707,济宁市,北湖一中,,24,21,52,3,17,74,,92,86,13,16,2,4,0.4,0.6
2024-09-05T2200,3501A,116.8249,35.5593,济宁市,服务中心,,22,22,40,7,18,70,,92,85,11,19,4,6,0.3,0.6
2024-09-05T2200,3678A,116.5907,35.4054,济宁市,市第七中学,,23,18,38,9,18,73,,92,84,11,18,6,7,0.5,0.8
2024-09-05T2200,2255A,130.2751,46.8028,佳木斯市,佳纺,,21,21,14,6,4,34,,48,37,10,9,5,6,0.4,0.4
2024-09-05T2200,2256A,130.3995,46.8307,佳木斯市,发电厂,,13,13,11,7,5,40,,53,49,10,4,7,6,0.5,0.4
2024-09-05T2200,2257A,130.3258,46.7975,佳木斯市,环保局,,24,24,11,6,3,32,,49,36,14,9,8,8,0.3,0.4
2024-09-05T2200,2258A,130.3648,46.8032,佳木斯市,十一中,,19,19,10,8,5,33,,54,45,21,10,7,7,0.4,0.4
2024-09-05T2200,2259A,130.3794,46.7588,佳木斯市,四丰,,16,11,11,3,6,50,,47,45,6,13,1,12,0.3,0.4
2024-09-05T2200,1252A,120.7436,30.778,嘉兴市,清河小学,,,19,22,10,11,62,,130,103,,,4,6,0.7,0.9
2024-09-05T2200,1253A,120.726,30.7478,嘉兴市,嘉兴学院,,23,23,23,11,12,52,,122,102,19,13,3,3,0.5,0.6
2024-09-05T2200,2872A,120.7846,30.7525,嘉兴市,南湖区残联,,22,22,28,15,16,59,,132,103,17,14,5,5,0.5,0.6
2024-09-05T2200,3407A,120.6916,30.7739,嘉兴市,秀洲住建,,21,21,21,10,14,56,,128,102,13,10,4,4,0.6,0.7
2024-09-05T2200,1945A,98.2908,39.7711,嘉峪关市,气象局,,30,17,32,3,6,95,,108,107,11,17,2,3,0.2,0.3
2024-09-05T2200,2884A,98.2672,39.7978,嘉峪关市,酒钢宾馆,,32,19,17,9,8,101,,111,110,15,16,5,14,0.3,0.4
2024-09-05T2200,3248A,98.2643,39.7724,嘉峪关市,雄关区,,28,28,23,10,9,84,,102,100,16,20,9,9,0.3,0.4
2024-09-05T2200,1383A,113.1064,22.6058,江门市,北街,,20,20,34,7,17,41,,94,70,18,25,4,5,0.4,0.6
2024-09-05T2200,1384A,113.0731,22.5835,江门市,西区,,20,20,32,11,18,41,,98,73,16,24,6,7,0.5,0.7
2024-09-05T2200,1385A,113.0219,22.5311,江门市,圭峰西,,24,24,36,8,22,44,,94,71,12,17,3,3,0.3,0.5
2024-09-05T2200,1386A,113.0828,22.5947,江门市,东湖,,13,13,29,7,16,40,,94,72,15,21,6,7,0.4,0.5
2024-09-05T2200,3311A,113.1075,22.5647,江门市,江海富民,,23,23,49,16,26,45,,97,74,17,25,6,7,0.5,0.7
2024-09-05T2200,3449A,113.05,22.4667,江门市,新会银湖,,32,32,34,3,23,44,,93,67,8,19,4,5,0.5,0.6
2024-09-05T2200,1828A,113.227,35.2125,焦作市,市环保局,,36,36,36,8,17,77,,91,88,15,14,5,5,0.4,0.4
2024-09-05T2200,3169A,113.2725,35.2067,焦作市,太极体育中心,,37,37,44,19,17,82,,96,94,13,10,11,6,0.8,0.8
2024-09-05T2200,3335A,113.3137,35.2641,焦作市,马村街道办,,37,37,39,11,17,73,,91,88,16,11,3,3,0.4,0.5
2024-09-05T2200,3336A,113.2465,35.2373,焦作市,焦作技师学院,,26,26,38,14,18,69,,90,85,18,12,7,6,0.7,0.6
2024-09-05T2200,3477A,113.1656,35.2539,焦作市,中站许衡医院,,25,,23,14,18,80,,94,86,11,10,4,5,0.4,0.5
2024-09-05T2200,3981A,113.2449,35.1803,焦作市,原李万街道办,,42,42,40,12,10,82,,94,92,6,7,3,3,0.3,0.4
2024-09-05T2200,1708A,116.3701,23.5345,揭阳市,新兴,,28,28,35,15,19,41,,78,68,13,15,6,7,0.5,0.6
2024-09-05T2200,1709A,116.3264,23.5443,揭阳市,西马,,34,34,37,11,16,48,,81,74,6,10,6,8,0.5,0.6
2024-09-05T2200,1710A,116.3611,23.5626,揭阳市,东兴,,39,39,42,17,17,49,,76,71,11,14,9,10,0.8,0.8
2024-09-05T2200,1711A,116.4151,23.5294,揭阳市,渔湖,,,28,33,21,16,,,74,72,14,15,5,6,0.5,0.5
2024-09-05T2200,3320A,116.403,23.5699,揭阳市,曲溪,,33,31,36,23,20,46,,75,69,12,13,8,10,0.5,0.5
2024-09-05T2200,1944A,102.1692,38.5167,金昌市,天庆家园,,39,6,14,3,12,124,,110,110,2,10,8,8,0.3,0.5
2024-09-05T2200,3170A,102.1864,38.5253,金昌市,市委党校,,37,6,21,3,13,116,,119,119,4,10,6,7,0.3,0.7
2024-09-05T2200,4022A,102.1647,38.5371,金昌市,金川区人防中心,,41,7,23,3,13,131,,116,116,2,11,10,14,0.4,0.6
2024-09-05T2200,1262A,119.647,29.077,金华市,十五中,,42,38,29,9,13,132,,144,135,14,12,2,2,0.6,0.6
2024-09-05T2200,1263A,119.686,29.1029,金华市,监测站,,45,45,32,22,17,128,,141,130,18,18,4,3,0.6,0.6
2024-09-05T2200,3659A,119.656,29.1131,金华市,气象局,,36,34,28,21,13,115,,138,122,25,21,5,4,0.8,0.6
2024-09-05T2200,1767A,121.1115,41.0879,锦州市,南山,,18,18,16,8,11,41,,76,70,34,15,7,7,0.6,0.5
2024-09-05T2200,1768A,121.0533,40.8434,锦州市,开发区,颗粒物(PM10),57,63,24,34,12,9,,74,60,68,20,20,9,0.7,0.7
2024-09-05T2200,1769A,121.1836,41.1119,锦州市,百股街道,,33,33,16,7,5,27,,72,63,35,10,8,8,0.7,0.7
2024-09-05T2200,1770A,121.1178,41.1222,锦州市,天安街道,,19,18,16,6,10,59,,75,73,23,9,7,8,0.5,0.6
2024-09-05T2200,1771A,121.1303,41.1386,锦州市,北湖公园,,19,6,16,3,7,58,,79,76,16,7,7,8,0.5,0.6
2024-09-05T2200,2160A,112.85,35.5051,晋城市,自来水公司,,43,43,32,12,8,90,,117,110,15,16,8,8,0.8,0.6
2024-09-05T2200,2161A,112.8318,35.4936,晋城市,白云商贸,,34,34,32,3,4,90,,115,106,17,15,10,9,0.9,0.8
2024-09-05T2200,2162A,112.8508,35.4887,晋城市,市环保局,,41,41,31,14,10,88,,114,103,16,14,10,9,0.7,0.7
2024-09-05T2200,2163A,112.8676,35.4897,晋城市,技术学院,,27,21,24,9,8,85,,114,100,18,17,9,9,0.9,0.9
2024-09-05T2200,3620A,112.8271,35.4828,晋城市,泽州一中,,31,31,28,3,6,84,,100,94,17,14,10,10,1.0,0.9
2024-09-05T2200,2171A,112.7532,37.6945,晋中市,锦纶小区,,32,19,17,3,3,101,,115,114,11,10,10,10,0.3,0.2
2024-09-05T2200,2173A,112.7249,37.7067,晋中市,南都小区,,30,27,23,18,15,96,,112,110,12,10,6,6,0.5,0.5
2024-09-05T2200,2174A,112.6991,37.6982,晋中市,榆次区政府,,31,24,24,16,16,97,,111,108,13,11,9,8,0.3,0.2
2024-09-05T2200,2865A,112.7195,37.6828,晋中市,榆次三中,,31,22,21,3,3,97,,112,110,10,10,8,7,0.5,0.4
2024-09-05T2200,2439A,112.2014,31.0481,荆门市,竹园小学,颗粒物(PM10),59,68,72,27,31,121,,142,140,12,13,14,12,0.8,0.9
2024-09-05T2200,2440A,112.1969,30.9891,荆门市,掇刀,颗粒物(PM10),59,67,64,26,31,122,,143,142,14,12,19,14,0.7,0.7
2024-09-05T2200,2441A,112.2213,31.0386,荆门市,石化一小,颗粒物(PM10),61,71,78,12,29,119,,144,142,13,13,18,13,0.7,0.7
2024-09-05T2200,3012A,112.1849,31.0362,荆门市,西山林语,颗粒物(PM10),56,62,63,29,30,124,,145,143,14,12,12,11,0.7,0.8
2024-09-05T2200,3547A,112.1632,31.0138,荆门市,龙泉中学南校,,,61,63,26,28,,,147,147,9,9,12,12,0.7,0.6
2024-09-05T2200,1844A,112.2494,30.3197,荆州市,市图书馆,颗粒物(PM10),61,71,54,30,36,130,,130,130,10,17,7,7,0.7,0.9
2024-09-05T2200,1845A,112.2008,30.3544,荆州市,市委党校,细颗粒物(PM2.5),57,61,59,40,38,130,,138,134,8,14,8,10,0.8,0.9
2024-09-05T2200,3194A,112.2747,30.3122,荆州市,管委会,,50,49,52,35,36,128,,131,130,8,14,6,7,0.8,0.8
2024-09-05T2200,3548A,112.1655,30.3364,荆州市,学苑路,细颗粒物(PM2.5),62,69,61,44,42,132,,138,134,12,16,7,9,1.0,0.9
2024-09-05T2200,2343A,117.2117,29.2933,景德镇市,老干部活动中心,,35,35,32,16,21,88,,110,97,9,9,5,5,0.4,0.3
2024-09-05T2200,2344A,117.1894,29.2789,景德镇市,兽医站,,39,39,34,21,20,86,,104,92,8,8,8,7,0.5,0.5
2024-09-05T2200,2345A,117.1547,29.2617,景德镇市,台达陶瓷,,26,26,30,18,21,72,,102,89,10,8,7,8,0.4,0.4
2024-09-05T2200,2346A,117.2461,29.2956,景德镇市,陶研所,,40,39,41,28,20,73,,113,94,17,14,4,4,0.3,0.3
2024-09-05T2200,1803A,115.9872,29.6815,九江市,十里,,49,38,44,28,28,155,,146,146,11,13,9,10,0.7,0.8
2024-09-05T2200,1804A,115.9584,29.7046,九江市,茅山头,,47,47,42,24,28,144,,140,139,12,15,9,9,0.7,0.8
2024-09-05T2200,1805A,115.9877,29.7295,九江市,西园,,45,37,38,30,25,142,,153,147,13,12,7,7,0.7,0.8
2024-09-05T2200,1806A,116.0172,29.6547,九江市,五七二七厂,颗粒物(PM10),52,53,34,26,26,138,,136,135,11,12,9,9,0.7,0.8
2024-09-05T2200,1808A,115.9114,29.6038,九江市,综合工业园,,50,44,42,28,31,160,,157,155,3,26,7,7,0.8,1.1
2024-09-05T2200,1809A,116.0721,29.7535,九江市,石化总厂,,50,50,56,34,35,140,,140,138,17,24,10,10,1.0,1
2024-09-05T2200,1810A,115.9773,29.5698,九江市,庐山气象台,,49,37,29,21,21,154,,148,148,7,3,25,17,1.7,1
2024-09-05T2200,3190A,116.0254,29.6994,九江市,外国语学校,,48,43,43,30,28,151,,149,147,13,14,11,9,0.6,0.6
2024-09-05T2200,2658A,98.5061,39.7443,酒泉市,仓门街子站,,,,30,,12,65,,92,87,132,30,10,9,0.7,0.4
2024-09-05T2200,2659A,98.4989,39.7256,酒泉市,油田生活基地,,28,12,29,7,8,88,,95,93,17,24,10,9,0.3,0.3
2024-09-05T2200,2698A,76.0072,39.4467,喀什地区,巡警大队,颗粒物(PM10),89,128,119,31,27,80,,104,101,27,38,3,3,0.5,0.5
2024-09-05T2200,2699A,75.9755,39.4694,喀什地区,吾办,颗粒物(PM10),95,140,122,39,40,80,,107,103,26,31,2,2,0.4,0.4
2024-09-05T2200,4027A,75.9483,39.4689,喀什地区,老干局,颗粒物(PM10),89,127,140,21,24,80,,102,100,20,28,3,3,0.5,0.5
2024-09-05T2200,1824A,114.3389,34.7781,开封市,肿瘤医院,,,,53,,17,,,114,110,6,11,4,4,0.4,0.6
2024-09-05T2200,1826A,114.2885,34.7965,开封市,世纪星幼儿园,,,32,49,,,85,,104,99,6,11,1,2,0.6,0.6
2024-09-05T2200,3147A,114.3438,34.8106,开封市,龙亭公园,,27,10,54,3,21,86,,109,102,8,13,4,4,0.6,0.6
2024-09-05T2200,3210A,114.3644,34.7964,开封市,汴京公园,,27,16,49,7,24,86,,114,106,7,10,4,4,0.4,0.6
2024-09-05T2200,3473A,114.2485,34.8306,开封市,技师学院,,42,42,46,14,19,88,,111,106,9,12,4,5,0.7,0.7
2024-09-05T2200,3592A,114.4644,34.7556,开封市,祥符区生态环境局,,26,26,44,8,23,42,,108,90,46,20,25,7,1.6,0.7
2024-09-05T2200,1951A,84.895,45.6094,克拉玛依市,长征新村,细颗粒物(PM2.5),62,71,23,44,7,36,,99,91,49,12,8,7,0.8,0.3
2024-09-05T2200,1952A,84.8988,45.5893,克拉玛依市,南林小区,颗粒物(PM10),62,74,28,29,13,6,,94,74,75,25,12,9,1.5,0.6
2024-09-05T2200,1954A,84.905,44.3396,克拉玛依市,独山子区,,38,38,27,10,10,47,,121,111,44,14,8,8,0.6,0.4
2024-09-05T2200,1955A,85.6979,46.098,克拉玛依市,乌尔禾区商贸楼,,42,42,15,18,5,57,,104,97,29,12,14,14,0.5,0.4
2024-09-05T2200,3612A,85.1045,45.6899,克拉玛依市,白碱滩区新站,,30,29,17,3,4,96,,107,107,11,12,10,10,0.1,0.1
2024-09-05T2200,2697A,76.1454,39.7142,克孜勒苏柯尔克孜自治州,市人民政府,颗粒物(PM10),89,127,113,42,38,82,,115,110,25,20,2,2,0.7,0.6
2024-09-05T2200,3665A,76.1658,39.7157,克孜勒苏柯尔克孜自治州,克州文化中心,,,,109,,45,,,115,115,8,16,5,5,0.5,0.5
2024-09-05T2200,1450A,102.8204,24.8886,昆明市,呈贡新区,,32,29,22,16,12,101,,118,116,8,11,5,5,0.4,0.5
2024-09-05T2200,1452A,102.7252,25.0902,昆明市,龙泉镇,,50,50,17,12,8,27,,121,105,34,12,6,6,0.9,0.7
2024-09-05T2200,1453A,102.7266,25.0375,昆明市,东风东路,,28,22,16,11,11,88,,122,117,21,16,6,5,0.5,0.5
2024-09-05T2200,1454A,102.6742,25.0669,昆明市,金鼎山,,42,42,25,13,9,63,,124,114,35,17,2,2,0.6,0.4
2024-09-05T2200,1455A,102.6644,25.0401,昆明市,碧鸡广场,,33,33,18,15,10,94,,120,114,18,16,4,3,0.5,0.5
2024-09-05T2200,3179A,102.7494,25.0119,昆明市,官渡区博物馆,,28,24,19,12,11,87,,128,121,24,17,7,6,0.3,0.3
2024-09-05T2200,3375A,102.8017,24.8336,昆明市,青年创业园,,,18,14,13,12,,,117,117,22,13,3,2,0.5,0.5
2024-09-05T2200,3550A,102.7997,24.9786,昆明市,昆明学院,,30,27,20,19,12,94,,129,125,17,15,8,5,0.4,0.4
2024-09-05T2200,3551A,102.5967,24.6736,昆明市,晋宁区生态环境分局,,40,40,18,9,8,84,,118,114,15,9,3,3,0.5,0.5
2024-09-05T2200,3552A,102.6678,24.9856,昆明市,云天化总部,,30,22,15,14,10,94,,125,121,17,14,5,5,0.4,0.4
2024-09-05T2200,1456A,91.1319,29.6514,拉萨市,八廓街,,,23,10,14,7,56,,116,102,,9,13,8,0.4,0.2
2024-09-05T2200,1457A,91.1221,29.6747,拉萨市,市环保局,,25,25,11,13,7,57,,113,98,29,15,10,8,0.5,0.3
2024-09-05T2200,1458A,91.0874,29.6475,拉萨市,区监测站,,20,16,9,12,6,55,,110,93,40,14,10,8,0.3,0.2
2024-09-05T2200,1459A,91.1774,29.6541,拉萨市,西藏大学,,24,14,8,8,6,74,,112,104,15,6,13,8,0.3,0.3
2024-09-05T2200,1460A,90.9798,29.6588,拉萨市,区辐射站,,44,44,12,18,7,43,,103,89,50,16,9,8,0.4,0.2
2024-09-05T2200,1461A,91.0834,29.6292,拉萨市,拉萨火车站,,21,13,8,12,7,52,,108,95,42,11,7,6,0.3,0.2
2024-09-05T2200,2520A,109.2203,23.7256,来宾市,来宾技工学校,,46,46,40,29,26,75,,122,107,10,13,7,9,0.9,0.9
2024-09-05T2200,3535A,109.1781,23.7297,来宾市,兴宾区政府,,49,47,34,34,21,83,,126,113,8,8,6,6,0.8,0.8
2024-09-05T2200,4002A,109.2416,23.7461,来宾市,中南小学,,47,47,41,32,27,82,,135,118,10,14,5,3,1.0,1
2024-09-05T2200,1476A,103.631,36.1031,兰州市,兰炼宾馆,,38,38,26,22,17,73,,85,82,18,12,7,5,0.4,0.4
2024-09-05T2200,1478A,103.8412,36.0726,兰州市,生物制品所,,35,27,18,24,18,61,,86,80,17,13,9,9,0.5,0.5
2024-09-05T2200,1479A,103.831,36.0464,兰州市,铁路设计院,,33,,21,23,15,60,,75,74,19,23,5,7,0.4,0.5
2024-09-05T2200,3186A,103.7158,36.1058,兰州市,教育港,,36,27,24,25,24,73,,88,85,9,10,7,8,0.4,0.4
2024-09-05T2200,3241A,103.7439,36.0842,兰州市,百合公园,,24,24,19,9,10,69,,84,82,13,14,10,10,0.5,0.5
2024-09-05T2200,3242A,103.9611,35.998,兰州市,和平,,20,17,13,10,4,62,,89,78,11,12,8,9,0.3,0.3
2024-09-05T2200,3245A,103.6633,36.533,兰州新区,新区管委会,,25,25,20,17,17,75,,103,98,11,8,16,13,0.4,0.5
2024-09-05T2200,3246A,103.6975,36.4789,兰州新区,舟曲中学,,21,12,12,6,7,67,,106,99,16,10,9,14,0.4,0.5
2024-09-05T2200,1067A,116.6708,39.5111,廊坊市,药材公司,,,26,31,10,13,,,79,72,42,17,1,1,0.6,0.4
2024-09-05T2200,1068A,116.7214,39.5589,廊坊市,开发区,,20,20,35,12,19,13,,76,52,20,12,1,2,0.5,0.5
2024-09-05T2200,1070A,116.7244,39.5269,廊坊市,北华航天学院,颗粒物(PM10),52,54,44,14,17,4,,78,46,55,19,3,2,0.6,0.4
2024-09-05T2200,2919A,116.7022,39.5453,廊坊市,河北工业大学,颗粒物(PM10),52,54,35,18,19,2,,81,56,64,20,1,1,0.7,0.4
2024-09-05T2200,2535A,103.7723,29.5462,乐山市,花湖湾,,43,43,23,21,12,114,,180,176,19,9,6,6,0.6,0.3
2024-09-05T2200,2536A,103.7627,29.5844,乐山市,牛耳桥,,39,36,19,27,16,111,,175,170,24,12,3,3,0.5,0.4
2024-09-05T2200,2537A,103.7508,29.6006,乐山市,市第三水厂,,36,35,19,23,10,113,,186,180,27,11,2,3,0.5,0.3
2024-09-05T2200,2538A,103.7571,29.5664,乐山市,市监测站,,40,40,21,20,12,112,,168,166,19,10,4,3,0.5,0.5
2024-09-05T2200,3361A,103.7311,29.5628,乐山市,理工大学,,42,37,20,29,15,103,,180,173,26,10,6,6,0.6,0.5
2024-09-05T2200,2599A,100.2497,26.8802,丽江市,丽江古城,,,,12,12,11,,,61,54,11,12,9,9,0.5,0.8
2024-09-05T2200,2600A,100.2203,26.8906,丽江市,市中心,,20,16,8,14,7,15,,65,45,21,12,9,9,0.8,0.7
2024-09-05T2200,1267A,119.914,28.4514,丽水市,监测站大楼,,26,26,23,18,14,72,,108,103,9,9,3,2,0.4,0.5
2024-09-05T2200,1268A,119.93,28.4586,丽水市,莲都小学,,24,20,23,11,13,76,,110,102,6,10,4,4,0.4,0.5
2024-09-05T2200,1269A,119.879,28.4231,丽水市,余庄前,,24,24,25,14,15,72,,109,101,8,10,4,4,0.4,0.5
2024-09-05T2200,1173A,119.176,34.5885,连云港市,市环境监测站,,29,29,34,3,15,81,,159,120,15,15,8,7,0.7,0.5
2024-09-05T2200,3000A,119.3581,34.6972,连云港市,德源药业,,27,22,35,7,15,86,,162,125,5,13,5,6,0.4,0.6
2024-09-05T2200,3007A,119.178,34.844,连云港市,新城一中,,26,26,48,9,21,70,,139,102,23,33,3,4,0.6,0.7
2024-09-05T2200,3008A,119.3608,34.7519,连云港市,胡沟管理处,,26,17,31,3,14,82,,145,116,7,12,4,6,0.6,0.8
2024-09-05T2200,3009A,119.1478,34.5911,连云港市,矿山设计院,,29,29,33,12,17,75,,151,116,16,14,11,7,1.4,0.8
2024-09-05T2200,3434A,119.2413,34.6539,连云港市,工贸学校,,26,23,32,11,21,83,,166,126,10,10,6,8,0.8,1
2024-09-05T2200,3664A,119.4172,34.7341,连云港市,连云街道,,26,17,39,7,18,82,,151,118,10,17,4,6,0.6,0.8
2024-09-05T2200,2571A,102.3431,27.8099,凉山彝族自治州,青龙寺,,21,19,11,3,5,67,,95,89,4,3,4,5,0.5,0.5
2024-09-05T2200,2572A,102.2721,27.8415,凉山彝族自治州,邛海宾馆,,26,15,16,8,11,81,,106,100,9,8,7,8,0.5,0.5
2024-09-05T2200,2573A,102.2625,27.898,凉山彝族自治州,西昌市政府,,27,7,14,3,8,85,,107,95,6,6,6,7,0.5,0.5
2024-09-05T2200,2574A,102.2685,27.8851,凉山彝族自治州,凉山州政府,,30,13,15,12,9,94,,111,102,6,8,6,7,0.6,0.6
2024-09-05T2200,2575A,102.237,27.8914,凉山彝族自治州,长安,,31,26,16,11,10,98,,111,102,5,10,7,7,0.8,0.8
2024-09-05T2200,2212A,123.2,41.1953,辽阳市,宏伟区,,30,30,20,3,13,39,,80,68,24,12,9,8,0.5,0.7
2024-09-05T2200,2213A,123.1683,41.2495,辽阳市,新华园,,20,20,18,3,13,44,,73,62,23,11,9,8,0.6,0.9
2024-09-05T2200,2214A,123.2354,41.2639,辽阳市,滨河路,,28,22,19,19,14,24,,84,64,34,11,9,9,0.4,0.6
2024-09-05T2200,2215A,123.149,41.2991,辽阳市,铁西工业园,,27,27,24,10,12,12,,68,48,33,11,8,9,0.6,0.9
2024-09-05T2200,2227A,125.1358,42.8845,辽源市,环保局,,28,28,17,8,8,9,,87,56,26,8,6,6,0.6,0.6
2024-09-05T2200,3239A,125.0764,42.9078,辽源市,银鹰制药,,40,40,28,19,8,9,,81,45,18,10,4,4,0.7,0.7
2024-09-05T2200,1625A,115.9848,36.4372,聊城市,区政府,,25,24,32,3,14,79,,95,86,18,15,9,15,0.5,0.6
2024-09-05T2200,2878A,116.0072,36.4343,聊城市,聊大东校,,24,22,32,13,19,74,,99,88,22,16,7,8,0.4,0.5
2024-09-05T2200,3200A,115.9819,36.4978,聊城市,监控中心,,29,29,27,9,14,42,,94,73,39,15,6,9,0.3,0.4
2024-09-05T2200,3513A,116.0445,36.4361,聊城市,九州社区,,32,32,32,7,16,49,,91,76,24,9,3,1,0.4,0.4
2024-09-05T2200,4018A,116.0567,36.4608,聊城市,星美广场,,26,26,43,7,15,61,,95,79,23,13,5,4,0.3,0.4
2024-09-05T2200,2632A,94.3681,29.6376,林芝市,林芝监测站,,21,,5,6,5,65,,68,68,2,2,9,9,0.4,0.4
2024-09-05T2200,2633A,94.3616,29.6616,林芝市,林芝人民医院,,,18,7,14,4,,,68,68,3,4,7,7,0.2,0.2
2024-09-05T2200,2603A,100.0781,23.8982,临沧市,市环保局,,39,32,18,27,15,19,,43,35,12,10,4,6,0.5,0.3
2024-09-05T2200,2604A,100.0894,23.8822,临沧市,市气象局,,19,17,13,13,11,22,,45,39,10,9,6,6,0.5,0.4
2024-09-05T2200,1733A,111.5531,36.0783,临汾市,临钢医院,颗粒物(PM10),60,69,28,18,11,98,,133,128,21,10,7,4,0.6,0.5
2024-09-05T2200,1734A,111.5028,36.0714,临汾市,技工学校,颗粒物(PM10),60,70,33,22,12,109,,129,128,20,12,9,5,0.6,0.5
2024-09-05T2200,1736A,111.5018,36.0855,临汾市,市委,颗粒物(PM10),57,64,26,15,6,116,,142,141,20,9,10,5,0.6,0.5
2024-09-05T2200,3018A,111.505,36.1014,临汾市,唐尧大酒店,颗粒物(PM10),54,58,26,19,9,96,,133,130,23,9,8,4,0.6,0.4
2024-09-05T2200,3668A,111.5036,36.0414,临汾市,城南,颗粒物(PM10),57,63,27,22,14,84,,132,118,22,12,6,5,0.5,0.3
2024-09-05T2200,2667A,103.2069,35.5993,临夏回族自治州,环保局,,36,36,28,3,12,77,,76,76,8,6,8,7,0.6,0.4
2024-09-05T2200,2668A,103.2417,35.6057,临夏回族自治州,建设大厦,,33,33,19,21,12,84,,82,82,10,7,8,7,0.6,0.3
2024-09-05T2200,1618A,118.3429,35.0532,临沂市,沂河小区,,27,27,48,10,27,75,,154,92,9,15,5,10,0.2,0.6
2024-09-05T2200,1619A,118.295,35.0583,临沂市,鲁南制药厂,,26,9,44,8,25,83,,169,101,10,21,4,10,0.2,0.5
2024-09-05T2200,1620A,118.2794,34.9976,临沂市,新光毛纺厂,,23,17,40,10,25,73,,160,92,10,20,4,8,0.4,0.7
2024-09-05T2200,1621A,118.3956,35.0888,临沂市,河东保险公司,,29,27,45,20,30,81,,144,95,11,28,6,8,0.4,0.7
2024-09-05T2200,3370A,118.3564,35.0215,临沂市,十里堡居委,,25,7,35,3,23,78,,158,95,8,18,6,12,0.4,0.8
2024-09-05T2200,3496A,118.3604,35.1084,临沂市,南坊新区,,25,22,49,3,21,77,,143,92,9,20,7,10,0.4,0.8
2024-09-05T2200,3860A,118.3920,35.0300,临沂市,皇山花园小区,,22,17,48,8,28,68,,144,86,13,22,5,9,0.4,0.8
2024-09-05T2200,1870A,109.4856,24.3895,柳州市,柳东小学,,45,45,39,28,27,80,,117,106,15,15,6,11,0.7,0.8
2024-09-05T2200,1871A,109.4157,24.3277,柳州市,环保监测站,,39,28,45,27,28,76,,120,105,13,14,9,13,0.9,0.9
2024-09-05T2200,1872A,109.389,24.341,柳州市,河西水厂,颗粒物(PM10),54,57,55,31,28,66,,117,96,19,15,17,16,1.7,1.2
2024-09-05T2200,1874A,109.4006,24.3631,柳州市,市九中,,43,43,52,16,29,77,,122,104,13,15,11,12,0.7,0.6
2024-09-05T2200,1875A,109.4958,24.3134,柳州市,古亭山,,32,31,41,22,25,83,,127,116,9,20,6,7,0.8,1
2024-09-05T2200,3402A,109.5422,24.3996,柳州市,市二中,,31,31,48,21,26,78,,126,114,11,18,7,7,0.8,0.8
2024-09-05T2200,2307A,116.5079,31.737,六安市,监测大楼,细颗粒物(PM2.5),73,59,37,53,27,115,,158,151,6,8,6,6,0.9,0.8
2024-09-05T2200,2308A,116.4738,31.7643,六安市,皖西学院,颗粒物(PM10),62,73,50,43,27,112,,161,150,7,10,5,4,0.6,0.5
2024-09-05T2200,2309A,116.4996,31.7905,六安市,朝阳厂,细颗粒物(PM2.5),60,51,45,43,28,108,,162,153,5,14,2,3,0.7,0.6
2024-09-05T2200,2310A,116.5567,31.7886,六安市,开发区,颗粒物(PM10),59,67,50,35,30,107,,154,142,6,12,4,4,0.7,0.6
2024-09-05T2200,2577A,104.83,26.5917,六盘水市,黄土坡,,39,,23,27,15,40,,114,91,23,17,8,12,0.6,0.5
2024-09-05T2200,2578A,104.89,26.5939,六盘水市,水钢,,38,38,35,24,15,70,,120,95,37,22,9,12,1.0,1
2024-09-05T2200,2579A,104.8475,26.5894,六盘水市,民中,,32,32,20,19,12,66,,116,101,25,17,7,11,0.6,0.6
2024-09-05T2200,2580A,104.9544,26.5506,六盘水市,双水,,34,34,30,20,11,77,,119,103,23,12,6,8,0.6,0.5
2024-09-05T2200,2336A,117.0217,25.1033,龙岩市,龙岩市监测站,,19,17,20,13,13,38,,70,51,10,9,11,9,0.4,0.4
2024-09-05T2200,2337A,117.0258,25.0661,龙岩市,闽西职业技术学院,,16,14,28,11,13,36,,70,52,7,11,6,10,0.5,0.5
2024-09-05T2200,2338A,117.0196,25.0306,龙岩市,龙岩学院,,15,14,22,10,11,22,,68,45,16,12,6,6,0.4,0.5
2024-09-05T2200,2885A,104.9339,33.3826,陇南市,滨江中学,,43,43,28,15,9,47,,79,69,8,8,6,6,0.5,0.5
2024-09-05T2200,3247A,104.955,33.371,陇南市,市总工会,,24,24,23,3,4,52,,77,66,5,5,6,7,0.6,0.6
2024-09-05T2200,2487A,111.9589,27.8901,娄底市,电视发射台,,38,38,54,10,27,103,,118,118,5,6,6,7,0.6,0.7
2024-09-05T2200,2488A,111.9975,27.725,娄底市,市监测站,,41,26,47,11,31,130,,128,128,7,12,5,11,0.5,1.3
2024-09-05T2200,2489A,112.0194,27.7314,娄底市,市委党校,,39,33,46,17,28,123,,116,116,4,8,5,7,0.4,0.7
2024-09-05T2200,2490A,111.9561,27.7569,娄底市,涟钢,颗粒物(PM10),58,65,44,29,31,118,,100,100,22,11,6,11,0.5,1.2
2024-09-05T2200,2491A,111.9892,27.7044,娄底市,市政府,颗粒物(PM10),52,54,45,11,36,132,,128,128,8,14,6,6,0.6,1
2024-09-05T2200,1893A,105.4324,28.9634,泸州市,九狮山,,50,44,27,35,19,67,,141,128,8,3,5,6,0.4,0.4
2024-09-05T2200,1894A,105.4427,28.9063,泸州市,小市上码头,,38,38,26,23,13,117,,152,147,14,11,6,6,0.5,0.4
2024-09-05T2200,1895A,105.4241,28.8573,泸州市,兰田宪桥,,35,35,24,24,14,109,,146,141,17,10,9,7,0.5,0.4
2024-09-05T2200,1896A,105.4379,28.8833,泸州市,市环监站,,44,44,27,30,19,113,,146,141,16,10,6,7,0.5,0.4
2024-09-05T2200,3490A,105.3617,28.7703,泸州市,纳溪区环保局,,49,42,29,34,21,79,,144,128,26,15,6,6,0.5,0.4
2024-09-05T2200,2183A,111.1406,37.5211,吕梁市,环保局,颗粒物(PM10),63,76,27,18,15,13,,96,75,48,9,3,3,0.6,0.5
2024-09-05T2200,2185A,111.1297,37.5136,吕梁市,自来水公司,,42,42,22,18,13,51,,94,85,19,8,2,2,0.5,0.5
2024-09-05T2200,2867A,111.1283,37.51,吕梁市,马茂庄小学,,33,28,20,23,15,23,,,,39,25,4,3,0.4,0.8
2024-09-05T2200,1812A,112.3931,34.6516,洛阳市,市委党校,,32,32,37,14,17,98,,124,120,9,8,6,7,0.6,0.6
2024-09-05T2200,1814A,112.4657,34.6871,洛阳市,豫西宾馆,,37,37,45,12,16,82,,124,115,13,11,8,9,0.5,0.5
2024-09-05T2200,1815A,112.494,34.6886,洛阳市,河南林校,,35,35,39,15,18,79,,125,114,18,13,8,9,0.6,0.6
2024-09-05T2200,1816A,112.3844,34.623,洛阳市,开发区管委会,,30,28,31,17,17,95,,125,119,10,7,2,4,0.4,0.4
2024-09-05T2200,1817A,112.4267,34.6258,洛阳市,市委新办公区,,35,31,32,24,22,89,,124,118,7,4,3,4,0.6,0.6
2024-09-05T2200,3340A,112.6005,34.6326,洛阳市,伊滨,,32,26,36,22,21,77,,128,118,22,12,6,7,0.6,0.5
2024-09-05T2200,3341A,112.4951,34.6332,洛阳市,中移产业园,,31,31,35,15,17,93,,134,126,12,7,3,4,0.8,0.8
2024-09-05T2200,3593A,112.5736,34.8993,洛阳市,吉利监测站,,36,36,33,14,18,77,,117,104,12,11,5,3,0.5,0.5
2024-09-05T2200,3635A,112.3677,34.662,洛阳市,河科大西苑校区,,31,30,37,14,15,99,,126,121,9,9,5,6,0.6,0.7
2024-09-05T2200,3636A,112.4388,34.6781,洛阳市,英才小学,,30,30,38,19,21,81,,121,113,17,14,4,6,0.5,0.6
2024-09-05T2200,2399A,114.051,33.5699,漯河市,三五一五工厂,,34,34,60,18,27,97,,125,118,8,12,5,5,0.7,0.8
2024-09-05T2200,2400A,114.0055,33.5698,漯河市,漯河大学,颗粒物(PM10),56,62,59,17,28,103,,131,125,7,12,4,4,0.5,0.6
2024-09-05T2200,2401A,114.0138,33.5828,漯河市,市水利局,,46,46,60,19,23,99,,126,119,5,8,4,3,0.5,0.6
2024-09-05T2200,2402A,114.0261,33.5698,漯河市,市广电局,,42,42,56,12,21,102,,130,124,6,10,6,6,0.5,0.7
2024-09-05T2200,3478A,113.9749,33.5664,漯河市,市图书馆,颗粒物(PM10),51,52,68,20,28,108,,134,128,5,11,6,6,0.5,0.6
2024-09-05T2200,3479A,114.0967,33.5906,漯河市,召陵区卫健委,,41,41,61,22,31,96,,128,117,8,14,5,4,0.4,0.6
2024-09-05T2200,1798A,118.5092,31.6837,马鞍山市,湖东路四小,,49,42,36,34,22,151,,156,155,20,15,6,6,1.0,0.8
2024-09-05T2200,1799A,118.5024,31.6449,马鞍山市,开发区,,47,47,46,24,21,146,,152,151,18,18,6,6,1.0,0.9
2024-09-05T2200,1800A,118.5228,31.7231,马鞍山市,慈湖,臭氧1小时,52,40,34,26,23,161,,163,163,13,10,7,7,1.1,0.9
2024-09-05T2200,1802A,118.6245,31.7241,马鞍山市,濮塘,,42,34,27,29,21,126,,145,142,21,16,6,6,1.0,0.8
2024-09-05T2200,3633A,118.4918,31.6809,马鞍山市,雨山,,48,41,32,25,20,152,,153,153,16,12,7,8,1.0,0.9
2024-09-05T2200,1686A,111.0286,21.4688,茂名市,电白南海,,36,36,45,24,28,64,,89,79,12,10,12,15,0.6,0.8
2024-09-05T2200,1687A,110.9294,21.6533,茂名市,茂石化七小,,27,27,42,14,25,66,,79,68,9,9,6,19,0.4,0.7
2024-09-05T2200,1688A,110.9107,21.6687,茂名市,健康路,,31,31,38,17,22,67,,82,72,9,10,20,26,0.6,0.8
2024-09-05T2200,1689A,110.8592,21.6828,茂名市,高岭,,44,44,40,29,24,50,,80,63,14,12,23,18,0.6,0.7
2024-09-05T2200,3450A,111.01,21.5165,茂名市,电白水东,,28,22,39,19,25,67,,83,74,10,9,9,19,0.5,0.6
2024-09-05T2200,2539A,104.0308,30.0478,眉山市,黑龙滩水库,细颗粒物(PM2.5),58,63,29,41,15,115,,153,139,10,6,3,116,0.6,0.5
2024-09-05T2200,2540A,103.8416,30.0874,眉山市,气象局,,42,40,24,29,11,107,,181,172,29,12,6,6,0.5,0.4
2024-09-05T2200,3137A,103.8578,30.0744,眉山市,市委党校,,38,36,21,19,8,121,,180,173,22,9,8,8,0.4,0.5
2024-09-05T2200,3148A,103.8291,30.0564,眉山市,区人社局,,45,45,22,24,8,112,,184,174,34,16,8,8,0.6,0.5
2024-09-05T2200,1690A,116.1231,24.3284,梅州市,梅江月梅,,19,14,24,13,11,35,,63,60,16,8,7,7,0.5,0.5
2024-09-05T2200,1691A,116.0797,24.2719,梅州市,梅县新城,,19,16,22,12,12,58,,61,58,8,11,4,6,0.3,0.5
2024-09-05T2200,1692A,116.1248,24.2654,梅州市,环境监控中心,,19,19,25,12,12,51,,54,51,15,15,4,7,0.4,0.4
2024-09-05T2200,3315A,116.1233,24.2991,梅州市,梅龙,,20,12,18,11,10,63,,63,63,4,8,8,11,0.5,0.5
2024-09-05T2200,1878A,104.7778,31.4741,绵阳市,富乐山,,,33,26,27,20,,,110,108,7,7,3,3,0.5,0.4
2024-09-05T2200,1879A,104.7563,31.4535,绵阳市,市人大,,35,30,26,24,15,70,,104,97,20,14,7,7,0.4,0.4
2024-09-05T2200,1880A,104.6697,31.4668,绵阳市,高新区自来水公司,,27,27,25,9,11,74,,110,104,14,9,1,1,0.5,0.5
2024-09-05T2200,1881A,104.7287,31.5075,绵阳市,三水厂,,24,24,26,16,17,74,,109,102,11,10,5,5,0.6,0.6
2024-09-05T2200,3491A,104.69,31.5322,绵阳市,西科大附属小学,,33,33,25,20,16,69,,110,103,21,12,4,4,0.5,0.5
2024-09-05T2200,3492A,104.5648,31.5343,绵阳市,安州区旅游局,,39,30,22,27,17,73,,119,104,20,10,4,6,0.6,0.5
2024-09-05T2200,1784A,129.61,44.561,牡丹江市,环保大楼,,23,18,16,16,12,17,,58,38,17,8,7,7,0.4,0.3
2024-09-05T2200,1785A,129.6115,44.5782,牡丹江市,文化广场,,41,41,22,26,18,9,,53,30,27,13,8,8,0.4,0.3
2024-09-05T2200,1786A,129.5904,44.5963,牡丹江市,第一医院,,42,42,21,24,18,14,,65,38,19,9,6,6,0.5,0.3
2024-09-05T2200,1787A,129.6364,44.6075,牡丹江市,机车工厂,,41,41,20,28,19,22,,57,37,5,10,6,6,0.2,0.4
2024-09-05T2200,1788A,129.6386,44.5462,牡丹江市,第一中学,,26,23,20,18,14,15,,63,36,8,8,6,6,0.2,0.3
2024-09-05T2200,2531A,105.0703,29.61,内江市,市监测站,,45,36,28,29,24,142,,159,159,19,15,5,5,0.4,0.4
2024-09-05T2200,2532A,105.0717,29.5947,内江市,东兴区政府,,49,39,26,34,20,122,,156,154,30,17,4,4,0.7,0.6
2024-09-05T2200,2533A,105.0653,29.5817,内江市,内江二中,细颗粒物(PM2.5),53,,24,37,26,130,,155,154,20,14,7,7,0.6,0.6
2024-09-05T2200,2534A,105.0406,29.5822,内江市,内江日报社,细颗粒物(PM2.5),55,,28,39,24,114,,158,154,28,18,8,7,0.7,0.5
2024-09-05T2200,2628A,92.0657,31.4846,那曲市,那曲监测站,,48,46,15,33,10,55,,91,79,18,8,7,7,0.6,0.4
2024-09-05T2200,3128A,92.0506,31.4797,那曲市,那曲会议中心,,29,29,12,20,7,67,,101,87,21,8,6,5,0.8,0.5
2024-09-05T2200,1290A,115.8931,28.6843,南昌市,省外办,,44,44,47,29,32,137,,142,142,11,16,9,11,0.7,0.7
2024-09-05T2200,1291A,115.8886,28.7003,南昌市,省林业公司,,48,48,46,24,26,145,,149,149,10,17,6,7,0.8,0.9
2024-09-05T2200,1292A,115.8126,28.7442,南昌市,林科所,,48,36,37,22,23,152,,154,154,16,16,9,9,0.7,0.8
2024-09-05T2200,1294A,115.8518,28.687,南昌市,建工学校,,48,48,41,31,21,144,,151,150,11,10,9,9,0.8,0.8
2024-09-05T2200,1295A,115.8921,28.6424,南昌市,象湖,,50,38,37,24,26,158,,156,156,7,10,4,4,1.0,1.1
2024-09-05T2200,1296A,115.7423,28.7996,南昌市,武术学校,,38,36,31,12,22,120,,126,119,6,10,2,2,0.7,0.7
2024-09-05T2200,1298A,115.9314,28.6842,南昌市,省站,,42,,38,29,30,132,,139,139,8,12,6,8,0.8,0.9
2024-09-05T2200,3046A,115.9084,28.6062,南昌市,机电学校,,47,47,50,27,25,146,,144,144,10,12,8,8,0.5,0.6
2024-09-05T2200,3690A,115.9721,28.7031,南昌市,外国语学校,,47,43,45,25,24,148,,146,146,8,13,6,6,0.6,0.7
2024-09-05T2200,1905A,106.056,30.8064,南充市,西山风景区,,49,,25,34,25,132,,155,150,7,6,3,3,1.1,1
2024-09-05T2200,1906A,106.0789,30.8023,南充市,南充市委,,49,49,43,33,25,104,,159,145,27,16,8,7,0.6,0.5
2024-09-05T2200,1907A,106.1031,30.8217,南充市,南充炼油厂,细颗粒物(PM2.5),62,52,44,44,30,119,,166,157,21,15,9,8,0.6,0.5
2024-09-05T2200,1908A,106.1064,30.7856,南充市,高坪区监测站,细颗粒物(PM2.5),65,69,44,47,30,72,,157,143,43,22,6,7,0.7,0.5
2024-09-05T2200,1909A,106.0642,30.7636,南充市,嘉陵区环保局,细颗粒物(PM2.5),83,77,42,61,25,77,,152,132,35,23,11,6,0.8,0.5
2024-09-05T2200,1910A,106.1087,30.8388,南充市,市环境监测站,细颗粒物(PM2.5),67,63,44,48,28,122,,164,156,20,16,6,5,0.5,0.4
2024-09-05T2200,1151A,118.8086,32.1065,南京市,迈皋桥,,40,35,25,24,18,126,,168,160,26,18,4,4,0.4,0.3
2024-09-05T2200,1152A,118.7538,32.0551,南京市,草场门,,44,44,30,22,17,119,,162,159,25,16,6,6,0.7,0.6
2024-09-05T2200,1153A,118.7794,32.0745,南京市,山西路,,44,44,31,24,18,120,,167,162,20,6,3,4,0.6,0.5
2024-09-05T2200,1154A,118.7752,32.0023,南京市,中华门,,39,39,26,24,16,110,,152,148,30,19,5,5,0.6,0.5
2024-09-05T2200,1155A,118.8109,32.0309,南京市,瑞金路,,39,39,29,24,17,112,,169,164,22,8,4,4,0.6,0.5
2024-09-05T2200,1156A,118.7997,32.0754,南京市,玄武湖,,48,48,33,23,13,108,,164,157,34,12,6,6,0.8,0.7
2024-09-05T2200,1157A,118.6414,32.0931,南京市,浦口,,41,40,33,24,19,130,,147,145,12,13,4,4,0.6,0.5
2024-09-05T2200,1158A,118.7356,31.9996,南京市,奥体中心,,42,36,30,29,20,129,,168,166,21,13,5,5,0.6,0.5
2024-09-05T2200,1159A,118.9125,32.1028,南京市,仙林大学城,细颗粒物(PM2.5),55,53,32,39,25,92,,182,169,41,13,7,8,0.7,0.6
2024-09-05T2200,3422A,118.8436,31.9198,南京市,江宁彩虹桥,,42,41,29,19,17,134,,159,159,13,8,4,5,0.7,0.6
2024-09-05T2200,3423A,119.0138,31.6494,南京市,溧水永阳,,41,39,25,21,17,131,,156,156,17,11,4,4,0.7,0.4
2024-09-05T2200,3424A,118.879,31.3302,南京市,高淳老职中,,50,26,30,24,21,157,,150,149,12,11,7,7,0.6,0.4
2024-09-05T2200,3427A,118.8554,32.3578,南京市,六合雄州,颗粒物(PM10),55,59,44,31,25,127,,158,149,12,16,4,4,0.7,0.6
2024-09-05T2200,1401A,108.3103,22.7881,南宁市,二十一中,,43,37,54,30,31,94,,124,111,17,24,3,9,0.8,0.8
2024-09-05T2200,1402A,108.3141,22.8528,南宁市,北湖,颗粒物(PM10),53,55,53,35,32,58,,117,98,39,30,3,17,0.8,0.9
2024-09-05T2200,1403A,108.3206,22.8225,南宁市,市监测站,,40,30,51,28,32,72,,116,95,37,38,5,14,1.0,0.9
2024-09-05T2200,1404A,108.3829,22.8037,南宁市,大自然花园,,46,32,45,32,33,97,,118,107,20,23,5,8,0.8,0.7
2024-09-05T2200,1405A,108.4394,22.7904,南宁市,仙葫,细颗粒物(PM2.5),58,58,50,41,37,60,,109,95,30,26,11,10,1.1,0.9
2024-09-05T2200,1406A,108.2397,22.8467,南宁市,区农职院,颗粒物(PM10),58,65,51,33,31,40,,123,92,28,16,3,12,0.9,0.8
2024-09-05T2200,1407A,108.3275,22.735,南宁市,英华嘉园,,43,,47,30,31,97,,119,104,17,23,6,9,0.8,0.7
2024-09-05T2200,1408A,108.2257,22.7757,南宁市,沙井镇街道办,颗粒物(PM10),77,103,54,37,29,11,,124,92,59,26,4,4,0.9,0.7
2024-09-05T2200,3401A,108.4834,22.7618,南宁市,红星社区,细颗粒物(PM2.5),65,76,44,47,37,68,,118,104,28,21,15,8,1.0,0.9
2024-09-05T2200,2332A,118.1681,26.6369,南平市,南平市监测站,,17,17,18,9,8,21,,82,47,15,13,5,5,0.7,0.6
2024-09-05T2200,2333A,118.1825,26.6489,南平市,南平铝业有限公司,,25,25,22,11,11,14,,80,47,25,14,10,7,0.6,0.6
2024-09-05T2200,2334A,118.1756,26.6272,南平市,南平七中,,16,16,26,10,11,20,,79,45,13,8,5,5,0.6,0.6
2024-09-05T2200,1168A,120.9098,31.9663,南通市,狼山街道,,42,42,18,11,11,65,,128,102,9,11,6,9,0.4,0.5
2024-09-05T2200,1169A,120.86,32.0005,南通市,虹桥,,20,15,23,9,12,64,,140,106,6,13,6,8,0.5,0.6
2024-09-05T2200,1170A,120.87,32.02,南通市,城中,,23,23,24,11,11,67,,133,105,12,18,6,8,0.9,0.9
2024-09-05T2200,1171A,120.94,31.93,南通市,星湖花园,,19,18,14,6,10,59,,123,96,16,15,5,7,0.5,0.6
2024-09-05T2200,1172A,120.81,32.0417,南通市,紫琅学院,,,8,15,3,9,,,127,112,10,18,8,9,0.5,0.7
2024-09-05T2200,3291A,121.067,32.062,南通市,通州监测站,,22,12,21,9,12,70,,116,95,7,9,3,5,0.6,0.7
2024-09-05T2200,2404A,112.5224,33.0122,南阳市,瓦房庄,,39,39,56,18,28,116,,135,135,9,13,5,6,0.4,0.6
2024-09-05T2200,2405A,112.5003,32.9735,南阳市,汉画馆,,41,41,56,21,32,112,,127,127,10,19,6,6,0.4,0.5
2024-09-05T2200,2406A,112.5573,33.027,南阳市,气象站,,36,33,55,12,22,114,,133,132,9,13,6,6,0.5,0.7
2024-09-05T2200,2407A,112.5481,32.9689,南阳市,理工学院,,36,36,51,7,23,110,,131,130,11,17,5,6,0.4,0.6
2024-09-05T2200,4008A,112.5234,32.9922,南阳市,卧龙区政府,,37,37,54,18,27,111,,128,127,11,17,5,6,0.5,0.6
2024-09-05T2200,1234A,121.8358,29.911,宁波市,区环保大楼,,36,36,26,21,14,30,,99,70,30,22,3,4,0.6,0.6
2024-09-05T2200,1235A,121.56,29.82,宁波市,万里学院,,18,18,22,11,14,56,,95,80,12,14,10,10,0.5,0.6
2024-09-05T2200,1236A,121.713,29.9572,宁波市,龙赛医院,,27,27,28,13,15,41,,111,82,22,20,8,9,0.5,0.6
2024-09-05T2200,1239A,121.633,29.7733,宁波市,钱湖水厂,,18,18,18,11,12,49,,92,80,8,8,8,8,0.3,0.3
2024-09-05T2200,1240A,121.5856,29.8635,宁波市,太古小学,,23,23,21,12,13,47,,107,83,17,14,7,7,0.7,0.8
2024-09-05T2200,1241A,121.524,29.8674,宁波市,市环境监测中心,,21,21,22,10,10,58,,120,90,12,14,5,5,0.6,0.6
2024-09-05T2200,2871A,121.6147,29.9017,宁波市,万里国际学校,,20,20,20,10,13,47,,125,93,18,14,8,7,0.4,0.4
2024-09-05T2200,3710A,121.5594,29.8975,宁波市,白沙活动中心,,21,21,21,13,12,54,,127,95,16,13,8,8,0.4,0.4
2024-09-05T2200,2341A,119.5388,26.6612,宁德市,宁德市监测站,,15,8,19,8,12,46,,82,57,8,12,5,6,0.4,0.5
2024-09-05T2200,3209A,119.5231,26.6562,宁德市,宁德一中,,20,,23,14,15,47,,83,59,3,8,3,5,0.3,0.4
2024-09-05T2200,2618A,98.8601,25.8567,怒江傈僳族自治州,州监测站,,26,26,23,18,15,35,,49,49,8,10,7,7,0.5,0.5
2024-09-05T2200,2619A,98.8546,25.8417,怒江傈僳族自治州,泸水一中,,23,23,22,6,12,36,,46,46,13,13,6,6,0.4,0.4
2024-09-05T2200,1888A,101.6891,26.571,攀枝花市,弄弄坪,,32,32,31,10,12,47,,69,68,21,19,11,12,0.6,0.8
2024-09-05T2200,1889A,101.5769,26.5928,攀枝花市,河门口,,19,19,17,11,11,32,,70,67,23,17,6,9,0.7,1.1
2024-09-05T2200,1890A,101.7169,26.585,攀枝花市,炳草岗,,38,38,24,14,12,17,,65,62,42,24,9,12,1.0,1
2024-09-05T2200,1891A,101.7369,26.5008,攀枝花市,仁和,,28,28,16,16,10,26,,74,64,18,16,4,7,1.0,1
2024-09-05T2200,2835A,101.7227,26.567,攀枝花市,四十中小,,19,19,23,11,14,47,,74,74,26,19,8,15,0.9,1.2
2024-09-05T2200,1604A,122.0303,41.1489,盘锦市,开发区,,20,12,18,10,10,64,,80,77,16,11,6,5,0.3,0.3
2024-09-05T2200,1605A,122.0485,41.0883,盘锦市,兴隆台,,21,6,14,3,9,66,,80,77,20,15,7,7,0.3,0.4
2024-09-05T2200,1606A,121.8297,41.1028,盘锦市,新生街道,,27,17,15,12,8,12,,74,54,54,20,9,6,0.6,0.5
2024-09-05T2200,1832A,113.3257,33.742,平顶山市,新华旅馆,,39,39,61,23,28,91,,117,114,9,12,4,5,0.6,0.7
2024-09-05T2200,1833A,113.2919,33.737,平顶山市,规划设计院,,31,28,43,12,17,97,,121,119,14,16,7,8,0.5,0.5
2024-09-05T2200,1834A,113.182,33.774,平顶山市,平顶山工学院,,36,36,42,14,15,88,,126,119,13,9,7,8,0.7,0.8
2024-09-05T2200,3204A,113.3025,33.73,平顶山市,规划局,,36,36,54,17,21,88,,117,114,11,12,3,4,0.4,0.5
2024-09-05T2200,3594A,112.8867,33.9116,平顶山市,石龙区,,32,32,87,12,17,93,,126,118,12,20,9,10,0.5,0.5
2024-09-05T2200,2656A,106.6692,35.5461,平凉市,聚贤嘉苑,,30,30,22,9,9,69,,101,89,22,12,6,6,0.4,0.4
2024-09-05T2200,2657A,106.7021,35.5307,平凉市,博物馆,,38,38,25,8,8,60,,101,91,32,10,7,7,0.5,0.3
2024-09-05T2200,2347A,114.0997,27.5002,萍乡市,武功山,,27,15,18,3,5,86,,136,122,6,5,9,10,0.3,0.4
2024-09-05T2200,2348A,113.8385,27.6434,萍乡市,中医院,,34,28,48,16,29,108,,133,124,8,9,12,11,0.8,1
2024-09-05T2200,2349A,113.8493,27.6253,萍乡市,市政府车库,细颗粒物(PM2.5),54,51,68,38,33,90,,126,118,15,11,15,16,1.8,1.2
2024-09-05T2200,2350A,113.8676,27.6435,萍乡市,市环保局,,42,37,49,29,34,96,,122,116,8,9,5,14,0.5,0.7
2024-09-05T2200,2351A,113.866,27.6198,萍乡市,安源区政府,颗粒物(PM10),57,64,47,23,26,87,,122,117,18,15,15,15,1.6,0.8
2024-09-05T2200,2319A,119.0141,25.4325,莆田市,荔城区仓后路,,,11,26,3,6,,,52,38,8,6,7,7,0.5,0.5
2024-09-05T2200,2320A,119.0015,25.4553,莆田市,莆田市监测站,,15,15,16,3,4,35,,56,40,4,5,6,6,0.4,0.5
2024-09-05T2200,2321A,119.1119,25.4561,莆田市,涵江区六中,,13,13,17,3,5,37,,53,43,5,6,7,7,0.3,0.4
2024-09-05T2200,2322A,119.1013,25.3215,莆田市,秀屿区政府,,22,22,24,3,5,37,,53,44,6,4,7,7,0.5,0.6
2024-09-05T2200,2392A,115.0312,35.7636,濮阳市,环保局,,25,23,41,13,19,78,,108,97,15,11,7,6,0.4,0.5
2024-09-05T2200,2394A,115.0574,35.7609,濮阳市,油田运输公司,,25,20,38,12,20,77,,110,100,12,9,4,3,0.4,0.5
2024-09-05T2200,2395A,115.0866,35.7754,濮阳市,油田物探公司,,26,26,43,13,23,76,,112,100,12,10,9,7,0.5,0.5
2024-09-05T2200,3021A,115,35.7668,濮阳市,濮水河管理处,,26,21,33,15,22,81,,104,97,11,10,5,4,0.4,0.4
2024-09-05T2200,2601A,100.98,22.7633,普洱市,市环保局,,27,27,25,14,13,11,,49,38,10,8,9,8,0.5,0.4
2024-09-05T2200,2602A,100.9817,22.8322,普洱市,普洱第二中学,,28,28,24,16,11,17,,43,36,12,9,8,8,0.6,0.7
2024-09-05T2200,2262A,131.0518,45.8751,七台河市,新一中,,18,9,9,3,4,57,,56,56,5,6,9,9,0.9,1
2024-09-05T2200,3345A,131.0577,45.7879,七台河市,中波台,,16,16,6,8,9,36,,37,37,20,13,7,8,0.5,0.4
2024-09-05T2200,3637A,131.0176,45.7761,七台河市,人民广场,,22,,10,15,8,23,,40,32,27,14,6,7,0.3,0.3
2024-09-05T2200,3684A,130.8781,45.8222,七台河市,新建矿广场,,19,,4,13,16,41,,39,39,10,11,4,4,0.6,0.5
2024-09-05T2200,1779A,123.9305,47.3636,齐齐哈尔市,安居小区,,24,24,19,3,5,47,,67,56,7,9,9,9,0.3,0.3
2024-09-05T2200,1780A,123.9488,47.3386,齐齐哈尔市,中心广场,,18,18,16,8,7,44,,62,55,10,9,2,2,0.2,0.2
2024-09-05T2200,1781A,123.9483,47.3227,齐齐哈尔市,农牧车辆厂,,29,29,26,10,5,45,,64,55,10,8,8,8,0.2,0.2
2024-09-05T2200,1783A,123.945,47.2988,齐齐哈尔市,市环境监测站,,19,19,19,13,7,39,,63,54,11,8,8,8,0.3,0.3
2024-09-05T2200,3662A,123.6333,47.2075,齐齐哈尔市,富区青少年活动中心,,25,25,24,13,5,44,,63,51,10,13,5,6,0.4,0.4
2024-09-05T2200,2591A,107.9783,26.5747,黔东南苗族侗族自治州,市环境监测站,,42,37,28,29,21,52,,103,88,30,18,3,3,0.8,0.6
2024-09-05T2200,2881A,107.8908,26.5311,黔东南苗族侗族自治州,凯里学院,,30,27,23,21,14,62,,112,101,15,10,2,2,0.7,0.6
2024-09-05T2200,2593A,107.5228,26.2403,黔南布依族苗族自治州,小围寨,,39,31,20,27,12,92,,120,110,8,9,6,5,0.6,0.5
2024-09-05T2200,3538A,107.5175,26.2978,黔南布依族苗族自治州,沙坝,细颗粒物(PM2.5),52,48,27,36,16,78,,119,104,11,7,6,5,0.7,0.6
2024-09-05T2200,2589A,104.9022,25.0925,黔西南布依族苗族自治州,场坝街,细颗粒物(PM2.5),58,45,22,41,13,67,,112,98,19,13,2,16,0.3,0.2
2024-09-05T2200,2590A,104.8811,25.0992,黔西南布依族苗族自治州,坪东大道,,33,23,21,23,11,50,,111,96,21,12,7,9,0.4,0.2
2024-09-05T2200,2502A,108.6236,21.9667,钦州市,市环保站,颗粒物(PM10),58,66,56,29,25,77,,123,98,21,20,12,11,3.0,1.1
2024-09-05T2200,2503A,108.6549,21.9481,钦州市,沙埠小学,颗粒物(PM10),76,102,65,43,31,33,,128,95,46,26,7,7,1.0,1.2
2024-09-05T2200,2504A,108.5989,21.7431,钦州市,港区一小,颗粒物(PM10),83,115,70,46,33,96,,127,107,22,17,7,7,0.8,0.8
2024-09-05T2200,3404A,108.5959,21.9633,钦州市,北职校,颗粒物(PM10),61,71,62,39,32,55,,126,95,23,22,7,8,1.7,1
2024-09-05T2200,1042A,119.5134,39.8207,秦皇岛市,北戴河环保局,,20,18,24,6,9,64,,81,74,15,10,4,2,0.3,0.4
2024-09-05T2200,1043A,119.7493,40.0116,秦皇岛市,第一关,,34,28,22,22,22,2,,62,43,68,23,1,3,0.2,0.3
2024-09-05T2200,1044A,119.5897,39.9499,秦皇岛市,监测站,,30,30,28,20,21,15,,78,60,50,14,3,3,0.5,0.5
2024-09-05T2200,1046A,119.5251,39.9041,秦皇岛市,建设大厦,,38,38,29,14,11,23,,76,60,44,15,2,3,0.3,0.4
2024-09-05T2200,3132A,119.610547,39.943889,秦皇岛市,文明里,,41,41,26,11,13,23,,84,63,49,14,2,2,0.5,0.5
2024-09-05T2200,1307A,120.6659,36.2403,青岛市,仰口,,25,19,24,13,15,79,,117,79,6,6,6,6,0.1,0.3
2024-09-05T2200,1310A,120.4134,36.0658,青岛市,市南区东部子站,,24,19,27,9,11,76,,134,88,10,14,6,8,0.4,0.5
2024-09-05T2200,1311A,120.3664,36.1032,青岛市,四方区子站,,25,22,29,12,13,77,,128,81,13,18,9,12,0.6,0.8
2024-09-05T2200,1312A,120.2994,36.054,青岛市,市南区西部子站,,27,27,31,3,8,73,,116,85,11,14,8,9,0.6,0.8
2024-09-05T2200,1313A,120.4581,36.0858,青岛市,崂山区子站,,26,17,25,9,7,82,,139,94,14,18,8,9,0.5,0.6
2024-09-05T2200,1314A,120.1983,35.9608,青岛市,黄岛区子站,,24,24,29,10,12,64,,131,75,27,21,8,10,0.4,0.6
2024-09-05T2200,1315A,120.3999,36.3083,青岛市,城阳区子站,,26,24,26,7,11,82,,116,82,13,17,7,9,0.5,0.7
2024-09-05T2200,1966A,120.0405,35.8735,青岛市,黄岛区4号,,21,19,30,12,11,66,,136,87,15,15,9,11,0.6,0.7
2024-09-05T2200,3362A,120.5014,36.4034,青岛市,即墨2号,,25,17,26,8,13,79,,123,80,11,16,6,8,0.4,0.5
2024-09-05T2200,3642A,120.3503,36.0736,青岛市,市北区南部,,23,23,29,12,11,69,,110,73,19,22,8,10,0.6,0.7
2024-09-05T2200,3643A,120.3948,36.1805,青岛市,李沧区北部,,28,24,28,19,14,82,,126,83,15,22,8,10,0.5,0.7
2024-09-05T2200,1702A,113.0426,23.691,清远市,环保大楼,,21,21,27,14,20,37,,64,52,14,12,7,8,0.5,0.6
2024-09-05T2200,1703A,113.0208,23.7106,清远市,凤城街办,,19,19,29,9,16,44,,95,70,8,15,6,7,0.5,0.5
2024-09-05T2200,3025A,113.0477,23.6344,清远市,技师学院,,,24,35,14,18,,,92,79,11,19,8,5,0.9,0.8
2024-09-05T2200,3318A,112.9903,23.7403,清远市,清新太和,,20,17,23,9,13,64,,96,84,2,4,6,5,0.7,0.7
2024-09-05T2200,3455A,113.076,23.7198,清远市,清城东城,,14,14,23,9,14,30,,97,72,19,10,8,7,0.5,0.7
2024-09-05T2200,2661A,107.6325,35.7357,庆阳市,庆阳五中,,32,26,19,9,6,101,,99,99,10,5,6,6,0.4,0.4
2024-09-05T2200,2662A,107.6364,35.7067,庆阳市,市环保局,,31,25,20,11,6,99,,97,97,9,7,6,5,0.5,0.4
2024-09-05T2200,1916A,103.7897,25.5035,曲靖市,环境监测站,,29,21,21,12,10,92,,116,111,14,11,3,6,0.6,0.8
2024-09-05T2200,1917A,103.8,25.5364,曲靖市,烟厂办公区,,27,22,23,10,13,86,,114,108,14,13,4,5,0.6,0.8
2024-09-05T2200,3376A,103.7947,25.462,曲靖市,南苑二区,,25,18,20,13,12,79,,118,111,12,11,6,10,0.5,0.6
2024-09-05T2200,3377A,103.7444,25.5261,曲靖市,曲靖师范学院,,27,25,22,16,14,86,,126,118,19,12,19,11,0.5,0.7
2024-09-05T2200,1264A,118.8692,28.9398,衢州市,环保大楼,,38,29,30,18,19,119,,129,119,18,16,2,2,0.5,0.6
2024-09-05T2200,1265A,118.8709,28.9666,衢州市,实验学校,,41,41,32,24,18,109,,129,120,19,12,5,5,0.7,0.7
2024-09-05T2200,1266A,118.8621,28.9808,衢州市,衢州学院,,34,28,27,16,17,108,,117,110,21,15,4,3,0.4,0.5
2024-09-05T2200,1611A,118.5819,24.9117,泉州市,涂山街,,14,14,19,8,10,30,,61,50,8,8,1,1,0.5,0.6
2024-09-05T2200,1612A,118.5972,24.8978,泉州市,津头埔,,,17,23,7,9,,,58,49,11,11,3,3,0.4,0.5
2024-09-05T2200,1613A,118.6663,24.9424,泉州市,万安,,16,16,21,6,10,31,,59,46,3,6,2,2,0.5,0.5
2024-09-05T2200,3529A,118.6333,24.9264,泉州市,城华南路,,23,,18,16,14,26,,57,44,5,6,3,3,0.4,0.4
2024-09-05T2200,2626A,88.8876,29.2718,日喀则市,日喀则监测站,,24,23,9,8,4,74,,102,85,10,6,4,5,0.5,0.4
2024-09-05T2200,3726A,88.8781,29.2426,日喀则市,林业技术推广中心,,32,,4,3,4,102,,115,108,6,6,8,8,0.5,0.5
2024-09-05T2200,1659A,119.471,35.4209,日照市,监测站,,23,9,26,9,18,73,,126,94,13,27,11,11,0.3,0.6
2024-09-05T2200,1660A,119.523,35.4216,日照市,市政府广场,,27,19,28,11,16,84,,134,100,10,21,10,11,0.5,0.7
2024-09-05T2200,1661A,119.5587,35.4044,日照市,港务局,,26,19,32,14,23,83,,139,102,6,20,10,11,0.6,0.9
2024-09-05T2200,3507A,119.5328,35.4625,日照市,职业技术学院,,25,22,28,7,14,77,,131,94,13,22,9,10,0.5,0.8
2024-09-05T2200,3604A,119.3266,35.1044,日照市,岚山环保分局,,31,24,36,7,16,62,,132,99,26,21,21,17,3.1,1.2
2024-09-05T2200,1835A,111.1922,34.7752,三门峡市,市政府,颗粒物(PM10),57,64,42,14,15,113,,118,113,14,10,15,10,0.7,0.5
2024-09-05T2200,1836A,111.1587,34.7942,三门峡市,开发区,,39,39,43,19,15,110,,110,109,12,7,14,10,0.7,0.5
2024-09-05T2200,3039A,111.1911,34.7829,三门峡市,三门峡市第一小学,,44,44,47,3,15,108,,111,111,14,10,15,10,0.7,0.5
2024-09-05T2200,3598A,111.1,34.7167,三门峡市,富达温泉假日酒店,,49,49,52,30,18,92,,116,109,17,11,12,14,0.5,0.4
2024-09-05T2200,2324A,117.6211,26.2625,三明市,三钢,,16,16,18,8,11,31,,77,45,12,10,5,7,0.2,0.2
2024-09-05T2200,2325A,117.635,26.2714,三明市,三明二中,,15,14,17,10,11,29,,77,48,15,9,2,4,0.4,0.3
2024-09-05T2200,2326A,117.6028,26.2378,三明市,三元区政府,,,,25,,13,,,75,37,,17,,4,,0.6
2024-09-05T2200,1876A,109.5078,18.2489,三亚市,河东子站,,35,28,29,24,13,84,,98,91,6,9,3,3,0.4,0.4
2024-09-05T2200,1877A,109.4964,18.2681,三亚市,河西子站,,35,24,22,24,14,74,,87,83,5,8,3,3,0.4,0.4
2024-09-05T2200,3540A,109.7348,18.3443,三亚市,君悦子站,,38,38,25,16,12,31,,81,56,17,13,4,4,0.7,0.3
2024-09-05T2200,2624A,91.7608,29.2313,山南市,山南监测站,,28,13,9,6,4,88,,96,96,5,5,8,8,0.3,0.2
2024-09-05T2200,2625A,91.7706,29.2436,山南市,山南人民医院,,37,37,17,10,8,88,,99,99,9,6,8,8,0.3,0.2
2024-09-05T2200,1674A,116.6794,23.3667,汕头市,金平子站,,18,18,23,8,18,31,,64,50,4,8,4,5,0.4,0.4
2024-09-05T2200,1675A,116.7244,23.3633,汕头市,龙湖子站,,15,15,26,7,9,36,,77,58,2,6,6,7,0.5,0.5
2024-09-05T2200,1676A,116.7258,23.2775,汕头市,濠江子站,,15,12,20,10,12,43,,74,59,6,6,5,6,0.6,0.6
2024-09-05T2200,1677A,116.7519,23.4714,汕头市,澄海子站,,16,15,25,11,12,41,,87,67,8,10,5,5,0.6,0.7
2024-09-05T2200,1678A,116.6092,23.2539,汕头市,潮阳子站,,24,24,22,3,4,45,,78,64,1,3,5,5,0.3,0.3
2024-09-05T2200,3444A,116.454,23.2684,汕头市,潮南峡山,,,17,23,,6,40,,88,75,,3,,6,0.4,0.5
2024-09-05T2200,3624A,116.4069,23.2533,汕头市,潮南子站,,13,13,21,3,10,35,,83,65,6,9,5,6,0.4,0.4
2024-09-05T2200,1693A,115.3653,22.775,汕尾市,市环保局,,16,10,25,7,12,49,,60,57,3,7,6,7,0.4,0.6
2024-09-05T2200,1694A,115.3706,22.7898,汕尾市,市政府,,20,20,23,6,11,46,,58,54,5,10,5,6,0.6,0.6
2024-09-05T2200,1695A,115.3622,22.7925,汕尾市,新城中学,,20,20,25,6,10,48,,60,56,4,7,5,6,0.7,0.8
2024-09-05T2200,2645A,109.9154,33.8715,商洛市,监测站,,41,41,22,14,11,41,,87,75,21,8,1,1,0.6,0.5
2024-09-05T2200,3045A,109.9643,33.8471,商洛市,商州区中学,,38,38,25,14,8,35,,90,76,30,10,5,5,0.6,0.6
2024-09-05T2200,2408A,115.6702,34.4285,商丘市,环境监测站,,22,21,53,9,28,69,,110,101,15,14,4,8,0.6,0.7
2024-09-05T2200,2409A,115.6458,34.4045,商丘市,粮食局,,25,19,59,10,31,78,,120,112,12,10,7,10,0.4,0.4
2024-09-05T2200,2410A,115.6293,34.3948,商丘市,睢阳区环保局,,23,21,60,8,36,73,,116,107,7,9,9,11,0.4,0.5
2024-09-05T2200,3171A,115.6071,34.4465,商丘市,梁园区档案局,,26,15,54,9,30,81,,122,113,8,9,7,10,0.5,0.6
2024-09-05T2200,1141A,121.4,31.238,上海市,普陀,,21,21,24,7,11,48,,114,82,24,16,6,5,0.4,0.4
2024-09-05T2200,1142A,121.478,31.2036,上海市,十五厂,,23,23,23,13,14,50,,106,79,25,15,9,8,0.5,0.5
2024-09-05T2200,1143A,121.467,31.3008,上海市,虹口,,20,15,21,14,12,56,,103,73,16,16,9,9,0.6,0.6
2024-09-05T2200,1144A,121.412,31.1654,上海市,徐汇上师大,,20,20,19,11,12,62,,116,86,18,17,6,6,0.7,0.6
2024-09-05T2200,1145A,121.536,31.2659,上海市,杨浦四漂,,19,19,27,10,12,46,,102,69,24,17,7,7,0.6,0.6
2024-09-05T2200,1147A,121.425,31.2261,上海市,静安监测站,,20,20,23,14,14,51,,112,83,20,14,6,6,0.5,0.5
2024-09-05T2200,1148A,121.703,31.1907,上海市,浦东川沙,,20,20,21,3,10,47,,81,70,25,21,6,7,0.4,0.6
2024-09-05T2200,1149A,121.533,31.2284,上海市,浦东新区监测站,,18,18,19,12,12,49,,99,72,24,16,6,6,0.6,0.6
2024-09-05T2200,1150A,121.577,31.2071,上海市,浦东张江,,23,23,21,8,15,41,,86,66,30,16,6,6,0.8,0.7
2024-09-05T2200,3265A,121.4316,31.3322,上海市,宝山庙行,,19,18,23,11,15,58,,101,74,15,17,7,8,0.5,0.5
2024-09-05T2200,3266A,121.8791,31.4662,上海市,崇明上实东滩,,23,14,14,9,11,72,,88,80,3,4,9,9,0.7,0.7
2024-09-05T2200,3268A,121.3162,31.2838,上海市,嘉定南翔,,16,16,22,11,13,51,,118,81,18,18,7,7,0.5,0.5
2024-09-05T2200,3269A,121.3359,30.7456,上海市,金山新城,,20,14,13,11,11,64,,91,83,13,10,5,6,0.6,0.6
2024-09-05T2200,3270A,121.4996,31.0739,上海市,闵行浦江,,21,21,23,13,16,60,,109,82,18,18,6,6,0.8,0.7
2024-09-05T2200,3271A,121.2886,31.1663,上海市,青浦徐泾,,27,27,26,9,13,58,,132,98,17,17,6,8,0.6,0.5
2024-09-05T2200,3272A,121.2186,31.0378,上海市,松江图书馆,,20,20,24,10,14,61,,122,97,16,18,6,7,0.5,0.6
2024-09-05T2200,3273A,121.3902,31.2059,上海市,长宁仙霞,,20,18,22,10,12,61,,114,86,18,16,9,9,0.7,0.7
2024-09-05T2200,3274A,121.7965,31.0507,上海市,浦东惠南,,18,16,17,10,13,57,,86,70,11,10,8,9,0.6,0.6
2024-09-05T2200,3544A,121.4891,30.925,上海市,奉贤南桥新城,,21,21,20,14,15,33,,95,76,33,17,9,9,0.6,0.6
2024-09-05T2200,2381A,118.005,28.4572,上饶市,百草园,细颗粒物(PM2.5),54,38,31,38,18,101,,129,119,12,10,4,2,0.9,0.9
2024-09-05T2200,2382A,117.9756,28.4436,上饶市,市监测站,,38,38,34,18,20,96,,145,126,16,11,9,4,0.7,0.7
2024-09-05T2200,2383A,117.9519,28.4628,上饶市,凤凰光学,,33,33,31,19,17,89,,138,122,17,13,16,13,1.0,1
2024-09-05T2200,3413A,118.1953,28.4401,上饶市,广丰区教体局,,38,30,31,12,16,121,,129,121,10,11,13,12,0.5,0.5
2024-09-05T2200,3685A,117.897,28.4315,上饶市,双创科技城,,34,34,34,20,16,97,,134,122,12,12,8,12,0.6,0.7
2024-09-05T2200,1669A,113.5824,24.7733,韶关市,市八中,,18,17,29,10,19,55,,85,75,8,7,12,12,0.6,0.6
2024-09-05T2200,1671A,113.5917,24.7972,韶关市,园林处,,20,14,26,9,21,63,,88,82,5,6,9,10,0.5,0.6
2024-09-05T2200,1672A,113.6735,24.7791,韶关市,韶关学院,,20,20,28,14,19,48,,87,75,14,13,17,19,0.4,0.4
2024-09-05T2200,1673A,113.5971,24.6863,韶关市,曲江监测站,,33,33,37,16,20,43,,84,68,18,14,17,14,0.8,0.9
2024-09-05T2200,3622A,113.5556,24.8082,韶关市,碧湖山庄,,21,13,36,8,24,67,,90,84,4,5,11,13,0.3,0.4
2024-09-05T2200,2462A,111.5239,27.3033,邵阳市,市水土所,,39,31,42,27,30,86,,112,48,4,6,6,5,1.0,1
2024-09-05T2200,2463A,111.4733,27.2317,邵阳市,市一中,,48,48,49,29,29,46,,120,78,18,11,9,8,0.9,0.8
2024-09-05T2200,2464A,111.5283,27.2442,邵阳市,市化工厂,,39,34,49,27,35,99,,119,93,8,11,8,9,0.8,0.8
2024-09-05T2200,2465A,111.4503,27.2537,邵阳市,市罐头厂,,41,41,42,28,31,30,,118,71,15,10,4,5,0.7,0.7
2024-09-05T2200,2466A,111.4328,27.2272,邵阳市,市环保局,,,54,48,32,32,,,115,86,15,9,11,7,0.7,0.4
2024-09-05T2200,1247A,120.6053,29.9928,绍兴市,城东开发委,,32,32,26,18,16,59,,133,116,20,12,8,7,0.5,0.5
2024-09-05T2200,2921A,120.5483,30.0003,绍兴市,树下王站,,30,30,22,18,15,63,,137,123,15,8,5,5,0.7,0.7
2024-09-05T2200,3408A,120.5683,29.9361,绍兴市,绍兴中专,,29,27,22,20,16,74,,142,130,16,10,3,2,0.7,0.7
2024-09-05T2200,3409A,120.4906,30.0861,绍兴市,柯桥区政府,,32,32,29,20,18,57,,138,116,20,14,6,6,0.6,0.5
2024-09-05T2200,3410A,120.8752,30.0249,绍兴市,重华小学,,25,25,25,16,16,70,,143,118,15,13,7,7,0.5,0.6
2024-09-05T2200,3411A,120.8369,30.0137,绍兴市,上虞中学,,22,19,25,14,14,70,,133,112,6,8,5,6,0.6,0.6
2024-09-05T2200,3560A,120.4722,30.0415,绍兴市,柯桥妇保,,32,32,30,17,18,66,,148,132,16,13,8,7,0.4,0.4
2024-09-05T2200,3658A,120.6153,30.0764,绍兴市,袍江中学,,26,25,26,18,15,58,,143,120,19,14,6,5,0.6,0.6
