timepoint,stationcode,longitude,latitude,area,positionname,primarypollutant,aqi,pm10,pm10_24h,pm2_5,pm2_5_24h,o3,o3_24h,o3_8h,o3_8h_24h,no2,no2_24h,so2,so2_24h,co,co_24h
2025-06-30T1300,2566A,102.1879,31.914,阿坝藏族羌族自治州,州农科所,,22,9,27,3,8,68,,40,40,4,11,12,13,0.5,0.6
2025-06-30T1300,2568A,102.2502,31.8896,阿坝藏族羌族自治州,马师校,,27,11,20,10,17,85,,46,46,6,7,6,6,0.4,0.5
2025-06-30T1300,3994A,102.2165,31.9024,阿坝藏族羌族自治州,马尔康中学西区,,29,12,16,10,16,91,,52,52,4,4,6,6,0.6,0.6
2025-06-30T1300,2695A,80.292,41.1694,阿克苏地区,电视台,颗粒物(PM10),54,57,91,13,23,125,,101,95,6,20,7,7,0.4,0.4
2025-06-30T1300,2696A,80.2613,41.1551,阿克苏地区,艺术中心,颗粒物(PM10),57,63,105,24,31,140,,110,107,2,13,3,3,0.3,0.4
2025-06-30T1300,2204A,105.6467,38.8363,阿拉善盟,西城区西花园,,44,7,23,3,13,138,,130,130,6,8,5,5,0.6,0.6
2025-06-30T1300,2205A,105.6985,38.8411,阿拉善盟,蒙二幼,,40,18,38,7,11,126,,118,118,6,7,7,7,0.5,0.5
2025-06-30T1300,2206A,105.724,38.8516,阿拉善盟,环保局新楼,,39,14,31,6,10,124,,118,118,5,5,9,9,0.5,0.6
2025-06-30T1300,2708A,88.1264,47.8517,阿勒泰地区,市站,,32,22,15,3,4,101,,80,80,11,9,2,1,0.3,0.3
2025-06-30T1300,2630A,80.1161,32.5,阿里地区,阿里监测站,,37,6,8,3,3,116,,108,103,3,6,3,3,0.3,0.3
2025-06-30T1300,3192A,80.0903,32.5028,阿里地区,阿里藏医院,,37,6,16,3,4,117,,114,110,1,2,4,6,0.4,0.4
2025-06-30T1300,2642A,109.0318,32.6537,安康市,香溪洞,,,,21,,17,,,,,,4,,5,,1
2025-06-30T1300,2644A,109.0072,32.6975,安康市,汉滨区检察院,,22,6,22,3,10,69,,63,53,6,8,5,11,0.5,0.4
2025-06-30T1300,4054A,109.0325,32.6913,安康市,市邮政管理局,,,,23,10,10,73,,68,55,5,8,4,6,0.4,0.6
2025-06-30T1300,2291A,117.0809,30.5177,安庆市,环科院,,26,17,22,12,14,81,,33,33,5,25,3,3,0.5,0.5
2025-06-30T1300,2292A,117.0331,30.5119,安庆市,马山宾馆,,29,11,19,9,14,90,,42,42,11,21,4,4,0.5,0.5
2025-06-30T1300,2294A,116.9896,30.6145,安庆市,安庆大学,,42,24,25,16,16,132,,60,60,7,14,3,3,0.4,0.5
2025-06-30T1300,3173A,117.0598,30.5351,安庆市,市人大,,32,18,22,10,15,102,,47,47,5,20,3,3,0.4,0.5
2025-06-30T1300,3122A,105.9606,26.2611,安顺市,伍家关,,,,8,7,7,39,,43,40,3,3,4,4,0.4,0.4
2025-06-30T1300,3123A,105.9408,26.2431,安顺市,凤凰山,,12,12,12,8,12,36,,43,37,7,6,2,3,0.5,0.5
2025-06-30T1300,3124A,105.9439,26.2564,安顺市,金钟山,,13,13,12,7,8,40,,45,41,5,4,4,4,0.5,0.5
2025-06-30T1300,3125A,105.8983,26.2481,安顺市,娄家坡,,11,8,8,3,6,35,,46,38,4,3,3,4,0.6,0.6
2025-06-30T1300,1818A,114.4839,36.0621,安阳市,棉研所,,,,,,,,,,,,,,,,
2025-06-30T1300,1819A,114.3551,36.1017,安阳市,红庙街,,31,28,27,15,13,97,,69,69,2,2,2,2,0.3,0.4
2025-06-30T1300,1820A,114.361,36.0681,安阳市,银杏小区,,39,39,30,16,19,102,,75,75,2,5,2,2,0.3,0.4
2025-06-30T1300,3141A,114.3922,36.0878,安阳市,信访局,,34,28,27,16,13,108,,77,77,2,3,1,2,0.5,0.6
2025-06-30T1300,3669A,114.4705,36.0637,安阳市,左辅环卫站,,30,25,28,13,18,94,,59,59,2,5,5,5,0.5,0.5
2025-06-30T1300,3703A,114.2917,36.0949,安阳市,安钢职工学校,,41,41,29,13,14,101,,73,73,1,4,3,4,0.5,0.5
2025-06-30T1300,1748A,123.044,41.1196,鞍山市,深沟寺,,20,10,11,8,6,63,,43,42,8,6,5,5,1.1,0.7
2025-06-30T1300,1749A,123.011,41.0931,鞍山市,太阳城,,21,7,2,3,2,67,,45,45,9,7,6,5,1.2,0.7
2025-06-30T1300,1750A,123.0485,41.1442,鞍山市,太平,,27,27,12,12,6,78,,57,55,9,6,6,5,1.3,0.7
2025-06-30T1300,1751A,122.9642,41.0971,鞍山市,铁西三道街,,24,20,27,11,5,75,,59,50,13,11,6,6,1.1,0.8
2025-06-30T1300,1753A,123.022,41.0821,鞍山市,明达新区,,,8,7,,2,67,,50,44,6,5,5,6,0.8,0.7
2025-06-30T1300,1754A,123.1289,41.0228,鞍山市,千山,,,,,,,,,,,,,,,,
2025-06-30T1300,4201A,122.9446,41.0826,鞍山市,兴盛南路290号,,20,18,9,9,5,64,,50,39,12,14,4,4,0.7,0.6
2025-06-30T1300,2195A,107.4212,40.761,巴彦淖尔市,附二中,,42,7,33,7,16,134,,114,114,6,8,6,7,0.6,0.7
2025-06-30T1300,2196A,107.37,40.7372,巴彦淖尔市,市环保大楼,,40,27,69,8,23,127,,109,109,8,11,8,8,0.4,0.5
2025-06-30T1300,1956A,86.1472,41.7538,巴音郭楞蒙古自治州,孔雀公园,,37,37,62,8,23,108,,97,95,8,11,2,5,0.2,0.2
2025-06-30T1300,1957A,86.1972,41.7166,巴音郭楞蒙古自治州,棉纺厂,颗粒物(PM10),79,107,79,12,15,114,,102,98,7,11,4,4,0.2,0.2
2025-06-30T1300,1958A,86.2357,41.7173,巴音郭楞蒙古自治州,经济开发区,,48,48,53,3,13,118,,106,102,3,4,3,2,0.1,0.1
2025-06-30T1300,2914A,106.7677,31.8794,巴中市,苏山坪,,17,7,13,6,10,53,,69,68,6,6,4,5,0.3,0.3
2025-06-30T1300,3181A,106.7768,31.8526,巴中市,市五中,,16,10,17,8,12,51,,61,61,9,9,7,8,0.5,0.5
2025-06-30T1300,3183A,106.7418,31.8654,巴中市,圣泉水务公司,,19,7,14,6,11,58,,70,70,9,9,6,6,0.6,0.6
2025-06-30T1300,3616A,106.7616,31.8344,巴中市,市中心医院,,16,10,15,3,6,49,,53,53,6,9,7,7,0.5,0.4
2025-06-30T1300,2235A,122.7911,45.6077,白城市,洮北区环保局,,34,18,30,14,26,107,,83,83,5,9,6,6,0.2,0.3
2025-06-30T1300,2236A,122.8738,45.5725,白城市,市环保局,,31,17,28,14,22,98,,76,76,2,7,4,5,0.6,0.6
2025-06-30T1300,2231A,126.4219,41.9171,白山市,喜丰,,16,14,26,7,11,49,,28,28,4,13,5,6,0.7,0.8
2025-06-30T1300,2232A,126.4077,41.9419,白山市,环保局,,17,9,30,3,11,53,,32,32,6,10,2,2,0.6,0.7
2025-06-30T1300,2647A,104.1724,36.5446,白银市,第三小学,,38,16,21,9,19,120,,75,75,4,7,7,12,0.6,0.7
2025-06-30T1300,2648A,104.1465,36.5482,白银市,动力公司,,35,20,20,15,22,110,,65,65,6,8,8,8,0.5,0.7
2025-06-30T1300,2512A,106.6103,23.9011,百色市,市监测站,,30,30,26,15,12,68,,40,40,8,11,11,10,0.5,0.5
2025-06-30T1300,2513A,106.6538,23.8859,百色市,市中心血站,,28,28,25,12,13,66,,40,40,8,11,8,9,0.7,0.7
2025-06-30T1300,3406A,106.6085,23.8798,百色市,祈福高中,,25,25,31,14,14,65,,36,36,8,13,10,9,0.5,0.5
2025-06-30T1300,2270A,117.396,32.939,蚌埠市,工人疗养院,,31,13,14,3,3,97,,73,73,2,3,4,3,0.3,0.3
2025-06-30T1300,2271A,117.3605,32.9427,蚌埠市,百货大楼,,29,14,18,3,5,90,,66,66,4,7,5,5,0.3,0.4
2025-06-30T1300,2273A,117.4185,32.8911,蚌埠市,蚌埠学院,,33,12,10,8,5,105,,73,73,1,2,6,5,0.4,0.3
2025-06-30T1300,2274A,117.3533,32.9673,蚌埠市,淮上区政府,,31,17,12,6,6,98,,73,73,1,5,5,5,0.4,0.4
2025-06-30T1300,2275A,117.3145,32.8977,蚌埠市,高新区,,29,12,15,3,5,90,,65,65,2,7,5,5,0.4,0.5
2025-06-30T1300,3715A,117.3092,32.9314,蚌埠市,蚌埠田家炳中学,,28,14,18,6,8,88,,62,62,3,6,6,7,0.2,0.3
2025-06-30T1300,1585A,109.8756,40.6532,包头市,市环境监测站,,38,38,35,22,17,96,,118,112,23,23,9,10,0.9,0.4
2025-06-30T1300,1587A,109.9991,40.5842,包头市,包头八中,,35,35,41,22,15,94,,107,106,28,19,9,13,1.2,0.8
2025-06-30T1300,1588A,109.8538,40.6821,包头市,青山宾馆,,32,32,29,15,11,101,,121,114,22,21,6,8,0.5,0.4
2025-06-30T1300,1589A,109.8642,40.6288,包头市,惠龙物流,,30,30,33,14,16,87,,117,112,33,20,8,8,1.4,0.6
2025-06-30T1300,1590A,110.0377,40.5546,包头市,东河鸿龙湾,,28,26,36,16,16,89,,108,108,27,20,7,12,1.0,0.6
2025-06-30T1300,3283A,109.9154,40.5685,包头市,滨河大厦,,31,25,30,7,14,97,,118,117,27,16,10,11,1.3,0.6
2025-06-30T1300,3419A,109.9447,40.6261,包头市,包头市委党校,,43,43,31,11,15,91,,116,112,26,18,9,12,1.0,0.6
2025-06-30T1300,3683A,109.8331,40.6576,包头市,昆区政府,,42,42,36,16,14,96,,116,110,23,20,7,7,0.9,0.7
2025-06-30T1300,1930A,107.185,34.3063,宝鸡市,庙沟村,,39,10,16,3,8,123,,96,90,5,7,5,5,0.2,0.3
2025-06-30T1300,1931A,107.0708,34.3017,宝鸡市,竹园沟,,40,,20,3,10,126,,89,89,3,6,6,6,0.4,0.4
2025-06-30T1300,1932A,107.1906,34.3672,宝鸡市,三陆医院,,,20,24,,11,119,,71,71,6,14,6,5,0.5,0.5
2025-06-30T1300,1933A,107.1431,34.3547,宝鸡市,监测站,,38,20,27,8,13,121,,79,79,6,9,7,7,0.2,0.2
2025-06-30T1300,1934A,107.1186,34.3739,宝鸡市,技工学校,,40,23,21,3,12,128,,82,82,2,4,7,8,0.4,0.4
2025-06-30T1300,1935A,107.3906,34.3528,宝鸡市,陈仓区环保局家属楼,,31,11,24,10,16,98,,79,72,10,9,6,7,0.4,0.4
2025-06-30T1300,1936A,107.2058,34.3497,宝鸡市,文理学院,,38,24,25,12,14,119,,86,86,7,8,6,6,0.4,0.4
2025-06-30T1300,1937A,107.2386,34.3622,宝鸡市,三迪小学,,35,31,25,9,15,110,,78,78,10,11,6,6,0.4,0.4
2025-06-30T1300,1051A,115.493,38.8632,保定市,游泳馆,,48,39,35,33,24,134,,68,68,8,11,4,4,0.3,0.2
2025-06-30T1300,1052A,115.5213,38.8959,保定市,华电二区,臭氧1小时,57,46,37,16,22,165,,99,99,8,11,1,2,0.6,0.6
2025-06-30T1300,1053A,115.4713,38.9108,保定市,接待中心,细颗粒物(PM2.5),54,48,44,38,25,157,,94,94,4,8,3,3,0.4,0.3
2025-06-30T1300,1054A,115.4612,38.8416,保定市,地表水厂,臭氧1小时,62,51,51,25,18,169,,98,98,9,13,3,3,0.7,0.6
2025-06-30T1300,3581A,115.31981,38.95208,保定市,满城区生态环境分局,,45,44,49,31,29,143,,81,81,3,12,2,2,0.3,0.3
2025-06-30T1300,3582A,115.47694,38.76408,保定市,清苑区第二中学,,45,42,49,30,29,142,,80,80,2,6,3,3,0.4,0.4
2025-06-30T1300,3583A,115.62909,39.02311,保定市,徐水物探局,,46,36,42,29,23,146,,71,71,3,10,3,3,0.5,0.4
2025-06-30T1300,4004A,115.4202,38.8656,保定市,双鹰农机,,50,35,27,33,22,160,,87,87,8,12,2,2,0.3,0.3
2025-06-30T1300,4034A,115.5150,38.8590,保定市,植保所站,臭氧1小时,67,40,38,15,21,173,,99,99,14,15,3,3,0.4,0.3
2025-06-30T1300,2594A,99.1678,25.1081,保山市,市环境监测站,,15,11,13,3,13,45,,33,33,4,6,8,8,0.3,0.4
2025-06-30T1300,2595A,99.1711,25.1328,保山市,市环保局,,18,7,14,3,7,55,,42,42,3,4,6,6,0.4,0.3
2025-06-30T1300,1866A,109.2262,21.588,北海市,牛尾岭水库,,,6,10,3,6,74,,54,54,,4,3,4,0.4,0.4
2025-06-30T1300,1867A,109.1436,21.4086,北海市,海滩公园,,19,10,19,3,3,60,,45,44,5,5,2,2,0.5,0.6
2025-06-30T1300,1868A,109.0981,21.4661,北海市,新市环保局,,19,13,10,9,7,58,,50,44,8,4,2,2,0.4,0.4
2025-06-30T1300,1869A,109.1778,21.5233,北海市,北海工业园,,21,12,22,10,8,66,,45,45,6,6,3,3,0.6,0.6
2025-06-30T1300,3400A,109.1911,21.4415,北海市,龙潭自来水厂,,22,14,11,6,8,69,,45,45,3,4,3,3,0.4,0.4
2025-06-30T1300,1001A,116.3621,39.8784,北京市,万寿西宫,臭氧1小时,62,,40,26,37,169,,114,114,9,16,3,3,0.5,0.6
2025-06-30T1300,1002A,116.2202,40.2915,北京市,定陵,臭氧1小时,65,,35,30,34,172,,106,106,2,3,3,4,0.6,0.6
2025-06-30T1300,1003A,116.4174,39.9289,北京市,东四,臭氧1小时,89,30,38,20,27,191,,124,124,11,16,3,3,0.5,0.6
2025-06-30T1300,1004A,116.4072,39.8863,北京市,天坛,臭氧1小时,53,34,44,21,35,162,,99,99,7,14,3,3,0.6,0.7
2025-06-30T1300,1005A,116.462,39.9365,北京市,农展馆,臭氧1小时,62,36,46,29,41,169,,112,112,9,13,4,4,1.0,1.1
2025-06-30T1300,1006A,116.3392,39.9295,北京市,官园,臭氧1小时,65,31,44,20,38,172,,114,114,11,15,3,3,0.6,0.5
2025-06-30T1300,1007A,116.2878,39.9611,北京市,海淀万柳,臭氧1小时,68,41,44,29,38,174,,94,94,10,19,4,3,0.6,0.7
2025-06-30T1300,1008A,116.6636,40.135,北京市,顺义新城,,42,11,60,7,41,133,,76,76,7,12,3,4,0.1,0.2
2025-06-30T1300,1009A,116.6275,40.3275,北京市,怀柔镇,细颗粒物(PM2.5),64,48,40,46,34,130,,84,83,9,10,1,2,0.6,0.6
2025-06-30T1300,1010A,116.2296,40.217,北京市,昌平镇,臭氧1小时,59,50,45,28,28,167,,104,104,10,10,5,4,0.7,0.8
2025-06-30T1300,1011A,116.3966,39.9821,北京市,奥体中心,臭氧1小时,62,30,38,16,27,169,,106,106,7,11,2,3,0.5,0.7
2025-06-30T1300,3281A,115.9718,40.4529,北京市,延庆夏都,,45,19,33,15,29,141,,109,109,4,6,4,4,0.6,0.7
2025-06-30T1300,3418A,116.8336,40.4095,北京市,密云新城,细颗粒物(PM2.5),63,55,29,45,21,116,,85,85,5,4,1,1,0.7,0.6
2025-06-30T1300,3671A,116.088,39.9726,北京市,门头沟三家店,臭氧1小时,64,29,44,22,33,171,,105,105,7,13,3,3,0.6,0.8
2025-06-30T1300,3672A,116.1541,39.8204,北京市,丰台云岗,臭氧1小时,52,30,44,18,33,161,,101,101,4,9,2,2,0.4,0.5
2025-06-30T1300,3673A,116.6804,39.9081,北京市,通州东关,,50,32,51,28,42,157,,102,102,8,10,2,2,0.6,0.9
2025-06-30T1300,3674A,115.9577,39.7603,北京市,房山燕山,细颗粒物(PM2.5),59,,38,42,34,151,,87,87,7,10,1,1,0.5,0.5
2025-06-30T1300,3675A,116.4672,39.7733,北京市,大兴旧宫,,49,26,37,19,27,154,,104,104,6,13,2,2,0.7,0.7
2025-06-30T1300,3694A,115.986,40.4563,北京市,延庆石河营,,44,15,33,13,26,140,,108,108,5,7,2,2,0.5,0.6
2025-06-30T1300,3695A,116.6151,40.3053,北京市,怀柔新城,,46,36,37,32,33,115,,73,73,5,6,2,1,1.0,1
2025-06-30T1300,3696A,116.2545,39.8768,北京市,丰台小屯,,49,33,45,33,38,156,,91,91,2,8,2,2,0.5,0.6
2025-06-30T1300,3697A,116.84,40.3844,北京市,密云镇,细颗粒物(PM2.5),68,53,31,49,26,111,,68,68,5,8,4,3,0.7,0.7
2025-06-30T1300,4182A,116.1942,39.9158,北京市,八角北路9号,臭氧1小时,57,44,52,19,34,165,,92,92,7,20,1,1,0.4,0.6
2025-06-30T1300,4194A,117.0790,40.1518,北京市,洳河巡河路,细颗粒物(PM2.5),60,55,58,43,42,149,,93,93,1,2,2,2,0.6,0.8
2025-06-30T1300,1761A,123.8275,41.3064,本溪市,大峪,,19,6,8,3,4,58,,30,30,11,8,6,6,0.3,0.3
2025-06-30T1300,1762A,123.7567,41.3325,本溪市,溪湖,,20,15,15,6,6,38,,36,36,18,12,7,6,2.0,1
2025-06-30T1300,1763A,123.7169,41.3094,本溪市,彩屯,,20,20,20,9,11,48,,39,39,18,21,7,9,1.3,1.8
2025-06-30T1300,1764A,123.7669,41.2864,本溪市,东明,,19,10,13,3,7,60,,56,56,8,7,5,5,0.6,0.6
2025-06-30T1300,1765A,123.7992,41.2664,本溪市,新立屯,,21,6,12,3,3,65,,62,62,9,6,4,4,0.5,0.5
2025-06-30T1300,1766A,123.8142,41.3472,本溪市,威宁,,,,53,1,6,56,,24,24,9,10,6,6,0.4,0.4
2025-06-30T1300,2587A,105.2864,27.3125,毕节市,八中,,20,,18,12,13,62,,57,57,9,9,6,5,0.5,0.4
2025-06-30T1300,2588A,105.31,27.2944,毕节市,师专,,21,11,20,3,11,67,,59,59,11,13,4,4,0.5,0.4
2025-06-30T1300,4263A,105.3688,27.3598,毕节市,工业大道,,22,6,16,3,10,70,,60,60,14,12,6,6,0.6,0.6
2025-06-30T1300,1629A,118.0018,37.3617,滨州市,第二水厂,,44,27,31,17,20,138,,84,84,3,11,3,2,0.5,0.6
2025-06-30T1300,1630A,117.9776,37.393,滨州市,北中新校,,45,27,29,22,20,141,,81,81,3,10,6,6,0.5,0.6
2025-06-30T1300,3514A,117.9378,37.3956,滨州市,中海酒店,,47,,25,27,22,149,,90,90,9,16,10,9,0.7,0.7
2025-06-30T1300,3515A,117.9378,37.3553,滨州市,开发区一中,,42,29,29,22,21,132,,72,72,9,17,13,11,0.5,0.5
2025-06-30T1300,3516A,118.0917,37.694,滨州市,金海六路,,37,15,29,7,15,117,,84,84,5,18,8,10,0,0.2
2025-06-30T1300,4028A,117.9956,37.3753,滨州市,滨州市西街道办事处,,48,22,25,14,20,151,,92,92,4,8,5,4,0.5,0.5
2025-06-30T1300,2311A,115.8072,33.8399,亳州市,污水处理厂,,,,4,5,6,89,,60,60,3,7,4,4,0.3,0.3
2025-06-30T1300,2312A,115.7789,33.8518,亳州市,三国揽胜宫,,28,19,15,3,6,88,,63,63,4,7,3,3,0.3,0.3
2025-06-30T1300,3332A,115.7633,33.8034,亳州市,亳州学院,,30,6,5,3,5,96,,64,64,2,7,2,2,0.3,0.3
2025-06-30T1300,2693A,82.0485,44.8556,博尔塔拉蒙古自治州,市党校,,33,19,22,9,14,105,,87,86,8,11,3,3,0.1,0.1
2025-06-30T1300,2694A,82.0806,44.8969,博尔塔拉蒙古自治州,市环保局,,32,14,31,9,10,101,,85,84,4,10,1,2,0.1,0.2
2025-06-30T1300,1071A,116.8842,38.2991,沧州市,沧县城建局,,36,24,30,20,20,114,,70,70,7,14,1,2,0.3,0.5
2025-06-30T1300,1072A,116.8584,38.3254,沧州市,电视转播站,,39,,35,27,25,93,,59,59,8,13,4,7,0.3,0.4
2025-06-30T1300,1073A,116.8709,38.3228,沧州市,市环保局,,38,37,42,26,28,94,,63,63,8,13,3,3,0.3,0.4
2025-06-30T1300,3324A,116.8136,38.3004,沧州市,河北水利电力学院,,41,31,31,22,26,130,,82,82,6,13,3,4,0.2,0.3
2025-06-30T1300,2622A,97.1806,31.1273,昌都市,昌都监测站,,35,32,32,22,22,111,,78,78,3,8,6,6,0.2,0.3
2025-06-30T1300,3719A,97.1714,31.1406,昌都市,昌都会议中心,,39,27,43,18,27,124,,87,87,4,6,6,6,0.2,0.2
2025-06-30T1300,2690A,88.1236,43.8886,昌吉回族自治州,天山天池,,37,28,14,10,6,116,,85,85,16,7,7,5,0.9,0.6
2025-06-30T1300,2692A,87.2717,44.0297,昌吉回族自治州,新区政务中心,颗粒物(PM10),55,59,34,17,9,119,,70,70,6,15,4,4,0.3,0.4
2025-06-30T1300,3613A,87.3095,44.0142,昌吉回族自治州,亚心广场,颗粒物(PM10),53,56,47,9,10,108,,66,66,8,21,8,9,0.2,0.5
2025-06-30T1300,1120A,125.2863,43.9027,长春市,客车厂,,20,20,36,9,24,50,,49,36,23,23,3,4,0.4,0.5
2025-06-30T1300,1121A,125.2841,43.8463,长春市,邮电学院,,17,11,32,7,20,52,,35,29,8,19,5,5,0.5,0.7
2025-06-30T1300,1122A,125.3716,43.8772,长春市,劳动公园,,12,11,44,3,20,37,,40,26,14,20,4,5,0.5,0.7
2025-06-30T1300,1123A,125.3297,43.8805,长春市,园林处,,16,16,36,3,19,48,,48,41,11,19,4,4,0.5,0.7
2025-06-30T1300,1124A,125.4605,43.79,长春市,净月潭,,,,39,,20,,,91,,,13,,5,,0.6
2025-06-30T1300,1125A,125.7194,43.515,长春市,甩湾子,,16,,26,6,14,51,,34,34,5,33,1,1,0.9,0.8
2025-06-30T1300,1126A,125.3863,43.8447,长春市,经开区环卫处,,14,9,46,3,16,42,,40,30,9,20,5,5,0.3,0.6
2025-06-30T1300,1127A,125.245,43.7783,长春市,高新区管委会,,18,7,32,3,19,57,,31,31,8,21,2,3,0.4,0.5
2025-06-30T1300,1128A,125.1761,43.8325,长春市,岱山公园,,18,15,45,6,24,36,,30,25,35,34,2,3,0.4,0.5
2025-06-30T1300,4281A,125.3346,43.9164,长春市,北亚泰大街1068号,,19,16,40,10,24,58,,52,42,17,24,2,3,0.6,0.8
2025-06-30T1300,1335A,113.0833,28.2325,长沙市,经开区环保局,,32,24,21,10,11,101,,53,53,4,8,6,5,0.3,0.3
2025-06-30T1300,1336A,112.8872,28.2189,长沙市,高开区环保局,,35,33,24,10,10,111,,58,58,4,6,4,3,0.6,0.5
2025-06-30T1300,1337A,113.0792,28.2053,长沙市,马坡岭,,30,22,22,11,13,96,,54,54,2,6,6,5,0.4,0.5
2025-06-30T1300,1338A,112.9394,28.19,长沙市,湖南师范大学,,31,31,22,11,12,93,,55,55,3,7,2,2,0.4,0.4
2025-06-30T1300,1339A,113.0178,28.1322,长沙市,雨花区环保局,,30,22,21,8,9,94,,52,52,2,6,6,6,0.1,0.1
2025-06-30T1300,1340A,112.9792,28.2597,长沙市,伍家岭,,32,28,24,6,10,102,,58,58,2,5,4,3,0.4,0.4
2025-06-30T1300,1341A,113.0014,28.1944,长沙市,火车新站,,29,22,22,9,8,91,,52,52,3,6,8,7,0.4,0.5
2025-06-30T1300,1342A,112.9844,28.1178,长沙市,天心区环保局,,32,18,21,7,10,102,,59,59,5,9,2,3,0,0
2025-06-30T1300,1343A,112.8908,28.1308,长沙市,湖南中医药大学,,34,34,22,9,10,106,,58,58,2,6,7,5,0.7,0.5
2025-06-30T1300,1344A,112.9581,28.3611,长沙市,沙坪,,35,19,18,10,7,109,,60,60,6,9,7,5,0.4,0.4
2025-06-30T1300,1727A,113.1147,36.1547,长治市,清华站,,38,22,25,19,15,120,,79,79,9,11,6,6,0.8,0.8
2025-06-30T1300,1730A,113.0886,36.2125,长治市,审计局,,39,26,23,17,16,122,,80,80,8,12,9,9,0.8,0.9
2025-06-30T1300,1731A,113.0844,36.1856,长治市,长治八中,,40,32,27,18,23,128,,81,81,6,10,11,11,0.6,0.8
2025-06-30T1300,2845A,113.1569,36.1911,长治市,德盛苑,,38,29,25,17,15,120,,84,84,7,8,7,7,0.8,1
2025-06-30T1300,3568A,113.06,36.0464,长治市,向阳小学,,49,49,59,18,22,139,,103,103,4,20,7,12,0.8,0.9
2025-06-30T1300,3569A,112.8792,36.3144,长治市,屯留一中,,32,25,37,22,32,96,,78,78,6,12,6,7,0,0.2
2025-06-30T1300,4189A,113.1131,36.19948,长治市,英华南巷50号,,38,24,27,19,16,120,,80,80,8,13,7,7,0.8,0.9
2025-06-30T1300,4190A,113.2367,36.3344,长治市,学府街1号,,,,,,,,,,,,,,,,
2025-06-30T1300,1854A,111.6975,28.9703,常德市,市二中,,31,31,20,10,13,73,,41,41,3,11,5,5,0.7,0.8
2025-06-30T1300,1857A,111.7158,29.1456,常德市,白鹤山,,,,,,,,,,,,,,,,
2025-06-30T1300,3138A,111.7153,29.0289,常德市,武陵区永安,,25,18,26,10,15,79,,47,47,2,8,5,8,0.2,0.3
2025-06-30T1300,3139A,111.6892,28.9881,常德市,鼎城区玉霞,,22,13,22,10,13,69,,37,37,2,14,4,5,0.4,0.5
2025-06-30T1300,3140A,111.6625,29.0531,常德市,武陵区长庚,,22,13,19,9,14,70,,44,44,2,10,4,5,0.5,0.5
2025-06-30T1300,1196A,119.9633,31.762,常州市,市监测站,颗粒物(PM10),52,54,34,32,17,144,,82,82,18,24,9,9,0.4,0.4
2025-06-30T1300,1200A,119.9468,31.7069,常州市,武进监测站,,49,43,31,27,15,154,,88,88,16,20,14,11,0.6,0.6
2025-06-30T1300,1201A,119.9255,31.9087,常州市,安家,颗粒物(PM10),53,56,36,32,16,146,,101,101,25,20,10,8,0.6,0.6
2025-06-30T1300,3002A,119.9805,31.8174,常州市,行政中心,,48,40,20,33,17,138,,79,79,14,16,10,11,0.3,0.3
2025-06-30T1300,3003A,120.0522,31.7748,常州市,经开区,颗粒物(PM10),59,68,39,34,15,146,,81,81,16,19,6,7,0.5,0.5
2025-06-30T1300,3010A,119.9025,31.7964,常州市,钟楼,颗粒物(PM10),52,54,31,34,15,141,,88,88,14,18,8,6,0.4,0.4
2025-06-30T1300,3429A,119.8598,31.7066,常州市,武进经发区,颗粒物(PM10),54,58,33,33,17,143,,79,79,13,16,7,6,0.8,0.8
2025-06-30T1300,3430A,119.5826,31.7245,常州市,金坛城区,,49,39,24,22,12,155,,94,94,13,15,9,7,0.3,0.3
2025-06-30T1300,2220A,120.4318,41.5881,朝阳市,西梁,,41,41,31,16,24,112,,80,80,5,8,8,8,0.7,0.7
2025-06-30T1300,2221A,120.4521,41.5646,朝阳市,河畔小区,,39,19,24,17,19,122,,93,93,5,6,6,6,0.6,0.4
2025-06-30T1300,2222A,120.4176,41.5648,朝阳市,八里堡,,39,39,32,17,21,124,,86,86,6,10,2,3,0.6,0.5
2025-06-30T1300,2223A,120.3806,41.5969,朝阳市,农业园区,,36,25,25,14,23,115,,73,73,7,10,4,3,0.7,0.6
2025-06-30T1300,1705A,116.6367,23.6719,潮州市,西园路,,,,16,6,6,76,,39,39,4,9,4,4,0.4,0.4
2025-06-30T1300,3026A,116.6183,23.6608,潮州市,市政府,,23,18,19,7,6,71,,36,36,1,8,2,4,0.6,0.7
2025-06-30T1300,4036A,116.6461,23.6761,潮州市,金山,,21,16,16,10,10,66,,32,32,1,7,6,5,0.4,0.5
2025-06-30T1300,2472A,113.0073,25.9061,郴州市,马头岭,,17,9,15,6,6,53,,49,49,4,8,7,8,0.4,0.4
2025-06-30T1300,2473A,113.0116,25.8226,郴州市,市职中,,16,11,14,3,7,51,,49,49,3,7,6,6,0.5,0.5
2025-06-30T1300,2475A,113.0383,25.8071,郴州市,市审计局,,,,13,,8,50,,,,,4,4,12,0.2,0.3
2025-06-30T1300,2476A,113.0348,25.7759,郴州市,市环保局,,30,,14,21,6,51,,49,49,2,6,6,13,0.2,0.2
2025-06-30T1300,4252A,113.0138,25.8011,郴州市,好美居路49号,,20,20,14,6,8,58,,59,55,2,6,5,6,0.2,0.3
2025-06-30T1300,1431A,103.9728,30.7236,成都市,金泉两河,,44,8,14,3,7,139,,74,74,7,12,2,2,0.4,0.4
2025-06-30T1300,1432A,104.176,30.6872,成都市,十里店,,38,20,15,3,8,120,,80,80,7,10,5,4,0.4,0.5
2025-06-30T1300,1433A,104.079,30.5706,成都市,三瓦窑,,43,12,18,3,9,137,,88,88,9,16,4,4,0.4,0.5
2025-06-30T1300,1434A,104.1114,30.63,成都市,沙河铺,,37,23,19,6,8,116,,73,73,7,11,5,4,0.4,0.5
2025-06-30T1300,1437A,104.0786,30.6531,成都市,君平街,,31,31,19,6,9,77,,51,51,11,13,4,4,0.6,0.6
2025-06-30T1300,1438A,103.613,31.0283,成都市,灵岩寺,,,,,,,,,,,,,,,,
2025-06-30T1300,2880A,104.0239,30.65639,成都市,大石西路,,37,15,18,10,12,117,,74,74,7,12,5,4,0.6,0.7
2025-06-30T1300,3136A,104.2725,30.5589,成都市,龙泉驿区区政府,,36,6,8,3,4,113,,78,78,8,13,4,4,0.6,0.6
2025-06-30T1300,3357A,104.0106,30.6931,成都市,金博路,,38,6,10,3,7,120,,62,62,8,14,4,3,0.6,0.7
2025-06-30T1300,3359A,104.0578,30.5225,成都市,华阳,,39,12,12,9,14,122,,64,64,8,17,7,6,0.5,0.5
2025-06-30T1300,3488A,104.3853,30.7453,成都市,青白江技师分院,,36,8,19,3,7,115,,64,64,6,17,3,5,0.6,0.7
2025-06-30T1300,3489A,104.0789,30.4072,成都市,科学城,,39,6,16,3,12,123,,77,77,4,9,4,3,0.3,0.4
2025-06-30T1300,4011A,103.8506,30.6947,成都市,光华大道三段,,46,36,22,10,11,147,,80,80,8,10,4,4,0.6,0.6
2025-06-30T1300,4224A,104.2433,30.5353,成都市,鲸龙路1057号,,37,8,15,3,11,116,,77,77,5,14,7,6,0.4,0.5
2025-06-30T1300,1062A,117.9531,40.9081,承德市,铁路,,40,30,32,28,18,122,,77,77,5,12,2,2,0.5,0.5
2025-06-30T1300,1063A,117.9392,40.9763,承德市,中国银行,,46,46,32,14,20,131,,89,89,4,7,3,3,0.5,0.5
2025-06-30T1300,1064A,117.9503,40.928,承德市,开发区,,50,,35,35,20,125,,87,87,7,11,4,4,0.5,0.5
2025-06-30T1300,1065A,117.8051,40.9655,承德市,文化中心,,43,43,36,19,21,134,,94,94,8,7,2,1,0.5,0.5
2025-06-30T1300,1066A,117.9268,41.0026,承德市,离宫,,48,48,29,25,21,127,,86,86,4,6,1,2,0.5,0.5
2025-06-30T1300,2314A,117.47,30.6618,池州市,池州学院,,28,24,21,14,12,88,,41,41,6,9,6,6,0.3,0.4
2025-06-30T1300,3237A,117.4918,30.6617,池州市,展览馆,,23,22,21,10,9,73,,36,36,8,10,5,4,0.5,0.6
2025-06-30T1300,3333A,117.5627,30.695,池州市,第八中学,,29,18,20,8,9,90,,42,42,8,10,5,5,0.3,0.3
2025-06-30T1300,3334A,117.5038,30.6243,池州市,第十二中学,,30,25,22,10,9,93,,37,37,6,11,4,4,0.7,0.8
2025-06-30T1300,1744A,118.9233,42.2816,赤峰市,松山一中,,45,28,30,15,17,141,,123,123,8,15,7,8,0.7,0.7
2025-06-30T1300,1745A,118.9576,42.2728,赤峰市,哈达街,,43,29,32,13,15,135,,116,116,13,16,12,13,0.8,0.8
2025-06-30T1300,1746A,118.8788,42.2554,赤峰市,天义路,,47,,23,17,20,148,,126,126,8,12,8,8,0.4,0.4
2025-06-30T1300,3058A,119.2658,42.0353,赤峰市,银河街,,45,27,41,18,28,141,,102,102,8,10,7,10,0.7,0.7
2025-06-30T1300,3286A,118.9359,42.3147,赤峰市,桥北物流园区,细颗粒物(PM2.5),63,,34,45,24,142,,106,106,3,11,10,9,0.6,0.7
2025-06-30T1300,2521A,107.3476,22.4136,崇左市,市环保局江州分局,,21,18,22,8,8,65,,34,34,5,10,6,6,0.7,0.7
2025-06-30T1300,4256A,107.3750,22.3736,崇左市,石景林东路7号,,31,31,19,11,7,73,,38,38,4,12,4,4,0.5,0.5
2025-06-30T1300,2298A,118.3093,32.3153,滁州市,老年大学,,29,24,23,6,8,90,,54,54,3,11,11,9,0.2,0.3
2025-06-30T1300,2299A,118.3244,32.2786,滁州市,人大宾馆,,34,,10,10,12,106,,68,68,3,10,5,6,0.2,0.3
2025-06-30T1300,3207A,118.3118,32.3038,滁州市,市政府原办公楼,,29,18,18,15,16,92,,55,55,4,10,6,5,0.3,0.5
2025-06-30T1300,3331A,118.3267,32.2634,滁州市,图书馆,,29,14,13,12,12,91,,50,50,2,8,8,9,0.4,0.4
2025-06-30T1300,2605A,101.5482,25.0441,楚雄彝族自治州,州环境监测站,,,,9,4,5,39,,38,35,4,4,7,7,0.4,0.4
2025-06-30T1300,2606A,101.538,25.0492,楚雄彝族自治州,市经济开发区,,12,8,12,3,5,37,,36,32,4,5,7,6,0.5,0.5
2025-06-30T1300,2548A,107.5277,31.2827,达州市,达州职业技术学院,,11,9,20,3,3,33,,23,23,11,19,6,7,0.5,0.5
2025-06-30T1300,2549A,107.5086,31.2186,达州市,市环境监测站,,15,15,18,3,2,26,,22,22,24,28,5,5,0.4,0.3
2025-06-30T1300,2550A,107.4988,31.2132,达州市,凤凰小区,,10,9,17,7,4,4,,9,2,20,22,3,4,0.3,0.2
2025-06-30T1300,2551A,107.5082,31.1986,达州市,达县机关宾馆,,,,14,3,4,,,20,20,19,26,5,6,0.2,0.2
2025-06-30T1300,2552A,107.4644,31.2124,达州市,市政中心,,21,21,24,3,3,30,,22,22,17,20,2,3,0.6,0.5
2025-06-30T1300,2614A,100.1542,25.7054,大理白族自治州,大理市环境监测站,,19,,10,13,14,37,,30,29,6,7,4,5,0.5,0.5
2025-06-30T1300,2615A,100.2171,25.5811,大理白族自治州,大理古城,,30,30,15,3,8,60,,37,37,4,7,4,4,0.7,0.7
2025-06-30T1300,1109A,121.612,38.9741,大连市,甘井子,,25,16,19,10,15,77,,55,55,25,24,7,7,0.6,0.6
2025-06-30T1300,1110A,121.565,38.9511,大连市,周水子,,29,16,20,15,18,91,,59,59,14,18,6,6,0.3,0.3
2025-06-30T1300,1111A,121.5637,38.8845,大连市,星海三站,,35,28,29,24,19,91,,61,61,10,11,4,5,0.3,0.2
2025-06-30T1300,1112A,121.6302,38.9117,大连市,青泥洼桥,,30,14,26,14,21,93,,71,71,9,14,5,6,0.7,0.7
2025-06-30T1300,1113A,121.6251,38.8638,大连市,傅家庄,,30,,16,21,18,85,,62,62,18,18,12,12,0.2,0.2
2025-06-30T1300,1114A,121.5213,38.8661,大连市,七贤岭,,31,20,20,20,19,98,,65,65,12,16,10,10,0.6,0.6
2025-06-30T1300,1115A,121.2529,38.8061,大连市,旅顺,,23,16,17,16,14,65,,42,42,19,15,7,5,0.4,0.2
2025-06-30T1300,1116A,121.7485,39.1311,大连市,金州,,30,8,14,8,13,96,,72,72,8,11,6,6,0.2,0.2
2025-06-30T1300,1117A,121.7811,39.0496,大连市,开发区,,30,17,23,14,19,93,,59,59,14,21,13,12,0.2,0.2
2025-06-30T1300,1118A,121.9762,39.0631,大连市,双D港,,48,,9,33,8,67,,42,42,22,10,9,9,0.4,0.3
2025-06-30T1300,1789A,124.81117,46.03138,大庆市,大同区,,49,,44,34,19,98,,77,77,9,11,6,6,0.6,0.7
2025-06-30T1300,1790A,125.129,46.533,大庆市,龙凤区,,45,45,35,31,21,133,,103,103,10,11,5,5,0.7,0.6
2025-06-30T1300,1791A,124.902,46.408,大庆市,红岗区,,,,33,,27,138,,63,,4,9,9,9,0.6,0.7
2025-06-30T1300,1792A,125.153,46.586,大庆市,萨尔图区,颗粒物(PM10),51,52,45,32,26,122,,94,94,9,13,8,9,0.7,0.7
2025-06-30T1300,1793A,124.9042,46.6215,大庆市,让胡路区,细颗粒物(PM2.5),53,48,36,37,24,145,,108,108,8,12,5,5,0.5,0.5
2025-06-30T1300,3481A,125.141,46.634,大庆市,萨区政府监测点,,,38,50,29,20,129,,102,102,,11,6,6,0.5,0.5
2025-06-30T1300,1721A,113.3819,40.1097,大同市,果树场,,,,,,,,,,,,,,,,
2025-06-30T1300,1723A,113.2994,40.0758,大同市,云冈宾馆,,47,28,25,19,18,148,,102,102,13,16,8,6,0.6,0.6
2025-06-30T1300,1724A,113.3444,40.0917,大同市,大同大学,,50,21,24,12,17,157,,111,111,8,17,17,14,0.3,0.4
2025-06-30T1300,1725A,113.2661,40.1269,大同市,安家小村,,50,31,28,12,13,158,,120,120,10,14,7,5,0.5,0.6
2025-06-30T1300,1726A,113.2711,40.0844,大同市,教育学院,,50,32,30,27,17,157,,109,109,10,15,10,8,0.4,0.5
2025-06-30T1300,3282A,113.3397,40.0597,大同市,大同市卫生学校,,45,22,31,12,18,144,,104,104,6,14,7,7,0.7,0.8
2025-06-30T1300,3565A,113.1367,40.1122,大同市,云冈站,颗粒物(PM10),54,58,58,16,23,146,,78,78,13,22,6,5,0.6,0.6
2025-06-30T1300,3566A,113.1186,40.2556,大同市,图书馆,,48,48,40,16,22,151,,88,88,11,15,11,8,0.8,0.8
2025-06-30T1300,3567A,113.5931,40.0461,大同市,区一中,,48,35,26,11,13,151,,122,122,9,9,13,13,0.5,0.5
2025-06-30T1300,4199A,113.2798,40.0997,大同市,魏都大道141号,,50,42,36,10,18,157,,110,110,10,15,9,7,0.7,0.9
2025-06-30T1300,2269A,124.1069,50.4097,大兴安岭地区,科技局,,23,10,30,7,16,71,,52,52,2,4,6,6,0.1,0.3
2025-06-30T1300,3663A,124.1164,50.4278,大兴安岭地区,红旗社区,,25,6,10,3,8,77,,55,55,1,3,6,6,0.2,0.3
2025-06-30T1300,1600A,124.3303,40.0625,丹东市,江湾东路,,16,8,12,6,6,50,,73,67,9,7,14,7,0.5,0.5
2025-06-30T1300,1601A,124.4256,40.1503,丹东市,临江后街,,17,6,7,3,4,52,,71,67,7,7,6,6,0.6,0.7
2025-06-30T1300,1602A,124.3933,40.1461,丹东市,元宝山,,16,6,4,3,3,50,,72,67,9,7,5,5,0.4,0.5
2025-06-30T1300,1603A,124.3633,40.1092,丹东市,民主桥,,15,6,4,3,5,47,,68,63,6,5,6,7,0.5,0.5
2025-06-30T1300,3541A,109.5726,19.5167,儋州市,第一中学子站,,15,11,14,10,10,41,,29,29,2,4,6,6,0.6,0.6
2025-06-30T1300,3542A,109.5567,19.5187,儋州市,东坡学校子站,,15,7,10,3,4,46,,31,31,2,4,6,7,0.5,0.5
2025-06-30T1300,2616A,98.5842,24.428,德宏傣族景颇族自治州,德宏州监测站,,19,19,23,12,9,58,,19,19,6,8,9,7,0.7,0.8
2025-06-30T1300,3677A,98.5881,24.4368,德宏傣族景颇族自治州,芒市人民政府综合楼,,41,41,30,16,8,57,,20,20,6,6,7,6,0.4,0.5
2025-06-30T1300,1901A,104.4239,31.1208,德阳市,东山公园,,37,,6,6,6,118,,81,81,3,6,5,5,0.6,0.6
2025-06-30T1300,1902A,104.3826,31.1317,德阳市,西小区,,37,16,14,8,8,116,,75,75,6,11,5,5,0.5,0.5
2025-06-30T1300,1904A,104.3553,31.1091,德阳市,耐火材料厂,,40,18,11,8,7,126,,76,76,8,11,1,1,0.4,0.4
2025-06-30T1300,3639A,104.4019,31.1244,德阳市,市教育局,,40,12,10,7,6,126,,84,84,2,5,15,10,0.5,0.6
2025-06-30T1300,1622A,116.3032,37.4674,德州市,儿童乐园,,41,22,25,14,15,130,,96,96,3,9,6,8,0.4,0.5
2025-06-30T1300,1624A,116.2991,37.4451,德州市,监理站,,40,12,18,12,12,125,,90,90,1,7,8,8,0.2,0.3
2025-06-30T1300,3066A,116.2721,37.4379,德州市,九衢泉纯净水厂,,39,17,22,17,17,123,,89,89,6,14,5,6,0.7,0.8
2025-06-30T1300,3371A,116.3728,37.4403,德州市,开发区人民医院,,41,17,21,7,12,129,,91,91,8,12,5,7,0.5,0.6
2025-06-30T1300,3372A,116.3572,37.4094,德州市,太阳城中学,,,,,,,,,,,,,,,,
2025-06-30T1300,3511A,116.5652,37.3319,德州市,陵城艺术中心,,,29,19,14,8,123,,85,85,10,8,4,8,,1
2025-06-30T1300,2621A,99.7056,27.8317,迪庆藏族自治州,迪庆州站,,30,24,18,9,10,93,,50,50,6,8,6,8,0.3,0.4
2025-06-30T1300,3180A,99.7136,27.8094,迪庆藏族自治州,质量技术监督局,,30,23,18,3,6,96,,54,54,10,9,6,6,0.4,0.4
2025-06-30T1300,4257A,104.6092,35.5962,定西市,将台街,,44,26,36,10,19,139,,94,94,4,9,5,4,0.1,0.1
2025-06-30T1300,4309A,104.6159,35.5701,定西市,正龙路62号,,45,24,30,16,16,141,,99,99,2,5,4,3,0.1,0.2
2025-06-30T1300,1389A,113.7547,23.0494,东莞市,莞城梨川,,33,,15,11,9,104,,47,47,9,12,5,6,0.5,0.4
2025-06-30T1300,1390A,113.7944,23.0128,东莞市,东城石井,,30,14,14,8,6,93,,38,38,11,17,2,3,0.5,0.5
2025-06-30T1300,1391A,113.7383,22.9658,东莞市,南城西平,,25,12,14,9,7,79,,31,31,11,17,3,3,0.5,0.5
2025-06-30T1300,3319A,113.7338,23.0381,东莞市,万江金泰,,28,13,42,3,7,87,,34,34,8,12,2,2,0.7,0.7
2025-06-30T1300,3626A,113.7533,23.0202,东莞市,南城元岭,,30,15,12,9,6,95,,40,40,12,15,3,4,0.5,0.5
2025-06-30T1300,3627A,113.7875,23.0457,东莞市,东城主山,,32,16,15,7,6,102,,42,42,7,12,6,6,0.7,0.7
2025-06-30T1300,1666A,118.6614,37.4309,东营市,市环保局,,44,27,24,17,15,139,,92,92,12,21,8,7,0.4,0.5
2025-06-30T1300,3036A,118.6904,37.4338,东营市,开发区管委会,,44,29,33,7,13,139,,88,88,10,22,5,4,0.3,0.4
2025-06-30T1300,3365A,118.5719,37.565,东营市,垦利区民丰路,臭氧1小时,59,31,29,19,17,167,,100,100,10,22,6,5,0.7,0.8
2025-06-30T1300,3498A,118.5055,37.8612,东营市,河口城区,臭氧1小时,69,,25,27,15,175,,92,92,14,19,6,4,0.9,1.2
2025-06-30T1300,3646A,118.4978,37.4623,东营市,胜利站,,46,28,28,17,16,146,,91,91,14,24,9,8,1.0,1.2
2025-06-30T1300,3734A,118.35,37.26,东营市,理想之城,,47,22,25,12,18,150,,84,84,13,25,8,6,0.7,0.8
2025-06-30T1300,1591A,110.0023,39.8129,鄂尔多斯市,综合楼,,34,14,36,9,15,108,,116,115,17,15,4,5,0.7,0.5
2025-06-30T1300,1592A,109.9486,39.8261,鄂尔多斯市,巴音孟克林场办事处,,38,24,48,12,17,121,,126,126,13,14,4,4,0.5,0.4
2025-06-30T1300,1593A,109.7736,39.5986,鄂尔多斯市,康泽苑,,38,22,45,7,14,121,,125,125,6,13,11,11,0.3,0.4
2025-06-30T1300,1594A,109.8119,39.5989,鄂尔多斯市,华泰汽车城,,30,24,46,9,17,96,,112,109,8,16,6,6,0.5,0.5
2025-06-30T1300,1595A,109.9734,39.7884,鄂尔多斯市,奥林花园,,36,17,46,14,20,113,,122,121,16,17,6,6,0.7,0.5
2025-06-30T1300,2436A,114.8938,30.3994,鄂州市,市政府,,40,40,27,18,12,122,,70,70,7,9,6,6,0.9,0.7
2025-06-30T1300,2437A,114.8989,30.3714,鄂州市,赵家坝,,41,17,18,15,5,130,,72,72,3,8,11,10,0.7,0.6
2025-06-30T1300,3654A,114.8094,30.4089,鄂州市,精准医疗中心,,37,20,23,9,6,118,,65,65,7,20,5,9,0.3,1.4
2025-06-30T1300,2454A,109.4978,30.2981,恩施土家族苗族自治州,湖北民院,,30,,22,21,9,59,,24,24,5,11,6,5,0.5,0.5
2025-06-30T1300,2455A,109.4707,30.2798,恩施土家族苗族自治州,州电力总公司,,23,23,16,3,8,51,,20,20,3,11,7,7,1.3,0.9
2025-06-30T1300,3549A,109.5061,30.3772,恩施土家族苗族自治州,龙凤新区,,20,15,15,6,8,62,,33,33,6,8,3,3,0.3,0.3
2025-06-30T1300,2499A,108.3411,21.6158,防城港市,沙万,,34,34,18,6,9,28,,32,30,23,20,2,3,0.9,0.7
2025-06-30T1300,2500A,108.3514,21.7731,防城港市,防城档案局,,24,24,14,9,8,36,,26,26,14,13,3,3,1.1,0.8
2025-06-30T1300,2501A,108.3506,21.6414,防城港市,大海花园,,18,18,14,8,16,32,,38,36,21,12,6,4,1.7,0.9
2025-06-30T1300,1371A,113.1294,23.0067,佛山市,湾梁,,27,9,15,3,6,85,,42,42,10,19,8,8,0.4,0.4
2025-06-30T1300,1372A,113.1083,23.0478,佛山市,华材职中,,30,9,12,7,6,96,,49,49,5,11,7,6,0.4,0.5
2025-06-30T1300,1373A,113.144,23.0453,佛山市,南海气象局,,26,16,16,6,7,82,,41,41,8,13,2,2,0.7,0.7
2025-06-30T1300,1374A,113.2881,22.8094,佛山市,顺德苏岗,,22,18,16,3,3,68,,35,35,11,15,6,6,0.6,0.6
2025-06-30T1300,1376A,112.8383,22.8678,佛山市,高明孔堂,,28,,14,19,23,58,,36,36,7,12,5,5,0.5,0.5
2025-06-30T1300,1377A,112.8836,23.1588,佛山市,三水监测站,,21,17,18,8,11,65,,28,28,11,21,4,3,0.6,0.6
2025-06-30T1300,1378A,112.867,23.185,佛山市,三水云东海,,23,23,30,6,12,67,,33,33,22,25,3,2,0.5,0.5
2025-06-30T1300,3625A,113.2544,22.7642,佛山市,容桂街道办,,20,9,6,3,3,62,,38,38,10,15,5,6,0.7,0.7
2025-06-30T1300,1280A,119.3903,26.0543,福州市,鼓山,,,,,,,,,,,,,,,,
2025-06-30T1300,1282A,119.2681,26.0504,福州市,师大,,23,23,22,3,7,72,,39,39,4,7,4,4,0.2,0.2
2025-06-30T1300,1283A,119.2984,26.1028,福州市,五四北路,,20,16,18,6,5,62,,33,33,6,10,4,4,0.3,0.3
2025-06-30T1300,1284A,119.2648,26.0768,福州市,杨桥西路,,22,20,19,7,6,69,,38,38,4,8,4,4,0.2,0.2
2025-06-30T1300,1285A,119.317,26.0746,福州市,紫阳,,22,22,24,3,6,64,,35,35,5,10,4,4,0.3,0.3
2025-06-30T1300,3048A,119.5799,26.0936,福州市,九龙,,25,11,12,3,3,80,,36,36,2,5,5,4,0.3,0.2
2025-06-30T1300,3526A,119.5189,25.9664,福州市,吴航,,20,7,11,3,6,64,,33,33,1,3,5,5,0.3,0.3
2025-06-30T1300,1755A,123.7977,41.8491,抚顺市,望花区,,26,11,21,3,10,81,,44,44,8,18,3,3,0.3,0.6
2025-06-30T1300,1756A,123.9161,41.8822,抚顺市,顺城区,,23,11,18,8,8,73,,37,37,16,17,6,5,0.8,0.8
2025-06-30T1300,1757A,124.0436,41.8611,抚顺市,东洲区,,21,,14,10,7,66,,45,45,16,8,5,6,0.8,0.6
2025-06-30T1300,1758A,123.9247,41.8642,抚顺市,新抚区,,21,18,21,13,10,67,,34,34,5,10,5,5,1.2,0.7
2025-06-30T1300,1759A,124.0972,41.8961,抚顺市,大伙房水库,,,,13,8,8,53,,38,38,12,9,6,7,0.6,0.4
2025-06-30T1300,1760A,123.7086,41.8391,抚顺市,沈抚新城,,25,15,20,13,6,77,,43,43,6,16,5,5,0.4,0.8
2025-06-30T1300,2376A,116.2127,28.0814,抚州市,桐源党溪,,26,26,24,7,12,48,,43,43,3,3,4,5,0.2,0.3
2025-06-30T1300,2377A,116.3544,27.9831,抚州市,市站,,20,12,18,3,8,63,,44,44,2,4,1,3,0.3,0.7
2025-06-30T1300,2378A,116.3565,27.963,抚州市,血防站,,20,11,19,3,10,61,,43,43,2,6,2,2,0.5,0.6
2025-06-30T1300,2379A,116.3564,28.0007,抚州市,采茶剧团,,20,15,19,3,6,64,,44,44,2,3,4,4,0.3,0.4
2025-06-30T1300,2380A,116.385,27.9647,抚州市,医学分院,,23,13,18,6,7,71,,46,46,2,2,3,4,0.4,0.6
2025-06-30T1300,2207A,121.6094,41.998,阜新市,工业园区,,40,30,25,18,12,125,,82,82,6,8,5,5,0.5,0.5
2025-06-30T1300,2208A,121.6697,42.0279,阜新市,长青街,,35,31,27,11,14,110,,67,67,6,8,6,6,0.5,0.5
2025-06-30T1300,2209A,121.6673,42.0705,阜新市,农业园区,,36,33,26,24,15,113,,70,70,6,8,4,4,0.7,0.7
2025-06-30T1300,2210A,121.6717,42.0224,阜新市,东苑,,36,27,28,24,16,115,,70,70,10,10,6,9,0.5,0.6
2025-06-30T1300,2211A,121.6506,42.0498,阜新市,玉龙新城,,33,33,27,14,12,97,,61,61,5,7,3,4,0.7,0.7
2025-06-30T1300,2301A,115.8277,32.8929,阜阳市,市监测站,,26,16,19,11,6,82,,,,2,4,3,3,0.3,0.3
2025-06-30T1300,2303A,115.8554,32.8605,阜阳市,开发区,,26,,9,6,5,83,,56,56,4,8,6,5,0.0,0.1
2025-06-30T1300,2875A,115.784,32.8892,阜阳市,阜阳职业技术学院,,29,8,7,8,5,91,,61,61,2,5,4,4,0.1,0.2
2025-06-30T1300,3468A,115.7901,32.8613,阜阳市,市规划展馆,,36,36,21,8,9,86,,53,53,2,6,3,2,0.3,0.3
2025-06-30T1300,3469A,115.836,32.9183,阜阳市,枣园社区,,26,8,11,7,10,82,,52,52,2,5,2,2,0.4,0.5
2025-06-30T1300,2669A,102.9099,34.9841,甘南藏族自治州,州政府,,38,14,25,12,17,119,,83,83,7,15,6,5,0.2,0.3
2025-06-30T1300,3380A,102.8914,34.9617,甘南藏族自治州,甘肃民族师范学院,,35,24,32,6,11,112,,82,82,13,23,8,8,0.3,0.3
2025-06-30T1300,2570A,101.9603,30.0475,甘孜藏族自治州,水桥子,,28,12,12,3,8,89,,38,38,5,17,5,6,0.3,0.4
2025-06-30T1300,3065A,101.9533,29.9972,甘孜藏族自治州,州环保局,,32,26,16,9,5,102,,56,56,6,16,2,2,0.3,0.4
2025-06-30T1300,3414A,115.8347,28.932,赣江新区,桑海产业园,,32,17,14,10,6,102,,57,57,5,18,10,8,0.3,0.4
2025-06-30T1300,2362A,114.9017,25.9149,赣州市,通天岩,,19,14,16,3,4,58,,41,41,3,3,16,15,0.2,0.3
2025-06-30T1300,2363A,114.9367,25.8664,赣州市,地委,,20,12,18,10,9,64,,42,42,5,12,2,4,0.6,0.7
2025-06-30T1300,2364A,114.9461,25.8481,赣州市,气象台,,19,8,18,7,6,60,,43,43,4,10,7,8,0.3,0.4
2025-06-30T1300,2365A,114.9322,25.8333,赣州市,市图书馆,,20,9,12,3,6,63,,42,42,3,8,4,4,0.4,0.5
2025-06-30T1300,2366A,114.8905,25.8471,赣州市,华坚鞋城,,24,15,19,8,7,74,,46,46,5,11,4,4,0.3,0.4
2025-06-30T1300,3109A,115.0093,25.8613,赣州市,赣县区卫计委,,17,9,15,3,8,53,,38,38,3,10,2,2,0.1,0.1
2025-06-30T1300,2683A,106.2319,36.1417,固原市,马园,,42,15,24,3,11,134,,108,108,8,10,6,6,0.5,0.5
2025-06-30T1300,2684A,106.2792,36.0022,固原市,监测站,,44,,21,13,9,139,,120,120,4,5,5,4,0.1,0.1
2025-06-30T1300,2685A,106.2375,36.0211,固原市,新区,,43,11,19,3,10,135,,118,118,3,4,7,6,0.2,0.3
2025-06-30T1300,3522A,106.2177,35.9959,固原市,原州区十五小,,44,11,16,8,10,138,,125,125,4,5,11,11,0.2,0.3
2025-06-30T1300,2543A,106.6308,30.5278,广安市,小平旧居,,,,,,,,,,,,,,,,
2025-06-30T1300,2544A,106.6303,30.4576,广安市,市委,,,,20,7,19,68,,59,59,10,14,,4,0.4,0.5
2025-06-30T1300,2545A,106.6271,30.4663,广安市,友谊中学,,30,,19,7,12,96,,110,104,8,12,2,2,0.7,0.7
2025-06-30T1300,2547A,106.6388,30.4551,广安市,广电花园,,21,8,21,3,12,65,,51,51,5,11,2,4,0.4,0.5
2025-06-30T1300,2902A,106.6351,30.4865,广安市,北辰小学,,24,6,19,3,12,76,,66,66,6,9,5,5,0.4,0.5
2025-06-30T1300,2523A,105.8945,32.4535,广元市,黑石坡,,32,7,19,3,13,101,,92,92,4,7,6,9,0.3,0.4
2025-06-30T1300,2524A,105.821,32.4444,广元市,老城,,37,14,17,6,9,116,,107,107,9,14,5,4,0.7,0.9
2025-06-30T1300,2526A,105.8628,32.4287,广元市,监测站,,35,10,16,8,8,111,,98,98,6,10,6,8,0.5,0.7
2025-06-30T1300,3617A,105.8047,32.4166,广元市,经开区,,35,10,15,6,11,110,,102,102,6,11,3,4,0.4,0.5
2025-06-30T1300,1345A,113.2347,23.1423,广州市,广雅中学,,32,11,17,3,7,101,,45,45,6,17,2,3,0.4,0.3
2025-06-30T1300,1346A,113.2612,23.105,广州市,市五中,,,13,19,6,8,,,,,10,17,3,4,0.5,0.4
2025-06-30T1300,1348A,113.3478,23.0916,广州市,广东商学院,,30,13,17,3,8,93,,44,44,10,22,4,4,0.5,0.6
2025-06-30T1300,1349A,113.4332,23.1047,广州市,市八十六中,,20,10,12,6,7,64,,30,30,16,25,4,4,0.8,0.5
2025-06-30T1300,1350A,113.3505,22.9483,广州市,番禺中学,,29,15,15,7,7,92,,49,49,11,16,7,7,0.4,0.4
2025-06-30T1300,1351A,113.2146,23.3916,广州市,花都师范,,31,17,25,8,12,98,,46,46,10,29,4,4,0.4,0.5
2025-06-30T1300,1352A,113.2597,23.1331,广州市,市监测站,,31,14,16,6,8,98,,45,45,7,16,5,6,0.4,0.4
2025-06-30T1300,1353A,113.5618,23.312,广州市,九龙镇镇龙,,23,10,19,3,8,72,,35,35,8,18,6,6,0.3,0.4
2025-06-30T1300,1354A,113.2765,23.1544,广州市,麓湖,,28,13,18,3,8,88,,38,38,10,18,2,3,0.5,0.5
2025-06-30T1300,1355A,113.443,23.3035,广州市,帽峰山森林公园,,25,,10,6,6,79,,49,49,6,15,6,6,0.4,0.4
2025-06-30T1300,2846A,113.3221,23.1322,广州市,体育西,,30,16,18,8,8,93,,41,41,13,24,6,6,0.6,0.5
2025-06-30T1300,3298A,113.5717,23.5491,广州市,从化街口,,18,10,17,6,9,57,,38,38,7,14,5,5,0.6,0.7
2025-06-30T1300,3299A,113.3472,23.3692,广州市,白云竹料,,23,19,24,10,11,73,,40,40,8,21,3,3,0.3,0.4
2025-06-30T1300,3300A,113.2981,23.237,广州市,白云嘉禾,,28,17,19,10,10,89,,45,45,12,24,6,6,0.1,0.2
2025-06-30T1300,3301A,113.4256,23.1716,广州市,黄埔科学城,,24,20,22,8,7,75,,38,38,10,20,6,5,0.5,0.6
2025-06-30T1300,3302A,113.3942,23.0483,广州市,番禺大学城,,30,23,21,6,8,96,,44,44,11,21,5,6,0.5,0.6
2025-06-30T1300,3303A,113.4922,22.8168,广州市,南沙黄阁,,25,15,16,8,6,77,,43,43,4,9,5,5,0.4,0.4
2025-06-30T1300,3304A,113.5342,22.7896,广州市,南沙街,,24,9,13,3,6,75,,43,43,8,14,3,4,0.3,0.4
2025-06-30T1300,3443A,113.2902,23.5544,广州市,花都梯面,,21,8,16,3,6,66,,37,37,5,14,4,4,0.5,0.6
2025-06-30T1300,3445A,113.7858,23.7478,广州市,从化良口,,16,11,14,9,7,49,,34,34,3,7,6,6,0.5,0.5
2025-06-30T1300,3446A,113.8051,23.2614,广州市,增城荔城,,25,10,16,6,8,77,,32,32,6,10,6,7,0.3,0.3
2025-06-30T1300,2505A,109.568,23.1478,贵港市,德智高中,,,,,,,,,,,,,,,,
2025-06-30T1300,2506A,109.6047,23.0666,贵港市,江南子站,,,22,20,,13,67,,32,32,5,12,8,7,0.5,0.5
2025-06-30T1300,2508A,109.5669,23.1065,贵港市,荷城子站,,20,16,21,3,5,61,,31,31,9,14,8,7,0.4,0.3
2025-06-30T1300,3405A,109.5886,23.1172,贵港市,新世纪学校,,21,14,17,9,9,65,,34,34,5,11,5,4,0.3,0.4
2025-06-30T1300,4260A,109.5933,23.0951,贵港市,中山路155-3号,,22,20,27,15,12,57,,30,30,7,14,4,5,0.3,0.8
2025-06-30T1300,1439A,106.6899,26.5998,贵阳市,马鞍山,,,7,10,,0,49,,42,41,6,5,3,3,0.4,0.4
2025-06-30T1300,1441A,106.6243,26.6266,贵阳市,鉴湖路,,15,12,17,3,1,45,,44,42,7,6,8,8,0.3,0.3
2025-06-30T1300,1442A,106.7487,26.6343,贵阳市,燕子冲,,18,12,12,12,13,50,,46,46,9,9,4,4,0.2,0.2
2025-06-30T1300,1443A,106.6555,26.4365,贵阳市,碧云窝,,15,14,19,3,3,48,,43,42,4,5,6,5,0.3,0.3
2025-06-30T1300,1445A,106.7109,26.6027,贵阳市,红边门,,17,7,13,7,4,52,,43,43,4,5,5,4,0.1,0.1
2025-06-30T1300,1446A,106.7164,26.5699,贵阳市,新华路,,14,12,13,7,9,44,,38,38,8,12,14,6,0.3,0.4
2025-06-30T1300,1447A,106.674,26.5424,贵阳市,太慈桥,,,14,12,3,3,41,,40,34,8,10,,5,0.3,0.3
2025-06-30T1300,1552A,106.805,26.3003,贵阳市,桐木岭,,17,17,21,7,11,49,,58,51,5,5,17,16,0.9,0.9
2025-06-30T1300,4230A,106.6882,26.5695,贵阳市,花果园大街66号,,,6,7,3,7,40,,50,41,,6,3,3,0.1,0.1
2025-06-30T1300,4231A,106.6873,26.5169,贵阳市,漓江路57号,,17,7,10,3,1,54,,47,45,4,6,5,6,0.2,0.3
2025-06-30T1300,1862A,110.4144,25.3167,桂林市,电子科大尧山校区,,,,,,,,,,,,,,,,
2025-06-30T1300,1864A,110.3089,25.2708,桂林市,龙隐路小学,,18,18,15,3,6,51,,38,38,3,6,8,8,0.4,0.4
2025-06-30T1300,1865A,110.2869,25.2178,桂林市,八中,,17,17,14,6,4,51,,37,37,5,8,6,6,0.4,0.4
2025-06-30T1300,3531A,110.296,25.1253,桂林市,旅游学院,,18,7,9,3,5,56,,36,36,1,5,4,3,0.3,0.3
2025-06-30T1300,4222A,110.1835,25.2444,桂林市,环湖路276号,,16,12,15,9,8,50,,37,37,7,7,5,11,0.3,0.3
2025-06-30T1300,4301A,110.2803,25.2773,桂林市,信义路13号,,,28,14,,11,52,,38,38,4,7,3,4,0.4,0.5
2025-06-30T1300,2674A,100.2561,34.4714,果洛藏族自治州,玛沁县大武镇,,45,34,41,9,20,142,,82,82,2,4,15,18,0.5,0.4
2025-06-30T1300,1129A,126.5422,45.755,哈尔滨市,岭北,,40,,55,20,46,128,,88,88,13,24,5,5,1.0,1.1
2025-06-30T1300,1130A,126.561,45.8167,哈尔滨市,松北商大,,44,44,75,12,24,115,,70,70,8,18,5,6,0.8,0.9
2025-06-30T1300,1131A,126.979,45.5419,哈尔滨市,阿城会宁,,31,18,50,13,39,97,,73,73,8,20,6,7,0.6,0.7
2025-06-30T1300,1132A,126.599,45.7222,哈尔滨市,南岗学府路,,34,34,63,20,30,99,,74,74,14,26,6,6,0.7,0.9
2025-06-30T1300,1133A,126.689,45.7733,哈尔滨市,太平宏伟公园,,46,46,88,15,29,87,,60,60,13,22,6,6,0.7,0.8
2025-06-30T1300,1134A,126.635,45.7667,哈尔滨市,道外承德广场,颗粒物(PM10),53,56,97,14,25,90,,59,59,13,24,6,6,0.7,1
2025-06-30T1300,1135A,126.685,45.7319,哈尔滨市,香坊红旗大街,,31,31,70,6,37,87,,55,55,19,36,4,3,0.8,1
2025-06-30T1300,1136A,126.6411,45.7258,哈尔滨市,动力和平路,,,52,93,,,92,,61,61,15,24,7,6,0.5,0.7
2025-06-30T1300,1137A,126.593,45.7478,哈尔滨市,道里建国路,,33,32,88,15,28,105,,72,72,12,23,7,6,1.6,1.2
2025-06-30T1300,1138A,126.615,45.61,哈尔滨市,平房东轻厂,,28,18,90,11,20,88,,53,53,7,27,9,9,0.4,0.6
2025-06-30T1300,1139A,126.595,45.9855,哈尔滨市,呼兰师专,,,85,67,29,23,,,67,67,20,20,7,7,0.7,0.8
2025-06-30T1300,1140A,126.6206,45.6842,哈尔滨市,省农科院,,35,35,77,9,27,97,,66,66,11,36,4,5,0.8,1
2025-06-30T1300,2688A,93.5128,42.8172,哈密市,地区监测站,,46,26,35,19,16,146,,118,118,4,14,8,7,0.1,0.1
2025-06-30T1300,2689A,93.4961,42.8328,哈密市,哈密师范学校,,41,10,35,6,11,129,,89,89,6,22,10,10,0.1,0.3
2025-06-30T1300,2671A,100.9048,36.9639,海北藏族自治州,海晏县西海镇,,45,18,17,9,12,142,,90,90,2,5,10,10,0.4,0.4
2025-06-30T1300,3867A,102.0738,36.5056,海东市,平安区公安北苑,,43,41,23,22,16,137,,86,86,7,7,17,9,0.9,0.6
2025-06-30T1300,1409A,110.576,19.9507,海口市,东寨港,,19,8,13,8,9,58,,28,28,3,3,9,7,0.4,0.4
2025-06-30T1300,1410A,110.3232,20.0574,海口市,海南大学,,24,12,14,10,8,74,,48,48,3,6,3,3,0.4,0.4
2025-06-30T1300,1411A,110.283,20.0053,海口市,秀英海南医院,,,20,15,,6,74,,46,46,8,10,5,5,0.4,0.3
2025-06-30T1300,1412A,110.338,19.9969,海口市,海南师范大学,,23,19,15,9,8,73,,48,48,6,6,4,4,0.8,0.7
2025-06-30T1300,1413A,110.33,20.0356,海口市,龙华路环保局宿舍,,23,17,14,11,8,71,,48,48,6,7,5,5,0.3,0.3
2025-06-30T1300,3539A,110.5111,19.9736,海口市,桂林洋子站,,22,12,18,7,9,70,,38,38,4,8,4,4,0.2,0.2
2025-06-30T1300,2673A,100.6188,36.2866,海南藏族自治州,共和县恰卜恰镇,,45,13,32,6,10,144,,108,108,1,5,11,13,0.6,0.6
2025-06-30T1300,2676A,97.3731,37.3753,海西蒙古族藏族自治州,德令哈市,颗粒物(PM10),56,61,39,14,16,142,,126,125,6,4,14,11,0.6,0.5
2025-06-30T1300,1048A,114.5302,36.6116,邯郸市,东污水处理厂,,36,36,23,7,1,95,,70,70,6,10,2,2,0.2,0.3
2025-06-30T1300,1049A,114.4918,36.5713,邯郸市,矿院,,35,21,19,14,7,112,,84,84,2,6,4,6,0.3,0.3
2025-06-30T1300,1050A,114.484,36.6133,邯郸市,丛台公园,,33,28,26,12,8,103,,81,81,5,8,8,8,0.3,0.3
2025-06-30T1300,3458A,114.7895,36.5593,邯郸市,香泉濮院小区,,33,33,35,3,3,87,,61,61,6,10,4,4,0.2,0.2
2025-06-30T1300,3579A,114.50634,36.77178,邯郸市,永年区实验高中,,46,46,38,21,20,120,,82,82,8,12,2,3,0.2,0.3
2025-06-30T1300,3580A,114.20016,36.44293,邯郸市,峰峰矿区临水派出所,,42,38,49,9,16,132,,84,84,4,7,6,6,0.2,0.4
2025-06-30T1300,2634A,106.9893,33.1842,汉中市,汉川机床厂子校,,23,18,19,7,10,73,,72,69,11,8,5,4,1.0,0.6
2025-06-30T1300,2635A,107.0154,33.0706,汉中市,市监测站,,24,14,19,7,12,75,,75,71,6,9,6,6,0.6,0.6
2025-06-30T1300,2636A,107.0089,33.1138,汉中市,鑫源开发区,,23,16,19,15,10,73,,71,65,7,11,5,6,0.5,0.6
2025-06-30T1300,2637A,107.007,33.0323,汉中市,南郑大河坎水厂,,21,7,21,3,13,65,,59,57,6,11,4,4,0.6,0.6
2025-06-30T1300,1223A,120.2072,30.2111,杭州市,滨江,,29,14,29,9,15,92,,61,61,11,30,6,6,0.3,0.5
2025-06-30T1300,1224A,120.0633,30.2747,杭州市,西溪,,41,30,21,14,14,130,,54,54,5,14,4,4,0.3,0.3
2025-06-30T1300,1226A,120.3417,30.3150,杭州市,下沙,,,20,24,11,13,110,,70,70,,25,5,5,0.3,0.3
2025-06-30T1300,1227A,120.1269,30.2456,杭州市,卧龙桥,,33,20,20,11,12,104,,56,56,5,10,7,7,0.4,0.4
2025-06-30T1300,1228A,120.1903,30.2692,杭州市,浙江农大,,33,9,26,9,16,103,,64,64,9,26,4,4,0.1,0.2
2025-06-30T1300,1230A,120.1197,30.3119,杭州市,和睦小学,,35,20,23,15,13,112,,67,67,2,16,7,8,0.4,0.4
2025-06-30T1300,1231A,120.3019,30.4183,杭州市,临平镇,,38,23,34,11,13,121,,67,67,8,24,6,6,0.4,0.5
2025-06-30T1300,1232A,120.2753,30.1839,杭州市,城厢镇,,35,19,26,10,15,111,,67,67,5,21,7,7,0.3,0.4
2025-06-30T1300,1233A,120.0883,30.1808,杭州市,云栖,,38,21,24,12,11,119,,51,51,6,13,7,7,0.5,0.5
2025-06-30T1300,3557A,119.9464,30.0494,杭州市,镇二中,,30,17,24,15,20,93,,47,47,9,28,3,3,0.4,0.5
2025-06-30T1300,3558A,119.7183,30.2367,杭州市,市府大楼,,39,28,20,14,11,122,,54,54,10,14,7,7,0.4,0.4
2025-06-30T1300,3656A,120.1556,30.2864,杭州市,消防大队,,34,22,23,12,16,107,,62,62,7,18,6,6,0.6,0.7
2025-06-30T1300,1270A,117.1959,31.7848,合肥市,明珠广场,,31,17,13,12,9,98,,73,73,6,11,5,5,0.5,0.5
2025-06-30T1300,1271A,117.3072,31.8764,合肥市,三里街,,29,22,16,12,9,90,,62,62,7,12,6,6,0.5,0.4
2025-06-30T1300,1272A,117.2588,31.8707,合肥市,琥珀山庄,,32,19,15,18,13,102,,74,74,7,9,6,6,0.6,0.6
2025-06-30T1300,1273A,117.1604,31.9052,合肥市,董铺水库,,32,22,15,9,8,100,,74,74,4,5,4,4,0.3,0.2
2025-06-30T1300,1274A,117.25,31.8571,合肥市,长江中路,,33,31,19,17,12,103,,74,74,6,10,6,5,0.5,0.4
2025-06-30T1300,1275A,117.266,31.9436,合肥市,庐阳区,,35,24,16,9,9,111,,77,77,4,6,7,9,0.5,0.5
2025-06-30T1300,1276A,117.3453,31.8616,合肥市,瑶海区,,,29,16,10,7,90,,62,62,9,11,7,7,,0.5
2025-06-30T1300,1277A,117.3027,31.7964,合肥市,包河区,,31,17,13,17,7,97,,71,71,5,7,4,4,0.7,0.6
2025-06-30T1300,1278A,117.2776,31.7385,合肥市,滨湖新区,,32,24,14,22,12,97,,71,71,4,6,8,9,0.5,0.4
2025-06-30T1300,1279A,117.1318,31.8403,合肥市,高新区,,32,17,15,15,9,101,,74,74,7,10,7,7,0.4,0.4
2025-06-30T1300,3464A,117.3803,31.9147,合肥市,高教基地,,29,17,15,13,11,92,,68,68,5,7,3,3,0.4,0.4
2025-06-30T1300,3614A,79.924,37.0877,和田地区,地区环保局,颗粒物(PM10),175,300,348,92,102,98,,76,76,8,15,3,3,0.6,0.6
2025-06-30T1300,3615A,79.9131,37.113,和田地区,市环保局,颗粒物(PM10),146,241,323,85,98,96,,69,69,2,13,3,2,0.3,0.3
2025-06-30T1300,2516A,108.2011,24.715,河池市,东仁乐园,,,,,,,,,,,,,,,,
2025-06-30T1300,2517A,108.0497,24.6947,河池市,市环保站,,32,32,17,15,14,47,,41,41,5,4,4,4,0.5,0.4
2025-06-30T1300,2518A,108.0983,24.6989,河池市,市疾控中心,,18,18,18,9,10,55,,40,40,7,11,3,4,0.6,0.6
2025-06-30T1300,1696A,114.6778,23.7569,河源市,源西,,32,32,15,11,9,54,,34,34,6,6,4,4,0.6,0.6
2025-06-30T1300,1697A,114.6944,23.7586,河源市,东埔,,15,12,12,3,4,45,,35,35,6,8,4,4,0.4,0.4
2025-06-30T1300,1698A,114.6892,23.7233,河源市,老城,,25,25,15,9,6,42,,34,34,3,6,4,5,0.4,0.4
2025-06-30T1300,1718A,115.4208,35.2464,菏泽市,气象局,,30,19,15,8,10,95,,67,67,3,9,1,2,0.2,0.3
2025-06-30T1300,3374A,115.5564,35.0891,菏泽市,定陶老年大学,,31,14,12,3,5,99,,70,70,10,13,3,3,0.0,0.1
2025-06-30T1300,4184A,115.4797,35.24401,菏泽市,永昌路1号,,,,17,,6,,,83,,,12,,3,,0.1
2025-06-30T1300,4193A,115.4715,35.2800,菏泽市,长城路999号,,32,12,15,3,7,100,,71,71,5,11,3,3,0.1,0.2
2025-06-30T1300,2514A,111.5264,24.4172,贺州市,环保小区,,24,19,18,3,10,74,,47,47,4,7,10,10,0.5,0.6
2025-06-30T1300,2515A,111.5608,24.4078,贺州市,政协大楼,,23,11,18,8,10,72,,47,47,7,8,13,14,0.7,0.7
2025-06-30T1300,3534A,111.4744,24.4553,贺州市,西湾,,23,18,19,3,12,72,,46,46,4,9,13,13,0.5,0.6
2025-06-30T1300,2385A,114.17,35.9019,鹤壁市,市监测站,,46,34,35,32,27,95,,62,62,7,9,6,4,0.9,0.9
2025-06-30T1300,2386A,114.2956,35.7511,鹤壁市,市交警支队,,31,24,29,10,17,97,,56,56,6,16,5,7,0.2,0.7
2025-06-30T1300,2387A,114.2878,35.7306,鹤壁市,迎宾馆,,43,43,36,12,23,99,,57,57,3,11,5,5,0.4,0.4
2025-06-30T1300,3474A,114.2617,35.6822,鹤壁市,大新区,,30,26,28,13,12,96,,55,55,2,10,5,6,0.7,0.7
2025-06-30T1300,3596A,114.1572,35.9603,鹤壁市,南山宾馆,,36,36,39,24,29,97,,65,65,6,9,3,3,0.3,0.4
2025-06-30T1300,2244A,130.2537,47.3416,鹤岗市,哈啤分公司,,37,12,15,9,12,117,,96,96,5,7,12,12,0.4,0.5
2025-06-30T1300,2245A,130.2684,47.3086,鹤岗市,斯达机电,,,16,26,,16,97,,83,83,5,8,13,14,0.4,0.5
2025-06-30T1300,2246A,130.3114,47.3388,鹤岗市,东山纸板厂,,27,17,28,8,14,85,,76,76,6,11,7,8,0.8,0.8
2025-06-30T1300,2247A,130.1097,47.3382,鹤岗市,五号水库,,34,,9,3,6,108,,90,90,8,10,15,16,0.7,0.6
2025-06-30T1300,2263A,127.4833,50.2524,黑河市,交通局,,,41,30,15,14,73,,58,58,,9,6,6,0.2,0.4
2025-06-30T1300,2264A,127.5144,50.2341,黑河市,环保局,,44,44,36,10,14,71,,56,56,10,8,16,8,0.1,0.3
2025-06-30T1300,2265A,127.5291,50.2472,黑河市,大黑河岛,,,31,10,13,13,14,,22,19,,,27,34,,0.4
2025-06-30T1300,1074A,115.6838,37.7541,衡水市,电机北厂,,37,29,32,14,19,118,,86,86,3,6,4,4,0.1,0.2
2025-06-30T1300,1075A,115.6303,37.7316,衡水市,市监测站,,38,34,35,3,12,121,,88,88,3,5,5,5,0.4,0.3
2025-06-30T1300,3188A,115.6683,37.7217,衡水市,市城管局,,40,,28,16,19,126,,90,90,2,6,3,2,0.2,0.3
2025-06-30T1300,3459A,115.5989,37.5491,衡水市,地表水厂,,39,26,37,3,7,122,,90,90,2,7,6,6,0.3,0.3
2025-06-30T1300,2456A,112.5003,26.9167,衡阳市,原169医院,,34,19,19,9,7,106,,75,75,4,8,6,5,0.4,0.4
2025-06-30T1300,2457A,112.6194,26.9258,衡阳市,衡阳化工总厂,,28,22,17,6,8,89,,67,67,7,7,4,4,0.4,0.4
2025-06-30T1300,2458A,112.6211,26.8956,衡阳市,珠晖区环保局,,,20,17,,,101,,74,74,4,7,6,7,0.5,0.5
2025-06-30T1300,2459A,112.6197,26.8733,衡阳市,市委党校,,27,19,17,7,8,84,,66,66,4,7,6,7,0.4,0.4
2025-06-30T1300,2460A,112.6006,26.8919,衡阳市,市监测站,,,,17,14,9,87,,66,66,6,8,,6,0.2,0.3
2025-06-30T1300,2461A,112.5664,26.9056,衡阳市,真空机电公司,,31,31,19,10,10,87,,65,65,3,7,5,6,0.4,0.5
2025-06-30T1300,3399A,112.6703,26.882,衡阳市,师范学院,,39,39,25,23,20,85,,66,66,4,6,6,6,0.4,0.5
2025-06-30T1300,2608A,103.3772,23.3993,红河哈尼族彝族自治州,污水处理厂,,18,,11,12,8,46,,35,35,2,3,7,7,0.1,0.1
2025-06-30T1300,2609A,103.3861,23.35,红河哈尼族彝族自治州,监测站,,18,18,20,3,12,38,,34,33,3,3,6,6,0.3,0.3
2025-06-30T1300,3038A,103.3758,23.368,红河哈尼族彝族自治州,州图书馆,,14,11,9,7,8,42,,37,36,4,3,1,1,0.2,0.2
2025-06-30T1300,1090A,111.6507,40.7517,呼和浩特市,呼市一监,"颗粒物(PM10),细颗粒物(PM2.5)",57,63,33,40,17,124,,96,96,12,18,10,9,0.7,0.6
2025-06-30T1300,1091A,111.6572,40.8033,呼和浩特市,小召,,46,46,32,31,15,129,,97,97,20,24,8,7,0.7,0.6
2025-06-30T1300,1094A,111.7516,40.8369,呼和浩特市,如意水处理厂,,50,50,30,24,14,150,,94,94,10,24,6,5,0.5,0.4
2025-06-30T1300,1095A,111.7276,40.8062,呼和浩特市,二十九中,,46,46,34,29,16,144,,98,98,11,20,7,6,0.7,0.6
2025-06-30T1300,1096A,111.5512,40.7866,呼和浩特市,工大金川校区,颗粒物(PM10),52,53,41,29,16,130,,87,87,15,29,11,7,0.3,0.3
2025-06-30T1300,1097A,111.717,40.7612,呼和浩特市,化肥厂生活区,颗粒物(PM10),57,64,32,30,16,142,,103,103,15,23,9,7,0.5,0.5
2025-06-30T1300,3698A,111.5968,40.8178,呼和浩特市,红旗小学,颗粒物(PM10),56,61,39,34,15,138,,97,97,18,25,12,6,0.5,0.4
2025-06-30T1300,3699A,111.6518,40.8389,呼和浩特市,海东办,颗粒物(PM10),51,51,33,29,14,145,,107,107,14,25,8,6,0.6,0.5
2025-06-30T1300,2192A,119.7594,49.2261,呼伦贝尔市,区环保局,,35,35,45,11,23,76,,68,68,6,14,5,7,0.5,0.6
2025-06-30T1300,3061A,119.7512,49.1577,呼伦贝尔市,国华电力东,,30,28,36,12,21,94,,80,80,6,11,4,6,0.5,0.6
2025-06-30T1300,1250A,120.0751,30.8669,湖州市,城西水厂,,48,35,32,23,19,152,,78,78,10,28,6,6,0.5,0.5
2025-06-30T1300,2873A,120.0830,30.8929,湖州市,仁皇山新区,,46,30,28,16,15,146,,68,68,10,29,5,5,0.6,0.6
2025-06-30T1300,2907A,120.1844,30.8596,湖州市,吴兴区站,臭氧1小时,52,33,25,22,17,161,,77,77,11,21,6,6,0.4,0.4
2025-06-30T1300,3562A,120.4148,30.8538,湖州市,南浔区站,,46,33,28,19,19,146,,78,78,8,13,5,5,0.4,0.4
2025-06-30T1300,1607A,120.9049,40.7211,葫芦岛市,龙港区,,43,39,47,30,38,86,,74,74,5,6,4,4,0.5,0.6
2025-06-30T1300,1608A,120.8392,40.7514,葫芦岛市,化工街,,,34,29,,24,90,,69,69,10,11,4,5,0.5,0.6
2025-06-30T1300,1609A,120.8341,40.7073,葫芦岛市,新区,细颗粒物(PM2.5),64,,33,46,44,94,,76,76,5,6,2,2,0.7,0.7
2025-06-30T1300,1610A,120.8695,40.7677,葫芦岛市,东城区,细颗粒物(PM2.5),78,,26,57,47,93,,67,67,8,10,2,2,0.7,0.7
2025-06-30T1300,2482A,109.5981,27.5721,怀化市,林科所,,18,13,17,3,4,55,,46,46,10,11,5,4,0.2,0.3
2025-06-30T1300,2483A,109.9453,27.5444,怀化市,河西地税局,,16,8,18,3,9,51,,45,45,2,10,5,6,0.2,0.2
2025-06-30T1300,2484A,109.9781,27.5342,怀化市,市四医院,,22,22,30,9,14,56,,39,39,4,9,2,3,0.5,0.5
2025-06-30T1300,2485A,109.9972,27.5578,怀化市,监测楼,,20,17,23,14,12,46,,38,38,2,6,2,3,0.1,0
2025-06-30T1300,2486A,110.0394,27.583,怀化市,市委党校,,19,8,22,3,10,60,,45,45,8,17,3,4,0,0.1
2025-06-30T1300,1210A,119.036,33.5981,淮安市,钵池山,,41,19,15,13,13,129,,80,80,7,13,10,8,0.4,0.4
2025-06-30T1300,1211A,119.007,33.575,淮安市,北京南路,,39,22,18,14,14,124,,72,72,4,13,8,8,0.8,0.8
2025-06-30T1300,1212A,118.989,33.6067,淮安市,市监测站,,37,19,19,14,13,116,,72,72,4,11,9,9,0.7,0.8
2025-06-30T1300,1213A,119.135,33.5039,淮安市,楚州区监测站,,44,44,26,21,33,113,,77,77,2,9,9,8,0.5,0.4
2025-06-30T1300,3426A,118.8755,33.2894,淮安市,新华书店,,37,21,13,12,10,117,,72,72,4,11,8,7,0.5,0.4
2025-06-30T1300,4206A,119.0288,33.6319,淮安市,承德北路606号,,33,,21,18,11,104,,67,67,7,10,8,6,0.5,0.4
2025-06-30T1300,2282A,116.8004,33.975,淮北市,监测站,,35,19,14,8,9,110,,66,66,2,5,6,6,0.4,0.4
2025-06-30T1300,2283A,116.8091,33.9007,淮北市,烈山区政府,,32,17,18,8,4,101,,66,66,2,6,7,6,0.5,0.5
2025-06-30T1300,3330A,116.8873,33.9836,淮北市,杜集区检察院,,32,22,22,3,10,102,,64,64,6,10,7,7,0.7,0.8
2025-06-30T1300,4017A,116.7923,33.9535,淮北市,市博物馆,,35,12,15,9,9,112,,68,68,2,4,7,7,0.7,0.7
2025-06-30T1300,2277A,116.8305,32.7727,淮南市,潘集区政府,,26,14,14,8,9,82,,58,58,4,8,3,3,0.3,0.3
2025-06-30T1300,2279A,116.8569,32.5951,淮南市,谢家集区政府,,26,20,14,3,5,83,,61,61,3,6,5,5,0.2,0.1
2025-06-30T1300,2280A,116.8281,32.633,淮南市,八公山区政府,,27,13,15,6,7,84,,62,62,5,7,4,3,0.2,0.2
2025-06-30T1300,2281A,116.6325,32.6201,淮南市,焦岗湖风景区管理处,,,,,,,,,,,,,,,,
2025-06-30T1300,2894A,117.0566,32.6531,淮南市,经济技术开发区消防队,,27,13,11,3,4,86,,65,65,3,6,7,7,0.2,0.3
2025-06-30T1300,3329A,117.0108,32.5893,淮南市,山南新区,,27,,9,7,7,86,,65,65,2,4,8,7,0.3,0.3
2025-06-30T1300,4209A,117.0031,32.6445,淮南市,国庆中路369号,,28,,8,11,10,87,,66,66,2,5,7,7,0.1,0.1
2025-06-30T1300,2446A,114.9028,30.4742,黄冈市,职工中心,,41,25,24,15,12,131,,76,76,2,3,12,11,0.4,0.4
2025-06-30T1300,2929A,114.8858,30.4519,黄冈市,红卫路,,42,26,22,18,13,132,,80,80,2,4,10,8,0.5,0.4
2025-06-30T1300,3398A,114.9136,30.4445,黄冈市,市林业局,,36,28,24,18,17,115,,69,69,2,5,7,8,0.4,0.4
2025-06-30T1300,2672A,102.0199,35.5102,黄南藏族自治州,同仁县隆务镇,,26,15,16,6,5,82,,59,59,7,8,9,8,0.2,0.1
2025-06-30T1300,2295A,118.2903,29.6963,黄山市,延安路89号,,37,37,20,18,7,93,,30,30,7,6,7,7,0.6,0.5
2025-06-30T1300,2297A,118.1371,30.2756,黄山市,黄山区政府5号楼,,20,20,15,7,8,58,,24,24,3,3,4,4,0.5,0.6
2025-06-30T1300,4210A,118.3354,29.7203,黄山市,滨江东路7-2号,,31,31,26,3,6,86,,34,34,6,6,4,4,0.4,0.4
2025-06-30T1300,2423A,115.0601,30.2313,黄石市,沈家营,,37,36,34,12,9,118,,63,63,8,16,6,7,0.3,0.5
2025-06-30T1300,2426A,114.8988,30.2019,黄石市,铁山,,36,23,24,3,8,114,,68,68,1,10,4,4,0.7,0.6
2025-06-30T1300,2427A,115.0307,30.2092,黄石市,团城山,,37,19,26,3,4,116,,67,67,2,10,7,7,0.3,0.5
2025-06-30T1300,3149A,115.0235,30.1578,黄石市,笔架山北路,,35,20,22,3,3,109,,68,68,6,9,6,7,0.4,0.4
2025-06-30T1300,4185A,115.0780,30.21118,黄石市,磁湖东路29号,,35,32,38,9,10,111,,64,64,2,15,7,9,0.5,0.7
2025-06-30T1300,1392A,114.4183,23.0528,惠州市,河南岸金山湖子站,,18,10,11,6,5,57,,33,33,4,7,7,7,0.2,0.3
2025-06-30T1300,1393A,114.4053,23.0822,惠州市,下埔横江三路子站,,20,8,12,3,6,61,,36,36,3,6,4,5,0.2,0.2
2025-06-30T1300,1394A,114.4103,23.1142,惠州市,江北云山西路子站,,26,26,9,3,4,64,,37,37,1,5,6,8,0.4,0.4
2025-06-30T1300,1395A,114.4645,22.7833,惠州市,惠阳区承修路船湖子站,,16,7,8,3,4,49,,31,31,7,8,6,7,0.4,0.4
2025-06-30T1300,1396A,114.5317,22.7422,惠州市,大亚湾管委会子站,,14,9,10,3,4,44,,33,30,6,9,10,10,0.4,0.4
2025-06-30T1300,3314A,114.4338,22.8134,惠州市,惠阳秋长,,20,7,8,3,5,61,,38,38,6,7,10,13,0.4,0.4
2025-06-30T1300,3452A,114.6517,22.775,惠州市,大亚湾霞涌,,,,12,,5,,,28,,,11,,5,,0.5
2025-06-30T1300,2240A,130.9762,45.3001,鸡西市,环保局,,46,23,24,14,13,147,,106,106,6,14,4,5,0.5,0.5
2025-06-30T1300,2243A,130.9429,45.3039,鸡西市,第一中学,,44,20,22,16,11,140,,94,94,9,16,7,9,0.5,0.5
2025-06-30T1300,3707A,131.0207,45.3073,鸡西市,欧美日汽修厂,,46,34,27,16,14,145,,104,104,8,18,7,8,0.7,0.6
2025-06-30T1300,3709A,130.9967,45.3106,鸡西市,市政设施管理处,,44,26,27,16,14,140,,100,100,10,18,4,4,0.7,0.8
2025-06-30T1300,2367A,114.9754,27.0803,吉安市,红声器材厂,,20,15,15,7,6,62,,57,57,2,4,8,9,0.2,0.2
2025-06-30T1300,2368A,114.9658,27.0999,吉安市,市森林工业局,,22,16,14,3,5,69,,62,62,1,2,7,8,0.3,0.3
2025-06-30T1300,2369A,114.99,27.1312,吉安市,市环境监测站,,24,16,21,11,9,74,,63,63,1,2,10,14,0.3,0.3
2025-06-30T1300,2370A,115.0093,27.0968,吉安市,青原区法院,,21,16,14,3,5,66,,56,56,5,8,7,8,0.3,0.3
2025-06-30T1300,1772A,126.54,43.8622,吉林市,哈达湾,,28,,45,19,27,47,,46,46,10,18,6,7,0.5,0.7
2025-06-30T1300,1773A,126.5844,43.8358,吉林市,东局子,,39,39,50,11,26,43,,37,37,8,16,5,5,0.8,1
2025-06-30T1300,1774A,126.5052,43.8245,吉林市,电力学院,,18,,44,12,32,47,,38,38,8,27,5,6,0.8,1
2025-06-30T1300,1775A,126.6133,43.8972,吉林市,江北,,18,18,36,11,23,44,,37,37,6,14,8,8,0.6,0.8
2025-06-30T1300,1776A,126.555,43.8306,吉林市,江南公园,,,24,40,19,35,46,,43,43,,18,3,5,0.7,0.7
2025-06-30T1300,1778A,126.7061,43.7133,吉林市,丰满,,,,,,,,,,,,,,,,
2025-06-30T1300,2868A,126.4739,43.953,吉林市,九站,,22,22,47,13,37,64,,54,53,8,22,4,6,0.3,0.6
2025-06-30T1300,1299A,116.9862,36.6114,济南市,科干所,,32,12,9,10,10,102,,76,76,3,5,4,4,0.5,0.5
2025-06-30T1300,1300A,116.9376,36.665,济南市,农科所,,31,17,14,12,4,99,,72,72,7,11,7,6,0.2,0.1
2025-06-30T1300,1301A,117.1265,36.6734,济南市,开发区,,28,15,12,7,8,88,,72,72,8,12,6,6,0.4,0.4
2025-06-30T1300,1303A,117.0624,36.6868,济南市,省种子仓库,,35,19,19,9,7,111,,84,84,4,18,5,4,0.4,0.5
2025-06-30T1300,1304A,116.9489,36.6447,济南市,机床二厂,,32,20,18,7,5,100,,73,73,8,16,4,4,0.4,0.4
2025-06-30T1300,1305A,117.0495,36.663,济南市,市监测站,,30,17,10,10,8,94,,72,72,11,16,8,8,0.4,0.4
2025-06-30T1300,1306A,116.7675,36.5484,济南市,长清党校,,35,,10,24,14,94,,67,66,8,11,5,5,0.3,0.3
2025-06-30T1300,1616A,117.6795,36.229,济南市,技术学院,,30,9,17,9,13,93,,67,67,7,30,7,8,0.6,0.8
2025-06-30T1300,1961A,117.532,36.6868,济南市,东山小学,,29,15,17,10,11,92,,74,74,5,10,6,6,0.1,0.3
2025-06-30T1300,3059A,117.7161,36.2049,济南市,泰兴公司,,26,24,24,17,15,81,,55,55,4,18,9,8,0.2,0.3
2025-06-30T1300,3064A,117.6867,36.2171,济南市,莱芜战役纪念馆,,26,17,27,12,14,82,,58,58,1,13,8,7,0.8,1.1
2025-06-30T1300,3494A,117.1673,36.9782,济南市,济阳区政府,,41,22,29,7,10,130,,80,80,5,22,6,5,0.2,0.3
2025-06-30T1300,3495A,117.1171,36.63,济南市,锦屏中学,,27,10,10,3,5,84,,69,69,7,8,5,5,0.4,0.5
2025-06-30T1300,3682A,116.9814,36.6819,济南市,济南四建,,33,19,12,12,13,104,,78,78,6,13,4,4,0.3,0.4
2025-06-30T1300,1653A,116.6251,35.4302,济宁市,火炬城,,28,28,17,9,6,88,,56,56,2,5,5,5,0.4,0.4
2025-06-30T1300,1655A,116.5491,35.4042,济宁市,电化厂,,31,18,18,17,9,97,,72,72,7,10,4,3,0.7,0.8
2025-06-30T1300,3500A,116.5814,35.3707,济宁市,北湖一中,,32,30,16,13,7,102,,69,69,2,6,4,4,0.3,0.3
2025-06-30T1300,3501A,116.8249,35.5593,济宁市,服务中心,,33,19,17,7,4,103,,65,65,4,12,1,1,0.3,0.3
2025-06-30T1300,3678A,116.5907,35.4054,济宁市,市第七中学,,30,26,19,3,2,95,,68,68,2,5,11,10,0.4,0.4
2025-06-30T1300,2255A,130.2751,46.8028,佳木斯市,佳纺,,35,16,26,13,14,111,,89,89,5,13,4,5,0.5,0.5
2025-06-30T1300,2256A,130.3995,46.8307,佳木斯市,发电厂,,35,31,26,14,13,112,,95,95,8,12,5,5,0.5,0.5
2025-06-30T1300,2257A,130.3258,46.7975,佳木斯市,环保局,,40,20,26,13,14,126,,101,101,6,12,6,5,0.5,0.5
2025-06-30T1300,2258A,130.3648,46.8032,佳木斯市,十一中,,41,,22,9,14,131,,64,,7,11,5,4,0.5,0.6
2025-06-30T1300,2259A,130.3794,46.7588,佳木斯市,四丰,,,5,21,,,,,,,7,8,1,18,0.6,0.6
2025-06-30T1300,1252A,120.7436,30.778,嘉兴市,清河小学,,40,25,26,13,13,127,,77,77,9,15,8,8,0.4,0.5
2025-06-30T1300,1253A,120.726,30.7478,嘉兴市,嘉兴学院,,45,33,27,13,13,142,,83,83,7,13,6,5,0.3,0.4
2025-06-30T1300,2872A,120.7846,30.7525,嘉兴市,南湖区残联,,,,24,8,13,118,,75,75,4,12,5,6,0.1,0.2
2025-06-30T1300,3407A,120.6916,30.7739,嘉兴市,秀洲住建,,48,26,25,13,13,153,,87,87,8,14,7,6,0.6,0.7
2025-06-30T1300,1945A,98.2908,39.7711,嘉峪关市,气象局,,46,12,29,7,11,147,,114,114,5,10,3,6,0.5,0.6
2025-06-30T1300,2884A,98.2672,39.7978,嘉峪关市,酒钢宾馆,,46,14,32,3,12,146,,112,112,2,6,14,20,0.5,0.5
2025-06-30T1300,3248A,98.2643,39.7724,嘉峪关市,雄关区,,46,24,35,11,18,145,,109,109,6,13,8,9,0.4,0.3
2025-06-30T1300,1383A,113.1064,22.6058,江门市,北街,,34,34,14,10,6,76,,38,38,8,14,3,3,0.2,0.4
2025-06-30T1300,1384A,113.0731,22.5835,江门市,西区,,24,12,13,3,6,74,,40,40,4,11,8,8,0.4,0.4
2025-06-30T1300,1385A,113.0219,22.5311,江门市,圭峰西,,23,18,16,3,7,71,,39,39,4,9,3,3,0.5,0.6
2025-06-30T1300,1386A,113.0828,22.5947,江门市,东湖,,22,7,11,3,6,68,,34,34,6,13,6,6,0.4,0.5
2025-06-30T1300,3311A,113.1075,22.5647,江门市,江海富民,,24,19,23,9,12,74,,38,38,6,13,9,10,0.5,0.5
2025-06-30T1300,3449A,113.05,22.4667,江门市,新会银湖,,20,13,13,3,10,64,,32,32,2,10,2,2,0.4,0.4
2025-06-30T1300,1830A,113.1992,35.2590,焦作市,影视城,,,,22,,16,,,,,,4,,13,,0.2
2025-06-30T1300,3169A,113.2725,35.2067,焦作市,太极体育中心,,44,44,44,24,36,124,,80,80,3,10,3,4,0.3,0.5
2025-06-30T1300,3335A,113.3137,35.2641,焦作市,马村街道办,,39,31,43,26,30,122,,79,79,10,13,12,10,0.7,0.6
2025-06-30T1300,3336A,113.2465,35.2373,焦作市,焦作技师学院,,46,46,43,14,17,126,,84,84,7,13,4,4,0.7,0.8
2025-06-30T1300,3477A,113.1656,35.2539,焦作市,中站许衡医院,,38,34,42,24,27,120,,84,84,8,13,7,7,0.5,0.5
2025-06-30T1300,3981A,113.2449,35.1803,焦作市,原李万街道办,,41,37,47,14,16,129,,80,80,8,14,12,14,0.1,0.1
2025-06-30T1300,4264A,113.2340,35.2190,焦作市,新安路1731号,,,,42,20,23,58,,64,64,,9,6,4,0.5,0.4
2025-06-30T1300,1708A,116.3701,23.5345,揭阳市,新兴,,50,50,20,8,11,85,,48,48,8,14,6,8,0.6,0.5
2025-06-30T1300,1709A,116.3264,23.5443,揭阳市,西马,,28,27,21,9,10,89,,50,50,5,10,3,4,0.8,0.7
2025-06-30T1300,1710A,116.3611,23.5626,揭阳市,东兴,,,46,21,6,10,100,,54,54,8,13,4,6,,0.6
2025-06-30T1300,1711A,116.4151,23.5294,揭阳市,渔湖,,29,,21,20,9,78,,39,39,6,15,7,7,0.4,0.4
2025-06-30T1300,3320A,116.403,23.5699,揭阳市,曲溪,,30,30,18,13,9,94,,49,49,7,11,6,9,0.5,0.5
2025-06-30T1300,1944A,102.1692,38.5167,金昌市,天庆家园,,45,31,39,7,23,141,,84,84,9,16,32,17,0.2,0.7
2025-06-30T1300,4022A,102.1647,38.5371,金昌市,金川区人防中心,,46,43,43,11,20,145,,80,80,8,13,26,16,0.7,0.7
2025-06-30T1300,4239A,102.1930,38.5319,金昌市,长春路96号,,46,30,38,10,21,146,,88,88,5,15,29,39,0.5,0.7
2025-06-30T1300,1262A,119.647,29.077,金华市,十五中,,24,,28,10,15,74,,60,60,2,17,4,5,0.3,0.4
2025-06-30T1300,1263A,119.686,29.1029,金华市,监测站,,21,6,26,3,14,66,,45,45,2,19,2,2,0.5,0.7
2025-06-30T1300,3659A,119.656,29.1131,金华市,气象局,,23,13,28,3,12,72,,50,50,4,25,3,3,0.3,0.5
2025-06-30T1300,1767A,121.1115,41.0879,锦州市,南山,,43,30,27,30,24,68,,53,53,7,10,6,5,0.7,0.7
2025-06-30T1300,1768A,121.0604,40.8428,锦州市,开发区,,28,10,26,7,11,87,,74,74,12,16,4,4,0.6,0.7
2025-06-30T1300,1769A,121.1836,41.1119,锦州市,百股街道,,39,,24,27,21,75,,66,66,8,7,3,2,0.5,0.6
2025-06-30T1300,1770A,121.1178,41.1222,锦州市,天安街道,,39,,29,27,25,79,,67,67,11,13,6,3,0.7,0.7
2025-06-30T1300,1771A,121.1303,41.1386,锦州市,北湖公园,,35,30,34,24,21,72,,54,54,8,9,2,2,0.6,0.7
2025-06-30T1300,2160A,112.85,35.5051,晋城市,自来水公司,,38,32,38,19,16,120,,90,90,4,6,1,2,0.4,0.5
2025-06-30T1300,2161A,112.8318,35.4936,晋城市,白云商贸,,36,22,34,9,8,113,,86,86,8,9,4,4,0.5,0.5
2025-06-30T1300,2162A,112.8508,35.4887,晋城市,市环保局,,48,48,44,14,15,113,,83,83,6,7,8,7,0,0
2025-06-30T1300,2163A,112.8676,35.4897,晋城市,技术学院,,34,22,30,19,13,107,,82,82,4,6,6,6,0.5,0.5
2025-06-30T1300,2165A,112.8453,35.546,晋城市,白马寺,,37,,19,16,20,117,,84,84,2,6,5,5,0.5,0.5
2025-06-30T1300,3620A,112.8271,35.4828,晋城市,泽州一中,,40,40,27,22,12,120,,89,89,7,8,4,3,0.5,0.6
2025-06-30T1300,2173A,112.7249,37.7067,晋中市,南都小区,,50,50,43,28,28,154,,106,106,3,8,2,2,0.8,0.7
2025-06-30T1300,2174A,112.6991,37.6982,晋中市,榆次区政府,,47,46,37,17,22,150,,105,105,3,9,6,6,0.8,0.8
2025-06-30T1300,2865A,112.7195,37.6828,晋中市,榆次三中,臭氧1小时,52,41,34,22,19,161,,112,112,5,8,7,6,0.6,0.4
2025-06-30T1300,4200A,112.7478,37.6954,晋中市,迎宾街26号,臭氧1小时,55,29,34,27,21,164,,114,114,7,10,8,7,0.7,0.5
2025-06-30T1300,2439A,112.2014,31.0481,荆门市,竹园小学,,37,37,23,13,12,94,,53,53,7,10,7,7,0.5,0.5
2025-06-30T1300,2440A,112.1969,30.9891,荆门市,掇刀,,32,22,22,14,11,101,,53,53,4,8,8,8,0.6,0.6
2025-06-30T1300,2441A,112.2213,31.0386,荆门市,石化一小,,36,36,23,24,16,105,,57,57,6,10,11,12,0.4,0.4
2025-06-30T1300,3012A,112.1849,31.0362,荆门市,西山林语,,29,21,21,12,11,92,,50,50,1,5,10,11,0.4,0.4
2025-06-30T1300,3547A,112.1632,31.0138,荆门市,龙泉中学南校,,31,,22,19,12,99,,55,55,5,6,5,6,0.4,0.4
2025-06-30T1300,1844A,112.2494,30.3197,荆州市,市图书馆,,33,11,19,11,10,105,,67,67,4,7,3,3,0.5,0.5
2025-06-30T1300,1845A,112.2008,30.3544,荆州市,市委党校,,27,15,21,15,13,84,,53,53,8,11,6,6,0.5,0.5
2025-06-30T1300,3194A,112.2747,30.3122,荆州市,管委会,,31,,20,17,15,97,,63,63,4,8,15,12,0.7,0.7
2025-06-30T1300,4268A,112.1722,30.3366,荆州市,学苑路85号,,29,20,17,14,15,90,,55,55,2,13,4,4,0.4,0.4
2025-06-30T1300,2342A,117.3102,29.3867,景德镇市,王港中学,,,,,,,,,,,,,,,,
2025-06-30T1300,2343A,117.2117,29.2933,景德镇市,老干部活动中心,,30,19,24,10,11,95,,44,44,10,14,10,7,0.5,0.5
2025-06-30T1300,2344A,117.1894,29.2789,景德镇市,兽医站,,32,32,28,10,10,75,,44,44,6,10,6,4,0.5,0.5
2025-06-30T1300,2345A,117.1547,29.2617,景德镇市,台达陶瓷,,27,27,28,11,14,81,,42,42,16,16,21,24,0.9,0.8
2025-06-30T1300,2346A,117.2461,29.2956,景德镇市,陶研所,,,22,23,11,12,84,,43,43,7,8,6,6,,0.4
2025-06-30T1300,1803A,115.9872,29.6815,九江市,十里,,32,,17,14,14,102,,59,59,6,21,4,3,0.6,0.5
2025-06-30T1300,1804A,115.9584,29.7046,九江市,茅山头,,23,6,23,3,13,71,,44,44,4,22,4,4,0.2,0.4
2025-06-30T1300,1805A,115.9877,29.7295,九江市,西园,,35,11,20,7,14,111,,59,59,11,42,6,8,0.6,0.7
2025-06-30T1300,1808A,115.9114,29.6038,九江市,综合工业园,,,10,16,,7,78,,54,54,2,16,3,3,0.6,0.7
2025-06-30T1300,1809A,116.0721,29.7535,九江市,石化总厂,,31,15,21,6,20,97,,68,68,2,5,9,9,0.4,0.4
2025-06-30T1300,1810A,115.9773,29.5698,九江市,庐山气象台,,24,8,7,6,3,75,,61,61,3,3,6,7,0.8,0.8
2025-06-30T1300,3190A,116.0254,29.6994,九江市,外国语学校,,27,,14,9,13,86,,55,55,5,18,4,5,0.6,0.6
2025-06-30T1300,4253A,116.0102,29.6594,九江市,莲花大道8号,,25,,13,10,8,77,,47,47,1,7,4,4,0.5,0.5
2025-06-30T1300,4240A,98.4958,39.7339,酒泉市,玉门东路5号,,46,19,29,13,23,145,,104,104,5,7,15,12,0.3,0.2
2025-06-30T1300,4241A,98.5099,39.7506,酒泉市,北大街108号,,49,19,31,14,17,155,,102,102,4,7,18,15,0.3,0.2
2025-06-30T1300,2698A,76.0072,39.4467,喀什地区,巡警大队,颗粒物(PM10),94,137,162,29,45,122,,75,73,19,27,1,2,0.4,0.4
2025-06-30T1300,2699A,75.9755,39.4694,喀什地区,吾办,颗粒物(PM10),89,127,150,46,68,124,,87,87,19,21,8,7,0.5,0.6
2025-06-30T1300,4027A,75.9483,39.4689,喀什地区,老干局,颗粒物(PM10),85,120,131,36,46,122,,86,86,14,12,6,5,0.4,0.4
2025-06-30T1300,1824A,114.3389,34.7781,开封市,肿瘤医院,,32,32,24,8,13,98,,58,58,6,20,1,2,0.2,0.3
2025-06-30T1300,1826A,114.2885,34.7965,开封市,世纪星幼儿园,,32,20,25,3,18,102,,63,63,6,18,2,2,0.4,0.5
2025-06-30T1300,3147A,114.3438,34.8106,开封市,龙亭公园,,30,22,22,3,23,96,,58,58,2,16,2,2,0.2,0.2
2025-06-30T1300,3210A,114.3644,34.7964,开封市,汴京公园,,33,30,31,8,15,105,,65,65,5,19,3,4,0.4,0.4
2025-06-30T1300,3473A,114.2485,34.8306,开封市,技师学院,,33,28,24,3,12,103,,66,66,2,16,3,4,0.6,0.6
2025-06-30T1300,3592A,114.4644,34.7556,开封市,祥符区生态环境局,,33,,22,23,10,97,,56,56,9,25,4,4,0.5,0.6
2025-06-30T1300,1951A,84.895,45.6094,克拉玛依市,长征新村,,30,,16,3,6,94,,93,93,8,6,4,5,0.2,0.2
2025-06-30T1300,1952A,84.8988,45.5893,克拉玛依市,南林小区,,29,14,18,6,8,90,,89,89,10,9,3,3,0.2,0.2
2025-06-30T1300,1954A,84.905,44.3396,克拉玛依市,独山子区,,33,14,27,12,9,105,,107,95,9,9,8,8,0.3,0.3
2025-06-30T1300,1955A,85.6979,46.098,克拉玛依市,乌尔禾区商贸楼,,37,19,19,3,6,116,,95,95,2,3,4,4,0.4,0.4
2025-06-30T1300,3612A,85.1045,45.6899,克拉玛依市,白碱滩区新站,,37,,16,11,16,117,,115,107,10,9,8,8,0.3,0.2
2025-06-30T1300,2697A,76.1454,39.7142,克孜勒苏柯尔克孜自治州,市人民政府,颗粒物(PM10),89,127,111,54,52,129,,121,111,4,10,4,4,0.1,0.1
2025-06-30T1300,3665A,76.1658,39.7157,克孜勒苏柯尔克孜自治州,克州文化中心,颗粒物(PM10),93,136,116,55,51,127,,119,109,4,9,4,4,0.2,0.2
2025-06-30T1300,1450A,102.8204,24.8886,昆明市,呈贡新区,,15,12,10,10,12,48,,34,34,10,13,6,7,0.3,0.3
2025-06-30T1300,1451A,102.6251,24.9608,昆明市,西山森林公园,,,,,,,,,,,,,,,,
2025-06-30T1300,1452A,102.7252,25.0902,昆明市,龙泉镇,,27,27,18,8,8,28,,29,26,14,11,1,2,0.4,0.4
2025-06-30T1300,1453A,102.7266,25.0375,昆明市,东风东路,,35,27,15,24,9,38,,34,31,13,11,4,5,0.4,0.3
2025-06-30T1300,1454A,102.6742,25.0669,昆明市,金鼎山,,27,27,20,9,6,28,,26,26,16,12,1,2,0.4,0.3
2025-06-30T1300,1455A,102.6644,25.0401,昆明市,碧鸡广场,,31,31,19,9,8,28,,23,23,15,17,5,7,0.5,0.4
2025-06-30T1300,3179A,102.7494,25.0119,昆明市,官渡区博物馆,,13,13,14,8,5,34,,35,31,12,9,7,7,0.4,0.3
2025-06-30T1300,3375A,102.8017,24.8336,昆明市,青年创业园,,16,11,13,9,8,51,,34,34,7,10,3,4,0.4,0.4
2025-06-30T1300,3550A,102.7997,24.9786,昆明市,昆明学院,,25,25,16,15,8,37,,33,31,11,9,6,6,0.4,0.3
2025-06-30T1300,3551A,102.5967,24.6736,昆明市,晋宁区生态环境分局,,15,14,16,3,5,46,,32,32,5,9,2,3,0.1,0.2
2025-06-30T1300,3552A,102.6678,24.9856,昆明市,云天化总部,,22,16,11,15,7,34,,32,30,10,9,4,5,0.6,0.6
2025-06-30T1300,1456A,91.1319,29.6514,拉萨市,八廓街,,33,14,14,10,7,103,,104,95,7,8,7,7,0.3,0.2
2025-06-30T1300,1457A,91.1221,29.6747,拉萨市,市环保局,,34,14,16,3,7,107,,103,96,8,10,7,8,0.3,0.3
2025-06-30T1300,1458A,91.0874,29.6475,拉萨市,区监测站,,31,10,12,6,7,99,,106,91,8,10,7,7,0.2,0.2
2025-06-30T1300,1459A,91.1774,29.6541,拉萨市,西藏大学,,33,16,12,6,6,105,,100,94,11,9,6,6,0.3,0.3
2025-06-30T1300,1460A,90.9798,29.6588,拉萨市,区辐射站,,26,13,15,7,7,82,,96,84,9,11,6,6,0.2,0.2
2025-06-30T1300,1461A,91.0834,29.6292,拉萨市,拉萨火车站,,31,11,11,3,6,99,,108,94,6,7,4,4,0.1,0.1
2025-06-30T1300,2520A,109.2203,23.7256,来宾市,来宾技工学校,,23,16,19,10,10,72,,41,41,3,8,7,8,0.5,0.5
2025-06-30T1300,3535A,109.1781,23.7297,来宾市,兴宾区政府,,26,26,19,16,10,70,,41,41,4,9,10,11,0.6,0.6
2025-06-30T1300,4002A,109.2416,23.7461,来宾市,中南小学,,24,20,18,9,8,74,,40,40,4,9,11,12,0.5,0.5
2025-06-30T1300,1477A,104.1373,35.9454,兰州市,榆中兰大校区,,,,,,,,,,,,,,,,
2025-06-30T1300,1479A,103.831,36.0464,兰州市,铁路设计院,颗粒物(PM10),57,63,46,34,28,152,,73,73,26,28,11,7,0.7,0.5
2025-06-30T1300,3241A,103.7439,36.0842,兰州市,百合公园,,,,32,,26,,,68,,,17,,4,,0.3
2025-06-30T1300,3242A,103.9611,35.998,兰州市,和平,细颗粒物(PM2.5),53,48,39,37,21,148,,92,92,16,13,26,11,1.5,0.6
2025-06-30T1300,4236A,103.6293,36.0938,兰州市,庄浪东路808号,臭氧1小时,89,61,36,43,26,191,,92,92,36,36,19,10,0.7,0.3
2025-06-30T1300,4237A,103.7251,36.1043,兰州市,安宁西路88号,,49,32,35,22,21,154,,88,88,4,12,13,6,0.6,0.3
2025-06-30T1300,4238A,103.8470,36.0676,兰州市,北滨河东路1号,,50,39,35,33,27,159,,73,73,20,23,10,7,0.7,0.6
2025-06-30T1300,3245A,103.6633,36.533,兰州新区,新区管委会,,41,29,26,25,18,129,,83,83,5,7,7,6,0.4,0.3
2025-06-30T1300,3246A,103.6975,36.4789,兰州新区,舟曲中学,,37,15,28,12,14,118,,80,80,6,9,8,8,0.4,0.5
2025-06-30T1300,1067A,116.6708,39.5111,廊坊市,药材公司,,42,40,36,24,20,134,,95,95,8,12,2,3,0.3,0.4
2025-06-30T1300,1068A,116.7214,39.5589,廊坊市,开发区,,45,45,37,25,25,142,,96,96,7,13,1,1,0.4,0.4
2025-06-30T1300,1070A,116.7244,39.5269,廊坊市,北华航天学院,,,,54,,38,134,,95,95,1,7,1,2,,0.4
2025-06-30T1300,2919A,116.7022,39.5453,廊坊市,河北工业大学,,46,41,45,28,20,147,,102,102,10,13,2,3,0.3,0.4
2025-06-30T1300,2535A,103.7723,29.5462,乐山市,花湖湾,,30,11,10,9,8,96,,52,46,9,10,2,2,0.4,0.5
2025-06-30T1300,2536A,103.7627,29.5844,乐山市,牛耳桥,,35,11,11,7,7,112,,58,57,10,14,6,6,0.7,0.8
2025-06-30T1300,2537A,103.7508,29.6006,乐山市,市第三水厂,,34,,12,11,6,107,,58,56,9,13,5,4,0.5,0.7
2025-06-30T1300,2538A,103.7571,29.5664,乐山市,市监测站,,31,14,13,9,9,99,,58,54,6,8,5,5,0.7,0.7
2025-06-30T1300,3361A,103.7311,29.5628,乐山市,理工大学,,35,13,14,8,9,110,,55,49,5,11,8,7,0.5,0.6
2025-06-30T1300,2598A,100.2143,26.8576,丽江市,西南郊,,27,9,11,3,5,85,,79,79,4,5,6,15,0.8,1.2
2025-06-30T1300,2599A,100.2497,26.8802,丽江市,丽江古城,,25,17,16,6,5,78,,44,44,8,10,10,10,0.4,0.5
2025-06-30T1300,2600A,100.2203,26.8906,丽江市,市中心,,28,11,10,11,7,88,,49,49,9,11,7,7,0.7,0.7
2025-06-30T1300,1267A,119.914,28.4514,丽水市,监测站大楼,,19,14,21,3,8,60,,33,33,7,12,3,4,0.3,0.4
2025-06-30T1300,1268A,119.93,28.4586,丽水市,莲都小学,,17,8,19,3,8,53,,31,31,4,12,3,3,0.3,0.4
2025-06-30T1300,1269A,119.879,28.4231,丽水市,余庄前,,20,8,21,3,11,62,,31,31,2,7,3,3,0.4,0.5
2025-06-30T1300,1173A,119.176,34.5885,连云港市,市环境监测站,,36,29,11,24,10,115,,77,77,8,12,4,4,0.4,0.3
2025-06-30T1300,3000A,119.3581,34.6972,连云港市,德源药业,,35,29,12,22,4,112,,62,62,13,15,8,8,0.6,0.6
2025-06-30T1300,3007A,119.178,34.844,连云港市,新城一中,,35,20,17,11,7,109,,70,70,7,15,5,5,0.9,0.8
2025-06-30T1300,3008A,119.3608,34.7519,连云港市,胡沟管理处,,36,24,10,24,4,115,,64,64,21,18,5,6,1.0,0.9
2025-06-30T1300,3009A,119.1478,34.5911,连云港市,矿山设计院,,32,24,12,22,8,86,,59,59,3,7,4,4,0.6,0.5
2025-06-30T1300,3434A,119.2413,34.6539,连云港市,工贸学校,,45,,10,31,10,108,,76,76,2,2,7,6,0.7,0.7
2025-06-30T1300,3664A,119.4172,34.7341,连云港市,连云街道,,36,29,12,18,7,115,,76,76,12,8,9,6,0.6,0.6
2025-06-30T1300,2571A,102.3431,27.8099,凉山彝族自治州,青龙寺,,29,7,13,3,5,91,,50,50,1,5,5,5,0.4,0.5
2025-06-30T1300,2572A,102.2721,27.8415,凉山彝族自治州,邛海宾馆,,30,13,15,11,9,96,,62,62,4,9,8,8,0.4,0.4
2025-06-30T1300,2573A,102.2625,27.898,凉山彝族自治州,西昌市政府,,27,24,21,3,6,86,,62,62,5,8,11,12,0.6,0.6
2025-06-30T1300,2574A,102.2685,27.8851,凉山彝族自治州,凉山州政府,,29,10,15,8,11,92,,67,67,11,13,8,9,0.7,0.9
2025-06-30T1300,4229A,102.2342,27.8859,凉山彝族自治州,凯乐南路30号,,28,12,20,3,7,89,,61,61,6,15,9,12,0.6,0.8
2025-06-30T1300,2212A,123.2,41.1953,辽阳市,宏伟区,,20,20,10,3,2,62,,61,47,4,3,2,3,0.7,0.6
2025-06-30T1300,2213A,123.1683,41.2495,辽阳市,新华园,,25,13,8,3,4,79,,67,58,8,3,9,7,0.4,0.2
2025-06-30T1300,2214A,123.2354,41.2639,辽阳市,滨河路,,21,,11,3,7,67,,47,45,5,6,7,7,0.4,0.4
2025-06-30T1300,2215A,123.149,41.2991,辽阳市,铁西工业园,,19,16,14,3,2,59,,55,42,9,5,2,2,1.1,0.6
2025-06-30T1300,2227A,125.1358,42.8845,辽源市,环保局,,20,12,32,3,13,62,,43,43,4,16,2,2,0.3,0.4
2025-06-30T1300,3239A,125.0764,42.9078,辽源市,银鹰制药,,19,6,21,3,16,59,,38,38,4,23,3,2,0.4,0.5
2025-06-30T1300,1625A,115.9848,36.4372,聊城市,区政府,,31,19,20,13,13,98,,68,68,5,10,3,8,0.6,0.6
2025-06-30T1300,2878A,116.0072,36.4343,聊城市,聊大东校,,32,,17,19,15,101,,69,69,2,8,7,6,0.4,0.4
2025-06-30T1300,3200A,115.9819,36.4978,聊城市,监控中心,,32,17,9,9,6,102,,72,72,1,6,7,7,0.6,0.5
2025-06-30T1300,3513A,116.0445,36.4361,聊城市,九州社区,,31,18,21,17,11,99,,68,68,5,11,4,4,0.3,0.3
2025-06-30T1300,4018A,116.0567,36.4608,聊城市,星美广场,,35,23,23,11,8,110,,76,76,4,8,9,9,0.6,0.6
2025-06-30T1300,2632A,94.3681,29.6376,林芝市,林芝监测站,,,,14,8,7,60,,47,40,5,4,4,4,0.4,0.4
2025-06-30T1300,2633A,94.3616,29.6616,林芝市,林芝人民医院,,20,12,11,3,6,64,,44,40,2,2,5,5,0.3,0.3
2025-06-30T1300,2603A,100.0781,23.8982,临沧市,市环保局,,18,18,18,9,15,42,,17,17,5,7,6,5,0.6,0.7
2025-06-30T1300,2604A,100.0894,23.8822,临沧市,市气象局,,22,,19,15,12,44,,16,16,6,9,6,7,0.4,0.5
2025-06-30T1300,1733A,111.5531,36.0783,临汾市,临钢医院,,44,43,40,25,16,138,,90,90,10,15,8,4,1.0,0.6
2025-06-30T1300,1734A,111.5028,36.0714,临汾市,技工学校,颗粒物(PM10),54,58,44,32,29,130,,85,85,7,11,5,4,0.9,0.6
2025-06-30T1300,1736A,111.5018,36.0855,临汾市,市委,颗粒物(PM10),55,60,56,20,16,136,,91,91,11,15,6,3,1.1,0.8
2025-06-30T1300,3018A,111.505,36.1014,临汾市,唐尧大酒店,颗粒物(PM10),59,67,62,24,17,136,,89,89,8,11,3,3,1.0,0.6
2025-06-30T1300,4244A,111.4879,36.0530,临汾市,启星学校,颗粒物(PM10),53,56,43,33,29,134,,84,84,6,12,7,5,0.9,0.6
2025-06-30T1300,4271A,103.2464,35.6123,临夏回族自治州,滨河东路1号,,,,23,9,12,104,,58,58,2,5,3,2,0.2,0.3
2025-06-30T1300,4310A,103.2093,35.5995,临夏回族自治州,新华街21号,,37,17,24,10,15,117,,71,71,5,6,5,4,0.2,0.3
2025-06-30T1300,1618A,118.3429,35.0532,临沂市,沂河小区,,34,27,18,15,16,107,,70,70,9,14,7,8,0.3,0.4
2025-06-30T1300,1619A,118.295,35.0583,临沂市,鲁南制药厂,,35,17,16,16,15,111,,67,67,7,17,12,10,0.4,0.4
2025-06-30T1300,1620A,118.2794,34.9976,临沂市,新光毛纺厂,,35,24,10,16,12,112,,70,70,7,17,7,8,0.4,0.5
2025-06-30T1300,1621A,118.3956,35.0888,临沂市,河东保险公司,,34,12,13,7,6,108,,68,68,6,12,5,5,0.4,0.5
2025-06-30T1300,3370A,118.3564,35.0215,临沂市,十里堡居委,,36,,8,14,12,114,,71,71,10,15,8,8,0.4,0.5
2025-06-30T1300,3496A,118.3604,35.1084,临沂市,南坊新区,,35,19,17,14,8,111,,71,71,9,13,8,8,0.3,0.4
2025-06-30T1300,3860A,118.3920,35.0300,临沂市,皇山花园小区,,35,22,10,16,15,109,,71,71,6,11,9,10,0.6,0.7
2025-06-30T1300,1870A,109.4856,24.3895,柳州市,柳东小学,,22,18,18,7,9,68,,40,40,3,9,4,6,0.4,0.4
2025-06-30T1300,1871A,109.4157,24.3277,柳州市,环保监测站,,30,,19,21,11,82,,45,45,4,9,6,7,0.5,0.5
2025-06-30T1300,1872A,109.389,24.341,柳州市,河西水厂,,28,15,18,7,9,88,,47,47,8,10,4,5,0.4,0.4
2025-06-30T1300,1873A,109.4311,24.2921,柳州市,市四中,,28,28,20,10,12,88,,46,46,8,14,6,7,0.4,0.4
2025-06-30T1300,1874A,109.4006,24.3631,柳州市,市九中,,27,27,22,3,11,82,,44,44,6,10,2,2,0.6,0.6
2025-06-30T1300,1875A,109.4958,24.3134,柳州市,古亭山,,29,29,19,14,9,68,,38,38,2,12,4,4,0.4,0.5
2025-06-30T1300,3402A,109.5422,24.3996,柳州市,市二中,,22,20,20,3,14,70,,43,43,5,12,5,12,0.5,0.4
2025-06-30T1300,2307A,116.5079,31.737,六安市,监测大楼,,23,9,10,8,8,73,,48,48,4,5,4,4,0.2,0.3
2025-06-30T1300,2308A,116.4738,31.7643,六安市,皖西学院,,23,11,8,7,7,71,,53,53,2,5,2,3,0.1,0.1
2025-06-30T1300,2309A,116.4996,31.7905,六安市,朝阳厂,,18,,10,9,8,56,,46,46,4,8,5,6,0.2,0.2
2025-06-30T1300,2310A,116.5567,31.7886,六安市,开发区,,24,,10,11,11,76,,49,49,2,4,4,3,0.3,0.3
2025-06-30T1300,2576A,104.8,26.5892,六盘水市,窑上,,16,7,23,3,4,51,,34,33,8,6,3,3,0.3,0.3
2025-06-30T1300,2577A,104.83,26.5917,六盘水市,黄土坡,,20,,10,7,6,62,,43,43,14,9,10,8,0.5,0.4
2025-06-30T1300,2578A,104.89,26.5939,六盘水市,水钢,,22,22,29,13,22,52,,44,41,21,8,11,11,0.8,0.5
2025-06-30T1300,2579A,104.8475,26.5894,六盘水市,民中,,20,6,12,3,4,63,,47,47,13,6,9,8,0.3,0.4
2025-06-30T1300,2580A,104.9544,26.5506,六盘水市,双水,,20,,7,8,6,61,,46,45,12,7,10,10,0.4,0.3
2025-06-30T1300,2335A,117.0189,25.1181,龙岩市,龙岩师专,,,,,,,,,,,,,,,,
2025-06-30T1300,2336A,117.0217,25.1033,龙岩市,龙岩市监测站,,35,23,19,3,9,109,,60,60,6,14,5,6,0.4,0.5
2025-06-30T1300,2337A,117.0258,25.0661,龙岩市,闽西职业技术学院,,30,11,27,7,10,93,,54,54,3,12,6,16,0.4,0.5
2025-06-30T1300,2338A,117.0196,25.0306,龙岩市,龙岩学院,,35,35,23,7,11,83,,51,51,4,8,8,5,0.5,0.7
2025-06-30T1300,2665A,105.0822,33.3261,陇南市,汉王镇固水子,,,,,,,,,,,,,,,,
2025-06-30T1300,2885A,104.9339,33.3826,陇南市,滨江中学,,38,23,32,11,10,121,,75,75,2,7,5,4,0.2,0.4
2025-06-30T1300,3247A,104.955,33.371,陇南市,市总工会,,39,30,41,7,7,124,,76,76,3,8,7,7,0.4,0.5
2025-06-30T1300,2487A,111.9589,27.8901,娄底市,电视发射台,,18,18,30,8,9,49,,27,27,10,7,7,6,0.5,0.6
2025-06-30T1300,2488A,111.9975,27.725,娄底市,市监测站,,25,25,19,3,16,63,,50,50,5,7,8,9,0.3,0.3
2025-06-30T1300,2489A,112.0194,27.7314,娄底市,市委党校,,23,11,15,11,11,71,,58,58,6,7,8,8,0.4,0.4
2025-06-30T1300,2490A,111.9561,27.7569,娄底市,涟钢,,28,28,26,17,16,57,,44,44,17,18,14,9,1.5,1.3
2025-06-30T1300,2491A,111.9892,27.7044,娄底市,市政府,,26,26,16,12,9,69,,54,54,2,2,5,6,0.5,0.5
2025-06-30T1300,1893A,105.4324,28.9634,泸州市,九狮山,,23,16,24,16,23,63,,52,52,5,8,4,4,0.3,0.3
2025-06-30T1300,1894A,105.4427,28.9063,泸州市,小市上码头,,21,10,16,3,6,65,,54,52,9,9,2,2,0.4,0.3
2025-06-30T1300,1895A,105.4241,28.8573,泸州市,兰田宪桥,,20,7,17,7,8,63,,52,52,6,9,7,7,0.8,0.7
2025-06-30T1300,1896A,105.4379,28.8833,泸州市,市环监站,,17,12,15,6,9,54,,45,44,12,12,2,3,0.8,0.6
2025-06-30T1300,4272A,105.3689,28.7783,泸州市,纳溪中医医院,,,,18,7,12,,,58,,16,15,5,4,0.5,0.5
2025-06-30T1300,2183A,111.1406,37.5211,吕梁市,环保局,,35,13,61,12,23,111,,77,77,6,22,4,5,0.5,0.6
2025-06-30T1300,2185A,111.1297,37.5136,吕梁市,自来水公司,,33,7,39,7,21,104,,66,63,6,18,2,3,0.6,0.7
2025-06-30T1300,2867A,111.1283,37.51,吕梁市,马茂庄小学,,32,10,47,8,23,101,,64,64,8,30,3,4,0.5,0.6
2025-06-30T1300,1812A,112.3931,34.6516,洛阳市,市委党校,,38,38,30,26,16,116,,72,72,6,11,7,6,0.5,0.5
2025-06-30T1300,1815A,112.494,34.6886,洛阳市,河南林校,,43,41,35,19,16,136,,80,80,7,14,7,7,0.5,0.5
2025-06-30T1300,1816A,112.3844,34.623,洛阳市,开发区管委会,,40,35,25,24,16,127,,76,76,7,11,14,10,0.5,0.5
2025-06-30T1300,1817A,112.4267,34.6258,洛阳市,市委新办公区,细颗粒物(PM2.5),57,,27,40,18,122,,76,76,9,14,13,9,0.5,0.4
2025-06-30T1300,3340A,112.6005,34.6326,洛阳市,伊滨,颗粒物(PM10),52,53,35,32,18,132,,69,69,10,14,5,4,0.5,0.4
2025-06-30T1300,3341A,112.4951,34.6332,洛阳市,中移产业园,,49,39,28,34,20,132,,76,76,6,11,8,7,0.7,0.8
2025-06-30T1300,3593A,112.5736,34.8993,洛阳市,吉利监测站,,43,30,35,19,16,136,,88,88,5,10,6,7,0.5,0.5
2025-06-30T1300,3635A,112.3677,34.662,洛阳市,河科大西苑校区,,40,35,30,23,17,128,,77,77,5,9,8,8,0.6,0.6
2025-06-30T1300,3636A,112.4388,34.6781,洛阳市,英才小学,,40,40,33,26,18,118,,68,68,4,10,8,8,0.7,0.7
2025-06-30T1300,4214A,112.4600,34.6949,洛阳市,春都路1号院,,39,36,31,23,14,124,,70,70,4,10,3,2,0.6,0.6
2025-06-30T1300,2399A,114.051,33.5699,漯河市,三五一五工厂,,36,20,16,13,11,114,,60,60,8,16,5,5,0.5,0.5
2025-06-30T1300,2400A,114.0055,33.5698,漯河市,漯河大学,,37,22,20,12,6,117,,62,62,9,17,4,4,0.4,0.4
2025-06-30T1300,2401A,114.0138,33.5828,漯河市,市水利局,,35,17,11,9,8,112,,60,60,6,13,3,3,0.6,0.6
2025-06-30T1300,2402A,114.0261,33.5698,漯河市,市广电局,,36,22,13,10,12,114,,60,60,5,14,2,2,0.5,0.5
2025-06-30T1300,3478A,113.9749,33.5664,漯河市,市图书馆,,,19,26,13,13,113,,57,57,6,15,3,3,,0.3
2025-06-30T1300,4250A,114.0892,33.5882,漯河市,韶山路11号,,35,24,20,12,10,111,,58,58,8,15,2,2,0.6,0.5
2025-06-30T1300,1798A,118.5092,31.6837,马鞍山市,湖东路四小,,33,33,21,3,11,89,,54,54,2,8,7,7,0.5,0.6
2025-06-30T1300,1799A,118.5024,31.6449,马鞍山市,开发区,,29,26,26,12,12,92,,48,48,5,16,6,6,0.8,0.8
2025-06-30T1300,1802A,118.6245,31.7241,马鞍山市,濮塘,,23,18,17,10,11,73,,50,50,2,3,8,9,0.6,0.7
2025-06-30T1300,3633A,118.4918,31.6809,马鞍山市,雨山,,41,41,25,15,10,73,,46,46,28,11,5,5,0.7,0.6
2025-06-30T1300,4191A,118.5274,31.72227,马鞍山市,慈湖高新区,,26,17,24,10,13,82,,46,46,6,15,6,7,0.3,0.4
2025-06-30T1300,1686A,111.0286,21.4688,茂名市,电白南海,,13,9,16,9,13,32,,29,29,11,9,2,2,0.3,0.2
2025-06-30T1300,1687A,110.9294,21.6533,茂名市,茂石化七小,,10,9,14,3,6,31,,30,28,7,6,4,4,0.5,0.4
2025-06-30T1300,1688A,110.9107,21.6687,茂名市,健康路,,12,,10,3,6,37,,36,34,9,8,4,4,0.6,0.4
2025-06-30T1300,1689A,110.8592,21.6828,茂名市,高岭,,,17,22,3,6,36,,30,29,,11,8,6,0.5,0.5
2025-06-30T1300,3450A,111.01,21.5165,茂名市,电白水东,,12,7,12,3,6,38,,34,34,8,8,5,6,0.3,0.3
2025-06-30T1300,2539A,104.0308,30.0478,眉山市,黑龙滩水库,,28,,10,14,27,87,,53,53,2,7,2,2,0.5,0.5
2025-06-30T1300,2540A,103.8416,30.0874,眉山市,气象局,,42,6,14,3,5,132,,71,71,7,14,3,3,0.3,0.4
2025-06-30T1300,3137A,103.8578,30.0744,眉山市,市委党校,,38,12,9,3,4,120,,64,64,7,14,6,6,0.4,0.4
2025-06-30T1300,3148A,103.8291,30.0564,眉山市,区人社局,,40,20,27,3,4,128,,68,68,9,18,8,10,0.5,0.5
2025-06-30T1300,1690A,116.1231,24.3284,梅州市,梅江月梅,,22,,15,8,8,68,,40,40,2,6,7,7,0.4,0.4
2025-06-30T1300,1691A,116.0797,24.2719,梅州市,梅县新城,,17,11,16,8,8,54,,35,35,2,11,6,7,0.5,0.5
2025-06-30T1300,1692A,116.1248,24.2654,梅州市,环境监控中心,,21,21,12,11,9,51,,35,35,5,11,2,4,0.5,0.5
2025-06-30T1300,3315A,116.1233,24.2991,梅州市,梅龙,,20,9,13,7,6,62,,39,39,2,5,6,7,0.5,0.5
2025-06-30T1300,1878A,104.7778,31.4741,绵阳市,富乐山,,34,20,13,10,7,106,,64,64,8,7,8,8,0.4,0.4
2025-06-30T1300,1880A,104.6697,31.4668,绵阳市,高新区自来水公司,,32,13,9,3,3,100,,62,62,4,9,8,8,0.3,0.4
2025-06-30T1300,1881A,104.7287,31.5075,绵阳市,三水厂,,34,18,11,8,6,106,,63,63,5,10,8,8,0.4,0.5
2025-06-30T1300,3491A,104.69,31.5322,绵阳市,西科大附属小学,,,12,9,6,4,100,,69,69,4,10,,7,0.3,0
2025-06-30T1300,3492A,104.5648,31.5343,绵阳市,安州区旅游局,,34,15,9,14,2,106,,69,69,5,7,12,6,0.4,0.3
2025-06-30T1300,4226A,104.7651,31.4531,绵阳市,绵阳市气象局,,31,,10,12,7,97,,69,69,7,7,6,7,0.4,0.4
2025-06-30T1300,1784A,129.61,44.561,牡丹江市,环保大楼,,50,26,20,9,12,157,,84,84,7,19,1,1,0.5,0.5
2025-06-30T1300,1785A,129.6115,44.5782,牡丹江市,文化广场,,50,24,18,16,16,158,,85,85,8,21,3,3,0.6,0.6
2025-06-30T1300,1786A,129.5904,44.5963,牡丹江市,第一医院,,50,16,14,3,8,159,,86,86,11,19,5,5,0.5,0.5
2025-06-30T1300,1787A,129.6364,44.6075,牡丹江市,机车工厂,,,,26,7,6,155,,83,83,6,15,4,4,0.6,0.6
2025-06-30T1300,1788A,129.6386,44.5462,牡丹江市,第一中学,,48,23,13,15,11,152,,69,69,5,15,4,4,0.7,0.7
2025-06-30T1300,2531A,105.0703,29.61,内江市,市监测站,,22,10,15,10,10,70,,66,61,7,10,5,5,0.6,0.6
2025-06-30T1300,2532A,105.0717,29.5947,内江市,东兴区政府,,19,12,12,3,9,59,,60,54,8,10,3,3,0.5,0.5
2025-06-30T1300,2533A,105.0653,29.5817,内江市,内江二中,,20,17,14,14,10,57,,57,52,9,11,6,6,0.5,0.5
2025-06-30T1300,2534A,105.0406,29.5822,内江市,内江日报社,,17,,15,10,9,54,,56,49,10,13,6,5,0.4,0.4
2025-06-30T1300,2628A,92.0657,31.4846,那曲市,那曲监测站,颗粒物(PM10),51,51,51,18,22,114,,94,94,14,18,10,12,0.4,0.4
2025-06-30T1300,4243A,92.0515,31.4787,那曲市,那曲市委宣传部,,41,7,19,3,20,131,,,,5,16,8,8,0.3,0.4
2025-06-30T1300,1290A,115.8931,28.6843,南昌市,省外办,,30,16,19,9,14,96,,48,48,6,24,2,3,0.4,0.5
2025-06-30T1300,1291A,115.8886,28.7003,南昌市,省林业公司,,33,7,16,3,10,105,,55,55,7,21,11,9,0.6,0.7
2025-06-30T1300,1292A,115.8126,28.7442,南昌市,林科所,,28,12,12,3,4,88,,47,47,3,19,8,6,0.2,0.2
2025-06-30T1300,1294A,115.8518,28.687,南昌市,建工学校,,31,,21,21,9,99,,54,54,1,18,10,8,0.3,0.5
2025-06-30T1300,1295A,115.8921,28.6424,南昌市,象湖,,32,7,18,3,11,100,,50,50,4,22,8,6,0.5,0.6
2025-06-30T1300,1296A,115.7423,28.7996,南昌市,武术学校,,,,17,13,10,87,,42,42,,2,15,9,0.6,0.5
2025-06-30T1300,3046A,115.9084,28.6062,南昌市,机电学校,,27,11,23,7,11,85,,47,47,4,21,4,3,0.5,0.6
2025-06-30T1300,3690A,115.9721,28.7031,南昌市,外国语学校,,25,15,21,3,10,77,,44,44,3,20,9,10,0.6,0.7
2025-06-30T1300,4192A,115.9316,28.68677,南昌市,南京东路235号,,28,24,28,7,11,89,,51,51,8,23,4,4,0.4,0.5
2025-06-30T1300,1905A,106.056,30.8064,南充市,西山风景区,,,,,,,,,,,,,,,,
2025-06-30T1300,1906A,106.0789,30.8023,南充市,南充市委,,22,9,17,6,11,69,,70,61,8,10,4,4,0.4,0.4
2025-06-30T1300,1907A,106.1031,30.8217,南充市,南充炼油厂,,20,10,15,3,10,64,,68,59,4,8,4,5,0.2,0.3
2025-06-30T1300,4227A,106.1083,30.7884,南充市,梨树横街98号,,24,,17,13,12,76,,76,64,4,8,2,2,0.3,0.3
2025-06-30T1300,4304A,106.1172,30.843,南充市,清泉寺北路188号,,19,19,21,3,10,54,,62,55,2,8,2,2,0.2,0.3
2025-06-30T1300,4305A,106.067,30.7616,南充市,同庆路1号,,21,6,17,3,10,66,,73,62,10,10,3,3,0.3,0.3
2025-06-30T1300,1151A,118.8086,32.1065,南京市,迈皋桥,,27,21,12,14,7,84,,40,40,14,10,4,4,1.0,1
2025-06-30T1300,1152A,118.7538,32.0551,南京市,草场门,,29,12,13,7,7,90,,49,49,8,13,6,7,0.6,0.1
2025-06-30T1300,1153A,118.7794,32.0745,南京市,山西路,,30,19,18,3,2,95,,47,47,2,8,4,4,0.2,0.2
2025-06-30T1300,1154A,118.7752,32.0023,南京市,中华门,,25,9,12,3,4,78,,35,35,5,14,10,9,0.3,0.4
2025-06-30T1300,1155A,118.8109,32.0309,南京市,瑞金路,,30,17,13,12,7,94,,44,44,1,12,6,6,0.5,0.4
2025-06-30T1300,1156A,118.7997,32.0754,南京市,玄武湖,,32,32,17,3,3,86,,44,44,13,10,3,4,0.5,0.5
2025-06-30T1300,1157A,118.6414,32.0931,南京市,浦口,,30,30,19,10,6,94,,40,40,15,15,3,4,0.5,0.2
2025-06-30T1300,1158A,118.7356,31.9996,南京市,奥体中心,,29,18,16,14,6,92,,48,48,8,15,5,5,0.2,0.2
2025-06-30T1300,1159A,118.9125,32.1028,南京市,仙林大学城,,34,24,19,7,3,106,,54,54,8,10,7,8,0.6,0.5
2025-06-30T1300,3422A,118.8436,31.9198,南京市,江宁彩虹桥,,35,28,18,9,8,109,,51,51,5,14,3,3,0.5,0.6
2025-06-30T1300,3427A,118.8554,32.3578,南京市,六合雄州,,35,22,20,14,8,109,,50,50,12,19,4,4,0.7,0.6
2025-06-30T1300,4249A,118.8708,31.3402,南京市,汶溪路181号,,30,20,14,20,10,95,,58,58,10,12,6,5,0.6,0.4
2025-06-30T1300,4312A,119.019,31.6512,南京市,中山西路1号,,30,,10,21,9,84,,51,51,4,10,4,4,0.7,0.7
2025-06-30T1300,1401A,108.3103,22.7881,南宁市,二十一中,,,32,11,6,7,52,,40,40,2,2,4,4,,0.7
2025-06-30T1300,1402A,108.3141,22.8528,南宁市,北湖,,,,12,5,8,58,,44,44,6,9,4,4,0.4,0.4
2025-06-30T1300,1403A,108.3206,22.8225,南宁市,市监测站,,36,36,14,3,7,51,,40,40,5,6,6,6,0.4,0.4
2025-06-30T1300,1404A,108.3829,22.8037,南宁市,大自然花园,,22,22,13,6,8,56,,47,47,2,4,4,4,0.3,0.4
2025-06-30T1300,1405A,108.4394,22.7904,南宁市,仙葫,,18,6,11,6,8,56,,49,49,4,7,8,9,0.5,0.4
2025-06-30T1300,1406A,108.2397,22.8467,南宁市,区农职院,,19,6,14,3,4,60,,43,43,9,10,2,2,0.4,0.5
2025-06-30T1300,1407A,108.3275,22.735,南宁市,英华嘉园,,22,22,13,8,8,60,,45,45,4,6,7,7,0.4,0.3
2025-06-30T1300,3401A,108.4834,22.7618,南宁市,红星社区,,17,,12,8,7,52,,41,41,2,3,2,2,0.4,0.4
2025-06-30T1300,4221A,108.2177,22.7774,南宁市,乐贤路16号,,18,,19,7,9,57,,37,37,6,13,6,5,0.6,0.6
2025-06-30T1300,2331A,118.0966,26.6761,南平市,茫荡山,,,,,,,,,,,,,,,,
2025-06-30T1300,2332A,118.1681,26.6369,南平市,南平市监测站,,18,13,17,12,12,57,,52,52,2,9,4,6,0.4,0.4
2025-06-30T1300,2333A,118.1825,26.6489,南平市,南平铝业有限公司,,18,,21,9,11,55,,48,48,2,12,4,6,0.4,0.5
2025-06-30T1300,2334A,118.1756,26.6272,南平市,南平七中,,18,13,18,9,11,56,,52,52,2,6,4,5,0.4,0.5
2025-06-30T1300,1168A,120.9098,31.9663,南通市,狼山街道,,50,18,26,14,14,159,,74,74,7,28,5,6,0.7,0.7
2025-06-30T1300,1169A,120.86,32.0005,南通市,虹桥,臭氧1小时,52,,25,23,18,161,,78,78,10,28,4,4,0.8,0.8
2025-06-30T1300,1170A,120.87,32.02,南通市,城中,,46,31,30,14,13,146,,73,73,6,20,5,5,0.4,0.5
2025-06-30T1300,1171A,120.94,31.93,南通市,星湖花园,,49,20,24,20,19,155,,74,74,10,26,4,5,0.5,0.6
2025-06-30T1300,1172A,120.81,32.0417,南通市,紫琅学院,,49,35,29,12,9,154,,66,66,11,31,6,7,0.6,0.5
2025-06-30T1300,3291A,121.067,32.062,南通市,通州监测站,,49,19,22,9,11,156,,77,77,7,14,7,7,0.6,0.6
2025-06-30T1300,3432A,120.9348,31.9883,南通市,环境教育馆,臭氧1小时,60,46,33,14,12,168,,82,82,10,22,5,5,0.3,0.3
2025-06-30T1300,2404A,112.5224,33.0122,南阳市,瓦房庄,,36,36,23,16,8,72,,46,46,13,12,6,6,0.5,0.4
2025-06-30T1300,2405A,112.5003,32.9735,南阳市,汉画馆,,31,31,21,15,7,65,,43,40,14,13,5,5,0.5,0.4
2025-06-30T1300,2406A,112.5573,33.027,南阳市,气象站,,28,28,14,17,8,75,,43,42,10,10,6,6,0.5,0.4
2025-06-30T1300,2407A,112.5481,32.9689,南阳市,理工学院,,27,27,18,17,11,71,,38,38,9,14,5,5,0.4,0.3
2025-06-30T1300,4008A,112.5234,32.9922,南阳市,卧龙区政府,,28,28,19,13,9,68,,43,43,13,11,4,5,0.6,0.5
2025-06-30T1300,1234A,121.8358,29.911,宁波市,区环保大楼,,20,20,13,3,7,53,,36,36,3,5,3,3,0.4,0.4
2025-06-30T1300,1235A,121.56,29.82,宁波市,万里学院,,16,10,14,3,7,50,,37,37,2,6,2,3,0.3,0.3
2025-06-30T1300,1236A,121.713,29.9572,宁波市,龙赛医院,,20,10,12,6,7,61,,39,39,6,8,1,3,0.3,0.3
2025-06-30T1300,1239A,121.633,29.7733,宁波市,钱湖水厂,,,,10,9,7,46,,35,35,,2,4,4,0.3,0.2
2025-06-30T1300,1240A,121.5856,29.8635,宁波市,太古小学,,18,9,13,6,7,57,,39,39,2,5,4,4,0.1,0.2
2025-06-30T1300,1241A,121.524,29.8674,宁波市,市环境监测中心,,16,7,14,3,6,50,,34,34,5,9,3,4,0.3,0.3
2025-06-30T1300,2871A,121.6147,29.9017,宁波市,万里国际学校,,19,,11,9,8,58,,39,39,1,3,3,3,0.2,0.4
2025-06-30T1300,3710A,121.5594,29.8975,宁波市,白沙活动中心,,18,8,13,3,4,56,,39,39,1,5,3,4,0.3,0.3
2025-06-30T1300,2339A,119.5001,26.6946,宁德市,金涵水库,,,,,,,,,,,,,,,,
2025-06-30T1300,2341A,119.5388,26.6612,宁德市,宁德市监测站,,38,38,16,12,9,68,,33,33,7,8,4,4,0.4,0.5
2025-06-30T1300,3209A,119.5231,26.6562,宁德市,宁德一中,,21,15,15,14,11,67,,36,36,3,4,5,5,0.3,0.2
2025-06-30T1300,2618A,98.8601,25.8567,怒江傈僳族自治州,州监测站,,,12,19,8,11,56,,32,32,4,9,8,8,,0.4
2025-06-30T1300,2619A,98.8546,25.8417,怒江傈僳族自治州,泸水一中,,30,30,16,18,8,46,,16,16,6,11,6,6,0.3,0.4
2025-06-30T1300,1888A,101.6891,26.571,攀枝花市,弄弄坪,,,,29,,9,84,,60,60,12,15,8,9,,0.7
2025-06-30T1300,1889A,101.5769,26.5928,攀枝花市,河门口,,28,19,22,12,12,87,,54,54,15,14,14,12,1.8,1.2
2025-06-30T1300,1890A,101.7169,26.585,攀枝花市,炳草岗,,25,15,23,12,9,79,,59,57,11,16,10,12,0.6,0.6
2025-06-30T1300,1891A,101.7369,26.5008,攀枝花市,仁和,细颗粒物(PM2.5),69,62,18,50,12,76,,57,57,8,9,26,12,0.5,0.5
2025-06-30T1300,2835A,101.7227,26.567,攀枝花市,四十中小,,30,13,21,10,11,94,,68,68,6,11,11,11,0.7,0.7
2025-06-30T1300,1604A,122.0303,41.1489,盘锦市,开发区,,30,19,18,8,10,95,,73,73,10,16,6,6,0.5,0.6
2025-06-30T1300,1605A,122.0485,41.0883,盘锦市,兴隆台,,30,20,16,11,9,93,,69,69,10,18,3,3,0.3,0.5
2025-06-30T1300,1606A,121.8297,41.1028,盘锦市,新生街道,,31,30,14,13,8,99,,87,87,10,10,6,6,0.5,0.5
2025-06-30T1300,1832A,113.3257,33.742,平顶山市,新华旅馆,,29,,17,20,14,91,,49,49,11,13,8,6,0.5,0.4
2025-06-30T1300,1833A,113.2919,33.737,平顶山市,规划设计院,,29,23,19,18,11,91,,52,52,10,13,4,5,0.7,0.7
2025-06-30T1300,1834A,113.182,33.774,平顶山市,平顶山工学院,,34,16,17,9,8,108,,65,65,4,10,5,6,0.5,0.5
2025-06-30T1300,3204A,113.3025,33.73,平顶山市,规划局,,30,17,16,8,6,96,,53,53,10,14,3,4,0.4,0.3
2025-06-30T1300,3594A,112.8867,33.9116,平顶山市,石龙区,,31,31,25,18,14,87,,40,40,14,20,8,7,0.5,0.6
2025-06-30T1300,2656A,106.6692,35.5461,平凉市,聚贤嘉苑,,43,33,32,14,9,136,,87,87,3,12,9,9,0.6,0.7
2025-06-30T1300,2657A,106.7021,35.5307,平凉市,博物馆,,45,27,35,3,12,142,,99,99,4,10,8,9,0.7,0.7
2025-06-30T1300,2347A,114.0997,27.5002,萍乡市,武功山,,15,9,2,3,4,48,,30,30,3,3,13,13,0.4,0.3
2025-06-30T1300,2348A,113.8385,27.6434,萍乡市,中医院,,32,14,25,7,17,102,,51,51,3,5,14,18,1.5,0.9
2025-06-30T1300,2349A,113.8493,27.6253,萍乡市,市政府车库,,26,,25,18,19,83,,41,41,8,9,8,10,0.9,1.8
2025-06-30T1300,2350A,113.8676,27.6435,萍乡市,市环保局,,,,27,24,17,81,,42,42,1,4,10,14,1.6,1
2025-06-30T1300,2351A,113.866,27.6198,萍乡市,安源区政府,,29,,25,14,16,90,,43,43,4,10,9,10,0.5,0.9
2025-06-30T1300,2319A,119.0141,25.4325,莆田市,荔城区仓后路,,21,20,20,3,5,66,,49,49,5,7,4,4,0.5,0.6
2025-06-30T1300,2320A,119.0015,25.4553,莆田市,莆田市监测站,,19,15,19,6,7,59,,46,46,5,7,4,4,0.4,0.5
2025-06-30T1300,2321A,119.1119,25.4561,莆田市,涵江区六中,,24,17,19,3,7,75,,43,43,4,8,3,3,0.3,0.3
2025-06-30T1300,2322A,119.1013,25.3215,莆田市,秀屿区政府,,26,17,22,6,8,82,,53,53,5,8,4,5,0.4,0.4
2025-06-30T1300,2323A,118.981,25.4792,莆田市,东圳水库,,,,,,,,,,,,,,,,
2025-06-30T1300,2392A,115.0312,35.7636,濮阳市,环保局,,32,19,16,8,14,102,,67,67,6,10,3,4,0.0,0.2
2025-06-30T1300,2394A,115.0574,35.7609,濮阳市,油田运输公司,,32,21,25,10,12,100,,63,63,6,11,4,5,0.4,0.5
2025-06-30T1300,3021A,115,35.7668,濮阳市,濮水河管理处,,29,28,17,17,16,91,,56,56,9,14,3,3,0.3,0.3
2025-06-30T1300,4216A,115.0924,35.7686,濮阳市,任丘路479号,,35,28,29,14,16,110,,63,63,4,8,6,5,0.3,0.4
2025-06-30T1300,2601A,100.98,22.7633,普洱市,市环保局,,25,25,25,6,13,38,,22,22,3,4,4,4,0.6,0.6
2025-06-30T1300,2602A,100.9817,22.8322,普洱市,普洱第二中学,,29,29,24,10,11,40,,20,20,4,7,7,6,0.4,0.5
2025-06-30T1300,2262A,131.0518,45.8751,七台河市,新一中,,46,22,20,19,20,146,,100,100,7,14,10,10,0.9,1
2025-06-30T1300,3345A,131.0577,45.7879,七台河市,中波台,,33,,9,7,7,105,,84,84,10,15,7,8,0.3,0.3
2025-06-30T1300,3637A,131.0176,45.7761,七台河市,人民广场,,36,30,26,20,16,115,,89,89,7,13,13,13,0.7,0.7
2025-06-30T1300,3684A,130.8781,45.8222,七台河市,新建矿广场,,39,39,21,7,10,124,,87,87,9,17,11,10,0.6,0.6
2025-06-30T1300,1779A,123.9305,47.3636,齐齐哈尔市,安居小区,,35,26,31,14,17,112,,88,88,11,16,3,3,0.7,0.7
2025-06-30T1300,1780A,123.9488,47.3386,齐齐哈尔市,中心广场,,38,22,32,3,12,120,,104,104,9,12,7,7,0.6,0.6
2025-06-30T1300,1781A,123.9483,47.3227,齐齐哈尔市,农牧车辆厂,,36,27,34,11,18,114,,94,94,7,13,5,6,0.2,0.2
2025-06-30T1300,1783A,123.945,47.2988,齐齐哈尔市,市环境监测站,,38,19,23,3,15,120,,96,96,5,10,4,5,0.4,0.4
2025-06-30T1300,3662A,123.6333,47.2075,齐齐哈尔市,富区青少年活动中心,,,25,27,,23,122,,102,102,8,10,4,5,0.5,0.6
2025-06-30T1300,2591A,107.9783,26.5747,黔东南苗族侗族自治州,市环境监测站,,15,9,7,6,6,47,,46,43,3,3,3,3,0.4,0.4
2025-06-30T1300,2881A,107.8908,26.5311,黔东南苗族侗族自治州,凯里学院,,,,5,6,6,57,,49,48,5,6,4,4,0.2,0.2
2025-06-30T1300,2593A,107.5228,26.2403,黔南布依族苗族自治州,小围寨,,12,6,4,3,2,36,,34,34,2,3,2,2,0.4,0.4
2025-06-30T1300,3538A,107.5175,26.2978,黔南布依族苗族自治州,沙坝,,12,6,10,3,2,36,,28,28,4,4,5,4,0.5,0.5
2025-06-30T1300,2589A,104.9022,25.0925,黔西南布依族苗族自治州,场坝街,,14,13,14,7,6,43,,43,39,4,4,4,4,0.3,0.3
2025-06-30T1300,2590A,104.8811,25.0992,黔西南布依族苗族自治州,坪东大道,,17,17,17,3,8,30,,38,31,9,7,1,1,0.1,0.1
2025-06-30T1300,2502A,108.6236,21.9667,钦州市,市环保站,,21,12,7,3,1,65,,43,43,6,8,2,2,0.4,0.4
2025-06-30T1300,2503A,108.6549,21.9481,钦州市,沙埠小学,,21,14,12,3,5,66,,43,43,5,9,3,3,0.4,0.4
2025-06-30T1300,2504A,108.5989,21.7431,钦州市,港区一小,,22,22,20,8,8,60,,37,37,17,18,3,3,0.6,0.6
2025-06-30T1300,3404A,108.5959,21.9633,钦州市,北职校,,,10,9,3,5,60,,41,41,,5,2,2,0.4,0.4
2025-06-30T1300,1043A,119.7493,40.0116,秦皇岛市,第一关,,37,37,55,24,31,84,,34,34,3,17,3,4,0.3,0.3
2025-06-30T1300,1044A,119.5897,39.9499,秦皇岛市,监测站,,41,41,65,10,26,92,,59,59,8,12,3,3,0.4,0.4
2025-06-30T1300,1046A,119.5251,39.9041,秦皇岛市,建设大厦,,38,38,47,11,21,104,,63,63,4,15,3,3,0.4,0.4
2025-06-30T1300,3132A,119.610547,39.943889,秦皇岛市,文明里,,50,50,63,21,38,103,,68,68,2,7,4,4,0.3,0.2
2025-06-30T1300,4198A,119.5090,39.8253,秦皇岛市,北戴河轮滑馆,颗粒物(PM10),51,52,51,22,45,104,,68,68,5,7,2,2,0.4,0.3
2025-06-30T1300,1307A,120.6659,36.2403,青岛市,仰口,,26,11,17,3,9,83,,,,7,8,8,7,0.4,0.5
2025-06-30T1300,1310A,120.4134,36.0658,青岛市,市南区东部子站,,28,9,12,9,9,89,,74,74,2,12,8,9,0.2,0.2
2025-06-30T1300,1311A,120.3664,36.1032,青岛市,四方区子站,,34,12,13,9,11,106,,82,80,3,11,7,5,0.4,0.2
2025-06-30T1300,1312A,120.2994,36.054,青岛市,市南区西部子站,,32,,18,22,10,83,,66,66,9,29,8,8,0.5,0.6
2025-06-30T1300,1313A,120.4581,36.0858,青岛市,崂山区子站,,25,,10,3,7,80,,69,69,11,13,6,6,0.3,0.3
2025-06-30T1300,1315A,120.3999,36.3083,青岛市,城阳区子站,,34,7,11,7,9,107,,79,79,7,12,5,5,0.3,0.3
2025-06-30T1300,1966A,120.0405,35.8735,青岛市,黄岛区4号,,35,9,10,9,4,109,,84,84,9,12,11,9,0.7,0.7
2025-06-30T1300,3362A,120.5014,36.4034,青岛市,即墨2号,,35,7,13,7,9,112,,83,83,9,10,2,2,0.2,0.2
2025-06-30T1300,3642A,120.3503,36.0736,青岛市,市北区南部,,28,15,13,7,9,87,,76,76,6,15,6,6,0.4,0.3
2025-06-30T1300,3643A,120.3948,36.1805,青岛市,李沧区北部,,25,9,9,9,12,78,,66,60,3,8,5,4,0.6,0.5
2025-06-30T1300,4290A,120.1969,35.9546,青岛市,珠江路669号,,,7,9,3,3,98,,84,84,,7,7,6,0.4,0.4
2025-06-30T1300,1702A,113.0426,23.691,清远市,环保大楼,,32,32,46,13,12,87,,46,46,8,14,6,7,0.5,0.6
2025-06-30T1300,1703A,113.0208,23.7106,清远市,凤城街办,,26,9,21,3,13,82,,42,42,9,18,7,8,0.4,0.5
2025-06-30T1300,3025A,113.0477,23.6344,清远市,技师学院,,25,7,23,3,12,77,,35,35,6,21,6,8,0.4,0.6
2025-06-30T1300,3318A,112.9903,23.7403,清远市,清新太和,,28,12,17,7,11,88,,48,48,6,13,8,8,0.5,0.5
2025-06-30T1300,3455A,113.076,23.7198,清远市,清城东城,,25,9,20,3,11,77,,39,39,4,9,8,8,0.4,0.5
2025-06-30T1300,2661A,107.6325,35.7357,庆阳市,庆阳五中,,35,18,20,9,9,111,,85,85,5,6,5,5,0.4,0.4
2025-06-30T1300,2662A,107.6364,35.7067,庆阳市,市环保局,,35,23,23,7,8,111,,94,94,5,5,8,7,0.4,0.4
2025-06-30T1300,1916A,103.7897,25.5035,曲靖市,环境监测站,,28,28,20,8,8,45,,22,22,9,10,3,5,0.6,0.6
2025-06-30T1300,1917A,103.8,25.5364,曲靖市,烟厂办公区,,14,13,17,3,10,42,,24,23,8,8,3,5,0.7,0.6
2025-06-30T1300,3376A,103.7947,25.462,曲靖市,南苑二区,,20,6,16,3,7,61,,30,30,7,8,4,6,0.6,0.7
2025-06-30T1300,3377A,103.7444,25.5261,曲靖市,曲靖师范学院,,13,8,15,3,8,39,,28,26,7,7,5,6,0.3,0.3
2025-06-30T1300,1264A,118.8692,28.9398,衢州市,环保大楼,,37,20,28,13,16,118,,69,69,7,23,4,4,0.4,0.5
2025-06-30T1300,1265A,118.8709,28.9666,衢州市,实验学校,,40,26,33,17,17,125,,72,72,3,19,6,4,0.2,0.4
2025-06-30T1300,1266A,118.8621,28.9808,衢州市,衢州学院,,39,23,28,15,16,124,,70,70,5,20,4,4,0.3,0.4
2025-06-30T1300,1611A,118.5819,24.9117,泉州市,涂山街,,37,30,25,11,12,116,,69,69,8,12,3,2,0.6,0.5
2025-06-30T1300,1612A,118.5972,24.8978,泉州市,津头埔,,45,45,24,15,11,132,,73,73,10,14,3,2,0.5,0.5
2025-06-30T1300,1613A,118.6663,24.9424,泉州市,万安,,44,44,24,18,10,130,,73,73,6,13,4,3,0.5,0.5
2025-06-30T1300,1614A,118.6117,24.9604,泉州市,清源山,,,,,,,,,,,,,,,,
2025-06-30T1300,3529A,118.6333,24.9264,泉州市,城华南路,,40,23,19,15,10,127,,74,74,8,10,4,4,0.5,0.4
2025-06-30T1300,2626A,88.8876,29.2718,日喀则市,日喀则监测站,,26,6,5,3,3,82,,77,73,2,4,15,14,0.3,0.3
2025-06-30T1300,3726A,88.8781,29.2426,日喀则市,林业技术推广中心,,26,6,8,3,1,82,,75,71,2,3,9,9,0.3,0.4
2025-06-30T1300,1659A,119.471,35.4209,日照市,监测站,,33,14,11,9,10,103,,70,70,15,27,9,7,0.7,0.7
2025-06-30T1300,1660A,119.523,35.4216,日照市,市政府广场,,,17,14,9,5,86,,57,57,15,21,9,7,,0.7
2025-06-30T1300,1661A,119.5587,35.4044,日照市,港务局,,31,31,15,18,14,88,,61,61,10,20,6,5,0.6,0.8
2025-06-30T1300,3507A,119.5328,35.4625,日照市,职业技术学院,,31,31,14,12,8,92,,57,57,14,16,7,5,0.8,0.7
2025-06-30T1300,3604A,119.3266,35.1044,日照市,岚山环保分局,,35,22,12,8,5,111,,70,70,9,19,7,8,0.6,0.7
2025-06-30T1300,1835A,111.1922,34.7752,三门峡市,市政府,细颗粒物(PM2.5),54,56,44,38,28,129,,84,84,10,7,7,5,0.5,0.4
2025-06-30T1300,1836A,111.1587,34.7942,三门峡市,开发区,,43,35,40,30,27,129,,85,85,9,11,8,6,0.5,0.5
2025-06-30T1300,1838A,111.143,34.7955,三门峡市,风景区,,50,50,34,27,20,138,,91,91,6,7,6,5,0.3,0.3
2025-06-30T1300,3039A,111.1911,34.7829,三门峡市,三门峡市第一小学,颗粒物(PM10),60,69,39,38,22,131,,82,82,14,11,5,6,0.5,0.4
2025-06-30T1300,3598A,111.1,34.7167,三门峡市,富达温泉假日酒店,,38,,33,26,27,116,,71,71,10,11,13,7,0.5,0.4
2025-06-30T1300,2324A,117.6211,26.2625,三明市,三钢,,33,20,31,14,21,104,,66,66,5,14,3,7,0.5,1.3
2025-06-30T1300,2325A,117.635,26.2714,三明市,三明二中,,30,,40,17,24,96,,61,61,6,13,1,4,0.5,0.9
2025-06-30T1300,2326A,117.6028,26.2378,三明市,三元区政府,颗粒物(PM10),86,122,37,26,18,108,,61,61,7,15,3,5,0.4,0.9
2025-06-30T1300,2327A,117.7275,26.3108,三明市,洋溪,,,,,,,,,,,,,,,,
2025-06-30T1300,1876A,109.5078,18.2489,三亚市,河东子站,,15,,18,3,8,46,,32,32,4,9,2,2,0.5,0.6
2025-06-30T1300,1877A,109.4964,18.2681,三亚市,河西子站,,16,16,17,6,8,45,,26,26,4,10,2,2,0.4,0.5
2025-06-30T1300,3540A,109.7348,18.3443,三亚市,君悦子站,,16,14,18,6,6,51,,35,35,6,9,1,1,0.4,0.2
2025-06-30T1300,2624A,91.7608,29.2313,山南市,山南监测站,,30,8,11,6,3,96,,84,78,5,9,4,4,0.3,0.3
2025-06-30T1300,2625A,91.7706,29.2436,山南市,山南人民医院,,31,8,10,3,5,99,,87,81,3,9,8,8,0.1,0.1
2025-06-30T1300,1674A,116.6794,23.3667,汕头市,金平子站,,21,11,9,3,5,66,,51,51,2,3,4,4,0.5,0.5
2025-06-30T1300,1675A,116.7244,23.3633,汕头市,龙湖子站,,21,21,10,3,3,61,,47,47,3,5,5,5,0.4,0.4
2025-06-30T1300,1676A,116.7258,23.2775,汕头市,濠江子站,,18,12,11,3,4,57,,44,44,2,4,4,4,0.5,0.5
2025-06-30T1300,1677A,116.7519,23.4714,汕头市,澄海子站,,22,22,13,7,6,66,,44,44,3,6,2,2,0.4,0.4
2025-06-30T1300,1678A,116.6092,23.2539,汕头市,潮阳子站,,24,19,12,8,4,76,,54,54,2,2,4,4,0.4,0.4
2025-06-30T1300,3444A,116.454,23.2684,汕头市,潮南峡山,,20,10,11,3,5,63,,44,44,3,5,5,4,0.5,0.5
2025-06-30T1300,3624A,116.4069,23.2533,汕头市,潮南子站,,20,7,12,3,6,61,,44,44,3,6,4,4,0.4,0.4
2025-06-30T1300,1693A,115.3653,22.775,汕尾市,市环保局,,16,,10,3,4,49,,36,36,5,8,2,2,0.5,0.5
2025-06-30T1300,1694A,115.3706,22.7898,汕尾市,市政府,,17,,13,11,7,53,,36,36,4,8,4,3,0.5,0.5
2025-06-30T1300,1695A,115.3622,22.7925,汕尾市,新城中学,,16,6,16,3,5,50,,35,35,4,8,3,3,0.3,0.4
2025-06-30T1300,2645A,109.9154,33.8715,商洛市,监测站,,32,11,25,11,15,102,,77,77,6,9,4,8,0.4,0.4
2025-06-30T1300,3045A,109.9643,33.8471,商洛市,商州区中学,,30,21,31,10,15,93,,66,66,11,13,4,7,0.4,0.4
2025-06-30T1300,2408A,115.6702,34.4285,商丘市,环境监测站,,26,9,18,9,8,83,,57,57,2,5,2,2,0.3,0.4
2025-06-30T1300,2409A,115.6458,34.4045,商丘市,粮食局,,,,18,,13,93,,66,66,1,5,2,2,,0.3
2025-06-30T1300,2410A,115.6293,34.3948,商丘市,睢阳区环保局,,,18,22,6,8,88,,62,62,,20,2,3,0.2,0.2
2025-06-30T1300,3171A,115.6071,34.4465,商丘市,梁园区档案局,,30,30,16,7,7,87,,62,62,3,6,1,2,0.3,0.4
2025-06-30T1300,1141A,121.4,31.238,上海市,普陀,,41,22,20,8,11,131,,72,72,9,14,5,6,0.2,0.2
2025-06-30T1300,1142A,121.478,31.2036,上海市,十五厂,,37,24,18,12,12,116,,58,58,4,8,9,8,0.5,0.5
2025-06-30T1300,1143A,121.467,31.3008,上海市,虹口,,37,21,20,15,11,117,,60,60,6,11,8,9,0.8,0.8
2025-06-30T1300,1147A,121.425,31.2261,上海市,静安监测站,,34,22,19,14,12,108,,57,57,10,14,5,5,0.5,0.5
2025-06-30T1300,1148A,121.703,31.1907,上海市,浦东川沙,,26,10,15,8,9,82,,45,45,5,12,8,8,0.7,0.7
2025-06-30T1300,1149A,121.533,31.2284,上海市,浦东新区监测站,,33,15,15,8,8,105,,56,56,4,8,8,8,0.5,0.5
2025-06-30T1300,1150A,121.577,31.2071,上海市,浦东张江,,32,22,20,3,10,101,,58,58,6,11,6,6,0.7,0.7
2025-06-30T1300,3265A,121.4316,31.3322,上海市,宝山庙行,,40,20,11,13,10,127,,68,68,8,12,5,5,0.2,0.2
2025-06-30T1300,3266A,121.8791,31.4662,上海市,崇明上实东滩,,,,6,6,5,92,,49,49,7,14,2,2,0.5,0.5
2025-06-30T1300,3268A,121.3162,31.2838,上海市,嘉定南翔,,36,22,21,15,11,115,,61,61,4,13,6,7,0.3,0.3
2025-06-30T1300,3269A,121.3359,30.7456,上海市,金山新城,,31,21,19,9,11,97,,60,60,11,15,3,4,0.5,0.6
2025-06-30T1300,3270A,121.4996,31.0739,上海市,闵行浦江,,31,17,16,8,9,97,,52,52,5,8,4,4,0.5,0.5
2025-06-30T1300,3271A,121.2886,31.1663,上海市,青浦徐泾,,35,18,17,13,12,111,,58,58,6,10,6,6,0.4,0.4
2025-06-30T1300,3272A,121.2186,31.0378,上海市,松江图书馆,,34,14,16,9,11,106,,60,60,2,7,7,7,0.3,0.3
2025-06-30T1300,3273A,121.3902,31.2059,上海市,长宁仙霞,,36,27,19,9,9,114,,59,59,12,13,7,7,0.4,0.4
2025-06-30T1300,3274A,121.7965,31.0507,上海市,浦东惠南,,28,14,15,9,10,89,,48,48,14,20,10,10,0.4,0.5
2025-06-30T1300,3544A,121.4891,30.925,上海市,奉贤南桥新城,,29,17,16,9,11,91,,54,54,5,9,7,7,0.9,0.9
2025-06-30T1300,4183A,121.4174,31.16637,上海市,冠生园路458号,,33,14,18,14,14,105,,56,56,6,12,4,4,0.3,0.4
2025-06-30T1300,4205A,121.5419,31.2683,上海市,宁武路151号,,33,28,25,12,13,105,,52,52,12,16,7,7,0.4,0.4
2025-06-30T1300,2381A,118.005,28.4572,上饶市,百草园,,,,,,,,,,,,,,,,
2025-06-30T1300,2382A,117.9756,28.4436,上饶市,市监测站,,46,46,45,19,21,131,,62,62,5,13,8,13,0.5,0.5
2025-06-30T1300,2383A,117.9519,28.4628,上饶市,凤凰光学,,42,,27,29,20,131,,58,58,6,17,9,18,0.9,0.9
2025-06-30T1300,3685A,117.897,28.4315,上饶市,双创科技城,,44,44,37,26,20,129,,59,59,10,17,5,15,0.9,0.9
2025-06-30T1300,4211A,118.1904,28.4448,上饶市,裕丰大道,,30,21,33,7,16,94,,52,52,4,9,6,5,0.7,0.7
2025-06-30T1300,1669A,113.5824,24.7733,韶关市,市八中,颗粒物(PM10),55,59,30,34,16,97,,44,44,9,11,14,9,1.1,0.9
2025-06-30T1300,1671A,113.5917,24.7972,韶关市,园林处,,30,19,18,19,12,94,,46,46,9,8,12,9,1.2,0.7
2025-06-30T1300,1673A,113.5971,24.6863,韶关市,曲江监测站,,29,27,23,18,12,90,,43,43,12,15,15,12,1.0,0.9
2025-06-30T1300,2809A,113.6668,24.7756,韶关市,大学路288号,,24,23,22,11,11,76,,40,40,6,9,6,7,0.5,0.5
2025-06-30T1300,3622A,113.5556,24.8082,韶关市,碧湖山庄,,36,,26,25,16,92,,44,44,8,9,11,9,0.9,0.6
2025-06-30T1300,2462A,111.5239,27.3033,邵阳市,市水土所,,,,,,,,,,,,,,,,
2025-06-30T1300,2464A,111.5283,27.2442,邵阳市,市化工厂,,20,,16,9,11,64,,48,48,4,8,13,4,0.3,0.4
2025-06-30T1300,2466A,111.4328,27.2272,邵阳市,市环保局,,20,12,16,6,8,63,,48,48,5,8,6,7,0.3,0.4
2025-06-30T1300,4218A,111.4460,27.2472,邵阳市,北塔二期4-26地块,,18,14,18,3,11,55,,41,41,8,9,5,5,0.2,0.2
2025-06-30T1300,4219A,111.4739,27.2282,邵阳市,邵水西路287号,,20,20,17,8,12,62,,48,48,7,9,5,5,0.3,0.4
2025-06-30T1300,1247A,120.6053,29.9928,绍兴市,城东开发委,,18,10,15,7,9,57,,50,50,1,4,3,3,0.2,0.2
2025-06-30T1300,2921A,120.5483,30.0003,绍兴市,树下王站,,22,10,16,8,9,69,,60,60,1,5,4,4,0.4,0.4
2025-06-30T1300,3408A,120.5683,29.9361,绍兴市,绍兴中专,,20,12,16,3,9,63,,52,52,3,7,4,4,0.0,0.1
2025-06-30T1300,3409A,120.4906,30.0861,绍兴市,柯桥区政府,,,26,22,13,11,73,,57,57,,8,4,4,0.6,0.6
2025-06-30T1300,3410A,120.8752,30.0249,绍兴市,重华小学,,24,12,16,8,10,74,,45,45,7,11,6,6,0.2,0.2
2025-06-30T1300,3411A,120.8369,30.0137,绍兴市,上虞中学,,24,8,15,7,11,74,,50,50,4,12,6,7,0.2,0.3
2025-06-30T1300,3560A,120.4722,30.0415,绍兴市,柯桥妇保,,21,10,26,3,14,67,,56,56,4,14,5,5,0.2,0.3
2025-06-30T1300,3658A,120.6153,30.0764,绍兴市,袍江中学,,21,10,17,6,9,65,,56,56,2,7,4,4,0.4,0.5
2025-06-30T1300,1356A,114.1063,22.5545,深圳市,通心岭子站,,15,10,10,3,4,48,,30,29,4,6,8,7,0.6,0.5
2025-06-30T1300,1357A,114.117,22.5625,深圳市,洪湖,,15,7,8,3,3,47,,26,22,3,10,6,6,0.4,0.6
2025-06-30T1300,1358A,113.987,22.5417,深圳市,华侨城,,15,13,9,10,2,40,,30,30,10,5,6,6,0.7,0.6
