timepoint,stationcode,longitude,latitude,area,positionname,primarypollutant,aqi,pm10,pm10_24h,pm2_5,pm2_5_24h,o3,o3_24h,o3_8h,o3_8h_24h,no2,no2_24h,so2,so2_24h,co,co_24h
2023-02-01T04:00:00,1001A,116.3621,39.8784,北京市,万寿西宫,,23,23,87,4,30,89,72,77,74,4,31,3,3,0.1,0.4
2023-02-01T04:00:00,1002A,116.2202,40.2915,北京市,定陵,,,,,,,,,,,,,,,,
2023-02-01T04:00:00,1003A,116.4174,39.9289,北京市,东四,,23,23,76,4,26,89,71,76,73,2,22,1,3,0.1,0.4
2023-02-01T04:00:00,1004A,116.4072,39.8863,北京市,天坛,,26,26,84,4,27,84,65,73,69,1,28,1,2,0.2,0.5
2023-02-01T04:00:00,1005A,116.462,39.9365,北京市,农展馆,,22,22,85,3,27,84,65,70,67,3,28,3,3,0.0,0.3
2023-02-01T04:00:00,1006A,116.3392,39.9295,北京市,官园,,25,25,89,5,27,96,77,86,81,2,24,2,3,0.1,0.4
2023-02-01T04:00:00,1007A,116.2878,39.9611,北京市,海淀万柳,,22,22,88,6,34,70,54,59,56,8,32,1,3,0.1,0.4
2023-02-01T04:00:00,1008A,116.6636,40.135,北京市,顺义新城,,22,11,77,3,24,89,68,79,74,3,13,1,2,0.1,0.3
2023-02-01T04:00:00,1009A,116.6275,40.3275,北京市,怀柔镇,,35,35,96,9,25,78,58,70,66,7,16,1,2,0.1,0.3
2023-02-01T04:00:00,1010A,116.2296,40.217,北京市,昌平镇,,24,24,85,5,22,76,62,71,67,2,22,3,3,0.2,0.4
2023-02-01T04:00:00,1011A,116.3966,39.9821,北京市,奥体中心,,25,25,86,5,28,84,66,68,66,3,21,1,3,0.1,0.3
2023-02-01T04:00:00,1012A,116.184,39.9136,北京市,古城,,23,23,94,4,25,90,69,78,72,2,21,3,3,0.2,0.5
2023-02-01T04:00:00,1015A,117.1444,39.1661,天津市,勤俭道,颗粒物(PM10),53,56,141,6,68,74,66,71,68,7,46,3,8,0.4,0.9
2023-02-01T04:00:00,1017A,117.237,39.1082,天津市,大直沽八号路,颗粒物(PM10),63,76,146,7,66,75,73,75,74,6,50,2,7,0.3,0.9
2023-02-01T04:00:00,1018A,117.202,39.0927,天津市,前进道,颗粒物(PM10),52,54,130,5,63,79,76,79,77,6,50,3,6,0.0,0.6
2023-02-01T04:00:00,1019A,117.1837,39.2133,天津市,淮河道,,50,50,163,5,64,80,75,80,78,6,48,3,8,0.3,0.7
2023-02-01T04:00:00,1021A,117.307,39.0877,天津市,跃进路,颗粒物(PM10),62,73,140,7,60,77,74,77,75,7,48,5,9,0.3,1
2023-02-01T04:00:00,1023A,117.707,39.0343,天津市,第四大街,颗粒物(PM10),109,168,177,12,69,61,57,61,59,7,66,4,9,0.3,1
2023-02-01T04:00:00,1024A,117.457,38.8394,天津市,永明路,颗粒物(PM10),77,104,136,6,70,71,68,71,70,7,53,5,11,0.2,0.8
2023-02-01T04:00:00,1026A,117.764,39.1587,天津市,汉北路,颗粒物(PM10),75,100,153,8,56,73,69,73,72,4,44,4,8,0.2,0.7
2023-02-01T04:00:00,1027A,117.157,38.9194,天津市,团泊洼,颗粒物(PM10),93,136,142,6,71,71,64,70,68,10,47,3,10,0.2,0.8
2023-02-01T04:00:00,1029A,114.4422,38.0444,石家庄市,职工医院,颗粒物(PM10),128,205,114,0,47,56,,,,8,60,3,16,0.1,1
2023-02-01T04:00:00,1030A,114.6063,38.0266,石家庄市,高新区,颗粒物(PM10),116,182,102,19,40,86,73,74,73,6,41,2,12,0.2,0.9
2023-02-01T04:00:00,1031A,114.4898,38.1328,石家庄市,西北水源,颗粒物(PM10),136,222,112,36,42,81,71,70,70,4,37,4,11,0.3,1
2023-02-01T04:00:00,1032A,114.4586,38.0058,石家庄市,西南高教,颗粒物(PM10),126,202,114,31,48,78,78,76,76,5,43,4,17,0.2,1
2023-02-01T04:00:00,1033A,114.5331,38.0178,石家庄市,世纪公园,颗粒物(PM10),93,135,99,8,46,74,71,72,72,1,44,1,9,0.3,1
2023-02-01T04:00:00,1034A,114.509,38.0457,石家庄市,人民会堂,颗粒物(PM10),108,166,108,12,44,80,78,78,78,5,40,3,13,0.1,0.8
2023-02-01T04:00:00,1035A,114.3524,37.8911,石家庄市,封龙山,颗粒物(PM10),130,209,81,84,44,91,72,70,70,3,21,5,14,0.2,0.6
2023-02-01T04:00:00,1037A,118.131,39.6363,唐山市,雷达站,颗粒物(PM10),69,87,131,5,46,88,75,77,74,2,38,2,9,0.2,0.9
2023-02-01T04:00:00,1038A,118.1725,39.6334,唐山市,物资局,颗粒物(PM10),110,169,142,37,49,88,79,81,80,4,43,5,11,0.2,0.9
2023-02-01T04:00:00,1040A,118.1705,39.6506,唐山市,十二中,颗粒物(PM10),94,137,141,17,50,70,64,64,64,2,35,1,9,0.2,0.8
2023-02-01T04:00:00,1041A,118.1869,39.622,唐山市,小山,颗粒物(PM10),124,198,143,13,42,86,78,79,78,2,41,4,10,0.2,0.9
2023-02-01T04:00:00,1042A,119.5134,39.8207,秦皇岛市,北戴河环保局,,49,49,115,10,50,70,70,69,69,5,41,2,14,0.4,1.5
2023-02-01T04:00:00,1043A,119.7493,40.0116,秦皇岛市,第一关,颗粒物(PM10),73,95,117,10,58,79,61,79,70,10,47,2,10,0.2,1.2
2023-02-01T04:00:00,1044A,119.5897,39.9499,秦皇岛市,监测站,颗粒物(PM10),51,52,108,13,50,78,71,77,74,4,48,4,12,0.2,1
2023-02-01T04:00:00,1046A,119.5251,39.9041,秦皇岛市,建设大厦,,50,50,99,12,39,79,70,75,70,9,48,3,12,0.2,1
2023-02-01T04:00:00,1048A,114.5302,36.6116,邯郸市,东污水处理厂,颗粒物(PM10),126,202,144,86,89,92,32,38,36,37,69,10,22,0.6,1.1
2023-02-01T04:00:00,1049A,114.4918,36.5713,邯郸市,矿院,颗粒物(PM10),132,214,149,78,100,93,33,33,33,34,60,8,17,0.6,1.6
2023-02-01T04:00:00,1050A,114.484,36.6133,邯郸市,丛台公园,颗粒物(PM10),119,188,125,66,81,92,36,35,35,26,55,9,21,0.7,1.7
2023-02-01T04:00:00,1051A,115.493,38.8632,保定市,游泳馆,颗粒物(PM10),54,57,120,4,62,83,77,83,80,5,57,6,13,0.3,0.8
2023-02-01T04:00:00,1052A,115.5213,38.8959,保定市,华电二区,颗粒物(PM10),63,76,119,13,67,74,65,74,69,13,50,2,11,0.6,1.3
2023-02-01T04:00:00,1053A,115.4713,38.9108,保定市,接待中心,颗粒物(PM10),55,60,115,15,55,69,63,69,66,3,41,4,8,0.2,0.9
2023-02-01T04:00:00,1054A,115.4612,38.8416,保定市,地表水厂,颗粒物(PM10),61,71,155,16,60,77,72,77,74,7,57,4,9,0.1,0.9
2023-02-01T04:00:00,1056A,115.5086,38.8639,保定市,监测站,颗粒物(PM10),73,95,134,22,70,80,77,80,79,5,54,6,11,0.2,0.9
2023-02-01T04:00:00,1057A,114.8883,40.8336,张家口市,人民公园,,35,35,96,5,14,92,75,76,75,2,5,3,6,0.4,0.5
2023-02-01T04:00:00,1059A,114.8687,40.8042,张家口市,五金库,,22,22,66,10,18,85,67,67,67,4,10,9,9,0.3,0.4
2023-02-01T04:00:00,1060A,114.8902,40.762,张家口市,世纪豪园,,32,32,103,12,27,86,68,72,70,1,6,3,4,0.3,0.4
2023-02-01T04:00:00,1061A,114.8916,40.8661,张家口市,北泵房,,32,32,91,9,19,94,78,78,78,3,6,7,10,0.6,0.7
2023-02-01T04:00:00,1062A,117.9531,40.9081,承德市,铁路,,26,26,103,14,32,85,74,75,74,2,21,8,12,0.2,0.7
2023-02-01T04:00:00,1063A,117.9392,40.9763,承德市,中国银行,,26,26,92,9,28,83,73,74,74,3,18,7,8,0.2,0.6
2023-02-01T04:00:00,1064A,117.9503,40.928,承德市,开发区,,31,31,89,17,30,94,78,80,79,4,22,8,11,0.3,0.7
2023-02-01T04:00:00,1065A,117.8051,40.9655,承德市,文化中心,颗粒物(PM10),54,57,134,12,37,98,79,80,79,2,19,8,21,0.2,0.9
2023-02-01T04:00:00,1066A,117.9268,41.0026,承德市,离宫,,32,2,74,22,25,86,70,72,71,2,13,9,11,0.2,0.4
2023-02-01T04:00:00,1067A,116.6708,39.5111,廊坊市,药材公司,,26,26,131,14,52,83,76,81,78,2,50,3,7,0.3,0.8
2023-02-01T04:00:00,1068A,116.7214,39.5589,廊坊市,开发区,,25,24,128,11,43,89,80,87,82,8,46,5,9,0.3,0.7
2023-02-01T04:00:00,1070A,116.7244,39.5269,廊坊市,北华航天学院,,32,32,134,0,40,82,73,80,76,2,43,7,11,0.2,0.7
2023-02-01T04:00:00,1071A,116.8842,38.2991,沧州市,沧县城建局,颗粒物(PM10),129,207,215,31,92,111,77,75,75,8,64,7,16,0.3,1.2
2023-02-01T04:00:00,1072A,116.8584,38.3254,沧州市,电视转播站,颗粒物(PM10),101,151,156,19,86,120,78,78,78,6,50,8,13,0.4,1
2023-02-01T04:00:00,1073A,116.8709,38.3228,沧州市,市环保局,颗粒物(PM10),87,123,155,26,84,106,69,68,68,10,68,2,13,0.1,1
2023-02-01T04:00:00,1074A,115.6838,37.7541,衡水市,电机北厂,颗粒物(PM10),197,344,186,10,91,114,66,57,57,14,57,3,16,0.2,0.9
2023-02-01T04:00:00,1075A,115.6303,37.7316,衡水市,市监测站,颗粒物(PM10),154,258,186,15,94,104,66,57,57,8,46,5,18,0,0.8
2023-02-01T04:00:00,1077A,114.4704,37.0886,邢台市,达活泉,颗粒物(PM10),122,193,89,28,66,76,44,51,47,18,54,4,17,0.4,1.3
2023-02-01T04:00:00,1078A,114.5062,37.0349,邢台市,邢师高专,颗粒物(PM10),146,241,104,45,67,82,40,53,49,22,53,7,14,0.6,1.5
2023-02-01T04:00:00,1079A,114.5237,37.0851,邢台市,路桥公司,颗粒物(PM10),126,202,93,40,58,89,41,59,52,15,41,7,16,0.5,1.1
2023-02-01T04:00:00,1080A,114.4725,37.0719,邢台市,市环保局,颗粒物(PM10),128,205,96,31,68,78,45,58,52,17,52,5,15,0.4,1.2
2023-02-01T04:00:00,1081A,112.522,37.8873,太原市,尖草坪,颗粒物(PM10),88,125,73,18,35,76,60,65,61,18,49,11,23,0.5,1
2023-02-01T04:00:00,1083A,112.434,38.0108,太原市,上兰,,,,,,,,,,,,,,,,
2023-02-01T04:00:00,1084A,112.469,37.7124,太原市,晋源,颗粒物(PM10),99,147,84,16,39,82,59,57,57,19,49,10,20,0.6,1
2023-02-01T04:00:00,1085A,112.5583,37.7394,太原市,小店,颗粒物(PM10),132,213,104,18,45,80,67,71,69,10,49,10,19,0.2,1
2023-02-01T04:00:00,1086A,112.5369,37.8692,太原市,桃园,颗粒物(PM10),112,174,83,17,37,81,66,66,66,12,50,6,20,0.3,0.9
2023-02-01T04:00:00,1087A,112.57,37.8195,太原市,坞城,颗粒物(PM10),110,170,83,19,36,88,66,70,68,13,46,9,18,0.2,0.8
2023-02-01T04:00:00,1088A,112.549,37.9854,太原市,南寨,颗粒物(PM10),145,239,96,16,36,71,68,70,69,10,42,5,20,0.3,1
2023-02-01T04:00:00,1089A,112.4783,37.7778,太原市,金胜,,,,,,,,,,,,,,,,
2023-02-01T04:00:00,1090A,111.6507,40.7517,呼和浩特市,呼市一监,,31,31,77,6,19,76,58,67,64,11,16,10,8,0.4,0.6
2023-02-01T04:00:00,1091A,111.6572,40.8033,呼和浩特市,小召,,41,41,95,8,22,77,61,64,60,12,29,13,16,0.3,0.7
2023-02-01T04:00:00,1094A,111.7516,40.8369,呼和浩特市,如意水处理厂,,25,25,63,4,19,86,65,69,67,7,23,4,10,0.2,0.5
2023-02-01T04:00:00,1095A,111.7276,40.8062,呼和浩特市,二十九中,,32,32,83,5,21,83,59,70,66,10,25,10,12,0.3,0.5
2023-02-01T04:00:00,1096A,111.5512,40.7866,呼和浩特市,工大金川校区,,37,37,88,4,24,84,67,68,67,6,23,6,13,0.3,0.5
2023-02-01T04:00:00,1097A,111.717,40.7612,呼和浩特市,化肥厂生活区,颗粒物(PM10),53,56,72,8,22,76,59,66,62,9,22,16,8,0.3,0.6
2023-02-01T04:00:00,1098A,123.6836,41.9339,沈阳市,森林路,,,,,,,,,,,,,,,,
2023-02-01T04:00:00,1099A,123.505,41.7406,沈阳市,浑南东路,,41,41,66,14,43,59,54,38,38,14,40,11,18,0.5,1.1
2023-02-01T04:00:00,1100A,123.4231,41.6989,沈阳市,新秀街,,39,39,93,9,53,70,59,37,37,8,45,6,15,0.4,1
2023-02-01T04:00:00,1102A,123.5903,41.8411,沈阳市,东陵路,,50,50,89,29,55,70,57,38,38,13,41,10,19,0.5,1.2
2023-02-01T04:00:00,1103A,123.4264,41.8467,沈阳市,陵东街,,31,31,73,10,43,76,57,48,48,15,40,10,18,0.3,0.8
2023-02-01T04:00:00,1104A,123.4114,41.7653,沈阳市,文化路,,36,36,86,16,53,67,57,39,39,14,44,11,21,0.4,0.9
2023-02-01T04:00:00,1105A,123.4678,41.7867,沈阳市,小河沿,,31,31,76,12,46,64,53,39,39,17,44,11,19,0.5,1
2023-02-01T04:00:00,1106A,123.4017,41.7972,沈阳市,太原街,颗粒物(PM10),56,61,102,21,56,68,52,38,38,15,46,9,21,0.4,1
2023-02-01T04:00:00,1108A,123.3783,41.9228,沈阳市,京沈街,颗粒物(PM10),52,53,91,20,60,75,60,46,46,9,37,7,18,0.4,1
2023-02-01T04:00:00,1109A,121.612,38.9741,大连市,甘井子,细颗粒物(PM2.5),145,127,119,111,93,85,33,41,33,36,45,22,27,1.2,1.2
2023-02-01T04:00:00,1110A,121.565,38.9511,大连市,周水子,细颗粒物(PM2.5),124,140,151,94,88,83,34,35,29,40,62,20,20,1.6,1.7
2023-02-01T04:00:00,1111A,121.5637,38.8845,大连市,星海三站,细颗粒物(PM2.5),112,133,100,84,58,71,25,48,34,64,57,27,13,1.3,1.1
2023-02-01T04:00:00,1112A,121.6302,38.9117,大连市,青泥洼桥,颗粒物(PM10),102,153,127,69,66,80,32,30,30,46,54,27,23,2.0,1.7
2023-02-01T04:00:00,1113A,121.6251,38.8638,大连市,傅家庄,细颗粒物(PM2.5),90,121,114,67,61,85,38,51,40,54,49,22,14,1.6,1.4
2023-02-01T04:00:00,1114A,121.5213,38.8661,大连市,七贤岭,,,112,83,,72,93,46,59,48,30,29,19,13,1.2,1.1
2023-02-01T04:00:00,1115A,121.2529,38.8061,大连市,旅顺,细颗粒物(PM2.5),60,66,130,43,89,70,61,44,43,17,47,16,18,0.7,1.3
2023-02-01T04:00:00,1116A,121.7485,39.1311,大连市,金州,细颗粒物(PM2.5),109,118,135,82,80,67,26,36,28,29,27,29,22,1.7,1.8
2023-02-01T04:00:00,1117A,121.7811,39.0496,大连市,开发区,细颗粒物(PM2.5),80,97,110,59,80,65,38,35,35,41,62,23,19,1.2,1.5
2023-02-01T04:00:00,1118A,121.9762,39.0631,大连市,双D港,颗粒物(PM10),60,70,89,40,56,84,54,44,44,29,39,18,16,0.9,1.3
2023-02-01T04:00:00,1119A,125.3325,43.9166,长春市,食品厂,细颗粒物(PM2.5),129,125,61,98,50,72,23,21,19,56,33,9,12,0.9,0.7
2023-02-01T04:00:00,1120A,125.2863,43.9027,长春市,客车厂,细颗粒物(PM2.5),130,109,60,99,47,58,20,14,14,55,46,10,16,0.9,0.6
2023-02-01T04:00:00,1121A,125.2841,43.8463,长春市,邮电学院,细颗粒物(PM2.5),73,66,46,53,39,64,32,30,23,44,33,12,19,0.5,0.5
2023-02-01T04:00:00,1122A,125.3716,43.8772,长春市,劳动公园,,40,39,50,28,37,68,26,47,33,56,38,29,16,0.4,0.5
2023-02-01T04:00:00,1123A,125.3297,43.8805,长春市,园林处,细颗粒物(PM2.5),78,54,49,57,40,62,37,33,33,38,39,21,21,0.7,0.6
2023-02-01T04:00:00,1124A,125.4605,43.79,长春市,净月潭,细颗粒物(PM2.5),67,72,48,48,32,74,30,37,33,26,13,4,6,0.6,0.6
2023-02-01T04:00:00,1125A,125.7194,43.515,长春市,甩湾子,,,,,,,,,,,,,,,,
2023-02-01T04:00:00,1126A,125.3863,43.8447,长春市,经开区环卫处,细颗粒物(PM2.5),125,113,55,95,43,68,5,29,11,69,37,11,22,1.1,0.8
2023-02-01T04:00:00,1127A,125.245,43.7783,长春市,高新区管委会,细颗粒物(PM2.5),175,129,48,132,50,68,10,11,10,54,33,13,13,1.1,0.7
2023-02-01T04:00:00,1128A,125.1761,43.8325,长春市,岱山公园,细颗粒物(PM2.5),203,134,61,153,53,58,14,31,22,58,47,7,17,1.3,0.9
2023-02-01T04:00:00,1129A,126.5422,45.755,哈尔滨市,岭北,细颗粒物(PM2.5),251,219,197,201,162,101,44,56,39,59,57,26,32,1.2,1.2
2023-02-01T04:00:00,1130A,126.561,45.8167,哈尔滨市,松北商大,细颗粒物(PM2.5),204,179,179,154,148,93,47,37,37,45,53,14,19,1.2,1.4
2023-02-01T04:00:00,1131A,126.979,45.5419,哈尔滨市,阿城会宁,细颗粒物(PM2.5),258,213,162,208,133,69,10,50,20,73,46,18,25,1.8,1.3
2023-02-01T04:00:00,1132A,126.599,45.7222,哈尔滨市,南岗学府路,细颗粒物(PM2.5),230,158,176,180,124,73,18,20,19,79,71,17,39,1.0,0.8
2023-02-01T04:00:00,1133A,126.689,45.7733,哈尔滨市,太平宏伟公园,细颗粒物(PM2.5),198,214,208,148,149,92,25,22,22,72,72,16,18,1.1,1
2023-02-01T04:00:00,1134A,126.635,45.7667,哈尔滨市,道外承德广场,细颗粒物(PM2.5),220,181,200,170,160,56,26,30,29,67,75,14,18,1.3,1.5
2023-02-01T04:00:00,1135A,126.685,45.7319,哈尔滨市,香坊红旗大街,细颗粒物(PM2.5),205,145,180,155,177,72,37,28,28,52,72,23,36,1.5,1.7
2023-02-01T04:00:00,1136A,126.6411,45.7258,哈尔滨市,动力和平路,细颗粒物(PM2.5),208,150,141,158,124,69,20,49,32,67,59,12,26,1.3,1.1
2023-02-01T04:00:00,1137A,126.593,45.7478,哈尔滨市,道里建国路,细颗粒物(PM2.5),243,214,162,193,150,69,22,30,24,67,67,23,31,1.5,1.6
2023-02-01T04:00:00,1138A,126.615,45.61,哈尔滨市,平房东轻厂,细颗粒物(PM2.5),273,234,175,223,159,55,12,11,11,74,77,16,24,1.6,1.3
2023-02-01T04:00:00,1139A,126.595,45.9855,哈尔滨市,呼兰师专,细颗粒物(PM2.5),237,200,210,187,199,87,49,40,40,37,52,15,25,1.8,2.1
2023-02-01T04:00:00,1140A,126.6206,45.6842,哈尔滨市,省农科院,细颗粒物(PM2.5),231,246,179,181,128,58,9,20,13,81,73,22,24,2.0,1.4
2023-02-01T04:00:00,1141A,121.4,31.238,上海市,普陀,细颗粒物(PM2.5),73,60,54,53,41,114,6,10,8,104,57,5,10,1.5,1
2023-02-01T04:00:00,1142A,121.478,31.2036,上海市,十五厂,细颗粒物(PM2.5),54,45,48,38,38,106,4,22,12,98,61,5,8,1.3,1
2023-02-01T04:00:00,1143A,121.467,31.3008,上海市,虹口,颗粒物(PM10),58,66,60,21,43,98,3,4,4,97,63,11,12,1.2,0.8
2023-02-01T04:00:00,1144A,121.412,31.1654,上海市,徐汇上师大,细颗粒物(PM2.5),57,44,46,40,34,94,31,46,35,84,53,7,8,1.0,0.8
2023-02-01T04:00:00,1145A,121.536,31.2659,上海市,杨浦四漂,细颗粒物(PM2.5),79,73,59,58,45,98,6,15,9,101,61,7,7,0.8,0.6
2023-02-01T04:00:00,1147A,121.425,31.2261,上海市,静安监测站,细颗粒物(PM2.5),72,70,60,52,37,110,4,18,9,118,64,8,10,1.3,0.7
2023-02-01T04:00:00,1148A,121.703,31.1907,上海市,浦东川沙,细颗粒物(PM2.5),68,50,52,49,47,102,3,4,4,90,50,10,7,0.5,0.7
2023-02-01T04:00:00,1149A,121.533,31.2284,上海市,浦东新区监测站,细颗粒物(PM2.5),60,62,56,43,37,93,14,49,26,96,47,6,6,0.9,0.7
2023-02-01T04:00:00,1150A,121.577,31.2071,上海市,浦东张江,,,62,49,,29,93,4,41,20,95,48,5,6,1.0,0.9
2023-02-01T04:00:00,1151A,118.8086,32.1065,南京市,迈皋桥,细颗粒物(PM2.5),98,132,82,73,44,98,6,6,6,94,64,11,10,0.9,0.8
2023-02-01T04:00:00,1152A,118.7538,32.0551,南京市,草场门,细颗粒物(PM2.5),92,111,76,68,42,92,4,5,5,106,63,9,8,1.1,1.1
2023-02-01T04:00:00,1153A,118.7794,32.0745,南京市,山西路,细颗粒物(PM2.5),98,119,79,73,45,101,6,6,6,107,62,12,9,1.0,1.1
2023-02-01T04:00:00,1154A,118.7752,32.0023,南京市,中华门,颗粒物(PM10),65,80,73,46,41,95,6,10,8,86,62,11,14,1.0,1
2023-02-01T04:00:00,1155A,118.8109,32.0309,南京市,瑞金路,颗粒物(PM10),58,66,85,34,48,89,4,8,6,73,73,6,9,0.9,1.3
2023-02-01T04:00:00,1156A,118.7997,32.0754,南京市,玄武湖,细颗粒物(PM2.5),94,113,78,70,42,88,3,4,4,114,63,3,4,0.9,0.9
2023-02-01T04:00:00,1157A,118.6414,32.0931,南京市,浦口,细颗粒物(PM2.5),125,143,79,95,47,92,25,37,27,70,44,21,11,1.1,0.8
2023-02-01T04:00:00,1158A,118.7356,31.9996,南京市,奥体中心,颗粒物(PM10),82,114,89,58,47,95,6,7,7,100,76,7,11,1.8,1.4
2023-02-01T04:00:00,1159A,118.9125,32.1028,南京市,仙林大学城,细颗粒物(PM2.5),94,124,64,70,40,103,1,4,2,102,53,11,11,0.8,0.8
2023-02-01T04:00:00,1160A,120.561,31.2472,苏州市,上方山,细颗粒物(PM2.5),89,86,72,66,56,91,8,4,4,78,51,6,7,0.8,0.7
2023-02-01T04:00:00,1162A,120.591,31.3019,苏州市,彩香,细颗粒物(PM2.5),99,100,77,74,53,92,4,4,4,81,62,6,7,1.2,0.9
2023-02-01T04:00:00,1163A,120.596,31.3264,苏州市,轧钢厂,细颗粒物(PM2.5),89,101,83,66,48,90,3,4,4,69,60,6,7,1.2,1
2023-02-01T04:00:00,1164A,120.613,31.2703,苏州市,吴中区,细颗粒物(PM2.5),93,100,73,69,47,97,4,5,4,80,62,6,7,1.0,0.6
2023-02-01T04:00:00,1165A,120.543,31.2994,苏州市,苏州新区,细颗粒物(PM2.5),104,99,71,78,52,96,2,2,2,79,50,8,8,1.2,0.9
2023-02-01T04:00:00,1166A,120.669,31.3097,苏州市,苏州工业园区,细颗粒物(PM2.5),84,83,73,62,48,100,8,52,29,75,48,6,8,0.9,0.7
2023-02-01T04:00:00,1167A,120.641,31.3708,苏州市,相城区,细颗粒物(PM2.5),87,94,79,64,52,93,6,7,7,94,69,7,8,0.7,0.7
2023-02-01T04:00:00,1168A,120.9098,31.9663,南通市,狼山街道,细颗粒物(PM2.5),110,118,89,83,58,98,3,4,3,66,55,8,9,0.8,0.8
2023-02-01T04:00:00,1169A,120.86,32.0005,南通市,虹桥,细颗粒物(PM2.5),115,115,95,87,65,87,1,8,5,92,76,7,11,1.1,1.3
2023-02-01T04:00:00,1170A,120.87,32.02,南通市,城中,细颗粒物(PM2.5),133,132,99,101,66,84,2,4,3,80,71,8,12,0.7,0.9
2023-02-01T04:00:00,1171A,120.94,31.93,南通市,星湖花园,细颗粒物(PM2.5),100,97,83,75,52,102,0,0,0,68,58,7,10,1.0,1
2023-02-01T04:00:00,1172A,120.81,32.0417,南通市,紫琅学院,细颗粒物(PM2.5),122,142,106,92,65,76,0,0,0,82,66,7,9,1.1,1.3
2023-02-01T04:00:00,1173A,119.176,34.5885,连云港市,市环境监测站,细颗粒物(PM2.5),140,144,140,107,100,95,0,12,3,95,59,13,15,1.1,1
2023-02-01T04:00:00,1177A,117.179,34.2761,徐州市,黄河新村,颗粒物(PM10),134,217,181,,100,133,0,0,0,107,73,15,15,2.0,1.5
2023-02-01T04:00:00,1178A,117.1918,34.2384,徐州市,淮塔,细颗粒物(PM2.5),213,212,164,163,108,142,1,17,5,101,70,10,11,1.4,1.1
2023-02-01T04:00:00,1180A,117.256,34.2153,徐州市,新城区,细颗粒物(PM2.5),221,225,162,171,116,130,3,6,5,116,71,20,16,2.0,1.3
2023-02-01T04:00:00,1181A,117.244,34.2911,徐州市,桃园路,细颗粒物(PM2.5),218,254,189,168,123,134,9,7,7,103,80,12,12,1.6,1.4
2023-02-01T04:00:00,1182A,117.2933,34.2778,徐州市,农科院,细颗粒物(PM2.5),218,254,187,168,115,120,5,7,6,98,80,13,13,1.6,1.2
2023-02-01T04:00:00,1186A,119.389,32.3761,扬州市,邗江监测站,细颗粒物(PM2.5),183,148,97,138,79,118,31,24,24,66,61,13,11,1.1,1
2023-02-01T04:00:00,1188A,120.269,31.4867,无锡市,雪浪,细颗粒物(PM2.5),58,56,54,41,35,97,17,44,31,45,24,7,8,0.9,0.8
2023-02-01T04:00:00,1189A,120.275,31.6219,无锡市,黄巷,细颗粒物(PM2.5),85,97,87,63,48,105,8,8,8,102,94,11,9,1.3,1
2023-02-01T04:00:00,1190A,120.294,31.56,无锡市,曹张,颗粒物(PM10),74,98,81,53,46,101,6,5,5,103,78,12,9,1.3,0.7
2023-02-01T04:00:00,1191A,120.242,31.5031,无锡市,漆塘,细颗粒物(PM2.5),62,61,49,44,35,102,12,41,29,55,29,7,8,0.8,0.8
2023-02-01T04:00:00,1192A,120.3489,31.5863,无锡市,东亭,细颗粒物(PM2.5),94,90,73,70,46,100,12,6,6,94,70,10,10,1.8,1.5
2023-02-01T04:00:00,1193A,120.354,31.5475,无锡市,旺庄,细颗粒物(PM2.5),85,78,72,63,48,98,26,6,6,88,72,6,5,1.1,0.8
2023-02-01T04:00:00,1194A,120.245,31.5631,无锡市,荣巷,细颗粒物(PM2.5),55,56,53,39,35,100,21,22,20,44,35,9,10,0.7,0.8
2023-02-01T04:00:00,1195A,120.299,31.6817,无锡市,堰桥,细颗粒物(PM2.5),104,95,77,78,50,105,6,11,9,78,57,10,7,1.3,1.2
2023-02-01T04:00:00,1196A,119.9633,31.762,常州市,市监测站,细颗粒物(PM2.5),92,99,93,68,58,114,4,5,4,87,59,7,8,1.1,0.8
2023-02-01T04:00:00,1200A,119.9468,31.7069,常州市,武进监测站,细颗粒物(PM2.5),94,103,79,70,52,111,7,46,22,90,42,9,8,1.2,0.8
2023-02-01T04:00:00,1201A,119.9255,31.9087,常州市,安家,细颗粒物(PM2.5),107,111,87,80,63,119,5,8,6,87,58,10,9,1.0,0.8
2023-02-01T04:00:00,1203A,119.6707,32.1875,镇江市,新区办事处,细颗粒物(PM2.5),158,166,114,120,75,117,7,10,9,74,61,5,6,1.2,1.1
2023-02-01T04:00:00,1204A,119.4974,32.1968,镇江市,职教中心,细颗粒物(PM2.5),198,196,105,148,69,114,3,3,3,116,64,16,11,1.3,1.1
2023-02-01T04:00:00,1205A,119.4303,32.1328,镇江市,丹徒区监测站,细颗粒物(PM2.5),142,132,89,108,64,112,13,52,36,102,45,8,7,1.1,0.7
2023-02-01T04:00:00,1206A,119.905,32.4878,泰州市,公园路,细颗粒物(PM2.5),168,139,112,127,88,115,25,33,29,47,56,5,9,1.2,1.1
2023-02-01T04:00:00,1207A,119.9189,32.4625,泰州市,莲花,细颗粒物(PM2.5),208,159,118,158,97,102,32,33,32,51,60,9,12,1.3,1.1
2023-02-01T04:00:00,1209A,119.888,32.4639,泰州市,留学生创业园,细颗粒物(PM2.5),178,190,135,134,83,103,28,31,30,53,60,8,12,1.2,1.1
2023-02-01T04:00:00,1210A,119.036,33.5981,淮安市,钵池山,细颗粒物(PM2.5),198,139,119,148,102,104,45,47,46,45,50,7,10,1.0,1.1
2023-02-01T04:00:00,1211A,119.007,33.575,淮安市,北京南路,细颗粒物(PM2.5),178,158,144,134,97,88,17,13,13,55,70,8,12,1.1,1.3
2023-02-01T04:00:00,1212A,118.989,33.6067,淮安市,市监测站,细颗粒物(PM2.5),178,153,128,134,91,111,26,46,35,56,54,6,11,1.2,1.1
2023-02-01T04:00:00,1213A,119.135,33.5039,淮安市,楚州区监测站,细颗粒物(PM2.5),153,137,129,117,97,98,36,42,40,46,55,7,11,1.1,1.1
2023-02-01T04:00:00,1214A,119.0186,33.6297,淮安市,淮阴区监测站,细颗粒物(PM2.5),215,163,128,165,106,106,31,40,38,57,56,9,12,1.0,1
2023-02-01T04:00:00,1215A,120.118,33.4022,盐城市,盐城电厂,细颗粒物(PM2.5),129,117,104,98,78,126,18,74,50,66,44,7,10,0.9,1
2023-02-01T04:00:00,1216A,120.156,33.3942,盐城市,市监测站,细颗粒物(PM2.5),123,124,90,93,80,124,15,57,30,58,44,8,13,0.8,1
2023-02-01T04:00:00,1218A,120.2144,33.38,盐城市,开发区管委会,细颗粒物(PM2.5),117,115,117,88,79,127,38,69,47,35,34,6,8,0.8,0.9
2023-02-01T04:00:00,1220A,118.293,33.9528,宿迁市,宿迁学院,细颗粒物(PM2.5),225,219,147,175,102,124,40,55,50,59,52,15,11,0.9,0.9
2023-02-01T04:00:00,1221A,118.2442,33.9592,宿迁市,宿迁中学,细颗粒物(PM2.5),186,199,130,140,85,117,26,30,24,67,46,14,11,1.1,1
2023-02-01T04:00:00,1223A,120.2072,30.2111,杭州市,滨江,颗粒物(PM10),59,67,61,38,35,102,18,34,23,45,32,7,8,0.7,0.6
2023-02-01T04:00:00,1224A,120.0633,30.2747,杭州市,西溪,颗粒物(PM10),60,69,51,36,30,108,4,4,4,25,28,5,5,0.7,0.6
2023-02-01T04:00:00,1226A,120.3461,30.3153,杭州市,下沙,细颗粒物(PM2.5),89,101,70,66,45,100,8,13,8,74,50,6,7,0.9,0.7
2023-02-01T04:00:00,1227A,120.1269,30.2456,杭州市,卧龙桥,,50,45,43,35,29,104,24,22,22,23,27,5,6,0.5,0.5
2023-02-01T04:00:00,1228A,120.1903,30.2692,杭州市,浙江农大,细颗粒物(PM2.5),85,88,61,63,41,100,6,6,6,58,40,5,6,0.9,0.6
2023-02-01T04:00:00,1230A,120.1197,30.3119,杭州市,和睦小学,细颗粒物(PM2.5),77,77,67,56,47,103,4,3,3,35,32,5,6,0.8,0.8
2023-02-01T04:00:00,1231A,120.3019,30.4183,杭州市,临平镇,细颗粒物(PM2.5),84,88,63,62,40,104,12,46,28,52,30,7,8,1.0,0.7
2023-02-01T04:00:00,1232A,120.2697,30.1819,杭州市,城厢镇,细颗粒物(PM2.5),64,70,67,46,50,97,29,26,26,40,41,7,8,0.6,0.6
2023-02-01T04:00:00,1233A,120.0883,30.1808,杭州市,云栖,,47,47,45,31,28,92,33,47,42,19,20,5,6,0.6,0.6
2023-02-01T04:00:00,1234A,121.8358,29.911,宁波市,区环保大楼,细颗粒物(PM2.5),60,59,45,43,29,105,2,2,2,60,65,7,10,0.9,0.6
2023-02-01T04:00:00,1235A,121.56,29.82,宁波市,万里学院,细颗粒物(PM2.5),60,65,50,43,33,118,10,40,18,67,35,6,7,0.8,0.5
2023-02-01T04:00:00,1236A,121.713,29.9572,宁波市,龙赛医院,颗粒物(PM10),55,60,55,33,28,105,23,19,16,57,56,11,12,0.6,0.5
2023-02-01T04:00:00,1239A,121.633,29.7733,宁波市,钱湖水厂,,28,24,27,19,20,107,62,78,68,5,5,5,6,0.5,0.4
2023-02-01T04:00:00,1240A,121.5856,29.8635,宁波市,太古小学,颗粒物(PM10),62,74,58,42,35,109,0,6,2,76,48,8,9,1.1,0.8
2023-02-01T04:00:00,1241A,121.524,29.8674,宁波市,市环境监测中心,颗粒物(PM10),53,56,56,33,33,101,11,5,5,54,48,5,7,0.6,0.6
2023-02-01T04:00:00,1242A,120.634,28.0089,温州市,瓯海,,43,43,49,29,32,116,14,14,14,34,33,6,6,0.3,0.5
2023-02-01T04:00:00,1243A,120.6748,27.9939,温州市,南浦,,44,44,49,25,27,119,42,39,39,21,30,5,6,0.3,0.5
2023-02-01T04:00:00,1244A,120.76,27.9747,温州市,龙湾,,40,40,48,17,24,116,49,38,38,22,31,6,7,0.4,0.5
2023-02-01T04:00:00,1245A,120.6709,28.0167,温州市,市站,颗粒物(PM10),52,54,50,26,26,115,38,41,38,28,31,5,6,0.4,0.5
2023-02-01T04:00:00,1247A,120.6053,29.9928,绍兴市,城东开发委,,49,49,58,34,40,106,29,17,17,24,36,4,5,0.7,0.7
2023-02-01T04:00:00,1250A,120.0751,30.8669,湖州市,城西水厂,细颗粒物(PM2.5),70,52,55,51,41,97,5,9,6,66,52,6,6,0.6,0.5
2023-02-01T04:00:00,1252A,120.7436,30.778,嘉兴市,清河小学,,,,61,,39,57,,60,,,48,,10,,0.5
2023-02-01T04:00:00,1253A,120.726,30.7478,嘉兴市,嘉兴学院,,,,56,,36,68,,70,,,37,,9,,0.6
2023-02-01T04:00:00,1255A,121.273,28.6459,台州市,黄岩环保大楼,,21,21,36,11,20,122,52,50,50,10,21,7,8,0.3,0.4
2023-02-01T04:00:00,1256A,121.419,28.6542,台州市,台州环保大楼,,39,34,38,27,26,122,66,65,57,12,18,8,8,0.5,0.6
2023-02-01T04:00:00,1257A,121.377,28.5773,台州市,路桥田洋王,,49,37,40,34,29,115,36,41,35,22,22,6,10,0.4,0.5
2023-02-01T04:00:00,1258A,122.122,30.0203,舟山市,定海檀枫,,24,24,33,9,19,121,38,43,40,18,33,3,4,0.4,0.4
2023-02-01T04:00:00,1259A,122.3094,29.9558,舟山市,普陀东港,,26,20,32,12,18,121,81,83,81,13,17,5,5,0.4,0.4
2023-02-01T04:00:00,1260A,122.19,29.9944,舟山市,临城新区,,29,29,37,12,21,124,44,45,44,17,29,5,5,0.4,0.3
2023-02-01T04:00:00,1262A,119.647,29.077,金华市,十五中,细颗粒物(PM2.5),65,42,60,47,44,90,29,23,23,33,41,5,6,0.5,0.7
2023-02-01T04:00:00,1263A,119.686,29.1029,金华市,监测站,细颗粒物(PM2.5),58,53,53,41,40,90,4,4,3,55,42,5,6,0.6,0.6
2023-02-01T04:00:00,1264A,118.8692,28.9398,衢州市,环保大楼,细颗粒物(PM2.5),67,65,66,48,44,94,3,4,4,51,43,5,9,0.6,0.7
2023-02-01T04:00:00,1265A,118.8709,28.9666,衢州市,实验学校,,50,49,56,35,37,98,1,4,2,54,43,7,7,0.4,0.5
2023-02-01T04:00:00,1266A,118.8621,28.9808,衢州市,衢州学院,颗粒物(PM10),52,54,50,32,29,96,3,4,3,48,40,6,6,0.5,0.5
2023-02-01T04:00:00,1267A,119.914,28.4514,丽水市,监测站大楼,,38,31,49,26,36,92,22,24,22,22,26,12,9,0.5,0.9
2023-02-01T04:00:00,1268A,119.93,28.4586,丽水市,莲都小学,,47,47,51,26,30,106,16,12,12,29,26,8,8,0.6,0.6
2023-02-01T04:00:00,1269A,119.879,28.4231,丽水市,余庄前,细颗粒物(PM2.5),87,74,40,64,30,101,8,9,9,25,16,8,8,0.5,0.4
2023-02-01T04:00:00,1270A,117.1959,31.7848,合肥市,明珠广场,细颗粒物(PM2.5),79,88,72,58,41,107,7,41,31,87,55,13,8,1.0,0.9
2023-02-01T04:00:00,1271A,117.3072,31.8764,合肥市,三里街,细颗粒物(PM2.5),103,92,87,77,56,98,12,6,6,74,72,9,8,0.8,0.8
2023-02-01T04:00:00,1272A,117.2588,31.8707,合肥市,琥珀山庄,细颗粒物(PM2.5),117,118,96,88,56,112,6,6,6,63,62,5,6,1.4,1.1
2023-02-01T04:00:00,1273A,117.1604,31.9052,合肥市,董铺水库,细颗粒物(PM2.5),94,102,76,70,42,100,24,29,24,56,39,6,5,0.6,0.5
2023-02-01T04:00:00,1274A,117.25,31.8571,合肥市,长江中路,细颗粒物(PM2.5),110,107,78,83,54,102,2,11,4,83,54,13,12,1.4,1.1
2023-02-01T04:00:00,1275A,117.266,31.9436,合肥市,庐阳区,细颗粒物(PM2.5),85,102,83,63,44,97,40,32,32,45,51,11,10,0.7,0.7
2023-02-01T04:00:00,1276A,117.336,31.8586,合肥市,瑶海区,细颗粒物(PM2.5),103,122,88,77,51,109,7,6,6,82,53,9,9,0.9,0.7
2023-02-01T04:00:00,1277A,117.3027,31.7964,合肥市,包河区,细颗粒物(PM2.5),94,92,80,70,51,116,3,3,3,84,64,15,10,0.8,0.7
2023-02-01T04:00:00,1278A,117.2776,31.7385,合肥市,滨湖新区,细颗粒物(PM2.5),83,90,68,61,42,117,14,59,35,79,33,25,15,0.9,0.8
2023-02-01T04:00:00,1279A,117.1318,31.8403,合肥市,高新区,细颗粒物(PM2.5),98,92,63,73,40,108,6,30,14,87,44,15,10,1.2,0.7
2023-02-01T04:00:00,1280A,119.3903,26.0543,福州市,鼓山,,,,,,,,,,,,,,,,
2023-02-01T04:00:00,1282A,119.2681,26.0504,福州市,师大,,36,36,44,25,23,118,44,43,43,20,22,4,4,0.4,0.5
2023-02-01T04:00:00,1283A,119.2984,26.1028,福州市,五四北路,,41,41,49,28,30,114,10,15,13,45,37,2,3,0.6,0.7
2023-02-01T04:00:00,1284A,119.2648,26.0768,福州市,杨桥西路,,39,39,42,25,22,113,34,34,34,25,22,3,4,0.4,0.5
2023-02-01T04:00:00,1285A,119.317,26.0746,福州市,紫阳,细颗粒物(PM2.5),53,49,51,37,29,111,11,8,8,44,30,2,3,0.8,0.7
2023-02-01T04:00:00,1286A,118.1608,24.8169,厦门市,溪东,,,,,,,,,,,,,,,,
2023-02-01T04:00:00,1287A,118.1514,24.4767,厦门市,洪文,细颗粒物(PM2.5),68,53,46,49,31,119,49,68,60,32,27,3,3,0.6,0.7
2023-02-01T04:00:00,1288A,118.0661,24.4444,厦门市,鼓浪屿,细颗粒物(PM2.5),60,59,48,43,32,120,33,98,70,64,34,5,5,0.4,0.4
2023-02-01T04:00:00,1290A,115.8931,28.6843,南昌市,省外办,细颗粒物(PM2.5),115,114,107,87,68,111,13,11,11,80,59,10,11,2.3,1.6
2023-02-01T04:00:00,1291A,115.8886,28.7003,南昌市,省林业公司,细颗粒物(PM2.5),67,66,74,48,51,106,22,26,13,75,59,8,8,0.8,1
2023-02-01T04:00:00,1292A,115.8126,28.7442,南昌市,林科所,,49,36,50,34,32,115,76,79,76,11,25,8,9,0.5,0.5
2023-02-01T04:00:00,1294A,115.8518,28.687,南昌市,建工学校,细颗粒物(PM2.5),69,86,78,50,42,110,5,24,12,87,54,12,12,1.0,1
2023-02-01T04:00:00,1295A,115.8921,28.6424,南昌市,象湖,细颗粒物(PM2.5),94,99,86,70,61,105,6,3,3,77,59,7,8,1.1,1.1
2023-02-01T04:00:00,1296A,115.7423,28.7996,南昌市,武术学校,,36,28,28,25,25,114,23,29,26,6,7,7,7,0.4,0.4
2023-02-01T04:00:00,1298A,115.9314,28.6842,南昌市,省站,细颗粒物(PM2.5),102,91,102,76,68,107,19,13,13,60,47,10,12,0.7,0.9
2023-02-01T04:00:00,1299A,116.9862,36.6114,济南市,科干所,颗粒物(PM10),184,317,147,63,73,120,41,29,29,51,54,14,20,0.8,0.8
2023-02-01T04:00:00,1300A,116.9376,36.665,济南市,农科所,颗粒物(PM10),174,298,159,68,72,119,33,23,23,52,73,13,23,0.7,1.1
2023-02-01T04:00:00,1301A,117.1265,36.6734,济南市,开发区,颗粒物(PM10),184,317,139,61,75,107,38,38,30,46,72,20,19,0.7,0.9
2023-02-01T04:00:00,1303A,117.0624,36.6868,济南市,省种子仓库,颗粒物(PM10),168,285,163,75,87,108,34,20,20,41,76,17,22,0.6,1
2023-02-01T04:00:00,1304A,116.9489,36.6447,济南市,机床二厂,颗粒物(PM10),189,327,162,85,84,123,34,24,24,51,63,16,35,0.8,1
2023-02-01T04:00:00,1305A,117.0495,36.663,济南市,市监测站,颗粒物(PM10),186,322,156,66,84,116,38,24,24,52,82,15,18,0.8,1.1
2023-02-01T04:00:00,1306A,116.7675,36.5484,济南市,长清党校,颗粒物(PM10),252,386,150,46,77,146,56,36,36,32,49,6,16,0.6,0.8
2023-02-01T04:00:00,1307A,120.6659,36.2403,青岛市,仰口,颗粒物(PM10),86,122,104,48,68,130,87,112,102,20,23,12,11,1.0,1.2
2023-02-01T04:00:00,1310A,120.4134,36.0658,青岛市,市南区东部子站,细颗粒物(PM2.5),160,180,136,122,85,94,21,16,16,112,68,22,14,1.5,1.3
2023-02-01T04:00:00,1311A,120.3664,36.1032,青岛市,四方区子站,细颗粒物(PM2.5),195,205,162,146,109,83,14,7,7,94,82,16,12,1.8,1.7
2023-02-01T04:00:00,1312A,120.2994,36.054,青岛市,市南区西部子站,细颗粒物(PM2.5),165,188,130,125,83,95,16,9,9,113,69,19,12,1.8,1.5
2023-02-01T04:00:00,1313A,120.4581,36.0858,青岛市,崂山区子站,细颗粒物(PM2.5),170,195,143,129,86,94,66,70,69,72,47,22,12,1.2,1
2023-02-01T04:00:00,1314A,120.1983,35.9608,青岛市,黄岛区子站,细颗粒物(PM2.5),160,200,145,122,100,86,39,52,40,96,67,24,12,1.3,1.3
2023-02-01T04:00:00,1315A,120.3999,36.3083,青岛市,城阳区子站,细颗粒物(PM2.5),138,185,147,105,76,121,9,7,7,110,81,21,15,2.2,1.5
2023-02-01T04:00:00,1316A,113.69031,34.76122,郑州市,烟厂,细颗粒物(PM2.5),170,168,127,129,88,105,45,42,42,58,69,28,19,1.6,1.1
2023-02-01T04:00:00,1317A,113.65724,34.77134,郑州市,郑纺机,细颗粒物(PM2.5),176,143,126,133,89,106,49,28,28,64,78,24,15,1.7,1.2
2023-02-01T04:00:00,1318A,113.67526,34.80246,郑州市,银行学校,细颗粒物(PM2.5),179,168,122,135,94,110,50,40,40,62,68,26,18,1.7,1.1
2023-02-01T04:00:00,1319A,113.56746,34.81334,郑州市,供水公司,细颗粒物(PM2.5),162,155,119,123,83,109,19,23,18,81,60,21,18,2.0,1.5
2023-02-01T04:00:00,1320A,113.7329,34.7178,郑州市,经开区管委,细颗粒物(PM2.5),186,161,127,140,90,101,43,37,37,68,72,25,17,1.5,0.9
2023-02-01T04:00:00,1321A,113.73961,34.77172,郑州市,四十七中,细颗粒物(PM2.5),183,185,129,138,92,105,34,29,29,64,58,24,15,1.7,1.1
2023-02-01T04:00:00,1322A,113.60532,34.74838,郑州市,市监测站,细颗粒物(PM2.5),229,280,162,179,102,106,16,7,7,80,66,18,16,1.3,1
2023-02-01T04:00:00,1323A,113.64164,34.7525,郑州市,河医大,细颗粒物(PM2.5),163,150,130,124,94,96,7,3,3,81,75,13,13,1.6,1.3
2023-02-01T04:00:00,1324A,113.51488,34.91089,郑州市,岗李水库,,,,,,,,,,,,,,,,
2023-02-01T04:00:00,1325A,114.3677,30.5584,武汉市,东湖梨园,细颗粒物(PM2.5),108,93,65,81,49,138,10,20,13,96,56,10,10,1.1,1
2023-02-01T04:00:00,1326A,114.2529,30.558,武汉市,汉阳月湖,细颗粒物(PM2.5),113,121,84,85,55,110,7,7,7,97,70,10,10,1.4,1.3
2023-02-01T04:00:00,1327A,114.282,30.6189,武汉市,汉口花桥,细颗粒物(PM2.5),119,126,82,90,62,121,9,6,6,89,71,11,12,1.1,1.5
2023-02-01T04:00:00,1328A,114.3025,30.5332,武汉市,武昌紫阳,细颗粒物(PM2.5),123,94,77,93,59,115,9,6,6,92,77,14,12,1.3,1.9
2023-02-01T04:00:00,1329A,114.3646,30.6217,武汉市,青山钢花,细颗粒物(PM2.5),119,132,88,90,61,133,6,8,7,94,72,14,16,1.2,1.2
2023-02-01T04:00:00,1330A,114.1566,30.4825,武汉市,沌口新区,细颗粒物(PM2.5),193,135,82,145,71,123,12,23,20,109,72,28,19,1.7,1.1
2023-02-01T04:00:00,1331A,114.3014,30.5944,武汉市,汉口江滩,细颗粒物(PM2.5),145,122,81,111,61,118,,,,58,63,11,13,0.8,1.2
2023-02-01T04:00:00,1333A,114.135,30.6319,武汉市,吴家山,细颗粒物(PM2.5),110,99,88,83,64,124,8,8,8,98,81,10,10,1.0,1.2
2023-02-01T04:00:00,1334A,113.8454,30.2917,武汉市,沉湖七壕,,,,60,,44,72,,58,,,20,,12,,0.9
2023-02-01T04:00:00,1335A,113.0833,28.2325,长沙市,经开区环保局,细颗粒物(PM2.5),88,80,60,65,46,123,24,13,13,48,27,23,10,0.8,0.7
2023-02-01T04:00:00,1336A,112.8872,28.2189,长沙市,高开区环保局,细颗粒物(PM2.5),72,72,59,52,41,133,6,12,7,81,36,8,10,1.0,0.7
2023-02-01T04:00:00,1337A,113.0792,28.2053,长沙市,马坡岭,"颗粒物(PM10),细颗粒物(PM2.5)",70,90,71,51,44,128,1,2,2,68,38,8,9,0.6,0.7
2023-02-01T04:00:00,1338A,112.9394,28.19,长沙市,湖南师范大学,细颗粒物(PM2.5),64,58,55,46,36,116,21,30,27,49,26,6,8,0.6,0.6
2023-02-01T04:00:00,1339A,113.0178,28.1322,长沙市,雨花区环保局,细颗粒物(PM2.5),59,65,52,42,37,121,23,56,30,54,27,4,6,0.5,0.6
2023-02-01T04:00:00,1340A,112.9792,28.2597,长沙市,伍家岭,细颗粒物(PM2.5),82,77,79,60,41,131,5,10,8,65,49,6,9,0.5,0.6
2023-02-01T04:00:00,1341A,113.0014,28.1944,长沙市,火车新站,细颗粒物(PM2.5),94,107,86,70,58,113,4,5,4,86,55,9,10,1.3,1.1
2023-02-01T04:00:00,1342A,112.9844,28.1178,长沙市,天心区环保局,细颗粒物(PM2.5),58,53,51,41,33,126,38,52,44,41,36,9,10,0.6,0.6
2023-02-01T04:00:00,1343A,112.8908,28.1308,长沙市,湖南中医药大学,,,104,72,66,47,125,0,1,0,55,48,5,7,1.3,1
2023-02-01T04:00:00,1344A,112.9581,28.3611,长沙市,沙坪,,39,38,45,27,33,134,79,92,87,20,19,6,8,0.4,0.5
2023-02-01T04:00:00,1345A,113.2347,23.1423,广州市,广雅中学,,37,37,54,22,32,161,47,52,48,33,40,5,5,0.5,0.6
2023-02-01T04:00:00,1346A,113.2612,23.105,广州市,市五中,,46,46,53,27,35,162,40,47,41,35,36,6,7,0.6,0.7
2023-02-01T04:00:00,1348A,113.3478,23.0916,广州市,广东商学院,,41,41,52,23,32,158,25,25,23,52,43,7,7,0.7,0.7
2023-02-01T04:00:00,1349A,113.4332,23.1047,广州市,市八十六中,颗粒物(PM10),58,66,65,26,34,144,23,7,7,57,54,6,6,0.7,0.8
2023-02-01T04:00:00,1350A,113.3505,22.9483,广州市,番禺中学,,46,46,55,28,33,156,26,43,35,54,42,5,6,0.7,0.7
2023-02-01T04:00:00,1351A,113.2146,23.3916,广州市,花都师范,颗粒物(PM10),59,68,64,37,38,155,18,42,22,61,45,6,7,0.8,0.8
2023-02-01T04:00:00,1352A,113.2597,23.1331,广州市,市监测站,,42,42,53,20,31,153,42,48,46,33,41,6,6,0.8,0.8
2023-02-01T04:00:00,1353A,113.5618,23.312,广州市,九龙镇镇龙,,35,35,48,18,30,152,34,65,48,22,28,4,5,0.8,0.8
2023-02-01T04:00:00,1354A,113.2765,23.1544,广州市,麓湖,,31,31,48,18,28,163,21,56,42,45,37,4,5,0.4,0.4
2023-02-01T04:00:00,1355A,113.443,23.3035,广州市,帽峰山森林公园,,34,34,44,16,24,141,49,54,51,14,24,5,7,0.6,0.7
2023-02-01T04:00:00,1356A,114.1063,22.5545,深圳市,通心岭子站,,37,37,34,17,18,102,52,82,67,12,13,3,3,0.7,0.6
2023-02-01T04:00:00,1357A,114.117,22.5625,深圳市,洪湖,,50,50,42,23,21,120,26,61,41,40,28,7,8,0.7,0.5
2023-02-01T04:00:00,1358A,113.987,22.5417,深圳市,华侨城,,43,43,35,18,20,112,76,80,79,15,18,4,4,0.5,0.5
2023-02-01T04:00:00,1359A,113.9181,22.5171,深圳市,南海子站,,46,46,38,23,18,107,49,75,66,19,13,4,5,0.7,0.6
2023-02-01T04:00:00,1360A,114.2458,22.5689,深圳市,盐田,,31,31,31,16,17,104,74,82,80,6,23,5,7,0.5,0.5
2023-02-01T04:00:00,1361A,114.2283,22.7244,深圳市,龙岗,,43,43,39,18,19,126,70,82,72,12,10,3,4,0.6,0.7
2023-02-01T04:00:00,1363A,114.494,22.5422,深圳市,南澳,,40,40,35,18,19,125,97,97,97,8,14,4,4,0.7,0.7
2023-02-01T04:00:00,1364A,114.41,22.6342,深圳市,葵涌,,34,34,34,15,19,108,60,88,72,8,12,6,7,0.6,0.6
2023-02-01T04:00:00,1365A,114.297,22.5978,深圳市,梅沙,,36,36,34,13,17,127,90,97,95,6,10,4,4,0.6,0.7
2023-02-01T04:00:00,1366A,114.0678,22.738,深圳市,观澜,,45,45,45,21,22,122,51,73,57,17,18,5,5,0.5,0.5
2023-02-01T04:00:00,1367A,113.5814,22.2618,珠海市,吉大,,43,43,43,25,22,137,64,76,69,21,17,8,8,0.4,0.4
2023-02-01T04:00:00,1368A,113.4881,22.2335,珠海市,前山,,41,41,41,16,17,112,60,79,69,24,25,4,4,0.4,0.5
2023-02-01T04:00:00,1369A,113.628,22.4251,珠海市,唐家,,39,39,38,26,22,123,51,49,46,20,20,6,8,0.3,0.4
2023-02-01T04:00:00,1370A,113.299,22.2281,珠海市,斗门,,48,48,38,27,20,118,77,96,86,15,15,3,3,0.3,0.3
2023-02-01T04:00:00,1371A,113.1294,23.0067,佛山市,湾梁,,40,39,49,28,32,155,34,43,37,41,40,7,7,0.6,0.6
2023-02-01T04:00:00,1372A,113.1083,23.0478,佛山市,华材职中,,36,36,44,18,30,152,33,49,41,34,31,6,9,0.4,0.5
2023-02-01T04:00:00,1373A,113.144,23.0453,佛山市,南海气象局,,34,34,46,23,32,136,29,37,33,34,38,6,6,0.4,0.5
2023-02-01T04:00:00,1374A,113.2881,22.8094,佛山市,顺德苏岗,,27,24,34,17,21,133,11,48,28,53,35,7,8,0.7,0.7
2023-02-01T04:00:00,1376A,112.8383,22.8678,佛山市,高明孔堂,,38,29,51,26,32,168,51,80,68,19,24,3,4,0.4,0.5
2023-02-01T04:00:00,1377A,112.8836,23.1588,佛山市,三水监测站,,38,34,57,26,43,139,13,55,44,70,50,5,4,0.5,0.6
2023-02-01T04:00:00,1378A,112.867,23.185,佛山市,三水云东海,,25,25,48,15,34,152,28,50,40,24,37,4,5,0.5,0.6
2023-02-01T04:00:00,1379A,113.3769,22.5211,中山市,华柏园,,38,38,42,25,26,130,40,41,40,29,28,6,6,0.3,0.3
2023-02-01T04:00:00,1380A,113.3881,22.5497,中山市,张溪,,46,39,45,32,25,130,24,57,42,49,24,4,4,0.5,0.4
2023-02-01T04:00:00,1381A,113.4075,22.5111,中山市,紫马岭,,27,27,37,18,18,123,26,61,42,22,16,3,4,0.3,0.3
2023-02-01T04:00:00,1382A,113.4411,22.4853,中山市,长江旅游区,,,,,,,,,,,,,,,,
2023-02-01T04:00:00,1383A,113.1064,22.6058,江门市,北街,,37,37,42,21,25,154,71,76,74,16,23,7,8,0.5,0.5
2023-02-01T04:00:00,1384A,113.0731,22.5835,江门市,西区,,45,45,48,22,33,151,84,84,83,16,25,7,8,0.3,0.4
2023-02-01T04:00:00,1385A,113.0219,22.5311,江门市,圭峰西,,44,44,39,18,23,139,84,85,84,11,19,3,4,0.5,0.6
2023-02-01T04:00:00,1386A,113.0828,22.5947,江门市,东湖,,43,38,45,30,37,153,68,80,75,15,21,7,7,0.4,0.4
2023-02-01T04:00:00,1389A,113.7547,23.0494,东莞市,莞城梨川,,39,39,42,20,25,163,50,67,59,24,20,8,9,0.6,0.6
2023-02-01T04:00:00,1390A,113.7944,23.0128,东莞市,东城石井,,37,37,39,17,22,167,34,47,42,17,18,5,6,0.4,0.4
2023-02-01T04:00:00,1391A,113.7383,22.9658,东莞市,南城西平,,38,38,44,16,23,150,53,69,58,27,25,7,9,0.5,0.5
2023-02-01T04:00:00,1392A,114.4183,23.0528,惠州市,河南岸金山湖子站,,,34,42,18,22,104,,,,12,11,4,4,0.6,0.6
2023-02-01T04:00:00,1393A,114.4053,23.0822,惠州市,下埔横江三路子站,,40,40,42,21,22,113,41,77,55,23,17,4,4,0.8,0.7
2023-02-01T04:00:00,1394A,114.4103,23.1142,惠州市,江北云山西路子站,,43,43,41,20,24,123,69,92,83,11,9,4,4,0.6,0.6
2023-02-01T04:00:00,1395A,114.4645,22.7833,惠州市,惠阳区承修路船湖子站,,41,41,48,26,27,119,44,82,61,23,19,4,5,0.7,0.7
2023-02-01T04:00:00,1396A,114.5317,22.7422,惠州市,大亚湾管委会子站,,38,38,54,25,24,113,30,74,51,38,33,4,5,0.7,0.7
2023-02-01T04:00:00,1397A,112.4267,23.0706,肇庆市,睦岗子站,,32,32,58,18,36,161,80,80,80,20,40,9,9,0.3,0.5
2023-02-01T04:00:00,1398A,112.4645,23.0475,肇庆市,城中子站,,41,41,59,21,34,163,69,90,84,22,33,10,10,0.5,0.6
2023-02-01T04:00:00,1399A,112.5544,23.1522,肇庆市,坑口子站,,35,34,50,24,34,149,24,73,41,43,36,8,10,0.2,0.2
2023-02-01T04:00:00,1400A,112.4753,23.1,肇庆市,七星岩子站,,28,27,51,13,30,157,87,92,91,5,20,6,6,0.6,0.6
2023-02-01T04:00:00,1401A,108.3103,22.7881,南宁市,二十一中,颗粒物(PM10),54,58,66,32,42,136,88,80,80,10,19,6,8,0.8,0.9
2023-02-01T04:00:00,1402A,108.3141,22.8528,南宁市,北湖,细颗粒物(PM2.5),52,43,68,36,48,136,88,85,85,9,22,6,9,0.7,0.8
2023-02-01T04:00:00,1403A,108.3206,22.8225,南宁市,市监测站,颗粒物(PM10),60,69,69,32,46,135,89,87,87,12,26,7,10,0.8,1
2023-02-01T04:00:00,1404A,108.3829,22.8037,南宁市,大自然花园,颗粒物(PM10),52,53,64,35,47,125,78,88,83,11,21,5,6,0.8,0.9
2023-02-01T04:00:00,1405A,108.4394,22.7904,南宁市,仙葫,颗粒物(PM10),55,60,66,37,52,119,80,78,78,9,23,7,9,0.7,0.8
2023-02-01T04:00:00,1406A,108.2397,22.8467,南宁市,区农职院,颗粒物(PM10),56,62,70,27,40,142,87,83,82,13,25,7,12,0.5,0.8
2023-02-01T04:00:00,1407A,108.3275,22.735,南宁市,英华嘉园,细颗粒物(PM2.5),67,55,73,48,52,118,73,68,68,18,30,6,8,0.8,0.9
2023-02-01T04:00:00,1408A,108.2257,22.7757,南宁市,沙井镇街道办,颗粒物(PM10),51,52,70,31,44,136,60,79,74,44,29,6,8,0.9,1
2023-02-01T04:00:00,1409A,110.576,19.9507,海口市,东寨港,,,11,29,8,17,65,17,22,19,,,5,5,0.5,0.6
2023-02-01T04:00:00,1410A,110.3232,20.0574,海口市,海南大学,,35,35,46,19,24,119,54,69,63,8,8,4,4,0.6,0.6
2023-02-01T04:00:00,1411A,110.283,20.0053,海口市,秀英海南医院,,26,26,46,9,18,112,48,58,52,11,18,5,6,0.6,0.7
2023-02-01T04:00:00,1412A,110.338,19.9969,海口市,海南师范大学,,35,35,48,16,19,119,40,50,45,12,11,2,3,0.7,0.7
2023-02-01T04:00:00,1413A,110.33,20.0356,海口市,龙华路环保局宿舍,,32,32,45,18,23,117,44,59,52,9,10,4,4,0.6,0.6
2023-02-01T04:00:00,1414A,106.3787,29.8279,重庆市,缙云山,细颗粒物(PM2.5),79,96,92,58,58,142,134,128,124,28,29,9,8,0.6,0.6
2023-02-01T04:00:00,1416A,106.4213,29.8253,重庆市,天生,细颗粒物(PM2.5),122,119,119,92,84,137,4,36,25,57,42,5,8,1.0,0.9
2023-02-01T04:00:00,1417A,106.6263,29.7228,重庆市,两路,细颗粒物(PM2.5),110,140,121,83,82,118,13,72,55,101,62,13,12,1.2,1.2
2023-02-01T04:00:00,1418A,106.2953,29.5983,重庆市,虎溪,细颗粒物(PM2.5),122,91,104,92,92,120,4,4,4,72,56,5,7,0.6,0.7
2023-02-01T04:00:00,1419A,106.5777,29.5102,重庆市,南坪,细颗粒物(PM2.5),142,133,115,108,86,96,48,20,20,50,55,14,12,1.4,1.3
2023-02-01T04:00:00,1420A,106.6556,29.6277,重庆市,唐家沱,,,124,126,95,92,78,7,8,7,80,87,6,7,0.6,0.7
2023-02-01T04:00:00,1421A,106.6349,29.4906,重庆市,茶园,细颗粒物(PM2.5),114,132,118,86,83,106,8,7,7,76,62,5,7,0.7,0.9
2023-02-01T04:00:00,1422A,106.3754,29.4572,重庆市,白市驿,细颗粒物(PM2.5),145,126,128,111,88,130,63,101,86,32,33,15,12,0.9,0.8
2023-02-01T04:00:00,1425A,106.6205,29.7166,重庆市,空港,细颗粒物(PM2.5),143,133,117,109,90,114,8,33,26,76,59,8,10,1.3,1.1
2023-02-01T04:00:00,1426A,106.4782,29.4875,重庆市,新山村,细颗粒物(PM2.5),130,148,143,99,97,103,5,5,5,103,89,10,15,1.5,1.2
2023-02-01T04:00:00,1427A,106.5616,29.6453,重庆市,礼嘉,颗粒物(PM10),110,170,153,81,82,76,4,10,7,123,102,6,10,1.2,1.1
2023-02-01T04:00:00,1428A,106.4522,29.7091,重庆市,蔡家,细颗粒物(PM2.5),118,123,120,89,80,113,16,24,21,43,53,5,7,0.8,1
2023-02-01T04:00:00,1429A,106.5093,29.3917,重庆市,鱼新街,细颗粒物(PM2.5),120,125,126,91,90,120,9,7,7,58,69,8,14,1.4,1.6
2023-02-01T04:00:00,1431A,103.9728,30.7236,成都市,金泉两河,细颗粒物(PM2.5),150,120,127,115,100,132,0,0,0,70,66,3,4,1.3,1.3
2023-02-01T04:00:00,1432A,104.176,30.6872,成都市,十里店,细颗粒物(PM2.5),169,164,147,128,113,120,0,0,0,108,81,2,3,1.5,1.2
2023-02-01T04:00:00,1433A,104.079,30.5706,成都市,三瓦窑,细颗粒物(PM2.5),189,177,161,142,117,109,0,0,0,92,86,5,5,1.5,1.3
2023-02-01T04:00:00,1434A,104.1114,30.63,成都市,沙河铺,细颗粒物(PM2.5),193,166,164,145,124,114,1,2,2,71,70,4,4,2.2,1.5
2023-02-01T04:00:00,1437A,104.0786,30.6531,成都市,君平街,细颗粒物(PM2.5),183,167,165,138,135,117,2,2,2,104,88,5,4,1.7,1.3
2023-02-01T04:00:00,1438A,103.613,31.0283,成都市,灵岩寺,细颗粒物(PM2.5),77,90,95,56,57,156,107,125,116,14,15,23,14,0.8,0.8
2023-02-01T04:00:00,1439A,106.6899,26.5998,贵阳市,马鞍山,细颗粒物(PM2.5),113,97,89,85,74,138,45,54,50,,22,6,11,,0.8
2023-02-01T04:00:00,1440A,106.6971,26.5694,贵阳市,市环保站,细颗粒物(PM2.5),166,134,106,126,90,133,7,6,6,77,48,24,21,1.5,0.9
2023-02-01T04:00:00,1441A,106.6243,26.6266,贵阳市,鉴湖路,细颗粒物(PM2.5),110,114,100,83,70,137,113,115,107,26,21,14,14,0.8,0.8
2023-02-01T04:00:00,1442A,106.7487,26.6343,贵阳市,燕子冲,细颗粒物(PM2.5),110,95,98,83,82,137,65,67,66,19,24,8,11,0.8,0.8
2023-02-01T04:00:00,1443A,106.6555,26.4365,贵阳市,碧云窝,细颗粒物(PM2.5),132,110,112,100,83,142,66,106,92,18,18,13,17,1.0,0.9
2023-02-01T04:00:00,1444A,106.694,26.5161,贵阳市,中院村,细颗粒物(PM2.5),134,149,116,102,81,123,5,5,5,74,45,52,31,1.3,1
2023-02-01T04:00:00,1445A,106.7109,26.6027,贵阳市,红边门,细颗粒物(PM2.5),122,114,107,92,90,130,70,82,79,40,43,34,26,1.0,1
2023-02-01T04:00:00,1446A,106.7164,26.5699,贵阳市,新华路,细颗粒物(PM2.5),113,124,109,85,78,134,65,36,36,39,42,22,22,0.8,0.8
2023-02-01T04:00:00,1447A,106.674,26.5424,贵阳市,太慈桥,细颗粒物(PM2.5),113,114,110,85,75,143,55,53,53,25,24,6,11,0.9,0.7
2023-02-01T04:00:00,1450A,102.8204,24.8886,昆明市,呈贡新区,细颗粒物(PM2.5),60,39,50,43,44,118,73,70,70,11,16,6,7,0.7,0.7
2023-02-01T04:00:00,1451A,102.6251,24.9608,昆明市,西山森林公园,,50,39,47,35,34,122,88,92,90,13,13,12,11,0.7,0.8
2023-02-01T04:00:00,1452A,102.7252,25.0902,昆明市,龙泉镇,细颗粒物(PM2.5),94,100,72,70,62,113,3,4,4,49,38,6,7,1.3,1.2
2023-02-01T04:00:00,1453A,102.7266,25.0375,昆明市,东风东路,细颗粒物(PM2.5),98,95,74,73,62,107,0,13,4,61,42,10,11,1.3,1.2
2023-02-01T04:00:00,1454A,102.6742,25.0669,昆明市,金鼎山,细颗粒物(PM2.5),62,40,54,44,45,112,67,62,62,12,22,12,11,0.6,0.7
2023-02-01T04:00:00,1455A,102.6644,25.0401,昆明市,碧鸡广场,细颗粒物(PM2.5),57,52,50,40,39,92,61,61,59,18,26,7,6,0.5,0.7
2023-02-01T04:00:00,1456A,91.1319,29.6514,拉萨市,八廓街,,27,14,25,3,7,98,86,96,91,7,9,6,6,0.2,0.3
2023-02-01T04:00:00,1457A,91.1221,29.6747,拉萨市,市环保局,,27,9,29,5,11,95,84,91,89,10,16,4,5,0.5,0.7
2023-02-01T04:00:00,1458A,91.0874,29.6475,拉萨市,区监测站,,30,11,24,5,10,103,93,103,98,8,12,6,6,0.2,0.4
2023-02-01T04:00:00,1459A,91.1774,29.6541,拉萨市,西藏大学,,26,7,19,3,6,100,81,96,88,11,9,5,5,0.2,0.2
2023-02-01T04:00:00,1460A,90.9798,29.6588,拉萨市,区辐射站,,32,10,24,7,8,109,100,109,106,6,13,6,6,0.3,0.4
2023-02-01T04:00:00,1461A,91.0834,29.6292,拉萨市,拉萨火车站,,29,12,24,5,8,103,92,103,98,10,14,8,9,0.3,0.4
2023-02-01T04:00:00,1462A,108.882,34.2749,西安市,高压开关厂,细颗粒物(PM2.5),208,188,164,158,131,128,7,7,7,104,81,20,17,1.5,1.2
2023-02-01T04:00:00,1463A,108.993,34.2629,西安市,兴庆小区,细颗粒物(PM2.5),176,164,133,133,115,114,12,9,9,75,69,11,13,1.2,1.2
2023-02-01T04:00:00,1464A,109.06,34.2572,西安市,纺织城,细颗粒物(PM2.5),179,175,160,135,120,114,3,4,4,77,75,13,15,1.3,1.2
2023-02-01T04:00:00,1465A,108.9356,34.2173,西安市,小寨,细颗粒物(PM2.5),176,194,171,133,120,114,2,4,3,98,82,12,14,2.1,1.5
2023-02-01T04:00:00,1466A,108.954,34.2713,西安市,市人民体育场,细颗粒物(PM2.5),193,205,157,145,129,121,8,9,8,102,93,10,13,1.8,1.5
2023-02-01T04:00:00,1467A,108.8922,34.2322,西安市,高新西区,细颗粒物(PM2.5),213,202,159,163,132,118,13,12,12,99,78,13,14,1.3,1.3
2023-02-01T04:00:00,1468A,108.935,34.3474,西安市,经开区,细颗粒物(PM2.5),217,210,166,167,151,124,6,8,7,98,77,13,14,1.4,1.4
2023-02-01T04:00:00,1469A,108.906,34.1546,西安市,长安区,细颗粒物(PM2.5),165,148,162,125,118,113,6,9,6,72,66,12,13,1.4,1.3
2023-02-01T04:00:00,1471A,109.2186,34.3731,西安市,临潼区,细颗粒物(PM2.5),140,111,140,107,110,96,40,34,34,61,68,14,16,1.4,1.5
2023-02-01T04:00:00,1472A,108.869,34.378,西安市,草滩,细颗粒物(PM2.5),147,234,179,112,94,97,27,27,27,107,66,4,12,0.9,0.5
2023-02-01T04:00:00,1473A,108.985,34.1978,西安市,曲江文化产业集团,细颗粒物(PM2.5),150,174,169,115,118,120,6,6,6,102,81,8,12,1.2,1.2
2023-02-01T04:00:00,1474A,109.051,34.3213,西安市,广运潭,细颗粒物(PM2.5),139,128,140,106,108,107,8,4,4,68,70,8,12,1.3,1.4
2023-02-01T04:00:00,1476A,103.631,36.1031,兰州市,兰炼宾馆,,50,50,106,25,54,148,32,45,38,42,44,11,49,0.7,1.2
2023-02-01T04:00:00,1477A,104.1373,35.9454,兰州市,榆中兰大校区,,,,,,,,,,,,,,,,
2023-02-01T04:00:00,1478A,103.8412,36.0726,兰州市,生物制品所,,38,38,109,22,51,89,14,52,24,62,64,5,25,0.5,1.3
2023-02-01T04:00:00,1479A,103.831,36.0464,兰州市,铁路设计院,颗粒物(PM10),52,54,113,33,68,70,19,69,35,65,72,12,33,0.8,1.5
2023-02-01T04:00:00,1483A,101.524,36.6867,西宁市,第五水厂,,,,,,,,,,,,,,,,
2023-02-01T04:00:00,1484A,105.9512,38.6016,银川市,贺兰山马莲口,,35,35,41,8,24,88,72,74,72,11,22,11,31,0.2,0.6
2023-02-01T04:00:00,1488A,106.2328,38.4975,银川市,贺兰山东路,,40,40,93,7,50,91,69,71,70,17,44,2,22,0.8,1.3
2023-02-01T04:00:00,1489A,106.1358,38.5036,银川市,学院路,,44,44,83,13,40,84,53,62,58,27,42,4,23,0.6,1.2
2023-02-01T04:00:00,1490A,87.5801,43.8303,乌鲁木齐市,监测站,细颗粒物(PM2.5),300,352,297,250,209,25,3,4,4,125,120,4,4,2.9,2.6
2023-02-01T04:00:00,1491A,87.6046,43.768,乌鲁木齐市,收费所,细颗粒物(PM2.5),301,393,346,251,214,46,3,3,3,128,119,5,6,2.6,2.3
2023-02-01T04:00:00,1492A,87.4754,43.9469,乌鲁木齐市,新疆农科院农场,细颗粒物(PM2.5),345,273,259,295,280,114,68,75,72,40,57,8,7,3.5,3
2023-02-01T04:00:00,1493A,87.5525,43.8711,乌鲁木齐市,铁路局,细颗粒物(PM2.5),341,319,288,291,258,70,7,7,7,133,110,2,3,2.7,2.6
2023-02-01T04:00:00,1494A,87.6432,43.831,乌鲁木齐市,三十一中学,细颗粒物(PM2.5),320,341,290,270,215,54,11,6,6,100,103,5,7,2.6,2.3
2023-02-01T04:00:00,1496A,87.7216,44.1747,乌鲁木齐市,米东区环保局,细颗粒物(PM2.5),208,190,264,158,220,132,100,123,117,43,39,13,12,1.7,2.1
2023-02-01T04:00:00,1508A,112.9433,27.8614,湘潭市,板塘,细颗粒物(PM2.5),65,66,65,47,40,104,36,32,32,34,26,15,12,0.7,0.8
2023-02-01T04:00:00,1511A,112.9118,27.8403,湘潭市,市监测站,细颗粒物(PM2.5),107,92,64,80,41,113,7,42,26,58,35,10,11,1.0,0.9
2023-02-01T04:00:00,1512A,112.8937,27.8728,湘潭市,江麓,颗粒物(PM10),64,77,65,45,34,121,13,15,10,70,43,10,14,0.9,1
2023-02-01T04:00:00,1513A,112.9227,27.8159,湘潭市,岳塘,细颗粒物(PM2.5),62,62,71,44,44,110,38,42,38,37,40,10,12,0.9,1
2023-02-01T04:00:00,1514A,112.9074,27.9119,湘潭市,科大,"颗粒物(PM10),细颗粒物(PM2.5)",54,57,60,38,36,129,53,25,25,33,34,20,21,1.1,1.3
2023-02-01T04:00:00,1515A,113.135,27.8244,株洲市,天台山庄,"颗粒物(PM10),细颗粒物(PM2.5)",57,64,70,40,50,123,32,18,18,46,46,9,9,1.0,1.3
2023-02-01T04:00:00,1518A,113.095,27.8867,株洲市,株冶医院,细颗粒物(PM2.5),67,63,58,48,41,119,27,26,26,54,37,8,7,0.7,0.7
2023-02-01T04:00:00,1519A,113.167,27.8667,株洲市,市四中,细颗粒物(PM2.5),53,48,60,37,44,114,50,27,27,23,35,9,8,0.8,0.9
2023-02-01T04:00:00,1520A,113.143,27.8381,株洲市,火车站,细颗粒物(PM2.5),60,58,70,43,50,116,36,26,26,34,34,9,9,0.9,1
2023-02-01T04:00:00,1524A,113.13,27.8528,株洲市,市监测站,细颗粒物(PM2.5),72,56,72,52,55,125,28,15,15,47,41,10,10,1.2,1.2
2023-02-01T04:00:00,1552A,106.805,26.3003,贵阳市,桐木岭,,,,,,,,,,,,,,,,
2023-02-01T04:00:00,1559A,113.251,27.8336,株洲市,大京风景区,,29,22,42,20,30,111,26,30,28,5,6,4,6,0.6,0.6
2023-02-01T04:00:00,1562A,113.0048,27.9153,湘潭市,昭山,颗粒物(PM10),56,62,61,37,37,116,54,49,49,33,32,5,6,1.1,0.9
2023-02-01T04:00:00,1564A,112.4876,27.9164,湘潭市,韶山,,45,45,72,29,35,127,49,55,52,17,25,7,8,0.7,0.7
2023-02-01T04:00:00,1585A,109.8756,40.6532,包头市,市环境监测站,,25,25,48,5,11,86,66,72,69,4,11,10,10,0.4,0.4
2023-02-01T04:00:00,1587A,109.9991,40.5842,包头市,包头八中,,32,32,69,9,12,86,59,66,63,15,27,8,13,0.4,0.6
2023-02-01T04:00:00,1588A,109.8538,40.6821,包头市,青山宾馆,,30,30,46,5,11,90,67,74,70,6,11,5,6,0.4,0.4
2023-02-01T04:00:00,1589A,109.8642,40.6288,包头市,惠龙物流,,36,36,59,8,17,89,66,74,70,8,18,6,8,0.5,0.6
2023-02-01T04:00:00,1590A,110.0377,40.5546,包头市,东河鸿龙湾,,30,30,65,2,13,84,68,72,70,8,22,12,12,0.4,0.6
2023-02-01T04:00:00,1591A,110.0023,39.8129,鄂尔多斯市,综合楼,颗粒物(PM10),79,107,79,5,9,84,59,68,61,15,17,8,10,0.5,0.6
2023-02-01T04:00:00,1592A,109.9486,39.8261,鄂尔多斯市,巴音孟克林场办事处,颗粒物(PM10),58,66,74,7,12,85,58,67,62,13,13,9,9,0.5,0.6
2023-02-01T04:00:00,1593A,109.7736,39.5986,鄂尔多斯市,康泽苑,颗粒物(PM10),53,56,60,5,8,87,62,70,66,11,16,10,7,0.6,0.7
2023-02-01T04:00:00,1594A,109.8119,39.5989,鄂尔多斯市,华泰汽车城,颗粒物(PM10),51,51,60,17,17,89,62,70,68,11,19,11,11,0.6,0.7
2023-02-01T04:00:00,1595A,109.9734,39.7884,鄂尔多斯市,奥林花园,颗粒物(PM10),59,68,78,5,12,85,65,70,68,9,14,8,10,0.5,0.6
2023-02-01T04:00:00,1596A,122.2414,40.6592,营口市,学府南路,,,,,,,,,,,,,,,,
2023-02-01T04:00:00,1597A,122.2703,40.7094,营口市,大庆路,,45,45,137,8,95,94,54,32,32,11,43,8,19,0.4,1.4
2023-02-01T04:00:00,1598A,122.2150,40.6511,营口市,镜湖西路,颗粒物(PM10),59,68,125,8,72,85,62,44,44,13,41,10,16,0.6,1
2023-02-01T04:00:00,1599A,122.1658,40.6789,营口市,西炮台,,39,39,105,9,71,87,68,41,41,14,38,6,16,0.3,0.7
2023-02-01T04:00:00,1600A,124.3303,40.0625,丹东市,江湾东路,细颗粒物(PM2.5),98,103,127,73,78,74,10,7,7,38,43,14,25,2.0,2
2023-02-01T04:00:00,1601A,124.4256,40.1503,丹东市,临江后街,细颗粒物(PM2.5),73,82,109,53,64,82,24,12,12,28,38,17,23,1.5,1.7
2023-02-01T04:00:00,1602A,124.3933,40.1461,丹东市,元宝山,颗粒物(PM10),59,68,101,41,58,68,43,28,28,19,39,18,21,0.8,1.2
2023-02-01T04:00:00,1603A,124.3633,40.1092,丹东市,民主桥,颗粒物(PM10),59,68,115,41,63,70,41,15,15,20,47,14,16,1.1,1.6
2023-02-01T04:00:00,1604A,122.0303,41.1489,盘锦市,开发区,颗粒物(PM10),67,84,76,6,35,77,58,50,50,12,30,11,13,0.5,0.9
2023-02-01T04:00:00,1605A,122.0485,41.0883,盘锦市,兴隆台,颗粒物(PM10),64,78,73,9,34,74,62,56,56,6,32,8,14,0.4,0.9
2023-02-01T04:00:00,1606A,121.8297,41.1028,盘锦市,新生街道,颗粒物(PM10),56,61,81,8,45,79,56,38,38,17,43,8,15,0.5,0.9
2023-02-01T04:00:00,1607A,120.9092,40.7136,葫芦岛市,龙港区,颗粒物(PM10),72,94,134,13,76,83,70,56,56,2,40,5,74,0.5,1.3
2023-02-01T04:00:00,1608A,120.8392,40.7514,葫芦岛市,化工街,颗粒物(PM10),84,117,155,7,73,67,64,50,50,5,50,6,84,0.2,1.1
2023-02-01T04:00:00,1609A,120.8341,40.7073,葫芦岛市,新区,颗粒物(PM10),62,74,120,9,68,75,66,59,59,12,48,10,40,0.4,1.3
2023-02-01T04:00:00,1610A,120.8695,40.7677,葫芦岛市,东城区,颗粒物(PM10),63,75,134,3,69,72,68,60,60,2,43,7,78,0.4,1.4
2023-02-01T04:00:00,1611A,118.5819,24.9117,泉州市,涂山街,,43,40,45,30,28,134,71,98,81,15,15,8,8,0.6,0.6
2023-02-01T04:00:00,1612A,118.5972,24.8978,泉州市,津头埔,,42,37,48,29,31,131,65,98,79,23,21,8,9,0.6,0.6
2023-02-01T04:00:00,1613A,118.6663,24.9424,泉州市,万安,细颗粒物(PM2.5),52,49,56,36,32,130,32,47,42,34,23,7,8,0.5,0.6
2023-02-01T04:00:00,1614A,118.6117,24.9604,泉州市,清源山,,,,,,,,,,,,,,,,
2023-02-01T04:00:00,1616A,117.6795,36.229,济南市,技术学院,颗粒物(PM10),272,400,161,36,97,133,57,30,30,36,71,9,24,0.5,1.6
2023-02-01T04:00:00,1618A,118.3429,35.0532,临沂市,沂河小区,细颗粒物(PM2.5),195,171,182,146,139,112,54,24,24,43,70,26,33,1.3,1.6
2023-02-01T04:00:00,1619A,118.295,35.0583,临沂市,鲁南制药厂,细颗粒物(PM2.5),182,185,208,137,139,120,25,11,11,94,106,34,62,1.2,1.8
2023-02-01T04:00:00,1620A,118.2794,34.9976,临沂市,新光毛纺厂,细颗粒物(PM2.5),242,249,191,192,140,119,6,8,7,126,87,39,43,2.5,1.6
2023-02-01T04:00:00,1621A,118.3956,35.0888,临沂市,河东保险公司,细颗粒物(PM2.5),218,193,206,168,152,128,15,14,14,91,88,31,32,1.7,1.7
2023-02-01T04:00:00,1622A,116.3032,37.4674,德州市,儿童乐园,颗粒物(PM10),233,373,204,19,94,114,70,68,68,9,47,2,16,0.2,0.8
2023-02-01T04:00:00,1624A,116.2991,37.4451,德州市,监理站,颗粒物(PM10),246,382,214,19,102,113,72,69,69,12,51,4,20,0.3,1
2023-02-01T04:00:00,1625A,115.9848,36.4372,聊城市,区政府,颗粒物(PM10),230,371,189,22,100,134,65,59,59,11,52,6,20,0.2,0.9
2023-02-01T04:00:00,1628A,118.0062,37.3803,滨州市,市环保局,颗粒物(PM10),235,374,209,33,102,123,64,55,55,12,62,6,21,0.5,1.2
2023-02-01T04:00:00,1629A,118.0018,37.3617,滨州市,第二水厂,颗粒物(PM10),289,412,205,22,91,123,65,56,56,13,63,6,21,0.4,1.1
2023-02-01T04:00:00,1630A,117.9776,37.393,滨州市,北中新校,颗粒物(PM10),189,328,194,27,90,123,67,56,56,13,70,7,22,0.2,1
2023-02-01T04:00:00,1631A,118.0414,36.8103,淄博市,人民公园,颗粒物(PM10),265,395,185,36,103,134,68,36,36,16,72,1,27,0.3,1.1
2023-02-01T04:00:00,1633A,117.8525,36.4847,淄博市,双山,颗粒物(PM10),180,309,148,40,89,128,46,40,33,36,45,12,28,0.7,1.3
2023-02-01T04:00:00,1634A,117.9592,36.6331,淄博市,气象站,颗粒物(PM10),197,343,170,22,93,126,54,20,20,4,51,5,35,0,2.3
2023-02-01T04:00:00,1635A,118.3092,36.8194,淄博市,莆田园,颗粒物(PM10),180,310,171,,96,136,56,37,37,20,45,4,22,0.2,1.1
2023-02-01T04:00:00,1637A,117.558,34.8438,枣庄市,市中区政府,细颗粒物(PM2.5),228,239,205,178,134,148,4,6,5,88,75,20,28,2.6,1.5
2023-02-01T04:00:00,1638A,117.2852,34.7837,枣庄市,薛城环保局,细颗粒物(PM2.5),199,203,154,149,109,137,32,28,28,86,70,52,22,1.6,1.3
2023-02-01T04:00:00,1639A,117.5852,34.7745,枣庄市,峄城区政府,细颗粒物(PM2.5),175,205,202,132,125,149,26,22,22,76,72,35,25,1.1,1.2
2023-02-01T04:00:00,1640A,117.7276,34.5578,枣庄市,台儿庄区环保局,细颗粒物(PM2.5),208,224,222,158,134,127,17,12,12,83,76,15,17,1.5,1.8
2023-02-01T04:00:00,1641A,117.4518,35.0992,枣庄市,山亭区环保局,细颗粒物(PM2.5),144,149,140,110,102,166,81,71,71,28,43,20,26,1.0,1.1
2023-02-01T04:00:00,1642A,121.2514,37.5639,烟台市,开发区,细颗粒物(PM2.5),77,85,137,56,93,109,46,41,41,35,54,14,18,1.3,1.4
2023-02-01T04:00:00,1643A,121.3719,37.5433,烟台市,轴承厂,细颗粒物(PM2.5),79,102,126,58,89,116,54,73,65,30,32,9,15,0.8,1
2023-02-01T04:00:00,1644A,121.3181,37.5436,烟台市,西郊化工站,细颗粒物(PM2.5),85,102,135,63,73,125,55,75,64,34,38,21,16,1.1,1.2
2023-02-01T04:00:00,1645A,121.4478,37.4822,烟台市,莱山环保局,颗粒物(PM10),76,102,125,39,78,114,67,74,71,25,42,12,18,1.0,1.3
2023-02-01T04:00:00,1646A,121.2611,37.4967,烟台市,福山环保局,,,107,144,,95,104,55,40,40,27,52,11,14,0.7,1.1
2023-02-01T04:00:00,1650A,119.1437,36.7023,潍坊市,环保局,颗粒物(PM10),192,334,175,23,107,121,56,26,26,17,68,16,21,0.8,1.6
2023-02-01T04:00:00,1653A,116.6251,35.4302,济宁市,火炬城,细颗粒物(PM2.5),160,170,135,122,107,148,61,60,59,63,60,22,15,1.3,1.3
2023-02-01T04:00:00,1655A,116.5491,35.4042,济宁市,电化厂,细颗粒物(PM2.5),163,175,144,124,106,141,66,62,62,48,46,28,18,1.2,1
2023-02-01T04:00:00,1656A,117.1437,36.1937,泰安市,监测站,颗粒物(PM10),180,310,155,77,108,131,83,48,48,22,62,17,20,0.8,1.4
2023-02-01T04:00:00,1657A,117.0885,36.2017,泰安市,人口学校,细颗粒物(PM2.5),100,105,122,75,82,133,34,50,44,63,62,16,18,1.1,1.2
2023-02-01T04:00:00,1658A,117.1089,36.1758,泰安市,电力学校,颗粒物(PM10),164,278,167,104,121,131,20,8,8,70,84,20,35,1.3,1.9
2023-02-01T04:00:00,1659A,119.471,35.4209,日照市,监测站,细颗粒物(PM2.5),133,139,177,101,104,77,1,2,1,83,83,13,20,2.4,1.9
2023-02-01T04:00:00,1660A,119.523,35.4216,日照市,市政府广场,细颗粒物(PM2.5),133,136,152,101,99,66,41,16,16,56,70,14,13,1.6,1.7
2023-02-01T04:00:00,1661A,119.5587,35.4044,日照市,港务局,细颗粒物(PM2.5),125,141,160,95,100,78,78,24,24,42,77,16,12,1.2,1.4
2023-02-01T04:00:00,1662A,122.1214,37.4236,威海市,华夏技校,细颗粒物(PM2.5),89,122,107,66,69,145,74,92,87,31,30,7,9,0.8,0.8
2023-02-01T04:00:00,1663A,122.0508,37.5236,威海市,山大分校,细颗粒物(PM2.5),92,122,119,68,73,136,65,93,84,34,31,4,10,0.9,0.9
2023-02-01T04:00:00,1664A,122.1067,37.5072,威海市,市监测站,细颗粒物(PM2.5),102,122,122,76,72,129,64,78,74,34,42,7,11,0.9,0.9
2023-02-01T04:00:00,1666A,118.6614,37.4309,东营市,市环保局,颗粒物(PM10),176,302,171,29,86,146,76,71,71,4,46,6,23,0.4,1
2023-02-01T04:00:00,1669A,113.5824,24.7733,韶关市,市八中,细颗粒物(PM2.5),69,83,67,50,45,108,12,11,11,45,46,10,10,0.9,0.9
2023-02-01T04:00:00,1671A,113.5917,24.7972,韶关市,园林处,细颗粒物(PM2.5),83,78,62,61,47,107,15,12,12,30,36,10,10,0.8,0.8
2023-02-01T04:00:00,1672A,113.6735,24.7791,韶关市,韶关学院,细颗粒物(PM2.5),67,57,49,48,38,103,11,21,12,46,31,15,17,0.8,0.7
2023-02-01T04:00:00,1673A,113.5971,24.6863,韶关市,曲江监测站,细颗粒物(PM2.5),63,63,55,45,38,110,6,50,24,47,30,11,14,0.8,0.9
2023-02-01T04:00:00,1674A,116.6794,23.3667,汕头市,金平子站,细颗粒物(PM2.5),60,64,54,43,36,133,63,72,60,26,24,14,13,0.8,0.8
2023-02-01T04:00:00,1675A,116.7244,23.3633,汕头市,龙湖子站,,48,46,45,33,28,133,74,97,79,23,23,13,12,0.7,0.7
2023-02-01T04:00:00,1676A,116.7258,23.2775,汕头市,濠江子站,细颗粒物(PM2.5),54,51,46,38,31,121,70,82,73,20,19,13,10,0.6,0.7
2023-02-01T04:00:00,1677A,116.7519,23.4714,汕头市,澄海子站,细颗粒物(PM2.5),62,40,52,44,37,124,70,84,79,28,22,10,6,0.6,0.6
2023-02-01T04:00:00,1678A,116.6092,23.2539,汕头市,潮阳子站,颗粒物(PM10),55,60,63,37,39,134,59,49,49,22,20,7,9,0.7,0.8
2023-02-01T04:00:00,1680A,110.3539,21.2706,湛江市,湛江影剧院,颗粒物(PM10),59,67,52,24,27,123,108,122,115,6,11,6,8,0.6,0.6
2023-02-01T04:00:00,1681A,110.3928,21.2228,湛江市,市环境监测站,颗粒物(PM10),54,57,47,26,28,125,106,122,112,7,11,6,8,0.5,0.5
2023-02-01T04:00:00,1682A,110.4019,21.1997,湛江市,环保局宿舍,颗粒物(PM10),51,52,45,25,26,122,108,120,114,7,13,4,6,0.5,0.5
2023-02-01T04:00:00,1683A,110.4111,21.2028,湛江市,霞山游泳场,,48,48,50,23,29,133,109,125,117,7,11,6,7,0.3,0.4
2023-02-01T04:00:00,1684A,110.3316,21.2679,湛江市,麻章区环保局,颗粒物(PM10),52,54,52,26,31,125,107,125,116,8,13,6,8,0.5,0.6
2023-02-01T04:00:00,1685A,110.4558,21.2567,湛江市,坡头区环保局,颗粒物(PM10),52,54,45,35,33,121,101,114,107,8,11,6,7,0.5,0.5
2023-02-01T04:00:00,1686A,111.0286,21.4688,茂名市,电白南海,颗粒物(PM10),51,51,57,17,23,122,90,99,96,19,16,6,5,0.4,0.4
2023-02-01T04:00:00,1687A,110.9294,21.6533,茂名市,茂石化七小,,36,36,49,24,29,112,77,86,81,6,9,4,6,0.5,0.5
2023-02-01T04:00:00,1688A,110.9107,21.6687,茂名市,健康路,,34,34,48,15,25,120,89,98,93,7,12,9,10,0.5,0.6
2023-02-01T04:00:00,1689A,110.8592,21.6828,茂名市,高岭,,46,46,58,19,36,120,86,91,88,18,19,16,15,0.6,0.6
2023-02-01T04:00:00,1690A,116.1231,24.3284,梅州市,梅江月梅,细颗粒物(PM2.5),62,67,49,44,44,95,2,23,10,40,24,6,6,0.6,0.6
2023-02-01T04:00:00,1691A,116.0797,24.2719,梅州市,梅县新城,细颗粒物(PM2.5),72,62,57,52,44,103,4,5,4,40,35,6,6,1.0,0.9
2023-02-01T04:00:00,1692A,116.1248,24.2654,梅州市,环境监控中心,细颗粒物(PM2.5),83,73,56,61,44,112,2,3,2,47,36,7,8,0.9,0.7
2023-02-01T04:00:00,1693A,115.3653,22.775,汕尾市,市环保局,细颗粒物(PM2.5),57,58,46,40,31,90,50,77,57,14,13,8,9,0.6,0.6
2023-02-01T04:00:00,1694A,115.3706,22.7898,汕尾市,市政府,颗粒物(PM10),54,58,49,31,37,92,68,60,60,12,17,8,9,0.8,0.8
2023-02-01T04:00:00,1695A,115.3622,22.7925,汕尾市,新城中学,颗粒物(PM10),53,56,52,25,32,92,72,65,65,9,14,5,6,0.6,0.6
2023-02-01T04:00:00,1696A,114.6778,23.7569,河源市,源西,,50,50,43,32,28,105,11,22,15,47,26,4,4,0.7,0.6
2023-02-01T04:00:00,1697A,114.6944,23.7586,河源市,东埔,"颗粒物(PM10),细颗粒物(PM2.5)",55,59,45,39,26,109,32,70,48,29,18,5,5,0.7,0.6
2023-02-01T04:00:00,1698A,114.6892,23.7233,河源市,老城,"颗粒物(PM10),细颗粒物(PM2.5)",55,59,52,39,32,114,18,71,45,41,17,4,5,0.7,0.6
2023-02-01T04:00:00,1699A,111.9797,21.8593,阳江市,鸳鸯湖,,42,42,39,25,26,124,85,84,83,7,12,6,8,0.6,0.6
2023-02-01T04:00:00,1701A,111.9491,21.8658,阳江市,马南垌,颗粒物(PM10),55,59,46,22,25,121,90,78,78,7,16,5,6,0.5,0.6
2023-02-01T04:00:00,1702A,113.0426,23.691,清远市,环保大楼,细颗粒物(PM2.5),74,60,62,54,50,173,58,56,54,26,31,4,5,0.6,0.9
2023-02-01T04:00:00,1703A,113.0208,23.7106,清远市,凤城街办,细颗粒物(PM2.5),74,81,69,54,43,142,19,52,30,43,33,4,5,0.9,0.8
2023-02-01T04:00:00,1705A,116.6367,23.6719,潮州市,西园路,细颗粒物(PM2.5),124,109,80,94,64,138,39,46,44,21,17,6,9,1.0,0.9
2023-02-01T04:00:00,1706A,116.6447,23.6706,潮州市,档案局,细颗粒物(PM2.5),123,92,80,93,65,129,34,38,37,22,18,10,10,0.9,0.7
2023-02-01T04:00:00,1708A,116.3701,23.5345,揭阳市,新兴,细颗粒物(PM2.5),276,203,130,226,109,104,10,13,11,44,25,10,11,1.6,1.2
2023-02-01T04:00:00,1709A,116.3264,23.5443,揭阳市,西马,细颗粒物(PM2.5),212,181,119,162,105,96,5,14,10,49,26,13,20,1.4,0.9
2023-02-01T04:00:00,1710A,116.3611,23.5626,揭阳市,东兴,细颗粒物(PM2.5),256,195,142,206,102,106,8,9,9,55,40,9,13,1.7,1.2
2023-02-01T04:00:00,1711A,116.4151,23.5294,揭阳市,渔湖,细颗粒物(PM2.5),316,302,114,266,92,112,5,10,8,54,31,21,11,1.9,1
2023-02-01T04:00:00,1712A,112.0392,22.9169,云浮市,新市府,细颗粒物(PM2.5),60,46,42,43,32,124,36,50,45,16,12,4,5,0.6,0.5
2023-02-01T04:00:00,1714A,112.0539,22.9539,云浮市,牧羊,,40,39,55,28,34,125,60,66,65,19,21,10,11,0.5,0.7
2023-02-01T04:00:00,1715A,102.575,24.3711,玉溪市,东风水库,细颗粒物(PM2.5),80,65,78,59,74,148,59,68,62,14,19,7,8,1.0,1.4
2023-02-01T04:00:00,1718A,115.4208,35.2464,菏泽市,气象局,细颗粒物(PM2.5),190,204,189,143,128,161,81,90,87,41,45,27,23,1.0,1
2023-02-01T04:00:00,1719A,115.4747,35.2375,菏泽市,市政协,细颗粒物(PM2.5),176,199,189,133,125,165,85,78,78,39,49,33,23,0.9,1
2023-02-01T04:00:00,1721A,113.3819,40.1097,大同市,果树场,,,,,,,,,,,,,,,,
2023-02-01T04:00:00,1723A,113.2994,40.0758,大同市,云冈宾馆,,41,41,85,1,19,97,69,76,73,6,22,12,18,0.7,0.9
2023-02-01T04:00:00,1724A,113.3444,40.0917,大同市,大同大学,,27,27,94,6,15,87,56,65,61,9,17,9,16,0.6,0.6
2023-02-01T04:00:00,1725A,113.2661,40.1269,大同市,安家小村,,29,29,95,5,22,94,69,73,71,2,15,6,16,0.7,1.2
2023-02-01T04:00:00,1726A,113.2711,40.0844,大同市,教育学院,,28,28,92,7,29,79,61,65,64,6,23,8,17,0.5,1
2023-02-01T04:00:00,1727A,113.1147,36.1547,长治市,清华站,细颗粒物(PM2.5),67,76,66,48,42,65,20,9,9,50,57,26,32,1.1,1.2
2023-02-01T04:00:00,1728A,113.1031,36.1989,长治市,监测站,颗粒物(PM10),63,76,76,39,45,105,23,9,9,42,55,20,24,1.7,1.9
2023-02-01T04:00:00,1730A,113.0886,36.2125,长治市,审计局,细颗粒物(PM2.5),64,66,67,46,46,109,14,6,6,50,46,22,29,1.1,1.2
2023-02-01T04:00:00,1731A,113.0844,36.1856,长治市,长治八中,细颗粒物(PM2.5),94,101,83,70,50,106,0,1,1,53,46,31,30,1.6,1.5
2023-02-01T04:00:00,1733A,111.5531,36.0783,临汾市,临钢医院,细颗粒物(PM2.5),109,117,144,82,93,114,32,40,33,35,43,18,23,1.4,1.8
2023-02-01T04:00:00,1734A,111.5028,36.0714,临汾市,技工学校,细颗粒物(PM2.5),139,183,163,106,106,101,7,16,14,53,52,18,34,2.1,2.2
2023-02-01T04:00:00,1736A,111.5018,36.0855,临汾市,市委,细颗粒物(PM2.5),135,164,155,103,96,98,9,22,17,60,54,11,27,1.9,1.9
2023-02-01T04:00:00,1738A,113.5758,37.8572,阳泉市,市中心,颗粒物(PM10),59,68,75,20,35,94,54,44,44,29,56,11,36,0.4,0.9
2023-02-01T04:00:00,1739A,113.4894,37.8731,阳泉市,赛鱼,颗粒物(PM10),67,84,63,10,31,96,67,47,47,18,52,10,30,0.4,0.7
2023-02-01T04:00:00,1740A,113.5819,37.8486,阳泉市,南庄,颗粒物(PM10),52,54,71,30,37,92,66,63,63,16,45,9,32,0.3,0.8
2023-02-01T04:00:00,1742A,113.5614,37.8703,阳泉市,平坦,颗粒物(PM10),57,63,68,10,31,94,58,46,46,28,54,10,34,0.4,0.8
2023-02-01T04:00:00,1743A,113.5158,37.8392,阳泉市,大阳泉,,41,41,38,13,28,97,71,66,66,15,26,9,23,0.4,0.6
2023-02-01T04:00:00,1744A,118.9233,42.2816,赤峰市,松山一中,,37,37,53,5,14,84,74,76,75,5,21,7,10,0.3,0.6
2023-02-01T04:00:00,1745A,118.9576,42.2728,赤峰市,哈达街,,28,28,53,6,20,80,76,77,76,2,21,10,14,0.4,0.7
2023-02-01T04:00:00,1746A,118.8788,42.2554,赤峰市,天义路,,29,29,46,3,13,82,72,74,73,4,20,12,14,0.5,0.7
2023-02-01T04:00:00,1748A,123.044,41.1196,鞍山市,深沟寺,,43,43,112,12,70,74,61,50,50,6,32,9,18,0.5,1.1
2023-02-01T04:00:00,1749A,123.011,41.0931,鞍山市,太阳城,颗粒物(PM10),52,54,104,14,59,88,45,49,42,28,30,25,21,2.1,1.4
2023-02-01T04:00:00,1750A,123.0485,41.1442,鞍山市,太平,,32,32,145,8,84,72,51,42,42,14,46,15,24,0.7,1.6
2023-02-01T04:00:00,1751A,122.9642,41.0971,鞍山市,铁西三道街,,40,40,126,9,69,78,62,44,44,6,43,6,24,0.5,1.6
2023-02-01T04:00:00,1752A,122.9341,41.0833,鞍山市,铁西工业园区,,37,37,140,9,85,77,54,40,40,13,48,43,28,0.9,1.6
2023-02-01T04:00:00,1753A,123.022,41.0821,鞍山市,明达新区,颗粒物(PM10),53,56,100,17,59,85,48,52,47,31,36,24,20,1.7,1.2
2023-02-01T04:00:00,1754A,123.1289,41.0228,鞍山市,千山,,,,,,,,,,,,,,,,
2023-02-01T04:00:00,1755A,123.7977,41.8491,抚顺市,望花区,颗粒物(PM10),56,62,95,9,56,71,55,28,28,11,47,18,22,0.8,1.4
2023-02-01T04:00:00,1756A,123.9161,41.8822,抚顺市,顺城区,颗粒物(PM10),68,85,95,34,55,81,49,32,32,18,45,7,11,0.5,1
2023-02-01T04:00:00,1757A,124.0436,41.8611,抚顺市,东洲区,颗粒物(PM10),82,113,109,50,62,72,46,22,22,19,33,5,11,0.6,1.1
2023-02-01T04:00:00,1758A,123.9247,41.8642,抚顺市,新抚区,颗粒物(PM10),66,81,111,42,65,68,48,30,30,16,45,10,12,0.5,1
2023-02-01T04:00:00,1759A,124.0972,41.8961,抚顺市,大伙房水库,细颗粒物(PM2.5),83,109,98,61,63,81,39,17,17,25,29,6,9,0.9,1.3
2023-02-01T04:00:00,1760A,123.7086,41.8391,抚顺市,沈抚新城,,50,50,95,15,46,78,62,32,32,12,48,10,21,0.6,1.3
2023-02-01T04:00:00,1761A,123.8275,41.3064,本溪市,大峪,颗粒物(PM10),55,60,89,29,44,67,45,20,20,18,29,12,15,0.7,1.1
2023-02-01T04:00:00,1762A,123.7567,41.3325,本溪市,溪湖,颗粒物(PM10),64,77,96,22,56,79,56,28,28,13,42,12,33,0.4,1.2
2023-02-01T04:00:00,1763A,123.7169,41.3094,本溪市,彩屯,颗粒物(PM10),57,63,115,19,68,77,57,38,38,8,30,11,21,0.6,1.5
2023-02-01T04:00:00,1764A,123.7669,41.2864,本溪市,东明,颗粒物(PM10),69,87,99,32,50,70,50,26,26,20,45,14,25,0.7,1.3
2023-02-01T04:00:00,1765A,123.7992,41.2664,本溪市,新立屯,颗粒物(PM10),84,118,88,31,49,71,54,28,28,18,38,11,14,0.6,1.2
2023-02-01T04:00:00,1766A,123.8142,41.3472,本溪市,威宁,颗粒物(PM10),82,114,101,38,72,71,43,15,15,24,40,7,11,0.5,1
2023-02-01T04:00:00,1767A,121.1115,41.0879,锦州市,南山,颗粒物(PM10),60,69,109,6,77,79,78,70,70,5,44,6,21,0.4,1.2
2023-02-01T04:00:00,1768A,121.0533,40.8434,锦州市,开发区,颗粒物(PM10),69,87,136,6,77,95,70,51,51,12,52,43,45,0.4,1.1
2023-02-01T04:00:00,1769A,121.1836,41.1119,锦州市,百股街道,颗粒物(PM10),75,100,158,5,77,75,74,64,64,5,52,9,22,0.4,1.2
2023-02-01T04:00:00,1770A,121.1178,41.1222,锦州市,天安街道,颗粒物(PM10),60,70,116,6,67,76,74,70,70,6,46,7,20,0.3,1.2
2023-02-01T04:00:00,1771A,121.1303,41.1386,锦州市,北湖公园,颗粒物(PM10),55,60,99,7,57,78,76,72,72,5,39,11,21,0.4,1
2023-02-01T04:00:00,1772A,126.54,43.8622,吉林市,哈达湾,细颗粒物(PM2.5),130,131,82,99,60,76,45,52,41,45,30,12,12,1.2,1.1
2023-02-01T04:00:00,1773A,126.5844,43.8358,吉林市,东局子,细颗粒物(PM2.5),185,170,73,139,56,76,23,26,25,45,31,16,14,1.3,0.8
2023-02-01T04:00:00,1774A,126.5052,43.8245,吉林市,电力学院,细颗粒物(PM2.5),123,106,87,93,66,71,50,61,56,30,32,14,19,1.1,1
2023-02-01T04:00:00,1775A,126.6133,43.8972,吉林市,江北,细颗粒物(PM2.5),142,133,82,108,64,91,36,42,38,38,32,15,14,1.6,1
2023-02-01T04:00:00,1776A,126.555,43.8306,吉林市,江南公园,细颗粒物(PM2.5),137,120,73,104,59,68,37,40,39,45,29,10,11,1.1,0.9
2023-02-01T04:00:00,1778A,126.7061,43.7133,吉林市,丰满,,,,,,,,,,,,,,,,
2023-02-01T04:00:00,1779A,123.9305,47.3636,齐齐哈尔市,安居小区,细颗粒物(PM2.5),218,178,156,168,131,68,64,41,41,23,49,6,12,1.1,1.4
2023-02-01T04:00:00,1780A,123.9488,47.3386,齐齐哈尔市,中心广场,细颗粒物(PM2.5),178,207,173,134,118,72,65,43,43,36,51,6,13,1.0,1
2023-02-01T04:00:00,1781A,123.9483,47.3227,齐齐哈尔市,农牧车辆厂,细颗粒物(PM2.5),196,149,154,147,126,67,61,36,36,38,55,5,7,1.2,1.2
2023-02-01T04:00:00,1783A,123.945,47.2988,齐齐哈尔市,市环境监测站,细颗粒物(PM2.5),221,201,158,171,139,75,69,34,34,34,49,9,9,1.0,1
2023-02-01T04:00:00,1784A,129.61,44.561,牡丹江市,环保大楼,细颗粒物(PM2.5),102,108,85,76,66,55,9,38,18,45,44,10,16,1.3,1
2023-02-01T04:00:00,1785A,129.6115,44.5782,牡丹江市,文化广场,细颗粒物(PM2.5),93,108,98,69,67,49,20,32,28,43,50,12,18,1.2,1.3
2023-02-01T04:00:00,1786A,129.5904,44.5963,牡丹江市,第一医院,细颗粒物(PM2.5),79,50,93,58,78,52,37,22,22,24,47,9,15,1.0,1.4
2023-02-01T04:00:00,1787A,129.6364,44.6075,牡丹江市,机车工厂,细颗粒物(PM2.5),72,59,103,52,68,42,39,22,22,18,45,2,4,0.7,1.1
2023-02-01T04:00:00,1788A,129.6386,44.5462,牡丹江市,第一中学,细颗粒物(PM2.5),90,80,71,67,59,42,10,32,17,42,48,4,8,1.1,1
2023-02-01T04:00:00,1789A,124.81117,46.03138,大庆市,大同区,细颗粒物(PM2.5),331,312,222,281,199,93,27,36,30,64,48,14,13,2.4,1.7
2023-02-01T04:00:00,1790A,125.129,46.533,大庆市,龙凤区,细颗粒物(PM2.5),145,111,193,111,170,81,20,27,22,63,50,38,12,1.2,1.6
2023-02-01T04:00:00,1791A,124.902,46.408,大庆市,红岗区,细颗粒物(PM2.5),250,219,165,200,150,89,26,48,41,59,36,16,11,1.7,1.3
2023-02-01T04:00:00,1792A,125.153,46.586,大庆市,萨尔图区,细颗粒物(PM2.5),283,246,204,233,183,81,25,18,18,61,57,15,12,0.6,1.5
2023-02-01T04:00:00,1793A,124.9042,46.6215,大庆市,让胡路区,细颗粒物(PM2.5),256,220,177,206,151,58,27,37,30,64,64,10,12,1.8,1.5
2023-02-01T04:00:00,1794A,118.3606,31.3519,芜湖市,监测站,细颗粒物(PM2.5),84,81,80,62,53,116,13,12,12,88,74,8,11,1.1,1
2023-02-01T04:00:00,1795A,118.3714,31.4134,芜湖市,科创中心,细颗粒物(PM2.5),98,108,98,73,65,114,6,4,4,83,71,8,9,1.0,0.8
2023-02-01T04:00:00,1796A,118.3673,31.3131,芜湖市,四水厂,细颗粒物(PM2.5),80,84,77,59,50,104,23,14,14,59,51,9,12,0.6,0.6
2023-02-01T04:00:00,1798A,118.5092,31.6837,马鞍山市,湖东路四小,细颗粒物(PM2.5),79,58,66,58,54,113,26,10,10,45,55,9,11,1.1,1.2
2023-02-01T04:00:00,1799A,118.5024,31.6449,马鞍山市,开发区,细颗粒物(PM2.5),85,80,76,63,50,115,37,23,23,48,54,10,12,1.0,1.1
2023-02-01T04:00:00,1800A,118.5228,31.7231,马鞍山市,慈湖,细颗粒物(PM2.5),82,66,76,60,48,104,40,22,22,36,53,9,13,0.9,1.1
2023-02-01T04:00:00,1802A,118.6245,31.7241,马鞍山市,濮塘,细颗粒物(PM2.5),59,58,56,42,33,107,52,82,67,23,19,9,12,0.8,0.9
2023-02-01T04:00:00,1803A,115.9872,29.6815,九江市,十里,,50,50,69,33,40,117,13,12,12,40,39,8,11,0.8,0.9
2023-02-01T04:00:00,1804A,115.9584,29.7046,九江市,茅山头,细颗粒物(PM2.5),94,99,73,70,48,112,4,7,6,67,50,12,11,1.4,1.2
2023-02-01T04:00:00,1805A,115.9877,29.7295,九江市,西园,细颗粒物(PM2.5),83,75,67,61,52,117,5,7,6,82,55,10,10,1.1,1.1
2023-02-01T04:00:00,1806A,116.0172,29.6547,九江市,五七二七厂,,49,27,49,34,26,116,78,82,78,18,15,14,9,0.8,0.7
2023-02-01T04:00:00,1808A,115.9114,29.6038,九江市,综合工业园,细颗粒物(PM2.5),64,51,53,46,43,109,13,53,29,58,40,8,10,0.8,0.8
2023-02-01T04:00:00,1809A,116.0721,29.7535,九江市,石化总厂,细颗粒物(PM2.5),82,84,87,60,52,113,17,9,9,65,34,11,24,0.8,0.8
2023-02-01T04:00:00,1810A,115.9773,29.5698,九江市,庐山气象台,,26,22,23,15,11,98,82,27,27,7,6,7,6,0.6,0.5
2023-02-01T04:00:00,1812A,112.3931,34.6516,洛阳市,市委党校,细颗粒物(PM2.5),127,155,117,96,66,121,5,3,3,72,57,37,18,1.2,1
2023-02-01T04:00:00,1814A,112.4657,34.6871,洛阳市,豫西宾馆,细颗粒物(PM2.5),119,129,120,90,76,110,5,6,6,73,53,24,23,1.4,1.2
2023-02-01T04:00:00,1815A,112.494,34.6886,洛阳市,河南林校,细颗粒物(PM2.5),112,129,116,84,73,118,14,15,15,77,55,8,11,1.1,1
2023-02-01T04:00:00,1816A,112.3844,34.623,洛阳市,开发区管委会,细颗粒物(PM2.5),120,124,95,91,64,132,27,22,22,41,37,13,11,0.8,0.7
2023-02-01T04:00:00,1817A,112.4267,34.6258,洛阳市,市委新办公区,细颗粒物(PM2.5),114,121,96,86,64,125,43,29,29,32,44,17,12,1.1,0.9
2023-02-01T04:00:00,1818A,114.4839,36.0621,安阳市,棉研所,,,,,,,,,,,,,,,,
2023-02-01T04:00:00,1819A,114.3551,36.1017,安阳市,红庙街,颗粒物(PM10),135,219,148,81,97,103,37,20,20,48,74,11,20,0.8,1.9
2023-02-01T04:00:00,1820A,114.361,36.0681,安阳市,银杏小区,颗粒物(PM10),147,243,137,92,102,105,38,20,20,38,64,12,21,1.0,2.1
2023-02-01T04:00:00,1824A,114.3389,34.7781,开封市,肿瘤医院,细颗粒物(PM2.5),180,240,185,136,110,112,76,96,87,37,46,19,16,1.1,0.8
2023-02-01T04:00:00,1826A,114.2885,34.7965,开封市,世纪星幼儿园,细颗粒物(PM2.5),201,181,146,151,112,111,82,110,99,34,33,21,17,1.3,1
2023-02-01T04:00:00,1828A,113.227,35.2125,焦作市,市环保局,细颗粒物(PM2.5),107,119,104,80,64,106,30,52,45,44,41,14,22,1.3,1.1
2023-02-01T04:00:00,1830A,113.1992,35.2590,焦作市,影视城,,,,,,,,,,,,,,,,
2023-02-01T04:00:00,1832A,113.3257,33.742,平顶山市,新华旅馆,细颗粒物(PM2.5),134,157,157,102,97,127,103,79,79,32,54,15,14,0.8,0.8
2023-02-01T04:00:00,1833A,113.2919,33.737,平顶山市,规划设计院,细颗粒物(PM2.5),132,144,150,100,102,127,67,54,54,38,55,12,11,0.7,0.8
2023-02-01T04:00:00,1834A,113.182,33.774,平顶山市,平顶山工学院,细颗粒物(PM2.5),128,170,153,97,91,131,41,66,52,35,28,20,12,0.9,0.7
2023-02-01T04:00:00,1835A,111.1922,34.7752,三门峡市,市政府,细颗粒物(PM2.5),115,88,108,87,87,106,19,14,14,63,67,15,23,1.2,1.1
2023-02-01T04:00:00,1836A,111.1587,34.7942,三门峡市,开发区,细颗粒物(PM2.5),128,142,140,97,87,136,5,6,6,71,54,11,19,1.1,1.1
2023-02-01T04:00:00,1838A,111.143,34.7955,三门峡市,风景区,,,,,,,,,,,,,,,,
2023-02-01T04:00:00,1840A,111.2992,30.6981,宜昌市,白龙岗,细颗粒物(PM2.5),138,122,118,105,94,144,54,72,61,29,41,5,7,1.2,1.1
2023-02-01T04:00:00,1841A,111.3549,30.6465,宜昌市,伍家岗,细颗粒物(PM2.5),132,119,129,100,103,131,33,28,28,42,55,8,10,0.9,1.1
2023-02-01T04:00:00,1842A,111.2628,30.6961,宜昌市,点军区,细颗粒物(PM2.5),168,155,124,127,108,139,36,41,38,23,34,4,6,1.3,1.2
2023-02-01T04:00:00,1843A,111.3275,30.7819,宜昌市,夷陵区,细颗粒物(PM2.5),134,116,116,102,99,138,46,43,43,22,41,6,8,0.9,1
2023-02-01T04:00:00,1844A,112.2494,30.3197,荆州市,市图书馆,细颗粒物(PM2.5),160,141,117,122,104,151,102,96,96,23,32,10,11,1.1,1.1
2023-02-01T04:00:00,1845A,112.2008,30.3544,荆州市,市委党校,细颗粒物(PM2.5),162,144,120,123,106,148,93,95,91,26,31,11,10,0.9,0.9
2023-02-01T04:00:00,1847A,113.1094,29.3578,岳阳市,南湖风景区,细颗粒物(PM2.5),64,58,53,46,36,148,34,69,60,73,41,11,11,0.7,0.5
2023-02-01T04:00:00,1848A,113.1493,29.4251,岳阳市,城陵矶,细颗粒物(PM2.5),59,62,55,42,32,142,6,8,8,93,53,8,13,0.8,0.7
2023-02-01T04:00:00,1849A,113.1497,29.3575,岳阳市,开发区,细颗粒物(PM2.5),60,54,50,43,38,143,20,32,29,66,37,6,8,0.6,0.5
2023-02-01T04:00:00,1850A,113.2621,29.4758,岳阳市,云溪区,颗粒物(PM10),57,63,49,35,30,147,13,50,39,65,24,9,8,0.5,0.4
2023-02-01T04:00:00,1851A,112.9943,29.4402,岳阳市,君山区,细颗粒物(PM2.5),92,92,62,68,45,142,60,38,38,24,32,9,10,0.4,0.4
2023-02-01T04:00:00,1852A,113.2117,29.355,岳阳市,金凤水库,,40,38,46,28,28,137,50,85,70,36,19,6,6,0.6,0.6
2023-02-01T04:00:00,1854A,111.6975,28.9703,常德市,市二中,细颗粒物(PM2.5),198,152,104,148,93,130,61,61,61,25,23,10,9,1.0,0.9
2023-02-01T04:00:00,1857A,111.7158,29.1456,常德市,白鹤山,细颗粒物(PM2.5),162,151,82,123,63,145,111,107,107,18,13,17,7,0.6,0.4
2023-02-01T04:00:00,1858A,110.5319,29.1217,张家界市,永定新区,细颗粒物(PM2.5),75,77,68,55,46,120,39,21,21,17,29,4,5,0.6,0.7
2023-02-01T04:00:00,1859A,110.4697,29.1242,张家界市,电业局,细颗粒物(PM2.5),63,58,70,45,47,118,26,24,24,20,34,4,5,0.7,0.8
2023-02-01T04:00:00,1860A,110.5594,29.3547,张家界市,未央路,细颗粒物(PM2.5),55,47,58,39,38,124,51,56,53,5,18,9,9,0.6,0.7
2023-02-01T04:00:00,1861A,110.4417,29.315,张家界市,袁家界,细颗粒物(PM2.5),64,58,51,46,37,132,124,127,125,8,9,13,12,0.8,0.6
2023-02-01T04:00:00,1862A,110.4144,25.3167,桂林市,电子科大尧山校区,,,,52,,40,81,,63,,,9,,4,,0.6
2023-02-01T04:00:00,1863A,110.2819,25.2697,桂林市,监测站,细颗粒物(PM2.5),105,98,79,79,55,129,9,13,12,56,39,3,3,1.3,1
2023-02-01T04:00:00,1864A,110.3089,25.2708,桂林市,龙隐路小学,细颗粒物(PM2.5),97,78,68,72,57,126,32,40,38,52,35,14,7,1.1,0.9
2023-02-01T04:00:00,1865A,110.2869,25.2178,桂林市,八中,细颗粒物(PM2.5),99,81,73,74,59,120,34,40,30,40,32,6,5,0.8,0.7
2023-02-01T04:00:00,1866A,109.2262,21.588,北海市,牛尾岭水库,颗粒物(PM10),52,53,64,16,47,103,75,79,78,12,14,6,8,0.4,0.6
2023-02-01T04:00:00,1867A,109.1436,21.4086,北海市,海滩公园,,49,49,68,22,40,158,98,98,98,4,9,4,8,0.5,0.6
2023-02-01T04:00:00,1868A,109.0981,21.4661,北海市,新市环保局,,35,35,65,19,45,137,95,97,96,6,17,1,4,0.2,0.5
2023-02-01T04:00:00,1869A,109.1778,21.5233,北海市,北海工业园,颗粒物(PM10),54,57,76,17,47,133,93,92,92,5,14,4,8,0.5,0.6
2023-02-01T04:00:00,1870A,109.4856,24.3895,柳州市,柳东小学,细颗粒物(PM2.5),98,79,77,73,63,132,65,86,74,16,15,7,6,0.7,0.8
2023-02-01T04:00:00,1871A,109.4157,24.3277,柳州市,环保监测站,颗粒物(PM10),82,114,92,4,39,126,10,24,20,58,37,7,7,1.6,0.9
2023-02-01T04:00:00,1872A,109.389,24.341,柳州市,河西水厂,细颗粒物(PM2.5),152,145,107,116,74,129,2,27,11,63,33,10,11,1.7,1.4
2023-02-01T04:00:00,1873A,109.4311,24.2921,柳州市,市四中,细颗粒物(PM2.5),144,151,92,110,67,133,14,20,16,49,37,10,9,1.7,1
2023-02-01T04:00:00,1874A,109.4006,24.3631,柳州市,市九中,细颗粒物(PM2.5),102,103,96,76,68,124,9,14,13,49,38,8,8,1.1,1.1
2023-02-01T04:00:00,1875A,109.4958,24.3134,柳州市,古亭山,细颗粒物(PM2.5),84,74,78,62,56,134,22,38,32,24,31,9,10,0.8,0.7
2023-02-01T04:00:00,1876A,109.5078,18.2489,三亚市,河东子站,,27,27,36,10,17,86,60,65,64,5,10,2,2,0.4,0.5
2023-02-01T04:00:00,1877A,109.4964,18.2681,三亚市,河西子站,,24,24,34,7,14,91,63,66,65,4,9,2,3,0.3,0.4
2023-02-01T04:00:00,1878A,104.7778,31.4741,绵阳市,富乐山,细颗粒物(PM2.5),114,110,100,86,77,133,19,52,27,56,33,3,4,1.1,0.9
2023-02-01T04:00:00,1879A,104.7563,31.4535,绵阳市,市人大,细颗粒物(PM2.5),110,122,113,83,81,121,2,1,1,69,64,6,9,0.9,0.9
2023-02-01T04:00:00,1880A,104.6697,31.4668,绵阳市,高新区自来水公司,细颗粒物(PM2.5),129,117,125,98,91,132,2,2,2,53,51,5,6,1.1,1.2
2023-02-01T04:00:00,1881A,104.7287,31.5075,绵阳市,三水厂,细颗粒物(PM2.5),139,144,130,106,92,119,1,2,1,50,54,3,4,0.9,1
2023-02-01T04:00:00,1882A,104.563,28.793,宜宾市,石马中学,细颗粒物(PM2.5),169,151,125,128,100,121,3,13,7,50,37,5,7,1.1,1
2023-02-01T04:00:00,1883A,104.6201,28.7728,宜宾市,市委,细颗粒物(PM2.5),162,158,132,123,100,128,18,24,23,46,49,9,10,0.9,0.9
2023-02-01T04:00:00,1884A,104.6055,28.793,宜宾市,宜宾四中,细颗粒物(PM2.5),175,160,132,132,104,128,34,29,29,36,46,7,7,0.9,0.8
2023-02-01T04:00:00,1885A,104.639,28.7562,宜宾市,市政府,细颗粒物(PM2.5),168,158,130,127,98,130,13,4,4,47,58,8,10,0.8,0.9
2023-02-01T04:00:00,1886A,104.5742,28.7199,宜宾市,黄金嘴,细颗粒物(PM2.5),180,167,129,136,100,133,27,18,18,38,43,10,12,1.0,1
2023-02-01T04:00:00,1888A,101.6891,26.571,攀枝花市,弄弄坪,细颗粒物(PM2.5),113,119,101,85,80,167,35,65,49,39,38,35,32,3.5,2.6
2023-02-01T04:00:00,1889A,101.5769,26.5928,攀枝花市,河门口,细颗粒物(PM2.5),102,93,92,76,73,164,51,54,54,26,29,11,23,2.0,2.1
2023-02-01T04:00:00,1890A,101.7169,26.585,攀枝花市,炳草岗,细颗粒物(PM2.5),110,108,100,83,74,169,4,11,7,84,59,10,21,2.4,2.3
2023-02-01T04:00:00,1891A,101.7369,26.5008,攀枝花市,仁和,细颗粒物(PM2.5),92,85,97,68,73,174,35,52,43,25,30,10,20,1.8,2.2
2023-02-01T04:00:00,1893A,105.4324,28.9634,泸州市,九狮山,细颗粒物(PM2.5),183,162,131,138,96,131,11,18,15,20,23,7,10,0.7,0.5
2023-02-01T04:00:00,1894A,105.4427,28.9063,泸州市,小市上码头,细颗粒物(PM2.5),220,237,166,170,117,125,10,6,6,56,59,16,13,1.3,1.2
2023-02-01T04:00:00,1895A,105.4241,28.8573,泸州市,兰田宪桥,细颗粒物(PM2.5),239,211,182,189,143,116,35,35,35,28,34,30,17,1.0,1.1
2023-02-01T04:00:00,1896A,105.4379,28.8833,泸州市,市环监站,细颗粒物(PM2.5),230,217,162,180,113,123,39,24,24,36,48,18,14,0.8,0.9
2023-02-01T04:00:00,1901A,104.4239,31.1208,德阳市,东山公园,细颗粒物(PM2.5),132,133,142,100,103,139,78,68,68,27,39,6,21,1.2,1.2
2023-02-01T04:00:00,1902A,104.3826,31.1317,德阳市,西小区,细颗粒物(PM2.5),147,134,156,112,113,128,6,36,24,67,72,8,11,1.0,1.2
2023-02-01T04:00:00,1904A,104.3553,31.1091,德阳市,耐火材料厂,细颗粒物(PM2.5),175,206,203,132,126,148,5,32,25,58,48,8,9,1.0,1
2023-02-01T04:00:00,1905A,106.056,30.8064,南充市,西山风景区,,,,,,,,,,,,,,,,
2023-02-01T04:00:00,1906A,106.0789,30.8023,南充市,南充市委,细颗粒物(PM2.5),102,101,114,76,80,114,28,24,24,28,50,8,11,0.7,1
2023-02-01T04:00:00,1907A,106.1031,30.8217,南充市,南充炼油厂,细颗粒物(PM2.5),103,101,119,77,80,115,8,16,11,53,61,8,12,1.0,1.3
2023-02-01T04:00:00,1908A,106.1064,30.7856,南充市,高坪区监测站,细颗粒物(PM2.5),124,136,128,94,88,108,3,4,3,54,60,9,13,1.2,1.4
2023-02-01T04:00:00,1909A,106.0642,30.7636,南充市,嘉陵区环保局,细颗粒物(PM2.5),104,109,125,78,87,120,2,2,2,67,68,7,10,1.2,1.6
2023-02-01T04:00:00,1910A,106.1087,30.8388,南充市,市环境监测站,细颗粒物(PM2.5),98,110,113,73,77,108,22,57,40,52,44,13,15,0.9,0.9
2023-02-01T04:00:00,1911A,106.9222,27.6869,遵义市,丁字口,细颗粒物(PM2.5),99,68,82,74,68,152,53,38,38,34,49,45,55,1.0,1.2
2023-02-01T04:00:00,1912A,106.9242,27.7019,遵义市,凤凰山,细颗粒物(PM2.5),67,67,79,48,48,170,119,120,120,15,18,12,17,0.9,0.9
2023-02-01T04:00:00,1913A,106.8906,27.6486,遵义市,忠庄,细颗粒物(PM2.5),113,106,87,85,59,154,32,38,29,52,34,30,26,1.4,1.1
2023-02-01T04:00:00,1914A,106.9231,27.6506,遵义市,舟水桥,颗粒物(PM10),79,108,95,56,59,164,24,38,32,29,31,15,34,1.0,0.9
2023-02-01T04:00:00,1915A,106.9178,27.72,遵义市,干田坝,细颗粒物(PM2.5),78,82,84,57,62,143,33,32,32,36,40,18,28,1.2,1.3
2023-02-01T04:00:00,1916A,103.7897,25.5035,曲靖市,环境监测站,,46,46,44,32,25,113,76,77,76,7,16,5,6,0.6,0.7
2023-02-01T04:00:00,1917A,103.8,25.5364,曲靖市,烟厂办公区,,47,47,49,26,31,114,72,82,74,12,16,3,4,0.5,0.6
2023-02-01T04:00:00,1918A,108.7197,34.3956,咸阳市,气象站,细颗粒物(PM2.5),216,190,158,166,147,118,6,6,5,98,86,13,15,1.2,1.1
2023-02-01T04:00:00,1919A,108.673,34.3155,咸阳市,实验中学,细颗粒物(PM2.5),294,271,207,244,162,127,11,12,12,89,74,7,8,1.5,1.2
2023-02-01T04:00:00,1920A,108.7233,34.3617,咸阳市,师范学院,细颗粒物(PM2.5),239,234,186,189,155,127,19,21,20,74,67,9,10,1.3,1.2
2023-02-01T04:00:00,1922A,109.0656,35.0994,铜川市,党校,,47,47,91,13,56,112,66,77,71,20,41,15,20,0.8,1.1
2023-02-01T04:00:00,1923A,109.0697,35.0697,铜川市,王益区政府,,43,43,103,25,77,107,25,20,20,41,52,7,13,0.5,1
2023-02-01T04:00:00,1924A,108.9344,34.9058,铜川市,新区管委会,颗粒物(PM10),53,56,101,26,80,120,59,63,62,21,35,12,17,0.3,0.7
2023-02-01T04:00:00,1926A,109.4131,36.6275,延安市,枣园,颗粒物(PM10),52,54,49,8,30,108,66,59,59,16,38,5,7,0.5,0.8
2023-02-01T04:00:00,1927A,109.4761,36.6028,延安市,延大医附院,,47,47,55,8,37,101,51,28,28,28,53,8,10,0.6,1.2
2023-02-01T04:00:00,1929A,109.5056,36.6106,延安市,百米大道,颗粒物(PM10),52,54,67,7,41,109,70,43,43,20,65,9,12,0.6,1.4
2023-02-01T04:00:00,1930A,107.185,34.3063,宝鸡市,庙沟村,细颗粒物(PM2.5),99,93,90,74,68,106,78,73,73,25,26,7,7,1.0,1
2023-02-01T04:00:00,1931A,107.0708,34.3017,宝鸡市,竹园沟,细颗粒物(PM2.5),105,98,87,79,69,124,72,58,58,26,31,5,5,0.8,0.8
2023-02-01T04:00:00,1932A,107.1906,34.3672,宝鸡市,三陆医院,细颗粒物(PM2.5),125,129,122,95,91,114,49,37,37,34,49,13,14,1.0,1
2023-02-01T04:00:00,1933A,107.1431,34.3547,宝鸡市,监测站,细颗粒物(PM2.5),114,104,102,86,76,108,35,28,28,39,48,4,6,0.8,0.9
2023-02-01T04:00:00,1934A,107.1186,34.3739,宝鸡市,技工学校,细颗粒物(PM2.5),140,118,125,107,89,106,52,39,39,26,47,14,12,0.9,1
2023-02-01T04:00:00,1935A,107.3906,34.3528,宝鸡市,陈仓区环保局家属楼,细颗粒物(PM2.5),162,142,148,123,121,116,16,23,21,76,64,23,43,1.3,1.4
2023-02-01T04:00:00,1936A,107.2058,34.3497,宝鸡市,文理学院,细颗粒物(PM2.5),122,131,113,92,79,116,35,47,40,46,46,11,12,1.0,1
2023-02-01T04:00:00,1937A,107.2386,34.3622,宝鸡市,三迪小学,细颗粒物(PM2.5),135,119,123,103,96,111,30,28,28,50,56,11,12,1.0,1
2023-02-01T04:00:00,1938A,109.5293,34.5101,渭南市,农科所,细颗粒物(PM2.5),132,127,162,100,117,123,46,44,44,35,50,10,14,1.1,1.4
2023-02-01T04:00:00,1939A,109.4974,34.4877,渭南市,日报社,细颗粒物(PM2.5),155,136,158,118,121,111,12,26,19,88,76,9,12,1.0,1.4
2023-02-01T04:00:00,1940A,109.4636,34.493,渭南市,体育馆,细颗粒物(PM2.5),158,149,160,120,128,128,58,43,43,46,71,11,16,0.9,1.1
2023-02-01T04:00:00,1941A,109.4259,34.5023,渭南市,高新一小,细颗粒物(PM2.5),190,164,177,143,142,112,2,32,10,76,69,10,15,1.0,1.1
2023-02-01T04:00:00,1943A,102.1725,38.5339,金昌市,新川苑,颗粒物(PM10),87,124,77,21,28,92,70,70,66,18,28,99,63,0.7,0.8
2023-02-01T04:00:00,1944A,102.1692,38.5167,金昌市,天庆家园,颗粒物(PM10),69,87,62,11,24,94,72,70,66,11,24,7,44,0.5,0.8
2023-02-01T04:00:00,1945A,98.2908,39.7711,嘉峪关市,气象局,颗粒物(PM10),71,92,118,31,36,79,40,22,22,22,35,3,10,0.6,0.5
2023-02-01T04:00:00,1947A,106.3394,38.817,石嘴山市,沙湖旅游区,,40,40,106,27,79,86,63,68,65,17,34,14,25,0.7,1.6
2023-02-01T04:00:00,1948A,106.3668,39.0145,石嘴山市,大武口朝阳西街,颗粒物(PM10),52,54,126,14,76,74,59,55,55,6,44,6,35,0.4,1.5
2023-02-01T04:00:00,1949A,106.7704,39.2282,石嘴山市,惠农南大街,颗粒物(PM10),76,101,92,23,27,65,26,38,34,41,45,41,48,1.0,1.2
2023-02-01T04:00:00,1950A,106.7099,39.1325,石嘴山市,红果子镇惠新街,,50,50,94,12,34,77,59,55,55,13,37,11,34,0.6,1.1
2023-02-01T04:00:00,1951A,84.895,45.6094,克拉玛依市,长征新村,细颗粒物(PM2.5),130,126,114,99,79,91,43,64,53,44,37,7,8,1.1,1
2023-02-01T04:00:00,1952A,84.8988,45.5893,克拉玛依市,南林小区,细颗粒物(PM2.5),107,148,132,80,87,83,43,45,42,38,33,5,7,1.2,1.1
2023-02-01T04:00:00,1954A,84.905,44.3396,克拉玛依市,独山子区,细颗粒物(PM2.5),334,393,340,284,232,92,57,46,46,56,59,8,8,2.2,2.1
2023-02-01T04:00:00,1955A,85.6979,46.098,克拉玛依市,乌尔禾区商贸楼,细颗粒物(PM2.5),199,175,101,149,80,113,29,59,35,52,35,7,7,2.2,1.4
2023-02-01T04:00:00,1956A,86.1472,41.7538,巴音郭楞州,孔雀公园,颗粒物(PM10),128,206,218,68,77,99,71,64,64,22,39,5,5,0.8,1
2023-02-01T04:00:00,1957A,86.1972,41.7166,巴音郭楞州,棉纺厂,颗粒物(PM10),130,209,243,69,71,99,72,61,61,36,48,6,5,0.6,0.8
2023-02-01T04:00:00,1958A,86.2357,41.7173,巴音郭楞州,经济开发区,颗粒物(PM10),113,175,200,56,58,101,92,84,84,15,30,5,5,0.6,0.8
2023-02-01T04:00:00,1961A,117.532,36.6868,济南市,东山小学,颗粒物(PM10),185,320,138,27,70,142,74,54,54,5,35,4,13,0.2,0.6
2023-02-01T04:00:00,1966A,120.0405,35.8735,青岛市,黄岛区4号,细颗粒物(PM2.5),153,158,129,117,95,97,92,87,87,43,57,23,13,1.3,1.4
2023-02-01T04:00:00,1982A,122.0693,37.2174,威海市,文登开发区,细颗粒物(PM2.5),100,117,118,75,79,133,56,31,31,35,39,7,7,0.9,1
2023-02-01T04:00:00,2031A,113.1817,27.9958,株洲市,云田中学,细颗粒物(PM2.5),62,51,52,44,39,121,49,76,60,25,16,8,8,0.8,0.7
2023-02-01T04:00:00,2054A,114.1099,32.1059,信阳市,平桥分局,细颗粒物(PM2.5),142,132,108,108,79,137,32,44,34,42,36,11,12,1.5,1.3
2023-02-01T04:00:00,2064A,113.9956,32.1271,信阳市,南湾水厂,细颗粒物(PM2.5),132,140,92,100,62,146,114,114,114,17,16,14,12,1.2,1
2023-02-01T04:00:00,2065A,114.0775,32.1195,信阳市,市酿酒公司,细颗粒物(PM2.5),138,126,85,105,77,140,54,50,38,39,47,10,11,1.3,1.2
2023-02-01T04:00:00,2066A,114.0609,32.1399,信阳市,审计局,细颗粒物(PM2.5),149,112,101,114,81,140,28,53,27,65,47,12,12,1.3,1.1
2023-02-01T04:00:00,2067A,114.6613,33.6128,周口市,市环境监测站,细颗粒物(PM2.5),201,204,151,151,110,131,90,91,87,26,37,16,16,0.6,0.7
2023-02-01T04:00:00,2068A,114.6758,33.6347,周口市,周口师范,细颗粒物(PM2.5),216,221,160,166,116,140,81,84,80,37,44,15,19,0.9,0.9
2023-02-01T04:00:00,2069A,114.6546,33.5979,周口市,市运管处,细颗粒物(PM2.5),207,208,150,157,112,141,100,102,98,,43,20,17,0.8,0.8
2023-02-01T04:00:00,2070A,114.6369,33.6406,周口市,川汇区环保局,细颗粒物(PM2.5),215,205,157,165,123,123,70,77,69,41,43,15,15,0.8,0.7
2023-02-01T04:00:00,2075A,117.6336,24.4674,漳州市,九湖,,,,,,,,,,,,,,,,
2023-02-01T04:00:00,2160A,112.85,35.5051,晋城市,自来水公司,细颗粒物(PM2.5),83,73,71,61,43,102,2,28,17,68,49,34,26,1.6,1.6
2023-02-01T04:00:00,2161A,112.8318,35.4936,晋城市,白云商贸,细颗粒物(PM2.5),70,77,72,51,42,100,5,30,23,64,44,20,17,1.5,1.6
2023-02-01T04:00:00,2162A,112.8508,35.4887,晋城市,市环保局,细颗粒物(PM2.5),83,81,71,61,47,107,5,7,6,66,50,27,26,1.4,1.7
2023-02-01T04:00:00,2163A,112.8676,35.4897,晋城市,技术学院,,,,76,,42,48,,43,,,53,,25,,1.7
2023-02-01T04:00:00,2165A,112.8453,35.546,晋城市,白马寺 ,,,,,,,,,,,,,,,,
2023-02-01T04:00:00,2166A,112.4397,39.3522,朔州市,平朔,,36,36,87,6,20,86,62,64,63,5,23,10,13,0.3,0.5
2023-02-01T04:00:00,2167A,112.4575,39.3617,朔州市,朔唯,,31,31,88,6,27,90,67,65,65,4,27,12,18,0.3,0.5
2023-02-01T04:00:00,2168A,112.4258,39.3197,朔州市,区政府,颗粒物(PM10),52,54,95,6,25,95,64,68,67,4,24,6,14,0.3,0.6
2023-02-01T04:00:00,2169A,112.4072,39.3278,朔州市,市环保局,颗粒物(PM10),56,62,92,7,28,92,59,66,64,13,21,11,16,0.4,0.6
2023-02-01T04:00:00,2170A,112.4272,39.3681,朔州市,市二中,颗粒物(PM10),52,54,93,7,21,91,56,62,60,12,21,7,12,0.5,0.7
2023-02-01T04:00:00,2171A,112.7532,37.6945,晋中市,锦纶小区,颗粒物(PM10),71,92,86,14,46,79,68,71,59,11,37,4,30,0.3,0.7
2023-02-01T04:00:00,2173A,112.7249,37.7067,晋中市,南都小区,颗粒物(PM10),83,116,89,18,43,84,63,62,62,10,34,6,29,0.2,0.8
2023-02-01T04:00:00,2174A,112.6991,37.6982,晋中市,榆次区政府,颗粒物(PM10),67,83,87,21,39,79,65,66,66,7,31,5,29,0.2,0.7
2023-02-01T04:00:00,2175A,110.9956,35.0147,运城市,运城中学,细颗粒物(PM2.5),204,186,162,154,119,134,18,26,24,60,44,15,21,2.0,2.1
2023-02-01T04:00:00,2178A,110.9686,35.0303,运城市,地区技校,细颗粒物(PM2.5),215,218,180,165,138,139,17,10,10,77,71,16,21,2.1,2.2
2023-02-01T04:00:00,2179A,111.0414,35.1147,运城市,空港新区,细颗粒物(PM2.5),240,202,187,190,151,151,18,58,36,60,54,15,23,2.5,2.7
2023-02-01T04:00:00,2181A,112.7383,38.4519,忻州市,开发区,颗粒物(PM10),85,119,101,13,34,86,66,68,66,3,22,5,9,0.3,0.7
2023-02-01T04:00:00,2182A,112.7003,38.4928,忻州市,会展中心,颗粒物(PM10),73,95,110,9,41,85,58,54,54,7,27,7,10,0.5,0.8
2023-02-01T04:00:00,2183A,111.1406,37.5211,吕梁市,环保局,颗粒物(PM10),60,70,78,22,26,58,7,2,2,49,50,8,13,0.5,0.7
2023-02-01T04:00:00,2185A,111.1297,37.5136,吕梁市,自来水公司,颗粒物(PM10),63,75,85,19,25,61,23,27,13,37,43,9,15,0.4,0.7
2023-02-01T04:00:00,2187A,106.8174,39.6973,乌海市,市林业局,颗粒物(PM10),51,51,55,17,24,86,80,81,81,4,22,8,12,0.5,0.7
2023-02-01T04:00:00,2188A,106.7907,39.6667,乌海市,中海勃湾学校,,47,47,62,6,22,89,75,77,75,12,27,9,12,0.3,0.7
2023-02-01T04:00:00,2191A,122.2532,43.6801,通辽市,艺术职业学校,颗粒物(PM10),84,117,79,8,37,71,71,69,69,8,20,6,10,0,0.6
2023-02-01T04:00:00,2192A,119.7594,49.2261,呼伦贝尔市,区环保局,,33,33,29,22,21,70,64,65,64,5,13,7,7,0.7,0.7
2023-02-01T04:00:00,2195A,107.4212,40.761,巴彦淖尔市,附二中,颗粒物(PM10),54,57,80,22,28,82,53,56,55,11,18,11,12,0.5,0.7
2023-02-01T04:00:00,2196A,107.37,40.7372,巴彦淖尔市,市环保大楼,,45,45,60,18,27,88,61,71,67,15,22,14,7,0.4,0.5
2023-02-01T04:00:00,2197A,113.1306,40.9923,乌兰察布市,集宁新区,,40,40,65,17,20,87,61,68,65,6,10,8,8,0.4,0.4
2023-02-01T04:00:00,2200A,122.0392,46.0656,兴安盟,胜华新制药厂,,29,19,73,20,68,95,72,70,70,7,19,7,6,0.4,0.8
2023-02-01T04:00:00,2201A,121.9504,46.0741,兴安盟,科右前旗环保局,,25,25,90,17,78,81,71,70,70,8,24,2,5,0.3,0.8
2023-02-01T04:00:00,2202A,116.1042,43.9317,锡林郭勒盟,市环保监测站,,19,12,24,7,8,73,58,65,63,7,3,8,7,0.2,0.2
2023-02-01T04:00:00,2203A,116.0781,43.9311,锡林郭勒盟,市政府,,27,27,39,6,8,71,56,61,57,14,7,6,8,0.2,0.2
2023-02-01T04:00:00,2204A,105.6467,38.8363,阿拉善盟,西城区西花园,颗粒物(PM10),73,96,177,26,33,97,79,77,77,8,14,8,8,0.6,0.6
2023-02-01T04:00:00,2205A,105.6985,38.8411,阿拉善盟,蒙二幼,颗粒物(PM10),81,111,193,43,49,98,68,73,72,9,15,9,9,0.6,0.6
2023-02-01T04:00:00,2206A,105.724,38.8516,阿拉善盟,环保局新楼,颗粒物(PM10),66,82,113,36,44,103,68,65,65,7,11,7,8,0.6,0.6
2023-02-01T04:00:00,2207A,121.6094,41.998,阜新市,工业园区,颗粒物(PM10),122,193,84,4,26,59,55,55,55,3,18,5,11,0.7,1
2023-02-01T04:00:00,2208A,121.6697,42.0279,阜新市,长青街,颗粒物(PM10),69,87,78,16,33,76,70,69,69,5,19,8,9,0.5,0.8
2023-02-01T04:00:00,2209A,121.6673,42.0705,阜新市,农业园区,颗粒物(PM10),96,141,79,6,29,68,63,62,62,3,12,7,11,0.6,0.8
2023-02-01T04:00:00,2210A,121.6717,42.0224,阜新市,东苑,颗粒物(PM10),121,192,84,6,35,70,67,65,65,2,16,5,10,0.5,0.8
2023-02-01T04:00:00,2211A,121.6506,42.0498,阜新市,玉龙新城,颗粒物(PM10),93,135,84,13,33,74,66,65,65,2,17,8,12,0.6,0.8
2023-02-01T04:00:00,2212A,123.2,41.1953,辽阳市,宏伟区,颗粒物(PM10),53,56,100,26,61,77,56,41,41,5,30,8,20,0.3,1
2023-02-01T04:00:00,2213A,123.1683,41.2495,辽阳市,新华园,颗粒物(PM10),56,62,105,21,65,90,67,53,53,6,36,6,15,0.4,1
2023-02-01T04:00:00,2214A,123.2354,41.2639,辽阳市,滨河路,颗粒物(PM10),54,58,104,11,82,80,58,42,42,8,34,5,11,0.6,1.1
2023-02-01T04:00:00,2215A,123.149,41.2991,辽阳市,铁西工业园,颗粒物(PM10),55,60,111,10,79,81,55,35,35,8,41,6,13,0.5,1.1
2023-02-01T04:00:00,2216A,123.8139,42.3022,铁岭市,汇工街西,颗粒物(PM10),52,54,88,30,61,78,45,36,36,19,28,8,17,0.5,0.8
2023-02-01T04:00:00,2217A,123.8649,42.2923,铁岭市,水上乐园,细颗粒物(PM2.5),55,56,87,39,59,78,47,42,42,16,27,10,18,0.2,0.5
2023-02-01T04:00:00,2218A,123.8486,42.2867,铁岭市,银州路东段,颗粒物(PM10),64,78,102,42,55,76,42,36,36,19,31,7,12,0.5,0.8
2023-02-01T04:00:00,2219A,123.7153,42.2217,铁岭市,金沙江路北,,44,44,88,26,60,83,50,42,42,13,26,4,10,0.4,0.8
2023-02-01T04:00:00,2220A,120.4318,41.5881,朝阳市,西梁,颗粒物(PM10),63,76,95,5,35,80,74,74,74,3,24,8,16,0.6,1.3
2023-02-01T04:00:00,2221A,120.4521,41.5646,朝阳市,河畔小区,颗粒物(PM10),57,63,78,6,27,77,75,76,76,4,20,5,12,0.4,0.9
2023-02-01T04:00:00,2222A,120.4176,41.5648,朝阳市,八里堡,颗粒物(PM10),59,68,92,5,29,82,74,74,74,3,25,8,15,0.4,1
2023-02-01T04:00:00,2223A,120.3806,41.5969,朝阳市,农业园区,颗粒物(PM10),69,87,99,6,33,83,73,73,73,1,21,6,14,0.5,1
2023-02-01T04:00:00,2225A,124.4002,43.1713,四平市,一商场,细颗粒物(PM2.5),80,81,76,59,44,59,43,38,38,15,25,5,10,0.4,0.7
2023-02-01T04:00:00,2226A,124.388,43.193,四平市,境园,细颗粒物(PM2.5),82,85,78,60,43,64,47,40,40,17,28,10,13,0.5,0.7
2023-02-01T04:00:00,2227A,125.1358,42.8845,辽源市,环保局,细颗粒物(PM2.5),67,58,69,48,52,59,55,43,43,17,33,11,16,0.6,0.8
2023-02-01T04:00:00,2229A,125.9358,41.7173,通化市,光明,细颗粒物(PM2.5),60,68,65,43,36,75,44,37,34,27,36,21,33,0.8,1.1
2023-02-01T04:00:00,2230A,125.9446,41.7325,通化市,铁路,细颗粒物(PM2.5),67,79,75,48,44,74,25,37,27,41,35,17,29,0.7,0.8
2023-02-01T04:00:00,2231A,126.4219,41.9171,白山市,喜丰,颗粒物(PM10),79,107,73,57,36,68,59,66,64,20,27,12,22,1.2,1.2
2023-02-01T04:00:00,2232A,126.4077,41.9419,白山市,环保局,细颗粒物(PM2.5),87,104,80,64,49,61,54,61,58,17,35,14,22,1.3,1.5
2023-02-01T04:00:00,2233A,124.8006,45.1214,松原市,江南,细颗粒物(PM2.5),215,178,108,165,107,76,7,11,10,75,49,19,17,1.4,1.1
2023-02-01T04:00:00,2234A,124.7965,45.1722,松原市,江北,细颗粒物(PM2.5),180,204,150,136,107,79,28,27,27,54,45,9,11,1.5,1.3
2023-02-01T04:00:00,2235A,122.7911,45.6077,白城市,洮北区环保局,细颗粒物(PM2.5),70,45,70,51,69,72,63,47,47,10,27,3,5,0.3,0.7
2023-02-01T04:00:00,2236A,122.8738,45.5725,白城市,市环保局,颗粒物(PM10),51,52,72,18,36,66,58,42,42,14,33,5,6,0.4,0.7
2023-02-01T04:00:00,2237A,129.47,42.8883,延边朝鲜族自治州,妇幼医院,,46,34,52,32,43,34,30,27,26,24,41,13,39,0.8,0.9
2023-02-01T04:00:00,2238A,129.5055,42.9108,延边朝鲜族自治州,延边医院,细颗粒物(PM2.5),62,46,53,44,47,30,19,15,15,40,49,18,36,1.1,1.2
2023-02-01T04:00:00,2239A,129.3964,42.8881,延边朝鲜族自治州,朝阳川镇医院,,33,28,43,23,37,52,33,20,20,17,26,8,20,0.8,0.9
2023-02-01T04:00:00,2240A,130.9762,45.3001,鸡西市,环保局,细颗粒物(PM2.5),119,115,86,90,67,71,41,24,24,30,41,17,16,1.2,1.2
2023-02-01T04:00:00,2243A,130.9429,45.3039,鸡西市,第一中学,细颗粒物(PM2.5),92,85,72,68,56,71,46,35,35,20,23,16,14,0.6,0.6
2023-02-01T04:00:00,2244A,130.2537,47.3416,鹤岗市,哈啤分公司,,35,27,50,24,34,67,66,66,66,7,20,15,18,0.4,0.5
2023-02-01T04:00:00,2245A,130.2684,47.3086,鹤岗市,斯达机电,,33,28,52,23,30,73,72,70,70,5,23,8,24,0.4,0.5
2023-02-01T04:00:00,2246A,130.3114,47.3388,鹤岗市,东山纸板厂,,31,31,78,19,42,70,70,65,65,6,35,12,22,0.4,1
2023-02-01T04:00:00,2247A,130.1097,47.3382,鹤岗市,五号水库,,36,27,35,25,26,71,71,70,69,4,7,8,7,0.2,0.4
2023-02-01T04:00:00,2248A,131.1511,46.6937,双鸭山市,双合村,细颗粒物(PM2.5),83,96,104,61,79,65,36,46,41,25,29,17,20,1.2,1.6
2023-02-01T04:00:00,2249A,131.1652,46.6191,双鸭山市,南小市,,36,27,56,25,41,71,52,62,59,17,19,20,17,0.5,0.7
2023-02-01T04:00:00,2250A,131.1524,46.6554,双鸭山市,环保局,细颗粒物(PM2.5),55,45,65,39,55,70,14,34,27,66,46,15,15,0.7,0.9
2023-02-01T04:00:00,2251A,131.12,46.5656,双鸭山市,苗圃,,39,28,44,27,36,83,62,69,65,11,13,7,8,0.1,0.2
2023-02-01T04:00:00,2252A,128.5159,47.4311,伊春市,环保局,细颗粒物(PM2.5),54,43,43,38,41,57,55,46,46,11,30,5,6,0.7,0.9
2023-02-01T04:00:00,2253A,128.9102,47.7412,伊春市,电力嘉园,,49,49,49,29,28,64,64,49,49,5,23,7,8,0.3,0.5
2023-02-01T04:00:00,2254A,129.5029,48.471,伊春市,汤旺河国家公园,,46,42,38,32,27,82,60,56,56,5,5,6,7,0.3,0.4
2023-02-01T04:00:00,2255A,130.2751,46.8028,佳木斯市,佳纺,细颗粒物(PM2.5),92,75,113,68,99,66,27,32,31,35,39,10,14,0.8,1.1
2023-02-01T04:00:00,2256A,130.3995,46.8307,佳木斯市,发电厂,细颗粒物(PM2.5),108,85,81,81,79,73,38,21,21,30,37,9,9,0.8,0.9
2023-02-01T04:00:00,2257A,130.3258,46.7975,佳木斯市,环保局,细颗粒物(PM2.5),70,58,89,51,80,64,42,36,36,24,47,9,12,0.7,1.1
2023-02-01T04:00:00,2258A,130.3648,46.8032,佳木斯市,十一中,细颗粒物(PM2.5),67,60,83,48,79,58,41,29,29,30,55,17,11,0.6,1
2023-02-01T04:00:00,2259A,130.3794,46.7588,佳木斯市,四丰,,,56,52,46,47,140,,,,12,11,1,1,0.9,0.2
2023-02-01T04:00:00,2262A,131.0518,45.8751,七台河市,新一中,细颗粒物(PM2.5),67,56,52,48,45,92,57,68,63,22,20,6,8,0.8,0.8
2023-02-01T04:00:00,2263A,127.4833,50.2524,黑河市,交通局,,30,27,91,21,68,46,46,37,37,13,48,8,24,0.6,1.2
2023-02-01T04:00:00,2264A,127.5144,50.2341,黑河市,环保局,,32,24,110,22,63,57,57,55,55,8,34,8,22,0.4,1.1
2023-02-01T04:00:00,2265A,127.5291,50.2472,黑河市,大黑河岛,,39,22,55,27,59,72,64,58,58,3,9,3,11,0.4,0.7
2023-02-01T04:00:00,2266A,126.9785,46.6365,绥化市,人和东街,细颗粒物(PM2.5),192,168,166,144,146,87,87,75,75,27,50,8,8,1.0,1.2
2023-02-01T04:00:00,2267A,126.964,46.6528,绥化市,党政办公中心,细颗粒物(PM2.5),211,188,228,161,187,90,85,84,80,28,56,9,14,0.9,1.2
2023-02-01T04:00:00,2269A,124.1069,50.4097,大兴安岭地区,科技局,,40,26,33,28,24,57,46,44,44,9,12,5,12,0.2,0.2
2023-02-01T04:00:00,2270A,117.396,32.939,蚌埠市,工人疗养院,细颗粒物(PM2.5),118,128,97,89,67,126,59,66,61,38,34,13,9,0.7,0.7
2023-02-01T04:00:00,2271A,117.3605,32.9427,蚌埠市,百货大楼,细颗粒物(PM2.5),124,120,96,94,70,125,41,44,44,50,52,12,13,0.8,0.8
2023-02-01T04:00:00,2273A,117.4185,32.8911,蚌埠市,蚌埠学院,,,149,103,100,63,129,1,16,7,104,49,58,20,0.9,0.7
2023-02-01T04:00:00,2274A,117.3533,32.9673,蚌埠市,淮上区政府,细颗粒物(PM2.5),122,134,107,92,66,129,58,57,57,37,39,12,13,0.7,0.7
2023-02-01T04:00:00,2275A,117.3145,32.8977,蚌埠市,高新区,细颗粒物(PM2.5),132,129,107,100,72,121,18,10,10,86,66,21,15,0.8,0.7
2023-02-01T04:00:00,2277A,116.8305,32.7727,淮南市,潘集区政府,细颗粒物(PM2.5),176,168,111,133,83,121,26,45,23,55,36,18,9,0.8,0.7
2023-02-01T04:00:00,2278A,117.0067,32.6524,淮南市,师范学院,细颗粒物(PM2.5),108,133,105,81,63,114,34,53,45,41,49,12,12,0.7,0.9
2023-02-01T04:00:00,2279A,116.8569,32.5951,淮南市,谢家集区政府,细颗粒物(PM2.5),103,134,84,77,54,123,52,64,59,39,28,16,12,0.7,0.7
2023-02-01T04:00:00,2280A,116.8281,32.633,淮南市,八公山区政府,细颗粒物(PM2.5),138,140,92,105,58,118,50,76,64,36,22,15,13,0.6,0.6
2023-02-01T04:00:00,2281A,116.6325,32.6201,淮南市,焦岗湖风景区管理处,颗粒物(PM10),87,124,92,8,4,108,26,31,30,15,10,6,5,0.9,0.9
2023-02-01T04:00:00,2282A,116.8004,33.975,淮北市,监测站,细颗粒物(PM2.5),175,189,151,132,105,124,66,55,55,40,48,13,13,0.9,0.9
2023-02-01T04:00:00,2283A,116.8091,33.9007,淮北市,烈山区政府,细颗粒物(PM2.5),202,191,148,152,111,152,20,33,26,80,53,8,12,1.1,0.9
2023-02-01T04:00:00,2284A,116.7856,33.9477,淮北市,职业技术学院,细颗粒物(PM2.5),185,35,112,139,106,127,31,34,31,62,62,12,13,1.0,0.9
2023-02-01T04:00:00,2285A,117.8177,30.9412,铜陵市,市第四中学,颗粒物(PM10),62,73,69,42,41,107,11,22,11,58,50,9,15,0.9,1.1
2023-02-01T04:00:00,2286A,117.8059,30.9273,铜陵市,市公路局,"颗粒物(PM10),细颗粒物(PM2.5)",55,60,61,39,39,97,25,27,25,30,35,13,13,0.7,0.9
2023-02-01T04:00:00,2287A,117.7807,30.9413,铜陵市,市新民污水厂,颗粒物(PM10),67,84,77,45,43,110,3,3,3,50,53,6,9,1.0,0.9
2023-02-01T04:00:00,2288A,117.7439,30.8792,铜陵市,市第九中学,颗粒物(PM10),101,152,100,49,42,87,5,5,5,75,54,15,18,0.9,0.9
2023-02-01T04:00:00,2289A,117.846,30.9413,铜陵市,车站新区,,45,45,57,26,33,101,50,43,43,21,32,5,12,0.4,0.8
2023-02-01T04:00:00,2290A,117.8483,30.97,铜陵市,市职教基地,细颗粒物(PM2.5),58,57,65,41,39,113,7,36,14,46,30,10,16,0.4,0.6
2023-02-01T04:00:00,2291A,117.0809,30.5177,安庆市,环科院,细颗粒物(PM2.5),74,65,63,54,45,105,27,46,38,51,43,10,10,0.8,0.8
2023-02-01T04:00:00,2292A,117.0331,30.5119,安庆市,马山宾馆,细颗粒物(PM2.5),70,66,62,51,41,110,44,51,50,39,35,11,15,0.7,0.7
2023-02-01T04:00:00,2294A,116.9896,30.6145,安庆市,安庆大学,细颗粒物(PM2.5),67,56,50,48,36,121,11,21,16,51,29,8,11,1.0,0.8
2023-02-01T04:00:00,2295A,118.2903,29.6963,黄山市,延安路89号,,18,18,30,8,20,101,19,24,18,11,14,5,6,0.2,0.3
2023-02-01T04:00:00,2296A,118.327,29.7178,黄山市,黄山东路89号,,35,30,44,24,30,97,10,12,11,16,25,6,7,0.6,0.7
2023-02-01T04:00:00,2297A,118.1371,30.2756,黄山市,黄山区政府5号楼,,32,27,56,22,26,102,21,23,20,7,12,5,6,0.5,0.6
2023-02-01T04:00:00,2298A,118.3093,32.3153,滁州市,老年大学,细颗粒物(PM2.5),82,75,79,60,54,119,20,22,21,42,46,6,9,0.7,0.8
2023-02-01T04:00:00,2299A,118.3244,32.2786,滁州市,人大宾馆,细颗粒物(PM2.5),112,103,93,84,61,116,49,51,51,42,52,10,9,0.8,0.8
2023-02-01T04:00:00,2301A,115.8277,32.8929,阜阳市,市监测站,细颗粒物(PM2.5),122,134,106,92,80,126,50,53,52,43,50,11,11,0.6,0.7
2023-02-01T04:00:00,2303A,115.8554,32.8605,阜阳市,开发区,细颗粒物(PM2.5),129,145,130,98,76,125,74,73,73,24,39,10,9,0.9,1
2023-02-01T04:00:00,2307A,116.5079,31.737,六安市,监测大楼,细颗粒物(PM2.5),85,89,61,63,41,113,3,51,16,61,31,7,8,0.9,0.5
2023-02-01T04:00:00,2308A,116.4738,31.7643,六安市,皖西学院,细颗粒物(PM2.5),107,111,78,80,50,121,4,8,7,47,36,4,6,0.6,0.5
2023-02-01T04:00:00,2309A,116.4996,31.7905,六安市,朝阳厂,细颗粒物(PM2.5),112,97,70,84,55,118,17,29,17,51,41,6,7,0.7,0.7
2023-02-01T04:00:00,2310A,116.5567,31.7886,六安市,开发区,细颗粒物(PM2.5),113,123,90,85,55,122,10,30,18,58,32,9,9,0.7,0.5
2023-02-01T04:00:00,2311A,115.8072,33.8399,亳州市,污水处理厂,细颗粒物(PM2.5),186,184,140,140,105,124,69,73,72,30,28,9,10,0.8,0.7
2023-02-01T04:00:00,2312A,115.7789,33.8518,亳州市,三国揽胜宫,细颗粒物(PM2.5),202,207,163,152,109,139,76,84,80,29,38,10,12,1.0,1
2023-02-01T04:00:00,2314A,117.47,30.6618,池州市,池州学院,细颗粒物(PM2.5),53,52,58,37,37,107,24,15,12,38,27,5,10,0.7,0.8
2023-02-01T04:00:00,2316A,118.7581,30.9454,宣城市,鳌峰子站,,48,48,44,31,28,97,43,30,30,25,24,6,7,0.4,0.4
2023-02-01T04:00:00,2317A,118.7385,30.9743,宣城市,敬亭山子站,,44,44,41,30,23,101,55,74,59,18,22,8,9,0.3,0.4
2023-02-01T04:00:00,2318A,118.7173,30.9427,宣城市,开发区子站,颗粒物(PM10),54,58,44,36,29,106,5,51,22,63,38,4,6,0.6,0.6
2023-02-01T04:00:00,2319A,119.0141,25.4325,莆田市,荔城区仓后路,颗粒物(PM10),58,66,54,40,35,122,49,49,47,17,18,7,8,0.8,0.7
2023-02-01T04:00:00,2320A,119.0015,25.4553,莆田市,莆田市监测站,,49,41,40,34,26,122,55,65,59,8,10,6,7,0.5,0.5
2023-02-01T04:00:00,2321A,119.1119,25.4561,莆田市,涵江区六中,细颗粒物(PM2.5),62,61,56,44,46,122,49,45,45,26,18,7,7,0.6,0.6
2023-02-01T04:00:00,2322A,119.1013,25.3215,莆田市,秀屿区政府,细颗粒物(PM2.5),113,76,55,85,47,126,68,68,65,20,16,6,7,0.7,0.6
2023-02-01T04:00:00,2323A,118.981,25.4792,莆田市,东圳水库,,,,,,,,,,,,,,,,
2023-02-01T04:00:00,2324A,117.6211,26.2625,三明市,三钢,,48,36,49,33,35,102,16,10,10,26,30,7,13,0.8,1.3
2023-02-01T04:00:00,2325A,117.635,26.2714,三明市,三明二中,,49,42,57,34,36,93,13,11,11,30,32,4,8,0.9,1.4
2023-02-01T04:00:00,2326A,117.6028,26.2378,三明市,三元区政府,,39,35,55,27,38,99,14,16,16,26,32,3,11,1.0,1.2
2023-02-01T04:00:00,2327A,117.7275,26.3108,三明市,洋溪,,,,,,,,,,,,,,,,
2023-02-01T04:00:00,2331A,118.0966,26.6761,南平市,茫荡山,,,,,,,,,,,,,,,,
2023-02-01T04:00:00,2332A,118.1681,26.6369,南平市,南平市监测站,细颗粒物(PM2.5),112,97,103,84,84,148,35,40,37,20,26,7,6,0.6,1
2023-02-01T04:00:00,2333A,118.1825,26.6489,南平市,南平铝业有限公司,细颗粒物(PM2.5),117,96,101,88,87,146,30,32,30,21,23,11,10,0.8,0.9
2023-02-01T04:00:00,2334A,118.1756,26.6272,南平市,南平七中,细颗粒物(PM2.5),124,99,95,94,83,146,32,37,32,22,28,6,6,0.9,1.1
2023-02-01T04:00:00,2335A,117.0189,25.1181,龙岩市,龙岩师专,,,,,,,,,,,,,,,,
2023-02-01T04:00:00,2336A,117.0217,25.1033,龙岩市,龙岩市监测站,,34,34,36,21,23,102,33,34,33,23,21,7,6,0.5,0.6
2023-02-01T04:00:00,2337A,117.0258,25.0661,龙岩市,闽西职业技术学院,,29,29,36,17,20,99,30,24,24,23,19,16,10,0.5,0.6
2023-02-01T04:00:00,2338A,117.0196,25.0306,龙岩市,龙岩学院,,22,22,25,10,14,98,68,65,63,7,8,6,5,0.2,0.3
2023-02-01T04:00:00,2339A,119.5001,26.6946,宁德市,金涵水库,,,,,,,,,,,,,,,,
2023-02-01T04:00:00,2341A,119.5388,26.6612,宁德市,宁德市监测站,,36,36,40,24,24,114,27,41,30,19,17,5,6,0.7,0.8
2023-02-01T04:00:00,2342A,117.3102,29.3867,景德镇市,王港中学,,28,28,35,16,23,118,10,16,14,6,12,4,5,0.8,0.4
2023-02-01T04:00:00,2343A,117.2117,29.2933,景德镇市,老干部活动中心,"颗粒物(PM10),细颗粒物(PM2.5)",65,80,66,47,36,95,4,3,3,35,30,7,8,0.6,0.7
2023-02-01T04:00:00,2344A,117.1894,29.2789,景德镇市,兽医站,细颗粒物(PM2.5),53,38,46,37,33,108,9,9,9,40,26,5,7,0.4,0.5
2023-02-01T04:00:00,2345A,117.1547,29.2617,景德镇市,台达陶瓷,,48,48,47,25,27,102,35,18,18,24,32,4,6,0.7,0.8
2023-02-01T04:00:00,2346A,117.2461,29.2956,景德镇市,陶研所,颗粒物(PM10),54,58,55,27,24,96,3,3,3,33,27,4,5,0.6,0.7
2023-02-01T04:00:00,2347A,114.0997,27.5002,萍乡市,武功山,,28,20,29,19,22,104,40,50,44,9,12,9,10,0.3,0.4
2023-02-01T04:00:00,2348A,113.8385,27.6434,萍乡市,中医院,细颗粒物(PM2.5),74,90,81,54,50,110,1,2,1,33,33,12,14,1.2,1.4
2023-02-01T04:00:00,2349A,113.8493,27.6253,萍乡市,市政府车库,细颗粒物(PM2.5),80,80,83,59,57,123,4,7,5,34,31,7,9,1.3,1.5
2023-02-01T04:00:00,2350A,113.8676,27.6435,萍乡市,市环保局,细颗粒物(PM2.5),72,67,71,52,49,116,15,18,15,35,31,15,19,0.6,0.9
2023-02-01T04:00:00,2351A,113.866,27.6198,萍乡市,安源区政府,细颗粒物(PM2.5),82,69,76,60,55,122,13,14,12,32,32,15,21,1.7,1.4
2023-02-01T04:00:00,2352A,115.0861,27.9317,新余市,北岗,,43,37,34,30,25,92,22,39,30,23,19,10,7,0.5,0.5
2023-02-01T04:00:00,2353A,114.9886,27.8431,新余市,飞宇,颗粒物(PM10),60,70,66,37,31,85,23,16,14,32,32,23,10,0.7,0.6
2023-02-01T04:00:00,2354A,114.9231,27.8246,新余市,第二水厂,颗粒物(PM10),69,87,81,49,44,79,7,7,7,47,44,10,14,0.9,0.8
2023-02-01T04:00:00,2355A,114.9308,27.8036,新余市,市气象局,颗粒物(PM10),60,70,65,30,39,99,16,9,9,30,34,11,15,0.4,0.8
2023-02-01T04:00:00,2357A,116.9822,28.1136,鹰潭市,龙虎山,,30,30,36,13,18,123,48,61,51,2,2,3,3,1.0,1
2023-02-01T04:00:00,2358A,117.0564,28.2642,鹰潭市,新监测站,细颗粒物(PM2.5),72,60,53,52,34,109,18,28,26,33,29,170,57,0.6,0.5
2023-02-01T04:00:00,2359A,117.0311,28.2475,鹰潭市,财苑宾馆,细颗粒物(PM2.5),53,54,59,37,35,158,28,47,42,27,30,86,54,0.6,0.4
2023-02-01T04:00:00,2360A,117.0222,28.2264,鹰潭市,体育馆,臭氧1小时,122,58,53,43,33,244,244,126,126,51,24,74,14,0.6,0.6
2023-02-01T04:00:00,2361A,117.0017,28.2131,鹰潭市,三川水表,颗粒物(PM10),56,62,51,36,28,108,88,64,64,44,19,20,6,0.6,0.4
2023-02-01T04:00:00,2362A,114.9017,25.9149,赣州市,通天岩,,40,40,39,20,15,110,79,82,81,6,13,5,5,1.1,1.1
2023-02-01T04:00:00,2363A,114.9367,25.8664,赣州市,地委,,40,40,41,23,20,108,36,95,71,29,21,14,11,1.0,0.9
2023-02-01T04:00:00,2364A,114.9461,25.8481,赣州市,气象台,,31,31,33,20,24,91,56,80,72,13,17,7,7,1.0,1
2023-02-01T04:00:00,2365A,114.9322,25.8333,赣州市,市图书馆,,33,33,38,22,21,84,58,74,68,17,28,5,6,1.1,1.2
2023-02-01T04:00:00,2366A,114.8905,25.8471,赣州市,华坚鞋城,,41,41,45,17,21,78,37,54,49,16,21,5,5,0.9,0.9
2023-02-01T04:00:00,2367A,114.9754,27.0803,吉安市,红声器材厂,,44,44,46,20,24,104,11,56,36,38,16,14,11,0.8,0.6
2023-02-01T04:00:00,2368A,114.9658,27.0999,吉安市,市森林工业局,,45,45,45,26,29,104,27,44,33,33,27,9,10,0.4,0.5
2023-02-01T04:00:00,2369A,114.99,27.1312,吉安市,市环境监测站,,50,50,54,33,65,105,5,41,30,41,22,5,6,0.6,0.4
2023-02-01T04:00:00,2370A,115.0093,27.0968,吉安市,青原区法院,,34,34,40,19,22,109,21,46,37,19,17,9,9,0.5,0.5
2023-02-01T04:00:00,2371A,114.3408,27.8064,宜春市,槟榔水业,颗粒物(PM10),60,69,60,42,35,70,9,19,13,25,25,7,9,0.3,0.3
2023-02-01T04:00:00,2373A,114.3956,27.7844,宜春市,市石油公司,,43,42,59,30,35,115,35,32,32,14,35,2,4,0.6,0.8
2023-02-01T04:00:00,2374A,114.3703,27.7914,宜春市,市气象局,,45,44,54,31,34,105,42,45,41,13,26,2,4,0.2,0.9
2023-02-01T04:00:00,2375A,114.4013,27.8074,宜春市,市广电局,颗粒物(PM10),65,79,89,45,46,116,31,17,17,20,43,2,5,0.7,1.1
2023-02-01T04:00:00,2376A,116.2127,28.0814,抚州市,桐源党溪,,50,50,51,33,34,106,4,4,3,60,30,2,2,0.5,0.6
2023-02-01T04:00:00,2377A,116.3544,27.9831,抚州市,市站,细颗粒物(PM2.5),80,85,62,59,37,103,13,16,12,52,35,5,4,0.7,0.8
2023-02-01T04:00:00,2378A,116.3565,27.963,抚州市,血防站,颗粒物(PM10),54,58,54,29,27,94,10,22,13,48,31,7,6,0.9,0.9
2023-02-01T04:00:00,2379A,116.3564,28.0007,抚州市,采茶剧团,,45,45,48,28,30,102,12,53,31,48,23,5,5,0.9,0.8
2023-02-01T04:00:00,2380A,116.385,27.9647,抚州市,医学分院,,39,39,42,21,20,100,43,57,49,20,18,5,7,0.6,0.7
2023-02-01T04:00:00,2381A,118.005,28.4572,上饶市,百草园,细颗粒物(PM2.5),57,47,59,40,24,54,19,22,21,21,16,24,12,1.0,1
2023-02-01T04:00:00,2382A,117.9756,28.4436,上饶市,市监测站,颗粒物(PM10),52,53,46,34,25,100,30,27,27,38,29,67,28,0.6,0.5
