timepoint,stationcode,longitude,latitude,area,positionname,primarypollutant,aqi,pm10,pm10_24h,pm2_5,pm2_5_24h,o3,o3_24h,o3_8h,o3_8h_24h,no2,no2_24h,so2,so2_24h,co,co_24h
2025-04-06T1600,2566A,102.1879,31.914,阿坝藏族羌族自治州,州农科所,,25,9,35,3,13,79,,67,67,10,13,13,13,0.4,0.5
2025-04-06T1600,2568A,102.2502,31.8896,阿坝藏族羌族自治州,马师校,,30,13,14,7,12,96,,74,74,5,9,5,5,0.4,0.5
2025-04-06T1600,3994A,102.2165,31.9024,阿坝藏族羌族自治州,马尔康中学西区,,31,12,14,6,11,99,,78,78,9,9,3,3,0.4,0.3
2025-04-06T1600,2695A,80.292,41.1694,阿克苏地区,电视台,颗粒物(PM10),121,191,341,50,86,118,,75,75,6,22,5,6,0.3,0.4
2025-04-06T1600,2696A,80.2613,41.1551,阿克苏地区,艺术中心,颗粒物(PM10),129,207,369,45,97,117,,77,77,7,26,3,4,0.5,0.7
2025-04-06T1600,2204A,105.6467,38.8363,阿拉善盟,西城区西花园,颗粒物(PM10),91,132,191,29,51,114,,108,108,4,5,12,13,0.6,0.6
2025-04-06T1600,2205A,105.6985,38.8411,阿拉善盟,蒙二幼,颗粒物(PM10),111,171,205,49,60,103,,98,98,7,10,5,6,0.4,0.5
2025-04-06T1600,2206A,105.724,38.8516,阿拉善盟,环保局新楼,颗粒物(PM10),112,173,191,52,58,102,,103,101,3,4,8,9,0.6,0.6
2025-04-06T1600,2708A,88.1264,47.8517,阿勒泰地区,市站,,37,37,22,8,6,88,,97,76,4,7,4,3,0.5,0.5
2025-04-06T1600,2630A,80.1161,32.5,阿里地区,阿里监测站,,36,6,12,3,5,114,,94,94,2,7,5,7,0.4,0.4
2025-04-06T1600,3192A,80.0903,32.5028,阿里地区,阿里藏医院,,,9,22,3,7,,,,,1,9,6,9,0.4,0.5
2025-04-06T1600,2642A,109.0318,32.6537,安康市,香溪洞,颗粒物(PM10),68,86,80,35,34,122,,92,92,7,9,6,9,0.6,0.6
2025-04-06T1600,2644A,109.0072,32.6975,安康市,汉滨区检察院,颗粒物(PM10),66,82,105,34,33,129,,89,89,7,16,8,10,0.4,0.4
2025-04-06T1600,4054A,109.0325,32.6913,安康市,市邮政管理局,颗粒物(PM10),66,82,107,31,36,132,,90,90,7,21,6,9,0.5,0.6
2025-04-06T1600,2291A,117.0809,30.5177,安庆市,环科院,颗粒物(PM10),66,82,92,23,33,151,,101,101,14,52,10,12,0.4,0.7
2025-04-06T1600,2292A,117.0331,30.5119,安庆市,马山宾馆,颗粒物(PM10),64,77,87,21,41,150,,103,103,19,48,6,7,0.2,0.5
2025-04-06T1600,2294A,116.9896,30.6145,安庆市,安庆大学,颗粒物(PM10),65,80,89,22,28,162,,136,136,10,26,7,6,0.4,0.5
2025-04-06T1600,3173A,117.0598,30.5351,安庆市,市人大,颗粒物(PM10),64,78,91,21,34,156,,122,122,7,36,8,8,0.3,0.6
2025-04-06T1600,3122A,105.9606,26.2611,安顺市,伍家关,细颗粒物(PM2.5),57,51,49,40,34,82,,83,83,9,8,7,15,0.8,0.7
2025-04-06T1600,3123A,105.9408,26.2431,安顺市,凤凰山,颗粒物(PM10),51,51,53,35,38,95,,92,92,11,11,8,18,0.5,0.5
2025-04-06T1600,3124A,105.9439,26.2564,安顺市,金钟山,颗粒物(PM10),51,51,53,34,38,98,,96,96,12,10,7,16,0.7,0.6
2025-04-06T1600,3125A,105.8983,26.2481,安顺市,娄家坡,,49,42,50,34,38,102,,96,96,8,10,5,15,0.8,0.8
2025-04-06T1600,1818A,114.4839,36.0621,安阳市,棉研所,,,,,,,,,,,,,,,,
2025-04-06T1600,1819A,114.3551,36.1017,安阳市,红庙街,颗粒物(PM10),90,130,90,42,30,134,,89,89,7,15,9,8,0.5,0.4
2025-04-06T1600,1820A,114.361,36.0681,安阳市,银杏小区,颗粒物(PM10),91,131,93,53,38,143,,94,94,8,19,9,7,0.2,0.2
2025-04-06T1600,3141A,114.3922,36.0878,安阳市,信访局,颗粒物(PM10),103,156,101,49,36,149,,98,98,8,20,8,6,0.4,0.4
2025-04-06T1600,3669A,114.4705,36.0637,安阳市,左辅环卫站,颗粒物(PM10),101,151,110,42,32,144,,103,103,4,10,8,6,0.4,0.4
2025-04-06T1600,3703A,114.2917,36.0949,安阳市,安钢职工学校,颗粒物(PM10),118,185,109,36,34,134,,89,89,14,20,7,9,0.7,0.6
2025-04-06T1600,1748A,123.044,41.1196,鞍山市,深沟寺,细颗粒物(PM2.5),55,57,55,39,32,116,,97,97,13,24,10,15,0.6,1.1
2025-04-06T1600,1749A,123.011,41.0931,鞍山市,太阳城,"颗粒物(PM10),细颗粒物(PM2.5)",53,56,60,37,36,115,,92,92,12,25,6,13,0.7,1.3
2025-04-06T1600,1750A,123.0485,41.1442,鞍山市,太平,颗粒物(PM10),58,66,65,38,32,111,,92,92,13,24,9,14,0.6,1.1
2025-04-06T1600,1751A,122.9642,41.0971,鞍山市,铁西三道街,颗粒物(PM10),60,70,71,40,38,107,,83,83,23,38,24,18,1.3,1.4
2025-04-06T1600,1753A,123.022,41.0821,鞍山市,明达新区,细颗粒物(PM2.5),57,56,59,40,36,114,,94,94,10,20,7,14,0.6,1
2025-04-06T1600,1754A,123.1289,41.0228,鞍山市,千山,,,,24,,13,,,50,,,12,,4,,1.0
2025-04-06T1600,4201A,122.9446,41.0826,鞍山市,兴盛南路290号,颗粒物(PM10),59,68,74,40,40,110,,90,90,24,37,23,21,1.0,1.3
2025-04-06T1600,2195A,107.4212,40.761,巴彦淖尔市,附二中,颗粒物(PM10),82,114,194,27,50,117,,102,102,4,9,8,8,0.3,0.3
2025-04-06T1600,2196A,107.37,40.7372,巴彦淖尔市,市环保大楼,颗粒物(PM10),85,119,197,19,53,112,,98,98,3,8,5,5,0.2,0.2
2025-04-06T1600,1956A,86.1472,41.7538,巴音郭楞蒙古自治州,孔雀公园,颗粒物(PM10),145,240,628,55,120,93,,63,63,9,33,6,6,0.2,0.3
2025-04-06T1600,1957A,86.1972,41.7166,巴音郭楞蒙古自治州,棉纺厂,颗粒物(PM10),358,466,716,65,126,89,,61,61,10,30,3,3,0.3,0.3
2025-04-06T1600,1958A,86.2357,41.7173,巴音郭楞蒙古自治州,经济开发区,颗粒物(PM10),236,375,630,71,112,96,,78,78,6,13,5,6,0.2,0.2
2025-04-06T1600,2914A,106.7677,31.8794,巴中市,苏山坪,,37,37,55,18,30,110,,87,87,8,14,4,4,0.3,0.4
2025-04-06T1600,3181A,106.7768,31.8526,巴中市,市五中,,39,39,62,15,34,111,,80,80,8,23,6,6,0.4,0.6
2025-04-06T1600,3183A,106.7418,31.8654,巴中市,圣泉水务公司,,38,38,54,19,30,114,,83,83,1,24,4,4,0.3,0.5
2025-04-06T1600,3616A,106.7616,31.8344,巴中市,市中心医院,,36,36,60,23,41,113,,84,84,10,23,6,6,0.4,0.7
2025-04-06T1600,2235A,122.7911,45.6077,白城市,洮北区环保局,,33,32,70,20,57,104,,82,82,9,13,2,4,0.6,0.8
2025-04-06T1600,2236A,122.8738,45.5725,白城市,市环保局,,35,29,61,24,58,104,,83,83,7,10,2,3,0.5,0.6
2025-04-06T1600,2231A,126.4219,41.9171,白山市,喜丰,,36,36,31,23,17,56,,61,61,16,16,7,6,1.2,1.2
2025-04-06T1600,2232A,126.4077,41.9419,白山市,环保局,,44,44,33,15,14,49,,57,57,22,17,6,6,1.0,1
2025-04-06T1600,2647A,104.1724,36.5446,白银市,第三小学,颗粒物(PM10),87,123,90,29,26,107,,88,88,11,22,16,26,0.3,0.5
2025-04-06T1600,2648A,104.1465,36.5482,白银市,动力公司,颗粒物(PM10),74,97,77,31,25,110,,96,96,11,15,12,10,0.4,0.6
2025-04-06T1600,2512A,106.6103,23.9011,百色市,市监测站,细颗粒物(PM2.5),90,96,80,67,56,102,,50,50,19,22,20,12,1.2,1
2025-04-06T1600,2513A,106.6538,23.8859,百色市,市中心血站,细颗粒物(PM2.5),114,103,91,86,72,103,,60,60,18,22,17,16,1.0,1
2025-04-06T1600,3406A,106.6085,23.8798,百色市,祈福高中,细颗粒物(PM2.5),103,101,86,77,59,68,,38,38,28,27,10,8,1.1,1
2025-04-06T1600,2270A,117.396,32.939,蚌埠市,工人疗养院,颗粒物(PM10),84,117,100,22,22,150,,129,129,9,18,5,6,0.5,0.5
2025-04-06T1600,2271A,117.3605,32.9427,蚌埠市,百货大楼,颗粒物(PM10),80,110,101,24,24,138,,121,121,16,25,6,7,0.3,0.4
2025-04-06T1600,2273A,117.4185,32.8911,蚌埠市,蚌埠学院,颗粒物(PM10),93,136,107,23,23,146,,127,127,9,21,4,4,0.4,0.5
2025-04-06T1600,2274A,117.3533,32.9673,蚌埠市,淮上区政府,颗粒物(PM10),82,114,100,30,28,150,,130,130,10,24,6,6,0.2,0.3
2025-04-06T1600,2275A,117.3145,32.8977,蚌埠市,高新区,颗粒物(PM10),87,124,105,21,28,146,,125,125,6,27,5,8,0.4,0.4
2025-04-06T1600,3715A,117.3092,32.9314,蚌埠市,蚌埠田家炳中学,颗粒物(PM10),82,114,122,27,30,150,,129,129,15,33,6,29,0.3,0.3
2025-04-06T1600,1585A,109.8756,40.6532,包头市,市环境监测站,颗粒物(PM10),107,164,88,67,35,115,,98,98,11,52,11,20,0.4,1
2025-04-06T1600,1587A,109.9991,40.5842,包头市,包头八中,颗粒物(PM10),121,191,98,66,43,119,,93,93,12,48,10,19,0.4,0.8
2025-04-06T1600,1588A,109.8538,40.6821,包头市,青山宾馆,颗粒物(PM10),86,122,85,36,40,112,,84,84,6,46,8,18,0.4,1
2025-04-06T1600,1589A,109.8642,40.6288,包头市,惠龙物流,颗粒物(PM10),106,161,85,59,36,117,,94,94,10,48,9,20,0.6,1
2025-04-06T1600,1590A,110.0377,40.5546,包头市,东河鸿龙湾,颗粒物(PM10),121,192,106,59,34,121,,92,92,6,43,8,13,0.4,0.8
2025-04-06T1600,3283A,109.9154,40.5685,包头市,滨河大厦,颗粒物(PM10),121,191,80,69,32,118,,96,96,5,48,8,14,0.5,0.8
2025-04-06T1600,3419A,109.9447,40.6261,包头市,包头市委党校,颗粒物(PM10),103,155,79,59,30,121,,96,96,10,43,11,17,0.6,0.9
2025-04-06T1600,3683A,109.8331,40.6576,包头市,昆区政府,颗粒物(PM10),96,142,89,35,44,110,,85,85,12,53,8,20,0.4,1.1
2025-04-06T1600,1930A,107.185,34.3063,宝鸡市,庙沟村,颗粒物(PM10),74,97,105,33,41,132,,110,110,8,17,10,7,0.4,0.5
2025-04-06T1600,1931A,107.0708,34.3017,宝鸡市,竹园沟,颗粒物(PM10),77,104,108,29,38,136,,104,104,8,19,8,7,0.3,0.4
2025-04-06T1600,1932A,107.1906,34.3672,宝鸡市,三陆医院,颗粒物(PM10),80,110,112,17,40,131,,91,91,7,26,8,8,0.4,0.6
2025-04-06T1600,1933A,107.1431,34.3547,宝鸡市,监测站,颗粒物(PM10),80,110,122,34,50,125,,91,91,12,23,11,9,0.4,0.5
2025-04-06T1600,1934A,107.1186,34.3739,宝鸡市,技工学校,颗粒物(PM10),81,112,118,32,49,128,,94,94,10,17,8,8,0.4,0.6
2025-04-06T1600,1935A,107.3906,34.3528,宝鸡市,陈仓区环保局家属楼,颗粒物(PM10),74,97,115,26,38,132,,105,105,17,35,8,40,0.5,0.7
2025-04-06T1600,1936A,107.2058,34.3497,宝鸡市,文理学院,颗粒物(PM10),74,97,112,53,50,132,,96,96,10,23,9,7,0.4,0.5
2025-04-06T1600,1937A,107.2386,34.3622,宝鸡市,三迪小学,颗粒物(PM10),73,96,118,39,49,127,,90,90,16,33,10,8,0.4,0.5
2025-04-06T1600,1051A,115.493,38.8632,保定市,游泳馆,细颗粒物(PM2.5),84,105,76,62,41,142,,88,88,22,29,13,12,0.4,0.4
2025-04-06T1600,1052A,115.5213,38.8959,保定市,华电二区,颗粒物(PM10),63,75,63,42,34,142,,85,85,16,20,3,4,0.4,0.2
2025-04-06T1600,1053A,115.4713,38.9108,保定市,接待中心,细颗粒物(PM2.5),72,80,69,52,41,137,,81,81,17,20,4,4,0.3,0.3
2025-04-06T1600,1054A,115.4612,38.8416,保定市,地表水厂,颗粒物(PM10),80,110,80,44,29,145,,92,92,22,29,5,6,0.4,0.4
2025-04-06T1600,3581A,115.31981,38.95208,保定市,满城区生态环境分局,颗粒物(PM10),69,88,75,46,44,125,,84,84,25,31,3,3,0.4,0.4
2025-04-06T1600,3582A,115.47694,38.76408,保定市,清苑区第二中学,颗粒物(PM10),81,111,86,42,33,140,,40,,20,28,7,7,0.4,0.4
2025-04-06T1600,3583A,115.62909,39.02311,保定市,徐水物探局,颗粒物(PM10),84,118,86,48,27,144,,87,87,22,29,9,9,0.2,0.2
2025-04-06T1600,4004A,115.4202,38.8656,保定市,双鹰农机,颗粒物(PM10),68,86,80,42,30,142,,88,88,22,30,5,6,0.2,0.2
2025-04-06T1600,4034A,115.5150,38.8590,保定市,植保所站,细颗粒物(PM2.5),144,,75,110,44,135,,80,80,22,23,4,4,0.2,0.2
2025-04-06T1600,2594A,99.1678,25.1081,保山市,市环境监测站,,50,50,75,32,56,134,,88,88,8,15,8,6,0.5,0.7
2025-04-06T1600,2595A,99.1711,25.1328,保山市,市环保局,细颗粒物(PM2.5),54,56,78,38,53,143,,94,94,8,13,6,5,0.6,0.8
2025-04-06T1600,1866A,109.2262,21.588,北海市,牛尾岭水库,,,,65,,62,,,79,,,12,,6,,0.7
2025-04-06T1600,1867A,109.1436,21.4086,北海市,海滩公园,颗粒物(PM10),57,64,58,22,35,134,,101,101,13,21,8,7,0.7,0.8
2025-04-06T1600,1868A,109.0981,21.4661,北海市,新市环保局,颗粒物(PM10),52,53,60,34,41,116,,102,102,23,16,5,5,0.4,0.4
2025-04-06T1600,1869A,109.1778,21.5233,北海市,北海工业园,细颗粒物(PM2.5),62,62,67,44,46,111,,98,98,18,15,13,9,0.5,0.3
2025-04-06T1600,3400A,109.1911,21.4415,北海市,龙潭自来水厂,,49,49,53,30,40,124,,96,96,13,13,8,8,0.6,0.6
2025-04-06T1600,1001A,116.3621,39.8784,北京市,万寿西宫,颗粒物(PM10),77,104,75,51,28,146,,100,100,25,36,10,9,0.5,0.4
2025-04-06T1600,1002A,116.2202,40.2915,北京市,定陵,,,,,,,,,,,,,,,,
2025-04-06T1600,1003A,116.4174,39.9289,北京市,东四,颗粒物(PM10),89,128,84,64,33,143,,96,96,20,33,11,10,0.6,0.4
2025-04-06T1600,1004A,116.4072,39.8863,北京市,天坛,颗粒物(PM10),76,101,66,46,25,134,,90,90,23,33,5,3,0.8,0.7
2025-04-06T1600,1005A,116.462,39.9365,北京市,农展馆,颗粒物(PM10),77,104,71,53,30,140,,95,95,24,32,11,10,0.6,0.5
2025-04-06T1600,1006A,116.3392,39.9295,北京市,官园,颗粒物(PM10),81,112,73,48,26,121,,86,86,20,28,10,9,0.5,0.4
2025-04-06T1600,1007A,116.2878,39.9611,北京市,海淀万柳,颗粒物(PM10),72,94,65,42,20,120,,84,84,21,33,7,6,0.7,0.6
2025-04-06T1600,1008A,116.6636,40.135,北京市,顺义新城,颗粒物(PM10),73,95,60,46,19,142,,101,101,19,28,10,7,0.6,0.4
2025-04-06T1600,1009A,116.6275,40.3275,北京市,怀柔镇,颗粒物(PM10),69,88,41,41,15,127,,90,90,15,16,8,4,0.5,0.3
2025-04-06T1600,1010A,116.2296,40.217,北京市,昌平镇,颗粒物(PM10),70,89,48,33,15,136,,97,97,16,19,5,2,0.4,0.3
2025-04-06T1600,1011A,116.3966,39.9821,北京市,奥体中心,颗粒物(PM10),71,92,66,40,23,131,,90,90,24,38,7,7,0.7,0.5
2025-04-06T1600,3281A,115.9718,40.4529,北京市,延庆夏都,颗粒物(PM10),56,62,43,35,21,120,,85,85,13,30,8,6,0.4,0.4
2025-04-06T1600,3418A,116.8336,40.4095,北京市,密云新城,颗粒物(PM10),63,76,37,31,11,127,,92,92,16,12,10,5,0.6,0.4
2025-04-06T1600,3671A,116.088,39.9726,北京市,门头沟三家店,颗粒物(PM10),96,142,84,47,23,100,,70,70,37,35,7,5,0.4,0.4
2025-04-06T1600,3672A,116.1541,39.8204,北京市,丰台云岗,细颗粒物(PM2.5),89,93,71,66,26,134,,93,93,25,34,9,7,0.5,0.4
2025-04-06T1600,3673A,116.6804,39.9081,北京市,通州东关,,,,77,,26,,,63,,,38,,6,,0.3
2025-04-06T1600,3674A,115.9577,39.7603,北京市,房山燕山,颗粒物(PM10),72,93,55,33,18,118,,84,84,24,23,7,6,0.4,0.4
2025-04-06T1600,3675A,116.4672,39.7733,北京市,大兴旧宫,颗粒物(PM10),75,100,79,42,26,127,,82,82,17,29,5,3,0.4,0.3
2025-04-06T1600,3694A,115.986,40.4563,北京市,延庆石河营,颗粒物(PM10),55,60,36,24,14,121,,86,86,12,28,6,5,0.5,0.5
2025-04-06T1600,3695A,116.6151,40.3053,北京市,怀柔新城,颗粒物(PM10),65,79,40,33,14,126,,88,88,17,16,10,6,0.7,0.5
2025-04-06T1600,3696A,116.2545,39.8768,北京市,丰台小屯,"颗粒物(PM10),细颗粒物(PM2.5)",72,93,70,52,28,119,,87,87,28,35,5,5,0.4,0.3
2025-04-06T1600,3697A,116.84,40.3844,北京市,密云镇,颗粒物(PM10),60,70,40,35,13,136,,98,98,15,22,10,6,0.6,0.4
2025-04-06T1600,4182A,116.1942,39.9158,北京市,八角北路9号,颗粒物(PM10),73,96,82,39,20,137,,96,96,21,37,6,4,0.2,0.1
2025-04-06T1600,4194A,117.0790,40.1518,北京市,洳河巡河路,颗粒物(PM10),69,88,45,41,18,135,,100,100,23,20,10,4,0.7,0.5
2025-04-06T1600,1761A,123.8275,41.3064,本溪市,大峪,细颗粒物(PM2.5),58,57,46,41,31,109,,84,84,16,24,11,10,0.5,1
2025-04-06T1600,1762A,123.7567,41.3325,本溪市,溪湖,细颗粒物(PM2.5),57,52,48,40,39,107,,88,88,22,31,11,10,0.7,1.6
2025-04-06T1600,1763A,123.7169,41.3094,本溪市,彩屯,细颗粒物(PM2.5),59,44,30,42,36,111,,96,96,21,24,9,10,0.6,1.1
2025-04-06T1600,1764A,123.7669,41.2864,本溪市,东明,,50,50,47,31,24,111,,86,86,14,24,15,17,0.6,1.2
2025-04-06T1600,1765A,123.7992,41.2664,本溪市,新立屯,,49,43,38,34,26,112,,89,89,19,30,8,9,0.7,1
2025-04-06T1600,1766A,123.8142,41.3472,本溪市,威宁,细颗粒物(PM2.5),55,58,50,39,33,107,,83,83,8,19,6,4,0.6,0.9
2025-04-06T1600,2587A,105.2864,27.3125,毕节市,八中,,19,13,47,10,37,60,,58,52,8,12,15,15,0.6,0.6
2025-04-06T1600,2588A,105.31,27.2944,毕节市,师专,,20,11,46,8,35,62,,66,57,10,13,6,9,0.7,0.7
2025-04-06T1600,4263A,105.3688,27.3598,毕节市,工业大道,,19,10,48,7,37,58,,63,54,10,15,8,9,0.6,0.6
2025-04-06T1600,1629A,118.0018,37.3617,滨州市,第二水厂,颗粒物(PM10),74,97,62,22,15,142,,109,109,6,22,9,10,0.3,0.3
2025-04-06T1600,1630A,117.9776,37.393,滨州市,北中新校,,,73,50,,16,151,,116,116,11,22,11,9,0,0
2025-04-06T1600,3514A,117.9378,37.3956,滨州市,中海酒店,颗粒物(PM10),64,78,51,17,20,150,,116,116,8,19,9,16,0.3,0.4
2025-04-06T1600,3515A,117.9378,37.3553,滨州市,开发区一中,颗粒物(PM10),73,95,64,19,17,144,,111,111,16,30,13,12,0.3,0.3
2025-04-06T1600,3516A,118.0917,37.694,滨州市,金海六路,颗粒物(PM10),74,98,58,19,15,150,,110,110,10,27,8,8,0.3,0.4
2025-04-06T1600,4028A,117.9956,37.3753,滨州市,滨州市西街道办事处,颗粒物(PM10),70,90,56,22,24,153,,121,121,10,20,7,8,0.3,0.4
2025-04-06T1600,2311A,115.8072,33.8399,亳州市,污水处理厂,颗粒物(PM10),96,142,101,28,26,148,,126,126,8,15,4,6,0.4,0.3
2025-04-06T1600,2312A,115.7789,33.8518,亳州市,三国揽胜宫,,,137,94,32,20,149,,129,129,,18,6,7,0.4,0.3
2025-04-06T1600,3332A,115.7633,33.8034,亳州市,亳州学院,颗粒物(PM10),87,123,91,27,21,146,,125,125,6,12,6,6,0.4,0.3
2025-04-06T1600,2693A,82.0485,44.8556,博尔塔拉蒙古自治州,市党校,,31,29,57,9,16,98,,61,61,17,24,2,3,0.3,0.3
2025-04-06T1600,2694A,82.0806,44.8969,博尔塔拉蒙古自治州,市环保局,,41,39,71,11,22,130,,84,84,14,16,3,3,0.4,0.5
2025-04-06T1600,1071A,116.8842,38.2991,沧州市,沧县城建局,颗粒物(PM10),73,95,62,34,27,151,,110,110,14,20,10,6,0.5,0.5
2025-04-06T1600,1072A,116.8584,38.3254,沧州市,电视转播站,细颗粒物(PM2.5),73,75,58,53,24,161,,116,116,14,18,9,8,0.3,0.3
2025-04-06T1600,1073A,116.8709,38.3228,沧州市,市环保局,颗粒物(PM10),59,67,57,30,26,155,,113,113,13,18,11,8,0.4,0.4
2025-04-06T1600,3324A,116.8136,38.3004,沧州市,河北水利电力学院,颗粒物(PM10),76,102,72,38,29,137,,102,102,14,24,10,7,0.4,0.3
2025-04-06T1600,2622A,97.1806,31.1273,昌都市,昌都监测站,,39,25,15,7,10,122,,104,104,2,2,2,3,0.2,0.2
2025-04-06T1600,3719A,97.1714,31.1406,昌都市,昌都会议中心,,36,24,15,16,13,114,,104,104,3,5,3,4,0.3,0
2025-04-06T1600,2690A,88.1236,43.8886,昌吉回族自治州,天山天池,,29,6,38,3,9,90,,83,83,7,9,3,4,0.6,0.6
2025-04-06T1600,2692A,87.2717,44.0297,昌吉回族自治州,新区政务中心,,35,13,46,3,13,112,,79,79,3,12,5,5,0.2,0.3
2025-04-06T1600,3613A,87.3095,44.0142,昌吉回族自治州,亚心广场,,34,12,52,3,11,108,,82,82,10,10,7,7,0.4,0.4
2025-04-06T1600,1119A,125.3325,43.9166,长春市,食品厂,细颗粒物(PM2.5),73,62,54,53,40,86,,56,56,22,26,7,8,0.5,0.5
2025-04-06T1600,1120A,125.2863,43.9027,长春市,客车厂,细颗粒物(PM2.5),77,60,43,56,42,81,,54,54,23,23,5,5,0.5,0.5
2025-04-06T1600,1121A,125.2841,43.8463,长春市,邮电学院,细颗粒物(PM2.5),74,58,46,54,41,80,,55,55,17,24,6,7,0.4,0.4
2025-04-06T1600,1122A,125.3716,43.8772,长春市,劳动公园,细颗粒物(PM2.5),60,62,48,43,39,90,,56,56,13,21,6,6,0.4,0.4
2025-04-06T1600,1123A,125.3297,43.8805,长春市,园林处,细颗粒物(PM2.5),68,59,46,49,42,87,,55,55,14,18,6,6,0.5,0.5
2025-04-06T1600,1124A,125.4605,43.79,长春市,净月潭,细颗粒物(PM2.5),65,60,50,47,37,74,,51,51,17,17,6,6,0.5,0.5
2025-04-06T1600,1125A,125.7194,43.515,长春市,甩湾子,,,,,,,,,,,,,,,,
2025-04-06T1600,1126A,125.3863,43.8447,长春市,经开区环卫处,细颗粒物(PM2.5),63,54,49,45,38,81,,54,54,15,22,6,6,0.5,0.6
2025-04-06T1600,1127A,125.245,43.7783,长春市,高新区管委会,细颗粒物(PM2.5),75,56,41,55,40,70,,54,54,15,19,7,7,0.5,0.5
2025-04-06T1600,1128A,125.1761,43.8325,长春市,岱山公园,细颗粒物(PM2.5),72,56,40,52,37,79,,60,60,12,23,5,4,0.4,0.4
2025-04-06T1600,1335A,113.0833,28.2325,长沙市,经开区环保局,,,,98,,40,,,132,,,28,,7,,0.6
2025-04-06T1600,1336A,112.8872,28.2189,长沙市,高开区环保局,颗粒物(PM10),67,83,104,22,59,162,,123,123,6,33,8,10,0.7,0.9
2025-04-06T1600,1337A,113.0792,28.2053,长沙市,马坡岭,颗粒物(PM10),70,89,102,25,59,159,,123,123,11,31,7,8,0.4,0.8
2025-04-06T1600,1338A,112.9394,28.19,长沙市,湖南师范大学,颗粒物(PM10),66,82,99,20,56,154,,114,114,7,22,6,9,0.5,0.9
2025-04-06T1600,1339A,113.0178,28.1322,长沙市,雨花区环保局,颗粒物(PM10),67,83,98,22,64,157,,113,113,10,31,8,12,0.6,0.9
2025-04-06T1600,1340A,112.9792,28.2597,长沙市,伍家岭,颗粒物(PM10),67,84,111,18,58,145,,112,112,10,38,5,7,0.6,0.9
2025-04-06T1600,1341A,113.0014,28.1944,长沙市,火车新站,颗粒物(PM10),84,117,111,36,63,154,,118,118,9,34,9,12,0.6,1
2025-04-06T1600,1342A,112.9844,28.1178,长沙市,天心区环保局,颗粒物(PM10),69,87,101,27,61,166,,128,128,14,28,6,9,0.5,0.9
2025-04-06T1600,1343A,112.8908,28.1308,长沙市,湖南中医药大学,颗粒物(PM10),71,91,103,30,62,156,,116,116,9,38,6,8,0.7,1
2025-04-06T1600,1344A,112.9581,28.3611,长沙市,沙坪,细颗粒物(PM2.5),64,64,72,46,46,154,,117,117,15,17,11,9,0.9,1
2025-04-06T1600,1727A,113.1147,36.1547,长治市,清华站,颗粒物(PM10),58,65,57,14,18,122,,109,109,5,26,5,8,0.4,0.6
2025-04-06T1600,1730A,113.0886,36.2125,长治市,审计局,颗粒物(PM10),56,62,56,22,21,121,,101,101,8,22,7,10,0.1,0.3
2025-04-06T1600,1731A,113.0844,36.1856,长治市,长治八中,颗粒物(PM10),68,85,72,29,26,124,,107,107,9,23,7,10,0.3,0.5
2025-04-06T1600,2845A,113.1569,36.1911,长治市,德盛苑,颗粒物(PM10),60,69,51,19,18,121,,114,114,5,11,3,6,0.5,0.7
2025-04-06T1600,3568A,113.06,36.0464,长治市,向阳小学,颗粒物(PM10),70,89,67,21,21,126,,118,118,12,16,8,11,0.2,0.4
2025-04-06T1600,3569A,112.8792,36.3144,长治市,屯留一中,颗粒物(PM10),59,68,61,11,21,128,,102,102,10,39,7,11,0.5,0.6
2025-04-06T1600,4189A,113.1131,36.19948,长治市,英华南巷50号,颗粒物(PM10),64,78,64,27,20,127,,111,111,8,21,4,7,0.2,0.4
2025-04-06T1600,4190A,113.2367,36.3344,长治市,学府街1号,颗粒物(PM10),72,94,75,34,28,131,,110,110,5,39,4,12,0.3,0.7
2025-04-06T1600,1854A,111.6975,28.9703,常德市,市二中,颗粒物(PM10),68,86,87,35,44,108,,88,88,10,17,6,7,0.6,0.7
2025-04-06T1600,1857A,111.7158,29.1456,常德市,白鹤山,,,,,,,,,,,,,,,,
2025-04-06T1600,3138A,111.7153,29.0289,常德市,武陵区永安,颗粒物(PM10),74,98,99,33,42,131,,101,101,5,19,2,4,0.5,0.7
2025-04-06T1600,3139A,111.6892,28.9881,常德市,鼎城区玉霞,颗粒物(PM10),73,96,89,34,41,128,,99,99,5,19,4,5,0.6,0.7
2025-04-06T1600,3140A,111.6625,29.0531,常德市,武陵区长庚,颗粒物(PM10),79,107,97,34,42,136,,100,100,6,20,6,6,0.5,0.7
2025-04-06T1600,1196A,119.9633,31.762,常州市,市监测站,臭氧1小时,67,66,96,28,47,173,,148,148,22,37,9,9,0.6,0.8
2025-04-06T1600,1200A,119.9468,31.7069,常州市,武进监测站,臭氧1小时,70,77,92,41,41,176,,151,151,33,30,9,14,0.5,0.8
2025-04-06T1600,1201A,119.9255,31.9087,常州市,安家,,48,48,85,16,42,153,,136,136,11,32,9,10,0.1,0.4
2025-04-06T1600,3002A,119.9805,31.8174,常州市,行政中心,臭氧1小时,59,46,81,24,42,167,,146,146,13,31,15,14,0.4,0.6
2025-04-06T1600,3003A,120.0522,31.7748,常州市,经开区,臭氧1小时,68,69,93,25,42,174,,148,148,18,35,11,11,0.5,0.7
2025-04-06T1600,3010A,119.9025,31.7964,常州市,钟楼,臭氧1小时,57,62,87,21,44,165,,145,145,12,25,9,9,0.6,1
2025-04-06T1600,3429A,119.8598,31.7066,常州市,武进经发区,臭氧1小时,74,64,98,28,50,179,,150,150,17,35,9,9,0.9,1.2
2025-04-06T1600,3430A,119.5826,31.7245,常州市,金坛城区,臭氧1小时,68,53,100,22,46,174,,143,143,10,25,9,11,0.5,0.8
2025-04-06T1600,2220A,120.4318,41.5881,朝阳市,西梁,,36,30,56,11,20,115,,95,95,7,27,8,11,0.7,0.8
2025-04-06T1600,2221A,120.4521,41.5646,朝阳市,河畔小区,,36,27,47,13,18,114,,95,95,6,18,6,8,0.4,0.5
2025-04-06T1600,2222A,120.4176,41.5648,朝阳市,八里堡,,35,25,51,13,18,110,,92,92,7,24,7,8,0.5,0.6
2025-04-06T1600,2223A,120.3806,41.5969,朝阳市,农业园区,,37,33,52,17,23,117,,96,96,8,20,10,12,0.6,0.7
2025-04-06T1600,1705A,116.6367,23.6719,潮州市,西园路,,,,,,,,,,,,,,,,
2025-04-06T1600,3026A,116.6183,23.6608,潮州市,市政府,颗粒物(PM10),55,59,38,33,21,127,,85,85,18,15,6,3,0.6,0.7
2025-04-06T1600,4036A,116.6461,23.6761,潮州市,金山,"颗粒物(PM10),细颗粒物(PM2.5)",59,67,34,42,22,128,,89,89,16,12,8,6,0.6,0.6
2025-04-06T1600,2472A,113.0073,25.9061,郴州市,马头岭,颗粒物(PM10),70,89,95,42,50,105,,77,77,21,27,7,8,0.9,1.2
2025-04-06T1600,2473A,113.0116,25.8226,郴州市,市职中,颗粒物(PM10),67,83,87,46,62,126,,87,87,13,23,9,9,0.6,0.8
2025-04-06T1600,2475A,113.0383,25.8071,郴州市,市审计局,细颗粒物(PM2.5),68,77,84,49,60,124,,82,82,12,20,9,8,0.7,0.9
2025-04-06T1600,2476A,113.0348,25.7759,郴州市,市环保局,颗粒物(PM10),69,88,94,45,65,124,,82,82,14,27,10,10,0.6,0.8
2025-04-06T1600,4252A,113.0138,25.8011,郴州市,好美居路49号,颗粒物(PM10),63,75,88,43,63,123,,84,84,12,25,7,7,0.7,0.9
2025-04-06T1600,1431A,103.9728,30.7236,成都市,金泉两河,颗粒物(PM10),58,65,38,26,10,129,,61,61,8,20,2,2,0.7,0.7
2025-04-06T1600,1432A,104.176,30.6872,成都市,十里店,颗粒物(PM10),63,76,44,44,17,117,,63,63,15,31,3,3,0.6,0.7
2025-04-06T1600,1433A,104.079,30.5706,成都市,三瓦窑,颗粒物(PM10),61,71,46,31,21,118,,60,60,15,37,4,4,0.4,0.5
2025-04-06T1600,1434A,104.1114,30.63,成都市,沙河铺,颗粒物(PM10),56,62,45,25,22,106,,49,49,10,22,6,5,0.6,0.7
2025-04-06T1600,1437A,104.0786,30.6531,成都市,君平街,颗粒物(PM10),57,63,41,30,24,121,,64,64,12,26,5,6,0.6,0.7
2025-04-06T1600,1438A,103.613,31.0283,成都市,灵岩寺,,,,,,,,,,,,,,,,
2025-04-06T1600,2880A,104.0239,30.65639,成都市,大石西路,颗粒物(PM10),55,60,42,29,23,117,,56,56,12,26,4,4,0.6,0.7
2025-04-06T1600,3136A,104.2725,30.5589,成都市,龙泉驿区区政府,颗粒物(PM10),57,63,34,22,16,105,,68,68,8,16,4,4,0.7,0.7
2025-04-06T1600,3357A,104.0106,30.6931,成都市,金博路,,44,44,30,9,13,114,,56,56,9,25,6,6,0.4,0.4
2025-04-06T1600,3359A,104.0578,30.5225,成都市,华阳,颗粒物(PM10),58,66,37,31,29,111,,56,56,11,24,6,5,0.6,0.6
2025-04-06T1600,3488A,104.3853,30.7453,成都市,青白江技师分院,颗粒物(PM10),55,59,42,14,18,118,,76,76,12,30,7,7,0.5,0.6
2025-04-06T1600,3489A,104.0789,30.4072,成都市,科学城,,46,46,36,26,23,108,,56,56,7,20,4,4,0.5,0.5
2025-04-06T1600,4011A,103.8506,30.6947,成都市,光华大道三段,颗粒物(PM10),51,51,38,19,14,136,,80,80,12,19,1,1,0.6,0.7
2025-04-06T1600,4224A,104.2433,30.5353,成都市,鲸龙路1057号,,50,50,39,24,20,113,,60,60,11,24,3,4,0.7,0.8
2025-04-06T1600,1062A,117.9531,40.9081,承德市,铁路,,35,12,20,3,6,110,,80,80,6,15,8,6,0.2,0.3
2025-04-06T1600,1063A,117.9392,40.9763,承德市,中国银行,,36,,26,17,8,113,,86,86,3,14,4,3,0.3,0.3
2025-04-06T1600,1064A,117.9503,40.928,承德市,开发区,,36,21,35,6,14,113,,83,83,5,16,7,6,0.3,0.3
2025-04-06T1600,1065A,117.8051,40.9655,承德市,文化中心,,35,21,40,3,11,111,,84,84,5,21,4,5,0.3,0.4
2025-04-06T1600,1066A,117.9268,41.0026,承德市,离宫,,24,24,27,7,17,64,,55,55,5,11,25,22,0.3,0.2
2025-04-06T1600,2314A,117.47,30.6618,池州市,池州学院,,43,35,84,11,35,136,,122,122,7,23,7,7,0.3,0.6
2025-04-06T1600,3237A,117.4918,30.6617,池州市,展览馆,,43,32,75,10,30,136,,122,122,5,19,7,6,0.5,0.7
2025-04-06T1600,3333A,117.5627,30.695,池州市,第八中学,,44,43,92,14,35,139,,119,119,8,25,10,16,0.2,0.4
2025-04-06T1600,3334A,117.5038,30.6243,池州市,第十二中学,,44,41,80,13,30,140,,122,122,5,22,7,7,0.3,0.6
2025-04-06T1600,1744A,118.9233,42.2816,赤峰市,松山一中,,33,26,27,14,11,103,,74,74,23,30,12,12,0.6,0.5
2025-04-06T1600,1745A,118.9576,42.2728,赤峰市,哈达街,,37,33,25,22,10,116,,85,85,16,19,9,10,0.6,0.5
2025-04-06T1600,1746A,118.8788,42.2554,赤峰市,天义路,,38,,25,17,13,119,,88,88,14,23,9,14,0.4,0.5
2025-04-06T1600,3058A,119.2658,42.0353,赤峰市,银河街,,32,29,41,17,21,101,,84,84,10,19,18,21,0.4,0.5
2025-04-06T1600,3286A,118.9359,42.3147,赤峰市,桥北物流园区,细颗粒物(PM2.5),62,,28,44,18,107,,75,75,29,25,25,13,0.9,0.6
2025-04-06T1600,2521A,107.3476,22.4136,崇左市,市环保局江州分局,细颗粒物(PM2.5),120,126,108,91,72,99,,66,66,17,17,10,8,1.2,0.8
2025-04-06T1600,4256A,107.3750,22.3736,崇左市,石景林东路7号,细颗粒物(PM2.5),122,119,102,92,77,100,,68,68,17,19,9,7,1.0,0.9
2025-04-06T1600,2298A,118.3093,32.3153,滁州市,老年大学,颗粒物(PM10),51,51,77,22,24,152,,129,129,12,20,3,4,0.5,0.6
2025-04-06T1600,2299A,118.3244,32.2786,滁州市,人大宾馆,颗粒物(PM10),56,61,80,17,23,153,,138,138,9,20,9,10,0.5,0.6
2025-04-06T1600,3207A,118.3118,32.3038,滁州市,市政府原办公楼,颗粒物(PM10),51,52,73,18,26,150,,132,132,2,13,5,7,0.3,0.5
2025-04-06T1600,3331A,118.3267,32.2634,滁州市,图书馆,颗粒物(PM10),54,58,79,20,28,150,,132,132,7,14,7,9,0.3,0.4
2025-04-06T1600,2605A,101.5482,25.0441,楚雄彝族自治州,州环境监测站,细颗粒物(PM2.5),59,61,42,42,36,141,,110,110,8,16,7,8,0.6,0.6
2025-04-06T1600,2606A,101.538,25.0492,楚雄彝族自治州,市经济开发区,细颗粒物(PM2.5),63,56,44,45,37,142,,113,113,7,14,6,7,0.7,0.7
2025-04-06T1600,2548A,107.5277,31.2827,达州市,达州职业技术学院,颗粒物(PM10),58,65,84,31,43,101,,75,75,7,26,6,7,0.1,0.3
2025-04-06T1600,2549A,107.5086,31.2186,达州市,市环境监测站,颗粒物(PM10),51,51,90,19,43,107,,73,73,16,43,5,6,0.5,0.8
2025-04-06T1600,2550A,107.4988,31.2132,达州市,凤凰小区,颗粒物(PM10),53,56,88,27,46,107,,76,76,15,43,7,8,0.4,0.7
2025-04-06T1600,2551A,107.5082,31.1986,达州市,达县机关宾馆,,,,103,13,45,100,,68,68,18,44,,6,,0.6
2025-04-06T1600,2552A,107.4644,31.2124,达州市,市政中心,颗粒物(PM10),56,61,95,22,42,111,,76,76,11,44,2,4,0.3,0.8
2025-04-06T1600,2614A,100.1542,25.7054,大理白族自治州,大理市环境监测站,,44,36,57,26,41,138,,114,114,9,11,7,7,0.9,1
2025-04-06T1600,2615A,100.2171,25.5811,大理白族自治州,大理古城,,,34,56,20,48,134,,111,111,,14,8,8,0.6,0.7
2025-04-06T1600,1109A,121.612,38.9741,大连市,甘井子,颗粒物(PM10),51,51,37,27,17,97,,85,85,49,35,10,8,1.0,0.9
2025-04-06T1600,1110A,121.565,38.9511,大连市,周水子,颗粒物(PM10),58,65,40,38,19,85,,70,70,42,36,13,10,0.5,0.4
2025-04-06T1600,1111A,121.5637,38.8845,大连市,星海三站,,45,45,30,31,15,104,,79,79,23,18,9,7,0.7,0.6
2025-04-06T1600,1112A,121.6302,38.9117,大连市,青泥洼桥,颗粒物(PM10),65,79,40,42,18,96,,79,79,46,32,15,12,0.6,0.5
2025-04-06T1600,1113A,121.6251,38.8638,大连市,傅家庄,,45,39,27,31,13,74,,74,74,36,24,8,6,0.4,0.2
2025-04-06T1600,1114A,121.5213,38.8661,大连市,七贤岭,,50,50,29,31,13,102,,75,75,25,19,8,7,0.5,0.5
2025-04-06T1600,1115A,121.2529,38.8061,大连市,旅顺,颗粒物(PM10),51,51,31,34,17,132,,98,98,31,32,9,8,0.6,0.5
2025-04-06T1600,1116A,121.7485,39.1311,大连市,金州,颗粒物(PM10),97,144,59,50,21,119,,78,78,38,35,15,11,0.9,0.6
2025-04-06T1600,1117A,121.7811,39.0496,大连市,开发区,颗粒物(PM10),55,59,50,31,24,97,,70,70,37,41,12,9,0.6,0.6
2025-04-06T1600,1118A,121.9762,39.0631,大连市,双D港,,29,21,32,14,18,92,,84,84,22,23,10,7,0.4,0.5
2025-04-06T1600,1789A,124.81117,46.03138,大庆市,大同区,,,39,38,33,33,105,,86,86,12,16,4,4,,0.6
2025-04-06T1600,1790A,125.129,46.533,大庆市,龙凤区,细颗粒物(PM2.5),52,47,41,36,26,114,,98,98,17,18,6,6,0.6,0.6
2025-04-06T1600,1791A,124.902,46.408,大庆市,红岗区,,46,36,31,32,29,124,,102,102,13,21,7,7,0.5,0.7
2025-04-06T1600,1792A,125.153,46.586,大庆市,萨尔图区,细颗粒物(PM2.5),62,70,43,44,28,102,,90,90,17,17,8,7,0.5,0.5
2025-04-06T1600,1793A,124.9042,46.6215,大庆市,让胡路区,细颗粒物(PM2.5),58,47,38,41,36,106,,90,90,14,22,6,6,0.3,0.5
2025-04-06T1600,3481A,125.141,46.634,大庆市,萨区政府监测点,颗粒物(PM10),59,67,43,36,23,113,,99,99,15,14,5,6,0.5,0.5
2025-04-06T1600,1721A,113.3819,40.1097,大同市,果树场,颗粒物(PM10),57,64,66,27,25,108,,85,85,6,31,7,12,0.3,0.7
2025-04-06T1600,1723A,113.2994,40.0758,大同市,云冈宾馆,颗粒物(PM10),57,63,65,13,21,119,,93,93,10,29,8,15,0.4,0.7
2025-04-06T1600,1724A,113.3444,40.0917,大同市,大同大学,颗粒物(PM10),57,63,64,31,25,114,,90,90,5,23,14,23,0.3,0.5
2025-04-06T1600,1725A,113.2661,40.1269,大同市,安家小村,颗粒物(PM10),68,86,95,16,28,113,,88,88,5,22,8,19,0.3,2
2025-04-06T1600,1726A,113.2711,40.0844,大同市,教育学院,细颗粒物(PM2.5),67,64,70,48,29,114,,89,89,10,28,7,13,0.3,0.9
2025-04-06T1600,3282A,113.3397,40.0597,大同市,大同市卫生学校,颗粒物(PM10),59,68,72,15,28,113,,90,90,10,38,6,14,0.3,0.6
2025-04-06T1600,3565A,113.1367,40.1122,大同市,云冈站,颗粒物(PM10),56,62,66,34,32,108,,87,87,8,26,9,22,0.2,0.4
2025-04-06T1600,3566A,113.1186,40.2556,大同市,图书馆,颗粒物(PM10),58,66,53,18,24,92,,86,86,13,10,9,12,0.4,0.5
2025-04-06T1600,3567A,113.5931,40.0461,大同市,区一中,,,110,87,13,30,118,,110,110,,26,10,32,,0.6
2025-04-06T1600,4199A,113.2798,40.0997,大同市,魏都大道141号,颗粒物(PM10),60,70,81,25,32,119,,94,94,8,29,11,19,0.3,0.9
2025-04-06T1600,2269A,124.1069,50.4097,大兴安岭地区,科技局,,28,12,18,8,16,89,,67,67,4,6,7,8,0.4,0.4
2025-04-06T1600,3663A,124.1164,50.4278,大兴安岭地区,红旗社区,,29,7,11,3,8,90,,67,67,3,11,4,5,0.4,0.5
2025-04-06T1600,1600A,124.3303,40.0625,丹东市,江湾东路,,32,25,22,20,20,101,,92,92,11,14,14,10,0.6,0.7
2025-04-06T1600,1601A,124.4256,40.1503,丹东市,临江后街,,32,28,40,19,32,100,,85,85,10,18,12,10,0.7,1.2
2025-04-06T1600,1602A,124.3933,40.1461,丹东市,元宝山,,31,25,29,21,22,97,,80,80,12,19,7,6,0.4,0.7
2025-04-06T1600,1603A,124.3633,40.1092,丹东市,民主桥,,32,27,31,18,25,101,,89,89,7,18,8,9,0.6,0.8
2025-04-06T1600,3541A,109.5726,19.5167,儋州市,第一中学子站,,22,9,17,3,8,68,,65,65,6,7,4,4,0.5,0.5
2025-04-06T1600,3542A,109.5567,19.5187,儋州市,东坡学校子站,,24,6,18,3,8,76,,74,74,6,6,2,4,0.5,0.5
2025-04-06T1600,2616A,98.5842,24.428,德宏傣族景颇族自治州,德宏州监测站,细颗粒物(PM2.5),85,84,116,63,95,163,,80,80,10,32,10,12,0.7,1.1
2025-04-06T1600,3677A,98.5881,24.4368,德宏傣族景颇族自治州,芒市人民政府综合楼,细颗粒物(PM2.5),83,108,144,61,104,164,,86,86,11,25,9,9,0.7,1
2025-04-06T1600,1901A,104.4239,31.1208,德阳市,东山公园,颗粒物(PM10),57,64,42,28,25,118,,89,89,8,19,3,3,0.6,0.6
2025-04-06T1600,1902A,104.3826,31.1317,德阳市,西小区,颗粒物(PM10),61,72,55,32,30,120,,77,77,10,31,4,5,0.5,0.6
2025-04-06T1600,1904A,104.3553,31.1091,德阳市,耐火材料厂,颗粒物(PM10),63,75,51,26,30,124,,78,78,8,24,5,6,0.4,0.5
2025-04-06T1600,3639A,104.4019,31.1244,德阳市,市教育局,颗粒物(PM10),61,72,45,27,27,125,,81,81,7,25,4,4,0.5,0.6
2025-04-06T1600,1622A,116.3032,37.4674,德州市,儿童乐园,颗粒物(PM10),80,110,95,31,23,158,,125,125,10,15,10,8,0.4,0.4
2025-04-06T1600,1624A,116.2991,37.4451,德州市,监理站,颗粒物(PM10),82,114,87,34,22,159,,127,127,11,18,18,14,0.4,0.3
2025-04-06T1600,3066A,116.2721,37.4379,德州市,九衢泉纯净水厂,颗粒物(PM10),84,117,83,36,24,156,,122,122,19,26,12,9,0.5,0.5
2025-04-06T1600,3371A,116.3728,37.4403,德州市,开发区人民医院,,,114,90,,33,159,,127,127,10,17,10,8,0.6,0.6
2025-04-06T1600,3372A,116.3572,37.4094,德州市,太阳城中学,颗粒物(PM10),84,117,87,29,29,158,,126,126,11,23,10,7,0.5,0.5
2025-04-06T1600,3511A,116.5652,37.3319,德州市,陵城艺术中心,,,,78,,25,147,,118,118,,25,7,11,0.6,0.7
2025-04-06T1600,2621A,99.7056,27.8317,迪庆藏族自治州,迪庆州站,颗粒物(PM10),53,56,46,26,26,150,,100,,8,12,8,8,0.5,0.5
2025-04-06T1600,3180A,99.7136,27.8094,迪庆藏族自治州,质量技术监督局,,48,48,38,28,23,148,,140,140,10,11,10,10,0.6,0.6
2025-04-06T1600,4257A,104.6092,35.5962,定西市,将台街,颗粒物(PM10),64,77,96,22,31,132,,86,86,7,24,4,6,0.4,0.5
2025-04-06T1600,4309A,104.6159,35.5701,定西市,正龙路62号,颗粒物(PM10),59,67,102,19,37,132,,90,90,4,12,8,11,0.3,0.4
2025-04-06T1600,1389A,113.7547,23.0494,东莞市,莞城梨川,颗粒物(PM10),62,73,56,43,34,105,,88,88,24,24,6,6,0.6,0.6
2025-04-06T1600,1390A,113.7944,23.0128,东莞市,东城石井,颗粒物(PM10),55,59,47,36,29,82,,86,86,15,18,7,7,0.7,0.7
2025-04-06T1600,1391A,113.7383,22.9658,东莞市,南城西平,颗粒物(PM10),60,69,50,38,30,82,,83,83,43,36,9,8,0.7,0.7
2025-04-06T1600,3319A,113.7338,23.0381,东莞市,万江金泰,颗粒物(PM10),55,60,48,38,19,109,,92,92,20,18,6,6,0.7,0.7
2025-04-06T1600,3626A,113.7533,23.0202,东莞市,南城元岭,颗粒物(PM10),58,66,51,39,31,94,,87,87,23,18,7,7,0.8,0.8
2025-04-06T1600,3627A,113.7875,23.0457,东莞市,东城主山,颗粒物(PM10),66,81,52,36,28,91,,84,84,28,26,6,6,0.8,0.7
2025-04-06T1600,1666A,118.6614,37.4309,东营市,市环保局,颗粒物(PM10),60,70,61,12,18,158,,128,128,14,39,8,10,0.4,0.6
2025-04-06T1600,3036A,118.6904,37.4338,东营市,开发区管委会,颗粒物(PM10),64,77,68,19,24,153,,131,131,20,43,7,9,0.6,0.8
2025-04-06T1600,3365A,118.5719,37.565,东营市,垦利区民丰路,颗粒物(PM10),62,73,59,17,21,155,,121,121,13,32,4,7,0.5,0.7
2025-04-06T1600,3498A,118.5055,37.8612,东营市,河口城区,颗粒物(PM10),78,105,64,15,17,152,,128,128,15,30,10,11,0.6,0.8
2025-04-06T1600,3646A,118.4978,37.4623,东营市,胜利站,颗粒物(PM10),61,71,63,22,23,144,,115,115,23,45,11,12,0.5,0.6
2025-04-06T1600,3734A,118.35,37.26,东营市,理想之城,臭氧1小时,55,14,64,12,21,164,,120,120,18,44,12,10,0.5,0.6
2025-04-06T1600,1591A,110.0023,39.8129,鄂尔多斯市,综合楼,颗粒物(PM10),82,114,97,27,29,114,,101,101,7,30,3,10,0.2,0.4
2025-04-06T1600,1592A,109.9486,39.8261,鄂尔多斯市,巴音孟克林场办事处,颗粒物(PM10),74,97,89,27,29,114,,106,106,6,19,5,11,0.2,0.4
2025-04-06T1600,1593A,109.7736,39.5986,鄂尔多斯市,康泽苑,颗粒物(PM10),63,75,73,27,21,114,,98,98,4,15,3,4,0.2,0.3
2025-04-06T1600,1594A,109.8119,39.5989,鄂尔多斯市,华泰汽车城,颗粒物(PM10),67,83,71,19,21,111,,92,92,7,27,4,4,0.3,0.4
2025-04-06T1600,1595A,109.9734,39.7884,鄂尔多斯市,奥林花园,颗粒物(PM10),78,105,87,36,26,107,,96,96,14,48,8,9,0.3,0.4
2025-04-06T1600,2436A,114.8938,30.3994,鄂州市,市政府,颗粒物(PM10),61,72,100,27,45,154,,104,104,5,36,9,12,1.1,1
2025-04-06T1600,2437A,114.8989,30.3714,鄂州市,赵家坝,颗粒物(PM10),71,91,107,27,43,123,,93,93,6,30,5,8,0.7,0.9
2025-04-06T1600,3654A,114.8094,30.4089,鄂州市,精准医疗中心,臭氧1小时,62,56,98,22,45,169,,132,132,2,28,3,8,0.4,0.7
2025-04-06T1600,2454A,109.4978,30.2981,恩施土家族苗族自治州,湖北民院,颗粒物(PM10),67,84,86,33,41,114,,82,82,8,19,1,2,0.3,0.4
2025-04-06T1600,2455A,109.4707,30.2798,恩施土家族苗族自治州,州电力总公司,颗粒物(PM10),65,80,91,33,42,100,,69,69,8,22,4,5,0.2,0.3
2025-04-06T1600,3549A,109.5061,30.3772,恩施土家族苗族自治州,龙凤新区,颗粒物(PM10),70,90,82,30,34,116,,86,86,11,14,6,6,0.4,0.4
2025-04-06T1600,2499A,108.3411,21.6158,防城港市,沙万,颗粒物(PM10),52,54,93,32,68,86,,75,75,18,23,2,5,0.6,0.6
2025-04-06T1600,2500A,108.3514,21.7731,防城港市,防城档案局,细颗粒物(PM2.5),78,82,127,57,77,67,,68,68,17,29,4,4,0.9,0.8
2025-04-06T1600,2501A,108.3506,21.6414,防城港市,大海花园,颗粒物(PM10),52,54,99,31,74,92,,85,85,15,18,6,6,1.1,1
2025-04-06T1600,1371A,113.1294,23.0067,佛山市,湾梁,颗粒物(PM10),65,80,62,36,28,59,,60,60,42,40,8,7,0.8,0.8
2025-04-06T1600,1372A,113.1083,23.0478,佛山市,华材职中,颗粒物(PM10),68,85,71,38,34,43,,58,58,66,53,7,7,0.7,0.7
2025-04-06T1600,1373A,113.144,23.0453,佛山市,南海气象局,颗粒物(PM10),58,66,57,36,29,51,,53,53,32,30,6,6,0.7,0.7
2025-04-06T1600,1374A,113.2881,22.8094,佛山市,顺德苏岗,颗粒物(PM10),58,66,52,36,27,36,,48,48,46,39,6,5,0.8,0.7
2025-04-06T1600,1376A,112.8383,22.8678,佛山市,高明孔堂,颗粒物(PM10),72,93,75,45,41,46,,52,52,48,39,10,8,0.9,0.8
2025-04-06T1600,1377A,112.8836,23.1588,佛山市,三水监测站,颗粒物(PM10),79,107,83,46,46,53,,70,70,76,47,5,5,0.8,0.9
2025-04-06T1600,1378A,112.867,23.185,佛山市,三水云东海,细颗粒物(PM2.5),85,98,75,63,50,76,,72,72,58,38,9,5,0.8,0.8
2025-04-06T1600,3625A,113.2544,22.7642,佛山市,容桂街道办,颗粒物(PM10),60,70,49,39,32,54,,52,52,50,45,7,6,0.8,0.8
2025-04-06T1600,1280A,119.3903,26.0543,福州市,鼓山,,,,39,,20,,,84,,,3,,1,,0.6
2025-04-06T1600,1282A,119.2681,26.0504,福州市,师大,颗粒物(PM10),55,60,41,21,26,148,,110,110,9,9,5,4,0.3,0.4
2025-04-06T1600,1283A,119.2984,26.1028,福州市,五四北路,,45,40,40,25,28,144,,107,107,11,24,4,4,0.5,0.6
2025-04-06T1600,1284A,119.2648,26.0768,福州市,杨桥西路,颗粒物(PM10),56,61,43,23,26,147,,111,111,12,15,4,4,0.5,0.5
2025-04-06T1600,1285A,119.317,26.0746,福州市,紫阳,颗粒物(PM10),56,62,44,21,28,124,,97,97,28,23,5,4,0.4,0.4
2025-04-06T1600,3048A,119.5799,26.0936,福州市,九龙,,42,37,38,15,27,133,,108,108,9,20,4,4,0.3,0.4
2025-04-06T1600,3526A,119.5189,25.9664,福州市,吴航,,45,38,41,18,28,144,,103,103,7,24,5,4,0.4,0.6
2025-04-06T1600,1755A,123.7977,41.8491,抚顺市,望花区,细颗粒物(PM2.5),62,53,52,44,35,91,,82,82,14,28,10,16,0.6,0.8
2025-04-06T1600,1756A,123.9161,41.8822,抚顺市,顺城区,细颗粒物(PM2.5),67,60,55,48,34,80,,78,78,20,26,8,10,0.6,0.9
2025-04-06T1600,1757A,124.0436,41.8611,抚顺市,东洲区,细颗粒物(PM2.5),73,59,54,53,35,73,,64,64,23,27,7,8,0.7,0.8
2025-04-06T1600,1758A,123.9247,41.8642,抚顺市,新抚区,,,45,52,38,30,78,,70,70,18,22,,8,0.9,1
2025-04-06T1600,1759A,124.0972,41.8961,抚顺市,大伙房水库,细颗粒物(PM2.5),73,54,46,53,35,77,,69,69,13,20,7,9,0.6,0.7
2025-04-06T1600,1760A,123.7086,41.8391,抚顺市,沈抚新城,细颗粒物(PM2.5),55,45,48,39,28,94,,81,81,14,27,7,10,0.6,0.7
2025-04-06T1600,2376A,116.2127,28.0814,抚州市,桐源党溪,颗粒物(PM10),59,67,63,28,32,141,,115,115,3,5,8,8,0.4,0.5
2025-04-06T1600,2377A,116.3544,27.9831,抚州市,市站,颗粒物(PM10),57,64,70,24,32,120,,103,103,4,15,10,18,0.8,0.9
2025-04-06T1600,2378A,116.3565,27.963,抚州市,血防站,颗粒物(PM10),54,57,69,25,33,128,,107,107,2,14,6,7,0.8,1.1
2025-04-06T1600,2379A,116.3564,28.0007,抚州市,采茶剧团,颗粒物(PM10),56,62,68,18,33,113,,94,94,2,9,3,8,0.8,1
2025-04-06T1600,2380A,116.385,27.9647,抚州市,医学分院,颗粒物(PM10),56,61,65,21,30,115,,96,96,5,13,4,6,0.8,1.3
2025-04-06T1600,2207A,121.6094,41.998,阜新市,工业园区,,37,30,56,16,26,117,,98,98,8,27,7,8,0.3,0.5
2025-04-06T1600,2208A,121.6697,42.0279,阜新市,长青街,,39,14,48,12,32,122,,98,98,7,25,5,9,0.4,0.9
2025-04-06T1600,2209A,121.6673,42.0705,阜新市,农业园区,,40,40,42,19,18,120,,96,96,8,10,6,10,0.5,0.6
2025-04-06T1600,2210A,121.6717,42.0224,阜新市,东苑,,40,40,69,16,31,118,,92,92,9,29,5,23,0.5,1
2025-04-06T1600,2211A,121.6506,42.0498,阜新市,玉龙新城,,38,31,52,13,23,120,,96,96,5,24,7,9,0.5,0.6
2025-04-06T1600,2301A,115.8277,32.8929,阜阳市,市监测站,颗粒物(PM10),77,104,88,30,30,143,,124,124,9,20,8,9,0.5,0.5
2025-04-06T1600,2303A,115.8554,32.8605,阜阳市,开发区,颗粒物(PM10),118,186,126,36,28,145,,128,128,27,20,16,9,0.5,0.4
2025-04-06T1600,2875A,115.784,32.8892,阜阳市,阜阳职业技术学院,颗粒物(PM10),81,112,96,29,30,132,,118,118,10,18,8,8,0.2,0.3
2025-04-06T1600,3468A,115.7901,32.8613,阜阳市,市规划展馆,颗粒物(PM10),85,120,95,27,25,153,,132,132,8,14,7,9,0.3,0.3
2025-04-06T1600,3469A,115.836,32.9183,阜阳市,枣园社区,颗粒物(PM10),85,119,100,36,28,153,,135,135,10,27,6,7,0.3,0.4
2025-04-06T1600,2669A,102.9099,34.9841,甘南藏族自治州,州政府,,48,48,102,33,38,88,,75,75,7,26,6,9,0.3,0.5
2025-04-06T1600,3380A,102.8914,34.9617,甘南藏族自治州,甘肃民族师范学院,,33,33,79,23,41,86,,73,73,12,32,7,11,0.4,0.6
2025-04-06T1600,2570A,101.9603,30.0475,甘孜藏族自治州,水桥子,,24,8,7,3,6,75,,66,66,14,16,3,3,0.2,0.2
2025-04-06T1600,3065A,101.9533,29.9972,甘孜藏族自治州,州环保局,,26,11,11,3,5,82,,76,76,11,14,4,4,0.2,0.2
2025-04-06T1600,3414A,115.8347,28.932,赣江新区,桑海产业园,颗粒物(PM10),68,85,85,30,24,161,,115,115,15,33,9,10,0.5,0.4
2025-04-06T1600,2362A,114.9017,25.9149,赣州市,通天岩,颗粒物(PM10),61,71,57,11,11,152,,114,114,3,7,17,15,0.7,1
2025-04-06T1600,2363A,114.9367,25.8664,赣州市,地委,细颗粒物(PM2.5),58,57,64,41,39,118,,82,82,10,25,6,14,1.0,1.1
2025-04-06T1600,2364A,114.9461,25.8481,赣州市,气象台,颗粒物(PM10),52,54,71,28,36,134,,92,92,11,34,11,12,0.4,0.6
2025-04-06T1600,2365A,114.9322,25.8333,赣州市,市图书馆,颗粒物(PM10),52,54,70,26,39,141,,92,92,8,31,5,7,0.5,0.7
2025-04-06T1600,2366A,114.8905,25.8471,赣州市,华坚鞋城,颗粒物(PM10),59,67,73,33,42,120,,86,86,14,37,11,11,0.4,0.6
2025-04-06T1600,3109A,115.0093,25.8613,赣州市,赣县区卫计委,颗粒物(PM10),53,56,56,30,33,128,,87,87,3,21,6,5,0.3,0.4
2025-04-06T1600,2683A,106.2319,36.1417,固原市,马园,,,,140,,47,,,64,,,42,,6,,0.5
2025-04-06T1600,2684A,106.2792,36.0022,固原市,监测站,颗粒物(PM10),86,122,126,38,36,113,,98,98,11,22,6,8,0.3,0.5
2025-04-06T1600,2685A,106.2375,36.0211,固原市,新区,颗粒物(PM10),81,111,121,33,34,112,,100,100,13,34,6,6,0.3,0.4
2025-04-06T1600,3522A,106.2177,35.9959,固原市,原州区十五小,颗粒物(PM10),91,132,124,46,38,102,,102,102,10,17,7,7,0.3,0.3
2025-04-06T1600,2543A,106.6308,30.5278,广安市,小平旧居,,,,,,,,,,,,,,,,
2025-04-06T1600,2544A,106.6303,30.4576,广安市,市委,,44,44,71,28,50,96,,67,67,7,17,5,6,0.3,0.5
2025-04-06T1600,2545A,106.6271,30.4663,广安市,友谊中学,,50,50,72,24,43,97,,67,67,10,18,2,4,0.4,0.6
2025-04-06T1600,2547A,106.6388,30.4551,广安市,广电花园,,49,49,72,26,50,95,,57,57,9,19,8,9,0.4,0.5
2025-04-06T1600,2902A,106.6351,30.4865,广安市,北辰小学,,47,47,68,21,45,99,,68,68,9,17,6,8,0.6,0.7
2025-04-06T1600,2523A,105.8945,32.4535,广元市,黑石坡,,,,59,,22,,,90,,,8,,2,,0.3
2025-04-06T1600,2524A,105.821,32.4444,广元市,老城,,47,47,60,8,20,113,,85,85,3,28,1,2,0.5,0.7
2025-04-06T1600,2526A,105.8628,32.4287,广元市,监测站,,39,39,44,11,22,116,,91,91,5,13,5,6,0.4,0.4
2025-04-06T1600,3617A,105.8047,32.4166,广元市,经开区,颗粒物(PM10),52,54,59,33,28,107,,77,77,7,32,3,6,0.5,0.7
2025-04-06T1600,1345A,113.2347,23.1423,广州市,广雅中学,颗粒物(PM10),69,88,67,45,35,72,,68,68,51,46,6,5,0.6,0.6
2025-04-06T1600,1346A,113.2612,23.105,广州市,市五中,颗粒物(PM10),69,88,61,41,33,72,,71,71,44,36,3,2,0.7,0.7
2025-04-06T1600,1348A,113.3478,23.0916,广州市,广东商学院,颗粒物(PM10),63,75,48,42,32,40,,58,58,54,38,4,4,0.6,0.6
2025-04-06T1600,1349A,113.4332,23.1047,广州市,市八十六中,颗粒物(PM10),66,81,53,38,26,23,,48,48,78,40,5,3,0.9,0.8
2025-04-06T1600,1350A,113.3505,22.9483,广州市,番禺中学,颗粒物(PM10),64,77,57,35,31,41,,57,57,61,45,5,4,0.8,0.6
2025-04-06T1600,1351A,113.2146,23.3916,广州市,花都师范,颗粒物(PM10),66,81,62,41,37,76,,89,89,57,26,8,9,0.7,0.7
2025-04-06T1600,1352A,113.2597,23.1331,广州市,市监测站,,,,53,,29,,,35,,,44,,5,,0.5
2025-04-06T1600,1353A,113.5618,23.312,广州市,九龙镇镇龙,颗粒物(PM10),52,53,41,31,26,66,,77,77,38,20,5,4,0.5,0.5
2025-04-06T1600,1354A,113.2765,23.1544,广州市,麓湖,颗粒物(PM10),58,66,45,39,28,66,,66,66,35,31,4,4,0.7,0.6
2025-04-06T1600,1355A,113.443,23.3035,广州市,帽峰山森林公园,,41,41,34,16,17,79,,87,87,12,15,3,3,0.5,0.4
2025-04-06T1600,2846A,113.3221,23.1322,广州市,体育西,颗粒物(PM10),67,84,57,41,33,76,,77,77,41,28,5,4,0.7,0.6
2025-04-06T1600,3298A,113.5717,23.5491,广州市,从化街口,颗粒物(PM10),56,62,54,38,35,109,,86,86,15,22,8,8,0.7,0.8
2025-04-06T1600,3299A,113.3472,23.3692,广州市,白云竹料,颗粒物(PM10),63,75,58,42,37,120,,96,96,26,29,9,8,0.6,0.7
2025-04-06T1600,3300A,113.2981,23.237,广州市,白云嘉禾,颗粒物(PM10),70,90,63,46,37,63,,73,73,61,44,6,5,0.7,0.7
2025-04-06T1600,3301A,113.4256,23.1716,广州市,黄埔科学城,颗粒物(PM10),52,53,41,29,23,66,,84,84,20,20,5,5,0.5,0.5
2025-04-06T1600,3302A,113.3942,23.0483,广州市,番禺大学城,颗粒物(PM10),57,64,46,32,26,49,,64,64,58,42,10,9,0.6,0.5
2025-04-06T1600,3303A,113.4922,22.8168,广州市,南沙黄阁,颗粒物(PM10),71,92,63,47,34,48,,64,64,62,42,10,9,0.9,0.9
2025-04-06T1600,3304A,113.5342,22.7896,广州市,南沙街,颗粒物(PM10),62,74,55,37,31,74,,68,68,36,33,7,7,0.7,0.7
2025-04-06T1600,3443A,113.2902,23.5544,广州市,花都梯面,,,70,49,43,35,117,,105,105,,20,6,10,,0.7
2025-04-06T1600,3445A,113.7858,23.7478,广州市,从化良口,细颗粒物(PM2.5),55,55,40,39,27,115,,90,90,6,7,7,6,0.6,0.6
2025-04-06T1600,3446A,113.8051,23.2614,广州市,增城荔城,"颗粒物(PM10),细颗粒物(PM2.5)",59,67,42,42,27,94,,77,77,17,13,8,9,0.4,0.4
2025-04-06T1600,2505A,109.568,23.1478,贵港市,德智高中,,,,,,,,,,,,,,,,
2025-04-06T1600,2506A,109.6047,23.0666,贵港市,江南子站,"颗粒物(PM10),细颗粒物(PM2.5)",67,83,122,48,78,105,,78,78,23,24,12,10,1.0,1.1
2025-04-06T1600,2508A,109.5669,23.1065,贵港市,荷城子站,细颗粒物(PM2.5),55,58,91,39,73,109,,82,82,16,23,8,10,0.3,0.6
2025-04-06T1600,3405A,109.5886,23.1172,贵港市,新世纪学校,颗粒物(PM10),62,73,117,42,79,120,,89,89,12,22,5,9,0.9,1.1
2025-04-06T1600,4260A,109.5933,23.0951,贵港市,中山路155-3号,细颗粒物(PM2.5),62,60,114,44,73,115,,84,84,16,24,10,13,0.7,0.9
2025-04-06T1600,1439A,106.6899,26.5998,贵阳市,马鞍山,颗粒物(PM10),58,66,49,36,28,78,,70,70,12,9,7,6,0.5,0.5
2025-04-06T1600,1441A,106.6243,26.6266,贵阳市,鉴湖路,颗粒物(PM10),71,92,63,41,30,87,,83,78,18,9,11,10,0.5,0.4
2025-04-06T1600,1442A,106.7487,26.6343,贵阳市,燕子冲,颗粒物(PM10),65,80,56,44,39,83,,80,80,15,12,6,5,0.5,0.4
2025-04-06T1600,1443A,106.6555,26.4365,贵阳市,碧云窝,颗粒物(PM10),68,85,68,44,32,68,,94,92,25,15,10,10,0.5,0.5
2025-04-06T1600,1445A,106.7109,26.6027,贵阳市,红边门,颗粒物(PM10),65,80,61,41,36,78,,78,74,16,13,7,8,0.6,0.5
2025-04-06T1600,1446A,106.7164,26.5699,贵阳市,新华路,颗粒物(PM10),68,85,63,44,34,84,,80,78,13,12,10,10,0.5,0.5
2025-04-06T1600,1447A,106.674,26.5424,贵阳市,太慈桥,颗粒物(PM10),63,75,58,39,32,87,,77,77,19,18,9,7,0.5,0.4
2025-04-06T1600,1552A,106.805,26.3003,贵阳市,桐木岭,细颗粒物(PM2.5),83,85,72,61,44,109,,114,113,8,7,2,4,0.7,0.6
2025-04-06T1600,4230A,106.6882,26.5695,贵阳市,花果园大街66号,细颗粒物(PM2.5),67,70,53,48,37,81,,79,75,18,15,8,7,0.6,0.5
2025-04-06T1600,4231A,106.6873,26.5169,贵阳市,漓江路57号,颗粒物(PM10),59,68,57,39,35,81,,82,82,18,17,12,12,0.4,0.4
2025-04-06T1600,1862A,110.4144,25.3167,桂林市,电子科大尧山校区,,,,,,,,,,,,,,,,
2025-04-06T1600,1864A,110.3089,25.2708,桂林市,龙隐路小学,细颗粒物(PM2.5),77,79,82,56,56,96,,91,70,22,16,12,23,1.0,1
2025-04-06T1600,1865A,110.2869,25.2178,桂林市,八中,细颗粒物(PM2.5),77,90,86,56,56,104,,86,74,22,22,13,24,0.7,0.8
2025-04-06T1600,3531A,110.296,25.1253,桂林市,旅游学院,细颗粒物(PM2.5),70,70,77,51,51,104,,72,72,18,20,11,13,0.6,0.6
2025-04-06T1600,4222A,110.1835,25.2444,桂林市,环湖路276号,细颗粒物(PM2.5),79,102,96,58,63,83,,76,55,24,24,28,32,0.3,0.5
2025-04-06T1600,4301A,110.2803,25.2773,桂林市,信义路13号,细颗粒物(PM2.5),73,83,84,53,53,106,,97,73,20,19,2,11,0.9,0.9
2025-04-06T1600,2674A,100.2561,34.4714,果洛藏族自治州,玛沁县大武镇,颗粒物(PM10),54,57,69,27,27,121,,110,110,2,2,16,14,0.3,0.4
2025-04-06T1600,1129A,126.5422,45.755,哈尔滨市,岭北,,39,34,30,27,29,119,,92,92,14,23,17,20,0.9,1
2025-04-06T1600,1130A,126.561,45.8167,哈尔滨市,松北商大,,42,40,30,29,26,114,,94,94,14,24,8,8,0.6,0.8
2025-04-06T1600,1131A,126.979,45.5419,哈尔滨市,阿城会宁,,43,42,28,30,25,112,,95,95,11,15,17,11,0.6,0.8
2025-04-06T1600,1132A,126.599,45.7222,哈尔滨市,南岗学府路,,49,49,42,27,22,121,,98,98,15,26,9,7,0.7,0.7
2025-04-06T1600,1133A,126.689,45.7733,哈尔滨市,太平宏伟公园,,47,47,29,30,27,120,,96,96,10,23,4,4,0.6,0.8
2025-04-06T1600,1134A,126.635,45.7667,哈尔滨市,道外承德广场,细颗粒物(PM2.5),52,,33,36,33,114,,83,83,15,29,8,6,0.3,0.6
2025-04-06T1600,1135A,126.685,45.7319,哈尔滨市,香坊红旗大街,,41,41,29,28,28,118,,96,96,13,27,12,11,0.6,0.6
2025-04-06T1600,1136A,126.6411,45.7258,哈尔滨市,动力和平路,细颗粒物(PM2.5),57,50,34,40,28,112,,92,92,16,26,8,11,0.6,0.6
2025-04-06T1600,1137A,126.593,45.7478,哈尔滨市,道里建国路,颗粒物(PM10),51,52,35,35,32,115,,88,88,16,27,11,12,0.5,0.6
2025-04-06T1600,1138A,126.615,45.61,哈尔滨市,平房东轻厂,颗粒物(PM10),52,53,39,34,26,109,,88,88,15,27,9,9,0.6,0.8
2025-04-06T1600,1139A,126.595,45.9855,哈尔滨市,呼兰师专,,,49,26,42,29,118,,64,,16,19,,6,0.7,0.7
2025-04-06T1600,1140A,126.6206,45.6842,哈尔滨市,省农科院,细颗粒物(PM2.5),52,50,38,36,30,112,,94,94,17,29,10,11,0.7,0.9
2025-04-06T1600,2688A,93.5128,42.8172,哈密市,地区监测站,颗粒物(PM10),176,302,326,94,84,92,,77,77,4,29,4,5,0.2,0.3
2025-04-06T1600,2689A,93.4961,42.8328,哈密市,哈密师范学校,颗粒物(PM10),143,235,295,76,92,100,,82,82,6,34,6,5,0,0.2
2025-04-06T1600,2671A,100.9048,36.9639,海北藏族自治州,海晏县西海镇,颗粒物(PM10),52,53,62,18,25,116,,99,99,1,4,9,9,0.5,0.4
2025-04-06T1600,3867A,102.0738,36.5056,海东市,平安区公安北苑,颗粒物(PM10),66,82,98,35,38,103,,67,67,5,12,10,15,0.5,0.6
2025-04-06T1600,1409A,110.576,19.9507,海口市,东寨港,,38,38,16,17,12,23,,30,26,9,7,5,6,0.7,0.7
2025-04-06T1600,1410A,110.3232,20.0574,海口市,海南大学,,49,47,29,34,18,76,,79,67,15,10,2,2,0.6,0.5
2025-04-06T1600,1411A,110.283,20.0053,海口市,秀英海南医院,,43,39,21,30,16,70,,77,68,14,10,4,4,0.5,0.4
2025-04-06T1600,1412A,110.338,19.9969,海口市,海南师范大学,,49,49,26,30,16,72,,76,68,8,6,4,3,0.5,0.5
2025-04-06T1600,1413A,110.33,20.0356,海口市,龙华路环保局宿舍,,48,44,25,33,17,74,,79,68,9,6,4,4,0.5,0.5
2025-04-06T1600,3539A,110.5111,19.9736,海口市,桂林洋子站,,50,50,24,33,14,74,,76,69,10,8,3,3,0.4,0.4
2025-04-06T1600,2673A,100.6188,36.2866,海南藏族自治州,共和县恰卜恰镇,,,73,90,27,36,118,,112,112,3,5,,12,0.4,0.5
2025-04-06T1600,2676A,97.3731,37.3753,海西蒙古族藏族自治州,德令哈市,颗粒物(PM10),65,79,77,35,29,116,,105,105,1,4,7,7,0.4,0.4
2025-04-06T1600,1048A,114.5302,36.6116,邯郸市,东污水处理厂,颗粒物(PM10),81,111,73,27,18,136,,95,95,15,23,5,5,0.6,0.5
2025-04-06T1600,1049A,114.4918,36.5713,邯郸市,矿院,颗粒物(PM10),105,160,67,24,20,106,,74,74,9,19,5,5,0.4,0.4
2025-04-06T1600,1050A,114.484,36.6133,邯郸市,丛台公园,颗粒物(PM10),78,105,73,35,22,135,,97,97,11,19,8,8,0.4,0.5
2025-04-06T1600,3458A,114.7895,36.5593,邯郸市,香泉濮院小区,颗粒物(PM10),100,149,95,34,19,150,,104,104,12,13,10,7,0.5,0.3
2025-04-06T1600,3579A,114.50634,36.77178,邯郸市,永年区实验高中,颗粒物(PM10),72,94,97,39,35,139,,105,105,7,23,7,15,0.9,1.3
2025-04-06T1600,3580A,114.20016,36.44293,邯郸市,峰峰矿区临水派出所,颗粒物(PM10),84,117,84,39,32,145,,116,116,12,19,16,17,0.7,1.1
2025-04-06T1600,2634A,106.9893,33.1842,汉中市,汉川机床厂子校,颗粒物(PM10),64,78,77,29,38,136,,115,115,2,9,8,9,0.5,0.5
2025-04-06T1600,2635A,107.0154,33.0706,汉中市,市监测站,颗粒物(PM10),64,77,81,28,38,125,,112,112,7,12,5,6,0.5,0.6
2025-04-06T1600,2636A,107.0089,33.1138,汉中市,鑫源开发区,颗粒物(PM10),59,68,80,29,36,135,,117,117,9,16,6,13,0.5,0.7
2025-04-06T1600,2637A,107.007,33.0323,汉中市,南郑大河坎水厂,颗粒物(PM10),55,60,75,27,35,119,,104,104,7,12,5,6,0.5,0.6
2025-04-06T1600,1223A,120.2072,30.2111,杭州市,滨江,,50,47,96,18,48,160,,122,122,13,46,7,7,0.1,0.4
2025-04-06T1600,1224A,120.0633,30.2747,杭州市,西溪,颗粒物(PM10),51,51,65,20,27,156,,125,125,14,30,7,7,0.2,0.3
2025-04-06T1600,1226A,120.3417,30.3150,杭州市,下沙,,47,42,142,15,81,149,,124,124,15,49,8,8,0.4,0.7
2025-04-06T1600,1227A,120.1269,30.2456,杭州市,卧龙桥,,49,46,68,24,36,155,,125,125,13,24,7,6,0.2,0.4
2025-04-06T1600,1228A,120.1903,30.2692,杭州市,浙江农大,,48,42,104,19,51,151,,122,122,23,53,5,5,0.2,0.5
2025-04-06T1600,1230A,120.1197,30.3119,杭州市,和睦小学,,50,50,84,27,38,158,,127,127,13,37,8,7,0.5,0.7
2025-04-06T1600,1231A,120.3019,30.4183,杭州市,临平镇,臭氧1小时,65,51,129,20,80,172,,138,138,14,32,7,7,0.4,0.7
2025-04-06T1600,1232A,120.2753,30.1839,杭州市,城厢镇,颗粒物(PM10),55,60,103,26,47,162,,134,134,19,48,8,8,0.3,0.6
2025-04-06T1600,1233A,120.0883,30.1808,杭州市,云栖,颗粒物(PM10),86,122,79,16,30,158,,128,128,18,37,9,9,0.4,0.6
2025-04-06T1600,3557A,119.9464,30.0494,杭州市,镇二中,颗粒物(PM10),51,52,64,22,31,154,,121,121,18,32,7,7,0.5,0.7
2025-04-06T1600,3558A,119.7183,30.2367,杭州市,市府大楼,,49,48,68,20,31,156,,127,127,12,22,9,9,0.3,0.5
2025-04-06T1600,3656A,120.1556,30.2864,杭州市,消防大队,臭氧1小时,59,56,93,23,42,167,,134,134,17,38,4,4,0.4,0.6
2025-04-06T1600,1270A,117.1959,31.7848,合肥市,明珠广场,细颗粒物(PM2.5),55,53,95,39,33,148,,121,121,10,41,4,5,0.2,0.4
2025-04-06T1600,1271A,117.3072,31.8764,合肥市,三里街,颗粒物(PM10),51,51,94,12,29,135,,112,112,18,41,6,8,0.5,0.7
2025-04-06T1600,1272A,117.2588,31.8707,合肥市,琥珀山庄,颗粒物(PM10),60,70,97,19,37,147,,124,124,11,37,3,3,0.5,0.8
2025-04-06T1600,1273A,117.1604,31.9052,合肥市,董铺水库,颗粒物(PM10),59,68,109,22,35,144,,126,126,2,13,3,3,0.2,0.4
2025-04-06T1600,1274A,117.25,31.8571,合肥市,长江中路,颗粒物(PM10),58,66,102,30,38,145,,124,124,13,34,8,10,0.4,0.6
2025-04-06T1600,1275A,117.266,31.9436,合肥市,庐阳区,颗粒物(PM10),58,66,105,24,33,143,,123,123,10,36,4,6,0.2,0.4
2025-04-06T1600,1276A,117.3453,31.8616,合肥市,瑶海区,颗粒物(PM10),58,66,111,34,43,134,,116,116,12,39,6,8,0.4,0.6
2025-04-06T1600,1277A,117.3027,31.7964,合肥市,包河区,颗粒物(PM10),51,51,102,14,33,144,,122,122,5,58,5,7,0.2,0.5
2025-04-06T1600,1278A,117.2776,31.7385,合肥市,滨湖新区,细颗粒物(PM2.5),73,,110,53,44,143,,118,118,7,52,5,6,0.3,0.5
2025-04-06T1600,1279A,117.1318,31.8403,合肥市,高新区,,,73,105,9,30,138,,119,119,,39,3,4,0.2,0.4
2025-04-06T1600,3464A,117.3803,31.9147,合肥市,高教基地,颗粒物(PM10),57,63,100,24,35,157,,134,134,10,24,5,6,0.3,0.4
2025-04-06T1600,3614A,79.924,37.0877,和田地区,地区环保局,颗粒物(PM10),134,217,397,33,70,93,,78,78,4,16,2,1,0.4,0.3
2025-04-06T1600,3615A,79.9131,37.113,和田地区,市环保局,颗粒物(PM10),138,225,367,51,66,99,,78,78,1,17,1,1,0.0,0.1
2025-04-06T1600,2516A,108.2011,24.715,河池市,东仁乐园,细颗粒物(PM2.5),80,85,75,59,51,113,,90,90,11,16,16,12,1.1,1
2025-04-06T1600,2517A,108.0497,24.6947,河池市,市环保站,细颗粒物(PM2.5),83,82,67,61,49,100,,83,83,11,12,17,10,0.7,0.6
2025-04-06T1600,2518A,108.0983,24.6989,河池市,市疾控中心,细颗粒物(PM2.5),85,70,65,63,52,111,,89,89,14,19,16,12,0.8,0.8
2025-04-06T1600,1696A,114.6778,23.7569,河源市,源西,颗粒物(PM10),53,56,34,28,24,83,,66,66,12,13,5,4,0.6,0.6
2025-04-06T1600,1697A,114.6944,23.7586,河源市,东埔,,43,36,33,30,27,92,,72,72,12,17,4,4,0.7,0.6
2025-04-06T1600,1698A,114.6892,23.7233,河源市,老城,,48,48,36,31,31,88,,71,71,12,17,5,4,0.5,0.5
2025-04-06T1600,1718A,115.4208,35.2464,菏泽市,气象局,颗粒物(PM10),109,167,112,39,29,157,,127,127,10,16,7,7,0.4,0.4
2025-04-06T1600,3374A,115.5564,35.0891,菏泽市,定陶老年大学,颗粒物(PM10),95,139,90,39,26,142,,118,118,13,20,5,6,0.4,0.3
2025-04-06T1600,4184A,115.4797,35.24401,菏泽市,永昌路1号,颗粒物(PM10),95,139,92,44,30,142,,116,116,10,16,6,7,0.2,0.2
2025-04-06T1600,4193A,115.4715,35.2800,菏泽市,长城路999号,颗粒物(PM10),99,147,100,31,19,152,,125,125,14,17,18,10,0.3,0.3
2025-04-06T1600,2514A,111.5264,24.4172,贺州市,环保小区,细颗粒物(PM2.5),79,88,86,58,55,128,,96,96,15,20,10,8,0.7,0.7
2025-04-06T1600,2515A,111.5608,24.4078,贺州市,政协大楼,细颗粒物(PM2.5),79,83,75,58,51,117,,89,89,14,18,10,9,0.7,0.7
2025-04-06T1600,3534A,111.4744,24.4553,贺州市,西湾,细颗粒物(PM2.5),74,88,98,54,61,123,,92,92,14,22,9,8,0.7,0.8
2025-04-06T1600,2385A,114.17,35.9019,鹤壁市,市监测站,颗粒物(PM10),93,135,106,27,32,142,,100,100,13,18,11,8,0.5,0.6
2025-04-06T1600,2386A,114.2956,35.7511,鹤壁市,市交警支队,颗粒物(PM10),83,115,99,33,29,142,,105,105,21,26,10,11,0.9,0.8
2025-04-06T1600,2387A,114.2878,35.7306,鹤壁市,迎宾馆,颗粒物(PM10),89,128,118,22,21,149,,109,109,14,19,8,7,0.6,0.5
2025-04-06T1600,3474A,114.2617,35.6822,鹤壁市,大新区,,,109,94,,36,140,,101,101,14,26,10,10,0.5,0.5
2025-04-06T1600,3596A,114.1572,35.9603,鹤壁市,南山宾馆,颗粒物(PM10),98,146,107,40,37,139,,102,102,16,20,7,7,0.5,0.5
2025-04-06T1600,2244A,130.2537,47.3416,鹤岗市,哈啤分公司,,36,31,38,25,26,99,,92,92,7,9,14,15,0.3,0.3
2025-04-06T1600,2245A,130.2684,47.3086,鹤岗市,斯达机电,,45,,44,31,34,110,,100,100,5,9,14,16,0.3,0.4
2025-04-06T1600,2246A,130.3114,47.3388,鹤岗市,东山纸板厂,,50,50,63,30,32,91,,90,90,10,14,12,15,0.4,0.7
2025-04-06T1600,2247A,130.1097,47.3382,鹤岗市,五号水库,,,,,,,,,,,,,,,,
2025-04-06T1600,2263A,127.4833,50.2524,黑河市,交通局,,26,20,20,13,16,82,,67,67,7,7,6,7,0.3,0.4
2025-04-06T1600,2264A,127.5144,50.2341,黑河市,环保局,,28,16,16,12,17,87,,70,70,6,8,4,5,0.3,0.4
2025-04-06T1600,2265A,127.5291,50.2472,黑河市,大黑河岛,,30,6,16,3,9,94,,75,75,4,10,1,2,0.2,0.3
2025-04-06T1600,1074A,115.6838,37.7541,衡水市,电机北厂,颗粒物(PM10),80,109,72,49,26,160,,118,118,12,15,9,6,0.4,0.3
2025-04-06T1600,1075A,115.6303,37.7316,衡水市,市监测站,颗粒物(PM10),68,86,67,40,20,160,,116,116,11,17,14,12,0.4,0.4
2025-04-06T1600,3188A,115.6683,37.7217,衡水市,市城管局,颗粒物(PM10),78,106,67,38,24,157,,115,115,15,18,17,11,0.4,0.4
2025-04-06T1600,3459A,115.5989,37.5491,衡水市,地表水厂,颗粒物(PM10),75,100,76,29,22,168,,120,120,14,22,14,12,0.4,0.3
2025-04-06T1600,2456A,112.5003,26.9167,衡阳市,原169医院,颗粒物(PM10),68,86,96,45,63,137,,93,93,9,21,14,14,0.8,1
2025-04-06T1600,2457A,112.6194,26.9258,衡阳市,衡阳化工总厂,颗粒物(PM10),71,91,114,35,75,150,,109,109,7,27,12,11,0.7,1.2
2025-04-06T1600,2458A,112.6211,26.8956,衡阳市,珠晖区环保局,,,134,110,40,69,153,,111,111,5,25,,12,0.6,1.3
2025-04-06T1600,2459A,112.6197,26.8733,衡阳市,市委党校,颗粒物(PM10),69,87,115,30,68,144,,108,108,7,26,8,11,0.5,0.9
2025-04-06T1600,2460A,112.6006,26.8919,衡阳市,市监测站,细颗粒物(PM2.5),74,91,115,54,75,147,,109,109,8,32,12,13,0.6,1.2
2025-04-06T1600,2461A,112.5664,26.9056,衡阳市,真空机电公司,颗粒物(PM10),70,90,112,43,65,152,,102,102,8,26,11,14,0.7,1.2
2025-04-06T1600,3399A,112.6703,26.882,衡阳市,师范学院,细颗粒物(PM2.5),70,85,116,51,78,150,,114,114,9,24,13,17,0.6,1.1
2025-04-06T1600,2608A,103.3772,23.3993,红河哈尼族彝族自治州,污水处理厂,,36,29,32,25,30,102,,99,99,9,10,8,8,0.6,0.5
2025-04-06T1600,2609A,103.3861,23.35,红河哈尼族彝族自治州,监测站,,39,39,40,9,25,108,,101,101,6,10,10,12,0.3,0.3
2025-04-06T1600,3038A,103.3758,23.368,红河哈尼族彝族自治州,州图书馆,,33,32,26,21,27,104,,101,101,10,10,6,5,0.5,0.5
2025-04-06T1600,1090A,111.6507,40.7517,呼和浩特市,呼市一监,颗粒物(PM10),90,129,92,51,39,132,,85,85,13,28,18,16,0.7,0.7
2025-04-06T1600,1091A,111.6572,40.8033,呼和浩特市,小召,颗粒物(PM10),93,136,87,53,35,120,,82,82,23,42,15,10,0.6,0.7
2025-04-06T1600,1094A,111.7516,40.8369,呼和浩特市,如意水处理厂,颗粒物(PM10),83,116,77,46,31,124,,81,81,15,44,16,11,0.5,0.6
2025-04-06T1600,1095A,111.7276,40.8062,呼和浩特市,二十九中,颗粒物(PM10),84,117,78,48,36,124,,81,81,16,36,12,8,0.7,0.7
2025-04-06T1600,1096A,111.5512,40.7866,呼和浩特市,工大金川校区,颗粒物(PM10),85,119,69,56,29,144,,89,89,16,41,15,10,0.6,0.6
2025-04-06T1600,1097A,111.717,40.7612,呼和浩特市,化肥厂生活区,颗粒物(PM10),89,127,94,44,38,132,,85,85,17,37,12,12,0.5,0.7
2025-04-06T1600,3698A,111.5968,40.8178,呼和浩特市,红旗小学,颗粒物(PM10),96,141,80,51,30,135,,88,88,21,43,14,9,0.6,0.6
2025-04-06T1600,3699A,111.6518,40.8389,呼和浩特市,海东办,颗粒物(PM10),96,141,74,54,32,122,,80,80,16,34,14,10,0.7,0.7
2025-04-06T1600,2192A,119.7594,49.2261,呼伦贝尔市,区环保局,,31,29,40,19,24,98,,86,86,9,14,4,5,0.2,0.3
2025-04-06T1600,3061A,119.7512,49.1577,呼伦贝尔市,国华电力东,,32,22,26,13,14,102,,92,92,4,6,4,4,0.4,0.4
2025-04-06T1600,1250A,120.0751,30.8669,湖州市,城西水厂,臭氧1小时,98,96,105,43,54,198,,135,135,20,59,11,9,0.5,0.6
2025-04-06T1600,2873A,120.0830,30.8929,湖州市,仁皇山新区,臭氧1小时,99,96,107,46,57,199,,146,146,17,33,9,7,0.6,0.8
2025-04-06T1600,2907A,120.1844,30.8596,湖州市,吴兴区站,臭氧1小时,92,82,115,34,55,193,,144,144,15,30,9,8,0.6,0.6
2025-04-06T1600,3562A,120.4148,30.8538,湖州市,南浔区站,臭氧1小时,88,60,109,29,57,190,,158,158,16,25,5,6,0.4,0.5
2025-04-06T1600,1607A,120.9049,40.7211,葫芦岛市,龙港区,,50,49,52,35,25,127,,98,98,12,33,9,21,0.4,0.5
2025-04-06T1600,1608A,120.8392,40.7514,葫芦岛市,化工街,,36,36,68,19,33,107,,93,93,12,38,13,41,0.5,0.7
2025-04-06T1600,1609A,120.8341,40.7073,葫芦岛市,新区,细颗粒物(PM2.5),65,58,53,47,26,131,,104,104,15,40,10,14,0.6,0.7
2025-04-06T1600,1610A,120.8695,40.7677,葫芦岛市,东城区,,44,44,62,29,34,114,,99,99,16,43,5,32,0.6,0.8
2025-04-06T1600,2482A,109.5981,27.5721,怀化市,林科所,颗粒物(PM10),59,67,73,33,53,106,,75,75,31,35,4,8,0.2,0.1
2025-04-06T1600,2483A,109.9453,27.5444,怀化市,河西地税局,颗粒物(PM10),71,91,86,42,54,128,,79,79,7,20,12,11,0.3,0.4
2025-04-06T1600,2484A,109.9781,27.5342,怀化市,市四医院,颗粒物(PM10),81,111,110,37,61,125,,77,77,6,26,8,8,0.3,0.7
2025-04-06T1600,2485A,109.9972,27.5578,怀化市,监测楼,颗粒物(PM10),68,86,94,38,56,125,,85,85,4,20,8,7,0.4,0.6
2025-04-06T1600,2486A,110.0394,27.583,怀化市,市委党校,颗粒物(PM10),69,87,92,27,58,120,,84,84,4,23,6,10,0.4,0.7
2025-04-06T1600,1210A,119.036,33.5981,淮安市,钵池山,颗粒物(PM10),51,51,68,19,31,138,,118,118,6,19,10,11,0.4,0.6
2025-04-06T1600,1211A,119.007,33.575,淮安市,北京南路,颗粒物(PM10),59,68,72,19,28,138,,115,115,11,27,8,10,0.4,0.6
2025-04-06T1600,1212A,118.989,33.6067,淮安市,市监测站,颗粒物(PM10),56,61,76,17,33,135,,112,112,12,29,9,11,0.3,0.6
2025-04-06T1600,1213A,119.135,33.5039,淮安市,楚州区监测站,颗粒物(PM10),56,61,74,24,32,126,,105,105,4,29,8,11,0.4,0.5
2025-04-06T1600,3426A,118.8755,33.2894,淮安市,新华书店,颗粒物(PM10),62,73,79,16,26,140,,121,121,10,18,9,10,0.3,0.4
2025-04-06T1600,4206A,119.0288,33.6319,淮安市,承德北路606号,颗粒物(PM10),56,61,83,23,34,129,,106,106,14,29,10,15,0.7,0.7
2025-04-06T1600,2282A,116.8004,33.975,淮北市,监测站,颗粒物(PM10),83,116,73,36,23,160,,130,130,10,19,7,8,0.6,0.6
2025-04-06T1600,2283A,116.8091,33.9007,淮北市,烈山区政府,颗粒物(PM10),96,141,99,34,34,157,,126,126,10,44,4,9,0.6,0.7
2025-04-06T1600,3330A,116.8873,33.9836,淮北市,杜集区检察院,颗粒物(PM10),93,136,91,32,24,161,,128,128,12,23,7,8,0.6,0.7
2025-04-06T1600,4017A,116.7923,33.9535,淮北市,市博物馆,颗粒物(PM10),87,124,89,58,30,156,,124,124,10,29,8,8,0.7,0.8
2025-04-06T1600,2277A,116.8305,32.7727,淮南市,潘集区政府,颗粒物(PM10),98,145,127,31,39,135,,122,122,17,26,6,7,0.3,0.4
2025-04-06T1600,2279A,116.8569,32.5951,淮南市,谢家集区政府,颗粒物(PM10),83,115,113,30,33,146,,120,120,9,18,6,8,0.2,0.4
2025-04-06T1600,2280A,116.8281,32.633,淮南市,八公山区政府,颗粒物(PM10),87,123,119,29,30,144,,122,122,7,13,4,7,0.3,0.3
2025-04-06T1600,2281A,116.6325,32.6201,淮南市,焦岗湖风景区管理处,颗粒物(PM10),69,88,82,36,33,77,,73,73,12,20,8,8,0.3,0.5
2025-04-06T1600,2894A,117.0566,32.6531,淮南市,经济技术开发区消防队,颗粒物(PM10),80,109,107,41,30,154,,133,133,5,18,6,8,0.3,0.3
2025-04-06T1600,3329A,117.0108,32.5893,淮南市,山南新区,颗粒物(PM10),83,116,120,22,25,148,,124,124,6,11,7,9,0.2,0.3
2025-04-06T1600,4209A,117.0031,32.6445,淮南市,国庆中路369号,颗粒物(PM10),81,111,102,30,32,151,,130,130,8,16,9,11,0.4,0.5
2025-04-06T1600,2446A,114.9028,30.4742,黄冈市,职工中心,"颗粒物(PM10),臭氧1小时",53,55,58,24,30,162,,136,136,18,24,8,9,0.7,0.6
2025-04-06T1600,2929A,114.8858,30.4519,黄冈市,红卫路,颗粒物(PM10),58,65,72,21,30,159,,128,128,19,29,7,8,0.6,0.8
2025-04-06T1600,3398A,114.9136,30.4445,黄冈市,市林业局,臭氧1小时,77,67,73,27,31,181,,138,138,12,25,12,11,1.0,0.9
2025-04-06T1600,2672A,102.0199,35.5102,黄南藏族自治州,同仁县隆务镇,颗粒物(PM10),72,93,96,29,35,93,,86,86,2,4,19,20,0.2,0.3
2025-04-06T1600,2295A,118.2903,29.6963,黄山市,延安路89号,,41,28,59,12,33,131,,107,107,2,11,5,6,0.0,0.2
2025-04-06T1600,2297A,118.1371,30.2756,黄山市,黄山区政府5号楼,,40,32,67,8,29,126,,110,110,2,6,8,8,0.2,0.4
2025-04-06T1600,4210A,118.3354,29.7203,黄山市,滨江东路7-2号,,41,32,68,11,28,130,,117,117,2,9,5,5,0.3,0.5
2025-04-06T1600,2423A,115.0601,30.2313,黄石市,沈家营,臭氧1小时,82,71,91,27,40,185,,135,135,16,33,6,11,0.6,0.7
2025-04-06T1600,2426A,114.8988,30.2019,黄石市,铁山,臭氧1小时,64,69,90,28,43,171,,148,148,14,29,11,14,0.9,1
2025-04-06T1600,2427A,115.0307,30.2092,黄石市,团城山,臭氧1小时,75,67,89,24,36,180,,125,125,8,32,9,13,0.6,0.7
2025-04-06T1600,3149A,115.0235,30.1578,黄石市,笔架山北路,臭氧1小时,80,52,80,19,42,184,,151,151,5,24,9,12,0.6,0.8
2025-04-06T1600,4185A,115.0780,30.21118,黄石市,磁湖东路29号,臭氧1小时,92,68,97,26,42,193,,131,131,9,38,7,10,0.8,0.9
2025-04-06T1600,1392A,114.4183,23.0528,惠州市,河南岸金山湖子站,,46,46,35,27,23,80,,73,73,22,19,10,10,0.6,0.5
2025-04-06T1600,1393A,114.4053,23.0822,惠州市,下埔横江三路子站,,48,48,38,28,24,90,,83,83,17,14,10,10,0.5,0.5
2025-04-06T1600,1394A,114.4103,23.1142,惠州市,江北云山西路子站,颗粒物(PM10),52,54,38,29,24,102,,88,88,20,15,10,11,0.5,0.5
2025-04-06T1600,1395A,114.4645,22.7833,惠州市,惠阳区承修路船湖子站,,50,50,39,29,26,74,,70,70,25,18,9,9,0.6,0.6
2025-04-06T1600,1396A,114.5317,22.7422,惠州市,大亚湾管委会子站,,48,48,36,26,23,64,,74,74,39,16,7,7,0.6,0.6
2025-04-06T1600,3314A,114.4338,22.8134,惠州市,惠阳秋长,,,78,40,37,25,77,,79,79,18,11,,14,0.8,0.7
2025-04-06T1600,3452A,114.6517,22.775,惠州市,大亚湾霞涌,,37,37,34,22,21,111,,84,84,17,13,7,7,0.5,0.4
2025-04-06T1600,2240A,130.9762,45.3001,鸡西市,环保局,,33,10,19,7,13,103,,100,100,9,10,6,6,0.5,0.5
2025-04-06T1600,2243A,130.9429,45.3039,鸡西市,第一中学,,32,13,17,3,12,101,,97,97,10,12,6,7,0.5,0.5
2025-04-06T1600,3707A,131.0207,45.3073,鸡西市,欧美日汽修厂,,36,11,17,3,14,113,,109,109,7,9,4,5,0.5,0.6
2025-04-06T1600,3709A,130.9967,45.3106,鸡西市,市政设施管理处,,30,10,22,3,14,96,,94,94,8,11,5,6,0.6,0.6
2025-04-06T1600,2367A,114.9754,27.0803,吉安市,红声器材厂,,49,49,77,32,44,155,,113,113,12,26,14,13,0.5,0.6
2025-04-06T1600,2368A,114.9658,27.0999,吉安市,市森林工业局,颗粒物(PM10),54,57,72,26,47,146,,109,109,8,29,14,12,0.3,0.6
2025-04-06T1600,2369A,114.99,27.1312,吉安市,市环境监测站,颗粒物(PM10),53,56,70,27,46,152,,115,115,8,28,19,18,0.3,0.5
2025-04-06T1600,2370A,115.0093,27.0968,吉安市,青原区法院,"颗粒物(PM10),臭氧1小时",55,60,72,28,46,164,,119,119,12,28,14,12,0.4,0.5
2025-04-06T1600,1772A,126.54,43.8622,吉林市,哈达湾,细颗粒物(PM2.5),57,61,45,40,29,80,,72,72,18,19,7,7,0.7,0.8
2025-04-06T1600,1773A,126.5844,43.8358,吉林市,东局子,细颗粒物(PM2.5),57,51,38,40,29,76,,68,68,24,17,7,7,0.7,0.7
2025-04-06T1600,1774A,126.5052,43.8245,吉林市,电力学院,细颗粒物(PM2.5),65,63,45,47,34,82,,79,79,17,18,6,5,0.7,0.8
2025-04-06T1600,1775A,126.6133,43.8972,吉林市,江北,,49,49,53,32,36,84,,71,71,18,22,6,8,0.6,0.7
2025-04-06T1600,1776A,126.555,43.8306,吉林市,江南公园,细颗粒物(PM2.5),62,58,39,44,30,80,,71,71,16,15,6,6,0.5,0.6
2025-04-06T1600,1778A,126.7061,43.7133,吉林市,丰满,细颗粒物(PM2.5),65,51,27,47,25,98,,87,87,18,9,11,6,1.0,0.9
2025-04-06T1600,2868A,126.4739,43.953,吉林市,九站,,44,44,47,29,37,82,,73,73,16,24,15,15,0.7,0.7
2025-04-06T1600,1299A,116.9862,36.6114,济南市,科干所,颗粒物(PM10),73,95,47,27,12,154,,130,130,10,9,9,7,0.4,0.4
2025-04-06T1600,1300A,116.9376,36.665,济南市,农科所,颗粒物(PM10),78,105,69,22,14,145,,123,123,14,19,10,7,0.4,0.4
2025-04-06T1600,1301A,117.1265,36.6734,济南市,开发区,颗粒物(PM10),66,81,44,32,15,148,,129,129,12,10,9,7,0.5,0.4
2025-04-06T1600,1303A,117.0624,36.6868,济南市,省种子仓库,颗粒物(PM10),80,110,58,27,12,150,,129,129,9,13,6,4,0.6,0.6
2025-04-06T1600,1304A,116.9489,36.6447,济南市,机床二厂,颗粒物(PM10),86,122,71,34,17,138,,125,125,35,30,11,8,0.4,0.3
2025-04-06T1600,1305A,117.0495,36.663,济南市,市监测站,颗粒物(PM10),75,100,52,24,13,141,,121,121,13,13,10,8,0.4,0.4
2025-04-06T1600,1306A,116.7675,36.5484,济南市,长清党校,颗粒物(PM10),86,122,62,49,19,156,,131,131,16,17,8,7,0.7,0.6
2025-04-06T1600,1616A,117.6795,36.229,济南市,技术学院,颗粒物(PM10),75,100,60,27,24,153,,119,119,12,44,12,14,0.5,0.7
2025-04-06T1600,1961A,117.532,36.6868,济南市,东山小学,颗粒物(PM10),63,76,45,15,11,149,,126,126,6,12,8,7,0.2,0.2
2025-04-06T1600,3059A,117.7161,36.2049,济南市,泰兴公司,颗粒物(PM10),75,100,53,31,21,152,,119,119,13,41,10,11,0.5,0.6
2025-04-06T1600,3064A,117.6867,36.2171,济南市,莱芜战役纪念馆,颗粒物(PM10),71,92,67,19,18,154,,118,118,16,47,8,8,0.5,0.6
2025-04-06T1600,3494A,117.1673,36.9782,济南市,济阳区政府,颗粒物(PM10),74,98,78,20,16,158,,127,127,12,24,11,10,0.5,0.4
2025-04-06T1600,3495A,117.1171,36.63,济南市,锦屏中学,颗粒物(PM10),64,78,40,22,24,144,,123,123,12,11,10,8,0.3,0.2
2025-04-06T1600,3682A,116.9814,36.6819,济南市,济南四建,颗粒物(PM10),75,100,66,27,18,150,,127,127,13,15,8,5,0.3,0.3
2025-04-06T1600,1653A,116.6251,35.4302,济宁市,火炬城,颗粒物(PM10),78,105,58,48,31,160,,121,121,6,15,6,6,0.3,0.3
2025-04-06T1600,1655A,116.5491,35.4042,济宁市,电化厂,颗粒物(PM10),92,134,85,34,28,152,,118,118,10,29,6,7,0.3,0.2
2025-04-06T1600,3500A,116.5814,35.3707,济宁市,北湖一中,颗粒物(PM10),74,97,57,19,15,153,,120,120,14,24,12,11,0.3,0.3
2025-04-06T1600,3501A,116.8249,35.5593,济宁市,服务中心,颗粒物(PM10),84,118,73,32,33,161,,124,124,9,31,7,8,0.6,0.6
2025-04-06T1600,3678A,116.5907,35.4054,济宁市,市第七中学,颗粒物(PM10),80,110,63,31,26,158,,122,122,9,21,4,4,0.4,0.3
2025-04-06T1600,2255A,130.2751,46.8028,佳木斯市,佳纺,,40,40,55,24,36,104,,82,82,14,16,13,8,0.6,0.6
2025-04-06T1600,2256A,130.3995,46.8307,佳木斯市,发电厂,,35,27,41,23,34,112,,86,86,11,13,5,5,0.4,0.4
2025-04-06T1600,2257A,130.3258,46.7975,佳木斯市,环保局,,50,50,52,26,36,100,,78,78,23,22,7,4,0.6,0.5
2025-04-06T1600,2258A,130.3648,46.8032,佳木斯市,十一中,,38,35,46,26,37,106,,80,80,11,16,10,8,0.5,0.6
2025-04-06T1600,2259A,130.3794,46.7588,佳木斯市,四丰,,32,32,45,22,27,97,,74,74,8,12,1,1,1.0,1
2025-04-06T1600,1252A,120.7436,30.778,嘉兴市,清河小学,,49,49,94,17,48,144,,131,131,17,27,7,7,0.7,0.9
2025-04-06T1600,1253A,120.726,30.7478,嘉兴市,嘉兴学院,,,49,92,18,48,153,,139,139,,25,9,11,1.0,1.1
2025-04-06T1600,2872A,120.7846,30.7525,嘉兴市,南湖区残联,颗粒物(PM10),56,62,87,19,42,162,,147,147,14,23,10,11,0.5,0.7
2025-04-06T1600,3407A,120.6916,30.7739,嘉兴市,秀洲住建,臭氧1小时,55,48,104,24,44,164,,150,150,15,32,8,8,0.5,0.7
2025-04-06T1600,1945A,98.2908,39.7711,嘉峪关市,气象局,颗粒物(PM10),68,85,82,31,25,136,,105,105,12,13,16,9,0.9,0.5
2025-04-06T1600,2884A,98.2672,39.7978,嘉峪关市,酒钢宾馆,颗粒物(PM10),73,95,101,29,26,131,,103,103,12,13,28,18,0.8,0.4
2025-04-06T1600,3248A,98.2643,39.7724,嘉峪关市,雄关区,颗粒物(PM10),63,75,72,24,21,130,,100,100,16,19,9,6,0.7,0.6
2025-04-06T1600,1383A,113.1064,22.6058,江门市,北街,颗粒物(PM10),64,77,59,45,32,59,,48,48,56,45,4,3,0.8,0.8
2025-04-06T1600,1384A,113.0731,22.5835,江门市,西区,颗粒物(PM10),64,78,54,44,27,57,,55,55,58,43,9,8,0.8,0.7
2025-04-06T1600,1385A,113.0219,22.5311,江门市,圭峰西,细颗粒物(PM2.5),68,82,51,49,30,55,,59,59,49,32,6,6,0.6,0.6
2025-04-06T1600,1386A,113.0828,22.5947,江门市,东湖,颗粒物(PM10),68,86,53,39,30,54,,51,51,50,35,9,9,0.6,0.6
2025-04-06T1600,3311A,113.1075,22.5647,江门市,江海富民,细颗粒物(PM2.5),64,74,61,46,31,54,,51,51,57,44,8,8,0.8,0.7
2025-04-06T1600,3449A,113.05,22.4667,江门市,新会银湖,细颗粒物(PM2.5),77,80,59,56,39,35,,43,43,63,41,2,3,0.5,0.5
2025-04-06T1600,1830A,113.1992,35.2590,焦作市,影视城,,,,54,,26,,,,,,14,,8,,1.0
2025-04-06T1600,3169A,113.2725,35.2067,焦作市,太极体育中心,颗粒物(PM10),81,112,116,42,37,156,,113,113,15,22,11,13,0.3,0.4
2025-04-06T1600,3335A,113.3137,35.2641,焦作市,马村街道办,细颗粒物(PM2.5),132,103,101,100,41,144,,106,106,19,23,12,12,0.6,0.7
2025-04-06T1600,3336A,113.2465,35.2373,焦作市,焦作技师学院,颗粒物(PM10),79,108,106,31,28,159,,115,115,16,21,11,11,0.6,0.7
2025-04-06T1600,3477A,113.1656,35.2539,焦作市,中站许衡医院,颗粒物(PM10),75,99,98,27,31,153,,112,112,14,27,13,14,0.6,0.7
2025-04-06T1600,3981A,113.2449,35.1803,焦作市,原李万街道办,颗粒物(PM10),74,97,112,36,31,151,,112,112,16,26,13,18,0.4,0.6
2025-04-06T1600,4264A,113.2340,35.2190,焦作市,新安路1731号,颗粒物(PM10),75,99,102,30,32,150,,107,107,13,21,11,12,0.4,0.5
2025-04-06T1600,1708A,116.3701,23.5345,揭阳市,新兴,颗粒物(PM10),57,63,52,29,35,144,,98,98,17,26,9,7,0.7,0.8
2025-04-06T1600,1709A,116.3264,23.5443,揭阳市,西马,颗粒物(PM10),56,62,51,21,33,145,,101,101,8,22,10,8,0.6,0.7
2025-04-06T1600,1710A,116.3611,23.5626,揭阳市,东兴,颗粒物(PM10),54,57,56,25,33,146,,96,96,13,26,10,8,0.7,0.9
2025-04-06T1600,1711A,116.4151,23.5294,揭阳市,渔湖,颗粒物(PM10),59,68,52,27,25,149,,100,100,18,25,6,6,0.8,0.8
2025-04-06T1600,3320A,116.403,23.5699,揭阳市,曲溪,颗粒物(PM10),58,65,54,34,28,164,,104,104,17,29,2,2,0.6,0.7
2025-04-06T1600,1944A,102.1692,38.5167,金昌市,天庆家园,颗粒物(PM10),60,69,195,33,63,110,,101,101,2,10,8,11,0.7,0.8
2025-04-06T1600,4022A,102.1647,38.5371,金昌市,金川区人防中心,"颗粒物(PM10),细颗粒物(PM2.5)",75,100,278,55,115,107,,97,97,3,10,17,16,0.4,0.5
2025-04-06T1600,4239A,102.1930,38.5319,金昌市,长春路96号,颗粒物(PM10),88,125,296,32,69,106,,98,98,2,8,8,17,0.7,0.7
2025-04-06T1600,1262A,119.647,29.077,金华市,十五中,颗粒物(PM10),53,56,81,13,35,155,,131,131,14,35,7,7,0.3,0.6
2025-04-06T1600,1263A,119.686,29.1029,金华市,监测站,颗粒物(PM10),57,63,86,25,41,161,,133,133,11,36,6,6,0.3,0.4
2025-04-06T1600,3659A,119.656,29.1131,金华市,气象局,颗粒物(PM10),59,68,94,24,41,164,,130,130,11,41,7,7,0.4,0.5
2025-04-06T1600,1767A,121.1115,41.0879,锦州市,南山,细颗粒物(PM2.5),72,,61,52,42,123,,94,94,13,32,10,24,0.6,1
2025-04-06T1600,1768A,121.0604,40.8428,锦州市,开发区,细颗粒物(PM2.5),84,,80,62,37,144,,101,101,17,48,11,36,0.7,0.8
2025-04-06T1600,1769A,121.1836,41.1119,锦州市,百股街道,细颗粒物(PM2.5),52,49,57,36,37,129,,98,98,16,32,9,23,0.5,0.8
2025-04-06T1600,1770A,121.1178,41.1222,锦州市,天安街道,细颗粒物(PM2.5),67,56,62,48,39,123,,97,97,17,35,11,14,0.6,0.9
2025-04-06T1600,1771A,121.1303,41.1386,锦州市,北湖公园,细颗粒物(PM2.5),65,69,57,47,35,123,,96,96,16,31,10,15,0.7,0.8
2025-04-06T1600,2160A,112.85,35.5051,晋城市,自来水公司,颗粒物(PM10),68,85,72,17,20,114,,91,91,14,27,6,9,0.3,0.6
2025-04-06T1600,2161A,112.8318,35.4936,晋城市,白云商贸,颗粒物(PM10),58,66,78,24,19,120,,93,93,13,26,4,7,0.4,0.7
2025-04-06T1600,2162A,112.8508,35.4887,晋城市,市环保局,颗粒物(PM10),69,88,75,22,19,118,,93,93,8,28,2,6,0.2,0.5
2025-04-06T1600,2163A,112.8676,35.4897,晋城市,技术学院,颗粒物(PM10),71,92,69,22,17,114,,88,88,11,29,5,8,0.4,0.7
2025-04-06T1600,2165A,112.8453,35.546,晋城市,白马寺,细颗粒物(PM2.5),67,55,61,48,22,120,,100,100,5,12,3,7,0.3,0.6
2025-04-06T1600,3620A,112.8271,35.4828,晋城市,泽州一中,颗粒物(PM10),58,66,67,29,19,121,,94,94,8,22,4,4,0.3,0.6
2025-04-06T1600,2173A,112.7249,37.7067,晋中市,南都小区,颗粒物(PM10),67,84,85,22,24,142,,106,106,10,35,9,16,0.3,0.6
2025-04-06T1600,2174A,112.6991,37.6982,晋中市,榆次区政府,颗粒物(PM10),74,97,83,20,21,147,,110,110,10,31,9,17,0.3,0.5
2025-04-06T1600,2865A,112.7195,37.6828,晋中市,榆次三中,颗粒物(PM10),79,107,88,19,22,144,,106,106,9,34,9,14,0.4,0.5
2025-04-06T1600,4200A,112.7478,37.6954,晋中市,迎宾街26号,颗粒物(PM10),75,100,84,27,23,144,,107,107,8,28,9,14,0.4,0.4
2025-04-06T1600,2439A,112.2014,31.0481,荆门市,竹园小学,颗粒物(PM10),77,104,116,28,41,146,,123,123,8,14,4,7,0.3,0.4
2025-04-06T1600,2440A,112.1969,30.9891,荆门市,掇刀,颗粒物(PM10),74,98,110,34,45,139,,118,118,5,13,7,9,0.2,0.4
2025-04-06T1600,2441A,112.2213,31.0386,荆门市,石化一小,颗粒物(PM10),74,97,112,25,39,141,,119,119,7,19,10,11,0.1,0.3
2025-04-06T1600,3012A,112.1849,31.0362,荆门市,西山林语,颗粒物(PM10),77,103,96,30,40,144,,122,122,5,11,4,7,0.2,0.3
2025-04-06T1600,3547A,112.1632,31.0138,荆门市,龙泉中学南校,颗粒物(PM10),75,100,110,38,47,130,,108,108,8,19,6,9,0.3,0.4
2025-04-06T1600,1844A,112.2494,30.3197,荆州市,市图书馆,颗粒物(PM10),72,93,84,39,45,143,,122,122,12,24,4,8,0.4,0.5
2025-04-06T1600,1845A,112.2008,30.3544,荆州市,市委党校,颗粒物(PM10),69,88,92,38,47,139,,114,114,13,24,6,9,0.6,0.7
2025-04-06T1600,3194A,112.2747,30.3122,荆州市,管委会,颗粒物(PM10),74,98,94,38,45,145,,122,122,10,17,8,10,0.5,0.6
2025-04-06T1600,4268A,112.1722,30.3366,荆州市,学苑路85号,细颗粒物(PM2.5),53,54,75,37,47,148,,120,120,12,31,8,10,0.5,0.6
2025-04-06T1600,2342A,117.3102,29.3867,景德镇市,王港中学,,,,,,,,,,,,,,,,
2025-04-06T1600,2343A,117.2117,29.2933,景德镇市,老干部活动中心,颗粒物(PM10),53,55,62,16,27,159,,130,130,7,24,9,9,0.3,0.5
2025-04-06T1600,2344A,117.1894,29.2789,景德镇市,兽医站,颗粒物(PM10),60,69,77,23,30,154,,120,120,6,30,5,14,0.6,0.8
2025-04-06T1600,2345A,117.1547,29.2617,景德镇市,台达陶瓷,颗粒物(PM10),62,73,83,26,34,154,,124,124,9,31,14,20,0.6,0.6
2025-04-06T1600,2346A,117.2461,29.2956,景德镇市,陶研所,臭氧1小时,53,50,56,25,31,162,,118,118,6,22,12,7,0.3,0.5
2025-04-06T1600,1803A,115.9872,29.6815,九江市,十里,臭氧1小时,69,66,77,27,40,175,,130,130,6,37,5,5,0.1,0.5
2025-04-06T1600,1804A,115.9584,29.7046,九江市,茅山头,臭氧1小时,90,80,91,27,39,192,,135,135,16,36,10,9,0.4,0.5
2025-04-06T1600,1805A,115.9877,29.7295,九江市,西园,臭氧1小时,89,59,76,25,36,191,,123,123,24,40,12,13,0.7,0.8
2025-04-06T1600,1808A,115.9114,29.6038,九江市,综合工业园,臭氧1小时,73,73,86,30,37,178,,131,131,24,54,11,10,0.6,0.7
2025-04-06T1600,1809A,116.0721,29.7535,九江市,石化总厂,,,59,76,37,49,183,,122,122,18,58,,25,0.6,0.8
2025-04-06T1600,1810A,115.9773,29.5698,九江市,庐山气象台,颗粒物(PM10),56,62,68,23,29,151,,134,134,11,11,7,7,1.0,0.7
2025-04-06T1600,3190A,116.0254,29.6994,九江市,外国语学校,颗粒物(PM10),58,65,84,29,39,158,,123,123,10,37,12,12,0.9,1
2025-04-06T1600,4253A,116.0102,29.6594,九江市,莲花大道8号,颗粒物(PM10),63,75,84,31,36,158,,125,125,2,13,7,7,0.5,0.6
2025-04-06T1600,4240A,98.4958,39.7339,酒泉市,玉门东路5号,颗粒物(PM10),74,97,129,26,31,131,,99,99,7,8,16,10,0.4,0.2
2025-04-06T1600,4241A,98.5099,39.7506,酒泉市,北大街108号,颗粒物(PM10),67,83,128,24,28,116,,90,90,7,10,22,15,0.5,0.3
2025-04-06T1600,2698A,76.0072,39.4467,喀什地区,巡警大队,颗粒物(PM10),88,125,246,14,54,104,,68,68,8,29,4,4,0.4,0.6
2025-04-06T1600,2699A,75.9755,39.4694,喀什地区,吾办,颗粒物(PM10),67,84,246,20,76,101,,64,63,9,27,6,5,0.4,0.6
2025-04-06T1600,4027A,75.9483,39.4689,喀什地区,老干局,颗粒物(PM10),61,71,244,12,57,107,,70,70,6,23,3,3,0,0.1
2025-04-06T1600,1824A,114.3389,34.7781,开封市,肿瘤医院,颗粒物(PM10),99,147,107,40,27,170,,122,122,11,24,10,10,0.6,0.5
2025-04-06T1600,1826A,114.2885,34.7965,开封市,世纪星幼儿园,颗粒物(PM10),103,156,104,42,35,178,,122,122,18,29,10,10,0.5,0.5
2025-04-06T1600,3147A,114.3438,34.8106,开封市,龙亭公园,颗粒物(PM10),114,177,117,76,47,176,,124,124,14,26,8,7,0.5,0.4
2025-04-06T1600,3210A,114.3644,34.7964,开封市,汴京公园,颗粒物(PM10),111,172,126,43,34,180,,129,129,14,27,7,7,0.3,0.3
2025-04-06T1600,3473A,114.2485,34.8306,开封市,技师学院,颗粒物(PM10),103,156,103,37,42,168,,113,113,17,26,6,6,0.8,0.7
2025-04-06T1600,3592A,114.4644,34.7556,开封市,祥符区生态环境局,颗粒物(PM10),102,153,123,44,34,163,,122,122,14,26,8,8,0.5,0.5
2025-04-06T1600,1951A,84.895,45.6094,克拉玛依市,长征新村,,31,16,16,8,8,98,,87,85,5,6,8,7,0.2,0.2
2025-04-06T1600,1952A,84.8988,45.5893,克拉玛依市,南林小区,,32,17,17,6,10,100,,91,88,2,2,3,2,0.1,0.1
2025-04-06T1600,1954A,84.905,44.3396,克拉玛依市,独山子区,,48,,62,33,19,108,,81,81,1,7,8,9,0.3,0.3
2025-04-06T1600,1955A,85.6979,46.098,克拉玛依市,乌尔禾区商贸楼,,30,6,24,3,8,95,,73,73,2,2,5,6,0.2,0.2
2025-04-06T1600,3612A,85.1045,45.6899,克拉玛依市,白碱滩区新站,,31,18,20,3,5,98,,89,79,5,4,9,9,0.3,0.3
2025-04-06T1600,2697A,76.1454,39.7142,克孜勒苏柯尔克孜自治州,市人民政府,颗粒物(PM10),66,81,214,18,57,115,,94,93,1,8,5,7,0.4,0.4
2025-04-06T1600,3665A,76.1658,39.7157,克孜勒苏柯尔克孜自治州,克州文化中心,颗粒物(PM10),61,72,232,16,55,113,,97,92,1,8,6,7,0.3,0.4
2025-04-06T1600,1450A,102.8204,24.8886,昆明市,呈贡新区,颗粒物(PM10),58,65,72,38,60,148,,133,133,10,18,5,8,0.6,0.7
2025-04-06T1600,1451A,102.6251,24.9608,昆明市,西山森林公园,,,,,,,,,,,,,,,,
2025-04-06T1600,1452A,102.7252,25.0902,昆明市,龙泉镇,细颗粒物(PM2.5),58,43,54,41,37,141,,117,117,10,31,7,8,0.6,0.7
2025-04-06T1600,1453A,102.7266,25.0375,昆明市,东风东路,细颗粒物(PM2.5),58,57,69,41,54,144,,126,126,15,18,10,10,0.6,0.7
2025-04-06T1600,1454A,102.6742,25.0669,昆明市,金鼎山,颗粒物(PM10),56,62,58,30,39,139,,122,122,14,24,3,5,0.7,0.7
2025-04-06T1600,1455A,102.6644,25.0401,昆明市,碧鸡广场,细颗粒物(PM2.5),52,48,55,36,43,145,,125,125,12,24,7,8,0.7,0.7
2025-04-06T1600,3179A,102.7494,25.0119,昆明市,官渡区博物馆,颗粒物(PM10),61,72,72,36,47,145,,128,128,13,17,7,8,0.4,0.6
2025-04-06T1600,3375A,102.8017,24.8336,昆明市,青年创业园,细颗粒物(PM2.5),64,50,73,46,56,139,,124,124,9,21,10,12,0.6,0.8
2025-04-06T1600,3550A,102.7997,24.9786,昆明市,昆明学院,,50,50,76,35,55,139,,127,127,15,15,5,6,0,0.6
2025-04-06T1600,3551A,102.5967,24.6736,昆明市,晋宁区生态环境分局,细颗粒物(PM2.5),55,46,64,39,57,141,,126,126,6,10,7,8,0.7,0.9
2025-04-06T1600,3552A,102.6678,24.9856,昆明市,云天化总部,,46,41,59,28,41,145,,130,130,11,21,9,9,0.5,0.7
2025-04-06T1600,1456A,91.1319,29.6514,拉萨市,八廓街,,43,31,22,11,12,135,,118,118,5,10,6,10,0.3,0.5
2025-04-06T1600,1457A,91.1221,29.6747,拉萨市,市环保局,,41,23,23,12,12,129,,107,107,9,15,3,7,0.2,0.3
2025-04-06T1600,1458A,91.0874,29.6475,拉萨市,区监测站,,42,17,20,10,10,132,,112,112,6,14,6,10,0.4,0.5
2025-04-06T1600,1459A,91.1774,29.6541,拉萨市,西藏大学,,40,25,19,8,10,127,,111,111,6,11,6,10,0.2,0.2
2025-04-06T1600,1460A,90.9798,29.6588,拉萨市,区辐射站,,41,26,28,10,14,130,,105,105,5,22,7,8,0.3,0.4
2025-04-06T1600,1461A,91.0834,29.6292,拉萨市,拉萨火车站,,40,25,17,10,9,126,,108,108,5,8,3,5,0.6,0.6
2025-04-06T1600,2520A,109.2203,23.7256,来宾市,来宾技工学校,细颗粒物(PM2.5),95,97,99,71,77,108,,93,78,14,16,11,11,0.9,0.9
2025-04-06T1600,3535A,109.1781,23.7297,来宾市,兴宾区政府,细颗粒物(PM2.5),97,88,104,72,72,108,,91,77,10,13,11,12,0.9,1
2025-04-06T1600,4002A,109.2416,23.7461,来宾市,中南小学,细颗粒物(PM2.5),89,93,102,66,68,100,,86,76,14,17,10,11,0.9,0.9
2025-04-06T1600,1477A,104.1373,35.9454,兰州市,榆中兰大校区,,,,,,,,,,,,,,,,
2025-04-06T1600,1479A,103.831,36.0464,兰州市,铁路设计院,,,,81,,25,,,59,59,31,56,,22,0.6,1
2025-04-06T1600,3241A,103.7439,36.0842,兰州市,百合公园,颗粒物(PM10),64,77,75,24,24,105,,74,74,15,32,19,15,0.3,0.6
2025-04-06T1600,3242A,103.9611,35.998,兰州市,和平,颗粒物(PM10),70,89,89,34,34,103,,72,72,18,26,14,16,0.7,0.6
2025-04-06T1600,4236A,103.6293,36.0938,兰州市,庄浪东路808号,颗粒物(PM10),67,84,86,33,38,109,,72,72,15,34,17,28,0.3,0.5
2025-04-06T1600,4237A,103.7251,36.1043,兰州市,安宁西路88号,颗粒物(PM10),77,103,91,42,38,120,,83,83,16,27,23,20,0.4,0.4
2025-04-06T1600,4238A,103.8470,36.0676,兰州市,北滨河东路1号,颗粒物(PM10),66,82,79,24,35,111,,66,66,25,52,18,19,0.5,0.7
2025-04-06T1600,3245A,103.6633,36.533,兰州新区,新区管委会,颗粒物(PM10),65,79,82,31,30,118,,98,98,8,15,17,16,0.2,0.2
2025-04-06T1600,3246A,103.6975,36.4789,兰州新区,舟曲中学,颗粒物(PM10),74,97,101,32,35,113,,98,98,10,18,10,17,0.4,0.4
2025-04-06T1600,1067A,116.6708,39.5111,廊坊市,药材公司,颗粒物(PM10),69,88,70,47,34,130,,96,96,23,26,8,5,0.5,0.4
2025-04-06T1600,1068A,116.7214,39.5589,廊坊市,开发区,颗粒物(PM10),81,111,79,48,33,126,,96,96,22,24,8,5,0.6,0.3
2025-04-06T1600,1070A,116.7244,39.5269,廊坊市,北华航天学院,颗粒物(PM10),86,121,84,52,33,120,,91,91,20,27,10,7,0.6,0.4
2025-04-06T1600,2919A,116.7022,39.5453,廊坊市,河北工业大学,细颗粒物(PM2.5),74,89,67,54,36,127,,96,96,22,26,11,8,0.6,0.4
2025-04-06T1600,2535A,103.7723,29.5462,乐山市,花湖湾,,34,34,32,23,23,98,,47,47,7,17,6,5,0.4,0.5
2025-04-06T1600,2536A,103.7627,29.5844,乐山市,牛耳桥,,34,31,32,18,21,106,,54,54,11,25,7,8,0.4,0.5
2025-04-06T1600,2537A,103.7508,29.6006,乐山市,市第三水厂,细颗粒物(PM2.5),58,,30,41,27,110,,,,5,17,4,4,0.5,0.4
2025-04-06T1600,2538A,103.7571,29.5664,乐山市,市监测站,,36,36,28,25,19,96,,54,54,8,16,5,5,0.4,0.6
2025-04-06T1600,3361A,103.7311,29.5628,乐山市,理工大学,,45,45,28,28,20,108,,62,62,10,19,5,5,0.6,0.7
2025-04-06T1600,2598A,100.2143,26.8576,丽江市,西南郊,,48,44,32,19,19,151,,147,147,6,5,5,4,0.7,0.7
2025-04-06T1600,2599A,100.2497,26.8802,丽江市,丽江古城,细颗粒物(PM2.5),70,,37,51,27,142,,138,138,11,11,8,8,0.5,0.6
2025-04-06T1600,2600A,100.2203,26.8906,丽江市,市中心,,45,36,28,30,22,141,,133,133,12,14,8,9,0.5,0.9
2025-04-06T1600,1267A,119.914,28.4514,丽水市,监测站大楼,颗粒物(PM10),58,66,63,29,33,160,,120,120,10,24,4,4,0.4,0.5
2025-04-06T1600,1268A,119.93,28.4586,丽水市,莲都小学,颗粒物(PM10),60,70,68,25,31,159,,119,119,9,26,4,4,0.3,0.4
2025-04-06T1600,1269A,119.879,28.4231,丽水市,余庄前,臭氧1小时,60,57,57,27,30,168,,128,128,10,16,4,3,0.5,0.5
2025-04-06T1600,1173A,119.176,34.5885,连云港市,市环境监测站,颗粒物(PM10),51,51,57,22,25,133,,105,105,10,20,11,13,0.4,0.6
2025-04-06T1600,3000A,119.3581,34.6972,连云港市,德源药业,,48,48,53,17,21,134,,103,103,9,20,9,10,0.4,0.4
2025-04-06T1600,3007A,119.178,34.844,连云港市,新城一中,颗粒物(PM10),53,56,53,23,24,135,,102,102,13,33,8,9,0.6,0.6
2025-04-06T1600,3008A,119.3608,34.7519,连云港市,胡沟管理处,,44,44,45,19,18,127,,90,90,16,37,8,10,0.3,0.5
2025-04-06T1600,3009A,119.1478,34.5911,连云港市,矿山设计院,颗粒物(PM10),51,51,59,17,23,131,,102,102,13,24,9,10,0.4,0.5
2025-04-06T1600,3434A,119.2413,34.6539,连云港市,工贸学校,,47,47,53,27,24,133,,106,106,17,20,9,12,0.5,0.6
2025-04-06T1600,3664A,119.4172,34.7341,连云港市,连云街道,颗粒物(PM10),56,62,62,27,22,134,,84,80,16,35,8,10,0.4,0.5
2025-04-06T1600,2571A,102.3431,27.8099,凉山彝族自治州,青龙寺,,44,34,27,10,5,139,,93,93,4,10,7,7,0.7,0.7
2025-04-06T1600,2572A,102.2721,27.8415,凉山彝族自治州,邛海宾馆,颗粒物(PM10),51,52,22,22,10,130,,84,84,15,13,8,8,0.4,0.4
2025-04-06T1600,2573A,102.2625,27.898,凉山彝族自治州,西昌市政府,,43,38,18,30,12,135,,88,88,8,12,8,9,0.7,0.5
2025-04-06T1600,2574A,102.2685,27.8851,凉山彝族自治州,凉山州政府,,44,37,20,23,11,139,,90,90,10,15,6,6,0.5,0.7
2025-04-06T1600,4229A,102.2342,27.8859,凉山彝族自治州,凯乐南路30号,,42,42,26,25,11,131,,85,85,10,20,8,8,0.7,0.7
2025-04-06T1600,2212A,123.2,41.1953,辽阳市,宏伟区,,48,,46,33,29,122,,103,103,8,16,10,13,1.0,1.2
2025-04-06T1600,2213A,123.1683,41.2495,辽阳市,新华园,,46,46,49,30,31,131,,110,110,15,25,7,19,0.4,0.8
2025-04-06T1600,2214A,123.2354,41.2639,辽阳市,滨河路,,48,,41,33,30,118,,97,97,11,19,6,13,0.7,0.8
2025-04-06T1600,2215A,123.149,41.2991,辽阳市,铁西工业园,,48,34,66,33,36,131,,109,109,10,26,9,12,0.6,0.9
2025-04-06T1600,2227A,125.1358,42.8845,辽源市,环保局,,30,30,36,14,16,59,,59,48,14,17,5,7,0.6,0.6
2025-04-06T1600,3239A,125.0764,42.9078,辽源市,银鹰制药,,23,21,24,16,17,59,,60,54,12,13,7,6,0.7,0.5
2025-04-06T1600,1625A,115.9848,36.4372,聊城市,区政府,颗粒物(PM10),88,125,89,30,26,149,,118,118,18,25,11,14,0.3,0.4
2025-04-06T1600,2878A,116.0072,36.4343,聊城市,聊大东校,颗粒物(PM10),92,134,93,39,26,149,,118,118,13,21,11,10,0.6,0.5
2025-04-06T1600,3200A,115.9819,36.4978,聊城市,监控中心,颗粒物(PM10),95,139,88,34,26,149,,118,118,13,18,14,13,0.6,0.5
2025-04-06T1600,3513A,116.0445,36.4361,聊城市,九州社区,颗粒物(PM10),94,138,92,27,24,159,,126,126,5,19,5,6,0.5,0.5
2025-04-06T1600,4018A,116.0567,36.4608,聊城市,星美广场,颗粒物(PM10),92,133,84,28,19,157,,124,124,9,14,10,9,0.5,0.5
2025-04-06T1600,2632A,94.3681,29.6376,林芝市,林芝监测站,,38,14,12,6,10,120,,97,97,5,7,5,5,0.3,0.5
2025-04-06T1600,2633A,94.3616,29.6616,林芝市,林芝人民医院,,35,18,14,7,10,111,,96,96,2,4,7,8,0.3,0.5
2025-04-06T1600,2603A,100.0781,23.8982,临沧市,市环保局,细颗粒物(PM2.5),119,108,121,90,83,155,,120,120,12,19,12,10,0.8,1
2025-04-06T1600,2604A,100.0894,23.8822,临沧市,市气象局,细颗粒物(PM2.5),92,94,106,68,88,158,,115,115,16,23,10,9,0.6,0.8
2025-04-06T1600,1733A,111.5531,36.0783,临汾市,临钢医院,颗粒物(PM10),99,148,97,36,22,139,,96,96,14,26,13,9,0.6,0.6
2025-04-06T1600,1734A,111.5028,36.0714,临汾市,技工学校,颗粒物(PM10),95,139,90,43,32,147,,100,100,10,26,16,12,0.7,0.8
2025-04-06T1600,1736A,111.5018,36.0855,临汾市,市委,颗粒物(PM10),101,152,102,43,25,151,,102,102,14,31,14,11,0.7,0.8
2025-04-06T1600,3018A,111.505,36.1014,临汾市,唐尧大酒店,颗粒物(PM10),100,149,107,41,28,149,,101,101,9,27,16,12,0.7,0.8
2025-04-06T1600,4244A,111.4879,36.0530,临汾市,启星学校,颗粒物(PM10),108,166,104,38,31,143,,96,96,11,28,12,8,0.7,0.8
2025-04-06T1600,4271A,103.2464,35.6123,临夏回族自治州,滨河东路1号,颗粒物(PM10),77,104,176,25,65,109,,65,65,2,31,6,7,0.3,0.7
2025-04-06T1600,4310A,103.2093,35.5995,临夏回族自治州,新华街21号,颗粒物(PM10),66,81,143,26,57,98,,61,61,8,25,10,12,0.3,0.6
2025-04-06T1600,1618A,118.3429,35.0532,临沂市,沂河小区,颗粒物(PM10),76,102,80,29,37,142,,107,107,7,43,10,12,0.5,0.7
2025-04-06T1600,1619A,118.295,35.0583,临沂市,鲁南制药厂,颗粒物(PM10),70,90,77,28,30,149,,116,116,13,55,11,14,0.6,0.7
2025-04-06T1600,1620A,118.2794,34.9976,临沂市,新光毛纺厂,颗粒物(PM10),68,85,64,25,26,151,,111,111,18,42,9,11,0.6,0.7
2025-04-06T1600,1621A,118.3956,35.0888,临沂市,河东保险公司,颗粒物(PM10),69,88,84,21,45,156,,124,124,15,59,7,10,0.3,0.5
2025-04-06T1600,3370A,118.3564,35.0215,临沂市,十里堡居委,颗粒物(PM10),78,105,72,22,29,152,,114,114,12,47,7,8,0.5,0.7
2025-04-06T1600,3496A,118.3604,35.1084,临沂市,南坊新区,颗粒物(PM10),70,90,74,34,36,141,,115,115,12,46,8,10,0.5,0.7
2025-04-06T1600,3860A,118.3920,35.0300,临沂市,皇山花园小区,颗粒物(PM10),76,102,84,20,42,149,,116,116,9,49,10,13,0.4,0.5
2025-04-06T1600,1870A,109.4856,24.3895,柳州市,柳东小学,细颗粒物(PM2.5),97,105,84,72,62,118,,95,95,25,16,20,13,1.3,0.8
2025-04-06T1600,1871A,109.4157,24.3277,柳州市,环保监测站,细颗粒物(PM2.5),103,115,96,77,66,126,,104,104,24,15,25,17,1.2,0.9
2025-04-06T1600,1872A,109.389,24.341,柳州市,河西水厂,细颗粒物(PM2.5),108,155,101,81,58,126,,102,102,26,18,37,14,1.4,0.8
2025-04-06T1600,1873A,109.4311,24.2921,柳州市,市四中,细颗粒物(PM2.5),107,112,85,80,58,124,,100,100,18,14,18,13,1.1,0.9
2025-04-06T1600,1874A,109.4006,24.3631,柳州市,市九中,颗粒物(PM10),97,143,103,71,62,128,,100,100,22,16,31,14,1.3,0.8
2025-04-06T1600,1875A,109.4958,24.3134,柳州市,古亭山,细颗粒物(PM2.5),104,118,89,78,55,135,,108,108,14,11,16,14,1.0,0.8
2025-04-06T1600,3402A,109.5422,24.3996,柳州市,市二中,细颗粒物(PM2.5),104,92,79,78,56,134,,105,105,14,14,15,14,0.9,0.7
2025-04-06T1600,2307A,116.5079,31.737,六安市,监测大楼,颗粒物(PM10),60,69,78,21,26,146,,118,118,6,19,6,6,0.5,0.6
2025-04-06T1600,2308A,116.4738,31.7643,六安市,皖西学院,颗粒物(PM10),67,84,88,26,29,145,,120,120,7,19,4,5,0.4,0.5
2025-04-06T1600,2309A,116.4996,31.7905,六安市,朝阳厂,颗粒物(PM10),59,67,78,17,30,138,,112,112,14,24,4,5,0.5,0.6
2025-04-06T1600,2310A,116.5567,31.7886,六安市,开发区,颗粒物(PM10),74,97,108,22,37,153,,124,124,12,38,5,5,0.5,0.6
2025-04-06T1600,2576A,104.8,26.5892,六盘水市,窑上,,35,35,50,19,24,76,,71,71,13,13,5,4,0.8,0.7
2025-04-06T1600,2577A,104.83,26.5917,六盘水市,黄土坡,细颗粒物(PM2.5),75,61,48,55,33,67,,78,66,24,17,10,8,0.8,0.7
2025-04-06T1600,2578A,104.89,26.5939,六盘水市,水钢,细颗粒物(PM2.5),55,55,51,39,32,86,,89,76,13,11,9,8,0.4,0.4
2025-04-06T1600,2579A,104.8475,26.5894,六盘水市,民中,,,40,42,36,31,77,,84,70,18,15,8,8,,0.7
2025-04-06T1600,2580A,104.9544,26.5506,六盘水市,双水,颗粒物(PM10),51,51,47,32,32,84,,88,75,15,13,9,8,0.5,0.5
2025-04-06T1600,2335A,117.0189,25.1181,龙岩市,龙岩师专,,,,,,,,,,,,,,,,
2025-04-06T1600,2336A,117.0217,25.1033,龙岩市,龙岩市监测站,颗粒物(PM10),52,53,44,16,35,126,,103,103,12,17,5,9,0.4,0.6
2025-04-06T1600,2337A,117.0258,25.0661,龙岩市,闽西职业技术学院,,44,44,45,20,39,119,,95,95,9,20,4,8,0.4,0.6
2025-04-06T1600,2338A,117.0196,25.0306,龙岩市,龙岩学院,,42,42,45,16,41,132,,100,100,6,16,1,3,0.5,0.6
2025-04-06T1600,2665A,105.0822,33.3261,陇南市,汉王镇固水子,,,,,,,,,,,,,,,,
2025-04-06T1600,2885A,104.9339,33.3826,陇南市,滨江中学,颗粒物(PM10),53,55,84,25,32,97,,86,86,5,8,7,8,0.4,0.5
2025-04-06T1600,3247A,104.955,33.371,陇南市,市总工会,,46,46,79,20,32,105,,92,92,4,7,8,8,0.5,0.6
2025-04-06T1600,2487A,111.9589,27.8901,娄底市,电视发射台,颗粒物(PM10),76,101,93,29,40,147,,107,107,9,7,16,9,1.0,0.7
2025-04-06T1600,2488A,111.9975,27.725,娄底市,市监测站,颗粒物(PM10),73,95,132,51,85,148,,93,93,6,42,14,24,0.2,1.4
2025-04-06T1600,2489A,112.0194,27.7314,娄底市,市委党校,颗粒物(PM10),67,83,124,35,83,136,,88,88,6,30,4,8,0.3,1.2
2025-04-06T1600,2490A,111.9561,27.7569,娄底市,涟钢,颗粒物(PM10),65,80,128,34,80,114,,84,84,31,32,34,17,2.1,1.4
2025-04-06T1600,2491A,111.9892,27.7044,娄底市,市政府,颗粒物(PM10),63,75,107,32,71,135,,96,96,4,21,4,7,0.2,0.9
2025-04-06T1600,1893A,105.4324,28.9634,泸州市,九狮山,,,,,,,,,,,,,,,,
2025-04-06T1600,1894A,105.4427,28.9063,泸州市,小市上码头,,41,41,62,26,32,48,,38,38,23,21,6,6,0.6,0.7
2025-04-06T1600,1895A,105.4241,28.8573,泸州市,兰田宪桥,,46,43,54,32,38,58,,38,38,7,14,4,6,0.5,0.6
2025-04-06T1600,1896A,105.4379,28.8833,泸州市,市环监站,,,,,,,,,,,,,,,,
2025-04-06T1600,4272A,105.3689,28.7783,泸州市,纳溪中医医院,,29,25,43,20,31,67,,42,42,8,18,6,6,0.6,0.7
2025-04-06T1600,2183A,111.1406,37.5211,吕梁市,环保局,颗粒物(PM10),83,116,101,37,31,118,,83,83,4,38,3,5,0.2,0.4
2025-04-06T1600,2185A,111.1297,37.5136,吕梁市,自来水公司,颗粒物(PM10),76,101,118,22,35,118,,84,84,6,36,3,5,0.3,0.4
2025-04-06T1600,2867A,111.1283,37.51,吕梁市,马茂庄小学,颗粒物(PM10),89,128,108,29,24,120,,84,84,7,42,1,6,0.2,0.5
2025-04-06T1600,1812A,112.3931,34.6516,洛阳市,市委党校,颗粒物(PM10),71,91,86,25,30,113,,89,89,9,28,2,6,0.4,0.6
2025-04-06T1600,1815A,112.494,34.6886,洛阳市,河南林校,颗粒物(PM10),80,110,105,31,31,131,,98,98,8,29,4,8,0.5,0.7
2025-04-06T1600,1816A,112.3844,34.623,洛阳市,开发区管委会,颗粒物(PM10),72,94,79,34,27,121,,94,94,9,25,7,8,0.2,0.3
2025-04-06T1600,1817A,112.4267,34.6258,洛阳市,市委新办公区,颗粒物(PM10),71,91,78,38,25,131,,102,102,10,23,4,6,0.1,0.2
2025-04-06T1600,3340A,112.6005,34.6326,洛阳市,伊滨,颗粒物(PM10),155,259,86,36,30,126,,100,100,8,25,5,6,0.2,0.5
2025-04-06T1600,3341A,112.4951,34.6332,洛阳市,中移产业园,颗粒物(PM10),84,117,107,47,32,122,,96,96,8,24,6,8,0.2,0.4
2025-04-06T1600,3593A,112.5736,34.8993,洛阳市,吉利监测站,颗粒物(PM10),86,121,89,36,26,142,,110,110,13,26,9,10,0.4,0.5
2025-04-06T1600,3635A,112.3677,34.662,洛阳市,河科大西苑校区,颗粒物(PM10),73,95,91,27,28,118,,95,95,9,29,6,9,0.3,0.5
2025-04-06T1600,3636A,112.4388,34.6781,洛阳市,英才小学,颗粒物(PM10),74,97,87,34,30,122,,92,92,7,32,6,10,0.3,0.5
2025-04-06T1600,4214A,112.4600,34.6949,洛阳市,春都路1号院,颗粒物(PM10),82,113,124,28,31,132,,99,99,7,32,6,9,0.4,0.6
2025-04-06T1600,2399A,114.051,33.5699,漯河市,三五一五工厂,颗粒物(PM10),90,129,108,39,31,141,,122,122,6,15,5,6,0.4,0.4
2025-04-06T1600,2400A,114.0055,33.5698,漯河市,漯河大学,颗粒物(PM10),88,126,104,39,28,144,,123,123,4,12,6,9,0.4,0.4
2025-04-06T1600,2401A,114.0138,33.5828,漯河市,市水利局,颗粒物(PM10),86,122,106,53,34,145,,126,126,6,13,5,6,0.3,0.4
2025-04-06T1600,2402A,114.0261,33.5698,漯河市,市广电局,颗粒物(PM10),85,120,104,40,30,140,,120,120,6,14,5,6,0.5,0.5
2025-04-06T1600,3478A,113.9749,33.5664,漯河市,市图书馆,颗粒物(PM10),89,127,98,38,29,146,,125,125,9,15,5,8,0.5,0.5
2025-04-06T1600,4250A,114.0892,33.5882,漯河市,韶山路11号,颗粒物(PM10),91,131,100,37,28,151,,131,131,7,16,5,6,0.4,0.4
2025-04-06T1600,1798A,118.5092,31.6837,马鞍山市,湖东路四小,,49,49,97,13,31,150,,131,131,10,30,8,12,0.5,0.8
2025-04-06T1600,1799A,118.5024,31.6449,马鞍山市,开发区,,44,35,108,13,33,140,,139,139,13,42,6,7,0.5,0.8
2025-04-06T1600,1802A,118.6245,31.7241,马鞍山市,濮塘,,49,49,84,7,30,154,,141,141,5,12,9,10,0.3,0.4
2025-04-06T1600,3633A,118.4918,31.6809,马鞍山市,雨山,,47,46,100,21,35,150,,126,126,6,33,10,13,0.5,0.9
2025-04-06T1600,4191A,118.5274,31.72227,马鞍山市,慈湖高新区,颗粒物(PM10),52,54,107,24,38,148,,124,124,17,36,6,10,0.5,0.7
2025-04-06T1600,1686A,111.0286,21.4688,茂名市,电白南海,颗粒物(PM10),68,85,68,44,47,101,,66,66,16,20,4,4,1.1,1.2
2025-04-06T1600,1687A,110.9294,21.6533,茂名市,茂石化七小,颗粒物(PM10),71,92,70,51,37,110,,75,75,13,14,12,7,1.0,1
2025-04-06T1600,1688A,110.9107,21.6687,茂名市,健康路,"颗粒物(PM10),细颗粒物(PM2.5)",79,107,72,58,40,120,,88,88,18,16,28,12,1.1,0.8
2025-04-06T1600,1689A,110.8592,21.6828,茂名市,高岭,,,105,87,56,41,110,,64,64,,19,28,13,0.9,0.8
2025-04-06T1600,3450A,111.01,21.5165,茂名市,电白水东,颗粒物(PM10),63,75,58,39,33,96,,66,66,20,21,6,8,0.8,0.8
2025-04-06T1600,2539A,104.0308,30.0478,眉山市,黑龙滩水库,,37,35,22,19,16,116,,54,54,2,10,2,1,0.5,0.3
2025-04-06T1600,2540A,103.8416,30.0874,眉山市,气象局,颗粒物(PM10),57,63,42,31,23,111,,72,72,7,27,1,3,0.5,0.5
2025-04-06T1600,3137A,103.8578,30.0744,眉山市,市委党校,颗粒物(PM10),58,66,35,24,17,103,,66,66,9,25,4,5,0.3,0.4
2025-04-06T1600,3148A,103.8291,30.0564,眉山市,区人社局,,50,50,37,24,19,107,,61,61,11,29,3,5,0.6,0.6
2025-04-06T1600,1690A,116.1231,24.3284,梅州市,梅江月梅,,44,44,37,24,30,116,,80,80,9,18,4,4,0.5,0.6
2025-04-06T1600,1691A,116.0797,24.2719,梅州市,梅县新城,,41,41,37,25,26,119,,86,86,13,15,5,5,0.5,0.5
2025-04-06T1600,1692A,116.1248,24.2654,梅州市,环境监控中心,,42,42,39,26,33,115,,84,84,14,21,6,9,0.6,0.7
2025-04-06T1600,3315A,116.1233,24.2991,梅州市,梅龙,,36,36,37,23,29,114,,80,80,9,14,6,6,0.5,0.6
2025-04-06T1600,1878A,104.7778,31.4741,绵阳市,富乐山,,42,42,42,17,20,116,,93,93,11,19,3,3,0.4,0.5
2025-04-06T1600,1880A,104.6697,31.4668,绵阳市,高新区自来水公司,颗粒物(PM10),51,52,47,27,20,121,,92,92,8,21,2,3,0.3,0.4
2025-04-06T1600,1881A,104.7287,31.5075,绵阳市,三水厂,颗粒物(PM10),51,52,50,22,24,109,,84,84,16,22,6,6,0.5,0.5
2025-04-06T1600,3491A,104.69,31.5322,绵阳市,西科大附属小学,颗粒物(PM10),53,55,48,23,21,110,,90,90,19,25,6,7,0.5,0.5
2025-04-06T1600,3492A,104.5648,31.5343,绵阳市,安州区旅游局,颗粒物(PM10),52,54,43,19,18,118,,91,91,8,20,6,8,0.8,0.8
2025-04-06T1600,4226A,104.7651,31.4531,绵阳市,绵阳市气象局,,45,45,43,15,22,100,,78,78,16,22,3,4,0.3,0.3
2025-04-06T1600,1784A,129.61,44.561,牡丹江市,环保大楼,,29,16,22,11,20,92,,84,84,12,18,7,5,0.3,0.4
2025-04-06T1600,1785A,129.6115,44.5782,牡丹江市,文化广场,,28,18,25,11,21,87,,82,81,16,17,11,10,0.5,0.6
2025-04-06T1600,1786A,129.5904,44.5963,牡丹江市,第一医院,,30,9,25,3,23,95,,86,86,10,12,13,12,0.3,0.4
2025-04-06T1600,1787A,129.6364,44.6075,牡丹江市,机车工厂,,30,20,24,13,18,93,,87,87,13,20,10,9,0.4,0.5
2025-04-06T1600,1788A,129.6386,44.5462,牡丹江市,第一中学,,31,13,26,13,19,98,,92,92,7,17,8,8,0.5,0.6
2025-04-06T1600,2531A,105.0703,29.61,内江市,市监测站,颗粒物(PM10),53,55,52,34,37,84,,46,46,15,27,5,4,0.6,0.7
2025-04-06T1600,2532A,105.0717,29.5947,内江市,东兴区政府,,41,41,47,26,30,74,,40,40,22,27,1,2,0.7,0.7
2025-04-06T1600,2533A,105.0653,29.5817,内江市,内江二中,,49,49,57,28,37,80,,45,45,24,29,7,6,0.5,0.6
2025-04-06T1600,2534A,105.0406,29.5822,内江市,内江日报社,,49,49,47,30,39,86,,46,46,16,24,5,5,0.4,0.5
2025-04-06T1600,2628A,92.0657,31.4846,那曲市,那曲监测站,,37,23,46,9,26,118,,92,92,5,22,3,7,0.4,1
2025-04-06T1600,4243A,92.0515,31.4787,那曲市,那曲市委宣传部,,39,20,44,6,23,123,,93,93,8,14,4,5,0.3,0.5
2025-04-06T1600,1290A,115.8931,28.6843,南昌市,省外办,颗粒物(PM10),67,84,85,39,46,167,,101,101,21,54,16,9,1.0,0.7
2025-04-06T1600,1291A,115.8886,28.7003,南昌市,省林业公司,颗粒物(PM10),78,105,101,36,36,161,,98,98,16,39,13,10,0.8,0.5
2025-04-06T1600,1292A,115.8126,28.7442,南昌市,林科所,臭氧1小时,92,97,67,39,26,193,,129,129,23,48,14,9,0.8,0.4
2025-04-06T1600,1294A,115.8518,28.687,南昌市,建工学校,臭氧1小时,82,104,97,48,39,185,,111,111,16,44,13,6,1.1,0.7
2025-04-06T1600,1295A,115.8921,28.6424,南昌市,象湖,臭氧1小时,99,87,90,39,38,199,,123,123,16,53,12,9,0.6,0.6
2025-04-06T1600,1296A,115.7423,28.7996,南昌市,武术学校,颗粒物(PM10),77,103,47,22,18,179,,133,133,13,5,12,8,0.7,0.6
2025-04-06T1600,3046A,115.9084,28.6062,南昌市,机电学校,"颗粒物(PM10),臭氧1小时",77,104,102,36,38,181,,126,126,14,40,6,6,0.6,0.7
2025-04-06T1600,3690A,115.9721,28.7031,南昌市,外国语学校,臭氧1小时,77,82,101,32,42,181,,128,128,10,44,8,7,0.3,0.4
2025-04-06T1600,4192A,115.9316,28.68677,南昌市,南京东路235号,颗粒物(PM10),75,99,115,36,44,177,,114,114,20,55,18,13,0.9,0.8
2025-04-06T1600,1905A,106.056,30.8064,南充市,西山风景区,,39,39,38,24,23,98,,75,75,12,11,4,5,0.7,0.7
2025-04-06T1600,1906A,106.0789,30.8023,南充市,南充市委,,50,50,50,26,27,92,,57,57,15,22,4,5,0.5,0.6
2025-04-06T1600,1907A,106.1031,30.8217,南充市,南充炼油厂,颗粒物(PM10),56,61,58,28,33,90,,57,57,14,20,4,5,0.4,0.5
2025-04-06T1600,1909A,106.0642,30.7636,南充市,嘉陵区环保局,,,,,,,,,,,,,,,,
2025-04-06T1600,4227A,106.1083,30.7884,南充市,梨树横街98号,,43,43,49,20,27,94,,68,68,13,19,5,7,0.2,0.3
2025-04-06T1600,4304A,106.1172,30.843,南充市,清泉寺北路188号,颗粒物(PM10),53,55,57,26,31,96,,64,64,12,19,7,7,0.3,0.4
2025-04-06T1600,1151A,118.8086,32.1065,南京市,迈皋桥,,48,42,66,14,24,153,,124,124,9,33,4,6,0.3,0.5
2025-04-06T1600,1152A,118.7538,32.0551,南京市,草场门,颗粒物(PM10),53,56,84,17,24,150,,119,119,13,37,6,7,0.7,0.8
2025-04-06T1600,1153A,118.7794,32.0745,南京市,山西路,颗粒物(PM10),56,61,95,12,21,154,,127,127,14,26,4,6,0.3,0.4
2025-04-06T1600,1154A,118.7752,32.0023,南京市,中华门,,40,39,82,24,25,128,,113,113,12,31,13,11,0.6,0.5
2025-04-06T1600,1155A,118.8109,32.0309,南京市,瑞金路,,44,44,83,14,27,137,,117,117,6,32,6,6,0.5,0.5
2025-04-06T1600,1156A,118.7997,32.0754,南京市,玄武湖,,50,50,81,9,21,126,,99,99,13,26,9,9,0.5,0.6
2025-04-06T1600,1157A,118.6414,32.0931,南京市,浦口,颗粒物(PM10),58,65,91,23,23,163,,133,133,16,20,7,9,0.3,0.4
2025-04-06T1600,1158A,118.7356,31.9996,南京市,奥体中心,颗粒物(PM10),52,53,86,24,28,142,,116,116,12,34,10,10,0.4,0.5
2025-04-06T1600,1159A,118.9125,32.1028,南京市,仙林大学城,颗粒物(PM10),59,68,92,14,23,147,,124,124,9,30,10,10,0.7,0.8
2025-04-06T1600,3422A,118.8436,31.9198,南京市,江宁彩虹桥,颗粒物(PM10),52,53,92,19,29,142,,126,126,5,31,5,4,0.6,0.6
2025-04-06T1600,3427A,118.8554,32.3578,南京市,六合雄州,,44,38,77,9,27,140,,122,122,1,21,6,8,0.3,0.4
2025-04-06T1600,4249A,118.8708,31.3402,南京市,汶溪路181号,,44,37,89,14,39,138,,134,134,6,21,3,5,0.4,0.6
2025-04-06T1600,4312A,119.019,31.6512,南京市,中山西路1号,,48,41,69,17,34,152,,135,135,13,25,5,6,0.4,0.5
2025-04-06T1600,1401A,108.3103,22.7881,南宁市,二十一中,细颗粒物(PM2.5),75,80,107,55,80,90,,70,70,23,35,6,8,1.1,1.2
2025-04-06T1600,1402A,108.3141,22.8528,南宁市,北湖,细颗粒物(PM2.5),82,84,107,60,81,97,,73,73,22,34,8,12,0.8,0.9
2025-04-06T1600,1403A,108.3206,22.8225,南宁市,市监测站,细颗粒物(PM2.5),79,84,109,58,75,88,,66,66,24,34,8,9,0.8,1
2025-04-06T1600,1404A,108.3829,22.8037,南宁市,大自然花园,细颗粒物(PM2.5),85,86,112,63,81,86,,70,70,21,28,7,7,1.2,1.2
2025-04-06T1600,1405A,108.4394,22.7904,南宁市,仙葫,细颗粒物(PM2.5),99,81,110,74,95,80,,61,61,19,31,4,5,1.0,1
2025-04-06T1600,1406A,108.2397,22.8467,南宁市,区农职院,细颗粒物(PM2.5),72,83,100,52,70,95,,68,68,16,26,5,10,0.9,1
2025-04-06T1600,1407A,108.3275,22.735,南宁市,英华嘉园,细颗粒物(PM2.5),79,89,106,58,78,92,,70,70,20,28,8,8,0.8,0.9
2025-04-06T1600,3401A,108.4834,22.7618,南宁市,红星社区,细颗粒物(PM2.5),89,105,117,66,83,92,,70,70,21,26,10,10,1.1,1.1
2025-04-06T1600,4221A,108.2177,22.7774,南宁市,乐贤路16号,细颗粒物(PM2.5),82,92,103,60,75,82,,62,62,25,40,10,11,0.8,0.9
2025-04-06T1600,2331A,118.0966,26.6761,南平市,茫荡山,,,,,,,,,,,,,,,,
2025-04-06T1600,2332A,118.1681,26.6369,南平市,南平市监测站,,43,43,44,19,31,131,,86,86,7,17,5,5,0.5,0.9
2025-04-06T1600,2333A,118.1825,26.6489,南平市,南平铝业有限公司,颗粒物(PM10),55,59,43,20,28,129,,84,84,4,14,4,4,0.7,0.9
2025-04-06T1600,2334A,118.1756,26.6272,南平市,南平七中,颗粒物(PM10),57,64,42,14,24,126,,79,79,6,13,6,5,0.6,0.9
2025-04-06T1600,1168A,120.9098,31.9663,南通市,狼山街道,臭氧1小时,77,99,67,43,30,181,,142,142,21,21,9,8,0.7,0.7
2025-04-06T1600,1169A,120.86,32.0005,南通市,虹桥,颗粒物(PM10),67,83,65,40,34,170,,131,131,27,26,9,9,0.6,0.7
2025-04-06T1600,1170A,120.87,32.02,南通市,城中,颗粒物(PM10),75,99,72,35,30,174,,139,139,28,24,9,9,0.7,0.8
2025-04-06T1600,1171A,120.94,31.93,南通市,星湖花园,"颗粒物(PM10),臭氧1小时",70,90,61,42,32,176,,138,138,20,22,9,8,0.3,0.3
2025-04-06T1600,1172A,120.81,32.0417,南通市,紫琅学院,颗粒物(PM10),65,80,64,35,30,158,,119,119,29,27,6,6,0.4,0.6
2025-04-06T1600,3291A,121.067,32.062,南通市,通州监测站,臭氧1小时,68,75,62,31,29,174,,143,143,16,17,7,8,0.6,0.6
2025-04-06T1600,3432A,120.9348,31.9883,南通市,环境教育馆,臭氧1小时,87,95,64,45,34,189,,148,148,20,23,9,8,0.5,0.6
2025-04-06T1600,2404A,112.5224,33.0122,南阳市,瓦房庄,,,,113,,32,123,,,,10,11,5,5,,0.5
2025-04-06T1600,2405A,112.5003,32.9735,南阳市,汉画馆,颗粒物(PM10),80,109,89,33,29,126,,103,103,12,23,6,5,0.4,0.5
2025-04-06T1600,2406A,112.5573,33.027,南阳市,气象站,颗粒物(PM10),91,132,109,31,23,132,,108,108,10,18,7,7,0.5,0.5
2025-04-06T1600,2407A,112.5481,32.9689,南阳市,理工学院,颗粒物(PM10),79,108,96,30,25,131,,110,110,10,19,4,5,0.5,0.5
2025-04-06T1600,4008A,112.5234,32.9922,南阳市,卧龙区政府,颗粒物(PM10),90,129,103,36,31,129,,107,107,5,16,6,5,0.5,0.5
2025-04-06T1600,1234A,121.8358,29.911,宁波市,区环保大楼,臭氧1小时,78,104,100,48,46,182,,133,133,25,83,10,12,0.6,0.7
2025-04-06T1600,1235A,121.56,29.82,宁波市,万里学院,臭氧1小时,104,135,89,66,48,208,,165,165,25,31,16,13,0.7,0.8
2025-04-06T1600,1236A,121.713,29.9572,宁波市,龙赛医院,臭氧1小时,99,141,118,59,46,199,,151,151,37,66,13,13,0.7,0.7
2025-04-06T1600,1239A,121.633,29.7733,宁波市,钱湖水厂,臭氧1小时,97,112,75,53,41,197,,162,162,26,22,11,9,0.7,0.7
2025-04-06T1600,1240A,121.5856,29.8635,宁波市,太古小学,臭氧1小时,89,103,98,48,45,191,,166,166,20,41,12,10,0.5,0.6
2025-04-06T1600,1241A,121.524,29.8674,宁波市,市环境监测中心,颗粒物(PM10),87,124,102,57,50,187,,158,158,34,50,13,11,0.5,0.5
2025-04-06T1600,2871A,121.6147,29.9017,宁波市,万里国际学校,臭氧1小时,83,93,92,40,49,186,,165,165,18,50,11,10,0.7,0.8
2025-04-06T1600,3710A,121.5594,29.8975,宁波市,白沙活动中心,,,103,107,51,59,,,160,160,20,50,11,9,,0.6
2025-04-06T1600,2339A,119.5001,26.6946,宁德市,金涵水库,,,,,,,,,,,,,,,,
2025-04-06T1600,2341A,119.5388,26.6612,宁德市,宁德市监测站,,49,49,46,24,30,148,,109,109,11,24,6,4,0.6,0.7
2025-04-06T1600,3209A,119.5231,26.6562,宁德市,宁德一中,颗粒物(PM10),54,57,44,27,31,148,,110,110,9,15,7,6,0.3,0.4
2025-04-06T1600,2618A,98.8601,25.8567,怒江傈僳族自治州,州监测站,,41,34,37,23,29,129,,93,93,8,7,6,6,0.4,0.4
2025-04-06T1600,2619A,98.8546,25.8417,怒江傈僳族自治州,泸水一中,,,48,38,35,31,120,,80,80,,12,7,6,0.4,0.6
2025-04-06T1600,1888A,101.6891,26.571,攀枝花市,弄弄坪,,48,37,59,33,38,149,,106,106,9,25,12,12,0.7,0.9
2025-04-06T1600,1889A,101.5769,26.5928,攀枝花市,河门口,,47,43,59,27,34,149,,110,110,5,20,8,18,0.8,1.2
2025-04-06T1600,1890A,101.7169,26.585,攀枝花市,炳草岗,,50,36,62,20,41,160,,112,112,9,36,8,15,0.7,0.9
2025-04-06T1600,1891A,101.7369,26.5008,攀枝花市,仁和,臭氧1小时,55,32,57,31,40,164,,127,127,8,19,8,11,0.6,0.7
2025-04-06T1600,2835A,101.7227,26.567,攀枝花市,四十中小,,,,63,,34,170,,124,124,10,26,,9,0.9,1
2025-04-06T1600,1604A,122.0303,41.1489,盘锦市,开发区,"颗粒物(PM10),细颗粒物(PM2.5)",54,57,38,38,28,128,,104,104,16,22,8,8,0.5,0.5
2025-04-06T1600,1605A,122.0485,41.0883,盘锦市,兴隆台,细颗粒物(PM2.5),54,50,41,38,27,123,,99,99,14,25,10,9,0.6,0.6
2025-04-06T1600,1606A,121.8297,41.1028,盘锦市,新生街道,,45,45,33,29,26,133,,104,104,14,32,9,9,0.8,0.8
2025-04-06T1600,1832A,113.3257,33.742,平顶山市,新华旅馆,颗粒物(PM10),84,118,104,26,28,145,,114,114,12,27,6,6,0.4,0.4
2025-04-06T1600,1833A,113.2919,33.737,平顶山市,规划设计院,颗粒物(PM10),84,117,97,40,32,146,,112,112,7,23,5,6,0.4,0.4
2025-04-06T1600,1834A,113.182,33.774,平顶山市,平顶山工学院,颗粒物(PM10),81,111,83,36,25,147,,113,113,9,18,6,6,0.4,0.4
2025-04-06T1600,3204A,113.3025,33.73,平顶山市,规划局,颗粒物(PM10),86,122,107,41,33,144,,112,112,7,28,5,5,0.6,0.6
2025-04-06T1600,3594A,112.8867,33.9116,平顶山市,石龙区,颗粒物(PM10),97,144,142,47,38,157,,118,118,9,30,6,7,0.3,0.3
2025-04-06T1600,2656A,106.6692,35.5461,平凉市,聚贤嘉苑,颗粒物(PM10),80,109,132,32,33,117,,102,102,8,24,21,21,0.4,0.4
2025-04-06T1600,2657A,106.7021,35.5307,平凉市,博物馆,颗粒物(PM10),89,128,133,32,34,114,,97,97,10,23,11,10,0.5,0.6
2025-04-06T1600,2347A,114.0997,27.5002,萍乡市,武功山,颗粒物(PM10),52,54,47,20,29,123,,106,106,7,8,12,10,1.1,1.1
2025-04-06T1600,2348A,113.8385,27.6434,萍乡市,中医院,颗粒物(PM10),58,65,76,24,41,164,,122,122,8,18,10,12,0.8,1.1
2025-04-06T1600,2349A,113.8493,27.6253,萍乡市,市政府车库,臭氧1小时,58,55,64,21,47,166,,127,127,9,18,7,8,0.7,0.9
2025-04-06T1600,2350A,113.8676,27.6435,萍乡市,市环保局,颗粒物(PM10),55,60,75,28,48,160,,123,123,7,17,6,9,0.7,0.9
2025-04-06T1600,2351A,113.866,27.6198,萍乡市,安源区政府,颗粒物(PM10),57,63,74,21,41,164,,122,122,8,18,10,12,0.6,0.7
2025-04-06T1600,2319A,119.0141,25.4325,莆田市,荔城区仓后路,,47,47,46,18,33,131,,106,106,14,16,3,3,0.5,0.7
2025-04-06T1600,2320A,119.0015,25.4553,莆田市,莆田市监测站,,46,46,37,19,23,137,,112,112,12,9,5,4,0.4,0.4
2025-04-06T1600,2321A,119.1119,25.4561,莆田市,涵江区六中,颗粒物(PM10),51,51,47,16,33,135,,103,103,10,28,4,3,0.5,0.8
2025-04-06T1600,2322A,119.1013,25.3215,莆田市,秀屿区政府,,43,37,49,10,46,136,,114,114,9,29,4,5,0.5,0.7
2025-04-06T1600,2323A,118.981,25.4792,莆田市,东圳水库,,,,,,,,,,,,,,,,
2025-04-06T1600,2392A,115.0312,35.7636,濮阳市,环保局,颗粒物(PM10),81,112,73,31,21,143,,113,113,12,15,8,8,0.5,0.4
2025-04-06T1600,2394A,115.0574,35.7609,濮阳市,油田运输公司,颗粒物(PM10),78,105,72,35,22,153,,120,120,14,16,7,6,0.6,0.4
2025-04-06T1600,3021A,115,35.7668,濮阳市,濮水河管理处,颗粒物(PM10),89,128,86,33,28,150,,115,115,18,24,8,7,0.7,0.6
2025-04-06T1600,4216A,115.0924,35.7686,濮阳市,任丘路479号,颗粒物(PM10),82,113,83,38,24,160,,127,127,9,18,7,6,0.8,0.5
2025-04-06T1600,2601A,100.98,22.7633,普洱市,市环保局,颗粒物(PM10),76,102,118,40,55,107,,103,103,11,13,6,6,0.8,0.8
2025-04-06T1600,2602A,100.9817,22.8322,普洱市,普洱第二中学,细颗粒物(PM2.5),83,92,91,61,55,93,,91,91,13,16,7,7,0.9,0.8
2025-04-06T1600,2262A,131.0518,45.8751,七台河市,新一中,,35,,22,7,16,111,,107,107,8,12,13,12,0.9,0.9
2025-04-06T1600,3345A,131.0577,45.7879,七台河市,中波台,,29,12,19,3,12,91,,88,88,12,16,5,7,0.4,0.4
2025-04-06T1600,3637A,131.0176,45.7761,七台河市,人民广场,,30,21,25,10,19,96,,94,94,16,18,9,9,0.5,0.5
2025-04-06T1600,3684A,130.8781,45.8222,七台河市,新建矿广场,,30,22,26,12,18,94,,94,94,16,18,9,9,0.5,0.6
2025-04-06T1600,1779A,123.9305,47.3636,齐齐哈尔市,安居小区,颗粒物(PM10),58,65,58,35,37,112,,89,89,18,16,2,2,0.5,0.5
2025-04-06T1600,1780A,123.9488,47.3386,齐齐哈尔市,中心广场,颗粒物(PM10),56,62,75,37,43,109,,85,85,17,20,6,6,0.5,0.6
2025-04-06T1600,1781A,123.9483,47.3227,齐齐哈尔市,农牧车辆厂,,48,48,58,22,33,116,,93,93,14,17,5,5,0.2,0.3
2025-04-06T1600,1783A,123.945,47.2988,齐齐哈尔市,市环境监测站,,46,45,64,32,43,117,,93,93,11,16,2,3,0.4,0.5
2025-04-06T1600,3662A,123.6333,47.2075,齐齐哈尔市,富区青少年活动中心,颗粒物(PM10),59,67,61,39,34,107,,88,88,10,12,2,2,0.5,0.6
2025-04-06T1600,2591A,107.9783,26.5747,黔东南苗族侗族自治州,市环境监测站,细颗粒物(PM2.5),59,65,60,42,40,67,,60,60,23,17,4,4,0.5,0.5
2025-04-06T1600,2881A,107.8908,26.5311,黔东南苗族侗族自治州,凯里学院,颗粒物(PM10),58,66,55,34,35,96,,69,69,11,10,3,2,0.5,0.5
2025-04-06T1600,2593A,107.5228,26.2403,黔南布依族苗族自治州,小围寨,,46,46,45,31,28,100,,87,87,6,8,5,5,0.4,0.4
2025-04-06T1600,3538A,107.5175,26.2978,黔南布依族苗族自治州,沙坝,颗粒物(PM10),56,61,54,34,30,96,,85,85,10,10,4,5,0.6,0.5
2025-04-06T1600,2589A,104.9022,25.0925,黔西南布依族苗族自治州,场坝街,细颗粒物(PM2.5),53,46,65,37,48,81,,87,77,10,11,4,4,0.5,0.4
2025-04-06T1600,2590A,104.8811,25.0992,黔西南布依族苗族自治州,坪东大道,细颗粒物(PM2.5),58,46,64,41,50,77,,82,75,13,14,2,4,0.4,0.4
2025-04-06T1600,2502A,108.6236,21.9667,钦州市,市环保站,细颗粒物(PM2.5),89,110,148,66,88,49,,47,47,27,36,10,16,1.1,1.4
2025-04-06T1600,2503A,108.6549,21.9481,钦州市,沙埠小学,细颗粒物(PM2.5),104,110,135,78,89,43,,46,46,33,31,10,13,1.2,1.1
2025-04-06T1600,2504A,108.5989,21.7431,钦州市,港区一小,细颗粒物(PM2.5),62,63,123,44,73,62,,64,64,23,35,8,12,0.8,0.9
2025-04-06T1600,3404A,108.5959,21.9633,钦州市,北职校,细颗粒物(PM2.5),104,89,129,78,94,44,,47,47,28,31,8,12,1.3,1.1
2025-04-06T1600,1043A,119.7493,40.0116,秦皇岛市,第一关,,42,42,50,22,22,107,,81,81,12,46,7,6,0.3,0.4
2025-04-06T1600,1044A,119.5897,39.9499,秦皇岛市,监测站,,33,33,39,15,12,104,,76,76,10,29,7,5,0.3,0.5
2025-04-06T1600,1046A,119.5251,39.9041,秦皇岛市,建设大厦,,43,43,43,18,17,104,,78,78,13,30,7,6,0.3,0.4
2025-04-06T1600,3132A,119.610547,39.943889,秦皇岛市,文明里,,,42,52,13,12,96,,71,71,,33,8,5,,0.4
2025-04-06T1600,4198A,119.5090,39.8253,秦皇岛市,北戴河轮滑馆,,36,36,49,14,14,78,,68,68,15,25,8,8,0.3,0.4
2025-04-06T1600,1307A,120.6659,36.2403,青岛市,仰口,颗粒物(PM10),51,52,33,30,18,151,,134,134,11,6,6,4,0.7,0.5
2025-04-06T1600,1310A,120.4134,36.0658,青岛市,市南区东部子站,颗粒物(PM10),68,85,54,36,20,130,,116,116,28,24,10,9,0.6,0.6
