timepoint,stationcode,longitude,latitude,area,positionname,primarypollutant,aqi,pm10,pm10_24h,pm2_5,pm2_5_24h,o3,o3_24h,o3_8h,o3_8h_24h,no2,no2_24h,so2,so2_24h,co,co_24h
2025-04-17T1100,2566A,102.1879,31.914,阿坝藏族羌族自治州,州农科所,,36,36,27,8,10,74,,52,52,7,9,12,13,0.4,0.4
2025-04-17T1100,2568A,102.2502,31.8896,阿坝藏族羌族自治州,马师校,,,13,21,3,12,92,,55,55,5,7,6,5,,0.4
2025-04-17T1100,3994A,102.2165,31.9024,阿坝藏族羌族自治州,马尔康中学西区,,34,18,23,11,12,108,,76,76,6,3,4,4,0.3,0.4
2025-04-17T1100,2695A,80.292,41.1694,阿克苏地区,电视台,颗粒物(PM10),500,2787,876,388,122,63,,113,94,12,4,3,4,0.4,0.3
2025-04-17T1100,2696A,80.2613,41.1551,阿克苏地区,艺术中心,颗粒物(PM10),500,2825,931,412,157,51,,108,88,19,7,4,4,0.4,0.5
2025-04-17T1100,2204A,105.6467,38.8363,阿拉善盟,西城区西花园,颗粒物(PM10),67,83,115,25,39,114,,98,98,8,11,6,6,0.6,0.6
2025-04-17T1100,2205A,105.6985,38.8411,阿拉善盟,蒙二幼,,,143,124,35,42,98,,90,90,7,8,,6,0.5,0.5
2025-04-17T1100,2206A,105.724,38.8516,阿拉善盟,环保局新楼,颗粒物(PM10),75,99,120,33,41,107,,105,104,5,4,10,10,0.6,0.6
2025-04-17T1100,2708A,88.1264,47.8517,阿勒泰地区,市站,,,8,14,7,7,,,74,67,,4,,2,,0.2
2025-04-17T1100,2630A,80.1161,32.5,阿里地区,阿里监测站,,32,26,9,13,6,102,,124,113,14,6,6,6,0.5,0.5
2025-04-17T1100,3192A,80.0903,32.5028,阿里地区,阿里藏医院,,33,27,15,13,6,105,,118,110,11,3,6,5,0.4,0.4
2025-04-17T1100,2642A,109.0318,32.6537,安康市,香溪洞,细颗粒物(PM2.5),57,60,64,40,60,87,,75,72,7,9,8,8,0.7,0.7
2025-04-17T1100,2644A,109.0072,32.6975,安康市,汉滨区检察院,颗粒物(PM10),67,83,67,26,24,68,,46,43,23,15,16,11,0.5,0.4
2025-04-17T1100,4054A,109.0325,32.6913,安康市,市邮政管理局,颗粒物(PM10),65,80,74,30,29,80,,47,47,19,18,14,11,0.5,0.5
2025-04-17T1100,2291A,117.0809,30.5177,安庆市,环科院,颗粒物(PM10),58,66,62,37,29,67,,61,60,26,29,11,11,0.6,0.5
2025-04-17T1100,2292A,117.0331,30.5119,安庆市,马山宾馆,颗粒物(PM10),59,68,49,32,29,56,,59,48,30,27,7,7,0.5,0.5
2025-04-17T1100,2294A,116.9896,30.6145,安庆市,安庆大学,颗粒物(PM10),60,70,66,34,32,94,,95,86,19,17,8,8,0.4,0.4
2025-04-17T1100,3173A,117.0598,30.5351,安庆市,市人大,颗粒物(PM10),63,75,61,31,27,76,,75,70,18,15,10,12,0.4,0.3
2025-04-17T1100,3122A,105.9606,26.2611,安顺市,伍家关,,,62,54,44,48,,,95,91,11,6,6,5,0.9,0.8
2025-04-17T1100,3123A,105.9408,26.2431,安顺市,凤凰山,细颗粒物(PM2.5),62,61,58,44,40,119,,100,98,16,9,11,7,0.6,0.4
2025-04-17T1100,3124A,105.9439,26.2564,安顺市,金钟山,细颗粒物(PM2.5),55,58,58,39,39,117,,93,91,12,9,13,6,0.8,0.6
2025-04-17T1100,3125A,105.8983,26.2481,安顺市,娄家坡,,,67,61,42,42,,,96,90,15,10,,9,0.9,0.8
2025-04-17T1100,1818A,114.4839,36.0621,安阳市,棉研所,,,,,,,,,,,,,,,,
2025-04-17T1100,1819A,114.3551,36.1017,安阳市,红庙街,颗粒物(PM10),276,403,304,142,114,97,,57,57,6,19,5,12,0.5,0.8
2025-04-17T1100,1820A,114.361,36.0681,安阳市,银杏小区,颗粒物(PM10),283,408,304,133,114,109,,74,74,9,21,9,10,0.4,0.5
2025-04-17T1100,3141A,114.3922,36.0878,安阳市,信访局,颗粒物(PM10),265,395,312,107,101,113,,73,73,6,26,5,10,0.2,0.5
2025-04-17T1100,3669A,114.4705,36.0637,安阳市,左辅环卫站,颗粒物(PM10),278,404,288,176,101,,,50,50,19,37,6,7,0.4,0.5
2025-04-17T1100,3703A,114.2917,36.0949,安阳市,安钢职工学校,颗粒物(PM10),304,423,344,118,113,100,,60,59,10,20,5,7,0.4,0.6
2025-04-17T1100,1748A,123.044,41.1196,鞍山市,深沟寺,,,59,51,,31,135,,135,135,18,12,,11,0.6,0.6
2025-04-17T1100,1749A,123.011,41.0931,鞍山市,太阳城,颗粒物(PM10),57,64,53,32,30,131,,108,108,14,12,5,4,0.8,0.8
2025-04-17T1100,1750A,123.0485,41.1442,鞍山市,太平,颗粒物(PM10),66,81,58,37,28,114,,128,124,27,12,9,10,0.6,0.6
2025-04-17T1100,1751A,122.9642,41.0971,鞍山市,铁西三道街,颗粒物(PM10),67,83,83,36,42,121,,68,68,33,40,5,5,0.8,0.9
2025-04-17T1100,1753A,123.022,41.0821,鞍山市,明达新区,颗粒物(PM10),60,70,49,38,29,132,,114,114,17,12,7,6,0.5,0.5
2025-04-17T1100,1754A,123.1289,41.0228,鞍山市,千山,,,,31,,17,,,127,,,8,,5,,0.8
2025-04-17T1100,4201A,122.9446,41.0826,鞍山市,兴盛南路290号,,,88,88,43,44,116,,58,58,37,40,8,8,,0.8
2025-04-17T1100,2195A,107.4212,40.761,巴彦淖尔市,附二中,,,,338,,92,85,,52,52,9,14,8,5,0.4,0.4
2025-04-17T1100,2196A,107.37,40.7372,巴彦淖尔市,市环保大楼,颗粒物(PM10),58,65,317,13,90,86,,61,61,14,16,8,5,0.3,0.3
2025-04-17T1100,1956A,86.1472,41.7538,巴音郭楞蒙古自治州,孔雀公园,,46,46,285,16,34,90,,111,106,10,6,5,6,0.2,0.2
2025-04-17T1100,1957A,86.1972,41.7166,巴音郭楞蒙古自治州,棉纺厂,,,,438,,36,80,,103,98,,5,2,3,,0.2
2025-04-17T1100,1958A,86.2357,41.7173,巴音郭楞蒙古自治州,经济开发区,颗粒物(PM10),56,62,418,8,36,93,,105,102,5,3,7,6,0.1,0.1
2025-04-17T1100,2914A,106.7677,31.8794,巴中市,苏山坪,颗粒物(PM10),81,112,98,49,45,102,,118,109,27,10,6,5,0.6,0.3
2025-04-17T1100,3181A,106.7768,31.8526,巴中市,市五中,颗粒物(PM10),77,103,99,43,41,79,,38,38,31,23,7,6,1.0,0.8
2025-04-17T1100,3183A,106.7418,31.8654,巴中市,圣泉水务公司,颗粒物(PM10),73,95,90,47,42,82,,53,53,33,31,5,4,0.8,0.5
2025-04-17T1100,3616A,106.7616,31.8344,巴中市,市中心医院,颗粒物(PM10),70,89,93,50,45,86,,30,30,22,28,8,7,0.8,0.7
2025-04-17T1100,2235A,122.7911,45.6077,白城市,洮北区环保局,细颗粒物(PM2.5),73,61,47,53,36,103,,78,78,16,15,4,5,0.5,0.4
2025-04-17T1100,2236A,122.8738,45.5725,白城市,市环保局,细颗粒物(PM2.5),77,70,43,56,35,102,,81,81,12,11,7,6,0.5,0.3
2025-04-17T1100,2231A,126.4219,41.9171,白山市,喜丰,,,,55,,22,,,76,,,16,,17,,1.3
2025-04-17T1100,2232A,126.4077,41.9419,白山市,环保局,,35,34,43,13,20,111,,52,52,16,17,6,7,0.9,1
2025-04-17T1100,2647A,104.1724,36.5446,白银市,第三小学,颗粒物(PM10),95,140,178,48,59,90,,42,42,14,28,36,46,0.6,0.8
2025-04-17T1100,2648A,104.1465,36.5482,白银市,动力公司,,,,153,,52,,,89,,,22,,14,,0.5
2025-04-17T1100,2512A,106.6103,23.9011,百色市,市监测站,颗粒物(PM10),81,112,115,53,55,125,,83,83,15,18,14,16,0.7,0.7
2025-04-17T1100,2513A,106.6538,23.8859,百色市,市中心血站,,,131,128,60,59,119,,89,83,,19,12,17,0.6,0.8
2025-04-17T1100,3406A,106.6085,23.8798,百色市,祈福高中,颗粒物(PM10),94,138,131,48,52,119,,62,61,15,25,19,21,0.8,0.8
2025-04-17T1100,2270A,117.396,32.939,蚌埠市,工人疗养院,颗粒物(PM10),73,96,96,38,35,127,,100,100,15,16,6,6,0.5,0.6
2025-04-17T1100,2271A,117.3605,32.9427,蚌埠市,百货大楼,颗粒物(PM10),70,89,93,39,32,118,,91,91,20,21,8,8,0.5,0.5
2025-04-17T1100,2273A,117.4185,32.8911,蚌埠市,蚌埠学院,颗粒物(PM10),65,80,100,35,33,131,,78,78,9,19,6,7,0.6,0.7
2025-04-17T1100,2274A,117.3533,32.9673,蚌埠市,淮上区政府,,,,94,,36,124,,104,104,,21,8,7,0.5,0.4
2025-04-17T1100,2275A,117.3145,32.8977,蚌埠市,高新区,颗粒物(PM10),76,102,95,38,36,119,,80,80,14,21,7,7,0.5,0.5
2025-04-17T1100,3715A,117.3092,32.9314,蚌埠市,蚌埠田家炳中学,颗粒物(PM10),73,95,99,39,32,124,,82,82,16,22,8,9,0.4,0.4
2025-04-17T1100,1585A,109.8756,40.6532,包头市,市环境监测站,,39,39,195,15,54,87,,64,63,10,12,8,7,0.3,0.3
2025-04-17T1100,1587A,109.9991,40.5842,包头市,包头八中,,,,202,,54,95,,54,54,9,22,13,11,0.5,0.4
2025-04-17T1100,1588A,109.8538,40.6821,包头市,青山宾馆,,35,35,181,13,51,85,,62,62,8,9,11,9,0.5,0.4
2025-04-17T1100,1589A,109.8642,40.6288,包头市,惠龙物流,,41,41,189,7,47,86,,71,69,13,12,10,9,0.3,0.3
2025-04-17T1100,1590A,110.0377,40.5546,包头市,东河鸿龙湾,细颗粒物(PM2.5),123,,201,93,72,95,,45,45,,22,,9,0.3,0.3
2025-04-17T1100,3283A,109.9154,40.5685,包头市,滨河大厦,颗粒物(PM10),53,55,184,28,61,91,,41,41,9,22,12,12,0.4,0.5
2025-04-17T1100,3419A,109.9447,40.6261,包头市,包头市委党校,颗粒物(PM10),51,51,191,12,49,97,,58,56,5,12,7,7,0.1,0.4
2025-04-17T1100,3683A,109.8331,40.6576,包头市,昆区政府,,44,44,183,15,47,81,,72,70,12,12,7,6,0.4,0.4
2025-04-17T1100,1930A,107.185,34.3063,宝鸡市,庙沟村,颗粒物(PM10),71,91,210,41,77,102,,99,93,8,8,7,7,0.5,0.4
2025-04-17T1100,1931A,107.0708,34.3017,宝鸡市,竹园沟,颗粒物(PM10),90,129,227,46,82,100,,68,65,12,12,7,7,0.4,0.3
2025-04-17T1100,1932A,107.1906,34.3672,宝鸡市,三陆医院,颗粒物(PM10),89,127,227,53,88,88,,55,52,22,23,5,6,0.5,0.4
2025-04-17T1100,1933A,107.1431,34.3547,宝鸡市,监测站,颗粒物(PM10),100,150,252,52,91,94,,60,54,18,20,8,9,0.3,0.3
2025-04-17T1100,1934A,107.1186,34.3739,宝鸡市,技工学校,颗粒物(PM10),106,161,238,57,95,90,,73,60,19,16,7,7,0.5,0.4
2025-04-17T1100,1935A,107.3906,34.3528,宝鸡市,陈仓区环保局家属楼,颗粒物(PM10),93,136,263,55,92,92,,73,68,20,17,24,37,0.5,0.4
2025-04-17T1100,1936A,107.2058,34.3497,宝鸡市,文理学院,颗粒物(PM10),84,117,235,60,95,99,,72,68,13,16,6,6,0.4,0.4
2025-04-17T1100,1937A,107.2386,34.3622,宝鸡市,三迪小学,颗粒物(PM10),98,146,250,59,92,86,,65,57,22,21,7,8,0.5,0.5
2025-04-17T1100,1051A,115.493,38.8632,保定市,游泳馆,细颗粒物(PM2.5),110,147,148,83,76,118,,71,71,30,33,13,13,0.4,0.4
2025-04-17T1100,1052A,115.5213,38.8959,保定市,华电二区,,,113,117,70,68,,,45,45,26,29,,3,0.7,0.5
2025-04-17T1100,1053A,115.4713,38.9108,保定市,接待中心,细颗粒物(PM2.5),132,130,127,100,78,120,,59,59,,29,,6,1.0,0.9
2025-04-17T1100,1054A,115.4612,38.8416,保定市,地表水厂,细颗粒物(PM2.5),103,152,146,77,65,128,,72,72,27,32,8,8,0.8,0.7
2025-04-17T1100,3581A,115.31981,38.95208,保定市,满城区生态环境分局,细颗粒物(PM2.5),110,141,140,83,75,118,,58,58,28,31,15,12,0.8,0.7
2025-04-17T1100,3582A,115.47694,38.76408,保定市,清苑区第二中学,细颗粒物(PM2.5),107,148,156,80,72,110,,63,63,31,34,10,10,0.8,0.7
2025-04-17T1100,3583A,115.62909,39.02311,保定市,徐水物探局,颗粒物(PM10),96,142,145,70,68,121,,69,69,24,34,7,7,0.7,0.6
2025-04-17T1100,4004A,115.4202,38.8656,保定市,双鹰农机,细颗粒物(PM2.5),94,122,112,70,63,127,,69,69,24,32,10,9,0.7,0.6
2025-04-17T1100,4034A,115.5150,38.8590,保定市,植保所站,细颗粒物(PM2.5),95,126,140,71,79,104,,67,67,38,34,4,4,1.4,1.2
2025-04-17T1100,2594A,99.1678,25.1081,保山市,市环境监测站,,33,32,22,12,15,104,,94,94,10,7,6,6,0.5,0.4
2025-04-17T1100,2595A,99.1711,25.1328,保山市,市环保局,,36,30,23,11,11,115,,107,107,10,5,7,6,0.5,0.4
2025-04-17T1100,1866A,109.2262,21.588,北海市,牛尾岭水库,,,103,119,32,43,109,,99,95,,,6,7,0.5,0.6
2025-04-17T1100,1867A,109.1436,21.4086,北海市,海滩公园,,,,188,39,45,127,,130,121,,11,6,8,,0.6
2025-04-17T1100,1868A,109.0981,21.4661,北海市,新市环保局,颗粒物(PM10),92,134,162,34,47,119,,124,112,9,16,3,5,0.5,0.5
2025-04-17T1100,1869A,109.1778,21.5233,北海市,北海工业园,颗粒物(PM10),98,146,175,46,54,121,,118,109,7,13,8,9,0.7,0.7
2025-04-17T1100,3400A,109.1911,21.4415,北海市,龙潭自来水厂,颗粒物(PM10),93,135,169,44,57,121,,123,114,6,11,6,7,0.3,0.4
2025-04-17T1100,1001A,116.3621,39.8784,北京市,万寿西宫,颗粒物(PM10),60,70,106,32,59,107,,124,118,28,29,8,12,0.7,0.9
2025-04-17T1100,1002A,116.2202,40.2915,北京市,定陵,,,,,,,,,,,,,,,,
2025-04-17T1100,1003A,116.4174,39.9289,北京市,东四,颗粒物(PM10),63,75,119,31,64,103,,121,115,24,29,8,12,0.7,1.1
2025-04-17T1100,1004A,116.4072,39.8863,北京市,天坛,颗粒物(PM10),64,77,108,33,59,103,,104,102,27,27,4,6,0.9,1.1
2025-04-17T1100,1005A,116.462,39.9365,北京市,农展馆,细颗粒物(PM2.5),65,74,110,47,62,107,,110,105,25,28,9,12,1.0,1.3
2025-04-17T1100,1006A,116.3392,39.9295,北京市,官园,颗粒物(PM10),61,72,112,24,57,89,,110,100,15,21,6,10,0.6,0.9
2025-04-17T1100,1007A,116.2878,39.9611,北京市,海淀万柳,颗粒物(PM10),54,57,115,28,61,100,,97,78,19,35,6,9,0.8,1
2025-04-17T1100,1008A,116.6636,40.135,北京市,顺义新城,颗粒物(PM10),79,108,124,52,63,127,,79,78,21,26,11,12,0.9,1
2025-04-17T1100,1009A,116.6275,40.3275,北京市,怀柔镇,细颗粒物(PM2.5),92,116,119,68,68,130,,95,95,18,24,8,10,0.9,1.1
2025-04-17T1100,1010A,116.2296,40.217,北京市,昌平镇,颗粒物(PM10),51,51,123,14,56,95,,70,70,9,32,2,6,0.6,1.1
2025-04-17T1100,1011A,116.3966,39.9821,北京市,奥体中心,细颗粒物(PM2.5),77,71,107,56,55,91,,106,100,29,32,4,8,0.7,1
2025-04-17T1100,3281A,115.9718,40.4529,北京市,延庆夏都,,50,50,145,15,72,108,,76,72,7,21,4,6,0.4,0.7
2025-04-17T1100,3418A,116.8336,40.4095,北京市,密云新城,颗粒物(PM10),69,88,126,45,68,129,,92,92,9,22,9,12,0.8,1.1
2025-04-17T1100,3671A,116.088,39.9726,北京市,门头沟三家店,颗粒物(PM10),51,52,156,11,68,101,,64,64,8,45,2,5,0.2,0.8
2025-04-17T1100,3672A,116.1541,39.8204,北京市,丰台云岗,,38,38,115,12,64,109,,80,80,5,32,5,8,0.3,0.8
2025-04-17T1100,3673A,116.6804,39.9081,北京市,通州东关,颗粒物(PM10),79,108,121,54,66,105,,97,94,34,26,13,11,0.9,1
2025-04-17T1100,3674A,115.9577,39.7603,北京市,房山燕山,颗粒物(PM10),101,151,127,34,69,94,,68,68,21,26,4,8,0.7,0.9
2025-04-17T1100,3675A,116.4672,39.7733,北京市,大兴旧宫,颗粒物(PM10),79,107,133,40,64,108,,88,88,27,28,3,5,0.7,0.9
2025-04-17T1100,3694A,115.986,40.4563,北京市,延庆石河营,,46,46,133,15,63,102,,69,66,6,20,3,4,0.4,0.8
2025-04-17T1100,3695A,116.6151,40.3053,北京市,怀柔新城,细颗粒物(PM2.5),88,109,119,65,69,125,,91,90,17,22,5,7,1.1,1.3
2025-04-17T1100,3696A,116.2545,39.8768,北京市,丰台小屯,颗粒物(PM10),57,63,217,24,56,95,,95,91,24,29,3,6,0.5,0.8
2025-04-17T1100,3697A,116.84,40.3844,北京市,密云镇,细颗粒物(PM2.5),84,105,122,62,64,126,,86,86,16,24,9,12,0.7,0.9
2025-04-17T1100,4182A,116.1942,39.9158,北京市,八角北路9号,颗粒物(PM10),57,64,131,23,65,105,,73,72,26,40,6,8,0.6,0.8
2025-04-17T1100,4194A,117.0790,40.1518,北京市,洳河巡河路,细颗粒物(PM2.5),85,98,123,63,80,145,,80,80,15,24,8,12,0.8,1
2025-04-17T1100,1761A,123.8275,41.3064,本溪市,大峪,颗粒物(PM10),71,91,83,48,54,147,,90,90,20,20,7,6,0.7,0.8
2025-04-17T1100,1762A,123.7567,41.3325,本溪市,溪湖,颗粒物(PM10),60,69,52,35,28,134,,122,122,22,19,11,10,1.3,0.8
2025-04-17T1100,1763A,123.7169,41.3094,本溪市,彩屯,颗粒物(PM10),66,82,71,39,38,144,,123,123,24,34,18,21,1.5,2.4
2025-04-17T1100,1764A,123.7669,41.2864,本溪市,东明,颗粒物(PM10),66,81,53,24,21,150,,136,136,12,12,6,7,0.6,0.6
2025-04-17T1100,1765A,123.7992,41.2664,本溪市,新立屯,颗粒物(PM10),59,68,44,32,26,149,,126,126,15,22,9,9,0.6,0.6
2025-04-17T1100,1766A,123.8142,41.3472,本溪市,威宁,颗粒物(PM10),72,94,64,37,25,142,,80,80,10,12,6,5,0.6,0.6
2025-04-17T1100,2587A,105.2864,27.3125,毕节市,八中,,38,29,61,16,31,120,,82,82,9,10,6,6,0.5,0.5
2025-04-17T1100,2588A,105.31,27.2944,毕节市,师专,,,37,64,17,33,,,96,96,,11,,9,,0.5
2025-04-17T1100,4263A,105.3688,27.3598,毕节市,工业大道,,38,26,68,17,37,120,,84,84,11,14,6,8,0.7,0.7
2025-04-17T1100,1629A,118.0018,37.3617,滨州市,第二水厂,颗粒物(PM10),153,256,184,70,58,82,,66,57,24,30,16,16,1.0,0.9
2025-04-17T1100,1630A,117.9776,37.393,滨州市,北中新校,颗粒物(PM10),134,217,149,80,61,88,,72,59,26,35,20,18,1.2,1.1
2025-04-17T1100,3514A,117.9378,37.3956,滨州市,中海酒店,颗粒物(PM10),115,180,127,85,65,81,,77,60,22,27,17,16,1.0,0.9
2025-04-17T1100,3515A,117.9378,37.3553,滨州市,开发区一中,颗粒物(PM10),155,259,173,80,62,77,,70,56,30,35,22,17,0.6,0.6
2025-04-17T1100,3516A,118.0917,37.694,滨州市,金海六路,颗粒物(PM10),111,171,126,66,55,82,,74,54,,28,23,14,,0.8
2025-04-17T1100,4028A,117.9956,37.3753,滨州市,滨州市西街道办事处,颗粒物(PM10),142,234,163,107,76,92,,74,62,,29,,13,0.8,0.8
2025-04-17T1100,2311A,115.8072,33.8399,亳州市,污水处理厂,颗粒物(PM10),76,101,94,35,28,113,,106,103,13,12,6,7,0.4,0.4
2025-04-17T1100,2312A,115.7789,33.8518,亳州市,三国揽胜宫,颗粒物(PM10),80,109,101,36,30,116,,109,105,11,12,7,7,0.4,0.4
2025-04-17T1100,3332A,115.7633,33.8034,亳州市,亳州学院,,,101,89,33,28,114,,104,100,,12,,9,0.6,0.5
2025-04-17T1100,2693A,82.0485,44.8556,博尔塔拉蒙古自治州,市党校,,20,14,25,6,16,61,,50,41,29,33,3,3,0.2,0.2
2025-04-17T1100,2694A,82.0806,44.8969,博尔塔拉蒙古自治州,市环保局,,28,28,35,15,13,53,,58,49,17,16,2,2,0.5,0.5
2025-04-17T1100,1071A,116.8842,38.2991,沧州市,沧县城建局,颗粒物(PM10),97,143,118,61,66,114,,61,61,26,33,12,7,0.9,0.6
2025-04-17T1100,1072A,116.8584,38.3254,沧州市,电视转播站,细颗粒物(PM2.5),107,115,117,80,70,101,,56,56,29,33,10,7,0.9,0.5
2025-04-17T1100,1073A,116.8709,38.3228,沧州市,市环保局,细颗粒物(PM2.5),99,118,107,74,66,106,,60,60,25,30,14,9,1.0,0.6
2025-04-17T1100,3324A,116.8136,38.3004,沧州市,河北水利电力学院,,,,120,,53,98,,63,63,34,32,15,12,,0.5
2025-04-17T1100,2622A,97.1806,31.1273,昌都市,昌都监测站,,31,17,9,3,8,98,,83,83,2,3,2,2,0.4,0.4
2025-04-17T1100,3719A,97.1714,31.1406,昌都市,昌都会议中心,,31,,14,16,9,98,,87,87,5,5,2,2,0.2,0.2
2025-04-17T1100,2690A,88.1236,43.8886,昌吉回族自治州,天山天池,,25,,7,3,5,79,,83,78,4,5,3,4,0.5,0.5
2025-04-17T1100,2692A,87.2717,44.0297,昌吉回族自治州,新区政务中心,,30,14,33,7,9,95,,89,89,4,11,5,6,0.2,0.4
2025-04-17T1100,3613A,87.3095,44.0142,昌吉回族自治州,亚心广场,,27,17,37,3,8,86,,85,83,10,15,7,8,0.2,0.3
2025-04-17T1100,1119A,125.3325,43.9166,长春市,食品厂,,,91,54,,38,97,,61,58,16,23,9,9,,0.4
2025-04-17T1100,1120A,125.2863,43.9027,长春市,客车厂,,,50,43,19,32,96,,67,64,,29,7,8,0.4,0.5
2025-04-17T1100,1121A,125.2841,43.8463,长春市,邮电学院,,42,42,36,26,26,105,,74,74,16,15,7,7,0.3,0.3
2025-04-17T1100,1122A,125.3716,43.8772,长春市,劳动公园,,34,32,41,22,26,107,,60,60,13,22,8,8,0.6,0.5
2025-04-17T1100,1123A,125.3297,43.8805,长春市,园林处,,42,42,41,19,29,104,,66,66,12,22,8,9,0.3,0.4
2025-04-17T1100,1124A,125.4605,43.79,长春市,净月潭,,38,35,35,26,23,108,,83,83,10,10,7,8,0.3,0.3
2025-04-17T1100,1125A,125.7194,43.515,长春市,甩湾子,,,,,,,,,,,,,,,,
2025-04-17T1100,1126A,125.3863,43.8447,长春市,经开区环卫处,,37,37,42,21,26,104,,58,58,12,24,7,7,0.4,0.4
2025-04-17T1100,1127A,125.245,43.7783,长春市,高新区管委会,,49,,38,34,32,108,,66,66,12,22,9,9,0.4,0.4
2025-04-17T1100,1128A,125.1761,43.8325,长春市,岱山公园,细颗粒物(PM2.5),52,48,37,36,33,108,,74,74,19,24,6,7,0.4,0.4
2025-04-17T1100,1335A,113.0833,28.2325,长沙市,经开区环保局,细颗粒物(PM2.5),75,88,99,55,49,88,,102,86,29,26,8,9,0.7,0.5
2025-04-17T1100,1336A,112.8872,28.2189,长沙市,高开区环保局,"颗粒物(PM10),细颗粒物(PM2.5)",74,98,104,54,51,96,,101,94,20,21,12,9,1.1,0.8
2025-04-17T1100,1337A,113.0792,28.2053,长沙市,马坡岭,"颗粒物(PM10),细颗粒物(PM2.5)",74,98,103,54,48,82,,78,70,23,27,6,7,0.8,0.7
2025-04-17T1100,1338A,112.9394,28.19,长沙市,湖南师范大学,颗粒物(PM10),72,93,101,45,42,95,,84,80,23,23,13,12,0.8,0.7
2025-04-17T1100,1339A,113.0178,28.1322,长沙市,雨花区环保局,颗粒物(PM10),70,90,102,45,44,103,,104,101,22,22,6,8,0.5,0.5
2025-04-17T1100,1340A,112.9792,28.2597,长沙市,伍家岭,,,,113,,42,80,,87,80,,33,6,7,,0.6
2025-04-17T1100,1341A,113.0014,28.1944,长沙市,火车新站,颗粒物(PM10),69,88,108,46,43,103,,95,92,29,27,10,11,0.9,0.7
2025-04-17T1100,1342A,112.9844,28.1178,长沙市,天心区环保局,颗粒物(PM10),73,95,99,49,45,106,,100,100,20,21,4,6,0.7,0.6
2025-04-17T1100,1343A,112.8908,28.1308,长沙市,湖南中医药大学,颗粒物(PM10),71,92,110,44,45,81,,83,76,27,26,4,5,0.9,0.7
2025-04-17T1100,1344A,112.9581,28.3611,长沙市,沙坪,颗粒物(PM10),73,96,85,48,40,67,,77,66,31,22,8,8,0.8,0.6
2025-04-17T1100,1727A,113.1147,36.1547,长治市,清华站,颗粒物(PM10),154,257,251,80,80,108,,64,64,12,21,6,7,0.3,0.4
2025-04-17T1100,1730A,113.0886,36.2125,长治市,审计局,颗粒物(PM10),133,215,259,73,81,111,,72,72,10,24,7,12,0.2,0.3
2025-04-17T1100,1731A,113.0844,36.1856,长治市,长治八中,颗粒物(PM10),149,248,248,100,106,112,,60,60,9,24,9,12,0.4,0.5
2025-04-17T1100,2845A,113.1569,36.1911,长治市,德盛苑,颗粒物(PM10),153,256,216,70,68,110,,93,92,9,15,5,8,0.4,0.4
2025-04-17T1100,3568A,113.06,36.0464,长治市,向阳小学,颗粒物(PM10),137,224,214,74,73,116,,92,86,11,20,10,13,0.2,0.2
2025-04-17T1100,3569A,112.8792,36.3144,长治市,屯留一中,颗粒物(PM10),97,143,172,54,70,112,,53,52,10,26,8,8,0.3,0.4
2025-04-17T1100,4189A,113.1131,36.19948,长治市,英华南巷50号,颗粒物(PM10),144,238,224,85,92,110,,57,57,13,29,4,8,0.5,0.6
2025-04-17T1100,4190A,113.2367,36.3344,长治市,学府街1号,颗粒物(PM10),163,276,257,109,107,113,,48,48,14,34,15,10,0.6,0.7
2025-04-17T1100,1854A,111.6975,28.9703,常德市,市二中,颗粒物(PM10),70,89,102,46,56,119,,46,46,8,28,6,7,0.7,0.8
2025-04-17T1100,1857A,111.7158,29.1456,常德市,白鹤山,,,,,,,,,,,,,,,,
2025-04-17T1100,3138A,111.7153,29.0289,常德市,武陵区永安,颗粒物(PM10),83,116,120,38,53,128,,51,51,9,26,4,7,0.6,0.7
2025-04-17T1100,3139A,111.6892,28.9881,常德市,鼎城区玉霞,颗粒物(PM10),71,92,108,36,48,125,,34,34,6,30,4,6,0.7,0.8
2025-04-17T1100,3140A,111.6625,29.0531,常德市,武陵区长庚,颗粒物(PM10),72,94,113,39,53,125,,60,60,13,25,7,9,0.6,0.7
2025-04-17T1100,1196A,119.9633,31.762,常州市,市监测站,颗粒物(PM10),61,71,60,24,26,133,,71,71,23,43,13,13,0.8,0.7
2025-04-17T1100,1200A,119.9468,31.7069,常州市,武进监测站,颗粒物(PM10),57,63,54,29,24,131,,78,78,24,32,24,23,0.6,0.5
2025-04-17T1100,1201A,119.9255,31.9087,常州市,安家,颗粒物(PM10),61,72,62,29,24,112,,54,54,18,43,16,17,0.7,0.7
2025-04-17T1100,3002A,119.9805,31.8174,常州市,行政中心,,,61,43,33,20,112,,83,83,23,22,,19,,0.5
2025-04-17T1100,3003A,120.0522,31.7748,常州市,经开区,颗粒物(PM10),61,71,69,18,24,134,,70,70,20,39,12,15,0.6,0.7
2025-04-17T1100,3010A,119.9025,31.7964,常州市,钟楼,颗粒物(PM10),63,76,56,30,21,105,,67,67,30,30,12,12,0.6,0.5
2025-04-17T1100,3429A,119.8598,31.7066,常州市,武进经发区,颗粒物(PM10),67,84,61,43,27,131,,75,75,24,31,16,13,0.9,0.8
2025-04-17T1100,3430A,119.5826,31.7245,常州市,金坛城区,颗粒物(PM10),62,74,52,33,22,110,,82,82,19,20,12,13,0.7,0.6
2025-04-17T1100,2220A,120.4318,41.5881,朝阳市,西梁,细颗粒物(PM2.5),183,,88,138,66,75,,36,36,44,36,18,20,1.1,0.9
2025-04-17T1100,2221A,120.4521,41.5646,朝阳市,河畔小区,细颗粒物(PM2.5),114,106,71,86,62,75,,45,45,44,29,22,16,1.5,1
2025-04-17T1100,2222A,120.4176,41.5648,朝阳市,八里堡,细颗粒物(PM2.5),77,85,84,56,53,88,,41,41,33,33,20,14,1.3,0.9
2025-04-17T1100,2223A,120.3806,41.5969,朝阳市,农业园区,,,89,81,74,66,,,64,61,40,29,21,12,1.4,0.9
2025-04-17T1100,1705A,116.6367,23.6719,潮州市,西园路,颗粒物(PM10),77,104,102,29,29,103,,53,53,14,13,9,4,0.5,0.4
2025-04-17T1100,3026A,116.6183,23.6608,潮州市,市政府,颗粒物(PM10),82,114,100,29,36,90,,47,47,28,21,14,7,0.5,0.5
2025-04-17T1100,4036A,116.6461,23.6761,潮州市,金山,颗粒物(PM10),76,101,88,30,33,105,,46,46,15,16,12,8,0.7,0.6
2025-04-17T1100,2472A,113.0073,25.9061,郴州市,马头岭,颗粒物(PM10),85,120,125,23,27,88,,126,92,11,13,9,9,0.8,0.8
2025-04-17T1100,2473A,113.0116,25.8226,郴州市,市职中,颗粒物(PM10),80,109,116,39,39,104,,147,110,10,14,3,4,0.5,0.5
2025-04-17T1100,2475A,113.0383,25.8071,郴州市,市审计局,,,,108,,36,104,,156,117,10,14,8,6,,0.4
2025-04-17T1100,2476A,113.0348,25.7759,郴州市,市环保局,颗粒物(PM10),85,120,122,38,42,99,,159,117,11,11,4,5,0.4,0.4
2025-04-17T1100,4252A,113.0138,25.8011,郴州市,好美居路49号,颗粒物(PM10),71,92,99,36,45,101,,151,112,12,13,8,6,0.4,0.5
2025-04-17T1100,1431A,103.9728,30.7236,成都市,金泉两河,颗粒物(PM10),75,100,133,26,45,127,,112,104,29,28,4,5,0.9,0.8
2025-04-17T1100,1432A,104.176,30.6872,成都市,十里店,颗粒物(PM10),78,105,136,54,52,141,,114,113,30,24,5,5,0.9,0.8
2025-04-17T1100,1433A,104.079,30.5706,成都市,三瓦窑,颗粒物(PM10),78,105,136,49,53,136,,97,97,35,36,6,6,0.8,0.8
2025-04-17T1100,1434A,104.1114,30.63,成都市,沙河铺,,,109,130,36,50,121,,78,77,29,28,,7,0.9,0.8
2025-04-17T1100,1437A,104.0786,30.6531,成都市,君平街,颗粒物(PM10),70,90,129,44,56,107,,74,74,30,34,8,8,0.9,0.8
2025-04-17T1100,1438A,103.613,31.0283,成都市,灵岩寺,,,,,,,,,,,,,,,,
2025-04-17T1100,2880A,104.0239,30.65639,成都市,大石西路,颗粒物(PM10),76,102,135,54,56,141,,99,99,32,34,6,6,0.6,0.6
2025-04-17T1100,3136A,104.2725,30.5589,成都市,龙泉驿区区政府,颗粒物(PM10),58,66,124,29,41,158,,110,110,18,22,4,5,0.7,0.7
2025-04-17T1100,3357A,104.0106,30.6931,成都市,金博路,颗粒物(PM10),68,86,122,32,46,97,,78,74,27,32,8,8,0.8,0.7
2025-04-17T1100,3359A,104.0578,30.5225,成都市,华阳,细颗粒物(PM2.5),89,107,130,66,59,136,,100,100,28,32,7,8,0.9,0.9
2025-04-17T1100,3488A,104.3853,30.7453,成都市,青白江技师分院,臭氧1小时,93,83,125,34,53,194,,106,106,22,36,7,8,0.5,0.4
2025-04-17T1100,3489A,104.0789,30.4072,成都市,科学城,,,97,133,55,54,136,,83,83,14,19,,5,0.5,0.4
2025-04-17T1100,4011A,103.8506,30.6947,成都市,光华大道三段,颗粒物(PM10),67,83,130,40,51,129,,117,116,24,32,2,3,0.8,0.8
2025-04-17T1100,4224A,104.2433,30.5353,成都市,鲸龙路1057号,颗粒物(PM10),70,90,141,45,51,171,,112,112,21,27,5,6,0.6,0.6
2025-04-17T1100,1062A,117.9531,40.9081,承德市,铁路,颗粒物(PM10),58,66,93,14,42,98,,69,69,11,30,8,12,0.1,0.7
2025-04-17T1100,1063A,117.9392,40.9763,承德市,中国银行,颗粒物(PM10),56,61,88,17,35,98,,61,61,8,21,4,6,0.3,0.7
2025-04-17T1100,1064A,117.9503,40.928,承德市,开发区,,,61,78,33,40,100,,64,64,,26,5,13,0.3,0.8
2025-04-17T1100,1065A,117.8051,40.9655,承德市,文化中心,颗粒物(PM10),51,51,106,9,37,104,,78,78,6,24,5,13,0.2,0.8
2025-04-17T1100,1066A,117.9268,41.0026,承德市,离宫,颗粒物(PM10),58,65,76,31,42,70,,52,52,9,16,28,27,0.3,0.7
2025-04-17T1100,2314A,117.47,30.6618,池州市,池州学院,颗粒物(PM10),64,77,62,33,30,78,,72,72,17,14,9,20,0.3,0.4
2025-04-17T1100,3237A,117.4918,30.6617,池州市,展览馆,颗粒物(PM10),62,73,65,26,26,82,,72,72,14,14,8,14,0.4,0.5
2025-04-17T1100,3333A,117.5627,30.695,池州市,第八中学,颗粒物(PM10),61,72,65,30,25,78,,64,58,18,15,8,13,0.4,0.4
2025-04-17T1100,3334A,117.5038,30.6243,池州市,第十二中学,颗粒物(PM10),64,78,64,31,26,87,,71,64,16,15,6,7,0.5,0.6
2025-04-17T1100,1744A,118.9233,42.2816,赤峰市,松山一中,颗粒物(PM10),60,69,77,36,44,92,,74,74,14,35,16,19,0.6,0.9
2025-04-17T1100,1745A,118.9576,42.2728,赤峰市,哈达街,,,65,83,37,51,,,70,70,19,43,16,28,0.7,1
2025-04-17T1100,1746A,118.8788,42.2554,赤峰市,天义路,"颗粒物(PM10),细颗粒物(PM2.5)",54,58,66,38,55,98,,79,79,17,35,16,18,0.6,0.8
2025-04-17T1100,3058A,119.2658,42.0353,赤峰市,银河街,颗粒物(PM10),74,98,82,46,49,86,,76,72,14,21,18,22,0.6,0.8
2025-04-17T1100,3286A,118.9359,42.3147,赤峰市,桥北物流园区,颗粒物(PM10),61,72,72,37,60,84,,71,71,14,27,15,14,0.7,0.9
2025-04-17T1100,2521A,107.3476,22.4136,崇左市,市环保局江州分局,颗粒物(PM10),95,140,99,44,39,73,,72,66,10,11,8,11,0.5,0.4
2025-04-17T1100,4256A,107.3750,22.3736,崇左市,石景林东路7号,颗粒物(PM10),75,100,93,47,42,78,,84,75,12,12,8,10,0.7,0.6
2025-04-17T1100,2298A,118.3093,32.3153,滁州市,老年大学,颗粒物(PM10),63,76,64,37,28,134,,113,113,7,9,6,7,0.3,0.3
2025-04-17T1100,2299A,118.3244,32.2786,滁州市,人大宾馆,颗粒物(PM10),60,70,62,39,33,133,,106,106,17,17,12,11,0.3,0.3
2025-04-17T1100,3207A,118.3118,32.3038,滁州市,市政府原办公楼,颗粒物(PM10),57,63,59,36,28,131,,110,110,3,4,6,7,0.3,0.3
2025-04-17T1100,3331A,118.3267,32.2634,滁州市,图书馆,颗粒物(PM10),62,73,72,34,33,132,,103,103,7,10,10,11,0.4,0.4
2025-04-17T1100,2605A,101.5482,25.0441,楚雄彝族自治州,州环境监测站,,35,20,16,17,15,111,,117,113,11,9,7,7,0.4,0.4
2025-04-17T1100,2606A,101.538,25.0492,楚雄彝族自治州,市经济开发区,,,,18,15,13,112,,112,104,,8,6,6,0.5,0.5
2025-04-17T1100,2548A,107.5277,31.2827,达州市,达州职业技术学院,颗粒物(PM10),77,103,114,41,43,74,,23,23,21,36,13,8,1.0,1
2025-04-17T1100,2549A,107.5086,31.2186,达州市,市环境监测站,,,114,120,31,42,57,,34,32,43,48,,8,0.9,0.8
2025-04-17T1100,2550A,107.4988,31.2132,达州市,凤凰小区,颗粒物(PM10),80,110,119,48,48,71,,40,40,45,49,16,11,0.8,0.8
2025-04-17T1100,2551A,107.5082,31.1986,达州市,达县机关宾馆,颗粒物(PM10),84,117,124,48,46,64,,20,20,40,58,14,9,0.6,0.8
2025-04-17T1100,2552A,107.4644,31.2124,达州市,市政中心,颗粒物(PM10),84,118,120,41,44,51,,26,26,42,55,11,6,0.7,0.8
2025-04-17T1100,2614A,100.1542,25.7054,大理白族自治州,大理市环境监测站,,35,27,15,20,16,110,,103,101,7,7,7,7,0.5,0.5
2025-04-17T1100,2615A,100.2171,25.5811,大理白族自治州,大理古城,,34,25,18,13,14,108,,95,93,8,9,7,7,0.5,0.4
2025-04-17T1100,1109A,121.612,38.9741,大连市,甘井子,,,64,60,35,30,124,,130,129,29,25,,7,,0.5
2025-04-17T1100,1110A,121.565,38.9511,大连市,周水子,颗粒物(PM10),61,72,67,40,36,119,,117,117,30,20,8,6,0.4,0.5
2025-04-17T1100,1111A,121.5637,38.8845,大连市,星海三站,细颗粒物(PM2.5),64,75,65,46,39,134,,120,120,21,21,7,7,0.4,0.4
2025-04-17T1100,1112A,121.6302,38.9117,大连市,青泥洼桥,颗粒物(PM10),65,80,75,42,38,147,,133,133,20,22,10,9,0.7,0.7
2025-04-17T1100,1113A,121.6251,38.8638,大连市,傅家庄,颗粒物(PM10),60,69,59,38,32,145,,143,143,17,19,9,8,0.3,0.4
2025-04-17T1100,1114A,121.5213,38.8661,大连市,七贤岭,颗粒物(PM10),67,84,74,46,42,140,,117,117,23,22,6,6,0.7,0.7
2025-04-17T1100,1115A,121.2529,38.8061,大连市,旅顺,细颗粒物(PM2.5),69,71,56,50,38,128,,108,108,19,20,8,7,0.6,0.6
2025-04-17T1100,1116A,121.7485,39.1311,大连市,金州,"颗粒物(PM10),细颗粒物(PM2.5)",63,76,59,45,35,133,,132,132,15,15,7,7,0.5,0.6
2025-04-17T1100,1117A,121.7811,39.0496,大连市,开发区,颗粒物(PM10),65,79,65,45,34,120,,130,125,17,14,7,8,0.7,0.7
2025-04-17T1100,1118A,121.9762,39.0631,大连市,双D港,,,60,59,30,29,141,,143,143,,5,8,9,0.3,0.4
2025-04-17T1100,1789A,124.81117,46.03138,大庆市,大同区,颗粒物(PM10),55,60,48,37,33,100,,68,68,12,14,6,6,0.5,0.5
2025-04-17T1100,1790A,125.129,46.533,大庆市,龙凤区,颗粒物(PM10),54,58,43,26,20,99,,79,79,11,17,6,6,0.5,0.5
2025-04-17T1100,1791A,124.902,46.408,大庆市,红岗区,,,,29,,28,,,72,72,9,10,10,11,0.3,0.3
2025-04-17T1100,1792A,125.153,46.586,大庆市,萨尔图区,"颗粒物(PM10),细颗粒物(PM2.5)",55,59,37,39,25,90,,73,73,12,15,8,9,0.4,0.3
2025-04-17T1100,1793A,124.9042,46.6215,大庆市,让胡路区,,50,49,37,35,25,94,,70,70,15,27,6,8,0.3,0.4
2025-04-17T1100,3481A,125.141,46.634,大庆市,萨区政府监测点,颗粒物(PM10),54,57,38,29,16,92,,79,79,12,12,6,6,0.4,0.4
2025-04-17T1100,1721A,113.3819,40.1097,大同市,果树场,细颗粒物(PM2.5),89,91,383,66,79,97,,72,72,6,18,5,7,0.3,0.5
2025-04-17T1100,1723A,113.2994,40.0758,大同市,云冈宾馆,颗粒物(PM10),89,127,416,22,67,102,,66,66,9,15,10,9,0.6,0.7
2025-04-17T1100,1724A,113.3444,40.0917,大同市,大同大学,颗粒物(PM10),107,164,453,69,96,98,,60,60,4,13,13,13,0.4,0.5
2025-04-17T1100,1725A,113.2661,40.1269,大同市,安家小村,颗粒物(PM10),110,170,452,21,92,98,,64,64,3,8,12,11,0.4,0.4
2025-04-17T1100,1726A,113.2711,40.0844,大同市,教育学院,颗粒物(PM10),135,220,449,72,80,99,,63,62,7,13,10,10,0.4,0.4
2025-04-17T1100,3282A,113.3397,40.0597,大同市,大同市卫生学校,颗粒物(PM10),105,159,449,25,78,98,,68,68,8,15,7,9,0.6,0.7
2025-04-17T1100,3565A,113.1367,40.1122,大同市,云冈站,颗粒物(PM10),112,174,376,42,85,95,,51,51,7,15,12,12,0.7,0.5
2025-04-17T1100,3566A,113.1186,40.2556,大同市,图书馆,颗粒物(PM10),314,431,454,33,92,87,,50,50,6,8,11,9,1.0,0.7
2025-04-17T1100,3567A,113.5931,40.0461,大同市,区一中,颗粒物(PM10),187,324,457,25,78,98,,53,53,9,14,15,13,0.6,0.6
2025-04-17T1100,4199A,113.2798,40.0997,大同市,魏都大道141号,颗粒物(PM10),123,195,482,23,76,102,,63,63,9,18,14,13,0.8,0.8
2025-04-17T1100,2269A,124.1069,50.4097,大兴安岭地区,科技局,,,32,22,15,16,,,63,63,8,9,3,3,0.3,0.3
2025-04-17T1100,3663A,124.1164,50.4278,大兴安岭地区,红旗社区,,23,19,16,11,9,73,,63,63,10,12,5,6,0.4,0.3
2025-04-17T1100,1600A,124.3303,40.0625,丹东市,江湾东路,颗粒物(PM10),58,66,65,24,43,138,,78,78,12,24,10,12,0.3,0.9
2025-04-17T1100,1601A,124.4256,40.1503,丹东市,临江后街,颗粒物(PM10),56,62,78,27,43,119,,52,52,20,31,9,7,0.8,0.9
2025-04-17T1100,1602A,124.3933,40.1461,丹东市,元宝山,颗粒物(PM10),63,76,75,23,32,116,,83,83,20,23,11,9,0.7,0.8
2025-04-17T1100,1603A,124.3633,40.1092,丹东市,民主桥,颗粒物(PM10),63,76,78,22,41,126,,55,55,17,40,12,11,0.6,1
2025-04-17T1100,3541A,109.5726,19.5167,儋州市,第一中学子站,颗粒物(PM10),91,132,122,49,47,104,,79,78,9,10,4,5,0.6,0.5
2025-04-17T1100,3542A,109.5567,19.5187,儋州市,东坡学校子站,颗粒物(PM10),85,120,114,48,41,93,,69,68,11,9,7,6,0.7,0.6
2025-04-17T1100,2616A,98.5842,24.428,德宏傣族景颇族自治州,德宏州监测站,,,27,35,22,23,,,54,45,12,12,7,7,0.4,0.4
2025-04-17T1100,3677A,98.5881,24.4368,德宏傣族景颇族自治州,芒市人民政府综合楼,,42,36,47,29,25,64,,62,53,15,11,7,7,0.6,0.5
2025-04-17T1100,1901A,104.4239,31.1208,德阳市,东山公园,颗粒物(PM10),76,102,131,53,54,136,,103,96,29,16,6,6,0.7,0.6
2025-04-17T1100,1902A,104.3826,31.1317,德阳市,西小区,颗粒物(PM10),86,121,136,51,56,137,,93,93,42,30,8,8,0.9,0.7
2025-04-17T1100,1904A,104.3553,31.1091,德阳市,耐火材料厂,颗粒物(PM10),78,106,134,43,56,144,,90,89,29,24,8,8,0.7,0.6
2025-04-17T1100,3639A,104.4019,31.1244,德阳市,市教育局,颗粒物(PM10),78,106,126,46,56,146,,99,97,31,23,8,8,0.7,0.5
2025-04-17T1100,1622A,116.3032,37.4674,德州市,儿童乐园,细颗粒物(PM2.5),134,197,207,102,76,82,,53,46,25,24,18,13,0.9,0.8
2025-04-17T1100,1624A,116.2991,37.4451,德州市,监理站,颗粒物(PM10),131,212,209,97,70,85,,50,47,23,22,16,16,0.7,0.6
2025-04-17T1100,3066A,116.2721,37.4379,德州市,九衢泉纯净水厂,颗粒物(PM10),106,161,170,63,59,88,,40,40,30,33,17,13,1.0,1
2025-04-17T1100,3371A,116.3728,37.4403,德州市,开发区人民医院,颗粒物(PM10),140,229,198,73,57,91,,54,48,,23,,12,1.0,0.9
2025-04-17T1100,3372A,116.3572,37.4094,德州市,太阳城中学,颗粒物(PM10),144,237,203,73,63,90,,51,46,38,27,13,9,0.8,0.6
2025-04-17T1100,3511A,116.5652,37.3319,德州市,陵城艺术中心,细颗粒物(PM2.5),128,197,176,97,57,78,,56,45,32,25,8,9,0.8,0.8
2025-04-17T1100,2621A,99.7056,27.8317,迪庆藏族自治州,迪庆州站,,33,32,29,18,16,103,,82,76,11,12,9,10,0.4,0.5
2025-04-17T1100,3180A,99.7136,27.8094,迪庆藏族自治州,质量技术监督局,,34,26,23,3,12,106,,95,82,13,11,10,10,0.4,0.4
2025-04-17T1100,4257A,104.6092,35.5962,定西市,将台街,颗粒物(PM10),68,86,149,33,46,106,,48,48,9,20,6,6,0.1,0.1
2025-04-17T1100,4309A,104.6159,35.5701,定西市,正龙路62号,颗粒物(PM10),66,82,159,33,44,107,,57,57,4,10,10,10,0.2,0.3
2025-04-17T1100,1389A,113.7547,23.0494,东莞市,莞城梨川,颗粒物(PM10),65,80,120,25,33,106,,74,74,16,20,4,4,0.5,0.5
2025-04-17T1100,1390A,113.7944,23.0128,东莞市,东城石井,颗粒物(PM10),60,70,104,24,35,112,,56,56,16,24,5,6,0.4,0.4
2025-04-17T1100,1391A,113.7383,22.9658,东莞市,南城西平,颗粒物(PM10),57,64,111,34,40,109,,59,59,13,28,5,5,0.3,0.5
2025-04-17T1100,3319A,113.7338,23.0381,东莞市,万江金泰,颗粒物(PM10),60,69,110,22,32,113,,79,79,15,22,4,4,0.5,0.5
2025-04-17T1100,3626A,113.7533,23.0202,东莞市,南城元岭,颗粒物(PM10),62,74,113,25,33,106,,70,70,12,19,6,6,0.7,0.7
2025-04-17T1100,3627A,113.7875,23.0457,东莞市,东城主山,颗粒物(PM10),65,80,117,24,31,97,,71,71,30,26,3,4,0.5,0.4
2025-04-17T1100,1666A,118.6614,37.4309,东营市,市环保局,颗粒物(PM10),151,251,145,73,50,96,,81,69,34,28,18,14,0.5,0.6
2025-04-17T1100,3036A,118.6904,37.4338,东营市,开发区管委会,颗粒物(PM10),161,271,154,78,51,103,,92,77,38,35,16,12,0.6,0.7
2025-04-17T1100,3365A,118.5719,37.565,东营市,垦利区民丰路,颗粒物(PM10),106,161,134,63,54,83,,75,68,23,32,,16,0.7,0.8
2025-04-17T1100,3498A,118.5055,37.8612,东营市,河口城区,颗粒物(PM10),92,134,106,49,40,112,,70,70,22,26,9,8,1.2,1
2025-04-17T1100,3646A,118.4978,37.4623,东营市,胜利站,颗粒物(PM10),132,214,132,68,51,94,,89,68,30,31,20,15,1.1,1.2
2025-04-17T1100,3734A,118.35,37.26,东营市,理想之城,颗粒物(PM10),150,249,153,78,54,94,,73,60,32,31,18,13,0.8,0.8
2025-04-17T1100,1591A,110.0023,39.8129,鄂尔多斯市,综合楼,颗粒物(PM10),135,219,436,66,98,108,,65,65,8,16,5,5,0.2,0.3
2025-04-17T1100,1592A,109.9486,39.8261,鄂尔多斯市,巴音孟克林场办事处,颗粒物(PM10),130,210,432,90,116,103,,58,58,6,17,6,7,0.4,0.5
2025-04-17T1100,1593A,109.7736,39.5986,鄂尔多斯市,康泽苑,颗粒物(PM10),131,212,468,75,138,,,58,54,10,9,5,4,0.3,0.2
2025-04-17T1100,1594A,109.8119,39.5989,鄂尔多斯市,华泰汽车城,,,,487,,134,,,43,35,16,16,4,4,0.4,0.4
2025-04-17T1100,1595A,109.9734,39.7884,鄂尔多斯市,奥林花园,颗粒物(PM10),126,202,461,61,103,108,,44,44,8,25,8,6,0.4,0.4
2025-04-17T1100,2436A,114.8938,30.3994,鄂州市,市政府,颗粒物(PM10),70,89,75,40,35,66,,68,66,33,27,10,10,1.0,1
2025-04-17T1100,2437A,114.8989,30.3714,鄂州市,赵家坝,颗粒物(PM10),66,82,79,46,31,76,,64,64,36,31,8,7,1.0,0.9
2025-04-17T1100,3654A,114.8094,30.4089,鄂州市,精准医疗中心,颗粒物(PM10),66,82,83,43,38,101,,50,50,33,41,12,15,0.9,1.1
2025-04-17T1100,2454A,109.4978,30.2981,恩施土家族苗族自治州,湖北民院,颗粒物(PM10),66,82,98,38,43,50,,34,34,24,16,6,7,0.5,0.3
2025-04-17T1100,2455A,109.4707,30.2798,恩施土家族苗族自治州,州电力总公司,颗粒物(PM10),70,89,84,45,40,36,,16,15,37,25,6,6,0.1,0.1
2025-04-17T1100,3549A,109.5061,30.3772,恩施土家族苗族自治州,龙凤新区,颗粒物(PM10),56,62,79,35,39,66,,32,32,13,14,6,6,0.4,0.4
2025-04-17T1100,2499A,108.3411,21.6158,防城港市,沙万,颗粒物(PM10),99,148,168,53,60,86,,76,68,19,24,13,7,0.7,0.7
2025-04-17T1100,2500A,108.3514,21.7731,防城港市,防城档案局,颗粒物(PM10),101,151,166,52,60,93,,77,70,16,13,4,5,0.6,0.5
2025-04-17T1100,2501A,108.3506,21.6414,防城港市,大海花园,颗粒物(PM10),101,152,180,45,54,108,,89,86,10,17,2,7,0.5,0.6
2025-04-17T1100,1371A,113.1294,23.0067,佛山市,湾梁,颗粒物(PM10),69,88,115,26,32,103,,91,86,19,18,7,7,0.6,0.5
2025-04-17T1100,1372A,113.1083,23.0478,佛山市,华材职中,颗粒物(PM10),71,92,117,33,38,106,,96,90,21,17,7,7,0.5,0.5
2025-04-17T1100,1373A,113.144,23.0453,佛山市,南海气象局,颗粒物(PM10),72,93,119,26,39,97,,78,74,19,20,6,7,0.5,0.5
2025-04-17T1100,1374A,113.2881,22.8094,佛山市,顺德苏岗,颗粒物(PM10),73,96,107,17,24,95,,71,71,14,16,5,6,0.6,0.6
2025-04-17T1100,1376A,112.8383,22.8678,佛山市,高明孔堂,颗粒物(PM10),70,90,117,30,37,105,,73,73,11,12,5,5,0.5,0.5
2025-04-17T1100,1377A,112.8836,23.1588,佛山市,三水监测站,,,107,127,49,47,92,,53,53,,32,4,3,,0.4
2025-04-17T1100,1378A,112.867,23.185,佛山市,三水云东海,颗粒物(PM10),77,103,116,29,35,101,,59,59,25,32,2,2,0.5,0.5
2025-04-17T1100,3625A,113.2544,22.7642,佛山市,容桂街道办,颗粒物(PM10),63,75,102,24,28,94,,80,80,17,19,6,6,0.5,0.5
2025-04-17T1100,1280A,119.3903,26.0543,福州市,鼓山,,,,82,,27,,,148,,,6,,2,,0.3
2025-04-17T1100,1282A,119.2681,26.0504,福州市,师大,,,99,91,43,36,120,,81,78,,22,4,5,0.4,0.5
2025-04-17T1100,1283A,119.2984,26.1028,福州市,五四北路,颗粒物(PM10),78,105,91,53,38,105,,88,88,40,24,4,5,0.7,0.6
2025-04-17T1100,1284A,119.2648,26.0768,福州市,杨桥西路,颗粒物(PM10),79,108,99,42,37,118,,84,84,26,22,5,5,0.4,0.5
2025-04-17T1100,1285A,119.317,26.0746,福州市,紫阳,颗粒物(PM10),81,112,101,41,40,91,,79,75,55,38,6,6,0.5,0.5
2025-04-17T1100,3048A,119.5799,26.0936,福州市,九龙,颗粒物(PM10),70,90,74,37,34,103,,57,57,29,17,6,4,0.3,0.4
2025-04-17T1100,3526A,119.5189,25.9664,福州市,吴航,,,82,79,38,31,120,,72,72,14,16,5,5,,0.5
2025-04-17T1100,1755A,123.7977,41.8491,抚顺市,望花区,颗粒物(PM10),71,91,81,45,44,167,,56,56,22,40,15,12,0.8,0.8
2025-04-17T1100,1756A,123.9161,41.8822,抚顺市,顺城区,,,72,93,31,38,,,44,44,28,46,,9,0.9,1
2025-04-17T1100,1757A,124.0436,41.8611,抚顺市,东洲区,颗粒物(PM10),56,61,49,32,27,143,,65,65,21,20,9,7,0.7,0.6
2025-04-17T1100,1758A,123.9247,41.8642,抚顺市,新抚区,颗粒物(PM10),59,68,76,37,33,144,,53,53,20,36,11,7,0.8,0.7
2025-04-17T1100,1759A,124.0972,41.8961,抚顺市,大伙房水库,,49,46,35,26,23,154,,68,68,10,13,10,8,0.7,0.6
2025-04-17T1100,1760A,123.7086,41.8391,抚顺市,沈抚新城,颗粒物(PM10),74,97,90,41,46,162,,56,56,26,47,15,11,1.0,1.2
2025-04-17T1100,2376A,116.2127,28.0814,抚州市,桐源党溪,颗粒物(PM10),62,74,64,28,25,82,,78,78,3,4,5,9,0.6,0.6
2025-04-17T1100,2377A,116.3544,27.9831,抚州市,市站,颗粒物(PM10),63,75,69,28,26,80,,66,66,27,15,7,11,1.2,1.2
2025-04-17T1100,2378A,116.3565,27.963,抚州市,血防站,颗粒物(PM10),63,75,67,28,28,78,,65,65,22,13,3,7,1.3,1.2
2025-04-17T1100,2379A,116.3564,28.0007,抚州市,采茶剧团,颗粒物(PM10),62,74,69,27,25,70,,62,62,17,10,1,5,1.7,1.5
2025-04-17T1100,2380A,116.385,27.9647,抚州市,医学分院,颗粒物(PM10),64,77,71,27,25,69,,56,56,14,13,4,5,1.3,1.2
2025-04-17T1100,2207A,121.6094,41.998,阜新市,工业园区,细颗粒物(PM2.5),87,115,105,64,54,98,,29,29,33,43,30,16,1.3,1.3
2025-04-17T1100,2208A,121.6697,42.0279,阜新市,长青街,细颗粒物(PM2.5),82,106,112,60,54,113,,39,39,27,35,28,16,1.2,2.9
2025-04-17T1100,2209A,121.6673,42.0705,阜新市,农业园区,细颗粒物(PM2.5),85,111,88,63,66,115,,79,79,22,19,22,24,1.2,1.3
2025-04-17T1100,2210A,121.6717,42.0224,阜新市,东苑,颗粒物(PM10),81,111,115,46,51,113,,38,38,27,43,39,27,1.2,3.1
2025-04-17T1100,2211A,121.6506,42.0498,阜新市,玉龙新城,细颗粒物(PM2.5),69,85,96,50,50,112,,40,40,25,42,25,17,1.3,1.5
2025-04-17T1100,2301A,115.8277,32.8929,阜阳市,市监测站,颗粒物(PM10),67,84,82,33,36,129,,99,99,10,12,10,9,0.4,0.4
2025-04-17T1100,2303A,115.8554,32.8605,阜阳市,开发区,,,128,102,29,30,136,,88,87,,16,8,8,,0.4
2025-04-17T1100,2875A,115.784,32.8892,阜阳市,阜阳职业技术学院,颗粒物(PM10),79,107,90,34,32,126,,90,90,8,13,8,8,0.3,0.4
2025-04-17T1100,3468A,115.7901,32.8613,阜阳市,市规划展馆,颗粒物(PM10),81,111,95,41,36,137,,100,100,6,9,9,9,0.5,0.7
2025-04-17T1100,3469A,115.836,32.9183,阜阳市,枣园社区,颗粒物(PM10),75,100,92,39,40,134,,103,103,9,11,10,10,0.4,0.4
2025-04-17T1100,2669A,102.9099,34.9841,甘南藏族自治州,州政府,颗粒物(PM10),51,52,81,22,28,79,,40,40,10,21,11,11,0.4,0.4
2025-04-17T1100,3380A,102.8914,34.9617,甘南藏族自治州,甘肃民族师范学院,颗粒物(PM10),51,51,97,14,25,76,,29,29,13,30,9,8,0.5,0.5
2025-04-17T1100,2570A,101.9603,30.0475,甘孜藏族自治州,水桥子,,26,16,22,3,9,83,,42,34,17,22,5,4,0.3,0.2
2025-04-17T1100,3065A,101.9533,29.9972,甘孜藏族自治州,州环保局,,32,22,25,3,7,101,,58,57,11,18,1,1,0.2,0.2
2025-04-17T1100,3414A,115.8347,28.932,赣江新区,桑海产业园,颗粒物(PM10),59,68,81,34,35,144,,60,60,14,36,8,10,0.4,0.5
2025-04-17T1100,2362A,114.9017,25.9149,赣州市,通天岩,颗粒物(PM10),68,85,100,10,12,104,,127,115,2,2,1,2,0.7,0.6
2025-04-17T1100,2363A,114.9367,25.8664,赣州市,地委,颗粒物(PM10),65,80,82,26,27,97,,120,106,16,12,15,12,0.8,0.8
2025-04-17T1100,2364A,114.9461,25.8481,赣州市,气象台,颗粒物(PM10),65,79,96,23,28,102,,119,106,14,12,9,11,0.5,0.6
2025-04-17T1100,2365A,114.9322,25.8333,赣州市,市图书馆,颗粒物(PM10),63,75,91,20,27,87,,111,97,18,12,5,6,0.6,0.6
2025-04-17T1100,2366A,114.8905,25.8471,赣州市,华坚鞋城,,,94,101,19,26,88,,118,105,,13,,13,,0.3
2025-04-17T1100,3109A,115.0093,25.8613,赣州市,赣县区卫计委,颗粒物(PM10),70,90,99,24,31,88,,112,97,10,5,4,5,0.3,0.3
2025-04-17T1100,2683A,106.2319,36.1417,固原市,马园,颗粒物(PM10),116,181,210,32,53,102,,42,42,15,38,5,5,0.4,0.5
2025-04-17T1100,2684A,106.2792,36.0022,固原市,监测站,颗粒物(PM10),85,120,165,45,77,100,,75,75,5,16,4,5,0.3,0.4
2025-04-17T1100,2685A,106.2375,36.0211,固原市,新区,颗粒物(PM10),89,127,181,32,54,103,,73,73,9,29,4,5,0.3,0.4
2025-04-17T1100,3522A,106.2177,35.9959,固原市,原州区十五小,颗粒物(PM10),91,132,189,39,58,113,,102,102,3,10,7,7,0.2,0.2
2025-04-17T1100,2543A,106.6308,30.5278,广安市,小平旧居,,,,,,,,,,,,,,,,
2025-04-17T1100,2544A,106.6303,30.4576,广安市,市委,颗粒物(PM10),94,138,139,53,54,101,,76,75,20,19,22,12,0.5,0.5
2025-04-17T1100,2545A,106.6271,30.4663,广安市,友谊中学,,,130,128,47,49,98,,74,74,23,21,,8,0.8,0.7
2025-04-17T1100,2547A,106.6388,30.4551,广安市,广电花园,颗粒物(PM10),88,125,135,57,54,104,,72,72,18,25,19,8,0.4,0.5
2025-04-17T1100,2902A,106.6351,30.4865,广安市,北辰小学,颗粒物(PM10),94,138,134,48,56,84,,62,60,28,19,21,10,0.3,0.3
2025-04-17T1100,2523A,105.8945,32.4535,广元市,黑石坡,颗粒物(PM10),58,66,91,10,22,80,,91,81,16,9,2,3,0.3,0.3
2025-04-17T1100,2524A,105.821,32.4444,广元市,老城,颗粒物(PM10),53,56,88,23,26,98,,,,15,23,16,4,1.5,0.8
2025-04-17T1100,2526A,105.8628,32.4287,广元市,监测站,,,37,67,22,34,98,,83,79,15,15,9,13,,0.5
2025-04-17T1100,3617A,105.8047,32.4166,广元市,经开区,颗粒物(PM10),61,71,87,34,40,104,,73,68,16,28,22,13,0.7,0.6
2025-04-17T1100,1345A,113.2347,23.1423,广州市,广雅中学,颗粒物(PM10),71,91,117,24,29,97,,84,84,17,19,3,4,0.6,0.5
2025-04-17T1100,1346A,113.2612,23.105,广州市,市五中,颗粒物(PM10),70,89,117,26,32,98,,80,80,14,17,2,2,0.6,0.6
2025-04-17T1100,1348A,113.3478,23.0916,广州市,广东商学院,颗粒物(PM10),65,80,108,26,36,92,,75,75,17,22,4,5,0.5,0.4
2025-04-17T1100,1349A,113.4332,23.1047,广州市,市八十六中,颗粒物(PM10),69,88,107,22,25,91,,73,73,26,29,5,5,0.5,0.5
2025-04-17T1100,1350A,113.3505,22.9483,广州市,番禺中学,颗粒物(PM10),67,83,107,33,36,88,,81,78,22,19,4,4,0.4,0.4
2025-04-17T1100,1351A,113.2146,23.3916,广州市,花都师范,,,100,131,37,36,107,,74,74,,23,,5,0.4,0.4
2025-04-17T1100,1352A,113.2597,23.1331,广州市,市监测站,颗粒物(PM10),66,82,113,26,32,80,,65,65,18,21,4,5,0.6,0.5
2025-04-17T1100,1353A,113.5618,23.312,广州市,九龙镇镇龙,颗粒物(PM10),73,95,127,34,37,105,,42,42,24,30,6,6,0.5,0.5
2025-04-17T1100,1354A,113.2765,23.1544,广州市,麓湖,颗粒物(PM10),66,82,110,27,30,104,,85,85,13,19,4,5,0.5,0.4
2025-04-17T1100,1355A,113.443,23.3035,广州市,帽峰山森林公园,颗粒物(PM10),67,84,101,24,25,112,,64,63,14,16,8,8,0.3,0.3
2025-04-17T1100,2846A,113.3221,23.1322,广州市,体育西,颗粒物(PM10),69,87,117,29,34,99,,79,79,12,16,4,5,0.4,0.4
2025-04-17T1100,3298A,113.5717,23.5491,广州市,从化街口,颗粒物(PM10),77,104,127,40,36,120,,65,65,16,21,9,10,0.7,0.7
2025-04-17T1100,3299A,113.3472,23.3692,广州市,白云竹料,颗粒物(PM10),70,89,124,24,32,110,,88,88,16,21,3,3,0.4,0.4
2025-04-17T1100,3300A,113.2981,23.237,广州市,白云嘉禾,颗粒物(PM10),70,89,124,28,33,99,,70,70,21,31,4,5,0.6,0.5
2025-04-17T1100,3301A,113.4256,23.1716,广州市,黄埔科学城,颗粒物(PM10),72,93,116,31,31,93,,80,80,23,22,7,8,0.2,0.2
2025-04-17T1100,3302A,113.3942,23.0483,广州市,番禺大学城,颗粒物(PM10),75,99,128,25,30,100,,86,84,20,21,9,9,0.5,0.5
2025-04-17T1100,3303A,113.4922,22.8168,广州市,南沙黄阁,颗粒物(PM10),65,79,107,25,28,81,,69,66,21,18,5,5,0.7,0.7
2025-04-17T1100,3304A,113.5342,22.7896,广州市,南沙街,颗粒物(PM10),61,72,99,22,27,84,,58,58,18,17,4,4,0.5,0.5
2025-04-17T1100,3443A,113.2902,23.5544,广州市,花都梯面,颗粒物(PM10),69,87,124,28,32,102,,74,74,20,20,4,5,0.5,0.5
2025-04-17T1100,3445A,113.7858,23.7478,广州市,从化良口,,,,112,,37,,,138,,,14,,7,,0.4
2025-04-17T1100,3446A,113.8051,23.2614,广州市,增城荔城,颗粒物(PM10),78,106,131,38,41,128,,67,67,17,23,8,8,0.3,0.4
2025-04-17T1100,2505A,109.568,23.1478,贵港市,德智高中,,,,,,,,,,,,,,,,
2025-04-17T1100,2506A,109.6047,23.0666,贵港市,江南子站,颗粒物(PM10),89,127,171,40,64,107,,104,99,6,16,3,9,0.5,0.5
2025-04-17T1100,2508A,109.5669,23.1065,贵港市,荷城子站,颗粒物(PM10),96,142,158,41,50,108,,108,106,10,14,5,7,0.2,0.3
2025-04-17T1100,3405A,109.5886,23.1172,贵港市,新世纪学校,颗粒物(PM10),93,136,157,40,53,112,,104,104,15,18,5,7,0.6,0.6
2025-04-17T1100,4260A,109.5933,23.0951,贵港市,中山路155-3号,颗粒物(PM10),96,142,155,49,63,119,,112,111,11,17,8,11,0.4,0.5
2025-04-17T1100,1439A,106.6899,26.5998,贵阳市,马鞍山,,,83,52,34,21,,,42,28,20,11,5,4,0.5,0.4
2025-04-17T1100,1441A,106.6243,26.6266,贵阳市,鉴湖路,,,88,63,58,29,,,74,66,10,10,11,10,0.4,0.4
2025-04-17T1100,1442A,106.7487,26.6343,贵阳市,燕子冲,细颗粒物(PM2.5),73,88,57,53,36,84,,72,58,22,14,5,4,0.5,0.5
2025-04-17T1100,1443A,106.6555,26.4365,贵阳市,碧云窝,颗粒物(PM10),74,97,68,46,31,115,,66,62,15,12,19,7,0.5,0.5
2025-04-17T1100,1445A,106.7109,26.6027,贵阳市,红边门,细颗粒物(PM2.5),83,95,64,61,38,95,,88,72,27,22,4,4,0.5,0.4
2025-04-17T1100,1446A,106.7164,26.5699,贵阳市,新华路,,,95,64,46,35,,,84,69,32,17,,22,1.0,0.5
2025-04-17T1100,1447A,106.674,26.5424,贵阳市,太慈桥,颗粒物(PM10),71,92,60,39,29,112,,55,46,19,19,6,5,0.4,0.2
2025-04-17T1100,1552A,106.805,26.3003,贵阳市,桐木岭,,,127,87,53,42,,,120,120,10,5,,1,,0.9
2025-04-17T1100,4230A,106.6882,26.5695,贵阳市,花果园大街66号,颗粒物(PM10),74,97,56,45,37,87,,95,74,36,19,9,7,0.6,0.4
2025-04-17T1100,4231A,106.6873,26.5169,贵阳市,漓江路57号,颗粒物(PM10),71,92,60,46,34,108,,77,70,17,13,11,9,0.4,0.4
2025-04-17T1100,1862A,110.4144,25.3167,桂林市,电子科大尧山校区,,,,,,,,,,,,,,,,
2025-04-17T1100,1864A,110.3089,25.2708,桂林市,龙隐路小学,颗粒物(PM10),93,136,121,53,49,104,,111,101,18,15,11,11,0.5,0.5
2025-04-17T1100,1865A,110.2869,25.2178,桂林市,八中,颗粒物(PM10),90,130,123,48,51,93,,99,87,19,20,3,3,0.7,0.7
2025-04-17T1100,3531A,110.296,25.1253,桂林市,旅游学院,颗粒物(PM10),86,122,114,44,42,105,,96,95,13,15,5,4,0.6,0.7
2025-04-17T1100,4222A,110.1835,25.2444,桂林市,环湖路276号,,,134,124,,47,92,,93,93,,25,10,8,,0.5
2025-04-17T1100,4301A,110.2803,25.2773,桂林市,信义路13号,颗粒物(PM10),90,129,120,40,42,119,,127,115,13,20,5,4,0.8,0.9
2025-04-17T1100,2674A,100.2561,34.4714,果洛藏族自治州,玛沁县大武镇,,48,48,56,19,19,103,,59,59,5,4,14,13,0.5,0.4
2025-04-17T1100,1129A,126.5422,45.755,哈尔滨市,岭北,颗粒物(PM10),62,73,59,38,45,101,,65,65,36,37,17,15,0.9,0.9
2025-04-17T1100,1130A,126.561,45.8167,哈尔滨市,松北商大,细颗粒物(PM2.5),75,72,67,55,54,118,,66,66,22,33,12,12,0.7,0.6
2025-04-17T1100,1131A,126.979,45.5419,哈尔滨市,阿城会宁,,,,106,,79,123,,35,35,,44,,10,0.8,0.8
2025-04-17T1100,1132A,126.599,45.7222,哈尔滨市,南岗学府路,细颗粒物(PM2.5),64,76,75,46,43,98,,69,69,34,35,14,11,0.6,0.6
2025-04-17T1100,1133A,126.689,45.7733,哈尔滨市,太平宏伟公园,细颗粒物(PM2.5),107,108,96,80,69,128,,61,61,42,47,,9,,0.8
2025-04-17T1100,1134A,126.635,45.7667,哈尔滨市,道外承德广场,细颗粒物(PM2.5),83,78,63,61,55,99,,55,55,36,42,9,9,0.7,0.7
2025-04-17T1100,1135A,126.685,45.7319,哈尔滨市,香坊红旗大街,颗粒物(PM10),75,100,87,44,60,111,,59,59,34,45,14,12,0.6,0.6
2025-04-17T1100,1136A,126.6411,45.7258,哈尔滨市,动力和平路,细颗粒物(PM2.5),78,74,83,57,62,104,,69,69,30,31,13,11,0.6,0.5
2025-04-17T1100,1137A,126.593,45.7478,哈尔滨市,道里建国路,细颗粒物(PM2.5),58,60,65,41,51,97,,62,62,37,40,25,16,0.8,0.9
2025-04-17T1100,1138A,126.615,45.61,哈尔滨市,平房东轻厂,细颗粒物(PM2.5),102,125,76,76,49,126,,60,60,36,40,15,13,0.7,0.7
2025-04-17T1100,1139A,126.595,45.9855,哈尔滨市,呼兰师专,细颗粒物(PM2.5),204,206,90,154,78,136,,61,61,45,34,17,9,1.0,0.7
2025-04-17T1100,1140A,126.6206,45.6842,哈尔滨市,省农科院,,,84,79,49,54,108,,62,62,,38,12,12,0.4,0.5
2025-04-17T1100,2688A,93.5128,42.8172,哈密市,地区监测站,,28,11,100,7,20,87,,92,92,10,20,3,6,0.1,0.3
2025-04-17T1100,2689A,93.4961,42.8328,哈密市,哈密师范学校,,26,14,66,7,14,83,,93,93,13,21,4,5,0.8,0.8
2025-04-17T1100,2671A,100.9048,36.9639,海北藏族自治州,海晏县西海镇,颗粒物(PM10),68,86,79,30,32,75,,52,52,14,5,13,10,0.5,0.4
2025-04-17T1100,3867A,102.0738,36.5056,海东市,平安区公安北苑,颗粒物(PM10),93,136,161,50,55,72,,48,46,24,14,27,10,0.8,0.7
2025-04-17T1100,1409A,110.576,19.9507,海口市,东寨港,颗粒物(PM10),73,95,112,41,43,79,,64,64,3,5,10,10,0.5,0.6
2025-04-17T1100,1410A,110.3232,20.0574,海口市,海南大学,,,100,155,32,46,93,,112,105,,7,,3,0.4,0.4
2025-04-17T1100,1411A,110.283,20.0053,海口市,秀英海南医院,颗粒物(PM10),79,108,141,32,40,88,,78,78,9,15,4,4,0.3,0.4
2025-04-17T1100,1412A,110.338,19.9969,海口市,海南师范大学,颗粒物(PM10),81,112,147,34,44,92,,97,93,4,5,3,4,0.4,0.4
2025-04-17T1100,1413A,110.33,20.0356,海口市,龙华路环保局宿舍,颗粒物(PM10),79,107,146,34,50,94,,107,100,4,4,4,4,0.3,0.4
2025-04-17T1100,3539A,110.5111,19.9736,海口市,桂林洋子站,颗粒物(PM10),72,94,132,35,40,94,,84,84,5,9,4,4,0.3,0.3
2025-04-17T1100,2673A,100.6188,36.2866,海南藏族自治州,共和县恰卜恰镇,细颗粒物(PM2.5),65,,77,47,35,116,,56,56,2,17,16,13,0.3,0.4
2025-04-17T1100,2676A,97.3731,37.3753,海西蒙古族藏族自治州,德令哈市,颗粒物(PM10),77,104,132,33,37,100,,94,94,6,4,16,14,0.5,0.4
2025-04-17T1100,1048A,114.5302,36.6116,邯郸市,东污水处理厂,,,,,,,,,,,,,,,,
2025-04-17T1100,1049A,114.4918,36.5713,邯郸市,矿院,颗粒物(PM10),161,272,223,105,79,72,,48,48,5,34,5,7,0.5,0.6
2025-04-17T1100,1050A,114.484,36.6133,邯郸市,丛台公园,颗粒物(PM10),182,314,249,109,95,78,,50,50,7,32,9,11,0.5,0.7
2025-04-17T1100,3458A,114.7895,36.5593,邯郸市,香泉濮院小区,颗粒物(PM10),246,382,318,75,72,65,,34,34,34,29,18,10,0.8,0.5
2025-04-17T1100,3579A,114.50634,36.77178,邯郸市,永年区实验高中,颗粒物(PM10),191,332,284,103,90,47,,39,39,50,29,11,18,0.9,1.1
2025-04-17T1100,3580A,114.20016,36.44293,邯郸市,峰峰矿区临水派出所,细颗粒物(PM2.5),193,279,247,145,99,,,89,86,10,13,6,7,0.4,0.4
2025-04-17T1100,2634A,106.9893,33.1842,汉中市,汉川机床厂子校,细颗粒物(PM2.5),60,64,81,43,57,104,,105,102,8,7,8,8,1.3,1.3
2025-04-17T1100,2635A,107.0154,33.0706,汉中市,市监测站,,,,92,30,34,113,,95,95,12,17,12,8,,1.2
2025-04-17T1100,2636A,107.0089,33.1138,汉中市,鑫源开发区,颗粒物(PM10),74,98,95,26,32,108,,91,88,12,18,9,8,1.0,0.7
2025-04-17T1100,2637A,107.007,33.0323,汉中市,南郑大河坎水厂,颗粒物(PM10),73,95,88,38,36,117,,90,86,12,16,11,7,1.0,0.7
2025-04-17T1100,1223A,120.2072,30.2111,杭州市,滨江,,,71,53,25,19,81,,78,77,,22,7,8,,0.7
2025-04-17T1100,1224A,120.0633,30.2747,杭州市,西溪,颗粒物(PM10),53,56,45,32,22,83,,42,38,21,20,6,6,0.6,0.6
2025-04-17T1100,1226A,120.3417,30.3150,杭州市,下沙,颗粒物(PM10),54,58,52,24,19,94,,82,82,29,26,8,8,0.4,0.4
2025-04-17T1100,1227A,120.1269,30.2456,杭州市,卧龙桥,颗粒物(PM10),54,58,44,28,22,59,,45,45,40,19,7,7,0.5,0.4
2025-04-17T1100,1228A,120.1903,30.2692,杭州市,浙江农大,颗粒物(PM10),52,54,47,23,21,71,,80,74,36,20,3,4,0.4,0.3
2025-04-17T1100,1230A,120.1197,30.3119,杭州市,和睦小学,颗粒物(PM10),56,61,49,29,25,78,,69,63,32,22,8,8,0.6,0.5
2025-04-17T1100,1231A,120.3019,30.4183,杭州市,临平镇,颗粒物(PM10),67,83,62,33,23,81,,79,77,37,29,6,6,0.5,0.4
2025-04-17T1100,1232A,120.2753,30.1839,杭州市,城厢镇,颗粒物(PM10),56,62,52,28,24,84,,70,70,32,25,9,9,0.7,0.6
2025-04-17T1100,1233A,120.0883,30.1808,杭州市,云栖,颗粒物(PM10),51,51,46,23,19,26,,22,17,57,37,9,9,0.7,0.5
2025-04-17T1100,3557A,119.9464,30.0494,杭州市,镇二中,颗粒物(PM10),53,56,46,32,23,83,,80,80,30,24,3,2,0.6,0.5
2025-04-17T1100,3558A,119.7183,30.2367,杭州市,市府大楼,颗粒物(PM10),55,60,48,25,21,89,,67,65,23,19,8,8,0.4,0.4
2025-04-17T1100,3656A,120.1556,30.2864,杭州市,消防大队,颗粒物(PM10),55,59,50,26,22,77,,82,77,38,26,4,5,0.5,0.4
2025-04-17T1100,1270A,117.1959,31.7848,合肥市,明珠广场,细颗粒物(PM2.5),119,,70,90,35,103,,70,69,27,23,5,6,0.5,0.5
2025-04-17T1100,1271A,117.3072,31.8764,合肥市,三里街,,,85,75,34,28,87,,49,47,30,32,,8,0.5,0.5
2025-04-17T1100,1272A,117.2588,31.8707,合肥市,琥珀山庄,颗粒物(PM10),67,83,78,36,33,118,,73,73,24,22,4,4,0.6,0.6
2025-04-17T1100,1273A,117.1604,31.9052,合肥市,董铺水库,颗粒物(PM10),63,75,76,31,26,114,,86,84,15,13,2,2,0.4,0.4
2025-04-17T1100,1274A,117.25,31.8571,合肥市,长江中路,颗粒物(PM10),65,80,73,38,31,114,,80,79,24,21,8,10,0.5,0.5
2025-04-17T1100,1275A,117.266,31.9436,合肥市,庐阳区,颗粒物(PM10),65,80,75,34,28,107,,72,70,26,23,9,9,0.4,0.4
2025-04-17T1100,1276A,117.3453,31.8616,合肥市,瑶海区,颗粒物(PM10),70,90,78,39,30,100,,68,68,26,36,7,8,0.6,0.6
2025-04-17T1100,1277A,117.3027,31.7964,合肥市,包河区,颗粒物(PM10),63,75,70,34,29,98,,58,58,19,25,7,7,0.5,0.5
2025-04-17T1100,1278A,117.2776,31.7385,合肥市,滨湖新区,颗粒物(PM10),68,85,67,36,33,106,,82,82,18,17,8,9,0.4,0.4
2025-04-17T1100,1279A,117.1318,31.8403,合肥市,高新区,颗粒物(PM10),68,85,73,34,32,104,,86,80,29,20,3,4,0.5,0.5
2025-04-17T1100,3464A,117.3803,31.9147,合肥市,高教基地,颗粒物(PM10),64,78,72,30,27,112,,78,78,18,18,6,6,0.4,0.5
2025-04-17T1100,3614A,79.924,37.0877,和田地区,地区环保局,颗粒物(PM10),187,324,839,95,161,75,,79,74,10,10,1,2,0.3,0.4
2025-04-17T1100,3615A,79.9131,37.113,和田地区,市环保局,颗粒物(PM10),343,454,719,168,181,73,,85,78,10,8,3,2,0.7,0.6
2025-04-17T1100,2516A,108.2011,24.715,河池市,东仁乐园,,,,131,,55,,,,,,15,,9,,1.2
2025-04-17T1100,2517A,108.0497,24.6947,河池市,市环保站,颗粒物(PM10),83,115,101,40,44,125,,106,106,7,9,12,11,0.5,0.5
2025-04-17T1100,2518A,108.0983,24.6989,河池市,市疾控中心,颗粒物(PM10),79,107,102,44,48,129,,104,104,11,18,11,11,0.5,0.5
2025-04-17T1100,1696A,114.6778,23.7569,河源市,源西,颗粒物(PM10),60,69,98,22,28,100,,76,76,10,10,4,4,0.8,0.8
2025-04-17T1100,1697A,114.6944,23.7586,河源市,东埔,颗粒物(PM10),70,89,116,30,42,109,,88,88,13,12,4,5,0.6,0.6
2025-04-17T1100,1698A,114.6892,23.7233,河源市,老城,颗粒物(PM10),62,74,105,25,30,111,,81,81,11,12,4,5,0.5,0.4
2025-04-17T1100,1718A,115.4208,35.2464,菏泽市,气象局,,,,176,,59,94,,74,72,,17,7,6,,0.4
2025-04-17T1100,3374A,115.5564,35.0891,菏泽市,定陶老年大学,颗粒物(PM10),87,124,128,44,36,93,,76,76,14,16,7,6,0.6,0.5
2025-04-17T1100,4184A,115.4797,35.24401,菏泽市,永昌路1号,颗粒物(PM10),113,175,167,75,62,75,,69,67,28,17,8,7,0.4,0.3
2025-04-17T1100,4193A,115.4715,35.2800,菏泽市,长城路999号,颗粒物(PM10),120,190,179,74,50,95,,82,79,27,19,10,8,0.4,0.4
2025-04-17T1100,2514A,111.5264,24.4172,贺州市,环保小区,颗粒物(PM10),102,153,139,62,51,70,,104,85,41,19,11,10,0.5,0.4
2025-04-17T1100,2515A,111.5608,24.4078,贺州市,政协大楼,颗粒物(PM10),85,120,116,42,46,89,,102,89,22,16,16,12,0.7,0.6
2025-04-17T1100,3534A,111.4744,24.4553,贺州市,西湾,颗粒物(PM10),92,134,129,52,46,97,,98,89,19,17,12,11,0.4,0.5
2025-04-17T1100,2385A,114.17,35.9019,鹤壁市,市监测站,颗粒物(PM10),164,277,263,94,92,113,,87,87,8,13,8,6,0.4,0.2
2025-04-17T1100,2386A,114.2956,35.7511,鹤壁市,市交警支队,颗粒物(PM10),181,312,284,81,77,110,,28,28,12,43,8,7,0.6,0.7
2025-04-17T1100,2387A,114.2878,35.7306,鹤壁市,迎宾馆,颗粒物(PM10),178,305,278,78,63,107,,27,27,17,44,4,5,0.5,0.6
2025-04-17T1100,3474A,114.2617,35.6822,鹤壁市,大新区,颗粒物(PM10),156,261,258,80,84,90,,25,25,23,40,8,10,0.7,0.7
2025-04-17T1100,3596A,114.1572,35.9603,鹤壁市,南山宾馆,颗粒物(PM10),164,278,272,89,95,118,,110,105,5,10,6,5,0.6,0.7
2025-04-17T1100,2244A,130.2537,47.3416,鹤岗市,哈啤分公司,,28,21,21,13,14,88,,70,70,5,5,14,14,0.3,0.3
2025-04-17T1100,2245A,130.2684,47.3086,鹤岗市,斯达机电,,29,17,23,9,14,92,,73,73,2,5,12,11,0.1,0.3
2025-04-17T1100,2246A,130.3114,47.3388,鹤岗市,东山纸板厂,,40,40,138,21,23,90,,56,56,6,14,13,15,0.2,1
2025-04-17T1100,2247A,130.1097,47.3382,鹤岗市,五号水库,,,,,,,,,,,,,,,,
2025-04-17T1100,2263A,127.4833,50.2524,黑河市,交通局,,25,23,36,10,19,80,,48,48,6,13,7,8,0.4,0.4
2025-04-17T1100,2264A,127.5144,50.2341,黑河市,环保局,,28,18,33,14,19,87,,50,50,4,13,3,4,0.3,0.4
2025-04-17T1100,2265A,127.5291,50.2472,黑河市,大黑河岛,,,,,,,,,,,,,,,,
2025-04-17T1100,1074A,115.6838,37.7541,衡水市,电机北厂,细颗粒物(PM2.5),100,140,188,75,79,110,,50,50,24,22,9,7,0.7,0.5
2025-04-17T1100,1075A,115.6303,37.7316,衡水市,市监测站,,,138,168,63,73,111,,59,59,21,24,17,13,,0.5
2025-04-17T1100,3188A,115.6683,37.7217,衡水市,市城管局,颗粒物(PM10),94,138,182,64,77,109,,55,55,25,26,10,9,0.9,0.6
2025-04-17T1100,3459A,115.5989,37.5491,衡水市,地表水厂,细颗粒物(PM2.5),104,144,208,78,75,110,,51,51,22,24,11,11,0.8,0.5
2025-04-17T1100,2456A,112.5003,26.9167,衡阳市,原169医院,颗粒物(PM10),72,93,111,44,44,145,,86,86,14,25,9,13,0.8,0.9
2025-04-17T1100,2457A,112.6194,26.9258,衡阳市,衡阳化工总厂,颗粒物(PM10),79,108,126,42,49,131,,102,102,9,13,8,11,0.5,0.6
2025-04-17T1100,2458A,112.6211,26.8956,衡阳市,珠晖区环保局,颗粒物(PM10),76,102,115,40,43,124,,96,96,11,16,9,11,0.7,0.7
2025-04-17T1100,2459A,112.6197,26.8733,衡阳市,市委党校,颗粒物(PM10),73,96,115,40,46,117,,100,100,11,13,7,10,0.5,0.6
2025-04-17T1100,2460A,112.6006,26.8919,衡阳市,市监测站,,,,117,,52,126,,94,94,,18,,12,0.6,0.7
2025-04-17T1100,2461A,112.5664,26.9056,衡阳市,真空机电公司,颗粒物(PM10),83,115,135,41,48,131,,92,92,8,17,9,15,0.5,0.9
2025-04-17T1100,3399A,112.6703,26.882,衡阳市,师范学院,颗粒物(PM10),83,115,126,47,51,106,,104,101,27,16,10,14,0.6,0.7
2025-04-17T1100,2608A,103.3772,23.3993,红河哈尼族彝族自治州,污水处理厂,,,14,27,12,19,,,70,64,5,6,9,10,0.2,0.3
2025-04-17T1100,2609A,103.3861,23.35,红河哈尼族彝族自治州,监测站,,27,23,37,10,18,86,,76,72,3,4,5,6,0.1,0.2
2025-04-17T1100,3038A,103.3758,23.368,红河哈尼族彝族自治州,州图书馆,,28,16,26,13,18,87,,76,72,4,6,6,6,0.2,0.2
2025-04-17T1100,1090A,111.6507,40.7517,呼和浩特市,呼市一监,颗粒物(PM10),54,58,157,20,42,96,,73,71,4,7,7,9,0.4,0.4
2025-04-17T1100,1091A,111.6572,40.8033,呼和浩特市,小召,,,58,139,18,35,93,,80,80,,14,,7,0.4,0.4
2025-04-17T1100,1094A,111.7516,40.8369,呼和浩特市,如意水处理厂,颗粒物(PM10),54,57,130,19,49,95,,76,75,5,9,7,8,0.4,0.4
2025-04-17T1100,1095A,111.7276,40.8062,呼和浩特市,二十九中,颗粒物(PM10),59,67,137,17,40,98,,70,70,4,10,4,5,0.4,0.4
2025-04-17T1100,1096A,111.5512,40.7866,呼和浩特市,工大金川校区,颗粒物(PM10),53,55,138,18,39,99,,72,70,7,12,5,7,0.4,0.4
2025-04-17T1100,1097A,111.717,40.7612,呼和浩特市,化肥厂生活区,颗粒物(PM10),54,58,156,21,43,101,,63,63,6,13,7,9,0.4,0.4
2025-04-17T1100,3698A,111.5968,40.8178,呼和浩特市,红旗小学,,39,39,139,17,36,100,,81,80,7,14,4,5,0.4,0.4
2025-04-17T1100,3699A,111.6518,40.8389,呼和浩特市,海东办,,44,44,124,18,39,95,,78,78,2,7,6,7,0.5,0.5
2025-04-17T1100,2192A,119.7594,49.2261,呼伦贝尔市,区环保局,,46,42,42,32,33,59,,66,58,8,13,5,6,0.3,0.4
2025-04-17T1100,3061A,119.7512,49.1577,呼伦贝尔市,国华电力东,,42,40,35,29,23,61,,66,60,4,6,4,5,0.2,0.2
2025-04-17T1100,1250A,120.0751,30.8669,湖州市,城西水厂,颗粒物(PM10),59,68,55,28,20,96,,34,34,28,51,8,8,0.3,0.3
2025-04-17T1100,2873A,120.0830,30.8929,湖州市,仁皇山新区,,,68,48,27,20,88,,42,39,,41,,5,0.5,0.6
2025-04-17T1100,2907A,120.1844,30.8596,湖州市,吴兴区站,,,,51,,20,108,,64,64,,33,,8,0.4,0.4
2025-04-17T1100,3562A,120.4148,30.8538,湖州市,南浔区站,颗粒物(PM10),56,61,57,29,24,117,,79,79,21,27,5,6,0.4,0.4
2025-04-17T1100,1607A,120.9049,40.7211,葫芦岛市,龙港区,颗粒物(PM10),56,62,65,33,44,136,,79,79,20,30,11,23,0.6,0.7
2025-04-17T1100,1608A,120.8392,40.7514,葫芦岛市,化工街,颗粒物(PM10),69,88,87,41,44,109,,35,35,40,69,13,17,0.6,0.7
2025-04-17T1100,1609A,120.8341,40.7073,葫芦岛市,新区,细颗粒物(PM2.5),63,49,56,45,41,104,,73,73,39,45,10,12,0.8,0.8
2025-04-17T1100,1610A,120.8695,40.7677,葫芦岛市,东城区,细颗粒物(PM2.5),64,72,80,46,60,113,,38,38,39,62,8,24,0.8,0.9
2025-04-17T1100,2482A,109.5981,27.5721,怀化市,林科所,细颗粒物(PM2.5),68,84,104,49,42,120,,94,94,12,10,14,13,0.3,0.4
2025-04-17T1100,2483A,109.9453,27.5444,怀化市,河西地税局,颗粒物(PM10),66,81,93,39,44,116,,85,85,10,18,11,12,0.5,0.5
2025-04-17T1100,2484A,109.9781,27.5342,怀化市,市四医院,颗粒物(PM10),67,83,108,46,49,116,,93,93,15,20,8,9,0.6,0.5
2025-04-17T1100,2485A,109.9972,27.5578,怀化市,监测楼,颗粒物(PM10),71,91,108,44,45,131,,104,104,12,15,10,10,0.5,0.5
2025-04-17T1100,2486A,110.0394,27.583,怀化市,市委党校,颗粒物(PM10),66,81,100,42,50,125,,78,78,2,9,7,8,0.7,0.6
2025-04-17T1100,1210A,119.036,33.5981,淮安市,钵池山,颗粒物(PM10),62,73,74,31,26,130,,102,102,11,14,11,11,0.5,0.5
2025-04-17T1100,1211A,119.007,33.575,淮安市,北京南路,颗粒物(PM10),65,80,77,32,28,122,,82,82,14,23,18,17,1.0,0.7
2025-04-17T1100,1212A,118.989,33.6067,淮安市,市监测站,颗粒物(PM10),60,70,76,36,29,127,,92,92,7,14,9,10,0.6,0.6
2025-04-17T1100,1213A,119.135,33.5039,淮安市,楚州区监测站,颗粒物(PM10),74,98,81,33,27,108,,71,71,12,18,12,10,0.7,0.6
2025-04-17T1100,3426A,118.8755,33.2894,淮安市,新华书店,颗粒物(PM10),63,76,73,35,28,121,,88,88,9,15,9,11,0.5,0.5
2025-04-17T1100,4206A,119.0288,33.6319,淮安市,承德北路606号,颗粒物(PM10),68,85,81,29,25,125,,93,93,10,15,10,11,0.4,0.8
2025-04-17T1100,2282A,116.8004,33.975,淮北市,监测站,颗粒物(PM10),84,117,102,51,41,115,,105,104,14,18,8,8,0.6,0.7
2025-04-17T1100,2283A,116.8091,33.9007,淮北市,烈山区政府,颗粒物(PM10),75,99,96,37,37,106,,81,81,16,26,8,9,0.8,0.7
2025-04-17T1100,3330A,116.8873,33.9836,淮北市,杜集区检察院,,,107,100,64,46,121,,97,97,16,20,9,10,,0.8
2025-04-17T1100,4017A,116.7923,33.9535,淮北市,市博物馆,颗粒物(PM10),81,111,97,46,34,121,,101,101,13,19,8,9,0.8,0.8
2025-04-17T1100,2277A,116.8305,32.7727,淮南市,潘集区政府,颗粒物(PM10),66,82,98,37,37,118,,87,84,12,14,9,5,0.4,0.4
2025-04-17T1100,2279A,116.8569,32.5951,淮南市,谢家集区政府,颗粒物(PM10),58,65,79,32,33,103,,79,79,15,17,5,7,0.4,0.5
2025-04-17T1100,2280A,116.8281,32.633,淮南市,八公山区政府,颗粒物(PM10),66,81,96,41,36,118,,97,97,10,9,6,6,0.3,0.3
2025-04-17T1100,2281A,116.6325,32.6201,淮南市,焦岗湖风景区管理处,,,,,,,,,,,,,,,,
2025-04-17T1100,2894A,117.0566,32.6531,淮南市,经济技术开发区消防队,,,73,84,34,39,126,,94,94,,17,6,7,0.3,0.4
2025-04-17T1100,3329A,117.0108,32.5893,淮南市,山南新区,颗粒物(PM10),60,70,98,34,33,122,,95,95,9,12,8,8,0.5,0.5
2025-04-17T1100,4209A,117.0031,32.6445,淮南市,国庆中路369号,,,59,84,31,35,122,,100,100,,15,8,9,0.3,0.3
2025-04-17T1100,2446A,114.9028,30.4742,黄冈市,职工中心,细颗粒物(PM2.5),75,95,67,55,38,109,,74,74,29,27,15,16,0.9,0.8
2025-04-17T1100,2929A,114.8858,30.4519,黄冈市,红卫路,,,84,72,39,33,80,,71,71,,21,14,13,,0.9
2025-04-17T1100,3398A,114.9136,30.4445,黄冈市,市林业局,颗粒物(PM10),65,79,73,39,35,78,,62,62,34,27,18,15,0.7,0.7
2025-04-17T1100,2672A,102.0199,35.5102,黄南藏族自治州,同仁县隆务镇,颗粒物(PM10),64,78,84,41,25,75,,85,76,13,5,7,7,0.4,0.3
2025-04-17T1100,2295A,118.2903,29.6963,黄山市,延安路89号,颗粒物(PM10),57,63,50,32,30,21,,31,20,22,10,8,6,0.4,0.3
2025-04-17T1100,2297A,118.1371,30.2756,黄山市,黄山区政府5号楼,颗粒物(PM10),73,96,50,32,18,110,,56,54,2,3,5,5,0.4,0.3
2025-04-17T1100,4210A,118.3354,29.7203,黄山市,滨江东路7-2号,颗粒物(PM10),55,60,53,33,18,48,,30,30,21,13,5,6,0.5,0.5
2025-04-17T1100,2423A,115.0601,30.2313,黄石市,沈家营,颗粒物(PM10),71,91,80,42,36,56,,36,36,49,46,15,11,1.0,1
2025-04-17T1100,2426A,114.8988,30.2019,黄石市,铁山,颗粒物(PM10),70,90,78,45,37,95,,58,58,33,41,19,14,0.5,0.3
2025-04-17T1100,2427A,115.0307,30.2092,黄石市,团城山,颗粒物(PM10),66,82,76,41,30,89,,38,38,37,38,15,14,0.7,0.8
2025-04-17T1100,3149A,115.0235,30.1578,黄石市,笔架山北路,颗粒物(PM10),65,80,65,38,31,88,,51,51,24,28,17,16,0.9,1
2025-04-17T1100,4185A,115.0780,30.21118,黄石市,磁湖东路29号,,,,86,58,41,67,,27,27,46,47,,18,,1.1
2025-04-17T1100,1392A,114.4183,23.0528,惠州市,河南岸金山湖子站,颗粒物(PM10),55,60,95,21,30,93,,76,73,12,13,8,8,0.5,0.6
2025-04-17T1100,1393A,114.4053,23.0822,惠州市,下埔横江三路子站,颗粒物(PM10),62,74,106,24,30,102,,96,95,13,11,9,9,0.6,0.5
2025-04-17T1100,1394A,114.4103,23.1142,惠州市,江北云山西路子站,颗粒物(PM10),62,73,101,26,31,108,,100,98,12,11,10,10,0.4,0.4
2025-04-17T1100,1395A,114.4645,22.7833,惠州市,惠阳区承修路船湖子站,颗粒物(PM10),58,66,98,20,29,94,,88,83,8,10,8,8,0.4,0.5
2025-04-17T1100,1396A,114.5317,22.7422,惠州市,大亚湾管委会子站,颗粒物(PM10),57,64,100,22,26,98,,95,91,8,10,6,6,0.6,0.7
2025-04-17T1100,3314A,114.4338,22.8134,惠州市,惠阳秋长,,,,94,22,27,102,,88,80,8,11,,10,0.4,0.4
2025-04-17T1100,3452A,114.6517,22.775,惠州市,大亚湾霞涌,颗粒物(PM10),54,57,86,18,28,101,,74,70,10,13,8,7,0.5,0.5
2025-04-17T1100,2240A,130.9762,45.3001,鸡西市,环保局,细颗粒物(PM2.5),64,74,54,46,36,108,,56,56,9,25,22,10,0.4,0.6
2025-04-17T1100,2243A,130.9429,45.3039,鸡西市,第一中学,颗粒物(PM10),52,53,51,33,32,105,,63,63,11,18,14,8,0.5,0.5
2025-04-17T1100,3707A,131.0207,45.3073,鸡西市,欧美日汽修厂,,,39,75,36,54,108,,47,47,,28,,8,0.5,0.7
2025-04-17T1100,3709A,130.9967,45.3106,鸡西市,市政设施管理处,,,87,70,39,42,103,,35,35,10,32,,7,,0.5
2025-04-17T1100,2367A,114.9754,27.0803,吉安市,红声器材厂,颗粒物(PM10),69,87,84,30,32,96,,77,77,15,20,11,14,0.4,0.5
2025-04-17T1100,2368A,114.9658,27.0999,吉安市,市森林工业局,颗粒物(PM10),69,88,80,34,33,97,,73,73,18,22,10,14,0.4,0.4
2025-04-17T1100,2369A,114.99,27.1312,吉安市,市环境监测站,颗粒物(PM10),65,79,74,27,31,111,,83,83,14,14,13,22,0.5,0.4
2025-04-17T1100,2370A,115.0093,27.0968,吉安市,青原区法院,颗粒物(PM10),67,83,86,28,32,116,,90,90,12,16,14,18,0.3,0.4
2025-04-17T1100,1772A,126.54,43.8622,吉林市,哈达湾,,36,27,39,15,21,113,,81,81,8,17,8,8,0.3,0.4
2025-04-17T1100,1773A,126.5844,43.8358,吉林市,东局子,,41,41,41,15,27,108,,59,59,8,25,5,6,0.4,0.6
2025-04-17T1100,1774A,126.5052,43.8245,吉林市,电力学院,,32,13,62,7,47,101,,50,50,9,27,5,6,0.3,0.5
2025-04-17T1100,1775A,126.6133,43.8972,吉林市,江北,,37,36,41,15,26,117,,80,80,10,16,6,6,0.6,0.6
2025-04-17T1100,1776A,126.555,43.8306,吉林市,江南公园,,34,26,44,18,30,106,,53,53,7,32,5,6,0.3,0.5
2025-04-17T1100,1778A,126.7061,43.7133,吉林市,丰满,,,,,,,,,,,,,,,,
2025-04-17T1100,2868A,126.4739,43.953,吉林市,九站,,35,34,47,18,34,112,,74,74,7,20,8,16,0.5,0.6
2025-04-17T1100,1299A,116.9862,36.6114,济南市,科干所,颗粒物(PM10),172,293,197,76,57,101,,105,96,18,11,11,10,0.5,0.6
2025-04-17T1100,1300A,116.9376,36.665,济南市,农科所,颗粒物(PM10),173,295,188,,49,91,,85,75,24,20,14,11,0.5,0.4
2025-04-17T1100,1301A,117.1265,36.6734,济南市,开发区,颗粒物(PM10),196,342,207,88,66,101,,105,90,20,16,12,11,0.6,0.5
2025-04-17T1100,1303A,117.0624,36.6868,济南市,省种子仓库,颗粒物(PM10),198,346,236,119,81,96,,99,84,20,15,9,8,0.8,0.8
2025-04-17T1100,1304A,116.9489,36.6447,济南市,机床二厂,颗粒物(PM10),179,308,216,98,69,91,,91,78,32,24,14,12,0.5,0.5
2025-04-17T1100,1305A,117.0495,36.663,济南市,市监测站,颗粒物(PM10),199,347,227,73,56,93,,98,85,23,17,13,12,0.5,0.5
2025-04-17T1100,1306A,116.7675,36.5484,济南市,长清党校,颗粒物(PM10),168,286,192,81,56,106,,93,88,18,18,15,11,0.6,0.6
2025-04-17T1100,1616A,117.6795,36.229,济南市,技术学院,,,,140,,41,113,,89,89,22,27,18,16,1.5,1
2025-04-17T1100,1961A,117.532,36.6868,济南市,东山小学,颗粒物(PM10),322,437,214,105,54,98,,106,94,19,16,10,10,0.3,0.3
2025-04-17T1100,3059A,117.7161,36.2049,济南市,泰兴公司,颗粒物(PM10),86,122,126,41,45,112,,32,32,18,54,14,13,0.7,0.9
2025-04-17T1100,3064A,117.6867,36.2171,济南市,莱芜战役纪念馆,颗粒物(PM10),90,129,134,31,36,111,,72,72,22,36,12,10,0.7,0.9
2025-04-17T1100,3494A,117.1673,36.9782,济南市,济阳区政府,颗粒物(PM10),152,254,214,81,59,80,,88,71,24,29,16,13,0.6,0.5
2025-04-17T1100,3495A,117.1171,36.63,济南市,锦屏中学,颗粒物(PM10),283,408,211,95,53,108,,108,98,14,15,6,7,0.1,0.2
2025-04-17T1100,3682A,116.9814,36.6819,济南市,济南四建,颗粒物(PM10),189,327,208,83,59,97,,96,84,21,16,11,9,0.5,0.5
2025-04-17T1100,1653A,116.6251,35.4302,济宁市,火炬城,颗粒物(PM10),79,108,121,48,45,90,,85,78,13,7,9,9,0.5,0.4
2025-04-17T1100,1655A,116.5491,35.4042,济宁市,电化厂,颗粒物(PM10),76,102,109,48,45,87,,68,68,18,20,4,5,0.5,0.4
2025-04-17T1100,3500A,116.5814,35.3707,济宁市,北湖一中,颗粒物(PM10),81,111,122,36,31,88,,76,74,23,22,9,9,0.4,0.4
2025-04-17T1100,3501A,116.8249,35.5593,济宁市,服务中心,颗粒物(PM10),73,96,110,27,31,88,,79,79,19,21,4,4,0.5,0.4
2025-04-17T1100,3678A,116.5907,35.4054,济宁市,市第七中学,,,114,129,48,44,,,87,81,20,13,7,6,0.5,0.4
2025-04-17T1100,2255A,130.2751,46.8028,佳木斯市,佳纺,细颗粒物(PM2.5),72,80,93,52,61,111,,39,39,24,34,10,8,0.6,0.7
2025-04-17T1100,2256A,130.3995,46.8307,佳木斯市,发电厂,细颗粒物(PM2.5),68,63,68,49,53,122,,49,49,21,30,8,6,0.6,0.7
2025-04-17T1100,2257A,130.3258,46.7975,佳木斯市,环保局,细颗粒物(PM2.5),85,79,77,63,53,117,,35,35,27,38,6,4,0.6,0.7
2025-04-17T1100,2258A,130.3648,46.8032,佳木斯市,十一中,,,67,59,57,51,,,31,31,21,34,10,8,0.6,0.7
2025-04-17T1100,2259A,130.3794,46.7588,佳木斯市,四丰,细颗粒物(PM2.5),70,,51,51,35,118,,60,60,14,18,1,1,1.0,1
2025-04-17T1100,1252A,120.7436,30.778,嘉兴市,清河小学,颗粒物(PM10),59,67,68,25,24,96,,60,60,28,35,7,6,0.8,0.8
2025-04-17T1100,1253A,120.726,30.7478,嘉兴市,嘉兴学院,颗粒物(PM10),56,61,61,24,26,105,,55,55,26,41,8,7,0.5,0.5
2025-04-17T1100,2872A,120.7846,30.7525,嘉兴市,南湖区残联,,,58,62,,40,112,,80,80,,28,7,7,,0.7
2025-04-17T1100,3407A,120.6916,30.7739,嘉兴市,秀洲住建,颗粒物(PM10),62,74,74,28,28,108,,62,62,24,35,8,9,0.6,0.6
2025-04-17T1100,1945A,98.2908,39.7711,嘉峪关市,气象局,,35,31,133,14,36,110,,99,99,6,11,2,9,0.1,0.3
2025-04-17T1100,2884A,98.2672,39.7978,嘉峪关市,酒钢宾馆,,41,41,148,14,42,97,,84,84,12,16,19,44,0,0.7
2025-04-17T1100,3248A,98.2643,39.7724,嘉峪关市,雄关区,,35,29,117,13,35,109,,86,86,7,16,7,11,0,0.7
2025-04-17T1100,1383A,113.1064,22.6058,江门市,北街,颗粒物(PM10),69,87,101,26,31,104,,74,74,7,6,3,3,0.5,0.4
2025-04-17T1100,1384A,113.0731,22.5835,江门市,西区,颗粒物(PM10),64,77,105,29,41,102,,91,88,10,11,7,7,0.4,0.4
2025-04-17T1100,1385A,113.0219,22.5311,江门市,圭峰西,颗粒物(PM10),71,92,105,25,32,97,,79,78,9,10,5,5,0.4,0.4
2025-04-17T1100,1386A,113.0828,22.5947,江门市,东湖,颗粒物(PM10),65,80,105,29,32,104,,87,84,9,10,8,8,0.4,0.4
2025-04-17T1100,3311A,113.1075,22.5647,江门市,江海富民,颗粒物(PM10),68,85,113,44,30,94,,82,79,10,9,6,7,0.4,0.4
2025-04-17T1100,3449A,113.05,22.4667,江门市,新会银湖,颗粒物(PM10),65,80,92,29,34,101,,41,41,9,17,1,2,0.4,0.3
2025-04-17T1100,1830A,113.1992,35.2590,焦作市,影视城,,,,189,,68,,,,,,14,,11,,0.7
2025-04-17T1100,3169A,113.2725,35.2067,焦作市,太极体育中心,颗粒物(PM10),131,211,254,92,105,107,,65,65,18,25,15,10,0.6,0.4
2025-04-17T1100,3335A,113.3137,35.2641,焦作市,马村街道办,细颗粒物(PM2.5),148,209,240,113,117,107,,62,62,16,20,23,22,0.5,0.4
2025-04-17T1100,3336A,113.2465,35.2373,焦作市,焦作技师学院,颗粒物(PM10),151,251,272,70,78,117,,67,67,23,36,19,13,0.9,0.7
2025-04-17T1100,3477A,113.1656,35.2539,焦作市,中站许衡医院,颗粒物(PM10),134,217,233,75,79,126,,74,72,35,27,27,19,1.2,1
2025-04-17T1100,3981A,113.2449,35.1803,焦作市,原李万街道办,颗粒物(PM10),133,215,246,90,103,99,,54,54,26,34,20,16,0.6,0.4
2025-04-17T1100,4264A,113.2340,35.2190,焦作市,新安路1731号,颗粒物(PM10),144,237,246,87,86,113,,64,64,20,31,20,15,1.0,0.7
2025-04-17T1100,1708A,116.3701,23.5345,揭阳市,新兴,,,,102,,39,96,,36,34,,21,6,6,,0.7
2025-04-17T1100,1709A,116.3264,23.5443,揭阳市,西马,颗粒物(PM10),72,93,109,24,41,91,,37,37,9,15,8,8,0.6,0.6
2025-04-17T1100,1710A,116.3611,23.5626,揭阳市,东兴,颗粒物(PM10),74,98,106,24,30,101,,46,46,8,16,8,8,0.7,0.7
2025-04-17T1100,1711A,116.4151,23.5294,揭阳市,渔湖,颗粒物(PM10),82,113,107,34,31,93,,37,37,22,24,8,6,0.6,0.6
2025-04-17T1100,3320A,116.403,23.5699,揭阳市,曲溪,颗粒物(PM10),69,88,96,32,38,113,,57,57,13,18,12,10,0.5,0.6
2025-04-17T1100,1944A,102.1692,38.5167,金昌市,天庆家园,颗粒物(PM10),102,154,149,58,58,83,,68,63,6,11,12,19,0.5,0.8
2025-04-17T1100,4022A,102.1647,38.5371,金昌市,金川区人防中心,颗粒物(PM10),128,205,224,56,59,86,,68,64,6,14,16,19,0.4,0.5
2025-04-17T1100,4239A,102.1930,38.5319,金昌市,长春路96号,颗粒物(PM10),133,216,233,54,57,79,,60,55,5,13,14,42,0.6,0.7
2025-04-17T1100,1262A,119.647,29.077,金华市,十五中,颗粒物(PM10),72,94,70,45,34,48,,38,38,57,44,6,4,0.6,0.5
2025-04-17T1100,1263A,119.686,29.1029,金华市,监测站,颗粒物(PM10),74,98,63,47,29,38,,44,44,67,36,7,5,0.5,0.4
2025-04-17T1100,3659A,119.656,29.1131,金华市,气象局,,,103,72,52,33,27,,24,18,,46,8,4,,0.5
2025-04-17T1100,1767A,121.1115,41.0879,锦州市,南山,细颗粒物(PM2.5),58,55,89,41,86,120,,42,42,30,45,17,34,0.7,1.2
2025-04-17T1100,1768A,121.0604,40.8428,锦州市,开发区,,,,106,45,55,112,,33,33,40,76,18,16,0.9,0.9
2025-04-17T1100,1769A,121.1836,41.1119,锦州市,百股街道,颗粒物(PM10),60,70,75,36,51,117,,38,38,36,40,13,14,0.7,1.1
2025-04-17T1100,1770A,121.1178,41.1222,锦州市,天安街道,细颗粒物(PM2.5),77,59,98,56,84,113,,42,42,31,42,15,28,0.8,1.3
2025-04-17T1100,1771A,121.1303,41.1386,锦州市,北湖公园,颗粒物(PM10),61,71,81,41,69,122,,59,59,30,33,14,22,0.8,1.1
2025-04-17T1100,2160A,112.85,35.5051,晋城市,自来水公司,颗粒物(PM10),156,262,243,70,78,105,,55,55,12,26,8,10,0.6,0.9
2025-04-17T1100,2161A,112.8318,35.4936,晋城市,白云商贸,颗粒物(PM10),152,253,239,97,90,108,,49,49,13,36,7,6,0.6,0.9
2025-04-17T1100,2162A,112.8508,35.4887,晋城市,市环保局,颗粒物(PM10),166,281,246,73,76,96,,42,42,,34,5,6,,0.6
2025-04-17T1100,2163A,112.8676,35.4897,晋城市,技术学院,细颗粒物(PM2.5),265,289,257,215,111,106,,43,43,10,29,7,8,0.5,0.8
2025-04-17T1100,2165A,112.8453,35.546,晋城市,白马寺,,,,,,,,,,,,,,,,
2025-04-17T1100,3620A,112.8271,35.4828,晋城市,泽州一中,颗粒物(PM10),170,290,256,80,93,111,,64,64,10,21,8,9,0.5,0.8
2025-04-17T1100,2173A,112.7249,37.7067,晋中市,南都小区,颗粒物(PM10),212,358,374,90,88,89,,44,42,32,25,33,13,1.0,0.4
2025-04-17T1100,2174A,112.6991,37.6982,晋中市,榆次区政府,颗粒物(PM10),240,378,382,78,70,88,,43,38,34,26,31,16,1.3,0.5
2025-04-17T1100,2865A,112.7195,37.6828,晋中市,榆次三中,颗粒物(PM10),230,371,409,112,104,97,,43,42,25,28,24,15,1.1,1.2
2025-04-17T1100,4200A,112.7478,37.6954,晋中市,迎宾街26号,颗粒物(PM10),262,393,383,114,112,91,,41,39,28,21,31,14,0.9,0.4
2025-04-17T1100,2439A,112.2014,31.0481,荆门市,竹园小学,细颗粒物(PM2.5),130,154,134,99,70,103,,64,56,37,23,22,10,0.4,0.2
2025-04-17T1100,2440A,112.1969,30.9891,荆门市,掇刀,颗粒物(PM10),107,164,128,72,69,102,,76,71,29,20,,14,,0.4
2025-04-17T1100,2441A,112.2213,31.0386,荆门市,石化一小,细颗粒物(PM2.5),130,154,131,99,62,96,,40,40,35,30,22,14,0.5,0.4
2025-04-17T1100,3012A,112.1849,31.0362,荆门市,西山林语,细颗粒物(PM2.5),99,142,112,74,52,112,,61,60,33,15,18,9,0.5,0.3
2025-04-17T1100,3547A,112.1632,31.0138,荆门市,龙泉中学南校,颗粒物(PM10),95,140,119,65,60,96,,65,65,39,19,14,9,0.8,0.6
2025-04-17T1100,1844A,112.2494,30.3197,荆州市,市图书馆,颗粒物(PM10),79,108,97,49,49,111,,76,76,13,17,6,13,0.7,0.7
2025-04-17T1100,1845A,112.2008,30.3544,荆州市,市委党校,颗粒物(PM10),79,108,111,57,56,90,,65,65,11,17,8,10,0.6,0.6
2025-04-17T1100,3194A,112.2747,30.3122,荆州市,管委会,细颗粒物(PM2.5),79,93,97,58,57,108,,71,71,8,16,8,13,0.6,0.6
2025-04-17T1100,4268A,112.1722,30.3366,荆州市,学苑路85号,细颗粒物(PM2.5),74,91,92,54,52,102,,58,58,15,21,6,6,0.5,0.5
2025-04-17T1100,2342A,117.3102,29.3867,景德镇市,王港中学,,,,,,,,,,,,,,,,
2025-04-17T1100,2343A,117.2117,29.2933,景德镇市,老干部活动中心,颗粒物(PM10),76,101,59,45,25,118,,52,52,23,21,19,11,0.6,0.5
2025-04-17T1100,2344A,117.1894,29.2789,景德镇市,兽医站,颗粒物(PM10),66,82,71,23,26,116,,55,55,27,25,12,10,0.4,0.6
2025-04-17T1100,2345A,117.1547,29.2617,景德镇市,台达陶瓷,颗粒物(PM10),91,132,73,37,30,114,,61,61,33,32,33,38,1.2,0.8
2025-04-17T1100,2346A,117.2461,29.2956,景德镇市,陶研所,颗粒物(PM10),65,80,51,33,27,125,,42,42,14,17,7,9,0.5,0.6
2025-04-17T1100,1803A,115.9872,29.6815,九江市,十里,颗粒物(PM10),69,88,70,41,33,62,,32,32,39,29,8,8,0.7,0.6
2025-04-17T1100,1804A,115.9584,29.7046,九江市,茅山头,颗粒物(PM10),71,91,78,34,32,89,,35,35,22,39,9,10,0.2,0.3
2025-04-17T1100,1805A,115.9877,29.7295,九江市,西园,颗粒物(PM10),65,79,63,29,28,84,,53,53,44,48,14,16,0.8,0.8
2025-04-17T1100,1808A,115.9114,29.6038,九江市,综合工业园,颗粒物(PM10),72,93,73,32,29,92,,79,79,36,36,14,12,0.7,0.8
2025-04-17T1100,1809A,116.0721,29.7535,九江市,石化总厂,,,72,75,30,35,79,,70,68,,21,,12,0.7,0.7
2025-04-17T1100,1810A,115.9773,29.5698,九江市,庐山气象台,颗粒物(PM10),67,84,76,35,29,139,,146,143,7,6,7,7,0.9,0.7
2025-04-17T1100,3190A,116.0254,29.6994,九江市,外国语学校,颗粒物(PM10),64,78,68,41,37,67,,51,46,29,28,43,26,0.7,0.8
2025-04-17T1100,4253A,116.0102,29.6594,九江市,莲花大道8号,颗粒物(PM10),66,82,65,34,39,72,,55,52,23,18,9,8,0.6,0.6
2025-04-17T1100,4240A,98.4958,39.7339,酒泉市,玉门东路5号,,36,36,149,16,42,105,,87,87,5,9,8,11,0.2,0.3
2025-04-17T1100,4241A,98.5099,39.7506,酒泉市,北大街108号,,48,48,142,7,32,113,,90,90,6,11,10,14,0.1,0.2
2025-04-17T1100,2698A,76.0072,39.4467,喀什地区,巡警大队,颗粒物(PM10),124,198,135,35,19,62,,86,76,28,17,4,4,0.6,0.4
2025-04-17T1100,2699A,75.9755,39.4694,喀什地区,吾办,颗粒物(PM10),129,207,144,86,35,45,,76,64,69,18,3,2,0.6,0.4
2025-04-17T1100,4027A,75.9483,39.4689,喀什地区,老干局,颗粒物(PM10),128,206,133,36,19,62,,80,69,22,11,3,2,0.4,0.3
2025-04-17T1100,1824A,114.3389,34.7781,开封市,肿瘤医院,颗粒物(PM10),123,195,211,50,54,107,,77,77,23,19,13,10,0.6,0.5
2025-04-17T1100,1826A,114.2885,34.7965,开封市,世纪星幼儿园,,,,229,,84,102,,,,46,25,11,8,,0.5
2025-04-17T1100,3147A,114.3438,34.8106,开封市,龙亭公园,细颗粒物(PM2.5),138,190,217,105,78,112,,81,81,24,23,10,5,0.8,0.7
2025-04-17T1100,3210A,114.3644,34.7964,开封市,汴京公园,颗粒物(PM10),134,218,243,63,67,110,,78,78,24,21,9,5,0.8,0.8
2025-04-17T1100,3473A,114.2485,34.8306,开封市,技师学院,颗粒物(PM10),117,184,216,72,96,100,,79,79,29,23,10,5,0.8,0.6
2025-04-17T1100,3592A,114.4644,34.7556,开封市,祥符区生态环境局,细颗粒物(PM2.5),204,195,199,154,82,104,,76,76,30,27,14,9,0.6,0.4
2025-04-17T1100,1951A,84.895,45.6094,克拉玛依市,长征新村,,28,9,11,3,6,87,,85,85,6,7,7,7,0.2,0.2
2025-04-17T1100,1952A,84.8988,45.5893,克拉玛依市,南林小区,,31,12,11,3,9,97,,92,92,2,3,2,2,0.3,0.3
2025-04-17T1100,1954A,84.905,44.3396,克拉玛依市,独山子区,,28,11,17,3,7,88,,89,88,3,4,6,7,0.2,0.2
2025-04-17T1100,1955A,85.6979,46.098,克拉玛依市,乌尔禾区商贸楼,,30,12,17,3,8,96,,82,82,3,3,6,6,0.2,0.2
2025-04-17T1100,3612A,85.1045,45.6899,克拉玛依市,白碱滩区新站,,29,9,13,7,6,91,,85,85,1,3,10,10,0.3,0.3
2025-04-17T1100,2697A,76.1454,39.7142,克孜勒苏柯尔克孜自治州,市人民政府,,47,47,79,13,17,93,,113,107,8,3,6,11,0.3,0.2
2025-04-17T1100,3665A,76.1658,39.7157,克孜勒苏柯尔克孜自治州,克州文化中心,,46,46,68,10,15,95,,113,108,4,2,8,12,0.4,0.2
2025-04-17T1100,1450A,102.8204,24.8886,昆明市,呈贡新区,,37,23,28,18,16,116,,103,103,10,13,6,6,0.4,0.4
2025-04-17T1100,1451A,102.6251,24.9608,昆明市,西山森林公园,,,,,,,,,,,,,,,,
2025-04-17T1100,1452A,102.7252,25.0902,昆明市,龙泉镇,,,13,17,10,8,,,104,103,9,9,7,8,0.3,0.3
2025-04-17T1100,1453A,102.7266,25.0375,昆明市,东风东路,,36,22,21,17,15,115,,110,110,12,14,9,10,0.4,0.4
2025-04-17T1100,1454A,102.6742,25.0669,昆明市,金鼎山,,38,24,18,18,14,120,,121,117,13,12,6,7,0.3,0.3
2025-04-17T1100,1455A,102.6644,25.0401,昆明市,碧鸡广场,,35,24,20,14,14,111,,108,108,11,10,6,10,0.3,0.3
2025-04-17T1100,3179A,102.7494,25.0119,昆明市,官渡区博物馆,,36,23,24,15,15,114,,108,107,12,11,11,8,0.5,0.4
2025-04-17T1100,3375A,102.8017,24.8336,昆明市,青年创业园,,37,21,21,11,12,117,,104,102,6,6,8,8,0.4,0.4
2025-04-17T1100,3550A,102.7997,24.9786,昆明市,昆明学院,,37,27,20,15,12,116,,111,110,11,10,7,5,0.4,0.3
2025-04-17T1100,3551A,102.5967,24.6736,昆明市,晋宁区生态环境分局,,36,9,11,9,9,115,,100,100,4,5,5,6,0.6,0.6
2025-04-17T1100,3552A,102.6678,24.9856,昆明市,云天化总部,,35,26,21,17,11,112,,104,103,10,9,12,9,0.5,0.4
2025-04-17T1100,1456A,91.1319,29.6514,拉萨市,八廓街,,31,17,20,10,12,98,,82,82,10,15,19,9,0.4,0.4
2025-04-17T1100,1457A,91.1221,29.6747,拉萨市,市环保局,,29,25,26,10,13,90,,64,64,19,20,15,6,0.5,0.4
2025-04-17T1100,1458A,91.0874,29.6475,拉萨市,区监测站,,,18,20,10,11,,,64,64,14,23,16,8,0.6,0.6
2025-04-17T1100,1459A,91.1774,29.6541,拉萨市,西藏大学,,30,12,18,7,9,95,,76,76,11,14,21,9,0.1,0.4
2025-04-17T1100,1460A,90.9798,29.6588,拉萨市,区辐射站,,28,24,23,19,12,80,,60,59,27,25,13,9,0.4,0.4
2025-04-17T1100,1461A,91.0834,29.6292,拉萨市,拉萨火车站,,32,12,19,7,12,100,,67,67,8,16,13,5,0.3,0.3
2025-04-17T1100,2520A,109.2203,23.7256,来宾市,来宾技工学校,,,,139,,48,101,,114,113,,12,,14,0.7,0.7
2025-04-17T1100,3535A,109.1781,23.7297,来宾市,兴宾区政府,颗粒物(PM10),100,150,139,59,52,116,,114,114,6,14,6,8,0.6,0.6
2025-04-17T1100,4002A,109.2416,23.7461,来宾市,中南小学,颗粒物(PM10),103,156,146,51,50,102,,104,104,10,10,8,11,0.6,0.6
2025-04-17T1100,1477A,104.1373,35.9454,兰州市,榆中兰大校区,,,,,,,,,,,,,,,,
2025-04-17T1100,1479A,103.831,36.0464,兰州市,铁路设计院,颗粒物(PM10),91,131,188,43,57,63,,22,22,50,63,40,18,0.8,0.8
2025-04-17T1100,3241A,103.7439,36.0842,兰州市,百合公园,颗粒物(PM10),88,125,187,37,56,68,,20,20,34,46,34,14,0.7,0.7
2025-04-17T1100,3242A,103.9611,35.998,兰州市,和平,细颗粒物(PM2.5),175,294,219,132,78,73,,57,53,,26,,13,1.0,0.6
2025-04-17T1100,4236A,103.6293,36.0938,兰州市,庄浪东路808号,颗粒物(PM10),93,135,194,46,66,80,,36,36,28,45,46,32,0.7,0.6
2025-04-17T1100,4237A,103.7251,36.1043,兰州市,安宁西路88号,颗粒物(PM10),93,135,220,59,71,82,,29,29,26,38,44,19,0.7,0.5
2025-04-17T1100,4238A,103.8470,36.0676,兰州市,北滨河东路1号,颗粒物(PM10),87,124,195,49,64,71,,21,21,45,54,43,18,1.0,0.8
2025-04-17T1100,3245A,103.6633,36.533,兰州新区,新区管委会,,,95,133,41,54,96,,54,54,9,17,12,12,,0.4
2025-04-17T1100,3246A,103.6975,36.4789,兰州新区,舟曲中学,颗粒物(PM10),82,114,176,41,56,99,,61,61,10,20,11,10,0.3,0.4
2025-04-17T1100,1067A,116.6708,39.5111,廊坊市,药材公司,颗粒物(PM10),80,109,110,51,67,117,,90,90,20,26,8,8,0.9,0.9
2025-04-17T1100,1068A,116.7214,39.5589,廊坊市,开发区,颗粒物(PM10),90,129,122,48,60,116,,85,85,23,27,9,7,0.8,0.8
2025-04-17T1100,1070A,116.7244,39.5269,廊坊市,北华航天学院,颗粒物(PM10),90,130,124,58,68,116,,82,82,17,24,11,9,0.8,0.9
2025-04-17T1100,2919A,116.7022,39.5453,廊坊市,河北工业大学,颗粒物(PM10),90,130,119,57,70,119,,88,88,19,25,12,11,0.8,0.8
2025-04-17T1100,2535A,103.7723,29.5462,乐山市,花湖湾,,,70,97,46,48,74,,95,92,32,15,62,10,,0.6
2025-04-17T1100,2536A,103.7627,29.5844,乐山市,牛耳桥,细颗粒物(PM2.5),69,77,104,50,47,87,,92,92,30,22,9,8,1.2,0.7
2025-04-17T1100,2537A,103.7508,29.6006,乐山市,市第三水厂,细颗粒物(PM2.5),63,68,100,45,45,98,,95,95,24,21,6,6,0.9,0.6
2025-04-17T1100,2538A,103.7571,29.5664,乐山市,市监测站,细颗粒物(PM2.5),62,72,105,44,47,81,,91,91,30,22,6,8,1.1,0.8
2025-04-17T1100,3361A,103.7311,29.5628,乐山市,理工大学,,,63,96,40,45,94,,101,101,,22,6,7,,0.6
2025-04-17T1100,2598A,100.2143,26.8576,丽江市,西南郊,,41,41,26,21,12,125,,136,131,2,2,5,5,0.5,0.5
2025-04-17T1100,2599A,100.2497,26.8802,丽江市,丽江古城,,36,28,24,14,14,113,,118,111,11,11,9,8,0.4,0.4
2025-04-17T1100,2600A,100.2203,26.8906,丽江市,市中心,,,50,19,19,13,114,,115,110,9,8,,5,0.5,0.6
2025-04-17T1100,1267A,119.914,28.4514,丽水市,监测站大楼,细颗粒物(PM2.5),64,62,51,46,32,46,,35,32,31,21,7,4,0.5,0.4
2025-04-17T1100,1268A,119.93,28.4586,丽水市,莲都小学,,,,60,,21,,,30,27,,21,,4,0.4,0.3
2025-04-17T1100,1269A,119.879,28.4231,丽水市,余庄前,颗粒物(PM10),61,71,50,40,23,40,,17,17,28,17,9,4,0.5,0.4
2025-04-17T1100,1173A,119.176,34.5885,连云港市,市环境监测站,颗粒物(PM10),78,105,87,51,32,107,,102,102,17,14,8,9,0.5,0.4
2025-04-17T1100,3000A,119.3581,34.6972,连云港市,德源药业,颗粒物(PM10),96,141,94,39,27,115,,108,108,18,16,10,10,0.6,0.5
2025-04-17T1100,3007A,119.178,34.844,连云港市,新城一中,颗粒物(PM10),74,98,80,42,32,113,,82,82,17,23,15,10,0.9,0.7
2025-04-17T1100,3008A,119.3608,34.7519,连云港市,胡沟管理处,颗粒物(PM10),68,85,66,34,26,104,,105,102,28,22,13,11,0.6,0.5
2025-04-17T1100,3009A,119.1478,34.5911,连云港市,矿山设计院,颗粒物(PM10),79,107,91,39,30,97,,92,90,21,18,13,11,0.6,0.5
2025-04-17T1100,3434A,119.2413,34.6539,连云港市,工贸学校,颗粒物(PM10),75,100,85,49,34,111,,107,107,21,17,11,10,0.8,0.7
2025-04-17T1100,3664A,119.4172,34.7341,连云港市,连云街道,颗粒物(PM10),99,148,97,40,30,133,,140,137,14,14,10,9,0.5,0.5
2025-04-17T1100,2571A,102.3431,27.8099,凉山彝族自治州,青龙寺,,28,17,23,3,7,87,,60,60,7,9,10,8,0.5,0.5
2025-04-17T1100,2572A,102.2721,27.8415,凉山彝族自治州,邛海宾馆,,25,25,28,10,13,76,,78,67,14,14,7,7,0.6,0.5
2025-04-17T1100,2573A,102.2625,27.898,凉山彝族自治州,西昌市政府,,36,27,25,25,15,83,,67,62,14,9,9,9,0.7,0.5
2025-04-17T1100,2574A,102.2685,27.8851,凉山彝族自治州,凉山州政府,,29,,24,20,23,86,,70,61,14,12,8,8,0.5,0.5
2025-04-17T1100,4229A,102.2342,27.8859,凉山彝族自治州,凯乐南路30号,,26,26,29,11,13,76,,67,55,18,16,11,11,0.8,0.8
2025-04-17T1100,2212A,123.2,41.1953,辽阳市,宏伟区,,,61,42,34,25,146,,142,142,,9,,10,0.6,0.7
2025-04-17T1100,2213A,123.1683,41.2495,辽阳市,新华园,颗粒物(PM10),55,60,45,32,28,154,,145,145,11,10,7,9,0.7,0.7
2025-04-17T1100,2214A,123.2354,41.2639,辽阳市,滨河路,颗粒物(PM10),53,56,41,25,25,135,,122,122,14,15,8,10,0.6,0.6
2025-04-17T1100,2215A,123.149,41.2991,辽阳市,铁西工业园,颗粒物(PM10),62,74,55,35,33,139,,100,100,16,18,10,10,0.3,0.3
2025-04-17T1100,2227A,125.1358,42.8845,辽源市,环保局,,40,40,34,28,15,115,,49,49,24,26,12,7,0.7,0.5
2025-04-17T1100,3239A,125.0764,42.9078,辽源市,银鹰制药,,43,43,29,20,19,120,,62,62,26,25,11,9,0.6,0.4
2025-04-17T1100,1625A,115.9848,36.4372,聊城市,区政府,颗粒物(PM10),158,266,189,73,51,86,,62,57,27,19,20,16,0.9,0.8
2025-04-17T1100,2878A,116.0072,36.4343,聊城市,聊大东校,颗粒物(PM10),174,298,207,89,64,85,,62,56,30,24,18,14,0.6,0.5
2025-04-17T1100,3200A,115.9819,36.4978,聊城市,监控中心,颗粒物(PM10),235,374,227,122,66,95,,62,56,23,23,14,13,0.6,0.6
2025-04-17T1100,3513A,116.0445,36.4361,聊城市,九州社区,颗粒物(PM10),124,198,164,53,51,84,,60,57,22,16,12,10,0.5,0.5
2025-04-17T1100,4018A,116.0567,36.4608,聊城市,星美广场,颗粒物(PM10),142,233,176,56,42,83,,66,60,30,22,17,13,0.9,0.8
2025-04-17T1100,2632A,94.3681,29.6376,林芝市,林芝监测站,,26,14,9,6,7,83,,83,76,5,6,5,5,0.3,0.3
2025-04-17T1100,2633A,94.3616,29.6616,林芝市,林芝人民医院,,24,11,13,7,7,76,,77,68,5,4,5,5,0.2,0.3
2025-04-17T1100,2603A,100.0781,23.8982,临沧市,市环保局,,26,22,23,9,23,82,,49,49,13,10,6,7,0.6,0.5
2025-04-17T1100,2604A,100.0894,23.8822,临沧市,市气象局,,29,25,18,16,15,92,,61,55,14,9,7,7,0.6,0.5
2025-04-17T1100,1733A,111.5531,36.0783,临汾市,临钢医院,颗粒物(PM10),170,290,301,75,79,70,,26,26,35,31,13,13,0.7,0.7
2025-04-17T1100,1734A,111.5028,36.0714,临汾市,技工学校,颗粒物(PM10),136,221,234,89,82,72,,23,23,27,32,13,9,0.9,0.8
2025-04-17T1100,1736A,111.5018,36.0855,临汾市,市委,,,,268,,83,71,,19,19,,35,13,11,,0.8
2025-04-17T1100,3018A,111.505,36.1014,临汾市,唐尧大酒店,颗粒物(PM10),150,250,261,79,78,72,,22,22,29,31,14,13,0.9,0.8
2025-04-17T1100,4244A,111.4879,36.0530,临汾市,启星学校,颗粒物(PM10),158,266,271,76,77,66,,26,26,34,34,14,11,0.8,0.7
2025-04-17T1100,4271A,103.2464,35.6123,临夏回族自治州,滨河东路1号,颗粒物(PM10),104,157,182,38,60,72,,34,34,16,17,8,8,0.4,0.4
2025-04-17T1100,4310A,103.2093,35.5995,临夏回族自治州,新华街21号,颗粒物(PM10),89,127,178,51,63,68,,34,34,23,22,11,10,0.4,0.4
2025-04-17T1100,1618A,118.3429,35.0532,临沂市,沂河小区,颗粒物(PM10),87,124,111,57,44,105,,72,72,21,25,15,15,0.8,0.7
2025-04-17T1100,1619A,118.295,35.0583,临沂市,鲁南制药厂,颗粒物(PM10),89,127,110,52,54,114,,78,78,23,30,16,17,0.7,0.7
2025-04-17T1100,1620A,118.2794,34.9976,临沂市,新光毛纺厂,颗粒物(PM10),92,134,110,42,41,108,,72,72,25,30,15,15,0.5,0.4
2025-04-17T1100,1621A,118.3956,35.0888,临沂市,河东保险公司,颗粒物(PM10),78,105,94,38,33,108,,84,84,21,21,8,10,0.4,0.4
2025-04-17T1100,3370A,118.3564,35.0215,临沂市,十里堡居委,颗粒物(PM10),81,112,113,36,41,108,,66,66,23,32,13,12,0.6,0.6
2025-04-17T1100,3496A,118.3604,35.1084,临沂市,南坊新区,颗粒物(PM10),101,151,113,,37,107,,90,90,,21,,13,0.9,0.7
2025-04-17T1100,3860A,118.3920,35.0300,临沂市,皇山花园小区,颗粒物(PM10),87,124,112,42,36,108,,72,72,22,26,17,16,0.9,0.8
2025-04-17T1100,1870A,109.4856,24.3895,柳州市,柳东小学,颗粒物(PM10),95,140,135,48,52,132,,129,125,14,15,11,12,0.5,0.5
2025-04-17T1100,1871A,109.4157,24.3277,柳州市,环保监测站,颗粒物(PM10),113,176,159,64,54,123,,112,110,10,11,11,12,0.7,0.6
2025-04-17T1100,1872A,109.389,24.341,柳州市,河西水厂,颗粒物(PM10),112,174,153,43,44,122,,112,110,12,16,6,8,0.7,0.6
2025-04-17T1100,1873A,109.4311,24.2921,柳州市,市四中,颗粒物(PM10),109,167,149,48,44,112,,98,97,12,15,9,10,0.6,0.5
2025-04-17T1100,1874A,109.4006,24.3631,柳州市,市九中,,,,159,,46,125,,117,113,,12,10,11,0.8,0.7
2025-04-17T1100,1875A,109.4958,24.3134,柳州市,古亭山,颗粒物(PM10),109,168,152,49,45,126,,122,119,9,12,8,9,0.7,0.7
2025-04-17T1100,3402A,109.5422,24.3996,柳州市,市二中,颗粒物(PM10),102,154,142,51,51,122,,122,117,11,13,15,19,0.4,0.4
2025-04-17T1100,2307A,116.5079,31.737,六安市,监测大楼,颗粒物(PM10),54,58,68,25,31,121,,94,84,15,15,7,7,0.3,0.3
2025-04-17T1100,2308A,116.4738,31.7643,六安市,皖西学院,颗粒物(PM10),58,65,80,25,31,127,,103,97,8,6,6,6,0.5,0.4
2025-04-17T1100,2309A,116.4996,31.7905,六安市,朝阳厂,颗粒物(PM10),54,57,71,34,31,112,,88,80,19,17,5,5,0.4,0.4
2025-04-17T1100,2310A,116.5567,31.7886,六安市,开发区,颗粒物(PM10),63,76,89,35,35,108,,76,76,18,18,6,6,0.4,0.4
2025-04-17T1100,2576A,104.8,26.5892,六盘水市,窑上,,46,46,42,32,29,106,,63,63,9,8,9,6,0.5,0.5
2025-04-17T1100,2577A,104.83,26.5917,六盘水市,黄土坡,,35,35,42,18,26,110,,89,87,11,16,10,10,0.2,0.2
2025-04-17T1100,2578A,104.89,26.5939,六盘水市,水钢,,40,39,47,28,25,103,,94,89,22,14,44,11,1.2,0.6
2025-04-17T1100,2579A,104.8475,26.5894,六盘水市,民中,,36,33,38,17,23,114,,94,91,9,14,8,9,0.5,0.5
2025-04-17T1100,2580A,104.9544,26.5506,六盘水市,双水,,36,34,48,3,19,115,,83,83,12,13,10,10,0.2,0.2
2025-04-17T1100,2335A,117.0189,25.1181,龙岩市,龙岩师专,,,,,,,,,,,,,,,,
2025-04-17T1100,2336A,117.0217,25.1033,龙岩市,龙岩市监测站,颗粒物(PM10),64,77,83,18,28,120,,72,72,7,18,4,11,0.3,0.4
2025-04-17T1100,2337A,117.0258,25.0661,龙岩市,闽西职业技术学院,颗粒物(PM10),60,70,87,22,31,108,,66,66,9,17,4,20,0.3,0.4
2025-04-17T1100,2338A,117.0196,25.0306,龙岩市,龙岩学院,颗粒物(PM10),64,78,77,31,27,113,,94,94,7,9,5,4,0.4,0.4
2025-04-17T1100,2665A,105.0822,33.3261,陇南市,汉王镇固水子,,,,,,,,,,,,,,,,
2025-04-17T1100,2885A,104.9339,33.3826,陇南市,滨江中学,,,,93,,30,64,,56,51,,6,9,8,0.4,0.4
2025-04-17T1100,3247A,104.955,33.371,陇南市,市总工会,颗粒物(PM10),59,67,84,31,32,67,,57,54,4,6,10,9,0.4,0.4
2025-04-17T1100,2487A,111.9589,27.8901,娄底市,电视发射台,,,,109,,39,,,60,,,12,,3,,0.6
2025-04-17T1100,2488A,111.9975,27.725,娄底市,市监测站,颗粒物(PM10),70,90,121,47,64,70,,69,69,29,36,12,18,0.8,0.8
2025-04-17T1100,2489A,112.0194,27.7314,娄底市,市委党校,颗粒物(PM10),72,93,122,49,62,73,,63,63,19,23,4,5,0.6,0.7
2025-04-17T1100,2490A,111.9561,27.7569,娄底市,涟钢,,,108,127,56,59,64,,47,47,26,30,12,18,,0.8
2025-04-17T1100,2491A,111.9892,27.7044,娄底市,市政府,细颗粒物(PM2.5),68,83,116,49,59,69,,56,56,18,25,6,8,0.8,0.9
2025-04-17T1100,1893A,105.4324,28.9634,泸州市,九狮山,,,,,,,,,,,,,,,,
2025-04-17T1100,1894A,105.4427,28.9063,泸州市,小市上码头,颗粒物(PM10),68,85,101,38,40,92,,61,61,18,22,7,7,1.0,1
2025-04-17T1100,1895A,105.4241,28.8573,泸州市,兰田宪桥,细颗粒物(PM2.5),62,72,59,44,48,132,,69,69,8,15,9,9,0.6,0.6
2025-04-17T1100,1896A,105.4379,28.8833,泸州市,市环监站,,,,,,,,,,,,,,,,
2025-04-17T1100,4272A,105.3689,28.7783,泸州市,纳溪中医医院,颗粒物(PM10),63,76,104,32,34,126,,56,56,13,21,10,8,0.8,0.7
2025-04-17T1100,2183A,111.1406,37.5211,吕梁市,环保局,颗粒物(PM10),210,357,327,82,92,82,,35,35,17,26,12,9,0.4,0.2
2025-04-17T1100,2185A,111.1297,37.5136,吕梁市,自来水公司,颗粒物(PM10),226,368,332,96,91,72,,24,23,23,23,13,10,0.8,0.4
2025-04-17T1100,2867A,111.1283,37.51,吕梁市,马茂庄小学,颗粒物(PM10),239,377,344,92,90,76,,25,25,22,35,8,7,0.6,0.3
2025-04-17T1100,1812A,112.3931,34.6516,洛阳市,市委党校,颗粒物(PM10),116,182,208,72,74,82,,45,45,24,30,4,4,0.7,0.7
2025-04-17T1100,1815A,112.494,34.6886,洛阳市,河南林校,颗粒物(PM10),139,227,222,71,79,81,,50,50,37,31,17,6,0.9,0.7
2025-04-17T1100,1816A,112.3844,34.623,洛阳市,开发区管委会,颗粒物(PM10),121,192,212,74,83,95,,55,55,13,18,6,5,0.3,0.3
2025-04-17T1100,1817A,112.4267,34.6258,洛阳市,市委新办公区,,30,6,207,3,71,94,,56,56,21,26,5,5,0.6,0.4
2025-04-17T1100,3340A,112.6005,34.6326,洛阳市,伊滨,颗粒物(PM10),107,163,175,77,76,94,,48,48,19,24,11,10,0.6,0.5
2025-04-17T1100,3341A,112.4951,34.6332,洛阳市,中移产业园,颗粒物(PM10),130,210,251,64,72,96,,54,54,23,23,10,9,0.6,0.5
2025-04-17T1100,3593A,112.5736,34.8993,洛阳市,吉利监测站,细颗粒物(PM2.5),144,228,236,110,87,117,,73,73,15,21,8,6,0.8,0.5
2025-04-17T1100,3635A,112.3677,34.662,洛阳市,河科大西苑校区,颗粒物(PM10),136,222,235,67,72,83,,37,37,28,39,9,9,0.4,0.5
2025-04-17T1100,3636A,112.4388,34.6781,洛阳市,英才小学,颗粒物(PM10),126,202,226,77,79,84,,40,40,42,50,14,7,0.8,0.7
2025-04-17T1100,4214A,112.4600,34.6949,洛阳市,春都路1号院,颗粒物(PM10),145,239,243,84,83,86,,29,29,48,46,23,11,0.9,0.8
2025-04-17T1100,2399A,114.051,33.5699,漯河市,三五一五工厂,颗粒物(PM10),88,125,131,53,47,117,,100,100,12,13,8,6,0.7,0.6
2025-04-17T1100,2400A,114.0055,33.5698,漯河市,漯河大学,颗粒物(PM10),83,115,118,56,48,112,,92,92,9,15,8,7,0.5,0.4
2025-04-17T1100,2401A,114.0138,33.5828,漯河市,市水利局,颗粒物(PM10),85,119,130,48,45,110,,99,99,8,10,7,6,0.7,0.5
2025-04-17T1100,2402A,114.0261,33.5698,漯河市,市广电局,颗粒物(PM10),89,127,124,54,46,111,,100,100,11,12,8,6,0.6,0.4
2025-04-17T1100,3478A,113.9749,33.5664,漯河市,市图书馆,"颗粒物(PM10),细颗粒物(PM2.5)",87,123,125,64,50,99,,90,88,13,15,4,5,0.5,0.4
2025-04-17T1100,4250A,114.0892,33.5882,漯河市,韶山路11号,,,124,132,61,52,120,,104,104,,14,7,6,0.6,0.5
2025-04-17T1100,1798A,118.5092,31.6837,马鞍山市,湖东路四小,颗粒物(PM10),68,85,70,32,25,111,,83,83,23,22,14,11,0.7,0.6
2025-04-17T1100,1799A,118.5024,31.6449,马鞍山市,开发区,颗粒物(PM10),66,82,70,36,27,101,,70,70,32,33,13,11,0.9,0.8
2025-04-17T1100,1802A,118.6245,31.7241,马鞍山市,濮塘,颗粒物(PM10),74,98,77,27,27,121,,91,91,23,22,12,12,0.6,0.6
2025-04-17T1100,3633A,118.4918,31.6809,马鞍山市,雨山,颗粒物(PM10),68,85,69,40,28,105,,72,72,24,25,16,12,0.8,0.7
2025-04-17T1100,4191A,118.5274,31.72227,马鞍山市,慈湖高新区,,,86,68,46,30,108,,83,83,,21,,10,0.7,0.8
2025-04-17T1100,1686A,111.0286,21.4688,茂名市,电白南海,颗粒物(PM10),93,136,158,41,51,95,,101,97,8,13,1,2,0.8,0.8
2025-04-17T1100,1687A,110.9294,21.6533,茂名市,茂石化七小,颗粒物(PM10),87,124,156,31,41,100,,91,90,7,11,2,4,0.7,0.7
2025-04-17T1100,1688A,110.9107,21.6687,茂名市,健康路,颗粒物(PM10),85,119,155,39,43,116,,114,111,6,9,2,4,0.7,0.8
2025-04-17T1100,1689A,110.8592,21.6828,茂名市,高岭,颗粒物(PM10),92,134,174,29,40,113,,112,108,9,11,4,5,0.6,0.6
2025-04-17T1100,3450A,111.01,21.5165,茂名市,电白水东,颗粒物(PM10),92,134,156,44,43,98,,102,97,12,13,1,2,0.6,0.6
2025-04-17T1100,2539A,104.0308,30.0478,眉山市,黑龙滩水库,,41,41,88,28,30,131,,78,78,3,13,2,3,0.4,0.4
2025-04-17T1100,2540A,103.8416,30.0874,眉山市,气象局,颗粒物(PM10),80,109,136,51,53,99,,92,92,32,32,6,5,0.9,0.7
2025-04-17T1100,3137A,103.8578,30.0744,眉山市,市委党校,"颗粒物(PM10),细颗粒物(PM2.5)",64,78,113,46,42,103,,88,88,26,27,12,10,1.0,0.8
2025-04-17T1100,3148A,103.8291,30.0564,眉山市,区人社局,颗粒物(PM10),65,79,90,46,43,110,,97,97,36,30,17,12,1.1,0.8
2025-04-17T1100,1690A,116.1231,24.3284,梅州市,梅江月梅,颗粒物(PM10),66,81,90,34,37,94,,43,43,15,13,5,6,0.6,0.5
2025-04-17T1100,1691A,116.0797,24.2719,梅州市,梅县新城,,,91,90,24,34,88,,37,37,12,19,,6,,0.5
2025-04-17T1100,1692A,116.1248,24.2654,梅州市,环境监控中心,颗粒物(PM10),70,89,89,27,31,88,,43,43,15,24,8,8,0.5,0.4
2025-04-17T1100,3315A,116.1233,24.2991,梅州市,梅龙,颗粒物(PM10),63,75,90,25,39,92,,50,50,9,13,7,9,0.6,0.5
2025-04-17T1100,1878A,104.7778,31.4741,绵阳市,富乐山,,,104,113,45,45,119,,82,73,33,18,11,9,,0.5
2025-04-17T1100,1880A,104.6697,31.4668,绵阳市,高新区自来水公司,细颗粒物(PM2.5),110,113,112,83,48,139,,64,60,22,31,7,5,0.6,0.6
2025-04-17T1100,1881A,104.7287,31.5075,绵阳市,三水厂,细颗粒物(PM2.5),87,109,129,64,52,132,,54,51,23,30,9,7,0.6,0.6
2025-04-17T1100,3491A,104.69,31.5322,绵阳市,西科大附属小学,颗粒物(PM10),77,103,128,49,53,132,,60,60,20,29,10,8,0.7,0.6
2025-04-17T1100,3492A,104.5648,31.5343,绵阳市,安州区旅游局,颗粒物(PM10),72,94,121,41,42,118,,57,57,20,23,16,10,0.5,0.4
2025-04-17T1100,4226A,104.7651,31.4531,绵阳市,绵阳市气象局,,,,120,,43,120,,87,76,,22,6,6,0.7,0.5
2025-04-17T1100,1784A,129.61,44.561,牡丹江市,环保大楼,,32,32,35,21,25,97,,55,55,18,20,10,7,0.3,0.3
2025-04-17T1100,1785A,129.6115,44.5782,牡丹江市,文化广场,,45,38,62,31,33,99,,57,57,18,26,16,17,0.5,0.6
2025-04-17T1100,1786A,129.5904,44.5963,牡丹江市,第一医院,,37,37,37,18,33,102,,63,63,15,14,7,6,0.3,0.3
2025-04-17T1100,1787A,129.6364,44.6075,牡丹江市,机车工厂,,43,43,51,17,30,113,,62,62,12,21,10,25,0.4,0.7
2025-04-17T1100,1788A,129.6386,44.5462,牡丹江市,第一中学,,34,21,29,14,21,108,,56,56,11,15,11,7,0.5,0.4
2025-04-17T1100,2531A,105.0703,29.61,内江市,市监测站,细颗粒物(PM2.5),70,87,97,51,51,145,,89,89,20,25,14,14,0.8,0.8
2025-04-17T1100,2532A,105.0717,29.5947,内江市,东兴区政府,颗粒物(PM10),67,84,98,41,48,134,,,,22,26,10,10,0.7,0.6
2025-04-17T1100,2533A,105.0653,29.5817,内江市,内江二中,颗粒物(PM10),76,102,110,47,56,131,,77,77,24,34,9,9,0.6,0.6
2025-04-17T1100,2534A,105.0406,29.5822,内江市,内江日报社,颗粒物(PM10),85,120,112,47,53,130,,70,70,22,32,11,11,0.5,0.5
2025-04-17T1100,2628A,92.0657,31.4846,那曲市,那曲监测站,,47,47,53,23,32,77,,42,42,32,30,13,8,0.7,1
2025-04-17T1100,4243A,92.0515,31.4787,那曲市,那曲市委宣传部,,45,45,34,23,17,92,,50,50,17,20,12,7,0.5,0.5
2025-04-17T1100,1290A,115.8931,28.6843,南昌市,省外办,颗粒物(PM10),66,81,75,44,39,90,,34,34,28,45,7,10,0.6,0.6
2025-04-17T1100,1291A,115.8886,28.7003,南昌市,省林业公司,细颗粒物(PM2.5),64,70,82,46,40,87,,33,33,21,35,10,13,0.6,0.6
2025-04-17T1100,1292A,115.8126,28.7442,南昌市,林科所,细颗粒物(PM2.5),64,73,72,46,36,65,,36,36,40,51,7,6,0.8,0.5
2025-04-17T1100,1294A,115.8518,28.687,南昌市,建工学校,颗粒物(PM10),122,194,99,57,46,83,,28,28,27,47,5,8,0.8,0.7
2025-04-17T1100,1295A,115.8921,28.6424,南昌市,象湖,颗粒物(PM10),64,78,79,41,37,112,,39,39,19,39,10,11,0.7,0.7
2025-04-17T1100,1296A,115.7423,28.7996,南昌市,武术学校,颗粒物(PM10),51,52,38,32,16,92,,42,42,6,5,10,10,0.8,0.6
2025-04-17T1100,3046A,115.9084,28.6062,南昌市,机电学校,颗粒物(PM10),66,82,86,44,44,81,,32,32,23,43,4,6,0.5,0.6
2025-04-17T1100,3690A,115.9721,28.7031,南昌市,外国语学校,颗粒物(PM10),65,79,77,32,30,108,,47,47,23,33,10,12,0.3,0.2
2025-04-17T1100,4192A,115.9316,28.68677,南昌市,南京东路235号,颗粒物(PM10),71,92,90,38,36,115,,44,44,26,41,8,9,0.8,0.7
2025-04-17T1100,1905A,106.056,30.8064,南充市,西山风景区,颗粒物(PM10),53,56,86,27,38,91,,106,87,16,12,7,6,0.6,0.5
2025-04-17T1100,1906A,106.0789,30.8023,南充市,南充市委,颗粒物(PM10),73,96,116,48,51,88,,48,48,29,34,7,5,0.7,0.6
2025-04-17T1100,1907A,106.1031,30.8217,南充市,南充炼油厂,颗粒物(PM10),75,100,124,40,55,94,,50,50,19,38,5,6,0.5,0.6
2025-04-17T1100,4227A,106.1083,30.7884,南充市,梨树横街98号,颗粒物(PM10),72,94,126,33,42,86,,41,41,32,47,11,8,0.5,0.5
2025-04-17T1100,4304A,106.1172,30.843,南充市,清泉寺北路188号,颗粒物(PM10),76,102,120,19,45,84,,61,52,25,29,7,6,0.4,0.4
2025-04-17T1100,4305A,106.067,30.7616,南充市,同庆路1号,颗粒物(PM10),75,99,113,41,53,78,,32,32,25,51,9,6,0.4,0.6
2025-04-17T1100,1151A,118.8086,32.1065,南京市,迈皋桥,颗粒物(PM10),62,74,56,34,28,119,,82,82,48,36,21,14,1.1,0.8
2025-04-17T1100,1152A,118.7538,32.0551,南京市,草场门,颗粒物(PM10),70,90,71,27,24,117,,79,78,29,29,13,13,1.2,1.1
2025-04-17T1100,1153A,118.7794,32.0745,南京市,山西路,颗粒物(PM10),81,112,83,27,22,120,,87,87,31,26,15,12,0.9,0.7
2025-04-17T1100,1154A,118.7752,32.0023,南京市,中华门,颗粒物(PM10),71,92,64,29,22,108,,75,75,22,16,24,18,0.5,0.7
2025-04-17T1100,1155A,118.8109,32.0309,南京市,瑞金路,颗粒物(PM10),75,100,71,34,25,112,,74,74,37,16,6,6,0.6,0.5
2025-04-17T1100,1156A,118.7997,32.0754,南京市,玄武湖,颗粒物(PM10),72,94,72,29,19,89,,62,61,22,17,16,13,1.2,0.9
2025-04-17T1100,1157A,118.6414,32.0931,南京市,浦口,颗粒物(PM10),71,92,74,26,18,116,,86,86,28,23,9,8,0.5,0.4
2025-04-17T1100,1158A,118.7356,31.9996,南京市,奥体中心,,,,77,,26,112,,65,64,,31,23,17,1.2,1
2025-04-17T1100,1159A,118.9125,32.1028,南京市,仙林大学城,颗粒物(PM10),71,92,78,29,21,122,,91,91,25,21,19,16,1.1,1
2025-04-17T1100,3422A,118.8436,31.9198,南京市,江宁彩虹桥,颗粒物(PM10),67,84,68,29,20,132,,88,88,13,18,5,5,0.6,0.6
2025-04-17T1100,3427A,118.8554,32.3578,南京市,六合雄州,颗粒物(PM10),62,73,74,25,24,121,,72,72,3,12,8,12,0.5,0.7
2025-04-17T1100,4249A,118.8708,31.3402,南京市,汶溪路181号,颗粒物(PM10),53,55,51,29,24,122,,96,96,19,17,6,4,0.4,0.3
2025-04-17T1100,4312A,119.019,31.6512,南京市,中山西路1号,颗粒物(PM10),52,53,46,26,23,121,,93,92,11,12,6,6,0.6,0.6
2025-04-17T1100,1401A,108.3103,22.7881,南宁市,二十一中,颗粒物(PM10),83,115,129,53,57,99,,114,102,12,14,5,8,1.0,0.9
2025-04-17T1100,1402A,108.3141,22.8528,南宁市,北湖,颗粒物(PM10),89,127,132,51,46,99,,112,102,15,13,7,9,1.1,0.9
2025-04-17T1100,1403A,108.3206,22.8225,南宁市,市监测站,颗粒物(PM10),86,122,133,48,48,86,,108,97,22,14,6,8,0.7,0.5
2025-04-17T1100,1404A,108.3829,22.8037,南宁市,大自然花园,颗粒物(PM10),89,128,142,52,58,105,,120,111,9,9,6,8,0.7,0.6
2025-04-17T1100,1405A,108.4394,22.7904,南宁市,仙葫,颗粒物(PM10),86,121,137,46,52,94,,104,98,6,8,6,9,0.6,0.6
2025-04-17T1100,1406A,108.2397,22.8467,南宁市,区农职院,颗粒物(PM10),87,124,136,45,43,90,,103,92,13,14,5,7,0.8,0.7
2025-04-17T1100,1407A,108.3275,22.735,南宁市,英华嘉园,颗粒物(PM10),82,114,132,44,49,99,,111,100,10,15,8,10,0.7,0.6
2025-04-17T1100,3401A,108.4834,22.7618,南宁市,红星社区,,,117,141,37,46,113,,124,117,,10,8,12,0.8,0.8
2025-04-17T1100,4221A,108.2177,22.7774,南宁市,乐贤路16号,颗粒物(PM10),83,116,142,41,47,86,,84,77,11,18,13,11,0.9,0.8
2025-04-17T1100,2331A,118.0966,26.6761,南平市,茫荡山,,,,,,,,,,,,,,,,
2025-04-17T1100,2332A,118.1681,26.6369,南平市,南平市监测站,,,75,72,41,40,80,,22,22,,30,6,5,1.0,1
2025-04-17T1100,2333A,118.1825,26.6489,南平市,南平铝业有限公司,颗粒物(PM10),66,81,76,39,37,92,,34,34,21,30,8,6,0.8,0.8
2025-04-17T1100,2334A,118.1756,26.6272,南平市,南平七中,细颗粒物(PM2.5),62,54,69,44,37,74,,25,25,28,27,8,6,0.9,0.9
2025-04-17T1100,1168A,120.9098,31.9663,南通市,狼山街道,颗粒物(PM10),65,80,60,27,23,86,,32,32,48,63,6,6,0.8,0.7
2025-04-17T1100,1169A,120.86,32.0005,南通市,虹桥,颗粒物(PM10),63,75,60,30,25,88,,48,48,51,68,4,5,0.5,0.5
2025-04-17T1100,1170A,120.87,32.02,南通市,城中,颗粒物(PM10),68,86,67,27,22,98,,60,60,43,50,6,7,0.8,0.8
2025-04-17T1100,1171A,120.94,31.93,南通市,星湖花园,颗粒物(PM10),63,76,63,27,26,98,,60,60,47,52,7,6,0.6,0.5
2025-04-17T1100,1172A,120.81,32.0417,南通市,紫琅学院,,,,54,,20,66,,20,20,,74,,7,0.9,0.9
2025-04-17T1100,3291A,121.067,32.062,南通市,通州监测站,颗粒物(PM10),58,66,64,27,24,121,,65,65,24,41,9,8,0.7,0.5
2025-04-17T1100,3432A,120.9348,31.9883,南通市,环境教育馆,颗粒物(PM10),67,83,69,28,23,106,,62,62,37,49,10,9,0.6,0.5
2025-04-17T1100,2404A,112.5224,33.0122,南阳市,瓦房庄,颗粒物(PM10),79,108,92,44,33,117,,94,93,14,15,10,8,0.6,0.5
2025-04-17T1100,2405A,112.5003,32.9735,南阳市,汉画馆,,,107,86,58,34,108,,82,82,,20,,7,0.6,0.5
2025-04-17T1100,2406A,112.5573,33.027,南阳市,气象站,颗粒物(PM10),87,124,101,46,40,116,,95,94,11,15,9,7,0.6,0.5
2025-04-17T1100,2407A,112.5481,32.9689,南阳市,理工学院,颗粒物(PM10),78,105,92,43,35,112,,88,87,10,16,9,7,0.5,0.5
2025-04-17T1100,4008A,112.5234,32.9922,南阳市,卧龙区政府,颗粒物(PM10),78,106,93,48,39,117,,93,93,14,17,9,6,0.6,0.5
2025-04-17T1100,1234A,121.8358,29.911,宁波市,区环保大楼,颗粒物(PM10),60,70,83,24,24,126,,54,54,12,29,9,9,0.6,0.6
2025-04-17T1100,1235A,121.56,29.82,宁波市,万里学院,颗粒物(PM10),55,59,69,26,26,124,,98,98,12,13,11,8,0.7,0.6
2025-04-17T1100,1236A,121.713,29.9572,宁波市,龙赛医院,颗粒物(PM10),51,51,76,25,25,130,,82,82,11,16,9,9,0.6,0.6
2025-04-17T1100,1239A,121.633,29.7733,宁波市,钱湖水厂,颗粒物(PM10),51,51,63,22,24,121,,100,100,10,9,9,8,0.7,0.6
2025-04-17T1100,1240A,121.5856,29.8635,宁波市,太古小学,,,63,74,26,25,122,,83,83,16,18,,10,,0.6
2025-04-17T1100,1241A,121.524,29.8674,宁波市,市环境监测中心,颗粒物(PM10),57,63,70,23,25,115,,85,85,21,22,10,10,0.8,0.7
2025-04-17T1100,2871A,121.6147,29.9017,宁波市,万里国际学校,,50,50,61,28,26,129,,99,99,12,10,10,8,0.6,0.5
2025-04-17T1100,3710A,121.5594,29.8975,宁波市,白沙活动中心,,44,44,55,16,19,127,,90,90,13,16,10,9,0.6,0.6
2025-04-17T1100,2339A,119.5001,26.6946,宁德市,金涵水库,,,,,,,,,,,,,,,,
2025-04-17T1100,2341A,119.5388,26.6612,宁德市,宁德市监测站,颗粒物(PM10),71,91,71,40,35,84,,48,48,29,23,8,7,1.0,0.8
2025-04-17T1100,3209A,119.5231,26.6562,宁德市,宁德一中,颗粒物(PM10),72,94,66,47,35,82,,63,61,30,17,9,8,1.0,0.8
2025-04-17T1100,2618A,98.8601,25.8567,怒江傈僳族自治州,州监测站,,25,25,24,15,16,57,,40,40,4,12,8,8,0.3,0.4
2025-04-17T1100,2619A,98.8546,25.8417,怒江傈僳族自治州,泸水一中,,28,23,26,19,16,42,,19,19,9,18,6,6,0.4,0.4
2025-04-17T1100,1888A,101.6891,26.571,攀枝花市,弄弄坪,,39,39,37,19,18,111,,86,77,23,22,19,18,0.8,1.4
2025-04-17T1100,1889A,101.5769,26.5928,攀枝花市,河门口,颗粒物(PM10),78,105,38,17,10,74,,63,48,46,17,37,16,2.2,0.7
2025-04-17T1100,1890A,101.7169,26.585,攀枝花市,炳草岗,,35,35,34,19,16,106,,74,66,20,21,22,16,0.5,0.5
2025-04-17T1100,1891A,101.7369,26.5008,攀枝花市,仁和,,39,36,21,21,12,123,,82,82,16,14,16,10,0.5,0.4
2025-04-17T1100,2835A,101.7227,26.567,攀枝花市,四十中小,,38,35,29,10,13,121,,86,75,13,12,16,10,0.6,0.6
2025-04-17T1100,1604A,122.0303,41.1489,盘锦市,开发区,,,122,63,63,46,99,,81,81,,27,22,15,1.2,0.8
2025-04-17T1100,1605A,122.0485,41.0883,盘锦市,兴隆台,细颗粒物(PM2.5),100,113,65,75,47,74,,77,76,61,31,18,13,1.4,0.8
2025-04-17T1100,1606A,121.8297,41.1028,盘锦市,新生街道,细颗粒物(PM2.5),100,,44,75,45,101,,85,85,40,29,27,19,1.3,0.7
2025-04-17T1100,1832A,113.3257,33.742,平顶山市,新华旅馆,颗粒物(PM10),80,110,131,34,36,120,,107,99,15,14,6,6,0.5,0.4
2025-04-17T1100,1833A,113.2919,33.737,平顶山市,规划设计院,颗粒物(PM10),80,110,116,53,45,125,,107,100,14,14,6,5,0.9,0.8
2025-04-17T1100,1834A,113.182,33.774,平顶山市,平顶山工学院,颗粒物(PM10),79,108,104,53,47,119,,118,111,11,10,6,6,0.6,0.5
2025-04-17T1100,3204A,113.3025,33.73,平顶山市,规划局,,,,117,44,31,113,,108,98,11,15,,6,,0.4
2025-04-17T1100,3594A,112.8867,33.9116,平顶山市,石龙区,,,142,172,60,54,113,,80,62,,22,,7,0.3,0.3
2025-04-17T1100,2656A,106.6692,35.5461,平凉市,聚贤嘉苑,颗粒物(PM10),100,149,176,40,45,89,,51,51,18,25,10,7,0.4,0.3
2025-04-17T1100,2657A,106.7021,35.5307,平凉市,博物馆,颗粒物(PM10),111,171,178,38,43,70,,55,55,22,18,,11,,0.6
2025-04-17T1100,2347A,114.0997,27.5002,萍乡市,武功山,,49,49,63,33,25,63,,65,64,8,8,13,14,0.5,0.4
2025-04-17T1100,2348A,113.8385,27.6434,萍乡市,中医院,颗粒物(PM10),67,83,82,46,35,38,,54,39,41,23,14,21,1.4,1
2025-04-17T1100,2349A,113.8493,27.6253,萍乡市,市政府车库,细颗粒物(PM2.5),69,80,77,50,46,41,,40,35,43,29,11,16,1.8,1.9
2025-04-17T1100,2350A,113.8676,27.6435,萍乡市,市环保局,细颗粒物(PM2.5),79,95,89,58,47,33,,44,35,54,29,14,17,1.7,1.1
2025-04-17T1100,2351A,113.866,27.6198,萍乡市,安源区政府,,,,88,52,36,38,,38,31,40,28,,23,2.5,1.1
2025-04-17T1100,2319A,119.0141,25.4325,莆田市,荔城区仓后路,颗粒物(PM10),68,85,98,25,42,105,,62,62,10,25,4,5,0.5,0.7
2025-04-17T1100,2320A,119.0015,25.4553,莆田市,莆田市监测站,颗粒物(PM10),68,86,77,22,36,109,,72,72,5,13,5,5,0.4,0.5
2025-04-17T1100,2321A,119.1119,25.4561,莆田市,涵江区六中,颗粒物(PM10),67,84,88,26,37,116,,75,75,10,22,5,6,0.5,0.7
2025-04-17T1100,2322A,119.1013,25.3215,莆田市,秀屿区政府,,,81,89,25,36,108,,47,47,,24,,6,0.4,0.6
2025-04-17T1100,2323A,118.981,25.4792,莆田市,东圳水库,,,,,,,,,,,,,,,,
2025-04-17T1100,2392A,115.0312,35.7636,濮阳市,环保局,颗粒物(PM10),142,233,204,62,52,80,,69,61,30,19,14,9,0.8,0.7
2025-04-17T1100,2394A,115.0574,35.7609,濮阳市,油田运输公司,颗粒物(PM10),140,230,193,81,60,86,,71,63,31,21,14,9,1.0,0.8
2025-04-17T1100,3021A,115,35.7668,濮阳市,濮水河管理处,颗粒物(PM10),147,244,209,68,56,71,,57,49,28,21,13,8,1.0,0.8
2025-04-17T1100,4216A,115.0924,35.7686,濮阳市,任丘路479号,颗粒物(PM10),154,258,218,71,56,89,,71,60,29,19,13,9,1.2,1
2025-04-17T1100,2601A,100.98,22.7633,普洱市,市环保局,,36,36,29,18,12,80,,37,37,8,11,3,3,0.5,0.5
2025-04-17T1100,2602A,100.9817,22.8322,普洱市,普洱第二中学,,,21,18,12,16,,,38,38,8,16,7,7,0.3,0.3
2025-04-17T1100,2262A,131.0518,45.8751,七台河市,新一中,,49,47,39,34,27,124,,78,78,12,12,14,13,0.6,0.6
2025-04-17T1100,3345A,131.0577,45.7879,七台河市,中波台,颗粒物(PM10),62,73,53,40,35,91,,53,53,18,27,7,9,0.6,0.7
2025-04-17T1100,3637A,131.0176,45.7761,七台河市,人民广场,颗粒物(PM10),51,52,76,18,47,106,,62,62,9,31,9,11,0.4,0.7
2025-04-17T1100,3684A,130.8781,45.8222,七台河市,新建矿广场,颗粒物(PM10),54,58,114,21,58,102,,46,46,16,37,10,13,0.6,0.8
2025-04-17T1100,1779A,123.9305,47.3636,齐齐哈尔市,安居小区,颗粒物(PM10),60,70,42,29,13,77,,73,70,28,22,6,5,0.4,0.4
2025-04-17T1100,1780A,123.9488,47.3386,齐齐哈尔市,中心广场,,,,35,,12,,,68,64,27,18,8,7,0.6,0.4
2025-04-17T1100,1781A,123.9483,47.3227,齐齐哈尔市,农牧车辆厂,颗粒物(PM10),53,56,31,25,14,96,,71,71,15,15,7,5,0.2,0.2
2025-04-17T1100,1783A,123.945,47.2988,齐齐哈尔市,市环境监测站,,50,50,28,28,14,97,,68,68,14,14,4,2,0.4,0.3
2025-04-17T1100,3662A,123.6333,47.2075,齐齐哈尔市,富区青少年活动中心,细颗粒物(PM2.5),77,69,47,56,21,108,,64,64,15,14,5,3,0.5,0.5
2025-04-17T1100,2591A,107.9783,26.5747,黔东南苗族侗族自治州,市环境监测站,颗粒物(PM10),58,65,68,38,38,96,,75,71,12,11,4,5,0.5,0.4
2025-04-17T1100,2881A,107.8908,26.5311,黔东南苗族侗族自治州,凯里学院,颗粒物(PM10),59,68,62,33,39,100,,72,66,8,7,4,4,0.4,0.4
2025-04-17T1100,2593A,107.5228,26.2403,黔南布依族苗族自治州,小围寨,颗粒物(PM10),67,83,58,36,29,82,,61,57,16,8,6,5,0.5,0.5
2025-04-17T1100,3538A,107.5175,26.2978,黔南布依族苗族自治州,沙坝,颗粒物(PM10),62,73,65,39,30,74,,54,48,14,9,4,5,0.6,0.6
2025-04-17T1100,2589A,104.9022,25.0925,黔西南布依族苗族自治州,场坝街,,,37,31,7,17,,,74,60,17,13,21,20,0.3,0.3
2025-04-17T1100,2590A,104.8811,25.0992,黔西南布依族苗族自治州,坪东大道,,36,29,28,14,14,114,,58,58,10,16,8,9,0.2,0.2
2025-04-17T1100,2502A,108.6236,21.9667,钦州市,市环保站,颗粒物(PM10),98,146,184,36,51,105,,101,101,16,22,2,7,0.7,0.8
2025-04-17T1100,2503A,108.6549,21.9481,钦州市,沙埠小学,颗粒物(PM10),101,151,183,40,54,107,,96,95,12,22,7,10,0.9,0.9
2025-04-17T1100,2504A,108.5989,21.7431,钦州市,港区一小,颗粒物(PM10),114,178,205,43,57,91,,98,94,22,23,10,12,0.6,0.6
2025-04-17T1100,3404A,108.5959,21.9633,钦州市,北职校,,,,182,,60,97,,100,100,,23,,13,0.7,0.8
2025-04-17T1100,1043A,119.7493,40.0116,秦皇岛市,第一关,颗粒物(PM10),70,90,75,38,46,145,,78,78,17,56,7,6,0.5,0.4
2025-04-17T1100,1044A,119.5897,39.9499,秦皇岛市,监测站,颗粒物(PM10),61,72,87,41,44,136,,65,65,23,40,6,6,0.5,0.5
2025-04-17T1100,1046A,119.5251,39.9041,秦皇岛市,建设大厦,颗粒物(PM10),68,85,97,42,40,129,,58,58,27,50,6,5,0.5,0.6
2025-04-17T1100,3132A,119.610547,39.943889,秦皇岛市,文明里,颗粒物(PM10),66,82,94,33,40,138,,76,76,21,36,6,6,0.3,0.4
2025-04-17T1100,4198A,119.5090,39.8253,秦皇岛市,北戴河轮滑馆,,,65,65,37,36,138,,100,100,,19,8,7,0.4,0.3
2025-04-17T1100,1307A,120.6659,36.2403,青岛市,仰口,,,,93,,41,,,167,,,9,,9,,0.5
2025-04-17T1100,1310A,120.4134,36.0658,青岛市,市南区东部子站,颗粒物(PM10),87,124,94,39,31,54,,63,50,46,30,17,12,0.7,0.6
2025-04-17T1100,1311A,120.3664,36.1032,青岛市,四方区子站,颗粒物(PM10),87,124,93,51,34,55,,72,59,62,37,17,10,1.1,0.8
2025-04-17T1100,1312A,120.2994,36.054,青岛市,市南区西部子站,颗粒物(PM10),78,105,86,42,30,58,,61,49,53,40,12,9,1.1,0.9
2025-04-17T1100,1313A,120.4581,36.0858,青岛市,崂山区子站,颗粒物(PM10),78,105,86,39,26,55,,65,48,44,24,17,10,0.8,0.7
2025-04-17T1100,1315A,120.3999,36.3083,青岛市,城阳区子站,,,,121,,40,67,,67,67,,40,,13,1.0,0.8
