timepoint,stationcode,longitude,latitude,area,positionname,primarypollutant,aqi,pm10,pm10_24h,pm2_5,pm2_5_24h,o3,o3_24h,o3_8h,o3_8h_24h,no2,no2_24h,so2,so2_24h,co,co_24h
2025-04-17T2300,2566A,102.1879,31.914,阿坝藏族羌族自治州,州农科所,,25,25,28,14,8,66,,87,72,4,11,11,14,0.5,0.4
2025-04-17T2300,2568A,102.2502,31.8896,阿坝藏族羌族自治州,马师校,,32,26,20,22,13,33,,104,86,42,9,5,5,0.4,0.4
2025-04-17T2300,3994A,102.2165,31.9024,阿坝藏族羌族自治州,马尔康中学西区,,25,25,18,14,11,74,,124,108,10,4,4,4,0.3,0.3
2025-04-17T2300,2695A,80.292,41.1694,阿克苏地区,电视台,颗粒物(PM10),200,349,1473,61,228,98,,113,109,10,4,6,3,0.4,0.3
2025-04-17T2300,2696A,80.2613,41.1551,阿克苏地区,艺术中心,颗粒物(PM10),328,442,1621,66,262,101,,110,110,13,7,4,4,0.4,0.5
2025-04-17T2300,2204A,105.6467,38.8363,阿拉善盟,西城区西花园,颗粒物(PM10),500,609,128,208,49,90,,135,126,11,11,6,7,0.7,0.7
2025-04-17T2300,2205A,105.6985,38.8411,阿拉善盟,蒙二幼,细颗粒物(PM2.5),201,282,124,151,45,76,,117,111,9,8,8,8,0.6,0.5
2025-04-17T2300,2206A,105.724,38.8516,阿拉善盟,环保局新楼,颗粒物(PM10),193,335,116,132,41,88,,127,123,7,4,10,11,0.7,0.6
2025-04-17T2300,2708A,88.1264,47.8517,阿勒泰地区,市站,,24,24,13,3,7,76,,84,83,10,4,3,2,0.3,0.3
2025-04-17T2300,2630A,80.1161,32.5,阿里地区,阿里监测站,,38,16,11,6,8,121,,128,127,9,7,6,6,0.5,0.5
2025-04-17T2300,3192A,80.0903,32.5028,阿里地区,阿里藏医院,,,16,19,7,6,,,123,119,1,3,5,5,0.3,0.4
2025-04-17T2300,2642A,109.0318,32.6537,安康市,香溪洞,颗粒物(PM10),65,80,72,42,46,123,,145,140,6,8,7,8,0.5,0.6
2025-04-17T2300,2644A,109.0072,32.6975,安康市,汉滨区检察院,颗粒物(PM10),66,81,79,31,28,72,,145,118,16,15,8,11,0.5,0.5
2025-04-17T2300,4054A,109.0325,32.6913,安康市,市邮政管理局,颗粒物(PM10),72,93,84,36,33,59,,138,101,20,17,9,11,0.5,0.5
2025-04-17T2300,2291A,117.0809,30.5177,安庆市,环科院,颗粒物(PM10),64,77,72,40,36,102,,132,126,30,25,9,10,0.6,0.6
2025-04-17T2300,2292A,117.0331,30.5119,安庆市,马山宾馆,颗粒物(PM10),62,74,64,38,35,92,,126,117,33,24,5,6,0.5,0.5
2025-04-17T2300,2294A,116.9896,30.6145,安庆市,安庆大学,颗粒物(PM10),63,75,76,43,38,113,,141,137,23,18,5,7,0.4,0.4
2025-04-17T2300,3173A,117.0598,30.5351,安庆市,市人大,颗粒物(PM10),62,73,72,36,33,119,,141,135,13,12,8,10,0.3,0.3
2025-04-17T2300,3123A,105.9408,26.2431,安顺市,凤凰山,细颗粒物(PM2.5),73,71,58,53,43,115,,147,138,16,10,22,9,0.6,0.5
2025-04-17T2300,3124A,105.9439,26.2564,安顺市,金钟山,细颗粒物(PM2.5),77,64,55,56,41,123,,144,138,13,10,24,8,0.8,0.7
2025-04-17T2300,3125A,105.8983,26.2481,安顺市,娄家坡,细颗粒物(PM2.5),68,70,62,49,43,118,,140,134,14,11,14,9,0.8,0.8
2025-04-17T2300,1819A,114.3551,36.1017,安阳市,红庙街,颗粒物(PM10),175,299,280,97,109,101,,124,118,15,17,8,10,0.7,0.8
2025-04-17T2300,1820A,114.361,36.0681,安阳市,银杏小区,颗粒物(PM10),177,303,287,101,110,101,,131,120,16,18,9,9,0.6,0.5
2025-04-17T2300,3141A,114.3922,36.0878,安阳市,信访局,颗粒物(PM10),184,317,290,95,91,114,,137,131,26,23,6,9,0.2,0.4
2025-04-17T2300,3669A,114.4705,36.0637,安阳市,左辅环卫站,颗粒物(PM10),183,316,292,107,119,86,,124,101,,39,9,7,0.5,0.5
2025-04-17T2300,3703A,114.2917,36.0949,安阳市,安钢职工学校,颗粒物(PM10),186,321,308,104,108,82,,124,109,28,19,6,6,0.6,0.6
2025-04-17T2300,1748A,123.044,41.1196,鞍山市,深沟寺,细颗粒物(PM2.5),55,55,73,39,46,76,,136,81,16,22,15,14,0.8,1
2025-04-17T2300,1749A,123.011,41.0931,鞍山市,太阳城,,48,44,83,33,48,79,,116,82,15,21,8,6,1.1,1.1
2025-04-17T2300,1750A,123.0485,41.1442,鞍山市,太平,颗粒物(PM10),53,56,85,35,45,74,,128,78,12,23,10,11,0.6,1
2025-04-17T2300,1751A,122.9642,41.0971,鞍山市,铁西三道街,,47,47,109,30,61,82,,102,73,12,50,4,7,0.6,1.2
2025-04-17T2300,1753A,123.022,41.0821,鞍山市,明达新区,细颗粒物(PM2.5),53,50,77,37,47,74,,120,88,18,20,10,8,0.9,0.8
2025-04-17T2300,4201A,122.9446,41.0826,鞍山市,兴盛南路290号,,46,45,118,32,63,79,,99,75,12,49,6,11,0.6,1.1
2025-04-17T2300,2195A,107.4212,40.761,巴彦淖尔市,附二中,,40,40,92,17,30,79,,99,91,7,12,5,5,0.4,0.4
2025-04-17T2300,2196A,107.37,40.7372,巴彦淖尔市,市环保大楼,,45,45,98,23,33,78,,101,92,11,16,5,5,0.3,0.3
2025-04-17T2300,1956A,86.1472,41.7538,巴音郭楞蒙古自治州,孔雀公园,颗粒物(PM10),500,1792,845,190,104,90,,111,94,9,7,5,5,0.3,0.2
2025-04-17T2300,1957A,86.1972,41.7166,巴音郭楞蒙古自治州,棉纺厂,颗粒物(PM10),500,2902,949,132,107,99,,103,97,3,4,2,2,0.2,0.2
2025-04-17T2300,1958A,86.2357,41.7173,巴音郭楞蒙古自治州,经济开发区,颗粒物(PM10),500,1580,840,127,102,99,,105,98,4,3,6,6,0.1,0.1
2025-04-17T2300,2914A,106.7677,31.8794,巴中市,苏山坪,颗粒物(PM10),77,103,103,44,47,174,,166,166,8,9,10,6,0.4,0.4
2025-04-17T2300,3181A,106.7768,31.8526,巴中市,市五中,颗粒物(PM10),84,117,104,50,44,111,,157,149,17,22,8,7,0.8,0.8
2025-04-17T2300,3183A,106.7418,31.8654,巴中市,圣泉水务公司,颗粒物(PM10),84,117,95,57,44,62,,157,129,64,29,5,5,0.7,0.6
2025-04-17T2300,3616A,106.7616,31.8344,巴中市,市中心医院,颗粒物(PM10),84,118,97,57,48,73,,158,139,37,25,8,8,0.9,0.8
2025-04-17T2300,2235A,122.7911,45.6077,白城市,洮北区环保局,细颗粒物(PM2.5),54,,60,38,49,82,,99,88,9,16,1,4,0.3,0.4
2025-04-17T2300,2236A,122.8738,45.5725,白城市,市环保局,,45,,56,31,49,87,,104,91,4,11,4,6,0.4,0.4
2025-04-17T2300,2231A,126.4219,41.9171,白山市,喜丰,颗粒物(PM10),62,74,76,37,28,69,,131,84,14,35,18,18,1.6,1.5
2025-04-17T2300,2232A,126.4077,41.9419,白山市,环保局,颗粒物(PM10),62,73,55,36,23,44,,138,88,27,19,1,7,1.3,1
2025-04-17T2300,2647A,104.1724,36.5446,白银市,第三小学,颗粒物(PM10),83,115,143,43,53,91,,121,112,16,25,16,47,0.4,0.8
2025-04-17T2300,2648A,104.1465,36.5482,白银市,动力公司,颗粒物(PM10),74,98,122,36,45,103,,40,,10,24,12,18,0.6,0.7
2025-04-17T2300,2512A,106.6103,23.9011,百色市,市监测站,细颗粒物(PM2.5),72,85,109,52,54,103,,143,121,14,16,15,14,0.7,0.7
2025-04-17T2300,2513A,106.6538,23.8859,百色市,市中心血站,细颗粒物(PM2.5),78,83,124,57,60,104,,139,119,12,16,15,14,0.8,0.7
2025-04-17T2300,3406A,106.6085,23.8798,百色市,祈福高中,颗粒物(PM10),73,95,121,52,53,94,,134,112,15,21,14,18,0.8,0.8
2025-04-17T2300,2270A,117.396,32.939,蚌埠市,工人疗养院,颗粒物(PM10),69,87,98,43,40,119,,166,151,12,14,5,6,0.6,0.6
2025-04-17T2300,2271A,117.3605,32.9427,蚌埠市,百货大楼,颗粒物(PM10),73,96,96,47,37,102,,160,140,24,20,8,8,0.6,0.6
2025-04-17T2300,2273A,117.4185,32.8911,蚌埠市,蚌埠学院,颗粒物(PM10),68,85,103,43,37,117,,160,143,11,17,5,7,0.6,0.7
2025-04-17T2300,2274A,117.3533,32.9673,蚌埠市,淮上区政府,颗粒物(PM10),73,95,97,43,39,111,,165,147,20,18,7,7,0.5,0.5
2025-04-17T2300,2275A,117.3145,32.8977,蚌埠市,高新区,颗粒物(PM10),70,90,102,41,41,109,,162,144,16,19,6,7,0.6,0.6
2025-04-17T2300,3715A,117.3092,32.9314,蚌埠市,蚌埠田家炳中学,颗粒物(PM10),79,108,103,42,37,103,,166,147,20,18,14,10,0.5,0.5
2025-04-17T2300,1585A,109.8756,40.6532,包头市,市环境监测站,,24,19,51,11,19,76,,96,88,13,11,7,8,0.3,0.3
2025-04-17T2300,1587A,109.9991,40.5842,包头市,包头八中,,44,44,61,26,23,64,,101,87,19,20,18,11,0.4,0.4
2025-04-17T2300,1588A,109.8538,40.6821,包头市,青山宾馆,,23,19,44,11,17,71,,100,90,15,9,9,10,0.5,0.5
2025-04-17T2300,1589A,109.8642,40.6288,包头市,惠龙物流,,27,27,46,16,17,81,,101,93,11,11,8,8,0.3,0.3
2025-04-17T2300,1590A,110.0377,40.5546,包头市,东河鸿龙湾,,32,32,65,9,34,67,,99,86,12,20,8,8,0.4,0.3
2025-04-17T2300,3283A,109.9154,40.5685,包头市,滨河大厦,,32,25,51,22,26,66,,99,88,16,22,10,11,0.4,0.4
2025-04-17T2300,3419A,109.9447,40.6261,包头市,包头市委党校,,40,40,54,13,15,69,,97,89,19,13,13,7,0.4,0.3
2025-04-17T2300,3683A,109.8331,40.6576,包头市,昆区政府,,24,24,48,12,18,74,,100,90,16,11,7,6,0.4,0.4
2025-04-17T2300,1930A,107.185,34.3063,宝鸡市,庙沟村,颗粒物(PM10),68,86,107,37,43,127,,146,143,21,8,8,7,0.5,0.4
2025-04-17T2300,1931A,107.0708,34.3017,宝鸡市,竹园沟,颗粒物(PM10),71,92,120,40,46,60,,142,115,35,14,7,7,0.4,0.3
2025-04-17T2300,1932A,107.1906,34.3672,宝鸡市,三陆医院,颗粒物(PM10),78,106,127,55,60,99,,144,136,38,26,6,6,0.5,0.4
2025-04-17T2300,1933A,107.1431,34.3547,宝鸡市,监测站,颗粒物(PM10),80,109,143,49,53,86,,145,131,32,21,8,9,0.3,0.3
2025-04-17T2300,1934A,107.1186,34.3739,宝鸡市,技工学校,颗粒物(PM10),74,98,132,46,57,86,,145,131,28,18,10,8,0.5,0.5
2025-04-17T2300,1935A,107.3906,34.3528,宝鸡市,陈仓区环保局家属楼,"颗粒物(PM10),细颗粒物(PM2.5)",85,120,134,63,58,68,,145,121,58,22,8,37,0.5,0.4
2025-04-17T2300,1936A,107.2058,34.3497,宝鸡市,文理学院,细颗粒物(PM2.5),83,110,131,61,62,99,,149,139,29,17,7,7,0.5,0.4
2025-04-17T2300,1937A,107.2386,34.3622,宝鸡市,三迪小学,颗粒物(PM10),102,154,145,53,60,118,,147,143,27,22,6,8,0.4,0.4
2025-04-17T2300,1051A,115.493,38.8632,保定市,游泳馆,颗粒物(PM10),86,122,144,36,71,64,,168,116,32,32,1,10,0.3,0.5
2025-04-17T2300,1052A,115.5213,38.8959,保定市,华电二区,细颗粒物(PM2.5),75,83,114,55,76,66,,173,133,36,31,1,4,0.4,0.7
2025-04-17T2300,1053A,115.4713,38.9108,保定市,接待中心,颗粒物(PM10),70,90,124,27,78,69,,166,132,27,29,1,5,0.4,0.8
2025-04-17T2300,1054A,115.4612,38.8416,保定市,地表水厂,颗粒物(PM10),89,127,145,34,63,77,,171,136,37,32,3,7,0.4,0.7
2025-04-17T2300,3581A,115.31981,38.95208,保定市,满城区生态环境分局,颗粒物(PM10),68,85,131,19,67,83,,169,136,15,28,8,12,0.3,0.7
2025-04-17T2300,3582A,115.47694,38.76408,保定市,清苑区第二中学,颗粒物(PM10),93,135,151,41,71,78,,158,119,38,33,6,9,0.4,0.7
2025-04-17T2300,3583A,115.62909,39.02311,保定市,徐水物探局,颗粒物(PM10),60,69,142,7,56,79,,173,137,18,29,2,6,0.1,0.6
2025-04-17T2300,4004A,115.4202,38.8656,保定市,双鹰农机,颗粒物(PM10),71,92,126,48,59,75,,165,127,28,34,4,8,0.2,0.6
2025-04-17T2300,4034A,115.5150,38.8590,保定市,植保所站,颗粒物(PM10),80,109,134,56,71,74,,162,127,28,33,1,4,0.6,1.3
2025-04-17T2300,2594A,99.1678,25.1081,保山市,市环境监测站,,28,25,24,19,16,81,,116,104,7,7,8,6,0.4,0.4
2025-04-17T2300,2595A,99.1711,25.1328,保山市,市环保局,,30,28,27,21,12,89,,126,112,5,6,6,6,0.5,0.4
2025-04-17T2300,1867A,109.1436,21.4086,北海市,海滩公园,颗粒物(PM10),94,138,159,32,35,84,,132,102,11,13,5,6,0.7,0.6
2025-04-17T2300,1868A,109.0981,21.4661,北海市,新市环保局,颗粒物(PM10),89,128,136,29,37,82,,124,102,11,13,3,4,0.6,0.5
2025-04-17T2300,1869A,109.1778,21.5233,北海市,北海工业园,颗粒物(PM10),86,122,146,42,45,72,,125,109,13,10,8,8,0.9,0.7
2025-04-17T2300,3400A,109.1911,21.4415,北海市,龙潭自来水厂,颗粒物(PM10),81,111,134,39,46,79,,127,112,10,8,6,6,0.4,0.4
2025-04-17T2300,1001A,116.3621,39.8784,北京市,万寿西宫,,41,41,68,13,32,90,,124,107,12,19,6,8,0.4,0.6
2025-04-17T2300,1003A,116.4174,39.9289,北京市,东四,,35,35,70,14,34,87,,121,103,10,17,6,8,0.4,0.7
2025-04-17T2300,1004A,116.4072,39.8863,北京市,天坛,,40,40,69,15,33,83,,113,99,14,20,2,3,0.5,0.8
2025-04-17T2300,1005A,116.462,39.9365,北京市,农展馆,,36,36,67,13,34,92,,119,107,11,20,6,8,0.5,0.8
2025-04-17T2300,1006A,116.3392,39.9295,北京市,官园,,41,41,73,16,33,77,,110,92,4,12,5,7,0.4,0.6
2025-04-17T2300,1007A,116.2878,39.9611,北京市,海淀万柳,,36,36,69,13,35,89,,115,104,15,26,4,5,0.4,0.7
2025-04-17T2300,1008A,116.6636,40.135,北京市,顺义新城,,30,24,76,11,36,95,,128,108,10,20,5,8,0.2,0.6
2025-04-17T2300,1009A,116.6275,40.3275,北京市,怀柔镇,,25,21,72,10,39,80,,114,94,10,16,2,5,0.3,0.7
2025-04-17T2300,1010A,116.2296,40.217,北京市,昌平镇,,29,19,72,9,34,90,,104,99,21,23,3,3,0.1,0.6
2025-04-17T2300,1011A,116.3966,39.9821,北京市,奥体中心,,40,40,67,16,37,83,,110,98,16,24,3,4,0.4,0.7
2025-04-17T2300,3281A,115.9718,40.4529,北京市,延庆夏都,,30,16,75,9,38,93,,113,105,7,15,2,4,0.3,0.5
2025-04-17T2300,3418A,116.8336,40.4095,北京市,密云新城,,28,15,73,8,39,88,,115,98,5,15,4,8,0.4,0.7
2025-04-17T2300,3671A,116.088,39.9726,北京市,门头沟三家店,颗粒物(PM10),60,70,102,16,42,88,,105,98,10,30,2,3,0.2,0.5
2025-04-17T2300,3672A,116.1541,39.8204,北京市,丰台云岗,,30,30,72,12,37,90,,116,105,10,25,4,5,0.3,0.5
2025-04-17T2300,3673A,116.6804,39.9081,北京市,通州东关,,30,30,77,13,39,88,,114,101,11,21,4,7,0.3,0.6
2025-04-17T2300,3674A,115.9577,39.7603,北京市,房山燕山,,40,40,98,12,42,85,,113,102,6,16,4,5,0.3,0.6
2025-04-17T2300,3675A,116.4672,39.7733,北京市,大兴旧宫,,41,41,100,13,36,90,,115,101,8,20,3,3,0.2,0.6
2025-04-17T2300,3694A,115.986,40.4563,北京市,延庆石河营,,29,17,73,8,37,90,,108,101,6,15,2,3,0.3,0.6
2025-04-17T2300,3695A,116.6151,40.3053,北京市,怀柔新城,,25,20,69,9,38,78,,111,94,9,14,3,4,0.5,0.9
2025-04-17T2300,3696A,116.2545,39.8768,北京市,丰台小屯,,47,47,78,17,31,75,,99,89,14,21,1,3,0.2,0.5
2025-04-17T2300,3697A,116.84,40.3844,北京市,密云镇,,27,16,73,8,38,85,,111,96,10,18,5,8,0.1,0.5
2025-04-17T2300,4182A,116.1942,39.9158,北京市,八角北路9号,,47,47,76,16,34,56,,116,96,8,28,4,6,0.2,0.5
2025-04-17T2300,4194A,117.0790,40.1518,北京市,洳河巡河路,,31,13,72,3,46,97,,123,107,1,15,4,7,0.3,0.6
2025-04-17T2300,1761A,123.8275,41.3064,本溪市,大峪,细颗粒物(PM2.5),82,104,99,60,63,69,,124,60,31,31,10,7,1.4,1.1
2025-04-17T2300,1762A,123.7567,41.3325,本溪市,溪湖,细颗粒物(PM2.5),94,114,85,70,48,60,,124,72,38,26,9,10,1.3,1.3
2025-04-17T2300,1763A,123.7169,41.3094,本溪市,彩屯,细颗粒物(PM2.5),98,108,92,73,50,79,,131,74,22,35,12,20,1.1,2.1
2025-04-17T2300,1764A,123.7669,41.2864,本溪市,东明,细颗粒物(PM2.5),70,80,67,51,30,64,,138,81,28,20,10,9,1.6,1.1
2025-04-17T2300,1765A,123.7992,41.2664,本溪市,新立屯,细颗粒物(PM2.5),133,,62,101,50,74,,144,80,30,27,9,9,1.4,0.8
2025-04-17T2300,1766A,123.8142,41.3472,本溪市,威宁,细颗粒物(PM2.5),100,122,99,75,44,74,,124,70,15,20,5,6,1.2,1
2025-04-17T2300,2587A,105.2864,27.3125,毕节市,八中,,48,47,37,33,22,54,,128,99,18,11,5,5,0.6,0.5
2025-04-17T2300,2588A,105.31,27.2944,毕节市,师专,颗粒物(PM10),56,62,44,34,22,102,,135,121,28,13,8,7,0.5,0.4
2025-04-17T2300,4263A,105.3688,27.3598,毕节市,工业大道,,49,49,38,28,24,68,,129,98,24,16,8,6,0.8,0.7
2025-04-17T2300,1629A,118.0018,37.3617,滨州市,第二水厂,颗粒物(PM10),107,163,182,68,61,74,,138,119,46,30,14,16,1.0,1
2025-04-17T2300,1630A,117.9776,37.393,滨州市,北中新校,颗粒物(PM10),96,141,154,70,65,88,,149,124,49,34,16,18,1.2,1.1
2025-04-17T2300,3514A,117.9378,37.3956,滨州市,中海酒店,细颗粒物(PM2.5),94,112,137,70,72,97,,146,131,34,26,11,15,1.0,0.9
2025-04-17T2300,3515A,117.9378,37.3553,滨州市,开发区一中,颗粒物(PM10),97,144,180,70,66,87,,137,126,45,32,10,16,0.7,0.6
2025-04-17T2300,3516A,118.0917,37.694,滨州市,金海六路,"颗粒物(PM10),细颗粒物(PM2.5)",89,127,137,66,60,86,,163,147,36,29,13,17,0.7,0.9
2025-04-17T2300,4028A,117.9956,37.3753,滨州市,滨州市西街道办事处,细颗粒物(PM2.5),113,139,167,85,74,94,,155,137,37,29,10,13,0.9,0.8
2025-04-17T2300,2311A,115.8072,33.8399,亳州市,污水处理厂,颗粒物(PM10),78,105,107,40,37,132,,143,132,15,13,6,7,0.5,0.4
2025-04-17T2300,2312A,115.7789,33.8518,亳州市,三国揽胜宫,颗粒物(PM10),86,121,113,47,39,147,,148,144,13,12,9,7,0.6,0.4
2025-04-17T2300,3332A,115.7633,33.8034,亳州市,亳州学院,颗粒物(PM10),82,113,104,42,37,134,,148,144,13,11,5,7,0.5,0.5
2025-04-17T2300,2693A,82.0485,44.8556,博尔塔拉蒙古自治州,市党校,,33,32,17,19,13,74,,101,98,65,29,3,3,0.3,0.2
2025-04-17T2300,2694A,82.0806,44.8969,博尔塔拉蒙古自治州,市环保局,颗粒物(PM10),53,56,29,13,11,67,,102,96,28,16,1,2,0.5,0.6
2025-04-17T2300,1071A,116.8842,38.2991,沧州市,沧县城建局,细颗粒物(PM2.5),100,146,109,75,57,71,,146,123,53,29,7,6,0.8,0.6
2025-04-17T2300,1072A,116.8584,38.3254,沧州市,电视转播站,颗粒物(PM10),100,150,112,66,59,70,,148,126,53,29,10,7,0.7,0.5
2025-04-17T2300,1073A,116.8709,38.3228,沧州市,市环保局,颗粒物(PM10),97,143,101,69,57,73,,151,127,48,26,11,10,0.8,0.6
2025-04-17T2300,3324A,116.8136,38.3004,沧州市,河北水利电力学院,颗粒物(PM10),97,144,111,48,46,93,,161,143,50,30,10,12,0.5,0.5
2025-04-17T2300,2622A,97.1806,31.1273,昌都市,昌都监测站,,30,27,11,21,8,52,,115,98,32,6,2,2,0.7,0.4
2025-04-17T2300,3719A,97.1714,31.1406,昌都市,昌都会议中心,,27,16,11,16,10,85,,113,104,6,5,2,2,0.3,0.2
2025-04-17T2300,2690A,88.1236,43.8886,昌吉回族自治州,天山天池,,22,,3,10,3,68,,91,87,4,4,3,4,0.5,0.5
2025-04-17T2300,2692A,87.2717,44.0297,昌吉回族自治州,新区政务中心,,26,26,10,3,3,78,,112,107,31,6,5,5,0.4,0.3
2025-04-17T2300,3613A,87.3095,44.0142,昌吉回族自治州,亚心广场,,29,29,10,12,2,84,,107,104,27,9,7,6,0.4,0.2
2025-04-17T2300,1119A,125.3325,43.9166,长春市,食品厂,细颗粒物(PM2.5),64,,68,46,52,78,,115,105,13,30,7,10,0.4,0.6
2025-04-17T2300,1120A,125.2863,43.9027,长春市,客车厂,细颗粒物(PM2.5),77,,53,56,47,77,,119,106,14,31,5,8,0.4,0.6
2025-04-17T2300,1121A,125.2841,43.8463,长春市,邮电学院,细颗粒物(PM2.5),74,,52,54,43,88,,134,119,12,20,6,8,0.5,0.4
2025-04-17T2300,1122A,125.3716,43.8772,长春市,劳动公园,细颗粒物(PM2.5),62,,54,44,42,83,,132,118,10,23,6,8,0.6,0.7
2025-04-17T2300,1123A,125.3297,43.8805,长春市,园林处,细颗粒物(PM2.5),58,41,51,41,41,78,,124,110,10,22,6,9,0.4,0.5
2025-04-17T2300,1124A,125.4605,43.79,长春市,净月潭,细颗粒物(PM2.5),67,57,50,48,36,89,,131,114,15,14,7,8,0.5,0.4
2025-04-17T2300,1126A,125.3863,43.8447,长春市,经开区环卫处,细颗粒物(PM2.5),54,56,54,38,40,84,,125,114,12,23,7,8,0.4,0.5
2025-04-17T2300,1127A,125.245,43.7783,长春市,高新区管委会,颗粒物(PM10),51,51,50,33,45,83,,126,112,15,22,7,9,0.5,0.5
2025-04-17T2300,1128A,125.1761,43.8325,长春市,岱山公园,细颗粒物(PM2.5),70,,49,51,50,86,,133,117,13,26,5,8,0.4,0.5
2025-04-17T2300,1335A,113.0833,28.2325,长沙市,经开区环保局,颗粒物(PM10),78,105,99,37,45,93,,154,130,24,19,9,8,0.5,0.5
2025-04-17T2300,1336A,112.8872,28.2189,长沙市,高开区环保局,颗粒物(PM10),80,110,99,42,45,98,,168,148,20,12,9,8,0.7,0.8
2025-04-17T2300,1337A,113.0792,28.2053,长沙市,马坡岭,颗粒物(PM10),80,109,98,45,45,93,,148,127,17,16,6,6,0.5,0.6
2025-04-17T2300,1338A,112.9394,28.19,长沙市,湖南师范大学,颗粒物(PM10),82,113,99,59,43,62,,154,128,21,15,5,10,0.6,0.6
2025-04-17T2300,1339A,113.0178,28.1322,长沙市,雨花区环保局,,,115,98,49,44,,,151,137,32,15,9,7,0.4,0.4
2025-04-17T2300,1340A,112.9792,28.2597,长沙市,伍家岭,颗粒物(PM10),87,124,112,40,40,83,,155,130,28,22,4,5,0.4,0.5
2025-04-17T2300,1341A,113.0014,28.1944,长沙市,火车新站,颗粒物(PM10),83,116,103,44,42,80,,154,129,35,21,9,9,0.6,0.7
2025-04-17T2300,1342A,112.9844,28.1178,长沙市,天心区环保局,颗粒物(PM10),84,117,98,50,46,78,,154,130,29,17,5,4,0.7,0.6
2025-04-17T2300,1343A,112.8908,28.1308,长沙市,湖南中医药大学,颗粒物(PM10),81,112,100,56,44,63,,158,133,44,19,4,4,0.7,0.7
2025-04-17T2300,1344A,112.9581,28.3611,长沙市,沙坪,颗粒物(PM10),76,102,89,47,39,81,,150,126,20,18,8,8,0.5,0.6
2025-04-17T2300,1727A,113.1147,36.1547,长治市,清华站,颗粒物(PM10),110,170,183,66,67,111,,118,112,16,19,7,7,0.5,0.4
2025-04-17T2300,1730A,113.0886,36.2125,长治市,审计局,颗粒物(PM10),109,167,181,75,85,106,,122,113,24,24,12,12,0.4,0.3
2025-04-17T2300,1731A,113.0844,36.1856,长治市,长治八中,颗粒物(PM10),111,172,192,68,81,120,,121,115,16,24,11,12,0.6,0.5
2025-04-17T2300,2845A,113.1569,36.1911,长治市,德盛苑,颗粒物(PM10),99,147,171,63,58,120,,120,118,10,12,6,7,0.5,0.4
2025-04-17T2300,3568A,113.06,36.0464,长治市,向阳小学,颗粒物(PM10),111,172,180,61,64,130,,124,124,17,18,14,13,0.4,0.2
2025-04-17T2300,3569A,112.8792,36.3144,长治市,屯留一中,颗粒物(PM10),119,187,149,76,60,95,,120,104,28,26,13,9,0.6,0.4
2025-04-17T2300,4189A,113.1131,36.19948,长治市,英华南巷50号,颗粒物(PM10),113,175,176,75,76,79,,109,105,40,27,6,7,0.6,0.6
2025-04-17T2300,4190A,113.2367,36.3344,长治市,学府街1号,颗粒物(PM10),139,228,207,104,98,117,,130,121,17,30,9,8,0.7,0.7
2025-04-17T2300,1854A,111.6975,28.9703,常德市,市二中,细颗粒物(PM2.5),79,97,83,58,49,122,,145,139,14,18,12,7,0.8,0.8
2025-04-17T2300,3138A,111.7153,29.0289,常德市,武陵区永安,颗粒物(PM10),80,110,100,51,47,128,,140,138,14,21,15,7,0.6,0.7
2025-04-17T2300,3139A,111.6892,28.9881,常德市,鼎城区玉霞,颗粒物(PM10),86,122,86,58,41,84,,146,134,61,21,18,6,0.9,0.8
2025-04-17T2300,3140A,111.6625,29.0531,常德市,武陵区长庚,细颗粒物(PM2.5),74,96,92,54,43,126,,151,146,22,19,15,9,0.8,0.7
2025-04-17T2300,1196A,119.9633,31.762,常州市,市监测站,颗粒物(PM10),70,90,82,34,32,79,,154,125,32,38,12,14,0.7,0.7
2025-04-17T2300,1200A,119.9468,31.7069,常州市,武进监测站,颗粒物(PM10),70,89,69,31,30,79,,148,122,30,29,24,20,0.5,0.5
2025-04-17T2300,1201A,119.9255,31.9087,常州市,安家,颗粒物(PM10),87,124,93,38,31,39,,140,104,75,41,13,17,0.7,0.7
2025-04-17T2300,3002A,119.9805,31.8174,常州市,行政中心,颗粒物(PM10),61,72,64,36,29,77,,144,122,26,21,18,20,0.4,0.5
2025-04-17T2300,3003A,120.0522,31.7748,常州市,经开区,颗粒物(PM10),66,81,80,29,30,83,,154,125,28,33,8,14,0.6,0.6
2025-04-17T2300,3010A,119.9025,31.7964,常州市,钟楼,颗粒物(PM10),73,95,77,30,29,70,,138,117,31,29,19,12,0.5,0.5
2025-04-17T2300,3429A,119.8598,31.7066,常州市,武进经发区,颗粒物(PM10),72,93,85,40,38,61,,145,122,36,29,12,14,0.9,0.9
2025-04-17T2300,3430A,119.5826,31.7245,常州市,金坛城区,颗粒物(PM10),69,87,80,33,32,106,,147,132,19,18,7,12,0.6,0.6
2025-04-17T2300,2220A,120.4318,41.5881,朝阳市,西梁,,40,40,85,23,57,29,,92,68,40,37,8,14,0.8,0.8
2025-04-17T2300,2221A,120.4521,41.5646,朝阳市,河畔小区,,20,17,68,14,52,62,,97,79,12,30,9,14,0.6,0.9
2025-04-17T2300,2222A,120.4176,41.5648,朝阳市,八里堡,,40,40,85,20,44,32,,98,73,43,33,10,13,0.9,0.9
2025-04-17T2300,2223A,120.3806,41.5969,朝阳市,农业园区,,33,33,74,19,49,27,,97,62,46,29,8,10,0.7,0.9
2025-04-17T2300,1705A,116.6367,23.6719,潮州市,西园路,颗粒物(PM10),64,78,79,22,29,57,,117,82,17,13,8,5,0.5,0.5
2025-04-17T2300,3026A,116.6183,23.6608,潮州市,市政府,颗粒物(PM10),62,73,82,27,31,54,,107,76,22,22,10,8,0.6,0.5
2025-04-17T2300,4036A,116.6461,23.6761,潮州市,金山,颗粒物(PM10),59,68,70,28,29,58,,120,82,22,16,13,8,0.6,0.6
2025-04-17T2300,2472A,113.0073,25.9061,郴州市,马头岭,颗粒物(PM10),67,83,115,23,24,56,,126,84,18,12,11,9,1.0,0.8
2025-04-17T2300,2473A,113.0116,25.8226,郴州市,市职中,颗粒物(PM10),71,91,108,34,37,81,,147,101,18,12,10,4,0.6,0.5
2025-04-17T2300,2475A,113.0383,25.8071,郴州市,市审计局,颗粒物(PM10),63,75,103,28,35,102,,156,112,12,12,4,5,0.4,0.4
2025-04-17T2300,2476A,113.0348,25.7759,郴州市,市环保局,颗粒物(PM10),71,92,117,34,39,107,,159,113,8,10,4,4,0.4,0.4
2025-04-17T2300,4252A,113.0138,25.8011,郴州市,好美居路49号,颗粒物(PM10),59,67,93,35,40,99,,151,106,10,12,12,8,0.5,0.5
2025-04-17T2300,1431A,103.9728,30.7236,成都市,金泉两河,颗粒物(PM10),56,61,88,38,31,33,,190,132,64,21,3,3,1.0,0.8
2025-04-17T2300,1432A,104.176,30.6872,成都市,十里店,颗粒物(PM10),71,92,90,43,38,123,,185,154,35,22,4,4,0.9,0.8
2025-04-17T2300,1433A,104.079,30.5706,成都市,三瓦窑,颗粒物(PM10),73,96,84,46,39,113,,174,139,42,30,5,5,0.7,0.7
2025-04-17T2300,1434A,104.1114,30.63,成都市,沙河铺,颗粒物(PM10),67,83,92,30,38,57,,169,122,41,23,6,6,1.0,0.8
2025-04-17T2300,1437A,104.0786,30.6531,成都市,君平街,颗粒物(PM10),65,79,85,42,42,98,,153,124,44,29,7,7,0.8,0.7
2025-04-17T2300,2880A,104.0239,30.65639,成都市,大石西路,颗粒物(PM10),68,85,90,45,43,36,,184,130,76,30,4,4,0.6,0.5
2025-04-17T2300,3136A,104.2725,30.5589,成都市,龙泉驿区区政府,颗粒物(PM10),64,78,77,31,30,153,,164,154,17,20,5,4,0.6,0.7
2025-04-17T2300,3357A,104.0106,30.6931,成都市,金博路,颗粒物(PM10),56,62,76,30,30,28,,137,92,63,27,7,8,0.9,0.7
2025-04-17T2300,3359A,104.0578,30.5225,成都市,华阳,细颗粒物(PM2.5),70,70,80,51,46,90,,176,138,48,26,6,7,0.9,0.8
2025-04-17T2300,3488A,104.3853,30.7453,成都市,青白江技师分院,"颗粒物(PM10),臭氧1小时",70,90,90,42,40,176,,207,186,25,31,8,8,0.4,0.4
2025-04-17T2300,3489A,104.0789,30.4072,成都市,科学城,颗粒物(PM10),55,60,86,31,41,118,,160,143,17,14,5,5,0.4,0.4
2025-04-17T2300,4011A,103.8506,30.6947,成都市,光华大道三段,细颗粒物(PM2.5),68,77,87,49,39,53,,193,144,65,26,2,2,1.0,0.8
2025-04-17T2300,4224A,104.2433,30.5353,成都市,鲸龙路1057号,颗粒物(PM10),70,89,92,38,39,166,,176,168,19,22,6,5,0.6,0.6
2025-04-17T2300,1062A,117.9531,40.9081,承德市,铁路,,38,38,65,10,30,60,,103,88,20,21,6,9,0.0,0.4
2025-04-17T2300,1063A,117.9392,40.9763,承德市,中国银行,,30,26,62,21,26,53,,104,89,21,17,2,3,0.2,0.5
2025-04-17T2300,1064A,117.9503,40.928,承德市,开发区,,28,27,54,19,36,57,,106,92,24,20,4,8,0.2,0.5
2025-04-17T2300,1065A,117.8051,40.9655,承德市,文化中心,,39,39,76,11,29,54,,106,90,17,19,3,6,0.2,0.5
2025-04-17T2300,1066A,117.9268,41.0026,承德市,离宫,,49,,57,34,39,50,,72,63,6,13,28,28,0.2,0.5
2025-04-17T2300,2314A,117.47,30.6618,池州市,池州学院,颗粒物(PM10),60,70,74,40,37,122,,143,138,12,14,5,19,0.4,0.5
2025-04-17T2300,3237A,117.4918,30.6617,池州市,展览馆,颗粒物(PM10),63,75,76,37,31,128,,143,139,9,13,5,13,0.4,0.5
2025-04-17T2300,3333A,117.5627,30.695,池州市,第八中学,颗粒物(PM10),59,67,74,36,33,115,,143,134,11,14,5,13,0.5,0.5
2025-04-17T2300,3334A,117.5038,30.6243,池州市,第十二中学,颗粒物(PM10),62,74,74,43,35,83,,138,120,27,16,5,6,0.6,0.7
2025-04-17T2300,1744A,118.9233,42.2816,赤峰市,松山一中,,27,20,55,13,31,84,,92,82,12,21,9,12,0.4,0.6
2025-04-17T2300,1745A,118.9576,42.2728,赤峰市,哈达街,,29,,55,20,42,85,,96,84,10,26,9,14,0.4,0.7
2025-04-17T2300,1746A,118.8788,42.2554,赤峰市,天义路,,24,11,42,6,36,74,,96,82,12,21,7,9,0.4,0.6
2025-04-17T2300,3058A,119.2658,42.0353,赤峰市,银河街,,33,33,71,19,38,61,,85,70,10,17,16,20,0.3,0.6
2025-04-17T2300,3286A,118.9359,42.3147,赤峰市,桥北物流园区,,26,23,55,3,38,83,,88,79,6,19,6,10,0.5,0.7
2025-04-17T2300,2521A,107.3476,22.4136,崇左市,市环保局江州分局,颗粒物(PM10),58,66,101,37,41,92,,114,110,6,10,5,8,0.6,0.5
2025-04-17T2300,4256A,107.3750,22.3736,崇左市,石景林东路7号,颗粒物(PM10),51,52,92,34,42,101,,118,116,8,10,4,7,0.7,0.6
2025-04-17T2300,2298A,118.3093,32.3153,滁州市,老年大学,颗粒物(PM10),60,69,74,37,36,138,,163,155,9,9,10,7,0.3,0.3
2025-04-17T2300,2299A,118.3244,32.2786,滁州市,人大宾馆,"颗粒物(PM10),细颗粒物(PM2.5)",58,65,71,41,41,132,,164,152,13,15,10,11,0.3,0.3
2025-04-17T2300,3207A,118.3118,32.3038,滁州市,市政府原办公楼,颗粒物(PM10),60,69,71,42,37,134,,161,151,3,4,8,7,0.3,0.3
2025-04-17T2300,3331A,118.3267,32.2634,滁州市,图书馆,颗粒物(PM10),63,75,81,35,39,130,,158,148,9,9,10,11,0.4,0.4
2025-04-17T2300,2605A,101.5482,25.0441,楚雄彝族自治州,州环境监测站,,39,,17,14,15,123,,134,134,9,7,7,8,0.5,0.4
2025-04-17T2300,2606A,101.538,25.0492,楚雄彝族自治州,市经济开发区,,37,33,18,17,14,118,,130,128,12,8,8,6,0.6,0.5
2025-04-17T2300,2548A,107.5277,31.2827,达州市,达州职业技术学院,颗粒物(PM10),83,115,118,53,47,56,,158,109,42,37,6,8,0.9,1
2025-04-17T2300,2549A,107.5086,31.2186,达州市,市环境监测站,颗粒物(PM10),88,125,121,58,47,52,,165,122,62,44,6,8,0.5,0.7
2025-04-17T2300,2550A,107.4988,31.2132,达州市,凤凰小区,颗粒物(PM10),84,117,120,53,49,57,,165,113,66,48,9,12,0.7,0.8
2025-04-17T2300,2551A,107.5082,31.1986,达州市,达县机关宾馆,颗粒物(PM10),89,127,124,61,46,2,,152,76,101,58,6,9,0.8,0.8
2025-04-17T2300,2552A,107.4644,31.2124,达州市,市政中心,颗粒物(PM10),87,124,123,61,47,19,,162,98,92,50,4,6,1.0,0.7
2025-04-17T2300,2614A,100.1542,25.7054,大理白族自治州,大理市环境监测站,,43,16,20,16,20,137,,132,132,6,7,7,7,0.5,0.5
2025-04-17T2300,2615A,100.2171,25.5811,大理白族自治州,大理古城,,30,27,21,20,19,96,,118,100,14,11,7,7,0.5,0.5
2025-04-17T2300,1109A,121.612,38.9741,大连市,甘井子,颗粒物(PM10),71,92,69,46,32,97,,130,107,34,30,8,7,0.4,0.5
2025-04-17T2300,1110A,121.565,38.9511,大连市,周水子,颗粒物(PM10),73,96,73,46,37,86,,124,94,33,26,7,6,0.5,0.5
2025-04-17T2300,1111A,121.5637,38.8845,大连市,星海三站,颗粒物(PM10),75,100,74,54,42,100,,138,118,28,23,7,7,0.4,0.4
2025-04-17T2300,1112A,121.6302,38.9117,大连市,青泥洼桥,颗粒物(PM10),78,106,78,53,39,94,,149,119,35,25,10,9,0.7,0.7
2025-04-17T2300,1113A,121.6251,38.8638,大连市,傅家庄,颗粒物(PM10),71,91,67,39,33,98,,146,117,24,22,8,8,0.3,0.3
2025-04-17T2300,1114A,121.5213,38.8661,大连市,七贤岭,颗粒物(PM10),82,114,84,45,41,113,,142,117,22,24,6,6,0.7,0.7
2025-04-17T2300,1115A,121.2529,38.8061,大连市,旅顺,细颗粒物(PM2.5),68,76,61,49,41,78,,124,99,24,20,8,7,0.6,0.6
2025-04-17T2300,1116A,121.7485,39.1311,大连市,金州,细颗粒物(PM2.5),83,108,61,61,36,108,,134,123,21,15,11,7,0.5,0.5
2025-04-17T2300,1117A,121.7811,39.0496,大连市,开发区,颗粒物(PM10),75,100,74,50,34,84,,130,113,38,17,11,8,0.7,0.7
2025-04-17T2300,1118A,121.9762,39.0631,大连市,双D港,细颗粒物(PM2.5),68,72,56,49,28,128,,144,128,13,8,7,8,0.5,0.4
2025-04-17T2300,1789A,124.81117,46.03138,大庆市,大同区,细颗粒物(PM2.5),54,,62,38,51,77,,112,92,9,15,4,7,0.5,0.5
2025-04-17T2300,1790A,125.129,46.533,大庆市,龙凤区,颗粒物(PM10),53,56,58,35,30,83,,121,99,11,17,5,6,0.4,0.5
2025-04-17T2300,1791A,124.902,46.408,大庆市,红岗区,细颗粒物(PM2.5),53,43,48,37,36,91,,118,104,8,14,7,11,0.4,0.4
2025-04-17T2300,1792A,125.153,46.586,大庆市,萨尔图区,,44,44,54,29,38,79,,107,92,11,17,8,9,0.3,0.4
2025-04-17T2300,1793A,124.9042,46.6215,大庆市,让胡路区,细颗粒物(PM2.5),60,,49,43,38,90,,103,88,10,23,5,7,0.3,0.4
2025-04-17T2300,3481A,125.141,46.634,大庆市,萨区政府监测点,,42,42,54,27,28,83,,105,94,8,13,5,7,0.4,0.4
2025-04-17T2300,1723A,113.2994,40.0758,大同市,云冈宾馆,,49,49,316,12,48,72,,112,98,22,14,9,9,0.5,0.7
2025-04-17T2300,1724A,113.3444,40.0917,大同市,大同大学,,38,26,358,26,78,74,,106,91,13,12,13,14,0.4,0.5
2025-04-17T2300,1725A,113.2661,40.1269,大同市,安家小村,,50,,320,35,60,75,,106,93,9,8,11,11,0.4,0.5
2025-04-17T2300,1726A,113.2711,40.0844,大同市,教育学院,,25,24,333,13,54,79,,109,97,14,12,9,10,0.5,0.5
2025-04-17T2300,3282A,113.3397,40.0597,大同市,大同市卫生学校,,26,25,338,18,52,80,,108,96,12,13,6,9,0.5,0.7
2025-04-17T2300,3565A,113.1367,40.1122,大同市,云冈站,,26,21,263,10,57,81,,106,95,7,14,10,12,0.5,0.6
2025-04-17T2300,3566A,113.1186,40.2556,大同市,图书馆,,25,25,352,9,66,70,,94,85,7,8,9,10,0.7,0.8
2025-04-17T2300,3567A,113.5931,40.0461,大同市,区一中,,29,21,324,20,54,90,,112,101,7,12,10,12,0.5,0.6
2025-04-17T2300,4199A,113.2798,40.0997,大同市,魏都大道141号,,33,33,359,13,50,82,,112,99,15,16,13,13,0.9,0.9
2025-04-17T2300,2269A,124.1069,50.4097,大兴安岭地区,科技局,,30,23,25,21,18,80,,82,81,5,9,3,3,0.3,0.3
2025-04-17T2300,3663A,124.1164,50.4278,大兴安岭地区,红旗社区,,25,,15,14,12,80,,86,83,10,12,18,7,0.3,0.4
2025-04-17T2300,1600A,124.3303,40.0625,丹东市,江湾东路,颗粒物(PM10),69,87,85,43,47,103,,128,114,16,26,8,12,0.4,0.9
2025-04-17T2300,1601A,124.4256,40.1503,丹东市,临江后街,颗粒物(PM10),64,77,79,36,39,86,,121,105,17,24,8,7,0.6,0.8
2025-04-17T2300,1602A,124.3933,40.1461,丹东市,元宝山,颗粒物(PM10),62,73,80,35,33,101,,119,112,11,21,7,9,0.4,0.6
2025-04-17T2300,1603A,124.3633,40.1092,丹东市,民主桥,颗粒物(PM10),68,86,89,31,36,110,,122,105,12,36,9,11,0.6,0.9
2025-04-17T2300,3541A,109.5726,19.5167,儋州市,第一中学子站,颗粒物(PM10),82,113,125,42,47,101,,146,140,14,10,5,5,0.7,0.6
2025-04-17T2300,3542A,109.5567,19.5187,儋州市,东坡学校子站,颗粒物(PM10),85,119,120,43,44,100,,140,134,12,10,8,6,0.8,0.7
2025-04-17T2300,2616A,98.5842,24.428,德宏傣族景颇族自治州,德宏州监测站,,50,50,27,35,19,50,,120,101,28,12,7,7,0.7,0.4
2025-04-17T2300,3677A,98.5881,24.4368,德宏傣族景颇族自治州,芒市人民政府综合楼,颗粒物(PM10),57,64,37,26,19,73,,137,118,16,11,7,7,0.6,0.5
2025-04-17T2300,1901A,104.4239,31.1208,德阳市,东山公园,颗粒物(PM10),63,76,94,37,43,147,,192,181,17,18,7,5,0.6,0.6
2025-04-17T2300,1904A,104.3553,31.1091,德阳市,耐火材料厂,颗粒物(PM10),74,97,99,50,44,109,,197,163,38,27,9,7,0.7,0.6
2025-04-17T2300,3639A,104.4019,31.1244,德阳市,市教育局,颗粒物(PM10),67,83,93,44,45,33,,200,158,101,28,7,7,0.8,0.6
2025-04-17T2300,1622A,116.3032,37.4674,德州市,儿童乐园,颗粒物(PM10),93,136,195,53,77,88,,160,143,38,26,8,10,0.7,0.8
2025-04-17T2300,1624A,116.2991,37.4451,德州市,监理站,,,,201,34,66,105,,162,142,22,21,12,13,0.6,0.6
2025-04-17T2300,3371A,116.3728,37.4403,德州市,开发区人民医院,颗粒物(PM10),85,119,196,39,57,73,,147,118,43,25,10,11,0.7,0.8
2025-04-17T2300,3372A,116.3572,37.4094,德州市,太阳城中学,颗粒物(PM10),81,112,197,36,60,86,,155,129,36,28,8,8,0.5,0.5
2025-04-17T2300,3511A,116.5652,37.3319,德州市,陵城艺术中心,颗粒物(PM10),80,110,174,41,59,80,,137,116,24,25,9,8,0.7,0.7
2025-04-17T2300,2621A,99.7056,27.8317,迪庆藏族自治州,迪庆州站,,36,36,29,19,16,87,,118,107,16,11,10,10,0.6,0.4
2025-04-17T2300,3180A,99.7136,27.8094,迪庆藏族自治州,质量技术监督局,,32,18,24,7,10,102,,121,111,8,11,9,9,0.3,0.4
2025-04-17T2300,4257A,104.6092,35.5962,定西市,将台街,颗粒物(PM10),71,91,95,38,36,102,,126,119,13,19,6,6,0.1,0.1
2025-04-17T2300,4309A,104.6159,35.5701,定西市,正龙路62号,颗粒物(PM10),75,99,102,36,35,105,,127,119,8,9,10,10,0.2,0.2
2025-04-17T2300,1389A,113.7547,23.0494,东莞市,莞城梨川,颗粒物(PM10),70,90,88,20,25,75,,114,92,12,16,4,4,0.5,0.5
2025-04-17T2300,1390A,113.7944,23.0128,东莞市,东城石井,颗粒物(PM10),65,80,76,22,25,79,,122,95,14,20,5,5,0.4,0.4
2025-04-17T2300,1391A,113.7383,22.9658,东莞市,南城西平,颗粒物(PM10),65,80,77,12,28,82,,111,94,10,22,4,5,0.4,0.4
2025-04-17T2300,3319A,113.7338,23.0381,东莞市,万江金泰,颗粒物(PM10),64,77,80,18,22,76,,119,97,13,17,1,3,0.6,0.5
2025-04-17T2300,3626A,113.7533,23.0202,东莞市,南城元岭,颗粒物(PM10),65,79,81,18,24,74,,111,90,9,14,6,6,0.7,0.7
2025-04-17T2300,3627A,113.7875,23.0457,东莞市,东城主山,颗粒物(PM10),65,79,86,20,24,75,,114,92,15,23,3,3,0.4,0.4
2025-04-17T2300,1666A,118.6614,37.4309,东营市,市环保局,颗粒物(PM10),79,107,151,36,51,167,,156,151,20,33,8,14,0.5,0.6
2025-04-17T2300,3036A,118.6904,37.4338,东营市,开发区管委会,细颗粒物(PM2.5),83,98,161,61,58,171,,163,156,32,39,5,12,0.7,0.7
2025-04-17T2300,3365A,118.5719,37.565,东营市,垦利区民丰路,颗粒物(PM10),71,92,130,48,55,149,,172,156,22,34,4,7,0.8,0.8
2025-04-17T2300,3498A,118.5055,37.8612,东营市,河口城区,颗粒物(PM10),82,114,115,51,45,133,,192,172,26,25,8,8,1.2,1.2
2025-04-17T2300,3646A,118.4978,37.4623,东营市,胜利站,细颗粒物(PM2.5),73,88,138,53,55,161,,171,156,22,30,11,15,1.5,1.3
2025-04-17T2300,3734A,118.35,37.26,东营市,理想之城,颗粒物(PM10),91,132,159,58,58,158,,157,147,25,33,8,12,1.0,0.9
2025-04-17T2300,1591A,110.0023,39.8129,鄂尔多斯市,综合楼,颗粒物(PM10),60,70,172,9,44,85,,111,98,17,18,5,6,0.3,0.3
2025-04-17T2300,1592A,109.9486,39.8261,鄂尔多斯市,巴音孟克林场办事处,颗粒物(PM10),63,75,174,19,59,80,,106,94,18,18,6,8,0.5,0.5
2025-04-17T2300,1593A,109.7736,39.5986,鄂尔多斯市,康泽苑,颗粒物(PM10),73,95,219,22,80,85,,108,97,12,11,2,4,0.3,0.3
2025-04-17T2300,1594A,109.8119,39.5989,鄂尔多斯市,华泰汽车城,颗粒物(PM10),69,88,227,24,77,79,,104,91,12,16,4,4,0.4,0.4
2025-04-17T2300,1595A,109.9734,39.7884,鄂尔多斯市,奥林花园,颗粒物(PM10),60,70,188,19,50,87,,113,100,15,23,6,7,0.5,0.5
2025-04-17T2300,2436A,114.8938,30.3994,鄂州市,市政府,颗粒物(PM10),70,90,81,35,38,142,,160,160,10,16,7,9,0.6,0.9
2025-04-17T2300,2437A,114.8989,30.3714,鄂州市,赵家坝,颗粒物(PM10),85,119,88,32,33,141,,162,156,11,19,5,6,0.7,0.8
2025-04-17T2300,3654A,114.8094,30.4089,鄂州市,精准医疗中心,颗粒物(PM10),68,86,83,40,40,128,,162,152,21,28,21,17,2.9,1.2
2025-04-17T2300,2454A,109.4978,30.2981,恩施土家族苗族自治州,湖北民院,颗粒物(PM10),80,109,91,56,45,55,,123,96,24,17,6,7,0.4,0.5
2025-04-17T2300,2455A,109.4707,30.2798,恩施土家族苗族自治州,州电力总公司,,,98,78,59,41,,,126,118,67,30,5,6,1.1,0.2
2025-04-17T2300,3549A,109.5061,30.3772,恩施土家族苗族自治州,龙凤新区,颗粒物(PM10),61,72,72,38,35,41,,116,87,14,14,6,6,0.4,0.4
2025-04-17T2300,2499A,108.3411,21.6158,防城港市,沙万,颗粒物(PM10),93,135,149,42,50,73,,82,68,12,24,3,6,0.6,0.7
2025-04-17T2300,2500A,108.3514,21.7731,防城港市,防城档案局,颗粒物(PM10),105,160,151,47,50,82,,95,90,8,14,10,4,0.5,0.5
2025-04-17T2300,2501A,108.3506,21.6414,防城港市,大海花园,颗粒物(PM10),102,153,159,33,43,82,,100,86,12,16,2,4,0.5,0.5
2025-04-17T2300,1371A,113.1294,23.0067,佛山市,湾梁,颗粒物(PM10),67,83,86,21,24,61,,137,102,20,17,7,7,0.6,0.5
2025-04-17T2300,1372A,113.1083,23.0478,佛山市,华材职中,颗粒物(PM10),64,78,87,24,30,69,,150,113,18,16,6,6,0.5,0.5
2025-04-17T2300,1373A,113.144,23.0453,佛山市,南海气象局,颗粒物(PM10),67,84,90,27,29,56,,133,97,22,18,8,6,0.5,0.5
2025-04-17T2300,1374A,113.2881,22.8094,佛山市,顺德苏岗,颗粒物(PM10),70,90,84,19,21,64,,117,93,13,14,6,6,0.7,0.6
2025-04-17T2300,1376A,112.8383,22.8678,佛山市,高明孔堂,颗粒物(PM10),67,84,86,24,30,72,,116,94,9,10,6,5,0.5,0.5
2025-04-17T2300,1377A,112.8836,23.1588,佛山市,三水监测站,颗粒物(PM10),67,83,95,35,40,50,,129,92,30,31,4,3,0.4,0.4
2025-04-17T2300,1378A,112.867,23.185,佛山市,三水云东海,颗粒物(PM10),68,86,93,28,29,53,,129,101,35,30,3,2,0.5,0.5
2025-04-17T2300,3625A,113.2544,22.7642,佛山市,容桂街道办,颗粒物(PM10),62,73,75,19,24,60,,110,84,20,17,6,6,0.6,0.5
2025-04-17T2300,1282A,119.2681,26.0504,福州市,师大,颗粒物(PM10),53,55,84,22,36,52,,143,100,19,21,4,4,0.3,0.4
2025-04-17T2300,1283A,119.2984,26.1028,福州市,五四北路,,50,50,84,18,35,55,,142,103,20,22,4,4,0.4,0.5
2025-04-17T2300,1284A,119.2648,26.0768,福州市,杨桥西路,颗粒物(PM10),53,55,92,18,34,55,,143,102,18,21,4,4,0.3,0.4
2025-04-17T2300,1285A,119.317,26.0746,福州市,紫阳,,46,46,92,19,36,54,,130,94,18,30,5,5,0.3,0.4
2025-04-17T2300,3048A,119.5799,26.0936,福州市,九龙,,43,43,68,19,33,60,,133,94,13,19,4,4,0.3,0.3
2025-04-17T2300,3526A,119.5189,25.9664,福州市,吴航,,46,46,68,20,29,49,,134,94,10,14,4,4,0.4,0.4
2025-04-17T2300,1755A,123.7977,41.8491,抚顺市,望花区,细颗粒物(PM2.5),114,95,87,86,58,101,,138,84,18,46,9,13,0.6,0.9
2025-04-17T2300,1756A,123.9161,41.8822,抚顺市,顺城区,颗粒物(PM10),70,90,86,28,41,99,,126,76,21,45,7,11,0.8,1
2025-04-17T2300,1757A,124.0436,41.8611,抚顺市,东洲区,细颗粒物(PM2.5),97,94,69,72,45,96,,128,76,17,30,7,8,0.7,0.8
2025-04-17T2300,1758A,123.9247,41.8642,抚顺市,新抚区,细颗粒物(PM2.5),85,83,83,63,40,96,,124,71,16,38,7,9,0.9,0.9
2025-04-17T2300,1759A,124.0972,41.8961,抚顺市,大伙房水库,细颗粒物(PM2.5),127,,58,96,55,95,,136,83,15,23,9,10,0.8,0.9
2025-04-17T2300,1760A,123.7086,41.8391,抚顺市,沈抚新城,细颗粒物(PM2.5),110,95,84,83,52,90,,137,75,25,51,6,12,0.9,1.2
2025-04-17T2300,2376A,116.2127,28.0814,抚州市,桐源党溪,颗粒物(PM10),63,75,72,29,28,14,,88,61,16,3,6,7,0.6,0.6
2025-04-17T2300,2377A,116.3544,27.9831,抚州市,市站,颗粒物(PM10),68,85,77,27,28,54,,81,73,18,18,7,9,1.1,1.2
2025-04-17T2300,2378A,116.3565,27.963,抚州市,血防站,颗粒物(PM10),62,74,76,31,30,55,,79,72,16,15,5,5,1.2,1.2
2025-04-17T2300,2379A,116.3564,28.0007,抚州市,采茶剧团,颗粒物(PM10),103,156,76,24,27,50,,80,74,11,10,3,3,1.2,1.6
2025-04-17T2300,2380A,116.385,27.9647,抚州市,医学分院,颗粒物(PM10),60,70,74,24,27,52,,72,66,11,12,5,5,1.2,1.3
2025-04-17T2300,2207A,121.6094,41.998,阜新市,工业园区,,27,27,88,11,45,55,,113,82,18,34,7,16,0.6,1.2
2025-04-17T2300,2208A,121.6697,42.0279,阜新市,长青街,,26,26,100,16,50,58,,116,84,14,32,6,17,0.4,2.9
2025-04-17T2300,2209A,121.6673,42.0705,阜新市,农业园区,,28,,79,19,62,62,,115,82,8,18,7,22,0.4,1.2
2025-04-17T2300,2210A,121.6717,42.0224,阜新市,东苑,,21,19,101,12,43,65,,115,87,13,33,10,29,0.4,2.9
2025-04-17T2300,2211A,121.6506,42.0498,阜新市,玉龙新城,,20,20,84,10,40,52,,117,82,18,33,8,16,0.5,1.4
2025-04-17T2300,2301A,115.8277,32.8929,阜阳市,市监测站,颗粒物(PM10),71,91,88,46,41,169,,162,162,13,12,9,10,0.5,0.5
2025-04-17T2300,2303A,115.8554,32.8605,阜阳市,开发区,颗粒物(PM10),94,138,115,48,35,145,,159,155,21,16,7,8,0.3,0.4
2025-04-17T2300,2875A,115.784,32.8892,阜阳市,阜阳职业技术学院,颗粒物(PM10),81,112,97,52,37,136,,153,148,28,14,7,8,0.5,0.4
2025-04-17T2300,3468A,115.7901,32.8613,阜阳市,市规划展馆,颗粒物(PM10),83,116,103,51,45,170,,169,169,12,10,9,9,0.6,0.6
2025-04-17T2300,3469A,115.836,32.9183,阜阳市,枣园社区,颗粒物(PM10),82,114,103,50,46,170,,162,162,15,12,10,10,0.5,0.5
2025-04-17T2300,2669A,102.9099,34.9841,甘南藏族自治州,州政府,,,98,63,32,23,,,94,,56,20,13,11,0.7,0.5
2025-04-17T2300,3380A,102.8914,34.9617,甘南藏族自治州,甘肃民族师范学院,颗粒物(PM10),147,244,88,54,25,0,,105,54,71,31,10,8,0.7,0.6
2025-04-17T2300,2570A,101.9603,30.0475,甘孜藏族自治州,水桥子,颗粒物(PM10),57,64,23,22,10,4,,110,76,66,25,6,5,0.5,0.3
2025-04-17T2300,3065A,101.9533,29.9972,甘孜藏族自治州,州环保局,,25,25,23,3,6,66,,117,95,18,17,2,1,0.3,0.3
2025-04-17T2300,3414A,115.8347,28.932,赣江新区,桑海产业园,颗粒物(PM10),76,102,88,40,37,38,,142,107,66,36,7,9,0.4,0.5
2025-04-17T2300,2363A,114.9367,25.8664,赣州市,地委,颗粒物(PM10),62,73,77,25,25,58,,120,81,22,14,6,12,0.9,0.8
2025-04-17T2300,2364A,114.9461,25.8481,赣州市,气象台,颗粒物(PM10),63,76,84,26,25,60,,119,80,25,17,9,11,0.6,0.6
2025-04-17T2300,2365A,114.9322,25.8333,赣州市,市图书馆,颗粒物(PM10),66,81,82,24,24,49,,111,74,29,17,4,5,0.7,0.6
2025-04-17T2300,2366A,114.8905,25.8471,赣州市,华坚鞋城,颗粒物(PM10),66,81,90,28,23,55,,118,87,32,16,6,10,0.4,0.3
2025-04-17T2300,3109A,115.0093,25.8613,赣州市,赣县区卫计委,颗粒物(PM10),62,74,86,24,29,59,,112,74,13,7,6,5,0.3,0.3
2025-04-17T2300,2683A,106.2319,36.1417,固原市,马园,颗粒物(PM10),67,83,140,24,41,37,,118,90,56,34,5,5,0.5,0.5
2025-04-17T2300,2684A,106.2792,36.0022,固原市,监测站,颗粒物(PM10),91,131,111,45,41,58,,117,91,47,17,4,5,0.4,0.4
2025-04-17T2300,2685A,106.2375,36.0211,固原市,新区,颗粒物(PM10),59,67,119,29,36,87,,111,89,16,25,4,4,0.3,0.4
2025-04-17T2300,3522A,106.2177,35.9959,固原市,原州区十五小,颗粒物(PM10),61,71,119,25,39,101,,117,104,10,9,7,7,0.2,0.2
2025-04-17T2300,2544A,106.6303,30.4576,广安市,市委,颗粒物(PM10),107,163,135,63,53,40,,156,112,58,24,11,12,0.9,0.5
2025-04-17T2300,2545A,106.6271,30.4663,广安市,友谊中学,颗粒物(PM10),84,117,118,57,47,60,,158,118,36,25,6,7,0.7,0.7
2025-04-17T2300,2547A,106.6388,30.4551,广安市,广电花园,颗粒物(PM10),111,172,126,68,53,34,,156,109,68,27,6,8,0.6,0.5
2025-04-17T2300,2902A,106.6351,30.4865,广安市,北辰小学,颗粒物(PM10),85,119,125,58,48,75,,155,126,26,20,8,10,0.4,0.3
2025-04-17T2300,2523A,105.8945,32.4535,广元市,黑石坡,颗粒物(PM10),61,71,89,20,20,116,,118,117,9,10,3,3,0.3,0.2
2025-04-17T2300,2524A,105.821,32.4444,广元市,老城,颗粒物(PM10),64,77,65,16,19,51,,133,123,62,15,1,3,0.7,0.8
2025-04-17T2300,2526A,105.8628,32.4287,广元市,监测站,颗粒物(PM10),51,51,56,23,23,115,,133,131,11,12,6,11,0.4,0.4
2025-04-17T2300,3617A,105.8047,32.4166,广元市,经开区,颗粒物(PM10),63,75,74,33,33,147,,144,144,10,17,5,11,0.5,0.5
2025-04-17T2300,1345A,113.2347,23.1423,广州市,广雅中学,颗粒物(PM10),67,84,93,23,24,57,,140,104,23,18,3,3,0.6,0.6
2025-04-17T2300,1346A,113.2612,23.105,广州市,市五中,颗粒物(PM10),66,82,89,25,26,56,,142,105,22,16,2,2,0.7,0.6
2025-04-17T2300,1348A,113.3478,23.0916,广州市,广东商学院,颗粒物(PM10),65,79,82,23,27,51,,123,90,29,22,4,4,0.5,0.4
2025-04-17T2300,1349A,113.4332,23.1047,广州市,市八十六中,颗粒物(PM10),60,70,80,16,19,51,,99,76,33,32,4,4,0.5,0.5
2025-04-17T2300,1350A,113.3505,22.9483,广州市,番禺中学,颗粒物(PM10),65,79,84,25,29,57,,120,91,24,18,4,4,0.4,0.4
2025-04-17T2300,1351A,113.2146,23.3916,广州市,花都师范,颗粒物(PM10),67,84,97,24,31,55,,159,123,27,22,4,4,0.6,0.4
2025-04-17T2300,1352A,113.2597,23.1331,广州市,市监测站,颗粒物(PM10),66,82,87,26,26,44,,118,87,28,20,5,4,0.5,0.5
2025-04-17T2300,1353A,113.5618,23.312,广州市,九龙镇镇龙,颗粒物(PM10),65,80,93,22,31,50,,132,98,31,30,6,6,0.5,0.5
2025-04-17T2300,1354A,113.2765,23.1544,广州市,麓湖,颗粒物(PM10),62,74,82,23,25,62,,142,106,21,17,4,4,0.4,0.4
2025-04-17T2300,1355A,113.443,23.3035,广州市,帽峰山森林公园,颗粒物(PM10),63,76,72,20,19,44,,131,99,33,16,9,7,0.6,0.3
2025-04-17T2300,2846A,113.3221,23.1322,广州市,体育西,,,100,93,40,31,57,,132,100,,15,3,4,0.3,0.4
2025-04-17T2300,3298A,113.5717,23.5491,广州市,从化街口,颗粒物(PM10),68,86,98,23,29,61,,157,120,23,21,10,10,0.7,0.7
2025-04-17T2300,3299A,113.3472,23.3692,广州市,白云竹料,颗粒物(PM10),74,98,94,28,26,55,,141,110,29,20,4,3,0.6,0.5
2025-04-17T2300,3300A,113.2981,23.237,广州市,白云嘉禾,颗粒物(PM10),66,82,93,24,27,54,,129,97,31,28,4,4,0.6,0.6
2025-04-17T2300,3301A,113.4256,23.1716,广州市,黄埔科学城,颗粒物(PM10),70,90,88,26,26,50,,116,90,34,20,7,7,0.2,0.2
2025-04-17T2300,3302A,113.3942,23.0483,广州市,番禺大学城,颗粒物(PM10),68,85,98,28,25,56,,125,91,32,20,9,9,0.6,0.5
2025-04-17T2300,3303A,113.4922,22.8168,广州市,南沙黄阁,颗粒物(PM10),63,75,84,23,23,64,,99,85,17,17,4,5,0.5,0.7
2025-04-17T2300,3304A,113.5342,22.7896,广州市,南沙街,颗粒物(PM10),63,75,79,21,22,67,,96,82,16,16,4,4,0.5,0.5
2025-04-17T2300,3443A,113.2902,23.5544,广州市,花都梯面,颗粒物(PM10),70,90,92,28,27,52,,152,121,30,20,5,4,0.6,0.6
2025-04-17T2300,3445A,113.7858,23.7478,广州市,从化良口,颗粒物(PM10),55,59,75,28,27,86,,165,130,15,13,7,7,0.4,0.4
2025-04-17T2300,3446A,113.8051,23.2614,广州市,增城荔城,颗粒物(PM10),64,78,96,24,30,58,,140,97,19,20,6,8,0.2,0.3
2025-04-17T2300,2506A,109.6047,23.0666,贵港市,江南子站,颗粒物(PM10),79,107,144,47,56,74,,108,99,12,14,4,8,0.6,0.6
2025-04-17T2300,2508A,109.5669,23.1065,贵港市,荷城子站,颗粒物(PM10),87,123,146,44,45,70,,108,90,15,14,5,6,0.3,0.3
2025-04-17T2300,3405A,109.5886,23.1172,贵港市,新世纪学校,颗粒物(PM10),87,124,142,48,48,74,,109,92,18,18,5,6,0.6,0.6
2025-04-17T2300,4260A,109.5933,23.0951,贵港市,中山路155-3号,颗粒物(PM10),83,115,140,46,53,78,,114,100,14,15,6,10,0.4,0.5
2025-04-17T2300,1439A,106.6899,26.5998,贵阳市,马鞍山,颗粒物(PM10),57,63,59,34,29,60,,168,135,17,12,3,4,0.5,0.5
2025-04-17T2300,1441A,106.6243,26.6266,贵阳市,鉴湖路,颗粒物(PM10),73,95,77,46,43,87,,158,137,27,14,11,11,0.6,0.5
2025-04-17T2300,1442A,106.7487,26.6343,贵阳市,燕子冲,"颗粒物(PM10),细颗粒物(PM2.5)",58,66,70,41,44,81,,167,144,13,16,1,4,0.5,0.5
2025-04-17T2300,1443A,106.6555,26.4365,贵阳市,碧云窝,颗粒物(PM10),70,90,76,46,38,84,,166,141,18,13,6,8,0.6,0.5
2025-04-17T2300,1445A,106.7109,26.6027,贵阳市,红边门,细颗粒物(PM2.5),94,95,79,70,47,51,,178,147,53,25,4,5,0.9,0.5
2025-04-17T2300,1446A,106.7164,26.5699,贵阳市,新华路,"颗粒物(PM10),细颗粒物(PM2.5)",79,107,81,58,45,52,,170,140,56,21,10,18,0.5,0.5
2025-04-17T2300,1447A,106.674,26.5424,贵阳市,太慈桥,颗粒物(PM10),64,78,70,44,37,33,,162,114,52,23,4,6,0.4,0.3
2025-04-17T2300,4230A,106.6882,26.5695,贵阳市,花果园大街66号,颗粒物(PM10),80,110,76,56,42,69,,184,160,70,23,10,9,0.9,0.5
2025-04-17T2300,4231A,106.6873,26.5169,贵阳市,漓江路57号,"颗粒物(PM10),细颗粒物(PM2.5)",67,83,71,48,42,93,,155,134,25,16,10,11,0.4,0.4
2025-04-17T2300,1864A,110.3089,25.2708,桂林市,龙隐路小学,细颗粒物(PM2.5),99,116,124,74,52,55,,124,97,23,14,9,11,0.7,0.5
2025-04-17T2300,1865A,110.2869,25.2178,桂林市,八中,颗粒物(PM10),85,120,123,55,49,22,,112,79,40,20,3,3,0.9,0.8
2025-04-17T2300,3531A,110.296,25.1253,桂林市,旅游学院,颗粒物(PM10),78,105,115,48,43,51,,124,94,28,17,2,4,0.7,0.6
2025-04-17T2300,4222A,110.1835,25.2444,桂林市,环湖路276号,颗粒物(PM10),90,129,125,56,50,32,,108,85,38,22,6,8,0.5,0.4
2025-04-17T2300,4301A,110.2803,25.2773,桂林市,信义路13号,颗粒物(PM10),88,126,120,61,45,37,,130,95,44,18,2,4,1.2,0.9
2025-04-17T2300,2674A,100.2561,34.4714,果洛藏族自治州,玛沁县大武镇,,41,41,49,14,16,92,,116,108,2,4,11,11,0.4,0.4
2025-04-17T2300,1129A,126.5422,45.755,哈尔滨市,岭北,细颗粒物(PM2.5),359,,173,309,145,51,,172,109,85,57,24,20,1.9,1.3
2025-04-17T2300,1130A,126.561,45.8167,哈尔滨市,松北商大,细颗粒物(PM2.5),360,,173,310,149,52,,169,103,68,50,24,18,1.6,1
2025-04-17T2300,1131A,126.979,45.5419,哈尔滨市,阿城会宁,细颗粒物(PM2.5),412,465,172,367,138,57,,144,81,70,52,29,13,1.6,1
2025-04-17T2300,1132A,126.599,45.7222,哈尔滨市,南岗学府路,细颗粒物(PM2.5),302,390,195,252,133,69,,164,106,67,52,22,16,1.4,1
2025-04-17T2300,1133A,126.689,45.7733,哈尔滨市,太平宏伟公园,细颗粒物(PM2.5),319,312,208,269,165,60,,169,97,79,66,20,15,1.6,1.3
2025-04-17T2300,1134A,126.635,45.7667,哈尔滨市,道外承德广场,细颗粒物(PM2.5),328,,132,278,155,47,,149,80,76,61,20,14,1.6,1.1
2025-04-17T2300,1135A,126.685,45.7319,哈尔滨市,香坊红旗大街,细颗粒物(PM2.5),257,312,190,207,143,66,,163,102,70,60,25,19,1.5,1
2025-04-17T2300,1136A,126.6411,45.7258,哈尔滨市,动力和平路,细颗粒物(PM2.5),363,329,175,313,167,75,,163,112,65,47,26,19,1.3,0.9
2025-04-17T2300,1137A,126.593,45.7478,哈尔滨市,道里建国路,细颗粒物(PM2.5),345,325,171,295,151,53,,158,96,85,61,30,23,1.6,1.2
2025-04-17T2300,1138A,126.615,45.61,哈尔滨市,平房东轻厂,细颗粒物(PM2.5),417,452,188,375,155,33,,167,90,90,58,25,20,1.7,1
2025-04-17T2300,1139A,126.595,45.9855,哈尔滨市,呼兰师专,细颗粒物(PM2.5),224,189,180,174,151,88,,166,113,45,48,14,14,1.1,1
2025-04-17T2300,1140A,126.6206,45.6842,哈尔滨市,省农科院,细颗粒物(PM2.5),359,415,196,309,152,61,,162,99,68,55,24,18,1.4,0.8
2025-04-17T2300,2688A,93.5128,42.8172,哈密市,地区监测站,,20,16,85,7,17,62,,95,86,19,14,6,5,0.4,0.2
2025-04-17T2300,2689A,93.4961,42.8328,哈密市,哈密师范学校,,21,21,51,3,11,57,,95,83,22,15,6,5,0.5,0.7
2025-04-17T2300,2671A,100.9048,36.9639,海北藏族自治州,海晏县西海镇,颗粒物(PM10),55,59,58,27,27,60,,109,88,16,7,11,9,0.4,0.4
2025-04-17T2300,3867A,102.0738,36.5056,海东市,平安区公安北苑,颗粒物(PM10),53,55,103,29,38,99,,116,106,4,12,22,14,0.2,0.4
2025-04-17T2300,1409A,110.576,19.9507,海口市,东寨港,颗粒物(PM10),59,67,93,39,42,48,,76,62,4,4,8,9,0.5,0.5
2025-04-17T2300,1410A,110.3232,20.0574,海口市,海南大学,颗粒物(PM10),76,101,120,35,38,60,,112,76,8,9,2,2,0.5,0.4
2025-04-17T2300,1411A,110.283,20.0053,海口市,秀英海南医院,颗粒物(PM10),78,106,114,32,37,48,,90,70,18,19,4,4,0.4,0.4
2025-04-17T2300,1412A,110.338,19.9969,海口市,海南师范大学,颗粒物(PM10),76,101,111,35,37,59,,104,82,4,4,3,3,0.5,0.4
2025-04-17T2300,1413A,110.33,20.0356,海口市,龙华路环保局宿舍,颗粒物(PM10),75,100,108,34,39,59,,107,80,5,5,4,4,0.4,0.3
2025-04-17T2300,3539A,110.5111,19.9736,海口市,桂林洋子站,颗粒物(PM10),67,84,110,30,37,60,,96,76,8,9,4,4,0.4,0.4
2025-04-17T2300,2673A,100.6188,36.2866,海南藏族自治州,共和县恰卜恰镇,,43,43,58,15,29,59,,118,94,37,18,15,13,0.6,0.4
2025-04-17T2300,2676A,97.3731,37.3753,海西蒙古族藏族自治州,德令哈市,颗粒物(PM10),87,123,114,38,34,120,,117,117,2,3,14,14,0.3,0.4
2025-04-17T2300,1049A,114.4918,36.5713,邯郸市,矿院,颗粒物(PM10),158,265,238,100,97,58,,95,86,32,30,4,6,0.5,0.6
2025-04-17T2300,1050A,114.484,36.6133,邯郸市,丛台公园,颗粒物(PM10),178,306,273,110,99,64,,109,100,38,30,11,11,0.5,0.6
2025-04-17T2300,3458A,114.7895,36.5593,邯郸市,香泉濮院小区,颗粒物(PM10),212,358,365,81,83,63,,131,106,46,33,15,11,0.2,0.4
2025-04-17T2300,3579A,114.50634,36.77178,邯郸市,永年区实验高中,颗粒物(PM10),164,277,307,90,97,65,,116,98,32,33,8,17,0.5,1.1
2025-04-17T2300,3580A,114.20016,36.44293,邯郸市,峰峰矿区临水派出所,颗粒物(PM10),210,357,263,129,99,100,,121,118,15,14,7,8,0.8,0.6
2025-04-17T2300,2634A,106.9893,33.1842,汉中市,汉川机床厂子校,细颗粒物(PM2.5),79,77,86,58,56,105,,146,136,10,7,7,8,1.3,1.3
2025-04-17T2300,2635A,107.0154,33.0706,汉中市,市监测站,颗粒物(PM10),79,107,97,38,34,141,,149,148,9,12,6,8,0.6,0.9
2025-04-17T2300,2636A,107.0089,33.1138,汉中市,鑫源开发区,颗粒物(PM10),73,96,98,42,32,126,,147,145,21,13,6,8,0.5,0.6
2025-04-17T2300,2637A,107.007,33.0323,汉中市,南郑大河坎水厂,颗粒物(PM10),75,99,90,52,41,147,,154,152,9,12,8,7,0.6,0.7
2025-04-17T2300,1223A,120.2072,30.2111,杭州市,滨江,颗粒物(PM10),62,74,67,37,28,66,,104,92,26,25,7,7,0.4,0.6
2025-04-17T2300,1224A,120.0633,30.2747,杭州市,西溪,颗粒物(PM10),53,55,56,29,29,66,,110,94,21,21,5,6,0.6,0.6
2025-04-17T2300,1226A,120.3417,30.3150,杭州市,下沙,颗粒物(PM10),81,111,70,54,29,42,,103,79,53,30,7,7,0.6,0.4
2025-04-17T2300,1227A,120.1269,30.2456,杭州市,卧龙桥,颗粒物(PM10),59,67,55,31,27,53,,98,78,29,23,5,6,0.5,0.4
2025-04-17T2300,1228A,120.1903,30.2692,杭州市,浙江农大,颗粒物(PM10),55,59,55,30,25,63,,97,84,26,23,1,3,0.4,0.4
2025-04-17T2300,1230A,120.1197,30.3119,杭州市,和睦小学,颗粒物(PM10),61,72,61,36,30,65,,106,96,26,22,6,8,0.6,0.5
2025-04-17T2300,1231A,120.3019,30.4183,杭州市,临平镇,颗粒物(PM10),64,78,77,40,32,54,,96,84,37,30,5,6,0.6,0.5
2025-04-17T2300,1232A,120.2753,30.1839,杭州市,城厢镇,颗粒物(PM10),75,100,68,47,31,49,,90,75,38,30,9,8,0.9,0.7
2025-04-17T2300,1233A,120.0883,30.1808,杭州市,云栖,颗粒物(PM10),61,72,57,37,25,10,,84,68,40,42,8,9,0.6,0.6
2025-04-17T2300,3557A,119.9464,30.0494,杭州市,镇二中,"颗粒物(PM10),细颗粒物(PM2.5)",55,60,56,39,32,62,,96,82,26,25,1,2,0.6,0.6
2025-04-17T2300,3558A,119.7183,30.2367,杭州市,市府大楼,颗粒物(PM10),66,81,68,34,29,78,,117,106,18,19,7,8,0.4,0.4
2025-04-17T2300,3656A,120.1556,30.2864,杭州市,消防大队,颗粒物(PM10),60,70,60,36,28,62,,101,86,32,27,3,4,0.6,0.5
2025-04-17T2300,1270A,117.1959,31.7848,合肥市,明珠广场,颗粒物(PM10),67,83,80,44,46,122,,152,138,20,21,4,6,0.5,0.5
2025-04-17T2300,1271A,117.3072,31.8764,合肥市,三里街,颗粒物(PM10),67,83,87,39,35,113,,140,128,27,31,5,7,0.5,0.5
2025-04-17T2300,1272A,117.2588,31.8707,合肥市,琥珀山庄,颗粒物(PM10),65,80,86,46,40,126,,153,142,18,21,3,4,0.6,0.6
2025-04-17T2300,1273A,117.1604,31.9052,合肥市,董铺水库,颗粒物(PM10),68,85,83,36,33,129,,154,144,9,11,1,2,0.4,0.4
2025-04-17T2300,1274A,117.25,31.8571,合肥市,长江中路,颗粒物(PM10),68,85,84,42,38,124,,151,140,19,20,7,9,0.5,0.5
2025-04-17T2300,1275A,117.266,31.9436,合肥市,庐阳区,颗粒物(PM10),68,85,82,34,34,125,,154,141,17,22,7,8,0.4,0.4
2025-04-17T2300,1276A,117.3453,31.8616,合肥市,瑶海区,颗粒物(PM10),67,83,87,42,34,105,,136,124,28,30,6,8,0.6,0.6
2025-04-17T2300,1277A,117.3027,31.7964,合肥市,包河区,颗粒物(PM10),64,78,78,44,36,119,,138,132,13,21,6,7,0.5,0.5
2025-04-17T2300,1278A,117.2776,31.7385,合肥市,滨湖新区,颗粒物(PM10),67,83,78,41,38,124,,142,137,15,15,7,9,0.4,0.4
2025-04-17T2300,1279A,117.1318,31.8403,合肥市,高新区,颗粒物(PM10),64,78,82,43,36,136,,153,145,13,18,3,4,0.5,0.5
2025-04-17T2300,3464A,117.3803,31.9147,合肥市,高教基地,颗粒物(PM10),65,80,82,44,34,124,,152,142,14,17,5,6,0.3,0.4
2025-04-17T2300,3614A,79.924,37.0877,和田地区,地区环保局,颗粒物(PM10),140,229,816,61,153,66,,98,91,27,8,1,1,0.3,0.3
2025-04-17T2300,3615A,79.9131,37.113,和田地区,市环保局,颗粒物(PM10),126,201,798,42,185,72,,105,94,17,6,1,2,0.5,0.6
2025-04-17T2300,2516A,108.2011,24.715,河池市,东仁乐园,,,,,,,,,,,,,,,,
2025-04-17T2300,2517A,108.0497,24.6947,河池市,市环保站,颗粒物(PM10),81,112,101,56,46,101,,133,123,8,8,7,12,0.6,0.5
2025-04-17T2300,2518A,108.0983,24.6989,河池市,市疾控中心,颗粒物(PM10),86,122,106,60,53,101,,141,131,19,16,8,11,0.6,0.5
2025-04-17T2300,1696A,114.6778,23.7569,河源市,源西,颗粒物(PM10),52,54,75,20,24,68,,127,108,11,11,3,4,0.8,0.8
2025-04-17T2300,1697A,114.6944,23.7586,河源市,东埔,颗粒物(PM10),80,109,87,26,33,74,,139,118,17,14,4,4,0.5,0.6
2025-04-17T2300,1698A,114.6892,23.7233,河源市,老城,颗粒物(PM10),59,68,80,23,25,68,,142,118,20,13,4,4,0.4,0.4
2025-04-17T2300,1718A,115.4208,35.2464,菏泽市,气象局,颗粒物(PM10),128,206,198,64,59,102,,144,134,19,17,6,5,0.5,0.4
2025-04-17T2300,3374A,115.5564,35.0891,菏泽市,定陶老年大学,颗粒物(PM10),108,166,166,53,48,95,,145,129,20,16,6,6,0.6,0.5
2025-04-17T2300,4184A,115.4797,35.24401,菏泽市,永昌路1号,颗粒物(PM10),112,173,187,58,70,108,,128,122,15,18,6,7,0.4,0.3
2025-04-17T2300,4193A,115.4715,35.2800,菏泽市,长城路999号,颗粒物(PM10),115,180,198,50,63,129,,147,142,16,20,8,8,0.4,0.3
2025-04-17T2300,2514A,111.5264,24.4172,贺州市,环保小区,颗粒物(PM10),84,118,132,55,51,69,,116,103,24,17,23,12,0.7,0.5
2025-04-17T2300,2515A,111.5608,24.4078,贺州市,政协大楼,颗粒物(PM10),79,108,111,54,46,64,,120,101,30,17,29,14,0.9,0.7
2025-04-17T2300,3534A,111.4744,24.4553,贺州市,西湾,颗粒物(PM10),89,127,131,60,50,90,,123,111,20,18,9,11,0.5,0.5
2025-04-17T2300,2385A,114.17,35.9019,鹤壁市,市监测站,颗粒物(PM10),131,212,236,88,92,55,,134,112,31,15,9,7,0.5,0.2
2025-04-17T2300,2386A,114.2956,35.7511,鹤壁市,市交警支队,颗粒物(PM10),139,227,242,60,71,76,,136,113,29,39,12,9,0.9,0.8
2025-04-17T2300,2387A,114.2878,35.7306,鹤壁市,迎宾馆,颗粒物(PM10),140,230,244,45,56,78,,139,112,33,41,11,7,0.6,0.6
2025-04-17T2300,3474A,114.2617,35.6822,鹤壁市,大新区,颗粒物(PM10),135,219,253,70,84,54,,121,89,42,37,9,9,0.8,0.7
2025-04-17T2300,3596A,114.1572,35.9603,鹤壁市,南山宾馆,颗粒物(PM10),156,261,245,92,96,60,,138,113,41,12,9,6,0.8,0.7
2025-04-17T2300,2244A,130.2537,47.3416,鹤岗市,哈啤分公司,细颗粒物(PM2.5),80,68,45,59,32,86,,123,113,15,11,17,16,0.5,0.4
2025-04-17T2300,2245A,130.2684,47.3086,鹤岗市,斯达机电,细颗粒物(PM2.5),114,116,57,86,42,78,,128,108,20,13,16,13,0.4,0.2
2025-04-17T2300,2246A,130.3114,47.3388,鹤岗市,东山纸板厂,细颗粒物(PM2.5),102,,130,76,44,88,,123,112,15,18,15,16,0.4,0.9
2025-04-17T2300,2263A,127.4833,50.2524,黑河市,交通局,,28,28,32,14,18,73,,89,80,9,10,8,7,0.5,0.5
2025-04-17T2300,1074A,115.6838,37.7541,衡水市,电机北厂,颗粒物(PM10),92,134,172,57,73,85,,165,132,39,24,16,9,0.4,0.6
2025-04-17T2300,1075A,115.6303,37.7316,衡水市,市监测站,颗粒物(PM10),86,121,157,47,67,110,,168,136,25,24,8,11,0.4,0.6
2025-04-17T2300,3188A,115.6683,37.7217,衡水市,市城管局,颗粒物(PM10),91,131,169,44,68,102,,163,130,30,27,11,8,0.6,0.7
2025-04-17T2300,3459A,115.5989,37.5491,衡水市,地表水厂,颗粒物(PM10),103,156,194,38,68,62,,165,127,48,27,9,10,0.4,0.6
2025-04-17T2300,2456A,112.5003,26.9167,衡阳市,原169医院,颗粒物(PM10),74,98,106,45,44,69,,149,123,28,21,6,9,0.6,0.8
2025-04-17T2300,2457A,112.6194,26.9258,衡阳市,衡阳化工总厂,颗粒物(PM10),72,93,113,40,45,82,,136,118,12,11,7,9,0.4,0.5
2025-04-17T2300,2458A,112.6211,26.8956,衡阳市,珠晖区环保局,颗粒物(PM10),70,90,105,35,41,81,,134,116,10,12,8,10,0.6,0.7
2025-04-17T2300,2459A,112.6197,26.8733,衡阳市,市委党校,颗粒物(PM10),68,85,108,38,42,79,,132,116,14,12,6,9,0.5,0.5
2025-04-17T2300,2460A,112.6006,26.8919,衡阳市,市监测站,颗粒物(PM10),75,99,109,41,49,76,,129,113,18,15,8,11,0.6,0.7
2025-04-17T2300,2461A,112.5664,26.9056,衡阳市,真空机电公司,颗粒物(PM10),83,115,127,43,44,64,,134,115,24,13,7,12,1.8,0.8
2025-04-17T2300,3399A,112.6703,26.882,衡阳市,师范学院,颗粒物(PM10),81,111,120,41,47,81,,132,114,12,16,10,13,0.6,0.6
2025-04-17T2300,2608A,103.3772,23.3993,红河哈尼族彝族自治州,污水处理厂,,49,34,26,34,20,95,,102,100,5,6,5,8,0.2,0.3
2025-04-17T2300,2609A,103.3861,23.35,红河哈尼族彝族自治州,监测站,细颗粒物(PM2.5),54,50,38,38,19,91,,104,100,7,4,9,6,0.2,0.2
2025-04-17T2300,3038A,103.3758,23.368,红河哈尼族彝族自治州,州图书馆,,39,32,23,27,18,95,,105,101,6,5,6,6,0.3,0.2
2025-04-17T2300,1090A,111.6507,40.7517,呼和浩特市,呼市一监,,27,22,54,12,22,84,,107,98,5,5,8,7,0.5,0.4
2025-04-17T2300,1091A,111.6572,40.8033,呼和浩特市,小召,,26,14,50,12,17,81,,102,94,13,10,5,6,0.4,0.4
2025-04-17T2300,1094A,111.7516,40.8369,呼和浩特市,如意水处理厂,,26,26,57,14,21,69,,101,88,18,8,6,7,0.4,0.4
2025-04-17T2300,1095A,111.7276,40.8062,呼和浩特市,二十九中,,26,24,53,11,20,81,,106,95,9,8,3,3,0.4,0.4
2025-04-17T2300,1096A,111.5512,40.7866,呼和浩特市,工大金川校区,,25,19,49,13,18,77,,105,94,14,12,5,6,0.4,0.4
2025-04-17T2300,1097A,111.717,40.7612,呼和浩特市,化肥厂生活区,,27,18,63,11,23,86,,108,98,7,11,7,7,0.4,0.4
2025-04-17T2300,3698A,111.5968,40.8178,呼和浩特市,红旗小学,,26,,43,12,17,82,,108,97,11,10,4,4,0.4,0.4
2025-04-17T2300,3699A,111.6518,40.8389,呼和浩特市,海东办,,27,12,43,11,19,84,,103,95,4,5,6,6,0.5,0.5
2025-04-17T2300,2192A,119.7594,49.2261,呼伦贝尔市,区环保局,,29,21,38,20,28,74,,87,79,5,7,5,5,0.3,0.3
2025-04-17T2300,3061A,119.7512,49.1577,呼伦贝尔市,国华电力东,,29,29,38,17,22,72,,88,78,4,4,3,4,0.2,0.2
2025-04-17T2300,1250A,120.0751,30.8669,湖州市,城西水厂,颗粒物(PM10),58,66,69,34,28,92,,110,104,25,43,6,8,0.3,0.3
2025-04-17T2300,2873A,120.0830,30.8929,湖州市,仁皇山新区,颗粒物(PM10),58,66,66,33,29,92,,107,100,21,37,4,5,0.6,0.6
2025-04-17T2300,2907A,120.1844,30.8596,湖州市,吴兴区站,颗粒物(PM10),59,68,66,35,30,73,,107,98,32,31,6,7,0.4,0.4
2025-04-17T2300,3562A,120.4148,30.8538,湖州市,南浔区站,颗粒物(PM10),78,105,76,44,33,54,,113,96,38,29,3,5,0.6,0.4
2025-04-17T2300,1607A,120.9049,40.7211,葫芦岛市,龙港区,,21,14,69,11,43,67,,132,95,20,31,12,28,0.5,0.7
2025-04-17T2300,1608A,120.8392,40.7514,葫芦岛市,化工街,,24,19,85,14,43,76,,127,101,14,57,12,17,0.5,0.7
2025-04-17T2300,1609A,120.8341,40.7073,葫芦岛市,新区,,25,18,57,11,40,80,,134,108,12,38,12,12,0.6,0.8
2025-04-17T2300,1610A,120.8695,40.7677,葫芦岛市,东城区,,24,15,75,10,51,75,,131,103,15,52,8,22,0.5,0.8
2025-04-17T2300,2482A,109.5981,27.5721,怀化市,林科所,颗粒物(PM10),87,124,96,50,41,55,,126,105,32,11,14,11,1.0,0.4
2025-04-17T2300,2483A,109.9453,27.5444,怀化市,河西地税局,颗粒物(PM10),69,88,84,44,42,28,,130,88,26,15,10,11,0.6,0.6
2025-04-17T2300,2484A,109.9781,27.5342,怀化市,市四医院,颗粒物(PM10),77,104,99,48,49,52,,140,113,34,16,7,8,0.7,0.6
2025-04-17T2300,2485A,109.9972,27.5578,怀化市,监测楼,颗粒物(PM10),74,97,96,45,43,57,,144,114,27,13,8,10,0.7,0.5
2025-04-17T2300,2486A,110.0394,27.583,怀化市,市委党校,颗粒物(PM10),74,97,89,51,45,39,,138,102,32,10,4,6,0.7,0.7
2025-04-17T2300,1210A,119.036,33.5981,淮安市,钵池山,颗粒物(PM10),74,97,79,40,32,125,,156,139,18,15,10,12,0.5,0.5
2025-04-17T2300,1211A,119.007,33.575,淮安市,北京南路,颗粒物(PM10),76,102,84,40,34,115,,149,118,20,23,10,17,0.5,0.8
2025-04-17T2300,1212A,118.989,33.6067,淮安市,市监测站,颗粒物(PM10),75,100,79,41,36,116,,150,132,17,13,9,9,0.7,0.6
2025-04-17T2300,1213A,119.135,33.5039,淮安市,楚州区监测站,颗粒物(PM10),80,110,92,40,33,106,,141,123,15,17,9,10,0.7,0.7
2025-04-17T2300,3426A,118.8755,33.2894,淮安市,新华书店,颗粒物(PM10),72,93,78,45,36,109,,144,128,14,13,14,11,0.5,0.5
2025-04-17T2300,4206A,119.0288,33.6319,淮安市,承德北路606号,颗粒物(PM10),78,105,87,39,31,114,,151,128,18,16,15,11,1.7,0.7
2025-04-17T2300,2282A,116.8004,33.975,淮北市,监测站,颗粒物(PM10),85,120,115,49,49,88,,146,126,25,16,8,8,0.7,0.6
2025-04-17T2300,2283A,116.8091,33.9007,淮北市,烈山区政府,,,,108,46,40,80,,140,118,36,22,12,9,,0.8
2025-04-17T2300,3330A,116.8873,33.9836,淮北市,杜集区检察院,颗粒物(PM10),96,142,112,64,62,96,,152,133,28,20,11,9,1.0,0.8
2025-04-17T2300,4017A,116.7923,33.9535,淮北市,市博物馆,颗粒物(PM10),98,146,111,56,45,58,,149,122,44,19,10,9,1.1,0.8
2025-04-17T2300,2277A,116.8305,32.7727,淮南市,潘集区政府,颗粒物(PM10),75,99,101,43,41,106,,156,138,14,13,5,6,0.4,0.4
2025-04-17T2300,2279A,116.8569,32.5951,淮南市,谢家集区政府,颗粒物(PM10),66,82,77,43,38,103,,151,133,22,17,6,7,0.5,0.5
2025-04-17T2300,2280A,116.8281,32.633,淮南市,八公山区政府,颗粒物(PM10),76,102,98,41,40,108,,158,141,12,10,6,6,0.4,0.3
2025-04-17T2300,2894A,117.0566,32.6531,淮南市,经济技术开发区消防队,颗粒物(PM10),69,88,84,48,42,95,,155,140,30,16,7,7,0.5,0.4
2025-04-17T2300,3329A,117.0108,32.5893,淮南市,山南新区,颗粒物(PM10),83,115,103,60,41,114,,159,147,15,11,8,8,0.7,0.6
2025-04-17T2300,4209A,117.0031,32.6445,淮南市,国庆中路369号,,,,86,,41,113,,156,144,15,13,10,9,0.2,0.3
2025-04-17T2300,2446A,114.9028,30.4742,黄冈市,职工中心,颗粒物(PM10),65,80,73,44,41,139,,157,152,16,20,12,15,0.7,0.8
2025-04-17T2300,2929A,114.8858,30.4519,黄冈市,红卫路,颗粒物(PM10),70,90,79,42,37,136,,157,151,10,14,14,12,0.6,0.8
2025-04-17T2300,3398A,114.9136,30.4445,黄冈市,市林业局,颗粒物(PM10),69,88,80,43,41,135,,157,148,14,19,15,14,0.6,0.6
2025-04-17T2300,2672A,102.0199,35.5102,黄南藏族自治州,同仁县隆务镇,颗粒物(PM10),60,70,74,22,24,69,,100,88,6,8,7,7,0.2,0.3
2025-04-17T2300,2295A,118.2903,29.6963,黄山市,延安路89号,颗粒物(PM10),61,72,58,38,37,33,,128,99,19,12,5,6,0.6,0.4
2025-04-17T2300,2297A,118.1371,30.2756,黄山市,黄山区政府5号楼,颗粒物(PM10),56,61,59,37,23,54,,135,110,8,4,4,4,0.5,0.4
2025-04-17T2300,4210A,118.3354,29.7203,黄山市,滨江东路7-2号,颗粒物(PM10),57,63,58,29,24,25,,124,88,22,16,4,5,0.5,0.5
2025-04-17T2300,2423A,115.0601,30.2313,黄石市,沈家营,颗粒物(PM10),79,108,87,38,37,119,,147,142,28,33,13,11,1.3,1
2025-04-17T2300,2426A,114.8988,30.2019,黄石市,铁山,颗粒物(PM10),90,129,85,43,41,127,,150,147,21,30,7,13,0.4,0.4
2025-04-17T2300,2427A,115.0307,30.2092,黄石市,团城山,颗粒物(PM10),70,89,85,32,35,120,,151,146,25,32,16,13,0.8,0.7
2025-04-17T2300,3149A,115.0235,30.1578,黄石市,笔架山北路,颗粒物(PM10),63,75,80,25,34,133,,160,156,12,21,8,13,0.6,0.8
2025-04-17T2300,4185A,115.0780,30.21118,黄石市,磁湖东路29号,颗粒物(PM10),107,164,103,45,46,128,,158,150,25,38,21,16,1.2,1.1
2025-04-17T2300,1392A,114.4183,23.0528,惠州市,河南岸金山湖子站,颗粒物(PM10),61,72,71,21,24,61,,112,87,15,13,8,8,0.5,0.6
2025-04-17T2300,1393A,114.4053,23.0822,惠州市,下埔横江三路子站,颗粒物(PM10),62,73,81,21,24,71,,128,100,13,11,8,8,0.5,0.6
2025-04-17T2300,1394A,114.4103,23.1142,惠州市,江北云山西路子站,颗粒物(PM10),63,75,78,21,24,74,,136,106,12,11,9,10,0.4,0.4
2025-04-17T2300,1395A,114.4645,22.7833,惠州市,惠阳区承修路船湖子站,颗粒物(PM10),70,89,79,27,24,79,,94,79,12,12,8,8,0.5,0.5
2025-04-17T2300,1396A,114.5317,22.7422,惠州市,大亚湾管委会子站,颗粒物(PM10),66,82,77,20,23,93,,97,90,10,11,6,6,0.7,0.6
2025-04-17T2300,3314A,114.4338,22.8134,惠州市,惠阳秋长,颗粒物(PM10),59,68,74,23,24,70,,108,88,17,12,11,10,0.5,0.4
2025-04-17T2300,3452A,114.6517,22.775,惠州市,大亚湾霞涌,颗粒物(PM10),57,63,63,12,19,82,,93,89,12,12,7,7,0.4,0.4
2025-04-17T2300,2240A,130.9762,45.3001,鸡西市,环保局,,43,43,58,20,36,73,,104,82,9,20,8,10,0.4,0.5
2025-04-17T2300,2243A,130.9429,45.3039,鸡西市,第一中学,,31,31,49,20,29,78,,101,83,9,15,8,9,0.4,0.5
2025-04-17T2300,3707A,131.0207,45.3073,鸡西市,欧美日汽修厂,颗粒物(PM10),56,61,65,27,44,70,,106,83,8,24,8,8,0.5,0.7
2025-04-17T2300,3709A,130.9967,45.3106,鸡西市,市政设施管理处,颗粒物(PM10),51,52,70,23,39,60,,103,73,10,28,8,7,0.4,0.5
2025-04-17T2300,2367A,114.9754,27.0803,吉安市,红声器材厂,颗粒物(PM10),70,89,88,26,31,52,,111,91,24,17,10,11,0.5,0.4
2025-04-17T2300,2368A,114.9658,27.0999,吉安市,市森林工业局,颗粒物(PM10),66,82,84,28,33,55,,108,87,19,17,9,11,0.4,0.4
2025-04-17T2300,2369A,114.99,27.1312,吉安市,市环境监测站,颗粒物(PM10),64,77,78,25,31,48,,117,91,19,12,13,17,0.5,0.5
2025-04-17T2300,2370A,115.0093,27.0968,吉安市,青原区法院,颗粒物(PM10),67,83,87,32,32,21,,119,79,28,16,12,14,0.5,0.4
2025-04-17T2300,1772A,126.54,43.8622,吉林市,哈达湾,细颗粒物(PM2.5),103,121,53,77,31,106,,130,124,15,18,13,9,0.7,0.4
2025-04-17T2300,1773A,126.5844,43.8358,吉林市,东局子,细颗粒物(PM2.5),90,81,54,67,34,103,,122,110,15,25,14,8,0.8,0.6
2025-04-17T2300,1774A,126.5052,43.8245,吉林市,电力学院,细颗粒物(PM2.5),113,113,70,85,46,103,,126,120,14,24,6,6,0.7,0.5
2025-04-17T2300,1775A,126.6133,43.8972,吉林市,江北,细颗粒物(PM2.5),105,113,66,79,38,97,,126,107,13,20,10,7,0.8,0.7
2025-04-17T2300,1776A,126.555,43.8306,吉林市,江南公园,细颗粒物(PM2.5),95,107,59,71,38,102,,121,114,14,26,7,6,0.7,0.5
2025-04-17T2300,2868A,126.4739,43.953,吉林市,九站,细颗粒物(PM2.5),97,98,58,72,38,114,,122,116,12,19,7,11,0.8,0.6
2025-04-17T2300,1299A,116.9862,36.6114,济南市,科干所,颗粒物(PM10),102,153,228,46,66,80,,152,131,32,16,8,9,0.4,0.5
2025-04-17T2300,1300A,116.9376,36.665,济南市,农科所,颗粒物(PM10),100,149,220,44,57,44,,146,112,57,25,8,10,0.6,0.4
2025-04-17T2300,1301A,117.1265,36.6734,济南市,开发区,颗粒物(PM10),109,168,239,56,70,69,,147,118,51,24,10,11,0.8,0.6
2025-04-17T2300,1303A,117.0624,36.6868,济南市,省种子仓库,颗粒物(PM10),126,202,274,51,91,55,,153,122,67,22,8,8,1.1,0.8
2025-04-17T2300,1304A,116.9489,36.6447,济南市,机床二厂,颗粒物(PM10),146,242,272,59,76,23,,151,110,98,33,12,12,0.9,0.5
2025-04-17T2300,1305A,117.0495,36.663,济南市,市监测站,颗粒物(PM10),120,190,260,49,64,53,,142,112,65,26,10,11,0.8,0.6
2025-04-17T2300,1306A,116.7675,36.5484,济南市,长清党校,颗粒物(PM10),124,198,240,56,67,57,,156,128,68,25,6,10,0.7,0.6
2025-04-17T2300,1616A,117.6795,36.229,济南市,技术学院,颗粒物(PM10),109,168,202,48,55,99,,144,125,45,29,16,16,0.9,1
2025-04-17T2300,1961A,117.532,36.6868,济南市,东山小学,颗粒物(PM10),85,120,248,32,61,84,,147,124,38,20,16,11,0.4,0.4
2025-04-17T2300,3059A,117.7161,36.2049,济南市,泰兴公司,颗粒物(PM10),111,171,183,63,57,111,,148,133,38,47,15,13,0.9,1
2025-04-17T2300,3064A,117.6867,36.2171,济南市,莱芜战役纪念馆,颗粒物(PM10),102,153,188,48,45,117,,145,133,34,34,11,11,0.9,0.9
2025-04-17T2300,3494A,117.1673,36.9782,济南市,济阳区政府,颗粒物(PM10),88,125,210,46,58,105,,150,134,26,25,16,12,0.7,0.5
2025-04-17T2300,3495A,117.1171,36.63,济南市,锦屏中学,颗粒物(PM10),96,142,254,46,73,65,,154,123,33,20,4,6,0.3,0.2
2025-04-17T2300,3682A,116.9814,36.6819,济南市,济南四建,颗粒物(PM10),112,173,235,51,64,68,,145,115,58,24,8,9,0.7,0.5
2025-04-17T2300,1653A,116.6251,35.4302,济宁市,火炬城,颗粒物(PM10),118,186,156,63,61,104,,152,143,11,9,9,9,0.6,0.4
2025-04-17T2300,1655A,116.5491,35.4042,济宁市,电化厂,颗粒物(PM10),108,166,139,66,60,84,,139,124,30,21,15,5,0.7,0.5
2025-04-17T2300,3500A,116.5814,35.3707,济宁市,北湖一中,颗粒物(PM10),116,181,145,44,41,100,,158,150,19,21,8,9,0.5,0.4
2025-04-17T2300,3501A,116.8249,35.5593,济宁市,服务中心,颗粒物(PM10),133,215,144,54,46,93,,142,126,30,22,5,4,0.7,0.5
2025-04-17T2300,3678A,116.5907,35.4054,济宁市,市第七中学,颗粒物(PM10),114,178,114,58,48,97,,155,145,13,13,7,6,0.6,0.5
2025-04-17T2300,2255A,130.2751,46.8028,佳木斯市,佳纺,细颗粒物(PM2.5),124,101,121,94,94,20,,164,108,66,34,8,10,0.9,0.8
2025-04-17T2300,2256A,130.3995,46.8307,佳木斯市,发电厂,细颗粒物(PM2.5),123,96,103,93,96,63,,172,110,28,33,7,9,0.7,0.8
2025-04-17T2300,2257A,130.3258,46.7975,佳木斯市,环保局,细颗粒物(PM2.5),117,117,120,88,95,41,,162,103,61,45,9,6,0.9,0.8
2025-04-17T2300,2258A,130.3648,46.8032,佳木斯市,十一中,细颗粒物(PM2.5),120,,94,91,90,56,,183,115,37,36,10,10,0.8,0.8
2025-04-17T2300,2259A,130.3794,46.7588,佳木斯市,四丰,细颗粒物(PM2.5),92,104,82,68,59,34,,150,87,53,25,1,1,1.4,1.2
2025-04-17T2300,1252A,120.7436,30.778,嘉兴市,清河小学,颗粒物(PM10),70,89,80,33,27,56,,99,79,34,35,5,6,1.0,0.9
2025-04-17T2300,1253A,120.726,30.7478,嘉兴市,嘉兴学院,颗粒物(PM10),64,78,69,40,31,41,,107,81,53,43,6,7,0.5,0.5
2025-04-17T2300,2872A,120.7846,30.7525,嘉兴市,南湖区残联,细颗粒物(PM2.5),107,,67,80,52,70,,114,92,26,28,6,7,0.7,0.7
2025-04-17T2300,3407A,120.6916,30.7739,嘉兴市,秀洲住建,颗粒物(PM10),75,100,89,33,31,63,,111,90,31,32,6,8,0.7,0.6
2025-04-17T2300,1945A,98.2908,39.7711,嘉峪关市,气象局,颗粒物(PM10),104,158,254,36,51,108,,112,104,2,8,3,7,0.2,0.3
2025-04-17T2300,2884A,98.2672,39.7978,嘉峪关市,酒钢宾馆,颗粒物(PM10),119,188,307,36,58,104,,104,99,1,14,12,41,0.3,0.7
2025-04-17T2300,3248A,98.2643,39.7724,嘉峪关市,雄关区,颗粒物(PM10),115,179,213,39,50,104,,110,102,9,14,7,9,0.4,0.5
2025-04-17T2300,1383A,113.1064,22.6058,江门市,北街,颗粒物(PM10),64,77,77,22,24,72,,119,96,6,6,3,2,0.5,0.4
2025-04-17T2300,1384A,113.0731,22.5835,江门市,西区,颗粒物(PM10),71,92,83,28,31,70,,112,87,13,11,7,7,0.4,0.4
2025-04-17T2300,1385A,113.0219,22.5311,江门市,圭峰西,颗粒物(PM10),58,65,87,23,26,70,,99,75,11,10,4,5,0.4,0.4
2025-04-17T2300,1386A,113.0828,22.5947,江门市,东湖,颗粒物(PM10),67,83,83,27,26,73,,112,88,12,10,8,8,0.5,0.4
2025-04-17T2300,3311A,113.1075,22.5647,江门市,江海富民,颗粒物(PM10),64,78,89,28,26,71,,108,84,8,9,8,7,0.5,0.4
2025-04-17T2300,3449A,113.05,22.4667,江门市,新会银湖,颗粒物(PM10),61,72,74,26,28,75,,102,82,8,17,1,3,0.3,0.3
2025-04-17T2300,3169A,113.2725,35.2067,焦作市,太极体育中心,颗粒物(PM10),149,247,234,86,98,98,,146,128,19,20,12,11,0.3,0.4
2025-04-17T2300,3335A,113.3137,35.2641,焦作市,马村街道办,颗粒物(PM10),145,240,228,85,116,86,,134,114,19,19,12,19,0.3,0.4
2025-04-17T2300,3336A,113.2465,35.2373,焦作市,焦作技师学院,颗粒物(PM10),160,270,250,58,74,102,,147,130,22,29,12,13,1.0,0.7
2025-04-17T2300,3477A,113.1656,35.2539,焦作市,中站许衡医院,颗粒物(PM10),115,179,213,58,74,122,,147,138,17,23,12,17,0.7,1
2025-04-17T2300,3981A,113.2449,35.1803,焦作市,原李万街道办,颗粒物(PM10),145,240,225,102,86,95,,142,124,24,29,21,17,0.4,0.4
2025-04-17T2300,4264A,113.2340,35.2190,焦作市,新安路1731号,颗粒物(PM10),156,261,233,85,85,98,,144,128,19,24,12,14,0.7,0.7
2025-04-17T2300,1708A,116.3701,23.5345,揭阳市,新兴,颗粒物(PM10),58,66,83,33,37,56,,106,82,15,19,5,6,0.7,0.7
2025-04-17T2300,1709A,116.3264,23.5443,揭阳市,西马,颗粒物(PM10),64,78,90,31,35,59,,111,87,13,15,9,8,0.6,0.6
2025-04-17T2300,1710A,116.3611,23.5626,揭阳市,东兴,颗粒物(PM10),57,64,88,22,27,62,,114,89,11,15,6,8,0.7,0.7
2025-04-17T2300,1711A,116.4151,23.5294,揭阳市,渔湖,颗粒物(PM10),58,66,85,27,28,65,,112,90,8,24,4,5,0.6,0.6
2025-04-17T2300,3320A,116.403,23.5699,揭阳市,曲溪,颗粒物(PM10),61,71,79,30,28,68,,124,97,13,18,12,10,0.5,0.5
2025-04-17T2300,1944A,102.1692,38.5167,金昌市,天庆家园,颗粒物(PM10),500,658,200,176,75,98,,110,107,2,10,9,20,0.7,0.7
2025-04-17T2300,4022A,102.1647,38.5371,金昌市,金川区人防中心,颗粒物(PM10),500,1600,347,178,79,97,,111,108,3,12,8,22,0.3,0.5
2025-04-17T2300,4239A,102.1930,38.5319,金昌市,长春路96号,颗粒物(PM10),466,566,298,145,76,98,,108,105,2,11,15,42,0.6,0.7
2025-04-17T2300,1262A,119.647,29.077,金华市,十五中,细颗粒物(PM2.5),78,89,74,57,38,24,,62,49,45,43,3,4,0.6,0.6
2025-04-17T2300,1263A,119.686,29.1029,金华市,监测站,颗粒物(PM10),61,71,70,38,35,3,,61,45,59,39,4,5,0.6,0.5
2025-04-17T2300,3659A,119.656,29.1131,金华市,气象局,颗粒物(PM10),65,80,78,43,36,1,,63,41,64,50,2,3,0.6,0.6
2025-04-17T2300,1767A,121.1115,41.0879,锦州市,南山,,23,,81,14,69,73,,128,94,11,38,10,31,0.5,1.1
2025-04-17T2300,1768A,121.0604,40.8428,锦州市,开发区,,24,17,99,13,50,75,,133,95,13,60,7,16,0.5,0.8
2025-04-17T2300,1769A,121.1836,41.1119,锦州市,百股街道,,20,17,68,9,42,61,,118,87,21,40,2,12,0.5,1
2025-04-17T2300,1770A,121.1178,41.1222,锦州市,天安街道,,42,,91,29,80,65,,111,81,12,38,10,26,0.6,1.2
2025-04-17T2300,1771A,121.1303,41.1386,锦州市,北湖公园,,23,,77,15,62,73,,121,89,11,31,8,21,0.5,1
2025-04-17T2300,2160A,112.85,35.5051,晋城市,自来水公司,颗粒物(PM10),131,211,207,51,62,103,,143,140,32,24,10,10,0.6,0.8
2025-04-17T2300,2161A,112.8318,35.4936,晋城市,白云商贸,颗粒物(PM10),128,205,202,70,84,68,,141,131,51,32,7,7,0.8,0.8
2025-04-17T2300,2162A,112.8508,35.4887,晋城市,市环保局,颗粒物(PM10),120,190,217,56,62,65,,128,118,51,28,6,6,0.7,0.6
2025-04-17T2300,2163A,112.8676,35.4897,晋城市,技术学院,细颗粒物(PM2.5),175,199,212,132,91,127,,142,142,22,26,8,8,0.6,0.7
2025-04-17T2300,3620A,112.8271,35.4828,晋城市,泽州一中,颗粒物(PM10),110,170,206,58,71,115,,145,144,22,21,12,9,0.6,0.7
2025-04-17T2300,2173A,112.7249,37.7067,晋中市,南都小区,颗粒物(PM10),182,313,303,90,80,89,,123,110,24,24,10,14,0.4,0.4
2025-04-17T2300,2174A,112.6991,37.6982,晋中市,榆次区政府,颗粒物(PM10),181,312,307,70,62,88,,121,107,23,26,10,16,0.4,0.5
2025-04-17T2300,2865A,112.7195,37.6828,晋中市,榆次三中,颗粒物(PM10),189,327,324,97,98,98,,126,114,19,24,8,16,0.7,0.8
2025-04-17T2300,4200A,112.7478,37.6954,晋中市,迎宾街26号,颗粒物(PM10),197,344,331,97,107,84,,124,105,20,22,8,20,0.5,0.4
2025-04-17T2300,2439A,112.2014,31.0481,荆门市,竹园小学,颗粒物(PM10),80,110,128,57,69,119,,159,143,24,24,17,12,0.3,0.3
2025-04-17T2300,2440A,112.1969,30.9891,荆门市,掇刀,颗粒物(PM10),79,108,124,57,59,151,,176,167,15,20,15,14,0.4,0.4
2025-04-17T2300,2441A,112.2213,31.0386,荆门市,石化一小,细颗粒物(PM2.5),89,117,124,66,64,77,,157,132,41,32,16,15,0.5,0.5
2025-04-17T2300,3012A,112.1849,31.0362,荆门市,西山林语,颗粒物(PM10),73,95,110,46,52,130,,156,142,11,15,12,10,0.2,0.3
2025-04-17T2300,3547A,112.1632,31.0138,荆门市,龙泉中学南校,颗粒物(PM10),72,94,111,50,51,137,,155,148,8,18,13,9,0.7,0.7
2025-04-17T2300,1844A,112.2494,30.3197,荆州市,市图书馆,细颗粒物(PM2.5),97,,87,72,48,144,,153,152,16,15,8,9,0.7,0.7
2025-04-17T2300,1845A,112.2008,30.3544,荆州市,市委党校,颗粒物(PM10),76,101,100,54,52,137,,139,139,18,14,10,9,0.6,0.6
2025-04-17T2300,3194A,112.2747,30.3122,荆州市,管委会,细颗粒物(PM2.5),77,91,86,56,55,135,,144,143,13,13,11,12,0.7,0.7
2025-04-17T2300,4268A,112.1722,30.3366,荆州市,学苑路85号,细颗粒物(PM2.5),74,92,83,54,50,121,,139,133,25,20,7,5,0.6,0.5
2025-04-17T2300,2343A,117.2117,29.2933,景德镇市,老干部活动中心,颗粒物(PM10),64,78,68,32,27,60,,131,110,30,19,9,10,0.6,0.5
2025-04-17T2300,2344A,117.1894,29.2789,景德镇市,兽医站,颗粒物(PM10),63,75,72,35,27,71,,126,116,20,20,4,6,0.5,0.5
2025-04-17T2300,2345A,117.1547,29.2617,景德镇市,台达陶瓷,颗粒物(PM10),70,89,77,46,30,53,,134,110,54,30,117,37,0.8,0.8
2025-04-17T2300,2346A,117.2461,29.2956,景德镇市,陶研所,颗粒物(PM10),63,76,61,33,32,44,,130,101,26,18,7,8,0.6,0.6
2025-04-17T2300,1803A,115.9872,29.6815,九江市,十里,颗粒物(PM10),65,79,77,43,37,70,,146,129,35,25,2,6,0.6,0.6
2025-04-17T2300,1804A,115.9584,29.7046,九江市,茅山头,颗粒物(PM10),68,86,89,28,35,90,,149,137,29,31,5,8,0.3,0.3
2025-04-17T2300,1805A,115.9877,29.7295,九江市,西园,颗粒物(PM10),63,76,73,37,32,112,,144,140,27,36,8,12,0.8,0.8
2025-04-17T2300,1808A,115.9114,29.6038,九江市,综合工业园,颗粒物(PM10),78,105,85,45,35,78,,153,136,86,36,11,11,0.7,0.8
2025-04-17T2300,1809A,116.0721,29.7535,九江市,石化总厂,颗粒物(PM10),66,82,83,42,35,108,,140,135,17,19,10,11,0.7,0.7
2025-04-17T2300,1810A,115.9773,29.5698,九江市,庐山气象台,颗粒物(PM10),55,60,73,36,34,151,,152,151,6,7,8,7,1.0,0.9
2025-04-17T2300,3190A,116.0254,29.6994,九江市,外国语学校,颗粒物(PM10),57,63,74,36,40,104,,137,134,16,22,3,19,0.7,0.7
2025-04-17T2300,4253A,116.0102,29.6594,九江市,莲花大道8号,"颗粒物(PM10),细颗粒物(PM2.5)",78,105,76,57,44,91,,138,128,10,13,4,7,0.6,0.6
2025-04-17T2300,4240A,98.4958,39.7339,酒泉市,玉门东路5号,颗粒物(PM10),125,200,243,61,54,92,,111,97,4,6,10,8,0.2,0.2
2025-04-17T2300,4241A,98.5099,39.7506,酒泉市,北大街108号,颗粒物(PM10),109,168,180,41,39,101,,118,106,4,8,10,11,0,0.1
2025-04-17T2300,2698A,76.0072,39.4467,喀什地区,巡警大队,颗粒物(PM10),116,181,84,50,12,25,,101,88,73,18,4,3,0.8,0.4
2025-04-17T2300,2699A,75.9755,39.4694,喀什地区,吾办,颗粒物(PM10),96,141,78,47,28,15,,101,86,81,24,2,2,1.1,0.5
2025-04-17T2300,4027A,75.9483,39.4689,喀什地区,老干局,颗粒物(PM10),100,149,75,41,16,25,,110,94,67,14,3,2,0.8,0.4
2025-04-17T2300,1824A,114.3389,34.7781,开封市,肿瘤医院,颗粒物(PM10),122,194,179,52,48,76,,153,122,30,19,10,10,0.7,0.5
2025-04-17T2300,1826A,114.2885,34.7965,开封市,世纪星幼儿园,颗粒物(PM10),110,170,186,61,57,102,,170,146,29,26,6,7,0.7,0.6
2025-04-17T2300,3147A,114.3438,34.8106,开封市,龙亭公园,颗粒物(PM10),108,165,186,65,76,89,,158,130,23,21,4,6,0.8,0.7
2025-04-17T2300,3210A,114.3644,34.7964,开封市,汴京公园,颗粒物(PM10),125,199,222,64,59,80,,158,120,26,21,4,6,0.9,0.8
2025-04-17T2300,3473A,114.2485,34.8306,开封市,技师学院,颗粒物(PM10),101,151,171,72,67,107,,147,136,18,22,4,6,1.0,0.7
2025-04-17T2300,3592A,114.4644,34.7556,开封市,祥符区生态环境局,颗粒物(PM10),115,180,182,68,89,73,,140,99,32,27,8,9,0.6,0.5
2025-04-17T2300,1951A,84.895,45.6094,克拉玛依市,长征新村,,22,19,9,13,6,69,,90,88,16,6,7,7,0.3,0.2
2025-04-17T2300,1952A,84.8988,45.5893,克拉玛依市,南林小区,,26,14,9,11,8,82,,105,98,8,3,2,2,0.4,0.3
2025-04-17T2300,1954A,84.905,44.3396,克拉玛依市,独山子区,,27,19,11,3,6,84,,116,114,14,4,7,7,0.3,0.2
2025-04-17T2300,1955A,85.6979,46.098,克拉玛依市,乌尔禾区商贸楼,,29,18,12,3,7,90,,108,104,9,3,6,6,0.3,0.2
2025-04-17T2300,3612A,85.1045,45.6899,克拉玛依市,白碱滩区新站,,21,20,12,3,4,67,,102,95,15,4,11,10,0.3,0.3
2025-04-17T2300,2697A,76.1454,39.7142,克孜勒苏柯尔克孜自治州,市人民政府,颗粒物(PM10),117,183,48,44,13,26,,122,101,79,8,6,7,0.6,0.2
2025-04-17T2300,3665A,76.1658,39.7157,克孜勒苏柯尔克孜自治州,克州文化中心,颗粒物(PM10),80,109,40,27,13,62,,120,110,48,5,8,9,0.6,0.2
2025-04-17T2300,1450A,102.8204,24.8886,昆明市,呈贡新区,,44,44,27,25,19,86,,136,116,38,16,6,6,0.5,0.4
2025-04-17T2300,1452A,102.7252,25.0902,昆明市,龙泉镇,,37,24,19,9,10,117,,123,118,14,10,8,8,0.4,0.3
2025-04-17T2300,1453A,102.7266,25.0375,昆明市,东风东路,,35,22,21,12,15,112,,130,124,24,14,9,10,0.4,0.4
2025-04-17T2300,1454A,102.6742,25.0669,昆明市,金鼎山,,44,,19,16,16,140,,138,136,14,13,8,7,0.4,0.3
2025-04-17T2300,1455A,102.6644,25.0401,昆明市,碧鸡广场,,39,18,20,13,13,124,,127,124,16,11,9,9,0.4,0.3
2025-04-17T2300,3179A,102.7494,25.0119,昆明市,官渡区博物馆,,39,15,22,10,14,122,,134,127,15,11,8,8,0.4,0.4
2025-04-17T2300,3375A,102.8017,24.8336,昆明市,青年创业园,,37,25,21,11,12,118,,140,131,12,7,7,8,0.4,0.4
2025-04-17T2300,3550A,102.7997,24.9786,昆明市,昆明学院,,39,20,20,12,12,122,,138,130,12,10,5,5,0.3,0.3
2025-04-17T2300,3551A,102.5967,24.6736,昆明市,晋宁区生态环境分局,,35,19,11,14,9,109,,129,125,11,6,6,6,0.7,0.6
2025-04-17T2300,3552A,102.6678,24.9856,昆明市,云天化总部,,41,13,20,9,12,129,,128,126,9,10,6,9,0.3,0.3
2025-04-17T2300,1456A,91.1319,29.6514,拉萨市,八廓街,,28,28,17,17,10,88,,152,138,37,16,6,9,0.6,0.4
2025-04-17T2300,1457A,91.1221,29.6747,拉萨市,市环保局,,38,38,23,20,11,81,,144,127,30,20,4,6,0.6,0.4
2025-04-17T2300,1458A,91.0874,29.6475,拉萨市,区监测站,,36,36,19,17,10,75,,140,121,52,28,6,8,0.8,0.6
2025-04-17T2300,1459A,91.1774,29.6541,拉萨市,西藏大学,,36,26,16,19,8,113,,143,137,18,14,5,8,0.3,0.4
2025-04-17T2300,1460A,90.9798,29.6588,拉萨市,区辐射站,,32,32,20,15,10,77,,141,130,55,24,11,10,0.5,0.4
2025-04-17T2300,1461A,91.0834,29.6292,拉萨市,拉萨火车站,,29,24,16,11,9,92,,140,131,32,16,3,5,0.5,0.4
2025-04-17T2300,2520A,109.2203,23.7256,来宾市,来宾技工学校,细颗粒物(PM2.5),77,90,123,56,55,79,,114,90,14,12,5,6,0.7,0.7
2025-04-17T2300,3535A,109.1781,23.7297,来宾市,兴宾区政府,颗粒物(PM10),75,100,125,47,50,72,,114,93,15,10,7,7,0.7,0.6
2025-04-17T2300,4002A,109.2416,23.7461,来宾市,中南小学,颗粒物(PM10),79,108,130,44,48,64,,104,78,16,12,8,9,0.7,0.6
2025-04-17T2300,1479A,103.831,36.0464,兰州市,铁路设计院,颗粒物(PM10),89,127,135,48,44,8,,110,64,114,74,15,20,1.2,0.9
2025-04-17T2300,3241A,103.7439,36.0842,兰州市,百合公园,颗粒物(PM10),106,162,124,57,40,3,,118,60,113,54,11,12,1.5,0.7
2025-04-17T2300,3242A,103.9611,35.998,兰州市,和平,颗粒物(PM10),82,114,137,51,52,44,,123,85,52,32,9,15,0.5,0.6
2025-04-17T2300,4236A,103.6293,36.0938,兰州市,庄浪东路808号,颗粒物(PM10),74,97,124,45,46,18,,125,77,100,51,11,31,0.8,0.7
2025-04-17T2300,4237A,103.7251,36.1043,兰州市,安宁西路88号,颗粒物(PM10),114,178,145,60,53,3,,137,76,109,46,9,17,1.1,0.6
2025-04-17T2300,4238A,103.8470,36.0676,兰州市,北滨河东路1号,颗粒物(PM10),96,141,140,54,50,2,,128,66,107,63,16,18,1.1,1
2025-04-17T2300,3245A,103.6633,36.533,兰州新区,新区管委会,颗粒物(PM10),179,308,107,60,40,98,,126,115,8,16,11,13,0.4,0.5
2025-04-17T2300,3246A,103.6975,36.4789,兰州新区,舟曲中学,颗粒物(PM10),120,189,119,49,39,104,,135,123,15,21,18,16,0.3,0.3
2025-04-17T2300,1067A,116.6708,39.5111,廊坊市,药材公司,颗粒物(PM10),65,79,83,26,41,98,,124,106,11,16,4,4,0.6,0.7
2025-04-17T2300,1068A,116.7214,39.5589,廊坊市,开发区,颗粒物(PM10),76,102,91,31,41,109,,124,109,13,18,5,4,0.6,0.5
2025-04-17T2300,1070A,116.7244,39.5269,廊坊市,北华航天学院,颗粒物(PM10),88,125,97,36,42,101,,122,104,11,14,7,6,0.7,0.6
2025-04-17T2300,2919A,116.7022,39.5453,廊坊市,河北工业大学,颗粒物(PM10),82,113,95,32,44,105,,127,110,9,14,7,7,0.6,0.6
2025-04-17T2300,2535A,103.7723,29.5462,乐山市,花湖湾,颗粒物(PM10),65,79,75,43,40,169,,182,181,9,12,8,9,0.5,0.6
2025-04-17T2300,2536A,103.7627,29.5844,乐山市,牛耳桥,颗粒物(PM10),75,99,82,50,40,46,,172,140,54,22,6,8,0.8,0.7
2025-04-17T2300,2537A,103.7508,29.6006,乐山市,市第三水厂,细颗粒物(PM2.5),82,108,79,60,41,54,,170,135,49,22,5,5,0.7,0.6
2025-04-17T2300,2538A,103.7571,29.5664,乐山市,市监测站,颗粒物(PM10),71,92,80,46,41,107,,166,153,34,19,8,7,0.8,0.8
2025-04-17T2300,3361A,103.7311,29.5628,乐山市,理工大学,颗粒物(PM10),67,84,75,46,37,73,,180,162,53,19,6,6,0.8,0.6
2025-04-17T2300,2599A,100.2497,26.8802,丽江市,丽江古城,,33,33,25,20,14,96,,118,109,13,12,9,9,0.4,0.4
2025-04-17T2300,2600A,100.2203,26.8906,丽江市,市中心,,,16,23,16,13,,,115,,,9,,4,,0.4
2025-04-17T2300,1267A,119.914,28.4514,丽水市,监测站大楼,颗粒物(PM10),53,56,51,29,34,14,,41,22,30,30,4,4,0.5,0.5
2025-04-17T2300,1268A,119.93,28.4586,丽水市,莲都小学,颗粒物(PM10),51,52,59,27,26,14,,44,25,28,29,3,4,0.5,0.4
2025-04-17T2300,1269A,119.879,28.4231,丽水市,余庄前,,46,46,56,27,31,3,,30,8,11,20,3,4,0.5,0.5
2025-04-17T2300,1173A,119.176,34.5885,连云港市,市环境监测站,颗粒物(PM10),81,112,100,51,45,73,,145,127,33,15,6,7,0.7,0.5
2025-04-17T2300,3000A,119.3581,34.6972,连云港市,德源药业,颗粒物(PM10),90,129,114,53,37,42,,143,118,60,21,10,10,0.6,0.6
2025-04-17T2300,3007A,119.178,34.844,连云港市,新城一中,颗粒物(PM10),82,114,98,47,42,30,,143,110,89,28,10,11,0.8,0.8
2025-04-17T2300,3008A,119.3608,34.7519,连云港市,胡沟管理处,颗粒物(PM10),63,75,79,31,34,88,,139,119,31,26,11,12,0.6,0.6
2025-04-17T2300,3009A,119.1478,34.5911,连云港市,矿山设计院,颗粒物(PM10),76,102,103,39,38,64,,134,118,43,20,9,12,0.6,0.6
2025-04-17T2300,3434A,119.2413,34.6539,连云港市,工贸学校,颗粒物(PM10),73,95,98,42,44,118,,147,138,14,17,9,11,0.7,0.7
2025-04-17T2300,3664A,119.4172,34.7341,连云港市,连云街道,颗粒物(PM10),81,111,127,39,39,100,,153,139,28,16,8,9,0.6,0.5
2025-04-17T2300,2571A,102.3431,27.8099,凉山彝族自治州,青龙寺,,32,32,20,7,4,52,,136,110,30,10,7,8,0.4,0.5
2025-04-17T2300,2572A,102.2721,27.8415,凉山彝族自治州,邛海宾馆,,34,24,24,12,9,108,,138,128,17,13,11,7,0.7,0.5
2025-04-17T2300,2573A,102.2625,27.898,凉山彝族自治州,西昌市政府,,30,20,20,18,15,94,,131,121,8,10,9,9,0.5,0.5
2025-04-17T2300,2574A,102.2685,27.8851,凉山彝族自治州,凉山州政府,,32,32,19,18,15,88,,132,121,15,12,6,7,0.4,0.5
2025-04-17T2300,4229A,102.2342,27.8859,凉山彝族自治州,凯乐南路30号,,31,31,23,19,11,84,,124,114,15,17,11,12,0.9,0.8
2025-04-17T2300,2212A,123.2,41.1953,辽阳市,宏伟区,,27,23,56,3,32,85,,144,89,7,16,12,12,0.6,0.9
2025-04-17T2300,2213A,123.1683,41.2495,辽阳市,新华园,,40,,60,28,41,90,,148,80,7,23,7,10,0.6,1
2025-04-17T2300,2214A,123.2354,41.2639,辽阳市,滨河路,,49,,54,34,34,78,,123,75,9,24,7,10,0.6,0.9
2025-04-17T2300,2215A,123.149,41.2991,辽阳市,铁西工业园,,39,32,73,27,48,79,,120,72,9,28,9,11,0.2,0.6
2025-04-17T2300,2227A,125.1358,42.8845,辽源市,环保局,,50,50,47,33,25,124,,146,127,13,28,6,8,0.6,0.6
2025-04-17T2300,3239A,125.0764,42.9078,辽源市,银鹰制药,细颗粒物(PM2.5),58,46,43,41,30,118,,150,131,12,26,5,8,0.5,0.5
2025-04-17T2300,1625A,115.9848,36.4372,聊城市,区政府,颗粒物(PM10),128,206,260,58,70,76,,147,129,44,22,13,15,0.9,0.8
2025-04-17T2300,2878A,116.0072,36.4343,聊城市,聊大东校,颗粒物(PM10),126,202,275,58,77,84,,143,126,39,26,11,13,0.6,0.5
2025-04-17T2300,3200A,115.9819,36.4978,聊城市,监控中心,颗粒物(PM10),131,211,277,63,82,54,,146,122,63,27,10,12,0.7,0.6
2025-04-17T2300,3513A,116.0445,36.4361,聊城市,九州社区,颗粒物(PM10),112,174,217,50,62,74,,151,132,43,18,12,10,0.5,0.5
2025-04-17T2300,4018A,116.0567,36.4608,聊城市,星美广场,颗粒物(PM10),118,186,234,39,54,75,,147,128,42,25,12,13,0.8,0.8
2025-04-17T2300,2632A,94.3681,29.6376,林芝市,林芝监测站,,32,12,11,12,7,100,,117,111,3,5,5,5,0.5,0.3
2025-04-17T2300,2633A,94.3616,29.6616,林芝市,林芝人民医院,,30,20,15,11,8,96,,112,107,1,4,5,5,0.3,0.2
2025-04-17T2300,2603A,100.0781,23.8982,临沧市,市环保局,,48,,22,33,24,85,,116,109,13,10,6,6,0.6,0.5
2025-04-17T2300,2604A,100.0894,23.8822,临沧市,市气象局,,29,25,18,14,14,92,,121,115,15,10,7,7,0.6,0.5
2025-04-17T2300,1733A,111.5531,36.0783,临汾市,临钢医院,颗粒物(PM10),138,225,261,62,71,8,,123,73,80,39,7,11,0.8,0.7
2025-04-17T2300,1734A,111.5028,36.0714,临汾市,技工学校,颗粒物(PM10),100,150,198,60,82,44,,128,91,51,35,6,8,0.8,0.8
2025-04-17T2300,1736A,111.5018,36.0855,临汾市,市委,颗粒物(PM10),119,188,232,54,66,43,,128,98,54,36,8,9,0.6,0.7
2025-04-17T2300,3018A,111.505,36.1014,临汾市,唐尧大酒店,颗粒物(PM10),123,195,231,51,71,20,,124,87,64,38,10,11,0.7,0.7
2025-04-17T2300,4244A,111.4879,36.0530,临汾市,启星学校,颗粒物(PM10),119,187,230,67,67,26,,125,90,69,36,7,10,0.7,0.6
2025-04-17T2300,4271A,103.2464,35.6123,临夏回族自治州,滨河东路1号,颗粒物(PM10),154,258,132,83,48,1,,112,62,60,24,9,8,0.8,0.5
2025-04-17T2300,4310A,103.2093,35.5995,临夏回族自治州,新华街21号,颗粒物(PM10),101,151,123,71,46,5,,104,70,67,30,5,9,0.9,0.4
2025-04-17T2300,1618A,118.3429,35.0532,临沂市,沂河小区,颗粒物(PM10),98,146,128,60,61,68,,145,124,37,26,12,15,0.9,0.8
2025-04-17T2300,1619A,118.295,35.0583,临沂市,鲁南制药厂,颗粒物(PM10),92,134,129,60,57,90,,160,138,31,28,14,17,0.9,0.7
2025-04-17T2300,1620A,118.2794,34.9976,临沂市,新光毛纺厂,颗粒物(PM10),84,117,121,57,48,76,,141,118,32,30,13,15,0.6,0.5
2025-04-17T2300,1621A,118.3956,35.0888,临沂市,河东保险公司,颗粒物(PM10),91,132,112,55,44,46,,154,126,57,24,5,11,0.4,0.4
2025-04-17T2300,3370A,118.3564,35.0215,临沂市,十里堡居委,颗粒物(PM10),92,134,129,58,48,63,,148,123,35,32,10,13,0.7,0.6
2025-04-17T2300,3496A,118.3604,35.1084,临沂市,南坊新区,颗粒物(PM10),106,161,145,56,45,69,,152,132,42,21,9,13,0.8,0.8
2025-04-17T2300,3860A,118.3920,35.0300,临沂市,皇山花园小区,颗粒物(PM10),97,144,128,59,48,57,,152,120,45,31,12,16,1.0,0.9
2025-04-17T2300,1870A,109.4856,24.3895,柳州市,柳东小学,颗粒物(PM10),85,119,131,48,50,79,,130,108,24,16,29,13,0.6,0.5
2025-04-17T2300,1871A,109.4157,24.3277,柳州市,环保监测站,颗粒物(PM10),89,127,151,51,53,67,,119,99,16,11,15,12,0.8,0.8
2025-04-17T2300,1872A,109.389,24.341,柳州市,河西水厂,颗粒物(PM10),92,134,154,45,44,64,,119,100,26,16,12,8,0.8,0.7
2025-04-17T2300,1873A,109.4311,24.2921,柳州市,市四中,颗粒物(PM10),86,122,145,48,47,60,,110,94,29,17,19,10,0.7,0.6
2025-04-17T2300,1874A,109.4006,24.3631,柳州市,市九中,颗粒物(PM10),92,133,154,49,51,76,,123,109,16,12,13,11,0.7,0.7
2025-04-17T2300,1875A,109.4958,24.3134,柳州市,古亭山,颗粒物(PM10),83,116,145,47,48,74,,123,98,19,13,21,10,0.6,0.6
2025-04-17T2300,3402A,109.5422,24.3996,柳州市,市二中,颗粒物(PM10),81,112,137,52,51,62,,122,91,30,15,26,18,0.5,0.4
2025-04-17T2300,2307A,116.5079,31.737,六安市,监测大楼,颗粒物(PM10),61,72,69,42,38,94,,148,123,18,16,7,7,0.5,0.4
2025-04-17T2300,2308A,116.4738,31.7643,六安市,皖西学院,颗粒物(PM10),66,81,80,40,37,116,,149,129,7,7,7,6,0.5,0.5
2025-04-17T2300,2309A,116.4996,31.7905,六安市,朝阳厂,颗粒物(PM10),63,76,71,41,35,90,,136,115,19,19,5,5,0.5,0.4
2025-04-17T2300,2310A,116.5567,31.7886,六安市,开发区,颗粒物(PM10),77,103,92,49,39,95,,127,118,23,21,6,7,0.5,0.4
2025-04-17T2300,2577A,104.83,26.5917,六盘水市,黄土坡,,49,49,40,27,23,38,,126,97,44,15,8,9,0.3,0.2
2025-04-17T2300,2578A,104.89,26.5939,六盘水市,水钢,颗粒物(PM10),55,60,46,31,21,108,,130,123,19,13,10,11,0.5,0.6
2025-04-17T2300,2579A,104.8475,26.5894,六盘水市,民中,颗粒物(PM10),65,79,38,36,21,34,,127,92,59,18,12,8,1.0,0.5
2025-04-17T2300,2580A,104.9544,26.5506,六盘水市,双水,颗粒物(PM10),51,51,47,17,19,122,,132,126,11,12,9,9,0.2,0.2
2025-04-17T2300,2336A,117.0217,25.1033,龙岩市,龙岩市监测站,颗粒物(PM10),53,55,70,23,24,46,,126,88,30,19,19,11,0.5,0.4
2025-04-17T2300,2337A,117.0258,25.0661,龙岩市,闽西职业技术学院,颗粒物(PM10),59,68,73,28,27,58,,119,86,30,19,18,22,0.5,0.4
2025-04-17T2300,2338A,117.0196,25.0306,龙岩市,龙岩学院,颗粒物(PM10),51,51,60,31,28,70,,128,94,20,9,11,5,0.4,0.4
2025-04-17T2300,2885A,104.9339,33.3826,陇南市,滨江中学,颗粒物(PM10),64,77,74,26,29,127,,102,102,4,5,8,8,0.4,0.4
2025-04-17T2300,3247A,104.955,33.371,陇南市,市总工会,颗粒物(PM10),59,67,69,25,30,135,,109,109,6,5,10,10,0.5,0.4
2025-04-17T2300,2488A,111.9975,27.725,娄底市,市监测站,颗粒物(PM10),76,101,107,47,56,104,,144,134,28,30,14,15,0.5,0.7
2025-04-17T2300,2489A,112.0194,27.7314,娄底市,市委党校,颗粒物(PM10),79,108,106,47,53,100,,140,127,16,18,4,4,0.5,0.6
2025-04-17T2300,2490A,111.9561,27.7569,娄底市,涟钢,颗粒物(PM10),83,115,115,49,56,111,,138,132,14,24,32,18,0.9,0.8
2025-04-17T2300,2491A,111.9892,27.7044,娄底市,市政府,颗粒物(PM10),75,99,103,46,53,104,,143,132,14,16,7,6,0.6,0.8
2025-04-17T2300,1894A,105.4427,28.9063,泸州市,小市上码头,,,118,90,44,37,,,122,,20,19,7,7,0.6,0.9
2025-04-17T2300,1895A,105.4241,28.8573,泸州市,兰田宪桥,颗粒物(PM10),75,100,70,48,44,115,,163,141,21,14,11,9,0.7,0.6
2025-04-17T2300,4272A,105.3689,28.7783,泸州市,纳溪中医医院,颗粒物(PM10),77,103,81,36,29,71,,152,120,30,18,9,8,0.8,0.7
2025-04-17T2300,2183A,111.1406,37.5211,吕梁市,环保局,颗粒物(PM10),108,166,297,54,84,36,,117,82,52,33,7,8,0.1,0.2
2025-04-17T2300,2185A,111.1297,37.5136,吕梁市,自来水公司,颗粒物(PM10),108,166,302,58,87,41,,114,87,42,27,7,10,0.4,0.4
2025-04-17T2300,2867A,111.1283,37.51,吕梁市,马茂庄小学,颗粒物(PM10),110,170,313,47,86,31,,116,79,60,40,3,6,0.3,0.4
2025-04-17T2300,1812A,112.3931,34.6516,洛阳市,市委党校,颗粒物(PM10),90,130,176,44,62,118,,145,134,10,22,7,5,0.6,0.6
2025-04-17T2300,1815A,112.494,34.6886,洛阳市,河南林校,颗粒物(PM10),101,151,195,60,69,116,,147,140,11,21,5,7,0.6,0.6
2025-04-17T2300,1816A,112.3844,34.623,洛阳市,开发区管委会,颗粒物(PM10),104,157,188,63,75,126,,151,143,8,14,13,7,0.4,0.4
2025-04-17T2300,1817A,112.4267,34.6258,洛阳市,市委新办公区,颗粒物(PM10),104,157,178,44,60,125,,153,144,14,21,7,6,0.6,0.5
2025-04-17T2300,3340A,112.6005,34.6326,洛阳市,伊滨,颗粒物(PM10),90,129,156,48,68,139,,142,142,7,19,8,11,0.5,0.6
2025-04-17T2300,3341A,112.4951,34.6332,洛阳市,中移产业园,颗粒物(PM10),127,204,226,52,63,132,,148,143,10,19,7,8,0.5,0.5
2025-04-17T2300,3593A,112.5736,34.8993,洛阳市,吉利监测站,颗粒物(PM10),113,176,210,64,73,82,,146,128,23,18,10,7,0.6,0.5
2025-04-17T2300,3635A,112.3677,34.662,洛阳市,河科大西苑校区,颗粒物(PM10),103,156,209,41,59,127,,150,142,9,27,18,11,0.4,0.4
2025-04-17T2300,3636A,112.4388,34.6781,洛阳市,英才小学,颗粒物(PM10),97,143,192,54,70,121,,149,138,17,36,6,8,0.5,0.6
2025-04-17T2300,4214A,112.4600,34.6949,洛阳市,春都路1号院,颗粒物(PM10),105,159,210,42,72,120,,156,142,14,40,5,11,0.6,0.8
2025-04-17T2300,2399A,114.051,33.5699,漯河市,三五一五工厂,颗粒物(PM10),81,112,117,53,49,104,,143,128,20,14,6,7,0.7,0.6
2025-04-17T2300,2400A,114.0055,33.5698,漯河市,漯河大学,颗粒物(PM10),79,108,109,46,48,114,,152,142,16,14,12,8,0.5,0.4
2025-04-17T2300,2401A,114.0138,33.5828,漯河市,市水利局,颗粒物(PM10),84,117,118,46,48,115,,148,138,13,9,9,6,0.7,0.6
2025-04-17T2300,2402A,114.0261,33.5698,漯河市,市广电局,,,120,119,57,51,,,148,,,11,7,6,0.6,0.4
2025-04-17T2300,3478A,113.9749,33.5664,漯河市,市图书馆,,,132,126,56,51,,,141,,24,16,10,6,0.6,0.5
2025-04-17T2300,4250A,114.0892,33.5882,漯河市,韶山路11号,颗粒物(PM10),87,124,124,49,52,122,,144,128,15,15,5,5,0.6,0.5
2025-04-17T2300,1798A,118.5092,31.6837,马鞍山市,湖东路四小,颗粒物(PM10),68,85,84,48,36,89,,151,136,30,21,10,11,1.1,0.7
2025-04-17T2300,1799A,118.5024,31.6449,马鞍山市,开发区,颗粒物(PM10),78,105,84,49,38,74,,148,132,43,29,8,10,1.5,0.9
2025-04-17T2300,1802A,118.6245,31.7241,马鞍山市,濮塘,颗粒物(PM10),62,73,88,40,36,108,,161,148,19,17,7,11,0.5,0.6
2025-04-17T2300,3633A,118.4918,31.6809,马鞍山市,雨山,颗粒物(PM10),68,86,84,44,38,78,,150,132,39,25,8,11,0.8,0.8
2025-04-17T2300,4191A,118.5274,31.72227,马鞍山市,慈湖高新区,颗粒物(PM10),73,96,87,45,39,83,,143,129,37,21,9,10,1.2,0.7
2025-04-17T2300,1686A,111.0286,21.4688,茂名市,电白南海,颗粒物(PM10),73,95,129,34,41,66,,101,73,12,11,2,1,0.8,0.8
2025-04-17T2300,1687A,110.9294,21.6533,茂名市,茂石化七小,颗粒物(PM10),80,110,130,29,34,67,,93,73,8,9,2,3,0.7,0.7
2025-04-17T2300,1688A,110.9107,21.6687,茂名市,健康路,颗粒物(PM10),80,110,129,31,37,80,,114,84,5,7,2,4,0.7,0.7
2025-04-17T2300,1689A,110.8592,21.6828,茂名市,高岭,颗粒物(PM10),84,117,144,24,30,71,,112,78,9,9,6,4,0.6,0.6
2025-04-17T2300,3450A,111.01,21.5165,茂名市,电白水东,颗粒物(PM10),70,90,122,19,34,70,,102,75,10,11,2,2,0.6,0.6
2025-04-17T2300,2539A,104.0308,30.0478,眉山市,黑龙滩水库,颗粒物(PM10),61,71,52,22,21,63,,172,144,25,11,2,2,0.4,0.4
2025-04-17T2300,2540A,103.8416,30.0874,眉山市,气象局,颗粒物(PM10),71,92,92,41,40,9,,169,126,85,31,3,4,0.7,0.7
2025-04-17T2300,3137A,103.8578,30.0744,眉山市,市委党校,颗粒物(PM10),60,70,75,36,33,19,,161,134,76,28,8,9,1.3,0.9
2025-04-17T2300,3148A,103.8291,30.0564,眉山市,区人社局,颗粒物(PM10),62,74,64,41,33,27,,167,133,100,31,10,11,1.3,0.8
2025-04-17T2300,1690A,116.1231,24.3284,梅州市,梅江月梅,颗粒物(PM10),55,60,68,26,29,95,,117,103,11,18,8,6,0.5,0.5
2025-04-17T2300,1691A,116.0797,24.2719,梅州市,梅县新城,颗粒物(PM10),55,59,68,24,27,76,,116,100,20,18,7,6,0.6,0.5
2025-04-17T2300,1692A,116.1248,24.2654,梅州市,环境监控中心,颗粒物(PM10),55,60,71,28,27,62,,118,94,30,26,8,8,0.4,0.5
2025-04-17T2300,3315A,116.1233,24.2991,梅州市,梅龙,颗粒物(PM10),58,66,70,30,29,84,,115,100,16,15,8,8,0.5,0.5
2025-04-17T2300,1878A,104.7778,31.4741,绵阳市,富乐山,颗粒物(PM10),69,87,98,41,43,123,,177,162,14,18,12,9,0.5,0.5
2025-04-17T2300,1880A,104.6697,31.4668,绵阳市,高新区自来水公司,颗粒物(PM10),79,108,96,46,50,25,,187,144,89,30,4,4,0.7,0.6
2025-04-17T2300,1881A,104.7287,31.5075,绵阳市,三水厂,颗粒物(PM10),79,107,110,52,56,40,,183,140,66,30,7,7,0.7,0.6
2025-04-17T2300,3491A,104.69,31.5322,绵阳市,西科大附属小学,颗粒物(PM10),85,120,113,43,44,58,,190,154,72,28,8,8,0.7,0.6
2025-04-17T2300,3492A,104.5648,31.5343,绵阳市,安州区旅游局,颗粒物(PM10),74,97,92,39,36,69,,182,151,34,23,7,10,0.7,0.5
2025-04-17T2300,4226A,104.7651,31.4531,绵阳市,绵阳市气象局,颗粒物(PM10),77,104,96,53,43,111,,176,157,27,22,12,7,0.6,0.6
2025-04-17T2300,1784A,129.61,44.561,牡丹江市,环保大楼,细颗粒物(PM2.5),122,121,56,92,39,12,,117,75,72,30,8,9,0.9,0.5
2025-04-17T2300,1785A,129.6115,44.5782,牡丹江市,文化广场,细颗粒物(PM2.5),122,139,79,92,49,10,,114,71,76,35,15,17,1.3,0.8
2025-04-17T2300,1786A,129.5904,44.5963,牡丹江市,第一医院,细颗粒物(PM2.5),122,,62,92,52,40,,122,80,33,24,8,8,0.8,0.5
2025-04-17T2300,1787A,129.6364,44.6075,牡丹江市,机车工厂,细颗粒物(PM2.5),139,126,70,106,40,20,,122,66,44,25,35,18,1.2,0.6
2025-04-17T2300,1788A,129.6386,44.5462,牡丹江市,第一中学,细颗粒物(PM2.5),79,68,46,58,33,20,,125,78,48,24,8,8,0.8,0.6
2025-04-17T2300,2531A,105.0703,29.61,内江市,市监测站,颗粒物(PM10),107,163,96,54,51,,,194,176,29,22,10,14,0.6,0.8
2025-04-17T2300,2532A,105.0717,29.5947,内江市,东兴区政府,颗粒物(PM10),67,84,93,43,43,129,,186,173,31,22,10,10,0.7,0.6
2025-04-17T2300,2533A,105.0653,29.5817,内江市,内江二中,颗粒物(PM10),84,117,101,56,54,142,,178,168,23,26,9,9,0.6,0.6
2025-04-17T2300,2534A,105.0406,29.5822,内江市,内江日报社,颗粒物(PM10),79,107,107,53,53,134,,187,164,33,31,12,12,0.6,0.5
2025-04-17T2300,2628A,92.0657,31.4846,那曲市,那曲监测站,,42,42,41,26,25,68,,105,93,31,25,7,7,0.9,0.8
2025-04-17T2300,4243A,92.0515,31.4787,那曲市,那曲市委宣传部,,28,25,31,15,15,88,,118,107,13,17,7,7,0.3,0.5
2025-04-17T2300,1290A,115.8931,28.6843,南昌市,省外办,颗粒物(PM10),69,87,79,41,42,43,,128,100,38,39,6,7,0.7,0.6
2025-04-17T2300,1291A,115.8886,28.7003,南昌市,省林业公司,颗粒物(PM10),67,83,83,39,41,42,,122,96,27,31,8,10,0.6,0.6
2025-04-17T2300,1292A,115.8126,28.7442,南昌市,林科所,颗粒物(PM10),54,58,73,29,37,46,,141,105,48,46,2,4,0.0,0.5
2025-04-17T2300,1294A,115.8518,28.687,南昌市,建工学校,颗粒物(PM10),67,84,101,31,45,41,,130,107,50,42,2,5,0.9,0.7
2025-04-17T2300,1295A,115.8921,28.6424,南昌市,象湖,颗粒物(PM10),65,79,78,34,38,51,,142,107,26,32,6,8,0.7,0.8
2025-04-17T2300,1296A,115.7423,28.7996,南昌市,武术学校,,38,34,50,26,18,18,,142,98,8,7,10,10,0.7,0.7
2025-04-17T2300,3046A,115.9084,28.6062,南昌市,机电学校,颗粒物(PM10),74,98,86,39,42,31,,127,94,46,34,2,4,0.5,0.5
2025-04-17T2300,3690A,115.9721,28.7031,南昌市,外国语学校,颗粒物(PM10),63,75,78,37,33,73,,136,108,18,27,9,10,0.3,0.3
2025-04-17T2300,4192A,115.9316,28.68677,南昌市,南京东路235号,,,57,73,36,39,66,,136,111,26,36,,8,,0.8
2025-04-17T2300,1905A,106.056,30.8064,南充市,西山风景区,颗粒物(PM10),61,72,67,36,33,143,,151,150,15,11,9,6,0.6,0.5
2025-04-17T2300,1906A,106.0789,30.8023,南充市,南充市委,,,109,100,52,49,,,148,116,87,33,4,5,0.9,0.6
2025-04-17T2300,1907A,106.1031,30.8217,南充市,南充炼油厂,颗粒物(PM10),81,112,102,59,46,71,,142,115,46,30,5,6,0.6,0.5
2025-04-17T2300,4227A,106.1083,30.7884,南充市,梨树横街98号,颗粒物(PM10),79,108,106,51,36,61,,145,128,65,38,8,8,0.6,0.4
2025-04-17T2300,4304A,106.1172,30.843,南充市,清泉寺北路188号,颗粒物(PM10),82,114,96,39,40,95,,142,133,29,22,6,6,0.4,0.4
2025-04-17T2300,4305A,106.067,30.7616,南充市,同庆路1号,颗粒物(PM10),82,114,96,44,43,2,,127,92,117,45,4,6,1.1,0.6
2025-04-17T2300,1151A,118.8086,32.1065,南京市,迈皋桥,颗粒物(PM10),53,56,67,34,33,119,,155,140,22,31,4,9,0.3,0.6
2025-04-17T2300,1152A,118.7538,32.0551,南京市,草场门,颗粒物(PM10),60,70,79,36,31,113,,148,136,18,25,5,10,0.6,0.8
2025-04-17T2300,1153A,118.7794,32.0745,南京市,山西路,颗粒物(PM10),60,70,92,31,29,121,,155,142,20,24,4,10,0.3,0.5
2025-04-17T2300,1154A,118.7752,32.0023,南京市,中华门,颗粒物(PM10),58,66,75,31,31,97,,133,122,2,14,10,18,0.2,0.4
2025-04-17T2300,1155A,118.8109,32.0309,南京市,瑞金路,颗粒物(PM10),60,70,85,39,33,109,,150,134,10,14,6,6,0.2,0.5
2025-04-17T2300,1156A,118.7997,32.0754,南京市,玄武湖,颗粒物(PM10),62,73,82,32,27,89,,118,107,12,15,7,12,0.5,0.8
2025-04-17T2300,1157A,118.6414,32.0931,南京市,浦口,颗粒物(PM10),71,91,91,27,24,92,,159,140,32,23,7,8,0.6,0.5
2025-04-17T2300,1158A,118.7356,31.9996,南京市,奥体中心,颗粒物(PM10),62,74,85,36,34,111,,151,137,21,28,8,15,0.5,0.9
2025-04-17T2300,1159A,118.9125,32.1028,南京市,仙林大学城,颗粒物(PM10),63,75,92,31,30,114,,158,142,18,21,10,16,0.8,1
2025-04-17T2300,3422A,118.8436,31.9198,南京市,江宁彩虹桥,颗粒物(PM10),68,85,86,36,31,109,,156,138,10,15,5,5,0.6,0.6
2025-04-17T2300,3427A,118.8554,32.3578,南京市,六合雄州,颗粒物(PM10),76,102,88,32,31,91,,154,134,12,9,19,10,4.2,0.9
2025-04-17T2300,4249A,118.8708,31.3402,南京市,汶溪路181号,颗粒物(PM10),58,65,74,33,32,110,,137,127,18,18,7,5,0.4,0.4
2025-04-17T2300,4312A,119.019,31.6512,南京市,中山西路1号,颗粒物(PM10),52,53,59,33,31,113,,144,132,10,11,6,6,0.6,0.6
2025-04-17T2300,1401A,108.3103,22.7881,南宁市,二十一中,颗粒物(PM10),79,108,111,46,48,91,,114,108,12,12,5,5,1.2,0.9
2025-04-17T2300,1402A,108.3141,22.8528,南宁市,北湖,颗粒物(PM10),90,130,114,56,44,95,,117,110,11,11,7,7,1.1,1
2025-04-17T2300,1403A,108.3206,22.8225,南宁市,市监测站,颗粒物(PM10),75,100,110,40,43,86,,109,102,11,12,6,6,0.8,0.6
2025-04-17T2300,1404A,108.3829,22.8037,南宁市,大自然花园,颗粒物(PM10),80,110,119,43,48,100,,120,114,7,8,6,6,0.7,0.6
2025-04-17T2300,1405A,108.4394,22.7904,南宁市,仙葫,颗粒物(PM10),84,118,113,41,46,85,,104,97,6,7,6,7,0.7,0.7
2025-04-17T2300,1406A,108.2397,22.8467,南宁市,区农职院,颗粒物(PM10),83,116,115,46,40,82,,112,102,13,12,4,5,0.8,0.7
2025-04-17T2300,1407A,108.3275,22.735,南宁市,英华嘉园,颗粒物(PM10),83,116,108,39,41,83,,115,108,18,12,8,7,0.8,0.6
2025-04-17T2300,3401A,108.4834,22.7618,南宁市,红星社区,颗粒物(PM10),82,114,124,46,46,100,,127,120,8,7,8,9,0.9,0.8
2025-04-17T2300,4221A,108.2177,22.7774,南宁市,乐贤路16号,颗粒物(PM10),80,110,119,46,42,73,,104,98,16,17,9,9,0.9,0.8
2025-04-17T2300,2332A,118.1681,26.6369,南平市,南平市监测站,颗粒物(PM10),57,63,68,34,38,26,,118,62,30,28,4,5,0.8,0.9
2025-04-17T2300,2333A,118.1825,26.6489,南平市,南平铝业有限公司,颗粒物(PM10),58,65,73,29,37,8,,110,51,44,31,4,5,0.8,0.8
2025-04-17T2300,2334A,118.1756,26.6272,南平市,南平七中,颗粒物(PM10),57,64,66,29,36,33,,106,68,24,25,4,6,0.7,0.8
2025-04-17T2300,1168A,120.9098,31.9663,南通市,狼山街道,颗粒物(PM10),59,68,71,31,28,61,,118,84,47,62,4,6,0.7,0.8
2025-04-17T2300,1169A,120.86,32.0005,南通市,虹桥,颗粒物(PM10),58,65,71,30,30,74,,114,82,47,66,2,5,0.3,0.5
2025-04-17T2300,1170A,120.87,32.02,南通市,城中,颗粒物(PM10),56,62,79,26,27,89,,133,100,32,51,3,7,0.5,0.8
2025-04-17T2300,1171A,120.94,31.93,南通市,星湖花园,颗粒物(PM10),56,61,72,35,30,81,,133,104,40,51,4,6,0.4,0.5
2025-04-17T2300,1172A,120.81,32.0417,南通市,紫琅学院,颗粒物(PM10),54,57,72,29,27,56,,106,70,52,72,4,6,0.5,0.8
2025-04-17T2300,3291A,121.067,32.062,南通市,通州监测站,颗粒物(PM10),52,53,74,27,29,81,,155,117,32,39,5,8,0.5,0.5
2025-04-17T2300,3432A,120.9348,31.9883,南通市,环境教育馆,颗粒物(PM10),54,58,76,25,27,78,,146,110,39,46,7,9,0.5,0.5
2025-04-17T2300,2404A,112.5224,33.0122,南阳市,瓦房庄,颗粒物(PM10),75,99,104,42,41,127,,159,142,14,15,7,8,0.5,0.6
2025-04-17T2300,2405A,112.5003,32.9735,南阳市,汉画馆,颗粒物(PM10),75,99,104,46,46,109,,151,135,18,19,6,7,0.5,0.6
2025-04-17T2300,2406A,112.5573,33.027,南阳市,气象站,颗粒物(PM10),76,101,113,46,45,124,,159,145,12,13,7,8,0.5,0.6
2025-04-17T2300,2407A,112.5481,32.9689,南阳市,理工学院,颗粒物(PM10),74,97,103,41,42,111,,151,129,20,18,6,8,0.5,0.5
2025-04-17T2300,4008A,112.5234,32.9922,南阳市,卧龙区政府,颗粒物(PM10),76,101,107,42,46,125,,165,149,15,15,6,7,0.6,0.6
2025-04-17T2300,1234A,121.8358,29.911,宁波市,区环保大楼,颗粒物(PM10),60,70,79,35,29,68,,107,72,30,39,7,9,0.8,0.7
2025-04-17T2300,1235A,121.56,29.82,宁波市,万里学院,颗粒物(PM10),59,68,66,35,29,50,,114,73,33,20,7,9,0.8,0.7
2025-04-17T2300,1236A,121.713,29.9572,宁波市,龙赛医院,颗粒物(PM10),62,74,75,29,26,55,,112,74,32,26,9,10,0.7,0.6
2025-04-17T2300,1239A,121.633,29.7733,宁波市,钱湖水厂,颗粒物(PM10),54,57,58,34,27,55,,110,65,19,12,8,8,0.7,0.7
2025-04-17T2300,1240A,121.5856,29.8635,宁波市,太古小学,颗粒物(PM10),60,70,71,27,28,57,,111,85,32,24,10,11,0.7,0.7
2025-04-17T2300,1241A,121.524,29.8674,宁波市,市环境监测中心,颗粒物(PM10),61,71,66,29,27,43,,102,68,41,29,9,10,0.9,0.8
2025-04-17T2300,2871A,121.6147,29.9017,宁波市,万里国际学校,颗粒物(PM10),58,65,61,30,27,56,,115,76,28,17,8,9,0.7,0.6
2025-04-17T2300,3710A,121.5594,29.8975,宁波市,白沙活动中心,颗粒物(PM10),55,59,52,32,23,50,,111,78,35,23,8,9,0.9,0.7
2025-04-17T2300,2341A,119.5388,26.6612,宁德市,宁德市监测站,细颗粒物(PM2.5),85,92,83,63,46,30,,130,90,56,32,8,9,1.2,1
2025-04-17T2300,3209A,119.5231,26.6562,宁德市,宁德一中,细颗粒物(PM2.5),70,76,78,51,43,59,,130,101,20,22,8,10,1.2,1
2025-04-17T2300,2618A,98.8601,25.8567,怒江傈僳族自治州,州监测站,,35,35,28,23,18,83,,108,104,14,9,8,8,0.3,0.3
2025-04-17T2300,2619A,98.8546,25.8417,怒江傈僳族自治州,泸水一中,,21,21,29,10,18,65,,93,84,17,16,6,6,0.4,0.4
2025-04-17T2300,1888A,101.6891,26.571,攀枝花市,弄弄坪,,39,39,34,15,17,112,,152,142,27,21,37,14,3.3,1
2025-04-17T2300,1889A,101.5769,26.5928,攀枝花市,河门口,,40,19,42,6,9,127,,146,140,7,15,9,17,0.7,0.8
2025-04-17T2300,1890A,101.7169,26.585,攀枝花市,炳草岗,,39,33,35,11,17,123,,150,133,16,23,20,17,1.0,0.5
2025-04-17T2300,1891A,101.7369,26.5008,攀枝花市,仁和,,30,27,24,15,14,93,,157,132,16,14,8,12,0.4,0.5
2025-04-17T2300,2835A,101.7227,26.567,攀枝花市,四十中小,,43,26,28,19,12,137,,158,143,14,12,6,10,0.6,0.7
2025-04-17T2300,1604A,122.0303,41.1489,盘锦市,开发区,,27,,64,16,61,85,,91,91,7,37,9,13,0.5,0.9
2025-04-17T2300,1605A,122.0485,41.0883,盘锦市,兴隆台,,33,33,70,19,63,77,,78,78,10,46,11,13,0.5,1
2025-04-17T2300,1606A,121.8297,41.1028,盘锦市,新生街道,,30,21,49,21,59,59,,98,80,22,34,15,19,0.5,0.8
2025-04-17T2300,1832A,113.3257,33.742,平顶山市,新华旅馆,颗粒物(PM10),93,136,126,34,34,122,,148,140,21,15,6,6,0.6,0.5
2025-04-17T2300,1833A,113.2919,33.737,平顶山市,规划设计院,颗粒物(PM10),84,118,118,54,51,106,,152,141,33,16,5,5,1.0,0.9
2025-04-17T2300,1834A,113.182,33.774,平顶山市,平顶山工学院,颗粒物(PM10),76,102,105,48,49,138,,157,149,11,10,6,6,0.6,0.5
2025-04-17T2300,3204A,113.3025,33.73,平顶山市,规划局,,,114,122,44,40,120,,146,138,,17,6,6,0.5,0.5
2025-04-17T2300,3594A,112.8867,33.9116,平顶山市,石龙区,颗粒物(PM10),83,116,155,44,49,140,,155,149,12,22,6,7,0.3,0.3
2025-04-17T2300,2656A,106.6692,35.5461,平凉市,聚贤嘉苑,颗粒物(PM10),67,84,106,29,30,129,,122,122,10,21,7,7,0.4,0.3
2025-04-17T2300,2657A,106.7021,35.5307,平凉市,博物馆,颗粒物(PM10),72,93,115,25,30,106,,121,119,23,17,9,9,0.4,0.5
2025-04-17T2300,2347A,114.0997,27.5002,萍乡市,武功山,颗粒物(PM10),52,54,57,22,25,59,,99,89,7,7,15,14,0.4,0.4
2025-04-17T2300,2348A,113.8385,27.6434,萍乡市,中医院,颗粒物(PM10),64,78,82,30,37,96,,122,113,10,21,12,16,0.5,1.1
2025-04-17T2300,2349A,113.8493,27.6253,萍乡市,市政府车库,细颗粒物(PM2.5),72,80,74,52,46,71,,122,107,27,26,12,11,0.7,1.4
2025-04-17T2300,2350A,113.8676,27.6435,萍乡市,市环保局,颗粒物(PM10),70,89,88,48,48,79,,121,109,22,25,13,12,0.5,1
2025-04-17T2300,2351A,113.866,27.6198,萍乡市,安源区政府,颗粒物(PM10),71,91,91,44,41,62,,108,96,29,25,25,18,1.3,1
2025-04-17T2300,2319A,119.0141,25.4325,莆田市,荔城区仓后路,颗粒物(PM10),60,69,85,23,31,37,,117,71,29,21,3,4,0.6,0.6
2025-04-17T2300,2320A,119.0015,25.4553,莆田市,莆田市监测站,,45,45,64,21,25,35,,124,76,14,10,4,5,0.4,0.4
2025-04-17T2300,2321A,119.1119,25.4561,莆田市,涵江区六中,颗粒物(PM10),57,64,79,23,28,42,,120,67,25,19,6,5,0.5,0.6
2025-04-17T2300,2322A,119.1013,25.3215,莆田市,秀屿区政府,颗粒物(PM10),56,61,78,16,30,59,,123,72,11,23,5,6,0.4,0.5
2025-04-17T2300,2392A,115.0312,35.7636,濮阳市,环保局,颗粒物(PM10),158,265,228,63,60,101,,153,145,28,19,9,10,0.8,0.7
2025-04-17T2300,2394A,115.0574,35.7609,濮阳市,油田运输公司,颗粒物(PM10),147,243,218,70,67,112,,160,147,28,24,8,9,0.9,0.8
2025-04-17T2300,3021A,115,35.7668,濮阳市,濮水河管理处,颗粒物(PM10),141,232,231,74,64,91,,157,145,24,21,6,7,0.9,0.8
2025-04-17T2300,4216A,115.0924,35.7686,濮阳市,任丘路479号,颗粒物(PM10),174,298,250,68,65,110,,158,149,25,21,8,9,1.1,1
2025-04-17T2300,2601A,100.98,22.7633,普洱市,市环保局,,35,35,28,12,15,56,,95,85,13,11,3,2,0.6,0.5
2025-04-17T2300,2602A,100.9817,22.8322,普洱市,普洱第二中学,细颗粒物(PM2.5),52,,19,36,16,45,,101,83,28,16,8,7,0.6,0.3
2025-04-17T2300,2262A,131.0518,45.8751,七台河市,新一中,,26,23,51,16,34,82,,130,94,14,16,13,14,0.7,0.6
2025-04-17T2300,3345A,131.0577,45.7879,七台河市,中波台,,33,33,54,18,34,72,,105,83,18,24,7,9,0.6,0.7
2025-04-17T2300,3637A,131.0176,45.7761,七台河市,人民广场,颗粒物(PM10),51,51,71,35,43,72,,117,91,24,28,10,12,0.6,0.7
2025-04-17T2300,3684A,130.8781,45.8222,七台河市,新建矿广场,,33,29,88,23,41,78,,118,90,19,33,11,12,0.6,0.7
2025-04-17T2300,1779A,123.9305,47.3636,齐齐哈尔市,安居小区,,29,29,44,20,21,86,,86,85,12,19,4,5,0.3,0.4
2025-04-17T2300,1780A,123.9488,47.3386,齐齐哈尔市,中心广场,,34,34,48,14,19,95,,86,86,14,20,6,7,0.2,0.3
2025-04-17T2300,1781A,123.9483,47.3227,齐齐哈尔市,农牧车辆厂,,38,31,42,26,21,94,,91,91,14,16,5,6,0.2,0.2
2025-04-17T2300,1783A,123.945,47.2988,齐齐哈尔市,市环境监测站,,28,24,39,19,21,82,,88,87,15,15,2,3,0.4,0.4
2025-04-17T2300,3662A,123.6333,47.2075,齐齐哈尔市,富区青少年活动中心,,35,28,51,24,33,79,,91,83,15,16,2,3,0.5,0.5
2025-04-17T2300,2591A,107.9783,26.5747,黔东南苗族侗族自治州,市环境监测站,细颗粒物(PM2.5),68,82,70,49,39,69,,142,119,44,15,4,4,0.6,0.5
2025-04-17T2300,2881A,107.8908,26.5311,黔东南苗族侗族自治州,凯里学院,颗粒物(PM10),60,70,66,41,36,57,,151,128,39,10,3,3,0.4,0.4
2025-04-17T2300,2593A,107.5228,26.2403,黔南布依族苗族自治州,小围寨,细颗粒物(PM2.5),62,66,64,44,35,72,,155,132,22,10,4,6,0.6,0.5
2025-04-17T2300,3538A,107.5175,26.2978,黔南布依族苗族自治州,沙坝,颗粒物(PM10),70,90,75,44,36,58,,151,120,22,13,4,5,0.8,0.6
2025-04-17T2300,2589A,104.9022,25.0925,黔西南布依族苗族自治州,场坝街,细颗粒物(PM2.5),70,69,42,51,24,95,,133,118,17,18,5,20,0.4,0.4
2025-04-17T2300,2590A,104.8811,25.0992,黔西南布依族苗族自治州,坪东大道,细颗粒物(PM2.5),54,53,33,38,19,85,,126,103,22,20,4,10,0.3,0.3
2025-04-17T2300,2502A,108.6236,21.9667,钦州市,市环保站,颗粒物(PM10),102,153,155,39,41,68,,109,91,24,19,33,5,0.9,0.8
2025-04-17T2300,2503A,108.6549,21.9481,钦州市,沙埠小学,颗粒物(PM10),85,120,154,40,48,83,,109,87,16,19,21,8,1.0,0.9
2025-04-17T2300,2504A,108.5989,21.7431,钦州市,港区一小,颗粒物(PM10),100,149,171,41,47,56,,99,81,33,21,16,9,0.6,0.6
2025-04-17T2300,3404A,108.5959,21.9633,钦州市,北职校,颗粒物(PM10),107,163,159,57,55,55,,104,86,30,21,23,11,0.9,0.7
2025-04-17T2300,1043A,119.7493,40.0116,秦皇岛市,第一关,细颗粒物(PM2.5),105,110,90,79,51,66,,155,96,69,54,7,6,0.5,0.5
2025-04-17T2300,1044A,119.5897,39.9499,秦皇岛市,监测站,颗粒物(PM10),82,113,98,57,47,80,,152,107,46,47,5,6,0.6,0.5
2025-04-17T2300,1046A,119.5251,39.9041,秦皇岛市,建设大厦,颗粒物(PM10),77,103,97,47,44,92,,157,122,41,50,4,5,0.6,0.6
2025-04-17T2300,3132A,119.610547,39.943889,秦皇岛市,文明里,颗粒物(PM10),89,128,102,54,43,56,,150,102,72,43,6,6,0.6,0.4
2025-04-17T2300,4198A,119.5090,39.8253,秦皇岛市,北戴河轮滑馆,颗粒物(PM10),82,113,81,58,43,69,,146,118,38,21,3,6,0.5,0.4
2025-04-17T2300,1310A,120.4134,36.0658,青岛市,市南区东部子站,颗粒物(PM10),133,215,131,61,40,65,,86,78,63,47,13,13,0.8,0.7
2025-04-17T2300,1311A,120.3664,36.1032,青岛市,四方区子站,颗粒物(PM10),101,151,136,56,48,99,,102,93,44,57,12,13,0.9,1
2025-04-17T2300,1312A,120.2994,36.054,青岛市,市南区西部子站,颗粒物(PM10),98,146,120,54,42,93,,83,83,63,60,9,10,1.0,1
2025-04-17T2300,1313A,120.4581,36.0858,青岛市,崂山区子站,颗粒物(PM10),122,193,117,58,36,69,,74,70,49,39,11,12,0.8,0.7
2025-04-17T2300,1315A,120.3999,36.3083,青岛市,城阳区子站,颗粒物(PM10),97,144,176,56,50,72,,156,137,43,40,12,14,1.0,0.9
2025-04-17T2300,1966A,120.0405,35.8735,青岛市,黄岛区4号,颗粒物(PM10),111,171,130,51,40,122,,134,134,35,40,14,14,1.0,1
2025-04-17T2300,3362A,120.5014,36.4034,青岛市,即墨2号,颗粒物(PM10),121,192,220,80,58,129,,177,170,25,29,13,14,0.8,0.8
2025-04-17T2300,3642A,120.3503,36.0736,青岛市,市北区南部,颗粒物(PM10),104,158,114,61,45,87,,90,88,39,37,12,13,1.0,1
2025-04-17T2300,3643A,120.3948,36.1805,青岛市,李沧区北部,颗粒物(PM10),136,222,162,75,55,53,,105,81,78,57,11,14,1.0,1
2025-04-17T2300,4290A,120.1969,35.9546,青岛市,珠江路669号,颗粒物(PM10),126,202,129,68,49,5,,116,89,164,52,13,11,1.0,0.9
2025-04-17T2300,1702A,113.0426,23.691,清远市,环保大楼,颗粒物(PM10),64,78,90,27,37,70,,193,181,28,21,6,6,0.8,0.7
2025-04-17T2300,1703A,113.0208,23.7106,清远市,凤城街办,颗粒物(PM10),69,87,103,23,29,65,,168,144,29,23,7,8,0.5,0.5
2025-04-17T2300,3025A,113.0477,23.6344,清远市,技师学院,颗粒物(PM10),74,97,106,26,32,56,,166,133,30,24,8,8,0.4,0.4
2025-04-17T2300,3318A,112.9903,23.7403,清远市,清新太和,颗粒物(PM10),78,105,110,26,32,71,,169,148,26,20,6,8,0.5,0.5
2025-04-17T2300,3455A,113.076,23.7198,清远市,清城东城,颗粒物(PM10),75,100,110,28,32,69,,180,151,28,21,7,7,0.6,0.6
