timepoint,stationcode,longitude,latitude,area,positionname,primarypollutant,aqi,pm10,pm10_24h,pm2_5,pm2_5_24h,o3,o3_24h,o3_8h,o3_8h_24h,no2,no2_24h,so2,so2_24h,co,co_24h
2024-11-13T0800,2566A,102.1879,31.914,阿坝藏族羌族自治州,州农科所,,32,32,24,8,9,27,,34,34,14,14,10,9,0.2,0.1
2024-11-13T0800,2568A,102.2502,31.8896,阿坝藏族羌族自治州,马师校,,19,13,17,13,16,13,,18,18,20,18,4,4,0.4,0.4
2024-11-13T0800,3994A,102.2165,31.9024,阿坝藏族羌族自治州,马尔康中学西区,,15,15,18,8,13,18,,24,24,20,18,4,4,0.5,0.5
2024-11-13T0800,2695A,80.292,41.1694,阿克苏地区,电视台,颗粒物(PM10),76,102,140,38,48,48,,28,28,21,46,1,5,0.7,1
2024-11-13T0800,2696A,80.2613,41.1551,阿克苏地区,艺术中心,颗粒物(PM10),72,94,119,32,39,49,,32,32,18,45,4,4,0.6,0.8
2024-11-13T0800,2204A,105.6467,38.8363,阿拉善盟,西城区西花园,细颗粒物(PM2.5),52,49,47,36,30,59,,53,53,27,24,12,13,1.1,1
2024-11-13T0800,2205A,105.6985,38.8411,阿拉善盟,蒙二幼,,37,37,49,20,21,68,,49,49,21,25,11,12,0.7,0.7
2024-11-13T0800,2206A,105.724,38.8516,阿拉善盟,环保局新楼,,32,32,41,16,19,82,,67,67,12,17,12,12,0.5,0.6
2024-11-13T0800,2708A,88.1264,47.8517,阿勒泰地区,市站,,14,,6,8,6,44,,38,38,6,13,7,7,0.3,0.3
2024-11-13T0800,2630A,80.1161,32.5,阿里地区,阿里监测站,,24,9,11,3,7,76,,88,88,8,6,9,8,0.5,0.5
2024-11-13T0800,3192A,80.0903,32.5028,阿里地区,阿里藏医院,,28,9,11,6,4,87,,95,95,2,2,6,6,0.5,0.5
2024-11-13T0800,2642A,109.0318,32.6537,安康市,香溪洞,,34,34,38,23,24,19,,17,17,14,15,8,8,0.5,0.5
2024-11-13T0800,2644A,109.0072,32.6975,安康市,汉滨区检察院,颗粒物(PM10),57,64,63,38,40,5,,6,6,28,31,6,9,0.6,0.7
2024-11-13T0800,4054A,109.0325,32.6913,安康市,市邮政管理局,,48,48,54,29,34,4,,6,6,23,27,7,8,0.7,0.8
2024-11-13T0800,2291A,117.0809,30.5177,安庆市,环科院,细颗粒物(PM2.5),60,52,58,43,40,35,,62,62,42,28,10,11,0.9,0.8
2024-11-13T0800,2292A,117.0331,30.5119,安庆市,马山宾馆,细颗粒物(PM2.5),58,51,55,41,36,49,,64,64,35,27,7,8,0.8,0.8
2024-11-13T0800,2294A,116.9896,30.6145,安庆市,安庆大学,细颗粒物(PM2.5),54,47,56,38,38,51,,63,63,16,16,9,9,0.7,0.7
2024-11-13T0800,3173A,117.0598,30.5351,安庆市,市人大,细颗粒物(PM2.5),63,51,57,45,41,46,,60,60,33,32,10,12,0.6,0.6
2024-11-13T0800,3122A,105.9606,26.2611,安顺市,伍家关,,36,32,28,25,20,63,,62,62,4,4,3,4,0.6,0.6
2024-11-13T0800,3123A,105.9408,26.2431,安顺市,凤凰山,,46,32,81,32,22,79,,79,79,6,7,8,8,0.5,0.4
2024-11-13T0800,3124A,105.9439,26.2564,安顺市,金钟山,,45,40,29,31,23,77,,79,79,7,6,7,7,0.6,0.5
2024-11-13T0800,3125A,105.8983,26.2481,安顺市,娄家坡,,40,29,28,28,23,78,,86,86,7,6,8,8,0.4,0.4
2024-11-13T0800,1818A,114.4839,36.0621,安阳市,棉研所,细颗粒物(PM2.5),178,,183,134,171,18,,10,10,34,40,6,6,0.9,0.9
2024-11-13T0800,1819A,114.3551,36.1017,安阳市,红庙街,细颗粒物(PM2.5),147,,157,112,156,26,,24,24,31,41,3,2,0.9,0.9
2024-11-13T0800,1820A,114.361,36.0681,安阳市,银杏小区,细颗粒物(PM2.5),172,,156,130,166,40,,30,30,22,32,3,2,1.2,1.2
2024-11-13T0800,3141A,114.3922,36.0878,安阳市,信访局,细颗粒物(PM2.5),158,,180,120,160,28,,20,20,24,39,3,3,1.1,1.1
2024-11-13T0800,3669A,114.4705,36.0637,安阳市,左辅环卫站,细颗粒物(PM2.5),144,144,195,110,149,19,,13,13,25,31,1,1,0.8,0.8
2024-11-13T0800,3703A,114.2917,36.0949,安阳市,安钢职工学校,细颗粒物(PM2.5),148,,177,113,170,26,,30,30,44,48,1,3,1.0,1.2
2024-11-13T0800,1748A,123.044,41.1196,鞍山市,深沟寺,,20,20,32,9,12,52,,56,56,18,19,4,7,0.5,0.5
2024-11-13T0800,1749A,123.011,41.0931,鞍山市,太阳城,,19,19,22,8,9,59,,59,59,15,15,5,7,0.4,0.3
2024-11-13T0800,1750A,123.0485,41.1442,鞍山市,太平,,20,20,35,6,15,44,,49,49,29,30,10,14,0.3,0.5
2024-11-13T0800,1751A,122.9642,41.0971,鞍山市,铁西三道街,颗粒物(PM10),66,82,46,20,18,7,,12,12,72,46,11,10,1.2,0.8
2024-11-13T0800,1752A,122.9341,41.0833,鞍山市,铁西工业园区,颗粒物(PM10),78,105,83,32,35,9,,7,7,74,54,10,15,0.9,1
2024-11-13T0800,1753A,123.022,41.0821,鞍山市,明达新区,,20,20,23,10,10,56,,56,56,14,16,7,8,0.5,0.4
2024-11-13T0800,1754A,123.1289,41.0228,鞍山市,千山,,,,13,,3,,,43,,,4,,4,,0.3
2024-11-13T0800,2195A,107.4212,40.761,巴彦淖尔市,附二中,颗粒物(PM10),105,160,111,68,48,1,,1,1,,49,16,21,1.6,0.8
2024-11-13T0800,2196A,107.37,40.7372,巴彦淖尔市,市环保大楼,细颗粒物(PM2.5),92,95,97,68,45,2,,3,3,46,46,7,7,1.5,0.8
2024-11-13T0800,1956A,86.1472,41.7538,巴音郭楞蒙古自治州,孔雀公园,颗粒物(PM10),57,63,106,30,29,11,,8,8,59,50,4,4,0.5,0.6
2024-11-13T0800,1957A,86.1972,41.7166,巴音郭楞蒙古自治州,棉纺厂,颗粒物(PM10),78,106,132,34,31,20,,18,18,42,39,2,3,0.4,0.5
2024-11-13T0800,1958A,86.2357,41.7173,巴音郭楞蒙古自治州,经济开发区,颗粒物(PM10),136,222,115,30,27,16,,37,37,44,29,2,3,0.2,0.4
2024-11-13T0800,2914A,106.7677,31.8794,巴中市,苏山坪,,22,21,22,15,18,40,,50,50,6,7,4,4,0.4,0.4
2024-11-13T0800,3182A,106.7656,31.8545,巴中市,丽阳花园,,39,37,38,27,26,4,,4,4,17,25,4,4,0.7,0.6
2024-11-13T0800,3183A,106.7418,31.8654,巴中市,圣泉水务公司,,22,20,26,15,19,3,,5,5,20,23,4,5,0.6,0.6
2024-11-13T0800,3616A,106.7616,31.8344,巴中市,市中心医院,,35,32,38,24,27,2,,2,2,15,25,4,4,0.5,0.6
2024-11-13T0800,2235A,122.7911,45.6077,白城市,洮北区环保局,细颗粒物(PM2.5),127,102,35,96,28,27,,44,44,30,18,11,10,0.3,0.2
2024-11-13T0800,2236A,122.8738,45.5725,白城市,市环保局,细颗粒物(PM2.5),138,112,46,105,31,26,,39,39,24,21,4,4,0.7,0.5
2024-11-13T0800,2231A,126.4219,41.9171,白山市,喜丰,颗粒物(PM10),59,68,58,25,17,13,,10,10,26,31,25,13,0.6,0.6
2024-11-13T0800,2232A,126.4077,41.9419,白山市,环保局,颗粒物(PM10),63,75,49,15,14,13,,20,20,25,17,16,6,0.8,0.7
2024-11-13T0800,2647A,104.1724,36.5446,白银市,第三小学,,47,47,69,29,30,65,,56,56,19,23,13,33,1.2,1.3
2024-11-13T0800,2648A,104.1465,36.5482,白银市,动力公司,,38,32,58,26,28,64,,53,53,15,20,4,14,0.7,0.8
2024-11-13T0800,2512A,106.6103,23.9011,百色市,市监测站,细颗粒物(PM2.5),70,67,64,51,42,16,,25,25,23,19,6,12,0.8,0.8
2024-11-13T0800,2513A,106.6538,23.8859,百色市,市中心血站,细颗粒物(PM2.5),82,81,85,60,52,15,,23,23,30,32,6,12,1.0,0.9
2024-11-13T0800,3406A,106.6085,23.8798,百色市,祈福高中,颗粒物(PM10),63,75,80,44,45,6,,8,8,23,28,5,11,0.8,0.7
2024-11-13T0800,2270A,117.396,32.939,蚌埠市,工人疗养院,细颗粒物(PM2.5),115,108,84,87,58,40,,51,51,23,25,6,6,0.8,0.5
2024-11-13T0800,2271A,117.3605,32.9427,蚌埠市,百货大楼,细颗粒物(PM2.5),104,104,82,78,51,30,,46,46,37,27,6,6,0.9,0.5
2024-11-13T0800,2273A,117.4185,32.8911,蚌埠市,蚌埠学院,细颗粒物(PM2.5),110,85,62,83,50,44,,61,61,22,22,6,7,0.8,0.5
2024-11-13T0800,2274A,117.3533,32.9673,蚌埠市,淮上区政府,细颗粒物(PM2.5),108,97,78,81,57,41,,56,56,23,23,8,9,0.8,0.5
2024-11-13T0800,2275A,117.3145,32.8977,蚌埠市,高新区,细颗粒物(PM2.5),100,75,58,75,50,47,,63,63,20,20,7,7,0.8,0.5
2024-11-13T0800,3715A,117.3092,32.9314,蚌埠市,蚌埠田家炳中学,细颗粒物(PM2.5),97,102,79,72,50,44,,57,57,24,19,8,7,0.7,0.4
2024-11-13T0800,1585A,109.8756,40.6532,包头市,市环境监测站,颗粒物(PM10),59,68,83,29,31,6,,6,6,55,63,17,28,1.2,1.2
2024-11-13T0800,1587A,109.9991,40.5842,包头市,包头八中,颗粒物(PM10),75,99,97,41,34,5,,5,5,73,58,22,38,1.5,1.2
2024-11-13T0800,1588A,109.8538,40.6821,包头市,青山宾馆,颗粒物(PM10),59,67,80,34,36,5,,5,5,50,61,16,22,1.5,1.3
2024-11-13T0800,1589A,109.8642,40.6288,包头市,惠龙物流,颗粒物(PM10),61,71,78,34,33,5,,4,4,66,62,19,29,1.3,1
2024-11-13T0800,1590A,110.0377,40.5546,包头市,东河鸿龙湾,颗粒物(PM10),68,86,84,28,25,5,,6,6,58,54,15,20,1.0,0.8
2024-11-13T0800,3283A,109.9154,40.5685,包头市,滨河大厦,颗粒物(PM10),66,82,69,34,27,7,,6,6,66,56,20,20,1.1,0.7
2024-11-13T0800,3419A,109.9447,40.6261,包头市,包头市委党校,颗粒物(PM10),53,55,78,24,29,7,,7,7,59,62,15,33,1.3,1.3
2024-11-13T0800,3683A,109.8331,40.6576,包头市,昆区政府,细颗粒物(PM2.5),64,72,75,46,38,4,,4,4,55,59,20,25,1.3,1
2024-11-13T0800,1930A,107.185,34.3063,宝鸡市,庙沟村,颗粒物(PM10),61,72,101,24,58,21,,28,28,15,20,8,8,1.7,0.8
2024-11-13T0800,1931A,107.0708,34.3017,宝鸡市,竹园沟,细颗粒物(PM2.5),105,129,110,79,93,21,,22,22,20,25,6,7,1.5,0.9
2024-11-13T0800,1932A,107.1906,34.3672,宝鸡市,三陆医院,细颗粒物(PM2.5),147,143,142,112,124,14,,14,14,26,31,5,6,1.9,1.2
2024-11-13T0800,1933A,107.1431,34.3547,宝鸡市,监测站,细颗粒物(PM2.5),130,157,133,99,115,21,,20,20,20,31,6,7,1.8,1.1
2024-11-13T0800,1934A,107.1186,34.3739,宝鸡市,技工学校,细颗粒物(PM2.5),148,,114,113,114,14,,25,25,34,36,6,6,1.9,1.3
2024-11-13T0800,1935A,107.3906,34.3528,宝鸡市,陈仓区环保局家属楼,细颗粒物(PM2.5),199,156,167,149,171,9,,13,13,27,32,6,6,1.8,1.3
2024-11-13T0800,1936A,107.2058,34.3497,宝鸡市,文理学院,细颗粒物(PM2.5),114,149,140,86,91,19,,21,21,22,29,8,8,1.9,1.2
2024-11-13T0800,1937A,107.2386,34.3622,宝鸡市,三迪小学,细颗粒物(PM2.5),178,149,169,134,152,20,,21,21,28,37,7,7,1.7,1.2
2024-11-13T0800,1051A,115.493,38.8632,保定市,游泳馆,细颗粒物(PM2.5),207,215,190,157,147,11,,7,7,39,56,4,4,0.8,0.8
2024-11-13T0800,1052A,115.5213,38.8959,保定市,华电二区,细颗粒物(PM2.5),214,,162,164,151,5,,3,3,37,50,1,4,0.7,0.8
2024-11-13T0800,1053A,115.4713,38.9108,保定市,接待中心,细颗粒物(PM2.5),206,199,178,156,153,4,,3,3,35,46,2,3,0.8,0.9
2024-11-13T0800,1054A,115.4612,38.8416,保定市,地表水厂,细颗粒物(PM2.5),222,183,187,172,152,8,,3,3,42,55,3,2,0.8,0.8
2024-11-13T0800,3581A,115.31981,38.95208,保定市,满城区生态环境分局,细颗粒物(PM2.5),170,168,185,129,142,2,,2,2,46,52,4,4,0.9,0.9
2024-11-13T0800,3582A,115.47694,38.76408,保定市,清苑区第二中学,细颗粒物(PM2.5),186,170,163,140,125,5,,4,4,35,41,3,4,0.9,0.9
2024-11-13T0800,3583A,115.62909,39.02311,保定市,徐水物探局,细颗粒物(PM2.5),178,165,164,134,147,1,,2,2,39,47,8,7,0.7,1
2024-11-13T0800,4004A,115.4202,38.8656,保定市,双鹰农机,细颗粒物(PM2.5),202,184,178,152,142,13,,6,6,36,51,1,3,0.8,0.9
2024-11-13T0800,4034A,115.5150,38.8590,保定市,植保所站,细颗粒物(PM2.5),211,195,175,161,147,7,,4,4,39,50,5,6,0.8,0.8
2024-11-13T0800,2594A,99.1678,25.1081,保山市,市环境监测站,,23,23,22,3,8,27,,33,33,10,9,5,5,0.3,0.3
2024-11-13T0800,2595A,99.1711,25.1328,保山市,市环保局,,23,17,21,16,11,56,,54,54,2,6,4,5,0.3,0.3
2024-11-13T0800,1866A,109.2262,21.588,北海市,牛尾岭水库,,,51,56,51,49,73,,40,40,,8,9,8,0.8,0.8
2024-11-13T0800,1867A,109.1436,21.4086,北海市,海滩公园,细颗粒物(PM2.5),74,59,60,54,39,100,,105,105,16,18,14,11,1.2,1.2
2024-11-13T0800,1868A,109.0981,21.4661,北海市,新市环保局,细颗粒物(PM2.5),77,64,55,56,40,92,,113,113,24,15,16,10,0.9,0.8
2024-11-13T0800,1869A,109.1778,21.5233,北海市,北海工业园,细颗粒物(PM2.5),89,78,73,66,48,50,,84,84,30,21,14,11,0.8,0.8
2024-11-13T0800,3400A,109.1911,21.4415,北海市,龙潭自来水厂,细颗粒物(PM2.5),87,67,58,64,52,47,,66,66,16,16,11,10,1.0,0.9
2024-11-13T0800,1001A,116.3621,39.8784,北京市,万寿西宫,细颗粒物(PM2.5),52,46,142,36,103,0,,10,10,61,49,2,2,1.0,0.9
2024-11-13T0800,1002A,116.2202,40.2915,北京市,定陵,细颗粒物(PM2.5),129,126,90,98,66,,,,,30,24,3,2,0.9,0.6
2024-11-13T0800,1003A,116.4174,39.9289,北京市,东四,,46,46,129,30,93,2,,11,11,60,42,6,4,1.1,0.9
2024-11-13T0800,1004A,116.4072,39.8863,北京市,天坛,,45,41,176,31,92,2,,3,3,58,38,1,2,1.0,0.8
2024-11-13T0800,1005A,116.462,39.9365,北京市,农展馆,,45,45,112,29,84,0,,1,1,61,47,3,2,0.9,0.8
2024-11-13T0800,1006A,116.3392,39.9295,北京市,官园,,,,129,,97,,,30,,,41,,5,,0.9
2024-11-13T0800,1007A,116.2878,39.9611,北京市,海淀万柳,细颗粒物(PM2.5),104,117,123,78,85,7,,6,6,49,42,4,3,1.3,0.9
2024-11-13T0800,1008A,116.6636,40.135,北京市,顺义新城,细颗粒物(PM2.5),62,69,87,44,55,0,,1,1,47,47,1,2,0.8,0.8
2024-11-13T0800,1009A,116.6275,40.3275,北京市,怀柔镇,细颗粒物(PM2.5),79,79,67,58,47,16,,24,24,30,26,3,2,0.8,0.6
2024-11-13T0800,1010A,116.2296,40.217,北京市,昌平镇,细颗粒物(PM2.5),73,90,100,53,60,2,,3,3,46,53,4,4,0.8,0.7
2024-11-13T0800,1011A,116.3966,39.9821,北京市,奥体中心,颗粒物(PM10),55,60,124,36,86,1,,5,5,61,48,2,2,1.1,0.9
2024-11-13T0800,1012A,116.184,39.9136,北京市,古城,细颗粒物(PM2.5),135,143,145,103,95,1,,1,1,41,36,4,4,1.2,0.9
2024-11-13T0800,3281A,115.9718,40.4529,北京市,延庆夏都,细颗粒物(PM2.5),117,115,75,88,56,7,,22,22,29,24,3,3,0.7,0.5
2024-11-13T0800,3417A,117.0709,40.1465,北京市,平谷新城,,41,41,62,21,38,10,,31,31,30,28,3,2,0.6,0.7
2024-11-13T0800,3418A,116.8336,40.4095,北京市,密云新城,细颗粒物(PM2.5),80,91,73,59,47,1,,10,10,44,34,1,2,1.0,0.8
2024-11-13T0800,3671A,116.088,39.9726,北京市,门头沟三家店,细颗粒物(PM2.5),107,131,121,80,72,1,,0,0,40,51,7,7,0.6,0.6
2024-11-13T0800,3672A,116.1541,39.8204,北京市,丰台云岗,细颗粒物(PM2.5),133,137,132,101,96,0,,0,0,40,50,4,4,0.8,0.8
2024-11-13T0800,3673A,116.6804,39.9081,北京市,通州东关,颗粒物(PM10),51,51,117,28,81,5,,1,1,53,49,2,2,0.9,0.8
2024-11-13T0800,3674A,115.9577,39.7603,北京市,房山燕山,细颗粒物(PM2.5),102,97,110,76,88,3,,3,3,23,39,3,2,0.7,0.7
2024-11-13T0800,3675A,116.4672,39.7733,北京市,大兴旧宫,,46,44,124,32,97,1,,1,1,48,37,1,1,0.9,0.8
2024-11-13T0800,3694A,115.986,40.4563,北京市,延庆石河营,细颗粒物(PM2.5),105,97,65,79,50,3,,9,9,24,23,1,1,0.7,0.6
2024-11-13T0800,3695A,116.6151,40.3053,北京市,怀柔新城,细颗粒物(PM2.5),75,78,73,55,51,21,,22,22,20,24,3,2,0.7,0.7
2024-11-13T0800,3696A,116.2545,39.8768,北京市,丰台小屯,细颗粒物(PM2.5),132,143,157,100,92,1,,1,1,64,50,2,2,1.2,0.9
2024-11-13T0800,3697A,116.84,40.3844,北京市,密云镇,"颗粒物(PM10),细颗粒物(PM2.5)",63,76,72,45,44,0,,0,0,51,39,3,2,0.9,0.9
2024-11-13T0800,1761A,123.8275,41.3064,本溪市,大峪,颗粒物(PM10),53,55,41,13,17,16,,10,10,39,35,13,12,1.1,0.7
2024-11-13T0800,1762A,123.7567,41.3325,本溪市,溪湖,颗粒物(PM10),58,66,73,25,24,8,,6,6,39,37,13,11,1.0,0.8
2024-11-13T0800,1763A,123.7169,41.3094,本溪市,彩屯,颗粒物(PM10),61,71,42,38,26,8,,6,6,49,40,13,10,1.9,1
2024-11-13T0800,1764A,123.7669,41.2864,本溪市,东明,颗粒物(PM10),56,62,53,28,21,10,,7,7,50,42,13,10,1.5,1
2024-11-13T0800,1765A,123.7992,41.2664,本溪市,新立屯,,23,16,15,8,8,7,,6,6,46,38,7,6,1.1,0.7
2024-11-13T0800,1766A,123.8142,41.3472,本溪市,威宁,颗粒物(PM10),59,68,59,26,22,9,,6,6,41,33,10,8,0.9,1
2024-11-13T0800,2587A,105.2864,27.3125,毕节市,八中,,26,26,41,16,30,30,,34,34,10,10,6,8,0.7,0.6
2024-11-13T0800,2588A,105.31,27.2944,毕节市,师专,,25,24,40,17,31,30,,32,32,8,11,5,7,0.6,0.6
2024-11-13T0800,3537A,105.3631,27.3533,毕节市,长征村,,23,22,35,16,29,43,,37,37,7,8,7,7,0.7,0.7
2024-11-13T0800,1629A,118.0018,37.3617,滨州市,第二水厂,细颗粒物(PM2.5),163,173,150,124,100,2,,21,21,54,34,8,8,1.2,0.9
2024-11-13T0800,1630A,117.9776,37.393,滨州市,北中新校,细颗粒物(PM2.5),147,161,149,112,91,4,,27,27,56,37,5,5,1.4,1
2024-11-13T0800,3514A,117.9378,37.3956,滨州市,中海酒店,细颗粒物(PM2.5),138,139,134,105,90,21,,44,44,48,29,5,5,1.3,1
2024-11-13T0800,3515A,117.9378,37.3553,滨州市,开发区一中,细颗粒物(PM2.5),149,151,138,114,90,6,,27,27,54,31,9,9,1.3,1
2024-11-13T0800,3516A,118.0917,37.694,滨州市,金海六路,细颗粒物(PM2.5),138,139,125,105,84,18,,48,48,29,29,4,6,1.2,0.9
2024-11-13T0800,4028A,117.9956,37.3753,滨州市,滨州市西街道办事处,细颗粒物(PM2.5),188,151,132,141,106,3,,24,24,49,29,6,6,1.6,1.2
2024-11-13T0800,2311A,115.8072,33.8399,亳州市,污水处理厂,细颗粒物(PM2.5),110,114,83,83,57,37,,41,41,26,24,7,7,0.8,0.6
2024-11-13T0800,2312A,115.7789,33.8518,亳州市,三国揽胜宫,细颗粒物(PM2.5),142,145,104,108,71,47,,51,51,26,25,3,4,0.5,0.4
2024-11-13T0800,3332A,115.7633,33.8034,亳州市,亳州学院,细颗粒物(PM2.5),119,121,86,90,60,40,,53,53,23,22,4,4,0.7,0.5
2024-11-13T0800,2693A,82.0485,44.8556,博尔塔拉蒙古自治州,市党校,,31,31,34,18,25,34,,37,37,9,14,4,6,0.4,0.3
2024-11-13T0800,2694A,82.0806,44.8969,博尔塔拉蒙古自治州,市环保局,,,28,47,9,15,,,30,30,13,17,6,5,0.9,0.5
2024-11-13T0800,1071A,116.8842,38.2991,沧州市,沧县城建局,细颗粒物(PM2.5),117,,118,88,94,4,,2,2,53,58,4,4,1.1,1.1
2024-11-13T0800,1072A,116.8584,38.3254,沧州市,电视转播站,细颗粒物(PM2.5),85,81,125,63,97,4,,1,1,46,49,3,2,1.0,1.1
2024-11-13T0800,1073A,116.8709,38.3228,沧州市,市环保局,细颗粒物(PM2.5),99,102,130,74,92,4,,1,1,44,50,2,3,1.0,1.1
2024-11-13T0800,3324A,116.8136,38.3004,沧州市,河北水利电力学院,细颗粒物(PM2.5),108,,122,81,105,1,,8,8,51,51,4,5,1.1,1.1
2024-11-13T0800,2622A,97.1806,31.1273,昌都市,昌都监测站,,16,16,21,10,10,31,,27,27,27,24,7,7,0.7,0.7
2024-11-13T0800,3719A,97.1714,31.1406,昌都市,昌都会议中心,,16,10,14,8,7,49,,50,50,12,10,6,6,0.7,0.6
2024-11-13T0800,2690A,88.1236,43.8886,昌吉回族自治州,天山天池,,20,6,6,3,3,61,,63,63,3,3,5,6,0.5,0.5
2024-11-13T0800,2692A,87.2717,44.0297,昌吉回族自治州,新区政务中心,细颗粒物(PM2.5),77,74,77,56,49,26,,22,22,21,39,6,7,0.9,1.1
2024-11-13T0800,3613A,87.3095,44.0142,昌吉回族自治州,亚心广场,细颗粒物(PM2.5),85,75,90,63,60,34,,26,26,27,44,1,3,0.8,1.2
2024-11-13T0800,1119A,125.3325,43.9166,长春市,食品厂,颗粒物(PM10),57,64,76,37,54,12,,9,9,49,48,13,9,0.9,0.7
2024-11-13T0800,1120A,125.2863,43.9027,长春市,客车厂,细颗粒物(PM2.5),67,,58,48,49,22,,21,21,45,46,17,11,0.5,0.4
2024-11-13T0800,1121A,125.2841,43.8463,长春市,邮电学院,细颗粒物(PM2.5),72,64,54,52,45,13,,18,18,53,42,12,10,0.7,0.4
2024-11-13T0800,1122A,125.3716,43.8772,长春市,劳动公园,颗粒物(PM10),65,80,65,39,44,22,,18,18,44,41,12,10,0.9,0.6
2024-11-13T0800,1123A,125.3297,43.8805,长春市,园林处,细颗粒物(PM2.5),60,68,57,43,39,15,,21,21,44,37,14,11,0.8,0.5
2024-11-13T0800,1124A,125.4605,43.79,长春市,净月潭,,50,46,53,35,40,38,,36,36,16,18,10,8,0.6,0.4
2024-11-13T0800,1125A,125.7194,43.515,长春市,甩湾子,,,,,,,,,,,,,,,,
2024-11-13T0800,1126A,125.3863,43.8447,长春市,经开区环卫处,细颗粒物(PM2.5),62,57,59,44,41,20,,20,20,37,42,13,12,0.7,0.6
2024-11-13T0800,1127A,125.245,43.7783,长春市,高新区管委会,颗粒物(PM10),73,95,80,49,60,24,,19,19,32,44,14,9,0.7,0.7
2024-11-13T0800,1128A,125.1761,43.8325,长春市,岱山公园,细颗粒物(PM2.5),54,56,62,38,43,18,,17,17,41,42,11,8,0.6,0.5
2024-11-13T0800,1335A,113.0833,28.2325,长沙市,经开区环保局,细颗粒物(PM2.5),138,,79,105,60,17,,29,29,39,35,3,2,0.6,0.6
2024-11-13T0800,1336A,112.8872,28.2189,长沙市,高开区环保局,细颗粒物(PM2.5),156,,89,119,86,29,,39,39,30,29,8,7,0.7,0.6
2024-11-13T0800,1337A,113.0792,28.2053,长沙市,马坡岭,细颗粒物(PM2.5),139,,78,106,72,21,,31,31,36,36,5,5,0.7,0.6
2024-11-13T0800,1338A,112.9394,28.19,长沙市,湖南师范大学,细颗粒物(PM2.5),132,136,95,100,68,39,,50,50,22,24,7,6,0.9,0.7
2024-11-13T0800,1339A,113.0178,28.1322,长沙市,雨花区环保局,细颗粒物(PM2.5),129,,77,98,69,26,,38,38,37,33,6,6,0.8,0.7
2024-11-13T0800,1340A,112.9792,28.2597,长沙市,伍家岭,细颗粒物(PM2.5),166,,102,126,84,32,,30,30,21,31,5,4,0.8,0.8
2024-11-13T0800,1341A,113.0014,28.1944,长沙市,火车新站,细颗粒物(PM2.5),110,98,88,83,65,33,,40,40,27,32,5,4,0.7,0.7
2024-11-13T0800,1342A,112.9844,28.1178,长沙市,天心区环保局,细颗粒物(PM2.5),114,107,103,86,62,21,,28,28,36,34,2,3,0.8,0.7
2024-11-13T0800,1343A,112.8908,28.1308,长沙市,湖南中医药大学,细颗粒物(PM2.5),139,151,106,106,75,37,,54,54,28,34,10,8,0.8,0.7
2024-11-13T0800,1344A,112.9581,28.3611,长沙市,沙坪,颗粒物(PM10),85,120,78,53,47,23,,47,47,16,14,8,9,0.7,0.5
2024-11-13T0800,1727A,113.1147,36.1547,长治市,清华站,细颗粒物(PM2.5),52,,108,36,99,25,,43,43,30,30,8,8,1.6,1.6
2024-11-13T0800,1728A,113.1031,36.1989,长治市,监测站,颗粒物(PM10),59,67,115,29,94,22,,35,35,24,27,10,12,2.0,1.8
2024-11-13T0800,1730A,113.0886,36.2125,长治市,审计局,,,,98,,107,,,32,,,21,,9,,1.7
2024-11-13T0800,1731A,113.0844,36.1856,长治市,长治八中,细颗粒物(PM2.5),58,,110,41,121,30,,41,41,25,30,7,8,1.8,1.9
2024-11-13T0800,2845A,113.1569,36.1911,长治市,德盛苑,,45,,107,31,85,42,,54,54,16,28,5,6,1.8,1.9
2024-11-13T0800,3568A,113.06,36.0464,长治市,向阳小学,,28,20,115,9,102,89,,74,74,13,31,7,9,0.5,1.4
2024-11-13T0800,3569A,112.8792,36.3144,长治市,屯留一中,,38,28,101,26,106,62,,50,50,18,31,7,11,1.2,1.7
2024-11-13T0800,3570A,113.235,36.3489,长治市,潞城四中,细颗粒物(PM2.5),99,,87,74,100,41,,61,61,26,23,10,9,1.8,1.6
2024-11-13T0800,1854A,111.6975,28.9703,常德市,市二中,细颗粒物(PM2.5),64,60,91,46,59,50,,50,50,23,23,6,7,0.8,0.8
2024-11-13T0800,1857A,111.7158,29.1456,常德市,白鹤山,,,,,,,,,,,,,,,,
2024-11-13T0800,3138A,111.7153,29.0289,常德市,武陵区永安,细颗粒物(PM2.5),57,47,69,40,47,61,,61,61,19,19,5,8,0.9,0.9
2024-11-13T0800,3139A,111.6892,28.9881,常德市,鼎城区玉霞,细颗粒物(PM2.5),72,78,81,52,52,7,,29,29,39,25,6,8,1.0,0.9
2024-11-13T0800,3140A,111.6625,29.0531,常德市,武陵区长庚,细颗粒物(PM2.5),65,58,77,47,53,47,,53,53,17,18,5,7,0.8,0.8
2024-11-13T0800,1196A,119.9633,31.762,常州市,市监测站,细颗粒物(PM2.5),98,126,90,73,50,53,,47,47,30,37,10,10,0.9,0.9
2024-11-13T0800,1200A,119.9468,31.7069,常州市,武进监测站,颗粒物(PM10),82,113,84,48,40,41,,53,53,42,34,8,7,1.3,0.9
2024-11-13T0800,1201A,119.9255,31.9087,常州市,安家,颗粒物(PM10),80,110,96,42,52,26,,16,16,40,49,8,11,1.2,0.9
2024-11-13T0800,3002A,119.9805,31.8174,常州市,行政中心,细颗粒物(PM2.5),84,99,74,62,49,34,,43,43,41,31,13,13,1.0,0.8
2024-11-13T0800,3003A,120.0522,31.7748,常州市,经开区,细颗粒物(PM2.5),68,68,72,49,45,45,,36,36,36,41,9,12,0.7,0.7
2024-11-13T0800,3010A,119.9025,31.7964,常州市,钟楼,细颗粒物(PM2.5),85,97,81,63,45,50,,53,53,35,34,8,9,0.8,0.8
2024-11-13T0800,3429A,119.8598,31.7066,常州市,武进经发区,颗粒物(PM10),62,73,67,36,33,52,,58,58,30,27,8,7,1.2,0.9
2024-11-13T0800,3430A,119.5826,31.7245,常州市,金坛城区,颗粒物(PM10),52,53,52,32,32,40,,45,45,34,31,7,8,1.1,0.8
2024-11-13T0800,2220A,120.4318,41.5881,朝阳市,西梁,颗粒物(PM10),53,56,56,26,26,20,,10,10,28,28,10,13,1.0,0.9
2024-11-13T0800,2221A,120.4521,41.5646,朝阳市,河畔小区,,34,34,44,16,22,33,,30,30,25,20,10,11,0.9,0.7
2024-11-13T0800,2222A,120.4176,41.5648,朝阳市,八里堡,颗粒物(PM10),51,51,46,21,23,13,,12,12,36,29,9,13,1.2,0.8
2024-11-13T0800,2223A,120.3806,41.5969,朝阳市,农业园区,细颗粒物(PM2.5),85,106,59,63,34,11,,14,14,40,33,10,13,1.2,0.9
2024-11-13T0800,1705A,116.6367,23.6719,潮州市,西园路,,22,19,27,15,16,9,,21,21,18,13,4,6,0.6,0.5
2024-11-13T0800,3026A,116.6183,23.6608,潮州市,市政府,,25,25,28,15,16,13,,19,19,34,17,22,12,0.8,0.6
2024-11-13T0800,4036A,116.6461,23.6761,潮州市,金山,,32,,28,22,17,8,,17,17,19,13,8,9,0.6,0.6
2024-11-13T0800,2472A,113.0073,25.9061,郴州市,马头岭,颗粒物(PM10),77,103,63,38,26,23,,23,23,18,22,10,20,0.3,0.2
2024-11-13T0800,2473A,113.0116,25.8226,郴州市,市职中,细颗粒物(PM2.5),83,77,75,61,56,5,,7,7,17,22,10,14,0.9,0.7
2024-11-13T0800,2474A,113.0161,25.8001,郴州市,兴隆步行街,细颗粒物(PM2.5),72,76,74,52,50,6,,6,6,24,29,6,12,1.0,0.8
2024-11-13T0800,2475A,113.0383,25.8071,郴州市,市审计局,细颗粒物(PM2.5),73,72,67,53,54,4,,2,2,28,26,7,12,0.9,0.8
2024-11-13T0800,2476A,113.0348,25.7759,郴州市,市环保局,细颗粒物(PM2.5),74,80,74,54,49,8,,7,7,26,28,7,14,0.8,0.8
2024-11-13T0800,1431A,103.9728,30.7236,成都市,金泉两河,,25,25,29,3,13,6,,8,8,20,25,2,2,0.5,0.6
2024-11-13T0800,1432A,104.176,30.6872,成都市,十里店,,26,19,21,18,14,3,,10,10,27,27,1,2,0.5,0.5
2024-11-13T0800,1433A,104.079,30.5706,成都市,三瓦窑,,24,24,28,8,18,0,,14,14,24,21,2,1,0.5,0.5
2024-11-13T0800,1434A,104.1114,30.63,成都市,沙河铺,,34,34,30,21,17,6,,12,12,21,24,3,4,0.5,0.5
2024-11-13T0800,1437A,104.0786,30.6531,成都市,君平街,,29,,28,20,18,2,,7,7,27,28,4,3,0.4,0.4
2024-11-13T0800,1438A,103.613,31.0283,成都市,灵岩寺,,,,,,,,,,,,,,,,
2024-11-13T0800,2880A,104.0239,30.65639,成都市,大石西路,,30,30,29,17,18,2,,5,5,21,22,3,3,0.6,0.6
2024-11-13T0800,3136A,104.2725,30.5589,成都市,龙泉驿区区政府,,20,17,22,14,19,7,,9,9,25,25,2,2,0.7,0.5
2024-11-13T0800,3357A,104.0106,30.6931,成都市,金博路,,26,21,22,18,16,3,,3,3,21,24,1,2,0.5,0.5
2024-11-13T0800,3359A,104.0578,30.5225,成都市,华阳,,18,17,24,12,18,3,,8,8,12,19,1,1,0.6,0.6
2024-11-13T0800,3487A,104.2394,30.5319,成都市,车城东七路,,30,28,36,21,27,5,,9,9,26,27,4,4,0.7,0.6
2024-11-13T0800,3488A,104.3853,30.7453,成都市,青白江技师分院,,18,18,24,10,15,5,,9,9,19,19,3,2,0.6,0.6
2024-11-13T0800,3489A,104.0789,30.4072,成都市,科学城,,32,27,32,22,27,11,,14,14,20,22,3,3,0.5,0.5
2024-11-13T0800,4011A,103.8506,30.6947,成都市,光华大道三段,,13,13,23,3,10,5,,11,11,21,24,1,1,0.5,0.6
2024-11-13T0800,1062A,117.9531,40.9081,承德市,铁路,,,76,60,42,34,2,,1,1,29,36,,4,,0.7
2024-11-13T0800,1063A,117.9392,40.9763,承德市,中国银行,,42,42,53,9,29,2,,1,1,25,27,1,1,0.6,0.7
2024-11-13T0800,1064A,117.9503,40.928,承德市,开发区,颗粒物(PM10),57,63,65,30,37,4,,4,4,16,23,6,4,0.8,0.7
2024-11-13T0800,1065A,117.8051,40.9655,承德市,文化中心,颗粒物(PM10),63,75,70,39,37,0,,0,0,29,37,3,7,0.8,0.8
2024-11-13T0800,1066A,117.9268,41.0026,承德市,离宫,,45,45,49,23,40,2,,1,1,26,24,1,2,0.5,0.5
2024-11-13T0800,2314A,117.47,30.6618,池州市,池州学院,,44,44,53,29,31,56,,67,67,25,26,7,10,0.8,0.7
2024-11-13T0800,3237A,117.4918,30.6617,池州市,展览馆,,44,44,51,29,34,47,,62,62,24,23,5,7,0.8,0.7
2024-11-13T0800,3333A,117.5627,30.695,池州市,第八中学,,42,42,49,27,32,50,,60,60,21,21,5,6,0.8,0.6
2024-11-13T0800,3334A,117.5038,30.6243,池州市,第十二中学,,46,46,50,31,33,25,,48,48,38,23,3,4,0.9,0.8
2024-11-13T0800,1744A,118.9233,42.2816,赤峰市,松山一中,颗粒物(PM10),54,58,68,30,31,39,,34,34,32,38,13,16,1.0,1
2024-11-13T0800,1745A,118.9576,42.2728,赤峰市,哈达街,颗粒物(PM10),67,83,59,28,30,20,,30,30,38,31,10,11,1.3,0.9
2024-11-13T0800,1746A,118.8788,42.2554,赤峰市,天义路,颗粒物(PM10),51,51,55,27,26,44,,49,49,30,28,9,10,0.8,0.6
2024-11-13T0800,3058A,119.2658,42.0353,赤峰市,银河街,,,,59,,28,,,41,,,24,,23,,0.8
2024-11-13T0800,3286A,118.9359,42.3147,赤峰市,桥北物流园区,细颗粒物(PM2.5),52,42,59,36,27,45,,23,23,33,43,13,17,1.3,1.2
2024-11-13T0800,2521A,107.3476,22.4136,崇左市,市环保局江州分局,颗粒物(PM10),63,76,68,38,34,19,,14,14,20,23,4,6,0.6,0.6
2024-11-13T0800,2522A,107.3702,22.3707,崇左市,城南新区,细颗粒物(PM2.5),53,52,49,37,34,22,,29,29,21,17,5,6,0.7,0.6
2024-11-13T0800,2298A,118.3093,32.3153,滁州市,老年大学,细颗粒物(PM2.5),117,,69,88,58,20,,25,25,38,38,8,8,0.8,0.6
2024-11-13T0800,2299A,118.3244,32.2786,滁州市,人大宾馆,细颗粒物(PM2.5),109,110,89,82,57,25,,21,21,41,45,9,10,0.9,0.7
2024-11-13T0800,3207A,118.3118,32.3038,滁州市,市政府原办公楼,细颗粒物(PM2.5),104,78,68,78,56,19,,17,17,41,43,8,9,1.1,0.8
2024-11-13T0800,3331A,118.3267,32.2634,滁州市,图书馆,细颗粒物(PM2.5),77,91,79,56,43,22,,19,19,37,40,6,8,0.7,0.5
2024-11-13T0800,2605A,101.5482,25.0441,楚雄彝族自治州,州环境监测站,,19,13,15,13,11,4,,4,4,22,14,13,11,0.6,0.6
2024-11-13T0800,2606A,101.538,25.0492,楚雄彝族自治州,市经济开发区,,19,19,19,8,11,5,,5,5,20,15,10,6,0.6,0.6
2024-11-13T0800,2548A,107.5277,31.2827,达州市,达州职业技术学院,,39,28,32,27,28,4,,4,4,20,28,6,5,0.6,0.6
2024-11-13T0800,2549A,107.5086,31.2186,达州市,市环境监测站,,28,28,34,7,17,1,,3,3,30,30,7,7,0.7,0.5
2024-11-13T0800,2550A,107.4988,31.2132,达州市,凤凰小区,,28,27,29,19,22,4,,6,6,31,28,9,9,0.7,0.5
2024-11-13T0800,2551A,107.5082,31.1986,达州市,达县机关宾馆,,30,27,30,21,26,2,,5,5,31,34,6,6,0.8,0.6
2024-11-13T0800,2552A,107.4644,31.2124,达州市,市政中心,,36,36,37,22,20,5,,6,6,28,32,7,6,0.6,0.6
2024-11-13T0800,2614A,100.1542,25.7054,大理白族自治州,大理市环境监测站,,24,24,18,15,12,53,,66,66,12,7,7,6,0.4,0.4
2024-11-13T0800,2615A,100.2171,25.5811,大理白族自治州,大理古城,,25,19,21,17,10,40,,59,59,26,15,4,5,0.3,0.3
2024-11-13T0800,1109A,121.612,38.9741,大连市,甘井子,,28,28,37,7,16,46,,26,26,43,50,9,11,0.9,1
2024-11-13T0800,1110A,121.565,38.9511,大连市,周水子,,34,30,38,11,19,11,,5,5,68,54,6,8,0.7,0.8
2024-11-13T0800,1111A,121.5637,38.8845,大连市,星海三站,,23,18,30,3,13,72,,36,36,13,34,7,7,0.4,0.7
2024-11-13T0800,1112A,121.6302,38.9117,大连市,青泥洼桥,,19,16,22,6,10,41,,45,45,37,25,10,10,0.5,0.7
2024-11-13T0800,1113A,121.6251,38.8638,大连市,傅家庄,,24,15,21,3,8,76,,68,68,12,16,9,10,0.4,0.5
2024-11-13T0800,1114A,121.5213,38.8661,大连市,七贤岭,,20,14,24,3,10,61,,38,38,21,20,8,7,0.5,0.6
2024-11-13T0800,1115A,121.2529,38.8061,大连市,旅顺,,24,12,19,3,11,75,,70,70,16,16,7,8,0.5,0.6
2024-11-13T0800,1116A,121.7485,39.1311,大连市,金州,,25,25,24,15,15,64,,38,38,19,24,8,8,0.7,0.8
2024-11-13T0800,1117A,121.7811,39.0496,大连市,开发区,,50,49,37,35,19,23,,17,17,43,39,11,10,0.7,0.7
2024-11-13T0800,1118A,121.9762,39.0631,大连市,双D港,,25,19,28,9,12,78,,56,56,15,18,7,9,0.6,0.6
2024-11-13T0800,1789A,124.81117,46.03138,大庆市,大同区,细颗粒物(PM2.5),163,135,141,124,130,22,,22,22,27,35,14,8,0.6,0.7
2024-11-13T0800,1790A,125.129,46.533,大庆市,龙凤区,细颗粒物(PM2.5),100,116,102,75,77,29,,36,36,33,29,8,6,0.8,0.6
2024-11-13T0800,1791A,124.902,46.408,大庆市,红岗区,细颗粒物(PM2.5),85,88,99,63,81,35,,30,30,22,29,6,6,0.5,0.5
2024-11-13T0800,1792A,125.153,46.586,大庆市,萨尔图区,细颗粒物(PM2.5),165,220,85,125,71,29,,33,33,38,33,9,8,0.8,0.5
2024-11-13T0800,1793A,124.9042,46.6215,大庆市,让胡路区,细颗粒物(PM2.5),118,113,103,89,82,34,,34,34,27,28,7,6,0.6,0.5
2024-11-13T0800,3481A,125.141,46.634,大庆市,萨区政府监测点,细颗粒物(PM2.5),156,138,82,119,70,20,,24,24,39,29,6,6,0.8,0.6
2024-11-13T0800,1721A,113.3819,40.1097,大同市,果树场,细颗粒物(PM2.5),74,71,107,54,55,5,,6,6,55,43,12,13,1.3,0.8
2024-11-13T0800,1723A,113.2994,40.0758,大同市,云冈宾馆,颗粒物(PM10),76,102,97,45,40,6,,5,5,56,49,12,19,1.2,1
2024-11-13T0800,1724A,113.3444,40.0917,大同市,大同大学,颗粒物(PM10),66,81,84,47,37,4,,4,4,61,50,14,19,0.9,0.7
2024-11-13T0800,1725A,113.2661,40.1269,大同市,安家小村,细颗粒物(PM2.5),75,91,107,55,39,9,,10,10,52,47,21,23,1.3,1
2024-11-13T0800,1726A,113.2711,40.0844,大同市,教育学院,颗粒物(PM10),71,91,120,51,48,2,,2,2,66,60,13,18,1.1,1.2
2024-11-13T0800,3282A,113.3397,40.0597,大同市,大同市卫生学校,细颗粒物(PM2.5),74,82,92,54,39,6,,7,7,58,51,14,17,1.3,0.6
2024-11-13T0800,3565A,113.1367,40.1122,大同市,云冈站,细颗粒物(PM2.5),74,95,127,54,47,7,,8,8,40,46,11,27,1.0,0.8
2024-11-13T0800,3566A,113.1186,40.2556,大同市,图书馆,颗粒物(PM10),67,84,89,47,51,7,,12,12,44,34,18,21,1.2,0.8
2024-11-13T0800,3567A,113.5931,40.0461,大同市,区一中,颗粒物(PM10),64,77,85,32,20,30,,29,29,28,34,15,27,0.8,0.8
2024-11-13T0800,3676A,113.2802,40.0995,大同市,第二人民医院,颗粒物(PM10),73,96,121,51,46,7,,6,6,64,55,16,21,1.0,1.2
2024-11-13T0800,2269A,124.1069,50.4097,大兴安岭地区,科技局,,16,15,22,11,17,30,,28,28,7,13,4,5,0.3,0.4
2024-11-13T0800,3663A,124.1164,50.4278,大兴安岭地区,红旗社区,,27,27,20,18,16,4,,3,3,32,27,10,8,0.5,0.5
2024-11-13T0800,1600A,124.3303,40.0625,丹东市,江湾东路,,50,50,43,29,20,15,,25,25,49,30,18,13,1.0,0.8
2024-11-13T0800,1601A,124.4256,40.1503,丹东市,临江后街,,40,40,28,23,19,8,,15,15,40,27,14,10,0.8,0.6
2024-11-13T0800,1602A,124.3933,40.1461,丹东市,元宝山,,38,38,24,20,12,12,,17,17,34,19,11,6,1.0,0.8
2024-11-13T0800,1603A,124.3633,40.1092,丹东市,民主桥,,31,31,32,15,12,8,,24,24,57,33,14,8,0.9,0.6
2024-11-13T0800,3541A,109.5726,19.5167,儋州市,第一中学子站,,26,26,44,16,24,60,,61,61,7,7,6,6,0.4,0.4
2024-11-13T0800,3542A,109.5567,19.5187,儋州市,东坡学校子站,,31,31,39,18,24,57,,64,64,7,7,6,4,0.6,0.6
2024-11-13T0800,2616A,98.5842,24.428,德宏傣族景颇族自治州,德宏州监测站,,30,30,26,17,14,12,,26,26,26,18,14,8,0.7,0.6
2024-11-13T0800,3677A,98.5881,24.4368,德宏傣族景颇族自治州,芒市人民政府综合楼,,27,27,30,12,13,14,,24,24,13,12,4,7,0.7,0.6
2024-11-13T0800,1901A,104.4239,31.1208,德阳市,东山公园,,15,14,19,7,9,1,,13,13,29,14,2,1,0.7,0.6
2024-11-13T0800,1902A,104.3826,31.1317,德阳市,西小区,,22,22,24,15,15,2,,8,8,29,19,2,2,0.8,0.7
2024-11-13T0800,1904A,104.3553,31.1091,德阳市,耐火材料厂,,16,16,22,10,13,1,,7,7,27,20,4,3,0.6,0.6
2024-11-13T0800,3639A,104.4019,31.1244,德阳市,市教育局,,20,20,20,6,10,3,,10,10,30,19,3,2,0.8,0.6
2024-11-13T0800,1622A,116.3032,37.4674,德州市,儿童乐园,细颗粒物(PM2.5),168,151,189,127,140,9,,8,8,45,46,8,10,1.1,0.9
2024-11-13T0800,1624A,116.2991,37.4451,德州市,监理站,细颗粒物(PM2.5),188,141,185,141,156,10,,12,12,42,38,10,11,1.0,0.9
2024-11-13T0800,3066A,116.2721,37.4379,德州市,九衢泉纯净水厂,细颗粒物(PM2.5),140,151,183,107,116,5,,10,10,46,38,7,8,1.1,1
2024-11-13T0800,3371A,116.3728,37.4403,德州市,开发区人民医院,细颗粒物(PM2.5),138,129,175,105,124,11,,12,12,46,45,6,7,0.9,0.8
2024-11-13T0800,3372A,116.3572,37.4094,德州市,太阳城中学,细颗粒物(PM2.5),149,136,177,114,136,5,,17,17,53,47,6,6,1.1,0.9
2024-11-13T0800,3511A,116.5652,37.3319,德州市,陵城艺术中心,细颗粒物(PM2.5),160,146,158,122,138,11,,19,19,64,50,7,9,1.0,0.9
2024-11-13T0800,2621A,99.7056,27.8317,迪庆藏族自治州,迪庆州站,,33,33,29,23,18,36,,44,44,19,15,6,6,0.6,0.5
2024-11-13T0800,3180A,99.7136,27.8094,迪庆藏族自治州,质量技术监督局,,23,21,22,16,13,32,,48,48,23,13,7,7,0.7,0.5
2024-11-13T0800,2663A,104.6241,35.5734,定西市,东关小学,颗粒物(PM10),67,83,72,34,36,13,,10,10,35,22,12,5,0.7,0.6
2024-11-13T0800,2664A,104.6194,35.5934,定西市,供电公司,颗粒物(PM10),57,63,64,35,32,21,,8,8,26,26,11,8,0.5,0.7
2024-11-13T0800,1389A,113.7547,23.0494,东莞市,莞城梨川,,44,44,47,27,29,46,,37,37,27,26,10,9,0.7,0.7
2024-11-13T0800,1390A,113.7944,23.0128,东莞市,东城石井,,38,38,42,26,28,33,,21,21,28,26,10,10,0.7,0.7
2024-11-13T0800,1391A,113.7383,22.9658,东莞市,南城西平,颗粒物(PM10),51,51,50,29,28,8,,4,4,58,48,8,10,0.8,0.7
2024-11-13T0800,3319A,113.7338,23.0381,东莞市,万江金泰,,38,38,46,26,29,49,,38,38,21,22,9,8,0.8,0.8
2024-11-13T0800,3626A,113.7533,23.0202,东莞市,南城元岭,,36,36,49,24,29,48,,34,34,17,23,9,9,0.7,0.8
2024-11-13T0800,3627A,113.7875,23.0457,东莞市,东城主山,,40,40,48,28,30,35,,29,29,35,32,8,8,0.6,0.6
2024-11-13T0800,1666A,118.6614,37.4309,东营市,市环保局,细颗粒物(PM2.5),168,149,111,127,74,27,,64,64,41,28,7,6,1.1,0.9
2024-11-13T0800,3036A,118.6904,37.4338,东营市,开发区管委会,细颗粒物(PM2.5),178,172,106,134,79,37,,68,68,38,28,6,5,0.8,0.6
2024-11-13T0800,3365A,118.5719,37.565,东营市,垦利区民丰路,细颗粒物(PM2.5),160,144,99,122,70,22,,52,52,42,30,9,9,1.2,1
2024-11-13T0800,3498A,118.5055,37.8612,东营市,河口城区,细颗粒物(PM2.5),144,136,100,110,59,25,,62,62,27,20,2,3,1.3,1.1
2024-11-13T0800,3646A,118.4978,37.4623,东营市,胜利站,细颗粒物(PM2.5),156,,74,119,75,15,,57,57,48,30,4,5,1.4,1.2
2024-11-13T0800,3734A,118.35,37.26,东营市,理想之城,细颗粒物(PM2.5),156,163,126,119,78,9,,58,58,57,36,4,6,1.0,1
2024-11-13T0800,1591A,110.0023,39.8129,鄂尔多斯市,综合楼,,46,46,68,31,23,37,,56,56,39,40,10,12,0.8,0.7
2024-11-13T0800,1592A,109.9486,39.8261,鄂尔多斯市,巴音孟克林场办事处,,45,41,54,31,25,30,,55,55,38,36,8,10,0.8,0.6
2024-11-13T0800,1593A,109.7736,39.5986,鄂尔多斯市,康泽苑,细颗粒物(PM2.5),52,44,50,36,26,36,,30,30,21,32,7,10,0.4,0.4
2024-11-13T0800,1594A,109.8119,39.5989,鄂尔多斯市,华泰汽车城,,45,39,48,31,25,27,,26,26,29,33,5,8,0.7,0.6
2024-11-13T0800,1595A,109.9734,39.7884,鄂尔多斯市,奥林花园,颗粒物(PM10),51,51,52,29,28,26,,44,44,40,42,7,9,0.7,0.6
2024-11-13T0800,2436A,114.8938,30.3994,鄂州市,市政府,细颗粒物(PM2.5),67,77,64,48,39,39,,60,60,50,34,19,12,1.2,1.2
2024-11-13T0800,2437A,114.8989,30.3714,鄂州市,赵家坝,细颗粒物(PM2.5),67,80,58,48,37,41,,62,62,46,32,11,10,0.9,0.9
2024-11-13T0800,3654A,114.8094,30.4089,鄂州市,精准医疗中心,细颗粒物(PM2.5),55,52,67,39,37,40,,68,68,53,34,8,12,0.7,0.8
2024-11-13T0800,2454A,109.4978,30.2981,恩施土家族苗族自治州,湖北民院,,47,47,66,27,51,14,,11,11,6,21,5,6,0.5,0.6
2024-11-13T0800,2455A,109.4707,30.2798,恩施土家族苗族自治州,州电力总公司,,36,33,56,25,47,14,,12,12,16,28,7,7,0.5,0.7
2024-11-13T0800,3549A,109.5061,30.3772,恩施土家族苗族自治州,龙凤新区,,40,38,52,28,42,4,,4,4,14,20,5,6,0.6,0.7
2024-11-13T0800,2499A,108.3411,21.6158,防城港市,沙万,细颗粒物(PM2.5),60,68,58,43,39,30,,71,71,48,26,13,13,1.4,0.9
2024-11-13T0800,2500A,108.3514,21.7731,防城港市,防城档案局,颗粒物(PM10),63,75,78,40,42,37,,43,43,29,23,5,8,0.8,0.7
2024-11-13T0800,2501A,108.3506,21.6414,防城港市,大海花园,"颗粒物(PM10),细颗粒物(PM2.5)",53,56,61,37,37,25,,85,85,46,24,6,11,1.5,1
2024-11-13T0800,1371A,113.1294,23.0067,佛山市,湾梁,,41,41,46,26,25,34,,21,21,44,38,8,9,0.8,0.8
2024-11-13T0800,1372A,113.1083,23.0478,佛山市,华材职中,细颗粒物(PM2.5),57,61,59,40,30,12,,7,7,64,55,9,10,0.7,0.6
2024-11-13T0800,1373A,113.144,23.0453,佛山市,南海气象局,,39,31,48,27,28,32,,12,12,40,46,8,10,0.5,0.6
2024-11-13T0800,1374A,113.2881,22.8094,佛山市,顺德苏岗,颗粒物(PM10),56,62,54,31,29,10,,8,8,55,42,11,9,0.8,0.7
2024-11-13T0800,1376A,112.8383,22.8678,佛山市,高明孔堂,细颗粒物(PM2.5),69,60,56,50,35,16,,15,15,54,36,16,10,0.8,0.7
2024-11-13T0800,1377A,112.8836,23.1588,佛山市,三水监测站,细颗粒物(PM2.5),53,53,49,37,33,37,,33,33,38,40,12,11,0.7,0.7
2024-11-13T0800,1378A,112.867,23.185,佛山市,三水云东海,,48,34,44,33,31,23,,18,18,33,39,13,13,0.8,0.7
2024-11-13T0800,3625A,113.2544,22.7642,佛山市,容桂街道办,,44,44,46,24,29,20,,15,15,49,40,10,9,0.8,0.7
2024-11-13T0800,1280A,119.3903,26.0543,福州市,鼓山,,,,17,,8,,,72,,,6,,3,,0.3
2024-11-13T0800,1282A,119.2681,26.0504,福州市,师大,,,31,24,17,11,80,,96,96,11,8,,3,,0.4
2024-11-13T0800,1283A,119.2984,26.1028,福州市,五四北路,,28,28,20,16,10,83,,97,97,10,8,2,3,0.6,0.4
2024-11-13T0800,1284A,119.2648,26.0768,福州市,杨桥西路,,33,33,22,19,11,73,,96,96,15,8,2,2,0.5,0.4
2024-11-13T0800,1285A,119.317,26.0746,福州市,紫阳,颗粒物(PM10),53,56,43,20,13,70,,90,90,21,14,4,3,0.3,0.2
2024-11-13T0800,3048A,119.5799,26.0936,福州市,九龙,,26,26,23,16,9,73,,93,93,8,5,3,3,0.2,0.1
2024-11-13T0800,3526A,119.5189,25.9664,福州市,吴航,,28,28,21,16,11,85,,98,98,11,7,4,3,0.3,0.2
2024-11-13T0800,1755A,123.7977,41.8491,抚顺市,望花区,颗粒物(PM10),54,57,77,23,36,12,,8,8,35,40,4,4,0.7,0.8
2024-11-13T0800,1756A,123.9161,41.8822,抚顺市,顺城区,,25,25,56,13,33,26,,23,23,30,36,6,8,0.3,0.6
2024-11-13T0800,1757A,124.0436,41.8611,抚顺市,东洲区,,17,17,35,11,22,30,,20,20,16,20,8,7,0.3,0.4
2024-11-13T0800,1758A,123.9247,41.8642,抚顺市,新抚区,,48,48,59,26,32,10,,9,9,37,34,7,6,0.5,0.5
2024-11-13T0800,1759A,124.0972,41.8961,抚顺市,大伙房水库,,16,15,29,11,18,39,,32,32,9,17,8,8,0.3,0.4
2024-11-13T0800,1760A,123.7086,41.8391,抚顺市,沈抚新城,颗粒物(PM10),66,82,70,32,38,9,,6,6,42,37,46,17,3.2,1.4
2024-11-13T0800,2376A,116.2127,28.0814,抚州市,桐源党溪,颗粒物(PM10),56,61,56,35,33,8,,20,20,10,6,5,7,0.6,0.6
2024-11-13T0800,2377A,116.3544,27.9831,抚州市,市站,颗粒物(PM10),55,59,56,37,36,41,,55,55,30,18,11,11,0.9,0.8
2024-11-13T0800,2378A,116.3565,27.963,抚州市,血防站,颗粒物(PM10),55,59,52,36,34,7,,36,36,35,18,5,10,1.1,0.9
2024-11-13T0800,2379A,116.3564,28.0007,抚州市,采茶剧团,细颗粒物(PM2.5),55,58,55,39,36,25,,42,42,30,16,27,12,1.0,0.9
2024-11-13T0800,2380A,116.385,27.9647,抚州市,医学分院,颗粒物(PM10),64,77,59,45,32,27,,40,40,28,16,7,13,0.9,0.9
2024-11-13T0800,2207A,121.6094,41.998,阜新市,工业园区,细颗粒物(PM2.5),125,172,118,95,49,6,,4,4,37,35,24,16,1.4,0.9
2024-11-13T0800,2208A,121.6697,42.0279,阜新市,长青街,细颗粒物(PM2.5),123,169,79,93,41,5,,5,5,32,34,21,16,2.2,1.5
2024-11-13T0800,2209A,121.6673,42.0705,阜新市,农业园区,细颗粒物(PM2.5),94,96,76,70,45,19,,26,26,51,33,59,30,1.2,0.7
2024-11-13T0800,2210A,121.6717,42.0224,阜新市,东苑,颗粒物(PM10),115,180,89,66,37,8,,6,6,48,38,55,29,2.6,1.5
2024-11-13T0800,2211A,121.6506,42.0498,阜新市,玉龙新城,细颗粒物(PM2.5),133,153,89,101,42,9,,6,6,42,40,18,14,2.1,1.4
2024-11-13T0800,2301A,115.8277,32.8929,阜阳市,市监测站,细颗粒物(PM2.5),92,82,73,68,53,32,,49,49,25,21,6,7,0.7,0.5
2024-11-13T0800,2303A,115.8554,32.8605,阜阳市,开发区,细颗粒物(PM2.5),99,103,88,74,52,26,,45,45,30,28,7,7,0.8,0.7
2024-11-13T0800,2875A,115.784,32.8892,阜阳市,阜阳职业技术学院,细颗粒物(PM2.5),80,77,70,59,49,34,,54,54,21,17,6,7,0.8,0.6
2024-11-13T0800,3468A,115.7901,32.8613,阜阳市,市规划展馆,细颗粒物(PM2.5),95,,60,71,47,40,,59,59,23,21,7,8,0.8,0.6
2024-11-13T0800,3469A,115.836,32.9183,阜阳市,枣园社区,细颗粒物(PM2.5),87,79,65,64,48,33,,52,52,26,22,7,8,0.8,0.6
2024-11-13T0800,2669A,102.9099,34.9841,甘南藏族自治州,州政府,,45,45,31,17,15,55,,58,58,11,8,2,3,0.5,0.4
2024-11-13T0800,3380A,102.8914,34.9617,甘南藏族自治州,甘肃民族师范学院,,35,35,21,22,12,59,,60,60,11,10,4,4,0.4,0.3
2024-11-13T0800,2570A,101.9603,30.0475,甘孜藏族自治州,水桥子,,23,23,23,12,9,18,,12,12,17,21,6,7,0.3,0.4
2024-11-13T0800,3065A,101.9533,29.9972,甘孜藏族自治州,州环保局,,24,24,19,3,5,29,,24,24,11,22,4,4,0.2,0.3
2024-11-13T0800,3414A,115.8347,28.932,赣江新区,桑海产业园,细颗粒物(PM2.5),84,97,69,62,42,8,,9,9,58,43,12,11,0.8,0.6
2024-11-13T0800,2362A,114.9017,25.9149,赣州市,通天岩,,43,33,39,30,32,14,,19,19,8,9,2,2,0.6,0.6
2024-11-13T0800,2363A,114.9367,25.8664,赣州市,地委,细颗粒物(PM2.5),55,57,44,39,33,40,,51,51,16,11,1,5,0.8,0.8
2024-11-13T0800,2364A,114.9461,25.8481,赣州市,气象台,细颗粒物(PM2.5),60,46,40,43,35,43,,48,48,21,14,6,8,0.8,0.7
2024-11-13T0800,2365A,114.9322,25.8333,赣州市,市图书馆,颗粒物(PM10),51,52,41,30,26,42,,59,59,20,13,5,7,0.8,0.8
2024-11-13T0800,2366A,114.8905,25.8471,赣州市,华坚鞋城,细颗粒物(PM2.5),53,54,42,37,28,51,,68,68,24,12,6,5,0.5,0.5
2024-11-13T0800,3109A,115.0093,25.8613,赣州市,赣县区卫计委,,50,50,43,31,29,19,,19,19,28,20,4,5,0.7,0.6
2024-11-13T0800,2683A,106.2319,36.1417,固原市,马园,颗粒物(PM10),67,83,70,45,39,6,,12,12,34,34,10,8,1.1,0.9
2024-11-13T0800,2684A,106.2792,36.0022,固原市,监测站,颗粒物(PM10),57,63,48,33,36,18,,38,38,37,24,6,6,0.5,0.4
2024-11-13T0800,2685A,106.2375,36.0211,固原市,新区,颗粒物(PM10),54,57,50,35,33,14,,33,33,37,24,5,5,0.7,0.6
2024-11-13T0800,3522A,106.2177,35.9959,固原市,原州区十五小,颗粒物(PM10),59,68,64,35,36,16,,36,36,42,24,7,7,0.7,0.6
2024-11-13T0800,2543A,106.6308,30.5278,广安市,小平旧居,,,,,,,,,,,,,,,,
2024-11-13T0800,2544A,106.6303,30.4576,广安市,市委,,45,33,41,31,30,35,,33,33,14,16,3,3,0.5,0.5
2024-11-13T0800,2545A,106.6271,30.4663,广安市,友谊中学,,37,37,39,24,29,27,,33,33,19,16,2,3,0.6,0.6
2024-11-13T0800,2547A,106.6388,30.4551,广安市,广电花园,,36,36,36,25,26,28,,30,30,21,17,6,5,0.6,0.6
2024-11-13T0800,2902A,106.6351,30.4865,广安市,北辰小学,,39,36,38,27,28,25,,31,31,13,12,5,5,0.6,0.6
2024-11-13T0800,2523A,105.8945,32.4535,广元市,黑石坡,,9,9,14,6,9,0,,0,0,16,20,5,5,0.7,0.6
2024-11-13T0800,2524A,105.821,32.4444,广元市,老城,,23,23,18,13,9,4,,3,3,29,31,6,6,1.0,0.9
2024-11-13T0800,2526A,105.8628,32.4287,广元市,监测站,,16,16,16,7,9,5,,10,10,23,27,5,4,0.9,0.8
2024-11-13T0800,3617A,105.8047,32.4166,广元市,经开区,,26,26,18,13,11,4,,4,4,24,30,6,7,0.8,0.7
2024-11-13T0800,1345A,113.2347,23.1423,广州市,广雅中学,,46,46,54,30,30,38,,29,29,39,41,8,8,0.7,0.8
2024-11-13T0800,1346A,113.2612,23.105,广州市,市五中,,42,40,43,29,30,60,,47,47,23,29,6,6,0.6,0.6
2024-11-13T0800,1348A,113.3478,23.0916,广州市,广东商学院,,38,37,43,26,28,41,,34,34,24,23,6,7,0.6,0.6
2024-11-13T0800,1349A,113.4332,23.1047,广州市,市八十六中,颗粒物(PM10),59,68,52,36,28,21,,17,17,52,39,5,5,0.7,0.6
2024-11-13T0800,1350A,113.3505,22.9483,广州市,番禺中学,,42,42,49,27,26,28,,26,26,53,41,7,7,0.6,0.6
2024-11-13T0800,1351A,113.2146,23.3916,广州市,花都师范,,39,38,39,27,27,70,,70,70,22,21,8,9,0.7,0.7
2024-11-13T0800,1352A,113.2597,23.1331,广州市,市监测站,,41,41,44,28,26,37,,41,41,32,29,6,7,0.5,0.5
2024-11-13T0800,1353A,113.5618,23.312,广州市,九龙镇镇龙,,41,41,50,26,30,31,,17,17,27,28,6,6,0.6,0.6
2024-11-13T0800,1354A,113.2765,23.1544,广州市,麓湖,,43,42,39,30,26,38,,12,12,31,34,5,5,0.6,0.6
2024-11-13T0800,1355A,113.443,23.3035,广州市,帽峰山森林公园,,28,25,26,19,21,60,,55,55,14,15,8,8,0.6,0.6
2024-11-13T0800,2846A,113.3221,23.1322,广州市,体育西,,42,40,47,29,28,41,,24,24,24,26,4,4,0.6,0.6
2024-11-13T0800,3298A,113.5717,23.5491,广州市,从化街口,颗粒物(PM10),52,53,45,32,29,15,,16,16,52,33,10,9,0.8,0.7
2024-11-13T0800,3299A,113.3472,23.3692,广州市,白云竹料,,43,42,44,30,29,43,,36,36,27,23,8,8,0.8,0.7
2024-11-13T0800,3300A,113.2981,23.237,广州市,白云嘉禾,颗粒物(PM10),51,52,59,32,31,29,,31,31,51,45,8,8,0.9,0.9
2024-11-13T0800,3301A,113.4256,23.1716,广州市,黄埔科学城,,38,38,39,26,25,28,,32,32,34,25,6,7,0.7,0.7
2024-11-13T0800,3302A,113.3942,23.0483,广州市,番禺大学城,,47,47,47,26,27,19,,7,7,46,38,9,9,1.3,1.2
2024-11-13T0800,3303A,113.4922,22.8168,广州市,南沙黄阁,,50,50,64,32,32,20,,8,8,58,60,13,12,0.9,0.9
2024-11-13T0800,3304A,113.5342,22.7896,广州市,南沙街,,50,38,61,35,35,20,,12,12,51,51,22,9,0.8,0.7
2024-11-13T0800,3443A,113.2902,23.5544,广州市,花都梯面,,36,32,34,25,25,71,,69,69,12,15,14,11,0.4,0.4
2024-11-13T0800,3445A,113.7858,23.7478,广州市,从化良口,,30,27,27,21,21,23,,28,28,15,10,5,6,0.7,0.7
2024-11-13T0800,3446A,113.8051,23.2614,广州市,增城荔城,,39,35,36,27,27,56,,62,62,16,14,11,8,0.5,0.6
2024-11-13T0800,2505A,109.568,23.1478,贵港市,德智高中,,,,,,,,,,,,,,,,
2024-11-13T0800,2506A,109.6047,23.0666,贵港市,江南子站,细颗粒物(PM2.5),133,153,105,101,55,8,,8,8,54,39,112,16,1.3,1
2024-11-13T0800,2507A,109.6014,23.0948,贵港市,贵城子站,细颗粒物(PM2.5),105,98,83,79,57,25,,17,17,38,29,22,13,0.9,0.8
2024-11-13T0800,2508A,109.5669,23.1065,贵港市,荷城子站,细颗粒物(PM2.5),70,83,76,51,41,26,,19,19,46,34,15,16,0.8,0.7
2024-11-13T0800,3405A,109.5886,23.1172,贵港市,新世纪学校,细颗粒物(PM2.5),67,80,65,48,39,32,,36,36,44,28,12,12,0.9,0.8
2024-11-13T0800,1439A,106.6899,26.5998,贵阳市,马鞍山,,28,27,26,19,13,80,,81,81,12,11,5,5,0.6,0.5
2024-11-13T0800,1440A,106.6971,26.5694,贵阳市,市环保站,,46,34,31,32,25,74,,84,84,21,17,6,6,0.6,0.5
2024-11-13T0800,1441A,106.6243,26.6266,贵阳市,鉴湖路,细颗粒物(PM2.5),55,41,31,39,21,69,,79,79,14,9,7,6,0.4,0.4
2024-11-13T0800,1442A,106.7487,26.6343,贵阳市,燕子冲,,,,23,31,21,2,,,,,12,10,8,0.2,0.4
2024-11-13T0800,1443A,106.6555,26.4365,贵阳市,碧云窝,,42,39,33,29,17,84,,86,86,9,8,8,6,0.4,0.4
2024-11-13T0800,1444A,106.694,26.5161,贵阳市,中院村,,46,46,39,27,21,56,,67,67,28,17,7,6,0.7,0.5
2024-11-13T0800,1445A,106.7109,26.6027,贵阳市,红边门,细颗粒物(PM2.5),52,46,37,36,25,69,,78,78,25,17,7,6,0.9,0.7
2024-11-13T0800,1446A,106.7164,26.5699,贵阳市,新华路,,41,41,27,24,19,72,,74,74,21,15,7,7,0.5,0.4
2024-11-13T0800,1447A,106.674,26.5424,贵阳市,太慈桥,,36,36,34,24,17,55,,66,66,20,16,6,7,0.4,0.5
2024-11-13T0800,1552A,106.805,26.3003,贵阳市,桐木岭,,46,46,42,32,27,104,,108,108,2,2,4,5,0.6,0.5
2024-11-13T0800,1862A,110.4144,25.3167,桂林市,电子科大尧山校区,细颗粒物(PM2.5),57,45,54,40,40,60,,65,65,12,12,4,7,0.6,0.6
2024-11-13T0800,1863A,110.2819,25.2697,桂林市,监测站,细颗粒物(PM2.5),70,54,57,51,48,70,,95,95,28,17,17,18,0.8,0.8
2024-11-13T0800,1864A,110.3089,25.2708,桂林市,龙隐路小学,细颗粒物(PM2.5),55,47,53,39,41,80,,92,92,19,15,14,16,0.8,0.8
2024-11-13T0800,1865A,110.2869,25.2178,桂林市,八中,细颗粒物(PM2.5),68,67,57,49,41,23,,76,76,46,19,11,17,0.9,0.8
2024-11-13T0800,3403A,110.1764,25.2381,桂林市,创业大厦,细颗粒物(PM2.5),83,73,63,61,49,11,,48,48,47,23,54,21,0.5,0.5
2024-11-13T0800,3531A,110.296,25.1253,桂林市,旅游学院,细颗粒物(PM2.5),83,92,64,61,45,13,,12,12,42,34,14,12,0.8,0.7
2024-11-13T0800,2674A,100.2561,34.4714,果洛藏族自治州,玛沁县大武镇,颗粒物(PM10),57,63,34,26,20,30,,40,40,12,8,12,13,0.6,0.5
2024-11-13T0800,1129A,126.5422,45.755,哈尔滨市,岭北,细颗粒物(PM2.5),115,96,125,87,117,50,,39,39,44,39,19,15,0.2,0.2
2024-11-13T0800,1130A,126.561,45.8167,哈尔滨市,松北商大,细颗粒物(PM2.5),149,161,129,114,122,10,,8,8,57,44,18,9,1.5,0.9
2024-11-13T0800,1131A,126.979,45.5419,哈尔滨市,阿城会宁,细颗粒物(PM2.5),158,122,140,120,121,17,,14,14,40,37,8,7,0.8,0.8
2024-11-13T0800,1132A,126.599,45.7222,哈尔滨市,南岗学府路,细颗粒物(PM2.5),123,148,166,93,111,21,,18,18,59,45,12,10,0.8,0.8
2024-11-13T0800,1133A,126.689,45.7733,哈尔滨市,太平宏伟公园,细颗粒物(PM2.5),133,132,151,101,125,15,,6,6,48,43,10,12,0.9,0.8
2024-11-13T0800,1134A,126.635,45.7667,哈尔滨市,道外承德广场,细颗粒物(PM2.5),112,142,152,84,118,19,,22,22,56,45,16,11,1.3,0.9
2024-11-13T0800,1135A,126.685,45.7319,哈尔滨市,香坊红旗大街,细颗粒物(PM2.5),186,210,167,140,140,9,,9,9,57,42,23,13,1.7,1.1
2024-11-13T0800,1136A,126.6411,45.7258,哈尔滨市,动力和平路,细颗粒物(PM2.5),150,170,144,115,135,8,,9,9,64,49,22,14,1.1,0.8
2024-11-13T0800,1137A,126.593,45.7478,哈尔滨市,道里建国路,细颗粒物(PM2.5),127,125,143,96,135,14,,12,12,62,54,25,21,0.6,2
2024-11-13T0800,1138A,126.615,45.61,哈尔滨市,平房东轻厂,细颗粒物(PM2.5),110,93,121,83,113,40,,38,38,22,34,6,7,0.6,0.6
2024-11-13T0800,1139A,126.595,45.9855,哈尔滨市,呼兰师专,细颗粒物(PM2.5),173,132,123,131,124,18,,14,14,50,41,6,5,0.9,0.8
2024-11-13T0800,1140A,126.6206,45.6842,哈尔滨市,省农科院,细颗粒物(PM2.5),148,142,162,113,133,13,,9,9,50,47,7,9,0.9,0.8
2024-11-13T0800,2688A,93.5128,42.8172,哈密市,地区监测站,颗粒物(PM10),55,59,84,26,31,55,,34,34,20,44,4,7,0.1,0.5
2024-11-13T0800,2689A,93.4961,42.8328,哈密市,哈密师范学校,颗粒物(PM10),54,57,77,28,33,58,,31,31,22,47,7,7,0.4,0.8
2024-11-13T0800,2671A,100.9048,36.9639,海北藏族自治州,海晏县西海镇,,46,,36,32,28,78,,82,82,10,11,9,13,0.6,0.5
2024-11-13T0800,3867A,102.0738,36.5056,海东市,平安区公安北苑,细颗粒物(PM2.5),55,44,66,39,39,19,,49,49,51,30,12,21,0.7,0.7
2024-11-13T0800,1409A,110.576,19.9507,海口市,东寨港,,,,,,,,,,,,,,,,
2024-11-13T0800,1410A,110.3232,20.0574,海口市,海南大学,,47,47,54,29,34,102,,112,112,14,13,4,5,0.5,0.5
2024-11-13T0800,1411A,110.283,20.0053,海口市,秀英海南医院,细颗粒物(PM2.5),65,,52,47,36,32,,94,94,61,19,7,7,0.6,0.5
2024-11-13T0800,1412A,110.338,19.9969,海口市,海南师范大学,,46,42,50,32,34,107,,111,111,16,13,7,8,0.5,0.5
2024-11-13T0800,1413A,110.33,20.0356,海口市,龙华路环保局宿舍,,43,39,49,30,33,110,,116,116,16,12,5,6,0.5,0.5
2024-11-13T0800,3539A,110.5111,19.9736,海口市,桂林洋子站,细颗粒物(PM2.5),75,76,72,55,45,49,,47,47,33,28,6,7,0.6,0.5
2024-11-13T0800,2673A,100.6188,36.2866,海南藏族自治州,共和县恰卜恰镇,,,60,55,,36,43,,,,15,21,5,11,,0.7
2024-11-13T0800,2676A,97.3731,37.3753,海西蒙古族藏族自治州,德令哈市,,35,35,33,17,14,58,,82,82,13,10,16,15,0.4,0.5
2024-11-13T0800,1048A,114.5302,36.6116,邯郸市,东污水处理厂,细颗粒物(PM2.5),149,,164,114,166,7,,8,8,36,39,2,2,1.0,0.9
2024-11-13T0800,1049A,114.4918,36.5713,邯郸市,矿院,细颗粒物(PM2.5),168,145,202,127,164,8,,16,16,34,33,3,3,1.0,0.8
2024-11-13T0800,1050A,114.484,36.6133,邯郸市,丛台公园,细颗粒物(PM2.5),147,112,183,112,164,14,,13,13,36,40,4,4,1.0,0.8
2024-11-13T0800,3458A,114.7895,36.5593,邯郸市,香泉濮院小区,细颗粒物(PM2.5),69,67,150,50,115,1,,2,2,36,32,4,4,0.9,0.7
2024-11-13T0800,3579A,114.50634,36.77178,邯郸市,永年区实验高中,细颗粒物(PM2.5),166,140,202,126,160,17,,9,9,31,42,3,5,1.2,1.1
2024-11-13T0800,3580A,114.20016,36.44293,邯郸市,峰峰矿区临水派出所,细颗粒物(PM2.5),89,,139,66,146,28,,28,28,16,22,3,5,1.2,1.1
2024-11-13T0800,2634A,106.9893,33.1842,汉中市,汉川机床厂子校,,29,24,31,20,31,18,,21,21,18,12,5,5,0.6,0.6
2024-11-13T0800,2635A,107.0154,33.0706,汉中市,市监测站,,30,28,41,21,27,18,,16,16,19,16,9,9,0.7,0.8
2024-11-13T0800,2636A,107.0089,33.1138,汉中市,鑫源开发区,,35,30,39,24,30,23,,15,15,22,21,10,10,0.7,0.7
2024-11-13T0800,2637A,107.007,33.0323,汉中市,南郑大河坎水厂,,32,31,38,22,26,19,,18,18,24,24,8,8,0.8,0.8
2024-11-13T0800,1223A,120.2072,30.2111,杭州市,滨江,,49,49,55,26,29,27,,45,45,42,32,6,6,0.6,0.5
2024-11-13T0800,1224A,120.0633,30.2747,杭州市,西溪,颗粒物(PM10),54,57,43,30,25,4,,5,5,47,36,7,7,0.5,0.6
2024-11-13T0800,1226A,120.3461,30.3153,杭州市,下沙,颗粒物(PM10),61,71,43,37,24,4,,22,22,68,42,8,7,0.9,0.7
2024-11-13T0800,1227A,120.1269,30.2456,杭州市,卧龙桥,,37,37,42,25,23,9,,8,8,17,27,6,7,0.6,0.5
2024-11-13T0800,1228A,120.1903,30.2692,杭州市,浙江农大,,45,44,42,31,27,28,,30,30,38,31,5,5,0.7,0.6
2024-11-13T0800,1230A,120.1197,30.3119,杭州市,和睦小学,,43,43,41,30,27,6,,20,20,54,39,8,9,0.4,0.3
2024-11-13T0800,1231A,120.3019,30.4183,杭州市,临平镇,细颗粒物(PM2.5),80,68,53,59,39,8,,15,15,54,41,6,6,0.7,0.5
2024-11-13T0800,1232A,120.2697,30.1819,杭州市,城厢镇,"颗粒物(PM10),细颗粒物(PM2.5)",52,54,54,36,37,14,,43,43,60,35,5,6,0.7,0.6
2024-11-13T0800,1233A,120.0883,30.1808,杭州市,云栖,,26,26,40,13,24,4,,6,6,25,38,7,7,0.6,0.6
2024-11-13T0800,3557A,119.9464,30.0494,杭州市,镇二中,细颗粒物(PM2.5),53,51,56,37,34,7,,17,17,38,32,7,6,0.8,0.7
2024-11-13T0800,3558A,119.7183,30.2367,杭州市,市府大楼,细颗粒物(PM2.5),57,56,58,40,40,9,,14,14,46,44,7,7,0.9,0.7
2024-11-13T0800,3656A,120.1556,30.2864,杭州市,消防大队,细颗粒物(PM2.5),62,67,56,44,37,9,,19,19,50,38,8,8,0.6,0.5
2024-11-13T0800,1270A,117.1959,31.7848,合肥市,明珠广场,细颗粒物(PM2.5),64,75,62,46,38,30,,49,49,37,32,8,9,0.6,0.6
2024-11-13T0800,1271A,117.3072,31.8764,合肥市,三里街,颗粒物(PM10),60,70,63,36,33,20,,41,41,39,28,5,5,0.9,0.9
2024-11-13T0800,1272A,117.2588,31.8707,合肥市,琥珀山庄,颗粒物(PM10),59,68,59,38,33,44,,56,56,33,28,9,10,0.6,0.7
2024-11-13T0800,1273A,117.1604,31.9052,合肥市,董铺水库,颗粒物(PM10),63,75,62,36,28,34,,49,49,29,26,4,5,0.6,0.6
2024-11-13T0800,1274A,117.25,31.8571,合肥市,长江中路,细颗粒物(PM2.5),74,83,70,54,45,34,,50,50,35,31,8,9,0.7,0.8
2024-11-13T0800,1275A,117.266,31.9436,合肥市,庐阳区,细颗粒物(PM2.5),70,75,66,51,39,30,,47,47,32,27,4,5,0.7,0.7
2024-11-13T0800,1276A,117.336,31.8586,合肥市,瑶海区,细颗粒物(PM2.5),68,80,71,49,36,32,,49,49,42,33,3,5,0.7,0.8
2024-11-13T0800,1277A,117.3027,31.7964,合肥市,包河区,细颗粒物(PM2.5),73,78,73,53,44,13,,16,16,50,50,6,6,0.9,0.9
2024-11-13T0800,1278A,117.2776,31.7385,合肥市,滨湖新区,颗粒物(PM10),67,83,68,36,32,39,,56,56,23,21,6,7,0.7,0.7
2024-11-13T0800,1279A,117.1318,31.8403,合肥市,高新区,细颗粒物(PM2.5),75,73,65,55,45,40,,54,54,28,26,1,2,0.9,0.9
2024-11-13T0800,3464A,117.3803,31.9147,合肥市,高教基地,颗粒物(PM10),66,82,65,46,34,31,,45,45,35,29,7,7,0.6,0.6
2024-11-13T0800,3614A,79.924,37.0877,和田地区,地区环保局,颗粒物(PM10),78,106,128,34,32,41,,49,49,28,23,8,8,0.5,0.6
2024-11-13T0800,3615A,79.9131,37.113,和田地区,市环保局,颗粒物(PM10),82,114,112,38,32,12,,30,30,44,25,7,7,2.8,0.8
2024-11-13T0800,2516A,108.2011,24.715,河池市,东仁乐园,细颗粒物(PM2.5),89,91,76,66,54,17,,15,15,41,48,10,13,1.2,1.1
2024-11-13T0800,2517A,108.0497,24.6947,河池市,市环保站,细颗粒物(PM2.5),68,53,56,49,45,24,,29,29,23,22,9,14,0.7,0.7
2024-11-13T0800,2518A,108.0983,24.6989,河池市,市疾控中心,细颗粒物(PM2.5),69,78,70,50,45,9,,6,6,36,41,8,13,0.8,0.7
2024-11-13T0800,1696A,114.6778,23.7569,河源市,源西,,49,,37,34,29,46,,51,51,20,22,9,7,0.6,0.6
2024-11-13T0800,1697A,114.6944,23.7586,河源市,东埔,细颗粒物(PM2.5),54,46,40,38,33,32,,54,54,30,16,6,5,0.7,0.6
2024-11-13T0800,1698A,114.6892,23.7233,河源市,老城,,46,38,37,32,28,53,,49,49,17,16,8,6,0.6,0.6
2024-11-13T0800,1718A,115.4208,35.2464,菏泽市,气象局,细颗粒物(PM2.5),133,168,223,101,159,21,,10,10,40,39,3,4,1.0,0.6
2024-11-13T0800,1719A,115.4747,35.2375,菏泽市,市政协,细颗粒物(PM2.5),175,172,204,132,160,21,,7,7,40,45,6,7,0.9,0.8
2024-11-13T0800,3374A,115.5564,35.0891,菏泽市,定陶老年大学,细颗粒物(PM2.5),138,161,167,105,115,20,,11,11,34,43,4,6,0.8,0.6
2024-11-13T0800,3647A,115.4702,35.2706,菏泽市,菏泽医专,细颗粒物(PM2.5),134,164,212,102,156,13,,6,6,47,44,4,5,0.9,0.7
2024-11-13T0800,2514A,111.5264,24.4172,贺州市,环保小区,细颗粒物(PM2.5),64,74,64,46,46,16,,23,23,25,21,5,7,0.8,0.8
2024-11-13T0800,2515A,111.5608,24.4078,贺州市,政协大楼,"颗粒物(PM10),细颗粒物(PM2.5)",57,63,68,40,40,12,,9,9,31,30,8,9,0.6,0.6
2024-11-13T0800,3534A,111.4744,24.4553,贺州市,西湾,细颗粒物(PM2.5),63,65,59,45,44,14,,19,19,28,23,7,8,1.0,0.8
2024-11-13T0800,2385A,114.17,35.9019,鹤壁市,市监测站,细颗粒物(PM2.5),152,123,194,116,176,20,,34,34,24,26,3,3,0.6,1.1
2024-11-13T0800,2386A,114.2956,35.7511,鹤壁市,市交警支队,细颗粒物(PM2.5),137,134,215,104,162,24,,40,40,25,26,1,3,0.8,1.3
2024-11-13T0800,2387A,114.2878,35.7306,鹤壁市,迎宾馆,细颗粒物(PM2.5),155,135,221,118,171,26,,45,45,28,28,1,2,1.0,1.3
2024-11-13T0800,3474A,114.2617,35.6822,鹤壁市,大新区,细颗粒物(PM2.5),134,,147,102,172,26,,44,44,20,24,1,4,1.1,1.3
2024-11-13T0800,3596A,114.1572,35.9603,鹤壁市,南山宾馆,细颗粒物(PM2.5),110,84,175,83,163,19,,34,34,18,19,3,3,0.7,1.2
2024-11-13T0800,2244A,130.2537,47.3416,鹤岗市,哈啤分公司,,30,30,21,20,18,12,,30,30,24,6,14,13,0.8,0.4
2024-11-13T0800,2245A,130.2684,47.3086,鹤岗市,斯达机电,,25,22,20,17,19,20,,41,41,32,9,12,11,0.6,0.3
2024-11-13T0800,2246A,130.3114,47.3388,鹤岗市,东山纸板厂,,49,,24,34,22,12,,8,8,34,18,15,13,2.8,0.8
2024-11-13T0800,2247A,130.1097,47.3382,鹤岗市,五号水库,,12,12,15,3,9,32,,36,36,4,4,8,8,0.3,0.4
2024-11-13T0800,2263A,127.4833,50.2524,黑河市,交通局,,26,25,19,18,17,33,,44,44,18,11,6,6,0.5,0.4
2024-11-13T0800,2264A,127.5144,50.2341,黑河市,环保局,,20,17,15,14,14,44,,53,53,13,8,5,5,0.2,0.2
2024-11-13T0800,2265A,127.5291,50.2472,黑河市,大黑河岛,,28,,11,19,18,20,,23,23,12,10,2,2,0.6,0.6
2024-11-13T0800,1074A,115.6838,37.7541,衡水市,电机北厂,细颗粒物(PM2.5),156,,145,119,135,2,,2,2,44,47,2,2,1.0,0.8
2024-11-13T0800,1075A,115.6303,37.7316,衡水市,市监测站,细颗粒物(PM2.5),139,,135,106,122,2,,2,2,53,54,2,3,1.0,0.8
2024-11-13T0800,3188A,115.6683,37.7217,衡水市,市城管局,细颗粒物(PM2.5),125,,127,95,122,3,,4,4,53,53,1,2,1.1,0.9
2024-11-13T0800,3459A,115.5989,37.5491,衡水市,地表水厂,细颗粒物(PM2.5),128,,113,97,112,2,,1,1,49,49,4,5,1.1,0.9
2024-11-13T0800,2456A,112.5003,26.9167,衡阳市,原169医院,细颗粒物(PM2.5),68,82,66,49,43,45,,54,54,9,14,8,12,0.6,0.7
2024-11-13T0800,2457A,112.6194,26.9258,衡阳市,衡阳化工总厂,细颗粒物(PM2.5),95,80,66,71,52,30,,44,44,37,19,20,13,0.9,0.7
2024-11-13T0800,2458A,112.6211,26.8956,衡阳市,珠晖区环保局,细颗粒物(PM2.5),77,84,63,56,41,32,,52,52,36,23,32,14,1.1,0.9
2024-11-13T0800,2459A,112.6197,26.8733,衡阳市,市委党校,细颗粒物(PM2.5),64,70,60,46,36,62,,79,79,23,18,16,17,0.9,0.9
2024-11-13T0800,2460A,112.6006,26.8919,衡阳市,市监测站,细颗粒物(PM2.5),64,67,63,46,48,55,,63,63,24,17,35,17,1.1,0.8
2024-11-13T0800,2461A,112.5664,26.9056,衡阳市,真空机电公司,细颗粒物(PM2.5),78,71,72,57,50,41,,52,52,33,21,8,13,1.2,1.1
2024-11-13T0800,3399A,112.6703,26.882,衡阳市,师范学院,细颗粒物(PM2.5),72,69,63,52,44,56,,78,78,20,13,15,15,0.9,0.8
2024-11-13T0800,2608A,103.3772,23.3993,红河哈尼族彝族自治州,污水处理厂,细颗粒物(PM2.5),54,38,33,38,30,42,,51,51,12,8,8,6,0.6,0.5
2024-11-13T0800,2609A,103.3861,23.35,红河哈尼族彝族自治州,监测站,,43,41,35,30,28,54,,61,61,11,8,6,7,0.5,0.4
2024-11-13T0800,3038A,103.3758,23.368,红河哈尼族彝族自治州,州图书馆,,36,36,33,21,18,53,,60,60,9,7,6,6,0.5,0.5
2024-11-13T0800,1090A,111.6507,40.7517,呼和浩特市,呼市一监,颗粒物(PM10),57,63,79,25,29,7,,7,7,56,49,12,17,1.0,1
2024-11-13T0800,1091A,111.6572,40.8033,呼和浩特市,小召,颗粒物(PM10),52,53,74,23,27,25,,15,15,52,58,12,16,0.7,0.8
2024-11-13T0800,1094A,111.7516,40.8369,呼和浩特市,如意水处理厂,,,,74,,19,,,,,,48,,15,,0.8
2024-11-13T0800,1095A,111.7276,40.8062,呼和浩特市,二十九中,颗粒物(PM10),51,52,71,24,23,10,,7,7,59,54,11,13,0.8,0.9
2024-11-13T0800,1096A,111.5512,40.7866,呼和浩特市,工大金川校区,颗粒物(PM10),56,61,78,19,21,8,,4,4,66,58,9,11,0.9,0.7
2024-11-13T0800,1097A,111.717,40.7612,呼和浩特市,化肥厂生活区,颗粒物(PM10),57,63,77,23,24,7,,7,7,57,55,11,15,0.9,0.9
2024-11-13T0800,3698A,111.5968,40.8178,呼和浩特市,红旗小学,颗粒物(PM10),56,61,78,22,20,4,,3,3,71,61,12,13,0.8,0.7
2024-11-13T0800,3699A,111.6518,40.8389,呼和浩特市,海东办,颗粒物(PM10),52,53,75,24,25,13,,5,5,60,60,12,14,0.8,0.8
2024-11-13T0800,2192A,119.7594,49.2261,呼伦贝尔市,区环保局,,26,26,21,17,18,36,,48,48,28,16,6,7,0.6,0.4
2024-11-13T0800,3061A,119.7512,49.1577,呼伦贝尔市,国华电力东,,25,25,20,10,13,41,,47,47,14,9,5,4,0.3,0.3
2024-11-13T0800,1250A,120.0751,30.8669,湖州市,城西水厂,颗粒物(PM10),71,92,64,49,34,16,,31,31,52,35,6,6,0.5,0.4
2024-11-13T0800,2873A,120.0875,30.8955,湖州市,仁皇山新区,细颗粒物(PM2.5),68,67,50,49,35,11,,20,20,52,40,5,6,0.7,0.6
2024-11-13T0800,2907A,120.1844,30.8596,湖州市,吴兴区站,细颗粒物(PM2.5),93,87,60,69,39,15,,36,36,51,29,8,7,0.8,0.7
2024-11-13T0800,3562A,120.4148,30.8538,湖州市,南浔区站,细颗粒物(PM2.5),77,83,57,56,37,24,,29,29,51,34,5,5,0.7,0.5
2024-11-13T0800,1607A,120.9092,40.7136,葫芦岛市,龙港区,细颗粒物(PM2.5),78,82,61,57,38,11,,12,12,49,41,30,25,1.1,0.7
2024-11-13T0800,1608A,120.8392,40.7514,葫芦岛市,化工街,颗粒物(PM10),92,134,92,46,39,10,,8,8,50,43,110,53,1.2,0.8
2024-11-13T0800,1609A,120.8341,40.7073,葫芦岛市,新区,,,55,71,25,30,6,,5,5,76,55,,17,1.6,1
2024-11-13T0800,1610A,120.8695,40.7677,葫芦岛市,东城区,细颗粒物(PM2.5),77,96,75,56,39,12,,10,10,22,24,312,97,1.0,0.8
2024-11-13T0800,2482A,109.5981,27.5721,怀化市,林科所,细颗粒物(PM2.5),63,56,49,45,39,80,,86,86,20,17,34,18,1.4,1.2
2024-11-13T0800,2483A,109.9453,27.5444,怀化市,河西地税局,细颗粒物(PM2.5),67,65,61,48,43,69,,83,83,22,14,15,16,0.5,0.5
2024-11-13T0800,2484A,109.9781,27.5342,怀化市,市四医院,细颗粒物(PM2.5),78,68,65,57,46,61,,74,74,16,12,22,16,0.9,0.8
2024-11-13T0800,2485A,109.9972,27.5578,怀化市,监测楼,细颗粒物(PM2.5),64,65,67,46,44,60,,72,72,16,15,9,9,0.6,0.6
2024-11-13T0800,2486A,110.0394,27.583,怀化市,市委党校,细颗粒物(PM2.5),68,71,61,49,40,52,,70,70,20,12,7,20,0.8,0.8
2024-11-13T0800,1210A,119.036,33.5981,淮安市,钵池山,细颗粒物(PM2.5),135,,92,103,92,73,,68,68,,33,,5,0.9,0.9
2024-11-13T0800,1211A,119.007,33.575,淮安市,北京南路,细颗粒物(PM2.5),114,110,121,86,88,72,,72,72,21,27,6,6,0.8,0.7
2024-11-13T0800,1212A,118.989,33.6067,淮安市,市监测站,细颗粒物(PM2.5),89,75,86,66,73,74,,81,81,25,28,3,4,1.0,0.8
2024-11-13T0800,1213A,119.135,33.5039,淮安市,楚州区监测站,细颗粒物(PM2.5),122,,93,92,94,57,,52,52,23,35,5,6,0.8,0.8
2024-11-13T0800,1214A,119.0186,33.6297,淮安市,淮阴区监测站,细颗粒物(PM2.5),120,,106,91,88,73,,76,76,26,38,4,6,0.8,0.7
2024-11-13T0800,3426A,118.8755,33.2894,淮安市,新华书店,细颗粒物(PM2.5),105,83,82,79,77,44,,44,44,34,34,6,6,0.6,0.6
2024-11-13T0800,2282A,116.8004,33.975,淮北市,监测站,细颗粒物(PM2.5),67,67,62,48,43,36,,49,49,21,19,2,2,0.8,0.6
2024-11-13T0800,2283A,116.8091,33.9007,淮北市,烈山区政府,细颗粒物(PM2.5),125,116,85,95,67,58,,59,59,21,21,2,2,0.6,0.5
2024-11-13T0800,3330A,116.8873,33.9836,淮北市,杜集区检察院,细颗粒物(PM2.5),147,140,90,112,72,52,,58,58,16,17,3,2,0.9,0.7
2024-11-13T0800,4017A,116.7923,33.9535,淮北市,市博物馆,细颗粒物(PM2.5),64,62,56,46,44,54,,60,60,21,19,4,4,1.0,0.8
2024-11-13T0800,2277A,116.8305,32.7727,淮南市,潘集区政府,细颗粒物(PM2.5),94,95,87,70,58,27,,42,42,24,24,6,10,0.7,0.6
2024-11-13T0800,2278A,117.0067,32.6524,淮南市,师范学院,细颗粒物(PM2.5),83,93,78,61,59,36,,54,54,32,25,12,11,0.7,0.5
2024-11-13T0800,2279A,116.8569,32.5951,淮南市,谢家集区政府,细颗粒物(PM2.5),88,93,67,65,44,32,,50,50,24,21,10,10,0.6,0.5
2024-11-13T0800,2280A,116.8281,32.633,淮南市,八公山区政府,细颗粒物(PM2.5),92,89,73,68,48,40,,56,56,24,19,11,10,0.7,0.5
2024-11-13T0800,2281A,116.6325,32.6201,淮南市,焦岗湖风景区管理处,细颗粒物(PM2.5),83,106,60,61,38,28,,47,47,29,20,4,5,0.5,0.3
2024-11-13T0800,2894A,117.0566,32.6531,淮南市,经济技术开发区消防队,细颗粒物(PM2.5),84,84,66,62,44,34,,47,47,28,20,7,6,0.8,0.6
2024-11-13T0800,3329A,117.0108,32.5893,淮南市,山南新区,细颗粒物(PM2.5),83,73,68,61,46,36,,51,51,24,18,7,6,0.8,0.6
2024-11-13T0800,2446A,114.9028,30.4742,黄冈市,职工中心,"颗粒物(PM10),细颗粒物(PM2.5)",57,64,62,40,40,40,,76,76,39,25,10,12,0.8,0.7
2024-11-13T0800,2929A,114.8858,30.4519,黄冈市,红卫路,细颗粒物(PM2.5),58,53,61,41,40,60,,80,80,22,26,8,11,0.7,0.7
2024-11-13T0800,3398A,114.9136,30.4445,黄冈市,市林业局,颗粒物(PM10),61,71,73,42,41,58,,85,85,27,26,9,11,0.6,0.7
2024-11-13T0800,2672A,102.0199,35.5102,黄南藏族自治州,同仁县隆务镇,"颗粒物(PM10),细颗粒物(PM2.5)",64,77,70,46,42,68,,69,69,4,9,6,5,0.7,0.7
2024-11-13T0800,2295A,118.2903,29.6963,黄山市,延安路89号,,34,34,29,21,15,15,,14,14,17,11,7,7,0.4,0.4
2024-11-13T0800,2296A,118.327,29.7178,黄山市,黄山东路89号,,42,42,32,16,13,16,,22,22,19,10,5,5,0.4,0.4
2024-11-13T0800,2297A,118.1371,30.2756,黄山市,黄山区政府5号楼,,30,30,32,20,23,8,,7,7,8,10,7,7,0.4,0.4
2024-11-13T0800,2423A,115.0601,30.2313,黄石市,沈家营,颗粒物(PM10),71,91,59,44,33,32,,63,63,48,26,7,13,0.9,0.8
2024-11-13T0800,2424A,115.0817,30.2006,黄石市,陈家湾,细颗粒物(PM2.5),59,59,51,42,36,83,,78,78,16,19,14,13,1.2,0.8
2024-11-13T0800,2426A,114.8988,30.2019,黄石市,铁山,细颗粒物(PM2.5),54,50,44,38,35,96,,98,98,20,15,12,11,0.8,0.6
2024-11-13T0800,2427A,115.0307,30.2092,黄石市,团城山,颗粒物(PM10),62,73,53,36,29,56,,81,81,36,24,14,11,0.8,0.7
2024-11-13T0800,3149A,115.0235,30.1578,黄石市,笔架山北路,颗粒物(PM10),56,61,44,32,28,79,,97,97,30,20,12,9,0.9,0.7
2024-11-13T0800,1392A,114.4183,23.0528,惠州市,河南岸金山湖子站,,40,40,42,26,28,50,,50,50,16,13,10,8,0.6,0.6
2024-11-13T0800,1393A,114.4053,23.0822,惠州市,下埔横江三路子站,,42,41,44,29,29,53,,56,56,18,14,9,8,0.7,0.6
2024-11-13T0800,1394A,114.4103,23.1142,惠州市,江北云山西路子站,,38,38,41,25,26,63,,61,61,14,14,10,9,0.6,0.7
2024-11-13T0800,1395A,114.4645,22.7833,惠州市,惠阳区承修路船湖子站,颗粒物(PM10),52,54,42,30,23,30,,39,39,24,18,12,9,0.6,0.5
2024-11-13T0800,1396A,114.5317,22.7422,惠州市,大亚湾管委会子站,,47,47,41,30,24,44,,48,48,22,22,4,3,0.6,0.6
2024-11-13T0800,3314A,114.4338,22.8134,惠州市,惠阳秋长,,38,31,39,26,29,50,,23,23,18,27,10,8,0.6,0.7
2024-11-13T0800,3452A,114.6517,22.775,惠州市,大亚湾霞涌,颗粒物(PM10),54,58,31,28,24,41,,35,35,15,15,8,7,0.5,0.5
2024-11-13T0800,2240A,130.9762,45.3001,鸡西市,环保局,细颗粒物(PM2.5),193,181,143,145,119,4,,4,4,52,21,11,9,1.4,0.7
2024-11-13T0800,2243A,130.9429,45.3039,鸡西市,第一中学,细颗粒物(PM2.5),179,167,149,135,119,6,,8,8,41,32,7,7,0.8,0.5
2024-11-13T0800,3707A,131.0207,45.3073,鸡西市,欧美日汽修厂,细颗粒物(PM2.5),250,250,170,200,149,6,,6,6,28,29,18,11,1.3,0.9
2024-11-13T0800,3709A,130.9967,45.3106,鸡西市,市政设施管理处,细颗粒物(PM2.5),193,181,159,145,128,4,,3,3,38,33,13,8,1.3,0.8
2024-11-13T0800,2367A,114.9754,27.0803,吉安市,红声器材厂,细颗粒物(PM2.5),68,68,59,49,37,29,,44,44,29,23,17,16,0.6,0.6
2024-11-13T0800,2368A,114.9658,27.0999,吉安市,市森林工业局,细颗粒物(PM2.5),68,57,53,49,36,43,,58,58,24,19,28,18,0.8,0.7
2024-11-13T0800,2369A,114.99,27.1312,吉安市,市环境监测站,"颗粒物(PM10),细颗粒物(PM2.5)",54,57,50,38,32,42,,56,56,30,26,22,18,0.6,0.6
2024-11-13T0800,2370A,115.0093,27.0968,吉安市,青原区法院,细颗粒物(PM2.5),59,59,58,42,38,7,,25,25,32,29,10,15,0.8,0.8
2024-11-13T0800,1772A,126.54,43.8622,吉林市,哈达湾,,38,38,50,23,35,32,,30,30,29,28,8,9,0.7,0.7
2024-11-13T0800,1773A,126.5844,43.8358,吉林市,东局子,,45,45,58,30,37,17,,17,17,35,31,7,9,0.9,0.8
2024-11-13T0800,1774A,126.5052,43.8245,吉林市,电力学院,细颗粒物(PM2.5),70,87,65,51,44,7,,6,6,36,31,10,7,1.0,0.9
2024-11-13T0800,1775A,126.6133,43.8972,吉林市,江北,细颗粒物(PM2.5),88,94,62,65,41,17,,21,21,39,30,8,11,1.5,0.9
2024-11-13T0800,1776A,126.555,43.8306,吉林市,江南公园,,48,44,61,33,45,15,,12,12,37,27,11,10,0.8,0.8
2024-11-13T0800,1778A,126.7061,43.7133,吉林市,丰满,,30,25,26,21,20,40,,41,41,7,9,7,8,1.0,0.7
2024-11-13T0800,2868A,126.4739,43.953,吉林市,九站,细颗粒物(PM2.5),55,56,63,39,45,24,,11,11,32,32,23,16,0.7,0.7
2024-11-13T0800,1299A,116.9862,36.6114,济南市,科干所,细颗粒物(PM2.5),80,83,172,59,104,42,,30,30,24,50,6,7,1.1,1.2
2024-11-13T0800,1300A,116.9376,36.665,济南市,农科所,细颗粒物(PM2.5),144,151,235,110,152,6,,6,6,48,65,7,7,1.1,1
2024-11-13T0800,1301A,117.1265,36.6734,济南市,开发区,细颗粒物(PM2.5),123,100,189,93,140,17,,9,9,39,60,4,6,1.1,1.1
2024-11-13T0800,1303A,117.0624,36.6868,济南市,省种子仓库,细颗粒物(PM2.5),199,185,237,149,187,5,,5,5,56,64,7,6,1.5,1.3
2024-11-13T0800,1304A,116.9489,36.6447,济南市,机床二厂,细颗粒物(PM2.5),117,127,193,88,125,6,,6,6,53,69,5,5,1.3,1.1
2024-11-13T0800,1305A,117.0495,36.663,济南市,市监测站,细颗粒物(PM2.5),144,132,207,110,163,7,,7,7,55,69,7,7,1.2,1
2024-11-13T0800,1306A,116.7675,36.5484,济南市,长清党校,细颗粒物(PM2.5),117,115,135,88,89,59,,27,27,37,64,6,7,1.0,0.9
2024-11-13T0800,1616A,117.6795,36.229,济南市,技术学院,细颗粒物(PM2.5),144,129,138,110,111,31,,37,37,32,35,7,7,2.0,1.4
2024-11-13T0800,1961A,117.532,36.6868,济南市,东山小学,细颗粒物(PM2.5),129,125,202,98,139,9,,25,25,51,50,5,8,1.5,1.2
2024-11-13T0800,3059A,117.7161,36.2049,济南市,泰兴公司,细颗粒物(PM2.5),128,119,120,97,98,11,,20,20,57,47,10,10,1.5,0.9
2024-11-13T0800,3064A,117.6867,36.2171,济南市,莱芜战役纪念馆,细颗粒物(PM2.5),100,112,130,75,98,24,,35,35,40,39,6,7,1.7,1.1
2024-11-13T0800,3494A,117.1673,36.9782,济南市,济阳区政府,细颗粒物(PM2.5),160,134,188,122,145,11,,11,11,45,38,7,12,1.2,1
2024-11-13T0800,3495A,117.1171,36.63,济南市,锦屏中学,细颗粒物(PM2.5),89,68,129,66,107,15,,23,23,27,42,5,5,0.9,0.9
2024-11-13T0800,3682A,116.9814,36.6819,济南市,济南四建,细颗粒物(PM2.5),175,158,206,132,154,3,,2,2,60,71,7,6,1.4,1.2
2024-11-13T0800,1653A,116.6251,35.4302,济宁市,火炬城,细颗粒物(PM2.5),98,110,104,73,71,61,,59,59,22,36,10,11,1.0,1
2024-11-13T0800,1655A,116.5491,35.4042,济宁市,电化厂,颗粒物(PM10),92,134,129,56,57,59,,53,53,25,35,7,9,1.1,1
2024-11-13T0800,3500A,116.5814,35.3707,济宁市,北湖一中,细颗粒物(PM2.5),125,122,97,95,90,48,,46,46,25,34,7,8,0.9,0.9
2024-11-13T0800,3501A,116.8249,35.5593,济宁市,服务中心,细颗粒物(PM2.5),117,,88,88,95,33,,24,24,37,47,7,8,1.4,1.2
2024-11-13T0800,3678A,116.5907,35.4054,济宁市,市第七中学,细颗粒物(PM2.5),107,100,95,80,82,52,,47,47,28,39,4,5,1.1,1
2024-11-13T0800,2255A,130.2751,46.8028,佳木斯市,佳纺,细颗粒物(PM2.5),105,86,60,79,37,11,,9,9,37,29,5,6,1.0,0.8
2024-11-13T0800,2256A,130.3995,46.8307,佳木斯市,发电厂,细颗粒物(PM2.5),105,,32,79,29,5,,3,3,31,20,6,5,0.8,0.6
2024-11-13T0800,2257A,130.3258,46.7975,佳木斯市,环保局,细颗粒物(PM2.5),92,76,42,68,29,7,,4,4,32,27,10,9,0.9,0.7
2024-11-13T0800,2258A,130.3648,46.8032,佳木斯市,十一中,细颗粒物(PM2.5),113,,38,85,31,10,,9,9,35,33,6,5,1.1,0.8
2024-11-13T0800,2259A,130.3794,46.7588,佳木斯市,四丰,细颗粒物(PM2.5),89,85,45,66,32,28,,24,24,20,19,1,1,0.3,0.2
2024-11-13T0800,1252A,120.7436,30.778,嘉兴市,清河小学,颗粒物(PM10),66,82,46,31,21,16,,24,24,54,34,8,8,0.9,0.7
2024-11-13T0800,1253A,120.726,30.7478,嘉兴市,嘉兴学院,细颗粒物(PM2.5),68,,40,49,32,36,,34,34,42,30,5,5,0.5,0.3
2024-11-13T0800,2872A,120.7846,30.7525,嘉兴市,南湖区残联,细颗粒物(PM2.5),60,50,45,43,28,36,,35,35,45,34,6,6,0.7,0.5
2024-11-13T0800,3407A,120.6916,30.7739,嘉兴市,秀洲住建,,42,42,37,29,24,17,,24,24,45,26,8,8,0.5,0.4
2024-11-13T0800,1945A,98.2908,39.7711,嘉峪关市,气象局,颗粒物(PM10),62,73,50,22,18,9,,36,36,66,25,6,10,0.6,0.4
2024-11-13T0800,2884A,98.2672,39.7978,嘉峪关市,酒钢宾馆,颗粒物(PM10),53,56,55,17,18,43,,53,53,34,25,8,34,0.6,0.9
2024-11-13T0800,3248A,98.2643,39.7724,嘉峪关市,雄关区,,48,48,43,18,18,17,,29,29,54,30,6,11,0.4,0.5
2024-11-13T0800,1383A,113.1064,22.6058,江门市,北街,颗粒物(PM10),56,62,63,37,37,11,,21,21,69,43,11,7,0.9,0.8
2024-11-13T0800,1384A,113.0731,22.5835,江门市,西区,颗粒物(PM10),65,80,73,46,46,6,,13,13,70,53,14,9,1.0,0.7
2024-11-13T0800,1385A,113.0219,22.5311,江门市,圭峰西,细颗粒物(PM2.5),84,75,64,62,40,19,,24,24,55,39,4,5,1.0,0.6
2024-11-13T0800,1386A,113.0828,22.5947,江门市,东湖,颗粒物(PM10),59,68,60,36,35,11,,15,15,62,42,14,9,0.8,0.6
2024-11-13T0800,3311A,113.1075,22.5647,江门市,江海富民,细颗粒物(PM2.5),80,102,78,59,45,12,,63,63,63,37,13,9,1.0,0.8
2024-11-13T0800,3449A,113.05,22.4667,江门市,新会银湖,细颗粒物(PM2.5),94,94,69,70,52,8,,31,31,56,39,9,7,0.8,0.5
2024-11-13T0800,1828A,113.227,35.2125,焦作市,市环保局,细颗粒物(PM2.5),142,129,217,108,182,36,,23,23,22,34,1,5,1.1,1.3
2024-11-13T0800,1830A,113.1992,35.2590,焦作市,影视城,细颗粒物(PM2.5),60,,165,43,148,66,,51,51,5,18,6,10,0.8,1.6
2024-11-13T0800,3169A,113.2725,35.2067,焦作市,太极体育中心,细颗粒物(PM2.5),144,122,201,110,166,25,,19,19,22,33,1,4,1.5,1.4
2024-11-13T0800,3335A,113.3137,35.2641,焦作市,马村街道办,细颗粒物(PM2.5),153,,195,117,181,37,,19,19,17,29,3,7,1.1,1.4
2024-11-13T0800,3336A,113.2465,35.2373,焦作市,焦作技师学院,细颗粒物(PM2.5),119,102,211,90,164,39,,23,23,17,32,2,6,0.9,1.4
2024-11-13T0800,3477A,113.1656,35.2539,焦作市,中站许衡医院,细颗粒物(PM2.5),79,,178,58,143,46,,38,38,15,27,3,7,1.1,1.6
2024-11-13T0800,3981A,113.2449,35.1803,焦作市,原李万街道办,细颗粒物(PM2.5),142,136,217,108,163,,,17,17,27,41,4,6,,1.1
2024-11-13T0800,1708A,116.3701,23.5345,揭阳市,新兴,,25,23,42,17,25,37,,35,35,23,21,7,8,0.5,0.5
2024-11-13T0800,1709A,116.3264,23.5443,揭阳市,西马,,23,23,43,14,21,34,,35,35,18,16,9,9,0.7,0.7
2024-11-13T0800,1710A,116.3611,23.5626,揭阳市,东兴,,30,30,44,21,23,29,,30,30,24,17,9,9,0.9,0.8
2024-11-13T0800,1711A,116.4151,23.5294,揭阳市,渔湖,,25,25,41,15,21,33,,32,32,24,19,8,9,0.6,0.6
2024-11-13T0800,3320A,116.403,23.5699,揭阳市,曲溪,,30,28,40,21,21,29,,26,26,26,22,9,9,0.6,0.7
2024-11-13T0800,1944A,102.1692,38.5167,金昌市,天庆家园,颗粒物(PM10),51,51,58,25,34,66,,63,63,24,20,15,11,0.5,0.7
2024-11-13T0800,3170A,102.1864,38.5253,金昌市,市委党校,颗粒物(PM10),53,55,82,22,38,65,,55,55,25,24,21,12,0.6,0.8
2024-11-13T0800,4022A,102.1647,38.5371,金昌市,金川区人防中心,颗粒物(PM10),52,54,71,21,28,67,,64,64,28,19,18,12,0.8,0.7
2024-11-13T0800,1262A,119.647,29.077,金华市,十五中,颗粒物(PM10),53,56,67,35,50,40,,61,61,42,37,4,4,0.5,0.5
2024-11-13T0800,1263A,119.686,29.1029,金华市,监测站,颗粒物(PM10),55,60,69,38,43,29,,50,50,53,40,4,4,0.5,0.6
2024-11-13T0800,3659A,119.656,29.1131,金华市,气象局,颗粒物(PM10),52,54,66,30,35,42,,47,47,45,44,5,5,0.8,0.9
2024-11-13T0800,1767A,121.1115,41.0879,锦州市,南山,细颗粒物(PM2.5),119,103,61,90,44,9,,8,8,38,42,10,12,1.7,1.1
2024-11-13T0800,1768A,121.0533,40.8434,锦州市,开发区,颗粒物(PM10),170,290,141,116,60,6,,6,6,64,62,28,27,2.0,1.2
2024-11-13T0800,1769A,121.1836,41.1119,锦州市,百股街道,细颗粒物(PM2.5),117,,52,88,33,8,,5,5,46,41,42,18,1.3,1
2024-11-13T0800,1770A,121.1178,41.1222,锦州市,天安街道,细颗粒物(PM2.5),104,115,70,78,49,8,,7,7,49,45,17,15,2.0,1.2
2024-11-13T0800,1771A,121.1303,41.1386,锦州市,北湖公园,细颗粒物(PM2.5),84,77,53,62,34,7,,9,9,60,43,49,26,1.7,1.1
2024-11-13T0800,2160A,112.85,35.5051,晋城市,自来水公司,,45,,110,31,94,106,,101,101,14,22,4,5,0.7,1.5
2024-11-13T0800,2161A,112.8318,35.4936,晋城市,白云商贸,细颗粒物(PM2.5),58,,122,41,100,100,,97,97,18,23,4,4,0.7,1.4
2024-11-13T0800,2162A,112.8508,35.4887,晋城市,市环保局,,45,,114,31,89,104,,99,99,13,20,5,6,0.6,1.4
2024-11-13T0800,2163A,112.8676,35.4897,晋城市,技术学院,,39,31,112,27,90,100,,99,99,18,25,4,5,0.7,1.4
2024-11-13T0800,2165A,112.8453,35.546,晋城市,白马寺,,37,37,106,21,83,100,,99,99,12,19,8,9,0.7,1.6
2024-11-13T0800,3620A,112.8271,35.4828,晋城市,泽州一中,,39,,113,27,97,96,,94,94,13,20,4,5,0.8,1.6
2024-11-13T0800,2171A,112.7532,37.6945,晋中市,锦纶小区,,,,125,,80,,,34,,,45,,12,,0.9
2024-11-13T0800,2173A,112.7249,37.7067,晋中市,南都小区,细颗粒物(PM2.5),65,57,97,47,61,20,,43,43,41,44,5,9,0.8,0.9
2024-11-13T0800,2174A,112.6991,37.6982,晋中市,榆次区政府,细颗粒物(PM2.5),63,56,99,45,54,20,,39,39,44,47,7,11,0.7,0.8
2024-11-13T0800,2865A,112.7195,37.6828,晋中市,榆次三中,细颗粒物(PM2.5),67,56,102,48,68,24,,38,38,37,42,7,12,0.8,1
2024-11-13T0800,2439A,112.2014,31.0481,荆门市,竹园小学,细颗粒物(PM2.5),166,149,119,126,93,29,,61,61,27,21,10,12,0.7,0.7
2024-11-13T0800,2440A,112.1969,30.9891,荆门市,掇刀,细颗粒物(PM2.5),153,142,108,117,83,58,,84,84,27,22,8,10,0.7,0.6
2024-11-13T0800,2441A,112.2213,31.0386,荆门市,石化一小,细颗粒物(PM2.5),198,178,130,148,99,38,,58,58,25,23,13,15,0.7,0.6
2024-11-13T0800,3012A,112.1849,31.0362,荆门市,西山林语,细颗粒物(PM2.5),156,125,106,119,84,66,,87,87,19,21,6,8,0.6,0.5
2024-11-13T0800,3547A,112.1632,31.0138,荆门市,龙泉中学南校,细颗粒物(PM2.5),65,64,72,47,47,52,,93,93,33,22,9,9,0.7,0.6
2024-11-13T0800,1844A,112.2494,30.3197,荆州市,市图书馆,颗粒物(PM10),60,70,70,42,49,40,,48,48,24,24,5,7,0.9,0.8
2024-11-13T0800,1845A,112.2008,30.3544,荆州市,市委党校,颗粒物(PM10),68,86,78,45,47,45,,51,51,18,22,5,7,0.9,0.9
2024-11-13T0800,3194A,112.2747,30.3122,荆州市,管委会,颗粒物(PM10),80,110,83,53,53,28,,45,45,28,24,8,11,0.9,0.8
2024-11-13T0800,3548A,112.1655,30.3364,荆州市,学苑路,细颗粒物(PM2.5),110,,66,83,73,41,,48,48,20,21,7,9,0.9,0.9
2024-11-13T0800,2342A,117.3102,29.3867,景德镇市,王港中学,,,,,,,,,,,,,,,,
2024-11-13T0800,2343A,117.2117,29.2933,景德镇市,老干部活动中心,,28,28,26,17,17,49,,44,44,16,14,6,6,0.2,0.2
2024-11-13T0800,2344A,117.1894,29.2789,景德镇市,兽医站,,24,24,30,13,14,57,,53,53,10,8,6,6,0.4,0.3
2024-11-13T0800,2345A,117.1547,29.2617,景德镇市,台达陶瓷,,25,25,27,16,15,51,,50,50,10,10,8,8,0.4,0.4
2024-11-13T0800,2346A,117.2461,29.2956,景德镇市,陶研所,,40,30,27,28,15,29,,31,31,19,12,8,9,0.2,0.2
2024-11-13T0800,1803A,115.9872,29.6815,九江市,十里,细颗粒物(PM2.5),69,79,64,50,42,38,,62,62,44,31,9,9,0.9,0.7
2024-11-13T0800,1804A,115.9584,29.7046,九江市,茅山头,细颗粒物(PM2.5),69,77,62,50,42,40,,64,64,39,25,8,10,0.9,0.9
2024-11-13T0800,1805A,115.9877,29.7295,九江市,西园,细颗粒物(PM2.5),70,72,62,51,41,56,,72,72,31,24,13,10,0.7,0.6
2024-11-13T0800,1806A,116.0172,29.6547,九江市,五七二七厂,细颗粒物(PM2.5),84,67,60,62,50,34,,58,58,38,25,16,12,1.8,1.1
2024-11-13T0800,1808A,115.9114,29.6038,九江市,综合工业园,细颗粒物(PM2.5),89,68,60,66,53,20,,36,36,48,36,10,21,1.1,0.8
2024-11-13T0800,1809A,116.0721,29.7535,九江市,石化总厂,细颗粒物(PM2.5),67,74,65,48,43,26,,49,49,56,39,13,11,1.1,0.9
2024-11-13T0800,1810A,115.9773,29.5698,九江市,庐山气象台,,28,,20,14,19,87,,94,94,2,5,16,9,0.8,0.8
2024-11-13T0800,3190A,116.0254,29.6994,九江市,外国语学校,细颗粒物(PM2.5),68,74,65,49,44,38,,57,57,61,45,14,14,0.6,0.6
2024-11-13T0800,2658A,98.5061,39.7443,酒泉市,仓门街子站,颗粒物(PM10),56,61,60,27,29,38,,53,53,29,21,6,14,0.5,0.4
2024-11-13T0800,2659A,98.4989,39.7256,酒泉市,油田生活基地,颗粒物(PM10),56,61,65,26,32,36,,41,41,36,26,5,11,0.5,0.4
2024-11-13T0800,2698A,76.0072,39.4467,喀什地区,巡警大队,,,,152,,49,,,39,,,64,,9,,1.9
2024-11-13T0800,2699A,75.9755,39.4694,喀什地区,吾办,颗粒物(PM10),96,141,150,64,61,0,,0,0,53,57,3,4,2.2,2
2024-11-13T0800,4027A,75.9483,39.4689,喀什地区,老干局,颗粒物(PM10),91,132,191,37,51,6,,7,7,52,59,2,4,1.5,1.9
2024-11-13T0800,1824A,114.3389,34.7781,开封市,肿瘤医院,细颗粒物(PM2.5),204,179,173,154,174,6,,10,10,31,30,2,2,0.9,0.9
2024-11-13T0800,1826A,114.2885,34.7965,开封市,世纪星幼儿园,颗粒物(PM10),99,147,156,65,75,8,,15,15,32,32,3,2,0.8,0.8
2024-11-13T0800,3147A,114.3438,34.8106,开封市,龙亭公园,细颗粒物(PM2.5),113,138,165,85,113,5,,9,9,30,30,3,3,0.9,0.9
2024-11-13T0800,3210A,114.3644,34.7964,开封市,汴京公园,细颗粒物(PM2.5),186,165,171,140,159,4,,7,7,30,30,3,3,0.8,0.8
2024-11-13T0800,3473A,114.2485,34.8306,开封市,技师学院,细颗粒物(PM2.5),112,132,176,84,98,3,,12,12,28,33,3,2,0.8,0.7
2024-11-13T0800,3592A,114.4644,34.7556,开封市,祥符区生态环境局,细颗粒物(PM2.5),113,146,148,85,103,3,,5,5,36,39,5,8,2.6,1.1
2024-11-13T0800,1951A,84.895,45.6094,克拉玛依市,长征新村,,12,,43,3,20,36,,26,26,9,24,6,7,0.2,0.5
2024-11-13T0800,1952A,84.8988,45.5893,克拉玛依市,南林小区,,22,,42,15,26,39,,26,26,8,26,2,3,0.4,0.7
2024-11-13T0800,1954A,84.905,44.3396,克拉玛依市,独山子区,,48,34,53,33,36,38,,40,40,11,25,5,6,0.4,0.6
2024-11-13T0800,1955A,85.6979,46.098,克拉玛依市,乌尔禾区商贸楼,,14,,17,9,13,44,,45,45,6,8,3,4,0.4,0.5
2024-11-13T0800,3612A,85.1045,45.6899,克拉玛依市,白碱滩区新站,,12,11,40,3,19,37,,27,27,12,33,8,9,0.2,0.5
2024-11-13T0800,2697A,76.1454,39.7142,克孜勒苏柯尔克孜自治州,市人民政府,颗粒物(PM10),63,76,88,40,38,52,,54,54,10,20,40,28,0.7,0.7
2024-11-13T0800,3665A,76.1658,39.7157,克孜勒苏柯尔克孜自治州,克州文化中心,颗粒物(PM10),81,111,82,43,34,60,,58,58,15,31,85,30,0.7,0.7
2024-11-13T0800,1450A,102.8204,24.8886,昆明市,呈贡新区,,25,25,19,16,9,20,,25,25,23,17,6,7,0.7,0.6
2024-11-13T0800,1451A,102.6251,24.9608,昆明市,西山森林公园,,,,,,,,,,,,,,,,
2024-11-13T0800,1452A,102.7252,25.0902,昆明市,龙泉镇,,,,26,,10,,,41,,,26,,7,,0.7
2024-11-13T0800,1453A,102.7266,25.0375,昆明市,东风东路,,25,24,21,17,16,13,,19,19,28,20,9,9,0.7,0.6
2024-11-13T0800,1454A,102.6742,25.0669,昆明市,金鼎山,,34,34,28,16,13,5,,5,5,33,26,4,4,0.8,0.6
2024-11-13T0800,1455A,102.6644,25.0401,昆明市,碧鸡广场,,23,23,23,9,13,3,,11,11,30,24,5,6,0.8,0.6
2024-11-13T0800,3179A,102.7494,25.0119,昆明市,官渡区博物馆,颗粒物(PM10),54,58,28,34,15,2,,4,4,24,21,11,8,2.3,0.8
2024-11-13T0800,3375A,102.8017,24.8336,昆明市,青年创业园,,30,30,21,14,11,1,,3,3,26,16,7,9,0.7,0.5
2024-11-13T0800,3550A,102.7997,24.9786,昆明市,昆明学院,,49,49,23,28,12,2,,14,14,27,17,8,8,0.9,0.5
2024-11-13T0800,3551A,102.5967,24.6736,昆明市,晋宁区生态环境分局,,32,32,20,12,15,21,,30,30,18,14,2,3,0.5,0.2
2024-11-13T0800,3552A,102.6678,24.9856,昆明市,云天化总部,,30,30,19,18,12,14,,8,8,28,22,7,7,0.5,0.3
2024-11-13T0800,1456A,91.1319,29.6514,拉萨市,八廓街,,29,29,22,15,12,75,,81,81,22,24,6,8,0.3,0.5
2024-11-13T0800,1457A,91.1221,29.6747,拉萨市,市环保局,颗粒物(PM10),51,51,40,22,17,42,,66,66,36,29,9,10,0.6,0.6
2024-11-13T0800,1458A,91.0874,29.6475,拉萨市,区监测站,,18,18,20,10,10,55,,71,71,31,30,5,7,0.7,0.7
2024-11-13T0800,1459A,91.1774,29.6541,拉萨市,西藏大学,,24,24,24,16,8,70,,85,85,16,15,5,8,0.3,0.3
2024-11-13T0800,1460A,90.9798,29.6588,拉萨市,区辐射站,,29,27,27,20,12,65,,87,87,26,25,10,11,0.5,0.5
2024-11-13T0800,1461A,91.0834,29.6292,拉萨市,拉萨火车站,,20,14,17,7,8,64,,85,85,19,21,5,7,0.5,0.5
2024-11-13T0800,2520A,109.2203,23.7256,来宾市,来宾技工学校,颗粒物(PM10),67,83,82,45,48,15,,17,17,27,27,23,12,0.8,0.8
2024-11-13T0800,3535A,109.1781,23.7297,来宾市,兴宾区政府,细颗粒物(PM2.5),55,57,62,39,44,37,,46,46,11,13,4,7,0.7,0.8
2024-11-13T0800,4002A,109.2416,23.7461,来宾市,中南小学,细颗粒物(PM2.5),70,84,74,51,50,10,,21,21,35,29,5,6,0.9,0.8
2024-11-13T0800,1476A,103.631,36.1031,兰州市,兰炼宾馆,颗粒物(PM10),68,86,87,40,44,39,,34,34,34,55,20,16,0.5,0.7
2024-11-13T0800,1477A,104.1373,35.9454,兰州市,榆中兰大校区,,,,,,,,,,,,,,,,
2024-11-13T0800,1478A,103.8412,36.0726,兰州市,生物制品所,颗粒物(PM10),65,80,71,35,36,13,,22,22,63,47,19,17,0.8,0.8
2024-11-13T0800,1479A,103.831,36.0464,兰州市,铁路设计院,颗粒物(PM10),60,69,75,40,44,17,,23,23,59,57,19,15,0.8,0.8
2024-11-13T0800,3186A,103.7158,36.1058,兰州市,教育港,颗粒物(PM10),71,92,84,42,41,17,,34,34,54,44,18,17,0.8,0.7
2024-11-13T0800,3241A,103.7439,36.0842,兰州市,百合公园,颗粒物(PM10),59,68,67,30,34,18,,27,27,54,45,20,15,0.9,0.8
2024-11-13T0800,3242A,103.9611,35.998,兰州市,和平,颗粒物(PM10),65,79,81,40,39,45,,25,25,29,36,27,18,0.8,0.8
2024-11-13T0800,3245A,103.6633,36.533,兰州新区,新区管委会,颗粒物(PM10),56,61,67,37,28,48,,42,42,19,25,5,15,0.6,0.6
2024-11-13T0800,3246A,103.6975,36.4789,兰州新区,舟曲中学,颗粒物(PM10),59,67,72,35,30,49,,47,47,27,26,8,20,0.5,0.6
2024-11-13T0800,1067A,116.6708,39.5111,廊坊市,药材公司,颗粒物(PM10),65,80,145,41,118,1,,2,2,61,58,4,4,0.9,1.1
2024-11-13T0800,1068A,116.7214,39.5589,廊坊市,开发区,颗粒物(PM10),57,63,143,36,100,0,,0,0,53,51,3,3,0.7,0.9
2024-11-13T0800,1070A,116.7244,39.5269,廊坊市,北华航天学院,细颗粒物(PM2.5),68,74,155,49,116,1,,1,1,54,58,5,4,0.9,1
2024-11-13T0800,2919A,116.7022,39.5453,廊坊市,河北工业大学,颗粒物(PM10),62,73,140,41,112,1,,1,1,56,58,5,5,0.9,0.9
2024-11-13T0800,2535A,103.7723,29.5462,乐山市,花湖湾,颗粒物(PM10),62,74,49,24,29,12,,16,16,18,16,4,4,1.0,0.7
2024-11-13T0800,2536A,103.7627,29.5844,乐山市,牛耳桥,,46,32,45,32,38,8,,20,20,26,25,4,4,0.6,0.6
2024-11-13T0800,2537A,103.7508,29.6006,乐山市,市第三水厂,,39,35,40,27,31,8,,28,28,31,23,3,4,0.8,0.7
2024-11-13T0800,2538A,103.7571,29.5664,乐山市,市监测站,,40,34,38,28,33,13,,24,24,22,20,4,5,0.8,0.6
2024-11-13T0800,3361A,103.7311,29.5628,乐山市,理工大学,,38,33,37,26,30,11,,18,18,23,21,4,5,0.8,0.6
2024-11-13T0800,2598A,100.2143,26.8576,丽江市,西南郊,,22,22,20,15,9,67,,84,84,12,9,5,5,0.7,0.4
2024-11-13T0800,2599A,100.2497,26.8802,丽江市,丽江古城,,24,24,22,8,10,63,,68,68,16,14,9,9,0.6,0.5
2024-11-13T0800,2600A,100.2203,26.8906,丽江市,市中心,,20,12,10,6,6,62,,73,73,16,12,7,7,0.5,0.5
2024-11-13T0800,1267A,119.914,28.4514,丽水市,监测站大楼,,43,43,39,24,31,50,,54,54,27,19,7,8,0.7,0.6
2024-11-13T0800,1268A,119.93,28.4586,丽水市,莲都小学,,37,37,39,24,23,48,,58,58,30,21,5,5,0.5,0.5
2024-11-13T0800,1269A,119.879,28.4231,丽水市,余庄前,,30,30,35,20,23,28,,25,25,20,19,5,5,0.3,0.4
2024-11-13T0800,1173A,119.176,34.5885,连云港市,市环境监测站,细颗粒物(PM2.5),98,100,122,73,95,86,,91,91,22,22,10,10,0.9,0.9
2024-11-13T0800,3000A,119.3581,34.6972,连云港市,德源药业,细颗粒物(PM2.5),77,66,96,56,84,84,,78,78,22,24,5,6,0.3,0.5
2024-11-13T0800,3007A,119.178,34.844,连云港市,新城一中,颗粒物(PM10),76,101,141,40,66,47,,61,61,49,30,5,7,0.7,0.9
2024-11-13T0800,3008A,119.3608,34.7519,连云港市,胡沟管理处,细颗粒物(PM2.5),67,63,88,48,85,79,,81,81,20,21,10,10,0.4,0.5
2024-11-13T0800,3009A,119.1478,34.5911,连云港市,矿山设计院,细颗粒物(PM2.5),110,102,124,83,100,80,,86,86,23,24,9,9,1.0,0.9
2024-11-13T0800,3434A,119.2413,34.6539,连云港市,工贸学校,细颗粒物(PM2.5),62,64,89,44,61,100,,97,97,15,21,8,8,0.7,0.9
2024-11-13T0800,3664A,119.4172,34.7341,连云港市,连云街道,,43,39,67,30,46,108,,111,111,10,15,5,6,0.6,0.8
2024-11-13T0800,2571A,102.3431,27.8099,凉山彝族自治州,青龙寺,,23,23,14,6,5,33,,39,39,5,5,3,4,0.6,0.6
2024-11-13T0800,2572A,102.2721,27.8415,凉山彝族自治州,邛海宾馆,,16,16,19,9,12,31,,37,37,16,12,5,6,0.7,0.6
2024-11-13T0800,2573A,102.2625,27.898,凉山彝族自治州,西昌市政府,,17,17,21,11,12,29,,43,43,19,12,7,9,0.7,0.8
2024-11-13T0800,2574A,102.2685,27.8851,凉山彝族自治州,凉山州政府,,28,28,25,14,14,12,,31,31,34,16,8,10,1.1,0.7
2024-11-13T0800,2575A,102.237,27.8914,凉山彝族自治州,长安,,42,42,33,22,15,3,,28,28,32,17,9,10,0.8,0.9
2024-11-13T0800,2212A,123.2,41.1953,辽阳市,宏伟区,,17,10,33,10,22,53,,51,51,12,24,6,11,0.3,0.5
2024-11-13T0800,2213A,123.1683,41.2495,辽阳市,新华园,,32,27,54,22,30,21,,19,19,48,41,11,15,0.7,0.8
2024-11-13T0800,2214A,123.2354,41.2639,辽阳市,滨河路,,28,22,40,19,23,40,,32,32,23,33,13,17,0.6,0.6
2024-11-13T0800,2215A,123.149,41.2991,辽阳市,铁西工业园,,17,17,78,11,52,32,,16,16,24,30,13,19,0.9,1.3
2024-11-13T0800,2227A,125.1358,42.8845,辽源市,环保局,颗粒物(PM10),53,55,52,36,29,10,,7,7,34,29,11,9,1.1,0.9
2024-11-13T0800,3239A,125.0764,42.9078,辽源市,银鹰制药,颗粒物(PM10),54,58,47,37,29,10,,6,6,38,34,12,9,1.0,0.8
2024-11-13T0800,1625A,115.9848,36.4372,聊城市,区政府,细颗粒物(PM2.5),162,150,201,123,147,12,,11,11,56,51,6,7,1.0,0.9
2024-11-13T0800,2878A,116.0072,36.4343,聊城市,聊大东校,细颗粒物(PM2.5),138,132,193,105,135,7,,7,7,54,53,7,9,1.0,0.9
2024-11-13T0800,3200A,115.9819,36.4978,聊城市,监控中心,细颗粒物(PM2.5),168,136,177,127,147,26,,15,15,44,45,7,8,1.0,0.9
2024-11-13T0800,3513A,116.0445,36.4361,聊城市,九州社区,细颗粒物(PM2.5),118,141,207,89,139,4,,3,3,48,55,8,9,1.0,1
2024-11-13T0800,4018A,116.0567,36.4608,聊城市,星美广场,细颗粒物(PM2.5),133,146,211,101,146,11,,10,10,39,46,7,9,1.0,1
2024-11-13T0800,2632A,94.3681,29.6376,林芝市,林芝监测站,,18,,13,3,6,55,,72,72,1,5,6,6,0.3,0.3
2024-11-13T0800,2633A,94.3616,29.6616,林芝市,林芝人民医院,,16,,8,8,5,49,,70,70,3,3,6,6,0.3,1.1
2024-11-13T0800,2603A,100.0781,23.8982,临沧市,市环保局,,16,16,20,8,14,9,,12,12,15,11,9,9,0.4,0.5
2024-11-13T0800,2604A,100.0894,23.8822,临沧市,市气象局,,29,,19,20,16,9,,8,8,12,11,10,9,0.5,0.5
2024-11-13T0800,1733A,111.5531,36.0783,临汾市,临钢医院,细颗粒物(PM2.5),100,109,179,75,126,2,,2,2,61,65,6,5,2.2,2.1
2024-11-13T0800,1734A,111.5028,36.0714,临汾市,技工学校,细颗粒物(PM2.5),109,,147,82,114,2,,3,3,58,55,6,6,2.0,1.8
2024-11-13T0800,1736A,111.5018,36.0855,临汾市,市委,细颗粒物(PM2.5),118,98,153,89,129,1,,2,2,49,46,6,6,2.0,1.8
2024-11-13T0800,3018A,111.505,36.1014,临汾市,唐尧大酒店,细颗粒物(PM2.5),105,83,143,79,126,4,,4,4,49,46,4,4,2.2,1.9
2024-11-13T0800,3668A,111.5036,36.0414,临汾市,城南,细颗粒物(PM2.5),114,,140,86,122,3,,3,3,49,51,6,6,2.0,1.8
2024-11-13T0800,2667A,103.2069,35.5993,临夏回族自治州,环保局,,49,49,60,16,17,41,,44,44,21,23,15,10,0.7,0.7
2024-11-13T0800,2668A,103.2417,35.6057,临夏回族自治州,建设大厦,,50,50,53,22,23,46,,37,37,18,25,14,8,0.6,0.7
2024-11-13T0800,1618A,118.3429,35.0532,临沂市,沂河小区,颗粒物(PM10),93,136,133,62,69,28,,51,51,48,32,8,8,0.9,0.7
2024-11-13T0800,1619A,118.295,35.0583,临沂市,鲁南制药厂,颗粒物(PM10),86,122,127,52,60,37,,59,59,51,31,6,7,1.2,1.1
2024-11-13T0800,1620A,118.2794,34.9976,临沂市,新光毛纺厂,颗粒物(PM10),81,112,123,53,69,46,,63,63,37,36,4,7,1.1,1.1
2024-11-13T0800,1621A,118.3956,35.0888,临沂市,河东保险公司,细颗粒物(PM2.5),119,129,126,90,95,16,,29,29,47,34,4,5,1.1,1
2024-11-13T0800,3370A,118.3564,35.0215,临沂市,十里堡居委,细颗粒物(PM2.5),119,114,115,90,92,36,,52,52,42,34,5,7,1.0,0.8
2024-11-13T0800,3496A,118.3604,35.1084,临沂市,南坊新区,细颗粒物(PM2.5),119,122,120,90,93,31,,43,43,52,38,5,5,1.1,1
2024-11-13T0800,3860A,118.3920,35.0300,临沂市,皇山花园小区,细颗粒物(PM2.5),138,129,129,105,100,23,,36,36,53,43,4,5,1.2,1
2024-11-13T0800,1870A,109.4856,24.3895,柳州市,柳东小学,细颗粒物(PM2.5),77,79,61,56,45,27,,28,28,37,25,15,13,0.8,0.7
2024-11-13T0800,1871A,109.4157,24.3277,柳州市,环保监测站,细颗粒物(PM2.5),82,88,76,60,49,20,,23,23,44,36,12,11,1.0,0.9
2024-11-13T0800,1872A,109.389,24.341,柳州市,河西水厂,细颗粒物(PM2.5),92,104,88,68,53,16,,14,14,43,39,15,13,1.2,1.1
2024-11-13T0800,1873A,109.4311,24.2921,柳州市,市四中,细颗粒物(PM2.5),80,87,79,59,50,27,,24,24,41,38,14,11,0.8,0.7
2024-11-13T0800,1874A,109.4006,24.3631,柳州市,市九中,细颗粒物(PM2.5),67,81,74,48,46,32,,30,30,42,28,9,9,1.1,1
2024-11-13T0800,1875A,109.4958,24.3134,柳州市,古亭山,细颗粒物(PM2.5),67,61,60,48,40,36,,30,30,36,39,14,14,0.8,0.8
2024-11-13T0800,3402A,109.5422,24.3996,柳州市,市二中,细颗粒物(PM2.5),79,75,68,58,48,8,,16,16,49,38,11,12,0.9,0.9
2024-11-13T0800,2307A,116.5079,31.737,六安市,监测大楼,细颗粒物(PM2.5),95,,57,71,46,49,,59,59,26,27,6,6,0.7,0.7
2024-11-13T0800,2308A,116.4738,31.7643,六安市,皖西学院,细颗粒物(PM2.5),88,77,66,65,43,52,,59,59,24,25,7,7,0.7,0.7
2024-11-13T0800,2309A,116.4996,31.7905,六安市,朝阳厂,细颗粒物(PM2.5),93,,59,69,44,24,,50,50,41,30,2,3,0.8,0.7
2024-11-13T0800,2310A,116.5567,31.7886,六安市,开发区,细颗粒物(PM2.5),70,85,71,51,39,27,,48,48,38,29,5,6,0.6,0.6
2024-11-13T0800,2576A,104.8,26.5892,六盘水市,窑上,,41,41,31,18,21,15,,24,24,3,5,4,6,0.4,0.4
2024-11-13T0800,2577A,104.83,26.5917,六盘水市,黄土坡,,34,34,27,15,14,16,,20,20,22,19,8,8,0.8,0.6
2024-11-13T0800,2578A,104.89,26.5939,六盘水市,水钢,,42,34,42,29,27,47,,54,54,14,12,5,5,0.4,0.4
2024-11-13T0800,2579A,104.8475,26.5894,六盘水市,民中,,42,36,33,29,20,6,,9,9,34,28,13,10,1.1,0.7
2024-11-13T0800,2580A,104.9544,26.5506,六盘水市,双水,,31,31,34,20,22,60,,66,66,7,8,7,7,0.2,0.2
2024-11-13T0800,2335A,117.0189,25.1181,龙岩市,龙岩师专,,,,,,,,,,,,,,,,
2024-11-13T0800,2336A,117.0217,25.1033,龙岩市,龙岩市监测站,,19,,12,11,13,59,,56,56,9,9,7,6,0.5,0.4
2024-11-13T0800,2337A,117.0258,25.0661,龙岩市,闽西职业技术学院,,19,7,15,7,10,60,,59,59,6,5,2,3,0.5,0.5
2024-11-13T0800,2338A,117.0196,25.0306,龙岩市,龙岩学院,,17,10,16,7,9,54,,54,54,9,8,14,13,0.5,0.5
2024-11-13T0800,2665A,105.0822,33.3261,陇南市,汉王镇固水子,,,,,,,,,,,,,,,,
2024-11-13T0800,2885A,104.9339,33.3826,陇南市,滨江中学,,37,37,69,19,26,9,,7,7,19,27,5,6,0.6,0.7
2024-11-13T0800,3247A,104.955,33.371,陇南市,市总工会,,31,31,64,20,31,12,,10,10,18,29,4,4,0.6,0.6
2024-11-13T0800,2487A,111.9589,27.8901,娄底市,电视发射台,细颗粒物(PM2.5),52,43,47,36,39,54,,69,69,11,12,6,8,0.6,0.7
2024-11-13T0800,2488A,111.9975,27.725,娄底市,市监测站,细颗粒物(PM2.5),74,77,73,54,50,20,,69,69,48,24,7,10,1.1,1
2024-11-13T0800,2489A,112.0194,27.7314,娄底市,市委党校,细颗粒物(PM2.5),65,56,64,47,47,64,,87,87,26,15,4,6,0.8,0.8
2024-11-13T0800,2490A,111.9561,27.7569,娄底市,涟钢,细颗粒物(PM2.5),93,81,69,69,48,22,,57,57,24,19,5,9,0.6,0.7
2024-11-13T0800,2491A,111.9892,27.7044,娄底市,市政府,细颗粒物(PM2.5),82,72,65,60,50,16,,31,31,20,15,8,10,0.8,0.7
2024-11-13T0800,1893A,105.4324,28.9634,泸州市,九狮山,细颗粒物(PM2.5),52,48,30,36,20,11,,14,14,20,14,5,5,0.4,0.5
2024-11-13T0800,1894A,105.4427,28.9063,泸州市,小市上码头,,42,42,29,25,18,28,,37,37,21,21,5,5,0.7,0.6
2024-11-13T0800,1895A,105.4241,28.8573,泸州市,兰田宪桥,,39,33,23,27,22,13,,30,30,27,19,4,4,0.7,0.6
2024-11-13T0800,1896A,105.4379,28.8833,泸州市,市环监站,,43,35,27,30,22,20,,31,31,24,22,6,5,0.7,0.7
2024-11-13T0800,3490A,105.3617,28.7703,泸州市,纳溪区环保局,,34,34,24,23,16,9,,23,23,29,23,4,4,0.9,0.6
2024-11-13T0800,2183A,111.1406,37.5211,吕梁市,环保局,细颗粒物(PM2.5),74,59,95,54,69,1,,2,2,45,48,1,4,1.3,1.1
2024-11-13T0800,2185A,111.1297,37.5136,吕梁市,自来水公司,细颗粒物(PM2.5),55,,86,39,76,3,,2,2,45,46,4,5,1.3,1.2
2024-11-13T0800,2867A,111.1283,37.51,吕梁市,马茂庄小学,细颗粒物(PM2.5),59,63,107,42,72,3,,5,5,53,52,2,5,1.4,1.1
2024-11-13T0800,1812A,112.3931,34.6516,洛阳市,市委党校,细颗粒物(PM2.5),204,165,174,154,166,31,,33,33,21,36,1,2,1.1,1.2
2024-11-13T0800,1814A,112.4657,34.6871,洛阳市,豫西宾馆,细颗粒物(PM2.5),192,,138,144,146,30,,35,35,18,31,1,2,1.2,1.2
2024-11-13T0800,1815A,112.494,34.6886,洛阳市,河南林校,细颗粒物(PM2.5),216,177,170,166,171,25,,29,29,23,36,2,3,1.0,1
2024-11-13T0800,1816A,112.3844,34.623,洛阳市,开发区管委会,细颗粒物(PM2.5),176,183,206,133,163,34,,34,34,16,28,6,6,0.8,0.8
2024-11-13T0800,1817A,112.4267,34.6258,洛阳市,市委新办公区,细颗粒物(PM2.5),190,185,207,143,156,29,,31,31,16,29,2,3,0.9,0.9
2024-11-13T0800,3340A,112.6005,34.6326,洛阳市,伊滨,细颗粒物(PM2.5),186,156,152,140,141,28,,26,26,16,30,3,4,1.0,1.2
2024-11-13T0800,3341A,112.4951,34.6332,洛阳市,中移产业园,细颗粒物(PM2.5),189,155,156,142,157,36,,33,33,17,34,3,3,1.1,1.1
2024-11-13T0800,3593A,112.5736,34.8993,洛阳市,吉利监测站,细颗粒物(PM2.5),198,148,182,148,166,31,,34,34,16,27,2,3,1.0,1.1
2024-11-13T0800,3635A,112.3677,34.662,洛阳市,河科大西苑校区,细颗粒物(PM2.5),166,180,187,126,145,30,,34,34,24,34,2,3,1.0,1.1
2024-11-13T0800,3636A,112.4388,34.6781,洛阳市,英才小学,细颗粒物(PM2.5),178,173,180,134,143,31,,34,34,18,31,2,3,1.1,1.1
2024-11-13T0800,2399A,114.051,33.5699,漯河市,三五一五工厂,细颗粒物(PM2.5),149,137,124,114,92,15,,20,20,32,28,6,7,0.8,0.8
2024-11-13T0800,2400A,114.0055,33.5698,漯河市,漯河大学,细颗粒物(PM2.5),160,126,116,122,105,17,,20,20,30,27,6,7,0.8,0.8
2024-11-13T0800,2401A,114.0138,33.5828,漯河市,市水利局,细颗粒物(PM2.5),156,146,135,119,105,10,,16,16,28,22,8,8,0.8,0.8
2024-11-13T0800,2402A,114.0261,33.5698,漯河市,市广电局,细颗粒物(PM2.5),152,122,116,116,104,21,,23,23,24,22,6,7,0.9,0.9
2024-11-13T0800,3478A,113.9749,33.5664,漯河市,市图书馆,细颗粒物(PM2.5),205,,130,155,105,19,,25,25,26,21,6,5,0.8,0.7
2024-11-13T0800,3479A,114.0967,33.5906,漯河市,召陵区卫健委,细颗粒物(PM2.5),172,169,145,130,114,5,,10,10,36,33,8,10,0.9,0.9
2024-11-13T0800,1798A,118.5092,31.6837,马鞍山市,湖东路四小,,50,38,43,35,26,52,,48,48,24,24,4,5,0.7,0.7
2024-11-13T0800,1799A,118.5024,31.6449,马鞍山市,开发区,细颗粒物(PM2.5),57,54,51,40,35,32,,40,40,33,30,7,8,0.7,0.7
2024-11-13T0800,1800A,118.5228,31.7231,马鞍山市,慈湖,颗粒物(PM10),63,76,54,36,33,51,,50,50,21,22,8,9,0.9,0.9
2024-11-13T0800,1802A,118.6245,31.7241,马鞍山市,濮塘,细颗粒物(PM2.5),73,53,48,53,38,52,,47,47,26,26,8,7,0.6,0.6
2024-11-13T0800,3633A,118.4918,31.6809,马鞍山市,雨山,,42,37,42,29,25,51,,46,46,20,22,4,6,0.9,1
2024-11-13T0800,1686A,111.0286,21.4688,茂名市,电白南海,颗粒物(PM10),73,95,75,51,53,61,,94,94,25,19,17,14,0.9,0.8
2024-11-13T0800,1687A,110.9294,21.6533,茂名市,茂石化七小,细颗粒物(PM2.5),94,97,74,70,51,112,,132,132,19,14,25,17,1.3,0.9
2024-11-13T0800,1688A,110.9107,21.6687,茂名市,健康路,细颗粒物(PM2.5),100,100,72,75,47,87,,121,121,28,16,28,27,1.3,0.8
2024-11-13T0800,1689A,110.8592,21.6828,茂名市,高岭,细颗粒物(PM2.5),117,132,85,88,56,22,,59,59,33,22,19,23,0.9,0.8
2024-11-13T0800,3450A,111.01,21.5165,茂名市,电白水东,细颗粒物(PM2.5),85,88,69,63,51,82,,112,112,24,16,27,28,1.0,0.8
2024-11-13T0800,2539A,104.0308,30.0478,眉山市,黑龙滩水库,,48,,32,33,35,42,,40,40,1,5,2,2,0.5,0.6
2024-11-13T0800,2540A,103.8416,30.0874,眉山市,气象局,,25,19,29,17,25,12,,16,16,20,23,6,6,0.6,0.6
2024-11-13T0800,3137A,103.8578,30.0744,眉山市,市委党校,,18,14,36,12,20,12,,16,16,27,28,8,8,0.6,0.6
2024-11-13T0800,3148A,103.8291,30.0564,眉山市,区人社局,,26,26,32,3,20,11,,20,20,30,30,6,6,0.6,0.6
2024-11-13T0800,1690A,116.1231,24.3284,梅州市,梅江月梅,,28,28,22,19,14,13,,16,16,29,17,10,9,0.7,0.6
2024-11-13T0800,1691A,116.0797,24.2719,梅州市,梅县新城,,32,32,29,19,17,12,,15,15,32,25,8,7,0.6,0.6
2024-11-13T0800,1692A,116.1248,24.2654,梅州市,环境监控中心,,21,21,34,14,16,25,,25,25,18,21,22,17,0.4,0.3
2024-11-13T0800,3315A,116.1233,24.2991,梅州市,梅龙,,24,24,20,15,12,19,,26,26,22,14,24,18,0.6,0.5
2024-11-13T0800,1878A,104.7778,31.4741,绵阳市,富乐山,,22,18,18,15,14,6,,10,10,20,13,3,3,0.6,0.6
2024-11-13T0800,1879A,104.7563,31.4535,绵阳市,市人大,,27,27,24,15,14,3,,18,18,30,21,4,4,0.6,0.5
2024-11-13T0800,1880A,104.6697,31.4668,绵阳市,高新区自来水公司,,25,22,17,17,10,2,,11,11,28,21,4,3,0.7,0.5
2024-11-13T0800,1881A,104.7287,31.5075,绵阳市,三水厂,,29,29,22,20,17,2,,9,9,26,18,8,6,0.7,0.6
2024-11-13T0800,3491A,104.69,31.5322,绵阳市,西科大附属小学,,25,25,20,14,14,7,,11,11,14,17,5,4,0.7,0.6
2024-11-13T0800,3492A,104.5648,31.5343,绵阳市,安州区旅游局,,33,33,15,17,13,5,,14,14,19,13,35,10,1.0,0.7
2024-11-13T0800,1784A,129.61,44.561,牡丹江市,环保大楼,颗粒物(PM10),72,93,61,51,44,12,,8,8,33,30,7,5,0.7,0.5
2024-11-13T0800,1785A,129.6115,44.5782,牡丹江市,文化广场,细颗粒物(PM2.5),102,120,84,76,53,6,,5,5,42,35,11,9,1.0,0.6
2024-11-13T0800,1786A,129.5904,44.5963,牡丹江市,第一医院,细颗粒物(PM2.5),95,98,71,71,61,17,,25,25,37,24,7,6,1.0,0.6
2024-11-13T0800,1787A,129.6364,44.6075,牡丹江市,机车工厂,细颗粒物(PM2.5),103,109,72,77,47,10,,9,9,33,24,16,17,0.9,0.6
2024-11-13T0800,1788A,129.6386,44.5462,牡丹江市,第一中学,细颗粒物(PM2.5),103,97,52,77,41,10,,11,11,31,22,5,4,0.7,0.4
2024-11-13T0800,2531A,105.0703,29.61,内江市,市监测站,细颗粒物(PM2.5),59,,23,42,26,10,,17,17,19,21,11,10,0.8,0.7
2024-11-13T0800,2532A,105.0717,29.5947,内江市,东兴区政府,,42,40,22,29,20,12,,21,21,22,21,7,7,0.6,0.6
2024-11-13T0800,2533A,105.0653,29.5817,内江市,内江二中,细颗粒物(PM2.5),53,42,31,37,28,8,,18,18,28,26,7,7,0.7,0.7
2024-11-13T0800,2534A,105.0406,29.5822,内江市,内江日报社,细颗粒物(PM2.5),54,46,31,38,29,15,,12,12,16,22,8,8,0.5,0.5
2024-11-13T0800,2628A,92.0657,31.4846,那曲市,那曲监测站,细颗粒物(PM2.5),73,92,50,53,23,28,,33,33,28,18,10,7,1.0,1
2024-11-13T0800,3128A,92.0506,31.4797,那曲市,那曲会议中心,"颗粒物(PM10),细颗粒物(PM2.5)",67,84,77,48,30,17,,38,38,32,12,7,4,1.0,0.8
2024-11-13T0800,1290A,115.8931,28.6843,南昌市,省外办,细颗粒物(PM2.5),79,78,75,58,52,40,,63,63,34,26,9,7,0.8,0.9
2024-11-13T0800,1291A,115.8886,28.7003,南昌市,省林业公司,细颗粒物(PM2.5),77,92,74,56,46,28,,47,47,45,33,10,9,0.8,0.7
2024-11-13T0800,1292A,115.8126,28.7442,南昌市,林科所,,42,39,51,29,33,38,,70,70,36,26,8,9,0.4,0.6
2024-11-13T0800,1294A,115.8518,28.687,南昌市,建工学校,颗粒物(PM10),64,77,69,44,39,55,,76,76,32,28,8,12,0.6,0.6
2024-11-13T0800,1295A,115.8921,28.6424,南昌市,象湖,细颗粒物(PM2.5),67,59,56,48,43,46,,73,73,39,29,11,12,0.7,0.6
2024-11-13T0800,1296A,115.7423,28.7996,南昌市,武术学校,,29,,31,20,14,2,,6,6,6,10,2,2,0.6,0.6
2024-11-13T0800,1298A,115.9314,28.6842,南昌市,省站,细颗粒物(PM2.5),80,96,80,59,51,35,,58,58,43,30,12,11,0.9,0.7
2024-11-13T0800,3046A,115.9084,28.6062,南昌市,机电学校,"颗粒物(PM10),细颗粒物(PM2.5)",64,78,78,46,45,48,,64,64,35,33,10,11,0.6,0.7
2024-11-13T0800,3690A,115.9721,28.7031,南昌市,外国语学校,细颗粒物(PM2.5),58,64,67,41,39,54,,74,74,29,23,10,10,0.7,0.8
2024-11-13T0800,1905A,106.056,30.8064,南充市,西山风景区,,39,34,38,27,33,17,,16,16,6,11,3,3,0.7,0.7
2024-11-13T0800,1906A,106.0789,30.8023,南充市,南充市委,,49,40,47,34,38,6,,10,10,17,19,3,3,0.3,0.4
2024-11-13T0800,1907A,106.1031,30.8217,南充市,南充炼油厂,,49,44,50,34,38,7,,13,13,20,15,4,3,0.4,0.4
2024-11-13T0800,1908A,106.1064,30.7856,南充市,高坪区监测站,细颗粒物(PM2.5),60,,49,43,40,7,,14,14,21,19,4,3,0.4,0.4
2024-11-13T0800,1909A,106.0642,30.7636,南充市,嘉陵区环保局,,46,46,48,27,34,8,,12,12,20,21,3,3,0.4,0.5
2024-11-13T0800,1910A,106.1087,30.8388,南充市,市环境监测站,细颗粒物(PM2.5),53,41,45,37,38,11,,13,13,14,13,6,4,0.5,0.5
2024-11-13T0800,1151A,118.8086,32.1065,南京市,迈皋桥,细颗粒物(PM2.5),67,65,51,48,33,58,,54,54,28,29,4,4,0.8,0.7
2024-11-13T0800,1152A,118.7538,32.0551,南京市,草场门,细颗粒物(PM2.5),64,58,55,46,37,53,,46,46,40,41,4,6,0.8,0.7
2024-11-13T0800,1153A,118.7794,32.0745,南京市,山西路,细颗粒物(PM2.5),83,70,59,61,41,68,,64,64,14,16,5,4,0.8,0.7
2024-11-13T0800,1154A,118.7752,32.0023,南京市,中华门,颗粒物(PM10),65,80,64,46,36,61,,52,52,22,28,3,3,0.7,0.7
2024-11-13T0800,1155A,118.8109,32.0309,南京市,瑞金路,细颗粒物(PM2.5),77,90,70,56,40,54,,44,44,19,24,6,7,0.8,0.9
2024-11-13T0800,1156A,118.7997,32.0754,南京市,玄武湖,细颗粒物(PM2.5),68,,47,49,33,65,,60,60,29,41,6,7,0.8,0.8
2024-11-13T0800,1157A,118.6414,32.0931,南京市,浦口,细颗粒物(PM2.5),58,,44,41,34,51,,44,44,24,31,6,6,0.6,0.6
2024-11-13T0800,1158A,118.7356,31.9996,南京市,奥体中心,细颗粒物(PM2.5),73,84,70,53,40,59,,55,55,28,32,7,8,0.6,0.5
2024-11-13T0800,1159A,118.9125,32.1028,南京市,仙林大学城,细颗粒物(PM2.5),73,61,52,53,38,73,,69,69,20,21,8,8,0.9,0.7
2024-11-13T0800,3422A,118.8436,31.9198,南京市,江宁彩虹桥,细颗粒物(PM2.5),83,61,52,61,39,42,,35,35,32,38,5,6,0.9,0.8
2024-11-13T0800,3423A,119.0138,31.6494,南京市,溧水永阳,颗粒物(PM10),57,63,52,19,23,56,,50,50,25,27,3,4,0.6,0.6
2024-11-13T0800,3424A,118.879,31.3302,南京市,高淳老职中,,26,23,36,18,25,56,,56,56,19,19,6,6,0.3,0.4
2024-11-13T0800,3427A,118.8554,32.3578,南京市,六合雄州,细颗粒物(PM2.5),73,90,65,53,37,36,,28,28,20,22,5,6,1.3,1
2024-11-13T0800,1401A,108.3103,22.7881,南宁市,二十一中,细颗粒物(PM2.5),77,77,75,56,48,28,,47,47,44,36,8,9,1.3,1.2
2024-11-13T0800,1402A,108.3141,22.8528,南宁市,北湖,细颗粒物(PM2.5),77,86,84,56,54,8,,8,8,54,50,18,9,1.5,1.4
2024-11-13T0800,1403A,108.3206,22.8225,南宁市,市监测站,细颗粒物(PM2.5),73,70,73,53,50,30,,48,48,45,32,20,14,0.9,0.8
2024-11-13T0800,1404A,108.3829,22.8037,南宁市,大自然花园,细颗粒物(PM2.5),72,65,65,52,48,43,,54,54,36,26,14,10,0.7,0.6
2024-11-13T0800,1405A,108.4394,22.7904,南宁市,仙葫,细颗粒物(PM2.5),74,70,70,54,52,9,,19,19,53,35,8,7,0.9,0.9
2024-11-13T0800,1406A,108.2397,22.8467,南宁市,区农职院,细颗粒物(PM2.5),73,77,74,53,46,12,,24,24,40,35,12,11,1.1,0.9
2024-11-13T0800,1407A,108.3275,22.735,南宁市,英华嘉园,细颗粒物(PM2.5),93,116,78,69,52,3,,32,32,66,49,10,10,1.2,1
2024-11-13T0800,1408A,108.2257,22.7757,南宁市,沙井镇街道办,细颗粒物(PM2.5),77,100,104,56,52,7,,19,19,59,55,18,11,1.1,0.9
2024-11-13T0800,3401A,108.4834,22.7618,南宁市,红星社区,细颗粒物(PM2.5),74,73,70,54,49,7,,14,14,43,36,6,8,0.9,0.9
2024-11-13T0800,2331A,118.0966,26.6761,南平市,茫荡山,,,,,,,,,,,,,,,,
2024-11-13T0800,2332A,118.1681,26.6369,南平市,南平市监测站,,19,19,18,10,12,42,,57,57,17,9,3,3,0.3,0.2
2024-11-13T0800,2333A,118.1825,26.6489,南平市,南平铝业有限公司,,20,15,17,14,15,50,,55,55,12,8,3,3,0.4,0.3
2024-11-13T0800,2334A,118.1756,26.6272,南平市,南平七中,,17,17,18,10,13,45,,58,58,10,8,3,4,0.4,0.3
2024-11-13T0800,1168A,120.9098,31.9663,南通市,狼山街道,,34,34,39,21,26,48,,59,59,33,17,6,6,0.6,0.6
2024-11-13T0800,1169A,120.86,32.0005,南通市,虹桥,,49,44,48,34,36,64,,67,67,27,21,6,6,0.4,0.4
2024-11-13T0800,1170A,120.87,32.02,南通市,城中,颗粒物(PM10),54,58,58,28,34,45,,50,50,45,32,8,7,0.7,0.6
2024-11-13T0800,1171A,120.94,31.93,南通市,星湖花园,,40,38,44,28,31,59,,50,50,28,26,4,5,0.7,0.7
2024-11-13T0800,1172A,120.81,32.0417,南通市,紫琅学院,,28,28,38,17,29,43,,54,54,33,28,3,4,0.6,0.6
2024-11-13T0800,3291A,121.067,32.062,南通市,通州监测站,,41,41,40,27,27,82,,85,85,13,11,2,2,0.7,0.6
2024-11-13T0800,3432A,120.9348,31.9883,南通市,环境教育馆,,31,31,43,18,28,24,,36,36,50,34,3,3,0.6,0.5
2024-11-13T0800,2404A,112.5224,33.0122,南阳市,瓦房庄,细颗粒物(PM2.5),140,,114,107,113,38,,53,53,20,21,5,5,0.7,0.8
2024-11-13T0800,2405A,112.5003,32.9735,南阳市,汉画馆,细颗粒物(PM2.5),129,122,134,98,100,38,,55,55,22,23,8,8,0.8,0.8
2024-11-13T0800,2406A,112.5573,33.027,南阳市,气象站,细颗粒物(PM2.5),147,,112,112,121,33,,46,46,27,27,6,5,0.8,0.8
2024-11-13T0800,2407A,112.5481,32.9689,南阳市,理工学院,细颗粒物(PM2.5),120,96,109,91,94,32,,45,45,24,24,4,5,0.8,0.8
2024-11-13T0800,4008A,112.5234,32.9922,南阳市,卧龙区政府,细颗粒物(PM2.5),149,,115,114,113,36,,53,53,25,25,5,5,0.8,0.8
2024-11-13T0800,1234A,121.8358,29.911,宁波市,区环保大楼,颗粒物(PM10),52,53,40,27,22,11,,15,15,40,40,9,8,0.9,0.6
2024-11-13T0800,1235A,121.56,29.82,宁波市,万里学院,细颗粒物(PM2.5),72,71,53,52,37,5,,2,2,45,47,8,8,0.8,0.7
2024-11-13T0800,1236A,121.713,29.9572,宁波市,龙赛医院,颗粒物(PM10),61,72,43,39,21,7,,3,3,52,44,12,10,0.9,0.6
2024-11-13T0800,1239A,121.633,29.7733,宁波市,钱湖水厂,"颗粒物(PM10),细颗粒物(PM2.5)",52,54,50,36,29,11,,13,13,14,28,6,7,0.8,0.7
2024-11-13T0800,1240A,121.5856,29.8635,宁波市,太古小学,颗粒物(PM10),66,82,56,42,27,4,,2,2,46,43,11,9,1.1,0.9
2024-11-13T0800,1241A,121.524,29.8674,宁波市,市环境监测中心,颗粒物(PM10),53,56,48,30,25,7,,2,2,52,46,17,12,0.9,0.7
2024-11-13T0800,2871A,121.6147,29.9017,宁波市,万里国际学校,"颗粒物(PM10),细颗粒物(PM2.5)",60,69,42,43,25,7,,2,2,48,49,10,8,0.8,0.7
2024-11-13T0800,3710A,121.5594,29.8975,宁波市,白沙活动中心,颗粒物(PM10),52,53,40,33,23,9,,5,5,56,52,12,10,0.8,0.6
2024-11-13T0800,2339A,119.5001,26.6946,宁德市,金涵水库,,,,,,,,,,,,,,,,
2024-11-13T0800,2341A,119.5388,26.6612,宁德市,宁德市监测站,,33,,28,23,19,60,,72,72,18,15,3,4,0.5,0.5
2024-11-13T0800,3209A,119.5231,26.6562,宁德市,宁德一中,,25,25,27,17,17,73,,83,83,11,12,2,3,0.3,0.4
2024-11-13T0800,2618A,98.8601,25.8567,怒江傈僳族自治州,州监测站,,16,15,20,11,12,38,,40,40,6,10,4,4,0.3,0.3
2024-11-13T0800,2619A,98.8546,25.8417,怒江傈僳族自治州,泸水一中,,,13,17,,10,13,,20,20,14,15,8,8,0.5,0.5
2024-11-13T0800,1888A,101.6891,26.571,攀枝花市,弄弄坪,,44,44,41,18,21,5,,17,17,31,28,13,20,1.5,1.7
2024-11-13T0800,1889A,101.5769,26.5928,攀枝花市,河门口,,49,49,26,19,17,11,,20,20,24,23,6,11,0.9,1.1
2024-11-13T0800,1890A,101.7169,26.585,攀枝花市,炳草岗,,48,48,48,26,24,5,,5,5,24,34,2,12,1.3,1.6
2024-11-13T0800,1891A,101.7369,26.5008,攀枝花市,仁和,,22,22,31,12,19,7,,15,15,26,22,4,11,1.0,1.2
2024-11-13T0800,2835A,101.7227,26.567,攀枝花市,四十中小,颗粒物(PM10),52,53,51,22,31,4,,5,5,26,39,4,8,1.3,1.5
2024-11-13T0800,1604A,122.0303,41.1489,盘锦市,开发区,细颗粒物(PM2.5),82,87,80,60,58,12,,9,9,55,47,22,18,1.2,1
2024-11-13T0800,1605A,122.0485,41.0883,盘锦市,兴隆台,细颗粒物(PM2.5),59,65,74,42,52,11,,9,9,60,53,20,13,1.5,1
2024-11-13T0800,1606A,121.8297,41.1028,盘锦市,新生街道,细颗粒物(PM2.5),102,85,72,76,61,9,,11,11,48,47,16,14,1.4,0.8
2024-11-13T0800,1832A,113.3257,33.742,平顶山市,新华旅馆,细颗粒物(PM2.5),221,,159,171,140,16,,36,36,34,35,6,8,0.8,0.8
2024-11-13T0800,1833A,113.2919,33.737,平顶山市,规划设计院,细颗粒物(PM2.5),178,161,173,134,127,14,,23,23,32,33,5,6,1.0,1
2024-11-13T0800,1834A,113.182,33.774,平顶山市,平顶山工学院,细颗粒物(PM2.5),195,186,207,146,149,12,,22,22,22,30,5,7,1.0,1
2024-11-13T0800,3204A,113.3025,33.73,平顶山市,规划局,细颗粒物(PM2.5),211,163,162,161,145,21,,27,27,34,38,6,7,1.0,1
2024-11-13T0800,3594A,112.8867,33.9116,平顶山市,石龙区,细颗粒物(PM2.5),172,,144,130,148,36,,48,48,8,21,8,10,1.4,1.4
2024-11-13T0800,2656A,106.6692,35.5461,平凉市,聚贤嘉苑,细颗粒物(PM2.5),94,94,90,70,54,6,,6,6,44,53,10,11,1.7,1.1
2024-11-13T0800,2657A,106.7021,35.5307,平凉市,博物馆,细颗粒物(PM2.5),88,104,106,65,56,7,,12,12,46,46,11,17,1.0,0.9
2024-11-13T0800,2347A,114.0997,27.5002,萍乡市,武功山,,19,19,15,3,12,13,,22,22,6,7,10,10,0.3,0.3
2024-11-13T0800,2348A,113.8385,27.6434,萍乡市,中医院,细颗粒物(PM2.5),75,87,58,55,39,45,,72,72,33,18,40,29,1.1,0.8
2024-11-13T0800,2349A,113.8493,27.6253,萍乡市,市政府车库,细颗粒物(PM2.5),64,75,56,46,38,37,,57,57,35,20,40,23,1.7,1.2
2024-11-13T0800,2350A,113.8676,27.6435,萍乡市,市环保局,细颗粒物(PM2.5),67,64,54,48,36,28,,59,59,43,16,53,27,1.1,0.6
2024-11-13T0800,2351A,113.866,27.6198,萍乡市,安源区政府,细颗粒物(PM2.5),72,72,56,52,33,33,,51,51,37,22,46,28,0.9,1.1
2024-11-13T0800,2319A,119.0141,25.4325,莆田市,荔城区仓后路,,27,17,17,8,7,84,,90,90,7,7,1,1,0.4,0.3
2024-11-13T0800,2320A,119.0015,25.4553,莆田市,莆田市监测站,,28,15,15,9,6,87,,93,93,3,4,2,2,0.3,0.3
2024-11-13T0800,2321A,119.1119,25.4561,莆田市,涵江区六中,,26,15,16,13,9,82,,92,92,10,6,2,2,0.4,0.3
2024-11-13T0800,2322A,119.1013,25.3215,莆田市,秀屿区政府,,28,26,28,14,11,88,,96,96,9,7,2,2,0.4,0.3
2024-11-13T0800,2323A,118.981,25.4792,莆田市,东圳水库,,,,,,,,,,,,,,,,
2024-11-13T0800,2392A,115.0312,35.7636,濮阳市,环保局,细颗粒物(PM2.5),207,,128,157,156,5,,5,5,33,34,1,2,1.0,0.9
2024-11-13T0800,2394A,115.0574,35.7609,濮阳市,油田运输公司,细颗粒物(PM2.5),170,204,187,129,146,2,,2,2,33,34,3,3,1.1,1
2024-11-13T0800,2395A,115.0866,35.7754,濮阳市,油田物探公司,细颗粒物(PM2.5),165,192,181,125,146,1,,0,0,36,36,3,3,1.0,0.9
2024-11-13T0800,3021A,115,35.7668,濮阳市,濮水河管理处,细颗粒物(PM2.5),172,189,198,130,148,2,,2,2,22,30,1,2,0.9,0.9
2024-11-13T0800,2601A,100.98,22.7633,普洱市,市环保局,,34,34,27,19,19,7,,8,8,7,7,6,5,0.6,0.5
2024-11-13T0800,2602A,100.9817,22.8322,普洱市,普洱第二中学,,31,31,29,11,14,2,,4,4,13,10,7,7,0.7,0.4
2024-11-13T0800,2262A,131.0518,45.8751,七台河市,新一中,细颗粒物(PM2.5),123,,139,93,121,23,,24,24,14,20,9,10,1.3,1.4
2024-11-13T0800,3345A,131.0577,45.7879,七台河市,中波台,细颗粒物(PM2.5),152,131,139,116,128,15,,13,13,32,33,13,11,1.4,1.2
2024-11-13T0800,3637A,131.0176,45.7761,七台河市,人民广场,细颗粒物(PM2.5),135,157,168,103,132,15,,14,14,37,35,9,7,1.5,1.2
2024-11-13T0800,3684A,130.8781,45.8222,七台河市,新建矿广场,细颗粒物(PM2.5),182,229,181,137,126,7,,10,10,45,33,13,11,1.1,0.9
2024-11-13T0800,1779A,123.9305,47.3636,齐齐哈尔市,安居小区,细颗粒物(PM2.5),138,119,60,105,46,36,,43,43,27,20,8,7,0.9,0.6
2024-11-13T0800,1780A,123.9488,47.3386,齐齐哈尔市,中心广场,细颗粒物(PM2.5),145,130,60,111,50,35,,38,38,22,20,3,3,0.7,0.5
2024-11-13T0800,1781A,123.9483,47.3227,齐齐哈尔市,农牧车辆厂,细颗粒物(PM2.5),137,124,64,104,41,30,,35,35,26,17,5,5,0.4,0.3
2024-11-13T0800,1783A,123.945,47.2988,齐齐哈尔市,市环境监测站,细颗粒物(PM2.5),145,117,64,111,50,39,,42,42,22,18,4,3,0.6,0.4
2024-11-13T0800,3662A,123.6333,47.2075,齐齐哈尔市,富区青少年活动中心,细颗粒物(PM2.5),112,132,64,84,34,33,,39,39,13,8,5,5,0.5,0.3
2024-11-13T0800,2591A,107.9783,26.5747,黔东南苗族侗族自治州,市环境监测站,细颗粒物(PM2.5),63,60,47,45,34,64,,65,65,25,27,7,6,0.6,0.5
2024-11-13T0800,2881A,107.8908,26.5311,黔东南苗族侗族自治州,凯里学院,,50,46,32,35,27,72,,72,72,18,9,6,6,0.5,0.3
2024-11-13T0800,2593A,107.5228,26.2403,黔南布依族苗族自治州,小围寨,,36,36,27,24,21,95,,68,68,8,7,7,6,0.4,0.4
2024-11-13T0800,3538A,107.5175,26.2978,黔南布依族苗族自治州,沙坝,,35,31,30,24,20,91,,84,84,6,7,5,5,0.6,0.5
2024-11-13T0800,2589A,104.9022,25.0925,黔西南布依族苗族自治州,场坝街,细颗粒物(PM2.5),52,42,31,36,20,53,,57,57,12,8,4,3,0.4,0.3
2024-11-13T0800,2590A,104.8811,25.0992,黔西南布依族苗族自治州,坪东大道,,34,34,29,23,22,57,,56,56,8,11,3,3,0.3,0.3
2024-11-13T0800,2502A,108.6236,21.9667,钦州市,市环保站,颗粒物(PM10),73,95,77,46,41,34,,60,60,43,26,11,13,1.1,0.9
2024-11-13T0800,2503A,108.6549,21.9481,钦州市,沙埠小学,细颗粒物(PM2.5),70,79,86,51,51,14,,30,30,47,37,8,10,1.1,1.1
2024-11-13T0800,2504A,108.5989,21.7431,钦州市,港区一小,颗粒物(PM10),82,114,80,56,42,16,,66,66,52,25,10,10,1.1,1
2024-11-13T0800,3404A,108.5959,21.9633,钦州市,北职校,细颗粒物(PM2.5),109,97,76,82,56,14,,35,35,47,27,12,12,1.2,1.1
2024-11-13T0800,1042A,119.5134,39.8207,秦皇岛市,北戴河环保局,,30,30,41,19,16,18,,15,15,40,34,4,4,0.4,0.4
2024-11-13T0800,1043A,119.7493,40.0116,秦皇岛市,第一关,颗粒物(PM10),54,58,32,30,20,1,,1,1,54,43,5,4,0.6,0.4
2024-11-13T0800,1044A,119.5897,39.9499,秦皇岛市,监测站,,39,39,50,11,14,8,,11,11,55,49,3,4,0.5,0.5
2024-11-13T0800,1046A,119.5251,39.9041,秦皇岛市,建设大厦,颗粒物(PM10),55,60,62,26,24,6,,4,4,49,46,2,4,0.4,0.6
2024-11-13T0800,3132A,119.610547,39.943889,秦皇岛市,文明里,颗粒物(PM10),53,56,53,24,23,5,,6,6,52,41,2,4,0.5,0.4
2024-11-13T0800,1307A,120.6659,36.2403,青岛市,仰口,,43,42,79,30,61,83,,96,96,4,6,7,7,0.6,0.7
2024-11-13T0800,1310A,120.4134,36.0658,青岛市,市南区东部子站,颗粒物(PM10),51,51,99,27,54,95,,108,108,11,21,9,9,0.6,0.7
2024-11-13T0800,1311A,120.3664,36.1032,青岛市,四方区子站,颗粒物(PM10),57,63,104,36,72,80,,102,102,30,27,9,9,0.9,0.9
2024-11-13T0800,1312A,120.2994,36.054,青岛市,市南区西部子站,,44,44,82,24,58,102,,112,112,9,23,9,10,0.7,0.8
2024-11-13T0800,1313A,120.4581,36.0858,青岛市,崂山区子站,,39,39,82,22,49,103,,114,114,21,29,9,9,0.7,0.8
2024-11-13T0800,1314A,120.1983,35.9608,青岛市,黄岛区子站,颗粒物(PM10),52,53,114,32,75,97,,113,113,21,31,7,8,0.8,0.9
2024-11-13T0800,1315A,120.3999,36.3083,青岛市,城阳区子站,细颗粒物(PM2.5),80,97,129,59,79,12,,11,11,79,55,9,9,1.1,1
2024-11-13T0800,1966A,120.0405,35.8735,青岛市,黄岛区4号,细颗粒物(PM2.5),58,61,107,41,74,119,,120,120,18,30,8,9,0.7,0.9
2024-11-13T0800,3362A,120.5014,36.4034,青岛市,即墨2号,颗粒物(PM10),55,60,99,22,44,77,,67,67,25,22,6,7,0.7,0.8
2024-11-13T0800,3642A,120.3503,36.0736,青岛市,市北区南部,颗粒物(PM10),51,52,86,27,61,91,,102,102,19,25,9,10,0.8,0.9
2024-11-13T0800,3643A,120.3948,36.1805,青岛市,李沧区北部,颗粒物(PM10),63,75,108,44,69,39,,77,77,76,46,10,9,1.1,1
2024-11-13T0800,1702A,113.0426,23.691,清远市,环保大楼,,43,39,32,30,24,59,,70,70,20,13,11,10,1.0,0.9
2024-11-13T0800,1703A,113.0208,23.7106,清远市,凤城街办,颗粒物(PM10),52,53,37,30,23,14,,46,46,54,19,12,8,1.0,0.8
2024-11-13T0800,3025A,113.0477,23.6344,清远市,技师学院,,46,46,39,26,22,54,,48,48,20,18,14,12,1.0,0.8
2024-11-13T0800,3318A,112.9903,23.7403,清远市,清新太和,颗粒物(PM10),51,51,39,30,23,22,,44,44,44,20,12,7,1.0,0.9
