timepoint,stationcode,longitude,latitude,area,positionname,primarypollutant,aqi,pm10,pm10_24h,pm2_5,pm2_5_24h,o3,o3_24h,o3_8h,o3_8h_24h,no2,no2_24h,so2,so2_24h,co,co_24h
2025-08-14T2300,2566A,102.1879,31.914,阿坝藏族羌族自治州,州农科所,,17,17,19,11,12,46,,72,68,6,5,15,15,0,0.1
2025-08-14T2300,2568A,102.2502,31.8896,阿坝藏族羌族自治州,马师校,,38,26,15,26,16,41,,60,54,5,6,7,7,0.6,0.6
2025-08-14T2300,3994A,102.2165,31.9024,阿坝藏族羌族自治州,马尔康中学西区,,35,,13,24,12,50,,79,75,3,3,8,8,0.6,0.5
2025-08-14T2300,2695A,80.292,41.1694,阿克苏地区,电视台,颗粒物(PM10),68,86,62,35,25,93,,112,110,7,7,3,3,0.6,0.6
2025-08-14T2300,2696A,80.2613,41.1551,阿克苏地区,艺术中心,,,57,65,40,25,79,,110,106,,6,3,4,0.5,0.5
2025-08-14T2300,2204A,105.6467,38.8363,阿拉善盟,西城区西花园,,46,35,34,17,14,147,,142,142,8,12,9,9,0.8,0.7
2025-08-14T2300,2205A,105.6985,38.8411,阿拉善盟,蒙二幼,,41,30,36,17,13,131,,132,132,4,5,10,10,0.6,0.6
2025-08-14T2300,2206A,105.724,38.8516,阿拉善盟,环保局新楼,,44,30,32,15,13,138,,135,135,5,6,9,10,0.6,0.5
2025-08-14T2300,2708A,88.1264,47.8517,阿勒泰地区,市站,,45,45,19,16,6,8,,85,69,67,15,4,3,0.5,0.4
2025-08-14T2300,2630A,80.1161,32.5,阿里地区,阿里监测站,,35,13,6,3,3,110,,111,108,6,5,6,7,0.2,0.2
2025-08-14T2300,3192A,80.0903,32.5028,阿里地区,阿里藏医院,,,,,,,,,,,,,,,,
2025-08-14T2300,2642A,109.0318,32.6537,安康市,香溪洞,,24,9,21,8,13,74,,96,83,4,4,7,7,0.4,0.4
2025-08-14T2300,2644A,109.0072,32.6975,安康市,汉滨区检察院,,23,14,19,12,12,71,,93,80,4,5,18,7,0.5,0.4
2025-08-14T2300,4054A,109.0325,32.6913,安康市,市邮政管理局,,20,11,21,9,13,64,,88,72,3,6,4,8,0.4,0.5
2025-08-14T2300,2291A,117.0809,30.5177,安庆市,环科院,,21,21,26,6,17,47,,117,83,12,5,4,5,0.5,0.7
2025-08-14T2300,2292A,117.0331,30.5119,安庆市,马山宾馆,,23,23,25,6,17,45,,108,78,12,5,4,5,0.5,0.7
2025-08-14T2300,2294A,116.9896,30.6145,安庆市,安庆大学,,23,23,25,7,14,47,,95,83,17,6,4,3,0.4,0.5
2025-08-14T2300,3173A,117.0598,30.5351,安庆市,市人大,,21,21,26,6,16,48,,116,83,16,8,3,9,0.5,0.7
2025-08-14T2300,3122A,105.9606,26.2611,安顺市,伍家关,,27,17,27,15,16,86,,152,125,8,16,7,8,0.6,0.6
2025-08-14T2300,3123A,105.9408,26.2431,安顺市,凤凰山,,27,25,31,16,24,84,,139,119,6,16,5,7,0.6,0.6
2025-08-14T2300,3124A,105.9439,26.2564,安顺市,金钟山,,28,27,28,19,21,87,,143,122,5,10,9,10,0.6,0.6
2025-08-14T2300,3125A,105.8983,26.2481,安顺市,娄家坡,,26,21,28,15,21,81,,134,114,7,11,14,12,0.6,0.6
2025-08-14T2300,1818A,114.4839,36.0621,安阳市,棉研所,,,,,,,,,,,,,,,,
2025-08-14T2300,1819A,114.3551,36.1017,安阳市,红庙街,,42,42,42,19,18,100,,139,124,8,12,5,6,0.4,0.4
2025-08-14T2300,1820A,114.361,36.0681,安阳市,银杏小区,,42,39,42,29,27,102,,143,128,10,15,5,6,0.5,0.4
2025-08-14T2300,3141A,114.3922,36.0878,安阳市,信访局,,44,44,41,26,24,111,,152,140,9,10,5,6,0.7,0.7
2025-08-14T2300,3669A,114.4705,36.0637,安阳市,左辅环卫站,细颗粒物(PM2.5),57,54,44,40,29,88,,142,124,12,11,8,6,0.7,0.6
2025-08-14T2300,3703A,114.2917,36.0949,安阳市,安钢职工学校,,40,32,44,28,25,105,,138,123,6,9,5,5,0.6,0.6
2025-08-14T2300,1748A,123.044,41.1196,鞍山市,深沟寺,,34,34,36,18,23,100,,153,129,8,12,8,9,1.0,1.2
2025-08-14T2300,1749A,123.011,41.0931,鞍山市,太阳城,,39,39,42,21,23,90,,158,131,11,13,7,9,1.0,1.2
2025-08-14T2300,1750A,123.0485,41.1442,鞍山市,太平,,42,42,49,24,27,97,,150,127,11,15,8,10,1.0,1.1
2025-08-14T2300,1751A,122.9642,41.0971,鞍山市,铁西三道街,颗粒物(PM10),51,51,54,27,29,74,,151,125,30,20,9,11,1.5,1.3
2025-08-14T2300,1753A,123.022,41.0821,鞍山市,明达新区,,38,38,45,20,25,102,,142,118,9,16,8,11,0.9,1.2
2025-08-14T2300,1754A,123.1289,41.0228,鞍山市,千山,,,,,,,,,,,,,,,,
2025-08-14T2300,4201A,122.9446,41.0826,鞍山市,兴盛南路290号,,43,43,47,20,25,82,,153,119,28,20,12,12,1.7,1.3
2025-08-14T2300,2195A,107.4212,40.761,巴彦淖尔市,附二中,,37,37,42,11,12,90,,182,160,17,13,7,10,0.6,0.6
2025-08-14T2300,2196A,107.37,40.7372,巴彦淖尔市,市环保大楼,,42,42,33,15,12,88,,174,156,15,11,7,9,0.5,0.4
2025-08-14T2300,1956A,86.1472,41.7538,巴音郭楞蒙古自治州,孔雀公园,,47,47,50,21,17,104,,116,106,18,20,7,5,0.3,0.3
2025-08-14T2300,1957A,86.1972,41.7166,巴音郭楞蒙古自治州,棉纺厂,,34,17,60,3,11,108,,113,112,7,14,5,5,0.0,0.2
2025-08-14T2300,1958A,86.2357,41.7173,巴音郭楞蒙古自治州,经济开发区,,37,30,36,3,8,116,,114,114,6,9,4,4,0.1,0.1
2025-08-14T2300,2914A,106.7677,31.8794,巴中市,苏山坪,,34,24,23,18,15,108,,122,122,6,6,4,5,0.4,0.4
2025-08-14T2300,3181A,106.7768,31.8526,巴中市,市五中,,46,46,55,24,19,62,,129,108,20,13,6,6,0.5,0.5
2025-08-14T2300,3183A,106.7418,31.8654,巴中市,圣泉水务公司,,42,42,26,26,18,52,,134,105,20,11,5,5,0.6,0.6
2025-08-14T2300,3616A,106.7616,31.8344,巴中市,市中心医院,,40,40,29,19,22,61,,130,107,23,16,6,6,0.5,0.4
2025-08-14T2300,2235A,122.7911,45.6077,白城市,洮北区环保局,,19,10,14,7,8,59,,84,71,2,4,3,4,0.3,0.2
2025-08-14T2300,2236A,122.8738,45.5725,白城市,市环保局,,20,,9,10,6,62,,84,73,4,3,4,3,0.4,0.3
2025-08-14T2300,2231A,126.4219,41.9171,白山市,喜丰,颗粒物(PM10),76,101,30,25,11,7,,111,58,33,12,7,6,0.6,0.6
2025-08-14T2300,2232A,126.4077,41.9419,白山市,环保局,,32,30,24,22,13,19,,116,65,13,11,5,5,0.6,0.6
2025-08-14T2300,2647A,104.1724,36.5446,白银市,第三小学,,42,42,36,14,17,89,,128,122,17,18,8,16,0.4,0.5
2025-08-14T2300,2648A,104.1465,36.5482,白银市,动力公司,,30,23,31,10,15,93,,126,121,12,17,8,10,0.4,0.5
2025-08-14T2300,2512A,106.6103,23.9011,百色市,市监测站,,15,15,23,9,13,35,,74,56,11,9,4,4,0.5,0.5
2025-08-14T2300,2513A,106.6538,23.8859,百色市,市中心血站,,26,26,34,13,21,32,,80,59,17,19,2,4,0.6,0.7
2025-08-14T2300,3406A,106.6085,23.8798,百色市,祈福高中,,19,19,34,12,16,34,,73,57,15,14,4,4,0.6,0.6
2025-08-14T2300,2270A,117.396,32.939,蚌埠市,工人疗养院,,32,32,34,6,13,52,,108,92,28,10,3,4,0.3,0.4
2025-08-14T2300,2271A,117.3605,32.9427,蚌埠市,百货大楼,,22,21,27,15,15,59,,98,84,22,13,6,6,0.4,0.5
2025-08-14T2300,2273A,117.4185,32.8911,蚌埠市,蚌埠学院,,24,24,26,8,15,75,,105,88,9,17,6,8,0.4,0.5
2025-08-14T2300,2274A,117.3533,32.9673,蚌埠市,淮上区政府,,29,29,29,16,16,76,,119,106,19,11,6,5,0.4,0.5
2025-08-14T2300,2275A,117.3145,32.8977,蚌埠市,高新区,,24,22,28,6,15,74,,101,89,10,11,6,6,0.5,0.6
2025-08-14T2300,3715A,117.3092,32.9314,蚌埠市,蚌埠田家炳中学,,28,28,33,10,15,86,,111,98,8,9,8,8,0.2,0.4
2025-08-14T2300,1585A,109.8756,40.6532,包头市,市环境监测站,颗粒物(PM10),53,56,42,16,15,117,,168,159,22,33,10,10,0.7,0.7
2025-08-14T2300,1587A,109.9991,40.5842,包头市,包头八中,颗粒物(PM10),56,62,64,18,24,109,,160,152,24,30,23,15,0.6,0.8
2025-08-14T2300,1588A,109.8538,40.6821,包头市,青山宾馆,,42,42,35,24,18,116,,167,159,24,32,8,8,0.7,0.7
2025-08-14T2300,1589A,109.8642,40.6288,包头市,惠龙物流,颗粒物(PM10),55,59,44,18,18,108,,160,151,18,27,10,11,0.7,0.7
2025-08-14T2300,1590A,110.0377,40.5546,包头市,东河鸿龙湾,颗粒物(PM10),55,59,50,17,28,121,,156,156,21,31,10,15,0.6,0.4
2025-08-14T2300,3283A,109.9154,40.5685,包头市,滨河大厦,颗粒物(PM10),51,52,41,20,19,113,,169,160,20,27,7,8,0.6,0.6
2025-08-14T2300,3419A,109.9447,40.6261,包头市,包头市委党校,,48,48,36,18,20,118,,169,160,21,29,15,14,0.6,0.7
2025-08-14T2300,3683A,109.8331,40.6576,包头市,昆区政府,颗粒物(PM10),53,56,47,24,20,113,,163,155,21,28,8,10,0.7,0.7
2025-08-14T2300,1930A,107.185,34.3063,宝鸡市,庙沟村,,36,28,34,18,16,114,,171,151,7,10,4,4,0.4,0.4
2025-08-14T2300,1931A,107.0708,34.3017,宝鸡市,竹园沟,,38,33,36,26,20,93,,174,149,13,11,8,8,0.3,0.3
2025-08-14T2300,1932A,107.1906,34.3672,宝鸡市,三陆医院,,44,44,48,22,26,122,,175,164,12,22,8,10,0.6,0.5
2025-08-14T2300,1933A,107.1431,34.3547,宝鸡市,监测站,颗粒物(PM10),51,52,47,29,23,101,,176,164,12,13,8,9,0.6,0.6
2025-08-14T2300,1934A,107.1186,34.3739,宝鸡市,技工学校,,,,51,25,24,121,,174,164,13,12,6,7,0.6,0.6
2025-08-14T2300,1936A,107.2058,34.3497,宝鸡市,文理学院,,49,49,47,27,25,129,,182,172,11,15,8,9,0.6,0.6
2025-08-14T2300,1937A,107.2386,34.3622,宝鸡市,三迪小学,,40,40,65,27,30,120,,177,164,16,16,6,7,0.5,0.5
2025-08-14T2300,4308A,107.3898,34.3601,宝鸡市,陈仓区北开路21号,,39,39,43,22,23,117,,174,160,13,18,6,25,0.5,0.5
2025-08-14T2300,1051A,115.493,38.8632,保定市,游泳馆,颗粒物(PM10),51,51,43,34,27,71,,141,118,25,18,1,3,0.0,0
2025-08-14T2300,1052A,115.5213,38.8959,保定市,华电二区,颗粒物(PM10),53,55,55,34,27,60,,165,131,30,22,3,3,0.7,0.6
2025-08-14T2300,1053A,115.4713,38.9108,保定市,接待中心,颗粒物(PM10),55,59,42,35,28,68,,163,133,34,20,2,2,0,0.2
2025-08-14T2300,1054A,115.4612,38.8416,保定市,地表水厂,颗粒物(PM10),53,56,69,28,24,88,,156,125,13,12,2,3,0.5,0.5
2025-08-14T2300,3581A,115.31981,38.95208,保定市,满城区生态环境分局,细颗粒物(PM2.5),77,97,55,56,27,62,,159,129,40,21,2,3,0.3,0.2
2025-08-14T2300,3582A,115.47694,38.76408,保定市,清苑区第二中学,颗粒物(PM10),69,87,58,36,28,57,,147,113,33,17,1,2,0.6,0.6
2025-08-14T2300,3583A,115.62909,39.02311,保定市,徐水物探局,颗粒物(PM10),53,55,52,17,15,68,,166,129,20,20,5,6,0.5,0.5
2025-08-14T2300,4004A,115.4202,38.8656,保定市,双鹰农机,颗粒物(PM10),52,54,46,33,22,89,,164,134,21,15,4,4,0.3,0.3
2025-08-14T2300,4034A,115.5150,38.8590,保定市,植保所站,颗粒物(PM10),52,53,44,27,22,78,,166,135,24,17,5,3,0.4,0.4
2025-08-14T2300,2594A,99.1678,25.1081,保山市,市环境监测站,,38,,16,26,17,19,,66,44,6,8,6,6,0.5,0.5
2025-08-14T2300,2595A,99.1711,25.1328,保山市,市环保局,,15,15,16,10,9,23,,68,47,5,5,6,6,0.4,0.4
2025-08-14T2300,1866A,109.2262,21.588,北海市,牛尾岭水库,,18,,12,10,6,56,,64,64,4,8,2,3,0.4,0.4
2025-08-14T2300,1867A,109.1436,21.4086,北海市,海滩公园,,22,10,22,3,5,69,,90,89,7,6,4,3,0.5,0.6
2025-08-14T2300,1868A,109.0981,21.4661,北海市,新市环保局,,24,24,17,14,11,71,,84,84,10,12,4,3,0.4,0.3
2025-08-14T2300,1869A,109.1778,21.5233,北海市,北海工业园,,22,,18,15,10,65,,81,81,7,8,4,3,0.6,0.5
2025-08-14T2300,3400A,109.1911,21.4415,北海市,龙潭自来水厂,,23,17,14,9,8,72,,86,86,8,6,9,7,0.5,0.5
2025-08-14T2300,1001A,116.3621,39.8784,北京市,万寿西宫,,35,32,29,16,15,112,,144,128,1,19,2,3,0.5,0.5
2025-08-14T2300,1002A,116.2202,40.2915,北京市,定陵,,37,23,23,14,11,116,,110,110,3,3,2,2,0.5,0.4
2025-08-14T2300,1003A,116.4174,39.9289,北京市,东四,,37,33,29,21,15,118,,149,141,15,27,4,5,0.6,0.6
2025-08-14T2300,1004A,116.4072,39.8863,北京市,天坛,,35,28,28,21,15,111,,137,125,6,19,3,3,0.5,0.5
2025-08-14T2300,1005A,116.462,39.9365,北京市,农展馆,,32,25,15,7,8,100,,140,128,14,26,2,3,0.6,0.5
2025-08-14T2300,1006A,116.3392,39.9295,北京市,官园,,37,34,32,23,16,118,,146,135,9,20,4,5,0.5,0.5
2025-08-14T2300,1007A,116.2878,39.9611,北京市,海淀万柳,,35,35,30,24,14,102,,120,118,12,32,3,3,0.4,0.3
2025-08-14T2300,1008A,116.6636,40.135,北京市,顺义新城,,,,,,,,,,,,,,,,
2025-08-14T2300,1009A,116.6275,40.3275,北京市,怀柔镇,,40,23,20,18,12,125,,131,131,8,12,3,2,0.6,0.5
2025-08-14T2300,1010A,116.2296,40.217,北京市,昌平镇,,36,28,23,19,13,114,,124,124,9,13,4,4,0.6,0.6
2025-08-14T2300,1011A,116.3966,39.9821,北京市,奥体中心,,35,31,25,18,12,109,,137,133,11,22,3,4,0.5,0.5
2025-08-14T2300,3281A,115.9718,40.4529,北京市,延庆夏都,,38,31,30,19,16,119,,120,120,4,7,3,3,0.6,0.5
2025-08-14T2300,3418A,116.8336,40.4095,北京市,密云新城,,39,20,18,15,9,124,,104,104,6,6,1,1,0.5,0.4
2025-08-14T2300,3671A,116.088,39.9726,北京市,门头沟三家店,,42,33,31,29,17,109,,117,117,13,20,2,3,0.7,0.6
2025-08-14T2300,3672A,116.1541,39.8204,北京市,丰台云岗,,32,26,40,19,21,101,,138,124,7,22,3,3,0.5,0.5
2025-08-14T2300,3673A,116.6804,39.9081,北京市,通州东关,,35,33,34,21,16,110,,136,120,11,28,6,6,0.6,0.6
2025-08-14T2300,3674A,115.9577,39.7603,北京市,房山燕山,,43,43,37,29,26,85,,135,126,13,13,3,3,0.5,0.5
2025-08-14T2300,3675A,116.4672,39.7733,北京市,大兴旧宫,,35,28,27,18,14,110,,134,124,8,25,1,2,0.6,0.6
2025-08-14T2300,3694A,115.986,40.4563,北京市,延庆石河营,,37,31,30,22,18,118,,116,116,4,6,3,3,0.5,0.5
2025-08-14T2300,3695A,116.6151,40.3053,北京市,怀柔新城,,35,26,26,20,13,110,,119,119,5,7,2,4,0.6,0.5
2025-08-14T2300,3696A,116.2545,39.8768,北京市,丰台小屯,,34,24,32,18,18,108,,125,118,5,21,2,2,0.6,0.6
2025-08-14T2300,3697A,116.84,40.3844,北京市,密云镇,,42,21,21,16,12,133,,114,114,5,13,3,4,0.6,0.6
2025-08-14T2300,4182A,116.1942,39.9158,北京市,八角北路9号,,39,27,38,19,17,122,,140,134,3,29,1,2,0.4,0.3
2025-08-14T2300,4194A,117.0790,40.1518,北京市,洳河巡河路,,40,39,34,28,18,109,,130,116,7,8,2,3,0.6,0.5
2025-08-14T2300,1761A,123.8275,41.3064,本溪市,大峪,,40,40,32,16,15,25,,131,80,32,16,5,6,0.4,0.5
2025-08-14T2300,1762A,123.7567,41.3325,本溪市,溪湖,颗粒物(PM10),58,66,40,20,18,28,,132,82,26,13,6,8,1.1,1.5
2025-08-14T2300,1763A,123.7169,41.3094,本溪市,彩屯,,41,41,32,21,18,29,,122,67,30,17,8,9,0.9,1
2025-08-14T2300,1764A,123.7669,41.2864,本溪市,东明,颗粒物(PM10),53,55,38,20,18,20,,126,88,47,20,4,6,1.0,1
2025-08-14T2300,1765A,123.7992,41.2664,本溪市,新立屯,,34,34,27,18,14,14,,118,52,48,23,4,5,1.0,0.9
2025-08-14T2300,1766A,123.8142,41.3472,本溪市,威宁,,42,42,38,20,20,7,,118,57,28,16,8,9,0.6,0.8
2025-08-14T2300,2587A,105.2864,27.3125,毕节市,八中,,33,32,24,23,19,70,,114,101,10,8,4,5,0.6,0.5
2025-08-14T2300,2588A,105.31,27.2944,毕节市,师专,,30,24,24,12,14,93,,128,112,7,11,5,5,0.8,0.7
2025-08-14T2300,4263A,105.3688,27.3598,毕节市,工业大道,,28,27,29,17,16,88,,134,116,9,14,7,6,0.6,0.6
2025-08-14T2300,1629A,118.0018,37.3617,滨州市,第二水厂,颗粒物(PM10),56,61,75,39,45,58,,184,136,32,26,6,4,0.8,0.8
2025-08-14T2300,1630A,117.9776,37.393,滨州市,北中新校,,46,46,66,29,46,79,,187,150,25,24,7,7,0.8,0.8
2025-08-14T2300,3514A,117.9378,37.3956,滨州市,中海酒店,颗粒物(PM10),52,53,63,31,41,82,,196,159,18,17,4,4,0.8,0.7
2025-08-14T2300,3515A,117.9378,37.3553,滨州市,开发区一中,颗粒物(PM10),58,66,75,36,45,78,,204,154,28,23,7,6,0.8,0.6
2025-08-14T2300,3516A,118.0917,37.694,滨州市,金海六路,,46,46,66,29,40,96,,198,154,22,19,8,5,0.5,0.5
2025-08-14T2300,4028A,117.9956,37.3753,滨州市,滨州市西街道办事处,细颗粒物(PM2.5),52,44,61,36,48,70,,204,154,26,23,3,2,0.6,0.6
2025-08-14T2300,2311A,115.8072,33.8399,亳州市,污水处理厂,,18,7,8,7,6,57,,93,81,10,9,5,4,0.7,0.6
2025-08-14T2300,2312A,115.7789,33.8518,亳州市,三国揽胜宫,,22,17,17,3,6,69,,97,89,9,7,6,4,0.6,0.6
2025-08-14T2300,3332A,115.7633,33.8034,亳州市,亳州学院,,22,,9,8,7,70,,92,87,7,5,3,3,0.6,0.4
2025-08-14T2300,2693A,82.0485,44.8556,博尔塔拉蒙古自治州,市党校,颗粒物(PM10),51,52,28,11,19,60,,95,90,22,8,6,4,0.5,0.3
2025-08-14T2300,2694A,82.0806,44.8969,博尔塔拉蒙古自治州,市环保局,,,64,42,41,16,,,90,90,22,8,6,2,0.8,0.4
2025-08-14T2300,1071A,116.8842,38.2991,沧州市,沧县城建局,颗粒物(PM10),68,86,62,43,38,138,,163,158,35,17,3,3,0.6,0.5
2025-08-14T2300,1072A,116.8584,38.3254,沧州市,电视转播站,颗粒物(PM10),74,98,73,53,40,147,,151,151,24,14,1,2,0.5,0.5
2025-08-14T2300,1073A,116.8709,38.3228,沧州市,市环保局,颗粒物(PM10),70,89,68,46,37,138,,162,156,24,11,3,3,0.5,0.5
2025-08-14T2300,3324A,116.8136,38.3004,沧州市,河北水利电力学院,细颗粒物(PM2.5),88,83,52,65,41,169,,169,169,18,10,2,4,0.6,0.5
2025-08-14T2300,2622A,97.1806,31.1273,昌都市,昌都监测站,,26,19,18,10,12,82,,111,106,4,5,4,4,0.4,0.4
2025-08-14T2300,3719A,97.1714,31.1406,昌都市,昌都会议中心,,29,10,22,3,10,92,,109,108,3,5,3,3,0.2,0.2
2025-08-14T2300,2690A,88.1236,43.8886,昌吉回族自治州,天山天池,,23,23,22,10,7,67,,110,103,7,7,3,4,0.6,0.6
2025-08-14T2300,2692A,87.2717,44.0297,昌吉回族自治州,新区政务中心,,36,36,30,11,10,66,,118,103,23,20,9,11,0.4,0.4
2025-08-14T2300,3613A,87.3095,44.0142,昌吉回族自治州,亚心广场,颗粒物(PM10),52,53,42,7,8,51,,108,93,42,24,8,10,0.5,0.4
2025-08-14T2300,1120A,125.2863,43.9027,长春市,客车厂,,44,44,25,21,13,74,,108,93,30,16,5,4,0.5,0.4
2025-08-14T2300,1121A,125.2841,43.8463,长春市,邮电学院,,24,24,31,10,12,54,,111,88,24,15,5,5,0.6,0.5
2025-08-14T2300,1122A,125.3716,43.8772,长春市,劳动公园,颗粒物(PM10),51,52,29,21,14,58,,108,92,26,15,7,7,0.4,0.3
2025-08-14T2300,1123A,125.3297,43.8805,长春市,园林处,,41,41,22,13,10,81,,106,93,21,12,5,4,0.6,0.5
2025-08-14T2300,1124A,125.4605,43.79,长春市,净月潭,,33,33,19,9,9,39,,98,73,10,7,5,4,0.3,0.3
2025-08-14T2300,1125A,125.7194,43.515,长春市,甩湾子,,36,36,21,15,13,35,,89,66,18,11,3,4,0.5,0.5
2025-08-14T2300,1126A,125.3863,43.8447,长春市,经开区环卫处,,50,50,28,15,11,58,,102,91,37,16,4,4,0.6,0.5
2025-08-14T2300,1127A,125.245,43.7783,长春市,高新区管委会,,48,48,24,14,12,63,,107,84,25,12,3,3,0.5,0.5
2025-08-14T2300,1128A,125.1761,43.8325,长春市,岱山公园,颗粒物(PM10),53,56,26,18,13,40,,106,73,51,24,4,3,0.4,0.3
2025-08-14T2300,4281A,125.3346,43.9164,长春市,北亚泰大街1068号,,45,45,27,23,14,74,,105,90,32,16,8,7,0.6,0.5
2025-08-14T2300,1335A,113.0833,28.2325,长沙市,经开区环保局,,14,14,25,3,11,39,,69,52,9,9,8,4,0.3,0.4
2025-08-14T2300,1336A,112.8872,28.2189,长沙市,高开区环保局,,17,17,29,3,11,34,,79,55,5,6,3,3,0.2,0.4
2025-08-14T2300,1337A,113.0792,28.2053,长沙市,马坡岭,,14,12,27,3,15,44,,65,,5,8,4,4,0.2,0.4
2025-08-14T2300,1338A,112.9394,28.19,长沙市,湖南师范大学,,20,20,30,3,15,42,,86,60,11,7,3,2,0.2,0.6
2025-08-14T2300,1339A,113.0178,28.1322,长沙市,雨花区环保局,,13,11,27,7,12,40,,78,53,4,6,5,5,0.4,0.5
2025-08-14T2300,1340A,112.9792,28.2597,长沙市,伍家岭,,17,17,27,3,11,36,,77,47,10,8,2,2,0.2,0.3
2025-08-14T2300,1341A,113.0014,28.1944,长沙市,火车新站,,15,15,28,3,11,39,,81,51,5,6,5,5,0.3,0.5
2025-08-14T2300,1342A,112.9844,28.1178,长沙市,天心区环保局,,14,13,26,3,14,42,,84,58,8,9,2,2,0.3,0.4
2025-08-14T2300,1343A,112.8908,28.1308,长沙市,湖南中医药大学,,25,,28,17,20,37,,78,49,7,7,3,2,0.5,0.6
2025-08-14T2300,1344A,112.9581,28.3611,长沙市,沙坪,,12,12,29,3,16,38,,78,55,8,8,3,3,0.3,0.4
2025-08-14T2300,1727A,113.1147,36.1547,长治市,清华站,,28,26,39,9,21,88,,141,91,6,12,7,8,0.6,1.1
2025-08-14T2300,1730A,113.0886,36.2125,长治市,审计局,,30,25,38,12,21,96,,140,87,6,13,5,6,0.7,1
2025-08-14T2300,1731A,113.0844,36.1856,长治市,长治八中,,30,,39,20,32,94,,143,93,6,11,7,8,0.7,1
2025-08-14T2300,2845A,113.1569,36.1911,长治市,德盛苑,,31,31,34,14,20,78,,131,104,8,7,7,7,0.9,0.9
2025-08-14T2300,3568A,113.06,36.0464,长治市,向阳小学,,39,39,71,12,30,84,,134,95,5,7,3,4,0.5,0.8
2025-08-14T2300,3569A,112.8792,36.3144,长治市,屯留一中,,50,43,55,35,36,80,,152,97,19,20,8,8,0.3,0.5
2025-08-14T2300,4189A,113.1131,36.19948,长治市,英华南巷50号,,29,25,42,17,24,92,,134,93,7,12,6,7,0.7,1.2
2025-08-14T2300,4190A,113.2367,36.3344,长治市,学府街1号,,38,32,38,26,29,100,,136,125,16,13,3,5,0.6,0.8
2025-08-14T2300,1854A,111.6975,28.9703,常德市,市二中,,15,7,19,3,12,45,,90,75,9,8,3,4,0.4,0.5
2025-08-14T2300,1857A,111.7158,29.1456,常德市,白鹤山,,,,,,,,,,,,,,,,
2025-08-14T2300,3138A,111.7153,29.0289,常德市,武陵区永安,,20,11,19,6,10,61,,89,80,5,4,3,3,0.4,0.4
2025-08-14T2300,3139A,111.6892,28.9881,常德市,鼎城区玉霞,,,9,18,6,12,51,,89,78,,7,6,4,0.4,0.5
2025-08-14T2300,3140A,111.6625,29.0531,常德市,武陵区长庚,,19,15,16,11,9,60,,,,7,6,4,4,0.6,0.6
2025-08-14T2300,1196A,119.9633,31.762,常州市,市监测站,,16,15,14,10,9,50,,98,88,17,11,9,8,0.6,0.4
2025-08-14T2300,1200A,119.9468,31.7069,常州市,武进监测站,,19,19,20,3,7,52,,100,92,11,5,8,8,0.8,0.8
2025-08-14T2300,1201A,119.9255,31.9087,常州市,安家,,21,21,20,3,6,50,,97,87,13,9,8,8,0.7,0.8
2025-08-14T2300,3002A,119.9805,31.8174,常州市,行政中心,,13,13,23,8,8,41,,92,81,22,13,8,6,0.4,0.6
2025-08-14T2300,3003A,120.0522,31.7748,常州市,经开区,,28,28,26,3,7,36,,96,80,24,12,2,3,0.6,0.6
2025-08-14T2300,3010A,119.9025,31.7964,常州市,钟楼,,28,28,20,3,5,57,,98,91,14,9,6,6,0.4,0.3
2025-08-14T2300,3429A,119.8598,31.7066,常州市,武进经发区,,25,25,20,8,8,53,,99,90,9,6,7,7,0.6,0.7
2025-08-14T2300,3430A,119.5826,31.7245,常州市,金坛城区,,20,20,18,7,7,64,,104,98,11,8,7,8,0.3,0.3
2025-08-14T2300,2220A,120.4318,41.5881,朝阳市,西梁,,39,29,31,16,17,123,,124,124,10,16,7,7,0.8,0.8
2025-08-14T2300,2221A,120.4521,41.5646,朝阳市,河畔小区,,41,29,27,12,12,130,,136,136,8,12,6,7,0.7,0.8
2025-08-14T2300,2222A,120.4176,41.5648,朝阳市,八里堡,,38,30,32,18,14,120,,126,126,17,19,10,8,1.3,0.8
2025-08-14T2300,2223A,120.3806,41.5969,朝阳市,农业园区,,39,29,27,13,13,124,,121,118,7,13,6,7,0.6,0.7
2025-08-14T2300,1705A,116.6367,23.6719,潮州市,西园路,,16,16,10,3,8,15,,40,31,7,8,2,3,0.3,0.3
2025-08-14T2300,3026A,116.6183,23.6608,潮州市,市政府,,,,17,,6,14,,36,26,12,9,8,8,,0.3
2025-08-14T2300,4036A,116.6461,23.6761,潮州市,金山,,18,14,9,12,12,11,,40,27,7,7,4,5,0.6,0.5
2025-08-14T2300,2472A,113.0073,25.9061,郴州市,马头岭,,12,12,28,3,14,30,,44,38,10,10,5,5,0.2,0.3
2025-08-14T2300,2473A,113.0116,25.8226,郴州市,市职中,,15,12,22,10,19,38,,43,37,5,8,3,4,0.4,0.5
2025-08-14T2300,2475A,113.0383,25.8071,郴州市,市审计局,,14,9,20,3,17,42,,50,45,6,6,4,5,0.3,0.4
2025-08-14T2300,2476A,113.0348,25.7759,郴州市,市环保局,,13,10,25,3,19,41,,41,40,6,8,2,4,0.3,0.4
2025-08-14T2300,4252A,113.0138,25.8011,郴州市,好美居路49号,,23,23,22,3,16,40,,44,39,5,8,5,5,0.3,0.5
2025-08-14T2300,1431A,103.9728,30.7236,成都市,金泉两河,,40,40,42,15,21,82,,182,157,31,20,3,4,0.7,0.7
2025-08-14T2300,1432A,104.176,30.6872,成都市,十里店,,48,48,55,32,29,92,,191,168,29,22,5,8,0.7,0.7
2025-08-14T2300,1433A,104.079,30.5706,成都市,三瓦窑,,50,50,51,23,27,58,,193,149,50,41,2,4,0.6,0.6
2025-08-14T2300,1434A,104.1114,30.63,成都市,沙河铺,,49,42,50,34,29,80,,146,111,16,19,3,7,0.5,0.7
2025-08-14T2300,1437A,104.0786,30.6531,成都市,君平街,,45,45,55,26,33,98,,193,168,20,18,7,9,0.5,0.5
2025-08-14T2300,1438A,103.613,31.0283,成都市,灵岩寺,,,,,,,,,,,,,,,,
2025-08-14T2300,2880A,104.0239,30.65639,成都市,大石西路,,39,35,46,27,31,80,,160,136,26,22,4,5,0.7,0.7
2025-08-14T2300,3136A,104.2725,30.5589,成都市,龙泉驿区区政府,,31,31,36,17,18,99,,157,125,15,17,4,5,0.6,0.6
2025-08-14T2300,3357A,104.0106,30.6931,成都市,金博路,,29,29,40,6,22,55,,151,102,44,27,5,6,0.8,0.7
2025-08-14T2300,3359A,104.0578,30.5225,成都市,华阳,,37,27,47,17,30,117,,178,148,18,28,4,4,0.6,0.7
2025-08-14T2300,3488A,104.3853,30.7453,成都市,青白江技师分院,,50,50,43,34,25,66,,156,122,46,27,5,5,0.7,0.7
2025-08-14T2300,3489A,104.0789,30.4072,成都市,科学城,,32,32,46,18,27,51,,161,124,35,18,3,4,0.6,0.6
2025-08-14T2300,4011A,103.8506,30.6947,成都市,光华大道三段,,42,42,38,21,21,108,,171,148,23,17,5,6,0.7,0.6
2025-08-14T2300,4224A,104.2433,30.5353,成都市,鲸龙路1057号,,40,40,42,25,24,64,,167,136,40,27,4,5,0.6,0.8
2025-08-14T2300,1062A,117.9531,40.9081,承德市,铁路,,30,25,27,8,12,96,,102,95,20,16,2,3,0.4,0.4
2025-08-14T2300,1063A,117.9392,40.9763,承德市,中国银行,,32,32,28,13,12,41,,112,94,9,9,3,2,0.5,0.4
2025-08-14T2300,1064A,117.9503,40.928,承德市,开发区,,35,32,31,14,13,110,,114,110,10,13,2,3,0.5,0.5
2025-08-14T2300,1066A,117.9268,41.0026,承德市,离宫,,32,32,24,15,11,20,,95,50,4,6,3,3,0.4,0.4
2025-08-14T2300,4274A,117.7994,40.9605,承德市,滨河大街98号,,29,19,22,17,12,92,,120,116,4,8,1,2,0.4,0.4
2025-08-14T2300,2314A,117.47,30.6618,池州市,池州学院,,15,15,25,6,15,44,,76,66,9,18,5,8,0.5,0.7
2025-08-14T2300,3237A,117.4918,30.6617,池州市,展览馆,,14,11,20,6,13,43,,74,62,9,14,4,4,0.6,0.8
2025-08-14T2300,3333A,117.5627,30.695,池州市,第八中学,,14,11,20,3,11,42,,74,62,8,11,5,5,0.5,0.6
2025-08-14T2300,3334A,117.5038,30.6243,池州市,第十二中学,,13,13,16,3,9,30,,76,59,21,11,3,3,0.7,0.9
2025-08-14T2300,1744A,118.9233,42.2816,赤峰市,松山一中,,39,27,18,18,7,124,,112,112,10,19,5,5,0.7,0.5
2025-08-14T2300,1745A,118.9576,42.2728,赤峰市,哈达街,,35,32,20,24,9,101,,104,104,13,16,10,10,0.6,0.5
2025-08-14T2300,1746A,118.8788,42.2554,赤峰市,天义路,,37,,15,24,11,118,,106,106,11,14,16,11,0.5,0.4
2025-08-14T2300,3058A,119.2658,42.0353,赤峰市,银河街,,34,34,31,22,15,106,,113,106,8,13,6,11,0.8,0.7
2025-08-14T2300,3286A,118.9359,42.3147,赤峰市,桥北物流园区,,39,36,19,27,12,106,,102,102,14,18,10,9,0.6,0.4
2025-08-14T2300,2521A,107.3476,22.4136,崇左市,市环保局江州分局,,18,17,29,11,15,55,,98,79,8,10,8,7,0.5,0.6
2025-08-14T2300,4256A,107.3750,22.3736,崇左市,石景林东路7号,,20,15,25,12,16,61,,107,88,8,11,3,5,0.4,0.4
2025-08-14T2300,2298A,118.3093,32.3153,滁州市,老年大学,,30,30,32,12,17,84,,102,95,12,11,5,6,0.2,0.3
2025-08-14T2300,2299A,118.3244,32.2786,滁州市,人大宾馆,,26,19,18,10,17,82,,107,99,8,8,4,4,0.3,0.4
2025-08-14T2300,3207A,118.3118,32.3038,滁州市,市政府原办公楼,,30,27,27,21,22,83,,104,98,10,7,6,5,0.2,0.4
2025-08-14T2300,3331A,118.3267,32.2634,滁州市,图书馆,,26,22,27,16,21,83,,106,102,10,8,10,10,0.2,0.3
2025-08-14T2300,2605A,101.5482,25.0441,楚雄彝族自治州,州环境监测站,,24,24,23,15,18,30,,69,60,22,14,4,5,0.6,0.7
2025-08-14T2300,2606A,101.538,25.0492,楚雄彝族自治州,市经济开发区,,30,30,29,18,17,29,,65,57,18,15,7,7,0.7,0.8
2025-08-14T2300,2548A,107.5277,31.2827,达州市,达州职业技术学院,,49,49,42,19,13,21,,107,68,33,21,7,8,0.5,0.6
2025-08-14T2300,2549A,107.5086,31.2186,达州市,市环境监测站,,,44,38,14,12,,,88,,39,29,6,7,0.5,0.5
2025-08-14T2300,2550A,107.4988,31.2132,达州市,凤凰小区,,41,41,30,19,12,25,,99,72,37,21,2,3,0.4,0.3
2025-08-14T2300,2551A,107.5082,31.1986,达州市,达县机关宾馆,,44,44,32,12,11,8,,100,70,34,19,5,5,0.5,0.4
2025-08-14T2300,2552A,107.4644,31.2124,达州市,市政中心,,42,39,38,29,13,38,,98,76,30,20,4,4,0.4,0.3
2025-08-14T2300,2614A,100.1542,25.7054,大理白族自治州,大理市环境监测站,,35,,17,24,20,21,,75,50,21,16,4,5,0.5,0.5
2025-08-14T2300,2615A,100.2171,25.5811,大理白族自治州,大理古城,,,21,16,7,11,,,74,,16,9,5,6,0.6,0.6
2025-08-14T2300,1109A,121.612,38.9741,大连市,甘井子,,31,17,21,12,15,98,,132,117,10,14,9,9,0.5,0.4
2025-08-14T2300,1110A,121.565,38.9511,大连市,周水子,,30,18,20,13,15,93,,126,110,6,13,11,12,0.3,0.3
2025-08-14T2300,1111A,121.5637,38.8845,大连市,星海三站,,30,20,20,14,15,93,,123,112,9,11,5,5,0.4,0.4
2025-08-14T2300,1112A,121.6302,38.9117,大连市,青泥洼桥,,27,17,21,15,14,86,,132,115,8,10,6,7,0.5,0.5
2025-08-14T2300,1113A,121.6251,38.8638,大连市,傅家庄,,27,14,15,10,14,86,,122,109,4,5,6,6,0.2,0.2
2025-08-14T2300,1114A,121.5213,38.8661,大连市,七贤岭,,32,16,17,15,13,101,,140,124,3,5,9,9,0.5,0.5
2025-08-14T2300,1115A,121.2529,38.8061,大连市,旅顺,,30,15,16,8,16,94,,141,121,1,4,2,2,0.3,0.3
2025-08-14T2300,1116A,121.7485,39.1311,大连市,金州,,29,16,21,14,16,90,,131,110,8,12,8,8,0.3,0.3
2025-08-14T2300,1117A,121.7811,39.0496,大连市,开发区,,30,22,21,21,19,75,,118,105,17,19,7,8,0.6,0.5
2025-08-14T2300,1118A,121.9762,39.0631,大连市,双D港,,22,,16,15,14,30,,113,74,5,8,6,9,0.4,0.4
2025-08-14T2300,1789A,124.81117,46.03138,大庆市,大同区,,20,13,17,8,5,61,,82,72,7,8,8,8,0.6,0.6
2025-08-14T2300,1790A,125.129,46.533,大庆市,龙凤区,,12,12,20,7,8,38,,73,57,20,13,8,8,0.5,0.5
2025-08-14T2300,1791A,124.902,46.408,大庆市,红岗区,,27,27,20,12,10,58,,81,70,10,10,8,8,0.5,0.5
2025-08-14T2300,1792A,125.153,46.586,大庆市,萨尔图区,,30,30,28,12,6,49,,68,58,19,12,7,7,0.5,0.4
2025-08-14T2300,1793A,124.9042,46.6215,大庆市,让胡路区,,33,33,25,18,16,44,,72,60,21,13,6,6,0.2,0.2
2025-08-14T2300,3481A,125.141,46.634,大庆市,萨区政府监测点,,27,27,23,3,4,64,,78,73,15,9,7,7,0.2,0.2
2025-08-14T2300,1721A,113.3819,40.1097,大同市,果树场,,49,44,34,34,17,50,,125,93,20,24,7,8,0.7,0.6
2025-08-14T2300,1723A,113.2994,40.0758,大同市,云冈宾馆,颗粒物(PM10),56,62,49,31,22,81,,140,116,21,22,4,6,0.8,0.7
2025-08-14T2300,1724A,113.3444,40.0917,大同市,大同大学,细颗粒物(PM2.5),52,46,41,36,21,75,,141,118,24,22,9,8,0.8,0.6
2025-08-14T2300,1725A,113.2661,40.1269,大同市,安家小村,颗粒物(PM10),54,57,52,23,20,67,,153,123,26,22,8,10,1.0,0.8
2025-08-14T2300,1726A,113.2711,40.0844,大同市,教育学院,颗粒物(PM10),51,51,51,29,23,74,,141,115,23,22,9,10,0.7,0.6
2025-08-14T2300,3282A,113.3397,40.0597,大同市,大同市卫生学校,颗粒物(PM10),54,58,41,23,21,77,,130,106,22,22,6,7,0.8,0.7
2025-08-14T2300,3565A,113.1367,40.1122,大同市,云冈站,颗粒物(PM10),63,75,59,37,26,75,,134,110,20,16,6,5,0.4,0.5
2025-08-14T2300,3566A,113.1186,40.2556,大同市,图书馆,颗粒物(PM10),53,55,45,35,21,81,,138,112,19,11,8,5,1.1,0.8
2025-08-14T2300,3567A,113.5931,40.0461,大同市,区一中,,43,36,34,30,20,69,,134,111,12,9,9,11,0.6,0.5
2025-08-14T2300,4199A,113.2798,40.0997,大同市,魏都大道141号,,50,50,50,30,23,70,,144,118,25,22,5,7,0.7,0.7
2025-08-14T2300,2269A,124.1069,50.4097,大兴安岭地区,科技局,,27,27,19,11,10,10,,46,34,6,3,5,5,0.3,0.3
2025-08-14T2300,3663A,124.1164,50.4278,大兴安岭地区,红旗社区,,9,9,8,6,6,11,,48,35,5,4,4,4,0.3,0.3
2025-08-14T2300,1600A,124.3303,40.0625,丹东市,江湾东路,,23,21,19,16,13,39,,114,82,12,15,8,8,0.7,0.7
2025-08-14T2300,1601A,124.4256,40.1503,丹东市,临江后街,颗粒物(PM10),52,54,21,28,10,42,,110,81,19,12,8,7,1.2,0.7
2025-08-14T2300,1602A,124.3933,40.1461,丹东市,元宝山,,39,39,17,20,10,37,,96,75,18,9,4,4,1.0,0.6
2025-08-14T2300,1603A,124.3633,40.1092,丹东市,民主桥,,32,32,17,19,12,53,,115,91,12,13,4,3,0.9,0.6
2025-08-14T2300,3541A,109.5726,19.5167,儋州市,第一中学子站,,12,10,16,3,7,36,,44,41,4,5,8,7,0.4,0.5
2025-08-14T2300,3542A,109.5567,19.5187,儋州市,东坡学校子站,,12,6,16,3,7,37,,50,46,2,2,8,7,0.5,0.5
2025-08-14T2300,2616A,98.5842,24.428,德宏傣族景颇族自治州,德宏州监测站,,22,22,29,14,10,52,,71,62,8,7,8,11,0.7,0.7
2025-08-14T2300,3677A,98.5881,24.4368,德宏傣族景颇族自治州,芒市人民政府综合楼,,17,17,30,3,11,41,,61,51,8,7,7,12,0.5,0.5
2025-08-14T2300,1901A,104.4239,31.1208,德阳市,东山公园,,45,45,39,22,21,140,,145,144,7,11,2,3,0.9,0.8
2025-08-14T2300,1902A,104.3826,31.1317,德阳市,西小区,,48,48,40,25,21,86,,150,136,32,18,2,4,1.0,0.9
2025-08-14T2300,1904A,104.3553,31.1091,德阳市,耐火材料厂,颗粒物(PM10),55,59,46,29,25,70,,146,130,34,18,1,4,0.7,0.6
2025-08-14T2300,3639A,104.4019,31.1244,德阳市,市教育局,,43,43,41,27,22,87,,144,130,25,13,4,7,1.0,0.9
2025-08-14T2300,1622A,116.3032,37.4674,德州市,儿童乐园,颗粒物(PM10),52,53,46,34,29,144,,194,187,16,10,11,10,0.7,0.7
2025-08-14T2300,1624A,116.2991,37.4451,德州市,监理站,颗粒物(PM10),54,58,45,31,26,135,,190,184,15,11,13,12,0.4,0.3
2025-08-14T2300,3066A,116.2721,37.4379,德州市,九衢泉纯净水厂,颗粒物(PM10),58,66,49,36,32,112,,166,159,24,17,4,6,0.8,0.8
2025-08-14T2300,3371A,116.3728,37.4403,德州市,开发区人民医院,颗粒物(PM10),54,58,50,29,31,114,,182,174,27,20,12,12,1.0,0.9
2025-08-14T2300,3511A,116.5652,37.3319,德州市,陵城艺术中心,,48,48,69,22,36,134,,219,201,17,34,6,11,1.3,1.4
2025-08-14T2300,4292A,116.3525,37.4209,德州市,新河东路,"颗粒物(PM10),细颗粒物(PM2.5)",58,66,51,41,36,119,,181,171,22,24,10,10,1.0,1
2025-08-14T2300,2621A,99.7056,27.8317,迪庆藏族自治州,迪庆州站,,29,24,18,20,14,48,,70,58,9,8,6,6,0.6,0.5
2025-08-14T2300,3180A,99.7136,27.8094,迪庆藏族自治州,质量技术监督局,,22,19,17,15,12,56,,72,66,10,12,7,8,0.6,0.6
2025-08-14T2300,4257A,104.6092,35.5962,定西市,将台街,,44,44,29,22,14,72,,124,104,21,14,7,8,0.4,0.5
2025-08-14T2300,4309A,104.6159,35.5701,定西市,正龙路62号,颗粒物(PM10),51,51,34,31,20,59,,116,95,18,9,6,5,0.3,0.2
2025-08-14T2300,1389A,113.7547,23.0494,东莞市,莞城梨川,,14,6,37,3,19,44,,44,39,11,29,7,9,0.4,0.5
2025-08-14T2300,1390A,113.7944,23.0128,东莞市,东城石井,,13,6,31,3,16,40,,38,30,12,29,2,3,0.6,0.6
2025-08-14T2300,1391A,113.7383,22.9658,东莞市,南城西平,,15,10,30,3,13,28,,36,34,30,28,5,6,0.5,0.7
2025-08-14T2300,3319A,113.7338,23.0381,东莞市,万江金泰,,15,6,35,3,16,46,,43,38,11,30,4,6,0.8,0.9
2025-08-14T2300,3626A,113.7533,23.0202,东莞市,南城元岭,,14,6,28,3,15,42,,42,37,12,29,6,6,0.6,0.7
2025-08-14T2300,3627A,113.7875,23.0457,东莞市,东城主山,,12,7,37,3,16,38,,38,32,11,28,4,6,0.3,0.4
2025-08-14T2300,1666A,118.6614,37.4309,东营市,市环保局,,27,27,44,17,29,60,,170,130,19,19,10,12,0.5,0.5
2025-08-14T2300,3036A,118.6904,37.4338,东营市,开发区管委会,,,30,50,,28,63,,174,133,18,19,7,8,0.3,0.4
2025-08-14T2300,3365A,118.5719,37.565,东营市,垦利区民丰路,,39,39,50,17,28,87,,178,134,20,17,10,11,0.8,0.9
2025-08-14T2300,3498A,118.5055,37.8612,东营市,河口城区,,41,29,42,12,23,130,,177,154,10,14,3,6,0.9,1
2025-08-14T2300,3646A,118.4978,37.4623,东营市,胜利站,,40,40,52,24,29,72,,179,129,24,24,4,5,0.6,0.7
2025-08-14T2300,3734A,118.35,37.26,东营市,理想之城,,44,44,49,19,29,55,,171,120,30,24,3,6,0.6,0.6
2025-08-14T2300,1591A,110.0023,39.8129,鄂尔多斯市,综合楼,,48,48,43,17,16,115,,150,137,22,17,10,9,0.7,0.6
2025-08-14T2300,1592A,109.9486,39.8261,鄂尔多斯市,巴音孟克林场办事处,颗粒物(PM10),57,63,49,17,13,122,,163,148,19,15,6,6,0.5,0.5
2025-08-14T2300,1593A,109.7736,39.5986,鄂尔多斯市,康泽苑,,48,48,48,14,13,101,,150,136,21,17,4,4,0.5,0.4
2025-08-14T2300,1594A,109.8119,39.5989,鄂尔多斯市,华泰汽车城,颗粒物(PM10),58,66,47,24,17,94,,143,132,25,22,8,6,0.4,0.5
2025-08-14T2300,1595A,109.9734,39.7884,鄂尔多斯市,奥林花园,颗粒物(PM10),52,53,48,22,18,100,,151,134,27,24,8,8,0.7,0.5
2025-08-14T2300,2436A,114.8938,30.3994,鄂州市,市政府,,22,22,19,8,4,55,,94,75,17,12,5,4,0.4,0.4
2025-08-14T2300,2437A,114.8989,30.3714,鄂州市,赵家坝,,32,32,18,7,4,46,,85,63,16,13,6,6,0.7,0.6
2025-08-14T2300,3654A,114.8094,30.4089,鄂州市,精准医疗中心,,24,24,20,3,4,61,,89,73,8,10,3,6,0.6,0.7
2025-08-14T2300,2454A,109.4978,30.2981,恩施土家族苗族自治州,湖北民院,,33,,18,23,9,79,,84,72,10,10,5,5,0.4,0.5
2025-08-14T2300,2455A,109.4707,30.2798,恩施土家族苗族自治州,州电力总公司,,17,14,17,9,8,53,,74,63,5,9,3,3,0.3,0.4
2025-08-14T2300,3549A,109.5061,30.3772,恩施土家族苗族自治州,龙凤新区,,21,20,14,13,6,67,,84,70,2,4,4,4,0.3,0.4
2025-08-14T2300,2499A,108.3411,21.6158,防城港市,沙万,,38,38,34,22,17,73,,88,88,30,20,3,5,0.4,0.4
2025-08-14T2300,2500A,108.3514,21.7731,防城港市,防城档案局,,25,25,31,16,15,62,,72,72,10,11,3,3,0.3,0.4
2025-08-14T2300,2501A,108.3506,21.6414,防城港市,大海花园,,30,,31,21,15,90,,101,101,17,14,5,9,0.5,0.5
2025-08-14T2300,1371A,113.1294,23.0067,佛山市,湾梁,,12,,30,8,21,33,,47,35,24,30,5,8,0.4,0.5
2025-08-14T2300,1372A,113.1083,23.0478,佛山市,华材职中,,13,,31,7,22,40,,52,36,14,25,3,5,0.5,0.5
2025-08-14T2300,1373A,113.144,23.0453,佛山市,南海气象局,,15,,30,10,21,33,,45,31,18,24,4,7,0.7,0.7
2025-08-14T2300,1374A,113.2881,22.8094,佛山市,顺德苏岗,,12,,26,3,12,36,,39,39,18,20,5,5,0.4,0.5
2025-08-14T2300,1376A,112.8383,22.8678,佛山市,高明孔堂,,17,,27,8,14,53,,61,48,9,15,6,8,0.6,0.7
2025-08-14T2300,1377A,112.8836,23.1588,佛山市,三水监测站,,10,,30,6,16,31,,61,38,18,31,1,4,0.5,0.6
2025-08-14T2300,1378A,112.867,23.185,佛山市,三水云东海,,13,12,33,3,21,31,,65,36,26,32,2,5,0.7,0.7
2025-08-14T2300,3625A,113.2544,22.7642,佛山市,容桂街道办,,14,,18,7,17,43,,43,43,14,22,5,7,0.6,0.7
2025-08-14T2300,1280A,119.3903,26.0543,福州市,鼓山,,,,,,,,,,,,,,,,
2025-08-14T2300,1282A,119.2681,26.0504,福州市,师大,,6,6,22,3,5,18,,59,35,3,6,4,5,0.1,0.2
2025-08-14T2300,1283A,119.2984,26.1028,福州市,五四北路,,13,13,15,3,4,19,,54,33,9,7,4,4,0.2,0.2
2025-08-14T2300,1284A,119.2648,26.0768,福州市,杨桥西路,,12,12,19,3,4,19,,62,35,5,6,3,3,0.2,0.2
2025-08-14T2300,1285A,119.317,26.0746,福州市,紫阳,,8,8,19,3,4,21,,54,34,3,6,4,4,0.1,0.1
2025-08-14T2300,3048A,119.5799,26.0936,福州市,九龙,,12,12,22,3,4,26,,49,38,3,4,4,4,0.1,0.1
2025-08-14T2300,3526A,119.5189,25.9664,福州市,吴航,,12,12,23,3,7,26,,52,36,2,3,5,5,0.2,0.2
2025-08-14T2300,1755A,123.7977,41.8491,抚顺市,望花区,,47,47,43,26,22,53,,152,118,35,20,15,13,1.0,0.8
2025-08-14T2300,1756A,123.9161,41.8822,抚顺市,顺城区,,43,43,46,29,23,8,,145,95,58,24,6,8,1.0,1.2
2025-08-14T2300,1757A,124.0436,41.8611,抚顺市,东洲区,,27,27,32,18,21,58,,138,107,8,10,11,10,0.7,1
2025-08-14T2300,1758A,123.9247,41.8642,抚顺市,新抚区,颗粒物(PM10),65,79,45,33,21,16,,146,100,40,17,5,7,0.9,1
2025-08-14T2300,1759A,124.0972,41.8961,抚顺市,大伙房水库,,25,20,30,17,17,40,,135,103,21,13,7,10,0.6,0.9
2025-08-14T2300,1760A,123.7086,41.8391,抚顺市,沈抚新城,,36,36,37,22,20,67,,147,102,30,25,9,10,0.8,0.9
2025-08-14T2300,2376A,116.2127,28.0814,抚州市,桐源党溪,,24,24,25,9,11,8,,49,32,16,5,4,5,0.5,0.6
2025-08-14T2300,2377A,116.3544,27.9831,抚州市,市站,,16,15,20,11,6,35,,55,46,4,4,3,3,0.3,0.3
2025-08-14T2300,2378A,116.3565,27.963,抚州市,血防站,,25,25,20,10,8,30,,53,43,7,6,6,7,0.2,0.3
2025-08-14T2300,2379A,116.3564,28.0007,抚州市,采茶剧团,,18,18,21,3,8,29,,50,41,3,3,3,5,0.2,0.3
2025-08-14T2300,2380A,116.385,27.9647,抚州市,医学分院,,22,22,23,10,7,31,,53,42,2,3,5,5,0.4,0.4
2025-08-14T2300,2207A,121.6094,41.998,阜新市,工业园区,,36,36,29,10,11,103,,127,120,15,19,12,7,0.7,0.6
2025-08-14T2300,2208A,121.6697,42.0279,阜新市,长青街,,48,48,33,22,17,103,,121,114,14,16,9,8,0.7,0.5
2025-08-14T2300,2209A,121.6673,42.0705,阜新市,农业园区,颗粒物(PM10),54,58,28,22,10,113,,117,115,11,10,7,6,0.8,0.6
2025-08-14T2300,2210A,121.6717,42.0224,阜新市,东苑,,50,50,37,21,15,122,,121,116,11,18,11,16,0.6,0.5
2025-08-14T2300,2211A,121.6506,42.0498,阜新市,玉龙新城,,46,46,27,17,11,95,,117,109,12,18,10,9,0.8,0.6
2025-08-14T2300,2301A,115.8277,32.8929,阜阳市,市监测站,,32,29,34,22,21,63,,115,98,15,20,4,3,0.5,0.6
2025-08-14T2300,2303A,115.8554,32.8605,阜阳市,开发区,,,39,37,17,26,,,123,,15,18,5,5,0.3,0.4
2025-08-14T2300,2875A,115.784,32.8892,阜阳市,阜阳职业技术学院,,27,27,36,12,18,75,,133,114,12,16,4,5,0.3,0.4
2025-08-14T2300,3468A,115.7901,32.8613,阜阳市,市规划展馆,,24,24,40,11,23,70,,131,110,10,12,2,2,0.4,0.5
2025-08-14T2300,3469A,115.836,32.9183,阜阳市,枣园社区,,26,26,40,12,27,61,,118,100,13,20,2,3,0.5,0.5
2025-08-14T2300,2669A,102.9099,34.9841,甘南藏族自治州,州政府,颗粒物(PM10),52,54,32,26,16,7,,97,72,51,14,4,4,0.3,0.3
2025-08-14T2300,3380A,102.8914,34.9617,甘南藏族自治州,甘肃民族师范学院,颗粒物(PM10),73,96,47,28,19,1,,109,76,48,17,4,4,0.2,0.2
2025-08-14T2300,2570A,101.9603,30.0475,甘孜藏族自治州,水桥子,,22,22,23,12,9,50,,86,78,28,20,5,6,0.5,0.5
2025-08-14T2300,3065A,101.9533,29.9972,甘孜藏族自治州,州环保局,,24,24,20,3,5,15,,96,74,48,18,4,4,0.5,0.5
2025-08-14T2300,3414A,115.8347,28.932,赣江新区,桑海产业园,,14,14,18,3,7,28,,77,56,24,8,4,5,0.3,0.4
2025-08-14T2300,2362A,114.9017,25.9149,赣州市,通天岩,,12,8,18,6,14,37,,46,44,3,4,14,15,0.6,0.7
2025-08-14T2300,2363A,114.9367,25.8664,赣州市,地委,,12,12,21,3,11,37,,48,46,6,6,5,6,0.4,0.6
2025-08-14T2300,2364A,114.9461,25.8481,赣州市,气象台,,12,12,19,3,7,34,,46,43,6,5,7,8,0.4,0.5
2025-08-14T2300,2365A,114.9322,25.8333,赣州市,市图书馆,,11,,15,7,11,35,,44,42,4,4,3,4,0.4,0.5
2025-08-14T2300,2366A,114.8905,25.8471,赣州市,华坚鞋城,,13,12,18,9,17,38,,42,42,8,11,4,5,0.3,0.4
2025-08-14T2300,3109A,115.0093,25.8613,赣州市,赣县区卫计委,,12,,10,7,7,36,,44,43,4,4,6,5,0.3,0.3
2025-08-14T2300,2683A,106.2319,36.1417,固原市,马园,,,,,,,,,,,,,,,,
2025-08-14T2300,2684A,106.2792,36.0022,固原市,监测站,,39,39,25,12,10,108,,130,121,19,11,7,6,0.4,0.3
2025-08-14T2300,2685A,106.2375,36.0211,固原市,新区,,38,37,29,24,12,119,,122,119,11,11,7,7,0.5,0.4
2025-08-14T2300,3522A,106.2177,35.9959,固原市,原州区十五小,,40,40,30,18,14,124,,125,125,8,7,8,8,0.4,0.3
2025-08-14T2300,2543A,106.6308,30.5278,广安市,小平旧居,,,,,,,,,,,,,,,,
2025-08-14T2300,2544A,106.6303,30.4576,广安市,市委,,40,40,30,26,20,62,,130,112,24,15,6,5,0.5,0.4
2025-08-14T2300,2545A,106.6271,30.4663,广安市,友谊中学,,,37,27,20,15,,,136,131,15,13,3,5,0.5,0.7
2025-08-14T2300,2547A,106.6388,30.4551,广安市,广电花园,颗粒物(PM10),55,59,40,24,16,61,,124,107,17,12,3,3,0.5,0.5
2025-08-14T2300,2902A,106.6351,30.4865,广安市,北辰小学,,40,40,36,22,16,66,,130,110,13,10,6,6,0.7,0.7
2025-08-14T2300,2523A,105.8945,32.4535,广元市,黑石坡,细颗粒物(PM2.5),54,,32,38,16,41,,120,78,21,16,7,9,0.4,0.4
2025-08-14T2300,2524A,105.821,32.4444,广元市,老城,,19,17,14,3,6,27,,150,83,37,25,3,5,0.6,0.7
2025-08-14T2300,2526A,105.8628,32.4287,广元市,监测站,,26,24,20,18,10,48,,133,90,20,15,6,6,0.9,0.8
2025-08-14T2300,3617A,105.8047,32.4166,广元市,经开区,,32,32,38,20,21,27,,133,78,38,26,4,10,0.7,0.8
2025-08-14T2300,1345A,113.2347,23.1423,广州市,广雅中学,,12,9,36,3,20,38,,42,30,19,34,2,4,0.3,0.4
2025-08-14T2300,1346A,113.2612,23.105,广州市,市五中,,11,7,37,3,20,34,,45,32,21,29,4,6,0.3,0.4
2025-08-14T2300,1348A,113.3478,23.0916,广州市,广东商学院,,11,6,36,3,19,32,,51,29,22,30,4,5,0.5,0.5
2025-08-14T2300,1349A,113.4332,23.1047,广州市,市八十六中,,18,7,30,3,17,21,,25,24,35,42,2,4,0.3,0.4
2025-08-14T2300,1350A,113.3505,22.9483,广州市,番禺中学,,14,6,32,3,19,43,,43,35,12,23,5,6,0.4,0.5
2025-08-14T2300,1351A,113.2146,23.3916,广州市,花都师范,,27,27,25,13,15,29,,59,38,32,20,4,6,0.6,0.6
2025-08-14T2300,1352A,113.2597,23.1331,广州市,市监测站,,12,,36,7,20,37,,44,28,17,29,5,7,0.3,0.3
2025-08-14T2300,1353A,113.5618,23.312,广州市,九龙镇镇龙,,16,6,32,3,18,51,,43,43,11,27,6,7,0.4,0.5
2025-08-14T2300,1354A,113.2765,23.1544,广州市,麓湖,,,7,30,,26,38,,40,28,18,31,3,4,0.4,0.5
2025-08-14T2300,1355A,113.443,23.3035,广州市,帽峰山森林公园,,17,,20,8,11,53,,50,50,7,16,10,11,0.4,0.5
2025-08-14T2300,2846A,113.3221,23.1322,广州市,体育西,,12,9,38,3,21,34,,46,31,24,33,2,4,0.5,0.6
2025-08-14T2300,3298A,113.5717,23.5491,广州市,从化街口,,16,6,27,3,16,49,,53,48,10,19,6,8,0.5,0.6
2025-08-14T2300,3299A,113.3472,23.3692,广州市,白云竹料,,12,6,31,3,18,37,,44,34,19,31,4,5,0.5,0.6
2025-08-14T2300,3300A,113.2981,23.237,广州市,白云嘉禾,,16,15,34,11,20,29,,47,33,26,30,4,6,0.4,0.5
2025-08-14T2300,3301A,113.4256,23.1716,广州市,黄埔科学城,,11,7,34,3,20,32,,42,,22,26,4,7,0.5,0.5
2025-08-14T2300,3302A,113.3942,23.0483,广州市,番禺大学城,,13,11,26,3,24,41,,43,30,17,33,8,10,0.4,0.5
2025-08-14T2300,3303A,113.4922,22.8168,广州市,南沙黄阁,,15,6,29,3,14,47,,41,41,12,28,4,8,0.4,0.4
2025-08-14T2300,3304A,113.5342,22.7896,广州市,南沙街,,17,6,27,3,14,53,,42,42,8,21,5,7,0.5,0.5
2025-08-14T2300,3443A,113.2902,23.5544,广州市,花都梯面,,13,6,19,3,12,41,,54,48,17,20,5,6,0.4,0.5
2025-08-14T2300,3445A,113.7858,23.7478,广州市,从化良口,,13,6,18,3,12,41,,52,52,10,8,4,4,0.5,0.6
2025-08-14T2300,3446A,113.8051,23.2614,广州市,增城荔城,,13,7,26,3,17,41,,41,40,11,16,7,7,0.3,0.4
2025-08-14T2300,2505A,109.568,23.1478,贵港市,德智高中,,,,,,,,,,,,,,,,
2025-08-14T2300,2506A,109.6047,23.0666,贵港市,江南子站,,46,46,36,26,23,40,,95,54,17,16,7,8,0.6,0.6
2025-08-14T2300,2508A,109.5669,23.1065,贵港市,荷城子站,,20,19,29,14,18,50,,101,59,9,13,6,7,0.6,0.6
2025-08-14T2300,3405A,109.5886,23.1172,贵港市,新世纪学校,,19,,32,13,22,53,,97,62,18,16,46,7,0.4,0.7
2025-08-14T2300,4260A,109.5933,23.0951,贵港市,中山路155-3号,,28,28,43,15,23,54,,106,66,10,14,4,4,0.6,0.6
2025-08-14T2300,1439A,106.6899,26.5998,贵阳市,马鞍山,,19,19,22,7,7,37,,95,78,13,10,4,4,0.3,0.3
2025-08-14T2300,1441A,106.6243,26.6266,贵阳市,鉴湖路,,34,34,39,7,13,50,,87,75,9,13,5,7,0.3,0.3
2025-08-14T2300,1442A,106.7487,26.6343,贵阳市,燕子冲,,20,,24,12,21,63,,98,86,9,14,3,3,0.2,0.2
2025-08-14T2300,1443A,106.6555,26.4365,贵阳市,碧云窝,,27,27,42,9,18,68,,109,93,12,15,4,5,0.2,0.3
2025-08-14T2300,1445A,106.7109,26.6027,贵阳市,红边门,,20,19,29,12,19,63,,98,87,11,16,3,3,0.3,0.4
2025-08-14T2300,1446A,106.7164,26.5699,贵阳市,新华路,,25,19,29,17,19,64,,86,81,10,16,2,8,0.3,0.2
2025-08-14T2300,1447A,106.674,26.5424,贵阳市,太慈桥,,23,14,24,9,14,72,,103,96,11,15,4,4,0.2,0.2
2025-08-14T2300,1552A,106.805,26.3003,贵阳市,桐木岭,,29,29,30,19,17,51,,91,83,7,7,3,4,0.9,0.9
2025-08-14T2300,4230A,106.6882,26.5695,贵阳市,花果园大街66号,,26,,19,18,23,67,,98,92,11,15,4,4,0.4,0.4
2025-08-14T2300,4231A,106.6873,26.5169,贵阳市,漓江路57号,,23,14,28,7,18,72,,107,97,6,16,3,4,0.5,0.5
2025-08-14T2300,1862A,110.4144,25.3167,桂林市,电子科大尧山校区,,,,,,,,,,,,,,,,
2025-08-14T2300,1864A,110.3089,25.2708,桂林市,龙隐路小学,,21,21,26,12,20,40,,76,56,7,7,5,5,0.3,0.3
2025-08-14T2300,1865A,110.2869,25.2178,桂林市,八中,,22,22,27,14,17,40,,79,57,9,9,6,6,0.7,0.7
2025-08-14T2300,3531A,110.296,25.1253,桂林市,旅游学院,,13,,24,9,20,39,,82,58,6,8,2,4,0.4,0.5
2025-08-14T2300,4222A,110.1835,25.2444,桂林市,环湖路276号,,15,9,30,3,19,46,,72,52,3,7,6,17,0.3,0.4
2025-08-14T2300,4301A,110.2803,25.2773,桂林市,信义路13号,,,22,31,,19,40,,82,56,11,9,5,6,0.7,0.7
2025-08-14T2300,2674A,100.2561,34.4714,果洛藏族自治州,玛沁县大武镇,,47,47,32,15,14,55,,126,106,22,6,16,15,0.2,0.3
2025-08-14T2300,1129A,126.5422,45.755,哈尔滨市,岭北,,30,8,8,3,5,96,,100,98,9,8,11,11,0.6,0.6
2025-08-14T2300,1130A,126.561,45.8167,哈尔滨市,松北商大,,21,10,14,3,5,66,,75,65,7,8,5,7,0.4,0.4
2025-08-14T2300,1131A,126.979,45.5419,哈尔滨市,阿城会宁,,21,12,15,6,9,67,,92,78,11,8,6,6,0.5,0.5
2025-08-14T2300,1132A,126.599,45.7222,哈尔滨市,南岗学府路,,22,22,20,3,4,68,,83,76,11,9,6,5,0.6,0.6
2025-08-14T2300,1133A,126.689,45.7733,哈尔滨市,太平宏伟公园,,,,20,6,8,,,83,78,12,8,7,7,0.4,0.4
2025-08-14T2300,1134A,126.635,45.7667,哈尔滨市,道外承德广场,,42,42,28,10,9,56,,81,71,20,16,8,7,0.4,0.3
2025-08-14T2300,1135A,126.685,45.7319,哈尔滨市,香坊红旗大街,,18,14,15,9,1,56,,82,69,21,15,8,8,0.5,0.5
2025-08-14T2300,1136A,126.6411,45.7258,哈尔滨市,动力和平路,,23,19,15,3,2,73,,89,80,13,10,6,6,0.4,0.5
2025-08-14T2300,1137A,126.593,45.7478,哈尔滨市,道里建国路,,,14,16,6,10,70,,86,75,12,12,6,7,,0.2
2025-08-14T2300,1138A,126.615,45.61,哈尔滨市,平房东轻厂,,17,16,19,3,8,53,,76,62,22,13,9,7,0.4,0.4
2025-08-14T2300,1139A,126.595,45.9855,哈尔滨市,呼兰师专,,20,8,17,3,2,62,,83,65,8,7,6,8,0.5,0.5
2025-08-14T2300,1140A,126.6206,45.6842,哈尔滨市,省农科院,,25,25,29,3,7,47,,71,56,22,17,9,8,0.4,0.4
2025-08-14T2300,2688A,93.5128,42.8172,哈密市,地区监测站,细颗粒物(PM2.5),109,,57,82,28,33,,122,106,66,18,,4,0.7,0.2
2025-08-14T2300,2689A,93.4961,42.8328,哈密市,哈密师范学校,颗粒物(PM10),59,67,53,28,18,46,,114,91,46,21,4,5,0.7,0.1
2025-08-14T2300,2671A,100.9048,36.9639,海北藏族自治州,海晏县西海镇,,29,29,23,14,15,74,,125,101,10,5,4,10,0.5,0.4
2025-08-14T2300,3867A,102.0738,36.5056,海东市,平安区公安北苑,,38,38,32,8,12,113,,131,126,5,7,12,9,0.5,0.6
2025-08-14T2300,1409A,110.576,19.9507,海口市,东寨港,,20,19,18,14,8,29,,60,41,5,5,5,4,0.4,0.4
2025-08-14T2300,1410A,110.3232,20.0574,海口市,海南大学,,20,20,15,11,8,51,,70,62,7,8,3,3,0.4,0.3
2025-08-14T2300,1411A,110.283,20.0053,海口市,秀英海南医院,,22,22,20,11,8,43,,62,52,11,10,6,6,0.3,0.2
2025-08-14T2300,1412A,110.338,19.9969,海口市,海南师范大学,,21,21,19,11,8,48,,70,56,8,10,4,4,0.3,0.3
2025-08-14T2300,1413A,110.33,20.0356,海口市,龙华路环保局宿舍,,22,22,19,8,7,51,,69,59,7,8,5,5,0.4,0.4
2025-08-14T2300,3539A,110.5111,19.9736,海口市,桂林洋子站,,29,29,20,13,8,36,,69,47,13,11,6,5,0.3,0.3
2025-08-14T2300,2673A,100.6188,36.2866,海南藏族自治州,共和县恰卜恰镇,,43,43,30,8,10,116,,138,137,12,6,20,14,0.5,0.4
2025-08-14T2300,2676A,97.3731,37.3753,海西蒙古族藏族自治州,德令哈市,,41,16,35,9,13,130,,144,142,3,3,14,14,0.3,0.4
2025-08-14T2300,1048A,114.5302,36.6116,邯郸市,东污水处理厂,,43,40,36,30,24,125,,147,138,5,10,6,7,0.5,0.4
2025-08-14T2300,1049A,114.4918,36.5713,邯郸市,矿院,,36,36,28,17,12,111,,149,135,8,10,3,7,0.5,0.5
2025-08-14T2300,1050A,114.484,36.6133,邯郸市,丛台公园,,42,34,32,29,23,111,,153,140,10,11,3,4,0.5,0.4
2025-08-14T2300,3458A,114.7895,36.5593,邯郸市,香泉濮院小区,颗粒物(PM10),67,83,48,13,7,105,,143,132,10,11,2,3,0.6,0.4
2025-08-14T2300,3579A,114.50634,36.77178,邯郸市,永年区实验高中,颗粒物(PM10),55,60,65,38,40,122,,155,140,11,15,3,4,0.4,0.5
2025-08-14T2300,3580A,114.20016,36.44293,邯郸市,峰峰矿区临水派出所,,45,45,48,10,8,124,,174,146,6,5,2,4,0.4,0.4
2025-08-14T2300,2634A,106.9893,33.1842,汉中市,汉川机床厂子校,,33,21,29,14,15,105,,122,113,6,13,3,3,0.5,0.5
2025-08-14T2300,2635A,107.0154,33.0706,汉中市,市监测站,细颗粒物(PM2.5),72,64,37,52,20,53,,113,99,12,11,6,6,0.7,0.6
2025-08-14T2300,2636A,107.0089,33.1138,汉中市,鑫源开发区,,37,37,31,23,15,60,,114,96,14,11,6,6,0.5,0.5
2025-08-14T2300,2637A,107.007,33.0323,汉中市,南郑大河坎水厂,颗粒物(PM10),56,62,35,35,18,40,,108,86,13,11,7,7,0.6,0.5
2025-08-14T2300,1223A,120.2072,30.2111,杭州市,滨江,,17,17,14,10,6,35,,64,54,11,10,7,7,0.3,0.3
2025-08-14T2300,1224A,120.0633,30.2747,杭州市,西溪,,15,15,13,9,7,40,,72,63,10,8,10,12,0.3,0.3
2025-08-14T2300,1226A,120.3417,30.3150,杭州市,下沙,,16,16,15,7,6,29,,72,57,17,13,6,6,0.2,0.2
2025-08-14T2300,1227A,120.1269,30.2456,杭州市,卧龙桥,,17,17,14,8,7,37,,68,57,6,5,7,7,0.4,0.4
2025-08-14T2300,1228A,120.1903,30.2692,杭州市,浙江农大,,12,12,14,8,6,33,,62,52,7,7,6,6,0.4,0.3
2025-08-14T2300,1230A,120.1197,30.3119,杭州市,和睦小学,,18,18,14,8,8,38,,74,62,8,8,6,6,0.3,0.3
2025-08-14T2300,1231A,120.3019,30.4183,杭州市,临平镇,,,24,20,15,10,23,,79,64,7,9,6,6,,0.2
2025-08-14T2300,1232A,120.2753,30.1839,杭州市,城厢镇,,48,48,37,10,6,34,,64,55,6,5,6,6,0.3,0.4
2025-08-14T2300,1233A,120.0883,30.1808,杭州市,云栖,,18,18,15,11,7,43,,74,53,12,13,9,9,0.5,0.6
2025-08-14T2300,3557A,119.9464,30.0494,杭州市,镇二中,,14,14,18,9,10,38,,71,52,9,10,4,4,0.3,0.3
2025-08-14T2300,3558A,119.7183,30.2367,杭州市,市府大楼,,33,33,18,17,9,35,,86,73,23,11,8,8,0.3,0.3
2025-08-14T2300,3656A,120.1556,30.2864,杭州市,消防大队,,48,48,33,10,8,37,,72,60,9,8,7,7,0.5,0.4
2025-08-14T2300,1270A,117.1959,31.7848,合肥市,明珠广场,,20,14,22,9,15,61,,103,86,16,13,8,6,0.5,0.6
2025-08-14T2300,1271A,117.3072,31.8764,合肥市,三里街,,22,22,22,9,14,45,,93,72,22,12,8,6,0.5,0.5
2025-08-14T2300,1272A,117.2588,31.8707,合肥市,琥珀山庄,,29,29,27,9,14,59,,108,87,21,12,10,8,0.5,0.6
2025-08-14T2300,1273A,117.1604,31.9052,合肥市,董铺水库,,32,27,28,22,20,51,,84,67,16,7,5,5,0.2,0.3
2025-08-14T2300,1274A,117.25,31.8571,合肥市,长江中路,,31,31,28,8,14,56,,103,83,20,12,8,7,0.4,0.6
2025-08-14T2300,1275A,117.266,31.9436,合肥市,庐阳区,,34,34,30,7,13,46,,110,82,31,15,6,6,0.5,0.6
2025-08-14T2300,1276A,117.3453,31.8616,合肥市,瑶海区,,29,29,26,17,13,38,,102,73,34,15,7,6,0.6,0.7
2025-08-14T2300,1277A,117.3027,31.7964,合肥市,包河区,,18,17,26,7,15,57,,95,78,16,21,7,6,0.5,0.6
2025-08-14T2300,1278A,117.2776,31.7385,合肥市,滨湖新区,,18,17,25,9,19,57,,119,85,9,9,8,8,0.4,0.6
2025-08-14T2300,1279A,117.1318,31.8403,合肥市,高新区,,20,19,25,9,15,64,,102,83,17,14,7,6,0.4,0.6
2025-08-14T2300,3464A,117.3803,31.9147,合肥市,高教基地,,,17,22,,10,47,,98,71,20,10,5,5,0.6,0.6
2025-08-14T2300,3614A,79.924,37.0877,和田地区,地区环保局,颗粒物(PM10),245,381,544,110,142,,,110,105,28,7,2,2,0.4,0.3
2025-08-14T2300,3615A,79.9131,37.113,和田地区,市环保局,颗粒物(PM10),200,350,462,115,130,37,,106,89,56,16,2,1,0.6,0.1
2025-08-14T2300,2516A,108.2011,24.715,河池市,东仁乐园,,,,,,,,,,,,,,,,
2025-08-14T2300,2517A,108.0497,24.6947,河池市,市环保站,,32,32,26,14,14,24,,72,43,12,10,4,4,0.6,0.6
2025-08-14T2300,2518A,108.0983,24.6989,河池市,市疾控中心,,23,20,27,16,16,25,,70,42,13,16,5,6,0.6,0.6
2025-08-14T2300,1696A,114.6778,23.7569,河源市,源西,,16,16,13,3,7,17,,51,30,8,4,5,5,0.6,0.7
2025-08-14T2300,1697A,114.6944,23.7586,河源市,东埔,,9,8,14,6,12,22,,59,39,15,8,5,4,0.5,0.4
2025-08-14T2300,1698A,114.6892,23.7233,河源市,老城,,20,20,15,3,5,15,,60,36,18,6,5,5,0.5,0.5
2025-08-14T2300,1718A,115.4208,35.2464,菏泽市,气象局,,24,18,35,13,22,75,,123,109,11,12,4,3,0.5,0.4
2025-08-14T2300,3374A,115.5564,35.0891,菏泽市,定陶老年大学,,25,24,29,17,17,63,,104,91,12,12,7,5,0.5,0.4
2025-08-14T2300,4184A,115.4797,35.24401,菏泽市,永昌路1号,,28,25,37,19,24,66,,113,100,17,18,7,7,0.2,0.3
2025-08-14T2300,4193A,115.4715,35.2800,菏泽市,长城路999号,,27,27,36,9,18,63,,124,108,22,17,7,6,0.5,0.5
2025-08-14T2300,2514A,111.5264,24.4172,贺州市,环保小区,,25,,31,17,19,38,,66,38,8,12,11,12,0.8,0.9
2025-08-14T2300,2515A,111.5608,24.4078,贺州市,政协大楼,,12,12,27,3,17,37,,66,25,7,12,11,12,0.7,0.8
2025-08-14T2300,3534A,111.4744,24.4553,贺州市,西湾,,15,15,32,10,20,33,,58,32,10,12,10,10,0.7,0.8
2025-08-14T2300,2385A,114.17,35.9019,鹤壁市,市监测站,,38,35,36,26,21,101,,132,113,8,8,4,6,0.5,0.3
2025-08-14T2300,2386A,114.2956,35.7511,鹤壁市,市交警支队,,48,,32,33,26,92,,124,104,16,18,7,9,0.4,0.7
2025-08-14T2300,2387A,114.2878,35.7306,鹤壁市,迎宾馆,,,36,41,35,24,,,127,111,8,15,4,5,0.7,0.7
2025-08-14T2300,3474A,114.2617,35.6822,鹤壁市,大新区,,28,28,39,17,20,68,,114,90,12,11,7,8,0.6,0.5
2025-08-14T2300,3596A,114.1572,35.9603,鹤壁市,南山宾馆,,34,25,39,18,21,108,,141,123,7,9,3,4,0.4,0.5
2025-08-14T2300,2244A,130.2537,47.3416,鹤岗市,哈啤分公司,,29,29,21,7,7,52,,91,73,9,6,11,11,0.7,0.7
2025-08-14T2300,2245A,130.2684,47.3086,鹤岗市,斯达机电,,43,43,26,13,9,68,,88,79,12,9,12,12,0.4,0.5
2025-08-14T2300,2246A,130.3114,47.3388,鹤岗市,东山纸板厂,,40,40,25,21,12,27,,94,66,22,14,13,13,0.6,0.7
2025-08-14T2300,2247A,130.1097,47.3382,鹤岗市,五号水库,,14,14,9,3,5,16,,86,56,12,10,8,8,0.2,0.2
2025-08-14T2300,2263A,127.4833,50.2524,黑河市,交通局,,14,14,19,7,8,33,,54,42,10,11,4,4,0.3,0.2
2025-08-14T2300,2264A,127.5144,50.2341,黑河市,环保局,,18,18,18,12,11,31,,60,43,8,9,4,5,0.2,0.3
2025-08-14T2300,2265A,127.5291,50.2472,黑河市,大黑河岛,,,,,,,34,,47,39,4,6,21,22,,
2025-08-14T2300,1074A,115.6838,37.7541,衡水市,电机北厂,颗粒物(PM10),57,63,50,24,25,115,,162,156,20,15,8,7,0.7,0.5
2025-08-14T2300,1075A,115.6303,37.7316,衡水市,市监测站,颗粒物(PM10),54,58,45,24,21,115,,159,147,20,14,7,8,0.7,0.6
2025-08-14T2300,3188A,115.6683,37.7217,衡水市,市城管局,,,55,46,26,26,,,169,,18,13,,10,0.5,0.4
2025-08-14T2300,3459A,115.5989,37.5491,衡水市,地表水厂,颗粒物(PM10),60,69,55,25,19,74,,161,132,37,19,8,9,0.4,0.4
2025-08-14T2300,2456A,112.5003,26.9167,衡阳市,原169医院,,15,10,23,3,11,46,,80,60,3,3,3,2,0.5,0.6
2025-08-14T2300,2457A,112.6194,26.9258,衡阳市,衡阳化工总厂,,14,,25,3,14,42,,76,56,4,6,4,3,0.6,0.8
2025-08-14T2300,2458A,112.6211,26.8956,衡阳市,珠晖区环保局,,15,10,24,10,16,36,,73,51,9,10,7,6,0.5,0.7
2025-08-14T2300,2459A,112.6197,26.8733,衡阳市,市委党校,,13,8,16,3,13,39,,80,55,7,7,10,9,0.3,0.4
2025-08-14T2300,2460A,112.6006,26.8919,衡阳市,市监测站,,12,8,24,6,15,37,,75,55,8,8,6,5,0.5,0.7
2025-08-14T2300,2461A,112.5664,26.9056,衡阳市,真空机电公司,,18,12,22,12,18,41,,72,56,4,4,5,4,0.7,0.8
2025-08-14T2300,3399A,112.6703,26.882,衡阳市,师范学院,,13,11,24,3,14,40,,77,54,5,6,10,8,0.7,0.8
2025-08-14T2300,2608A,103.3772,23.3993,红河哈尼族彝族自治州,污水处理厂,,,,37,,18,,,,,,12,,10,,0.3
2025-08-14T2300,2609A,103.3861,23.35,红河哈尼族彝族自治州,监测站,,41,41,37,19,18,64,,104,81,7,8,9,12,0.2,0.2
2025-08-14T2300,3038A,103.3758,23.368,红河哈尼族彝族自治州,州图书馆,,36,36,28,20,20,63,,104,83,9,8,2,6,0.4,0.3
2025-08-14T2300,1090A,111.6507,40.7517,呼和浩特市,呼市一监,颗粒物(PM10),58,66,40,31,19,53,,149,124,27,19,3,4,0.3,0.3
2025-08-14T2300,1091A,111.6572,40.8033,呼和浩特市,小召,颗粒物(PM10),69,88,42,36,19,58,,161,144,55,25,9,10,0.8,0.6
2025-08-14T2300,1094A,111.7516,40.8369,呼和浩特市,如意水处理厂,颗粒物(PM10),68,85,44,34,18,32,,167,124,86,36,6,7,0.6,0.5
2025-08-14T2300,1095A,111.7276,40.8062,呼和浩特市,二十九中,颗粒物(PM10),64,77,44,28,20,57,,171,144,50,25,7,7,0.6,0.6
2025-08-14T2300,1096A,111.5512,40.7866,呼和浩特市,工大金川校区,颗粒物(PM10),57,64,47,30,20,47,,149,122,69,32,6,7,0.8,0.6
2025-08-14T2300,1097A,111.717,40.7612,呼和浩特市,化肥厂生活区,颗粒物(PM10),69,88,43,34,18,51,,163,138,50,23,6,7,0.7,0.7
2025-08-14T2300,3698A,111.5968,40.8178,呼和浩特市,红旗小学,颗粒物(PM10),64,78,47,23,19,38,,169,141,88,30,5,6,0.6,0.4
2025-08-14T2300,3699A,111.6518,40.8389,呼和浩特市,海东办,颗粒物(PM10),62,73,51,27,19,80,,171,141,48,36,6,7,0.6,0.6
2025-08-14T2300,2192A,119.7594,49.2261,呼伦贝尔市,区环保局,,22,17,21,15,16,39,,66,61,21,9,5,5,0.5,0.5
2025-08-14T2300,3061A,119.7512,49.1577,呼伦贝尔市,国华电力东,,22,22,17,6,8,32,,75,64,10,5,9,8,0.6,0.5
2025-08-14T2300,1250A,120.0751,30.8669,湖州市,城西水厂,,28,28,24,12,10,33,,100,82,14,6,7,7,0.3,0.3
2025-08-14T2300,2873A,120.0830,30.8929,湖州市,仁皇山新区,,30,30,22,12,9,20,,93,74,17,9,5,4,0.4,0.4
2025-08-14T2300,2907A,120.1844,30.8596,湖州市,吴兴区站,,25,25,23,11,9,18,,91,70,14,9,7,7,0.5,0.5
2025-08-14T2300,3562A,120.4148,30.8538,湖州市,南浔区站,,24,24,20,11,8,19,,86,65,13,7,5,5,0.7,0.7
2025-08-14T2300,1607A,120.9049,40.7211,葫芦岛市,龙港区,颗粒物(PM10),67,83,57,30,35,142,,147,143,6,18,5,23,0.6,0.9
2025-08-14T2300,1608A,120.8392,40.7514,葫芦岛市,化工街,,41,24,47,19,30,131,,,,8,16,5,16,0.2,0.7
2025-08-14T2300,1609A,120.8341,40.7073,葫芦岛市,新区,,45,45,38,28,32,143,,151,141,4,17,3,7,0.7,0.9
2025-08-14T2300,1610A,120.8695,40.7677,葫芦岛市,东城区,,41,30,37,28,34,131,,142,132,8,20,3,8,0.7,0.9
2025-08-14T2300,2482A,109.5981,27.5721,怀化市,林科所,,16,16,21,3,5,37,,59,56,3,3,4,4,0.6,0.7
2025-08-14T2300,2483A,109.9453,27.5444,怀化市,河西地税局,,,,18,12,10,94,,54,,10,5,12,3,,0.2
2025-08-14T2300,2484A,109.9781,27.5342,怀化市,市四医院,细颗粒物(PM2.5),69,,19,50,15,48,,63,57,2,2,3,4,0.4,0.4
2025-08-14T2300,2485A,109.9972,27.5578,怀化市,监测楼,,14,,18,9,13,44,,58,53,6,5,2,3,0.3,0.2
2025-08-14T2300,2486A,110.0394,27.583,怀化市,市委党校,,16,,16,11,9,36,,52,46,6,3,6,6,0.2,0.2
2025-08-14T2300,1210A,119.036,33.5981,淮安市,钵池山,,19,14,23,13,17,37,,94,72,17,13,8,8,0.5,0.6
2025-08-14T2300,1211A,119.007,33.575,淮安市,北京南路,,27,27,30,9,14,46,,95,71,10,12,7,6,0.5,0.7
2025-08-14T2300,1212A,118.989,33.6067,淮安市,市监测站,,22,22,32,14,22,53,,100,78,9,11,8,8,0.5,0.6
2025-08-14T2300,1213A,119.135,33.5039,淮安市,楚州区监测站,,27,27,37,12,15,43,,90,66,10,12,7,7,0.2,0.4
2025-08-14T2300,3426A,118.8755,33.2894,淮安市,新华书店,,16,16,25,7,14,51,,110,86,9,13,5,6,0.5,0.5
2025-08-14T2300,4206A,119.0288,33.6319,淮安市,承德北路606号,,27,27,37,12,19,43,,89,67,10,12,5,5,0.3,0.4
2025-08-14T2300,2282A,116.8004,33.975,淮北市,监测站,,32,32,21,10,11,73,,97,90,10,11,7,7,0.7,0.8
2025-08-14T2300,2283A,116.8091,33.9007,淮北市,烈山区政府,,,36,26,8,8,,,95,94,6,7,7,7,0.5,0.5
2025-08-14T2300,3330A,116.8873,33.9836,淮北市,杜集区检察院,,28,28,21,12,15,78,,93,89,8,8,8,8,0.6,0.6
2025-08-14T2300,4017A,116.7923,33.9535,淮北市,市博物馆,,27,27,20,12,12,80,,100,95,9,9,8,8,0.6,0.6
2025-08-14T2300,2277A,116.8305,32.7727,淮南市,潘集区政府,,28,28,32,15,14,57,,101,68,11,12,2,2,0.2,0.3
2025-08-14T2300,2279A,116.8569,32.5951,淮南市,谢家集区政府,,22,18,30,3,12,68,,95,78,8,10,10,7,0.3,0.3
2025-08-14T2300,2280A,116.8281,32.633,淮南市,八公山区政府,,21,21,24,9,16,64,,101,77,10,9,8,8,0.3,0.4
2025-08-14T2300,2281A,116.6325,32.6201,淮南市,焦岗湖风景区管理处,,,,,,,,,,,,,,,,
2025-08-14T2300,2894A,117.0566,32.6531,淮南市,经济技术开发区消防队,,22,16,22,3,7,68,,104,88,17,12,8,8,0.2,0.3
2025-08-14T2300,3329A,117.0108,32.5893,淮南市,山南新区,,23,8,19,7,9,71,,100,90,11,7,5,4,0.4,0.5
2025-08-14T2300,4209A,117.0031,32.6445,淮南市,国庆中路369号,,36,36,32,10,14,73,,97,90,12,10,4,3,0.4,0.5
2025-08-14T2300,2446A,114.9028,30.4742,黄冈市,职工中心,,24,18,20,11,13,74,,102,87,5,6,6,6,0.3,0.3
2025-08-14T2300,2929A,114.8858,30.4519,黄冈市,红卫路,,19,19,20,12,13,60,,100,79,9,9,8,8,0.3,0.3
2025-08-14T2300,3398A,114.9136,30.4445,黄冈市,市林业局,,22,22,21,10,10,58,,105,81,13,8,7,7,0.3,0.3
2025-08-14T2300,2672A,102.0199,35.5102,黄南藏族自治州,同仁县隆务镇,,25,25,29,8,11,75,,118,106,5,3,9,9,0.2,0.2
2025-08-14T2300,2295A,118.2903,29.6963,黄山市,延安路89号,,17,17,17,6,7,52,,64,64,6,6,4,4,0.3,0.3
2025-08-14T2300,2297A,118.1371,30.2756,黄山市,黄山区政府5号楼,,19,19,18,6,8,32,,52,43,5,3,4,4,0.5,0.4
2025-08-14T2300,4210A,118.3354,29.7203,黄山市,滨江东路7-2号,,22,22,17,3,6,45,,59,57,8,5,2,2,0.3,0.3
2025-08-14T2300,2423A,115.0601,30.2313,黄石市,沈家营,,45,45,31,8,4,39,,82,62,12,9,7,7,0.4,0.4
2025-08-14T2300,2426A,114.8988,30.2019,黄石市,铁山,,,30,25,10,6,52,,80,67,,10,8,4,0.4,0.3
2025-08-14T2300,2427A,115.0307,30.2092,黄石市,团城山,,36,36,21,6,3,71,,93,76,4,8,13,8,0.5,0.5
2025-08-14T2300,3149A,115.0235,30.1578,黄石市,笔架山北路,,26,26,18,9,3,55,,92,74,7,5,9,8,0.3,0.4
2025-08-14T2300,4185A,115.0780,30.21118,黄石市,磁湖东路29号,,38,38,31,8,8,56,,81,60,11,8,12,10,0.6,0.6
2025-08-14T2300,1392A,114.4183,23.0528,惠州市,河南岸金山湖子站,,10,10,21,3,10,28,,44,38,8,17,7,7,0.5,0.5
2025-08-14T2300,1393A,114.4053,23.0822,惠州市,下埔横江三路子站,,13,13,22,7,14,29,,48,42,6,17,4,5,0.4,0.4
2025-08-14T2300,1394A,114.4103,23.1142,惠州市,江北云山西路子站,,10,10,23,3,12,31,,50,44,10,17,7,8,0.5,0.5
2025-08-14T2300,1395A,114.4645,22.7833,惠州市,惠阳区承修路船湖子站,,11,6,20,3,11,33,,52,44,6,13,6,6,0.5,0.6
2025-08-14T2300,1396A,114.5317,22.7422,惠州市,大亚湾管委会子站,,11,11,17,3,7,35,,54,44,6,13,7,7,0.5,0.5
2025-08-14T2300,3314A,114.4338,22.8134,惠州市,惠阳秋长,,11,7,19,3,11,34,,53,47,9,15,8,11,0.4,0.4
2025-08-14T2300,3452A,114.6517,22.775,惠州市,大亚湾霞涌,,13,6,18,3,8,41,,61,51,6,14,5,5,0.6,0.7
2025-08-14T2300,2240A,130.9762,45.3001,鸡西市,环保局,,31,31,18,10,6,5,,90,54,48,13,6,6,0.5,0.3
2025-08-14T2300,2243A,130.9429,45.3039,鸡西市,第一中学,,19,19,12,10,7,53,,87,72,18,6,12,10,0.4,0.4
2025-08-14T2300,3707A,131.0207,45.3073,鸡西市,欧美日汽修厂,颗粒物(PM10),58,66,21,15,10,11,,90,53,30,15,9,9,0.6,0.5
2025-08-14T2300,3709A,130.9967,45.3106,鸡西市,市政设施管理处,颗粒物(PM10),58,66,23,31,10,5,,92,46,40,18,6,6,0.6,0.5
2025-08-14T2300,2367A,114.9754,27.0803,吉安市,红声器材厂,,13,13,25,3,11,36,,61,50,3,6,10,9,0.4,0.5
2025-08-14T2300,2368A,114.9658,27.0999,吉安市,市森林工业局,,11,8,23,6,11,34,,50,41,2,5,8,8,0.3,0.4
2025-08-14T2300,2369A,114.99,27.1312,吉安市,市环境监测站,,13,11,24,3,11,39,,57,47,1,5,11,11,0.3,0.7
2025-08-14T2300,2370A,115.0093,27.0968,吉安市,青原区法院,,12,10,23,3,12,37,,50,44,3,10,6,8,0.5,0.6
2025-08-14T2300,1772A,126.54,43.8622,吉林市,哈达湾,,27,27,19,12,12,51,,101,84,20,8,7,6,0.5,0.5
2025-08-14T2300,1773A,126.5844,43.8358,吉林市,东局子,,32,32,20,15,14,47,,90,70,14,10,5,5,0.6,0.6
2025-08-14T2300,1774A,126.5052,43.8245,吉林市,电力学院,,46,46,24,23,14,19,,98,58,29,11,6,6,0.6,0.6
2025-08-14T2300,1775A,126.6133,43.8972,吉林市,江北,,21,21,21,14,12,52,,94,73,9,8,4,4,0.8,0.5
2025-08-14T2300,1776A,126.555,43.8306,吉林市,江南公园,,24,24,21,10,13,44,,102,78,16,8,2,2,0.4,0.3
2025-08-14T2300,1778A,126.7061,43.7133,吉林市,丰满,,22,21,18,15,16,58,,121,89,5,5,5,5,0.7,0.8
2025-08-14T2300,2868A,126.4739,43.953,吉林市,九站,,19,17,22,13,12,50,,101,90,27,14,10,3,0.4,0.4
2025-08-14T2300,1299A,116.9862,36.6114,济南市,科干所,,25,17,36,15,27,80,,164,127,10,14,5,6,0.6,0.6
2025-08-14T2300,1300A,116.9376,36.665,济南市,农科所,,29,29,44,15,24,79,,166,121,14,20,8,8,0.5,0.5
2025-08-14T2300,1301A,117.1265,36.6734,济南市,开发区,,29,20,38,20,27,83,,179,128,10,16,7,8,0.7,0.7
2025-08-14T2300,1303A,117.0624,36.6868,济南市,省种子仓库,,27,27,46,7,22,83,,188,132,17,17,4,5,0.7,0.7
2025-08-14T2300,1304A,116.9489,36.6447,济南市,机床二厂,,25,22,46,10,23,80,,174,128,12,20,9,10,0.5,0.5
2025-08-14T2300,1305A,117.0495,36.663,济南市,市监测站,,26,20,40,12,23,82,,173,124,15,21,9,10,0.7,0.7
2025-08-14T2300,1306A,116.7675,36.5484,济南市,长清党校,,27,27,36,15,25,64,,168,116,20,19,6,5,0.7,0.7
2025-08-14T2300,1616A,117.6795,36.229,济南市,技术学院,,21,9,38,9,24,65,,145,82,10,20,6,8,0.7,0.9
2025-08-14T2300,1961A,117.532,36.6868,济南市,东山小学,,25,24,47,17,30,65,,183,112,14,19,7,7,0.6,0.6
2025-08-14T2300,3059A,117.7161,36.2049,济南市,泰兴公司,,16,9,35,9,24,49,,138,73,19,21,8,10,0.3,0.6
2025-08-14T2300,3064A,117.6867,36.2171,济南市,莱芜战役纪念馆,,18,12,35,10,27,55,,137,74,14,19,6,8,0.7,0.9
2025-08-14T2300,3494A,117.1673,36.9782,济南市,济阳区政府,颗粒物(PM10),51,51,68,24,32,83,,198,152,22,27,7,8,0.8,0.5
2025-08-14T2300,3495A,117.1171,36.63,济南市,锦屏中学,,22,22,34,15,20,67,,165,118,11,11,7,8,0.8,0.8
2025-08-14T2300,3682A,116.9814,36.6819,济南市,济南四建,,27,22,40,12,25,85,,188,,10,16,5,6,0.6,0.7
2025-08-14T2300,1653A,116.6251,35.4302,济宁市,火炬城,,26,26,34,9,16,27,,101,50,20,12,4,8,0.5,0.6
2025-08-14T2300,1655A,116.5491,35.4042,济宁市,电化厂,,20,20,32,9,17,47,,117,64,12,12,1,5,0.6,0.8
2025-08-14T2300,3500A,116.5814,35.3707,济宁市,北湖一中,,19,19,32,9,15,38,,111,53,15,13,3,5,0.2,0.4
2025-08-14T2300,3501A,116.8249,35.5593,济宁市,服务中心,,21,21,32,3,12,22,,108,51,25,17,3,4,0.5,0.6
2025-08-14T2300,3678A,116.5907,35.4054,济宁市,市第七中学,,17,17,33,3,12,37,,101,55,15,12,4,10,0.3,0.5
2025-08-14T2300,2255A,130.2751,46.8028,佳木斯市,佳纺,,18,18,17,8,9,46,,79,66,22,10,9,9,0.4,0.4
2025-08-14T2300,2256A,130.3995,46.8307,佳木斯市,发电厂,,23,18,18,11,10,72,,83,79,14,10,7,6,0.6,0.6
2025-08-14T2300,2257A,130.3258,46.7975,佳木斯市,环保局,,20,16,17,8,9,62,,82,74,19,11,8,8,0.5,0.5
2025-08-14T2300,2258A,130.3648,46.8032,佳木斯市,十一中,,21,21,19,8,10,61,,80,78,20,12,8,8,0.6,0.5
2025-08-14T2300,2259A,130.3794,46.7588,佳木斯市,四丰,,,,,,,6,,7,7,15,8,1,1,1.7,1.8
2025-08-14T2300,1252A,120.7436,30.778,嘉兴市,清河小学,,24,24,19,8,7,23,,88,60,9,9,6,6,0.6,0.6
2025-08-14T2300,1253A,120.726,30.7478,嘉兴市,嘉兴学院,,24,24,21,10,7,21,,83,56,9,5,4,4,0.4,0.5
2025-08-14T2300,2872A,120.7846,30.7525,嘉兴市,南湖区残联,,22,22,19,9,8,23,,84,54,11,9,6,6,0.4,0.4
2025-08-14T2300,3407A,120.6916,30.7739,嘉兴市,秀洲住建,,19,19,20,10,8,23,,86,60,9,6,6,5,0.7,0.8
2025-08-14T2300,1945A,98.2908,39.7711,嘉峪关市,气象局,,48,48,25,12,7,89,,149,133,35,10,6,19,0.9,0.8
2025-08-14T2300,2884A,98.2672,39.7978,嘉峪关市,酒钢宾馆,颗粒物(PM10),59,68,37,14,11,95,,161,145,42,14,11,37,0.7,0.8
2025-08-14T2300,3248A,98.2643,39.7724,嘉峪关市,雄关区,颗粒物(PM10),64,78,28,22,15,74,,139,125,48,15,9,15,0.5,0.5
2025-08-14T2300,1383A,113.1064,22.6058,江门市,北街,,15,,19,3,12,45,,53,53,18,13,3,3,0.4,0.5
2025-08-14T2300,1384A,113.0731,22.5835,江门市,西区,,22,,25,15,12,44,,57,55,16,13,6,7,0.4,0.5
2025-08-14T2300,1385A,113.0219,22.5311,江门市,圭峰西,,16,7,20,3,12,49,,59,56,8,7,3,4,0.5,0.5
2025-08-14T2300,1386A,113.0828,22.5947,江门市,东湖,,14,10,18,3,13,43,,49,48,12,12,7,8,0.4,0.4
2025-08-14T2300,3311A,113.1075,22.5647,江门市,江海富民,,16,11,29,11,14,50,,59,58,11,10,9,9,0.4,0.3
2025-08-14T2300,3449A,113.05,22.4667,江门市,新会银湖,,12,9,18,7,13,38,,49,45,11,11,2,2,0.4,0.4
2025-08-14T2300,1830A,113.1992,35.2590,焦作市,影视城,,,,36,,12,,,,,,8,,7,,0.6
2025-08-14T2300,3335A,113.3137,35.2641,焦作市,马村街道办,,31,31,44,13,20,64,,123,91,15,12,6,6,0.4,0.6
2025-08-14T2300,3336A,113.2465,35.2373,焦作市,焦作技师学院,,24,24,38,7,16,71,,126,95,8,6,5,6,0.4,0.4
2025-08-14T2300,3477A,113.1656,35.2539,焦作市,中站许衡医院,,36,36,40,22,24,77,,129,101,17,14,4,5,0.4,0.5
2025-08-14T2300,3981A,113.2449,35.1803,焦作市,原李万街道办,,23,23,36,3,15,71,,120,94,14,14,8,8,0.2,0.3
2025-08-14T2300,4264A,113.2340,35.2190,焦作市,新安路1731号,,31,31,40,6,17,76,,128,98,10,10,4,6,0.7,0.8
2025-08-14T2300,4295A,113.2722,35.2121,焦作市,人民路3066号,,30,30,45,14,21,69,,122,,9,10,9,4,0.5,0.5
2025-08-14T2300,1708A,116.3701,23.5345,揭阳市,新兴,,14,14,11,8,9,19,,43,33,15,8,7,5,0.5,0.3
2025-08-14T2300,1709A,116.3264,23.5443,揭阳市,西马,,13,12,12,9,6,21,,45,36,10,5,4,2,0.7,0.6
2025-08-14T2300,1710A,116.3611,23.5626,揭阳市,东兴,,14,14,11,6,7,18,,42,32,15,7,5,3,0.5,0.5
2025-08-14T2300,1711A,116.4151,23.5294,揭阳市,渔湖,,15,,12,10,8,9,,40,29,22,9,6,5,0.5,0.4
2025-08-14T2300,3320A,116.403,23.5699,揭阳市,曲溪,,14,14,10,7,7,20,,42,33,11,5,5,2,0.4,0.3
2025-08-14T2300,1944A,102.1692,38.5167,金昌市,天庆家园,颗粒物(PM10),60,70,58,19,24,52,,117,102,36,20,45,30,1.0,0.7
2025-08-14T2300,4022A,102.1647,38.5371,金昌市,金川区人防中心,,45,45,44,16,22,57,,115,101,20,14,6,14,0.8,0.5
2025-08-14T2300,4239A,102.1930,38.5319,金昌市,长春路96号,颗粒物(PM10),55,60,53,13,16,63,,113,100,18,15,4,16,0.4,0.4
2025-08-14T2300,1262A,119.647,29.077,金华市,十五中,,14,14,14,6,6,36,,61,50,12,9,3,3,0.2,0.2
2025-08-14T2300,1263A,119.686,29.1029,金华市,监测站,,19,19,16,8,8,26,,63,49,15,10,4,4,0.3,0.3
2025-08-14T2300,3659A,119.656,29.1131,金华市,气象局,,17,17,14,3,4,26,,60,48,15,10,2,2,0.3,0.1
2025-08-14T2300,1767A,121.1115,41.0879,锦州市,南山,,45,,32,31,23,109,,139,124,14,11,8,5,0.7,0.7
2025-08-14T2300,1768A,121.0604,40.8428,锦州市,开发区,,41,37,48,18,22,130,,143,133,15,17,6,9,0.7,1
2025-08-14T2300,1769A,121.1836,41.1119,锦州市,百股街道,,38,31,30,24,14,119,,146,137,10,11,9,14,0.8,0.8
2025-08-14T2300,1770A,121.1178,41.1222,锦州市,天安街道,细颗粒物(PM2.5),52,40,36,36,24,110,,143,129,17,20,7,6,0.8,0.8
2025-08-14T2300,1771A,121.1303,41.1386,锦州市,北湖公园,,49,46,33,34,19,109,,132,123,13,11,5,6,0.8,0.8
2025-08-14T2300,2160A,112.85,35.5051,晋城市,自来水公司,,,27,42,7,19,74,,109,95,,10,2,2,0.4,0.5
2025-08-14T2300,2161A,112.8318,35.4936,晋城市,白云商贸,,26,24,38,3,12,81,,113,99,6,7,3,3,0.4,0.5
2025-08-14T2300,2162A,112.8508,35.4887,晋城市,市环保局,,25,9,33,9,17,79,,110,97,5,7,4,4,0.4,0.5
2025-08-14T2300,2163A,112.8676,35.4897,晋城市,技术学院,,24,14,30,3,13,76,,105,94,7,8,3,3,0.5,0.6
2025-08-14T2300,2165A,112.8453,35.546,晋城市,白马寺,,30,24,28,14,23,93,,125,110,4,5,6,6,0.5,0.6
2025-08-14T2300,3620A,112.8271,35.4828,晋城市,泽州一中,,26,6,30,3,14,83,,118,105,6,7,4,5,0.5,0.6
2025-08-14T2300,2173A,112.7249,37.7067,晋中市,南都小区,颗粒物(PM10),61,71,64,36,37,115,,154,132,10,10,4,5,0.9,0.7
2025-08-14T2300,2174A,112.6991,37.6982,晋中市,榆次区政府,,48,48,57,33,35,116,,158,134,10,10,5,6,0.8,0.8
2025-08-14T2300,2865A,112.7195,37.6828,晋中市,榆次三中,颗粒物(PM10),52,53,59,34,34,104,,163,133,12,8,5,6,0.9,0.8
2025-08-14T2300,4200A,112.7478,37.6954,晋中市,迎宾街26号,颗粒物(PM10),53,56,55,36,32,111,,174,143,12,9,6,7,0.8,0.7
2025-08-14T2300,2439A,112.2014,31.0481,荆门市,竹园小学,,,,27,19,14,,,97,91,,4,,2,1.0,0.4
2025-08-14T2300,2440A,112.1969,30.9891,荆门市,掇刀,,24,24,26,14,13,64,,100,88,9,13,2,1,0.5,0.6
2025-08-14T2300,2441A,112.2213,31.0386,荆门市,石化一小,,23,23,30,11,22,61,,98,92,10,12,3,5,0.7,0.6
2025-08-14T2300,3012A,112.1849,31.0362,荆门市,西山林语,,23,21,25,16,11,67,,96,85,3,3,8,8,0.7,0.5
2025-08-14T2300,3547A,112.1632,31.0138,荆门市,龙泉中学南校,,44,44,25,12,13,68,,98,87,6,9,3,3,0.8,0.7
2025-08-14T2300,1844A,112.2494,30.3197,荆州市,市图书馆,,,24,15,17,11,,,89,84,5,7,2,3,0.6,0.6
2025-08-14T2300,1845A,112.2008,30.3544,荆州市,市委党校,,20,20,17,3,9,61,,82,75,10,10,6,6,0.5,0.5
2025-08-14T2300,3194A,112.2747,30.3122,荆州市,管委会,,19,17,16,13,15,56,,79,68,9,9,4,3,0.5,0.5
2025-08-14T2300,4268A,112.1722,30.3366,荆州市,学苑路85号,,23,19,15,16,13,65,,85,78,10,10,7,6,0.5,0.5
2025-08-14T2300,2342A,117.3102,29.3867,景德镇市,王港中学,,,,,,,,,,,,,,,,
2025-08-14T2300,2343A,117.2117,29.2933,景德镇市,老干部活动中心,,18,12,13,3,4,56,,56,50,8,7,6,6,0.4,0.4
2025-08-14T2300,2344A,117.1894,29.2789,景德镇市,兽医站,,20,15,17,10,7,62,,58,55,4,4,4,4,0.7,0.7
2025-08-14T2300,2346A,117.2461,29.2956,景德镇市,陶研所,,17,12,13,6,5,54,,58,51,6,5,5,5,0.7,0.6
2025-08-14T2300,4289A,117.1542,29.2566,景德镇市,青少年活动中心,,45,45,21,23,8,21,,52,32,59,16,112,23,1.1,0.6
2025-08-14T2300,1803A,115.9872,29.6815,九江市,十里,,30,23,19,21,21,32,,72,53,22,9,7,4,0.5,0.6
2025-08-14T2300,1804A,115.9584,29.7046,九江市,茅山头,,28,28,28,15,17,22,,69,45,19,6,4,4,0.6,0.7
2025-08-14T2300,1805A,115.9877,29.7295,九江市,西园,,32,26,22,22,15,42,,87,56,30,15,7,6,0.6,0.8
2025-08-14T2300,1808A,115.9114,29.6038,九江市,综合工业园,,29,,23,10,17,30,,73,48,58,17,10,7,0.5,0.8
2025-08-14T2300,1809A,116.0721,29.7535,九江市,石化总厂,,49,49,27,33,24,32,,80,54,46,16,7,5,0.7,0.6
2025-08-14T2300,1810A,115.9773,29.5698,九江市,庐山气象台,,17,11,7,6,2,52,,68,65,3,3,6,6,0.8,0.8
2025-08-14T2300,3190A,116.0254,29.6994,九江市,外国语学校,,23,23,18,16,19,35,,71,52,19,10,8,7,0.7,0.7
2025-08-14T2300,4253A,116.0102,29.6594,九江市,莲花大道8号,,13,13,29,9,16,34,,65,49,6,3,5,4,0.5,0.6
2025-08-14T2300,4240A,98.4958,39.7339,酒泉市,玉门东路5号,颗粒物(PM10),57,63,34,34,21,51,,149,122,48,12,29,11,0.7,0.4
2025-08-14T2300,4241A,98.5099,39.7506,酒泉市,北大街108号,,,,34,,16,48,,137,116,35,11,17,13,,0.5
2025-08-14T2300,2698A,76.0072,39.4467,喀什地区,巡警大队,颗粒物(PM10),131,212,288,69,89,35,,109,90,77,44,6,6,1.0,0.8
2025-08-14T2300,2699A,75.9755,39.4694,喀什地区,吾办,细颗粒物(PM2.5),168,251,319,127,125,59,,113,98,42,39,12,9,0.6,0.3
2025-08-14T2300,4027A,75.9483,39.4689,喀什地区,老干局,颗粒物(PM10),124,197,227,67,77,61,,114,99,38,32,12,7,0.6,0.2
2025-08-14T2300,1824A,114.3389,34.7781,开封市,肿瘤医院,,29,25,33,20,17,87,,96,96,13,17,3,3,0.5,0.5
2025-08-14T2300,1826A,114.2885,34.7965,开封市,世纪星幼儿园,,30,,31,21,21,88,,98,98,10,12,6,4,0.7,0.6
2025-08-14T2300,3147A,114.3438,34.8106,开封市,龙亭公园,,27,27,31,14,13,73,,91,90,16,13,4,4,0.9,0.8
2025-08-14T2300,3210A,114.3644,34.7964,开封市,汴京公园,,40,40,36,19,17,82,,100,100,11,11,4,4,0.7,0.7
2025-08-14T2300,3473A,114.2485,34.8306,开封市,技师学院,,42,,30,29,20,74,,96,94,16,10,6,6,1.0,0.9
2025-08-14T2300,3592A,114.4644,34.7556,开封市,祥符区生态环境局,,28,26,29,19,19,62,,82,79,26,23,5,5,0.6,0.6
2025-08-14T2300,1951A,84.895,45.6094,克拉玛依市,长征新村,,33,33,18,19,10,71,,91,89,20,5,4,4,0.4,0.3
2025-08-14T2300,1952A,84.8988,45.5893,克拉玛依市,南林小区,,50,50,18,22,6,24,,90,79,14,3,5,5,0.1,0.1
2025-08-14T2300,1954A,84.905,44.3396,克拉玛依市,独山子区,,32,32,33,11,9,80,,105,90,16,12,11,10,0.4,0.4
2025-08-14T2300,1955A,85.6979,46.098,克拉玛依市,乌尔禾区商贸楼,,,,24,,7,66,,89,83,6,7,6,6,0.2,0.2
2025-08-14T2300,3612A,85.1045,45.6899,克拉玛依市,白碱滩区新站,,43,43,27,22,15,76,,100,98,18,4,9,13,0.4,0.3
2025-08-14T2300,2697A,76.1454,39.7142,克孜勒苏柯尔克孜自治州,市人民政府,颗粒物(PM10),132,213,248,71,101,56,,109,96,33,19,4,11,0.2,0.2
2025-08-14T2300,3665A,76.1658,39.7157,克孜勒苏柯尔克孜自治州,克州文化中心,颗粒物(PM10),133,215,238,72,94,80,,115,106,24,15,7,15,0.4,0.4
2025-08-14T2300,1450A,102.8204,24.8886,昆明市,呈贡新区,,49,,25,34,29,55,,119,102,30,23,5,4,0.8,0.6
2025-08-14T2300,1451A,102.6251,24.9608,昆明市,西山森林公园,,,,,,,,,,,,,,,,
2025-08-14T2300,1452A,102.7252,25.0902,昆明市,龙泉镇,颗粒物(PM10),51,52,30,18,17,1,,103,70,64,19,2,2,0.7,0.5
2025-08-14T2300,1453A,102.7266,25.0375,昆明市,东风东路,,42,42,42,23,22,67,,108,86,18,24,4,4,0.5,0.5
2025-08-14T2300,1454A,102.6742,25.0669,昆明市,金鼎山,,41,41,41,21,17,47,,98,73,19,17,2,1,0.5,0.4
2025-08-14T2300,1455A,102.6644,25.0401,昆明市,碧鸡广场,,46,46,39,29,18,44,,94,68,22,22,7,7,0.6,0.6
2025-08-14T2300,3179A,102.7494,25.0119,昆明市,官渡区博物馆,,32,30,42,22,19,37,,106,81,32,35,3,2,0.8,0.7
2025-08-14T2300,3375A,102.8017,24.8336,昆明市,青年创业园,,,,40,,28,11,,120,90,52,29,3,3,,0.6
2025-08-14T2300,3550A,102.7997,24.9786,昆明市,昆明学院,细颗粒物(PM2.5),54,52,51,38,33,25,,113,83,48,31,6,7,0.6,0.5
2025-08-14T2300,3551A,102.5967,24.6736,昆明市,晋宁区生态环境分局,颗粒物(PM10),76,101,26,22,15,61,,114,98,28,12,6,4,0.6,0.5
2025-08-14T2300,3552A,102.6678,24.9856,昆明市,云天化总部,,31,31,39,16,23,36,,102,77,39,27,6,5,0.5,0.7
2025-08-14T2300,1456A,91.1319,29.6514,拉萨市,八廓街,,39,18,17,9,9,122,,150,142,13,10,5,5,0.2,0.2
2025-08-14T2300,1457A,91.1221,29.6747,拉萨市,市环保局,,38,10,16,10,8,119,,151,136,15,12,7,7,0.4,0.3
2025-08-14T2300,1458A,91.0874,29.6475,拉萨市,区监测站,,41,11,13,7,7,130,,140,136,12,13,4,4,0.3,0.3
2025-08-14T2300,1459A,91.1774,29.6541,拉萨市,西藏大学,,37,17,13,9,7,116,,145,138,18,12,4,5,0.2,0.2
2025-08-14T2300,1460A,90.9798,29.6588,拉萨市,区辐射站,,37,21,18,10,8,116,,132,126,12,15,6,5,0.3,0.3
2025-08-14T2300,1461A,91.0834,29.6292,拉萨市,拉萨火车站,,41,11,12,7,7,130,,141,138,6,9,5,6,0.2,0.2
2025-08-14T2300,2520A,109.2203,23.7256,来宾市,来宾技工学校,,18,7,30,7,17,56,,104,73,5,10,7,7,0.5,0.6
2025-08-14T2300,3535A,109.1781,23.7297,来宾市,兴宾区政府,,16,11,24,3,16,50,,101,71,6,8,5,5,0.4,0.5
2025-08-14T2300,4002A,109.2416,23.7461,来宾市,中南小学,,17,13,32,8,21,53,,115,77,4,11,5,7,0.5,0.7
2025-08-14T2300,1477A,104.1373,35.9454,兰州市,榆中兰大校区,,,,,,,,,,,,,,,,
2025-08-14T2300,1479A,103.831,36.0464,兰州市,铁路设计院,,40,40,48,21,20,68,,128,89,40,36,10,11,0.4,0.5
2025-08-14T2300,3241A,103.7439,36.0842,兰州市,百合公园,,43,43,47,16,19,67,,126,94,35,27,7,8,0,0.5
2025-08-14T2300,3242A,103.9611,35.998,兰州市,和平,,28,24,31,10,13,89,,132,104,10,12,8,9,0.3,0.3
2025-08-14T2300,4236A,103.6293,36.0938,兰州市,庄浪东路808号,,47,47,43,21,18,110,,132,95,17,28,13,21,0.2,0.4
2025-08-14T2300,4237A,103.7251,36.1043,兰州市,安宁西路88号,,50,50,49,20,19,100,,150,114,18,19,8,12,0.3,0.4
2025-08-14T2300,4238A,103.8470,36.0676,兰州市,北滨河东路1号,颗粒物(PM10),62,74,40,31,23,39,,139,98,70,36,9,11,0.4,0.5
2025-08-14T2300,3245A,103.6633,36.533,兰州新区,新区管委会,,36,24,24,16,17,114,,137,134,10,12,15,14,0.3,0.4
2025-08-14T2300,3246A,103.6975,36.4789,兰州新区,舟曲中学,,39,17,40,3,14,123,,135,135,11,26,8,14,0.3,0.4
2025-08-14T2300,1067A,116.6708,39.5111,廊坊市,药材公司,,40,20,38,12,19,127,,142,119,8,26,3,4,0.3,0.4
2025-08-14T2300,1068A,116.7214,39.5589,廊坊市,开发区,,37,15,35,8,17,116,,129,108,15,26,3,3,0.3,0.4
2025-08-14T2300,1070A,116.7244,39.5269,廊坊市,北华航天学院,,40,26,52,12,22,126,,138,119,6,23,3,4,0.4,0.4
2025-08-14T2300,2919A,116.7022,39.5453,廊坊市,河北工业大学,,39,35,48,8,17,123,,149,118,9,28,3,4,0.4,0.4
2025-08-14T2300,2535A,103.7723,29.5462,乐山市,花湖湾,细颗粒物(PM2.5),97,84,42,72,28,71,,139,130,29,17,3,4,0.8,0.9
2025-08-14T2300,2536A,103.7627,29.5844,乐山市,牛耳桥,颗粒物(PM10),52,54,39,34,27,42,,140,118,36,17,5,6,0.6,0.8
2025-08-14T2300,2537A,103.7508,29.6006,乐山市,市第三水厂,细颗粒物(PM2.5),95,,41,71,39,59,,140,118,35,22,2,3,0.8,0.8
2025-08-14T2300,2538A,103.7571,29.5664,乐山市,市监测站,,40,40,47,28,23,79,,127,111,20,17,7,9,0.8,1.1
2025-08-14T2300,3361A,103.7311,29.5628,乐山市,理工大学,,50,50,43,34,25,68,,130,111,22,18,7,10,0.8,1.1
2025-08-14T2300,2598A,100.2143,26.8576,丽江市,西南郊,,22,22,25,15,13,63,,91,82,11,11,7,7,0.9,0.9
2025-08-14T2300,2599A,100.2497,26.8802,丽江市,丽江古城,,34,34,30,23,13,43,,81,74,18,13,9,10,0.7,0.5
2025-08-14T2300,2600A,100.2203,26.8906,丽江市,市中心,,,,23,,13,,,38,,,14,,5,,0.5
2025-08-14T2300,1267A,119.914,28.4514,丽水市,监测站大楼,,18,18,11,3,3,17,,45,32,8,6,4,3,0.3,0.3
2025-08-14T2300,1268A,119.93,28.4586,丽水市,莲都小学,,12,12,11,3,3,17,,47,35,7,4,3,3,0.3,0.3
2025-08-14T2300,1269A,119.879,28.4231,丽水市,余庄前,,10,10,10,3,4,9,,46,25,6,5,5,4,0.3,0.3
2025-08-14T2300,1173A,119.176,34.5885,连云港市,市环境监测站,,22,22,14,3,4,66,,93,82,7,9,3,3,0.5,0.5
2025-08-14T2300,3000A,119.3581,34.6972,连云港市,德源药业,,24,24,16,3,5,57,,79,70,16,19,4,4,0.5,0.6
2025-08-14T2300,3007A,119.178,34.844,连云港市,新城一中,,25,15,18,3,7,78,,83,82,9,22,3,4,0.9,0.9
2025-08-14T2300,3008A,119.3608,34.7519,连云港市,胡沟管理处,,24,9,12,3,4,75,,76,71,6,25,7,8,0.6,0.7
2025-08-14T2300,3009A,119.1478,34.5911,连云港市,矿山设计院,,24,24,14,7,8,72,,87,79,7,6,4,4,0.7,0.5
2025-08-14T2300,3434A,119.2413,34.6539,连云港市,工贸学校,,21,21,15,8,10,65,,86,79,4,6,6,5,0.9,0.8
2025-08-14T2300,3664A,119.4172,34.7341,连云港市,连云街道,,24,24,22,6,9,65,,85,82,15,10,3,3,0.6,0.7
2025-08-14T2300,2571A,102.3431,27.8099,凉山彝族自治州,青龙寺,,25,25,29,8,10,54,,83,72,6,8,1,5,0.4,0.6
2025-08-14T2300,2572A,102.2721,27.8415,凉山彝族自治州,邛海宾馆,,26,26,31,13,17,56,,91,79,14,17,7,9,0.4,0.6
2025-08-14T2300,2573A,102.2625,27.898,凉山彝族自治州,西昌市政府,,19,19,29,11,26,54,,91,80,6,11,3,6,0.3,0.5
2025-08-14T2300,2574A,102.2685,27.8851,凉山彝族自治州,凉山州政府,,34,34,34,20,22,56,,96,86,12,16,8,9,0.6,0.6
2025-08-14T2300,4229A,102.2342,27.8859,凉山彝族自治州,凯乐南路30号,,30,30,38,8,13,54,,89,79,8,23,7,12,0.5,0.7
2025-08-14T2300,2212A,123.2,41.1953,辽阳市,宏伟区,,47,47,39,22,16,105,,162,142,15,13,6,5,1.1,0.9
2025-08-14T2300,2213A,123.1683,41.2495,辽阳市,新华园,颗粒物(PM10),55,59,45,25,22,87,,161,128,24,18,9,8,1.1,1
2025-08-14T2300,2214A,123.2354,41.2639,辽阳市,滨河路,颗粒物(PM10),55,59,43,26,20,52,,155,110,41,19,6,6,1.0,0.8
2025-08-14T2300,2215A,123.149,41.2991,辽阳市,铁西工业园,颗粒物(PM10),63,75,55,37,26,66,,150,108,26,22,7,7,2.0,1.3
2025-08-14T2300,2227A,125.1358,42.8845,辽源市,环保局,,48,48,30,16,12,38,,121,94,24,9,8,8,0.6,0.5
2025-08-14T2300,3239A,125.0764,42.9078,辽源市,银鹰制药,,42,42,23,23,14,39,,125,93,33,16,10,9,0.6,0.5
2025-08-14T2300,1625A,115.9848,36.4372,聊城市,区政府,,42,42,35,29,24,92,,170,145,10,9,9,7,0.9,0.8
2025-08-14T2300,2878A,116.0072,36.4343,聊城市,聊大东校,,48,48,41,33,25,88,,182,153,28,18,10,9,0.6,0.6
2025-08-14T2300,3200A,115.9819,36.4978,聊城市,监控中心,,,,31,,14,,,91,,,15,,7,,0.7
2025-08-14T2300,3513A,116.0445,36.4361,聊城市,九州社区,,,,37,,19,,,121,,,15,,5,,0.7
2025-08-14T2300,4018A,116.0567,36.4608,聊城市,星美广场,,,,38,,22,,,84,,,16,,3,,0.6
2025-08-14T2300,2632A,94.3681,29.6376,林芝市,林芝监测站,,18,8,8,6,5,57,,76,71,1,2,6,6,0.3,0.3
2025-08-14T2300,2633A,94.3616,29.6616,林芝市,林芝人民医院,,18,9,12,3,5,55,,78,71,1,3,6,7,0.3,0.3
2025-08-14T2300,2603A,100.0781,23.8982,临沧市,市环保局,,,,15,17,15,18,,44,35,8,7,10,7,0.5,0.6
2025-08-14T2300,2604A,100.0894,23.8822,临沧市,市气象局,,16,16,15,10,10,16,,42,36,9,8,6,6,0.4,0.4
2025-08-14T2300,1733A,111.5531,36.0783,临汾市,临钢医院,,30,26,56,8,21,96,,150,128,8,9,8,8,0.5,0.6
2025-08-14T2300,1734A,111.5028,36.0714,临汾市,技工学校,,38,28,55,26,38,97,,154,129,6,9,6,6,0.4,0.6
2025-08-14T2300,1736A,111.5018,36.0855,临汾市,市委,,36,36,64,10,24,105,,171,143,8,10,5,7,0.6,0.8
2025-08-14T2300,3018A,111.505,36.1014,临汾市,唐尧大酒店,,48,48,69,3,24,93,,158,134,7,12,4,4,0.5,0.8
2025-08-14T2300,4244A,111.4879,36.0530,临汾市,启星学校,,36,,56,25,37,98,,161,132,5,11,6,6,0.5,0.7
2025-08-14T2300,4271A,103.2464,35.6123,临夏回族自治州,滨河东路1号,,,74,42,,20,2,,101,78,54,18,6,6,0.8,0.4
2025-08-14T2300,4310A,103.2093,35.5995,临夏回族自治州,新华街21号,,42,42,36,23,20,62,,103,84,18,13,5,5,0.4,0.3
2025-08-14T2300,1618A,118.3429,35.0532,临沂市,沂河小区,,29,29,26,16,17,27,,58,44,36,24,11,9,0.8,0.6
2025-08-14T2300,1619A,118.295,35.0583,临沂市,鲁南制药厂,,24,24,19,7,11,38,,65,53,28,20,12,10,0.8,0.7
2025-08-14T2300,1620A,118.2794,34.9976,临沂市,新光毛纺厂,,19,,17,13,14,51,,64,54,18,21,8,8,0.5,0.6
2025-08-14T2300,1621A,118.3956,35.0888,临沂市,河东保险公司,,29,29,27,11,13,12,,52,32,30,21,6,7,0.7,0.6
2025-08-14T2300,3370A,118.3564,35.0215,临沂市,十里堡居委,,29,29,20,12,15,24,,61,44,36,25,12,11,0.7,0.7
2025-08-14T2300,3496A,118.3604,35.1084,临沂市,南坊新区,,22,22,27,9,11,25,,61,40,30,24,10,9,0.7,0.7
2025-08-14T2300,3860A,118.3920,35.0300,临沂市,皇山花园小区,,31,31,27,14,13,14,,57,36,41,30,10,9,0.7,0.7
2025-08-14T2300,1870A,109.4856,24.3895,柳州市,柳东小学,,17,17,32,11,22,45,,86,54,7,9,3,9,0.4,0.5
2025-08-14T2300,1871A,109.4157,24.3277,柳州市,环保监测站,,14,9,38,3,18,43,,83,52,12,13,6,12,0.4,0.5
2025-08-14T2300,1872A,109.389,24.341,柳州市,河西水厂,,,,61,,28,46,,85,51,13,17,4,4,0.4,0.5
2025-08-14T2300,1873A,109.4311,24.2921,柳州市,市四中,,15,12,36,10,21,47,,85,53,12,15,6,10,0.6,0.7
2025-08-14T2300,1874A,109.4006,24.3631,柳州市,市九中,,,,47,,31,45,,78,50,12,15,4,7,0.5,0.6
2025-08-14T2300,1875A,109.4958,24.3134,柳州市,古亭山,,11,7,29,7,17,33,,85,48,17,15,5,6,0.6,0.6
2025-08-14T2300,3402A,109.5422,24.3996,柳州市,市二中,,16,8,31,7,21,49,,90,57,8,13,5,6,0.6,0.7
2025-08-14T2300,2307A,116.5079,31.737,六安市,监测大楼,,22,14,18,9,15,69,,85,80,5,5,3,3,0.3,0.4
2025-08-14T2300,2308A,116.4738,31.7643,六安市,皖西学院,,26,19,28,9,14,82,,97,95,6,6,3,3,0.3,0.4
2025-08-14T2300,2309A,116.4996,31.7905,六安市,朝阳厂,,24,22,26,10,17,75,,90,88,9,10,5,6,0.3,0.4
2025-08-14T2300,2310A,116.5567,31.7886,六安市,开发区,,21,,14,12,16,66,,85,82,11,6,2,2,0.4,0.5
2025-08-14T2300,2576A,104.8,26.5892,六盘水市,窑上,,34,34,29,17,6,74,,129,98,8,6,4,4,0.5,0.6
2025-08-14T2300,2577A,104.83,26.5917,六盘水市,黄土坡,,37,27,23,9,11,116,,125,120,8,12,12,11,0.3,0.4
2025-08-14T2300,2578A,104.89,26.5939,六盘水市,水钢,,33,29,39,19,19,103,,122,114,15,22,14,32,0.6,1.3
2025-08-14T2300,2579A,104.8475,26.5894,六盘水市,民中,,34,27,23,14,9,107,,123,113,11,18,9,9,0.4,0.4
2025-08-14T2300,2580A,104.9544,26.5506,六盘水市,双水,,33,31,30,6,13,104,,124,118,10,18,8,10,0.1,0.4
2025-08-14T2300,2335A,117.0189,25.1181,龙岩市,龙岩师专,,,,,,,,,,,,,,,,
2025-08-14T2300,2336A,117.0217,25.1033,龙岩市,龙岩市监测站,,26,,6,18,4,5,,41,23,16,6,5,4,0.6,0.5
2025-08-14T2300,2337A,117.0258,25.0661,龙岩市,闽西职业技术学院,,20,20,8,3,1,8,,40,22,8,3,3,4,0.4,0.4
2025-08-14T2300,2338A,117.0196,25.0306,龙岩市,龙岩学院,,21,21,6,3,1,6,,41,21,9,4,9,8,0.4,0.3
2025-08-14T2300,2665A,105.0822,33.3261,陇南市,汉王镇固水子,,,,,,,,,,,,,,,,
2025-08-14T2300,2885A,104.9339,33.3826,陇南市,滨江中学,,48,48,39,23,16,106,,117,112,4,6,7,8,0.5,0.6
2025-08-14T2300,3247A,104.955,33.371,陇南市,市总工会,,44,44,39,13,13,125,,128,124,5,6,5,5,0.6,0.6
2025-08-14T2300,2487A,111.9589,27.8901,娄底市,电视发射台,,17,12,19,3,9,53,,65,60,5,4,4,4,0.2,0.3
2025-08-14T2300,2488A,111.9975,27.725,娄底市,市监测站,,43,43,23,7,13,45,,72,58,11,8,4,4,0.4,0.5
2025-08-14T2300,2489A,112.0194,27.7314,娄底市,市委党校,,17,12,18,10,13,53,,76,63,7,7,3,4,0.3,0.3
2025-08-14T2300,2490A,111.9561,27.7569,娄底市,涟钢,,18,18,25,9,15,35,,52,33,19,21,11,12,0.5,1.1
2025-08-14T2300,2491A,111.9892,27.7044,娄底市,市政府,,19,11,17,3,14,58,,74,64,7,5,5,5,0.5,0.8
2025-08-14T2300,1893A,105.4324,28.9634,泸州市,九狮山,细颗粒物(PM2.5),57,48,45,40,33,55,,167,113,24,12,6,7,0.5,0.4
2025-08-14T2300,1894A,105.4427,28.9063,泸州市,小市上码头,颗粒物(PM10),54,58,37,31,20,54,,144,101,18,13,4,4,0.4,0.4
2025-08-14T2300,1895A,105.4241,28.8573,泸州市,兰田宪桥,细颗粒物(PM2.5),74,84,65,54,24,54,,169,117,20,16,7,8,0.4,0.4
2025-08-14T2300,1896A,105.4379,28.8833,泸州市,市环监站,细颗粒物(PM2.5),62,62,38,44,25,86,,167,129,23,20,7,7,0.6,0.5
2025-08-14T2300,4272A,105.3689,28.7783,泸州市,纳溪中医医院,细颗粒物(PM2.5),57,53,36,40,25,47,,183,120,37,24,7,8,0.7,0.7
2025-08-14T2300,2183A,111.1406,37.5211,吕梁市,环保局,颗粒物(PM10),53,56,60,33,26,109,,164,149,29,24,5,6,0.8,0.6
2025-08-14T2300,2185A,111.1297,37.5136,吕梁市,自来水公司,颗粒物(PM10),52,54,69,34,22,79,,158,140,50,25,2,5,0.7,0.6
2025-08-14T2300,2867A,111.1283,37.51,吕梁市,马茂庄小学,颗粒物(PM10),76,101,69,34,22,56,,156,122,54,32,4,6,0.8,0.6
2025-08-14T2300,1812A,112.3931,34.6516,洛阳市,市委党校,,28,28,36,15,22,63,,126,96,17,14,7,7,0.5,0.5
2025-08-14T2300,1815A,112.494,34.6886,洛阳市,河南林校,,36,36,45,15,22,58,,135,90,20,20,7,10,0.3,0.4
2025-08-14T2300,1816A,112.3844,34.623,洛阳市,开发区管委会,,26,26,29,14,19,83,,140,104,8,8,9,6,0.5,0.6
2025-08-14T2300,1817A,112.4267,34.6258,洛阳市,市委新办公区,,24,24,30,13,20,75,,128,101,15,14,11,9,0.4,0.5
2025-08-14T2300,3340A,112.6005,34.6326,洛阳市,伊滨,,17,15,30,11,20,54,,123,85,18,17,8,9,0.5,0.6
2025-08-14T2300,3341A,112.4951,34.6332,洛阳市,中移产业园,,33,33,43,13,26,43,,130,86,30,22,8,10,0.9,0.9
2025-08-14T2300,3593A,112.5736,34.8993,洛阳市,吉利监测站,,34,34,42,13,22,62,,128,103,20,14,8,7,0.3,0.4
2025-08-14T2300,3635A,112.3677,34.662,洛阳市,河科大西苑校区,,28,28,37,8,16,61,,131,98,22,20,9,10,0.6,0.6
2025-08-14T2300,3636A,112.4388,34.6781,洛阳市,英才小学,,29,29,46,13,21,62,,128,87,20,17,7,10,0.6,0.7
2025-08-14T2300,4214A,112.4600,34.6949,洛阳市,春都路1号院,,24,24,38,9,18,54,,115,74,14,17,7,9,0.5,0.7
2025-08-14T2300,2399A,114.051,33.5699,漯河市,三五一五工厂,,38,27,21,26,12,72,,97,86,12,11,6,6,0.7,0.5
2025-08-14T2300,2400A,114.0055,33.5698,漯河市,漯河大学,,28,,5,19,14,73,,104,93,13,10,6,5,0.6,0.4
2025-08-14T2300,2401A,114.0138,33.5828,漯河市,市水利局,,39,34,22,27,13,67,,96,86,13,9,7,5,0.6,0.4
2025-08-14T2300,2402A,114.0261,33.5698,漯河市,市广电局,,43,32,17,30,16,75,,108,96,12,8,4,3,0.6,0.4
2025-08-14T2300,3478A,113.9749,33.5664,漯河市,市图书馆,,28,28,20,18,12,83,,109,99,10,9,6,5,0.5,0.3
2025-08-14T2300,4250A,114.0892,33.5882,漯河市,韶山路11号,,40,40,23,28,13,60,,97,81,19,15,4,4,0.7,0.6
2025-08-14T2300,1798A,118.5092,31.6837,马鞍山市,湖东路四小,,31,31,29,11,9,93,,99,99,10,10,12,6,0.4,0.4
2025-08-14T2300,1799A,118.5024,31.6449,马鞍山市,开发区,,33,33,30,7,9,96,,99,99,10,11,13,7,0.5,0.4
2025-08-14T2300,1802A,118.6245,31.7241,马鞍山市,濮塘,,31,26,24,20,16,99,,110,110,6,6,6,6,0.6,0.7
2025-08-14T2300,3633A,118.4918,31.6809,马鞍山市,雨山,,35,35,29,10,11,90,,94,94,10,11,10,8,0.5,0.6
2025-08-14T2300,4191A,118.5274,31.72227,马鞍山市,慈湖高新区,,28,26,19,10,13,88,,97,97,14,11,10,8,0.3,0.4
2025-08-14T2300,1686A,111.0286,21.4688,茂名市,电白南海,,19,19,33,7,20,57,,67,49,8,14,3,9,0.5,0.6
2025-08-14T2300,1687A,110.9294,21.6533,茂名市,茂石化七小,,27,27,34,14,22,34,,62,44,10,13,6,21,0.5,0.7
2025-08-14T2300,1688A,110.9107,21.6687,茂名市,健康路,,22,22,35,7,21,42,,67,50,10,15,6,24,0.4,0.5
2025-08-14T2300,1689A,110.8592,21.6828,茂名市,高岭,,31,31,42,7,16,42,,64,39,14,16,8,13,0.5,0.6
2025-08-14T2300,3450A,111.01,21.5165,茂名市,电白水东,,22,22,30,12,18,49,,71,53,12,18,5,13,0.6,0.6
2025-08-14T2300,2539A,104.0308,30.0478,眉山市,黑龙滩水库,,33,,21,23,15,84,,147,120,8,15,3,3,0.4,0.4
2025-08-14T2300,2540A,103.8416,30.0874,眉山市,气象局,颗粒物(PM10),59,68,43,29,19,55,,146,120,38,25,10,12,0.6,0.6
2025-08-14T2300,3137A,103.8578,30.0744,眉山市,市委党校,,39,39,38,19,16,75,,145,125,22,21,7,9,0.4,0.4
2025-08-14T2300,3148A,103.8291,30.0564,眉山市,区人社局,颗粒物(PM10),55,59,50,19,14,104,,145,130,20,24,7,15,0.7,0.7
2025-08-14T2300,1690A,116.1231,24.3284,梅州市,梅江月梅,,10,10,6,3,4,25,,42,37,7,7,9,9,0.5,0.5
2025-08-14T2300,1691A,116.0797,24.2719,梅州市,梅县新城,,9,8,5,3,4,26,,43,38,6,5,6,6,0.5,0.5
2025-08-14T2300,1692A,116.1248,24.2654,梅州市,环境监控中心,,6,6,4,3,4,16,,38,33,12,6,4,3,0.5,0.5
2025-08-14T2300,3315A,116.1233,24.2991,梅州市,梅龙,,14,14,8,7,3,25,,42,36,5,6,6,7,0.5,0.5
2025-08-14T2300,1878A,104.7778,31.4741,绵阳市,富乐山,,32,32,37,18,19,92,,123,113,8,12,8,8,0.6,0.6
2025-08-14T2300,1880A,104.6697,31.4668,绵阳市,高新区自来水公司,颗粒物(PM10),64,78,48,29,16,12,,131,97,82,25,8,7,0.6,0.5
2025-08-14T2300,1881A,104.7287,31.5075,绵阳市,三水厂,,42,42,40,27,23,23,,144,94,56,26,8,8,0.6,0.5
2025-08-14T2300,3491A,104.69,31.5322,绵阳市,西科大附属小学,颗粒物(PM10),61,71,45,35,20,34,,143,106,57,25,8,8,0.6,0.5
2025-08-14T2300,3492A,104.5648,31.5343,绵阳市,安州区旅游局,颗粒物(PM10),54,58,40,29,19,63,,134,108,21,15,9,9,0.6,0.5
2025-08-14T2300,4226A,104.7651,31.4531,绵阳市,绵阳市气象局,,37,37,39,21,19,105,,134,127,8,17,8,7,0.5,0.5
2025-08-14T2300,1784A,129.61,44.561,牡丹江市,环保大楼,,25,25,16,15,12,27,,86,57,25,12,3,3,0.3,0.3
2025-08-14T2300,1785A,129.6115,44.5782,牡丹江市,文化广场,,38,,17,26,17,30,,83,55,23,14,4,5,0.4,0.4
2025-08-14T2300,1786A,129.5904,44.5963,牡丹江市,第一医院,,22,21,15,15,18,20,,86,52,26,15,8,8,0.2,0.2
2025-08-14T2300,1787A,129.6364,44.6075,牡丹江市,机车工厂,,32,32,25,19,17,21,,81,54,24,14,6,5,0.4,0.6
2025-08-14T2300,1788A,129.6386,44.5462,牡丹江市,第一中学,,42,42,26,6,12,15,,86,44,25,18,6,6,0.2,0.2
2025-08-14T2300,2531A,105.0703,29.61,内江市,市监测站,细颗粒物(PM2.5),55,39,35,39,28,89,,171,121,13,19,5,3,0.9,0.8
2025-08-14T2300,2532A,105.0717,29.5947,内江市,东兴区政府,,40,34,32,28,20,88,,154,114,14,16,10,10,1.0,0.8
2025-08-14T2300,2533A,105.0653,29.5817,内江市,内江二中,颗粒物(PM10),51,52,40,34,30,95,,156,117,14,18,4,3,0.8,0.7
2025-08-14T2300,2534A,105.0406,29.5822,内江市,内江日报社,细颗粒物(PM2.5),52,47,35,36,29,105,,166,124,11,24,9,8,0.8,0.6
2025-08-14T2300,2628A,92.0657,31.4846,那曲市,那曲监测站,,34,27,45,14,17,106,,124,118,10,14,8,8,0.3,0.3
2025-08-14T2300,4243A,92.0515,31.4787,那曲市,那曲市委宣传部,,38,15,33,11,15,121,,136,132,3,8,6,4,0.1,0.2
2025-08-14T2300,1290A,115.8931,28.6843,南昌市,省外办,,16,16,22,7,15,30,,61,,5,7,5,5,0.3,0.5
2025-08-14T2300,1291A,115.8886,28.7003,南昌市,省林业公司,,12,7,14,3,11,36,,64,49,5,5,3,3,0.4,0.5
2025-08-14T2300,1292A,115.8126,28.7442,南昌市,林科所,,12,6,11,3,5,38,,66,51,7,8,8,8,0.6,0.7
2025-08-14T2300,1294A,115.8518,28.687,南昌市,建工学校,,30,22,21,21,16,34,,63,46,12,12,5,5,0.4,0.5
2025-08-14T2300,1295A,115.8921,28.6424,南昌市,象湖,,12,11,21,3,6,37,,67,49,10,9,8,8,0.3,0.4
2025-08-14T2300,1296A,115.7423,28.7996,南昌市,武术学校,,12,10,15,8,12,36,,63,47,6,4,9,10,0.4,0.5
2025-08-14T2300,3046A,115.9084,28.6062,南昌市,机电学校,,12,10,22,3,9,37,,68,49,8,7,5,5,0.5,0.6
2025-08-14T2300,3690A,115.9721,28.7031,南昌市,外国语学校,,17,17,20,8,10,35,,69,48,10,7,7,6,0.3,0.4
2025-08-14T2300,4192A,115.9316,28.68677,南昌市,南京东路235号,,18,18,26,3,7,36,,64,45,9,10,6,5,0.5,0.6
2025-08-14T2300,1905A,106.056,30.8064,南充市,西山风景区,,,,,,,,,,,,,,,,
2025-08-14T2300,1906A,106.0789,30.8023,南充市,南充市委,,49,49,35,27,22,52,,112,92,25,16,4,6,0.5,0.5
2025-08-14T2300,1907A,106.1031,30.8217,南充市,南充炼油厂,颗粒物(PM10),55,60,46,29,23,78,,106,96,14,12,5,4,0.4,0.4
2025-08-14T2300,4227A,106.1083,30.7884,南充市,梨树横街98号,,39,38,30,27,18,53,,125,102,33,16,3,3,0.4,0.3
2025-08-14T2300,4304A,106.1172,30.843,南充市,清泉寺北路188号,细颗粒物(PM2.5),52,49,36,36,23,63,,117,103,20,11,3,3,0.5,0.4
2025-08-14T2300,4305A,106.067,30.7616,南充市,同庆路1号,颗粒物(PM10),75,99,44,48,24,36,,122,85,39,18,5,4,0.5,0.4
2025-08-14T2300,1151A,118.8086,32.1065,南京市,迈皋桥,,30,18,21,7,13,93,,109,108,5,15,4,4,0.1,0.3
2025-08-14T2300,1152A,118.7538,32.0551,南京市,草场门,,29,29,28,7,13,76,,94,92,10,11,9,9,0.6,0.6
2025-08-14T2300,1153A,118.7794,32.0745,南京市,山西路,,29,29,29,3,8,91,,109,107,2,2,4,4,0.3,0.4
2025-08-14T2300,1154A,118.7752,32.0023,南京市,中华门,,,27,20,3,10,69,,93,90,8,8,4,8,,0.6
2025-08-14T2300,1155A,118.8109,32.0309,南京市,瑞金路,,26,19,20,7,12,83,,103,101,2,2,7,6,0.3,0.3
2025-08-14T2300,1156A,118.7997,32.0754,南京市,玄武湖,,26,23,25,3,6,82,,98,96,10,10,7,5,0.2,0.2
2025-08-14T2300,1157A,118.6414,32.0931,南京市,浦口,,27,27,31,9,12,84,,101,100,13,13,5,5,0.4,0.5
2025-08-14T2300,1158A,118.7356,31.9996,南京市,奥体中心,,26,21,26,9,13,82,,105,102,10,12,6,6,0.3,0.4
2025-08-14T2300,1159A,118.9125,32.1028,南京市,仙林大学城,,31,31,29,3,8,86,,102,101,6,6,7,7,0.5,0.6
2025-08-14T2300,3422A,118.8436,31.9198,南京市,江宁彩虹桥,,26,26,23,12,13,75,,98,95,11,13,3,4,0.4,0.4
2025-08-14T2300,3427A,118.8554,32.3578,南京市,六合雄州,,20,15,17,14,14,44,,83,73,26,15,4,4,0.6,0.6
2025-08-14T2300,4249A,118.8708,31.3402,南京市,汶溪路181号,,29,24,18,14,10,92,,103,103,15,9,5,5,0.4,0.3
2025-08-14T2300,4312A,119.019,31.6512,南京市,中山西路1号,,23,17,20,7,11,72,,104,98,14,14,4,4,0.4,0.4
2025-08-14T2300,1401A,108.3103,22.7881,南宁市,二十一中,,26,,52,18,29,57,,135,100,11,21,3,9,0.5,0.7
2025-08-14T2300,1402A,108.3141,22.8528,南宁市,北湖,,36,25,43,25,33,50,,123,83,14,18,3,8,0.5,0.6
2025-08-14T2300,1403A,108.3206,22.8225,南宁市,市监测站,,35,25,46,24,33,54,,118,81,12,22,2,9,0.5,0.6
2025-08-14T2300,1404A,108.3829,22.8037,南宁市,大自然花园,,28,,46,19,27,51,,138,100,9,17,4,6,0.5,0.6
2025-08-14T2300,1405A,108.4394,22.7904,南宁市,仙葫,,22,,47,15,28,54,,112,87,8,21,4,6,0.4,0.6
2025-08-14T2300,1406A,108.2397,22.8467,南宁市,区农职院,,25,25,42,17,26,54,,117,87,15,17,4,10,0.5,0.6
2025-08-14T2300,1407A,108.3275,22.735,南宁市,英华嘉园,,26,22,47,18,40,52,,120,99,11,21,1,4,0.5,0.6
2025-08-14T2300,3401A,108.4834,22.7618,南宁市,红星社区,,20,17,47,14,30,52,,114,91,9,18,2,4,0.5,0.6
2025-08-14T2300,4221A,108.2177,22.7774,南宁市,乐贤路16号,,,,45,24,30,54,,137,107,19,19,5,8,0.5,0.7
2025-08-14T2300,2331A,118.0966,26.6761,南平市,茫荡山,,,,,,,,,,,,,,,,
2025-08-14T2300,2332A,118.1681,26.6369,南平市,南平市监测站,,18,,6,12,7,36,,50,38,8,5,4,4,0.5,0.4
2025-08-14T2300,2333A,118.1825,26.6489,南平市,南平铝业有限公司,,14,9,14,3,4,43,,51,41,3,5,5,6,0.5,0.5
2025-08-14T2300,2334A,118.1756,26.6272,南平市,南平七中,,13,8,12,3,4,40,,49,40,3,3,3,3,0.5,0.5
2025-08-14T2300,1168A,120.9098,31.9663,南通市,狼山街道,,16,16,18,3,5,2,,96,61,28,18,4,3,0.4,0.4
2025-08-14T2300,1169A,120.86,32.0005,南通市,虹桥,,13,13,14,3,7,10,,104,68,24,15,3,4,0.5,0.5
2025-08-14T2300,1170A,120.87,32.02,南通市,城中,,17,17,20,3,5,11,,97,63,22,15,5,5,0.2,0.2
2025-08-14T2300,1171A,120.94,31.93,南通市,星湖花园,,14,11,12,7,7,6,,97,61,27,13,4,3,0.4,0.4
2025-08-14T2300,1172A,120.81,32.0417,南通市,紫琅学院,,11,6,15,3,3,12,,99,71,22,16,4,5,0.5,0.5
2025-08-14T2300,3291A,121.067,32.062,南通市,通州监测站,,7,7,12,3,4,21,,89,58,11,10,1,2,0.5,0.5
2025-08-14T2300,3432A,120.9348,31.9883,南通市,环境教育馆,,19,19,23,3,3,10,,105,79,19,11,3,4,0.2,0.2
2025-08-14T2300,2404A,112.5224,33.0122,南阳市,瓦房庄,,38,38,28,20,11,81,,108,101,9,7,6,6,0.5,0.6
2025-08-14T2300,2405A,112.5003,32.9735,南阳市,汉画馆,,30,30,26,9,8,86,,104,98,9,9,7,7,0.7,0.6
2025-08-14T2300,2406A,112.5573,33.027,南阳市,气象站,,38,38,23,14,8,80,,112,102,11,9,8,8,0.5,0.4
2025-08-14T2300,2407A,112.5481,32.9689,南阳市,理工学院,,36,36,24,11,6,82,,108,100,8,7,8,8,0.7,0.6
2025-08-14T2300,4008A,112.5234,32.9922,南阳市,卧龙区政府,,38,38,25,19,11,83,,106,99,10,9,6,6,0.8,0.7
2025-08-14T2300,1234A,121.8358,29.911,宁波市,区环保大楼,,,21,20,3,5,,,30,,7,6,3,3,0.5,0.6
2025-08-14T2300,1235A,121.56,29.82,宁波市,万里学院,,16,16,14,6,8,15,,47,33,9,4,6,5,0.3,0.3
2025-08-14T2300,1236A,121.713,29.9572,宁波市,龙赛医院,,11,11,16,6,6,18,,41,27,6,5,3,3,0.2,0.2
2025-08-14T2300,1239A,121.633,29.7733,宁波市,钱湖水厂,,13,13,13,3,4,20,,46,34,6,5,4,4,0.3,0.3
2025-08-14T2300,1240A,121.5856,29.8635,宁波市,太古小学,,8,8,17,3,5,14,,43,29,5,3,2,2,0.5,0.5
2025-08-14T2300,1241A,121.524,29.8674,宁波市,市环境监测中心,,15,15,15,3,6,11,,41,27,9,9,6,6,0.4,0.4
2025-08-14T2300,2871A,121.6147,29.9017,宁波市,万里国际学校,,14,14,15,3,7,16,,46,31,6,4,4,3,0.4,0.4
2025-08-14T2300,3710A,121.5594,29.8975,宁波市,白沙活动中心,,12,12,14,3,5,16,,47,31,7,6,5,5,0.4,0.4
2025-08-14T2300,2339A,119.5001,26.6946,宁德市,金涵水库,,,,,,,,,,,,,,,,
2025-08-14T2300,2341A,119.5388,26.6612,宁德市,宁德市监测站,,16,16,20,3,6,12,,44,31,16,7,3,2,0.6,0.4
2025-08-14T2300,3209A,119.5231,26.6562,宁德市,宁德一中,,16,16,19,10,9,17,,40,33,10,4,4,3,0.4,0.3
2025-08-14T2300,2618A,98.8601,25.8567,怒江傈僳族自治州,州监测站,,19,19,18,12,8,38,,53,48,11,6,6,6,0.6,0.4
2025-08-14T2300,2619A,98.8546,25.8417,怒江傈僳族自治州,泸水一中,,9,6,15,3,7,27,,41,35,12,8,7,6,0.5,0.4
2025-08-14T2300,1888A,101.6891,26.571,攀枝花市,弄弄坪,颗粒物(PM10),59,68,43,37,22,31,,88,71,26,18,6,10,0.9,0.9
2025-08-14T2300,1889A,101.5769,26.5928,攀枝花市,河门口,,46,46,33,24,16,38,,85,70,23,17,11,12,1.8,1.1
2025-08-14T2300,1890A,101.7169,26.585,攀枝花市,炳草岗,细颗粒物(PM2.5),54,52,37,38,20,26,,93,69,44,28,6,9,1.0,1.1
2025-08-14T2300,1891A,101.7369,26.5008,攀枝花市,仁和,,40,40,36,24,20,26,,90,58,10,14,7,12,0.7,1.1
2025-08-14T2300,2835A,101.7227,26.567,攀枝花市,四十中小,,37,37,31,20,18,20,,88,65,49,26,7,14,1.3,1.4
2025-08-14T2300,1604A,122.0303,41.1489,盘锦市,开发区,,38,,35,26,26,120,,132,118,12,12,5,6,0.2,0.3
2025-08-14T2300,1605A,122.0485,41.0883,盘锦市,兴隆台,,39,29,29,22,18,123,,128,116,12,11,5,6,0.5,0.6
2025-08-14T2300,1606A,121.8297,41.1028,盘锦市,新生街道,,37,24,24,21,15,117,,158,142,12,18,3,6,0.7,0.8
2025-08-14T2300,1832A,113.3257,33.742,平顶山市,新华旅馆,,41,41,34,24,19,76,,99,91,12,13,5,5,0.6,0.5
2025-08-14T2300,1833A,113.2919,33.737,平顶山市,规划设计院,,36,36,27,20,15,71,,99,90,15,14,4,5,0.8,0.7
2025-08-14T2300,1834A,113.182,33.774,平顶山市,平顶山工学院,,30,30,24,14,10,85,,106,94,11,14,5,5,0.5,0.5
2025-08-14T2300,3204A,113.3025,33.73,平顶山市,规划局,,34,34,28,10,8,88,,104,99,9,12,4,6,0.5,0.4
2025-08-14T2300,3594A,112.8867,33.9116,平顶山市,石龙区,,36,36,38,19,15,73,,105,94,16,17,8,8,0.7,0.6
2025-08-14T2300,2656A,106.6692,35.5461,平凉市,聚贤嘉苑,,44,42,43,10,14,138,,132,130,12,16,12,15,0.4,0.4
2025-08-14T2300,2657A,106.7021,35.5307,平凉市,博物馆,颗粒物(PM10),52,53,47,14,13,146,,133,131,13,16,10,10,1.1,0.6
2025-08-14T2300,2347A,114.0997,27.5002,萍乡市,武功山,,16,6,7,3,4,50,,52,52,3,4,7,8,0.5,0.5
2025-08-14T2300,2348A,113.8385,27.6434,萍乡市,中医院,,19,19,23,3,10,55,,79,58,5,11,9,15,0.4,0.7
2025-08-14T2300,2349A,113.8493,27.6253,萍乡市,市政府车库,,15,6,18,3,14,48,,69,47,2,10,8,12,0.2,0.8
2025-08-14T2300,2350A,113.8676,27.6435,萍乡市,市环保局,,,12,21,,11,53,,77,54,2,11,15,24,0.2,0.5
2025-08-14T2300,2351A,113.866,27.6198,萍乡市,安源区政府,,,,27,6,14,50,,64,48,,9,11,16,0.3,1.1
2025-08-14T2300,2319A,119.0141,25.4325,莆田市,荔城区仓后路,,15,15,25,3,5,28,,57,52,4,4,6,6,0.5,0.5
2025-08-14T2300,2320A,119.0015,25.4553,莆田市,莆田市监测站,,9,6,22,3,6,27,,60,50,5,6,4,5,0.4,0.4
2025-08-14T2300,2321A,119.1119,25.4561,莆田市,涵江区六中,,9,8,23,3,5,27,,57,45,4,5,4,4,0.3,0.4
2025-08-14T2300,2322A,119.1013,25.3215,莆田市,秀屿区政府,,14,14,24,3,5,24,,57,41,10,6,4,5,0.3,0.4
2025-08-14T2300,2323A,118.981,25.4792,莆田市,东圳水库,,,,,,,,,,,,,,,,
2025-08-14T2300,2392A,115.0312,35.7636,濮阳市,环保局,,33,,33,23,25,102,,147,132,11,10,4,4,0.5,0.5
2025-08-14T2300,2394A,115.0574,35.7609,濮阳市,油田运输公司,,42,42,41,21,22,100,,147,130,10,10,2,3,0.7,0.6
2025-08-14T2300,3021A,115,35.7668,濮阳市,濮水河管理处,,35,29,36,24,26,74,,138,122,13,11,3,3,0.5,0.5
2025-08-14T2300,4216A,115.0924,35.7686,濮阳市,任丘路479号,颗粒物(PM10),52,54,50,32,32,91,,139,123,11,10,3,4,0.7,0.6
2025-08-14T2300,2601A,100.98,22.7633,普洱市,市环保局,,42,30,30,29,15,21,,56,41,8,7,6,7,0.5,0.5
2025-08-14T2300,2602A,100.9817,22.8322,普洱市,普洱第二中学,,28,26,28,19,13,17,,48,38,9,7,5,6,0.5,0.5
2025-08-14T2300,2262A,131.0518,45.8751,七台河市,新一中,,18,18,13,12,6,47,,106,74,17,10,9,10,0.7,0.8
2025-08-14T2300,3345A,131.0577,45.7879,七台河市,中波台,,44,44,23,3,9,68,,72,59,10,10,7,7,0.4,0.4
2025-08-14T2300,3637A,131.0176,45.7761,七台河市,人民广场,,24,16,17,14,11,74,,78,64,9,8,10,10,0.4,0.4
2025-08-14T2300,3684A,130.8781,45.8222,七台河市,新建矿广场,,26,22,15,18,8,71,,80,66,8,8,9,10,0.4,0.4
2025-08-14T2300,1779A,123.9305,47.3636,齐齐哈尔市,安居小区,,23,,23,16,7,37,,51,43,12,10,4,4,0.4,0.4
2025-08-14T2300,1780A,123.9488,47.3386,齐齐哈尔市,中心广场,,25,25,16,3,1,41,,68,53,15,8,10,6,0.4,0.4
2025-08-14T2300,1781A,123.9483,47.3227,齐齐哈尔市,农牧车辆厂,,22,22,25,8,6,39,,67,52,15,9,10,7,0.4,0.4
2025-08-14T2300,1783A,123.945,47.2988,齐齐哈尔市,市环境监测站,,19,19,15,6,5,40,,68,54,14,8,8,7,0.3,0.3
2025-08-14T2300,3662A,123.6333,47.2075,齐齐哈尔市,富区青少年活动中心,细颗粒物(PM2.5),79,73,31,58,14,31,,53,41,6,12,6,10,0.5,0.6
2025-08-14T2300,2591A,107.9783,26.5747,黔东南苗族侗族自治州,市环境监测站,,19,18,24,12,15,59,,66,62,4,7,3,3,0.2,0.3
2025-08-14T2300,2881A,107.8908,26.5311,黔东南苗族侗族自治州,凯里学院,,18,17,15,12,12,46,,79,64,14,11,3,2,0.4,0.4
2025-08-14T2300,2593A,107.5228,26.2403,黔南布依族苗族自治州,小围寨,,12,12,15,7,9,38,,70,56,7,7,2,2,0.3,0.3
2025-08-14T2300,3538A,107.5175,26.2978,黔南布依族苗族自治州,沙坝,,19,19,20,3,4,26,,67,51,9,8,4,4,0.3,0.3
2025-08-14T2300,2589A,104.9022,25.0925,黔西南布依族苗族自治州,场坝街,,29,29,25,20,12,78,,122,109,11,13,4,4,0.5,0.4
2025-08-14T2300,2590A,104.8811,25.0992,黔西南布依族苗族自治州,坪东大道,,38,34,25,26,14,59,,126,107,19,13,2,4,0.6,0.5
2025-08-14T2300,2502A,108.6236,21.9667,钦州市,市环保站,,,0,32,,16,82,,120,116,5,13,3,3,0.4,0.5
2025-08-14T2300,2503A,108.6549,21.9481,钦州市,沙埠小学,,26,9,42,8,20,82,,119,115,4,15,3,3,0.4,0.6
2025-08-14T2300,2504A,108.5989,21.7431,钦州市,港区一小,颗粒物(PM10),51,52,43,13,15,80,,96,96,14,22,3,6,0.4,0.5
2025-08-14T2300,3404A,108.5959,21.9633,钦州市,北职校,,37,37,39,3,22,80,,112,108,3,14,1,3,0.4,0.6
2025-08-14T2300,1043A,119.7493,40.0116,秦皇岛市,第一关,,29,29,39,13,24,60,,159,105,37,29,4,5,0.3,0.5
2025-08-14T2300,1044A,119.5897,39.9499,秦皇岛市,监测站,,36,36,52,7,14,57,,163,116,37,20,3,6,0.4,0.6
2025-08-14T2300,1046A,119.5251,39.9041,秦皇岛市,建设大厦,,49,49,51,16,16,81,,154,113,23,18,6,7,0.4,0.7
2025-08-14T2300,3132A,119.610547,39.943889,秦皇岛市,文明里,,35,35,47,13,21,71,,155,117,28,17,4,6,0.3,0.5
2025-08-14T2300,4198A,119.5090,39.8253,秦皇岛市,北戴河轮滑馆,,45,45,55,27,30,82,,147,117,14,10,2,4,0.6,0.8
2025-08-14T2300,1307A,120.6659,36.2403,青岛市,仰口,,25,13,16,10,7,80,,91,82,5,6,9,9,0.8,0.8
2025-08-14T2300,1310A,120.4134,36.0658,青岛市,市南区东部子站,,25,14,12,7,8,77,,96,92,11,7,6,6,0.2,0.1
2025-08-14T2300,1311A,120.3664,36.1032,青岛市,四方区子站,,24,9,14,7,9,75,,97,89,10,11,2,2,0.2,0.2
2025-08-14T2300,1312A,120.2994,36.054,青岛市,市南区西部子站,,26,7,12,3,6,83,,87,85,10,15,4,4,0.6,0.6
2025-08-14T2300,1313A,120.4581,36.0858,青岛市,崂山区子站,,25,12,12,3,3,79,,96,91,7,11,7,7,0.2,0.2
2025-08-14T2300,1315A,120.3999,36.3083,青岛市,城阳区子站,,24,22,23,7,12,76,,98,76,11,17,5,6,0.5,0.5
2025-08-14T2300,1966A,120.0405,35.8735,青岛市,黄岛区4号,,35,9,14,3,3,110,,109,109,2,12,4,4,0.4,0.5
2025-08-14T2300,3362A,120.5014,36.4034,青岛市,即墨2号,,,8,17,7,10,90,,108,103,6,8,,3,0.2,0.2
2025-08-14T2300,3642A,120.3503,36.0736,青岛市,市北区南部,,26,12,13,7,6,81,,94,90,17,16,7,7,0.7,0.7
2025-08-14T2300,3643A,120.3948,36.1805,青岛市,李沧区北部,,19,19,12,9,9,47,,80,69,20,16,4,5,0.4,0.3
2025-08-14T2300,4290A,120.1969,35.9546,青岛市,珠江路669号,,26,9,19,7,9,81,,102,96,16,22,6,6,0.6,0.6
2025-08-14T2300,1702A,113.0426,23.691,清远市,环保大楼,,16,6,34,3,15,49,,57,45,10,13,6,8,0.7,0.8
2025-08-14T2300,1703A,113.0208,23.7106,清远市,凤城街办,,14,6,22,3,14,42,,52,38,14,15,5,6,0.5,0.6
2025-08-14T2300,3025A,113.0477,23.6344,清远市,技师学院,,13,7,23,3,13,40,,55,38,13,16,6,9,0.4,0.5
2025-08-14T2300,3318A,112.9903,23.7403,清远市,清新太和,,15,6,20,3,14,46,,54,40,11,13,7,7,0.5,0.6
2025-08-14T2300,3455A,113.076,23.7198,清远市,清城东城,,13,6,23,3,13,41,,48,40,10,11,6,6,0.5,0.6
2025-08-14T2300,2661A,107.6325,35.7357,庆阳市,庆阳五中,,40,38,38,18,15,128,,136,135,6,8,8,8,0.6,0.6
2025-08-14T2300,2662A,107.6364,35.7067,庆阳市,市环保局,,41,38,38,16,16,131,,144,141,4,6,6,5,1.0,0.9
2025-08-14T2300,1916A,103.7897,25.5035,曲靖市,环境监测站,,50,50,43,13,22,85,,133,118,22,17,8,13,0.6,0.9
2025-08-14T2300,1917A,103.8,25.5364,曲靖市,烟厂办公区,,36,36,42,8,20,108,,129,120,13,16,4,12,0.5,1
2025-08-14T2300,3376A,103.7947,25.462,曲靖市,南苑二区,,34,34,30,12,17,93,,137,120,14,11,3,5,0.7,0.7
2025-08-14T2300,3377A,103.7444,25.5261,曲靖市,曲靖师范学院,,49,49,39,28,23,57,,136,111,28,14,13,14,0.6,0.7
2025-08-14T2300,1264A,118.8692,28.9398,衢州市,环保大楼,,12,12,16,3,6,25,,64,45,7,9,3,2,0.2,0.2
2025-08-14T2300,1265A,118.8709,28.9666,衢州市,实验学校,,10,10,15,3,6,26,,64,45,7,9,2,2,0.2,0.2
2025-08-14T2300,1266A,118.8621,28.9808,衢州市,衢州学院,,11,11,14,3,6,13,,63,43,20,10,3,3,0.2,0.2
2025-08-14T2300,1611A,118.5819,24.9117,泉州市,涂山街,,22,22,21,10,9,31,,49,38,10,6,3,2,0.4,0.4
2025-08-14T2300,1612A,118.5972,24.8978,泉州市,津头埔,,,,22,,8,,,43,,,5,,2,,0.4
2025-08-14T2300,1613A,118.6663,24.9424,泉州市,万安,,31,31,25,13,8,14,,54,43,22,5,2,2,0.4,0.4
2025-08-14T2300,1614A,118.6117,24.9604,泉州市,清源山,,,,,,,,,,,,,,,,
2025-08-14T2300,3529A,118.6333,24.9264,泉州市,城华南路,,23,23,23,14,9,27,,53,39,10,7,3,2,0.3,0.3
2025-08-14T2300,2626A,88.8876,29.2718,日喀则市,日喀则监测站,,38,13,10,3,3,120,,137,134,7,7,10,9,0.3,0.3
2025-08-14T2300,3726A,88.8781,29.2426,日喀则市,林业技术推广中心,,,16,10,3,3,,,136,136,3,3,5,5,0.1,0.4
2025-08-14T2300,1659A,119.471,35.4209,日照市,监测站,,26,7,11,7,7,81,,88,88,6,25,5,6,0.4,0.5
2025-08-14T2300,1660A,119.523,35.4216,日照市,市政府广场,,30,6,10,3,2,94,,95,95,3,11,5,5,0.6,0.7
2025-08-14T2300,1661A,119.5587,35.4044,日照市,港务局,,31,,8,11,10,97,,99,99,4,11,7,7,0.5,0.6
2025-08-14T2300,3507A,119.5328,35.4625,日照市,职业技术学院,,26,6,9,3,6,83,,91,91,2,8,4,4,0.6,0.6
2025-08-14T2300,3604A,119.3266,35.1044,日照市,岚山环保分局,,28,14,15,3,3,88,,85,85,8,17,7,13,0.6,1.3
2025-08-14T2300,1835A,111.1922,34.7752,三门峡市,市政府,,34,34,39,17,20,89,,130,114,9,9,6,7,0.5,0.5
2025-08-14T2300,1836A,111.1587,34.7942,三门峡市,开发区,,34,34,38,19,24,88,,135,116,13,12,4,5,0.5,0.5
2025-08-14T2300,1838A,111.143,34.7955,三门峡市,风景区,,29,23,37,16,21,92,,141,118,9,8,4,4,0.4,0.7
2025-08-14T2300,3039A,111.1911,34.7829,三门峡市,三门峡市第一小学,,28,24,41,16,19,89,,132,115,9,9,3,4,0.5,0.6
2025-08-14T2300,3598A,111.1,34.7167,三门峡市,富达温泉假日酒店,,37,37,40,19,22,94,,128,115,5,6,2,4,0.3,0.3
2025-08-14T2300,2324A,117.6211,26.2625,三明市,三钢,,16,16,11,11,8,4,,44,27,18,8,1,3,0.7,0.7
2025-08-14T2300,2325A,117.635,26.2714,三明市,三明二中,,23,,20,16,9,8,,43,27,10,5,2,3,0.5,0.5
2025-08-14T2300,2326A,117.6028,26.2378,三明市,三元区政府,,23,21,10,16,6,4,,47,31,14,6,1,2,0.5,0.2
2025-08-14T2300,2327A,117.7275,26.3108,三明市,洋溪,,,,,,,,,,,,,,,,
2025-08-14T2300,1876A,109.5078,18.2489,三亚市,河东子站,,15,,17,7,5,46,,62,56,2,4,3,3,0.5,0.5
2025-08-14T2300,1877A,109.4964,18.2681,三亚市,河西子站,,9,9,19,3,2,14,,39,14,4,9,2,2,0.4,0.5
2025-08-14T2300,3540A,109.7348,18.3443,三亚市,君悦子站,,23,23,21,7,6,33,,64,46,10,9,1,1,0.4,0.4
2025-08-14T2300,2624A,91.7608,29.2313,山南市,山南监测站,,35,10,8,3,5,111,,127,126,8,5,2,2,0.3,0.2
2025-08-14T2300,2625A,91.7706,29.2436,山南市,山南人民医院,,37,13,13,8,7,116,,126,125,5,6,3,3,0.3,0.3
2025-08-14T2300,1674A,116.6794,23.3667,汕头市,金平子站,,,,7,,4,,,45,,,6,,1,,0.6
2025-08-14T2300,1675A,116.7244,23.3633,汕头市,龙湖子站,,14,14,10,3,3,22,,45,32,12,5,6,6,0.6,0.6
2025-08-14T2300,1676A,116.7258,23.2775,汕头市,濠江子站,,12,12,17,3,3,24,,43,32,3,4,4,4,0.5,0.5
2025-08-14T2300,1677A,116.7519,23.4714,汕头市,澄海子站,,16,16,13,6,7,17,,41,30,14,7,3,2,0.6,0.5
2025-08-14T2300,1678A,116.6092,23.2539,汕头市,潮阳子站,,10,10,12,3,5,29,,44,35,4,4,4,4,0.4,0.4
2025-08-14T2300,3444A,116.454,23.2684,汕头市,潮南峡山,,14,14,8,6,3,23,,41,32,9,6,5,5,0.5,0.6
2025-08-14T2300,3624A,116.4069,23.2533,汕头市,潮南子站,,13,13,8,6,3,27,,41,34,5,3,4,4,0.5,0.5
2025-08-14T2300,1693A,115.3653,22.775,汕尾市,市环保局,,11,11,11,3,5,34,,54,41,4,8,3,3,0.4,0.4
2025-08-14T2300,1694A,115.3706,22.7898,汕尾市,市政府,,16,16,11,3,4,31,,52,39,7,11,4,4,0.5,0.5
2025-08-14T2300,1695A,115.3622,22.7925,汕尾市,新城中学,,16,16,13,3,6,29,,52,39,6,8,4,4,0.4,0.4
2025-08-14T2300,2645A,109.9154,33.8715,商洛市,监测站,,26,26,29,10,16,72,,109,84,16,13,19,10,0.7,0.6
2025-08-14T2300,3045A,109.9643,33.8471,商洛市,商州区中学,,26,26,30,16,18,45,,105,75,25,13,6,14,0.5,0.6
2025-08-14T2300,2408A,115.6702,34.4285,商丘市,环境监测站,,28,28,27,15,21,46,,96,75,16,12,1,1,0.5,0.5
2025-08-14T2300,2409A,115.6458,34.4045,商丘市,粮食局,,21,21,25,7,9,57,,98,79,10,8,3,3,0.5,0.5
2025-08-14T2300,2410A,115.6293,34.3948,商丘市,睢阳区环保局,,22,22,24,12,13,57,,97,79,9,8,4,4,0.4,0.4
2025-08-14T2300,3171A,115.6071,34.4465,商丘市,梁园区档案局,,22,20,27,15,16,49,,93,71,18,14,2,2,0.5,0.6
2025-08-14T2300,1141A,121.4,31.238,上海市,普陀,,20,20,20,3,6,12,,70,46,12,11,5,6,0.3,0.3
2025-08-14T2300,1142A,121.478,31.2036,上海市,十五厂,,20,20,23,7,8,13,,62,39,10,9,8,8,0.5,0.5
2025-08-14T2300,1143A,121.467,31.3008,上海市,虹口,,16,16,22,3,8,8,,60,38,11,6,5,5,0.2,0.3
2025-08-14T2300,1147A,121.425,31.2261,上海市,静安监测站,,19,19,23,3,7,17,,67,44,10,10,3,4,0.4,0.4
2025-08-14T2300,1148A,121.703,31.1907,上海市,浦东川沙,,21,21,22,3,7,16,,58,29,11,11,5,5,0.5,0.5
2025-08-14T2300,1149A,121.533,31.2284,上海市,浦东新区监测站,,,20,20,,2,9,,62,37,11,7,7,8,0.7,0.7
2025-08-14T2300,1150A,121.577,31.2071,上海市,浦东张江,,20,20,22,3,9,14,,70,43,16,9,6,6,0.5,0.5
2025-08-14T2300,3265A,121.4316,31.3322,上海市,宝山庙行,,15,15,20,3,6,8,,54,36,14,9,8,8,0.3,0.3
2025-08-14T2300,3266A,121.8791,31.4662,上海市,崇明上实东滩,,17,17,20,3,5,20,,40,29,11,10,4,4,0.4,0.4
2025-08-14T2300,3268A,121.3162,31.2838,上海市,嘉定南翔,,19,19,19,3,8,11,,66,43,10,9,4,4,0.2,0.2
2025-08-14T2300,3269A,121.3359,30.7456,上海市,金山新城,,,16,18,3,6,,,70,46,10,7,3,3,0.4,0.5
2025-08-14T2300,3270A,121.4996,31.0739,上海市,闵行浦江,,16,16,20,3,5,15,,63,39,6,7,4,5,0.7,0.6
2025-08-14T2300,3271A,121.2886,31.1663,上海市,青浦徐泾,,20,20,19,7,8,14,,71,47,8,7,7,6,0.5,0.5
2025-08-14T2300,3272A,121.2186,31.0378,上海市,松江图书馆,,14,14,16,3,7,13,,77,47,13,10,8,7,0.5,0.5
2025-08-14T2300,3273A,121.3902,31.2059,上海市,长宁仙霞,,21,21,20,6,5,15,,64,42,10,10,7,8,0.4,0.4
2025-08-14T2300,3274A,121.7965,31.0507,上海市,浦东惠南,,16,16,19,9,12,17,,54,31,9,8,10,10,0.5,0.5
2025-08-14T2300,3544A,121.4891,30.925,上海市,奉贤南桥新城,,21,21,25,7,8,14,,66,40,7,4,5,4,0.6,0.6
2025-08-14T2300,4183A,121.4174,31.16637,上海市,冠生园路458号,,19,19,19,3,6,19,,65,44,12,12,3,4,0.6,0.6
2025-08-14T2300,4205A,121.5419,31.2683,上海市,宁武路151号,,21,21,33,3,9,7,,54,31,16,13,3,3,0.5,0.5
2025-08-14T2300,2381A,118.005,28.4572,上饶市,百草园,,,,,,,,,,,,,,,,
2025-08-14T2300,2382A,117.9756,28.4436,上饶市,市监测站,,17,17,16,10,7,32,,58,50,13,4,3,3,0.4,0.4
