timepoint,stationcode,longitude,latitude,area,positionname,primarypollutant,aqi,pm10,pm10_24h,pm2_5,pm2_5_24h,o3,o3_24h,o3_8h,o3_8h_24h,no2,no2_24h,so2,so2_24h,co,co_24h
2023-12-27T1800,2566A,102.1879,31.914,阿坝藏族羌族自治州,州农科所,,,,,5,12,21,,27,27,33,24,12,6,0.6,0.7
2023-12-27T1800,2568A,102.2502,31.8896,阿坝藏族羌族自治州,马师校,,23,,21,16,18,51,,62,61,22,20,3,3,0.6,0.6
2023-12-27T1800,3994A,102.2165,31.9024,阿坝藏族羌族自治州,马尔康中学西区,,28,24,22,19,14,60,,64,64,16,16,5,4,0.6,0.6
2023-12-27T1800,2695A,80.292,41.1694,阿克苏地区,电视台,颗粒物(PM10),193,335,375,,95,,,46,46,23,44,6,9,0.7,1.3
2023-12-27T1800,2696A,80.2613,41.1551,阿克苏地区,艺术中心,颗粒物(PM10),191,331,395,83,116,61,,48,48,20,48,9,8,0.7,1.9
2023-12-27T1800,2204A,105.6467,38.8363,阿拉善盟,西城区西花园,颗粒物(PM10),70,89,60,30,23,56,,66,66,20,31,9,10,0.7,0.8
2023-12-27T1800,2205A,105.6985,38.8411,阿拉善盟,蒙二幼,颗粒物(PM10),70,90,63,25,19,62,,76,76,21,29,8,7,0.5,0.7
2023-12-27T1800,2206A,105.724,38.8516,阿拉善盟,环保局新楼,颗粒物(PM10),59,68,45,24,17,70,,83,81,12,9,4,4,0.5,0.5
2023-12-27T1800,2708A,88.1264,47.8517,阿勒泰地区,市站,,28,28,19,14,11,25,,49,30,52,32,10,8,0.4,0.6
2023-12-27T1800,2630A,80.1161,32.5,阿里地区,阿里监测站,,26,6,12,3,5,83,,68,68,2,16,3,14,0.5,0.6
2023-12-27T1800,3192A,80.0903,32.5028,阿里地区,阿里藏医院,,28,9,13,0,5,88,,82,73,2,11,4,9,0.4,0.5
2023-12-27T1800,2642A,109.0318,32.6537,安康市,香溪洞,细颗粒物(PM2.5),114,94,74,86,63,73,,59,59,32,23,7,7,0.4,0.5
2023-12-27T1800,2643A,109.0281,32.6939,安康市,安康市监测站,细颗粒物(PM2.5),134,128,105,102,81,12,,58,58,83,44,11,12,2.8,1.3
2023-12-27T1800,2644A,109.0072,32.6975,安康市,汉滨区检察院,细颗粒物(PM2.5),97,86,84,72,67,71,,63,63,40,33,10,10,0.7,0.7
2023-12-27T1800,2291A,117.0809,30.5177,安庆市,环科院,细颗粒物(PM2.5),139,139,102,106,67,47,,56,56,,70,10,11,1.1,1
2023-12-27T1800,2292A,117.0331,30.5119,安庆市,马山宾馆,细颗粒物(PM2.5),138,142,104,105,64,43,,60,58,69,72,7,8,0.9,0.9
2023-12-27T1800,2294A,116.9896,30.6145,安庆市,安庆大学,细颗粒物(PM2.5),140,141,90,107,59,65,,74,74,52,62,10,10,1.0,0.8
2023-12-27T1800,3173A,117.0598,30.5351,安庆市,市人大,细颗粒物(PM2.5),130,148,111,99,68,28,,53,53,81,70,6,6,0.9,0.9
2023-12-27T1800,3122A,105.9606,26.2611,安顺市,伍家关,,,,,,,,,,,,,,,,
2023-12-27T1800,3123A,105.9408,26.2431,安顺市,凤凰山,细颗粒物(PM2.5),59,53,53,42,43,100,,103,103,18,26,26,38,0.7,0.7
2023-12-27T1800,3124A,105.9439,26.2564,安顺市,金钟山,细颗粒物(PM2.5),54,52,54,38,41,99,,101,101,16,19,20,32,0.7,0.7
2023-12-27T1800,3125A,105.8983,26.2481,安顺市,娄家坡,细颗粒物(PM2.5),57,51,62,40,46,102,,99,99,10,23,14,44,0.6,0.8
2023-12-27T1800,1818A,114.4839,36.0621,安阳市,棉研所,,,,,,,,,,,,,,,,
2023-12-27T1800,1819A,114.3551,36.1017,安阳市,红庙街,颗粒物(PM10),56,61,83,35,71,46,,56,56,33,39,8,11,0.5,1
2023-12-27T1800,1820A,114.361,36.0681,安阳市,银杏小区,颗粒物(PM10),54,57,73,35,69,43,,56,56,35,38,1,4,0.8,1.1
2023-12-27T1800,3141A,114.3922,36.0878,安阳市,信访局,颗粒物(PM10),52,54,85,33,66,40,,52,52,34,36,6,8,0.7,1.1
2023-12-27T1800,3669A,114.4705,36.0637,安阳市,左辅环卫站,,,62,90,30,69,,,55,55,41,43,3,2,0.4,0.8
2023-12-27T1800,3703A,114.2917,36.0949,安阳市,安钢职工学校,,,,126,,104,,,58,,,68,,25,,2.2
2023-12-27T1800,1748A,123.044,41.1196,鞍山市,深沟寺,细颗粒物(PM2.5),147,121,55,112,44,8,,28,23,86,48,23,14,1.8,1
2023-12-27T1800,1749A,123.011,41.0931,鞍山市,太阳城,颗粒物(PM10),129,207,71,91,47,5,,28,23,82,57,24,23,2.6,1.6
2023-12-27T1800,1750A,123.0485,41.1442,鞍山市,太平,细颗粒物(PM2.5),138,157,85,105,61,10,,23,22,88,61,44,19,2.1,1.5
2023-12-27T1800,1751A,122.9642,41.0971,鞍山市,铁西三道街,细颗粒物(PM2.5),124,149,140,94,101,5,,12,11,93,77,28,22,4.3,3.1
2023-12-27T1800,1752A,122.9341,41.0833,鞍山市,铁西工业园区,细颗粒物(PM2.5),238,248,170,188,130,12,,20,20,96,77,29,23,4.8,3.6
2023-12-27T1800,1753A,123.022,41.0821,鞍山市,明达新区,,,,64,,51,11,,30,26,83,60,27,20,2.8,1.8
2023-12-27T1800,1754A,123.1289,41.0228,鞍山市,千山,,,,,,,,,,,,,,,,
2023-12-27T1800,2195A,107.4212,40.761,巴彦淖尔市,附二中,细颗粒物(PM2.5),120,134,138,91,75,39,,35,35,46,52,7,12,0.9,1.1
2023-12-27T1800,2196A,107.37,40.7372,巴彦淖尔市,市环保大楼,细颗粒物(PM2.5),109,128,126,82,70,20,,34,34,63,53,8,6,1.1,1.1
2023-12-27T1800,1956A,86.1472,41.7538,巴音郭楞州,孔雀公园,颗粒物(PM10),310,428,391,89,92,68,,47,47,30,47,6,5,0.7,1
2023-12-27T1800,1957A,86.1972,41.7166,巴音郭楞州,棉纺厂,颗粒物(PM10),378,482,432,108,96,61,,47,47,36,55,4,3,0.8,1
2023-12-27T1800,1958A,86.2357,41.7173,巴音郭楞州,经济开发区,颗粒物(PM10),305,424,359,93,85,66,,58,51,42,42,5,4,0.8,0.9
2023-12-27T1800,2914A,106.7677,31.8794,巴中市,苏山坪,细颗粒物(PM2.5),83,82,87,61,61,105,,76,76,23,23,5,4,0.6,0.6
2023-12-27T1800,3182A,106.7656,31.8545,巴中市,丽阳花园,细颗粒物(PM2.5),118,118,110,89,87,39,,45,45,116,44,6,4,1.9,1
2023-12-27T1800,3183A,106.7418,31.8654,巴中市,圣泉水务公司,细颗粒物(PM2.5),112,105,88,84,73,46,,61,61,64,43,4,4,1.3,0.9
2023-12-27T1800,3616A,106.7616,31.8344,巴中市,市中心医院,细颗粒物(PM2.5),107,103,100,80,80,47,,55,55,52,37,3,3,0.9,0.9
2023-12-27T1800,2235A,122.7911,45.6077,白城市,洮北区环保局,,38,38,49,22,38,40,,44,44,14,20,8,8,0.6,0.7
2023-12-27T1800,2236A,122.8738,45.5725,白城市,市环保局,,,60,53,21,33,33,,44,44,,27,4,6,,0.6
2023-12-27T1800,2231A,126.4219,41.9171,白山市,喜丰,"颗粒物(PM10),细颗粒物(PM2.5)",52,54,61,36,30,11,,39,36,58,34,18,20,1.0,0.9
2023-12-27T1800,2232A,126.4077,41.9419,白山市,环保局,细颗粒物(PM2.5),82,103,75,60,35,6,,35,31,70,44,22,20,2.0,1.1
2023-12-27T1800,2647A,104.1724,36.5446,白银市,第三小学,细颗粒物(PM2.5),110,125,137,83,79,20,,61,48,67,57,56,125,1.6,2.3
2023-12-27T1800,2648A,104.1465,36.5482,白银市,动力公司,细颗粒物(PM2.5),125,131,109,95,77,76,,67,67,72,53,133,70,1.6,1.8
2023-12-27T1800,2512A,106.6103,23.9011,百色市,市监测站,,,,85,,52,121,,87,87,36,37,16,15,1.0,1
2023-12-27T1800,2513A,106.6538,23.8859,百色市,市中心血站,细颗粒物(PM2.5),78,99,121,57,78,123,,92,92,35,63,19,23,1.0,1.4
2023-12-27T1800,3406A,106.6085,23.8798,百色市,祈福高中,颗粒物(PM10),80,109,92,57,61,118,,99,99,36,44,19,17,0.9,0.9
2023-12-27T1800,2270A,117.396,32.939,蚌埠市,工人疗养院,细颗粒物(PM2.5),248,256,174,198,128,18,,43,43,102,77,10,10,1.6,1.3
2023-12-27T1800,2271A,117.3605,32.9427,蚌埠市,百货大楼,细颗粒物(PM2.5),260,275,180,210,130,15,,37,37,97,80,6,7,1.5,1.3
2023-12-27T1800,2273A,117.4185,32.8911,蚌埠市,蚌埠学院,细颗粒物(PM2.5),265,283,175,215,128,43,,61,61,99,82,5,12,1.4,1.2
2023-12-27T1800,2274A,117.3533,32.9673,蚌埠市,淮上区政府,细颗粒物(PM2.5),276,290,188,226,140,17,,48,48,100,73,8,8,1.7,1.3
2023-12-27T1800,2275A,117.3145,32.8977,蚌埠市,高新区,细颗粒物(PM2.5),273,278,172,223,131,12,,38,37,124,91,8,11,1.6,1.3
2023-12-27T1800,3715A,117.3092,32.9314,蚌埠市,蚌埠田家炳中学,细颗粒物(PM2.5),270,283,194,220,140,20,,38,38,102,81,7,9,1.4,1.2
2023-12-27T1800,1585A,109.8756,40.6532,包头市,市环境监测站,细颗粒物(PM2.5),179,183,190,135,141,5,,20,19,103,84,17,30,1.8,2.9
2023-12-27T1800,1587A,109.9991,40.5842,包头市,包头八中,细颗粒物(PM2.5),254,231,239,204,190,5,,16,16,108,90,23,33,1.7,2.6
2023-12-27T1800,1588A,109.8538,40.6821,包头市,青山宾馆,细颗粒物(PM2.5),350,348,192,300,163,7,,20,20,111,85,22,23,5.2,2.9
2023-12-27T1800,1589A,109.8642,40.6288,包头市,惠龙物流,细颗粒物(PM2.5),169,188,211,128,150,4,,22,22,101,89,17,27,1.4,2.8
2023-12-27T1800,1590A,110.0377,40.5546,包头市,东河鸿龙湾,细颗粒物(PM2.5),206,222,234,156,178,10,,25,24,102,87,12,18,1.6,2.4
2023-12-27T1800,3283A,109.9154,40.5685,包头市,滨河大厦,细颗粒物(PM2.5),186,184,209,140,162,5,,28,25,88,86,11,18,1.5,2.2
2023-12-27T1800,3419A,109.9447,40.6261,包头市,包头市委党校,细颗粒物(PM2.5),200,184,191,150,143,9,,24,22,108,88,17,28,1.7,2.8
2023-12-27T1800,3683A,109.8331,40.6576,包头市,昆区政府,细颗粒物(PM2.5),204,172,181,154,151,4,,22,22,111,87,18,27,1.8,2.7
2023-12-27T1800,1930A,107.185,34.3063,宝鸡市,庙沟村,细颗粒物(PM2.5),188,168,107,141,84,77,,56,56,45,44,13,9,1.5,0.8
2023-12-27T1800,1931A,107.0708,34.3017,宝鸡市,竹园沟,细颗粒物(PM2.5),217,,93,167,78,66,,67,67,49,39,7,5,1.5,0.9
2023-12-27T1800,1932A,107.1906,34.3672,宝鸡市,三陆医院,细颗粒物(PM2.5),185,158,140,139,116,68,,63,63,67,58,14,11,1.5,1.3
2023-12-27T1800,1933A,107.1431,34.3547,宝鸡市,监测站,细颗粒物(PM2.5),188,165,115,141,91,83,,65,65,51,48,11,7,1.6,1
2023-12-27T1800,1934A,107.1186,34.3739,宝鸡市,技工学校,细颗粒物(PM2.5),175,156,124,132,98,80,,66,66,56,45,13,12,1.4,1
2023-12-27T1800,1935A,107.3906,34.3528,宝鸡市,陈仓区环保局家属楼,细颗粒物(PM2.5),200,165,151,150,125,62,,64,64,76,64,12,11,1.4,1.5
2023-12-27T1800,1936A,107.2058,34.3497,宝鸡市,文理学院,细颗粒物(PM2.5),189,169,120,142,91,92,,72,72,47,54,12,9,1.5,1.2
2023-12-27T1800,1937A,107.2386,34.3622,宝鸡市,三迪小学,细颗粒物(PM2.5),180,165,127,136,99,67,,65,65,67,54,13,10,1.7,1.3
2023-12-27T1800,1051A,115.493,38.8632,保定市,游泳馆,颗粒物(PM10),67,83,47,16,31,16,,12,12,41,40,1,3,0.7,1
2023-12-27T1800,1052A,115.5213,38.8959,保定市,华电二区,,43,38,47,30,35,36,,38,38,22,41,5,5,0.3,0.6
2023-12-27T1800,1053A,115.4713,38.9108,保定市,接待中心,,,,47,4,29,27,,4,,34,50,4,3,1.0,0.9
2023-12-27T1800,1054A,115.4612,38.8416,保定市,地表水厂,,38,38,47,24,31,11,,30,30,65,57,3,2,0.4,0.7
2023-12-27T1800,1056A,115.5086,38.8639,保定市,监测站,,35,35,45,19,24,23,,34,34,55,52,7,6,0,0.1
2023-12-27T1800,3581A,115.31981,38.95208,保定市,满城区生态环境分局,,39,36,38,27,24,26,,41,41,42,46,4,4,0.5,0.6
2023-12-27T1800,3582A,115.47694,38.76408,保定市,清苑区第二中学,,36,31,46,25,34,9,,38,38,61,50,2,2,0.5,0.7
2023-12-27T1800,3583A,115.62909,39.02311,保定市,徐水物探局,,39,39,52,14,32,37,,37,37,32,44,4,4,0.4,0.9
2023-12-27T1800,4004A,115.4202,38.8656,保定市,双鹰农机,,45,45,44,30,30,31,,46,46,40,46,4,4,0.5,0.6
2023-12-27T1800,2594A,99.1678,25.1081,保山市,市环境监测站,,23,18,13,7,13,72,,64,64,5,8,5,5,0.3,0.4
2023-12-27T1800,2595A,99.1711,25.1328,保山市,市环保局,,23,20,20,14,14,73,,63,63,3,5,4,5,0.5,0.5
2023-12-27T1800,1866A,109.2262,21.588,北海市,牛尾岭水库,,,,,,,,,,,,,,,,
2023-12-27T1800,1867A,109.1436,21.4086,北海市,海滩公园,颗粒物(PM10),62,73,72,39,42,114,,126,126,51,28,10,14,0.6,0.5
2023-12-27T1800,1868A,109.0981,21.4661,北海市,新市环保局,颗粒物(PM10),66,81,74,44,56,145,,134,134,31,31,12,12,0.3,0.4
2023-12-27T1800,1869A,109.1778,21.5233,北海市,北海工业园,细颗粒物(PM2.5),64,75,87,46,55,138,,128,128,19,29,12,13,0.4,0.6
2023-12-27T1800,3400A,109.1911,21.4415,北海市,龙潭自来水厂,细颗粒物(PM2.5),65,70,72,47,51,139,,134,134,23,23,14,13,0.6,0.6
2023-12-27T1800,1001A,116.3621,39.8784,北京市,万寿西宫,,28,28,65,14,27,45,,38,38,28,64,2,3,0.3,0.7
2023-12-27T1800,1002A,116.2202,40.2915,北京市,定陵,,40,40,31,27,19,0,,25,21,49,21,2,2,1.0,0.6
2023-12-27T1800,1003A,116.4174,39.9289,北京市,东四,,31,31,52,15,29,36,,30,30,22,48,4,5,0.5,0.9
2023-12-27T1800,1004A,116.4072,39.8863,北京市,天坛,,19,19,38,13,23,45,,41,41,22,49,3,3,0.4,0.7
2023-12-27T1800,1005A,116.462,39.9365,北京市,农展馆,,26,26,51,14,28,42,,38,38,32,57,2,2,0.2,0.6
2023-12-27T1800,1006A,116.3392,39.9295,北京市,官园,,28,28,46,16,29,48,,44,44,25,50,2,3,0.4,0.7
2023-12-27T1800,1007A,116.2878,39.9611,北京市,海淀万柳,,43,43,56,24,27,31,,35,35,36,55,3,1,0.6,0.8
2023-12-27T1800,1008A,116.6636,40.135,北京市,顺义新城,细颗粒物(PM2.5),53,48,56,37,29,3,,24,22,69,50,3,2,0.7,0.6
2023-12-27T1800,1009A,116.6275,40.3275,北京市,怀柔镇,颗粒物(PM10),52,54,31,31,18,4,,30,26,68,22,4,3,1.0,0.6
2023-12-27T1800,1010A,116.2296,40.217,北京市,昌平镇,,,62,46,,21,1,,17,16,68,39,2,2,0.8,0.6
2023-12-27T1800,1011A,116.3966,39.9821,北京市,奥体中心,,29,29,47,14,24,42,,35,35,24,48,3,3,0.4,0.7
2023-12-27T1800,1012A,116.184,39.9136,北京市,古城,,47,47,55,24,24,16,,29,29,51,52,3,3,0.6,0.8
2023-12-27T1800,3281A,115.9718,40.4529,北京市,延庆夏都,,47,47,44,30,26,9,,25,25,54,38,1,3,0.5,0.6
2023-12-27T1800,3417A,117.0709,40.1465,北京市,平谷新城,颗粒物(PM10),52,53,53,28,33,14,,44,42,56,35,1,3,0.8,0.8
2023-12-27T1800,3418A,116.8336,40.4095,北京市,密云新城,,44,44,32,28,19,23,,40,39,45,26,3,2,0.6,0.4
2023-12-27T1800,3671A,116.088,39.9726,北京市,门头沟三家店,,,,,,,,,,,,,,,,
2023-12-27T1800,3672A,116.1541,39.8204,北京市,丰台云岗,,47,47,42,25,21,28,,34,34,42,34,2,4,0.5,0.5
2023-12-27T1800,3673A,116.6804,39.9081,北京市,通州东关,,33,33,52,20,31,21,,24,24,47,63,5,4,0.5,0.7
2023-12-27T1800,3674A,115.9577,39.7603,北京市,房山燕山,,38,38,35,21,21,36,,39,39,33,27,2,2,0.4,0.6
2023-12-27T1800,3675A,116.4672,39.7733,北京市,大兴旧宫,,27,27,46,16,24,28,,34,34,34,50,1,2,0.4,0.7
2023-12-27T1800,3694A,115.986,40.4563,北京市,延庆石河营,颗粒物(PM10),51,52,43,28,25,6,,24,23,54,36,1,2,0.6,0.7
2023-12-27T1800,3695A,116.6151,40.3053,北京市,怀柔新城,,42,42,31,27,18,11,,29,27,51,19,3,3,0.6,0.4
2023-12-27T1800,3696A,116.2545,39.8768,北京市,丰台小屯,,34,34,45,16,17,27,,34,34,32,60,2,3,0.2,0.8
2023-12-27T1800,3697A,116.84,40.3844,北京市,密云镇,,46,46,38,27,22,12,,34,34,50,39,3,2,0.8,0.6
2023-12-27T1800,1761A,123.8275,41.3064,本溪市,大峪,细颗粒物(PM2.5),78,86,66,57,38,9,,33,32,70,47,16,9,3.7,1.3
2023-12-27T1800,1762A,123.7567,41.3325,本溪市,溪湖,细颗粒物(PM2.5),149,205,116,114,54,9,,23,22,68,52,25,15,2.4,1.4
2023-12-27T1800,1763A,123.7169,41.3094,本溪市,彩屯,细颗粒物(PM2.5),199,197,91,149,67,14,,22,22,75,58,8,10,2.8,1.8
2023-12-27T1800,1764A,123.7669,41.2864,本溪市,东明,细颗粒物(PM2.5),155,135,69,118,56,12,,25,24,79,57,29,13,4.8,1.9
2023-12-27T1800,1765A,123.7992,41.2664,本溪市,新立屯,颗粒物(PM10),101,151,48,64,32,8,,24,21,75,52,29,12,4.9,1.4
2023-12-27T1800,1766A,123.8142,41.3472,本溪市,威宁,细颗粒物(PM2.5),108,,94,81,58,8,,27,26,56,48,7,7,1.4,1.4
2023-12-27T1800,2587A,105.2864,27.3125,毕节市,八中,细颗粒物(PM2.5),93,83,138,69,115,125,,99,99,18,32,14,13,0.8,1.3
2023-12-27T1800,2588A,105.31,27.2944,毕节市,师专,细颗粒物(PM2.5),93,83,137,69,114,116,,90,90,26,37,14,15,0.8,1.2
2023-12-27T1800,3537A,105.3631,27.3533,毕节市,长征村,细颗粒物(PM2.5),118,104,120,89,103,115,,103,103,26,27,20,12,0.9,1.1
2023-12-27T1800,1629A,118.0018,37.3617,滨州市,第二水厂,细颗粒物(PM2.5),70,75,41,51,24,22,,49,49,59,35,18,18,1.0,0.7
2023-12-27T1800,1630A,117.9776,37.393,滨州市,北中新校,,41,41,37,20,18,10,,48,47,68,37,12,13,0.6,0.4
2023-12-27T1800,3514A,117.9378,37.3956,滨州市,中海酒店,,39,39,31,19,22,22,,51,50,52,27,12,15,0.9,0.7
2023-12-27T1800,3515A,117.9378,37.3553,滨州市,开发区一中,细颗粒物(PM2.5),69,70,44,50,26,31,,45,45,50,33,24,18,0.7,0.6
2023-12-27T1800,3516A,118.0917,37.694,滨州市,金海六路,,35,35,19,14,9,20,,41,39,35,20,8,8,0.7,0.6
2023-12-27T1800,4028A,117.9956,37.3753,滨州市,滨州市西街道办事处,颗粒物(PM10),58,66,38,36,25,12,,45,45,56,30,14,18,1.0,0.7
2023-12-27T1800,2311A,115.8072,33.8399,亳州市,污水处理厂,细颗粒物(PM2.5),145,168,187,111,137,20,,34,32,60,55,6,7,1.2,1.2
2023-12-27T1800,2312A,115.7789,33.8518,亳州市,三国揽胜宫,细颗粒物(PM2.5),153,198,222,117,145,23,,30,30,56,57,7,8,1.1,1.3
2023-12-27T1800,3332A,115.7633,33.8034,亳州市,亳州学院,细颗粒物(PM2.5),156,183,203,119,140,18,,32,32,59,54,5,6,0.9,1
2023-12-27T1800,2693A,82.0485,44.8556,博尔塔拉蒙古自治州,市党校,细颗粒物(PM2.5),124,,111,94,74,50,,49,49,30,28,18,22,0.8,0.6
2023-12-27T1800,2694A,82.0806,44.8969,博尔塔拉蒙古自治州,市环保局,细颗粒物(PM2.5),94,127,107,70,58,61,,52,52,39,42,15,21,1.7,1.3
2023-12-27T1800,1071A,116.8842,38.2991,沧州市,沧县城建局,细颗粒物(PM2.5),60,52,48,43,35,10,,26,26,71,53,9,11,0.8,0.9
2023-12-27T1800,1072A,116.8584,38.3254,沧州市,电视转播站,细颗粒物(PM2.5),58,54,51,41,33,4,,20,20,77,61,8,12,0.8,0.8
2023-12-27T1800,1073A,116.8709,38.3228,沧州市,市环保局,细颗粒物(PM2.5),57,47,49,40,35,9,,23,23,62,49,8,8,0.9,0.9
2023-12-27T1800,3324A,116.8136,38.3004,沧州市,河北水利电力学院,细颗粒物(PM2.5),60,51,42,43,29,2,,26,25,71,50,12,14,0.8,0.7
2023-12-27T1800,2622A,97.1806,31.1273,昌都市,昌都监测站,细颗粒物(PM2.5),52,42,38,36,11,24,,46,46,77,36,9,7,1.9,1.2
2023-12-27T1800,3719A,97.1714,31.1406,昌都市,昌都会议中心,,19,12,12,7,10,59,,57,57,14,12,4,5,0.6,0.6
2023-12-27T1800,2690A,88.1236,43.8886,昌吉州,天山天池,,25,17,5,0,5,80,,70,,6,4,7,6,0.5,0.3
2023-12-27T1800,2692A,87.2717,44.0297,昌吉州,新区政务中心,细颗粒物(PM2.5),235,238,251,185,176,38,,29,29,59,70,7,7,2.0,2.2
2023-12-27T1800,3613A,87.3095,44.0142,昌吉州,亚心广场,细颗粒物(PM2.5),243,259,241,193,176,24,,33,33,80,75,7,7,2.1,1.9
2023-12-27T1800,1119A,125.3325,43.9166,长春市,食品厂,细颗粒物(PM2.5),67,80,71,48,52,10,,31,30,63,53,22,22,1.3,0.9
2023-12-27T1800,1120A,125.2863,43.9027,长春市,客车厂,细颗粒物(PM2.5),67,69,60,48,47,10,,31,29,65,54,15,19,1.4,0.9
2023-12-27T1800,1121A,125.2841,43.8463,长春市,邮电学院,细颗粒物(PM2.5),67,70,63,48,54,10,,36,34,62,45,16,15,1.2,0.8
2023-12-27T1800,1122A,125.3716,43.8772,长春市,劳动公园,细颗粒物(PM2.5),55,58,65,39,49,13,,43,39,61,49,16,14,0.7,0.8
2023-12-27T1800,1123A,125.3297,43.8805,长春市,园林处,细颗粒物(PM2.5),57,62,57,40,49,12,,38,35,63,49,21,15,1.1,0.8
2023-12-27T1800,1124A,125.4605,43.79,长春市,净月潭,,49,37,40,34,32,43,,57,56,15,13,6,6,0.6,0.5
2023-12-27T1800,1125A,125.7194,43.515,长春市,甩湾子,,,,,,,,,,,,,,,,
2023-12-27T1800,1126A,125.3863,43.8447,长春市,经开区环卫处,颗粒物(PM10),51,52,61,30,45,12,,41,39,54,43,9,11,0.7,0.7
2023-12-27T1800,1127A,125.245,43.7783,长春市,高新区管委会,细颗粒物(PM2.5),67,69,79,48,76,6,,42,36,64,43,8,9,0.9,1
2023-12-27T1800,1128A,125.1761,43.8325,长春市,岱山公园,细颗粒物(PM2.5),57,60,66,40,52,7,,40,38,68,49,10,8,1.2,0.9
2023-12-27T1800,1335A,113.0833,28.2325,长沙市,经开区环保局,细颗粒物(PM2.5),138,139,118,105,80,44,,54,54,61,69,10,10,0.8,0.9
2023-12-27T1800,1336A,112.8872,28.2189,长沙市,高开区环保局,细颗粒物(PM2.5),142,150,131,108,79,45,,54,54,52,71,9,9,1.2,1.7
2023-12-27T1800,1337A,113.0792,28.2053,长沙市,马坡岭,细颗粒物(PM2.5),128,139,150,97,97,38,,49,49,61,72,10,10,0.5,0.9
2023-12-27T1800,1338A,112.9394,28.19,长沙市,湖南师范大学,细颗粒物(PM2.5),168,143,112,127,83,,,38,,,64,,6,,1.1
2023-12-27T1800,1339A,113.0178,28.1322,长沙市,雨花区环保局,细颗粒物(PM2.5),130,137,118,99,76,45,,57,57,57,74,7,8,1.1,1.3
2023-12-27T1800,1340A,112.9792,28.2597,长沙市,伍家岭,细颗粒物(PM2.5),135,153,149,103,92,38,,43,43,55,62,11,8,1.1,1.4
2023-12-27T1800,1341A,113.0014,28.1944,长沙市,火车新站,细颗粒物(PM2.5),132,141,157,100,100,41,,48,48,59,81,8,7,0.9,1.8
2023-12-27T1800,1342A,112.9844,28.1178,长沙市,天心区环保局,细颗粒物(PM2.5),145,139,122,111,85,48,,60,60,59,79,7,8,0.7,1.1
2023-12-27T1800,1343A,112.8908,28.1308,长沙市,湖南中医药大学,细颗粒物(PM2.5),155,155,134,118,80,51,,62,62,45,56,7,6,0.7,1.1
2023-12-27T1800,1344A,112.9581,28.3611,长沙市,沙坪,细颗粒物(PM2.5),113,119,82,85,57,57,,57,57,39,34,9,9,1.1,1.1
2023-12-27T1800,1727A,113.1147,36.1547,长治市,清华站,细颗粒物(PM2.5),125,107,82,95,56,14,,49,45,94,56,25,23,1.5,1.4
2023-12-27T1800,1728A,113.1031,36.1989,长治市,监测站,细颗粒物(PM2.5),122,93,85,92,62,23,,38,38,88,71,20,21,1.5,1.3
2023-12-27T1800,1730A,113.0886,36.2125,长治市,审计局,细颗粒物(PM2.5),117,99,75,88,58,22,,38,38,83,57,22,22,1.2,0.9
2023-12-27T1800,1731A,113.0844,36.1856,长治市,长治八中,细颗粒物(PM2.5),97,122,107,72,64,10,,37,36,97,76,24,30,1.6,1.5
2023-12-27T1800,2845A,113.1569,36.1911,长治市,德盛苑,细颗粒物(PM2.5),107,114,72,80,50,30,,50,49,71,42,22,20,1.6,1.2
2023-12-27T1800,3568A,113.06,36.0464,长治市,向阳小学,细颗粒物(PM2.5),118,112,92,89,67,88,,79,79,52,55,22,32,1.4,1.7
2023-12-27T1800,3569A,112.8792,36.3144,长治市,屯留一中,细颗粒物(PM2.5),124,126,86,94,57,36,,58,58,95,59,40,26,1.8,1.5
2023-12-27T1800,3570A,113.235,36.3489,长治市,潞城四中,细颗粒物(PM2.5),119,125,80,90,58,36,,68,67,60,32,21,12,1.8,1
2023-12-27T1800,1854A,111.6975,28.9703,常德市,市二中,细颗粒物(PM2.5),183,161,149,138,130,45,,44,44,48,47,10,11,1.0,1
2023-12-27T1800,1857A,111.7158,29.1456,常德市,白鹤山,细颗粒物(PM2.5),159,212,131,121,78,33,,48,46,27,21,6,8,0.8,0.6
2023-12-27T1800,3138A,111.7153,29.0289,常德市,武陵区永安,细颗粒物(PM2.5),179,168,148,135,117,37,,44,44,49,51,10,12,1.1,1.1
2023-12-27T1800,3139A,111.6892,28.9881,常德市,鼎城区玉霞,细颗粒物(PM2.5),178,168,161,134,132,45,,44,44,44,50,12,11,1.0,1.2
2023-12-27T1800,3140A,111.6625,29.0531,常德市,武陵区长庚,细颗粒物(PM2.5),145,161,166,111,123,52,,45,45,40,47,10,8,0.9,1
2023-12-27T1800,1196A,119.9633,31.762,常州市,市监测站,细颗粒物(PM2.5),198,223,176,148,110,5,,35,34,156,115,12,14,1.8,1.6
2023-12-27T1800,1200A,119.9468,31.7069,常州市,武进监测站,细颗粒物(PM2.5),201,226,185,151,113,4,,27,26,162,110,12,18,1.7,1.7
2023-12-27T1800,1201A,119.9255,31.9087,常州市,安家,细颗粒物(PM2.5),147,156,171,112,114,45,,54,54,90,87,14,13,1.1,1.3
2023-12-27T1800,3002A,119.9805,31.8174,常州市,行政中心,细颗粒物(PM2.5),163,182,161,124,105,11,,40,40,132,102,20,17,1.3,1.3
2023-12-27T1800,3003A,120.0522,31.7748,常州市,经开区,细颗粒物(PM2.5),148,154,158,113,107,7,,43,43,144,108,11,12,1.4,1.5
2023-12-27T1800,3010A,119.9025,31.7964,常州市,钟楼,细颗粒物(PM2.5),203,201,166,153,115,6,,37,34,144,109,12,13,1.4,1.3
2023-12-27T1800,3429A,119.8598,31.7066,常州市,武进经发区,细颗粒物(PM2.5),193,191,177,145,121,10,,31,31,166,118,13,14,1.8,1.7
2023-12-27T1800,3430A,119.5826,31.7245,常州市,金坛城区,细颗粒物(PM2.5),202,175,168,152,122,18,,48,48,114,93,11,12,1.2,1.2
2023-12-27T1800,2220A,120.4318,41.5881,朝阳市,西梁,细颗粒物(PM2.5),199,,71,149,58,6,,25,23,62,42,24,18,1.8,1.5
2023-12-27T1800,2221A,120.4521,41.5646,朝阳市,河畔小区,颗粒物(PM10),59,68,64,27,42,40,,36,36,26,34,12,14,0.9,1.2
2023-12-27T1800,2222A,120.4176,41.5648,朝阳市,八里堡,,,90,73,,44,10,,24,24,57,39,19,18,1.4,1.5
2023-12-27T1800,2223A,120.3806,41.5969,朝阳市,农业园区,,,,86,,102,8,,24,23,64,44,24,18,1.6,1.5
2023-12-27T1800,1705A,116.6367,23.6719,潮州市,西园路,颗粒物(PM10),56,61,78,39,52,82,,94,94,27,30,8,8,0.5,0.5
2023-12-27T1800,1706A,116.6447,23.6706,潮州市,档案局,细颗粒物(PM2.5),79,70,77,58,44,76,,91,91,29,32,8,8,1.0,0.9
2023-12-27T1800,3026A,116.6183,23.6608,潮州市,市政府,细颗粒物(PM2.5),94,,91,70,66,76,,99,99,33,45,9,13,0.8,1
2023-12-27T1800,2472A,113.0073,25.9061,郴州市,马头岭,颗粒物(PM10),51,51,67,19,29,96,,78,78,20,37,17,21,0.9,1
2023-12-27T1800,2473A,113.0116,25.8226,郴州市,市职中,颗粒物(PM10),51,52,70,34,44,70,,69,69,34,34,18,13,0.9,1
2023-12-27T1800,2474A,113.0161,25.8001,郴州市,兴隆步行街,颗粒物(PM10),52,53,84,29,49,58,,69,68,48,38,13,9,0.7,1.2
2023-12-27T1800,2475A,113.0383,25.8071,郴州市,市审计局,,40,40,64,27,40,88,,70,70,20,37,18,16,0.5,1.2
2023-12-27T1800,2476A,113.0348,25.7759,郴州市,市环保局,颗粒物(PM10),51,52,66,22,43,61,,56,56,34,46,10,8,0.5,0.7
2023-12-27T1800,1431A,103.9728,30.7236,成都市,金泉两河,细颗粒物(PM2.5),144,154,147,110,104,73,,69,69,48,62,1,2,1.0,1.7
2023-12-27T1800,1432A,104.176,30.6872,成都市,十里店,细颗粒物(PM2.5),150,138,146,115,117,,,47,47,35,67,1,2,0.8,1.1
2023-12-27T1800,1433A,104.079,30.5706,成都市,三瓦窑,细颗粒物(PM2.5),152,141,144,116,104,85,,40,40,27,48,,3,0.8,1.3
2023-12-27T1800,1434A,104.1114,30.63,成都市,沙河铺,细颗粒物(PM2.5),148,128,139,113,115,90,,55,55,36,66,3,3,0.7,1.5
2023-12-27T1800,1437A,104.0786,30.6531,成都市,君平街,细颗粒物(PM2.5),178,160,169,134,142,76,,46,46,54,83,4,4,0.8,1.4
2023-12-27T1800,1438A,103.613,31.0283,成都市,灵岩寺,细颗粒物(PM2.5),143,136,89,109,90,81,,71,71,31,27,11,12,1.3,1.3
2023-12-27T1800,2880A,104.0239,30.65639,成都市,大石西路,细颗粒物(PM2.5),190,161,154,143,126,64,,44,44,69,84,4,4,1.0,1.5
2023-12-27T1800,3136A,104.2725,30.5589,成都市,龙泉驿区区政府,细颗粒物(PM2.5),113,122,114,85,84,99,,85,85,31,31,2,2,0.8,0.8
2023-12-27T1800,3357A,104.0106,30.6931,成都市,金博路,细颗粒物(PM2.5),155,165,154,118,122,61,,46,46,56,74,3,3,1.0,1.5
2023-12-27T1800,3359A,104.0578,30.5225,成都市,华阳,细颗粒物(PM2.5),138,136,124,105,96,78,,65,65,44,64,2,2,0.7,1.2
2023-12-27T1800,3487A,104.2394,30.5319,成都市,车城东七路,细颗粒物(PM2.5),139,132,126,106,101,94,,78,78,34,52,2,2,0.7,0.9
2023-12-27T1800,3488A,104.3853,30.7453,成都市,青白江技师分院,细颗粒物(PM2.5),135,115,106,103,91,102,,75,75,26,50,2,2,0.9,0.9
2023-12-27T1800,3489A,104.0789,30.4072,成都市,科学城,细颗粒物(PM2.5),125,112,107,95,87,106,,80,80,21,32,4,4,0.7,0.8
2023-12-27T1800,4011A,103.8506,30.6947,成都市,光华大道三段,细颗粒物(PM2.5),176,152,137,133,111,83,,70,70,42,56,1,2,0.8,1.2
2023-12-27T1800,1062A,117.9531,40.9081,承德市,铁路,颗粒物(PM10),118,185,89,85,55,7,,15,13,66,52,16,12,1.7,1.3
2023-12-27T1800,1063A,117.9392,40.9763,承德市,中国银行,颗粒物(PM10),89,127,74,60,45,10,,23,22,62,43,5,3,1.7,1.1
2023-12-27T1800,1064A,117.9503,40.928,承德市,开发区,细颗粒物(PM2.5),68,82,77,49,50,8,,14,14,56,48,10,9,1.5,1.3
2023-12-27T1800,1065A,117.8051,40.9655,承德市,文化中心,细颗粒物(PM2.5),149,178,114,114,60,8,,13,13,57,48,14,12,2.6,1.5
2023-12-27T1800,1066A,117.9268,41.0026,承德市,离宫,细颗粒物(PM2.5),64,73,52,46,36,2,,17,16,48,35,4,3,1.1,0.8
2023-12-27T1800,2314A,117.47,30.6618,池州市,池州学院,细颗粒物(PM2.5),178,186,112,134,72,33,,46,46,66,59,9,9,1.0,1
2023-12-27T1800,3237A,117.4918,30.6617,池州市,展览馆,细颗粒物(PM2.5),149,237,104,114,61,42,,51,51,61,52,8,7,1.1,1
2023-12-27T1800,3333A,117.5627,30.695,池州市,第八中学,细颗粒物(PM2.5),173,182,108,131,69,40,,49,49,57,51,6,7,1.0,0.9
2023-12-27T1800,3334A,117.5038,30.6243,池州市,第十二中学,细颗粒物(PM2.5),180,191,99,136,66,40,,50,49,57,53,8,7,0.9,1.1
2023-12-27T1800,1744A,118.9233,42.2816,赤峰市,松山一中,细颗粒物(PM2.5),119,140,54,90,34,9,,14,14,71,48,69,29,2.6,1.4
2023-12-27T1800,1745A,118.9576,42.2728,赤峰市,哈达街,细颗粒物(PM2.5),178,189,67,134,51,13,,17,16,68,43,130,47,2.5,1.3
2023-12-27T1800,1746A,118.8788,42.2554,赤峰市,天义路,颗粒物(PM10),102,154,42,70,26,12,,24,23,73,43,48,17,2.7,1.3
2023-12-27T1800,3058A,119.2658,42.0353,赤峰市,银河街,细颗粒物(PM2.5),133,168,97,101,63,20,,31,31,65,39,45,29,2.9,2
2023-12-27T1800,3286A,118.9359,42.3147,赤峰市,桥北物流园区,细颗粒物(PM2.5),124,114,41,94,40,10,,22,21,61,43,41,27,2.0,1.3
2023-12-27T1800,2521A,107.3476,22.4136,崇左市,市环保局江州分局,颗粒物(PM10),64,78,96,38,56,161,,135,135,15,37,10,9,0.7,0.8
2023-12-27T1800,2522A,107.3702,22.3707,崇左市,城南新区,,,77,96,48,82,142,,126,126,16,41,9,8,,0.7
2023-12-27T1800,2298A,118.3093,32.3153,滁州市,老年大学,细颗粒物(PM2.5),160,164,143,122,106,46,,66,66,98,93,13,13,1.2,1.2
2023-12-27T1800,2299A,118.3244,32.2786,滁州市,人大宾馆,细颗粒物(PM2.5),210,191,166,160,137,35,,60,60,132,115,10,10,1.1,1.1
2023-12-27T1800,3207A,118.3118,32.3038,滁州市,市政府原办公楼,细颗粒物(PM2.5),137,147,139,104,102,40,,62,62,113,100,10,10,1.3,1.3
2023-12-27T1800,3331A,118.3267,32.2634,滁州市,图书馆,细颗粒物(PM2.5),143,157,152,109,100,,,65,65,116,105,9,10,1.3,1.3
2023-12-27T1800,2605A,101.5482,25.0441,楚雄州,州环境监测站,,21,9,35,7,28,66,,57,57,5,19,5,7,0.4,0.7
2023-12-27T1800,2606A,101.538,25.0492,楚雄州,市经济开发区,,20,12,33,7,24,61,,56,56,11,19,5,7,0.4,0.6
2023-12-27T1800,2548A,107.5277,31.2827,达州市,达州职业技术学院,细颗粒物(PM2.5),99,112,132,74,104,14,,40,40,81,37,11,9,0.9,1
2023-12-27T1800,2549A,107.5086,31.2186,达州市,市环境监测站,细颗粒物(PM2.5),113,126,131,85,98,16,,31,31,90,52,10,8,1.2,1
2023-12-27T1800,2550A,107.4988,31.2132,达州市,凤凰小区,细颗粒物(PM2.5),140,156,132,107,100,15,,36,36,93,53,12,10,1.5,1.1
2023-12-27T1800,2551A,107.5082,31.1986,达州市,达县机关宾馆,细颗粒物(PM2.5),139,212,135,106,96,6,,34,34,103,56,14,8,3.0,1.2
2023-12-27T1800,2552A,107.4644,31.2124,达州市,市政中心,细颗粒物(PM2.5),125,129,136,95,100,9,,34,34,98,60,9,7,1.7,1.2
2023-12-27T1800,2614A,100.1542,25.7054,大理州,大理市环境监测站,,23,21,20,7,13,73,,66,66,7,10,5,5,0.5,0.6
2023-12-27T1800,2615A,100.2171,25.5811,大理州,大理古城,,37,37,20,17,13,59,,68,68,25,15,6,6,0.9,0.8
2023-12-27T1800,1109A,121.612,38.9741,大连市,甘井子,,31,31,23,14,14,10,,47,45,55,32,7,9,0.7,0.6
2023-12-27T1800,1110A,121.565,38.9511,大连市,周水子,,36,36,29,18,18,16,,39,38,41,32,29,16,0.6,0.6
2023-12-27T1800,1111A,121.5637,38.8845,大连市,星海三站,,24,24,28,14,16,36,,50,50,25,28,6,30,0.6,0.3
2023-12-27T1800,1112A,121.6302,38.9117,大连市,青泥洼桥,,,9,34,9,14,40,,50,50,20,34,,14,,0.5
2023-12-27T1800,1113A,121.6251,38.8638,大连市,傅家庄,,17,16,19,7,12,54,,57,57,15,34,10,22,0.8,0.9
2023-12-27T1800,1114A,121.5213,38.8661,大连市,七贤岭,,30,30,18,16,12,20,,50,50,44,24,10,15,0.9,0.9
2023-12-27T1800,1115A,121.2529,38.8061,大连市,旅顺,,16,16,15,11,11,41,,53,53,21,14,10,12,0.7,0.9
2023-12-27T1800,1116A,121.7485,39.1311,大连市,金州,颗粒物(PM10),56,61,26,39,19,11,,52,44,53,24,8,10,0.9,0.7
2023-12-27T1800,1117A,121.7811,39.0496,大连市,开发区,,42,35,29,29,10,8,,44,33,72,28,11,9,0.8,0.5
2023-12-27T1800,1118A,121.9762,39.0631,大连市,双D港,,17,8,16,5,9,52,,58,58,7,10,6,9,0.7,0.8
2023-12-27T1800,1789A,124.81117,46.03138,大庆市,大同区,细颗粒物(PM2.5),133,109,86,101,80,27,,34,34,37,29,16,11,1.0,0.8
2023-12-27T1800,1790A,125.129,46.533,大庆市,龙凤区,细颗粒物(PM2.5),118,129,85,89,62,27,,40,40,47,37,67,7,0.9,0.9
2023-12-27T1800,1791A,124.902,46.408,大庆市,红岗区,细颗粒物(PM2.5),88,80,56,65,49,26,,37,37,46,28,7,7,1.2,0.9
2023-12-27T1800,1792A,125.153,46.586,大庆市,萨尔图区,细颗粒物(PM2.5),109,90,79,82,66,36,,37,37,42,38,17,7,0.7,0.7
2023-12-27T1800,1793A,124.9042,46.6215,大庆市,让胡路区,颗粒物(PM10),75,100,67,52,35,5,,21,20,71,40,6,6,1.0,0.8
2023-12-27T1800,3481A,125.141,46.634,大庆市,萨区政府监测点,细颗粒物(PM2.5),98,80,69,73,64,17,,31,31,46,36,9,10,1.0,1
2023-12-27T1800,1721A,113.3819,40.1097,大同市,果树场,,,,,,,,,,,,,,,,
2023-12-27T1800,1723A,113.2994,40.0758,大同市,云冈宾馆,细颗粒物(PM2.5),199,243,127,149,67,5,,25,24,98,59,44,30,2.5,2.1
2023-12-27T1800,1724A,113.3444,40.0917,大同市,大同大学,细颗粒物(PM2.5),162,185,109,123,58,3,,28,27,99,52,37,25,2.3,1.3
2023-12-27T1800,1725A,113.2661,40.1269,大同市,安家小村,细颗粒物(PM2.5),124,170,146,94,69,7,,33,32,83,61,59,37,2.3,3.5
2023-12-27T1800,1726A,113.2711,40.0844,大同市,教育学院,细颗粒物(PM2.5),170,229,150,129,70,6,,24,23,106,72,42,30,2.1,3.1
2023-12-27T1800,3282A,113.3397,40.0597,大同市,大同市卫生学校,细颗粒物(PM2.5),165,182,100,125,61,8,,27,25,104,60,40,27,1.7,1.2
2023-12-27T1800,3565A,113.1367,40.1122,大同市,云冈站,细颗粒物(PM2.5),139,162,140,106,74,11,,29,29,84,63,45,74,2.5,1.7
2023-12-27T1800,3566A,113.1186,40.2556,大同市,图书馆,细颗粒物(PM2.5),160,153,121,122,82,37,,46,46,59,40,51,40,1.4,1.6
2023-12-27T1800,3567A,113.5931,40.0461,大同市,区一中,细颗粒物(PM2.5),110,160,118,83,56,28,,44,38,70,38,70,29,1.3,1.1
2023-12-27T1800,3676A,113.2802,40.0995,大同市,第二人民医院,细颗粒物(PM2.5),172,183,141,130,70,10,,28,28,98,65,46,28,2.5,2.2
2023-12-27T1800,2269A,124.1069,50.4097,大兴安岭地区,科技局,,33,30,15,23,15,37,,45,44,18,7,11,5,0.6,0.4
2023-12-27T1800,3663A,124.1164,50.4278,大兴安岭地区,红旗社区,,,34,11,19,11,,,22,,41,18,22,8,0.6,0.3
2023-12-27T1800,1600A,124.3303,40.0625,丹东市,江湾东路,,,164,36,,23,11,,64,59,90,24,26,19,2.9,0.8
2023-12-27T1800,1601A,124.4256,40.1503,丹东市,临江后街,细颗粒物(PM2.5),59,51,32,42,23,33,,63,61,50,24,12,11,1.1,0.7
2023-12-27T1800,1602A,124.3933,40.1461,丹东市,元宝山,,39,29,22,27,21,30,,55,53,46,19,18,16,1.1,1
2023-12-27T1800,1603A,124.3633,40.1092,丹东市,民主桥,细颗粒物(PM2.5),102,91,36,76,24,16,,58,55,82,25,20,14,2.3,0.8
2023-12-27T1800,3541A,109.5726,19.5167,儋州市,第一中学子站,,45,45,47,25,24,106,,103,103,12,11,5,5,0.8,0.8
2023-12-27T1800,3542A,109.5567,19.5187,儋州市,东坡学校子站,颗粒物(PM10),51,52,51,27,22,108,,107,107,12,9,4,4,0.7,0.6
2023-12-27T1800,2616A,98.5842,24.428,德宏州,德宏州监测站,,36,36,44,18,29,75,,51,51,11,20,13,15,0.3,0.4
2023-12-27T1800,3677A,98.5881,24.4368,德宏州,芒市人民政府综合楼,,36,36,41,12,26,74,,51,51,11,16,10,9,0.5,0.6
2023-12-27T1800,1901A,104.4239,31.1208,德阳市,东山公园,细颗粒物(PM2.5),144,126,131,110,114,102,,72,72,29,47,2,2,0.8,0.9
2023-12-27T1800,1902A,104.3826,31.1317,德阳市,西小区,细颗粒物(PM2.5),169,129,150,128,137,67,,54,54,43,63,2,2,1.0,1.2
2023-12-27T1800,1904A,104.3553,31.1091,德阳市,耐火材料厂,细颗粒物(PM2.5),169,,162,128,139,76,,50,50,25,59,1,2,0.8,1.1
2023-12-27T1800,3639A,104.4019,31.1244,德阳市,市教育局,细颗粒物(PM2.5),155,125,130,118,117,77,,59,59,38,69,1,2,0.8,1.1
2023-12-27T1800,1622A,116.3032,37.4674,德州市,儿童乐园,细颗粒物(PM2.5),98,100,58,73,39,3,,16,15,89,62,11,13,1.4,0.9
2023-12-27T1800,1624A,116.2991,37.4451,德州市,监理站,细颗粒物(PM2.5),62,66,67,44,48,47,,25,25,94,68,10,10,1.0,1
2023-12-27T1800,3066A,116.2721,37.4379,德州市,九衢泉纯净水厂,细颗粒物(PM2.5),79,97,69,58,47,3,,18,17,100,71,12,11,1.4,1.1
2023-12-27T1800,3371A,116.3728,37.4403,德州市,开发区人民医院,细颗粒物(PM2.5),62,68,69,44,44,6,,41,40,86,64,8,8,1.1,1
2023-12-27T1800,3372A,116.3572,37.4094,德州市,太阳城中学,细颗粒物(PM2.5),63,56,59,45,44,7,,35,34,77,53,7,10,1.1,1
2023-12-27T1800,3511A,116.5652,37.3319,德州市,陵城艺术中心,细颗粒物(PM2.5),67,73,61,48,39,8,,28,27,67,40,6,8,1.0,0.8
2023-12-27T1800,2621A,99.7056,27.8317,迪庆州,迪庆州站,,23,22,27,15,19,72,,72,72,10,15,8,9,0.5,0.7
2023-12-27T1800,3180A,99.7136,27.8094,迪庆州,质量技术监督局,,24,19,22,13,18,76,,76,76,7,12,8,7,0.4,0.6
2023-12-27T1800,2663A,104.6241,35.5734,定西市,东关小学,颗粒物(PM10),66,81,97,41,57,68,,60,60,17,30,13,24,0.6,1.4
2023-12-27T1800,2664A,104.6194,35.5934,定西市,供电公司,颗粒物(PM10),56,61,91,34,59,65,,63,63,20,33,8,23,0.4,1.2
2023-12-27T1800,1389A,113.7547,23.0494,东莞市,莞城梨川,颗粒物(PM10),58,65,89,33,50,148,,129,129,34,68,10,11,0.8,1
2023-12-27T1800,1390A,113.7944,23.0128,东莞市,东城石井,颗粒物(PM10),53,55,79,28,45,131,,133,133,25,56,10,10,0.6,0.8
2023-12-27T1800,1391A,113.7383,22.9658,东莞市,南城西平,颗粒物(PM10),61,72,99,34,48,160,,127,127,40,79,9,10,0.7,0.9
2023-12-27T1800,3319A,113.7338,23.0381,东莞市,万江金泰,颗粒物(PM10),55,60,94,30,47,116,,116,116,51,70,12,12,0.9,1.1
2023-12-27T1800,3626A,113.7533,23.0202,东莞市,南城元岭,颗粒物(PM10),76,101,102,43,51,118,,136,136,55,72,9,10,0.8,1.1
2023-12-27T1800,3627A,113.7875,23.0457,东莞市,东城主山,颗粒物(PM10),62,73,94,37,50,140,,136,136,51,73,12,12,0.7,1
2023-12-27T1800,1666A,118.6614,37.4309,东营市,市环保局,,36,36,27,24,17,22,,44,43,38,15,8,10,0.6,0.4
2023-12-27T1800,3036A,118.6904,37.4338,东营市,开发区管委会,,43,43,28,22,15,30,,44,42,40,23,4,5,0.6,0.3
2023-12-27T1800,3365A,118.5719,37.565,东营市,垦利区民丰路,,27,27,21,17,10,17,,44,42,50,22,8,8,0.7,0.6
2023-12-27T1800,3498A,118.5055,37.8612,东营市,河口城区,,34,34,20,22,9,18,,45,43,46,21,4,4,0.7,0.5
2023-12-27T1800,3646A,118.4978,37.4623,东营市,胜利站,,38,38,30,22,13,24,,40,40,45,25,8,9,0.8,0.6
2023-12-27T1800,3734A,118.35,37.26,东营市,理想之城,,44,44,29,22,15,13,,43,41,61,28,6,7,0.7,0.5
2023-12-27T1800,1591A,110.0023,39.8129,鄂尔多斯市,综合楼,颗粒物(PM10),139,227,132,66,60,9,,66,63,100,76,18,23,1.0,1.1
2023-12-27T1800,1592A,109.9486,39.8261,鄂尔多斯市,巴音孟克林场办事处,颗粒物(PM10),89,127,109,58,56,26,,71,67,79,66,16,18,0.9,1
2023-12-27T1800,1593A,109.7736,39.5986,鄂尔多斯市,康泽苑,细颗粒物(PM2.5),70,80,108,51,77,60,,68,68,72,64,14,12,0.8,1.2
2023-12-27T1800,1594A,109.8119,39.5989,鄂尔多斯市,华泰汽车城,颗粒物(PM10),74,97,110,44,71,35,,62,62,89,66,14,11,1.0,1.2
2023-12-27T1800,1595A,109.9734,39.7884,鄂尔多斯市,奥林花园,颗粒物(PM10),87,124,130,46,64,36,,61,61,66,74,14,15,1.0,1.4
2023-12-27T1800,2436A,114.8938,30.3994,鄂州市,市政府,细颗粒物(PM2.5),200,155,121,150,100,47,,49,49,57,62,7,9,1.3,1.3
2023-12-27T1800,2437A,114.8989,30.3714,鄂州市,赵家坝,细颗粒物(PM2.5),193,,112,145,87,56,,54,54,58,72,5,9,0.8,0.8
2023-12-27T1800,3654A,114.8094,30.4089,鄂州市,精准医疗中心,细颗粒物(PM2.5),196,182,164,147,98,78,,70,70,40,57,7,12,0.8,0.9
2023-12-27T1800,2499A,108.3411,21.6158,防城港市,沙万,细颗粒物(PM2.5),107,121,85,80,69,56,,117,117,101,47,20,22,0.8,0.9
2023-12-27T1800,2500A,108.3514,21.7731,防城港市,防城档案局,细颗粒物(PM2.5),87,79,126,64,70,139,,128,128,20,43,8,6,0.6,0.8
2023-12-27T1800,2501A,108.3506,21.6414,防城港市,大海花园,细颗粒物(PM2.5),75,76,73,55,50,103,,110,110,62,37,11,20,0.9,0.9
2023-12-27T1800,1371A,113.1294,23.0067,佛山市,湾梁,颗粒物(PM10),58,66,104,32,53,74,,88,86,50,70,9,17,0.7,0.9
2023-12-27T1800,1372A,113.1083,23.0478,佛山市,华材职中,细颗粒物(PM2.5),63,61,112,45,71,74,,90,90,72,94,10,15,0.6,0.9
2023-12-27T1800,1373A,113.144,23.0453,佛山市,南海气象局,"颗粒物(PM10),细颗粒物(PM2.5)",54,57,106,38,65,87,,81,81,62,94,6,15,0.5,0.8
2023-12-27T1800,1374A,113.2881,22.8094,佛山市,顺德苏岗,细颗粒物(PM2.5),77,86,89,56,59,53,,55,55,106,107,12,14,0.9,1
2023-12-27T1800,1376A,112.8383,22.8678,佛山市,高明孔堂,细颗粒物(PM2.5),67,78,73,48,47,100,,99,99,29,47,12,15,0.5,0.6
2023-12-27T1800,1377A,112.8836,23.1588,佛山市,三水监测站,细颗粒物(PM2.5),67,73,91,48,59,54,,91,91,93,77,5,13,0.7,0.8
2023-12-27T1800,1378A,112.867,23.185,佛山市,三水云东海,,50,50,79,20,53,73,,98,98,32,61,7,13,0.8,0.9
2023-12-27T1800,3625A,113.2544,22.7642,佛山市,容桂街道办,颗粒物(PM10),81,112,126,46,61,65,,59,59,100,116,8,15,0.8,1
2023-12-27T1800,1280A,119.3903,26.0543,福州市,鼓山,,,,,,,,,,,,,,,,
2023-12-27T1800,1282A,119.2681,26.0504,福州市,师大,,50,50,45,22,25,63,,67,67,36,30,9,7,0.5,0.4
2023-12-27T1800,1283A,119.2984,26.1028,福州市,五四北路,,,,43,22,28,,,63,63,41,38,4,4,0.5,0.6
2023-12-27T1800,1284A,119.2648,26.0768,福州市,杨桥西路,,49,49,45,20,27,65,,68,68,33,30,6,5,0.6,0.5
2023-12-27T1800,1285A,119.317,26.0746,福州市,紫阳,,49,49,52,17,27,54,,56,56,37,37,6,6,0.6,0.6
2023-12-27T1800,3048A,119.5799,26.0936,福州市,九龙,,26,19,31,6,15,81,,83,83,16,16,4,5,0.4,0.7
2023-12-27T1800,3526A,119.5189,25.9664,福州市,吴航,,35,34,56,24,33,77,,63,63,19,40,5,6,0.5,0.7
2023-12-27T1800,1755A,123.7977,41.8491,抚顺市,望花区,细颗粒物(PM2.5),59,55,80,42,58,19,,37,37,65,48,18,15,1.3,1.2
2023-12-27T1800,1756A,123.9161,41.8822,抚顺市,顺城区,细颗粒物(PM2.5),185,,85,139,69,9,,39,36,90,56,16,10,2.3,1.2
2023-12-27T1800,1757A,124.0436,41.8611,抚顺市,东洲区,细颗粒物(PM2.5),75,88,56,55,44,25,,52,50,51,32,2,3,2.4,0.9
2023-12-27T1800,1758A,123.9247,41.8642,抚顺市,新抚区,细颗粒物(PM2.5),102,95,73,76,64,9,,40,37,94,56,18,15,2.2,1.1
2023-12-27T1800,1759A,124.0972,41.8961,抚顺市,大伙房水库,,42,34,40,29,33,58,,61,61,14,23,9,10,0.6,0.6
2023-12-27T1800,1760A,123.7086,41.8391,抚顺市,沈抚新城,细颗粒物(PM2.5),105,89,84,79,55,18,,39,38,87,56,13,15,1.1,1.2
2023-12-27T1800,2376A,116.2127,28.0814,抚州市,桐源党溪,颗粒物(PM10),61,72,64,36,40,85,,91,91,22,25,7,7,0.9,0.9
2023-12-27T1800,2377A,116.3544,27.9831,抚州市,市站,颗粒物(PM10),64,77,89,45,52,111,,90,90,28,51,17,20,0.8,1.5
2023-12-27T1800,2378A,116.3565,27.963,抚州市,血防站,颗粒物(PM10),68,86,88,45,53,107,,89,89,26,44,12,9,0.8,0.9
2023-12-27T1800,2379A,116.3564,28.0007,抚州市,采茶剧团,细颗粒物(PM2.5),62,70,81,44,52,101,,88,88,28,46,11,13,0.8,0.9
2023-12-27T1800,2380A,116.385,27.9647,抚州市,医学分院,颗粒物(PM10),62,74,89,42,45,95,,85,85,30,41,14,18,0.8,0.9
2023-12-27T1800,2207A,121.6094,41.998,阜新市,工业园区,细颗粒物(PM2.5),77,83,121,56,67,23,,41,41,48,44,49,21,1.0,1.5
2023-12-27T1800,2208A,121.6697,42.0279,阜新市,长青街,颗粒物(PM10),54,58,95,30,70,16,,31,31,44,38,17,21,1.0,2.9
2023-12-27T1800,2209A,121.6673,42.0705,阜新市,农业园区,细颗粒物(PM2.5),62,44,35,44,24,41,,47,47,26,18,15,14,0.7,1.2
2023-12-27T1800,2210A,121.6717,42.0224,阜新市,东苑,细颗粒物(PM2.5),62,53,94,44,71,28,,39,39,45,41,23,28,1.0,3.2
2023-12-27T1800,2211A,121.6506,42.0498,阜新市,玉龙新城,细颗粒物(PM2.5),68,60,66,49,49,10,,38,38,51,43,11,15,0.7,1.5
2023-12-27T1800,2301A,115.8277,32.8929,阜阳市,市监测站,细颗粒物(PM2.5),279,266,216,229,184,32,,40,40,68,56,7,7,1.5,1.2
2023-12-27T1800,2303A,115.8554,32.8605,阜阳市,开发区,细颗粒物(PM2.5),253,299,250,203,159,39,,43,43,65,57,9,9,1.4,1.1
2023-12-27T1800,2875A,115.784,32.8892,阜阳市,阜阳职业技术学院,细颗粒物(PM2.5),256,254,211,206,166,30,,44,44,69,53,5,5,1.4,1.3
2023-12-27T1800,3468A,115.7901,32.8613,阜阳市,市规划展馆,细颗粒物(PM2.5),279,264,224,229,174,42,,45,45,53,47,8,6,1.5,1.2
2023-12-27T1800,3469A,115.836,32.9183,阜阳市,枣园社区,细颗粒物(PM2.5),283,281,226,233,175,31,,40,39,70,59,3,3,1.5,1.2
2023-12-27T1800,2669A,102.9099,34.9841,甘南州,州政府,,20,20,54,9,38,59,,62,62,28,37,12,19,0.5,0.8
2023-12-27T1800,3380A,102.8914,34.9617,甘南州,甘肃民族师范学院,,25,,57,5,19,77,,62,62,8,35,1,13,0.5,0.8
2023-12-27T1800,2570A,101.9603,30.0475,甘孜藏族自治州,水桥子,,20,19,30,13,16,64,,53,53,17,34,10,10,0.3,0.4
2023-12-27T1800,3065A,101.9533,29.9972,甘孜藏族自治州,州环保局,,30,30,23,8,7,33,,59,57,39,18,8,8,0.3,0.3
2023-12-27T1800,3414A,115.8347,28.932,赣江新区,桑海产业园,颗粒物(PM10),58,66,94,36,47,74,,76,76,39,59,8,9,0.6,0.6
2023-12-27T1800,2362A,114.9017,25.9149,赣州市,通天岩,,,,,,,,,,,,,,,,
2023-12-27T1800,2363A,114.9367,25.8664,赣州市,地委,颗粒物(PM10),57,64,88,39,43,79,,68,68,28,59,20,17,1.2,1.3
2023-12-27T1800,2364A,114.9461,25.8481,赣州市,气象台,颗粒物(PM10),52,53,90,32,42,69,,69,69,55,65,15,11,1.2,1.4
2023-12-27T1800,2365A,114.9322,25.8333,赣州市,市图书馆,,,75,91,,44,,,69,69,77,63,16,20,,1.2
2023-12-27T1800,2366A,114.8905,25.8471,赣州市,华坚鞋城,颗粒物(PM10),65,80,100,43,55,61,,68,68,51,63,19,19,1.3,1.6
2023-12-27T1800,3109A,115.0093,25.8613,赣州市,赣县区卫计委,,50,50,71,32,40,72,,73,73,39,47,11,10,0.9,1
2023-12-27T1800,2683A,106.2319,36.1417,固原市,马园,颗粒物(PM10),71,92,72,35,34,42,,60,60,41,43,7,7,0.7,0.9
2023-12-27T1800,2684A,106.2792,36.0022,固原市,监测站,颗粒物(PM10),53,55,71,29,43,87,,77,77,27,45,6,13,0.7,1.6
2023-12-27T1800,2685A,106.2375,36.0211,固原市,新区,颗粒物(PM10),51,52,72,30,36,42,,65,65,41,44,5,5,0.5,1.2
2023-12-27T1800,3522A,106.2177,35.9959,固原市,原州区十五小,颗粒物(PM10),60,69,59,32,27,56,,75,74,35,29,6,7,0.6,0.8
2023-12-27T1800,2543A,106.6308,30.5278,广安市,小平旧居,,,,,,,,,,,,,,,,
2023-12-27T1800,2544A,106.6303,30.4576,广安市,市委,细颗粒物(PM2.5),155,135,136,118,119,70,,69,69,37,37,6,6,1.1,1.1
2023-12-27T1800,2545A,106.6271,30.4663,广安市,友谊中学,细颗粒物(PM2.5),156,144,126,119,112,72,,66,66,45,38,8,7,1.2,1.1
2023-12-27T1800,2547A,106.6388,30.4551,广安市,广电花园,细颗粒物(PM2.5),173,135,123,131,116,42,,60,60,61,38,9,9,1.3,1.3
2023-12-27T1800,2902A,106.6351,30.4865,广安市,北辰小学,细颗粒物(PM2.5),162,130,131,123,115,72,,67,67,27,29,5,5,1.0,1.1
2023-12-27T1800,2523A,105.8945,32.4535,广元市,黑石坡,细颗粒物(PM2.5),79,90,68,58,53,90,,65,65,38,26,16,7,0.9,0.7
2023-12-27T1800,2524A,105.821,32.4444,广元市,老城,细颗粒物(PM2.5),138,157,108,105,66,21,,31,31,93,56,41,11,2.4,1.1
2023-12-27T1800,2526A,105.8628,32.4287,广元市,监测站,细颗粒物(PM2.5),122,116,86,92,63,36,,39,39,84,46,24,6,1.6,0.9
2023-12-27T1800,3617A,105.8047,32.4166,广元市,经开区,细颗粒物(PM2.5),138,150,107,105,73,33,,35,35,79,56,47,20,2.1,1.4
2023-12-27T1800,1345A,113.2347,23.1423,广州市,广雅中学,颗粒物(PM10),76,102,136,45,68,21,,62,62,115,92,7,9,1.1,1.2
2023-12-27T1800,1346A,113.2612,23.105,广州市,市五中,颗粒物(PM10),66,82,122,44,71,42,,70,70,73,89,8,11,0.9,1.1
2023-12-27T1800,1348A,113.3478,23.0916,广州市,广东商学院,颗粒物(PM10),79,107,152,43,50,45,,62,62,97,93,8,9,0.8,1
2023-12-27T1800,1349A,113.4332,23.1047,广州市,市八十六中,颗粒物(PM10),75,100,108,45,52,30,,47,47,119,92,7,9,0.7,0.8
2023-12-27T1800,1350A,113.3505,22.9483,广州市,番禺中学,"颗粒物(PM10),细颗粒物(PM2.5)",68,85,125,49,69,57,,57,57,93,104,8,9,0.8,1
2023-12-27T1800,1351A,113.2146,23.3916,广州市,花都师范,颗粒物(PM10),59,68,92,36,48,92,,86,86,67,73,10,8,0.5,0.7
2023-12-27T1800,1352A,113.2597,23.1331,广州市,市监测站,颗粒物(PM10),72,94,147,38,73,53,,74,74,94,98,6,9,0.6,1
2023-12-27T1800,1353A,113.5618,23.312,广州市,九龙镇镇龙,颗粒物(PM10),79,108,90,48,41,26,,80,80,97,56,6,6,0.7,0.7
2023-12-27T1800,1354A,113.2765,23.1544,广州市,麓湖,,49,49,89,26,50,84,,93,93,40,71,6,7,0.5,0.8
2023-12-27T1800,1355A,113.443,23.3035,广州市,帽峰山森林公园,,38,30,38,26,23,116,,112,112,12,18,9,11,0.4,0.6
2023-12-27T1800,2846A,113.3221,23.1322,广州市,体育西,颗粒物(PM10),70,90,105,43,56,53,,74,74,86,77,9,11,1.0,1
2023-12-27T1800,3298A,113.5717,23.5491,广州市,从化街口,,50,50,74,32,47,78,,86,86,43,48,8,7,0.7,0.8
2023-12-27T1800,3299A,113.3472,23.3692,广州市,白云竹料,颗粒物(PM10),71,92,110,46,51,68,,90,90,79,63,9,9,1.3,1.3
2023-12-27T1800,3300A,113.2981,23.237,广州市,白云嘉禾,颗粒物(PM10),91,131,128,55,59,13,,76,76,130,84,10,10,1.2,0.9
2023-12-27T1800,3301A,113.4256,23.1716,广州市,黄埔科学城,颗粒物(PM10),61,71,63,42,34,77,,95,95,61,61,6,6,0.7,0.7
2023-12-27T1800,3302A,113.3942,23.0483,广州市,番禺大学城,颗粒物(PM10),68,85,97,44,52,92,,70,70,70,91,9,9,0.8,0.9
2023-12-27T1800,3303A,113.4922,22.8168,广州市,南沙黄阁,"颗粒物(PM10),细颗粒物(PM2.5)",72,93,114,52,55,127,,118,118,81,87,6,10,1.0,1.1
2023-12-27T1800,3304A,113.5342,22.7896,广州市,南沙街,颗粒物(PM10),70,90,106,47,53,171,,132,132,50,87,7,7,0.8,1
2023-12-27T1800,3443A,113.2902,23.5544,广州市,花都梯面,,36,36,41,21,25,83,,102,102,31,39,7,8,0.4,0.4
2023-12-27T1800,3445A,113.7858,23.7478,广州市,从化良口,,35,28,26,24,19,89,,92,92,13,24,6,5,0.5,0.5
2023-12-27T1800,3446A,113.8051,23.2614,广州市,增城荔城,颗粒物(PM10),60,69,54,41,31,104,,96,96,29,35,9,9,0.6,0.6
2023-12-27T1800,2505A,109.568,23.1478,贵港市,德智高中,细颗粒物(PM2.5),64,70,73,46,58,138,,99,99,24,42,8,8,0.8,0.9
2023-12-27T1800,2506A,109.6047,23.0666,贵港市,江南子站,细颗粒物(PM2.5),77,95,155,56,78,138,,110,110,33,58,12,14,0.7,1.5
2023-12-27T1800,2507A,109.6014,23.0948,贵港市,贵城子站,细颗粒物(PM2.5),60,66,97,43,74,136,,106,106,24,49,15,14,0.7,1.1
2023-12-27T1800,2508A,109.5669,23.1065,贵港市,荷城子站,细颗粒物(PM2.5),70,85,113,51,62,108,,105,105,36,48,12,13,1.4,1.3
2023-12-27T1800,3405A,109.5886,23.1172,贵港市,新世纪学校,颗粒物(PM10),62,73,97,43,58,137,,119,119,21,45,7,7,0.9,1
2023-12-27T1800,1439A,106.6899,26.5998,贵阳市,马鞍山,细颗粒物(PM2.5),62,58,76,44,60,86,,77,77,37,42,15,8,0.6,0.7
2023-12-27T1800,1440A,106.6971,26.5694,贵阳市,市环保站,细颗粒物(PM2.5),60,53,93,43,72,87,,83,83,44,59,14,29,0.4,0.7
2023-12-27T1800,1441A,106.6243,26.6266,贵阳市,鉴湖路,颗粒物(PM10),57,63,81,34,53,107,,95,95,26,42,13,19,0.4,0.6
2023-12-27T1800,1442A,106.7487,26.6343,贵阳市,燕子冲,颗粒物(PM10),56,61,80,39,60,88,,77,77,34,37,21,22,0.8,0.9
2023-12-27T1800,1443A,106.6555,26.4365,贵阳市,碧云窝,颗粒物(PM10),59,68,92,41,62,102,,102,102,16,39,15,28,0.5,0.9
2023-12-27T1800,1444A,106.694,26.5161,贵阳市,中院村,颗粒物(PM10),63,75,98,44,65,71,,72,72,37,62,21,44,0.7,1
2023-12-27T1800,1445A,106.7109,26.6027,贵阳市,红边门,"颗粒物(PM10),细颗粒物(PM2.5)",64,78,93,46,67,71,,76,76,51,51,18,41,0.9,1
2023-12-27T1800,1446A,106.7164,26.5699,贵阳市,新华路,细颗粒物(PM2.5),70,66,92,51,63,80,,80,80,45,50,17,24,0.7,0.9
2023-12-27T1800,1447A,106.674,26.5424,贵阳市,太慈桥,颗粒物(PM10),56,61,83,36,57,106,,90,90,22,50,15,15,0.5,0.8
2023-12-27T1800,1552A,106.805,26.3003,贵阳市,桐木岭,,,,,,,,,,,,,,,,
2023-12-27T1800,1862A,110.4144,25.3167,桂林市,电子科大尧山校区,"颗粒物(PM10),细颗粒物(PM2.5)",65,80,60,47,43,96,,99,99,15,12,18,14,0.5,0.5
2023-12-27T1800,1863A,110.2819,25.2697,桂林市,监测站,,,74,98,58,65,,,53,,33,53,14,13,0.6,1
2023-12-27T1800,1864A,110.3089,25.2708,桂林市,龙隐路小学,细颗粒物(PM2.5),72,55,69,52,59,75,,90,90,50,47,11,13,0.9,0.9
2023-12-27T1800,1865A,110.2869,25.2178,桂林市,八中,细颗粒物(PM2.5),60,49,95,43,69,100,,91,91,27,45,9,12,0.7,1
2023-12-27T1800,3403A,110.1764,25.2381,桂林市,创业大厦,细颗粒物(PM2.5),64,58,90,46,70,103,,83,83,27,50,12,25,0.5,0.7
2023-12-27T1800,3531A,110.296,25.1253,桂林市,旅游学院,颗粒物(PM10),51,51,84,27,58,114,,99,99,16,37,9,11,0.4,0.5
2023-12-27T1800,2674A,100.2561,34.4714,果洛藏族自治州,玛沁县大武镇,,28,19,26,19,14,80,,72,72,7,14,6,12,0.6,0.5
2023-12-27T1800,1129A,126.5422,45.755,哈尔滨市,岭北,细颗粒物(PM2.5),114,100,95,86,82,66,,100,94,70,45,26,18,2.1,0.7
2023-12-27T1800,1130A,126.561,45.8167,哈尔滨市,松北商大,细颗粒物(PM2.5),119,111,96,90,79,15,,38,36,78,47,11,10,1.1,0.8
2023-12-27T1800,1131A,126.979,45.5419,哈尔滨市,阿城会宁,细颗粒物(PM2.5),74,64,83,54,76,53,,62,62,29,31,12,14,0.7,0.9
2023-12-27T1800,1132A,126.599,45.7222,哈尔滨市,南岗学府路,细颗粒物(PM2.5),107,112,114,80,82,25,,47,47,62,49,12,11,1.0,0.9
2023-12-27T1800,1133A,126.689,45.7733,哈尔滨市,太平宏伟公园,细颗粒物(PM2.5),107,94,97,80,78,13,,33,32,81,58,20,18,1.0,0.9
2023-12-27T1800,1134A,126.635,45.7667,哈尔滨市,道外承德广场,细颗粒物(PM2.5),112,102,100,84,73,16,,44,43,76,56,15,13,1.0,1
2023-12-27T1800,1135A,126.685,45.7319,哈尔滨市,香坊红旗大街,细颗粒物(PM2.5),134,102,105,102,104,13,,39,38,86,64,25,26,1.1,1
2023-12-27T1800,1136A,126.6411,45.7258,哈尔滨市,动力和平路,细颗粒物(PM2.5),118,98,100,89,91,18,,35,35,67,57,19,18,1.0,1
2023-12-27T1800,1137A,126.593,45.7478,哈尔滨市,道里建国路,细颗粒物(PM2.5),78,98,99,57,82,12,,36,35,71,52,11,6,1.0,0.7
2023-12-27T1800,1138A,126.615,45.61,哈尔滨市,平房东轻厂,细颗粒物(PM2.5),104,100,98,78,83,52,,67,67,38,40,8,8,1.2,1.2
2023-12-27T1800,1139A,126.595,45.9855,哈尔滨市,呼兰师专,细颗粒物(PM2.5),137,114,83,104,73,30,,41,41,66,37,27,13,1.1,0.9
2023-12-27T1800,1140A,126.6206,45.6842,哈尔滨市,省农科院,细颗粒物(PM2.5),108,102,113,81,87,30,,47,47,66,57,19,21,1.0,1.1
2023-12-27T1800,2688A,93.5128,42.8172,哈密地区,地区监测站,颗粒物(PM10),158,265,249,89,77,48,,39,39,45,52,14,10,0.8,1
2023-12-27T1800,2689A,93.4961,42.8328,哈密地区,哈密师范学校,,,,269,,80,49,,36,36,37,54,20,11,1.2,1.6
2023-12-27T1800,2671A,100.9048,36.9639,海北藏族自治州,海晏县西海镇,,26,25,21,8,10,81,,80,80,5,6,10,10,0.6,0.5
2023-12-27T1800,3867A,102.0738,36.5056,海东地区,平安区公安北苑,颗粒物(PM10),54,58,53,20,32,45,,48,48,49,27,27,23,1.0,1.1
2023-12-27T1800,1409A,110.576,19.9507,海口市,东寨港,,,,,,,,,,,,,,,,
2023-12-27T1800,1410A,110.3232,20.0574,海口市,海南大学,,,66,53,36,28,,,139,139,18,16,10,8,0.7,0.5
2023-12-27T1800,1411A,110.283,20.0053,海口市,秀英海南医院,臭氧1小时,75,64,52,36,28,180,,148,148,28,20,10,9,0.5,0.5
2023-12-27T1800,1412A,110.338,19.9969,海口市,海南师范大学,臭氧1小时,80,63,51,40,29,184,,148,148,26,17,8,7,0.5,0.5
2023-12-27T1800,1413A,110.33,20.0356,海口市,龙华路环保局宿舍,颗粒物(PM10),59,68,55,37,30,164,,116,,18,15,9,8,0.7,0.5
2023-12-27T1800,3539A,110.5111,19.9736,海口市,桂林洋子站,臭氧1小时,84,75,50,35,25,187,,160,160,27,17,7,6,0.5,0.4
2023-12-27T1800,2673A,100.6188,36.2866,海南藏族自治州,共和县恰卜恰镇,,20,15,34,14,19,63,,67,67,25,28,14,16,0.7,0.8
2023-12-27T1800,2676A,97.3731,37.3753,海西蒙古族藏族自治州,德令哈市,,37,37,26,9,12,74,,78,78,16,11,11,12,0.6,0.5
2023-12-27T1800,1048A,114.5302,36.6116,邯郸市,东污水处理厂,,44,44,55,27,48,39,,43,43,29,36,3,4,0.5,0.8
2023-12-27T1800,1049A,114.4918,36.5713,邯郸市,矿院,颗粒物(PM10),51,52,65,31,48,38,,40,40,35,40,2,3,0.7,0.8
2023-12-27T1800,1050A,114.484,36.6133,邯郸市,丛台公园,,38,38,64,23,50,54,,50,50,25,40,3,3,0.6,0.9
2023-12-27T1800,3458A,114.7895,36.5593,邯郸市,香泉濮院小区,,48,48,70,33,49,49,,53,53,26,41,4,5,0.5,0.7
2023-12-27T1800,3579A,114.50634,36.77178,邯郸市,永年区实验高中,,49,47,66,34,50,34,,46,46,44,43,7,9,0.5,0.6
2023-12-27T1800,3580A,114.20016,36.44293,邯郸市,峰峰矿区临水派出所,细颗粒物(PM2.5),59,64,72,42,56,33,,64,63,39,28,5,9,0.7,1
2023-12-27T1800,2634A,106.9893,33.1842,汉中市,汉川机床厂子校,细颗粒物(PM2.5),73,66,63,53,55,76,,67,67,22,18,4,4,0.6,0.7
2023-12-27T1800,2635A,107.0154,33.0706,汉中市,市监测站,细颗粒物(PM2.5),97,84,120,72,108,54,,51,51,62,54,12,11,1.4,1.8
2023-12-27T1800,2636A,107.0089,33.1138,汉中市,鑫源开发区,细颗粒物(PM2.5),84,73,107,62,93,70,,55,55,32,42,9,12,0.9,1.6
2023-12-27T1800,2637A,107.007,33.0323,汉中市,南郑大河坎水厂,细颗粒物(PM2.5),65,65,119,47,102,76,,62,62,27,36,9,10,0.7,1.3
2023-12-27T1800,1223A,120.2072,30.2111,杭州市,滨江,细颗粒物(PM2.5),149,163,138,114,81,42,,37,37,102,89,13,12,1.0,1.1
2023-12-27T1800,1224A,120.0633,30.2747,杭州市,西溪,细颗粒物(PM2.5),133,160,122,101,78,55,,55,55,86,67,9,8,0.8,0.9
2023-12-27T1800,1226A,120.3461,30.3153,杭州市,下沙,细颗粒物(PM2.5),203,225,184,153,112,21,,43,43,178,117,9,9,0.9,1.1
2023-12-27T1800,1227A,120.1269,30.2456,杭州市,卧龙桥,细颗粒物(PM2.5),114,138,129,86,87,17,,47,47,86,61,7,7,1.0,1
2023-12-27T1800,1228A,120.1903,30.2692,杭州市,浙江农大,细颗粒物(PM2.5),156,174,156,119,100,19,,38,38,124,93,12,11,0.7,0.9
2023-12-27T1800,1230A,120.1197,30.3119,杭州市,和睦小学,细颗粒物(PM2.5),144,179,162,110,100,46,,48,48,99,89,8,8,0.6,1.2
2023-12-27T1800,1231A,120.3019,30.4183,杭州市,临平镇,细颗粒物(PM2.5),133,137,167,101,112,80,,58,58,61,94,10,9,0.8,1.1
2023-12-27T1800,1232A,120.2697,30.1819,杭州市,城厢镇,细颗粒物(PM2.5),188,209,156,141,100,8,,35,34,144,91,7,7,1.2,1.2
2023-12-27T1800,1233A,120.0883,30.1808,杭州市,云栖,细颗粒物(PM2.5),105,124,129,79,81,38,,38,38,84,76,6,6,0.9,0.9
2023-12-27T1800,3557A,119.9464,30.0494,杭州市,镇二中,细颗粒物(PM2.5),105,119,98,79,71,37,,51,51,101,65,6,6,0.9,1
2023-12-27T1800,3558A,119.7183,30.2367,杭州市,市府大楼,细颗粒物(PM2.5),156,216,126,119,80,57,,72,72,88,61,9,6,0.9,1.1
2023-12-27T1800,3656A,120.1556,30.2864,杭州市,消防大队,细颗粒物(PM2.5),152,168,154,116,102,38,,53,53,125,100,10,10,1.0,1.1
2023-12-27T1800,1270A,117.1959,31.7848,合肥市,明珠广场,细颗粒物(PM2.5),216,241,160,166,94,19,,27,27,73,71,6,8,1.4,1.3
2023-12-27T1800,1271A,117.3072,31.8764,合肥市,三里街,细颗粒物(PM2.5),250,237,158,200,96,24,,31,31,78,75,8,10,1.2,1.1
2023-12-27T1800,1272A,117.2588,31.8707,合肥市,琥珀山庄,细颗粒物(PM2.5),230,237,155,180,96,34,,38,38,76,72,6,7,1.5,1.5
2023-12-27T1800,1273A,117.1604,31.9052,合肥市,董铺水库,细颗粒物(PM2.5),242,268,155,192,87,30,,38,38,65,59,4,6,1.3,1
2023-12-27T1800,1274A,117.25,31.8571,合肥市,长江中路,细颗粒物(PM2.5),256,251,158,206,111,12,,29,29,82,70,7,9,1.5,1.5
2023-12-27T1800,1275A,117.266,31.9436,合肥市,庐阳区,细颗粒物(PM2.5),238,259,170,188,97,35,,38,38,67,69,8,9,1.2,1.1
2023-12-27T1800,1276A,117.336,31.8586,合肥市,瑶海区,细颗粒物(PM2.5),247,256,159,197,102,17,,33,33,93,76,3,5,1.4,1.5
2023-12-27T1800,1277A,117.3027,31.7964,合肥市,包河区,细颗粒物(PM2.5),230,224,155,180,100,25,,45,45,95,83,7,12,1.4,1.3
2023-12-27T1800,1278A,117.2776,31.7385,合肥市,滨湖新区,细颗粒物(PM2.5),235,256,152,185,86,11,,30,30,,83,,7,1.1,0.9
2023-12-27T1800,1279A,117.1318,31.8403,合肥市,高新区,细颗粒物(PM2.5),247,239,155,197,104,31,,34,34,68,77,8,10,1.6,1.5
2023-12-27T1800,3464A,117.3803,31.9147,合肥市,高教基地,细颗粒物(PM2.5),258,256,147,208,95,28,,40,40,84,71,4,6,1.2,1
2023-12-27T1800,3614A,79.924,37.0877,和田地区,地区环保局,颗粒物(PM10),160,270,263,74,72,85,,71,71,27,40,11,19,0.5,1
2023-12-27T1800,3615A,79.9131,37.113,和田地区,市环保局,颗粒物(PM10),132,214,234,58,75,80,,62,62,27,57,10,20,1.3,3.2
2023-12-27T1800,2516A,108.2011,24.715,河池市,东仁乐园,细颗粒物(PM2.5),70,72,59,51,43,112,,98,98,15,24,9,8,0.6,0.6
2023-12-27T1800,2517A,108.0497,24.6947,河池市,市环保站,颗粒物(PM10),56,62,74,24,38,130,,106,106,21,41,11,11,0.7,0.9
2023-12-27T1800,2518A,108.0983,24.6989,河池市,市疾控中心,,,80,95,,58,97,,89,89,51,53,10,10,,0.9
2023-12-27T1800,1696A,114.6778,23.7569,河源市,源西,颗粒物(PM10),77,103,54,48,25,12,,79,76,89,50,6,6,0.9,0.7
2023-12-27T1800,1697A,114.6944,23.7586,河源市,东埔,,49,49,65,34,31,33,,80,80,83,52,11,9,0.9,0.8
2023-12-27T1800,1698A,114.6892,23.7233,河源市,老城,细颗粒物(PM2.5),69,57,51,50,27,72,,86,86,31,35,7,7,0.7,0.6
2023-12-27T1800,1718A,115.4208,35.2464,菏泽市,气象局,细颗粒物(PM2.5),94,95,138,70,114,39,,44,44,43,58,4,3,0.6,0.9
2023-12-27T1800,1719A,115.4747,35.2375,菏泽市,市政协,细颗粒物(PM2.5),92,101,145,68,116,42,,42,42,42,59,7,6,0.8,1.1
2023-12-27T1800,3374A,115.5564,35.0891,菏泽市,定陶老年大学,细颗粒物(PM2.5),107,105,149,80,124,25,,30,30,56,71,5,5,0.7,1
2023-12-27T1800,3647A,115.4702,35.2706,菏泽市,菏泽医专,细颗粒物(PM2.5),83,90,140,61,109,43,,44,44,40,60,7,5,0.8,1.1
2023-12-27T1800,2514A,111.5264,24.4172,贺州市,环保小区,颗粒物(PM10),54,58,96,29,56,107,,96,96,28,42,9,9,0.8,1.1
2023-12-27T1800,2515A,111.5608,24.4078,贺州市,政协大楼,颗粒物(PM10),59,68,94,37,58,75,,96,96,51,44,9,10,0.8,0.9
2023-12-27T1800,3534A,111.4744,24.4553,贺州市,西湾,颗粒物(PM10),55,59,93,28,59,102,,99,99,17,38,9,13,0.6,0.7
2023-12-27T1800,2385A,114.17,35.9019,鹤壁市,市监测站,颗粒物(PM10),64,77,94,45,76,42,,64,64,49,39,9,11,0.9,1.1
2023-12-27T1800,2386A,114.2956,35.7511,鹤壁市,市交警支队,颗粒物(PM10),63,76,103,43,71,35,,56,55,50,48,7,15,0.6,1.1
2023-12-27T1800,2387A,114.2878,35.7306,鹤壁市,迎宾馆,颗粒物(PM10),52,54,84,31,67,38,,58,56,47,46,10,16,0.8,1.2
2023-12-27T1800,3474A,114.2617,35.6822,鹤壁市,大新区,细颗粒物(PM2.5),54,38,80,38,73,41,,58,58,43,40,8,14,0.4,0.9
2023-12-27T1800,3596A,114.1572,35.9603,鹤壁市,南山宾馆,细颗粒物(PM2.5),77,91,96,56,71,51,,70,68,39,31,10,14,1.3,1.6
2023-12-27T1800,2244A,130.2537,47.3416,鹤岗市,哈啤分公司,细颗粒物(PM2.5),74,76,30,54,24,11,,55,34,59,19,16,13,0.8,0.3
2023-12-27T1800,2245A,130.2684,47.3086,鹤岗市,斯达机电,细颗粒物(PM2.5),64,68,40,46,24,36,,58,36,36,20,13,11,0.4,0.3
2023-12-27T1800,2246A,130.3114,47.3388,鹤岗市,东山纸板厂,细颗粒物(PM2.5),74,64,32,54,28,12,,54,29,64,24,18,16,0.9,0.6
2023-12-27T1800,2247A,130.1097,47.3382,鹤岗市,五号水库,细颗粒物(PM2.5),73,71,32,53,24,38,,57,51,33,11,12,12,0.6,0.3
2023-12-27T1800,2263A,127.4833,50.2524,黑河市,交通局,颗粒物(PM10),54,57,26,33,23,8,,48,30,47,18,10,6,0.9,0.5
2023-12-27T1800,2264A,127.5144,50.2341,黑河市,环保局,细颗粒物(PM2.5),60,62,23,43,21,8,,47,30,55,18,11,7,0.9,0.5
2023-12-27T1800,2265A,127.5291,50.2472,黑河市,大黑河岛,,,,21,26,17,11,,29,27,56,17,6,5,,
2023-12-27T1800,1074A,115.6838,37.7541,衡水市,电机北厂,细颗粒物(PM2.5),89,,46,66,43,16,,35,35,55,46,5,6,0.9,0.9
2023-12-27T1800,1075A,115.6303,37.7316,衡水市,市监测站,细颗粒物(PM2.5),64,60,64,46,39,26,,35,35,53,56,7,9,0.9,0.9
2023-12-27T1800,3188A,115.6683,37.7217,衡水市,市城管局,,,,50,,35,25,,35,35,,50,,8,0.8,0.8
2023-12-27T1800,3459A,115.5989,37.5491,衡水市,地表水厂,细颗粒物(PM2.5),69,83,58,50,49,24,,37,37,49,44,4,5,0.7,0.9
2023-12-27T1800,2456A,112.5003,26.9167,衡阳市,原169医院,细颗粒物(PM2.5),68,57,99,49,78,95,,88,88,32,51,15,22,0.5,0.9
2023-12-27T1800,2457A,112.6194,26.9258,衡阳市,衡阳化工总厂,细颗粒物(PM2.5),82,108,125,60,81,112,,97,97,22,48,10,13,0.7,1.2
2023-12-27T1800,2458A,112.6211,26.8956,衡阳市,珠晖区环保局,细颗粒物(PM2.5),70,80,124,51,85,94,,79,79,40,58,13,15,0.6,1.3
2023-12-27T1800,2459A,112.6197,26.8733,衡阳市,市委党校,颗粒物(PM10),71,92,126,49,89,118,,105,105,26,47,11,9,0.7,1.3
2023-12-27T1800,2460A,112.6006,26.8919,衡阳市,市监测站,细颗粒物(PM2.5),74,66,136,54,101,69,,80,80,47,53,11,15,1.4,2
2023-12-27T1800,2461A,112.5664,26.9056,衡阳市,真空机电公司,细颗粒物(PM2.5),65,66,108,47,79,94,,83,83,36,55,11,14,0.9,1.7
2023-12-27T1800,3399A,112.6703,26.882,衡阳市,师范学院,细颗粒物(PM2.5),69,70,114,50,84,110,,94,94,25,36,13,13,0.8,1
2023-12-27T1800,2608A,103.3772,23.3993,红河州,污水处理厂,,50,36,53,35,42,70,,74,74,11,14,6,13,0.4,0.6
2023-12-27T1800,2609A,103.3861,23.35,红河州,监测站,,,41,48,30,41,66,,70,70,16,13,8,6,,0.6
2023-12-27T1800,3038A,103.3758,23.368,红河州,州图书馆,,49,38,48,34,38,72,,74,74,11,12,7,9,0.5,0.6
2023-12-27T1800,1090A,111.6507,40.7517,呼和浩特市,呼市一监,细颗粒物(PM2.5),189,195,208,142,171,1,,24,24,81,73,18,15,1.2,1.8
2023-12-27T1800,1091A,111.6572,40.8033,呼和浩特市,小召,细颗粒物(PM2.5),168,195,198,127,149,2,,18,18,93,83,14,14,1.0,1.5
2023-12-27T1800,1094A,111.7516,40.8369,呼和浩特市,如意水处理厂,细颗粒物(PM2.5),172,202,183,130,131,0,,21,21,91,78,20,15,1.1,1.7
2023-12-27T1800,1095A,111.7276,40.8062,呼和浩特市,二十九中,细颗粒物(PM2.5),170,221,175,129,119,6,,28,28,87,70,20,16,1.2,1.5
2023-12-27T1800,1096A,111.5512,40.7866,呼和浩特市,工大金川校区,细颗粒物(PM2.5),179,208,213,135,166,4,,16,16,95,93,17,9,1.3,1.7
2023-12-27T1800,1097A,111.717,40.7612,呼和浩特市,化肥厂生活区,细颗粒物(PM2.5),173,201,191,131,143,5,,26,26,92,73,18,14,1.2,2
2023-12-27T1800,3698A,111.5968,40.8178,呼和浩特市,红旗小学,细颗粒物(PM2.5),193,227,186,145,141,10,,18,18,95,80,16,18,1.3,1.6
2023-12-27T1800,3699A,111.6518,40.8389,呼和浩特市,海东办,细颗粒物(PM2.5),162,229,179,123,131,6,,20,20,95,85,15,16,0.9,1.4
2023-12-27T1800,2192A,119.7594,49.2261,呼伦贝尔市,区环保局,细颗粒物(PM2.5),60,57,45,43,37,7,,32,19,68,48,9,7,1.4,0.8
2023-12-27T1800,3061A,119.7512,49.1577,呼伦贝尔市,国华电力东,,42,,20,29,18,45,,58,58,23,13,4,4,0.5,0.2
2023-12-27T1800,1250A,120.0751,30.8669,湖州市,城西水厂,细颗粒物(PM2.5),125,148,152,95,96,58,,50,50,87,111,8,10,0.7,0.9
2023-12-27T1800,2873A,120.0875,30.8955,湖州市,仁皇山新区,细颗粒物(PM2.5),120,129,135,91,92,62,,59,59,86,96,9,9,0.8,0.9
2023-12-27T1800,2907A,120.1844,30.8596,湖州市,吴兴区站,细颗粒物(PM2.5),113,132,143,85,92,53,,68,68,106,100,8,9,0.5,0.6
2023-12-27T1800,3562A,120.4148,30.8538,湖州市,南浔区站,细颗粒物(PM2.5),135,156,151,103,105,16,,56,56,116,90,9,10,1.0,1
2023-12-27T1800,1607A,120.9092,40.7136,葫芦岛市,龙港区,,50,39,94,35,73,51,,41,41,23,46,12,68,0.7,1.4
2023-12-27T1800,1608A,120.8392,40.7514,葫芦岛市,化工街,细颗粒物(PM2.5),58,48,99,41,67,28,,32,32,24,48,17,28,0.7,1.4
2023-12-27T1800,1609A,120.8341,40.7073,葫芦岛市,新区,,45,37,95,31,67,35,,34,34,45,58,14,26,0.6,1.6
2023-12-27T1800,1610A,120.8695,40.7677,葫芦岛市,东城区,细颗粒物(PM2.5),65,,103,47,80,17,,29,29,58,51,17,46,1.4,2
2023-12-27T1800,2482A,109.5981,27.5721,怀化市,林科所,细颗粒物(PM2.5),53,50,53,37,41,84,,73,73,4,4,5,5,1.2,1.2
2023-12-27T1800,2483A,109.9453,27.5444,怀化市,河西地税局,颗粒物(PM10),61,71,52,29,44,43,,56,56,54,32,7,5,0.7,0.7
2023-12-27T1800,2484A,109.9781,27.5342,怀化市,市四医院,细颗粒物(PM2.5),55,47,72,39,47,64,,65,65,30,40,10,8,0.4,0.9
2023-12-27T1800,2485A,109.9972,27.5578,怀化市,监测楼,细颗粒物(PM2.5),60,54,83,43,60,65,,57,57,30,37,10,12,0.9,1.1
2023-12-27T1800,2486A,110.0394,27.583,怀化市,市委党校,细颗粒物(PM2.5),55,51,72,39,51,81,,70,70,15,31,11,30,0.5,0.8
2023-12-27T1800,1210A,119.036,33.5981,淮安市,钵池山,细颗粒物(PM2.5),127,117,147,96,128,51,,75,75,58,64,,9,0.7,1
2023-12-27T1800,1211A,119.007,33.575,淮安市,北京南路,细颗粒物(PM2.5),127,141,143,96,123,20,,69,68,78,65,7,8,1.4,1.2
2023-12-27T1800,1212A,118.989,33.6067,淮安市,市监测站,细颗粒物(PM2.5),107,119,150,80,121,38,,67,67,73,68,6,8,1.4,1.2
2023-12-27T1800,1213A,119.135,33.5039,淮安市,楚州区监测站,细颗粒物(PM2.5),125,129,148,95,113,60,,82,82,57,60,9,9,1.1,1.1
2023-12-27T1800,1214A,119.0186,33.6297,淮安市,淮阴区监测站,细颗粒物(PM2.5),119,127,172,90,125,47,,65,65,63,67,6,7,0.9,1.1
2023-12-27T1800,3426A,118.8755,33.2894,淮安市,新华书店,细颗粒物(PM2.5),182,190,161,137,130,34,,62,62,68,65,6,10,1.3,1.1
2023-12-27T1800,2282A,116.8004,33.975,淮北市,监测站,细颗粒物(PM2.5),262,278,231,212,155,39,,39,39,76,70,8,8,1.7,1.6
2023-12-27T1800,2283A,116.8091,33.9007,淮北市,烈山区政府,细颗粒物(PM2.5),264,256,201,214,173,36,,36,36,81,67,7,8,1.5,1.2
2023-12-27T1800,3330A,116.8873,33.9836,淮北市,杜集区检察院,细颗粒物(PM2.5),263,274,213,213,163,37,,39,39,76,60,10,10,1.7,1.4
2023-12-27T1800,4017A,116.7923,33.9535,淮北市,市博物馆,细颗粒物(PM2.5),274,283,230,224,169,35,,35,35,69,58,9,9,1.8,1.5
2023-12-27T1800,2277A,116.8305,32.7727,淮南市,潘集区政府,细颗粒物(PM2.5),296,312,203,246,156,26,,39,39,94,63,9,10,1.5,1.1
2023-12-27T1800,2278A,117.0067,32.6524,淮南市,师范学院,细颗粒物(PM2.5),275,319,201,225,130,22,,34,34,89,71,9,10,1.6,1.2
2023-12-27T1800,2279A,116.8569,32.5951,淮南市,谢家集区政府,细颗粒物(PM2.5),276,277,177,226,129,32,,39,39,92,67,8,14,1.4,1.1
2023-12-27T1800,2280A,116.8281,32.633,淮南市,八公山区政府,细颗粒物(PM2.5),272,277,184,222,132,38,,41,41,70,58,6,8,1.3,1.1
2023-12-27T1800,2281A,116.6325,32.6201,淮南市,焦岗湖风景区管理处,细颗粒物(PM2.5),245,259,178,195,123,25,,37,37,66,41,2,2,1.2,0.9
2023-12-27T1800,2894A,117.0566,32.6531,淮南市,经济技术开发区消防队,细颗粒物(PM2.5),268,286,176,218,123,27,,40,40,94,70,7,9,1.3,0.9
2023-12-27T1800,3329A,117.0108,32.5893,淮南市,山南新区,细颗粒物(PM2.5),303,306,186,253,140,28,,38,38,89,61,7,8,1.5,1.2
2023-12-27T1800,2446A,114.9028,30.4742,黄冈市,职工中心,细颗粒物(PM2.5),195,183,126,146,89,67,,64,64,34,48,9,12,0.8,0.7
2023-12-27T1800,2929A,114.8858,30.4519,黄冈市,红卫路,细颗粒物(PM2.5),205,180,128,155,94,64,,63,63,40,58,7,11,1.0,1.1
2023-12-27T1800,3398A,114.9136,30.4445,黄冈市,市林业局,细颗粒物(PM2.5),178,159,110,134,85,74,,64,64,41,62,7,8,1.0,0.9
2023-12-27T1800,2672A,102.0199,35.5102,黄南藏族自治州,同仁县隆务镇,颗粒物(PM10),67,84,40,26,20,66,,66,66,27,14,13,11,1.0,0.7
2023-12-27T1800,2295A,118.2903,29.6963,黄山市,延安路89号,,49,49,45,32,26,71,,89,89,30,18,6,5,0.3,0.3
2023-12-27T1800,2296A,118.327,29.7178,黄山市,黄山东路89号,颗粒物(PM10),71,91,68,46,39,21,,70,70,62,31,6,5,1.2,0.7
2023-12-27T1800,2297A,118.1371,30.2756,黄山市,黄山区政府5号楼,颗粒物(PM10),59,68,43,40,26,70,,83,83,27,17,5,4,0.5,0.6
2023-12-27T1800,2423A,115.0601,30.2313,黄石市,沈家营,细颗粒物(PM2.5),144,137,119,110,82,45,,40,40,64,69,6,7,0.9,1
2023-12-27T1800,2424A,115.0817,30.2006,黄石市,陈家湾,细颗粒物(PM2.5),165,142,101,125,78,26,,32,32,95,62,11,15,1.0,1.3
2023-12-27T1800,2426A,114.8988,30.2019,黄石市,铁山,细颗粒物(PM2.5),159,137,112,121,82,43,,49,49,68,51,12,13,1.5,1.3
2023-12-27T1800,2427A,115.0307,30.2092,黄石市,团城山,细颗粒物(PM2.5),147,136,124,112,84,44,,40,40,69,75,7,12,1.0,1
2023-12-27T1800,3149A,115.0235,30.1578,黄石市,笔架山北路,细颗粒物(PM2.5),129,,115,98,80,46,,60,60,62,59,5,7,0.9,1.1
2023-12-27T1800,1392A,114.4183,23.0528,惠州市,河南岸金山湖子站,颗粒物(PM10),67,83,77,31,40,32,,83,83,83,48,7,7,1.2,1
2023-12-27T1800,1393A,114.4053,23.0822,惠州市,下埔横江三路子站,颗粒物(PM10),57,64,88,30,44,46,,85,85,54,57,10,11,0.7,0.9
2023-12-27T1800,1394A,114.4103,23.1142,惠州市,江北云山西路子站,,46,46,85,21,41,73,,93,93,45,57,9,12,0.7,0.8
2023-12-27T1800,1395A,114.4645,22.7833,惠州市,惠阳区承修路船湖子站,,,,77,,38,55,,85,85,,51,,9,0.7,0.7
2023-12-27T1800,1396A,114.5317,22.7422,惠州市,大亚湾管委会子站,,,68,83,29,35,39,,92,92,,68,7,8,0.5,0.6
2023-12-27T1800,3314A,114.4338,22.8134,惠州市,惠阳秋长,颗粒物(PM10),73,95,82,36,39,35,,88,86,84,49,8,10,0.9,0.9
2023-12-27T1800,3452A,114.6517,22.775,惠州市,大亚湾霞涌,,35,32,57,24,33,99,,89,89,23,30,8,7,0.1,0.2
2023-12-27T1800,2240A,130.9762,45.3001,鸡西市,环保局,,30,30,44,20,37,22,,58,45,40,15,5,6,0.8,0.6
2023-12-27T1800,2243A,130.9429,45.3039,鸡西市,第一中学,,38,36,45,26,37,46,,59,58,22,14,10,8,0.3,0.4
2023-12-27T1800,3707A,131.0207,45.3073,鸡西市,欧美日汽修厂,,,,50,52,44,11,,49,38,58,25,,29,1.3,1.2
2023-12-27T1800,3709A,130.9967,45.3106,鸡西市,市政设施管理处,,42,33,39,29,37,5,,50,44,56,24,5,4,0.7,0.5
2023-12-27T1800,2367A,114.9754,27.0803,吉安市,红声器材厂,颗粒物(PM10),62,73,87,37,45,92,,81,81,37,54,18,16,0.8,0.8
2023-12-27T1800,2368A,114.9658,27.0999,吉安市,市森林工业局,细颗粒物(PM2.5),62,66,77,44,52,80,,88,88,41,50,24,24,0.3,0.5
2023-12-27T1800,2369A,114.99,27.1312,吉安市,市环境监测站,颗粒物(PM10),61,71,83,38,46,88,,80,80,43,52,17,19,0.9,0.8
2023-12-27T1800,2370A,115.0093,27.0968,吉安市,青原区法院,细颗粒物(PM2.5),63,73,73,45,43,76,,82,82,57,53,16,16,0.8,0.8
2023-12-27T1800,1772A,126.54,43.8622,吉林市,哈达湾,细颗粒物(PM2.5),102,79,56,76,47,48,,54,54,26,34,10,10,0.9,0.9
2023-12-27T1800,1773A,126.5844,43.8358,吉林市,东局子,,46,39,52,32,42,23,,48,46,49,36,11,8,0.8,0.8
2023-12-27T1800,1774A,126.5052,43.8245,吉林市,电力学院,细颗粒物(PM2.5),68,65,81,49,72,21,,43,43,51,45,14,17,1.2,1.4
2023-12-27T1800,1775A,126.6133,43.8972,吉林市,江北,细颗粒物(PM2.5),54,55,64,38,50,34,,51,51,37,33,12,11,1.1,1
2023-12-27T1800,1776A,126.555,43.8306,吉林市,江南公园,细颗粒物(PM2.5),62,50,65,44,57,14,,42,42,60,41,14,11,1.1,1
2023-12-27T1800,1778A,126.7061,43.7133,吉林市,丰满,,,,,,,,,,,,,,,,
2023-12-27T1800,2868A,126.4739,43.953,吉林市,九站,,33,30,86,23,75,36,,49,49,38,46,9,22,0.7,1
2023-12-27T1800,1299A,116.9862,36.6114,济南市,科干所,,,,157,,114,6,,12,12,63,77,13,16,1.0,1.4
2023-12-27T1800,1300A,116.9376,36.665,济南市,农科所,细颗粒物(PM2.5),104,110,114,78,75,2,,10,10,73,64,10,15,1.0,1.1
2023-12-27T1800,1301A,117.1265,36.6734,济南市,开发区,细颗粒物(PM2.5),117,117,140,88,104,2,,11,10,75,70,9,13,1.1,1.2
2023-12-27T1800,1303A,117.0624,36.6868,济南市,省种子仓库,细颗粒物(PM2.5),119,119,132,90,95,5,,13,12,64,58,12,16,0.9,1.2
2023-12-27T1800,1304A,116.9489,36.6447,济南市,机床二厂,细颗粒物(PM2.5),113,120,134,85,96,4,,13,12,73,65,11,16,1.0,1.1
2023-12-27T1800,1305A,117.0495,36.663,济南市,市监测站,细颗粒物(PM2.5),113,127,142,85,101,6,,14,14,75,69,15,19,0.8,1
2023-12-27T1800,1306A,116.7675,36.5484,济南市,长清党校,细颗粒物(PM2.5),95,103,148,71,103,6,,14,14,76,77,10,13,1.0,1.3
2023-12-27T1800,1616A,117.6795,36.229,济南市,技术学院,细颗粒物(PM2.5),168,171,150,127,113,49,,80,80,86,74,14,12,1.7,1.4
2023-12-27T1800,1961A,117.532,36.6868,济南市,东山小学,细颗粒物(PM2.5),192,190,190,144,139,,,27,27,79,70,7,13,1.1,1.1
2023-12-27T1800,3059A,117.7161,36.2049,济南市,泰兴公司,细颗粒物(PM2.5),168,188,164,127,119,6,,70,69,144,75,11,12,1.5,1.3
2023-12-27T1800,3064A,117.6867,36.2171,济南市,莱芜战役纪念馆,细颗粒物(PM2.5),149,178,161,114,114,41,,74,74,86,66,17,14,1.4,1.2
2023-12-27T1800,3494A,117.1673,36.9782,济南市,济阳区政府,细颗粒物(PM2.5),98,105,81,73,57,16,,34,33,66,38,8,8,1.0,0.8
2023-12-27T1800,3495A,117.1171,36.63,济南市,锦屏中学,细颗粒物(PM2.5),119,127,145,90,113,5,,17,15,80,73,12,15,1.1,1.3
2023-12-27T1800,3682A,116.9814,36.6819,济南市,济南四建,细颗粒物(PM2.5),113,112,113,85,83,5,,12,11,75,64,14,17,1.0,1.1
2023-12-27T1800,1653A,116.6251,35.4302,济宁市,火炬城,细颗粒物(PM2.5),128,130,165,97,132,9,,20,20,67,68,5,7,1.2,1.4
2023-12-27T1800,1655A,116.5491,35.4042,济宁市,电化厂,细颗粒物(PM2.5),138,158,183,105,133,8,,22,21,71,65,10,10,1.2,1.3
2023-12-27T1800,3500A,116.5814,35.3707,济宁市,北湖一中,细颗粒物(PM2.5),149,140,167,114,138,5,,22,20,74,65,5,6,1.1,1.3
2023-12-27T1800,3501A,116.8249,35.5593,济宁市,服务中心,细颗粒物(PM2.5),192,233,218,144,143,5,,22,21,72,66,6,8,1.2,1.4
2023-12-27T1800,3678A,116.5907,35.4054,济宁市,市第七中学,细颗粒物(PM2.5),134,122,163,102,134,12,,23,23,62,64,3,6,1.1,1.3
2023-12-27T1800,2255A,130.2751,46.8028,佳木斯市,佳纺,细颗粒物(PM2.5),70,56,52,51,47,46,,56,55,30,20,8,7,0.8,0.7
2023-12-27T1800,2256A,130.3995,46.8307,佳木斯市,发电厂,细颗粒物(PM2.5),70,52,41,51,39,39,,57,55,40,23,8,10,0.7,0.6
2023-12-27T1800,2257A,130.3258,46.7975,佳木斯市,环保局,细颗粒物(PM2.5),73,,46,53,40,25,,53,50,52,22,11,8,0.7,0.5
2023-12-27T1800,2258A,130.3648,46.8032,佳木斯市,十一中,细颗粒物(PM2.5),68,55,42,49,40,42,,52,51,33,22,6,6,0.8,0.7
2023-12-27T1800,2259A,130.3794,46.7588,佳木斯市,四丰,,50,49,44,35,29,54,,57,57,14,12,1,1,0.7,0.7
2023-12-27T1800,1252A,120.7436,30.778,嘉兴市,清河小学,细颗粒物(PM2.5),168,177,137,127,90,6,,28,28,128,85,9,8,0.1,0.3
2023-12-27T1800,1253A,120.726,30.7478,嘉兴市,嘉兴学院,细颗粒物(PM2.5),166,183,146,126,94,6,,32,32,130,91,12,10,1.1,1.2
2023-12-27T1800,2872A,120.7846,30.7525,嘉兴市,南湖区残联,细颗粒物(PM2.5),133,168,153,101,88,37,,41,41,99,89,9,8,0.8,0.9
2023-12-27T1800,3407A,120.6916,30.7739,嘉兴市,秀洲住建,细颗粒物(PM2.5),145,130,102,111,78,3,,34,34,126,84,13,11,1.5,1.5
2023-12-27T1800,1945A,98.2908,39.7711,嘉峪关市,气象局,颗粒物(PM10),90,129,83,58,37,76,,55,55,31,59,9,37,0.6,1
2023-12-27T1800,2884A,98.2672,39.7978,嘉峪关市,酒钢宾馆,颗粒物(PM10),90,129,89,56,35,79,,61,61,26,45,12,45,0.6,0.8
2023-12-27T1800,3248A,98.2643,39.7724,嘉峪关市,雄关区,细颗粒物(PM2.5),88,112,68,65,29,70,,61,61,30,48,8,25,0.2,0.7
2023-12-27T1800,1383A,113.1064,22.6058,江门市,北街,细颗粒物(PM2.5),89,80,91,66,69,104,,101,101,96,100,6,7,0.8,0.9
2023-12-27T1800,1384A,113.0731,22.5835,江门市,西区,细颗粒物(PM2.5),114,137,112,86,68,99,,101,101,102,98,13,18,1.0,0.8
2023-12-27T1800,1385A,113.0219,22.5311,江门市,圭峰西,细颗粒物(PM2.5),109,90,86,82,57,113,,114,114,88,79,10,10,0.9,0.9
2023-12-27T1800,1386A,113.0828,22.5947,江门市,东湖,细颗粒物(PM2.5),98,110,107,73,66,97,,102,102,88,91,12,15,0.7,0.8
2023-12-27T1800,3311A,113.1075,22.5647,江门市,江海富民,细颗粒物(PM2.5),100,125,116,75,57,82,,96,96,129,111,14,19,1.1,1.1
2023-12-27T1800,3449A,113.05,22.4667,江门市,新会银湖,细颗粒物(PM2.5),134,127,89,102,60,61,,111,105,141,72,12,11,1.1,0.9
2023-12-27T1800,1828A,113.227,35.2125,焦作市,市环保局,细颗粒物(PM2.5),186,190,178,140,136,37,,44,44,59,55,14,15,1.3,1.3
2023-12-27T1800,1830A,113.1992,35.2590,焦作市,影视城,,,,,,,,,,,,,,,,
2023-12-27T1800,3169A,113.2725,35.2067,焦作市,太极体育中心,,,,169,,135,40,,43,43,56,53,,15,1.3,1.2
2023-12-27T1800,3335A,113.3137,35.2641,焦作市,马村街道办,细颗粒物(PM2.5),214,215,188,164,147,29,,44,44,72,56,14,13,1.6,1.7
2023-12-27T1800,3336A,113.2465,35.2373,焦作市,焦作技师学院,细颗粒物(PM2.5),199,193,179,149,144,32,,45,45,66,58,21,16,1.1,1
2023-12-27T1800,3477A,113.1656,35.2539,焦作市,中站许衡医院,细颗粒物(PM2.5),212,201,177,162,134,34,,40,40,77,67,21,20,1.5,1.5
2023-12-27T1800,3981A,113.2449,35.1803,焦作市,原李万街道办,细颗粒物(PM2.5),195,195,159,146,128,37,,49,49,56,49,15,14,1.2,1.4
2023-12-27T1800,1708A,116.3701,23.5345,揭阳市,新兴,颗粒物(PM10),78,106,111,53,72,68,,101,101,69,64,16,18,1.1,1.2
2023-12-27T1800,1709A,116.3264,23.5443,揭阳市,西马,颗粒物(PM10),86,122,114,60,74,96,,118,118,40,52,13,15,1.0,1.1
2023-12-27T1800,1710A,116.3611,23.5626,揭阳市,东兴,颗粒物(PM10),85,120,128,50,70,92,,107,107,52,62,15,17,1.3,1.2
2023-12-27T1800,1711A,116.4151,23.5294,揭阳市,渔湖,颗粒物(PM10),84,117,123,44,70,81,,104,104,48,60,12,17,1.0,1.1
2023-12-27T1800,3320A,116.403,23.5699,揭阳市,曲溪,颗粒物(PM10),78,105,142,52,78,86,,103,103,46,62,8,16,1.0,1.1
2023-12-27T1800,1944A,102.1692,38.5167,金昌市,天庆家园,颗粒物(PM10),80,110,101,37,42,61,,67,67,33,37,30,32,0.5,1
2023-12-27T1800,3170A,102.1864,38.5253,金昌市,市委党校,颗粒物(PM10),68,86,88,37,40,66,,71,71,22,28,9,21,0.5,0.9
2023-12-27T1800,4022A,102.1647,38.5371,金昌市,金川区人防中心,颗粒物(PM10),88,125,103,37,37,63,,67,67,22,21,26,24,0.4,1.1
2023-12-27T1800,1262A,119.647,29.077,金华市,十五中,细颗粒物(PM2.5),88,108,114,65,66,64,,87,87,94,72,4,2,1.0,1
2023-12-27T1800,1263A,119.686,29.1029,金华市,监测站,细颗粒物(PM2.5),100,117,125,75,69,75,,90,90,82,73,5,5,0.7,0.9
2023-12-27T1800,3659A,119.656,29.1131,金华市,气象局,细颗粒物(PM2.5),112,143,140,84,76,31,,73,73,130,84,4,5,1.4,1.2
2023-12-27T1800,1767A,121.1115,41.0879,锦州市,南山,,,,80,66,76,33,,36,36,,46,36,23,1.0,1.4
2023-12-27T1800,1768A,121.0533,40.8434,锦州市,开发区,细颗粒物(PM2.5),70,82,116,51,73,13,,31,30,87,61,37,39,1.1,1.2
2023-12-27T1800,1769A,121.1836,41.1119,锦州市,百股街道,细颗粒物(PM2.5),89,,80,66,69,46,,44,44,41,42,40,33,1.1,1.5
2023-12-27T1800,1770A,121.1178,41.1222,锦州市,天安街道,细颗粒物(PM2.5),77,67,85,56,61,27,,32,32,52,49,31,25,1.2,1.5
2023-12-27T1800,1771A,121.1303,41.1386,锦州市,北湖公园,细颗粒物(PM2.5),120,,64,91,69,31,,39,39,54,45,30,24,1.1,1.4
2023-12-27T1800,2160A,112.85,35.5051,晋城市,自来水公司,细颗粒物(PM2.5),134,126,133,102,94,94,,73,73,28,55,10,13,1.5,2.2
2023-12-27T1800,2161A,112.8318,35.4936,晋城市,白云商贸,细颗粒物(PM2.5),125,143,134,95,87,94,,69,69,32,52,9,9,1.0,1.8
2023-12-27T1800,2162A,112.8508,35.4887,晋城市,市环保局,,,,141,,96,,,28,,,62,,14,,1.9
2023-12-27T1800,2163A,112.8676,35.4897,晋城市,技术学院,细颗粒物(PM2.5),128,145,133,97,93,101,,74,74,33,62,12,15,0.9,1.6
2023-12-27T1800,2165A,112.8453,35.546,晋城市,白马寺,,,,,,,,,,,,,,,,
2023-12-27T1800,3620A,112.8271,35.4828,晋城市,泽州一中,细颗粒物(PM2.5),104,126,122,78,82,93,,70,70,35,56,12,14,1.1,1.9
2023-12-27T1800,2171A,112.7532,37.6945,晋中市,锦纶小区,细颗粒物(PM2.5),160,197,101,122,68,16,,42,42,94,47,20,20,1.6,1
2023-12-27T1800,2173A,112.7249,37.7067,晋中市,南都小区,细颗粒物(PM2.5),137,172,97,104,60,28,,38,38,69,43,18,19,1.1,0.8
2023-12-27T1800,2174A,112.6991,37.6982,晋中市,榆次区政府,"颗粒物(PM10),细颗粒物(PM2.5)",103,156,89,77,61,27,,39,39,79,46,18,20,1.6,0.8
2023-12-27T1800,2865A,112.7195,37.6828,晋中市,榆次三中,细颗粒物(PM2.5),134,171,102,102,61,31,,27,,72,48,20,23,1.0,1
2023-12-27T1800,2439A,112.2014,31.0481,荆门市,竹园小学,细颗粒物(PM2.5),227,213,184,177,178,88,,89,89,33,40,10,10,1.1,1
2023-12-27T1800,2440A,112.1969,30.9891,荆门市,掇刀,细颗粒物(PM2.5),224,178,162,174,118,93,,80,,32,43,12,13,1.9,1
2023-12-27T1800,2441A,112.2213,31.0386,荆门市,石化一小,细颗粒物(PM2.5),220,220,186,170,125,85,,92,92,40,44,17,14,0.9,0.8
2023-12-27T1800,3012A,112.1849,31.0362,荆门市,西山林语,细颗粒物(PM2.5),220,208,155,170,124,101,,96,96,31,37,12,12,0.8,0.8
2023-12-27T1800,3547A,112.1632,31.0138,荆门市,龙泉中学南校,颗粒物(PM10),135,219,164,,122,96,,93,93,35,37,12,13,1.0,1.1
2023-12-27T1800,1844A,112.2494,30.3197,荆州市,市图书馆,细颗粒物(PM2.5),214,166,134,164,125,82,,80,80,34,48,10,10,1.0,1.1
2023-12-27T1800,1845A,112.2008,30.3544,荆州市,市委党校,细颗粒物(PM2.5),207,157,139,157,120,80,,83,83,,48,8,9,,1.1
2023-12-27T1800,3194A,112.2747,30.3122,荆州市,管委会,细颗粒物(PM2.5),208,161,133,158,130,76,,81,81,41,44,11,10,1.0,1.1
2023-12-27T1800,3548A,112.1655,30.3364,荆州市,学苑路,细颗粒物(PM2.5),206,,126,156,118,72,,72,72,,49,9,9,1.2,1.1
2023-12-27T1800,2342A,117.3102,29.3867,景德镇市,王港中学,,,,,,,,,,,,,,,,
2023-12-27T1800,2343A,117.2117,29.2933,景德镇市,老干部活动中心,细颗粒物(PM2.5),110,,63,83,45,46,,72,72,52,34,13,6,0.8,0.7
2023-12-27T1800,2344A,117.1894,29.2789,景德镇市,兽医站,颗粒物(PM10),55,60,61,29,35,62,,78,78,44,37,14,9,0.7,0.8
2023-12-27T1800,2345A,117.1547,29.2617,景德镇市,台达陶瓷,颗粒物(PM10),79,107,75,51,39,37,,78,78,74,44,26,13,1.3,0.9
2023-12-27T1800,2346A,117.2461,29.2956,景德镇市,陶研所,颗粒物(PM10),58,66,58,28,28,33,,78,78,61,31,8,7,1.1,0.8
2023-12-27T1800,1803A,115.9872,29.6815,九江市,十里,颗粒物(PM10),58,66,90,34,51,59,,72,72,58,53,14,11,1.0,1.1
2023-12-27T1800,1804A,115.9584,29.7046,九江市,茅山头,细颗粒物(PM2.5),67,77,88,48,51,49,,62,62,63,57,11,10,1.0,0.9
2023-12-27T1800,1805A,115.9877,29.7295,九江市,西园,细颗粒物(PM2.5),64,62,94,46,59,60,,65,65,53,62,8,11,1.0,1
2023-12-27T1800,1806A,116.0172,29.6547,九江市,五七二七厂,,,47,70,44,39,,,78,78,35,33,10,13,0.8,0.6
2023-12-27T1800,1808A,115.9114,29.6038,九江市,综合工业园,细颗粒物(PM2.5),82,78,83,60,63,10,,47,46,109,67,18,15,1.2,1
2023-12-27T1800,1809A,116.0721,29.7535,九江市,石化总厂,细颗粒物(PM2.5),65,72,104,47,59,53,,73,73,61,60,12,16,0.8,1
2023-12-27T1800,1810A,115.9773,29.5698,九江市,庐山气象台,,38,38,22,22,15,111,,103,103,5,3,6,6,0.8,0.7
2023-12-27T1800,3190A,116.0254,29.6994,九江市,外国语学校,细颗粒物(PM2.5),62,57,80,44,58,34,,60,60,82,65,13,15,1.1,1.1
2023-12-27T1800,2658A,98.5061,39.7443,酒泉市,仓门街子站,颗粒物(PM10),80,110,121,48,46,67,,57,57,20,36,4,8,0.7,0.9
2023-12-27T1800,2659A,98.4989,39.7256,酒泉市,油田生活基地,,,119,112,68,48,60,,10,,,45,,7,0.5,0.8
2023-12-27T1800,2698A,76.0072,39.4467,喀什地区,巡警大队,颗粒物(PM10),219,363,435,93,157,58,,33,33,39,73,8,8,1.0,4.2
2023-12-27T1800,2699A,75.9755,39.4694,喀什地区,吾办,颗粒物(PM10),206,354,413,115,181,59,,41,41,41,76,8,4,1.0,3.7
2023-12-27T1800,4027A,75.9483,39.4689,喀什地区,老干局,颗粒物(PM10),243,380,481,99,205,65,,43,43,27,65,9,7,0.7,4.6
2023-12-27T1800,1824A,114.3389,34.7781,开封市,肿瘤医院,细颗粒物(PM2.5),74,56,107,54,95,52,,54,54,23,32,4,6,0.7,1
2023-12-27T1800,1826A,114.2885,34.7965,开封市,世纪星幼儿园,细颗粒物(PM2.5),65,65,94,47,89,44,,52,52,30,35,4,7,0.7,1
2023-12-27T1800,3147A,114.3438,34.8106,开封市,龙亭公园,细颗粒物(PM2.5),69,67,104,50,93,47,,58,58,41,40,5,6,0.2,0.5
2023-12-27T1800,3210A,114.3644,34.7964,开封市,汴京公园,,,82,108,45,94,47,,51,51,30,36,4,8,,1
2023-12-27T1800,3473A,114.2485,34.8306,开封市,技师学院,细颗粒物(PM2.5),53,48,98,37,86,45,,57,57,35,50,2,4,0.4,0.7
2023-12-27T1800,3592A,114.4644,34.7556,开封市,祥符区生态环境局,细颗粒物(PM2.5),80,76,132,59,104,46,,52,52,34,36,5,6,0.4,0.8
2023-12-27T1800,1951A,84.895,45.6094,克拉玛依市,长征新村,细颗粒物(PM2.5),122,126,117,92,85,53,,68,67,58,45,11,11,1.1,1.1
2023-12-27T1800,1952A,84.8988,45.5893,克拉玛依市,南林小区,细颗粒物(PM2.5),118,136,128,89,84,53,,70,65,42,32,1,2,1.0,1
2023-12-27T1800,1954A,84.905,44.3396,克拉玛依市,独山子区,细颗粒物(PM2.5),205,205,112,155,72,24,,64,37,62,40,5,5,1.5,0.9
2023-12-27T1800,1955A,85.6979,46.098,克拉玛依市,乌尔禾区商贸楼,细颗粒物(PM2.5),102,90,102,76,82,67,,60,55,27,34,10,9,0.7,0.8
2023-12-27T1800,3612A,85.1045,45.6899,克拉玛依市,白碱滩区新站,细颗粒物(PM2.5),102,133,121,76,85,57,,67,57,43,40,10,10,0.9,1
2023-12-27T1800,2697A,76.1454,39.7142,克孜勒苏柯尔克孜自治州,市人民政府,颗粒物(PM10),180,310,294,106,106,82,,62,62,20,24,9,6,1.0,0.7
2023-12-27T1800,3665A,76.1658,39.7157,克孜勒苏柯尔克孜自治州,克州文化中心,颗粒物(PM10),208,355,339,112,113,81,,63,63,22,30,13,10,1.1,1.5
2023-12-27T1800,1450A,102.8204,24.8886,昆明市,呈贡新区,,21,18,37,7,24,67,,67,67,11,29,5,9,0.2,0.5
2023-12-27T1800,1451A,102.6251,24.9608,昆明市,西山森林公园,,39,,22,27,14,74,,70,70,7,9,6,8,0.4,0.5
2023-12-27T1800,1452A,102.7252,25.0902,昆明市,龙泉镇,,20,19,39,12,24,62,,62,62,16,30,9,8,0.8,1.1
2023-12-27T1800,1453A,102.7266,25.0375,昆明市,东风东路,,25,22,45,17,31,58,,57,57,21,35,8,9,0.4,0.8
2023-12-27T1800,1454A,102.6742,25.0669,昆明市,金鼎山,,26,26,51,9,28,61,,63,63,21,35,15,20,0.5,0.7
2023-12-27T1800,1455A,102.6644,25.0401,昆明市,碧鸡广场,,,22,44,12,27,57,,59,59,21,33,8,11,,1
2023-12-27T1800,3179A,102.7494,25.0119,昆明市,官渡区博物馆,,22,17,50,10,30,70,,67,67,12,36,8,10,0.3,0.7
2023-12-27T1800,3375A,102.8017,24.8336,昆明市,青年创业园,,23,15,35,10,20,72,,73,73,5,27,8,13,0.5,0.7
2023-12-27T1800,3550A,102.7997,24.9786,昆明市,昆明学院,,20,20,54,10,31,59,,64,64,16,33,9,12,0.4,0.7
2023-12-27T1800,3551A,102.5967,24.6736,昆明市,晋宁区生态环境分局,,23,20,37,9,23,72,,67,67,5,19,5,5,0.7,0.9
2023-12-27T1800,3552A,102.6678,24.9856,昆明市,云天化总部,,24,16,32,8,20,74,,70,70,8,28,7,8,0.5,0.7
2023-12-27T1800,1456A,91.1319,29.6514,拉萨市,八廓街,,42,42,28,17,18,79,,77,77,20,25,8,11,0.4,0.6
2023-12-27T1800,1457A,91.1221,29.6747,拉萨市,市环保局,,22,18,37,8,24,70,,72,72,26,31,7,10,0.5,1
2023-12-27T1800,1458A,91.0874,29.6475,拉萨市,区监测站,,25,10,18,8,12,78,,76,76,21,30,6,9,0.3,0.5
2023-12-27T1800,1459A,91.1774,29.6541,拉萨市,西藏大学,,27,15,16,6,10,86,,77,77,16,14,7,9,0.6,0.7
2023-12-27T1800,1460A,90.9798,29.6588,拉萨市,区辐射站,,33,33,29,11,18,56,,59,59,37,37,7,7,0.7,0.9
2023-12-27T1800,1461A,91.0834,29.6292,拉萨市,拉萨火车站,,25,11,22,6,14,78,,65,65,18,36,5,6,0.4,0.8
2023-12-27T1800,2520A,109.2203,23.7256,来宾市,来宾技工学校,细颗粒物(PM2.5),77,96,125,56,88,150,,125,125,20,49,17,14,0.8,1.2
2023-12-27T1800,3535A,109.1781,23.7297,来宾市,兴宾区政府,细颗粒物(PM2.5),88,95,100,65,69,156,,132,132,27,26,18,12,1.0,1
2023-12-27T1800,4002A,109.2416,23.7461,来宾市,中南小学,细颗粒物(PM2.5),65,74,130,47,88,146,,127,127,26,54,13,11,1.1,1.5
2023-12-27T1800,1476A,103.631,36.1031,兰州市,兰炼宾馆,细颗粒物(PM2.5),132,164,155,100,95,14,,31,29,149,95,36,36,3.1,2.3
2023-12-27T1800,1477A,104.1373,35.9454,兰州市,榆中兰大校区,,,,,,,,,,,,,,,,
2023-12-27T1800,1478A,103.8412,36.0726,兰州市,生物制品所,细颗粒物(PM2.5),165,197,150,125,94,8,,18,18,156,91,41,25,3.5,2.5
2023-12-27T1800,1479A,103.831,36.0464,兰州市,铁路设计院,细颗粒物(PM2.5),129,143,162,98,104,10,,13,13,131,100,35,34,2.7,3.3
2023-12-27T1800,3186A,103.7158,36.1058,兰州市,教育港,细颗粒物(PM2.5),128,157,148,97,90,8,,23,23,145,99,39,29,2.9,2.5
2023-12-27T1800,3241A,103.7439,36.0842,兰州市,百合公园,细颗粒物(PM2.5),123,146,149,93,96,10,,17,17,141,99,29,26,2.8,2.7
2023-12-27T1800,3242A,103.9611,35.998,兰州市,和平,细颗粒物(PM2.5),99,131,144,74,88,35,,44,44,91,80,56,36,2.2,2.6
2023-12-27T1800,3245A,103.6633,36.533,兰州新区,新区管委会,颗粒物(PM10),81,111,104,56,58,20,,34,34,70,45,35,31,1.5,1.3
2023-12-27T1800,3246A,103.6975,36.4789,兰州新区,舟曲中学,细颗粒物(PM2.5),112,140,130,84,67,18,,30,30,82,60,36,22,1.3,1.3
2023-12-27T1800,1067A,116.6708,39.5111,廊坊市,药材公司,,34,34,74,9,43,42,,41,41,31,57,3,5,0.7,1.6
2023-12-27T1800,1068A,116.7214,39.5589,廊坊市,开发区,,,,61,,44,26,,33,33,46,71,4,5,0.5,1.3
2023-12-27T1800,1070A,116.7244,39.5269,廊坊市,北华航天学院,,29,26,66,20,48,35,,41,41,34,48,3,6,0.6,1.4
2023-12-27T1800,2919A,116.7022,39.5453,廊坊市,河北工业大学,,33,33,69,11,40,38,,36,36,26,60,3,5,0.5,1.3
2023-12-27T1800,2535A,103.7723,29.5462,乐山市,花湖湾,细颗粒物(PM2.5),180,194,159,136,110,75,,43,43,37,39,4,4,0.7,0.8
2023-12-27T1800,2536A,103.7627,29.5844,乐山市,牛耳桥,细颗粒物(PM2.5),160,139,130,122,109,77,,60,60,45,42,5,4,0.9,0.9
2023-12-27T1800,2537A,103.7508,29.6006,乐山市,市第三水厂,细颗粒物(PM2.5),147,136,124,112,93,81,,64,64,39,42,6,4,0.8,1
2023-12-27T1800,2538A,103.7571,29.5664,乐山市,市监测站,细颗粒物(PM2.5),156,140,121,119,102,86,,51,51,32,41,9,7,0.8,1
2023-12-27T1800,3361A,103.7311,29.5628,乐山市,理工大学,细颗粒物(PM2.5),185,160,131,139,107,68,,46,46,51,45,8,7,0.8,1
2023-12-27T1800,2598A,100.2143,26.8576,丽江市,西南郊,,,,,,,,,,,,,,,,
2023-12-27T1800,2599A,100.2497,26.8802,丽江市,丽江古城,,36,36,31,16,17,80,,71,71,13,17,11,8,0.5,0.6
2023-12-27T1800,2600A,100.2203,26.8906,丽江市,市中心,,27,27,18,8,6,69,,63,63,21,16,11,8,0.6,0.6
2023-12-27T1800,1267A,119.914,28.4514,丽水市,监测站大楼,细颗粒物(PM2.5),83,97,65,61,42,8,,58,57,83,48,8,9,3.2,1.2
2023-12-27T1800,1268A,119.93,28.4586,丽水市,莲都小学,颗粒物(PM10),68,86,91,37,75,17,,63,63,76,42,4,6,0.8,1
2023-12-27T1800,1269A,119.879,28.4231,丽水市,余庄前,,41,41,63,21,40,32,,59,59,33,34,4,5,0.5,0.5
2023-12-27T1800,1173A,119.176,34.5885,连云港市,市环境监测站,细颗粒物(PM2.5),77,70,127,56,98,93,,86,86,23,62,12,15,0.7,1.1
2023-12-27T1800,3000A,119.3581,34.6972,连云港市,德源药业,细颗粒物(PM2.5),79,100,114,58,76,72,,94,94,52,57,14,9,0.8,0.9
2023-12-27T1800,3007A,119.178,34.844,连云港市,新城一中,细颗粒物(PM2.5),79,76,134,58,113,82,,67,67,23,68,8,11,0.7,1.1
2023-12-27T1800,3008A,119.3608,34.7519,连云港市,胡沟管理处,细颗粒物(PM2.5),85,73,106,63,78,78,,83,83,26,68,9,13,0.8,1
2023-12-27T1800,3009A,119.1478,34.5911,连云港市,矿山设计院,细颗粒物(PM2.5),79,92,141,58,98,71,,70,70,39,59,9,11,0.8,1.1
2023-12-27T1800,3434A,119.2413,34.6539,连云港市,工贸学校,细颗粒物(PM2.5),83,85,128,61,90,102,,101,101,22,49,13,14,0.8,1.1
2023-12-27T1800,3664A,119.4172,34.7341,连云港市,连云街道,细颗粒物(PM2.5),84,90,99,62,61,106,,100,100,22,44,5,11,0.8,0.9
2023-12-27T1800,2571A,102.3431,27.8099,凉山彝族自治州,青龙寺,颗粒物(PM10),77,104,45,37,17,107,,97,97,14,10,7,6,1.0,0.8
2023-12-27T1800,2572A,102.2721,27.8415,凉山彝族自治州,邛海宾馆,细颗粒物(PM2.5),139,111,52,106,45,94,,88,88,40,23,11,11,1.1,0.9
2023-12-27T1800,2573A,102.2625,27.898,凉山彝族自治州,西昌市政府,细颗粒物(PM2.5),149,139,69,114,54,118,,93,93,22,20,14,14,0.9,0.8
2023-12-27T1800,2574A,102.2685,27.8851,凉山彝族自治州,凉山州政府,细颗粒物(PM2.5),147,136,67,112,54,113,,90,90,23,21,12,11,1.0,0.9
2023-12-27T1800,2575A,102.237,27.8914,凉山彝族自治州,长安,细颗粒物(PM2.5),100,99,71,75,53,87,,80,80,23,32,24,18,0.8,1
2023-12-27T1800,2212A,123.2,41.1953,辽阳市,宏伟区,细颗粒物(PM2.5),104,102,87,78,76,6,,27,26,76,58,25,37,1.8,1.4
2023-12-27T1800,2213A,123.1683,41.2495,辽阳市,新华园,细颗粒物(PM2.5),104,86,92,78,71,7,,25,23,78,62,16,26,2.1,1.7
2023-12-27T1800,2214A,123.2354,41.2639,辽阳市,滨河路,细颗粒物(PM2.5),122,,71,92,73,10,,27,26,66,54,16,16,2.2,1.5
2023-12-27T1800,2215A,123.149,41.2991,辽阳市,铁西工业园,细颗粒物(PM2.5),133,109,124,101,121,4,,28,27,72,57,20,15,2.0,2.2
2023-12-27T1800,2227A,125.1358,42.8845,辽源市,环保局,,43,41,62,30,49,17,,50,50,64,38,12,11,1.6,1.3
2023-12-27T1800,3239A,125.0764,42.9078,辽源市,银鹰制药,,49,43,58,34,48,27,,53,50,47,36,20,11,0.9,1.1
2023-12-27T1800,1625A,115.9848,36.4372,聊城市,区政府,细颗粒物(PM2.5),80,90,100,59,72,16,,28,28,68,60,6,6,0.9,1
2023-12-27T1800,2878A,116.0072,36.4343,聊城市,聊大东校,细颗粒物(PM2.5),80,81,92,59,72,22,,31,31,46,39,5,6,0.6,0.7
2023-12-27T1800,3200A,115.9819,36.4978,聊城市,监控中心,细颗粒物(PM2.5),100,112,99,75,78,8,,29,27,80,63,2,4,0.8,0.9
2023-12-27T1800,3513A,116.0445,36.4361,聊城市,九州社区,细颗粒物(PM2.5),72,75,91,52,68,23,,33,33,53,51,3,4,0.5,0.9
2023-12-27T1800,4018A,116.0567,36.4608,聊城市,星美广场,细颗粒物(PM2.5),84,90,90,62,68,19,,30,30,53,49,1,3,0.8,0.8
2023-12-27T1800,2632A,94.3681,29.6376,林芝市,林芝监测站,,24,10,10,0,6,74,,69,69,4,11,7,7,0.3,0.4
2023-12-27T1800,2633A,94.3616,29.6616,林芝市,林芝人民医院,,24,18,14,5,7,74,,68,68,4,11,8,8,0.5,0.6
2023-12-27T1800,2603A,100.0781,23.8982,临沧市,市环保局,,35,,26,24,20,63,,60,60,8,14,6,7,0.3,0.5
2023-12-27T1800,2604A,100.0894,23.8822,临沧市,市气象局,,33,,30,23,24,55,,53,53,14,15,5,7,0.5,0.4
2023-12-27T1800,1733A,111.5531,36.0783,临汾市,临钢医院,细颗粒物(PM2.5),124,156,172,94,114,17,,35,35,81,59,19,20,1.1,1.7
2023-12-27T1800,1734A,111.5028,36.0714,临汾市,技工学校,,,,157,,108,49,,46,46,54,65,22,23,1.2,1.7
2023-12-27T1800,1736A,111.5018,36.0855,临汾市,市委,细颗粒物(PM2.5),123,141,154,93,102,57,,56,56,53,63,19,21,1.2,1.6
2023-12-27T1800,3018A,111.505,36.1014,临汾市,唐尧大酒店,细颗粒物(PM2.5),130,129,146,99,105,44,,46,46,56,63,18,21,1.2,1.7
2023-12-27T1800,3668A,111.5036,36.0414,临汾市,城南,细颗粒物(PM2.5),127,154,161,96,113,47,,54,54,52,61,20,18,1.1,1.6
2023-12-27T1800,2667A,103.2069,35.5993,临夏回族自治州,环保局,,39,39,71,26,31,76,,64,64,20,44,14,24,0.8,2.7
2023-12-27T1800,2668A,103.2417,35.6057,临夏回族自治州,建设大厦,颗粒物(PM10),60,69,73,36,29,53,,58,58,12,34,9,12,0.9,1.5
2023-12-27T1800,1618A,118.3429,35.0532,临沂市,沂河小区,细颗粒物(PM2.5),204,190,189,154,151,24,,31,31,61,76,11,16,1.1,1.3
2023-12-27T1800,1619A,118.295,35.0583,临沂市,鲁南制药厂,细颗粒物(PM2.5),198,197,186,148,139,30,,44,44,72,76,18,21,1.5,1.7
2023-12-27T1800,1620A,118.2794,34.9976,临沂市,新光毛纺厂,细颗粒物(PM2.5),188,200,180,141,131,28,,44,44,74,76,10,16,1.3,1.4
2023-12-27T1800,1621A,118.3956,35.0888,临沂市,河东保险公司,细颗粒物(PM2.5),198,193,190,148,152,19,,32,32,69,74,8,15,1.5,1.7
2023-12-27T1800,3370A,118.3564,35.0215,临沂市,十里堡居委,细颗粒物(PM2.5),185,202,186,139,133,25,,38,38,68,72,12,18,1.4,1.8
2023-12-27T1800,3496A,118.3604,35.1084,临沂市,南坊新区,细颗粒物(PM2.5),188,193,187,141,139,26,,37,37,72,77,11,17,1.5,1.8
2023-12-27T1800,3860A,118.3920,35.0300,临沂市,皇山花园小区,细颗粒物(PM2.5),182,219,191,137,129,10,,35,34,101,82,15,18,1.5,1.6
2023-12-27T1800,1870A,109.4856,24.3895,柳州市,柳东小学,细颗粒物(PM2.5),64,57,78,46,71,140,,119,119,16,23,14,22,0.5,0.7
2023-12-27T1800,1871A,109.4157,24.3277,柳州市,环保监测站,细颗粒物(PM2.5),60,60,121,43,85,134,,105,105,23,60,14,18,0.5,1
2023-12-27T1800,1872A,109.389,24.341,柳州市,河西水厂,"颗粒物(PM10),细颗粒物(PM2.5)",58,65,142,41,79,135,,106,106,20,51,12,27,0.8,1.4
2023-12-27T1800,1873A,109.4311,24.2921,柳州市,市四中,细颗粒物(PM2.5),74,68,125,54,85,120,,91,91,34,60,13,23,0.8,1.8
2023-12-27T1800,1874A,109.4006,24.3631,柳州市,市九中,颗粒物(PM10),62,73,115,43,85,93,,95,95,42,54,7,16,0.8,1.1
2023-12-27T1800,1875A,109.4958,24.3134,柳州市,古亭山,细颗粒物(PM2.5),68,69,65,49,52,105,,112,112,30,51,14,16,0.9,1
2023-12-27T1800,3402A,109.5422,24.3996,柳州市,市二中,细颗粒物(PM2.5),57,60,81,40,69,135,,122,122,16,38,9,11,0.7,0.8
2023-12-27T1800,2307A,116.5079,31.737,六安市,监测大楼,细颗粒物(PM2.5),270,239,149,220,122,40,,38,38,52,55,2,5,,1.1
2023-12-27T1800,2308A,116.4738,31.7643,六安市,皖西学院,细颗粒物(PM2.5),253,248,167,203,115,31,,40,40,63,55,4,5,1.3,1.1
2023-12-27T1800,2309A,116.4996,31.7905,六安市,朝阳厂,细颗粒物(PM2.5),262,247,151,212,120,33,,38,38,57,53,5,6,1.2,1
2023-12-27T1800,2310A,116.5567,31.7886,六安市,开发区,细颗粒物(PM2.5),260,312,183,210,118,20,,34,34,77,57,4,6,1.3,0.9
2023-12-27T1800,2576A,104.8,26.5892,六盘水市,窑上,,,,,,,,,,,,,,,,
2023-12-27T1800,2577A,104.83,26.5917,六盘水市,黄土坡,颗粒物(PM10),62,74,78,43,55,99,,76,76,24,28,11,16,0.8,1
2023-12-27T1800,2578A,104.89,26.5939,六盘水市,水钢,细颗粒物(PM2.5),75,82,73,55,58,114,,90,90,16,19,8,9,0.6,0.7
2023-12-27T1800,2579A,104.8475,26.5894,六盘水市,民中,细颗粒物(PM2.5),77,70,71,56,60,94,,75,75,24,28,10,17,0.7,1
2023-12-27T1800,2580A,104.9544,26.5506,六盘水市,双水,颗粒物(PM10),64,78,67,45,48,114,,98,98,21,17,12,10,0.7,0.7
2023-12-27T1800,2335A,117.0189,25.1181,龙岩市,龙岩师专,,,,,,,,,,,,,,,,
2023-12-27T1800,2336A,117.0217,25.1033,龙岩市,龙岩市监测站,,46,46,45,26,26,33,,81,81,71,40,9,10,0.9,0.8
2023-12-27T1800,2337A,117.0258,25.0661,龙岩市,闽西职业技术学院,细颗粒物(PM2.5),122,102,60,92,33,10,,73,70,86,42,5,11,1.1,1
2023-12-27T1800,2338A,117.0196,25.0306,龙岩市,龙岩学院,,45,45,43,18,26,58,,75,75,28,30,5,7,0.4,0.5
2023-12-27T1800,2665A,105.0822,33.3261,陇南市,汉王镇固水子,,,,,,,,,,,,,,,,
2023-12-27T1800,2885A,104.9339,33.3826,陇南市,滨江中学,颗粒物(PM10),90,129,121,49,73,17,,40,40,77,58,20,46,1.8,3.3
2023-12-27T1800,3247A,104.955,33.371,陇南市,市总工会,颗粒物(PM10),78,106,87,43,51,37,,53,53,61,48,9,16,0.9,1.1
2023-12-27T1800,2487A,111.9589,27.8901,娄底市,电视发射台,细颗粒物(PM2.5),78,91,80,57,51,108,,116,116,20,17,8,10,1.1,1.3
2023-12-27T1800,2488A,111.9975,27.725,娄底市,市监测站,细颗粒物(PM2.5),113,109,137,85,97,118,,98,98,33,59,12,18,1.0,1.7
2023-12-27T1800,2489A,112.0194,27.7314,娄底市,市委党校,细颗粒物(PM2.5),109,124,136,82,94,95,,83,83,54,59,8,14,1.0,1.4
2023-12-27T1800,2490A,111.9561,27.7569,娄底市,涟钢,细颗粒物(PM2.5),108,124,135,81,89,100,,92,92,43,45,14,15,1.6,1.5
2023-12-27T1800,2491A,111.9892,27.7044,娄底市,市政府,细颗粒物(PM2.5),92,107,124,68,86,101,,89,89,56,50,11,10,1.0,1.3
2023-12-27T1800,1893A,105.4324,28.9634,泸州市,九狮山,细颗粒物(PM2.5),166,148,136,126,116,100,,74,74,21,26,7,6,0.5,0.6
2023-12-27T1800,1894A,105.4427,28.9063,泸州市,小市上码头,细颗粒物(PM2.5),165,164,158,125,119,93,,70,70,24,35,6,4,0.7,0.9
2023-12-27T1800,1895A,105.4241,28.8573,泸州市,兰田宪桥,细颗粒物(PM2.5),172,160,149,130,121,77,,66,66,29,34,6,6,0.8,0.9
2023-12-27T1800,1896A,105.4379,28.8833,泸州市,市环监站,细颗粒物(PM2.5),168,146,143,127,121,83,,54,54,23,40,11,9,0.9,1
2023-12-27T1800,3490A,105.3617,28.7703,泸州市,纳溪区环保局,细颗粒物(PM2.5),156,153,145,119,112,71,,66,66,47,36,5,5,1.0,0.8
2023-12-27T1800,2183A,111.1406,37.5211,吕梁市,环保局,细颗粒物(PM2.5),89,108,115,66,67,12,,51,51,114,65,8,5,0.9,0.9
2023-12-27T1800,2185A,111.1297,37.5136,吕梁市,自来水公司,细颗粒物(PM2.5),109,137,123,82,82,8,,49,48,106,64,12,10,1.4,0.9
2023-12-27T1800,2867A,111.1283,37.51,吕梁市,马茂庄小学,细颗粒物(PM2.5),129,146,126,98,84,3,,46,45,104,66,17,7,1.2,1
2023-12-27T1800,1812A,112.3931,34.6516,洛阳市,市委党校,细颗粒物(PM2.5),165,152,153,125,123,48,,51,51,58,56,13,12,1.2,1.3
2023-12-27T1800,1814A,112.4657,34.6871,洛阳市,豫西宾馆,细颗粒物(PM2.5),150,180,160,115,108,43,,60,60,72,53,10,9,0.9,1.3
2023-12-27T1800,1815A,112.494,34.6886,洛阳市,河南林校,细颗粒物(PM2.5),150,151,139,115,104,49,,57,57,60,50,11,10,1.0,1
2023-12-27T1800,1816A,112.3844,34.623,洛阳市,开发区管委会,细颗粒物(PM2.5),140,137,137,107,105,59,,61,61,55,53,6,6,1.0,1.2
2023-12-27T1800,1817A,112.4267,34.6258,洛阳市,市委新办公区,细颗粒物(PM2.5),169,142,142,128,131,56,,56,56,43,57,7,7,1.2,1.3
2023-12-27T1800,3340A,112.6005,34.6326,洛阳市,伊滨,细颗粒物(PM2.5),172,187,166,130,114,42,,46,46,60,58,6,4,1.4,1.5
2023-12-27T1800,3341A,112.4951,34.6332,洛阳市,中移产业园,细颗粒物(PM2.5),175,149,135,132,121,48,,55,55,56,52,7,8,1.2,1.3
2023-12-27T1800,3593A,112.5736,34.8993,洛阳市,吉利监测站,细颗粒物(PM2.5),176,157,148,133,125,26,,48,48,77,52,6,7,1.2,1.2
2023-12-27T1800,3635A,112.3677,34.662,洛阳市,河科大西苑校区,细颗粒物(PM2.5),142,151,162,108,121,53,,52,52,59,62,8,9,0.9,1.1
2023-12-27T1800,3636A,112.4388,34.6781,洛阳市,英才小学,细颗粒物(PM2.5),148,166,152,113,114,50,,56,56,55,49,8,8,1.2,1.3
2023-12-27T1800,2399A,114.051,33.5699,漯河市,三五一五工厂,细颗粒物(PM2.5),108,103,176,81,146,58,,63,63,27,37,6,6,0.7,1.1
2023-12-27T1800,2400A,114.0055,33.5698,漯河市,漯河大学,细颗粒物(PM2.5),99,103,159,74,138,63,,67,67,38,46,7,7,0.8,1.2
2023-12-27T1800,2401A,114.0138,33.5828,漯河市,市水利局,细颗粒物(PM2.5),104,112,167,78,140,56,,66,66,29,31,9,9,0.8,1.1
2023-12-27T1800,2402A,114.0261,33.5698,漯河市,市广电局,,,100,167,71,133,58,,64,64,,36,4,5,0.7,1
2023-12-27T1800,3478A,113.9749,33.5664,漯河市,市图书馆,细颗粒物(PM2.5),103,112,179,77,153,62,,62,62,24,29,7,7,0.6,1.1
2023-12-27T1800,3479A,114.0967,33.5906,漯河市,召陵区卫健委,细颗粒物(PM2.5),112,116,182,84,150,38,,59,59,43,37,,6,0.8,1.1
2023-12-27T1800,1798A,118.5092,31.6837,马鞍山市,湖东路四小,细颗粒物(PM2.5),149,126,106,114,94,53,,55,55,103,95,16,13,1.2,1.2
2023-12-27T1800,1799A,118.5024,31.6449,马鞍山市,开发区,细颗粒物(PM2.5),142,145,128,108,104,52,,52,52,101,90,16,15,1.2,1.2
2023-12-27T1800,1800A,118.5228,31.7231,马鞍山市,慈湖,细颗粒物(PM2.5),165,168,145,125,107,11,,44,44,148,94,14,10,1.5,1.4
2023-12-27T1800,1802A,118.6245,31.7241,马鞍山市,濮塘,细颗粒物(PM2.5),120,139,125,91,76,71,,55,55,66,74,9,9,0.9,0.9
2023-12-27T1800,3633A,118.4918,31.6809,马鞍山市,雨山,细颗粒物(PM2.5),140,145,132,107,89,49,,66,66,101,92,16,12,1.0,1
2023-12-27T1800,1686A,111.0286,21.4688,茂名市,电白南海,,,,70,,36,,,116,,,30,,14,,0.5
2023-12-27T1800,1687A,110.9294,21.6533,茂名市,茂石化七小,颗粒物(PM10),75,100,83,44,47,106,,113,113,36,23,15,19,0.8,0.9
2023-12-27T1800,1688A,110.9107,21.6687,茂名市,健康路,颗粒物(PM10),69,88,79,44,41,114,,118,118,44,37,11,22,0.9,0.9
2023-12-27T1800,1689A,110.8592,21.6828,茂名市,高岭,,,,94,,50,116,,110,110,,42,,26,0.4,0.6
2023-12-27T1800,3450A,111.01,21.5165,茂名市,电白水东,颗粒物(PM10),59,68,74,34,36,138,,116,116,27,26,8,18,0.6,0.7
2023-12-27T1800,2539A,104.0308,30.0478,眉山市,黑龙滩水库,细颗粒物(PM2.5),93,101,103,69,68,129,,96,96,7,7,5,5,0.5,0.5
2023-12-27T1800,2540A,103.8416,30.0874,眉山市,气象局,细颗粒物(PM2.5),149,130,122,114,111,115,,83,83,31,47,8,7,0.8,1
2023-12-27T1800,3137A,103.8578,30.0744,眉山市,市委党校,细颗粒物(PM2.5),144,127,132,110,108,104,,85,85,38,54,7,13,0.6,1
2023-12-27T1800,3148A,103.8291,30.0564,眉山市,区人社局,细颗粒物(PM2.5),140,116,108,107,115,90,,74,74,56,61,8,9,0.9,1.2
2023-12-27T1800,1690A,116.1231,24.3284,梅州市,梅江月梅,,47,47,48,22,31,59,,56,56,33,42,10,11,0.6,0.7
2023-12-27T1800,1691A,116.0797,24.2719,梅州市,梅县新城,细颗粒物(PM2.5),65,65,54,47,30,25,,56,56,65,39,6,6,1.1,0.8
2023-12-27T1800,1692A,116.1248,24.2654,梅州市,环境监控中心,颗粒物(PM10),55,59,58,32,34,25,,58,58,68,44,6,7,0.7,0.6
2023-12-27T1800,3315A,116.1233,24.2991,梅州市,梅龙,颗粒物(PM10),59,68,52,25,35,21,,52,51,64,39,6,7,0.9,0.8
2023-12-27T1800,1878A,104.7778,31.4741,绵阳市,富乐山,细颗粒物(PM2.5),139,120,127,106,104,64,,49,49,39,53,5,6,1.0,1
2023-12-27T1800,1879A,104.7563,31.4535,绵阳市,市人大,细颗粒物(PM2.5),128,120,148,97,117,28,,38,38,88,64,10,6,1.3,1.4
2023-12-27T1800,1880A,104.6697,31.4668,绵阳市,高新区自来水公司,细颗粒物(PM2.5),127,,197,96,114,72,,50,50,44,51,8,9,,1.2
2023-12-27T1800,1881A,104.7287,31.5075,绵阳市,三水厂,细颗粒物(PM2.5),139,131,164,106,125,19,,38,38,91,57,7,6,1.2,1.2
2023-12-27T1800,3491A,104.69,31.5322,绵阳市,西科大附属小学,细颗粒物(PM2.5),135,131,148,103,111,54,,50,50,60,61,5,6,1.0,1.2
2023-12-27T1800,3492A,104.5648,31.5343,绵阳市,安州区旅游局,细颗粒物(PM2.5),133,130,157,101,119,70,,60,60,52,54,11,11,0.7,1
2023-12-27T1800,1784A,129.61,44.561,牡丹江市,环保大楼,细颗粒物(PM2.5),83,90,58,61,42,15,,48,44,71,31,10,10,1.1,0.6
2023-12-27T1800,1785A,129.6115,44.5782,牡丹江市,文化广场,细颗粒物(PM2.5),148,142,62,113,51,13,,41,40,78,33,18,12,2.1,0.8
2023-12-27T1800,1786A,129.5904,44.5963,牡丹江市,第一医院,细颗粒物(PM2.5),168,146,67,127,61,9,,42,40,73,35,19,12,1.8,0.9
2023-12-27T1800,1787A,129.6364,44.6075,牡丹江市,机车工厂,细颗粒物(PM2.5),138,133,72,105,53,10,,36,33,69,43,14,16,1.2,0.8
2023-12-27T1800,1788A,129.6386,44.5462,牡丹江市,第一中学,细颗粒物(PM2.5),82,92,64,60,46,8,,45,38,69,30,13,11,1.1,0.7
2023-12-27T1800,2531A,105.0703,29.61,内江市,市监测站,细颗粒物(PM2.5),138,123,122,105,121,78,,75,75,50,46,8,8,0.9,1.1
2023-12-27T1800,2532A,105.0717,29.5947,内江市,东兴区政府,细颗粒物(PM2.5),107,98,116,80,102,100,,78,78,30,44,9,8,0.8,1.1
2023-12-27T1800,2533A,105.0653,29.5817,内江市,内江二中,细颗粒物(PM2.5),119,104,114,90,111,109,,78,78,24,47,7,6,0.8,1
2023-12-27T1800,2534A,105.0406,29.5822,内江市,内江日报社,细颗粒物(PM2.5),107,100,129,80,107,89,,76,76,38,58,7,9,0.6,1
2023-12-27T1800,1290A,115.8931,28.6843,南昌市,省外办,颗粒物(PM10),93,136,144,61,77,29,,53,53,67,67,9,13,1.5,1.5
2023-12-27T1800,1291A,115.8886,28.7003,南昌市,省林业公司,细颗粒物(PM2.5),70,83,128,51,61,64,,59,59,60,76,10,15,0.8,1
2023-12-27T1800,1292A,115.8126,28.7442,南昌市,林科所,颗粒物(PM10),65,80,72,36,39,57,,70,70,68,56,9,12,0.9,0.8
2023-12-27T1800,1294A,115.8518,28.687,南昌市,建工学校,细颗粒物(PM2.5),73,88,124,53,57,65,,61,61,48,75,14,16,0.7,1
2023-12-27T1800,1295A,115.8921,28.6424,南昌市,象湖,细颗粒物(PM2.5),77,78,126,56,73,29,,61,61,82,76,11,13,1.1,1.8
2023-12-27T1800,1296A,115.7423,28.7996,南昌市,武术学校,,45,31,33,31,18,70,,76,76,21,17,17,13,0.5,0.5
2023-12-27T1800,1298A,115.9314,28.6842,南昌市,省站,细颗粒物(PM2.5),70,85,153,51,68,36,,53,53,78,75,15,19,0.7,1
2023-12-27T1800,3046A,115.9084,28.6062,南昌市,机电学校,颗粒物(PM10),81,112,156,53,74,24,,62,62,90,73,12,15,0.6,1
2023-12-27T1800,3690A,115.9721,28.7031,南昌市,外国语学校,颗粒物(PM10),76,102,124,54,64,48,,67,67,66,71,9,13,0.6,1
2023-12-27T1800,1905A,106.056,30.8064,南充市,西山风景区,细颗粒物(PM2.5),97,80,93,72,86,101,,75,75,20,30,4,8,0.7,0.8
2023-12-27T1800,1906A,106.0789,30.8023,南充市,南充市委,细颗粒物(PM2.5),89,97,113,66,76,54,,56,56,60,46,6,6,0.8,0.9
2023-12-27T1800,1907A,106.1031,30.8217,南充市,南充炼油厂,细颗粒物(PM2.5),107,101,130,80,95,75,,66,66,41,49,8,7,0.5,0.9
2023-12-27T1800,1908A,106.1064,30.7856,南充市,高坪区监测站,细颗粒物(PM2.5),98,95,137,73,94,91,,71,71,24,43,6,7,0.5,0.8
2023-12-27T1800,1909A,106.0642,30.7636,南充市,嘉陵区环保局,细颗粒物(PM2.5),98,125,130,73,83,45,,55,55,65,54,4,5,1.3,1.1
2023-12-27T1800,1910A,106.1087,30.8388,南充市,市环境监测站,细颗粒物(PM2.5),92,95,119,68,84,85,,68,68,25,46,11,9,0.6,0.8
2023-12-27T1800,1151A,118.8086,32.1065,南京市,迈皋桥,细颗粒物(PM2.5),144,160,172,110,110,39,,63,63,100,91,9,12,1.3,1.5
2023-12-27T1800,1152A,118.7538,32.0551,南京市,草场门,颗粒物(PM10),112,173,152,58,89,29,,64,64,127,103,7,9,1.0,1.1
2023-12-27T1800,1153A,118.7794,32.0745,南京市,山西路,细颗粒物(PM2.5),149,166,174,114,115,49,,66,66,107,95,14,16,0.8,0.9
2023-12-27T1800,1154A,118.7752,32.0023,南京市,中华门,细颗粒物(PM2.5),144,156,146,110,95,27,,57,57,135,117,14,13,1.5,1.6
2023-12-27T1800,1155A,118.8109,32.0309,南京市,瑞金路,细颗粒物(PM2.5),168,193,160,127,97,24,,57,57,131,123,8,7,1.7,1.2
2023-12-27T1800,1156A,118.7997,32.0754,南京市,玄武湖,细颗粒物(PM2.5),132,144,161,100,106,55,,56,56,92,94,14,13,1.1,1.3
2023-12-27T1800,1157A,118.6414,32.0931,南京市,浦口,细颗粒物(PM2.5),143,136,154,109,110,93,,78,78,60,86,8,10,0.5,0.8
2023-12-27T1800,1158A,118.7356,31.9996,南京市,奥体中心,细颗粒物(PM2.5),138,152,147,105,94,60,,66,66,110,115,12,11,1.3,1.4
2023-12-27T1800,1159A,118.9125,32.1028,南京市,仙林大学城,细颗粒物(PM2.5),160,158,158,122,111,39,,58,58,110,102,11,10,1.2,1.2
2023-12-27T1800,3422A,118.8436,31.9198,南京市,江宁彩虹桥,细颗粒物(PM2.5),170,209,157,129,95,54,,55,55,142,119,19,13,2.2,1.3
2023-12-27T1800,3423A,119.0138,31.6494,南京市,溧水永阳,细颗粒物(PM2.5),166,163,128,126,97,5,,37,37,141,94,4,4,1.4,1
2023-12-27T1800,3424A,118.879,31.3302,南京市,高淳老职中,细颗粒物(PM2.5),147,156,131,112,101,16,,33,33,124,98,21,13,1.6,1
2023-12-27T1800,3427A,118.8554,32.3578,南京市,六合雄州,,,,144,,93,68,,63,63,60,71,8,19,1.3,1.3
2023-12-27T1800,1401A,108.3103,22.7881,南宁市,二十一中,"颗粒物(PM10),细颗粒物(PM2.5)",67,84,110,48,81,161,,120,120,25,73,8,12,0.9,1.2
2023-12-27T1800,1402A,108.3141,22.8528,南宁市,北湖,细颗粒物(PM2.5),75,92,122,55,89,116,,109,109,42,56,9,16,0.9,1.1
2023-12-27T1800,1403A,108.3206,22.8225,南宁市,市监测站,细颗粒物(PM2.5),65,76,108,47,71,151,,117,117,38,84,10,15,0.9,1.2
2023-12-27T1800,1404A,108.3829,22.8037,南宁市,大自然花园,细颗粒物(PM2.5),74,94,86,54,69,136,,117,117,39,45,9,10,0.7,0.8
2023-12-27T1800,1405A,108.4394,22.7904,南宁市,仙葫,细颗粒物(PM2.5),74,90,120,54,79,121,,125,125,58,66,8,10,0.8,1
2023-12-27T1800,1406A,108.2397,22.8467,南宁市,区农职院,细颗粒物(PM2.5),84,111,97,62,62,115,,114,114,60,53,12,15,0.9,0.6
2023-12-27T1800,1407A,108.3275,22.735,南宁市,英华嘉园,细颗粒物(PM2.5),72,70,127,52,87,139,,102,102,30,79,9,14,0.7,1.1
2023-12-27T1800,1408A,108.2257,22.7757,南宁市,沙井镇街道办,颗粒物(PM10),71,91,153,42,83,112,,106,106,61,66,12,36,0.8,1
2023-12-27T1800,3401A,108.4834,22.7618,南宁市,红星社区,,,,115,,80,125,,94,94,23,63,23,8,0.8,0.9
2023-12-27T1800,2331A,118.0966,26.6761,南平市,茫荡山,,,,,,,,,,,,,,,,
2023-12-27T1800,2332A,118.1681,26.6369,南平市,南平市监测站,,43,38,51,30,37,55,,73,73,33,34,5,6,0.9,1
2023-12-27T1800,2333A,118.1825,26.6489,南平市,南平铝业有限公司,,49,49,48,28,33,36,,59,59,40,35,7,8,0.7,0.8
2023-12-27T1800,2334A,118.1756,26.6272,南平市,南平七中,,,56,48,34,34,52,,68,68,33,36,6,9,,0.7
2023-12-27T1800,1168A,120.9098,31.9663,南通市,狼山街道,细颗粒物(PM2.5),77,66,99,56,82,5,,58,54,87,60,8,9,0.5,0.6
2023-12-27T1800,1169A,120.86,32.0005,南通市,虹桥,细颗粒物(PM2.5),99,97,104,74,81,1,,51,48,115,63,9,7,0.7,0.8
2023-12-27T1800,1170A,120.87,32.02,南通市,城中,细颗粒物(PM2.5),85,87,96,63,75,6,,52,49,106,63,10,9,0.7,0.7
2023-12-27T1800,1171A,120.94,31.93,南通市,星湖花园,细颗粒物(PM2.5),80,98,98,59,71,1,,55,47,90,63,6,7,0.6,0.5
2023-12-27T1800,1172A,120.81,32.0417,南通市,紫琅学院,细颗粒物(PM2.5),82,99,105,60,72,1,,42,41,111,68,9,8,0.6,0.6
2023-12-27T1800,3291A,121.067,32.062,南通市,通州监测站,细颗粒物(PM2.5),55,56,89,39,69,68,,79,79,35,36,7,8,0.7,0.8
2023-12-27T1800,3432A,120.9348,31.9883,南通市,环境教育馆,细颗粒物(PM2.5),58,56,88,41,77,25,,65,64,67,54,9,9,0.6,0.8
2023-12-27T1800,2404A,112.5224,33.0122,南阳市,瓦房庄,细颗粒物(PM2.5),150,133,147,115,137,78,,78,78,,35,8,7,0.9,1.1
2023-12-27T1800,2405A,112.5003,32.9735,南阳市,汉画馆,细颗粒物(PM2.5),152,155,166,116,137,68,,78,78,41,32,9,9,1.1,1.1
2023-12-27T1800,2406A,112.5573,33.027,南阳市,气象站,细颗粒物(PM2.5),160,144,157,122,142,70,,75,75,22,36,7,7,1.1,1.1
2023-12-27T1800,2407A,112.5481,32.9689,南阳市,理工学院,细颗粒物(PM2.5),143,134,153,109,128,77,,82,82,38,32,8,7,0.8,0.9
2023-12-27T1800,4008A,112.5234,32.9922,南阳市,卧龙区政府,细颗粒物(PM2.5),148,150,153,113,130,54,,73,73,71,44,8,8,1.1,1
2023-12-27T1800,1234A,121.8358,29.911,宁波市,区环保大楼,细颗粒物(PM2.5),225,296,112,175,64,14,,43,43,133,88,11,8,1.0,0.9
2023-12-27T1800,1235A,121.56,29.82,宁波市,万里学院,细颗粒物(PM2.5),172,178,98,130,62,42,,69,69,107,64,9,6,0.9,0.7
2023-12-27T1800,1236A,121.713,29.9572,宁波市,龙赛医院,细颗粒物(PM2.5),159,262,126,121,64,32,,67,67,127,89,7,8,0.9,1.2
2023-12-27T1800,1239A,121.633,29.7733,宁波市,钱湖水厂,细颗粒物(PM2.5),168,154,78,127,64,42,,63,63,90,45,10,8,0.9,0.7
2023-12-27T1800,1240A,121.5856,29.8635,宁波市,太古小学,细颗粒物(PM2.5),188,170,89,141,66,36,,57,57,117,77,10,8,0.8,0.9
2023-12-27T1800,1241A,121.524,29.8674,宁波市,市环境监测中心,细颗粒物(PM2.5),130,150,94,99,59,70,,76,76,80,74,13,11,1.2,1.1
2023-12-27T1800,2871A,121.6147,29.9017,宁波市,万里国际学校,细颗粒物(PM2.5),193,173,104,145,78,31,,59,59,111,88,9,9,0.8,1
2023-12-27T1800,3710A,121.5594,29.8975,宁波市,白沙活动中心,细颗粒物(PM2.5),143,139,97,109,63,54,,74,74,91,79,9,8,0.9,1
2023-12-27T1800,2339A,119.5001,26.6946,宁德市,金涵水库,,,,,,,,,,,,,,,,
2023-12-27T1800,2341A,119.5388,26.6612,宁德市,宁德市监测站,"颗粒物(PM10),细颗粒物(PM2.5)",54,58,38,38,26,20,,61,60,56,26,6,6,1.1,0.6
2023-12-27T1800,3209A,119.5231,26.6562,宁德市,宁德一中,,,37,41,34,30,48,,59,59,14,20,,2,0.8,0.9
2023-12-27T1800,2618A,98.8601,25.8567,怒江州,州监测站,,,29,24,20,16,,,50,50,14,15,8,8,0.3,0.3
2023-12-27T1800,2619A,98.8546,25.8417,怒江州,泸水一中,,24,24,23,9,16,48,,45,45,18,19,7,7,0.4,0.4
2023-12-27T1800,1888A,101.6891,26.571,攀枝花市,弄弄坪,,32,32,48,20,24,75,,60,60,19,34,18,27,0.6,1.5
2023-12-27T1800,1889A,101.5769,26.5928,攀枝花市,河门口,,27,26,46,15,24,84,,69,69,13,29,11,20,0.7,1.3
2023-12-27T1800,1890A,101.7169,26.585,攀枝花市,炳草岗,,34,34,53,16,25,71,,62,62,26,40,26,33,0.6,1.2
2023-12-27T1800,1891A,101.7369,26.5008,攀枝花市,仁和,,23,20,30,12,20,73,,69,69,12,20,14,10,0.6,0.9
2023-12-27T1800,2835A,101.7227,26.567,攀枝花市,四十中小,,34,34,53,22,24,80,,66,66,21,41,15,69,0.7,1.5
2023-12-27T1800,1604A,122.0303,41.1489,盘锦市,开发区,细颗粒物(PM2.5),85,93,77,63,69,20,,36,36,102,74,21,27,1.6,1.5
2023-12-27T1800,1605A,122.0485,41.0883,盘锦市,兴隆台,细颗粒物(PM2.5),102,89,76,76,66,18,,33,33,94,67,18,17,1.7,2
2023-12-27T1800,1606A,121.8297,41.1028,盘锦市,新生街道,颗粒物(PM10),57,63,65,35,48,44,,38,38,52,51,12,15,1.1,1.2
2023-12-27T1800,1832A,113.3257,33.742,平顶山市,新华旅馆,细颗粒物(PM2.5),128,142,187,97,132,66,,72,72,35,28,10,10,0.8,0.9
2023-12-27T1800,1833A,113.2919,33.737,平顶山市,规划设计院,细颗粒物(PM2.5),138,145,167,105,130,71,,78,78,42,33,10,11,1.1,1.1
2023-12-27T1800,1834A,113.182,33.774,平顶山市,平顶山工学院,细颗粒物(PM2.5),144,163,194,110,142,75,,86,86,,29,9,7,1.0,1
2023-12-27T1800,3204A,113.3025,33.73,平顶山市,规划局,细颗粒物(PM2.5),124,134,171,94,132,68,,75,75,31,25,10,11,0.9,1
2023-12-27T1800,3594A,112.8867,33.9116,平顶山市,石龙区,细颗粒物(PM2.5),192,184,178,144,146,80,,101,101,39,50,6,9,,1.2
2023-12-27T1800,2656A,106.6692,35.5461,平凉市,聚贤嘉苑,细颗粒物(PM2.5),137,146,76,104,47,140,,97,97,61,49,12,11,1.0,0.8
2023-12-27T1800,2657A,106.7021,35.5307,平凉市,博物馆,细颗粒物(PM2.5),133,153,105,101,64,129,,100,100,86,67,17,21,1.3,1.5
2023-12-27T1800,2347A,114.0997,27.5002,萍乡市,武功山,细颗粒物(PM2.5),53,45,43,37,34,87,,103,103,16,12,7,4,0.5,0.4
2023-12-27T1800,2348A,113.8385,27.6434,萍乡市,中医院,颗粒物(PM10),77,104,132,50,101,56,,70,70,64,49,26,21,1.5,1.7
2023-12-27T1800,2349A,113.8493,27.6253,萍乡市,市政府车库,细颗粒物(PM2.5),90,92,123,67,104,70,,75,75,40,47,17,18,0.9,2
2023-12-27T1800,2350A,113.8676,27.6435,萍乡市,市环保局,颗粒物(PM10),64,78,119,43,82,89,,84,84,42,51,21,24,1.3,1.5
2023-12-27T1800,2351A,113.866,27.6198,萍乡市,安源区政府,细颗粒物(PM2.5),87,,125,64,93,75,,78,78,54,52,11,14,1.0,2.6
2023-12-27T1800,2319A,119.0141,25.4325,莆田市,荔城区仓后路,,44,44,40,30,21,56,,74,74,28,20,7,7,0.9,0.7
2023-12-27T1800,2320A,119.0015,25.4553,莆田市,莆田市监测站,,45,45,28,27,15,66,,85,84,25,12,8,7,0.7,0.5
2023-12-27T1800,2321A,119.1119,25.4561,莆田市,涵江区六中,,37,37,38,16,19,70,,80,80,25,24,8,8,0.8,0.7
2023-12-27T1800,2322A,119.1013,25.3215,莆田市,秀屿区政府,,35,29,39,24,22,76,,83,83,21,24,14,10,0.6,0.6
2023-12-27T1800,2323A,118.981,25.4792,莆田市,东圳水库,,,,,,,,,,,,,,,,
2023-12-27T1800,2392A,115.0312,35.7636,濮阳市,环保局,,45,38,82,31,75,44,,46,46,31,46,6,6,0.5,0.8
2023-12-27T1800,2394A,115.0574,35.7609,濮阳市,油田运输公司,,45,44,92,31,81,48,,50,50,32,48,7,8,0.4,0.8
2023-12-27T1800,2395A,115.0866,35.7754,濮阳市,油田物探公司,,50,44,94,35,83,40,,46,46,33,45,4,5,0.6,1
2023-12-27T1800,3021A,115,35.7668,濮阳市,濮水河管理处,,43,43,90,29,78,46,,51,51,23,52,2,5,0.4,0.9
2023-12-27T1800,2601A,100.98,22.7633,普洱市,市环保局,,40,28,36,28,29,64,,62,62,12,12,4,4,0.5,0.5
2023-12-27T1800,2602A,100.9817,22.8322,普洱市,普洱第二中学,,26,26,37,14,17,71,,68,68,11,17,6,6,0.3,0.6
2023-12-27T1800,2262A,131.0518,45.8751,七台河市,新一中,细颗粒物(PM2.5),54,48,40,38,36,56,,72,69,28,17,15,12,0.8,0.7
2023-12-27T1800,3345A,131.0577,45.7879,七台河市,中波台,,46,36,58,32,51,43,,50,46,37,34,8,11,0.4,0.4
2023-12-27T1800,3637A,131.0176,45.7761,七台河市,人民广场,,42,41,60,29,48,38,,48,40,43,41,6,7,0.7,0.8
2023-12-27T1800,3684A,130.8781,45.8222,七台河市,新建矿广场,细颗粒物(PM2.5),64,48,51,46,50,18,,52,44,62,32,8,6,0.8,0.6
2023-12-27T1800,1779A,123.9305,47.3636,齐齐哈尔市,安居小区,,44,44,32,27,25,20,,32,32,36,25,8,8,0.7,0.6
2023-12-27T1800,1780A,123.9488,47.3386,齐齐哈尔市,中心广场,细颗粒物(PM2.5),64,62,37,46,26,15,,27,26,40,28,4,5,1.0,1
2023-12-27T1800,1781A,123.9483,47.3227,齐齐哈尔市,农牧车辆厂,颗粒物(PM10),51,51,44,26,32,18,,32,32,36,30,10,10,0.8,0.9
2023-12-27T1800,1783A,123.945,47.2988,齐齐哈尔市,市环境监测站,,,,56,,42,35,,39,39,,31,5,8,,0.6
2023-12-27T1800,3662A,123.6333,47.2075,齐齐哈尔市,富区青少年活动中心,,46,46,41,18,25,28,,38,38,24,20,8,18,0.6,1
2023-12-27T1800,2591A,107.9783,26.5747,黔东南苗族侗族自治州,市环境监测站,细颗粒物(PM2.5),62,61,73,44,50,59,,60,60,53,56,12,14,0.6,0.6
2023-12-27T1800,2881A,107.8908,26.5311,黔东南苗族侗族自治州,凯里学院,细颗粒物(PM2.5),58,61,57,41,38,109,,90,90,25,38,8,8,0.6,0.6
2023-12-27T1800,2593A,107.5228,26.2403,黔南布依族苗族自治州,小围寨,,36,34,45,24,35,114,,104,104,9,17,11,10,0.5,0.7
2023-12-27T1800,3538A,107.5175,26.2978,黔南布依族苗族自治州,沙坝,,45,44,54,31,41,107,,96,96,10,20,8,9,0.8,0.7
2023-12-27T1800,2589A,104.9022,25.0925,黔西南布依族苗族自治州,场坝街,细颗粒物(PM2.5),55,55,63,39,51,73,,79,79,14,19,2,3,0.5,0.7
