timepoint,stationcode,longitude,latitude,area,positionname,primarypollutant,aqi,pm10,pm10_24h,pm2_5,pm2_5_24h,o3,o3_24h,o3_8h,o3_8h_24h,no2,no2_24h,so2,so2_24h,co,co_24h
2025-08-04T1900,2566A,102.1879,31.914,阿坝藏族羌族自治州,州农科所,,37,37,30,18,13,48,,65,61,16,7,15,17,2.8,1.3
2025-08-04T1900,2568A,102.2502,31.8896,阿坝藏族羌族自治州,马师校,,26,26,21,16,18,56,,67,67,16,11,7,7,0.7,0.8
2025-08-04T1900,3994A,102.2165,31.9024,阿坝藏族羌族自治州,马尔康中学西区,,39,,18,27,13,67,,74,74,7,5,8,8,0.7,0.7
2025-08-04T1900,2695A,80.292,41.1694,阿克苏地区,电视台,,35,35,47,24,17,95,,99,98,2,4,2,3,0.5,0.6
2025-08-04T1900,2696A,80.2613,41.1551,阿克苏地区,艺术中心,,37,36,48,13,21,118,,127,127,4,8,3,4,0.5,0.5
2025-08-04T1900,2204A,105.6467,38.8363,阿拉善盟,西城区西花园,,38,22,166,6,38,121,,120,120,13,8,8,8,0.6,0.6
2025-08-04T1900,2205A,105.6985,38.8411,阿拉善盟,蒙二幼,,34,27,187,9,56,106,,104,104,4,3,9,9,0.5,0.5
2025-08-04T1900,2206A,105.724,38.8516,阿拉善盟,环保局新楼,,35,21,164,8,55,111,,106,106,6,4,9,9,0.5,0.5
2025-08-04T1900,2708A,88.1264,47.8517,阿勒泰地区,市站,,24,13,12,8,5,75,,83,83,15,13,2,2,0.4,0.5
2025-08-04T1900,2630A,80.1161,32.5,阿里地区,阿里监测站,,28,6,4,3,2,88,,78,78,2,5,6,6,0.1,0.1
2025-08-04T1900,3192A,80.0903,32.5028,阿里地区,阿里藏医院,,30,9,8,3,1,93,,84,84,1,2,4,4,0.2,0.2
2025-08-04T1900,2642A,109.0318,32.6537,安康市,香溪洞,,39,39,29,24,19,112,,117,117,4,4,7,7,0.5,0.5
2025-08-04T1900,2644A,109.0072,32.6975,安康市,汉滨区检察院,,40,40,31,25,18,103,,106,106,4,6,5,7,0.7,0.7
2025-08-04T1900,4054A,109.0325,32.6913,安康市,市邮政管理局,,36,36,27,22,18,99,,106,106,5,6,3,4,0.7,0.6
2025-08-04T1900,2291A,117.0809,30.5177,安庆市,环科院,,35,35,28,19,20,108,,105,105,6,21,4,4,0.7,0.8
2025-08-04T1900,2292A,117.0331,30.5119,安庆市,马山宾馆,,33,26,25,21,19,105,,98,98,10,17,5,4,0.7,0.8
2025-08-04T1900,2294A,116.9896,30.6145,安庆市,安庆大学,,35,24,26,14,16,111,,117,117,6,14,2,5,0.4,0.5
2025-08-04T1900,3173A,117.0598,30.5351,安庆市,市人大,,35,26,25,21,19,111,,112,112,13,17,3,3,0.7,0.7
2025-08-04T1900,3122A,105.9606,26.2611,安顺市,伍家关,,,,18,,15,,,96,96,,5,,2,,0.6
2025-08-04T1900,3123A,105.9408,26.2431,安顺市,凤凰山,,25,22,21,17,16,78,,98,98,7,6,3,3,0.5,0.5
2025-08-04T1900,3124A,105.9439,26.2564,安顺市,金钟山,,30,24,20,20,17,94,,100,100,6,4,4,5,0.4,0.4
2025-08-04T1900,3125A,105.8983,26.2481,安顺市,娄家坡,,30,21,20,17,16,95,,94,94,3,3,6,6,0.5,0.5
2025-08-04T1900,1818A,114.4839,36.0621,安阳市,棉研所,,,,,,,,,,,,,,,,
2025-08-04T1900,1819A,114.3551,36.1017,安阳市,红庙街,,40,40,51,23,26,112,,112,110,9,14,3,4,0.5,0.6
2025-08-04T1900,1820A,114.361,36.0681,安阳市,银杏小区,颗粒物(PM10),52,54,52,31,33,114,,116,115,9,14,3,3,0.6,0.7
2025-08-04T1900,3141A,114.3922,36.0878,安阳市,信访局,颗粒物(PM10),51,51,49,24,28,122,,121,121,11,15,4,4,0.7,0.7
2025-08-04T1900,3669A,114.4705,36.0637,安阳市,左辅环卫站,,42,42,49,27,33,111,,112,112,11,15,5,6,0.5,0.5
2025-08-04T1900,3703A,114.2917,36.0949,安阳市,安钢职工学校,颗粒物(PM10),56,61,68,37,35,117,,108,108,8,12,3,6,0.7,0.8
2025-08-04T1900,1748A,123.044,41.1196,鞍山市,深沟寺,,31,19,22,7,11,98,,103,103,8,12,7,7,0.9,0.8
2025-08-04T1900,1749A,123.011,41.0931,鞍山市,太阳城,,35,19,23,12,15,112,,112,112,11,15,6,6,0.6,0.7
2025-08-04T1900,1750A,123.0485,41.1442,鞍山市,太平,,32,26,32,8,14,102,,115,115,14,18,8,8,0.9,0.9
2025-08-04T1900,1751A,122.9642,41.0971,鞍山市,铁西三道街,,35,23,28,12,16,109,,112,112,16,24,10,17,0.8,1.5
2025-08-04T1900,1753A,123.022,41.0821,鞍山市,明达新区,,32,15,19,6,11,100,,106,106,12,16,8,9,0.7,0.7
2025-08-04T1900,1754A,123.1289,41.0228,鞍山市,千山,,,,,,,,,,,,,,,,
2025-08-04T1900,4201A,122.9446,41.0826,鞍山市,兴盛南路290号,,38,19,29,7,14,120,,117,117,17,30,8,19,0.8,1.4
2025-08-04T1900,2195A,107.4212,40.761,巴彦淖尔市,附二中,,34,23,27,18,12,107,,119,119,8,7,7,7,0.6,0.6
2025-08-04T1900,2196A,107.37,40.7372,巴彦淖尔市,市环保大楼,,40,40,35,15,14,91,,106,106,10,9,6,6,0.4,0.4
2025-08-04T1900,1956A,86.1472,41.7538,巴音郭楞蒙古自治州,孔雀公园,颗粒物(PM10),51,52,42,15,14,110,,104,104,4,11,3,3,0.2,0.2
2025-08-04T1900,1957A,86.1972,41.7166,巴音郭楞蒙古自治州,棉纺厂,颗粒物(PM10),61,71,63,8,11,110,,109,109,3,8,4,4,0.2,0.2
2025-08-04T1900,1958A,86.2357,41.7173,巴音郭楞蒙古自治州,经济开发区,颗粒物(PM10),51,51,40,6,8,108,,106,105,8,7,3,3,0.1,0.1
2025-08-04T1900,2914A,106.7677,31.8794,巴中市,苏山坪,,39,30,23,23,18,123,,122,122,6,6,3,3,0.5,0.6
2025-08-04T1900,3181A,106.7768,31.8526,巴中市,市五中,,40,32,37,22,22,128,,124,124,4,13,10,10,0.6,0.6
2025-08-04T1900,3183A,106.7418,31.8654,巴中市,圣泉水务公司,,42,25,26,20,21,133,,131,131,3,6,8,8,0.6,0.6
2025-08-04T1900,3616A,106.7616,31.8344,巴中市,市中心医院,,37,26,31,21,23,116,,119,119,15,15,9,10,0.4,0.5
2025-08-04T1900,2235A,122.7911,45.6077,白城市,洮北区环保局,,25,9,9,6,10,79,,86,86,4,6,1,4,0.4,0.4
2025-08-04T1900,2236A,122.8738,45.5725,白城市,市环保局,,27,27,11,3,5,70,,83,82,4,9,4,3,0.4,0.4
2025-08-04T1900,2231A,126.4219,41.9171,白山市,喜丰,,25,25,19,6,7,52,,81,78,11,7,5,5,0.4,0.5
2025-08-04T1900,2232A,126.4077,41.9419,白山市,环保局,,20,20,17,3,8,54,,81,78,7,7,6,7,0.8,0.6
2025-08-04T1900,2647A,104.1724,36.5446,白银市,第三小学,,30,22,17,11,7,94,,102,102,9,6,4,12,0.6,0.6
2025-08-04T1900,2648A,104.1465,36.5482,白银市,动力公司,,24,18,17,15,8,74,,82,81,6,4,5,5,0.4,0.4
2025-08-04T1900,2512A,106.6103,23.9011,百色市,市监测站,颗粒物(PM10),51,52,31,30,16,103,,120,120,8,6,4,5,0.7,0.6
2025-08-04T1900,2513A,106.6538,23.8859,百色市,市中心血站,,46,43,34,32,21,94,,113,113,14,11,7,5,0.8,0.7
2025-08-04T1900,3406A,106.6085,23.8798,百色市,祈福高中,颗粒物(PM10),56,62,33,34,19,95,,114,114,12,10,5,6,0.6,0.6
2025-08-04T1900,2270A,117.396,32.939,蚌埠市,工人疗养院,,39,29,37,9,9,122,,131,131,7,4,3,4,0.3,0.3
2025-08-04T1900,2271A,117.3605,32.9427,蚌埠市,百货大楼,,37,24,21,10,11,118,,123,123,6,3,5,5,0.4,0.4
2025-08-04T1900,2273A,117.4185,32.8911,蚌埠市,蚌埠学院,,36,12,25,7,12,113,,124,124,2,5,5,5,0.4,0.4
2025-08-04T1900,2274A,117.3533,32.9673,蚌埠市,淮上区政府,,40,29,22,13,12,128,,139,139,8,8,5,5,0.5,0.5
2025-08-04T1900,2275A,117.3145,32.8977,蚌埠市,高新区,,31,22,23,3,9,97,,104,104,11,6,5,6,0.5,0.5
2025-08-04T1900,3715A,117.3092,32.9314,蚌埠市,蚌埠田家炳中学,,38,32,22,10,12,120,,125,125,9,6,8,7,0.3,0.3
2025-08-04T1900,1585A,109.8756,40.6532,包头市,市环境监测站,,29,29,34,19,26,87,,121,113,28,24,3,8,0.9,1
2025-08-04T1900,1587A,109.9991,40.5842,包头市,包头八中,,33,30,40,23,21,76,,109,106,33,19,2,7,0.9,0.8
2025-08-04T1900,1588A,109.8538,40.6821,包头市,青山宾馆,,46,46,36,24,28,79,,111,107,33,28,3,6,0.8,0.8
2025-08-04T1900,1589A,109.8642,40.6288,包头市,惠龙物流,,34,34,40,18,21,92,,114,112,14,15,3,6,0.7,0.8
2025-08-04T1900,1590A,110.0377,40.5546,包头市,东河鸿龙湾,,23,20,27,13,18,71,,113,109,19,15,3,2,0.7,0.7
2025-08-04T1900,3283A,109.9154,40.5685,包头市,滨河大厦,,30,,31,21,19,96,,120,118,15,18,4,4,0.7,0.6
2025-08-04T1900,3419A,109.9447,40.6261,包头市,包头市委党校,,31,29,29,12,22,98,,118,117,21,21,4,9,0.7,0.7
2025-08-04T1900,3683A,109.8331,40.6576,包头市,昆区政府,颗粒物(PM10),53,56,46,31,29,103,,120,119,21,21,3,7,0.8,0.9
2025-08-04T1900,1930A,107.185,34.3063,宝鸡市,庙沟村,,31,31,30,16,16,80,,140,128,8,8,4,4,0.4,0.4
2025-08-04T1900,1931A,107.0708,34.3017,宝鸡市,竹园沟,,29,29,27,18,21,92,,132,126,7,10,9,9,0.3,0.7
2025-08-04T1900,1932A,107.1906,34.3672,宝鸡市,三陆医院,,33,33,42,13,25,85,,130,122,11,18,8,9,0.6,0.7
2025-08-04T1900,1933A,107.1431,34.3547,宝鸡市,监测站,,32,32,34,18,24,89,,137,127,8,12,9,9,0.4,0.5
2025-08-04T1900,1934A,107.1186,34.3739,宝鸡市,技工学校,,,,34,14,23,86,,134,124,6,11,6,7,0.6,0.6
2025-08-04T1900,1936A,107.2058,34.3497,宝鸡市,文理学院,颗粒物(PM10),51,52,38,20,22,91,,141,133,12,12,7,8,0.5,0.5
2025-08-04T1900,1937A,107.2386,34.3622,宝鸡市,三迪小学,,33,28,35,23,26,82,,141,132,10,16,7,10,0.6,0.6
2025-08-04T1900,4308A,107.3898,34.3601,宝鸡市,陈仓区北开路21号,,29,19,30,16,22,92,,144,136,6,13,7,12,0.5,0.6
2025-08-04T1900,1051A,115.493,38.8632,保定市,游泳馆,,27,15,37,10,18,86,,100,98,3,6,3,3,0.2,0.3
2025-08-04T1900,1052A,115.5213,38.8959,保定市,华电二区,,31,29,42,14,24,99,,110,108,7,12,3,3,0.5,0.5
2025-08-04T1900,1053A,115.4713,38.9108,保定市,接待中心,,32,13,36,3,16,101,,104,104,4,7,3,3,0.4,0.4
2025-08-04T1900,1054A,115.4612,38.8416,保定市,地表水厂,,,,40,10,15,96,,103,102,7,5,3,2,0.4,0.4
2025-08-04T1900,3581A,115.31981,38.95208,保定市,满城区生态环境分局,,31,17,35,9,19,98,,105,105,7,10,1,2,0.2,0.2
2025-08-04T1900,3582A,115.47694,38.76408,保定市,清苑区第二中学,,30,21,39,18,22,93,,97,96,1,6,4,5,0.3,0.4
2025-08-04T1900,3583A,115.62909,39.02311,保定市,徐水物探局,,33,19,34,3,16,103,,108,108,4,10,1,3,0.3,0.4
2025-08-04T1900,4004A,115.4202,38.8656,保定市,双鹰农机,,30,19,31,11,18,95,,96,96,6,6,3,3,0.2,0.3
2025-08-04T1900,4034A,115.5150,38.8590,保定市,植保所站,,34,19,31,3,19,106,,113,113,5,8,1,2,0.1,0.1
2025-08-04T1900,2594A,99.1678,25.1081,保山市,市环境监测站,,17,12,11,8,8,54,,54,54,5,5,6,6,0.3,0.3
2025-08-04T1900,2595A,99.1711,25.1328,保山市,市环保局,,18,11,10,3,8,57,,56,56,2,2,4,4,0.4,0.4
2025-08-04T1900,1866A,109.2262,21.588,北海市,牛尾岭水库,,26,26,25,8,11,66,,78,77,3,2,2,2,0.5,0.5
2025-08-04T1900,1867A,109.1436,21.4086,北海市,海滩公园,颗粒物(PM10),54,57,59,12,12,74,,80,80,4,4,2,2,0.5,0.5
2025-08-04T1900,1868A,109.0981,21.4661,北海市,新市环保局,,,41,49,17,16,71,,76,76,5,4,,2,0.4,0.4
2025-08-04T1900,1869A,109.1778,21.5233,北海市,北海工业园,,32,32,39,7,15,71,,76,76,5,4,3,3,0.6,0.5
2025-08-04T1900,3400A,109.1911,21.4415,北海市,龙潭自来水厂,,34,34,36,15,15,71,,76,76,4,3,6,6,0.4,0.4
2025-08-04T1900,1001A,116.3621,39.8784,北京市,万寿西宫,,32,22,32,16,21,100,,116,114,13,14,2,3,0.6,0.7
2025-08-04T1900,1002A,116.2202,40.2915,北京市,定陵,,43,39,33,30,20,45,,93,86,2,3,3,2,0.8,0.7
2025-08-04T1900,1003A,116.4174,39.9289,北京市,东四,,36,33,34,25,23,104,,127,126,15,14,4,5,0.7,0.8
2025-08-04T1900,1004A,116.4072,39.8863,北京市,天坛,,25,25,32,16,22,75,,115,111,8,11,1,2,0.8,0.8
2025-08-04T1900,1005A,116.462,39.9365,北京市,农展馆,,33,32,31,23,22,91,,121,119,12,11,2,3,0.8,0.8
2025-08-04T1900,1006A,116.3392,39.9295,北京市,官园,,35,34,32,22,22,110,,124,124,13,11,4,5,0.8,0.7
2025-08-04T1900,1007A,116.2878,39.9611,北京市,海淀万柳,,50,41,34,35,23,96,,109,108,16,13,2,4,0.7,0.7
2025-08-04T1900,1008A,116.6636,40.135,北京市,顺义新城,,,,,,,,,,,,,,,,
2025-08-04T1900,1009A,116.6275,40.3275,北京市,怀柔镇,,49,47,33,34,25,112,,132,132,12,10,3,3,0.6,0.6
2025-08-04T1900,1010A,116.2296,40.217,北京市,昌平镇,,48,48,33,26,23,97,,112,112,14,12,4,5,0.8,0.8
2025-08-04T1900,1011A,116.3966,39.9821,北京市,奥体中心,,46,41,32,32,23,104,,115,115,11,9,4,4,0.7,0.8
2025-08-04T1900,3281A,115.9718,40.4529,北京市,延庆夏都,,38,34,31,26,22,94,,106,106,7,6,2,2,1.0,0.8
2025-08-04T1900,3418A,116.8336,40.4095,北京市,密云新城,,35,31,27,24,19,57,,104,102,6,4,1,1,0.7,0.6
2025-08-04T1900,3671A,116.088,39.9726,北京市,门头沟三家店,,34,34,39,21,24,105,,110,110,11,10,2,2,0.9,0.8
2025-08-04T1900,3672A,116.1541,39.8204,北京市,丰台云岗,,29,,36,20,26,90,,95,95,7,11,2,2,0.8,0.8
2025-08-04T1900,3673A,116.6804,39.9081,北京市,通州东关,,31,15,39,10,24,98,,126,124,10,12,5,6,0.6,0.9
2025-08-04T1900,3674A,115.9577,39.7603,北京市,房山燕山,,46,32,35,32,27,108,,110,110,8,9,2,3,0.7,0.7
2025-08-04T1900,3675A,116.4672,39.7733,北京市,大兴旧宫,,28,12,31,9,20,87,,118,116,7,9,2,3,0.7,0.8
2025-08-04T1900,3694A,115.986,40.4563,北京市,延庆石河营,,48,41,32,33,23,73,,97,95,6,6,2,2,0.7,0.6
2025-08-04T1900,3695A,116.6151,40.3053,北京市,怀柔新城,,48,46,34,33,25,95,,113,113,4,3,2,3,0.9,1
2025-08-04T1900,3696A,116.2545,39.8768,北京市,丰台小屯,,28,23,32,16,23,88,,96,96,3,6,1,2,0.8,0.9
2025-08-04T1900,3697A,116.84,40.3844,北京市,密云镇,,45,43,30,31,20,97,,112,112,8,6,3,4,0.8,0.8
2025-08-04T1900,4182A,116.1942,39.9158,北京市,八角北路9号,,34,27,38,16,24,107,,118,118,4,6,3,3,0.5,0.6
2025-08-04T1900,4194A,117.0790,40.1518,北京市,洳河巡河路,,46,44,38,32,27,121,,128,128,7,6,2,3,0.5,0.7
2025-08-04T1900,1761A,123.8275,41.3064,本溪市,大峪,,21,9,20,8,11,67,,94,91,6,8,5,5,0.3,0.4
2025-08-04T1900,1762A,123.7567,41.3325,本溪市,溪湖,,27,16,25,3,9,85,,96,96,4,8,6,6,0.6,0.8
2025-08-04T1900,1763A,123.7169,41.3094,本溪市,彩屯,,21,21,26,13,13,56,,90,88,26,19,8,8,0.6,0.8
2025-08-04T1900,1764A,123.7669,41.2864,本溪市,东明,,30,22,24,10,10,94,,95,95,9,12,4,4,0.4,0.5
2025-08-04T1900,1765A,123.7992,41.2664,本溪市,新立屯,,26,26,24,9,8,51,,90,86,16,13,4,4,0.7,0.8
2025-08-04T1900,1766A,123.8142,41.3472,本溪市,威宁,,19,13,20,8,13,58,,82,80,9,12,8,8,0.4,0.5
2025-08-04T1900,2587A,105.2864,27.3125,毕节市,八中,,34,30,54,20,33,108,,110,110,9,12,4,5,0.4,0.5
2025-08-04T1900,2588A,105.31,27.2944,毕节市,师专,,,30,43,,27,126,,121,121,9,13,6,6,0.5,0.6
2025-08-04T1900,4263A,105.3688,27.3598,毕节市,工业大道,,31,27,35,15,24,99,,112,112,9,16,7,7,0.7,0.7
2025-08-04T1900,1629A,118.0018,37.3617,滨州市,第二水厂,,30,27,26,14,15,93,,84,84,5,8,2,2,0.4,0.4
2025-08-04T1900,1630A,117.9776,37.393,滨州市,北中新校,,28,24,27,12,14,89,,85,85,13,14,1,2,0.3,0.3
2025-08-04T1900,3514A,117.9378,37.3956,滨州市,中海酒店,,31,29,23,17,17,98,,91,91,3,5,8,8,0.4,0.4
2025-08-04T1900,3515A,117.9378,37.3553,滨州市,开发区一中,,34,34,27,14,14,106,,94,94,10,12,5,5,0.3,0.4
2025-08-04T1900,3516A,118.0917,37.694,滨州市,金海六路,,26,17,22,9,13,81,,77,77,4,5,10,11,0.1,0.2
2025-08-04T1900,4028A,117.9956,37.3753,滨州市,滨州市西街道办事处,,32,19,22,12,16,102,,95,95,4,7,1,2,0.1,0.2
2025-08-04T1900,2311A,115.8072,33.8399,亳州市,污水处理厂,,48,15,22,6,15,152,,150,150,7,11,2,3,0.5,0.6
2025-08-04T1900,2312A,115.7789,33.8518,亳州市,三国揽胜宫,臭氧1小时,53,20,27,12,17,162,,157,157,3,6,2,2,0.4,0.5
2025-08-04T1900,3332A,115.7633,33.8034,亳州市,亳州学院,,45,10,18,10,17,141,,138,138,7,10,4,3,0.4,0.5
2025-08-04T1900,2693A,82.0485,44.8556,博尔塔拉蒙古自治州,市党校,,37,9,16,3,8,117,,118,118,6,10,3,3,0.3,0.3
2025-08-04T1900,2694A,82.0806,44.8969,博尔塔拉蒙古自治州,市环保局,,35,32,26,10,10,110,,107,107,4,7,1,2,0.4,0.5
2025-08-04T1900,1071A,116.8842,38.2991,沧州市,沧县城建局,,36,27,39,25,22,72,,75,75,14,15,3,2,0.4,0.3
2025-08-04T1900,1072A,116.8584,38.3254,沧州市,电视转播站,,35,35,44,17,18,79,,75,75,13,14,3,3,0.2,0.2
2025-08-04T1900,1073A,116.8709,38.3228,沧州市,市环保局,,40,40,43,21,26,82,,84,84,11,11,2,2,0.3,0.3
2025-08-04T1900,3324A,116.8136,38.3004,沧州市,河北水利电力学院,,30,22,24,20,22,95,,89,89,8,10,2,2,0.2,0.2
2025-08-04T1900,2622A,97.1806,31.1273,昌都市,昌都监测站,,27,8,14,3,5,84,,66,66,2,5,4,4,0.3,0.3
2025-08-04T1900,3719A,97.1714,31.1406,昌都市,昌都会议中心,,25,20,12,8,6,78,,68,68,12,7,6,5,0.2,0.2
2025-08-04T1900,2690A,88.1236,43.8886,昌吉回族自治州,天山天池,,,,25,8,5,111,,110,110,7,7,4,3,0.6,0.6
2025-08-04T1900,2692A,87.2717,44.0297,昌吉回族自治州,新区政务中心,,38,11,24,7,8,120,,120,120,5,8,8,8,0.2,0.3
2025-08-04T1900,3613A,87.3095,44.0142,昌吉回族自治州,亚心广场,,35,12,32,7,8,112,,116,116,6,11,9,7,0.2,0.3
2025-08-04T1900,1120A,125.2863,43.9027,长春市,客车厂,,25,18,17,17,9,67,,84,82,19,19,4,4,0.3,0.3
2025-08-04T1900,1121A,125.2841,43.8463,长春市,邮电学院,,23,23,13,9,7,68,,91,90,12,13,5,5,0.3,0.3
2025-08-04T1900,1122A,125.3716,43.8772,长春市,劳动公园,,26,19,24,8,7,81,,94,94,18,18,7,7,0.7,0.6
2025-08-04T1900,1123A,125.3297,43.8805,长春市,园林处,,25,13,14,3,4,78,,86,86,11,12,4,4,0.4,0.4
2025-08-04T1900,1124A,125.4605,43.79,长春市,净月潭,,18,11,14,3,4,57,,76,75,1,7,4,4,0.2,0.2
2025-08-04T1900,1125A,125.7194,43.515,长春市,甩湾子,,25,7,12,3,5,78,,79,79,5,10,4,4,0.4,0.5
2025-08-04T1900,1126A,125.3863,43.8447,长春市,经开区环卫处,,23,19,21,7,8,72,,88,87,17,17,4,3,0.3,0.3
2025-08-04T1900,1127A,125.245,43.7783,长春市,高新区管委会,,23,17,20,3,6,73,,104,102,13,18,2,3,0.4,0.4
2025-08-04T1900,1128A,125.1761,43.8325,长春市,岱山公园,,21,14,16,3,6,67,,92,90,10,19,3,4,0.3,0.3
2025-08-04T1900,4281A,125.3346,43.9164,长春市,北亚泰大街1068号,,23,22,21,8,8,72,,82,80,12,18,6,7,0.4,0.4
2025-08-04T1900,1335A,113.0833,28.2325,长沙市,经开区环保局,,26,22,23,15,13,81,,97,96,9,8,4,5,0.4,0.4
2025-08-04T1900,1336A,112.8872,28.2189,长沙市,高开区环保局,,,34,30,22,14,119,,120,120,6,8,4,6,,0.4
2025-08-04T1900,1337A,113.0792,28.2053,长沙市,马坡岭,,28,26,26,16,13,88,,101,100,6,7,4,4,0.3,0.3
2025-08-04T1900,1338A,112.9394,28.19,长沙市,湖南师范大学,,31,31,27,16,14,96,,116,115,6,9,2,3,0.5,0.6
2025-08-04T1900,1339A,113.0178,28.1322,长沙市,雨花区环保局,,29,13,23,11,11,90,,106,104,4,5,4,5,0.7,0.7
2025-08-04T1900,1340A,112.9792,28.2597,长沙市,伍家岭,,28,21,27,17,13,89,,120,117,11,8,1,1,0.4,0.5
2025-08-04T1900,1341A,113.0014,28.1944,长沙市,火车新站,,27,16,25,7,10,85,,104,102,5,8,5,6,0.5,0.6
2025-08-04T1900,1342A,112.9844,28.1178,长沙市,天心区环保局,,31,16,22,13,12,97,,116,115,12,12,3,3,0.3,0.3
2025-08-04T1900,1343A,112.8908,28.1308,长沙市,湖南中医药大学,,32,24,28,16,16,102,,115,115,11,10,2,4,0.2,0.3
2025-08-04T1900,1344A,112.9581,28.3611,长沙市,沙坪,,29,27,30,20,20,89,,121,118,7,11,5,6,0.5,0.5
2025-08-04T1900,1727A,113.1147,36.1547,长治市,清华站,,39,30,32,14,16,122,,121,120,7,10,6,6,0.5,0.8
2025-08-04T1900,1730A,113.0886,36.2125,长治市,审计局,,39,27,28,12,17,124,,121,121,8,10,5,5,0.6,0.9
2025-08-04T1900,1731A,113.0844,36.1856,长治市,长治八中,,40,37,32,19,24,128,,126,126,3,6,8,8,0.5,0.9
2025-08-04T1900,2845A,113.1569,36.1911,长治市,德盛苑,,38,25,33,14,18,119,,118,118,7,9,6,7,0.6,0.9
2025-08-04T1900,3568A,113.06,36.0464,长治市,向阳小学,颗粒物(PM10),58,66,66,18,22,124,,120,120,3,5,8,7,0.6,0.9
2025-08-04T1900,3569A,112.8792,36.3144,长治市,屯留一中,,46,38,46,32,33,101,,134,130,10,11,8,9,0.2,0.4
2025-08-04T1900,4189A,113.1131,36.19948,长治市,英华南巷50号,,37,33,37,19,20,117,,115,115,7,10,6,6,0.6,1
2025-08-04T1900,4190A,113.2367,36.3344,长治市,学府街1号,,50,39,39,35,28,116,,112,112,20,20,4,4,1.2,0.7
2025-08-04T1900,1854A,111.6975,28.9703,常德市,市二中,,38,,35,26,31,117,,123,123,8,9,3,4,0.3,0.6
2025-08-04T1900,1857A,111.7158,29.1456,常德市,白鹤山,,,,,,,,,,,,,,,,
2025-08-04T1900,3138A,111.7153,29.0289,常德市,武陵区永安,,40,40,47,21,33,126,,126,126,4,9,3,3,0.4,0.5
2025-08-04T1900,3139A,111.6892,28.9881,常德市,鼎城区玉霞,,38,36,41,22,32,120,,117,117,6,10,1,3,0.4,0.5
2025-08-04T1900,3140A,111.6625,29.0531,常德市,武陵区长庚,,41,35,40,22,33,129,,122,122,4,8,3,5,0.5,0.5
2025-08-04T1900,1196A,119.9633,31.762,常州市,市监测站,,40,,24,14,16,127,,151,151,10,20,10,10,0.5,0.6
2025-08-04T1900,1200A,119.9468,31.7069,常州市,武进监测站,,40,24,24,12,16,125,,154,154,22,14,12,13,1.0,1.1
2025-08-04T1900,1201A,119.9255,31.9087,常州市,安家,,28,23,24,11,13,89,,116,110,17,24,9,8,0.8,0.8
2025-08-04T1900,3002A,119.9805,31.8174,常州市,行政中心,,25,19,24,10,16,80,,131,129,30,27,5,5,0.6,0.5
2025-08-04T1900,3003A,120.0522,31.7748,常州市,经开区,,35,18,33,11,15,109,,143,142,14,31,3,3,0.4,0.4
2025-08-04T1900,3010A,119.9025,31.7964,常州市,钟楼,,35,14,21,10,13,110,,136,135,19,19,7,6,0.9,0.8
2025-08-04T1900,3429A,119.8598,31.7066,常州市,武进经发区,,41,20,27,12,17,130,,147,146,12,24,7,7,0.9,0.9
2025-08-04T1900,3430A,119.5826,31.7245,常州市,金坛城区,,,,22,,14,128,,152,151,,14,,8,0.4,0.4
2025-08-04T1900,2220A,120.4318,41.5881,朝阳市,西梁,,,9,20,7,11,82,,88,88,9,19,8,11,,0.1
2025-08-04T1900,2221A,120.4521,41.5646,朝阳市,河畔小区,,22,6,13,3,3,68,,89,87,7,10,5,8,0.4,0.4
2025-08-04T1900,2222A,120.4176,41.5648,朝阳市,八里堡,,27,18,24,11,8,84,,96,95,8,13,3,5,0.5,0.5
2025-08-04T1900,2223A,120.3806,41.5969,朝阳市,农业园区,,22,13,19,3,5,70,,90,89,17,13,6,6,0.3,0.3
2025-08-04T1900,1705A,116.6367,23.6719,潮州市,西园路,,16,16,15,11,10,50,,54,54,16,12,4,3,0.3,0.1
2025-08-04T1900,3026A,116.6183,23.6608,潮州市,市政府,,20,20,18,8,9,53,,56,56,17,15,8,8,0.6,0.5
2025-08-04T1900,4036A,116.6461,23.6761,潮州市,金山,,19,19,15,11,11,52,,55,55,14,12,4,5,0.6,0.5
2025-08-04T1900,2472A,113.0073,25.9061,郴州市,马头岭,,29,29,18,10,5,54,,67,67,8,9,5,6,0.5,0.5
2025-08-04T1900,2473A,113.0116,25.8226,郴州市,市职中,,22,22,15,15,9,57,,79,79,6,6,7,7,0.3,0.3
2025-08-04T1900,2475A,113.0383,25.8071,郴州市,市审计局,,25,25,14,16,10,58,,81,81,4,5,5,13,0.3,0.3
2025-08-04T1900,2476A,113.0348,25.7759,郴州市,市环保局,,26,26,17,10,10,56,,75,75,1,3,3,12,0.3,0.3
2025-08-04T1900,4252A,113.0138,25.8011,郴州市,好美居路49号,,,,17,14,9,54,,77,77,6,5,11,16,0.3,0.3
2025-08-04T1900,1431A,103.9728,30.7236,成都市,金泉两河,臭氧1小时,65,36,44,34,30,172,,178,178,9,18,4,5,0.6,0.7
2025-08-04T1900,1432A,104.176,30.6872,成都市,十里店,臭氧1小时,94,49,58,33,32,195,,236,236,14,19,7,7,0.4,0.6
2025-08-04T1900,1433A,104.079,30.5706,成都市,三瓦窑,臭氧1小时,89,60,53,40,36,191,,238,238,14,26,4,5,0.6,0.6
2025-08-04T1900,1434A,104.1114,30.63,成都市,沙河铺,臭氧1小时,82,61,54,42,35,185,,193,193,12,16,7,8,0.6,0.7
2025-08-04T1900,1437A,104.0786,30.6531,成都市,君平街,臭氧1小时,73,48,61,38,36,178,,216,216,11,18,6,8,0.3,0.5
2025-08-04T1900,1438A,103.613,31.0283,成都市,灵岩寺,,,,,,,,,,,,,,,,
2025-08-04T1900,2880A,104.0239,30.65639,成都市,大石西路,细颗粒物(PM2.5),53,41,47,37,38,160,,186,186,10,18,5,6,0.6,0.7
2025-08-04T1900,3136A,104.2725,30.5589,成都市,龙泉驿区区政府,,43,31,34,17,22,135,,179,177,13,16,6,6,0.7,0.8
2025-08-04T1900,3357A,104.0106,30.6931,成都市,金博路,臭氧1小时,64,37,45,21,28,171,,191,191,9,22,6,7,0.8,0.9
2025-08-04T1900,3359A,104.0578,30.5225,成都市,华阳,臭氧1小时,102,44,47,27,35,203,,232,232,16,17,5,5,0.7,0.7
2025-08-04T1900,3488A,104.3853,30.7453,成都市,青白江技师分院,臭氧1小时,80,50,45,28,30,184,,188,188,9,35,5,6,0.5,0.7
2025-08-04T1900,3489A,104.0789,30.4072,成都市,科学城,臭氧1小时,105,54,45,33,28,209,,197,197,12,15,3,4,0.7,0.6
2025-08-04T1900,4011A,103.8506,30.6947,成都市,光华大道三段,臭氧1小时,67,44,49,33,34,173,,187,187,18,19,6,8,0.5,0.5
2025-08-04T1900,4224A,104.2433,30.5353,成都市,鲸龙路1057号,臭氧1小时,65,37,47,26,34,172,,208,208,8,19,5,6,0.7,0.8
2025-08-04T1900,1062A,117.9531,40.9081,承德市,铁路,,32,31,25,22,13,87,,86,86,5,8,3,2,0.6,0.4
2025-08-04T1900,1063A,117.9392,40.9763,承德市,中国银行,,22,20,24,13,13,70,,82,82,9,9,1,2,0.6,0.3
2025-08-04T1900,1064A,117.9503,40.928,承德市,开发区,,42,42,31,14,12,94,,89,89,11,10,5,4,0.7,0.4
2025-08-04T1900,1066A,117.9268,41.0026,承德市,离宫,,39,39,22,18,14,28,,55,46,4,6,3,3,0.5,0.3
2025-08-04T1900,4274A,117.7994,40.9605,承德市,滨河大街98号,,36,36,19,23,15,60,,78,76,14,7,1,1,0.5,0.3
2025-08-04T1900,2314A,117.47,30.6618,池州市,池州学院,,37,23,26,18,18,116,,115,115,4,10,5,5,0.6,0.7
2025-08-04T1900,3237A,117.4918,30.6617,池州市,展览馆,,39,21,25,14,15,123,,115,115,3,9,4,4,0.6,0.7
2025-08-04T1900,3333A,117.5627,30.695,池州市,第八中学,,33,22,25,14,17,103,,111,111,3,6,4,4,0.6,0.6
2025-08-04T1900,3334A,117.5038,30.6243,池州市,第十二中学,,32,24,26,18,19,102,,111,111,6,15,3,3,0.8,1
2025-08-04T1900,1744A,118.9233,42.2816,赤峰市,松山一中,,26,18,20,11,8,81,,91,91,14,18,4,14,0.7,0.8
2025-08-04T1900,1745A,118.9576,42.2728,赤峰市,哈达街,,32,32,25,12,9,78,,92,92,16,24,14,32,0.6,0.7
2025-08-04T1900,1746A,118.8788,42.2554,赤峰市,天义路,,27,22,14,18,14,85,,99,99,9,19,9,31,0.5,0.4
2025-08-04T1900,3058A,119.2658,42.0353,赤峰市,银河街,,36,36,15,17,8,87,,92,92,15,12,14,9,0.6,0.5
2025-08-04T1900,3286A,118.9359,42.3147,赤峰市,桥北物流园区,,36,36,14,24,8,59,,83,81,20,10,10,13,0.7,0.7
2025-08-04T1900,2521A,107.3476,22.4136,崇左市,市环保局江州分局,,41,41,38,17,19,63,,100,98,13,12,6,7,0.6,0.6
2025-08-04T1900,4256A,107.3750,22.3736,崇左市,石景林东路7号,,22,14,30,13,18,70,,101,99,12,13,3,4,0.8,0.8
2025-08-04T1900,2298A,118.3093,32.3153,滁州市,老年大学,,38,31,28,12,13,120,,151,147,8,12,10,11,0.3,0.4
2025-08-04T1900,2299A,118.3244,32.2786,滁州市,人大宾馆,,39,17,16,17,17,124,,172,166,9,9,5,5,0.2,0.4
2025-08-04T1900,3207A,118.3118,32.3038,滁州市,市政府原办公楼,,37,26,25,19,20,116,,160,153,6,10,5,5,0.3,0.4
2025-08-04T1900,3331A,118.3267,32.2634,滁州市,图书馆,,41,22,22,22,19,131,,180,174,6,12,10,11,0.2,0.4
2025-08-04T1900,2605A,101.5482,25.0441,楚雄彝族自治州,州环境监测站,,13,11,13,3,8,41,,42,42,5,12,8,8,0.5,0.6
2025-08-04T1900,2606A,101.538,25.0492,楚雄彝族自治州,市经济开发区,,16,16,23,6,10,39,,43,42,9,14,5,6,0.6,0.7
2025-08-04T1900,2548A,107.5277,31.2827,达州市,达州职业技术学院,,32,32,44,10,19,92,,119,116,20,17,8,9,0.5,0.6
2025-08-04T1900,2549A,107.5086,31.2186,达州市,市环境监测站,,30,27,41,7,17,96,,117,116,35,24,6,7,0.5,0.5
2025-08-04T1900,2550A,107.4988,31.2132,达州市,凤凰小区,,36,27,38,9,20,114,,121,120,10,19,5,6,0.4,0.5
2025-08-04T1900,2551A,107.5082,31.1986,达州市,达县机关宾馆,,34,34,40,15,18,99,,122,121,31,30,6,7,0.5,0.5
2025-08-04T1900,2552A,107.4644,31.2124,达州市,市政中心,,36,24,46,12,17,113,,120,119,9,21,4,5,0.2,0.4
2025-08-04T1900,2614A,100.1542,25.7054,大理白族自治州,大理市环境监测站,,26,,8,18,16,54,,52,52,9,7,4,4,0.5,0.5
2025-08-04T1900,2615A,100.2171,25.5811,大理白族自治州,大理古城,,25,,13,17,8,52,,64,64,9,7,5,5,0.5,0.5
2025-08-04T1900,1109A,121.612,38.9741,大连市,甘井子,,35,12,20,6,13,111,,111,111,12,18,11,11,0.0,0.2
2025-08-04T1900,1110A,121.565,38.9511,大连市,周水子,,35,13,16,6,13,110,,110,110,8,16,7,8,0.3,0.4
2025-08-04T1900,1111A,121.5637,38.8845,大连市,星海三站,,33,16,19,6,14,103,,108,108,11,14,7,6,0.3,0.4
2025-08-04T1900,1112A,121.6302,38.9117,大连市,青泥洼桥,,34,20,24,8,12,107,,116,116,21,16,7,7,0.4,0.6
2025-08-04T1900,1113A,121.6251,38.8638,大连市,傅家庄,,31,14,15,6,11,97,,105,105,14,14,9,10,0.2,0.3
2025-08-04T1900,1114A,121.5213,38.8661,大连市,七贤岭,,35,14,16,3,11,111,,118,118,6,10,9,9,0.3,0.4
2025-08-04T1900,1115A,121.2529,38.8061,大连市,旅顺,,35,7,8,7,10,109,,109,109,16,13,5,5,0.4,0.3
2025-08-04T1900,1116A,121.7485,39.1311,大连市,金州,,33,14,17,7,13,104,,116,115,14,11,5,6,0.3,0.4
2025-08-04T1900,1117A,121.7811,39.0496,大连市,开发区,,24,16,18,3,11,76,,86,86,12,13,3,4,0.3,0.3
2025-08-04T1900,1118A,121.9762,39.0631,大连市,双D港,,36,17,20,3,9,113,,133,133,8,6,9,9,0.7,0.8
2025-08-04T1900,1789A,124.81117,46.03138,大庆市,大同区,,17,10,12,9,5,53,,58,57,6,8,7,7,0.6,0.6
2025-08-04T1900,1790A,125.129,46.533,大庆市,龙凤区,,19,19,14,3,6,57,,74,73,16,17,7,7,0.6,0.6
2025-08-04T1900,1791A,124.902,46.408,大庆市,红岗区,,25,24,18,17,12,55,,64,63,8,16,7,7,0.4,0.5
2025-08-04T1900,1792A,125.153,46.586,大庆市,萨尔图区,,20,20,27,10,10,50,,65,61,8,15,7,7,0.5,0.6
2025-08-04T1900,1793A,124.9042,46.6215,大庆市,让胡路区,,28,26,23,19,14,72,,69,68,6,10,7,6,0.2,0.3
2025-08-04T1900,3481A,125.141,46.634,大庆市,萨区政府监测点,,23,23,23,3,4,48,,67,62,6,11,7,7,0.2,0.3
2025-08-04T1900,1721A,113.3819,40.1097,大同市,果树场,,42,,27,29,18,68,,95,90,20,19,6,7,0.7,0.6
2025-08-04T1900,1723A,113.2994,40.0758,大同市,云冈宾馆,,,27,33,16,16,85,,111,108,24,19,,7,,1
2025-08-04T1900,1724A,113.3444,40.0917,大同市,大同大学,,,24,27,15,18,95,,114,111,,16,,6,0.6,0.6
2025-08-04T1900,1725A,113.2661,40.1269,大同市,安家小村,,41,41,34,3,8,80,,106,102,25,18,6,6,0.7,0.8
2025-08-04T1900,1726A,113.2711,40.0844,大同市,教育学院,,37,37,36,14,18,87,,113,109,20,20,7,8,0.5,0.6
2025-08-04T1900,3282A,113.3397,40.0597,大同市,大同市卫生学校,,38,38,37,15,21,93,,100,99,17,18,6,7,0.7,0.7
2025-08-04T1900,3565A,113.1367,40.1122,大同市,云冈站,,32,32,44,21,24,87,,96,96,13,17,3,4,0.7,0.7
2025-08-04T1900,3566A,113.1186,40.2556,大同市,图书馆,,38,38,44,20,20,79,,96,94,16,13,7,8,0.9,0.8
2025-08-04T1900,3567A,113.5931,40.0461,大同市,区一中,,29,,23,9,15,92,,109,108,12,8,7,9,0.6,0.6
2025-08-04T1900,4199A,113.2798,40.0997,大同市,魏都大道141号,,29,29,33,18,19,90,,112,109,16,18,4,4,0.7,0.8
2025-08-04T1900,2269A,124.1069,50.4097,大兴安岭地区,科技局,,40,40,18,16,11,45,,58,58,10,3,4,4,0.4,0.3
2025-08-04T1900,3663A,124.1164,50.4278,大兴安岭地区,红旗社区,,15,,4,3,4,46,,53,53,1,2,4,4,0.3,0.3
2025-08-04T1900,1600A,124.3303,40.0625,丹东市,江湾东路,,20,13,10,8,7,64,,80,78,19,10,7,6,0.7,0.5
2025-08-04T1900,1601A,124.4256,40.1503,丹东市,临江后街,,21,13,12,7,5,65,,77,77,15,6,6,6,0.6,0.6
2025-08-04T1900,1602A,124.3933,40.1461,丹东市,元宝山,,21,11,9,6,4,65,,63,63,7,7,3,3,0.5,0.5
2025-08-04T1900,1603A,124.3633,40.1092,丹东市,民主桥,,19,19,10,11,5,59,,74,74,23,10,3,3,0.7,0.6
2025-08-04T1900,3541A,109.5726,19.5167,儋州市,第一中学子站,,24,24,25,9,11,44,,44,44,5,3,6,5,0.3,0.3
2025-08-04T1900,3542A,109.5567,19.5187,儋州市,东坡学校子站,,20,20,26,14,12,45,,45,44,4,3,5,6,0.6,0.5
2025-08-04T1900,2616A,98.5842,24.428,德宏傣族景颇族自治州,德宏州监测站,,11,11,25,6,13,32,,36,36,6,7,8,10,0.6,0.6
2025-08-04T1900,3677A,98.5881,24.4368,德宏傣族景颇族自治州,芒市人民政府综合楼,,26,26,30,6,10,29,,33,33,7,7,7,7,0.5,0.5
2025-08-04T1900,1901A,104.4239,31.1208,德阳市,东山公园,,,41,44,19,27,164,,160,160,,12,5,4,0.8,1
2025-08-04T1900,1902A,104.3826,31.1317,德阳市,西小区,,47,28,46,20,31,150,,162,162,8,16,3,9,0.9,1.1
2025-08-04T1900,1904A,104.3553,31.1091,德阳市,耐火材料厂,,44,29,46,20,28,129,,150,150,87,29,6,5,0.5,0.6
2025-08-04T1900,3639A,104.4019,31.1244,德阳市,市教育局,,44,30,44,17,27,138,,154,154,27,14,2,4,0.8,0.9
2025-08-04T1900,1622A,116.3032,37.4674,德州市,儿童乐园,,35,29,27,24,19,99,,122,120,8,11,8,9,0.6,0.6
2025-08-04T1900,1624A,116.2991,37.4451,德州市,监理站,,33,27,25,17,17,103,,127,124,5,8,12,13,0.4,0.4
2025-08-04T1900,3066A,116.2721,37.4379,德州市,九衢泉纯净水厂,,35,29,28,24,22,98,,113,112,9,13,13,16,0.7,0.7
2025-08-04T1900,3371A,116.3728,37.4403,德州市,开发区人民医院,,32,24,28,22,22,88,,108,107,10,16,8,9,0.8,0.8
2025-08-04T1900,3511A,116.5652,37.3319,德州市,陵城艺术中心,,42,36,36,29,19,63,,75,74,9,12,4,8,0.6,0.6
2025-08-04T1900,4292A,116.3525,37.4209,德州市,新河东路,,49,36,34,34,26,102,,125,123,8,14,9,9,0.9,0.9
2025-08-04T1900,2621A,99.7056,27.8317,迪庆藏族自治州,迪庆州站,,34,34,20,11,13,56,,56,56,7,7,6,7,0.4,0.4
2025-08-04T1900,3180A,99.7136,27.8094,迪庆藏族自治州,质量技术监督局,,22,22,18,7,7,56,,59,59,13,10,7,7,0.5,0.5
2025-08-04T1900,4257A,104.6092,35.5962,定西市,将台街,,32,25,31,8,14,100,,98,98,7,4,7,7,0.5,0.5
2025-08-04T1900,4309A,104.6159,35.5701,定西市,正龙路62号,,32,22,25,9,16,101,,95,94,5,5,4,4,0.2,0.3
2025-08-04T1900,1389A,113.7547,23.0494,东莞市,莞城梨川,,49,39,27,34,23,7,,24,18,54,29,9,8,0.7,0.6
2025-08-04T1900,1390A,113.7944,23.0128,东莞市,东城石井,,36,36,27,23,15,2,,19,12,58,33,3,2,0.8,0.7
2025-08-04T1900,1391A,113.7383,22.9658,东莞市,南城西平,,38,28,24,26,17,17,,39,39,47,35,6,9,0.7,0.7
2025-08-04T1900,3319A,113.7338,23.0381,东莞市,万江金泰,,,35,26,30,18,,,,,57,30,5,4,1.0,0.8
2025-08-04T1900,3626A,113.7533,23.0202,东莞市,南城元岭,,35,35,26,24,18,4,,25,19,54,30,6,6,0.9,0.8
2025-08-04T1900,3627A,113.7875,23.0457,东莞市,东城主山,,44,44,34,26,20,5,,17,14,55,33,4,4,0.5,0.4
2025-08-04T1900,1666A,118.6614,37.4309,东营市,市环保局,,38,22,12,19,5,120,,85,85,12,10,7,6,0.5,0.1
2025-08-04T1900,3036A,118.6904,37.4338,东营市,开发区管委会,,42,28,15,14,2,132,,94,94,8,7,6,5,0.5,0.2
2025-08-04T1900,3365A,118.5719,37.565,东营市,垦利区民丰路,,41,24,16,19,7,131,,92,92,11,9,4,4,0.9,0.6
2025-08-04T1900,3498A,118.5055,37.8612,东营市,河口城区,,45,17,15,15,5,142,,107,107,10,10,7,5,1.0,0.8
2025-08-04T1900,3646A,118.4978,37.4623,东营市,胜利站,,37,24,20,12,5,118,,88,88,12,11,3,3,0.7,0.4
2025-08-04T1900,3734A,118.35,37.26,东营市,理想之城,,,19,12,12,7,124,,89,89,12,6,5,3,,0.4
2025-08-04T1900,1591A,110.0023,39.8129,鄂尔多斯市,综合楼,,32,19,22,14,13,102,,100,100,20,16,3,2,0.7,0.7
2025-08-04T1900,1592A,109.9486,39.8261,鄂尔多斯市,巴音孟克林场办事处,,33,29,22,14,14,103,,104,101,19,14,4,4,0.4,0.3
2025-08-04T1900,1593A,109.7736,39.5986,鄂尔多斯市,康泽苑,,22,19,27,3,8,69,,97,95,7,10,7,7,0.4,0.5
2025-08-04T1900,1594A,109.8119,39.5989,鄂尔多斯市,华泰汽车城,,22,17,23,7,11,68,,88,88,11,11,3,3,0.8,0.8
2025-08-04T1900,1595A,109.9734,39.7884,鄂尔多斯市,奥林花园,细颗粒物(PM2.5),73,66,25,53,29,92,,93,93,25,13,6,5,0.9,0.9
2025-08-04T1900,2436A,114.8938,30.3994,鄂州市,市政府,,42,41,36,23,16,132,,149,148,15,13,8,6,0.6,0.6
2025-08-04T1900,2437A,114.8989,30.3714,鄂州市,赵家坝,,39,35,37,20,14,124,,143,141,11,11,8,6,1.0,1
2025-08-04T1900,3654A,114.8094,30.4089,鄂州市,精准医疗中心,,42,35,35,19,15,132,,154,151,15,20,13,20,0.8,1.2
2025-08-04T1900,2454A,109.4978,30.2981,恩施土家族苗族自治州,湖北民院,,30,20,27,20,18,94,,119,118,4,7,6,5,0.6,0.7
2025-08-04T1900,2455A,109.4707,30.2798,恩施土家族苗族自治州,州电力总公司,,29,27,27,20,19,89,,114,112,5,14,10,9,0.5,0.5
2025-08-04T1900,3549A,109.5061,30.3772,恩施土家族苗族自治州,龙凤新区,,38,,24,26,18,98,,126,125,4,5,4,4,0.6,0.6
2025-08-04T1900,2499A,108.3411,21.6158,防城港市,沙万,,47,47,46,23,21,92,,82,82,13,13,4,4,0.5,0.5
2025-08-04T1900,2500A,108.3514,21.7731,防城港市,防城档案局,,37,37,38,22,17,89,,85,85,5,8,2,3,0.6,0.6
2025-08-04T1900,2501A,108.3506,21.6414,防城港市,大海花园,,41,41,40,14,14,105,,96,96,11,9,4,4,0.4,0.4
2025-08-04T1900,1371A,113.1294,23.0067,佛山市,湾梁,,34,34,35,22,18,1,,13,13,49,40,6,6,1.1,1
2025-08-04T1900,1372A,113.1083,23.0478,佛山市,华材职中,,33,29,25,23,19,9,,25,25,41,32,8,7,0.8,0.8
2025-08-04T1900,1373A,113.144,23.0453,佛山市,南海气象局,,38,38,33,23,16,5,,13,13,41,33,4,4,0.8,0.8
2025-08-04T1900,1374A,113.2881,22.8094,佛山市,顺德苏岗,颗粒物(PM10),51,52,30,17,13,8,,18,18,40,32,5,5,0.7,0.9
2025-08-04T1900,1376A,112.8383,22.8678,佛山市,高明孔堂,,27,27,33,16,17,30,,39,39,9,19,6,6,0.8,0.8
2025-08-04T1900,1377A,112.8836,23.1588,佛山市,三水监测站,,29,22,31,20,20,11,,20,20,44,41,4,4,0.6,0.7
2025-08-04T1900,1378A,112.867,23.185,佛山市,三水云东海,,38,38,39,18,24,11,,18,18,37,37,1,2,0.8,0.9
2025-08-04T1900,3625A,113.2544,22.7642,佛山市,容桂街道办,,35,34,30,24,19,17,,27,24,40,28,5,5,0.9,0.7
2025-08-04T1900,1280A,119.3903,26.0543,福州市,鼓山,,,,,,,,,,,,,,,,
2025-08-04T1900,1282A,119.2681,26.0504,福州市,师大,,26,23,20,9,5,82,,84,84,10,9,4,4,0.2,0.2
2025-08-04T1900,1283A,119.2984,26.1028,福州市,五四北路,,28,28,20,9,7,82,,87,87,12,12,4,4,0.3,0.2
2025-08-04T1900,1284A,119.2648,26.0768,福州市,杨桥西路,,26,26,20,10,6,81,,87,87,12,10,3,3,0.3,0.2
2025-08-04T1900,1285A,119.317,26.0746,福州市,紫阳,,31,31,27,8,9,76,,76,76,9,11,6,6,0.2,0.2
2025-08-04T1900,3048A,119.5799,26.0936,福州市,九龙,,29,19,20,3,8,92,,79,79,6,7,4,4,0.2,0.2
2025-08-04T1900,3526A,119.5189,25.9664,福州市,吴航,,26,17,21,8,10,81,,78,78,5,6,5,5,0.4,0.4
2025-08-04T1900,1755A,123.7977,41.8491,抚顺市,望花区,,27,17,13,6,6,84,,87,87,19,10,5,5,0.5,0.5
2025-08-04T1900,1756A,123.9161,41.8822,抚顺市,顺城区,,30,30,18,16,10,60,,81,79,26,14,4,5,0.6,0.6
2025-08-04T1900,1757A,124.0436,41.8611,抚顺市,东洲区,,22,,14,6,7,70,,84,83,13,11,6,6,0.4,0.5
2025-08-04T1900,1758A,123.9247,41.8642,抚顺市,新抚区,,25,13,15,3,5,79,,83,83,9,9,5,5,0.5,0.5
2025-08-04T1900,1759A,124.0972,41.8961,抚顺市,大伙房水库,,21,10,12,3,6,67,,75,75,12,10,6,6,0.3,0.4
2025-08-04T1900,1760A,123.7086,41.8391,抚顺市,沈抚新城,,29,15,15,3,2,91,,87,87,13,11,5,4,0.5,0.4
2025-08-04T1900,2376A,116.2127,28.0814,抚州市,桐源党溪,,24,24,18,3,8,69,,81,81,12,4,21,5,0.4,0.4
2025-08-04T1900,2377A,116.3544,27.9831,抚州市,市站,,30,19,18,8,7,93,,95,95,3,2,3,3,0.3,0.5
2025-08-04T1900,2378A,116.3565,27.963,抚州市,血防站,,26,20,20,8,9,82,,87,87,5,4,5,5,0.3,0.3
2025-08-04T1900,2379A,116.3564,28.0007,抚州市,采茶剧团,,,18,20,6,13,90,,93,93,,3,4,4,,0.3
2025-08-04T1900,2380A,116.385,27.9647,抚州市,医学分院,,28,20,20,3,7,88,,90,90,2,2,3,4,0.4,0.5
2025-08-04T1900,2207A,121.6094,41.998,阜新市,工业园区,,30,27,18,3,3,96,,104,104,15,17,8,4,0.3,0.5
2025-08-04T1900,2208A,121.6697,42.0279,阜新市,长青街,,27,21,12,7,5,84,,95,95,10,9,10,5,0.4,0.8
2025-08-04T1900,2209A,121.6673,42.0705,阜新市,农业园区,,25,16,11,3,0,78,,90,90,8,6,4,2,0.5,1.1
2025-08-04T1900,2210A,121.6717,42.0224,阜新市,东苑,,36,36,21,3,7,83,,98,98,20,15,11,5,0.4,0.7
2025-08-04T1900,2211A,121.6506,42.0498,阜新市,玉龙新城,,25,24,15,7,4,79,,100,98,23,17,9,7,0.4,0.7
2025-08-04T1900,2301A,115.8277,32.8929,阜阳市,市监测站,,36,22,26,11,15,115,,124,124,14,14,4,4,0.2,0.2
2025-08-04T1900,2303A,115.8554,32.8605,阜阳市,开发区,,40,40,20,15,14,126,,130,130,11,13,6,6,0.3,0.3
2025-08-04T1900,2875A,115.784,32.8892,阜阳市,阜阳职业技术学院,,,,13,12,11,127,,131,131,3,5,4,4,0.2,0.2
2025-08-04T1900,3468A,115.7901,32.8613,阜阳市,市规划展馆,,40,22,29,13,16,125,,124,124,7,8,2,2,0.5,0.6
2025-08-04T1900,3469A,115.836,32.9183,阜阳市,枣园社区,,40,23,28,18,16,128,,132,132,8,10,2,2,0.4,0.4
2025-08-04T1900,2669A,102.9099,34.9841,甘南藏族自治州,州政府,,,,10,7,10,69,,75,73,8,7,3,3,0.3,0.3
2025-08-04T1900,3380A,102.8914,34.9617,甘南藏族自治州,甘肃民族师范学院,,24,19,13,6,8,74,,84,82,2,2,9,9,0.3,0.2
2025-08-04T1900,2570A,101.9603,30.0475,甘孜藏族自治州,水桥子,,35,18,22,14,13,109,,118,118,5,16,6,6,0.6,0.6
2025-08-04T1900,3065A,101.9533,29.9972,甘孜藏族自治州,州环保局,,34,15,26,9,10,107,,119,119,8,19,4,4,0.4,0.4
2025-08-04T1900,3414A,115.8347,28.932,赣江新区,桑海产业园,,29,12,28,3,16,92,,124,121,6,16,6,6,0.4,0.5
2025-08-04T1900,2362A,114.9017,25.9149,赣州市,通天岩,,23,23,16,7,11,50,,60,54,3,3,16,16,0.7,0.6
2025-08-04T1900,2363A,114.9367,25.8664,赣州市,地委,,,20,18,17,9,59,,70,70,,7,,4,,0.9
2025-08-04T1900,2364A,114.9461,25.8481,赣州市,气象台,,21,21,17,10,6,58,,69,68,4,4,8,8,0.7,0.7
2025-08-04T1900,2365A,114.9322,25.8333,赣州市,市图书馆,,18,,15,12,9,50,,59,59,5,5,4,4,0.5,0.5
2025-08-04T1900,2366A,114.8905,25.8471,赣州市,华坚鞋城,,26,26,19,6,8,54,,65,64,7,7,4,4,0.5,0.5
2025-08-04T1900,3109A,115.0093,25.8613,赣州市,赣县区卫计委,,19,9,14,3,8,58,,68,68,4,5,4,4,0.3,0.3
2025-08-04T1900,2683A,106.2319,36.1417,固原市,马园,,25,,39,11,15,80,,91,77,13,11,7,7,0.6,0.6
2025-08-04T1900,2684A,106.2792,36.0022,固原市,监测站,,27,13,25,7,11,85,,96,85,10,6,5,5,0.4,0.3
2025-08-04T1900,2685A,106.2375,36.0211,固原市,新区,,25,12,21,7,11,77,,90,80,10,7,6,6,0.5,0.4
2025-08-04T1900,3522A,106.2177,35.9959,固原市,原州区十五小,,25,14,19,11,13,79,,88,80,9,7,8,8,0.5,0.5
2025-08-04T1900,2543A,106.6308,30.5278,广安市,小平旧居,,,,,,,,,,,,,,,,
2025-08-04T1900,2544A,106.6303,30.4576,广安市,市委,,44,26,32,17,19,138,,143,143,8,13,10,10,0.4,0.4
2025-08-04T1900,2545A,106.6271,30.4663,广安市,友谊中学,,45,27,32,16,19,141,,150,150,10,15,6,7,0.7,0.7
2025-08-04T1900,2547A,106.6388,30.4551,广安市,广电花园,,44,39,47,16,18,139,,146,146,9,13,2,3,0.6,0.6
2025-08-04T1900,2902A,106.6351,30.4865,广安市,北辰小学,,46,26,36,17,18,147,,150,150,7,11,2,6,0.6,0.6
2025-08-04T1900,2523A,105.8945,32.4535,广元市,黑石坡,,40,37,38,25,24,128,,147,147,7,12,8,9,0.4,0.5
2025-08-04T1900,2524A,105.821,32.4444,广元市,老城,,43,14,17,7,6,137,,171,171,12,25,16,8,0.6,0.9
2025-08-04T1900,2526A,105.8628,32.4287,广元市,监测站,,39,,27,19,14,124,,154,154,11,15,11,12,0.9,0.9
2025-08-04T1900,3617A,105.8047,32.4166,广元市,经开区,,38,38,47,26,31,118,,159,159,10,25,4,11,0.6,0.9
2025-08-04T1900,1345A,113.2347,23.1423,广州市,广雅中学,,32,29,33,22,22,17,,22,22,37,41,2,2,0.4,0.4
2025-08-04T1900,1346A,113.2612,23.105,广州市,市五中,,31,31,31,20,21,13,,18,18,39,42,4,4,0.9,0.9
2025-08-04T1900,1348A,113.3478,23.0916,广州市,广东商学院,,29,29,31,18,24,40,,46,46,49,42,2,3,0.8,0.9
2025-08-04T1900,1349A,113.4332,23.1047,广州市,市八十六中,,36,32,28,25,18,2,,13,13,63,46,3,3,0.6,0.6
2025-08-04T1900,1350A,113.3505,22.9483,广州市,番禺中学,,33,33,31,22,19,18,,26,26,32,31,4,5,0.6,0.7
2025-08-04T1900,1351A,113.2146,23.3916,广州市,花都师范,,20,9,39,3,18,63,,19,19,13,41,4,4,0.4,0.7
2025-08-04T1900,1352A,113.2597,23.1331,广州市,市监测站,,32,32,33,20,19,16,,22,22,38,39,5,5,0.6,0.6
2025-08-04T1900,1353A,113.5618,23.312,广州市,九龙镇镇龙,,15,12,18,10,12,33,,23,23,24,20,6,6,0.5,0.4
2025-08-04T1900,1354A,113.2765,23.1544,广州市,麓湖,细颗粒物(PM2.5),79,,28,58,19,4,,17,17,49,38,1,2,0.7,0.8
2025-08-04T1900,1355A,113.443,23.3035,广州市,帽峰山森林公园,,14,,16,3,6,42,,38,38,16,18,3,4,0.6,0.6
2025-08-04T1900,2846A,113.3221,23.1322,广州市,体育西,,,,32,22,22,14,,21,21,,46,4,3,0.7,0.7
2025-08-04T1900,3298A,113.5717,23.5491,广州市,从化街口,,17,9,13,6,9,53,,46,42,15,11,6,6,0.7,0.7
2025-08-04T1900,3299A,113.3472,23.3692,广州市,白云竹料,,18,6,23,3,14,55,,26,25,13,23,3,3,0.5,0.6
2025-08-04T1900,3300A,113.2981,23.237,广州市,白云嘉禾,,26,22,29,16,19,3,,16,16,52,39,3,3,0.8,0.8
2025-08-04T1900,3301A,113.4256,23.1716,广州市,黄埔科学城,,32,29,29,22,18,1,,13,13,49,29,3,2,0.7,0.6
2025-08-04T1900,3302A,113.3942,23.0483,广州市,番禺大学城,,33,33,32,18,19,21,,20,20,38,38,5,7,0.6,0.7
2025-08-04T1900,3303A,113.4922,22.8168,广州市,南沙黄阁,,35,32,32,24,18,45,,41,41,16,28,4,4,0.7,0.6
2025-08-04T1900,3304A,113.5342,22.7896,广州市,南沙街,,34,34,34,20,18,49,,41,41,12,17,4,4,0.6,0.5
2025-08-04T1900,3443A,113.2902,23.5544,广州市,花都梯面,,23,6,18,3,11,72,,48,48,16,17,5,5,0.7,0.7
2025-08-04T1900,3445A,113.7858,23.7478,广州市,从化良口,,20,6,9,3,5,61,,66,52,12,9,4,4,0.6,0.6
2025-08-04T1900,3446A,113.8051,23.2614,广州市,增城荔城,,16,16,18,9,9,16,,28,28,26,14,7,6,0.5,0.4
2025-08-04T1900,2505A,109.568,23.1478,贵港市,德智高中,,,,,,,,,,,,,,,,
2025-08-04T1900,2506A,109.6047,23.0666,贵港市,江南子站,,33,,42,23,26,38,,64,64,18,13,6,8,0.6,0.8
2025-08-04T1900,2508A,109.5669,23.1065,贵港市,荷城子站,,19,19,32,9,15,37,,63,62,19,12,7,9,0.4,0.5
2025-08-04T1900,3405A,109.5886,23.1172,贵港市,新世纪学校,,24,24,37,13,20,40,,66,65,20,16,3,4,0.5,0.4
2025-08-04T1900,4260A,109.5933,23.0951,贵港市,中山路155-3号,,43,43,48,20,22,42,,73,71,24,14,3,6,0.4,0.6
2025-08-04T1900,1439A,106.6899,26.5998,贵阳市,马鞍山,,13,12,20,3,6,41,,100,92,11,9,4,4,0.5,0.7
2025-08-04T1900,1441A,106.6243,26.6266,贵阳市,鉴湖路,,31,31,35,7,11,74,,92,92,14,11,8,7,0.3,0.3
2025-08-04T1900,1442A,106.7487,26.6343,贵阳市,燕子冲,,30,,21,19,24,94,,116,116,22,11,10,10,0.4,0.8
2025-08-04T1900,1443A,106.6555,26.4365,贵阳市,碧云窝,,46,46,38,12,14,93,,98,98,10,11,5,6,0.0,0.2
2025-08-04T1900,1445A,106.7109,26.6027,贵阳市,红边门,,26,24,26,17,19,83,,100,100,25,13,5,4,0.3,0.3
2025-08-04T1900,1446A,106.7164,26.5699,贵阳市,新华路,,41,41,32,17,18,82,,99,99,45,15,10,14,0.7,0.4
2025-08-04T1900,1447A,106.674,26.5424,贵阳市,太慈桥,,25,9,23,7,13,77,,112,111,12,12,4,4,0.1,0.1
2025-08-04T1900,1552A,106.805,26.3003,贵阳市,桐木岭,,39,39,33,27,22,84,,85,85,6,4,29,20,0.9,0.9
2025-08-04T1900,4230A,106.6882,26.5695,贵阳市,花果园大街66号,,40,,17,28,21,68,,97,97,50,11,3,4,0.8,0.4
2025-08-04T1900,4231A,106.6873,26.5169,贵阳市,漓江路57号,,29,29,26,9,15,84,,100,100,23,9,4,4,0.5,0.4
2025-08-04T1900,1862A,110.4144,25.3167,桂林市,电子科大尧山校区,,,,,,,,,,,,,,,,
2025-08-04T1900,1864A,110.3089,25.2708,桂林市,龙隐路小学,,24,17,24,11,14,76,,81,81,8,8,4,5,0.2,0.2
2025-08-04T1900,1865A,110.2869,25.2178,桂林市,八中,,26,21,24,16,13,83,,85,85,9,8,6,8,0.5,0.5
2025-08-04T1900,3531A,110.296,25.1253,桂林市,旅游学院,,25,12,16,7,12,80,,81,81,5,6,9,9,0.4,0.4
2025-08-04T1900,4222A,110.1835,25.2444,桂林市,环湖路276号,,29,17,22,9,12,91,,86,86,4,5,4,5,0.4,0.4
2025-08-04T1900,4301A,110.2803,25.2773,桂林市,信义路13号,,26,25,24,15,13,83,,87,87,8,7,6,6,0.5,0.5
2025-08-04T1900,2674A,100.2561,34.4714,果洛藏族自治州,玛沁县大武镇,,25,20,22,17,8,76,,80,80,4,4,10,12,0.2,0.2
2025-08-04T1900,1129A,126.5422,45.755,哈尔滨市,岭北,,23,20,11,10,6,73,,84,82,13,12,6,8,0.5,0.5
2025-08-04T1900,1130A,126.561,45.8167,哈尔滨市,松北商大,,22,22,16,3,4,40,,60,57,16,16,6,6,0.5,0.4
2025-08-04T1900,1131A,126.979,45.5419,哈尔滨市,阿城会宁,,25,25,21,15,11,55,,83,78,13,15,5,6,0.5,0.6
2025-08-04T1900,1132A,126.599,45.7222,哈尔滨市,南岗学府路,,,54,21,20,5,49,,68,64,13,14,,8,,0.6
2025-08-04T1900,1133A,126.689,45.7733,哈尔滨市,太平宏伟公园,,20,16,20,3,7,63,,68,68,8,13,6,6,0.5,0.5
2025-08-04T1900,1134A,126.635,45.7667,哈尔滨市,道外承德广场,,36,36,25,7,6,55,,58,58,8,11,7,7,0.7,0.5
2025-08-04T1900,1135A,126.685,45.7319,哈尔滨市,香坊红旗大街,,40,36,13,28,10,66,,70,70,12,14,8,6,0.7,0.6
2025-08-04T1900,1136A,126.6411,45.7258,哈尔滨市,动力和平路,,26,26,16,3,3,61,,72,70,15,15,7,6,0.5,0.5
2025-08-04T1900,1137A,126.593,45.7478,哈尔滨市,道里建国路,,20,16,21,14,10,60,,69,67,11,10,10,10,0.5,0.5
2025-08-04T1900,1138A,126.615,45.61,哈尔滨市,平房东轻厂,,22,22,20,10,9,29,,62,56,35,24,7,7,0.2,0.2
2025-08-04T1900,1139A,126.595,45.9855,哈尔滨市,呼兰师专,,26,26,17,3,2,51,,64,63,10,9,10,11,0.3,0.2
2025-08-04T1900,1140A,126.6206,45.6842,哈尔滨市,省农科院,,47,47,30,14,12,36,,55,50,26,27,1,2,0.5,0.5
2025-08-04T1900,2688A,93.5128,42.8172,哈密市,地区监测站,,38,21,36,6,17,121,,127,127,6,17,2,3,0.1,0.2
2025-08-04T1900,2689A,93.4961,42.8328,哈密市,哈密师范学校,,38,20,39,8,14,120,,127,127,6,20,8,8,0.2,0.2
2025-08-04T1900,2671A,100.9048,36.9639,海北藏族自治州,海晏县西海镇,,,14,21,7,17,100,,100,100,2,4,6,8,,0.6
2025-08-04T1900,3867A,102.0738,36.5056,海东市,平安区公安北苑,,28,19,22,12,10,87,,90,90,3,5,10,10,0.6,0.6
2025-08-04T1900,1409A,110.576,19.9507,海口市,东寨港,,20,14,28,14,12,41,,50,49,3,4,9,13,0.4,0.4
2025-08-04T1900,1410A,110.3232,20.0574,海口市,海南大学,,36,36,33,18,17,50,,70,65,13,9,3,3,0.4,0.4
2025-08-04T1900,1411A,110.283,20.0053,海口市,秀英海南医院,,32,32,35,18,17,40,,52,48,20,13,5,5,0.3,0.3
2025-08-04T1900,1412A,110.338,19.9969,海口市,海南师范大学,,32,29,32,22,17,47,,51,49,13,8,3,4,0.5,0.4
2025-08-04T1900,1413A,110.33,20.0356,海口市,龙华路环保局宿舍,,31,31,31,20,17,51,,63,60,12,9,5,5,0.3,0.3
2025-08-04T1900,3539A,110.5111,19.9736,海口市,桂林洋子站,,30,30,34,19,18,42,,56,54,9,8,6,5,0.3,0.3
2025-08-04T1900,2673A,100.6188,36.2866,海南藏族自治州,共和县恰卜恰镇,,33,13,22,3,7,104,,104,104,3,5,10,11,0.8,0.6
2025-08-04T1900,2676A,97.3731,37.3753,海西蒙古族藏族自治州,德令哈市,,39,39,49,17,18,104,,113,113,9,5,17,15,0.7,0.6
2025-08-04T1900,1048A,114.5302,36.6116,邯郸市,东污水处理厂,,32,28,46,9,10,102,,106,106,4,13,4,4,0.5,0.6
2025-08-04T1900,1049A,114.4918,36.5713,邯郸市,矿院,,36,34,38,19,20,115,,125,124,6,14,4,5,0.4,0.5
2025-08-04T1900,1050A,114.484,36.6133,邯郸市,丛台公园,,38,32,38,14,16,120,,129,128,8,14,6,6,0.4,0.5
2025-08-04T1900,3458A,114.7895,36.5593,邯郸市,香泉濮院小区,,38,38,46,3,12,117,,115,115,4,12,2,3,0.4,0.4
2025-08-04T1900,3579A,114.50634,36.77178,邯郸市,永年区实验高中,,37,36,46,24,27,117,,121,120,9,17,2,3,0.3,0.5
2025-08-04T1900,3580A,114.20016,36.44293,邯郸市,峰峰矿区临水派出所,,45,39,48,15,12,142,,137,137,10,13,3,5,0.3,0.6
2025-08-04T1900,2634A,106.9893,33.1842,汉中市,汉川机床厂子校,,45,29,32,21,21,141,,141,141,7,12,3,4,0.4,0.5
2025-08-04T1900,2635A,107.0154,33.0706,汉中市,市监测站,,40,32,38,21,22,126,,137,137,5,12,6,8,0.4,0.5
2025-08-04T1900,2636A,107.0089,33.1138,汉中市,鑫源开发区,,40,17,33,16,20,128,,132,132,6,12,5,6,0.5,0.6
2025-08-04T1900,2637A,107.007,33.0323,汉中市,南郑大河坎水厂,,38,26,31,21,20,119,,136,136,6,12,5,7,0.3,0.4
2025-08-04T1900,1223A,120.2072,30.2111,杭州市,滨江,,50,45,38,30,23,157,,186,186,17,22,6,6,0.9,0.8
2025-08-04T1900,1224A,120.0633,30.2747,杭州市,西溪,,,,31,64,27,128,,149,149,16,13,,7,0.4,0.5
2025-08-04T1900,1226A,120.3417,30.3150,杭州市,下沙,臭氧1小时,68,37,30,24,22,174,,199,199,25,29,5,5,0.7,0.6
2025-08-04T1900,1227A,120.1269,30.2456,杭州市,卧龙桥,细颗粒物(PM2.5),55,49,34,39,25,94,,147,143,13,7,7,7,0.6,0.6
2025-08-04T1900,1228A,120.1903,30.2692,杭州市,浙江农大,颗粒物(PM10),72,94,52,37,26,146,,145,145,14,16,4,5,0.6,0.6
2025-08-04T1900,1230A,120.1197,30.3119,杭州市,和睦小学,颗粒物(PM10),51,52,30,31,18,131,,162,162,21,16,4,4,0.9,0.7
2025-08-04T1900,1231A,120.3019,30.4183,杭州市,临平镇,臭氧1小时,90,49,44,27,23,192,,197,197,16,16,6,6,0.7,0.6
2025-08-04T1900,1232A,120.2753,30.1839,杭州市,城厢镇,,48,44,39,33,27,153,,181,181,7,10,6,5,0.9,0.8
2025-08-04T1900,1233A,120.0883,30.1808,杭州市,云栖,,40,40,31,27,17,105,,156,152,18,14,10,9,0.8,0.8
2025-08-04T1900,3557A,119.9464,30.0494,杭州市,镇二中,细颗粒物(PM2.5),60,48,33,43,28,120,,137,136,17,15,4,4,0.7,0.6
2025-08-04T1900,3558A,119.7183,30.2367,杭州市,市府大楼,,49,45,28,25,18,154,,162,162,10,10,7,6,0.6,0.5
2025-08-04T1900,3656A,120.1556,30.2864,杭州市,消防大队,细颗粒物(PM2.5),55,45,30,39,24,111,,133,133,19,14,6,6,0.8,0.7
2025-08-04T1900,1270A,117.1959,31.7848,合肥市,明珠广场,,47,24,26,14,13,150,,148,148,12,18,6,6,0.7,0.6
2025-08-04T1900,1271A,117.3072,31.8764,合肥市,三里街,,37,17,24,12,13,118,,134,131,8,15,6,6,0.6,0.6
2025-08-04T1900,1272A,117.2588,31.8707,合肥市,琥珀山庄,,41,41,34,14,16,130,,147,143,9,14,8,8,0.8,0.8
2025-08-04T1900,1273A,117.1604,31.9052,合肥市,董铺水库,,35,24,28,24,17,96,,120,116,11,11,5,5,0.7,0.4
2025-08-04T1900,1274A,117.25,31.8571,合肥市,长江中路,,41,24,29,16,13,129,,145,142,9,13,7,7,0.7,0.6
2025-08-04T1900,1275A,117.266,31.9436,合肥市,庐阳区,,36,22,25,12,12,113,,137,133,12,18,6,8,0.6,0.6
2025-08-04T1900,1276A,117.3453,31.8616,合肥市,瑶海区,,41,19,25,10,11,131,,141,139,8,16,7,7,0.7,0.7
2025-08-04T1900,1277A,117.3027,31.7964,合肥市,包河区,,43,31,28,17,15,136,,138,138,14,32,6,6,0.8,0.8
2025-08-04T1900,1278A,117.2776,31.7385,合肥市,滨湖新区,,46,29,23,24,18,145,,138,138,7,6,8,8,0.7,0.6
2025-08-04T1900,1279A,117.1318,31.8403,合肥市,高新区,,43,36,27,14,14,135,,148,146,18,16,6,6,0.7,0.6
2025-08-04T1900,3464A,117.3803,31.9147,合肥市,高教基地,,35,24,23,9,11,112,,128,124,8,11,5,5,0.5,0.5
2025-08-04T1900,3614A,79.924,37.0877,和田地区,地区环保局,颗粒物(PM10),71,92,81,23,24,138,,113,113,12,12,3,3,0.1,0.1
2025-08-04T1900,3615A,79.9131,37.113,和田地区,市环保局,颗粒物(PM10),74,98,133,16,29,130,,108,108,9,23,1,2,0.1,0.3
2025-08-04T1900,2516A,108.2011,24.715,河池市,东仁乐园,,,,,,,,,,,,,,,,
2025-08-04T1900,2517A,108.0497,24.6947,河池市,市环保站,,39,39,35,25,20,92,,86,86,8,10,10,5,0.7,0.6
2025-08-04T1900,2518A,108.0983,24.6989,河池市,市疾控中心,,40,37,35,28,25,100,,90,90,8,12,6,6,0.7,0.7
2025-08-04T1900,1696A,114.6778,23.7569,河源市,源西,,17,13,11,6,5,52,,59,58,6,7,6,7,0.7,0.6
2025-08-04T1900,1697A,114.6944,23.7586,河源市,东埔,,16,9,11,3,8,51,,59,58,13,10,4,4,0.6,0.4
2025-08-04T1900,1698A,114.6892,23.7233,河源市,老城,,16,7,10,6,6,50,,57,57,10,9,4,5,0.5,0.5
2025-08-04T1900,1718A,115.4208,35.2464,菏泽市,气象局,,47,35,37,23,22,150,,155,155,8,11,1,3,0.3,0.3
2025-08-04T1900,3374A,115.5564,35.0891,菏泽市,定陶老年大学,,41,31,32,14,14,130,,137,137,7,16,3,3,0.3,0.3
2025-08-04T1900,4184A,115.4797,35.24401,菏泽市,永昌路1号,,43,41,40,25,24,135,,138,138,10,16,5,6,0.1,0.1
2025-08-04T1900,4193A,115.4715,35.2800,菏泽市,长城路999号,,49,42,38,17,16,155,,151,151,8,14,6,6,0.5,0.4
2025-08-04T1900,2514A,111.5264,24.4172,贺州市,环保小区,,20,20,24,14,13,64,,60,60,13,8,10,11,1.2,1.1
2025-08-04T1900,2515A,111.5608,24.4078,贺州市,政协大楼,,20,19,21,13,13,64,,67,67,9,7,10,12,0.8,0.7
2025-08-04T1900,3534A,111.4744,24.4553,贺州市,西湾,,24,24,26,15,17,50,,66,66,16,13,10,10,0.6,0.6
2025-08-04T1900,2385A,114.17,35.9019,鹤壁市,市监测站,细颗粒物(PM2.5),88,,44,65,35,122,,123,123,11,10,7,5,0.9,0.7
2025-08-04T1900,2386A,114.2956,35.7511,鹤壁市,市交警支队,细颗粒物(PM2.5),64,,43,46,34,108,,108,108,12,18,5,5,0.9,0.6
2025-08-04T1900,2387A,114.2878,35.7306,鹤壁市,迎宾馆,细颗粒物(PM2.5),68,,50,49,33,114,,111,111,13,19,5,5,1.0,0.8
2025-08-04T1900,3474A,114.2617,35.6822,鹤壁市,大新区,,,47,49,,21,123,,116,116,6,16,6,6,0.9,0.6
2025-08-04T1900,3596A,114.1572,35.9603,鹤壁市,南山宾馆,细颗粒物(PM2.5),69,75,54,50,28,131,,129,129,13,10,3,5,1.0,0.9
2025-08-04T1900,2244A,130.2537,47.3416,鹤岗市,哈啤分公司,,24,19,17,7,5,74,,74,74,6,3,12,12,0.6,0.6
2025-08-04T1900,2245A,130.2684,47.3086,鹤岗市,斯达机电,,24,23,21,15,9,74,,73,73,11,5,12,12,0.6,0.3
2025-08-04T1900,2246A,130.3114,47.3388,鹤岗市,东山纸板厂,,27,,16,16,11,86,,82,82,6,5,12,13,1.0,0.9
2025-08-04T1900,2247A,130.1097,47.3382,鹤岗市,五号水库,,20,6,6,3,5,61,,73,73,8,6,9,10,0.2,0.2
2025-08-04T1900,2263A,127.4833,50.2524,黑河市,交通局,,,,,,,,,,,,,,,,
2025-08-04T1900,2264A,127.5144,50.2341,黑河市,环保局,,37,37,25,11,11,44,,55,52,11,6,6,4,0.4,0.3
2025-08-04T1900,2265A,127.5291,50.2472,黑河市,大黑河岛,,,,4,10,6,40,,24,24,6,6,23,25,,
2025-08-04T1900,1074A,115.6838,37.7541,衡水市,电机北厂,,37,,32,25,22,116,,111,111,10,9,3,3,0.5,0.5
2025-08-04T1900,1075A,115.6303,37.7316,衡水市,市监测站,,,29,34,16,16,109,,116,112,,6,5,6,0.5,0.4
2025-08-04T1900,3188A,115.6683,37.7217,衡水市,市城管局,,45,,35,31,25,123,,114,114,10,10,10,8,0.4,0.4
2025-08-04T1900,3459A,115.5989,37.5491,衡水市,地表水厂,,36,20,37,3,16,115,,111,111,3,17,7,9,0.2,0.3
2025-08-04T1900,2456A,112.5003,26.9167,衡阳市,原169医院,,31,31,26,15,10,97,,107,107,2,5,3,6,0.6,0.6
2025-08-04T1900,2457A,112.6194,26.9258,衡阳市,衡阳化工总厂,,32,30,21,22,11,92,,98,98,5,6,3,3,0.7,0.8
2025-08-04T1900,2458A,112.6211,26.8956,衡阳市,珠晖区环保局,,,20,24,12,10,,,94,,6,6,5,5,0.5,0.5
2025-08-04T1900,2459A,112.6197,26.8733,衡阳市,市委党校,,29,22,14,16,9,91,,95,95,4,6,8,9,0.4,0.4
2025-08-04T1900,2460A,112.6006,26.8919,衡阳市,市监测站,,29,25,21,12,12,90,,96,96,6,6,3,5,0.5,0.6
2025-08-04T1900,2461A,112.5664,26.9056,衡阳市,真空机电公司,,29,,25,20,14,87,,98,98,4,8,3,9,0.9,1.2
2025-08-04T1900,3399A,112.6703,26.882,衡阳市,师范学院,,25,16,27,12,11,80,,91,91,10,8,7,6,0.7,0.7
2025-08-04T1900,2608A,103.3772,23.3993,红河哈尼族彝族自治州,污水处理厂,,19,19,18,8,15,41,,61,58,7,9,8,9,0.2,0.3
2025-08-04T1900,2609A,103.3861,23.35,红河哈尼族彝族自治州,监测站,,25,20,19,17,10,41,,55,52,4,5,9,11,0.0,0
2025-08-04T1900,3038A,103.3758,23.368,红河哈尼族彝族自治州,州图书馆,,22,17,11,15,12,42,,57,55,6,6,2,2,0.2,0.2
2025-08-04T1900,1090A,111.6507,40.7517,呼和浩特市,呼市一监,,31,12,24,10,18,98,,109,107,11,16,8,8,0.5,0.7
2025-08-04T1900,1091A,111.6572,40.8033,呼和浩特市,小召,,31,19,31,11,19,97,,103,102,17,20,8,8,0.8,0.7
2025-08-04T1900,1094A,111.7516,40.8369,呼和浩特市,如意水处理厂,,29,23,30,15,15,91,,116,112,22,22,4,5,0.6,0.6
2025-08-04T1900,1095A,111.7276,40.8062,呼和浩特市,二十九中,,34,26,28,14,16,106,,122,120,16,18,5,6,0.8,0.8
2025-08-04T1900,1096A,111.5512,40.7866,呼和浩特市,工大金川校区,,25,25,31,11,16,48,,101,94,35,25,4,4,0.7,0.7
2025-08-04T1900,1097A,111.717,40.7612,呼和浩特市,化肥厂生活区,,35,14,27,13,18,112,,122,120,16,19,7,7,0.6,0.7
2025-08-04T1900,3698A,111.5968,40.8178,呼和浩特市,红旗小学,,32,17,26,8,16,101,,113,113,16,28,1,2,0.6,0.6
2025-08-04T1900,3699A,111.6518,40.8389,呼和浩特市,海东办,,,,27,,18,89,,119,116,18,28,,4,,0.6
2025-08-04T1900,2192A,119.7594,49.2261,呼伦贝尔市,区环保局,,29,29,35,20,19,44,,49,49,21,26,4,5,0.1,0.2
2025-08-04T1900,3061A,119.7512,49.1577,呼伦贝尔市,国华电力东,,19,18,23,13,10,53,,59,58,7,12,9,9,0.3,0.3
2025-08-04T1900,1250A,120.0751,30.8669,湖州市,城西水厂,臭氧1小时,101,51,31,40,22,202,,163,163,13,26,5,6,1.0,0.7
2025-08-04T1900,2873A,120.0830,30.8929,湖州市,仁皇山新区,臭氧1小时,105,49,30,36,19,210,,176,176,8,11,3,3,0.9,0.7
2025-08-04T1900,2907A,120.1844,30.8596,湖州市,吴兴区站,臭氧1小时,80,,27,34,21,184,,169,169,9,10,6,6,0.8,0.7
2025-08-04T1900,3562A,120.4148,30.8538,湖州市,南浔区站,臭氧1小时,90,,26,42,23,192,,180,180,7,9,3,4,0.8,0.8
2025-08-04T1900,1607A,120.9049,40.7211,葫芦岛市,龙港区,,34,27,29,6,15,106,,110,110,10,19,4,13,0.4,0.7
2025-08-04T1900,1608A,120.8392,40.7514,葫芦岛市,化工街,,35,7,17,3,9,109,,104,104,10,20,6,11,0.4,0.5
2025-08-04T1900,1609A,120.8341,40.7073,葫芦岛市,新区,,36,22,22,3,12,113,,109,109,5,14,3,6,0.7,0.8
2025-08-04T1900,1610A,120.8695,40.7677,葫芦岛市,东城区,,,18,20,7,12,106,,108,108,,18,,10,0.5,0.7
2025-08-04T1900,2482A,109.5981,27.5721,怀化市,林科所,,28,28,27,14,10,76,,92,88,8,7,4,4,0.2,0.2
2025-08-04T1900,2483A,109.9453,27.5444,怀化市,河西地税局,,30,,24,21,19,46,,84,80,23,8,3,3,0.3,0.2
2025-08-04T1900,2484A,109.9781,27.5342,怀化市,市四医院,,40,40,35,3,20,63,,83,78,9,8,3,5,0.4,0.4
2025-08-04T1900,2485A,109.9972,27.5578,怀化市,监测楼,,16,15,29,11,18,51,,86,79,14,7,3,4,0.2,0.2
2025-08-04T1900,2486A,110.0394,27.583,怀化市,市委党校,,28,28,28,12,20,63,,97,90,4,7,6,6,0.2,0.2
2025-08-04T1900,1210A,119.036,33.5981,淮安市,钵池山,,34,27,25,19,18,106,,134,127,7,13,8,8,0.8,0.9
2025-08-04T1900,1211A,119.007,33.575,淮安市,北京南路,,36,36,28,18,16,104,,127,123,11,20,6,7,0.8,0.9
2025-08-04T1900,1212A,118.989,33.6067,淮安市,市监测站,,,,31,,22,109,,139,134,9,16,8,8,,0.9
2025-08-04T1900,1213A,119.135,33.5039,淮安市,楚州区监测站,,42,42,36,19,15,85,,99,97,6,23,7,7,0.5,0.6
2025-08-04T1900,3426A,118.8755,33.2894,淮安市,新华书店,,33,28,22,18,19,103,,114,114,14,15,7,8,0.5,0.6
2025-08-04T1900,4206A,119.0288,33.6319,淮安市,承德北路606号,,,,37,,18,101,,133,128,,18,5,5,0.5,0.7
2025-08-04T1900,2282A,116.8004,33.975,淮北市,监测站,,48,28,37,20,19,151,,165,164,10,10,6,7,0.7,0.7
2025-08-04T1900,2283A,116.8091,33.9007,淮北市,烈山区政府,,46,41,49,7,18,146,,161,161,7,11,5,6,0.6,0.6
2025-08-04T1900,3330A,116.8873,33.9836,淮北市,杜集区检察院,,49,29,38,12,27,155,,158,158,8,12,7,7,0.7,0.8
2025-08-04T1900,4017A,116.7923,33.9535,淮北市,市博物馆,臭氧1小时,53,25,35,11,22,162,,173,173,7,11,8,8,0.5,0.6
2025-08-04T1900,2277A,116.8305,32.7727,淮南市,潘集区政府,,44,44,36,13,16,116,,126,126,13,15,3,3,0.6,0.6
2025-08-04T1900,2279A,116.8569,32.5951,淮南市,谢家集区政府,,40,21,21,11,13,128,,122,122,10,11,7,8,0.4,0.3
2025-08-04T1900,2280A,116.8281,32.633,淮南市,八公山区政府,,43,25,22,16,11,137,,125,125,7,9,8,6,0.5,0.3
2025-08-04T1900,2281A,116.6325,32.6201,淮南市,焦岗湖风景区管理处,,,,,,,,,,,,,,,,
2025-08-04T1900,2894A,117.0566,32.6531,淮南市,经济技术开发区消防队,,47,11,22,6,8,148,,129,129,8,13,8,9,0.3,0.3
2025-08-04T1900,3329A,117.0108,32.5893,淮南市,山南新区,,49,8,10,3,5,155,,130,130,6,7,10,10,0.7,0.5
2025-08-04T1900,4209A,117.0031,32.6445,淮南市,国庆中路369号,,49,22,25,19,13,156,,130,130,8,7,13,13,0.5,0.4
2025-08-04T1900,2446A,114.9028,30.4742,黄冈市,职工中心,,45,34,30,25,21,143,,166,165,3,2,8,8,0.4,0.5
2025-08-04T1900,2929A,114.8858,30.4519,黄冈市,红卫路,,44,27,26,23,21,140,,160,158,5,3,11,9,0.5,0.5
2025-08-04T1900,3398A,114.9136,30.4445,黄冈市,市林业局,,43,37,31,21,18,137,,160,157,8,5,10,8,0.7,0.6
2025-08-04T1900,2672A,102.0199,35.5102,黄南藏族自治州,同仁县隆务镇,,30,10,16,3,3,94,,99,98,8,7,9,9,0.3,0.3
2025-08-04T1900,2295A,118.2903,29.6963,黄山市,延安路89号,,28,,27,19,14,80,,87,87,5,5,3,3,0.5,0.6
2025-08-04T1900,2297A,118.1371,30.2756,黄山市,黄山区政府5号楼,,24,13,22,3,12,74,,85,85,2,3,3,4,0.4,0.4
2025-08-04T1900,4210A,118.3354,29.7203,黄山市,滨江东路7-2号,,25,21,28,3,12,77,,80,80,9,6,2,2,0.5,0.5
2025-08-04T1900,2423A,115.0601,30.2313,黄石市,沈家营,,46,46,67,20,19,116,,144,141,3,8,7,8,0.3,0.4
2025-08-04T1900,2426A,114.8988,30.2019,黄石市,铁山,,,,38,,20,,,104,,,8,,10,,0.5
2025-08-04T1900,2427A,115.0307,30.2092,黄石市,团城山,,41,34,46,13,15,131,,150,149,2,7,6,8,0.5,0.7
2025-08-04T1900,3149A,115.0235,30.1578,黄石市,笔架山北路,,34,34,42,10,15,89,,129,124,3,4,9,9,0.3,0.4
2025-08-04T1900,4185A,115.0780,30.21118,黄石市,磁湖东路29号,,43,43,59,18,23,125,,137,137,5,9,11,9,0.3,0.4
2025-08-04T1900,1392A,114.4183,23.0528,惠州市,河南岸金山湖子站,,,,11,,6,46,,57,57,,12,7,7,0.6,0.6
2025-08-04T1900,1393A,114.4053,23.0822,惠州市,下埔横江三路子站,,15,12,12,8,9,48,,58,57,15,10,5,5,0.6,0.4
2025-08-04T1900,1394A,114.4103,23.1142,惠州市,江北云山西路子站,,15,10,10,7,6,48,,59,59,21,13,7,7,0.6,0.6
2025-08-04T1900,1395A,114.4645,22.7833,惠州市,惠阳区承修路船湖子站,,17,15,17,7,10,36,,49,43,33,17,6,6,0.6,0.6
2025-08-04T1900,1396A,114.5317,22.7422,惠州市,大亚湾管委会子站,,,8,15,3,9,42,,51,48,,11,7,6,0.5,0.6
2025-08-04T1900,3314A,114.4338,22.8134,惠州市,惠阳秋长,,20,19,15,14,11,20,,36,34,39,21,3,2,0.6,0.5
2025-08-04T1900,3452A,114.6517,22.775,惠州市,大亚湾霞涌,,14,8,14,3,6,42,,73,54,11,7,5,5,0.7,0.6
2025-08-04T1900,2240A,130.9762,45.3001,鸡西市,环保局,,20,18,13,6,4,63,,67,67,7,6,7,6,0.2,0.2
2025-08-04T1900,2243A,130.9429,45.3039,鸡西市,第一中学,,22,22,11,7,6,57,,63,63,12,7,10,10,0.2,0.2
2025-08-04T1900,3707A,131.0207,45.3073,鸡西市,欧美日汽修厂,,21,14,11,8,8,65,,66,66,7,8,9,9,0.4,0.4
2025-08-04T1900,3709A,130.9967,45.3106,鸡西市,市政设施管理处,,20,20,13,13,4,63,,66,66,9,9,8,7,0.3,0.3
2025-08-04T1900,2367A,114.9754,27.0803,吉安市,红声器材厂,,20,18,20,9,7,63,,82,79,1,3,7,9,0.6,0.6
2025-08-04T1900,2368A,114.9658,27.0999,吉安市,市森林工业局,,21,17,20,12,7,66,,94,91,1,2,8,9,0.3,0.4
2025-08-04T1900,2369A,114.99,27.1312,吉安市,市环境监测站,,,19,19,7,7,66,,94,91,,1,10,13,0.6,0.5
2025-08-04T1900,2370A,115.0093,27.0968,吉安市,青原区法院,,21,21,17,10,9,62,,81,80,2,5,7,8,0.6,0.5
2025-08-04T1900,1772A,126.54,43.8622,吉林市,哈达湾,,25,18,16,9,9,79,,89,88,13,10,13,10,0.4,0.5
2025-08-04T1900,1773A,126.5844,43.8358,吉林市,东局子,,18,14,19,3,9,56,,76,72,19,13,5,8,0.7,0.8
2025-08-04T1900,1774A,126.5052,43.8245,吉林市,电力学院,,23,13,16,12,7,71,,95,89,8,9,6,8,0.5,0.5
2025-08-04T1900,1775A,126.6133,43.8972,吉林市,江北,,24,24,17,9,5,53,,76,74,6,6,4,4,0.5,0.3
2025-08-04T1900,1776A,126.555,43.8306,吉林市,江南公园,,,15,14,11,10,73,,88,84,17,12,4,4,,0.2
2025-08-04T1900,1778A,126.7061,43.7133,吉林市,丰满,,27,7,11,6,7,86,,94,94,3,5,4,4,0.4,0.5
2025-08-04T1900,2868A,126.4739,43.953,吉林市,九站,,24,13,14,11,11,76,,83,82,13,11,6,10,0.4,0.5
2025-08-04T1900,1299A,116.9862,36.6114,济南市,科干所,细颗粒物(PM2.5),92,75,56,68,42,150,,135,135,30,28,8,8,0.9,0.7
2025-08-04T1900,1300A,116.9376,36.665,济南市,农科所,细颗粒物(PM2.5),64,61,59,46,31,132,,115,115,21,36,7,7,0.5,0.5
2025-08-04T1900,1301A,117.1265,36.6734,济南市,开发区,,,63,56,37,33,141,,124,124,,29,12,8,,0.9
2025-08-04T1900,1303A,117.0624,36.6868,济南市,省种子仓库,颗粒物(PM10),58,66,64,29,28,147,,136,136,18,29,6,6,0.8,0.8
2025-08-04T1900,1304A,116.9489,36.6447,济南市,机床二厂,,,,72,46,32,148,,132,132,25,35,12,10,0.7,0.6
2025-08-04T1900,1305A,117.0495,36.663,济南市,市监测站,颗粒物(PM10),59,68,59,39,31,133,,123,123,25,30,9,9,0.9,0.8
2025-08-04T1900,1306A,116.7675,36.5484,济南市,长清党校,细颗粒物(PM2.5),64,71,49,46,29,134,,124,124,28,23,6,5,0.8,0.7
2025-08-04T1900,1616A,117.6795,36.229,济南市,技术学院,臭氧1小时,60,58,48,36,31,168,,159,159,16,16,14,9,0.9,0.7
2025-08-04T1900,1961A,117.532,36.6868,济南市,东山小学,,46,46,64,24,32,113,,135,135,15,28,7,8,0.3,0.6
2025-08-04T1900,3059A,117.7161,36.2049,济南市,泰兴公司,"颗粒物(PM10),细颗粒物(PM2.5)",52,53,44,36,29,144,,128,128,10,15,13,10,0.6,0.7
2025-08-04T1900,3064A,117.6867,36.2171,济南市,莱芜战役纪念馆,颗粒物(PM10),54,58,48,36,31,156,,143,143,16,18,10,7,0.7,0.6
2025-08-04T1900,3494A,117.1673,36.9782,济南市,济阳区政府,,42,42,48,27,25,116,,106,106,6,13,8,8,0.4,0.5
2025-08-04T1900,3495A,117.1171,36.63,济南市,锦屏中学,颗粒物(PM10),57,63,54,37,30,155,,138,138,18,18,9,7,0.9,0.9
2025-08-04T1900,3682A,116.9814,36.6819,济南市,济南四建,颗粒物(PM10),57,63,65,39,30,144,,133,133,22,40,5,7,0.9,0.9
2025-08-04T1900,1653A,116.6251,35.4302,济宁市,火炬城,,38,34,37,19,18,119,,140,139,9,12,5,5,0.7,0.6
2025-08-04T1900,1655A,116.5491,35.4042,济宁市,电化厂,,41,34,40,19,20,129,,146,146,5,18,3,1,0.8,0.7
2025-08-04T1900,3500A,116.5814,35.3707,济宁市,北湖一中,,41,37,40,24,18,131,,147,147,3,10,2,3,0.4,0.3
2025-08-04T1900,3501A,116.8249,35.5593,济宁市,服务中心,,,41,41,15,19,121,,153,150,,16,3,3,0.4,0.4
2025-08-04T1900,3678A,116.5907,35.4054,济宁市,市第七中学,,36,31,39,14,14,113,,128,128,6,10,4,4,0.4,0.4
2025-08-04T1900,2255A,130.2751,46.8028,佳木斯市,佳纺,,19,19,11,8,4,49,,56,56,14,8,8,8,0.5,0.4
2025-08-04T1900,2256A,130.3995,46.8307,佳木斯市,发电厂,,26,26,13,9,7,45,,59,58,19,8,6,6,0.5,0.4
2025-08-04T1900,2257A,130.3258,46.7975,佳木斯市,环保局,,18,12,9,3,5,56,,60,60,13,8,9,9,0.5,0.5
2025-08-04T1900,2258A,130.3648,46.8032,佳木斯市,十一中,,18,13,9,6,7,56,,60,60,14,7,7,7,0.4,0.4
2025-08-04T1900,2259A,130.3794,46.7588,佳木斯市,四丰,,,,,,,,,,,30,8,1,1,0.4,0.4
2025-08-04T1900,1252A,120.7436,30.778,嘉兴市,清河小学,臭氧1小时,65,33,32,20,22,172,,180,180,11,15,5,5,0.6,0.7
2025-08-04T1900,1253A,120.726,30.7478,嘉兴市,嘉兴学院,臭氧1小时,83,36,30,24,22,186,,194,193,10,10,3,3,0.8,0.7
2025-08-04T1900,2872A,120.7846,30.7525,嘉兴市,南湖区残联,臭氧1小时,68,34,33,24,22,174,,189,189,10,14,5,6,0.8,0.8
2025-08-04T1900,3407A,120.6916,30.7739,嘉兴市,秀洲住建,臭氧1小时,89,34,33,23,22,191,,198,198,13,20,6,5,0.7,0.8
2025-08-04T1900,1945A,98.2908,39.7711,嘉峪关市,气象局,,44,39,30,17,11,139,,123,123,8,8,19,13,1.0,0.9
2025-08-04T1900,2884A,98.2672,39.7978,嘉峪关市,酒钢宾馆,颗粒物(PM10),52,53,40,24,17,146,,129,129,9,10,12,16,0.6,0.7
2025-08-04T1900,3248A,98.2643,39.7724,嘉峪关市,雄关区,,49,39,35,20,15,156,,136,125,13,13,8,6,0.4,0.5
2025-08-04T1900,1383A,113.1064,22.6058,江门市,北街,,38,38,37,21,20,26,,33,32,24,12,2,3,0.5,0.5
2025-08-04T1900,1384A,113.0731,22.5835,江门市,西区,,39,39,43,23,19,35,,37,37,20,15,6,5,1.0,0.7
2025-08-04T1900,1385A,113.0219,22.5311,江门市,圭峰西,颗粒物(PM10),52,53,46,28,22,22,,44,40,21,12,5,5,0.7,0.5
2025-08-04T1900,1386A,113.0828,22.5947,江门市,东湖,,43,43,40,17,19,20,,33,29,17,13,6,6,0.6,0.4
2025-08-04T1900,3311A,113.1075,22.5647,江门市,江海富民,,50,50,59,27,22,32,,42,39,24,12,8,8,0.4,0.3
2025-08-04T1900,3449A,113.05,22.4667,江门市,新会银湖,,46,46,38,23,21,26,,34,33,11,10,3,2,0.6,0.5
2025-08-04T1900,1830A,113.1992,35.2590,焦作市,影视城,,,,22,,14,,,,,,7,,10,,0.5
2025-08-04T1900,3335A,113.3137,35.2641,焦作市,马村街道办,,39,39,45,21,26,119,,140,139,8,11,3,4,0.6,0.6
2025-08-04T1900,3336A,113.2465,35.2373,焦作市,焦作技师学院,,37,25,47,9,15,118,,132,131,7,11,1,2,0.8,0.9
2025-08-04T1900,3477A,113.1656,35.2539,焦作市,中站许衡医院,,42,39,40,27,25,132,,141,141,10,10,6,6,0.5,0.5
2025-08-04T1900,3981A,113.2449,35.1803,焦作市,原李万街道办,,41,41,52,9,19,131,,135,135,8,13,8,8,0.6,0.7
2025-08-04T1900,4264A,113.2340,35.2190,焦作市,新安路1731号,,,,45,,19,126,,144,142,,8,4,4,0.5,0.5
2025-08-04T1900,4295A,113.2722,35.2121,焦作市,人民路3066号,,42,42,53,14,22,126,,135,134,5,12,4,6,0.5,0.5
2025-08-04T1900,1708A,116.3701,23.5345,揭阳市,新兴,,15,13,17,8,8,46,,47,47,14,15,3,4,0.6,0.6
2025-08-04T1900,1709A,116.3264,23.5443,揭阳市,西马,,19,19,17,8,10,51,,53,53,10,11,1,2,0.5,0.4
2025-08-04T1900,1710A,116.3611,23.5626,揭阳市,东兴,,15,13,21,8,9,45,,47,47,12,12,3,3,0.8,0.7
2025-08-04T1900,1711A,116.4151,23.5294,揭阳市,渔湖,,15,14,18,10,8,47,,47,47,12,13,8,8,0.5,0.6
2025-08-04T1900,3320A,116.403,23.5699,揭阳市,曲溪,,,15,15,8,9,49,,28,,8,11,,5,0.5,0.5
2025-08-04T1900,1944A,102.1692,38.5167,金昌市,天庆家园,,28,14,20,9,10,89,,96,94,6,6,7,8,0.8,0.8
2025-08-04T1900,4022A,102.1647,38.5371,金昌市,金川区人防中心,,29,13,21,9,9,90,,98,96,4,6,6,6,0.5,0.5
2025-08-04T1900,4239A,102.1930,38.5319,金昌市,长春路96号,,29,16,23,9,9,90,,95,94,2,4,5,6,0.6,0.7
2025-08-04T1900,1262A,119.647,29.077,金华市,十五中,,36,,38,12,25,113,,130,127,15,18,2,4,0.3,0.4
2025-08-04T1900,1263A,119.686,29.1029,金华市,监测站,,33,,37,8,24,103,,134,131,20,16,3,4,0.5,0.6
2025-08-04T1900,3659A,119.656,29.1131,金华市,气象局,,27,10,37,8,22,86,,120,117,25,17,4,4,0.5,0.6
2025-08-04T1900,1767A,121.1115,41.0879,锦州市,南山,,34,22,16,12,9,106,,108,108,7,6,4,6,0.4,0.5
2025-08-04T1900,1768A,121.0604,40.8428,锦州市,开发区,,34,26,20,3,10,108,,112,112,6,14,3,5,0.6,0.7
2025-08-04T1900,1769A,121.1836,41.1119,锦州市,百股街道,,30,18,18,3,4,95,,108,108,12,11,40,10,0.5,0.6
2025-08-04T1900,1770A,121.1178,41.1222,锦州市,天安街道,,34,28,17,13,10,106,,110,110,14,12,10,8,0.6,0.7
2025-08-04T1900,1771A,121.1303,41.1386,锦州市,北湖公园,,32,24,18,7,7,100,,104,104,10,7,4,6,0.5,0.6
2025-08-04T1900,2160A,112.85,35.5051,晋城市,自来水公司,颗粒物(PM10),57,63,50,22,20,138,,140,140,9,10,2,1,0.5,0.5
2025-08-04T1900,2161A,112.8318,35.4936,晋城市,白云商贸,,42,42,39,14,11,127,,129,129,11,10,3,3,0.5,0.5
2025-08-04T1900,2162A,112.8508,35.4887,晋城市,市环保局,颗粒物(PM10),64,77,54,19,17,118,,121,121,6,6,2,2,0.5,0.5
2025-08-04T1900,2163A,112.8676,35.4897,晋城市,技术学院,,46,46,38,12,14,117,,120,120,8,8,2,2,0.4,0.5
2025-08-04T1900,2165A,112.8453,35.546,晋城市,白马寺,,44,,23,24,22,139,,141,141,4,5,6,6,0.5,0.5
2025-08-04T1900,3620A,112.8271,35.4828,晋城市,泽州一中,,,,29,17,16,134,,136,136,6,7,4,4,0.5,0.4
2025-08-04T1900,2173A,112.7249,37.7067,晋中市,南都小区,,49,49,49,34,29,92,,108,108,8,7,3,3,0.8,0.7
2025-08-04T1900,2174A,112.6991,37.6982,晋中市,榆次区政府,,48,48,42,28,23,97,,106,106,6,5,8,9,0.8,0.8
2025-08-04T1900,2865A,112.7195,37.6828,晋中市,榆次三中,,42,36,34,29,25,102,,118,117,6,4,8,8,0.8,0.7
2025-08-04T1900,4200A,112.7478,37.6954,晋中市,迎宾街26号,,39,36,33,27,24,95,,115,114,8,5,6,6,0.8,0.7
2025-08-04T1900,2439A,112.2014,31.0481,荆门市,竹园小学,,35,35,48,20,30,108,,122,118,8,10,1,2,0.2,0.4
2025-08-04T1900,2440A,112.1969,30.9891,荆门市,掇刀,,38,,44,26,31,112,,122,119,10,5,8,6,0.5,0.6
2025-08-04T1900,2441A,112.2213,31.0386,荆门市,石化一小,,34,26,51,22,36,108,,120,117,7,11,7,5,1.1,1.4
2025-08-04T1900,3012A,112.1849,31.0362,荆门市,西山林语,,35,29,41,21,29,110,,119,116,3,7,7,8,0.5,0.5
2025-08-04T1900,3547A,112.1632,31.0138,荆门市,龙泉中学南校,,38,38,42,21,30,110,,127,121,4,11,3,4,0.7,0.8
2025-08-04T1900,1844A,112.2494,30.3197,荆州市,市图书馆,,39,34,35,22,24,124,,128,128,5,7,2,3,0.6,0.7
2025-08-04T1900,1845A,112.2008,30.3544,荆州市,市委党校,,39,29,37,22,29,123,,126,126,13,14,5,8,0.6,0.7
2025-08-04T1900,3194A,112.2747,30.3122,荆州市,管委会,,36,,32,22,28,114,,123,121,6,9,8,9,0.7,0.8
2025-08-04T1900,4268A,112.1722,30.3366,荆州市,学苑路85号,,,,36,,34,,,101,,,16,,5,,0.6
2025-08-04T1900,2342A,117.3102,29.3867,景德镇市,王港中学,,,,,,,,,,,,,,,,
2025-08-04T1900,2343A,117.2117,29.2933,景德镇市,老干部活动中心,,28,25,31,10,16,89,,94,94,5,11,6,6,0.5,0.5
2025-08-04T1900,2344A,117.1894,29.2789,景德镇市,兽医站,,37,37,33,14,18,87,,97,97,6,10,4,6,0.5,0.6
2025-08-04T1900,2346A,117.2461,29.2956,景德镇市,陶研所,,28,28,34,14,19,73,,86,84,4,7,5,4,0.6,0.7
2025-08-04T1900,4289A,117.1542,29.2566,景德镇市,青少年活动中心,,33,33,27,17,18,88,,92,92,12,13,7,7,0.7,0.8
2025-08-04T1900,1803A,115.9872,29.6815,九江市,十里,,29,26,28,20,31,78,,106,98,6,13,3,4,0.6,0.6
2025-08-04T1900,1804A,115.9584,29.7046,九江市,茅山头,,31,31,36,21,31,73,,111,104,7,14,4,4,0.4,0.4
2025-08-04T1900,1805A,115.9877,29.7295,九江市,西园,,28,19,26,8,18,87,,115,109,12,19,5,6,0.5,0.7
2025-08-04T1900,1808A,115.9114,29.6038,九江市,综合工业园,,25,17,37,3,22,78,,100,96,15,21,5,7,0.8,0.8
2025-08-04T1900,1809A,116.0721,29.7535,九江市,石化总厂,,25,24,29,17,25,79,,96,94,9,10,8,7,0.5,0.6
2025-08-04T1900,1810A,115.9773,29.5698,九江市,庐山气象台,,30,20,19,10,9,94,,88,88,7,5,7,6,0.8,0.9
2025-08-04T1900,3190A,116.0254,29.6994,九江市,外国语学校,,24,13,22,13,23,76,,99,96,11,8,2,4,0.5,0.6
2025-08-04T1900,4253A,116.0102,29.6594,九江市,莲花大道8号,,23,,17,14,18,72,,91,88,2,3,4,4,0.5,0.6
2025-08-04T1900,4240A,98.4958,39.7339,酒泉市,玉门东路5号,颗粒物(PM10),56,61,37,31,24,128,,121,121,15,9,14,14,0.5,0.4
2025-08-04T1900,4241A,98.5099,39.7506,酒泉市,北大街108号,颗粒物(PM10),53,56,40,35,22,135,,122,122,6,8,15,22,0.4,0.3
2025-08-04T1900,2698A,76.0072,39.4467,喀什地区,巡警大队,颗粒物(PM10),76,101,159,32,33,126,,112,112,11,30,3,4,0.4,0.5
2025-08-04T1900,2699A,75.9755,39.4694,喀什地区,吾办,颗粒物(PM10),78,106,153,36,50,128,,114,114,11,24,7,8,0.3,0.4
2025-08-04T1900,4027A,75.9483,39.4689,喀什地区,老干局,,,88,149,22,36,52,,93,91,8,19,,5,0.5,0.4
2025-08-04T1900,1824A,114.3389,34.7781,开封市,肿瘤医院,,44,39,44,17,22,138,,140,140,11,18,2,3,0.9,0.9
2025-08-04T1900,1826A,114.2885,34.7965,开封市,世纪星幼儿园,,,34,35,,16,136,,145,145,9,13,38,3,,0.6
2025-08-04T1900,3147A,114.3438,34.8106,开封市,龙亭公园,,42,42,40,23,26,134,,141,141,8,9,3,4,0.6,0.7
2025-08-04T1900,3210A,114.3644,34.7964,开封市,汴京公园,,45,44,48,22,24,142,,145,145,6,13,3,4,0.6,0.6
2025-08-04T1900,3473A,114.2485,34.8306,开封市,技师学院,,44,31,33,16,22,138,,140,140,5,7,4,5,0.7,0.7
2025-08-04T1900,3592A,114.4644,34.7556,开封市,祥符区生态环境局,,39,39,39,24,20,101,,123,122,21,24,4,4,0.6,0.5
2025-08-04T1900,1951A,84.895,45.6094,克拉玛依市,长征新村,,24,6,16,3,10,75,,93,92,9,4,3,3,0.2,0.1
2025-08-04T1900,1952A,84.8988,45.5893,克拉玛依市,南林小区,,25,7,15,3,6,79,,105,103,9,4,5,4,0.2,0.1
2025-08-04T1900,1954A,84.905,44.3396,克拉玛依市,独山子区,颗粒物(PM10),61,72,25,8,8,112,,115,115,7,8,9,8,0.6,0.5
2025-08-04T1900,1955A,85.6979,46.098,克拉玛依市,乌尔禾区商贸楼,,24,24,25,3,6,55,,84,80,9,4,5,6,0.3,0.2
2025-08-04T1900,3612A,85.1045,45.6899,克拉玛依市,白碱滩区新站,,,,26,,20,80,,100,99,12,10,9,9,0.2,0.4
2025-08-04T1900,2697A,76.1454,39.7142,克孜勒苏柯尔克孜自治州,市人民政府,颗粒物(PM10),57,63,109,27,36,132,,122,122,4,12,4,5,0.1,0.1
2025-08-04T1900,3665A,76.1658,39.7157,克孜勒苏柯尔克孜自治州,克州文化中心,颗粒物(PM10),65,79,112,33,40,128,,119,119,2,8,5,7,0.4,0.4
2025-08-04T1900,1450A,102.8204,24.8886,昆明市,呈贡新区,,35,,14,24,12,100,,96,96,12,13,2,4,0.3,0.4
2025-08-04T1900,1451A,102.6251,24.9608,昆明市,西山森林公园,,,,,,,,,,,,,,,,
2025-08-04T1900,1452A,102.7252,25.0902,昆明市,龙泉镇,,25,24,21,16,13,79,,84,84,10,14,1,1,0.5,0.5
2025-08-04T1900,1453A,102.7266,25.0375,昆明市,东风东路,,31,21,18,18,12,97,,93,93,14,12,4,6,0.4,0.5
2025-08-04T1900,1454A,102.6742,25.0669,昆明市,金鼎山,,44,44,24,8,8,78,,73,73,11,11,2,4,0.4,0.4
2025-08-04T1900,1455A,102.6644,25.0401,昆明市,碧鸡广场,,22,16,20,11,10,69,,72,72,19,15,8,9,0.6,0.5
2025-08-04T1900,3179A,102.7494,25.0119,昆明市,官渡区博物馆,,34,30,18,18,10,107,,102,102,10,10,1,2,0.4,0.5
2025-08-04T1900,3375A,102.8017,24.8336,昆明市,青年创业园,,33,19,17,15,10,104,,93,93,6,10,3,3,0.4,0.4
2025-08-04T1900,3550A,102.7997,24.9786,昆明市,昆明学院,,34,19,21,11,13,107,,102,102,11,10,7,7,0.3,0.3
2025-08-04T1900,3551A,102.5967,24.6736,昆明市,晋宁区生态环境分局,,23,13,14,3,8,72,,80,80,8,6,6,4,0.4,0.4
2025-08-04T1900,3552A,102.6678,24.9856,昆明市,云天化总部,,30,14,18,3,11,93,,90,90,10,13,7,8,0.1,0.3
2025-08-04T1900,1456A,91.1319,29.6514,拉萨市,八廓街,,28,11,15,7,8,87,,87,87,7,9,6,6,0.3,0.4
2025-08-04T1900,1457A,91.1221,29.6747,拉萨市,市环保局,,30,11,10,6,7,94,,89,89,8,10,7,7,0.3,0.3
2025-08-04T1900,1458A,91.0874,29.6475,拉萨市,区监测站,,25,6,8,3,6,78,,78,78,11,11,4,4,0.3,0.3
2025-08-04T1900,1459A,91.1774,29.6541,拉萨市,西藏大学,,29,,9,9,8,90,,84,84,9,10,6,5,0.2,0.2
2025-08-04T1900,1460A,90.9798,29.6588,拉萨市,区辐射站,,22,8,9,3,7,70,,68,68,9,11,4,4,0.3,0.3
2025-08-04T1900,1461A,91.0834,29.6292,拉萨市,拉萨火车站,,,6,10,3,6,76,,76,76,,8,5,6,0.3,0.3
2025-08-04T1900,2520A,109.2203,23.7256,来宾市,来宾技工学校,,28,28,34,9,19,69,,75,75,6,8,6,6,0.7,0.7
2025-08-04T1900,3535A,109.1781,23.7297,来宾市,兴宾区政府,,25,15,31,6,18,77,,74,74,6,7,4,5,0.7,0.8
2025-08-04T1900,4002A,109.2416,23.7461,来宾市,中南小学,,25,22,32,8,16,77,,82,82,6,9,6,8,0.6,0.6
2025-08-04T1900,1477A,104.1373,35.9454,兰州市,榆中兰大校区,,,,,,,,,,,,,,,,
2025-08-04T1900,1479A,103.831,36.0464,兰州市,铁路设计院,,31,31,28,18,19,64,,,,40,22,9,8,0.4,0.3
2025-08-04T1900,3241A,103.7439,36.0842,兰州市,百合公园,,27,27,26,7,10,70,,77,77,15,9,5,3,0.4,0.3
2025-08-04T1900,3242A,103.9611,35.998,兰州市,和平,,32,12,21,10,14,100,,100,100,6,5,11,11,0.7,0.6
2025-08-04T1900,4236A,103.6293,36.0938,兰州市,庄浪东路808号,,28,28,28,17,14,84,,79,78,15,14,10,11,0.3,0.3
2025-08-04T1900,4237A,103.7251,36.1043,兰州市,安宁西路88号,,31,31,25,20,19,92,,89,89,6,5,4,10,0.4,0.3
2025-08-04T1900,4238A,103.8470,36.0676,兰州市,北滨河东路1号,,25,14,21,14,19,80,,90,90,27,14,7,7,0.4,0.4
2025-08-04T1900,3245A,103.6633,36.533,兰州新区,新区管委会,,36,,19,25,13,111,,102,98,4,6,16,13,0.3,0.4
2025-08-04T1900,3246A,103.6975,36.4789,兰州新区,舟曲中学,,,,,,,,,,,,,,,,
2025-08-04T1900,1067A,116.6708,39.5111,廊坊市,药材公司,,30,22,35,11,19,94,,119,115,12,13,3,4,0.3,0.4
2025-08-04T1900,1068A,116.7214,39.5589,廊坊市,开发区,,28,18,33,12,20,88,,118,113,9,15,3,2,0.4,0.5
2025-08-04T1900,1070A,116.7244,39.5269,廊坊市,北华航天学院,,31,31,45,10,21,95,,124,116,9,8,3,4,0.3,0.5
2025-08-04T1900,2919A,116.7022,39.5453,廊坊市,河北工业大学,,47,47,48,11,17,98,,120,117,8,9,3,4,0.3,0.4
2025-08-04T1900,2535A,103.7723,29.5462,乐山市,花湖湾,臭氧1小时,65,38,47,29,35,172,,174,174,12,21,2,2,0.8,1.1
2025-08-04T1900,2536A,103.7627,29.5844,乐山市,牛耳桥,臭氧1小时,64,41,46,30,38,171,,187,187,13,22,4,6,0.9,1
2025-08-04T1900,2537A,103.7508,29.6006,乐山市,市第三水厂,,50,45,45,28,36,158,,170,170,11,19,3,4,0.7,0.8
2025-08-04T1900,2538A,103.7571,29.5664,乐山市,市监测站,,50,44,47,33,32,157,,164,164,9,17,6,6,0.8,0.9
2025-08-04T1900,3361A,103.7311,29.5628,乐山市,理工大学,,,39,44,26,32,162,,169,169,,21,6,7,0.8,0.9
2025-08-04T1900,2598A,100.2143,26.8576,丽江市,西南郊,,,,,,,,,,,,,,,,
2025-08-04T1900,2599A,100.2497,26.8802,丽江市,丽江古城,,26,23,18,17,7,83,,77,77,9,10,11,10,0.4,0.5
2025-08-04T1900,2600A,100.2203,26.8906,丽江市,市中心,,26,22,13,11,9,83,,78,78,11,11,8,7,0.7,0.6
2025-08-04T1900,1267A,119.914,28.4514,丽水市,监测站大楼,,17,17,20,7,9,49,,80,78,11,11,2,3,0.5,0.5
2025-08-04T1900,1268A,119.93,28.4586,丽水市,莲都小学,,42,42,22,15,8,50,,79,77,13,14,3,3,0.4,0.4
2025-08-04T1900,1269A,119.879,28.4231,丽水市,余庄前,,20,20,19,10,12,37,,73,70,10,9,4,4,0.5,0.5
2025-08-04T1900,1173A,119.176,34.5885,连云港市,市环境监测站,,26,22,21,7,8,82,,137,131,9,13,2,3,0.5,0.5
2025-08-04T1900,3000A,119.3581,34.6972,连云港市,德源药业,,24,22,19,3,4,76,,99,92,11,18,3,3,0.6,0.7
2025-08-04T1900,3007A,119.178,34.844,连云港市,新城一中,,22,19,16,8,7,70,,93,89,15,22,3,4,0.7,0.7
2025-08-04T1900,3008A,119.3608,34.7519,连云港市,胡沟管理处,,24,24,18,9,5,67,,75,73,35,33,10,9,0.7,0.7
2025-08-04T1900,3009A,119.1478,34.5911,连云港市,矿山设计院,,24,24,23,7,12,76,,128,121,10,12,3,2,0.6,0.6
2025-08-04T1900,3434A,119.2413,34.6539,连云港市,工贸学校,,27,17,21,12,13,84,,136,126,12,13,7,6,0.8,0.7
2025-08-04T1900,3664A,119.4172,34.7341,连云港市,连云街道,,29,20,21,10,9,90,,96,95,3,14,2,3,0.7,0.6
2025-08-04T1900,2571A,102.3431,27.8099,凉山彝族自治州,青龙寺,,24,22,25,13,11,74,,95,94,4,6,5,6,0.4,0.4
2025-08-04T1900,2572A,102.2721,27.8415,凉山彝族自治州,邛海宾馆,颗粒物(PM10),53,55,39,20,19,84,,111,110,11,15,6,11,0.4,0.5
2025-08-04T1900,2573A,102.2625,27.898,凉山彝族自治州,西昌市政府,,39,37,29,27,22,97,,128,128,7,11,6,13,0.7,0.9
2025-08-04T1900,2574A,102.2685,27.8851,凉山彝族自治州,凉山州政府,,38,38,32,26,24,87,,126,126,17,19,8,14,0.7,0.9
2025-08-04T1900,4229A,102.2342,27.8859,凉山彝族自治州,凯乐南路30号,,40,40,33,17,17,85,,134,134,17,18,8,22,0.7,1.2
2025-08-04T1900,2212A,123.2,41.1953,辽阳市,宏伟区,,37,16,22,6,8,118,,115,115,8,14,3,4,0.6,0.6
2025-08-04T1900,2213A,123.1683,41.2495,辽阳市,新华园,,35,24,20,9,10,110,,125,125,10,15,5,7,0.4,0.5
2025-08-04T1900,2214A,123.2354,41.2639,辽阳市,滨河路,,30,29,25,3,11,95,,105,105,9,18,7,5,0.6,0.5
2025-08-04T1900,2215A,123.149,41.2991,辽阳市,铁西工业园,,36,36,21,3,8,76,,103,101,15,17,8,9,0.5,0.6
2025-08-04T1900,2227A,125.1358,42.8845,辽源市,环保局,,26,23,24,3,5,83,,84,84,6,11,7,7,0.3,0.3
2025-08-04T1900,3239A,125.0764,42.9078,辽源市,银鹰制药,,24,13,11,3,4,74,,88,86,10,12,8,8,0.5,0.6
2025-08-04T1900,1625A,115.9848,36.4372,聊城市,区政府,颗粒物(PM10),51,51,41,31,27,118,,118,118,18,18,13,8,1.0,0.9
2025-08-04T1900,2878A,116.0072,36.4343,聊城市,聊大东校,颗粒物(PM10),52,53,48,24,27,118,,118,118,19,29,5,5,0.9,0.8
2025-08-04T1900,3200A,115.9819,36.4978,聊城市,监控中心,,37,14,38,14,24,118,,105,105,10,36,7,9,0.9,1
2025-08-04T1900,3513A,116.0445,36.4361,聊城市,九州社区,颗粒物(PM10),53,55,47,34,26,116,,115,115,19,22,5,4,0.6,0.5
2025-08-04T1900,4018A,116.0567,36.4608,聊城市,星美广场,,43,43,46,24,25,112,,111,111,19,26,5,3,0.8,0.7
2025-08-04T1900,2632A,94.3681,29.6376,林芝市,林芝监测站,,15,10,5,3,3,48,,51,51,3,3,6,6,0.3,0.3
2025-08-04T1900,2633A,94.3616,29.6616,林芝市,林芝人民医院,,15,14,9,3,3,48,,51,51,1,2,7,5,0.1,0.2
2025-08-04T1900,2603A,100.0781,23.8982,临沧市,市环保局,,28,,14,19,16,42,,44,44,7,6,10,9,0.4,0.4
2025-08-04T1900,2604A,100.0894,23.8822,临沧市,市气象局,,19,15,17,13,9,35,,39,39,9,7,10,10,0.4,0.3
2025-08-04T1900,1733A,111.5531,36.0783,临汾市,临钢医院,,49,49,46,18,16,118,,128,128,12,11,5,6,0.8,0.7
2025-08-04T1900,1734A,111.5028,36.0714,临汾市,技工学校,,48,48,48,30,26,128,,143,143,13,10,6,6,0.7,0.6
2025-08-04T1900,1736A,111.5018,36.0855,临汾市,市委,颗粒物(PM10),61,72,58,23,19,137,,154,154,14,11,9,7,0.7,0.7
2025-08-04T1900,3018A,111.505,36.1014,临汾市,唐尧大酒店,颗粒物(PM10),58,65,56,18,17,129,,142,142,12,11,4,4,0.8,0.7
2025-08-04T1900,4244A,111.4879,36.0530,临汾市,启星学校,颗粒物(PM10),53,56,49,30,36,132,,146,146,13,10,6,5,0.7,0.6
2025-08-04T1900,4271A,103.2464,35.6123,临夏回族自治州,滨河东路1号,,20,9,19,3,9,62,,72,67,3,6,4,5,0.3,0.3
2025-08-04T1900,4310A,103.2093,35.5995,临夏回族自治州,新华街21号,,25,18,19,10,10,79,,77,77,7,8,4,5,0.3,0.4
2025-08-04T1900,1618A,118.3429,35.0532,临沂市,沂河小区,,46,36,44,32,29,119,,172,160,14,23,8,10,0.5,0.5
2025-08-04T1900,1619A,118.295,35.0583,临沂市,鲁南制药厂,,45,,44,31,31,124,,164,160,12,19,8,10,0.6,0.6
2025-08-04T1900,1620A,118.2794,34.9976,临沂市,新光毛纺厂,,42,,39,26,26,134,,172,171,13,21,6,10,0.7,0.6
2025-08-04T1900,1621A,118.3956,35.0888,临沂市,河东保险公司,,39,27,35,27,20,97,,153,149,13,17,6,7,0.4,0.3
2025-08-04T1900,3370A,118.3564,35.0215,临沂市,十里堡居委,,42,,33,29,26,123,,164,161,11,20,9,11,0.6,0.5
2025-08-04T1900,3496A,118.3604,35.1084,临沂市,南坊新区,,39,31,42,19,19,122,,163,161,10,19,9,10,0.5,0.5
2025-08-04T1900,3860A,118.3920,35.0300,临沂市,皇山花园小区,,40,36,39,28,26,110,,158,155,10,24,7,8,0.6,0.6
2025-08-04T1900,1870A,109.4856,24.3895,柳州市,柳东小学,,24,18,28,8,19,75,,60,60,8,7,3,2,0.5,0.5
2025-08-04T1900,1871A,109.4157,24.3277,柳州市,环保监测站,,22,22,29,8,17,70,,53,53,8,8,6,7,0.7,0.7
2025-08-04T1900,1872A,109.389,24.341,柳州市,河西水厂,,,25,31,8,16,73,,57,57,,10,,4,0.7,0.7
2025-08-04T1900,1873A,109.4311,24.2921,柳州市,市四中,,28,28,32,10,15,75,,61,61,12,13,6,6,1.0,1
2025-08-04T1900,1874A,109.4006,24.3631,柳州市,市九中,,36,36,34,3,18,67,,53,53,14,10,4,4,0.5,0.5
2025-08-04T1900,1875A,109.4958,24.3134,柳州市,古亭山,,19,19,32,9,16,54,,54,54,17,12,5,5,0.7,0.7
2025-08-04T1900,3402A,109.5422,24.3996,柳州市,市二中,,22,16,29,7,16,68,,59,59,8,11,6,7,0.8,0.8
2025-08-04T1900,2307A,116.5079,31.737,六安市,监测大楼,,37,22,22,20,16,118,,118,118,5,6,4,4,0.5,0.4
2025-08-04T1900,2308A,116.4738,31.7643,六安市,皖西学院,,38,31,25,18,14,121,,120,120,3,4,2,2,0.5,0.4
2025-08-04T1900,2309A,116.4996,31.7905,六安市,朝阳厂,,35,21,19,19,14,112,,116,116,8,8,6,6,0.6,0.5
2025-08-04T1900,2310A,116.5567,31.7886,六安市,开发区,,35,,15,20,16,110,,115,115,4,9,3,3,0.5,0.5
2025-08-04T1900,2576A,104.8,26.5892,六盘水市,窑上,,33,33,30,10,12,93,,106,106,6,4,3,2,0.5,0.5
2025-08-04T1900,2577A,104.83,26.5917,六盘水市,黄土坡,,35,,23,15,18,110,,110,110,11,9,9,9,0.5,0.4
2025-08-04T1900,2578A,104.89,26.5939,六盘水市,水钢,,36,31,30,20,19,69,,99,98,51,10,30,12,3.6,0.7
2025-08-04T1900,2579A,104.8475,26.5894,六盘水市,民中,,35,20,25,3,14,110,,111,111,12,8,8,8,0.5,0.4
2025-08-04T1900,2580A,104.9544,26.5506,六盘水市,双水,,32,14,23,11,15,102,,100,100,19,7,9,6,0.8,0.5
2025-08-04T1900,2335A,117.0189,25.1181,龙岩市,龙岩师专,,,,,,,,,,,,,,,,
2025-08-04T1900,2336A,117.0217,25.1033,龙岩市,龙岩市监测站,,20,6,14,3,9,64,,64,64,8,8,3,3,0.6,0.5
2025-08-04T1900,2337A,117.0258,25.0661,龙岩市,闽西职业技术学院,,21,9,15,3,6,66,,62,62,4,6,3,5,0.5,0.5
2025-08-04T1900,2338A,117.0196,25.0306,龙岩市,龙岩学院,,21,6,15,3,6,67,,62,62,2,5,5,5,0.5,0.5
2025-08-04T1900,2665A,105.0822,33.3261,陇南市,汉王镇固水子,,,,,,,,,,,,,,,,
2025-08-04T1900,2885A,104.9339,33.3826,陇南市,滨江中学,,44,44,41,27,21,97,,128,121,6,3,6,7,0.7,0.6
2025-08-04T1900,3247A,104.955,33.371,陇南市,市总工会,颗粒物(PM10),52,54,46,20,20,111,,140,132,10,6,7,7,0.6,0.4
2025-08-04T1900,2487A,111.9589,27.8901,娄底市,电视发射台,颗粒物(PM10),63,75,43,16,17,38,,81,76,4,5,6,6,0.6,0.7
2025-08-04T1900,2488A,111.9975,27.725,娄底市,市监测站,,32,25,31,22,20,83,,88,86,8,9,10,10,0.6,0.7
2025-08-04T1900,2489A,112.0194,27.7314,娄底市,市委党校,细颗粒物(PM2.5),52,,31,36,24,85,,94,92,11,11,11,8,0.6,0.7
2025-08-04T1900,2490A,111.9561,27.7569,娄底市,涟钢,,36,36,40,24,29,58,,74,73,10,15,12,14,1.5,1.9
2025-08-04T1900,2491A,111.9892,27.7044,娄底市,市政府,,26,10,33,7,24,82,,91,89,3,4,5,7,0.4,0.4
2025-08-04T1900,1893A,105.4324,28.9634,泸州市,九狮山,,46,36,46,32,33,125,,177,175,5,14,4,5,0.6,0.5
2025-08-04T1900,1894A,105.4427,28.9063,泸州市,小市上码头,,34,34,40,16,22,102,,116,116,7,11,3,3,0.3,0.3
2025-08-04T1900,1895A,105.4241,28.8573,泸州市,兰田宪桥,,40,36,46,18,25,126,,145,145,9,18,7,8,0.6,0.6
2025-08-04T1900,1896A,105.4379,28.8833,泸州市,市环监站,,39,28,40,22,28,122,,143,143,5,18,5,5,0.4,0.5
2025-08-04T1900,4272A,105.3689,28.7783,泸州市,纳溪中医医院,,45,31,39,22,27,144,,159,159,22,20,6,6,0.5,0.6
2025-08-04T1900,2183A,111.1406,37.5211,吕梁市,环保局,,,,56,,33,99,,102,102,,23,2,4,0.9,0.9
2025-08-04T1900,2185A,111.1297,37.5136,吕梁市,自来水公司,,49,38,53,34,32,82,,102,102,16,18,4,6,1.2,1.1
2025-08-04T1900,2867A,111.1283,37.51,吕梁市,马茂庄小学,,50,36,55,35,34,96,,109,109,11,21,4,7,0.4,0.7
2025-08-04T1900,1812A,112.3931,34.6516,洛阳市,市委党校,,37,29,35,17,21,116,,147,140,10,9,6,7,0.6,0.6
2025-08-04T1900,1815A,112.494,34.6886,洛阳市,河南林校,,40,33,55,15,23,125,,160,152,12,16,6,8,0.3,0.4
2025-08-04T1900,1816A,112.3844,34.623,洛阳市,开发区管委会,,39,25,32,19,21,124,,155,151,6,8,8,9,0.6,0.6
2025-08-04T1900,1817A,112.4267,34.6258,洛阳市,市委新办公区,,33,21,34,15,23,104,,136,132,10,11,6,6,0.5,0.5
2025-08-04T1900,3340A,112.6005,34.6326,洛阳市,伊滨,,34,23,29,21,22,106,,143,133,11,14,7,10,0.6,0.6
2025-08-04T1900,3341A,112.4951,34.6332,洛阳市,中移产业园,,34,32,45,18,24,107,,139,131,9,13,5,6,0.9,0.9
2025-08-04T1900,3593A,112.5736,34.8993,洛阳市,吉利监测站,,39,39,49,19,25,95,,141,133,15,13,5,8,0.5,0.5
2025-08-04T1900,3635A,112.3677,34.662,洛阳市,河科大西苑校区,,37,35,40,10,15,118,,153,145,9,9,7,8,0.4,0.4
2025-08-04T1900,3636A,112.4388,34.6781,洛阳市,英才小学,,33,26,52,14,22,103,,132,125,12,15,6,8,0.6,0.6
2025-08-04T1900,4214A,112.4600,34.6949,洛阳市,春都路1号院,,35,33,43,10,16,112,,142,135,10,14,4,6,0.6,0.6
2025-08-04T1900,2399A,114.051,33.5699,漯河市,三五一五工厂,,45,20,31,17,17,144,,134,134,6,14,5,6,0.5,0.5
2025-08-04T1900,2400A,114.0055,33.5698,漯河市,漯河大学,,46,23,28,12,14,146,,137,137,10,11,4,4,0.4,0.4
2025-08-04T1900,2401A,114.0138,33.5828,漯河市,市水利局,,45,22,27,12,16,142,,131,131,4,8,4,4,0.4,0.5
2025-08-04T1900,2402A,114.0261,33.5698,漯河市,市广电局,,48,24,26,15,20,152,,142,142,6,9,2,2,0.3,0.3
2025-08-04T1900,3478A,113.9749,33.5664,漯河市,市图书馆,,44,15,27,10,19,138,,135,135,7,10,3,3,0.4,0.4
2025-08-04T1900,4250A,114.0892,33.5882,漯河市,韶山路11号,,45,19,27,14,15,141,,134,134,8,13,2,2,0.6,0.7
2025-08-04T1900,1798A,118.5092,31.6837,马鞍山市,湖东路四小,,41,15,32,10,12,130,,131,131,7,14,5,6,0.4,0.5
2025-08-04T1900,1799A,118.5024,31.6449,马鞍山市,开发区,,41,24,35,13,17,130,,138,137,10,19,6,6,0.6,0.7
2025-08-04T1900,1802A,118.6245,31.7241,马鞍山市,濮塘,,43,27,21,19,12,136,,129,129,5,4,7,7,0.6,0.7
2025-08-04T1900,3633A,118.4918,31.6809,马鞍山市,雨山,,40,,25,15,15,127,,126,126,8,14,7,12,0.4,0.6
2025-08-04T1900,4191A,118.5274,31.72227,马鞍山市,慈湖高新区,,44,27,25,16,13,140,,134,134,8,13,6,6,0.4,0.5
2025-08-04T1900,1686A,111.0286,21.4688,茂名市,电白南海,颗粒物(PM10),59,68,44,24,21,55,,64,64,10,7,2,2,0.5,0.5
2025-08-04T1900,1687A,110.9294,21.6533,茂名市,茂石化七小,颗粒物(PM10),57,63,47,27,21,55,,64,64,15,11,4,5,0.6,0.5
2025-08-04T1900,1688A,110.9107,21.6687,茂名市,健康路,颗粒物(PM10),53,56,45,29,20,66,,74,74,13,11,4,5,0.8,0.7
2025-08-04T1900,1689A,110.8592,21.6828,茂名市,高岭,颗粒物(PM10),60,70,52,19,13,59,,64,64,16,16,5,6,0.5,0.5
2025-08-04T1900,3450A,111.01,21.5165,茂名市,电白水东,,39,39,33,19,14,66,,70,70,7,8,3,3,0.6,0.6
2025-08-04T1900,2539A,104.0308,30.0478,眉山市,黑龙滩水库,臭氧1小时,116,27,23,23,17,232,,210,210,7,9,3,3,0.4,0.3
2025-08-04T1900,2540A,103.8416,30.0874,眉山市,气象局,臭氧1小时,108,43,45,36,29,216,,210,210,11,25,3,3,0.7,0.7
2025-08-04T1900,3137A,103.8578,30.0744,眉山市,市委党校,臭氧1小时,105,44,44,24,25,210,,199,199,12,21,9,9,0.8,0.8
2025-08-04T1900,3148A,103.8291,30.0564,眉山市,区人社局,臭氧1小时,109,57,52,24,21,218,,204,204,16,25,10,11,1.1,1.1
2025-08-04T1900,1690A,116.1231,24.3284,梅州市,梅江月梅,,15,10,20,7,10,45,,58,58,10,12,8,9,0.5,0.5
2025-08-04T1900,1691A,116.0797,24.2719,梅州市,梅县新城,,14,14,17,8,9,39,,55,54,12,9,6,6,0.6,0.6
2025-08-04T1900,1692A,116.1248,24.2654,梅州市,环境监控中心,,14,14,22,7,10,30,,48,47,16,14,3,3,0.8,0.7
2025-08-04T1900,3315A,116.1233,24.2991,梅州市,梅龙,,14,14,17,8,10,42,,56,56,11,10,6,6,0.7,0.6
2025-08-04T1900,1878A,104.7778,31.4741,绵阳市,富乐山,臭氧1小时,55,41,37,28,24,164,,152,152,9,11,8,9,0.5,0.6
2025-08-04T1900,1880A,104.6697,31.4668,绵阳市,高新区自来水公司,,47,33,42,17,20,149,,162,162,11,17,9,9,0.5,0.6
2025-08-04T1900,1881A,104.7287,31.5075,绵阳市,三水厂,,45,37,44,24,29,141,,154,154,17,19,7,8,0.2,0.4
2025-08-04T1900,3491A,104.69,31.5322,绵阳市,西科大附属小学,,46,33,44,21,26,145,,160,160,8,18,9,9,0.5,0.6
2025-08-04T1900,3492A,104.5648,31.5343,绵阳市,安州区旅游局,,,,38,22,23,137,,138,138,8,9,11,2,,0.6
2025-08-04T1900,4226A,104.7651,31.4531,绵阳市,绵阳市气象局,臭氧1小时,59,35,39,26,25,167,,150,150,13,14,2,6,0.5,0.5
2025-08-04T1900,1784A,129.61,44.561,牡丹江市,环保大楼,,22,12,18,10,7,69,,64,64,8,7,3,3,0.2,0.2
2025-08-04T1900,1785A,129.6115,44.5782,牡丹江市,文化广场,,26,,14,18,17,66,,64,64,13,9,6,6,0.4,0.4
2025-08-04T1900,1786A,129.5904,44.5963,牡丹江市,第一医院,,38,,24,26,16,67,,66,66,12,10,6,7,0.3,0.4
2025-08-04T1900,1787A,129.6364,44.6075,牡丹江市,机车工厂,,36,,17,25,13,65,,64,64,8,8,5,4,0.7,0.4
2025-08-04T1900,1788A,129.6386,44.5462,牡丹江市,第一中学,,28,28,20,15,13,69,,67,67,9,7,6,6,0.2,0.2
2025-08-04T1900,2531A,105.0703,29.61,内江市,市监测站,臭氧1小时,103,24,25,24,27,205,,217,217,9,18,2,2,0.8,0.8
2025-08-04T1900,2532A,105.0717,29.5947,内江市,东兴区政府,臭氧1小时,104,28,27,21,21,208,,189,189,9,20,8,8,0.7,0.7
2025-08-04T1900,2533A,105.0653,29.5817,内江市,内江二中,臭氧1小时,103,42,35,28,30,206,,185,185,10,20,4,5,0.6,0.7
2025-08-04T1900,2534A,105.0406,29.5822,内江市,内江日报社,臭氧1小时,110,33,31,31,30,219,,204,204,7,33,9,10,0.5,0.6
2025-08-04T1900,2628A,92.0657,31.4846,那曲市,那曲监测站,,39,39,16,15,10,67,,81,69,13,13,12,10,0.3,0.4
2025-08-04T1900,4243A,92.0515,31.4787,那曲市,那曲市委宣传部,,24,14,8,3,5,75,,89,77,8,8,6,6,0.2,0.2
2025-08-04T1900,1290A,115.8931,28.6843,南昌市,省外办,,27,16,19,12,14,84,,92,91,5,6,5,6,0.4,0.3
2025-08-04T1900,1291A,115.8886,28.7003,南昌市,省林业公司,,27,12,16,9,10,85,,96,95,5,8,3,4,0.6,0.5
2025-08-04T1900,1292A,115.8126,28.7442,南昌市,林科所,,26,14,18,3,11,83,,101,98,8,14,8,9,0.3,0.2
2025-08-04T1900,1294A,115.8518,28.687,南昌市,建工学校,,26,17,24,17,15,83,,98,97,9,11,8,10,0.5,0.5
2025-08-04T1900,1295A,115.8921,28.6424,南昌市,象湖,,28,11,16,9,8,89,,99,98,7,8,6,7,0.4,0.4
2025-08-04T1900,1296A,115.7423,28.7996,南昌市,武术学校,,16,16,18,11,11,46,,93,87,11,7,8,8,0.6,0.5
2025-08-04T1900,3046A,115.9084,28.6062,南昌市,机电学校,,30,20,21,9,9,94,,99,98,3,5,4,5,0.5,0.5
2025-08-04T1900,3690A,115.9721,28.7031,南昌市,外国语学校,,29,11,21,6,10,92,,102,100,3,7,6,7,0.3,0.4
2025-08-04T1900,4192A,115.9316,28.68677,南昌市,南京东路235号,,26,20,22,3,8,81,,90,88,7,10,3,5,0.6,0.7
2025-08-04T1900,1905A,106.056,30.8064,南充市,西山风景区,,,,,,,,,,,,,,,,
2025-08-04T1900,1906A,106.0789,30.8023,南充市,南充市委,,38,30,44,22,27,119,,130,129,7,18,5,6,0.4,0.5
2025-08-04T1900,1907A,106.1031,30.8217,南充市,南充炼油厂,,36,29,45,19,26,114,,122,122,4,12,4,5,0.3,0.4
2025-08-04T1900,4227A,106.1083,30.7884,南充市,梨树横街98号,,39,29,38,18,25,124,,134,134,8,16,5,5,0.2,0.3
2025-08-04T1900,4304A,106.1172,30.843,南充市,清泉寺北路188号,,41,24,43,20,24,130,,131,131,4,11,4,4,0.3,0.3
2025-08-04T1900,4305A,106.067,30.7616,南充市,同庆路1号,,,28,42,12,23,121,,138,135,,18,6,5,,0.5
2025-08-04T1900,1151A,118.8086,32.1065,南京市,迈皋桥,,43,24,19,12,13,136,,160,160,13,24,4,4,0.2,0.3
2025-08-04T1900,1152A,118.7538,32.0551,南京市,草场门,,37,31,25,22,13,116,,137,137,8,18,8,8,0.5,0.6
2025-08-04T1900,1153A,118.7794,32.0745,南京市,山西路,,43,22,24,9,7,136,,153,153,8,17,4,5,0.4,0.5
2025-08-04T1900,1154A,118.7752,32.0023,南京市,中华门,,35,14,17,12,10,111,,128,128,5,15,6,8,0.6,0.7
2025-08-04T1900,1155A,118.8109,32.0309,南京市,瑞金路,,38,17,15,9,12,121,,138,138,9,14,6,7,0.3,0.3
2025-08-04T1900,1156A,118.7997,32.0754,南京市,玄武湖,,38,18,24,3,4,121,,135,135,11,10,18,16,0.3,0.4
2025-08-04T1900,1157A,118.6414,32.0931,南京市,浦口,,45,38,23,18,10,141,,150,150,15,14,5,5,0.4,0.5
2025-08-04T1900,1158A,118.7356,31.9996,南京市,奥体中心,,37,20,22,12,13,118,,130,130,8,20,4,4,0.4,0.5
2025-08-04T1900,1159A,118.9125,32.1028,南京市,仙林大学城,,41,24,24,9,8,130,,151,151,4,10,8,8,0.6,0.6
2025-08-04T1900,3422A,118.8436,31.9198,南京市,江宁彩虹桥,,37,24,22,12,13,117,,133,133,10,17,4,4,0.6,0.7
2025-08-04T1900,3427A,118.8554,32.3578,南京市,六合雄州,,28,28,26,10,12,83,,100,100,11,19,4,4,0.6,0.6
2025-08-04T1900,4249A,118.8708,31.3402,南京市,汶溪路181号,臭氧1小时,63,29,19,22,17,170,,147,147,8,11,5,5,0.5,0.7
2025-08-04T1900,4312A,119.019,31.6512,南京市,中山西路1号,,38,19,15,14,12,119,,120,120,13,16,4,4,0.5,0.6
2025-08-04T1900,1401A,108.3103,22.7881,南宁市,二十一中,,,,36,12,18,56,,76,76,15,7,2,3,0.6,0.6
2025-08-04T1900,1402A,108.3141,22.8528,南宁市,北湖,,25,25,35,10,15,66,,86,86,14,9,3,3,0.5,0.6
2025-08-04T1900,1403A,108.3206,22.8225,南宁市,市监测站,,26,,30,18,17,48,,81,79,28,8,2,2,0.5,0.5
2025-08-04T1900,1404A,108.3829,22.8037,南宁市,大自然花园,,22,16,33,15,16,59,,80,80,13,5,4,4,0.6,0.6
2025-08-04T1900,1405A,108.4394,22.7904,南宁市,仙葫,,23,,31,16,18,53,,74,72,13,6,5,5,0.6,0.6
2025-08-04T1900,1406A,108.2397,22.8467,南宁市,区农职院,,,36,31,10,15,55,,93,91,28,12,4,4,,0.6
2025-08-04T1900,1407A,108.3275,22.735,南宁市,英华嘉园,,24,24,34,12,14,60,,79,79,11,8,1,2,0.4,0.5
2025-08-04T1900,3401A,108.4834,22.7618,南宁市,红星社区,,22,22,32,9,16,52,,79,78,15,8,2,2,0.5,0.6
2025-08-04T1900,4221A,108.2177,22.7774,南宁市,乐贤路16号,,23,,35,16,18,40,,85,81,43,16,4,5,0.7,0.6
2025-08-04T1900,2331A,118.0966,26.6761,南平市,茫荡山,,,,,,,,,,,,,,,,
2025-08-04T1900,2332A,118.1681,26.6369,南平市,南平市监测站,,20,12,14,3,7,64,,75,74,6,7,3,5,0.5,0.5
2025-08-04T1900,2333A,118.1825,26.6489,南平市,南平铝业有限公司,,23,11,17,3,6,71,,77,76,4,6,4,6,0.4,0.5
2025-08-04T1900,2334A,118.1756,26.6272,南平市,南平七中,,20,8,12,7,6,62,,73,72,4,4,2,3,0.5,0.5
2025-08-04T1900,1168A,120.9098,31.9663,南通市,狼山街道,,22,8,19,3,11,69,,85,80,8,17,3,3,0.4,0.6
2025-08-04T1900,1169A,120.86,32.0005,南通市,虹桥,,23,9,14,3,13,72,,84,82,9,12,2,2,0.7,0.8
2025-08-04T1900,1170A,120.87,32.02,南通市,城中,,21,18,21,3,11,66,,72,70,9,13,1,3,0.3,0.4
2025-08-04T1900,1171A,120.94,31.93,南通市,星湖花园,,25,6,15,3,11,78,,89,84,8,27,2,2,0.4,0.5
2025-08-04T1900,1172A,120.81,32.0417,南通市,紫琅学院,,20,6,17,3,10,61,,80,74,12,12,3,3,0.6,0.7
2025-08-04T1900,3291A,121.067,32.062,南通市,通州监测站,,23,6,13,3,10,73,,76,76,4,8,1,1,0.6,0.8
2025-08-04T1900,3432A,120.9348,31.9883,南通市,环境教育馆,,20,12,18,3,8,63,,44,,7,10,2,3,0.3,0.4
2025-08-04T1900,2404A,112.5224,33.0122,南阳市,瓦房庄,,46,45,37,24,18,146,,151,151,10,11,6,6,0.6,0.5
2025-08-04T1900,2405A,112.5003,32.9735,南阳市,汉画馆,,44,41,35,22,15,138,,145,145,7,15,7,7,0.5,0.5
2025-08-04T1900,2406A,112.5573,33.027,南阳市,气象站,颗粒物(PM10),53,56,33,17,18,148,,159,159,7,11,7,7,0.5,0.5
2025-08-04T1900,2407A,112.5481,32.9689,南阳市,理工学院,,45,45,35,19,14,144,,150,150,6,14,8,7,0.5,0.5
2025-08-04T1900,4008A,112.5234,32.9922,南阳市,卧龙区政府,,45,39,36,30,20,144,,152,152,8,13,6,6,0.7,0.6
2025-08-04T1900,1234A,121.8358,29.911,宁波市,区环保大楼,,43,43,48,23,24,105,,143,139,16,22,3,3,0.7,0.7
2025-08-04T1900,1235A,121.56,29.82,宁波市,万里学院,,49,,29,34,26,90,,121,112,29,18,4,4,0.8,0.7
2025-08-04T1900,1236A,121.713,29.9572,宁波市,龙赛医院,,,42,46,22,20,98,,164,157,20,17,3,6,,0.6
2025-08-04T1900,1239A,121.633,29.7733,宁波市,钱湖水厂,,35,35,30,19,19,86,,124,116,12,10,4,4,0.5,0.5
2025-08-04T1900,1240A,121.5856,29.8635,宁波市,太古小学,,46,46,35,24,19,100,,128,121,22,13,2,2,0.6,0.5
2025-08-04T1900,1241A,121.524,29.8674,宁波市,市环境监测中心,,30,30,27,14,12,96,,120,114,26,16,5,6,0.7,0.6
2025-08-04T1900,2871A,121.6147,29.9017,宁波市,万里国际学校,,35,30,27,23,19,110,,146,139,12,13,3,4,0.6,0.6
2025-08-04T1900,3710A,121.5594,29.8975,宁波市,白沙活动中心,,35,32,25,24,18,103,,128,118,27,16,4,4,0.7,0.6
2025-08-04T1900,2339A,119.5001,26.6946,宁德市,金涵水库,,,,,,,,,,,,,,,,
2025-08-04T1900,2341A,119.5388,26.6612,宁德市,宁德市监测站,,,,13,,9,,,50,,,11,,6,,0.5
2025-08-04T1900,3209A,119.5231,26.6562,宁德市,宁德一中,,34,34,19,14,7,67,,88,84,11,7,7,5,0.9,0.5
2025-08-04T1900,2618A,98.8601,25.8567,怒江傈僳族自治州,州监测站,,21,21,16,10,9,64,,63,63,6,8,7,7,0.4,0.4
2025-08-04T1900,2619A,98.8546,25.8417,怒江傈僳族自治州,泸水一中,,28,28,14,7,8,48,,50,50,10,10,6,6,0.3,0.3
2025-08-04T1900,1888A,101.6891,26.571,攀枝花市,弄弄坪,,34,34,43,17,15,74,,83,83,20,21,7,9,0.7,0.8
2025-08-04T1900,1889A,101.5769,26.5928,攀枝花市,河门口,,26,26,24,12,15,75,,96,96,12,14,7,12,0.5,0.8
2025-08-04T1900,1890A,101.7169,26.585,攀枝花市,炳草岗,,42,42,41,12,16,78,,90,90,16,22,5,11,0.6,0.7
2025-08-04T1900,1891A,101.7369,26.5008,攀枝花市,仁和,,21,17,19,10,11,67,,72,72,10,10,6,7,0.5,0.5
2025-08-04T1900,2835A,101.7227,26.567,攀枝花市,四十中小,,30,30,33,17,18,80,,94,94,12,16,8,19,0.8,0.9
2025-08-04T1900,1604A,122.0303,41.1489,盘锦市,开发区,,28,14,14,3,9,88,,89,89,10,9,4,6,0.3,0.4
2025-08-04T1900,1605A,122.0485,41.0883,盘锦市,兴隆台,,31,14,16,3,8,98,,98,98,12,12,6,7,0.3,0.4
2025-08-04T1900,1606A,121.8297,41.1028,盘锦市,新生街道,,24,13,12,3,6,75,,88,87,12,14,4,3,0.3,0.4
2025-08-04T1900,1832A,113.3257,33.742,平顶山市,新华旅馆,,41,36,39,24,26,129,,152,152,9,15,6,7,0.4,0.5
2025-08-04T1900,1833A,113.2919,33.737,平顶山市,规划设计院,,38,33,34,16,23,119,,150,148,14,14,8,13,0.6,0.6
2025-08-04T1900,1834A,113.182,33.774,平顶山市,平顶山工学院,,44,29,29,12,17,138,,160,160,9,12,4,5,0.6,0.6
2025-08-04T1900,3204A,113.3025,33.73,平顶山市,规划局,,42,24,35,9,10,132,,153,153,7,12,3,5,0.4,0.5
2025-08-04T1900,3594A,112.8867,33.9116,平顶山市,石龙区,,45,45,51,21,21,143,,164,162,9,19,6,8,0.6,0.7
2025-08-04T1900,2656A,106.6692,35.5461,平凉市,聚贤嘉苑,,28,28,37,10,14,64,,100,68,7,9,8,8,0.5,0.5
2025-08-04T1900,2657A,106.7021,35.5307,平凉市,博物馆,,29,29,41,14,16,72,,102,72,7,9,8,9,0.5,0.6
2025-08-04T1900,2347A,114.0997,27.5002,萍乡市,武功山,,16,,5,11,4,29,,56,49,3,3,10,9,0.2,0.5
2025-08-04T1900,2348A,113.8385,27.6434,萍乡市,中医院,,27,15,25,11,13,86,,109,106,11,14,9,9,0.8,1
2025-08-04T1900,2349A,113.8493,27.6253,萍乡市,市政府车库,,25,25,21,16,19,67,,97,93,6,10,8,12,0.5,0.8
2025-08-04T1900,2350A,113.8676,27.6435,萍乡市,市环保局,,25,20,29,8,18,78,,103,100,8,13,9,9,0.5,0.7
2025-08-04T1900,2351A,113.866,27.6198,萍乡市,安源区政府,,23,,26,16,17,65,,100,96,6,9,7,12,0.6,0.6
2025-08-04T1900,2319A,119.0141,25.4325,莆田市,荔城区仓后路,,28,28,24,7,7,69,,70,70,9,9,5,5,0.6,0.6
2025-08-04T1900,2320A,119.0015,25.4553,莆田市,莆田市监测站,,25,25,24,9,11,71,,76,76,13,11,4,4,0.4,0.4
2025-08-04T1900,2321A,119.1119,25.4561,莆田市,涵江区六中,,25,17,20,6,6,79,,76,76,13,13,6,6,0.1,0.2
2025-08-04T1900,2322A,119.1013,25.3215,莆田市,秀屿区政府,,29,7,18,6,5,90,,80,80,8,9,4,6,0.3,0.3
2025-08-04T1900,2323A,118.981,25.4792,莆田市,东圳水库,,,,,,,,,,,,,,,,
2025-08-04T1900,2392A,115.0312,35.7636,濮阳市,环保局,细颗粒物(PM2.5),62,62,38,44,25,125,,146,144,11,11,4,3,0.7,0.6
2025-08-04T1900,2394A,115.0574,35.7609,濮阳市,油田运输公司,颗粒物(PM10),59,68,47,29,23,124,,133,131,12,13,4,3,0.6,0.5
2025-08-04T1900,3021A,115,35.7668,濮阳市,濮水河管理处,细颗粒物(PM2.5),63,61,40,45,28,97,,106,102,11,14,2,2,0.8,0.8
2025-08-04T1900,4216A,115.0924,35.7686,濮阳市,任丘路479号,颗粒物(PM10),61,71,55,39,30,126,,123,123,9,11,5,3,0.6,0.5
2025-08-04T1900,2601A,100.98,22.7633,普洱市,市环保局,,20,20,27,13,15,33,,35,35,4,4,5,5,0.5,0.5
2025-08-04T1900,2602A,100.9817,22.8322,普洱市,普洱第二中学,,24,24,24,9,10,33,,36,36,5,7,5,5,0.5,0.5
2025-08-04T1900,2262A,131.0518,45.8751,七台河市,新一中,,35,35,10,11,5,74,,76,76,11,8,10,9,0.7,0.7
2025-08-04T1900,3345A,131.0577,45.7879,七台河市,中波台,,17,17,10,7,8,50,,55,55,16,10,9,7,0.8,0.9
2025-08-04T1900,3637A,131.0176,45.7761,七台河市,人民广场,,22,22,13,15,9,51,,56,56,17,10,12,12,0.5,0.5
2025-08-04T1900,3684A,130.8781,45.8222,七台河市,新建矿广场,,,,9,12,7,58,,62,62,15,11,8,10,,0
2025-08-04T1900,1779A,123.9305,47.3636,齐齐哈尔市,安居小区,,25,25,17,14,8,56,,58,58,6,11,4,3,0.4,0.4
2025-08-04T1900,1780A,123.9488,47.3386,齐齐哈尔市,中心广场,,21,21,21,3,4,59,,62,62,11,12,4,5,0.5,0.5
2025-08-04T1900,1781A,123.9483,47.3227,齐齐哈尔市,农牧车辆厂,,31,31,23,8,7,59,,61,61,6,13,6,6,0.3,0.4
2025-08-04T1900,1783A,123.945,47.2988,齐齐哈尔市,市环境监测站,,19,18,18,10,6,58,,60,60,7,11,6,5,0.4,0.4
2025-08-04T1900,3662A,123.6333,47.2075,齐齐哈尔市,富区青少年活动中心,,18,6,23,3,14,56,,52,52,3,14,4,5,0.2,0.4
2025-08-04T1900,2591A,107.9783,26.5747,黔东南苗族侗族自治州,市环境监测站,,,26,24,20,19,70,,83,82,9,6,,2,,0.5
2025-08-04T1900,2881A,107.8908,26.5311,黔东南苗族侗族自治州,凯里学院,,25,19,25,16,16,79,,86,86,9,9,2,2,0.4,0.4
2025-08-04T1900,2593A,107.5228,26.2403,黔南布依族苗族自治州,小围寨,,21,17,18,9,15,66,,69,69,3,4,1,3,0.3,0.3
2025-08-04T1900,3538A,107.5175,26.2978,黔南布依族苗族自治州,沙坝,,24,22,23,12,7,75,,82,82,5,6,4,4,0.5,0.5
2025-08-04T1900,2589A,104.9022,25.0925,黔西南布依族苗族自治州,场坝街,,26,25,20,16,9,82,,92,92,12,8,7,5,0.4,0.4
2025-08-04T1900,2590A,104.8811,25.0992,黔西南布依族苗族自治州,坪东大道,,26,21,23,9,10,82,,93,93,5,7,2,2,0.4,0.4
2025-08-04T1900,2502A,108.6236,21.9667,钦州市,市环保站,,39,39,37,9,13,71,,103,103,9,8,2,3,0.3,0.3
2025-08-04T1900,2503A,108.6549,21.9481,钦州市,沙埠小学,,,64,44,19,16,67,,96,96,,9,3,3,,0.5
2025-08-04T1900,2504A,108.5989,21.7431,钦州市,港区一小,,49,49,52,16,15,71,,88,83,9,7,2,2,0.5,0.5
2025-08-04T1900,3404A,108.5959,21.9633,钦州市,北职校,,43,43,39,24,15,67,,104,104,9,7,4,4,0.5,0.5
2025-08-04T1900,1043A,119.7493,40.0116,秦皇岛市,第一关,,35,15,21,11,10,112,,119,119,4,11,5,6,0.3,0.3
2025-08-04T1900,1044A,119.5897,39.9499,秦皇岛市,监测站,,37,32,32,3,7,118,,123,123,11,10,6,5,0.4,0.4
2025-08-04T1900,1046A,119.5251,39.9041,秦皇岛市,建设大厦,,37,13,22,3,7,116,,123,123,5,9,6,6,0.3,0.4
2025-08-04T1900,3132A,119.610547,39.943889,秦皇岛市,文明里,,39,24,25,6,8,122,,121,121,2,9,5,6,0.2,0.3
2025-08-04T1900,4198A,119.5090,39.8253,秦皇岛市,北戴河轮滑馆,,35,25,28,10,13,112,,115,115,5,5,2,3,0.3,0.3
2025-08-04T1900,1307A,120.6659,36.2403,青岛市,仰口,,23,23,18,7,6,66,,84,82,9,5,9,8,0.6,0.6
2025-08-04T1900,1310A,120.4134,36.0658,青岛市,市南区东部子站,,23,9,13,7,8,73,,91,90,8,6,6,6,0.2,0.2
2025-08-04T1900,1311A,120.3664,36.1032,青岛市,四方区子站,,26,14,16,9,10,82,,94,94,6,6,6,5,0.2,0.2
2025-08-04T1900,1312A,120.2994,36.054,青岛市,市南区西部子站,,21,12,18,10,9,67,,81,81,23,17,8,8,0.5,0.5
2025-08-04T1900,1313A,120.4581,36.0858,青岛市,崂山区子站,,24,14,18,7,5,76,,84,84,9,10,8,8,0.2,0.2
2025-08-04T1900,1315A,120.3999,36.3083,青岛市,城阳区子站,,24,19,21,10,9,75,,111,108,13,11,6,6,0.4,0.4
2025-08-04T1900,1966A,120.0405,35.8735,青岛市,黄岛区4号,,30,12,16,3,3,93,,95,95,3,4,9,10,0.4,0.4
2025-08-04T1900,3362A,120.5014,36.4034,青岛市,即墨2号,,27,14,17,12,14,84,,105,97,5,7,3,3,0.2,0.2
2025-08-04T1900,3642A,120.3503,36.0736,青岛市,市北区南部,,26,11,18,3,6,83,,86,86,8,13,4,5,0.6,0.6
2025-08-04T1900,3643A,120.3948,36.1805,青岛市,李沧区北部,,26,14,15,9,11,82,,92,92,8,10,5,5,0.3,0.3
2025-08-04T1900,4290A,120.1969,35.9546,青岛市,珠江路669号,,26,12,11,12,8,83,,88,88,10,6,5,6,0.5,0.4
2025-08-04T1900,1702A,113.0426,23.691,清远市,环保大楼,,25,12,44,8,16,78,,56,56,12,17,6,7,0.8,0.8
2025-08-04T1900,1703A,113.0208,23.7106,清远市,凤城街办,,21,6,25,3,15,65,,46,46,11,20,5,5,0.5,0.6
2025-08-04T1900,3025A,113.0477,23.6344,清远市,技师学院,,19,7,22,3,15,60,,43,43,14,19,6,7,0.5,0.5
2025-08-04T1900,3318A,112.9903,23.7403,清远市,清新太和,,23,15,29,3,17,72,,56,56,10,16,6,6,0.5,0.6
2025-08-04T1900,3455A,113.076,23.7198,清远市,清城东城,,20,9,23,3,14,64,,49,49,7,12,6,6,0.8,0.8
2025-08-04T1900,2661A,107.6325,35.7357,庆阳市,庆阳五中,,32,32,26,19,17,57,,98,75,6,7,7,7,0.5,0.6
2025-08-04T1900,2662A,107.6364,35.7067,庆阳市,市环保局,,34,34,27,14,14,63,,104,84,7,5,3,4,0.5,0.6
2025-08-04T1900,1916A,103.7897,25.5035,曲靖市,环境监测站,,33,33,25,20,11,103,,96,96,17,13,7,7,0.5,0.5
2025-08-04T1900,1917A,103.8,25.5364,曲靖市,烟厂办公区,,40,40,25,13,15,101,,100,100,12,8,4,4,0.6,0.6
2025-08-04T1900,3376A,103.7947,25.462,曲靖市,南苑二区,,,22,20,13,11,109,,104,104,,7,,4,0.7,0.7
2025-08-04T1900,3377A,103.7444,25.5261,曲靖市,曲靖师范学院,,45,45,28,10,15,107,,95,95,7,10,6,9,0.3,0.4
2025-08-04T1900,1264A,118.8692,28.9398,衢州市,环保大楼,,30,30,35,17,21,74,,81,80,12,20,2,2,0.5,0.6
2025-08-04T1900,1265A,118.8709,28.9666,衢州市,实验学校,,30,30,34,13,20,70,,88,86,12,16,3,5,0.5,0.5
2025-08-04T1900,1266A,118.8621,28.9808,衢州市,衢州学院,,23,23,30,12,20,71,,93,90,15,19,1,2,0.4,0.5
2025-08-04T1900,1611A,118.5819,24.9117,泉州市,涂山街,,23,12,16,12,9,73,,73,73,13,12,1,1,0.4,0.4
2025-08-04T1900,1612A,118.5972,24.8978,泉州市,津头埔,,24,18,16,9,9,74,,76,76,13,10,2,2,0.5,0.5
2025-08-04T1900,1613A,118.6663,24.9424,泉州市,万安,,24,18,18,3,7,74,,72,72,11,11,1,1,0.4,0.4
2025-08-04T1900,1614A,118.6117,24.9604,泉州市,清源山,,,,,,,,,,,,,,,,
2025-08-04T1900,3529A,118.6333,24.9264,泉州市,城华南路,,23,12,15,7,8,73,,71,71,16,14,3,3,0.5,0.5
2025-08-04T1900,2626A,88.8876,29.2718,日喀则市,日喀则监测站,,,,5,,1,,,69,,,3,,11,,0.4
2025-08-04T1900,3726A,88.8781,29.2426,日喀则市,林业技术推广中心,,25,6,7,3,1,77,,74,74,3,3,6,5,0.5,0.5
2025-08-04T1900,1659A,119.471,35.4209,日照市,监测站,,26,14,14,9,9,82,,88,88,14,15,7,7,0.5,0.5
2025-08-04T1900,1660A,119.523,35.4216,日照市,市政府广场,,30,17,11,11,2,93,,86,86,8,9,5,4,0.6,0.6
2025-08-04T1900,1661A,119.5587,35.4044,日照市,港务局,,29,19,12,15,12,91,,88,88,11,8,9,9,0.7,0.6
2025-08-04T1900,3507A,119.5328,35.4625,日照市,职业技术学院,,30,14,10,7,4,94,,87,87,12,13,4,5,0.5,0.5
2025-08-04T1900,3604A,119.3266,35.1044,日照市,岚山环保分局,,27,9,17,3,3,85,,82,82,8,20,8,10,0.5,0.5
2025-08-04T1900,1835A,111.1922,34.7752,三门峡市,市政府,颗粒物(PM10),52,53,47,26,24,157,,159,159,8,9,5,6,0.6,0.6
2025-08-04T1900,1836A,111.1587,34.7942,三门峡市,开发区,臭氧1小时,53,49,48,26,26,162,,161,161,14,15,4,8,0.4,0.4
2025-08-04T1900,1838A,111.143,34.7955,三门峡市,风景区,臭氧1小时,63,50,42,26,24,170,,167,167,5,6,3,4,0.6,0.6
2025-08-04T1900,3039A,111.1911,34.7829,三门峡市,三门峡市第一小学,颗粒物(PM10),54,57,47,23,22,160,,158,158,12,13,6,7,0.6,0.6
2025-08-04T1900,3598A,111.1,34.7167,三门峡市,富达温泉假日酒店,,50,48,40,34,25,159,,164,164,8,10,3,4,0.6,0.5
2025-08-04T1900,2324A,117.6211,26.2625,三明市,三钢,,20,16,25,10,19,50,,84,79,15,14,12,9,2.0,1.5
2025-08-04T1900,2325A,117.635,26.2714,三明市,三明二中,,32,32,29,10,24,45,,75,70,11,10,2,4,0.5,0.6
2025-08-04T1900,2326A,117.6028,26.2378,三明市,三元区政府,,17,17,23,7,11,47,,89,85,12,11,3,6,0.2,0.5
2025-08-04T1900,2327A,117.7275,26.3108,三明市,洋溪,,,,,,,,,,,,,,,,
2025-08-04T1900,1876A,109.5078,18.2489,三亚市,河东子站,,22,21,25,8,12,68,,68,68,10,5,6,4,0.2,0.2
2025-08-04T1900,1877A,109.4964,18.2681,三亚市,河西子站,,,25,26,13,13,71,,68,68,7,5,,3,0.1,0.2
2025-08-04T1900,3540A,109.7348,18.3443,三亚市,君悦子站,,33,33,28,11,11,74,,69,69,7,6,1,2,0.4,0.5
2025-08-04T1900,2624A,91.7608,29.2313,山南市,山南监测站,,25,6,9,3,3,80,,70,70,4,10,4,3,0.3,0.3
2025-08-04T1900,2625A,91.7706,29.2436,山南市,山南人民医院,,25,7,10,3,6,79,,69,69,4,9,4,4,0.1,0.2
2025-08-04T1900,1674A,116.6794,23.3667,汕头市,金平子站,,21,,8,3,5,67,,62,62,10,9,1,1,0.6,0.6
2025-08-04T1900,1675A,116.7244,23.3633,汕头市,龙湖子站,,22,6,9,3,4,68,,62,62,11,10,6,6,0.6,0.5
2025-08-04T1900,1676A,116.7258,23.2775,汕头市,濠江子站,,22,12,13,3,10,69,,68,68,9,8,4,4,0.5,0.5
2025-08-04T1900,1677A,116.7519,23.4714,汕头市,澄海子站,,17,,12,10,7,54,,57,56,17,12,2,2,0.7,0.7
2025-08-04T1900,1678A,116.6092,23.2539,汕头市,潮阳子站,,21,7,9,3,4,66,,65,65,9,5,4,4,0.5,0.5
2025-08-04T1900,3444A,116.454,23.2684,汕头市,潮南峡山,,18,14,10,10,8,56,,54,54,9,8,5,5,0.8,0.7
2025-08-04T1900,3624A,116.4069,23.2533,汕头市,潮南子站,,18,7,9,3,6,57,,54,53,7,8,3,3,0.6,0.6
2025-08-04T1900,1693A,115.3653,22.775,汕尾市,市环保局,,21,9,22,3,8,67,,76,71,10,6,2,2,0.6,0.6
2025-08-04T1900,1694A,115.3706,22.7898,汕尾市,市政府,,17,8,17,3,8,54,,71,65,16,9,3,3,0.6,0.5
2025-08-04T1900,1695A,115.3622,22.7925,汕尾市,新城中学,,18,6,20,3,8,55,,74,68,13,8,4,4,0.5,0.4
2025-08-04T1900,2645A,109.9154,33.8715,商洛市,监测站,,37,37,39,23,24,98,,125,119,10,12,3,9,0.6,0.6
2025-08-04T1900,3045A,109.9643,33.8471,商洛市,商州区中学,,37,37,43,24,24,88,,113,109,13,12,4,12,0.6,0.6
2025-08-04T1900,2408A,115.6702,34.4285,商丘市,环境监测站,颗粒物(PM10),65,80,34,24,19,162,,159,159,5,8,1,2,0.4,0.5
2025-08-04T1900,2409A,115.6458,34.4045,商丘市,粮食局,,50,26,32,16,18,158,,155,155,5,7,2,2,0.5,0.5
2025-08-04T1900,2410A,115.6293,34.3948,商丘市,睢阳区环保局,,50,34,38,20,18,158,,151,151,6,9,4,5,0.4,0.3
2025-08-04T1900,3171A,115.6071,34.4465,商丘市,梁园区档案局,,46,33,31,24,18,147,,146,146,6,7,2,2,0.5,0.5
2025-08-04T1900,1141A,121.4,31.238,上海市,普陀,,21,17,34,13,26,65,,128,115,18,23,5,7,0.5,0.8
2025-08-04T1900,1142A,121.478,31.2036,上海市,十五厂,,20,17,34,11,25,63,,121,106,17,22,7,9,0.8,1.1
2025-08-04T1900,1143A,121.467,31.3008,上海市,虹口,,18,13,32,12,24,48,,91,76,17,24,5,6,0.7,1
2025-08-04T1900,1147A,121.425,31.2261,上海市,静安监测站,,20,17,34,12,26,63,,119,106,13,21,3,5,0.6,1
2025-08-04T1900,1148A,121.703,31.1907,上海市,浦东川沙,,21,12,32,9,25,66,,92,77,11,25,11,11,0.6,0.8
2025-08-04T1900,1149A,121.533,31.2284,上海市,浦东新区监测站,,19,15,29,10,22,60,,105,92,10,17,7,7,0.5,0.8
2025-08-04T1900,1150A,121.577,31.2071,上海市,浦东张江,,21,18,33,10,25,66,,108,94,14,21,5,5,0.8,1
2025-08-04T1900,3265A,121.4316,31.3322,上海市,宝山庙行,,15,13,34,8,24,45,,95,78,26,31,8,8,0.4,0.7
2025-08-04T1900,3266A,121.8791,31.4662,上海市,崇明上实东滩,,24,9,25,6,16,75,,72,71,1,4,3,4,0.6,0.7
2025-08-04T1900,3268A,121.3162,31.2838,上海市,嘉定南翔,,19,15,30,13,25,53,,111,97,16,21,7,8,0.4,0.6
2025-08-04T1900,3269A,121.3359,30.7456,上海市,金山新城,,39,16,33,16,18,123,,,,7,8,3,3,1.0,1
2025-08-04T1900,3270A,121.4996,31.0739,上海市,闵行浦江,,23,19,34,12,26,72,,125,114,11,18,4,5,1.0,1.2
2025-08-04T1900,3271A,121.2886,31.1663,上海市,青浦徐泾,,26,,32,18,27,72,,138,128,12,24,6,8,0.4,0.7
2025-08-04T1900,3272A,121.2186,31.0378,上海市,松江图书馆,,26,24,30,18,26,82,,164,151,17,18,6,6,0.6,0.9
2025-08-04T1900,3273A,121.3902,31.2059,上海市,长宁仙霞,,19,17,33,12,25,60,,115,105,13,20,6,8,0.5,0.9
2025-08-04T1900,3274A,121.7965,31.0507,上海市,浦东惠南,,29,19,34,14,25,90,,106,97,16,15,9,9,0.4,0.7
2025-08-04T1900,3544A,121.4891,30.925,上海市,奉贤南桥新城,,26,19,34,14,28,83,,147,132,15,16,4,3,0.7,0.9
2025-08-04T1900,4183A,121.4174,31.16637,上海市,冠生园路458号,,21,16,30,14,26,66,,111,104,13,18,3,3,0.8,1.2
2025-08-04T1900,4205A,121.5419,31.2683,上海市,宁武路151号,,17,17,34,9,22,45,,96,78,24,33,3,2,0.5,0.8
2025-08-04T1900,2381A,118.005,28.4572,上饶市,百草园,,,,,,,,,,,,,,,,
2025-08-04T1900,2382A,117.9756,28.4436,上饶市,市监测站,,34,34,28,18,18,55,,84,79,8,7,3,3,0.5,0.5
2025-08-04T1900,2383A,117.9519,28.4628,上饶市,凤凰光学,,32,32,29,14,19,62,,83,81,5,7,4,4,1.2,1.1
