timepoint,stationcode,longitude,latitude,area,positionname,primarypollutant,aqi,pm10,pm10_24h,pm2_5,pm2_5_24h,o3,o3_24h,o3_8h,o3_8h_24h,no2,no2_24h,so2,so2_24h,co,co_24h
2022-07-29T22:00:00,1001A,116.3621,39.8784,北京市,万寿西宫,,42,36,26,29,15,153,99,140,126,22,20,3,3,0.6,0.6
2022-07-29T22:00:00,1002A,116.2202,40.2915,北京市,定陵(对照点),,40,40,23,15,9,206,69,159,147,7,5,3,3,0.4,0.4
2022-07-29T22:00:00,1003A,116.4174,39.9289,北京市,东四,,50,42,30,22,14,189,157,170,162,17,24,1,1,0.4,0.4
2022-07-29T22:00:00,1004A,116.4072,39.8863,北京市,天坛,,35,35,23,22,15,144,69,133,116,13,14,3,3,0.5,0.4
2022-07-29T22:00:00,1005A,116.462,39.9365,北京市,农展馆,,44,44,27,22,13,185,133,169,157,23,24,4,4,0.5,0.4
2022-07-29T22:00:00,1006A,116.3392,39.9295,北京市,官园,,48,41,26,24,14,195,151,175,163,15,19,2,2,0.4,0.4
2022-07-29T22:00:00,1007A,116.2878,39.9611,北京市,海淀万柳,,39,39,26,20,14,170,113,146,130,25,27,2,2,0.6,0.5
2022-07-29T22:00:00,1008A,116.6636,40.135,北京市,顺义新城,颗粒物(PM10),52,53,28,29,16,165,93,141,133,14,12,3,3,0.5,0.5
2022-07-29T22:00:00,1009A,116.6275,40.3275,北京市,怀柔镇,,39,39,20,24,12,190,91,152,149,35,18,3,3,0.4,0.3
2022-07-29T22:00:00,1010A,116.2296,40.217,北京市,昌平镇,,42,42,22,22,12,196,98,157,148,24,10,3,3,0.5,0.4
2022-07-29T22:00:00,1011A,116.3966,39.9821,北京市,奥体中心,,41,41,28,25,14,153,128,139,136,17,25,3,3,0.4,0.4
2022-07-29T22:00:00,1012A,116.184,39.9136,北京市,古城,颗粒物(PM10),52,54,26,25,15,158,103,148,138,30,17,3,3,0.5,0.4
2022-07-29T22:00:00,1015A,117.1444,39.1661,天津市,勤俭道,,38,30,27,16,17,183,119,163,156,15,20,8,8,0.7,0.7
2022-07-29T22:00:00,1017A,117.237,39.1082,天津市,大直沽八号路,,34,34,22,22,17,164,88,150,137,23,17,8,8,0.6,0.6
2022-07-29T22:00:00,1018A,117.202,39.0927,天津市,前进道,,28,28,20,16,13,177,88,153,138,25,18,6,6,0.7,0.8
2022-07-29T22:00:00,1019A,117.1837,39.2133,天津市,淮河道,,38,38,31,20,20,190,104,167,157,23,29,8,8,0.8,0.8
2022-07-29T22:00:00,1021A,117.307,39.0877,天津市,跃进路,,,,30,,16,90,,77,,,23,,7,,0.6
2022-07-29T22:00:00,1023A,117.707,39.0343,天津市,第四大街,,35,35,28,18,19,156,87,135,125,36,25,5,5,0.8,0.9
2022-07-29T22:00:00,1024A,117.457,38.8394,天津市,永明路,,35,33,26,18,17,171,112,155,132,16,20,6,8,0.7,1
2022-07-29T22:00:00,1026A,117.764,39.1587,天津市,汉北路,,35,18,27,13,19,160,109,148,143,9,17,6,7,0.8,0.9
2022-07-29T22:00:00,1027A,117.157,38.9194,天津市,团泊洼(对照点),,23,17,19,9,12,172,73,150,133,27,13,4,10,0.9,1
2022-07-29T22:00:00,1029A,114.4422,38.0444,石家庄市,职工医院,,40,26,30,28,20,164,112,157,145,12,29,5,6,0.6,0.5
2022-07-29T22:00:00,1030A,114.6063,38.0266,石家庄市,高新区,,49,49,36,26,23,171,98,160,147,16,23,5,5,0.5,0.6
2022-07-29T22:00:00,1031A,114.4898,38.1328,石家庄市,西北水源,颗粒物(PM10),60,69,46,35,23,181,65,176,140,48,35,3,4,0.8,0.6
2022-07-29T22:00:00,1032A,114.4586,38.0058,石家庄市,西南高教,,48,48,37,23,17,156,82,148,130,38,34,3,2,0.8,0.6
2022-07-29T22:00:00,1033A,114.5331,38.0178,石家庄市,世纪公园,,43,43,37,29,24,161,88,152,138,17,18,4,4,0.6,0.5
2022-07-29T22:00:00,1034A,114.509,38.0457,石家庄市,人民会堂,,36,35,30,16,16,171,115,167,156,13,21,4,5,0.7,0.6
2022-07-29T22:00:00,1035A,114.3524,37.8911,石家庄市,封龙山(对照点),细颗粒物(PM2.5),59,37,22,42,21,137,126,129,129,9,7,2,4,0.6,0.5
2022-07-29T22:00:00,1037A,118.131,39.6363,唐山市,雷达站,,43,43,33,27,14,167,135,158,156,12,13,2,2,0.8,0.5
2022-07-29T22:00:00,1038A,118.1725,39.6334,唐山市,物资局,,,,29,,17,93,,79,,,10,,5,,0.5
2022-07-29T22:00:00,1040A,118.1705,39.6506,唐山市,十二中,,47,47,25,24,12,160,112,147,141,25,19,4,3,1.0,0.5
2022-07-29T22:00:00,1041A,118.1869,39.622,唐山市,小山,,47,47,20,30,14,164,115,151,147,24,17,5,4,1.2,0.5
2022-07-29T22:00:00,1042A,119.5134,39.8207,秦皇岛市,北戴河环保局,,35,21,12,5,4,135,110,124,120,9,6,4,3,0.5,0.4
2022-07-29T22:00:00,1043A,119.7493,40.0116,秦皇岛市,第一关,,38,16,8,2,0,125,8,120,102,76,10,5,5,0.7,0.5
2022-07-29T22:00:00,1044A,119.5897,39.9499,秦皇岛市,监测站,,36,15,11,11,6,148,115,130,126,6,5,6,6,0.3,0.2
2022-07-29T22:00:00,1046A,119.5251,39.9041,秦皇岛市,建设大厦,,35,12,11,7,6,140,112,131,128,7,5,3,2,0.6,0.4
2022-07-29T22:00:00,1047A,114.5129,36.61763,邯郸市,环保局,,,,,,,,,,,,,,,,
2022-07-29T22:00:00,1048A,114.5302,36.6116,邯郸市,东污水处理厂,,43,43,32,18,22,138,83,134,116,21,18,4,4,0.8,0.9
2022-07-29T22:00:00,1049A,114.4918,36.5713,邯郸市,矿院,,45,45,31,12,13,138,72,135,115,28,19,6,6,0.6,0.7
2022-07-29T22:00:00,1050A,114.484,36.6133,邯郸市,丛台公园,,40,40,45,10,19,141,101,136,124,14,14,4,4,0.5,0.6
2022-07-29T22:00:00,1051A,115.493,38.8632,保定市,游泳馆,,38,38,29,21,16,170,78,148,124,38,30,2,3,0.3,0.3
2022-07-29T22:00:00,1052A,115.5213,38.8959,保定市,华电二区,,48,48,42,20,15,172,93,152,135,20,27,2,5,0.4,0.4
2022-07-29T22:00:00,1053A,115.4713,38.9108,保定市,接待中心,,40,40,40,9,14,181,100,158,140,26,36,5,5,0.4,0.7
2022-07-29T22:00:00,1054A,115.4612,38.8416,保定市,地表水厂,颗粒物(PM10),59,67,47,20,14,164,64,152,126,36,21,5,5,0.5,0.4
2022-07-29T22:00:00,1055A,115.4323,38.8697,保定市,胶片厂,,34,34,30,17,13,163,97,152,137,33,28,4,4,0.5,0.5
2022-07-29T22:00:00,1056A,115.5086,38.8639,保定市,监测站,,46,46,36,17,19,180,88,158,136,32,31,8,9,0.4,0.4
2022-07-29T22:00:00,1057A,114.8883,40.8336,张家口市,人民公园,,41,31,21,10,4,164,131,148,141,10,10,6,6,0.4,0.3
2022-07-29T22:00:00,1059A,114.8687,40.8042,张家口市,五金库,,40,32,29,12,11,153,127,136,130,12,15,7,8,0.3,0.3
2022-07-29T22:00:00,1060A,114.8902,40.762,张家口市,世纪豪园,,42,26,26,19,9,159,134,144,139,12,14,5,6,0.3,0.2
2022-07-29T22:00:00,1061A,114.8916,40.8661,张家口市,北泵房(对照点),,42,37,25,19,14,166,132,150,143,8,6,6,6,0.6,0.5
2022-07-29T22:00:00,1062A,117.9531,40.9081,承德市,铁路,,27,27,27,14,15,121,72,109,99,39,19,4,4,0.4,0.4
2022-07-29T22:00:00,1063A,117.9392,40.9763,承德市,中国银行,,27,24,17,6,6,127,84,115,109,26,13,6,6,0.3,0.3
2022-07-29T22:00:00,1064A,117.9503,40.928,承德市,开发区,,25,22,28,11,16,128,80,118,110,26,16,3,4,0.4,0.4
2022-07-29T22:00:00,1065A,117.8051,40.9655,承德市,文化中心,,31,31,27,16,17,134,45,125,111,26,15,6,9,0.4,0.5
2022-07-29T22:00:00,1066A,117.9268,41.0026,承德市,离宫(对照点),,29,29,23,19,11,117,34,97,72,7,9,1,1,0.3,0.3
2022-07-29T22:00:00,1067A,116.6708,39.5111,廊坊市,药材公司,,35,35,29,20,18,166,108,150,145,23,21,7,6,0.5,0.5
2022-07-29T22:00:00,1068A,116.7214,39.5589,廊坊市,开发区,,40,40,29,22,21,151,112,144,132,26,23,8,8,0.7,0.6
2022-07-29T22:00:00,1070A,116.7244,39.5269,廊坊市,北华航天学院,细颗粒物(PM2.5),54,43,42,38,26,179,107,154,146,25,22,6,6,0.5,0.5
2022-07-29T22:00:00,1071A,116.8842,38.2991,沧州市,沧县城建局,,45,45,37,30,14,149,95,134,128,17,21,10,7,0.6,0.6
2022-07-29T22:00:00,1072A,116.8584,38.3254,沧州市,电视转播站,,44,44,28,14,16,161,110,145,141,16,19,6,5,0.4,0.5
2022-07-29T22:00:00,1073A,116.8709,38.3228,沧州市,市环保局,,46,46,33,21,15,150,95,140,132,17,20,13,9,0.4,0.5
2022-07-29T22:00:00,1074A,115.6838,37.7541,衡水市,电机北厂,,41,41,28,18,16,135,73,130,114,27,14,12,9,0.5,0.5
2022-07-29T22:00:00,1075A,115.6303,37.7316,衡水市,市监测站,颗粒物(PM10),55,59,44,23,17,141,90,131,115,20,13,5,6,0.6,0.6
2022-07-29T22:00:00,1077A,114.4704,37.0886,邢台市,达活泉,,48,48,36,15,17,166,113,151,136,9,10,7,7,0.4,0.5
2022-07-29T22:00:00,1078A,114.5062,37.0349,邢台市,邢师高专,,39,37,36,27,18,152,81,143,126,27,18,4,4,0.3,0.4
2022-07-29T22:00:00,1079A,114.5237,37.0851,邢台市,路桥公司,,38,38,33,19,14,144,86,137,120,28,18,6,5,0.4,0.5
2022-07-29T22:00:00,1080A,114.4725,37.0719,邢台市,市环保局,,42,42,42,19,20,163,107,147,133,16,14,5,6,0.4,0.6
2022-07-29T22:00:00,1081A,112.5139,37.8873,太原市,尖草坪,,39,39,58,18,22,203,123,167,152,20,34,5,10,0.5,0.7
2022-07-29T22:00:00,1083A,112.434,38.0108,太原市,上兰(对照点),,,,,,,,,,,,,,,,
2022-07-29T22:00:00,1084A,112.469,37.7124,太原市,晋源,,44,44,57,25,27,181,109,157,141,19,35,5,11,0.5,0.7
2022-07-29T22:00:00,1085A,112.5583,37.7394,太原市,小店,颗粒物(PM10),53,55,73,19,27,197,115,169,152,23,49,8,12,0.5,0.8
2022-07-29T22:00:00,1086A,112.5369,37.8692,太原市,桃园,颗粒物(PM10),52,54,56,19,22,203,126,173,154,19,36,6,10,0.6,0.8
2022-07-29T22:00:00,1087A,112.57,37.8195,太原市,坞城,,41,41,65,17,28,204,125,172,153,14,44,6,12,0.4,0.8
2022-07-29T22:00:00,1088A,112.549,37.9854,太原市,南寨,,49,49,53,16,22,220,57,177,135,34,32,4,7,0.4,0.6
2022-07-29T22:00:00,1089A,112.4701,37.782,太原市,金胜,,,,,,,,,,,,,,,,
2022-07-29T22:00:00,1090A,111.6507,40.7517,呼和浩特市,呼市一监,颗粒物(PM10),71,92,34,39,11,178,88,158,148,26,12,6,6,0.5,0.3
2022-07-29T22:00:00,1091A,111.6572,40.8033,呼和浩特市,小召,颗粒物(PM10),74,97,38,31,10,167,71,150,140,67,21,6,6,0.7,0.3
2022-07-29T22:00:00,1094A,111.7516,40.8369,呼和浩特市,如意水处理厂,颗粒物(PM10),89,128,37,34,10,178,62,163,148,76,18,8,8,0.6,0.4
2022-07-29T22:00:00,1095A,111.7276,40.8062,呼和浩特市,二十九中,颗粒物(PM10),54,57,31,20,9,168,105,153,148,41,17,9,9,0.6,0.4
2022-07-29T22:00:00,1096A,111.5512,40.7866,呼和浩特市,工大金川校区,颗粒物(PM10),67,84,27,41,9,170,49,147,125,68,14,6,6,0.6,0.5
2022-07-29T22:00:00,1097A,111.717,40.7612,呼和浩特市,化肥厂生活区,颗粒物(PM10),73,96,39,39,14,169,72,154,140,54,19,10,7,0.6,0.4
2022-07-29T22:00:00,1098A,123.6836,41.9339,沈阳市,森林路(对照点),,,,,,,,,,,,,,,,
2022-07-29T22:00:00,1099A,123.505,41.7406,沈阳市,浑南东路,,22,22,19,12,12,105,26,89,55,30,16,4,3,0.7,0.6
2022-07-29T22:00:00,1100A,123.4231,41.6989,沈阳市,新秀街,,22,15,19,14,10,89,23,79,54,44,21,5,5,0.9,0.7
2022-07-29T22:00:00,1102A,123.5903,41.8411,沈阳市,东陵路,,21,21,19,8,11,89,38,72,50,14,11,7,7,0.6,0.5
2022-07-29T22:00:00,1103A,123.4264,41.8467,沈阳市,陵东街,,20,18,19,14,10,79,56,65,50,22,24,4,4,1.0,0.7
2022-07-29T22:00:00,1104A,123.4114,41.7653,沈阳市,文化路,,28,28,20,17,11,90,60,81,71,21,19,12,7,0.9,0.7
2022-07-29T22:00:00,1105A,123.4678,41.7867,沈阳市,小河沿,,26,26,21,13,10,80,28,73,47,26,19,5,4,0.9,0.7
2022-07-29T22:00:00,1106A,123.4017,41.7972,沈阳市,太原街,,22,21,13,15,11,84,62,75,64,16,18,7,3,0.8,0.6
2022-07-29T22:00:00,1108A,123.3783,41.9228,沈阳市,京沈街,,23,23,19,15,11,94,60,87,67,23,17,9,7,1.2,0.7
2022-07-29T22:00:00,1109A,121.612,38.9741,大连市,甘井子,,,15,24,4,17,87,74,85,71,,17,4,4,0.4,0.6
2022-07-29T22:00:00,1110A,121.565,38.9511,大连市,周水子,,24,24,20,16,15,86,52,78,63,17,11,6,6,0.6,0.5
2022-07-29T22:00:00,1111A,121.5637,38.8845,大连市,星海三站,,27,17,19,18,19,108,84,108,94,17,21,7,7,0.3,0.3
2022-07-29T22:00:00,1112A,121.6302,38.9117,大连市,青泥洼桥,,,20,19,20,18,100,,82,66,18,14,6,6,0.5,0.6
2022-07-29T22:00:00,1113A,121.6251,38.8638,大连市,傅家庄,,24,19,23,11,13,96,75,90,83,3,5,8,8,0.6,0.6
2022-07-29T22:00:00,1114A,121.5213,38.8661,大连市,七贤岭,,27,18,20,10,11,113,84,101,95,10,10,8,7,0.6,0.8
2022-07-29T22:00:00,1115A,121.2529,38.8061,大连市,旅顺,,22,14,16,10,14,85,70,81,78,9,11,4,4,0.7,0.7
2022-07-29T22:00:00,1116A,121.7485,39.1311,大连市,金州,,26,26,21,17,15,89,35,89,57,17,12,4,5,0.3,0.5
2022-07-29T22:00:00,1117A,121.7811,39.0496,大连市,开发区,,23,21,22,16,17,104,65,99,81,25,16,9,11,0.7,0.8
2022-07-29T22:00:00,1118A,121.9762,39.0631,大连市,双D港,,17,14,21,8,17,98,52,84,60,12,16,8,8,0.4,0.4
2022-07-29T22:00:00,1119A,125.3325,43.9166,长春市,食品厂,,18,9,18,8,8,64,56,56,54,19,21,2,2,0.7,0.7
2022-07-29T22:00:00,1120A,125.2863,43.9027,长春市,客车厂,,20,12,20,6,10,72,62,65,62,16,19,3,3,0.5,0.5
2022-07-29T22:00:00,1121A,125.2841,43.8463,长春市,邮电学院,,15,13,21,6,11,72,46,64,56,11,14,4,4,0.3,0.4
2022-07-29T22:00:00,1122A,125.3716,43.8772,长春市,劳动公园,,19,7,17,6,11,76,58,70,66,13,12,3,2,0.4,0.4
2022-07-29T22:00:00,1123A,125.3297,43.8805,长春市,园林处,,17,12,17,9,10,61,53,59,56,15,17,2,2,0.5,0.5
2022-07-29T22:00:00,1124A,125.4605,43.79,长春市,净月潭,,11,9,15,4,6,84,35,68,58,3,3,4,4,0.2,0.2
2022-07-29T22:00:00,1125A,125.7194,43.515,长春市,甩湾子(对照点),,,,,,,,,,,,,,,,
2022-07-29T22:00:00,1126A,125.3863,43.8447,长春市,经开区环卫处,,17,6,17,2,6,76,53,67,61,13,15,2,3,0.4,0.5
2022-07-29T22:00:00,1127A,125.245,43.7783,长春市,高新区管委会,,17,11,16,0,9,71,53,66,61,10,12,4,3,0.4,0.4
2022-07-29T22:00:00,1128A,125.1761,43.8325,长春市,岱山公园,,18,12,18,7,12,68,55,61,54,14,22,4,4,0.4,0.5
2022-07-29T22:00:00,1129A,126.5422,45.755,哈尔滨市,岭北(对照点),,19,10,19,10,15,77,58,71,68,12,14,5,5,0.4,0.5
2022-07-29T22:00:00,1130A,126.561,45.8167,哈尔滨市,松北商大,,21,21,27,11,19,71,39,62,53,24,22,5,5,0.9,0.8
2022-07-29T22:00:00,1131A,126.979,45.5419,哈尔滨市,阿城会宁,,15,15,27,5,12,77,46,65,62,6,14,10,10,0.4,0.5
2022-07-29T22:00:00,1132A,126.599,45.7222,哈尔滨市,南岗学府路,,16,5,19,11,13,74,45,63,59,12,14,6,8,0.5,0.5
2022-07-29T22:00:00,1133A,126.689,45.7733,哈尔滨市,太平宏伟公园,,33,33,43,10,11,74,51,66,62,24,29,5,5,0.5,0.5
2022-07-29T22:00:00,1134A,126.635,45.7667,哈尔滨市,道外承德广场,,23,23,30,3,4,59,29,52,45,37,24,7,12,0.5,0.5
2022-07-29T22:00:00,1135A,126.685,45.7319,哈尔滨市,香坊红旗大街,,26,26,30,5,10,71,33,63,56,26,21,10,9,0.5,0.5
2022-07-29T22:00:00,1136A,126.6411,45.7258,哈尔滨市,动力和平路,,,18,30,,,71,35,62,57,23,19,6,7,0.6,0.6
2022-07-29T22:00:00,1137A,126.593,45.7478,哈尔滨市,道里建国路,,22,22,29,9,13,72,39,61,54,25,22,8,8,1.3,1.4
2022-07-29T22:00:00,1138A,126.615,45.61,哈尔滨市,平房东轻厂,,12,12,33,6,11,59,26,53,38,15,19,2,2,0.5,0.5
2022-07-29T22:00:00,1139A,126.595,45.9855,哈尔滨市,呼兰师专,,22,17,29,0,5,75,68,58,56,8,13,8,8,0.6,0.7
2022-07-29T22:00:00,1140A,126.6206,45.6842,哈尔滨市,省农科院,,18,14,21,8,10,70,8,61,47,35,15,8,8,0.3,0.4
2022-07-29T22:00:00,1141A,121.4,31.238,上海市,普陀,,19,19,18,12,8,53,35,52,38,12,11,3,2,0.3,0.3
2022-07-29T22:00:00,1142A,121.478,31.2036,上海市,十五厂,,22,20,22,15,12,40,28,38,29,14,14,1,2,0.5,0.5
2022-07-29T22:00:00,1143A,121.467,31.3008,上海市,虹口,,17,17,18,6,6,52,30,50,33,12,7,3,3,0.2,0.2
2022-07-29T22:00:00,1144A,121.412,31.1654,上海市,徐汇上师大,,18,18,20,8,8,52,32,46,34,15,13,2,2,0.4,0.4
2022-07-29T22:00:00,1145A,121.536,31.2659,上海市,杨浦四漂,,13,12,15,9,9,57,35,54,39,10,6,3,3,0.4,0.4
2022-07-29T22:00:00,1146A,120.978,31.0935,上海市,青浦淀山湖(对照点),,,,,,,,,,,,,,,,
2022-07-29T22:00:00,1147A,121.425,31.2261,上海市,静安监测站,,19,18,20,13,9,47,31,47,32,18,16,3,3,0.6,0.3
2022-07-29T22:00:00,1148A,121.703,31.1907,上海市,浦东川沙,,19,19,19,10,9,51,21,49,33,17,10,3,3,0.2,0.2
2022-07-29T22:00:00,1149A,121.533,31.2284,上海市,浦东新区监测站,,20,20,20,12,9,49,30,46,33,14,9,5,4,0.4,0.4
2022-07-29T22:00:00,1150A,121.577,31.2071,上海市,浦东张江,,17,17,10,9,8,48,27,45,30,15,12,4,3,0.6,0.6
2022-07-29T22:00:00,1151A,118.8086,32.1065,南京市,迈皋桥,,30,30,28,12,9,104,50,87,66,32,32,2,2,0.5,0.4
2022-07-29T22:00:00,1152A,118.7538,32.0551,南京市,草场门,,23,22,26,7,12,109,72,90,81,31,30,3,4,0.6,0.6
2022-07-29T22:00:00,1153A,118.7794,32.0745,南京市,山西路,,29,29,32,9,14,125,77,103,89,28,27,4,4,0.4,0.3
2022-07-29T22:00:00,1154A,118.7752,32.0023,南京市,中华门,,26,19,31,7,8,112,81,90,86,26,28,4,4,1.0,0.9
2022-07-29T22:00:00,1155A,118.8109,32.0309,南京市,瑞金路,,,20,29,,15,123,80,99,89,20,19,5,4,0.2,0.4
2022-07-29T22:00:00,1156A,118.7997,32.0754,南京市,玄武湖,,25,25,30,14,17,121,55,91,74,43,33,4,4,0.9,0.8
2022-07-29T22:00:00,1157A,118.6414,32.0931,南京市,浦口,,24,24,23,7,11,128,55,100,93,23,22,5,5,0.6,0.6
2022-07-29T22:00:00,1158A,118.7356,31.9996,南京市,奥体中心,,29,29,35,12,16,113,73,95,93,36,28,4,5,0.5,0.5
2022-07-29T22:00:00,1159A,118.9125,32.1028,南京市,仙林大学城,,27,27,27,7,15,129,60,105,82,29,23,6,7,0.6,0.7
2022-07-29T22:00:00,1160A,120.561,31.2472,苏州市,上方山(对照点),,35,35,30,11,14,89,18,76,59,21,12,6,6,0.4,0.4
2022-07-29T22:00:00,1161A,120.628,31.2864,苏州市,南门,,,,,,,,,,,,,,,,
2022-07-29T22:00:00,1162A,120.591,31.3019,苏州市,彩香,,26,26,19,8,8,88,11,71,53,18,6,5,5,0.4,0.4
2022-07-29T22:00:00,1163A,120.596,31.3264,苏州市,轧钢厂,,31,31,19,10,7,92,6,72,49,26,6,6,6,0.3,0.3
2022-07-29T22:00:00,1164A,120.613,31.2703,苏州市,吴中区,,26,26,21,9,7,96,14,76,54,21,13,5,5,0.4,0.4
2022-07-29T22:00:00,1165A,120.543,31.2994,苏州市,苏州新区,,20,20,14,6,8,100,17,79,61,18,12,7,7,0.5,0.5
2022-07-29T22:00:00,1166A,120.669,31.3097,苏州市,苏州工业园区,,23,23,18,12,8,88,10,66,45,26,10,5,4,0.6,0.5
2022-07-29T22:00:00,1167A,120.641,31.3708,苏州市,相城区,,27,27,20,10,13,97,8,72,42,26,14,5,4,0.4,0.3
2022-07-29T22:00:00,1168A,120.9098,31.9663,南通市,狼山街道,,34,34,18,5,3,109,49,75,49,8,10,8,8,0.4,0.4
2022-07-29T22:00:00,1169A,120.86,32.0005,南通市,虹桥,,36,36,18,12,6,109,39,70,44,12,11,10,9,0.5,0.5
2022-07-29T22:00:00,1170A,120.87,32.02,南通市,城中,,28,23,16,19,6,105,42,70,45,12,11,9,7,0.5,0.5
2022-07-29T22:00:00,1171A,120.94,31.93,南通市,星湖花园,,24,24,17,12,6,98,45,61,44,6,8,7,6,0.5,0.5
2022-07-29T22:00:00,1172A,120.81,32.0417,南通市,紫琅学院,,31,31,19,12,4,118,44,72,44,4,5,4,3,0.6,0.6
2022-07-29T22:00:00,1173A,119.176,34.5885,连云港市,市环境监测站,,13,5,15,5,9,111,41,92,68,11,9,3,1,0.8,0.5
2022-07-29T22:00:00,1177A,117.179,34.2761,徐州市,黄河新村,,49,48,30,34,20,102,66,88,83,24,18,6,6,0.9,0.7
2022-07-29T22:00:00,1178A,117.1918,34.2384,徐州市,淮塔,"颗粒物(PM10),细颗粒物(PM2.5)",52,53,33,36,23,91,58,84,79,18,15,5,5,0.6,0.5
2022-07-29T22:00:00,1180A,117.256,34.2153,徐州市,新城区,颗粒物(PM10),53,56,38,34,20,91,68,87,84,15,14,6,6,0.7,0.6
2022-07-29T22:00:00,1181A,117.244,34.2911,徐州市,桃园路,,,53,35,31,15,100,57,94,88,28,15,,10,0.7,0.8
2022-07-29T22:00:00,1182A,117.2933,34.2778,徐州市,农科院,,41,41,25,27,12,88,45,81,74,30,20,3,3,0.6,0.4
2022-07-29T22:00:00,1186A,119.389,32.3761,扬州市,邗江监测站,,34,34,30,14,14,197,57,141,101,14,11,7,7,0.8,0.8
2022-07-29T22:00:00,1188A,120.269,31.4867,无锡市,雪浪,,27,27,25,7,11,115,14,100,84,24,8,12,11,0.7,0.5
2022-07-29T22:00:00,1189A,120.275,31.6219,无锡市,黄巷,,34,34,30,5,10,138,23,115,86,23,22,9,8,0.6,0.6
2022-07-29T22:00:00,1190A,120.294,31.56,无锡市,曹张,,16,16,21,7,11,136,18,109,90,15,9,8,6,0.8,0.6
2022-07-29T22:00:00,1191A,120.242,31.5031,无锡市,漆塘,,,,28,,14,56,,80,,,15,,6,,0.6
2022-07-29T22:00:00,1192A,120.3489,31.5863,无锡市,东亭,,17,17,26,7,11,121,23,95,71,14,15,9,8,0.5,0.5
2022-07-29T22:00:00,1193A,120.354,31.5475,无锡市,旺庄,,18,18,22,12,10,132,15,101,73,24,20,14,11,0.8,0.7
2022-07-29T22:00:00,1194A,120.245,31.5631,无锡市,荣巷,,13,12,22,9,13,112,18,103,86,17,8,8,10,0.6,0.5
2022-07-29T22:00:00,1195A,120.299,31.6817,无锡市,堰桥,,34,34,29,5,9,141,25,107,82,9,10,7,6,0.5,0.6
2022-07-29T22:00:00,1196A,119.9633,31.762,常州市,市监测站,,,22,24,12,10,134,,115,88,42,22,8,9,0.6,0.5
2022-07-29T22:00:00,1200A,119.9468,31.7069,常州市,武进监测站,,20,18,24,11,13,127,62,118,95,24,14,12,11,1.1,0.8
2022-07-29T22:00:00,1201A,119.9255,31.9087,常州市,安家,,19,19,26,10,18,140,24,123,88,28,18,6,7,0.6,0.7
2022-07-29T22:00:00,1203A,119.6707,32.1875,镇江市,新区办事处,,22,22,30,10,16,166,33,123,85,17,25,5,4,0.5,0.7
2022-07-29T22:00:00,1204A,119.4974,32.1968,镇江市,职教中心,,30,30,28,12,14,180,65,141,102,20,21,4,4,0.6,0.7
2022-07-29T22:00:00,1205A,119.4303,32.1328,镇江市,丹徒区监测站,,25,25,30,17,19,170,79,143,116,15,18,5,5,0.7,0.7
2022-07-29T22:00:00,1206A,119.905,32.4878,泰州市,公园路,,14,14,21,7,12,113,34,103,82,7,11,7,9,0.4,0.6
2022-07-29T22:00:00,1207A,119.9189,32.4625,泰州市,莲花,,18,12,18,12,18,117,37,105,85,6,11,9,10,0.6,0.8
2022-07-29T22:00:00,1209A,119.888,32.4639,泰州市,留学生创业园,,17,17,23,7,14,128,38,116,92,6,12,8,9,0.6,0.7
2022-07-29T22:00:00,1210A,119.036,33.5981,淮安市,钵池山,,22,22,24,11,15,96,49,79,69,10,11,8,8,0.6,0.7
2022-07-29T22:00:00,1211A,119.007,33.575,淮安市,北京南路,,19,14,26,13,18,98,46,79,68,12,13,6,6,0.3,0.5
2022-07-29T22:00:00,1212A,118.989,33.6067,淮安市,市监测站,,17,14,26,4,12,89,53,77,69,11,15,6,6,0.6,0.7
2022-07-29T22:00:00,1213A,119.135,33.5039,淮安市,楚州区监测站,,15,15,25,5,14,99,48,89,73,12,12,8,8,0.4,0.5
2022-07-29T22:00:00,1214A,119.0186,33.6297,淮安市,淮阴区监测站,,19,19,26,8,15,88,48,75,66,11,13,7,8,0.5,0.6
2022-07-29T22:00:00,1215A,120.118,33.4022,盐城市,盐城电厂,,19,19,21,8,11,104,42,79,49,6,10,5,5,0.1,0.3
2022-07-29T22:00:00,1216A,120.156,33.3942,盐城市,市监测站,,22,22,18,2,4,104,41,79,45,5,9,4,3,0.2,0.3
2022-07-29T22:00:00,1218A,120.2144,33.38,盐城市,开发区管委会,,14,10,12,5,8,91,42,69,44,9,12,8,9,0.2,0.3
2022-07-29T22:00:00,1220A,118.293,33.9528,宿迁市,宿迁学院,,26,9,18,10,12,89,81,86,83,8,9,2,3,0.4,0.6
2022-07-29T22:00:00,1221A,118.2442,33.9592,宿迁市,宿迁中学,,20,11,20,8,12,81,62,77,68,8,10,1,2,0.5,0.6
2022-07-29T22:00:00,1223A,120.2072,30.2111,杭州市,滨江,,29,29,41,11,19,178,44,154,107,15,25,4,5,0.4,0.5
2022-07-29T22:00:00,1224A,120.0633,30.2747,杭州市,西溪,,24,24,35,5,17,160,41,143,99,14,18,8,9,0.5,0.6
2022-07-29T22:00:00,1225A,119.026,29.635,杭州市,千岛湖(对照点),,,,,,,,,,,,,,,,
2022-07-29T22:00:00,1226A,120.3461,30.3153,杭州市,下沙,,25,25,35,10,15,127,36,113,82,16,18,5,6,0.4,0.4
2022-07-29T22:00:00,1227A,120.1269,30.2456,杭州市,卧龙桥,,23,23,36,6,22,181,44,158,106,14,20,4,4,0.5,0.6
2022-07-29T22:00:00,1228A,120.1903,30.2692,杭州市,浙江农大,,21,21,35,10,19,164,45,142,101,13,23,3,5,0.6,0.6
2022-07-29T22:00:00,1229A,120.157,30.2897,杭州市,朝晖五区,,,,,,,,,,,,,,,,
2022-07-29T22:00:00,1230A,120.1197,30.3119,杭州市,和睦小学,,29,29,48,15,25,159,48,140,100,15,31,6,7,0.5,0.6
2022-07-29T22:00:00,1231A,120.3019,30.4183,杭州市,临平镇,,27,27,31,6,10,119,48,108,89,12,17,4,5,0.3,0.3
2022-07-29T22:00:00,1232A,120.2697,30.1819,杭州市,城厢镇,,32,32,45,14,24,157,34,136,92,23,26,6,7,0.5,0.6
2022-07-29T22:00:00,1233A,120.0883,30.1808,杭州市,云栖,,24,24,38,8,18,197,55,175,123,12,20,7,7,0.3,0.4
2022-07-29T22:00:00,1234A,121.8358,29.911,宁波市,区环保大楼,,20,20,16,8,9,67,10,55,32,32,12,8,8,0.5,0.6
2022-07-29T22:00:00,1235A,121.56,29.82,宁波市,万里学院,,18,18,17,7,9,71,35,61,46,9,6,9,9,0.6,0.6
2022-07-29T22:00:00,1236A,121.713,29.9572,宁波市,龙赛医院,,24,24,20,10,8,69,10,58,33,26,11,15,6,0.4,0.4
2022-07-29T22:00:00,1239A,121.633,29.7733,宁波市,钱湖水厂,,10,10,11,7,8,61,28,57,39,10,7,6,6,0.5,0.5
2022-07-29T22:00:00,1240A,121.5856,29.8635,宁波市,太古小学,,22,15,11,15,7,68,23,68,38,20,6,10,8,0.6,0.6
2022-07-29T22:00:00,1241A,121.524,29.8674,宁波市,市环境监测中心,,29,28,16,20,10,62,18,53,30,18,10,3,3,0.5,0.5
2022-07-29T22:00:00,1242A,120.634,28.0089,温州市,瓯海,,14,14,28,6,15,142,17,110,46,13,21,7,7,0.4,0.4
2022-07-29T22:00:00,1243A,120.6748,27.9939,温州市,南浦,,13,13,22,5,12,133,21,103,43,4,10,4,5,0.5,0.5
2022-07-29T22:00:00,1244A,120.76,27.9747,温州市,龙湾,,8,8,25,4,11,121,22,90,34,4,13,6,6,0.4,0.4
2022-07-29T22:00:00,1245A,120.6709,28.0167,温州市,市站,,20,20,27,0,12,138,19,104,41,14,19,5,6,0.4,0.5
2022-07-29T22:00:00,1246A,120.598,30.0911,绍兴市,袍江站,,,,,,,,,,,,,,,,
2022-07-29T22:00:00,1247A,120.6053,29.9928,绍兴市,城东开发委,,26,26,26,15,15,111,23,102,77,16,8,7,5,0.3,0.4
2022-07-29T22:00:00,1250A,120.0751,30.8669,湖州市,城西水厂,,17,17,24,4,11,108,27,96,70,23,24,5,5,0.4,0.4
2022-07-29T22:00:00,1252A,120.7436,30.778,嘉兴市,清河小学,,15,15,14,6,9,79,26,67,52,10,12,5,6,0.4,0.4
2022-07-29T22:00:00,1253A,120.726,30.7478,嘉兴市,嘉兴学院,,19,19,20,9,8,76,23,62,48,10,12,3,4,0.3,0.3
2022-07-29T22:00:00,1255A,121.273,28.6459,台州市,黄岩环保大楼,,17,17,20,7,11,79,20,59,34,7,9,5,5,0.4,0.4
2022-07-29T22:00:00,1256A,121.419,28.6542,台州市,台州环保大楼,,19,19,20,5,9,57,25,57,30,8,10,4,5,0.3,0.4
2022-07-29T22:00:00,1257A,121.377,28.5773,台州市,路桥田洋王,,17,17,19,6,12,68,28,60,34,7,12,3,5,0.3,0.3
2022-07-29T22:00:00,1258A,122.122,30.0203,舟山市,定海檀枫,,15,15,18,5,6,45,34,40,39,5,7,1,2,0.3,0.4
2022-07-29T22:00:00,1259A,122.3094,29.9558,舟山市,普陀东港,,17,17,14,7,8,50,22,50,41,22,16,3,3,0.3,0.4
2022-07-29T22:00:00,1260A,122.19,29.9944,舟山市,临城新区,,19,19,16,6,6,48,34,48,40,8,9,3,3,0.3,0.3
2022-07-29T22:00:00,1261A,119.649,29.1131,金华市,四中(停运161031),,,,,,,,,,,,,,,,
2022-07-29T22:00:00,1262A,119.647,29.077,金华市,十五中,,40,38,35,28,21,188,123,160,151,17,16,6,5,0.5,0.4
2022-07-29T22:00:00,1263A,119.686,29.1029,金华市,监测站,,46,46,37,20,18,180,119,168,147,17,14,7,6,0.6,0.5
2022-07-29T22:00:00,1264A,118.8692,28.9398,衢州市,环保大楼,颗粒物(PM10),52,53,46,24,27,169,57,155,115,20,16,8,7,0.4,0.5
2022-07-29T22:00:00,1265A,118.8709,28.9666,衢州市,实验学校,,35,35,34,15,17,199,61,170,127,27,18,5,5,0.5,0.5
2022-07-29T22:00:00,1266A,118.8621,28.9808,衢州市,衢州学院,,43,41,38,30,28,196,53,162,118,31,21,6,7,0.5,0.5
2022-07-29T22:00:00,1267A,119.914,28.4514,丽水市,监测站大楼,,22,22,28,14,20,108,55,103,94,10,13,6,6,0.4,0.4
2022-07-29T22:00:00,1268A,119.93,28.4586,丽水市,莲都小学,,20,20,30,8,13,118,58,109,101,8,12,6,6,0.4,0.4
2022-07-29T22:00:00,1269A,119.879,28.4231,丽水市,余庄前,,24,24,25,13,13,126,65,119,96,10,12,7,7,0.3,0.4
2022-07-29T22:00:00,1270A,117.1959,31.7848,合肥市,明珠广场,,31,31,26,9,16,131,48,110,95,55,31,5,5,0.6,0.6
2022-07-29T22:00:00,1271A,117.3072,31.8764,合肥市,三里街,,24,24,25,7,9,123,60,97,86,21,20,6,8,0.6,0.6
2022-07-29T22:00:00,1272A,117.2588,31.8707,合肥市,琥珀山庄,,27,27,23,17,15,134,77,108,98,14,16,6,6,0.7,0.7
2022-07-29T22:00:00,1273A,117.1604,31.9052,合肥市,董铺水库(对照点),,24,24,24,12,9,118,57,102,90,16,11,6,6,0.6,0.6
2022-07-29T22:00:00,1274A,117.25,31.8571,合肥市,长江中路,,36,36,29,22,19,133,77,106,99,9,13,5,5,0.7,0.6
2022-07-29T22:00:00,1275A,117.266,31.9436,合肥市,庐阳区,,32,31,27,22,17,129,61,108,92,24,14,5,5,0.5,0.5
2022-07-29T22:00:00,1276A,117.336,31.8586,合肥市,瑶海区,,31,31,27,13,13,124,72,97,91,16,18,9,8,0.5,0.5
2022-07-29T22:00:00,1277A,117.3027,31.7964,合肥市,包河区,,35,34,23,24,17,122,28,97,76,56,27,8,7,0.5,0.6
2022-07-29T22:00:00,1278A,117.2776,31.7385,合肥市,滨湖新区,,48,48,24,14,14,120,68,100,93,17,17,7,7,0.5,0.5
2022-07-29T22:00:00,1279A,117.1318,31.8403,合肥市,高新区,,29,29,24,14,15,132,75,118,100,18,14,5,4,0.3,0.5
2022-07-29T22:00:00,1280A,119.3903,26.0543,福州市,鼓山(对照点),,,,,,,,,,,,,,,,
2022-07-29T22:00:00,1282A,119.2681,26.0504,福州市,师大,,46,46,46,7,18,206,69,161,106,19,13,4,4,0.3,0.3
2022-07-29T22:00:00,1283A,119.2984,26.1028,福州市,五四北路,,38,38,33,12,22,193,59,159,108,30,14,4,4,0.3,0.4
2022-07-29T22:00:00,1284A,119.2648,26.0768,福州市,杨桥西路,,40,40,41,13,21,196,58,158,109,19,11,5,4,0.3,0.4
2022-07-29T22:00:00,1285A,119.317,26.0746,福州市,紫阳,颗粒物(PM10),51,51,40,14,22,180,42,149,100,31,13,6,5,0.3,0.4
2022-07-29T22:00:00,1286A,118.1608,24.8169,厦门市,溪东(对照点),,,,,,,,,,,,,,,,
2022-07-29T22:00:00,1287A,118.1514,24.4767,厦门市,洪文,,27,27,28,18,17,151,44,119,93,38,22,3,3,0.3,0.3
2022-07-29T22:00:00,1288A,118.0661,24.4444,厦门市,鼓浪屿,,43,35,26,30,19,141,40,99,78,44,25,5,3,0.9,0.7
2022-07-29T22:00:00,1290A,115.8931,28.6843,南昌市,省外办,,30,19,29,4,8,153,95,132,117,8,12,3,5,0.4,0.5
2022-07-29T22:00:00,1291A,115.8886,28.7003,南昌市,省林业公司,,29,0,17,0,4,154,90,132,116,9,15,2,4,0.4,0.5
2022-07-29T22:00:00,1292A,115.8126,28.7442,南昌市,林科所,,31,2,14,0,10,142,98,123,112,2,6,4,4,0.5,0.6
2022-07-29T22:00:00,1294A,115.8518,28.687,南昌市,建工学校,,32,20,24,22,15,155,86,129,110,8,10,4,5,0.4,0.5
2022-07-29T22:00:00,1295A,115.8921,28.6424,南昌市,象湖,,26,26,34,0,5,156,77,125,105,12,13,3,4,0.5,0.6
2022-07-29T22:00:00,1296A,115.7423,28.7996,南昌市,武术学校(对照点),,24,7,19,15,15,111,76,94,79,2,3,4,6,0.5,0.6
2022-07-29T22:00:00,1298A,115.9314,28.6842,南昌市,省站,,44,44,30,14,13,151,87,126,111,7,8,5,5,0.6,0.7
2022-07-29T22:00:00,1299A,116.9862,36.6114,济南市,科干所,,30,17,29,17,20,123,96,101,93,8,15,2,2,0.6,0.7
2022-07-29T22:00:00,1300A,116.9376,36.665,济南市,农科所,,20,20,34,12,17,145,24,105,59,22,25,4,5,0.4,0.4
2022-07-29T22:00:00,1301A,117.1265,36.6734,济南市,开发区,,25,24,33,14,20,127,78,99,86,16,23,2,3,0.5,0.6
2022-07-29T22:00:00,1303A,117.0624,36.6868,济南市,省种子仓库,,29,29,42,15,23,131,67,106,87,16,20,1,2,0.5,0.6
2022-07-29T22:00:00,1304A,116.9489,36.6447,济南市,机床二厂,,37,37,44,15,19,153,65,113,86,20,18,3,4,0.5,0.5
2022-07-29T22:00:00,1305A,117.0495,36.663,济南市,市监测站,,30,15,32,12,10,134,96,106,97,8,16,4,5,0.6,0.7
2022-07-29T22:00:00,1306A,116.7675,36.5484,济南市,长清党校,,29,29,34,20,22,166,46,127,91,26,27,5,5,0.6,0.6
2022-07-29T22:00:00,1307A,120.6659,36.2403,青岛市,仰口(对照点),,,,,,,,,,,,,,,,
2022-07-29T22:00:00,1308A,120.3905,36.1851,青岛市,李沧区子站,,,,,,,,,,,,,,,,
2022-07-29T22:00:00,1309A,120.3471,36.0699,青岛市,市北区子站,,,,,,,,,,,,,,,,
2022-07-29T22:00:00,1310A,120.4134,36.0658,青岛市,市南区东部子站,,17,17,18,9,7,101,35,92,66,11,12,5,6,0.3,0.4
2022-07-29T22:00:00,1311A,120.3664,36.1032,青岛市,四方区子站,,10,9,24,0,9,96,32,91,60,10,22,5,5,0.4,0.5
2022-07-29T22:00:00,1312A,120.2994,36.054,青岛市,市南区西部子站,,17,17,23,5,7,104,36,98,67,11,23,7,7,0.3,0.5
2022-07-29T22:00:00,1313A,120.4581,36.0858,青岛市,崂山区子站,,17,17,18,5,6,110,48,99,78,7,13,5,5,0.1,0.2
2022-07-29T22:00:00,1314A,120.1983,35.9608,青岛市,黄岛区子站,,17,17,28,10,13,111,51,99,83,10,37,4,7,0.4,0.6
2022-07-29T22:00:00,1315A,120.3999,36.3083,青岛市,城阳区子站,,24,24,26,14,11,103,35,94,68,18,17,5,5,0.6,0.6
2022-07-29T22:00:00,1316A,113.69031,34.76122,郑州市,烟厂,,32,29,33,22,19,138,101,131,122,20,17,4,4,0.6,0.6
2022-07-29T22:00:00,1317A,113.65724,34.77134,郑州市,郑纺机,,,30,29,,,136,109,129,122,9,11,5,5,0.6,0.6
2022-07-29T22:00:00,1318A,113.67526,34.80246,郑州市,银行学校,,37,37,31,17,16,137,106,130,122,16,18,3,3,0.6,0.5
2022-07-29T22:00:00,1319A,113.56746,34.81334,郑州市,供水公司,,39,31,33,27,19,154,122,144,136,10,8,5,5,0.6,0.6
2022-07-29T22:00:00,1320A,113.7329,34.7178,郑州市,经开区管委,,40,40,29,21,18,134,98,130,120,18,24,2,2,0.5,0.5
2022-07-29T22:00:00,1321A,113.73961,34.77172,郑州市,四十七中,,43,43,34,16,12,138,106,134,127,18,23,5,5,0.6,0.6
2022-07-29T22:00:00,1322A,113.60532,34.74838,郑州市,市监测站,,,35,37,,,145,112,140,131,18,24,3,3,0.7,0.7
2022-07-29T22:00:00,1323A,113.64164,34.7525,郑州市,河医大,,34,32,33,17,15,131,107,124,118,18,21,2,3,0.7,0.7
2022-07-29T22:00:00,1324A,113.51488,34.91089,郑州市,岗李水库(对照点),,,,,,,,,,,,,,,,
2022-07-29T22:00:00,1325A,114.3677,30.5584,武汉市,东湖梨园,,26,26,29,7,14,127,79,118,104,9,14,7,8,0.6,0.8
2022-07-29T22:00:00,1326A,114.2529,30.558,武汉市,汉阳月湖,,26,26,25,14,11,136,76,124,108,19,17,5,5,0.6,0.6
2022-07-29T22:00:00,1327A,114.282,30.6189,武汉市,汉口花桥,,27,27,24,15,14,125,80,113,101,11,13,7,7,0.5,0.5
2022-07-29T22:00:00,1328A,114.3025,30.5332,武汉市,武昌紫阳,,29,29,34,13,13,148,65,126,106,18,20,5,5,0.8,0.9
2022-07-29T22:00:00,1329A,114.3646,30.6217,武汉市,青山钢花,,26,26,24,17,18,113,64,105,89,20,13,5,4,0.4,0.6
2022-07-29T22:00:00,1330A,114.1566,30.4825,武汉市,沌口新区,,36,36,34,8,19,156,66,138,116,24,23,5,6,0.7,0.7
2022-07-29T22:00:00,1331A,114.3014,30.5944,武汉市,汉口江滩,,29,29,27,18,13,115,80,104,95,9,16,6,6,0.6,0.6
2022-07-29T22:00:00,1333A,114.135,30.6319,武汉市,吴家山,,33,33,26,17,12,122,81,114,102,12,11,4,3,0.7,0.7
2022-07-29T22:00:00,1334A,113.8454,30.2917,武汉市,沉湖七壕(对照点),,27,27,19,17,8,122,84,108,106,9,11,7,8,0.7,0.7
2022-07-29T22:00:00,1335A,113.0833,28.2325,长沙市,经开区环保局,,31,31,16,14,22,138,35,87,56,23,15,4,5,0.6,0.5
2022-07-29T22:00:00,1336A,112.8872,28.2189,长沙市,高开区环保局,,27,27,18,14,17,121,26,88,61,35,24,7,8,0.3,0.3
2022-07-29T22:00:00,1337A,113.0792,28.2053,长沙市,马坡岭,,,22,22,12,18,125,,87,64,24,16,9,8,0.7,0.6
2022-07-29T22:00:00,1338A,112.9394,28.19,长沙市,湖南师范大学,,28,28,25,12,9,113,20,83,55,26,14,4,4,0.5,0.4
2022-07-29T22:00:00,1339A,113.0178,28.1322,长沙市,雨花区环保局,,20,20,21,10,12,123,28,83,56,38,20,5,5,0.3,0.3
2022-07-29T22:00:00,1340A,112.9792,28.2597,长沙市,伍家岭,,23,21,21,16,18,126,26,85,50,26,19,2,3,0.4,0.3
2022-07-29T22:00:00,1341A,113.0014,28.1944,长沙市,火车新站,,23,23,19,15,17,113,36,84,52,28,20,5,6,0.4,0.4
2022-07-29T22:00:00,1342A,112.9844,28.1178,长沙市,天心区环保局,,32,32,28,17,17,110,22,80,46,31,21,2,2,0.6,0.5
2022-07-29T22:00:00,1343A,112.8908,28.1308,长沙市,湖南中医药大学,,29,29,25,20,21,117,10,79,48,41,19,1,2,0.6,0.5
2022-07-29T22:00:00,1344A,112.9581,28.3611,长沙市,沙坪(对照点),,14,14,23,8,15,116,35,78,50,10,11,4,5,0.5,0.5
2022-07-29T22:00:00,1345A,113.2347,23.1423,广州市,广雅中学,颗粒物(PM10),57,64,61,30,34,240,124,219,196,31,27,5,6,0.8,0.8
2022-07-29T22:00:00,1346A,113.2612,23.105,广州市,市五中,细颗粒物(PM2.5),59,64,53,42,38,264,121,244,209,29,22,6,6,0.8,0.7
2022-07-29T22:00:00,1348A,113.3478,23.0916,广州市,广东商学院,颗粒物(PM10),54,57,54,32,33,261,108,227,197,36,29,4,5,0.7,0.7
2022-07-29T22:00:00,1349A,113.4332,23.1047,广州市,市八十六中,颗粒物(PM10),59,67,66,29,33,300,90,254,209,54,36,5,6,0.6,0.7
2022-07-29T22:00:00,1350A,113.3505,22.9483,广州市,番禺中学,颗粒物(PM10),51,52,55,27,33,264,101,238,201,31,18,10,10,0.8,0.7
2022-07-29T22:00:00,1351A,113.2146,23.3916,广州市,花都师范,颗粒物(PM10),54,58,54,35,33,173,123,160,153,34,26,6,7,0.8,0.7
2022-07-29T22:00:00,1352A,113.2597,23.1331,广州市,市监测站,颗粒物(PM10),59,68,57,41,35,259,120,233,206,30,19,5,5,0.8,0.8
2022-07-29T22:00:00,1353A,113.5618,23.312,广州市,九龙镇镇龙,细颗粒物(PM2.5),68,75,80,49,46,235,92,210,171,57,37,7,7,0.7,0.8
2022-07-29T22:00:00,1354A,113.2765,23.1544,广州市,麓湖,颗粒物(PM10),54,57,54,36,33,258,117,222,186,30,23,4,5,0.7,0.7
2022-07-29T22:00:00,1355A,113.443,23.3035,广州市,帽峰山森林公园(对照点),,,54,50,30,33,240,120,184,156,,22,6,5,0.5,0.8
2022-07-29T22:00:00,1356A,114.1063,22.5545,深圳市,通心岭子站,颗粒物(PM10),54,57,38,36,24,206,30,156,92,48,20,3,3,1.0,0.8
2022-07-29T22:00:00,1357A,114.117,22.5625,深圳市,洪湖,颗粒物(PM10),63,75,45,34,25,216,30,162,78,62,28,8,8,0.9,0.7
2022-07-29T22:00:00,1358A,113.987,22.5417,深圳市,华侨城,颗粒物(PM10),60,69,46,38,27,161,72,145,122,26,25,5,5,0.7,0.7
2022-07-29T22:00:00,1359A,113.9181,22.5171,深圳市,南海子站,细颗粒物(PM2.5),67,57,48,48,31,213,61,161,128,43,29,6,5,0.8,0.7
2022-07-29T22:00:00,1360A,114.2458,22.5689,深圳市,盐田,二氧化氮,67,43,32,30,23,206,7,166,109,134,34,9,4,0.9,0.8
2022-07-29T22:00:00,1361A,114.2283,22.7244,深圳市,龙岗,颗粒物(PM10),66,81,52,41,30,217,22,175,112,101,34,5,5,0.8,0.6
2022-07-29T22:00:00,1362A,113.8953,22.5861,深圳市,西乡,,,,,,,,,,,,,,,,
2022-07-29T22:00:00,1363A,114.494,22.5422,深圳市,南澳,,36,36,33,24,27,178,78,149,120,17,14,8,8,0.2,0.4
2022-07-29T22:00:00,1364A,114.41,22.6342,深圳市,葵涌,,46,46,37,27,22,152,74,136,119,24,21,8,8,0.6,0.6
2022-07-29T22:00:00,1365A,114.297,22.5978,深圳市,梅沙,,45,45,36,28,21,183,70,165,132,31,38,7,7,0.4,0.3
2022-07-29T22:00:00,1366A,114.0678,22.738,深圳市,观澜,,49,39,56,34,30,245,78,175,132,23,24,8,8,0.7,0.4
2022-07-29T22:00:00,1367A,113.5814,22.2618,珠海市,吉大,,49,41,35,34,25,152,101,136,121,7,9,8,9,0.6,0.7
2022-07-29T22:00:00,1368A,113.4881,22.2335,珠海市,前山,,38,33,31,26,19,160,102,131,112,16,17,9,10,0.4,0.4
2022-07-29T22:00:00,1369A,113.628,22.4251,珠海市,唐家,,40,36,31,28,24,185,110,158,146,8,7,6,7,0.5,0.5
2022-07-29T22:00:00,1370A,113.299,22.2281,珠海市,斗门,,39,33,35,27,22,162,99,135,119,9,7,6,5,0.6,0.6
2022-07-29T22:00:00,1371A,113.1294,23.0067,佛山市,湾梁,颗粒物(PM10),59,68,55,35,32,235,115,202,182,28,15,5,6,0.5,0.4
2022-07-29T22:00:00,1372A,113.1083,23.0478,佛山市,华材职中,颗粒物(PM10),60,70,56,36,34,223,116,194,167,21,18,5,7,0.4,0.4
2022-07-29T22:00:00,1373A,113.144,23.0453,佛山市,南海气象局,颗粒物(PM10),66,82,54,42,35,227,107,200,176,35,18,5,5,0.8,0.7
2022-07-29T22:00:00,1374A,113.2881,22.8094,佛山市,顺德苏岗,细颗粒物(PM2.5),62,60,40,44,30,212,104,194,166,17,17,5,6,0.9,0.7
2022-07-29T22:00:00,1375A,113.2544,22.7642,佛山市,容桂街道办,,,,,,,,,,,,,,,,
2022-07-29T22:00:00,1376A,112.8383,22.8678,佛山市,高明孔堂,,,34,47,,57,153,111,137,131,10,10,6,7,0.6,0.6
2022-07-29T22:00:00,1377A,112.8836,23.1588,佛山市,三水监测站,颗粒物(PM10),58,66,64,33,38,210,70,174,142,29,28,7,7,0.5,0.5
2022-07-29T22:00:00,1378A,112.867,23.185,佛山市,三水云东海,颗粒物(PM10),51,52,60,31,40,195,52,161,132,35,27,5,10,0.5,0.5
2022-07-29T22:00:00,1379A,113.3769,22.5211,中山市,华柏园,颗粒物(PM10),55,59,46,32,27,204,114,175,149,10,9,2,2,0.7,0.5
2022-07-29T22:00:00,1380A,113.3881,22.5497,中山市,张溪,颗粒物(PM10),61,71,54,29,34,192,115,174,151,12,14,3,4,0.9,0.8
2022-07-29T22:00:00,1381A,113.4075,22.5111,中山市,紫马岭,颗粒物(PM10),51,52,45,30,26,216,113,180,158,16,13,7,7,1.0,0.9
2022-07-29T22:00:00,1382A,113.4411,22.4853,中山市,长江旅游区(对照点),细颗粒物(PM2.5),57,56,40,40,31,193,93,173,152,9,9,2,3,0.6,0.6
2022-07-29T22:00:00,1383A,113.1064,22.6058,江门市,北街,颗粒物(PM10),53,56,42,28,25,190,61,167,132,20,10,4,5,0.9,0.7
2022-07-29T22:00:00,1384A,113.0731,22.5835,江门市,西区,颗粒物(PM10),60,69,46,36,29,178,71,162,131,28,14,6,6,0.8,0.6
2022-07-29T22:00:00,1385A,113.0219,22.5311,江门市,圭峰西,颗粒物(PM10),52,54,45,31,29,176,74,152,138,20,10,4,5,0.6,0.5
2022-07-29T22:00:00,1386A,113.0828,22.5947,江门市,东湖,颗粒物(PM10),52,54,49,31,27,176,60,163,125,21,12,5,6,0.9,0.6
2022-07-29T22:00:00,1387A,113.7875,23.0457,东莞市,东城主山,,,,,,,,,,,,,,,,
2022-07-29T22:00:00,1388A,113.7533,23.0202,东莞市,南城元岭,,,,,,,,,,,,,,,,
2022-07-29T22:00:00,1389A,113.7547,23.0494,东莞市,莞城梨川,颗粒物(PM10),53,55,58,28,32,312,112,249,208,28,25,8,9,0.5,0.6
2022-07-29T22:00:00,1390A,113.7944,23.0128,东莞市,东城石井,,47,47,51,29,30,311,89,269,214,34,24,6,7,0.7,0.7
2022-07-29T22:00:00,1391A,113.7383,22.9658,东莞市,南城西平,,50,49,50,35,42,263,104,240,204,33,22,8,8,0.9,0.9
2022-07-29T22:00:00,1392A,114.4183,23.0528,惠州市,河南岸金山湖子站,颗粒物(PM10),59,67,62,28,31,220,62,186,137,26,20,5,4,0.7,0.5
2022-07-29T22:00:00,1393A,114.4053,23.0822,惠州市,下埔横江三路子站,,50,50,55,18,29,217,85,196,152,23,18,5,3,0.6,0.5
2022-07-29T22:00:00,1394A,114.4103,23.1142,惠州市,江北云山西路子站,,45,45,48,27,28,225,102,208,164,7,6,5,6,0.5,0.5
2022-07-29T22:00:00,1395A,114.4645,22.7833,惠州市,惠阳区承修路船湖子站,,41,41,49,20,28,224,79,194,146,28,24,8,5,0.6,0.6
2022-07-29T22:00:00,1396A,114.5317,22.7422,惠州市,大亚湾管委会子站,,48,48,43,23,22,202,66,169,123,31,25,8,6,0.5,0.5
2022-07-29T22:00:00,1397A,112.4267,23.0706,肇庆市,睦岗子站,颗粒物(PM10),55,59,49,32,30,146,46,135,110,56,24,10,11,0.6,0.5
2022-07-29T22:00:00,1398A,112.4645,23.0475,肇庆市,城中子站,,47,47,51,24,31,152,68,134,110,50,29,12,15,0.7,0.7
2022-07-29T22:00:00,1399A,112.5544,23.1522,肇庆市,坑口子站,,35,30,38,24,27,137,90,124,111,18,10,2,4,0.4,0.4
2022-07-29T22:00:00,1400A,112.4753,23.1,肇庆市,七星岩子站(对照点),,,,,,,,,,,,,,,,
2022-07-29T22:00:00,1401A,108.3103,22.7881,南宁市,二十一中,,,,43,,30,71,,65,,,17,,7,,0.5
2022-07-29T22:00:00,1402A,108.3141,22.8528,南宁市,北湖,"颗粒物(PM10),细颗粒物(PM2.5)",67,84,53,48,25,184,74,159,136,17,16,6,8,0.8,0.6
2022-07-29T22:00:00,1403A,108.3206,22.8225,南宁市,市监测站,细颗粒物(PM2.5),75,66,48,55,29,160,55,138,111,37,24,7,8,0.7,0.6
2022-07-29T22:00:00,1404A,108.3829,22.8037,南宁市,大自然花园,颗粒物(PM10),60,70,48,37,44,162,60,151,124,26,19,8,9,0.7,1
2022-07-29T22:00:00,1405A,108.4394,22.7904,南宁市,仙葫(对照点),细颗粒物(PM2.5),67,80,47,48,24,164,56,140,117,25,15,7,8,0.7,0.6
2022-07-29T22:00:00,1406A,108.2397,22.8467,南宁市,区农职院,细颗粒物(PM2.5),62,68,47,44,26,192,72,149,129,28,21,9,10,0.8,0.6
2022-07-29T22:00:00,1407A,108.3275,22.735,南宁市,英华嘉园,细颗粒物(PM2.5),70,66,45,51,21,123,53,102,78,29,24,8,7,0.7,0.6
2022-07-29T22:00:00,1408A,108.2257,22.7757,南宁市,沙井镇街道办,颗粒物(PM10),67,83,59,38,24,136,37,124,92,48,25,9,10,0.8,0.6
2022-07-29T22:00:00,1409A,110.576,19.9507,海口市,东寨港(对照点),,,,31,5,14,99,50,87,73,,,4,6,0.3,0.3
2022-07-29T22:00:00,1410A,110.3232,20.0574,海口市,海南大学,,28,28,20,16,11,94,48,78,60,7,9,6,6,0.5,0.5
2022-07-29T22:00:00,1411A,110.283,20.0053,海口市,秀英海南医院,,,,,,,,,,,,,,,,
2022-07-29T22:00:00,1412A,110.338,19.9969,海口市,海南师范大学,,35,35,25,23,11,93,57,80,61,13,11,3,4,0.4,0.4
2022-07-29T22:00:00,1413A,110.33,20.0356,海口市,龙华路环保局宿舍,,30,28,18,21,9,94,67,82,67,10,8,3,3,0.5,0.4
2022-07-29T22:00:00,1414A,106.3787,29.8279,重庆市,缙云山(对照点),,46,15,17,9,10,201,145,187,173,7,12,4,5,0.2,0.3
2022-07-29T22:00:00,1416A,106.4213,29.8253,重庆市,天生,,44,44,43,14,24,192,70,173,149,31,27,6,5,0.6,0.7
2022-07-29T22:00:00,1417A,106.6263,29.7228,重庆市,两路,,40,40,34,27,19,210,58,162,134,60,38,7,7,0.8,0.7
2022-07-29T22:00:00,1418A,106.2953,29.5983,重庆市,虎溪,,43,43,44,19,23,228,75,210,182,60,40,6,6,0.7,0.7
2022-07-29T22:00:00,1419A,106.5777,29.5102,重庆市,南坪,,44,36,39,20,20,249,138,233,214,10,24,2,6,0.5,0.7
2022-07-29T22:00:00,1420A,106.6556,29.6277,重庆市,唐家沱,,34,33,29,11,10,257,62,214,177,67,43,5,7,0.6,0.8
2022-07-29T22:00:00,1421A,106.6349,29.4906,重庆市,茶园,,50,50,59,19,23,242,67,228,191,79,57,6,8,0.7,0.7
2022-07-29T22:00:00,1422A,106.3754,29.4572,重庆市,白市驿,细颗粒物(PM2.5),52,29,46,36,24,241,125,208,200,17,21,4,9,0.7,0.8
2022-07-29T22:00:00,1425A,106.6205,29.7166,重庆市,空港,颗粒物(PM10),51,52,42,23,21,223,78,179,150,36,22,5,8,0.8,0.7
2022-07-29T22:00:00,1426A,106.4782,29.4875,重庆市,新山村,,46,46,50,12,23,234,79,208,188,60,59,5,8,0.7,0.8
2022-07-29T22:00:00,1427A,106.5616,29.6453,重庆市,礼嘉,,41,41,39,17,12,260,61,202,177,64,63,12,8,0.5,0.7
2022-07-29T22:00:00,1428A,106.4522,29.7091,重庆市,蔡家,,37,37,36,25,20,209,87,178,159,22,25,4,4,0.6,0.7
2022-07-29T22:00:00,1429A,106.5093,29.3917,重庆市,鱼新街,颗粒物(PM10),63,76,52,40,25,207,38,198,166,107,42,5,7,1.3,0.9
2022-07-29T22:00:00,1431A,103.9728,30.7236,成都市,金泉两河,,47,47,46,27,26,210,101,192,172,29,17,3,5,0.5,0.4
2022-07-29T22:00:00,1432A,104.1419,30.6764,成都市,十里店,,47,47,52,28,31,261,124,224,204,18,24,2,4,0.6,0.6
2022-07-29T22:00:00,1433A,104.0594,30.5767,成都市,三瓦窑,,47,44,52,29,30,250,150,210,194,19,50,1,2,0.4,0.6
2022-07-29T22:00:00,1434A,104.1122,30.6306,成都市,沙河铺,,41,40,48,25,25,263,130,225,205,18,23,2,3,0.5,0.6
2022-07-29T22:00:00,1437A,104.0431,30.6556,成都市,君平街,,45,45,55,29,33,256,136,219,202,25,23,5,7,0.6,0.6
2022-07-29T22:00:00,1438A,103.6202,31.0201,成都市,灵岩寺(对照点),,46,41,26,28,17,177,146,157,157,4,2,5,9,0.7,0.7
2022-07-29T22:00:00,1439A,106.6899,26.5998,贵阳市,马鞍山,,31,31,29,19,17,163,49,134,116,21,15,5,5,0.7,0.7
2022-07-29T22:00:00,1440A,106.6971,26.5694,贵阳市,市环保站,,41,41,34,17,21,176,69,146,132,32,24,5,5,0.5,0.4
2022-07-29T22:00:00,1441A,106.6243,26.6266,贵阳市,鉴湖路,,25,24,35,12,21,147,79,131,121,18,23,4,4,0.2,0.6
2022-07-29T22:00:00,1442A,106.7487,26.6343,贵阳市,燕子冲,,28,19,32,19,23,159,61,129,117,14,17,5,7,0.7,0.7
2022-07-29T22:00:00,1443A,106.6555,26.4365,贵阳市,碧云窝,颗粒物(PM10),67,83,40,27,17,164,66,141,122,25,19,4,4,0.4,0.4
2022-07-29T22:00:00,1444A,106.694,26.5161,贵阳市,中院村,,44,44,35,17,16,172,61,147,129,33,15,2,2,0.5,0.5
2022-07-29T22:00:00,1445A,106.7109,26.6027,贵阳市,红边门,,41,41,38,27,26,182,54,146,128,39,30,5,5,0.5,0.5
2022-07-29T22:00:00,1446A,106.7164,26.5699,贵阳市,新华路,,32,27,30,22,23,183,57,148,133,37,18,5,5,0.4,0.4
2022-07-29T22:00:00,1447A,106.674,26.5424,贵阳市,太慈桥,,36,36,29,14,13,167,26,141,116,47,16,5,6,0.6,0.4
2022-07-29T22:00:00,1450A,102.8204,24.8886,昆明市,呈贡新区,,26,22,32,14,14,109,83,96,96,14,22,8,10,0.5,0.6
2022-07-29T22:00:00,1451A,102.6251,24.9608,昆明市,西山森林公园(对照点),,29,19,19,6,17,126,92,105,104,8,12,8,9,0.5,0.5
2022-07-29T22:00:00,1452A,102.7252,25.0902,昆明市,龙泉镇,,32,32,28,18,18,147,35,123,104,49,24,6,6,0.5,0.4
2022-07-29T22:00:00,1453A,102.7266,25.0375,昆明市,东风东路,,35,35,28,17,15,147,83,116,108,22,25,5,10,0.4,0.4
2022-07-29T22:00:00,1454A,102.6742,25.0669,昆明市,金鼎山,,25,23,38,14,24,141,79,116,106,14,21,2,20,0.4,0.5
2022-07-29T22:00:00,1455A,102.6644,25.0401,昆明市,碧鸡广场,,30,30,31,12,15,135,79,111,104,19,24,6,11,0.5,0.6
2022-07-29T22:00:00,1456A,91.1319,29.6514,拉萨市,八廓街,,23,10,11,4,4,103,73,102,84,15,11,6,7,0.3,0.1
2022-07-29T22:00:00,1457A,91.1221,29.6747,拉萨市,市环保局,,21,21,10,6,3,99,66,94,77,26,14,6,6,0.4,0.2
2022-07-29T22:00:00,1458A,91.0874,29.6475,拉萨市,区监测站,,24,12,7,2,0,104,76,102,88,31,13,8,8,0.4,0.2
2022-07-29T22:00:00,1459A,91.1774,29.6541,拉萨市,西藏大学,,26,11,9,3,3,110,82,108,94,16,11,9,8,0.2,0.2
2022-07-29T22:00:00,1460A,90.9798,29.6588,拉萨市,区辐射站,,20,16,10,3,14,84,61,84,72,38,16,8,8,0.3,0.2
2022-07-29T22:00:00,1461A,91.0834,29.6292,拉萨市,拉萨火车站,,28,12,10,2,4,100,88,100,88,17,11,9,9,0.2,0.2
2022-07-29T22:00:00,1462A,108.882,34.2749,西安市,高压开关厂,颗粒物(PM10),51,51,63,27,29,218,106,179,154,26,27,7,8,0.5,0.5
2022-07-29T22:00:00,1463A,108.993,34.2629,西安市,兴庆小区,颗粒物(PM10),51,51,60,32,28,189,101,172,152,30,36,5,6,0.6,0.7
2022-07-29T22:00:00,1464A,109.06,34.2572,西安市,纺织城,颗粒物(PM10),53,55,61,27,33,181,80,162,141,41,37,6,6,0.5,0.5
2022-07-29T22:00:00,1465A,108.9356,34.2173,西安市,小寨,颗粒物(PM10),52,53,59,24,25,221,97,177,152,34,35,4,3,0.6,0.6
2022-07-29T22:00:00,1466A,108.954,34.2713,西安市,市人民体育场,颗粒物(PM10),51,52,63,26,28,203,107,177,156,25,29,5,5,0.5,0.6
2022-07-29T22:00:00,1467A,108.8922,34.2322,西安市,高新西区,,44,44,65,29,28,235,103,182,157,27,36,6,6,0.7,0.7
2022-07-29T22:00:00,1468A,108.935,34.3474,西安市,经开区,颗粒物(PM10),55,60,56,28,28,178,91,162,145,24,19,3,5,0.4,0.4
2022-07-29T22:00:00,1469A,108.906,34.1546,西安市,长安区,颗粒物(PM10),58,66,71,24,28,279,101,210,176,28,35,6,6,0.5,0.5
2022-07-29T22:00:00,1470A,109.2,34.6575,西安市,阎良区,,,,,,,,,,,,,,,,
2022-07-29T22:00:00,1471A,109.2186,34.3731,西安市,临潼区,颗粒物(PM10),54,57,57,29,26,169,101,157,143,19,25,2,3,0.4,0.4
2022-07-29T22:00:00,1472A,108.869,34.378,西安市,草滩(对照点),,45,36,53,31,29,153,83,140,127,23,23,8,8,0.8,0.8
2022-07-29T22:00:00,1473A,108.985,34.1978,西安市,曲江文化产业集团,,,31,63,,28,226,86,182,155,37,33,5,5,0.7,0.7
2022-07-29T22:00:00,1474A,109.051,34.3213,西安市,广运潭,颗粒物(PM10),60,70,64,33,31,169,81,151,136,29,27,11,7,0.8,0.7
2022-07-29T22:00:00,1476A,103.631,36.1031,兰州市,兰炼宾馆,颗粒物(PM10),52,53,37,32,19,196,126,168,162,20,17,6,12,0.2,0.3
2022-07-29T22:00:00,1477A,104.1373,35.9454,兰州市,榆中兰大校区(对照点),,,,,,,,,,,,,,,,
2022-07-29T22:00:00,1478A,103.8412,36.0726,兰州市,生物制品所,,40,40,36,26,21,225,67,192,164,28,22,6,10,0.7,0.9
2022-07-29T22:00:00,1479A,103.831,36.0464,兰州市,铁路设计院,,39,34,38,12,11,216,122,191,167,14,21,6,11,0.3,0.7
2022-07-29T22:00:00,1480A,101.748,36.6428,西宁市,市环境监测站,,,,,,,,,,,,,,,,
2022-07-29T22:00:00,1482A,101.834,36.5819,西宁市,四陆医院,,,,,,,,,,,,,,,,
2022-07-29T22:00:00,1483A,101.524,36.6867,西宁市,第五水厂(对照点),,,,,,,,,,,,,,,,
2022-07-29T22:00:00,1484A,105.9512,38.6016,银川市,贺兰山马莲口(对照点),,50,35,34,16,15,193,157,183,177,14,10,10,11,0.2,0.2
2022-07-29T22:00:00,1488A,106.2328,38.4975,银川市,贺兰山东路,颗粒物(PM10),60,70,38,17,13,224,119,196,190,21,16,10,12,0.5,0.5
2022-07-29T22:00:00,1489A,106.1358,38.5036,银川市,学院路,颗粒物(PM10),55,60,49,28,17,194,111,176,170,21,16,9,15,0.5,0.4
2022-07-29T22:00:00,1490A,87.5801,43.8303,乌鲁木齐市,监测站,,33,25,41,12,13,124,104,118,118,27,31,5,6,0.3,0.3
2022-07-29T22:00:00,1491A,87.6046,43.768,乌鲁木齐市,收费所,,34,34,48,16,17,116,91,109,108,32,28,7,8,0.4,0.3
2022-07-29T22:00:00,1492A,87.4754,43.9469,乌鲁木齐市,新疆农科院农场(对照点),,50,50,75,10,14,116,90,110,108,14,25,7,7,0.6,0.6
2022-07-29T22:00:00,1493A,87.5525,43.8711,乌鲁木齐市,铁路局,,39,39,46,13,17,130,104,126,124,18,27,2,3,0.5,0.6
2022-07-29T22:00:00,1494A,87.6432,43.831,乌鲁木齐市,三十一中学,,31,31,47,9,10,130,99,123,121,21,17,5,6,0.3,0.3
2022-07-29T22:00:00,1496A,87.7216,44.1747,乌鲁木齐市,米东区环保局,颗粒物(PM10),52,54,61,12,17,124,83,115,112,14,18,3,5,0.2,0.3
2022-07-29T22:00:00,1508A,112.9433,27.8614,湘潭市,板塘,,25,25,33,13,15,109,22,83,54,47,22,4,4,0.4,0.4
2022-07-29T22:00:00,1511A,112.9118,27.8403,湘潭市,市监测站,,22,22,22,14,17,115,28,82,53,35,18,5,5,0.6,0.6
2022-07-29T22:00:00,1512A,112.8937,27.8728,湘潭市,江麓,,33,31,32,23,16,90,23,67,51,33,16,7,7,0.6,0.6
2022-07-29T22:00:00,1513A,112.9227,27.8159,湘潭市,岳塘,,34,34,36,16,17,105,18,78,58,38,19,21,23,0.7,0.8
2022-07-29T22:00:00,1514A,112.9074,27.9119,湘潭市,科大,,33,33,35,13,13,97,28,70,50,38,21,2,3,0.6,0.5
2022-07-29T22:00:00,1515A,113.135,27.8244,株洲市,天台山庄,,,17,21,,15,103,58,80,63,19,19,5,4,0.3,0.5
2022-07-29T22:00:00,1518A,113.095,27.8867,株洲市,株冶医院,,19,9,18,12,16,122,29,82,60,38,22,4,5,0.5,0.5
2022-07-29T22:00:00,1519A,113.167,27.8667,株洲市,市四中,,25,24,22,17,15,109,30,86,62,44,23,5,3,0.6,0.5
2022-07-29T22:00:00,1520A,113.143,27.8381,株洲市,火车站,,22,19,27,15,24,126,39,94,70,42,24,6,5,0.4,0.3
2022-07-29T22:00:00,1524A,113.13,27.8528,株洲市,市监测站,,20,17,26,14,20,136,47,97,69,32,21,6,4,0.3,0.4
2022-07-29T22:00:00,1552A,106.805,26.3003,贵阳市,桐木岭(对照点),,,,,,,,,,,,,,,,
2022-07-29T22:00:00,1559A,113.251,27.8336,株洲市,大京风景区(对照点),,,6,10,,20,121,14,85,50,16,12,2,2,0.5,0.3
2022-07-29T22:00:00,1562A,113.0048,27.9153,湘潭市,昭山,,22,5,21,13,15,118,9,70,43,44,24,5,5,0.4,0.5
2022-07-29T22:00:00,1564A,112.4876,27.9164,湘潭市,韶山(对照点),,27,27,20,2,8,56,15,49,42,12,11,5,5,0.8,0.8
2022-07-29T22:00:00,1585A,109.8756,40.6532,包头市,市环境监测站,,42,42,26,17,11,173,112,152,144,18,14,5,7,0.5,0.6
2022-07-29T22:00:00,1587A,109.9991,40.5842,包头市,包头八中,,35,3,45,21,14,167,111,152,146,22,16,8,15,0.4,0.6
2022-07-29T22:00:00,1588A,109.8538,40.6821,包头市,青山宾馆,,43,43,26,15,13,172,99,150,141,26,18,8,7,0.6,0.6
2022-07-29T22:00:00,1589A,109.8642,40.6288,包头市,惠龙物流,,44,44,30,21,14,178,119,159,153,20,14,8,9,0.4,0.5
2022-07-29T22:00:00,1590A,110.0377,40.5546,包头市,东河鸿龙湾,,45,45,32,16,10,168,100,152,144,20,11,6,8,0.5,0.5
2022-07-29T22:00:00,1591A,110.0023,39.8129,鄂尔多斯市,综合楼,,,,45,,9,149,107,144,138,24,17,13,10,0.6,0.6
2022-07-29T22:00:00,1592A,109.9486,39.8261,鄂尔多斯市,巴音孟克林场办事处,颗粒物(PM10),58,66,53,19,13,155,122,149,142,18,16,9,8,0.7,0.7
2022-07-29T22:00:00,1593A,109.7736,39.5986,鄂尔多斯市,康泽苑,,39,39,42,12,12,162,122,158,148,11,10,5,5,0.6,0.6
2022-07-29T22:00:00,1594A,109.8119,39.5989,鄂尔多斯市,华泰汽车城,,39,39,41,14,16,158,118,153,146,12,9,5,7,0.5,0.6
2022-07-29T22:00:00,1595A,109.9734,39.7884,鄂尔多斯市,奥林花园,颗粒物(PM10),63,75,56,19,14,151,104,146,136,26,16,13,9,0.7,0.8
2022-07-29T22:00:00,1596A,122.2414,40.6592,营口市,学府南路,,,,,,,,,,,,,,,,
2022-07-29T22:00:00,1597A,122.2703,40.7094,营口市,大庆路,,32,16,24,7,12,110,100,105,105,8,9,3,4,0.5,0.6
2022-07-29T22:00:00,1598A,122.215,40.6511,营口市,镜湖西路,,34,15,22,6,9,121,108,113,112,9,13,1,2,0.7,0.8
2022-07-29T22:00:00,1599A,122.167,40.6655,营口市,西炮台,,40,14,21,28,15,114,102,110,109,6,9,8,7,1.0,1.1
2022-07-29T22:00:00,1600A,124.3303,40.0625,丹东市,江湾东路,,24,24,26,16,18,103,62,98,72,6,7,7,8,0.4,0.5
2022-07-29T22:00:00,1601A,124.4256,40.1503,丹东市,临江后街,,22,21,19,15,13,99,60,93,66,4,2,11,11,0.8,0.6
2022-07-29T22:00:00,1602A,124.3933,40.1461,丹东市,元宝山,,28,25,23,19,18,97,58,94,62,6,7,4,4,0.4,0.5
2022-07-29T22:00:00,1603A,124.3633,40.1092,丹东市,民主桥,,23,23,24,15,16,95,62,86,66,4,6,1,2,0.6,0.7
2022-07-29T22:00:00,1604A,122.0303,41.1489,盘锦市,开发区,,35,17,12,24,6,110,77,103,95,17,14,4,4,0.6,0.6
2022-07-29T22:00:00,1605A,122.0485,41.0883,盘锦市,兴隆台,,23,14,10,13,6,105,71,88,87,26,18,4,4,0.6,0.5
2022-07-29T22:00:00,1606A,121.8297,41.1028,盘锦市,新生街道,,23,15,7,11,4,118,71,110,96,14,11,6,5,0.5,0.4
2022-07-29T22:00:00,1607A,120.9092,40.7136,葫芦岛市,龙港区,,32,4,13,4,12,112,102,103,82,5,14,4,32,0.4,0.6
2022-07-29T22:00:00,1608A,120.8392,40.7514,葫芦岛市,化工街,,25,22,11,16,14,112,78,112,70,15,15,5,5,0.6,0.8
2022-07-29T22:00:00,1609A,120.8341,40.7073,葫芦岛市,新区,,33,14,10,7,8,127,103,125,88,4,11,3,4,0.6,0.6
2022-07-29T22:00:00,1610A,120.8695,40.7677,葫芦岛市,东城区,,35,19,12,24,10,115,74,113,71,19,11,6,8,0.5,0.4
2022-07-29T22:00:00,1611A,118.5819,24.9117,泉州市,涂山街,,48,48,39,20,19,153,72,127,89,14,16,8,8,0.5,0.5
2022-07-29T22:00:00,1612A,118.5972,24.8978,泉州市,津头埔,,48,48,36,22,19,145,61,120,82,22,21,6,7,0.4,0.4
2022-07-29T22:00:00,1613A,118.6663,24.9424,泉州市,万安,颗粒物(PM10),51,52,40,24,21,147,48,114,77,24,13,7,8,0.6,0.5
2022-07-29T22:00:00,1614A,118.6117,24.9604,泉州市,清源山(对照点),,,,,,,,,,,,,,,,
2022-07-29T22:00:00,1616A,117.6795,36.229,济南市,技术学院,,25,19,17,17,16,101,44,89,75,31,17,3,4,0.7,0.7
2022-07-29T22:00:00,1618A,118.3429,35.0532,临沂市,沂河小区,,,53,27,,17,93,49,84,73,26,19,10,8,1.1,0.7
2022-07-29T22:00:00,1619A,118.295,35.0583,临沂市,鲁南制药厂,,39,39,16,26,15,97,50,88,75,24,17,7,6,1.1,0.8
2022-07-29T22:00:00,1620A,118.2794,34.9976,临沂市,新光毛纺厂,,31,31,19,16,15,93,56,88,78,22,18,5,5,1.0,0.7
2022-07-29T22:00:00,1621A,118.3956,35.0888,临沂市,河东保险公司,,29,29,20,16,11,82,40,71,60,28,16,5,5,0.7,0.8
2022-07-29T22:00:00,1622A,116.3032,37.4674,德州市,儿童乐园,细颗粒物(PM2.5),58,58,27,41,18,131,123,123,123,15,14,6,5,0.7,0.5
2022-07-29T22:00:00,1624A,116.2991,37.4451,德州市,监理站,颗粒物(PM10),54,58,24,35,17,138,120,130,130,18,13,5,5,0.5,0.4
2022-07-29T22:00:00,1625A,115.9848,36.4372,聊城市,区政府,,36,29,30,25,21,149,75,131,108,13,11,12,9,0.8,0.9
2022-07-29T22:00:00,1628A,118.0062,37.3803,滨州市,市环保局,,40,33,26,28,20,136,65,128,110,17,11,7,6,0.2,0.2
2022-07-29T22:00:00,1629A,118.0018,37.3617,滨州市,第二水厂,,25,25,25,16,18,132,65,122,106,18,11,5,5,0.8,0.7
2022-07-29T22:00:00,1630A,117.9776,37.393,滨州市,北中新校,,33,27,25,23,19,134,63,125,109,19,11,12,11,0.4,0.3
2022-07-29T22:00:00,1631A,118.0414,36.8103,淄博市,人民公园,颗粒物(PM10),51,51,31,13,23,98,37,83,72,33,19,7,8,0.7,0.5
2022-07-29T22:00:00,1632A,118.0253,36.8406,淄博市,东风化工厂,,,,,,,,,,,,,,,,
2022-07-29T22:00:00,1633A,117.8525,36.4847,淄博市,双山,,33,33,22,17,16,104,44,104,81,19,16,10,7,0.4,0.4
2022-07-29T22:00:00,1634A,117.9592,36.6331,淄博市,气象站,,24,23,26,9,20,99,74,92,91,14,16,10,10,0.2,0.3
2022-07-29T22:00:00,1635A,118.3092,36.8194,淄博市,莆田园,,31,31,24,14,22,103,52,91,84,25,20,7,8,0.3,0.3
2022-07-29T22:00:00,1636A,117.8661,36.805,淄博市,三金集团,,,,,,,,,,,,,,,,
2022-07-29T22:00:00,1637A,117.558,34.8438,枣庄市,市中区政府,,46,46,27,17,12,113,69,105,95,18,17,6,8,0.8,0.5
2022-07-29T22:00:00,1638A,117.2852,34.7837,枣庄市,薛城环保局,,44,44,37,24,20,101,63,91,85,25,19,10,11,0.5,0.4
2022-07-29T22:00:00,1639A,117.5852,34.7745,枣庄市,峄城区政府,,36,36,27,23,19,108,62,101,96,21,16,11,10,0.9,0.5
2022-07-29T22:00:00,1640A,117.7276,34.5578,枣庄市,台儿庄区环保局,,,27,20,12,13,100,,86,85,13,11,10,11,0.6,0.5
2022-07-29T22:00:00,1641A,117.4518,35.0992,枣庄市,山亭区环保局,,42,36,26,29,21,116,84,108,101,12,11,8,10,0.8,0.6
2022-07-29T22:00:00,1642A,121.2514,37.5639,烟台市,开发区,,,34,25,17,14,88,,76,53,17,12,6,5,0.6,0.5
2022-07-29T22:00:00,1643A,121.3719,37.5433,烟台市,轴承厂,,29,24,22,20,14,106,44,96,68,2,6,5,5,0.1,0.2
2022-07-29T22:00:00,1644A,121.3181,37.5436,烟台市,西郊化工站,,19,19,18,9,10,103,45,90,47,5,7,4,7,0.1,0.3
2022-07-29T22:00:00,1645A,121.4478,37.4822,烟台市,莱山环保局,,20,19,16,14,10,92,33,80,70,5,4,8,7,0.4,0.4
2022-07-29T22:00:00,1646A,121.2611,37.4967,烟台市,福山环保局,,34,34,24,9,11,87,20,81,54,28,13,5,5,0.5,0.5
2022-07-29T22:00:00,1648A,119.12,36.7019,潍坊市,仲裁委,,,,,,,,,,,,,,,,
2022-07-29T22:00:00,1650A,119.1437,36.7023,潍坊市,环保局,,30,29,25,21,23,102,65,90,86,14,10,6,6,0.5,0.6
2022-07-29T22:00:00,1652A,119.1936,36.7729,潍坊市,寒亭监测站,,,,,,,,,,,,,,,,
2022-07-29T22:00:00,1653A,116.6251,35.4302,济宁市,火炬城,,43,43,34,27,22,108,38,92,82,24,12,9,9,0.6,0.6
2022-07-29T22:00:00,1655A,116.5491,35.4042,济宁市,电化厂,,35,25,33,24,23,105,71,92,90,14,12,15,9,0.8,0.8
2022-07-29T22:00:00,1656A,117.1437,36.1937,泰安市,监测站,,28,22,22,19,15,92,80,80,76,6,9,5,5,0.4,0.3
2022-07-29T22:00:00,1657A,117.0885,36.2017,泰安市,人口学校,,29,19,21,13,13,98,92,87,84,6,10,6,7,0.4,0.4
2022-07-29T22:00:00,1658A,117.1089,36.1758,泰安市,电力学校,,25,17,22,17,15,88,76,80,71,5,7,6,6,0.3,0.3
2022-07-29T22:00:00,1659A,119.471,35.4209,日照市,监测站,,16,12,17,11,14,83,36,69,63,11,30,6,6,0.4,0.6
2022-07-29T22:00:00,1660A,119.523,35.4216,日照市,市政府广场,,12,12,21,6,11,84,34,72,65,12,23,5,5,0.3,0.6
2022-07-29T22:00:00,1661A,119.5587,35.4044,日照市,港务局,,13,7,18,5,9,110,39,95,86,15,22,4,4,0.5,0.7
2022-07-29T22:00:00,1662A,122.1214,37.4236,威海市,华夏技校,,20,12,17,14,16,82,28,78,47,7,5,6,5,0.2,0.3
2022-07-29T22:00:00,1663A,122.0508,37.5236,威海市,山大分校,,12,10,17,7,14,106,38,98,58,8,8,4,3,0.2,0.2
2022-07-29T22:00:00,1664A,122.1067,37.5072,威海市,市监测站,,22,12,18,15,16,90,29,87,50,8,7,4,4,0.2,0.3
2022-07-29T22:00:00,1665A,118.5019,37.4658,东营市,西城阳光环保公司,,,,,,,,,,,,,,,,
2022-07-29T22:00:00,1666A,118.6614,37.4309,东营市,市环保局,,32,27,18,22,13,114,77,106,100,12,9,51,11,0.9,0.5
2022-07-29T22:00:00,1669A,113.5824,24.7733,韶关市,市八中,,42,42,50,6,21,178,56,137,84,26,18,9,8,0.7,0.6
2022-07-29T22:00:00,1670A,113.5556,24.8082,韶关市,碧湖山庄,,,,,,,,,,,,,,,,
2022-07-29T22:00:00,1671A,113.5917,24.7972,韶关市,园林处,颗粒物(PM10),51,51,51,30,32,150,64,125,82,14,15,11,7,0.4,0.5
2022-07-29T22:00:00,1672A,113.6735,24.7791,韶关市,韶关学院,颗粒物(PM10),66,82,57,39,37,251,38,178,98,24,19,16,17,0.6,0.8
2022-07-29T22:00:00,1673A,113.5971,24.6863,韶关市,曲江监测站,颗粒物(PM10),58,66,57,29,30,158,35,130,80,42,26,13,11,0.8,0.8
2022-07-29T22:00:00,1674A,116.6794,23.3667,汕头市,金平子站,,32,31,35,10,21,168,100,147,121,18,15,9,8,0.7,0.7
2022-07-29T22:00:00,1675A,116.7244,23.3633,汕头市,龙湖子站,颗粒物(PM10),51,51,46,14,18,144,74,119,104,26,15,10,8,0.9,0.7
2022-07-29T22:00:00,1676A,116.7258,23.2775,汕头市,濠江子站,,30,30,31,13,21,145,73,124,106,24,12,13,11,1.0,0.6
2022-07-29T22:00:00,1677A,116.7519,23.4714,汕头市,澄海子站,,48,48,33,21,19,132,65,120,100,26,14,9,7,0.9,0.7
2022-07-29T22:00:00,1678A,116.6092,23.2539,汕头市,潮阳子站,,28,26,42,2,29,151,87,126,106,15,13,11,12,0.6,0.6
2022-07-29T22:00:00,1679A,116.4069,23.2533,汕头市,潮南子站,,,,,,,,,,,,,,,,
2022-07-29T22:00:00,1680A,110.3539,21.2706,湛江市,湛江影剧院,,42,42,27,14,12,96,46,84,78,17,10,15,11,0.6,0.5
2022-07-29T22:00:00,1681A,110.3928,21.2228,湛江市,市环境监测站,,48,48,31,8,15,84,44,78,69,18,12,6,13,0.6,0.5
2022-07-29T22:00:00,1682A,110.4019,21.1997,湛江市,环保局宿舍,,40,40,31,16,21,83,45,78,70,14,9,20,34,0.5,0.5
2022-07-29T22:00:00,1683A,110.4111,21.2028,湛江市,霞山游泳场,,45,45,28,18,15,85,52,80,74,14,9,34,20,0.6,0.5
2022-07-29T22:00:00,1684A,110.3316,21.2679,湛江市,麻章区环保局,,40,40,29,8,14,87,38,75,69,18,12,17,10,0.6,0.5
2022-07-29T22:00:00,1685A,110.4558,21.2567,湛江市,坡头区环保局,,35,35,25,22,16,92,50,84,76,18,12,7,8,0.5,0.4
2022-07-29T22:00:00,1686A,111.0286,21.4688,茂名市,电白南海,,39,39,41,19,22,138,108,120,120,10,10,4,7,0.5,0.5
2022-07-29T22:00:00,1687A,110.9294,21.6533,茂名市,茂石化七小,细颗粒物(PM2.5),67,73,37,48,24,95,77,88,85,16,11,8,9,0.7,0.5
2022-07-29T22:00:00,1688A,110.9107,21.6687,茂名市,健康路,,48,48,31,28,17,100,73,93,87,14,6,18,14,0.8,0.6
2022-07-29T22:00:00,1689A,110.8592,21.6828,茂名市,高岭,颗粒物(PM10),51,51,34,31,25,95,45,87,76,32,12,12,20,0.5,0.5
2022-07-29T22:00:00,1690A,116.1231,24.3284,梅州市,梅江月梅,,22,18,43,6,25,168,68,143,105,9,10,6,4,0.5,0.6
2022-07-29T22:00:00,1691A,116.0797,24.2719,梅州市,梅县新城,,22,13,48,6,30,164,69,140,104,17,15,5,6,0.5,0.6
2022-07-29T22:00:00,1692A,116.1248,24.2654,梅州市,环境监控中心,,,6,45,,37,170,64,148,110,15,14,6,6,0.5,0.7
2022-07-29T22:00:00,1693A,115.3653,22.775,汕尾市,市环保局,,29,6,25,17,14,152,92,121,109,8,7,5,6,0.6,0.6
2022-07-29T22:00:00,1694A,115.3706,22.7898,汕尾市,市政府,,31,25,21,20,15,152,97,132,116,8,6,6,6,0.8,0.8
2022-07-29T22:00:00,1695A,115.3622,22.7925,汕尾市,新城中学,,35,29,27,24,16,160,86,135,117,8,4,6,6,0.6,0.6
2022-07-29T22:00:00,1696A,114.6778,23.7569,河源市,源西(对照点),,40,40,56,21,30,173,90,153,121,7,12,4,4,0.5,0.6
2022-07-29T22:00:00,1697A,114.6944,23.7586,河源市,东埔,,37,37,53,23,28,183,96,163,122,9,14,5,5,0.5,0.6
2022-07-29T22:00:00,1698A,114.6892,23.7233,河源市,老城,,,,56,14,29,201,94,176,127,10,14,2,2,0.6,0.6
2022-07-29T22:00:00,1699A,111.9797,21.8593,阳江市,鸳鸯湖(对照点),,,,,,,,,,,,,,,,
2022-07-29T22:00:00,1700A,111.9508,21.8536,阳江市,南恩路,,,,,,,,,,,,,,,,
2022-07-29T22:00:00,1701A,111.9491,21.8658,阳江市,马南垌,,36,33,47,20,32,149,113,140,139,7,10,7,7,0.7,0.7
2022-07-29T22:00:00,1702A,113.0426,23.691,清远市,环保大楼(对照点),,44,44,53,29,37,244,53,173,116,33,21,4,5,0.8,0.7
2022-07-29T22:00:00,1703A,113.0208,23.7106,清远市,凤城街办,,43,43,51,26,34,202,55,142,93,25,20,4,5,1.0,0.9
2022-07-29T22:00:00,1705A,116.6367,23.6719,潮州市,西园路(对照点),,26,22,40,18,23,153,58,122,83,12,11,5,6,0.5,0.4
2022-07-29T22:00:00,1706A,116.6447,23.6706,潮州市,档案局,,26,26,38,11,24,181,75,137,98,12,12,8,8,0.8,0.7
2022-07-29T22:00:00,1708A,116.3701,23.5345,揭阳市,新兴,,26,21,46,18,28,189,82,155,114,11,11,6,7,0.8,0.6
2022-07-29T22:00:00,1709A,116.3264,23.5443,揭阳市,西马,,37,37,42,18,27,192,82,159,116,11,10,8,8,0.6,0.6
2022-07-29T22:00:00,1710A,116.3611,23.5626,揭阳市,东兴,,32,30,51,22,25,187,83,159,116,16,14,6,7,0.8,0.8
2022-07-29T22:00:00,1711A,116.4151,23.5294,揭阳市,渔湖,,36,25,51,25,30,173,64,153,108,18,20,4,8,0.7,0.7
2022-07-29T22:00:00,1712A,112.0392,22.9169,云浮市,新市府(对照点),,,,,,,,,,,,,,,,
2022-07-29T22:00:00,1713A,112.0369,22.9394,云浮市,市监测站,,,,,,,,,,,,,,,,
2022-07-29T22:00:00,1714A,112.0539,22.9539,云浮市,牧羊,颗粒物(PM10),51,51,70,12,29,131,85,113,102,22,22,8,22,0.5,0.6
2022-07-29T22:00:00,1715A,102.575,24.3711,玉溪市,东风水库,,28,28,19,9,9,84,53,75,70,16,16,7,4,0.8,0.8
2022-07-29T22:00:00,1718A,115.4208,35.2464,菏泽市,气象局,,28,22,34,17,28,110,89,104,98,8,10,5,4,0.5,0.5
2022-07-29T22:00:00,1719A,115.4747,35.2375,菏泽市,市政协,,35,33,41,24,25,112,87,106,101,10,10,11,7,0.2,0.2
2022-07-29T22:00:00,1720A,115.455,35.27,菏泽市,菏泽学院,,,,,,,,,,,,,,,,
2022-07-29T22:00:00,1721A,113.3819,40.1097,大同市,果树场(对照点),,,,,,,,,,,,,,,,
2022-07-29T22:00:00,1723A,113.2994,40.0758,大同市,云冈宾馆,颗粒物(PM10),54,58,70,11,18,153,85,139,124,27,37,12,20,0.6,0.5
2022-07-29T22:00:00,1724A,113.3444,40.0917,大同市,大同大学,,42,42,53,17,15,159,98,147,133,16,25,94,21,0.4,0.4
2022-07-29T22:00:00,1725A,113.2661,40.1269,大同市,安家小村,颗粒物(PM10),55,59,72,13,17,166,119,153,142,12,24,19,18,0.5,0.5
2022-07-29T22:00:00,1726A,113.2711,40.0844,大同市,教育学院,颗粒物(PM10),55,59,81,23,22,152,106,140,128,14,34,12,23,0.4,0.5
2022-07-29T22:00:00,1727A,113.1147,36.1547,长治市,清华站,,46,46,43,24,24,130,77,121,108,25,13,9,9,0.9,1
2022-07-29T22:00:00,1728A,113.1031,36.1989,长治市,监测站,,44,44,54,17,22,136,96,124,118,17,14,9,9,0.9,1.3
2022-07-29T22:00:00,1730A,113.0886,36.2125,长治市,审计局,,41,38,40,22,27,165,131,141,136,12,19,9,9,0.8,1.2
2022-07-29T22:00:00,1731A,113.0844,36.1856,长治市,长治八中,,38,38,43,15,24,138,112,126,121,13,14,10,10,1.1,1.3
2022-07-29T22:00:00,1733A,111.5531,36.0783,临汾市,临钢医院,,35,35,41,14,19,195,90,155,119,21,22,2,3,0.4,0.5
2022-07-29T22:00:00,1734A,111.5028,36.0714,临汾市,技工学校,,45,44,45,31,25,188,81,182,155,23,17,3,5,0.7,0.8
2022-07-29T22:00:00,1735A,111.5169,36.0822,临汾市,工商学校,,,,,,,,,,,,,,,,
2022-07-29T22:00:00,1736A,111.5018,36.0855,临汾市,市委,,43,43,48,24,27,186,84,178,152,25,24,5,5,0.7,0.8
2022-07-29T22:00:00,1738A,113.5758,37.8572,阳泉市,市中心,颗粒物(PM10),52,53,44,24,10,154,112,148,140,21,26,8,10,1.0,0.8
2022-07-29T22:00:00,1739A,113.4894,37.8731,阳泉市,赛鱼,颗粒物(PM10),56,62,40,19,12,152,111,142,136,19,24,10,9,0.7,0.7
2022-07-29T22:00:00,1740A,113.5819,37.8486,阳泉市,南庄,颗粒物(PM10),52,53,42,28,17,149,109,142,135,14,20,8,11,0.9,0.8
2022-07-29T22:00:00,1741A,113.6292,37.8531,阳泉市,白羊墅,,,,,,,,,,,,,,,,
2022-07-29T22:00:00,1742A,113.5614,37.8703,阳泉市,平坦,颗粒物(PM10),52,54,49,15,9,154,120,149,144,16,32,8,12,1.0,0.9
2022-07-29T22:00:00,1743A,113.5158,37.8392,阳泉市,大阳泉,,43,43,29,18,12,155,112,144,137,13,12,6,7,0.8,0.7
2022-07-29T22:00:00,1744A,118.9233,42.2816,赤峰市,松山一中,,25,23,30,16,17,127,80,119,112,20,21,10,15,0.8,0.8
2022-07-29T22:00:00,1745A,118.9576,42.2728,赤峰市,哈达街,,29,27,30,11,17,137,92,128,122,19,23,10,15,0.5,0.5
2022-07-29T22:00:00,1746A,118.8788,42.2554,赤峰市,天义路,,36,36,24,10,13,130,80,121,114,21,18,12,13,0.5,0.4
2022-07-29T22:00:00,1748A,123.044,41.1196,鞍山市,深沟寺,,36,31,20,25,13,100,37,92,58,22,10,6,7,1.3,0.7
2022-07-29T22:00:00,1749A,123.011,41.0931,鞍山市,太阳城,颗粒物(PM10),63,75,20,35,14,99,24,90,50,30,13,6,6,1.9,1
2022-07-29T22:00:00,1750A,123.0485,41.1442,鞍山市,太平,,45,45,22,31,13,101,40,94,56,28,12,5,5,1.4,0.8
2022-07-29T22:00:00,1751A,122.9642,41.0971,鞍山市,铁西三道街,,46,46,27,25,15,95,31,94,50,36,23,6,10,1.5,1.2
2022-07-29T22:00:00,1752A,122.9341,41.0833,鞍山市,铁西工业园区,,32,30,23,22,13,89,35,80,49,18,16,5,8,1.3,1.1
2022-07-29T22:00:00,1753A,123.022,41.0821,鞍山市,明达新区,,32,32,19,22,13,98,39,94,60,24,12,4,5,1.1,0.6
2022-07-29T22:00:00,1754A,123.1289,41.0228,鞍山市,千山(对照点),,,,,,,,,,,,,,,,
2022-07-29T22:00:00,1755A,123.7977,41.8491,抚顺市,望花区,,33,22,27,23,18,103,40,88,63,23,16,3,4,1.1,0.7
2022-07-29T22:00:00,1756A,123.9161,41.8822,抚顺市,顺城区,,16,14,17,11,12,108,50,89,60,20,18,6,7,0.6,0.6
2022-07-29T22:00:00,1757A,124.0436,41.8611,抚顺市,东洲区,,20,16,18,4,8,107,63,84,68,3,5,7,7,0.3,0.3
2022-07-29T22:00:00,1758A,123.9247,41.8642,抚顺市,新抚区,,15,13,18,8,11,121,45,96,65,14,12,2,2,0.6,0.6
2022-07-29T22:00:00,1759A,124.0972,41.8961,抚顺市,大伙房水库,,21,12,15,3,7,105,66,85,72,4,5,5,5,0.2,0.3
2022-07-29T22:00:00,1760A,123.7086,41.8391,抚顺市,沈抚新城,,15,13,24,8,11,108,48,89,60,12,18,3,4,0.5,0.7
2022-07-29T22:00:00,1761A,123.8275,41.3064,本溪市,大峪,,22,22,14,12,8,102,26,86,40,18,10,5,5,0.6,0.6
2022-07-29T22:00:00,1762A,123.7567,41.3325,本溪市,溪湖,,25,25,22,13,11,93,44,86,40,22,14,7,6,1.1,1
2022-07-29T22:00:00,1763A,123.7169,41.3094,本溪市,彩屯,,31,31,40,17,22,60,29,48,34,16,25,4,5,1.4,1.8
2022-07-29T22:00:00,1764A,123.7669,41.2864,本溪市,东明,,19,16,20,11,11,99,58,89,46,12,10,6,5,0.4,0.4
2022-07-29T22:00:00,1765A,123.7992,41.2664,本溪市,新立屯,,18,10,19,9,10,100,56,83,41,8,7,3,3,0.5,0.5
2022-07-29T22:00:00,1766A,123.8142,41.3472,本溪市,威宁,,36,36,20,24,7,73,9,61,37,17,8,8,8,0.5,0.4
2022-07-29T22:00:00,1767A,121.1115,41.0879,锦州市,南山,,20,18,8,14,8,118,41,114,54,27,14,12,5,0.8,0.6
2022-07-29T22:00:00,1768A,121.0533,40.8434,锦州市,开发区,,23,18,11,16,11,128,64,114,76,31,12,12,7,0.8,0.8
2022-07-29T22:00:00,1769A,121.1836,41.1119,锦州市,百股街道,,19,15,7,12,5,131,59,122,65,15,7,10,5,0.7,0.5
2022-07-29T22:00:00,1770A,121.1178,41.1222,锦州市,天安街道,,32,25,9,22,8,122,51,121,64,30,15,18,6,0.9,0.6
2022-07-29T22:00:00,1771A,121.1303,41.1386,锦州市,北湖公园,,43,18,8,30,7,125,45,117,60,25,10,6,4,0.7,0.5
2022-07-29T22:00:00,1772A,126.54,43.8622,吉林市,哈达湾,,16,14,21,9,13,96,51,87,77,14,9,5,5,0.7,0.6
2022-07-29T22:00:00,1773A,126.5844,43.8358,吉林市,东局子,,16,16,21,11,14,95,50,84,70,11,12,8,8,0.7,0.7
2022-07-29T22:00:00,1774A,126.5052,43.8245,吉林市,电力学院,,15,15,23,6,12,87,37,73,67,21,11,7,7,0.7,0.6
2022-07-29T22:00:00,1775A,126.6133,43.8972,吉林市,江北,,18,18,21,8,11,84,34,76,60,13,9,7,6,0.8,0.7
2022-07-29T22:00:00,1776A,126.555,43.8306,吉林市,江南公园,,15,15,19,8,13,95,44,84,75,18,10,4,4,0.4,0.4
2022-07-29T22:00:00,1778A,126.7061,43.7133,吉林市,丰满(对照点),,,,,,,,,,,,,,,,
2022-07-29T22:00:00,1779A,123.9305,47.3636,齐齐哈尔市,安居小区,,37,37,30,14,16,91,50,82,68,20,16,7,5,0.5,0.5
2022-07-29T22:00:00,1780A,123.9488,47.3386,齐齐哈尔市,中心广场,,25,25,27,13,11,93,56,79,66,17,13,4,4,0.5,0.5
2022-07-29T22:00:00,1781A,123.9483,47.3227,齐齐哈尔市,农牧车辆厂,,41,41,37,20,13,82,50,71,63,7,6,3,3,0.4,0.5
2022-07-29T22:00:00,1783A,123.945,47.2988,齐齐哈尔市,市环境监测站,,18,6,24,11,13,95,55,83,73,18,12,8,7,0.4,0.4
2022-07-29T22:00:00,1784A,129.61,44.561,牡丹江市,环保大楼,,22,22,19,6,11,79,58,69,64,13,7,4,4,0.3,0.5
2022-07-29T22:00:00,1785A,129.6115,44.5782,牡丹江市,文化广场,,26,26,18,8,10,76,60,65,56,7,6,2,2,0.4,0.4
2022-07-29T22:00:00,1786A,129.5904,44.5963,牡丹江市,第一医院,,13,11,12,7,6,62,41,52,41,10,7,3,3,0.7,0.6
2022-07-29T22:00:00,1787A,129.6364,44.6075,牡丹江市,机车工厂,,17,17,27,8,9,74,41,65,47,11,10,2,3,0.4,0.3
2022-07-29T22:00:00,1788A,129.6386,44.5462,牡丹江市,第一中学,,20,20,25,9,10,72,39,58,49,20,13,3,3,0.4,0.4
2022-07-29T22:00:00,1789A,124.81117,46.03138,大庆市,大同区,,21,21,12,8,8,96,60,89,76,9,7,4,4,0.4,0.3
2022-07-29T22:00:00,1790A,125.129,46.533,大庆市,龙凤区,,17,16,10,6,6,106,52,102,84,16,10,5,4,0.2,0.2
2022-07-29T22:00:00,1791A,124.902,46.408,大庆市,红岗区,,18,7,8,5,6,113,56,98,78,10,7,1,2,0.4,0.4
2022-07-29T22:00:00,1792A,125.153,46.586,大庆市,萨尔图区,,27,27,16,14,9,92,54,89,74,18,10,3,3,0.4,0.4
2022-07-29T22:00:00,1793A,124.9042,46.6215,大庆市,让胡路区,,22,22,11,8,8,102,46,91,73,16,8,5,5,0.2,0.1
2022-07-29T22:00:00,1794A,118.3606,31.3519,芜湖市,监测站,,35,26,35,17,23,142,109,128,125,21,24,11,13,0.6,0.8
2022-07-29T22:00:00,1795A,118.3714,31.4134,芜湖市,科创中心,,32,16,35,18,21,153,102,131,131,22,24,7,12,0.7,0.8
2022-07-29T22:00:00,1796A,118.3673,31.3131,芜湖市,四水厂,,37,23,33,15,21,161,118,140,137,18,23,7,9,0.5,0.7
2022-07-29T22:00:00,1797A,118.4022,31.3839,芜湖市,济民医院(对照点),,,,,,,,,,,,,,,,
2022-07-29T22:00:00,1798A,118.5092,31.6837,马鞍山市,湖东路四小,,33,33,37,23,21,170,81,149,140,34,21,4,6,0.8,1
2022-07-29T22:00:00,1799A,118.5024,31.6449,马鞍山市,开发区,,32,29,31,22,27,170,87,146,140,27,21,9,12,0.9,1
2022-07-29T22:00:00,1800A,118.5228,31.7231,马鞍山市,慈湖,,48,48,42,27,25,150,42,124,115,55,21,5,7,1.0,1
2022-07-29T22:00:00,1801A,118.48,31.6928,马鞍山市,马钢动力厂,,,,,,,,,,,,,,,,
2022-07-29T22:00:00,1802A,118.6245,31.7241,马鞍山市,濮塘(对照点),,35,35,34,20,20,136,49,114,107,27,14,2,4,0.7,0.7
2022-07-29T22:00:00,1803A,115.9872,29.6815,九江市,十里,,33,33,22,23,16,142,96,132,117,14,13,6,6,0.7,0.8
2022-07-29T22:00:00,1804A,115.9584,29.7046,九江市,茅山头,,39,32,20,27,17,117,86,112,106,13,12,7,6,0.5,0.6
2022-07-29T22:00:00,1805A,115.9877,29.7295,九江市,西园,,43,43,26,22,14,116,85,110,98,12,20,10,9,0.9,0.8
2022-07-29T22:00:00,1806A,116.0172,29.6547,九江市,五七二七厂,,30,30,24,16,14,148,96,127,109,7,9,4,4,0.6,0.6
2022-07-29T22:00:00,1808A,115.9114,29.6038,九江市,综合工业园,,29,18,25,2,15,135,90,126,112,15,19,4,5,0.5,0.6
2022-07-29T22:00:00,1809A,116.0721,29.7535,九江市,石化总厂,颗粒物(PM10),55,59,29,25,15,121,70,117,105,32,18,7,5,0.6,0.6
2022-07-29T22:00:00,1810A,115.9773,29.5698,九江市,庐山气象台(对照点),,38,30,22,26,23,124,116,119,118,8,7,6,7,0.8,0.5
2022-07-29T22:00:00,1811A,112.3628,34.6692,洛阳市,中信二小,,,,,,,,,,,,,,,,
2022-07-29T22:00:00,1812A,112.3931,34.6516,洛阳市,市委党校,,36,30,45,16,27,169,115,156,144,12,20,3,5,0.6,0.7
2022-07-29T22:00:00,1814A,112.4657,34.6871,洛阳市,豫西宾馆,,40,40,46,20,26,159,89,145,130,17,14,3,3,0.5,0.6
2022-07-29T22:00:00,1815A,112.494,34.6886,洛阳市,河南林校,,30,27,38,13,21,152,95,143,125,11,8,2,2,0.2,0.3
2022-07-29T22:00:00,1816A,112.3844,34.623,洛阳市,开发区管委会,,35,30,45,15,28,170,111,157,145,5,12,5,6,0.8,0.8
2022-07-29T22:00:00,1817A,112.4267,34.6258,洛阳市,市委新办公区,,32,32,45,15,26,159,93,142,130,10,11,5,5,0.5,0.6
2022-07-29T22:00:00,1818A,114.4839,36.0621,安阳市,棉研所(对照点),,,,,,,,,,,,,,,,
2022-07-29T22:00:00,1819A,114.3551,36.1017,安阳市,红庙街,,35,28,32,10,10,137,109,132,123,18,15,4,4,0.5,0.5
2022-07-29T22:00:00,1820A,114.361,36.0681,安阳市,银杏小区,,36,25,25,13,13,146,115,140,130,8,6,3,3,0.3,0.4
2022-07-29T22:00:00,1824A,114.3389,34.7781,开封市,肿瘤医院,,33,32,26,23,15,135,75,129,118,11,9,3,3,0.5,0.5
2022-07-29T22:00:00,1826A,114.2885,34.7965,开封市,世纪星幼儿园,,36,36,33,21,17,131,76,123,114,17,13,5,5,0.7,0.7
2022-07-29T22:00:00,1828A,113.227,35.2125,焦作市,市环保局,,36,36,37,14,17,158,102,149,138,5,4,2,3,0.4,0.6
2022-07-29T22:00:00,1829A,113.2464,35.1764,焦作市,高新区政府（停运20220628）,,,,,,,,,,,,,,,,
2022-07-29T22:00:00,1830A,113.1992,35.2590,焦作市,影视城(对照点),,,,,,,,,,,,,,,,
2022-07-29T22:00:00,1832A,113.3257,33.742,平顶山市,新华旅馆,,40,40,38,21,19,137,80,132,117,19,18,2,6,0.3,0.4
2022-07-29T22:00:00,1833A,113.2919,33.737,平顶山市,规划设计院,,33,33,37,9,17,139,86,133,120,16,13,3,3,0.6,0.6
2022-07-29T22:00:00,1834A,113.182,33.774,平顶山市,平顶山工学院,颗粒物(PM10),53,55,46,24,25,140,89,133,122,20,18,4,7,0.5,0.5
2022-07-29T22:00:00,1835A,111.1922,34.7752,三门峡市,市政府,颗粒物(PM10),53,55,49,28,29,169,142,154,154,13,16,5,6,0.7,0.6
2022-07-29T22:00:00,1836A,111.1587,34.7942,三门峡市,开发区,颗粒物(PM10),52,54,76,31,29,171,142,154,154,17,14,4,4,0.7,0.7
2022-07-29T22:00:00,1838A,111.143,34.7955,三门峡市,风景区(对照点),,,,,,,,,,,,,,,,
2022-07-29T22:00:00,1839A,111.3009,30.7157,宜昌市,四零三,,,,,,,,,,,,,,,,
2022-07-29T22:00:00,1840A,111.2992,30.6981,宜昌市,白龙岗,,31,31,25,19,11,142,98,130,123,25,17,10,10,0.6,0.5
2022-07-29T22:00:00,1841A,111.3549,30.6465,宜昌市,伍家岗,,44,44,27,22,15,149,81,140,132,34,21,4,2,0.7,0.5
2022-07-29T22:00:00,1842A,111.2628,30.6961,宜昌市,点军区,颗粒物(PM10),52,54,26,22,11,149,80,136,123,16,13,4,4,0.6,0.6
2022-07-29T22:00:00,1843A,111.3275,30.7819,宜昌市,夷陵区,,40,40,27,14,8,146,112,135,130,16,12,5,5,0.6,0.5
2022-07-29T22:00:00,1844A,112.2494,30.3197,荆州市,市图书馆,,32,13,21,22,13,141,96,123,117,17,9,10,9,0.6,0.5
2022-07-29T22:00:00,1845A,112.2008,30.3544,荆州市,市委党校,,31,31,24,18,15,133,94,125,120,9,9,8,9,0.6,0.6
2022-07-29T22:00:00,1847A,113.1094,29.3578,岳阳市,南湖风景区,,29,29,22,20,18,125,45,115,101,26,10,9,7,0.6,0.6
2022-07-29T22:00:00,1848A,113.1493,29.4251,岳阳市,城陵矶,,30,30,23,20,17,114,43,106,96,25,12,13,10,0.6,0.6
2022-07-29T22:00:00,1849A,113.1497,29.3575,岳阳市,开发区,,36,26,24,25,19,120,38,111,93,29,15,12,9,0.5,0.5
2022-07-29T22:00:00,1850A,113.2621,29.4758,岳阳市,云溪区,,29,26,26,20,18,124,72,115,109,8,10,8,11,0.6,0.6
2022-07-29T22:00:00,1851A,112.9943,29.4402,岳阳市,君山区,,28,28,23,18,18,120,62,113,104,14,8,6,5,0.6,0.5
2022-07-29T22:00:00,1852A,113.2117,29.355,岳阳市,金凤水库(对照点),,26,26,22,15,15,115,51,107,88,17,12,6,4,0.6,0.6
2022-07-29T22:00:00,1854A,111.6975,28.9703,常德市,市二中,,16,16,17,10,13,89,40,79,60,21,13,4,4,0.5,0.5
2022-07-29T22:00:00,1857A,111.7158,29.1456,常德市,白鹤山(对照点),,24,24,18,12,11,109,52,98,67,6,4,4,4,0.4,0.5
2022-07-29T22:00:00,1858A,110.5319,29.1217,张家界市,永定新区,,29,24,15,20,17,97,77,89,87,11,7,4,3,0.2,0.1
2022-07-29T22:00:00,1859A,110.4697,29.1242,张家界市,电业局,,32,14,12,3,5,102,100,92,91,4,6,5,4,0.2,0.2
2022-07-29T22:00:00,1860A,110.5594,29.3547,张家界市,未央路,,31,31,24,16,9,100,57,95,84,4,5,2,2,0.2,0.2
2022-07-29T22:00:00,1861A,110.4417,29.315,张家界市,袁家界(对照点),,33,19,16,14,8,126,104,119,118,5,5,5,5,0.6,0.6
2022-07-29T22:00:00,1862A,110.4144,25.3167,桂林市,电子科大尧山校区(对照点),,37,37,40,23,27,159,47,122,85,8,8,9,25,0.7,0.7
2022-07-29T22:00:00,1863A,110.2819,25.2697,桂林市,监测站,,24,24,38,13,19,154,42,114,65,18,11,9,15,0.6,0.6
2022-07-29T22:00:00,1864A,110.3089,25.2708,桂林市,龙隐路小学,,23,22,33,16,21,149,42,110,67,14,11,10,16,0.4,0.4
2022-07-29T22:00:00,1865A,110.2869,25.2178,桂林市,八中,,31,31,34,21,19,147,21,108,67,28,13,12,15,0.6,0.6
2022-07-29T22:00:00,1866A,109.2262,21.588,北海市,牛尾岭水库(对照点),,13,9,29,9,11,70,30,57,52,7,6,4,5,0.4,0.4
2022-07-29T22:00:00,1867A,109.1436,21.4086,北海市,海滩公园,,16,13,16,5,4,57,51,53,53,2,2,5,4,0.5,0.5
2022-07-29T22:00:00,1868A,109.0981,21.4661,北海市,新市环保局,,15,3,11,5,8,60,46,55,53,4,2,4,3,0.4,0.4
2022-07-29T22:00:00,1869A,109.1778,21.5233,北海市,北海工业园,,,15,13,12,9,65,47,57,55,,,4,5,0.4,0.4
2022-07-29T22:00:00,1870A,109.4856,24.3895,柳州市,柳东小学,细颗粒物(PM2.5),78,53,53,57,43,141,59,108,72,10,12,39,9,0.8,0.8
2022-07-29T22:00:00,1871A,109.4157,24.3277,柳州市,环保监测站,颗粒物(PM10),55,59,51,30,30,133,48,97,68,24,19,10,10,0.7,0.6
2022-07-29T22:00:00,1872A,109.389,24.341,柳州市,河西水厂,颗粒物(PM10),55,59,56,37,20,123,40,86,60,19,17,8,8,0.8,0.8
2022-07-29T22:00:00,1873A,109.4311,24.2921,柳州市,市四中,颗粒物(PM10),61,71,63,36,32,150,36,105,74,33,18,14,12,1.1,0.9
2022-07-29T22:00:00,1874A,109.4006,24.3631,柳州市,市九中,颗粒物(PM10),60,70,67,41,35,124,51,92,66,23,18,46,15,1.0,0.8
2022-07-29T22:00:00,1875A,109.4958,24.3134,柳州市,古亭山,,46,43,51,32,28,161,43,111,70,20,18,9,9,0.7,0.7
2022-07-29T22:00:00,1876A,109.5078,18.2489,三亚市,河东子站,,10,10,14,4,8,42,31,37,33,5,8,2,2,0.4,0.4
2022-07-29T22:00:00,1877A,109.4964,18.2681,三亚市,河西子站,,16,9,13,11,13,47,34,41,37,2,7,3,4,0.2,0.3
2022-07-29T22:00:00,1878A,104.7778,31.4741,绵阳市,富乐山,,32,28,27,22,18,140,90,130,121,20,13,11,12,0.6,0.5
2022-07-29T22:00:00,1879A,104.7563,31.4535,绵阳市,市人大,,46,46,39,29,20,136,62,125,114,52,23,4,2,0.6,0.5
2022-07-29T22:00:00,1880A,104.6697,31.4668,绵阳市,高新区自来水公司,颗粒物(PM10),52,53,44,24,22,152,70,145,125,50,27,6,6,0.6,0.6
2022-07-29T22:00:00,1881A,104.7287,31.5075,绵阳市,三水厂,颗粒物(PM10),52,53,40,26,24,149,29,133,100,62,31,5,4,0.8,0.6
2022-07-29T22:00:00,1882A,104.563,28.793,宜宾市,石马中学(对照点),颗粒物(PM10),56,61,42,34,24,202,67,174,143,37,20,6,6,0.7,0.6
2022-07-29T22:00:00,1883A,104.6201,28.7728,宜宾市,市委,,42,42,41,26,22,180,106,169,157,33,28,7,8,0.6,0.6
2022-07-29T22:00:00,1884A,104.6055,28.793,宜宾市,宜宾四中,颗粒物(PM10),59,68,57,29,28,186,66,176,151,64,29,9,10,0.7,0.6
2022-07-29T22:00:00,1885A,104.639,28.7562,宜宾市,市政府,颗粒物(PM10),65,79,54,36,24,186,74,175,158,63,35,17,10,0.9,0.7
2022-07-29T22:00:00,1886A,104.5742,28.7199,宜宾市,黄金嘴,颗粒物(PM10),53,56,40,32,21,178,65,171,149,51,25,8,7,0.7,0.5
2022-07-29T22:00:00,1888A,101.6891,26.571,攀枝花市,弄弄坪,,41,41,30,23,17,154,70,139,125,29,23,7,11,1.2,1.4
2022-07-29T22:00:00,1889A,101.5769,26.5928,攀枝花市,河门口,,43,43,28,23,17,177,104,144,138,21,18,30,16,1.2,1.4
2022-07-29T22:00:00,1890A,101.7169,26.585,攀枝花市,炳草岗,,44,44,39,16,20,150,44,138,123,48,31,9,14,0.7,0.8
2022-07-29T22:00:00,1891A,101.7369,26.5008,攀枝花市,仁和,,44,44,25,26,14,127,53,116,102,16,11,9,16,0.2,0.4
2022-07-29T22:00:00,1893A,105.4324,28.9634,泸州市,九狮山(对照点),,38,22,29,26,19,116,52,112,97,17,20,5,6,0.6,0.4
2022-07-29T22:00:00,1894A,105.4427,28.9063,泸州市,小市上码头,颗粒物(PM10),52,53,47,27,32,201,147,188,177,23,23,12,12,0.7,0.7
2022-07-29T22:00:00,1895A,105.4241,28.8573,泸州市,兰田宪桥,颗粒物(PM10),55,59,38,24,24,201,81,188,161,42,21,7,10,0.6,0.4
2022-07-29T22:00:00,1896A,105.4379,28.8833,泸州市,市环监站,颗粒物(PM10),53,56,43,32,30,210,140,181,174,28,27,5,7,0.5,0.5
2022-07-29T22:00:00,1897A,104.7547,29.3628,自贡市,大塘山(对照点),,,,,,,,,,,,,,,,
2022-07-29T22:00:00,1900A,104.7692,29.3411,自贡市,春华路,,,,,,,,,,,,,,,,
2022-07-29T22:00:00,1901A,104.4239,31.1208,德阳市,东山公园,,40,37,34,15,14,170,127,150,145,21,14,5,12,0.7,0.6
2022-07-29T22:00:00,1902A,104.3826,31.1317,德阳市,西小区,,,50,45,16,11,160,102,143,134,25,20,5,7,,0.6
2022-07-29T22:00:00,1903A,104.4053,31.1167,德阳市,市检察院,,,,,,,,,,,,,,,,
2022-07-29T22:00:00,1904A,104.3553,31.1091,德阳市,耐火材料厂,,46,46,48,17,15,144,102,136,128,25,26,6,8,0.6,0.6
2022-07-29T22:00:00,1905A,106.056,30.8064,南充市,西山风景区(对照点),,37,37,39,19,23,127,94,121,111,20,23,5,4,0.7,0.8
2022-07-29T22:00:00,1906A,106.0789,30.8023,南充市,南充市委,,45,45,42,20,16,131,82,123,109,46,12,3,2,0.6,0.4
2022-07-29T22:00:00,1907A,106.1031,30.8217,南充市,南充炼油厂,,48,48,45,25,21,133,97,126,117,11,12,6,7,0.5,0.5
2022-07-29T22:00:00,1908A,106.1064,30.7856,南充市,高坪区监测站,,34,34,35,21,23,134,39,118,98,42,20,2,4,0.7,0.5
2022-07-29T22:00:00,1909A,106.0642,30.7636,南充市,嘉陵区环保局,细颗粒物(PM2.5),52,30,39,36,25,126,41,122,106,48,18,5,5,0.6,0.5
2022-07-29T22:00:00,1910A,106.1087,30.8388,南充市,市环境监测站,,42,42,40,2,24,118,95,113,105,7,14,6,6,0.4,0.3
2022-07-29T22:00:00,1911A,106.9222,27.6869,遵义市,丁字口,颗粒物(PM10),55,60,24,26,19,134,47,122,104,29,14,6,6,0.8,0.7
2022-07-29T22:00:00,1912A,106.9242,27.7019,遵义市,凤凰山,,31,31,25,18,11,132,69,125,119,28,14,3,2,0.7,0.6
2022-07-29T22:00:00,1913A,106.8906,27.6486,遵义市,忠庄,颗粒物(PM10),60,69,30,25,11,130,53,120,108,32,15,2,2,0.6,0.4
2022-07-29T22:00:00,1914A,106.9231,27.6506,遵义市,舟水桥,颗粒物(PM10),57,63,38,18,16,122,26,109,92,34,14,2,2,0.5,0.4
2022-07-29T22:00:00,1915A,106.9178,27.72,遵义市,干田坝,,40,40,25,24,17,135,38,124,105,30,14,5,5,0.8,0.7
2022-07-29T22:00:00,1916A,103.7897,25.5035,曲靖市,环境监测站,,43,43,37,18,24,159,91,138,133,20,25,8,4,0.6,0.7
2022-07-29T22:00:00,1917A,103.8,25.5364,曲靖市,烟厂办公区,,32,32,37,17,22,156,100,134,131,14,17,9,5,0.7,0.8
2022-07-29T22:00:00,1918A,108.7197,34.3956,咸阳市,气象站(对照点),颗粒物(PM10),57,63,63,31,29,182,74,170,149,40,22,5,6,1.0,1
2022-07-29T22:00:00,1919A,108.673,34.3155,咸阳市,实验中学,颗粒物(PM10),52,53,58,27,29,222,106,183,162,26,22,4,6,0.5,0.5
2022-07-29T22:00:00,1920A,108.7233,34.3617,咸阳市,师范学院,颗粒物(PM10),58,65,60,29,29,190,100,174,152,19,19,5,6,0.7,0.6
2022-07-29T22:00:00,1922A,109.0656,35.0994,铜川市,党校(对照点),颗粒物(PM10),57,63,43,22,17,121,53,110,97,22,16,4,4,0.6,0.6
2022-07-29T22:00:00,1923A,109.0697,35.0697,铜川市,王益区政府,颗粒物(PM10),55,59,45,23,18,144,77,138,124,15,16,4,5,0.6,0.6
2022-07-29T22:00:00,1924A,108.9344,34.9058,铜川市,新区管委会,颗粒物(PM10),60,69,49,29,22,161,98,147,137,28,17,7,8,0.6,0.6
2022-07-29T22:00:00,1925A,108.9589,34.8731,铜川市,新区兰芝公司,,,,,,,,,,,,,,,,
2022-07-29T22:00:00,1926A,109.4131,36.6275,延安市,枣园(对照点),,44,44,30,17,12,144,45,137,112,35,16,4,4,0.7,0.6
2022-07-29T22:00:00,1927A,109.4761,36.6028,延安市,延大医附院,颗粒物(PM10),54,57,41,19,14,130,36,126,103,56,23,4,4,0.5,0.3
2022-07-29T22:00:00,1928A,109.4824,36.5767,延安市,市监测站,,,,,,,,,,,,,,,,
2022-07-29T22:00:00,1929A,109.5056,36.6106,延安市,百米大道,颗粒物(PM10),53,56,54,17,18,163,60,134,108,34,25,6,6,0.8,0.7
2022-07-29T22:00:00,1930A,107.185,34.3063,宝鸡市,庙沟村(对照点),,46,46,39,22,17,156,112,140,132,15,13,4,5,0.4,0.4
2022-07-29T22:00:00,1931A,107.0708,34.3017,宝鸡市,竹园沟,,48,48,42,32,25,177,84,167,145,19,14,4,5,0.6,0.4
2022-07-29T22:00:00,1932A,107.1906,34.3672,宝鸡市,三陆医院,颗粒物(PM10),60,70,57,28,21,179,163,169,169,19,19,6,6,0.6,0.4
2022-07-29T22:00:00,1933A,107.1431,34.3547,宝鸡市,监测站,颗粒物(PM10),57,63,47,33,24,176,78,168,154,29,20,6,6,0.5,0.4
2022-07-29T22:00:00,1934A,107.1186,34.3739,宝鸡市,技工学校,颗粒物(PM10),53,55,56,10,21,178,111,168,160,35,18,5,6,0.5,0.5
2022-07-29T22:00:00,1935A,107.3906,34.3528,宝鸡市,陈仓区环保局家属楼,颗粒物(PM10),77,104,55,40,24,184,127,168,163,37,23,7,6,0.6,0.4
2022-07-29T22:00:00,1936A,107.2058,34.3497,宝鸡市,文理学院,颗粒物(PM10),65,79,49,31,19,183,156,175,173,26,19,8,8,0.5,0.3
2022-07-29T22:00:00,1937A,107.2386,34.3622,宝鸡市,三迪小学,细颗粒物(PM2.5),72,73,50,52,30,171,149,158,157,32,24,6,6,0.6,0.4
2022-07-29T22:00:00,1938A,109.5293,34.5101,渭南市,农科所(对照点),,,,,,,,,,,,,,,,
2022-07-29T22:00:00,1939A,109.4974,34.4877,渭南市,日报社,颗粒物(PM10),51,51,47,32,31,156,112,149,141,20,18,5,7,0.4,0.4
2022-07-29T22:00:00,1940A,109.4636,34.493,渭南市,体育馆,,48,48,48,30,31,166,123,157,150,13,22,3,4,0.4,0.4
2022-07-29T22:00:00,1941A,109.4259,34.5023,渭南市,高新一小,,42,42,60,22,30,151,113,144,137,14,18,4,5,0.4,0.4
2022-07-29T22:00:00,1943A,102.1725,38.5339,金昌市,新川苑,,43,43,50,15,12,147,108,143,134,29,21,9,33,0.8,0.6
2022-07-29T22:00:00,1944A,102.1692,38.5167,金昌市,天庆家园,,,38,50,11,10,144,119,140,132,15,19,8,50,,0.5
2022-07-29T22:00:00,1945A,98.2908,39.7711,嘉峪关市,气象局,颗粒物(PM10),59,68,43,17,13,144,96,142,134,40,12,2,9,0.6,0.6
2022-07-29T22:00:00,1947A,106.3394,38.817,石嘴山市,沙湖旅游区(对照点),颗粒物(PM10),65,80,64,35,15,203,120,190,181,17,16,23,28,0.5,0.4
2022-07-29T22:00:00,1948A,106.3668,39.0145,石嘴山市,大武口朝阳西街,颗粒物(PM10),63,75,55,24,15,191,122,179,167,36,19,14,16,0.8,0.6
2022-07-29T22:00:00,1949A,106.7704,39.2282,石嘴山市,惠农南大街,颗粒物(PM10),58,65,56,19,16,181,96,163,151,18,21,10,14,0.4,0.4
2022-07-29T22:00:00,1950A,106.7099,39.1325,石嘴山市,红果子镇惠新街,,,95,86,26,18,179,106,164,153,14,22,,24,0.3,0.4
2022-07-29T22:00:00,1951A,84.895,45.6094,克拉玛依市,长征新村,,34,32,22,1,5,114,106,109,106,5,5,8,8,0.3,0.2
2022-07-29T22:00:00,1952A,84.8988,45.5893,克拉玛依市,南林小区,,36,36,30,18,11,115,114,110,98,8,14,8,8,0.4,0.5
2022-07-29T22:00:00,1953A,85.1186,45.6886,克拉玛依市,白碱滩区,,,,,,,,,,,,,,,,
2022-07-29T22:00:00,1954A,84.905,44.3396,克拉玛依市,独山子区,,38,21,26,13,10,124,119,117,116,5,6,8,8,0.5,0.5
2022-07-29T22:00:00,1955A,85.6979,46.098,克拉玛依市,乌尔禾区商贸楼,,32,22,31,7,11,120,101,112,111,7,7,12,12,0.2,0.3
2022-07-29T22:00:00,1956A,86.1472,41.7538,巴音郭楞州,孔雀公园,颗粒物(PM10),57,63,65,15,13,120,88,118,98,25,28,3,3,0.4,0.4
2022-07-29T22:00:00,1957A,86.1972,41.7166,巴音郭楞州,棉纺厂,,,66,76,11,24,119,58,115,91,,27,,4,0.5,0.3
2022-07-29T22:00:00,1958A,86.2357,41.7173,巴音郭楞州,经济开发区,,48,48,76,8,19,120,60,116,98,47,12,4,4,0.4,0.2
2022-07-29T22:00:00,1959A,118.746,36.881,寿光市,监测站,,,,,,,,,,,,,,,,
2022-07-29T22:00:00,1960A,118.780,36.864,寿光市,世纪学校,,,,,,,,,,,,,,,,
2022-07-29T22:00:00,1961A,117.532,36.6868,济南市,东山小学,,27,27,39,7,16,96,67,78,70,11,22,3,4,0.4,0.6
2022-07-29T22:00:00,1962A,117.541,36.710,章丘市,明水开发区,,,,,,,,,,,,,,,,
2022-07-29T22:00:00,1963A,120.610,36.440,即墨市,环保局子站,,,,,,,,,,,,,,,,
2022-07-29T22:00:00,1964A,120.470,36.390,即墨市,开发区子站,,,,,,,,,,,,,,,,
2022-07-29T22:00:00,1965A,120.005,35.878,胶南市,JN子站,,,,,,,,,,,,,,,,
2022-07-29T22:00:00,1966A,120.0405,35.8735,青岛市,黄岛区4号,,18,9,26,5,9,118,56,92,85,2,19,4,5,0.3,0.6
2022-07-29T22:00:00,1967A,120.008,36.283,胶州市,胶州环保局,,,,,,,,,,,,,,,,
2022-07-29T22:00:00,1968A,120.014,36.253,胶州市,胶州一中,,,,,,,,,,,,,,,,
2022-07-29T22:00:00,1969A,120.537,36.865,莱西市,环保局子站,,,,,,,,,,,,,,,,
2022-07-29T22:00:00,1970A,120.515,36.885,莱西市,人民广场子站,,,,,,,,,,,,,,,,
2022-07-29T22:00:00,1971A,119.952,36.792,平度市,1号,,,,,,,,,,,,,,,,
2022-07-29T22:00:00,1972A,119.976,36.799,平度市,2号,,,,,,,,,,,,,,,,
2022-07-29T22:00:00,1973A,120.747,37.825,蓬莱市,蓬莱环保局,,,,,,,,,,,,,,,,
2022-07-29T22:00:00,1974A,120.773,37.809,蓬莱市,蓬莱博物馆,,,,,,,,,,,,,,,,
2022-07-29T22:00:00,1975A,120.399,37.374,招远市,招远环保局,,,,,,,,,,,,,,,,
2022-07-29T22:00:00,1976A,120.394,37.364,招远市,招远教育局,,,,,,,,,,,,,,,,
2022-07-29T22:00:00,1977A,119.941,37.177,莱州市,莱州环保局,,,,,,,,,,,,,,,,
2022-07-29T22:00:00,1978A,119.959,37.180,莱州市,莱州外经委,,,,,,,,,,,,,,,,
2022-07-29T22:00:00,1979A,122.471,37.154,荣成市,荣成市环保局办公楼,,,,,,,,,,,,,,,,
2022-07-29T22:00:00,1980A,122.410,37.161,荣成市,山东成山轮胎公司,,,,,,,,,,,,,,,,
2022-07-29T22:00:00,1981A,122.038,37.197,文登市,文登市环保局,,,,,,,,,,,,,,,,
2022-07-29T22:00:00,1982A,122.0693,37.2174,威海市,文登开发区,,22,22,17,12,11,85,43,75,46,8,9,4,4,0.2,0.3
2022-07-29T22:00:00,1983A,121.531,36.913,乳山市,乳山市环保局,,,,,,,,,,,,,,,,
2022-07-29T22:00:00,1984A,121.544,36.907,乳山市,乳山市气象局,,,,,,,,,,,,,,,,
2022-07-29T22:00:00,1985A,120.636,31.155,吴江市,吴江市环保局,,,,,,,,,,,,,,,,
2022-07-29T22:00:00,1986A,120.635,31.170,吴江市,教师进修学校,,,,,,,,,,,,,,,,
2022-07-29T22:00:00,1987A,120.658,31.172,吴江市,吴江开发区,,,,,,,,,,,,,,,,
2022-07-29T22:00:00,1988A,120.953,31.388,昆山市,昆山实验小学,,,,,,,,,,,,,,,,
2022-07-29T22:00:00,1989A,120.999,31.381,昆山市,震川中学,,,,,,,,,,,,,,,,
2022-07-29T22:00:00,1990A,120.758,31.670,常熟市,海虞子站,,,,,,,,,,,,,,,,
2022-07-29T22:00:00,1991A,120.721,31.671,常熟市,兴福子站,,,,,,,,,,,,,,,,
2022-07-29T22:00:00,1992A,120.734,31.656,常熟市,菱塘子站,,,,,,,,,,,,,,,,
2022-07-29T22:00:00,1993A,120.526,31.874,张家港市,张家港市监测站,,,,,,,,,,,,,,,,
2022-07-29T22:00:00,1994A,120.550,31.882,张家港市,城北小学,,,,,,,,,,,,,,,,
2022-07-29T22:00:00,1995A,121.115,31.453,太仓市,太仓市监测站,,,,,,,,,,,,,,,,
2022-07-29T22:00:00,1996A,121.140,31.422,太仓市,科教新城实小,,,,,,,,,,,,,,,,
2022-07-29T22:00:00,1997A,119.146,31.955,句容市,消防指挥中心,,,,,,,,,,,,,,,,
2022-07-29T22:00:00,1998A,119.180,31.955,句容市,房家坝,,,,,,,,,,,,,,,,
2022-07-29T22:00:00,1999A,120.268,31.920,江阴市,虹桥邮政,,,,,,,,,,,,,,,,
2022-07-29T22:00:00,2000A,120.237,31.909,江阴市,五星公园,,,,,,,,,,,,,,,,
2022-07-29T22:00:00,2001A,120.302,31.920,江阴市,第二实验小学,,,,,,,,,,,,,,,,
2022-07-29T22:00:00,2002A,119.818,31.354,宜兴市,宜兴市环保局,,,,,,,,,,,,,,,,
2022-07-29T22:00:00,2003A,119.794,31.371,宜兴市,宜园,,,,,,,,,,,,,,,,
2022-07-29T22:00:00,2004A,119.579,31.751,金坛市,金坛市环境监测站,,,,,,,,,,,,,,,,
2022-07-29T22:00:00,2005A,119.579,31.737,金坛市,金坛市自来水公司,,,,,,,,,,,,,,,,
2022-07-29T22:00:00,2006A,119.460,31.400,溧阳市,溧阳市东门子站,,,,,,,,,,,,,,,,
2022-07-29T22:00:00,2007A,119.438,31.317,溧阳市,燕山子站,,,,,,,,,,,,,,,,
2022-07-29T22:00:00,2008A,121.173,31.896,海门市,海门市监测站,,,,,,,,,,,,,,,,
2022-07-29T22:00:00,2009A,121.1518,31.89708,海门市,社会福利院,,,,,,,,,,,,,,,,
2022-07-29T22:00:00,2010A,119.7183,30.2366,临安市,市政府,,,,,,,,,,,,,,,,
2022-07-29T22:00:00,2011A,119.6942,30.2311,临安市,四中,,,,,,,,,,,,,,,,
2022-07-29T22:00:00,2012A,119.954,30.054,富阳市,监测站,,,,,,,,,,,,,,,,
2022-07-29T22:00:00,2013A,119.946,30.049,富阳市,富春二小,,,,,,,,,,,,,,,,
2022-07-29T22:00:00,2014A,120.091,29.305,义乌市,江东,,,,,,,,,,,,,,,,
2022-07-29T22:00:00,2015A,120.040,29.334,义乌市,北苑,,,,,,,,,,,,,,,,
2022-07-29T22:00:00,2016A,120.251,29.719,诸暨市,图书馆,,,,,,,,,,,,,,,,
2022-07-29T22:00:00,2017A,120.209,29.732,诸暨市,富林印务,,,,,,,,,,,,,,,,
2022-07-29T22:00:00,2018A,121.989,39.625,瓦房店市,抱龙山庄,,,,,,,,,,,,,,,,
2022-07-29T22:00:00,2019A,122.011,39.617,瓦房店市,东山公园,,,,,,,,,,,,,,,,
2022-07-29T22:00:00,2031A,113.1817,27.9958,株洲市,云田中学,,22,19,22,15,13,125,28,79,54,20,13,4,4,0.8,0.7
2022-07-29T22:00:00,2054A,114.1099,32.1059,信阳市,平桥分局,,,,30,15,16,127,92,121,114,14,10,6,6,0.7,0.7
2022-07-29T22:00:00,2064A,113.9956,32.1271,信阳市,南湾水厂,,36,36,27,17,12,132,77,121,112,14,7,6,6,0.6,0.6
2022-07-29T22:00:00,2065A,114.0775,32.1195,信阳市,市酿酒公司,,,18,20,14,14,123,,118,117,9,8,8,8,0.6,0.6
2022-07-29T22:00:00,2066A,114.0609,32.1399,信阳市,审计局,,30,27,26,12,13,129,94,123,115,9,9,7,7,0.6,0.6
2022-07-29T22:00:00,2067A,114.6613,33.6128,周口市,市环境监测站,,32,32,27,16,15,121,71,118,104,10,8,4,8,0.4,0.5
2022-07-29T22:00:00,2068A,114.6758,33.6347,周口市,周口师范,,28,28,27,13,15,124,70,120,108,11,7,2,7,0.5,0.5
2022-07-29T22:00:00,2069A,114.6546,33.5979,周口市,市运管处,,34,34,28,16,14,117,69,114,100,22,7,4,7,0.6,0.7
2022-07-29T22:00:00,2070A,114.6369,33.6406,周口市,川汇区环保局,,31,31,24,19,19,123,78,119,108,6,6,4,11,0.4,0.5
2022-07-29T22:00:00,2075A,117.6336,24.4674,漳州市,九湖(对照点),,,,,,,,,,,,,,,,
2022-07-29T22:00:00,2160A,112.85,35.5051,晋城市,自来水公司,,,47,56,,33,154,137,148,147,5,10,4,4,0.5,0.7
2022-07-29T22:00:00,2161A,112.8318,35.4936,晋城市,白云商贸,,45,41,47,17,29,164,143,156,155,11,9,2,2,0.7,0.9
2022-07-29T22:00:00,2162A,112.8508,35.4887,晋城市,市环保局,,45,44,49,22,36,162,142,155,154,12,11,2,2,0.6,0.7
2022-07-29T22:00:00,2163A,112.8676,35.4897,晋城市,技术学院,,43,23,36,19,27,156,137,146,146,9,11,1,2,0.4,0.6
2022-07-29T22:00:00,2164A,112.8271,35.4828,晋城市,泽州一中,,,,,,,,,,,,,,,,
2022-07-29T22:00:00,2165A,112.8453,35.546,晋城市,白马寺 (对照点),,,,,,,,,,,,,,,,
2022-07-29T22:00:00,2166A,112.4397,39.3522,朔州市,平朔,"颗粒物(PM10),细颗粒物(PM2.5)",80,110,86,59,27,157,67,136,126,40,42,9,11,1.0,0.6
2022-07-29T22:00:00,2167A,112.4575,39.3617,朔州市,朔唯,颗粒物(PM10),85,119,93,37,26,157,57,136,117,57,45,10,10,0.7,0.6
2022-07-29T22:00:00,2168A,112.4258,39.3197,朔州市,区政府,,48,48,75,22,18,156,132,136,134,18,34,11,12,0.8,0.6
2022-07-29T22:00:00,2169A,112.4072,39.3278,朔州市,市环保局,颗粒物(PM10),53,56,78,22,17,155,108,134,130,20,30,8,10,0.6,0.5
2022-07-29T22:00:00,2170A,112.4272,39.3681,朔州市,市二中,颗粒物(PM10),60,69,103,35,28,157,74,136,126,27,41,6,8,0.7,0.7
2022-07-29T22:00:00,2171A,112.7532,37.6945,晋中市,锦纶小区,,45,45,47,18,20,188,122,168,152,10,23,7,9,0.5,0.5
2022-07-29T22:00:00,2173A,112.7249,37.7067,晋中市,南都小区,,42,42,46,20,21,183,116,164,147,15,28,6,8,0.4,0.4
2022-07-29T22:00:00,2174A,112.6991,37.6982,晋中市,榆次区政府,,44,44,45,20,23,172,110,153,140,12,21,5,7,0.5,0.5
2022-07-29T22:00:00,2175A,110.9956,35.0147,运城市,运城中学,颗粒物(PM10),55,59,47,30,32,164,136,146,146,7,8,6,7,0.6,0.6
2022-07-29T22:00:00,2176A,111.0233,35.0611,运城市,禹都开发区,,,,,,,,,,,,,,,,
2022-07-29T22:00:00,2178A,110.9686,35.0303,运城市,地区技校,颗粒物(PM10),52,53,50,29,25,169,143,151,151,6,10,6,6,0.6,0.7
2022-07-29T22:00:00,2179A,111.0414,35.1147,运城市,空港新区,颗粒物(PM10),57,64,64,36,32,165,134,151,150,12,16,9,11,0.5,0.6
2022-07-29T22:00:00,2181A,112.7383,38.4519,忻州市,开发区,,41,41,47,22,27,177,112,154,135,12,20,8,12,0.7,0.6
2022-07-29T22:00:00,2182A,112.7003,38.4928,忻州市,会展中心,,50,50,44,24,21,175,107,167,125,14,26,8,10,0.6,0.5
2022-07-29T22:00:00,2183A,111.1406,37.5211,吕梁市,环保局,颗粒物(PM10),73,96,61,26,17,171,48,158,135,86,42,5,4,0.6,0.4
2022-07-29T22:00:00,2185A,111.1297,37.5136,吕梁市,自来水公司,颗粒物(PM10),69,88,62,31,25,165,75,154,140,55,29,7,5,0.5,0.4
2022-07-29T22:00:00,2186A,106.8288,39.6778,乌海市,聚英学校,,,,,,,,,,,,,,,,
2022-07-29T22:00:00,2187A,106.8174,39.6973,乌海市,市林业局,颗粒物(PM10),59,68,77,22,24,196,137,173,164,6,27,9,29,0.5,0.7
2022-07-29T22:00:00,2188A,106.7907,39.6667,乌海市,中海勃湾学校,颗粒物(PM10),61,72,62,23,22,197,131,180,168,13,28,13,27,0.4,0.6
2022-07-29T22:00:00,2191A,122.2532,43.6801,通辽市,艺术职业学校,,23,23,24,5,6,75,49,69,60,10,8,5,5,0.2,0.2
2022-07-29T22:00:00,2192A,119.7594,49.2261,呼伦贝尔市,区环保局,,42,42,30,14,14,88,85,82,71,8,14,5,5,0.3,0.4
2022-07-29T22:00:00,2194A,107.5936,40.916,巴彦淖尔市,秋林养殖基地(对照点),,,,,,,,,,,,,,,,
2022-07-29T22:00:00,2195A,107.4212,40.761,巴彦淖尔市,附二中,颗粒物(PM10),54,58,87,27,23,162,114,152,142,9,14,3,8,0.5,0.6
2022-07-29T22:00:00,2196A,107.37,40.7372,巴彦淖尔市,市环保大楼,颗粒物(PM10),53,55,74,29,25,169,120,158,150,11,14,4,5,0.5,0.6
2022-07-29T22:00:00,2197A,113.1306,40.9923,乌兰察布市,集宁新区,,48,48,29,26,16,156,115,151,140,15,12,13,12,0.5,0.4
2022-07-29T22:00:00,2200A,122.0392,46.0656,兴安盟,胜华新制药厂,,19,16,24,13,16,83,58,74,70,6,7,3,3,0.2,0.3
2022-07-29T22:00:00,2201A,121.9504,46.0741,兴安盟,科右前旗环保局,,32,21,14,22,17,90,59,82,79,9,8,3,4,0.2,0.3
2022-07-29T22:00:00,2202A,116.1042,43.9317,锡林郭勒盟,市环保监测站,,33,25,24,5,6,169,105,139,126,5,6,13,12,0.2,0.2
2022-07-29T22:00:00,2203A,116.0781,43.9311,锡林郭勒盟,市政府,,33,17,25,5,4,141,104,130,115,7,7,6,9,0.3,0.2
2022-07-29T22:00:00,2204A,105.6467,38.8363,阿拉善盟,西城区西花园(对照点),,50,36,36,17,16,164,157,156,156,7,7,4,4,0.3,0.3
2022-07-29T22:00:00,2205A,105.6985,38.8411,阿拉善盟,蒙二幼,,50,37,38,27,19,162,158,156,156,6,7,8,8,0.3,0.3
2022-07-29T22:00:00,2206A,105.724,38.8516,阿拉善盟,环保局新楼,臭氧1小时,58,22,19,13,12,169,166,155,155,6,7,9,8,0.4,0.4
2022-07-29T22:00:00,2207A,121.6094,41.998,阜新市,工业园区,,19,14,12,11,7,98,59,95,68,11,12,6,14,0.6,0.6
2022-07-29T22:00:00,2208A,121.6697,42.0279,阜新市,长青街,,20,13,12,0,5,100,62,99,69,18,8,9,10,0.6,0.4
2022-07-29T22:00:00,2209A,121.6673,42.0705,阜新市,农业园区,,21,14,10,12,9,109,67,109,77,7,6,30,24,0.7,0.6
2022-07-29T22:00:00,2210A,121.6717,42.0224,阜新市,东苑,,25,21,12,17,9,101,58,100,75,21,9,8,17,0.6,0.5
2022-07-29T22:00:00,2211A,121.6506,42.0498,阜新市,玉龙新城,,25,25,12,10,7,103,58,103,75,8,10,22,15,0.6,0.5
2022-07-29T22:00:00,2212A,123.2,41.1953,辽阳市,宏伟区,,25,25,22,12,10,96,31,93,45,26,8,5,5,0.6,0.5
2022-07-29T22:00:00,2213A,123.1683,41.2495,辽阳市,新华园,,47,47,27,25,13,97,33,94,50,36,14,6,5,1.3,0.6
2022-07-29T22:00:00,2214A,123.2354,41.2639,辽阳市,滨河路,,31,31,32,7,9,88,37,88,50,28,11,6,8,0.7,0.4
2022-07-29T22:00:00,2215A,123.149,41.2991,辽阳市,铁西工业园,,42,42,30,25,17,86,23,84,43,41,14,4,4,1.8,0.7
2022-07-29T22:00:00,2216A,123.8139,42.3022,铁岭市,汇工街西,,23,17,16,9,9,111,73,102,84,14,11,6,6,0.6,0.5
2022-07-29T22:00:00,2217A,123.8649,42.2923,铁岭市,水上乐园,,17,15,15,7,11,99,54,83,66,30,18,5,5,0.5,0.3
2022-07-29T22:00:00,2218A,123.8486,42.2867,铁岭市,银州路东段,,20,17,22,9,9,110,62,86,67,22,18,4,4,0.6,0.4
2022-07-29T22:00:00,2219A,123.7153,42.2217,铁岭市,金沙江路北,,24,15,13,5,8,105,74,87,73,19,19,5,5,0.7,0.6
2022-07-29T22:00:00,2220A,120.4318,41.5881,朝阳市,西梁,,50,5,14,35,25,93,63,93,75,6,5,6,7,0.8,0.7
2022-07-29T22:00:00,2221A,120.4521,41.5646,朝阳市,河畔小区,,30,30,18,9,7,100,68,92,79,5,5,7,7,0.5,0.5
2022-07-29T22:00:00,2222A,120.4176,41.5648,朝阳市,八里堡,,25,25,18,11,11,107,56,96,76,11,9,5,5,0.6,0.6
2022-07-29T22:00:00,2223A,120.3806,41.5969,朝阳市,农业园区,,31,31,15,13,8,100,36,91,69,20,7,6,6,0.5,0.5
2022-07-29T22:00:00,2225A,124.4002,43.1713,四平市,一商场,,18,18,19,10,10,86,53,75,69,21,9,5,2,0.4,0.5
2022-07-29T22:00:00,2226A,124.388,43.193,四平市,境园,,14,7,9,5,9,73,42,67,62,20,10,7,7,0.4,0.5
2022-07-29T22:00:00,2227A,125.1358,42.8845,辽源市,环保局,,20,16,25,11,11,108,63,86,70,15,9,5,13,0.5,0.5
2022-07-29T22:00:00,2229A,125.9358,41.7173,通化市,光明,,29,29,24,15,12,67,11,62,36,19,12,9,9,0.6,0.5
2022-07-29T22:00:00,2230A,125.9446,41.7325,通化市,铁路,,33,33,22,18,13,72,8,69,41,22,15,10,9,0.6,0.6
2022-07-29T22:00:00,2231A,126.4219,41.9171,白山市,喜丰,,35,35,32,14,12,68,13,65,41,14,12,7,10,0.8,0.8
2022-07-29T22:00:00,2232A,126.4077,41.9419,白山市,环保局,,43,43,34,12,14,78,10,71,44,19,12,6,8,0.7,0.6
2022-07-29T22:00:00,2233A,124.8006,45.1214,松原市,江南,,18,8,16,12,7,103,54,93,78,22,8,3,3,0.5,0.4
2022-07-29T22:00:00,2234A,124.7965,45.1722,松原市,江北,,12,12,8,2,8,102,36,93,73,13,7,1,2,0.4,0.3
2022-07-29T22:00:00,2235A,122.7911,45.6077,白城市,洮北区环保局,,27,27,22,6,11,99,51,89,79,16,8,4,4,0.2,0.2
2022-07-29T22:00:00,2236A,122.8738,45.5725,白城市,市环保局,,34,34,21,7,9,93,48,86,72,23,9,3,3,0.2,0.2
2022-07-29T22:00:00,2237A,129.47,42.8883,延边朝鲜族自治州,妇幼医院,,15,15,32,7,11,71,33,61,46,8,7,7,7,0.4,0.4
2022-07-29T22:00:00,2238A,129.5055,42.9108,延边朝鲜族自治州,延边医院,,,,,,,,,,,,,,,,
2022-07-29T22:00:00,2239A,129.3964,42.8881,延边朝鲜族自治州,朝阳川镇医院,,27,27,23,4,8,74,26,57,40,7,9,7,7,0.4,0.4
2022-07-29T22:00:00,2240A,130.9762,45.3001,鸡西市,环保局,,34,34,26,15,13,60,39,58,48,16,15,2,2,0.1,0.1
2022-07-29T22:00:00,2243A,130.9429,45.3039,鸡西市,第一中学,,24,24,25,16,11,70,46,66,58,4,5,4,3,0.2,0.2
2022-07-29T22:00:00,2244A,130.2537,47.3416,鹤岗市,哈啤分公司,,20,20,18,11,7,111,37,97,64,18,14,13,7,0.3,0.4
2022-07-29T22:00:00,2245A,130.2684,47.3086,鹤岗市,斯达机电,,24,24,17,11,6,106,47,92,70,12,8,11,7,0.6,0.3
2022-07-29T22:00:00,2246A,130.3114,47.3388,鹤岗市,东山纸板厂,,36,36,26,21,13,96,25,80,52,22,14,7,7,0.4,0.3
2022-07-29T22:00:00,2247A,130.1097,47.3382,鹤岗市,五号水库(对照点),,13,13,17,0,2,109,16,85,40,21,14,2,4,0.2,0.1
2022-07-29T22:00:00,2248A,131.1511,46.6937,双鸭山市,双合村,,39,39,25,18,13,94,31,81,62,12,10,5,5,0.5,0.4
2022-07-29T22:00:00,2249A,131.1652,46.6191,双鸭山市,南小市,,27,27,31,18,13,83,18,69,36,5,10,4,4,0.2,0.2
2022-07-29T22:00:00,2250A,131.1524,46.6554,双鸭山市,环保局,,28,28,16,8,5,86,19,76,52,18,9,4,4,0.5,0.3
2022-07-29T22:00:00,2251A,131.12,46.5656,双鸭山市,苗圃(对照点),,32,25,25,22,16,96,19,79,46,5,5,3,3,0.5,0.5
2022-07-29T22:00:00,2252A,128.5159,47.4311,伊春市,环保局,,19,19,17,10,10,53,40,48,42,10,14,4,5,0.1,0.2
2022-07-29T22:00:00,2253A,128.9102,47.7412,伊春市,电力嘉园,,15,8,11,5,7,58,46,45,40,4,7,5,5,0.4,0.5
2022-07-29T22:00:00,2254A,129.5029,48.471,伊春市,汤旺河国家公园(对照点),,8,8,12,5,8,46,10,36,29,2,2,7,6,0.4,0.4
2022-07-29T22:00:00,2255A,130.2751,46.8028,佳木斯市,佳纺,,26,12,22,18,14,101,45,94,62,16,10,4,4,0.5,0.5
2022-07-29T22:00:00,2256A,130.3995,46.8307,佳木斯市,发电厂,颗粒物(PM10),53,55,34,22,17,98,50,91,66,17,12,3,3,0.4,0.4
2022-07-29T22:00:00,2257A,130.3258,46.7975,佳木斯市,环保局,,37,37,26,23,16,95,48,88,68,13,8,1,1,0.4,0.4
2022-07-29T22:00:00,2258A,130.3648,46.8032,佳木斯市,十一中,,43,43,33,22,15,89,50,80,61,18,14,4,4,0.4,0.4
2022-07-29T22:00:00,2259A,130.3794,46.7588,佳木斯市,四丰(对照点),,29,29,21,14,14,97,59,90,68,8,8,1,1,0.4,0.4
2022-07-29T22:00:00,2262A,131.0518,45.8751,七台河市,新一中(对照点),,26,26,16,16,13,105,59,95,74,7,9,7,7,0.7,0.7
2022-07-29T22:00:00,2263A,127.4833,50.2524,黑河市,交通局,,23,16,14,16,13,64,26,58,46,18,14,4,5,0.5,1.3
2022-07-29T22:00:00,2264A,127.5144,50.2341,黑河市,环保局,,15,9,11,10,7,77,40,65,56,8,8,5,6,0.5,0.8
2022-07-29T22:00:00,2265A,127.5291,50.2472,黑河市,大黑河岛(对照点),,40,4,2,28,11,73,23,65,54,8,6,8,8,1.2,1.2
2022-07-29T22:00:00,2266A,126.9785,46.6365,绥化市,人和东街,,19,12,16,13,13,78,43,69,66,12,14,5,5,0.4,0.3
2022-07-29T22:00:00,2267A,126.964,46.6528,绥化市,党政办公中心,,15,10,16,7,10,83,45,74,71,11,16,5,6,0.3,0.3
2022-07-29T22:00:00,2269A,124.1069,50.4097,大兴安岭地区,科技局,,23,6,7,16,8,65,32,60,48,4,4,3,3,0.3,0.3
2022-07-29T22:00:00,2270A,117.396,32.939,蚌埠市,工人疗养院,,30,22,20,13,17,110,96,98,98,3,7,7,8,0.3,0.3
2022-07-29T22:00:00,2271A,117.3605,32.9427,蚌埠市,百货大楼,,43,43,24,23,15,113,95,100,100,9,11,8,8,0.2,0.3
2022-07-29T22:00:00,2273A,117.4185,32.8911,蚌埠市,蚌埠学院,,22,22,25,14,16,104,68,89,85,28,19,13,12,0.4,0.4
2022-07-29T22:00:00,2274A,117.3533,32.9673,蚌埠市,淮上区政府,,34,34,25,14,15,111,88,97,97,10,6,9,8,0.3,0.3
2022-07-29T22:00:00,2275A,117.3145,32.8977,蚌埠市,高新区,,29,29,22,19,18,118,84,108,105,24,17,8,7,0.5,0.5
2022-07-29T22:00:00,2277A,116.8305,32.7727,淮南市,潘集区政府,,38,38,20,21,13,119,73,103,95,10,10,8,7,0.3,0.2
2022-07-29T22:00:00,2278A,117.0067,32.6524,淮南市,师范学院,,49,49,28,20,10,112,70,104,95,12,6,9,6,0.3,0.1
2022-07-29T22:00:00,2279A,116.8569,32.5951,淮南市,谢家集区政府,,44,44,18,23,9,127,73,108,101,17,10,5,7,0.3,0.2
2022-07-29T22:00:00,2280A,116.8281,32.633,淮南市,八公山区政府,,32,32,17,16,12,128,75,107,102,14,9,10,7,0.4,0.3
2022-07-29T22:00:00,2281A,116.6325,32.6201,淮南市,焦岗湖风景区管理处(对照点),,35,35,21,14,8,129,58,98,92,26,13,9,8,0.3,0.2
2022-07-29T22:00:00,2282A,116.8004,33.975,淮北市,监测站,,45,39,22,31,15,102,84,94,89,8,6,5,5,0.6,0.5
2022-07-29T22:00:00,2283A,116.8091,33.9007,淮北市,烈山区政府,,43,23,16,30,17,110,87,99,97,5,6,9,9,0.6,0.6
2022-07-29T22:00:00,2284A,116.7856,33.9477,淮北市,职业技术学院,颗粒物(PM10),51,52,25,28,15,96,67,89,80,26,11,6,6,0.6,0.5
2022-07-29T22:00:00,2285A,117.8177,30.9412,铜陵市,市第四中学,,32,27,24,22,16,142,50,115,101,58,20,5,8,0.4,0.5
2022-07-29T22:00:00,2286A,117.8059,30.9273,铜陵市,市公路局,颗粒物(PM10),53,55,31,20,14,131,60,108,100,39,15,7,7,0.6,0.6
2022-07-29T22:00:00,2287A,117.7807,30.9413,铜陵市,市新民污水厂,,36,36,28,19,16,130,50,104,97,20,15,9,12,0.3,0.4
2022-07-29T22:00:00,2288A,117.7439,30.8792,铜陵市,市第九中学,,42,42,34,7,15,127,60,95,93,18,23,8,10,0.6,0.6
2022-07-29T22:00:00,2289A,117.846,30.9413,铜陵市,车站新区,,38,38,31,18,12,124,78,108,104,15,15,5,6,0.5,0.5
2022-07-29T22:00:00,2290A,117.8483,30.97,铜陵市,市职教基地,,32,32,27,15,10,121,69,105,98,13,11,3,5,0.8,0.8
2022-07-29T22:00:00,2291A,117.0809,30.5177,安庆市,环科院,,27,22,19,15,15,127,86,117,113,5,11,5,7,0.7,0.8
2022-07-29T22:00:00,2292A,117.0331,30.5119,安庆市,马山宾馆,,29,21,20,17,16,140,90,121,116,7,11,6,7,0.7,0.7
2022-07-29T22:00:00,2294A,116.9896,30.6145,安庆市,安庆大学,,26,21,17,12,13,127,82,116,108,5,9,4,3,0.5,0.4
2022-07-29T22:00:00,2295A,118.2903,29.6963,黄山市,延安路89号,,25,25,29,9,12,127,68,96,89,6,5,5,6,0.3,0.3
2022-07-29T22:00:00,2296A,118.327,29.7178,黄山市,黄山东路89号,,26,26,23,4,11,134,78,96,88,4,4,5,5,0.4,0.4
2022-07-29T22:00:00,2297A,118.1371,30.2756,黄山市,黄山区政府5号楼,,36,36,32,12,14,104,25,96,68,10,6,6,6,0.6,0.5
2022-07-29T22:00:00,2298A,118.3093,32.3153,滁州市,老年大学,,30,19,23,9,13,121,96,104,104,17,15,5,5,0.2,0.2
2022-07-29T22:00:00,2299A,118.3244,32.2786,滁州市,人大宾馆,,30,14,17,9,11,112,93,100,100,18,16,5,5,0.3,0.4
2022-07-29T22:00:00,2301A,115.8277,32.8929,阜阳市,市监测站,,29,3,10,12,7,115,90,110,107,11,9,6,7,0.5,0.4
2022-07-29T22:00:00,2303A,115.8554,32.8605,阜阳市,开发区,,32,32,11,15,6,109,69,101,94,16,10,4,5,0.5,0.5
2022-07-29T22:00:00,2306A,116.989,33.6306,宿州市,火车站,,,,,,,,,,,,,,,,
2022-07-29T22:00:00,2307A,116.5079,31.737,六安市,监测大楼,,26,20,20,17,9,133,82,108,101,7,5,6,7,0.4,0.3
2022-07-29T22:00:00,2308A,116.4738,31.7643,六安市,皖西学院,,28,23,16,19,9,131,85,110,102,8,4,10,12,0.4,0.3
2022-07-29T22:00:00,2309A,116.4996,31.7905,六安市,朝阳厂,,40,40,15,22,13,114,70,98,90,12,5,10,11,0.4,0.4
2022-07-29T22:00:00,2310A,116.5567,31.7886,六安市,开发区,,29,22,16,20,12,124,68,100,91,8,5,6,7,0.3,0.3
2022-07-29T22:00:00,2311A,115.8072,33.8399,亳州市,污水处理厂,,26,26,10,11,5,96,72,94,90,12,8,8,7,0.7,0.4
2022-07-29T22:00:00,2312A,115.7789,33.8518,亳州市,三国揽胜宫,,29,29,17,13,4,98,87,93,93,8,5,8,7,0.6,0.4
2022-07-29T22:00:00,2314A,117.47,30.6618,池州市,池州学院,,28,23,20,19,13,141,78,120,117,14,8,47,9,0.4,0.4
2022-07-29T22:00:00,2315A,117.4974,30.6539,池州市,平天湖(对照点),,,,,,,,,,,,,,,,
2022-07-29T22:00:00,2316A,118.7581,30.9454,宣城市,鳌峰子站,,34,34,33,18,20,138,62,113,97,19,15,20,7,0.4,0.5
2022-07-29T22:00:00,2317A,118.7385,30.9743,宣城市,敬亭山子站,,28,28,36,18,20,155,77,124,112,24,20,10,9,0.4,0.5
2022-07-29T22:00:00,2318A,118.7173,30.9427,宣城市,开发区子站,,30,30,32,16,20,149,69,118,106,20,15,12,6,0.4,0.5
2022-07-29T22:00:00,2319A,119.0141,25.4325,莆田市,荔城区仓后路,,45,45,45,15,20,149,55,127,88,17,15,4,5,0.7,0.7
2022-07-29T22:00:00,2320A,119.0015,25.4553,莆田市,莆田市监测站,,34,34,40,16,21,168,53,141,90,10,11,6,6,0.7,0.7
2022-07-29T22:00:00,2321A,119.1119,25.4561,莆田市,涵江区六中,,40,40,40,20,21,155,54,126,84,22,14,7,8,0.6,0.6
2022-07-29T22:00:00,2322A,119.1013,25.3215,莆田市,秀屿区政府,,50,50,33,12,16,133,54,110,78,16,5,5,5,0.6,0.6
2022-07-29T22:00:00,2323A,118.981,25.4792,莆田市,东圳水库(对照点),,,,,,,,,,,,,,,,
2022-07-29T22:00:00,2324A,117.6211,26.2625,三明市,三钢,,35,17,44,24,29,195,52,123,81,14,17,2,11,0.4,1.1
2022-07-29T22:00:00,2325A,117.635,26.2714,三明市,三明二中,,18,6,41,7,26,193,55,123,81,9,15,3,10,0.5,1.1
2022-07-29T22:00:00,2326A,117.6028,26.2378,三明市,三元区政府,,25,18,40,17,24,181,52,126,80,19,15,5,10,0.7,0.9
2022-07-29T22:00:00,2327A,117.7275,26.3108,三明市,洋溪(对照点),,,,,,,,,,,,,,,,
2022-07-29T22:00:00,2331A,118.0966,26.6761,南平市,茫荡山(对照点),,,,,,,,,,,,,,,,
2022-07-29T22:00:00,2332A,118.1681,26.6369,南平市,南平市监测站,,20,18,34,10,22,137,61,116,92,8,7,5,7,0.3,0.4
2022-07-29T22:00:00,2333A,118.1825,26.6489,南平市,南平铝业有限公司,,20,20,37,14,23,137,59,114,90,8,7,3,8,0.5,0.6
2022-07-29T22:00:00,2334A,118.1756,26.6272,南平市,南平七中,,19,15,36,13,23,130,51,112,89,6,6,5,7,0.4,0.5
2022-07-29T22:00:00,2335A,117.0189,25.1181,龙岩市,龙岩师专(对照点),,,,,,,,,,,,,,,,
2022-07-29T22:00:00,2336A,117.0217,25.1033,龙岩市,龙岩市监测站,,27,27,43,16,25,160,49,117,71,18,18,6,11,0.6,0.6
2022-07-29T22:00:00,2337A,117.0258,25.0661,龙岩市,闽西职业技术学院,,27,27,48,15,27,167,51,122,78,16,17,6,8,0.6,0.7
2022-07-29T22:00:00,2338A,117.0196,25.0306,龙岩市,龙岩学院,,21,21,47,14,30,168,50,122,79,17,17,4,5,0.5,0.6
2022-07-29T22:00:00,2339A,119.5001,26.6946,宁德市,金涵水库(对照点),,,,36,,18,54,,43,,,10,,4,,0.4
2022-07-29T22:00:00,2341A,119.5388,26.6612,宁德市,宁德市监测站,,14,10,32,8,17,108,43,96,72,10,11,7,7,0.5,0.5
2022-07-29T22:00:00,2342A,117.3102,29.3867,景德镇市,王港中学(对照点),,39,34,37,27,25,115,68,108,95,7,7,6,5,0.4,0.4
2022-07-29T22:00:00,2343A,117.2117,29.2933,景德镇市,老干部活动中心,,44,44,51,20,24,121,64,104,90,6,9,10,7,0.4,0.4
2022-07-29T22:00:00,2344A,117.1894,29.2789,景德镇市,兽医站,,37,37,35,20,22,115,63,101,87,7,10,6,6,0.6,0.6
2022-07-29T22:00:00,2345A,117.1547,29.2617,景德镇市,台达陶瓷,颗粒物(PM10),51,51,38,34,25,110,40,98,79,33,12,35,12,0.4,0.4
2022-07-29T22:00:00,2346A,117.2461,29.2956,景德镇市,陶研所,,31,31,39,14,21,129,71,110,97,6,10,7,10,0.4,0.5
2022-07-29T22:00:00,2347A,114.0997,27.5002,萍乡市,武功山(对照点),,16,1,15,6,12,119,49,98,89,9,9,10,18,0.4,0.5
2022-07-29T22:00:00,2348A,113.8385,27.6434,萍乡市,中医院,,19,12,45,12,24,104,59,96,83,13,19,7,19,0.4,0.8
2022-07-29T22:00:00,2349A,113.8493,27.6253,萍乡市,市政府车库,,25,18,35,17,23,126,74,109,102,16,17,6,14,0.4,0.6
2022-07-29T22:00:00,2350A,113.8676,27.6435,萍乡市,市环保局,,28,16,33,19,23,117,72,104,97,13,13,14,15,0.3,0.6
2022-07-29T22:00:00,2351A,113.866,27.6198,萍乡市,安源区政府,,37,37,30,12,21,129,69,110,103,15,14,8,16,0.3,0.4
2022-07-29T22:00:00,2352A,115.0861,27.9317,新余市,北岗(对照点),,42,42,43,25,27,125,70,108,103,5,8,15,11,1.0,1.1
2022-07-29T22:00:00,2353A,114.9886,27.8431,新余市,飞宇,,42,42,44,22,23,119,66,97,92,8,12,8,14,0.6,0.7
2022-07-29T22:00:00,2354A,114.9231,27.8246,新余市,第二水厂,,40,40,40,17,25,108,68,94,90,17,12,8,7,1.0,0.9
2022-07-29T22:00:00,2355A,114.9308,27.8036,新余市,市气象局,,46,36,38,32,26,106,75,93,90,16,12,8,12,0.8,0.7
2022-07-29T22:00:00,2357A,116.9822,28.1136,鹰潭市,龙虎山(对照点),,38,38,42,14,18,128,57,114,90,10,8,3,4,0.4,0.4
2022-07-29T22:00:00,2358A,117.0564,28.2642,鹰潭市,新监测站,,33,33,44,20,23,121,72,111,95,3,5,4,23,0.3,0.5
2022-07-29T22:00:00,2359A,117.0311,28.2475,鹰潭市,财苑宾馆,,,,53,,24,119,,107,101,4,10,2,35,0.1,0.6
2022-07-29T22:00:00,2360A,117.0222,28.2264,鹰潭市,体育馆,,26,21,45,18,24,121,76,108,92,4,11,2,32,0.5,0.7
2022-07-29T22:00:00,2361A,117.0017,28.2131,鹰潭市,三川水表,,47,47,49,19,21,117,71,102,88,2,7,1,13,0.7,0.8
2022-07-29T22:00:00,2362A,114.9017,25.9149,赣州市,通天岩(对照点),,21,21,31,9,19,118,65,103,85,5,7,5,6,0.4,0.4
2022-07-29T22:00:00,2363A,114.9367,25.8664,赣州市,地委,,22,21,45,5,23,165,68,128,90,11,12,12,15,0.7,0.8
2022-07-29T22:00:00,2364A,114.9461,25.8481,赣州市,气象台,,24,24,41,10,26,175,70,137,92,13,12,8,9,0.8,0.8
2022-07-29T22:00:00,2365A,114.9322,25.8333,赣州市,市图书馆,,25,25,40,10,25,196,79,156,110,15,15,6,15,0.9,1
2022-07-29T22:00:00,2366A,114.8905,25.8471,赣州市,华坚鞋城,,22,22,48,14,26,171,66,133,90,13,14,9,12,0.7,0.7
2022-07-29T22:00:00,2367A,114.9754,27.0803,吉安市,红声器材厂,,29,29,57,16,34,204,60,169,113,13,12,4,6,0.3,0.5
2022-07-29T22:00:00,2368A,114.9658,27.0999,吉安市,市森林工业局,,28,28,54,18,36,180,63,153,108,14,10,7,7,0.4,0.5
