timepoint,stationcode,longitude,latitude,area,positionname,primarypollutant,aqi,pm10,pm10_24h,pm2_5,pm2_5_24h,o3,o3_24h,o3_8h,o3_8h_24h,no2,no2_24h,so2,so2_24h,co,co_24h
2025-04-16T1600,2566A,102.1879,31.914,阿坝藏族羌族自治州,州农科所,,37,12,16,3,7,117,,83,83,3,8,12,12,0.4,0.4
2025-04-16T1600,2568A,102.2502,31.8896,阿坝藏族羌族自治州,马师校,,40,,16,13,16,126,,94,94,4,10,5,6,0.3,0.4
2025-04-16T1600,3994A,102.2165,31.9024,阿坝藏族羌族自治州,马尔康中学西区,,46,8,13,3,10,145,,115,115,3,4,4,4,0.4,0.3
2025-04-16T1600,2695A,80.292,41.1694,阿克苏地区,电视台,颗粒物(PM10),285,409,146,69,37,124,,86,86,1,13,5,7,0.3,0.4
2025-04-16T1600,2696A,80.2613,41.1551,阿克苏地区,艺术中心,颗粒物(PM10),500,852,158,178,46,116,,87,87,3,14,4,4,0.5,0.4
2025-04-16T1600,2204A,105.6467,38.8363,阿拉善盟,西城区西花园,颗粒物(PM10),148,245,286,108,87,122,,117,117,7,12,5,16,0.6,0.7
2025-04-16T1600,2205A,105.6985,38.8411,阿拉善盟,蒙二幼,颗粒物(PM10),161,272,316,84,97,108,,103,103,6,9,6,6,0.5,0.5
2025-04-16T1600,2206A,105.724,38.8516,阿拉善盟,环保局新楼,颗粒物(PM10),154,257,305,85,97,107,,114,107,6,4,10,10,0.6,0.5
2025-04-16T1600,2708A,88.1264,47.8517,阿勒泰地区,市站,,32,11,17,3,5,102,,91,91,2,6,2,2,0.2,0.3
2025-04-16T1600,2630A,80.1161,32.5,阿里地区,阿里监测站,,,6,15,3,5,113,,95,95,,7,4,6,0.4,0.5
2025-04-16T1600,3192A,80.0903,32.5028,阿里地区,阿里藏医院,,37,10,21,3,5,118,,103,100,1,4,4,7,0.4,0.4
2025-04-16T1600,2642A,109.0318,32.6537,安康市,香溪洞,细颗粒物(PM2.5),160,,58,122,50,136,,91,91,7,11,7,9,0.6,0.7
2025-04-16T1600,2644A,109.0072,32.6975,安康市,汉滨区检察院,颗粒物(PM10),61,71,57,26,22,149,,94,94,10,14,9,10,0.4,0.5
2025-04-16T1600,4054A,109.0325,32.6913,安康市,市邮政管理局,颗粒物(PM10),59,67,67,24,26,142,,93,93,7,19,7,12,0.3,0.4
2025-04-16T1600,2291A,117.0809,30.5177,安庆市,环科院,,50,50,46,19,18,110,,100,100,16,28,10,9,0.5,0.4
2025-04-16T1600,2292A,117.0331,30.5119,安庆市,马山宾馆,,41,41,41,19,22,115,,96,96,12,34,7,6,0.4,0.4
2025-04-16T1600,2294A,116.9896,30.6145,安庆市,安庆大学,,,54,46,27,20,124,,117,117,14,15,6,7,,0.2
2025-04-16T1600,3173A,117.0598,30.5351,安庆市,市人大,,46,46,45,19,16,121,,111,111,8,17,12,10,0.2,0.2
2025-04-16T1600,3122A,105.9606,26.2611,安顺市,伍家关,,43,43,69,29,32,130,,142,127,3,4,4,4,0.7,0.5
2025-04-16T1600,3123A,105.9408,26.2431,安顺市,凤凰山,颗粒物(PM10),51,52,71,23,38,128,,122,122,6,9,7,7,0.4,0.4
2025-04-16T1600,3124A,105.9439,26.2564,安顺市,金钟山,颗粒物(PM10),51,52,70,24,32,125,,120,119,6,7,6,7,0.5,0.5
2025-04-16T1600,3125A,105.8983,26.2481,安顺市,娄家坡,,46,46,67,27,35,130,,123,123,6,7,7,7,0.7,0.7
2025-04-16T1600,1818A,114.4839,36.0621,安阳市,棉研所,,,,,,,,,,,,,,,,
2025-04-16T1600,1819A,114.3551,36.1017,安阳市,红庙街,颗粒物(PM10),202,351,147,85,46,131,,104,104,5,14,5,9,0.4,0.6
2025-04-16T1600,1820A,114.361,36.0681,安阳市,银杏小区,颗粒物(PM10),308,426,110,131,57,143,,110,110,10,19,8,9,0.4,0.5
2025-04-16T1600,3141A,114.3922,36.0878,安阳市,信访局,颗粒物(PM10),200,349,152,107,63,147,,117,117,12,25,5,8,0.2,0.3
2025-04-16T1600,3669A,114.4705,36.0637,安阳市,左辅环卫站,颗粒物(PM10),500,940,171,84,47,134,,106,106,17,31,7,7,0.4,0.5
2025-04-16T1600,3703A,114.2917,36.0949,安阳市,安钢职工学校,颗粒物(PM10),266,396,175,118,59,136,,105,105,6,19,5,6,0.3,0.5
2025-04-16T1600,1748A,123.044,41.1196,鞍山市,深沟寺,,45,34,41,20,26,143,,131,131,12,22,10,11,0.5,0.8
2025-04-16T1600,1749A,123.011,41.0931,鞍山市,太阳城,,43,33,40,20,25,137,,126,126,7,15,4,5,0.7,0.8
2025-04-16T1600,1750A,123.0485,41.1442,鞍山市,太平,,46,46,56,20,28,132,,121,121,11,26,9,12,0.5,0.9
2025-04-16T1600,1751A,122.9642,41.0971,鞍山市,铁西三道街,,50,50,75,22,37,142,,129,129,16,43,5,5,0.7,1
2025-04-16T1600,1753A,123.022,41.0821,鞍山市,明达新区,,46,34,41,21,27,145,,132,132,8,15,7,7,0.4,0.6
2025-04-16T1600,1754A,123.1289,41.0228,鞍山市,千山,,,,24,,13,,,85,,,9,,4,,0.8
2025-04-16T1600,4201A,122.9446,41.0826,鞍山市,兴盛南路290号,,45,44,77,23,39,142,,133,133,17,44,8,8,0.6,0.9
2025-04-16T1600,2195A,107.4212,40.761,巴彦淖尔市,附二中,颗粒物(PM10),500,988,443,246,107,98,,96,96,5,7,3,7,0.3,0.5
2025-04-16T1600,2196A,107.37,40.7372,巴彦淖尔市,市环保大楼,颗粒物(PM10),500,808,438,213,113,105,,104,104,6,11,3,4,0.3,0.2
2025-04-16T1600,1956A,86.1472,41.7538,巴音郭楞蒙古自治州,孔雀公园,颗粒物(PM10),91,132,141,46,40,104,,96,96,5,14,7,6,0.1,0.2
2025-04-16T1600,1957A,86.1972,41.7166,巴音郭楞蒙古自治州,棉纺厂,颗粒物(PM10),96,141,165,32,38,100,,93,93,4,12,3,3,0.2,0.2
2025-04-16T1600,1958A,86.2357,41.7173,巴音郭楞蒙古自治州,经济开发区,颗粒物(PM10),82,113,128,29,31,101,,96,96,3,8,6,6,0.1,0.2
2025-04-16T1600,2914A,106.7677,31.8794,巴中市,苏山坪,颗粒物(PM10),69,88,100,38,39,131,,102,102,6,9,4,4,0.2,0.3
2025-04-16T1600,3181A,106.7768,31.8526,巴中市,市五中,颗粒物(PM10),66,81,117,31,48,131,,91,91,6,23,6,6,0.6,0.7
2025-04-16T1600,3183A,106.7418,31.8654,巴中市,圣泉水务公司,颗粒物(PM10),69,88,92,40,43,137,,108,108,2,20,4,4,0.4,0.7
2025-04-16T1600,3616A,106.7616,31.8344,巴中市,市中心医院,颗粒物(PM10),66,82,116,36,53,132,,93,93,6,30,8,7,0.5,0.7
2025-04-16T1600,2235A,122.7911,45.6077,白城市,洮北区环保局,,34,18,26,3,21,107,,96,96,7,15,4,5,0.2,0.2
2025-04-16T1600,2236A,122.8738,45.5725,白城市,市环保局,,35,12,20,8,12,109,,100,100,4,16,5,8,0.2,0.4
2025-04-16T1600,2231A,126.4219,41.9171,白山市,喜丰,,,,42,,21,118,,96,96,,14,11,12,0.7,1.1
2025-04-16T1600,2232A,126.4077,41.9419,白山市,环保局,,38,28,44,15,22,120,,91,91,11,18,7,7,0.9,1
2025-04-16T1600,2647A,104.1724,36.5446,白银市,第三小学,颗粒物(PM10),102,154,363,48,108,115,,92,92,8,16,46,15,0.4,0.4
2025-04-16T1600,2648A,104.1465,36.5482,白银市,动力公司,颗粒物(PM10),100,150,338,52,106,120,,94,94,7,13,9,14,0.4,0.5
2025-04-16T1600,2512A,106.6103,23.9011,百色市,市监测站,臭氧1小时,65,77,115,45,53,172,,147,147,16,21,11,17,0.6,0.5
2025-04-16T1600,2513A,106.6538,23.8859,百色市,市中心血站,颗粒物(PM10),83,116,137,59,57,174,,123,123,16,24,13,14,0.7,0.7
2025-04-16T1600,3406A,106.6085,23.8798,百色市,祈福高中,颗粒物(PM10),76,101,141,44,54,161,,112,112,16,34,14,15,0.7,0.7
2025-04-16T1600,2270A,117.396,32.939,蚌埠市,工人疗养院,颗粒物(PM10),75,99,72,27,20,164,,143,143,9,17,5,6,0.5,0.6
2025-04-16T1600,2271A,117.3605,32.9427,蚌埠市,百货大楼,颗粒物(PM10),72,93,70,28,21,157,,140,140,11,23,7,7,0.4,0.5
2025-04-16T1600,2273A,117.4185,32.8911,蚌埠市,蚌埠学院,颗粒物(PM10),74,97,57,26,20,160,,146,146,7,14,5,5,0.4,0.5
2025-04-16T1600,2274A,117.3533,32.9673,蚌埠市,淮上区政府,颗粒物(PM10),74,97,65,42,26,159,,144,144,13,25,6,7,0.3,0.4
2025-04-16T1600,2275A,117.3145,32.8977,蚌埠市,高新区,颗粒物(PM10),76,102,75,32,24,160,,139,139,8,20,6,7,0.4,0.4
2025-04-16T1600,3715A,117.3092,32.9314,蚌埠市,蚌埠田家炳中学,颗粒物(PM10),75,99,84,28,23,158,,141,141,12,22,7,13,0.3,0.4
2025-04-16T1600,1585A,109.8756,40.6532,包头市,市环境监测站,颗粒物(PM10),167,284,191,62,69,107,,85,85,7,39,6,11,0.3,0.7
2025-04-16T1600,1587A,109.9991,40.5842,包头市,包头八中,颗粒物(PM10),136,222,228,59,73,114,,98,98,13,39,12,17,0.4,0.6
2025-04-16T1600,1588A,109.8538,40.6821,包头市,青山宾馆,颗粒物(PM10),164,277,187,100,69,107,,82,82,5,43,8,12,0.4,0.7
2025-04-16T1600,1589A,109.8642,40.6288,包头市,惠龙物流,颗粒物(PM10),149,247,198,52,53,110,,94,94,9,35,9,16,0.3,0.5
2025-04-16T1600,1590A,110.0377,40.5546,包头市,东河鸿龙湾,颗粒物(PM10),128,206,226,43,67,119,,100,100,10,28,10,12,0.3,0.4
2025-04-16T1600,3283A,109.9154,40.5685,包头市,滨河大厦,颗粒物(PM10),120,190,223,66,71,111,,97,97,6,30,10,13,0.4,0.5
2025-04-16T1600,3419A,109.9447,40.6261,包头市,包头市委党校,,,,193,,66,111,,103,103,4,32,6,12,0.3,0.7
2025-04-16T1600,3683A,109.8331,40.6576,包头市,昆区政府,颗粒物(PM10),154,258,187,97,61,108,,85,85,9,47,5,11,0.3,1
2025-04-16T1600,1930A,107.185,34.3063,宝鸡市,庙沟村,颗粒物(PM10),197,344,137,92,49,123,,100,100,4,15,7,7,0.3,0.5
2025-04-16T1600,1931A,107.0708,34.3017,宝鸡市,竹园沟,颗粒物(PM10),276,403,140,119,53,122,,99,99,6,19,7,7,0.2,0.5
2025-04-16T1600,1932A,107.1906,34.3672,宝鸡市,三陆医院,颗粒物(PM10),322,437,139,125,52,119,,85,85,13,34,4,8,0.3,0.4
2025-04-16T1600,1933A,107.1431,34.3547,宝鸡市,监测站,颗粒物(PM10),343,454,144,119,54,117,,84,84,10,29,8,9,0.3,0.4
2025-04-16T1600,1934A,107.1186,34.3739,宝鸡市,技工学校,颗粒物(PM10),347,457,141,162,52,119,,90,90,13,18,6,8,0.3,0.5
2025-04-16T1600,1935A,107.3906,34.3528,宝鸡市,陈仓区环保局家属楼,颗粒物(PM10),296,417,152,124,67,122,,90,90,12,35,7,41,0.3,0.6
2025-04-16T1600,1936A,107.2058,34.3497,宝鸡市,文理学院,颗粒物(PM10),292,414,137,129,49,123,,93,93,7,28,6,7,0.3,0.4
2025-04-16T1600,1937A,107.2386,34.3622,宝鸡市,三迪小学,颗粒物(PM10),357,465,150,123,53,118,,84,84,13,35,6,8,0.7,0.8
2025-04-16T1600,1051A,115.493,38.8632,保定市,游泳馆,颗粒物(PM10),105,159,95,67,42,174,,119,119,22,30,11,10,0.2,0.2
2025-04-16T1600,1052A,115.5213,38.8959,保定市,华电二区,颗粒物(PM10),83,115,78,48,35,184,,126,126,15,19,2,3,0,0
2025-04-16T1600,1053A,115.4713,38.9108,保定市,接待中心,细颗粒物(PM2.5),89,126,80,66,40,180,,121,121,17,22,5,5,0.6,0.5
2025-04-16T1600,1054A,115.4612,38.8416,保定市,地表水厂,颗粒物(PM10),103,156,98,51,34,181,,129,129,24,32,6,6,0.5,0.6
2025-04-16T1600,3581A,115.31981,38.95208,保定市,满城区生态环境分局,颗粒物(PM10),91,132,86,46,42,181,,145,145,18,24,10,10,0.4,0.4
2025-04-16T1600,3582A,115.47694,38.76408,保定市,清苑区第二中学,颗粒物(PM10),113,176,110,52,41,158,,106,106,15,28,9,9,0.5,0.5
2025-04-16T1600,3583A,115.62909,39.02311,保定市,徐水物探局,颗粒物(PM10),104,158,112,58,37,206,,128,128,21,31,7,5,0.3,0.3
2025-04-16T1600,4004A,115.4202,38.8656,保定市,双鹰农机,颗粒物(PM10),69,87,81,48,36,170,,120,120,20,28,8,8,0.3,0.3
2025-04-16T1600,4034A,115.5150,38.8590,保定市,植保所站,细颗粒物(PM2.5),118,151,88,89,42,170,,115,115,25,28,3,3,0.9,0.7
2025-04-16T1600,2594A,99.1678,25.1081,保山市,市环境监测站,,35,13,36,7,24,110,,83,83,5,10,7,5,0.4,0.5
2025-04-16T1600,2595A,99.1711,25.1328,保山市,市环保局,,39,17,36,12,22,122,,95,95,4,8,7,6,0.4,0.5
2025-04-16T1600,1866A,109.2262,21.588,北海市,牛尾岭水库,,,130,137,50,60,142,,144,144,,19,7,12,0.5,0.7
2025-04-16T1600,1867A,109.1436,21.4086,北海市,海滩公园,颗粒物(PM10),135,219,170,51,48,179,,164,164,12,17,8,10,0.6,0.6
2025-04-16T1600,1868A,109.0981,21.4661,北海市,新市环保局,颗粒物(PM10),110,170,188,51,64,146,,145,145,25,23,6,10,0.5,0.6
2025-04-16T1600,1869A,109.1778,21.5233,北海市,北海工业园,颗粒物(PM10),116,182,204,61,75,150,,148,148,22,34,10,15,0.6,0.6
2025-04-16T1600,3400A,109.1911,21.4415,北海市,龙潭自来水厂,颗粒物(PM10),124,198,157,66,61,167,,151,151,13,21,9,9,0.4,0.5
2025-04-16T1600,1001A,116.3621,39.8784,北京市,万寿西宫,细颗粒物(PM2.5),89,91,96,66,47,189,,126,126,22,35,12,11,0.8,0.8
2025-04-16T1600,1002A,116.2202,40.2915,北京市,定陵,,,,,,,,,,,,,,,,
2025-04-16T1600,1003A,116.4174,39.9289,北京市,东四,细颗粒物(PM2.5),99,134,110,74,50,182,,124,124,25,33,12,12,1.1,1
2025-04-16T1600,1004A,116.4072,39.8863,北京市,天坛,,,,101,65,52,165,,112,112,2,33,7,6,1.1,1
2025-04-16T1600,1005A,116.462,39.9365,北京市,农展馆,细颗粒物(PM2.5),97,117,106,72,56,190,,129,129,23,33,13,12,1.3,1.1
2025-04-16T1600,1006A,116.3392,39.9295,北京市,官园,颗粒物(PM10),80,109,108,53,44,163,,109,109,16,25,10,10,0.9,0.8
2025-04-16T1600,1007A,116.2878,39.9611,北京市,海淀万柳,细颗粒物(PM2.5),85,112,110,63,53,183,,123,123,24,40,10,9,1.1,0.9
2025-04-16T1600,1008A,116.6636,40.135,北京市,顺义新城,臭氧1小时,98,126,113,66,49,198,,133,133,19,34,14,14,0.9,0.9
2025-04-16T1600,1009A,116.6275,40.3275,北京市,怀柔镇,细颗粒物(PM2.5),93,116,98,69,47,179,,119,119,20,31,12,9,1.2,0.9
2025-04-16T1600,1010A,116.2296,40.217,北京市,昌平镇,颗粒物(PM10),89,127,95,46,39,177,,123,123,26,32,7,5,1.2,1
2025-04-16T1600,1011A,116.3966,39.9821,北京市,奥体中心,,,100,97,44,47,164,,114,114,26,36,9,8,,1
2025-04-16T1600,3281A,115.9718,40.4529,北京市,延庆夏都,颗粒物(PM10),80,110,66,38,23,131,,99,99,11,29,5,6,0.4,0.4
2025-04-16T1600,3418A,116.8336,40.4095,北京市,密云新城,细颗粒物(PM2.5),92,125,95,68,40,179,,122,122,20,33,13,10,1.2,0.7
2025-04-16T1600,3671A,116.088,39.9726,北京市,门头沟三家店,颗粒物(PM10),109,168,121,61,42,167,,102,102,34,50,6,5,0.7,0.6
2025-04-16T1600,3672A,116.1541,39.8204,北京市,丰台云岗,臭氧1小时,80,98,116,57,52,184,,121,121,19,40,8,7,0.7,0.7
2025-04-16T1600,3673A,116.6804,39.9081,北京市,通州东关,细颗粒物(PM2.5),88,114,110,65,50,174,,129,129,18,28,12,11,0.9,0.9
2025-04-16T1600,3674A,115.9577,39.7603,北京市,房山燕山,细颗粒物(PM2.5),90,108,92,67,42,172,,102,102,20,26,8,8,0.7,0.7
2025-04-16T1600,3675A,116.4672,39.7733,北京市,大兴旧宫,细颗粒物(PM2.5),89,103,100,66,59,176,,109,109,18,29,6,4,1.0,0.7
2025-04-16T1600,3694A,115.986,40.4563,北京市,延庆石河营,颗粒物(PM10),104,158,69,54,24,136,,96,96,15,28,5,3,0.6,0.4
2025-04-16T1600,3695A,116.6151,40.3053,北京市,怀柔新城,细颗粒物(PM2.5),108,125,94,81,48,175,,116,116,18,24,10,7,1.4,1.1
2025-04-16T1600,3696A,116.2545,39.8768,北京市,丰台小屯,颗粒物(PM10),176,302,157,59,43,159,,107,107,23,35,6,5,0.7,0.7
2025-04-16T1600,3697A,116.84,40.3844,北京市,密云镇,细颗粒物(PM2.5),83,109,90,61,39,173,,114,114,18,38,13,10,0.9,0.6
2025-04-16T1600,4182A,116.1942,39.9158,北京市,八角北路9号,细颗粒物(PM2.5),90,118,132,67,53,167,,112,112,20,45,9,8,0.7,0.8
2025-04-16T1600,4194A,117.0790,40.1518,北京市,洳河巡河路,细颗粒物(PM2.5),109,133,89,82,50,175,,123,123,21,26,12,10,1.2,1
2025-04-16T1600,1761A,123.8275,41.3064,本溪市,大峪,细颗粒物(PM2.5),69,73,72,50,44,136,,116,116,14,35,7,6,0.7,1
2025-04-16T1600,1762A,123.7567,41.3325,本溪市,溪湖,,42,41,76,18,41,134,,114,114,13,36,9,9,0.7,1.1
2025-04-16T1600,1763A,123.7169,41.3094,本溪市,彩屯,,49,49,66,26,41,135,,113,113,24,38,15,12,1.5,1.6
2025-04-16T1600,1764A,123.7669,41.2864,本溪市,东明,,50,50,64,21,30,143,,117,117,11,32,7,7,0.5,1.2
2025-04-16T1600,1765A,123.7992,41.2664,本溪市,新立屯,,45,36,45,23,30,142,,124,124,12,45,10,9,0.6,0.9
2025-04-16T1600,1766A,123.8142,41.3472,本溪市,威宁,,42,42,78,18,40,132,,107,107,3,23,6,5,0.5,0.9
2025-04-16T1600,2587A,105.2864,27.3125,毕节市,八中,颗粒物(PM10),70,89,109,38,45,154,,143,143,11,13,9,8,0.4,0.5
2025-04-16T1600,2588A,105.31,27.2944,毕节市,师专,,,74,108,36,47,161,,143,143,12,16,,11,,0.5
2025-04-16T1600,4263A,105.3688,27.3598,毕节市,工业大道,颗粒物(PM10),77,104,121,51,51,157,,136,136,14,21,12,12,0.7,0.6
2025-04-16T1600,1629A,118.0018,37.3617,滨州市,第二水厂,颗粒物(PM10),123,195,87,48,23,148,,120,120,12,27,16,11,0.6,0.5
2025-04-16T1600,1630A,117.9776,37.393,滨州市,北中新校,,,100,67,44,31,161,,137,137,9,25,14,16,,0.8
2025-04-16T1600,3514A,117.9378,37.3956,滨州市,中海酒店,颗粒物(PM10),73,95,61,29,29,158,,132,132,7,18,13,16,0.7,0.7
2025-04-16T1600,3515A,117.9378,37.3553,滨州市,开发区一中,颗粒物(PM10),84,117,79,29,30,149,,119,119,19,34,16,11,0.4,0.3
2025-04-16T1600,3516A,118.0917,37.694,滨州市,金海六路,颗粒物(PM10),87,124,76,41,21,145,,116,116,21,28,14,12,0.6,0.6
2025-04-16T1600,4028A,117.9956,37.3753,滨州市,滨州市西街道办事处,颗粒物(PM10),78,105,77,41,30,165,,134,134,11,23,12,10,0.6,0.6
2025-04-16T1600,2311A,115.8072,33.8399,亳州市,污水处理厂,,,90,76,11,18,148,,138,138,12,15,4,7,,0.5
2025-04-16T1600,2312A,115.7789,33.8518,亳州市,三国揽胜宫,颗粒物(PM10),71,91,73,22,17,156,,142,142,8,14,5,7,0.3,0.3
2025-04-16T1600,3332A,115.7633,33.8034,亳州市,亳州学院,颗粒物(PM10),65,80,71,21,18,152,,139,139,9,14,6,10,0.4,0.5
2025-04-16T1600,2693A,82.0485,44.8556,博尔塔拉蒙古自治州,市党校,,,18,53,8,17,68,,60,60,,35,4,3,,0.3
2025-04-16T1600,2694A,82.0806,44.8969,博尔塔拉蒙古自治州,市环保局,,40,40,61,14,13,69,,62,62,15,16,1,2,0.3,0.6
2025-04-16T1600,1071A,116.8842,38.2991,沧州市,沧县城建局,颗粒物(PM10),100,149,88,47,32,173,,110,110,18,26,9,6,0.4,0.3
2025-04-16T1600,1072A,116.8584,38.3254,沧州市,电视转播站,颗粒物(PM10),87,124,78,51,40,180,,115,115,18,22,7,6,0.4,0.3
2025-04-16T1600,1073A,116.8709,38.3228,沧州市,市环保局,臭氧1小时,82,111,73,50,33,185,,115,115,16,21,7,6,0.5,0.4
2025-04-16T1600,3324A,116.8136,38.3004,沧州市,河北水利电力学院,颗粒物(PM10),104,158,91,40,34,190,,123,123,18,27,11,10,0.3,0.3
2025-04-16T1600,2622A,97.1806,31.1273,昌都市,昌都监测站,,42,8,12,3,10,132,,103,103,2,4,2,2,0.4,0.4
2025-04-16T1600,3719A,97.1714,31.1406,昌都市,昌都会议中心,,39,9,17,6,13,124,,103,103,4,6,2,2,0.3,0.1
2025-04-16T1600,2690A,88.1236,43.8886,昌吉回族自治州,天山天池,,32,6,6,3,4,102,,89,89,5,4,5,4,0.5,0.5
2025-04-16T1600,2692A,87.2717,44.0297,昌吉回族自治州,新区政务中心,颗粒物(PM10),64,77,56,19,16,54,,34,28,26,32,9,7,0.5,0.4
2025-04-16T1600,3613A,87.3095,44.0142,昌吉回族自治州,亚心广场,颗粒物(PM10),73,95,68,22,20,51,,32,30,27,34,10,8,0.4,0.4
2025-04-16T1600,1119A,125.3325,43.9166,长春市,食品厂,,36,18,28,8,15,115,,103,103,6,25,9,8,0.2,0.3
2025-04-16T1600,1120A,125.2863,43.9027,长春市,客车厂,,33,17,26,7,14,104,,90,90,13,28,6,6,0.4,0.4
2025-04-16T1600,1121A,125.2841,43.8463,长春市,邮电学院,,34,11,18,6,13,107,,100,100,3,16,6,6,0.1,0.2
2025-04-16T1600,1122A,125.3716,43.8772,长春市,劳动公园,,32,14,25,6,13,101,,94,94,6,19,6,7,0.3,0.3
2025-04-16T1600,1123A,125.3297,43.8805,长春市,园林处,,32,15,23,13,13,101,,94,94,6,19,7,7,0.1,0.4
2025-04-16T1600,1124A,125.4605,43.79,长春市,净月潭,,34,7,16,6,10,108,,99,99,4,11,6,5,0.1,0.2
2025-04-16T1600,1125A,125.7194,43.515,长春市,甩湾子,,,,,,,,,,,,,,,,
2025-04-16T1600,1126A,125.3863,43.8447,长春市,经开区环卫处,,30,9,25,3,12,96,,91,91,7,20,4,5,0.2,0.3
2025-04-16T1600,1127A,125.245,43.7783,长春市,高新区管委会,,34,8,25,8,14,107,,92,92,11,28,9,7,0.3,0.3
2025-04-16T1600,1128A,125.1761,43.8325,长春市,岱山公园,,35,,27,12,19,109,,97,97,10,33,6,5,0.3,0.4
2025-04-16T1600,1335A,113.0833,28.2325,长沙市,经开区环保局,,,121,72,57,31,119,,95,95,,23,10,10,0.5,0.4
2025-04-16T1600,1336A,112.8872,28.2189,长沙市,高开区环保局,,,121,80,51,29,131,,100,100,,20,9,10,0.7,0.7
2025-04-16T1600,1337A,113.0792,28.2053,长沙市,马坡岭,颗粒物(PM10),83,115,75,48,37,128,,99,99,17,22,9,8,0.6,0.5
2025-04-16T1600,1338A,112.9394,28.19,长沙市,湖南师范大学,颗粒物(PM10),88,126,75,46,30,93,,90,90,24,25,11,11,0.8,0.6
2025-04-16T1600,1339A,113.0178,28.1322,长沙市,雨花区环保局,颗粒物(PM10),92,134,78,44,27,122,,101,101,24,23,9,10,0.4,0.4
2025-04-16T1600,1340A,112.9792,28.2597,长沙市,伍家岭,颗粒物(PM10),90,129,86,45,29,112,,89,89,33,39,10,8,0.7,0.5
2025-04-16T1600,1341A,113.0014,28.1944,长沙市,火车新站,颗粒物(PM10),90,130,85,44,34,126,,99,99,20,35,13,12,0.8,0.6
2025-04-16T1600,1342A,112.9844,28.1178,长沙市,天心区环保局,颗粒物(PM10),80,110,73,41,32,124,,105,105,22,25,9,9,0.7,0.6
2025-04-16T1600,1343A,112.8908,28.1308,长沙市,湖南中医药大学,颗粒物(PM10),95,139,106,48,32,108,,87,87,30,54,7,7,0.8,0.6
2025-04-16T1600,1344A,112.9581,28.3611,长沙市,沙坪,颗粒物(PM10),67,83,75,44,39,83,,64,64,28,23,10,8,0.7,0.6
2025-04-16T1600,1727A,113.1147,36.1547,长治市,清华站,颗粒物(PM10),170,290,146,68,42,131,,118,118,6,14,6,8,0.3,0.8
2025-04-16T1600,1730A,113.0886,36.2125,长治市,审计局,颗粒物(PM10),137,224,146,75,48,133,,115,115,10,20,8,11,0.2,0.4
2025-04-16T1600,1731A,113.0844,36.1856,长治市,长治八中,细颗粒物(PM2.5),168,254,134,127,58,134,,119,119,8,18,10,11,0.4,0.7
2025-04-16T1600,2845A,113.1569,36.1911,长治市,德盛苑,颗粒物(PM10),130,209,107,68,38,131,,117,117,6,11,6,7,0.4,0.5
2025-04-16T1600,3568A,113.06,36.0464,长治市,向阳小学,颗粒物(PM10),145,239,129,79,45,136,,115,115,11,21,11,13,0.2,0.4
2025-04-16T1600,3569A,112.8792,36.3144,长治市,屯留一中,颗粒物(PM10),110,169,99,68,40,128,,108,108,9,20,9,9,0.3,0.4
2025-04-16T1600,4189A,113.1131,36.19948,长治市,英华南巷50号,颗粒物(PM10),138,225,126,73,50,133,,116,116,10,21,6,9,0.4,0.6
2025-04-16T1600,4190A,113.2367,36.3344,长治市,学府街1号,颗粒物(PM10),142,233,128,84,51,136,,120,120,4,22,1,5,0.4,0.6
2025-04-16T1600,1854A,111.6975,28.9703,常德市,市二中,颗粒物(PM10),84,117,124,51,57,78,,55,51,17,25,6,10,0.6,0.7
2025-04-16T1600,1857A,111.7158,29.1456,常德市,白鹤山,,,,,,,,,,,,,,,,
2025-04-16T1600,3138A,111.7153,29.0289,常德市,武陵区永安,颗粒物(PM10),89,127,137,55,55,78,,64,64,19,23,5,7,0.6,0.7
2025-04-16T1600,3139A,111.6892,28.9881,常德市,鼎城区玉霞,颗粒物(PM10),85,120,130,50,51,67,,45,45,20,26,6,8,0.7,0.8
2025-04-16T1600,3140A,111.6625,29.0531,常德市,武陵区长庚,颗粒物(PM10),85,120,135,55,59,82,,65,65,19,22,7,10,0.6,0.7
2025-04-16T1600,1196A,119.9633,31.762,常州市,市监测站,臭氧1小时,80,46,71,22,33,184,,145,145,29,43,12,12,0.6,0.7
2025-04-16T1600,1200A,119.9468,31.7069,常州市,武进监测站,臭氧1小时,84,44,75,16,30,187,,150,150,19,36,17,21,0.3,0.3
2025-04-16T1600,1201A,119.9255,31.9087,常州市,安家,,47,42,62,19,29,149,,132,132,12,38,14,16,0.6,0.6
2025-04-16T1600,3002A,119.9805,31.8174,常州市,行政中心,臭氧1小时,65,32,54,17,28,172,,139,139,14,30,17,17,0.4,0.5
2025-04-16T1600,3003A,120.0522,31.7748,常州市,经开区,臭氧1小时,73,59,69,15,29,178,,150,150,23,37,11,15,0.5,0.9
2025-04-16T1600,3010A,119.9025,31.7964,常州市,钟楼,,48,42,60,13,28,152,,132,132,15,32,8,12,0.3,0.5
2025-04-16T1600,3429A,119.8598,31.7066,常州市,武进经发区,臭氧1小时,68,40,65,17,38,174,,138,138,19,36,10,13,0.8,0.8
2025-04-16T1600,3430A,119.5826,31.7245,常州市,金坛城区,,48,24,49,11,32,153,,134,134,13,37,9,15,0.5,0.6
2025-04-16T1600,2220A,120.4318,41.5881,朝阳市,西梁,细颗粒物(PM2.5),65,67,54,47,36,155,,131,131,17,21,22,20,0.7,0.7
2025-04-16T1600,2221A,120.4521,41.5646,朝阳市,河畔小区,细颗粒物(PM2.5),67,77,42,48,34,152,,134,134,16,15,16,12,0.8,0.8
2025-04-16T1600,2222A,120.4176,41.5648,朝阳市,八里堡,细颗粒物(PM2.5),62,59,52,44,33,156,,128,128,16,26,17,14,0.8,0.8
2025-04-16T1600,2223A,120.3806,41.5969,朝阳市,农业园区,细颗粒物(PM2.5),82,63,57,60,43,162,,137,137,18,24,16,14,0.8,0.8
2025-04-16T1600,1705A,116.6367,23.6719,潮州市,西园路,,,,114,,34,,,86,,,15,,5,,0.4
2025-04-16T1600,3026A,116.6183,23.6608,潮州市,市政府,颗粒物(PM10),86,122,129,37,41,141,,142,142,14,24,4,9,0.4,0.8
2025-04-16T1600,4036A,116.6461,23.6761,潮州市,金山,颗粒物(PM10),82,113,113,35,41,153,,144,144,12,18,8,8,0.6,0.6
2025-04-16T1600,2472A,113.0073,25.9061,郴州市,马头岭,,,132,83,25,17,160,,136,136,,19,9,10,0.8,0.8
2025-04-16T1600,2473A,113.0116,25.8226,郴州市,市职中,颗粒物(PM10),83,115,94,38,32,185,,156,156,10,32,4,4,0.5,0.5
2025-04-16T1600,2475A,113.0383,25.8071,郴州市,市审计局,臭氧1小时,87,112,83,33,30,189,,169,169,11,27,6,6,0.4,0.5
2025-04-16T1600,2476A,113.0348,25.7759,郴州市,市环保局,颗粒物(PM10),86,122,87,42,34,187,,172,172,9,20,5,5,0.4,0.4
2025-04-16T1600,4252A,113.0138,25.8011,郴州市,好美居路49号,臭氧1小时,88,114,78,50,36,190,,177,177,11,35,5,5,0.5,0.5
2025-04-16T1600,1431A,103.9728,30.7236,成都市,金泉两河,臭氧1小时,126,169,146,52,50,251,,135,135,20,32,6,6,0.8,0.8
2025-04-16T1600,1432A,104.176,30.6872,成都市,十里店,臭氧1小时,101,139,162,32,58,202,,111,111,17,32,,7,0.7,0.8
2025-04-16T1600,1433A,104.079,30.5706,成都市,三瓦窑,颗粒物(PM10),108,165,157,57,54,213,,101,101,20,59,7,7,0.7,0.8
2025-04-16T1600,1434A,104.1114,30.63,成都市,沙河铺,颗粒物(PM10),102,154,139,52,55,187,,91,91,24,41,8,7,0.8,0.9
2025-04-16T1600,1437A,104.0786,30.6531,成都市,君平街,颗粒物(PM10),97,143,144,44,63,156,,85,85,23,46,8,11,0.7,0.8
2025-04-16T1600,1438A,103.613,31.0283,成都市,灵岩寺,,,,,,,,,,,,,,,,
2025-04-16T1600,2880A,104.0239,30.65639,成都市,大石西路,臭氧1小时,109,157,147,54,60,217,,118,118,28,39,6,7,0.6,0.5
2025-04-16T1600,3136A,104.2725,30.5589,成都市,龙泉驿区区政府,颗粒物(PM10),106,161,132,44,39,171,,104,104,15,24,6,4,0.6,0.6
2025-04-16T1600,3357A,104.0106,30.6931,成都市,金博路,颗粒物(PM10),92,134,143,46,50,180,,85,85,23,40,9,10,0.7,0.7
2025-04-16T1600,3359A,104.0578,30.5225,成都市,华阳,颗粒物(PM10),104,158,143,58,62,198,,121,121,19,58,8,7,,1.1
2025-04-16T1600,3488A,104.3853,30.7453,成都市,青白江技师分院,颗粒物(PM10),101,152,125,61,50,191,,122,122,16,56,8,9,,0.4
2025-04-16T1600,3489A,104.0789,30.4072,成都市,科学城,颗粒物(PM10),96,141,146,57,55,165,,97,97,13,38,6,5,0.3,0.4
2025-04-16T1600,4011A,103.8506,30.6947,成都市,光华大道三段,臭氧1小时,124,144,142,58,48,247,,138,138,20,31,3,5,0.7,0.8
2025-04-16T1600,4224A,104.2433,30.5353,成都市,鲸龙路1057号,颗粒物(PM10),105,159,150,50,49,192,,121,121,16,49,7,5,0.5,0.6
2025-04-16T1600,1062A,117.9531,40.9081,承德市,铁路,颗粒物(PM10),72,93,59,33,24,134,,121,121,12,24,10,9,0.4,0.4
2025-04-16T1600,1063A,117.9392,40.9763,承德市,中国银行,颗粒物(PM10),71,92,65,29,21,138,,108,108,5,26,6,6,0.3,0.5
2025-04-16T1600,1064A,117.9503,40.928,承德市,开发区,颗粒物(PM10),68,85,53,23,20,139,,110,110,10,26,11,10,0.4,0.5
2025-04-16T1600,1065A,117.8051,40.9655,承德市,文化中心,颗粒物(PM10),76,101,80,30,18,144,,109,109,6,31,7,13,0.3,0.6
2025-04-16T1600,1066A,117.9268,41.0026,承德市,离宫,颗粒物(PM10),55,59,55,20,24,37,,45,45,8,16,26,20,0.4,0.4
2025-04-16T1600,2314A,117.47,30.6618,池州市,池州学院,颗粒物(PM10),53,56,45,21,21,127,,105,105,5,14,6,10,0.3,0.4
2025-04-16T1600,3237A,117.4918,30.6617,池州市,展览馆,颗粒物(PM10),53,56,48,18,17,125,,106,106,8,15,6,7,0.3,0.5
2025-04-16T1600,3333A,117.5627,30.695,池州市,第八中学,颗粒物(PM10),53,56,48,20,17,130,,106,106,7,20,6,7,0.3,0.5
2025-04-16T1600,3334A,117.5038,30.6243,池州市,第十二中学,颗粒物(PM10),55,60,47,20,18,127,,106,106,6,17,7,7,0.3,0.7
2025-04-16T1600,1744A,118.9233,42.2816,赤峰市,松山一中,颗粒物(PM10),61,72,63,38,30,122,,114,114,31,31,17,21,0.8,0.9
2025-04-16T1600,1745A,118.9576,42.2728,赤峰市,哈达街,细颗粒物(PM2.5),67,82,58,48,33,128,,122,122,41,33,17,22,0.9,1
2025-04-16T1600,1746A,118.8788,42.2554,赤峰市,天义路,颗粒物(PM10),60,70,48,42,36,140,,128,128,36,29,19,17,1.1,0.8
2025-04-16T1600,3058A,119.2658,42.0353,赤峰市,银河街,细颗粒物(PM2.5),58,63,65,41,34,149,,126,126,18,22,18,31,0.7,0.8
2025-04-16T1600,3286A,118.9359,42.3147,赤峰市,桥北物流园区,细颗粒物(PM2.5),62,69,54,44,40,139,,127,127,22,24,15,18,0.8,0.8
2025-04-16T1600,2521A,107.3476,22.4136,崇左市,市环保局江州分局,颗粒物(PM10),64,77,110,28,37,153,,124,124,8,15,12,7,0.4,0.4
2025-04-16T1600,4256A,107.3750,22.3736,崇左市,石景林东路7号,颗粒物(PM10),65,80,91,31,28,166,,137,137,11,15,11,7,0.4,0.5
2025-04-16T1600,2298A,118.3093,32.3153,滁州市,老年大学,臭氧1小时,60,66,59,21,24,168,,134,134,6,14,8,7,0.2,0.3
2025-04-16T1600,2299A,118.3244,32.2786,滁州市,人大宾馆,臭氧1小时,62,65,61,30,45,169,,139,139,12,26,11,12,0.3,0.4
2025-04-16T1600,3207A,118.3118,32.3038,滁州市,市政府原办公楼,臭氧1小时,60,57,53,23,25,168,,132,132,1,11,6,7,0.2,0.3
2025-04-16T1600,3331A,118.3267,32.2634,滁州市,图书馆,颗粒物(PM10),58,65,61,24,27,165,,138,138,5,20,10,10,0.3,0.4
2025-04-16T1600,2605A,101.5482,25.0441,楚雄彝族自治州,州环境监测站,,33,23,16,13,15,104,,95,95,13,9,7,8,0.4,0.5
2025-04-16T1600,2606A,101.538,25.0492,楚雄彝族自治州,市经济开发区,,35,20,17,11,14,109,,101,101,6,8,6,6,0.5,0.5
2025-04-16T1600,2548A,107.5277,31.2827,达州市,达州职业技术学院,颗粒物(PM10),98,145,110,51,43,144,,92,92,17,31,10,9,1.0,0.9
2025-04-16T1600,2549A,107.5086,31.2186,达州市,市环境监测站,颗粒物(PM10),90,129,113,41,40,154,,84,84,23,46,11,9,0.7,0.7
2025-04-16T1600,2550A,107.4988,31.2132,达州市,凤凰小区,颗粒物(PM10),92,134,112,44,46,152,,86,86,28,45,14,12,0.5,0.5
2025-04-16T1600,2551A,107.5082,31.1986,达州市,达县机关宾馆,颗粒物(PM10),97,144,118,42,45,148,,82,82,25,43,11,10,0.5,0.5
2025-04-16T1600,2552A,107.4644,31.2124,达州市,市政中心,,,135,117,36,47,161,,87,87,19,46,,6,0.5,0.6
2025-04-16T1600,2614A,100.1542,25.7054,大理白族自治州,大理市环境监测站,,41,13,28,10,22,129,,105,105,5,9,7,7,0.4,0.6
2025-04-16T1600,2615A,100.2171,25.5811,大理白族自治州,大理古城,,39,,30,27,23,123,,100,100,5,11,8,7,0.4,0.5
2025-04-16T1600,1109A,121.612,38.9741,大连市,甘井子,颗粒物(PM10),52,54,41,28,23,122,,109,109,18,33,6,7,0.4,0.4
2025-04-16T1600,1110A,121.565,38.9511,大连市,周水子,颗粒物(PM10),54,58,47,33,30,108,,96,96,14,28,7,7,0.4,0.4
2025-04-16T1600,1111A,121.5637,38.8845,大连市,星海三站,颗粒物(PM10),51,51,46,29,31,114,,101,101,12,26,7,8,0.3,0.3
2025-04-16T1600,1112A,121.6302,38.9117,大连市,青泥洼桥,颗粒物(PM10),55,60,48,30,28,127,,112,112,10,26,9,9,0.6,0.5
2025-04-16T1600,1113A,121.6251,38.8638,大连市,傅家庄,,46,46,37,26,23,124,,108,108,12,33,8,8,0.3,0.3
2025-04-16T1600,1114A,121.5213,38.8661,大连市,七贤岭,颗粒物(PM10),52,54,46,34,30,118,,102,102,11,35,6,6,0.6,0.6
2025-04-16T1600,1115A,121.2529,38.8061,大连市,旅顺,,43,42,42,30,32,102,,94,94,15,28,7,8,0.5,0.5
2025-04-16T1600,1116A,121.7485,39.1311,大连市,金州,颗粒物(PM10),54,57,56,37,33,119,,105,105,12,21,8,9,0.6,0.4
2025-04-16T1600,1117A,121.7811,39.0496,大连市,开发区,颗粒物(PM10),54,58,44,35,29,108,,98,98,15,25,7,9,0.6,0.4
2025-04-16T1600,1118A,121.9762,39.0631,大连市,双D港,颗粒物(PM10),51,51,35,33,21,133,,116,116,4,8,9,9,0.5,0.4
2025-04-16T1600,1789A,124.81117,46.03138,大庆市,大同区,,29,23,23,14,17,91,,84,84,6,10,5,5,0.3,0.4
2025-04-16T1600,1790A,125.129,46.533,大庆市,龙凤区,,33,25,31,12,12,105,,96,96,4,15,5,6,0.4,0.4
2025-04-16T1600,1791A,124.902,46.408,大庆市,红岗区,,,,17,19,14,113,,104,104,,11,7,8,0.1,0.3
2025-04-16T1600,1792A,125.153,46.586,大庆市,萨尔图区,,,,19,,7,91,,80,80,6,13,,8,0.3,0.4
2025-04-16T1600,1793A,124.9042,46.6215,大庆市,让胡路区,,30,18,19,8,14,95,,53,,10,14,6,6,0.2,0.2
2025-04-16T1600,3481A,125.141,46.634,大庆市,萨区政府监测点,,31,18,18,3,2,98,,90,90,4,9,5,5,0.3,0.3
2025-04-16T1600,1721A,113.3819,40.1097,大同市,果树场,颗粒物(PM10),137,224,115,41,33,113,,90,90,8,29,5,12,0.3,0.5
2025-04-16T1600,1723A,113.2994,40.0758,大同市,云冈宾馆,颗粒物(PM10),153,256,144,49,36,122,,99,99,8,21,8,13,0.4,0.5
2025-04-16T1600,1724A,113.3444,40.0917,大同市,大同大学,颗粒物(PM10),157,264,141,56,43,120,,95,95,4,18,12,16,0.3,0.5
2025-04-16T1600,1725A,113.2661,40.1269,大同市,安家小村,颗粒物(PM10),174,298,161,80,47,117,,95,95,3,12,10,13,0.3,0.4
2025-04-16T1600,1726A,113.2711,40.0844,大同市,教育学院,颗粒物(PM10),162,273,150,59,44,121,,96,96,6,18,8,13,0.2,0.4
2025-04-16T1600,3282A,113.3397,40.0597,大同市,大同市卫生学校,颗粒物(PM10),149,248,148,60,47,117,,90,90,8,23,7,13,0.3,0.5
2025-04-16T1600,3565A,113.1367,40.1122,大同市,云冈站,颗粒物(PM10),155,259,149,72,46,116,,97,97,6,18,9,14,0.4,0.5
2025-04-16T1600,3566A,113.1186,40.2556,大同市,图书馆,颗粒物(PM10),174,298,127,69,44,104,,97,97,3,12,8,10,0.5,0.4
2025-04-16T1600,3567A,113.5931,40.0461,大同市,区一中,颗粒物(PM10),170,290,151,61,34,117,,102,102,7,14,10,19,0.4,0.5
2025-04-16T1600,4199A,113.2798,40.0997,大同市,魏都大道141号,颗粒物(PM10),172,293,167,60,44,122,,99,99,8,22,12,16,0.5,0.6
2025-04-16T1600,2269A,124.1069,50.4097,大兴安岭地区,科技局,,30,13,18,12,14,94,,88,88,4,4,3,3,0.2,0.2
2025-04-16T1600,3663A,124.1164,50.4278,大兴安岭地区,红旗社区,,30,12,13,3,5,96,,89,89,3,9,4,5,0.3,0.3
2025-04-16T1600,1600A,124.3303,40.0625,丹东市,江湾东路,,43,41,39,30,30,115,,104,104,17,16,13,11,0.5,0.4
2025-04-16T1600,1601A,124.4256,40.1503,丹东市,临江后街,,38,34,44,20,30,121,,102,102,10,17,8,7,0.5,0.7
2025-04-16T1600,1602A,124.3933,40.1461,丹东市,元宝山,,48,48,41,21,25,116,,97,97,14,18,9,8,0.5,0.6
2025-04-16T1600,1603A,124.3633,40.1092,丹东市,民主桥,,43,43,43,22,24,119,,102,102,13,19,12,10,0.6,0.6
2025-04-16T1600,3541A,109.5726,19.5167,儋州市,第一中学子站,,47,47,129,28,48,134,,121,121,4,9,4,6,0.4,0.4
2025-04-16T1600,3542A,109.5567,19.5187,儋州市,东坡学校子站,颗粒物(PM10),60,70,120,22,41,118,,109,109,4,8,5,6,0.4,0.5
2025-04-16T1600,2616A,98.5842,24.428,德宏傣族景颇族自治州,德宏州监测站,,35,27,47,16,30,111,,70,70,6,18,6,8,0.2,0.5
2025-04-16T1600,3677A,98.5881,24.4368,德宏傣族景颇族自治州,芒市人民政府综合楼,,42,42,54,16,32,112,,76,76,6,16,6,8,0.4,0.6
2025-04-16T1600,1901A,104.4239,31.1208,德阳市,东山公园,颗粒物(PM10),103,155,144,59,51,187,,143,143,13,20,6,8,0.4,0.5
2025-04-16T1600,1902A,104.3826,31.1317,德阳市,西小区,颗粒物(PM10),104,157,147,62,64,181,,124,124,23,32,7,15,0.6,0.7
2025-04-16T1600,1904A,104.3553,31.1091,德阳市,耐火材料厂,臭氧1小时,100,146,148,53,63,200,,129,129,12,29,8,20,0.5,0.6
2025-04-16T1600,3639A,104.4019,31.1244,德阳市,市教育局,颗粒物(PM10),100,150,134,59,58,198,,134,134,15,30,7,10,0.4,0.7
2025-04-16T1600,1622A,116.3032,37.4674,德州市,儿童乐园,颗粒物(PM10),118,185,98,51,35,175,,113,113,11,18,13,12,0.7,0.6
2025-04-16T1600,1624A,116.2991,37.4451,德州市,监理站,颗粒物(PM10),114,178,91,63,34,177,,113,113,10,17,20,19,0.6,0.5
2025-04-16T1600,3066A,116.2721,37.4379,德州市,九衢泉纯净水厂,颗粒物(PM10),106,161,82,48,31,166,,104,104,18,25,12,10,0.9,0.8
2025-04-16T1600,3371A,116.3728,37.4403,德州市,开发区人民医院,颗粒物(PM10),117,183,92,58,27,163,,107,107,10,18,11,11,0.8,0.8
2025-04-16T1600,3372A,116.3572,37.4094,德州市,太阳城中学,颗粒物(PM10),117,183,93,48,34,167,,125,125,12,20,10,8,0.6,0.6
2025-04-16T1600,3511A,116.5652,37.3319,德州市,陵城艺术中心,颗粒物(PM10),109,168,84,58,32,160,,104,104,13,23,9,9,0.7,0.7
2025-04-16T1600,2621A,99.7056,27.8317,迪庆藏族自治州,迪庆州站,,41,21,26,8,14,130,,114,114,8,9,9,10,0.4,0.4
2025-04-16T1600,3180A,99.7136,27.8094,迪庆藏族自治州,质量技术监督局,,42,27,20,6,12,134,,121,121,10,8,9,9,0.3,0.3
2025-04-16T1600,4257A,104.6092,35.5962,定西市,将台街,颗粒物(PM10),135,219,174,48,44,124,,97,97,8,17,7,6,0.1,0.2
2025-04-16T1600,4309A,104.6159,35.5701,定西市,正龙路62号,颗粒物(PM10),140,230,186,48,45,125,,102,102,5,12,8,10,0.2,0.3
2025-04-16T1600,1389A,113.7547,23.0494,东莞市,莞城梨川,颗粒物(PM10),99,147,149,48,41,155,,165,165,15,25,5,6,0.4,0.5
2025-04-16T1600,1390A,113.7944,23.0128,东莞市,东城石井,颗粒物(PM10),93,136,123,50,44,160,,170,170,20,30,6,7,0.4,0.4
2025-04-16T1600,1391A,113.7383,22.9658,东莞市,南城西平,颗粒物(PM10),86,122,145,34,39,159,,160,160,18,42,7,7,0.5,0.6
2025-04-16T1600,3319A,113.7338,23.0381,东莞市,万江金泰,颗粒物(PM10),96,141,132,46,42,165,,170,170,16,26,5,8,0.2,0.4
2025-04-16T1600,3626A,113.7533,23.0202,东莞市,南城元岭,颗粒物(PM10),98,146,140,42,45,156,,154,154,13,24,7,8,0.6,0.6
2025-04-16T1600,3627A,113.7875,23.0457,东莞市,东城主山,颗粒物(PM10),103,155,143,38,41,166,,182,182,21,38,4,6,0.4,0.4
2025-04-16T1600,1666A,118.6614,37.4309,东营市,市环保局,颗粒物(PM10),85,119,75,34,23,159,,127,127,10,26,10,11,0.5,0.5
2025-04-16T1600,3036A,118.6904,37.4338,东营市,开发区管委会,颗粒物(PM10),92,133,91,39,23,160,,129,129,18,34,8,12,0.5,0.6
2025-04-16T1600,3365A,118.5719,37.565,东营市,垦利区民丰路,,,117,77,,23,154,,131,131,12,25,,19,0.6,0.6
2025-04-16T1600,3498A,118.5055,37.8612,东营市,河口城区,颗粒物(PM10),84,117,84,34,25,162,,131,131,29,28,10,12,0.8,1
2025-04-16T1600,3646A,118.4978,37.4623,东营市,胜利站,颗粒物(PM10),80,110,80,29,24,157,,126,126,21,34,13,13,0.9,1
2025-04-16T1600,3734A,118.35,37.26,东营市,理想之城,颗粒物(PM10),81,112,85,31,27,163,,130,130,16,35,13,10,0.6,0.6
2025-04-16T1600,1591A,110.0023,39.8129,鄂尔多斯市,综合楼,颗粒物(PM10),500,732,435,141,97,111,,110,110,7,14,4,5,0.2,0.2
2025-04-16T1600,1592A,109.9486,39.8261,鄂尔多斯市,巴音孟克林场办事处,颗粒物(PM10),500,627,417,146,102,107,,105,105,5,9,5,6,0.4,0.4
2025-04-16T1600,1593A,109.7736,39.5986,鄂尔多斯市,康泽苑,颗粒物(PM10),500,732,440,,111,110,,110,110,4,8,4,5,0.2,0.3
2025-04-16T1600,1594A,109.8119,39.5989,鄂尔多斯市,华泰汽车城,颗粒物(PM10),500,720,420,156,102,106,,105,105,5,12,4,4,0.3,0.4
2025-04-16T1600,1595A,109.9734,39.7884,鄂尔多斯市,奥林花园,颗粒物(PM10),500,696,425,136,92,108,,105,105,11,27,6,10,0.4,0.4
2025-04-16T1600,2436A,114.8938,30.3994,鄂州市,市政府,颗粒物(PM10),60,69,52,38,25,108,,105,105,32,21,12,10,1.1,0.9
2025-04-16T1600,2437A,114.8989,30.3714,鄂州市,赵家坝,颗粒物(PM10),62,74,58,20,18,100,,101,101,37,27,8,6,0.9,0.8
2025-04-16T1600,3654A,114.8094,30.4089,鄂州市,精准医疗中心,颗粒物(PM10),58,66,65,23,26,131,,114,114,24,34,7,27,0.7,1.7
2025-04-16T1600,2454A,109.4978,30.2981,恩施土家族苗族自治州,湖北民院,颗粒物(PM10),78,105,89,44,38,117,,82,82,2,19,7,7,0,0.1
2025-04-16T1600,2455A,109.4707,30.2798,恩施土家族苗族自治州,州电力总公司,颗粒物(PM10),75,100,94,38,42,110,,75,75,6,38,7,6,0.1,0.3
2025-04-16T1600,3549A,109.5061,30.3772,恩施土家族苗族自治州,龙凤新区,颗粒物(PM10),74,97,74,42,37,107,,75,75,7,17,7,6,0.3,0.4
2025-04-16T1600,2499A,108.3411,21.6158,防城港市,沙万,颗粒物(PM10),127,203,189,67,74,149,,136,136,20,32,10,12,0.6,0.9
2025-04-16T1600,2500A,108.3514,21.7731,防城港市,防城档案局,颗粒物(PM10),137,224,220,72,77,163,,130,130,8,29,8,9,0.3,0.7
2025-04-16T1600,2501A,108.3506,21.6414,防城港市,大海花园,颗粒物(PM10),134,218,196,63,68,164,,153,153,18,26,12,15,0.5,0.9
2025-04-16T1600,1371A,113.1294,23.0067,佛山市,湾梁,颗粒物(PM10),102,153,151,41,39,169,,167,167,14,37,7,9,0.5,0.6
2025-04-16T1600,1372A,113.1083,23.0478,佛山市,华材职中,颗粒物(PM10),103,156,153,47,49,183,,180,180,14,30,7,8,0.4,0.5
2025-04-16T1600,1373A,113.144,23.0453,佛山市,南海气象局,颗粒物(PM10),101,151,140,50,46,159,,164,164,13,36,6,7,0.4,0.5
2025-04-16T1600,1374A,113.2881,22.8094,佛山市,顺德苏岗,颗粒物(PM10),82,114,144,31,40,151,,163,163,11,29,6,7,0.5,0.6
2025-04-16T1600,1376A,112.8383,22.8678,佛山市,高明孔堂,颗粒物(PM10),107,164,141,42,38,179,,162,162,12,17,6,7,0.5,0.4
2025-04-16T1600,1377A,112.8836,23.1588,佛山市,三水监测站,颗粒物(PM10),108,166,166,48,52,196,,164,164,22,64,3,4,0.4,0.4
2025-04-16T1600,1378A,112.867,23.185,佛山市,三水云东海,臭氧1小时,107,138,127,47,44,213,,180,180,29,46,2,5,0.4,0.4
2025-04-16T1600,3625A,113.2544,22.7642,佛山市,容桂街道办,颗粒物(PM10),97,144,154,29,44,140,,165,165,18,38,7,8,0.4,0.5
2025-04-16T1600,1280A,119.3903,26.0543,福州市,鼓山,,,,70,,18,,,145,,,5,,1,,0.3
2025-04-16T1600,1282A,119.2681,26.0504,福州市,师大,臭氧1小时,84,90,75,19,24,187,,159,159,16,16,6,4,0.6,0.4
2025-04-16T1600,1283A,119.2984,26.1028,福州市,五四北路,臭氧1小时,87,96,76,27,26,189,,156,156,14,18,6,5,0.7,0.5
2025-04-16T1600,1284A,119.2648,26.0768,福州市,杨桥西路,臭氧1小时,84,106,82,25,24,187,,155,155,14,17,6,4,0.6,0.3
2025-04-16T1600,1285A,119.317,26.0746,福州市,紫阳,颗粒物(PM10),87,124,85,27,30,146,,132,132,50,29,6,6,0.6,0.4
2025-04-16T1600,3048A,119.5799,26.0936,福州市,九龙,颗粒物(PM10),75,100,64,28,22,152,,140,140,10,13,5,4,0.3,0.3
2025-04-16T1600,3526A,119.5189,25.9664,福州市,吴航,颗粒物(PM10),62,73,72,22,25,165,,139,139,7,18,6,5,0.7,0.4
2025-04-16T1600,1755A,123.7977,41.8491,抚顺市,望花区,,47,36,82,17,51,149,,114,114,13,39,14,11,0.4,0.8
2025-04-16T1600,1756A,123.9161,41.8822,抚顺市,顺城区,,47,47,80,13,47,146,,114,114,14,40,9,9,0.6,1
2025-04-16T1600,1757A,124.0436,41.8611,抚顺市,东洲区,,42,38,52,14,36,134,,103,103,9,18,7,6,0.5,0.7
2025-04-16T1600,1758A,123.9247,41.8642,抚顺市,新抚区,,43,38,74,13,37,135,,106,106,9,34,7,7,0.6,0.9
2025-04-16T1600,1759A,124.0972,41.8961,抚顺市,大伙房水库,,45,28,45,13,37,144,,111,111,5,13,8,8,0.4,0.7
2025-04-16T1600,1760A,123.7086,41.8391,抚顺市,沈抚新城,,47,36,86,16,44,149,,114,114,12,42,8,15,0.7,1.8
2025-04-16T1600,2376A,116.2127,28.0814,抚州市,桐源党溪,颗粒物(PM10),51,52,50,15,18,114,,101,101,3,5,10,9,0.5,0.5
2025-04-16T1600,2377A,116.3544,27.9831,抚州市,市站,颗粒物(PM10),55,59,53,19,19,90,,88,88,5,18,6,8,1.1,1.1
2025-04-16T1600,2378A,116.3565,27.963,抚州市,血防站,,,57,52,24,18,92,,89,89,,17,,16,,1.7
2025-04-16T1600,2379A,116.3564,28.0007,抚州市,采茶剧团,颗粒物(PM10),54,57,51,13,18,91,,89,89,3,14,2,3,1.3,1.3
2025-04-16T1600,2380A,116.385,27.9647,抚州市,医学分院,颗粒物(PM10),59,68,65,23,16,86,,83,83,8,15,3,4,1.0,1.1
2025-04-16T1600,2207A,121.6094,41.998,阜新市,工业园区,颗粒物(PM10),59,68,68,34,48,156,,122,122,13,30,11,24,0.7,1
2025-04-16T1600,2208A,121.6697,42.0279,阜新市,长青街,颗粒物(PM10),56,62,63,32,40,157,,125,125,12,22,9,16,0.8,1
2025-04-16T1600,2209A,121.6673,42.0705,阜新市,农业园区,细颗粒物(PM2.5),62,57,60,44,47,150,,117,117,11,18,12,38,0.7,0.9
2025-04-16T1600,2210A,121.6717,42.0224,阜新市,东苑,颗粒物(PM10),54,57,60,32,42,156,,124,124,13,27,12,27,0.8,0.9
2025-04-16T1600,2211A,121.6506,42.0498,阜新市,玉龙新城,细颗粒物(PM2.5),53,54,61,37,42,157,,131,131,12,31,14,21,0.8,1
2025-04-16T1600,2301A,115.8277,32.8929,阜阳市,市监测站,颗粒物(PM10),59,67,63,28,23,154,,138,138,9,14,9,9,0.3,0.4
2025-04-16T1600,2303A,115.8554,32.8605,阜阳市,开发区,颗粒物(PM10),64,78,78,26,21,163,,142,142,9,15,8,8,0.3,0.4
2025-04-16T1600,2875A,115.784,32.8892,阜阳市,阜阳职业技术学院,颗粒物(PM10),65,79,66,23,19,157,,144,144,7,12,6,8,0.2,0.3
2025-04-16T1600,3468A,115.7901,32.8613,阜阳市,市规划展馆,颗粒物(PM10),71,91,66,30,23,168,,147,147,7,10,8,8,0.6,0.5
2025-04-16T1600,3469A,115.836,32.9183,阜阳市,枣园社区,颗粒物(PM10),63,76,63,37,21,161,,149,149,7,17,9,8,0.3,0.4
2025-04-16T1600,2669A,102.9099,34.9841,甘南藏族自治州,州政府,颗粒物(PM10),152,254,77,,25,102,,84,84,2,24,10,10,0.3,0.5
2025-04-16T1600,3380A,102.8914,34.9617,甘南藏族自治州,甘肃民族师范学院,颗粒物(PM10),149,247,90,62,26,113,,92,92,2,28,8,9,0.4,0.5
2025-04-16T1600,2570A,101.9603,30.0475,甘孜藏族自治州,水桥子,,33,17,11,7,6,103,,76,76,16,23,5,4,0.2,0.2
2025-04-16T1600,3065A,101.9533,29.9972,甘孜藏族自治州,州环保局,,38,11,15,7,5,119,,88,88,6,22,1,1,0.2,0.2
2025-04-16T1600,3414A,115.8347,28.932,赣江新区,桑海产业园,颗粒物(PM10),70,90,65,21,21,117,,82,82,18,47,9,8,0.3,0.3
2025-04-16T1600,2362A,114.9017,25.9149,赣州市,通天岩,颗粒物(PM10),78,106,68,11,6,166,,150,150,2,3,1,7,0.5,0.6
2025-04-16T1600,2363A,114.9367,25.8664,赣州市,地委,颗粒物(PM10),65,80,61,30,23,161,,122,122,11,24,11,15,0.8,0.8
2025-04-16T1600,2364A,114.9461,25.8481,赣州市,气象台,颗粒物(PM10),72,94,70,24,22,160,,139,139,11,32,9,13,0.6,0.6
2025-04-16T1600,2365A,114.9322,25.8333,赣州市,市图书馆,颗粒物(PM10),75,99,71,27,25,157,,117,117,13,37,3,6,0.5,0.6
2025-04-16T1600,2366A,114.8905,25.8471,赣州市,华坚鞋城,颗粒物(PM10),82,113,80,24,26,167,,134,134,11,35,11,14,0.3,0.4
2025-04-16T1600,3109A,115.0093,25.8613,赣州市,赣县区卫计委,颗粒物(PM10),75,100,64,29,25,146,,111,111,4,21,5,8,0.3,0.4
2025-04-16T1600,2683A,106.2319,36.1417,固原市,马园,颗粒物(PM10),191,331,378,73,108,106,,86,86,8,35,5,6,0.4,0.5
2025-04-16T1600,2684A,106.2792,36.0022,固原市,监测站,,,,315,,178,113,,99,99,4,19,4,5,0.2,0.4
2025-04-16T1600,2685A,106.2375,36.0211,固原市,新区,颗粒物(PM10),174,298,318,76,109,106,,96,96,6,27,6,6,0.2,0.4
2025-04-16T1600,3522A,106.2177,35.9959,固原市,原州区十五小,颗粒物(PM10),164,277,332,82,105,112,,105,105,5,15,7,7,0.2,0.2
2025-04-16T1600,2543A,106.6308,30.5278,广安市,小平旧居,,,,,,,,,,,,,,,,
2025-04-16T1600,2544A,106.6303,30.4576,广安市,市委,颗粒物(PM10),83,115,148,43,56,162,,116,116,6,19,10,10,0.4,0.5
2025-04-16T1600,2545A,106.6271,30.4663,广安市,友谊中学,颗粒物(PM10),80,109,136,40,50,158,,111,111,12,20,5,5,0.5,0.6
2025-04-16T1600,2547A,106.6388,30.4551,广安市,广电花园,颗粒物(PM10),82,114,147,41,59,164,,116,116,10,26,6,6,0.5,0.5
2025-04-16T1600,2902A,106.6351,30.4865,广安市,北辰小学,颗粒物(PM10),85,119,144,45,57,153,,126,126,9,18,8,11,0.1,0.6
2025-04-16T1600,2523A,105.8945,32.4535,广元市,黑石坡,颗粒物(PM10),75,99,113,21,33,135,,91,91,7,15,4,6,0.3,0.4
2025-04-16T1600,2524A,105.821,32.4444,广元市,老城,颗粒物(PM10),63,76,123,19,37,146,,107,107,7,41,2,2,0.6,0.8
2025-04-16T1600,2526A,105.8628,32.4287,广元市,监测站,细颗粒物(PM2.5),69,85,86,50,42,150,,103,103,7,19,15,12,0.5,0.5
2025-04-16T1600,3617A,105.8047,32.4166,广元市,经开区,细颗粒物(PM2.5),83,98,125,61,62,142,,106,106,7,49,9,15,0.5,0.8
2025-04-16T1600,1345A,113.2347,23.1423,广州市,广雅中学,颗粒物(PM10),97,144,162,36,45,194,,168,168,16,46,4,6,0.6,0.5
2025-04-16T1600,1346A,113.2612,23.105,广州市,市五中,颗粒物(PM10),94,138,151,38,48,186,,168,168,12,41,3,4,0.6,0.7
2025-04-16T1600,1348A,113.3478,23.0916,广州市,广东商学院,颗粒物(PM10),91,131,145,45,55,176,,171,171,16,65,5,6,0.3,0.4
2025-04-16T1600,1349A,113.4332,23.1047,广州市,市八十六中,颗粒物(PM10),92,133,158,33,45,157,,158,158,27,80,6,8,0.6,0.5
2025-04-16T1600,1350A,113.3505,22.9483,广州市,番禺中学,颗粒物(PM10),88,125,158,39,46,147,,154,154,13,38,4,6,0.4,0.4
2025-04-16T1600,1351A,113.2146,23.3916,广州市,花都师范,臭氧1小时,143,185,155,54,44,286,,175,175,28,58,6,7,0.4,0.5
2025-04-16T1600,1352A,113.2597,23.1331,广州市,市监测站,颗粒物(PM10),93,136,148,36,45,165,,144,144,18,46,6,7,0.4,0.5
2025-04-16T1600,1353A,113.5618,23.312,广州市,九龙镇镇龙,颗粒物(PM10),112,174,141,42,41,170,,159,159,21,46,6,6,0.4,0.5
2025-04-16T1600,1354A,113.2765,23.1544,广州市,麓湖,臭氧1小时,106,142,144,37,44,211,,176,176,15,56,5,7,0.4,0.4
2025-04-16T1600,1355A,113.443,23.3035,广州市,帽峰山森林公园,臭氧1小时,102,143,128,32,31,203,,180,180,13,25,8,9,0.3,0.3
2025-04-16T1600,2846A,113.3221,23.1322,广州市,体育西,臭氧1小时,98,139,157,36,48,198,,171,171,12,47,6,8,0.4,0.5
2025-04-16T1600,3298A,113.5717,23.5491,广州市,从化街口,颗粒物(PM10),101,152,104,58,35,191,,172,172,12,37,10,10,0.5,0.7
2025-04-16T1600,3299A,113.3472,23.3692,广州市,白云竹料,臭氧1小时,125,177,144,47,43,249,,184,184,24,48,4,5,0.5,0.5
2025-04-16T1600,3300A,113.2981,23.237,广州市,白云嘉禾,臭氧1小时,112,162,155,42,42,224,,178,178,27,64,6,8,0.4,0.3
2025-04-16T1600,3301A,113.4256,23.1716,广州市,黄埔科学城,颗粒物(PM10),98,145,139,36,44,164,,162,162,21,48,8,9,0.2,0.3
2025-04-16T1600,3302A,113.3942,23.0483,广州市,番禺大学城,颗粒物(PM10),96,141,149,33,45,184,,167,167,16,54,8,10,0.5,0.6
2025-04-16T1600,3303A,113.4922,22.8168,广州市,南沙黄阁,颗粒物(PM10),93,135,158,31,42,122,,133,133,11,44,5,6,0.6,0.7
2025-04-16T1600,3304A,113.5342,22.7896,广州市,南沙街,颗粒物(PM10),83,115,148,28,42,125,,137,137,10,43,4,5,0.5,0.5
2025-04-16T1600,3443A,113.2902,23.5544,广州市,花都梯面,臭氧1小时,142,183,118,48,38,283,,186,186,27,40,6,6,0.6,0.5
2025-04-16T1600,3445A,113.7858,23.7478,广州市,从化良口,臭氧1小时,107,147,80,60,28,213,,140,140,9,12,8,7,0.3,0.3
2025-04-16T1600,3446A,113.8051,23.2614,广州市,增城荔城,颗粒物(PM10),112,173,129,58,43,209,,200,200,17,23,8,9,0.3,0.4
2025-04-16T1600,2505A,109.568,23.1478,贵港市,德智高中,,,,,,,,,,,,,,,,
2025-04-16T1600,2506A,109.6047,23.0666,贵港市,江南子站,颗粒物(PM10),106,161,191,48,67,159,,161,161,8,22,5,9,0.3,0.5
2025-04-16T1600,2508A,109.5669,23.1065,贵港市,荷城子站,颗粒物(PM10),96,141,186,48,59,136,,140,140,11,27,6,9,0.3,0.4
2025-04-16T1600,3405A,109.5886,23.1172,贵港市,新世纪学校,颗粒物(PM10),96,141,190,51,66,132,,127,127,11,32,7,10,0.4,0.7
2025-04-16T1600,4260A,109.5933,23.0951,贵港市,中山路155-3号,颗粒物(PM10),92,134,174,53,70,153,,155,155,9,25,8,13,0.3,0.5
2025-04-16T1600,1439A,106.6899,26.5998,贵阳市,马鞍山,颗粒物(PM10),51,51,76,14,29,139,,126,126,9,13,7,6,0.3,0.4
2025-04-16T1600,1441A,106.6243,26.6266,贵阳市,鉴湖路,颗粒物(PM10),58,66,99,19,31,132,,124,124,8,8,12,13,0.5,0.4
2025-04-16T1600,1442A,106.7487,26.6343,贵阳市,燕子冲,颗粒物(PM10),54,58,86,31,39,141,,132,132,10,15,16,6,0.4,0.3
2025-04-16T1600,1443A,106.6555,26.4365,贵阳市,碧云窝,颗粒物(PM10),60,70,99,24,30,135,,132,132,7,9,9,8,0.5,0.4
2025-04-16T1600,1445A,106.7109,26.6027,贵阳市,红边门,颗粒物(PM10),56,61,100,34,43,140,,134,134,22,32,8,7,0.3,0.3
2025-04-16T1600,1446A,106.7164,26.5699,贵阳市,新华路,颗粒物(PM10),58,66,101,24,38,131,,135,135,8,23,86,25,0.8,0.5
2025-04-16T1600,1447A,106.674,26.5424,贵阳市,太慈桥,颗粒物(PM10),60,70,95,27,32,132,,121,121,17,25,7,7,0.2,0.4
2025-04-16T1600,1552A,106.805,26.3003,贵阳市,桐木岭,颗粒物(PM10),63,75,114,39,46,131,,140,131,2,2,1,1,0.8,0.6
2025-04-16T1600,4230A,106.6882,26.5695,贵阳市,花果园大街66号,,,66,97,47,47,128,,122,122,15,18,7,8,,0.3
2025-04-16T1600,4231A,106.6873,26.5169,贵阳市,漓江路57号,颗粒物(PM10),56,61,91,27,38,132,,128,128,8,14,11,12,0.4,0.4
2025-04-16T1600,1862A,110.4144,25.3167,桂林市,电子科大尧山校区,,,,,,,,,,,,,,,,
2025-04-16T1600,1864A,110.3089,25.2708,桂林市,龙隐路小学,颗粒物(PM10),81,111,114,40,50,158,,130,130,7,22,10,10,0.4,0.5
2025-04-16T1600,1865A,110.2869,25.2178,桂林市,八中,颗粒物(PM10),87,124,130,46,52,145,,125,125,8,30,1,8,0.4,0.9
2025-04-16T1600,3531A,110.296,25.1253,桂林市,旅游学院,颗粒物(PM10),73,95,111,34,45,153,,124,124,7,27,3,3,0.6,0.7
2025-04-16T1600,4222A,110.1835,25.2444,桂林市,环湖路276号,颗粒物(PM10),82,114,130,34,47,144,,120,120,13,39,7,8,0.4,0.5
2025-04-16T1600,4301A,110.2803,25.2773,桂林市,信义路13号,颗粒物(PM10),77,104,120,28,57,162,,133,133,11,35,3,3,0.7,0.9
2025-04-16T1600,2674A,100.2561,34.4714,果洛藏族自治州,玛沁县大武镇,,45,45,65,22,22,111,,100,100,1,4,15,15,0.3,0.4
2025-04-16T1600,1129A,126.5422,45.755,哈尔滨市,岭北,,35,20,10,8,6,109,,97,97,10,12,10,14,0.6,0.7
2025-04-16T1600,1130A,126.561,45.8167,哈尔滨市,松北商大,,33,,20,17,8,103,,93,93,7,20,11,11,0.4,0.6
2025-04-16T1600,1131A,126.979,45.5419,哈尔滨市,阿城会宁,,,146,49,,26,160,,118,118,42,21,19,7,0.9,0.7
2025-04-16T1600,1132A,126.599,45.7222,哈尔滨市,南岗学府路,,36,36,23,16,6,107,,94,94,12,17,10,9,0.4,0.4
2025-04-16T1600,1133A,126.689,45.7733,哈尔滨市,太平宏伟公园,,43,43,21,25,11,115,,100,100,13,16,6,5,0.5,0.6
2025-04-16T1600,1134A,126.635,45.7667,哈尔滨市,道外承德广场,,32,23,13,22,13,101,,90,90,14,16,7,7,0.5,0.5
2025-04-16T1600,1135A,126.685,45.7319,哈尔滨市,香坊红旗大街,,35,29,18,19,9,111,,99,99,14,16,9,8,0.4,0.5
2025-04-16T1600,1136A,126.6411,45.7258,哈尔滨市,动力和平路,颗粒物(PM10),62,73,29,29,10,102,,90,90,11,17,8,9,0.3,0.3
2025-04-16T1600,1137A,126.593,45.7478,哈尔滨市,道里建国路,,33,32,18,20,9,104,,91,91,11,18,10,6,0.6,0.5
2025-04-16T1600,1138A,126.615,45.61,哈尔滨市,平房东轻厂,,34,32,26,19,12,108,,92,92,12,34,9,10,0.4,0.6
2025-04-16T1600,1139A,126.595,45.9855,哈尔滨市,呼兰师专,,30,28,16,16,8,94,,89,89,8,10,5,6,0.4,0.4
2025-04-16T1600,1140A,126.6206,45.6842,哈尔滨市,省农科院,,33,32,22,20,9,104,,91,91,12,19,7,9,0.2,0.3
2025-04-16T1600,2688A,93.5128,42.8172,哈密市,地区监测站,,33,24,54,16,17,105,,89,89,7,11,7,6,0.2,0.2
2025-04-16T1600,2689A,93.4961,42.8328,哈密市,哈密师范学校,颗粒物(PM10),52,53,47,10,19,107,,89,89,5,11,4,4,0.8,0.6
2025-04-16T1600,2671A,100.9048,36.9639,海北藏族自治州,海晏县西海镇,颗粒物(PM10),83,116,68,26,27,110,,80,80,1,6,10,9,0.5,0.4
2025-04-16T1600,3867A,102.0738,36.5056,海东市,平安区公安北苑,,,121,151,54,57,102,,76,67,10,13,,6,1.6,0.9
2025-04-16T1600,1409A,110.576,19.9507,海口市,东寨港,颗粒物(PM10),94,137,183,47,68,125,,117,117,4,10,10,9,0.6,0.7
2025-04-16T1600,1410A,110.3232,20.0574,海口市,海南大学,颗粒物(PM10),129,207,228,65,72,181,,150,150,8,18,2,4,0.5,0.5
2025-04-16T1600,1411A,110.283,20.0053,海口市,秀英海南医院,颗粒物(PM10),114,177,203,61,62,153,,129,129,8,23,5,6,0.5,0.4
2025-04-16T1600,1412A,110.338,19.9969,海口市,海南师范大学,颗粒物(PM10),123,195,215,59,72,164,,142,142,6,13,4,5,0.5,0.5
2025-04-16T1600,1413A,110.33,20.0356,海口市,龙华路环保局宿舍,颗粒物(PM10),124,197,213,68,75,173,,148,148,4,12,4,6,0.4,0.5
2025-04-16T1600,3539A,110.5111,19.9736,海口市,桂林洋子站,颗粒物(PM10),89,128,228,37,75,139,,138,138,6,16,5,6,0.3,0.5
2025-04-16T1600,2673A,100.6188,36.2866,海南藏族自治州,共和县恰卜恰镇,颗粒物(PM10),65,80,78,24,30,119,,99,99,2,22,15,13,0.4,0.4
2025-04-16T1600,2676A,97.3731,37.3753,海西蒙古族藏族自治州,德令哈市,颗粒物(PM10),102,153,86,39,26,112,,103,103,2,8,12,12,0.4,0.5
2025-04-16T1600,1048A,114.5302,36.6116,邯郸市,东污水处理厂,,,,,,,,,,,,,,,,
2025-04-16T1600,1049A,114.4918,36.5713,邯郸市,矿院,颗粒物(PM10),168,285,118,110,39,90,,78,78,,19,3,6,0.3,0.6
2025-04-16T1600,1050A,114.484,36.6133,邯郸市,丛台公园,颗粒物(PM10),199,347,119,134,46,102,,87,87,9,22,7,10,0.4,0.7
2025-04-16T1600,3458A,114.7895,36.5593,邯郸市,香泉濮院小区,颗粒物(PM10),263,394,136,85,27,113,,96,96,15,20,5,7,0,0.2
2025-04-16T1600,3579A,114.50634,36.77178,邯郸市,永年区实验高中,颗粒物(PM10),213,359,132,109,44,115,,98,98,3,19,7,17,0.3,1.1
2025-04-16T1600,3580A,114.20016,36.44293,邯郸市,峰峰矿区临水派出所,颗粒物(PM10),184,317,133,107,54,116,,105,105,8,14,5,8,0.3,0.2
2025-04-16T1600,2634A,106.9893,33.1842,汉中市,汉川机床厂子校,颗粒物(PM10),66,82,64,35,31,152,,112,112,6,9,8,8,1.3,1.3
2025-04-16T1600,2635A,107.0154,33.0706,汉中市,市监测站,颗粒物(PM10),65,80,81,34,35,150,,114,114,9,21,6,8,0.9,1.1
2025-04-16T1600,2636A,107.0089,33.1138,汉中市,鑫源开发区,颗粒物(PM10),65,79,82,29,34,144,,114,114,6,25,5,9,0.4,0.7
2025-04-16T1600,2637A,107.007,33.0323,汉中市,南郑大河坎水厂,,,83,71,32,33,152,,126,126,6,20,6,6,,0.7
2025-04-16T1600,1223A,120.2072,30.2111,杭州市,滨江,,44,42,58,16,23,138,,126,126,11,36,7,8,0.6,0.8
2025-04-16T1600,1224A,120.0633,30.2747,杭州市,西溪,,46,34,43,17,25,145,,125,125,10,32,7,6,0.5,0.6
2025-04-16T1600,1226A,120.3417,30.3150,杭州市,下沙,,41,39,62,10,30,129,,127,127,17,59,7,9,0.3,0.4
2025-04-16T1600,1227A,120.1269,30.2456,杭州市,卧龙桥,,43,34,37,18,22,137,,123,123,9,22,7,6,0.3,0.4
2025-04-16T1600,1228A,120.1903,30.2692,杭州市,浙江农大,,42,32,59,14,30,134,,124,124,8,42,3,3,0.2,0.4
2025-04-16T1600,1230A,120.1197,30.3119,杭州市,和睦小学,,44,34,58,20,27,138,,124,124,10,45,8,8,0.4,0.7
2025-04-16T1600,1231A,120.3019,30.4183,杭州市,临平镇,,46,46,69,14,29,134,,128,128,20,57,6,7,0.3,0.5
2025-04-16T1600,1232A,120.2753,30.1839,杭州市,城厢镇,,43,36,63,14,29,136,,135,135,14,38,8,9,0.5,0.6
2025-04-16T1600,1233A,120.0883,30.1808,杭州市,云栖,,42,40,45,14,19,134,,121,121,21,37,9,8,0.5,0.5
2025-04-16T1600,3557A,119.9464,30.0494,杭州市,镇二中,,,41,46,15,27,136,,119,119,16,42,2,2,,0.4
2025-04-16T1600,3558A,119.7183,30.2367,杭州市,市府大楼,,40,28,48,12,24,125,,113,113,9,22,8,8,0.3,0.4
2025-04-16T1600,3656A,120.1556,30.2864,杭州市,消防大队,,44,40,62,12,29,138,,128,128,14,38,4,4,0.3,0.4
2025-04-16T1600,1270A,117.1959,31.7848,合肥市,明珠广场,颗粒物(PM10),59,68,52,24,17,157,,140,140,18,24,6,6,0.4,0.4
2025-04-16T1600,1271A,117.3072,31.8764,合肥市,三里街,颗粒物(PM10),63,75,57,22,21,141,,123,123,20,35,8,7,0.4,0.4
2025-04-16T1600,1272A,117.2588,31.8707,合肥市,琥珀山庄,颗粒物(PM10),64,78,59,24,20,164,,142,142,13,22,4,4,0.5,0.5
2025-04-16T1600,1273A,117.1604,31.9052,合肥市,董铺水库,颗粒物(PM10),67,83,56,19,14,164,,140,140,10,14,2,2,0.4,0.4
2025-04-16T1600,1274A,117.25,31.8571,合肥市,长江中路,颗粒物(PM10),64,78,59,24,21,162,,145,145,14,20,10,9,0.4,0.5
2025-04-16T1600,1275A,117.266,31.9436,合肥市,庐阳区,颗粒物(PM10),63,75,56,22,17,168,,140,140,11,19,8,7,0.3,0.3
2025-04-16T1600,1276A,117.3453,31.8616,合肥市,瑶海区,颗粒物(PM10),70,90,61,34,24,140,,128,128,18,30,8,7,0.4,0.4
2025-04-16T1600,1277A,117.3027,31.7964,合肥市,包河区,颗粒物(PM10),63,75,53,19,18,141,,136,136,12,42,7,6,0.4,0.4
2025-04-16T1600,1278A,117.2776,31.7385,合肥市,滨湖新区,颗粒物(PM10),62,73,52,29,22,147,,137,137,14,16,9,7,0.3,0.3
2025-04-16T1600,1279A,117.1318,31.8403,合肥市,高新区,,,73,56,16,27,164,,139,139,,19,5,3,0.6,0.5
2025-04-16T1600,3464A,117.3803,31.9147,合肥市,高教基地,颗粒物(PM10),67,83,61,22,23,149,,142,142,12,17,7,6,0.3,0.5
2025-04-16T1600,3614A,79.924,37.0877,和田地区,地区环保局,颗粒物(PM10),141,232,245,65,123,106,,72,72,10,11,2,2,0.3,0.6
2025-04-16T1600,3615A,79.9131,37.113,和田地区,市环保局,颗粒物(PM10),108,166,218,53,78,113,,77,77,1,9,3,2,0.5,0.6
2025-04-16T1600,2516A,108.2011,24.715,河池市,东仁乐园,,,102,142,52,57,139,,130,130,14,31,,12,1.1,1.3
2025-04-16T1600,2517A,108.0497,24.6947,河池市,市环保站,颗粒物(PM10),68,85,115,32,52,139,,128,128,6,21,6,9,0.4,0.5
2025-04-16T1600,2518A,108.0983,24.6989,河池市,市疾控中心,颗粒物(PM10),57,63,123,30,50,146,,135,135,9,30,7,12,0.5,0.6
2025-04-16T1600,1696A,114.6778,23.7569,河源市,源西,颗粒物(PM10),94,137,115,31,32,155,,121,121,10,30,4,4,0.7,0.9
2025-04-16T1600,1697A,114.6944,23.7586,河源市,东埔,颗粒物(PM10),98,146,123,45,44,167,,128,128,12,24,5,5,0.6,0.7
2025-04-16T1600,1698A,114.6892,23.7233,河源市,老城,颗粒物(PM10),99,148,114,39,34,170,,133,133,12,21,4,5,0.3,0.4
2025-04-16T1600,1718A,115.4208,35.2464,菏泽市,气象局,颗粒物(PM10),180,309,119,95,46,139,,116,116,9,17,5,7,0.4,0.4
2025-04-16T1600,3374A,115.5564,35.0891,菏泽市,定陶老年大学,,,,97,,,,,121,121,15,19,7,7,0.5,1
2025-04-16T1600,4184A,115.4797,35.24401,菏泽市,永昌路1号,颗粒物(PM10),183,316,115,108,50,123,,103,103,13,17,7,7,0.3,0.3
2025-04-16T1600,4193A,115.4715,35.2800,菏泽市,长城路999号,颗粒物(PM10),180,309,116,75,33,134,,115,115,12,19,6,8,0.3,0.3
2025-04-16T1600,2514A,111.5264,24.4172,贺州市,环保小区,颗粒物(PM10),101,151,120,49,49,174,,151,151,19,29,8,12,0.4,0.4
2025-04-16T1600,2515A,111.5608,24.4078,贺州市,政协大楼,颗粒物(PM10),85,120,95,44,45,175,,162,162,10,21,10,18,0.5,0.5
2025-04-16T1600,3534A,111.4744,24.4553,贺州市,西湾,颗粒物(PM10),90,129,117,45,48,184,,163,163,10,30,11,11,0.7,0.5
2025-04-16T1600,2385A,114.17,35.9019,鹤壁市,市监测站,颗粒物(PM10),167,283,135,100,48,142,,125,125,14,15,11,8,0.4,0.8
2025-04-16T1600,2386A,114.2956,35.7511,鹤壁市,市交警支队,颗粒物(PM10),155,259,142,64,37,151,,102,102,18,33,11,10,0.8,0.7
2025-04-16T1600,2387A,114.2878,35.7306,鹤壁市,迎宾馆,颗粒物(PM10),158,266,152,60,34,151,,101,101,20,35,5,7,0.6,0.6
2025-04-16T1600,3474A,114.2617,35.6822,鹤壁市,大新区,颗粒物(PM10),152,253,116,81,40,132,,89,89,16,36,10,10,0.7,0.7
2025-04-16T1600,3596A,114.1572,35.9603,鹤壁市,南山宾馆,颗粒物(PM10),170,289,147,117,53,144,,128,128,18,11,8,6,0.8,0.7
2025-04-16T1600,2244A,130.2537,47.3416,鹤岗市,哈啤分公司,,28,13,15,6,11,89,,84,84,2,2,14,14,0.3,0.2
2025-04-16T1600,2245A,130.2684,47.3086,鹤岗市,斯达机电,,30,9,17,3,14,93,,90,90,1,2,11,11,0.5,0.5
2025-04-16T1600,2246A,130.3114,47.3388,鹤岗市,东山纸板厂,,50,50,41,8,12,87,,82,82,1,2,12,12,0.2,0.3
2025-04-16T1600,2247A,130.1097,47.3382,鹤岗市,五号水库,,,,,,,,,,,,,,,,
2025-04-16T1600,2263A,127.4833,50.2524,黑河市,交通局,,27,17,17,7,12,85,,87,87,22,5,16,7,0.3,0.3
2025-04-16T1600,2264A,127.5144,50.2341,黑河市,环保局,,29,15,18,9,13,91,,84,84,5,8,4,5,0.2,0.2
2025-04-16T1600,2265A,127.5291,50.2472,黑河市,大黑河岛,,,,,,,,,,,,,,,,
2025-04-16T1600,1074A,115.6838,37.7541,衡水市,电机北厂,颗粒物(PM10),112,174,102,65,29,151,,116,116,7,17,4,9,0.2,0.5
2025-04-16T1600,1075A,115.6303,37.7316,衡水市,市监测站,,,,71,,26,,,106,,,21,,15,,0.5
2025-04-16T1600,3188A,115.6683,37.7217,衡水市,市城管局,颗粒物(PM10),110,170,90,,42,146,,114,114,11,21,,11,0.2,0.4
2025-04-16T1600,3459A,115.5989,37.5491,衡水市,地表水厂,颗粒物(PM10),130,210,106,66,40,136,,104,104,8,25,9,11,0.1,0.4
2025-04-16T1600,2456A,112.5003,26.9167,衡阳市,原169医院,颗粒物(PM10),88,126,85,38,38,178,,104,104,10,38,14,13,0.8,0.9
2025-04-16T1600,2457A,112.6194,26.9258,衡阳市,衡阳化工总厂,颗粒物(PM10),94,138,104,45,40,162,,100,100,8,20,10,15,0.7,0.7
2025-04-16T1600,2458A,112.6211,26.8956,衡阳市,珠晖区环保局,颗粒物(PM10),88,126,87,37,37,161,,102,102,10,21,10,14,0.6,0.6
2025-04-16T1600,2459A,112.6197,26.8733,衡阳市,市委党校,颗粒物(PM10),92,133,75,42,48,159,,107,107,8,16,9,11,0.5,0.5
2025-04-16T1600,2460A,112.6006,26.8919,衡阳市,市监测站,颗粒物(PM10),84,118,86,49,39,158,,103,103,11,24,11,14,0.6,0.7
2025-04-16T1600,2461A,112.5664,26.9056,衡阳市,真空机电公司,颗粒物(PM10),98,146,100,46,43,160,,98,98,7,23,11,17,0.6,0.8
2025-04-16T1600,3399A,112.6703,26.882,衡阳市,师范学院,颗粒物(PM10),96,141,94,40,39,167,,100,100,12,17,13,15,0.6,0.6
2025-04-16T1600,2608A,103.3772,23.3993,红河哈尼族彝族自治州,污水处理厂,,30,25,47,19,27,95,,99,92,4,7,12,10,0.2,0.2
2025-04-16T1600,2609A,103.3861,23.35,红河哈尼族彝族自治州,监测站,,31,27,57,6,28,98,,106,94,3,5,6,6,0.1,0.1
2025-04-16T1600,3038A,103.3758,23.368,红河哈尼族彝族自治州,州图书馆,,32,13,44,6,24,100,,111,97,4,6,6,6,0.1,0.2
2025-04-16T1600,1090A,111.6507,40.7517,呼和浩特市,呼市一监,颗粒物(PM10),328,442,246,100,68,123,,93,93,5,14,10,14,0.5,0.5
2025-04-16T1600,1091A,111.6572,40.8033,呼和浩特市,小召,颗粒物(PM10),186,322,242,73,60,110,,84,84,13,22,6,12,0.4,0.5
2025-04-16T1600,1094A,111.7516,40.8369,呼和浩特市,如意水处理厂,颗粒物(PM10),110,169,218,78,74,112,,84,84,5,22,7,13,0.4,0.5
2025-04-16T1600,1095A,111.7276,40.8062,呼和浩特市,二十九中,颗粒物(PM10),131,212,226,67,68,118,,86,86,6,19,4,9,0.3,0.4
2025-04-16T1600,1096A,111.5512,40.7866,呼和浩特市,工大金川校区,颗粒物(PM10),150,249,238,91,70,121,,88,88,7,24,7,11,0.4,0.5
2025-04-16T1600,1097A,111.717,40.7612,呼和浩特市,化肥厂生活区,颗粒物(PM10),218,362,237,90,71,122,,97,97,9,21,10,13,0.4,0.4
2025-04-16T1600,3698A,111.5968,40.8178,呼和浩特市,红旗小学,颗粒物(PM10),184,317,261,72,68,117,,88,88,11,29,4,9,0.4,0.5
2025-04-16T1600,3699A,111.6518,40.8389,呼和浩特市,海东办,颗粒物(PM10),98,146,246,48,70,115,,86,86,2,22,6,11,0.5,0.6
2025-04-16T1600,2192A,119.7594,49.2261,呼伦贝尔市,区环保局,,35,33,39,20,26,110,,95,95,7,16,5,8,0.3,0.4
2025-04-16T1600,3061A,119.7512,49.1577,呼伦贝尔市,国华电力东,,35,19,32,17,16,109,,99,99,4,10,4,7,0.2,0.4
2025-04-16T1600,1250A,120.0751,30.8669,湖州市,城西水厂,,,34,59,12,29,124,,123,123,,68,8,8,0.3,0.4
2025-04-16T1600,2873A,120.0830,30.8929,湖州市,仁皇山新区,,40,35,53,12,29,128,,122,122,26,54,5,5,0.5,0.7
2025-04-16T1600,2907A,120.1844,30.8596,湖州市,吴兴区站,,41,32,73,9,33,129,,125,125,12,44,7,9,0.3,0.4
2025-04-16T1600,3562A,120.4148,30.8538,湖州市,南浔区站,,45,34,66,11,32,142,,136,136,16,37,5,6,0.3,0.4
2025-04-16T1600,1607A,120.9049,40.7211,葫芦岛市,龙港区,颗粒物(PM10),51,51,55,30,39,147,,126,126,16,31,21,33,0.5,0.6
2025-04-16T1600,1608A,120.8392,40.7514,葫芦岛市,化工街,,47,46,73,27,40,150,,128,128,15,47,15,20,0.5,0.8
2025-04-16T1600,1609A,120.8341,40.7073,葫芦岛市,新区,,46,36,42,29,33,147,,130,130,11,34,10,18,0.6,0.8
2025-04-16T1600,1610A,120.8695,40.7677,葫芦岛市,东城区,细颗粒物(PM2.5),57,60,56,40,45,151,,126,126,18,48,56,24,0.7,0.8
2025-04-16T1600,2482A,109.5981,27.5721,怀化市,林科所,颗粒物(PM10),85,119,115,50,42,131,,113,113,10,13,15,16,0.5,0.4
2025-04-16T1600,2483A,109.9453,27.5444,怀化市,河西地税局,颗粒物(PM10),82,113,101,48,46,139,,94,94,9,21,13,15,0.5,0.5
2025-04-16T1600,2484A,109.9781,27.5342,怀化市,市四医院,颗粒物(PM10),92,134,125,51,53,142,,102,102,8,27,10,14,0.4,0.5
2025-04-16T1600,2485A,109.9972,27.5578,怀化市,监测楼,颗粒物(PM10),91,131,124,42,52,140,,92,92,6,28,12,12,0.4,0.6
2025-04-16T1600,2486A,110.0394,27.583,怀化市,市委党校,颗粒物(PM10),81,112,116,42,52,136,,99,99,2,18,8,11,0.5,0.6
2025-04-16T1600,1210A,119.036,33.5981,淮安市,钵池山,颗粒物(PM10),63,75,63,21,24,161,,130,130,10,19,9,12,0.4,0.5
2025-04-16T1600,1211A,119.007,33.575,淮安市,北京南路,,,78,63,21,24,160,,138,138,10,31,13,15,,1
2025-04-16T1600,1212A,118.989,33.6067,淮安市,市监测站,颗粒物(PM10),67,83,61,24,25,158,,127,127,8,21,9,14,0.4,1
2025-04-16T1600,1213A,119.135,33.5039,淮安市,楚州区监测站,颗粒物(PM10),68,85,65,21,26,163,,121,121,8,19,10,10,0.6,0.6
2025-04-16T1600,3426A,118.8755,33.2894,淮安市,新华书店,颗粒物(PM10),66,82,59,24,31,157,,126,126,8,20,9,12,0.4,0.5
2025-04-16T1600,4206A,119.0288,33.6319,淮安市,承德北路606号,颗粒物(PM10),65,80,69,20,22,158,,128,128,9,20,9,13,0.4,0.6
2025-04-16T1600,2282A,116.8004,33.975,淮北市,监测站,颗粒物(PM10),69,88,70,30,28,162,,145,145,10,19,7,10,0.6,0.7
2025-04-16T1600,2283A,116.8091,33.9007,淮北市,烈山区政府,,,,65,,37,158,,137,137,10,22,6,10,0.6,0.7
2025-04-16T1600,3330A,116.8873,33.9836,淮北市,杜集区检察院,颗粒物(PM10),69,87,70,30,29,167,,145,145,13,22,8,9,0.7,0.7
2025-04-16T1600,4017A,116.7923,33.9535,淮北市,市博物馆,颗粒物(PM10),66,81,59,13,25,162,,151,151,12,19,8,12,0.6,0.8
2025-04-16T1600,2277A,116.8305,32.7727,淮南市,潘集区政府,颗粒物(PM10),69,88,66,31,23,142,,132,132,6,15,4,4,0.3,0.3
2025-04-16T1600,2279A,116.8569,32.5951,淮南市,谢家集区政府,颗粒物(PM10),68,86,54,29,20,143,,125,125,10,21,8,7,0.4,0.5
2025-04-16T1600,2280A,116.8281,32.633,淮南市,八公山区政府,颗粒物(PM10),81,111,67,36,24,149,,130,130,5,10,6,6,0.2,0.2
2025-04-16T1600,2281A,116.6325,32.6201,淮南市,焦岗湖风景区管理处,,,,,,,,,,,,,,,,
2025-04-16T1600,2894A,117.0566,32.6531,淮南市,经济技术开发区消防队,颗粒物(PM10),72,93,62,38,21,145,,132,132,9,17,6,6,0.3,0.3
2025-04-16T1600,3329A,117.0108,32.5893,淮南市,山南新区,颗粒物(PM10),82,114,67,31,14,144,,130,130,7,14,8,8,0.4,0.4
2025-04-16T1600,4209A,117.0031,32.6445,淮南市,国庆中路369号,颗粒物(PM10),74,97,56,34,23,146,,147,147,11,15,7,8,0.3,0.3
2025-04-16T1600,2446A,114.9028,30.4742,黄冈市,职工中心,颗粒物(PM10),58,65,49,36,26,133,,124,124,28,23,15,15,0.8,0.7
2025-04-16T1600,2929A,114.8858,30.4519,黄冈市,红卫路,颗粒物(PM10),57,63,56,24,23,109,,109,109,23,19,15,12,1.0,0.8
2025-04-16T1600,3398A,114.9136,30.4445,黄冈市,市林业局,颗粒物(PM10),58,65,56,26,24,104,,107,107,31,26,17,16,0.7,0.6
2025-04-16T1600,2672A,102.0199,35.5102,黄南藏族自治州,同仁县隆务镇,,,102,73,26,21,114,,98,98,3,3,6,13,,0.3
2025-04-16T1600,2295A,118.2903,29.6963,黄山市,延安路89号,,,,36,,24,130,,99,99,1,12,6,6,,0.2
2025-04-16T1600,2297A,118.1371,30.2756,黄山市,黄山区政府5号楼,颗粒物(PM10),54,57,41,13,22,130,,103,103,2,5,5,4,0.3,0.4
2025-04-16T1600,4210A,118.3354,29.7203,黄山市,滨江东路7-2号,颗粒物(PM10),53,55,45,13,19,133,,93,93,5,15,6,6,0.3,0.4
2025-04-16T1600,2423A,115.0601,30.2313,黄石市,沈家营,颗粒物(PM10),62,74,58,28,22,86,,86,86,45,40,14,11,1.0,0.9
2025-04-16T1600,2426A,114.8988,30.2019,黄石市,铁山,颗粒物(PM10),65,80,60,28,23,101,,104,104,36,34,12,12,0.3,0.4
2025-04-16T1600,2427A,115.0307,30.2092,黄石市,团城山,颗粒物(PM10),56,61,54,20,20,113,,93,93,23,34,14,13,0.7,0.8
2025-04-16T1600,3149A,115.0235,30.1578,黄石市,笔架山北路,,47,47,47,22,21,108,,100,100,24,24,13,14,0.8,0.8
2025-04-16T1600,4185A,115.0780,30.21118,黄石市,磁湖东路29号,颗粒物(PM10),55,60,62,23,32,125,,89,89,18,39,12,16,0.7,1.1
2025-04-16T1600,1392A,114.4183,23.0528,惠州市,河南岸金山湖子站,颗粒物(PM10),82,114,125,36,36,130,,125,125,9,20,8,10,0.5,0.6
2025-04-16T1600,1393A,114.4053,23.0822,惠州市,下埔横江三路子站,颗粒物(PM10),86,122,136,32,40,143,,140,140,9,18,9,11,0.5,0.5
2025-04-16T1600,1394A,114.4103,23.1142,惠州市,江北云山西路子站,颗粒物(PM10),83,116,133,34,39,160,,150,150,8,18,9,12,0.3,0.4
2025-04-16T1600,1395A,114.4645,22.7833,惠州市,惠阳区承修路船湖子站,颗粒物(PM10),79,108,139,31,36,118,,123,123,7,15,8,9,0.5,0.6
2025-04-16T1600,1396A,114.5317,22.7422,惠州市,大亚湾管委会子站,颗粒物(PM10),86,121,138,31,35,135,,132,132,8,21,6,7,0.6,0.6
2025-04-16T1600,3314A,114.4338,22.8134,惠州市,惠阳秋长,颗粒物(PM10),85,119,142,34,38,134,,134,134,8,22,8,10,0.3,0.4
2025-04-16T1600,3452A,114.6517,22.775,惠州市,大亚湾霞涌,颗粒物(PM10),85,119,130,33,36,161,,141,141,15,18,8,8,0.5,0.5
2025-04-16T1600,2240A,130.9762,45.3001,鸡西市,环保局,,,21,11,11,7,104,,100,100,2,6,5,6,,0.6
2025-04-16T1600,2243A,130.9429,45.3039,鸡西市,第一中学,,33,20,13,8,6,103,,98,98,2,5,5,6,0.3,0.4
2025-04-16T1600,3707A,131.0207,45.3073,鸡西市,欧美日汽修厂,,31,22,16,8,8,97,,98,98,7,9,4,5,0.4,0.5
2025-04-16T1600,3709A,130.9967,45.3106,鸡西市,市政设施管理处,,33,25,17,6,8,104,,102,102,4,10,4,5,0.2,0.3
2025-04-16T1600,2367A,114.9754,27.0803,吉安市,红声器材厂,颗粒物(PM10),65,80,62,26,22,156,,98,98,12,19,13,14,0.5,0.5
2025-04-16T1600,2368A,114.9658,27.0999,吉安市,市森林工业局,颗粒物(PM10),60,70,65,28,26,156,,104,104,12,27,13,13,0.3,0.4
2025-04-16T1600,2369A,114.99,27.1312,吉安市,市环境监测站,臭氧1小时,59,66,56,25,21,167,,109,109,10,18,20,19,0.3,0.3
2025-04-16T1600,2370A,115.0093,27.0968,吉安市,青原区法院,颗粒物(PM10),64,77,61,22,21,162,,111,111,8,16,14,15,0.4,0.4
2025-04-16T1600,1772A,126.54,43.8622,吉林市,哈达湾,,36,22,22,9,10,113,,103,103,9,17,10,11,0.3,0.4
2025-04-16T1600,1773A,126.5844,43.8358,吉林市,东局子,,35,20,29,8,14,109,,101,101,9,22,5,8,0.3,0.5
2025-04-16T1600,1774A,126.5052,43.8245,吉林市,电力学院,,35,,17,21,15,109,,100,100,9,15,7,5,0.2,0.5
2025-04-16T1600,1775A,126.6133,43.8972,吉林市,江北,,36,15,26,3,11,113,,100,100,6,15,5,6,0.5,0.7
2025-04-16T1600,1776A,126.555,43.8306,吉林市,江南公园,,34,13,21,10,15,108,,100,100,8,20,5,8,0.2,0.4
2025-04-16T1600,1778A,126.7061,43.7133,吉林市,丰满,,,,,,,,,,,,,,,,
2025-04-16T1600,2868A,126.4739,43.953,吉林市,九站,,32,22,29,12,15,102,,96,96,19,21,19,17,0.5,0.5
2025-04-16T1600,1299A,116.9862,36.6114,济南市,科干所,颗粒物(PM10),128,205,74,56,22,161,,148,148,10,11,10,10,0.6,0.5
2025-04-16T1600,1300A,116.9376,36.665,济南市,农科所,颗粒物(PM10),128,205,83,51,21,157,,138,138,14,16,11,10,0.5,0.4
2025-04-16T1600,1301A,117.1265,36.6734,济南市,开发区,颗粒物(PM10),116,181,64,59,23,165,,149,149,14,12,11,10,0.5,0.5
2025-04-16T1600,1303A,117.0624,36.6868,济南市,省种子仓库,颗粒物(PM10),146,241,99,58,36,164,,146,146,11,11,8,7,0.8,0.7
2025-04-16T1600,1304A,116.9489,36.6447,济南市,机床二厂,颗粒物(PM10),157,264,105,61,33,168,,144,144,15,17,12,11,0.5,0.4
2025-04-16T1600,1305A,117.0495,36.663,济南市,市监测站,颗粒物(PM10),138,225,78,49,19,156,,139,139,13,13,12,11,0.4,0.4
2025-04-16T1600,1306A,116.7675,36.5484,济南市,长清党校,颗粒物(PM10),125,200,82,61,30,174,,152,152,13,16,11,10,0.6,0.5
2025-04-16T1600,1616A,117.6795,36.229,济南市,技术学院,臭氧1小时,85,102,76,36,29,188,,154,154,16,18,17,14,1.0,0.7
2025-04-16T1600,1961A,117.532,36.6868,济南市,东山小学,颗粒物(PM10),100,149,82,29,22,174,,149,149,13,14,10,9,0.4,0.3
2025-04-16T1600,3059A,117.7161,36.2049,济南市,泰兴公司,臭氧1小时,85,83,70,31,32,188,,160,160,17,27,14,12,0.7,0.7
2025-04-16T1600,3064A,117.6867,36.2171,济南市,莱芜战役纪念馆,颗粒物(PM10),86,122,84,27,26,186,,151,151,17,20,11,9,0.7,0.6
2025-04-16T1600,3494A,117.1673,36.9782,济南市,济阳区政府,颗粒物(PM10),105,159,87,46,23,181,,139,139,15,18,16,12,0.6,0.4
2025-04-16T1600,3495A,117.1171,36.63,济南市,锦屏中学,颗粒物(PM10),111,171,60,49,15,174,,152,152,15,14,6,5,0.2,0.2
2025-04-16T1600,3682A,116.9814,36.6819,济南市,济南四建,颗粒物(PM10),142,234,82,63,23,159,,143,143,14,12,9,8,0.4,0.4
2025-04-16T1600,1653A,116.6251,35.4302,济宁市,火炬城,颗粒物(PM10),107,163,83,53,33,160,,133,133,4,7,8,9,0.3,0.3
2025-04-16T1600,1655A,116.5491,35.4042,济宁市,电化厂,颗粒物(PM10),93,136,94,51,36,147,,125,125,10,20,2,5,0.4,0.4
2025-04-16T1600,3500A,116.5814,35.3707,济宁市,北湖一中,颗粒物(PM10),106,161,86,27,22,146,,125,125,30,18,10,8,0.4,0.3
2025-04-16T1600,3501A,116.8249,35.5593,济宁市,服务中心,颗粒物(PM10),92,133,108,41,24,164,,130,130,12,20,4,5,0.4,0.5
2025-04-16T1600,3678A,116.5907,35.4054,济宁市,市第七中学,颗粒物(PM10),103,156,99,73,45,162,,135,135,10,12,4,5,0.4,0.4
2025-04-16T1600,2255A,130.2751,46.8028,佳木斯市,佳纺,,,18,15,13,6,98,,96,96,,5,7,6,0.4,0.5
2025-04-16T1600,2256A,130.3995,46.8307,佳木斯市,发电厂,,34,24,16,11,7,106,,98,98,10,7,5,3,0.5,0.4
2025-04-16T1600,2257A,130.3258,46.7975,佳木斯市,环保局,,31,19,17,12,7,99,,97,97,10,10,2,2,0.4,0.4
2025-04-16T1600,2258A,130.3648,46.8032,佳木斯市,十一中,,32,12,12,12,8,101,,97,97,8,7,6,6,0.4,0.4
2025-04-16T1600,2259A,130.3794,46.7588,佳木斯市,四丰,,28,22,12,11,6,87,,85,85,11,7,1,1,0.9,0.9
2025-04-16T1600,1252A,120.7436,30.778,嘉兴市,清河小学,,49,49,61,16,23,148,,130,130,20,30,6,6,0.7,0.9
2025-04-16T1600,1253A,120.726,30.7478,嘉兴市,嘉兴学院,臭氧1小时,65,52,52,17,23,172,,148,148,21,23,7,7,0.4,0.5
2025-04-16T1600,2872A,120.7846,30.7525,嘉兴市,南湖区残联,臭氧1小时,65,57,54,42,38,172,,152,152,14,23,7,7,0.6,0.6
2025-04-16T1600,3407A,120.6916,30.7739,嘉兴市,秀洲住建,,49,36,57,17,28,156,,145,145,14,28,8,8,0.5,0.6
2025-04-16T1600,1945A,98.2908,39.7711,嘉峪关市,气象局,颗粒物(PM10),129,207,117,56,34,103,,103,102,8,10,17,17,0.4,0.3
2025-04-16T1600,2884A,98.2672,39.7978,嘉峪关市,酒钢宾馆,颗粒物(PM10),134,217,128,63,37,100,,98,98,4,9,27,27,0.0,0.4
2025-04-16T1600,3248A,98.2643,39.7724,嘉峪关市,雄关区,颗粒物(PM10),107,163,104,41,31,103,,101,101,9,13,14,11,0.4,0.7
2025-04-16T1600,1383A,113.1064,22.6058,江门市,北街,颗粒物(PM10),99,148,140,44,42,128,,150,150,6,16,3,4,0.4,0.5
2025-04-16T1600,1384A,113.0731,22.5835,江门市,西区,颗粒物(PM10),93,135,168,56,45,143,,166,166,9,24,7,9,0.4,0.5
2025-04-16T1600,1385A,113.0219,22.5311,江门市,圭峰西,颗粒物(PM10),102,154,151,42,48,130,,150,150,8,18,5,6,0.3,0.4
2025-04-16T1600,1386A,113.0828,22.5947,江门市,东湖,颗粒物(PM10),91,131,146,38,49,145,,168,168,8,18,7,8,0.4,0.5
2025-04-16T1600,3311A,113.1075,22.5647,江门市,江海富民,颗粒物(PM10),94,137,151,37,39,135,,158,158,7,19,7,8,0.3,0.5
2025-04-16T1600,3449A,113.05,22.4667,江门市,新会银湖,颗粒物(PM10),85,120,144,39,48,134,,152,152,6,26,1,2,0.3,0.4
2025-04-16T1600,1830A,113.1992,35.2590,焦作市,影视城,,,,39,,30,,,,,,15,,10,,0.7
2025-04-16T1600,3169A,113.2725,35.2067,焦作市,太极体育中心,颗粒物(PM10),197,343,94,128,34,142,,122,122,8,33,4,14,0.1,0.5
2025-04-16T1600,3335A,113.3137,35.2641,焦作市,马村街道办,细颗粒物(PM2.5),160,254,109,122,48,134,,110,110,9,23,14,28,0.2,0.4
2025-04-16T1600,3336A,113.2465,35.2373,焦作市,焦作技师学院,颗粒物(PM10),179,307,106,73,31,140,,116,116,9,29,7,20,0.4,0.7
2025-04-16T1600,3477A,113.1656,35.2539,焦作市,中站许衡医院,颗粒物(PM10),141,232,83,77,30,143,,110,110,9,23,10,16,0.6,0.9
2025-04-16T1600,3981A,113.2449,35.1803,焦作市,原李万街道办,颗粒物(PM10),232,372,106,153,47,134,,111,111,14,33,10,17,0.3,0.5
2025-04-16T1600,4264A,113.2340,35.2190,焦作市,新安路1731号,颗粒物(PM10),169,288,106,97,39,134,,112,112,8,29,7,27,0.4,0.7
2025-04-16T1600,1708A,116.3701,23.5345,揭阳市,新兴,颗粒物(PM10),81,111,127,37,47,117,,120,120,12,29,6,8,0.6,0.8
2025-04-16T1600,1709A,116.3264,23.5443,揭阳市,西马,颗粒物(PM10),90,130,134,33,45,132,,129,129,5,23,7,10,0.5,0.6
2025-04-16T1600,1710A,116.3611,23.5626,揭阳市,东兴,颗粒物(PM10),92,134,130,28,39,125,,125,125,6,30,6,11,0.6,0.8
2025-04-16T1600,1711A,116.4151,23.5294,揭阳市,渔湖,颗粒物(PM10),81,111,129,34,43,125,,127,127,7,39,4,12,0.5,0.7
2025-04-16T1600,3320A,116.403,23.5699,揭阳市,曲溪,颗粒物(PM10),78,106,130,48,53,136,,144,144,8,28,8,12,0.5,0.6
2025-04-16T1600,1944A,102.1692,38.5167,金昌市,天庆家园,颗粒物(PM10),120,190,143,63,50,104,,103,103,3,5,10,10,0.8,0.7
2025-04-16T1600,4022A,102.1647,38.5371,金昌市,金川区人防中心,颗粒物(PM10),162,274,211,71,60,105,,105,105,4,5,5,12,0.4,0.3
2025-04-16T1600,4239A,102.1930,38.5319,金昌市,长春路96号,颗粒物(PM10),175,299,155,58,43,105,,102,102,1,3,19,15,0.7,0.9
2025-04-16T1600,1262A,119.647,29.077,金华市,十五中,颗粒物(PM10),53,55,58,18,28,152,,132,132,26,32,4,4,0.3,0.4
2025-04-16T1600,1263A,119.686,29.1029,金华市,监测站,,48,48,61,18,28,145,,133,133,24,38,7,6,0.3,0.4
2025-04-16T1600,3659A,119.656,29.1131,金华市,气象局,颗粒物(PM10),56,62,63,24,33,149,,134,134,27,40,6,3,0.4,0.5
2025-04-16T1600,1767A,121.1115,41.0879,锦州市,南山,细颗粒物(PM2.5),64,,44,46,46,164,,134,134,12,36,11,12,0.6,0.8
2025-04-16T1600,1768A,121.0604,40.8428,锦州市,开发区,臭氧1小时,52,41,59,33,36,161,,131,131,9,46,7,8,0.7,0.8
2025-04-16T1600,1769A,121.1836,41.1119,锦州市,百股街道,臭氧1小时,54,43,44,24,30,163,,123,123,14,29,5,7,0.6,0.7
2025-04-16T1600,1770A,121.1178,41.1222,锦州市,天安街道,细颗粒物(PM2.5),60,47,50,43,47,140,,110,110,15,36,11,13,0.7,0.9
2025-04-16T1600,1771A,121.1303,41.1386,锦州市,北湖公园,细颗粒物(PM2.5),57,40,46,40,41,160,,125,125,15,30,10,14,0.6,0.8
2025-04-16T1600,2160A,112.85,35.5051,晋城市,自来水公司,细颗粒物(PM2.5),147,237,120,112,40,128,,114,114,11,31,7,10,0.4,0.7
2025-04-16T1600,2161A,112.8318,35.4936,晋城市,白云商贸,颗粒物(PM10),144,238,125,70,37,130,,114,114,12,33,5,7,0.3,0.6
2025-04-16T1600,2162A,112.8508,35.4887,晋城市,市环保局,颗粒物(PM10),146,242,127,66,35,127,,112,112,8,38,3,6,0.1,0.4
2025-04-16T1600,2163A,112.8676,35.4897,晋城市,技术学院,细颗粒物(PM2.5),192,268,133,144,47,127,,114,114,9,35,6,8,0.4,0.6
2025-04-16T1600,2165A,112.8453,35.546,晋城市,白马寺,,,,40,,15,,,141,,,9,,9,,0.6
2025-04-16T1600,3620A,112.8271,35.4828,晋城市,泽州一中,颗粒物(PM10),159,268,113,73,36,135,,120,120,8,24,7,9,0.4,0.7
2025-04-16T1600,2173A,112.7249,37.7067,晋中市,南都小区,颗粒物(PM10),150,249,147,59,37,126,,98,98,8,26,3,20,0.2,0.7
2025-04-16T1600,2174A,112.6991,37.6982,晋中市,榆次区政府,颗粒物(PM10),158,266,153,38,31,126,,98,98,11,30,5,21,0.1,0.7
2025-04-16T1600,2865A,112.7195,37.6828,晋中市,榆次三中,颗粒物(PM10),176,302,183,63,45,,,79,79,22,35,6,20,3.1,1.2
2025-04-16T1600,4200A,112.7478,37.6954,晋中市,迎宾街26号,颗粒物(PM10),150,249,161,58,42,126,,100,100,4,25,3,21,0.3,0.7
2025-04-16T1600,2439A,112.2014,31.0481,荆门市,竹园小学,颗粒物(PM10),89,128,128,54,57,174,,134,134,12,21,7,9,0.1,0.1
2025-04-16T1600,2440A,112.1969,30.9891,荆门市,掇刀,细颗粒物(PM2.5),97,124,120,72,56,182,,135,135,10,22,13,13,0.4,0.4
2025-04-16T1600,2441A,112.2213,31.0386,荆门市,石化一小,颗粒物(PM10),90,130,130,53,74,173,,133,133,16,32,12,14,0.2,0.3
2025-04-16T1600,3012A,112.1849,31.0362,荆门市,西山林语,,,,103,,37,175,,136,136,,12,9,8,0.1,0.3
2025-04-16T1600,3547A,112.1632,31.0138,荆门市,龙泉中学南校,颗粒物(PM10),92,133,120,47,57,162,,124,124,16,22,9,8,0.6,0.5
2025-04-16T1600,1844A,112.2494,30.3197,荆州市,市图书馆,颗粒物(PM10),74,97,91,46,41,116,,101,101,16,20,8,8,0.6,0.6
2025-04-16T1600,1845A,112.2008,30.3544,荆州市,市委党校,细颗粒物(PM2.5),87,110,103,64,45,104,,90,90,15,18,7,9,0.5,0.5
2025-04-16T1600,3194A,112.2747,30.3122,荆州市,管委会,细颗粒物(PM2.5),80,100,87,59,42,105,,95,95,19,15,9,10,0.6,0.5
2025-04-16T1600,4268A,112.1722,30.3366,荆州市,学苑路85号,颗粒物(PM10),70,90,87,48,38,116,,101,101,13,20,5,6,0.4,0.4
2025-04-16T1600,2342A,117.3102,29.3867,景德镇市,王港中学,,,,,,,,,,,,,,,,
2025-04-16T1600,2343A,117.2117,29.2933,景德镇市,老干部活动中心,颗粒物(PM10),51,51,46,16,18,115,,94,94,18,20,12,9,0.4,0.4
2025-04-16T1600,2344A,117.1894,29.2789,景德镇市,兽医站,颗粒物(PM10),57,63,54,21,17,105,,91,91,30,27,16,8,0.8,0.7
2025-04-16T1600,2345A,117.1547,29.2617,景德镇市,台达陶瓷,颗粒物(PM10),53,55,53,22,21,122,,96,96,14,26,10,25,0.5,0.5
2025-04-16T1600,2346A,117.2461,29.2956,景德镇市,陶研所,,44,44,42,19,25,121,,104,104,9,20,7,8,0.5,0.6
2025-04-16T1600,1803A,115.9872,29.6815,九江市,十里,颗粒物(PM10),53,56,50,22,23,132,,96,96,12,27,7,5,0.5,0.5
2025-04-16T1600,1804A,115.9584,29.7046,九江市,茅山头,,,,60,31,26,129,,99,99,,50,10,7,,0.5
2025-04-16T1600,1805A,115.9877,29.7295,九江市,西园,颗粒物(PM10),51,51,45,22,21,139,,96,96,18,48,12,12,0.7,0.7
2025-04-16T1600,1808A,115.9114,29.6038,九江市,综合工业园,颗粒物(PM10),62,74,54,28,21,115,,108,108,38,34,15,11,0.7,0.7
2025-04-16T1600,1809A,116.0721,29.7535,九江市,石化总厂,颗粒物(PM10),54,58,48,12,27,118,,104,104,22,18,11,8,0.7,0.6
2025-04-16T1600,1810A,115.9773,29.5698,九江市,庐山气象台,颗粒物(PM10),65,80,43,30,17,126,,128,120,6,6,6,6,0.6,0.7
2025-04-16T1600,3190A,116.0254,29.6994,九江市,外国语学校,颗粒物(PM10),58,66,51,28,29,110,,101,101,21,27,11,16,0.7,0.9
2025-04-16T1600,4253A,116.0102,29.6594,九江市,莲花大道8号,,50,50,44,34,24,120,,97,97,12,14,7,6,0.6,0.5
2025-04-16T1600,4240A,98.4958,39.7339,酒泉市,玉门东路5号,颗粒物(PM10),139,227,126,44,35,108,,100,100,3,9,10,13,0.2,0.3
2025-04-16T1600,4241A,98.5099,39.7506,酒泉市,北大街108号,颗粒物(PM10),139,227,124,39,29,115,,106,106,4,13,12,16,0.3,0.3
2025-04-16T1600,2698A,76.0072,39.4467,喀什地区,巡警大队,颗粒物(PM10),64,78,145,19,40,97,,58,58,12,37,4,5,0.4,0.7
2025-04-16T1600,2699A,75.9755,39.4694,喀什地区,吾办,,,,142,,51,88,,57,57,1,35,1,3,0.3,0.8
2025-04-16T1600,4027A,75.9483,39.4689,喀什地区,老干局,颗粒物(PM10),66,82,130,16,33,95,,65,65,8,32,2,3,0.3,0.4
2025-04-16T1600,1824A,114.3389,34.7781,开封市,肿瘤医院,颗粒物(PM10),289,412,145,90,37,142,,117,117,5,22,8,9,0.4,0.5
2025-04-16T1600,1826A,114.2885,34.7965,开封市,世纪星幼儿园,,,,121,,39,,,111,,,29,,7,,0.6
2025-04-16T1600,3147A,114.3438,34.8106,开封市,龙亭公园,颗粒物(PM10),298,418,147,135,46,147,,121,121,11,23,4,5,0.5,0.6
2025-04-16T1600,3210A,114.3644,34.7964,开封市,汴京公园,颗粒物(PM10),354,463,171,116,48,145,,123,123,9,22,5,5,0.8,1.1
2025-04-16T1600,3473A,114.2485,34.8306,开封市,技师学院,细颗粒物(PM2.5),320,376,145,270,66,142,,116,116,10,26,4,7,0.4,0.8
2025-04-16T1600,3592A,114.4644,34.7556,开封市,祥符区生态环境局,颗粒物(PM10),209,356,151,142,51,133,,112,112,19,27,6,8,0.2,0.4
2025-04-16T1600,1951A,84.895,45.6094,克拉玛依市,长征新村,,33,,17,23,7,76,,76,63,8,12,7,7,0.2,0.2
2025-04-16T1600,1952A,84.8988,45.5893,克拉玛依市,南林小区,,27,9,20,3,8,86,,85,68,1,9,2,3,0.2,0.3
2025-04-16T1600,1954A,84.905,44.3396,克拉玛依市,独山子区,颗粒物(PM10),51,51,40,18,11,70,,75,74,7,9,8,8,0.3,0.3
2025-04-16T1600,1955A,85.6979,46.098,克拉玛依市,乌尔禾区商贸楼,,29,29,23,8,10,63,,70,70,8,5,7,6,0.3,0.3
2025-04-16T1600,3612A,85.1045,45.6899,克拉玛依市,白碱滩区新站,,28,10,17,3,7,88,,76,76,2,6,10,10,0.3,0.3
2025-04-16T1600,2697A,76.1454,39.7142,克孜勒苏柯尔克孜自治州,市人民政府,颗粒物(PM10),58,66,80,18,28,110,,100,100,2,7,6,13,0.2,0.2
2025-04-16T1600,3665A,76.1658,39.7157,克孜勒苏柯尔克孜自治州,克州文化中心,颗粒物(PM10),53,55,79,16,26,109,,100,100,2,8,8,13,0.2,0.2
2025-04-16T1600,1450A,102.8204,24.8886,昆明市,呈贡新区,,34,34,27,3,10,108,,95,95,11,11,5,6,0.4,0.5
2025-04-16T1600,1451A,102.6251,24.9608,昆明市,西山森林公园,,,,,,,,,,,,,,,,
2025-04-16T1600,1452A,102.7252,25.0902,昆明市,龙泉镇,,32,8,25,7,15,100,,91,91,8,22,7,8,0.3,0.4
2025-04-16T1600,1453A,102.7266,25.0375,昆明市,东风东路,,34,18,27,13,19,106,,97,97,12,15,8,9,0.4,0.5
2025-04-16T1600,1454A,102.6742,25.0669,昆明市,金鼎山,,36,17,27,3,14,114,,103,103,12,20,5,7,0.2,0.4
2025-04-16T1600,1455A,102.6644,25.0401,昆明市,碧鸡广场,,34,14,30,7,16,106,,97,97,8,20,6,7,0.2,0.3
2025-04-16T1600,3179A,102.7494,25.0119,昆明市,官渡区博物馆,,37,37,29,12,14,108,,100,100,9,13,8,7,0.3,0.4
2025-04-16T1600,3375A,102.8017,24.8336,昆明市,青年创业园,,35,15,24,12,15,111,,97,97,5,10,8,8,0.4,0.5
2025-04-16T1600,3550A,102.7997,24.9786,昆明市,昆明学院,,35,15,29,9,17,110,,98,98,8,12,4,5,0.2,0.4
2025-04-16T1600,3551A,102.5967,24.6736,昆明市,晋宁区生态环境分局,,33,9,16,3,12,103,,90,90,4,7,6,7,0.6,0.8
2025-04-16T1600,3552A,102.6678,24.9856,昆明市,云天化总部,,35,11,23,3,13,110,,102,102,8,8,9,8,0.4,0.6
2025-04-16T1600,1456A,91.1319,29.6514,拉萨市,八廓街,,49,21,22,14,14,154,,126,126,8,14,8,9,0.4,0.5
2025-04-16T1600,1457A,91.1221,29.6747,拉萨市,市环保局,,45,26,36,14,16,142,,116,116,15,24,5,6,0.4,0.4
2025-04-16T1600,1458A,91.0874,29.6475,拉萨市,区监测站,,45,20,20,12,12,143,,114,114,12,23,6,8,0.5,0.6
2025-04-16T1600,1459A,91.1774,29.6541,拉萨市,西藏大学,,46,20,16,13,10,147,,121,121,8,14,6,9,0.2,0.7
2025-04-16T1600,1460A,90.9798,29.6588,拉萨市,区辐射站,,44,23,28,14,16,140,,98,98,23,31,8,9,0.4,0.4
2025-04-16T1600,1461A,91.0834,29.6292,拉萨市,拉萨火车站,,46,21,18,13,10,146,,110,110,8,17,4,4,0.3,0.4
2025-04-16T1600,2520A,109.2203,23.7256,来宾市,来宾技工学校,颗粒物(PM10),97,143,166,44,53,155,,142,142,10,18,26,36,0.6,0.8
2025-04-16T1600,3535A,109.1781,23.7297,来宾市,兴宾区政府,颗粒物(PM10),94,137,164,47,61,159,,148,148,6,17,7,10,0.5,0.6
2025-04-16T1600,4002A,109.2416,23.7461,来宾市,中南小学,颗粒物(PM10),90,129,169,46,52,138,,132,132,8,18,15,27,0.5,0.6
2025-04-16T1600,1477A,104.1373,35.9454,兰州市,榆中兰大校区,,,,,,,,,,,,,,,,
2025-04-16T1600,1479A,103.831,36.0464,兰州市,铁路设计院,颗粒物(PM10),86,121,271,35,78,109,,74,74,23,55,8,20,0.3,0.7
2025-04-16T1600,3241A,103.7439,36.0842,兰州市,百合公园,颗粒物(PM10),104,157,295,37,87,111,,79,79,9,37,8,14,,0.6
2025-04-16T1600,3242A,103.9611,35.998,兰州市,和平,颗粒物(PM10),169,287,343,99,114,118,,80,80,9,18,12,16,0.5,0.7
2025-04-16T1600,4236A,103.6293,36.0938,兰州市,庄浪东路808号,颗粒物(PM10),129,207,318,72,107,104,,88,88,15,29,14,20,0.3,0.4
2025-04-16T1600,4237A,103.7251,36.1043,兰州市,安宁西路88号,颗粒物(PM10),129,207,380,65,109,123,,91,91,8,26,10,18,0.3,0.4
2025-04-16T1600,4238A,103.8470,36.0676,兰州市,北滨河东路1号,颗粒物(PM10),88,125,316,53,96,123,,79,79,16,44,12,18,0.5,0.7
2025-04-16T1600,3245A,103.6633,36.533,兰州新区,新区管委会,颗粒物(PM10),101,151,239,57,91,122,,106,106,5,12,10,12,0.3,0.3
2025-04-16T1600,3246A,103.6975,36.4789,兰州新区,舟曲中学,颗粒物(PM10),130,210,384,67,106,127,,105,105,7,17,11,8,0.3,0.3
2025-04-16T1600,1067A,116.6708,39.5111,廊坊市,药材公司,细颗粒物(PM2.5),92,124,88,68,51,158,,102,102,22,23,8,6,0.7,0.7
2025-04-16T1600,1068A,116.7214,39.5589,廊坊市,开发区,颗粒物(PM10),92,134,103,66,49,167,,107,107,24,23,8,6,0.7,0.7
2025-04-16T1600,1070A,116.7244,39.5269,廊坊市,北华航天学院,颗粒物(PM10),102,154,103,73,52,156,,102,102,19,21,11,8,0.7,0.7
2025-04-16T1600,2919A,116.7022,39.5453,廊坊市,河北工业大学,细颗粒物(PM2.5),104,119,101,78,54,162,,105,105,21,24,12,9,0.7,0.6
2025-04-16T1600,2535A,103.7723,29.5462,乐山市,花湖湾,臭氧1小时,82,98,125,44,54,185,,122,122,6,21,8,9,0.5,0.7
2025-04-16T1600,2536A,103.7627,29.5844,乐山市,牛耳桥,颗粒物(PM10),81,111,131,43,51,180,,120,120,9,32,9,9,0.6,0.7
2025-04-16T1600,2537A,103.7508,29.6006,乐山市,市第三水厂,颗粒物(PM10),81,112,126,40,47,175,,120,120,7,34,6,6,0.4,0.6
2025-04-16T1600,2538A,103.7571,29.5664,乐山市,市监测站,,,118,131,52,52,170,,123,123,,26,8,10,0.6,0.9
2025-04-16T1600,3361A,103.7311,29.5628,乐山市,理工大学,"颗粒物(PM10),臭氧1小时",85,120,121,48,47,188,,124,124,8,27,7,8,0.5,0.7
2025-04-16T1600,2598A,100.2143,26.8576,丽江市,西南郊,,39,37,21,11,9,123,,119,119,2,2,4,4,0.5,0.5
2025-04-16T1600,2599A,100.2497,26.8802,丽江市,丽江古城,,37,33,25,14,13,117,,108,108,10,11,8,9,0.4,0.4
2025-04-16T1600,2600A,100.2203,26.8906,丽江市,市中心,,,26,17,12,11,121,,100,,5,6,6,5,,0.4
2025-04-16T1600,1267A,119.914,28.4514,丽水市,监测站大楼,颗粒物(PM10),58,65,43,27,23,147,,122,122,11,22,4,4,0.2,0.2
2025-04-16T1600,1268A,119.93,28.4586,丽水市,莲都小学,颗粒物(PM10),60,69,47,18,17,147,,125,125,11,21,5,4,0.2,0.2
2025-04-16T1600,1269A,119.879,28.4231,丽水市,余庄前,颗粒物(PM10),51,51,40,19,19,128,,123,123,13,17,5,4,0.3,0.2
2025-04-16T1600,1173A,119.176,34.5885,连云港市,市环境监测站,臭氧1小时,65,75,53,22,16,172,,144,144,12,12,12,11,0.4,0.4
2025-04-16T1600,3000A,119.3581,34.6972,连云港市,德源药业,臭氧1小时,67,78,57,17,14,173,,145,145,11,12,10,9,0.4,0.4
2025-04-16T1600,3007A,119.178,34.844,连云港市,新城一中,臭氧1小时,72,71,58,22,26,177,,142,142,10,24,9,9,0.7,0.7
2025-04-16T1600,3008A,119.3608,34.7519,连云港市,胡沟管理处,臭氧1小时,65,56,40,19,13,172,,149,149,17,21,10,10,0.5,0.5
2025-04-16T1600,3009A,119.1478,34.5911,连云港市,矿山设计院,颗粒物(PM10),68,85,58,24,16,173,,141,141,13,17,9,9,0.4,0.4
2025-04-16T1600,3434A,119.2413,34.6539,连云港市,工贸学校,臭氧1小时,72,71,52,24,20,177,,145,145,14,17,10,9,0.7,0.6
2025-04-16T1600,3664A,119.4172,34.7341,连云港市,连云街道,臭氧1小时,74,82,59,22,18,179,,154,154,16,14,8,7,0.6,0.5
2025-04-16T1600,2571A,102.3431,27.8099,凉山彝族自治州,青龙寺,,40,15,30,8,13,126,,99,99,2,11,7,8,0.4,0.5
2025-04-16T1600,2572A,102.2721,27.8415,凉山彝族自治州,邛海宾馆,,39,33,40,14,22,122,,94,94,5,17,7,7,0.4,0.6
2025-04-16T1600,2573A,102.2625,27.898,凉山彝族自治州,西昌市政府,,37,30,35,16,22,116,,92,92,5,12,9,11,0.3,0.6
2025-04-16T1600,2574A,102.2685,27.8851,凉山彝族自治州,凉山州政府,,,27,37,,27,116,,100,100,5,15,7,8,0.4,0.5
2025-04-16T1600,4229A,102.2342,27.8859,凉山彝族自治州,凯乐南路30号,,36,33,40,25,20,110,,87,87,7,19,12,14,0.8,1
2025-04-16T1600,2212A,123.2,41.1953,辽阳市,宏伟区,,48,38,40,16,22,152,,139,139,9,15,10,11,0.6,0.8
2025-04-16T1600,2213A,123.1683,41.2495,辽阳市,新华园,臭氧1小时,53,42,57,23,39,162,,144,144,7,25,10,13,0.6,1.1
2025-04-16T1600,2214A,123.2354,41.2639,辽阳市,滨河路,,43,33,44,15,32,137,,125,125,11,23,11,9,0.6,0.8
2025-04-16T1600,2215A,123.149,41.2991,辽阳市,铁西工业园,,49,49,76,24,49,146,,134,134,13,31,11,12,0.2,1
2025-04-16T1600,2227A,125.1358,42.8845,辽源市,环保局,,39,29,46,18,26,123,,112,112,13,29,5,6,0.4,0.6
2025-04-16T1600,3239A,125.0764,42.9078,辽源市,银鹰制药,,40,22,36,14,26,125,,118,118,14,25,5,10,0.3,0.7
2025-04-16T1600,1625A,115.9848,36.4372,聊城市,区政府,颗粒物(PM10),106,162,93,42,31,176,,122,122,12,18,16,13,0.9,0.7
2025-04-16T1600,2878A,116.0072,36.4343,聊城市,聊大东校,颗粒物(PM10),122,193,105,63,42,180,,125,125,17,21,17,12,0.7,0.5
2025-04-16T1600,3200A,115.9819,36.4978,聊城市,监控中心,颗粒物(PM10),120,189,99,63,41,185,,138,138,14,19,14,11,0.8,0.5
2025-04-16T1600,3513A,116.0445,36.4361,聊城市,九州社区,臭氧1小时,94,136,88,44,30,195,,135,135,9,21,11,12,0.6,0.4
2025-04-16T1600,4018A,116.0567,36.4608,聊城市,星美广场,颗粒物(PM10),104,158,89,35,24,191,,134,134,18,19,14,12,0.9,0.7
2025-04-16T1600,2632A,94.3681,29.6376,林芝市,林芝监测站,,40,6,13,3,10,125,,102,102,3,5,5,5,0.3,0.4
2025-04-16T1600,2633A,94.3616,29.6616,林芝市,林芝人民医院,,36,6,15,3,11,115,,94,94,3,3,5,5,0.2,0.3
2025-04-16T1600,2603A,100.0781,23.8982,临沧市,市环保局,,29,22,30,12,22,92,,71,71,7,13,9,7,0.4,0.6
2025-04-16T1600,2604A,100.0894,23.8822,临沧市,市气象局,,31,11,30,8,23,97,,74,74,5,12,6,7,0.4,0.6
2025-04-16T1600,1733A,111.5531,36.0783,临汾市,临钢医院,颗粒物(PM10),165,279,119,96,33,141,,104,104,10,30,10,12,0.5,0.8
2025-04-16T1600,1734A,111.5028,36.0714,临汾市,技工学校,颗粒物(PM10),139,228,102,84,43,146,,113,113,6,27,7,12,0.6,0.9
2025-04-16T1600,1736A,111.5018,36.0855,临汾市,市委,颗粒物(PM10),158,265,107,85,35,146,,105,105,7,31,9,14,0.6,1
2025-04-16T1600,3018A,111.505,36.1014,临汾市,唐尧大酒店,颗粒物(PM10),150,249,112,90,38,143,,102,102,8,26,11,16,0.7,1
2025-04-16T1600,4244A,111.4879,36.0530,临汾市,启星学校,颗粒物(PM10),171,291,114,72,35,143,,106,106,12,27,8,15,0.4,0.9
2025-04-16T1600,4271A,103.2464,35.6123,临夏回族自治州,滨河东路1号,颗粒物(PM10),190,329,143,100,51,105,,86,86,2,21,9,8,0.2,0.5
2025-04-16T1600,4310A,103.2093,35.5995,临夏回族自治州,新华街21号,颗粒物(PM10),171,291,157,93,59,92,,77,77,6,24,11,12,0.2,0.5
2025-04-16T1600,1618A,118.3429,35.0532,临沂市,沂河小区,颗粒物(PM10),80,110,74,22,34,157,,136,136,9,20,12,12,0.6,0.6
2025-04-16T1600,1619A,118.295,35.0583,临沂市,鲁南制药厂,颗粒物(PM10),76,102,70,30,50,172,,147,147,10,22,13,14,0.5,0.5
2025-04-16T1600,1620A,118.2794,34.9976,临沂市,新光毛纺厂,颗粒物(PM10),78,105,71,34,26,162,,142,142,13,26,9,11,0.3,0.3
2025-04-16T1600,1621A,118.3956,35.0888,临沂市,河东保险公司,颗粒物(PM10),67,83,62,16,20,170,,146,146,9,18,5,7,0.3,0.3
2025-04-16T1600,3370A,118.3564,35.0215,临沂市,十里堡居委,颗粒物(PM10),82,114,73,22,31,169,,144,144,20,30,7,11,0.4,0.7
2025-04-16T1600,3496A,118.3604,35.1084,临沂市,南坊新区,颗粒物(PM10),80,110,77,29,28,168,,145,145,11,21,10,10,0.6,0.6
2025-04-16T1600,3860A,118.3920,35.0300,临沂市,皇山花园小区,颗粒物(PM10),84,117,77,26,29,175,,144,144,11,25,10,15,0.6,0.6
2025-04-16T1600,1870A,109.4856,24.3895,柳州市,柳东小学,颗粒物(PM10),96,141,150,51,77,171,,153,153,11,19,11,15,0.4,0.5
2025-04-16T1600,1871A,109.4157,24.3277,柳州市,环保监测站,颗粒物(PM10),97,144,183,68,63,150,,141,141,10,15,11,13,0.5,0.7
2025-04-16T1600,1872A,109.389,24.341,柳州市,河西水厂,颗粒物(PM10),104,158,171,39,52,157,,146,146,13,20,6,9,0.4,0.6
2025-04-16T1600,1873A,109.4311,24.2921,柳州市,市四中,颗粒物(PM10),100,149,165,44,50,141,,132,132,10,21,9,11,0.4,0.6
2025-04-16T1600,1874A,109.4006,24.3631,柳州市,市九中,颗粒物(PM10),107,163,180,45,55,155,,146,146,9,22,10,12,0.6,0.8
2025-04-16T1600,1875A,109.4958,24.3134,柳州市,古亭山,颗粒物(PM10),106,162,160,44,52,161,,147,147,7,23,8,11,0.6,0.7
2025-04-16T1600,3402A,109.5422,24.3996,柳州市,市二中,颗粒物(PM10),99,148,152,45,59,167,,142,142,11,28,12,18,0.3,0.4
2025-04-16T1600,2307A,116.5079,31.737,六安市,监测大楼,颗粒物(PM10),59,67,45,28,16,131,,123,123,9,15,6,6,0.3,0.3
2025-04-16T1600,2308A,116.4738,31.7643,六安市,皖西学院,颗粒物(PM10),66,81,56,27,16,136,,128,128,2,6,5,6,0.4,0.4
2025-04-16T1600,2309A,116.4996,31.7905,六安市,朝阳厂,颗粒物(PM10),60,70,49,24,17,128,,116,116,11,17,5,5,0.3,0.4
2025-04-16T1600,2310A,116.5567,31.7886,六安市,开发区,颗粒物(PM10),66,82,74,30,28,130,,115,115,9,22,4,7,0.3,0.4
2025-04-16T1600,2576A,104.8,26.5892,六盘水市,窑上,,41,41,54,27,31,98,,99,99,9,10,6,6,0.4,0.4
2025-04-16T1600,2577A,104.83,26.5917,六盘水市,黄土坡,,48,48,68,29,34,115,,107,107,13,21,10,10,0.2,0.3
2025-04-16T1600,2578A,104.89,26.5939,六盘水市,水钢,,45,45,78,20,30,123,,115,115,10,16,10,12,0.4,0.5
2025-04-16T1600,2579A,104.8475,26.5894,六盘水市,民中,,38,38,67,19,29,118,,107,107,11,24,9,11,0.5,0.7
2025-04-16T1600,2580A,104.9544,26.5506,六盘水市,双水,,44,44,69,20,26,116,,113,113,15,13,11,11,0.1,0.2
2025-04-16T1600,2335A,117.0189,25.1181,龙岩市,龙岩师专,,,,,,,,,,,,,,,,
2025-04-16T1600,2336A,117.0217,25.1033,龙岩市,龙岩市监测站,颗粒物(PM10),74,98,83,31,29,151,,138,138,8,21,4,11,0.3,0.4
2025-04-16T1600,2337A,117.0258,25.0661,龙岩市,闽西职业技术学院,颗粒物(PM10),69,88,97,27,33,142,,128,128,7,21,4,18,0.3,0.4
2025-04-16T1600,2338A,117.0196,25.0306,龙岩市,龙岩学院,颗粒物(PM10),65,80,77,22,31,149,,140,140,4,11,5,5,0.4,0.4
2025-04-16T1600,2665A,105.0822,33.3261,陇南市,汉王镇固水子,,,,,,,,,,,,,,,,
2025-04-16T1600,2885A,104.9339,33.3826,陇南市,滨江中学,颗粒物(PM10),60,69,85,16,28,106,,80,80,5,16,8,8,0.4,0.5
2025-04-16T1600,3247A,104.955,33.371,陇南市,市总工会,颗粒物(PM10),65,80,75,30,30,109,,82,82,4,10,9,9,0.4,0.4
2025-04-16T1600,2487A,111.9589,27.8901,娄底市,电视发射台,,,129,101,,32,64,,68,56,21,10,6,10,1.2,0.9
2025-04-16T1600,2488A,111.9975,27.725,娄底市,市监测站,细颗粒物(PM2.5),107,137,123,80,60,115,,79,79,32,43,22,17,0.6,0.6
2025-04-16T1600,2489A,112.0194,27.7314,娄底市,市委党校,颗粒物(PM10),92,134,127,56,64,109,,86,86,19,24,6,7,0.4,0.5
2025-04-16T1600,2490A,111.9561,27.7569,娄底市,涟钢,颗粒物(PM10),97,143,143,64,65,93,,60,60,27,35,28,32,0.8,0.8
2025-04-16T1600,2491A,111.9892,27.7044,娄底市,市政府,颗粒物(PM10),92,134,114,56,52,113,,79,79,23,24,13,8,0.7,0.7
2025-04-16T1600,1893A,105.4324,28.9634,泸州市,九狮山,,,,,,,,,,,,,,,,
2025-04-16T1600,1894A,105.4427,28.9063,泸州市,小市上码头,颗粒物(PM10),80,109,123,40,45,135,,104,104,17,24,7,7,0.8,0.9
2025-04-16T1600,1895A,105.4241,28.8573,泸州市,兰田宪桥,臭氧1小时,77,63,68,47,51,181,,125,125,10,17,10,9,0.6,0.7
2025-04-16T1600,1896A,105.4379,28.8833,泸州市,市环监站,,,,,,,,,,,,,,,,
2025-04-16T1600,4272A,105.3689,28.7783,泸州市,纳溪中医医院,颗粒物(PM10),79,108,122,35,46,179,,116,116,12,21,11,8,0.6,0.7
2025-04-16T1600,2183A,111.1406,37.5211,吕梁市,环保局,颗粒物(PM10),150,250,121,64,33,128,,89,89,3,43,9,9,0.1,0.3
2025-04-16T1600,2185A,111.1297,37.5136,吕梁市,自来水公司,颗粒物(PM10),153,255,137,54,32,127,,88,88,5,38,7,8,0.3,0.4
2025-04-16T1600,2867A,111.1283,37.51,吕梁市,马茂庄小学,颗粒物(PM10),159,268,121,45,29,129,,98,98,5,45,5,6,0.2,0.4
2025-04-16T1600,1812A,112.3931,34.6516,洛阳市,市委党校,颗粒物(PM10),139,227,103,74,35,127,,101,101,7,19,3,7,0.4,0.6
2025-04-16T1600,1815A,112.494,34.6886,洛阳市,河南林校,颗粒物(PM10),147,244,112,90,38,129,,102,102,6,25,4,6,0.5,0.6
2025-04-16T1600,1816A,112.3844,34.623,洛阳市,开发区管委会,颗粒物(PM10),160,269,99,99,36,130,,104,104,3,16,6,8,0.3,0.4
2025-04-16T1600,1817A,112.4267,34.6258,洛阳市,市委新办公区,颗粒物(PM10),155,259,98,87,35,134,,111,111,7,22,4,7,0.2,0.3
2025-04-16T1600,3340A,112.6005,34.6326,洛阳市,伊滨,颗粒物(PM10),152,254,84,84,33,130,,106,106,9,19,6,10,0.0,0.3
2025-04-16T1600,3341A,112.4951,34.6332,洛阳市,中移产业园,颗粒物(PM10),198,345,114,80,33,134,,107,107,7,17,6,9,0.4,0.5
2025-04-16T1600,3593A,112.5736,34.8993,洛阳市,吉利监测站,颗粒物(PM10),164,278,101,99,36,125,,110,110,6,23,5,8,0.4,0.5
2025-04-16T1600,3635A,112.3677,34.662,洛阳市,河科大西苑校区,颗粒物(PM10),163,275,109,123,34,128,,105,105,12,34,,13,0.4,0.6
2025-04-16T1600,3636A,112.4388,34.6781,洛阳市,英才小学,颗粒物(PM10),146,242,110,77,40,130,,107,107,10,36,4,11,0.4,0.6
2025-04-16T1600,4214A,112.4600,34.6949,洛阳市,春都路1号院,颗粒物(PM10),149,248,127,82,47,136,,109,109,9,35,6,13,0.4,0.7
2025-04-16T1600,2399A,114.051,33.5699,漯河市,三五一五工厂,颗粒物(PM10),134,217,109,59,35,147,,138,138,7,14,6,9,0.5,0.5
2025-04-16T1600,2400A,114.0055,33.5698,漯河市,漯河大学,颗粒物(PM10),121,192,99,70,44,149,,137,137,5,15,6,7,0.3,0.3
2025-04-16T1600,2401A,114.0138,33.5828,漯河市,市水利局,颗粒物(PM10),134,217,106,68,35,148,,136,136,,13,5,5,0.3,0.1
2025-04-16T1600,2402A,114.0261,33.5698,漯河市,市广电局,颗粒物(PM10),141,232,104,63,34,146,,138,138,8,14,5,7,0.3,0.5
2025-04-16T1600,3478A,113.9749,33.5664,漯河市,市图书馆,颗粒物(PM10),106,162,101,75,38,145,,129,129,11,16,4,5,0.4,0.4
2025-04-16T1600,4250A,114.0892,33.5882,漯河市,韶山路11号,颗粒物(PM10),145,239,101,69,37,152,,142,142,8,17,4,7,0.4,0.4
2025-04-16T1600,1798A,118.5092,31.6837,马鞍山市,湖东路四小,颗粒物(PM10),63,76,64,10,22,146,,126,126,10,23,8,10,0.5,0.7
2025-04-16T1600,1799A,118.5024,31.6449,马鞍山市,开发区,颗粒物(PM10),64,77,67,19,25,141,,123,123,19,39,8,10,0.6,0.9
2025-04-16T1600,1802A,118.6245,31.7241,马鞍山市,濮塘,颗粒物(PM10),64,78,57,23,24,154,,136,136,8,16,9,10,0.4,0.6
2025-04-16T1600,3633A,118.4918,31.6809,马鞍山市,雨山,颗粒物(PM10),57,64,58,18,25,144,,127,127,10,25,10,10,0.5,0.8
2025-04-16T1600,4191A,118.5274,31.72227,马鞍山市,慈湖高新区,颗粒物(PM10),54,57,57,22,30,141,,124,124,13,29,8,9,0.6,0.9
2025-04-16T1600,1686A,111.0286,21.4688,茂名市,电白南海,颗粒物(PM10),115,180,216,56,66,167,,184,184,16,26,2,6,,0.9
2025-04-16T1600,1687A,110.9294,21.6533,茂名市,茂石化七小,颗粒物(PM10),111,171,181,41,52,161,,165,165,12,18,5,11,0.6,0.8
2025-04-16T1600,1688A,110.9107,21.6687,茂名市,健康路,颗粒物(PM10),109,168,181,44,52,187,,193,193,12,16,4,11,0.7,0.8
2025-04-16T1600,1689A,110.8592,21.6828,茂名市,高岭,颗粒物(PM10),119,188,212,46,60,170,,182,182,12,26,5,14,0.6,0.7
2025-04-16T1600,3450A,111.01,21.5165,茂名市,电白水东,颗粒物(PM10),114,178,203,48,57,161,,178,178,15,20,2,9,0.6,0.6
2025-04-16T1600,2539A,104.0308,30.0478,眉山市,黑龙滩水库,臭氧1小时,108,94,97,24,26,215,,148,148,6,16,5,2,,0.4
2025-04-16T1600,2540A,103.8416,30.0874,眉山市,气象局,臭氧1小时,118,146,160,58,54,235,,152,152,18,55,6,5,0.6,0.7
2025-04-16T1600,3137A,103.8578,30.0744,眉山市,市委党校,臭氧1小时,112,141,145,44,48,223,,131,131,16,50,11,10,0.7,0.9
2025-04-16T1600,3148A,103.8291,30.0564,眉山市,区人社局,臭氧1小时,109,90,106,39,48,218,,138,138,24,59,12,12,0.6,0.8
2025-04-16T1600,1690A,116.1231,24.3284,梅州市,梅江月梅,颗粒物(PM10),75,100,102,43,41,162,,142,142,5,22,5,6,0.4,0.5
2025-04-16T1600,1691A,116.0797,24.2719,梅州市,梅县新城,颗粒物(PM10),73,95,100,38,37,159,,137,137,9,27,6,7,0.4,0.6
2025-04-16T1600,1692A,116.1248,24.2654,梅州市,环境监控中心,颗粒物(PM10),75,99,96,32,34,152,,139,139,10,36,8,10,0.3,0.5
2025-04-16T1600,3315A,116.1233,24.2991,梅州市,梅龙,颗粒物(PM10),75,100,109,50,46,153,,132,132,6,22,8,8,0.3,0.6
2025-04-16T1600,1878A,104.7778,31.4741,绵阳市,富乐山,颗粒物(PM10),87,123,113,46,45,174,,117,117,11,23,11,8,0.4,0.5
2025-04-16T1600,1880A,104.6697,31.4668,绵阳市,高新区自来水公司,颗粒物(PM10),81,111,122,39,50,174,,114,114,11,44,5,4,0.5,0.6
2025-04-16T1600,1881A,104.7287,31.5075,绵阳市,三水厂,颗粒物(PM10),95,139,145,47,51,179,,110,110,11,45,9,7,0.4,0.6
2025-04-16T1600,3491A,104.69,31.5322,绵阳市,西科大附属小学,颗粒物(PM10),94,137,140,54,55,179,,120,120,12,39,9,8,0.5,0.7
2025-04-16T1600,3492A,104.5648,31.5343,绵阳市,安州区旅游局,颗粒物(PM10),84,118,125,36,41,172,,118,118,10,20,11,9,0.3,0.4
2025-04-16T1600,4226A,104.7651,31.4531,绵阳市,绵阳市气象局,颗粒物(PM10),90,130,130,43,48,167,,108,108,10,37,6,6,0.4,0.5
2025-04-16T1600,1784A,129.61,44.561,牡丹江市,环保大楼,,32,19,22,3,12,101,,93,93,8,11,5,5,0.2,0.2
2025-04-16T1600,1785A,129.6115,44.5782,牡丹江市,文化广场,,,24,24,8,15,,,95,95,10,14,11,10,0.4,0.5
2025-04-16T1600,1786A,129.5904,44.5963,牡丹江市,第一医院,,35,11,19,10,16,109,,100,100,2,7,4,5,0.1,0.2
2025-04-16T1600,1787A,129.6364,44.6075,牡丹江市,机车工厂,,34,15,32,10,19,107,,98,98,8,21,6,24,0.3,0.5
2025-04-16T1600,1788A,129.6386,44.5462,牡丹江市,第一中学,,34,14,20,7,12,108,,98,98,1,8,6,7,0.3,0.4
2025-04-16T1600,2531A,105.0703,29.61,内江市,市监测站,臭氧1小时,80,92,113,46,57,184,,157,157,11,22,13,14,0.6,0.7
2025-04-16T1600,2532A,105.0717,29.5947,内江市,东兴区政府,"颗粒物(PM10),臭氧1小时",68,85,117,31,48,174,,146,146,10,23,10,9,0.5,0.6
2025-04-16T1600,2533A,105.0653,29.5817,内江市,内江二中,颗粒物(PM10),83,115,130,45,57,167,,139,139,15,30,9,9,0.4,0.5
2025-04-16T1600,2534A,105.0406,29.5822,内江市,内江日报社,颗粒物(PM10),83,115,131,46,66,182,,147,147,7,21,9,10,0.4,0.4
2025-04-16T1600,2628A,92.0657,31.4846,那曲市,那曲监测站,,40,28,53,20,32,125,,87,87,7,24,7,8,0.3,0.8
2025-04-16T1600,4243A,92.0515,31.4787,那曲市,那曲市委宣传部,,43,6,49,3,25,137,,95,95,6,23,4,6,0.1,0.7
2025-04-16T1600,1290A,115.8931,28.6843,南昌市,省外办,颗粒物(PM10),54,58,67,24,36,100,,78,78,24,53,9,11,0.4,0.6
2025-04-16T1600,1291A,115.8886,28.7003,南昌市,省林业公司,颗粒物(PM10),58,66,77,29,34,99,,73,73,13,46,12,12,0.4,0.5
2025-04-16T1600,1292A,115.8126,28.7442,南昌市,林科所,细颗粒物(PM2.5),64,75,59,46,25,94,,89,89,37,60,9,7,0.4,0.4
2025-04-16T1600,1294A,115.8518,28.687,南昌市,建工学校,细颗粒物(PM2.5),67,72,77,48,40,95,,80,80,29,54,8,8,0.6,0.7
2025-04-16T1600,1295A,115.8921,28.6424,南昌市,象湖,颗粒物(PM10),63,75,75,29,32,108,,87,87,20,54,10,11,0.5,0.7
2025-04-16T1600,1296A,115.7423,28.7996,南昌市,武术学校,颗粒物(PM10),56,61,31,13,9,112,,99,99,3,6,9,9,0.6,0.5
2025-04-16T1600,3046A,115.9084,28.6062,南昌市,机电学校,颗粒物(PM10),63,75,86,29,41,94,,81,81,26,47,6,10,0.4,0.6
2025-04-16T1600,3690A,115.9721,28.7031,南昌市,外国语学校,颗粒物(PM10),65,80,73,21,24,114,,95,95,19,32,13,15,0.1,0.2
2025-04-16T1600,4192A,115.9316,28.68677,南昌市,南京东路235号,颗粒物(PM10),69,88,94,26,35,110,,92,92,24,43,10,10,0.5,0.7
2025-04-16T1600,1905A,106.056,30.8064,南充市,西山风景区,颗粒物(PM10),68,86,114,35,50,129,,91,91,12,13,4,5,0.4,0.5
2025-04-16T1600,1906A,106.0789,30.8023,南充市,南充市委,颗粒物(PM10),82,114,153,46,64,130,,84,84,16,28,4,5,0.4,0.6
2025-04-16T1600,1907A,106.1031,30.8217,南充市,南充炼油厂,颗粒物(PM10),87,124,147,49,64,120,,88,88,17,29,4,5,0.4,0.5
2025-04-16T1600,4227A,106.1083,30.7884,南充市,梨树横街98号,颗粒物(PM10),81,111,158,22,51,124,,77,77,13,33,6,7,0.2,0.4
2025-04-16T1600,4304A,106.1172,30.843,南充市,清泉寺北路188号,颗粒物(PM10),81,112,145,47,55,129,,87,87,13,20,5,6,0.3,0.4
2025-04-16T1600,4305A,106.067,30.7616,南充市,同庆路1号,细颗粒物(PM2.5),94,99,144,70,66,105,,70,70,10,40,5,5,0.4,0.5
2025-04-16T1600,1151A,118.8086,32.1065,南京市,迈皋桥,颗粒物(PM10),57,64,44,29,26,152,,123,123,25,37,10,6,0.8,0.5
2025-04-16T1600,1152A,118.7538,32.0551,南京市,草场门,颗粒物(PM10),64,78,59,22,22,144,,119,119,21,34,12,9,1.2,0.9
2025-04-16T1600,1153A,118.7794,32.0745,南京市,山西路,颗粒物(PM10),74,97,68,14,25,155,,129,129,20,27,12,8,0.7,0.5
2025-04-16T1600,1154A,118.7752,32.0023,南京市,中华门,颗粒物(PM10),64,78,53,19,21,130,,112,112,11,30,15,13,0.8,0.5
2025-04-16T1600,1155A,118.8109,32.0309,南京市,瑞金路,颗粒物(PM10),68,85,59,19,26,148,,130,130,1,38,6,6,0.3,0.5
2025-04-16T1600,1156A,118.7997,32.0754,南京市,玄武湖,颗粒物(PM10),63,75,57,13,17,118,,98,98,13,20,13,9,0.8,0.7
2025-04-16T1600,1157A,118.6414,32.0931,南京市,浦口,颗粒物(PM10),63,76,65,16,19,158,,124,124,21,33,8,10,0.4,0.7
2025-04-16T1600,1158A,118.7356,31.9996,南京市,奥体中心,颗粒物(PM10),69,87,63,17,25,144,,122,122,20,33,16,12,0.7,0.7
2025-04-16T1600,1159A,118.9125,32.1028,南京市,仙林大学城,颗粒物(PM10),70,90,62,17,20,155,,129,129,12,28,12,12,0.7,0.8
2025-04-16T1600,3422A,118.8436,31.9198,南京市,江宁彩虹桥,颗粒物(PM10),62,74,59,17,24,150,,122,122,5,33,5,4,0.6,0.6
2025-04-16T1600,3427A,118.8554,32.3578,南京市,六合雄州,颗粒物(PM10),57,64,53,13,27,153,,124,124,12,28,13,13,1.0,0.9
2025-04-16T1600,4249A,118.8708,31.3402,南京市,汶溪路181号,,46,46,49,14,26,122,,112,112,11,24,5,6,0.2,0.4
2025-04-16T1600,4312A,119.019,31.6512,南京市,中山西路1号,,46,41,36,18,31,145,,134,134,10,25,5,6,0.5,0.6
2025-04-16T1600,1401A,108.3103,22.7881,南宁市,二十一中,臭氧1小时,102,149,150,67,54,203,,183,183,14,22,9,9,0.9,0.8
2025-04-16T1600,1402A,108.3141,22.8528,南宁市,北湖,颗粒物(PM10),100,150,151,50,51,197,,170,170,15,25,10,11,1.0,1
2025-04-16T1600,1403A,108.3206,22.8225,南宁市,市监测站,颗粒物(PM10),98,146,155,54,55,189,,170,170,17,22,9,10,0.5,0.5
2025-04-16T1600,1404A,108.3829,22.8037,南宁市,大自然花园,颗粒物(PM10),102,153,160,65,59,187,,183,183,8,15,8,9,0.6,0.6
2025-04-16T1600,1405A,108.4394,22.7904,南宁市,仙葫,颗粒物(PM10),97,143,161,61,61,154,,152,152,6,20,8,10,0.6,0.7
2025-04-16T1600,1406A,108.2397,22.8467,南宁市,区农职院,颗粒物(PM10),100,149,152,45,52,186,,156,156,13,22,8,8,0.8,0.8
2025-04-16T1600,1407A,108.3275,22.735,南宁市,英华嘉园,颗粒物(PM10),100,150,174,59,65,193,,177,177,18,31,11,11,0.7,0.8
2025-04-16T1600,3401A,108.4834,22.7618,南宁市,红星社区,颗粒物(PM10),101,151,166,46,52,194,,181,181,10,18,12,13,0.8,0.9
2025-04-16T1600,4221A,108.2177,22.7774,南宁市,乐贤路16号,颗粒物(PM10),100,150,171,50,54,169,,148,148,13,38,12,12,0.9,0.8
2025-04-16T1600,2331A,118.0966,26.6761,南平市,茫荡山,,,,,,,,,,,,,,,,
2025-04-16T1600,2332A,118.1681,26.6369,南平市,南平市监测站,颗粒物(PM10),60,69,63,25,30,163,,132,132,9,20,7,7,0.7,0.8
2025-04-16T1600,2333A,118.1825,26.6489,南平市,南平铝业有限公司,颗粒物(PM10),63,75,65,23,26,160,,129,129,9,21,6,7,0.7,0.7
2025-04-16T1600,2334A,118.1756,26.6272,南平市,南平七中,颗粒物(PM10),68,85,59,23,27,166,,132,132,11,17,8,6,0.8,0.7
2025-04-16T1600,1168A,120.9098,31.9663,南通市,狼山街道,,45,38,62,12,27,142,,142,142,40,62,5,6,0.5,0.7
2025-04-16T1600,1169A,120.86,32.0005,南通市,虹桥,,46,46,59,17,29,140,,150,150,48,70,3,9,0.3,0.5
2025-04-16T1600,1170A,120.87,32.02,南通市,城中,颗粒物(PM10),55,59,66,12,25,163,,152,152,31,55,4,6,0.4,0.6
2025-04-16T1600,1171A,120.94,31.93,南通市,星湖花园,臭氧1小时,53,46,58,18,28,162,,158,158,36,53,5,10,0.4,0.6
2025-04-16T1600,1172A,120.81,32.0417,南通市,紫琅学院,,45,37,59,13,24,143,,122,122,39,82,5,7,0.7,0.9
2025-04-16T1600,3291A,121.067,32.062,南通市,通州监测站,臭氧1小时,79,44,63,12,27,183,,158,158,17,42,6,8,0.3,0.5
2025-04-16T1600,3432A,120.9348,31.9883,南通市,环境教育馆,臭氧1小时,73,70,66,16,27,178,,167,167,25,50,8,10,0.4,0.6
2025-04-16T1600,2404A,112.5224,33.0122,南阳市,瓦房庄,颗粒物(PM10),61,72,99,18,31,138,,121,121,11,14,6,8,0.4,0.5
2025-04-16T1600,2405A,112.5003,32.9735,南阳市,汉画馆,颗粒物(PM10),57,63,90,20,32,132,,,,13,21,5,7,0.4,0.5
2025-04-16T1600,2406A,112.5573,33.027,南阳市,气象站,颗粒物(PM10),66,81,111,31,41,141,,120,120,8,13,5,8,0.4,0.5
2025-04-16T1600,2407A,112.5481,32.9689,南阳市,理工学院,颗粒物(PM10),61,71,98,21,32,138,,116,116,8,14,4,7,0.4,0.5
2025-04-16T1600,4008A,112.5234,32.9922,南阳市,卧龙区政府,颗粒物(PM10),60,69,102,32,35,138,,118,118,10,14,5,7,0.4,0.5
2025-04-16T1600,1234A,121.8358,29.911,宁波市,区环保大楼,颗粒物(PM10),71,91,70,23,27,155,,153,153,10,45,8,9,0.6,0.6
2025-04-16T1600,1235A,121.56,29.82,宁波市,万里学院,颗粒物(PM10),60,70,62,25,25,153,,156,156,8,17,6,7,0.5,0.5
2025-04-16T1600,1236A,121.713,29.9572,宁波市,龙赛医院,颗粒物(PM10),65,79,82,25,24,159,,154,154,8,29,9,10,0.6,0.6
2025-04-16T1600,1239A,121.633,29.7733,宁波市,钱湖水厂,颗粒物(PM10),58,66,53,23,20,156,,152,152,8,12,8,8,0.5,0.6
2025-04-16T1600,1240A,121.5856,29.8635,宁波市,太古小学,颗粒物(PM10),61,71,65,21,23,149,,152,152,10,19,8,10,0.5,0.5
2025-04-16T1600,1241A,121.524,29.8674,宁波市,市环境监测中心,颗粒物(PM10),63,76,62,24,23,149,,148,148,15,27,10,10,0.7,0.6
2025-04-16T1600,2871A,121.6147,29.9017,宁波市,万里国际学校,颗粒物(PM10),54,57,55,27,26,151,,153,153,10,15,8,9,0.4,0.5
2025-04-16T1600,3710A,121.5594,29.8975,宁波市,白沙活动中心,颗粒物(PM10),55,59,57,18,21,152,,155,155,10,22,8,9,0.5,0.6
2025-04-16T1600,2339A,119.5001,26.6946,宁德市,金涵水库,,,,,,,,,,,,,,,,
2025-04-16T1600,2341A,119.5388,26.6612,宁德市,宁德市监测站,颗粒物(PM10),66,81,61,34,27,167,,132,132,20,16,10,6,0.8,0.6
2025-04-16T1600,3209A,119.5231,26.6562,宁德市,宁德一中,臭氧1小时,67,58,56,35,27,173,,136,136,16,12,12,7,0.9,0.5
2025-04-16T1600,2618A,98.8601,25.8567,怒江傈僳族自治州,州监测站,,,,,,,,,,,,,,,,
2025-04-16T1600,2619A,98.8546,25.8417,怒江傈僳族自治州,泸水一中,,28,25,26,8,18,88,,78,65,12,11,6,6,0.3,0.4
2025-04-16T1600,1888A,101.6891,26.571,攀枝花市,弄弄坪,,40,,32,26,23,125,,106,106,20,18,23,8,1.4,0.8
2025-04-16T1600,1889A,101.5769,26.5928,攀枝花市,河门口,,46,34,46,7,24,145,,98,98,9,21,9,14,0.3,0.6
2025-04-16T1600,1890A,101.7169,26.585,攀枝花市,炳草岗,,40,15,42,7,24,127,,98,98,19,33,11,11,0.4,0.5
2025-04-16T1600,1891A,101.7369,26.5008,攀枝花市,仁和,,43,14,34,10,20,136,,108,108,8,14,7,9,0.3,0.4
2025-04-16T1600,2835A,101.7227,26.567,攀枝花市,四十中小,,45,28,36,18,22,142,,107,107,8,21,8,8,0.4,0.6
2025-04-16T1600,1604A,122.0303,41.1489,盘锦市,开发区,臭氧1小时,65,53,55,31,47,172,,124,124,12,43,14,14,0.7,0.9
2025-04-16T1600,1605A,122.0485,41.0883,盘锦市,兴隆台,颗粒物(PM10),52,53,60,33,42,154,,120,120,14,53,14,13,0.7,1
2025-04-16T1600,1606A,121.8297,41.1028,盘锦市,新生街道,臭氧1小时,64,33,34,29,37,171,,133,133,15,37,22,18,0.5,0.7
2025-04-16T1600,1832A,113.3257,33.742,平顶山市,新华旅馆,颗粒物(PM10),155,260,131,37,31,140,,129,129,9,13,5,6,0.3,0.4
2025-04-16T1600,1833A,113.2919,33.737,平顶山市,规划设计院,颗粒物(PM10),138,225,115,81,42,149,,137,137,6,13,4,6,0.6,0.7
2025-04-16T1600,1834A,113.182,33.774,平顶山市,平顶山工学院,细颗粒物(PM2.5),140,203,108,107,46,153,,141,141,6,11,6,6,0.4,0.4
2025-04-16T1600,3204A,113.3025,33.73,平顶山市,规划局,颗粒物(PM10),153,256,120,35,17,145,,134,134,7,13,5,6,0.3,0.4
2025-04-16T1600,3594A,112.8867,33.9116,平顶山市,石龙区,颗粒物(PM10),168,286,146,94,43,127,,109,109,5,28,5,7,0.2,0.3
2025-04-16T1600,2656A,106.6692,35.5461,平凉市,聚贤嘉苑,颗粒物(PM10),117,183,224,48,56,123,,103,103,4,22,7,9,0.2,0.5
2025-04-16T1600,2657A,106.7021,35.5307,平凉市,博物馆,颗粒物(PM10),121,191,227,47,54,132,,105,105,4,18,11,11,0.5,0.6
2025-04-16T1600,2347A,114.0997,27.5002,萍乡市,武功山,颗粒物(PM10),70,90,45,25,17,131,,105,105,7,6,15,13,0.4,0.4
2025-04-16T1600,2348A,113.8385,27.6434,萍乡市,中医院,颗粒物(PM10),72,94,70,31,29,138,,87,87,22,32,20,18,1.5,0.9
2025-04-16T1600,2349A,113.8493,27.6253,萍乡市,市政府车库,,,82,62,40,33,133,,97,97,26,30,19,11,,1.2
2025-04-16T1600,2350A,113.8676,27.6435,萍乡市,市环保局,颗粒物(PM10),72,94,68,44,31,119,,80,80,25,36,21,17,1.4,0.9
2025-04-16T1600,2351A,113.866,27.6198,萍乡市,安源区政府,颗粒物(PM10),74,98,68,30,27,118,,76,76,26,30,32,20,2.4,1.3
2025-04-16T1600,2319A,119.0141,25.4325,莆田市,荔城区仓后路,臭氧1小时,90,101,81,38,29,192,,168,168,24,19,6,4,0.7,0.6
2025-04-16T1600,2320A,119.0015,25.4553,莆田市,莆田市监测站,臭氧1小时,106,107,64,40,26,212,,180,180,16,12,8,5,0.5,0.4
2025-04-16T1600,2321A,119.1119,25.4561,莆田市,涵江区六中,臭氧1小时,82,88,77,35,28,185,,156,156,14,18,5,5,0.6,0.7
2025-04-16T1600,2322A,119.1013,25.3215,莆田市,秀屿区政府,臭氧1小时,73,78,77,28,32,178,,153,153,11,20,5,5,0.6,0.7
2025-04-16T1600,2323A,118.981,25.4792,莆田市,东圳水库,,,,,,,,,,,,,,,,
2025-04-16T1600,2392A,115.0312,35.7636,濮阳市,环保局,颗粒物(PM10),154,257,82,65,28,133,,106,106,9,17,8,9,0.6,1
2025-04-16T1600,2394A,115.0574,35.7609,濮阳市,油田运输公司,颗粒物(PM10),152,253,94,73,32,142,,112,112,12,18,7,9,0.7,0.7
2025-04-16T1600,3021A,115,35.7668,濮阳市,濮水河管理处,颗粒物(PM10),166,282,104,70,33,137,,104,104,8,19,7,8,0.8,0.8
2025-04-16T1600,4216A,115.0924,35.7686,濮阳市,任丘路479号,颗粒物(PM10),169,288,107,68,34,146,,118,118,8,17,8,9,0.9,0.9
2025-04-16T1600,2601A,100.98,22.7633,普洱市,市环保局,,25,24,31,12,10,80,,70,70,7,10,3,2,0.4,0.6
2025-04-16T1600,2602A,100.9817,22.8322,普洱市,普洱第二中学,,,8,19,7,15,,,48,,6,13,7,6,0.3,0.4
2025-04-16T1600,2262A,131.0518,45.8751,七台河市,新一中,,39,17,13,10,7,123,,115,115,7,7,12,11,0.6,0.5
2025-04-16T1600,3345A,131.0577,45.7879,七台河市,中波台,,37,26,14,20,8,116,,100,100,12,13,6,8,0.6,0.5
2025-04-16T1600,3637A,131.0176,45.7761,七台河市,人民广场,细颗粒物(PM2.5),60,50,25,43,18,131,,114,114,11,15,8,10,0.5,0.7
2025-04-16T1600,3684A,130.8781,45.8222,七台河市,新建矿广场,颗粒物(PM10),75,100,43,42,15,123,,100,100,20,14,10,9,0.6,0.4
2025-04-16T1600,1779A,123.9305,47.3636,齐齐哈尔市,安居小区,,31,19,38,3,11,99,,92,92,11,27,5,5,0.2,0.4
2025-04-16T1600,1780A,123.9488,47.3386,齐齐哈尔市,中心广场,,30,18,65,3,19,95,,86,86,8,36,6,7,0.3,0.6
2025-04-16T1600,1781A,123.9483,47.3227,齐齐哈尔市,农牧车辆厂,,32,19,49,3,21,102,,93,93,6,31,4,5,0.2,0.7
2025-04-16T1600,1783A,123.945,47.2988,齐齐哈尔市,市环境监测站,,30,13,31,7,16,96,,87,87,6,24,1,2,0.3,0.4
2025-04-16T1600,3662A,123.6333,47.2075,齐齐哈尔市,富区青少年活动中心,,32,17,41,9,15,101,,93,93,8,19,2,3,0.4,0.5
2025-04-16T1600,2591A,107.9783,26.5747,黔东南苗族侗族自治州,市环境监测站,颗粒物(PM10),62,74,90,40,46,138,,141,136,8,9,7,6,0.4,0.4
2025-04-16T1600,2881A,107.8908,26.5311,黔东南苗族侗族自治州,凯里学院,,,,109,,41,150,,150,146,5,5,6,5,0.4,0.5
2025-04-16T1600,2593A,107.5228,26.2403,黔南布依族苗族自治州,小围寨,颗粒物(PM10),52,53,84,22,32,151,,151,151,4,5,6,8,0.5,0.5
2025-04-16T1600,3538A,107.5175,26.2978,黔南布依族苗族自治州,沙坝,颗粒物(PM10),57,63,88,24,33,146,,141,141,6,11,6,6,0.5,0.5
2025-04-16T1600,2589A,104.9022,25.0925,黔西南布依族苗族自治州,场坝街,,,10,44,8,18,107,,89,89,8,11,5,4,,0.3
2025-04-16T1600,2590A,104.8811,25.0992,黔西南布依族苗族自治州,坪东大道,,34,17,39,7,20,107,,86,86,7,20,3,3,0.2,0.3
2025-04-16T1600,2502A,108.6236,21.9667,钦州市,市环保站,颗粒物(PM10),129,207,243,58,75,182,,163,163,20,37,10,13,0.8,1
