timepoint,stationcode,longitude,latitude,area,positionname,primarypollutant,aqi,pm10,pm10_24h,pm2_5,pm2_5_24h,o3,o3_24h,o3_8h,o3_8h_24h,no2,no2_24h,so2,so2_24h,co,co_24h
2023-11-28T2200,2568A,102.2502,31.8896,阿坝藏族羌族自治州,马师校,,35,33,18,24,13,14,,48,30,31,23,4,5,0.7,0.6
2023-11-28T2200,3994A,102.2165,31.9024,阿坝藏族羌族自治州,马尔康中学西区,,40,40,17,27,11,13,,56,42,36,17,5,4,0.7,0.4
2023-11-28T2200,2695A,80.292,41.1694,阿克苏地区,电视台,细颗粒物(PM2.5),214,276,189,164,81,6,,77,64,106,55,15,10,3.4,1.8
2023-11-28T2200,2696A,80.2613,41.1551,阿克苏地区,艺术中心,细颗粒物(PM2.5),139,199,157,106,69,10,,76,63,114,55,8,8,2.3,1.4
2023-11-28T2200,2204A,105.6467,38.8363,阿拉善盟,西城区西花园,颗粒物(PM10),128,206,41,45,15,60,,84,74,8,10,8,8,0.6,0.6
2023-11-28T2200,2205A,105.6985,38.8411,阿拉善盟,蒙二幼,颗粒物(PM10),103,155,34,34,9,62,,86,74,10,14,5,5,0.5,0.6
2023-11-28T2200,2206A,105.724,38.8516,阿拉善盟,环保局新楼,颗粒物(PM10),72,94,35,30,8,65,,88,74,9,6,8,7,0.5,0.5
2023-11-28T2200,2708A,88.1264,47.8517,阿勒泰地区,市站,,15,13,8,2,5,48,,58,36,18,22,4,4,0.5,0.5
2023-11-28T2200,2630A,80.1161,32.5,阿里地区,阿里监测站,,,,10,,4,41,,90,84,40,13,19,11,,0.4
2023-11-28T2200,3192A,80.0903,32.5028,阿里地区,阿里藏医院,,24,9,13,4,3,74,,88,83,14,10,6,8,0.4,0.4
2023-11-28T2200,2642A,109.0318,32.6537,安康市,香溪洞,,49,39,39,34,33,33,,19,19,16,23,6,5,0.6,0.7
2023-11-28T2200,2643A,109.0281,32.6939,安康市,安康市监测站,细颗粒物(PM2.5),108,106,75,81,56,4,,12,9,34,25,11,12,1.5,1
2023-11-28T2200,2644A,109.0072,32.6975,安康市,汉滨区检察院,细颗粒物(PM2.5),89,88,69,66,51,7,,12,9,42,30,10,13,1.1,1
2023-11-28T2200,2291A,117.0809,30.5177,安庆市,环科院,颗粒物(PM10),81,111,100,58,58,41,,91,73,57,56,10,10,0.8,0.8
2023-11-28T2200,2292A,117.0331,30.5119,安庆市,马山宾馆,细颗粒物(PM2.5),80,106,101,59,63,44,,94,75,57,51,8,9,0.7,0.8
2023-11-28T2200,2294A,116.9896,30.6145,安庆市,安庆大学,细颗粒物(PM2.5),186,,108,140,80,14,,104,69,57,43,6,8,1.0,1
2023-11-28T2200,3173A,117.0598,30.5351,安庆市,市人大,颗粒物(PM10),87,123,111,54,62,22,,89,58,84,68,7,9,0.6,0.8
2023-11-28T2200,3123A,105.9408,26.2431,安顺市,凤凰山,,30,26,27,18,21,94,,95,94,7,12,9,10,0.4,0.7
2023-11-28T2200,3124A,105.9439,26.2564,安顺市,金钟山,,30,28,29,17,19,93,,94,94,7,9,12,11,0.5,0.5
2023-11-28T2200,3125A,105.8983,26.2481,安顺市,娄家坡,,29,28,30,18,23,92,,92,92,7,8,8,10,0.5,0.6
2023-11-28T2200,1819A,114.3551,36.1017,安阳市,红庙街,细颗粒物(PM2.5),117,125,99,88,53,11,,61,46,67,35,7,6,0.9,0.8
2023-11-28T2200,1820A,114.361,36.0681,安阳市,银杏小区,细颗粒物(PM2.5),108,132,106,81,60,10,,64,46,63,33,6,6,1.0,0.7
2023-11-28T2200,3141A,114.3922,36.0878,安阳市,信访局,细颗粒物(PM2.5),110,128,104,83,53,15,,62,44,65,34,6,7,0.9,0.7
2023-11-28T2200,3669A,114.4705,36.0637,安阳市,左辅环卫站,细颗粒物(PM2.5),137,162,113,104,64,20,,63,44,68,41,9,8,0.7,0.6
2023-11-28T2200,3703A,114.2917,36.0949,安阳市,安钢职工学校,细颗粒物(PM2.5),115,157,134,87,66,11,,62,46,68,40,7,6,0.9,1
2023-11-28T2200,1748A,123.044,41.1196,鞍山市,深沟寺,,40,40,34,24,15,23,,60,37,34,24,6,11,0.8,0.9
2023-11-28T2200,1749A,123.011,41.0931,鞍山市,太阳城,,23,23,28,10,15,44,,61,43,19,23,11,15,0.7,1
2023-11-28T2200,1750A,123.0485,41.1442,鞍山市,太平,颗粒物(PM10),55,59,35,32,21,12,,54,26,54,35,12,16,1.0,0.9
2023-11-28T2200,1751A,122.9642,41.0971,鞍山市,铁西三道街,"颗粒物(PM10),细颗粒物(PM2.5)",64,77,42,46,25,10,,55,28,58,38,11,14,1.1,1
2023-11-28T2200,1752A,122.9341,41.0833,鞍山市,铁西工业园区,,,,54,,41,22,,59,30,67,46,16,13,3.2,1.4
2023-11-28T2200,1753A,123.022,41.0821,鞍山市,明达新区,,31,31,31,16,16,38,,57,40,25,26,9,13,0.8,1
2023-11-28T2200,2195A,107.4212,40.761,巴彦淖尔市,附二中,,35,35,60,21,18,66,,66,66,6,17,3,7,0.4,0.5
2023-11-28T2200,2196A,107.37,40.7372,巴彦淖尔市,市环保大楼,,29,29,64,16,19,64,,61,61,7,13,3,4,0.4,0.5
2023-11-28T2200,1956A,86.1472,41.7538,巴音郭楞州,孔雀公园,颗粒物(PM10),108,165,155,68,54,16,,67,60,78,66,8,6,1.1,1
2023-11-28T2200,1957A,86.1972,41.7166,巴音郭楞州,棉纺厂,颗粒物(PM10),142,233,213,66,58,29,,68,61,67,61,3,4,0.9,0.9
2023-11-28T2200,1958A,86.2357,41.7173,巴音郭楞州,经济开发区,颗粒物(PM10),122,194,152,64,43,46,,72,65,54,52,5,5,0.8,0.7
2023-11-28T2200,2914A,106.7677,31.8794,巴中市,苏山坪,,38,38,40,22,25,66,,55,55,12,14,5,4,0.4,0.5
2023-11-28T2200,3182A,106.7656,31.8545,巴中市,丽阳花园,细颗粒物(PM2.5),88,92,53,65,39,4,,33,21,30,31,4,4,1.3,0.8
2023-11-28T2200,3183A,106.7418,31.8654,巴中市,圣泉水务公司,,41,41,37,26,25,26,,14,14,25,26,4,4,0.4,0.5
2023-11-28T2200,3616A,106.7616,31.8344,巴中市,市中心医院,细颗粒物(PM2.5),75,84,53,55,40,4,,5,5,27,24,5,5,1.1,0.8
2023-11-28T2200,2235A,122.7911,45.6077,白城市,洮北区环保局,,29,29,22,15,17,74,,69,67,10,12,7,6,0.5,0.5
2023-11-28T2200,2236A,122.8738,45.5725,白城市,市环保局,,30,30,31,14,16,64,,70,60,12,16,4,5,0.4,0.5
2023-11-28T2200,2231A,126.4219,41.9171,白山市,喜丰,颗粒物(PM10),51,51,35,24,17,23,,63,41,41,17,11,12,0.7,0.6
2023-11-28T2200,2232A,126.4077,41.9419,白山市,环保局,颗粒物(PM10),60,70,58,20,19,18,,57,37,44,18,15,13,1.0,0.9
2023-11-28T2200,2647A,104.1724,36.5446,白银市,第三小学,,26,26,57,10,19,83,,72,72,13,35,20,37,0.5,0.7
2023-11-28T2200,2648A,104.1465,36.5482,白银市,动力公司,,28,22,50,6,18,88,,78,78,10,25,5,16,0.1,0.4
2023-11-28T2200,2512A,106.6103,23.9011,百色市,市监测站,"颗粒物(PM10),细颗粒物(PM2.5)",67,83,64,48,37,35,,90,79,43,27,15,12,0.9,0.8
2023-11-28T2200,2513A,106.6538,23.8859,百色市,市中心血站,颗粒物(PM10),74,98,71,39,42,60,,98,80,24,33,10,13,0.9,1
2023-11-28T2200,3406A,106.6085,23.8798,百色市,祈福高中,细颗粒物(PM2.5),97,118,72,72,41,8,,96,70,67,31,8,10,1.0,0.8
2023-11-28T2200,2270A,117.396,32.939,蚌埠市,工人疗养院,细颗粒物(PM2.5),85,116,151,63,84,68,,93,88,25,33,7,7,0.7,0.7
2023-11-28T2200,2271A,117.3605,32.9427,蚌埠市,百货大楼,颗粒物(PM10),83,116,155,60,84,69,,91,86,28,36,6,7,0.7,0.8
2023-11-28T2200,2273A,117.4185,32.8911,蚌埠市,蚌埠学院,颗粒物(PM10),84,117,152,58,80,65,,88,82,31,38,6,8,0.8,0.8
2023-11-28T2200,2274A,117.3533,32.9673,蚌埠市,淮上区政府,细颗粒物(PM2.5),90,122,155,67,89,72,,86,83,27,37,8,9,0.8,0.8
2023-11-28T2200,2275A,117.3145,32.8977,蚌埠市,高新区,颗粒物(PM10),82,114,145,59,82,72,,92,87,34,41,7,9,0.7,0.8
2023-11-28T2200,3715A,117.3092,32.9314,蚌埠市,蚌埠田家炳中学,颗粒物(PM10),86,121,154,61,80,71,,88,84,32,39,6,7,0.6,0.7
2023-11-28T2200,1585A,109.8756,40.6532,包头市,市环境监测站,,24,24,39,6,14,63,,62,62,10,29,10,22,0.5,0.8
2023-11-28T2200,1587A,109.9991,40.5842,包头市,包头八中,,19,19,60,6,19,60,,62,62,15,30,12,20,0.4,0.8
2023-11-28T2200,1588A,109.8538,40.6821,包头市,青山宾馆,,22,22,38,3,13,70,,66,66,5,30,6,13,0.4,0.7
2023-11-28T2200,1589A,109.8642,40.6288,包头市,惠龙物流,,30,30,48,2,16,67,,63,63,8,31,7,19,0.5,0.9
2023-11-28T2200,1590A,110.0377,40.5546,包头市,东河鸿龙湾,,22,22,38,4,13,69,,64,64,9,25,12,15,0.6,0.9
2023-11-28T2200,3283A,109.9154,40.5685,包头市,滨河大厦,,21,,34,12,9,65,,63,63,8,29,9,13,0.3,0.7
2023-11-28T2200,3419A,109.9447,40.6261,包头市,包头市委党校,,21,16,50,7,18,66,,60,60,8,30,7,19,0.5,1
2023-11-28T2200,3683A,109.8331,40.6576,包头市,昆区政府,,28,28,41,5,14,66,,63,63,8,28,9,20,0.3,1
2023-11-28T2200,1930A,107.185,34.3063,宝鸡市,庙沟村,颗粒物(PM10),71,91,62,25,21,14,,58,46,52,26,10,10,0.5,0.3
2023-11-28T2200,1931A,107.0708,34.3017,宝鸡市,竹园沟,颗粒物(PM10),61,72,60,28,24,22,,52,42,38,29,4,4,1.1,0.9
2023-11-28T2200,1932A,107.1906,34.3672,宝鸡市,三陆医院,细颗粒物(PM2.5),130,144,91,99,42,8,,53,33,70,49,14,15,1.1,0.9
2023-11-28T2200,1933A,107.1431,34.3547,宝鸡市,监测站,颗粒物(PM10),75,99,69,52,31,6,,51,34,58,39,6,6,0.9,0.7
2023-11-28T2200,1934A,107.1186,34.3739,宝鸡市,技工学校,颗粒物(PM10),78,106,84,53,37,13,,54,37,55,41,8,10,0.7,0.7
2023-11-28T2200,1935A,107.3906,34.3528,宝鸡市,陈仓区环保局家属楼,细颗粒物(PM2.5),104,156,104,78,46,13,,56,34,72,53,12,18,1.3,1.3
2023-11-28T2200,1936A,107.2058,34.3497,宝鸡市,文理学院,颗粒物(PM10),84,118,86,48,30,5,,58,35,70,47,8,9,1.0,0.9
2023-11-28T2200,1937A,107.2386,34.3622,宝鸡市,三迪小学,颗粒物(PM10),81,111,86,48,34,7,,53,31,70,49,8,10,0.9,0.8
2023-11-28T2200,1051A,115.493,38.8632,保定市,游泳馆,颗粒物(PM10),54,57,36,24,13,7,,56,31,65,32,6,5,0.8,0.6
2023-11-28T2200,1052A,115.5213,38.8959,保定市,华电二区,颗粒物(PM10),69,87,39,41,19,0,,50,18,61,23,8,8,0.4,0.2
2023-11-28T2200,1053A,115.4713,38.9108,保定市,接待中心,颗粒物(PM10),74,97,42,40,20,0,,53,24,63,27,8,7,0.5,0.1
2023-11-28T2200,1054A,115.4612,38.8416,保定市,地表水厂,细颗粒物(PM2.5),63,69,56,45,22,12,,47,24,59,35,6,6,0.0,0
2023-11-28T2200,1056A,115.5086,38.8639,保定市,监测站,颗粒物(PM10),64,78,41,37,18,2,,54,29,68,30,8,6,0.5,0.3
2023-11-28T2200,3581A,115.31981,38.95208,保定市,满城区生态环境分局,细颗粒物(PM2.5),100,145,52,75,22,4,,58,26,81,38,9,3,1.3,0.7
2023-11-28T2200,3582A,115.47694,38.76408,保定市,清苑区第二中学,颗粒物(PM10),53,56,40,28,12,9,,56,28,65,59,5,6,0.4,0.3
2023-11-28T2200,3583A,115.62909,39.02311,保定市,徐水物探局,颗粒物(PM10),81,112,56,44,13,4,,56,25,71,37,5,3,0.7,0.4
2023-11-28T2200,4004A,115.4202,38.8656,保定市,双鹰农机,颗粒物(PM10),64,77,40,38,19,8,,52,29,53,24,6,6,0.6,0.5
2023-11-28T2200,2594A,99.1678,25.1081,保山市,市环境监测站,,29,29,26,16,15,46,,81,69,10,11,2,6,0.5,0.4
2023-11-28T2200,2595A,99.1711,25.1328,保山市,市环保局,,30,30,28,21,19,64,,87,80,5,7,4,4,0.2,0.3
2023-11-28T2200,1867A,109.1436,21.4086,北海市,海滩公园,细颗粒物(PM2.5),59,64,72,42,49,141,,156,156,11,12,9,12,0.9,0.9
2023-11-28T2200,1868A,109.0981,21.4661,北海市,新市环保局,细颗粒物(PM2.5),64,54,69,46,54,142,,144,144,14,17,9,14,0.9,0.8
2023-11-28T2200,1869A,109.1778,21.5233,北海市,北海工业园,细颗粒物(PM2.5),83,90,86,61,63,128,,138,137,12,15,9,15,0.9,0.8
2023-11-28T2200,3400A,109.1911,21.4415,北海市,龙潭自来水厂,细颗粒物(PM2.5),63,66,75,45,55,141,,137,135,10,15,9,11,0.8,0.8
2023-11-28T2200,1001A,116.3621,39.8784,北京市,万寿西宫,颗粒物(PM10),55,59,29,16,9,16,,51,29,51,24,3,2,0.5,0.2
2023-11-28T2200,1002A,116.2202,40.2915,北京市,定陵,,19,12,17,4,7,58,,56,41,2,11,3,3,0.1,0.2
2023-11-28T2200,1003A,116.4174,39.9289,北京市,东四,颗粒物(PM10),53,55,31,22,10,17,,51,32,49,22,3,2,0.4,0.3
2023-11-28T2200,1004A,116.4072,39.8863,北京市,天坛,颗粒物(PM10),51,51,24,22,9,24,,54,36,43,19,1,3,0.3,0.2
2023-11-28T2200,1005A,116.462,39.9365,北京市,农展馆,颗粒物(PM10),56,61,26,24,10,5,,48,32,67,22,5,5,0.7,0.5
2023-11-28T2200,1006A,116.3392,39.9295,北京市,官园,颗粒物(PM10),54,57,28,21,11,12,,57,36,53,20,4,3,0.4,0.3
2023-11-28T2200,1007A,116.2878,39.9611,北京市,海淀万柳,颗粒物(PM10),53,55,28,17,8,17,,50,31,54,27,3,3,0.7,0.5
2023-11-28T2200,1008A,116.6636,40.135,北京市,顺义新城,颗粒物(PM10),58,65,30,28,10,5,,55,23,53,22,3,2,0.4,0.2
2023-11-28T2200,1009A,116.6275,40.3275,北京市,怀柔镇,,36,36,18,17,8,16,,58,27,41,20,1,1,0.4,0.2
2023-11-28T2200,1011A,116.3966,39.9821,北京市,奥体中心,颗粒物(PM10),53,56,28,25,9,5,,48,32,59,21,2,2,0.4,0.2
2023-11-28T2200,1012A,116.184,39.9136,北京市,古城,,40,40,33,13,11,31,,49,31,35,25,2,2,0.4,0.4
2023-11-28T2200,3281A,115.9718,40.4529,北京市,延庆夏都,,28,28,15,4,7,44,,60,37,12,12,1,2,0.2,0.2
2023-11-28T2200,3417A,117.0709,40.1465,北京市,平谷新城,,42,42,20,23,8,20,,53,27,31,16,1,2,0.4,0.3
2023-11-28T2200,3418A,116.8336,40.4095,北京市,密云新城,,28,28,24,8,7,23,,43,21,23,14,3,3,0.3,0.2
2023-11-28T2200,3672A,116.1541,39.8204,北京市,丰台云岗,,30,30,31,8,9,56,,51,40,5,15,2,2,0.2,0.2
2023-11-28T2200,3673A,116.6804,39.9081,北京市,通州东关,颗粒物(PM10),67,83,30,38,11,1,,48,24,75,29,4,2,0.5,0.3
2023-11-28T2200,3674A,115.9577,39.7603,北京市,房山燕山,,22,22,22,9,8,62,,51,42,2,12,2,2,0.1,0.2
2023-11-28T2200,3675A,116.4672,39.7733,北京市,大兴旧宫,颗粒物(PM10),54,58,26,26,10,2,,52,29,67,22,3,3,0.4,0.2
2023-11-28T2200,3694A,115.986,40.4563,北京市,延庆石河营,,21,21,21,7,7,56,,61,43,3,10,1,2,0.1,0.2
2023-11-28T2200,3695A,116.6151,40.3053,北京市,怀柔新城,,33,33,19,16,9,26,,60,32,25,16,1,1,0.3,0.2
2023-11-28T2200,3696A,116.2545,39.8768,北京市,丰台小屯,,49,49,28,17,9,12,,44,22,52,27,2,2,0.4,0.3
2023-11-28T2200,3697A,116.84,40.3844,北京市,密云镇,,26,26,24,9,8,31,,53,26,21,17,3,1,0.3,0.2
2023-11-28T2200,1761A,123.8275,41.3064,本溪市,大峪,,36,36,28,24,18,30,,58,46,37,31,10,10,1.4,0.9
2023-11-28T2200,1762A,123.7567,41.3325,本溪市,溪湖,颗粒物(PM10),73,95,44,42,25,14,,67,44,50,32,12,15,0.9,0.8
2023-11-28T2200,1763A,123.7169,41.3094,本溪市,彩屯,细颗粒物(PM2.5),54,52,36,38,21,23,,58,32,48,38,10,11,1.0,0.8
2023-11-28T2200,1764A,123.7669,41.2864,本溪市,东明,颗粒物(PM10),58,66,38,40,24,8,,59,34,71,40,11,15,1.4,1.2
2023-11-28T2200,1765A,123.7992,41.2664,本溪市,新立屯,,26,26,28,18,26,26,,54,30,42,38,10,16,1.1,1.4
2023-11-28T2200,1766A,123.8142,41.3472,本溪市,威宁,颗粒物(PM10),60,69,71,28,35,7,,59,33,58,39,5,7,1.0,0.9
2023-11-28T2200,2587A,105.2864,27.3125,毕节市,八中,,40,37,68,28,54,83,,100,95,16,16,11,9,0.6,0.7
2023-11-28T2200,2588A,105.31,27.2944,毕节市,师专,,49,47,66,34,52,77,,101,96,20,14,9,8,0.6,0.7
2023-11-28T2200,3537A,105.3631,27.3533,毕节市,长征村,细颗粒物(PM2.5),54,52,107,38,81,92,,109,106,12,11,13,9,0.5,0.7
2023-11-28T2200,1629A,118.0018,37.3617,滨州市,第二水厂,,41,41,37,27,14,23,,67,47,37,22,13,9,0.7,0.6
2023-11-28T2200,1630A,117.9776,37.393,滨州市,北中新校,,44,44,38,19,14,32,,66,50,36,27,15,9,0.7,0.5
2023-11-28T2200,3514A,117.9378,37.3956,滨州市,中海酒店,,33,33,35,16,18,41,,71,58,34,30,16,12,0.8,0.7
2023-11-28T2200,3515A,117.9378,37.3553,滨州市,开发区一中,,38,38,38,18,14,27,,64,45,47,34,17,11,0.7,0.5
2023-11-28T2200,3516A,118.0917,37.694,滨州市,金海六路,,43,43,35,13,13,25,,67,47,38,30,11,8,0.6,0.5
2023-11-28T2200,4028A,117.9956,37.3753,滨州市,滨州市西街道办事处,,41,41,37,12,20,29,,51,,38,29,17,13,0.5,0.7
2023-11-28T2200,2311A,115.8072,33.8399,亳州市,污水处理厂,细颗粒物(PM2.5),110,144,125,83,59,40,,83,69,35,27,11,10,0.8,0.8
2023-11-28T2200,2312A,115.7789,33.8518,亳州市,三国揽胜宫,细颗粒物(PM2.5),94,133,124,70,47,38,,77,63,36,28,12,11,0.9,0.8
2023-11-28T2200,3332A,115.7633,33.8034,亳州市,亳州学院,颗粒物(PM10),93,136,123,60,39,40,,82,67,35,26,8,8,0.6,0.7
2023-11-28T2200,2693A,82.0485,44.8556,博尔塔拉蒙古自治州,市党校,"颗粒物(PM10),细颗粒物(PM2.5)",54,58,42,38,19,4,,21,10,30,19,9,10,0.8,0.5
2023-11-28T2200,2694A,82.0806,44.8969,博尔塔拉蒙古自治州,市环保局,颗粒物(PM10),65,79,55,36,23,7,,14,12,35,25,9,10,1.2,0.9
2023-11-28T2200,1071A,116.8842,38.2991,沧州市,沧县城建局,细颗粒物(PM2.5),67,80,40,48,21,2,,57,31,66,31,9,5,1.0,0.6
2023-11-28T2200,1072A,116.8584,38.3254,沧州市,电视转播站,细颗粒物(PM2.5),85,115,39,63,13,4,,64,39,72,27,10,5,1.1,0.7
2023-11-28T2200,1073A,116.8709,38.3228,沧州市,市环保局,颗粒物(PM10),72,94,31,46,19,5,,64,36,64,26,8,3,1.0,0.6
2023-11-28T2200,3324A,116.8136,38.3004,沧州市,河北水利电力学院,细颗粒物(PM2.5),60,66,34,43,15,4,,58,36,69,28,12,9,0.6,0.3
2023-11-28T2200,2622A,97.1806,31.1273,昌都市,昌都监测站,细颗粒物(PM2.5),180,187,45,136,24,21,,47,36,86,40,16,10,4.4,1.1
2023-11-28T2200,3719A,97.1714,31.1406,昌都市,昌都会议中心,,39,38,26,27,14,31,,57,48,44,25,5,5,0.7,0.5
2023-11-28T2200,2690A,88.1236,43.8886,昌吉州,天山天池,,21,4,2,0,5,66,,68,67,4,4,6,6,0.4,0.5
2023-11-28T2200,2692A,87.2717,44.0297,昌吉州,新区政务中心,细颗粒物(PM2.5),95,112,94,71,56,26,,32,30,31,43,4,4,1.1,1.3
2023-11-28T2200,3613A,87.3095,44.0142,昌吉州,亚心广场,细颗粒物(PM2.5),122,127,106,92,67,24,,38,31,32,37,4,4,1.3,1.4
2023-11-28T2200,1119A,125.3325,43.9166,长春市,食品厂,,50,37,26,35,19,12,,48,32,62,33,15,16,0.5,0.4
2023-11-28T2200,1120A,125.2863,43.9027,长春市,客车厂,,40,37,24,28,17,12,,48,32,67,30,9,17,0.7,0.5
2023-11-28T2200,1121A,125.2841,43.8463,长春市,邮电学院,细颗粒物(PM2.5),53,47,32,37,24,25,,51,31,48,30,12,20,0.6,0.5
2023-11-28T2200,1122A,125.3716,43.8772,长春市,劳动公园,,42,42,22,25,16,9,,54,35,65,29,27,17,0.7,0.4
2023-11-28T2200,1123A,125.3297,43.8805,长春市,园林处,细颗粒物(PM2.5),55,49,25,39,16,11,,49,34,68,31,32,15,0.6,0.5
2023-11-28T2200,1124A,125.4605,43.79,长春市,净月潭,,30,27,23,21,14,38,,56,48,14,16,4,7,0.4,0.3
2023-11-28T2200,1126A,125.3863,43.8447,长春市,经开区环卫处,,49,42,25,34,16,9,,52,35,61,30,11,15,0.6,0.5
2023-11-28T2200,1127A,125.245,43.7783,长春市,高新区管委会,,49,46,27,34,24,5,,55,30,65,28,9,8,0.7,0.4
2023-11-28T2200,1128A,125.1761,43.8325,长春市,岱山公园,,46,42,26,32,19,12,,55,28,58,25,6,5,0.6,0.4
2023-11-28T2200,1335A,113.0833,28.2325,长沙市,经开区环保局,颗粒物(PM10),72,94,88,37,52,64,,95,82,36,43,9,9,0.5,0.7
2023-11-28T2200,1336A,112.8872,28.2189,长沙市,高开区环保局,细颗粒物(PM2.5),82,108,112,60,69,72,,108,105,43,47,10,8,1.0,1.3
2023-11-28T2200,1337A,113.0792,28.2053,长沙市,马坡岭,颗粒物(PM10),84,117,109,54,66,48,,93,78,50,50,10,9,0.3,0.6
2023-11-28T2200,1338A,112.9394,28.19,长沙市,湖南师范大学,细颗粒物(PM2.5),83,93,91,61,62,59,,90,79,43,47,9,7,1.0,1.1
2023-11-28T2200,1339A,113.0178,28.1322,长沙市,雨花区环保局,细颗粒物(PM2.5),74,86,90,54,63,68,,105,94,37,52,6,4,0.8,0.9
2023-11-28T2200,1340A,112.9792,28.2597,长沙市,伍家岭,颗粒物(PM10),106,162,110,66,56,8,,74,44,91,48,8,6,1.1,0.9
2023-11-28T2200,1341A,113.0014,28.1944,长沙市,火车新站,,,,119,,77,,,84,69,,61,6,5,1.4,1.4
2023-11-28T2200,1342A,112.9844,28.1178,长沙市,天心区环保局,颗粒物(PM10),79,108,106,51,64,71,,107,96,50,60,10,9,0.6,0.5
2023-11-28T2200,1343A,112.8908,28.1308,长沙市,湖南中医药大学,"颗粒物(PM10),细颗粒物(PM2.5)",90,130,105,67,64,1,,90,56,76,46,4,5,1.6,1.2
2023-11-28T2200,1344A,112.9581,28.3611,长沙市,沙坪,细颗粒物(PM2.5),70,74,58,51,38,42,,71,57,43,25,7,5,0.7,0.7
2023-11-28T2200,1727A,113.1147,36.1547,长治市,清华站,颗粒物(PM10),66,81,59,39,19,46,,70,66,35,23,18,13,0.8,0.7
2023-11-28T2200,1728A,113.1031,36.1989,长治市,监测站,颗粒物(PM10),65,79,62,44,21,42,,71,65,38,28,15,11,0.7,0.5
2023-11-28T2200,1730A,113.0886,36.2125,长治市,审计局,颗粒物(PM10),61,71,60,41,20,42,,66,59,41,31,20,14,0.9,0.7
2023-11-28T2200,1731A,113.0844,36.1856,长治市,长治八中,颗粒物(PM10),78,105,70,42,16,42,,67,59,42,31,24,16,0.7,0.4
2023-11-28T2200,2845A,113.1569,36.1911,长治市,德盛苑,颗粒物(PM10),62,74,52,41,17,64,,73,72,22,16,22,14,0.6,0.5
2023-11-28T2200,3568A,113.06,36.0464,长治市,向阳小学,颗粒物(PM10),79,107,79,54,24,44,,79,69,49,27,27,18,0.6,0.4
2023-11-28T2200,3569A,112.8792,36.3144,长治市,屯留一中,,,81,54,47,14,,,68,67,38,23,25,15,0.8,0.8
2023-11-28T2200,3570A,113.235,36.3489,长治市,潞城四中,颗粒物(PM10),75,99,78,53,21,10,,22,,57,40,17,19,0.8,0.7
2023-11-28T2200,1854A,111.6975,28.9703,常德市,市二中,细颗粒物(PM2.5),109,143,106,82,63,86,,96,93,26,35,8,8,1.0,0.8
2023-11-28T2200,1857A,111.7158,29.1456,常德市,白鹤山,"颗粒物(PM10),细颗粒物(PM2.5)",83,116,104,61,60,75,,92,88,19,12,7,7,0.9,0.8
2023-11-28T2200,3138A,111.7153,29.0289,常德市,武陵区永安,细颗粒物(PM2.5),105,113,97,79,69,86,,104,103,26,25,10,9,1.0,0.9
2023-11-28T2200,3139A,111.6892,28.9881,常德市,鼎城区玉霞,细颗粒物(PM2.5),140,141,106,107,76,88,,95,92,30,35,10,8,0.9,0.8
2023-11-28T2200,3140A,111.6625,29.0531,常德市,武陵区长庚,细颗粒物(PM2.5),103,114,111,77,73,81,,98,95,38,33,9,8,1.1,0.9
2023-11-28T2200,1196A,119.9633,31.762,常州市,市监测站,细颗粒物(PM2.5),120,153,124,91,78,18,,77,50,97,51,11,9,1.5,0.8
2023-11-28T2200,1200A,119.9468,31.7069,常州市,武进监测站,细颗粒物(PM2.5),110,145,129,83,76,42,,86,70,66,45,11,12,1.1,1.1
2023-11-28T2200,1201A,119.9255,31.9087,常州市,安家,细颗粒物(PM2.5),119,144,113,90,70,9,,83,48,96,52,8,9,1.2,1
2023-11-28T2200,3002A,119.9805,31.8174,常州市,行政中心,细颗粒物(PM2.5),100,123,107,75,66,7,,82,54,118,48,13,13,1.1,1.1
2023-11-28T2200,3003A,120.0522,31.7748,常州市,经开区,细颗粒物(PM2.5),103,149,128,77,68,5,,81,48,106,50,10,10,1.1,0.9
2023-11-28T2200,3010A,119.9025,31.7964,常州市,钟楼,细颗粒物(PM2.5),122,145,120,92,75,41,,79,58,75,54,10,10,1.2,1
2023-11-28T2200,3429A,119.8598,31.7066,常州市,武进经发区,细颗粒物(PM2.5),139,177,133,106,73,37,,90,62,75,53,10,10,1.0,0.9
2023-11-28T2200,3430A,119.5826,31.7245,常州市,金坛城区,细颗粒物(PM2.5),149,186,126,114,76,49,,92,76,53,36,9,10,1.1,0.9
2023-11-28T2200,2220A,120.4318,41.5881,朝阳市,西梁,颗粒物(PM10),61,71,30,42,15,10,,62,42,51,21,17,10,1.2,0.8
2023-11-28T2200,2221A,120.4521,41.5646,朝阳市,河畔小区,,36,31,27,25,13,42,,65,55,23,15,8,9,0.6,0.6
2023-11-28T2200,2222A,120.4176,41.5648,朝阳市,八里堡,颗粒物(PM10),61,72,32,30,14,17,,65,48,45,17,21,14,1.1,0.7
2023-11-28T2200,2223A,120.3806,41.5969,朝阳市,农业园区,,43,40,27,30,17,7,,63,31,53,24,11,11,0.9,0.7
2023-11-28T2200,1705A,116.6367,23.6719,潮州市,西园路,细颗粒物(PM2.5),80,90,60,59,44,83,,126,123,28,16,6,6,0.8,0.6
2023-11-28T2200,1706A,116.6447,23.6706,潮州市,档案局,颗粒物(PM10),68,85,57,48,39,74,,129,122,32,18,4,5,0.8,0.7
2023-11-28T2200,3026A,116.6183,23.6608,潮州市,市政府,颗粒物(PM10),65,79,57,43,34,112,,129,129,27,19,9,7,0.7,0.6
2023-11-28T2200,2472A,113.0073,25.9061,郴州市,马头岭,颗粒物(PM10),69,88,73,37,38,34,,100,87,50,32,9,9,1.1,1.1
2023-11-28T2200,2473A,113.0116,25.8226,郴州市,市职中,细颗粒物(PM2.5),74,75,66,54,48,14,,103,74,48,31,6,10,0.9,0.8
2023-11-28T2200,2474A,113.0161,25.8001,郴州市,兴隆步行街,细颗粒物(PM2.5),95,113,77,71,52,13,,109,77,73,38,5,8,1.0,0.8
2023-11-28T2200,2475A,113.0383,25.8071,郴州市,市审计局,细颗粒物(PM2.5),83,81,67,61,50,9,,100,75,65,34,9,12,0.8,0.7
2023-11-28T2200,2476A,113.0348,25.7759,郴州市,市环保局,细颗粒物(PM2.5),87,93,77,64,51,27,,97,73,53,37,16,12,0.8,0.8
2023-11-28T2200,1431A,103.9728,30.7236,成都市,金泉两河,细颗粒物(PM2.5),94,100,95,70,65,44,,83,75,42,38,3,2,0.5,0.7
2023-11-28T2200,1432A,104.176,30.6872,成都市,十里店,细颗粒物(PM2.5),108,113,99,81,69,42,,87,82,58,55,2,2,0.7,0.8
2023-11-28T2200,1433A,104.079,30.5706,成都市,三瓦窑,细颗粒物(PM2.5),83,105,103,61,67,68,,94,90,34,49,3,3,0.7,0.8
2023-11-28T2200,1434A,104.1114,30.63,成都市,沙河铺,细颗粒物(PM2.5),89,110,96,66,65,56,,83,81,44,42,4,4,0.8,0.8
2023-11-28T2200,1437A,104.0786,30.6531,成都市,君平街,细颗粒物(PM2.5),95,112,98,71,69,62,,93,86,46,50,2,2,0.6,0.9
2023-11-28T2200,1438A,103.613,31.0283,成都市,灵岩寺,细颗粒物(PM2.5),93,106,50,69,31,100,,107,107,21,17,16,20,0.8,0.7
2023-11-28T2200,2880A,104.0239,30.65639,成都市,大石西路,细颗粒物(PM2.5),108,110,101,81,69,56,,92,84,48,49,3,4,0.7,0.9
2023-11-28T2200,3136A,104.2725,30.5589,成都市,龙泉驿区区政府,细颗粒物(PM2.5),64,63,73,46,49,57,,103,96,29,30,1,2,0.7,0.7
2023-11-28T2200,3357A,104.0106,30.6931,成都市,金博路,细颗粒物(PM2.5),103,118,97,77,67,9,,91,69,80,49,3,3,0.9,0.9
2023-11-28T2200,3359A,104.0578,30.5225,成都市,华阳,细颗粒物(PM2.5),92,105,96,68,68,55,,90,81,44,42,2,3,0.7,0.8
2023-11-28T2200,3487A,104.2394,30.5319,成都市,车城东七路,细颗粒物(PM2.5),93,110,87,69,65,26,,110,88,83,38,3,3,0.8,0.7
2023-11-28T2200,3488A,104.3853,30.7453,成都市,青白江技师分院,细颗粒物(PM2.5),60,63,70,43,52,8,,96,71,72,51,4,5,0.7,0.8
2023-11-28T2200,3489A,104.0789,30.4072,成都市,科学城,细颗粒物(PM2.5),89,96,82,66,58,68,,104,93,45,36,2,2,0.6,0.6
2023-11-28T2200,4011A,103.8506,30.6947,成都市,光华大道三段,细颗粒物(PM2.5),99,99,89,74,64,40,,78,70,48,39,4,3,0.8,1
2023-11-28T2200,1062A,117.9531,40.9081,承德市,铁路,颗粒物(PM10),51,51,30,32,14,2,,52,21,61,28,12,10,0.7,0.5
2023-11-28T2200,1063A,117.9392,40.9763,承德市,中国银行,颗粒物(PM10),56,62,31,36,12,4,,53,28,52,22,9,11,1.1,0.5
2023-11-28T2200,1064A,117.9503,40.928,承德市,开发区,,46,46,33,28,17,4,,57,29,54,24,13,10,0.8,0.4
2023-11-28T2200,1065A,117.8051,40.9655,承德市,文化中心,细颗粒物(PM2.5),77,99,46,56,20,2,,54,24,56,27,11,18,1.2,0.6
2023-11-28T2200,1066A,117.9268,41.0026,承德市,离宫,细颗粒物(PM2.5),59,47,20,42,18,9,,58,32,38,12,4,6,0.6,0.4
2023-11-28T2200,2314A,117.47,30.6618,池州市,池州学院,颗粒物(PM10),80,110,90,52,48,43,,88,76,41,32,6,7,0.7,0.8
2023-11-28T2200,3237A,117.4918,30.6617,池州市,展览馆,颗粒物(PM10),76,101,67,41,39,35,,99,82,36,27,5,6,0.6,0.7
2023-11-28T2200,3333A,117.5627,30.695,池州市,第八中学,颗粒物(PM10),80,110,81,51,40,68,,98,90,30,27,7,6,0.8,0.8
2023-11-28T2200,3334A,117.5038,30.6243,池州市,第十二中学,颗粒物(PM10),68,85,77,41,41,3,,100,71,69,32,4,5,0.8,1.2
2023-11-28T2200,1744A,118.9233,42.2816,赤峰市,松山一中,,32,32,15,14,6,74,,69,50,13,21,12,13,0.5,0.6
2023-11-28T2200,1745A,118.9576,42.2728,赤峰市,哈达街,,45,45,22,19,11,71,,65,48,12,22,18,26,0.5,0.6
2023-11-28T2200,1746A,118.8788,42.2554,赤峰市,天义路,,28,28,20,10,8,70,,74,50,12,16,11,11,0.5,0.6
2023-11-28T2200,3058A,119.2658,42.0353,赤峰市,银河街,,33,31,30,23,18,51,,70,57,22,18,19,19,0.6,0.8
2023-11-28T2200,3286A,118.9359,42.3147,赤峰市,桥北物流园区,,,,23,,10,,,72,54,,25,,13,,0.5
2023-11-28T2200,2521A,107.3476,22.4136,崇左市,市环保局江州分局,颗粒物(PM10),73,95,61,43,35,53,,130,98,38,25,7,7,0.9,0.8
2023-11-28T2200,2522A,107.3702,22.3707,崇左市,城南新区,"颗粒物(PM10),细颗粒物(PM2.5)",55,60,49,39,30,96,,128,114,18,21,9,7,0.8,0.8
2023-11-28T2200,2298A,118.3093,32.3153,滁州市,老年大学,细颗粒物(PM2.5),99,126,119,74,72,64,,86,72,51,37,9,9,0.7,0.7
2023-11-28T2200,2299A,118.3244,32.2786,滁州市,人大宾馆,细颗粒物(PM2.5),107,131,131,80,78,57,,90,71,56,43,8,10,0.6,0.6
2023-11-28T2200,3207A,118.3118,32.3038,滁州市,市政府原办公楼,细颗粒物(PM2.5),90,123,122,67,67,61,,88,75,57,42,8,9,0.7,0.6
2023-11-28T2200,3331A,118.3267,32.2634,滁州市,图书馆,细颗粒物(PM2.5),103,123,125,77,74,56,,90,72,60,39,7,7,0.8,0.7
2023-11-28T2200,2605A,101.5482,25.0441,楚雄州,州环境监测站,,39,29,35,27,29,63,,70,68,6,18,6,18,0.5,0.5
2023-11-28T2200,2606A,101.538,25.0492,楚雄州,市经济开发区,,39,35,35,27,27,61,,67,65,9,19,5,8,0.6,0.6
2023-11-28T2200,2548A,107.5277,31.2827,达州市,达州职业技术学院,颗粒物(PM10),66,81,58,39,33,6,,20,15,24,25,9,15,0.4,0.4
2023-11-28T2200,2549A,107.5086,31.2186,达州市,市环境监测站,颗粒物(PM10),62,73,63,36,32,3,,6,5,40,36,25,15,0.6,0.6
2023-11-28T2200,2550A,107.4988,31.2132,达州市,凤凰小区,颗粒物(PM10),62,73,60,39,35,6,,11,9,41,36,28,18,0.5,0.5
2023-11-28T2200,2551A,107.5082,31.1986,达州市,达县机关宾馆,颗粒物(PM10),63,75,60,38,32,4,,11,7,45,36,30,16,0.7,0.6
2023-11-28T2200,2552A,107.4644,31.2124,达州市,市政中心,颗粒物(PM10),57,64,75,36,35,3,,6,4,45,40,24,12,0.8,0.8
2023-11-28T2200,2614A,100.1542,25.7054,大理州,大理市环境监测站,,25,24,22,17,15,67,,71,70,10,10,5,5,0.5,0.5
2023-11-28T2200,2615A,100.2171,25.5811,大理州,大理古城,,35,35,23,23,17,58,,83,73,18,16,7,7,0.5,0.5
2023-11-28T2200,1109A,121.612,38.9741,大连市,甘井子,,21,15,16,9,10,37,,64,36,42,26,10,10,0.5,0.6
2023-11-28T2200,1110A,121.565,38.9511,大连市,周水子,,,15,20,7,11,48,,60,42,,21,7,11,0.6,0.5
2023-11-28T2200,1111A,121.5637,38.8845,大连市,星海三站,,29,29,29,20,11,10,,61,38,57,23,12,7,0.7,0.6
2023-11-28T2200,1112A,121.6302,38.9117,大连市,青泥洼桥,,18,14,16,8,9,36,,58,48,36,20,14,11,0.5,0.4
2023-11-28T2200,1113A,121.6251,38.8638,大连市,傅家庄,,18,8,12,5,7,57,,70,67,21,15,20,12,0.5,0.5
2023-11-28T2200,1114A,121.5213,38.8661,大连市,七贤岭,,23,23,17,14,10,43,,72,53,28,23,8,13,0.7,0.7
2023-11-28T2200,1115A,121.2529,38.8061,大连市,旅顺,,22,21,17,15,11,51,,68,51,22,18,11,9,0.7,0.6
2023-11-28T2200,1116A,121.7485,39.1311,大连市,金州,,39,38,22,27,15,40,,68,42,26,17,8,8,0.7,0.6
2023-11-28T2200,1117A,121.7811,39.0496,大连市,开发区,,36,32,24,25,10,16,,64,34,56,22,8,8,0.6,0.4
2023-11-28T2200,1118A,121.9762,39.0631,大连市,双D港,,26,26,22,13,9,49,,75,54,20,14,9,9,0.5,0.4
2023-11-28T2200,1789A,124.81117,46.03138,大庆市,大同区,细颗粒物(PM2.5),59,45,48,42,40,40,,42,39,19,16,12,8,0.5,0.5
2023-11-28T2200,1790A,125.129,46.533,大庆市,龙凤区,细颗粒物(PM2.5),62,54,34,44,27,21,,36,28,30,26,6,9,0.7,0.6
2023-11-28T2200,1791A,124.902,46.408,大庆市,红岗区,,30,27,30,21,27,37,,51,41,18,14,5,6,0.5,0.4
2023-11-28T2200,1792A,125.153,46.586,大庆市,萨尔图区,,45,,31,31,26,29,,42,34,33,25,6,6,0.6,0.5
2023-11-28T2200,1793A,124.9042,46.6215,大庆市,让胡路区,,35,35,35,18,20,39,,50,44,26,20,3,4,0.4,0.4
2023-11-28T2200,3481A,125.141,46.634,大庆市,萨区政府监测点,,28,,32,19,30,39,,49,37,26,25,7,7,0.4,0.4
2023-11-28T2200,1721A,113.3819,40.1097,大同市,果树场,,34,34,61,23,28,64,,52,52,6,25,7,10,0.6,1
2023-11-28T2200,1723A,113.2994,40.0758,大同市,云冈宾馆,,26,26,51,13,16,66,,58,58,7,22,9,11,0.5,0.5
2023-11-28T2200,1724A,113.3444,40.0917,大同市,大同大学,,41,41,55,7,16,71,,57,57,8,30,7,11,0.2,0.5
2023-11-28T2200,1725A,113.2661,40.1269,大同市,安家小村,,30,30,61,8,16,65,,61,61,6,20,10,13,0.6,0.9
2023-11-28T2200,1726A,113.2711,40.0844,大同市,教育学院,,32,32,51,16,15,65,,55,55,9,26,7,10,0.2,0.7
2023-11-28T2200,3282A,113.3397,40.0597,大同市,大同市卫生学校,,34,34,39,8,16,65,,54,54,8,26,6,10,0.3,0.5
2023-11-28T2200,3565A,113.1367,40.1122,大同市,云冈站,,23,23,36,7,12,57,,62,57,13,20,12,20,0.5,0.5
2023-11-28T2200,3566A,113.1186,40.2556,大同市,图书馆,,24,24,35,6,16,50,,56,52,19,16,16,20,0.9,0.7
2023-11-28T2200,3567A,113.5931,40.0461,大同市,区一中,,20,6,43,4,16,63,,60,60,6,20,4,14,0.3,0.5
2023-11-28T2200,3676A,113.2802,40.0995,大同市,第二人民医院,,32,32,56,7,18,65,,55,55,7,30,8,12,0.3,0.7
2023-11-28T2200,2269A,124.1069,50.4097,大兴安岭地区,科技局,,29,,14,20,15,55,,65,59,5,5,2,2,0.3,0.3
2023-11-28T2200,3663A,124.1164,50.4278,大兴安岭地区,红旗社区,,34,34,20,23,15,41,,67,47,19,13,5,4,0.8,0.6
2023-11-28T2200,1600A,124.3303,40.0625,丹东市,江湾东路,细颗粒物(PM2.5),72,65,33,52,24,10,,68,30,65,28,17,11,2.1,0.9
2023-11-28T2200,1601A,124.4256,40.1503,丹东市,临江后街,细颗粒物(PM2.5),80,81,26,59,16,12,,66,42,53,18,9,5,1.9,0.7
2023-11-28T2200,1602A,124.3933,40.1461,丹东市,元宝山,细颗粒物(PM2.5),75,,20,55,11,17,,65,52,48,15,16,10,1.2,0.6
2023-11-28T2200,1603A,124.3633,40.1092,丹东市,民主桥,颗粒物(PM10),51,52,31,34,16,12,,62,30,46,22,13,10,1.3,0.5
2023-11-28T2200,3541A,109.5726,19.5167,儋州市,第一中学子站,颗粒物(PM10),63,75,65,44,45,127,,130,129,9,9,5,6,0.8,0.8
2023-11-28T2200,3542A,109.5567,19.5187,儋州市,东坡学校子站,颗粒物(PM10),60,69,63,42,42,137,,136,136,9,9,2,3,0.7,0.7
2023-11-28T2200,2616A,98.5842,24.428,德宏州,德宏州监测站,颗粒物(PM10),52,53,44,28,26,32,,62,56,23,21,10,15,0.6,0.5
2023-11-28T2200,3677A,98.5881,24.4368,德宏州,芒市人民政府综合楼,颗粒物(PM10),52,54,37,28,23,37,,67,62,18,17,11,15,0.5,0.4
2023-11-28T2200,1901A,104.4239,31.1208,德阳市,东山公园,颗粒物(PM10),74,98,106,52,63,68,,111,103,26,31,3,4,0.6,0.6
2023-11-28T2200,1902A,104.3826,31.1317,德阳市,西小区,细颗粒物(PM2.5),88,94,105,65,74,29,,92,82,52,46,2,3,0.7,0.9
2023-11-28T2200,1904A,104.3553,31.1091,德阳市,耐火材料厂,细颗粒物(PM2.5),105,110,128,79,82,28,,86,81,52,46,2,4,0.6,0.8
2023-11-28T2200,3639A,104.4019,31.1244,德阳市,市教育局,细颗粒物(PM2.5),74,83,89,54,66,43,,89,78,41,46,2,3,0.7,0.8
2023-11-28T2200,1622A,116.3032,37.4674,德州市,儿童乐园,颗粒物(PM10),60,70,64,31,21,18,,60,39,48,31,19,11,0.7,0.6
2023-11-28T2200,1624A,116.2991,37.4451,德州市,监理站,颗粒物(PM10),52,53,49,19,13,31,,63,47,40,33,19,10,0.6,0.5
2023-11-28T2200,3066A,116.2721,37.4379,德州市,九衢泉纯净水厂,颗粒物(PM10),54,58,53,28,19,29,,61,44,46,33,21,9,0.7,0.5
2023-11-28T2200,3371A,116.3728,37.4403,德州市,开发区人民医院,颗粒物(PM10),60,70,59,34,20,11,,64,39,58,33,19,10,0.8,0.7
2023-11-28T2200,3372A,116.3572,37.4094,德州市,太阳城中学,颗粒物(PM10),54,57,57,36,23,8,,60,34,54,34,16,8,0.8,0.6
2023-11-28T2200,3511A,116.5652,37.3319,德州市,陵城艺术中心,颗粒物(PM10),62,73,66,39,24,26,,63,44,41,32,16,6,0.8,0.6
2023-11-28T2200,2621A,99.7056,27.8317,迪庆州,迪庆州站,,47,47,25,29,18,45,,80,73,37,16,11,9,1.2,0.6
2023-11-28T2200,3180A,99.7136,27.8094,迪庆州,质量技术监督局,,45,34,28,31,18,51,,68,,28,15,7,6,0.9,0.7
2023-11-28T2200,2663A,104.6241,35.5734,定西市,东关小学,颗粒物(PM10),51,52,77,28,32,48,,80,72,29,23,14,13,0.5,0.7
2023-11-28T2200,2664A,104.6194,35.5934,定西市,供电公司,,44,44,73,29,37,41,,78,72,41,34,16,17,0.6,1.1
2023-11-28T2200,1389A,113.7547,23.0494,东莞市,莞城梨川,细颗粒物(PM2.5),90,118,62,67,38,30,,144,117,95,33,9,9,1.2,0.8
2023-11-28T2200,1390A,113.7944,23.0128,东莞市,东城石井,颗粒物(PM10),59,68,57,40,36,61,,129,109,31,25,8,9,0.8,0.8
2023-11-28T2200,1391A,113.7383,22.9658,东莞市,南城西平,细颗粒物(PM2.5),74,95,65,54,38,88,,146,136,65,47,6,7,0.8,0.7
2023-11-28T2200,3319A,113.7338,23.0381,东莞市,万江金泰,颗粒物(PM10),86,122,59,58,37,34,,134,106,87,30,9,10,1.2,0.9
2023-11-28T2200,3626A,113.7533,23.0202,东莞市,南城元岭,颗粒物(PM10),89,128,65,61,37,4,,138,87,135,35,4,5,1.2,0.9
2023-11-28T2200,3627A,113.7875,23.0457,东莞市,东城主山,颗粒物(PM10),73,95,59,51,36,20,,144,108,110,36,9,9,1.0,0.7
2023-11-28T2200,1666A,118.6614,37.4309,东营市,市环保局,,23,12,21,5,9,71,,72,70,11,22,7,7,0.6,0.6
2023-11-28T2200,3036A,118.6904,37.4338,东营市,开发区管委会,,24,17,26,5,10,74,,77,73,13,22,4,4,0.5,0.6
2023-11-28T2200,3365A,118.5719,37.565,东营市,垦利区民丰路,,24,24,23,7,8,52,,75,60,28,22,14,14,0.5,0.4
2023-11-28T2200,3498A,118.5055,37.8612,东营市,河口城区,,19,19,20,5,5,57,,77,67,20,15,10,10,0.7,0.6
2023-11-28T2200,3646A,118.4978,37.4623,东营市,胜利站,,28,28,31,7,10,64,,73,62,22,29,9,9,0.4,0.4
2023-11-28T2200,3734A,118.35,37.26,东营市,理想之城,,20,19,28,9,10,64,,73,67,16,22,4,4,0.3,0.4
2023-11-28T2200,1591A,110.0023,39.8129,鄂尔多斯市,综合楼,,36,36,48,2,8,44,,57,52,28,27,4,8,0.4,0.4
2023-11-28T2200,1592A,109.9486,39.8261,鄂尔多斯市,巴音孟克林场办事处,,36,36,39,9,10,34,,56,44,27,17,10,9,0.5,0.5
2023-11-28T2200,1593A,109.7736,39.5986,鄂尔多斯市,康泽苑,,24,24,35,6,8,53,,64,59,10,18,6,6,0.3,0.4
2023-11-28T2200,1594A,109.8119,39.5989,鄂尔多斯市,华泰汽车城,,34,34,39,7,9,50,,66,58,17,26,16,8,0.5,0.5
2023-11-28T2200,1595A,109.9734,39.7884,鄂尔多斯市,奥林花园,,46,46,45,7,9,41,,57,50,26,29,6,7,0.6,0.5
2023-11-28T2200,2436A,114.8938,30.3994,鄂州市,市政府,细颗粒物(PM2.5),69,81,103,50,65,80,,110,102,30,40,11,12,1.1,1.2
2023-11-28T2200,2437A,114.8989,30.3714,鄂州市,赵家坝,颗粒物(PM10),72,93,107,48,68,74,,95,88,43,54,11,19,1.1,1.3
2023-11-28T2200,3654A,114.8094,30.4089,鄂州市,精准医疗中心,颗粒物(PM10),79,108,134,54,74,83,,100,97,31,49,23,21,1.5,1.4
2023-11-28T2200,2499A,108.3411,21.6158,防城港市,沙万,细颗粒物(PM2.5),78,71,72,57,49,98,,120,110,23,26,10,14,0.6,0.6
2023-11-28T2200,2500A,108.3514,21.7731,防城港市,防城档案局,细颗粒物(PM2.5),93,110,116,69,53,53,,127,112,30,31,4,5,0.9,0.8
2023-11-28T2200,2501A,108.3506,21.6414,防城港市,大海花园,细颗粒物(PM2.5),67,66,69,48,45,102,,125,111,22,26,18,24,0.8,0.8
2023-11-28T2200,1371A,113.1294,23.0067,佛山市,湾梁,颗粒物(PM10),76,102,62,48,30,67,,142,133,59,32,11,12,0.8,0.6
2023-11-28T2200,1372A,113.1083,23.0478,佛山市,华材职中,"颗粒物(PM10),细颗粒物(PM2.5)",79,107,66,58,39,42,,134,118,93,45,8,7,0.9,0.6
2023-11-28T2200,1373A,113.144,23.0453,佛山市,南海气象局,颗粒物(PM10),75,100,59,54,35,60,,140,127,87,45,10,6,0.8,0.5
2023-11-28T2200,1374A,113.2881,22.8094,佛山市,顺德苏岗,细颗粒物(PM2.5),85,87,61,63,40,100,,178,160,42,37,8,10,0.8,0.7
2023-11-28T2200,1376A,112.8383,22.8678,佛山市,高明孔堂,颗粒物(PM10),61,72,70,38,37,105,,130,127,36,39,7,10,0.7,0.7
2023-11-28T2200,1377A,112.8836,23.1588,佛山市,三水监测站,细颗粒物(PM2.5),87,119,76,64,45,1,,128,86,142,50,8,6,1.0,0.8
2023-11-28T2200,1378A,112.867,23.185,佛山市,三水云东海,细颗粒物(PM2.5),80,89,60,59,41,3,,126,98,125,39,6,7,0.9,0.7
2023-11-28T2200,3625A,113.2544,22.7642,佛山市,容桂街道办,颗粒物(PM10),80,110,64,51,33,55,,177,156,95,42,5,6,1.1,0.7
2023-11-28T2200,1282A,119.2681,26.0504,福州市,师大,颗粒物(PM10),55,60,55,24,32,118,,141,138,16,17,6,6,0.4,0.5
2023-11-28T2200,1283A,119.2984,26.1028,福州市,五四北路,颗粒物(PM10),52,53,53,21,31,117,,139,136,18,20,4,4,0.5,0.7
2023-11-28T2200,1284A,119.2648,26.0768,福州市,杨桥西路,颗粒物(PM10),58,66,61,23,33,120,,138,136,14,20,4,4,0.6,0.7
2023-11-28T2200,1285A,119.317,26.0746,福州市,紫阳,颗粒物(PM10),58,65,57,21,32,116,,141,138,14,18,7,7,0.4,0.7
2023-11-28T2200,3048A,119.5799,26.0936,福州市,九龙,颗粒物(PM10),53,56,45,16,27,105,,149,140,18,14,6,5,0.4,0.7
2023-11-28T2200,3526A,119.5189,25.9664,福州市,吴航,,42,42,50,15,29,98,,145,137,13,17,5,4,0.6,0.7
2023-11-28T2200,1755A,123.7977,41.8491,抚顺市,望花区,细颗粒物(PM2.5),92,97,37,68,23,7,,57,39,65,31,20,10,1.2,0.5
2023-11-28T2200,1756A,123.9161,41.8822,抚顺市,顺城区,细颗粒物(PM2.5),104,112,54,78,32,6,,52,29,56,35,6,8,1.7,1.1
2023-11-28T2200,1757A,124.0436,41.8611,抚顺市,东洲区,细颗粒物(PM2.5),70,56,35,51,20,10,,59,43,46,22,12,10,0.9,0.6
2023-11-28T2200,1758A,123.9247,41.8642,抚顺市,新抚区,细颗粒物(PM2.5),77,63,35,56,23,7,,56,42,50,21,7,10,1.0,0.5
2023-11-28T2200,1759A,124.0972,41.8961,抚顺市,大伙房水库,细颗粒物(PM2.5),78,71,43,57,24,12,,62,37,50,26,36,15,1.1,0.7
2023-11-28T2200,1760A,123.7086,41.8391,抚顺市,沈抚新城,细颗粒物(PM2.5),79,83,38,58,20,9,,58,32,62,28,9,12,1.1,0.5
2023-11-28T2200,2376A,116.2127,28.0814,抚州市,桐源党溪,细颗粒物(PM2.5),54,56,56,38,34,17,,97,69,24,17,1,8,1.0,1.1
2023-11-28T2200,2377A,116.3544,27.9831,抚州市,市站,细颗粒物(PM2.5),85,102,78,63,46,42,,94,76,40,38,4,7,1.2,1.1
2023-11-28T2200,2378A,116.3565,27.963,抚州市,血防站,颗粒物(PM10),78,106,78,56,45,34,,102,83,46,32,2,2,1.3,0.9
2023-11-28T2200,2379A,116.3564,28.0007,抚州市,采茶剧团,细颗粒物(PM2.5),77,99,73,56,42,54,,100,86,37,33,6,8,1.2,1.1
2023-11-28T2200,2380A,116.385,27.9647,抚州市,医学分院,颗粒物(PM10),81,112,76,48,36,51,,106,78,35,37,7,9,1.2,1.1
2023-11-28T2200,2207A,121.6094,41.998,阜新市,工业园区,,,,49,61,24,3,,56,26,58,27,18,13,1.0,0.7
2023-11-28T2200,2208A,121.6697,42.0279,阜新市,长青街,细颗粒物(PM2.5),74,60,24,54,14,22,,67,45,39,14,9,8,0.7,0.5
2023-11-28T2200,2209A,121.6673,42.0705,阜新市,农业园区,,,20,17,19,6,,,66,62,29,10,8,8,0.6,0.4
2023-11-28T2200,2210A,121.6717,42.0224,阜新市,东苑,颗粒物(PM10),66,82,22,39,14,27,,65,46,35,15,10,8,0.7,0.5
2023-11-28T2200,2211A,121.6506,42.0498,阜新市,玉龙新城,颗粒物(PM10),65,80,23,39,12,8,,68,35,50,21,7,5,1.3,0.7
2023-11-28T2200,2301A,115.8277,32.8929,阜阳市,市监测站,细颗粒物(PM2.5),109,136,116,82,59,42,,77,64,45,30,9,9,0.7,0.6
2023-11-28T2200,2303A,115.8554,32.8605,阜阳市,开发区,颗粒物(PM10),106,161,144,65,50,60,,79,70,40,36,12,11,0.8,0.8
2023-11-28T2200,2875A,115.784,32.8892,阜阳市,阜阳职业技术学院,细颗粒物(PM2.5),93,131,115,69,54,61,,76,70,34,30,10,8,0.6,0.6
2023-11-28T2200,3468A,115.7901,32.8613,阜阳市,市规划展馆,细颗粒物(PM2.5),95,134,119,71,54,50,,77,64,41,31,9,7,0.9,0.7
2023-11-28T2200,3469A,115.836,32.9183,阜阳市,枣园社区,细颗粒物(PM2.5),87,119,116,64,54,48,,78,67,43,36,8,9,0.7,0.7
2023-11-28T2200,2669A,102.9099,34.9841,甘南州,州政府,颗粒物(PM10),56,61,57,30,35,32,,55,51,30,33,19,21,0.6,0.7
2023-11-28T2200,3380A,102.8914,34.9617,甘南州,甘肃民族师范学院,颗粒物(PM10),52,54,47,18,23,14,,62,54,54,40,12,12,0.6,0.5
2023-11-28T2200,2570A,101.9603,30.0475,甘孜藏族自治州,水桥子,,34,34,34,15,13,4,,37,24,51,35,9,9,0.6,0.4
2023-11-28T2200,3065A,101.9533,29.9972,甘孜藏族自治州,州环保局,,20,20,25,2,5,35,,56,38,20,18,8,8,0.4,0.3
2023-11-28T2200,3414A,115.8347,28.932,赣江新区,桑海产业园,,,92,69,28,39,24,,94,81,,42,4,5,0.7,0.9
2023-11-28T2200,2363A,114.9367,25.8664,赣州市,地委,颗粒物(PM10),86,122,69,41,34,4,,105,60,67,29,8,13,1.2,1
2023-11-28T2200,2364A,114.9461,25.8481,赣州市,气象台,颗粒物(PM10),67,84,60,45,36,3,,102,56,80,42,16,14,1.1,1
2023-11-28T2200,2365A,114.9322,25.8333,赣州市,市图书馆,颗粒物(PM10),68,86,69,45,35,3,,99,62,83,43,11,14,1.4,1.2
2023-11-28T2200,2366A,114.8905,25.8471,赣州市,华坚鞋城,颗粒物(PM10),93,136,80,52,39,6,,84,48,90,43,16,22,1.9,1.3
2023-11-28T2200,3109A,115.0093,25.8613,赣州市,赣县区卫计委,颗粒物(PM10),65,80,61,41,35,23,,83,59,50,36,10,10,0.9,0.9
2023-11-28T2200,2683A,106.2319,36.1417,固原市,马园,颗粒物(PM10),78,106,73,37,24,31,,85,54,44,31,10,6,0.7,0.6
2023-11-28T2200,2684A,106.2792,36.0022,固原市,监测站,颗粒物(PM10),66,81,56,29,17,55,,88,66,30,23,9,5,0.5,0.5
2023-11-28T2200,2685A,106.2375,36.0211,固原市,新区,颗粒物(PM10),63,75,52,26,16,48,,81,59,24,24,8,4,0.5,0.4
2023-11-28T2200,3522A,106.2177,35.9959,固原市,原州区十五小,颗粒物(PM10),64,78,53,28,18,54,,88,68,26,17,8,5,0.3,0.2
2023-11-28T2200,2544A,106.6303,30.4576,广安市,市委,细颗粒物(PM2.5),63,66,75,45,49,46,,67,62,18,27,9,10,0.6,0.8
2023-11-28T2200,2545A,106.6271,30.4663,广安市,友谊中学,颗粒物(PM10),61,71,73,43,47,42,,65,59,23,26,7,8,0.7,0.8
2023-11-28T2200,2547A,106.6388,30.4551,广安市,广电花园,细颗粒物(PM2.5),62,71,71,44,49,46,,65,60,18,26,9,9,0.6,0.7
2023-11-28T2200,2902A,106.6351,30.4865,广安市,北辰小学,细颗粒物(PM2.5),62,68,68,44,41,44,,65,58,19,23,9,10,0.5,0.6
2023-11-28T2200,2523A,105.8945,32.4535,广元市,黑石坡,,45,,20,31,19,57,,58,58,19,23,8,8,0.5,0.6
2023-11-28T2200,2524A,105.821,32.4444,广元市,老城,细颗粒物(PM2.5),70,85,55,51,26,3,,25,15,54,40,3,3,0.9,0.9
2023-11-28T2200,2526A,105.8628,32.4287,广元市,监测站,,45,45,45,24,29,32,,23,23,21,30,4,6,0.6,1.1
2023-11-28T2200,3617A,105.8047,32.4166,广元市,经开区,细颗粒物(PM2.5),65,66,70,47,49,5,,24,14,44,40,3,6,0.7,0.9
2023-11-28T2200,1345A,113.2347,23.1423,广州市,广雅中学,细颗粒物(PM2.5),84,109,70,62,39,21,,120,98,124,49,8,7,1.3,1
2023-11-28T2200,1346A,113.2612,23.105,广州市,市五中,细颗粒物(PM2.5),93,113,65,69,39,22,,133,114,128,37,10,9,1.2,0.8
2023-11-28T2200,1348A,113.3478,23.0916,广州市,广东商学院,,,121,66,71,40,,,136,136,154,46,8,7,1.1,0.6
2023-11-28T2200,1349A,113.4332,23.1047,广州市,市八十六中,颗粒物(PM10),95,140,76,66,41,5,,123,84,127,57,6,7,1.2,0.6
2023-11-28T2200,1351A,113.2146,23.3916,广州市,花都师范,细颗粒物(PM2.5),82,110,58,60,33,44,,127,111,84,31,7,8,0.8,0.6
2023-11-28T2200,1352A,113.2597,23.1331,广州市,市监测站,细颗粒物(PM2.5),100,117,63,75,42,4,,127,108,160,49,6,6,1.4,0.9
2023-11-28T2200,1353A,113.5618,23.312,广州市,九龙镇镇龙,颗粒物(PM10),95,140,73,52,39,1,,93,,70,40,6,7,0.8,0.7
2023-11-28T2200,1354A,113.2765,23.1544,广州市,麓湖,细颗粒物(PM2.5),74,74,51,54,33,13,,109,73,117,39,6,6,0.9,0.6
2023-11-28T2200,1355A,113.443,23.3035,广州市,帽峰山森林公园,,49,49,43,33,30,128,,135,134,17,13,9,9,0.5,0.4
2023-11-28T2200,2846A,113.3221,23.1322,广州市,体育西,细颗粒物(PM2.5),93,113,67,69,39,13,,127,104,112,35,8,8,1.2,0.7
2023-11-28T2200,3298A,113.5717,23.5491,广州市,从化街口,细颗粒物(PM2.5),82,87,52,60,36,2,,114,72,66,28,4,5,1.0,0.7
2023-11-28T2200,3299A,113.3472,23.3692,广州市,白云竹料,细颗粒物(PM2.5),129,164,64,98,38,7,,130,83,86,38,6,7,1.0,0.8
2023-11-28T2200,3300A,113.2981,23.237,广州市,白云嘉禾,颗粒物(PM10),92,134,74,61,40,6,,111,72,120,57,8,8,1.2,0.8
2023-11-28T2200,3301A,113.4256,23.1716,广州市,黄埔科学城,细颗粒物(PM2.5),64,76,52,46,34,10,,86,,90,37,5,6,0.9,0.8
2023-11-28T2200,3302A,113.3942,23.0483,广州市,番禺大学城,细颗粒物(PM2.5),92,121,67,68,40,85,,159,147,66,49,9,10,0.7,0.6
2023-11-28T2200,3303A,113.4922,22.8168,广州市,南沙黄阁,颗粒物(PM10),78,106,88,51,47,87,,171,150,77,53,5,10,1.0,0.8
2023-11-28T2200,3304A,113.5342,22.7896,广州市,南沙街,细颗粒物(PM2.5),74,82,72,54,43,113,,177,168,34,39,8,10,0.8,0.8
2023-11-28T2200,3443A,113.2902,23.5544,广州市,花都梯面,细颗粒物(PM2.5),53,53,44,37,30,12,,123,76,62,24,5,8,0.6,0.6
2023-11-28T2200,3445A,113.7858,23.7478,广州市,从化良口,,29,24,36,20,27,69,,104,93,18,9,3,3,0.6,0.6
2023-11-28T2200,3446A,113.8051,23.2614,广州市,增城荔城,颗粒物(PM10),65,79,54,46,32,53,,116,78,26,17,6,8,0.7,0.6
2023-11-28T2200,2505A,109.568,23.1478,贵港市,德智高中,颗粒物(PM10),52,53,58,23,38,92,,116,111,33,19,11,8,0.7,0.7
2023-11-28T2200,2506A,109.6047,23.0666,贵港市,江南子站,颗粒物(PM10),71,92,87,51,49,57,,118,98,45,34,14,9,1.0,0.9
2023-11-28T2200,2507A,109.6014,23.0948,贵港市,贵城子站,细颗粒物(PM2.5),64,56,64,46,51,80,,116,102,29,27,12,12,0.8,0.8
2023-11-28T2200,2508A,109.5669,23.1065,贵港市,荷城子站,细颗粒物(PM2.5),73,80,70,53,43,56,,115,92,36,19,11,12,0.7,0.6
2023-11-28T2200,3405A,109.5886,23.1172,贵港市,新世纪学校,,,75,70,43,44,,,111,92,31,21,12,11,0.7,0.8
2023-11-28T2200,1439A,106.6899,26.5998,贵阳市,马鞍山,,39,39,38,22,19,86,,101,96,13,15,8,5,0.6,0.7
2023-11-28T2200,1440A,106.6971,26.5694,贵阳市,市环保站,,48,48,64,22,34,65,,86,80,24,34,9,10,0.1,0.6
2023-11-28T2200,1441A,106.6243,26.6266,贵阳市,鉴湖路,,48,48,53,17,19,76,,90,84,12,28,6,6,0.3,0.5
2023-11-28T2200,1442A,106.7487,26.6343,贵阳市,燕子冲,,44,44,45,19,24,72,,92,84,18,17,10,8,0.3,0.5
2023-11-28T2200,1443A,106.6555,26.4365,贵阳市,碧云窝,颗粒物(PM10),51,51,46,14,17,74,,95,88,13,14,9,6,0.5,0.6
2023-11-28T2200,1444A,106.694,26.5161,贵阳市,中院村,,48,48,63,24,32,55,,77,68,25,31,12,15,0.3,0.6
2023-11-28T2200,1445A,106.7109,26.6027,贵阳市,红边门,颗粒物(PM10),54,58,63,14,29,54,,83,71,34,37,9,8,0.3,0.6
2023-11-28T2200,1446A,106.7164,26.5699,贵阳市,新华路,,46,46,59,27,28,68,,90,80,22,31,9,8,0.5,0.6
2023-11-28T2200,1447A,106.674,26.5424,贵阳市,太慈桥,,48,48,41,22,20,71,,91,82,15,18,8,5,0.4,0.5
2023-11-28T2200,1862A,110.4144,25.3167,桂林市,电子科大尧山校区,颗粒物(PM10),57,63,58,33,33,51,,110,88,13,10,6,14,0.5,0.5
2023-11-28T2200,1863A,110.2819,25.2697,桂林市,监测站,颗粒物(PM10),73,96,68,42,40,54,,116,72,31,25,14,13,1.0,0.9
2023-11-28T2200,1864A,110.3089,25.2708,桂林市,龙隐路小学,"颗粒物(PM10),细颗粒物(PM2.5)",65,80,55,47,44,10,,112,77,67,21,10,14,1.1,0.7
2023-11-28T2200,1865A,110.2869,25.2178,桂林市,八中,,,,63,,43,,,103,86,48,26,7,10,0.9,0.8
2023-11-28T2200,3403A,110.1764,25.2381,桂林市,创业大厦,细颗粒物(PM2.5),73,90,63,53,44,3,,109,73,77,26,17,14,0.7,0.6
2023-11-28T2200,3531A,110.296,25.1253,桂林市,旅游学院,细颗粒物(PM2.5),94,95,62,70,42,16,,114,88,54,27,6,9,0.8,0.7
2023-11-28T2200,2674A,100.2561,34.4714,果洛藏族自治州,玛沁县大武镇,,22,20,30,11,12,70,,74,71,9,15,12,17,0.4,0.5
2023-11-28T2200,1129A,126.5422,45.755,哈尔滨市,岭北,,46,37,61,32,58,55,,58,55,16,22,10,14,0.6,0.3
2023-11-28T2200,1130A,126.561,45.8167,哈尔滨市,松北商大,细颗粒物(PM2.5),63,54,62,45,53,43,,51,44,27,31,6,7,0.6,0.8
2023-11-28T2200,1131A,126.979,45.5419,哈尔滨市,阿城会宁,细颗粒物(PM2.5),107,87,86,80,81,44,,56,50,28,33,7,9,0.8,0.7
2023-11-28T2200,1132A,126.599,45.7222,哈尔滨市,南岗学府路,颗粒物(PM10),65,79,79,36,50,31,,46,31,42,35,12,15,0.7,0.7
2023-11-28T2200,1133A,126.689,45.7733,哈尔滨市,太平宏伟公园,,49,48,58,34,45,36,,48,39,39,32,15,13,0.6,0.6
2023-11-28T2200,1134A,126.635,45.7667,哈尔滨市,道外承德广场,细颗粒物(PM2.5),60,59,71,43,48,25,,47,30,48,35,9,6,0.8,0.9
2023-11-28T2200,1135A,126.685,45.7319,哈尔滨市,香坊红旗大街,细颗粒物(PM2.5),73,54,58,53,51,24,,53,37,59,34,16,18,0.8,0.7
2023-11-28T2200,1136A,126.6411,45.7258,哈尔滨市,动力和平路,细颗粒物(PM2.5),72,57,67,52,53,25,,44,32,48,34,11,11,0.6,0.8
2023-11-28T2200,1137A,126.593,45.7478,哈尔滨市,道里建国路,细颗粒物(PM2.5),72,63,64,52,59,33,,49,39,46,39,8,8,0.6,0.4
2023-11-28T2200,1138A,126.615,45.61,哈尔滨市,平房东轻厂,细颗粒物(PM2.5),89,77,71,66,62,37,,48,34,39,39,6,8,1.0,0.9
2023-11-28T2200,1139A,126.595,45.9855,哈尔滨市,呼兰师专,,49,49,81,34,68,52,,64,56,21,26,3,2,0.9,1
2023-11-28T2200,1140A,126.6206,45.6842,哈尔滨市,省农科院,细颗粒物(PM2.5),75,76,76,55,61,12,,50,30,80,40,12,13,0.8,0.7
2023-11-28T2200,2688A,93.5128,42.8172,哈密地区,地区监测站,,,82,74,37,27,,,54,50,80,42,8,6,1.0,0.6
2023-11-28T2200,2689A,93.4961,42.8328,哈密地区,哈密师范学校,颗粒物(PM10),84,118,81,40,27,6,,53,35,86,45,7,8,1.1,0.7
2023-11-28T2200,2671A,100.9048,36.9639,海北藏族自治州,海晏县西海镇,,27,27,26,14,9,53,,80,77,12,6,13,9,0.4,0.8
2023-11-28T2200,3867A,102.0738,36.5056,海东地区,平安区公安北苑,颗粒物(PM10),60,70,77,35,40,56,,42,42,27,35,25,31,0.7,1.1
2023-11-28T2200,1410A,110.3232,20.0574,海口市,海南大学,"颗粒物(PM10),细颗粒物(PM2.5)",52,53,63,36,46,153,,173,170,11,18,8,9,0.6,0.7
2023-11-28T2200,1411A,110.283,20.0053,海口市,秀英海南医院,"颗粒物(PM10),细颗粒物(PM2.5),臭氧1小时",52,54,69,36,51,161,,178,176,10,27,8,9,0.5,0.6
2023-11-28T2200,1412A,110.338,19.9969,海口市,海南师范大学,"颗粒物(PM10),细颗粒物(PM2.5)",54,58,64,38,53,149,,170,167,11,15,6,8,0.6,0.6
2023-11-28T2200,1413A,110.33,20.0356,海口市,龙华路环保局宿舍,"颗粒物(PM10),细颗粒物(PM2.5)",52,53,62,36,46,154,,171,168,10,15,8,10,0.5,0.6
2023-11-28T2200,3539A,110.5111,19.9736,海口市,桂林洋子站,细颗粒物(PM2.5),52,49,65,36,48,129,,165,158,13,21,4,5,0.5,0.6
2023-11-28T2200,2673A,100.6188,36.2866,海南藏族自治州,共和县恰卜恰镇,颗粒物(PM10),61,72,29,13,22,6,,46,41,50,36,15,7,1.8,1.7
2023-11-28T2200,2676A,97.3731,37.3753,海西蒙古族藏族自治州,德令哈市,颗粒物(PM10),64,78,50,22,13,26,,60,49,28,17,15,14,0.7,0.4
2023-11-28T2200,1048A,114.5302,36.6116,邯郸市,东污水处理厂,细颗粒物(PM2.5),122,155,92,92,48,3,,50,30,73,39,5,5,0.8,0.5
2023-11-28T2200,1049A,114.4918,36.5713,邯郸市,矿院,细颗粒物(PM2.5),109,109,79,82,45,0,,42,28,73,38,1,2,0.7,0.5
2023-11-28T2200,1050A,114.484,36.6133,邯郸市,丛台公园,细颗粒物(PM2.5),98,122,78,73,40,7,,57,42,78,38,4,3,0.8,0.6
2023-11-28T2200,3458A,114.7895,36.5593,邯郸市,香泉濮院小区,颗粒物(PM10),103,155,99,66,46,13,,59,41,67,36,10,9,0.6,0.5
2023-11-28T2200,3579A,114.50634,36.77178,邯郸市,永年区实验高中,细颗粒物(PM2.5),110,152,113,83,49,0,,54,29,72,43,8,10,0.8,0.6
2023-11-28T2200,3580A,114.20016,36.44293,邯郸市,峰峰矿区临水派出所,颗粒物(PM10),84,117,85,55,33,34,,57,51,35,21,8,7,0.7,0.5
2023-11-28T2200,2634A,106.9893,33.1842,汉中市,汉川机床厂子校,细颗粒物(PM2.5),73,77,62,53,40,7,,29,22,28,20,8,17,1.3,1.1
2023-11-28T2200,2635A,107.0154,33.0706,汉中市,市监测站,细颗粒物(PM2.5),114,107,96,86,78,9,,20,18,53,39,11,13,1.5,1.6
2023-11-28T2200,2636A,107.0089,33.1138,汉中市,鑫源开发区,细颗粒物(PM2.5),114,93,94,86,70,8,,33,21,44,37,10,19,1.3,1.5
2023-11-28T2200,2637A,107.007,33.0323,汉中市,南郑大河坎水厂,细颗粒物(PM2.5),142,141,94,108,73,11,,26,20,44,32,11,13,2.0,1.5
2023-11-28T2200,1223A,120.2072,30.2111,杭州市,滨江,细颗粒物(PM2.5),108,163,91,81,43,10,,77,49,96,57,13,9,0.9,0.8
2023-11-28T2200,1224A,120.0633,30.2747,杭州市,西溪,细颗粒物(PM2.5),62,72,58,44,33,4,,85,55,48,39,5,6,0.7,0.7
2023-11-28T2200,1226A,120.3461,30.3153,杭州市,下沙,细颗粒物(PM2.5),118,178,96,89,44,23,,79,51,87,63,14,10,1.0,0.8
2023-11-28T2200,1227A,120.1269,30.2456,杭州市,卧龙桥,颗粒物(PM10),74,97,59,39,28,12,,74,46,42,31,8,7,0.7,0.6
2023-11-28T2200,1228A,120.1903,30.2692,杭州市,浙江农大,细颗粒物(PM2.5),115,142,78,87,41,27,,74,51,74,48,13,8,0.8,0.8
2023-11-28T2200,1230A,120.1197,30.3119,杭州市,和睦小学,细颗粒物(PM2.5),92,127,83,68,44,17,,67,48,94,56,12,10,0.9,0.8
2023-11-28T2200,1231A,120.3019,30.4183,杭州市,临平镇,颗粒物(PM10),100,149,95,73,40,17,,74,46,76,52,6,7,0.9,0.7
2023-11-28T2200,1232A,120.2697,30.1819,杭州市,城厢镇,细颗粒物(PM2.5),103,154,87,77,45,9,,72,46,111,66,8,6,0.7,0.6
2023-11-28T2200,1233A,120.0883,30.1808,杭州市,云栖,颗粒物(PM10),89,127,75,45,28,12,,74,49,45,31,6,6,0.8,0.7
2023-11-28T2200,3557A,119.9464,30.0494,杭州市,镇二中,颗粒物(PM10),80,109,71,57,40,4,,78,50,79,48,6,6,0.8,0.6
2023-11-28T2200,3558A,119.7183,30.2367,杭州市,市府大楼,颗粒物(PM10),88,126,72,60,38,18,,87,62,59,37,5,6,0.9,0.7
2023-11-28T2200,3656A,120.1556,30.2864,杭州市,消防大队,细颗粒物(PM2.5),102,135,78,76,40,23,,75,55,90,56,12,9,0.8,0.7
2023-11-28T2200,1270A,117.1959,31.7848,合肥市,明珠广场,颗粒物(PM10),98,146,134,68,59,58,,75,68,45,46,10,7,0.7,0.7
2023-11-28T2200,1271A,117.3072,31.8764,合肥市,三里街,细颗粒物(PM2.5),98,144,137,73,62,32,,62,53,72,55,9,9,0.8,0.7
2023-11-28T2200,1272A,117.2588,31.8707,合肥市,琥珀山庄,颗粒物(PM10),90,129,128,61,60,63,,79,73,46,46,8,7,0.7,0.7
2023-11-28T2200,1273A,117.1604,31.9052,合肥市,董铺水库,颗粒物(PM10),95,140,142,56,51,86,,107,102,34,33,10,6,0.6,0.5
2023-11-28T2200,1274A,117.25,31.8571,合肥市,长江中路,细颗粒物(PM2.5),90,124,132,67,64,58,,76,72,42,42,14,11,0.7,0.8
2023-11-28T2200,1275A,117.266,31.9436,合肥市,庐阳区,颗粒物(PM10),102,153,140,68,58,51,,66,57,54,50,8,7,0.9,0.9
2023-11-28T2200,1276A,117.336,31.8586,合肥市,瑶海区,细颗粒物(PM2.5),100,146,151,75,69,23,,64,46,83,61,5,6,0.6,0.7
2023-11-28T2200,1277A,117.3027,31.7964,合肥市,包河区,细颗粒物(PM2.5),92,127,134,68,65,31,,82,68,74,57,16,14,0.8,0.7
2023-11-28T2200,1278A,117.2776,31.7385,合肥市,滨湖新区,颗粒物(PM10),96,141,144,63,60,70,,86,81,37,50,13,8,0.8,0.8
2023-11-28T2200,1279A,117.1318,31.8403,合肥市,高新区,颗粒物(PM10),92,134,131,59,55,66,,73,70,44,46,12,11,0.8,0.8
2023-11-28T2200,3464A,117.3803,31.9147,合肥市,高教基地,颗粒物(PM10),93,135,126,68,53,53,,83,72,50,43,7,5,0.7,0.6
2023-11-28T2200,3614A,79.924,37.0877,和田地区,地区环保局,颗粒物(PM10),120,189,183,74,59,58,,101,94,49,32,18,16,1.2,1
2023-11-28T2200,3615A,79.9131,37.113,和田地区,市环保局,颗粒物(PM10),98,145,204,61,85,55,,94,88,53,59,10,16,0.6,3
2023-11-28T2200,2516A,108.2011,24.715,河池市,东仁乐园,细颗粒物(PM2.5),59,66,47,42,33,20,,66,54,18,13,4,5,0.7,0.6
2023-11-28T2200,2517A,108.0497,24.6947,河池市,市环保站,颗粒物(PM10),73,96,59,44,33,21,,92,72,47,27,8,9,0.9,0.9
2023-11-28T2200,2518A,108.0983,24.6989,河池市,市疾控中心,颗粒物(PM10),86,122,81,62,44,6,,87,63,55,34,7,8,0.8,0.7
2023-11-28T2200,1696A,114.6778,23.7569,河源市,源西,颗粒物(PM10),61,72,53,40,31,8,,101,63,74,32,4,6,1.0,0.8
2023-11-28T2200,1697A,114.6944,23.7586,河源市,东埔,细颗粒物(PM2.5),74,92,59,54,34,16,,104,70,54,24,6,8,1.1,0.8
2023-11-28T2200,1698A,114.6892,23.7233,河源市,老城,细颗粒物(PM2.5),54,51,51,38,31,38,,107,84,34,15,5,7,0.6,0.6
2023-11-28T2200,1718A,115.4208,35.2464,菏泽市,气象局,细颗粒物(PM2.5),120,181,150,91,74,7,,67,45,83,48,4,4,0.9,0.6
2023-11-28T2200,1719A,115.4747,35.2375,菏泽市,市政协,细颗粒物(PM2.5),138,185,138,105,72,13,,60,43,73,50,5,3,0.8,0.6
2023-11-28T2200,3374A,115.5564,35.0891,菏泽市,定陶老年大学,细颗粒物(PM2.5),140,178,138,107,78,17,,65,49,62,42,18,7,0.7,0.6
2023-11-28T2200,3647A,115.4702,35.2706,菏泽市,菏泽医专,细颗粒物(PM2.5),110,167,153,83,76,7,,61,40,88,56,11,8,0.9,0.8
2023-11-28T2200,2514A,111.5264,24.4172,贺州市,环保小区,细颗粒物(PM2.5),90,101,67,67,46,31,,108,84,40,24,7,8,0.9,0.8
2023-11-28T2200,2515A,111.5608,24.4078,贺州市,政协大楼,细颗粒物(PM2.5),92,115,68,68,46,25,,106,71,51,32,8,7,0.7,0.6
2023-11-28T2200,3534A,111.4744,24.4553,贺州市,西湾,细颗粒物(PM2.5),78,90,74,57,46,38,,112,84,35,25,10,9,1.0,0.9
2023-11-28T2200,2385A,114.17,35.9019,鹤壁市,市监测站,颗粒物(PM10),136,222,143,102,64,1,,53,31,63,44,8,10,0.9,0.6
2023-11-28T2200,2386A,114.2956,35.7511,鹤壁市,市交警支队,细颗粒物(PM2.5),100,140,114,75,59,3,,55,32,71,51,7,5,0.7,0.5
2023-11-28T2200,2387A,114.2878,35.7306,鹤壁市,迎宾馆,细颗粒物(PM2.5),97,123,101,72,52,1,,56,32,72,47,11,10,1.0,0.7
2023-11-28T2200,3474A,114.2617,35.6822,鹤壁市,大新区,"颗粒物(PM10),细颗粒物(PM2.5)",87,123,102,64,55,4,,54,27,68,50,6,6,0.7,0.5
2023-11-28T2200,3596A,114.1572,35.9603,鹤壁市,南山宾馆,颗粒物(PM10),106,161,113,77,48,22,,59,42,50,36,30,10,1.0,0.8
2023-11-28T2200,2244A,130.2537,47.3416,鹤岗市,哈啤分公司,,35,27,26,24,20,62,,65,63,9,8,15,13,0.3,0.3
2023-11-28T2200,2245A,130.2684,47.3086,鹤岗市,斯达机电,,30,30,34,20,24,64,,62,59,10,16,12,11,0,0.3
2023-11-28T2200,2246A,130.3114,47.3388,鹤岗市,东山纸板厂,,38,37,61,26,27,59,,65,60,11,24,16,14,0.5,0.6
2023-11-28T2200,2247A,130.1097,47.3382,鹤岗市,五号水库,,39,27,29,27,20,69,,70,70,6,13,11,10,0.2,0.5
2023-11-28T2200,2263A,127.4833,50.2524,黑河市,交通局,,35,24,16,24,16,53,,67,57,10,6,1,6,0.3,0.4
2023-11-28T2200,2264A,127.5144,50.2341,黑河市,环保局,,22,,12,15,13,64,,68,60,6,7,2,3,0.1,0.2
2023-11-28T2200,2265A,127.5291,50.2472,黑河市,大黑河岛,,,,13,24,11,42,,36,36,,2,5,8,1.3,0.8
2023-11-28T2200,1074A,115.6838,37.7541,衡水市,电机北厂,颗粒物(PM10),63,76,37,36,18,1,,56,24,54,28,14,8,0.6,0.4
2023-11-28T2200,1075A,115.6303,37.7316,衡水市,市监测站,颗粒物(PM10),59,68,36,35,13,0,,55,26,59,22,13,8,0.6,0.4
2023-11-28T2200,3188A,115.6683,37.7217,衡水市,市城管局,细颗粒物(PM2.5),67,70,35,48,17,0,,54,26,64,29,15,6,0.6,0.4
2023-11-28T2200,3459A,115.5989,37.5491,衡水市,地表水厂,颗粒物(PM10),51,51,41,31,14,6,,62,29,51,23,6,4,0.6,0.3
2023-11-28T2200,2456A,112.5003,26.9167,衡阳市,原169医院,细颗粒物(PM2.5),85,111,75,63,47,18,,99,78,69,32,6,8,1.3,1
2023-11-28T2200,2457A,112.6194,26.9258,衡阳市,衡阳化工总厂,细颗粒物(PM2.5),99,89,86,74,65,74,,120,103,27,33,12,8,0.8,0.8
2023-11-28T2200,2458A,112.6211,26.8956,衡阳市,珠晖区环保局,细颗粒物(PM2.5),165,138,87,125,67,20,,110,86,73,43,11,11,1.1,0.9
2023-11-28T2200,2459A,112.6197,26.8733,衡阳市,市委党校,细颗粒物(PM2.5),115,135,96,87,63,17,,128,100,68,32,12,12,1.3,1.2
2023-11-28T2200,2460A,112.6006,26.8919,衡阳市,市监测站,细颗粒物(PM2.5),145,152,97,111,71,7,,102,70,85,47,8,10,1.8,1.2
2023-11-28T2200,2461A,112.5664,26.9056,衡阳市,真空机电公司,,,,84,,69,17,,96,80,90,48,10,14,1.7,1.2
2023-11-28T2200,3399A,112.6703,26.882,衡阳市,师范学院,细颗粒物(PM2.5),108,113,86,81,64,40,,113,89,42,32,11,9,1.2,1
2023-11-28T2200,2608A,103.3772,23.3993,红河州,污水处理厂,细颗粒物(PM2.5),55,48,49,39,39,94,,92,90,7,10,7,17,0.6,0.6
2023-11-28T2200,2609A,103.3861,23.35,红河州,监测站,细颗粒物(PM2.5),60,55,46,43,32,87,,94,87,15,12,13,9,0.9,0.8
2023-11-28T2200,3038A,103.3758,23.368,红河州,州图书馆,细颗粒物(PM2.5),53,49,45,37,32,88,,88,83,8,10,7,8,0.5,0.6
2023-11-28T2200,1090A,111.6507,40.7517,呼和浩特市,呼市一监,,22,7,33,3,14,69,,61,61,6,18,5,10,0.4,0.6
2023-11-28T2200,1091A,111.6572,40.8033,呼和浩特市,小召,,22,7,29,5,10,68,,63,63,13,22,6,9,0.2,0.4
2023-11-28T2200,1094A,111.7516,40.8369,呼和浩特市,如意水处理厂,,22,5,23,2,10,70,,58,58,8,28,8,10,0.2,0.4
2023-11-28T2200,1095A,111.7276,40.8062,呼和浩特市,二十九中,,23,6,27,2,11,71,,60,60,5,21,8,10,0.2,0.4
2023-11-28T2200,1096A,111.5512,40.7866,呼和浩特市,工大金川校区,,19,10,27,3,10,58,,55,55,12,26,6,11,0.4,0.5
2023-11-28T2200,1097A,111.717,40.7612,呼和浩特市,化肥厂生活区,,22,8,32,3,13,70,,60,60,8,21,7,10,0.3,0.5
2023-11-28T2200,3698A,111.5968,40.8178,呼和浩特市,红旗小学,,21,7,27,3,10,67,,60,60,10,32,7,11,0.4,0.5
2023-11-28T2200,3699A,111.6518,40.8389,呼和浩特市,海东办,,19,7,22,5,8,59,,60,60,16,29,5,11,0.2,0.4
2023-11-28T2200,2192A,119.7594,49.2261,呼伦贝尔市,区环保局,,33,33,27,10,16,59,,54,54,14,23,5,5,0.4,0.5
2023-11-28T2200,3061A,119.7512,49.1577,呼伦贝尔市,国华电力东,,25,25,29,11,18,66,,64,64,6,10,5,4,0.1,0.2
2023-11-28T2200,1250A,120.0751,30.8669,湖州市,城西水厂,细颗粒物(PM2.5),108,164,117,81,60,7,,95,56,103,64,9,12,0.9,0.8
2023-11-28T2200,2873A,120.0875,30.8955,湖州市,仁皇山新区,细颗粒物(PM2.5),113,151,122,85,65,23,,111,65,92,59,10,12,0.9,0.9
2023-11-28T2200,2907A,120.1844,30.8596,湖州市,吴兴区站,颗粒物(PM10),100,149,117,74,61,13,,90,66,107,49,8,11,0.9,0.8
2023-11-28T2200,3562A,120.4148,30.8538,湖州市,南浔区站,细颗粒物(PM2.5),115,163,129,87,69,28,,76,56,79,50,8,11,0.8,0.8
2023-11-28T2200,1607A,120.9092,40.7136,葫芦岛市,龙港区,细颗粒物(PM2.5),78,96,52,57,28,10,,62,33,72,31,28,23,1.2,0.9
2023-11-28T2200,1608A,120.8392,40.7514,葫芦岛市,化工街,颗粒物(PM10),71,92,44,44,22,8,,63,29,60,33,16,12,1.3,0.8
2023-11-28T2200,1609A,120.8341,40.7073,葫芦岛市,新区,细颗粒物(PM2.5),108,124,30,81,19,10,,68,42,70,30,22,13,1.6,0.8
2023-11-28T2200,1610A,120.8695,40.7677,葫芦岛市,东城区,颗粒物(PM10),67,84,46,42,30,9,,65,33,70,36,18,17,0.9,0.7
2023-11-28T2200,2482A,109.5981,27.5721,怀化市,林科所,细颗粒物(PM2.5),53,53,41,37,32,15,,41,35,4,4,3,3,1.0,0.8
2023-11-28T2200,2483A,109.9453,27.5444,怀化市,河西地税局,细颗粒物(PM2.5),63,52,41,45,35,8,,42,28,14,15,2,4,0.8,0.8
2023-11-28T2200,2484A,109.9781,27.5342,怀化市,市四医院,细颗粒物(PM2.5),68,61,42,49,34,0,,33,20,34,23,4,4,0.9,0.8
2023-11-28T2200,2485A,109.9972,27.5578,怀化市,监测楼,细颗粒物(PM2.5),62,72,48,44,31,7,,40,28,28,25,3,3,0.8,0.9
2023-11-28T2200,2486A,110.0394,27.583,怀化市,市委党校,细颗粒物(PM2.5),109,,54,82,57,2,,37,23,26,24,9,18,1.2,0.9
2023-11-28T2200,1210A,119.036,33.5981,淮安市,钵池山,颗粒物(PM10),67,83,116,41,84,38,,70,57,42,38,7,8,0.5,0.8
2023-11-28T2200,1211A,119.007,33.575,淮安市,北京南路,颗粒物(PM10),64,78,123,42,89,47,,77,60,35,41,7,7,0.6,1
2023-11-28T2200,1212A,118.989,33.6067,淮安市,市监测站,颗粒物(PM10),68,85,130,44,86,50,,71,64,36,39,7,6,0.4,0.8
2023-11-28T2200,1213A,119.135,33.5039,淮安市,楚州区监测站,颗粒物(PM10),67,83,125,33,81,36,,72,54,32,36,6,7,0.7,1
2023-11-28T2200,1214A,119.0186,33.6297,淮安市,淮阴区监测站,颗粒物(PM10),79,107,148,46,92,46,,72,58,35,42,6,6,0.5,0.8
2023-11-28T2200,3426A,118.8755,33.2894,淮安市,新华书店,颗粒物(PM10),64,77,136,27,80,38,,70,58,39,36,11,16,0.5,0.8
2023-11-28T2200,2282A,116.8004,33.975,淮北市,监测站,颗粒物(PM10),90,129,134,65,64,64,,74,71,29,34,6,8,0.6,0.8
2023-11-28T2200,2283A,116.8091,33.9007,淮北市,烈山区政府,"颗粒物(PM10),细颗粒物(PM2.5)",92,133,136,68,61,56,,84,77,50,35,11,9,0.5,0.5
2023-11-28T2200,3330A,116.8873,33.9836,淮北市,杜集区检察院,,,121,141,64,63,79,,83,82,13,24,7,8,,0.6
2023-11-28T2200,4017A,116.7923,33.9535,淮北市,市博物馆,细颗粒物(PM2.5),94,127,127,70,62,68,,82,77,24,32,8,9,0.6,0.7
2023-11-28T2200,2277A,116.8305,32.7727,淮南市,潘集区政府,细颗粒物(PM2.5),104,143,146,78,73,74,,77,70,30,35,16,13,0.8,0.6
2023-11-28T2200,2278A,117.0067,32.6524,淮南市,师范学院,细颗粒物(PM2.5),127,167,149,96,68,81,,87,83,29,32,14,14,0.8,0.8
2023-11-28T2200,2279A,116.8569,32.5951,淮南市,谢家集区政府,细颗粒物(PM2.5),110,155,139,83,60,81,,83,75,38,35,19,12,0.6,0.5
2023-11-28T2200,2280A,116.8281,32.633,淮南市,八公山区政府,细颗粒物(PM2.5),97,135,134,72,54,78,,86,80,28,29,14,11,0.7,0.6
2023-11-28T2200,2281A,116.6325,32.6201,淮南市,焦岗湖风景区管理处,颗粒物(PM10),86,121,118,56,54,66,,79,72,21,23,3,3,0.5,0.3
2023-11-28T2200,2894A,117.0566,32.6531,淮南市,经济技术开发区消防队,细颗粒物(PM2.5),100,129,138,75,65,73,,86,78,29,29,9,8,0.6,0.6
2023-11-28T2200,3329A,117.0108,32.5893,淮南市,山南新区,颗粒物(PM10),104,157,157,72,68,84,,90,85,25,29,7,10,0.6,0.6
2023-11-28T2200,2446A,114.9028,30.4742,黄冈市,职工中心,细颗粒物(PM2.5),77,97,103,56,67,73,,106,96,28,24,12,11,0.8,1
2023-11-28T2200,2929A,114.8858,30.4519,黄冈市,红卫路,细颗粒物(PM2.5),79,100,101,58,69,72,,106,98,33,29,8,6,0.8,0.9
2023-11-28T2200,3398A,114.9136,30.4445,黄冈市,市林业局,细颗粒物(PM2.5),79,88,91,58,66,69,,105,96,35,30,7,7,0.7,0.9
2023-11-28T2200,2672A,102.0199,35.5102,黄南藏族自治州,同仁县隆务镇,,44,44,39,15,15,50,,55,52,13,12,11,11,0.3,0.3
2023-11-28T2200,2295A,118.2903,29.6963,黄山市,延安路89号,细颗粒物(PM2.5),57,56,52,40,32,25,,85,65,16,17,5,5,0.4,0.4
2023-11-28T2200,2296A,118.327,29.7178,黄山市,黄山东路89号,颗粒物(PM10),60,69,59,36,30,16,,84,53,26,20,5,5,0.6,0.6
2023-11-28T2200,2297A,118.1371,30.2756,黄山市,黄山区政府5号楼,细颗粒物(PM2.5),75,81,53,55,26,16,,100,55,23,15,4,4,0.7,0.4
2023-11-28T2200,2423A,115.0601,30.2313,黄石市,沈家营,颗粒物(PM10),69,87,95,48,52,89,,110,106,33,40,14,9,0.9,1.1
2023-11-28T2200,2424A,115.0817,30.2006,黄石市,陈家湾,细颗粒物(PM2.5),68,80,88,49,54,92,,110,107,20,28,13,10,0.8,1.1
2023-11-28T2200,2426A,114.8988,30.2019,黄石市,铁山,细颗粒物(PM2.5),75,80,77,55,57,89,,116,111,29,31,15,10,0.8,0.9
2023-11-28T2200,2427A,115.0307,30.2092,黄石市,团城山,颗粒物(PM10),70,90,96,37,51,104,,122,119,21,37,9,8,1.0,1.1
2023-11-28T2200,3149A,115.0235,30.1578,黄石市,笔架山北路,细颗粒物(PM2.5),68,84,104,49,68,87,,115,107,15,30,11,8,1.0,1.2
2023-11-28T2200,1392A,114.4183,23.0528,惠州市,河南岸金山湖子站,颗粒物(PM10),70,89,64,50,40,74,,108,85,28,19,6,8,0.9,0.9
2023-11-28T2200,1393A,114.4053,23.0822,惠州市,下埔横江三路子站,细颗粒物(PM2.5),73,88,60,53,37,89,,126,114,34,21,9,11,0.8,0.8
2023-11-28T2200,1394A,114.4103,23.1142,惠州市,江北云山西路子站,颗粒物(PM10),67,84,55,45,33,88,,121,111,35,18,8,10,0.8,0.7
2023-11-28T2200,1395A,114.4645,22.7833,惠州市,惠阳区承修路船湖子站,颗粒物(PM10),58,66,62,26,37,111,,137,131,24,21,7,8,0.9,1
2023-11-28T2200,1396A,114.5317,22.7422,惠州市,大亚湾管委会子站,颗粒物(PM10),61,72,58,26,36,118,,135,132,30,26,6,7,0.8,0.9
2023-11-28T2200,3314A,114.4338,22.8134,惠州市,惠阳秋长,颗粒物(PM10),78,105,61,50,37,62,,139,126,48,20,10,11,0.9,0.7
2023-11-28T2200,3452A,114.6517,22.775,惠州市,大亚湾霞涌,颗粒物(PM10),61,71,56,28,38,60,,132,111,35,17,6,8,0.5,0.6
2023-11-28T2200,2240A,130.9762,45.3001,鸡西市,环保局,,36,32,46,25,38,61,,62,59,11,23,4,6,0.5,0.7
2023-11-28T2200,2243A,130.9429,45.3039,鸡西市,第一中学,,32,23,43,22,35,67,,69,65,9,21,6,10,0.2,0.3
2023-11-28T2200,3707A,131.0207,45.3073,鸡西市,欧美日汽修厂,细颗粒物(PM2.5),78,62,70,57,59,43,,55,49,30,38,27,37,1.0,1.2
2023-11-28T2200,3709A,130.9967,45.3106,鸡西市,市政设施管理处,,39,37,56,27,41,35,,65,52,34,31,2,3,0.2,0.4
2023-11-28T2200,2367A,114.9754,27.0803,吉安市,红声器材厂,,,82,72,45,38,6,,109,79,,35,13,17,0.7,1
2023-11-28T2200,2368A,114.9658,27.0999,吉安市,市森林工业局,颗粒物(PM10),67,84,64,47,38,7,,100,76,75,39,23,19,0.8,0.7
2023-11-28T2200,2369A,114.99,27.1312,吉安市,市环境监测站,颗粒物(PM10),68,85,69,43,37,25,,100,78,60,40,13,16,0.6,0.8
2023-11-28T2200,2370A,115.0093,27.0968,吉安市,青原区法院,颗粒物(PM10),70,89,72,45,41,8,,102,64,64,43,14,15,0.8,0.8
2023-11-28T2200,1772A,126.54,43.8622,吉林市,哈达湾,,25,23,28,17,18,53,,64,58,21,14,9,9,0.6,0.6
2023-11-28T2200,1773A,126.5844,43.8358,吉林市,东局子,,26,24,24,18,19,57,,59,53,18,18,5,7,0.6,0.6
2023-11-28T2200,1774A,126.5052,43.8245,吉林市,电力学院,颗粒物(PM10),64,78,42,35,25,38,,63,48,32,19,10,11,0.9,0.7
2023-11-28T2200,1775A,126.6133,43.8972,吉林市,江北,,33,33,31,20,19,52,,62,52,24,21,10,10,0.7,0.6
2023-11-28T2200,1776A,126.555,43.8306,吉林市,江南公园,,28,26,31,19,22,60,,60,59,14,15,9,10,0.5,0.6
2023-11-28T2200,1778A,126.7061,43.7133,吉林市,丰满,,25,25,31,15,17,65,,65,65,6,8,9,10,0.5,0.5
2023-11-28T2200,2868A,126.4739,43.953,吉林市,九站,,23,22,27,16,18,38,,62,50,37,20,5,6,0.6,0.7
2023-11-28T2200,1299A,116.9862,36.6114,济南市,科干所,颗粒物(PM10),57,63,54,24,20,6,,44,20,67,41,9,9,0.8,0.7
2023-11-28T2200,1300A,116.9376,36.665,济南市,农科所,颗粒物(PM10),73,95,73,32,23,6,,35,19,69,49,12,9,0.8,0.6
2023-11-28T2200,1301A,117.1265,36.6734,济南市,开发区,颗粒物(PM10),69,88,68,32,25,3,,41,18,66,48,11,9,0.8,0.6
2023-11-28T2200,1303A,117.0624,36.6868,济南市,省种子仓库,颗粒物(PM10),101,151,78,46,24,7,,39,22,66,43,16,10,0.9,0.6
2023-11-28T2200,1304A,116.9489,36.6447,济南市,机床二厂,颗粒物(PM10),73,95,70,42,24,5,,38,18,77,51,11,8,1.0,0.8
2023-11-28T2200,1305A,117.0495,36.663,济南市,市监测站,颗粒物(PM10),68,85,69,29,22,8,,41,23,69,48,14,12,0.8,0.6
2023-11-28T2200,1306A,116.7675,36.5484,济南市,长清党校,颗粒物(PM10),75,100,71,37,29,7,,58,30,77,47,17,11,1.1,0.9
2023-11-28T2200,1616A,117.6795,36.229,济南市,技术学院,颗粒物(PM10),78,105,81,56,42,7,,61,37,75,47,11,11,1.1,0.9
2023-11-28T2200,1961A,117.532,36.6868,济南市,东山小学,颗粒物(PM10),67,83,75,24,27,9,,53,28,77,52,17,15,0.9,0.7
2023-11-28T2200,3059A,117.7161,36.2049,济南市,泰兴公司,细颗粒物(PM2.5),98,127,94,73,47,5,,54,26,84,60,15,10,0.9,0.7
2023-11-28T2200,3064A,117.6867,36.2171,济南市,莱芜战役纪念馆,细颗粒物(PM2.5),100,132,88,75,41,4,,57,34,88,58,13,12,1.0,0.7
2023-11-28T2200,3494A,117.1673,36.9782,济南市,济阳区政府,颗粒物(PM10),59,68,62,32,25,27,,59,46,40,33,22,10,0.6,0.6
2023-11-28T2200,3495A,117.1171,36.63,济南市,锦屏中学,颗粒物(PM10),51,51,54,22,21,15,,48,28,44,39,7,9,0.6,0.5
2023-11-28T2200,3682A,116.9814,36.6819,济南市,济南四建,颗粒物(PM10),82,114,73,44,26,4,,33,16,78,54,24,12,0.8,0.6
2023-11-28T2200,1653A,116.6251,35.4302,济宁市,火炬城,颗粒物(PM10),156,262,105,75,63,26,,58,43,58,45,14,12,0.8,0.8
2023-11-28T2200,1655A,116.5491,35.4042,济宁市,电化厂,细颗粒物(PM2.5),128,170,139,97,73,23,,68,56,71,50,16,12,1.0,0.8
2023-11-28T2200,3500A,116.5814,35.3707,济宁市,北湖一中,细颗粒物(PM2.5),117,140,104,88,62,10,,62,47,80,45,16,10,1.0,0.7
2023-11-28T2200,3501A,116.8249,35.5593,济宁市,服务中心,细颗粒物(PM2.5),104,146,135,78,63,21,,57,42,61,50,12,9,0.9,0.8
2023-11-28T2200,3678A,116.5907,35.4054,济宁市,市第七中学,细颗粒物(PM2.5),107,143,106,80,60,14,,61,44,76,50,11,9,0.9,0.7
2023-11-28T2200,2255A,130.2751,46.8028,佳木斯市,佳纺,,42,34,55,29,48,42,,60,49,36,34,17,10,0.5,0.7
2023-11-28T2200,2256A,130.3995,46.8307,佳木斯市,发电厂,,35,28,45,24,32,58,,68,62,18,29,3,7,0.6,0.6
2023-11-28T2200,2257A,130.3258,46.7975,佳木斯市,环保局,,38,34,52,26,43,46,,59,47,28,32,5,8,0.4,0.5
2023-11-28T2200,2258A,130.3648,46.8032,佳木斯市,十一中,,36,26,45,25,37,45,,60,50,28,29,5,6,0.6,0.6
2023-11-28T2200,2259A,130.3794,46.7588,佳木斯市,四丰,,25,25,47,15,30,54,,65,61,16,18,1,1,0.4,0.5
2023-11-28T2200,1252A,120.7436,30.778,嘉兴市,清河小学,颗粒物(PM10),116,181,123,81,58,73,,80,59,38,50,9,12,1.1,1
2023-11-28T2200,1253A,120.726,30.7478,嘉兴市,嘉兴学院,"颗粒物(PM10),细颗粒物(PM2.5)",113,176,114,85,55,75,,80,62,34,44,8,11,0.8,0.8
2023-11-28T2200,2872A,120.7846,30.7525,嘉兴市,南湖区残联,细颗粒物(PM2.5),123,170,115,93,61,80,,76,65,28,44,7,10,1.0,1
2023-11-28T2200,3407A,120.6916,30.7739,嘉兴市,秀洲住建,细颗粒物(PM2.5),125,148,112,95,64,76,,77,55,33,51,10,12,0.8,0.8
2023-11-28T2200,1945A,98.2908,39.7711,嘉峪关市,气象局,,39,39,61,9,13,65,,68,68,9,20,3,33,0.5,0.9
2023-11-28T2200,2884A,98.2672,39.7978,嘉峪关市,酒钢宾馆,颗粒物(PM10),51,51,64,9,14,63,,76,75,14,21,9,38,0.7,0.6
2023-11-28T2200,3248A,98.2643,39.7724,嘉峪关市,雄关区,,41,41,44,8,13,66,,68,67,7,22,5,24,0.0,0.5
2023-11-28T2200,1383A,113.1064,22.6058,江门市,北街,细颗粒物(PM2.5),64,65,64,46,42,83,,159,144,42,48,8,9,0.7,0.6
2023-11-28T2200,1384A,113.0731,22.5835,江门市,西区,"颗粒物(PM10),细颗粒物(PM2.5)",67,84,74,48,36,59,,159,141,69,49,9,10,0.8,0.7
2023-11-28T2200,1385A,113.0219,22.5311,江门市,圭峰西,细颗粒物(PM2.5),78,82,62,57,39,99,,162,155,40,33,6,7,0.7,0.6
2023-11-28T2200,1386A,113.0828,22.5947,江门市,东湖,细颗粒物(PM2.5),65,77,65,47,31,81,,163,148,38,39,5,6,0.9,0.8
2023-11-28T2200,3311A,113.1075,22.5647,江门市,江海富民,颗粒物(PM10),75,100,79,52,36,67,,144,126,60,57,9,10,0.8,0.8
2023-11-28T2200,3449A,113.05,22.4667,江门市,新会银湖,细颗粒物(PM2.5),80,80,69,59,42,64,,156,129,46,43,12,9,0.7,0.6
2023-11-28T2200,1828A,113.227,35.2125,焦作市,市环保局,颗粒物(PM10),79,108,95,51,47,34,,61,44,45,34,10,10,0.5,0.6
2023-11-28T2200,3169A,113.2725,35.2067,焦作市,太极体育中心,颗粒物(PM10),78,105,103,38,33,41,,60,47,40,33,10,14,0.8,0.7
2023-11-28T2200,3335A,113.3137,35.2641,焦作市,马村街道办,,,95,107,50,48,36,,62,45,,36,,9,0.6,0.6
2023-11-28T2200,3336A,113.2465,35.2373,焦作市,焦作技师学院,颗粒物(PM10),75,100,100,46,48,28,,56,40,36,29,8,9,0.8,0.7
2023-11-28T2200,3477A,113.1656,35.2539,焦作市,中站许衡医院,颗粒物(PM10),75,99,88,45,35,5,,66,41,72,33,13,11,0.7,0.5
2023-11-28T2200,3981A,113.2449,35.1803,焦作市,原李万街道办,颗粒物(PM10),84,117,108,51,42,47,,62,50,36,31,11,14,0.5,0.5
2023-11-28T2200,1708A,116.3701,23.5345,揭阳市,新兴,细颗粒物(PM2.5),73,86,82,53,60,87,,130,121,40,37,14,17,0.9,0.8
2023-11-28T2200,1709A,116.3264,23.5443,揭阳市,西马,细颗粒物(PM2.5),82,97,84,60,52,103,,135,129,25,32,10,12,0.8,0.8
2023-11-28T2200,1710A,116.3611,23.5626,揭阳市,东兴,颗粒物(PM10),71,92,92,40,54,117,,134,131,20,35,11,17,0.7,0.8
2023-11-28T2200,1711A,116.4151,23.5294,揭阳市,渔湖,细颗粒物(PM2.5),75,93,87,55,44,100,,128,123,30,35,9,13,0.7,0.8
2023-11-28T2200,3320A,116.403,23.5699,揭阳市,曲溪,颗粒物(PM10),65,79,97,38,50,113,,138,133,26,34,10,16,0.8,0.8
2023-11-28T2200,1944A,102.1692,38.5167,金昌市,天庆家园,,27,27,56,8,15,80,,83,82,9,20,10,12,0.3,0.7
2023-11-28T2200,3170A,102.1864,38.5253,金昌市,市委党校,,32,32,62,9,24,80,,86,84,6,18,10,23,0.5,0.8
2023-11-28T2200,4022A,102.1647,38.5371,金昌市,金川区人防中心,,38,38,60,13,21,80,,85,83,8,16,10,15,0.4,0.9
2023-11-28T2200,1262A,119.647,29.077,金华市,十五中,颗粒物(PM10),90,130,91,51,41,10,,123,79,108,57,8,9,0.6,0.8
2023-11-28T2200,1263A,119.686,29.1029,金华市,监测站,颗粒物(PM10),78,105,83,45,44,17,,106,71,99,61,9,11,0.7,0.7
2023-11-28T2200,3659A,119.656,29.1131,金华市,气象局,颗粒物(PM10),71,92,89,34,42,61,,104,76,56,61,7,9,0.8,0.8
2023-11-28T2200,1767A,121.1115,41.0879,锦州市,南山,,42,,26,29,21,46,,64,51,22,17,15,22,0.7,0.6
2023-11-28T2200,1768A,121.0533,40.8434,锦州市,开发区,,39,31,37,27,20,28,,53,36,41,32,39,18,0.7,0.6
2023-11-28T2200,1769A,121.1836,41.1119,锦州市,百股街道,细颗粒物(PM2.5),52,51,29,36,20,32,,68,46,32,22,14,14,0.6,0.5
2023-11-28T2200,1770A,121.1178,41.1222,锦州市,天安街道,,29,26,25,20,18,52,,68,57,20,20,12,13,0.4,0.6
2023-11-28T2200,1771A,121.1303,41.1386,锦州市,北湖公园,,29,29,21,18,16,50,,69,53,15,13,12,11,0.5,0.4
2023-11-28T2200,2160A,112.85,35.5051,晋城市,自来水公司,颗粒物(PM10),71,91,74,48,23,20,,70,57,65,38,11,10,1.0,0.7
2023-11-28T2200,2161A,112.8318,35.4936,晋城市,白云商贸,颗粒物(PM10),84,118,83,46,19,15,,70,59,56,32,8,7,0.8,0.7
2023-11-28T2200,2162A,112.8508,35.4887,晋城市,市环保局,颗粒物(PM10),80,109,81,53,25,24,,71,56,58,34,9,8,0.8,0.6
2023-11-28T2200,2163A,112.8676,35.4897,晋城市,技术学院,颗粒物(PM10),92,134,87,48,22,18,,70,55,71,39,10,8,1.2,0.7
2023-11-28T2200,3620A,112.8271,35.4828,晋城市,泽州一中,颗粒物(PM10),74,97,71,39,17,34,,72,61,44,27,13,9,0.9,0.7
2023-11-28T2200,2171A,112.7532,37.6945,晋中市,锦纶小区,颗粒物(PM10),78,105,65,44,18,6,,68,42,66,35,12,9,0.6,0.4
2023-11-28T2200,2173A,112.7249,37.7067,晋中市,南都小区,颗粒物(PM10),84,117,65,40,20,4,,66,39,66,32,13,12,1.0,0.7
2023-11-28T2200,2174A,112.6991,37.6982,晋中市,榆次区政府,颗粒物(PM10),85,120,71,49,28,6,,61,30,69,40,15,10,1.0,0.8
2023-11-28T2200,2865A,112.7195,37.6828,晋中市,榆次三中,颗粒物(PM10),78,105,77,31,17,7,,62,37,60,36,17,14,0.9,0.7
2023-11-28T2200,2439A,112.2014,31.0481,荆门市,竹园小学,细颗粒物(PM2.5),162,168,128,123,96,15,,68,51,59,47,7,11,1.1,0.9
2023-11-28T2200,2440A,112.1969,30.9891,荆门市,掇刀,细颗粒物(PM2.5),162,170,138,123,108,8,,74,58,89,49,12,12,1.4,0.9
2023-11-28T2200,2441A,112.2213,31.0386,荆门市,石化一小,细颗粒物(PM2.5),186,191,142,140,102,9,,68,48,77,51,14,11,1.0,0.8
2023-11-28T2200,3012A,112.1849,31.0362,荆门市,西山林语,细颗粒物(PM2.5),130,132,108,99,80,30,,76,65,41,35,10,12,1.0,0.8
2023-11-28T2200,3547A,112.1632,31.0138,荆门市,龙泉中学南校,细颗粒物(PM2.5),115,163,132,87,86,24,,86,79,46,31,13,12,1.3,0.7
2023-11-28T2200,1844A,112.2494,30.3197,荆州市,市图书馆,细颗粒物(PM2.5),89,114,112,66,59,8,,102,81,88,44,8,8,1.3,1.1
2023-11-28T2200,1845A,112.2008,30.3544,荆州市,市委党校,细颗粒物(PM2.5),132,127,105,100,79,18,,100,81,64,38,5,5,1.2,1.1
2023-11-28T2200,3194A,112.2747,30.3122,荆州市,管委会,细颗粒物(PM2.5),113,121,112,85,73,8,,106,77,84,52,8,9,1.2,1.1
2023-11-28T2200,3548A,112.1655,30.3364,荆州市,学苑路,细颗粒物(PM2.5),156,149,98,119,87,43,,104,94,44,35,10,8,1.0,0.9
2023-11-28T2200,2342A,117.3102,29.3867,景德镇市,王港中学,,44,44,42,27,25,12,,89,55,9,4,2,2,0.4,0.3
2023-11-28T2200,2343A,117.2117,29.2933,景德镇市,老干部活动中心,颗粒物(PM10),66,81,64,45,38,7,,77,52,46,25,12,11,0.6,0.6
2023-11-28T2200,2344A,117.1894,29.2789,景德镇市,兽医站,颗粒物(PM10),75,100,69,47,35,6,,76,52,50,27,6,7,0.8,0.7
2023-11-28T2200,2345A,117.1547,29.2617,景德镇市,台达陶瓷,颗粒物(PM10),61,72,71,35,38,11,,83,39,46,35,10,18,0.6,0.7
2023-11-28T2200,2346A,117.2461,29.2956,景德镇市,陶研所,颗粒物(PM10),55,59,56,24,31,2,,72,46,56,28,10,6,0.6,0.7
2023-11-28T2200,1803A,115.9872,29.6815,九江市,十里,颗粒物(PM10),88,125,92,64,56,7,,86,61,66,42,10,11,1.3,1.2
2023-11-28T2200,1804A,115.9584,29.7046,九江市,茅山头,细颗粒物(PM2.5),98,108,92,73,56,2,,77,48,80,54,12,13,1.2,1.1
2023-11-28T2200,1805A,115.9877,29.7295,九江市,西园,"颗粒物(PM10),细颗粒物(PM2.5)",80,109,103,59,62,18,,74,61,69,49,14,13,1.1,1.1
2023-11-28T2200,1806A,116.0172,29.6547,九江市,五七二七厂,细颗粒物(PM2.5),72,82,81,52,57,48,,101,83,27,25,10,14,0.9,1.1
2023-11-28T2200,1808A,115.9114,29.6038,九江市,综合工业园,,,116,93,,73,23,,70,47,62,51,12,14,1.1,1.1
2023-11-28T2200,1809A,116.0721,29.7535,九江市,石化总厂,颗粒物(PM10),85,119,98,56,53,21,,77,55,72,51,18,13,1.0,0.9
2023-11-28T2200,1810A,115.9773,29.5698,九江市,庐山气象台,,32,22,36,11,15,102,,104,104,2,2,7,6,0.4,0.6
2023-11-28T2200,3190A,116.0254,29.6994,九江市,外国语学校,细颗粒物(PM2.5),85,83,86,63,60,42,,83,73,48,47,37,14,0.8,1
2023-11-28T2200,2658A,98.5061,39.7443,酒泉市,仓门街子站,,46,46,58,24,22,62,,78,72,14,27,4,11,0.3,0.6
2023-11-28T2200,2659A,98.4989,39.7256,酒泉市,油田生活基地,颗粒物(PM10),51,51,59,23,25,69,,80,76,9,26,5,18,0.4,0.6
2023-11-28T2200,2698A,76.0072,39.4467,喀什地区,巡警大队,细颗粒物(PM2.5),165,224,236,125,79,,,82,,141,67,24,10,5.0,2.5
2023-11-28T2200,2699A,75.9755,39.4694,喀什地区,吾办,"颗粒物(PM10),细颗粒物(PM2.5)",156,262,234,119,110,8,,70,65,131,81,,11,4.3,2.6
2023-11-28T2200,4027A,75.9483,39.4689,喀什地区,老干局,细颗粒物(PM2.5),217,331,329,167,160,15,,98,91,137,73,21,12,3.5,3.5
2023-11-28T2200,1824A,114.3389,34.7781,开封市,肿瘤医院,颗粒物(PM10),96,141,120,71,59,3,,54,31,77,45,5,6,0.8,0.9
2023-11-28T2200,1826A,114.2885,34.7965,开封市,世纪星幼儿园,颗粒物(PM10),89,127,104,64,55,5,,56,34,78,43,6,6,1.1,0.8
2023-11-28T2200,3147A,114.3438,34.8106,开封市,龙亭公园,"颗粒物(PM10),细颗粒物(PM2.5)",85,120,112,63,62,6,,64,42,81,49,5,5,0.9,0.9
2023-11-28T2200,3210A,114.3644,34.7964,开封市,汴京公园,细颗粒物(PM2.5),109,139,117,82,75,3,,56,35,75,45,6,6,0.7,0.7
2023-11-28T2200,3473A,114.2485,34.8306,开封市,技师学院,颗粒物(PM10),87,123,107,58,56,8,,61,41,74,39,6,7,0.9,0.9
2023-11-28T2200,3592A,114.4644,34.7556,开封市,祥符区生态环境局,颗粒物(PM10),106,161,146,76,69,6,,51,22,77,57,6,6,0.7,0.7
2023-11-28T2200,1951A,84.895,45.6094,克拉玛依市,长征新村,,42,42,40,16,12,12,,28,23,31,31,10,11,0.4,0.5
2023-11-28T2200,1952A,84.8988,45.5893,克拉玛依市,南林小区,,48,48,45,23,17,9,,29,23,29,27,3,4,0.4,0.6
2023-11-28T2200,1954A,84.905,44.3396,克拉玛依市,独山子区,细颗粒物(PM2.5),84,89,47,62,31,21,,62,34,31,15,5,4,0.9,0.5
2023-11-28T2200,1955A,85.6979,46.098,克拉玛依市,乌尔禾区商贸楼,,34,34,26,10,10,7,,28,24,26,26,7,8,0.7,0.6
2023-11-28T2200,3612A,85.1045,45.6899,克拉玛依市,白碱滩区新站,,25,,28,17,12,7,,28,25,31,24,8,9,0.6,0.3
2023-11-28T2200,2697A,76.1454,39.7142,克孜勒苏柯尔克孜自治州,市人民政府,颗粒物(PM10),111,172,137,65,55,67,,108,103,54,21,7,5,1.3,0.8
2023-11-28T2200,3665A,76.1658,39.7157,克孜勒苏柯尔克孜自治州,克州文化中心,颗粒物(PM10),117,183,147,74,59,55,,109,101,78,26,10,9,2.0,1
2023-11-28T2200,1450A,102.8204,24.8886,昆明市,呈贡新区,细颗粒物(PM2.5),63,60,57,45,42,58,,104,90,30,40,12,8,0.9,0.9
2023-11-28T2200,1451A,102.6251,24.9608,昆明市,西山森林公园,,39,39,33,27,25,91,,106,103,14,13,8,8,0.7,0.6
2023-11-28T2200,1452A,102.7252,25.0902,昆明市,龙泉镇,颗粒物(PM10),53,55,51,34,36,55,,107,94,36,35,9,10,0.8,0.8
2023-11-28T2200,1453A,102.7266,25.0375,昆明市,东风东路,,48,48,60,31,37,78,,107,97,21,38,9,11,0.9,0.9
2023-11-28T2200,1454A,102.6742,25.0669,昆明市,金鼎山,细颗粒物(PM2.5),52,52,69,36,41,54,,112,97,42,44,3,20,0.7,0.8
2023-11-28T2200,1455A,102.6644,25.0401,昆明市,碧鸡广场,"颗粒物(PM10),细颗粒物(PM2.5)",55,60,58,39,39,45,,100,86,47,43,10,14,0.9,0.9
2023-11-28T2200,3179A,102.7494,25.0119,昆明市,官渡区博物馆,细颗粒物(PM2.5),53,53,69,37,40,65,,106,96,25,39,9,10,1.0,1.1
2023-11-28T2200,3375A,102.8017,24.8336,昆明市,青年创业园,细颗粒物(PM2.5),54,56,51,38,34,70,,111,98,22,29,15,11,0.7,0.6
2023-11-28T2200,3550A,102.7997,24.9786,昆明市,昆明学院,细颗粒物(PM2.5),58,64,78,41,45,72,,104,96,19,39,10,12,0.6,0.6
2023-11-28T2200,3551A,102.5967,24.6736,昆明市,晋宁区生态环境分局,细颗粒物(PM2.5),67,62,55,48,38,59,,104,93,22,21,4,4,0.7,0.8
2023-11-28T2200,3552A,102.6678,24.9856,昆明市,云天化总部,颗粒物(PM10),52,53,72,31,38,83,,102,96,11,35,9,9,0.8,0.9
2023-11-28T2200,1456A,91.1319,29.6514,拉萨市,八廓街,,47,47,38,24,19,25,,78,67,48,26,5,6,1.4,1.2
2023-11-28T2200,1457A,91.1221,29.6747,拉萨市,市环保局,细颗粒物(PM2.5),94,107,63,70,31,11,,78,67,71,39,12,10,2.4,1.5
2023-11-28T2200,1458A,91.0874,29.6475,拉萨市,区监测站,颗粒物(PM10),51,51,37,16,18,11,,77,61,78,44,12,13,1.2,1
2023-11-28T2200,1459A,91.1774,29.6541,拉萨市,西藏大学,颗粒物(PM10),60,69,36,39,15,25,,81,72,50,21,10,10,1.5,0.8
2023-11-28T2200,1460A,90.9798,29.6588,拉萨市,区辐射站,细颗粒物(PM2.5),74,94,48,54,25,21,,73,59,77,49,10,8,1.4,0.8
2023-11-28T2200,1461A,91.0834,29.6292,拉萨市,拉萨火车站,,35,35,39,21,20,26,,76,70,60,46,5,6,1.2,1.1
2023-11-28T2200,2520A,109.2203,23.7256,来宾市,来宾技工学校,颗粒物(PM10),86,122,70,53,41,17,,122,98,59,25,14,13,0.8,0.8
2023-11-28T2200,3535A,109.1781,23.7297,来宾市,兴宾区政府,"颗粒物(PM10),细颗粒物(PM2.5)",65,79,55,47,36,79,,124,112,17,13,10,10,0.7,0.7
2023-11-28T2200,4002A,109.2416,23.7461,来宾市,中南小学,颗粒物(PM10),71,91,69,47,40,44,,112,88,42,32,10,12,0.9,0.9
2023-11-28T2200,1476A,103.631,36.1031,兰州市,兰炼宾馆,颗粒物(PM10),63,76,106,43,46,38,,34,22,52,72,21,28,0.8,1.2
2023-11-28T2200,1478A,103.8412,36.0726,兰州市,生物制品所,颗粒物(PM10),54,57,89,36,42,68,,44,44,26,57,8,15,0.5,1.3
2023-11-28T2200,1479A,103.831,36.0464,兰州市,铁路设计院,,46,43,88,32,46,57,,32,32,41,74,12,23,0.6,1.6
2023-11-28T2200,3186A,103.7158,36.1058,兰州市,教育港,颗粒物(PM10),58,66,87,40,40,24,,38,22,62,66,22,29,0.7,1.1
2023-11-28T2200,3241A,103.7439,36.0842,兰州市,百合公园,颗粒物(PM10),51,51,93,19,36,63,,27,26,29,66,7,18,0.4,1.2
2023-11-28T2200,3242A,103.9611,35.998,兰州市,和平,细颗粒物(PM2.5),74,93,106,54,49,17,,38,24,67,62,18,19,1.0,1.2
2023-11-28T2200,3245A,103.6633,36.533,兰州新区,新区管委会,,40,40,70,20,33,81,,70,70,10,26,7,20,0.4,0.7
2023-11-28T2200,3246A,103.6975,36.4789,兰州新区,舟曲中学,,26,26,79,11,32,78,,50,50,12,34,4,22,0.0,0.7
2023-11-28T2200,1067A,116.6708,39.5111,廊坊市,药材公司,细颗粒物(PM2.5),78,104,38,57,14,2,,54,28,76,26,4,3,0.9,0.4
2023-11-28T2200,1068A,116.7214,39.5589,廊坊市,开发区,颗粒物(PM10),64,77,26,41,10,8,,51,30,62,22,5,3,0.6,0.3
2023-11-28T2200,1070A,116.7244,39.5269,廊坊市,北华航天学院,颗粒物(PM10),75,100,38,41,11,2,,51,22,76,32,9,7,0.7,0.4
2023-11-28T2200,2919A,116.7022,39.5453,廊坊市,河北工业大学,细颗粒物(PM2.5),79,95,36,58,15,2,,52,27,71,25,9,7,0.7,0.3
2023-11-28T2200,2535A,103.7723,29.5462,乐山市,花湖湾,细颗粒物(PM2.5),102,130,112,76,71,24,,72,65,56,35,5,4,0.9,0.9
2023-11-28T2200,2536A,103.7627,29.5844,乐山市,牛耳桥,细颗粒物(PM2.5),89,98,88,66,66,1,,64,45,80,43,4,5,1.3,1
2023-11-28T2200,2537A,103.7508,29.6006,乐山市,市第三水厂,细颗粒物(PM2.5),94,110,90,70,60,4,,64,47,87,45,5,6,1.2,0.9
2023-11-28T2200,2538A,103.7571,29.5664,乐山市,市监测站,细颗粒物(PM2.5),98,108,89,73,62,37,,70,63,54,40,7,5,0.7,0.8
2023-11-28T2200,3361A,103.7311,29.5628,乐山市,理工大学,细颗粒物(PM2.5),102,109,90,76,65,20,,73,67,57,35,8,6,1.0,1
2023-11-28T2200,2598A,100.2143,26.8576,丽江市,西南郊,,43,43,19,15,7,38,,77,69,34,15,6,5,1.3,0.9
2023-11-28T2200,2599A,100.2497,26.8802,丽江市,丽江古城,,49,49,42,29,26,69,,84,82,25,22,12,10,0.7,0.7
2023-11-28T2200,2600A,100.2203,26.8906,丽江市,市中心,,34,34,22,9,8,56,,68,66,19,16,7,6,0.6,0.6
2023-11-28T2200,1267A,119.914,28.4514,丽水市,监测站大楼,颗粒物(PM10),65,79,64,39,32,86,,93,67,34,34,8,11,0.7,0.8
2023-11-28T2200,1268A,119.93,28.4586,丽水市,莲都小学,颗粒物(PM10),75,99,66,48,32,28,,99,73,71,33,7,7,0.8,0.7
2023-11-28T2200,1269A,119.879,28.4231,丽水市,余庄前,"颗粒物(PM10),细颗粒物(PM2.5)",52,54,49,36,37,92,,86,83,16,23,6,6,0.4,0.5
2023-11-28T2200,1173A,119.176,34.5885,连云港市,市环境监测站,,,61,111,29,76,,,54,51,28,40,11,12,0.8,1.1
2023-11-28T2200,3000A,119.3581,34.6972,连云港市,德源药业,颗粒物(PM10),57,63,98,19,58,31,,47,39,45,45,6,9,0.6,1.1
2023-11-28T2200,3007A,119.178,34.844,连云港市,新城一中,颗粒物(PM10),52,53,100,29,73,20,,52,37,61,49,10,12,0.6,0.9
2023-11-28T2200,3008A,119.3608,34.7519,连云港市,胡沟管理处,颗粒物(PM10),51,51,70,17,41,49,,49,33,32,38,11,15,0.9,1.6
2023-11-28T2200,3009A,119.1478,34.5911,连云港市,矿山设计院,颗粒物(PM10),58,66,124,29,75,44,,49,46,30,42,8,9,0.5,0.9
2023-11-28T2200,3434A,119.2413,34.6539,连云港市,工贸学校,颗粒物(PM10),54,58,100,29,67,59,,58,56,24,36,14,12,0.9,1
2023-11-28T2200,3664A,119.4172,34.7341,连云港市,连云街道,,48,48,76,23,44,66,,61,61,16,34,6,8,0.4,0.6
2023-11-28T2200,2571A,102.3431,27.8099,凉山彝族自治州,青龙寺,,35,,17,24,37,61,,93,85,10,14,9,15,0.8,1.2
2023-11-28T2200,2572A,102.2721,27.8415,凉山彝族自治州,邛海宾馆,,44,44,47,28,31,50,,96,84,28,24,12,17,0.7,1
2023-11-28T2200,2573A,102.2625,27.898,凉山彝族自治州,西昌市政府,颗粒物(PM10),54,57,45,34,30,64,,91,89,18,20,14,17,0.8,1
2023-11-28T2200,2574A,102.2685,27.8851,凉山彝族自治州,凉山州政府,"颗粒物(PM10),细颗粒物(PM2.5)",62,73,47,44,31,43,,86,80,30,22,12,16,0.9,1
2023-11-28T2200,2575A,102.237,27.8914,凉山彝族自治州,长安,颗粒物(PM10),53,56,57,34,34,62,,85,83,24,34,17,21,0.9,1
2023-11-28T2200,2212A,123.2,41.1953,辽阳市,宏伟区,,48,35,41,33,33,36,,57,44,28,23,12,13,0.6,0.6
2023-11-28T2200,2213A,123.1683,41.2495,辽阳市,新华园,细颗粒物(PM2.5),69,70,48,50,39,4,,54,30,62,34,47,20,1.5,1.2
2023-11-28T2200,2214A,123.2354,41.2639,辽阳市,滨河路,颗粒物(PM10),53,56,42,35,30,14,,54,32,49,31,13,20,0.8,0.7
2023-11-28T2200,2215A,123.149,41.2991,辽阳市,铁西工业园,细颗粒物(PM2.5),176,,54,133,46,5,,57,28,64,36,12,13,1.8,1.1
2023-11-28T2200,2227A,125.1358,42.8845,辽源市,环保局,,29,26,19,20,10,41,,70,59,28,14,9,9,0.7,0.7
2023-11-28T2200,3239A,125.0764,42.9078,辽源市,银鹰制药,,25,25,24,14,15,62,,68,62,12,16,5,10,0.5,0.6
2023-11-28T2200,1625A,115.9848,36.4372,聊城市,区政府,颗粒物(PM10),83,116,92,53,42,8,,54,36,67,41,8,6,0.7,0.6
2023-11-28T2200,2878A,116.0072,36.4343,聊城市,聊大东校,颗粒物(PM10),79,108,82,56,46,8,,66,37,66,36,8,6,0.6,0.5
2023-11-28T2200,3200A,115.9819,36.4978,聊城市,监控中心,颗粒物(PM10),72,94,104,39,54,7,,54,35,61,49,8,5,0.5,0.4
2023-11-28T2200,3513A,116.0445,36.4361,聊城市,九州社区,颗粒物(PM10),76,101,86,41,39,8,,58,38,74,43,11,5,0.6,0.6
2023-11-28T2200,4018A,116.0567,36.4608,聊城市,星美广场,颗粒物(PM10),79,107,96,40,44,9,,54,30,62,51,11,7,0.5,0.5
2023-11-28T2200,2632A,94.3681,29.6376,林芝市,林芝监测站,,23,10,14,5,7,73,,74,74,5,12,7,6,0.3,0.4
2023-11-28T2200,2633A,94.3616,29.6616,林芝市,林芝人民医院,,22,9,15,6,8,70,,72,72,7,11,7,7,0.6,0.7
2023-11-28T2200,2603A,100.0781,23.8982,临沧市,市环保局,细颗粒物(PM2.5),57,,25,40,19,37,,64,55,12,12,4,4,0.5,0.4
2023-11-28T2200,2604A,100.0894,23.8822,临沧市,市气象局,,48,41,32,33,25,33,,65,55,17,15,4,5,0.5,0.5
2023-11-28T2200,1733A,111.5531,36.0783,临汾市,临钢医院,颗粒物(PM10),73,96,103,34,19,6,,52,32,45,38,4,5,0.5,0.7
2023-11-28T2200,1734A,111.5028,36.0714,临汾市,技工学校,颗粒物(PM10),90,130,70,48,19,7,,58,36,63,37,7,6,1.1,0.8
2023-11-28T2200,1736A,111.5018,36.0855,临汾市,市委,颗粒物(PM10),93,135,73,39,12,8,,60,41,58,37,9,6,0.7,0.6
2023-11-28T2200,3018A,111.505,36.1014,临汾市,唐尧大酒店,颗粒物(PM10),84,118,75,40,17,3,,52,31,54,34,12,5,0.7,0.6
2023-11-28T2200,3668A,111.5036,36.0414,临汾市,城南,颗粒物(PM10),89,127,79,42,20,2,,55,32,58,33,8,5,0.8,0.5
2023-11-28T2200,2667A,103.2069,35.5993,临夏回族自治州,环保局,颗粒物(PM10),73,96,131,42,70,43,,64,62,44,47,19,17,0.9,1.5
2023-11-28T2200,2668A,103.2417,35.6057,临夏回族自治州,建设大厦,细颗粒物(PM2.5),113,133,109,85,64,34,,69,63,66,36,16,10,1.4,1
2023-11-28T2200,1618A,118.3429,35.0532,临沂市,沂河小区,细颗粒物(PM2.5),60,66,102,43,69,26,,57,45,52,49,7,9,0.7,0.7
2023-11-28T2200,1619A,118.295,35.0583,临沂市,鲁南制药厂,"颗粒物(PM10),细颗粒物(PM2.5)",59,68,114,42,77,30,,63,50,52,48,12,14,0.6,0.7
2023-11-28T2200,1620A,118.2794,34.9976,临沂市,新光毛纺厂,颗粒物(PM10),64,78,116,44,73,23,,57,39,45,43,11,12,0.9,1
2023-11-28T2200,1621A,118.3956,35.0888,临沂市,河东保险公司,细颗粒物(PM2.5),59,61,98,42,66,20,,55,37,46,47,5,7,0.6,0.7
2023-11-28T2200,3370A,118.3564,35.0215,临沂市,十里堡居委,颗粒物(PM10),58,66,101,36,62,20,,62,49,54,47,2,6,0.8,0.9
2023-11-28T2200,3496A,118.3604,35.1084,临沂市,南坊新区,颗粒物(PM10),62,73,102,31,62,20,,58,43,54,47,9,10,1.1,1.1
2023-11-28T2200,3860A,118.3920,35.0300,临沂市,皇山花园小区,颗粒物(PM10),57,63,106,32,62,14,,58,39,55,47,6,10,0.6,0.6
2023-11-28T2200,1870A,109.4856,24.3895,柳州市,柳东小学,细颗粒物(PM2.5),57,58,58,40,43,99,,125,123,21,8,20,16,0.7,0.8
2023-11-28T2200,1871A,109.4157,24.3277,柳州市,环保监测站,细颗粒物(PM2.5),105,122,88,79,52,6,,101,69,90,40,8,18,1.3,1
2023-11-28T2200,1872A,109.389,24.341,柳州市,河西水厂,颗粒物(PM10),123,196,107,86,52,4,,88,63,107,47,13,23,1.9,1.5
2023-11-28T2200,1873A,109.4311,24.2921,柳州市,市四中,细颗粒物(PM2.5),104,131,80,78,47,13,,111,81,89,38,9,19,1.5,1
2023-11-28T2200,1874A,109.4006,24.3631,柳州市,市九中,细颗粒物(PM2.5),113,138,98,85,56,5,,89,54,80,44,6,15,1.8,1.3
2023-11-28T2200,1875A,109.4958,24.3134,柳州市,古亭山,颗粒物(PM10),54,58,57,36,36,25,,110,87,65,31,8,11,0.4,0.4
2023-11-28T2200,3402A,109.5422,24.3996,柳州市,市二中,颗粒物(PM10),83,116,66,59,44,5,,118,83,75,27,12,8,0.8,0.6
2023-11-28T2200,2307A,116.5079,31.737,六安市,监测大楼,细颗粒物(PM2.5),89,125,110,66,54,74,,83,80,28,32,7,6,0.9,0.8
2023-11-28T2200,2308A,116.4738,31.7643,六安市,皖西学院,颗粒物(PM10),90,130,119,60,47,71,,84,80,28,30,7,6,0.7,0.6
2023-11-28T2200,2309A,116.4996,31.7905,六安市,朝阳厂,"颗粒物(PM10),细颗粒物(PM2.5)",89,128,112,66,54,69,,83,80,29,28,8,8,0.8,0.6
2023-11-28T2200,2310A,116.5567,31.7886,六安市,开发区,颗粒物(PM10),105,160,138,77,57,26,,84,67,84,41,61,12,0.9,0.7
2023-11-28T2200,2576A,104.8,26.5892,六盘水市,窑上,,,54,52,34,36,,,109,104,9,8,2,3,0.5,0.6
2023-11-28T2200,2577A,104.83,26.5917,六盘水市,黄土坡,,40,37,45,28,30,86,,106,100,14,14,13,8,0.5,0.5
2023-11-28T2200,2578A,104.89,26.5939,六盘水市,水钢,,43,31,45,30,34,92,,109,106,9,8,4,3,0.5,0.6
2023-11-28T2200,2579A,104.8475,26.5894,六盘水市,民中,,39,39,43,24,32,75,,103,97,19,12,11,7,0.6,0.6
2023-11-28T2200,2580A,104.9544,26.5506,六盘水市,双水,,,29,37,22,34,,,110,110,7,8,7,6,0.5,0.7
2023-11-28T2200,2336A,117.0217,25.1033,龙岩市,龙岩市监测站,颗粒物(PM10),53,56,41,30,40,26,,98,60,45,26,7,8,0.8,0.7
2023-11-28T2200,2337A,117.0258,25.0661,龙岩市,闽西职业技术学院,颗粒物(PM10),60,70,49,28,28,39,,92,66,53,32,5,5,0.8,0.7
2023-11-28T2200,2338A,117.0196,25.0306,龙岩市,龙岩学院,,46,42,43,32,27,58,,90,74,19,18,6,5,0.5,0.5
2023-11-28T2200,2885A,104.9339,33.3826,陇南市,滨江中学,颗粒物(PM10),107,164,91,69,41,5,,53,31,84,53,46,34,4.4,1.8
2023-11-28T2200,3247A,104.955,33.371,陇南市,市总工会,颗粒物(PM10),67,83,77,35,30,36,,58,46,40,42,9,13,0.7,0.6
2023-11-28T2200,2487A,111.9589,27.8901,娄底市,电视发射台,颗粒物(PM10),57,63,65,36,42,46,,75,66,22,24,6,8,1.1,1.2
2023-11-28T2200,2488A,111.9975,27.725,娄底市,市监测站,细颗粒物(PM2.5),115,124,120,87,80,21,,116,90,86,50,13,17,1.6,1.9
2023-11-28T2200,2489A,112.0194,27.7314,娄底市,市委党校,细颗粒物(PM2.5),107,118,101,80,77,16,,94,68,74,42,5,8,1.5,1.5
2023-11-28T2200,2490A,111.9561,27.7569,娄底市,涟钢,细颗粒物(PM2.5),107,140,125,80,86,9,,75,52,75,47,10,16,1.3,1.8
2023-11-28T2200,2491A,111.9892,27.7044,娄底市,市政府,细颗粒物(PM2.5),123,138,103,93,78,6,,105,68,57,30,7,11,1.2,1.1
2023-11-28T2200,1893A,105.4324,28.9634,泸州市,九狮山,细颗粒物(PM2.5),65,66,84,47,62,88,,121,114,16,22,8,7,0.4,0.5
2023-11-28T2200,1894A,105.4427,28.9063,泸州市,小市上码头,细颗粒物(PM2.5),79,81,106,58,77,79,,109,101,17,28,9,9,0.6,0.8
2023-11-28T2200,1895A,105.4241,28.8573,泸州市,兰田宪桥,细颗粒物(PM2.5),79,73,101,58,72,78,,105,97,17,23,9,8,0.6,0.9
2023-11-28T2200,1896A,105.4379,28.8833,泸州市,市环监站,细颗粒物(PM2.5),70,78,96,51,66,66,,86,79,20,31,6,7,0.5,0.7
2023-11-28T2200,3490A,105.3617,28.7703,泸州市,纳溪区环保局,细颗粒物(PM2.5),77,89,81,56,71,73,,106,98,17,28,8,10,0.9,1
2023-11-28T2200,2183A,111.1406,37.5211,吕梁市,环保局,颗粒物(PM10),81,111,71,24,10,2,,50,32,58,41,4,4,0.5,0.4
2023-11-28T2200,2185A,111.1297,37.5136,吕梁市,自来水公司,颗粒物(PM10),75,100,72,39,20,7,,54,41,49,32,12,8,0.5,0.4
2023-11-28T2200,2867A,111.1283,37.51,吕梁市,马茂庄小学,颗粒物(PM10),77,104,75,31,22,3,,52,36,65,41,4,3,0.6,0.4
2023-11-28T2200,1812A,112.3931,34.6516,洛阳市,市委党校,细颗粒物(PM2.5),94,131,117,70,62,12,,44,30,73,56,8,11,0.8,0.9
2023-11-28T2200,1814A,112.4657,34.6871,洛阳市,豫西宾馆,颗粒物(PM10),100,149,129,73,51,2,,49,30,79,50,7,7,1.0,0.9
2023-11-28T2200,1815A,112.494,34.6886,洛阳市,河南林校,细颗粒物(PM2.5),97,139,109,72,47,31,,49,43,77,47,6,5,0.7,0.6
2023-11-28T2200,1816A,112.3844,34.623,洛阳市,开发区管委会,细颗粒物(PM2.5),92,115,101,68,50,13,,51,39,59,46,3,4,0.8,0.7
2023-11-28T2200,1817A,112.4267,34.6258,洛阳市,市委新办公区,细颗粒物(PM2.5),98,134,109,73,54,5,,45,27,86,56,4,3,0.8,0.7
2023-11-28T2200,3340A,112.6005,34.6326,洛阳市,伊滨,颗粒物(PM10),126,201,119,90,52,6,,48,28,63,43,4,4,1.0,0.7
2023-11-28T2200,3341A,112.4951,34.6332,洛阳市,中移产业园,细颗粒物(PM2.5),107,142,116,80,50,5,,47,26,80,47,10,7,0.9,0.8
2023-11-28T2200,3593A,112.5736,34.8993,洛阳市,吉利监测站,颗粒物(PM10),92,133,102,67,47,2,,52,24,61,46,4,7,0.7,0.6
2023-11-28T2200,3635A,112.3677,34.662,洛阳市,河科大西苑校区,细颗粒物(PM2.5),130,178,141,99,70,4,,46,33,79,50,7,9,0.8,0.7
2023-11-28T2200,3636A,112.4388,34.6781,洛阳市,英才小学,颗粒物(PM10),95,139,122,66,53,10,,49,34,76,50,7,6,0.7,0.6
2023-11-28T2200,2399A,114.051,33.5699,漯河市,三五一五工厂,细颗粒物(PM2.5),124,161,129,94,58,5,,52,,71,42,8,9,0.8,0.6
2023-11-28T2200,2400A,114.0055,33.5698,漯河市,漯河大学,"颗粒物(PM10),细颗粒物(PM2.5)",114,177,128,86,52,11,,67,46,67,37,8,8,0.8,0.7
2023-11-28T2200,2401A,114.0138,33.5828,漯河市,市水利局,细颗粒物(PM2.5),119,183,126,90,52,10,,68,48,57,30,9,9,0.8,0.6
2023-11-28T2200,2402A,114.0261,33.5698,漯河市,市广电局,细颗粒物(PM2.5),130,188,130,99,57,7,,67,47,66,34,5,5,0.7,0.5
2023-11-28T2200,3478A,113.9749,33.5664,漯河市,市图书馆,细颗粒物(PM2.5),110,154,119,83,52,4,,65,42,67,31,6,7,1.0,0.8
2023-11-28T2200,3479A,114.0967,33.5906,漯河市,召陵区卫健委,细颗粒物(PM2.5),119,126,122,90,56,4,,65,,60,41,6,6,0.9,0.7
2023-11-28T2200,1798A,118.5092,31.6837,马鞍山市,湖东路四小,细颗粒物(PM2.5),92,100,97,68,66,71,,87,81,24,29,17,11,0.8,0.8
2023-11-28T2200,1799A,118.5024,31.6449,马鞍山市,开发区,细颗粒物(PM2.5),108,114,109,81,83,62,,85,77,45,46,17,12,0.7,0.7
2023-11-28T2200,1800A,118.5228,31.7231,马鞍山市,慈湖,细颗粒物(PM2.5),104,110,111,78,77,68,,90,79,49,55,15,13,0.9,1.1
2023-11-28T2200,1802A,118.6245,31.7241,马鞍山市,濮塘,颗粒物(PM10),80,110,112,52,57,81,,90,88,22,30,8,7,0.7,0.8
2023-11-28T2200,3633A,118.4918,31.6809,马鞍山市,雨山,"颗粒物(PM10),细颗粒物(PM2.5)",94,137,128,70,72,74,,91,87,38,43,18,13,0.8,0.9
2023-11-28T2200,1686A,111.0286,21.4688,茂名市,电白南海,颗粒物(PM10),54,58,78,29,44,131,,142,142,14,21,9,13,0.7,0.9
2023-11-28T2200,1687A,110.9294,21.6533,茂名市,茂石化七小,细颗粒物(PM2.5),70,75,81,51,57,112,,123,122,23,22,12,15,0.9,1
2023-11-28T2200,1688A,110.9107,21.6687,茂名市,健康路,细颗粒物(PM2.5),70,70,74,51,52,115,,132,131,24,22,13,17,0.7,0.7
2023-11-28T2200,1689A,110.8592,21.6828,茂名市,高岭,颗粒物(PM10),81,112,104,51,55,112,,124,124,35,35,30,14,0.8,0.9
2023-11-28T2200,3450A,111.01,21.5165,茂名市,电白水东,,,66,70,36,44,,,140,140,18,22,8,13,,0.7
2023-11-28T2200,2539A,104.0308,30.0478,眉山市,黑龙滩水库,颗粒物(PM10),61,72,63,43,38,47,,79,74,8,8,5,5,0.4,0.5
2023-11-28T2200,2540A,103.8416,30.0874,眉山市,气象局,细颗粒物(PM2.5),100,113,80,75,65,36,,83,73,69,43,26,10,0.9,0.8
2023-11-28T2200,3137A,103.8578,30.0744,眉山市,市委党校,细颗粒物(PM2.5),100,117,93,75,66,26,,88,76,85,54,9,10,0.6,0.6
2023-11-28T2200,3148A,103.8291,30.0564,眉山市,区人社局,细颗粒物(PM2.5),98,96,79,73,69,38,,86,78,70,49,18,12,0.9,0.9
2023-11-28T2200,1690A,116.1231,24.3284,梅州市,梅江月梅,颗粒物(PM10),57,64,43,28,29,5,,94,67,61,26,12,12,0.6,0.6
2023-11-28T2200,1691A,116.0797,24.2719,梅州市,梅县新城,颗粒物(PM10),62,73,55,42,33,7,,85,52,56,30,7,8,1.0,0.8
2023-11-28T2200,1692A,116.1248,24.2654,梅州市,环境监控中心,颗粒物(PM10),57,64,57,33,39,4,,84,52,73,39,6,11,0.7,0.6
2023-11-28T2200,3315A,116.1233,24.2991,梅州市,梅龙,颗粒物(PM10),60,70,47,32,33,16,,87,58,43,24,6,7,0.8,0.8
2023-11-28T2200,1878A,104.7778,31.4741,绵阳市,富乐山,颗粒物(PM10),52,54,63,33,39,72,,96,93,14,33,7,8,0.6,0.7
2023-11-28T2200,1879A,104.7563,31.4535,绵阳市,市人大,细颗粒物(PM2.5),60,64,80,43,45,29,,74,66,50,41,9,10,0.6,0.7
2023-11-28T2200,1880A,104.6697,31.4668,绵阳市,高新区自来水公司,颗粒物(PM10),74,97,108,36,45,7,,82,66,74,41,7,10,0.6,0.7
2023-11-28T2200,1881A,104.7287,31.5075,绵阳市,三水厂,"颗粒物(PM10),细颗粒物(PM2.5)",64,78,89,46,52,1,,79,60,82,41,6,6,0.8,0.8
2023-11-28T2200,3491A,104.69,31.5322,绵阳市,西科大附属小学,细颗粒物(PM2.5),69,83,77,50,44,14,,88,78,67,40,9,10,0.5,0.5
2023-11-28T2200,3492A,104.5648,31.5343,绵阳市,安州区旅游局,细颗粒物(PM2.5),85,96,86,63,49,48,,79,72,37,35,8,11,0.8,0.8
2023-11-28T2200,1784A,129.61,44.561,牡丹江市,环保大楼,,43,35,50,30,41,49,,68,58,24,22,7,9,0.4,0.4
2023-11-28T2200,1785A,129.6115,44.5782,牡丹江市,文化广场,,43,38,52,30,45,39,,62,52,32,24,10,12,0.4,0.5
2023-11-28T2200,1786A,129.5904,44.5963,牡丹江市,第一医院,细颗粒物(PM2.5),80,,54,59,47,21,,66,50,48,26,9,8,1.1,0.6
2023-11-28T2200,1787A,129.6364,44.6075,牡丹江市,机车工厂,,33,33,59,18,47,41,,65,50,26,29,8,8,0.4,0.5
2023-11-28T2200,1788A,129.6386,44.5462,牡丹江市,第一中学,,46,,52,32,42,53,,68,58,12,23,6,8,0.4,0.5
2023-11-28T2200,2531A,105.0703,29.61,内江市,市监测站,细颗粒物(PM2.5),77,61,67,56,60,46,,69,61,40,48,5,6,0.7,0.8
2023-11-28T2200,2532A,105.0717,29.5947,内江市,东兴区政府,细颗粒物(PM2.5),72,60,60,52,52,48,,86,79,38,36,12,11,0.6,0.7
2023-11-28T2200,2533A,105.0653,29.5817,内江市,内江二中,细颗粒物(PM2.5),108,,70,81,81,58,,88,84,31,38,8,9,0.7,0.7
2023-11-28T2200,2534A,105.0406,29.5822,内江市,内江日报社,细颗粒物(PM2.5),65,62,69,47,57,62,,86,84,29,44,7,8,0.6,0.8
2023-11-28T2200,1290A,115.8931,28.6843,南昌市,省外办,细颗粒物(PM2.5),107,142,120,80,72,4,,80,52,91,57,6,8,1.3,1
2023-11-28T2200,1291A,115.8886,28.7003,南昌市,省林业公司,颗粒物(PM10),87,124,98,61,56,3,,78,59,112,60,5,7,1.0,0.9
2023-11-28T2200,1292A,115.8126,28.7442,南昌市,林科所,颗粒物(PM10),60,70,82,39,48,25,,109,79,69,42,11,8,1.5,0.7
2023-11-28T2200,1294A,115.8518,28.687,南昌市,建工学校,细颗粒物(PM2.5),107,135,107,80,61,4,,90,59,108,60,12,13,1.4,1
2023-11-28T2200,1295A,115.8921,28.6424,南昌市,象湖,细颗粒物(PM2.5),107,159,105,80,66,2,,91,52,111,62,8,9,2.3,1.1
2023-11-28T2200,1296A,115.7423,28.7996,南昌市,武术学校,,40,40,36,13,19,18,,80,61,11,13,5,4,0.5,0.4
2023-11-28T2200,1298A,115.9314,28.6842,南昌市,省站,"颗粒物(PM10),细颗粒物(PM2.5)",112,174,125,84,68,4,,90,64,85,48,6,6,1.3,0.9
2023-11-28T2200,3046A,115.9084,28.6062,南昌市,机电学校,颗粒物(PM10),95,140,131,66,73,4,,92,55,101,61,8,11,1.3,0.8
2023-11-28T2200,3690A,115.9721,28.7031,南昌市,外国语学校,细颗粒物(PM2.5),95,129,93,71,56,2,,88,55,85,45,8,7,1.2,1
2023-11-28T2200,1905A,106.056,30.8064,南充市,西山风景区,细颗粒物(PM2.5),59,52,57,42,45,37,,48,47,31,35,4,9,0.5,0.5
2023-11-28T2200,1906A,106.0789,30.8023,南充市,南充市委,细颗粒物(PM2.5),64,76,83,46,49,15,,39,36,38,33,5,6,0.7,0.7
2023-11-28T2200,1907A,106.1031,30.8217,南充市,南充炼油厂,颗粒物(PM10),98,145,89,57,48,27,,44,41,24,34,6,5,0.9,0.7
2023-11-28T2200,1908A,106.1064,30.7856,南充市,高坪区监测站,细颗粒物(PM2.5),68,73,87,49,51,24,,47,45,30,38,6,18,0.5,0.6
2023-11-28T2200,1909A,106.0642,30.7636,南充市,嘉陵区环保局,细颗粒物(PM2.5),64,64,94,46,55,24,,36,36,28,43,4,20,0.4,0.7
2023-11-28T2200,1910A,106.1087,30.8388,南充市,市环境监测站,细颗粒物(PM2.5),60,66,81,43,49,34,,48,46,17,33,6,6,0.5,0.6
2023-11-28T2200,1151A,118.8086,32.1065,南京市,迈皋桥,细颗粒物(PM2.5),98,144,122,73,58,70,,79,76,43,45,6,6,0.6,0.5
2023-11-28T2200,1152A,118.7538,32.0551,南京市,草场门,细颗粒物(PM2.5),92,127,118,68,57,67,,80,76,53,48,5,5,0.6,0.5
2023-11-28T2200,1153A,118.7794,32.0745,南京市,山西路,,,146,130,,66,80,,90,88,29,31,7,7,0.9,0.8
2023-11-28T2200,1154A,118.7752,32.0023,南京市,中华门,细颗粒物(PM2.5),104,141,118,78,59,58,,80,75,46,38,4,4,0.8,0.7
2023-11-28T2200,1155A,118.8109,32.0309,南京市,瑞金路,细颗粒物(PM2.5),98,134,122,73,58,58,,76,72,59,51,10,9,0.7,0.7
2023-11-28T2200,1156A,118.7997,32.0754,南京市,玄武湖,细颗粒物(PM2.5),100,123,100,75,61,74,,81,80,24,37,10,9,0.7,0.8
2023-11-28T2200,1157A,118.6414,32.0931,南京市,浦口,细颗粒物(PM2.5),103,148,135,77,66,59,,74,69,52,36,7,7,1.1,1
2023-11-28T2200,1158A,118.7356,31.9996,南京市,奥体中心,细颗粒物(PM2.5),107,141,126,80,63,64,,85,80,49,41,7,7,0.6,0.5
2023-11-28T2200,1159A,118.9125,32.1028,南京市,仙林大学城,细颗粒物(PM2.5),119,156,116,90,65,70,,85,82,42,45,6,6,1.0,0.9
2023-11-28T2200,3422A,118.8436,31.9198,南京市,江宁彩虹桥,细颗粒物(PM2.5),110,152,129,83,60,53,,89,77,52,46,7,8,1.1,1.1
2023-11-28T2200,3423A,119.0138,31.6494,南京市,溧水永阳,细颗粒物(PM2.5),128,149,126,97,71,56,,92,80,52,41,4,11,0.9,1
2023-11-28T2200,3424A,118.879,31.3302,南京市,高淳老职中,细颗粒物(PM2.5),108,133,111,81,69,71,,90,82,34,41,9,8,0.2,0.7
2023-11-28T2200,3427A,118.8554,32.3578,南京市,六合雄州,细颗粒物(PM2.5),83,95,118,61,60,27,,75,47,61,40,2,4,0.7,0.7
2023-11-28T2200,1401A,108.3103,22.7881,南宁市,二十一中,细颗粒物(PM2.5),73,77,69,53,47,112,,143,137,28,35,8,12,1.0,1
2023-11-28T2200,1402A,108.3141,22.8528,南宁市,北湖,细颗粒物(PM2.5),95,94,75,71,48,21,,138,119,76,36,7,16,1.1,0.9
2023-11-28T2200,1403A,108.3206,22.8225,南宁市,市监测站,细颗粒物(PM2.5),77,71,69,56,47,86,,136,130,54,38,8,15,1.0,0.9
2023-11-28T2200,1404A,108.3829,22.8037,南宁市,大自然花园,细颗粒物(PM2.5),84,81,58,62,43,70,,126,114,38,24,7,9,1.0,0.9
2023-11-28T2200,1405A,108.4394,22.7904,南宁市,仙葫,细颗粒物(PM2.5),87,90,64,64,43,48,,134,119,68,39,7,10,0.9,0.8
2023-11-28T2200,1406A,108.2397,22.8467,南宁市,区农职院,细颗粒物(PM2.5),74,96,69,54,42,33,,129,107,58,34,10,12,1.0,0.9
2023-11-28T2200,1407A,108.3275,22.735,南宁市,英华嘉园,颗粒物(PM10),93,136,76,60,49,28,,119,97,105,46,13,15,0.9,0.8
2023-11-28T2200,1408A,108.2257,22.7757,南宁市,沙井镇街道办,颗粒物(PM10),113,175,97,66,51,22,,117,84,93,49,9,12,1.0,1
2023-11-28T2200,3401A,108.4834,22.7618,南宁市,红星社区,细颗粒物(PM2.5),112,131,70,84,44,62,,129,113,47,34,8,11,1.1,0.9
2023-11-28T2200,2332A,118.1681,26.6369,南平市,南平市监测站,,38,37,47,26,36,73,,73,62,25,30,6,6,1.1,1.1
2023-11-28T2200,2333A,118.1825,26.6489,南平市,南平铝业有限公司,颗粒物(PM10),53,55,48,26,32,66,,73,70,29,28,8,7,0.8,0.8
2023-11-28T2200,2334A,118.1756,26.6272,南平市,南平七中,,49,49,45,26,32,71,,70,60,26,29,7,6,0.7,0.7
2023-11-28T2200,1168A,120.9098,31.9663,南通市,狼山街道,颗粒物(PM10),62,74,103,27,60,81,,94,89,18,41,7,8,0.5,0.8
2023-11-28T2200,1169A,120.86,32.0005,南通市,虹桥,颗粒物(PM10),61,71,109,31,61,73,,88,78,28,47,5,8,0.6,0.9
2023-11-28T2200,1170A,120.87,32.02,南通市,城中,颗粒物(PM10),54,57,96,25,53,60,,84,72,29,40,7,9,0.5,0.7
2023-11-28T2200,1171A,120.94,31.93,南通市,星湖花园,颗粒物(PM10),60,70,113,29,61,70,,84,71,21,47,6,8,0.4,0.7
2023-11-28T2200,1172A,120.81,32.0417,南通市,紫琅学院,颗粒物(PM10),63,75,112,21,50,61,,81,70,29,43,6,9,0.4,0.6
2023-11-28T2200,3291A,121.067,32.062,南通市,通州监测站,颗粒物(PM10),65,80,113,34,60,68,,94,82,23,38,7,8,0.4,0.6
2023-11-28T2200,3432A,120.9348,31.9883,南通市,环境教育馆,颗粒物(PM10),56,61,87,28,54,31,,91,60,52,40,7,8,0.4,0.6
2023-11-28T2200,2404A,112.5224,33.0122,南阳市,瓦房庄,细颗粒物(PM2.5),92,111,92,68,53,4,,50,29,81,45,9,7,1.5,0.7
2023-11-28T2200,2405A,112.5003,32.9735,南阳市,汉画馆,细颗粒物(PM2.5),82,112,99,60,48,5,,51,28,70,37,6,6,1.2,0.7
2023-11-28T2200,2406A,112.5573,33.027,南阳市,气象站,颗粒物(PM10),78,106,94,56,47,14,,54,37,70,39,4,4,1.0,0.6
2023-11-28T2200,2407A,112.5481,32.9689,南阳市,理工学院,颗粒物(PM10),80,109,95,48,52,5,,56,39,86,43,8,6,0.6,0.5
2023-11-28T2200,4008A,112.5234,32.9922,南阳市,卧龙区政府,颗粒物(PM10),86,121,109,60,53,3,,48,22,77,44,7,6,1.2,0.7
2023-11-28T2200,1234A,121.8358,29.911,宁波市,区环保大楼,颗粒物(PM10),94,137,109,53,47,17,,86,52,102,69,9,9,0.9,1
2023-11-28T2200,1235A,121.56,29.82,宁波市,万里学院,颗粒物(PM10),100,149,115,48,46,4,,96,52,91,60,7,8,0.8,0.9
2023-11-28T2200,1236A,121.713,29.9572,宁波市,龙赛医院,颗粒物(PM10),85,119,118,44,48,31,,90,59,85,76,10,10,0.7,0.8
2023-11-28T2200,1239A,121.633,29.7733,宁波市,钱湖水厂,颗粒物(PM10),76,101,85,38,42,50,,91,73,35,38,8,8,0.6,0.6
2023-11-28T2200,1240A,121.5856,29.8635,宁波市,太古小学,颗粒物(PM10),74,98,102,40,45,28,,90,58,71,62,11,11,0.9,0.9
2023-11-28T2200,1241A,121.524,29.8674,宁波市,市环境监测中心,颗粒物(PM10),81,111,91,42,44,25,,94,62,75,58,14,13,1.0,1
2023-11-28T2200,2871A,121.6147,29.9017,宁波市,万里国际学校,颗粒物(PM10),77,104,109,50,59,18,,84,48,86,71,11,10,0.9,1
2023-11-28T2200,3710A,121.5594,29.8975,宁波市,白沙活动中心,颗粒物(PM10),75,100,93,40,47,19,,89,50,89,66,10,9,0.9,0.8
2023-11-28T2200,2341A,119.5388,26.6612,宁德市,宁德市监测站,颗粒物(PM10),53,56,48,30,30,98,,123,116,15,17,5,5,0.5,0.6
2023-11-28T2200,3209A,119.5231,26.6562,宁德市,宁德一中,颗粒物(PM10),53,56,49,27,26,90,,119,111,13,16,5,7,0.7,0.7
2023-11-28T2200,2618A,98.8601,25.8567,怒江州,州监测站,,47,47,28,32,17,31,,64,54,23,12,7,7,0.4,0.3
2023-11-28T2200,2619A,98.8546,25.8417,怒江州,泸水一中,,37,37,26,23,15,15,,53,41,32,21,7,7,0.5,0.4
2023-11-28T2200,1888A,101.6891,26.571,攀枝花市,弄弄坪,细颗粒物(PM2.5),74,78,67,54,48,45,,83,79,36,36,26,33,1.0,1.8
2023-11-28T2200,1889A,101.5769,26.5928,攀枝花市,河门口,细颗粒物(PM2.5),73,84,65,53,39,48,,93,86,34,33,18,20,1.3,1.3
2023-11-28T2200,1890A,101.7169,26.585,攀枝花市,炳草岗,细颗粒物(PM2.5),82,95,76,60,43,6,,78,61,85,53,31,35,2.3,1.7
2023-11-28T2200,1891A,101.7369,26.5008,攀枝花市,仁和,细颗粒物(PM2.5),67,77,64,48,44,38,,95,81,36,29,14,21,1.0,1.3
2023-11-28T2200,2835A,101.7227,26.567,攀枝花市,四十中小,颗粒物(PM10),75,99,82,51,45,17,,76,63,84,60,21,22,2.3,2
2023-11-28T2200,1604A,122.0303,41.1489,盘锦市,开发区,,50,43,29,35,16,21,,63,37,57,34,33,18,1.1,0.8
2023-11-28T2200,1605A,122.0485,41.0883,盘锦市,兴隆台,,45,45,20,28,16,32,,66,42,44,32,17,16,0.7,0.5
2023-11-28T2200,1606A,121.8297,41.1028,盘锦市,新生街道,细颗粒物(PM2.5),52,51,24,36,8,13,,68,43,55,29,35,15,1.0,0.7
2023-11-28T2200,1832A,113.3257,33.742,平顶山市,新华旅馆,颗粒物(PM10),88,126,128,60,49,38,,60,49,39,35,8,10,0.6,0.6
2023-11-28T2200,1833A,113.2919,33.737,平顶山市,规划设计院,细颗粒物(PM2.5),95,125,108,71,51,36,,59,46,39,37,9,10,0.7,0.8
2023-11-28T2200,1834A,113.182,33.774,平顶山市,平顶山工学院,颗粒物(PM10),87,124,102,53,40,30,,66,54,49,33,8,8,0.9,0.8
2023-11-28T2200,3204A,113.3025,33.73,平顶山市,规划局,颗粒物(PM10),97,144,136,69,53,32,,61,49,34,30,9,10,0.9,0.9
2023-11-28T2200,3594A,112.8867,33.9116,平顶山市,石龙区,颗粒物(PM10),106,162,134,60,50,9,,67,48,69,47,12,11,0.8,0.8
2023-11-28T2200,2656A,106.6692,35.5461,平凉市,聚贤嘉苑,颗粒物(PM10),61,72,69,29,25,36,,51,36,40,44,8,12,0.5,0.6
2023-11-28T2200,2657A,106.7021,35.5307,平凉市,博物馆,细颗粒物(PM2.5),70,83,81,51,32,32,,52,36,52,56,14,15,1.0,1
2023-11-28T2200,2347A,114.0997,27.5002,萍乡市,武功山,,38,,29,26,19,53,,94,84,7,8,5,5,0.3,0.3
2023-11-28T2200,2348A,113.8385,27.6434,萍乡市,中医院,颗粒物(PM10),73,96,88,49,55,49,,82,75,40,37,20,19,1.1,1.2
2023-11-28T2200,2349A,113.8493,27.6253,萍乡市,市政府车库,细颗粒物(PM2.5),89,100,87,66,57,26,,81,61,61,38,26,19,1.8,1.6
2023-11-28T2200,2350A,113.8676,27.6435,萍乡市,市环保局,颗粒物(PM10),73,96,84,52,49,40,,89,82,48,39,26,16,0.9,0.9
2023-11-28T2200,2351A,113.866,27.6198,萍乡市,安源区政府,颗粒物(PM10),75,100,86,48,53,58,,84,78,32,34,28,20,0.7,1.5
2023-11-28T2200,2319A,119.0141,25.4325,莆田市,荔城区仓后路,颗粒物(PM10),57,63,52,23,30,130,,139,138,11,13,6,6,0.6,0.7
2023-11-28T2200,2320A,119.0015,25.4553,莆田市,莆田市监测站,颗粒物(PM10),54,57,48,23,28,136,,142,142,8,11,6,6,0.5,0.6
2023-11-28T2200,2321A,119.1119,25.4561,莆田市,涵江区六中,颗粒物(PM10),54,57,54,18,30,131,,148,146,9,15,8,8,0.5,0.7
2023-11-28T2200,2322A,119.1013,25.3215,莆田市,秀屿区政府,颗粒物(PM10),52,54,56,19,33,128,,144,142,10,17,8,9,0.6,0.8
2023-11-28T2200,2392A,115.0312,35.7636,濮阳市,环保局,细颗粒物(PM2.5),90,106,105,67,72,7,,54,36,74,49,14,8,0.8,0.8
2023-11-28T2200,2394A,115.0574,35.7609,濮阳市,油田运输公司,细颗粒物(PM2.5),97,126,128,72,76,4,,60,36,80,52,14,8,1.0,0.8
2023-11-28T2200,2395A,115.0866,35.7754,濮阳市,油田物探公司,细颗粒物(PM2.5),117,152,135,88,78,7,,54,32,76,52,12,6,0.9,0.8
2023-11-28T2200,3021A,115,35.7668,濮阳市,濮水河管理处,细颗粒物(PM2.5),88,94,107,65,74,12,,58,35,63,47,5,7,0.7,0.7
2023-11-28T2200,2601A,100.98,22.7633,普洱市,市环保局,细颗粒物(PM2.5),54,54,41,38,25,28,,67,53,10,12,3,3,0.4,0.4
2023-11-28T2200,2602A,100.9817,22.8322,普洱市,普洱第二中学,"颗粒物(PM10),细颗粒物(PM2.5)",53,55,38,37,17,17,,76,56,34,22,4,5,0.9,0.6
2023-11-28T2200,2262A,131.0518,45.8751,七台河市,新一中,细颗粒物(PM2.5),58,47,50,41,45,68,,84,77,18,16,11,11,0.8,0.7
2023-11-28T2200,3345A,131.0577,45.7879,七台河市,中波台,细颗粒物(PM2.5),75,63,63,55,57,50,,63,56,32,33,11,9,0.8,0.8
2023-11-28T2200,3637A,131.0176,45.7761,七台河市,人民广场,细颗粒物(PM2.5),84,65,65,62,56,47,,60,51,38,36,6,8,0.9,0.9
2023-11-28T2200,3684A,130.8781,45.8222,七台河市,新建矿广场,细颗粒物(PM2.5),64,46,54,46,56,59,,65,62,20,30,7,12,0.7,0.8
2023-11-28T2200,1779A,123.9305,47.3636,齐齐哈尔市,安居小区,,43,32,24,30,25,48,,60,51,14,15,6,6,0.4,0.3
2023-11-28T2200,1780A,123.9488,47.3386,齐齐哈尔市,中心广场,,29,29,19,11,9,50,,53,42,13,17,3,3,0.8,0.7
2023-11-28T2200,1781A,123.9483,47.3227,齐齐哈尔市,农牧车辆厂,,30,,22,21,15,50,,54,43,11,16,6,7,0.4,0.4
2023-11-28T2200,1783A,123.945,47.2988,齐齐哈尔市,市环境监测站,,23,23,25,11,12,54,,54,47,9,15,4,4,0.3,0.5
2023-11-28T2200,3662A,123.6333,47.2075,齐齐哈尔市,富区青少年活动中心,,29,,23,20,12,60,,60,43,8,16,6,9,0.3,0.5
2023-11-28T2200,2591A,107.9783,26.5747,黔东南苗族侗族自治州,市环境监测站,,,31,47,19,35,66,,56,56,24,28,5,5,,1
2023-11-28T2200,2881A,107.8908,26.5311,黔东南苗族侗族自治州,凯里学院,,33,32,36,19,25,103,,90,90,4,14,6,4,0.7,0.9
2023-11-28T2200,2593A,107.5228,26.2403,黔南布依族苗族自治州,小围寨,,34,34,35,19,15,79,,87,84,4,11,3,3,0.4,0.5
2023-11-28T2200,3538A,107.5175,26.2978,黔南布依族苗族自治州,沙坝,,39,39,36,22,16,72,,83,79,6,10,4,4,0.4,0.5
2023-11-28T2200,2589A,104.9022,25.0925,黔西南布依族苗族自治州,场坝街,细颗粒物(PM2.5),57,40,45,40,32,82,,86,85,8,14,4,4,0.3,0.4
2023-11-28T2200,2590A,104.8811,25.0992,黔西南布依族苗族自治州,坪东大道,细颗粒物(PM2.5),64,76,43,46,32,8,,86,65,60,21,2,2,0.6,0.3
2023-11-28T2200,2502A,108.6236,21.9667,钦州市,市环保站,细颗粒物(PM2.5),73,88,93,53,48,115,,135,128,23,34,8,12,0.9,1.3
2023-11-28T2200,2503A,108.6549,21.9481,钦州市,沙埠小学,细颗粒物(PM2.5),117,118,88,88,60,41,,129,115,73,32,11,12,1.0,0.9
2023-11-28T2200,2504A,108.5989,21.7431,钦州市,港区一小,颗粒物(PM10),76,102,99,55,50,87,,140,132,39,26,13,13,0.9,0.9
2023-11-28T2200,3404A,108.5959,21.9633,钦州市,北职校,细颗粒物(PM2.5),114,105,82,86,60,45,,131,110,62,26,10,10,1.0,1.1
2023-11-28T2200,1042A,119.5134,39.8207,秦皇岛市,北戴河环保局,,46,46,20,26,13,26,,66,51,40,17,12,9,1.2,0.4
2023-11-28T2200,1043A,119.7493,40.0116,秦皇岛市,第一关,,50,45,33,35,20,6,,66,29,61,34,14,10,0.7,0.4
2023-11-28T2200,1044A,119.5897,39.9499,秦皇岛市,监测站,,45,45,27,25,18,11,,62,44,61,23,14,9,0.8,0.3
2023-11-28T2200,1046A,119.5251,39.9041,秦皇岛市,建设大厦,"颗粒物(PM10),细颗粒物(PM2.5)",53,55,28,37,24,8,,61,38,62,24,12,4,0.6,0.2
2023-11-28T2200,3132A,119.610547,39.943889,秦皇岛市,文明里,颗粒物(PM10),53,56,29,27,15,8,,60,42,66,23,13,7,0.9,0.4
2023-11-28T2200,1307A,120.6659,36.2403,青岛市,仰口,,36,36,46,24,28,46,,64,58,20,24,3,8,0.7,0.7
2023-11-28T2200,1310A,120.4134,36.0658,青岛市,市南区东部子站,,44,44,75,17,38,26,,62,45,52,43,8,10,0.6,0.7
2023-11-28T2200,1311A,120.3664,36.1032,青岛市,四方区子站,,36,36,66,22,45,30,,68,47,50,42,6,7,0.6,0.7
2023-11-28T2200,1312A,120.2994,36.054,青岛市,市南区西部子站,,39,39,70,12,37,44,,64,52,34,38,7,8,0.4,0.6
2023-11-28T2200,1313A,120.4581,36.0858,青岛市,崂山区子站,,31,31,62,14,31,33,,64,50,38,35,7,8,0.6,0.7
2023-11-28T2200,1314A,120.1983,35.9608,青岛市,黄岛区子站,,39,39,74,20,47,14,,59,29,72,51,9,8,0.5,0.6
2023-11-28T2200,1315A,120.3999,36.3083,青岛市,城阳区子站,,48,48,70,29,37,44,,66,49,31,34,10,9,0.8,0.9
2023-11-28T2200,1966A,120.0405,35.8735,青岛市,黄岛区4号,,,,72,,35,,,66,55,,37,,8,,0.8
2023-11-28T2200,3362A,120.5014,36.4034,青岛市,即墨2号,,41,41,67,25,39,45,,58,46,18,34,3,6,0.6,0.7
2023-11-28T2200,3642A,120.3503,36.0736,青岛市,市北区南部,,48,48,89,9,37,14,,55,40,70,48,7,10,0.6,0.8
2023-11-28T2200,3643A,120.3948,36.1805,青岛市,李沧区北部,,46,46,73,19,45,20,,66,44,64,51,8,9,0.8,0.9
2023-11-28T2200,1702A,113.0426,23.691,清远市,环保大楼,细颗粒物(PM2.5),65,65,47,47,33,53,,117,97,38,21,3,8,0.7,0.6
2023-11-28T2200,1703A,113.0208,23.7106,清远市,凤城街办,颗粒物(PM10),59,68,51,33,29,70,,124,104,35,23,7,11,1.0,0.8
2023-11-28T2200,3025A,113.0477,23.6344,清远市,技师学院,颗粒物(PM10),82,114,56,54,31,5,,84,59,60,26,8,11,0.9,0.7
2023-11-28T2200,3318A,112.9903,23.7403,清远市,清新太和,,50,50,46,32,28,123,,121,121,9,14,7,6,0.7,0.7
2023-11-28T2200,3455A,113.076,23.7198,清远市,清城东城,颗粒物(PM10),60,69,48,42,32,49,,125,100,40,23,8,13,0.7,0.7
2023-11-28T2200,2661A,107.6325,35.7357,庆阳市,庆阳五中,颗粒物(PM10),64,78,66,30,26,33,,65,42,41,25,22,11,0.6,0.6
2023-11-28T2200,2662A,107.6364,35.7067,庆阳市,市环保局,颗粒物(PM10),58,66,58,25,23,50,,61,50,30,24,13,13,0.4,0.4
2023-11-28T2200,1916A,103.7897,25.5035,曲靖市,环境监测站,颗粒物(PM10),55,59,51,27,29,74,,94,88,22,22,5,10,0.4,0.6
