timepoint,stationcode,longitude,latitude,area,positionname,primarypollutant,aqi,pm10,pm10_24h,pm2_5,pm2_5_24h,o3,o3_24h,o3_8h,o3_8h_24h,no2,no2_24h,so2,so2_24h,co,co_24h
2025-08-28T2200,2566A,102.1879,31.914,阿坝藏族羌族自治州,州农科所,,17,14,18,7,7,54,,69,68,5,7,3,4,0.1,0.1
2025-08-28T2200,2568A,102.2502,31.8896,阿坝藏族羌族自治州,马师校,,21,21,18,12,15,31,,58,54,8,7,8,8,0.5,0.5
2025-08-28T2200,3994A,102.2165,31.9024,阿坝藏族羌族自治州,马尔康中学西区,,30,,14,21,13,47,,67,66,4,4,9,8,0.6,0.6
2025-08-28T2200,2695A,80.292,41.1694,阿克苏地区,电视台,颗粒物(PM10),106,162,95,46,34,77,,114,109,22,11,4,4,0.7,0.6
2025-08-28T2200,2696A,80.2613,41.1551,阿克苏地区,艺术中心,颗粒物(PM10),89,127,89,51,38,58,,119,111,28,25,4,4,0.5,0.2
2025-08-28T2200,2204A,105.6467,38.8363,阿拉善盟,西城区西花园,,40,40,23,10,13,97,,108,99,11,10,9,8,0.4,0.4
2025-08-28T2200,2205A,105.6985,38.8411,阿拉善盟,蒙二幼,,36,36,25,12,9,97,,105,102,5,6,9,9,0.5,0.5
2025-08-28T2200,2206A,105.724,38.8516,阿拉善盟,环保局新楼,,33,32,21,11,8,104,,106,105,5,5,10,10,0.4,0.4
2025-08-28T2200,2708A,88.1264,47.8517,阿勒泰地区,市站,,27,27,33,3,6,79,,82,82,8,13,3,3,0.3,0.4
2025-08-28T2200,2630A,80.1161,32.5,阿里地区,阿里监测站,,32,9,7,3,3,101,,96,96,6,7,7,7,0.1,0.1
2025-08-28T2200,3192A,80.0903,32.5028,阿里地区,阿里藏医院,,35,16,9,3,3,112,,105,105,1,3,6,6,0.3,0.3
2025-08-28T2200,2642A,109.0318,32.6537,安康市,香溪洞,,23,20,18,3,6,72,,75,70,5,6,7,8,0.5,0.4
2025-08-28T2200,2644A,109.0072,32.6975,安康市,汉滨区检察院,,19,17,21,8,8,59,,69,62,9,8,5,6,0.6,0.5
2025-08-28T2200,4054A,109.0325,32.6913,安康市,市邮政管理局,,19,19,18,9,10,52,,68,59,9,8,5,5,0.6,0.5
2025-08-28T2200,2291A,117.0809,30.5177,安庆市,环科院,,34,34,28,19,18,90,,116,103,12,19,29,7,0.7,0.6
2025-08-28T2200,2292A,117.0331,30.5119,安庆市,马山宾馆,,33,33,24,22,17,94,,114,97,14,22,27,7,0.6,0.4
2025-08-28T2200,2294A,116.9896,30.6145,安庆市,安庆大学,,34,34,26,14,16,77,,114,87,12,15,4,5,0.5,0.6
2025-08-28T2200,3173A,117.0598,30.5351,安庆市,市人大,,39,37,25,27,18,73,,117,102,24,18,34,8,1.7,0.6
2025-08-28T2200,3122A,105.9606,26.2611,安顺市,伍家关,,,,10,12,10,43,,64,56,7,5,7,6,0.5,0.5
2025-08-28T2200,3123A,105.9408,26.2431,安顺市,凤凰山,,18,14,12,12,10,31,,58,48,11,6,7,6,0.5,0.4
2025-08-28T2200,3124A,105.9439,26.2564,安顺市,金钟山,,15,13,11,10,9,44,,62,55,6,4,6,6,0.4,0.4
2025-08-28T2200,3125A,105.8983,26.2481,安顺市,娄家坡,,29,,10,20,11,39,,58,52,6,3,8,8,0.5,0.4
2025-08-28T2200,1818A,114.4839,36.0621,安阳市,棉研所,,,,,,,,,,,,,,,,
2025-08-28T2200,1819A,114.3551,36.1017,安阳市,红庙街,,40,40,33,23,15,64,,127,104,20,11,22,10,0.7,0.6
2025-08-28T2200,1820A,114.361,36.0681,安阳市,银杏小区,,38,38,32,25,19,63,,131,104,17,12,7,7,0.6,0.6
2025-08-28T2200,3141A,114.3922,36.0878,安阳市,信访局,,42,42,30,21,16,72,,136,115,14,10,11,7,1.0,0.9
2025-08-28T2200,3669A,114.4705,36.0637,安阳市,左辅环卫站,,30,29,25,21,14,55,,126,98,23,14,5,6,0.7,0.6
2025-08-28T2200,3703A,114.2917,36.0949,安阳市,安钢职工学校,,43,43,34,27,20,72,,130,108,14,9,8,9,0.8,0.7
2025-08-28T2200,1748A,123.044,41.1196,鞍山市,深沟寺,,21,21,21,14,10,31,,50,39,13,16,7,7,1.1,1
2025-08-28T2200,1749A,123.011,41.0931,鞍山市,太阳城,,32,27,22,22,14,40,,50,40,13,17,6,5,0.9,1
2025-08-28T2200,1750A,123.0485,41.1442,鞍山市,太平,,33,33,31,21,14,41,,48,43,20,20,8,6,1.3,1.2
2025-08-28T2200,1751A,122.9642,41.0971,鞍山市,铁西三道街,,21,21,27,14,15,41,,45,41,18,23,6,6,1.0,1.1
2025-08-28T2200,1753A,123.022,41.0821,鞍山市,明达新区,,21,21,17,14,10,42,,49,39,13,15,8,7,1.0,1
2025-08-28T2200,1754A,123.1289,41.0228,鞍山市,千山,,,,21,,7,,,51,,,6,,3,,0.5
2025-08-28T2200,4201A,122.9446,41.0826,鞍山市,兴盛南路290号,,22,22,23,13,11,25,,45,34,27,28,7,8,1.0,1.2
2025-08-28T2200,2195A,107.4212,40.761,巴彦淖尔市,附二中,,27,26,20,13,11,85,,123,109,14,7,8,8,0.5,0.5
2025-08-28T2200,2196A,107.37,40.7372,巴彦淖尔市,市环保大楼,,38,38,28,11,10,63,,110,91,14,8,8,8,0.5,0.5
2025-08-28T2200,1956A,86.1472,41.7538,巴音郭楞蒙古自治州,孔雀公园,颗粒物(PM10),130,210,194,64,48,72,,111,102,23,19,4,4,0.4,0.3
2025-08-28T2200,1957A,86.1972,41.7166,巴音郭楞蒙古自治州,棉纺厂,,,,268,,48,,,91,,,13,,4,,0.2
2025-08-28T2200,1958A,86.2357,41.7173,巴音郭楞蒙古自治州,经济开发区,颗粒物(PM10),127,203,216,57,51,82,,121,108,10,10,5,5,0.3,0.3
2025-08-28T2200,2914A,106.7677,31.8794,巴中市,苏山坪,,21,6,13,3,10,65,,74,71,4,5,4,4,0.4,0.4
2025-08-28T2200,3181A,106.7768,31.8526,巴中市,市五中,,21,16,28,6,15,66,,80,74,2,14,6,7,0.4,0.4
2025-08-28T2200,3183A,106.7418,31.8654,巴中市,圣泉水务公司,,23,8,16,3,11,72,,82,77,3,6,6,6,0.4,0.5
2025-08-28T2200,3616A,106.7616,31.8344,巴中市,市中心医院,,21,13,24,11,16,66,,82,74,4,14,6,6,0.3,0.3
2025-08-28T2200,2235A,122.7911,45.6077,白城市,洮北区环保局,,22,22,13,8,6,42,,71,66,16,8,5,5,0.4,0.3
2025-08-28T2200,2236A,122.8738,45.5725,白城市,市环保局,,23,19,20,16,11,12,,64,53,31,11,5,4,0.4,0.4
2025-08-28T2200,2231A,126.4219,41.9171,白山市,喜丰,,28,28,27,6,8,9,,32,24,25,21,7,7,0.6,0.6
2025-08-28T2200,2232A,126.4077,41.9419,白山市,环保局,,33,33,23,17,11,18,,51,40,18,13,5,6,0.7,0.6
2025-08-28T2200,2647A,104.1724,36.5446,白银市,第三小学,,24,14,17,11,15,76,,81,81,12,11,5,10,0.5,0.8
2025-08-28T2200,2648A,104.1465,36.5482,白银市,动力公司,,22,12,16,11,13,69,,85,83,14,10,6,8,0.4,0.7
2025-08-28T2200,2512A,106.6103,23.9011,百色市,市监测站,,25,18,26,8,10,78,,93,85,10,10,8,7,0.5,0.5
2025-08-28T2200,2513A,106.6538,23.8859,百色市,市中心血站,,,,29,,13,79,,81,77,13,18,4,7,0.5,0.6
2025-08-28T2200,3406A,106.6085,23.8798,百色市,祈福高中,,26,,36,18,12,65,,86,77,18,14,13,7,0.6,0.5
2025-08-28T2200,2270A,117.396,32.939,蚌埠市,工人疗养院,,25,25,38,11,20,78,,148,113,16,9,4,5,0.3,0.4
2025-08-28T2200,2271A,117.3605,32.9427,蚌埠市,百货大楼,,26,26,35,12,21,76,,144,113,18,9,6,7,0.5,0.6
2025-08-28T2200,2273A,117.4185,32.8911,蚌埠市,蚌埠学院,,24,22,32,10,21,74,,144,107,9,8,6,7,0.4,0.5
2025-08-28T2200,2274A,117.3533,32.9673,蚌埠市,淮上区政府,,31,31,39,15,24,64,,162,113,30,14,9,7,0.5,0.6
2025-08-28T2200,2275A,117.3145,32.8977,蚌埠市,高新区,,29,29,39,17,23,78,,151,120,11,10,6,7,0.6,0.7
2025-08-28T2200,3715A,117.3092,32.9314,蚌埠市,蚌埠田家炳中学,,30,30,36,11,24,86,,157,127,11,10,6,6,0.4,0.5
2025-08-28T2200,1585A,109.8756,40.6532,包头市,市环境监测站,颗粒物(PM10),54,57,44,16,25,9,,89,61,69,34,5,16,0.9,1.3
2025-08-28T2200,1587A,109.9991,40.5842,包头市,包头八中,颗粒物(PM10),56,61,34,14,22,19,,96,72,65,25,5,13,0.6,0.8
2025-08-28T2200,1588A,109.8538,40.6821,包头市,青山宾馆,,45,45,38,12,25,0,,82,45,63,37,3,7,0.6,0.9
2025-08-28T2200,1589A,109.8642,40.6288,包头市,惠龙物流,颗粒物(PM10),56,62,38,24,20,17,,90,65,63,24,13,18,0.9,1.1
2025-08-28T2200,1590A,110.0377,40.5546,包头市,东河鸿龙湾,,32,31,20,22,14,38,,108,88,48,14,7,7,0.7,0.7
2025-08-28T2200,3283A,109.9154,40.5685,包头市,滨河大厦,,36,36,24,20,15,28,,101,80,44,14,16,11,0.6,0.5
2025-08-28T2200,3419A,109.9447,40.6261,包头市,包头市委党校,,44,44,32,24,22,3,,99,72,79,25,6,13,0.7,1
2025-08-28T2200,3683A,109.8331,40.6576,包头市,昆区政府,,40,40,50,17,29,2,,91,67,71,34,5,19,0.8,1.5
2025-08-28T2200,1930A,107.185,34.3063,宝鸡市,庙沟村,,31,6,9,3,5,99,,111,100,4,5,4,4,0.4,0.4
2025-08-28T2200,1931A,107.0708,34.3017,宝鸡市,竹园沟,,26,6,11,3,13,82,,86,81,5,5,8,8,0.2,0.3
2025-08-28T2200,1932A,107.1906,34.3672,宝鸡市,三陆医院,,18,10,16,10,8,57,,70,63,28,24,8,8,0.4,0.4
2025-08-28T2200,1933A,107.1431,34.3547,宝鸡市,监测站,,22,,47,6,8,69,,85,76,12,9,8,8,0.6,0.6
2025-08-28T2200,1934A,107.1186,34.3739,宝鸡市,技工学校,,23,22,24,3,11,72,,75,,10,8,6,6,0.4,1
2025-08-28T2200,1936A,107.2058,34.3497,宝鸡市,文理学院,,24,11,14,8,7,74,,85,78,14,12,7,7,0.4,0.5
2025-08-28T2200,1937A,107.2386,34.3622,宝鸡市,三迪小学,,22,13,13,10,9,69,,82,79,20,14,4,4,0.5,0.5
2025-08-28T2200,4308A,107.3898,34.3601,宝鸡市,陈仓区北开路21号,,,,6,,6,,,88,84,17,11,5,5,0.3,0.4
2025-08-28T2200,1051A,115.493,38.8632,保定市,游泳馆,,42,42,21,21,7,57,,112,104,33,7,1,6,0.8,0.4
2025-08-28T2200,1052A,115.5213,38.8959,保定市,华电二区,,39,39,17,18,8,49,,118,107,31,10,2,3,1.0,0.7
2025-08-28T2200,1053A,115.4713,38.9108,保定市,接待中心,,46,46,20,20,9,52,,109,99,22,6,3,2,0.6,0.6
2025-08-28T2200,1054A,115.4612,38.8416,保定市,地表水厂,颗粒物(PM10),55,60,21,20,8,44,,113,104,46,15,4,4,1.1,0.6
2025-08-28T2200,3581A,115.31981,38.95208,保定市,满城区生态环境分局,,36,36,19,19,9,30,,96,81,26,11,3,3,0.6,0.3
2025-08-28T2200,3582A,115.47694,38.76408,保定市,清苑区第二中学,颗粒物(PM10),52,54,23,18,9,24,,106,90,63,7,3,3,0.6,0.4
2025-08-28T2200,3583A,115.62909,39.02311,保定市,徐水物探局,颗粒物(PM10),59,67,23,14,3,22,,114,92,38,12,4,4,0.8,0.4
2025-08-28T2200,4004A,115.4202,38.8656,保定市,双鹰农机,细颗粒物(PM2.5),52,50,19,36,13,47,,121,108,34,10,6,6,0.8,0.4
2025-08-28T2200,4034A,115.5150,38.8590,保定市,植保所站,颗粒物(PM10),52,53,29,23,8,56,,128,118,47,16,3,3,0.3,0.2
2025-08-28T2200,2594A,99.1678,25.1081,保山市,市环境监测站,,30,,15,21,16,36,,70,62,6,7,9,8,0.4,0.4
2025-08-28T2200,2595A,99.1711,25.1328,保山市,市环保局,,20,17,15,14,13,39,,75,67,3,5,6,7,0.4,0.3
2025-08-28T2200,1866A,109.2262,21.588,北海市,牛尾岭水库,,12,7,20,3,14,38,,70,58,7,8,2,4,0.4,0.5
2025-08-28T2200,1867A,109.1436,21.4086,北海市,海滩公园,,23,23,30,10,13,40,,109,88,11,13,6,6,0.6,0.6
2025-08-28T2200,1868A,109.0981,21.4661,北海市,新市环保局,,28,28,27,17,21,38,,104,79,18,15,9,8,0.4,0.4
2025-08-28T2200,1869A,109.1778,21.5233,北海市,北海工业园,,22,22,35,15,21,38,,112,81,13,16,10,19,0.5,0.6
2025-08-28T2200,3400A,109.1911,21.4415,北海市,龙潭自来水厂,,22,20,30,15,22,33,,109,80,11,13,4,7,0.5,0.5
2025-08-28T2200,1001A,116.3621,39.8784,北京市,万寿西宫,,32,32,11,18,6,59,,92,85,18,10,2,2,0.7,0.6
2025-08-28T2200,1002A,116.2202,40.2915,北京市,定陵,,23,23,10,16,8,27,,83,64,2,3,5,4,0.6,0.5
2025-08-28T2200,1003A,116.4174,39.9289,北京市,东四,,30,30,12,15,6,65,,104,97,21,16,3,2,0.7,0.5
2025-08-28T2200,1004A,116.4072,39.8863,北京市,天坛,,20,20,9,12,6,7,,84,57,2,3,3,3,0.6,0.5
2025-08-28T2200,1005A,116.462,39.9365,北京市,农展馆,,28,28,12,16,7,62,,97,90,19,13,2,3,0.6,0.6
2025-08-28T2200,1006A,116.3392,39.9295,北京市,官园,,26,26,12,18,7,65,,101,94,18,14,5,6,0.6,0.5
2025-08-28T2200,1007A,116.2878,39.9611,北京市,海淀万柳,,28,28,11,15,6,50,,86,77,17,14,3,3,0.6,0.4
2025-08-28T2200,1008A,116.6636,40.135,北京市,顺义新城,,,,,,,,,,,,,,,,
2025-08-28T2200,1009A,116.6275,40.3275,北京市,怀柔镇,,26,26,10,15,6,35,,86,75,11,9,3,2,0.7,0.6
2025-08-28T2200,1010A,116.2296,40.217,北京市,昌平镇,,25,25,11,15,6,42,,84,77,10,14,4,4,0.7,0.7
2025-08-28T2200,1011A,116.3966,39.9821,北京市,奥体中心,,25,24,11,17,8,61,,97,92,17,14,4,3,0.6,0.4
2025-08-28T2200,3281A,115.9718,40.4529,北京市,延庆夏都,,33,33,16,23,11,52,,81,76,19,8,2,3,0.5,0.5
2025-08-28T2200,3418A,116.8336,40.4095,北京市,密云新城,,19,19,6,9,4,16,,71,53,4,2,2,2,0.5,0.4
2025-08-28T2200,3671A,116.088,39.9726,北京市,门头沟三家店,,29,29,13,15,8,9,,81,60,16,11,3,3,0.7,0.6
2025-08-28T2200,3672A,116.1541,39.8204,北京市,丰台云岗,,35,35,13,22,8,27,,80,64,19,7,5,5,0.7,0.5
2025-08-28T2200,3673A,116.6804,39.9081,北京市,通州东关,,34,34,11,20,6,64,,108,101,21,12,2,2,0.7,0.6
2025-08-28T2200,3674A,115.9577,39.7603,北京市,房山燕山,,22,20,12,15,10,29,,80,59,8,8,2,2,0.5,0.5
2025-08-28T2200,3675A,116.4672,39.7733,北京市,大兴旧宫,,23,23,8,11,4,34,,90,74,9,8,1,2,0.5,0.4
2025-08-28T2200,3694A,115.986,40.4563,北京市,延庆石河营,,36,34,17,25,12,44,,71,64,10,4,1,1,0.5,0.5
2025-08-28T2200,3695A,116.6151,40.3053,北京市,怀柔新城,,28,28,11,15,6,33,,84,70,4,4,3,3,0.7,0.5
2025-08-28T2200,3696A,116.2545,39.8768,北京市,丰台小屯,,28,28,10,15,6,26,,79,64,23,8,1,1,0.7,0.6
2025-08-28T2200,3697A,116.84,40.3844,北京市,密云镇,,19,19,7,11,4,26,,78,66,16,6,4,4,0.6,0.5
2025-08-28T2200,4182A,116.1942,39.9158,北京市,八角北路9号,,38,38,12,19,7,53,,97,84,15,10,3,2,0.7,0.5
2025-08-28T2200,4194A,117.0790,40.1518,北京市,洳河巡河路,,22,22,6,10,4,31,,75,64,12,4,4,3,0.5,0.4
2025-08-28T2200,1761A,123.8275,41.3064,本溪市,大峪,,23,23,20,7,6,36,,56,36,17,17,5,5,0.6,0.7
2025-08-28T2200,1762A,123.7567,41.3325,本溪市,溪湖,,15,13,21,8,7,46,,58,40,10,10,5,5,0.7,0.9
2025-08-28T2200,1763A,123.7169,41.3094,本溪市,彩屯,,15,13,22,10,12,25,,49,30,18,19,8,8,0.8,1
2025-08-28T2200,1764A,123.7669,41.2864,本溪市,东明,,23,18,21,16,8,37,,59,32,16,19,4,4,0.8,0.9
2025-08-28T2200,1765A,123.7992,41.2664,本溪市,新立屯,,,,,,,,,,,,,,,,
2025-08-28T2200,1766A,123.8142,41.3472,本溪市,威宁,,15,15,20,9,9,23,,45,25,19,12,3,6,0.6,0.7
2025-08-28T2200,2587A,105.2864,27.3125,毕节市,八中,,40,38,22,28,18,47,,66,62,9,7,6,6,0.5,0.4
2025-08-28T2200,2588A,105.31,27.2944,毕节市,师专,,30,30,21,16,13,51,,66,63,9,10,5,6,0.4,0.4
2025-08-28T2200,4263A,105.3688,27.3598,毕节市,工业大道,,16,13,20,8,13,49,,68,64,12,10,7,7,0.6,0.6
2025-08-28T2200,1629A,118.0018,37.3617,滨州市,第二水厂,,25,17,16,7,11,79,,108,103,21,10,4,4,0.4,0.5
2025-08-28T2200,1630A,117.9776,37.393,滨州市,北中新校,,,29,22,9,12,83,,112,110,42,18,,6,0.7,0.6
2025-08-28T2200,3514A,117.9378,37.3956,滨州市,中海酒店,,32,19,16,7,12,100,,118,118,12,7,4,3,0.5,0.6
2025-08-28T2200,3515A,117.9378,37.3553,滨州市,开发区一中,,30,22,20,7,11,96,,126,122,16,11,4,5,0.4,0.5
2025-08-28T2200,3516A,118.0917,37.694,滨州市,金海六路,,39,39,17,27,7,108,,138,136,15,7,6,4,0.3,0.4
2025-08-28T2200,4028A,117.9956,37.3753,滨州市,滨州市西街道办事处,,31,14,12,12,12,99,,115,114,14,10,3,3,0.4,0.5
2025-08-28T2200,2311A,115.8072,33.8399,亳州市,污水处理厂,,40,32,29,28,21,94,,147,123,15,12,2,2,0.7,0.7
2025-08-28T2200,2312A,115.7789,33.8518,亳州市,三国揽胜宫,,40,40,36,26,18,114,,145,135,10,8,10,4,0.7,0.6
2025-08-28T2200,3332A,115.7633,33.8034,亳州市,亳州学院,,35,32,30,24,22,111,,144,135,9,8,3,3,0.7,0.7
2025-08-28T2200,2693A,82.0485,44.8556,博尔塔拉蒙古自治州,市党校,,38,,27,26,14,88,,97,96,8,6,2,3,0.2,0.2
2025-08-28T2200,2694A,82.0806,44.8969,博尔塔拉蒙古自治州,市环保局,,,,37,,13,54,,100,94,31,11,5,2,0.4,0.4
2025-08-28T2200,1071A,116.8842,38.2991,沧州市,沧县城建局,,31,31,14,14,8,79,,130,121,29,10,3,2,0.4,0.4
2025-08-28T2200,1072A,116.8584,38.3254,沧州市,电视转播站,,44,44,32,14,7,85,,112,106,20,9,2,2,0.4,0.3
2025-08-28T2200,1073A,116.8709,38.3228,沧州市,市环保局,,33,33,23,15,14,96,,124,119,13,7,5,5,0.4,0.3
2025-08-28T2200,3324A,116.8136,38.3004,沧州市,河北水利电力学院,,29,19,8,19,13,90,,133,126,30,9,4,4,0.5,0.4
2025-08-28T2200,2622A,97.1806,31.1273,昌都市,昌都监测站,,29,29,14,10,4,33,,61,56,14,4,5,5,0.4,0.3
2025-08-28T2200,3719A,97.1714,31.1406,昌都市,昌都会议中心,,15,14,7,10,5,43,,68,65,9,4,4,4,0.3,0.2
2025-08-28T2200,2690A,88.1236,43.8886,昌吉回族自治州,天山天池,,22,18,11,8,4,70,,111,102,7,8,2,2,0.6,0.6
2025-08-28T2200,2692A,87.2717,44.0297,昌吉回族自治州,新区政务中心,,30,30,33,13,12,62,,114,106,30,18,6,7,0.3,0.3
2025-08-28T2200,3613A,87.3095,44.0142,昌吉回族自治州,亚心广场,,,,46,,15,,,110,108,37,24,8,9,0.4,0.4
2025-08-28T2200,1120A,125.2863,43.9027,长春市,客车厂,,22,22,19,13,12,45,,75,60,23,20,4,5,0.3,0.4
2025-08-28T2200,1121A,125.2841,43.8463,长春市,邮电学院,,14,14,16,3,8,17,,73,55,10,12,4,5,0.5,0.5
2025-08-28T2200,1122A,125.3716,43.8772,长春市,劳动公园,,26,26,24,16,13,50,,77,69,23,18,8,8,0.2,0.2
2025-08-28T2200,1123A,125.3297,43.8805,长春市,园林处,,16,,17,11,10,44,,51,50,20,16,4,5,0.5,0.4
2025-08-28T2200,1124A,125.4605,43.79,长春市,净月潭,,15,15,16,3,8,21,,62,48,8,6,4,5,0.2,0.3
2025-08-28T2200,1125A,125.7194,43.515,长春市,甩湾子,,11,8,5,3,3,35,,76,62,7,5,3,3,0.4,0.4
2025-08-28T2200,1126A,125.3863,43.8447,长春市,经开区环卫处,,17,17,22,9,10,39,,68,58,19,18,4,4,0.5,0.5
2025-08-28T2200,1127A,125.245,43.7783,长春市,高新区管委会,,15,13,17,8,8,48,,74,65,15,13,3,4,0.4,0.4
2025-08-28T2200,1128A,125.1761,43.8325,长春市,岱山公园,,28,22,22,14,12,16,,68,52,55,27,3,4,0.4,0.4
2025-08-28T2200,4281A,125.3346,43.9164,长春市,北亚泰大街1068号,,,,21,15,13,,,69,64,20,23,7,8,0.4,0.4
2025-08-28T2200,1335A,113.0833,28.2325,长沙市,经开区环保局,,35,35,29,23,18,52,,126,83,12,14,5,5,0.4,0.4
2025-08-28T2200,1336A,112.8872,28.2189,长沙市,高开区环保局,,28,28,30,16,16,56,,123,85,9,11,4,7,0.3,0.4
2025-08-28T2200,1337A,113.0792,28.2053,长沙市,马坡岭,,32,32,32,17,15,60,,132,92,10,13,5,6,0.5,0.5
2025-08-28T2200,1338A,112.9394,28.19,长沙市,湖南师范大学,,26,25,30,18,17,38,,133,85,20,15,3,5,0.5,0.5
2025-08-28T2200,1339A,113.0178,28.1322,长沙市,雨花区环保局,,25,25,29,13,15,53,,112,78,12,13,6,8,0.6,0.6
2025-08-28T2200,1340A,112.9792,28.2597,长沙市,伍家岭,,29,26,32,20,17,57,,126,89,14,15,3,4,0.3,0.3
2025-08-28T2200,1341A,113.0014,28.1944,长沙市,火车新站,,26,26,33,14,13,62,,121,86,10,13,7,7,0.5,0.4
2025-08-28T2200,1342A,112.9844,28.1178,长沙市,天心区环保局,,25,25,26,16,17,58,,119,83,12,15,4,5,0.3,0.3
2025-08-28T2200,1343A,112.8908,28.1308,长沙市,湖南中医药大学,,26,21,30,18,19,40,,126,75,16,16,4,5,0.6,0.6
2025-08-28T2200,1344A,112.9581,28.3611,长沙市,沙坪,,27,27,26,17,17,54,,143,102,19,15,3,3,0.5,0.4
2025-08-28T2200,1727A,113.1147,36.1547,长治市,清华站,,28,28,17,19,8,66,,118,102,23,11,9,9,0.9,0.8
2025-08-28T2200,1730A,113.0886,36.2125,长治市,审计局,,30,30,15,19,8,68,,118,103,24,13,7,7,0.8,0.7
2025-08-28T2200,1731A,113.0844,36.1856,长治市,长治八中,,,31,18,21,13,72,,118,104,,9,11,9,,0.8
2025-08-28T2200,2845A,113.1569,36.1911,长治市,德盛苑,,33,33,20,17,8,68,,120,101,14,9,10,11,0.8,0.8
2025-08-28T2200,3568A,113.06,36.0464,长治市,向阳小学,颗粒物(PM10),62,73,49,25,21,80,,121,107,23,13,6,4,0.8,0.7
2025-08-28T2200,3569A,112.8792,36.3144,长治市,屯留一中,,36,34,21,25,17,58,,115,103,31,17,8,9,0.5,0.1
2025-08-28T2200,4189A,113.1131,36.19948,长治市,英华南巷50号,,36,36,18,17,10,64,,120,104,30,14,9,10,0.8,0.7
2025-08-28T2200,4190A,113.2367,36.3344,长治市,学府街1号,,25,25,24,12,11,46,,102,82,32,16,3,6,0.5,0.7
2025-08-28T2200,1854A,111.6975,28.9703,常德市,市二中,,43,43,34,17,22,62,,118,104,31,13,10,7,0.5,0.5
2025-08-28T2200,1857A,111.7158,29.1456,常德市,白鹤山,,,,,,,,,,,,,,,,
2025-08-28T2200,3138A,111.7153,29.0289,常德市,武陵区永安,,,41,38,,23,81,,125,111,7,9,5,8,0.4,0.4
2025-08-28T2200,3139A,111.6892,28.9881,常德市,鼎城区玉霞,,48,48,36,20,25,84,,118,109,5,6,10,9,0.4,0.4
2025-08-28T2200,3140A,111.6625,29.0531,常德市,武陵区长庚,,49,49,35,22,25,86,,116,111,3,6,7,7,0.5,0.5
2025-08-28T2200,1196A,119.9633,31.762,常州市,市监测站,,33,,26,15,12,105,,135,130,23,14,9,10,0.5,0.5
2025-08-28T2200,1200A,119.9468,31.7069,常州市,武进监测站,,38,29,25,12,10,120,,137,137,12,8,7,5,0.8,0.7
2025-08-28T2200,1201A,119.9255,31.9087,常州市,安家,,,29,26,22,12,69,,134,109,36,20,11,10,,0.8
2025-08-28T2200,3002A,119.9805,31.8174,常州市,行政中心,,43,43,30,24,13,85,,134,120,30,16,4,3,0.5,0.5
2025-08-28T2200,3003A,120.0522,31.7748,常州市,经开区,,44,44,28,16,10,75,,120,110,42,17,4,4,0.9,1
2025-08-28T2200,3010A,119.9025,31.7964,常州市,钟楼,,39,,23,17,9,122,,136,132,16,13,7,7,0.5,0.4
2025-08-28T2200,3429A,119.8598,31.7066,常州市,武进经发区,,35,35,26,17,12,112,,144,132,14,11,9,9,0.4,0.4
2025-08-28T2200,3430A,119.5826,31.7245,常州市,金坛城区,,39,24,22,11,12,122,,161,150,12,13,10,8,0.5,0.5
2025-08-28T2200,2220A,120.4318,41.5881,朝阳市,西梁,颗粒物(PM10),54,57,11,18,8,10,,82,52,28,11,3,4,0.8,0.6
2025-08-28T2200,2221A,120.4521,41.5646,朝阳市,河畔小区,,18,8,9,7,7,57,,88,66,4,6,5,5,0.5,0.6
2025-08-28T2200,2222A,120.4176,41.5648,朝阳市,八里堡,,36,36,10,13,9,3,,89,62,48,11,7,6,0.8,0.6
2025-08-28T2200,2223A,120.3806,41.5969,朝阳市,农业园区,,23,23,9,11,5,8,,82,40,19,10,4,4,0.6,0.5
2025-08-28T2200,1705A,116.6367,23.6719,潮州市,西园路,,41,41,24,13,13,68,,87,77,12,9,5,5,0.4,0.3
2025-08-28T2200,3026A,116.6183,23.6608,潮州市,市政府,,29,29,27,14,13,72,,81,72,8,8,6,6,0.5,0.4
2025-08-28T2200,4036A,116.6461,23.6761,潮州市,金山,,28,28,23,13,18,57,,88,76,10,7,6,6,0.4,0.3
2025-08-28T2200,2472A,113.0073,25.9061,郴州市,马头岭,,43,43,28,13,11,10,,73,44,27,16,7,6,0.4,0.4
2025-08-28T2200,2473A,113.0116,25.8226,郴州市,市职中,,31,31,28,19,19,5,,74,44,21,15,4,5,0.5,0.4
2025-08-28T2200,2475A,113.0383,25.8071,郴州市,市审计局,,27,27,22,12,13,16,,75,51,17,13,7,8,0.4,0.4
2025-08-28T2200,2476A,113.0348,25.7759,郴州市,市环保局,,29,29,24,19,14,11,,70,47,30,10,4,4,0.2,0.2
2025-08-28T2200,4252A,113.0138,25.8011,郴州市,好美居路49号,,25,25,26,13,17,13,,76,48,24,15,5,5,0.4,0.4
2025-08-28T2200,1431A,103.9728,30.7236,成都市,金泉两河,,14,11,18,3,9,44,,70,53,14,11,2,2,0.5,0.5
2025-08-28T2200,1432A,104.176,30.6872,成都市,十里店,,18,16,26,10,11,55,,70,64,19,13,3,3,0.5,0.5
2025-08-28T2200,1433A,104.079,30.5706,成都市,三瓦窑,,25,25,26,8,16,58,,74,55,18,16,2,3,0.4,0.4
2025-08-28T2200,1434A,104.1114,30.63,成都市,沙河铺,,,31,30,13,14,,,65,60,17,14,3,3,,0.7
2025-08-28T2200,1437A,104.0786,30.6531,成都市,君平街,,25,25,27,3,14,46,,75,54,14,8,3,3,0.5,0.5
2025-08-28T2200,1438A,103.613,31.0283,成都市,灵岩寺,,,,,,,,,,,,,,,,
2025-08-28T2200,2880A,104.0239,30.65639,成都市,大石西路,,18,18,28,12,14,34,,68,45,23,15,3,3,0.5,0.6
2025-08-28T2200,3136A,104.2725,30.5589,成都市,龙泉驿区区政府,,,9,17,3,7,,,84,79,16,15,5,5,0.5,0.5
2025-08-28T2200,3357A,104.0106,30.6931,成都市,金博路,,13,,15,9,10,34,,67,45,20,13,4,5,0.7,0.6
2025-08-28T2200,3359A,104.0578,30.5225,成都市,华阳,,17,14,21,7,15,54,,71,55,18,17,1,2,0.5,0.5
2025-08-28T2200,3488A,104.3853,30.7453,成都市,青白江技师分院,,30,14,29,3,15,94,,88,88,7,17,2,2,0.5,0.5
2025-08-28T2200,3489A,104.0789,30.4072,成都市,科学城,,23,23,23,13,13,44,,74,60,20,14,4,4,0.5,0.5
2025-08-28T2200,4011A,103.8506,30.6947,成都市,光华大道三段,,19,19,21,3,11,54,,77,71,14,11,2,2,0.5,0.5
2025-08-28T2200,4224A,104.2433,30.5353,成都市,鲸龙路1057号,,20,13,26,6,15,64,,82,76,18,17,4,4,0.4,0.4
2025-08-28T2200,1062A,117.9531,40.9081,承德市,铁路,,29,25,11,20,5,15,,73,50,8,13,3,4,0.5,0.3
2025-08-28T2200,1063A,117.9392,40.9763,承德市,中国银行,,38,28,34,26,7,8,,79,53,14,8,1,2,0.7,0.4
2025-08-28T2200,1064A,117.9503,40.928,承德市,开发区,,30,30,25,15,9,19,,83,57,10,10,4,5,0.6,0.4
2025-08-28T2200,1066A,117.9268,41.0026,承德市,离宫,,32,32,11,11,5,5,,66,33,9,5,1,2,0.6,0.3
2025-08-28T2200,4274A,117.7994,40.9605,承德市,滨河大街98号,,15,15,9,9,5,12,,73,40,4,4,2,3,0.4,0.4
2025-08-28T2200,2314A,117.47,30.6618,池州市,池州学院,,28,28,27,17,18,55,,123,99,16,12,6,7,0.6,0.7
2025-08-28T2200,3237A,117.4918,30.6617,池州市,展览馆,,24,24,27,14,17,48,,126,98,17,12,6,7,0.7,0.7
2025-08-28T2200,3333A,117.5627,30.695,池州市,第八中学,,42,42,30,26,19,65,,127,106,13,9,5,6,0.6,0.6
2025-08-28T2200,3334A,117.5038,30.6243,池州市,第十二中学,,34,34,28,18,17,38,,127,89,25,19,4,4,0.8,0.8
2025-08-28T2200,1744A,118.9233,42.2816,赤峰市,松山一中,,41,41,17,24,11,17,,74,56,53,22,63,15,0.9,0.8
2025-08-28T2200,1745A,118.9576,42.2728,赤峰市,哈达街,,,28,15,10,7,,,76,58,34,22,30,20,0.6,0.7
2025-08-28T2200,1746A,118.8788,42.2554,赤峰市,天义路,,29,,10,20,11,47,,86,69,25,13,14,12,0.5,0.5
2025-08-28T2200,3058A,119.2658,42.0353,赤峰市,银河街,,32,31,14,22,8,42,,72,60,11,7,12,11,0.5,0.5
2025-08-28T2200,3286A,118.9359,42.3147,赤峰市,桥北物流园区,,37,37,13,14,10,27,,74,54,25,11,11,15,0.8,0.9
2025-08-28T2200,2521A,107.3476,22.4136,崇左市,市环保局江州分局,,34,34,21,13,7,62,,91,86,14,8,7,7,0.8,0.6
2025-08-28T2200,4256A,107.3750,22.3736,崇左市,石景林东路7号,,21,,21,14,9,66,,93,89,13,11,5,5,0.6,0.5
2025-08-28T2200,2298A,118.3093,32.3153,滁州市,老年大学,,43,35,38,30,29,103,,139,117,15,24,8,10,0.3,0.4
2025-08-28T2200,2299A,118.3244,32.2786,滁州市,人大宾馆,,33,28,28,23,23,92,,148,119,13,16,5,6,0.5,0.5
2025-08-28T2200,3207A,118.3118,32.3038,滁州市,市政府原办公楼,,39,29,32,27,28,91,,136,115,23,18,6,6,0.5,0.5
2025-08-28T2200,3331A,118.3267,32.2634,滁州市,图书馆,,31,31,32,15,25,98,,149,122,13,17,11,12,0.4,0.5
2025-08-28T2200,2605A,101.5482,25.0441,楚雄彝族自治州,州环境监测站,,22,20,12,15,10,17,,44,37,11,12,7,6,0.7,0.5
2025-08-28T2200,2606A,101.538,25.0492,楚雄彝族自治州,市经济开发区,,30,30,16,21,10,15,,42,35,19,15,7,7,0.9,0.6
2025-08-28T2200,2548A,107.5277,31.2827,达州市,达州职业技术学院,颗粒物(PM10),57,63,41,31,16,27,,92,72,33,18,8,8,0.5,0.5
2025-08-28T2200,2549A,107.5086,31.2186,达州市,市环境监测站,,47,47,38,27,14,24,,81,73,39,27,7,7,0.6,0.4
2025-08-28T2200,2550A,107.4988,31.2132,达州市,凤凰小区,颗粒物(PM10),52,53,32,31,16,33,,88,76,36,21,3,3,0.5,0.3
2025-08-28T2200,2551A,107.5082,31.1986,达州市,达县机关宾馆,细颗粒物(PM2.5),92,75,39,68,22,9,,88,68,56,29,7,6,0.7,0.4
2025-08-28T2200,2552A,107.4644,31.2124,达州市,市政中心,颗粒物(PM10),57,64,41,34,16,20,,86,73,49,22,5,4,0.6,0.3
2025-08-28T2200,2614A,100.1542,25.7054,大理白族自治州,大理市环境监测站,,,,10,19,14,,,58,57,8,8,4,4,,0.4
2025-08-28T2200,2615A,100.2171,25.5811,大理白族自治州,大理古城,,16,16,15,6,8,32,,70,57,11,9,6,6,0.7,0.7
2025-08-28T2200,1109A,121.612,38.9741,大连市,甘井子,,30,12,19,3,12,93,,103,101,14,12,5,6,0.4,0.3
2025-08-28T2200,1110A,121.565,38.9511,大连市,周水子,,27,13,22,6,14,86,,99,95,10,8,6,7,0.3,0.4
2025-08-28T2200,1111A,121.5637,38.8845,大连市,星海三站,,29,17,23,6,13,92,,102,99,13,13,5,5,0.3,0.3
2025-08-28T2200,1112A,121.6302,38.9117,大连市,青泥洼桥,,30,13,25,3,13,94,,114,95,10,8,7,6,0.3,0.4
2025-08-28T2200,1113A,121.6251,38.8638,大连市,傅家庄,,29,16,24,6,15,92,,106,100,11,7,10,10,0.4,0.4
2025-08-28T2200,1114A,121.5213,38.8661,大连市,七贤岭,,29,15,21,6,12,90,,101,98,4,4,4,5,0.5,0.4
2025-08-28T2200,1115A,121.2529,38.8061,大连市,旅顺,,25,,20,11,13,79,,89,88,11,6,9,8,0.4,0.4
2025-08-28T2200,1116A,121.7485,39.1311,大连市,金州,,28,11,16,9,13,89,,105,100,10,9,6,5,0.3,0.3
2025-08-28T2200,1117A,121.7811,39.0496,大连市,开发区,,28,21,20,8,14,88,,101,95,9,11,5,6,0.3,0.2
2025-08-28T2200,1118A,121.9762,39.0631,大连市,双D港,,27,8,18,6,12,84,,106,100,6,6,7,8,0.5,0.5
2025-08-28T2200,1789A,124.81117,46.03138,大庆市,大同区,,31,31,25,12,9,30,,58,48,17,12,9,8,0.7,0.6
2025-08-28T2200,1790A,125.129,46.533,大庆市,龙凤区,,16,14,18,11,9,44,,73,56,14,15,7,8,0.5,0.5
2025-08-28T2200,1791A,124.902,46.408,大庆市,红岗区,,25,25,21,9,11,44,,76,65,10,9,6,6,0.6,0.6
2025-08-28T2200,1792A,125.153,46.586,大庆市,萨尔图区,,27,27,26,14,10,45,,70,57,18,14,8,8,0.5,0.5
2025-08-28T2200,1793A,124.9042,46.6215,大庆市,让胡路区,,29,28,26,20,11,41,,78,54,11,11,5,6,0.5,0.3
2025-08-28T2200,3481A,125.141,46.634,大庆市,萨区政府监测点,,32,32,26,9,7,50,,76,58,14,12,8,8,0.4,0.4
2025-08-28T2200,1721A,113.3819,40.1097,大同市,果树场,,36,32,27,25,22,4,,73,58,36,22,9,9,0.5,0.5
2025-08-28T2200,1723A,113.2994,40.0758,大同市,云冈宾馆,颗粒物(PM10),59,67,84,24,24,52,,87,80,32,21,10,6,0.7,0.7
2025-08-28T2200,1724A,113.3444,40.0917,大同市,大同大学,,39,,24,27,22,47,,20,,40,30,11,6,0.8,0.8
2025-08-28T2200,1725A,113.2661,40.1269,大同市,安家小村,,40,40,29,18,20,66,,90,81,13,21,4,4,0.5,0.7
2025-08-28T2200,1726A,113.2711,40.0844,大同市,教育学院,,46,46,30,32,19,58,,91,84,27,20,6,6,0.6,0.7
2025-08-28T2200,3282A,113.3397,40.0597,大同市,大同市卫生学校,颗粒物(PM10),56,61,35,29,22,44,,80,76,38,19,10,8,0.6,0.6
2025-08-28T2200,3565A,113.1367,40.1122,大同市,云冈站,,30,30,22,14,14,56,,86,75,10,9,3,3,0.3,0.3
2025-08-28T2200,3566A,113.1186,40.2556,大同市,图书馆,,21,21,27,12,14,45,,82,71,11,8,2,2,0.5,0.7
2025-08-28T2200,3567A,113.5931,40.0461,大同市,区一中,,30,30,24,18,17,76,,100,98,12,11,9,11,0.5,0.5
2025-08-28T2200,4199A,113.2798,40.0997,大同市,魏都大道141号,,42,42,29,29,22,62,,92,84,20,22,4,3,0.6,0.7
2025-08-28T2200,2269A,124.1069,50.4097,大兴安岭地区,科技局,,28,28,26,11,9,39,,64,61,6,5,9,8,0.3,0.3
2025-08-28T2200,3663A,124.1164,50.4278,大兴安岭地区,红旗社区,,10,9,13,3,4,30,,56,52,4,5,5,5,0.3,0.3
2025-08-28T2200,1600A,124.3303,40.0625,丹东市,江湾东路,,30,30,38,17,19,72,,81,79,11,11,4,6,0.9,0.8
2025-08-28T2200,1601A,124.4256,40.1503,丹东市,临江后街,,27,27,31,15,15,83,,79,79,9,11,6,6,1.0,0.8
2025-08-28T2200,1602A,124.3933,40.1461,丹东市,元宝山,,24,24,28,12,14,59,,72,70,9,12,5,5,0.9,0.8
2025-08-28T2200,1603A,124.3633,40.1092,丹东市,民主桥,,30,30,40,19,18,80,,77,77,10,15,5,7,0.7,0.6
2025-08-28T2200,3541A,109.5726,19.5167,儋州市,第一中学子站,,9,9,14,3,7,28,,50,44,3,4,6,8,0.6,0.6
2025-08-28T2200,3542A,109.5567,19.5187,儋州市,东坡学校子站,,14,14,16,3,6,28,,54,48,4,5,6,6,0.5,0.6
2025-08-28T2200,2616A,98.5842,24.428,德宏傣族景颇族自治州,德宏州监测站,,28,28,32,11,18,36,,86,73,8,11,8,17,0.6,0.6
2025-08-28T2200,3677A,98.5881,24.4368,德宏傣族景颇族自治州,芒市人民政府综合楼,,20,20,34,12,16,43,,75,69,6,10,8,18,0.3,0.4
2025-08-28T2200,1901A,104.4239,31.1208,德阳市,东山公园,,24,,11,3,10,75,,73,73,5,8,3,3,0.5,0.6
2025-08-28T2200,1902A,104.3826,31.1317,德阳市,西小区,,25,20,24,7,13,79,,76,75,9,10,3,3,0.7,0.7
2025-08-28T2200,1904A,104.3553,31.1091,德阳市,耐火材料厂,,22,13,19,6,12,70,,68,67,11,10,5,6,0.5,0.5
2025-08-28T2200,3639A,104.4019,31.1244,德阳市,市教育局,,25,15,22,6,12,77,,74,73,5,7,3,2,0.7,0.7
2025-08-28T2200,1622A,116.3032,37.4674,德州市,儿童乐园,,26,17,14,9,11,83,,126,110,17,9,8,8,0.7,0.7
2025-08-28T2200,1624A,116.2991,37.4451,德州市,监理站,,28,12,12,3,8,87,,130,116,12,8,10,10,0.7,0.8
2025-08-28T2200,3066A,116.2721,37.4379,德州市,九衢泉纯净水厂,,26,17,15,7,12,83,,122,111,16,10,6,7,0.9,0.9
2025-08-28T2200,3371A,116.3728,37.4403,德州市,开发区人民医院,,25,17,16,7,10,78,,126,104,15,9,10,10,1.1,1.1
2025-08-28T2200,3511A,116.5652,37.3319,德州市,陵城艺术中心,,28,22,15,3,5,87,,111,106,13,11,10,10,0.6,0.7
2025-08-28T2200,4292A,116.3525,37.4209,德州市,新河东路,,23,14,16,9,12,72,,131,104,25,16,7,9,0.9,1
2025-08-28T2200,2621A,99.7056,27.8317,迪庆藏族自治州,迪庆州站,,18,16,17,12,13,41,,59,50,6,6,6,6,0.5,0.6
2025-08-28T2200,3180A,99.7136,27.8094,迪庆藏族自治州,质量技术监督局,,19,19,19,9,9,45,,60,51,9,8,8,9,0.4,0.4
2025-08-28T2200,4257A,104.6092,35.5962,定西市,将台街,,30,22,19,11,16,95,,105,104,10,12,7,7,0.4,0.4
2025-08-28T2200,4309A,104.6159,35.5701,定西市,正龙路62号,,33,33,26,16,16,86,,104,101,10,9,4,4,0.1,0.2
2025-08-28T2200,1389A,113.7547,23.0494,东莞市,莞城梨川,,39,39,34,20,21,42,,111,90,24,22,8,7,0.5,0.5
2025-08-28T2200,1390A,113.7944,23.0128,东莞市,东城石井,,31,31,33,17,18,26,,108,86,18,23,4,5,0.6,0.6
2025-08-28T2200,1391A,113.7383,22.9658,东莞市,南城西平,,37,37,37,13,18,21,,107,87,56,35,7,7,0.6,0.7
2025-08-28T2200,3319A,113.7338,23.0381,东莞市,万江金泰,,29,29,34,16,18,36,,104,85,24,22,8,7,0.7,0.7
2025-08-28T2200,3626A,113.7533,23.0202,东莞市,南城元岭,,31,31,33,18,19,44,,114,96,24,26,5,6,0.4,0.4
2025-08-28T2200,3627A,113.7875,23.0457,东莞市,东城主山,,42,42,38,22,20,34,,114,90,33,26,8,7,0.6,0.5
2025-08-28T2200,1666A,118.6614,37.4309,东营市,市环保局,,37,7,14,3,8,118,,110,110,14,14,7,7,0.4,0.4
2025-08-28T2200,3036A,118.6904,37.4338,东营市,开发区管委会,,44,8,22,3,9,140,,120,120,12,14,8,7,0.5,0.5
2025-08-28T2200,3365A,118.5719,37.565,东营市,垦利区民丰路,,31,19,18,3,10,97,,93,,17,13,9,10,0.9,0.9
2025-08-28T2200,3498A,118.5055,37.8612,东营市,河口城区,,39,7,12,3,3,123,,146,146,12,12,5,5,1.1,1
2025-08-28T2200,3646A,118.4978,37.4623,东营市,胜利站,,33,16,24,3,7,104,,114,114,16,15,5,4,0.5,0.6
2025-08-28T2200,3734A,118.35,37.26,东营市,理想之城,,,9,16,7,11,,,105,105,28,17,4,4,0.4,0.4
2025-08-28T2200,1591A,110.0023,39.8129,鄂尔多斯市,综合楼,,27,22,21,3,9,85,,102,98,18,10,5,7,0.5,0.5
2025-08-28T2200,1592A,109.9486,39.8261,鄂尔多斯市,巴音孟克林场办事处,,27,22,24,3,11,85,,107,101,17,11,7,6,0.2,0.3
2025-08-28T2200,1593A,109.7736,39.5986,鄂尔多斯市,康泽苑,,27,27,31,3,12,41,,87,75,24,10,6,7,0.4,0.4
2025-08-28T2200,1594A,109.8119,39.5989,鄂尔多斯市,华泰汽车城,,29,29,28,14,16,39,,91,77,30,12,6,8,0.6,0.5
2025-08-28T2200,1595A,109.9734,39.7884,鄂尔多斯市,奥林花园,,35,34,26,12,15,4,,94,76,70,16,7,7,0.7,0.6
2025-08-28T2200,2436A,114.8938,30.3994,鄂州市,市政府,,26,26,27,15,12,59,,158,116,20,16,10,10,0.5,0.5
2025-08-28T2200,2437A,114.8989,30.3714,鄂州市,赵家坝,,43,43,41,10,13,50,,146,108,15,13,10,10,0.9,0.7
2025-08-28T2200,3654A,114.8094,30.4089,鄂州市,精准医疗中心,,35,35,36,15,17,58,,169,126,21,24,19,13,0.7,1.2
2025-08-28T2200,2454A,109.4978,30.2981,恩施土家族苗族自治州,湖北民院,细颗粒物(PM2.5),98,,25,73,17,39,,92,73,15,10,6,5,0.5,0.4
2025-08-28T2200,2455A,109.4707,30.2798,恩施土家族苗族自治州,州电力总公司,细颗粒物(PM2.5),68,,22,49,15,38,,82,67,14,11,5,5,0.4,0.2
2025-08-28T2200,3549A,109.5061,30.3772,恩施土家族苗族自治州,龙凤新区,,38,34,20,26,14,69,,94,82,4,4,5,4,0.4,0.3
2025-08-28T2200,2499A,108.3411,21.6158,防城港市,沙万,,28,28,27,9,10,52,,88,84,26,15,3,4,0.4,0.5
2025-08-28T2200,2500A,108.3514,21.7731,防城港市,防城档案局,,21,16,31,12,13,65,,70,70,12,12,3,3,0.6,0.7
2025-08-28T2200,2501A,108.3506,21.6414,防城港市,大海花园,,28,,19,19,11,75,,102,99,8,9,3,9,0.4,0.5
2025-08-28T2200,1371A,113.1294,23.0067,佛山市,湾梁,,,48,51,,27,67,,153,131,37,40,6,9,0.7,0.7
2025-08-28T2200,1372A,113.1083,23.0478,佛山市,华材职中,颗粒物(PM10),53,56,52,28,26,48,,169,136,50,40,4,5,0.8,0.7
2025-08-28T2200,1373A,113.144,23.0453,佛山市,南海气象局,颗粒物(PM10),51,51,51,24,22,67,,141,124,33,35,6,7,0.7,0.6
2025-08-28T2200,1374A,113.2881,22.8094,佛山市,顺德苏岗,,44,44,51,24,26,38,,116,100,48,46,5,6,0.7,0.6
2025-08-28T2200,1376A,112.8383,22.8678,佛山市,高明孔堂,颗粒物(PM10),51,52,49,27,23,63,,110,91,16,19,4,7,0.9,0.8
2025-08-28T2200,1377A,112.8836,23.1588,佛山市,三水监测站,,44,44,48,25,25,56,,126,113,32,30,6,12,0.6,0.7
2025-08-28T2200,1378A,112.867,23.185,佛山市,三水云东海,,43,43,50,25,29,48,,103,82,17,29,2,4,0.8,0.8
2025-08-28T2200,3625A,113.2544,22.7642,佛山市,容桂街道办,颗粒物(PM10),52,53,47,34,31,66,,137,126,45,48,6,7,0.9,0.8
2025-08-28T2200,1280A,119.3903,26.0543,福州市,鼓山,,,,9,,4,,,32,,,4,,1,,0.1
2025-08-28T2200,1282A,119.2681,26.0504,福州市,师大,,14,14,14,3,1,36,,43,40,3,4,4,5,0.2,0.2
2025-08-28T2200,1283A,119.2984,26.1028,福州市,五四北路,,19,19,17,3,1,34,,41,37,8,7,4,4,0.2,0.2
2025-08-28T2200,1284A,119.2648,26.0768,福州市,杨桥西路,,12,11,14,3,2,36,,44,41,5,5,3,4,0.1,0.2
2025-08-28T2200,1285A,119.317,26.0746,福州市,紫阳,,17,17,17,3,2,35,,40,37,3,4,4,5,0.2,0.2
2025-08-28T2200,3048A,119.5799,26.0936,福州市,九龙,,13,11,12,3,1,41,,47,46,3,4,4,5,0.2,0.2
2025-08-28T2200,3526A,119.5189,25.9664,福州市,吴航,,13,12,12,3,4,40,,47,45,2,2,4,6,0.2,0.2
2025-08-28T2200,1755A,123.7977,41.8491,抚顺市,望花区,,17,14,13,11,7,52,,66,50,10,14,7,6,0.7,0.6
2025-08-28T2200,1756A,123.9161,41.8822,抚顺市,顺城区,,20,16,13,14,6,54,,69,51,9,14,4,4,0.7,0.7
2025-08-28T2200,1757A,124.0436,41.8611,抚顺市,东洲区,,18,14,10,12,6,46,,64,40,3,5,5,4,0.8,0.7
2025-08-28T2200,1758A,123.9247,41.8642,抚顺市,新抚区,,19,16,13,13,7,48,,66,47,10,13,5,5,0.7,0.7
2025-08-28T2200,1759A,124.0972,41.8961,抚顺市,大伙房水库,,,,11,,5,,,46,,,10,,8,,0.5
2025-08-28T2200,1760A,123.7086,41.8391,抚顺市,沈抚新城,,22,22,18,9,5,43,,72,47,15,15,4,5,0.4,0.6
2025-08-28T2200,2376A,116.2127,28.0814,抚州市,桐源党溪,,33,33,27,13,11,30,,69,57,8,11,5,6,0.3,0.4
2025-08-28T2200,2377A,116.3544,27.9831,抚州市,市站,,19,18,16,11,6,59,,75,72,4,4,1,2,0.2,0.3
2025-08-28T2200,2378A,116.3565,27.963,抚州市,血防站,,19,19,18,12,8,57,,74,72,9,6,3,4,0.4,0.5
2025-08-28T2200,2379A,116.3564,28.0007,抚州市,采茶剧团,,22,21,21,15,7,58,,72,69,2,3,4,4,0.3,0.4
2025-08-28T2200,2380A,116.385,27.9647,抚州市,医学分院,,26,26,25,11,8,58,,76,72,9,7,3,4,0.5,0.6
2025-08-28T2200,2207A,121.6094,41.998,阜新市,工业园区,,,25,15,6,4,,,84,72,27,13,7,6,0.6,0.5
2025-08-28T2200,2208A,121.6697,42.0279,阜新市,长青街,,21,21,8,12,9,32,,75,55,22,9,11,5,0.7,0.5
2025-08-28T2200,2209A,121.6673,42.0705,阜新市,农业园区,,10,10,11,3,5,26,,77,48,20,5,2,3,0.5,0.5
2025-08-28T2200,2210A,121.6717,42.0224,阜新市,东苑,,43,43,14,14,7,31,,82,62,32,11,18,8,0.7,0.5
2025-08-28T2200,2211A,121.6506,42.0498,阜新市,玉龙新城,,23,23,12,9,6,12,,75,49,25,14,7,7,0.5,0.5
2025-08-28T2200,2301A,115.8277,32.8929,阜阳市,市监测站,,50,50,38,21,20,60,,134,110,28,18,5,5,0.4,0.4
2025-08-28T2200,2303A,115.8554,32.8605,阜阳市,开发区,,49,49,28,24,14,75,,133,119,21,13,6,7,0.5,0.4
2025-08-28T2200,2875A,115.784,32.8892,阜阳市,阜阳职业技术学院,,39,39,30,12,14,94,,144,129,13,8,6,6,0.5,0.4
2025-08-28T2200,3468A,115.7901,32.8613,阜阳市,市规划展馆,,30,30,34,17,19,84,,139,121,17,11,3,4,0.4,0.5
2025-08-28T2200,3469A,115.836,32.9183,阜阳市,枣园社区,,41,41,36,22,20,54,,133,112,23,11,3,3,0.5,0.5
2025-08-28T2200,2669A,102.9099,34.9841,甘南藏族自治州,州政府,,22,17,10,15,12,53,,90,78,13,6,3,3,0.4,0.3
2025-08-28T2200,3380A,102.8914,34.9617,甘南藏族自治州,甘肃民族师范学院,,17,8,9,6,5,53,,103,89,8,3,4,4,0.3,0.3
2025-08-28T2200,2570A,101.9603,30.0475,甘孜藏族自治州,水桥子,,20,,9,3,6,64,,77,73,10,11,6,6,0.5,0.5
2025-08-28T2200,3065A,101.9533,29.9972,甘孜藏族自治州,州环保局,,17,11,13,3,6,52,,82,74,21,12,4,4,0.4,0.4
2025-08-28T2200,3414A,115.8347,28.932,赣江新区,桑海产业园,,29,29,26,18,13,54,,103,88,24,26,5,6,0.2,0.3
2025-08-28T2200,2362A,114.9017,25.9149,赣州市,通天岩,,23,23,15,10,5,26,,66,46,5,4,15,15,1.4,1.2
2025-08-28T2200,2363A,114.9367,25.8664,赣州市,地委,,29,29,24,14,13,41,,95,64,14,10,7,8,0.9,0.8
2025-08-28T2200,2364A,114.9461,25.8481,赣州市,气象台,,33,33,23,12,10,30,,94,63,17,10,12,8,0.6,0.5
2025-08-28T2200,2365A,114.9322,25.8333,赣州市,市图书馆,,24,24,21,12,13,47,,93,66,15,11,6,6,0.6,0.5
2025-08-28T2200,2366A,114.8905,25.8471,赣州市,华坚鞋城,,,,26,,12,,,82,61,31,15,,6,0.4,0.5
2025-08-28T2200,3109A,115.0093,25.8613,赣州市,赣县区卫计委,,22,18,19,15,13,19,,93,58,15,8,8,6,0.5,0.5
2025-08-28T2200,2683A,106.2319,36.1417,固原市,马园,,,,,,,,,,,,,,,,
2025-08-28T2200,2684A,106.2792,36.0022,固原市,监测站,,20,,45,7,9,64,,101,82,35,15,7,7,0.2,0.2
2025-08-28T2200,2685A,106.2375,36.0211,固原市,新区,,27,15,11,3,7,85,,91,82,9,11,8,8,0.2,0.1
2025-08-28T2200,3522A,106.2177,35.9959,固原市,原州区十五小,,31,7,10,6,9,99,,99,94,4,8,9,9,0.1,0.1
2025-08-28T2200,2543A,106.6308,30.5278,广安市,小平旧居,,,,,,,,,,,,,,,,
2025-08-28T2200,2544A,106.6303,30.4576,广安市,市委,细颗粒物(PM2.5),58,57,29,41,18,69,,100,97,15,12,8,7,0.4,0.2
2025-08-28T2200,2545A,106.6271,30.4663,广安市,友谊中学,细颗粒物(PM2.5),52,42,27,36,17,78,,105,102,14,13,7,6,0.6,0.7
2025-08-28T2200,2547A,106.6388,30.4551,广安市,广电花园,细颗粒物(PM2.5),52,39,28,36,16,64,,94,90,15,14,6,5,0.8,0.6
2025-08-28T2200,2902A,106.6351,30.4865,广安市,北辰小学,,50,50,33,31,19,68,,101,96,11,10,9,8,0.6,0.5
2025-08-28T2200,2523A,105.8945,32.4535,广元市,黑石坡,,29,7,5,3,6,90,,87,87,3,3,7,7,0.2,0.3
2025-08-28T2200,2524A,105.821,32.4444,广元市,老城,,35,13,13,8,7,109,,106,106,7,8,6,6,0.4,0.5
2025-08-28T2200,2526A,105.8628,32.4287,广元市,监测站,,29,12,12,6,6,92,,96,94,10,6,8,8,0.6,0.6
2025-08-28T2200,3617A,105.8047,32.4166,广元市,经开区,,33,6,7,3,3,103,,97,97,6,8,4,4,0.4,0.5
2025-08-28T2200,1345A,113.2347,23.1423,广州市,广雅中学,,48,48,49,28,23,54,,124,95,43,49,4,5,0.6,0.6
2025-08-28T2200,1346A,113.2612,23.105,广州市,市五中,,41,41,42,25,22,76,,126,105,29,43,6,6,0.6,0.6
2025-08-28T2200,1348A,113.3478,23.0916,广州市,广东商学院,细颗粒物(PM2.5),65,55,38,47,22,79,,118,103,29,41,4,4,0.6,0.6
2025-08-28T2200,1349A,113.4332,23.1047,广州市,市八十六中,,36,36,32,25,19,46,,91,78,42,47,3,4,0.6,0.5
2025-08-28T2200,1350A,113.3505,22.9483,广州市,番禺中学,颗粒物(PM10),52,54,42,30,23,36,,123,100,41,37,7,6,0.7,0.6
2025-08-28T2200,1351A,113.2146,23.3916,广州市,花都师范,,,41,30,33,22,,,123,103,31,25,5,6,0.6,0.5
2025-08-28T2200,1352A,113.2597,23.1331,广州市,市监测站,,45,45,44,24,21,61,,126,98,30,47,6,7,0.5,0.5
2025-08-28T2200,1353A,113.5618,23.312,广州市,九龙镇镇龙,,44,44,41,24,22,60,,96,92,13,22,7,7,0.6,0.6
2025-08-28T2200,1354A,113.2765,23.1544,广州市,麓湖,,35,35,37,23,22,56,,94,69,21,37,2,2,0.4,0.4
2025-08-28T2200,1355A,113.443,23.3035,广州市,帽峰山森林公园,,30,30,23,17,11,66,,112,99,11,13,6,6,0.6,0.5
2025-08-28T2200,2846A,113.3221,23.1322,广州市,体育西,,50,50,36,22,26,72,,106,96,30,42,5,5,0.7,0.7
2025-08-28T2200,3298A,113.5717,23.5491,广州市,从化街口,细颗粒物(PM2.5),54,54,46,38,30,39,,126,104,29,25,8,10,0.8,0.6
2025-08-28T2200,3299A,113.3472,23.3692,广州市,白云竹料,细颗粒物(PM2.5),68,70,34,49,22,33,,104,80,33,20,5,5,0.8,0.5
2025-08-28T2200,3300A,113.2981,23.237,广州市,白云嘉禾,,47,47,49,28,26,58,,124,88,36,43,6,7,0.5,0.5
2025-08-28T2200,3301A,113.4256,23.1716,广州市,黄埔科学城,颗粒物(PM10),52,53,39,34,22,67,,105,96,24,28,12,7,0.7,0.7
2025-08-28T2200,3302A,113.3942,23.0483,广州市,番禺大学城,,40,40,37,28,23,40,,113,96,45,44,8,10,0.5,0.5
2025-08-28T2200,3303A,113.4922,22.8168,广州市,南沙黄阁,颗粒物(PM10),52,54,54,21,28,58,,122,112,34,52,5,6,0.4,0.5
2025-08-28T2200,3304A,113.5342,22.7896,广州市,南沙街,,45,45,55,14,29,47,,139,128,32,45,5,7,0.4,0.6
2025-08-28T2200,3443A,113.2902,23.5544,广州市,花都梯面,,28,28,23,14,12,16,,106,75,29,20,6,7,0.5,0.5
2025-08-28T2200,3445A,113.7858,23.7478,广州市,从化良口,,25,22,21,17,16,22,,76,56,8,9,4,4,0.5,0.4
2025-08-28T2200,3446A,113.8051,23.2614,广州市,增城荔城,,24,24,28,15,18,40,,80,61,12,12,8,8,0.5,0.5
2025-08-28T2200,2505A,109.568,23.1478,贵港市,德智高中,,,,,,,,,,,,,,,,
2025-08-28T2200,2506A,109.6047,23.0666,贵港市,江南子站,,33,,28,23,19,66,,112,102,7,11,5,5,0.5,0.6
2025-08-28T2200,2508A,109.5669,23.1065,贵港市,荷城子站,,24,24,19,14,11,69,,109,104,9,11,3,4,0.6,0.6
2025-08-28T2200,3405A,109.5886,23.1172,贵港市,新世纪学校,,36,27,26,25,17,76,,120,113,11,12,1,2,0.6,0.5
2025-08-28T2200,4260A,109.5933,23.0951,贵港市,中山路155-3号,,41,41,27,20,15,71,,119,113,10,11,5,5,0.7,0.7
2025-08-28T2200,1439A,106.6899,26.5998,贵阳市,马鞍山,,,14,12,,0,26,,66,53,12,6,3,3,0.2,0.2
2025-08-28T2200,1441A,106.6243,26.6266,贵阳市,鉴湖路,,36,36,34,9,7,33,,60,52,12,8,4,5,0.1,0.2
2025-08-28T2200,1442A,106.7487,26.6343,贵阳市,燕子冲,,18,17,10,12,13,23,,64,50,18,9,2,3,0.3,0.3
2025-08-28T2200,1443A,106.6555,26.4365,贵阳市,碧云窝,,31,31,26,14,5,27,,59,49,13,6,4,6,0.1,0.1
2025-08-28T2200,1445A,106.7109,26.6027,贵阳市,红边门,,19,19,18,9,10,23,,56,43,27,14,3,3,0.3,0.2
2025-08-28T2200,1446A,106.7164,26.5699,贵阳市,新华路,,19,19,16,7,7,25,,54,42,24,11,3,13,0.0,0.2
2025-08-28T2200,1447A,106.674,26.5424,贵阳市,太慈桥,,19,19,17,3,5,23,,60,47,20,10,4,4,0.1,0.1
2025-08-28T2200,1552A,106.805,26.3003,贵阳市,桐木岭,,24,24,23,14,11,44,,52,49,7,6,2,2,0.7,0.7
2025-08-28T2200,4230A,106.6882,26.5695,贵阳市,花果园大街66号,,25,,4,17,9,33,,58,49,15,7,3,4,0.3,0.2
2025-08-28T2200,4231A,106.6873,26.5169,贵阳市,漓江路57号,,29,29,17,17,8,23,,60,48,19,7,5,6,0.4,0.4
2025-08-28T2200,1862A,110.4144,25.3167,桂林市,电子科大尧山校区,,,,,,,,,,,,,,,,
2025-08-28T2200,1864A,110.3089,25.2708,桂林市,龙隐路小学,,31,31,23,20,14,74,,100,89,9,9,12,6,0.3,0.3
2025-08-28T2200,1865A,110.2869,25.2178,桂林市,八中,,28,28,20,10,10,61,,101,90,14,8,8,8,0.4,0.4
2025-08-28T2200,3531A,110.296,25.1253,桂林市,旅游学院,,21,12,14,12,12,66,,105,91,8,7,3,7,0.4,0.4
2025-08-28T2200,4222A,110.1835,25.2444,桂林市,环湖路276号,,29,29,21,17,13,78,,97,91,10,14,7,6,0.2,0.2
2025-08-28T2200,4301A,110.2803,25.2773,桂林市,信义路13号,,37,37,20,12,6,74,,105,94,11,10,7,6,0.5,0.4
2025-08-28T2200,2674A,100.2561,34.4714,果洛藏族自治州,玛沁县大武镇,,32,18,14,9,11,100,,106,103,2,2,10,11,0.4,0.4
2025-08-28T2200,1129A,126.5422,45.755,哈尔滨市,岭北,,,,17,,,12,,12,12,30,23,16,16,0.3,0.6
2025-08-28T2200,1130A,126.561,45.8167,哈尔滨市,松北商大,,38,38,48,14,14,7,,40,32,35,25,6,7,0.4,0.6
2025-08-28T2200,1131A,126.979,45.5419,哈尔滨市,阿城会宁,,29,29,32,14,16,18,,60,50,30,14,10,10,0.5,0.5
2025-08-28T2200,1132A,126.599,45.7222,哈尔滨市,南岗学府路,,33,33,44,11,15,26,,54,48,11,12,7,9,0.7,0.8
2025-08-28T2200,1133A,126.689,45.7733,哈尔滨市,太平宏伟公园,颗粒物(PM10),53,56,47,13,12,14,,62,53,54,30,7,8,0.6,0.7
2025-08-28T2200,1134A,126.635,45.7667,哈尔滨市,道外承德广场,,,71,47,20,14,,,52,52,26,30,7,8,,0.7
2025-08-28T2200,1135A,126.685,45.7319,哈尔滨市,香坊红旗大街,,44,44,38,25,15,37,,60,58,36,31,12,15,0.5,0.5
2025-08-28T2200,1136A,126.6411,45.7258,哈尔滨市,动力和平路,,25,25,36,7,12,36,,60,58,32,31,9,12,0.6,0.7
2025-08-28T2200,1137A,126.593,45.7478,哈尔滨市,道里建国路,,40,40,33,16,13,27,,52,47,29,33,9,13,0.6,1.6
2025-08-28T2200,1138A,126.615,45.61,哈尔滨市,平房东轻厂,,30,28,24,8,9,2,,57,45,60,20,8,8,0.4,0.5
2025-08-28T2200,1139A,126.595,45.9855,哈尔滨市,呼兰师专,,30,30,32,18,13,37,,50,49,24,25,10,10,0.5,0.5
2025-08-28T2200,1140A,126.6206,45.6842,哈尔滨市,省农科院,,39,39,49,22,15,28,,44,35,40,37,7,9,0.6,0.6
2025-08-28T2200,2688A,93.5128,42.8172,哈密市,地区监测站,,,63,64,7,21,,,113,109,40,19,5,4,0.6,0.3
2025-08-28T2200,2689A,93.4961,42.8328,哈密市,哈密师范学校,颗粒物(PM10),62,73,52,21,18,30,,115,98,63,24,4,6,0.6,0.3
2025-08-28T2200,2671A,100.9048,36.9639,海北藏族自治州,海晏县西海镇,,29,13,12,9,11,92,,111,105,6,2,6,6,0.4,0.4
2025-08-28T2200,3867A,102.0738,36.5056,海东市,平安区公安北苑,,26,25,13,13,8,82,,106,97,7,6,11,8,0.5,0.7
2025-08-28T2200,1409A,110.576,19.9507,海口市,东寨港,,9,,16,6,7,28,,46,38,4,6,7,6,0.3,0.3
2025-08-28T2200,1410A,110.3232,20.0574,海口市,海南大学,,16,16,15,6,7,30,,56,47,5,4,3,3,0.3,0.3
2025-08-28T2200,1411A,110.283,20.0053,海口市,秀英海南医院,,15,15,19,3,8,31,,51,45,4,9,6,5,0.3,0.3
2025-08-28T2200,1412A,110.338,19.9969,海口市,海南师范大学,,16,16,15,6,7,32,,55,47,4,5,4,4,0.3,0.3
2025-08-28T2200,1413A,110.33,20.0356,海口市,龙华路环保局宿舍,,14,14,14,3,5,33,,60,48,6,5,6,5,0.2,0.2
2025-08-28T2200,3539A,110.5111,19.9736,海口市,桂林洋子站,,14,14,19,3,8,28,,50,40,5,9,3,4,0.2,0.2
2025-08-28T2200,2673A,100.6188,36.2866,海南藏族自治州,共和县恰卜恰镇,,27,27,19,3,2,72,,117,105,22,4,6,9,0.5,0.4
2025-08-28T2200,2676A,97.3731,37.3753,海西蒙古族藏族自治州,德令哈市,,44,24,16,18,11,139,,132,132,1,3,14,15,0.3,0.4
2025-08-28T2200,1048A,114.5302,36.6116,邯郸市,东污水处理厂,,41,41,32,23,23,78,,139,118,27,12,6,9,0.5,0.9
2025-08-28T2200,1049A,114.4918,36.5713,邯郸市,矿院,,45,32,24,31,28,84,,148,128,26,15,6,5,0.8,0.7
2025-08-28T2200,1050A,114.484,36.6133,邯郸市,丛台公园,,36,24,26,14,19,114,,152,141,13,12,6,9,0.5,0.9
2025-08-28T2200,3458A,114.7895,36.5593,邯郸市,香泉濮院小区,颗粒物(PM10),53,56,38,13,11,87,,130,122,19,12,4,6,0.8,0.7
2025-08-28T2200,3579A,114.50634,36.77178,邯郸市,永年区实验高中,,46,46,35,24,22,62,,140,113,39,15,6,6,0.4,0.8
2025-08-28T2200,3580A,114.20016,36.44293,邯郸市,峰峰矿区临水派出所,,,43,36,24,23,,,155,152,,9,5,8,0.8,0.7
2025-08-28T2200,2634A,106.9893,33.1842,汉中市,汉川机床厂子校,,24,12,10,3,3,76,,82,77,8,8,4,4,0.7,0.6
2025-08-28T2200,2635A,107.0154,33.0706,汉中市,市监测站,,20,6,9,3,3,64,,77,71,10,7,6,6,0.7,0.6
2025-08-28T2200,2636A,107.0089,33.1138,汉中市,鑫源开发区,,23,10,8,3,4,73,,91,85,6,8,6,10,0.5,0.6
2025-08-28T2200,2637A,107.007,33.0323,汉中市,南郑大河坎水厂,,21,13,8,3,3,67,,79,74,7,7,5,6,0.5,0.5
2025-08-28T2200,1223A,120.2072,30.2111,杭州市,滨江,,36,36,18,11,8,65,,110,101,32,16,9,8,0.5,0.3
2025-08-28T2200,1224A,120.0633,30.2747,杭州市,西溪,,25,,13,17,9,53,,108,98,25,14,12,12,0.5,0.3
2025-08-28T2200,1226A,120.3417,30.3150,杭州市,下沙,,21,21,18,9,8,50,,100,89,37,17,7,7,0.3,0.2
2025-08-28T2200,1227A,120.1269,30.2456,杭州市,卧龙桥,,18,18,17,11,8,37,,102,81,22,11,8,8,0.5,0.4
2025-08-28T2200,1228A,120.1903,30.2692,杭州市,浙江农大,,46,46,22,13,9,55,,92,84,32,11,6,6,0.5,0.4
2025-08-28T2200,1230A,120.1197,30.3119,杭州市,和睦小学,,26,26,17,9,10,69,,107,98,24,11,6,6,0.5,0.4
2025-08-28T2200,1231A,120.3019,30.4183,杭州市,临平镇,,42,42,25,11,10,51,,116,101,23,15,6,6,0.5,0.3
2025-08-28T2200,1232A,120.2753,30.1839,杭州市,城厢镇,,48,48,28,19,9,69,,106,94,24,11,10,8,0.5,0.4
2025-08-28T2200,1233A,120.0883,30.1808,杭州市,云栖,,19,19,20,3,8,35,,114,85,36,22,10,10,0.6,0.6
2025-08-28T2200,3557A,119.9464,30.0494,杭州市,镇二中,颗粒物(PM10),54,57,15,29,12,48,,77,,29,19,5,5,0.6,0.5
2025-08-28T2200,3558A,119.7183,30.2367,杭州市,市府大楼,,20,17,20,9,7,64,,95,91,17,15,8,8,0.3,0.3
2025-08-28T2200,3656A,120.1556,30.2864,杭州市,消防大队,,23,22,19,14,8,72,,102,96,23,11,6,6,0.5,0.4
2025-08-28T2200,1270A,117.1959,31.7848,合肥市,明珠广场,,31,31,32,17,20,70,,126,103,32,19,6,8,0.6,0.7
2025-08-28T2200,1271A,117.3072,31.8764,合肥市,三里街,,34,34,39,19,25,65,,128,94,28,21,5,7,0.5,0.6
2025-08-28T2200,1272A,117.2588,31.8707,合肥市,琥珀山庄,,31,31,41,20,24,77,,143,110,18,16,8,9,0.6,0.6
2025-08-28T2200,1273A,117.1604,31.9052,合肥市,董铺水库,,25,24,34,17,23,61,,99,82,8,12,4,5,0.3,0.3
2025-08-28T2200,1274A,117.25,31.8571,合肥市,长江中路,,34,34,39,12,20,88,,133,105,18,16,8,10,0.5,0.5
2025-08-28T2200,1275A,117.266,31.9436,合肥市,庐阳区,,34,34,45,17,22,68,,138,102,28,27,6,8,0.5,0.6
2025-08-28T2200,1276A,117.3453,31.8616,合肥市,瑶海区,,29,29,43,15,24,69,,132,95,27,26,7,8,0.5,0.6
2025-08-28T2200,1277A,117.3027,31.7964,合肥市,包河区,,31,31,37,19,21,70,,129,94,27,27,9,12,0.6,0.7
2025-08-28T2200,1278A,117.2776,31.7385,合肥市,滨湖新区,,29,19,35,19,27,92,,124,103,6,8,5,7,0.5,0.5
2025-08-28T2200,1279A,117.1318,31.8403,合肥市,高新区,,29,29,32,17,22,90,,121,106,17,18,6,7,0.6,0.7
2025-08-28T2200,3464A,117.3803,31.9147,合肥市,高教基地,,36,36,35,20,21,42,,127,90,21,13,5,5,0.7,0.8
2025-08-28T2200,3614A,79.924,37.0877,和田地区,地区环保局,,,,163,,43,61,,120,112,49,15,1,1,,0.4
2025-08-28T2200,3615A,79.9131,37.113,和田地区,市环保局,颗粒物(PM10),107,164,143,41,40,24,,122,110,78,24,1,2,0.9,0.3
2025-08-28T2200,2516A,108.2011,24.715,河池市,东仁乐园,,,,,,,,,,,,,,,,
2025-08-28T2200,2517A,108.0497,24.6947,河池市,市环保站,,19,15,22,13,10,30,,79,58,17,11,5,6,0.6,0.5
2025-08-28T2200,2518A,108.0983,24.6989,河池市,市疾控中心,,18,18,23,12,12,21,,76,58,28,14,6,7,0.6,0.6
2025-08-28T2200,1696A,114.6778,23.7569,河源市,源西,,13,13,22,7,13,11,,71,42,20,17,5,5,0.8,0.8
2025-08-28T2200,1697A,114.6944,23.7586,河源市,东埔,,18,18,22,12,12,11,,69,44,25,14,4,5,0.7,0.7
2025-08-28T2200,1698A,114.6892,23.7233,河源市,老城,,12,12,22,6,11,20,,78,54,14,9,4,5,0.7,0.7
2025-08-28T2200,1718A,115.4208,35.2464,菏泽市,气象局,,40,23,36,14,25,125,,134,131,6,8,2,2,0.5,0.4
2025-08-28T2200,3374A,115.5564,35.0891,菏泽市,定陶老年大学,,,,33,,16,,,133,130,,8,,5,,0.5
2025-08-28T2200,4184A,115.4797,35.24401,菏泽市,永昌路1号,,38,17,36,14,25,120,,138,132,3,8,6,9,0.4,0.5
2025-08-28T2200,4193A,115.4715,35.2800,菏泽市,长城路999号,,35,17,35,6,19,110,,133,125,8,9,8,8,0.4,0.4
2025-08-28T2200,2514A,111.5264,24.4172,贺州市,环保小区,,35,35,20,16,10,21,,79,53,14,10,23,15,0.7,0.5
2025-08-28T2200,2515A,111.5608,24.4078,贺州市,政协大楼,,22,19,17,15,13,21,,83,49,12,9,12,9,0.6,0.5
2025-08-28T2200,3534A,111.4744,24.4553,贺州市,西湾,,38,,20,26,14,32,,88,60,11,12,11,10,0.5,0.5
2025-08-28T2200,2385A,114.17,35.9019,鹤壁市,市监测站,,30,28,24,21,23,65,,117,94,5,5,6,5,0.6,0.7
2025-08-28T2200,2386A,114.2956,35.7511,鹤壁市,市交警支队,,39,28,27,27,26,64,,111,96,15,9,4,8,1.1,0.8
2025-08-28T2200,2387A,114.2878,35.7306,鹤壁市,迎宾馆,,29,,24,20,22,66,,110,95,15,9,1,5,0.8,0.7
2025-08-28T2200,3474A,114.2617,35.6822,鹤壁市,大新区,,,21,27,,10,65,,108,94,5,8,6,7,0.7,0.7
2025-08-28T2200,3596A,114.1572,35.9603,鹤壁市,南山宾馆,,33,28,24,23,19,73,,134,99,7,8,5,6,0.7,0.7
2025-08-28T2200,2244A,130.2537,47.3416,鹤岗市,哈啤分公司,,42,42,28,17,10,36,,58,52,18,10,12,12,0.5,0.4
2025-08-28T2200,2245A,130.2684,47.3086,鹤岗市,斯达机电,,32,32,26,20,7,45,,56,51,15,12,13,12,0.5,0.4
2025-08-28T2200,2246A,130.3114,47.3388,鹤岗市,东山纸板厂,,32,32,44,15,12,18,,51,38,19,16,14,15,0.6,0.7
2025-08-28T2200,2247A,130.1097,47.3382,鹤岗市,五号水库,,18,16,14,7,5,11,,57,40,36,37,6,6,0.2,0.2
2025-08-28T2200,2263A,127.4833,50.2524,黑河市,交通局,,45,45,31,15,9,32,,62,52,24,18,7,7,0.4,0.4
2025-08-28T2200,2264A,127.5144,50.2341,黑河市,环保局,,37,37,24,10,9,48,,69,63,22,14,6,5,0.4,0.3
2025-08-28T2200,2265A,127.5291,50.2472,黑河市,大黑河岛,,,,,14,8,46,,51,47,2,2,25,23,0.4,0.4
2025-08-28T2200,1074A,115.6838,37.7541,衡水市,电机北厂,,43,43,26,19,13,72,,126,116,25,8,6,6,0.5,0.5
2025-08-28T2200,1075A,115.6303,37.7316,衡水市,市监测站,颗粒物(PM10),53,55,29,12,12,64,,127,117,27,8,6,6,0.7,0.6
2025-08-28T2200,3188A,115.6683,37.7217,衡水市,市城管局,,42,42,27,16,16,79,,127,120,13,6,5,7,0.6,0.5
2025-08-28T2200,3459A,115.5989,37.5491,衡水市,地表水厂,,46,46,30,19,11,59,,131,120,37,6,2,2,0.3,0.3
2025-08-28T2200,2456A,112.5003,26.9167,衡阳市,原169医院,,23,20,33,16,19,37,,103,73,7,5,1,9,0.6,0.6
2025-08-28T2200,2457A,112.6194,26.9258,衡阳市,衡阳化工总厂,,20,20,32,14,20,41,,107,74,7,10,3,9,0.7,0.9
2025-08-28T2200,2458A,112.6211,26.8956,衡阳市,珠晖区环保局,,35,35,28,15,16,28,,104,69,22,11,8,14,0.8,0.8
2025-08-28T2200,2459A,112.6197,26.8733,衡阳市,市委党校,,20,20,22,14,16,39,,97,73,10,9,11,18,0.5,0.5
2025-08-28T2200,2460A,112.6006,26.8919,衡阳市,市监测站,,32,30,28,22,21,36,,103,73,13,9,3,3,0.7,0.8
2025-08-28T2200,2461A,112.5664,26.9056,衡阳市,真空机电公司,,26,,26,18,19,36,,100,70,10,9,3,12,0.8,0.9
2025-08-28T2200,3399A,112.6703,26.882,衡阳市,师范学院,,26,25,34,18,20,36,,96,68,11,9,11,12,0.7,0.7
2025-08-28T2200,2608A,103.3772,23.3993,红河哈尼族彝族自治州,污水处理厂,,33,,13,23,15,42,,53,51,8,6,8,9,0.2,0.3
2025-08-28T2200,2609A,103.3861,23.35,红河哈尼族彝族自治州,监测站,,29,29,20,20,10,43,,53,51,6,3,9,9,0.2,0.1
2025-08-28T2200,3038A,103.3758,23.368,红河哈尼族彝族自治州,州图书馆,,40,,8,28,15,44,,53,51,7,4,2,2,0.3,0.2
2025-08-28T2200,1090A,111.6507,40.7517,呼和浩特市,呼市一监,,20,,22,10,18,61,,102,94,18,8,2,2,0.4,0.6
2025-08-28T2200,1091A,111.6572,40.8033,呼和浩特市,小召,,26,12,28,8,22,81,,92,88,18,17,4,7,0.4,0.4
2025-08-28T2200,1094A,111.7516,40.8369,呼和浩特市,如意水处理厂,,25,11,29,7,17,78,,104,100,17,14,5,6,0.4,0.4
2025-08-28T2200,1095A,111.7276,40.8062,呼和浩特市,二十九中,,25,18,31,10,22,80,,107,103,11,10,5,6,0.6,0.7
2025-08-28T2200,1096A,111.5512,40.7866,呼和浩特市,工大金川校区,,31,21,38,10,19,3,,97,74,61,24,5,5,0.6,0.5
2025-08-28T2200,1097A,111.717,40.7612,呼和浩特市,化肥厂生活区,,25,11,36,7,17,77,,111,105,17,12,5,6,0.4,0.4
2025-08-28T2200,3698A,111.5968,40.8178,呼和浩特市,红旗小学,,20,19,28,14,23,48,,96,84,36,25,3,4,0.6,0.5
2025-08-28T2200,3699A,111.6518,40.8389,呼和浩特市,海东办,,27,27,35,11,21,64,,109,100,31,18,5,5,0.6,0.6
2025-08-28T2200,2192A,119.7594,49.2261,呼伦贝尔市,区环保局,,26,26,24,14,18,62,,89,80,19,11,6,5,0.3,0.3
2025-08-28T2200,3061A,119.7512,49.1577,呼伦贝尔市,国华电力东,,20,16,20,9,10,64,,101,90,7,3,5,5,0.2,0.2
2025-08-28T2200,1250A,120.0751,30.8669,湖州市,城西水厂,,27,27,22,15,11,73,,144,128,23,19,8,8,0.4,0.4
2025-08-28T2200,2873A,120.0830,30.8929,湖州市,仁皇山新区,,24,24,22,10,12,70,,137,122,20,17,5,5,0.3,0.3
2025-08-28T2200,2907A,120.1844,30.8596,湖州市,吴兴区站,,24,24,24,10,11,58,,133,117,19,14,8,8,0.4,0.5
2025-08-28T2200,3562A,120.4148,30.8538,湖州市,南浔区站,,26,26,21,12,10,45,,118,100,20,12,8,6,0.6,0.5
2025-08-28T2200,1607A,120.9049,40.7211,葫芦岛市,龙港区,,24,24,25,3,7,9,,82,51,37,16,8,21,0.6,0.6
2025-08-28T2200,1608A,120.8392,40.7514,葫芦岛市,化工街,,24,24,6,12,5,45,,81,63,29,15,8,7,0.6,0.6
2025-08-28T2200,1609A,120.8341,40.7073,葫芦岛市,新区,,28,21,13,19,9,45,,81,68,24,13,16,6,0.8,0.7
2025-08-28T2200,1610A,120.8695,40.7677,葫芦岛市,东城区,,32,32,15,13,9,28,,82,58,49,17,8,5,0.7,0.7
2025-08-28T2200,2482A,109.5981,27.5721,怀化市,林科所,,34,34,23,12,6,36,,95,74,13,8,4,4,0.6,0.5
2025-08-28T2200,2483A,109.9453,27.5444,怀化市,河西地税局,,,42,20,25,12,2,,86,62,19,11,3,4,,0
2025-08-28T2200,2484A,109.9781,27.5342,怀化市,市四医院,,39,39,31,12,18,34,,91,74,22,13,4,5,0.2,0.2
2025-08-28T2200,2485A,109.9972,27.5578,怀化市,监测楼,,32,24,25,22,13,46,,90,76,14,11,4,4,0.2,0.1
2025-08-28T2200,2486A,110.0394,27.583,怀化市,市委党校,,36,36,24,22,13,41,,89,70,16,13,3,3,0.3,0.2
2025-08-28T2200,1210A,119.036,33.5981,淮安市,钵池山,,41,34,27,21,18,129,,151,146,9,12,4,5,0.8,0.7
2025-08-28T2200,1211A,119.007,33.575,淮安市,北京南路,,44,44,34,19,18,99,,155,129,19,17,8,8,0.6,0.5
2025-08-28T2200,1212A,118.989,33.6067,淮安市,市监测站,,46,46,37,24,22,46,,159,119,50,19,9,10,0.7,0.6
2025-08-28T2200,1213A,119.135,33.5039,淮安市,楚州区监测站,颗粒物(PM10),55,59,43,22,17,80,,156,134,32,17,7,7,0.6,0.5
2025-08-28T2200,3426A,118.8755,33.2894,淮安市,新华书店,,29,29,27,18,18,67,,144,116,36,19,6,7,0.8,0.5
2025-08-28T2200,4206A,119.0288,33.6319,淮安市,承德北路606号,,41,41,36,19,19,127,,156,144,12,16,5,7,0.5,0.6
2025-08-28T2200,2282A,116.8004,33.975,淮北市,监测站,,37,37,35,18,22,108,,153,136,13,12,7,7,0.8,0.7
2025-08-28T2200,2283A,116.8091,33.9007,淮北市,烈山区政府,,,,48,,22,112,,158,148,17,13,9,11,,0.6
2025-08-28T2200,3330A,116.8873,33.9836,淮北市,杜集区检察院,颗粒物(PM10),52,54,43,33,27,85,,152,132,19,10,9,9,0.7,0.7
2025-08-28T2200,4017A,116.7923,33.9535,淮北市,市博物馆,颗粒物(PM10),53,56,39,21,24,102,,151,140,20,12,12,12,0.7,0.6
2025-08-28T2200,2277A,116.8305,32.7727,淮南市,潘集区政府,颗粒物(PM10),52,53,39,20,24,101,,156,139,14,12,3,4,0.4,0.4
2025-08-28T2200,2279A,116.8569,32.5951,淮南市,谢家集区政府,,42,42,43,20,22,75,,132,105,17,10,10,7,0.4,0.4
2025-08-28T2200,2280A,116.8281,32.633,淮南市,八公山区政府,,35,35,38,18,23,93,,141,115,8,9,6,6,0.3,0.4
2025-08-28T2200,2281A,116.6325,32.6201,淮南市,焦岗湖风景区管理处,,,,,,,,,,,,,,,,
2025-08-28T2200,2894A,117.0566,32.6531,淮南市,经济技术开发区消防队,,37,37,36,20,15,73,,144,123,29,14,9,9,0.3,0.4
2025-08-28T2200,3329A,117.0108,32.5893,淮南市,山南新区,,38,38,25,21,23,96,,141,132,13,9,5,6,0.5,0.6
2025-08-28T2200,4209A,117.0031,32.6445,淮南市,国庆中路369号,,35,27,35,19,25,109,,166,158,10,8,4,5,0.4,0.5
2025-08-28T2200,2446A,114.9028,30.4742,黄冈市,职工中心,,24,24,23,12,16,64,,150,108,25,14,10,12,0.5,0.5
2025-08-28T2200,2929A,114.8858,30.4519,黄冈市,红卫路,,,29,29,14,19,,,160,125,27,20,10,13,0.4,0.4
2025-08-28T2200,3398A,114.9136,30.4445,黄冈市,市林业局,,32,32,34,11,19,61,,151,109,26,20,9,11,0.3,0.4
2025-08-28T2200,2672A,102.0199,35.5102,黄南藏族自治州,同仁县隆务镇,,21,17,15,3,4,66,,108,97,2,4,9,9,0.4,0.4
2025-08-28T2200,2295A,118.2903,29.6963,黄山市,延安路89号,,25,25,22,6,8,42,,84,62,7,7,4,4,0.2,0.3
2025-08-28T2200,2297A,118.1371,30.2756,黄山市,黄山区政府5号楼,,42,42,22,11,13,27,,72,52,8,5,4,4,0.5,0.4
2025-08-28T2200,4210A,118.3354,29.7203,黄山市,滨江东路7-2号,,24,24,20,3,6,25,,78,56,14,7,2,2,0.3,0.3
2025-08-28T2200,2423A,115.0601,30.2313,黄石市,沈家营,,28,28,42,7,13,60,,151,99,14,18,11,10,0.5,0.5
2025-08-28T2200,2426A,114.8988,30.2019,黄石市,铁山,,25,25,30,12,10,44,,113,93,29,14,4,6,0.9,0.7
2025-08-28T2200,2427A,115.0307,30.2092,黄石市,团城山,,27,27,30,3,6,79,,134,109,10,14,10,10,0.6,0.6
2025-08-28T2200,3149A,115.0235,30.1578,黄石市,笔架山北路,,28,28,22,8,9,73,,116,94,2,11,6,6,0.5,0.3
2025-08-28T2200,4185A,115.0780,30.21118,黄石市,磁湖东路29号,,40,40,41,7,15,76,,129,97,14,22,16,14,0.6,0.6
2025-08-28T2200,1392A,114.4183,23.0528,惠州市,河南岸金山湖子站,,19,19,30,8,15,42,,78,68,14,17,9,9,0.5,0.5
2025-08-28T2200,1393A,114.4053,23.0822,惠州市,下埔横江三路子站,,31,31,27,17,14,45,,76,57,14,12,4,5,0.4,0.4
2025-08-28T2200,1394A,114.4103,23.1142,惠州市,江北云山西路子站,,32,32,25,16,14,49,,75,60,16,16,8,11,0.6,0.6
2025-08-28T2200,1395A,114.4645,22.7833,惠州市,惠阳区承修路船湖子站,,15,12,28,6,14,45,,91,75,7,17,7,8,0.3,0.5
2025-08-28T2200,1396A,114.5317,22.7422,惠州市,大亚湾管委会子站,,17,17,21,7,11,40,,88,73,14,12,9,8,0.3,0.3
2025-08-28T2200,3314A,114.4338,22.8134,惠州市,惠阳秋长,,22,22,26,6,13,47,,99,79,9,16,6,7,0.5,0.5
2025-08-28T2200,3452A,114.6517,22.775,惠州市,大亚湾霞涌,,12,,19,3,10,37,,91,77,11,10,5,6,0.7,0.6
2025-08-28T2200,2240A,130.9762,45.3001,鸡西市,环保局,,16,16,35,6,13,27,,35,32,10,18,8,8,0.5,0.6
2025-08-28T2200,2243A,130.9429,45.3039,鸡西市,第一中学,,13,12,28,9,11,26,,36,33,10,18,9,9,0.7,0.7
2025-08-28T2200,3707A,131.0207,45.3073,鸡西市,欧美日汽修厂,,15,15,36,3,15,33,,34,32,6,17,8,10,0.6,0.7
2025-08-28T2200,3709A,130.9967,45.3106,鸡西市,市政设施管理处,,11,11,39,7,11,24,,33,30,11,19,6,7,0.5,0.6
2025-08-28T2200,2367A,114.9754,27.0803,吉安市,红声器材厂,,22,22,26,13,13,48,,79,63,5,7,8,10,0.7,0.7
2025-08-28T2200,2368A,114.9658,27.0999,吉安市,市森林工业局,,25,25,24,14,13,47,,83,64,3,6,8,9,0.5,0.6
2025-08-28T2200,2369A,114.99,27.1312,吉安市,市环境监测站,,26,18,22,18,13,47,,85,64,3,6,11,13,0.4,0.5
2025-08-28T2200,2370A,115.0093,27.0968,吉安市,青原区法院,,21,21,25,12,14,46,,79,63,8,14,7,9,0.5,0.6
2025-08-28T2200,1772A,126.54,43.8622,吉林市,哈达湾,,26,26,21,14,13,13,,57,46,35,18,8,7,0.5,0.4
2025-08-28T2200,1773A,126.5844,43.8358,吉林市,东局子,,30,,19,21,15,9,,59,47,25,16,6,6,0.8,0.7
2025-08-28T2200,1774A,126.5052,43.8245,吉林市,电力学院,,46,46,26,21,14,17,,56,45,23,17,6,6,0.7,0.6
2025-08-28T2200,1775A,126.6133,43.8972,吉林市,江北,,18,18,19,12,10,14,,51,44,8,9,5,5,0.5,0.6
2025-08-28T2200,1776A,126.555,43.8306,吉林市,江南公园,,35,35,19,19,10,4,,56,44,39,17,2,2,0.7,0.4
2025-08-28T2200,1778A,126.7061,43.7133,吉林市,丰满,,23,7,8,3,5,72,,97,90,3,3,5,5,0.5,0.6
2025-08-28T2200,2868A,126.4739,43.953,吉林市,九站,,17,17,22,11,12,15,,51,44,18,20,10,8,0.5,0.4
2025-08-28T2200,1299A,116.9862,36.6114,济南市,科干所,,24,24,29,10,19,70,,118,108,16,14,8,6,0.7,0.6
2025-08-28T2200,1300A,116.9376,36.665,济南市,农科所,,22,22,27,10,15,63,,115,102,30,16,11,8,1.3,0.5
2025-08-28T2200,1301A,117.1265,36.6734,济南市,开发区,,32,32,25,15,20,67,,110,102,25,15,10,8,0.6,0.7
2025-08-28T2200,1303A,117.0624,36.6868,济南市,省种子仓库,,29,29,25,12,12,69,,116,106,27,12,7,5,0.7,0.7
2025-08-28T2200,1304A,116.9489,36.6447,济南市,机床二厂,,,24,30,15,15,,,116,113,27,14,11,9,0.6,0.5
2025-08-28T2200,1305A,117.0495,36.663,济南市,市监测站,,22,22,24,12,16,69,,108,99,23,15,12,9,0.8,0.8
2025-08-28T2200,1306A,116.7675,36.5484,济南市,长清党校,,21,17,27,7,19,67,,116,106,24,13,7,6,0.7,0.7
2025-08-28T2200,1616A,117.6795,36.229,济南市,技术学院,,25,19,31,17,23,67,,131,79,16,14,10,15,0.7,0.8
2025-08-28T2200,1961A,117.532,36.6868,济南市,东山小学,,39,39,33,7,19,51,,107,90,41,15,8,6,0.5,0.4
2025-08-28T2200,3059A,117.7161,36.2049,济南市,泰兴公司,,18,17,31,3,20,55,,122,73,14,14,10,11,0.6,0.7
2025-08-28T2200,3064A,117.6867,36.2171,济南市,莱芜战役纪念馆,,24,24,31,15,23,64,,119,70,12,14,6,7,0.6,0.8
2025-08-28T2200,3494A,117.1673,36.9782,济南市,济阳区政府,,32,20,26,3,10,102,,111,110,15,16,10,7,0.5,0.4
2025-08-28T2200,3495A,117.1171,36.63,济南市,锦屏中学,,17,17,25,3,14,51,,90,,14,14,10,9,0.7,0.7
2025-08-28T2200,3682A,116.9814,36.6819,济南市,济南四建,,24,19,21,7,15,74,,114,104,23,11,9,5,1.0,0.6
2025-08-28T2200,1653A,116.6251,35.4302,济宁市,火炬城,,,,45,,25,,,130,116,6,5,5,5,0.5,0.7
2025-08-28T2200,1655A,116.5491,35.4042,济宁市,电化厂,,40,40,44,19,23,106,,144,129,8,6,2,2,1.0,0.9
2025-08-28T2200,3500A,116.5814,35.3707,济宁市,北湖一中,,35,35,44,18,22,103,,137,121,4,4,5,7,0.6,0.6
2025-08-28T2200,3501A,116.8249,35.5593,济宁市,服务中心,,30,30,43,7,20,65,,118,98,11,10,2,2,0.3,0.5
2025-08-28T2200,3678A,116.5907,35.4054,济宁市,市第七中学,,33,33,43,14,19,100,,138,122,7,6,5,4,0.7,0.6
2025-08-28T2200,2255A,130.2751,46.8028,佳木斯市,佳纺,,33,33,39,12,12,23,,46,45,13,17,10,10,0.5,0.6
2025-08-28T2200,2256A,130.3995,46.8307,佳木斯市,发电厂,颗粒物(PM10),54,57,47,15,14,14,,39,35,24,19,7,8,0.6,0.6
2025-08-28T2200,2257A,130.3258,46.7975,佳木斯市,环保局,,29,29,34,13,12,35,,53,52,13,20,10,10,0.5,0.6
2025-08-28T2200,2258A,130.3648,46.8032,佳木斯市,十一中,,37,37,35,20,15,21,,43,40,26,23,8,10,0.7,0.7
2025-08-28T2200,2259A,130.3794,46.7588,佳木斯市,四丰,,12,11,12,8,7,0,,0,0,15,15,1,1,0.4,0.4
2025-08-28T2200,1252A,120.7436,30.778,嘉兴市,清河小学,,30,30,20,8,9,20,,103,83,27,13,7,7,0.6,0.6
2025-08-28T2200,1253A,120.726,30.7478,嘉兴市,嘉兴学院,,25,25,19,12,10,21,,110,92,21,9,7,5,0.6,0.4
2025-08-28T2200,2872A,120.7846,30.7525,嘉兴市,南湖区残联,,33,33,18,15,9,22,,112,90,26,12,8,7,0.7,0.5
2025-08-28T2200,3407A,120.6916,30.7739,嘉兴市,秀洲住建,,26,26,20,10,9,28,,118,95,21,12,8,7,0.5,0.5
2025-08-28T2200,1945A,98.2908,39.7711,嘉峪关市,气象局,,34,12,18,3,5,106,,126,122,10,5,3,4,0.6,0.5
2025-08-28T2200,2884A,98.2672,39.7978,嘉峪关市,酒钢宾馆,,37,12,41,9,9,118,,140,136,6,9,12,19,0.5,0.5
2025-08-28T2200,3248A,98.2643,39.7724,嘉峪关市,雄关区,,31,20,27,14,14,98,,119,115,20,15,11,10,0.5,0.4
2025-08-28T2200,1383A,113.1064,22.6058,江门市,北街,细颗粒物(PM2.5),72,80,57,52,39,49,,113,98,46,42,5,6,1.3,0.7
2025-08-28T2200,1384A,113.0731,22.5835,江门市,西区,细颗粒物(PM2.5),74,67,52,54,38,21,,96,82,92,49,9,10,1.1,0.6
2025-08-28T2200,1385A,113.0219,22.5311,江门市,圭峰西,细颗粒物(PM2.5),77,70,57,56,41,41,,89,77,26,25,3,3,0.7,0.6
2025-08-28T2200,1386A,113.0828,22.5947,江门市,东湖,细颗粒物(PM2.5),72,79,54,52,33,39,,67,63,52,37,7,7,1.2,0.7
2025-08-28T2200,3311A,113.1075,22.5647,江门市,江海富民,,,123,81,67,40,,,107,107,61,40,5,6,1.1,0.5
2025-08-28T2200,3449A,113.05,22.4667,江门市,新会银湖,细颗粒物(PM2.5),80,64,55,59,46,1,,53,42,75,35,2,3,0.7,0.5
2025-08-28T2200,1830A,113.1992,35.2590,焦作市,影视城,,,,19,,11,,,82,,,6,,8,,0.6
2025-08-28T2200,3335A,113.3137,35.2641,焦作市,马村街道办,,44,44,32,23,18,77,,120,107,18,13,4,4,0.7,0.6
2025-08-28T2200,3336A,113.2465,35.2373,焦作市,焦作技师学院,颗粒物(PM10),56,61,39,24,12,64,,118,104,26,15,19,10,1.0,0.9
2025-08-28T2200,3477A,113.1656,35.2539,焦作市,中站许衡医院,,50,50,27,26,18,60,,113,101,30,13,22,8,0.7,0.7
2025-08-28T2200,3981A,113.2449,35.1803,焦作市,原李万街道办,颗粒物(PM10),51,52,35,22,11,67,,130,113,18,10,11,12,0.8,0.5
2025-08-28T2200,4264A,113.2340,35.2190,焦作市,新安路1731号,颗粒物(PM10),53,56,33,25,15,64,,121,107,21,12,22,9,1.0,0.7
2025-08-28T2200,4295A,113.2722,35.2121,焦作市,人民路3066号,颗粒物(PM10),52,54,41,34,20,62,,126,109,21,11,4,4,0.8,0.4
2025-08-28T2200,1708A,116.3701,23.5345,揭阳市,新兴,,24,24,32,15,17,64,,99,73,16,14,7,9,0.5,0.4
2025-08-28T2200,1709A,116.3264,23.5443,揭阳市,西马,,45,45,34,16,17,71,,106,80,11,13,4,6,0.5,0.5
2025-08-28T2200,1710A,116.3611,23.5626,揭阳市,东兴,,46,46,35,20,14,54,,96,76,18,12,10,9,0.6,0.5
2025-08-28T2200,1711A,116.4151,23.5294,揭阳市,渔湖,,,,31,13,12,68,,107,80,18,14,9,11,0.6,0.6
2025-08-28T2200,3320A,116.403,23.5699,揭阳市,曲溪,,33,33,30,17,14,67,,103,81,11,9,2,3,0.7,0.7
2025-08-28T2200,1944A,102.1692,38.5167,金昌市,天庆家园,,27,27,26,10,9,75,,105,98,16,16,4,20,0.5,0.7
2025-08-28T2200,4022A,102.1647,38.5371,金昌市,金川区人防中心,,26,26,29,6,8,79,,109,102,13,12,9,12,0.5,0.5
2025-08-28T2200,4239A,102.1930,38.5319,金昌市,长春路96号,,27,26,29,10,11,85,,110,106,16,14,4,7,0.6,0.6
2025-08-28T2200,1262A,119.647,29.077,金华市,十五中,,21,17,21,10,10,65,,70,64,9,11,3,4,0.3,0.3
2025-08-28T2200,1263A,119.686,29.1029,金华市,监测站,,21,21,17,10,8,59,,70,63,11,10,4,4,0.4,0.3
2025-08-28T2200,3659A,119.656,29.1131,金华市,气象局,,21,18,15,3,6,65,,74,66,7,11,2,2,0.3,0.3
2025-08-28T2200,1767A,121.1115,41.0879,锦州市,南山,,18,18,9,8,7,37,,89,61,13,6,6,4,0.6,0.6
2025-08-28T2200,1768A,121.0604,40.8428,锦州市,开发区,,28,28,12,14,8,47,,83,68,23,12,4,5,0.9,0.8
2025-08-28T2200,1769A,121.1836,41.1119,锦州市,百股街道,,13,13,9,3,3,27,,100,62,17,6,11,5,0.6,0.6
2025-08-28T2200,1770A,121.1178,41.1222,锦州市,天安街道,,22,22,9,14,10,45,,93,68,27,11,6,6,0.7,0.7
2025-08-28T2200,1771A,121.1303,41.1386,锦州市,北湖公园,,20,20,10,13,6,36,,88,58,13,5,5,4,0.7,0.6
2025-08-28T2200,2160A,112.85,35.5051,晋城市,自来水公司,,32,27,32,12,11,102,,102,99,15,13,2,4,0.4,0.5
2025-08-28T2200,2161A,112.8318,35.4936,晋城市,白云商贸,,37,37,28,9,8,102,,96,93,12,13,3,3,0.5,0.5
2025-08-28T2200,2162A,112.8508,35.4887,晋城市,市环保局,,29,27,24,12,10,91,,89,86,12,12,2,2,0.5,0.5
2025-08-28T2200,2163A,112.8676,35.4897,晋城市,技术学院,,29,29,23,7,7,88,,89,86,12,12,4,4,0.7,0.8
2025-08-28T2200,2165A,112.8453,35.546,晋城市,白马寺,,34,18,15,18,16,107,,100,100,6,4,7,7,0.6,0.6
2025-08-28T2200,3620A,112.8271,35.4828,晋城市,泽州一中,,34,20,21,9,6,106,,97,96,10,11,4,3,0.6,0.6
2025-08-28T2200,2173A,112.7249,37.7067,晋中市,南都小区,,38,38,37,24,24,42,,107,93,52,24,5,11,0.5,0.7
2025-08-28T2200,2174A,112.6991,37.6982,晋中市,榆次区政府,,36,36,34,19,20,65,,107,98,24,18,5,8,0.5,1
2025-08-28T2200,2865A,112.7195,37.6828,晋中市,榆次三中,,24,24,32,7,16,75,,114,106,16,17,6,12,0.5,0.9
2025-08-28T2200,4200A,112.7478,37.6954,晋中市,迎宾街26号,,36,36,33,17,14,61,,102,99,27,19,7,15,0.6,0.8
2025-08-28T2200,2439A,112.2014,31.0481,荆门市,竹园小学,,,,41,,23,,,135,124,13,10,4,3,0.7,0.5
2025-08-28T2200,2440A,112.1969,30.9891,荆门市,掇刀,颗粒物(PM10),53,55,42,26,28,104,,148,126,18,18,2,2,0.6,0.6
2025-08-28T2200,2441A,112.2213,31.0386,荆门市,石化一小,,,78,41,21,21,,,137,119,24,15,8,8,0.5,0.9
2025-08-28T2200,3012A,112.1849,31.0362,荆门市,西山林语,颗粒物(PM10),51,52,34,27,25,83,,137,120,13,9,2,2,0.4,0.4
2025-08-28T2200,3547A,112.1632,31.0138,荆门市,龙泉中学南校,,45,40,39,31,26,98,,141,129,11,11,4,4,0.7,0.7
2025-08-28T2200,1844A,112.2494,30.3197,荆州市,市图书馆,颗粒物(PM10),51,51,30,26,18,80,,140,125,15,13,5,4,0.6,0.6
2025-08-28T2200,1845A,112.2008,30.3544,荆州市,市委党校,,27,24,32,11,19,86,,139,123,17,13,7,5,0.4,0.5
2025-08-28T2200,3194A,112.2747,30.3122,荆州市,管委会,,41,41,29,24,21,61,,134,109,21,12,4,4,0.5,0.5
2025-08-28T2200,4268A,112.1722,30.3366,荆州市,学苑路85号,,40,31,32,28,27,39,,142,113,30,10,8,6,0.3,0.4
2025-08-28T2200,2342A,117.3102,29.3867,景德镇市,王港中学,,,,,,,,,,,,,,,,
2025-08-28T2200,2343A,117.2117,29.2933,景德镇市,老干部活动中心,,20,15,20,14,12,26,,67,52,21,12,7,8,0.7,0.6
2025-08-28T2200,2344A,117.1894,29.2789,景德镇市,兽医站,,28,28,26,13,13,27,,73,54,26,12,15,7,0.9,0.8
2025-08-28T2200,2346A,117.2461,29.2956,景德镇市,陶研所,,23,23,20,13,12,25,,66,49,13,10,6,6,0.5,0.6
2025-08-28T2200,4289A,117.1542,29.2566,景德镇市,青少年活动中心,,37,37,26,25,18,28,,81,46,28,24,34,20,0.5,0.6
2025-08-28T2200,1803A,115.9872,29.6815,九江市,十里,,49,,21,34,20,40,,119,76,36,20,4,5,0.5,0.5
2025-08-28T2200,1804A,115.9584,29.7046,九江市,茅山头,,30,30,23,6,14,43,,114,72,15,17,4,4,0.4,0.4
2025-08-28T2200,1805A,115.9877,29.7295,九江市,西园,,22,18,20,13,12,48,,118,79,43,35,5,9,0.5,0.6
2025-08-28T2200,1808A,115.9114,29.6038,九江市,综合工业园,,29,29,14,17,8,54,,93,78,19,27,6,6,0.7,0.6
2025-08-28T2200,1809A,116.0721,29.7535,九江市,石化总厂,,35,,19,24,21,58,,79,73,22,15,6,7,0.4,0.4
2025-08-28T2200,1810A,115.9773,29.5698,九江市,庐山气象台,,38,,8,26,6,90,,88,86,3,3,7,6,1.1,0.9
2025-08-28T2200,3190A,116.0254,29.6994,九江市,外国语学校,,26,,13,18,14,78,,90,74,8,12,2,6,0.4,0.6
2025-08-28T2200,4253A,116.0102,29.6594,九江市,莲花大道8号,,21,21,13,10,9,62,,89,72,4,6,5,5,0.5,0.4
2025-08-28T2200,4240A,98.4958,39.7339,酒泉市,玉门东路5号,,42,,27,29,20,111,,131,126,7,8,6,7,0.2,0.3
2025-08-28T2200,4241A,98.5099,39.7506,酒泉市,北大街108号,,34,,27,15,13,108,,126,120,5,8,7,9,0.2,0.3
2025-08-28T2200,2698A,76.0072,39.4467,喀什地区,巡警大队,颗粒物(PM10),85,119,212,62,82,82,,115,112,36,42,3,5,0.4,0.5
2025-08-28T2200,2699A,75.9755,39.4694,喀什地区,吾办,颗粒物(PM10),107,163,201,52,61,84,,119,115,26,36,6,7,0.4,0.4
2025-08-28T2200,4027A,75.9483,39.4689,喀什地区,老干局,颗粒物(PM10),78,106,129,32,35,86,,121,117,23,24,5,5,0.4,0.3
2025-08-28T2200,1824A,114.3389,34.7781,开封市,肿瘤医院,,36,36,33,20,16,110,,145,138,14,14,4,4,0.8,0.7
2025-08-28T2200,1826A,114.2885,34.7965,开封市,世纪星幼儿园,,40,32,32,28,18,110,,146,138,12,10,5,6,0.9,0.8
2025-08-28T2200,3147A,114.3438,34.8106,开封市,龙亭公园,,36,36,35,12,8,100,,143,136,13,11,5,6,1.0,0.9
2025-08-28T2200,3210A,114.3644,34.7964,开封市,汴京公园,,50,50,37,24,19,111,,154,146,11,9,4,5,0.7,0.6
2025-08-28T2200,3473A,114.2485,34.8306,开封市,技师学院,细颗粒物(PM2.5),57,,30,40,18,92,,137,126,15,10,6,6,1.0,0.9
2025-08-28T2200,3592A,114.4644,34.7556,开封市,祥符区生态环境局,,41,41,36,21,20,100,,133,127,16,17,4,4,0.8,0.7
2025-08-28T2200,1951A,84.895,45.6094,克拉玛依市,长征新村,,28,28,24,12,8,67,,102,98,25,6,4,3,0.5,0.3
2025-08-28T2200,1952A,84.8988,45.5893,克拉玛依市,南林小区,颗粒物(PM10),60,69,28,6,6,28,,100,85,46,11,6,7,0.2,0.1
2025-08-28T2200,1954A,84.905,44.3396,克拉玛依市,独山子区,,45,45,28,11,8,65,,102,99,35,15,8,10,0.5,0.3
2025-08-28T2200,1955A,85.6979,46.098,克拉玛依市,乌尔禾区商贸楼,,,,21,,8,59,,86,78,31,16,8,8,0.3,0.3
2025-08-28T2200,3612A,85.1045,45.6899,克拉玛依市,白碱滩区新站,颗粒物(PM10),56,61,43,24,13,81,,103,101,18,8,10,10,0.2,0.2
2025-08-28T2200,2697A,76.1454,39.7142,克孜勒苏柯尔克孜自治州,市人民政府,颗粒物(PM10),68,85,102,27,37,69,,123,116,46,14,4,9,0.3,0.1
2025-08-28T2200,3665A,76.1658,39.7157,克孜勒苏柯尔克孜自治州,克州文化中心,颗粒物(PM10),67,83,102,23,36,92,,120,117,23,12,6,10,0.3,0.2
2025-08-28T2200,1450A,102.8204,24.8886,昆明市,呈贡新区,,18,,2,12,13,55,,67,65,8,13,3,3,0.4,0.4
2025-08-28T2200,1451A,102.6251,24.9608,昆明市,西山森林公园,,,,,,,,,,,,,,,,
2025-08-28T2200,1452A,102.7252,25.0902,昆明市,龙泉镇,,32,32,17,8,7,39,,73,67,19,14,3,2,0.4,0.4
2025-08-28T2200,1453A,102.7266,25.0375,昆明市,东风东路,,26,26,19,9,10,27,,76,67,33,19,3,3,0.4,0.3
2025-08-28T2200,1454A,102.6742,25.0669,昆明市,金鼎山,,21,21,16,6,7,49,,72,68,11,12,1,2,0.3,0.3
2025-08-28T2200,1455A,102.6644,25.0401,昆明市,碧鸡广场,,26,26,16,7,6,40,,67,62,23,14,7,7,0.4,0.4
2025-08-28T2200,3179A,102.7494,25.0119,昆明市,官渡区博物馆,,21,21,15,7,9,24,,70,61,37,27,1,1,0.5,0.5
2025-08-28T2200,3375A,102.8017,24.8336,昆明市,青年创业园,,22,22,11,10,8,12,,68,58,38,10,1,6,0.5,0.4
2025-08-28T2200,3550A,102.7997,24.9786,昆明市,昆明学院,,16,16,14,10,8,44,,60,58,15,15,6,6,0.1,0.2
2025-08-28T2200,3551A,102.5967,24.6736,昆明市,晋宁区生态环境分局,,34,34,16,17,7,41,,71,67,18,11,4,3,0.4,0.3
2025-08-28T2200,3552A,102.6678,24.9856,昆明市,云天化总部,,,21,10,7,6,37,,71,67,,9,3,5,0.3,0.3
2025-08-28T2200,1456A,91.1319,29.6514,拉萨市,八廓街,,24,7,8,3,6,74,,89,84,17,10,5,6,0.3,0.2
2025-08-28T2200,1457A,91.1221,29.6747,拉萨市,市环保局,,23,,8,9,7,71,,85,80,14,9,7,7,0.3,0.3
2025-08-28T2200,1458A,91.0874,29.6475,拉萨市,区监测站,,24,6,7,6,6,75,,87,83,18,11,3,4,0.2,0.2
2025-08-28T2200,1459A,91.1774,29.6541,拉萨市,西藏大学,,23,9,8,8,6,72,,85,81,17,11,6,6,0.4,0.3
2025-08-28T2200,1460A,90.9798,29.6588,拉萨市,区辐射站,,19,7,8,6,6,52,,77,70,38,15,5,5,0.4,0.3
2025-08-28T2200,1461A,91.0834,29.6292,拉萨市,拉萨火车站,,24,6,7,3,6,74,,87,84,18,8,5,5,0.3,0.2
2025-08-28T2200,2520A,109.2203,23.7256,来宾市,来宾技工学校,颗粒物(PM10),55,60,38,33,23,37,,109,90,36,15,37,21,0.6,0.6
2025-08-28T2200,3535A,109.1781,23.7297,来宾市,兴宾区政府,,25,19,26,15,16,80,,112,99,9,12,7,12,0.8,0.8
2025-08-28T2200,4002A,109.2416,23.7461,来宾市,中南小学,颗粒物(PM10),51,52,32,33,19,36,,118,100,38,15,24,13,0.6,0.6
2025-08-28T2200,1477A,104.1373,35.9454,兰州市,榆中兰大校区,,,,,,,,,,,,,,,,
2025-08-28T2200,1479A,103.831,36.0464,兰州市,铁路设计院,,37,37,31,25,25,54,,65,59,41,37,12,9,0.9,0.6
2025-08-28T2200,3241A,103.7439,36.0842,兰州市,百合公园,,27,27,24,15,15,27,,81,65,49,21,2,3,0.5,0.4
2025-08-28T2200,3242A,103.9611,35.998,兰州市,和平,,18,16,15,12,11,57,,88,84,28,17,7,7,0.4,0.4
2025-08-28T2200,4236A,103.6293,36.0938,兰州市,庄浪东路808号,,41,41,32,24,19,14,,78,52,68,33,10,11,0.5,0.3
2025-08-28T2200,4237A,103.7251,36.1043,兰州市,安宁西路88号,,35,27,25,24,25,37,,100,85,43,15,2,3,0.4,0.3
2025-08-28T2200,4238A,103.8470,36.0676,兰州市,北滨河东路1号,,39,32,21,27,19,53,,84,79,38,31,12,8,0.8,0.4
2025-08-28T2200,3245A,103.6633,36.533,兰州新区,新区管委会,,30,30,25,19,16,92,,110,106,11,9,11,11,0.3,0.4
2025-08-28T2200,3246A,103.6975,36.4789,兰州新区,舟曲中学,,29,18,15,14,11,92,,111,105,11,9,14,8,0.4,0.4
2025-08-28T2200,1067A,116.6708,39.5111,廊坊市,药材公司,,29,29,15,10,5,54,,94,80,13,8,4,4,0.4,0.3
2025-08-28T2200,1068A,116.7214,39.5589,廊坊市,开发区,,27,27,14,12,6,32,,97,82,19,11,2,2,0.5,0.4
2025-08-28T2200,1070A,116.7244,39.5269,廊坊市,北华航天学院,,40,40,24,14,5,41,,101,89,24,7,4,4,0.6,0.4
2025-08-28T2200,2919A,116.7022,39.5453,廊坊市,河北工业大学,,22,20,27,14,6,70,,101,93,18,8,2,2,0.4,0.3
2025-08-28T2200,2535A,103.7723,29.5462,乐山市,花湖湾,,25,8,19,6,15,77,,70,70,7,10,7,5,0.2,0.3
2025-08-28T2200,2536A,103.7627,29.5844,乐山市,牛耳桥,,24,8,20,3,17,74,,77,69,7,10,5,5,0.4,0.5
2025-08-28T2200,2537A,103.7508,29.6006,乐山市,市第三水厂,,24,7,20,3,14,74,,72,68,8,11,3,4,0.4,0.5
2025-08-28T2200,2538A,103.7571,29.5664,乐山市,市监测站,,22,7,20,7,15,70,,68,64,5,9,5,6,0.6,0.7
2025-08-28T2200,3361A,103.7311,29.5628,乐山市,理工大学,,22,8,19,3,14,69,,67,63,6,9,7,7,0.6,0.6
2025-08-28T2200,2598A,100.2143,26.8576,丽江市,西南郊,,22,22,22,9,10,61,,69,64,10,12,6,7,0.5,0.5
2025-08-28T2200,2599A,100.2497,26.8802,丽江市,丽江古城,,20,19,24,8,11,64,,73,68,10,14,9,11,0.6,0.6
2025-08-28T2200,2600A,100.2203,26.8906,丽江市,市中心,,20,13,16,10,11,64,,70,66,11,14,10,10,0.5,0.4
2025-08-28T2200,1267A,119.914,28.4514,丽水市,监测站大楼,,12,7,12,7,6,36,,62,56,8,8,4,4,0.3,0.3
2025-08-28T2200,1268A,119.93,28.4586,丽水市,莲都小学,,15,15,15,3,6,40,,68,63,6,8,4,4,0.3,0.3
2025-08-28T2200,1269A,119.879,28.4231,丽水市,余庄前,,,15,11,8,6,,,65,64,6,7,6,5,0.2,0.2
2025-08-28T2200,1173A,119.176,34.5885,连云港市,市环境监测站,,39,39,28,17,14,110,,169,150,19,10,3,4,0.4,0.4
2025-08-28T2200,3000A,119.3581,34.6972,连云港市,德源药业,,36,34,28,22,13,114,,150,131,18,17,5,5,0.6,0.5
2025-08-28T2200,3007A,119.178,34.844,连云港市,新城一中,,38,36,30,26,19,44,,173,148,18,15,3,4,0.9,0.8
2025-08-28T2200,3008A,119.3608,34.7519,连云港市,胡沟管理处,,44,24,22,17,13,138,,166,154,10,11,11,12,0.7,0.8
2025-08-28T2200,3009A,119.1478,34.5911,连云港市,矿山设计院,,36,31,29,17,16,115,,159,148,13,10,11,12,0.8,0.8
2025-08-28T2200,3434A,119.2413,34.6539,连云港市,工贸学校,,40,37,33,21,16,127,,166,155,9,8,8,7,0.9,0.9
2025-08-28T2200,3664A,119.4172,34.7341,连云港市,连云街道,,46,34,27,19,17,146,,163,155,6,7,4,5,0.9,0.9
2025-08-28T2200,2571A,102.3431,27.8099,凉山彝族自治州,青龙寺,,22,22,16,7,7,41,,82,71,6,5,2,3,0.6,0.6
2025-08-28T2200,2572A,102.2721,27.8415,凉山彝族自治州,邛海宾馆,,22,22,21,13,12,57,,83,76,8,9,7,9,0.4,0.4
2025-08-28T2200,2573A,102.2625,27.898,凉山彝族自治州,西昌市政府,,19,18,20,12,13,58,,75,66,10,10,8,11,0.4,0.5
2025-08-28T2200,2574A,102.2685,27.8851,凉山彝族自治州,凉山州政府,,36,36,25,20,16,56,,78,69,7,8,10,11,0.6,0.7
2025-08-28T2200,4229A,102.2342,27.8859,凉山彝族自治州,凯乐南路30号,,,,24,,12,,,76,72,17,14,17,17,,0.9
2025-08-28T2200,2212A,123.2,41.1953,辽阳市,宏伟区,,19,15,16,13,7,42,,43,38,10,16,2,2,0.6,0.8
2025-08-28T2200,2213A,123.1683,41.2495,辽阳市,新华园,,23,21,18,16,9,49,,51,51,13,16,5,7,0.4,0.7
2025-08-28T2200,2214A,123.2354,41.2639,辽阳市,滨河路,,24,24,27,9,11,48,,45,45,8,16,4,5,0.5,0.8
2025-08-28T2200,2215A,123.149,41.2991,辽阳市,铁西工业园,,15,14,22,10,11,33,,41,38,16,18,2,2,0.7,0.9
2025-08-28T2200,2227A,125.1358,42.8845,辽源市,环保局,,26,26,26,3,3,57,,73,64,3,8,7,8,0.5,0.5
2025-08-28T2200,3239A,125.0764,42.9078,辽源市,银鹰制药,,14,14,13,9,7,35,,68,57,11,16,9,9,0.4,0.4
2025-08-28T2200,1625A,115.9848,36.4372,聊城市,区政府,,29,19,21,7,13,91,,120,115,18,12,11,10,0.7,0.7
2025-08-28T2200,2878A,116.0072,36.4343,聊城市,聊大东校,,28,22,22,11,14,87,,120,115,22,12,11,9,0.6,0.5
2025-08-28T2200,3200A,115.9819,36.4978,聊城市,监控中心,,22,18,20,7,10,68,,117,106,26,12,10,9,0.8,0.8
2025-08-28T2200,3513A,116.0445,36.4361,聊城市,九州社区,,27,26,27,18,15,85,,118,111,21,10,4,5,0.5,0.4
2025-08-28T2200,4018A,116.0567,36.4608,聊城市,星美广场,,26,23,24,9,13,82,,110,104,16,8,2,3,0.7,0.7
2025-08-28T2200,2632A,94.3681,29.6376,林芝市,林芝监测站,,13,11,5,9,5,23,,45,41,6,3,6,5,0.4,0.4
2025-08-28T2200,2633A,94.3616,29.6616,林芝市,林芝人民医院,,15,15,7,10,5,25,,47,42,4,3,7,7,0.6,0.6
2025-08-28T2200,2603A,100.0781,23.8982,临沧市,市环保局,,,19,12,,16,26,,36,32,8,8,4,6,0.3,0.3
2025-08-28T2200,2604A,100.0894,23.8822,临沧市,市气象局,,30,,15,21,11,24,,32,30,6,7,8,8,0.4,0.5
2025-08-28T2200,1733A,111.5531,36.0783,临汾市,临钢医院,,33,33,31,8,8,77,,106,100,20,17,7,7,0.6,0.6
2025-08-28T2200,1734A,111.5028,36.0714,临汾市,技工学校,,39,39,30,18,21,74,,96,90,13,10,6,6,0.5,0.5
2025-08-28T2200,1736A,111.5018,36.0855,临汾市,市委,,31,31,37,7,9,79,,102,97,15,12,4,4,0.7,0.7
2025-08-28T2200,3018A,111.505,36.1014,临汾市,唐尧大酒店,,40,40,39,8,9,72,,98,94,19,11,4,4,0.5,0.5
2025-08-28T2200,4244A,111.4879,36.0530,临汾市,启星学校,,34,34,26,16,21,74,,100,94,18,13,3,3,0.6,0.6
2025-08-28T2200,4271A,103.2464,35.6123,临夏回族自治州,滨河东路1号,,25,25,16,10,9,22,,77,57,25,9,5,6,0.4,0.3
2025-08-28T2200,4310A,103.2093,35.5995,临夏回族自治州,新华街21号,,28,21,14,19,11,62,,84,80,12,7,5,4,0.3,0.3
2025-08-28T2200,1618A,118.3429,35.0532,临沂市,沂河小区,"颗粒物(PM10),细颗粒物(PM2.5)",57,63,42,40,27,72,,144,112,29,20,10,11,0.6,0.5
2025-08-28T2200,1619A,118.295,35.0583,临沂市,鲁南制药厂,,50,41,40,35,26,106,,149,124,13,13,11,10,0.5,0.4
2025-08-28T2200,1620A,118.2794,34.9976,临沂市,新光毛纺厂,细颗粒物(PM2.5),64,61,43,46,29,79,,147,111,29,16,14,9,0.7,0.6
2025-08-28T2200,1621A,118.3956,35.0888,临沂市,河东保险公司,,44,44,36,18,19,79,,164,126,27,17,6,7,0.4,0.4
2025-08-28T2200,3370A,118.3564,35.0215,临沂市,十里堡居委,细颗粒物(PM2.5),58,58,36,41,33,83,,160,117,25,18,12,11,0.6,0.5
2025-08-28T2200,3496A,118.3604,35.1084,临沂市,南坊新区,,36,36,40,14,21,85,,156,122,28,19,9,9,0.5,0.6
2025-08-28T2200,3860A,118.3920,35.0300,临沂市,皇山花园小区,颗粒物(PM10),60,70,44,38,31,59,,161,117,40,21,10,10,0.6,0.6
2025-08-28T2200,1870A,109.4856,24.3895,柳州市,柳东小学,,33,24,24,23,13,83,,128,115,8,10,5,5,0.3,0.3
2025-08-28T2200,1871A,109.4157,24.3277,柳州市,环保监测站,,32,,24,22,13,68,,117,98,20,12,7,8,0.5,0.4
2025-08-28T2200,1872A,109.389,24.341,柳州市,河西水厂,,,28,37,28,19,76,,127,109,,17,5,6,1.1,0.6
2025-08-28T2200,1873A,109.4311,24.2921,柳州市,市四中,,28,28,28,17,16,70,,116,97,16,13,7,8,0.5,0.4
2025-08-28T2200,1874A,109.4006,24.3631,柳州市,市九中,,,,35,,18,,,85,,,11,,5,,0.4
2025-08-28T2200,1875A,109.4958,24.3134,柳州市,古亭山,,25,25,27,13,13,42,,113,83,21,14,5,6,0.5,0.5
2025-08-28T2200,3402A,109.5422,24.3996,柳州市,市二中,,22,15,28,12,15,69,,129,106,17,14,5,6,0.6,0.6
2025-08-28T2200,2307A,116.5079,31.737,六安市,监测大楼,,35,35,22,21,14,84,,110,104,8,7,4,4,0.4,0.4
2025-08-28T2200,2308A,116.4738,31.7643,六安市,皖西学院,,43,43,27,19,14,100,,120,112,4,6,3,3,0.3,0.3
2025-08-28T2200,2309A,116.4996,31.7905,六安市,朝阳厂,,39,39,21,21,15,76,,105,93,21,12,6,5,0.4,0.4
2025-08-28T2200,2310A,116.5567,31.7886,六安市,开发区,细颗粒物(PM2.5),62,60,24,44,21,50,,111,84,14,13,2,3,0.5,0.5
2025-08-28T2200,2576A,104.8,26.5892,六盘水市,窑上,,12,8,16,3,3,37,,68,63,4,4,4,5,0.2,0.2
2025-08-28T2200,2577A,104.83,26.5917,六盘水市,黄土坡,,21,17,12,7,7,65,,72,71,6,8,3,7,0.2,0.3
2025-08-28T2200,2578A,104.89,26.5939,六盘水市,水钢,,39,37,24,27,12,59,,73,72,8,5,5,4,0.2,0.2
2025-08-28T2200,2579A,104.8475,26.5894,六盘水市,民中,,20,12,10,7,4,64,,72,71,6,6,2,2,0.3,0.2
2025-08-28T2200,2580A,104.9544,26.5506,六盘水市,双水,,18,14,15,3,6,56,,70,69,8,6,3,3,0.1,0.1
2025-08-28T2200,2335A,117.0189,25.1181,龙岩市,龙岩师专,,,,,,,,,,,,,,,,
2025-08-28T2200,2336A,117.0217,25.1033,龙岩市,龙岩市监测站,,25,18,18,17,10,3,,52,25,25,14,6,7,0.8,0.6
2025-08-28T2200,2337A,117.0258,25.0661,龙岩市,闽西职业技术学院,,24,24,24,9,11,0,,56,22,20,12,18,15,0.5,0.5
2025-08-28T2200,2338A,117.0196,25.0306,龙岩市,龙岩学院,,14,14,18,8,8,4,,62,25,16,10,8,8,0.6,0.5
2025-08-28T2200,2665A,105.0822,33.3261,陇南市,汉王镇固水子,,,,,,,,,,,,,,,,
2025-08-28T2200,2885A,104.9339,33.3826,陇南市,滨江中学,,,,15,,11,,,80,79,6,7,8,8,,0.8
2025-08-28T2200,3247A,104.955,33.371,陇南市,市总工会,,28,28,25,6,6,78,,88,86,4,7,5,5,0.8,0.8
2025-08-28T2200,2487A,111.9589,27.8901,娄底市,电视发射台,,26,26,35,12,19,53,,116,87,6,8,5,6,0.2,0.5
2025-08-28T2200,2488A,111.9975,27.725,娄底市,市监测站,,45,,33,31,23,76,,107,94,10,9,7,10,0.5,0.5
2025-08-28T2200,2489A,112.0194,27.7314,娄底市,市委党校,,45,38,31,31,26,68,,94,85,8,8,1,3,0.5,0.4
2025-08-28T2200,2490A,111.9561,27.7569,娄底市,涟钢,,37,37,45,19,29,60,,94,74,18,23,11,18,0.7,1.4
2025-08-28T2200,2491A,111.9892,27.7044,娄底市,市政府,细颗粒物(PM2.5),54,,36,38,29,77,,102,90,5,7,7,8,0.6,0.6
2025-08-28T2200,1893A,105.4324,28.9634,泸州市,九狮山,细颗粒物(PM2.5),65,,39,47,34,76,,130,119,8,13,6,8,0.3,0.3
2025-08-28T2200,1894A,105.4427,28.9063,泸州市,小市上码头,,39,39,34,26,22,53,,109,96,8,12,4,5,0.4,0.4
2025-08-28T2200,1895A,105.4241,28.8573,泸州市,兰田宪桥,,44,44,51,26,32,73,,122,113,8,17,8,8,0.4,0.4
2025-08-28T2200,1896A,105.4379,28.8833,泸州市,市环监站,,40,40,38,26,27,71,,115,108,11,17,9,10,0.4,0.3
2025-08-28T2200,4272A,105.3689,28.7783,泸州市,纳溪中医医院,,40,40,47,28,33,76,,118,107,12,25,3,4,0.5,0.6
2025-08-28T2200,2183A,111.1406,37.5211,吕梁市,环保局,颗粒物(PM10),54,57,34,23,21,6,,60,48,61,41,2,5,0.7,0.7
2025-08-28T2200,2185A,111.1297,37.5136,吕梁市,自来水公司,,45,45,31,22,20,21,,51,42,32,35,2,3,0.6,0.7
2025-08-28T2200,2867A,111.1283,37.51,吕梁市,马茂庄小学,颗粒物(PM10),56,61,42,21,22,20,,61,50,37,44,2,3,0.6,0.6
2025-08-28T2200,1812A,112.3931,34.6516,洛阳市,市委党校,,29,29,30,17,17,77,,100,96,10,10,7,7,0.5,0.5
2025-08-28T2200,1815A,112.494,34.6886,洛阳市,河南林校,,38,38,39,24,20,82,,110,105,19,17,8,9,0.6,0.6
2025-08-28T2200,1816A,112.3844,34.623,洛阳市,开发区管委会,,28,28,23,18,15,74,,101,97,10,6,4,5,0.5,0.5
2025-08-28T2200,1817A,112.4267,34.6258,洛阳市,市委新办公区,,29,29,24,19,20,74,,101,97,11,8,8,9,0.4,0.5
2025-08-28T2200,3340A,112.6005,34.6326,洛阳市,伊滨,,29,29,34,14,19,85,,114,107,15,16,8,9,0.4,0.5
2025-08-28T2200,3341A,112.4951,34.6332,洛阳市,中移产业园,,28,28,29,17,19,76,,104,99,14,14,9,9,0.5,0.6
2025-08-28T2200,3593A,112.5736,34.8993,洛阳市,吉利监测站,,34,34,29,21,17,93,,100,99,5,5,4,5,0.8,0.8
2025-08-28T2200,3635A,112.3677,34.662,洛阳市,河科大西苑校区,,31,31,28,14,15,77,,102,98,15,13,9,9,0.5,0.6
2025-08-28T2200,3636A,112.4388,34.6781,洛阳市,英才小学,,33,29,36,23,22,75,,107,102,16,14,9,10,0.7,0.7
2025-08-28T2200,4214A,112.4600,34.6949,洛阳市,春都路1号院,,31,31,32,17,14,77,,103,99,12,12,9,10,0.8,0.8
2025-08-28T2200,2399A,114.051,33.5699,漯河市,三五一五工厂,,31,14,33,11,22,97,,126,115,10,12,5,6,0.3,0.7
2025-08-28T2200,2400A,114.0055,33.5698,漯河市,漯河大学,,32,6,34,3,18,101,,135,128,8,12,5,5,0.4,0.6
2025-08-28T2200,2401A,114.0138,33.5828,漯河市,市水利局,,30,9,35,9,21,95,,131,120,8,10,4,5,0.4,0.5
2025-08-28T2200,2402A,114.0261,33.5698,漯河市,市广电局,,33,,32,19,24,103,,141,129,6,10,2,3,0.6,0.6
2025-08-28T2200,3478A,113.9749,33.5664,漯河市,市图书馆,,28,,38,7,21,88,,131,121,10,11,4,6,0.3,0.4
2025-08-28T2200,4250A,114.0892,33.5882,漯河市,韶山路11号,,32,16,39,3,23,100,,136,120,8,14,3,3,0.5,0.6
2025-08-28T2200,1798A,118.5092,31.6837,马鞍山市,湖东路四小,,40,36,36,21,18,125,,147,117,18,12,13,8,0.5,0.5
2025-08-28T2200,1799A,118.5024,31.6449,马鞍山市,开发区,颗粒物(PM10),51,51,37,21,19,95,,146,114,31,19,16,10,0.8,0.6
2025-08-28T2200,1802A,118.6245,31.7241,马鞍山市,濮塘,,44,23,28,18,19,140,,126,112,10,10,8,10,0.7,0.7
2025-08-28T2200,3633A,118.4918,31.6809,马鞍山市,雨山,,43,43,32,20,19,124,,142,121,19,14,14,8,0.5,0.6
2025-08-28T2200,4191A,118.5274,31.72227,马鞍山市,慈湖高新区,,39,39,32,17,18,101,,144,108,33,20,8,10,0.3,0.4
2025-08-28T2200,1686A,111.0286,21.4688,茂名市,电白南海,,,22,29,,18,33,,62,43,10,9,5,6,0.1,0.5
2025-08-28T2200,1687A,110.9294,21.6533,茂名市,茂石化七小,,18,,22,12,13,31,,62,,12,10,24,10,0.9,0.5
2025-08-28T2200,1688A,110.9107,21.6687,茂名市,健康路,,20,,21,14,14,36,,62,44,8,12,13,13,0.5,0.5
2025-08-28T2200,1689A,110.8592,21.6828,茂名市,高岭,,22,22,36,7,12,25,,65,37,13,18,16,16,0.5,0.8
2025-08-28T2200,3450A,111.01,21.5165,茂名市,电白水东,,17,17,17,9,9,35,,62,46,10,10,6,7,0.6,0.6
2025-08-28T2200,2539A,104.0308,30.0478,眉山市,黑龙滩水库,,21,11,15,3,11,65,,65,62,5,9,2,3,0.3,0.4
2025-08-28T2200,2540A,103.8416,30.0874,眉山市,气象局,,25,22,30,3,8,77,,78,78,6,11,6,3,0.1,0
2025-08-28T2200,3137A,103.8578,30.0744,眉山市,市委党校,,22,6,16,3,7,68,,74,71,8,12,6,8,0.3,0.5
2025-08-28T2200,3148A,103.8291,30.0564,眉山市,区人社局,,30,30,29,3,5,72,,77,71,11,13,9,11,0.6,0.7
2025-08-28T2200,1690A,116.1231,24.3284,梅州市,梅江月梅,,18,16,21,12,12,4,,71,44,25,14,9,9,0.5,0.5
2025-08-28T2200,1691A,116.0797,24.2719,梅州市,梅县新城,,,8,23,7,15,,,78,60,18,12,7,8,0.4,0.6
2025-08-28T2200,1692A,116.1248,24.2654,梅州市,环境监控中心,,32,,15,22,16,15,,47,39,18,14,4,7,0.7,0.6
2025-08-28T2200,3315A,116.1233,24.2991,梅州市,梅龙,,14,14,16,8,11,9,,69,45,18,8,8,8,0.7,0.6
2025-08-28T2200,1878A,104.7778,31.4741,绵阳市,富乐山,,30,6,18,3,8,94,,82,82,5,7,8,8,0.4,0.4
2025-08-28T2200,1880A,104.6697,31.4668,绵阳市,高新区自来水公司,,20,9,16,3,5,62,,69,67,15,13,7,7,0.4,0.4
2025-08-28T2200,1881A,104.7287,31.5075,绵阳市,三水厂,,28,13,19,3,8,87,,70,70,5,12,8,9,0.3,0.4
2025-08-28T2200,3491A,104.69,31.5322,绵阳市,西科大附属小学,,20,9,18,3,8,61,,69,68,20,16,8,8,0.5,0.6
2025-08-28T2200,3492A,104.5648,31.5343,绵阳市,安州区旅游局,,21,21,21,3,6,56,,60,59,13,11,6,7,0.4,0.4
2025-08-28T2200,4226A,104.7651,31.4531,绵阳市,绵阳市气象局,,30,6,14,3,8,93,,79,77,3,7,7,7,0.2,0.3
2025-08-28T2200,1784A,129.61,44.561,牡丹江市,环保大楼,,13,8,13,8,7,41,,27,27,5,11,3,4,0.2,0.3
2025-08-28T2200,1785A,129.6115,44.5782,牡丹江市,文化广场,,18,,20,12,17,37,,21,21,12,19,6,7,0.5,0.5
2025-08-28T2200,1786A,129.5904,44.5963,牡丹江市,第一医院,,19,15,20,13,12,34,,24,24,13,17,8,8,0.2,0.2
2025-08-28T2200,1787A,129.6364,44.6075,牡丹江市,机车工厂,,36,27,25,25,13,28,,19,19,12,15,7,7,0.3,0.4
2025-08-28T2200,1788A,129.6386,44.5462,牡丹江市,第一中学,,16,15,21,11,11,30,,23,23,13,16,6,6,0.3,0.2
2025-08-28T2200,2531A,105.0703,29.61,内江市,市监测站,,36,36,22,20,21,71,,123,107,11,12,1,3,0.5,0.6
2025-08-28T2200,2532A,105.0717,29.5947,内江市,东兴区政府,,28,28,24,10,18,69,,125,106,13,14,7,8,0.8,0.8
2025-08-28T2200,2533A,105.0653,29.5817,内江市,内江二中,,50,50,38,16,26,66,,126,105,14,15,3,4,0.6,0.6
2025-08-28T2200,2534A,105.0406,29.5822,内江市,内江日报社,,34,34,33,16,27,69,,133,111,12,16,5,6,0.4,0.5
2025-08-28T2200,2628A,92.0657,31.4846,那曲市,那曲监测站,颗粒物(PM10),52,53,19,26,8,62,,108,101,33,14,7,4,0.6,0.5
2025-08-28T2200,4243A,92.0515,31.4787,那曲市,那曲市委宣传部,,30,17,10,9,5,95,,118,116,7,6,4,4,0.3,0.4
2025-08-28T2200,1290A,115.8931,28.6843,南昌市,省外办,,28,21,22,19,18,76,,83,81,3,11,5,7,0.6,0.6
2025-08-28T2200,1291A,115.8886,28.7003,南昌市,省林业公司,,34,34,28,22,14,59,,89,81,11,19,3,5,0.6,0.5
2025-08-28T2200,1292A,115.8126,28.7442,南昌市,林科所,,20,19,14,7,7,62,,92,80,11,9,3,3,0.3,0.3
2025-08-28T2200,1294A,115.8518,28.687,南昌市,建工学校,细颗粒物(PM2.5),138,,30,105,41,74,,85,80,12,26,7,8,0.6,0.6
2025-08-28T2200,1295A,115.8921,28.6424,南昌市,象湖,,25,14,16,14,9,78,,84,82,11,14,8,10,0.5,0.5
2025-08-28T2200,1296A,115.7423,28.7996,南昌市,武术学校,,19,15,14,13,12,30,,86,65,10,9,8,9,0.5,0.5
2025-08-28T2200,3046A,115.9084,28.6062,南昌市,机电学校,,33,33,26,17,13,62,,85,81,18,16,7,8,0.7,0.5
2025-08-28T2200,3690A,115.9721,28.7031,南昌市,外国语学校,,24,24,27,16,13,72,,86,83,10,14,6,9,0.4,0.5
2025-08-28T2200,4192A,115.9316,28.68677,南昌市,南京东路235号,,24,22,25,13,11,76,,80,79,10,15,8,8,0.6,0.7
2025-08-28T2200,1905A,106.056,30.8064,南充市,西山风景区,,,,,,,,,,,,,,,,
2025-08-28T2200,1906A,106.0789,30.8023,南充市,南充市委,,20,17,30,12,19,64,,89,80,9,15,4,5,0.3,0.4
2025-08-28T2200,1907A,106.1031,30.8217,南充市,南充炼油厂,,23,22,38,16,22,67,,89,80,6,8,5,6,0.2,0.2
2025-08-28T2200,4227A,106.1083,30.7884,南充市,梨树横街98号,,24,19,26,11,24,75,,104,92,9,10,4,5,0.2,0.3
2025-08-28T2200,4304A,106.1172,30.843,南充市,清泉寺北路188号,,23,22,34,14,20,72,,96,87,7,8,5,5,0.4,0.4
2025-08-28T2200,4305A,106.067,30.7616,南充市,同庆路1号,,23,21,32,7,20,72,,96,85,8,14,5,5,0.3,0.4
2025-08-28T2200,1151A,118.8086,32.1065,南京市,迈皋桥,,27,23,22,17,16,86,,114,87,19,22,4,4,0.6,0.7
2025-08-28T2200,1152A,118.7538,32.0551,南京市,草场门,,39,34,33,14,18,122,,166,144,18,17,4,4,0.6,0.7
2025-08-28T2200,1153A,118.7794,32.0745,南京市,山西路,,44,24,35,12,11,139,,164,146,18,20,3,4,0.4,0.5
2025-08-28T2200,1154A,118.7752,32.0023,南京市,中华门,,40,24,24,14,12,125,,126,117,11,11,4,4,0.6,0.7
2025-08-28T2200,1155A,118.8109,32.0309,南京市,瑞金路,,40,27,25,14,13,125,,134,121,14,12,7,6,0.7,0.7
2025-08-28T2200,1156A,118.7997,32.0754,南京市,玄武湖,,40,26,30,8,8,125,,146,130,11,11,4,4,0.4,0.5
2025-08-28T2200,1157A,118.6414,32.0931,南京市,浦口,,43,43,34,22,15,63,,150,110,29,19,6,7,0.5,0.6
2025-08-28T2200,1158A,118.7356,31.9996,南京市,奥体中心,,,30,31,14,16,130,,160,147,,15,5,8,0.3,0.4
2025-08-28T2200,1159A,118.9125,32.1028,南京市,仙林大学城,,39,34,33,12,9,124,,148,132,11,11,9,9,0.6,0.6
2025-08-28T2200,3422A,118.8436,31.9198,南京市,江宁彩虹桥,,41,40,31,17,16,130,,144,132,15,13,4,4,0.4,0.5
2025-08-28T2200,3427A,118.8554,32.3578,南京市,六合雄州,,,62,35,11,16,,,156,111,26,21,6,6,,0.9
2025-08-28T2200,4249A,118.8708,31.3402,南京市,汶溪路181号,,43,20,25,18,16,135,,142,142,13,12,6,6,0.5,0.5
2025-08-28T2200,4312A,119.019,31.6512,南京市,中山西路1号,,32,29,22,17,14,102,,126,126,22,17,4,4,0.6,0.6
2025-08-28T2200,1401A,108.3103,22.7881,南宁市,二十一中,,30,30,27,15,14,57,,85,81,18,15,5,6,0.5,0.5
2025-08-28T2200,1402A,108.3141,22.8528,南宁市,北湖,,33,33,32,22,21,41,,95,85,31,20,4,6,0.5,0.4
2025-08-28T2200,1403A,108.3206,22.8225,南宁市,市监测站,,31,31,28,14,15,45,,89,82,25,16,4,5,0.5,0.5
2025-08-28T2200,1404A,108.3829,22.8037,南宁市,大自然花园,,32,32,28,19,15,50,,84,81,19,11,5,5,0.5,0.5
2025-08-28T2200,1405A,108.4394,22.7904,南宁市,仙葫,,21,21,22,10,12,58,,76,76,13,14,7,5,0.4,0.5
2025-08-28T2200,1406A,108.2397,22.8467,南宁市,区农职院,,29,21,32,20,23,43,,89,85,21,20,6,10,0.4,0.5
2025-08-28T2200,1407A,108.3275,22.735,南宁市,英华嘉园,,25,25,29,16,17,63,,82,81,14,16,2,4,0.4,0.4
2025-08-28T2200,3401A,108.4834,22.7618,南宁市,红星社区,,38,38,28,17,14,47,,41,,18,16,3,3,0.9,0.5
2025-08-28T2200,4221A,108.2177,22.7774,南宁市,乐贤路16号,,33,33,33,21,16,31,,91,85,34,22,4,4,0.6,0.5
2025-08-28T2200,2331A,118.0966,26.6761,南平市,茫荡山,,,,9,,5,,,33,,,,,2,,
2025-08-28T2200,2332A,118.1681,26.6369,南平市,南平市监测站,,12,8,11,3,7,37,,59,52,5,6,4,5,0.4,0.5
2025-08-28T2200,2333A,118.1825,26.6489,南平市,南平铝业有限公司,,13,9,10,3,7,40,,62,56,2,8,4,5,0.5,0.5
2025-08-28T2200,2334A,118.1756,26.6272,南平市,南平七中,,,,16,3,7,36,,58,52,4,5,4,5,0.6,0.6
2025-08-28T2200,1168A,120.9098,31.9663,南通市,狼山街道,,21,21,16,3,6,28,,121,101,33,23,4,5,0.5,0.4
2025-08-28T2200,1169A,120.86,32.0005,南通市,虹桥,,23,23,15,10,8,42,,132,110,34,24,3,4,0.7,0.6
2025-08-28T2200,1170A,120.87,32.02,南通市,城中,,26,26,22,3,6,38,,115,97,30,21,5,6,0.5,0.5
2025-08-28T2200,1171A,120.94,31.93,南通市,星湖花园,,16,15,13,8,6,31,,120,99,32,21,4,5,0.4,0.2
2025-08-28T2200,1172A,120.81,32.0417,南通市,紫琅学院,,,24,16,6,4,,,128,117,30,24,5,5,0.6,0.5
2025-08-28T2200,3291A,121.067,32.062,南通市,通州监测站,,16,12,13,3,5,51,,133,114,13,13,1,3,0.5,0.5
2025-08-28T2200,3432A,120.9348,31.9883,南通市,环境教育馆,,,22,21,8,4,,,131,131,28,19,4,6,0.2,0.2
2025-08-28T2200,2404A,112.5224,33.0122,南阳市,瓦房庄,,31,31,39,7,16,73,,137,106,5,9,6,6,0.5,0.5
2025-08-28T2200,2405A,112.5003,32.9735,南阳市,汉画馆,,24,24,36,8,16,72,,135,105,7,13,8,8,0.5,0.5
2025-08-28T2200,2406A,112.5573,33.027,南阳市,气象站,,25,17,33,12,13,80,,143,111,8,12,7,8,0.4,0.4
2025-08-28T2200,2407A,112.5481,32.9689,南阳市,理工学院,,25,23,36,6,11,77,,141,112,6,10,8,8,0.5,0.5
2025-08-28T2200,4008A,112.5234,32.9922,南阳市,卧龙区政府,,28,28,37,11,17,69,,137,106,9,13,6,6,0.6,0.6
2025-08-28T2200,1234A,121.8358,29.911,宁波市,区环保大楼,,14,8,15,6,6,43,,54,44,8,8,5,4,0.3,0.3
2025-08-28T2200,1235A,121.56,29.82,宁波市,万里学院,,15,10,12,10,8,21,,59,37,12,8,6,7,0.4,0.4
2025-08-28T2200,1236A,121.713,29.9572,宁波市,龙赛医院,,16,16,15,6,6,30,,60,45,9,7,4,4,0.2,0.3
2025-08-28T2200,1239A,121.633,29.7733,宁波市,钱湖水厂,,12,12,7,3,3,28,,54,38,8,7,5,5,0.4,0.4
2025-08-28T2200,1240A,121.5856,29.8635,宁波市,太古小学,,13,13,12,3,5,28,,60,39,6,5,2,3,0.3,0.3
2025-08-28T2200,1241A,121.524,29.8674,宁波市,市环境监测中心,,15,15,11,8,4,22,,51,34,9,8,8,8,0.5,0.5
2025-08-28T2200,2871A,121.6147,29.9017,宁波市,万里国际学校,,11,10,9,3,6,34,,65,45,4,4,4,4,0.4,0.4
2025-08-28T2200,3710A,121.5594,29.8975,宁波市,白沙活动中心,,11,11,9,3,3,26,,61,40,10,8,5,6,0.3,0.3
2025-08-28T2200,2339A,119.5001,26.6946,宁德市,金涵水库,,,,18,,6,,,21,,,2,,1,,0.4
2025-08-28T2200,2341A,119.5388,26.6612,宁德市,宁德市监测站,,13,11,13,7,6,39,,48,42,2,3,3,3,0.3,0.3
2025-08-28T2200,3209A,119.5231,26.6562,宁德市,宁德一中,,20,,13,14,8,41,,50,44,4,6,4,4,0.2,0.2
2025-08-28T2200,2618A,98.8601,25.8567,怒江傈僳族自治州,州监测站,,30,30,24,16,12,26,,66,59,16,8,5,6,0.5,0.4
2025-08-28T2200,2619A,98.8546,25.8417,怒江傈僳族自治州,泸水一中,,8,8,19,3,12,17,,54,44,16,10,4,4,0.6,0.5
2025-08-28T2200,1888A,101.6891,26.571,攀枝花市,弄弄坪,,48,48,50,15,19,39,,87,78,25,23,5,8,0.8,1.1
2025-08-28T2200,1889A,101.5769,26.5928,攀枝花市,河门口,,24,24,37,12,18,50,,86,79,8,17,7,14,0.6,1.1
2025-08-28T2200,1890A,101.7169,26.585,攀枝花市,炳草岗,,50,50,44,18,20,40,,89,80,24,23,8,9,0.7,0.7
2025-08-28T2200,1891A,101.7369,26.5008,攀枝花市,仁和,,36,36,24,22,14,33,,71,60,12,11,7,8,0.7,0.7
2025-08-28T2200,2835A,101.7227,26.567,攀枝花市,四十中小,,28,28,41,15,22,40,,90,80,24,20,9,15,0.8,0.9
2025-08-28T2200,1604A,122.0303,41.1489,盘锦市,开发区,,26,,10,18,10,42,,79,68,19,10,6,6,0.6,0.6
2025-08-28T2200,1605A,122.0485,41.0883,盘锦市,兴隆台,,16,16,11,8,9,48,,75,69,21,12,6,6,0.4,0.4
2025-08-28T2200,1606A,121.8297,41.1028,盘锦市,新生街道,,10,6,10,3,7,18,,74,50,20,12,4,4,0.5,0.5
2025-08-28T2200,1832A,113.3257,33.742,平顶山市,新华旅馆,,47,47,39,14,18,90,,124,115,10,11,6,6,0.5,0.5
2025-08-28T2200,1833A,113.2919,33.737,平顶山市,规划设计院,,37,37,33,17,18,88,,119,110,8,12,5,6,0.7,0.8
2025-08-28T2200,1834A,113.182,33.774,平顶山市,平顶山工学院,,28,26,27,14,14,89,,122,110,12,11,6,7,0.5,0.6
2025-08-28T2200,3204A,113.3025,33.73,平顶山市,规划局,,36,36,36,18,14,89,,121,112,11,12,6,6,0.5,0.5
2025-08-28T2200,3594A,112.8867,33.9116,平顶山市,石龙区,,30,29,36,17,18,96,,105,100,10,14,4,5,0.5,0.6
2025-08-28T2200,2656A,106.6692,35.5461,平凉市,聚贤嘉苑,,33,33,28,22,14,83,,88,84,17,19,5,6,0.4,0.5
2025-08-28T2200,2657A,106.7021,35.5307,平凉市,博物馆,,30,30,31,12,11,84,,88,86,16,16,9,9,0.4,0.5
2025-08-28T2200,2347A,114.0997,27.5002,萍乡市,武功山,,9,9,6,3,4,13,,48,35,4,4,9,9,0.6,0.6
2025-08-28T2200,2348A,113.8385,27.6434,萍乡市,中医院,,29,29,31,10,17,19,,107,50,24,21,14,19,1.3,1.3
2025-08-28T2200,2349A,113.8493,27.6253,萍乡市,市政府车库,,21,21,24,14,20,10,,88,41,20,15,11,16,1.4,1.1
2025-08-28T2200,2350A,113.8676,27.6435,萍乡市,市环保局,,23,20,33,16,20,15,,102,45,15,20,8,15,1.3,1.3
2025-08-28T2200,2351A,113.866,27.6198,萍乡市,安源区政府,,,21,26,11,20,,,88,51,15,11,14,18,0.7,1
2025-08-28T2200,2319A,119.0141,25.4325,莆田市,荔城区仓后路,,26,26,17,3,2,32,,48,40,6,4,6,6,0.5,0.5
2025-08-28T2200,2320A,119.0015,25.4553,莆田市,莆田市监测站,,13,6,12,3,1,39,,48,44,5,5,4,5,0.3,0.4
2025-08-28T2200,2321A,119.1119,25.4561,莆田市,涵江区六中,,13,13,12,3,2,39,,50,45,5,5,4,4,0.3,0.3
2025-08-28T2200,2322A,119.1013,25.3215,莆田市,秀屿区政府,,12,12,19,3,5,35,,52,45,7,8,3,5,0.3,0.3
2025-08-28T2200,2323A,118.981,25.4792,莆田市,东圳水库,,,,11,,3,,,46,,,4,,4,,0.6
2025-08-28T2200,2392A,115.0312,35.7636,濮阳市,环保局,,30,21,27,21,18,71,,129,116,14,8,3,5,1.0,0.7
2025-08-28T2200,2394A,115.0574,35.7609,濮阳市,油田运输公司,,34,34,33,19,19,71,,131,118,15,8,2,3,0.9,0.8
2025-08-28T2200,3021A,115,35.7668,濮阳市,濮水河管理处,,,22,28,19,14,,,111,108,14,11,2,3,0.4,0.4
2025-08-28T2200,4216A,115.0924,35.7686,濮阳市,任丘路479号,,32,32,39,13,19,77,,124,112,14,8,4,3,0.8,0.8
2025-08-28T2200,2601A,100.98,22.7633,普洱市,市环保局,,38,,20,26,16,24,,36,29,4,4,6,6,0.5,0.5
2025-08-28T2200,2602A,100.9817,22.8322,普洱市,普洱第二中学,,22,22,20,10,10,12,,36,29,12,9,6,6,0.4,0.5
2025-08-28T2200,2262A,131.0518,45.8751,七台河市,新一中,,12,10,21,3,10,37,,57,44,14,17,11,10,0.7,0.8
2025-08-28T2200,3345A,131.0577,45.7879,七台河市,中波台,,13,,22,9,9,36,,40,35,11,19,8,8,0.4,0.4
2025-08-28T2200,3637A,131.0176,45.7761,七台河市,人民广场,,16,16,28,3,9,45,,50,45,8,15,11,11,0.5,0.6
2025-08-28T2200,3684A,130.8781,45.8222,七台河市,新建矿广场,,11,7,28,7,9,35,,35,32,8,17,8,11,0.4,0.6
2025-08-28T2200,1779A,123.9305,47.3636,齐齐哈尔市,安居小区,,30,30,29,8,8,47,,79,67,16,12,13,14,0.5,0.5
2025-08-28T2200,1780A,123.9488,47.3386,齐齐哈尔市,中心广场,,23,23,20,3,3,58,,87,76,11,11,6,6,0.4,0.4
2025-08-28T2200,1781A,123.9483,47.3227,齐齐哈尔市,农牧车辆厂,,31,31,25,13,7,48,,82,70,11,9,6,6,0.4,0.4
2025-08-28T2200,1783A,123.945,47.2988,齐齐哈尔市,市环境监测站,,18,18,14,11,4,48,,84,73,10,7,6,6,0.5,0.4
2025-08-28T2200,3662A,123.6333,47.2075,齐齐哈尔市,富区青少年活动中心,,32,32,21,19,10,24,,76,57,26,8,6,6,0.7,0.6
2025-08-28T2200,2591A,107.9783,26.5747,黔东南苗族侗族自治州,市环境监测站,,,17,15,,,26,,61,53,18,7,2,2,0.5,0.4
2025-08-28T2200,2881A,107.8908,26.5311,黔东南苗族侗族自治州,凯里学院,,17,17,13,10,9,29,,68,59,18,10,3,3,0.5,0.4
2025-08-28T2200,2593A,107.5228,26.2403,黔南布依族苗族自治州,小围寨,,14,14,9,7,4,35,,57,54,6,4,2,2,0.3,0.2
2025-08-28T2200,3538A,107.5175,26.2978,黔南布依族苗族自治州,沙坝,,36,36,15,9,1,23,,59,54,16,6,3,4,0.7,0.4
2025-08-28T2200,2589A,104.9022,25.0925,黔西南布依族苗族自治州,场坝街,,20,,16,14,9,34,,52,50,13,7,5,4,0.4,0.3
2025-08-28T2200,2590A,104.8811,25.0992,黔西南布依族苗族自治州,坪东大道,,25,22,16,17,9,10,,50,45,27,7,4,4,0.7,0.5
2025-08-28T2200,2502A,108.6236,21.9667,钦州市,市环保站,,31,31,24,12,10,63,,92,84,16,14,3,3,0.5,0.5
2025-08-28T2200,2503A,108.6549,21.9481,钦州市,沙埠小学,,20,14,25,12,12,64,,91,85,13,12,3,2,0.4,0.5
2025-08-28T2200,2504A,108.5989,21.7431,钦州市,港区一小,,20,15,35,13,14,42,,93,82,39,21,3,4,0.4,0.5
2025-08-28T2200,3404A,108.5959,21.9633,钦州市,北职校,,28,28,28,16,13,51,,90,82,22,12,2,2,0.5,0.5
2025-08-28T2200,1043A,119.7493,40.0116,秦皇岛市,第一关,,38,,17,22,12,10,,102,80,75,16,5,5,0.3,0.3
2025-08-28T2200,1044A,119.5897,39.9499,秦皇岛市,监测站,,30,29,27,6,6,94,,107,107,10,10,5,5,0.5,0.4
2025-08-28T2200,1046A,119.5251,39.9041,秦皇岛市,建设大厦,,30,30,23,3,7,82,,106,105,12,9,6,5,0.4,0.4
2025-08-28T2200,3132A,119.610547,39.943889,秦皇岛市,文明里,,29,26,16,11,7,92,,104,104,8,12,6,6,0.3,0.3
2025-08-28T2200,4198A,119.5090,39.8253,秦皇岛市,北戴河轮滑馆,,38,38,35,3,7,97,,106,104,2,4,2,2,0.4,0.5
2025-08-28T2200,1307A,120.6659,36.2403,青岛市,仰口,,40,40,26,18,16,94,,143,127,5,2,10,9,0.9,0.7
2025-08-28T2200,1310A,120.4134,36.0658,青岛市,市南区东部子站,,29,29,24,12,13,83,,152,139,16,7,6,6,0.2,0.2
2025-08-28T2200,1311A,120.3664,36.1032,青岛市,四方区子站,,36,27,24,14,14,115,,176,158,16,7,14,6,0.4,0.3
2025-08-28T2200,1312A,120.2994,36.054,青岛市,市南区西部子站,,31,31,21,15,10,71,,138,127,45,13,5,5,0.8,0.6
2025-08-28T2200,1313A,120.4581,36.0858,青岛市,崂山区子站,,44,44,29,17,10,81,,152,140,21,8,7,8,0.3,0.3
2025-08-28T2200,1315A,120.3999,36.3083,青岛市,城阳区子站,,27,27,24,10,12,49,,165,126,38,13,3,4,0.6,0.4
2025-08-28T2200,1966A,120.0405,35.8735,青岛市,黄岛区4号,,39,14,23,3,8,124,,180,169,11,7,4,5,0.5,0.5
2025-08-28T2200,3362A,120.5014,36.4034,青岛市,即墨2号,,28,28,28,12,10,86,,171,139,20,10,4,4,0.3,0.3
2025-08-28T2200,3642A,120.3503,36.0736,青岛市,市北区南部,,30,27,25,7,10,93,,176,161,13,8,8,6,0.9,0.7
2025-08-28T2200,3643A,120.3948,36.1805,青岛市,李沧区北部,,27,27,21,17,14,77,,157,136,30,11,4,5,0.5,0.4
2025-08-28T2200,4290A,120.1969,35.9546,青岛市,珠江路669号,,40,17,22,15,15,126,,175,163,10,5,5,6,0.6,0.5
2025-08-28T2200,1702A,113.0426,23.691,清远市,环保大楼,,,,37,,19,35,,136,103,,17,8,8,0.8,0.7
2025-08-28T2200,1703A,113.0208,23.7106,清远市,凤城街办,,21,21,29,12,17,40,,141,106,17,21,6,7,0.6,0.6
2025-08-28T2200,3025A,113.0477,23.6344,清远市,技师学院,,48,48,38,24,20,43,,142,110,34,22,8,9,0.7,0.5
2025-08-28T2200,3318A,112.9903,23.7403,清远市,清新太和,,,21,26,,14,,,147,126,9,18,8,8,0.5,0.5
2025-08-28T2200,3455A,113.076,23.7198,清远市,清城东城,,22,22,25,12,14,26,,109,77,13,12,6,6,0.6,0.6
2025-08-28T2200,2661A,107.6325,35.7357,庆阳市,庆阳五中,,24,16,16,8,8,74,,85,76,4,5,7,7,0.3,0.4
2025-08-28T2200,2662A,107.6364,35.7067,庆阳市,市环保局,,26,13,17,3,6,81,,95,86,3,4,2,3,0.6,0.6
2025-08-28T2200,1916A,103.7897,25.5035,曲靖市,环境监测站,,39,39,18,10,7,29,,70,60,19,10,4,4,0.5,0.4
2025-08-28T2200,1917A,103.8,25.5364,曲靖市,烟厂办公区,,17,17,13,3,9,48,,72,67,6,7,4,4,0.5,0.4
2025-08-28T2200,3376A,103.7947,25.462,曲靖市,南苑二区,,20,20,14,9,7,35,,69,61,15,8,4,4,0.5,0.4
2025-08-28T2200,3377A,103.7444,25.5261,曲靖市,曲靖师范学院,,22,22,14,8,8,41,,73,66,13,10,8,6,0.4,0.3
2025-08-28T2200,1264A,118.8692,28.9398,衢州市,环保大楼,,30,30,19,14,10,47,,99,84,21,10,4,4,0.3,0.3
2025-08-28T2200,1265A,118.8709,28.9666,衢州市,实验学校,,25,25,19,9,8,51,,99,85,20,13,4,4,0.4,0.4
2025-08-28T2200,1266A,118.8621,28.9808,衢州市,衢州学院,,21,21,17,10,9,37,,100,83,33,16,4,4,0.3,0.3
2025-08-28T2200,1611A,118.5819,24.9117,泉州市,涂山街,,16,16,17,9,7,31,,66,54,10,8,2,2,0.3,0.3
2025-08-28T2200,1612A,118.5972,24.8978,泉州市,津头埔,,,,18,,7,28,,66,55,10,7,3,3,0.4,0.4
2025-08-28T2200,1613A,118.6663,24.9424,泉州市,万安,,17,17,20,3,7,30,,65,51,7,7,2,2,0.3,0.3
2025-08-28T2200,1614A,118.6117,24.9604,泉州市,清源山,,,,11,,6,,,42,,,4,,3,,0.4
2025-08-28T2200,3529A,118.6333,24.9264,泉州市,城华南路,,15,15,16,6,7,28,,65,50,11,9,2,3,0.3,0.3
2025-08-28T2200,2626A,88.8876,29.2718,日喀则市,日喀则监测站,,21,6,3,3,0,67,,90,81,4,4,9,8,0.3,0.3
2025-08-28T2200,3726A,88.8781,29.2426,日喀则市,林业技术推广中心,,30,23,11,21,2,54,,86,77,3,2,6,5,0.3,0.5
2025-08-28T2200,1659A,119.471,35.4209,日照市,监测站,,36,7,25,3,16,115,,201,170,9,16,5,7,0.6,0.6
2025-08-28T2200,1660A,119.523,35.4216,日照市,市政府广场,,36,6,31,3,12,113,,200,174,8,16,4,8,0.8,0.8
2025-08-28T2200,1661A,119.5587,35.4044,日照市,港务局,,35,,32,16,24,112,,195,172,16,17,3,8,0.8,0.9
2025-08-28T2200,3507A,119.5328,35.4625,日照市,职业技术学院,,36,7,31,3,14,115,,196,170,9,14,4,7,0.6,0.7
2025-08-28T2200,3604A,119.3266,35.1044,日照市,岚山环保分局,,35,29,28,10,14,110,,200,172,21,11,35,10,3.2,0.9
2025-08-28T2200,1835A,111.1922,34.7752,三门峡市,市政府,,24,17,24,11,13,76,,90,87,17,16,8,10,0.4,0.4
2025-08-28T2200,1836A,111.1587,34.7942,三门峡市,开发区,,26,17,22,10,12,82,,86,85,8,10,4,5,0.2,0.3
2025-08-28T2200,1838A,111.143,34.7955,三门峡市,风景区,,27,6,18,3,8,86,,93,92,8,8,4,4,0.4,0.5
2025-08-28T2200,3039A,111.1911,34.7829,三门峡市,三门峡市第一小学,,25,15,23,3,8,78,,89,86,12,13,5,6,0.5,0.5
2025-08-28T2200,3598A,111.1,34.7167,三门峡市,富达温泉假日酒店,,24,11,25,11,13,76,,92,90,11,10,7,6,0.2,0.5
2025-08-28T2200,2324A,117.6211,26.2625,三明市,三钢,,18,18,14,3,6,25,,70,47,16,9,2,3,0.5,0.4
2025-08-28T2200,2325A,117.635,26.2714,三明市,三明二中,,21,21,25,10,9,24,,64,48,15,5,2,4,0.4,0.4
2025-08-28T2200,2326A,117.6028,26.2378,三明市,三元区政府,,25,25,20,12,11,6,,68,40,27,12,2,2,0.5,0.5
2025-08-28T2200,2327A,117.7275,26.3108,三明市,洋溪,,,,13,,9,,,46,,,6,,3,,0.5
2025-08-28T2200,1876A,109.5078,18.2489,三亚市,河东子站,,20,20,16,3,6,36,,43,39,2,7,3,3,0.4,0.6
2025-08-28T2200,1877A,109.4964,18.2681,三亚市,河西子站,,23,23,16,3,2,35,,46,40,14,11,2,2,0.3,0.4
2025-08-28T2200,3540A,109.7348,18.3443,三亚市,君悦子站,,33,33,14,8,5,38,,58,52,6,6,2,2,0.3,0.4
2025-08-28T2200,2624A,91.7608,29.2313,山南市,山南监测站,,28,6,3,3,2,87,,90,90,2,3,2,3,0.3,0.3
2025-08-28T2200,2625A,91.7706,29.2436,山南市,山南人民医院,,27,8,7,3,4,85,,88,88,3,4,3,3,0.3,0.3
2025-08-28T2200,1674A,116.6794,23.3667,汕头市,金平子站,,21,8,20,7,9,67,,73,67,7,9,2,3,0.6,0.5
2025-08-28T2200,1675A,116.7244,23.3633,汕头市,龙湖子站,,21,21,20,6,11,62,,68,64,6,7,6,7,0.5,0.5
2025-08-28T2200,1676A,116.7258,23.2775,汕头市,濠江子站,,19,12,21,6,11,58,,73,64,4,5,5,6,0.6,0.6
2025-08-28T2200,1677A,116.7519,23.4714,汕头市,澄海子站,,25,25,25,8,12,66,,76,68,8,9,4,4,0.6,0.5
2025-08-28T2200,1678A,116.6092,23.2539,汕头市,潮阳子站,,19,17,20,7,9,60,,65,58,1,2,5,5,0.5,0.5
2025-08-28T2200,3444A,116.454,23.2684,汕头市,潮南峡山,,22,22,20,10,9,62,,81,65,10,8,6,6,0.5,0.5
2025-08-28T2200,3624A,116.4069,23.2533,汕头市,潮南子站,,26,26,28,11,9,56,,73,57,10,8,4,5,0.6,0.5
2025-08-28T2200,1693A,115.3653,22.775,汕尾市,市环保局,,14,12,19,8,11,44,,76,60,6,8,4,3,0.4,0.5
2025-08-28T2200,1694A,115.3706,22.7898,汕尾市,市政府,,14,14,17,3,10,42,,80,61,8,9,4,4,0.3,0.5
2025-08-28T2200,1695A,115.3622,22.7925,汕尾市,新城中学,,15,15,18,10,9,41,,80,62,8,7,5,5,0.5,0.5
2025-08-28T2200,2645A,109.9154,33.8715,商洛市,监测站,,26,13,9,6,8,82,,89,87,9,6,3,3,0.5,0.5
2025-08-28T2200,3045A,109.9643,33.8471,商洛市,商州区中学,,25,6,8,3,4,78,,93,90,16,8,4,4,0.4,0.4
2025-08-28T2200,2408A,115.6702,34.4285,商丘市,环境监测站,,41,34,36,22,21,131,,131,131,10,6,2,2,0.5,0.5
2025-08-28T2200,2409A,115.6458,34.4045,商丘市,粮食局,,40,32,37,13,16,127,,132,132,12,6,3,4,0.7,0.6
2025-08-28T2200,2410A,115.6293,34.3948,商丘市,睢阳区环保局,,43,43,45,20,20,124,,127,127,10,8,3,3,0.5,0.5
2025-08-28T2200,3171A,115.6071,34.4465,商丘市,梁园区档案局,,,44,40,24,20,,,138,138,21,10,2,3,0.7,0.7
2025-08-28T2200,1141A,121.4,31.238,上海市,普陀,,22,22,17,3,5,28,,113,92,21,14,5,5,0.3,0.3
2025-08-28T2200,1142A,121.478,31.2036,上海市,十五厂,,22,22,19,6,8,26,,101,79,18,12,8,9,0.6,0.6
2025-08-28T2200,1143A,121.467,31.3008,上海市,虹口,,19,19,17,8,6,25,,98,80,19,9,5,6,0.5,0.5
2025-08-28T2200,1147A,121.425,31.2261,上海市,静安监测站,,18,18,16,3,8,35,,113,90,16,12,4,4,0.4,0.5
2025-08-28T2200,1148A,121.703,31.1907,上海市,浦东川沙,,28,28,16,10,6,30,,91,69,16,11,6,7,0.6,0.6
2025-08-28T2200,1149A,121.533,31.2284,上海市,浦东新区监测站,,,20,14,,9,,,102,98,21,11,5,5,0.5,0.1
2025-08-28T2200,1150A,121.577,31.2071,上海市,浦东张江,,24,24,16,3,6,34,,106,86,19,11,6,6,0.6,0.7
2025-08-28T2200,3265A,121.4316,31.3322,上海市,宝山庙行,,23,23,20,6,7,24,,87,75,28,19,6,7,0.3,0.3
2025-08-28T2200,3266A,121.8791,31.4662,上海市,崇明上实东滩,,12,9,12,3,6,37,,82,58,11,10,4,4,0.4,0.4
2025-08-28T2200,3268A,121.3162,31.2838,上海市,嘉定南翔,,20,20,16,8,8,24,,102,84,26,18,4,4,0.2,0.2
2025-08-28T2200,3269A,121.3359,30.7456,上海市,金山新城,,16,16,13,3,6,26,,102,74,12,8,5,5,0.5,0.5
2025-08-28T2200,3270A,121.4996,31.0739,上海市,闵行浦江,,20,20,14,10,5,30,,98,74,10,8,4,5,1.0,0.9
2025-08-28T2200,3271A,121.2886,31.1663,上海市,青浦徐泾,,18,18,14,6,5,34,,107,89,12,10,7,7,0.6,0.6
2025-08-28T2200,3272A,121.2186,31.0378,上海市,松江图书馆,,26,26,13,6,6,27,,112,91,18,13,8,8,0.5,0.5
2025-08-28T2200,3273A,121.3902,31.2059,上海市,长宁仙霞,,16,16,17,8,7,31,,100,82,16,14,8,8,0.4,0.4
2025-08-28T2200,3274A,121.7965,31.0507,上海市,浦东惠南,,15,15,14,3,4,42,,90,66,7,10,10,11,0.3,0.3
2025-08-28T2200,3544A,121.4891,30.925,上海市,奉贤南桥新城,,,17,14,7,9,22,,102,71,14,7,5,5,,0.6
2025-08-28T2200,4183A,121.4174,31.16637,上海市,冠生园路458号,,19,19,14,3,7,33,,101,87,19,14,4,4,0.5,0.6
2025-08-28T2200,4205A,121.5419,31.2683,上海市,宁武路151号,,,29,24,,6,24,,59,59,23,17,4,4,0.4,0.4
2025-08-28T2200,2381A,118.005,28.4572,上饶市,百草园,,,,,,,,,,,,,,,,
2025-08-28T2200,2382A,117.9756,28.4436,上饶市,市监测站,,,,19,,8,,,55,,,6,,6,,0.4
2025-08-28T2200,2383A,117.9519,28.4628,上饶市,凤凰光学,,30,30,21,15,11,47,,75,70,16,12,12,11,0.4,0.3
2025-08-28T2200,3685A,117.897,28.4315,上饶市,双创科技城,,23,23,20,16,10,44,,74,70,13,9,13,8,0.4,0.3
2025-08-28T2200,4211A,118.1904,28.4448,上饶市,裕丰大道,,32,32,13,8,8,38,,49,47,16,6,4,4,0.4,0.4
2025-08-28T2200,1669A,113.5824,24.7733,韶关市,市八中,,23,23,35,16,21,37,,99,67,14,19,18,16,0.7,0.8
2025-08-28T2200,1671A,113.5917,24.7972,韶关市,园林处,,29,29,30,19,23,41,,108,70,11,17,12,14,0.4,0.6
