timepoint,stationcode,longitude,latitude,area,positionname,primarypollutant,aqi,pm10,pm10_24h,pm2_5,pm2_5_24h,o3,o3_24h,o3_8h,o3_8h_24h,no2,no2_24h,so2,so2_24h,co,co_24h
2026-01-11T2000,2568A,102.2503,31.8896,阿坝藏族羌族自治州,马师校,,42,,17,29,17,31,,64,57,29,16,4,4,0.7,0.5
2026-01-11T2000,3994A,102.2174,31.9016,阿坝藏族羌族自治州,马尔康中学西区,,27,27,14,16,11,32,,66,63,35,13,6,5,0.7,0.5
2026-01-11T2000,2695A,80.2899,41.1684,阿克苏地区,电视台,细颗粒物(PM2.5),104,103,112,78,76,66,,65,65,38,39,5,3,0.9,1.5
2026-01-11T2000,2696A,80.2592,41.1541,阿克苏地区,艺术中心,细颗粒物(PM2.5),94,91,100,70,71,67,,69,69,35,36,7,5,0.8,1
2026-01-11T2000,2205A,105.699,38.8409,阿拉善盟,蒙二幼,颗粒物(PM10),61,71,28,29,11,51,,80,73,29,13,11,10,0.9,0.6
2026-01-11T2000,2206A,105.7198,38.8508,阿拉善盟,环保局新楼,,49,49,17,17,8,72,,83,74,8,6,9,7,0.6,0.6
2026-01-11T2000,2708A,88.1266,47.8515,阿勒泰地区,市站,,21,8,10,3,7,40,,71,63,42,19,5,3,0.4,0.4
2026-01-11T2000,4166A,88.1198,47.7931,阿勒泰地区,阿勒泰路33号,,26,25,10,11,3,33,,72,55,51,21,3,5,0.7,0.4
2026-01-11T2000,2630A,80.1171,32.4999,阿里地区,阿里监测站,,24,6,4,3,4,74,,73,73,2,16,4,8,0.4,0.5
2026-01-11T2000,3192A,80.0906,32.5029,阿里地区,阿里藏医院,,27,6,17,3,12,84,,79,79,1,12,9,14,0.5,0.8
2026-01-11T2000,2644A,109.0088,32.6974,安康市,汉滨区检察院,细颗粒物(PM2.5),78,93,57,57,33,19,,55,54,52,24,5,5,0.8,0.6
2026-01-11T2000,4054A,109.0324,32.6913,安康市,市邮政管理局,细颗粒物(PM2.5),109,127,71,82,43,4,,48,42,74,31,7,7,1.9,0.9
2026-01-11T2000,2291A,117.0806,30.5181,安庆市,环科院,颗粒物(PM10),57,64,118,33,27,61,,75,73,19,20,6,6,0.2,0.2
2026-01-11T2000,2292A,117.0331,30.5118,安庆市,马山宾馆,颗粒物(PM10),60,70,107,35,27,49,,77,73,31,20,6,5,0.3,0.3
2026-01-11T2000,2294A,116.9897,30.6146,安庆市,安庆大学,颗粒物(PM10),55,60,92,29,22,52,,81,73,28,15,4,4,0.4,0.4
2026-01-11T2000,3173A,117.0598,30.5351,安庆市,市人大,颗粒物(PM10),64,77,118,30,26,38,,75,67,45,27,8,7,0.3,0.3
2026-01-11T2000,3123A,105.9408,26.2431,安顺市,凤凰山,细颗粒物(PM2.5),78,64,74,57,67,86,,84,84,18,19,13,19,0.6,0.6
2026-01-11T2000,3124A,105.9443,26.2567,安顺市,金钟山,细颗粒物(PM2.5),82,65,73,60,70,86,,83,83,14,14,20,19,0.6,0.6
2026-01-11T2000,3125A,105.8983,26.248,安顺市,娄家坡,细颗粒物(PM2.5),83,71,77,61,67,85,,80,80,15,16,13,19,0.8,0.8
2026-01-11T2000,1819A,114.3552,36.1017,安阳市,红庙街,颗粒物(PM10),58,66,58,26,11,49,,62,59,19,15,2,2,0.6,0.5
2026-01-11T2000,1820A,114.361,36.0681,安阳市,银杏小区,颗粒物(PM10),59,67,57,26,16,46,,63,59,22,17,2,2,0.3,0.2
2026-01-11T2000,3141A,114.3921,36.0879,安阳市,信访局,,,75,58,22,15,,,63,61,25,15,5,4,0.5,0.4
2026-01-11T2000,3669A,114.4706,36.0634,安阳市,左辅环卫站,颗粒物(PM10),69,87,63,39,20,43,,67,61,20,15,3,4,0.5,0.4
2026-01-11T2000,4117A,114.2918,36.0769,安阳市,钢三路198号,颗粒物(PM10),66,81,58,29,15,38,,58,54,26,19,2,2,0.6,0.5
2026-01-11T2000,1748A,123.0441,41.1201,鞍山市,深沟寺,,28,28,32,16,16,52,,54,53,12,18,10,10,0.7,0.8
2026-01-11T2000,1749A,123.011,41.0931,鞍山市,太阳城,,27,27,29,18,15,55,,57,56,13,16,12,16,0.6,0.9
2026-01-11T2000,1750A,123.0483,41.1445,鞍山市,太平,,36,36,42,20,20,47,,52,51,20,23,11,10,0.7,0.8
2026-01-11T2000,1751A,122.964,41.0968,鞍山市,铁西三道街,,46,46,43,26,21,36,,54,46,34,26,54,19,1.0,1
2026-01-11T2000,1753A,123.0219,41.0822,鞍山市,明达新区,,29,29,33,16,14,51,,53,53,15,18,14,15,0.4,0.6
2026-01-11T2000,4201A,122.944647,41.082639,鞍山市,兴盛南路290号,,43,43,56,24,22,31,,53,44,36,29,21,12,1.6,1
2026-01-11T2000,2195A,107.4206,40.7609,巴彦淖尔市,附二中,细颗粒物(PM2.5),60,67,49,43,26,56,,44,44,15,28,2,5,0.5,0.6
2026-01-11T2000,2196A,107.37,40.7372,巴彦淖尔市,市环保大楼,颗粒物(PM10),63,76,48,22,19,62,,62,62,13,21,4,6,0.5,0.6
2026-01-11T2000,1956A,86.1476,41.7529,巴音郭楞蒙古自治州,孔雀公园,颗粒物(PM10),60,70,57,34,35,56,,56,56,23,29,8,8,0.5,0.6
2026-01-11T2000,1957A,86.1971,41.7166,巴音郭楞蒙古自治州,棉纺厂,颗粒物(PM10),58,66,61,23,23,54,,61,61,32,17,/,/,/,/
2026-01-11T2000,1958A,86.236,41.7172,巴音郭楞蒙古自治州,经济开发区,颗粒物(PM10),59,68,44,33,19,53,,56,56,24,19,5,6,0.6,0.5
2026-01-11T2000,3181A,106.776805,31.852614,巴中市,市五中,细颗粒物(PM2.5),125,127,102,95,78,34,,62,62,47,32,6,5,1.2,1.2
2026-01-11T2000,3183A,106.7419,31.8654,巴中市,圣泉水务公司,细颗粒物(PM2.5),137,130,92,104,74,2,,64,61,86,40,5,5,1.0,0.7
2026-01-11T2000,3616A,106.7617,31.8343,巴中市,市中心医院,细颗粒物(PM2.5),135,137,111,103,86,4,,60,57,73,38,7,7,1.6,1.2
2026-01-11T2000,2235A,122.7909,45.608,白城市,洮北区环保局,,33,,28,23,17,47,,50,48,12,15,7,6,0.2,0.2
2026-01-11T2000,2236A,122.8741,45.5725,白城市,市环保局,,26,,22,18,18,41,,49,46,10,10,4,5,0.3,0.3
2026-01-11T2000,2231A,126.4219,41.9172,白山市,喜丰,,45,45,40,27,22,16,,53,49,47,19,17,14,0.8,0.6
2026-01-11T2000,2232A,126.4082,41.9416,白山市,环保局,,46,35,31,32,26,24,,51,44,29,19,9,10,1.0,0.8
2026-01-11T2000,2647A,104.1727,36.5448,白银市,第三小学,细颗粒物(PM2.5),114,138,83,86,47,35,,56,55,70,44,44,44,1.2,1.1
2026-01-11T2000,2648A,104.1467,36.5482,白银市,动力公司,细颗粒物(PM2.5),117,119,73,88,40,24,,67,63,128,32,39,33,1.1,0.9
2026-01-11T2000,2512A,106.6102,23.901,百色市,市监测站,细颗粒物(PM2.5),54,56,54,38,41,62,,92,92,21,22,8,9,0.6,0.6
2026-01-11T2000,2513A,106.6524,23.8842,百色市,市中心血站,细颗粒物(PM2.5),75,89,85,55,61,16,,91,87,82,43,18,11,1.1,0.9
2026-01-11T2000,4133A,106.6273,23.8798,百色市,龙景西路,细颗粒物(PM2.5),92,117,83,68,44,10,,99,94,72,31,10,10,1.2,0.7
2026-01-11T2000,2270A,117.396,32.9389,蚌埠市,工人疗养院,颗粒物(PM10),71,91,90,25,27,43,,63,58,28,29,8,6,0.4,0.4
2026-01-11T2000,2271A,117.3606,32.9428,蚌埠市,百货大楼,颗粒物(PM10),53,56,73,24,28,47,,65,60,24,27,6,7,0.4,0.4
2026-01-11T2000,2273A,117.4183,32.8909,蚌埠市,蚌埠学院,颗粒物(PM10),70,90,93,35,32,35,,65,60,35,36,5,5,0.3,0.3
2026-01-11T2000,2274A,117.3534,32.9672,蚌埠市,淮上区政府,颗粒物(PM10),63,75,89,27,32,39,,66,60,32,34,3,3,0.5,0.5
2026-01-11T2000,2275A,117.3143,32.8977,蚌埠市,高新区,颗粒物(PM10),59,68,95,26,38,44,,62,58,25,33,7,7,0.2,0.2
2026-01-11T2000,3715A,117.3091,32.9314,蚌埠市,蚌埠田家炳中学,颗粒物(PM10),56,61,92,32,35,49,,65,62,25,39,4,6,0.4,0.4
2026-01-11T2000,1585A,109.8761,40.6533,包头市,市环境监测站,颗粒物(PM10),56,61,34,15,14,6,,50,41,60,35,9,9,1.1,0.9
2026-01-11T2000,1587A,109.9992,40.5843,包头市,包头八中,颗粒物(PM10),57,64,45,34,22,7,,49,40,63,35,7,8,0.8,0.8
2026-01-11T2000,1589A,109.8641,40.6288,包头市,惠龙物流,颗粒物(PM10),52,53,35,14,17,18,,52,45,52,34,11,11,1.5,0.7
2026-01-11T2000,1590A,110.0376,40.5546,包头市,东河鸿龙湾,颗粒物(PM10),68,86,34,44,10,9,,52,42,84,36,16,10,1.7,0.9
2026-01-11T2000,3283A,109.9154,40.5684,包头市,滨河大厦,颗粒物(PM10),63,76,31,23,13,4,,50,40,58,34,8,7,0.8,0.7
2026-01-11T2000,3419A,109.9449,40.6259,包头市,包头市委党校,颗粒物(PM10),57,64,42,28,19,3,,48,38,70,37,12,13,1.0,0.9
2026-01-11T2000,3683A,109.8332,40.6577,包头市,昆区政府,颗粒物(PM10),54,57,32,23,15,12,,48,40,67,43,10,11,0.9,0.9
2026-01-11T2000,1931A,107.0802,34.3129,宝鸡市,竹园沟,颗粒物(PM10),59,68,58,40,28,41,,60,60,24,18,6,6,0.5,0.3
2026-01-11T2000,1933A,107.1429,34.3549,宝鸡市,监测站,细颗粒物(PM2.5),93,94,73,69,36,28,,58,56,41,30,4,5,0.7,0.6
2026-01-11T2000,1934A,107.1172,34.3759,宝鸡市,技工学校,颗粒物(PM10),66,82,79,45,37,33,,59,58,42,22,6,8,0.7,0.6
2026-01-11T2000,1936A,107.2025,34.3518,宝鸡市,文理学院,细颗粒物(PM2.5),77,84,72,56,36,15,,60,57,57,29,4,5,0.6,0.4
2026-01-11T2000,1937A,107.2396,34.3626,宝鸡市,三迪小学,细颗粒物(PM2.5),84,75,78,62,41,23,,61,58,58,34,5,6,0.7,0.5
2026-01-11T2000,4155A,107.1721,34.3558,宝鸡市,滨河北路,颗粒物(PM10),82,113,79,48,34,24,,58,56,48,26,6,6,0.5,0.4
2026-01-11T2000,4308A,107.3898,34.3601,宝鸡市,陈仓区北开路21号,细颗粒物(PM2.5),115,98,90,87,51,27,,64,61,57,37,8,25,0.6,0.7
2026-01-11T2000,1051A,115.4803,38.8568,保定市,游泳馆,颗粒物(PM10),52,53,36,18,6,38,,60,54,27,9,7,3,0.4,0.3
2026-01-11T2000,1052A,115.509,38.8895,保定市,华电二区,,46,46,35,29,15,42,,58,52,15,5,2,2,0.7,0.6
2026-01-11T2000,1053A,115.4588,38.9037,保定市,接待中心,,49,49,37,22,9,41,,60,54,22,11,3,2,0.3,0.1
2026-01-11T2000,1054A,115.4484,38.8344,保定市,地表水厂,颗粒物(PM10),64,78,56,24,11,32,,58,53,37,19,2,2,0.3,0.2
2026-01-11T2000,3581A,115.3136,38.9511,保定市,满城区生态环境分局,颗粒物(PM10),78,105,48,56,10,22,,60,52,51,21,5,3,0.9,0.6
2026-01-11T2000,3582A,115.4709,38.7628,保定市,清苑区第二中学,颗粒物(PM10),64,77,50,32,9,26,,57,50,33,11,6,3,0.4,0.3
2026-01-11T2000,3583A,115.6231,39.0223,保定市,徐水物探局,颗粒物(PM10),68,86,47,26,14,27,,56,50,34,13,3,2,0.5,0.3
2026-01-11T2000,4004A,115.4199,38.8665,保定市,双鹰农机,颗粒物(PM10),67,83,45,32,17,37,,64,59,27,7,6,4,0.5,0.2
2026-01-11T2000,4034A,115.515,38.8589,保定市,植保所站,颗粒物(PM10),52,53,41,24,19,33,,52,49,27,11,5,3,0.5,0.4
2026-01-11T2000,2594A,99.1589,25.1137,保山市,市环境监测站,,42,30,25,29,22,68,,77,77,9,8,3,4,0.3,0.3
2026-01-11T2000,2595A,99.1616,25.1381,保山市,市环保局,,36,31,29,25,21,66,,79,79,3,6,4,4,0.4,0.4
2026-01-11T2000,1867A,109.1435,21.4085,北海市,海滩公园,颗粒物(PM10),56,62,67,37,46,128,,131,131,22,20,10,11,0.9,0.9
2026-01-11T2000,1868A,109.0983,21.466,北海市,新市环保局,细颗粒物(PM2.5),73,73,68,53,58,113,,131,131,40,25,7,7,0.7,0.6
2026-01-11T2000,1869A,109.1775,21.5232,北海市,北海工业园,细颗粒物(PM2.5),95,92,74,71,59,53,,119,106,71,28,8,10,1.0,0.7
2026-01-11T2000,3400A,109.1844,21.4396,北海市,龙潭自来水厂,颗粒物(PM10),58,66,72,38,56,37,,126,118,79,24,7,10,1.1,0.9
2026-01-11T2000,1001A,116.3611,39.8786,北京市,万寿西宫,颗粒物(PM10),54,58,31,21,8,32,,54,47,31,11,3,2,0.5,0.4
2026-01-11T2000,1003A,116.4174,39.9289,北京市,东四,颗粒物(PM10),51,51,29,18,9,33,,51,47,27,10,5,4,0.3,0.2
2026-01-11T2000,1004A,116.4073,39.8858,北京市,天坛,颗粒物(PM10),52,54,29,24,8,33,,56,50,27,8,2,3,0.4,0.3
2026-01-11T2000,1005A,116.4622,39.9364,北京市,农展馆,颗粒物(PM10),54,58,28,23,8,39,,55,51,22,7,4,4,0.6,0.5
2026-01-11T2000,1006A,116.3399,39.9293,北京市,官园,细颗粒物(PM2.5),59,63,34,42,14,37,,53,47,23,8,4,5,0.5,0.5
2026-01-11T2000,1007A,116.2879,39.9613,北京市,海淀万柳,颗粒物(PM10),60,69,30,23,10,32,,49,44,29,14,3,3,0.5,0.4
2026-01-11T2000,1008A,116.6635,40.1349,北京市,顺义新城,,50,50,25,17,7,32,,58,49,31,9,4,3,0.6,0.4
2026-01-11T2000,1009A,116.6275,40.327,北京市,怀柔镇,,37,37,22,23,8,33,,54,46,27,9,7,8,0.3,0.1
2026-01-11T2000,1010A,116.2295,40.217,北京市,昌平镇,颗粒物(PM10),54,58,26,26,9,23,,58,44,40,11,5,5,0.8,0.5
2026-01-11T2000,1011A,116.3968,39.982,北京市,奥体中心,,50,50,29,20,9,41,,54,52,25,11,5,4,0.7,0.6
2026-01-11T2000,3418A,116.8336,40.4095,北京市,密云新城,颗粒物(PM10),58,65,23,29,8,26,,59,44,39,9,5,5,0.6,0.4
2026-01-11T2000,3671A,116.0879,39.9725,北京市,门头沟三家店,颗粒物(PM10),54,58,36,24,12,30,,56,44,29,9,4,3,0.5,0.4
2026-01-11T2000,3672A,116.1507,39.8246,北京市,丰台云岗,颗粒物(PM10),58,66,36,31,12,34,,58,51,27,9,2,2,0.4,0.3
2026-01-11T2000,3674A,115.9578,39.7602,北京市,房山燕山,颗粒物(PM10),52,54,29,22,10,37,,55,49,25,8,4,4,0.5,0.3
2026-01-11T2000,3675A,116.4669,39.7734,北京市,大兴旧宫,颗粒物(PM10),52,53,29,18,7,35,,57,51,21,7,3,3,0.4,0.3
2026-01-11T2000,3694A,115.9859,40.4562,北京市,延庆石河营,,33,33,22,12,8,41,,60,52,21,6,3,3,0.4,0.4
2026-01-11T2000,3695A,116.6151,40.3052,北京市,怀柔新城,,40,40,22,22,10,38,,56,47,19,8,4,5,0.4,0.3
2026-01-11T2000,3696A,116.2542,39.8764,北京市,丰台小屯,,,63,34,19,8,,,42,39,32,11,4,4,0.4,0.4
2026-01-11T2000,3697A,116.8399,40.3843,北京市,密云镇,,48,48,24,16,6,42,,57,50,23,9,2,2,0.5,0.4
2026-01-11T2000,4057A,115.9423,40.4431,北京市,延庆百泉,,48,48,28,26,9,30,,52,42,18,6,2,2,0.5,0.4
2026-01-11T2000,4058A,116.6598,39.9164,北京市,通州新华,颗粒物(PM10),55,60,31,18,10,30,,51,44,30,11,3,3,0.4,0.3
2026-01-11T2000,4182A,116.1942,39.9158,北京市,石景山八角,颗粒物(PM10),55,60,32,21,9,32,,51,42,24,8,2,2,0.2,0.1
2026-01-11T2000,4194A,117.078628,40.151726,北京市,平谷新城,颗粒物(PM10),57,63,22,32,9,27,,54,47,28,7,3,2,0.5,0.3
2026-01-11T2000,1761A,123.8274146,41.31234549,本溪市,大峪,,48,48,36,33,22,11,,50,41,48,32,7,8,1.2,1
2026-01-11T2000,1763A,123.7169,41.3094,本溪市,彩屯,细颗粒物(PM2.5),103,,55,77,31,12,,60,40,50,30,8,7,1.6,1.1
2026-01-11T2000,1764A,123.7672166,41.28649327,本溪市,东明,,22,22,40,14,25,51,,57,55,12,28,8,10,0.8,1.2
2026-01-11T2000,1765A,123.799345,41.266614,本溪市,新立屯,,18,15,27,12,15,41,,53,40,20,29,10,11,0.8,1.2
2026-01-11T2000,1766A,123.829144,41.336777,本溪市,威宁,颗粒物(PM10),52,54,56,33,36,12,,50,42,48,34,5,6,1.2,1.1
2026-01-11T2000,2587A,105.287,27.3133,毕节市,八中,细颗粒物(PM2.5),83,77,92,61,69,56,,68,68,21,20,14,12,1.0,1
2026-01-11T2000,2588A,105.3079,27.2987,毕节市,师专,细颗粒物(PM2.5),80,74,87,59,68,62,,74,74,16,20,9,10,0.7,0.7
2026-01-11T2000,4263A,105.3688,27.3598,毕节市,工业大道,细颗粒物(PM2.5),77,76,88,56,65,62,,73,72,21,21,13,12,/,/
2026-01-11T2000,1629A,117.9961,37.3604,滨州市,第二水厂,颗粒物(PM10),52,53,32,23,8,23,,55,49,49,14,21,10,1.1,0.5
2026-01-11T2000,1630A,117.9789,37.3931,滨州市,北中新校,,48,48,33,29,8,32,,60,55,44,14,11,3,0.8,0.3
2026-01-11T2000,3514A,117.9379,37.3959,滨州市,中海酒店,,39,39,30,19,12,45,,63,61,30,16,11,7,0.5,0.5
2026-01-11T2000,3515A,117.9381509,37.35547456,滨州市,开发区一中,颗粒物(PM10),51,51,37,19,10,37,,60,56,29,15,15,10,0.5,0.4
2026-01-11T2000,3516A,118.0914,37.6938,滨州市,金海六路,,39,39,30,17,5,48,,73,65,28,16,3,2,0.5,0.4
2026-01-11T2000,4028A,117.9955,37.3752,滨州市,滨州市西街道办事处,颗粒物(PM10),52,53,28,34,14,30,,60,55,37,13,19,8,1.0,0.3
2026-01-11T2000,2311A,115.8071,33.8399,亳州市,污水处理厂,颗粒物(PM10),69,88,62,40,17,39,,66,60,29,17,6,4,0.3,0.2
2026-01-11T2000,2312A,115.7789,33.8519,亳州市,三国揽胜宫,颗粒物(PM10),55,60,61,29,22,51,,64,62,19,17,5,4,0.3,0.3
2026-01-11T2000,3332A,115.7631,33.803,亳州市,亳州学院,颗粒物(PM10),54,58,54,19,16,51,,65,63,22,18,2,3,0.3,0.3
2026-01-11T2000,2693A,82.0482,44.8553,博尔塔拉蒙古自治州,市党校,细颗粒物(PM2.5),77,98,84,56,44,57,,53,53,32,26,6,5,0.7,0.6
2026-01-11T2000,2694A,82.0805,44.8966,博尔塔拉蒙古自治州,市环保局,颗粒物(PM10),77,104,93,48,45,45,,58,58,45,30,6,7,1.0,1.1
2026-01-11T2000,1071A,116.8733,38.2922,沧州市,沧县城建局,,50,50,37,27,15,34,,63,56,33,16,8,3,0.3,0.2
2026-01-11T2000,1072A,116.8462,38.3189,沧州市,电视转播站,,50,50,38,19,10,41,,59,56,26,18,5,3,0.5,0.4
2026-01-11T2000,1073A,116.8588,38.3161,沧州市,市环保局,,46,46,43,26,21,28,,56,50,32,14,9,5,0.5,0.3
2026-01-11T2000,3324A,116.8011,38.294,沧州市,河北水利电力学院,颗粒物(PM10),52,53,35,17,8,32,,56,50,30,16,4,3,0.4,0.2
2026-01-11T2000,2622A,97.1813,31.1289,昌都市,昌都监测站,,48,48,41,22,18,59,,61,60,23,17,2,2,0.7,0.6
2026-01-11T2000,3719A,97.1707,31.1428,昌都市,昌都会议中心,,24,14,14,8,10,74,,68,68,2,4,1,1,0.3,0.3
2026-01-11T2000,2692A,87.2722,44.0298,昌吉回族自治州,新区政务中心,细颗粒物(PM2.5),206,202,142,156,103,36,,54,54,49,48,7,6,1.9,1.6
2026-01-11T2000,3613A,87.3069,44.0093,昌吉回族自治州,亚心广场,细颗粒物(PM2.5),243,259,200,193,143,13,,51,47,64,52,6,8,1.7,1.5
2026-01-11T2000,4164A,87.2057,43.9289,昌吉回族自治州,财政所,细颗粒物(PM2.5),115,153,97,87,72,54,,68,68,21,16,5,5,0.9,0.9
2026-01-11T2000,1120A,125.2874,43.9024,长春市,客车厂,细颗粒物(PM2.5),53,,46,37,44,33,,46,41,29,27,11,9,0.6,0.6
2026-01-11T2000,1121A,125.2943,43.8508,长春市,邮电学院,细颗粒物(PM2.5),52,,42,36,45,24,,47,42,39,28,20,13,0.6,0.5
2026-01-11T2000,1122A,125.3648,43.8745,长春市,劳动公园,细颗粒物(PM2.5),54,50,47,38,32,45,,49,48,22,26,9,11,0.8,0.7
2026-01-11T2000,1123A,125.3233,43.8781,长春市,园林处,,48,46,47,33,38,43,,46,44,17,23,10,11,0.7,0.7
2026-01-11T2000,1124A,125.4604,43.7904,长春市,净月潭,细颗粒物(PM2.5),53,44,52,37,37,45,,48,48,16,29,5,6,0.7,0.6
2026-01-11T2000,1126A,125.38,43.8422,长春市,经开区环卫处,细颗粒物(PM2.5),52,45,49,36,48,34,,45,43,27,31,6,10,0.7,0.6
2026-01-11T2000,1127A,125.234,43.7761,长春市,高新区管委会,细颗粒物(PM2.5),74,57,53,54,44,30,,54,47,36,27,6,7,0.9,0.7
2026-01-11T2000,1128A,125.1695,43.83,长春市,岱山公园,,50,36,51,35,42,15,,49,38,50,28,9,5,0.6,0.5
2026-01-11T2000,4281A,125.334645,43.916281,长春市,北亚泰大街1068号,,46,32,45,32,39,39,,44,42,24,31,8,9,0.7,0.7
2026-01-11T2000,1335A,113.082,28.2421,长沙市,经开区环保局,颗粒物(PM10),66,81,100,30,60,63,,97,97,48,44,14,6,0.4,0.6
2026-01-11T2000,1336A,112.8873,28.2202,长沙市,高开区环保局,细颗粒物(PM2.5),104,104,100,78,68,81,,92,92,29,26,8,7,0.7,0.6
2026-01-11T2000,1337A,113.0785,28.2012,长沙市,马坡岭,颗粒物(PM10),70,90,106,35,67,70,,97,97,37,38,7,6,0.6,0.8
2026-01-11T2000,1338A,112.9448,28.1894,长沙市,湖南师范大学,颗粒物(PM10),68,85,95,43,54,60,,98,96,69,37,7,7,0.7,0.7
2026-01-11T2000,1339A,113.0177,28.1322,长沙市,雨花区环保局,颗粒物(PM10),68,86,101,37,65,78,,96,96,29,41,10,10,0.5,0.8
2026-01-11T2000,1340A,112.9795,28.2593,长沙市,伍家岭,细颗粒物(PM2.5),95,129,111,71,64,26,,85,81,88,45,7,7,1.1,0.7
2026-01-11T2000,1341A,113.002,28.1944,长沙市,火车新站,颗粒物(PM10),84,117,110,46,68,77,,94,94,36,43,11,11,0.6,0.8
2026-01-11T2000,1342A,112.9846,28.1177,长沙市,天心区环保局,颗粒物(PM10),72,94,95,42,61,82,,103,103,35,40,8,8,0.9,0.8
2026-01-11T2000,1343A,112.8906,28.1307,长沙市,湖南中医药大学,细颗粒物(PM2.5),89,115,104,66,64,21,,94,86,92,41,7,8,0.9,0.7
2026-01-11T2000,1727A,113.1146,36.1547,长治市,清华站,,44,44,39,24,10,67,,74,73,13,17,12,12,0.6,0.5
2026-01-11T2000,1730A,113.0887,36.2126,长治市,审计局,颗粒物(PM10),52,54,43,22,11,63,,68,68,17,23,10,11,0.5,0.5
2026-01-11T2000,1731A,113.0845,36.1856,长治市,长治八中,颗粒物(PM10),60,70,55,23,15,62,,68,67,12,16,12,12,0.6,0.5
2026-01-11T2000,2845A,113.1561,36.1912,长治市,德盛苑,,48,48,38,24,12,71,,75,74,13,11,10,10,0.4,0.5
2026-01-11T2000,3568A,113.0603,36.0464,长治市,向阳小学,颗粒物(PM10),57,64,55,31,14,65,,75,74,18,17,11,12,0.4,0.4
2026-01-11T2000,3569A,112.8788,36.315,长治市,屯留一中,颗粒物(PM10),57,63,49,22,11,44,,66,63,22,20,14,10,0.7,0.5
2026-01-11T2000,4189A,113.113092,36.199482,长治市,英华南巷50号,颗粒物(PM10),56,61,50,36,28,68,,73,72,13,14,9,10,0.5,0.5
2026-01-11T2000,4190A,113.23666,36.33435,长治市,学府街1号,,47,47,54,19,13,66,,70,70,13,25,9,12,0.4,0.7
2026-01-11T2000,1854A,111.696,28.9725,常德市,市二中,细颗粒物(PM2.5),94,136,115,70,81,63,,83,83,28,26,9,7,0.7,0.7
2026-01-11T2000,3138A,111.7152,29.0288,常德市,武陵区永安,颗粒物(PM10),100,149,120,69,70,71,,82,82,26,27,11,6,0.8,0.8
2026-01-11T2000,3139A,111.6891,28.9881,常德市,鼎城区玉霞,细颗粒物(PM2.5),93,132,124,69,84,62,,83,83,30,33,12,8,0.6,0.7
2026-01-11T2000,3140A,111.6651,29.0526,常德市,武陵区长庚,颗粒物(PM10),90,129,126,56,81,73,,86,86,24,30,8,6,0.7,0.8
2026-01-11T2000,1196A,119.9524,31.7586,常州市,市监测站,颗粒物(PM10),58,66,73,24,23,38,,67,62,42,30,2,3,0.5,0.5
2026-01-11T2000,1200A,119.9351,31.703,常州市,武进监测站,颗粒物(PM10),56,61,86,23,26,38,,65,61,43,38,8,8,0.2,0.3
2026-01-11T2000,3002A,119.9701,31.813,常州市,行政中心,颗粒物(PM10),65,80,90,25,24,31,,63,57,47,33,6,7,0.4,0.4
2026-01-11T2000,3003A,120.0434,31.7726,常州市,经开区,颗粒物(PM10),70,90,90,25,19,12,,66,54,74,33,7,10,0.3,0.3
2026-01-11T2000,3010A,119.8919,31.7892,常州市,钟楼,颗粒物(PM10),58,65,86,22,25,40,,62,58,38,40,7,8,0.3,0.3
2026-01-11T2000,3429A,119.8595,31.706,常州市,武进经发区,颗粒物(PM10),59,67,99,34,33,18,,67,55,72,39,3,7,0.4,0.4
2026-01-11T2000,3430A,119.5812,31.7256,常州市,金坛城区,颗粒物(PM10),66,82,90,33,25,37,,49,48,33,23,8,8,0.7,0.5
2026-01-11T2000,4089A,119.9551,31.863,常州市,崇义南街5-H号,颗粒物(PM10),60,70,89,23,22,32,,60,54,43,42,5,6,0.5,0.5
2026-01-11T2000,2220A,120.4318,41.588,朝阳市,西梁,,35,35,27,15,12,57,,62,60,13,14,5,6,0.5,0.6
2026-01-11T2000,2221A,120.452,41.565,朝阳市,河畔小区,,34,34,23,12,11,64,,65,65,9,12,6,7,0.4,0.4
2026-01-11T2000,2222A,120.4176,41.5648,朝阳市,八里堡,,29,29,26,16,11,55,,64,61,15,14,7,8,0.4,0.4
2026-01-11T2000,3026A,116.6179,23.6608,潮州市,市政府,颗粒物(PM10),74,97,59,40,28,117,,132,132,21,17,11,10,0.5,0.4
2026-01-11T2000,4036A,116.646,23.676,潮州市,金山,颗粒物(PM10),75,99,50,54,33,125,,132,132,19,14,8,5,0.5,0.3
2026-01-11T2000,2473A,113.0116,25.8228,郴州市,市职中,细颗粒物(PM2.5),80,78,64,59,53,38,,83,81,36,25,11,11,0.9,0.8
2026-01-11T2000,2475A,113.0381,25.8074,郴州市,市审计局,细颗粒物(PM2.5),77,80,63,56,49,37,,93,90,46,27,12,9,/,/
2026-01-11T2000,2476A,113.0348,25.7757,郴州市,市环保局,颗粒物(PM10),63,76,74,44,51,54,,84,83,39,32,11,9,0.8,0.8
2026-01-11T2000,4252A,113.0138,25.8011,郴州市,好美居路49号,细颗粒物(PM2.5),85,72,59,63,50,33,,92,88,57,30,18,11,/,/
2026-01-11T2000,1431A,103.9727,30.7242,成都市,金泉两河,细颗粒物(PM2.5),221,194,173,171,141,6,,34,34,79,71,4,4,1.4,1.3
2026-01-11T2000,1432A,104.1423,30.6765,成都市,十里店,细颗粒物(PM2.5),196,183,185,147,149,5,,12,11,86,74,4,5,1.3,1.2
2026-01-11T2000,1433A,104.0594,30.5765,成都市,三瓦窑,细颗粒物(PM2.5),182,149,165,137,146,35,,41,41,71,67,4,6,1.1,1.2
2026-01-11T2000,1434A,104.1122,30.6306,成都市,沙河铺,细颗粒物(PM2.5),211,190,174,161,162,19,,14,13,87,70,3,3,1.1,1.1
2026-01-11T2000,2880A,104.0219,30.6561,成都市,大石西路,细颗粒物(PM2.5),188,177,178,141,135,23,,28,28,75,65,6,6,1.2,1.2
2026-01-11T2000,3136A,104.2724,30.559,成都市,龙泉驿区区政府,细颗粒物(PM2.5),223,202,126,173,107,12,,61,24,71,35,7,6,1.3,0.7
2026-01-11T2000,3357A,104.0028,30.6891,成都市,金博路,,,,157,,130,,,99,,,69,,5,,1.4
2026-01-11T2000,3359A,104.056,30.5228,成都市,华阳,细颗粒物(PM2.5),156,149,160,119,130,37,,28,28,61,63,4,4,1.0,1
2026-01-11T2000,3488A,104.387954,30.746684,成都市,青石路225号,细颗粒物(PM2.5),247,232,160,197,139,3,,27,12,75,59,5,4,1.4,0.9
2026-01-11T2000,3489A,104.0788,30.4054,成都市,科学城,细颗粒物(PM2.5),200,170,145,150,126,18,,26,26,70,45,6,7,0.8,0.8
2026-01-11T2000,4011A,103.8505,30.6946,成都市,光华大道三段,细颗粒物(PM2.5),221,205,180,171,151,13,,50,50,84,54,3,4,1.1,0.9
2026-01-11T2000,4144A,104.3257,30.6406,成都市,八角井街185号,细颗粒物(PM2.5),240,259,161,190,125,1,,60,12,70,38,4,3,1.4,1
2026-01-11T2000,4224A,104.2433276,30.53529463,成都市,鲸龙路1057号,细颗粒物(PM2.5),233,200,137,183,128,2,,29,16,67,45,6,6,1.2,0.9
2026-01-11T2000,1062A,117.9531,40.908,承德市,铁路,颗粒物(PM10),65,79,24,45,9,6,,58,41,49,11,11,7,1.1,0.3
2026-01-11T2000,1063A,117.9397,40.9763,承德市,中国银行,,36,36,22,24,6,18,,60,48,35,8,1,4,0.7,0.3
2026-01-11T2000,4073A,117.9462,40.95,承德市,杏林街1号,,49,42,15,34,11,12,,60,49,40,5,8,6,0.8,0.3
2026-01-11T2000,4274A,117.7994,40.9605,承德市,滨河大街98号,,21,21,16,13,8,36,,59,53,18,6,6,8,0.4,0.3
2026-01-11T2000,2314A,117.4698,30.6617,池州市,池州学院,颗粒物(PM10),70,90,106,39,32,32,,61,58,54,36,8,6,0.9,0.7
2026-01-11T2000,3237A,117.4918,30.6617,池州市,展览馆,颗粒物(PM10),67,84,94,37,27,34,,64,59,42,33,5,3,0.8,0.7
2026-01-11T2000,3333A,117.5626,30.695,池州市,第八中学,颗粒物(PM10),71,92,110,37,30,33,,64,58,49,30,7,5,0.8,0.6
2026-01-11T2000,3334A,117.5037,30.6242,池州市,第十二中学,颗粒物(PM10),71,92,112,35,30,38,,66,62,47,40,6,4,0.5,0.5
2026-01-11T2000,1744A,118.9229,42.2816,赤峰市,松山一中,,30,30,22,14,9,44,,55,53,21,12,13,6,0.9,0.6
2026-01-11T2000,1745A,118.9588,42.2733,赤峰市,哈达街,,26,26,22,10,5,49,,61,59,17,10,5,4,0.7,0.6
2026-01-11T2000,1746A,118.8792,42.2551,赤峰市,天义路,,20,20,12,14,8,59,,70,67,13,6,7,6,0.6,0.5
2026-01-11T2000,3058A,119.2656,42.0356,赤峰市,银河街,,48,48,39,15,14,56,,66,64,10,6,15,11,0.8,0.6
2026-01-11T2000,3286A,118.9359,42.3146,赤峰市,桥北物流园区,,22,18,11,15,8,50,,66,63,20,11,7,5,0.5,0.3
2026-01-11T2000,2521A,107.3473,22.4137,崇左市,市环保局江州分局,颗粒物(PM10),73,96,95,48,70,42,,111,107,66,31,11,11,0.8,0.8
2026-01-11T2000,4256A,107.375,22.3736,崇左市,石景林东路7号,细颗粒物(PM2.5),79,,82,58,77,58,,116,112,48,33,9,9,0.7,0.7
2026-01-11T2000,3207A,118.31131,32.3033,滁州市,市政府原办公楼,颗粒物(PM10),62,73,86,30,27,46,,72,,37,28,9,5,0.5,0.4
2026-01-11T2000,3331A,118.3268,32.2633,滁州市,图书馆,颗粒物(PM10),62,74,79,29,23,36,,68,61,40,22,9,8,0.4,0.4
2026-01-11T2000,4101A,118.3196,32.3335,滁州市,银山路666号,颗粒物(PM10),66,81,94,42,36,25,,64,56,48,27,11,10,0.3,0.3
2026-01-11T2000,4102A,118.3426,32.2979,滁州市,黄山路555号,颗粒物(PM10),65,80,106,37,36,41,,67,67,37,25,12,10,0.7,0.6
2026-01-11T2000,2606A,101.5379,25.0492,楚雄彝族自治州,市经济开发区,,36,36,33,23,27,59,,58,58,8,17,2,3,0.8,0.7
2026-01-11T2000,4153A,101.5536,25.0343,楚雄彝族自治州,团结路562号,,,18,29,,25,,,57,57,4,18,,4,,0.7
2026-01-11T2000,2549A,107.5087,31.2186,达州市,市环境监测站,细颗粒物(PM2.5),213,223,130,163,103,11,,35,31,104,55,10,8,2.2,0.9
2026-01-11T2000,2550A,107.4988,31.2132,达州市,凤凰小区,细颗粒物(PM2.5),243,283,147,193,111,8,,33,30,100,51,11,7,3.2,1.1
2026-01-11T2000,2551A,107.5081,31.1987,达州市,达县机关宾馆,细颗粒物(PM2.5),224,283,157,174,113,6,,33,28,86,51,8,4,2.3,1.1
2026-01-11T2000,2552A,107.4644,31.2124,达州市,市政中心,细颗粒物(PM2.5),199,229,149,149,104,6,,41,38,95,54,8,7,1.9,1
2026-01-11T2000,2614A,100.2168,25.5818,大理白族自治州,大理市环境监测站,,25,24,22,17,17,74,,72,72,7,7,6,6,0.5,0.5
2026-01-11T2000,2615A,100.1542,25.7055,大理白族自治州,大理古城,颗粒物(PM10),80,110,35,11,15,86,,85,85,2,10,7,8,0.4,0.5
2026-01-11T2000,1109A,121.6119,38.974,大连市,甘井子,,27,27,34,16,11,53,,65,63,19,11,9,8,0.2,0.3
2026-01-11T2000,1110A,121.565,38.9509,大连市,周水子,,29,27,30,20,12,30,,58,54,34,12,7,2,0.4,0.3
2026-01-11T2000,1111A,121.5637,38.8849,大连市,星海三站,,21,21,25,10,11,55,,61,61,15,13,5,7,0.4,0.3
2026-01-11T2000,1112A,121.6301,38.9117,大连市,青泥洼桥,,35,35,25,10,9,48,,56,56,13,9,8,8,0.2,0.2
2026-01-11T2000,1113A,121.6248,38.8643,大连市,傅家庄,,21,21,27,6,9,62,,56,56,6,12,6,9,0.3,0.3
2026-01-11T2000,1114A,121.5117,38.8636,大连市,七贤岭,,22,22,29,10,10,52,,59,58,9,7,8,8,0.6,0.5
2026-01-11T2000,1116A,121.7507,39.1339,大连市,金州,,41,41,29,25,15,43,,60,57,26,14,8,8,0.4,0.3
2026-01-11T2000,1117A,121.7811,39.0495,大连市,开发区,,22,22,25,12,10,46,,55,53,18,10,5,5,0.4,0.4
2026-01-11T2000,1118A,121.9762,39.0631,大连市,双D港,,17,14,22,7,11,54,,66,62,10,9,6,8,0.2,0.2
2026-01-11T2000,4082A,121.2548,38.8188,大连市,旅顺,,26,25,21,18,11,50,,62,61,12,6,4,5,0.7,0.6
2026-01-11T2000,1789A,124.8085,46.0381,大庆市,大同区,细颗粒物(PM2.5),68,54,54,49,41,40,,47,44,18,19,8,6,0.8,0.6
2026-01-11T2000,1790A,125.1166,46.5255,大庆市,龙凤区,细颗粒物(PM2.5),68,59,41,49,30,30,,39,37,40,32,8,9,0.8,0.7
2026-01-11T2000,1791A,124.8894,46.4007,大庆市,红岗区,细颗粒物(PM2.5),64,57,40,46,30,20,,40,34,36,21,8,7,0.8,0.6
2026-01-11T2000,1792A,125.1391,46.578,大庆市,萨尔图区,"颗粒物(PM10),细颗粒物(PM2.5)",58,65,47,41,32,33,,34,34,22,29,8,9,0.5,0.6
2026-01-11T2000,1793A,124.9026,46.6217,大庆市,让胡路区,细颗粒物(PM2.5),54,39,37,38,36,35,,54,48,30,17,8,7,0.6,0.5
2026-01-11T2000,3481A,125.127,46.6277,大庆市,萨区政府监测点,颗粒物(PM10),52,54,48,34,33,35,,40,39,24,28,8,9,0.4,0.5
2026-01-11T2000,1723A,113.2926,40.0759,大同市,云冈宾馆,颗粒物(PM10),85,120,51,45,17,9,,53,48,69,22,10,8,1.2,0.7
2026-01-11T2000,1724A,113.3437,40.0921,大同市,大同大学,颗粒物(PM10),57,64,40,32,14,30,,59,54,48,22,7,7,0.8,0.7
2026-01-11T2000,1725A,113.2637,40.129,大同市,安家小村,颗粒物(PM10),61,72,49,12,15,50,,59,55,29,24,7,8,0.3,0.6
2026-01-11T2000,3282A,113.3399,40.0586,大同市,大同市卫生学校,,,84,44,57,16,,,56,53,76,24,10,8,1.4,0.5
2026-01-11T2000,3565A,113.1371,40.1122,大同市,云冈站,,47,47,28,14,8,36,,61,55,24,15,7,6,0.5,0.5
2026-01-11T2000,3566A,113.1186,40.2556,大同市,图书馆,,28,28,33,17,17,46,,67,66,32,15,15,10,0.4,0.4
2026-01-11T2000,3567A,113.5931,40.0459,大同市,区一中,细颗粒物(PM2.5),69,59,32,50,25,39,,70,65,37,17,13,8,0.8,0.5
2026-01-11T2000,4199A,113.2798248,40.09972476,大同市,魏都大道141号,颗粒物(PM10),91,131,57,49,17,12,,54,47,66,29,12,7,1.1,0.8
2026-01-11T2000,2269A,124.1068,50.4091,大兴安岭地区,科技局,细颗粒物(PM2.5),52,51,23,36,21,20,,39,31,22,8,8,6,0.5,0.4
2026-01-11T2000,3663A,124.117,50.4279,大兴安岭地区,红旗社区,细颗粒物(PM2.5),84,73,31,62,27,9,,34,20,43,30,21,9,0.9,0.6
2026-01-11T2000,1600A,124.33,40.0625,丹东市,江湾东路,细颗粒物(PM2.5),152,147,42,116,27,5,,56,38,61,19,31,9,2.2,0.7
2026-01-11T2000,1601A,124.4242,40.1513,丹东市,临江后街,颗粒物(PM10),62,73,35,40,15,43,,58,51,14,12,11,6,1.1,0.6
2026-01-11T2000,1602A,124.3935,40.1461,丹东市,元宝山,,36,36,20,24,13,42,,56,53,17,11,19,9,1.1,0.4
2026-01-11T2000,1603A,124.3634,40.1093,丹东市,民主桥,颗粒物(PM10),80,109,46,58,19,28,,55,42,27,16,14,10,1.3,0.6
2026-01-11T2000,3541A,109.5726195,19.51688767,儋州市,第一中学子站,,47,47,48,24,29,95,,110,109,12,10,5,7,0.6,0.6
2026-01-11T2000,3542A,109.5567,19.5187,儋州市,东坡学校子站,,46,46,45,27,32,108,,122,121,14,10,7,7,0.5,0.6
2026-01-11T2000,2616A,98.5611,24.4273,德宏傣族景颇族自治州,德宏州监测站,细颗粒物(PM2.5),80,86,57,59,44,46,,77,76,37,24,7,8,0.9,0.7
2026-01-11T2000,3677A,98.5887,24.4366,德宏傣族景颇族自治州,芒市人民政府综合楼,颗粒物(PM10),62,73,53,33,32,53,,73,73,19,15,5,5,0.8,0.7
2026-01-11T2000,1901A,104.424,31.1209,德阳市,东山公园,细颗粒物(PM2.5),196,147,133,147,126,46,,48,44,21,25,4,4,1.1,1
2026-01-11T2000,1902A,104.3827,31.1318,德阳市,西小区,细颗粒物(PM2.5),189,167,156,142,122,35,,35,35,38,58,3,4,1.1,1.2
2026-01-11T2000,1904A,104.3553,31.1091,德阳市,耐火材料厂,细颗粒物(PM2.5),208,166,150,158,131,35,,32,32,39,64,2,2,1.0,1
2026-01-11T2000,4145A,104.4144,31.1495,德阳市,市林业局,细颗粒物(PM2.5),210,180,150,160,136,,,32,32,38,52,3,3,1.5,1.1
2026-01-11T2000,1622A,116.3034,37.4675,德州市,儿童乐园,颗粒物(PM10),70,90,50,29,9,41,,60,55,28,22,12,10,0.7,0.8
2026-01-11T2000,1624A,116.2992,37.4449,德州市,监理站,颗粒物(PM10),65,80,42,24,5,47,,67,60,36,21,13,11,0.7,0.5
2026-01-11T2000,3066A,116.2722,37.438,德州市,九衢泉纯净水厂,颗粒物(PM10),74,97,46,36,11,22,,60,48,55,23,17,13,0.7,0.5
2026-01-11T2000,3371A,116.3693,37.44,德州市,开发区人民医院,颗粒物(PM10),70,90,45,29,8,20,,64,56,61,22,14,12,0.8,0.5
2026-01-11T2000,3511A,116.5687,37.3331,德州市,陵城艺术中心,颗粒物(PM10),68,85,48,31,7,35,,60,54,32,20,16,13,0.5,0.2
2026-01-11T2000,4292A,116.352738,37.420875,德州市,新河东路,颗粒物(PM10),73,95,44,39,10,28,,62,53,45,16,15,11,0.9,0.7
2026-01-11T2000,2621A,99.7054,27.8319,迪庆藏族自治州,迪庆州站,,25,21,31,15,20,78,,84,83,7,10,5,5,0.4,0.5
2026-01-11T2000,3180A,99.7122,27.8129,迪庆藏族自治州,质量技术监督局,,26,23,22,10,12,81,,91,90,10,6,5,4,0.5,0.4
2026-01-11T2000,4257A,104.6092,35.5962,定西市,将台街,细颗粒物(PM2.5),127,124,77,96,45,23,,83,79,68,32,57,18,1.7,0.9
2026-01-11T2000,4309A,104.6159,35.5701,定西市,正龙路62号,细颗粒物(PM2.5),117,125,82,88,48,37,,78,76,37,14,43,14,1.3,0.9
2026-01-11T2000,1390A,113.7943,23.0132,东莞市,东城石井,,41,41,39,22,21,76,,113,109,26,31,6,7,0.4,0.4
2026-01-11T2000,1391A,113.7384,22.9659,东莞市,南城西平,,50,50,43,28,24,71,,111,107,48,55,9,10,0.6,0.5
2026-01-11T2000,3319A,113.7283,23.041,东莞市,万江金泰,颗粒物(PM10),66,81,44,41,24,44,,113,106,65,29,6,7,1.1,0.6
2026-01-11T2000,4129A,113.8666,23.1062,东莞市,裕兴路,颗粒物(PM10),61,71,49,33,23,25,,125,110,96,36,6,8,1.2,0.7
2026-01-11T2000,4130A,114.0076,22.9739,东莞市,教育路1号,颗粒物(PM10),68,86,64,34,30,33,,108,97,96,50,5,7,0.8,0.6
2026-01-11T2000,4131A,113.7981,22.8124,东莞市,长怡路1号,颗粒物(PM10),61,71,61,31,30,41,,108,102,72,50,7,9,0.8,0.6
2026-01-11T2000,1666A,118.6612,37.4313,东营市,市环保局,,46,46,31,14,4,47,,67,63,28,20,14,8,0.5,0.5
2026-01-11T2000,3036A,118.6903,37.4337,东营市,开发区管委会,,38,38,33,12,7,55,,72,69,21,14,13,10,0.4,0.4
2026-01-11T2000,3365A,118.5721,37.5654,东营市,垦利区民丰路,,,31,26,7,4,50,,69,64,,16,7,3,0.4,0.4
2026-01-11T2000,3498A,118.5063,37.8606,东营市,河口城区,,24,24,27,3,1,61,,73,69,18,14,4,3,0.6,0.5
2026-01-11T2000,3646A,118.4979,37.4623,东营市,胜利站,,33,33,29,14,6,36,,65,58,40,21,15,11,0.3,0.3
2026-01-11T2000,3734A,118.5753,37.4405,东营市,理想之城,,24,24,31,12,10,28,,65,57,40,17,9,5,0.7,0.6
2026-01-11T2000,1591A,110.0024,39.8127,鄂尔多斯市,综合楼,,31,31,25,7,8,41,,55,54,32,20,8,7,0.5,0.4
2026-01-11T2000,1592A,109.9485,39.8259,鄂尔多斯市,巴音孟克林场办事处,,36,36,28,12,9,58,,64,64,18,15,7,9,0.4,0.4
2026-01-11T2000,1593A,109.7734,39.5987,鄂尔多斯市,康泽苑,,44,44,34,19,13,51,,66,66,22,21,6,6,0.4,0.4
2026-01-11T2000,1594A,109.8121,39.5987,鄂尔多斯市,华泰汽车城,,44,44,36,19,11,53,,68,68,22,27,6,5,0.3,0.3
2026-01-11T2000,1595A,109.9734,39.7884,鄂尔多斯市,奥林花园,,44,44,38,14,9,22,,59,55,52,30,3,2,0.5,0.4
2026-01-11T2000,2436A,114.894,30.3989,鄂州市,市政府,颗粒物(PM10),57,63,89,26,26,61,,72,72,31,29,10,9,0.7,0.6
2026-01-11T2000,2437A,114.8986,30.3714,鄂州市,赵家坝,颗粒物(PM10),64,78,102,28,28,62,,68,68,17,18,11,12,1.0,0.6
2026-01-11T2000,3654A,114.8093,30.4091,鄂州市,精准医疗中心,颗粒物(PM10),62,74,90,28,32,66,,72,72,28,36,10,9,0.9,0.6
2026-01-11T2000,2454A,109.4978,30.2979,恩施土家族苗族自治州,湖北民院,细颗粒物(PM2.5),80,64,81,59,80,46,,81,81,29,22,6,6,1.1,1
2026-01-11T2000,3549A,109.5061,30.3771,恩施土家族苗族自治州,龙凤新区,细颗粒物(PM2.5),62,63,83,44,67,27,,72,70,43,14,6,7,0.8,0.5
2026-01-11T2000,2499A,108.3411,21.6159,防城港市,沙万,颗粒物(PM10),79,107,78,41,47,62,,99,91,77,30,11,10,0.6,0.6
2026-01-11T2000,2500A,108.3515,21.7733,防城港市,防城档案局,颗粒物(PM10),93,135,97,66,54,33,,107,99,60,24,6,8,0.9,0.7
2026-01-11T2000,2501A,108.3506,21.6414,防城港市,大海花园,颗粒物(PM10),63,75,70,44,50,78,,112,108,66,25,12,15,0.7,0.8
2026-01-11T2000,1371A,113.1293,23.0065,佛山市,湾梁,,46,46,38,28,20,75,,97,96,34,37,/,/,/,/
2026-01-11T2000,1372A,113.1082,23.0477,佛山市,华材职中,颗粒物(PM10),57,63,49,25,26,50,,93,90,60,47,6,8,0.6,0.5
2026-01-11T2000,1373A,113.1439,23.045,佛山市,南海气象局,,46,46,37,27,27,80,,100,100,42,39,/,/,/,/
2026-01-11T2000,1374A,113.2879,22.8094,佛山市,顺德苏岗,颗粒物(PM10),53,55,34,34,21,85,,118,118,44,37,/,/,0.8,0.6
2026-01-11T2000,1376A,112.8384,22.8678,佛山市,高明孔堂,,45,45,45,30,30,80,,94,94,28,32,/,/,/,/
2026-01-11T2000,1377A,112.8835,23.1584,佛山市,三水监测站,颗粒物(PM10),64,78,52,43,30,9,,98,85,112,42,6,9,0.9,0.7
2026-01-11T2000,1378A,112.8668,23.185,佛山市,三水云东海,颗粒物(PM10),51,51,44,26,26,61,,105,102,45,28,/,/,/,/
2026-01-11T2000,3625A,113.2568,22.7629,佛山市,容桂街道办,"颗粒物(PM10),细颗粒物(PM2.5)",58,66,43,41,26,105,,120,120,44,41,/,/,/,/
2026-01-11T2000,1282A,119.2681,26.0506,福州市,师大,颗粒物(PM10),72,94,66,21,35,99,,120,120,25,37,4,5,0.5,0.6
2026-01-11T2000,1283A,119.2983,26.1028,福州市,五四北路,颗粒物(PM10),67,84,56,18,32,102,,119,119,21,31,5,6,0.5,0.7
2026-01-11T2000,1284A,119.2648,26.0769,福州市,杨桥西路,颗粒物(PM10),67,83,61,18,34,104,,121,121,16,27,5,6,/,/
2026-01-11T2000,3048A,119.5799,26.0937,福州市,九龙,颗粒物(PM10),66,81,55,14,29,104,,120,119,16,24,5,6,0.5,0.6
2026-01-11T2000,3526A,119.5188,25.9666,福州市,吴航,颗粒物(PM10),54,58,64,16,32,101,,121,119,17,35,5,7,0.5,0.6
2026-01-11T2000,4104A,119.3106,26.0648,福州市,路通桥巷6号,颗粒物(PM10),55,59,64,23,38,94,,116,116,22,30,/,/,/,/
2026-01-11T2000,1755A,123.7974,41.8494,抚顺市,望花区,,48,48,48,33,35,32,,49,44,30,34,29,9,0.8,0.9
2026-01-11T2000,1756A,123.9161,41.8827,抚顺市,顺城区,,40,40,65,23,43,38,,48,45,30,39,7,9,0.8,1
2026-01-11T2000,1757A,124.0437,41.8615,抚顺市,东洲区,细颗粒物(PM2.5),75,,56,55,43,46,,48,48,40,35,10,46,0.7,1.2
2026-01-11T2000,1758A,123.9246,41.8638,抚顺市,新抚区,,,,75,,48,28,,51,43,,44,,7,1.1,1.3
2026-01-11T2000,1759A,124.0972,41.8961,抚顺市,大伙房水库,,46,36,48,32,36,41,,47,46,16,21,10,11,0.8,1
2026-01-11T2000,1760A,123.708,41.8386,抚顺市,沈抚新城,颗粒物(PM10),54,58,41,37,28,37,,54,48,28,27,7,7,0.7,0.7
2026-01-11T2000,2377A,116.3544,27.9833,抚州市,市站,颗粒物(PM10),64,78,73,41,34,80,,94,94,20,15,42,12,0.2,0.3
2026-01-11T2000,2378A,116.3562,27.9631,抚州市,血防站,颗粒物(PM10),63,75,68,38,35,81,,95,95,24,18,32,9,1.0,0.9
2026-01-11T2000,2379A,116.3561,28.0007,抚州市,采茶剧团,颗粒物(PM10),62,74,72,40,34,87,,100,100,20,13,18,8,0.7,0.7
2026-01-11T2000,2380A,116.3854,27.9648,抚州市,医学分院,颗粒物(PM10),72,94,76,37,32,80,,96,96,14,10,13,10,0.7,0.6
2026-01-11T2000,2207A,121.6095,41.9978,阜新市,工业园区,,44,44,24,17,14,60,,66,63,8,7,10,9,0.4,0.4
2026-01-11T2000,2208A,121.6567,42.0188,阜新市,长青街,,42,42,19,18,9,55,,62,61,13,7,13,7,0.4,0.3
2026-01-11T2000,2209A,121.6672,42.07,阜新市,农业园区,,41,41,23,17,10,53,,56,56,11,7,12,9,0.4,0.3
2026-01-11T2000,2211A,121.6343,42.0455,阜新市,玉龙新城,,43,43,29,16,9,58,,62,61,10,10,9,6,0.4,0.4
2026-01-11T2000,2301A,115.8276,32.8929,阜阳市,市监测站,颗粒物(PM10),68,85,71,34,28,46,,67,64,35,26,6,6,0.4,0.3
2026-01-11T2000,2303A,115.8551,32.8606,阜阳市,开发区,颗粒物(PM10),82,114,70,41,26,52,,64,62,31,27,7,6,0.4,0.4
2026-01-11T2000,2875A,115.783962,32.889217,阜阳市,阜阳职业技术学院,颗粒物(PM10),62,73,61,30,23,66,,69,69,21,24,9,8,0.4,0.4
2026-01-11T2000,3468A,115.79,32.8614,阜阳市,市规划展馆,颗粒物(PM10),55,60,89,32,27,68,,71,71,18,18,7,7,0.5,0.5
2026-01-11T2000,3469A,115.835101,32.918568,阜阳市,枣园社区,颗粒物(PM10),60,69,74,36,26,44,,67,63,38,28,5,6,0.4,0.4
2026-01-11T2000,2669A,102.9097,34.9841,甘南藏族自治州,州政府,颗粒物(PM10),63,76,50,33,28,20,,74,71,58,36,20,11,1.3,0.8
2026-01-11T2000,3380A,102.8915,34.9618,甘南藏族自治州,甘肃民族师范学院,颗粒物(PM10),58,66,53,11,12,23,,76,73,51,30,10,16,0.7,0.6
2026-01-11T2000,2570A,101.96,30.048,甘孜藏族自治州,水桥子,,31,31,19,15,8,78,,87,87,10,13,6,6,0.5,0.3
2026-01-11T2000,3065A,101.9534,29.9976,甘孜藏族自治州,州环保局,,31,31,20,10,7,58,,86,83,20,10,5,5,0.4,0.4
2026-01-11T2000,2363A,114.9368,25.8663,赣州市,地委,,50,50,44,26,27,100,,110,110,20,28,9,9,0.8,0.7
2026-01-11T2000,2364A,114.946,25.8483,赣州市,气象台,颗粒物(PM10),62,73,62,27,27,100,,110,109,31,45,5,5,0.6,0.6
2026-01-11T2000,2365A,114.932,25.8332,赣州市,市图书馆,颗粒物(PM10),56,62,52,32,29,93,,98,98,19,37,5,5,0.6,0.6
2026-01-11T2000,2366A,114.8905,25.8472,赣州市,华坚鞋城,颗粒物(PM10),52,54,52,31,30,73,,83,83,28,32,8,9,0.4,0.4
2026-01-11T2000,3109A,115.0094,25.8614,赣州市,赣县区卫计委,细颗粒物(PM2.5),70,72,47,51,35,50,,104,100,37,25,7,7,0.6,0.6
2026-01-11T2000,2684A,106.2753,36.0057,固原市,监测站,颗粒物(PM10),65,79,56,34,28,60,,80,79,30,26,5,6,0.7,0.8
2026-01-11T2000,2685A,106.2384,36.0189,固原市,新区,细颗粒物(PM2.5),65,59,55,47,26,66,,85,82,26,29,4,3,0.6,0.7
2026-01-11T2000,2544A,106.6307,30.4577,广安市,市委,细颗粒物(PM2.5),218,174,166,168,157,42,,42,42,28,29,9,9,1.2,1.1
2026-01-11T2000,2545A,106.6266,30.4662,广安市,友谊中学,细颗粒物(PM2.5),203,178,153,153,141,43,,47,47,35,26,5,5,1.2,1
2026-01-11T2000,2547A,106.6386,30.4551,广安市,广电花园,细颗粒物(PM2.5),208,171,156,158,142,32,,38,38,34,26,9,8,1.0,0.9
2026-01-11T2000,2902A,106.6347,30.4868,广安市,北辰小学,细颗粒物(PM2.5),209,173,156,159,140,40,,48,47,33,24,16,16,1.4,1.2
2026-01-11T2000,2524A,105.8211,32.4444,广元市,老城,细颗粒物(PM2.5),114,151,77,86,45,6,,15,14,74,55,27,21,1.7,1.1
2026-01-11T2000,2526A,105.8629,32.429,广元市,监测站,细颗粒物(PM2.5),163,154,87,124,58,0,,16,12,74,48,38,22,2.8,1.5
2026-01-11T2000,3617A,105.8047,32.4167,广元市,经开区,细颗粒物(PM2.5),159,174,100,121,66,2,,11,10,72,54,31,30,2.3,1.6
2026-01-11T2000,1345A,113.2346,23.1423,广州市,广雅中学,颗粒物(PM10),62,74,51,41,29,9,,95,84,113,52,4,5,1.1,0.8
2026-01-11T2000,1346A,113.2611,23.105,广州市,市五中,细颗粒物(PM2.5),72,80,39,52,25,38,,111,101,87,38,8,10,/,/
2026-01-11T2000,1348A,113.3477,23.0916,广州市,广东商学院,颗粒物(PM10),55,59,38,31,22,49,,98,90,60,28,7,8,0.3,0.2
2026-01-11T2000,1349A,113.4332,23.105,广州市,市八十六中,颗粒物(PM10),56,62,38,36,23,33,,99,88,91,49,9,10,/,/
2026-01-11T2000,1350A,113.3506,22.9488,广州市,番禺中学,细颗粒物(PM2.5),84,106,45,62,25,28,,112,105,95,38,3,4,1.0,0.5
2026-01-11T2000,1351A,113.2147,23.3918,广州市,花都师范,颗粒物(PM10),56,61,36,35,21,69,,112,108,50,18,8,9,0.7,0.5
2026-01-11T2000,1352A,113.2599,23.1329,广州市,市监测站,细颗粒物(PM2.5),62,,36,44,24,51,,98,92,74,44,2,4,/,/
2026-01-11T2000,1353A,113.5618,23.3119,广州市,九龙镇镇龙,颗粒物(PM10),64,77,49,37,26,20,,96,82,75,31,6,7,0.6,0.4
2026-01-11T2000,1354A,113.2764,23.1544,广州市,麓湖,二氧化氮(NO2),55,49,34,28,21,5,,96,83,110,34,9,10,0.5,0.3
2026-01-11T2000,2846A,113.3209,23.1323,广州市,体育西,细颗粒物(PM2.5),75,89,39,55,25,49,,94,88,68,32,8,9,1.0,0.5
2026-01-11T2000,3298A,113.5718,23.5493,广州市,从化街口,细颗粒物(PM2.5),60,68,35,43,23,56,,109,99,42,25,10,10,0.7,0.4
2026-01-11T2000,3299A,113.3463,23.369,广州市,白云竹料,细颗粒物(PM2.5),78,102,40,57,23,23,,117,108,88,28,6,6,1.2,0.5
2026-01-11T2000,3300A,113.2981,23.2365,广州市,白云嘉禾,细颗粒物(PM2.5),90,124,56,67,28,7,,111,94,117,56,6,7,/,/
2026-01-11T2000,3301A,113.4256,23.1716,广州市,黄埔科学城,,50,50,34,28,21,34,,106,98,51,23,6,9,0.6,0.5
2026-01-11T2000,3302A,113.3942,23.0485,广州市,番禺大学城,,48,48,41,28,23,96,,113,113,27,34,12,12,0.5,0.4
2026-01-11T2000,3303A,113.4923,22.8169,广州市,南沙黄阁,颗粒物(PM10),58,65,50,29,25,51,,119,114,76,50,7,10,/,/
2026-01-11T2000,3304A,113.534,22.7893,广州市,南沙街,,43,43,50,25,25,105,,127,127,26,40,6,7,0.4,0.4
2026-01-11T2000,3443A,113.2905,23.5541,广州市,花都梯面,颗粒物(PM10),52,53,32,28,20,22,,108,89,65,17,6,11,/,/
2026-01-11T2000,3445A,113.786,23.7479,广州市,从化良口,,28,27,24,19,17,77,,97,94,13,10,8,9,/,/
2026-01-11T2000,3446A,113.805,23.2614,广州市,增城荔城,,43,43,33,22,22,17,,104,90,68,18,6,8,0.7,0.5
2026-01-11T2000,2506A,109.604387,23.066791,贵港市,江南子站,颗粒物(PM10),62,73,110,39,77,79,,111,111,34,45,7,9,0.7,0.9
2026-01-11T2000,2508A,109.5669,23.1065,贵港市,荷城子站,颗粒物(PM10),59,68,71,39,52,62,,104,101,38,26,7,8,0.9,0.9
2026-01-11T2000,3405A,109.5886,23.1172,贵港市,新世纪学校,颗粒物(PM10),62,73,72,38,49,56,,109,104,42,20,/,/,0.5,0.4
2026-01-11T2000,4260A,109.5933,23.095,贵港市,中山路155-3号,细颗粒物(PM2.5),54,52,75,38,59,71,,111,110,39,30,/,/,0.8,0.7
2026-01-11T2000,1439A,106.6863,26.6035,贵阳市,马鞍山,细颗粒物(PM2.5),73,63,79,53,72,77,,78,78,20,19,9,8,/,/
2026-01-11T2000,1441A,106.6241,26.6266,贵阳市,鉴湖路,细颗粒物(PM2.5),62,63,80,44,60,82,,81,81,15,18,8,7,0.6,0.6
2026-01-11T2000,1442A,106.7468,26.6344,贵阳市,燕子冲,,,,97,,94,,,46,,,18,,8,,0.8
2026-01-11T2000,1443A,106.6556,26.4362,贵阳市,碧云窝,,,70,82,51,63,,,97,97,15,20,11,12,/,/
2026-01-11T2000,1445A,106.6963,26.6063,贵阳市,红边门,,,,87,,75,,,50,,,21,,11,,
2026-01-11T2000,1446A,106.7162383,26.56964667,贵阳市,新华路,细颗粒物(PM2.5),73,70,86,53,65,56,,66,66,33,22,17,10,0.7,0.7
2026-01-11T2000,1447A,106.6742,26.542,贵阳市,太慈桥,细颗粒物(PM2.5),73,66,76,53,62,67,,70,70,22,22,6,5,/,/
2026-01-11T2000,4230A,106.688212,26.56952,贵阳市,花果园大街66号,细颗粒物(PM2.5),59,63,73,42,47,58,,66,66,27,23,8,7,/,/
2026-01-11T2000,4231A,106.687268,26.516892,贵阳市,漓江路57号,细颗粒物(PM2.5),79,73,80,58,64,65,,74,74,30,23,23,12,1.0,1
2026-01-11T2000,1864A,110.3091,25.2705,桂林市,龙隐路小学,细颗粒物(PM2.5),89,67,55,66,53,50,,119,112,54,14,9,12,0.9,0.6
2026-01-11T2000,1865A,110.2849361,25.22909545,桂林市,八中,细颗粒物(PM2.5),115,95,59,87,54,51,,107,99,45,22,10,13,0.8,0.5
2026-01-11T2000,3531A,110.296,25.1254,桂林市,旅游学院,细颗粒物(PM2.5),77,85,47,56,37,46,,116,109,65,16,7,10,0.5,0.3
2026-01-11T2000,4222A,110.1835,25.2444,桂林市,环湖路276号,细颗粒物(PM2.5),110,105,56,83,46,44,,112,104,51,12,8,14,1.2,0.6
2026-01-11T2000,4301A,110.2803,25.2773,桂林市,信义路13号,细颗粒物(PM2.5),69,78,56,50,43,50,,119,110,56,18,7,11,1.0,0.6
2026-01-11T2000,2674A,100.2262,34.4854,果洛藏族自治州,玛沁县大武镇,颗粒物(PM10),51,51,34,16,9,77,,86,86,2,7,9,16,0.3,0.4
2026-01-11T2000,1130A,126.5557,45.8109,哈尔滨市,松北商大,细颗粒物(PM2.5),83,78,58,61,46,6,,40,31,60,29,9,14,0.8,0.6
2026-01-11T2000,1132A,126.6162,45.719,哈尔滨市,南岗学府路,细颗粒物(PM2.5),165,134,61,125,46,4,,38,30,61,33,15,28,1.4,0.9
2026-01-11T2000,1133A,126.6894,45.7733,哈尔滨市,太平宏伟公园,细颗粒物(PM2.5),114,113,55,86,42,8,,40,32,61,29,18,32,1.1,0.8
2026-01-11T2000,1134A,126.6361,45.7672,哈尔滨市,道外承德广场,细颗粒物(PM2.5),85,95,71,63,43,8,,41,32,62,32,16,18,1.0,0.9
2026-01-11T2000,1136A,126.644,45.7261,哈尔滨市,动力和平路,细颗粒物(PM2.5),129,127,59,98,46,10,,38,31,56,31,22,20,1.2,0.9
2026-01-11T2000,1137A,126.5933,45.7479,哈尔滨市,道里建国路,细颗粒物(PM2.5),125,,53,95,50,6,,40,31,64,30,18,17,1.5,0.6
2026-01-11T2000,1138A,126.6127,45.6119,哈尔滨市,平房东轻厂,细颗粒物(PM2.5),89,82,69,66,57,19,,40,35,38,40,8,9,0.9,0.9
2026-01-11T2000,1139A,126.5875,45.9827,哈尔滨市,呼兰师专,细颗粒物(PM2.5),119,98,61,90,62,14,,41,32,52,27,11,8,1.0,0.7
2026-01-11T2000,1140A,126.6299,45.6799,哈尔滨市,省农科院,细颗粒物(PM2.5),179,135,75,135,61,11,,36,28,67,42,19,17,1.2,0.7
2026-01-11T2000,4282A,126.6769,45.7379,哈尔滨市,华山路1号,细颗粒物(PM2.5),94,80,53,70,42,14,,36,28,54,32,24,29,0.9,0.8
2026-01-11T2000,4283A,126.9717,45.5356,哈尔滨市,解放大街52号,细颗粒物(PM2.5),102,81,84,76,74,17,,40,36,46,36,14,16,0.9,1
2026-01-11T2000,2688A,93.5124,42.8176,哈密市,地区监测站,,,94,122,42,60,,,59,59,22,21,5,3,0.4,0.4
2026-01-11T2000,2689A,93.5014,42.8312,哈密市,哈密师范学校,颗粒物(PM10),83,115,124,35,44,38,,56,55,26,26,10,5,0.7,0.6
2026-01-11T2000,2671A,100.9016,36.9464,海北藏族自治州,海晏县西海镇,,28,,11,19,11,78,,81,81,1,2,8,6,0.3,0.3
2026-01-11T2000,3867A,102.074,36.5056,海东市,平安区公安局北苑,颗粒物(PM10),52,53,52,24,25,44,,56,56,24,26,16,18,0.9,1.2
2026-01-11T2000,4163A,102.0984,36.5119,海东市,滨河路,颗粒物(PM10),68,86,48,30,32,12,,63,57,64,41,16,17,1.0,1.2
2026-01-11T2000,1410A,110.3189,20.0596,海口市,海南大学,,49,43,34,25,21,156,,145,145,16,14,7,8,0.2,0.2
2026-01-11T2000,1411A,110.2827,20.0051,海口市,秀英海南医院,,44,40,46,23,26,138,,129,129,13,27,9,10,0.3,0.4
2026-01-11T2000,1412A,110.3391,19.9979,海口市,海南师范大学,,47,41,41,26,25,148,,139,139,15,18,7,8,0.3,0.4
2026-01-11T2000,1413A,110.3303,20.0359,海口市,龙华路环保局宿舍,,47,44,39,25,22,149,,138,138,15,16,/,/,0.6,0.5
2026-01-11T2000,3539A,110.5111,19.9737,海口市,桂林洋子站,颗粒物(PM10),51,52,49,29,26,126,,135,135,21,18,/,/,/,/
2026-01-11T2000,4134A,110.1952,20.0451,海口市,长滨二路9号,,44,33,36,21,24,139,,126,126,10,20,/,/,/,/
2026-01-11T2000,2673A,100.6158,36.2985,海南藏族自治州,共和县恰卜恰镇,颗粒物(PM10),55,59,28,20,13,49,,72,71,26,16,12,12,0.4,0.4
2026-01-11T2000,2676A,97.373,37.376,海西蒙古族藏族自治州,德令哈市,颗粒物(PM10),53,56,20,29,11,84,,76,76,14,5,11,13,0.7,0.5
2026-01-11T2000,1049A,114.492,36.5712,邯郸市,矿院,颗粒物(PM10),57,64,49,36,21,43,,66,61,24,18,2,5,0.4,0.3
2026-01-11T2000,1050A,114.4839,36.6136,邯郸市,丛台公园,颗粒物(PM10),58,65,45,29,17,48,,65,61,21,16,1,4,0.4,0.3
2026-01-11T2000,3458A,114.7893,36.5592,邯郸市,香泉濮院小区,颗粒物(PM10),70,89,45,39,18,53,,71,67,21,13,4,2,0.5,0.4
2026-01-11T2000,3580A,114.1998,36.4439,邯郸市,峰峰矿区临水派出所,颗粒物(PM10),54,57,46,31,16,48,,64,61,20,15,11,6,1.0,0.5
2026-01-11T2000,4068A,114.5209,36.7697,邯郸市,建安街268号,颗粒物(PM10),53,55,54,25,10,41,,63,59,26,22,5,4,0.4,0.3
2026-01-11T2000,4069A,114.5488,36.6177,邯郸市,丛台东路558号,颗粒物(PM10),53,56,45,24,15,33,,71,63,33,26,5,8,0.5,0.3
2026-01-11T2000,2635A,107.0155,33.0707,汉中市,市监测站,细颗粒物(PM2.5),114,97,97,86,84,35,,62,61,54,40,6,6,1.1,1.2
2026-01-11T2000,2636A,107.0083,33.114,汉中市,鑫源开发区,细颗粒物(PM2.5),97,87,85,72,71,46,,70,69,43,43,7,8,1.0,1
2026-01-11T2000,2637A,107.0072,33.0323,汉中市,南郑大河坎水厂,细颗粒物(PM2.5),158,148,111,120,81,27,,59,55,56,33,8,6,1.3,1
2026-01-11T2000,1223A,120.2073,30.2111,杭州市,滨江,颗粒物(PM10),61,72,137,25,30,47,,59,58,34,28,8,8,0.3,0.4
2026-01-11T2000,1224A,120.0625,30.2737,杭州市,西溪,颗粒物(PM10),61,72,101,22,27,53,,62,61,26,28,10,10,0.9,0.8
2026-01-11T2000,1226A,120.3417,30.315,杭州市,下沙,颗粒物(PM10),66,82,122,27,32,9,,64,54,83,38,11,11,0.6,0.6
2026-01-11T2000,1227A,120.1252,30.2465,杭州市,卧龙桥,颗粒物(PM10),64,78,93,27,27,18,,64,56,46,24,9,10,0.5,0.3
2026-01-11T2000,1228A,120.1902,30.2691,杭州市,浙江农大,颗粒物(PM10),59,68,113,25,30,47,,61,60,43,37,8,7,0.4,0.4
2026-01-11T2000,1230A,120.1195,30.3121,杭州市,和睦小学,颗粒物(PM10),59,67,113,29,32,47,,62,61,35,26,7,7,0.5,0.6
2026-01-11T2000,1231A,120.3076,30.4146,杭州市,临平镇,颗粒物(PM10),60,70,140,24,29,41,,64,62,34,22,10,10,0.4,0.4
2026-01-11T2000,1232A,120.2753,30.1839,杭州市,城厢镇,颗粒物(PM10),72,94,125,23,32,45,,65,61,35,25,9,8,0.4,0.4
2026-01-11T2000,1233A,120.0883,30.1808,杭州市,云栖,颗粒物(PM10),66,82,91,27,24,34,,68,61,30,20,4,4,0.5,0.4
2026-01-11T2000,3557A,119.9463,30.0496,杭州市,镇二中,颗粒物(PM10),66,82,84,34,35,41,,60,58,43,41,7,6,0.6,0.6
2026-01-11T2000,3558A,119.7184,30.2367,杭州市,市府大楼,颗粒物(PM10),63,76,91,27,38,46,,67,63,31,28,12,11,0.5,0.6
2026-01-11T2000,3656A,120.1554,30.2863,杭州市,消防大队,颗粒物(PM10),66,81,114,28,31,37,,59,57,42,26,8,8,0.4,0.3
2026-01-11T2000,1270A,117.1957,31.7845,合肥市,明珠广场,颗粒物(PM10),57,63,96,19,25,49,,54,53,34,41,6,7,0.5,0.5
2026-01-11T2000,1271A,117.307,31.8765,合肥市,三里街,颗粒物(PM10),53,56,79,22,21,45,,59,56,38,36,7,6,0.5,0.4
2026-01-11T2000,1272A,117.2587,31.8703,合肥市,琥珀山庄,颗粒物(PM10),58,66,89,24,28,48,,65,63,37,33,9,8,0.7,0.7
2026-01-11T2000,1275A,117.2593,31.9376,合肥市,庐阳区,颗粒物(PM10),63,75,98,24,22,30,,66,58,61,40,6,6,0.8,0.7
2026-01-11T2000,1276A,117.345251,31.861615,合肥市,瑶海区,颗粒物(PM10),64,78,84,29,21,34,,64,58,59,36,5,5,0.6,0.5
2026-01-11T2000,1277A,117.3033,31.7967,合肥市,包河区,颗粒物(PM10),57,63,82,24,24,54,,62,62,28,40,7,6,0.6,0.6
2026-01-11T2000,1278A,117.278,31.7392,合肥市,滨湖新区,,,58,99,17,30,,,71,71,19,42,4,4,0.5,0.5
2026-01-11T2000,1279A,117.1324,31.8395,合肥市,高新区,颗粒物(PM10),56,61,88,15,21,40,,62,58,48,35,5,5,0.4,0.4
2026-01-11T2000,3464A,117.3802,31.9148,合肥市,高教基地,颗粒物(PM10),67,83,93,40,26,28,,69,62,49,36,8,7,0.6,0.5
2026-01-11T2000,4098A,117.2518,31.8404,合肥市,中国科学技术大学,颗粒物(PM10),54,58,74,17,20,58,,66,65,28,28,8,8,0.4,0.4
2026-01-11T2000,3614A,79.9241,37.0878,和田地区,地区环保局,颗粒物(PM10),80,110,94,45,46,63,,76,76,35,38,4,8,0.1,0.5
2026-01-11T2000,3615A,79.9132,37.1137,和田地区,市环保局,颗粒物(PM10),65,79,100,26,48,71,,79,79,30,54,2,6,1.2,1.7
2026-01-11T2000,2517A,108.0496,24.6957,河池市,市环保站,,50,36,63,35,48,71,,91,91,14,27,10,5,0.7,0.7
2026-01-11T2000,4302A,108.0901,24.6945,河池市,上任中路54号,细颗粒物(PM2.5),75,,60,55,44,31,,80,77,50,32,10,8,0.8,0.8
2026-01-11T2000,1697A,114.6962,23.7538,河源市,东埔,细颗粒物(PM2.5),79,85,37,58,26,13,,104,92,85,25,7,8,1.2,0.6
2026-01-11T2000,1698A,114.6895,23.7232,河源市,老城,,50,50,35,21,20,73,,104,102,17,20,6,8,0.7,0.7
2026-01-11T2000,3374A,115.5562,35.089,菏泽市,定陶老年大学,颗粒物(PM10),69,88,62,34,15,51,,66,64,25,19,3,4,0.3,0.2
2026-01-11T2000,4114A,115.4239,35.2593,菏泽市,黄河路600号,颗粒物(PM10),69,87,73,30,20,49,,65,63,30,22,3,4,0.5,0.4
2026-01-11T2000,4115A,115.5025,35.2727,菏泽市,菏泽市人社局,颗粒物(PM10),64,77,63,28,18,47,,61,60,26,21,3,4,0.4,0.4
2026-01-11T2000,4184A,115.479691,35.244011,菏泽市,永昌路1号,颗粒物(PM10),65,80,71,29,22,50,,65,62,30,19,5,6,0.4,0.3
2026-01-11T2000,4193A,115.471542,35.280012,菏泽市,长城路999号,颗粒物(PM10),67,83,77,23,18,55,,66,66,25,21,3,5,0.5,0.5
2026-01-11T2000,2514A,111.5264,24.4178,贺州市,环保小区,颗粒物(PM10),79,108,58,38,44,43,,92,87,42,23,10,8,0.7,0.5
2026-01-11T2000,2515A,111.561,24.4074,贺州市,政协大楼,,,,53,41,39,33,,96,86,51,30,13,11,0.8,0.7
2026-01-11T2000,3534A,111.4744,24.455,贺州市,西湾,颗粒物(PM10),51,51,58,22,36,15,,94,86,75,30,10,9,0.7,0.6
2026-01-11T2000,2385A,114.17,35.9019,鹤壁市,市监测站,,43,43,53,30,18,56,,61,60,21,19,6,6,0.5,0.5
2026-01-11T2000,2386A,114.2953,35.7512,鹤壁市,市交警支队,颗粒物(PM10),64,78,57,29,15,38,,57,54,26,23,6,2,0.4,0.4
2026-01-11T2000,2387A,114.2877,35.7302,鹤壁市,迎宾馆,颗粒物(PM10),67,84,60,35,18,32,,58,54,27,21,4,5,0.6,0.5
2026-01-11T2000,3474A,114.2616,35.6824,鹤壁市,大新区,颗粒物(PM10),59,68,59,39,16,21,,55,48,41,22,4,4,0.4,0.3
2026-01-11T2000,3596A,114.1573,35.9607,鹤壁市,南山宾馆,,,68,66,23,16,,,62,62,16,11,8,4,0.5,0.5
2026-01-11T2000,2244A,130.2537,47.3416,鹤岗市,哈啤分公司,,25,20,19,17,15,56,,62,59,5,4,6,6,0.4,0.4
2026-01-11T2000,2245A,130.2683,47.3087,鹤岗市,斯达机电,,28,21,21,19,21,55,,60,55,5,6,6,5,0.4,0.4
2026-01-11T2000,2246A,130.3114,47.3388,鹤岗市,东山纸板厂,,28,,17,19,17,57,,62,59,2,4,6,8,0.3,0.3
2026-01-11T2000,2263A,127.4832,50.2524,黑河市,交通局,,45,41,24,31,20,27,,44,34,25,16,16,6,0.6,0.5
2026-01-11T2000,2264A,127.5146,50.2339,黑河市,环保局,,27,27,18,18,21,35,,46,39,19,15,10,7,0.4,0.3
2026-01-11T2000,1074A,115.6839,37.754,衡水市,电机北厂,颗粒物(PM10),51,51,45,18,13,38,,58,55,27,13,6,4,0.4,0.3
2026-01-11T2000,1075A,115.6303,37.7318,衡水市,市监测站,颗粒物(PM10),56,62,44,21,12,33,,57,51,30,11,7,5,0.4,0.3
2026-01-11T2000,3188A,115.6684,37.7216,衡水市,市城管局,颗粒物(PM10),62,74,52,30,16,23,,57,52,40,12,6,4,0.5,0.4
2026-01-11T2000,3459A,115.599,37.5491,衡水市,地表水厂,颗粒物(PM10),52,53,44,17,9,22,,59,48,35,13,5,3,0.4,0.3
2026-01-11T2000,2457A,112.6209,26.9268,衡阳市,衡阳化工总厂,细颗粒物(PM2.5),89,82,111,66,99,89,,108,108,29,33,14,13,1.0,1.1
2026-01-11T2000,2458A,112.621,26.8957,衡阳市,珠晖区环保局,细颗粒物(PM2.5),97,87,115,72,101,71,,102,102,55,40,10,10,1.2,1.6
2026-01-11T2000,2459A,112.628,26.8654,衡阳市,市委党校,细颗粒物(PM2.5),85,71,110,63,97,101,,115,115,25,35,16,14,1.0,1.2
2026-01-11T2000,2460A,112.6007,26.8977,衡阳市,市监测站,细颗粒物(PM2.5),139,164,149,106,100,50,,102,99,62,36,11,12,2.0,1.6
2026-01-11T2000,2461A,112.5658,26.9013,衡阳市,真空机电公司,细颗粒物(PM2.5),89,95,132,66,99,77,,103,103,46,41,12,12,1.3,1.5
2026-01-11T2000,3399A,112.6703,26.8817,衡阳市,师范学院,细颗粒物(PM2.5),77,87,118,56,79,97,,118,118,28,35,8,6,1.0,1.3
2026-01-11T2000,3038A,103.3757,23.3679,红河哈尼族彝族自治州,州图书馆,细颗粒物(PM2.5),58,60,48,41,36,92,,93,91,8,8,6,6,0.6,0.6
2026-01-11T2000,4154A,103.401,23.3561,红河哈尼族彝族自治州,蒙自市朝阳路,细颗粒物(PM2.5),64,53,37,46,36,88,,94,91,11,7,7,5,0.6,0.5
2026-01-11T2000,1090A,111.6506,40.7517,呼和浩特市,呼市一监,颗粒物(PM10),60,70,37,36,15,0,,43,32,64,25,4,4,0.7,0.4
2026-01-11T2000,1094A,111.7516,40.8369,呼和浩特市,如意水处理厂,颗粒物(PM10),70,90,40,37,12,0,,42,32,74,34,14,12,0.5,0.1
2026-01-11T2000,1095A,111.727798,40.806187,呼和浩特市,二十九中,颗粒物(PM10),62,74,33,32,13,8,,44,38,58,24,14,12,0.7,0.4
2026-01-11T2000,1097A,111.717,40.7617,呼和浩特市,化肥厂生活区,颗粒物(PM10),85,120,44,59,16,5,,44,36,66,25,9,7,1.2,0.6
2026-01-11T2000,3699A,111.6519,40.8389,呼和浩特市,海东办,颗粒物(PM10),68,85,32,35,11,5,,46,35,62,26,9,6,0.9,0.4
2026-01-11T2000,4275A,111.591512,40.827312,呼和浩特市,成吉思汗西街8号,颗粒物(PM10),58,66,35,18,12,7,,37,30,59,33,9,7,0.7,0.6
2026-01-11T2000,4276A,111.6597,40.8077,呼和浩特市,公园东路75号,颗粒物(PM10),63,75,35,24,12,12,,45,39,62,26,10,8,0.6,0.3
2026-01-11T2000,4277A,111.5427,40.7846,呼和浩特市,金海路35号,颗粒物(PM10),57,64,34,23,13,5,,40,34,61,31,13,11,0.5,0.3
2026-01-11T2000,3061A,119.7511,49.1576,呼伦贝尔市,国华电力东,,25,25,27,12,22,32,,49,46,26,21,7,7,0.5,0.4
2026-01-11T2000,4279A,119.7569,49.2222,呼伦贝尔市,伊敏大街东7号,,40,34,28,28,24,27,,43,36,26,21,6,6,0.5,0.5
2026-01-11T2000,1250A,120.075,30.867,湖州市,城西水厂,颗粒物(PM10),56,62,132,21,46,32,,75,70,45,36,10,13,0.4,0.4
2026-01-11T2000,2873A,120.083,30.8929,湖州市,仁皇山新区,颗粒物(PM10),54,58,125,21,31,46,,71,68,36,38,10,14,0.5,0.4
2026-01-11T2000,2907A,120.1846,30.8592,湖州市,吴兴区站,颗粒物(PM10),60,70,113,22,29,45,,72,68,40,34,6,8,0.6,0.6
2026-01-11T2000,3562A,120.4146,30.8538,湖州市,南浔区站,颗粒物(PM10),59,67,99,24,27,40,,66,62,40,28,7,8,0.6,0.6
2026-01-11T2000,1607A,120.904878,40.721091,葫芦岛市,龙港区,,21,8,24,7,10,66,,68,68,7,14,10,10,0.6,0.6
2026-01-11T2000,1608A,120.8382,40.7521,葫芦岛市,化工街,,,22,20,,10,54,,61,60,15,17,22,17,0.4,0.3
2026-01-11T2000,1609A,120.8339,40.7078,葫芦岛市,新区,,19,12,20,8,10,58,,63,63,13,16,12,9,0.7,0.6
2026-01-11T2000,1610A,120.8697,40.7679,葫芦岛市,东城区,,18,,25,12,12,56,,63,61,18,22,12,15,0.6,0.6
2026-01-11T2000,2483A,109.9297,27.5383,怀化市,河西地税局,细颗粒物(PM2.5),142,144,97,108,85,23,,80,77,72,36,3,4,/,/
2026-01-11T2000,2484A,109.9783,27.5342,怀化市,市四医院,细颗粒物(PM2.5),103,103,116,77,90,56,,89,89,28,30,11,12,0.9,1.1
2026-01-11T2000,2485A,109.9971,27.5579,怀化市,监测楼,细颗粒物(PM2.5),95,84,111,71,92,50,,97,95,37,32,5,4,0.4,0.5
2026-01-11T2000,1210A,119.0566,33.5991,淮安市,钵池山,颗粒物(PM10),57,63,58,19,21,47,,63,60,25,18,7,8,0.8,0.6
2026-01-11T2000,1211A,119.0083,33.578,淮安市,北京南路,颗粒物(PM10),56,61,62,24,22,32,,58,49,35,28,7,8,0.5,0.4
2026-01-11T2000,1212A,118.9938,33.6083,淮安市,市监测站,颗粒物(PM10),56,61,56,24,18,33,,61,55,38,27,10,10,0.9,0.7
2026-01-11T2000,1213A,119.135,33.5038,淮安市,楚州区监测站,颗粒物(PM10),64,78,58,35,15,28,,62,55,43,25,9,9,0.4,0.4
2026-01-11T2000,3426A,118.8757,33.2897,淮安市,新华书店,颗粒物(PM10),65,80,60,34,19,4,,60,51,78,21,9,10,1.0,0.8
2026-01-11T2000,4092A,119.119691,33.550006,淮安市,枚皋中路89号,,49,49,53,29,19,36,,70,64,32,24,8,9,0.2,0.5
2026-01-11T2000,4206A,119.028838,33.631911,淮安市,承德北路606号,颗粒物(PM10),64,78,65,21,22,27,,63,56,47,26,8,8,0.8,0.5
2026-01-11T2000,2282A,116.8005,33.9749,淮北市,监测站,颗粒物(PM10),56,62,56,26,18,50,,63,59,31,24,10,10,0.4,0.6
2026-01-11T2000,2283A,116.8094,33.9008,淮北市,烈山区政府,颗粒物(PM10),70,90,72,23,21,51,,64,61,20,24,13,11,0.3,0.3
2026-01-11T2000,4017A,116.7926,33.9534,淮北市,市博物馆,颗粒物(PM10),60,70,58,25,18,46,,65,59,33,27,4,5,0.5,0.5
2026-01-11T2000,4100A,116.8322,33.9884,淮北市,杜集区第一实验学校,颗粒物(PM10),67,84,75,30,21,51,,68,65,14,20,12,9,0.8,0.4
2026-01-11T2000,2277A,116.8304,32.7726,淮南市,潘集区政府,颗粒物(PM10),75,99,85,37,36,38,,59,53,35,26,7,7,0.6,0.5
2026-01-11T2000,2279A,116.8569,32.5949,淮南市,谢家集区政府,颗粒物(PM10),64,78,80,18,14,47,,60,58,27,22,8,9,0.4,0.4
2026-01-11T2000,2280A,116.8279,32.6333,淮南市,八公山区政府,颗粒物(PM10),62,74,67,18,16,48,,64,62,24,18,4,6,0.4,0.4
2026-01-11T2000,2894A,117.0561,32.6536,淮南市,经济技术开发区消防队,颗粒物(PM10),78,106,94,30,29,41,,65,62,34,25,6,6,0.5,0.5
2026-01-11T2000,3329A,117.011,32.5891,淮南市,山南新区,颗粒物(PM10),71,91,91,11,15,58,,66,66,20,24,3,3,0.4,0.4
2026-01-11T2000,4209A,117.003137,32.644456,淮南市,国庆中路369号,细颗粒物(PM2.5),53,49,63,37,22,46,,58,58,24,26,8,6,0.7,0.6
2026-01-11T2000,2446A,114.9021,30.474,黄冈市,职工中心,颗粒物(PM10),56,61,67,23,23,62,,78,78,25,21,8,10,0.5,0.5
2026-01-11T2000,2929A,114.8858,30.4519,黄冈市,红卫路,颗粒物(PM10),53,55,63,22,23,59,,75,74,24,21,7,10,0.4,0.4
2026-01-11T2000,3398A,114.9134,30.4446,黄冈市,市林业局,颗粒物(PM10),68,85,104,22,23,57,,76,76,30,22,5,8,0.6,0.6
2026-01-11T2000,2672A,102.02,35.5101,黄南藏族自治州,同仁县隆务镇,,45,45,25,25,13,44,,62,60,16,6,16,10,0.5,0.3
2026-01-11T2000,2295A,118.2905,29.6965,黄山市,延安路89号,颗粒物(PM10),51,51,48,34,33,60,,86,85,14,17,4,4,0.4,0.5
2026-01-11T2000,2297A,118.1369,30.2755,黄山市,黄山区政府5号楼,颗粒物(PM10),54,57,83,30,34,37,,80,74,18,12,3,3,0.4,0.4
2026-01-11T2000,4210A,118.335445,29.720283,黄山市,滨江东路7-2号,颗粒物(PM10),58,66,69,34,35,48,,75,72,16,18,/,/,/,/
2026-01-11T2000,2423A,115.0547,30.2332,黄石市,沈家营,颗粒物(PM10),61,71,84,23,28,68,,76,76,20,25,8,8,1.3,1.3
2026-01-11T2000,2426A,114.899,30.211,黄石市,铁山,颗粒物(PM10),55,60,85,26,31,76,,27,,11,28,7,7,0.5,0.5
2026-01-11T2000,2427A,115.0259,30.2108,黄石市,团城山,颗粒物(PM10),60,69,89,23,24,85,,87,87,11,22,8,7,0.6,0.5
2026-01-11T2000,3149A,115.0174,30.1591,黄石市,笔架山北路,颗粒物(PM10),72,93,120,32,25,56,,71,70,18,17,9,7,1.1,1
2026-01-11T2000,4185A,115.078022,30.21118,黄石市,磁湖东路29号,颗粒物(PM10),60,69,85,27,30,74,,80,80,19,28,12,10,0.7,0.7
2026-01-11T2000,1392A,114.4181,23.0528,惠州市,河南岸金山湖子站,颗粒物(PM10),62,74,44,35,24,53,,100,94,48,25,5,7,0.7,0.6
2026-01-11T2000,1393A,114.4055,23.0824,惠州市,下埔横江三路子站,颗粒物(PM10),66,81,42,43,24,49,,108,99,57,19,8,9,0.8,0.4
2026-01-11T2000,1395A,114.4645,22.7832,惠州市,惠阳区承修路船湖子站,颗粒物(PM10),53,55,55,26,29,131,,126,126,19,31,7,8,0.3,0.4
2026-01-11T2000,1396A,114.5316,22.7423,惠州市,大亚湾管委会子站,颗粒物(PM10),55,60,41,26,22,127,,127,127,18,22,6,8,0.4,0.3
2026-01-11T2000,3314A,114.4334,22.8134,惠州市,惠阳秋长,颗粒物(PM10),57,63,47,21,26,148,,144,144,22,24,/,/,/,/
2026-01-11T2000,3452A,114.6521,22.7755,惠州市,大亚湾霞涌,颗粒物(PM10),65,80,38,34,21,93,,126,126,34,16,/,/,/,/
2026-01-11T2000,4300A,114.4089,23.1147,惠州市,文华一路1号,颗粒物(PM10),55,60,36,33,23,78,,116,113,46,17,/,/,/,/
2026-01-11T2000,2240A,130.9618,45.2926,鸡西市,环保局,,23,,28,16,21,52,,54,53,6,7,6,7,0.5,0.5
2026-01-11T2000,2243A,130.9294,45.2959,鸡西市,第一中学,,26,26,28,3,20,62,,66,61,4,4,4,4,0.6,0.7
2026-01-11T2000,3707A,131.0069,45.2988,鸡西市,欧美日汽修厂,,30,,31,21,24,53,,52,51,6,11,8,9,0.2,0.3
2026-01-11T2000,2367A,114.9753,27.0803,吉安市,红声器材厂,颗粒物(PM10),61,72,74,29,38,84,,90,90,24,40,13,10,0.5,0.8
2026-01-11T2000,2369A,114.9903,27.1313,吉安市,市环境监测站,颗粒物(PM10),62,74,64,30,36,79,,92,92,26,38,9,10,/,/
2026-01-11T2000,2370A,115.009527,27.096792,吉安市,青原区法院,颗粒物(PM10),62,74,71,33,38,78,,86,86,23,35,14,12,0.5,0.6
2026-01-11T2000,1772A,126.54,43.8622,吉林市,哈达湾,,46,46,57,29,36,50,,56,55,21,22,6,8,1.0,0.9
2026-01-11T2000,1773A,126.5843,43.8358,吉林市,东局子,,45,44,52,31,32,34,,49,47,30,23,3,4,0.9,0.8
2026-01-11T2000,1774A,126.5051,43.8243,吉林市,电力学院,细颗粒物(PM2.5),103,104,53,77,42,33,,54,50,38,24,10,10,1.4,0.9
2026-01-11T2000,1775A,126.6133,43.8971,吉林市,江北,细颗粒物(PM2.5),52,44,53,36,41,42,,47,47,22,27,7,8,1.1,1.1
2026-01-11T2000,1776A,126.5549,43.8304,吉林市,江南公园,,49,48,60,34,37,40,,58,56,33,21,9,8,0.7,0.7
2026-01-11T2000,2868A,126.4737,43.953,吉林市,九站,,43,34,50,30,40,48,,48,48,24,29,5,6,0.7,0.7
2026-01-11T2000,1299A,116.9866,36.6118,济南市,科干所,颗粒物(PM10),54,58,39,17,6,52,,62,60,18,12,7,5,0.6,0.6
2026-01-11T2000,1300A,116.9379,36.6652,济南市,农科所,颗粒物(PM10),58,66,43,15,5,46,,59,54,21,15,6,4,0.6,0.5
2026-01-11T2000,1301A,117.1265,36.6736,济南市,开发区,颗粒物(PM10),52,54,40,17,10,55,,60,57,22,19,5,5,0.6,0.5
2026-01-11T2000,1303A,117.0616,36.6865,济南市,省种子仓库,颗粒物(PM10),57,63,44,17,7,57,,62,57,19,19,6,5,0.6,0.4
2026-01-11T2000,1304A,116.9495185,36.644937,济南市,机床二厂,颗粒物(PM10),64,78,45,22,7,50,,62,59,26,19,12,5,0.3,0.2
2026-01-11T2000,1305A,117.0496,36.6629,济南市,市监测站,颗粒物(PM10),56,61,41,15,6,54,,63,61,16,14,6,5,0.6,0.5
2026-01-11T2000,1306A,116.7674,36.5458,济南市,长清党校,颗粒物(PM10),58,66,46,22,9,45,,63,58,25,21,8,6,0.7,0.6
2026-01-11T2000,1961A,117.5323,36.6865,济南市,东山小学,颗粒物(PM10),58,66,45,15,9,55,,65,60,22,19,6,6,0.8,0.7
2026-01-11T2000,3059A,117.7181,36.205,济南市,泰兴公司,颗粒物(PM10),62,73,42,29,11,25,,71,61,53,22,11,5,0.8,0.6
2026-01-11T2000,3064A,117.6861,36.2172,济南市,莱芜战役纪念馆,颗粒物(PM10),52,53,39,28,14,47,,67,62,30,19,9,6,0.3,0.2
2026-01-11T2000,3494A,117.1673,36.9782,济南市,济阳区政府,颗粒物(PM10),63,76,41,22,8,30,,62,54,45,21,12,7,0.5,0.4
2026-01-11T2000,3495A,117.1168,36.6299,济南市,锦屏中学,颗粒物(PM10),55,59,36,15,5,55,,67,64,21,17,2,2,0.6,0.5
2026-01-11T2000,4108A,117.7107,36.2385,济南市,山财大街5号,颗粒物(PM10),58,66,37,24,8,52,,72,68,36,28,15,10,1.0,0.8
2026-01-11T2000,4109A,116.9744,36.6889,济南市,无影山路12号,颗粒物(PM10),56,61,40,18,7,51,,62,58,19,17,9,6,0.5,0.4
2026-01-11T2000,1653A,116.6229,35.4288,济宁市,火炬城,颗粒物(PM10),62,74,50,39,16,50,,63,61,30,19,5,3,0.4,0.3
2026-01-11T2000,3500A,116.5808,35.3703,济宁市,北湖一中,颗粒物(PM10),54,57,47,24,17,57,,59,59,25,22,4,5,0.4,0.4
2026-01-11T2000,3501A,116.8251,35.5592,济宁市,服务中心,颗粒物(PM10),59,68,55,27,15,44,,53,52,39,37,12,10,0.6,0.6
2026-01-11T2000,3678A,116.5907,35.4054,济宁市,市第七中学,颗粒物(PM10),53,55,57,19,9,62,,66,66,24,19,2,4,0.4,0.4
2026-01-11T2000,4111A,116.6075,35.4566,济宁市,任和路,颗粒物(PM10),66,81,56,27,13,55,,62,61,28,24,6,6,0.4,0.4
2026-01-11T2000,4112A,116.5648,35.3921,济宁市,文体南路1号,,,65,51,17,13,,,65,65,33,22,4,5,0.4,0.4
2026-01-11T2000,2255A,130.2749,46.8028,佳木斯市,佳纺,细颗粒物(PM2.5),60,57,58,43,51,22,,42,34,37,31,19,12,0.7,0.7
2026-01-11T2000,2257A,130.3258,46.7975,佳木斯市,环保局,细颗粒物(PM2.5),57,46,47,40,40,14,,47,37,46,30,12,9,0.6,0.6
2026-01-11T2000,4285A,130.363,46.806,佳木斯市,顺和街,细颗粒物(PM2.5),55,55,50,39,37,25,,40,32,30,28,13,12,0.8,0.7
2026-01-11T2000,4286A,130.3952,46.8268,佳木斯市,长安路196号,,49,47,55,34,49,30,,47,42,28,30,10,8,0.6,0.7
2026-01-11T2000,1252A,120.7439,30.778,嘉兴市,清河小学,颗粒物(PM10),66,82,118,27,28,32,,62,58,44,30,8,7,0.4,0.4
2026-01-11T2000,1253A,120.7261,30.7477,嘉兴市,嘉兴学院,颗粒物(PM10),64,77,98,28,25,35,,63,60,36,29,8,9,0.6,0.5
2026-01-11T2000,2872A,120.7845,30.7524,嘉兴市,南湖区残联,颗粒物(PM10),60,70,106,27,29,40,,69,64,42,31,6,6,0.7,0.7
2026-01-11T2000,3407A,120.6915,30.7741,嘉兴市,秀洲住建,颗粒物(PM10),66,81,116,32,29,8,,67,56,74,33,7,8,0.5,0.5
2026-01-11T2000,1945A,98.291,39.7705,嘉峪关市,气象局,颗粒物(PM10),58,66,67,12,15,65,,74,74,19,17,9,18,0.4,0.4
2026-01-11T2000,2884A,98.2672,39.7978,嘉峪关市,酒钢宾馆,颗粒物(PM10),90,129,87,19,15,37,,43,43,61,48,14,16,0.7,0.5
2026-01-11T2000,3248A,98.2644,39.7723,嘉峪关市,雄关区,,40,40,45,16,19,68,,74,74,20,19,11,18,0.3,0.3
2026-01-11T2000,1383A,113.1063,22.6058,江门市,北街,颗粒物(PM10),57,64,52,36,27,90,,125,125,64,51,/,/,/,/
2026-01-11T2000,1384A,113.073,22.5835,江门市,西区,细颗粒物(PM2.5),65,75,56,47,28,56,,115,112,79,48,/,/,/,/
2026-01-11T2000,1385A,113.0218,22.531,江门市,圭峰西,,36,25,40,25,24,112,,120,120,27,32,/,/,/,/
2026-01-11T2000,1386A,113.0826,22.5947,江门市,东湖,颗粒物(PM10),61,71,47,26,31,82,,120,120,58,49,8,10,0.8,0.5
2026-01-11T2000,3311A,113.1077,22.5647,江门市,江海富民,,47,47,56,20,25,55,,125,121,94,57,/,/,0.9,0.5
2026-01-11T2000,3449A,113.0496,22.4669,江门市,新会银湖,细颗粒物(PM2.5),68,64,58,49,39,63,,122,120,39,43,7,9,0.5,0.5
2026-01-11T2000,3335A,113.3137,35.2643,焦作市,马村街道办,颗粒物(PM10),60,69,53,28,18,46,,55,52,26,19,10,7,0.5,0.3
2026-01-11T2000,3336A,113.2464,35.2374,焦作市,焦作技师学院,颗粒物(PM10),54,58,53,27,15,40,,55,52,33,20,11,8,0.4,0.3
2026-01-11T2000,3477A,113.1656,35.2536,焦作市,中站许衡医院,颗粒物(PM10),57,64,47,32,20,50,,59,55,28,17,6,5,0.4,0.3
2026-01-11T2000,3981A,113.2456,35.18,焦作市,原李万街道办,颗粒物(PM10),59,68,61,24,10,45,,56,54,26,14,9,7,0.6,0.4
2026-01-11T2000,4264A,113.234,35.219,焦作市,新安路1731号,颗粒物(PM10),57,64,55,26,17,39,,55,52,34,18,7,5,0.7,0.5
2026-01-11T2000,4295A,113.2722,35.2121,焦作市,人民路3066号,颗粒物(PM10),71,91,61,42,13,39,,53,50,32,14,9,6,0.5,0.4
2026-01-11T2000,1708A,116.3701,23.5345,揭阳市,新兴,颗粒物(PM10),70,89,69,48,42,110,,117,117,33,39,10,13,0.6,0.6
2026-01-11T2000,1709A,116.3261,23.5442,揭阳市,西马,颗粒物(PM10),75,99,72,42,36,118,,120,120,20,34,6,8,0.5,0.5
2026-01-11T2000,1710A,116.361,23.5627,揭阳市,东兴,颗粒物(PM10),72,93,72,38,36,113,,117,117,19,39,9,11,/,/
2026-01-11T2000,1711A,116.4151,23.5295,揭阳市,渔湖,颗粒物(PM10),67,83,77,39,43,118,,128,128,25,44,6,8,/,/
2026-01-11T2000,3320A,116.4028,23.5699,揭阳市,曲溪,颗粒物(PM10),82,114,78,42,43,127,,133,133,23,39,20,10,0.5,0.6
2026-01-11T2000,1944A,102.1691,38.5166,金昌市,天庆家园,颗粒物(PM10),71,92,85,19,33,61,,69,69,18,19,9,13,0.7,0.8
2026-01-11T2000,4022A,102.1648,38.5369,金昌市,金川区人防中心,颗粒物(PM10),74,98,74,19,35,73,,72,72,10,15,4,10,0.5,0.8
2026-01-11T2000,4239A,102.193042,38.531887,金昌市,长春路96号,,45,45,76,8,26,77,,72,72,6,15,5,16,0.6,0.8
2026-01-11T2000,1262A,119.6478,29.0773,金华市,十五中,颗粒物(PM10),70,89,101,27,39,49,,81,77,46,40,4,4,0.2,0.5
2026-01-11T2000,1263A,119.6859,29.1032,金华市,监测站,颗粒物(PM10),76,102,115,32,44,28,,56,52,65,58,5,5,0.3,0.5
2026-01-11T2000,3659A,119.656,29.1132,金华市,气象局,颗粒物(PM10),73,96,112,30,43,33,,66,59,56,62,4,4,0.4,0.6
2026-01-11T2000,1767A,121.1114,41.0879,锦州市,南山,,33,33,20,13,11,44,,67,60,28,9,11,9,0.5,0.5
2026-01-11T2000,1768A,121.060361,40.842794,锦州市,开发区,,32,32,34,11,14,51,,60,58,16,21,7,14,0.4,0.6
2026-01-11T2000,1769A,121.1836,41.1118,锦州市,百股街道,,19,19,23,9,10,56,,66,63,19,13,6,8,0.5,0.6
2026-01-11T2000,1770A,121.1176,41.1224,锦州市,天安街道,,32,32,21,14,10,53,,74,67,26,12,13,11,0.5,0.5
2026-01-11T2000,1771A,121.1303,41.1385,锦州市,北湖公园,,29,29,20,16,9,51,,66,62,21,8,11,8,0.7,0.7
2026-01-11T2000,2160A,112.8496,35.5051,晋城市,自来水公司,颗粒物(PM10),60,70,53,17,11,46,,57,56,26,17,7,6,0.7,0.7
2026-01-11T2000,2162A,112.8509,35.4886,晋城市,市环保局,颗粒物(PM10),63,76,50,22,13,51,,64,62,27,18,5,3,0.5,0.5
2026-01-11T2000,3620A,112.8258,35.4804,晋城市,泽州一中,颗粒物(PM10),64,77,54,19,10,50,,63,62,20,11,5,4,0.3,0.2
2026-01-11T2000,4078A,112.8246,35.5152,晋城市,前书院路,颗粒物(PM10),59,68,60,17,10,46,,58,57,28,21,7,5,0.5,0.3
2026-01-11T2000,4079A,112.8864,35.4773,晋城市,祥云街666号,颗粒物(PM10),55,59,49,20,12,54,,64,63,12,18,4,5,0.4,0.3
2026-01-11T2000,2174A,112.6992,37.6984,晋中市,榆次区政府,颗粒物(PM10),73,95,44,39,13,32,,66,62,48,20,38,14,1.5,0.5
2026-01-11T2000,2865A,112.7195,37.683,晋中市,榆次三中,颗粒物(PM10),78,105,46,39,11,12,,66,58,69,18,29,14,0.9,0.6
2026-01-11T2000,4080A,112.7375,37.7215,晋中市,广安街188号,颗粒物(PM10),77,103,39,38,12,9,,69,61,66,19,23,13,0.8,0.4
2026-01-11T2000,4200A,112.7478,37.6954,晋中市,迎宾街26号,颗粒物(PM10),71,92,41,46,13,23,,69,62,57,17,28,13,1.0,0.6
2026-01-11T2000,2439A,112.2012,31.048,荆门市,竹园小学,颗粒物(PM10),75,100,112,46,36,55,,74,73,33,33,2,2,0.0,0.2
2026-01-11T2000,2440A,112.1968,30.9892,荆门市,掇刀,颗粒物(PM10),79,107,111,50,37,46,,77,74,42,32,7,5,0.6,0.5
2026-01-11T2000,3012A,112.1849,31.0361,荆门市,西山林语,颗粒物(PM10),62,73,91,36,30,52,,76,74,30,22,5,5,0.3,0.3
2026-01-11T2000,3547A,112.1631,31.0134,荆门市,龙泉中学南校,颗粒物(PM10),80,110,112,48,37,52,,79,76,22,19,6,5,0.4,0.4
2026-01-11T2000,4124A,112.2213,31.0654,荆门市,新台西路6号,颗粒物(PM10),84,118,120,59,50,44,,74,71,43,33,18,12,0.6,0.6
2026-01-11T2000,1844A,112.2493,30.3198,荆州市,市图书馆,颗粒物(PM10),82,114,100,53,49,37,,71,67,54,36,26,11,1.1,0.7
2026-01-11T2000,1845A,112.2009,30.3543,荆州市,市委党校,颗粒物(PM10),87,124,104,49,50,18,,62,56,69,42,22,7,1.0,0.7
2026-01-11T2000,3194A,112.2749,30.3124,荆州市,管委会,颗粒物(PM10),75,100,97,49,52,34,,67,62,57,41,28,12,1.0,0.7
2026-01-11T2000,4268A,112.1722,30.3366,荆州市,学苑路85号,颗粒物(PM10),74,97,96,47,47,58,,76,74,37,29,19,13,0.8,0.7
2026-01-11T2000,2343A,117.2114,29.2931,景德镇市,老干部活动中心,"颗粒物(PM10),细颗粒物(PM2.5)",57,64,60,40,25,36,,72,68,31,22,7,8,0.6,0.4
2026-01-11T2000,2344A,117.1893,29.2789,景德镇市,兽医站,颗粒物(PM10),57,63,61,19,22,63,,80,79,25,16,8,8,0.6,0.5
2026-01-11T2000,2346A,117.246,29.2958,景德镇市,陶研所,,42,42,47,24,25,37,,77,74,19,13,3,3,0.4,0.4
2026-01-11T2000,4289A,117.154766,29.256967,景德镇市,青少年活动中心,颗粒物(PM10),72,94,66,46,22,3,,80,65,95,22,37,5,/,/
2026-01-11T2000,1803A,115.9873,29.6816,九江市,十里,颗粒物(PM10),52,53,92,27,28,57,,79,77,31,26,8,7,0.8,0.8
2026-01-11T2000,1804A,115.9583,29.7047,九江市,茅山头,颗粒物(PM10),61,72,99,27,23,41,,69,65,39,23,6,6,0.9,0.8
2026-01-11T2000,1805A,115.9877,29.7295,九江市,西园,颗粒物(PM10),58,66,89,25,24,41,,74,72,55,35,4,2,0.7,0.6
2026-01-11T2000,1808A,115.9112,29.6038,九江市,综合工业园,细颗粒物(PM2.5),63,62,91,45,29,30,,73,65,105,36,4,5,0.9,0.7
2026-01-11T2000,3190A,116.0254,29.6995,九江市,外国语学校,颗粒物(PM10),54,57,88,30,26,33,,65,60,42,28,8,8,0.8,0.7
2026-01-11T2000,4253A,116.010205,29.659402,九江市,莲花大道8号,颗粒物(PM10),52,54,94,15,18,68,,72,72,8,12,4,7,0.3,0.4
2026-01-11T2000,4240A,98.495752,39.733935,酒泉市,玉门东路5号,颗粒物(PM10),112,173,101,46,28,45,,63,61,29,21,14,17,0.9,0.7
2026-01-11T2000,4241A,98.5099,39.7506,酒泉市,北大街108号,颗粒物(PM10),155,259,119,45,30,57,,64,64,23,26,13,14,0.5,0.8
2026-01-11T2000,2698A,76.0071,39.466,喀什地区,巡警大队,细颗粒物(PM2.5),77,92,137,56,91,80,,68,68,29,51,7,6,1.0,2.2
2026-01-11T2000,2699A,75.9756,39.4693,喀什地区,吾办,细颗粒物(PM2.5),90,104,137,67,93,70,,63,63,37,57,12,9,1.2,2.2
2026-01-11T2000,4027A,75.9485,39.4688,喀什地区,老干局,"颗粒物(PM10),细颗粒物(PM2.5)",77,103,156,56,95,66,,67,67,35,49,10,7,1.4,2.9
2026-01-11T2000,1824A,114.3389,34.778,开封市,肿瘤医院,颗粒物(PM10),67,83,57,26,14,46,,64,61,30,22,4,6,0.6,0.5
2026-01-11T2000,1826A,114.2884,34.7966,开封市,世纪星幼儿园,颗粒物(PM10),60,70,51,32,17,50,,65,63,30,22,2,3,0.4,0.3
2026-01-11T2000,3147A,114.3434,34.8101,开封市,龙亭公园,颗粒物(PM10),62,74,61,40,19,50,,65,63,41,33,7,7,0.5,0.4
2026-01-11T2000,3210A,114.3645,34.7955,开封市,汴京公园,颗粒物(PM10),64,78,59,37,17,38,,61,57,40,29,7,5,0.6,0.4
2026-01-11T2000,3473A,114.2485,34.8306,开封市,技师学院,颗粒物(PM10),52,53,47,26,15,59,,65,65,21,23,4,5,0.6,0.5
2026-01-11T2000,3592A,114.4518,34.7503,开封市,祥符区生态环境局,颗粒物(PM10),101,152,62,41,18,25,,62,54,54,33,4,5,0.6,0.4
2026-01-11T2000,1951A,84.886,45.6029,克拉玛依市,长征新村,细颗粒物(PM2.5),100,107,66,75,47,35,,40,40,37,29,5,5,0.9,0.6
2026-01-11T2000,1952A,84.8894,45.5827,克拉玛依市,南林小区,细颗粒物(PM2.5),84,96,66,62,38,41,,42,42,19,21,2,2,1.1,0.9
2026-01-11T2000,1954A,84.896,44.3328,克拉玛依市,独山子区,细颗粒物(PM2.5),89,111,68,66,44,49,,68,68,42,32,5,5,0.8,0.7
2026-01-11T2000,1955A,85.6888,46.0909,克拉玛依市,乌尔禾区商贸楼,细颗粒物(PM2.5),97,88,52,72,37,50,,50,50,31,30,6,5,0.9,0.7
2026-01-11T2000,3612A,85.1045,45.6895,克拉玛依市,白碱滩区新站,细颗粒物(PM2.5),113,122,79,85,52,39,,42,42,29,29,8,8,0.9,0.6
2026-01-11T2000,2697A,76.1457,39.7143,克孜勒苏柯尔克孜自治州,市人民政府,细颗粒物(PM2.5),85,112,87,63,49,93,,89,89,20,15,3,2,0.6,0.4
2026-01-11T2000,3665A,76.1654,39.7157,克孜勒苏柯尔克孜自治州,克州文化中心,细颗粒物(PM2.5),80,83,74,59,51,93,,87,87,17,16,8,6,0.9,0.8
2026-01-11T2000,1450A,102.8203,24.889,昆明市,呈贡新区,,34,34,39,14,34,58,,72,69,15,11,3,2,0.7,0.7
2026-01-11T2000,1452A,102.7253,25.0904,昆明市,龙泉镇,,32,32,50,12,41,59,,60,60,11,16,3,2,0.6,0.7
2026-01-11T2000,1453A,102.7267,25.0378,昆明市,东风东路,,33,,56,23,46,60,,65,64,12,19,4,4,0.5,0.6
2026-01-11T2000,1454A,102.6744,25.0671,昆明市,金鼎山,,39,39,58,14,41,58,,63,63,13,15,3,3,0.6,0.7
2026-01-11T2000,1455A,102.6643,25.0401,昆明市,碧鸡广场,,30,22,56,21,44,56,,63,63,17,24,4,3,0.5,0.6
2026-01-11T2000,3179A,102.7491,25.012,昆明市,官渡区博物馆,,29,29,52,13,39,58,,67,67,15,24,3,3,0.6,0.7
2026-01-11T2000,3375A,102.8016,24.8336,昆明市,青年创业园,,29,23,39,20,30,50,,68,66,15,10,3,3,0.6,0.6
2026-01-11T2000,3550A,102.8,24.9787,昆明市,昆明学院,,22,22,49,15,36,63,,69,69,12,16,2,2,0.4,0.4
2026-01-11T2000,3551A,102.5969,24.6738,昆明市,晋宁区生态环境分局,,35,28,42,24,31,53,,57,57,11,18,2,2,0.6,0.6
2026-01-11T2000,3552A,102.6673,24.9861,昆明市,云天化总部,,21,16,49,12,37,67,,69,69,8,17,5,5,0.3,0.5
2026-01-11T2000,1456A,91.132,29.6515,拉萨市,八廓街,颗粒物(PM10),60,69,40,19,23,91,,90,90,9,28,8,9,0.2,0.7
2026-01-11T2000,1457A,91.1221,29.6748,拉萨市,市环保局,颗粒物(PM10),63,76,68,28,47,88,,84,84,9,28,7,11,0.5,1.9
2026-01-11T2000,1458A,91.0874,29.6476,拉萨市,区监测站,颗粒物(PM10),61,71,30,20,15,95,,86,86,5,37,4,5,0.5,1
2026-01-11T2000,1459A,91.1774,29.6541,拉萨市,西藏大学,颗粒物(PM10),94,137,36,23,14,91,,88,88,6,26,6,6,0.3,0.5
2026-01-11T2000,1460A,90.9798,29.6586,拉萨市,区辐射站,颗粒物(PM10),52,53,53,12,34,95,,86,86,6,38,4,6,0.3,1
2026-01-11T2000,1461A,91.0831,29.6292,拉萨市,拉萨火车站,颗粒物(PM10),55,59,30,11,14,92,,81,81,5,38,4,5,0.4,0.9
2026-01-11T2000,2520A,109.2203,23.7252,来宾市,来宾技工学校,细颗粒物(PM2.5),88,82,85,65,64,49,,106,102,43,27,12,17,1.0,0.8
2026-01-11T2000,3535A,109.1781,23.7293,来宾市,兴宾区政府,颗粒物(PM10),55,59,87,35,68,92,,115,115,23,17,12,10,0.6,0.7
2026-01-11T2000,4002A,109.2312,23.7428,来宾市,中南小学,颗粒物(PM10),69,88,69,49,48,27,,107,100,66,32,6,9,0.9,0.7
2026-01-11T2000,1479A,103.8309,36.0467,兰州市,铁路设计院,,,,,,,,,,,,,,,,
2026-01-11T2000,3241A,103.7439,36.0841,兰州市,百合公园,细颗粒物(PM2.5),107,140,98,80,53,0,,34,29,110,64,27,23,2.4,1.4
2026-01-11T2000,3242A,103.9613,35.9985,兰州市,和平,细颗粒物(PM2.5),123,145,93,93,57,20,,55,52,61,38,15,13,1.2,1.2
2026-01-11T2000,4236A,103.629272,36.093822,兰州市,庄浪东路808号,"颗粒物(PM10),细颗粒物(PM2.5)",84,118,105,62,54,11,,51,47,91,53,19,22,1.5,1.1
2026-01-11T2000,4237A,103.7251,36.104344,兰州市,安宁西路88号,细颗粒物(PM2.5),98,142,111,73,50,5,,49,42,106,67,18,23,1.6,1.1
2026-01-11T2000,4238A,103.846982,36.067567,兰州市,北滨河东路1号,细颗粒物(PM2.5),118,162,97,89,49,4,,51,48,101,72,20,17,1.9,1.4
2026-01-11T2000,1067A,116.6712,39.5109,廊坊市,药材公司,,38,38,23,18,7,32,,58,52,30,10,2,2,0.4,0.4
2026-01-11T2000,1068A,116.7215,39.5592,廊坊市,开发区,,40,40,25,14,6,40,,59,54,26,12,6,3,0.4,0.3
2026-01-11T2000,1070A,116.7246,39.5273,廊坊市,北华航天学院,,42,42,33,14,8,41,,58,54,24,11,2,2,0.4,0.3
2026-01-11T2000,2919A,116.7022,39.5454,廊坊市,河北工业大学,,45,45,30,20,10,38,,59,54,28,11,5,3,0.4,0.3
2026-01-11T2000,2536A,103.7629,29.5844,乐山市,牛耳桥,细颗粒物(PM2.5),175,152,151,132,136,27,,52,52,51,38,8,8,1.1,1
2026-01-11T2000,2537A,103.7501,29.6002,乐山市,市第三水厂,细颗粒物(PM2.5),176,154,160,133,135,14,,51,49,64,45,8,7,1.1,1
2026-01-11T2000,2538A,103.7571,29.5664,乐山市,市监测站,细颗粒物(PM2.5),195,158,149,146,135,16,,47,47,56,39,7,7,1.1,1
2026-01-11T2000,3361A,103.7313,29.563,乐山市,理工大学,细颗粒物(PM2.5),178,148,153,134,136,23,,42,42,48,40,5,5,0.8,0.9
2026-01-11T2000,2599A,100.2497,26.8802,丽江市,丽江古城,,37,37,30,10,17,69,,85,83,20,14,9,8,0.7,0.6
2026-01-11T2000,2600A,100.2203,26.8906,丽江市,市中心,,23,20,24,15,13,73,,85,85,19,13,8,8,0.5,0.5
2026-01-11T2000,1267A,119.9141,28.4513,丽水市,监测站大楼,颗粒物(PM10),68,85,56,42,31,61,,82,82,30,33,6,7,0.4,0.4
2026-01-11T2000,1268A,119.93,28.4589,丽水市,莲都小学,颗粒物(PM10),65,79,62,28,31,74,,85,85,23,35,/,/,/,/
2026-01-11T2000,1269A,119.8794,28.4232,丽水市,余庄前,颗粒物(PM10),61,71,55,28,30,49,,76,75,20,24,4,5,0.3,0.3
2026-01-11T2000,1173A,119.1759,34.5885,连云港市,市环境监测站,,41,41,39,19,15,47,,58,56,17,25,10,11,0.7,0.7
2026-01-11T2000,3000A,119.3577,34.6971,连云港市,德源药业,,39,39,56,12,14,28,,61,54,44,39,7,7,0.6,0.5
2026-01-11T2000,3007A,119.178,34.8442,连云港市,新城一中,,45,45,57,12,15,15,,62,52,63,28,11,12,0.9,0.8
2026-01-11T2000,3008A,119.3607,34.7519,连云港市,胡沟管理处,,27,27,35,9,10,57,,63,59,19,21,6,6,0.9,0.7
2026-01-11T2000,3009A,119.1478,34.5913,连云港市,矿山设计院,,44,44,49,12,13,48,,62,59,24,33,8,9,0.6,0.6
2026-01-11T2000,3434A,119.2414,34.6539,连云港市,工贸学校,,35,35,52,11,17,55,,57,57,13,26,12,12,0.6,0.6
2026-01-11T2000,3664A,119.4171,34.734,连云港市,连云街道,,43,43,48,9,12,57,,60,60,18,22,4,5,0.5,0.5
2026-01-11T2000,2573A,102.2629,27.8981,凉山彝族自治州,西昌市政府,,43,43,49,23,33,73,,74,74,11,13,8,7,0.6,0.7
2026-01-11T2000,2574A,102.2686,27.885,凉山彝族自治州,凉山州政府,,46,46,47,29,34,68,,71,71,15,14,10,8,0.7,0.7
2026-01-11T2000,4229A,102.2342,27.8859,凉山彝族自治州,凯乐南路30号,,42,42,51,22,31,70,,72,72,15,16,14,8,0.8,0.5
2026-01-11T2000,2212A,123.1978,41.2036,辽阳市,宏伟区,,25,23,24,17,16,58,,57,55,6,9,6,6,0.5,0.6
2026-01-11T2000,2213A,123.1684,41.2497,辽阳市,新华园,,38,32,34,26,21,48,,56,50,19,21,7,8,0.4,0.6
2026-01-11T2000,2214A,123.2355,41.2663,辽阳市,滨河路,,29,29,30,20,19,42,,49,44,10,19,21,10,0.2,0.2
2026-01-11T2000,4083A,123.153,41.2874,辽阳市,铁西路150号,,31,31,32,15,17,52,,59,52,15,20,9,8,0.5,0.7
2026-01-11T2000,2227A,125.1359,42.8845,辽源市,环保局,细颗粒物(PM2.5),82,78,45,60,23,18,,57,48,47,16,5,4,1.2,0.6
2026-01-11T2000,4085A,125.0998,42.9134,辽源市,安宁大街333号,细颗粒物(PM2.5),70,,35,51,22,24,,53,45,37,16,2,4,0.6,0.3
2026-01-11T2000,1625A,115.9789,36.4372,聊城市,区政府,颗粒物(PM10),64,78,58,29,9,52,,64,61,28,21,13,10,0.7,0.6
2026-01-11T2000,3200A,115.9772,36.4986,聊城市,监控中心,颗粒物(PM10),72,94,59,29,14,58,,67,65,23,22,10,10,0.5,0.5
2026-01-11T2000,3513A,116.0443,36.436,聊城市,九州社区,颗粒物(PM10),77,104,68,27,11,28,,74,63,47,9,5,3,0.5,0.4
2026-01-11T2000,4018A,116.0564,36.4609,聊城市,星美广场,,,101,70,23,11,,,67,63,30,15,5,5,0.4,0.3
2026-01-11T2000,4113A,116.0091,36.4495,聊城市,利民路,颗粒物(PM10),59,67,53,24,14,50,,67,63,32,21,10,8,0.7,0.6
2026-01-11T2000,2632A,94.3683,29.6373,林芝市,林芝监测站,,25,14,13,7,7,79,,79,79,3,2,3,4,0.4,0.4
2026-01-11T2000,2633A,94.3616,29.6634,林芝市,林芝人民医院,,23,17,16,9,7,71,,72,72,3,4,1,1,0.4,0.4
2026-01-11T2000,2603A,100.0779,23.8981,临沧市,市环保局,细颗粒物(PM2.5),92,,40,68,40,56,,71,71,14,9,5,3,0.5,0.5
2026-01-11T2000,2604A,100.0894,23.882,临沧市,市气象局,,44,44,38,28,28,53,,72,72,14,9,7,7,0.6,0.5
2026-01-11T2000,1733A,111.5552,36.0791,临汾市,临钢医院,,,108,50,33,12,6,,61,51,55,22,2,2,,0.4
2026-01-11T2000,1734A,111.4984,36.0734,临汾市,技工学校,,47,47,38,24,13,33,,61,58,35,13,2,2,0.5,0.3
2026-01-11T2000,1736A,111.5017,36.0857,临汾市,市委,颗粒物(PM10),56,61,43,19,4,26,,66,59,50,19,4,3,0.8,0.6
2026-01-11T2000,3018A,111.5048,36.1015,临汾市,唐尧大酒店,颗粒物(PM10),62,74,51,20,7,23,,63,58,53,22,1,3,0.6,0.4
2026-01-11T2000,4244A,111.4879,36.053,临汾市,启星学校,颗粒物(PM10),55,60,39,34,11,18,,69,61,66,23,5,4,0.9,0.6
2026-01-11T2000,4271A,103.2464,35.6123,临夏回族自治州,滨河东路1号,细颗粒物(PM2.5),107,105,144,80,73,10,,63,60,55,34,9,7,1.2,1.4
2026-01-11T2000,4310A,103.207136,35.599807,临夏回族自治州,新华街21号,细颗粒物(PM2.5),103,137,141,77,87,46,,65,65,53,40,13,11,1.6,1.8
2026-01-11T2000,1618A,118.3429,35.0532,临沂市,沂河小区,颗粒物(PM10),67,83,60,31,23,39,,62,57,35,30,24,14,0.6,0.5
2026-01-11T2000,1619A,118.2962,35.0568,临沂市,鲁南制药厂,颗粒物(PM10),71,92,62,39,24,36,,64,60,42,36,28,16,0.7,0.5
2026-01-11T2000,1620A,118.2793,34.9976,临沂市,新光毛纺厂,颗粒物(PM10),81,112,62,42,22,29,,63,57,50,37,32,14,0.8,0.5
2026-01-11T2000,1621A,118.3955,35.0889,临沂市,河东保险公司,颗粒物(PM10),54,58,48,26,13,41,,67,60,30,22,18,11,0.6,0.5
2026-01-11T2000,3370A,118.3563,35.0215,临沂市,十里堡居委,颗粒物(PM10),57,63,54,22,8,45,,65,60,28,27,29,14,0.4,0.4
2026-01-11T2000,3496A,118.359,35.1067,临沂市,南坊新区,颗粒物(PM10),62,73,53,27,14,49,,65,62,30,30,33,13,0.5,0.5
2026-01-11T2000,3860A,118.3915,35.0297,临沂市,皇山花园小区,颗粒物(PM10),59,68,52,14,7,47,,68,62,31,26,29,14,0.5,0.5
2026-01-11T2000,1870A,109.4854,24.3898,柳州市,柳东小学,细颗粒物(PM2.5),57,53,50,40,44,129,,125,125,15,11,13,13,0.7,0.6
2026-01-11T2000,1871A,109.4109,24.3304,柳州市,环保监测站,细颗粒物(PM2.5),67,77,65,48,49,67,,112,110,52,23,9,10,0.9,0.6
2026-01-11T2000,1872A,109.3886,24.3408,柳州市,河西水厂,细颗粒物(PM2.5),72,73,71,52,47,61,,120,117,60,28,9,16,1.1,0.7
2026-01-11T2000,1873A,109.4263,24.2951,柳州市,市四中,细颗粒物(PM2.5),114,112,57,86,44,19,,108,100,96,26,14,14,1.5,0.6
2026-01-11T2000,1874A,109.396,24.3658,柳州市,市九中,,,,59,,51,,,111,111,,24,,13,,0.7
2026-01-11T2000,1875A,109.4912,24.3164,柳州市,古亭山,细颗粒物(PM2.5),63,61,55,45,41,60,,108,104,48,33,14,14,0.6,0.6
2026-01-11T2000,3402A,109.5422,24.3994,柳州市,市二中,细颗粒物(PM2.5),69,,55,50,50,64,,115,112,36,20,34,13,0.6,0.5
2026-01-11T2000,2307A,116.5078,31.7369,六安市,监测大楼,颗粒物(PM10),57,64,94,26,32,55,,62,62,23,30,4,4,0.3,0.4
2026-01-11T2000,2308A,116.4738,31.7642,六安市,皖西学院,颗粒物(PM10),54,58,113,21,33,65,,71,71,21,32,5,5,0.4,0.4
2026-01-11T2000,2309A,116.4997,31.7904,六安市,朝阳厂,颗粒物(PM10),52,54,91,25,32,54,,60,60,35,32,8,6,0.4,0.4
2026-01-11T2000,2310A,116.5566,31.7885,六安市,开发区,颗粒物(PM10),57,63,112,31,38,64,,62,62,20,38,5,5,0.3,0.4
2026-01-11T2000,2577A,104.8293,26.592,六盘水市,黄土坡,细颗粒物(PM2.5),97,88,76,72,58,64,,70,63,25,22,9,10,0.8,0.8
2026-01-11T2000,2579A,104.8481,26.5898,六盘水市,民中,细颗粒物(PM2.5),104,84,72,78,60,60,,64,62,26,22,5,6,1.0,0.8
2026-01-11T2000,2580A,104.9541,26.5506,六盘水市,双水,细颗粒物(PM2.5),94,88,83,70,63,68,,71,71,20,17,5,6,0.4,0.5
2026-01-11T2000,4151A,104.8899,26.5685,六盘水市,钟山大道中段564号,细颗粒物(PM2.5),87,97,92,64,61,67,,68,68,16,17,6,10,0.8,0.8
2026-01-11T2000,2336A,117.022,25.1031,龙岩市,龙岩市监测站,细颗粒物(PM2.5),79,63,33,58,22,41,,102,93,53,24,47,39,0.8,0.4
2026-01-11T2000,2337A,117.0257,25.0662,龙岩市,闽西职业技术学院,细颗粒物(PM2.5),53,54,45,37,22,62,,102,96,34,34,14,19,0.6,0.5
2026-01-11T2000,2338A,117.0195,25.0306,龙岩市,龙岩学院,,42,,29,29,18,74,,99,97,11,16,7,10,/,/
2026-01-11T2000,2885A,104.9344,33.3827,陇南市,滨江中学,细颗粒物(PM2.5),133,192,96,101,44,5,,52,46,92,49,45,15,4.9,1.8
2026-01-11T2000,3247A,104.9551,33.3709,陇南市,市总工会,颗粒物(PM10),72,94,64,41,36,38,,64,64,45,29,10,10,1.0,0.9
2026-01-11T2000,2488A,111.9984,27.7346,娄底市,市监测站,细颗粒物(PM2.5),107,121,93,80,73,101,,118,118,32,30,12,16,1.0,1.3
2026-01-11T2000,2491A,111.9888,27.7035,娄底市,市政府,细颗粒物(PM2.5),90,93,89,67,71,100,,116,116,32,22,9,9,1.0,1
2026-01-11T2000,4127A,111.9812,27.7591,娄底市,涟钢职大,细颗粒物(PM2.5),109,133,85,82,57,64,,118,116,53,23,14,11,0.8,1.6
2026-01-11T2000,4128A,112.0303,27.7457,娄底市,娄底体校,细颗粒物(PM2.5),107,136,85,80,68,65,,102,102,38,25,4,5,1.0,0.8
2026-01-11T2000,1894A,105.4427,28.9063,泸州市,小市上码头,细颗粒物(PM2.5),143,144,134,109,101,39,,49,49,28,25,11,12,1.3,1.3
2026-01-11T2000,1895A,105.4241,28.8573,泸州市,兰田宪桥,细颗粒物(PM2.5),143,140,135,109,102,44,,51,51,25,24,8,8,1.2,1.3
2026-01-11T2000,1896A,105.4378,28.8833,泸州市,市环监站,细颗粒物(PM2.5),142,133,130,108,100,38,,52,52,32,28,9,8,1.2,1.1
2026-01-11T2000,4272A,105.3689,28.7783,泸州市,纳溪中医医院,细颗粒物(PM2.5),155,126,125,118,116,50,,55,55,19,20,8,8,1.0,1.1
2026-01-11T2000,2183A,111.1447,37.5212,吕梁市,环保局,颗粒物(PM10),85,119,58,40,15,4,,43,35,60,30,4,4,1.0,0.5
2026-01-11T2000,2185A,111.1285,37.5338,吕梁市,自来水公司,颗粒物(PM10),73,96,78,47,16,3,,40,31,58,30,18,6,0.7,0.4
2026-01-11T2000,2867A,111.1225,37.5093,吕梁市,马茂庄小学,颗粒物(PM10),91,131,67,27,13,3,,36,29,63,34,12,6,0.8,0.4
2026-01-11T2000,1812A,112.3934,34.6517,洛阳市,市委党校,颗粒物(PM10),61,71,72,29,37,30,,46,45,45,42,10,12,0.5,0.6
2026-01-11T2000,1815A,112.494,34.6883,洛阳市,河南林校,颗粒物(PM10),66,81,78,27,28,29,,49,47,44,43,12,13,0.6,0.7
2026-01-11T2000,1816A,112.3843,34.623,洛阳市,开发区管委会,颗粒物(PM10),60,69,68,31,29,33,,45,44,37,30,13,13,0.6,0.7
2026-01-11T2000,1817A,112.4263,34.6249,洛阳市,市委新办公区,颗粒物(PM10),66,81,70,30,33,32,,48,47,39,34,11,11,0.6,0.7
2026-01-11T2000,3340A,112.6005,34.6323,洛阳市,伊滨,颗粒物(PM10),65,79,74,40,40,30,,48,46,35,23,8,9,0.4,0.5
2026-01-11T2000,3341A,112.495,34.6338,洛阳市,中移产业园,颗粒物(PM10),65,79,72,38,35,29,,44,43,47,44,11,12,0.5,0.5
2026-01-11T2000,3593A,112.5736,34.8993,洛阳市,吉利监测站,颗粒物(PM10),61,72,60,33,22,29,,52,47,44,37,9,10,0.5,0.6
2026-01-11T2000,3635A,112.3678,34.6623,洛阳市,河科大西苑校区,颗粒物(PM10),68,85,77,32,29,29,,47,46,41,36,11,12,0.6,0.7
2026-01-11T2000,3636A,112.4387,34.678,洛阳市,英才小学,颗粒物(PM10),64,78,77,36,38,32,,48,46,45,45,12,13,0.6,0.7
2026-01-11T2000,4214A,112.460027,34.694929,洛阳市,春都路1号院,颗粒物(PM10),70,90,83,37,29,36,,49,48,35,38,9,11,0.7,0.9
2026-01-11T2000,2399A,114.051,33.5721,漯河市,三五一五工厂,颗粒物(PM10),69,88,64,34,21,45,,66,64,29,19,8,8,0.7,0.6
2026-01-11T2000,2400A,114.0055,33.5698,漯河市,漯河大学,颗粒物(PM10),71,92,63,36,19,53,,68,67,25,19,6,7,0.6,0.5
2026-01-11T2000,2401A,114.0134,33.5826,漯河市,市水利局,颗粒物(PM10),76,102,62,46,23,43,,61,59,23,18,8,8,0.5,0.4
2026-01-11T2000,2402A,114.0261,33.5697,漯河市,市广电局,颗粒物(PM10),75,100,61,41,22,46,,71,68,28,19,7,7,0.5,0.5
2026-01-11T2000,3478A,113.9691,33.568,漯河市,市图书馆,颗粒物(PM10),69,88,66,32,25,41,,58,56,24,17,5,6,0.6,0.5
2026-01-11T2000,4250A,114.089259,33.588274,漯河市,韶山路11号,颗粒物(PM10),75,99,63,42,23,27,,61,56,41,24,6,7,0.6,0.6
2026-01-11T2000,1798A,118.5084,31.6838,马鞍山市,湖东路四小,颗粒物(PM10),65,79,117,29,30,23,,60,55,58,40,4,12,0.6,0.8
2026-01-11T2000,1799A,118.5019,31.6449,马鞍山市,开发区,颗粒物(PM10),69,87,124,31,34,22,,56,50,55,48,4,10,0.7,0.8
2026-01-11T2000,3633A,118.4914,31.681,马鞍山市,雨山,颗粒物(PM10),63,76,118,30,29,32,,62,57,52,42,7,13,0.6,0.8
2026-01-11T2000,4191A,118.527362,31.722269,马鞍山市,慈湖高新区,颗粒物(PM10),63,76,141,24,35,39,,66,60,44,44,4,9,0.6,0.6
2026-01-11T2000,1686A,111.0285,21.469,茂名市,电白南海,,41,34,61,22,33,130,,121,121,13,27,9,17,0.6,0.6
2026-01-11T2000,1687A,110.9294,21.6533,茂名市,茂石化七小,颗粒物(PM10),53,56,64,22,33,101,,109,109,30,33,9,15,0.3,0.4
2026-01-11T2000,1688A,110.9108,21.6688,茂名市,健康路,,41,41,63,24,40,123,,122,122,26,37,10,20,0.5,0.9
2026-01-11T2000,1689A,110.8592,21.6826,茂名市,高岭,颗粒物(PM10),67,83,89,29,38,86,,117,116,42,42,12,19,/,/
2026-01-11T2000,3450A,111.0101,21.5165,茂名市,电白水东,,40,34,48,22,28,126,,122,122,18,20,8,17,/,/
2026-01-11T2000,2540A,103.8414,30.0871,眉山市,气象局,细颗粒物(PM2.5),203,184,165,153,146,32,,55,55,60,46,12,13,1.1,0.9
2026-01-11T2000,3148A,103.829,30.0563,眉山市,区人社局,细颗粒物(PM2.5),185,152,154,139,139,21,,53,53,70,51,9,10,1.2,1.1
2026-01-11T2000,4148A,103.8836,30.0695,眉山市,眉职院,细颗粒物(PM2.5),145,146,159,111,124,15,,52,52,55,38,2,2,1.0,0.9
2026-01-11T2000,1690A,116.1248,24.3307,梅州市,梅江月梅,,50,49,39,35,25,37,,95,92,53,30,/,/,/,/
2026-01-11T2000,1691A,116.0798,24.2719,梅州市,梅县新城,细颗粒物(PM2.5),117,117,47,88,30,21,,86,77,69,39,8,8,1.0,0.6
2026-01-11T2000,3315A,116.1234,24.2994,梅州市,梅龙,颗粒物(PM10),65,80,41,37,23,21,,86,80,65,32,10,10,1.2,0.6
2026-01-11T2000,1878A,104.7775,31.4741,绵阳市,富乐山,细颗粒物(PM2.5),150,133,107,115,88,41,,54,54,19,33,11,11,0.7,0.7
2026-01-11T2000,1880A,104.6698,31.4668,绵阳市,高新区自来水公司,细颗粒物(PM2.5),170,167,146,129,106,1,,34,33,70,52,9,9,1.2,1.2
2026-01-11T2000,3491A,104.6899,31.5324,绵阳市,西科大附属小学,细颗粒物(PM2.5),180,188,141,136,87,40,,47,45,41,49,8,9,0.8,0.9
2026-01-11T2000,3492A,104.5647,31.5343,绵阳市,安州区旅游局,细颗粒物(PM2.5),195,167,125,146,105,7,,48,44,72,44,10,11,1.7,1.4
2026-01-11T2000,4146A,104.7092,31.4972,绵阳市,科技城新区公安局,细颗粒物(PM2.5),156,142,128,119,103,36,,51,51,43,48,4,4,0.9,0.9
2026-01-11T2000,4226A,104.765114,31.453094,绵阳市,绵阳市气象局,细颗粒物(PM2.5),162,146,116,123,94,29,,46,46,52,45,6,9,1.0,1
2026-01-11T2000,1784A,129.61,44.561,牡丹江市,环保大楼,细颗粒物(PM2.5),55,41,40,39,32,48,,56,54,18,17,3,4,0.5,0.4
2026-01-11T2000,1787A,129.6364,44.6075,牡丹江市,机车工厂,细颗粒物(PM2.5),64,,43,46,35,51,,54,53,12,18,5,3,0.4,0.4
2026-01-11T2000,1788A,129.6386,44.5462,牡丹江市,第一中学,细颗粒物(PM2.5),59,42,34,42,30,22,,52,43,32,15,7,6,0.8,0.5
2026-01-11T2000,4287A,129.5992,44.5964,牡丹江市,东晓云街98号,,49,36,36,34,38,54,,57,56,9,13,4,5,0.4,0.5
2026-01-11T2000,2531A,105.0703,29.61,内江市,市监测站,细颗粒物(PM2.5),185,139,134,139,140,49,,63,63,34,28,6,6,1.0,1
2026-01-11T2000,2533A,105.0657,29.5807,内江市,内江二中,细颗粒物(PM2.5),162,153,153,123,136,50,,51,51,38,41,6,5,1.1,1.1
2026-01-11T2000,2534A,105.0407,29.5828,内江市,内江日报社,细颗粒物(PM2.5),152,,123,116,128,56,,56,56,39,44,3,3,0.8,1
2026-01-11T2000,4147A,105.0433,29.6105,内江市,玉峰路西段888号,细颗粒物(PM2.5),163,149,131,124,132,50,,58,58,34,29,3,3,1.0,1.1
2026-01-11T2000,2628A,92.0653,31.4846,那曲市,那曲监测站,,24,22,48,10,29,76,,76,76,18,24,7,11,0.9,1.3
2026-01-11T2000,4243A,92.0515,31.4787,那曲市,那曲市委宣传部,,29,10,35,3,21,91,,82,82,1,25,3,8,0.4,1.3
2026-01-11T2000,1291A,115.8887,28.7006,南昌市,省林业公司,颗粒物(PM10),87,124,114,48,32,41,,83,78,42,24,5,5,0.9,0.8
2026-01-11T2000,1292A,115.813,28.7443,南昌市,林科所,颗粒物(PM10),59,68,93,27,25,62,,83,80,21,18,8,8,0.5,0.5
2026-01-11T2000,1294A,115.8518,28.687,南昌市,建工学校,颗粒物(PM10),72,93,100,43,31,54,,81,80,25,12,14,14,0.7,0.6
2026-01-11T2000,1295A,115.8926,28.6425,南昌市,象湖,颗粒物(PM10),72,93,85,51,32,58,,84,83,43,20,12,11,0.9,0.7
2026-01-11T2000,3046A,115.9084,28.6062,南昌市,机电学校,颗粒物(PM10),80,110,108,51,33,58,,84,82,42,22,8,7,0.6,0.5
2026-01-11T2000,3690A,115.9718,28.7032,南昌市,外国语学校,颗粒物(PM10),72,94,104,45,35,64,,89,88,36,24,15,13,0.6,0.6
2026-01-11T2000,4106A,115.7923,28.6873,南昌市,工业二路,颗粒物(PM10),63,75,71,33,27,25,,85,78,69,22,5,5,0.3,0.3
2026-01-11T2000,4192A,115.931587,28.686774,南昌市,南京东路235号,颗粒物(PM10),73,95,110,51,35,54,,92,89,47,26,8,8,0.3,0.4
2026-01-11T2000,1906A,106.0791,30.8022,南充市,南充市委,细颗粒物(PM2.5),158,139,140,120,124,26,,42,42,53,42,5,5,1.0,0.9
2026-01-11T2000,1907A,106.1038,30.8215,南充市,南充炼油厂,细颗粒物(PM2.5),153,141,139,117,119,50,,56,56,31,29,6,6,0.7,0.7
2026-01-11T2000,4227A,106.108336,30.788436,南充市,梨树横街98号,细颗粒物(PM2.5),137,132,134,104,111,57,,60,60,39,30,6,6,0.8,0.8
2026-01-11T2000,4304A,106.1172,30.843,南充市,清泉寺北路188号,细颗粒物(PM2.5),145,114,111,111,100,54,,65,65,28,22,6,6,0.6,0.6
2026-01-11T2000,4305A,106.067,30.7616,南充市,同庆路1号,细颗粒物(PM2.5),147,125,137,112,120,35,,44,44,45,36,6,6,1.0,0.8
2026-01-11T2000,1151A,118.8033,32.1085,南京市,迈皋桥,颗粒物(PM10),53,56,67,17,21,43,,73,66,32,26,5,6,0.7,0.6
2026-01-11T2000,1152A,118.7487,32.057,南京市,草场门,颗粒物(PM10),57,63,92,14,21,47,,61,60,34,41,8,10,0.2,0.3
2026-01-11T2000,1154A,118.770105,32.004342,南京市,中华门,颗粒物(PM10),56,61,88,14,24,44,,62,59,26,35,4,5,0.4,0.5
2026-01-11T2000,1155A,118.8059,32.0329,南京市,瑞金路,颗粒物(PM10),56,61,79,22,24,26,,65,59,40,34,4,4,0.7,0.9
2026-01-11T2000,1156A,118.7946,32.0774,南京市,玄武湖,,47,47,71,12,17,42,,63,57,25,25,4,4,0.5,0.6
2026-01-11T2000,1157A,118.6415,32.0964,南京市,浦口,颗粒物(PM10),58,65,88,22,20,24,,60,55,55,20,10,9,0.6,0.3
2026-01-11T2000,1158A,118.730129,32.000956,南京市,奥体中心,颗粒物(PM10),59,67,98,19,26,50,,71,69,32,39,7,8,0.4,0.5
2026-01-11T2000,1159A,118.9072,32.1047,南京市,仙林大学城,颗粒物(PM10),63,75,78,17,15,43,,60,56,27,38,9,6,0.6,0.6
2026-01-11T2000,3422A,118.8443,31.919,南京市,江宁彩虹桥,颗粒物(PM10),52,53,74,24,23,41,,67,61,27,34,4,5,0.5,0.5
2026-01-11T2000,3427A,118.8497,32.3599,南京市,六合雄州,,,,79,,21,,,68,68,,31,,9,,0.5
2026-01-11T2000,4086A,118.7641,32.0841,南京市,新模范马路66号,颗粒物(PM10),53,56,96,19,14,49,,66,63,26,36,5,5,0.5,0.8
2026-01-11T2000,4249A,118.8707617,31.34017673,南京市,汶溪路181号,颗粒物(PM10),56,62,118,31,35,51,,68,65,32,32,4,6,0.4,0.4
2026-01-11T2000,4312A,119.019,31.6512,南京市,中山西路1号,颗粒物(PM10),52,53,89,19,29,40,,63,59,33,31,3,4,0.5,0.4
2026-01-11T2000,1401A,108.3098,22.788,南宁市,二十一中,细颗粒物(PM2.5),64,,71,46,58,44,,90,89,55,45,4,10,1.0,0.6
2026-01-11T2000,1402A,108.3135,22.8529,南宁市,北湖,细颗粒物(PM2.5),72,92,88,52,67,17,,94,82,96,73,6,8,1.4,1
2026-01-11T2000,1403A,108.3205,22.8222,南宁市,市监测站,细颗粒物(PM2.5),65,51,86,47,55,54,,96,96,65,55,8,12,0.9,1
2026-01-11T2000,1404A,108.3828,22.8038,南宁市,大自然花园,细颗粒物(PM2.5),55,40,76,39,57,66,,100,98,40,39,6,9,0.7,0.8
2026-01-11T2000,1406A,108.2397,22.8462,南宁市,区农职院,细颗粒物(PM2.5),72,84,70,52,55,25,,95,90,71,40,12,14,1.0,0.9
2026-01-11T2000,1407A,108.3285,22.7356,南宁市,英华嘉园,颗粒物(PM10),77,103,83,47,65,2,,91,78,95,54,5,8,1.2,0.9
2026-01-11T2000,3401A,108.4829,22.762,南宁市,红星社区,细颗粒物(PM2.5),75,68,59,55,48,70,,106,104,37,30,7,8,0.8,0.7
2026-01-11T2000,4132A,108.2927,23.1477,南宁市,起凤路9号,细颗粒物(PM2.5),97,106,96,72,79,26,,112,104,76,39,4,7,0.8,0.8
2026-01-11T2000,4221A,108.2177,22.7774,南宁市,乐贤路16号,颗粒物(PM10),82,113,92,54,61,19,,95,88,89,49,4,6,0.7,0.7
2026-01-11T2000,2332A,118.1682,26.6371,南平市,南平市监测站,,43,42,38,30,27,48,,88,84,29,26,5,5,0.7,0.5
2026-01-11T2000,2334A,118.1757,26.6276,南平市,南平七中,,32,27,35,22,28,65,,90,88,19,21,6,7,0.5,0.5
2026-01-11T2000,1168A,120.9056,31.9669,南通市,狼山街道,,49,49,65,17,18,52,,63,62,17,12,3,5,0.3,0.3
2026-01-11T2000,1170A,120.8635,32.0231,南通市,城中,颗粒物(PM10),51,51,76,12,17,56,,64,63,17,18,3,6,0.4,0.4
2026-01-11T2000,1171A,120.9376,31.9301,南通市,星湖花园,,45,45,70,13,18,60,,68,67,21,20,4,6,0.1,0.1
2026-01-11T2000,1172A,120.8053,32.046,南通市,紫琅学院,,48,48,79,14,18,53,,66,64,22,20,3,7,0.4,0.3
2026-01-11T2000,3291A,121.0631,32.0644,南通市,通州监测站,,34,34,66,7,17,66,,72,72,17,23,3,6,0.4,0.4
2026-01-11T2000,3432A,120.9348,31.9874,南通市,环境教育馆,颗粒物(PM10),52,53,67,18,15,48,,67,64,24,18,4,6,0.5,0.5
2026-01-11T2000,4091A,120.8692,31.9885,南通市,洪江路,,36,36,54,12,15,51,,58,58,19,16,2,5,0.3,0.3
2026-01-11T2000,2404A,112.5338,33.0086,南阳市,瓦房庄,颗粒物(PM10),76,102,78,44,34,28,,72,68,48,18,7,7,0.9,0.5
2026-01-11T2000,2405A,112.5002,32.9734,南阳市,汉画馆,颗粒物(PM10),77,104,84,43,34,22,,69,63,50,20,6,6,0.8,0.5
2026-01-11T2000,2406A,112.5778,33.0144,南阳市,气象站,颗粒物(PM10),83,115,96,36,29,38,,76,73,46,20,6,6,0.8,0.6
2026-01-11T2000,2407A,112.548,32.9687,南阳市,理工学院,颗粒物(PM10),78,105,83,42,28,38,,72,69,41,20,6,6,0.8,0.5
2026-01-11T2000,4008A,112.5233,32.9921,南阳市,卧龙区政府,颗粒物(PM10),76,102,84,38,31,33,,68,64,48,20,6,6,0.8,0.6
2026-01-11T2000,1234A,121.8352,29.9111,宁波市,区环保大楼,颗粒物(PM10),55,60,112,20,27,47,,64,62,39,35,6,8,0.3,0.4
2026-01-11T2000,1235A,121.5595,29.8208,宁波市,万里学院,颗粒物(PM10),62,74,110,23,29,51,,66,64,31,28,5,5,0.5,0.5
2026-01-11T2000,1236A,121.713,29.9564,宁波市,龙赛医院,颗粒物(PM10),59,67,124,15,19,46,,63,60,35,31,2,5,0.5,0.6
2026-01-11T2000,1240A,121.5855,29.8635,宁波市,太古小学,颗粒物(PM10),61,71,123,25,27,48,,72,69,36,27,5,5,0.6,0.6
2026-01-11T2000,1241A,121.5239,29.8673,宁波市,市环境监测中心,颗粒物(PM10),65,80,109,21,24,40,,61,59,44,34,7,8,0.6,0.6
2026-01-11T2000,2871A,121.6156,29.9015,宁波市,万里国际学校,颗粒物(PM10),64,78,98,29,24,6,,70,60,88,35,5,5,0.5,0.5
2026-01-11T2000,3710A,121.5593,29.8976,宁波市,白沙活动中心,颗粒物(PM10),68,86,98,35,28,32,,64,60,45,30,4,5,0.7,0.6
2026-01-11T2000,4095A,121.8962,29.7529,宁波市,中科路88号,颗粒物(PM10),60,70,105,21,20,24,,73,66,57,26,6,7,0.5,0.5
2026-01-11T2000,2341A,119.5387,26.6611,宁德市,宁德市监测站,颗粒物(PM10),67,84,43,17,22,89,,111,111,25,22,7,8,0.3,0.4
2026-01-11T2000,3209A,119.5231,26.6562,宁德市,宁德一中,颗粒物(PM10),68,85,42,26,26,96,,113,113,17,18,6,7,0.5,0.6
2026-01-11T2000,2618A,98.859,25.8541,怒江傈僳族自治州,州监测站,,36,36,34,23,23,63,,74,74,14,11,8,7,0.5,0.4
2026-01-11T2000,2619A,98.8607,25.8168,怒江傈僳族自治州,泸水一中,,32,32,28,6,21,43,,62,62,23,14,6,6,0.7,0.6
2026-01-11T2000,1888A,101.6891,26.571,攀枝花市,弄弄坪,,44,44,47,21,32,55,,74,74,19,20,8,13,0.6,1.1
2026-01-11T2000,1889A,101.577,26.5914,攀枝花市,河门口,,36,36,49,20,34,64,,76,76,10,21,13,22,0.7,1.2
2026-01-11T2000,1891A,101.7365,26.4986,攀枝花市,仁和,,,39,49,21,32,,,71,71,16,21,8,11,0.6,1
2026-01-11T2000,2835A,101.7222,26.567,攀枝花市,四十中小,,40,40,61,24,40,51,,64,64,18,38,10,15,0.8,1.4
2026-01-11T2000,1604A,122.0303,41.1489,盘锦市,开发区,,30,30,25,16,13,48,,61,57,15,10,4,4,0.4,0.3
2026-01-11T2000,1605A,122.0486,41.0883,盘锦市,兴隆台,,24,24,24,15,10,36,,54,49,35,21,7,7,0.6,0.5
2026-01-11T2000,1606A,121.8297,41.1026,盘锦市,新生街道,,16,14,18,11,9,42,,62,55,22,27,11,8,0.5,0.4
2026-01-11T2000,1832A,113.3257,33.7423,平顶山市,新华旅馆,颗粒物(PM10),64,78,80,33,24,45,,61,60,28,34,9,7,0.9,0.5
2026-01-11T2000,1833A,113.2917,33.737,平顶山市,规划设计院,颗粒物(PM10),65,79,72,36,29,49,,64,64,22,28,8,8,0.5,0.5
2026-01-11T2000,1834A,113.182,33.7738,平顶山市,平顶山工学院,颗粒物(PM10),57,64,65,27,24,56,,66,66,21,24,8,9,0.3,0.3
2026-01-11T2000,3594A,112.8736,33.9068,平顶山市,石龙区,颗粒物(PM10),76,101,106,49,37,42,,64,63,29,24,8,9,0.6,0.6
2026-01-11T2000,4116A,113.284,33.7139,平顶山市,姚电大道23号,颗粒物(PM10),76,101,92,45,28,45,,64,62,27,30,7,9,0.5,0.5
2026-01-11T2000,2656A,106.6633,35.5338,平凉市,聚贤嘉苑,颗粒物(PM10),71,92,67,42,28,21,,65,62,64,35,17,14,1.0,0.8
2026-01-11T2000,2657A,106.7021,35.5307,平凉市,博物馆,细颗粒物(PM2.5),114,121,78,86,40,18,,62,58,64,36,21,14,1.5,0.8
2026-01-11T2000,2348A,113.8384,27.6436,萍乡市,中医院,颗粒物(PM10),80,110,112,38,59,83,,104,103,31,37,7,7,0.8,1.3
2026-01-11T2000,2350A,113.8677,27.6438,萍乡市,市环保局,颗粒物(PM10),68,86,96,39,62,88,,106,106,24,36,14,15,0.6,1
2026-01-11T2000,2351A,113.8663,27.6202,萍乡市,安源区政府,颗粒物(PM10),75,100,102,49,76,63,,84,84,35,30,11,11,0.8,1.3
2026-01-11T2000,4107A,113.8686,27.6668,萍乡市,联洪村委会,颗粒物(PM10),71,92,105,39,64,81,,97,97,25,27,6,5,0.4,0.8
2026-01-11T2000,2319A,119.0142,25.4324,莆田市,荔城区仓后路,颗粒物(PM10),63,76,56,20,28,106,,122,121,15,18,/,/,/,/
2026-01-11T2000,2320A,119.0016,25.4553,莆田市,莆田市监测站,颗粒物(PM10),62,74,47,21,25,108,,127,125,14,13,4,4,0.4,0.5
2026-01-11T2000,2321A,119.112,25.4561,莆田市,涵江区六中,颗粒物(PM10),58,65,52,15,27,106,,123,123,12,15,/,/,0.4,0.5
2026-01-11T2000,2322A,119.1014,25.3215,莆田市,秀屿区政府,颗粒物(PM10),58,65,62,17,32,104,,122,121,11,17,3,4,0.5,0.5
2026-01-11T2000,2392A,115.0312,35.7636,濮阳市,环保局,颗粒物(PM10),54,57,49,17,8,51,,65,62,26,20,7,7,0.5,0.4
2026-01-11T2000,3021A,115,35.7667,濮阳市,濮水河管理处,颗粒物(PM10),56,61,46,15,7,55,,67,65,24,18,5,5,0.6,0.6
2026-01-11T2000,4118A,115.0552,35.7816,濮阳市,中原东路68号,颗粒物(PM10),66,81,61,17,10,49,,67,63,27,18,6,6,0.5,0.3
2026-01-11T2000,4216A,115.0923632,35.76857718,濮阳市,任丘路479号,颗粒物(PM10),74,97,59,34,9,34,,68,61,37,19,6,5,0.4,0.3
2026-01-11T2000,2601A,100.9801,22.7634,普洱市,市环保局,细颗粒物(PM2.5),58,61,42,41,20,53,,61,61,11,9,4,4,0.4,0.4
2026-01-11T2000,2602A,100.9763,22.8237,普洱市,普洱第二中学,,43,43,36,28,19,56,,63,63,9,17,5,5,0.3,0.3
2026-01-11T2000,3345A,131.0413,45.7795,七台河市,中波台,,35,29,37,24,30,38,,54,50,19,17,14,6,0.3,0.3
2026-01-11T2000,3637A,131.0136,45.7688,七台河市,人民广场,细颗粒物(PM2.5),65,53,49,47,40,26,,52,46,37,26,13,8,0.6,0.6
2026-01-11T2000,3684A,130.8639,45.8144,七台河市,新建矿广场,,48,,42,33,33,39,,47,42,12,16,4,7,0.3,0.3
2026-01-11T2000,1779A,123.9307,47.3641,齐齐哈尔市,安居小区,,19,19,45,11,35,40,,44,41,18,24,8,8,0.7,0.8
2026-01-11T2000,1780A,123.9497,47.3389,齐齐哈尔市,中心广场,,39,35,35,27,27,34,,41,37,18,18,7,7,0.7,0.8
2026-01-11T2000,1781A,123.9483,47.3229,齐齐哈尔市,农牧车辆厂,,29,27,38,20,26,44,,44,43,9,11,6,7,0.3,0.4
2026-01-11T2000,1783A,123.9442,47.2994,齐齐哈尔市,市环境监测站,,32,32,37,21,25,45,,50,48,11,15,6,8,0.6,0.6
2026-01-11T2000,3662A,123.6341,47.2079,齐齐哈尔市,富区青少年活动中心,,45,45,44,24,26,38,,48,45,13,16,5,7,0.5,0.6
2026-01-11T2000,2591A,107.9765,26.5724,黔东南苗族侗族自治州,市环境监测站,细颗粒物(PM2.5),88,79,67,65,57,3,,41,36,55,20,4,2,0.9,0.6
2026-01-11T2000,2881A,107.8909,26.531,黔东南苗族侗族自治州,凯里学院,细颗粒物(PM2.5),85,95,59,63,49,15,,49,46,45,17,5,4,0.7,0.5
2026-01-11T2000,2593A,107.5223,26.2371,黔南布依族苗族自治州,小围寨,,45,39,44,31,40,66,,71,70,6,11,8,9,0.7,0.7
2026-01-11T2000,3538A,107.5175,26.2977,黔南布依族苗族自治州,沙坝,细颗粒物(PM2.5),55,39,50,39,41,57,,67,67,12,15,6,7,0.8,0.9
2026-01-11T2000,2589A,104.9022,25.0943,黔西南布依族苗族自治州,场坝街,细颗粒物(PM2.5),113,85,99,85,88,53,,59,59,15,15,6,7,0.8,0.8
2026-01-11T2000,2590A,104.8812,25.0994,黔西南布依族苗族自治州,坪东大道,细颗粒物(PM2.5),115,,93,87,85,52,,60,60,17,17,6,8,0.9,0.8
2026-01-11T2000,2502A,108.6238,21.9667,钦州市,市环保站,颗粒物(PM10),101,151,117,58,64,,,114,114,64,42,6,7,1.4,1.5
2026-01-11T2000,2503A,108.655,21.9481,钦州市,沙埠小学,细颗粒物(PM2.5),144,146,104,110,68,25,,112,105,91,46,6,9,1.4,1.2
2026-01-11T2000,2504A,108.5989,21.7435,钦州市,港区一小,颗粒物(PM10),81,111,90,52,57,137,,122,122,30,35,9,12,0.9,1.2
2026-01-11T2000,3404A,108.5959,21.9634,钦州市,北职校,"颗粒物(PM10),细颗粒物(PM2.5)",84,118,79,62,58,39,,109,103,63,29,10,11,1.0,1
2026-01-11T2000,1046A,119.5247,39.9346,秦皇岛市,建设大厦,,50,50,24,29,20,35,,61,55,29,16,12,6,0.5,0.3
2026-01-11T2000,3132A,119.5979,39.938,秦皇岛市,文明里,,35,35,22,14,13,40,,61,55,23,27,10,10,0.5,0.3
2026-01-11T2000,4066A,119.7458,39.9952,秦皇岛市,南园路157号,,42,42,23,8,7,50,,64,58,18,16,8,7,0.4,0.3
2026-01-11T2000,4067A,119.5131,39.8858,秦皇岛市,翠岛大街1号,,46,46,31,12,6,33,,61,51,26,8,10,9,0.5,0.3
2026-01-11T2000,4198A,119.509013,39.825305,秦皇岛市,北戴河轮滑馆,,46,46,24,17,14,44,,64,60,21,9,7,6,0.4,0.3
2026-01-11T2000,1310A,120.404,36.0625,青岛市,市南区东部子站,,18,17,39,3,8,56,,65,63,17,11,9,11,0.5,0.5
2026-01-11T2000,1311A,120.362344,36.10282,青岛市,四方区子站,,31,31,46,9,9,56,,70,68,16,6,5,4,0.5,0.5
2026-01-11T2000,1312A,120.294373,36.054183,青岛市,市南区西部子站,,17,14,35,3,8,53,,63,62,14,12,4,4,0.3,0.4
2026-01-11T2000,1313A,120.4581,36.0858,青岛市,崂山区子站,,16,14,30,3,5,51,,67,65,17,7,9,9,0.2,0.3
2026-01-11T2000,1315A,120.3945,36.3083,青岛市,城阳区子站,,41,41,41,15,13,31,,72,66,48,21,9,7,0.8,0.7
2026-01-11T2000,3642A,120.3454,36.0735,青岛市,市北区南部,,21,21,35,9,7,52,,59,58,14,10,5,2,0.4,0.5
2026-01-11T2000,3643A,120.3897,36.18,青岛市,李沧区北部,,19,19,37,12,13,40,,61,58,27,13,9,10,0.8,0.7
2026-01-11T2000,4110A,120.5222,36.4089,青岛市,盟旺路653号,,39,31,42,27,14,38,,66,62,38,24,9,5,0.6,0.4
2026-01-11T2000,4290A,120.196923,35.954556,青岛市,珠江路669号,,17,14,30,10,14,53,,70,63,26,16,10,11,0.4,0.5
2026-01-11T2000,4291A,120.0424,35.8656,青岛市,黄岛区人民政府广场,,22,22,37,3,8,55,,73,72,18,18,6,8,0.5,0.6
2026-01-11T2000,1703A,113.0218,23.7086,清远市,凤城街办,颗粒物(PM10),53,55,32,28,20,52,,105,98,53,25,/,/,/,/
2026-01-11T2000,3025A,113.0479,23.6343,清远市,技师学院,颗粒物(PM10),57,63,35,32,18,50,,103,98,53,26,8,11,0.6,0.5
2026-01-11T2000,3318A,112.9898,23.7403,清远市,清新太和,,36,36,30,20,17,98,,109,109,21,16,8,7,0.4,0.3
2026-01-11T2000,3455A,113.076,23.72,清远市,清城东城,,42,42,31,21,18,74,,105,103,25,17,/,/,/,/
2026-01-11T2000,2661A,107.6325,35.7357,庆阳市,庆阳五中,颗粒物(PM10),68,85,61,44,24,72,,82,82,30,16,9,7,0.7,0.4
2026-01-11T2000,2662A,107.6361,35.7067,庆阳市,市环保局,颗粒物(PM10),65,79,65,39,24,76,,82,81,24,14,6,6,0.6,0.5
2026-01-11T2000,1916A,103.7897,25.5036,曲靖市,环境监测站,颗粒物(PM10),54,57,64,24,42,62,,54,54,16,15,4,4,0.7,0.8
2026-01-11T2000,1917A,103.8013,25.5357,曲靖市,烟厂办公区,,47,47,66,30,44,61,,50,50,14,15,4,4,0.6,0.7
2026-01-11T2000,3376A,103.7926,25.4651,曲靖市,南苑二区,,46,42,56,32,42,70,,58,58,9,11,4,4,0.5,0.7
2026-01-11T2000,3377A,103.7442,25.5259,曲靖市,曲靖师范学院,,48,48,61,33,50,67,,59,59,11,14,1,1,0.4,0.6
2026-01-11T2000,1264A,118.8694,28.94,衢州市,环保大楼,颗粒物(PM10),67,84,79,33,38,29,,75,70,61,51,/,/,/,/
2026-01-11T2000,1266A,118.8622,28.9809,衢州市,衢州学院,颗粒物(PM10),61,72,78,23,31,18,,71,66,63,53,6,6,0.6,0.7
2026-01-11T2000,4097A,118.9646,28.9832,衢州市,衢州三中,颗粒物(PM10),71,91,80,35,37,7,,76,68,79,46,5,6,0.7,0.7
2026-01-11T2000,1611A,118.5818,24.9116,泉州市,涂山街,颗粒物(PM10),66,82,75,19,39,95,,126,123,15,27,4,4,0.4,0.6
2026-01-11T2000,1612A,118.597,24.8976,泉州市,津头埔,颗粒物(PM10),67,83,71,20,39,95,,124,122,18,29,5,6,0.4,0.6
2026-01-11T2000,1613A,118.6669,24.9422,泉州市,万安,颗粒物(PM10),67,84,72,16,32,93,,120,117,14,29,4,5,0.4,0.6
2026-01-11T2000,4105A,118.6355,24.9148,泉州市,霞新路6号,颗粒物(PM10),53,56,67,17,35,96,,128,124,15,31,/,/,0.4,0.5
2026-01-11T2000,2626A,88.8873,29.2723,日喀则市,日喀则监测站,颗粒物(PM10),80,109,48,18,25,89,,102,102,14,26,8,12,0.3,0.9
2026-01-11T2000,3726A,88.8775,29.2425,日喀则市,林业技术推广中心,颗粒物(PM10),85,120,38,13,16,102,,106,106,5,10,9,10,0.1,0.3
2026-01-11T2000,1659A,119.4711,35.421,日照市,监测站,,39,39,33,11,9,42,,67,60,29,16,9,8,0.6,0.5
2026-01-11T2000,1660A,119.523,35.4216,日照市,市政府广场,,39,39,29,15,7,50,,67,63,24,13,9,9,0.3,0.3
2026-01-11T2000,1661A,119.5511,35.4113,日照市,港务局,,41,41,35,22,18,56,,68,63,20,13,8,7,0.4,0.4
2026-01-11T2000,3507A,119.5326,35.4627,日照市,职业技术学院,,36,36,32,17,6,46,,68,61,27,14,13,8,0.7,0.4
2026-01-11T2000,3604A,119.3267,35.1043,日照市,岚山环保分局,,31,31,44,14,17,67,,70,70,17,25,10,11,0.7,0.7
2026-01-11T2000,1835A,111.1922,34.7752,三门峡市,市政府,颗粒物(PM10),64,77,63,38,28,48,,63,61,28,28,15,13,0.5,0.5
2026-01-11T2000,1836A,111.1588,34.794,三门峡市,开发区,颗粒物(PM10),73,96,73,40,26,43,,55,54,33,29,14,9,0.6,0.5
2026-01-11T2000,3039A,111.1911,34.7829,三门峡市,三门峡市第一小学,颗粒物(PM10),66,82,64,44,23,44,,58,56,33,25,16,11,0.5,0.5
2026-01-11T2000,3598A,111.1031,34.719,三门峡市,富达温泉假日酒店,颗粒物(PM10),71,92,63,39,26,40,,63,60,40,26,11,8,0.5,0.5
2026-01-11T2000,2324A,117.621,26.2626,三明市,三钢,细颗粒物(PM2.5),52,47,37,36,29,48,,98,93,41,27,6,6,0.5,0.9
2026-01-11T2000,2325A,117.6352,26.2714,三明市,三明二中,,46,32,33,32,23,49,,94,90,32,20,9,10,0.7,0.6
2026-01-11T2000,2326A,117.6028,26.2377,三明市,三元区政府,颗粒物(PM10),66,82,40,34,27,17,,94,86,64,28,7,6,1.1,0.8
2026-01-11T2000,1877A,109.4962,18.2682,三亚市,河西子站,颗粒物(PM10),54,57,51,27,27,138,,160,160,29,20,6,6,0.6,0.6
2026-01-11T2000,3540A,109.7348,18.3443,三亚市,君悦子站,颗粒物(PM10),52,53,51,25,25,140,,149,149,12,19,5,6,0.6,0.6
2026-01-11T2000,4135A,109.1714,18.3739,三亚市,城东小学站,,45,38,33,31,27,102,,131,130,20,12,/,/,/,/
2026-01-11T2000,2624A,91.7592,29.234,山南市,山南监测站,,34,20,21,11,11,107,,92,92,2,12,6,6,0.3,0.4
2026-01-11T2000,2625A,91.7701,29.2436,山南市,山南人民医院,,,47,25,14,7,,,77,,7,10,5,6,0.4,0.4
2026-01-11T2000,1674A,116.6795,23.3666,汕头市,金平子站,颗粒物(PM10),66,82,58,35,33,135,,141,141,21,30,5,12,0.8,0.8
2026-01-11T2000,1675A,116.7248,23.3632,汕头市,龙湖子站,颗粒物(PM10),66,82,54,30,27,132,,138,138,16,23,10,14,/,/
2026-01-11T2000,1676A,116.7257,23.2774,汕头市,濠江子站,,,70,53,34,34,129,,134,134,,24,8,11,/,/
2026-01-11T2000,1677A,116.7518,23.4712,汕头市,澄海子站,颗粒物(PM10),65,80,62,40,32,137,,142,142,17,24,8,13,0.6,0.3
2026-01-11T2000,1678A,116.6088,23.2539,汕头市,潮阳子站,颗粒物(PM10),63,75,58,26,28,146,,148,148,9,23,6,11,0.4,0.6
2026-01-11T2000,3444A,116.4539,23.2684,汕头市,潮南峡山,颗粒物(PM10),72,93,64,40,42,135,,143,143,20,21,10,12,0.7,0.8
2026-01-11T2000,3624A,116.4069,23.2533,汕头市,潮南子站,颗粒物(PM10),78,106,81,37,44,122,,129,129,21,30,7,11,/,/
2026-01-11T2000,1693A,115.3653,22.7751,汕尾市,市环保局,颗粒物(PM10),55,60,44,36,28,142,,133,133,18,16,7,8,0.6,0.5
2026-01-11T2000,1695A,115.362,22.7926,汕尾市,新城中学,细颗粒物(PM2.5),59,59,43,42,27,137,,134,134,16,15,6,6,0.7,0.6
2026-01-11T2000,2645A,109.9155,33.8714,商洛市,监测站,颗粒物(PM10),63,76,66,34,25,57,,69,69,35,24,6,5,0.5,0.5
2026-01-11T2000,3045A,109.9647,33.8486,商洛市,商州区中学,细颗粒物(PM2.5),110,106,71,83,26,54,,70,69,34,28,9,7,0.6,0.5
2026-01-11T2000,2408A,115.6701,34.4283,商丘市,环境监测站,颗粒物(PM10),56,62,62,22,23,55,,69,67,22,23,3,4,0.3,0.3
2026-01-11T2000,2409A,115.6458,34.4047,商丘市,粮食局,,47,47,58,26,20,54,,67,65,22,19,5,6,0.3,0.3
2026-01-11T2000,3171A,115.6069,34.4465,商丘市,梁园区档案局,,50,50,58,22,20,57,,67,66,19,24,4,5,0.2,0.2
2026-01-11T2000,4119A,115.6701,34.3767,商丘市,北海东路185号,颗粒物(PM10),61,71,64,22,18,52,,67,64,19,15,3,4,0.2,0.3
2026-01-11T2000,4120A,115.6172,34.3704,商丘市,中山大街3号,颗粒物(PM10),69,87,69,31,19,48,,64,61,25,19,4,4,0.2,0.2
2026-01-11T2000,1141A,121.401,31.2382,上海市,普陀,颗粒物(PM10),54,58,89,25,23,50,,64,60,28,27,7,9,0.5,0.6
2026-01-11T2000,1142A,121.4774,31.2043,上海市,十五厂,颗粒物(PM10),57,64,86,19,20,44,,62,58,39,30,9,9,0.6,0.6
2026-01-11T2000,1143A,121.4673,31.3011,上海市,虹口,颗粒物(PM10),58,65,95,19,22,49,,53,52,27,33,8,9,0.4,0.5
2026-01-11T2000,1147A,121.4253,31.226,上海市,静安监测站,颗粒物(PM10),53,55,81,20,19,41,,66,61,42,29,7,9,0.3,0.4
2026-01-11T2000,1148A,121.7029,31.1905,上海市,浦东川沙,颗粒物(PM10),51,51,87,17,21,57,,67,64,23,27,6,8,0.4,0.5
2026-01-11T2000,1149A,121.5339,31.229,上海市,浦东新区监测站,颗粒物(PM10),53,56,88,26,26,55,,59,57,23,27,6,8,0.5,0.6
2026-01-11T2000,1150A,121.5776,31.2038,上海市,浦东张江,颗粒物(PM10),54,58,93,15,19,39,,63,57,40,30,7,10,0.4,0.5
2026-01-11T2000,3265A,121.4242,31.3303,上海市,宝山庙行,,50,50,90,18,23,43,,56,53,33,35,7,9,0.3,0.3
2026-01-11T2000,3266A,121.8789,31.4662,上海市,崇明上实东滩,,47,47,78,14,18,60,,71,70,13,14,4,5,0.1,0.2
2026-01-11T2000,3268A,121.316,31.2839,上海市,嘉定南翔,,50,50,81,21,22,43,,65,62,36,33,5,7,0.4,0.6
2026-01-11T2000,3269A,121.3357,30.7455,上海市,金山新城,颗粒物(PM10),57,63,101,29,31,38,,64,60,41,30,11,10,0.5,0.4
2026-01-11T2000,3270A,121.4996,31.0741,上海市,闵行浦江,颗粒物(PM10),55,59,85,20,20,38,,67,61,41,32,8,9,0.4,0.4
2026-01-11T2000,3271A,121.2886,31.1663,上海市,青浦徐泾,颗粒物(PM10),56,61,90,19,23,38,,62,59,41,35,7,8,0.8,0.9
2026-01-11T2000,3272A,121.2193,31.0382,上海市,松江图书馆,颗粒物(PM10),63,75,107,23,24,33,,64,57,51,35,8,8,0.6,0.6
2026-01-11T2000,3273A,121.3904,31.206,上海市,长宁仙霞,颗粒物(PM10),51,52,85,21,21,43,,66,62,37,30,8,9,0.5,0.6
