timepoint,stationcode,longitude,latitude,area,positionname,primarypollutant,aqi,pm10,pm10_24h,pm2_5,pm2_5_24h,o3,o3_24h,o3_8h,o3_8h_24h,no2,no2_24h,so2,so2_24h,co,co_24h
2025-11-30T0300,2566A,102.1879,31.914,阿坝藏族羌族自治州,州农科所,,,,,,,,,,,,,,,,
2025-11-30T0300,2568A,102.2502,31.8896,阿坝藏族羌族自治州,马师校,,,19,25,14,14,20,20,,,17,23,,5,0.5,0.6
2025-11-30T0300,3994A,102.2165,31.9024,阿坝藏族羌族自治州,马尔康中学西区,,13,13,14,6,9,32,32,,,13,18,5,5,0.6,0.6
2025-11-30T0300,2695A,80.292,41.1694,阿克苏地区,电视台,颗粒物(PM10),87,123,174,63,80,38,38,,,56,56,8,6,1.1,1.5
2025-11-30T0300,2696A,80.2613,41.1551,阿克苏地区,艺术中心,细颗粒物(PM2.5),129,179,152,98,80,6,6,,,99,66,6,6,2.0,1.4
2025-11-30T0300,2204A,105.6467,38.8363,阿拉善盟,西城区西花园,,,,,,,,,,,,,,,,
2025-11-30T0300,2205A,105.6985,38.8411,阿拉善盟,蒙二幼,颗粒物(PM10),177,303,138,58,44,86,86,,,5,15,8,9,0.7,0.8
2025-11-30T0300,2206A,105.724,38.8516,阿拉善盟,环保局新楼,颗粒物(PM10),122,193,115,55,39,82,82,,,2,5,9,8,0.6,0.6
2025-11-30T0300,2708A,88.1264,47.8517,阿勒泰地区,市站,,15,9,16,8,10,48,48,,,7,25,2,5,0.3,0.4
2025-11-30T0300,2630A,80.1161,32.5,阿里地区,阿里监测站,,17,6,3,3,3,54,54,,,10,12,6,8,0.3,0.4
2025-11-30T0300,3192A,80.0903,32.5028,阿里地区,阿里藏医院,,33,33,14,18,9,23,23,,,42,12,15,11,1.2,0.5
2025-11-30T0300,2642A,109.0318,32.6537,安康市,香溪洞,,,,,,,,,,,,,,,,
2025-11-30T0300,2644A,109.0072,32.6975,安康市,汉滨区检察院,颗粒物(PM10),55,59,72,36,41,11,11,,,22,24,4,5,0.3,0.4
2025-11-30T0300,4054A,109.0325,32.6913,安康市,市邮政管理局,颗粒物(PM10),57,64,81,38,46,21,21,,,17,34,3,4,0.5,0.8
2025-11-30T0300,2291A,117.0809,30.5177,安庆市,环科院,颗粒物(PM10),71,92,99,48,43,4,4,,,65,34,6,8,0.5,0.5
2025-11-30T0300,2292A,117.0331,30.5119,安庆市,马山宾馆,颗粒物(PM10),70,90,100,46,47,14,14,,,65,39,6,8,0.6,0.5
2025-11-30T0300,2294A,116.9896,30.6145,安庆市,安庆大学,"颗粒物(PM10),细颗粒物(PM2.5)",63,76,96,45,41,52,52,,,38,18,10,12,0.6,0.5
2025-11-30T0300,3173A,117.0598,30.5351,安庆市,市人大,颗粒物(PM10),75,99,104,52,45,23,23,,,56,28,8,11,0.4,0.4
2025-11-30T0300,3122A,105.9606,26.2611,安顺市,伍家关,,25,20,30,17,21,63,63,,,11,17,17,33,0.3,0.3
2025-11-30T0300,3123A,105.9408,26.2431,安顺市,凤凰山,,35,35,40,23,26,41,41,,,30,27,30,34,0.7,0.7
2025-11-30T0300,3124A,105.9439,26.2564,安顺市,金钟山,,32,32,34,19,21,73,73,,,12,14,13,25,0.4,0.6
2025-11-30T0300,3125A,105.8983,26.2481,安顺市,娄家坡,细颗粒物(PM2.5),55,46,34,39,24,32,32,,,26,15,46,24,0.9,0.6
2025-11-30T0300,1818A,114.4839,36.0621,安阳市,棉研所,,,,,,,,,,,,,,,,
2025-11-30T0300,1819A,114.3551,36.1017,安阳市,红庙街,细颗粒物(PM2.5),160,227,230,122,112,3,3,,,62,64,4,8,1.7,1.3
2025-11-30T0300,1820A,114.361,36.0681,安阳市,银杏小区,细颗粒物(PM2.5),162,214,225,123,125,1,1,,,56,59,,6,1.5,1.3
2025-11-30T0300,3141A,114.3922,36.0878,安阳市,信访局,细颗粒物(PM2.5),193,234,224,145,136,6,6,,,71,61,5,7,1.6,1
2025-11-30T0300,3669A,114.4705,36.0637,安阳市,左辅环卫站,细颗粒物(PM2.5),198,233,240,148,145,7,7,,,82,60,7,8,1.3,1.3
2025-11-30T0300,3703A,114.2917,36.0949,安阳市,安钢职工学校,细颗粒物(PM2.5),152,217,258,116,129,1,1,,,53,56,4,10,2.2,2.2
2025-11-30T0300,1748A,123.044,41.1196,鞍山市,深沟寺,,31,31,90,8,35,37,37,,,24,25,11,13,0.5,0.8
2025-11-30T0300,1749A,123.011,41.0931,鞍山市,太阳城,,38,38,89,12,33,36,36,,,23,20,10,11,0.5,0.8
2025-11-30T0300,1750A,123.0485,41.1442,鞍山市,太平,,34,34,104,12,37,49,49,,,16,25,8,12,0.8,0.9
2025-11-30T0300,1751A,122.9642,41.0971,鞍山市,铁西三道街,,19,19,106,3,36,39,39,,,21,32,10,16,0.4,1
2025-11-30T0300,1753A,123.022,41.0821,鞍山市,明达新区,,24,24,88,6,32,44,44,,,17,21,10,12,0.4,0.6
2025-11-30T0300,1754A,123.1289,41.0228,鞍山市,千山,,,,41,,29,,,54,,,22,,4,,0.4
2025-11-30T0300,4201A,122.9446,41.0826,鞍山市,兴盛南路290号,,29,29,106,9,40,42,42,,,24,36,13,15,0.3,0.8
2025-11-30T0300,2195A,107.4212,40.761,巴彦淖尔市,附二中,颗粒物(PM10),500,623,302,120,63,66,66,,,2,4,4,4,0.4,0.3
2025-11-30T0300,2196A,107.37,40.7372,巴彦淖尔市,市环保大楼,颗粒物(PM10),422,522,273,82,57,69,69,,,2,4,7,7,0.4,0.4
2025-11-30T0300,1956A,86.1472,41.7538,巴音郭楞蒙古自治州,孔雀公园,颗粒物(PM10),85,120,161,50,56,18,18,,,77,54,11,14,1.0,0.9
2025-11-30T0300,1957A,86.1972,41.7166,巴音郭楞蒙古自治州,棉纺厂,颗粒物(PM10),96,142,191,43,55,58,58,,,29,51,8,10,0.6,0.9
2025-11-30T0300,1958A,86.2357,41.7173,巴音郭楞蒙古自治州,经济开发区,颗粒物(PM10),71,91,135,35,44,68,68,,,14,28,8,9,0.6,0.7
2025-11-30T0300,2914A,106.7677,31.8794,巴中市,苏山坪,,,,,,,,,,,,,,,,
2025-11-30T0300,3181A,106.7768,31.8526,巴中市,市五中,,,72,72,48,45,7,7,,,22,27,,8,0.7,0.8
2025-11-30T0300,3183A,106.7418,31.8654,巴中市,圣泉水务公司,,,62,61,46,42,12,12,,,21,26,,5,0.8,0.8
2025-11-30T0300,3616A,106.7616,31.8344,巴中市,市中心医院,,,79,69,68,50,0,0,,,25,27,,5,1.0,1
2025-11-30T0300,2235A,122.7911,45.6077,白城市,洮北区环保局,,32,32,68,16,33,46,46,,,9,14,5,3,0.3,0.4
2025-11-30T0300,2236A,122.8738,45.5725,白城市,市环保局,,30,27,69,21,32,43,43,,,12,11,4,5,0.4,0.5
2025-11-30T0300,2231A,126.4219,41.9171,白山市,喜丰,颗粒物(PM10),57,63,68,22,24,40,40,,,15,22,8,9,0.8,0.9
2025-11-30T0300,2232A,126.4077,41.9419,白山市,环保局,,,43,50,15,27,,,,,12,20,9,9,0.8,0.9
2025-11-30T0300,2647A,104.1724,36.5446,白银市,第三小学,颗粒物(PM10),54,58,86,14,46,50,50,,,34,49,11,36,0.3,0.9
2025-11-30T0300,2648A,104.1465,36.5482,白银市,动力公司,,39,39,65,11,38,52,52,,,18,31,4,21,0.5,1
2025-11-30T0300,2512A,106.6103,23.9011,百色市,市监测站,,36,36,44,23,27,19,19,,,18,18,6,7,0.6,0.6
2025-11-30T0300,2513A,106.6538,23.8859,百色市,市中心血站,细颗粒物(PM2.5),69,79,70,50,45,2,2,,,46,39,7,8,1.0,0.8
2025-11-30T0300,3406A,106.6085,23.8798,百色市,祈福高中,颗粒物(PM10),61,72,72,33,32,4,4,,,25,26,5,7,0.6,0.6
2025-11-30T0300,2270A,117.396,32.939,蚌埠市,工人疗养院,细颗粒物(PM2.5),104,145,124,78,48,52,52,,,39,34,8,9,0.6,0.5
2025-11-30T0300,2271A,117.3605,32.9427,蚌埠市,百货大楼,颗粒物(PM10),84,118,112,61,47,46,46,,,34,34,7,7,0.6,0.5
2025-11-30T0300,2273A,117.4185,32.8911,蚌埠市,蚌埠学院,细颗粒物(PM2.5),109,149,120,82,51,41,41,,,52,35,13,9,1.1,0.5
2025-11-30T0300,2274A,117.3533,32.9673,蚌埠市,淮上区政府,颗粒物(PM10),90,129,119,63,49,60,60,,,36,34,9,9,0.5,0.4
2025-11-30T0300,2275A,117.3145,32.8977,蚌埠市,高新区,细颗粒物(PM2.5),94,134,138,70,63,22,22,,,48,44,8,9,0.7,0.6
2025-11-30T0300,3715A,117.3092,32.9314,蚌埠市,蚌埠田家炳中学,"颗粒物(PM10),细颗粒物(PM2.5)",97,143,145,72,60,48,48,,,40,50,42,23,0.6,0.5
2025-11-30T0300,1585A,109.8756,40.6532,包头市,市环境监测站,颗粒物(PM10),203,352,246,53,68,75,75,,,5,39,6,23,0.8,1.7
2025-11-30T0300,1587A,109.9991,40.5842,包头市,包头八中,颗粒物(PM10),295,416,240,112,76,72,72,,,9,33,9,10,0.5,0.6
2025-11-30T0300,1588A,109.8538,40.6821,包头市,青山宾馆,颗粒物(PM10),196,341,222,63,69,76,76,,,4,33,6,14,0.5,1
2025-11-30T0300,1589A,109.8642,40.6288,包头市,惠龙物流,颗粒物(PM10),181,311,228,54,63,72,72,,,14,33,22,21,0.8,1.1
2025-11-30T0300,1590A,110.0377,40.5546,包头市,东河鸿龙湾,颗粒物(PM10),369,475,223,79,50,77,77,,,2,34,4,10,0.3,0.6
2025-11-30T0300,3283A,109.9154,40.5685,包头市,滨河大厦,颗粒物(PM10),404,504,217,86,59,77,77,,,6,24,8,17,0.4,0.7
2025-11-30T0300,3419A,109.9447,40.6261,包头市,包头市委党校,颗粒物(PM10),157,263,209,59,60,76,76,,,5,28,10,18,0.6,0.8
2025-11-30T0300,3683A,109.8331,40.6576,包头市,昆区政府,颗粒物(PM10),193,336,225,73,69,80,80,,,6,44,8,26,0.3,1.4
2025-11-30T0300,1930A,107.185,34.3063,宝鸡市,庙沟村,,,,,,,,,,,,,,,,
2025-11-30T0300,1931A,107.0708,34.3017,宝鸡市,竹园沟,,34,34,49,16,24,24,24,,,12,16,6,7,0.2,0.3
2025-11-30T0300,1932A,107.1906,34.3672,宝鸡市,三陆医院,,48,48,68,24,33,15,15,,,40,38,6,6,0.5,0.5
2025-11-30T0300,1933A,107.1431,34.3547,宝鸡市,监测站,,44,44,66,23,32,25,25,,,18,24,4,4,0.3,0.4
2025-11-30T0300,1934A,107.1186,34.3739,宝鸡市,技工学校,,,46,69,32,35,32,32,,,15,22,,9,0.4,0.5
2025-11-30T0300,1936A,107.2058,34.3497,宝鸡市,文理学院,颗粒物(PM10),53,56,66,26,39,29,29,,,22,29,6,6,0.4,0.5
2025-11-30T0300,1937A,107.2386,34.3622,宝鸡市,三迪小学,,,53,74,29,38,22,22,,,33,44,,5,0.5,0.5
2025-11-30T0300,4308A,107.3898,34.3601,宝鸡市,陈仓区北开路21号,细颗粒物(PM2.5),69,86,83,50,42,37,37,,,35,35,152,48,0.8,0.4
2025-11-30T0300,1051A,115.493,38.8632,保定市,游泳馆,细颗粒物(PM2.5),156,171,161,119,101,3,3,,,78,74,4,6,0.8,0.7
2025-11-30T0300,1052A,115.5213,38.8959,保定市,华电二区,细颗粒物(PM2.5),133,139,148,101,102,1,1,,,78,75,5,7,1.2,1
2025-11-30T0300,1053A,115.4713,38.9108,保定市,接待中心,细颗粒物(PM2.5),168,191,156,127,101,1,1,,,77,70,,4,1.1,1
2025-11-30T0300,1054A,115.4612,38.8416,保定市,地表水厂,细颗粒物(PM2.5),168,207,176,127,98,5,5,,,74,69,6,7,0.9,0.7
2025-11-30T0300,3581A,115.31981,38.95208,保定市,满城区生态环境分局,细颗粒物(PM2.5),128,188,176,97,98,1,1,,,74,73,3,5,0.9,0.8
2025-11-30T0300,3582A,115.47694,38.76408,保定市,清苑区第二中学,细颗粒物(PM2.5),159,234,203,121,97,4,4,,,81,75,9,10,1.1,0.9
2025-11-30T0300,3583A,115.62909,39.02311,保定市,徐水物探局,细颗粒物(PM2.5),169,243,205,128,103,2,2,,,59,59,11,9,1.3,1
2025-11-30T0300,4004A,115.4202,38.8656,保定市,双鹰农机,细颗粒物(PM2.5),172,253,199,130,93,10,10,,,72,67,6,8,1.2,1
2025-11-30T0300,4034A,115.5150,38.8590,保定市,植保所站,细颗粒物(PM2.5),156,167,167,119,99,0,0,,,80,79,4,4,1.1,0.8
2025-11-30T0300,2594A,99.1678,25.1081,保山市,市环境监测站,,26,,29,18,20,46,46,,,6,10,6,6,0.2,0.3
2025-11-30T0300,2595A,99.1711,25.1328,保山市,市环保局,,28,25,32,19,21,57,57,,,4,7,4,5,0.5,0.5
2025-11-30T0300,1866A,109.2262,21.588,北海市,牛尾岭水库,细颗粒物(PM2.5),67,62,61,48,41,63,63,,,9,10,7,10,0.7,0.6
2025-11-30T0300,1867A,109.1436,21.4086,北海市,海滩公园,颗粒物(PM10),58,66,76,27,35,112,112,,,11,24,10,12,0.6,0.6
2025-11-30T0300,1868A,109.0981,21.4661,北海市,新市环保局,颗粒物(PM10),57,63,74,34,41,95,95,,,20,27,6,9,0.5,0.6
2025-11-30T0300,1869A,109.1778,21.5233,北海市,北海工业园,颗粒物(PM10),58,66,77,34,41,86,86,,,22,23,8,11,0.7,0.7
2025-11-30T0300,3400A,109.1911,21.4415,北海市,龙潭自来水厂,细颗粒物(PM2.5),65,72,75,47,44,62,62,,,17,20,12,16,0.7,0.7
2025-11-30T0300,1001A,116.3621,39.8784,北京市,万寿西宫,颗粒物(PM10),123,195,152,81,66,1,1,,,81,74,4,4,0.8,0.7
2025-11-30T0300,1002A,116.2202,40.2915,北京市,定陵,,,,,,,,,,,,,,,,
2025-11-30T0300,1003A,116.4174,39.9289,北京市,东四,颗粒物(PM10),130,209,156,81,59,2,2,,,82,61,6,5,1.3,1
2025-11-30T0300,1004A,116.4072,39.8863,北京市,天坛,颗粒物(PM10),102,153,130,74,60,2,2,,,61,64,2,2,0.9,0.8
2025-11-30T0300,1005A,116.462,39.9365,北京市,农展馆,颗粒物(PM10),121,192,143,87,59,2,2,,,77,54,6,5,1.1,0.7
2025-11-30T0300,1006A,116.3392,39.9295,北京市,官园,颗粒物(PM10),123,196,156,79,64,2,2,,,84,65,6,6,1.1,0.8
2025-11-30T0300,1007A,116.2878,39.9611,北京市,海淀万柳,颗粒物(PM10),107,164,139,68,57,1,1,,,69,60,5,5,0.9,0.8
2025-11-30T0300,1008A,116.6636,40.135,北京市,顺义新城,颗粒物(PM10),89,127,143,48,56,0,0,,,63,54,4,5,0.7,0.7
2025-11-30T0300,1009A,116.6275,40.3275,北京市,怀柔镇,颗粒物(PM10),69,87,114,38,47,24,24,,,29,32,5,6,0.6,0.7
2025-11-30T0300,1010A,116.2296,40.217,北京市,昌平镇,颗粒物(PM10),73,96,109,37,42,14,14,,,38,38,4,5,0.4,0.5
2025-11-30T0300,1011A,116.3966,39.9821,北京市,奥体中心,颗粒物(PM10),115,179,128,83,55,2,2,,,95,66,6,5,1.3,0.8
2025-11-30T0300,3281A,115.9718,40.4529,北京市,延庆夏都,颗粒物(PM10),82,114,109,38,41,11,11,,,30,31,1,2,0.7,0.6
2025-11-30T0300,3418A,116.8336,40.4095,北京市,密云新城,颗粒物(PM10),53,56,98,21,36,21,21,,,23,26,2,3,0.6,0.7
2025-11-30T0300,3671A,116.088,39.9726,北京市,门头沟三家店,颗粒物(PM10),97,143,136,46,51,3,3,,,46,44,2,2,0.6,0.7
2025-11-30T0300,3672A,116.1541,39.8204,北京市,丰台云岗,颗粒物(PM10),124,197,164,64,68,2,2,,,74,62,4,4,0.4,0.4
2025-11-30T0300,3673A,116.6804,39.9081,北京市,通州东关,颗粒物(PM10),120,189,150,86,61,2,2,,,80,63,6,7,0.8,0.7
2025-11-30T0300,3674A,115.9577,39.7603,北京市,房山燕山,颗粒物(PM10),106,162,139,60,58,21,21,,,27,42,2,4,0.6,0.7
2025-11-30T0300,3675A,116.4672,39.7733,北京市,大兴旧宫,颗粒物(PM10),119,188,158,80,63,2,2,,,65,64,4,5,0.8,0.8
2025-11-30T0300,3694A,115.986,40.4563,北京市,延庆石河营,颗粒物(PM10),81,112,102,38,36,8,8,,,31,33,3,3,0.7,0.6
2025-11-30T0300,3695A,116.6151,40.3053,北京市,怀柔新城,颗粒物(PM10),70,90,114,39,46,24,24,,,22,23,2,3,0.4,0.5
2025-11-30T0300,3696A,116.2545,39.8768,北京市,丰台小屯,颗粒物(PM10),92,133,156,53,68,3,3,,,77,68,4,4,0.8,0.7
2025-11-30T0300,3697A,116.84,40.3844,北京市,密云镇,颗粒物(PM10),58,66,109,30,42,6,6,,,39,43,1,2,0.5,0.7
2025-11-30T0300,4182A,116.1942,39.9158,北京市,八角北路9号,颗粒物(PM10),112,174,154,59,58,3,3,,,64,55,4,3,0.7,0.6
2025-11-30T0300,4194A,117.0790,40.1518,北京市,洳河巡河路,颗粒物(PM10),81,112,131,40,47,8,8,,,33,35,4,2,0.8,0.8
2025-11-30T0300,1761A,123.8275,41.3064,本溪市,大峪,,31,31,74,9,25,13,13,,,38,23,8,10,0.5,0.6
2025-11-30T0300,1762A,123.7567,41.3325,本溪市,溪湖,颗粒物(PM10),52,53,68,14,28,13,13,,,35,24,8,12,0.7,1
2025-11-30T0300,1763A,123.7169,41.3094,本溪市,彩屯,,37,37,68,12,29,16,16,,,30,26,6,11,0.7,1.6
2025-11-30T0300,1764A,123.7669,41.2864,本溪市,东明,,24,24,72,10,23,14,14,,,39,23,9,12,0.4,0.6
2025-11-30T0300,1765A,123.7992,41.2664,本溪市,新立屯,,17,7,68,6,25,21,21,,,34,34,6,7,0.3,0.4
2025-11-30T0300,1766A,123.8142,41.3472,本溪市,威宁,颗粒物(PM10),54,57,115,18,30,6,6,,,32,26,6,9,0.5,0.6
2025-11-30T0300,2587A,105.2864,27.3125,毕节市,八中,细颗粒物(PM2.5),188,178,188,141,144,42,42,,,11,24,7,11,0.9,1
2025-11-30T0300,2588A,105.31,27.2944,毕节市,师专,细颗粒物(PM2.5),176,166,162,133,127,45,45,,,16,26,7,12,1.2,1.2
2025-11-30T0300,4263A,105.3688,27.3598,毕节市,工业大道,细颗粒物(PM2.5),168,152,157,127,122,71,71,,,11,21,9,13,1.2,1.3
2025-11-30T0300,1629A,118.0018,37.3617,滨州市,第二水厂,细颗粒物(PM2.5),185,266,251,139,109,4,4,,,95,73,,23,1.4,1.1
2025-11-30T0300,1630A,117.9776,37.393,滨州市,北中新校,细颗粒物(PM2.5),178,234,214,134,106,0,0,,,97,74,,17,1.2,1
2025-11-30T0300,3514A,117.9378,37.3956,滨州市,中海酒店,细颗粒物(PM2.5),185,244,231,139,109,20,20,,,82,58,20,19,1.1,1.2
2025-11-30T0300,3515A,117.9378,37.3553,滨州市,开发区一中,细颗粒物(PM2.5),195,285,260,146,115,4,4,,,93,69,34,29,1.4,1.2
2025-11-30T0300,3516A,118.0917,37.694,滨州市,金海六路,颗粒物(PM10),160,269,263,107,88,2,2,,,92,68,30,23,1.0,0.9
2025-11-30T0300,4028A,117.9956,37.3753,滨州市,滨州市西街道办事处,细颗粒物(PM2.5),188,271,249,141,113,0,0,,,82,60,26,19,1.4,1.2
2025-11-30T0300,2311A,115.8072,33.8399,亳州市,污水处理厂,细颗粒物(PM2.5),125,156,118,95,60,2,2,,,64,43,72,22,1.2,0.8
2025-11-30T0300,2312A,115.7789,33.8518,亳州市,三国揽胜宫,细颗粒物(PM2.5),139,154,122,106,63,4,4,,,73,43,33,10,1.0,0.7
2025-11-30T0300,3332A,115.7633,33.8034,亳州市,亳州学院,细颗粒物(PM2.5),134,141,108,102,62,48,48,,,35,35,11,8,0.7,0.5
2025-11-30T0300,2693A,82.0485,44.8556,博尔塔拉蒙古自治州,市党校,,37,37,37,20,15,36,36,,,16,14,2,2,0.5,0.3
2025-11-30T0300,2694A,82.0806,44.8969,博尔塔拉蒙古自治州,市环保局,,40,40,47,23,21,41,41,,,6,14,6,5,0.5,0.5
2025-11-30T0300,1071A,116.8842,38.2991,沧州市,沧县城建局,细颗粒物(PM2.5),152,211,227,116,122,9,9,,,77,69,22,16,1.0,1
2025-11-30T0300,1072A,116.8584,38.3254,沧州市,电视转播站,细颗粒物(PM2.5),153,202,211,117,111,16,16,,,57,63,19,10,0.9,1
2025-11-30T0300,1073A,116.8709,38.3228,沧州市,市环保局,细颗粒物(PM2.5),158,219,227,120,113,12,12,,,64,63,19,13,0.8,0.9
2025-11-30T0300,3324A,116.8136,38.3004,沧州市,河北水利电力学院,颗粒物(PM10),153,256,256,99,96,26,26,,,47,63,27,20,0.7,0.9
2025-11-30T0300,2622A,97.1806,31.1273,昌都市,昌都监测站,,26,26,38,7,16,32,32,,,11,25,1,3,0.3,0.7
2025-11-30T0300,3719A,97.1714,31.1406,昌都市,昌都会议中心,,18,18,22,8,11,43,43,,,3,6,3,3,0.2,0.2
2025-11-30T0300,2690A,88.1236,43.8886,昌吉回族自治州,天山天池,,,,,,,,,,,,,,,,
2025-11-30T0300,2692A,87.2717,44.0297,昌吉回族自治州,新区政务中心,,46,33,44,32,31,20,20,,,27,28,2,2,0.8,0.9
2025-11-30T0300,3613A,87.3095,44.0142,昌吉回族自治州,亚心广场,,49,46,48,34,33,22,22,,,21,19,7,6,0.5,0.6
2025-11-30T0300,1120A,125.2863,43.9027,长春市,客车厂,,36,,59,25,22,36,36,,,23,13,17,8,0.4,0.4
2025-11-30T0300,1121A,125.2841,43.8463,长春市,邮电学院,,19,19,63,12,18,41,41,,,21,18,9,11,0.4,0.5
2025-11-30T0300,1122A,125.3716,43.8772,长春市,劳动公园,,17,17,54,6,15,48,48,,,7,12,9,11,0.5,0.3
2025-11-30T0300,1123A,125.3297,43.8805,长春市,园林处,,20,20,79,9,32,44,44,,,10,12,5,6,0.1,0.3
2025-11-30T0300,1124A,125.4605,43.79,长春市,净月潭,,15,15,50,6,11,38,38,,,13,10,5,7,0.3,0.4
2025-11-30T0300,1125A,125.7194,43.515,长春市,甩湾子,,,,45,,15,,,66,,,9,,5,,0.0
2025-11-30T0300,1126A,125.3863,43.8447,长春市,经开区环卫处,,16,16,51,7,14,36,36,,,19,16,7,8,0.3,0.3
2025-11-30T0300,1127A,125.245,43.7783,长春市,高新区管委会,,27,27,60,14,20,31,31,,,22,12,5,6,0.2,0.3
2025-11-30T0300,1128A,125.1761,43.8325,长春市,岱山公园,,19,,61,13,19,27,27,,,23,13,6,7,0.2,0.3
2025-11-30T0300,4281A,125.3346,43.9164,长春市,北亚泰大街1068号,,30,,58,21,22,34,34,,,17,20,7,10,0.4,0.5
2025-11-30T0300,1335A,113.0833,28.2325,长沙市,经开区环保局,细颗粒物(PM2.5),105,,79,79,41,14,14,,,48,25,5,8,0.7,0.6
2025-11-30T0300,1336A,112.8872,28.2189,长沙市,高开区环保局,细颗粒物(PM2.5),70,80,81,51,42,27,27,,,46,24,9,12,0.8,0.8
2025-11-30T0300,1337A,113.0792,28.2053,长沙市,马坡岭,颗粒物(PM10),61,72,88,39,42,55,55,,,23,34,7,9,0.5,0.7
2025-11-30T0300,1338A,112.9394,28.19,长沙市,湖南师范大学,,49,49,76,33,34,40,40,,,41,27,6,8,0.4,0.5
2025-11-30T0300,1339A,113.0178,28.1322,长沙市,雨花区环保局,,50,50,74,32,31,75,75,,,11,26,11,13,0.4,0.5
2025-11-30T0300,1340A,112.9792,28.2597,长沙市,伍家岭,颗粒物(PM10),86,121,109,56,50,2,2,,,58,46,6,8,0.8,0.8
2025-11-30T0300,1341A,113.0014,28.1944,长沙市,火车新站,颗粒物(PM10),58,66,99,34,46,50,50,,,33,49,8,10,0.5,0.8
2025-11-30T0300,1342A,112.9844,28.1178,长沙市,天心区环保局,,,60,76,34,37,70,70,,,18,31,,11,0.4,0.6
2025-11-30T0300,1343A,112.8908,28.1308,长沙市,湖南中医药大学,细颗粒物(PM2.5),74,85,98,54,48,2,2,,,56,48,6,11,0.8,0.9
2025-11-30T0300,1344A,112.9581,28.3611,长沙市,沙坪,,,,,,,,,,,,,,,,
2025-11-30T0300,1727A,113.1147,36.1547,长治市,清华站,,,75,73,24,28,6,6,,,50,40,,13,0.5,0.5
2025-11-30T0300,1730A,113.0886,36.2125,长治市,审计局,颗粒物(PM10),76,101,74,46,33,1,1,,,61,42,25,13,0.7,0.6
2025-11-30T0300,1731A,113.0844,36.1856,长治市,长治八中,颗粒物(PM10),81,112,95,57,42,2,2,,,46,34,19,14,0.7,0.7
2025-11-30T0300,2845A,113.1569,36.1911,长治市,德盛苑,,,50,59,24,27,67,67,,,12,13,,11,0.4,0.4
2025-11-30T0300,3568A,113.06,36.0464,长治市,向阳小学,颗粒物(PM10),60,70,87,36,30,57,57,,,16,20,25,21,0.6,0.5
2025-11-30T0300,3569A,112.8792,36.3144,长治市,屯留一中,颗粒物(PM10),67,84,84,32,41,4,4,,,63,37,16,14,0.6,0.7
2025-11-30T0300,4189A,113.1131,36.19948,长治市,英华南巷50号,颗粒物(PM10),75,99,77,44,32,6,6,,,49,33,19,13,0.9,0.7
2025-11-30T0300,4190A,113.2367,36.3344,长治市,学府街1号,颗粒物(PM10),72,94,93,46,50,3,3,,,60,50,15,15,1.5,1.3
2025-11-30T0300,1854A,111.6975,28.9703,常德市,市二中,,,91,57,65,35,8,8,,,38,18,,6,0.6,0.3
2025-11-30T0300,1857A,111.7158,29.1456,常德市,白鹤山,,,,,,,,,,,,,,,,
2025-11-30T0300,3138A,111.7153,29.0289,常德市,武陵区永安,细颗粒物(PM2.5),109,100,65,82,35,14,14,,,41,13,9,9,0.7,0.4
2025-11-30T0300,3139A,111.6892,28.9881,常德市,鼎城区玉霞,细颗粒物(PM2.5),83,83,62,61,37,2,2,,,27,16,7,7,0.6,0.4
2025-11-30T0300,3140A,111.6625,29.0531,常德市,武陵区长庚,细颗粒物(PM2.5),112,111,65,84,37,15,15,,,37,18,6,6,0.5,0.3
2025-11-30T0300,1196A,119.9633,31.762,常州市,市监测站,"颗粒物(PM10),细颗粒物(PM2.5)",108,166,160,81,62,17,17,,,71,61,5,7,0.8,0.6
2025-11-30T0300,1200A,119.9468,31.7069,常州市,武进监测站,颗粒物(PM10),106,161,149,74,56,14,14,,,69,52,11,27,0.5,0.4
2025-11-30T0300,1201A,119.9255,31.9087,常州市,安家,细颗粒物(PM2.5),123,177,152,93,57,2,2,,,103,66,23,12,0.8,0.6
2025-11-30T0300,3002A,119.9805,31.8174,常州市,行政中心,细颗粒物(PM2.5),109,142,144,82,58,30,30,,,62,56,12,8,0.8,0.7
2025-11-30T0300,3003A,120.0522,31.7748,常州市,经开区,颗粒物(PM10),121,192,175,84,57,10,10,,,86,57,,13,0.8,0.8
2025-11-30T0300,3010A,119.9025,31.7964,常州市,钟楼,细颗粒物(PM2.5),103,150,151,77,56,11,11,,,69,57,12,18,0.9,0.7
2025-11-30T0300,3429A,119.8598,31.7066,常州市,武进经发区,细颗粒物(PM2.5),129,196,173,98,70,14,14,,,78,66,,13,0.7,0.6
2025-11-30T0300,3430A,119.5826,31.7245,常州市,金坛城区,细颗粒物(PM2.5),108,144,147,81,62,,,,,71,49,12,12,1.2,0.8
2025-11-30T0300,2220A,120.4318,41.5881,朝阳市,西梁,,39,34,89,27,31,17,17,,,35,25,8,10,1.0,0.9
2025-11-30T0300,2221A,120.4521,41.5646,朝阳市,河畔小区,细颗粒物(PM2.5),90,,84,67,33,3,3,,,55,25,7,9,1.0,0.7
2025-11-30T0300,2222A,120.4176,41.5648,朝阳市,八里堡,颗粒物(PM10),57,64,100,23,37,4,4,,,52,30,9,13,1.0,1
2025-11-30T0300,2223A,120.3806,41.5969,朝阳市,农业园区,,26,26,70,13,28,42,42,,,16,20,6,10,0.5,0.6
2025-11-30T0300,1705A,116.6367,23.6719,潮州市,西园路,,,,,,,,,,,,,,,,
2025-11-30T0300,3026A,116.6183,23.6608,潮州市,市政府,颗粒物(PM10),61,71,80,29,35,51,51,,,8,15,5,5,0.4,0.5
2025-11-30T0300,4036A,116.6461,23.6761,潮州市,金山,颗粒物(PM10),53,55,66,32,36,50,50,,,10,12,2,3,0.5,0.5
2025-11-30T0300,2472A,113.0073,25.9061,郴州市,马头岭,,,,,,,,,,,,,,,,
2025-11-30T0300,2473A,113.0116,25.8226,郴州市,市职中,颗粒物(PM10),54,57,58,36,36,0,0,,,33,31,3,5,0.5,0.5
2025-11-30T0300,2475A,113.0383,25.8071,郴州市,市审计局,颗粒物(PM10),54,58,67,37,37,0,0,,,41,37,5,6,0.7,0.6
2025-11-30T0300,2476A,113.0348,25.7759,郴州市,市环保局,颗粒物(PM10),51,52,64,29,31,0,0,,,58,38,5,5,0.5,0.5
2025-11-30T0300,4252A,113.0138,25.8011,郴州市,好美居路49号,细颗粒物(PM2.5),59,55,59,42,39,2,2,,,41,37,6,7,0.6,0.5
2025-11-30T0300,1431A,103.9728,30.7236,成都市,金泉两河,细颗粒物(PM2.5),140,123,125,107,106,0,0,,,47,48,,3,1.3,1
2025-11-30T0300,1432A,104.176,30.6872,成都市,十里店,细颗粒物(PM2.5),139,144,143,106,106,5,5,,,73,64,,4,1.2,1
2025-11-30T0300,1433A,104.079,30.5706,成都市,三瓦窑,细颗粒物(PM2.5),139,136,133,106,98,2,2,,,69,56,4,4,1.1,1
2025-11-30T0300,1434A,104.1114,30.63,成都市,沙河铺,细颗粒物(PM2.5),183,,142,138,127,1,1,,,60,59,3,4,1.2,1.1
2025-11-30T0300,1437A,104.0786,30.6531,成都市,君平街,细颗粒物(PM2.5),162,139,146,123,125,3,3,,,73,59,4,4,1.4,1.2
2025-11-30T0300,1438A,103.613,31.0283,成都市,灵岩寺,,,,,,,,,,,,,,,,
2025-11-30T0300,2880A,104.0239,30.65639,成都市,大石西路,细颗粒物(PM2.5),138,105,117,105,110,0,0,,,59,57,2,3,1.4,1.2
2025-11-30T0300,3136A,104.2725,30.5589,成都市,龙泉驿区区政府,细颗粒物(PM2.5),110,92,107,83,82,55,55,,,10,19,6,6,0.6,0.7
2025-11-30T0300,3357A,104.0106,30.6931,成都市,金博路,细颗粒物(PM2.5),152,138,135,116,103,3,3,,,62,58,5,5,1.1,1.1
2025-11-30T0300,3359A,104.0578,30.5225,成都市,华阳,细颗粒物(PM2.5),125,114,121,95,90,1,1,,,56,52,4,4,1.1,1
2025-11-30T0300,3488A,104.3880,30.7467,成都市,青石路225号,细颗粒物(PM2.5),142,121,125,108,100,10,10,,,45,41,,6,0.9,0.9
2025-11-30T0300,3489A,104.0789,30.4072,成都市,科学城,细颗粒物(PM2.5),92,90,105,68,81,2,2,,,34,30,5,5,0.8,0.6
2025-11-30T0300,4011A,103.8506,30.6947,成都市,光华大道三段,细颗粒物(PM2.5),176,152,146,133,114,2,2,,,41,43,3,4,1.3,1
2025-11-30T0300,4224A,104.2433,30.5353,成都市,鲸龙路1057号,细颗粒物(PM2.5),128,116,110,97,95,16,16,,,49,44,6,6,0.8,0.9
2025-11-30T0300,1062A,117.9531,40.9081,承德市,铁路,,35,27,73,24,33,5,5,,,35,35,5,10,0.9,0.9
2025-11-30T0300,1063A,117.9392,40.9763,承德市,中国银行,,42,42,66,24,31,2,2,,,34,32,2,3,0.6,0.7
2025-11-30T0300,1064A,117.9503,40.928,承德市,开发区,,42,37,72,29,32,5,5,,,37,32,7,10,0.7,0.7
2025-11-30T0300,1066A,117.9268,41.0026,承德市,离宫,,,,,,,,,,,,,,,,
2025-11-30T0300,4274A,117.7994,40.9605,承德市,滨河大街98号,,32,32,72,6,28,11,11,,,28,30,1,6,0.3,0.9
2025-11-30T0300,2314A,117.47,30.6618,池州市,池州学院,颗粒物(PM10),59,67,95,34,39,59,59,,,22,25,9,15,0.8,0.7
2025-11-30T0300,3237A,117.4918,30.6617,池州市,展览馆,颗粒物(PM10),55,60,88,32,35,18,18,,,28,29,6,10,1.0,0.6
2025-11-30T0300,3333A,117.5627,30.695,池州市,第八中学,颗粒物(PM10),58,66,88,33,32,42,42,,,33,33,8,10,1.2,0.8
2025-11-30T0300,3334A,117.5038,30.6243,池州市,第十二中学,颗粒物(PM10),57,63,80,29,28,31,31,,,37,30,8,8,1.9,1.1
2025-11-30T0300,1744A,118.9233,42.2816,赤峰市,松山一中,,42,33,52,9,14,1,1,,,53,30,125,12,0.9,0.6
2025-11-30T0300,1745A,118.9576,42.2728,赤峰市,哈达街,二氧化硫,54,48,55,22,17,21,21,,,40,22,174,33,0.6,0.6
2025-11-30T0300,1746A,118.8788,42.2554,赤峰市,天义路,,28,21,48,19,21,7,7,,,48,25,8,6,0.9,0.7
2025-11-30T0300,3058A,119.2658,42.0353,赤峰市,银河街,,,60,78,34,30,,,,,37,22,16,18,1.2,0.7
2025-11-30T0300,3286A,118.9359,42.3147,赤峰市,桥北物流园区,,,26,50,23,21,,,,,41,21,13,9,0.7,0.4
2025-11-30T0300,2521A,107.3476,22.4136,崇左市,市环保局江州分局,,49,49,61,27,29,27,27,,,11,24,3,4,0.5,0.6
2025-11-30T0300,4256A,107.3750,22.3736,崇左市,石景林东路7号,,40,40,44,22,26,9,9,,,30,19,7,8,0.6,0.6
2025-11-30T0300,2298A,118.3093,32.3153,滁州市,老年大学,细颗粒物(PM2.5),82,96,109,60,52,3,3,,,38,28,14,13,0.6,0.5
2025-11-30T0300,2299A,118.3244,32.2786,滁州市,人大宾馆,"颗粒物(PM10),细颗粒物(PM2.5)",108,165,137,81,70,11,11,,,60,40,7,10,0.8,0.5
2025-11-30T0300,3207A,118.3118,32.3038,滁州市,市政府原办公楼,细颗粒物(PM2.5),115,122,114,87,60,10,10,,,56,34,5,9,0.9,0.6
2025-11-30T0300,3331A,118.3267,32.2634,滁州市,图书馆,细颗粒物(PM2.5),122,155,118,92,60,29,29,,,49,35,11,12,0.7,0.5
2025-11-30T0300,2605A,101.5482,25.0441,楚雄彝族自治州,州环境监测站,,34,34,28,22,20,6,6,,,30,21,15,12,0.7,0.7
2025-11-30T0300,2606A,101.538,25.0492,楚雄彝族自治州,市经济开发区,,27,27,32,18,20,10,10,,,24,17,12,8,0.6,0.6
2025-11-30T0300,2548A,107.5277,31.2827,达州市,达州职业技术学院,,,,,,,,,,,,,,,,
2025-11-30T0300,2549A,107.5086,31.2186,达州市,市环境监测站,细颗粒物(PM2.5),85,79,82,63,54,2,2,,,31,39,5,8,0.7,0.8
2025-11-30T0300,2550A,107.4988,31.2132,达州市,凤凰小区,,,75,88,66,58,,,,,33,40,5,8,0.5,0.7
2025-11-30T0300,2551A,107.5082,31.1986,达州市,达县机关宾馆,,,85,92,65,56,,,,,29,41,3,6,0.7,0.8
2025-11-30T0300,2552A,107.4644,31.2124,达州市,市政中心,,,95,103,61,57,,,,,36,43,6,9,0.7,0.9
2025-11-30T0300,2614A,100.1542,25.7054,大理白族自治州,大理市环境监测站,,29,25,24,20,23,67,67,,,7,10,6,6,0.8,0.8
2025-11-30T0300,2615A,100.2171,25.5811,大理白族自治州,大理古城,,38,,32,26,16,55,55,,,8,13,7,7,0.7,0.7
2025-11-30T0300,1109A,121.612,38.9741,大连市,甘井子,颗粒物(PM10),139,227,197,85,72,3,3,,,85,55,12,12,1.2,0.9
2025-11-30T0300,1110A,121.565,38.9511,大连市,周水子,颗粒物(PM10),121,191,181,85,71,4,4,,,55,50,6,8,1.4,0.9
2025-11-30T0300,1111A,121.5637,38.8845,大连市,星海三站,细颗粒物(PM2.5),105,155,152,79,67,9,9,,,38,34,5,8,1.0,0.7
2025-11-30T0300,1112A,121.6302,38.9117,大连市,青泥洼桥,颗粒物(PM10),118,185,185,75,65,6,6,,,56,45,11,14,1.4,1
2025-11-30T0300,1113A,121.6251,38.8638,大连市,傅家庄,颗粒物(PM10),129,207,169,81,64,11,11,,,57,35,12,14,1.2,1
2025-11-30T0300,1114A,121.5213,38.8661,大连市,七贤岭,颗粒物(PM10),91,131,172,45,61,27,27,,,24,37,6,9,0.9,0.8
2025-11-30T0300,1115A,121.2529,38.8061,大连市,旅顺,颗粒物(PM10),117,183,185,73,70,28,28,,,24,34,6,9,1.0,0.8
2025-11-30T0300,1116A,121.7485,39.1311,大连市,金州,颗粒物(PM10),99,147,182,67,71,37,37,,,31,43,10,12,1.0,0.8
2025-11-30T0300,1117A,121.7811,39.0496,大连市,开发区,颗粒物(PM10),118,185,180,74,72,27,27,,,41,45,11,10,1.0,0.8
2025-11-30T0300,1118A,121.9762,39.0631,大连市,双D港,颗粒物(PM10),112,174,170,79,62,30,30,,,34,34,12,14,1.6,1.1
2025-11-30T0300,1789A,124.81117,46.03138,大庆市,大同区,细颗粒物(PM2.5),85,79,103,63,61,42,42,,,13,18,5,7,0.7,0.8
2025-11-30T0300,1790A,125.129,46.533,大庆市,龙凤区,,48,48,81,32,51,50,50,,,10,19,5,6,0.4,0.7
2025-11-30T0300,1791A,124.902,46.408,大庆市,红岗区,细颗粒物(PM2.5),54,55,78,38,49,42,42,,,13,17,5,5,0.5,0.7
2025-11-30T0300,1792A,125.153,46.586,大庆市,萨尔图区,,45,31,91,31,54,54,54,,,14,22,7,9,1.0,0.9
2025-11-30T0300,1793A,124.9042,46.6215,大庆市,让胡路区,细颗粒物(PM2.5),60,45,79,43,57,55,55,,,5,16,7,8,0.3,0.6
2025-11-30T0300,3481A,125.141,46.634,大庆市,萨区政府监测点,,39,39,83,22,44,49,49,,,6,14,8,9,0.1,0.5
2025-11-30T0300,1721A,113.3819,40.1097,大同市,果树场,颗粒物(PM10),97,144,173,24,49,49,49,,,29,39,11,13,1.1,1.1
2025-11-30T0300,1723A,113.2994,40.0758,大同市,云冈宾馆,颗粒物(PM10),75,99,185,21,40,61,61,,,13,26,7,8,0.4,0.5
2025-11-30T0300,1724A,113.3444,40.0917,大同市,大同大学,颗粒物(PM10),71,91,180,26,54,60,60,,,21,34,8,8,0.5,0.6
2025-11-30T0300,1725A,113.2661,40.1269,大同市,安家小村,细颗粒物(PM2.5),73,64,184,53,52,65,65,,,13,21,8,11,0.4,0.9
2025-11-30T0300,1726A,113.2711,40.0844,大同市,教育学院,颗粒物(PM10),70,90,179,29,49,64,64,,,14,27,5,7,0.4,0.5
2025-11-30T0300,3282A,113.3397,40.0597,大同市,大同市卫生学校,颗粒物(PM10),76,102,174,28,51,52,52,,,24,36,8,9,0.4,0.6
2025-11-30T0300,3565A,113.1367,40.1122,大同市,云冈站,,,66,159,16,45,60,60,,,15,25,,7,0.4,0.4
2025-11-30T0300,3566A,113.1186,40.2556,大同市,图书馆,颗粒物(PM10),63,76,200,43,56,77,77,,,6,16,3,8,0.4,0.5
2025-11-30T0300,3567A,113.5931,40.0461,大同市,区一中,颗粒物(PM10),82,113,209,41,57,48,48,,,21,28,26,19,0.6,0.7
2025-11-30T0300,4199A,113.2798,40.0997,大同市,魏都大道141号,颗粒物(PM10),69,87,186,18,45,58,58,,,18,28,5,6,0.5,0.6
2025-11-30T0300,2269A,124.1069,50.4097,大兴安岭地区,科技局,,45,45,68,28,40,53,53,,,4,7,5,5,0.2,0.3
2025-11-30T0300,3663A,124.1164,50.4278,大兴安岭地区,红旗社区,,38,,44,26,42,57,57,,,4,7,5,6,0.3,0.4
2025-11-30T0300,1600A,124.3303,40.0625,丹东市,江湾东路,颗粒物(PM10),51,51,54,26,26,38,38,,,16,23,8,8,0.8,0.9
2025-11-30T0300,1601A,124.4256,40.1503,丹东市,临江后街,颗粒物(PM10),58,66,58,24,23,27,27,,,12,20,5,8,0.7,0.6
2025-11-30T0300,1602A,124.3933,40.1461,丹东市,元宝山,颗粒物(PM10),51,52,48,25,24,28,28,,,10,20,6,9,0.8,0.9
2025-11-30T0300,1603A,124.3633,40.1092,丹东市,民主桥,颗粒物(PM10),56,62,76,24,33,30,30,,,19,27,6,8,0.6,1.1
2025-11-30T0300,3541A,109.5726,19.5167,儋州市,第一中学子站,颗粒物(PM10),55,60,74,26,30,87,87,,,6,10,2,4,0.6,0.6
2025-11-30T0300,3542A,109.5567,19.5187,儋州市,东坡学校子站,颗粒物(PM10),57,64,65,23,30,99,99,,,7,11,3,4,0.5,0.4
2025-11-30T0300,2616A,98.5842,24.428,德宏傣族景颇族自治州,德宏州监测站,颗粒物(PM10),52,53,52,34,37,15,15,,,27,22,8,9,0.7,0.7
2025-11-30T0300,3677A,98.5881,24.4368,德宏傣族景颇族自治州,芒市人民政府综合楼,,39,39,52,27,31,35,35,,,12,18,6,8,0.7,0.7
2025-11-30T0300,1901A,104.4239,31.1208,德阳市,东山公园,细颗粒物(PM2.5),152,137,128,116,107,77,77,,,21,27,2,5,1.0,1
2025-11-30T0300,1902A,104.3826,31.1317,德阳市,西小区,细颗粒物(PM2.5),168,163,153,127,114,4,4,,,61,50,5,7,0.9,0.9
2025-11-30T0300,1904A,104.3553,31.1091,德阳市,耐火材料厂,细颗粒物(PM2.5),209,168,147,159,126,2,2,,,60,54,4,6,1.5,1.3
2025-11-30T0300,3639A,104.4019,31.1244,德阳市,市教育局,细颗粒物(PM2.5),149,122,124,114,111,47,47,,,35,47,13,3,0.9,1
2025-11-30T0300,1622A,116.3032,37.4674,德州市,儿童乐园,细颗粒物(PM2.5),195,295,303,146,125,10,10,,,72,63,29,22,1.3,1.2
2025-11-30T0300,1624A,116.2991,37.4451,德州市,监理站,细颗粒物(PM2.5),195,271,294,146,117,19,19,,,71,63,30,24,1.2,1.1
2025-11-30T0300,3066A,116.2721,37.4379,德州市,九衢泉纯净水厂,细颗粒物(PM2.5),175,261,289,132,111,5,5,,,88,74,27,29,1.6,1.4
2025-11-30T0300,3371A,116.3728,37.4403,德州市,开发区人民医院,细颗粒物(PM2.5),192,288,295,144,117,14,14,,,78,76,38,30,1.2,1.1
2025-11-30T0300,3511A,116.5652,37.3319,德州市,陵城艺术中心,细颗粒物(PM2.5),195,300,315,146,121,6,6,,,78,81,28,24,1.3,1.3
2025-11-30T0300,4292A,116.3525,37.4209,德州市,新河东路,细颗粒物(PM2.5),192,290,291,144,118,5,5,,,109,99,30,27,1.1,1.2
2025-11-30T0300,2621A,99.7056,27.8317,迪庆藏族自治州,迪庆州站,,25,20,30,17,21,40,40,,,6,10,6,6,0.7,0.7
2025-11-30T0300,3180A,99.7136,27.8094,迪庆藏族自治州,质量技术监督局,,25,22,32,17,18,42,42,,,9,12,8,8,0.7,0.6
2025-11-30T0300,4257A,104.6092,35.5962,定西市,将台街,细颗粒物(PM2.5),77,93,84,56,48,4,4,,,46,33,12,17,1.0,1
2025-11-30T0300,4309A,104.6159,35.5701,定西市,正龙路62号,细颗粒物(PM2.5),88,98,82,65,44,30,30,,,11,20,8,9,1.0,1
2025-11-30T0300,1389A,113.7547,23.0494,东莞市,莞城梨川,颗粒物(PM10),75,100,78,49,37,16,16,,,69,47,10,9,0.7,0.7
2025-11-30T0300,1390A,113.7944,23.0128,东莞市,东城石井,细颗粒物(PM2.5),77,98,75,56,38,15,15,,,77,46,10,10,0.7,0.5
2025-11-30T0300,1391A,113.7383,22.9658,东莞市,南城西平,,,139,90,71,46,0,0,,,134,80,,11,0.9,0.7
2025-11-30T0300,3319A,113.7338,23.0381,东莞市,万江金泰,颗粒物(PM10),77,103,80,53,38,24,24,,,61,49,10,8,1.0,0.9
2025-11-30T0300,3626A,113.7533,23.0202,东莞市,南城元岭,细颗粒物(PM2.5),78,87,80,57,41,36,36,,,60,48,11,10,0.5,0.4
2025-11-30T0300,3627A,113.7875,23.0457,东莞市,东城主山,颗粒物(PM10),79,108,82,54,35,37,37,,,56,58,8,8,0.5,0.4
2025-11-30T0300,1666A,118.6614,37.4309,东营市,市环保局,细颗粒物(PM2.5),160,251,220,122,88,0,0,,,88,62,43,24,1.1,1
2025-11-30T0300,3036A,118.6904,37.4338,东营市,开发区管委会,颗粒物(PM10),150,250,232,112,91,42,42,,,54,56,32,26,0.7,0.6
2025-11-30T0300,3365A,118.5719,37.565,东营市,垦利区民丰路,颗粒物(PM10),156,261,234,110,89,10,10,,,84,63,,12,0.9,0.9
2025-11-30T0300,3498A,118.5055,37.8612,东营市,河口城区,,,,225,,78,,,19,,,63,,8,,1.1
2025-11-30T0300,3646A,118.4978,37.4623,东营市,胜利站,细颗粒物(PM2.5),156,,205,119,94,3,3,,,96,72,31,24,1.3,1.2
2025-11-30T0300,3734A,118.35,37.26,东营市,理想之城,细颗粒物(PM2.5),160,266,232,122,89,1,1,,,85,66,40,21,1.1,1
2025-11-30T0300,1591A,110.0023,39.8129,鄂尔多斯市,综合楼,颗粒物(PM10),276,403,90,80,25,83,83,,,2,10,5,7,0.2,0.2
2025-11-30T0300,1592A,109.9486,39.8261,鄂尔多斯市,巴音孟克林场办事处,颗粒物(PM10),449,549,115,90,30,83,83,,,3,7,5,6,0.2,0.3
2025-11-30T0300,1593A,109.7736,39.5986,鄂尔多斯市,康泽苑,颗粒物(PM10),427,527,112,90,30,90,90,,,1,4,4,4,0.2,0.2
2025-11-30T0300,1594A,109.8119,39.5989,鄂尔多斯市,华泰汽车城,颗粒物(PM10),392,493,113,88,32,86,86,,,3,8,3,5,0.2,0.2
2025-11-30T0300,1595A,109.9734,39.7884,鄂尔多斯市,奥林花园,颗粒物(PM10),471,571,129,80,26,62,62,,,22,22,27,17,0.3,0.4
2025-11-30T0300,2436A,114.8938,30.3994,鄂州市,市政府,细颗粒物(PM2.5),70,86,90,51,42,54,54,,,28,35,22,17,0.5,0.5
2025-11-30T0300,2437A,114.8989,30.3714,鄂州市,赵家坝,颗粒物(PM10),72,94,95,49,39,62,62,,,14,18,18,14,0.9,0.9
2025-11-30T0300,3654A,114.8094,30.4089,鄂州市,精准医疗中心,细颗粒物(PM2.5),82,95,100,60,51,30,30,,,50,47,4,4,1.1,1.4
2025-11-30T0300,2454A,109.4978,30.2981,恩施土家族苗族自治州,湖北民院,细颗粒物(PM2.5),148,123,92,113,92,10,10,,,16,19,6,7,1.0,1
2025-11-30T0300,2455A,109.4707,30.2798,恩施土家族苗族自治州,州电力总公司,细颗粒物(PM2.5),137,120,107,104,88,5,5,,,19,29,6,7,1.0,0.9
2025-11-30T0300,3549A,109.5061,30.3772,恩施土家族苗族自治州,龙凤新区,细颗粒物(PM2.5),109,107,96,82,66,3,3,,,10,26,8,7,0.4,0.5
2025-11-30T0300,2499A,108.3411,21.6158,防城港市,沙万,颗粒物(PM10),56,62,71,39,31,79,79,,,16,30,20,11,0.8,0.6
2025-11-30T0300,2500A,108.3514,21.7731,防城港市,防城档案局,细颗粒物(PM2.5),72,75,76,52,41,54,54,,,16,22,5,8,0.9,0.7
2025-11-30T0300,2501A,108.3506,21.6414,防城港市,大海花园,颗粒物(PM10),51,51,65,35,31,104,104,,,13,29,24,15,0.9,0.8
2025-11-30T0300,1371A,113.1294,23.0067,佛山市,湾梁,细颗粒物(PM2.5),94,117,99,70,49,3,3,,,118,80,11,10,1.2,1
2025-11-30T0300,1372A,113.1083,23.0478,佛山市,华材职中,细颗粒物(PM2.5),95,136,115,71,53,8,8,,,114,85,10,8,0.9,0.7
2025-11-30T0300,1373A,113.144,23.0453,佛山市,南海气象局,细颗粒物(PM2.5),87,119,101,64,49,2,2,,,116,81,11,9,1.0,0.8
2025-11-30T0300,1374A,113.2881,22.8094,佛山市,顺德苏岗,细颗粒物(PM2.5),77,83,72,56,33,1,1,,,124,69,10,9,0.8,0.5
2025-11-30T0300,1376A,112.8383,22.8678,佛山市,高明孔堂,"颗粒物(PM10),细颗粒物(PM2.5)",72,93,74,52,38,5,5,,,90,38,11,9,0.6,0.4
2025-11-30T0300,1377A,112.8836,23.1588,佛山市,三水监测站,"颗粒物(PM10),细颗粒物(PM2.5)",74,97,93,54,45,21,21,,,63,67,18,15,0.9,0.8
2025-11-30T0300,1378A,112.867,23.185,佛山市,三水云东海,细颗粒物(PM2.5),68,66,75,49,38,0,0,,,82,58,10,9,0.9,0.6
2025-11-30T0300,3625A,113.2544,22.7642,佛山市,容桂街道办,颗粒物(PM10),87,124,100,61,45,22,22,,,124,87,8,8,0.9,0.8
2025-11-30T0300,1280A,119.3903,26.0543,福州市,鼓山,,,,90,,21,,,84,,,11,,1,,0.5
2025-11-30T0300,1282A,119.2681,26.0504,福州市,师大,,42,42,88,29,31,41,41,,,27,26,8,7,0.2,0.3
2025-11-30T0300,1283A,119.2984,26.1028,福州市,五四北路,,46,46,88,23,29,38,38,,,22,26,4,4,0.3,0.4
2025-11-30T0300,1284A,119.2648,26.0768,福州市,杨桥西路,颗粒物(PM10),52,54,86,24,27,35,35,,,20,25,4,5,0.4,0.4
2025-11-30T0300,1285A,119.317,26.0746,福州市,紫阳,颗粒物(PM10),52,54,94,23,33,40,40,,,21,34,6,7,0.4,0.6
2025-11-30T0300,3048A,119.5799,26.0936,福州市,九龙,,38,38,74,18,20,28,28,,,21,16,2,3,0.2,0.3
2025-11-30T0300,3526A,119.5189,25.9664,福州市,吴航,颗粒物(PM10),61,72,82,30,26,16,16,,,46,28,7,7,0.5,0.5
2025-11-30T0300,1755A,123.7977,41.8491,抚顺市,望花区,,40,40,86,18,25,13,13,,,35,21,7,11,0.7,0.7
2025-11-30T0300,1756A,123.9161,41.8822,抚顺市,顺城区,,42,39,69,29,22,5,5,,,43,24,8,8,0.8,0.7
2025-11-30T0300,1757A,124.0436,41.8611,抚顺市,东洲区,颗粒物(PM10),51,51,81,17,21,22,22,,,26,16,7,9,0.6,0.6
2025-11-30T0300,1758A,123.9247,41.8642,抚顺市,新抚区,,43,43,75,20,20,10,10,,,31,20,6,9,0.7,0.7
2025-11-30T0300,1759A,124.0972,41.8961,抚顺市,大伙房水库,,43,43,68,17,20,20,20,,,41,16,10,11,0.5,0.6
2025-11-30T0300,1760A,123.7086,41.8391,抚顺市,沈抚新城,,40,40,76,20,24,6,6,,,48,22,6,9,0.6,0.6
2025-11-30T0300,2376A,116.2127,28.0814,抚州市,桐源党溪,,,,,,,,,,,,,,,,
2025-11-30T0300,2377A,116.3544,27.9831,抚州市,市站,颗粒物(PM10),65,79,71,46,31,2,2,,,41,27,5,6,1.1,1
2025-11-30T0300,2378A,116.3565,27.963,抚州市,血防站,颗粒物(PM10),56,61,63,33,26,5,5,,,51,33,7,4,1.4,1.3
2025-11-30T0300,2379A,116.3564,28.0007,抚州市,采茶剧团,颗粒物(PM10),57,64,73,37,32,2,2,,,45,26,3,4,0.7,0.6
2025-11-30T0300,2380A,116.385,27.9647,抚州市,医学分院,,,50,67,20,23,,,,,37,26,12,5,1.2,1.2
2025-11-30T0300,2207A,121.6094,41.998,阜新市,工业园区,,16,16,80,7,23,28,28,,,23,20,9,12,0.4,0.4
2025-11-30T0300,2208A,121.6697,42.0279,阜新市,长青街,,14,,65,3,21,43,43,,,6,16,6,11,0.3,0.5
2025-11-30T0300,2209A,121.6673,42.0705,阜新市,农业园区,,14,10,68,3,19,43,43,,,7,14,4,7,0.3,0.4
2025-11-30T0300,2210A,121.6717,42.0224,阜新市,东苑,,15,,77,8,23,45,45,,,10,18,9,14,0.7,0.7
2025-11-30T0300,2211A,121.6506,42.0498,阜新市,玉龙新城,,17,17,73,3,18,40,40,,,13,21,8,12,0.3,0.5
2025-11-30T0300,2301A,115.8277,32.8929,阜阳市,市监测站,颗粒物(PM10),69,87,95,47,44,77,77,,,18,27,6,6,0.6,0.6
2025-11-30T0300,2303A,115.8554,32.8605,阜阳市,开发区,细颗粒物(PM2.5),72,90,112,52,46,53,53,,,32,30,6,7,0.4,0.4
2025-11-30T0300,2875A,115.784,32.8892,阜阳市,阜阳职业技术学院,颗粒物(PM10),67,83,83,47,32,88,88,,,17,21,8,8,0.5,0.4
2025-11-30T0300,3468A,115.7901,32.8613,阜阳市,市规划展馆,细颗粒物(PM2.5),78,93,98,57,47,82,82,,,19,20,9,7,0.8,0.7
2025-11-30T0300,3469A,115.836,32.9183,阜阳市,枣园社区,细颗粒物(PM2.5),77,99,107,56,49,79,79,,,24,43,4,4,0.5,0.5
2025-11-30T0300,2669A,102.9099,34.9841,甘南藏族自治州,州政府,颗粒物(PM10),63,75,62,35,33,2,2,,,48,37,9,11,1.0,0.8
2025-11-30T0300,3380A,102.8914,34.9617,甘南藏族自治州,甘肃民族师范学院,颗粒物(PM10),65,80,88,3,10,0,0,,,42,33,5,10,0.6,0.7
2025-11-30T0300,2570A,101.9603,30.0475,甘孜藏族自治州,水桥子,,12,10,19,3,6,30,30,,,24,26,10,9,0.3,0.3
2025-11-30T0300,3065A,101.9533,29.9972,甘孜藏族自治州,州环保局,,15,8,19,3,5,48,48,,,10,15,5,6,0.2,0.4
2025-11-30T0300,3414A,115.8347,28.932,赣江新区,桑海产业园,颗粒物(PM10),57,63,98,27,33,42,42,,,38,44,15,17,0.6,0.7
2025-11-30T0300,2362A,114.9017,25.9149,赣州市,通天岩,,36,36,50,14,21,46,46,,,6,10,20,20,1.6,1.4
2025-11-30T0300,2363A,114.9367,25.8664,赣州市,地委,颗粒物(PM10),60,70,62,33,28,4,4,,,42,40,6,10,0.7,0.7
2025-11-30T0300,2364A,114.9461,25.8481,赣州市,气象台,颗粒物(PM10),57,64,78,24,25,3,3,,,59,53,5,8,0.8,0.9
2025-11-30T0300,2365A,114.9322,25.8333,赣州市,市图书馆,颗粒物(PM10),66,82,79,34,30,4,4,,,57,55,4,5,0.6,0.6
2025-11-30T0300,2366A,114.8905,25.8471,赣州市,华坚鞋城,颗粒物(PM10),79,108,99,53,38,10,10,,,72,56,12,9,0.7,0.7
2025-11-30T0300,3109A,115.0093,25.8613,赣州市,赣县区卫计委,,43,35,58,30,30,2,2,,,39,31,7,8,0.6,0.6
2025-11-30T0300,2683A,106.2319,36.1417,固原市,马园,,,,,,,,,,,,,,,,
2025-11-30T0300,2684A,106.2792,36.0022,固原市,监测站,颗粒物(PM10),67,84,68,22,28,49,49,,,24,31,7,8,0.7,0.9
2025-11-30T0300,2685A,106.2375,36.0211,固原市,新区,颗粒物(PM10),63,76,67,20,25,59,59,,,24,35,8,5,0.4,0.6
2025-11-30T0300,3522A,106.2177,35.9959,固原市,原州区十五小,颗粒物(PM10),54,58,59,20,20,64,64,,,14,18,6,8,0.3,0.5
2025-11-30T0300,2543A,106.6308,30.5278,广安市,小平旧居,,,,,,,,,,,,,,,,
2025-11-30T0300,2544A,106.6303,30.4576,广安市,市委,细颗粒物(PM2.5),125,103,104,95,82,5,5,,,29,40,3,4,0.9,1
2025-11-30T0300,2545A,106.6271,30.4663,广安市,友谊中学,细颗粒物(PM2.5),105,104,93,79,72,10,10,,,23,31,,7,0.8,0.8
2025-11-30T0300,2547A,106.6388,30.4551,广安市,广电花园,细颗粒物(PM2.5),123,,88,93,76,9,9,,,18,31,3,3,0.8,1
2025-11-30T0300,2902A,106.6351,30.4865,广安市,北辰小学,细颗粒物(PM2.5),118,95,98,89,76,20,20,,,14,22,13,15,0.9,1
2025-11-30T0300,2523A,105.8945,32.4535,广元市,黑石坡,,,,,,,,,,,,,,,,
2025-11-30T0300,2524A,105.821,32.4444,广元市,老城,细颗粒物(PM2.5),65,61,85,47,60,4,4,,,47,48,2,10,0.8,1
2025-11-30T0300,2526A,105.8628,32.4287,广元市,监测站,细颗粒物(PM2.5),72,54,68,52,57,8,8,,,30,37,5,9,0.9,1.1
2025-11-30T0300,3617A,105.8047,32.4166,广元市,经开区,细颗粒物(PM2.5),74,79,90,54,62,0,0,,,36,42,3,14,1.0,1.1
2025-11-30T0300,1345A,113.2347,23.1423,广州市,广雅中学,颗粒物(PM10),106,161,113,78,51,1,1,,,115,87,8,8,1.4,1
2025-11-30T0300,1346A,113.2612,23.105,广州市,市五中,细颗粒物(PM2.5),93,120,89,69,45,4,4,,,130,84,11,10,1.2,0.9
2025-11-30T0300,1348A,113.3478,23.0916,广州市,广东商学院,,,96,82,52,39,1,1,,,109,71,,7,0.8,0.6
2025-11-30T0300,1349A,113.4332,23.1047,广州市,市八十六中,"颗粒物(PM10),细颗粒物(PM2.5)",64,77,74,46,39,2,2,,,107,75,10,10,0.6,0.5
2025-11-30T0300,1350A,113.3505,22.9483,广州市,番禺中学,"颗粒物(PM10),细颗粒物(PM2.5)",99,148,105,74,48,4,4,,,108,66,14,6,0.7,0.5
2025-11-30T0300,1351A,113.2146,23.3916,广州市,花都师范,颗粒物(PM10),69,88,89,42,39,9,9,,,88,73,7,7,0.5,0.6
2025-11-30T0300,1352A,113.2597,23.1331,广州市,市监测站,颗粒物(PM10),101,152,119,58,42,3,3,,,122,85,8,9,0.9,0.6
2025-11-30T0300,1353A,113.5618,23.312,广州市,九龙镇镇龙,颗粒物(PM10),75,99,84,44,33,0,0,,,81,52,6,6,0.5,0.4
2025-11-30T0300,1354A,113.2765,23.1544,广州市,麓湖,,,82,65,48,32,2,2,,,101,69,,9,0.9,0.7
2025-11-30T0300,1355A,113.443,23.3035,广州市,帽峰山森林公园,,,,,,,,,,,,,,,,
2025-11-30T0300,2846A,113.3221,23.1322,广州市,体育西,,,99,75,57,37,1,1,,,118,74,,10,1.1,0.9
2025-11-30T0300,3298A,113.5717,23.5491,广州市,从化街口,颗粒物(PM10),52,54,70,30,37,17,17,,,43,45,6,7,0.7,0.7
2025-11-30T0300,3299A,113.3472,23.3692,广州市,白云竹料,颗粒物(PM10),56,62,82,29,36,25,25,,,56,51,3,7,0.7,0.7
2025-11-30T0300,3300A,113.2981,23.237,广州市,白云嘉禾,颗粒物(PM10),71,92,88,39,37,0,0,,,92,65,8,9,0.7,0.5
2025-11-30T0300,3301A,113.4256,23.1716,广州市,黄埔科学城,颗粒物(PM10),54,58,62,30,26,31,31,,,57,45,8,7,0.7,0.6
2025-11-30T0300,3302A,113.3942,23.0483,广州市,番禺大学城,细颗粒物(PM2.5),83,109,76,61,38,4,4,,,116,67,14,11,0.8,0.5
2025-11-30T0300,3303A,113.4922,22.8168,广州市,南沙黄阁,颗粒物(PM10),68,85,82,40,36,77,77,,,50,60,10,16,0.6,0.6
2025-11-30T0300,3304A,113.5342,22.7896,广州市,南沙街,颗粒物(PM10),62,73,76,34,34,94,94,,,31,45,8,9,0.5,0.6
2025-11-30T0300,3443A,113.2902,23.5544,广州市,花都梯面,,36,36,54,18,25,5,5,,,56,39,7,8,0.4,0.4
2025-11-30T0300,3445A,113.7858,23.7478,广州市,从化良口,,27,27,31,14,16,38,38,,,22,20,7,7,0.4,0.4
2025-11-30T0300,3446A,113.8051,23.2614,广州市,增城荔城,,,45,52,24,24,50,50,,,20,18,,6,0.5,0.5
2025-11-30T0300,2505A,109.568,23.1478,贵港市,德智高中,,,,,,,,,,,,,,,,
2025-11-30T0300,2506A,109.6047,23.0666,贵港市,江南子站,细颗粒物(PM2.5),95,92,122,71,71,54,54,,,30,42,13,14,0.8,1
2025-11-30T0300,2508A,109.5669,23.1065,贵港市,荷城子站,细颗粒物(PM2.5),98,144,103,73,51,4,4,,,62,36,9,11,1.0,0.9
2025-11-30T0300,3405A,109.5886,23.1172,贵港市,新世纪学校,颗粒物(PM10),79,107,91,46,47,15,15,,,60,37,6,10,0.5,0.5
2025-11-30T0300,4260A,109.5933,23.0951,贵港市,中山路155-3号,细颗粒物(PM2.5),93,103,93,69,55,26,26,,,50,36,12,12,0.8,0.7
2025-11-30T0300,1439A,106.6899,26.5998,贵阳市,马鞍山,,46,46,41,29,23,6,6,,,27,23,4,6,0.6,0.5
2025-11-30T0300,1441A,106.6243,26.6266,贵阳市,鉴湖路,,36,36,46,19,15,65,65,,,12,19,9,9,0.3,0.4
2025-11-30T0300,1442A,106.7487,26.6343,贵阳市,燕子冲,细颗粒物(PM2.5),52,36,38,36,29,13,13,,,37,25,7,10,0.5,0.4
2025-11-30T0300,1443A,106.6555,26.4365,贵阳市,碧云窝,颗粒物(PM10),52,53,46,24,20,11,11,,,23,15,8,10,1.6,0.9
2025-11-30T0300,1445A,106.7109,26.6027,贵阳市,红边门,颗粒物(PM10),52,53,56,31,34,4,4,,,49,42,43,36,0.9,0.7
2025-11-30T0300,1446A,106.7164,26.5699,贵阳市,新华路,颗粒物(PM10),59,68,62,36,28,1,1,,,55,39,22,20,0.9,0.8
2025-11-30T0300,1447A,106.674,26.5424,贵阳市,太慈桥,,35,34,42,24,21,16,16,,,23,25,4,8,0.3,0.2
2025-11-30T0300,1552A,106.805,26.3003,贵阳市,桐木岭,,36,36,40,17,19,100,100,,,2,2,4,6,0.7,0.6
2025-11-30T0300,4230A,106.6882,26.5695,贵阳市,花果园大街66号,细颗粒物(PM2.5),72,70,42,52,31,5,5,,,61,37,25,14,1.2,0.8
2025-11-30T0300,4231A,106.6873,26.5169,贵阳市,漓江路57号,细颗粒物(PM2.5),55,56,44,39,28,0,0,,,50,32,30,24,0.8,0.6
2025-11-30T0300,1862A,110.4144,25.3167,桂林市,电子科大尧山校区,,,,,,,,,,,,,,,,
2025-11-30T0300,1864A,110.3089,25.2708,桂林市,龙隐路小学,颗粒物(PM10),52,53,59,35,41,23,23,,,40,37,34,18,0.5,0.5
2025-11-30T0300,1865A,110.2869,25.2178,桂林市,八中,"颗粒物(PM10),细颗粒物(PM2.5)",53,56,80,37,49,42,42,,,20,33,18,14,0.6,0.6
2025-11-30T0300,3531A,110.296,25.1253,桂林市,旅游学院,细颗粒物(PM2.5),73,73,70,53,42,4,4,,,37,28,5,7,0.5,0.4
2025-11-30T0300,4222A,110.1835,25.2444,桂林市,环湖路276号,颗粒物(PM10),59,68,74,41,42,1,1,,,61,48,14,14,0.3,0.4
2025-11-30T0300,4301A,110.2803,25.2773,桂林市,信义路13号,颗粒物(PM10),54,58,68,37,41,15,15,,,50,39,39,19,0.8,0.6
2025-11-30T0300,2674A,100.2561,34.4714,果洛藏族自治州,玛沁县大武镇,,29,29,40,7,12,26,26,,,7,8,16,13,0.3,0.4
2025-11-30T0300,1129A,126.5422,45.755,哈尔滨市,岭北,,,,,,,,,,,,,,,,
2025-11-30T0300,1130A,126.561,45.8167,哈尔滨市,松北商大,细颗粒物(PM2.5),89,68,62,66,38,44,44,,,13,17,6,7,0.6,0.6
2025-11-30T0300,1131A,126.979,45.5419,哈尔滨市,阿城会宁,细颗粒物(PM2.5),94,132,71,70,30,45,45,,,12,14,1,6,0.6,0.5
2025-11-30T0300,1132A,126.599,45.7222,哈尔滨市,南岗学府路,细颗粒物(PM2.5),82,87,76,60,33,40,40,,,13,16,7,9,0.7,0.6
2025-11-30T0300,1133A,126.689,45.7733,哈尔滨市,太平宏伟公园,,,,68,,34,,,52,,,9,,9,,0.6
2025-11-30T0300,1134A,126.635,45.7667,哈尔滨市,道外承德广场,,,,81,,36,,,46,,,20,,11,,1.0
2025-11-30T0300,1135A,126.685,45.7319,哈尔滨市,香坊红旗大街,细颗粒物(PM2.5),78,78,85,57,38,48,48,,,8,15,4,8,0.6,0.5
2025-11-30T0300,1136A,126.6411,45.7258,哈尔滨市,动力和平路,细颗粒物(PM2.5),84,73,74,62,39,41,41,,,14,17,6,6,0.6,0.7
2025-11-30T0300,1137A,126.593,45.7478,哈尔滨市,道里建国路,细颗粒物(PM2.5),92,,64,68,41,42,42,,,11,22,2,6,0.3,0.8
2025-11-30T0300,1138A,126.615,45.61,哈尔滨市,平房东轻厂,颗粒物(PM10),84,117,74,59,31,35,35,,,18,17,8,10,0.5,0.4
2025-11-30T0300,1139A,126.595,45.9855,哈尔滨市,呼兰师专,,,,41,,30,,,31,,,26,,10,,0.6
2025-11-30T0300,1140A,126.6206,45.6842,哈尔滨市,省农科院,细颗粒物(PM2.5),92,94,77,68,38,38,38,,,20,23,2,5,0.6,0.6
2025-11-30T0300,2688A,93.5128,42.8172,哈密市,地区监测站,颗粒物(PM10),52,53,166,10,56,38,38,,,11,22,6,11,0.2,0.2
2025-11-30T0300,2689A,93.4961,42.8328,哈密市,哈密师范学校,,34,34,126,6,49,42,42,,,11,30,7,16,0.2,0.7
2025-11-30T0300,2671A,100.9048,36.9639,海北藏族自治州,海晏县西海镇,,23,18,19,11,13,73,73,,,2,3,8,9,0.0,0.3
2025-11-30T0300,3867A,102.0738,36.5056,海东市,平安区公安北苑,细颗粒物(PM2.5),52,51,55,36,27,53,53,,,6,22,16,22,0.7,0.9
2025-11-30T0300,1409A,110.576,19.9507,海口市,东寨港,,,,,,,,,,,,,,,,
2025-11-30T0300,1410A,110.3232,20.0574,海口市,海南大学,,36,26,66,14,26,115,115,,,6,13,5,7,0.4,0.4
2025-11-30T0300,1411A,110.283,20.0053,海口市,秀英海南医院,,33,26,62,8,25,103,103,,,7,14,7,9,0.3,0.3
2025-11-30T0300,1412A,110.338,19.9969,海口市,海南师范大学,,40,40,64,11,26,112,112,,,7,14,5,7,0.5,0.4
2025-11-30T0300,1413A,110.33,20.0356,海口市,龙华路环保局宿舍,,36,25,62,13,27,114,114,,,7,15,7,9,0.7,0.6
2025-11-30T0300,3539A,110.5111,19.9736,海口市,桂林洋子站,,30,26,69,14,27,96,96,,,8,14,6,8,0.4,0.3
2025-11-30T0300,2673A,100.6188,36.2866,海南藏族自治州,共和县恰卜恰镇,,30,30,30,14,18,45,45,,,29,27,11,13,0.6,0.6
2025-11-30T0300,2676A,97.3731,37.3753,海西蒙古族藏族自治州,德令哈市,,20,13,21,7,8,63,63,,,7,6,18,15,0.5,0.4
2025-11-30T0300,1048A,114.5302,36.6116,邯郸市,东污水处理厂,细颗粒物(PM2.5),190,222,209,143,124,4,4,,,80,68,12,12,1.6,1.2
2025-11-30T0300,1049A,114.4918,36.5713,邯郸市,矿院,细颗粒物(PM2.5),199,191,181,149,129,3,3,,,77,67,8,10,1.4,1.2
2025-11-30T0300,1050A,114.484,36.6133,邯郸市,丛台公园,细颗粒物(PM2.5),175,203,202,132,122,8,8,,,73,62,17,13,1.8,1.2
2025-11-30T0300,3458A,114.7895,36.5593,邯郸市,香泉濮院小区,细颗粒物(PM2.5),215,274,268,165,131,6,6,,,72,63,13,16,1.1,1.1
2025-11-30T0300,3579A,114.50634,36.77178,邯郸市,永年区实验高中,细颗粒物(PM2.5),108,157,208,81,96,6,6,,,65,71,11,11,1.5,1.2
2025-11-30T0300,3580A,114.20016,36.44293,邯郸市,峰峰矿区临水派出所,,,59,148,34,114,,,,,32,57,26,22,0.9,1.3
2025-11-30T0300,2634A,106.9893,33.1842,汉中市,汉川机床厂子校,,,,,,,,,,,,,,,,
2025-11-30T0300,2635A,107.0154,33.0706,汉中市,市监测站,细颗粒物(PM2.5),137,111,97,104,79,12,12,,,34,32,4,5,1.3,1.1
2025-11-30T0300,2636A,107.0089,33.1138,汉中市,鑫源开发区,细颗粒物(PM2.5),104,109,97,78,65,38,38,,,46,36,,7,1.4,1.1
2025-11-30T0300,2637A,107.007,33.0323,汉中市,南郑大河坎水厂,细颗粒物(PM2.5),123,106,95,93,73,4,4,,,23,26,7,8,1.2,1
2025-11-30T0300,1223A,120.2072,30.2111,杭州市,滨江,,,88,113,51,50,23,23,,,58,51,,9,0.7,0.6
2025-11-30T0300,1224A,120.0633,30.2747,杭州市,西溪,,,66,84,36,36,0,0,,,27,33,,8,0.4,0.3
2025-11-30T0300,1226A,120.3417,30.3150,杭州市,下沙,颗粒物(PM10),76,101,126,54,57,42,42,,,41,68,8,9,0.6,0.6
2025-11-30T0300,1227A,120.1269,30.2456,杭州市,卧龙桥,颗粒物(PM10),55,59,79,32,36,8,8,,,26,35,8,9,0.4,0.4
2025-11-30T0300,1228A,120.1903,30.2692,杭州市,浙江农大,,,95,117,58,58,16,16,,,66,71,,9,0.8,0.8
2025-11-30T0300,1230A,120.1197,30.3119,杭州市,和睦小学,细颗粒物(PM2.5),90,123,116,67,56,2,2,,,70,57,10,10,1.0,0.8
2025-11-30T0300,1231A,120.3019,30.4183,杭州市,临平镇,,,127,135,69,59,1,1,,,88,74,,8,1.0,0.8
2025-11-30T0300,1232A,120.2753,30.1839,杭州市,城厢镇,细颗粒物(PM2.5),82,109,127,60,55,22,22,,,60,57,9,9,0.5,0.4
2025-11-30T0300,1233A,120.0883,30.1808,杭州市,云栖,颗粒物(PM10),105,159,137,50,47,6,6,,,42,40,4,4,0.8,0.7
2025-11-30T0300,3557A,119.9464,30.0494,杭州市,镇二中,细颗粒物(PM2.5),78,89,97,57,46,4,4,,,52,47,5,6,0.9,0.9
2025-11-30T0300,3558A,119.7183,30.2367,杭州市,市府大楼,,,56,96,29,41,29,29,,,20,29,,11,0.5,0.5
2025-11-30T0300,3656A,120.1556,30.2864,杭州市,消防大队,,,104,116,54,49,17,17,,,54,53,,6,0.5,0.5
2025-11-30T0300,1270A,117.1959,31.7848,合肥市,明珠广场,颗粒物(PM10),75,100,114,48,44,1,1,,,86,57,7,9,0.9,0.8
2025-11-30T0300,1271A,117.3072,31.8764,合肥市,三里街,颗粒物(PM10),73,95,110,48,43,9,9,,,72,66,6,8,1.1,0.8
2025-11-30T0300,1272A,117.2588,31.8707,合肥市,琥珀山庄,颗粒物(PM10),67,83,111,44,53,4,4,,,77,53,6,7,1.1,0.8
2025-11-30T0300,1273A,117.1604,31.9052,合肥市,董铺水库,,,,,,,,,,,,,,,,
2025-11-30T0300,1274A,117.25,31.8571,合肥市,长江中路,细颗粒物(PM2.5),72,90,112,52,55,2,2,,,70,50,8,9,1.1,0.8
2025-11-30T0300,1275A,117.266,31.9436,合肥市,庐阳区,颗粒物(PM10),87,124,117,51,46,2,2,,,102,60,10,10,0.9,0.8
2025-11-30T0300,1276A,117.3453,31.8616,合肥市,瑶海区,颗粒物(PM10),73,95,110,51,47,48,48,,,46,47,7,8,0.8,0.7
2025-11-30T0300,1277A,117.3027,31.7964,合肥市,包河区,细颗粒物(PM2.5),79,105,112,58,48,2,2,,,126,72,15,13,0.9,0.8
2025-11-30T0300,1278A,117.2776,31.7385,合肥市,滨湖新区,颗粒物(PM10),69,88,111,48,47,33,33,,,45,40,7,9,0.8,0.7
2025-11-30T0300,1279A,117.1318,31.8403,合肥市,高新区,细颗粒物(PM2.5),75,92,100,55,39,9,9,,,92,47,8,8,0.8,0.7
2025-11-30T0300,3464A,117.3803,31.9147,合肥市,高教基地,细颗粒物(PM2.5),82,85,105,60,49,32,32,,,41,30,6,8,0.6,0.5
2025-11-30T0300,3614A,79.924,37.0877,和田地区,地区环保局,颗粒物(PM10),118,185,137,68,46,30,30,,,51,32,12,12,1.6,1.2
2025-11-30T0300,3615A,79.9131,37.113,和田地区,市环保局,细颗粒物(PM2.5),192,211,170,144,78,14,14,,,66,66,6,11,2.1,2.2
2025-11-30T0300,2516A,108.2011,24.715,河池市,东仁乐园,,,,,,,,,,,,,,,,
2025-11-30T0300,2517A,108.0497,24.6947,河池市,市环保站,,45,45,48,30,26,11,11,,,34,27,3,4,0.5,0.6
2025-11-30T0300,2518A,108.0983,24.6989,河池市,市疾控中心,颗粒物(PM10),57,63,63,35,35,1,1,,,37,34,5,8,0.6,0.6
2025-11-30T0300,1696A,114.6778,23.7569,河源市,源西,,,,,,,,,,,,,,,,
2025-11-30T0300,1697A,114.6944,23.7586,河源市,东埔,,,41,62,26,29,44,44,,,29,32,,8,0.4,0.5
2025-11-30T0300,1698A,114.6892,23.7233,河源市,老城,,,48,52,17,23,33,33,,,25,24,,7,0.5,0.5
2025-11-30T0300,1718A,115.4208,35.2464,菏泽市,气象局,细颗粒物(PM2.5),140,172,166,107,105,64,64,,,35,45,7,9,0.5,0.6
2025-11-30T0300,3374A,115.5564,35.0891,菏泽市,定陶老年大学,细颗粒物(PM2.5),119,166,150,90,80,38,38,,,64,50,7,8,0.6,0.6
2025-11-30T0300,4184A,115.4797,35.24401,菏泽市,永昌路1号,细颗粒物(PM2.5),124,172,162,94,83,40,40,,,50,52,5,9,0.6,0.6
2025-11-30T0300,4193A,115.4715,35.2800,菏泽市,长城路999号,细颗粒物(PM2.5),163,166,165,124,106,55,55,,,45,52,3,5,0.7,0.8
2025-11-30T0300,2514A,111.5264,24.4172,贺州市,环保小区,细颗粒物(PM2.5),55,42,57,39,40,19,19,,,31,26,7,6,0.7,0.7
2025-11-30T0300,2515A,111.5608,24.4078,贺州市,政协大楼,,41,41,58,27,33,35,35,,,22,31,14,10,0.4,0.5
2025-11-30T0300,3534A,111.4744,24.4553,贺州市,西湾,细颗粒物(PM2.5),67,60,67,48,39,6,6,,,35,26,7,7,0.8,0.8
2025-11-30T0300,2385A,114.17,35.9019,鹤壁市,市监测站,细颗粒物(PM2.5),98,109,168,73,105,20,20,,,36,43,8,15,0.6,1
2025-11-30T0300,2386A,114.2956,35.7511,鹤壁市,市交警支队,细颗粒物(PM2.5),102,138,205,76,102,0,0,,,55,59,3,8,1.0,1.1
2025-11-30T0300,2387A,114.2878,35.7306,鹤壁市,迎宾馆,颗粒物(PM10),95,140,208,67,92,14,14,,,37,51,6,13,0.8,1.1
2025-11-30T0300,3474A,114.2617,35.6822,鹤壁市,大新区,颗粒物(PM10),104,157,204,67,97,18,18,,,35,58,5,9,0.8,1.1
2025-11-30T0300,3596A,114.1572,35.9603,鹤壁市,南山宾馆,细颗粒物(PM2.5),100,134,190,75,83,55,55,,,25,39,17,19,0.8,1.1
2025-11-30T0300,2244A,130.2537,47.3416,鹤岗市,哈啤分公司,,49,39,53,34,36,60,60,,,12,13,15,15,0.5,0.6
2025-11-30T0300,2245A,130.2684,47.3086,鹤岗市,斯达机电,,43,43,66,25,29,64,64,,,11,20,14,17,0.7,0.8
2025-11-30T0300,2246A,130.3114,47.3388,鹤岗市,东山纸板厂,,43,43,29,18,27,72,72,,,8,19,13,18,0.4,0.6
2025-11-30T0300,2247A,130.1097,47.3382,鹤岗市,五号水库,,,,,,,,,,,,,,,,
2025-11-30T0300,2263A,127.4833,50.2524,黑河市,交通局,,25,25,38,7,19,60,60,,,1,13,4,4,0.3,0.4
2025-11-30T0300,2264A,127.5144,50.2341,黑河市,环保局,颗粒物(PM10),54,58,58,13,18,57,57,,,6,9,3,6,0.3,0.4
2025-11-30T0300,2265A,127.5291,50.2472,黑河市,大黑河岛,,,,,,,,,,,,,,,,
2025-11-30T0300,1074A,115.6838,37.7541,衡水市,电机北厂,细颗粒物(PM2.5),183,266,269,138,114,0,0,,,68,67,17,14,0.9,0.8
2025-11-30T0300,1075A,115.6303,37.7316,衡水市,市监测站,细颗粒物(PM2.5),186,250,229,140,116,0,0,,,78,66,22,16,1.0,0.9
2025-11-30T0300,3188A,115.6683,37.7217,衡水市,市城管局,细颗粒物(PM2.5),172,263,257,130,107,,,,,83,72,18,11,1.0,0.9
2025-11-30T0300,3459A,115.5989,37.5491,衡水市,地表水厂,细颗粒物(PM2.5),192,265,242,144,115,4,4,,,78,66,24,16,1.0,0.8
2025-11-30T0300,2456A,112.5003,26.9167,衡阳市,原169医院,,,,,,,,,,,,,,,,
2025-11-30T0300,2457A,112.6194,26.9258,衡阳市,衡阳化工总厂,细颗粒物(PM2.5),92,102,92,68,57,1,1,,,51,39,13,14,1.1,1
2025-11-30T0300,2458A,112.6211,26.8956,衡阳市,珠晖区环保局,,,107,86,69,53,1,1,,,51,44,,8,1.6,1.2
2025-11-30T0300,2459A,112.6197,26.8733,衡阳市,市委党校,细颗粒物(PM2.5),115,106,92,87,61,2,2,,,56,36,,22,1.5,1.1
2025-11-30T0300,2460A,112.6006,26.8919,衡阳市,市监测站,细颗粒物(PM2.5),127,142,115,96,64,2,2,,,58,48,,15,1.9,1.3
2025-11-30T0300,2461A,112.5664,26.9056,衡阳市,真空机电公司,细颗粒物(PM2.5),114,111,102,86,64,2,2,,,56,52,9,18,1.6,1.4
2025-11-30T0300,3399A,112.6703,26.882,衡阳市,师范学院,细颗粒物(PM2.5),99,118,99,74,52,3,3,,,54,32,13,13,1.3,1
2025-11-30T0300,2608A,103.3772,23.3993,红河哈尼族彝族自治州,污水处理厂,,50,41,66,35,53,60,60,,,14,21,9,63,0.1,0.2
2025-11-30T0300,2609A,103.3861,23.35,红河哈尼族彝族自治州,监测站,,35,34,50,24,38,80,80,,,5,14,6,21,0.2,0.3
2025-11-30T0300,3038A,103.3758,23.368,红河哈尼族彝族自治州,州图书馆,,32,29,47,22,32,75,75,,,6,12,6,41,0.5,0.6
2025-11-30T0300,1090A,111.6507,40.7517,呼和浩特市,呼市一监,颗粒物(PM10),75,100,182,31,50,42,42,,,26,35,10,9,0.3,0.8
2025-11-30T0300,1091A,111.6572,40.8033,呼和浩特市,小召,颗粒物(PM10),97,144,224,48,68,16,16,,,51,52,10,9,0.6,0.8
2025-11-30T0300,1094A,111.7516,40.8369,呼和浩特市,如意水处理厂,颗粒物(PM10),104,157,219,49,68,1,1,,,60,50,9,11,0.6,0.6
2025-11-30T0300,1095A,111.7276,40.8062,呼和浩特市,二十九中,颗粒物(PM10),107,164,222,51,69,4,4,,,60,45,14,14,0.6,0.5
2025-11-30T0300,1096A,111.5512,40.7866,呼和浩特市,工大金川校区,颗粒物(PM10),112,174,239,43,69,43,43,,,39,56,9,11,0.4,0.6
2025-11-30T0300,1097A,111.717,40.7612,呼和浩特市,化肥厂生活区,,,110,205,48,63,,,,,24,35,10,8,0.6,0.7
2025-11-30T0300,3698A,111.5968,40.8178,呼和浩特市,红旗小学,颗粒物(PM10),117,183,226,43,68,34,34,,,43,51,11,14,0.6,0.7
2025-11-30T0300,3699A,111.6518,40.8389,呼和浩特市,海东办,颗粒物(PM10),118,185,230,43,69,18,18,,,44,49,6,8,0.5,0.7
2025-11-30T0300,3061A,119.7512,49.1577,呼伦贝尔市,国华电力东,,23,16,45,16,21,45,45,,,20,13,3,7,0.4,0.4
2025-11-30T0300,4279A,119.7569,49.2222,呼伦贝尔市,伊敏大街东7号,,28,,36,19,27,53,53,,,1,6,6,5,0.4,0.4
2025-11-30T0300,1250A,120.0751,30.8669,湖州市,城西水厂,颗粒物(PM10),65,79,128,41,56,10,10,,,80,70,10,10,0.6,0.7
2025-11-30T0300,2873A,120.0830,30.8929,湖州市,仁皇山新区,,,111,120,58,51,6,6,,,65,62,,9,0.6,0.6
2025-11-30T0300,2907A,120.1844,30.8596,湖州市,吴兴区站,,,141,143,72,59,3,3,,,84,62,,9,1.1,0.9
2025-11-30T0300,3562A,120.4148,30.8538,湖州市,南浔区站,细颗粒物(PM2.5),125,187,146,95,61,0,0,,,107,55,13,8,0.9,0.6
2025-11-30T0300,1607A,120.9049,40.7211,葫芦岛市,龙港区,颗粒物(PM10),56,62,129,29,49,7,7,,,58,43,25,26,0.8,1.1
2025-11-30T0300,1608A,120.8392,40.7514,葫芦岛市,化工街,,39,39,110,22,34,16,16,,,44,45,38,21,0.4,0.6
2025-11-30T0300,1609A,120.8341,40.7073,葫芦岛市,新区,,48,48,98,16,36,3,3,,,62,44,23,16,0.8,0.9
2025-11-30T0300,1610A,120.8695,40.7677,葫芦岛市,东城区,,30,30,103,16,40,20,20,,,46,49,33,17,0.7,1
2025-11-30T0300,2482A,109.5981,27.5721,怀化市,林科所,,,,,,,,,,,,,,,,
2025-11-30T0300,2483A,109.9453,27.5444,怀化市,河西地税局,细颗粒物(PM2.5),52,46,50,36,31,4,4,,,14,17,4,6,0.3,0.4
2025-11-30T0300,2484A,109.9781,27.5342,怀化市,市四医院,,,55,74,32,35,,,,,43,28,9,10,0.4,0.4
2025-11-30T0300,2485A,109.9972,27.5578,怀化市,监测楼,颗粒物(PM10),53,55,66,30,36,0,0,,,25,25,2,5,0.2,0.2
2025-11-30T0300,2486A,110.0394,27.583,怀化市,市委党校,"颗粒物(PM10),细颗粒物(PM2.5)",59,67,63,42,36,0,0,,,26,25,10,11,0.6,0.5
2025-11-30T0300,1210A,119.036,33.5981,淮安市,钵池山,细颗粒物(PM2.5),98,112,118,73,72,32,32,,,59,43,21,13,1.6,0.9
2025-11-30T0300,1211A,119.007,33.575,淮安市,北京南路,细颗粒物(PM2.5),87,102,122,64,55,6,6,,,57,52,8,12,1.0,1.1
2025-11-30T0300,1212A,118.989,33.6067,淮安市,市监测站,细颗粒物(PM2.5),85,110,121,63,50,39,39,,,46,43,10,13,1.0,1.1
2025-11-30T0300,1213A,119.135,33.5039,淮安市,楚州区监测站,细颗粒物(PM2.5),103,132,136,77,58,2,2,,,76,57,10,10,1.2,1.1
2025-11-30T0300,3426A,118.8755,33.2894,淮安市,新华书店,细颗粒物(PM2.5),90,109,118,67,55,48,48,,,45,41,13,12,0.6,0.6
2025-11-30T0300,4206A,119.0288,33.6319,淮安市,承德北路606号,细颗粒物(PM2.5),82,112,128,60,52,34,34,,,42,45,9,12,0.8,0.9
2025-11-30T0300,2282A,116.8004,33.975,淮北市,监测站,,,,130,,74,,,67,,,38,,10,,0.8
2025-11-30T0300,2283A,116.8091,33.9007,淮北市,烈山区政府,细颗粒物(PM2.5),118,148,133,89,68,7,7,,,71,55,11,13,0.7,0.6
2025-11-30T0300,3330A,116.8873,33.9836,淮北市,杜集区检察院,细颗粒物(PM2.5),129,143,136,98,87,35,35,,,48,37,7,9,0.7,0.7
2025-11-30T0300,4017A,116.7923,33.9535,淮北市,市博物馆,细颗粒物(PM2.5),156,169,149,119,95,14,14,,,58,56,13,13,1.2,1
2025-11-30T0300,2277A,116.8305,32.7727,淮南市,潘集区政府,细颗粒物(PM2.5),110,141,123,83,53,22,22,,,44,34,9,7,0.8,0.7
2025-11-30T0300,2279A,116.8569,32.5951,淮南市,谢家集区政府,颗粒物(PM10),77,103,95,54,40,73,73,,,26,31,10,9,0.7,0.6
2025-11-30T0300,2280A,116.8281,32.633,淮南市,八公山区政府,颗粒物(PM10),64,77,90,40,38,88,88,,,13,20,6,6,0.5,0.5
2025-11-30T0300,2281A,116.6325,32.6201,淮南市,焦岗湖风景区管理处,,,,,,,,,,,,,,,,
2025-11-30T0300,2894A,117.0566,32.6531,淮南市,经济技术开发区消防队,细颗粒物(PM2.5),115,174,117,87,49,3,3,,,81,44,9,8,0.7,0.5
2025-11-30T0300,3329A,117.0108,32.5893,淮南市,山南新区,细颗粒物(PM2.5),112,138,134,84,57,56,56,,,41,41,9,6,0.6,0.5
2025-11-30T0300,4209A,117.0031,32.6445,淮南市,国庆中路369号,细颗粒物(PM2.5),107,111,93,80,51,9,9,,,64,36,7,6,1.1,0.7
2025-11-30T0300,2446A,114.9028,30.4742,黄冈市,职工中心,细颗粒物(PM2.5),70,69,71,51,42,50,50,,,21,29,7,12,0.5,0.4
2025-11-30T0300,2929A,114.8858,30.4519,黄冈市,红卫路,细颗粒物(PM2.5),77,72,71,56,51,40,40,,,19,30,9,10,0.7,0.7
2025-11-30T0300,3398A,114.9136,30.4445,黄冈市,市林业局,细颗粒物(PM2.5),69,82,86,50,44,46,46,,,31,39,10,11,0.7,0.7
2025-11-30T0300,2672A,102.0199,35.5102,黄南藏族自治州,同仁县隆务镇,,31,31,31,8,12,64,64,,,1,5,9,10,0.2,0.3
2025-11-30T0300,2295A,118.2903,29.6963,黄山市,延安路89号,,20,20,58,13,30,16,16,,,19,16,4,4,0.3,0.4
2025-11-30T0300,2297A,118.1371,30.2756,黄山市,黄山区政府5号楼,,30,30,58,16,35,17,17,,,6,10,6,6,0.6,0.7
2025-11-30T0300,4210A,118.3354,29.7203,黄山市,滨江东路7-2号,细颗粒物(PM2.5),59,54,73,42,43,7,7,,,16,23,4,4,0.3,0.4
2025-11-30T0300,2423A,115.0601,30.2313,黄石市,沈家营,颗粒物(PM10),77,103,106,52,47,16,16,,,48,47,8,15,1.6,1.4
2025-11-30T0300,2426A,114.8988,30.2019,黄石市,铁山,细颗粒物(PM2.5),69,73,82,50,47,44,44,,,27,41,13,14,0.5,0.5
2025-11-30T0300,2427A,115.0307,30.2092,黄石市,团城山,细颗粒物(PM2.5),78,102,100,57,47,31,31,,,47,45,13,12,1.1,0.9
2025-11-30T0300,3149A,115.0235,30.1578,黄石市,笔架山北路,颗粒物(PM10),90,130,138,54,45,41,41,,,30,30,14,15,1.1,1.1
2025-11-30T0300,4185A,115.0780,30.21118,黄石市,磁湖东路29号,细颗粒物(PM2.5),78,94,111,57,59,16,16,,,40,51,12,19,1.3,1.2
2025-11-30T0300,1392A,114.4183,23.0528,惠州市,河南岸金山湖子站,细颗粒物(PM2.5),82,110,84,60,41,41,41,,,39,37,7,7,0.8,0.7
2025-11-30T0300,1393A,114.4053,23.0822,惠州市,下埔横江三路子站,颗粒物(PM10),78,106,84,54,38,52,52,,,29,30,15,9,0.8,0.8
2025-11-30T0300,1394A,114.4103,23.1142,惠州市,江北云山西路子站,颗粒物(PM10),82,113,88,58,40,41,41,,,42,40,17,9,0.6,0.6
2025-11-30T0300,1395A,114.4645,22.7833,惠州市,惠阳区承修路船湖子站,颗粒物(PM10),84,117,78,52,33,51,51,,,46,28,9,7,0.7,0.5
2025-11-30T0300,1396A,114.5317,22.7422,惠州市,大亚湾管委会子站,,,100,77,32,31,116,116,,,15,27,,7,0.7,0.7
2025-11-30T0300,3314A,114.4338,22.8134,惠州市,惠阳秋长,颗粒物(PM10),78,105,79,45,37,76,76,,,37,34,13,14,0.6,0.5
2025-11-30T0300,3452A,114.6517,22.775,惠州市,大亚湾霞涌,颗粒物(PM10),72,94,70,21,27,99,99,,,18,20,8,7,0.6,0.6
2025-11-30T0300,2240A,130.9762,45.3001,鸡西市,环保局,颗粒物(PM10),53,55,67,33,49,56,56,,,3,33,6,10,0.5,0.9
2025-11-30T0300,2243A,130.9429,45.3039,鸡西市,第一中学,颗粒物(PM10),57,63,52,14,38,57,57,,,4,29,6,8,0.3,0.5
2025-11-30T0300,3707A,131.0207,45.3073,鸡西市,欧美日汽修厂,颗粒物(PM10),53,55,75,9,53,51,51,,,7,33,9,13,0.3,0.7
2025-11-30T0300,3709A,130.9967,45.3106,鸡西市,市政设施管理处,,,63,68,11,46,,,,,8,36,8,12,0.4,0.8
2025-11-30T0300,2367A,114.9754,27.0803,吉安市,红声器材厂,颗粒物(PM10),63,75,68,38,27,5,5,,,45,33,7,9,0.7,0.7
2025-11-30T0300,2368A,114.9658,27.0999,吉安市,市森林工业局,,,74,75,38,32,,,,,58,37,8,9,0.4,0.5
2025-11-30T0300,2369A,114.99,27.1312,吉安市,市环境监测站,颗粒物(PM10),62,74,67,39,30,2,2,,,48,35,11,13,0.5,0.4
2025-11-30T0300,2370A,115.0093,27.0968,吉安市,青原区法院,颗粒物(PM10),54,58,62,27,25,3,3,,,43,33,10,10,0.6,0.5
2025-11-30T0300,1772A,126.54,43.8622,吉林市,哈达湾,,33,33,45,12,19,54,54,,,6,10,8,8,0.6,0.6
2025-11-30T0300,1773A,126.5844,43.8358,吉林市,东局子,,33,33,41,3,15,47,47,,,6,8,8,9,0.4,0.5
2025-11-30T0300,1774A,126.5052,43.8245,吉林市,电力学院,,23,23,39,11,19,50,50,,,7,11,7,8,0.6,0.7
2025-11-30T0300,1775A,126.6133,43.8972,吉林市,江北,,18,18,35,11,21,47,47,,,6,11,5,6,0.6,0.6
2025-11-30T0300,1776A,126.555,43.8306,吉林市,江南公园,,21,21,39,10,21,52,52,,,10,11,6,6,0.3,0.4
2025-11-30T0300,1778A,126.7061,43.7133,吉林市,丰满,,17,17,32,9,21,45,45,,,4,8,9,9,0.5,0.6
2025-11-30T0300,2868A,126.4739,43.953,吉林市,九站,,21,21,43,11,19,46,46,,,16,16,2,4,0.8,0.9
2025-11-30T0300,1299A,116.9862,36.6114,济南市,科干所,,,112,134,59,61,7,7,,,63,43,,16,1.0,0.8
2025-11-30T0300,1300A,116.9376,36.665,济南市,农科所,颗粒物(PM10),94,137,170,66,73,4,4,,,74,62,12,14,0.9,0.9
2025-11-30T0300,1301A,117.1265,36.6734,济南市,开发区,颗粒物(PM10),85,120,165,54,70,4,4,,,64,64,5,9,1.0,1
2025-11-30T0300,1303A,117.0624,36.6868,济南市,省种子仓库,颗粒物(PM10),112,173,201,80,86,4,4,,,58,65,11,15,1.6,1.2
2025-11-30T0300,1304A,116.9489,36.6447,济南市,机床二厂,颗粒物(PM10),105,159,173,68,77,4,4,,,68,57,,20,0.9,0.9
2025-11-30T0300,1305A,117.0495,36.663,济南市,市监测站,颗粒物(PM10),94,137,172,61,74,2,2,,,63,64,6,9,1.0,0.9
2025-11-30T0300,1306A,116.7675,36.5484,济南市,长清党校,颗粒物(PM10),100,149,153,73,61,37,37,,,51,47,14,14,0.8,0.8
2025-11-30T0300,1616A,117.6795,36.229,济南市,技术学院,细颗粒物(PM2.5),147,195,189,112,106,0,0,,,81,74,16,22,1.4,1.5
2025-11-30T0300,1961A,117.532,36.6868,济南市,东山小学,细颗粒物(PM2.5),119,173,188,90,83,13,13,,,65,60,13,16,1.1,0.9
2025-11-30T0300,3059A,117.7161,36.2049,济南市,泰兴公司,细颗粒物(PM2.5),147,166,185,112,100,3,3,,,58,65,12,16,1.1,1.2
2025-11-30T0300,3064A,117.6867,36.2171,济南市,莱芜战役纪念馆,细颗粒物(PM2.5),163,193,188,124,105,5,5,,,75,66,15,20,1.4,1.3
2025-11-30T0300,3494A,117.1673,36.9782,济南市,济阳区政府,细颗粒物(PM2.5),182,256,229,137,109,10,10,,,73,62,,25,1.4,1
2025-11-30T0300,3495A,117.1171,36.63,济南市,锦屏中学,颗粒物(PM10),61,71,127,32,46,56,56,,,13,39,6,8,0.6,0.8
2025-11-30T0300,3682A,116.9814,36.6819,济南市,济南四建,颗粒物(PM10),118,185,187,85,80,2,2,,,62,63,12,14,1.4,1.1
2025-11-30T0300,1653A,116.6251,35.4302,济宁市,火炬城,细颗粒物(PM2.5),199,210,156,149,97,29,29,,,57,49,12,9,0.6,0.4
2025-11-30T0300,1655A,116.5491,35.4042,济宁市,电化厂,细颗粒物(PM2.5),199,231,172,149,111,8,8,,,90,64,,11,1.1,0.7
2025-11-30T0300,3500A,116.5814,35.3707,济宁市,北湖一中,细颗粒物(PM2.5),209,225,145,159,96,3,3,,,82,50,12,10,1.3,0.7
2025-11-30T0300,3501A,116.8249,35.5593,济宁市,服务中心,细颗粒物(PM2.5),155,234,177,118,89,1,1,,,66,52,8,8,0.7,0.5
2025-11-30T0300,3678A,116.5907,35.4054,济宁市,市第七中学,细颗粒物(PM2.5),188,224,163,141,94,8,8,,,93,61,17,11,1.0,0.8
2025-11-30T0300,2255A,130.2751,46.8028,佳木斯市,佳纺,,45,45,52,30,38,30,30,,,19,23,4,4,0.6,0.7
2025-11-30T0300,2256A,130.3995,46.8307,佳木斯市,发电厂,,32,32,41,22,35,38,38,,,15,15,2,3,0.5,0.5
2025-11-30T0300,2257A,130.3258,46.7975,佳木斯市,环保局,,46,42,48,32,42,10,10,,,51,25,3,3,0.5,0.5
2025-11-30T0300,2258A,130.3648,46.8032,佳木斯市,十一中,,43,41,58,30,39,27,27,,,29,20,3,4,0.4,0.5
2025-11-30T0300,2259A,130.3794,46.7588,佳木斯市,四丰,,,,,,,,,,,,,,,,
2025-11-30T0300,1252A,120.7436,30.778,嘉兴市,清河小学,细颗粒物(PM2.5),108,158,150,81,62,13,13,,,74,60,7,6,0.6,0.8
2025-11-30T0300,1253A,120.726,30.7478,嘉兴市,嘉兴学院,颗粒物(PM10),118,186,153,81,59,6,6,,,87,54,9,8,0.8,0.7
2025-11-30T0300,2872A,120.7846,30.7525,嘉兴市,南湖区残联,颗粒物(PM10),118,185,149,83,64,16,16,,,74,46,6,6,0.8,0.6
2025-11-30T0300,3407A,120.6916,30.7739,嘉兴市,秀洲住建,细颗粒物(PM2.5),117,152,136,88,61,16,16,,,78,70,7,8,1.1,0.9
2025-11-30T0300,1945A,98.2908,39.7711,嘉峪关市,气象局,颗粒物(PM10),103,156,50,22,12,63,63,,,7,14,14,24,0.7,0.6
2025-11-30T0300,2884A,98.2672,39.7978,嘉峪关市,酒钢宾馆,颗粒物(PM10),100,149,63,29,14,48,48,,,18,11,14,26,1.3,0.6
2025-11-30T0300,3248A,98.2643,39.7724,嘉峪关市,雄关区,颗粒物(PM10),79,107,47,22,19,61,61,,,10,17,13,20,0.7,0.7
2025-11-30T0300,1383A,113.1064,22.6058,江门市,北街,,,107,112,59,58,43,43,,,60,80,,11,1.0,0.9
2025-11-30T0300,1384A,113.0731,22.5835,江门市,西区,颗粒物(PM10),84,117,112,55,57,36,36,,,68,76,8,12,0.7,0.7
2025-11-30T0300,1385A,113.0219,22.5311,江门市,圭峰西,颗粒物(PM10),90,130,92,66,48,14,14,,,102,57,6,7,0.9,0.6
2025-11-30T0300,1386A,113.0828,22.5947,江门市,东湖,,,99,102,58,49,43,43,,,54,73,,13,0.7,0.7
2025-11-30T0300,3311A,113.1075,22.5647,江门市,江海富民,颗粒物(PM10),84,118,101,40,38,59,59,,,45,65,12,15,0.6,0.6
2025-11-30T0300,3449A,113.05,22.4667,江门市,新会银湖,细颗粒物(PM2.5),102,116,100,76,65,0,0,,,77,64,,9,0.7,0.7
2025-11-30T0300,1830A,113.1992,35.2590,焦作市,影视城,,,,80,,28,,,75,,,25,,20,,0.8
2025-11-30T0300,3335A,113.3137,35.2641,焦作市,马村街道办,颗粒物(PM10),87,123,110,61,56,10,10,,,51,36,12,12,0.8,0.6
2025-11-30T0300,3336A,113.2465,35.2373,焦作市,焦作技师学院,颗粒物(PM10),81,112,109,46,49,19,19,,,48,41,16,13,1.1,0.8
2025-11-30T0300,3477A,113.1656,35.2539,焦作市,中站许衡医院,细颗粒物(PM2.5),59,63,92,42,39,67,67,,,13,25,9,15,0.8,0.6
2025-11-30T0300,3981A,113.2449,35.1803,焦作市,原李万街道办,颗粒物(PM10),65,80,117,41,43,49,49,,,22,35,6,11,0.6,0.6
2025-11-30T0300,4264A,113.2340,35.2190,焦作市,新安路1731号,细颗粒物(PM2.5),93,123,116,69,63,31,31,,,38,40,20,17,0.8,0.8
2025-11-30T0300,4295A,113.2722,35.2121,焦作市,人民路3066号,颗粒物(PM10),76,101,111,37,40,35,35,,,32,41,8,11,0.6,0.7
2025-11-30T0300,1708A,116.3701,23.5345,揭阳市,新兴,细颗粒物(PM2.5),92,125,104,68,49,40,40,,,47,43,11,14,0.8,0.8
2025-11-30T0300,1709A,116.3264,23.5443,揭阳市,西马,细颗粒物(PM2.5),104,115,110,78,54,34,34,,,56,42,8,9,0.8,0.7
2025-11-30T0300,1710A,116.3611,23.5626,揭阳市,东兴,"颗粒物(PM10),细颗粒物(PM2.5)",83,116,111,61,48,39,39,,,46,45,11,13,0.9,0.8
2025-11-30T0300,1711A,116.4151,23.5294,揭阳市,渔湖,颗粒物(PM10),93,135,107,67,48,20,20,,,56,42,9,12,1.1,0.8
2025-11-30T0300,3320A,116.403,23.5699,揭阳市,曲溪,颗粒物(PM10),82,114,109,46,51,14,14,,,68,41,9,12,0.8,0.7
2025-11-30T0300,1944A,102.1692,38.5167,金昌市,天庆家园,颗粒物(PM10),206,354,151,71,45,65,65,,,4,16,3,49,0.4,0.7
2025-11-30T0300,4022A,102.1647,38.5371,金昌市,金川区人防中心,颗粒物(PM10),180,310,147,125,50,61,61,,,2,13,3,37,0.5,0.6
2025-11-30T0300,4239A,102.1930,38.5319,金昌市,长春路96号,颗粒物(PM10),172,293,130,61,42,70,70,,,2,13,4,33,0.5,0.6
2025-11-30T0300,1262A,119.647,29.077,金华市,十五中,颗粒物(PM10),64,78,105,41,50,9,9,,,62,56,6,5,0.6,0.6
2025-11-30T0300,1263A,119.686,29.1029,金华市,监测站,颗粒物(PM10),80,109,108,51,45,6,6,,,76,68,3,4,0.6,0.5
2025-11-30T0300,3659A,119.656,29.1131,金华市,气象局,细颗粒物(PM2.5),90,120,119,67,58,0,0,,,71,65,5,6,1.1,0.7
2025-11-30T0300,1767A,121.1115,41.0879,锦州市,南山,,37,37,93,20,38,33,33,,,28,29,14,17,0.5,0.7
2025-11-30T0300,1768A,121.0604,40.8428,锦州市,开发区,,34,34,109,18,35,15,15,,,45,40,14,18,0.5,0.7
2025-11-30T0300,1769A,121.1836,41.1119,锦州市,百股街道,,30,30,98,17,36,31,31,,,24,26,18,19,0.8,0.9
2025-11-30T0300,1770A,121.1178,41.1222,锦州市,天安街道,,26,26,91,13,27,37,37,,,21,23,11,15,0.6,0.8
2025-11-30T0300,1771A,121.1303,41.1386,锦州市,北湖公园,,40,40,90,10,31,38,38,,,19,25,10,14,0.6,0.8
2025-11-30T0300,2160A,112.85,35.5051,晋城市,自来水公司,颗粒物(PM10),110,170,105,78,39,14,14,,,59,44,24,10,1.9,1
2025-11-30T0300,2161A,112.8318,35.4936,晋城市,白云商贸,颗粒物(PM10),84,117,105,36,31,15,15,,,33,36,5,6,1.0,1
2025-11-30T0300,2162A,112.8508,35.4887,晋城市,市环保局,颗粒物(PM10),103,155,105,68,37,4,4,,,47,38,15,9,0.9,0.8
2025-11-30T0300,2163A,112.8676,35.4897,晋城市,技术学院,细颗粒物(PM2.5),94,129,99,70,34,9,9,,,62,51,21,11,1.0,0.8
2025-11-30T0300,2165A,112.8453,35.546,晋城市,白马寺,细颗粒物(PM2.5),93,116,78,69,39,53,53,,,33,11,30,10,2.0,0.8
2025-11-30T0300,3620A,112.8271,35.4828,晋城市,泽州一中,颗粒物(PM10),87,123,94,51,32,20,20,,,45,30,7,6,0.9,0.8
2025-11-30T0300,2173A,112.7249,37.7067,晋中市,南都小区,颗粒物(PM10),89,127,153,53,57,4,4,,,60,48,20,25,1.0,1.4
2025-11-30T0300,2174A,112.6991,37.6982,晋中市,榆次区政府,细颗粒物(PM2.5),95,122,164,71,80,5,5,,,58,48,20,25,1.1,1.3
2025-11-30T0300,2865A,112.7195,37.6828,晋中市,榆次三中,颗粒物(PM10),80,110,161,41,56,2,2,,,52,46,16,24,0.8,1.3
2025-11-30T0300,4200A,112.7478,37.6954,晋中市,迎宾街26号,颗粒物(PM10),86,122,156,53,59,7,7,,,51,46,20,25,0.8,0.9
2025-11-30T0300,2439A,112.2014,31.0481,荆门市,竹园小学,,,105,117,73,71,28,28,,,,43,5,7,0.6,0.7
2025-11-30T0300,2440A,112.1969,30.9891,荆门市,掇刀,细颗粒物(PM2.5),107,111,120,80,74,35,35,,,,40,3,5,0.6,0.6
2025-11-30T0300,2441A,112.2213,31.0386,荆门市,石化一小,细颗粒物(PM2.5),129,156,141,98,80,4,4,,,70,46,,8,2.1,1.1
2025-11-30T0300,3012A,112.1849,31.0362,荆门市,西山林语,,,75,100,59,60,68,68,,,14,24,6,8,,0.6
2025-11-30T0300,3547A,112.1632,31.0138,荆门市,龙泉中学南校,,,106,122,64,68,64,64,,,,30,14,12,0.6,0.9
2025-11-30T0300,1844A,112.2494,30.3197,荆州市,市图书馆,细颗粒物(PM2.5),102,96,83,76,59,7,7,,,72,42,6,8,,1
2025-11-30T0300,1845A,112.2008,30.3544,荆州市,市委党校,细颗粒物(PM2.5),90,97,88,67,58,1,1,,,64,48,5,6,0.9,0.9
2025-11-30T0300,3194A,112.2747,30.3122,荆州市,管委会,,,88,77,74,57,3,3,,,56,42,8,10,,0.8
2025-11-30T0300,4268A,112.1722,30.3366,荆州市,学苑路85号,细颗粒物(PM2.5),105,100,87,79,59,4,4,,,48,35,3,74,0.8,0.7
2025-11-30T0300,2342A,117.3102,29.3867,景德镇市,王港中学,,,,,,,,,,,,,,,,
2025-11-30T0300,2343A,117.2117,29.2933,景德镇市,老干部活动中心,细颗粒物(PM2.5),69,74,82,50,40,2,2,,,36,32,8,11,0.8,0.9
2025-11-30T0300,2344A,117.1894,29.2789,景德镇市,兽医站,颗粒物(PM10),66,82,91,40,34,2,2,,,47,37,8,12,0.4,0.5
2025-11-30T0300,2346A,117.2461,29.2956,景德镇市,陶研所,细颗粒物(PM2.5),60,59,65,43,36,0,0,,,34,25,3,5,0.8,0.7
2025-11-30T0300,4289A,117.1542,29.2566,景德镇市,青少年活动中心,颗粒物(PM10),61,72,85,35,36,1,1,,,49,38,10,12,0.7,0.8
2025-11-30T0300,1803A,115.9872,29.6815,九江市,十里,细颗粒物(PM2.5),110,101,96,83,52,14,14,,,54,53,5,7,1.4,1.2
2025-11-30T0300,1804A,115.9584,29.7046,九江市,茅山头,细颗粒物(PM2.5),87,84,94,64,48,6,6,,,58,47,5,7,1.2,0.9
2025-11-30T0300,1805A,115.9877,29.7295,九江市,西园,细颗粒物(PM2.5),79,96,96,58,48,11,11,,,82,59,6,8,1.0,0.7
2025-11-30T0300,1808A,115.9114,29.6038,九江市,综合工业园,细颗粒物(PM2.5),75,67,97,55,50,60,60,,,35,41,5,6,0.4,0.5
2025-11-30T0300,1809A,116.0721,29.7535,九江市,石化总厂,颗粒物(PM10),72,94,110,39,40,43,43,,,25,24,8,9,0.6,0.6
2025-11-30T0300,1810A,115.9773,29.5698,九江市,庐山气象台,,,,,,,,,,,,,,,,
2025-11-30T0300,3190A,116.0254,29.6994,九江市,外国语学校,颗粒物(PM10),72,93,92,50,40,12,12,,,64,35,5,10,0.8,0.7
2025-11-30T0300,4253A,116.0102,29.6594,九江市,莲花大道8号,颗粒物(PM10),53,56,77,29,36,49,49,,,16,28,4,6,0.4,0.4
2025-11-30T0300,4240A,98.4958,39.7339,酒泉市,玉门东路5号,颗粒物(PM10),123,195,73,29,18,70,70,,,2,7,8,11,0.2,0.3
2025-11-30T0300,4241A,98.5099,39.7506,酒泉市,北大街108号,颗粒物(PM10),106,161,74,28,15,59,59,,,2,9,8,12,0.2,0.3
2025-11-30T0300,2698A,76.0072,39.4467,喀什地区,巡警大队,颗粒物(PM10),179,307,285,124,119,3,3,,,74,68,10,12,2.8,2.5
2025-11-30T0300,2699A,75.9755,39.4694,喀什地区,吾办,细颗粒物(PM2.5),182,252,247,137,118,3,3,,,76,72,1,4,3.7,2.5
2025-11-30T0300,4027A,75.9483,39.4689,喀什地区,老干局,颗粒物(PM10),236,375,288,151,115,3,3,,,81,71,7,9,5.5,3.6
2025-11-30T0300,1824A,114.3389,34.7781,开封市,肿瘤医院,细颗粒物(PM2.5),113,162,131,85,53,19,19,,,52,44,,11,0.8,0.7
2025-11-30T0300,1826A,114.2885,34.7965,开封市,世纪星幼儿园,细颗粒物(PM2.5),132,156,118,100,62,23,23,,,50,41,10,12,0.7,0.7
2025-11-30T0300,3147A,114.3438,34.8106,开封市,龙亭公园,细颗粒物(PM2.5),148,164,135,113,66,10,10,,,71,50,,12,1.1,0.9
2025-11-30T0300,3210A,114.3644,34.7964,开封市,汴京公园,细颗粒物(PM2.5),134,186,150,102,66,6,6,,,79,59,10,12,0.8,0.7
2025-11-30T0300,3473A,114.2485,34.8306,开封市,技师学院,颗粒物(PM10),101,152,110,75,50,26,26,,,57,40,11,11,0.8,0.8
2025-11-30T0300,3592A,114.4644,34.7556,开封市,祥符区生态环境局,细颗粒物(PM2.5),144,221,145,110,72,9,9,,,78,55,9,10,0.6,0.5
2025-11-30T0300,1951A,84.895,45.6094,克拉玛依市,长征新村,,22,19,35,15,22,39,39,,,10,15,6,7,0.4,0.6
2025-11-30T0300,1952A,84.8988,45.5893,克拉玛依市,南林小区,,26,26,36,12,19,41,41,,,10,12,1,2,0.1,0.3
2025-11-30T0300,1954A,84.905,44.3396,克拉玛依市,独山子区,细颗粒物(PM2.5),65,77,42,47,24,30,30,,,14,12,5,5,0.6,0.5
2025-11-30T0300,1955A,85.6979,46.098,克拉玛依市,乌尔禾区商贸楼,,17,14,28,3,13,53,53,,,7,11,6,6,0,0.1
2025-11-30T0300,3612A,85.1045,45.6899,克拉玛依市,白碱滩区新站,,22,,28,15,20,58,58,,,4,11,6,6,0.3,0.4
2025-11-30T0300,2697A,76.1454,39.7142,克孜勒苏柯尔克孜自治州,市人民政府,颗粒物(PM10),83,116,112,42,43,66,66,,,12,20,10,19,0.3,0.4
2025-11-30T0300,3665A,76.1658,39.7157,克孜勒苏柯尔克孜自治州,克州文化中心,颗粒物(PM10),84,118,125,46,49,58,58,,,21,29,11,25,0.5,0.6
2025-11-30T0300,1450A,102.8204,24.8886,昆明市,呈贡新区,,46,39,44,32,45,35,35,,,40,33,10,7,0.8,0.9
2025-11-30T0300,1451A,102.6251,24.9608,昆明市,西山森林公园,,,,,,,,,,,,,,,,
2025-11-30T0300,1452A,102.7252,25.0902,昆明市,龙泉镇,颗粒物(PM10),56,61,47,34,27,0,0,,,50,43,2,4,0.9,0.8
2025-11-30T0300,1453A,102.7266,25.0375,昆明市,东风东路,颗粒物(PM10),54,58,55,37,34,22,22,,,41,36,6,7,0.7,0.7
2025-11-30T0300,1454A,102.6742,25.0669,昆明市,金鼎山,颗粒物(PM10),53,56,81,32,41,25,25,,,31,40,8,7,1.0,1
2025-11-30T0300,1455A,102.6644,25.0401,昆明市,碧鸡广场,,46,46,51,30,31,33,33,,,32,42,8,7,0.8,0.8
2025-11-30T0300,3179A,102.7494,25.0119,昆明市,官渡区博物馆,颗粒物(PM10),88,125,69,47,41,2,2,,,58,46,4,5,1.4,0.8
2025-11-30T0300,3375A,102.8017,24.8336,昆明市,青年创业园,,,,42,32,27,3,3,,,44,25,15,7,1.0,0.8
2025-11-30T0300,3550A,102.7997,24.9786,昆明市,昆明学院,颗粒物(PM10),63,76,66,42,36,6,6,,,54,31,4,5,0.8,0.6
2025-11-30T0300,3551A,102.5967,24.6736,昆明市,晋宁区生态环境分局,颗粒物(PM10),66,82,54,46,40,8,8,,,52,30,2,2,0.8,0.6
2025-11-30T0300,3552A,102.6678,24.9856,昆明市,云天化总部,颗粒物(PM10),54,57,49,35,26,1,1,,,66,43,8,9,0.7,0.7
2025-11-30T0300,1456A,91.1319,29.6514,拉萨市,八廓街,,20,17,22,14,15,53,53,,,19,21,11,14,0.5,0.5
2025-11-30T0300,1457A,91.1221,29.6747,拉萨市,市环保局,,45,45,34,27,22,10,10,,,35,29,7,10,1.8,1.3
2025-11-30T0300,1458A,91.0874,29.6475,拉萨市,区监测站,,26,26,18,17,12,34,34,,,43,33,7,10,0.7,0.4
2025-11-30T0300,1459A,91.1774,29.6541,拉萨市,西藏大学,,19,11,16,10,8,58,58,,,18,17,10,12,0.3,0.3
2025-11-30T0300,1460A,90.9798,29.6588,拉萨市,区辐射站,,17,,29,10,17,53,53,,,16,33,6,8,0.4,0.6
2025-11-30T0300,1461A,91.0834,29.6292,拉萨市,拉萨火车站,,29,21,25,20,15,40,40,,,32,33,5,8,1.0,0.9
2025-11-30T0300,2520A,109.2203,23.7256,来宾市,来宾技工学校,颗粒物(PM10),56,62,84,37,48,45,45,,,20,30,6,10,0.6,0.7
2025-11-30T0300,3535A,109.1781,23.7297,来宾市,兴宾区政府,颗粒物(PM10),57,64,71,38,40,54,54,,,12,17,5,10,0.5,0.6
2025-11-30T0300,4002A,109.2416,23.7461,来宾市,中南小学,颗粒物(PM10),60,69,80,33,47,15,15,,,42,38,6,9,0.7,0.7
2025-11-30T0300,1477A,104.1373,35.9454,兰州市,榆中兰大校区,,,,,,,,,,,,,,,,
2025-11-30T0300,1479A,103.831,36.0464,兰州市,铁路设计院,,,,,,,,,,,,,,,,
2025-11-30T0300,3241A,103.7439,36.0842,兰州市,百合公园,细颗粒物(PM2.5),67,69,93,48,58,8,8,,,54,71,18,22,0.9,1.4
2025-11-30T0300,3242A,103.9611,35.998,兰州市,和平,颗粒物(PM10),66,82,84,40,48,49,49,,,26,42,9,16,0.7,1.4
2025-11-30T0300,4236A,103.6293,36.0938,兰州市,庄浪东路808号,颗粒物(PM10),63,76,92,44,53,21,21,,,60,78,15,21,0.8,1.2
2025-11-30T0300,4237A,103.7251,36.1043,兰州市,安宁西路88号,细颗粒物(PM2.5),74,89,106,54,60,9,9,,,60,68,8,20,0.8,1.3
2025-11-30T0300,4238A,103.8470,36.0676,兰州市,北滨河东路1号,细颗粒物(PM2.5),79,94,100,58,53,3,3,,,71,75,13,19,1.1,1.5
2025-11-30T0300,3245A,103.6633,36.533,兰州新区,新区管委会,颗粒物(PM10),53,55,68,25,38,45,45,,,14,19,5,17,0.3,0.6
2025-11-30T0300,3246A,103.6975,36.4789,兰州新区,舟曲中学,颗粒物(PM10),65,79,60,32,28,37,37,,,41,27,11,19,0.6,0.5
2025-11-30T0300,1067A,116.6708,39.5111,廊坊市,药材公司,细颗粒物(PM2.5),129,186,163,98,80,1,1,,,81,69,11,8,1.1,1
2025-11-30T0300,1068A,116.7214,39.5589,廊坊市,开发区,细颗粒物(PM2.5),147,225,177,112,80,0,0,,,92,81,9,8,1.0,0.9
2025-11-30T0300,1070A,116.7244,39.5269,廊坊市,北华航天学院,细颗粒物(PM2.5),160,234,182,122,89,2,2,,,88,75,10,7,1.1,0.9
2025-11-30T0300,2919A,116.7022,39.5453,廊坊市,河北工业大学,细颗粒物(PM2.5),147,214,179,112,79,1,1,,,81,70,9,8,1.0,0.9
2025-11-30T0300,2535A,103.7723,29.5462,乐山市,花湖湾,,,,,,,,,,,,,,,,
2025-11-30T0300,2536A,103.7627,29.5844,乐山市,牛耳桥,细颗粒物(PM2.5),119,109,114,90,95,0,0,,,26,35,,7,0.9,1
2025-11-30T0300,2537A,103.7508,29.6006,乐山市,市第三水厂,细颗粒物(PM2.5),105,110,115,79,89,1,1,,,38,40,,7,1.0,1
2025-11-30T0300,2538A,103.7571,29.5664,乐山市,市监测站,细颗粒物(PM2.5),130,132,115,99,88,1,1,,,49,36,,6,1.3,1.1
2025-11-30T0300,3361A,103.7311,29.5628,乐山市,理工大学,细颗粒物(PM2.5),134,123,112,102,91,4,4,,,46,33,,9,1.0,0.9
2025-11-30T0300,2598A,100.2143,26.8576,丽江市,西南郊,,,,,,,,,,,,,,,,
2025-11-30T0300,2599A,100.2497,26.8802,丽江市,丽江古城,,30,,32,21,15,68,68,,,8,13,8,9,0.5,0.6
2025-11-30T0300,2600A,100.2203,26.8906,丽江市,市中心,,18,14,23,12,14,44,44,,,12,15,8,8,0.6,0.6
2025-11-30T0300,1267A,119.914,28.4514,丽水市,监测站大楼,,46,44,69,32,32,2,2,,,33,37,4,6,0.5,0.6
2025-11-30T0300,1268A,119.93,28.4586,丽水市,莲都小学,颗粒物(PM10),54,58,80,22,29,0,0,,,47,39,4,5,0.6,0.6
2025-11-30T0300,1269A,119.879,28.4231,丽水市,余庄前,,,59,63,42,36,0,0,,,19,22,,4,0.4,0.4
2025-11-30T0300,1173A,119.176,34.5885,连云港市,市环境监测站,细颗粒物(PM2.5),147,163,150,112,73,6,6,,,79,54,,12,1.0,0.7
2025-11-30T0300,3000A,119.3581,34.6972,连云港市,德源药业,,,124,141,73,60,0,0,,,74,53,,7,0.9,0.8
2025-11-30T0300,3007A,119.178,34.844,连云港市,新城一中,细颗粒物(PM2.5),204,226,178,154,99,2,2,,,79,53,14,14,1.1,0.9
2025-11-30T0300,3008A,119.3608,34.7519,连云港市,胡沟管理处,细颗粒物(PM2.5),98,144,127,73,52,25,25,,,93,51,20,12,0.7,0.7
2025-11-30T0300,3009A,119.1478,34.5911,连云港市,矿山设计院,细颗粒物(PM2.5),125,163,157,95,72,2,2,,,86,63,,10,1.5,1.3
2025-11-30T0300,3434A,119.2413,34.6539,连云港市,工贸学校,细颗粒物(PM2.5),102,129,168,76,76,71,71,,,12,21,10,13,0.5,0.7
2025-11-30T0300,3664A,119.4172,34.7341,连云港市,连云街道,细颗粒物(PM2.5),109,135,128,82,59,72,72,,,20,17,9,9,0.7,0.6
2025-11-30T0300,2571A,102.3431,27.8099,凉山彝族自治州,青龙寺,,,,,,,,,,,,,,,,
2025-11-30T0300,2572A,102.2721,27.8415,凉山彝族自治州,邛海宾馆,,,44,46,38,32,36,36,,,22,19,,10,0.9,0.9
2025-11-30T0300,2573A,102.2625,27.898,凉山彝族自治州,西昌市政府,,40,40,46,26,36,41,41,,,10,18,6,10,0.7,0.8
2025-11-30T0300,2574A,102.2685,27.8851,凉山彝族自治州,凉山州政府,颗粒物(PM10),52,54,61,35,33,24,24,,,19,23,8,11,0.8,0.8
2025-11-30T0300,4229A,102.2342,27.8859,凉山彝族自治州,凯乐南路30号,细颗粒物(PM2.5),82,81,78,60,48,2,2,,,58,51,6,10,1.2,1.2
2025-11-30T0300,2212A,123.2,41.1953,辽阳市,宏伟区,,19,18,99,13,31,38,38,,,16,22,7,6,0.5,0.6
2025-11-30T0300,2213A,123.1683,41.2495,辽阳市,新华园,,18,17,98,12,32,38,38,,,15,21,4,6,0.4,0.5
2025-11-30T0300,2214A,123.2354,41.2639,辽阳市,滨河路,,20,18,104,14,30,33,33,,,19,22,8,7,0.3,0.4
2025-11-30T0300,2215A,123.149,41.2991,辽阳市,铁西工业园,,38,26,103,26,32,21,21,,,25,23,7,9,0.6,0.7
2025-11-30T0300,2227A,125.1358,42.8845,辽源市,环保局,,,58,68,3,14,,,,,11,9,3,4,0.3,0.3
2025-11-30T0300,3239A,125.0764,42.9078,辽源市,银鹰制药,,25,25,50,7,19,30,30,,,27,13,4,5,0.3,0.4
2025-11-30T0300,1625A,115.9848,36.4372,聊城市,区政府,细颗粒物(PM2.5),152,202,176,116,87,18,18,,,80,63,16,15,1.1,1
2025-11-30T0300,2878A,116.0072,36.4343,聊城市,聊大东校,细颗粒物(PM2.5),138,200,189,105,90,13,13,,,77,60,13,13,1.0,0.9
2025-11-30T0300,3200A,115.9819,36.4978,聊城市,监控中心,细颗粒物(PM2.5),160,199,192,122,101,17,17,,,79,67,18,16,1.2,1.1
2025-11-30T0300,3513A,116.0445,36.4361,聊城市,九州社区,细颗粒物(PM2.5),125,178,178,95,82,32,32,,,54,46,10,8,0.9,0.8
2025-11-30T0300,4018A,116.0567,36.4608,聊城市,星美广场,"颗粒物(PM10),细颗粒物(PM2.5)",120,190,191,91,84,38,38,,,49,54,8,7,0.7,0.7
2025-11-30T0300,2632A,94.3681,29.6376,林芝市,林芝监测站,,18,18,19,6,9,38,38,,,6,12,8,8,0.3,0.4
2025-11-30T0300,2633A,94.3616,29.6616,林芝市,林芝人民医院,,18,18,23,10,10,34,34,,,8,12,8,8,0.2,0.3
2025-11-30T0300,2603A,100.0781,23.8982,临沧市,市环保局,,49,,34,34,36,32,32,,,5,9,5,5,0.7,0.7
2025-11-30T0300,2604A,100.0894,23.8822,临沧市,市气象局,,28,28,35,12,21,37,37,,,9,13,5,6,0.5,0.5
2025-11-30T0300,1733A,111.5531,36.0783,临汾市,临钢医院,颗粒物(PM10),120,189,224,84,91,3,3,,,51,45,8,10,1.5,1.7
2025-11-30T0300,1734A,111.5028,36.0714,临汾市,技工学校,颗粒物(PM10),116,182,222,74,101,3,3,,,60,58,15,14,1.2,1.7
2025-11-30T0300,1736A,111.5018,36.0855,临汾市,市委,颗粒物(PM10),124,197,247,85,108,1,1,,,60,60,14,17,1.4,1.7
2025-11-30T0300,3018A,111.505,36.1014,临汾市,唐尧大酒店,颗粒物(PM10),118,185,221,78,97,2,2,,,57,56,8,10,1.5,1.9
2025-11-30T0300,4244A,111.4879,36.0530,临汾市,启星学校,颗粒物(PM10),103,155,228,76,99,3,3,,,50,64,4,12,1.6,1.8
2025-11-30T0300,4271A,103.2464,35.6123,临夏回族自治州,滨河东路1号,细颗粒物(PM2.5),92,125,100,68,47,1,1,,,34,30,7,9,1.3,1.1
2025-11-30T0300,4310A,103.2093,35.5995,临夏回族自治州,新华街21号,细颗粒物(PM2.5),130,146,107,99,64,5,5,,,38,30,7,10,2.0,1.4
2025-11-30T0300,1618A,118.3429,35.0532,临沂市,沂河小区,细颗粒物(PM2.5),298,285,189,248,118,4,4,,,109,69,15,21,1.5,1.1
2025-11-30T0300,1619A,118.295,35.0583,临沂市,鲁南制药厂,细颗粒物(PM2.5),261,283,186,211,116,3,3,,,109,66,19,22,2.1,1.2
2025-11-30T0300,1620A,118.2794,34.9976,临沂市,新光毛纺厂,细颗粒物(PM2.5),235,244,182,185,104,4,4,,,96,67,16,22,1.9,1.1
2025-11-30T0300,1621A,118.3956,35.0888,临沂市,河东保险公司,细颗粒物(PM2.5),252,285,208,202,115,10,10,,,100,75,12,18,1.5,0.9
2025-11-30T0300,3370A,118.3564,35.0215,临沂市,十里堡居委,细颗粒物(PM2.5),247,315,199,197,97,5,5,,,111,76,18,27,1.7,1.3
2025-11-30T0300,3496A,118.3604,35.1084,临沂市,南坊新区,细颗粒物(PM2.5),216,244,182,166,99,3,3,,,99,69,15,19,1.6,1.1
2025-11-30T0300,3860A,118.3920,35.0300,临沂市,皇山花园小区,细颗粒物(PM2.5),250,322,203,200,104,13,13,,,120,75,22,26,1.7,1.1
2025-11-30T0300,1870A,109.4856,24.3895,柳州市,柳东小学,细颗粒物(PM2.5),94,99,81,70,54,66,66,,,27,28,44,39,0.6,0.5
2025-11-30T0300,1871A,109.4157,24.3277,柳州市,环保监测站,细颗粒物(PM2.5),107,141,100,80,57,29,29,,,48,40,22,16,1.0,0.7
2025-11-30T0300,1872A,109.389,24.341,柳州市,河西水厂,细颗粒物(PM2.5),94,126,116,70,57,39,39,,,37,44,18,18,0.8,0.8
2025-11-30T0300,1873A,109.4311,24.2921,柳州市,市四中,细颗粒物(PM2.5),92,122,95,68,51,24,24,,,51,49,26,16,1.2,0.9
2025-11-30T0300,1874A,109.4006,24.3631,柳州市,市九中,细颗粒物(PM2.5),118,121,106,89,61,33,33,,,52,43,38,22,0.9,0.8
2025-11-30T0300,1875A,109.4958,24.3134,柳州市,古亭山,颗粒物(PM10),51,51,62,30,37,1,1,,,71,49,11,13,0.5,0.5
2025-11-30T0300,3402A,109.5422,24.3996,柳州市,市二中,细颗粒物(PM2.5),100,96,85,75,57,28,28,,,46,38,14,25,1.5,1.3
2025-11-30T0300,2307A,116.5079,31.737,六安市,监测大楼,,,,73,,36,,,70,,,29,,5,,0.4
2025-11-30T0300,2308A,116.4738,31.7643,六安市,皖西学院,细颗粒物(PM2.5),92,91,82,68,39,9,9,,,47,31,3,4,0.7,0.5
2025-11-30T0300,2309A,116.4996,31.7905,六安市,朝阳厂,细颗粒物(PM2.5),82,81,66,60,37,6,6,,,58,36,4,5,0.9,0.5
2025-11-30T0300,2310A,116.5567,31.7886,六安市,开发区,细颗粒物(PM2.5),98,135,108,73,47,2,2,,,76,48,3,4,0.8,0.5
2025-11-30T0300,2576A,104.8,26.5892,六盘水市,窑上,颗粒物(PM10),51,52,50,35,32,44,44,,,5,8,1,3,0.5,0.5
2025-11-30T0300,2577A,104.83,26.5917,六盘水市,黄土坡,,49,49,55,33,35,44,44,,,13,21,5,10,0.7,0.7
2025-11-30T0300,2578A,104.89,26.5939,六盘水市,水钢,细颗粒物(PM2.5),53,53,66,37,42,54,54,,,28,23,9,17,0.6,0.8
2025-11-30T0300,2579A,104.8475,26.5894,六盘水市,民中,细颗粒物(PM2.5),64,56,61,46,43,42,42,,,28,33,11,13,0.9,1
2025-11-30T0300,2580A,104.9544,26.5506,六盘水市,双水,,48,48,53,32,35,56,56,,,14,17,5,9,0.4,0.5
2025-11-30T0300,2335A,117.0189,25.1181,龙岩市,龙岩师专,,,,,,,,,,,,,,,,
2025-11-30T0300,2336A,117.0217,25.1033,龙岩市,龙岩市监测站,,46,40,46,32,29,20,20,,,34,30,17,15,0.5,0.6
2025-11-30T0300,2337A,117.0258,25.0661,龙岩市,闽西职业技术学院,颗粒物(PM10),52,53,54,25,26,18,18,,,36,32,14,13,0.4,0.5
2025-11-30T0300,2338A,117.0196,25.0306,龙岩市,龙岩学院,,36,29,44,25,26,27,27,,,25,22,6,7,0.5,0.5
2025-11-30T0300,2665A,105.0822,33.3261,陇南市,汉王镇固水子,,,,,,,,,,,,,,,,
2025-11-30T0300,2885A,104.9339,33.3826,陇南市,滨江中学,颗粒物(PM10),67,83,99,44,44,2,2,,,47,46,11,17,2.1,2.4
2025-11-30T0300,3247A,104.955,33.371,陇南市,市总工会,颗粒物(PM10),63,75,90,37,42,10,10,,,35,39,5,7,1.1,1.1
2025-11-30T0300,2487A,111.9589,27.8901,娄底市,电视发射台,,,,,,,,,,,,,,,,
2025-11-30T0300,2488A,111.9975,27.725,娄底市,市监测站,细颗粒物(PM2.5),109,118,110,82,68,13,13,,,56,42,19,18,1.2,1.1
2025-11-30T0300,2489A,112.0194,27.7314,娄底市,市委党校,细颗粒物(PM2.5),92,108,110,68,66,8,8,,,44,42,9,12,1.0,1
2025-11-30T0300,2490A,111.9561,27.7569,娄底市,涟钢,细颗粒物(PM2.5),107,107,117,80,73,21,21,,,24,35,8,20,1.2,1.8
2025-11-30T0300,2491A,111.9892,27.7044,娄底市,市政府,细颗粒物(PM2.5),104,106,107,78,68,13,13,,,20,28,,15,0.5,0.5
2025-11-30T0300,1893A,105.4324,28.9634,泸州市,九狮山,,,,,,,,,,,,,,,,
2025-11-30T0300,1894A,105.4427,28.9063,泸州市,小市上码头,细颗粒物(PM2.5),158,155,129,120,99,2,2,,,46,39,12,13,1.3,1
2025-11-30T0300,1895A,105.4241,28.8573,泸州市,兰田宪桥,细颗粒物(PM2.5),198,172,150,148,119,40,40,,,15,29,18,9,1.0,1.1
2025-11-30T0300,1896A,105.4379,28.8833,泸州市,市环监站,细颗粒物(PM2.5),168,166,140,127,102,44,44,,,25,38,10,9,0.8,0.9
2025-11-30T0300,4272A,105.3689,28.7783,泸州市,纳溪中医医院,细颗粒物(PM2.5),145,121,116,111,99,10,10,,,21,30,9,9,0.8,0.9
2025-11-30T0300,2183A,111.1406,37.5211,吕梁市,环保局,颗粒物(PM10),84,117,130,40,40,3,3,,,50,44,5,8,0.4,0.5
2025-11-30T0300,2185A,111.1297,37.5136,吕梁市,自来水公司,颗粒物(PM10),122,194,165,42,51,2,2,,,45,41,15,12,0.5,0.7
2025-11-30T0300,2867A,111.1283,37.51,吕梁市,马茂庄小学,颗粒物(PM10),112,174,157,44,42,2,2,,,47,46,,10,0.6,0.6
2025-11-30T0300,1812A,112.3931,34.6516,洛阳市,市委党校,细颗粒物(PM2.5),85,108,99,63,49,13,13,,,41,38,9,10,0.5,0.6
2025-11-30T0300,1815A,112.494,34.6886,洛阳市,河南林校,颗粒物(PM10),93,135,118,68,52,4,4,,,55,44,12,9,0.8,0.7
2025-11-30T0300,1816A,112.3844,34.623,洛阳市,开发区管委会,细颗粒物(PM2.5),89,124,102,66,51,13,13,,,42,30,17,12,0.5,0.5
2025-11-30T0300,1817A,112.4267,34.6258,洛阳市,市委新办公区,颗粒物(PM10),84,118,101,58,47,17,17,,,35,28,10,11,0.5,0.5
2025-11-30T0300,3340A,112.6005,34.6326,洛阳市,伊滨,颗粒物(PM10),89,127,124,64,66,26,26,,,28,35,10,12,0.4,0.4
2025-11-30T0300,3341A,112.4951,34.6332,洛阳市,中移产业园,细颗粒物(PM2.5),87,118,102,64,48,14,14,,,50,41,9,10,0.4,0.4
2025-11-30T0300,3593A,112.5736,34.8993,洛阳市,吉利监测站,颗粒物(PM10),69,87,92,34,37,44,44,,,21,34,7,8,0.5,0.5
2025-11-30T0300,3635A,112.3677,34.662,洛阳市,河科大西苑校区,颗粒物(PM10),92,134,116,57,42,12,12,,,50,40,15,11,0.9,0.8
2025-11-30T0300,3636A,112.4388,34.6781,洛阳市,英才小学,细颗粒物(PM2.5),104,156,122,78,60,0,0,,,72,54,39,15,1.6,1
2025-11-30T0300,4214A,112.4600,34.6949,洛阳市,春都路1号院,颗粒物(PM10),106,162,137,57,48,0,0,,,61,48,32,14,1.1,0.8
2025-11-30T0300,2399A,114.051,33.5699,漯河市,三五一五工厂,细颗粒物(PM2.5),124,147,114,94,57,3,3,,,59,29,8,8,1.0,0.8
2025-11-30T0300,2400A,114.0055,33.5698,漯河市,漯河大学,细颗粒物(PM2.5),138,148,114,105,63,36,36,,,33,29,8,8,0.6,0.5
2025-11-30T0300,2401A,114.0138,33.5828,漯河市,市水利局,细颗粒物(PM2.5),132,139,105,100,60,26,26,,,34,28,8,9,0.7,0.6
2025-11-30T0300,2402A,114.0261,33.5698,漯河市,市广电局,细颗粒物(PM2.5),124,142,112,94,56,33,33,,,33,25,8,8,0.7,0.6
2025-11-30T0300,3478A,113.9749,33.5664,漯河市,市图书馆,细颗粒物(PM2.5),133,153,119,101,58,46,46,,,25,21,6,6,0.8,0.6
2025-11-30T0300,4250A,114.0892,33.5882,漯河市,韶山路11号,细颗粒物(PM2.5),130,137,111,99,55,14,14,,,58,29,10,10,0.8,0.6
2025-11-30T0300,1798A,118.5092,31.6837,马鞍山市,湖东路四小,颗粒物(PM10),90,130,118,66,52,1,1,,,80,53,8,10,1.2,0.9
2025-11-30T0300,1799A,118.5024,31.6449,马鞍山市,开发区,颗粒物(PM10),102,153,125,72,62,1,1,,,79,62,10,10,1.1,0.8
2025-11-30T0300,1802A,118.6245,31.7241,马鞍山市,濮塘,,,,,,,,,,,,,,,,
2025-11-30T0300,3633A,118.4918,31.6809,马鞍山市,雨山,细颗粒物(PM2.5),100,139,120,75,57,1,1,,,92,59,15,12,1.2,0.8
2025-11-30T0300,4191A,118.5274,31.72227,马鞍山市,慈湖高新区,细颗粒物(PM2.5),115,136,126,87,61,11,11,,,77,58,11,10,1.2,0.9
2025-11-30T0300,1686A,111.0286,21.4688,茂名市,电白南海,颗粒物(PM10),76,102,82,48,29,80,80,,,27,23,30,17,0.4,0.4
2025-11-30T0300,1687A,110.9294,21.6533,茂名市,茂石化七小,,,85,78,34,34,73,73,,,20,24,,19,0.5,0.6
2025-11-30T0300,1688A,110.9107,21.6687,茂名市,健康路,颗粒物(PM10),71,92,78,34,34,76,76,,,27,31,15,25,0.6,0.6
2025-11-30T0300,1689A,110.8592,21.6828,茂名市,高岭,颗粒物(PM10),97,144,104,56,41,34,34,,,45,35,41,26,0.8,0.7
2025-11-30T0300,3450A,111.01,21.5165,茂名市,电白水东,,,92,73,39,29,91,91,,,17,19,,17,0.8,0.7
2025-11-30T0300,2539A,104.0308,30.0478,眉山市,黑龙滩水库,,,,,,,,,,,,,,,,
2025-11-30T0300,2540A,103.8416,30.0874,眉山市,气象局,细颗粒物(PM2.5),119,98,116,90,101,4,4,,,40,41,19,17,0.9,1
2025-11-30T0300,3137A,103.8578,30.0744,眉山市,市委党校,细颗粒物(PM2.5),119,100,112,90,90,1,1,,,39,44,7,8,0.7,0.8
2025-11-30T0300,3148A,103.8291,30.0564,眉山市,区人社局,细颗粒物(PM2.5),122,99,119,92,100,3,3,,,42,41,7,11,1.0,1.1
2025-11-30T0300,1690A,116.1231,24.3284,梅州市,梅江月梅,,49,49,50,23,27,17,17,,,33,31,6,6,0.6,0.6
2025-11-30T0300,1691A,116.0797,24.2719,梅州市,梅县新城,,40,40,58,22,31,32,32,,,21,34,7,8,0.4,0.6
2025-11-30T0300,1692A,116.1248,24.2654,梅州市,环境监控中心,,,53,56,34,34,3,3,,,49,37,,15,0.5,0.5
2025-11-30T0300,3315A,116.1233,24.2991,梅州市,梅龙,,,48,57,28,31,17,17,,,31,28,,9,0.5,0.6
2025-11-30T0300,1878A,104.7778,31.4741,绵阳市,富乐山,细颗粒物(PM2.5),115,115,106,87,81,3,3,,,35,32,10,10,0.8,0.7
2025-11-30T0300,1880A,104.6697,31.4668,绵阳市,高新区自来水公司,细颗粒物(PM2.5),117,129,123,88,84,1,1,,,47,40,,10,0.8,0.8
2025-11-30T0300,1881A,104.7287,31.5075,绵阳市,三水厂,细颗粒物(PM2.5),132,129,112,100,87,1,1,,,33,39,,12,1.1,1
2025-11-30T0300,3491A,104.69,31.5322,绵阳市,西科大附属小学,细颗粒物(PM2.5),105,121,123,79,80,2,2,,,44,44,8,8,0.9,0.8
2025-11-30T0300,3492A,104.5648,31.5343,绵阳市,安州区旅游局,细颗粒物(PM2.5),107,102,96,80,82,8,8,,,22,32,12,8,0.8,0.9
2025-11-30T0300,4226A,104.7651,31.4531,绵阳市,绵阳市气象局,细颗粒物(PM2.5),128,135,124,97,83,0,0,,,41,42,,15,1.1,0.9
2025-11-30T0300,1784A,129.61,44.561,牡丹江市,环保大楼,,30,30,52,17,33,52,52,,,7,38,7,14,0.3,0.7
2025-11-30T0300,1785A,129.6115,44.5782,牡丹江市,文化广场,,43,43,61,22,41,54,54,,,8,40,8,16,0.4,0.9
2025-11-30T0300,1786A,129.5904,44.5963,牡丹江市,第一医院,,39,39,61,24,47,52,52,,,6,40,5,16,0.4,0.8
2025-11-30T0300,1787A,129.6364,44.6075,牡丹江市,机车工厂,,42,42,63,17,36,42,42,,,19,39,4,15,0.4,0.8
2025-11-30T0300,1788A,129.6386,44.5462,牡丹江市,第一中学,,28,28,46,17,32,55,55,,,6,35,4,8,0.3,0.6
2025-11-30T0300,2531A,105.0703,29.61,内江市,市监测站,细颗粒物(PM2.5),117,100,92,88,82,18,18,,,26,30,3,4,0.8,0.9
2025-11-30T0300,2532A,105.0717,29.5947,内江市,东兴区政府,细颗粒物(PM2.5),110,,92,83,78,1,1,,,38,42,,3,0.9,0.8
2025-11-30T0300,2533A,105.0653,29.5817,内江市,内江二中,细颗粒物(PM2.5),117,122,107,88,84,0,0,,,38,43,5,5,1.0,1
2025-11-30T0300,2534A,105.0406,29.5822,内江市,内江日报社,细颗粒物(PM2.5),123,113,102,93,80,8,8,,,48,48,3,4,0.8,0.7
2025-11-30T0300,2628A,92.0657,31.4846,那曲市,那曲监测站,,35,35,47,20,29,17,17,,,42,29,9,11,2.7,1.3
2025-11-30T0300,4243A,92.0515,31.4787,那曲市,那曲市委宣传部,,13,13,28,6,15,29,29,,,20,21,6,7,1.0,1.1
2025-11-30T0300,1290A,115.8931,28.6843,南昌市,省外办,细颗粒物(PM2.5),119,116,110,90,69,8,8,,,84,62,6,12,2.8,1.7
2025-11-30T0300,1291A,115.8886,28.7003,南昌市,省林业公司,颗粒物(PM10),69,88,104,48,48,0,0,,,75,59,6,10,1.3,1.1
2025-11-30T0300,1292A,115.8126,28.7442,南昌市,林科所,颗粒物(PM10),58,66,86,34,36,5,5,,,81,56,7,11,0.5,0.6
2025-11-30T0300,1294A,115.8518,28.687,南昌市,建工学校,细颗粒物(PM2.5),88,122,125,65,63,2,2,,,85,81,12,14,1.7,1.6
2025-11-30T0300,1295A,115.8921,28.6424,南昌市,象湖,颗粒物(PM10),90,130,109,63,54,0,0,,,80,69,10,18,2.3,1.4
2025-11-30T0300,1296A,115.7423,28.7996,南昌市,武术学校,,,,,,,,,,,,,,,,
2025-11-30T0300,3046A,115.9084,28.6062,南昌市,机电学校,颗粒物(PM10),83,116,116,58,52,2,2,,,82,58,11,17,1.1,0.7
2025-11-30T0300,3690A,115.9721,28.7031,南昌市,外国语学校,细颗粒物(PM2.5),77,99,108,56,53,0,0,,,68,55,12,18,1.2,0.8
2025-11-30T0300,4192A,115.9316,28.68677,南昌市,南京东路235号,"颗粒物(PM10),细颗粒物(PM2.5)",94,137,148,70,65,6,6,,,70,63,6,11,1.8,1.3
2025-11-30T0300,1905A,106.056,30.8064,南充市,西山风景区,,,,,,,,,,,,,,,,
2025-11-30T0300,1906A,106.0789,30.8023,南充市,南充市委,细颗粒物(PM2.5),88,85,92,65,67,9,9,,,22,35,4,5,0.6,0.7
2025-11-30T0300,1907A,106.1031,30.8217,南充市,南充炼油厂,细颗粒物(PM2.5),112,108,100,84,72,0,0,,,34,38,6,7,0.9,0.9
2025-11-30T0300,4227A,106.1083,30.7884,南充市,梨树横街98号,细颗粒物(PM2.5),112,120,100,84,70,2,2,,,36,36,6,6,0.8,0.8
2025-11-30T0300,4304A,106.1172,30.843,南充市,清泉寺北路188号,细颗粒物(PM2.5),89,80,79,66,62,9,9,,,37,30,6,6,0.7,0.6
2025-11-30T0300,4305A,106.067,30.7616,南充市,同庆路1号,细颗粒物(PM2.5),85,100,94,63,60,0,0,,,39,39,6,7,0.8,0.9
2025-11-30T0300,1151A,118.8086,32.1065,南京市,迈皋桥,,,87,90,53,41,8,8,,,50,41,,7,0.9,1
2025-11-30T0300,1152A,118.7538,32.0551,南京市,草场门,细颗粒物(PM2.5),85,112,118,63,48,6,6,,,91,66,5,10,1.2,1
2025-11-30T0300,1153A,118.7794,32.0745,南京市,山西路,"颗粒物(PM10),细颗粒物(PM2.5)",79,107,119,58,43,14,14,,,72,58,4,6,1.1,1.1
2025-11-30T0300,1154A,118.7752,32.0023,南京市,中华门,细颗粒物(PM2.5),79,100,101,58,44,0,0,,,75,46,5,4,1.0,0.9
2025-11-30T0300,1155A,118.8109,32.0309,南京市,瑞金路,细颗粒物(PM2.5),67,70,102,48,47,0,0,,,87,69,4,4,0.7,0.7
2025-11-30T0300,1156A,118.7997,32.0754,南京市,玄武湖,细颗粒物(PM2.5),72,90,99,52,37,26,26,,,25,25,4,4,1.0,0.9
2025-11-30T0300,1157A,118.6414,32.0931,南京市,浦口,颗粒物(PM10),87,124,128,54,46,56,56,,,32,44,17,15,0.5,0.6
2025-11-30T0300,1158A,118.7356,31.9996,南京市,奥体中心,,,115,113,66,46,7,7,,,80,69,,12,0.9,0.9
2025-11-30T0300,1159A,118.9125,32.1028,南京市,仙林大学城,"颗粒物(PM10),细颗粒物(PM2.5)",70,90,113,51,41,1,1,,,70,53,7,11,1.1,0.9
2025-11-30T0300,3422A,118.8436,31.9198,南京市,江宁彩虹桥,颗粒物(PM10),77,103,104,48,42,1,1,,,79,60,5,5,0.8,0.6
2025-11-30T0300,3427A,118.8554,32.3578,南京市,六合雄州,颗粒物(PM10),95,140,130,66,53,5,5,,,89,68,19,16,1.1,1
2025-11-30T0300,4249A,118.8708,31.3402,南京市,汶溪路181号,细颗粒物(PM2.5),87,82,78,64,55,6,6,,,62,39,7,8,0.8,0.6
2025-11-30T0300,4312A,119.019,31.6512,南京市,中山西路1号,,,51,72,42,42,1,1,,,50,44,,4,0.9,0.8
2025-11-30T0300,1401A,108.3103,22.7881,南宁市,二十一中,细颗粒物(PM2.5),90,79,81,67,52,22,22,,,61,52,6,6,0.6,0.6
2025-11-30T0300,1402A,108.3141,22.8528,南宁市,北湖,细颗粒物(PM2.5),94,103,83,70,53,0,0,,,72,59,13,10,0.9,0.8
2025-11-30T0300,1403A,108.3206,22.8225,南宁市,市监测站,细颗粒物(PM2.5),67,82,77,48,44,35,35,,,45,56,15,11,0.8,0.8
2025-11-30T0300,1404A,108.3829,22.8037,南宁市,大自然花园,细颗粒物(PM2.5),78,94,70,57,40,9,9,,,71,41,7,8,0.8,0.6
2025-11-30T0300,1405A,108.4394,22.7904,南宁市,仙葫,,,,,,,,,,,,,,,,
2025-11-30T0300,1406A,108.2397,22.8467,南宁市,区农职院,细颗粒物(PM2.5),67,70,74,48,45,18,18,,,44,41,22,14,0.9,0.8
2025-11-30T0300,1407A,108.3275,22.735,南宁市,英华嘉园,细颗粒物(PM2.5),104,87,84,78,50,15,15,,,61,58,6,6,0.4,0.4
2025-11-30T0300,3401A,108.4834,22.7618,南宁市,红星社区,细颗粒物(PM2.5),62,68,63,44,38,13,13,,,63,36,6,9,0.7,0.6
2025-11-30T0300,4221A,108.2177,22.7774,南宁市,乐贤路16号,颗粒物(PM10),67,84,83,41,41,0,0,,,54,50,3,6,0.5,0.5
2025-11-30T0300,2331A,118.0966,26.6761,南平市,茫荡山,,,,40,,18,,,117,,,,,2,,
2025-11-30T0300,2332A,118.1681,26.6369,南平市,南平市监测站,,37,37,51,22,30,8,8,,,30,25,3,4,0.4,0.6
2025-11-30T0300,2333A,118.1825,26.6489,南平市,南平铝业有限公司,,35,35,51,20,32,7,7,,,34,29,4,5,0.5,0.5
2025-11-30T0300,2334A,118.1756,26.6272,南平市,南平七中,,32,32,49,21,28,12,12,,,25,21,4,5,0.5,0.5
2025-11-30T0300,1168A,120.9098,31.9663,南通市,狼山街道,细颗粒物(PM2.5),97,125,124,72,52,2,2,,,101,79,4,5,0.8,0.7
2025-11-30T0300,1169A,120.86,32.0005,南通市,虹桥,细颗粒物(PM2.5),94,115,116,70,52,6,6,,,121,85,16,9,0.6,0.5
2025-11-30T0300,1170A,120.87,32.02,南通市,城中,"颗粒物(PM10),细颗粒物(PM2.5)",85,120,138,63,51,5,5,,,112,81,12,9,0.8,0.8
2025-11-30T0300,1171A,120.94,31.93,南通市,星湖花园,细颗粒物(PM2.5),89,121,144,66,57,4,4,,,104,76,7,10,0.7,0.6
2025-11-30T0300,1172A,120.81,32.0417,南通市,紫琅学院,颗粒物(PM10),94,138,141,66,52,3,3,,,114,85,9,8,0.8,0.8
2025-11-30T0300,3291A,121.067,32.062,南通市,通州监测站,细颗粒物(PM2.5),85,107,123,63,52,28,28,,,76,72,7,8,0.6,0.6
2025-11-30T0300,3432A,120.9348,31.9883,南通市,环境教育馆,细颗粒物(PM2.5),103,129,128,77,53,3,3,,,97,72,9,9,0.7,0.5
2025-11-30T0300,2404A,112.5224,33.0122,南阳市,瓦房庄,细颗粒物(PM2.5),105,123,105,79,62,15,15,,,34,38,6,9,0.7,0.8
2025-11-30T0300,2405A,112.5003,32.9735,南阳市,汉画馆,,,113,109,68,59,2,2,,,46,40,,8,0.9,0.8
2025-11-30T0300,2406A,112.5573,33.027,南阳市,气象站,细颗粒物(PM2.5),98,137,117,73,56,26,26,,,28,33,6,8,0.8,0.7
2025-11-30T0300,2407A,112.5481,32.9689,南阳市,理工学院,,,120,109,65,51,2,2,,,58,40,,7,1.2,0.9
2025-11-30T0300,4008A,112.5234,32.9922,南阳市,卧龙区政府,细颗粒物(PM2.5),110,151,122,83,64,11,11,,,43,44,7,8,0.9,0.9
2025-11-30T0300,1234A,121.8358,29.911,宁波市,区环保大楼,颗粒物(PM10),75,99,121,39,38,5,5,,,67,61,4,6,0.9,0.8
2025-11-30T0300,1235A,121.56,29.82,宁波市,万里学院,颗粒物(PM10),107,163,133,71,44,2,2,,,85,49,7,7,0.8,0.6
2025-11-30T0300,1236A,121.713,29.9572,宁波市,龙赛医院,颗粒物(PM10),87,123,135,41,44,16,16,,,66,54,4,3,0.5,0.5
2025-11-30T0300,1239A,121.633,29.7733,宁波市,钱湖水厂,颗粒物(PM10),58,65,94,25,31,62,62,,,17,16,6,6,0.5,0.5
2025-11-30T0300,1240A,121.5856,29.8635,宁波市,太古小学,颗粒物(PM10),88,125,119,55,42,4,4,,,76,38,3,4,0.8,0.6
2025-11-30T0300,1241A,121.524,29.8674,宁波市,市环境监测中心,颗粒物(PM10),75,100,123,47,45,20,20,,,50,49,8,9,0.8,0.8
2025-11-30T0300,2871A,121.6147,29.9017,宁波市,万里国际学校,颗粒物(PM10),90,130,118,12,34,2,2,,,91,37,5,5,1.0,0.6
2025-11-30T0300,3710A,121.5594,29.8975,宁波市,白沙活动中心,颗粒物(PM10),92,134,129,54,40,6,6,,,72,47,4,5,0.9,0.7
2025-11-30T0300,2339A,119.5001,26.6946,宁德市,金涵水库,,,,86,,28,,,52,,,13,,2,,0.4
2025-11-30T0300,2341A,119.5388,26.6612,宁德市,宁德市监测站,,40,40,69,20,22,26,26,,,23,19,10,7,1.0,0.6
2025-11-30T0300,3209A,119.5231,26.6562,宁德市,宁德一中,,49,49,73,19,26,38,38,,,10,15,7,7,0.9,0.6
2025-11-30T0300,2618A,98.8601,25.8567,怒江傈僳族自治州,州监测站,,32,30,33,22,23,29,29,,,11,12,7,7,0.3,0.4
2025-11-30T0300,2619A,98.8546,25.8417,怒江傈僳族自治州,泸水一中,,32,23,30,22,23,11,11,,,13,18,5,5,0.5,0.5
2025-11-30T0300,1888A,101.6891,26.571,攀枝花市,弄弄坪,,50,43,60,35,41,29,29,,,22,27,11,18,0.7,1.3
2025-11-30T0300,1889A,101.5769,26.5928,攀枝花市,河门口,细颗粒物(PM2.5),63,58,61,45,41,21,21,,,21,27,13,23,1.1,1.5
2025-11-30T0300,1890A,101.7169,26.585,攀枝花市,炳草岗,,,79,74,59,47,2,2,,,48,41,,10,1.1,1.2
2025-11-30T0300,1891A,101.7369,26.5008,攀枝花市,仁和,,45,45,59,29,38,22,22,,,14,21,6,13,0.8,1.2
2025-11-30T0300,2835A,101.7227,26.567,攀枝花市,四十中小,细颗粒物(PM2.5),68,76,70,49,45,2,2,,,54,45,9,15,1.2,1.4
2025-11-30T0300,1604A,122.0303,41.1489,盘锦市,开发区,,21,21,88,8,31,50,50,,,8,19,4,6,0.4,0.6
2025-11-30T0300,1605A,122.0485,41.0883,盘锦市,兴隆台,,45,45,106,13,34,42,42,,,16,29,7,10,0.3,0.6
2025-11-30T0300,1606A,121.8297,41.1028,盘锦市,新生街道,,28,28,91,7,28,41,41,,,13,27,8,10,0.2,0.4
2025-11-30T0300,1832A,113.3257,33.742,平顶山市,新华旅馆,颗粒物(PM10),83,115,118,60,56,4,4,,,60,39,9,8,0.7,0.7
2025-11-30T0300,1833A,113.2919,33.737,平顶山市,规划设计院,颗粒物(PM10),95,140,132,60,59,3,3,,,67,48,5,7,0.7,0.7
2025-11-30T0300,1834A,113.182,33.774,平顶山市,平顶山工学院,细颗粒物(PM2.5),110,138,106,83,50,15,15,,,56,26,8,8,0.7,0.5
2025-11-30T0300,3204A,113.3025,33.73,平顶山市,规划局,颗粒物(PM10),89,127,127,62,59,2,2,,,65,44,8,8,0.6,0.6
2025-11-30T0300,3594A,112.8867,33.9116,平顶山市,石龙区,颗粒物(PM10),87,123,126,44,43,9,9,,,75,49,7,8,0.4,0.5
2025-11-30T0300,2656A,106.6692,35.5461,平凉市,聚贤嘉苑,颗粒物(PM10),51,51,48,25,19,43,43,,,26,28,4,5,0.5,0.5
2025-11-30T0300,2657A,106.7021,35.5307,平凉市,博物馆,,49,49,49,22,22,47,47,,,19,24,9,12,0.5,0.5
2025-11-30T0300,2347A,114.0997,27.5002,萍乡市,武功山,,,,,,,,,,,,,,,,
2025-11-30T0300,2348A,113.8385,27.6434,萍乡市,中医院,颗粒物(PM10),59,67,85,32,35,2,2,,,44,45,7,14,1.0,1.4
2025-11-30T0300,2349A,113.8493,27.6253,萍乡市,市政府车库,细颗粒物(PM2.5),60,55,73,43,45,13,13,,,33,38,7,14,1.0,1.5
2025-11-30T0300,2350A,113.8676,27.6435,萍乡市,市环保局,"颗粒物(PM10),细颗粒物(PM2.5)",58,65,77,41,39,9,9,,,42,38,22,23,0.9,1.2
2025-11-30T0300,2351A,113.866,27.6198,萍乡市,安源区政府,细颗粒物(PM2.5),69,69,78,50,52,9,9,,,32,36,10,18,1.1,1.8
2025-11-30T0300,2319A,119.0141,25.4325,莆田市,荔城区仓后路,颗粒物(PM10),61,72,88,35,34,38,38,,,21,22,5,5,0.5,0.6
2025-11-30T0300,2320A,119.0015,25.4553,莆田市,莆田市监测站,,44,44,70,17,22,52,52,,,9,13,3,4,0.4,0.4
2025-11-30T0300,2321A,119.1119,25.4561,莆田市,涵江区六中,,50,50,81,19,26,45,45,,,15,18,4,4,0.3,0.3
2025-11-30T0300,2322A,119.1013,25.3215,莆田市,秀屿区政府,颗粒物(PM10),61,71,88,34,33,23,23,,,45,22,4,5,0.6,0.5
2025-11-30T0300,2323A,118.981,25.4792,莆田市,东圳水库,,,,,,,,,,,,,,,,
2025-11-30T0300,2392A,115.0312,35.7636,濮阳市,环保局,细颗粒物(PM2.5),182,203,207,137,109,19,19,,,56,58,,13,0,1.4
2025-11-30T0300,2394A,115.0574,35.7609,濮阳市,油田运输公司,细颗粒物(PM2.5),186,198,215,140,116,13,13,,,68,66,13,14,1.4,1.3
2025-11-30T0300,3021A,115,35.7668,濮阳市,濮水河管理处,细颗粒物(PM2.5),242,227,220,192,133,9,9,,,46,51,7,10,1.1,1.1
2025-11-30T0300,4216A,115.0924,35.7686,濮阳市,任丘路479号,细颗粒物(PM2.5),201,226,235,151,115,13,13,,,52,56,,12,1.4,1.4
2025-11-30T0300,2601A,100.98,22.7633,普洱市,市环保局,,37,37,49,8,18,25,25,,,6,11,4,6,0.3,0.3
2025-11-30T0300,2602A,100.9817,22.8322,普洱市,普洱第二中学,,33,33,42,20,23,8,8,,,23,16,4,5,0.3,0.3
2025-11-30T0300,2262A,131.0518,45.8751,七台河市,新一中,,,,,,,,,,,,,,,,
2025-11-30T0300,3345A,131.0577,45.7879,七台河市,中波台,细颗粒物(PM2.5),53,46,41,37,32,14,14,,,30,17,6,7,0.5,0.5
2025-11-30T0300,3637A,131.0176,45.7761,七台河市,人民广场,细颗粒物(PM2.5),88,,52,65,41,12,12,,,32,22,8,7,0.6,0.6
2025-11-30T0300,3684A,130.8781,45.8222,七台河市,新建矿广场,细颗粒物(PM2.5),52,46,60,36,36,23,23,,,16,27,4,11,0.4,0.6
2025-11-30T0300,1779A,123.9305,47.3636,齐齐哈尔市,安居小区,,32,32,66,22,51,55,55,,,10,18,10,13,0.4,0.6
2025-11-30T0300,1780A,123.9488,47.3386,齐齐哈尔市,中心广场,,35,35,72,22,48,59,59,,,10,20,8,9,0.3,0.7
2025-11-30T0300,1781A,123.9483,47.3227,齐齐哈尔市,农牧车辆厂,,36,36,75,24,45,51,51,,,6,16,5,6,0.5,0.6
2025-11-30T0300,1783A,123.945,47.2988,齐齐哈尔市,市环境监测站,,40,37,78,28,47,58,58,,,8,19,6,7,0.6,0.8
2025-11-30T0300,3662A,123.6333,47.2075,齐齐哈尔市,富区青少年活动中心,颗粒物(PM10),57,63,83,31,64,46,46,,,11,20,4,5,0.6,0.8
2025-11-30T0300,2591A,107.9783,26.5747,黔东南苗族侗族自治州,市环境监测站,,49,47,39,34,26,17,17,,,31,31,5,5,0.6,0.6
2025-11-30T0300,2881A,107.8908,26.5311,黔东南苗族侗族自治州,凯里学院,,25,22,34,17,22,23,23,,,24,19,5,6,0.4,0.5
2025-11-30T0300,2593A,107.5228,26.2403,黔南布依族苗族自治州,小围寨,,24,24,26,14,17,22,22,,,20,15,6,6,0.4,0.4
2025-11-30T0300,3538A,107.5175,26.2978,黔南布依族苗族自治州,沙坝,,46,46,38,29,22,7,7,,,26,23,4,5,0.8,0.7
2025-11-30T0300,2589A,104.9022,25.0925,黔西南布依族苗族自治州,场坝街,,44,44,48,27,33,29,29,,,15,19,5,24,0.5,0.5
2025-11-30T0300,2590A,104.8811,25.0992,黔西南布依族苗族自治州,坪东大道,,40,40,43,22,33,25,25,,,16,21,2,8,0.5,0.6
2025-11-30T0300,2502A,108.6236,21.9667,钦州市,市环保站,颗粒物(PM10),103,156,113,66,49,15,15,,,82,39,35,10,1.0,1.1
2025-11-30T0300,2503A,108.6549,21.9481,钦州市,沙埠小学,细颗粒物(PM2.5),97,109,118,72,58,30,30,,,58,50,18,13,0.6,0.8
2025-11-30T0300,2504A,108.5989,21.7431,钦州市,港区一小,细颗粒物(PM2.5),57,61,96,40,49,80,80,,,24,49,12,13,0.6,0.8
2025-11-30T0300,3404A,108.5959,21.9633,钦州市,北职校,颗粒物(PM10),85,119,86,57,48,19,19,,,54,29,15,11,0.8,0.9
2025-11-30T0300,1043A,119.7493,40.0116,秦皇岛市,第一关,,30,26,164,21,65,53,53,,,14,59,9,13,0.1,1
2025-11-30T0300,1044A,119.5897,39.9499,秦皇岛市,监测站,,44,44,148,24,51,43,43,,,25,60,9,15,0,0.6
2025-11-30T0300,1046A,119.5251,39.9041,秦皇岛市,建设大厦,,45,41,142,31,49,33,33,,,28,52,9,13,0.4,0.9
2025-11-30T0300,3132A,119.610547,39.943889,秦皇岛市,文明里,,34,34,163,17,47,44,44,,,13,59,12,16,0.1,0.9
2025-11-30T0300,4198A,119.5090,39.8253,秦皇岛市,北戴河轮滑馆,,40,40,165,17,55,37,37,,,21,50,6,9,0.2,1.1
2025-11-30T0300,1307A,120.6659,36.2403,青岛市,仰口,,,,,,,,,,,,,,,,
2025-11-30T0300,1310A,120.4134,36.0658,青岛市,市南区东部子站,"颗粒物(PM10),细颗粒物(PM2.5)",125,200,185,95,72,48,48,,,40,60,18,15,0.9,1.1
2025-11-30T0300,1311A,120.3664,36.1032,青岛市,四方区子站,细颗粒物(PM2.5),160,222,186,122,80,17,17,,,76,56,10,11,1.0,0.9
2025-11-30T0300,1312A,120.2994,36.054,青岛市,市南区西部子站,颗粒物(PM10),145,239,188,105,72,6,6,,,99,62,11,13,1.2,1.1
2025-11-30T0300,1313A,120.4581,36.0858,青岛市,崂山区子站,颗粒物(PM10),115,180,176,83,63,53,53,,,33,49,,15,0.9,1
2025-11-30T0300,1315A,120.3999,36.3083,青岛市,城阳区子站,颗粒物(PM10),139,227,194,95,67,12,12,,,76,58,10,12,1.7,1.2
2025-11-30T0300,3362A,120.5014,36.4034,青岛市,即墨2号,细颗粒物(PM2.5),172,242,201,130,96,68,68,,,29,45,18,14,0.8,0.9
2025-11-30T0300,3642A,120.3503,36.0736,青岛市,市北区南部,颗粒物(PM10),146,242,177,102,72,35,35,,,55,62,15,13,1.2,1.1
2025-11-30T0300,3643A,120.3948,36.1805,青岛市,李沧区北部,细颗粒物(PM2.5),134,197,185,102,84,52,52,,,42,52,16,15,0.9,1.1
2025-11-30T0300,4290A,120.1969,35.9546,青岛市,珠江路669号,细颗粒物(PM2.5),175,261,186,132,78,8,8,,,111,66,25,17,0.9,1
2025-11-30T0300,4291A,120.0424,35.8656,青岛市,黄岛区人民政府广场,细颗粒物(PM2.5),138,195,167,105,68,7,7,,,66,61,9,12,1.8,1.4
2025-11-30T0300,1702A,113.0426,23.691,清远市,环保大楼,,,,,,,,,,,,,,,,
2025-11-30T0300,1703A,113.0208,23.7106,清远市,凤城街办,,43,43,59,23,28,47,47,,,29,36,8,8,0.5,0.6
2025-11-30T0300,3025A,113.0477,23.6344,清远市,技师学院,颗粒物(PM10),52,54,65,26,28,26,26,,,48,50,13,10,0.3,0.4
2025-11-30T0300,3318A,112.9903,23.7403,清远市,清新太和,,47,47,56,25,26,34,34,,,41,31,8,10,0.5,0.5
2025-11-30T0300,3455A,113.076,23.7198,清远市,清城东城,,46,46,56,23,23,37,37,,,38,35,9,9,0.4,0.5
2025-11-30T0300,2661A,107.6325,35.7357,庆阳市,庆阳五中,颗粒物(PM10),54,58,75,22,28,71,71,,,7,19,4,7,0.2,0.4
2025-11-30T0300,2662A,107.6364,35.7067,庆阳市,市环保局,颗粒物(PM10),54,57,68,18,22,73,73,,,8,14,1,2,0.4,0.4
2025-11-30T0300,1916A,103.7897,25.5035,曲靖市,环境监测站,,45,45,45,30,22,14,14,,,40,24,3,4,1.2,0.5
2025-11-30T0300,1917A,103.8,25.5364,曲靖市,烟厂办公区,颗粒物(PM10),68,85,61,43,32,8,8,,,61,40,6,6,0.6,0.5
2025-11-30T0300,3376A,103.7947,25.462,曲靖市,南苑二区,,34,34,34,23,17,60,60,,,11,14,3,5,0.3,0.3
2025-11-30T0300,3377A,103.7444,25.5261,曲靖市,曲靖师范学院,颗粒物(PM10),58,66,55,36,34,34,34,,,31,27,5,5,0.4,0.5
2025-11-30T0300,1264A,118.8692,28.9398,衢州市,环保大楼,颗粒物(PM10),59,67,87,35,40,2,2,,,57,49,6,7,0.5,0.7
2025-11-30T0300,1265A,118.8709,28.9666,衢州市,实验学校,颗粒物(PM10),56,62,80,34,38,1,1,,,60,50,5,6,0.5,0.6
2025-11-30T0300,1266A,118.8621,28.9808,衢州市,衢州学院,颗粒物(PM10),58,66,79,37,35,2,2,,,60,49,8,8,0.6,0.7
2025-11-30T0300,1611A,118.5819,24.9117,泉州市,涂山街,颗粒物(PM10),65,80,98,45,36,37,37,,,26,21,3,3,0.6,0.5
2025-11-30T0300,1612A,118.5972,24.8978,泉州市,津头埔,颗粒物(PM10),64,78,96,44,36,37,37,,,24,25,4,4,0.6,0.5
2025-11-30T0300,1613A,118.6663,24.9424,泉州市,万安,颗粒物(PM10),60,70,94,32,29,55,55,,,13,18,3,4,0.5,0.5
2025-11-30T0300,1614A,118.6117,24.9604,泉州市,清源山,,,,80,,24,,,102,,,8,,4,,0.4
2025-11-30T0300,3529A,118.6333,24.9264,泉州市,城华南路,颗粒物(PM10),68,86,82,40,30,36,36,,,23,17,4,5,0.5,0.5
2025-11-30T0300,2626A,88.8876,29.2718,日喀则市,日喀则监测站,颗粒物(PM10),56,61,37,39,22,2,2,,,47,26,19,16,1.4,0.6
2025-11-30T0300,3726A,88.8781,29.2426,日喀则市,林业技术推广中心,,40,38,28,28,10,17,17,,,24,14,10,10,0.9,0.6
2025-11-30T0300,1659A,119.471,35.4209,日照市,监测站,细颗粒物(PM2.5),119,156,177,90,83,2,2,,,67,68,10,18,1.3,1.2
2025-11-30T0300,1660A,119.523,35.4216,日照市,市政府广场,细颗粒物(PM2.5),115,168,163,87,75,25,25,,,54,56,12,17,1.3,1.2
2025-11-30T0300,1661A,119.5587,35.4044,日照市,港务局,细颗粒物(PM2.5),134,166,185,102,90,14,14,,,63,71,14,19,1.3,1.3
2025-11-30T0300,3507A,119.5328,35.4625,日照市,职业技术学院,颗粒物(PM10),109,168,169,80,69,25,25,,,56,57,11,15,1.2,1.2
2025-11-30T0300,3604A,119.3266,35.1044,日照市,岚山环保分局,细颗粒物(PM2.5),138,215,176,105,79,8,8,,,93,55,39,30,3.7,1.8
2025-11-30T0300,1835A,111.1922,34.7752,三门峡市,市政府,颗粒物(PM10),67,84,114,33,58,1,1,,,63,60,12,16,0.6,0.8
2025-11-30T0300,1836A,111.1587,34.7942,三门峡市,开发区,颗粒物(PM10),86,122,142,39,61,8,8,,,47,59,8,12,0.4,0.7
