timepoint,stationcode,longitude,latitude,area,positionname,primarypollutant,aqi,pm10,pm10_24h,pm2_5,pm2_5_24h,o3,o3_24h,o3_8h,o3_8h_24h,no2,no2_24h,so2,so2_24h,co,co_24h
2025-11-30T2000,3621A,106.8288,39.6778,乌海市,聚英学校,,41,41,163,14,34,43,43,80,69,26,4,15,18,0.3,0.4
2025-11-30T2000,2197A,113.1306,40.9923,乌兰察布市,集宁新区,,35,35,101,20,31,58,58,83,72,13,9,8,8,0.1,0.1
2025-11-30T2000,3034A,113.1076,41.0385,乌兰察布市,光明街小学,,40,40,113,23,32,51,51,68,59,17,15,8,9,0.4,0.4
2025-11-30T2000,3285A,113.1376,40.9509,乌兰察布市,北京八中,,22,15,125,15,24,50,50,72,63,12,6,14,15,0.3,0.1
2025-11-30T2000,3421A,113.1775,40.9779,乌兰察布市,市委党校,,34,34,115,17,25,56,56,72,64,7,6,8,9,0.3,0.2
2025-11-30T2000,1490A,87.5801,43.8303,乌鲁木齐市,监测站,颗粒物(PM10),86,122,51,32,34,30,30,26,26,26,39,3,3,0.8,0.9
2025-11-30T2000,1491A,87.6046,43.768,乌鲁木齐市,收费所,"颗粒物(PM10),细颗粒物(PM2.5)",52,54,53,36,40,14,14,21,21,39,40,4,4,0.8,0.9
2025-11-30T2000,1492A,87.4754,43.9469,乌鲁木齐市,新疆农科院农场,,,,,,,,,,,,,,,,
2025-11-30T2000,1493A,87.5525,43.8711,乌鲁木齐市,铁路局,细颗粒物(PM2.5),54,52,49,38,38,37,37,36,36,25,33,2,2,0.4,0.7
2025-11-30T2000,1494A,87.6432,43.831,乌鲁木齐市,三十一中学,细颗粒物(PM2.5),55,50,48,39,37,30,30,31,31,25,32,6,6,0.5,0.7
2025-11-30T2000,1496A,87.7216,44.1747,乌鲁木齐市,米东区环保局,细颗粒物(PM2.5),73,73,61,53,44,31,31,33,33,34,34,7,8,0.7,0.7
2025-11-30T2000,3033A,87.4651,43.4569,乌鲁木齐市,培训基地,,25,9,6,3,2,78,78,78,78,9,9,5,5,0.6,0.5
2025-11-30T2000,3437A,88.3118,43.3658,乌鲁木齐市,达坂城区环保局,颗粒物(PM10),52,54,31,31,18,6,6,57,49,60,28,5,6,0.8,0.5
2025-11-30T2000,3438A,87.6162,43.8801,乌鲁木齐市,红光山片区,细颗粒物(PM2.5),57,47,39,40,39,35,35,36,36,30,36,6,7,0.5,0.8
2025-11-30T2000,3439A,87.7024,43.8004,乌鲁木齐市,新师大温泉校区,细颗粒物(PM2.5),53,53,48,37,38,24,24,28,28,28,30,4,4,0.5,0.7
2025-11-30T2000,3440A,87.4921,43.8411,乌鲁木齐市,大绿谷,细颗粒物(PM2.5),52,45,41,36,35,34,34,38,38,24,35,3,3,0.7,1
2025-11-30T2000,1188A,120.269,31.4867,无锡市,雪浪,颗粒物(PM10),67,83,103,36,50,47,47,74,73,48,57,10,9,1.0,1
2025-11-30T2000,1189A,120.275,31.6219,无锡市,黄巷,颗粒物(PM10),81,112,127,51,58,3,3,64,52,121,88,10,10,1.2,0.7
2025-11-30T2000,1191A,120.242,31.5031,无锡市,漆塘,颗粒物(PM10),61,72,101,41,47,65,65,84,82,22,37,9,10,0.3,0.3
2025-11-30T2000,1192A,120.3489,31.5863,无锡市,东亭,细颗粒物(PM2.5),92,124,122,68,61,4,4,68,58,115,90,11,12,2.4,1.2
2025-11-30T2000,1193A,120.354,31.5475,无锡市,旺庄,颗粒物(PM10),102,154,136,70,67,2,2,69,56,120,89,8,8,1.2,0.9
2025-11-30T2000,1194A,120.245,31.5631,无锡市,荣巷,颗粒物(PM10),58,66,93,34,45,60,60,76,76,38,46,9,9,0.7,0.7
2025-11-30T2000,1195A,120.299,31.6817,无锡市,堰桥,,,,110,,63,1,1,66,60,,80,,13,1.3,0.9
2025-11-30T2000,3428A,120.3142,31.4753,无锡市,华庄,"颗粒物(PM10),细颗粒物(PM2.5)",78,106,109,57,60,8,8,81,75,103,53,10,8,1.3,1
2025-11-30T2000,4254A,120.2925,31.5685,无锡市,健康路105号,细颗粒物(PM2.5),107,126,125,80,68,4,4,57,48,123,86,8,8,1.2,0.9
2025-11-30T2000,2677A,106.1532,37.9648,吴忠市,教育园区,颗粒物(PM10),67,84,108,25,30,65,65,78,76,11,13,12,24,0.3,0.3
2025-11-30T2000,2679A,106.1856,37.9956,吴忠市,新区二泵站,颗粒物(PM10),60,70,99,24,23,57,57,80,76,20,13,17,15,0.4,0.3
2025-11-30T2000,3648A,106.2112,37.9768,吴忠市,文卫南街,细颗粒物(PM2.5),74,78,110,54,30,62,62,78,75,19,16,11,19,0.3,0.3
2025-11-30T2000,1794A,118.3606,31.3519,芜湖市,监测站,细颗粒物(PM2.5),100,117,97,75,60,39,39,74,74,72,53,9,12,1.1,1
2025-11-30T2000,2205A,105.6985,38.8411,阿拉善盟,蒙二幼,颗粒物(PM10),60,69,87,32,27,47,47,89,82,33,11,9,8,1.0,0.7
2025-11-30T2000,2206A,105.724,38.8516,阿拉善盟,环保局新楼,,40,40,69,20,22,63,63,82,79,10,4,9,8,0.7,0.6
2025-11-30T2000,2708A,88.1264,47.8517,阿勒泰地区,市站,,,24,16,18,10,,,54,36,,21,4,6,0.5,0.4
2025-11-30T2000,2630A,80.1161,32.5,阿里地区,阿里监测站,,,,3,,3,,,65,,,15,,8,,0.4
2025-11-30T2000,3192A,80.0903,32.5028,阿里地区,阿里藏医院,,27,8,15,3,9,85,85,84,84,1,10,8,11,0.3,0.5
2025-11-30T2000,2642A,109.0318,32.6537,安康市,香溪洞,,,,,,,,,,,,,,,,
2025-11-30T2000,2644A,109.0072,32.6975,安康市,汉滨区检察院,颗粒物(PM10),70,90,66,49,40,14,14,37,36,42,26,5,4,0.5,0.4
2025-11-30T2000,4054A,109.0325,32.6913,安康市,市邮政管理局,颗粒物(PM10),71,91,79,49,46,5,5,37,35,66,34,6,4,1.6,0.8
2025-11-30T2000,2291A,117.0809,30.5177,安庆市,环科院,颗粒物(PM10),65,80,70,44,41,29,29,104,93,74,38,8,7,0.7,0.5
2025-11-30T2000,2292A,117.0331,30.5119,安庆市,马山宾馆,颗粒物(PM10),60,70,70,39,41,85,85,113,113,31,38,10,7,0.5,0.5
2025-11-30T2000,2294A,116.9896,30.6145,安庆市,安庆大学,细颗粒物(PM2.5),99,80,77,74,44,48,48,108,102,39,33,8,11,0.8,0.6
2025-11-30T2000,3173A,117.0598,30.5351,安庆市,市人大,细颗粒物(PM2.5),85,108,77,63,43,34,34,112,104,76,38,12,10,0.8,0.4
2025-11-30T2000,3122A,105.9606,26.2611,安顺市,伍家关,细颗粒物(PM2.5),125,159,62,95,32,71,71,96,94,18,17,18,30,0.5,0.2
2025-11-30T2000,3123A,105.9408,26.2431,安顺市,凤凰山,细颗粒物(PM2.5),182,149,59,137,47,73,73,103,100,26,25,16,26,0.9,0.7
2025-11-30T2000,3124A,105.9439,26.2564,安顺市,金钟山,细颗粒物(PM2.5),182,,52,137,46,71,71,111,107,28,15,21,23,0.9,0.6
2025-11-30T2000,3125A,105.8983,26.2481,安顺市,娄家坡,细颗粒物(PM2.5),193,164,61,145,52,64,64,100,96,25,17,26,26,1.0,0.7
2025-11-30T2000,1818A,114.4839,36.0621,安阳市,棉研所,,,,,,,,,,,,,,,,
2025-11-30T2000,1819A,114.3551,36.1017,安阳市,红庙街,颗粒物(PM10),220,364,166,73,77,54,54,72,70,18,43,2,6,0.3,1
2025-11-30T2000,1820A,114.361,36.0681,安阳市,银杏小区,颗粒物(PM10),288,411,160,81,82,58,58,76,74,15,38,3,5,0.3,1
2025-11-30T2000,3141A,114.3922,36.0878,安阳市,信访局,颗粒物(PM10),199,347,164,67,84,60,60,78,77,17,41,1,6,0.1,0.8
2025-11-30T2000,3669A,114.4705,36.0637,安阳市,左辅环卫站,颗粒物(PM10),377,481,206,73,101,60,60,79,79,12,45,2,6,0.5,1.1
2025-11-30T2000,3703A,114.2917,36.0949,安阳市,安钢职工学校,颗粒物(PM10),258,390,187,70,83,51,51,75,72,17,34,1,5,1.1,1.7
2025-11-30T2000,1748A,123.044,41.1196,鞍山市,深沟寺,,38,38,50,18,21,38,38,25,24,18,34,11,13,0.5,0.8
2025-11-30T2000,1749A,123.011,41.0931,鞍山市,太阳城,,40,40,50,20,22,40,40,32,23,11,26,10,12,0.6,0.8
2025-11-30T2000,1750A,123.0485,41.1442,鞍山市,太平,,34,34,64,17,28,42,42,28,26,14,31,12,14,0.6,1
2025-11-30T2000,1751A,122.9642,41.0971,鞍山市,铁西三道街,,41,41,52,20,23,24,24,31,18,29,36,25,23,2.2,1.5
2025-11-30T2000,1753A,123.022,41.0821,鞍山市,明达新区,,32,32,43,16,19,41,41,35,25,14,22,9,12,0.5,0.6
2025-11-30T2000,1754A,123.1289,41.0228,鞍山市,千山,,,,22,,12,,,26,,,26,,4,,0.3
2025-11-30T2000,4201A,122.9446,41.0826,鞍山市,兴盛南路290号,,40,40,52,18,23,28,28,28,18,27,40,15,23,1.3,1.3
2025-11-30T2000,2195A,107.4212,40.761,巴彦淖尔市,附二中,,38,38,302,19,61,54,54,67,62,13,4,3,3,0.4,0.4
2025-11-30T2000,2566A,102.1879,31.914,阿坝藏族羌族自治州,州农科所,,,,,,,,,,,,,,,,
2025-11-30T2000,2568A,102.2502,31.8896,阿坝藏族羌族自治州,马师校,,38,,20,26,16,20,20,49,43,36,23,6,5,0.7,0.6
2025-11-30T2000,3994A,102.2165,31.9024,阿坝藏族羌族自治州,马尔康中学西区,,39,,13,27,11,23,23,60,56,40,19,6,5,0.8,0.6
2025-11-30T2000,2695A,80.292,41.1694,阿克苏地区,电视台,颗粒物(PM10),84,118,150,42,70,75,75,76,76,33,47,8,8,0.5,1.2
2025-11-30T2000,2696A,80.2613,41.1551,阿克苏地区,艺术中心,颗粒物(PM10),104,157,146,54,76,39,39,72,72,66,59,8,7,0.9,1.3
2025-11-30T2000,2204A,105.6467,38.8363,阿拉善盟,西城区西花园,,,,,,,,,,,,,,,,
2025-11-30T2000,2196A,107.37,40.7372,巴彦淖尔市,市环保大楼,,44,44,283,18,59,51,51,68,64,15,4,7,7,0.5,0.4
2025-11-30T2000,1956A,86.1472,41.7538,巴音郭楞蒙古自治州,孔雀公园,颗粒物(PM10),69,88,117,23,42,56,56,67,67,23,62,8,10,0.3,0.8
2025-11-30T2000,1957A,86.1972,41.7166,巴音郭楞蒙古自治州,棉纺厂,颗粒物(PM10),78,105,137,33,38,34,34,65,65,48,46,8,8,0.8,0.7
2025-11-30T2000,1958A,86.2357,41.7173,巴音郭楞蒙古自治州,经济开发区,颗粒物(PM10),63,76,89,17,23,43,43,65,65,32,27,7,7,0.5,0.5
2025-11-30T2000,2914A,106.7677,31.8794,巴中市,苏山坪,,,,,,,,,,,,,,,,
2025-11-30T2000,3181A,106.7768,31.8526,巴中市,市五中,细颗粒物(PM2.5),110,118,79,83,53,10,10,36,36,36,28,8,8,1.0,0.9
2025-11-30T2000,3183A,106.7418,31.8654,巴中市,圣泉水务公司,细颗粒物(PM2.5),107,119,71,80,51,1,1,31,27,54,32,5,5,1.3,0.9
2025-11-30T2000,3616A,106.7616,31.8344,巴中市,市中心医院,颗粒物(PM10),77,104,79,53,57,1,1,32,30,48,30,5,5,1.7,1.2
2025-11-30T2000,2235A,122.7911,45.6077,白城市,洮北区环保局,细颗粒物(PM2.5),129,131,47,98,30,17,17,50,39,53,19,9,6,1.2,0.4
2025-11-30T2000,2236A,122.8738,45.5725,白城市,市环保局,颗粒物(PM10),63,75,32,34,21,7,7,50,40,46,15,8,6,0.5,0.4
2025-11-30T2000,2231A,126.4219,41.9171,白山市,喜丰,,28,28,77,17,25,48,48,39,39,14,26,11,11,0.7,0.8
2025-11-30T2000,2232A,126.4077,41.9419,白山市,环保局,,28,,50,19,23,49,49,50,50,10,18,10,10,0.6,0.8
2025-11-30T2000,2647A,104.1724,36.5446,白银市,第三小学,颗粒物(PM10),124,198,156,60,43,40,40,68,61,40,32,28,32,0.9,0.4
2025-11-30T2000,2648A,104.1465,36.5482,白银市,动力公司,颗粒物(PM10),129,208,142,91,44,17,17,76,68,61,24,16,21,0.8,0.5
2025-11-30T2000,2512A,106.6103,23.9011,百色市,市监测站,颗粒物(PM10),65,79,51,46,31,79,79,103,103,24,20,10,10,0.9,0.7
2025-11-30T2000,2513A,106.6538,23.8859,百色市,市中心血站,细颗粒物(PM2.5),102,123,76,76,48,41,41,117,102,72,42,11,10,1.3,0.9
2025-11-30T2000,3406A,106.6085,23.8798,百色市,祈福高中,颗粒物(PM10),86,122,74,52,35,45,45,90,90,48,28,8,9,0.9,0.7
2025-11-30T2000,2270A,117.396,32.939,蚌埠市,工人疗养院,细颗粒物(PM2.5),93,118,143,69,77,87,87,113,110,46,44,9,9,0.6,0.7
2025-11-30T2000,2271A,117.3605,32.9427,蚌埠市,百货大楼,细颗粒物(PM2.5),95,122,121,71,65,61,61,114,108,67,43,8,8,0.6,0.7
2025-11-30T2000,2273A,117.4185,32.8911,蚌埠市,蚌埠学院,细颗粒物(PM2.5),129,158,139,98,75,62,62,114,110,58,44,10,12,0.6,0.8
2025-11-30T2000,2274A,117.3533,32.9673,蚌埠市,淮上区政府,细颗粒物(PM2.5),109,129,125,82,65,76,76,120,117,56,40,11,10,0.6,0.6
2025-11-30T2000,2275A,117.3145,32.8977,蚌埠市,高新区,细颗粒物(PM2.5),105,139,146,79,82,16,16,107,88,83,52,9,10,0.8,0.7
2025-11-30T2000,3715A,117.3092,32.9314,蚌埠市,蚌埠田家炳中学,细颗粒物(PM2.5),99,129,153,74,75,92,92,105,101,39,54,8,25,0.5,0.6
2025-11-30T2000,1585A,109.8756,40.6532,包头市,市环境监测站,,31,31,226,12,42,49,49,69,56,14,15,6,13,0.9,1.3
2025-11-30T2000,1587A,109.9991,40.5842,包头市,包头八中,,32,32,233,14,46,43,43,74,60,23,12,2,6,0.3,0.4
2025-11-30T2000,1588A,109.8538,40.6821,包头市,青山宾馆,,16,14,190,6,36,50,50,72,58,14,13,6,8,0.5,0.6
2025-11-30T2000,1589A,109.8642,40.6288,包头市,惠龙物流,,24,24,202,8,37,55,55,73,65,15,13,5,13,0.5,0.7
2025-11-30T2000,1590A,110.0377,40.5546,包头市,东河鸿龙湾,,27,27,222,9,32,38,38,73,60,30,12,4,6,0.4,0.4
2025-11-30T2000,3283A,109.9154,40.5685,包头市,滨河大厦,,25,25,230,3,40,50,50,70,62,14,10,6,10,0.5,0.6
2025-11-30T2000,4309A,104.6159,35.5701,定西市,正龙路62号,颗粒物(PM10),92,133,109,42,48,58,58,82,81,19,15,8,8,0.6,1
2025-11-30T2000,1389A,113.7547,23.0494,东莞市,莞城梨川,,48,48,80,21,40,44,44,79,72,30,50,4,10,0.6,0.7
2025-11-30T2000,1390A,113.7944,23.0128,东莞市,东城石井,颗粒物(PM10),56,61,75,35,41,38,38,73,69,33,49,6,10,0.5,0.6
2025-11-30T2000,1391A,113.7383,22.9658,东莞市,南城西平,颗粒物(PM10),54,57,92,33,47,25,25,70,64,41,83,6,10,0.7,0.8
2025-11-30T2000,3319A,113.7338,23.0381,东莞市,万江金泰,颗粒物(PM10),52,53,81,28,41,42,42,78,71,28,51,5,9,0.9,1
2025-11-30T2000,3626A,113.7533,23.0202,东莞市,南城元岭,颗粒物(PM10),57,63,79,34,44,48,48,81,76,27,50,5,10,0.5,0.6
2025-11-30T2000,3627A,113.7875,23.0457,东莞市,东城主山,颗粒物(PM10),52,54,90,30,44,43,43,75,70,30,54,1,8,0.4,0.5
2025-11-30T2000,1666A,118.6614,37.4309,东营市,市环保局,颗粒物(PM10),74,97,229,12,98,57,57,61,61,24,64,6,20,0.5,1.1
2025-11-30T2000,3036A,118.6904,37.4338,东营市,开发区管委会,颗粒物(PM10),85,120,243,17,100,64,64,67,67,20,57,5,22,0.2,0.7
2025-11-30T2000,3365A,118.5719,37.565,东营市,垦利区民丰路,颗粒物(PM10),74,97,233,12,92,53,53,59,59,25,63,2,11,0.4,0.9
2025-11-30T2000,3498A,118.5055,37.8612,东营市,河口城区,颗粒物(PM10),79,107,224,3,81,67,67,66,66,20,52,4,7,0.4,1.1
2025-11-30T2000,3646A,118.4978,37.4623,东营市,胜利站,颗粒物(PM10),72,94,102,14,104,57,57,60,60,22,72,9,28,0.6,1.3
2025-11-30T2000,3734A,118.35,37.26,东营市,理想之城,颗粒物(PM10),76,102,240,12,99,50,50,56,55,30,66,7,17,0.5,1
2025-11-30T2000,1591A,110.0023,39.8129,鄂尔多斯市,综合楼,颗粒物(PM10),65,80,185,17,38,54,54,78,66,16,6,6,6,0.3,0.2
2025-11-30T2000,1592A,109.9486,39.8261,鄂尔多斯市,巴音孟克林场办事处,颗粒物(PM10),71,92,241,17,42,45,45,78,64,24,6,6,5,0.4,0.3
2025-11-30T2000,1593A,109.7736,39.5986,鄂尔多斯市,康泽苑,颗粒物(PM10),58,66,213,17,39,65,65,86,76,12,3,2,3,0.3,0.2
2025-11-30T2000,1594A,109.8119,39.5989,鄂尔多斯市,华泰汽车城,颗粒物(PM10),59,68,214,14,41,56,56,83,71,16,6,3,4,0.3,0.2
2025-11-30T2000,1595A,109.9734,39.7884,鄂尔多斯市,奥林花园,颗粒物(PM10),75,100,256,17,39,40,40,70,62,29,16,9,14,0.4,0.3
2025-11-30T2000,2436A,114.8938,30.3994,鄂州市,市政府,细颗粒物(PM2.5),89,98,84,66,50,52,52,89,87,53,37,12,16,1.1,0.6
2025-11-30T2000,2437A,114.8989,30.3714,鄂州市,赵家坝,细颗粒物(PM2.5),75,82,87,55,45,67,67,104,102,44,23,15,17,1.5,1
2025-11-30T2000,3654A,114.8094,30.4089,鄂州市,精准医疗中心,颗粒物(PM10),61,71,93,40,54,117,117,115,115,30,52,4,5,1.1,1.4
2025-11-30T2000,2454A,109.4978,30.2981,恩施土家族苗族自治州,湖北民院,细颗粒物(PM2.5),179,,100,135,100,35,35,77,77,34,20,7,7,1.3,1.1
2025-11-30T2000,2455A,109.4707,30.2798,恩施土家族苗族自治州,州电力总公司,细颗粒物(PM2.5),142,141,110,108,95,8,8,66,65,72,29,8,6,1.3,1
2025-11-30T2000,3549A,109.5061,30.3772,恩施土家族苗族自治州,龙凤新区,细颗粒物(PM2.5),120,131,103,91,74,18,18,63,62,46,23,7,7,1.0,0.5
2025-11-30T2000,2499A,108.3411,21.6158,防城港市,沙万,细颗粒物(PM2.5),85,95,70,63,42,75,75,94,92,25,26,6,12,1.3,0.9
2025-11-30T2000,2500A,108.3514,21.7731,防城港市,防城档案局,细颗粒物(PM2.5),99,91,97,74,59,78,78,96,93,23,29,4,6,1.2,0.9
2025-11-30T2000,2501A,108.3506,21.6414,防城港市,大海花园,细颗粒物(PM2.5),92,84,69,68,40,87,87,99,98,24,25,5,17,1.4,1.1
2025-11-30T2000,4017A,116.7923,33.9535,淮北市,市博物馆,细颗粒物(PM2.5),152,190,170,116,108,91,91,104,102,39,60,16,14,0.7,1
2025-11-30T2000,2277A,116.8305,32.7727,淮南市,潘集区政府,细颗粒物(PM2.5),117,148,145,88,84,94,94,108,108,27,39,8,9,0.8,0.8
2025-11-30T2000,2279A,116.8569,32.5951,淮南市,谢家集区政府,细颗粒物(PM2.5),85,103,103,63,57,100,100,119,119,36,37,11,11,0.8,0.7
2025-11-30T2000,2280A,116.8281,32.633,淮南市,八公山区政府,细颗粒物(PM2.5),87,106,93,64,50,105,105,124,124,19,22,9,8,0.6,0.6
2025-11-30T2000,2281A,116.6325,32.6201,淮南市,焦岗湖风景区管理处,,,,,,,,,,,,,,,,
2025-11-30T2000,2894A,117.0566,32.6531,淮南市,经济技术开发区消防队,细颗粒物(PM2.5),114,145,132,86,72,52,52,101,98,65,57,5,9,0.8,0.6
2025-11-30T2000,3329A,117.0108,32.5893,淮南市,山南新区,细颗粒物(PM2.5),92,119,140,68,78,97,97,118,118,37,44,9,8,0.6,0.6
2025-11-30T2000,4209A,117.0031,32.6445,淮南市,国庆中路369号,细颗粒物(PM2.5),112,117,103,84,69,58,58,99,97,61,47,11,9,1.1,0.9
2025-11-30T2000,2446A,114.9028,30.4742,黄冈市,职工中心,细颗粒物(PM2.5),63,65,66,45,44,103,103,121,121,29,26,14,10,1.5,0.5
2025-11-30T2000,2929A,114.8858,30.4519,黄冈市,红卫路,细颗粒物(PM2.5),82,66,66,60,51,97,97,115,115,29,22,11,9,1.3,0.7
2025-11-30T2000,3398A,114.9136,30.4445,黄冈市,市林业局,颗粒物(PM10),62,74,77,43,45,118,118,126,126,26,33,10,8,1.1,0.7
2025-11-30T2000,2672A,102.0199,35.5102,黄南藏族自治州,同仁县隆务镇,,35,35,30,18,13,59,59,74,72,6,5,11,10,0.3,0.3
2025-11-30T2000,2295A,118.2903,29.6963,黄山市,延安路89号,颗粒物(PM10),55,59,45,31,25,58,58,92,91,17,17,4,4,0.5,0.4
2025-11-30T2000,2297A,118.1371,30.2756,黄山市,黄山区政府5号楼,细颗粒物(PM2.5),67,65,51,48,36,23,23,78,69,22,10,6,6,0.8,0.7
2025-11-30T2000,4210A,118.3354,29.7203,黄山市,滨江东路7-2号,细颗粒物(PM2.5),73,81,60,53,39,9,9,70,58,46,23,4,4,0.6,0.4
2025-11-30T2000,2423A,115.0601,30.2313,黄石市,沈家营,细颗粒物(PM2.5),65,70,94,47,47,70,70,98,98,25,37,10,13,1.1,1.3
2025-11-30T2000,2426A,114.8988,30.2019,黄石市,铁山,颗粒物(PM10),70,89,76,46,48,49,49,92,89,32,34,12,14,0.4,0.5
2025-11-30T2000,2427A,115.0307,30.2092,黄石市,团城山,颗粒物(PM10),59,68,90,38,48,88,88,99,99,31,44,6,11,0.5,0.8
2025-11-30T2000,3149A,115.0235,30.1578,黄石市,笔架山北路,颗粒物(PM10),66,82,120,36,49,83,83,93,93,34,31,12,15,0.9,1.1
2025-11-30T2000,4185A,115.0780,30.21118,黄石市,磁湖东路29号,颗粒物(PM10),76,102,99,55,56,31,31,70,66,70,48,11,15,0.9,1.1
2025-11-30T2000,1392A,114.4183,23.0528,惠州市,河南岸金山湖子站,颗粒物(PM10),56,61,79,39,42,35,35,64,58,38,37,1,7,0.7,0.7
2025-11-30T2000,1393A,114.4053,23.0822,惠州市,下埔横江三路子站,颗粒物(PM10),51,51,81,33,41,52,52,79,76,20,29,4,11,0.9,0.9
2025-11-30T2000,1394A,114.4103,23.1142,惠州市,江北云山西路子站,颗粒物(PM10),51,52,82,35,42,45,45,81,75,30,38,6,12,0.6,0.6
2025-11-30T2000,1395A,114.4645,22.7833,惠州市,惠阳区承修路船湖子站,颗粒物(PM10),57,64,97,37,45,54,54,85,78,24,34,5,7,0.6,0.6
2025-11-30T2000,1396A,114.5317,22.7422,惠州市,大亚湾管委会子站,颗粒物(PM10),77,104,92,55,38,32,32,106,47,26,21,4,6,1.0,0.9
2025-11-30T2000,3314A,114.4338,22.8134,惠州市,惠阳秋长,细颗粒物(PM2.5),55,53,91,39,45,51,51,92,83,33,37,9,13,0.6,0.6
2025-11-30T2000,3452A,114.6517,22.775,惠州市,大亚湾霞涌,颗粒物(PM10),54,57,71,35,27,55,55,96,82,21,20,5,6,0.6,0.6
2025-11-30T2000,2579A,104.8475,26.5894,六盘水市,民中,细颗粒物(PM2.5),188,152,80,141,63,34,34,84,78,46,31,6,11,1.1,1
2025-11-30T2000,2580A,104.9544,26.5506,六盘水市,双水,细颗粒物(PM2.5),145,127,75,111,55,65,65,104,98,20,15,5,7,,0.6
2025-11-30T2000,2335A,117.0189,25.1181,龙岩市,龙岩师专,,,,,,,,,,,,,,,,
2025-11-30T2000,2336A,117.0217,25.1033,龙岩市,龙岩市监测站,细颗粒物(PM2.5),70,77,52,51,32,8,8,91,78,86,36,12,16,1.9,0.8
2025-11-30T2000,2337A,117.0258,25.0661,龙岩市,闽西职业技术学院,颗粒物(PM10),65,80,55,35,28,21,21,91,80,56,34,13,14,0.7,0.5
2025-11-30T2000,2338A,117.0196,25.0306,龙岩市,龙岩学院,,47,47,46,30,28,52,52,94,89,19,23,7,8,0.6,0.6
2025-11-30T2000,2665A,105.0822,33.3261,陇南市,汉王镇固水子,,,,,,,,,,,,,,,,
2025-11-30T2000,2885A,104.9339,33.3826,陇南市,滨江中学,颗粒物(PM10),106,162,95,65,45,11,11,46,42,79,47,22,13,3.1,2
2025-11-30T2000,3247A,104.955,33.371,陇南市,市总工会,颗粒物(PM10),111,172,84,55,38,14,14,60,58,67,35,10,6,2.0,1.1
2025-11-30T2000,2487A,111.9589,27.8901,娄底市,电视发射台,,,,,,,,,,,,,,,,
2025-11-30T2000,2488A,111.9975,27.725,娄底市,市监测站,细颗粒物(PM2.5),84,93,126,62,86,88,88,107,107,35,58,19,45,1.1,2.3
2025-11-30T2000,2489A,112.0194,27.7314,娄底市,市委党校,颗粒物(PM10),67,84,107,47,72,88,88,104,104,30,46,15,23,0.9,1.7
2025-11-30T2000,2490A,111.9561,27.7569,娄底市,涟钢,细颗粒物(PM2.5),105,120,104,79,72,88,88,105,104,29,32,14,18,1.5,1.5
2025-11-30T2000,2491A,111.9892,27.7044,娄底市,市政府,细颗粒物(PM2.5),113,114,106,85,78,61,61,100,100,52,33,18,22,0.7,0.8
2025-11-30T2000,1893A,105.4324,28.9634,泸州市,九狮山,,,,,,,,,,,,,,,,
2025-11-30T2000,1894A,105.4427,28.9063,泸州市,小市上码头,细颗粒物(PM2.5),172,161,158,130,128,19,19,24,24,43,45,12,12,1.0,1.1
2025-11-30T2000,1895A,105.4241,28.8573,泸州市,兰田宪桥,细颗粒物(PM2.5),162,146,168,123,138,10,10,28,27,43,29,8,9,1.4,1.2
2025-11-30T2000,1896A,105.4379,28.8833,泸州市,市环监站,细颗粒物(PM2.5),149,158,163,114,121,12,12,32,31,56,38,9,9,1.1,0.9
2025-11-30T2000,4272A,105.3689,28.7783,泸州市,纳溪中医医院,细颗粒物(PM2.5),137,133,128,104,110,3,3,23,22,,28,9,9,1.3,1
2025-11-30T2000,2183A,111.1406,37.5211,吕梁市,环保局,颗粒物(PM10),93,136,125,43,41,11,11,77,66,60,36,4,4,0.6,0.4
2025-11-30T2000,2185A,111.1297,37.5136,吕梁市,自来水公司,颗粒物(PM10),84,117,157,32,40,43,43,76,70,23,32,1,8,0.4,0.5
2025-11-30T2000,2867A,111.1283,37.51,吕梁市,马茂庄小学,颗粒物(PM10),106,161,159,39,43,7,7,77,65,60,36,7,7,0.6,0.6
2025-11-30T2000,1812A,112.3931,34.6516,洛阳市,市委党校,颗粒物(PM10),83,116,108,46,51,46,46,72,67,36,37,12,12,0.8,0.7
2025-11-30T2000,1815A,112.494,34.6886,洛阳市,河南林校,颗粒物(PM10),81,112,122,37,51,69,69,76,76,18,41,9,10,0.6,0.8
2025-11-30T2000,1816A,112.3844,34.623,洛阳市,开发区管委会,颗粒物(PM10),83,115,113,52,52,48,48,82,77,31,30,12,15,0.7,0.6
2025-11-30T2000,1817A,112.4267,34.6258,洛阳市,市委新办公区,颗粒物(PM10),84,117,114,55,52,50,50,81,75,29,30,12,12,0.7,0.6
2025-11-30T2000,3340A,112.6005,34.6326,洛阳市,伊滨,细颗粒物(PM2.5),89,110,115,66,59,41,41,74,71,34,32,11,12,0.5,0.5
2025-11-30T2000,3341A,112.4951,34.6332,洛阳市,中移产业园,颗粒物(PM10),81,111,111,51,49,44,44,79,74,49,42,13,12,0.7,0.5
2025-11-30T2000,2645A,109.9154,33.8715,商洛市,监测站,颗粒物(PM10),59,68,55,38,26,37,37,81,76,51,29,10,5,0.6,0.5
2025-11-30T2000,3045A,109.9643,33.8471,商洛市,商州区中学,颗粒物(PM10),53,56,64,23,27,40,40,80,76,38,35,5,6,0.5,0.6
2025-11-30T2000,2408A,115.6702,34.4285,商丘市,环境监测站,细颗粒物(PM2.5),145,158,144,111,101,79,79,82,82,40,53,8,5,0.7,0.6
2025-11-30T2000,2409A,115.6458,34.4045,商丘市,粮食局,细颗粒物(PM2.5),119,155,142,90,84,68,68,73,73,43,46,9,6,1.0,0.9
2025-11-30T2000,2410A,115.6293,34.3948,商丘市,睢阳区环保局,细颗粒物(PM2.5),134,162,157,102,99,75,75,76,76,38,56,10,7,0.7,0.7
2025-11-30T2000,3171A,115.6071,34.4465,商丘市,梁园区档案局,细颗粒物(PM2.5),153,190,152,117,98,58,58,74,74,56,53,10,6,0.7,0.7
2025-11-30T2000,1141A,121.4,31.238,上海市,普陀,颗粒物(PM10),86,122,100,62,48,5,5,95,76,140,64,7,8,1.4,0.7
2025-11-30T2000,1142A,121.478,31.2036,上海市,十五厂,细颗粒物(PM2.5),108,124,110,81,52,4,4,83,68,139,76,12,11,1.5,0.9
2025-11-30T2000,1143A,121.467,31.3008,上海市,虹口,细颗粒物(PM2.5),102,151,105,76,47,5,5,90,64,124,65,11,11,1.9,0.9
2025-11-30T2000,1147A,121.425,31.2261,上海市,静安监测站,细颗粒物(PM2.5),89,120,101,66,47,9,9,98,74,118,66,7,7,1.5,0.7
2025-11-30T2000,1148A,121.703,31.1907,上海市,浦东川沙,细颗粒物(PM2.5),82,94,115,60,51,91,91,109,101,39,61,10,9,0.5,0.6
2025-11-30T2000,1149A,121.533,31.2284,上海市,浦东新区监测站,细颗粒物(PM2.5),84,96,99,62,47,40,40,85,80,86,57,9,9,0.8,0.6
2025-11-30T2000,1150A,121.577,31.2071,上海市,浦东张江,颗粒物(PM10),84,118,112,50,45,24,24,108,98,113,66,8,8,0.6,0.4
2025-11-30T2000,3265A,121.4316,31.3322,上海市,宝山庙行,细颗粒物(PM2.5),107,144,110,80,53,10,10,94,80,142,68,6,7,1.6,0.7
2025-11-30T2000,3266A,121.8791,31.4662,上海市,崇明上实东滩,颗粒物(PM10),65,80,87,42,41,95,95,102,102,39,60,4,5,0.3,0.2
2025-11-30T2000,3268A,121.3162,31.2838,上海市,嘉定南翔,细颗粒物(PM2.5),104,110,108,78,62,6,6,88,69,106,83,8,9,1.3,0.6
2025-11-30T2000,3269A,121.3359,30.7456,上海市,金山新城,细颗粒物(PM2.5),153,130,104,117,59,104,104,132,130,52,44,10,9,0.7,0.6
2025-11-30T2000,3270A,121.4996,31.0739,上海市,闵行浦江,细颗粒物(PM2.5),92,121,103,68,47,50,50,109,101,80,59,7,7,1.0,0.8
2025-11-30T2000,3271A,121.2886,31.1663,上海市,青浦徐泾,细颗粒物(PM2.5),94,120,110,70,54,0,0,96,68,138,82,7,6,0.8,0.5
2025-11-30T2000,3272A,121.2186,31.0378,上海市,松江图书馆,细颗粒物(PM2.5),107,134,102,80,52,4,4,98,72,138,77,8,8,1.5,1
2025-11-30T2000,3273A,121.3902,31.2059,上海市,长宁仙霞,细颗粒物(PM2.5),104,112,91,78,44,6,6,86,67,,61,8,8,,1
2025-11-30T2000,3274A,121.7965,31.0507,上海市,浦东惠南,细颗粒物(PM2.5),94,116,98,70,39,6,6,105,84,118,64,6,5,0.8,0.7
2025-11-30T2000,3544A,121.4891,30.925,上海市,奉贤南桥新城,颗粒物(PM10),144,237,164,80,45,95,95,130,124,66,46,6,7,1.1,0.9
2025-11-30T2000,4183A,121.4174,31.16637,上海市,冠生园路458号,细颗粒物(PM2.5),83,102,87,61,46,9,9,92,80,114,61,6,6,1.2,0.9
2025-11-30T2000,4205A,121.5419,31.2683,上海市,宁武路151号,细颗粒物(PM2.5),153,226,133,117,62,2,2,69,49,127,80,7,7,1.4,0.9
2025-11-30T2000,2381A,118.005,28.4572,上饶市,百草园,,,,,,,,,,,,,,,,
2025-11-30T2000,3419A,109.9447,40.6261,包头市,包头市委党校,,34,34,178,6,33,49,49,76,61,16,8,5,11,0.4,0.6
2025-11-30T2000,3683A,109.8331,40.6576,包头市,昆区政府,,27,27,196,12,37,50,50,73,60,21,21,8,16,0.4,0.7
2025-11-30T2000,1930A,107.185,34.3063,宝鸡市,庙沟村,,,,,,,,,,,,,,,,
2025-11-30T2000,1931A,107.0708,34.3017,宝鸡市,竹园沟,,43,43,43,23,18,54,54,74,74,13,14,7,7,0.2,0.2
2025-11-30T2000,1932A,107.1906,34.3672,宝鸡市,三陆医院,细颗粒物(PM2.5),102,,63,76,28,6,6,71,65,72,35,5,7,0.8,0.5
2025-11-30T2000,1933A,107.1431,34.3547,宝鸡市,监测站,细颗粒物(PM2.5),72,60,55,52,25,33,33,62,61,29,20,4,4,0.5,0.4
2025-11-30T2000,1934A,107.1186,34.3739,宝鸡市,技工学校,颗粒物(PM10),63,75,57,26,25,37,37,72,70,31,18,6,5,0.5,0.4
2025-11-30T2000,1936A,107.2058,34.3497,宝鸡市,文理学院,颗粒物(PM10),65,79,56,36,30,16,16,71,63,56,26,4,6,0.5,0.4
2025-11-30T2000,1937A,107.2386,34.3622,宝鸡市,三迪小学,颗粒物(PM10),68,85,65,37,31,11,11,69,65,76,39,4,6,0.7,0.5
2025-11-30T2000,4308A,107.3898,34.3601,宝鸡市,陈仓区北开路21号,细颗粒物(PM2.5),119,105,83,90,42,16,16,72,68,66,35,8,43,0.4,0.4
2025-11-30T2000,1051A,115.493,38.8632,保定市,游泳馆,颗粒物(PM10),90,129,218,32,98,58,58,71,67,14,48,3,4,0.2,0.5
2025-11-30T2000,1052A,115.5213,38.8959,保定市,华电二区,颗粒物(PM10),85,119,190,41,96,61,61,76,73,11,51,3,4,0.4,0.8
2025-11-30T2000,1053A,115.4713,38.9108,保定市,接待中心,颗粒物(PM10),89,128,209,35,98,51,51,72,65,18,47,3,3,0.3,0.7
2025-11-30T2000,1054A,115.4612,38.8416,保定市,地表水厂,颗粒物(PM10),88,125,242,24,94,56,56,76,72,27,50,2,4,0.0,0.5
2025-11-30T2000,3581A,115.31981,38.95208,保定市,满城区生态环境分局,颗粒物(PM10),119,188,260,36,85,71,71,82,78,10,44,3,3,0.0,0.5
2025-11-30T2000,3582A,115.47694,38.76408,保定市,清苑区第二中学,颗粒物(PM10),115,179,280,28,89,54,54,70,67,22,54,2,6,0.3,0.7
2025-11-30T2000,3583A,115.62909,39.02311,保定市,徐水物探局,颗粒物(PM10),124,198,271,36,96,58,58,69,68,6,38,1,6,0.4,0.8
2025-11-30T2000,4004A,115.4202,38.8656,保定市,双鹰农机,颗粒物(PM10),111,171,289,40,96,67,67,82,78,15,46,3,5,0.2,0.7
2025-11-30T2000,4034A,115.5150,38.8590,保定市,植保所站,颗粒物(PM10),91,132,223,43,97,49,49,65,61,19,53,3,4,0.2,0.6
2025-11-30T2000,2594A,99.1678,25.1081,保山市,市环境监测站,,36,36,28,21,20,57,57,87,85,13,9,8,7,0.4,0.3
2025-11-30T2000,2595A,99.1711,25.1328,保山市,市环保局,,40,30,31,28,23,84,84,92,92,4,7,5,5,0.5,0.5
2025-11-30T2000,1866A,109.2262,21.588,北海市,牛尾岭水库,细颗粒物(PM2.5),88,,60,65,48,72,72,98,94,8,9,7,9,0.9,0.8
2025-11-30T2000,1867A,109.1436,21.4086,北海市,海滩公园,细颗粒物(PM2.5),77,74,67,56,33,105,105,123,122,18,20,11,10,0.9,0.7
2025-11-30T2000,1868A,109.0981,21.4661,北海市,新市环保局,细颗粒物(PM2.5),77,68,71,56,43,104,104,128,127,26,23,9,10,0.7,0.6
2025-11-30T2000,1869A,109.1778,21.5233,北海市,北海工业园,细颗粒物(PM2.5),85,94,83,63,47,77,77,115,112,24,23,10,14,0.8,0.8
2025-11-30T2000,3400A,109.1911,21.4415,北海市,龙潭自来水厂,细颗粒物(PM2.5),95,82,69,71,42,79,79,117,114,20,18,13,16,0.6,0.6
2025-11-30T2000,1001A,116.3621,39.8784,北京市,万寿西宫,颗粒物(PM10),80,110,155,18,51,58,58,71,67,12,48,1,3,0.2,0.5
2025-11-30T2000,1002A,116.2202,40.2915,北京市,定陵,,,,,,,,,,,,,,,,
2025-11-30T2000,1003A,116.4174,39.9289,北京市,东四,颗粒物(PM10),96,141,164,21,50,58,58,70,66,10,44,2,4,0.5,0.8
2025-11-30T2000,1004A,116.4072,39.8863,北京市,天坛,颗粒物(PM10),88,125,135,19,46,55,55,71,66,12,39,3,2,0.3,0.7
2025-11-30T2000,1005A,116.462,39.9365,北京市,农展馆,颗粒物(PM10),91,132,148,20,50,54,54,70,66,10,39,3,4,0.3,0.6
2025-11-30T2000,1006A,116.3392,39.9295,北京市,官园,颗粒物(PM10),85,119,160,20,50,53,53,68,63,12,43,3,4,0.4,0.7
2025-11-30T2000,1007A,116.2878,39.9611,北京市,海淀万柳,颗粒物(PM10),73,96,136,16,42,47,47,61,58,16,37,3,4,0.3,0.6
2025-11-30T2000,1008A,116.6636,40.135,北京市,顺义新城,颗粒物(PM10),101,152,128,33,40,55,55,66,64,6,41,3,4,0.3,0.6
2025-11-30T2000,1009A,116.6275,40.3275,北京市,怀柔镇,颗粒物(PM10),98,146,97,25,30,59,59,69,66,2,18,4,5,0.4,0.6
2025-11-30T2000,1010A,116.2296,40.217,北京市,昌平镇,颗粒物(PM10),74,98,112,16,33,55,55,67,64,5,23,3,4,0.3,0.4
2025-11-30T2000,1011A,116.3966,39.9821,北京市,奥体中心,颗粒物(PM10),87,123,138,21,48,58,58,70,66,13,48,2,4,0.4,0.7
2025-11-30T2000,3281A,115.9718,40.4529,北京市,延庆夏都,颗粒物(PM10),70,89,120,18,33,60,60,72,66,3,22,3,2,0.4,0.6
2025-11-30T2000,3418A,116.8336,40.4095,北京市,密云新城,颗粒物(PM10),103,155,82,23,23,55,55,66,64,2,18,2,2,0.5,0.5
2025-11-30T2000,3671A,116.088,39.9726,北京市,门头沟三家店,颗粒物(PM10),66,81,133,14,37,61,61,69,65,3,26,1,1,0.4,0.6
2025-11-30T2000,3672A,116.1541,39.8204,北京市,丰台云岗,颗粒物(PM10),64,77,155,13,43,58,58,72,67,9,38,1,2,0.0,0.2
2025-11-30T2000,3673A,116.6804,39.9081,北京市,通州东关,颗粒物(PM10),94,137,153,20,55,55,55,68,64,11,49,4,6,0.3,0.6
2025-11-30T2000,3674A,115.9577,39.7603,北京市,房山燕山,颗粒物(PM10),62,74,145,14,45,59,59,69,65,6,18,2,2,0.4,0.5
2025-11-30T2000,3675A,116.4672,39.7733,北京市,大兴旧宫,颗粒物(PM10),78,105,151,17,52,56,56,70,66,11,41,3,4,0.2,0.6
2025-11-30T2000,3694A,115.986,40.4563,北京市,延庆石河营,颗粒物(PM10),72,93,113,16,30,49,49,64,56,10,23,2,2,0.4,0.6
2025-11-30T2000,3695A,116.6151,40.3053,北京市,怀柔新城,颗粒物(PM10),101,151,101,26,32,60,60,73,70,2,13,2,2,0.2,0.3
2025-11-30T2000,3696A,116.2545,39.8768,北京市,丰台小屯,颗粒物(PM10),72,94,145,19,49,53,53,60,58,11,45,2,3,0.3,0.6
2025-11-30T2000,3697A,116.84,40.3844,北京市,密云镇,颗粒物(PM10),100,150,90,24,27,49,49,65,62,11,31,1,2,0.3,0.5
2025-11-30T2000,4182A,116.1942,39.9158,北京市,八角北路9号,颗粒物(PM10),67,83,156,12,46,49,49,52,51,9,38,3,3,0.0,0.4
2025-11-30T2000,4194A,117.0790,40.1518,北京市,洳河巡河路,颗粒物(PM10),86,122,113,18,35,55,55,65,63,8,25,3,3,0.3,0.7
2025-11-30T2000,1761A,123.8275,41.3064,本溪市,大峪,细颗粒物(PM2.5),58,64,50,41,21,26,26,26,26,24,33,8,10,0.6,0.7
2025-11-30T2000,1762A,123.7567,41.3325,本溪市,溪湖,细颗粒物(PM2.5),64,64,56,46,24,32,32,29,29,20,30,8,10,0.7,0.8
2025-11-30T2000,1763A,123.7169,41.3094,本溪市,彩屯,细颗粒物(PM2.5),89,,50,66,36,27,27,23,23,21,30,6,9,0.8,1
2025-11-30T2000,1764A,123.7669,41.2864,本溪市,东明,细颗粒物(PM2.5),73,55,48,53,23,31,31,29,29,19,33,8,10,0.6,0.7
2025-11-30T2000,1765A,123.7992,41.2664,本溪市,新立屯,细颗粒物(PM2.5),58,49,33,41,18,33,33,32,32,22,37,6,7,0.5,0.5
2025-11-30T2000,1766A,123.8142,41.3472,本溪市,威宁,颗粒物(PM10),60,69,77,32,25,25,25,25,25,17,31,6,7,0.5,0.7
2025-11-30T2000,2587A,105.2864,27.3125,毕节市,八中,细颗粒物(PM2.5),186,169,171,140,134,32,32,66,63,28,17,8,8,1.1,0.9
2025-11-30T2000,2588A,105.31,27.2944,毕节市,师专,细颗粒物(PM2.5),158,142,142,120,117,38,38,66,64,31,20,8,8,1.3,1.1
2025-11-30T2000,4263A,105.3688,27.3598,毕节市,工业大道,细颗粒物(PM2.5),208,200,148,158,119,32,32,73,68,33,20,12,11,1.6,1.3
2025-11-30T2000,1629A,118.0018,37.3617,滨州市,第二水厂,颗粒物(PM10),92,134,256,25,106,50,50,54,52,25,70,12,22,0.5,1.1
2025-11-30T2000,1630A,117.9776,37.393,滨州市,北中新校,颗粒物(PM10),79,107,209,14,99,45,45,52,48,32,69,10,17,0.3,0.9
2025-11-30T2000,3514A,117.9378,37.3956,滨州市,中海酒店,颗粒物(PM10),101,151,226,27,103,43,43,62,50,27,55,11,17,0.5,0.8
2025-11-30T2000,3515A,117.9378,37.3553,滨州市,开发区一中,颗粒物(PM10),109,168,265,24,110,51,51,62,60,26,65,13,27,0.7,1.2
2025-11-30T2000,3516A,118.0917,37.694,滨州市,金海六路,颗粒物(PM10),76,102,255,14,90,53,53,59,58,21,63,12,23,0.7,0.9
2025-11-30T2000,4028A,117.9956,37.3753,滨州市,滨州市西街道办事处,颗粒物(PM10),90,129,246,24,107,47,47,54,50,21,56,11,18,0.6,1.1
2025-11-30T2000,2311A,115.8072,33.8399,亳州市,污水处理厂,细颗粒物(PM2.5),134,189,147,102,86,41,41,82,76,60,55,10,30,1.0,1
2025-11-30T2000,2312A,115.7789,33.8518,亳州市,三国揽胜宫,细颗粒物(PM2.5),139,185,155,106,91,47,47,83,80,58,53,12,13,0.8,0.8
2025-11-30T2000,3332A,115.7633,33.8034,亳州市,亳州学院,细颗粒物(PM2.5),127,166,139,96,93,65,65,86,85,44,44,9,12,0.7,0.7
2025-11-30T2000,2693A,82.0485,44.8556,博尔塔拉蒙古自治州,市党校,,31,31,36,20,17,31,31,39,32,18,16,2,2,0.5,0.5
2025-11-30T2000,2694A,82.0806,44.8969,博尔塔拉蒙古自治州,市环保局,颗粒物(PM10),58,65,46,17,21,22,22,40,24,27,14,6,5,0.6,0.6
2025-11-30T2000,1071A,116.8842,38.2991,沧州市,沧县城建局,颗粒物(PM10),71,91,226,27,115,52,52,58,58,20,57,4,16,0.3,0.8
2025-11-30T2000,1072A,116.8584,38.3254,沧州市,电视转播站,颗粒物(PM10),72,94,210,24,101,44,44,54,54,25,52,1,11,0.5,0.9
2025-11-30T2000,1073A,116.8709,38.3228,沧州市,市环保局,颗粒物(PM10),78,105,226,42,109,43,43,55,55,21,50,2,12,0.3,0.7
2025-11-30T2000,3324A,116.8136,38.3004,沧州市,河北水利电力学院,颗粒物(PM10),79,107,255,23,87,49,49,54,54,16,51,4,17,0.1,0.6
2025-11-30T2000,2622A,97.1806,31.1273,昌都市,昌都监测站,细颗粒物(PM2.5),64,58,42,46,20,21,21,70,65,65,25,4,2,1.6,0.7
2025-11-30T2000,3719A,97.1714,31.1406,昌都市,昌都会议中心,,29,29,25,15,11,64,64,79,79,10,6,3,3,0.2,0.2
2025-11-30T2000,2690A,88.1236,43.8886,昌吉回族自治州,天山天池,,,,,,,,,,,,,,,,
2025-11-30T2000,2692A,87.2717,44.0297,昌吉回族自治州,新区政务中心,细颗粒物(PM2.5),54,49,43,38,31,42,42,39,39,21,25,4,3,0.9,0.8
2025-11-30T2000,3613A,87.3095,44.0142,昌吉回族自治州,亚心广场,颗粒物(PM10),53,56,49,34,33,42,42,42,42,20,20,6,7,0.6,0.6
2025-11-30T2000,1120A,125.2863,43.9027,长春市,客车厂,细颗粒物(PM2.5),98,,40,73,33,33,33,44,43,39,25,17,10,0.5,0.4
2025-11-30T2000,1121A,125.2841,43.8463,长春市,邮电学院,细颗粒物(PM2.5),93,79,41,69,27,57,57,46,46,17,26,9,11,0.6,0.5
2025-11-30T2000,1122A,125.3716,43.8772,长春市,劳动公园,细颗粒物(PM2.5),99,95,43,74,28,45,45,40,40,22,22,10,11,0.9,0.6
2025-11-30T2000,1123A,125.3297,43.8805,长春市,园林处,细颗粒物(PM2.5),97,87,43,72,28,41,41,39,39,25,23,8,7,0.5,0.3
2025-11-30T2000,1124A,125.4605,43.79,长春市,净月潭,细颗粒物(PM2.5),107,101,41,80,30,46,46,47,47,20,16,7,7,0.7,0.4
2025-11-30T2000,1125A,125.7194,43.515,长春市,甩湾子,细颗粒物(PM2.5),118,94,31,89,26,46,46,47,47,18,11,6,5,0.3,0.1
2025-11-30T2000,1126A,125.3863,43.8447,长春市,经开区环卫处,细颗粒物(PM2.5),87,75,45,64,25,46,46,36,36,20,30,7,8,0.5,0.4
2025-11-30T2000,1127A,125.245,43.7783,长春市,高新区管委会,细颗粒物(PM2.5),105,,45,79,34,46,46,40,40,23,28,8,9,0.6,0.4
2025-11-30T2000,1128A,125.1761,43.8325,长春市,岱山公园,细颗粒物(PM2.5),113,,43,85,37,38,38,39,39,24,22,7,7,0.6,0.4
2025-11-30T2000,4281A,125.3346,43.9164,长春市,北亚泰大街1068号,细颗粒物(PM2.5),112,84,42,84,33,32,32,33,33,28,28,9,10,0.8,0.6
2025-11-30T2000,1335A,113.0833,28.2325,长沙市,经开区环保局,细颗粒物(PM2.5),65,68,74,47,46,106,106,117,117,28,32,8,10,0.7,0.6
2025-11-30T2000,1336A,112.8872,28.2189,长沙市,高开区环保局,细颗粒物(PM2.5),104,79,68,78,44,87,87,110,109,30,27,10,10,0.9,0.8
2025-11-30T2000,1337A,113.0792,28.2053,长沙市,马坡岭,"颗粒物(PM10),细颗粒物(PM2.5)",79,107,81,58,46,25,25,107,100,100,43,8,8,1.1,0.7
2025-11-30T2000,1338A,112.9394,28.19,长沙市,湖南师范大学,颗粒物(PM10),63,75,63,41,35,86,86,112,112,48,27,8,7,0.8,0.5
2025-11-30T2000,1339A,113.0178,28.1322,长沙市,雨花区环保局,细颗粒物(PM2.5),75,72,62,55,37,96,96,120,120,33,26,11,12,0.7,0.5
2025-11-30T2000,1340A,112.9792,28.2597,长沙市,伍家岭,颗粒物(PM10),86,121,106,61,56,10,10,92,80,94,49,7,7,1.4,0.9
2025-11-30T2000,1341A,113.0014,28.1944,长沙市,火车新站,细颗粒物(PM2.5),98,116,90,73,48,33,33,103,100,95,50,9,9,1.4,0.8
2025-11-30T2000,1342A,112.9844,28.1178,长沙市,天心区环保局,细颗粒物(PM2.5),64,74,64,46,37,106,106,121,121,29,28,10,10,0.7,0.6
2025-11-30T2000,1343A,112.8908,28.1308,长沙市,湖南中医药大学,颗粒物(PM10),76,102,87,48,48,22,22,97,85,77,44,8,9,1.1,0.9
2025-11-30T2000,1344A,112.9581,28.3611,长沙市,沙坪,,,,,,,,,,,,,,,,
2025-11-30T2000,1727A,113.1147,36.1547,长治市,清华站,颗粒物(PM10),52,53,77,22,28,60,60,81,81,26,35,14,14,0.5,0.5
2025-11-30T2000,1730A,113.0886,36.2125,长治市,审计局,颗粒物(PM10),57,63,76,19,31,62,62,77,77,27,39,14,17,0.4,0.5
2025-11-30T2000,1731A,113.0844,36.1856,长治市,长治八中,颗粒物(PM10),58,66,95,18,42,74,74,80,80,12,30,11,16,0.4,0.6
2025-11-30T2000,2845A,113.1569,36.1911,长治市,德盛苑,,,64,66,24,26,72,72,79,79,,17,17,13,0.7,0.5
2025-11-30T2000,3568A,113.06,36.0464,长治市,向阳小学,颗粒物(PM10),80,109,90,30,29,62,62,80,79,33,20,20,21,0.5,0.5
2025-11-30T2000,3569A,112.8792,36.3144,长治市,屯留一中,颗粒物(PM10),60,69,72,15,29,70,70,81,81,27,35,40,15,0.3,0.5
2025-11-30T2000,4189A,113.1131,36.19948,长治市,英华南巷50号,颗粒物(PM10),65,80,85,39,33,60,60,79,79,29,33,11,15,0.8,0.7
2025-11-30T2000,4190A,113.2367,36.3344,长治市,学府街1号,颗粒物(PM10),57,64,103,16,40,73,73,79,79,12,43,4,16,0.4,1.2
2025-11-30T2000,1854A,111.6975,28.9703,常德市,市二中,细颗粒物(PM2.5),90,126,91,67,61,105,105,119,119,20,22,9,9,0.6,0.5
2025-11-30T2000,1857A,111.7158,29.1456,常德市,白鹤山,,,,,,,,,,,,,,,,
2025-11-30T2000,3138A,111.7153,29.0289,常德市,武陵区永安,细颗粒物(PM2.5),104,123,104,78,69,120,120,123,123,10,16,12,13,0.6,0.6
2025-11-30T2000,3139A,111.6892,28.9881,常德市,鼎城区玉霞,细颗粒物(PM2.5),103,110,90,77,66,118,118,126,126,14,18,11,10,0.7,0.6
2025-11-30T2000,3140A,111.6625,29.0531,常德市,武陵区长庚,细颗粒物(PM2.5),118,119,105,89,73,112,112,125,125,18,23,8,9,0.5,0.5
2025-11-30T2000,1196A,119.9633,31.762,常州市,市监测站,细颗粒物(PM2.5),79,95,135,58,72,23,23,92,84,97,71,6,13,1.1,0.9
2025-11-30T2000,1200A,119.9468,31.7069,常州市,武进监测站,细颗粒物(PM2.5),100,118,123,75,63,17,17,108,98,102,58,9,21,0.8,0.5
2025-11-30T2000,1201A,119.9255,31.9087,常州市,安家,细颗粒物(PM2.5),112,149,144,84,77,4,4,102,75,127,78,16,16,0.7,0.7
2025-11-30T2000,3002A,119.9805,31.8174,常州市,行政中心,细颗粒物(PM2.5),74,90,117,54,66,59,59,97,96,61,59,9,18,0.8,0.8
2025-11-30T2000,3003A,120.0522,31.7748,常州市,经开区,颗粒物(PM10),64,78,144,39,65,68,68,106,105,50,62,14,19,0.6,0.7
2025-11-30T2000,3010A,119.9025,31.7964,常州市,钟楼,细颗粒物(PM2.5),87,100,120,64,61,49,49,94,91,61,60,12,17,0.8,0.8
2025-11-30T2000,3429A,119.8598,31.7066,常州市,武进经发区,细颗粒物(PM2.5),78,90,138,57,77,52,52,104,101,66,67,12,18,0.8,0.8
2025-11-30T2000,3430A,119.5826,31.7245,常州市,金坛城区,细颗粒物(PM2.5),78,94,110,57,62,88,88,108,108,38,50,11,11,1.3,0.9
2025-11-30T2000,2220A,120.4318,41.5881,朝阳市,西梁,细颗粒物(PM2.5),80,69,46,59,29,13,13,40,35,39,28,9,10,1.1,0.9
2025-11-30T2000,2221A,120.4521,41.5646,朝阳市,河畔小区,,30,,37,21,27,35,35,43,42,22,26,6,9,0.6,0.8
2025-11-30T2000,2222A,120.4176,41.5648,朝阳市,八里堡,,26,26,50,10,23,39,39,40,40,16,30,6,11,0.4,0.8
2025-11-30T2000,2223A,120.3806,41.5969,朝阳市,农业园区,,15,,37,10,20,43,43,46,46,13,21,5,10,0.4,0.6
2025-11-30T2000,1705A,116.6367,23.6719,潮州市,西园路,,,,,,,,,,,,,,,,
2025-11-30T2000,3026A,116.6183,23.6608,潮州市,市政府,,26,22,62,18,30,34,34,52,49,13,15,4,4,0.5,0.5
2025-11-30T2000,4036A,116.6461,23.6761,潮州市,金山,,26,,48,18,30,48,48,66,62,8,11,1,2,0.4,0.5
2025-11-30T2000,2472A,113.0073,25.9061,郴州市,马头岭,,,,,,,,,,,,,,,,
2025-11-30T2000,2473A,113.0116,25.8226,郴州市,市职中,颗粒物(PM10),61,72,56,42,35,1,1,76,66,55,29,8,6,0.9,0.6
2025-11-30T2000,2475A,113.0383,25.8071,郴州市,市审计局,颗粒物(PM10),56,62,60,34,35,19,19,72,65,41,36,15,8,0.7,0.6
2025-11-30T2000,2476A,113.0348,25.7759,郴州市,市环保局,"颗粒物(PM10),细颗粒物(PM2.5)",55,60,50,39,27,29,29,72,67,45,38,14,9,0.5,0.5
2025-11-30T2000,4252A,113.0138,25.8011,郴州市,好美居路49号,,40,40,58,25,40,18,18,85,76,58,36,11,10,0.6,0.5
2025-11-30T2000,1431A,103.9728,30.7236,成都市,金泉两河,细颗粒物(PM2.5),124,116,124,94,108,4,4,87,83,88,49,3,4,1.3,1.2
2025-11-30T2000,1432A,104.176,30.6872,成都市,十里店,,,6,131,3,102,38,38,,,,73,,3,2.2,1.2
2025-11-30T2000,1433A,104.079,30.5706,成都市,三瓦窑,细颗粒物(PM2.5),129,144,145,98,107,32,32,101,99,86,59,4,5,1.4,1.1
2025-11-30T2000,1434A,104.1114,30.63,成都市,沙河铺,细颗粒物(PM2.5),169,134,142,128,129,10,10,70,70,88,61,5,4,2.5,1.3
2025-11-30T2000,1437A,104.0786,30.6531,成都市,君平街,细颗粒物(PM2.5),178,174,150,134,131,8,8,84,81,95,60,4,5,1.7,1.3
2025-11-30T2000,1438A,103.613,31.0283,成都市,灵岩寺,,,,,,,,,,,,,,,,
2025-11-30T2000,2880A,104.0239,30.65639,成都市,大石西路,细颗粒物(PM2.5),179,154,118,135,113,4,4,92,88,90,57,4,4,1.7,1.3
2025-11-30T2000,3136A,104.2725,30.5589,成都市,龙泉驿区区政府,细颗粒物(PM2.5),125,124,111,95,87,58,58,78,78,27,23,6,6,0.9,0.8
2025-11-30T2000,3357A,104.0106,30.6931,成都市,金博路,细颗粒物(PM2.5),127,147,140,96,108,1,1,92,87,114,63,4,5,1.9,1.2
2025-11-30T2000,3359A,104.0578,30.5225,成都市,华阳,细颗粒物(PM2.5),168,161,134,127,103,25,25,89,86,91,57,4,5,1.6,1.1
2025-11-30T2000,3488A,104.3880,30.7467,成都市,青石路225号,细颗粒物(PM2.5),94,90,135,70,110,43,43,84,82,52,42,6,6,0.8,1
2025-11-30T2000,3489A,104.0789,30.4072,成都市,科学城,细颗粒物(PM2.5),130,129,115,99,91,62,62,98,98,32,31,6,6,0.5,0.7
2025-11-30T2000,4011A,103.8506,30.6947,成都市,光华大道三段,细颗粒物(PM2.5),192,166,141,144,111,10,10,96,90,92,43,4,5,2.0,1.1
2025-11-30T2000,4224A,104.2433,30.5353,成都市,鲸龙路1057号,细颗粒物(PM2.5),160,144,116,122,104,21,21,93,88,69,46,6,6,1.2,0.9
2025-11-30T2000,1062A,117.9531,40.9081,承德市,铁路,颗粒物(PM10),62,74,52,17,20,54,54,60,59,8,26,4,6,0.2,0.6
2025-11-30T2000,1063A,117.9392,40.9763,承德市,中国银行,颗粒物(PM10),66,81,49,20,17,43,43,61,58,13,22,3,3,0.2,0.5
2025-11-30T2000,1064A,117.9503,40.928,承德市,开发区,颗粒物(PM10),69,87,55,16,21,58,58,65,64,4,24,4,7,0.1,0.5
2025-11-30T2000,1066A,117.9268,41.0026,承德市,离宫,,,,,,,,,,,,,,,,
2025-11-30T2000,4274A,117.7994,40.9605,承德市,滨河大街98号,颗粒物(PM10),65,80,55,27,15,55,55,64,62,4,22,3,4,0.2,0.4
2025-11-30T2000,2314A,117.47,30.6618,池州市,池州学院,细颗粒物(PM2.5),73,84,68,53,36,48,48,97,92,50,30,8,12,1.1,1
2025-11-30T2000,3237A,117.4918,30.6617,池州市,展览馆,颗粒物(PM10),62,73,66,43,34,21,21,92,81,49,33,6,9,0.8,1
2025-11-30T2000,3333A,117.5627,30.695,池州市,第八中学,颗粒物(PM10),57,63,68,36,33,69,69,94,89,45,38,14,10,0.8,0.9
2025-11-30T2000,3334A,117.5038,30.6243,池州市,第十二中学,"颗粒物(PM10),细颗粒物(PM2.5)",69,87,69,50,32,30,30,90,81,68,40,9,10,1.0,1.5
2025-11-30T2000,1744A,118.9233,42.2816,赤峰市,松山一中,,20,18,22,9,8,12,12,44,39,39,34,14,17,0.6,0.7
2025-11-30T2000,1745A,118.9576,42.2728,赤峰市,哈达街,,23,23,28,16,13,8,8,45,40,39,26,12,40,1.0,0.7
2025-11-30T2000,1746A,118.8788,42.2554,赤峰市,天义路,,26,26,21,18,15,32,32,48,45,23,31,6,8,0.8,0.8
2025-11-30T2000,3058A,119.2658,42.0353,赤峰市,银河街,,35,35,41,20,22,26,26,43,40,26,25,14,14,0.9,0.8
2025-11-30T2000,3286A,118.9359,42.3147,赤峰市,桥北物流园区,,24,24,15,16,13,9,9,45,35,40,25,14,11,0.7,0.5
2025-11-30T2000,2521A,107.3476,22.4136,崇左市,市环保局江州分局,颗粒物(PM10),63,76,63,37,31,81,81,85,85,16,18,3,3,0.8,0.6
2025-11-30T2000,4256A,107.3750,22.3736,崇左市,石景林东路7号,,48,48,46,33,28,86,86,96,96,22,21,10,8,0.7,0.6
2025-11-30T2000,2298A,118.3093,32.3153,滁州市,老年大学,细颗粒物(PM2.5),88,104,94,65,57,34,34,103,96,65,34,13,13,1.2,0.6
2025-11-30T2000,2299A,118.3244,32.2786,滁州市,人大宾馆,细颗粒物(PM2.5),83,112,140,61,75,52,52,98,90,58,51,7,9,0.9,0.7
2025-11-30T2000,3207A,118.3118,32.3038,滁州市,市政府原办公楼,细颗粒物(PM2.5),83,99,106,61,65,50,50,105,103,68,45,6,7,1.0,0.7
2025-11-30T2000,3331A,118.3267,32.2634,滁州市,图书馆,"颗粒物(PM10),细颗粒物(PM2.5)",78,105,114,57,68,73,73,114,108,47,38,9,12,0.7,0.6
2025-11-30T2000,2605A,101.5482,25.0441,楚雄彝族自治州,州环境监测站,,26,21,28,18,21,50,50,61,61,8,18,6,14,0.7,0.7
2025-11-30T2000,2606A,101.538,25.0492,楚雄彝族自治州,市经济开发区,,26,26,29,18,20,56,56,65,65,11,17,6,10,0.7,0.6
2025-11-30T2000,2548A,107.5277,31.2827,达州市,达州职业技术学院,,,,,,,,,,,,,,,,
2025-11-30T2000,2549A,107.5086,31.2186,达州市,市环境监测站,细颗粒物(PM2.5),107,123,94,80,65,3,3,40,36,72,41,8,8,1.4,0.9
2025-11-30T2000,2550A,107.4988,31.2132,达州市,凤凰小区,细颗粒物(PM2.5),122,161,100,92,68,5,5,45,42,80,42,9,8,2.0,0.8
2025-11-30T2000,2551A,107.5082,31.1986,达州市,达县机关宾馆,细颗粒物(PM2.5),112,134,103,84,67,3,3,34,29,63,42,6,6,1.2,0.9
2025-11-30T2000,2552A,107.4644,31.2124,达州市,市政中心,细颗粒物(PM2.5),107,155,111,80,66,3,3,43,41,74,42,8,9,1.6,0.9
2025-11-30T2000,2614A,100.1542,25.7054,大理白族自治州,大理市环境监测站,,38,,25,26,22,60,60,65,65,15,10,6,6,0.8,0.8
2025-11-30T2000,2615A,100.2171,25.5811,大理白族自治州,大理古城,,38,37,34,26,18,45,45,78,73,26,13,7,7,0.8,0.7
2025-11-30T2000,1109A,121.612,38.9741,大连市,甘井子,颗粒物(PM10),62,73,183,24,70,36,36,62,52,27,51,8,10,0.1,0.8
2025-11-30T2000,1110A,121.565,38.9511,大连市,周水子,颗粒物(PM10),61,71,176,27,72,35,35,63,52,24,47,9,9,0.4,0.9
2025-11-30T2000,1111A,121.5637,38.8845,大连市,星海三站,颗粒物(PM10),57,63,150,25,70,33,33,63,53,25,34,8,8,0.4,0.7
2025-11-30T2000,1112A,121.6302,38.9117,大连市,青泥洼桥,,49,49,164,24,69,36,36,63,52,25,43,12,14,0.5,1.1
2025-11-30T2000,1113A,121.6251,38.8638,大连市,傅家庄,颗粒物(PM10),56,62,169,23,68,36,36,65,55,22,36,12,13,0.7,1
2025-11-30T2000,1114A,121.5213,38.8661,大连市,七贤岭,颗粒物(PM10),66,81,162,25,60,36,36,66,57,22,33,8,9,0.5,0.9
2025-11-30T2000,1115A,121.2529,38.8061,大连市,旅顺,,45,45,172,17,68,44,44,67,54,11,28,6,8,0.4,0.8
2025-11-30T2000,1116A,121.7485,39.1311,大连市,金州,颗粒物(PM10),51,52,145,24,65,37,37,62,50,17,30,10,11,0.3,0.7
2025-11-30T2000,1117A,121.7811,39.0496,大连市,开发区,颗粒物(PM10),61,72,169,18,66,39,39,58,52,14,38,10,10,0.2,0.7
2025-11-30T2000,1118A,121.9762,39.0631,大连市,双D港,颗粒物(PM10),53,55,146,22,64,42,42,69,60,18,29,14,14,0.7,1.1
2025-11-30T2000,1789A,124.81117,46.03138,大庆市,大同区,细颗粒物(PM2.5),153,131,71,117,55,34,34,60,53,38,16,7,5,1.3,0.7
2025-11-30T2000,1790A,125.129,46.533,大庆市,龙凤区,细颗粒物(PM2.5),62,60,49,44,35,16,16,53,43,52,18,6,6,0.7,0.5
2025-11-30T2000,1791A,124.902,46.408,大庆市,红岗区,细颗粒物(PM2.5),58,52,49,41,37,21,21,54,43,40,17,5,4,0.9,0.6
2025-11-30T2000,1792A,125.153,46.586,大庆市,萨尔图区,颗粒物(PM10),56,61,44,30,30,23,23,57,48,50,21,7,7,1.4,1
2025-11-30T2000,1793A,124.9042,46.6215,大庆市,让胡路区,细颗粒物(PM2.5),77,72,49,56,42,20,20,60,47,41,12,8,7,0.7,0.4
2025-11-30T2000,3481A,125.141,46.634,大庆市,萨区政府监测点,,42,42,43,17,22,27,27,52,40,33,12,8,8,0.5,0.2
2025-11-30T2000,1721A,113.3819,40.1097,大同市,果树场,颗粒物(PM10),56,62,172,11,44,34,34,74,57,36,21,7,8,0.9,0.9
2025-11-30T2000,1723A,113.2994,40.0758,大同市,云冈宾馆,颗粒物(PM10),74,97,202,15,37,50,50,67,58,12,13,5,6,0.4,0.4
2025-11-30T2000,1724A,113.3444,40.0917,大同市,大同大学,颗粒物(PM10),72,94,193,25,39,57,57,77,67,14,19,4,6,0.5,0.5
2025-11-30T2000,1725A,113.2661,40.1269,大同市,安家小村,颗粒物(PM10),67,84,186,20,49,54,54,68,60,12,9,8,8,0.4,0.3
2025-11-30T2000,1726A,113.2711,40.0844,大同市,教育学院,颗粒物(PM10),77,103,210,27,41,46,46,70,60,18,15,6,5,0.5,0.5
2025-11-30T2000,3282A,113.3397,40.0597,大同市,大同市卫生学校,颗粒物(PM10),73,96,204,20,41,50,50,70,60,15,21,4,6,0.4,0.4
2025-11-30T2000,3565A,113.1367,40.1122,大同市,云冈站,颗粒物(PM10),65,79,207,11,42,41,41,71,61,15,14,4,5,0.4,0.4
2025-11-30T2000,3566A,113.1186,40.2556,大同市,图书馆,颗粒物(PM10),80,110,199,17,44,53,53,73,65,6,9,3,4,0.5,0.5
2025-11-30T2000,3567A,113.5931,40.0461,大同市,区一中,颗粒物(PM10),83,116,210,30,43,36,36,72,61,30,17,8,11,0.5,0.5
2025-11-30T2000,4199A,113.2798,40.0997,大同市,魏都大道141号,颗粒物(PM10),76,101,210,15,38,52,52,72,61,13,14,3,4,0.6,0.5
2025-11-30T2000,2269A,124.1069,50.4097,大兴安岭地区,科技局,,20,19,37,14,24,49,49,53,50,2,5,4,5,0.2,0.2
2025-11-30T2000,3663A,124.1164,50.4278,大兴安岭地区,红旗社区,,17,6,16,3,18,52,52,56,53,2,4,5,5,0.3,0.3
2025-11-30T2000,1600A,124.3303,40.0625,丹东市,江湾东路,,45,45,79,23,41,51,51,36,36,17,25,7,9,0.7,1.1
2025-11-30T2000,1601A,124.4256,40.1503,丹东市,临江后街,颗粒物(PM10),51,51,76,20,32,44,44,32,32,16,22,7,7,0.7,0.8
2025-11-30T2000,1602A,124.3933,40.1461,丹东市,元宝山,,42,42,66,23,35,48,48,32,32,12,21,6,8,0.8,1
2025-11-30T2000,1603A,124.3633,40.1092,丹东市,民主桥,颗粒物(PM10),53,56,81,16,35,47,47,33,33,19,27,6,8,0.7,0.8
2025-11-30T2000,3541A,109.5726,19.5167,儋州市,第一中学子站,,19,9,41,3,19,59,59,75,54,4,8,2,2,0.5,0.6
2025-11-30T2000,3542A,109.5567,19.5187,儋州市,东坡学校子站,,20,7,37,3,19,62,62,82,58,6,9,3,3,0.3,0.5
2025-11-30T2000,2616A,98.5842,24.428,德宏傣族景颇族自治州,德宏州监测站,细颗粒物(PM2.5),70,80,49,51,36,38,38,86,83,39,20,8,9,1.1,0.7
2025-11-30T2000,3677A,98.5881,24.4368,德宏傣族景颇族自治州,芒市人民政府综合楼,颗粒物(PM10),63,75,51,29,32,56,56,79,79,22,17,8,7,0.9,0.8
2025-11-30T2000,1901A,104.4239,31.1208,德阳市,东山公园,细颗粒物(PM2.5),153,131,138,117,119,82,82,99,99,34,33,3,3,1.1,1.1
2025-11-30T2000,1902A,104.3826,31.1317,德阳市,西小区,细颗粒物(PM2.5),168,164,164,127,124,26,26,69,69,89,54,6,7,1.2,1
2025-11-30T2000,1904A,104.3553,31.1091,德阳市,耐火材料厂,细颗粒物(PM2.5),182,167,156,137,135,30,30,72,72,86,55,5,6,1.3,1.3
2025-11-30T2000,3639A,104.4019,31.1244,德阳市,市教育局,细颗粒物(PM2.5),172,130,130,130,118,0,0,66,64,104,50,2,3,1.5,1.1
2025-11-30T2000,1622A,116.3032,37.4674,德州市,儿童乐园,颗粒物(PM10),179,307,313,78,127,52,52,61,59,27,57,10,20,0.6,1.1
2025-11-30T2000,1624A,116.2991,37.4451,德州市,监理站,颗粒物(PM10),185,320,315,56,126,59,59,70,68,27,54,10,20,0.5,1
2025-11-30T2000,3066A,116.2721,37.4379,德州市,九衢泉纯净水厂,颗粒物(PM10),181,312,299,58,135,56,56,64,64,27,62,10,21,0.7,1.3
2025-11-30T2000,3371A,116.3728,37.4403,德州市,开发区人民医院,颗粒物(PM10),238,376,308,75,117,44,44,61,55,40,66,12,25,0.6,1
2025-11-30T2000,3511A,116.5652,37.3319,德州市,陵城艺术中心,颗粒物(PM10),328,442,308,85,119,30,30,56,50,50,73,8,21,0.7,1.1
2025-11-30T2000,4292A,116.3525,37.4209,德州市,新河东路,颗粒物(PM10),230,371,315,83,129,46,46,59,57,47,87,10,21,0.6,1.1
2025-11-30T2000,2621A,99.7056,27.8317,迪庆藏族自治州,迪庆州站,,40,40,32,17,18,66,66,83,82,15,10,6,6,0.9,0.8
2025-11-30T2000,3180A,99.7136,27.8094,迪庆藏族自治州,质量技术监督局,,30,25,32,21,16,71,71,86,86,9,14,7,8,0.5,0.6
2025-11-30T2000,4257A,104.6092,35.5962,定西市,将台街,颗粒物(PM10),87,124,103,44,45,57,57,81,80,26,30,14,15,0.4,0.8
2025-11-30T2000,1371A,113.1294,23.0067,佛山市,湾梁,颗粒物(PM10),51,51,79,27,39,41,41,74,63,42,74,6,8,0.7,0.9
2025-11-30T2000,1372A,113.1083,23.0478,佛山市,华材职中,,44,44,84,27,40,47,47,74,70,37,72,5,7,0.5,0.7
2025-11-30T2000,1373A,113.144,23.0453,佛山市,南海气象局,,49,41,83,34,48,44,44,69,64,38,72,6,8,0.7,0.8
2025-11-30T2000,1374A,113.2881,22.8094,佛山市,顺德苏岗,颗粒物(PM10),51,52,72,19,37,29,29,77,62,45,67,7,9,0.5,0.6
2025-11-30T2000,1376A,112.8383,22.8678,佛山市,高明孔堂,颗粒物(PM10),58,65,89,40,50,54,54,67,67,39,62,6,10,0.5,0.5
2025-11-30T2000,1377A,112.8836,23.1588,佛山市,三水监测站,"颗粒物(PM10),细颗粒物(PM2.5)",52,53,91,36,49,71,71,82,82,32,66,6,14,0.7,0.8
2025-11-30T2000,1378A,112.867,23.185,佛山市,三水云东海,颗粒物(PM10),57,64,71,39,43,53,53,76,74,36,63,5,10,0.7,0.8
2025-11-30T2000,3625A,113.2544,22.7642,佛山市,容桂街道办,,46,46,88,29,43,34,34,84,71,48,72,5,8,0.8,0.9
2025-11-30T2000,1280A,119.3903,26.0543,福州市,鼓山,,,,44,,14,,,76,,,9,,1,,0.5
2025-11-30T2000,1282A,119.2681,26.0504,福州市,师大,,48,48,63,17,25,60,60,79,78,24,33,6,7,0.3,0.3
2025-11-30T2000,1283A,119.2984,26.1028,福州市,五四北路,,46,43,60,32,24,41,41,79,73,41,27,4,5,0.6,0.4
2025-11-30T2000,1284A,119.2648,26.0768,福州市,杨桥西路,颗粒物(PM10),58,65,62,30,24,25,25,80,72,51,27,4,5,0.6,0.4
2025-11-30T2000,1285A,119.317,26.0746,福州市,紫阳,颗粒物(PM10),75,99,69,47,28,25,25,68,59,57,35,6,7,0.9,0.5
2025-11-30T2000,3048A,119.5799,26.0936,福州市,九龙,,23,23,43,8,14,67,67,91,89,8,17,3,3,0.3,0.3
2025-11-30T2000,3526A,119.5189,25.9664,福州市,吴航,,36,36,55,15,22,50,50,82,80,21,28,6,7,0.5,0.5
2025-11-30T2000,1755A,123.7977,41.8491,抚顺市,望花区,,38,36,51,26,26,41,41,33,33,13,26,8,8,0.6,0.6
2025-11-30T2000,1756A,123.9161,41.8822,抚顺市,顺城区,,46,46,46,26,25,44,44,31,31,14,29,5,7,0.7,0.7
2025-11-30T2000,1757A,124.0436,41.8611,抚顺市,东洲区,,43,42,47,30,21,39,39,38,37,13,19,4,6,0.6,0.6
2025-11-30T2000,1758A,123.9247,41.8642,抚顺市,新抚区,,,,51,,24,,,25,25,,27,,8,,0.7
2025-11-30T2000,1759A,124.0972,41.8961,抚顺市,大伙房水库,,46,38,39,32,20,48,48,47,46,12,20,9,10,0.7,0.6
2025-11-30T2000,1760A,123.7086,41.8391,抚顺市,沈抚新城,,36,35,45,25,23,38,38,40,38,16,24,6,8,0.5,0.6
2025-11-30T2000,2376A,116.2127,28.0814,抚州市,桐源党溪,,,,,,,,,,,,,,,,
2025-11-30T2000,2377A,116.3544,27.9831,抚州市,市站,颗粒物(PM10),66,82,64,42,33,56,56,92,90,37,31,7,6,1.3,1.1
2025-11-30T2000,2378A,116.3565,27.963,抚州市,血防站,颗粒物(PM10),57,63,57,32,28,80,80,98,98,26,35,8,5,1.6,1.4
2025-11-30T2000,2379A,116.3564,28.0007,抚州市,采茶剧团,细颗粒物(PM2.5),69,80,62,50,33,84,84,98,98,17,28,9,4,0.8,0.7
2025-11-30T2000,2380A,116.385,27.9647,抚州市,医学分院,颗粒物(PM10),72,94,60,50,26,65,65,98,98,35,28,8,6,1.4,1.3
2025-11-30T2000,2207A,121.6094,41.998,阜新市,工业园区,,26,26,34,10,13,32,32,42,41,18,19,7,8,0.3,0.4
2025-11-30T2000,2208A,121.6697,42.0279,阜新市,长青街,,19,14,17,13,9,34,34,41,41,11,14,6,8,0.4,0.4
2025-11-30T2000,2209A,121.6673,42.0705,阜新市,农业园区,,29,29,19,12,6,33,33,40,40,13,10,4,5,0.4,0.4
2025-11-30T2000,2210A,121.6717,42.0224,阜新市,东苑,,32,32,31,11,12,34,34,43,42,16,16,8,10,0.6,0.7
2025-11-30T2000,2211A,121.6506,42.0498,阜新市,玉龙新城,,31,31,29,17,10,25,25,42,39,23,21,8,9,0.5,0.5
2025-11-30T2000,2301A,115.8277,32.8929,阜阳市,市监测站,细颗粒物(PM2.5),119,148,99,90,58,63,63,113,107,38,27,8,7,0.6,0.6
2025-11-30T2000,2303A,115.8554,32.8605,阜阳市,开发区,颗粒物(PM10),101,152,104,64,58,57,57,115,110,53,31,8,7,0.6,0.5
2025-11-30T2000,2875A,115.784,32.8892,阜阳市,阜阳职业技术学院,细颗粒物(PM2.5),105,149,90,79,46,64,64,118,110,44,26,10,9,0.6,0.5
2025-11-30T2000,3468A,115.7901,32.8613,阜阳市,市规划展馆,细颗粒物(PM2.5),109,150,104,82,59,68,68,124,118,40,23,10,9,0.5,0.8
2025-11-30T2000,3469A,115.836,32.9183,阜阳市,枣园社区,细颗粒物(PM2.5),125,158,108,95,66,66,66,119,113,42,44,7,5,0.5,0.5
2025-11-30T2000,2669A,102.9099,34.9841,甘南藏族自治州,州政府,颗粒物(PM10),75,100,63,39,32,6,6,68,63,70,38,16,11,1.0,0.8
2025-11-30T2000,3380A,102.8914,34.9617,甘南藏族自治州,甘肃民族师范学院,颗粒物(PM10),90,130,83,25,8,0,0,58,53,62,33,8,9,0.7,0.6
2025-11-30T2000,2570A,101.9603,30.0475,甘孜藏族自治州,水桥子,,24,19,20,3,5,76,76,83,83,11,22,9,9,0.4,0.3
2025-11-30T2000,3065A,101.9533,29.9972,甘孜藏族自治州,州环保局,,34,34,17,3,4,57,57,74,74,18,14,6,6,0.4,0.3
2025-11-30T2000,3414A,115.8347,28.932,赣江新区,桑海产业园,颗粒物(PM10),64,78,78,43,36,59,59,98,97,51,42,15,16,0.7,0.7
2025-11-30T2000,2362A,114.9017,25.9149,赣州市,通天岩,颗粒物(PM10),54,57,44,30,22,59,59,114,103,15,13,17,19,1.6,1.5
2025-11-30T2000,2363A,114.9367,25.8664,赣州市,地委,颗粒物(PM10),64,78,62,38,32,7,7,92,82,92,41,8,9,1.2,0.8
2025-11-30T2000,2364A,114.9461,25.8481,赣州市,气象台,颗粒物(PM10),79,108,67,29,25,7,7,88,76,103,54,7,7,1.6,0.9
2025-11-30T2000,2365A,114.9322,25.8333,赣州市,市图书馆,颗粒物(PM10),83,115,70,44,32,3,3,88,78,103,52,4,4,1.3,0.6
2025-11-30T2000,2366A,114.8905,25.8471,赣州市,华坚鞋城,颗粒物(PM10),80,109,93,46,40,7,7,77,66,106,61,8,10,1.5,0.8
2025-11-30T2000,3109A,115.0093,25.8613,赣州市,赣县区卫计委,细颗粒物(PM2.5),69,86,62,50,33,9,9,88,78,65,31,7,8,0.9,0.6
2025-11-30T2000,2683A,106.2319,36.1417,固原市,马园,,,,,,,,,,,,,,,,
2025-11-30T2000,2684A,106.2792,36.0022,固原市,监测站,颗粒物(PM10),148,246,173,108,43,10,10,69,56,66,26,12,6,1.3,0.7
2025-11-30T2000,2685A,106.2375,36.0211,固原市,新区,颗粒物(PM10),148,246,174,84,52,6,6,69,50,71,28,5,5,0.9,0.5
2025-11-30T2000,3522A,106.2177,35.9959,固原市,原州区十五小,颗粒物(PM10),151,251,171,83,51,32,32,67,56,43,20,7,7,0.6,0.3
2025-11-30T2000,2543A,106.6308,30.5278,广安市,小平旧居,,,,,,,,,,,,,,,,
2025-11-30T2000,2544A,106.6303,30.4576,广安市,市委,细颗粒物(PM2.5),199,199,118,149,99,13,13,73,69,87,40,4,4,1.6,1
2025-11-30T2000,2545A,106.6271,30.4663,广安市,友谊中学,细颗粒物(PM2.5),163,168,110,124,86,9,9,71,68,73,34,8,7,1.5,0.9
2025-11-30T2000,2547A,106.6388,30.4551,广安市,广电花园,细颗粒物(PM2.5),185,,100,139,98,36,36,68,68,47,29,4,3,1.2,1
2025-11-30T2000,2902A,106.6351,30.4865,广安市,北辰小学,细颗粒物(PM2.5),155,144,108,118,91,39,39,72,72,32,22,14,14,1.0,1
2025-11-30T2000,2523A,105.8945,32.4535,广元市,黑石坡,,,,,,,,,,,,,,,,
2025-11-30T2000,2524A,105.821,32.4444,广元市,老城,颗粒物(PM10),56,61,68,23,44,6,6,66,58,73,43,2,5,0.5,0.8
2025-11-30T2000,2526A,105.8628,32.4287,广元市,监测站,,48,48,48,24,39,38,38,68,66,31,32,5,6,0.6,0.8
2025-11-30T2000,3617A,105.8047,32.4166,广元市,经开区,颗粒物(PM10),55,59,73,28,46,2,2,52,48,68,38,2,6,0.9,0.9
2025-11-30T2000,1345A,113.2347,23.1423,广州市,广雅中学,颗粒物(PM10),54,58,96,30,45,25,25,62,56,56,77,5,7,0.9,1.1
2025-11-30T2000,1346A,113.2612,23.105,广州市,市五中,,45,45,76,16,40,57,57,75,70,30,81,7,9,0.7,0.9
2025-11-30T2000,1348A,113.3478,23.0916,广州市,广东商学院,,46,46,74,31,40,56,56,73,69,27,69,4,7,0.6,0.7
2025-11-30T2000,1349A,113.4332,23.1047,广州市,市八十六中,,40,40,68,20,38,48,48,67,65,24,65,6,10,0.5,0.6
2025-11-30T2000,1350A,113.3505,22.9483,广州市,番禺中学,,45,,99,31,53,36,36,67,62,34,65,4,9,0.5,0.6
2025-11-30T2000,1351A,113.2146,23.3916,广州市,花都师范,颗粒物(PM10),59,68,80,38,37,50,50,72,69,40,74,4,7,0.5,0.5
2025-11-30T2000,1352A,113.2597,23.1331,广州市,市监测站,,45,45,94,19,35,45,45,77,70,41,76,6,8,0.3,0.6
2025-11-30T2000,1353A,113.5618,23.312,广州市,九龙镇镇龙,细颗粒物(PM2.5),62,65,72,44,34,54,54,76,72,22,44,5,5,0.4,0.4
2025-11-30T2000,1354A,113.2765,23.1544,广州市,麓湖,,36,36,53,22,30,34,34,71,63,41,64,6,8,0.5,0.6
2025-11-30T2000,1355A,113.443,23.3035,广州市,帽峰山森林公园,,,,,,,,,,,,,,,,
2025-11-30T2000,2846A,113.3221,23.1322,广州市,体育西,颗粒物(PM10),51,52,68,25,37,45,45,63,59,35,74,7,9,0.8,0.9
2025-11-30T2000,3298A,113.5717,23.5491,广州市,从化街口,颗粒物(PM10),53,56,67,36,38,52,52,81,79,25,44,5,8,0.8,0.8
2025-11-30T2000,3299A,113.3472,23.3692,广州市,白云竹料,细颗粒物(PM2.5),63,70,74,45,37,60,60,79,79,19,44,2,6,0.7,0.7
2025-11-30T2000,3300A,113.2981,23.237,广州市,白云嘉禾,颗粒物(PM10),60,69,73,36,31,42,42,69,67,41,61,6,7,0.5,0.6
2025-11-30T2000,3301A,113.4256,23.1716,广州市,黄埔科学城,,48,48,53,26,27,33,33,74,68,31,46,5,7,0.6,0.6
2025-11-30T2000,3302A,113.3942,23.0483,广州市,番禺大学城,颗粒物(PM10),63,76,88,25,42,33,33,72,67,41,70,11,14,0.4,0.6
2025-11-30T2000,3303A,113.4922,22.8168,广州市,南沙黄阁,,44,44,83,29,42,25,25,79,67,56,60,7,11,0.6,0.7
2025-11-30T2000,3304A,113.5342,22.7896,广州市,南沙街,,39,39,78,27,40,30,30,74,65,41,54,4,7,0.6,0.6
2025-11-30T2000,3443A,113.2902,23.5544,广州市,花都梯面,颗粒物(PM10),55,60,46,32,24,49,49,91,86,36,39,4,8,0.5,0.5
2025-11-30T2000,3445A,113.7858,23.7478,广州市,从化良口,,24,24,24,16,14,32,32,70,67,29,21,6,6,0.6,0.5
2025-11-30T2000,3446A,113.8051,23.2614,广州市,增城荔城,细颗粒物(PM2.5),75,82,50,55,29,22,22,73,60,30,19,5,6,0.6,0.5
2025-11-30T2000,2505A,109.568,23.1478,贵港市,德智高中,,,,,,,,,,,,,,,,
2025-11-30T2000,2506A,109.6047,23.0666,贵港市,江南子站,细颗粒物(PM2.5),105,97,102,79,70,80,80,102,102,27,38,8,13,0.8,0.9
2025-11-30T2000,2508A,109.5669,23.1065,贵港市,荷城子站,细颗粒物(PM2.5),83,80,102,61,59,71,71,86,86,21,38,13,11,1.0,1
2025-11-30T2000,3405A,109.5886,23.1172,贵港市,新世纪学校,细颗粒物(PM2.5),85,90,94,63,55,74,74,94,94,18,36,13,9,0.6,0.6
2025-11-30T2000,4260A,109.5933,23.0951,贵港市,中山路155-3号,细颗粒物(PM2.5),69,72,94,50,59,86,86,95,95,21,38,9,12,0.6,0.7
2025-11-30T2000,1439A,106.6899,26.5998,贵阳市,马鞍山,细颗粒物(PM2.5),125,112,62,95,43,53,53,86,84,22,26,4,7,,0.6
2025-11-30T2000,1441A,106.6243,26.6266,贵阳市,鉴湖路,细颗粒物(PM2.5),107,114,60,80,28,74,74,95,92,22,15,2,7,0.4,0.4
2025-11-30T2000,1442A,106.7487,26.6343,贵阳市,燕子冲,细颗粒物(PM2.5),138,117,58,105,49,78,78,98,98,19,26,5,10,0.5,0.4
2025-11-30T2000,1443A,106.6555,26.4365,贵阳市,碧云窝,细颗粒物(PM2.5),107,114,66,80,36,83,83,100,100,21,19,6,10,0.8,1.5
2025-11-30T2000,1445A,106.7109,26.6027,贵阳市,红边门,细颗粒物(PM2.5),144,129,73,110,51,76,76,96,96,24,40,13,34,0.6,0.8
2025-11-30T2000,1446A,106.7164,26.5699,贵阳市,新华路,细颗粒物(PM2.5),138,134,80,105,46,77,77,101,96,23,39,8,17,0.8,0.8
2025-11-30T2000,1447A,106.674,26.5424,贵阳市,太慈桥,细颗粒物(PM2.5),110,97,56,83,36,84,84,94,94,21,27,6,8,0.4,0.3
2025-11-30T2000,1552A,106.805,26.3003,贵阳市,桐木岭,细颗粒物(PM2.5),122,119,56,92,32,96,96,113,113,15,6,10,11,1.1,0.8
2025-11-30T2000,4230A,106.6882,26.5695,贵阳市,花果园大街66号,细颗粒物(PM2.5),132,102,63,100,51,81,81,95,95,25,39,7,15,0.9,0.9
2025-11-30T2000,4231A,106.6873,26.5169,贵阳市,漓江路57号,细颗粒物(PM2.5),113,95,60,85,43,85,85,96,96,21,35,14,24,0.7,0.7
2025-11-30T2000,1862A,110.4144,25.3167,桂林市,电子科大尧山校区,,,,,,,,,,,,,,,,
2025-11-30T2000,1864A,110.3089,25.2708,桂林市,龙隐路小学,,,61,62,54,43,,,97,88,36,29,8,20,0.5,0.4
2025-11-30T2000,1865A,110.2869,25.2178,桂林市,八中,细颗粒物(PM2.5),99,95,67,74,48,31,31,82,75,50,31,12,16,0.9,0.7
2025-11-30T2000,3531A,110.296,25.1253,桂林市,旅游学院,,39,39,63,27,43,70,70,88,87,13,27,4,7,0.2,0.4
2025-11-30T2000,4222A,110.1835,25.2444,桂林市,环湖路276号,细颗粒物(PM2.5),67,75,77,48,48,39,39,72,69,34,49,6,20,0.3,0.3
2025-11-30T2000,4301A,110.2803,25.2773,桂林市,信义路13号,细颗粒物(PM2.5),82,76,67,60,41,41,41,83,77,41,37,7,25,0.9,0.7
2025-11-30T2000,2674A,100.2561,34.4714,果洛藏族自治州,玛沁县大武镇,细颗粒物(PM2.5),67,72,45,48,13,60,60,88,88,19,9,15,16,0.6,0.4
2025-11-30T2000,1129A,126.5422,45.755,哈尔滨市,岭北,,,,,,,,,,,,,,,,
2025-11-30T2000,1130A,126.561,45.8167,哈尔滨市,松北商大,,40,40,51,24,41,33,33,53,47,29,16,6,9,0.6,0.6
2025-11-30T2000,1131A,126.979,45.5419,哈尔滨市,阿城会宁,细颗粒物(PM2.5),67,64,84,48,49,22,22,52,38,38,20,6,4,0.9,0.6
2025-11-30T2000,1132A,126.599,45.7222,哈尔滨市,南岗学府路,,27,27,62,14,35,46,46,56,52,14,13,7,8,0.5,0.6
2025-11-30T2000,1133A,126.689,45.7733,哈尔滨市,太平宏伟公园,,49,42,51,34,40,44,44,59,55,18,7,10,12,0.6,0.5
2025-11-30T2000,1134A,126.635,45.7667,哈尔滨市,道外承德广场,,,55,77,24,41,52,52,57,55,16,14,16,9,,0.5
2025-11-30T2000,1135A,126.685,45.7319,哈尔滨市,香坊红旗大街,,46,46,65,32,40,55,55,59,57,8,10,8,7,0.8,0.6
2025-11-30T2000,1136A,126.6411,45.7258,哈尔滨市,动力和平路,,30,27,58,21,39,51,51,55,53,13,14,6,6,0.5,0.5
2025-11-30T2000,1137A,126.593,45.7478,哈尔滨市,道里建国路,,38,30,50,26,45,35,35,51,44,27,15,2,3,0.5,0.4
2025-11-30T2000,1138A,126.615,45.61,哈尔滨市,平房东轻厂,细颗粒物(PM2.5),58,64,80,41,42,3,3,46,28,63,26,14,9,0.8,0.5
2025-11-30T2000,1139A,126.595,45.9855,哈尔滨市,呼兰师专,,,,,,,,,,,,,,,,
2025-11-30T2000,1140A,126.6206,45.6842,哈尔滨市,省农科院,,33,33,65,22,42,46,46,58,56,20,18,4,3,0.5,0.5
2025-11-30T2000,2688A,93.5128,42.8172,哈密市,地区监测站,"颗粒物(PM10),细颗粒物(PM2.5)",60,69,68,43,24,29,29,55,52,36,22,12,8,0.8,0.4
2025-11-30T2000,2689A,93.4961,42.8328,哈密市,哈密师范学校,颗粒物(PM10),52,54,54,20,21,31,31,56,53,31,24,13,10,0.6,0.5
2025-11-30T2000,2671A,100.9048,36.9639,海北藏族自治州,海晏县西海镇,颗粒物(PM10),72,94,26,25,14,90,90,92,92,2,3,7,9,0.3,0.3
2025-11-30T2000,3867A,102.0738,36.5056,海东市,平安区公安北苑,颗粒物(PM10),68,86,64,37,34,58,58,75,75,31,23,54,24,0.8,0.9
2025-11-30T2000,1409A,110.576,19.9507,海口市,东寨港,,,,,,,,,,,,,,,,
2025-11-30T2000,1410A,110.3232,20.0574,海口市,海南大学,颗粒物(PM10),66,82,49,28,21,131,131,114,114,10,9,5,5,0.5,0.4
2025-11-30T2000,1411A,110.283,20.0053,海口市,秀英海南医院,颗粒物(PM10),51,52,38,20,16,104,104,99,97,12,8,6,7,0.4,0.3
2025-11-30T2000,1412A,110.338,19.9969,海口市,海南师范大学,颗粒物(PM10),52,54,42,20,18,100,100,106,100,9,9,5,5,0.4,0.4
2025-11-30T2000,1413A,110.33,20.0356,海口市,龙华路环保局宿舍,颗粒物(PM10),56,61,43,29,21,124,124,108,108,11,10,7,7,0.8,0.7
2025-11-30T2000,3539A,110.5111,19.9736,海口市,桂林洋子站,颗粒物(PM10),54,58,45,18,19,85,85,95,89,8,8,7,6,0.4,0.4
2025-11-30T2000,2673A,100.6188,36.2866,海南藏族自治州,共和县恰卜恰镇,颗粒物(PM10),57,64,31,14,18,41,41,95,89,47,23,14,13,0.5,0.6
2025-11-30T2000,2676A,97.3731,37.3753,海西蒙古族藏族自治州,德令哈市,,38,38,23,20,9,77,77,89,89,8,7,16,17,0.5,0.5
2025-11-30T2000,1048A,114.5302,36.6116,邯郸市,东污水处理厂,颗粒物(PM10),290,413,208,112,109,48,48,72,72,20,55,2,10,0.3,1.2
2025-11-30T2000,1049A,114.4918,36.5713,邯郸市,矿院,颗粒物(PM10),199,347,175,124,114,61,61,78,78,16,51,1,9,0.3,1.2
2025-11-30T2000,1050A,114.484,36.6133,邯郸市,丛台公园,颗粒物(PM10),235,374,194,102,100,58,58,80,80,15,50,5,14,0.3,1.3
2025-11-30T2000,3458A,114.7895,36.5593,邯郸市,香泉濮院小区,颗粒物(PM10),459,559,286,184,128,53,53,70,70,16,56,4,16,0.2,1.1
2025-11-30T2000,3579A,114.50634,36.77178,邯郸市,永年区实验高中,颗粒物(PM10),252,386,197,88,78,46,46,69,69,29,55,5,11,0.3,1.2
2025-11-30T2000,3580A,114.20016,36.44293,邯郸市,峰峰矿区临水派出所,颗粒物(PM10),223,366,106,124,63,69,69,90,87,18,27,5,16,0.5,0.7
2025-11-30T2000,2634A,106.9893,33.1842,汉中市,汉川机床厂子校,,,,,,,,,,,,,,,,
2025-11-30T2000,2635A,107.0154,33.0706,汉中市,市监测站,细颗粒物(PM2.5),117,112,101,88,84,22,22,63,59,69,35,7,6,1.7,1.2
2025-11-30T2000,2636A,107.0089,33.1138,汉中市,鑫源开发区,细颗粒物(PM2.5),148,126,100,113,72,43,43,78,74,62,41,8,9,1.3,1.2
2025-11-30T2000,2637A,107.007,33.0323,汉中市,南郑大河坎水厂,细颗粒物(PM2.5),134,142,100,102,79,16,16,49,46,52,30,9,9,1.5,1.2
2025-11-30T2000,1223A,120.2072,30.2111,杭州市,滨江,细颗粒物(PM2.5),114,137,89,86,48,5,5,82,70,113,54,9,9,1.3,0.7
2025-11-30T2000,1224A,120.0633,30.2747,杭州市,西溪,颗粒物(PM10),59,67,68,28,36,4,4,74,63,52,35,8,8,0.4,0.3
2025-11-30T2000,1226A,120.3417,30.3150,杭州市,下沙,细颗粒物(PM2.5),130,158,94,99,50,12,12,78,62,113,62,8,9,1.1,0.6
2025-11-30T2000,1227A,120.1269,30.2456,杭州市,卧龙桥,,48,48,63,27,35,16,16,72,63,42,32,8,9,0.5,0.5
2025-11-30T2000,1228A,120.1903,30.2692,杭州市,浙江农大,"颗粒物(PM10),细颗粒物(PM2.5)",123,196,102,93,60,5,5,68,52,111,75,10,8,1.7,0.9
2025-11-30T2000,1230A,120.1197,30.3119,杭州市,和睦小学,颗粒物(PM10),79,107,97,52,54,4,4,73,58,100,60,10,10,1.3,0.9
2025-11-30T2000,1231A,120.3019,30.4183,杭州市,临平镇,细颗粒物(PM2.5),90,104,108,67,60,11,11,77,65,95,76,8,8,1.1,0.9
2025-11-30T2000,1232A,120.2753,30.1839,杭州市,城厢镇,细颗粒物(PM2.5),80,96,94,59,48,5,5,93,70,110,56,8,9,1.0,0.5
2025-11-30T2000,1233A,120.0883,30.1808,杭州市,云栖,颗粒物(PM10),51,52,100,27,43,45,45,76,72,40,41,4,4,0.6,0.8
2025-11-30T2000,3557A,119.9464,30.0494,杭州市,镇二中,颗粒物(PM10),93,135,90,66,53,5,5,83,71,88,50,7,6,1.7,1
2025-11-30T2000,3558A,119.7183,30.2367,杭州市,市府大楼,颗粒物(PM10),140,229,76,100,36,16,16,87,74,56,28,12,10,0.5,0.5
2025-11-30T2000,3656A,120.1556,30.2864,杭州市,消防大队,细颗粒物(PM2.5),87,86,93,64,53,15,15,73,64,86,56,5,6,0.9,0.6
2025-11-30T2000,1270A,117.1959,31.7848,合肥市,明珠广场,颗粒物(PM10),67,83,102,36,48,46,46,57,57,79,79,8,8,0.8,0.9
2025-11-30T2000,1271A,117.3072,31.8764,合肥市,三里街,颗粒物(PM10),91,132,107,63,52,3,3,43,36,116,80,7,7,1.6,1.1
2025-11-30T2000,1272A,117.2588,31.8707,合肥市,琥珀山庄,颗粒物(PM10),86,122,105,55,59,17,17,66,56,96,67,7,7,1.7,1.1
2025-11-30T2000,1273A,117.1604,31.9052,合肥市,董铺水库,,,,,,,,,,,,,,,,
2025-11-30T2000,1274A,117.25,31.8571,合肥市,长江中路,颗粒物(PM10),70,90,102,46,55,59,59,67,65,56,65,9,8,0.8,0.9
2025-11-30T2000,1275A,117.266,31.9436,合肥市,庐阳区,颗粒物(PM10),71,92,102,39,46,82,82,91,91,46,69,10,10,0.8,0.9
2025-11-30T2000,1276A,117.3453,31.8616,合肥市,瑶海区,颗粒物(PM10),91,132,103,59,48,6,6,69,60,130,64,7,7,1.2,0.8
2025-11-30T2000,1277A,117.3027,31.7964,合肥市,包河区,颗粒物(PM10),78,105,96,48,52,4,4,79,68,145,89,13,12,1.0,0.9
2025-11-30T2000,1278A,117.2776,31.7385,合肥市,滨湖新区,颗粒物(PM10),89,127,91,56,50,2,2,81,76,131,54,10,8,1.2,0.8
2025-11-30T2000,1279A,117.1318,31.8403,合肥市,高新区,颗粒物(PM10),65,80,87,37,43,82,82,90,90,46,65,8,7,0.8,0.8
2025-11-30T2000,3464A,117.3803,31.9147,合肥市,高教基地,细颗粒物(PM2.5),113,134,101,85,57,9,9,80,69,88,47,7,8,0.9,0.6
2025-11-30T2000,3614A,79.924,37.0877,和田地区,地区环保局,颗粒物(PM10),145,239,172,50,45,55,55,83,81,36,24,1,8,0.8,0.8
2025-11-30T2000,3615A,79.9131,37.113,和田地区,市环保局,颗粒物(PM10),118,186,181,32,66,47,47,86,84,49,42,3,7,0.5,1.6
2025-11-30T2000,2516A,108.2011,24.715,河池市,东仁乐园,,,,,,,,,,,,,,,,
2025-11-30T2000,2517A,108.0497,24.6947,河池市,市环保站,细颗粒物(PM2.5),63,54,58,45,35,72,72,103,103,21,28,8,8,0.7,0.6
2025-11-30T2000,2518A,108.0983,24.6989,河池市,市疾控中心,细颗粒物(PM2.5),87,83,72,64,44,65,65,94,94,37,35,10,9,0.8,0.7
2025-11-30T2000,1696A,114.6778,23.7569,河源市,源西,,,,,,,,,,,,,,,,
2025-11-30T2000,1697A,114.6944,23.7586,河源市,东埔,颗粒物(PM10),55,60,50,36,30,41,41,82,77,33,31,5,8,0.9,0.5
2025-11-30T2000,1698A,114.6892,23.7233,河源市,老城,细颗粒物(PM2.5),73,70,50,53,27,55,55,85,83,24,25,6,7,0.8,0.6
2025-11-30T2000,1718A,115.4208,35.2464,菏泽市,气象局,颗粒物(PM10),161,271,186,81,105,56,56,98,97,37,47,8,9,0.6,0.7
2025-11-30T2000,3374A,115.5564,35.0891,菏泽市,定陶老年大学,颗粒物(PM10),140,229,171,85,96,51,51,86,86,50,58,12,9,0.7,0.7
2025-11-30T2000,4184A,115.4797,35.24401,菏泽市,永昌路1号,颗粒物(PM10),162,273,183,74,98,49,49,81,80,40,55,6,9,0.5,0.7
2025-11-30T2000,4193A,115.4715,35.2800,菏泽市,长城路999号,颗粒物(PM10),172,293,192,79,101,44,44,86,85,44,60,3,4,0.8,0.9
2025-11-30T2000,2514A,111.5264,24.4172,贺州市,环保小区,,49,49,56,32,39,38,38,61,60,37,33,4,7,1.2,0.8
2025-11-30T2000,2515A,111.5608,24.4078,贺州市,政协大楼,细颗粒物(PM2.5),54,54,52,38,32,30,30,55,53,41,33,6,11,0.9,0.6
2025-11-30T2000,3534A,111.4744,24.4553,贺州市,西湾,细颗粒物(PM2.5),64,48,59,46,40,6,6,58,52,45,30,5,8,1.0,0.8
2025-11-30T2000,2385A,114.17,35.9019,鹤壁市,市监测站,颗粒物(PM10),154,258,103,72,51,59,59,80,78,16,24,6,7,0.3,0.5
2025-11-30T2000,2386A,114.2956,35.7511,鹤壁市,市交警支队,颗粒物(PM10),159,267,128,65,61,46,46,68,66,26,40,1,4,0.4,0.8
2025-11-30T2000,2387A,114.2878,35.7306,鹤壁市,迎宾馆,颗粒物(PM10),236,375,137,,57,55,55,75,74,,33,,7,0.5,0.8
2025-11-30T2000,3474A,114.2617,35.6822,鹤壁市,大新区,颗粒物(PM10),149,247,129,35,58,63,63,81,81,20,42,4,7,0.4,0.8
2025-11-30T2000,3596A,114.1572,35.9603,鹤壁市,南山宾馆,颗粒物(PM10),186,322,114,58,44,59,59,85,80,16,16,4,13,0.4,0.6
2025-11-30T2000,2244A,130.2537,47.3416,鹤岗市,哈啤分公司,,45,34,34,31,27,58,58,60,59,6,11,14,15,0.6,0.6
2025-11-30T2000,2245A,130.2684,47.3086,鹤岗市,斯达机电,,25,25,39,14,21,56,56,59,56,9,13,12,14,0.7,0.7
2025-11-30T2000,2246A,130.3114,47.3388,鹤岗市,东山纸板厂,,38,38,39,21,25,44,44,60,55,23,16,13,14,0.9,0.6
2025-11-30T2000,2247A,130.1097,47.3382,鹤岗市,五号水库,,,,,,,,,,,,,,,,
2025-11-30T2000,2263A,127.4833,50.2524,黑河市,交通局,,19,,21,12,15,58,58,58,58,2,4,3,4,0.3,0.3
2025-11-30T2000,2264A,127.5144,50.2341,黑河市,环保局,,18,12,47,12,15,54,54,54,54,7,7,3,4,0.4,0.4
2025-11-30T2000,2265A,127.5291,50.2472,黑河市,大黑河岛,,,,,,,,,,,,,,,,
2025-11-30T2000,1074A,115.6838,37.7541,衡水市,电机北厂,颗粒物(PM10),169,288,303,74,109,31,31,67,62,34,48,1,11,0.3,0.7
2025-11-30T2000,1075A,115.6303,37.7316,衡水市,市监测站,颗粒物(PM10),150,250,267,70,111,42,42,71,67,29,51,9,15,0.3,0.7
2025-11-30T2000,3188A,115.6683,37.7217,衡水市,市城管局,颗粒物(PM10),173,296,313,78,106,39,39,64,62,25,55,3,10,0.4,0.8
2025-11-30T2000,3459A,115.5989,37.5491,衡水市,地表水厂,颗粒物(PM10),168,285,292,95,112,58,58,78,75,16,50,6,14,0.3,0.7
2025-11-30T2000,2456A,112.5003,26.9167,衡阳市,原169医院,,,,,,,,,,,,,,,,
2025-11-30T2000,2457A,112.6194,26.9258,衡阳市,衡阳化工总厂,细颗粒物(PM2.5),88,83,85,65,57,72,72,110,109,35,38,12,18,1.1,1
2025-11-30T2000,2458A,112.6211,26.8956,衡阳市,珠晖区环保局,颗粒物(PM10),72,93,80,48,52,48,48,98,91,63,45,9,11,1.3,1.3
2025-11-30T2000,2459A,112.6197,26.8733,衡阳市,市委党校,细颗粒物(PM2.5),63,55,88,45,64,90,90,108,108,23,40,17,23,1.0,1.3
2025-11-30T2000,2460A,112.6006,26.8919,衡阳市,市监测站,细颗粒物(PM2.5),115,147,108,87,67,31,31,92,84,82,53,10,14,1.9,1.5
2025-11-30T2000,2461A,112.5664,26.9056,衡阳市,真空机电公司,细颗粒物(PM2.5),70,86,92,51,59,58,58,96,94,58,48,11,14,1.2,1.3
2025-11-30T2000,3399A,112.6703,26.882,衡阳市,师范学院,细颗粒物(PM2.5),67,71,84,48,51,63,63,117,113,46,36,14,16,1.1,1.2
2025-11-30T2000,2608A,103.3772,23.3993,红河哈尼族彝族自治州,污水处理厂,细颗粒物(PM2.5),59,52,52,42,41,69,69,92,91,15,19,6,33,0.1,0.2
2025-11-30T2000,2609A,103.3861,23.35,红河哈尼族彝族自治州,监测站,颗粒物(PM10),57,63,46,32,32,77,77,99,98,12,12,12,14,0.2,0.3
2025-11-30T2000,3038A,103.3758,23.368,红河哈尼族彝族自治州,州图书馆,,29,28,39,20,27,72,72,93,92,10,11,7,20,0.5,0.6
2025-11-30T2000,1090A,111.6507,40.7517,呼和浩特市,呼市一监,,,12,131,3,17,58,58,72,64,7,12,4,6,,0.1
2025-11-30T2000,1091A,111.6572,40.8033,呼和浩特市,小召,,18,17,139,6,32,55,55,70,62,14,25,4,6,0.3,0.4
2025-11-30T2000,1094A,111.7516,40.8369,呼和浩特市,如意水处理厂,,18,18,123,3,28,56,56,67,60,7,23,6,7,0.2,0.2
2025-11-30T2000,1095A,111.7276,40.8062,呼和浩特市,二十九中,,21,21,139,6,36,61,61,69,65,6,24,8,11,0.2,0.3
2025-11-30T2000,1096A,111.5512,40.7866,呼和浩特市,工大金川校区,,20,15,140,3,30,61,61,76,67,9,24,5,6,0.1,0.2
2025-11-30T2000,1097A,111.717,40.7612,呼和浩特市,化肥厂生活区,,19,19,117,3,30,60,60,71,65,9,15,4,6,0.4,0.5
2025-11-30T2000,3698A,111.5968,40.8178,呼和浩特市,红旗小学,,20,6,134,3,29,61,61,72,66,6,21,7,8,0.2,0.4
2025-11-30T2000,3699A,111.6518,40.8389,呼和浩特市,海东办,,19,9,136,8,31,59,59,74,65,8,21,3,4,0.0,0.2
2025-11-30T2000,3061A,119.7512,49.1577,呼伦贝尔市,国华电力东,细颗粒物(PM2.5),63,49,24,45,19,21,21,52,44,34,15,3,4,0.8,0.5
2025-11-30T2000,4279A,119.7569,49.2222,呼伦贝尔市,伊敏大街东7号,,35,33,24,24,17,32,32,51,44,20,6,7,6,0.6,0.5
2025-11-30T2000,1250A,120.0751,30.8669,湖州市,城西水厂,细颗粒物(PM2.5),83,108,89,61,50,12,12,76,70,122,70,11,11,1.0,0.7
2025-11-30T2000,2873A,120.0830,30.8929,湖州市,仁皇山新区,颗粒物(PM10),54,57,90,30,48,70,70,84,84,35,59,8,10,1.1,0.6
2025-11-30T2000,2907A,120.1844,30.8596,湖州市,吴兴区站,颗粒物(PM10),75,100,116,54,60,60,60,91,90,77,67,8,14,1.0,1
2025-11-30T2000,3562A,120.4148,30.8538,湖州市,南浔区站,细颗粒物(PM2.5),80,100,112,59,59,60,60,100,99,60,53,8,8,0.8,0.7
2025-11-30T2000,1607A,120.9049,40.7211,葫芦岛市,龙港区,,28,28,64,10,28,34,34,41,38,17,40,13,28,0.5,0.9
2025-11-30T2000,1608A,120.8392,40.7514,葫芦岛市,化工街,,24,24,44,9,16,36,36,43,40,16,30,10,23,0.3,0.4
2025-11-30T2000,1609A,120.8341,40.7073,葫芦岛市,新区,,36,36,42,12,17,33,33,42,40,17,37,8,18,0.6,0.7
2025-11-30T2000,1610A,120.8695,40.7677,葫芦岛市,东城区,,28,28,41,12,18,35,35,46,41,20,36,8,21,0.8,0.8
2025-11-30T2000,2482A,109.5981,27.5721,怀化市,林科所,,,,,,,,,,,,,,,,
2025-11-30T2000,2483A,109.9453,27.5444,怀化市,河西地税局,颗粒物(PM10),63,76,49,44,34,24,24,81,78,44,20,6,7,0.5,0.4
2025-11-30T2000,2484A,109.9781,27.5342,怀化市,市四医院,细颗粒物(PM2.5),60,64,67,43,38,50,50,90,89,30,31,11,10,0.6,0.5
2025-11-30T2000,2485A,109.9972,27.5578,怀化市,监测楼,颗粒物(PM10),68,85,62,45,37,28,28,87,79,43,29,5,4,0.4,0.3
2025-11-30T2000,2486A,110.0394,27.583,怀化市,市委党校,细颗粒物(PM2.5),82,91,67,60,41,25,25,98,90,55,26,16,11,0.7,0.6
2025-11-30T2000,1210A,119.036,33.5981,淮安市,钵池山,细颗粒物(PM2.5),102,122,114,76,72,67,67,100,98,55,48,13,14,1.3,1.1
2025-11-30T2000,1211A,119.007,33.575,淮安市,北京南路,细颗粒物(PM2.5),112,166,118,84,67,0,0,85,71,97,61,8,10,1.9,1.2
2025-11-30T2000,1212A,118.989,33.6067,淮安市,市监测站,细颗粒物(PM2.5),138,146,125,105,67,82,82,110,110,45,46,12,13,1.3,1.2
2025-11-30T2000,1213A,119.135,33.5039,淮安市,楚州区监测站,细颗粒物(PM2.5),156,,126,119,77,,,96,96,99,64,11,12,0.7,1.1
2025-11-30T2000,3426A,118.8755,33.2894,淮安市,新华书店,细颗粒物(PM2.5),89,105,111,66,67,104,104,116,116,38,41,11,13,0.8,0.7
2025-11-30T2000,4206A,119.0288,33.6319,淮安市,承德北路606号,颗粒物(PM10),119,188,134,87,64,25,25,96,88,112,56,10,12,1.5,1.1
2025-11-30T2000,2282A,116.8004,33.975,淮北市,监测站,细颗粒物(PM2.5),155,171,152,118,97,88,88,105,104,46,43,13,11,1.0,0.9
2025-11-30T2000,2283A,116.8091,33.9007,淮北市,烈山区政府,细颗粒物(PM2.5),133,170,146,101,93,76,76,102,102,46,63,14,14,0.6,0.7
2025-11-30T2000,3330A,116.8873,33.9836,淮北市,杜集区检察院,细颗粒物(PM2.5),163,197,154,124,106,59,59,103,98,51,47,10,10,0.7,0.8
2025-11-30T2000,2240A,130.9762,45.3001,鸡西市,环保局,细颗粒物(PM2.5),54,54,57,38,34,25,25,58,49,38,17,10,7,0.7,0.7
2025-11-30T2000,2243A,130.9429,45.3039,鸡西市,第一中学,细颗粒物(PM2.5),52,52,49,36,29,33,33,63,60,34,12,8,6,0.5,0.4
2025-11-30T2000,3707A,131.0207,45.3073,鸡西市,欧美日汽修厂,细颗粒物(PM2.5),75,69,59,55,35,45,45,57,51,17,19,12,10,0.5,0.5
2025-11-30T2000,3709A,130.9967,45.3106,鸡西市,市政设施管理处,细颗粒物(PM2.5),72,63,59,52,35,38,38,61,53,23,19,11,9,0.8,0.6
2025-11-30T2000,2367A,114.9754,27.0803,吉安市,红声器材厂,颗粒物(PM10),61,72,62,33,30,43,43,108,102,59,34,10,9,1.0,0.7
2025-11-30T2000,2368A,114.9658,27.0999,吉安市,市森林工业局,颗粒物(PM10),58,65,66,34,33,56,56,90,90,41,39,11,9,0.6,0.5
2025-11-30T2000,2369A,114.99,27.1312,吉安市,市环境监测站,颗粒物(PM10),52,53,61,35,31,64,64,103,101,35,35,17,13,0.5,0.5
2025-11-30T2000,2370A,115.0093,27.0968,吉安市,青原区法院,"颗粒物(PM10),细颗粒物(PM2.5)",92,133,62,68,30,2,2,90,81,86,37,12,11,1.2,0.6
2025-11-30T2000,1772A,126.54,43.8622,吉林市,哈达湾,细颗粒物(PM2.5),73,78,45,53,22,47,47,52,44,18,13,14,12,1.0,0.8
2025-11-30T2000,1773A,126.5844,43.8358,吉林市,东局子,细颗粒物(PM2.5),88,74,46,65,25,41,41,40,38,14,15,8,9,0.8,0.7
2025-11-30T2000,1774A,126.5052,43.8245,吉林市,电力学院,细颗粒物(PM2.5),75,78,52,55,28,46,46,39,39,18,18,11,11,0.9,0.9
2025-11-30T2000,1775A,126.6133,43.8972,吉林市,江北,细颗粒物(PM2.5),93,83,46,69,30,44,44,44,44,11,12,6,7,0.9,0.7
2025-11-30T2000,1776A,126.555,43.8306,吉林市,江南公园,细颗粒物(PM2.5),82,82,42,60,23,48,48,46,41,16,18,6,7,0.6,0.5
2025-11-30T2000,1778A,126.7061,43.7133,吉林市,丰满,细颗粒物(PM2.5),119,100,30,90,20,37,37,43,36,14,9,10,10,0.8,0.6
2025-11-30T2000,2868A,126.4739,43.953,吉林市,九站,细颗粒物(PM2.5),97,99,54,72,32,27,27,42,38,47,22,10,6,1.1,0.9
2025-11-30T2000,1299A,116.9862,36.6114,济南市,科干所,颗粒物(PM10),147,244,150,83,64,43,43,90,70,45,40,10,15,0.7,0.8
2025-11-30T2000,1300A,116.9376,36.665,济南市,农科所,颗粒物(PM10),156,261,183,71,71,27,27,76,64,63,59,12,14,0.8,0.9
2025-11-30T2000,1301A,117.1265,36.6734,济南市,开发区,颗粒物(PM10),162,274,155,66,61,37,37,89,69,48,41,8,8,0.8,0.9
2025-11-30T2000,1303A,117.0624,36.6868,济南市,省种子仓库,颗粒物(PM10),175,300,197,80,85,38,38,82,68,47,52,11,12,0.7,1.1
2025-11-30T2000,1304A,116.9489,36.6447,济南市,机床二厂,颗粒物(PM10),182,313,199,98,84,,,73,65,50,55,12,20,0.6,0.9
2025-11-30T2000,1305A,117.0495,36.663,济南市,市监测站,颗粒物(PM10),169,288,173,105,76,37,37,83,66,45,47,7,8,0.5,0.8
2025-11-30T2000,1306A,116.7675,36.5484,济南市,长清党校,颗粒物(PM10),179,308,187,73,75,41,41,84,71,57,48,10,14,0.8,0.9
2025-11-30T2000,1616A,117.6795,36.229,济南市,技术学院,颗粒物(PM10),150,249,220,66,116,40,40,78,75,47,68,20,20,0.8,1.4
2025-11-30T2000,1961A,117.532,36.6868,济南市,东山小学,颗粒物(PM10),166,281,192,,81,7,7,89,66,81,47,16,15,0.9,0.9
2025-11-30T2000,3059A,117.7161,36.2049,济南市,泰兴公司,颗粒物(PM10),144,237,213,70,121,44,44,81,79,42,58,13,15,0.4,1.1
2025-11-30T2000,3064A,117.6867,36.2171,济南市,莱芜战役纪念馆,颗粒物(PM10),139,227,217,68,124,43,43,88,78,45,67,15,18,0.8,1.5
2025-11-30T2000,3494A,117.1673,36.9782,济南市,济阳区政府,颗粒物(PM10),177,303,241,63,104,28,28,66,58,54,62,11,21,0.6,1
2025-11-30T2000,3495A,117.1171,36.63,济南市,锦屏中学,颗粒物(PM10),161,271,127,51,41,47,47,92,73,38,24,9,8,0.7,0.7
2025-11-30T2000,3682A,116.9814,36.6819,济南市,济南四建,颗粒物(PM10),167,283,193,73,80,30,30,74,60,54,54,10,13,0.6,1.1
2025-11-30T2000,1653A,116.6251,35.4302,济宁市,火炬城,颗粒物(PM10),121,192,200,75,142,57,57,89,86,27,55,8,11,0.1,0.6
2025-11-30T2000,1655A,116.5491,35.4042,济宁市,电化厂,颗粒物(PM10),130,210,223,68,135,57,57,82,79,36,72,6,13,0.4,1
2025-11-30T2000,3500A,116.5814,35.3707,济宁市,北湖一中,颗粒物(PM10),113,176,185,72,137,58,58,85,82,28,60,8,12,0.5,1.1
2025-11-30T2000,3501A,116.8249,35.5593,济宁市,服务中心,颗粒物(PM10),120,190,220,78,112,42,42,77,74,38,58,9,9,0.3,0.7
2025-11-30T2000,3678A,116.5907,35.4054,济宁市,市第七中学,颗粒物(PM10),139,228,202,100,136,59,59,90,87,35,68,10,15,0.6,1
2025-11-30T2000,2255A,130.2751,46.8028,佳木斯市,佳纺,,33,30,43,23,33,40,40,52,44,18,15,5,5,0.6,0.6
2025-11-30T2000,2256A,130.3995,46.8307,佳木斯市,发电厂,,24,24,32,16,26,48,48,54,48,11,14,3,3,0.4,0.5
2025-11-30T2000,2257A,130.3258,46.7975,佳木斯市,环保局,,28,25,38,19,33,43,43,52,40,16,19,5,4,0.3,0.4
2025-11-30T2000,2258A,130.3648,46.8032,佳木斯市,十一中,,35,35,40,3,29,41,41,56,49,21,17,5,4,0.6,0.4
2025-11-30T2000,2259A,130.3794,46.7588,佳木斯市,四丰,,,,,,,,,,,,,,,,
2025-11-30T2000,1252A,120.7436,30.778,嘉兴市,清河小学,细颗粒物(PM2.5),100,144,120,75,64,5,5,83,70,104,70,6,6,1.6,0.7
2025-11-30T2000,1253A,120.726,30.7478,嘉兴市,嘉兴学院,细颗粒物(PM2.5),105,150,130,79,61,25,25,83,75,84,65,7,8,1.6,0.9
2025-11-30T2000,2872A,120.7846,30.7525,嘉兴市,南湖区残联,细颗粒物(PM2.5),75,97,121,55,61,36,36,96,89,73,56,4,6,1.0,0.8
2025-11-30T2000,3407A,120.6916,30.7739,嘉兴市,秀洲住建,"颗粒物(PM10),细颗粒物(PM2.5)",94,137,109,70,62,5,5,80,63,112,78,8,8,1.3,1
2025-11-30T2000,1945A,98.2908,39.7711,嘉峪关市,气象局,颗粒物(PM10),96,141,112,36,21,24,24,65,60,48,15,15,16,0.8,0.7
2025-11-30T2000,2884A,98.2672,39.7978,嘉峪关市,酒钢宾馆,颗粒物(PM10),93,136,112,39,24,32,32,62,58,40,13,12,16,0.8,0.7
2025-11-30T2000,3248A,98.2643,39.7724,嘉峪关市,雄关区,颗粒物(PM10),86,121,89,33,23,28,28,62,59,47,18,15,16,1.3,0.8
2025-11-30T2000,1383A,113.1064,22.6058,江门市,北街,颗粒物(PM10),57,64,91,28,48,34,34,104,89,49,68,12,9,0.7,0.9
2025-11-30T2000,1384A,113.0731,22.5835,江门市,西区,颗粒物(PM10),61,71,107,37,51,36,36,109,94,48,74,7,9,0.6,0.8
2025-11-30T2000,1385A,113.0219,22.5311,江门市,圭峰西,细颗粒物(PM2.5),53,54,87,37,48,45,45,117,107,48,63,4,7,0.6,0.7
2025-11-30T2000,1386A,113.0828,22.5947,江门市,东湖,颗粒物(PM10),59,67,89,34,49,37,37,107,94,45,66,10,11,0.5,0.7
2025-11-30T2000,3311A,113.1075,22.5647,江门市,江海富民,颗粒物(PM10),60,70,102,35,40,34,34,107,92,50,58,17,15,0.6,0.6
2025-11-30T2000,3449A,113.05,22.4667,江门市,新会银湖,颗粒物(PM10),52,53,96,35,64,26,26,92,79,52,63,10,8,0.6,0.7
2025-11-30T2000,1830A,113.1992,35.2590,焦作市,影视城,,,,70,,26,,,79,,,18,,18,,0.9
2025-11-30T2000,3335A,113.3137,35.2641,焦作市,马村街道办,颗粒物(PM10),63,75,100,20,44,79,79,85,84,8,28,6,11,0.4,0.5
2025-11-30T2000,3336A,113.2465,35.2373,焦作市,焦作技师学院,颗粒物(PM10),63,76,97,12,36,74,74,78,77,10,32,5,11,0.4,0.8
2025-11-30T2000,3477A,113.1656,35.2539,焦作市,中站许衡医院,颗粒物(PM10),76,101,88,29,38,77,77,79,79,10,19,4,11,0.2,0.6
2025-11-30T2000,3981A,113.2449,35.1803,焦作市,原李万街道办,颗粒物(PM10),88,125,116,12,38,75,75,81,80,12,28,4,10,0.3,0.6
2025-11-30T2000,4264A,113.2340,35.2190,焦作市,新安路1731号,颗粒物(PM10),66,81,110,23,54,74,74,77,77,11,30,8,15,0.5,0.8
2025-11-30T2000,4295A,113.2722,35.2121,焦作市,人民路3066号,颗粒物(PM10),63,76,100,9,33,73,73,77,77,7,31,3,9,0.4,0.7
2025-11-30T2000,1708A,116.3701,23.5345,揭阳市,新兴,细颗粒物(PM2.5),94,113,103,70,59,36,36,82,74,39,40,8,11,0.8,0.8
2025-11-30T2000,1709A,116.3264,23.5443,揭阳市,西马,细颗粒物(PM2.5),107,100,104,80,62,34,34,74,65,36,41,4,7,0.7,0.7
2025-11-30T2000,1710A,116.3611,23.5626,揭阳市,东兴,细颗粒物(PM2.5),110,96,108,83,60,35,35,74,66,40,46,7,12,1.0,0.9
2025-11-30T2000,1711A,116.4151,23.5294,揭阳市,渔湖,,50,50,98,22,48,26,26,81,71,30,42,6,8,0.7,0.9
2025-11-30T2000,3320A,116.403,23.5699,揭阳市,曲溪,细颗粒物(PM2.5),77,97,100,56,51,19,19,76,68,54,48,4,8,0.8,0.7
2025-11-30T2000,1944A,102.1692,38.5167,金昌市,天庆家园,颗粒物(PM10),142,234,219,68,56,43,43,63,58,26,10,15,16,0.7,0.5
2025-11-30T2000,4022A,102.1647,38.5371,金昌市,金川区人防中心,颗粒物(PM10),141,231,211,75,59,39,39,59,55,17,8,7,14,0.6,0.5
2025-11-30T2000,4239A,102.1930,38.5319,金昌市,长春路96号,颗粒物(PM10),147,244,213,63,47,47,47,66,63,24,8,42,21,0.6,0.5
2025-11-30T2000,1262A,119.647,29.077,金华市,十五中,细颗粒物(PM2.5),125,155,94,95,53,8,8,85,72,96,58,6,5,1.7,0.7
2025-11-30T2000,1263A,119.686,29.1029,金华市,监测站,颗粒物(PM10),85,120,105,59,51,1,1,80,65,132,76,4,4,0.9,0.6
2025-11-30T2000,3659A,119.656,29.1131,金华市,气象局,细颗粒物(PM2.5),130,170,114,99,65,4,4,74,60,113,69,6,6,1.3,0.9
2025-11-30T2000,1767A,121.1115,41.0879,锦州市,南山,,16,11,37,11,21,48,48,46,46,10,22,6,15,0.4,0.5
2025-11-30T2000,1768A,121.0604,40.8428,锦州市,开发区,,20,16,44,14,21,40,40,41,41,11,30,7,16,0.4,0.5
2025-11-30T2000,1769A,121.1836,41.1119,锦州市,百股街道,,18,,44,12,24,36,36,42,42,13,23,11,20,0.6,0.8
2025-11-30T2000,1770A,121.1178,41.1222,锦州市,天安街道,,16,12,34,11,15,45,45,45,45,7,19,8,15,0.5,0.6
2025-11-30T2000,1771A,121.1303,41.1386,锦州市,北湖公园,,17,17,39,11,19,40,40,44,44,11,20,8,15,0.6,0.7
2025-11-30T2000,2160A,112.85,35.5051,晋城市,自来水公司,颗粒物(PM10),67,83,121,14,45,78,78,76,76,11,37,2,10,0.4,1.1
2025-11-30T2000,2161A,112.8318,35.4936,晋城市,白云商贸,颗粒物(PM10),74,97,114,3,27,74,74,72,72,4,26,1,5,0.4,1
2025-11-30T2000,2162A,112.8508,35.4887,晋城市,市环保局,颗粒物(PM10),66,81,126,9,40,79,79,79,79,5,35,3,10,0.1,0.8
2025-11-30T2000,2163A,112.8676,35.4897,晋城市,技术学院,颗粒物(PM10),63,76,113,14,39,66,66,68,68,15,45,4,11,0.3,0.8
2025-11-30T2000,2165A,112.8453,35.546,晋城市,白马寺,细颗粒物(PM2.5),62,66,82,44,48,86,86,87,87,6,12,7,13,0.4,0.9
2025-11-30T2000,3620A,112.8271,35.4828,晋城市,泽州一中,,,90,112,12,37,,,80,80,8,29,3,6,0.3,0.8
2025-11-30T2000,2173A,112.7249,37.7067,晋中市,南都小区,颗粒物(PM10),65,80,142,12,38,79,79,90,87,6,32,5,14,0.3,0.7
2025-11-30T2000,2174A,112.6991,37.6982,晋中市,榆次区政府,颗粒物(PM10),69,88,140,47,56,73,73,86,82,8,31,5,14,0.5,0.8
2025-11-30T2000,2865A,112.7195,37.6828,晋中市,榆次三中,颗粒物(PM10),71,92,147,12,32,74,74,88,84,5,29,5,12,0.4,0.7
2025-11-30T2000,4200A,112.7478,37.6954,晋中市,迎宾街26号,颗粒物(PM10),74,97,144,19,36,77,77,89,86,9,30,5,13,0.4,0.6
2025-11-30T2000,2439A,112.2014,31.0481,荆门市,竹园小学,颗粒物(PM10),66,82,110,43,69,62,62,89,85,34,36,5,5,0.2,0.5
2025-11-30T2000,2440A,112.1969,30.9891,荆门市,掇刀,细颗粒物(PM2.5),64,72,112,46,73,70,70,96,94,22,31,8,6,0.4,0.6
2025-11-30T2000,2441A,112.2213,31.0386,荆门市,石化一小,颗粒物(PM10),75,100,134,42,76,57,57,84,82,34,41,8,8,0.5,1
2025-11-30T2000,3012A,112.1849,31.0362,荆门市,西山林语,颗粒物(PM10),60,70,94,35,58,74,74,88,88,20,19,8,7,0.5,0.6
2025-11-30T2000,3547A,112.1632,31.0138,荆门市,龙泉中学南校,颗粒物(PM10),63,76,114,36,66,82,82,95,94,18,22,9,10,0.6,0.7
2025-11-30T2000,1844A,112.2494,30.3197,荆州市,市图书馆,细颗粒物(PM2.5),84,82,93,62,70,88,88,112,112,25,45,8,8,1.0,1.1
2025-11-30T2000,1845A,112.2008,30.3544,荆州市,市委党校,细颗粒物(PM2.5),79,93,100,58,72,74,74,96,96,32,50,6,7,0.8,0.9
2025-11-30T2000,3194A,112.2747,30.3122,荆州市,管委会,细颗粒物(PM2.5),87,103,100,64,73,70,70,96,95,34,49,9,10,0.8,0.9
2025-11-30T2000,4268A,112.1722,30.3366,荆州市,学苑路85号,细颗粒物(PM2.5),90,97,103,67,74,81,81,116,116,28,38,2,2,0.7,0.8
2025-11-30T2000,2342A,117.3102,29.3867,景德镇市,王港中学,,,,,,,,,,,,,,,,
2025-11-30T2000,2343A,117.2117,29.2933,景德镇市,老干部活动中心,细颗粒物(PM2.5),60,63,70,43,39,21,21,72,68,48,31,9,9,1.1,0.9
2025-11-30T2000,2344A,117.1894,29.2789,景德镇市,兽医站,颗粒物(PM10),65,79,87,31,38,45,45,81,76,33,37,10,10,0.7,0.5
2025-11-30T2000,2346A,117.2461,29.2956,景德镇市,陶研所,细颗粒物(PM2.5),59,64,56,42,37,33,33,72,70,38,31,3,4,0.8,0.7
2025-11-30T2000,4289A,117.1542,29.2566,景德镇市,青少年活动中心,颗粒物(PM10),94,138,75,62,36,6,6,66,59,87,41,55,17,1.5,0.8
2025-11-30T2000,1803A,115.9872,29.6815,九江市,十里,细颗粒物(PM2.5),85,100,90,63,58,16,16,103,78,81,56,6,7,0.7,1.2
2025-11-30T2000,1804A,115.9584,29.7046,九江市,茅山头,颗粒物(PM10),76,101,85,52,54,1,1,88,72,101,58,4,7,0.8,1
2025-11-30T2000,1805A,115.9877,29.7295,九江市,西园,细颗粒物(PM2.5),83,108,91,61,49,20,20,98,81,118,75,8,8,1.4,0.8
2025-11-30T2000,1808A,115.9114,29.6038,九江市,综合工业园,细颗粒物(PM2.5),73,67,76,53,48,45,45,80,76,65,48,2,6,0.4,0.4
2025-11-30T2000,1809A,116.0721,29.7535,九江市,石化总厂,细颗粒物(PM2.5),80,93,88,59,41,27,27,100,93,81,31,8,10,2.3,0.7
2025-11-30T2000,1810A,115.9773,29.5698,九江市,庐山气象台,,,,,,,,,,,,,,,,
2025-11-30T2000,3190A,116.0254,29.6994,九江市,外国语学校,细颗粒物(PM2.5),80,84,74,59,41,24,24,94,85,96,39,10,9,1.0,0.7
2025-11-30T2000,4253A,116.0102,29.6594,九江市,莲花大道8号,细颗粒物(PM2.5),69,65,68,50,35,65,65,87,82,24,29,4,6,0.4,0.5
2025-11-30T2000,4240A,98.4958,39.7339,酒泉市,玉门东路5号,颗粒物(PM10),114,178,119,35,23,39,39,72,66,35,8,11,9,0.5,0.3
2025-11-30T2000,4241A,98.5099,39.7506,酒泉市,北大街108号,颗粒物(PM10),95,139,104,25,19,36,36,67,62,31,6,12,10,0.6,0.3
2025-11-30T2000,2698A,76.0072,39.4467,喀什地区,巡警大队,颗粒物(PM10),97,144,261,56,105,79,79,64,64,43,70,8,12,0.9,2.4
2025-11-30T2000,2699A,75.9755,39.4694,喀什地区,吾办,颗粒物(PM10),109,168,230,69,108,48,48,58,58,72,71,1,3,1.0,2.4
2025-11-30T2000,4027A,75.9483,39.4689,喀什地区,老干局,颗粒物(PM10),118,186,258,79,105,72,72,63,63,44,68,10,8,1.2,3
2025-11-30T2000,1824A,114.3389,34.7781,开封市,肿瘤医院,颗粒物(PM10),69,88,141,20,60,53,53,76,74,26,45,9,12,0.4,0.7
2025-11-30T2000,1826A,114.2885,34.7965,开封市,世纪星幼儿园,颗粒物(PM10),68,86,126,20,68,55,55,76,74,26,41,10,13,0.5,0.7
2025-11-30T2000,3147A,114.3438,34.8106,开封市,龙亭公园,颗粒物(PM10),72,94,137,14,70,51,51,73,71,30,52,9,13,0.7,1
2025-11-30T2000,3210A,114.3644,34.7964,开封市,汴京公园,颗粒物(PM10),81,112,159,21,66,52,52,76,74,38,59,9,12,0.4,0.7
2025-11-30T2000,3473A,114.2485,34.8306,开封市,技师学院,颗粒物(PM10),63,75,117,22,52,44,44,68,66,38,46,8,12,0.5,0.8
2025-11-30T2000,3592A,114.4644,34.7556,开封市,祥符区生态环境局,颗粒物(PM10),65,80,151,41,82,51,51,76,75,40,60,8,10,0.3,0.6
2025-11-30T2000,1951A,84.895,45.6094,克拉玛依市,长征新村,,33,33,18,21,12,34,34,34,34,21,20,7,6,0.5,0.4
2025-11-30T2000,1952A,84.8988,45.5893,克拉玛依市,南林小区,,31,31,19,15,11,39,39,36,36,14,15,1,2,0.2,0.1
2025-11-30T2000,1954A,84.905,44.3396,克拉玛依市,独山子区,细颗粒物(PM2.5),55,56,69,39,45,28,28,28,28,21,17,6,5,0.6,0.7
2025-11-30T2000,1955A,85.6979,46.098,克拉玛依市,乌尔禾区商贸楼,,28,24,12,19,5,44,44,50,45,14,10,7,7,0.1,0
2025-11-30T2000,3612A,85.1045,45.6899,克拉玛依市,白碱滩区新站,,29,29,16,11,11,46,46,57,45,14,7,8,6,0.4,0.3
2025-11-30T2000,2697A,76.1454,39.7142,克孜勒苏柯尔克孜自治州,市人民政府,颗粒物(PM10),89,128,111,57,49,68,68,98,98,46,18,8,11,0.4,0.3
2025-11-30T2000,3665A,76.1658,39.7157,克孜勒苏柯尔克孜自治州,克州文化中心,颗粒物(PM10),104,158,118,50,47,72,72,96,96,39,27,10,15,0.7,0.6
2025-11-30T2000,1450A,102.8204,24.8886,昆明市,呈贡新区,,45,,34,31,39,76,76,93,91,14,26,6,9,0.6,0.8
2025-11-30T2000,1451A,102.6251,24.9608,昆明市,西山森林公园,,,,,,,,,,,,,,,,
2025-11-30T2000,1452A,102.7252,25.0902,昆明市,龙泉镇,,50,50,46,19,28,3,3,74,66,60,40,3,3,0.9,0.8
2025-11-30T2000,1453A,102.7266,25.0375,昆明市,东风东路,,38,33,52,26,32,56,56,82,80,30,33,4,6,0.4,0.7
2025-11-30T2000,1454A,102.6742,25.0669,昆明市,金鼎山,颗粒物(PM10),52,54,74,34,42,17,17,75,68,60,37,5,6,1.0,1
2025-11-30T2000,1455A,102.6644,25.0401,昆明市,碧鸡广场,细颗粒物(PM2.5),67,67,50,48,33,10,10,74,67,76,36,5,7,1.1,0.7
2025-11-30T2000,3179A,102.7494,25.0119,昆明市,官渡区博物馆,,42,34,61,29,36,28,28,84,80,58,41,3,5,0.5,0.9
2025-11-30T2000,3375A,102.8017,24.8336,昆明市,青年创业园,,33,33,45,21,29,70,70,94,92,9,26,5,9,0.6,0.8
2025-11-30T2000,3550A,102.7997,24.9786,昆明市,昆明学院,,38,38,55,22,31,52,52,90,88,36,28,3,5,0.4,0.6
2025-11-30T2000,3551A,102.5967,24.6736,昆明市,晋宁区生态环境分局,细颗粒物(PM2.5),64,64,54,46,37,45,45,83,80,32,28,2,2,0.8,0.6
2025-11-30T2000,3552A,102.6678,24.9856,昆明市,云天化总部,,28,28,51,17,31,53,53,89,85,30,40,5,9,0.4,0.7
2025-11-30T2000,1456A,91.1319,29.6514,拉萨市,八廓街,,30,30,20,12,14,48,48,87,84,42,20,11,14,0.7,0.5
2025-11-30T2000,1457A,91.1221,29.6747,拉萨市,市环保局,颗粒物(PM10),51,51,34,28,21,37,37,80,77,37,26,9,10,1.3,1.2
2025-11-30T2000,1458A,91.0874,29.6475,拉萨市,区监测站,,40,25,17,17,11,26,26,84,78,80,32,7,10,0.7,0.5
2025-11-30T2000,1459A,91.1774,29.6541,拉萨市,西藏大学,,47,47,17,31,11,45,45,82,80,52,18,10,11,0.7,0.3
2025-11-30T2000,1460A,90.9798,29.6588,拉萨市,区辐射站,细颗粒物(PM2.5),73,74,30,53,19,19,19,73,69,82,32,13,8,1.4,0.6
2025-11-30T2000,1461A,91.0834,29.6292,拉萨市,拉萨火车站,,21,20,27,13,15,67,67,79,79,24,32,7,9,0.7,0.9
2025-11-30T2000,2520A,109.2203,23.7256,来宾市,来宾技工学校,细颗粒物(PM2.5),102,80,82,76,50,84,84,108,108,26,28,9,12,0.8,0.7
2025-11-30T2000,3535A,109.1781,23.7297,来宾市,兴宾区政府,细颗粒物(PM2.5),69,75,68,50,43,91,91,114,114,15,14,8,8,0.7,0.5
2025-11-30T2000,4002A,109.2416,23.7461,来宾市,中南小学,颗粒物(PM10),69,87,81,45,46,61,61,106,104,38,35,8,10,0.9,0.8
2025-11-30T2000,1477A,104.1373,35.9454,兰州市,榆中兰大校区,,,,,,,,,,,,,,,,
2025-11-30T2000,1479A,103.831,36.0464,兰州市,铁路设计院,,,,,,,,,,,,,,,,
2025-11-30T2000,3241A,103.7439,36.0842,兰州市,百合公园,颗粒物(PM10),96,141,107,64,50,5,5,48,46,75,56,15,17,0.9,1.1
2025-11-30T2000,3242A,103.9611,35.998,兰州市,和平,颗粒物(PM10),106,161,104,58,46,19,19,59,52,52,32,8,12,0.9,1
2025-11-30T2000,4236A,103.6293,36.0938,兰州市,庄浪东路808号,颗粒物(PM10),87,123,106,49,48,18,18,56,51,72,64,13,16,0.6,0.9
2025-11-30T2000,4237A,103.7251,36.1043,兰州市,安宁西路88号,颗粒物(PM10),96,141,124,48,55,25,25,58,57,63,56,9,11,0.7,1
2025-11-30T2000,4238A,103.8470,36.0676,兰州市,北滨河东路1号,颗粒物(PM10),103,156,116,44,48,33,33,73,70,64,55,11,13,0.6,1
2025-11-30T2000,3245A,103.6633,36.533,兰州新区,新区管委会,颗粒物(PM10),94,138,109,63,43,47,47,81,79,28,18,17,12,0.4,0.4
2025-11-30T2000,3246A,103.6975,36.4789,兰州新区,舟曲中学,颗粒物(PM10),104,158,120,49,36,62,62,98,95,36,18,33,20,0.5,0.4
2025-11-30T2000,1067A,116.6708,39.5111,廊坊市,药材公司,颗粒物(PM10),79,108,175,15,71,61,61,70,68,8,52,1,7,0.3,0.7
2025-11-30T2000,1068A,116.7214,39.5589,廊坊市,开发区,颗粒物(PM10),84,117,193,28,76,60,60,72,70,13,58,1,5,0.2,0.7
2025-11-30T2000,1070A,116.7244,39.5269,廊坊市,北华航天学院,颗粒物(PM10),82,113,200,17,82,60,60,71,69,10,54,1,5,0.2,0.8
2025-11-30T2000,2919A,116.7022,39.5453,廊坊市,河北工业大学,颗粒物(PM10),82,114,197,25,75,59,59,70,68,6,50,1,6,0.3,0.7
2025-11-30T2000,2535A,103.7723,29.5462,乐山市,花湖湾,,,,,,,,,,,,,,,,
2025-11-30T2000,2536A,103.7627,29.5844,乐山市,牛耳桥,细颗粒物(PM2.5),123,115,110,93,93,5,5,57,55,71,36,7,8,1.4,1
2025-11-30T2000,2537A,103.7508,29.6006,乐山市,市第三水厂,细颗粒物(PM2.5),113,105,109,85,84,2,2,51,48,86,44,7,8,1.5,1.1
2025-11-30T2000,2538A,103.7571,29.5664,乐山市,市监测站,细颗粒物(PM2.5),123,118,119,93,92,64,64,72,72,31,36,7,8,1.0,1.1
2025-11-30T2000,3361A,103.7311,29.5628,乐山市,理工大学,细颗粒物(PM2.5),114,110,112,86,91,61,61,68,68,31,33,8,9,0.8,0.9
2025-11-30T2000,2598A,100.2143,26.8576,丽江市,西南郊,,,,,,,,,,,,,,,,
2025-11-30T2000,2599A,100.2497,26.8802,丽江市,丽江古城,,48,48,30,15,14,79,79,83,83,17,12,11,9,0.7,0.6
2025-11-30T2000,2600A,100.2203,26.8906,丽江市,市中心,,32,30,20,22,13,80,80,84,84,19,14,12,8,0.7,0.6
2025-11-30T2000,1267A,119.914,28.4514,丽水市,监测站大楼,颗粒物(PM10),74,98,61,47,35,3,3,66,53,59,36,5,5,1.1,0.7
2025-11-30T2000,1268A,119.93,28.4586,丽水市,莲都小学,颗粒物(PM10),64,78,67,33,28,8,8,70,59,61,42,5,5,0.9,0.7
2025-11-30T2000,1269A,119.879,28.4231,丽水市,余庄前,,43,43,59,22,38,16,16,65,61,24,24,4,5,0.3,0.4
2025-11-30T2000,1173A,119.176,34.5885,连云港市,市环境监测站,细颗粒物(PM2.5),180,302,184,136,115,52,52,98,96,64,68,18,14,0.9,0.8
2025-11-30T2000,3000A,119.3581,34.6972,连云港市,德源药业,颗粒物(PM10),192,334,178,88,90,55,55,71,67,38,72,8,8,0.9,0.9
2025-11-30T2000,3007A,119.178,34.844,连云港市,新城一中,细颗粒物(PM2.5),152,197,231,116,162,52,52,102,100,46,69,15,16,1.1,1.2
2025-11-30T2000,3008A,119.3608,34.7519,连云港市,胡沟管理处,颗粒物(PM10),137,224,166,73,89,63,63,105,104,28,70,11,16,0.7,0.8
2025-11-30T2000,3009A,119.1478,34.5911,连云港市,矿山设计院,细颗粒物(PM2.5),178,300,193,134,112,50,50,95,93,74,78,16,11,1.3,1.4
2025-11-30T2000,3434A,119.2413,34.6539,连云港市,工贸学校,细颗粒物(PM2.5),137,190,160,104,99,62,62,116,113,37,24,15,13,0.8,0.7
2025-11-30T2000,3664A,119.4172,34.7341,连云港市,连云街道,颗粒物(PM10),92,134,157,65,89,64,64,107,107,31,44,9,11,0.7,0.7
2025-11-30T2000,2571A,102.3431,27.8099,凉山彝族自治州,青龙寺,,,,,,,,,,,,,,,,
2025-11-30T2000,2572A,102.2721,27.8415,凉山彝族自治州,邛海宾馆,颗粒物(PM10),56,62,53,38,38,71,71,91,91,24,19,10,10,1.0,1
2025-11-30T2000,2573A,102.2625,27.898,凉山彝族自治州,西昌市政府,颗粒物(PM10),84,117,65,49,39,57,57,36,,19,18,9,9,1.2,0.9
2025-11-30T2000,2574A,102.2685,27.8851,凉山彝族自治州,凉山州政府,颗粒物(PM10),77,104,65,49,38,37,37,60,60,35,23,9,8,1.5,0.9
2025-11-30T2000,4229A,102.2342,27.8859,凉山彝族自治州,凯乐南路30号,细颗粒物(PM2.5),128,138,82,97,56,11,11,72,66,84,51,10,9,1.8,1.2
2025-11-30T2000,2212A,123.2,41.1953,辽阳市,宏伟区,,35,34,52,24,24,37,37,28,26,13,23,5,9,0.5,0.7
2025-11-30T2000,2213A,123.1683,41.2495,辽阳市,新华园,,,32,51,22,24,,,22,20,14,26,4,6,0.5,0.7
2025-11-30T2000,2214A,123.2354,41.2639,辽阳市,滨河路,,32,30,54,22,26,33,33,23,23,13,30,5,10,0.3,0.6
2025-11-30T2000,2215A,123.149,41.2991,辽阳市,铁西工业园,,40,40,49,27,32,27,27,19,19,15,28,7,8,0.6,0.7
2025-11-30T2000,2227A,125.1358,42.8845,辽源市,环保局,颗粒物(PM10),68,86,70,37,17,42,42,40,40,16,17,3,3,0.5,0.5
2025-11-30T2000,3239A,125.0764,42.9078,辽源市,银鹰制药,,45,44,42,31,23,43,43,44,43,16,20,3,4,0.5,0.5
2025-11-30T2000,1625A,115.9848,36.4372,聊城市,区政府,颗粒物(PM10),183,316,216,95,106,43,43,70,68,45,62,16,17,0.7,1
2025-11-30T2000,2878A,116.0072,36.4343,聊城市,聊大东校,颗粒物(PM10),197,344,232,81,114,35,35,69,65,53,62,16,16,0.9,1
2025-11-30T2000,3200A,115.9819,36.4978,聊城市,监控中心,颗粒物(PM10),179,307,219,110,121,34,34,75,68,47,59,11,18,1.0,1.2
2025-11-30T2000,3513A,116.0445,36.4361,聊城市,九州社区,颗粒物(PM10),187,323,216,79,102,44,44,77,71,41,48,4,11,0.8,1
2025-11-30T2000,4018A,116.0567,36.4608,聊城市,星美广场,颗粒物(PM10),197,344,227,84,100,27,27,73,62,49,51,10,10,0.7,0.8
2025-11-30T2000,2632A,94.3681,29.6376,林芝市,林芝监测站,,45,45,18,26,9,8,8,72,66,65,12,10,8,0.9,0.4
2025-11-30T2000,2633A,94.3616,29.6616,林芝市,林芝人民医院,颗粒物(PM10),56,61,22,28,10,34,34,61,59,36,11,10,8,0.7,0.3
2025-11-30T2000,2603A,100.0781,23.8982,临沧市,市环保局,细颗粒物(PM2.5),125,,35,95,39,50,50,81,78,22,9,10,5,1.0,0.8
2025-11-30T2000,2604A,100.0894,23.8822,临沧市,市气象局,颗粒物(PM10),51,52,37,29,20,46,46,84,82,19,12,5,5,0.8,0.5
2025-11-30T2000,1733A,111.5531,36.0783,临汾市,临钢医院,,,,166,,59,56,56,71,71,,32,,6,0.5,1.2
2025-11-30T2000,1734A,111.5028,36.0714,临汾市,技工学校,颗粒物(PM10),70,89,160,17,67,60,60,75,74,20,40,3,9,0.4,1.1
2025-11-30T2000,1736A,111.5018,36.0855,临汾市,市委,颗粒物(PM10),64,77,177,18,68,61,61,76,76,22,42,5,10,0.4,1.1
2025-11-30T2000,3018A,111.505,36.1014,临汾市,唐尧大酒店,颗粒物(PM10),67,84,166,9,60,59,59,77,76,25,40,1,5,0.6,1.3
2025-11-30T2000,4244A,111.4879,36.0530,临汾市,启星学校,颗粒物(PM10),70,90,163,26,66,61,61,80,78,26,45,5,7,0.3,1.1
2025-11-30T2000,4271A,103.2464,35.6123,临夏回族自治州,滨河东路1号,细颗粒物(PM2.5),104,117,119,78,61,6,6,69,65,75,32,8,9,1.4,1.1
2025-11-30T2000,4310A,103.2093,35.5995,临夏回族自治州,新华街21号,"颗粒物(PM10),细颗粒物(PM2.5)",87,123,118,64,74,47,47,74,74,34,30,15,11,1.5,1.4
2025-11-30T2000,1618A,118.3429,35.0532,临沂市,沂河小区,颗粒物(PM10),168,285,250,100,179,50,50,92,90,46,86,14,18,0.8,1.4
2025-11-30T2000,1619A,118.295,35.0583,临沂市,鲁南制药厂,颗粒物(PM10),176,302,255,81,171,56,56,87,85,44,87,15,22,0.9,1.7
2025-11-30T2000,1620A,118.2794,34.9976,临沂市,新光毛纺厂,颗粒物(PM10),185,320,253,94,169,48,48,94,90,51,89,14,22,1.0,1.6
2025-11-30T2000,1621A,118.3956,35.0888,临沂市,河东保险公司,颗粒物(PM10),148,246,260,80,158,52,52,103,100,41,83,12,15,0.7,1.3
2025-11-30T2000,3370A,118.3564,35.0215,临沂市,十里堡居委,颗粒物(PM10),170,290,255,75,145,51,51,87,85,46,92,14,22,0.9,1.7
2025-11-30T2000,3496A,118.3604,35.1084,临沂市,南坊新区,颗粒物(PM10),158,266,239,83,148,58,58,102,101,41,86,13,17,0.8,1.4
2025-11-30T2000,3860A,118.3920,35.0300,临沂市,皇山花园小区,颗粒物(PM10),186,322,267,78,152,54,54,104,102,39,91,15,24,0.7,1.5
2025-11-30T2000,1870A,109.4856,24.3895,柳州市,柳东小学,细颗粒物(PM2.5),69,68,84,50,60,108,108,116,116,12,23,10,35,0.5,0.5
2025-11-30T2000,1871A,109.4157,24.3277,柳州市,环保监测站,细颗粒物(PM2.5),72,75,112,52,72,90,90,103,103,22,41,10,26,0.7,1
2025-11-30T2000,1872A,109.389,24.341,柳州市,河西水厂,"颗粒物(PM10),细颗粒物(PM2.5)",72,94,129,52,66,74,74,101,101,36,44,9,29,1.0,1
2025-11-30T2000,1873A,109.4311,24.2921,柳州市,市四中,细颗粒物(PM2.5),127,,108,96,69,78,78,103,103,34,47,13,24,0.9,1.3
2025-11-30T2000,1874A,109.4006,24.3631,柳州市,市九中,颗粒物(PM10),74,97,115,52,75,74,74,103,103,37,44,11,26,0.7,1
2025-11-30T2000,1875A,109.4958,24.3134,柳州市,古亭山,细颗粒物(PM2.5),84,87,69,62,45,52,52,106,103,39,46,10,13,0.7,0.6
2025-11-30T2000,3402A,109.5422,24.3996,柳州市,市二中,细颗粒物(PM2.5),60,62,83,43,58,73,73,104,103,20,30,9,16,1.3,1.3
2025-11-30T2000,2307A,116.5079,31.737,六安市,监测大楼,细颗粒物(PM2.5),79,94,66,58,40,74,74,103,103,39,34,6,5,0.5,0.5
2025-11-30T2000,2308A,116.4738,31.7643,六安市,皖西学院,"颗粒物(PM10),细颗粒物(PM2.5)",75,100,79,55,46,49,49,102,98,50,37,4,3,0.6,0.6
2025-11-30T2000,2309A,116.4996,31.7905,六安市,朝阳厂,细颗粒物(PM2.5),80,89,66,59,44,46,46,94,89,74,43,6,5,0.6,0.6
2025-11-30T2000,2310A,116.5567,31.7886,六安市,开发区,颗粒物(PM10),96,142,110,71,52,3,3,89,69,98,51,6,3,0.7,0.6
2025-11-30T2000,2576A,104.8,26.5892,六盘水市,窑上,细颗粒物(PM2.5),149,144,72,114,55,40,40,102,95,17,11,2,4,1.0,0.7
2025-11-30T2000,2577A,104.83,26.5917,六盘水市,黄土坡,细颗粒物(PM2.5),150,144,79,115,57,52,52,105,92,35,20,13,11,1.0,0.9
2025-11-30T2000,2578A,104.89,26.5939,六盘水市,水钢,细颗粒物(PM2.5),145,125,80,111,61,63,63,92,89,21,23,4,12,0.9,0.9
2025-11-30T2000,3593A,112.5736,34.8993,洛阳市,吉利监测站,颗粒物(PM10),82,113,100,32,39,57,57,77,72,30,26,10,9,0.6,0.6
2025-11-30T2000,3635A,112.3677,34.662,洛阳市,河科大西苑校区,颗粒物(PM10),89,128,127,45,46,42,42,74,68,40,42,13,15,1.1,0.9
2025-11-30T2000,3636A,112.4388,34.6781,洛阳市,英才小学,颗粒物(PM10),80,109,136,46,65,37,37,70,67,46,53,14,22,0.9,1.1
2025-11-30T2000,4214A,112.4600,34.6949,洛阳市,春都路1号院,颗粒物(PM10),84,117,142,30,46,61,61,69,69,22,44,12,20,0.7,0.9
2025-11-30T2000,2399A,114.051,33.5699,漯河市,三五一五工厂,颗粒物(PM10),85,120,135,52,71,47,47,78,76,37,33,12,9,0.8,0.9
2025-11-30T2000,2400A,114.0055,33.5698,漯河市,漯河大学,颗粒物(PM10),93,135,129,58,74,54,54,79,77,34,31,11,8,0.6,0.5
2025-11-30T2000,2401A,114.0138,33.5828,漯河市,市水利局,颗粒物(PM10),93,136,124,56,68,46,46,77,75,41,32,13,10,0.7,0.6
2025-11-30T2000,2402A,114.0261,33.5698,漯河市,市广电局,颗粒物(PM10),91,132,132,45,64,48,48,78,76,38,31,12,9,0.7,0.6
2025-11-30T2000,3478A,113.9749,33.5664,漯河市,市图书馆,颗粒物(PM10),95,139,137,51,67,41,41,71,69,35,27,8,7,0.8,0.7
2025-11-30T2000,4250A,114.0892,33.5882,漯河市,韶山路11号,颗粒物(PM10),87,124,127,51,68,30,30,73,66,57,41,11,11,0.7,0.7
2025-11-30T2000,1798A,118.5092,31.6837,马鞍山市,湖东路四小,颗粒物(PM10),107,163,117,75,62,1,1,96,85,119,63,9,11,1.8,1.2
2025-11-30T2000,1799A,118.5024,31.6449,马鞍山市,开发区,颗粒物(PM10),104,157,123,76,73,11,11,97,85,106,66,8,11,1.0,1.1
2025-11-30T2000,1802A,118.6245,31.7241,马鞍山市,濮塘,,,,,,,,,,,,,,,,
2025-11-30T2000,3633A,118.4918,31.6809,马鞍山市,雨山,细颗粒物(PM2.5),100,139,123,75,70,21,21,106,98,102,66,9,14,1.5,1.1
2025-11-30T2000,4191A,118.5274,31.72227,马鞍山市,慈湖高新区,细颗粒物(PM2.5),109,153,142,82,83,8,8,74,62,97,72,10,14,1.4,1.3
2025-11-30T2000,1686A,111.0286,21.4688,茂名市,电白南海,颗粒物(PM10),73,95,90,48,41,142,142,145,145,28,25,10,13,0.5,0.4
2025-11-30T2000,1687A,110.9294,21.6533,茂名市,茂石化七小,颗粒物(PM10),62,73,78,39,35,108,108,116,116,22,20,13,18,0.6,0.6
2025-11-30T2000,1688A,110.9107,21.6687,茂名市,健康路,颗粒物(PM10),63,75,77,39,36,120,120,127,127,24,25,13,22,0.7,0.7
2025-11-30T2000,1689A,110.8592,21.6828,茂名市,高岭,颗粒物(PM10),70,90,120,39,50,98,98,108,106,40,36,19,28,0.8,0.8
2025-11-30T2000,3450A,111.01,21.5165,茂名市,电白水东,颗粒物(PM10),71,92,80,39,34,131,131,130,130,22,20,8,12,0.8,0.8
2025-11-30T2000,2539A,104.0308,30.0478,眉山市,黑龙滩水库,,,,,,,,,,,,,,,,
2025-11-30T2000,2540A,103.8416,30.0874,眉山市,气象局,细颗粒物(PM2.5),138,135,108,105,95,41,41,80,80,51,37,14,16,1.0,0.9
2025-11-30T2000,3137A,103.8578,30.0744,眉山市,市委党校,细颗粒物(PM2.5),128,129,107,97,86,4,4,69,65,100,43,9,11,1.2,0.7
2025-11-30T2000,3148A,103.8291,30.0564,眉山市,区人社局,细颗粒物(PM2.5),149,150,117,114,95,11,11,69,64,97,44,10,15,1.3,1.1
2025-11-30T2000,1690A,116.1231,24.3284,梅州市,梅江月梅,颗粒物(PM10),52,53,56,32,30,42,42,79,78,32,34,6,7,0.6,0.6
2025-11-30T2000,1691A,116.0797,24.2719,梅州市,梅县新城,细颗粒物(PM2.5),53,50,54,37,30,37,37,68,67,34,32,7,8,0.5,0.5
2025-11-30T2000,1692A,116.1248,24.2654,梅州市,环境监控中心,细颗粒物(PM2.5),59,55,58,42,36,34,34,47,47,31,42,6,11,0.5,0.5
2025-11-30T2000,3315A,116.1233,24.2991,梅州市,梅龙,,50,46,57,35,35,34,34,72,67,34,33,8,9,0.6,0.6
2025-11-30T2000,1878A,104.7778,31.4741,绵阳市,富乐山,细颗粒物(PM2.5),58,57,96,41,71,44,44,62,62,36,34,10,10,0.6,0.7
2025-11-30T2000,1880A,104.6697,31.4668,绵阳市,高新区自来水公司,细颗粒物(PM2.5),83,95,111,61,77,1,1,57,55,77,42,11,11,1.1,0.8
2025-11-30T2000,1881A,104.7287,31.5075,绵阳市,三水厂,细颗粒物(PM2.5),72,81,107,52,81,6,6,46,45,72,40,13,12,1.1,1
2025-11-30T2000,3491A,104.69,31.5322,绵阳市,西科大附属小学,细颗粒物(PM2.5),87,98,109,64,70,9,9,49,49,80,45,8,8,0.6,0.8
2025-11-30T2000,3492A,104.5648,31.5343,绵阳市,安州区旅游局,细颗粒物(PM2.5),117,123,91,88,73,6,6,64,62,85,35,10,9,2.1,1
2025-11-30T2000,4226A,104.7651,31.4531,绵阳市,绵阳市气象局,"颗粒物(PM10),细颗粒物(PM2.5)",64,78,112,46,73,47,47,54,54,43,43,9,10,0.9,1.1
2025-11-30T2000,1784A,129.61,44.561,牡丹江市,环保大楼,颗粒物(PM10),53,56,37,30,23,50,50,50,48,16,15,7,8,0.7,0.4
2025-11-30T2000,1785A,129.6115,44.5782,牡丹江市,文化广场,颗粒物(PM10),54,57,41,32,27,55,55,54,54,16,19,8,9,0.6,0.6
2025-11-30T2000,1786A,129.5904,44.5963,牡丹江市,第一医院,细颗粒物(PM2.5),60,50,45,43,31,60,60,57,57,8,12,3,4,0.5,0.5
2025-11-30T2000,1787A,129.6364,44.6075,牡丹江市,机车工厂,颗粒物(PM10),54,57,47,34,27,48,48,56,54,17,22,25,8,0.5,0.5
2025-11-30T2000,1788A,129.6386,44.5462,牡丹江市,第一中学,,,,41,,24,,,32,,,15,,5,,0.4
2025-11-30T2000,2531A,105.0703,29.61,内江市,市监测站,细颗粒物(PM2.5),153,137,105,117,97,17,17,61,58,67,31,4,3,1.9,1
2025-11-30T2000,2532A,105.0717,29.5947,内江市,东兴区政府,细颗粒物(PM2.5),149,137,103,114,91,20,20,49,48,57,42,4,3,1.1,0.9
2025-11-30T2000,2533A,105.0653,29.5817,内江市,内江二中,细颗粒物(PM2.5),138,125,119,105,94,17,17,49,48,64,44,5,5,1.2,1.1
2025-11-30T2000,2534A,105.0406,29.5822,内江市,内江日报社,细颗粒物(PM2.5),130,117,107,99,90,59,59,58,58,40,44,4,3,0.8,0.8
2025-11-30T2000,2628A,92.0657,31.4846,那曲市,那曲监测站,,50,50,48,27,28,53,53,76,76,55,30,16,11,1.6,1.4
2025-11-30T2000,4243A,92.0515,31.4787,那曲市,那曲市委宣传部,,46,46,32,25,17,59,59,78,78,28,23,12,8,0.9,1.1
2025-11-30T2000,1290A,115.8931,28.6843,南昌市,省外办,细颗粒物(PM2.5),113,140,116,85,77,8,8,65,60,87,72,8,8,2.3,2
2025-11-30T2000,1291A,115.8886,28.7003,南昌市,省林业公司,颗粒物(PM10),89,127,102,58,61,4,4,75,72,108,66,9,8,1.2,1.2
2025-11-30T2000,1292A,115.8126,28.7442,南昌市,林科所,颗粒物(PM10),59,68,73,31,41,58,58,90,88,41,55,8,9,0.5,0.6
2025-11-30T2000,1294A,115.8518,28.687,南昌市,建工学校,颗粒物(PM10),85,119,119,61,64,28,28,79,76,98,85,16,15,1.3,1.4
2025-11-30T2000,1295A,115.8921,28.6424,南昌市,象湖,细颗粒物(PM2.5),100,111,104,75,60,3,3,79,70,139,72,14,13,2.4,1.6
2025-11-30T2000,1296A,115.7423,28.7996,南昌市,武术学校,,,,,,,,,,,,,,,,
2025-11-30T2000,3046A,115.9084,28.6062,南昌市,机电学校,颗粒物(PM10),94,138,103,58,55,2,2,94,79,114,63,14,15,1.1,0.9
2025-11-30T2000,3690A,115.9721,28.7031,南昌市,外国语学校,细颗粒物(PM2.5),75,98,101,55,62,29,29,94,90,78,55,14,16,0.9,0.9
2025-11-30T2000,4192A,115.9316,28.68677,南昌市,南京东路235号,颗粒物(PM10),84,118,128,56,71,24,24,94,89,88,61,8,10,1.0,1.3
2025-11-30T2000,1905A,106.056,30.8064,南充市,西山风景区,,,,,,,,,,,,,,,,
2025-11-30T2000,1906A,106.0789,30.8023,南充市,南充市委,细颗粒物(PM2.5),127,136,95,96,72,2,2,53,46,84,34,5,5,2.0,0.7
2025-11-30T2000,1907A,106.1031,30.8217,南充市,南充炼油厂,细颗粒物(PM2.5),143,141,106,109,78,19,19,53,52,69,40,6,7,1.3,1
2025-11-30T2000,4227A,106.1083,30.7884,南充市,梨树横街98号,细颗粒物(PM2.5),132,135,104,100,75,37,37,61,61,49,38,6,6,0.9,0.8
2025-11-30T2000,4304A,106.1172,30.843,南充市,清泉寺北路188号,细颗粒物(PM2.5),130,114,86,99,69,38,38,60,60,54,33,6,6,0.9,0.6
2025-11-30T2000,4305A,106.067,30.7616,南充市,同庆路1号,细颗粒物(PM2.5),132,147,99,100,68,4,4,48,43,66,40,7,7,1.9,1
2025-11-30T2000,1151A,118.8086,32.1065,南京市,迈皋桥,细颗粒物(PM2.5),83,104,92,61,50,25,25,77,72,57,47,4,7,1.0,0.9
2025-11-30T2000,1152A,118.7538,32.0551,南京市,草场门,颗粒物(PM10),84,117,112,58,56,8,8,70,64,127,78,8,9,0.9,1
2025-11-30T2000,1153A,118.7794,32.0745,南京市,山西路,颗粒物(PM10),91,132,114,56,54,3,3,79,71,112,74,4,7,1.4,1.1
2025-11-30T2000,1154A,118.7752,32.0023,南京市,中华门,细颗粒物(PM2.5),85,114,96,63,55,9,9,86,80,90,55,3,5,1.0,0.9
2025-11-30T2000,1155A,118.8109,32.0309,南京市,瑞金路,细颗粒物(PM2.5),92,132,98,68,56,8,8,62,54,107,85,4,4,1.3,0.8
2025-11-30T2000,1156A,118.7997,32.0754,南京市,玄武湖,颗粒物(PM10),78,105,94,49,48,11,11,74,65,47,29,4,4,1.3,0.9
2025-11-30T2000,1157A,118.6414,32.0931,南京市,浦口,颗粒物(PM10),81,111,123,52,59,84,84,85,85,29,50,12,16,0.6,0.7
2025-11-30T2000,1158A,118.7356,31.9996,南京市,奥体中心,细颗粒物(PM2.5),100,134,107,75,57,10,10,87,79,116,80,7,11,1.5,0.9
2025-11-30T2000,1159A,118.9125,32.1028,南京市,仙林大学城,细颗粒物(PM2.5),117,146,108,88,55,11,11,74,67,102,62,9,12,1.8,1.1
2025-11-30T2000,3422A,118.8436,31.9198,南京市,江宁彩虹桥,"颗粒物(PM10),细颗粒物(PM2.5)",77,104,97,56,48,5,5,100,84,125,70,6,6,1.0,0.8
2025-11-30T2000,3427A,118.8554,32.3578,南京市,六合雄州,细颗粒物(PM2.5),110,126,126,83,63,29,29,97,92,98,73,12,15,0.9,1
2025-11-30T2000,4249A,118.8708,31.3402,南京市,汶溪路181号,细颗粒物(PM2.5),100,100,72,75,61,82,82,99,98,46,45,6,7,0.9,0.7
2025-11-30T2000,4312A,119.019,31.6512,南京市,中山西路1号,细颗粒物(PM2.5),94,100,66,70,51,16,16,92,82,77,46,4,4,1.4,0.9
2025-11-30T2000,1401A,108.3103,22.7881,南宁市,二十一中,细颗粒物(PM2.5),92,86,76,68,58,87,87,102,102,23,48,6,6,0.6,0.7
2025-11-30T2000,1402A,108.3141,22.8528,南宁市,北湖,细颗粒物(PM2.5),84,78,84,62,55,84,84,99,98,30,53,10,12,0.8,0.9
2025-11-30T2000,1403A,108.3206,22.8225,南宁市,市监测站,细颗粒物(PM2.5),72,83,75,52,46,86,86,96,96,32,48,9,12,0.8,0.8
2025-11-30T2000,1404A,108.3829,22.8037,南宁市,大自然花园,细颗粒物(PM2.5),79,90,74,58,47,93,93,107,106,26,34,8,9,0.7,0.7
2025-11-30T2000,1405A,108.4394,22.7904,南宁市,仙葫,,,,,,,,,,,,,,,,
2025-11-30T2000,1406A,108.2397,22.8467,南宁市,区农职院,细颗粒物(PM2.5),80,91,71,59,46,71,71,99,97,35,38,11,12,1.0,0.9
2025-11-30T2000,1407A,108.3275,22.735,南宁市,英华嘉园,细颗粒物(PM2.5),98,93,85,73,59,88,88,101,101,24,56,6,6,0.5,0.5
2025-11-30T2000,3401A,108.4834,22.7618,南宁市,红星社区,细颗粒物(PM2.5),92,88,74,68,51,95,95,119,117,23,39,9,7,0.8,0.7
2025-11-30T2000,4221A,108.2177,22.7774,南宁市,乐贤路16号,颗粒物(PM10),74,98,84,52,43,74,74,103,101,44,49,5,5,0.6,0.6
2025-11-30T2000,2331A,118.0966,26.6761,南平市,茫荡山,,,,21,,10,,,102,,,,,1,,0.3
2025-11-30T2000,2332A,118.1681,26.6369,南平市,南平市监测站,,46,43,43,32,28,23,23,71,66,39,24,4,4,0.7,0.5
2025-11-30T2000,2333A,118.1825,26.6489,南平市,南平铝业有限公司,细颗粒物(PM2.5),62,58,45,44,30,13,13,68,62,54,30,5,6,1.1,0.6
2025-11-30T2000,2334A,118.1756,26.6272,南平市,南平七中,,33,30,43,23,26,47,47,74,73,18,19,5,5,0.4,0.4
2025-11-30T2000,1168A,120.9098,31.9663,南通市,狼山街道,细颗粒物(PM2.5),104,106,112,78,66,28,28,101,89,61,76,3,8,1.4,1.1
2025-11-30T2000,1169A,120.86,32.0005,南通市,虹桥,细颗粒物(PM2.5),138,153,122,105,76,47,47,90,84,102,106,11,14,1.2,1.1
2025-11-30T2000,1170A,120.87,32.02,南通市,城中,细颗粒物(PM2.5),123,162,138,93,72,6,6,88,75,144,105,10,14,1.7,1.3
2025-11-30T2000,1171A,120.94,31.93,南通市,星湖花园,细颗粒物(PM2.5),103,125,128,77,70,9,9,94,82,93,84,4,11,1.3,1
2025-11-30T2000,1172A,120.81,32.0417,南通市,紫琅学院,细颗粒物(PM2.5),133,211,155,101,75,5,5,78,62,132,106,8,11,1.6,1.1
2025-11-30T2000,3291A,121.067,32.062,南通市,通州监测站,细颗粒物(PM2.5),104,110,116,78,70,9,9,90,78,100,89,4,11,1.9,1.1
2025-11-30T2000,3432A,120.9348,31.9883,南通市,环境教育馆,细颗粒物(PM2.5),114,146,124,86,76,15,15,101,92,94,83,10,12,1.1,0.9
2025-11-30T2000,2404A,112.5224,33.0122,南阳市,瓦房庄,细颗粒物(PM2.5),95,135,118,71,72,6,6,53,45,68,44,8,8,1.6,0.9
2025-11-30T2000,2405A,112.5003,32.9735,南阳市,汉画馆,颗粒物(PM10),94,138,118,68,66,3,3,51,41,70,47,7,7,1.4,0.9
