timepoint,stationcode,longitude,latitude,area,positionname,primarypollutant,aqi,pm10,pm10_24h,pm2_5,pm2_5_24h,o3,o3_24h,o3_8h,o3_8h_24h,no2,no2_24h,so2,so2_24h,co,co_24h
2025-07-14T1600,2566A,102.1879,31.914,阿坝藏族羌族自治州,州农科所,,30,6,16,3,10,93,,63,63,3,5,13,13,0.6,0.6
2025-07-14T1600,2568A,102.2502,31.8896,阿坝藏族羌族自治州,马师校,,29,,15,9,15,91,,59,59,5,8,7,6,0.6,0.6
2025-07-14T1600,3994A,102.2165,31.9024,阿坝藏族羌族自治州,马尔康中学西区,,30,8,15,8,14,96,,67,67,5,6,7,6,0.5,0.6
2025-07-14T1600,2695A,80.292,41.1694,阿克苏地区,电视台,颗粒物(PM10),51,51,54,14,17,120,,98,98,4,14,6,7,0.2,0.4
2025-07-14T1600,2696A,80.2613,41.1551,阿克苏地区,艺术中心,,43,43,63,17,24,123,,107,107,2,13,3,3,0.4,0.5
2025-07-14T1600,2204A,105.6467,38.8363,阿拉善盟,西城区西花园,颗粒物(PM10),65,79,37,23,25,112,,112,112,8,8,20,20,0.6,0.6
2025-07-14T1600,2205A,105.6985,38.8411,阿拉善盟,蒙二幼,颗粒物(PM10),60,69,45,20,18,108,,105,105,8,10,8,9,0.4,0.4
2025-07-14T1600,2206A,105.724,38.8516,阿拉善盟,环保局新楼,颗粒物(PM10),57,64,37,19,16,108,,107,106,4,5,8,9,0.3,0.4
2025-07-14T1600,2708A,88.1264,47.8517,阿勒泰地区,市站,,38,23,24,3,6,120,,103,103,11,10,2,2,0.3,0.3
2025-07-14T1600,2630A,80.1161,32.5,阿里地区,阿里监测站,,,,5,3,3,87,,91,82,,4,14,14,0.2,0.2
2025-07-14T1600,3192A,80.0903,32.5028,阿里地区,阿里藏医院,,29,6,10,3,4,90,,95,87,2,2,6,6,0.3,0.3
2025-07-14T1600,2642A,109.0318,32.6537,安康市,香溪洞,,32,22,30,18,19,102,,86,86,4,6,7,8,0.4,0.4
2025-07-14T1600,2644A,109.0072,32.6975,安康市,汉滨区检察院,,37,37,29,25,18,108,,80,80,3,7,7,8,0.2,0.3
2025-07-14T1600,4054A,109.0325,32.6913,安康市,市邮政管理局,,33,28,33,15,20,104,,84,84,3,9,5,8,0.6,0.7
2025-07-14T1600,2291A,117.0809,30.5177,安庆市,环科院,,40,28,32,19,23,128,,120,120,3,18,3,4,0.5,0.6
2025-07-14T1600,2292A,117.0331,30.5119,安庆市,马山宾馆,,38,22,31,14,23,120,,114,114,3,19,3,4,0.3,0.5
2025-07-14T1600,2294A,116.9896,30.6145,安庆市,安庆大学,,44,28,30,19,21,140,,122,122,6,15,3,3,0.4,0.5
2025-07-14T1600,3173A,117.0598,30.5351,安庆市,市人大,,42,28,30,14,16,132,,123,123,5,18,2,3,0.5,0.6
2025-07-14T1600,3122A,105.9606,26.2611,安顺市,伍家关,,30,20,16,12,14,93,,82,82,3,7,8,4,0.4,0.5
2025-07-14T1600,3123A,105.9408,26.2431,安顺市,凤凰山,,30,21,18,20,12,96,,84,84,4,6,6,3,0.4,0.5
2025-07-14T1600,3124A,105.9439,26.2564,安顺市,金钟山,,31,19,19,15,14,98,,89,89,4,5,9,6,0.3,0.3
2025-07-14T1600,3125A,105.8983,26.2481,安顺市,娄家坡,,30,19,17,15,12,94,,83,83,3,4,6,6,0.4,0.5
2025-07-14T1600,1818A,114.4839,36.0621,安阳市,棉研所,,,,,,,,,,,,,,,,
2025-07-14T1600,1819A,114.3551,36.1017,安阳市,红庙街,臭氧1小时,68,46,60,28,33,174,,148,148,2,8,4,5,0.4,0.6
2025-07-14T1600,1820A,114.361,36.0681,安阳市,银杏小区,臭氧1小时,60,44,58,29,37,168,,152,152,1,6,5,6,0.4,0.6
2025-07-14T1600,3141A,114.3922,36.0878,安阳市,信访局,臭氧1小时,84,48,58,33,33,187,,170,170,2,2,5,6,0.6,0.8
2025-07-14T1600,3669A,114.4705,36.0637,安阳市,左辅环卫站,臭氧1小时,67,53,65,25,38,173,,154,154,2,8,5,6,0.8,0.8
2025-07-14T1600,3703A,114.2917,36.0949,安阳市,安钢职工学校,臭氧1小时,63,68,69,31,42,170,,149,149,1,11,2,6,0.5,0.6
2025-07-14T1600,1748A,123.044,41.1196,鞍山市,深沟寺,,38,20,25,10,13,119,,94,94,9,21,6,8,0.4,0.6
2025-07-14T1600,1749A,123.011,41.0931,鞍山市,太阳城,,40,20,28,9,14,125,,100,100,7,17,7,9,0.5,0.7
2025-07-14T1600,1750A,123.0485,41.1442,鞍山市,太平,,38,32,37,9,17,119,,98,98,11,24,6,8,0.6,0.8
2025-07-14T1600,1751A,122.9642,41.0971,鞍山市,铁西三道街,,35,32,40,14,20,110,,89,89,14,35,14,29,1.0,2.2
2025-07-14T1600,1753A,123.022,41.0821,鞍山市,明达新区,,36,18,24,6,10,113,,91,91,7,18,4,8,0.6,0.7
2025-07-14T1600,1754A,123.1289,41.0228,鞍山市,千山,,,,,,,,,,,,,,,,
2025-07-14T1600,4201A,122.9446,41.0826,鞍山市,兴盛南路290号,,35,19,44,7,20,112,,94,94,16,38,9,21,0.7,2
2025-07-14T1600,2195A,107.4212,40.761,巴彦淖尔市,附二中,,46,46,41,19,22,136,,123,123,6,10,9,9,0.6,0.6
2025-07-14T1600,2196A,107.37,40.7372,巴彦淖尔市,市环保大楼,颗粒物(PM10),51,52,53,12,24,122,,114,114,8,10,5,5,0.4,0.5
2025-07-14T1600,1956A,86.1472,41.7538,巴音郭楞蒙古自治州,孔雀公园,颗粒物(PM10),57,64,121,18,36,122,,96,96,3,16,4,4,0.1,0.2
2025-07-14T1600,1957A,86.1972,41.7166,巴音郭楞蒙古自治州,棉纺厂,颗粒物(PM10),67,83,147,11,31,127,,98,98,6,22,4,4,0.2,0.2
2025-07-14T1600,1958A,86.2357,41.7173,巴音郭楞蒙古自治州,经济开发区,颗粒物(PM10),55,60,114,12,27,120,,103,103,2,6,2,2,0.2,0.3
2025-07-14T1600,2914A,106.7677,31.8794,巴中市,苏山坪,,35,29,31,18,23,110,,96,96,7,9,3,5,0.5,0.5
2025-07-14T1600,3181A,106.7768,31.8526,巴中市,市五中,,39,28,32,22,22,123,,100,100,3,12,8,8,0.4,0.5
2025-07-14T1600,3183A,106.7418,31.8654,巴中市,圣泉水务公司,,40,28,28,19,19,126,,106,106,1,9,7,6,0.7,0.7
2025-07-14T1600,3616A,106.7616,31.8344,巴中市,市中心医院,,45,33,32,31,22,123,,103,103,6,16,8,8,0.2,0.3
2025-07-14T1600,2235A,122.7911,45.6077,白城市,洮北区环保局,,29,13,19,8,16,92,,97,97,6,16,3,5,0.2,0.3
2025-07-14T1600,2236A,122.8738,45.5725,白城市,市环保局,,30,17,21,6,12,94,,106,106,3,12,4,9,0.4,0.4
2025-07-14T1600,2231A,126.4219,41.9171,白山市,喜丰,,25,25,23,3,8,63,,72,72,8,9,6,6,0.7,0.7
2025-07-14T1600,2232A,126.4077,41.9419,白山市,环保局,,21,12,21,3,8,67,,73,73,4,9,9,11,0.6,0.6
2025-07-14T1600,2647A,104.1724,36.5446,白银市,第三小学,颗粒物(PM10),53,55,47,23,18,108,,101,101,5,10,6,65,0.4,0.9
2025-07-14T1600,2648A,104.1465,36.5482,白银市,动力公司,颗粒物(PM10),52,53,40,18,16,108,,105,105,8,11,13,44,0.4,0.6
2025-07-14T1600,2512A,106.6103,23.9011,百色市,市监测站,,30,27,22,11,8,96,,60,60,6,12,9,5,0.7,0.5
2025-07-14T1600,2513A,106.6538,23.8859,百色市,市中心血站,,27,22,27,13,11,86,,56,56,8,21,8,2,0.8,0.6
2025-07-14T1600,3406A,106.6085,23.8798,百色市,祈福高中,,33,31,26,17,11,104,,59,59,10,14,12,5,0.8,0.6
2025-07-14T1600,2270A,117.396,32.939,蚌埠市,工人疗养院,臭氧1小时,54,24,32,7,15,163,,154,154,4,7,5,4,0.3,0.3
2025-07-14T1600,2271A,117.3605,32.9427,蚌埠市,百货大楼,臭氧1小时,63,28,32,11,14,170,,155,155,2,6,6,6,0.4,0.4
2025-07-14T1600,2273A,117.4185,32.8911,蚌埠市,蚌埠学院,臭氧1小时,57,19,35,12,21,165,,159,159,9,11,8,6,0.3,0.4
2025-07-14T1600,2274A,117.3533,32.9673,蚌埠市,淮上区政府,臭氧1小时,55,24,33,11,17,164,,152,152,6,11,6,6,0.5,0.4
2025-07-14T1600,2275A,117.3145,32.8977,蚌埠市,高新区,臭氧1小时,59,24,33,9,17,167,,142,142,6,12,7,5,0.4,0.5
2025-07-14T1600,3715A,117.3092,32.9314,蚌埠市,蚌埠田家炳中学,臭氧1小时,60,27,38,13,20,168,,144,144,5,12,7,6,0.3,0.3
2025-07-14T1600,1585A,109.8756,40.6532,包头市,市环境监测站,,,38,31,22,17,190,,160,160,10,25,,11,0.3,0.5
2025-07-14T1600,1587A,109.9991,40.5842,包头市,包头八中,臭氧1小时,75,50,38,24,13,180,,143,143,14,22,8,14,0.7,0.8
2025-07-14T1600,1588A,109.8538,40.6821,包头市,青山宾馆,臭氧1小时,70,30,31,27,16,176,,152,152,9,26,8,8,0.5,0.6
2025-07-14T1600,1589A,109.8642,40.6288,包头市,惠龙物流,臭氧1小时,74,35,40,18,14,179,,139,139,7,14,5,8,0.6,0.6
2025-07-14T1600,1590A,110.0377,40.5546,包头市,东河鸿龙湾,臭氧1小时,90,34,30,17,10,192,,67,,18,26,8,8,0.6,0.4
2025-07-14T1600,3283A,109.9154,40.5685,包头市,滨河大厦,臭氧1小时,90,41,29,24,12,192,,147,147,8,14,4,6,0.6,0.6
2025-07-14T1600,3419A,109.9447,40.6261,包头市,包头市委党校,臭氧1小时,89,50,33,20,17,191,,148,148,11,23,9,18,0.5,0.7
2025-07-14T1600,3683A,109.8331,40.6576,包头市,昆区政府,臭氧1小时,70,44,35,21,14,176,,138,138,10,21,5,10,0.7,0.8
2025-07-14T1600,1930A,107.185,34.3063,宝鸡市,庙沟村,,,33,27,18,17,,,118,118,,8,,4,0.2,0.2
2025-07-14T1600,1931A,107.0708,34.3017,宝鸡市,竹园沟,,40,,27,20,19,128,,116,116,5,9,7,7,0.6,0.4
2025-07-14T1600,1932A,107.1906,34.3672,宝鸡市,三陆医院,,42,28,38,27,26,134,,115,115,6,20,7,8,0.5,0.6
2025-07-14T1600,1933A,107.1431,34.3547,宝鸡市,监测站,,,29,35,16,22,137,,115,115,6,11,,8,0.2,0.2
2025-07-14T1600,1934A,107.1186,34.3739,宝鸡市,技工学校,,40,31,36,14,25,126,,107,107,6,10,8,9,0.5,0.5
2025-07-14T1600,1935A,107.3906,34.3528,宝鸡市,陈仓区环保局家属楼,,,,,,,,,,,,,,,,
2025-07-14T1600,1936A,107.2058,34.3497,宝鸡市,文理学院,,48,31,37,17,22,151,,120,120,5,11,7,6,0.5,0.5
2025-07-14T1600,1937A,107.2386,34.3622,宝鸡市,三迪小学,,48,40,39,15,26,152,,124,124,7,15,8,8,0.4,0.4
2025-07-14T1600,1051A,115.493,38.8632,保定市,游泳馆,臭氧1小时,63,29,34,12,16,170,,142,142,8,12,5,8,0.1,0.1
2025-07-14T1600,1052A,115.5213,38.8959,保定市,华电二区,臭氧1小时,69,25,35,7,13,175,,150,150,6,14,4,3,0.7,0.6
2025-07-14T1600,1053A,115.4713,38.9108,保定市,接待中心,臭氧1小时,67,28,34,12,15,173,,151,151,4,11,1,2,0.3,0.3
2025-07-14T1600,1054A,115.4612,38.8416,保定市,地表水厂,臭氧1小时,77,35,50,10,14,181,,152,152,4,13,2,3,0.3,0.3
2025-07-14T1600,3581A,115.31981,38.95208,保定市,满城区生态环境分局,臭氧1小时,70,24,40,12,15,176,,144,144,2,13,3,2,0.2,0.1
2025-07-14T1600,3582A,115.47694,38.76408,保定市,清苑区第二中学,臭氧1小时,68,38,50,14,19,174,,139,139,2,9,2,2,0.4,0.3
2025-07-14T1600,3583A,115.62909,39.02311,保定市,徐水物探局,臭氧1小时,74,32,39,3,9,179,,151,151,2,9,3,3,0.4,0.4
2025-07-14T1600,4004A,115.4202,38.8656,保定市,双鹰农机,臭氧1小时,72,18,23,9,13,177,,151,151,7,13,7,6,0.2,0.2
2025-07-14T1600,4034A,115.5150,38.8590,保定市,植保所站,臭氧1小时,82,35,39,6,13,185,,156,156,9,15,3,2,0.2,0.2
2025-07-14T1600,2594A,99.1678,25.1081,保山市,市环境监测站,,21,10,20,3,18,65,,62,62,4,6,5,5,0.4,0.5
2025-07-14T1600,2595A,99.1711,25.1328,保山市,市环保局,,19,6,21,6,12,59,,64,64,3,5,7,7,0.4,0.4
2025-07-14T1600,1866A,109.2262,21.588,北海市,牛尾岭水库,,,22,16,6,7,25,,62,18,,7,3,2,0.3,0.5
2025-07-14T1600,1867A,109.1436,21.4086,北海市,海滩公园,,34,34,22,3,3,52,,60,44,4,4,2,2,0.7,0.4
2025-07-14T1600,1868A,109.0981,21.4661,北海市,新市环保局,,22,,13,9,9,70,,75,59,6,6,2,2,0.8,0.7
2025-07-14T1600,1869A,109.1778,21.5233,北海市,北海工业园,,22,13,14,7,9,70,,57,57,7,7,2,2,0.6,0.6
2025-07-14T1600,3400A,109.1911,21.4415,北海市,龙潭自来水厂,,21,11,11,6,7,66,,73,54,4,4,3,3,0.5,0.5
2025-07-14T1600,1001A,116.3621,39.8784,北京市,万寿西宫,臭氧1小时,77,30,33,19,15,181,,151,151,9,27,4,3,0.5,0.5
2025-07-14T1600,1002A,116.2202,40.2915,北京市,定陵,臭氧1小时,124,38,18,27,10,247,,147,147,5,2,4,4,0.6,0.4
2025-07-14T1600,1003A,116.4174,39.9289,北京市,东四,臭氧1小时,82,33,34,15,15,185,,150,150,8,32,6,6,0.5,0.4
2025-07-14T1600,1004A,116.4072,39.8863,北京市,天坛,臭氧1小时,64,30,28,10,14,171,,134,134,6,22,5,5,0.5,0.6
2025-07-14T1600,1005A,116.462,39.9365,北京市,农展馆,臭氧1小时,59,35,33,17,15,167,,133,133,7,29,3,3,0.5,0.6
2025-07-14T1600,1006A,116.3392,39.9295,北京市,官园,臭氧1小时,63,42,31,13,12,170,,140,140,8,23,5,7,0.6,0.4
2025-07-14T1600,1007A,116.2878,39.9611,北京市,海淀万柳,臭氧1小时,62,44,29,22,11,169,,143,143,10,28,7,6,0.3,0.3
2025-07-14T1600,1008A,116.6636,40.135,北京市,顺义新城,臭氧1小时,105,45,25,20,9,210,,159,159,9,16,4,3,0.5,0.4
2025-07-14T1600,1009A,116.6275,40.3275,北京市,怀柔镇,臭氧1小时,90,28,17,15,9,192,,136,136,10,11,3,2,0.6,0.5
2025-07-14T1600,1010A,116.2296,40.217,北京市,昌平镇,臭氧1小时,122,47,23,20,10,243,,156,156,11,10,7,6,0.6,0.4
2025-07-14T1600,1011A,116.3966,39.9821,北京市,奥体中心,,47,36,29,18,12,148,,127,127,8,26,4,4,0.3,0.3
2025-07-14T1600,3281A,115.9718,40.4529,北京市,延庆夏都,臭氧1小时,65,33,16,20,9,172,,126,126,5,5,5,4,0.5,0.4
2025-07-14T1600,3418A,116.8336,40.4095,北京市,密云新城,,49,31,11,19,7,156,,116,116,19,14,2,2,0.4,0.5
2025-07-14T1600,3671A,116.088,39.9726,北京市,门头沟三家店,臭氧1小时,74,56,28,28,11,179,,138,138,3,10,4,3,0.6,0.5
2025-07-14T1600,3672A,116.1541,39.8204,北京市,丰台云岗,臭氧1小时,69,41,34,29,14,175,,147,147,4,15,4,2,0.5,0.4
2025-07-14T1600,3673A,116.6804,39.9081,北京市,通州东关,臭氧1小时,87,33,41,17,18,189,,158,158,10,27,4,3,0.5,0.5
2025-07-14T1600,3674A,115.9577,39.7603,北京市,房山燕山,臭氧1小时,77,55,35,27,15,181,,147,147,7,12,1,2,0.4,0.4
2025-07-14T1600,3675A,116.4672,39.7733,北京市,大兴旧宫,臭氧1小时,58,23,33,10,14,166,,137,137,7,24,3,2,0.4,0.5
2025-07-14T1600,3694A,115.986,40.4563,北京市,延庆石河营,臭氧1小时,65,29,16,18,8,172,,134,134,6,6,3,2,0.5,0.4
2025-07-14T1600,3695A,116.6151,40.3053,北京市,怀柔新城,臭氧1小时,87,28,17,13,9,189,,134,134,7,7,3,1,0.6,0.4
2025-07-14T1600,3696A,116.2545,39.8768,北京市,丰台小屯,,49,40,32,21,14,155,,132,132,2,22,2,2,0.6,0.6
2025-07-14T1600,3697A,116.84,40.3844,北京市,密云镇,臭氧1小时,54,20,16,17,8,163,,123,123,1,11,5,4,0.5,0.4
2025-07-14T1600,4182A,116.1942,39.9158,北京市,八角北路9号,臭氧1小时,78,46,31,24,14,182,,155,155,8,22,3,3,0.3,0.3
2025-07-14T1600,4194A,117.0790,40.1518,北京市,洳河巡河路,臭氧1小时,74,37,28,18,12,179,,142,142,1,6,3,3,0.3,0.3
2025-07-14T1600,1761A,123.8275,41.3064,本溪市,大峪,,33,,21,12,9,104,,88,88,5,16,5,5,0.3,0.5
2025-07-14T1600,1762A,123.7567,41.3325,本溪市,溪湖,,36,22,31,6,10,114,,99,99,2,10,8,5,0.5,0.7
2025-07-14T1600,1763A,123.7169,41.3094,本溪市,彩屯,,32,28,26,17,15,102,,89,89,14,21,8,7,0.6,0.6
2025-07-14T1600,1764A,123.7669,41.2864,本溪市,东明,,34,26,28,11,12,107,,93,93,9,15,4,3,0.5,0.7
2025-07-14T1600,1765A,123.7992,41.2664,本溪市,新立屯,,35,16,21,6,7,112,,95,95,7,14,4,4,0.4,0.5
2025-07-14T1600,1766A,123.8142,41.3472,本溪市,威宁,,32,13,24,3,14,101,,84,84,4,16,6,10,0.6,0.9
2025-07-14T1600,2587A,105.2864,27.3125,毕节市,八中,,30,19,31,13,21,96,,81,81,4,12,4,4,0.3,0.4
2025-07-14T1600,2588A,105.31,27.2944,毕节市,师专,,32,22,33,13,20,102,,89,89,4,14,4,4,0.4,0.6
2025-07-14T1600,4263A,105.3688,27.3598,毕节市,工业大道,,32,23,28,14,19,101,,86,86,7,17,6,6,0.5,0.6
2025-07-14T1600,1629A,118.0018,37.3617,滨州市,第二水厂,,39,9,22,3,14,123,,121,121,2,7,5,5,0.1,0.3
2025-07-14T1600,1630A,117.9776,37.393,滨州市,北中新校,,39,9,19,9,10,122,,121,121,1,7,11,11,0.0,0.2
2025-07-14T1600,3514A,117.9378,37.3956,滨州市,中海酒店,,39,9,19,9,14,124,,123,123,2,10,9,9,0.5,0.6
2025-07-14T1600,3515A,117.9378,37.3553,滨州市,开发区一中,,41,14,26,7,10,130,,132,132,4,14,12,13,0.4,0.5
2025-07-14T1600,3516A,118.0917,37.694,滨州市,金海六路,,37,7,19,3,6,116,,124,124,2,11,8,10,0,0.1
2025-07-14T1600,4028A,117.9956,37.3753,滨州市,滨州市西街道办事处,,43,,15,9,10,136,,132,132,5,9,3,3,0.1,0.2
2025-07-14T1600,2311A,115.8072,33.8399,亳州市,污水处理厂,臭氧1小时,67,40,27,27,18,173,,148,148,5,8,5,6,0.5,0.5
2025-07-14T1600,2312A,115.7789,33.8518,亳州市,三国揽胜宫,臭氧1小时,52,39,36,30,20,161,,140,140,5,7,5,6,0.5,0.5
2025-07-14T1600,3332A,115.7633,33.8034,亳州市,亳州学院,臭氧1小时,55,25,18,23,18,164,,145,145,3,6,4,6,0.5,0.4
2025-07-14T1600,2693A,82.0485,44.8556,博尔塔拉蒙古自治州,市党校,,40,20,24,9,13,125,,102,102,6,9,4,3,0.1,0.1
2025-07-14T1600,2694A,82.0806,44.8969,博尔塔拉蒙古自治州,市环保局,,39,20,27,8,11,124,,98,98,2,6,5,4,0.2,0.2
2025-07-14T1600,1071A,116.8842,38.2991,沧州市,沧县城建局,,49,23,29,3,9,155,,133,133,8,14,3,4,0.2,0.3
2025-07-14T1600,1072A,116.8584,38.3254,沧州市,电视转播站,,50,28,30,9,13,159,,137,137,8,12,4,6,0.3,0.3
2025-07-14T1600,1073A,116.8709,38.3228,沧州市,市环保局,,47,26,39,11,14,150,,130,130,7,11,4,3,0.2,0.4
2025-07-14T1600,3324A,116.8136,38.3004,沧州市,河北水利电力学院,,,,23,22,16,166,,149,149,5,10,,6,0.2,0.4
2025-07-14T1600,2622A,97.1806,31.1273,昌都市,昌都监测站,,34,,11,3,6,106,,97,97,2,5,4,3,0.0,0.1
2025-07-14T1600,3719A,97.1714,31.1406,昌都市,昌都会议中心,,34,30,22,7,10,106,,94,94,10,7,6,6,0.1,0.1
2025-07-14T1600,2690A,88.1236,43.8886,昌吉回族自治州,天山天池,,42,6,8,3,3,132,,103,103,7,5,4,4,0.7,0.6
2025-07-14T1600,2692A,87.2717,44.0297,昌吉回族自治州,新区政务中心,,50,13,27,6,13,160,,117,117,5,21,7,4,0.4,0.5
2025-07-14T1600,3613A,87.3095,44.0142,昌吉回族自治州,亚心广场,,49,19,39,3,11,155,,109,109,4,26,8,7,0.2,0.3
2025-07-14T1600,1120A,125.2863,43.9027,长春市,客车厂,,31,17,21,6,9,99,,82,82,12,18,3,4,0.2,0.3
2025-07-14T1600,1121A,125.2841,43.8463,长春市,邮电学院,,32,16,17,10,8,100,,80,80,6,15,5,6,0.2,0.3
2025-07-14T1600,1122A,125.3716,43.8772,长春市,劳动公园,,34,21,27,6,8,106,,83,83,13,22,7,8,0.3,0.1
2025-07-14T1600,1123A,125.3297,43.8805,长春市,园林处,,32,12,18,3,5,100,,80,80,6,15,3,4,0.2,0.2
2025-07-14T1600,1124A,125.4605,43.79,长春市,净月潭,,32,11,18,3,3,102,,82,82,3,13,6,6,0.1,0.2
2025-07-14T1600,1125A,125.7194,43.515,长春市,甩湾子,,38,11,18,3,6,119,,89,89,3,14,1,1,0.5,0.5
2025-07-14T1600,1126A,125.3863,43.8447,长春市,经开区环卫处,,31,16,21,3,6,99,,79,79,7,13,5,5,0.2,0.3
2025-07-14T1600,1127A,125.245,43.7783,长春市,高新区管委会,,33,16,24,7,15,103,,84,84,8,18,3,4,0.2,0.3
2025-07-14T1600,1128A,125.1761,43.8325,长春市,岱山公园,,31,18,24,7,6,99,,80,80,14,25,4,6,0.2,0.3
2025-07-14T1600,4281A,125.3346,43.9164,长春市,北亚泰大街1068号,,31,24,23,9,10,97,,78,78,6,17,1,2,0.8,0.2
2025-07-14T1600,1335A,113.0833,28.2325,长沙市,经开区环保局,臭氧1小时,57,42,25,26,12,165,,133,133,6,9,4,4,0.4,0.4
2025-07-14T1600,1336A,112.8872,28.2189,长沙市,高开区环保局,,50,42,32,22,16,160,,131,131,15,10,4,4,0.5,0.6
2025-07-14T1600,1337A,113.0792,28.2053,长沙市,马坡岭,臭氧1小时,53,30,23,25,11,162,,126,126,6,8,4,4,0.5,0.5
2025-07-14T1600,1338A,112.9394,28.19,长沙市,湖南师范大学,臭氧1小时,62,26,30,14,15,169,,139,139,5,11,2,2,0.7,0.7
2025-07-14T1600,1339A,113.0178,28.1322,长沙市,雨花区环保局,,,31,22,15,11,147,,124,124,3,8,5,5,,0.7
2025-07-14T1600,1340A,112.9792,28.2597,长沙市,伍家岭,臭氧1小时,58,30,28,18,15,166,,133,133,4,11,2,2,0.2,0.3
2025-07-14T1600,1341A,113.0014,28.1944,长沙市,火车新站,臭氧1小时,59,43,26,19,12,167,,126,126,5,8,6,6,0.5,0.5
2025-07-14T1600,1342A,112.9844,28.1178,长沙市,天心区环保局,,46,20,22,17,13,146,,123,123,4,9,1,1,0.3,0.3
2025-07-14T1600,1343A,112.8908,28.1308,长沙市,湖南中医药大学,,45,30,28,22,16,141,,127,127,2,10,2,2,0.6,0.6
2025-07-14T1600,1344A,112.9581,28.3611,长沙市,沙坪,,45,35,44,11,15,143,,107,107,9,9,4,3,0.4,0.5
2025-07-14T1600,1727A,113.1147,36.1547,长治市,清华站,臭氧1小时,89,36,46,24,27,191,,168,168,7,9,7,8,0.7,0.8
2025-07-14T1600,1730A,113.0886,36.2125,长治市,审计局,臭氧1小时,80,34,42,29,31,184,,160,160,7,12,4,5,0.8,0.9
2025-07-14T1600,1731A,113.0844,36.1856,长治市,长治八中,臭氧1小时,88,42,51,31,38,190,,166,166,4,7,7,7,0.6,0.7
2025-07-14T1600,2845A,113.1569,36.1911,长治市,德盛苑,臭氧1小时,75,40,44,24,29,180,,161,161,7,7,4,4,0.7,0.9
2025-07-14T1600,3568A,113.06,36.0464,长治市,向阳小学,臭氧1小时,75,60,80,35,36,180,,161,161,5,10,9,7,0.9,0.9
2025-07-14T1600,3569A,112.8792,36.3144,长治市,屯留一中,,49,28,62,24,48,156,,154,154,8,14,8,10,0.5,0.7
2025-07-14T1600,4189A,113.1131,36.19948,长治市,英华南巷50号,臭氧1小时,73,40,49,27,30,178,,156,156,7,10,6,7,0.7,0.8
2025-07-14T1600,4190A,113.2367,36.3344,长治市,学府街1号,,,28,57,21,40,174,,163,163,,23,4,6,0.4,1
2025-07-14T1600,1854A,111.6975,28.9703,常德市,市二中,,42,42,28,16,20,125,,111,111,6,12,7,4,0.4,0.7
2025-07-14T1600,1857A,111.7158,29.1456,常德市,白鹤山,,,,,,,,,,,,,,,,
2025-07-14T1600,3138A,111.7153,29.0289,常德市,武陵区永安,,43,19,34,16,23,137,,114,114,5,7,3,3,0.2,0.3
2025-07-14T1600,3139A,111.6892,28.9881,常德市,鼎城区玉霞,,40,26,34,18,23,127,,112,112,1,10,6,5,0.4,0.6
2025-07-14T1600,3140A,111.6625,29.0531,常德市,武陵区长庚,,41,22,30,18,22,130,,109,109,3,7,3,5,0.4,0.4
2025-07-14T1600,1196A,119.9633,31.762,常州市,市监测站,臭氧1小时,52,,35,16,24,161,,166,166,6,14,8,8,0.3,0.5
2025-07-14T1600,1200A,119.9468,31.7069,常州市,武进监测站,臭氧1小时,58,30,35,10,22,166,,161,161,8,12,9,9,0.7,0.8
2025-07-14T1600,1201A,119.9255,31.9087,常州市,安家,,49,19,39,8,24,155,,161,161,12,22,8,7,0.6,0.8
2025-07-14T1600,3002A,119.9805,31.8174,常州市,行政中心,,49,14,35,11,24,156,,164,164,8,15,7,7,0.3,0.4
2025-07-14T1600,3003A,120.0522,31.7748,常州市,经开区,臭氧1小时,54,20,43,6,21,163,,173,173,10,13,6,6,0.2,0.3
2025-07-14T1600,3010A,119.9025,31.7964,常州市,钟楼,,49,19,35,8,23,155,,150,150,10,18,7,6,0.4,0.5
2025-07-14T1600,3429A,119.8598,31.7066,常州市,武进经发区,臭氧1小时,58,21,39,14,26,166,,156,156,6,10,6,6,0.7,0.8
2025-07-14T1600,3430A,119.5826,31.7245,常州市,金坛城区,臭氧1小时,63,19,31,13,23,170,,167,167,7,10,7,9,0.3,0.4
2025-07-14T1600,2220A,120.4318,41.5881,朝阳市,西梁,,33,21,29,8,9,104,,86,86,10,23,6,9,0.4,0.5
2025-07-14T1600,2221A,120.4521,41.5646,朝阳市,河畔小区,,34,14,21,13,13,106,,90,90,6,14,5,7,0.4,0.4
2025-07-14T1600,2222A,120.4176,41.5648,朝阳市,八里堡,,,30,37,,,110,,93,93,9,21,3,4,0.4,0.6
2025-07-14T1600,2223A,120.3806,41.5969,朝阳市,农业园区,,32,15,26,9,7,102,,86,86,7,19,4,6,0.3,0.4
2025-07-14T1600,1705A,116.6367,23.6719,潮州市,西园路,,34,30,39,21,19,106,,76,76,7,12,4,3,0.3,0.4
2025-07-14T1600,3026A,116.6183,23.6608,潮州市,市政府,颗粒物(PM10),55,60,54,20,19,97,,71,71,7,16,6,4,0.7,0.8
2025-07-14T1600,4036A,116.6461,23.6761,潮州市,金山,,48,48,37,13,17,103,,70,70,2,6,4,4,0.6,0.7
2025-07-14T1600,2472A,113.0073,25.9061,郴州市,马头岭,,24,19,26,6,8,76,,69,69,1,7,5,6,0.4,0.6
2025-07-14T1600,2473A,113.0116,25.8226,郴州市,市职中,,26,17,22,16,17,81,,74,74,13,16,4,5,0.6,0.7
2025-07-14T1600,2475A,113.0383,25.8071,郴州市,市审计局,,,18,21,3,14,81,,80,80,6,9,3,2,,0
2025-07-14T1600,2476A,113.0348,25.7759,郴州市,市环保局,,29,,24,17,13,92,,83,83,3,7,4,4,0.2,0.3
2025-07-14T1600,4252A,113.0138,25.8011,郴州市,好美居路49号,,28,28,31,15,15,89,,86,86,4,10,10,11,0.4,0.4
2025-07-14T1600,1431A,103.9728,30.7236,成都市,金泉两河,,,,33,25,14,160,,140,140,21,17,2,3,0.5,0.4
2025-07-14T1600,1432A,104.176,30.6872,成都市,十里店,臭氧1小时,52,24,36,6,17,161,,148,148,4,17,4,5,0.4,0.5
2025-07-14T1600,1433A,104.079,30.5706,成都市,三瓦窑,,45,,30,15,22,141,,139,139,5,23,3,3,0.5,0.6
2025-07-14T1600,1434A,104.1114,30.63,成都市,沙河铺,,41,33,34,14,19,131,,111,111,6,17,6,6,0.3,0.4
2025-07-14T1600,1437A,104.0786,30.6531,成都市,君平街,臭氧1小时,53,34,36,6,22,162,,162,162,7,17,4,5,0.5,0.7
2025-07-14T1600,1438A,103.613,31.0283,成都市,灵岩寺,,,,,,,,,,,,,,,,
2025-07-14T1600,2880A,104.0239,30.65639,成都市,大石西路,,46,36,34,30,24,147,,122,122,6,15,5,4,0.8,0.9
2025-07-14T1600,3136A,104.2725,30.5589,成都市,龙泉驿区区政府,,47,19,24,14,14,149,,121,121,9,14,4,4,0.4,0.5
2025-07-14T1600,3357A,104.0106,30.6931,成都市,金博路,,47,,24,29,17,150,,133,133,5,16,4,4,0.7,0.8
2025-07-14T1600,3359A,104.0578,30.5225,成都市,华阳,,40,27,30,19,24,126,,136,136,5,15,4,5,0.5,0.6
2025-07-14T1600,3488A,104.3853,30.7453,成都市,青白江技师分院,,48,25,38,14,24,153,,152,152,8,23,4,5,0.4,0.6
2025-07-14T1600,3489A,104.0789,30.4072,成都市,科学城,,38,27,32,23,24,120,,122,122,3,12,3,4,0.5,0.5
2025-07-14T1600,4011A,103.8506,30.6947,成都市,光华大道三段,臭氧1小时,78,43,34,29,26,182,,147,147,8,16,5,5,0.7,0.7
2025-07-14T1600,4224A,104.2433,30.5353,成都市,鲸龙路1057号,,47,27,36,16,23,149,,125,125,5,19,6,6,0.6,0.7
2025-07-14T1600,1062A,117.9531,40.9081,承德市,铁路,,44,16,20,3,7,140,,100,100,6,13,5,3,0.2,0.2
2025-07-14T1600,1063A,117.9392,40.9763,承德市,中国银行,,43,14,20,7,9,137,,100,100,3,10,1,3,0.2,0.2
2025-07-14T1600,1064A,117.9503,40.928,承德市,开发区,,45,34,32,11,10,141,,102,102,7,14,8,6,0.2,0.2
2025-07-14T1600,1065A,117.8051,40.9655,承德市,文化中心,,35,15,36,3,9,110,,91,91,4,20,3,5,0.2,0.5
2025-07-14T1600,1066A,117.9268,41.0026,承德市,离宫,,43,,20,9,10,137,,101,101,4,11,4,3,0.3,0.2
2025-07-14T1600,2314A,117.47,30.6618,池州市,池州学院,,50,35,32,23,23,160,,132,132,4,8,7,8,0.4,0.6
2025-07-14T1600,3237A,117.4918,30.6617,池州市,展览馆,,50,33,34,20,22,160,,130,130,6,10,5,5,0.5,0.8
2025-07-14T1600,3333A,117.5627,30.695,池州市,第八中学,臭氧1小时,58,36,34,25,22,166,,134,134,9,9,5,6,0.5,0.7
2025-07-14T1600,3334A,117.5038,30.6243,池州市,第十二中学,,49,32,32,25,22,156,,127,127,3,11,4,4,0.6,0.9
2025-07-14T1600,1744A,118.9233,42.2816,赤峰市,松山一中,,33,11,22,3,7,104,,84,84,14,21,11,10,0.4,0.4
2025-07-14T1600,1745A,118.9576,42.2728,赤峰市,哈达街,,35,15,20,3,8,109,,85,85,13,19,11,11,0.4,0.5
2025-07-14T1600,1746A,118.8788,42.2554,赤峰市,天义路,,32,16,13,10,12,101,,87,87,7,17,8,12,0.3,0.3
2025-07-14T1600,3058A,119.2658,42.0353,赤峰市,银河街,,29,9,30,7,16,92,,82,82,8,18,5,14,0.4,0.5
2025-07-14T1600,3286A,118.9359,42.3147,赤峰市,桥北物流园区,,32,13,19,10,12,102,,81,81,1,13,11,10,0.3,0.4
2025-07-14T1600,2521A,107.3476,22.4136,崇左市,市环保局江州分局,,19,,16,6,8,58,,60,60,5,7,6,6,0.5,0.5
2025-07-14T1600,4256A,107.3750,22.3736,崇左市,石景林东路7号,,19,6,12,3,8,58,,66,66,6,7,2,6,0.5,0.5
2025-07-14T1600,2298A,118.3093,32.3153,滁州市,老年大学,,47,24,25,20,20,149,,144,144,6,3,9,8,0.3,0.3
2025-07-14T1600,2299A,118.3244,32.2786,滁州市,人大宾馆,,49,16,17,13,20,154,,154,154,9,4,5,4,0.2,0.2
2025-07-14T1600,3207A,118.3118,32.3038,滁州市,市政府原办公楼,,47,26,22,19,24,150,,143,143,4,4,5,4,0.3,0.3
2025-07-14T1600,3331A,118.3267,32.2634,滁州市,图书馆,,48,,22,17,19,153,,150,150,5,5,9,9,0.4,0.3
2025-07-14T1600,2605A,101.5482,25.0441,楚雄彝族自治州,州环境监测站,,24,11,16,8,10,75,,70,70,5,9,8,8,0.5,0.5
2025-07-14T1600,2606A,101.538,25.0492,楚雄彝族自治州,市经济开发区,,,,31,9,15,68,,63,63,4,9,7,8,0.5,0.6
2025-07-14T1600,2548A,107.5277,31.2827,达州市,达州职业技术学院,,,51,43,17,12,,,83,,5,18,8,8,0.8,0.5
2025-07-14T1600,2549A,107.5086,31.2186,达州市,市环境监测站,,47,33,43,12,19,150,,109,109,12,29,6,6,0.5,0.5
2025-07-14T1600,2550A,107.4988,31.2132,达州市,凤凰小区,,,31,44,,20,143,,111,111,8,22,6,6,0.4,0.4
2025-07-14T1600,2551A,107.5082,31.1986,达州市,达县机关宾馆,,45,29,43,17,11,144,,113,113,12,29,5,4,0.4,0.4
2025-07-14T1600,2552A,107.4644,31.2124,达州市,市政中心,,39,39,45,7,18,116,,97,97,5,18,3,4,0.3,0.3
2025-07-14T1600,2614A,100.1542,25.7054,大理白族自治州,大理市环境监测站,,33,,31,23,23,97,,79,79,8,17,5,5,0.4,0.5
2025-07-14T1600,2615A,100.2171,25.5811,大理白族自治州,大理古城,,29,14,25,11,17,90,,72,72,5,11,4,4,0.7,0.8
2025-07-14T1600,1109A,121.612,38.9741,大连市,甘井子,,38,33,25,10,9,119,,106,106,12,15,7,10,0.4,0.4
2025-07-14T1600,1110A,121.565,38.9511,大连市,周水子,,36,30,24,11,10,115,,104,104,8,11,2,2,0.2,0.2
2025-07-14T1600,1111A,121.5637,38.8845,大连市,星海三站,,38,22,21,8,8,120,,109,109,4,5,5,6,0.2,0.2
2025-07-14T1600,1112A,121.6302,38.9117,大连市,青泥洼桥,,38,32,23,8,8,119,,104,104,10,12,6,7,0.2,0.3
2025-07-14T1600,1113A,121.6251,38.8638,大连市,傅家庄,,36,25,21,10,8,115,,101,101,13,13,8,9,0.1,0.2
2025-07-14T1600,1114A,121.5213,38.8661,大连市,七贤岭,,45,36,25,10,9,144,,129,129,6,7,12,12,0.4,0.5
2025-07-14T1600,1115A,121.2529,38.8061,大连市,旅顺,,40,15,17,12,10,127,,116,116,19,17,3,3,0.3,0.2
2025-07-14T1600,1116A,121.7485,39.1311,大连市,金州,,38,33,23,9,9,120,,103,103,12,13,8,9,0.2,0.2
2025-07-14T1600,1117A,121.7811,39.0496,大连市,开发区,,37,24,23,10,9,118,,102,102,16,14,11,12,0.4,0.4
2025-07-14T1600,1118A,121.9762,39.0631,大连市,双D港,,45,32,26,9,10,141,,123,123,6,8,10,11,0.3,0.3
2025-07-14T1600,1789A,124.81117,46.03138,大庆市,大同区,,26,26,20,3,8,69,,71,71,4,10,6,7,0.2,0.3
2025-07-14T1600,1790A,125.129,46.533,大庆市,龙凤区,,23,23,20,8,10,67,,64,64,4,11,5,5,0.4,0.4
2025-07-14T1600,1791A,124.902,46.408,大庆市,红岗区,,20,20,22,11,12,47,,47,44,4,11,7,9,0.3,0.5
2025-07-14T1600,1792A,125.153,46.586,大庆市,萨尔图区,,28,28,22,3,7,62,,58,58,4,13,9,9,0.3,0.4
2025-07-14T1600,1793A,124.9042,46.6215,大庆市,让胡路区,,,19,25,15,17,74,,69,69,2,8,,6,0.1,0.2
2025-07-14T1600,3481A,125.141,46.634,大庆市,萨区政府监测点,,24,16,20,3,5,76,,70,70,3,10,6,6,0.1,0.2
2025-07-14T1600,1721A,113.3819,40.1097,大同市,果树场,,49,38,30,3,12,154,,37,,5,17,3,6,0.7,0.2
2025-07-14T1600,1723A,113.2994,40.0758,大同市,云冈宾馆,,,48,27,15,11,168,,135,135,12,15,9,8,,0.2
2025-07-14T1600,1724A,113.3444,40.0917,大同市,大同大学,臭氧1小时,64,36,23,20,10,171,,140,140,9,16,14,14,0.3,0.2
2025-07-14T1600,1725A,113.2661,40.1269,大同市,安家小村,臭氧1小时,89,55,31,20,7,191,,146,146,16,20,12,8,0.2,0.4
2025-07-14T1600,1726A,113.2711,40.0844,大同市,教育学院,臭氧1小时,78,52,28,23,13,182,,137,137,12,18,11,10,0.3,0.2
2025-07-14T1600,3282A,113.3397,40.0597,大同市,大同市卫生学校,,49,35,24,15,10,154,,125,125,10,14,10,9,0.4,0.3
2025-07-14T1600,3565A,113.1367,40.1122,大同市,云冈站,臭氧1小时,69,69,48,34,19,175,,127,127,14,22,6,5,0.5,0.4
2025-07-14T1600,3566A,113.1186,40.2556,大同市,图书馆,臭氧1小时,52,50,28,26,14,161,,124,124,10,9,10,8,0.5,0.4
2025-07-14T1600,3567A,113.5931,40.0461,大同市,区一中,臭氧1小时,59,48,24,18,11,167,,141,141,9,9,16,14,0.5,0.4
2025-07-14T1600,4199A,113.2798,40.0997,大同市,魏都大道141号,臭氧1小时,84,59,29,18,11,187,,144,144,10,14,11,9,0.4,0.4
2025-07-14T1600,2269A,124.1069,50.4097,大兴安岭地区,科技局,,22,17,22,10,12,68,,56,56,3,3,5,5,0.1,0.2
2025-07-14T1600,3663A,124.1164,50.4278,大兴安岭地区,红旗社区,,23,7,7,6,6,73,,63,63,3,4,6,6,0.1,0.2
2025-07-14T1600,1600A,124.3303,40.0625,丹东市,江湾东路,,30,19,36,3,8,96,,90,90,10,12,3,4,0.5,0.5
2025-07-14T1600,1601A,124.4256,40.1503,丹东市,临江后街,,30,21,41,3,6,94,,86,86,6,9,5,6,0.5,0.5
2025-07-14T1600,1602A,124.3933,40.1461,丹东市,元宝山,,26,11,20,3,7,83,,75,75,6,9,2,2,0.5,0.5
2025-07-14T1600,1603A,124.3633,40.1092,丹东市,民主桥,,30,12,37,3,7,96,,88,88,10,13,4,4,0.5,0.6
2025-07-14T1600,3541A,109.5726,19.5167,儋州市,第一中学子站,,25,25,21,14,11,57,,44,44,2,5,7,10,0.2,0.3
2025-07-14T1600,3542A,109.5567,19.5187,儋州市,东坡学校子站,,22,,17,15,9,62,,44,44,1,3,6,7,0.5,0.5
2025-07-14T1600,2616A,98.5842,24.428,德宏傣族景颇族自治州,德宏州监测站,,23,12,16,8,12,73,,58,58,5,7,9,9,0.4,0.6
2025-07-14T1600,3677A,98.5881,24.4368,德宏傣族景颇族自治州,芒市人民政府综合楼,,25,25,27,3,9,75,,57,57,4,7,10,9,0.4,0.5
2025-07-14T1600,1901A,104.4239,31.1208,德阳市,东山公园,,50,28,33,21,25,157,,142,142,4,10,6,9,0.7,0.8
2025-07-14T1600,1902A,104.3826,31.1317,德阳市,西小区,,44,29,43,29,30,140,,132,132,9,22,6,9,0.8,0.9
2025-07-14T1600,1904A,104.3553,31.1091,德阳市,耐火材料厂,,44,29,41,28,29,138,,139,139,32,16,2,2,0.5,0.6
2025-07-14T1600,3639A,104.4019,31.1244,德阳市,市教育局,,44,34,43,20,26,140,,136,136,20,16,4,6,0.7,0.8
2025-07-14T1600,1622A,116.3032,37.4674,德州市,儿童乐园,臭氧1小时,59,29,28,12,10,167,,140,140,5,7,9,9,0.2,0.3
2025-07-14T1600,1624A,116.2991,37.4451,德州市,监理站,臭氧1小时,68,17,25,7,9,174,,148,148,8,9,10,11,0.3,0.3
2025-07-14T1600,3066A,116.2721,37.4379,德州市,九衢泉纯净水厂,臭氧1小时,55,24,27,12,12,164,,137,137,9,13,8,8,0.4,0.5
2025-07-14T1600,3371A,116.3728,37.4403,德州市,开发区人民医院,臭氧1小时,53,19,27,3,10,162,,138,138,13,15,10,11,0.5,0.6
2025-07-14T1600,3511A,116.5652,37.3319,德州市,陵城艺术中心,,,41,37,3,10,146,,136,136,,12,5,8,0.3,0.4
2025-07-14T1600,4292A,116.3525,37.4209,德州市,新河东路,臭氧1小时,62,29,29,9,12,169,,142,142,12,14,10,12,0.4,0.5
2025-07-14T1600,2621A,99.7056,27.8317,迪庆藏族自治州,迪庆州站,,34,,19,12,15,108,,99,99,6,10,8,8,0.2,0.4
2025-07-14T1600,3180A,99.7136,27.8094,迪庆藏族自治州,质量技术监督局,,35,14,19,6,8,112,,94,94,9,14,6,6,0.3,0.4
2025-07-14T1600,4257A,104.6092,35.5962,定西市,将台街,,,24,39,14,16,112,,92,92,1,10,9,8,,0
2025-07-14T1600,4309A,104.6159,35.5701,定西市,正龙路62号,,27,23,26,7,13,86,,73,73,1,4,5,6,0.3,0.3
2025-07-14T1600,1389A,113.7547,23.0494,东莞市,莞城梨川,臭氧1小时,57,24,27,22,17,165,,107,107,9,16,5,6,0.5,0.5
2025-07-14T1600,1390A,113.7944,23.0128,东莞市,东城石井,,50,36,34,25,16,157,,115,115,15,18,2,2,0.5,0.5
2025-07-14T1600,1391A,113.7383,22.9658,东莞市,南城西平,臭氧1小时,67,27,28,25,15,173,,117,117,10,14,3,3,0.5,0.5
2025-07-14T1600,3319A,113.7338,23.0381,东莞市,万江金泰,,48,35,30,28,15,152,,98,98,11,16,4,3,0.5,0.7
2025-07-14T1600,3626A,113.7533,23.0202,东莞市,南城元岭,臭氧1小时,77,43,29,24,16,181,,106,106,13,17,4,4,0.5,0.5
2025-07-14T1600,3627A,113.7875,23.0457,东莞市,东城主山,臭氧1小时,63,72,46,24,15,170,,103,103,18,17,3,3,0.5,0.5
2025-07-14T1600,1666A,118.6614,37.4309,东营市,市环保局,,32,12,14,7,5,100,,110,110,20,16,5,10,0.2,0.2
2025-07-14T1600,3036A,118.6904,37.4338,东营市,开发区管委会,,34,15,20,3,4,108,,117,117,12,13,5,11,0.4,0.3
2025-07-14T1600,3365A,118.5719,37.565,东营市,垦利区民丰路,,39,12,13,3,4,123,,124,124,11,11,6,9,0.3,0.4
2025-07-14T1600,3498A,118.5055,37.8612,东营市,河口城区,,39,12,13,3,3,123,,125,125,10,12,9,9,0.2,0.3
2025-07-14T1600,3646A,118.4978,37.4623,东营市,胜利站,,37,26,26,3,5,116,,117,117,16,16,5,5,0.3,0.3
2025-07-14T1600,3734A,118.35,37.26,东营市,理想之城,,34,19,15,3,7,106,,112,112,13,18,10,11,0.2,0.3
2025-07-14T1600,1591A,110.0023,39.8129,鄂尔多斯市,综合楼,,40,34,46,14,21,126,,115,115,11,20,6,9,0.6,0.8
2025-07-14T1600,1592A,109.9486,39.8261,鄂尔多斯市,巴音孟克林场办事处,,46,46,56,12,24,134,,123,123,12,18,3,5,0.4,0.6
2025-07-14T1600,1593A,109.7736,39.5986,鄂尔多斯市,康泽苑,,40,31,68,9,28,128,,120,120,7,20,10,10,0.3,0.5
2025-07-14T1600,1594A,109.8119,39.5989,鄂尔多斯市,华泰汽车城,,36,29,64,14,29,113,,106,106,8,21,4,4,0.5,0.7
2025-07-14T1600,1595A,109.9734,39.7884,鄂尔多斯市,奥林花园,,40,27,55,14,28,127,,115,115,7,19,6,7,0.7,0.8
2025-07-14T1600,2436A,114.8938,30.3994,鄂州市,市政府,,27,,27,15,15,84,,87,87,8,16,3,7,0.5,0.6
2025-07-14T1600,2437A,114.8989,30.3714,鄂州市,赵家坝,,37,17,29,8,8,116,,106,106,6,10,4,6,0.7,0.7
2025-07-14T1600,3654A,114.8094,30.4089,鄂州市,精准医疗中心,,38,21,29,6,9,121,,106,106,6,18,4,7,0.4,0.7
2025-07-14T1600,2454A,109.4978,30.2981,恩施土家族苗族自治州,湖北民院,,44,23,23,11,14,138,,107,107,2,4,5,5,0.4,0.4
2025-07-14T1600,2455A,109.4707,30.2798,恩施土家族苗族自治州,州电力总公司,,43,16,20,14,14,135,,96,96,2,6,8,9,0.5,0.4
2025-07-14T1600,3549A,109.5061,30.3772,恩施土家族苗族自治州,龙凤新区,,,18,21,14,18,104,,80,80,,4,1,1,0.4,0.4
2025-07-14T1600,2499A,108.3411,21.6158,防城港市,沙万,,,,26,6,13,67,,52,52,6,12,2,3,0.5,0.6
2025-07-14T1600,2500A,108.3514,21.7731,防城港市,防城档案局,,17,,35,10,15,53,,58,58,4,13,3,2,0.6,0.8
2025-07-14T1600,2501A,108.3506,21.6414,防城港市,大海花园,,,,26,20,16,73,,61,61,6,9,3,6,0.4,0.6
2025-07-14T1600,1371A,113.1294,23.0067,佛山市,湾梁,,29,22,30,17,15,92,,87,87,8,16,5,5,0.6,0.6
2025-07-14T1600,1372A,113.1083,23.0478,佛山市,华材职中,,41,27,30,14,15,130,,95,95,5,11,7,8,0.5,0.5
2025-07-14T1600,1373A,113.144,23.0453,佛山市,南海气象局,,34,28,30,17,16,107,,82,82,7,14,2,2,0.6,0.6
2025-07-14T1600,1374A,113.2881,22.8094,佛山市,顺德苏岗,,39,24,29,12,13,123,,94,94,8,14,8,8,0.5,0.5
2025-07-14T1600,1376A,112.8383,22.8678,佛山市,高明孔堂,,27,20,25,14,11,84,,77,77,5,8,6,6,0.6,0.6
2025-07-14T1600,1377A,112.8836,23.1588,佛山市,三水监测站,,38,,32,26,20,91,,78,78,7,27,5,6,0.5,0.6
2025-07-14T1600,1378A,112.867,23.185,佛山市,三水云东海,,30,15,37,13,21,95,,87,87,9,25,3,5,0.7,0.7
2025-07-14T1600,3625A,113.2544,22.7642,佛山市,容桂街道办,,37,19,21,14,10,117,,87,87,10,17,6,6,0.5,0.5
2025-07-14T1600,1280A,119.3903,26.0543,福州市,鼓山,,,,,,,,,,,,,,,,
2025-07-14T1600,1282A,119.2681,26.0504,福州市,师大,,24,19,18,7,8,75,,68,68,2,8,4,4,0.3,0.3
2025-07-14T1600,1283A,119.2984,26.1028,福州市,五四北路,,30,27,18,9,6,96,,69,69,8,13,4,3,0.3,0.3
2025-07-14T1600,1284A,119.2648,26.0768,福州市,杨桥西路,,25,22,15,3,8,78,,66,66,5,12,3,3,0.4,0.4
2025-07-14T1600,1285A,119.317,26.0746,福州市,紫阳,,27,27,20,7,8,77,,59,59,9,14,4,4,0.3,0.3
2025-07-14T1600,3048A,119.5799,26.0936,福州市,九龙,,37,31,24,16,8,116,,85,85,6,12,4,4,0.3,0.3
2025-07-14T1600,3526A,119.5189,25.9664,福州市,吴航,,38,31,23,18,11,120,,77,77,8,13,5,5,0.5,0.4
2025-07-14T1600,1755A,123.7977,41.8491,抚顺市,望花区,,37,29,24,8,13,117,,101,101,10,18,10,10,0.4,0.5
2025-07-14T1600,1756A,123.9161,41.8822,抚顺市,顺城区,,35,33,39,8,13,110,,96,96,11,23,6,6,0.4,0.5
2025-07-14T1600,1757A,124.0436,41.8611,抚顺市,东洲区,,33,17,28,7,10,103,,93,93,8,20,6,8,0.4,0.4
2025-07-14T1600,1758A,123.9247,41.8642,抚顺市,新抚区,,34,15,25,7,10,106,,91,91,8,18,5,4,0.4,0.5
2025-07-14T1600,1759A,124.0972,41.8961,抚顺市,大伙房水库,,31,13,47,6,10,99,,91,91,9,23,5,5,0.4,0.2
2025-07-14T1600,1760A,123.7086,41.8391,抚顺市,沈抚新城,,38,20,18,8,9,119,,102,102,6,17,6,5,0.4,0.4
2025-07-14T1600,2376A,116.2127,28.0814,抚州市,桐源党溪,,36,36,30,16,15,94,,82,82,2,3,3,3,0.6,0.8
2025-07-14T1600,2377A,116.3544,27.9831,抚州市,市站,,35,22,23,7,11,111,,87,87,1,5,6,5,0.6,0.6
2025-07-14T1600,2378A,116.3565,27.963,抚州市,血防站,,32,15,24,9,12,102,,80,80,2,6,4,4,0.4,0.4
2025-07-14T1600,2379A,116.3564,28.0007,抚州市,采茶剧团,,33,19,23,3,10,104,,81,81,2,2,4,4,0.5,0.5
2025-07-14T1600,2380A,116.385,27.9647,抚州市,医学分院,,35,21,26,3,12,111,,90,90,2,2,4,4,0.5,0.8
2025-07-14T1600,2207A,121.6094,41.998,阜新市,工业园区,,34,18,27,3,5,108,,101,101,15,29,4,3,0.2,0.3
2025-07-14T1600,2208A,121.6697,42.0279,阜新市,长青街,,32,20,14,3,7,100,,94,94,8,11,4,4,0.3,0.7
2025-07-14T1600,2209A,121.6673,42.0705,阜新市,农业园区,,32,15,15,3,3,102,,93,93,7,4,2,2,0.4,0.5
2025-07-14T1600,2210A,121.6717,42.0224,阜新市,东苑,,34,15,24,9,10,107,,100,100,9,17,3,3,0.2,0.6
2025-07-14T1600,2211A,121.6506,42.0498,阜新市,玉龙新城,,33,8,25,6,8,104,,96,96,9,21,3,3,0.3,0.4
2025-07-14T1600,2301A,115.8277,32.8929,阜阳市,市监测站,,47,40,33,21,18,150,,144,144,12,12,3,4,0.4,0.4
2025-07-14T1600,2303A,115.8554,32.8605,阜阳市,开发区,,46,30,37,7,9,145,,142,142,11,12,5,6,0.2,0.2
2025-07-14T1600,2875A,115.784,32.8892,阜阳市,阜阳职业技术学院,,50,42,32,22,16,157,,148,148,6,10,4,4,0.5,0.4
2025-07-14T1600,3468A,115.7901,32.8613,阜阳市,市规划展馆,,49,31,32,29,24,154,,140,140,9,11,2,2,0.6,0.5
2025-07-14T1600,3469A,115.836,32.9183,阜阳市,枣园社区,,50,50,29,32,20,144,,138,138,9,11,2,2,0.4,0.4
2025-07-14T1600,2669A,102.9099,34.9841,甘南藏族自治州,州政府,,35,10,32,10,19,112,,94,94,4,13,6,5,0.2,0.3
2025-07-14T1600,3380A,102.8914,34.9617,甘南藏族自治州,甘肃民族师范学院,,35,25,60,12,21,111,,88,88,4,16,8,9,0.3,0.4
2025-07-14T1600,2570A,101.9603,30.0475,甘孜藏族自治州,水桥子,,33,9,16,9,9,105,,79,79,6,15,6,5,0.4,0.4
2025-07-14T1600,3065A,101.9533,29.9972,甘孜藏族自治州,州环保局,,35,16,23,11,8,111,,90,90,5,18,2,2,0.4,0.4
2025-07-14T1600,3414A,115.8347,28.932,赣江新区,桑海产业园,,50,24,20,16,13,158,,116,116,4,13,6,6,0.3,0.2
2025-07-14T1600,2362A,114.9017,25.9149,赣州市,通天岩,,28,26,21,6,6,88,,71,71,4,4,6,5,1.3,1.2
2025-07-14T1600,2363A,114.9367,25.8664,赣州市,地委,,26,,24,14,13,81,,78,78,4,12,3,3,0.7,0.9
2025-07-14T1600,2364A,114.9461,25.8481,赣州市,气象台,,34,14,23,13,10,106,,86,86,4,11,6,8,0.5,0.5
2025-07-14T1600,2365A,114.9322,25.8333,赣州市,市图书馆,,32,14,21,11,11,102,,78,78,3,10,4,4,0.5,0.6
2025-07-14T1600,2366A,114.8905,25.8471,赣州市,华坚鞋城,,33,20,27,11,13,104,,74,74,5,9,4,4,0.4,0.4
2025-07-14T1600,3109A,115.0093,25.8613,赣州市,赣县区卫计委,,34,34,20,13,9,102,,79,79,4,9,3,3,0.6,0.7
2025-07-14T1600,2683A,106.2319,36.1417,固原市,马园,,38,12,28,6,12,119,,107,107,2,14,6,6,0.4,0.5
2025-07-14T1600,2684A,106.2792,36.0022,固原市,监测站,,36,,23,13,19,115,,102,102,4,12,4,4,0.2,0.3
2025-07-14T1600,2685A,106.2375,36.0211,固原市,新区,,33,22,25,10,12,105,,98,98,6,7,6,6,0.3,0.4
2025-07-14T1600,3522A,106.2177,35.9959,固原市,原州区十五小,,32,11,13,8,13,101,,97,97,4,6,8,8,0.2,0.3
2025-07-14T1600,2543A,106.6308,30.5278,广安市,小平旧居,,,,,,,,,,,,,,,,
2025-07-14T1600,2544A,106.6303,30.4576,广安市,市委,,,20,58,15,21,,,,,,15,12,12,0.5,0
2025-07-14T1600,2545A,106.6271,30.4663,广安市,友谊中学,,40,22,32,18,23,126,,209,142,7,13,4,5,0.6,0.8
2025-07-14T1600,2547A,106.6388,30.4551,广安市,广电花园,,,27,39,27,29,125,,131,131,7,15,,11,0.5,0.6
2025-07-14T1600,2902A,106.6351,30.4865,广安市,北辰小学,,47,32,35,13,22,149,,141,141,5,10,6,7,0.5,0.5
2025-07-14T1600,2523A,105.8945,32.4535,广元市,黑石坡,,34,34,34,8,14,107,,88,88,5,7,1,1,0.4,0.4
2025-07-14T1600,2524A,105.821,32.4444,广元市,老城,,42,14,22,13,10,133,,109,109,8,24,1,2,1.0,1.1
2025-07-14T1600,2526A,105.8628,32.4287,广元市,监测站,,36,16,25,3,10,113,,95,95,8,13,9,10,0.7,0.8
2025-07-14T1600,3617A,105.8047,32.4166,广元市,经开区,,37,32,34,25,21,118,,96,96,8,22,6,5,0.6,0.7
2025-07-14T1600,1345A,113.2347,23.1423,广州市,广雅中学,臭氧1小时,52,32,36,3,12,161,,104,104,14,21,3,3,0.6,0.5
2025-07-14T1600,1346A,113.2612,23.105,广州市,市五中,,48,37,36,17,17,153,,100,100,10,18,4,4,0.4,0.5
2025-07-14T1600,1348A,113.3478,23.0916,广州市,广东商学院,,48,27,33,16,16,151,,104,104,8,23,3,4,0.4,0.5
2025-07-14T1600,1349A,113.4332,23.1047,广州市,市八十六中,,38,28,29,14,14,120,,90,90,20,29,3,2,0.2,0.3
2025-07-14T1600,1350A,113.3505,22.9483,广州市,番禺中学,,50,30,31,16,15,160,,99,99,10,20,8,7,0.4,0.5
2025-07-14T1600,1351A,113.2146,23.3916,广州市,花都师范,,43,39,38,19,21,136,,112,112,31,33,4,4,0.7,0.7
2025-07-14T1600,1352A,113.2597,23.1331,广州市,市监测站,臭氧1小时,53,33,35,18,16,162,,100,100,12,19,5,5,0.4,0.5
2025-07-14T1600,1353A,113.5618,23.312,广州市,九龙镇镇龙,,29,28,36,17,17,92,,76,76,18,22,6,6,0.4,0.5
2025-07-14T1600,1354A,113.2765,23.1544,广州市,麓湖,,44,28,32,17,17,139,,93,93,10,18,2,2,0.6,0.7
2025-07-14T1600,1355A,113.443,23.3035,广州市,帽峰山森林公园,,,20,27,10,6,,,40,,10,19,5,6,0.5,0.5
2025-07-14T1600,2846A,113.3221,23.1322,广州市,体育西,,,23,17,,3,172,,111,111,12,24,5,5,0.5,0.6
2025-07-14T1600,3298A,113.5717,23.5491,广州市,从化街口,,33,23,29,16,17,103,,75,75,9,15,7,7,0.6,0.7
2025-07-14T1600,3299A,113.3472,23.3692,广州市,白云竹料,,29,25,36,17,19,90,,91,91,14,20,3,3,0.5,0.6
2025-07-14T1600,3300A,113.2981,23.237,广州市,白云嘉禾,,39,39,37,21,19,121,,96,96,21,28,4,4,0.5,0.5
2025-07-14T1600,3301A,113.4256,23.1716,广州市,黄埔科学城,,36,36,36,19,16,111,,79,79,10,20,1,2,0.7,0.7
2025-07-14T1600,3302A,113.3942,23.0483,广州市,番禺大学城,,46,22,27,11,15,145,,106,106,8,21,5,6,0.4,0.5
2025-07-14T1600,3303A,113.4922,22.8168,广州市,南沙黄阁,,,38,36,24,18,142,,113,113,,14,5,5,0.2,0.4
2025-07-14T1600,3304A,113.5342,22.7896,广州市,南沙街,,43,35,32,15,14,135,,109,109,7,14,4,4,0.5,0.5
2025-07-14T1600,3443A,113.2902,23.5544,广州市,花都梯面,,26,22,29,12,16,81,,72,72,7,16,4,4,0.5,0.6
2025-07-14T1600,3445A,113.7858,23.7478,广州市,从化良口,,37,37,23,25,11,99,,64,64,7,8,7,6,0.7,0.7
2025-07-14T1600,3446A,113.8051,23.2614,广州市,增城荔城,,40,40,31,26,16,100,,99,99,10,12,6,6,0.4,0.4
2025-07-14T1600,2505A,109.568,23.1478,贵港市,德智高中,,,,,,,,,,,,,,,,
2025-07-14T1600,2506A,109.6047,23.0666,贵港市,江南子站,,26,,36,18,20,64,,70,70,3,14,5,7,0.5,0.7
2025-07-14T1600,2508A,109.5669,23.1065,贵港市,荷城子站,,20,7,24,3,11,64,,65,65,7,16,6,7,0.3,0.4
2025-07-14T1600,3405A,109.5886,23.1172,贵港市,新世纪学校,,22,6,29,3,17,70,,72,72,8,16,4,4,0.4,0.5
2025-07-14T1600,4260A,109.5933,23.0951,贵港市,中山路155-3号,,22,11,32,10,15,70,,88,88,6,12,3,4,0.3,0.6
2025-07-14T1600,1439A,106.6899,26.5998,贵阳市,马鞍山,,26,9,20,3,7,83,,70,70,4,11,4,4,0,0
2025-07-14T1600,1441A,106.6243,26.6266,贵阳市,鉴湖路,,29,24,26,7,9,92,,82,82,7,11,6,9,0.5,0.4
2025-07-14T1600,1442A,106.7487,26.6343,贵阳市,燕子冲,,25,19,23,17,22,79,,72,72,7,13,17,9,0,0.1
2025-07-14T1600,1443A,106.6555,26.4365,贵阳市,碧云窝,,33,24,29,9,11,103,,84,84,6,9,4,5,0.2,0.2
2025-07-14T1600,1445A,106.7109,26.6027,贵阳市,红边门,,27,14,24,3,13,84,,77,77,6,14,14,6,0.1,0.2
2025-07-14T1600,1446A,106.7164,26.5699,贵阳市,新华路,,22,22,29,7,15,60,,49,49,10,16,11,9,0.3,0.4
2025-07-14T1600,1447A,106.674,26.5424,贵阳市,太慈桥,,33,17,16,12,10,105,,88,88,14,16,4,5,0.1,0.2
2025-07-14T1600,1552A,106.805,26.3003,贵阳市,桐木岭,,24,24,30,14,17,57,,60,60,7,8,9,9,1.0,1
2025-07-14T1600,4230A,106.6882,26.5695,贵阳市,花果园大街66号,,28,,15,8,17,88,,78,78,6,12,5,5,0.3,0.4
2025-07-14T1600,4231A,106.6873,26.5169,贵阳市,漓江路57号,,31,9,18,3,7,99,,94,94,5,9,4,5,0.3,0.3
2025-07-14T1600,1862A,110.4144,25.3167,桂林市,电子科大尧山校区,,,,,,,,,,,,,,,,
2025-07-14T1600,1864A,110.3089,25.2708,桂林市,龙隐路小学,,28,16,24,9,17,87,,70,70,3,8,8,9,0.4,0.4
2025-07-14T1600,1865A,110.2869,25.2178,桂林市,八中,,28,21,21,10,11,89,,69,69,4,10,5,5,0.4,0.5
2025-07-14T1600,3531A,110.296,25.1253,桂林市,旅游学院,,29,12,14,12,10,92,,70,70,3,7,3,3,0.4,0.4
2025-07-14T1600,4222A,110.1835,25.2444,桂林市,环湖路276号,,,14,13,9,8,105,,,,2,2,,68,0.2,0.3
2025-07-14T1600,4301A,110.2803,25.2773,桂林市,信义路13号,,31,25,24,6,17,97,,76,76,6,10,4,5,0.6,0.6
2025-07-14T1600,2674A,100.2561,34.4714,果洛藏族自治州,玛沁县大武镇,,32,18,29,7,14,100,,91,91,2,8,10,13,0.3,0.3
2025-07-14T1600,1129A,126.5422,45.755,哈尔滨市,岭北,,37,13,12,6,8,117,,93,93,8,18,6,7,0.3,0.2
2025-07-14T1600,1130A,126.561,45.8167,哈尔滨市,松北商大,,31,26,26,3,5,99,,74,74,5,25,6,7,0.4,0.5
2025-07-14T1600,1131A,126.979,45.5419,哈尔滨市,阿城会宁,,31,13,25,3,9,98,,72,72,10,25,15,10,0.2,0.6
2025-07-14T1600,1132A,126.599,45.7222,哈尔滨市,南岗学府路,,32,24,27,3,8,101,,82,82,6,16,5,6,0.4,0.7
2025-07-14T1600,1133A,126.689,45.7733,哈尔滨市,太平宏伟公园,,33,30,27,3,6,103,,76,76,12,24,6,7,0.2,0.2
2025-07-14T1600,1134A,126.635,45.7667,哈尔滨市,道外承德广场,,32,24,31,15,8,102,,74,74,8,17,6,6,0.5,0.6
2025-07-14T1600,1135A,126.685,45.7319,哈尔滨市,香坊红旗大街,,33,17,22,8,8,104,,80,80,12,20,14,8,0.3,0.5
2025-07-14T1600,1136A,126.6411,45.7258,哈尔滨市,动力和平路,,35,20,19,3,3,109,,82,82,7,17,6,6,0.4,0.4
2025-07-14T1600,1137A,126.593,45.7478,哈尔滨市,道里建国路,,35,26,21,13,6,110,,83,83,5,18,6,4,0.3,0.4
2025-07-14T1600,1138A,126.615,45.61,哈尔滨市,平房东轻厂,,48,48,31,18,9,110,,81,81,16,32,8,9,0.2,0.3
2025-07-14T1600,1139A,126.595,45.9855,哈尔滨市,呼兰师专,,29,26,23,8,5,92,,71,71,12,21,10,11,0.5,0.5
2025-07-14T1600,1140A,126.6206,45.6842,哈尔滨市,省农科院,,,16,22,,17,108,,82,82,7,15,6,8,0.4,0.5
2025-07-14T1600,2688A,93.5128,42.8172,哈密市,地区监测站,细颗粒物(PM2.5),75,87,66,55,38,132,,111,111,5,25,7,7,0.1,0.4
2025-07-14T1600,2689A,93.4961,42.8328,哈密市,哈密师范学校,颗粒物(PM10),62,73,70,26,23,131,,109,109,5,25,9,6,0.2,0.5
2025-07-14T1600,2671A,100.9048,36.9639,海北藏族自治州,海晏县西海镇,,44,31,32,29,27,138,,125,125,2,7,12,12,0.5,0.5
2025-07-14T1600,3867A,102.0738,36.5056,海东市,平安区公安北苑,,45,30,36,19,19,143,,117,117,2,4,6,9,0.6,0.6
2025-07-14T1600,1409A,110.576,19.9507,海口市,东寨港,,,,,,,,,,,,,,,,
2025-07-14T1600,1410A,110.3232,20.0574,海口市,海南大学,,22,16,21,10,12,68,,74,74,3,10,2,2,0.4,0.4
2025-07-14T1600,1411A,110.283,20.0053,海口市,秀英海南医院,,24,24,28,8,12,65,,68,68,8,16,4,5,0.3,0.4
2025-07-14T1600,1412A,110.338,19.9969,海口市,海南师范大学,,23,23,30,9,14,71,,77,77,5,11,4,4,0.3,0.4
2025-07-14T1600,1413A,110.33,20.0356,海口市,龙华路环保局宿舍,,21,21,24,9,11,66,,72,72,6,13,5,5,0.3,0.3
2025-07-14T1600,3539A,110.5111,19.9736,海口市,桂林洋子站,,20,20,27,9,13,60,,63,63,4,11,4,4,0.2,0.3
2025-07-14T1600,2673A,100.6188,36.2866,海南藏族自治州,共和县恰卜恰镇,,40,21,37,19,18,127,,126,126,3,6,9,14,0.6,0.6
2025-07-14T1600,2676A,97.3731,37.3753,海西蒙古族藏族自治州,德令哈市,颗粒物(PM10),52,53,52,14,16,118,,110,110,1,4,12,10,0.7,0.7
2025-07-14T1600,1048A,114.5302,36.6116,邯郸市,东污水处理厂,臭氧1小时,83,60,63,12,18,186,,164,164,5,13,4,4,0.5,0.5
2025-07-14T1600,1049A,114.4918,36.5713,邯郸市,矿院,臭氧1小时,97,46,44,24,25,197,,168,168,4,14,4,6,0.5,0.5
2025-07-14T1600,1050A,114.484,36.6133,邯郸市,丛台公园,臭氧1小时,95,56,50,20,24,196,,172,172,6,11,7,8,0.5,0.5
2025-07-14T1600,3458A,114.7895,36.5593,邯郸市,香泉濮院小区,臭氧1小时,99,49,79,10,18,199,,171,171,8,13,3,3,0.4,0.6
2025-07-14T1600,3579A,114.50634,36.77178,邯郸市,永年区实验高中,臭氧1小时,94,55,69,36,35,195,,171,171,8,18,2,3,0.4,0.5
2025-07-14T1600,3580A,114.20016,36.44293,邯郸市,峰峰矿区临水派出所,臭氧1小时,92,51,60,20,21,193,,172,172,5,10,3,5,0.3,0.4
2025-07-14T1600,2634A,106.9893,33.1842,汉中市,汉川机床厂子校,,43,31,30,18,20,135,,108,108,4,12,3,4,0.5,0.5
2025-07-14T1600,2635A,107.0154,33.0706,汉中市,市监测站,,39,29,34,18,21,124,,103,103,5,10,6,7,0.5,0.6
2025-07-14T1600,2636A,107.0089,33.1138,汉中市,鑫源开发区,,40,21,32,15,20,127,,98,98,4,14,5,7,0.4,0.5
2025-07-14T1600,2637A,107.007,33.0323,汉中市,南郑大河坎水厂,,42,27,32,20,21,132,,108,108,4,12,3,3,0.2,0.3
2025-07-14T1600,1223A,120.2072,30.2111,杭州市,滨江,,44,44,33,22,19,132,,105,105,13,20,5,6,0.4,0.4
2025-07-14T1600,1224A,120.0633,30.2747,杭州市,西溪,,42,30,27,27,20,134,,98,98,5,14,4,4,0.4,0.4
2025-07-14T1600,1226A,120.3417,30.3150,杭州市,下沙,,48,37,25,19,18,151,,121,121,10,8,5,5,0.4,0.4
2025-07-14T1600,1227A,120.1269,30.2456,杭州市,卧龙桥,,46,36,30,32,20,120,,94,94,5,7,8,8,0.5,0.5
2025-07-14T1600,1228A,120.1903,30.2692,杭州市,浙江农大,,37,37,41,23,21,114,,91,91,14,23,4,4,0.4,0.4
2025-07-14T1600,1230A,120.1197,30.3119,杭州市,和睦小学,,41,33,27,20,17,129,,103,103,5,11,4,4,0.4,0.4
2025-07-14T1600,1231A,120.3019,30.4183,杭州市,临平镇,,50,39,33,23,16,160,,127,127,7,15,6,6,0.4,0.4
2025-07-14T1600,1232A,120.2753,30.1839,杭州市,城厢镇,,49,49,34,26,25,141,,110,110,10,15,6,6,0.4,0.5
2025-07-14T1600,1233A,120.0883,30.1808,杭州市,云栖,,36,32,29,22,14,114,,88,88,7,11,8,8,0.8,0.8
2025-07-14T1600,3557A,119.9464,30.0494,杭州市,镇二中,,36,31,28,25,26,100,,82,82,5,15,4,3,0.5,0.6
2025-07-14T1600,3558A,119.7183,30.2367,杭州市,市府大楼,,40,34,28,22,19,125,,96,96,7,10,7,7,0.4,0.5
2025-07-14T1600,3656A,120.1556,30.2864,杭州市,消防大队,,42,41,29,28,21,133,,108,108,7,15,6,6,0.5,0.6
2025-07-14T1600,1270A,117.1959,31.7848,合肥市,明珠广场,,45,34,32,22,20,141,,126,126,12,21,4,5,0.5,0.5
2025-07-14T1600,1271A,117.3072,31.8764,合肥市,三里街,,43,29,27,19,18,136,,126,126,8,12,6,6,0.5,0.4
2025-07-14T1600,1272A,117.2588,31.8707,合肥市,琥珀山庄,,49,41,31,34,21,146,,129,129,12,14,7,7,0.6,0.5
2025-07-14T1600,1273A,117.1604,31.9052,合肥市,董铺水库,,40,34,25,19,15,127,,112,112,6,11,4,4,0.5,0.3
2025-07-14T1600,1274A,117.25,31.8571,合肥市,长江中路,,49,31,30,30,20,155,,131,131,6,10,5,5,0.5,0.5
2025-07-14T1600,1275A,117.266,31.9436,合肥市,庐阳区,,,44,33,24,18,142,,126,126,,13,8,7,0.5,0.5
2025-07-14T1600,1276A,117.3453,31.8616,合肥市,瑶海区,,44,44,31,29,17,139,,128,128,12,13,7,7,0.6,0.5
2025-07-14T1600,1277A,117.3027,31.7964,合肥市,包河区,,44,31,30,27,19,138,,129,129,17,28,5,5,0.7,0.5
2025-07-14T1600,1278A,117.2776,31.7385,合肥市,滨湖新区,,45,22,34,19,26,142,,132,132,6,24,6,6,0.4,0.4
2025-07-14T1600,1279A,117.1318,31.8403,合肥市,高新区,,46,34,30,23,17,146,,125,125,10,14,7,7,0.5,0.4
2025-07-14T1600,3464A,117.3803,31.9147,合肥市,高教基地,,49,46,29,34,19,127,,123,123,6,16,5,5,0.6,0.5
2025-07-14T1600,3614A,79.924,37.0877,和田地区,地区环保局,颗粒物(PM10),157,263,131,59,27,126,,102,102,1,10,2,3,0.4,0.5
2025-07-14T1600,3615A,79.9131,37.113,和田地区,市环保局,颗粒物(PM10),120,190,165,49,33,123,,93,93,6,22,1,2,0.2,0.3
2025-07-14T1600,2516A,108.2011,24.715,河池市,东仁乐园,,,,,,,,,,,,,,,,
2025-07-14T1600,2517A,108.0497,24.6947,河池市,市环保站,,29,29,19,9,7,68,,67,67,2,6,3,3,0.5,0.5
2025-07-14T1600,2518A,108.0983,24.6989,河池市,市疾控中心,,26,19,20,12,10,81,,70,70,9,13,5,3,0.8,0.7
2025-07-14T1600,1696A,114.6778,23.7569,河源市,源西,,31,25,27,18,19,98,,76,76,6,11,4,3,0.7,0.8
2025-07-14T1600,1697A,114.6944,23.7586,河源市,东埔,,35,25,26,15,12,111,,82,82,8,10,4,5,0.5,0.5
2025-07-14T1600,1698A,114.6892,23.7233,河源市,老城,,36,25,25,25,14,109,,77,77,7,8,4,5,0.5,0.5
2025-07-14T1600,1718A,115.4208,35.2464,菏泽市,气象局,臭氧1小时,85,41,49,19,25,188,,158,158,7,14,3,3,0.4,0.4
2025-07-14T1600,3374A,115.5564,35.0891,菏泽市,定陶老年大学,臭氧1小时,60,34,43,12,18,168,,140,140,11,19,2,2,0.4,0.4
2025-07-14T1600,4184A,115.4797,35.24401,菏泽市,永昌路1号,臭氧1小时,92,42,45,20,26,193,,164,164,9,15,5,6,0.2,0.2
2025-07-14T1600,4193A,115.4715,35.2800,菏泽市,长城路999号,臭氧1小时,90,45,45,14,21,192,,177,177,7,15,6,5,0.4,0.4
2025-07-14T1600,2514A,111.5264,24.4172,贺州市,环保小区,,29,17,20,3,16,91,,72,72,4,9,10,10,0.8,0.9
2025-07-14T1600,2515A,111.5608,24.4078,贺州市,政协大楼,,29,10,16,7,12,90,,73,73,9,11,12,13,0.6,0.7
2025-07-14T1600,3534A,111.4744,24.4553,贺州市,西湾,,23,22,20,7,10,72,,62,62,6,9,5,7,0.4,0.5
2025-07-14T1600,2385A,114.17,35.9019,鹤壁市,市监测站,臭氧1小时,77,47,62,35,41,181,,168,168,6,14,6,7,0.6,0.7
2025-07-14T1600,2386A,114.2956,35.7511,鹤壁市,市交警支队,细颗粒物(PM2.5),59,45,57,42,39,164,,155,155,10,20,8,6,0.9,0.9
2025-07-14T1600,2387A,114.2878,35.7306,鹤壁市,迎宾馆,,50,46,60,34,39,158,,153,153,4,13,5,5,0.7,0.7
2025-07-14T1600,3474A,114.2617,35.6822,鹤壁市,大新区,颗粒物(PM10),53,56,55,26,31,150,,148,148,4,10,6,7,0.5,0.6
2025-07-14T1600,3596A,114.1572,35.9603,鹤壁市,南山宾馆,臭氧1小时,95,66,70,40,41,196,,171,171,4,8,4,4,0.9,1
2025-07-14T1600,2244A,130.2537,47.3416,鹤岗市,哈啤分公司,,,23,18,7,7,90,,75,75,5,4,10,10,,0.5
2025-07-14T1600,2245A,130.2684,47.3086,鹤岗市,斯达机电,,32,,24,22,16,84,,76,76,4,6,11,11,0.5,0.5
2025-07-14T1600,2246A,130.3114,47.3388,鹤岗市,东山纸板厂,,28,27,21,18,9,88,,80,80,10,7,11,12,0.5,0.4
2025-07-14T1600,2247A,130.1097,47.3382,鹤岗市,五号水库,,25,6,8,3,5,80,,63,63,7,7,8,8,0.2,0.1
2025-07-14T1600,2263A,127.4833,50.2524,黑河市,交通局,,25,19,21,12,11,79,,75,75,4,8,6,7,0.2,0.2
2025-07-14T1600,2264A,127.5144,50.2341,黑河市,环保局,,25,19,28,7,11,78,,77,77,6,9,5,8,0.3,0.3
2025-07-14T1600,2265A,127.5291,50.2472,黑河市,大黑河岛,,,,,,,,,,,,,,,,
2025-07-14T1600,1074A,115.6838,37.7541,衡水市,电机北厂,臭氧1小时,57,32,39,6,17,165,,137,137,4,9,4,6,0.2,0.4
2025-07-14T1600,1075A,115.6303,37.7316,衡水市,市监测站,臭氧1小时,55,37,48,3,11,164,,139,139,2,7,9,10,0.3,0.3
2025-07-14T1600,3188A,115.6683,37.7217,衡水市,市城管局,臭氧1小时,58,17,33,12,18,166,,139,139,7,12,14,16,0.3,0.3
2025-07-14T1600,3459A,115.5989,37.5491,衡水市,地表水厂,臭氧1小时,55,39,44,3,9,164,,133,133,4,11,7,8,0.2,0.3
2025-07-14T1600,2456A,112.5003,26.9167,衡阳市,原169医院,,26,7,26,7,15,81,,94,94,7,11,5,6,0.4,0.5
2025-07-14T1600,2457A,112.6194,26.9258,衡阳市,衡阳化工总厂,,27,14,32,11,21,84,,86,86,10,12,2,4,0.5,0.6
2025-07-14T1600,2458A,112.6211,26.8956,衡阳市,珠晖区环保局,,,22,34,18,19,82,,87,87,14,9,5,4,,0.8
2025-07-14T1600,2459A,112.6197,26.8733,衡阳市,市委党校,,28,17,33,17,15,89,,92,92,15,10,7,7,1.0,0.6
2025-07-14T1600,2460A,112.6006,26.8919,衡阳市,市监测站,,37,37,30,15,19,92,,92,92,9,9,2,5,0.4,0.5
2025-07-14T1600,2461A,112.5664,26.9056,衡阳市,真空机电公司,,28,,28,19,19,84,,84,84,7,9,3,8,0.6,0.8
2025-07-14T1600,3399A,112.6703,26.882,衡阳市,师范学院,,31,,40,20,19,98,,90,90,8,8,6,6,0.6,0.7
2025-07-14T1600,2608A,103.3772,23.3993,红河哈尼族彝族自治州,污水处理厂,,26,21,21,18,15,76,,77,77,8,8,8,9,0.1,0.2
2025-07-14T1600,2609A,103.3861,23.35,红河哈尼族彝族自治州,监测站,,26,26,29,12,15,67,,68,68,5,5,10,10,0.2,0.2
2025-07-14T1600,3038A,103.3758,23.368,红河哈尼族彝族自治州,州图书馆,,22,11,17,10,13,70,,71,71,6,6,2,4,0.2,0.2
2025-07-14T1600,1090A,111.6507,40.7517,呼和浩特市,呼市一监,臭氧1小时,72,44,30,32,13,177,,140,140,6,14,7,7,0.6,0.5
2025-07-14T1600,1091A,111.6572,40.8033,呼和浩特市,小召,臭氧1小时,60,51,26,31,13,168,,136,136,15,21,8,7,0.7,0.6
2025-07-14T1600,1094A,111.7516,40.8369,呼和浩特市,如意水处理厂,臭氧1小时,68,59,27,34,13,174,,136,136,9,19,4,2,0.5,0.4
2025-07-14T1600,1095A,111.7276,40.8062,呼和浩特市,二十九中,臭氧1小时,79,43,27,30,12,183,,137,137,7,19,7,6,0.7,0.6
2025-07-14T1600,1096A,111.5512,40.7866,呼和浩特市,工大金川校区,臭氧1小时,80,48,33,31,12,184,,141,141,10,27,7,7,0.5,0.4
2025-07-14T1600,1097A,111.717,40.7612,呼和浩特市,化肥厂生活区,臭氧1小时,88,56,32,30,14,190,,138,138,10,21,7,7,0.5,0.4
2025-07-14T1600,3698A,111.5968,40.8178,呼和浩特市,红旗小学,臭氧1小时,83,44,31,28,12,186,,147,147,12,23,6,5,0.5,0.3
2025-07-14T1600,3699A,111.6518,40.8389,呼和浩特市,海东办,臭氧1小时,80,51,30,32,14,184,,162,162,14,30,7,3,0.6,0.5
2025-07-14T1600,2192A,119.7594,49.2261,呼伦贝尔市,区环保局,,29,29,31,13,21,81,,64,64,10,17,6,6,0.3,0.3
2025-07-14T1600,3061A,119.7512,49.1577,呼伦贝尔市,国华电力东,,29,27,22,13,12,92,,78,78,4,9,7,8,0.5,0.4
2025-07-14T1600,1250A,120.0751,30.8669,湖州市,城西水厂,细颗粒物(PM2.5),54,46,42,38,31,112,,111,111,25,30,6,6,0.6,0.5
2025-07-14T1600,2873A,120.0830,30.8929,湖州市,仁皇山新区,,50,36,40,25,28,158,,116,116,6,15,4,5,0.7,0.7
2025-07-14T1600,2907A,120.1844,30.8596,湖州市,吴兴区站,臭氧1小时,74,35,35,32,26,179,,126,126,5,11,6,6,0.5,0.5
2025-07-14T1600,3562A,120.4148,30.8538,湖州市,南浔区站,臭氧1小时,82,44,32,31,29,185,,135,135,6,11,6,6,0.7,0.6
2025-07-14T1600,1607A,120.9049,40.7211,葫芦岛市,龙港区,,43,43,31,6,9,103,,83,83,27,35,5,6,0.4,0.4
2025-07-14T1600,1608A,120.8392,40.7514,葫芦岛市,化工街,,33,14,24,3,10,103,,93,93,12,28,10,26,0.3,0.4
2025-07-14T1600,1609A,120.8341,40.7073,葫芦岛市,新区,,35,18,22,7,10,110,,96,96,9,19,6,8,0.5,0.6
2025-07-14T1600,1610A,120.8695,40.7677,葫芦岛市,东城区,,35,15,26,9,10,111,,96,96,9,22,7,14,0.5,0.5
2025-07-14T1600,2482A,109.5981,27.5721,怀化市,林科所,,28,24,23,3,7,87,,87,87,6,8,3,4,0.7,0.4
2025-07-14T1600,2483A,109.9453,27.5444,怀化市,河西地税局,,27,19,22,15,14,84,,84,84,4,10,3,3,0.2,0.3
2025-07-14T1600,2484A,109.9781,27.5342,怀化市,市四医院,,42,,32,29,19,87,,84,84,5,14,4,6,0.1,0.1
2025-07-14T1600,2485A,109.9972,27.5578,怀化市,监测楼,,,27,30,19,18,76,,74,74,,8,5,5,0.1,0.2
2025-07-14T1600,2486A,110.0394,27.583,怀化市,市委党校,,29,,24,20,16,90,,86,86,4,7,5,8,0.2,0.3
2025-07-14T1600,1210A,119.036,33.5981,淮安市,钵池山,,39,14,23,13,23,123,,122,122,7,10,9,11,0.4,0.6
2025-07-14T1600,1211A,119.007,33.575,淮安市,北京南路,,43,14,27,10,19,137,,124,124,10,12,8,8,0.5,0.8
2025-07-14T1600,1212A,118.989,33.6067,淮安市,市监测站,,45,17,26,9,19,144,,132,132,4,6,8,8,0.4,0.6
2025-07-14T1600,1213A,119.135,33.5039,淮安市,楚州区监测站,,42,20,35,12,21,132,,123,123,10,9,8,8,0.5,0.7
2025-07-14T1600,3426A,118.8755,33.2894,淮安市,新华书店,臭氧1小时,57,20,25,9,18,165,,134,134,8,8,9,8,0.6,0.6
2025-07-14T1600,4206A,119.0288,33.6319,淮安市,承德北路606号,,40,,27,16,20,126,,126,126,8,9,5,6,0.3,0.5
2025-07-14T1600,2282A,116.8004,33.975,淮北市,监测站,臭氧1小时,59,34,36,23,31,167,,144,144,5,7,8,7,0.6,0.6
2025-07-14T1600,2283A,116.8091,33.9007,淮北市,烈山区政府,臭氧1小时,70,39,44,8,17,176,,153,153,2,5,8,8,0.6,0.6
2025-07-14T1600,3330A,116.8873,33.9836,淮北市,杜集区检察院,,50,24,42,10,23,159,,137,137,4,11,7,7,0.6,0.6
2025-07-14T1600,4017A,116.7923,33.9535,淮北市,市博物馆,臭氧1小时,70,25,36,11,20,176,,152,152,3,7,10,9,0.6,0.6
2025-07-14T1600,2277A,116.8305,32.7727,淮南市,潘集区政府,臭氧1小时,73,39,43,25,18,178,,144,144,6,11,2,2,0.5,0.4
2025-07-14T1600,2279A,116.8569,32.5951,淮南市,谢家集区政府,臭氧1小时,70,27,32,22,18,176,,154,154,5,8,8,7,0.5,0.2
2025-07-14T1600,2280A,116.8281,32.633,淮南市,八公山区政府,臭氧1小时,75,47,33,24,19,180,,153,153,5,7,7,5,0.5,0.3
2025-07-14T1600,2281A,116.6325,32.6201,淮南市,焦岗湖风景区管理处,,,,,,,,,,,,,,,,
2025-07-14T1600,2894A,117.0566,32.6531,淮南市,经济技术开发区消防队,臭氧1小时,87,39,33,18,12,189,,155,155,9,10,12,9,0.4,0.3
2025-07-14T1600,3329A,117.0108,32.5893,淮南市,山南新区,臭氧1小时,94,50,36,18,14,195,,161,161,4,6,10,9,0.5,0.4
2025-07-14T1600,4209A,117.0031,32.6445,淮南市,国庆中路369号,臭氧1小时,95,32,27,27,30,196,,162,162,13,9,12,11,0.7,0.5
2025-07-14T1600,2446A,114.9028,30.4742,黄冈市,职工中心,,41,22,27,16,16,131,,117,117,2,6,11,10,0.7,0.4
2025-07-14T1600,2929A,114.8858,30.4519,黄冈市,红卫路,,42,21,26,14,14,132,,120,120,2,6,11,10,0.8,0.5
2025-07-14T1600,3398A,114.9136,30.4445,黄冈市,市林业局,,33,23,27,9,14,105,,100,100,2,9,10,9,0.5,0.4
2025-07-14T1600,2672A,102.0199,35.5102,黄南藏族自治州,同仁县隆务镇,,20,18,31,6,11,61,,53,53,19,14,10,9,0.2,0.2
2025-07-14T1600,2295A,118.2903,29.6963,黄山市,延安路89号,,27,26,17,9,7,85,,68,68,1,5,3,3,0.4,0.4
2025-07-14T1600,2297A,118.1371,30.2756,黄山市,黄山区政府5号楼,,43,43,24,19,14,99,,79,79,2,4,4,4,0.4,0.4
2025-07-14T1600,4210A,118.3354,29.7203,黄山市,滨江东路7-2号,,27,21,20,3,6,86,,70,70,2,5,2,3,0.4,0.4
2025-07-14T1600,2423A,115.0601,30.2313,黄石市,沈家营,,38,38,36,9,10,120,,108,108,1,8,6,7,0.6,0.6
2025-07-14T1600,2426A,114.8988,30.2019,黄石市,铁山,,38,26,32,11,15,119,,108,108,4,12,15,11,0.5,0.4
2025-07-14T1600,2427A,115.0307,30.2092,黄石市,团城山,,44,24,30,3,6,138,,117,117,5,12,6,9,0.6,0.7
2025-07-14T1600,3149A,115.0235,30.1578,黄石市,笔架山北路,,36,18,34,6,8,115,,96,96,13,15,5,5,0.4,0.4
2025-07-14T1600,4185A,115.0780,30.21118,黄石市,磁湖东路29号,,39,22,42,9,12,124,,115,115,2,18,7,9,0.7,0.7
2025-07-14T1600,1392A,114.4183,23.0528,惠州市,河南岸金山湖子站,,43,34,27,30,19,124,,94,94,9,12,6,6,0.4,0.5
2025-07-14T1600,1393A,114.4053,23.0822,惠州市,下埔横江三路子站,,49,36,28,15,16,154,,101,101,11,16,4,4,0.4,0.5
2025-07-14T1600,1394A,114.4103,23.1142,惠州市,江北云山西路子站,臭氧1小时,64,34,26,21,17,171,,109,109,5,14,7,7,0.5,0.6
2025-07-14T1600,1395A,114.4645,22.7833,惠州市,惠阳区承修路船湖子站,,27,24,35,14,16,85,,90,90,14,10,7,6,0.5,0.5
2025-07-14T1600,1396A,114.5317,22.7422,惠州市,大亚湾管委会子站,,,22,25,14,14,69,,65,65,,11,8,7,0.6,0.6
2025-07-14T1600,3314A,114.4338,22.8134,惠州市,惠阳秋长,,30,27,31,13,14,94,,98,98,20,14,3,2,0.4,0.3
2025-07-14T1600,3452A,114.6517,22.775,惠州市,大亚湾霞涌,,21,17,25,12,14,67,,72,72,5,6,4,5,0.5,0.6
2025-07-14T1600,2240A,130.9762,45.3001,鸡西市,环保局,,25,16,19,3,8,79,,78,78,9,12,7,7,0.1,0.1
2025-07-14T1600,2243A,130.9429,45.3039,鸡西市,第一中学,,,28,16,17,8,76,,76,76,10,14,,8,0.2,0.1
2025-07-14T1600,3707A,131.0207,45.3073,鸡西市,欧美日汽修厂,,27,17,21,3,9,84,,77,77,7,16,7,7,0.0,0.2
2025-07-14T1600,3709A,130.9967,45.3106,鸡西市,市政设施管理处,,25,19,21,11,11,78,,74,74,11,20,4,5,0.3,0.3
2025-07-14T1600,2367A,114.9754,27.0803,吉安市,红声器材厂,,34,25,23,12,10,108,,91,91,2,5,8,8,0.6,0.6
2025-07-14T1600,2368A,114.9658,27.0999,吉安市,市森林工业局,,38,25,20,10,9,121,,98,98,1,4,7,8,0.6,0.3
2025-07-14T1600,2369A,114.99,27.1312,吉安市,市环境监测站,,42,25,20,12,9,132,,106,106,1,3,13,14,0.5,0.5
2025-07-14T1600,2370A,115.0093,27.0968,吉安市,青原区法院,,34,24,21,12,10,106,,90,90,6,10,6,6,0.6,0.6
2025-07-14T1600,1772A,126.54,43.8622,吉林市,哈达湾,,30,13,25,9,12,94,,78,78,4,21,7,21,0.3,0.4
2025-07-14T1600,1773A,126.5844,43.8358,吉林市,东局子,,27,14,24,3,8,84,,76,76,4,16,4,7,0.6,0.6
2025-07-14T1600,1774A,126.5052,43.8245,吉林市,电力学院,,30,9,21,8,9,95,,82,82,4,17,5,16,0.2,0.4
2025-07-14T1600,1775A,126.6133,43.8972,吉林市,江北,,29,17,18,9,10,92,,84,84,2,12,9,9,0.4,0.5
2025-07-14T1600,1776A,126.555,43.8306,吉林市,江南公园,,,13,22,8,11,87,,76,76,,19,2,9,,0.8
2025-07-14T1600,1778A,126.7061,43.7133,吉林市,丰满,,,,,,,,,,,,,,,,
2025-07-14T1600,2868A,126.4739,43.953,吉林市,九站,,30,22,33,11,24,94,,70,70,13,32,14,20,0.4,0.6
2025-07-14T1600,1299A,116.9862,36.6114,济南市,科干所,,46,19,21,7,11,145,,127,127,13,16,9,6,0.2,0.4
2025-07-14T1600,1300A,116.9376,36.665,济南市,农科所,,45,22,29,7,8,143,,126,126,10,16,9,8,0.3,0.4
2025-07-14T1600,1301A,117.1265,36.6734,济南市,开发区,,43,20,28,10,12,137,,119,119,17,20,10,9,0.4,0.5
2025-07-14T1600,1303A,117.0624,36.6868,济南市,省种子仓库,,47,19,31,3,9,150,,134,134,7,14,9,8,0.3,0.4
2025-07-14T1600,1304A,116.9489,36.6447,济南市,机床二厂,,47,22,33,7,10,150,,134,134,17,20,10,7,0.5,0.5
2025-07-14T1600,1305A,117.0495,36.663,济南市,市监测站,,44,20,29,7,10,138,,124,124,15,19,11,10,0.4,0.5
2025-07-14T1600,1306A,116.7675,36.5484,济南市,长清党校,臭氧1小时,95,32,34,27,21,196,,81,,10,17,8,6,0.4,0.5
2025-07-14T1600,1616A,117.6795,36.229,济南市,技术学院,,43,12,17,7,12,136,,124,124,6,10,10,9,0.4,0.5
2025-07-14T1600,1961A,117.532,36.6868,济南市,东山小学,,47,20,37,7,10,150,,128,128,6,17,9,9,0.2,0.3
2025-07-14T1600,3059A,117.7161,36.2049,济南市,泰兴公司,,43,7,21,3,12,137,,124,124,4,12,10,8,0.3,0.4
2025-07-14T1600,3064A,117.6867,36.2171,济南市,莱芜战役纪念馆,,44,17,26,8,14,140,,128,128,2,6,12,9,0.3,0.7
2025-07-14T1600,3494A,117.1673,36.9782,济南市,济阳区政府,,42,20,32,3,12,133,,121,121,8,11,10,13,0.2,0.4
2025-07-14T1600,3495A,117.1171,36.63,济南市,锦屏中学,,47,15,24,3,8,149,,131,131,10,12,8,8,0.5,0.5
2025-07-14T1600,3682A,116.9814,36.6819,济南市,济南四建,,45,17,28,10,13,144,,130,130,13,19,7,7,0.3,0.4
2025-07-14T1600,1653A,116.6251,35.4302,济宁市,火炬城,臭氧1小时,63,26,39,14,19,170,,133,133,7,12,4,4,0.4,0.5
2025-07-14T1600,1655A,116.5491,35.4042,济宁市,电化厂,臭氧1小时,106,33,42,17,24,211,,169,169,6,11,7,6,0.5,0.6
2025-07-14T1600,3500A,116.5814,35.3707,济宁市,北湖一中,,,,44,3,21,,,154,154,,14,,7,2.5,0.4
2025-07-14T1600,3501A,116.8249,35.5593,济宁市,服务中心,,48,16,35,3,14,153,,134,134,10,15,4,3,0.1,0.2
2025-07-14T1600,3678A,116.5907,35.4054,济宁市,市第七中学,臭氧1小时,84,32,41,3,14,187,,143,143,7,10,8,7,0.3,0.4
2025-07-14T1600,2255A,130.2751,46.8028,佳木斯市,佳纺,,18,18,19,3,8,55,,54,54,5,16,6,7,0.2,0.2
2025-07-14T1600,2256A,130.3995,46.8307,佳木斯市,发电厂,,22,22,21,6,7,51,,52,52,11,17,7,5,0.1,0.1
2025-07-14T1600,2257A,130.3258,46.7975,佳木斯市,环保局,,17,14,21,8,9,53,,53,53,9,20,8,8,0.4,0.4
2025-07-14T1600,2258A,130.3648,46.8032,佳木斯市,十一中,颗粒物(PM10),74,98,19,15,8,57,,56,56,5,11,5,5,0.4,0.4
2025-07-14T1600,2259A,130.3794,46.7588,佳木斯市,四丰,,,,,,,6,,,,5,15,,29,0.4,0.5
2025-07-14T1600,1252A,120.7436,30.778,嘉兴市,清河小学,臭氧1小时,84,43,42,27,25,187,,142,142,10,17,8,8,0.8,0.9
2025-07-14T1600,1253A,120.726,30.7478,嘉兴市,嘉兴学院,臭氧1小时,92,43,37,26,26,193,,149,149,5,18,4,6,0.6,0.7
2025-07-14T1600,2872A,120.7846,30.7525,嘉兴市,南湖区残联,臭氧1小时,104,39,38,33,27,207,,155,155,6,14,6,8,0.7,0.7
2025-07-14T1600,3407A,120.6916,30.7739,嘉兴市,秀洲住建,臭氧1小时,90,40,34,29,25,192,,148,148,8,18,6,6,0.6,0.6
2025-07-14T1600,1945A,98.2908,39.7711,嘉峪关市,气象局,,45,31,30,9,15,144,,124,124,5,8,17,16,1.3,1.2
2025-07-14T1600,2884A,98.2672,39.7978,嘉峪关市,酒钢宾馆,,46,36,33,19,13,147,,126,126,7,6,31,21,0.7,0.5
2025-07-14T1600,3248A,98.2643,39.7724,嘉峪关市,雄关区,,43,31,33,10,15,137,,116,116,9,13,14,12,0.8,0.6
2025-07-14T1600,1383A,113.1064,22.6058,江门市,北街,,28,23,29,14,14,88,,71,71,6,6,2,2,0.4,0.4
2025-07-14T1600,1384A,113.0731,22.5835,江门市,西区,,29,24,33,3,5,91,,67,67,6,11,5,5,0.6,0.6
2025-07-14T1600,1385A,113.0219,22.5311,江门市,圭峰西,,25,20,30,14,14,80,,62,62,5,7,4,4,0.5,0.4
2025-07-14T1600,1386A,113.0828,22.5947,江门市,东湖,,27,22,26,12,14,85,,67,67,8,11,5,7,0.4,0.4
2025-07-14T1600,3311A,113.1075,22.5647,江门市,江海富民,,30,22,39,8,14,94,,74,74,5,10,7,7,0.2,0.3
2025-07-14T1600,3449A,113.05,22.4667,江门市,新会银湖,,20,20,28,12,14,63,,58,58,4,9,2,2,0.5,0.5
2025-07-14T1600,1830A,113.1992,35.2590,焦作市,影视城,,,,,,,,,,,,,,,,
2025-07-14T1600,3169A,113.2725,35.2067,焦作市,太极体育中心,,,,,,,,,,,,,,,,
2025-07-14T1600,3335A,113.3137,35.2641,焦作市,马村街道办,臭氧1小时,94,,60,45,39,195,,163,163,9,15,13,11,0.6,0.7
2025-07-14T1600,3336A,113.2465,35.2373,焦作市,焦作技师学院,臭氧1小时,73,43,52,22,25,178,,162,162,14,12,5,4,0.6,0.8
2025-07-14T1600,3477A,113.1656,35.2539,焦作市,中站许衡医院,臭氧1小时,68,78,51,22,30,174,,167,167,4,14,7,7,0.4,0.6
2025-07-14T1600,3981A,113.2449,35.1803,焦作市,原李万街道办,臭氧1小时,95,51,57,17,22,196,,171,171,10,13,11,12,0.6,0.6
2025-07-14T1600,4264A,113.2340,35.2190,焦作市,新安路1731号,,,,52,,26,191,,188,188,7,10,4,5,0.2,0.7
2025-07-14T1600,1708A,116.3701,23.5345,揭阳市,新兴,颗粒物(PM10),53,56,37,19,18,80,,58,58,4,9,4,5,0.5,0.6
2025-07-14T1600,1709A,116.3264,23.5443,揭阳市,西马,,,72,43,20,17,66,,56,56,6,10,,2,0.4,0.6
2025-07-14T1600,1710A,116.3611,23.5626,揭阳市,东兴,,35,35,35,13,15,62,,51,51,4,6,2,2,0.7,0.8
2025-07-14T1600,1711A,116.4151,23.5294,揭阳市,渔湖,颗粒物(PM10),59,68,42,8,15,72,,53,53,12,10,7,12,0.4,0.5
2025-07-14T1600,3320A,116.403,23.5699,揭阳市,曲溪,,27,27,36,8,15,80,,63,63,4,8,4,4,0.5,0.6
2025-07-14T1600,1944A,102.1692,38.5167,金昌市,天庆家园,颗粒物(PM10),51,51,136,20,44,88,,85,85,8,6,8,11,0.9,0.8
2025-07-14T1600,4022A,102.1647,38.5371,金昌市,金川区人防中心,,46,46,139,14,49,95,,84,84,4,6,8,8,0.4,0.6
2025-07-14T1600,4239A,102.1930,38.5319,金昌市,长春路96号,,31,28,137,14,46,98,,90,90,2,2,15,11,0.2,0.7
2025-07-14T1600,1262A,119.647,29.077,金华市,十五中,,37,26,30,16,16,116,,101,101,5,13,2,3,0.4,0.6
2025-07-14T1600,1263A,119.686,29.1029,金华市,监测站,,41,30,31,16,18,131,,108,108,6,12,3,4,0.4,0.6
2025-07-14T1600,3659A,119.656,29.1131,金华市,气象局,,42,39,52,15,16,132,,106,106,6,17,4,4,0.5,0.7
2025-07-14T1600,1767A,121.1115,41.0879,锦州市,南山,,36,23,19,8,10,114,,99,99,6,11,5,6,0.4,0.5
2025-07-14T1600,1768A,121.0604,40.8428,锦州市,开发区,,38,26,25,3,6,119,,104,104,9,21,4,15,0.5,0.6
2025-07-14T1600,1769A,121.1836,41.1119,锦州市,百股街道,,37,24,21,3,3,118,,106,106,7,15,5,8,0.5,0.5
2025-07-14T1600,1770A,121.1178,41.1222,锦州市,天安街道,,35,16,18,3,6,110,,98,98,11,13,5,7,0.4,0.5
2025-07-14T1600,1771A,121.1303,41.1386,锦州市,北湖公园,,35,27,14,6,8,110,,96,96,6,8,3,5,0.3,0.4
2025-07-14T1600,2160A,112.85,35.5051,晋城市,自来水公司,臭氧1小时,73,51,61,24,34,178,,158,158,10,15,4,4,0.6,0.7
2025-07-14T1600,2161A,112.8318,35.4936,晋城市,白云商贸,臭氧1小时,57,53,61,14,22,165,,147,147,8,16,6,6,0.5,0.6
2025-07-14T1600,2162A,112.8508,35.4887,晋城市,市环保局,颗粒物(PM10),60,70,69,22,31,166,,144,144,14,17,8,8,0.4,0.5
2025-07-14T1600,2163A,112.8676,35.4897,晋城市,技术学院,颗粒物(PM10),51,52,64,22,28,151,,137,137,6,12,8,7,0.6,0.7
2025-07-14T1600,2165A,112.8453,35.546,晋城市,白马寺,,,,41,,32,,,147,,,6,,6,,0.6
2025-07-14T1600,3620A,112.8271,35.4828,晋城市,泽州一中,臭氧1小时,69,60,52,22,28,175,,153,153,3,8,4,4,0.6,0.7
2025-07-14T1600,2173A,112.7249,37.7067,晋中市,南都小区,臭氧1小时,55,34,43,26,24,164,,166,166,1,8,4,6,0.4,0.5
2025-07-14T1600,2174A,112.6991,37.6982,晋中市,榆次区政府,臭氧1小时,69,53,43,30,22,175,,170,170,1,8,9,11,0.5,0.4
2025-07-14T1600,2865A,112.7195,37.6828,晋中市,榆次三中,臭氧1小时,74,44,41,27,21,179,,171,171,2,7,9,10,0.7,0.6
2025-07-14T1600,4200A,112.7478,37.6954,晋中市,迎宾街26号,臭氧1小时,75,36,40,24,20,180,,175,175,3,8,9,10,0.8,0.7
2025-07-14T1600,2439A,112.2014,31.0481,荆门市,竹园小学,,33,31,36,15,20,104,,108,108,4,11,1,1,0.4,0.5
2025-07-14T1600,2440A,112.1969,30.9891,荆门市,掇刀,,35,20,33,17,21,111,,107,107,1,6,6,6,0.4,0.5
2025-07-14T1600,2441A,112.2213,31.0386,荆门市,石化一小,,45,40,38,31,24,106,,112,112,3,12,3,9,0.2,0.6
2025-07-14T1600,3012A,112.1849,31.0362,荆门市,西山林语,,34,,28,15,18,106,,106,106,2,3,11,11,0.4,0.4
2025-07-14T1600,3547A,112.1632,31.0138,荆门市,龙泉中学南校,,34,29,30,22,22,107,,61,,2,10,3,4,0.4,0.4
2025-07-14T1600,1844A,112.2494,30.3197,荆州市,市图书馆,,37,19,23,18,17,117,,114,114,2,10,2,2,0.5,0.5
2025-07-14T1600,1845A,112.2008,30.3544,荆州市,市委党校,,37,23,27,19,21,116,,112,112,8,14,2,3,0.6,0.6
2025-07-14T1600,3194A,112.2747,30.3122,荆州市,管委会,,36,,23,20,18,114,,115,115,4,9,7,6,0.5,0.5
2025-07-14T1600,4268A,112.1722,30.3366,荆州市,学苑路85号,,33,,24,18,22,104,,98,98,13,17,4,4,0.4,0.4
2025-07-14T1600,2342A,117.3102,29.3867,景德镇市,王港中学,,,,,,,,,,,,,,,,
2025-07-14T1600,2343A,117.2117,29.2933,景德镇市,老干部活动中心,,28,,21,16,14,89,,87,87,4,14,6,15,0.7,0.8
2025-07-14T1600,2344A,117.1894,29.2789,景德镇市,兽医站,,29,24,27,13,14,91,,89,89,3,16,4,14,0.6,0.7
2025-07-14T1600,2345A,117.1547,29.2617,景德镇市,台达陶瓷,颗粒物(PM10),52,53,27,29,17,89,,85,85,13,14,22,30,0.6,1
2025-07-14T1600,2346A,117.2461,29.2956,景德镇市,陶研所,,32,27,26,22,18,93,,88,88,7,12,5,7,0.6,0.7
2025-07-14T1600,1803A,115.9872,29.6815,九江市,十里,,31,17,19,12,17,98,,110,110,4,14,4,4,0.6,0.5
2025-07-14T1600,1804A,115.9584,29.7046,九江市,茅山头,,30,8,23,3,14,95,,97,97,6,16,4,4,0.4,0.5
2025-07-14T1600,1805A,115.9877,29.7295,九江市,西园,,34,8,20,3,12,107,,107,107,6,31,6,6,0.5,0.9
2025-07-14T1600,1808A,115.9114,29.6038,九江市,综合工业园,,35,16,22,11,10,111,,108,108,9,21,6,7,0.8,0.8
2025-07-14T1600,1809A,116.0721,29.7535,九江市,石化总厂,,39,,38,27,26,108,,100,100,8,39,8,8,0.5,0.7
2025-07-14T1600,1810A,115.9773,29.5698,九江市,庐山气象台,,28,10,8,6,4,88,,78,78,4,3,6,6,0.7,0.9
2025-07-14T1600,3190A,116.0254,29.6994,九江市,外国语学校,,33,,19,13,15,103,,106,106,4,16,6,7,0.7,0.8
2025-07-14T1600,4253A,116.0102,29.6594,九江市,莲花大道8号,,26,,11,14,12,83,,88,88,1,3,4,4,0.5,0.6
2025-07-14T1600,4240A,98.4958,39.7339,酒泉市,玉门东路5号,,45,29,48,14,28,144,,126,126,4,12,13,15,0.3,0.3
2025-07-14T1600,4241A,98.5099,39.7506,酒泉市,北大街108号,,48,31,51,21,23,151,,133,133,2,9,16,20,0.5,0.4
2025-07-14T1600,2698A,76.0072,39.4467,喀什地区,巡警大队,颗粒物(PM10),64,78,125,15,27,118,,84,84,8,34,4,5,0.2,0.4
2025-07-14T1600,2699A,75.9755,39.4694,喀什地区,吾办,颗粒物(PM10),68,86,139,24,44,112,,80,80,12,35,10,10,0.5,0.6
2025-07-14T1600,4027A,75.9483,39.4689,喀什地区,老干局,颗粒物(PM10),62,74,131,19,31,113,,71,71,8,26,6,5,0.3,0.5
2025-07-14T1600,1824A,114.3389,34.7781,开封市,肿瘤医院,,49,31,48,19,26,156,,157,157,8,16,1,1,0.4,0.5
2025-07-14T1600,1826A,114.2885,34.7965,开封市,世纪星幼儿园,,44,24,49,15,28,138,,145,145,6,15,3,3,0.5,0.5
2025-07-14T1600,3147A,114.3438,34.8106,开封市,龙亭公园,,50,36,40,21,24,158,,153,153,4,11,1,1,0.5,0.5
2025-07-14T1600,3210A,114.3644,34.7964,开封市,汴京公园,,44,27,49,18,26,140,,144,144,6,13,3,4,0.4,0.5
2025-07-14T1600,3473A,114.2485,34.8306,开封市,技师学院,,47,29,41,20,26,150,,155,155,4,10,4,4,0.3,0.4
2025-07-14T1600,3592A,114.4644,34.7556,开封市,祥符区生态环境局,,47,42,50,23,28,150,,153,153,11,31,4,4,0.3,0.4
2025-07-14T1600,1951A,84.895,45.6094,克拉玛依市,长征新村,,38,17,25,3,5,119,,101,101,3,11,5,5,0.2,0.3
2025-07-14T1600,1952A,84.8988,45.5893,克拉玛依市,南林小区,,38,,23,9,8,121,,94,94,1,14,4,5,0.2,0.1
2025-07-14T1600,1954A,84.905,44.3396,克拉玛依市,独山子区,,40,20,23,8,9,125,,114,114,7,13,8,9,0.3,0.4
2025-07-14T1600,1955A,85.6979,46.098,克拉玛依市,乌尔禾区商贸楼,,37,12,26,3,6,117,,90,90,2,7,6,6,0.4,0.5
2025-07-14T1600,3612A,85.1045,45.6899,克拉玛依市,白碱滩区新站,,41,24,35,7,15,129,,111,111,1,5,9,9,0.5,0.5
2025-07-14T1600,2697A,76.1454,39.7142,克孜勒苏柯尔克孜自治州,市人民政府,颗粒物(PM10),59,67,94,20,29,122,,100,100,5,15,4,8,0.1,0.2
2025-07-14T1600,3665A,76.1658,39.7157,克孜勒苏柯尔克孜自治州,克州文化中心,颗粒物(PM10),55,59,90,17,29,120,,98,98,3,14,4,7,0.2,0.2
2025-07-14T1600,1450A,102.8204,24.8886,昆明市,呈贡新区,,47,17,22,12,19,148,,103,103,9,20,1,2,0.3,0.4
2025-07-14T1600,1451A,102.6251,24.9608,昆明市,西山森林公园,,,,,,,,,,,,,,,,
2025-07-14T1600,1452A,102.7252,25.0902,昆明市,龙泉镇,,36,,20,10,12,115,,86,86,6,10,1,2,0.3,0.3
2025-07-14T1600,1453A,102.7266,25.0375,昆明市,东风东路,,41,28,28,17,16,130,,101,101,13,17,4,4,0.4,0.3
2025-07-14T1600,1454A,102.6742,25.0669,昆明市,金鼎山,,33,26,23,13,9,104,,86,86,9,12,3,3,0.3,0.3
2025-07-14T1600,1455A,102.6644,25.0401,昆明市,碧鸡广场,,32,11,20,6,10,100,,80,80,9,12,5,5,0.4,0.4
2025-07-14T1600,3179A,102.7494,25.0119,昆明市,官渡区博物馆,,40,21,24,7,12,128,,96,96,11,16,3,2,0.3,0.3
2025-07-14T1600,3375A,102.8017,24.8336,昆明市,青年创业园,,40,12,17,11,14,128,,98,98,4,9,2,3,0.3,0.3
2025-07-14T1600,3550A,102.7997,24.9786,昆明市,昆明学院,,44,23,29,11,18,138,,102,102,11,19,5,6,0.3,0.4
2025-07-14T1600,3551A,102.5967,24.6736,昆明市,晋宁区生态环境分局,,27,13,21,12,17,84,,87,87,8,12,5,5,0.3,0.4
2025-07-14T1600,3552A,102.6678,24.9856,昆明市,云天化总部,,36,13,18,3,11,114,,91,91,9,10,7,4,0.1,0.3
2025-07-14T1600,1456A,91.1319,29.6514,拉萨市,八廓街,,41,9,10,8,8,130,,,,7,8,4,4,0.2,0.3
2025-07-14T1600,1457A,91.1221,29.6747,拉萨市,市环保局,,42,11,11,9,7,132,,109,109,7,10,4,4,0.3,0.4
2025-07-14T1600,1458A,91.0874,29.6475,拉萨市,区监测站,,36,6,7,3,6,115,,96,96,9,15,7,7,0.4,0.4
2025-07-14T1600,1459A,91.1774,29.6541,拉萨市,西藏大学,,40,6,8,6,6,128,,104,104,10,12,5,5,0.2,0.3
2025-07-14T1600,1460A,90.9798,29.6588,拉萨市,区辐射站,,36,9,12,7,7,114,,92,92,5,17,6,7,0.2,0.2
2025-07-14T1600,1461A,91.0834,29.6292,拉萨市,拉萨火车站,,39,8,7,3,6,122,,97,97,8,12,4,4,0.2,0.2
2025-07-14T1600,2520A,109.2203,23.7256,来宾市,来宾技工学校,,30,28,25,15,14,96,,78,78,5,9,5,6,0.6,0.7
2025-07-14T1600,3535A,109.1781,23.7297,来宾市,兴宾区政府,,32,20,19,19,15,100,,85,85,4,9,6,6,0.6,0.7
2025-07-14T1600,4002A,109.2416,23.7461,来宾市,中南小学,,32,19,23,14,15,100,,83,83,4,9,6,4,0.6,0.7
2025-07-14T1600,1477A,104.1373,35.9454,兰州市,榆中兰大校区,,,,,,,,,,,,,,,,
2025-07-14T1600,1479A,103.831,36.0464,兰州市,铁路设计院,,46,46,42,25,23,143,,114,114,16,20,10,8,0.3,0.4
2025-07-14T1600,3241A,103.7439,36.0842,兰州市,百合公园,,39,36,30,11,16,123,,101,101,8,13,2,5,1.5,0.8
2025-07-14T1600,3242A,103.9611,35.998,兰州市,和平,,46,46,33,23,15,136,,112,112,3,11,10,10,0.4,0.5
2025-07-14T1600,4236A,103.6293,36.0938,兰州市,庄浪东路808号,,45,45,39,27,26,139,,106,106,6,20,10,9,0.3,0.3
2025-07-14T1600,4237A,103.7251,36.1043,兰州市,安宁西路88号,,,52,35,11,18,149,,122,122,3,9,,6,0.4,0.4
2025-07-14T1600,4238A,103.8470,36.0676,兰州市,北滨河东路1号,,47,43,31,27,25,148,,120,120,8,16,8,8,0.5,0.6
2025-07-14T1600,3245A,103.6633,36.533,兰州新区,新区管委会,颗粒物(PM10),61,71,39,39,21,147,,120,120,8,7,13,13,0.4,0.4
2025-07-14T1600,3246A,103.6975,36.4789,兰州新区,舟曲中学,颗粒物(PM10),54,57,43,18,17,141,,113,113,7,10,9,14,0.3,0.4
2025-07-14T1600,1067A,116.6708,39.5111,廊坊市,药材公司,臭氧1小时,89,55,39,17,13,191,,154,154,6,12,5,5,0.4,0.3
2025-07-14T1600,1068A,116.7214,39.5589,廊坊市,开发区,臭氧1小时,84,48,38,15,15,187,,158,158,7,19,5,3,0.4,0.4
2025-07-14T1600,1070A,116.7244,39.5269,廊坊市,北华航天学院,臭氧1小时,89,64,52,14,14,191,,161,161,2,10,5,3,0.5,0.4
2025-07-14T1600,2919A,116.7022,39.5453,廊坊市,河北工业大学,臭氧1小时,93,50,41,14,13,194,,161,161,5,10,6,5,0.5,0.4
2025-07-14T1600,2535A,103.7723,29.5462,乐山市,花湖湾,,32,23,31,17,25,100,,92,92,4,15,2,2,0.5,0.7
2025-07-14T1600,2536A,103.7627,29.5844,乐山市,牛耳桥,,44,26,33,19,22,138,,122,122,7,20,5,6,0.6,0.7
2025-07-14T1600,2537A,103.7508,29.6006,乐山市,市第三水厂,,45,,35,30,25,141,,124,124,8,21,3,4,0.6,0.8
2025-07-14T1600,2538A,103.7571,29.5664,乐山市,市监测站,,39,29,35,23,23,122,,108,108,5,15,6,6,0.7,0.9
2025-07-14T1600,3361A,103.7311,29.5628,乐山市,理工大学,,42,18,60,13,23,132,,118,118,4,20,4,13,0.8,0.9
2025-07-14T1600,2598A,100.2143,26.8576,丽江市,西南郊,,33,18,22,12,14,104,,84,84,4,9,6,6,0.6,0.8
2025-07-14T1600,2599A,100.2497,26.8802,丽江市,丽江古城,,31,,25,17,16,99,,80,80,9,13,10,10,0.4,0.5
2025-07-14T1600,2600A,100.2203,26.8906,丽江市,市中心,,34,,18,12,16,106,,85,85,8,13,9,8,0.7,0.7
2025-07-14T1600,1267A,119.914,28.4514,丽水市,监测站大楼,,26,22,25,10,10,81,,77,77,7,15,3,4,0.4,0.4
2025-07-14T1600,1268A,119.93,28.4586,丽水市,莲都小学,,26,26,27,6,8,74,,68,68,4,15,3,3,0.4,0.4
2025-07-14T1600,1269A,119.879,28.4231,丽水市,余庄前,,29,21,28,11,11,91,,84,84,4,7,4,4,0.4,0.5
2025-07-14T1600,1173A,119.176,34.5885,连云港市,市环境监测站,,46,14,31,7,19,146,,128,128,11,15,5,5,0.4,0.5
2025-07-14T1600,3000A,119.3581,34.6972,连云港市,德源药业,,42,29,35,3,14,134,,116,116,21,21,4,5,0.4,0.8
2025-07-14T1600,3007A,119.178,34.844,连云港市,新城一中,,47,19,26,13,16,148,,130,130,8,14,5,8,0.5,0.8
2025-07-14T1600,3008A,119.3608,34.7519,连云港市,胡沟管理处,,47,12,23,3,13,148,,129,129,11,15,6,8,0.4,0.8
2025-07-14T1600,3009A,119.1478,34.5911,连云港市,矿山设计院,,43,19,29,7,17,136,,124,124,2,8,2,3,0.1,0.3
2025-07-14T1600,3434A,119.2413,34.6539,连云港市,工贸学校,,46,21,25,8,17,146,,129,129,6,10,6,8,0.5,0.8
2025-07-14T1600,3664A,119.4172,34.7341,连云港市,连云街道,,49,24,27,11,14,155,,127,127,17,19,7,7,0.4,0.9
2025-07-14T1600,2571A,102.3431,27.8099,凉山彝族自治州,青龙寺,,38,12,19,10,6,120,,94,94,3,8,12,8,0.6,0.6
2025-07-14T1600,2572A,102.2721,27.8415,凉山彝族自治州,邛海宾馆,,38,35,24,22,16,121,,92,92,21,18,16,13,0.6,0.5
2025-07-14T1600,2573A,102.2625,27.898,凉山彝族自治州,西昌市政府,,44,35,21,26,15,139,,106,106,9,9,13,10,0.9,0.5
2025-07-14T1600,2574A,102.2685,27.8851,凉山彝族自治州,凉山州政府,,41,30,22,18,15,129,,104,104,20,15,16,13,0.7,0.6
2025-07-14T1600,4229A,102.2342,27.8859,凉山彝族自治州,凯乐南路30号,,35,25,28,8,14,112,,101,101,8,15,12,12,0.8,0.7
2025-07-14T1600,2212A,123.2,41.1953,辽阳市,宏伟区,,41,23,27,8,8,129,,99,99,9,22,4,6,0.5,0.5
2025-07-14T1600,2213A,123.1683,41.2495,辽阳市,新华园,,43,31,26,7,8,136,,108,108,7,18,3,6,0.3,0.3
2025-07-14T1600,2214A,123.2354,41.2639,辽阳市,滨河路,,41,16,32,12,14,131,,108,108,9,27,4,5,0.1,0.1
2025-07-14T1600,2215A,123.149,41.2991,辽阳市,铁西工业园,,34,31,26,6,10,108,,87,87,6,20,3,4,0.6,0.5
2025-07-14T1600,2227A,125.1358,42.8845,辽源市,环保局,,34,18,22,3,6,108,,91,91,7,18,6,7,0.2,0.2
2025-07-14T1600,3239A,125.0764,42.9078,辽源市,银鹰制药,,36,15,17,8,8,115,,97,97,8,20,5,6,0.2,0.2
2025-07-14T1600,1625A,115.9848,36.4372,聊城市,区政府,臭氧1小时,102,27,42,11,22,203,,177,177,10,14,10,9,0.8,0.8
2025-07-14T1600,2878A,116.0072,36.4343,聊城市,聊大东校,臭氧1小时,107,31,42,19,26,213,,177,177,8,14,11,8,0.8,0.8
2025-07-14T1600,3200A,115.9819,36.4978,聊城市,监控中心,臭氧1小时,101,18,34,14,17,201,,161,161,9,15,10,9,0.9,0.9
2025-07-14T1600,3513A,116.0445,36.4361,聊城市,九州社区,臭氧1小时,102,29,46,16,22,203,,167,167,8,15,8,7,0.6,0.6
2025-07-14T1600,4018A,116.0567,36.4608,聊城市,星美广场,臭氧1小时,82,31,49,17,21,185,,151,151,7,15,7,6,0.7,0.7
2025-07-14T1600,2632A,94.3681,29.6376,林芝市,林芝监测站,,28,,9,10,12,88,,66,66,3,5,6,6,0.4,0.4
2025-07-14T1600,2633A,94.3616,29.6616,林芝市,林芝人民医院,,28,6,9,3,6,87,,65,65,2,3,4,4,0.4,0.5
2025-07-14T1600,2603A,100.0781,23.8982,临沧市,市环保局,,35,,24,24,19,65,,58,58,8,7,8,9,0.3,0.3
2025-07-14T1600,2604A,100.0894,23.8822,临沧市,市气象局,,19,19,21,6,15,57,,53,53,11,8,8,9,0.5,0.5
2025-07-14T1600,1733A,111.5531,36.0783,临汾市,临钢医院,臭氧1小时,73,43,56,14,22,178,,154,154,6,17,8,7,0.6,0.7
2025-07-14T1600,1734A,111.5028,36.0714,临汾市,技工学校,臭氧1小时,78,44,55,32,34,182,,166,166,4,16,5,3,0.5,0.5
2025-07-14T1600,1736A,111.5018,36.0855,临汾市,市委,臭氧1小时,73,38,63,16,21,178,,171,171,5,17,7,7,0.5,0.6
2025-07-14T1600,3018A,111.505,36.1014,临汾市,唐尧大酒店,臭氧1小时,62,44,69,22,22,169,,155,155,7,17,4,3,0.4,0.6
2025-07-14T1600,4244A,111.4879,36.0530,临汾市,启星学校,臭氧1小时,60,42,53,23,35,168,,149,149,6,18,4,4,0.8,1.2
2025-07-14T1600,4271A,103.2464,35.6123,临夏回族自治州,滨河东路1号,,35,35,37,16,16,110,,86,86,7,11,5,4,0.3,0.3
2025-07-14T1600,4310A,103.2093,35.5995,临夏回族自治州,新华街21号,,38,32,36,10,20,121,,97,97,2,9,6,6,0.2,0.3
2025-07-14T1600,1618A,118.3429,35.0532,临沂市,沂河小区,,43,14,23,8,15,135,,134,134,10,16,8,8,0.2,0.3
2025-07-14T1600,1619A,118.295,35.0583,临沂市,鲁南制药厂,,45,9,18,6,14,142,,131,131,8,10,8,9,0.2,0.4
2025-07-14T1600,1620A,118.2794,34.9976,临沂市,新光毛纺厂,,50,22,16,6,15,158,,133,133,12,12,7,7,0.3,0.4
2025-07-14T1600,1621A,118.3956,35.0888,临沂市,河东保险公司,,43,7,20,3,8,137,,128,128,8,14,6,5,0.4,0.4
2025-07-14T1600,3370A,118.3564,35.0215,临沂市,十里堡居委,,48,7,17,3,11,151,,142,142,10,13,8,9,0.3,0.5
2025-07-14T1600,3496A,118.3604,35.1084,临沂市,南坊新区,,42,17,23,3,8,133,,125,125,9,15,9,9,0.2,0.3
2025-07-14T1600,3860A,118.3920,35.0300,临沂市,皇山花园小区,,44,19,20,7,14,139,,131,131,6,13,9,10,0.1,0.3
2025-07-14T1600,1870A,109.4856,24.3895,柳州市,柳东小学,,26,25,23,18,15,75,,70,70,2,6,5,13,0.5,0.5
2025-07-14T1600,1871A,109.4157,24.3277,柳州市,环保监测站,,32,,27,22,18,87,,85,85,9,9,9,12,0.5,0.7
2025-07-14T1600,1872A,109.389,24.341,柳州市,河西水厂,,29,13,31,8,16,90,,89,89,16,15,9,10,0.5,0.5
2025-07-14T1600,1873A,109.4311,24.2921,柳州市,市四中,,27,26,26,11,12,84,,74,74,12,13,7,10,0.6,0.7
2025-07-14T1600,1874A,109.4006,24.3631,柳州市,市九中,颗粒物(PM10),51,51,38,25,21,86,,78,78,19,13,6,6,0.6,0.6
2025-07-14T1600,1875A,109.4958,24.3134,柳州市,古亭山,,20,18,27,13,12,62,,59,59,3,8,4,7,0.6,0.6
2025-07-14T1600,3402A,109.5422,24.3996,柳州市,市二中,,27,24,22,9,15,84,,71,71,6,11,11,8,0.6,0.6
2025-07-14T1600,2307A,116.5079,31.737,六安市,监测大楼,,41,32,24,16,14,131,,112,112,2,5,5,5,0.2,0.2
2025-07-14T1600,2308A,116.4738,31.7643,六安市,皖西学院,,40,32,20,15,13,125,,107,107,2,6,2,2,0.1,0.1
2025-07-14T1600,2309A,116.4996,31.7905,六安市,朝阳厂,,36,22,21,16,15,115,,101,101,5,11,4,3,0.3,0.3
2025-07-14T1600,2310A,116.5567,31.7886,六安市,开发区,,35,,22,20,19,110,,101,101,1,8,5,5,0.3,0.3
2025-07-14T1600,2576A,104.8,26.5892,六盘水市,窑上,,37,37,29,6,7,111,,84,84,6,4,7,6,0.6,0.4
2025-07-14T1600,2577A,104.83,26.5917,六盘水市,黄土坡,,36,31,22,16,13,115,,89,89,10,11,11,10,0.6,0.5
2025-07-14T1600,2578A,104.89,26.5939,六盘水市,水钢,,35,31,62,16,34,112,,93,93,7,18,13,13,0.4,0.7
2025-07-14T1600,2579A,104.8475,26.5894,六盘水市,民中,,37,25,23,12,13,118,,99,99,6,13,7,10,0.4,0.5
2025-07-14T1600,2580A,104.9544,26.5506,六盘水市,双水,,30,19,27,7,13,96,,83,83,6,10,10,10,0.4,0.5
2025-07-14T1600,2335A,117.0189,25.1181,龙岩市,龙岩师专,,,,,,,,,,,,,,,,
2025-07-14T1600,2336A,117.0217,25.1033,龙岩市,龙岩市监测站,,22,14,16,9,9,69,,55,55,8,12,3,3,0.6,0.6
2025-07-14T1600,2337A,117.0258,25.0661,龙岩市,闽西职业技术学院,,21,19,20,8,8,67,,52,52,7,10,2,2,0.6,0.5
2025-07-14T1600,2338A,117.0196,25.0306,龙岩市,龙岩学院,,18,18,18,12,8,46,,49,49,14,7,1,2,0.6,0.6
2025-07-14T1600,2665A,105.0822,33.3261,陇南市,汉王镇固水子,,,,,,,,,,,,,,,,
2025-07-14T1600,2885A,104.9339,33.3826,陇南市,滨江中学,,30,27,31,8,14,94,,90,90,2,3,6,6,0.5,0.5
2025-07-14T1600,3247A,104.955,33.371,陇南市,市总工会,,32,26,37,13,13,100,,96,96,2,4,4,4,0.2,0.2
2025-07-14T1600,2487A,111.9589,27.8901,娄底市,电视发射台,,23,11,30,10,13,73,,65,65,5,5,6,6,0.2,0.2
2025-07-14T1600,2488A,111.9975,27.725,娄底市,市监测站,细颗粒物(PM2.5),57,40,40,40,24,122,,101,101,7,19,5,5,0.9,1.4
2025-07-14T1600,2489A,112.0194,27.7314,娄底市,市委党校,,41,41,35,25,25,124,,110,110,10,18,20,19,0.5,0.9
2025-07-14T1600,2490A,111.9561,27.7569,娄底市,涟钢,,37,30,32,22,20,118,,96,96,20,12,16,13,1.2,1
2025-07-14T1600,2491A,111.9892,27.7044,娄底市,市政府,臭氧1小时,77,54,32,36,22,181,,132,132,4,6,9,7,1.4,1
2025-07-14T1600,1893A,105.4324,28.9634,泸州市,九狮山,,38,28,45,14,25,120,,115,115,3,13,5,5,0.3,0.4
2025-07-14T1600,1894A,105.4427,28.9063,泸州市,小市上码头,,35,26,27,10,14,110,,100,100,5,11,3,3,0.1,0.1
2025-07-14T1600,1895A,105.4241,28.8573,泸州市,兰田宪桥,,36,25,30,8,15,115,,106,106,4,12,7,8,0.6,0.6
2025-07-14T1600,1896A,105.4379,28.8833,泸州市,市环监站,,37,19,26,17,19,118,,106,106,5,15,6,7,0.2,0.2
2025-07-14T1600,4272A,105.3689,28.7783,泸州市,纳溪中医医院,,44,18,28,17,22,139,,116,116,7,19,4,4,0.4,0.4
2025-07-14T1600,2183A,111.1406,37.5211,吕梁市,环保局,,47,36,58,20,31,149,,149,149,8,24,3,3,0.5,0.7
2025-07-14T1600,2185A,111.1297,37.5136,吕梁市,自来水公司,,,30,60,20,29,136,,120,120,7,19,,3,0.4,0.6
2025-07-14T1600,2867A,111.1283,37.51,吕梁市,马茂庄小学,,45,36,64,17,32,141,,125,125,9,27,5,4,0.4,0.6
2025-07-14T1600,1812A,112.3931,34.6516,洛阳市,市委党校,臭氧1小时,78,34,42,25,25,182,,145,145,4,18,11,9,0.4,0.5
2025-07-14T1600,1815A,112.494,34.6886,洛阳市,河南林校,臭氧1小时,101,56,48,36,27,202,,152,152,9,20,12,8,0.8,0.8
2025-07-14T1600,1816A,112.3844,34.623,洛阳市,开发区管委会,臭氧1小时,68,34,34,25,29,174,,138,138,4,9,13,7,0.5,0.5
2025-07-14T1600,1817A,112.4267,34.6258,洛阳市,市委新办公区,臭氧1小时,69,36,37,32,29,175,,137,137,7,15,18,12,0.5,0.5
2025-07-14T1600,3340A,112.6005,34.6326,洛阳市,伊滨,臭氧1小时,58,56,51,23,23,166,,128,128,6,15,4,5,0.6,0.6
2025-07-14T1600,3341A,112.4951,34.6332,洛阳市,中移产业园,臭氧1小时,87,54,38,38,26,189,,138,138,6,15,11,8,0.9,0.8
2025-07-14T1600,3593A,112.5736,34.8993,洛阳市,吉利监测站,臭氧1小时,97,48,59,32,33,197,,163,163,3,14,9,8,0.5,0.6
2025-07-14T1600,3635A,112.3677,34.662,洛阳市,河科大西苑校区,臭氧1小时,62,36,49,21,25,169,,140,140,17,22,15,12,0.7,0.8
2025-07-14T1600,3636A,112.4388,34.6781,洛阳市,英才小学,臭氧1小时,73,42,47,33,29,178,,139,139,4,17,14,10,0.6,0.6
2025-07-14T1600,4214A,112.4600,34.6949,洛阳市,春都路1号院,臭氧1小时,82,52,47,31,25,185,,144,144,3,17,8,6,0.5,0.6
2025-07-14T1600,2399A,114.051,33.5699,漯河市,三五一五工厂,颗粒物(PM10),70,89,37,16,19,157,,143,143,5,18,4,5,0.4,0.5
2025-07-14T1600,2400A,114.0055,33.5698,漯河市,漯河大学,臭氧1小时,62,23,33,12,16,169,,137,137,7,21,4,4,0.4,0.4
2025-07-14T1600,2401A,114.0138,33.5828,漯河市,市水利局,,50,31,28,12,17,158,,130,130,4,15,3,4,0.6,0.6
2025-07-14T1600,2402A,114.0261,33.5698,漯河市,市广电局,臭氧1小时,70,17,27,12,18,176,,143,143,4,15,2,2,0.4,0.4
2025-07-14T1600,3478A,113.9749,33.5664,漯河市,市图书馆,臭氧1小时,70,40,34,26,25,176,,74,,8,20,6,6,0.3,0.4
2025-07-14T1600,4250A,114.0892,33.5882,漯河市,韶山路11号,,,,29,14,20,161,,143,143,7,18,1,2,0.4,0.5
2025-07-14T1600,1798A,118.5092,31.6837,马鞍山市,湖东路四小,颗粒物(PM10),52,54,44,18,25,149,,142,142,40,21,9,12,0.8,0.8
2025-07-14T1600,1799A,118.5024,31.6449,马鞍山市,开发区,臭氧1小时,82,40,37,24,23,185,,157,157,10,20,9,8,0.9,0.6
2025-07-14T1600,1802A,118.6245,31.7241,马鞍山市,濮塘,臭氧1小时,63,38,37,17,23,170,,160,160,5,11,8,9,0.8,1
2025-07-14T1600,3633A,118.4918,31.6809,马鞍山市,雨山,,50,34,39,27,24,158,,143,143,20,20,10,8,1.1,0.9
2025-07-14T1600,4191A,118.5274,31.72227,马鞍山市,慈湖高新区,臭氧1小时,62,27,36,21,23,169,,149,149,13,23,7,9,0.5,0.8
2025-07-14T1600,1686A,111.0286,21.4688,茂名市,电白南海,,25,19,22,17,17,70,,70,70,4,7,2,3,0.3,0.3
2025-07-14T1600,1687A,110.9294,21.6533,茂名市,茂石化七小,,24,24,28,9,14,64,,60,60,10,8,6,7,0.1,0.1
2025-07-14T1600,1688A,110.9107,21.6687,茂名市,健康路,,31,31,26,12,15,59,,64,64,16,9,21,8,0.9,0.7
2025-07-14T1600,1689A,110.8592,21.6828,茂名市,高岭,,34,34,43,12,15,43,,51,51,16,16,9,4,0.4,0.5
2025-07-14T1600,3450A,111.01,21.5165,茂名市,电白水东,,,17,17,9,11,62,,67,67,,9,6,7,0.4,0.5
2025-07-14T1600,2539A,104.0308,30.0478,眉山市,黑龙滩水库,,33,15,36,6,14,105,,95,95,1,7,4,4,0.5,0.4
2025-07-14T1600,2540A,103.8416,30.0874,眉山市,气象局,,48,19,39,17,20,151,,137,137,6,21,3,3,0.5,0.5
2025-07-14T1600,3137A,103.8578,30.0744,眉山市,市委党校,,,22,29,12,17,,,82,,8,22,6,7,0.6,0.6
2025-07-14T1600,3148A,103.8291,30.0564,眉山市,区人社局,,46,39,40,12,15,145,,137,137,9,22,7,9,1.1,1.1
2025-07-14T1600,1690A,116.1231,24.3284,梅州市,梅江月梅,,33,33,24,13,14,72,,60,60,4,7,6,7,0.6,0.6
2025-07-14T1600,1691A,116.0797,24.2719,梅州市,梅县新城,,23,23,22,13,11,66,,50,50,4,9,6,6,0.5,0.4
2025-07-14T1600,1692A,116.1248,24.2654,梅州市,环境监控中心,,45,45,26,16,12,65,,51,51,7,12,3,4,0.3,0.3
2025-07-14T1600,3315A,116.1233,24.2991,梅州市,梅龙,,22,22,21,6,10,65,,54,54,4,8,6,7,0.6,0.7
2025-07-14T1600,1878A,104.7778,31.4741,绵阳市,富乐山,,41,39,33,26,24,129,,119,119,6,12,9,8,0.6,0.6
2025-07-14T1600,1880A,104.6697,31.4668,绵阳市,高新区自来水公司,,42,35,41,12,17,133,,114,114,4,15,8,8,0.4,0.5
2025-07-14T1600,1881A,104.7287,31.5075,绵阳市,三水厂,,42,30,42,20,27,134,,116,116,8,24,6,6,0.5,0.6
2025-07-14T1600,3491A,104.69,31.5322,绵阳市,西科大附属小学,,48,41,45,32,27,153,,127,127,7,23,8,8,0.5,0.6
2025-07-14T1600,3492A,104.5648,31.5343,绵阳市,安州区旅游局,,45,,33,14,19,143,,125,125,8,11,6,7,0.4,0.4
2025-07-14T1600,4226A,104.7651,31.4531,绵阳市,绵阳市气象局,,43,29,41,17,25,135,,58,,6,17,7,8,0.5,0.6
2025-07-14T1600,1784A,129.61,44.561,牡丹江市,环保大楼,,25,,15,16,14,79,,68,68,5,11,2,2,0.2,0.3
2025-07-14T1600,1785A,129.6115,44.5782,牡丹江市,文化广场,,24,21,22,10,16,75,,65,65,10,16,6,7,0.4,0.5
2025-07-14T1600,1786A,129.5904,44.5963,牡丹江市,第一医院,,25,20,24,16,18,78,,70,70,8,14,7,8,0.3,0.4
2025-07-14T1600,1787A,129.6364,44.6075,牡丹江市,机车工厂,,39,39,26,9,11,74,,65,65,8,10,4,4,0.3,0.4
2025-07-14T1600,1788A,129.6386,44.5462,牡丹江市,第一中学,,24,11,16,11,8,74,,66,66,7,12,5,5,0.4,0.4
2025-07-14T1600,2531A,105.0703,29.61,内江市,市监测站,,41,26,30,15,23,131,,117,117,5,15,13,5,0.4,0.6
2025-07-14T1600,2532A,105.0717,29.5947,内江市,东兴区政府,,40,12,23,6,16,127,,116,116,6,14,6,5,0.4,0.6
2025-07-14T1600,2533A,105.0653,29.5817,内江市,内江二中,,,,32,17,26,127,,122,122,7,16,,5,0.4,0.6
2025-07-14T1600,2534A,105.0406,29.5822,内江市,内江日报社,,,,29,27,27,126,,119,119,11,26,,9,0.4,0.5
2025-07-14T1600,2628A,92.0657,31.4846,那曲市,那曲监测站,颗粒物(PM10),71,92,30,20,16,88,,85,85,16,12,11,16,0.3,0.3
2025-07-14T1600,4243A,92.0515,31.4787,那曲市,那曲市委宣传部,,45,45,18,9,7,106,,96,96,7,8,5,5,0.3,0.3
2025-07-14T1600,1290A,115.8931,28.6843,南昌市,省外办,,43,34,25,27,19,135,,102,102,5,10,6,6,0.5,0.5
2025-07-14T1600,1291A,115.8886,28.7003,南昌市,省林业公司,,44,27,23,12,13,140,,106,106,8,11,10,9,0.6,0.6
2025-07-14T1600,1292A,115.8126,28.7442,南昌市,林科所,,42,22,15,14,10,134,,108,108,3,18,5,5,0.4,0.4
2025-07-14T1600,1294A,115.8518,28.687,南昌市,建工学校,,44,17,30,9,13,139,,108,108,8,18,7,8,0.5,0.7
2025-07-14T1600,1295A,115.8921,28.6424,南昌市,象湖,,41,22,21,12,12,131,,105,105,3,10,6,7,0.5,0.5
2025-07-14T1600,1296A,115.7423,28.7996,南昌市,武术学校,,,12,24,3,12,62,,71,71,,3,8,8,0.5,0.5
2025-07-14T1600,3046A,115.9084,28.6062,南昌市,机电学校,,41,29,30,19,17,131,,109,109,7,14,4,4,0.6,0.6
2025-07-14T1600,3690A,115.9721,28.7031,南昌市,外国语学校,,45,36,26,23,12,142,,121,121,4,10,13,11,0.7,0.6
2025-07-14T1600,4192A,115.9316,28.68677,南昌市,南京东路235号,,43,31,29,19,14,137,,114,114,8,13,4,3,0.6,0.6
2025-07-14T1600,1905A,106.056,30.8064,南充市,西山风景区,,,,,,,,,,,,,,,,
2025-07-14T1600,1906A,106.0789,30.8023,南充市,南充市委,细颗粒物(PM2.5),64,,41,46,34,135,,130,130,6,13,5,5,0.3,0.5
2025-07-14T1600,1907A,106.1031,30.8217,南充市,南充炼油厂,,43,25,39,23,29,136,,124,124,4,13,6,6,0.1,0.2
2025-07-14T1600,4227A,106.1083,30.7884,南充市,梨树横街98号,,41,34,41,14,25,131,,117,117,3,10,2,3,0.3,0.4
2025-07-14T1600,4304A,106.1172,30.843,南充市,清泉寺北路188号,,44,33,40,26,30,139,,115,115,5,11,2,2,0.3,0.3
2025-07-14T1600,4305A,106.067,30.7616,南充市,同庆路1号,,39,27,37,17,26,123,,124,124,5,13,3,2,0.3,0.4
2025-07-14T1600,1151A,118.8086,32.1065,南京市,迈皋桥,,50,15,30,12,16,157,,154,154,11,23,4,4,0.5,0.6
2025-07-14T1600,1152A,118.7538,32.0551,南京市,草场门,,50,24,26,19,17,158,,161,160,8,14,8,8,0.5,0.6
2025-07-14T1600,1153A,118.7794,32.0745,南京市,山西路,,50,31,32,9,13,160,,160,160,2,2,6,5,0.6,0.5
2025-07-14T1600,1154A,118.7752,32.0023,南京市,中华门,臭氧1小时,60,31,24,12,15,168,,164,164,6,11,7,8,0.3,0.6
2025-07-14T1600,1155A,118.8109,32.0309,南京市,瑞金路,臭氧1小时,53,29,24,17,17,162,,155,155,2,4,6,6,0.2,0.3
2025-07-14T1600,1156A,118.7997,32.0754,南京市,玄武湖,,46,32,32,11,10,145,,140,140,11,11,10,9,0.5,0.5
2025-07-14T1600,1157A,118.6414,32.0931,南京市,浦口,,43,24,27,11,13,137,,133,133,6,7,4,4,0.4,0.3
2025-07-14T1600,1158A,118.7356,31.9996,南京市,奥体中心,臭氧1小时,54,24,27,7,18,163,,158,158,6,15,5,4,0.3,0.3
2025-07-14T1600,1159A,118.9125,32.1028,南京市,仙林大学城,,48,22,33,3,12,151,,146,146,5,13,9,8,0.5,0.6
2025-07-14T1600,3422A,118.8436,31.9198,南京市,江宁彩虹桥,臭氧1小时,68,,29,17,17,174,,155,155,6,12,3,4,0.6,0.6
2025-07-14T1600,3427A,118.8554,32.3578,南京市,六合雄州,,46,15,28,8,15,145,,135,135,12,13,4,4,0.6,0.7
2025-07-14T1600,4249A,118.8708,31.3402,南京市,汶溪路181号,臭氧1小时,104,38,32,37,28,207,,154,154,9,13,7,5,0.9,0.9
2025-07-14T1600,4312A,119.019,31.6512,南京市,中山西路1号,臭氧1小时,72,22,27,22,23,177,,154,154,8,11,4,4,0.6,0.7
2025-07-14T1600,1401A,108.3103,22.7881,南宁市,二十一中,,,,31,12,19,66,,70,70,10,18,3,5,0.7,0.7
2025-07-14T1600,1402A,108.3141,22.8528,南宁市,北湖,,24,,29,14,18,76,,80,80,14,18,3,7,0.6,0.6
2025-07-14T1600,1403A,108.3206,22.8225,南宁市,市监测站,,26,,28,18,22,65,,68,68,15,19,6,8,0.7,0.7
2025-07-14T1600,1404A,108.3829,22.8037,南宁市,大自然花园,,22,,26,15,17,69,,82,82,10,10,4,4,0.5,0.5
2025-07-14T1600,1405A,108.4394,22.7904,南宁市,仙葫,,,,22,12,17,68,,72,72,12,12,7,7,0.8,0.8
2025-07-14T1600,1406A,108.2397,22.8467,南宁市,区农职院,,21,19,27,13,17,67,,75,75,16,12,5,5,0.5,0.5
2025-07-14T1600,1407A,108.3275,22.735,南宁市,英华嘉园,,19,,29,10,20,60,,78,78,17,13,1,4,0.6,0.6
2025-07-14T1600,3401A,108.4834,22.7618,南宁市,红星社区,,28,24,23,19,17,66,,80,80,7,7,2,2,0.5,0.4
2025-07-14T1600,4221A,108.2177,22.7774,南宁市,乐贤路16号,,20,18,28,10,18,61,,75,75,12,11,10,6,0.6,0.6
2025-07-14T1600,2331A,118.0966,26.6761,南平市,茫荡山,,,,,,,,,,,,,,,,
2025-07-14T1600,2332A,118.1681,26.6369,南平市,南平市监测站,,21,,16,13,10,65,,56,56,2,7,4,4,0.6,0.6
2025-07-14T1600,2333A,118.1825,26.6489,南平市,南平铝业有限公司,,33,16,16,6,7,104,,81,81,4,9,4,4,0.6,0.6
2025-07-14T1600,2334A,118.1756,26.6272,南平市,南平七中,,,,17,6,7,62,,54,54,3,6,4,4,0.5,0.6
2025-07-14T1600,1168A,120.9098,31.9663,南通市,狼山街道,,43,27,32,8,22,136,,140,140,5,24,4,4,0.4,0.7
2025-07-14T1600,1169A,120.86,32.0005,南通市,虹桥,,42,15,37,8,25,132,,138,138,13,29,3,3,0.5,0.7
2025-07-14T1600,1170A,120.87,32.02,南通市,城中,,39,18,38,8,22,122,,126,126,6,16,3,4,0.4,0.5
2025-07-14T1600,1171A,120.94,31.93,南通市,星湖花园,,42,,29,17,28,133,,132,132,7,40,3,3,0.3,0.5
2025-07-14T1600,1172A,120.81,32.0417,南通市,紫琅学院,,41,20,39,3,19,131,,133,133,6,13,5,6,0.5,0.7
2025-07-14T1600,3291A,121.067,32.062,南通市,通州监测站,,40,29,30,3,23,125,,130,130,6,12,7,7,0.6,0.7
2025-07-14T1600,3432A,120.9348,31.9883,南通市,环境教育馆,,44,22,37,3,21,140,,147,147,5,18,3,4,0.2,0.3
2025-07-14T1600,2404A,112.5224,33.0122,南阳市,瓦房庄,,45,27,37,15,16,144,,124,124,7,15,6,7,0.5,0.5
2025-07-14T1600,2405A,112.5003,32.9735,南阳市,汉画馆,,45,24,32,7,11,144,,128,128,6,17,6,7,0.4,0.4
2025-07-14T1600,2406A,112.5573,33.027,南阳市,气象站,,48,22,34,14,17,153,,132,132,4,13,6,6,0.3,0.4
2025-07-14T1600,2407A,112.5481,32.9689,南阳市,理工学院,,49,26,32,3,10,154,,131,131,5,19,6,7,0.3,0.4
2025-07-14T1600,4008A,112.5234,32.9922,南阳市,卧龙区政府,,45,34,39,16,17,143,,128,128,9,18,5,5,0.4,0.5
2025-07-14T1600,1234A,121.8358,29.911,宁波市,区环保大楼,颗粒物(PM10),59,68,43,28,15,163,,130,130,24,21,6,4,0.7,0.6
2025-07-14T1600,1235A,121.56,29.82,宁波市,万里学院,,48,40,34,31,24,153,,129,129,13,25,4,5,0.5,0.4
2025-07-14T1600,1236A,121.713,29.9572,宁波市,龙赛医院,臭氧1小时,52,49,44,23,14,161,,128,128,7,22,2,4,0.5,0.4
2025-07-14T1600,1239A,121.633,29.7733,宁波市,钱湖水厂,,47,43,34,31,21,148,,127,127,11,11,4,4,0.5,0.5
2025-07-14T1600,1240A,121.5856,29.8635,宁波市,太古小学,细颗粒物(PM2.5),57,48,38,40,21,159,,126,126,8,15,4,5,0.6,0.5
2025-07-14T1600,1241A,121.524,29.8674,宁波市,市环境监测中心,,48,41,33,23,16,151,,122,122,10,19,4,5,0.6,0.5
2025-07-14T1600,2871A,121.6147,29.9017,宁波市,万里国际学校,臭氧1小时,80,41,27,33,20,184,,134,134,9,18,4,5,0.7,0.6
2025-07-14T1600,3710A,121.5594,29.8975,宁波市,白沙活动中心,臭氧1小时,60,41,28,33,20,168,,127,127,7,18,4,5,0.4,0.4
2025-07-14T1600,2339A,119.5001,26.6946,宁德市,金涵水库,,,,,,,,,,,,,,,,
2025-07-14T1600,2341A,119.5388,26.6612,宁德市,宁德市监测站,,16,16,22,6,11,51,,70,70,7,11,7,5,0.4,0.6
2025-07-14T1600,3209A,119.5231,26.6562,宁德市,宁德一中,,21,21,19,3,9,52,,64,64,2,4,4,4,0.4,0.3
2025-07-14T1600,2618A,98.8601,25.8567,怒江傈僳族自治州,州监测站,,34,10,21,7,13,106,,86,86,4,6,9,9,0.4,0.4
2025-07-14T1600,2619A,98.8546,25.8417,怒江傈僳族自治州,泸水一中,,26,22,20,17,14,83,,69,69,8,10,6,6,0.4,0.4
2025-07-14T1600,1888A,101.6891,26.571,攀枝花市,弄弄坪,臭氧1小时,63,43,48,37,23,170,,124,124,13,19,24,24,1.8,1.2
2025-07-14T1600,1889A,101.5769,26.5928,攀枝花市,河门口,,35,24,32,15,18,111,,97,97,5,12,6,9,0.5,0.7
2025-07-14T1600,1890A,101.7169,26.585,攀枝花市,炳草岗,臭氧1小时,78,33,41,22,24,182,,124,124,12,21,16,19,1.4,0.9
2025-07-14T1600,1891A,101.7369,26.5008,攀枝花市,仁和,,39,35,30,27,27,120,,102,102,4,11,10,9,0.5,0.7
2025-07-14T1600,2835A,101.7227,26.567,攀枝花市,四十中小,臭氧1小时,95,43,37,28,22,196,,136,136,17,21,25,38,2.0,1.2
2025-07-14T1600,1604A,122.0303,41.1489,盘锦市,开发区,,34,18,17,6,8,108,,100,100,10,13,8,9,0.3,0.4
2025-07-14T1600,1605A,122.0485,41.0883,盘锦市,兴隆台,,36,22,25,3,6,113,,105,105,12,16,6,6,0.3,0.4
2025-07-14T1600,1606A,121.8297,41.1028,盘锦市,新生街道,,37,10,14,6,9,118,,105,105,12,27,5,4,0.4,0.4
2025-07-14T1600,1832A,113.3257,33.742,平顶山市,新华旅馆,,50,15,34,10,21,159,,140,140,5,13,3,3,0.3,0.3
2025-07-14T1600,1833A,113.2919,33.737,平顶山市,规划设计院,,49,21,33,18,19,154,,135,135,3,12,6,6,0.4,0.5
2025-07-14T1600,1834A,113.182,33.774,平顶山市,平顶山工学院,,46,22,26,19,15,147,,136,136,5,10,4,6,0.4,0.5
2025-07-14T1600,3204A,113.3025,33.73,平顶山市,规划局,,50,22,32,10,12,158,,137,137,5,13,4,4,0.4,0.5
2025-07-14T1600,3594A,112.8867,33.9116,平顶山市,石龙区,,40,20,32,19,16,127,,125,125,5,15,7,7,0.4,0.5
2025-07-14T1600,2656A,106.6692,35.5461,平凉市,聚贤嘉苑,,37,36,43,11,18,116,,111,111,5,20,9,9,0.7,0.7
2025-07-14T1600,2657A,106.7021,35.5307,平凉市,博物馆,,36,30,39,11,18,115,,109,109,4,19,8,8,0.8,0.9
2025-07-14T1600,2347A,114.0997,27.5002,萍乡市,武功山,,,8,8,6,4,83,,71,71,3,3,,16,0.5,0.5
2025-07-14T1600,2348A,113.8385,27.6434,萍乡市,中医院,,48,,26,33,13,135,,115,115,7,11,9,13,0.9,0.9
2025-07-14T1600,2349A,113.8493,27.6253,萍乡市,市政府车库,细颗粒物(PM2.5),55,,20,39,18,122,,103,103,5,12,8,12,0.6,0.9
2025-07-14T1600,2350A,113.8676,27.6435,萍乡市,市环保局,,41,24,25,14,17,130,,116,116,5,12,7,9,0.8,0.9
2025-07-14T1600,2351A,113.866,27.6198,萍乡市,安源区政府,,46,,24,32,17,126,,99,99,4,10,8,7,0.6,0.7
2025-07-14T1600,2319A,119.0141,25.4325,莆田市,荔城区仓后路,,16,6,25,3,9,51,,61,61,9,9,4,4,0.5,0.5
2025-07-14T1600,2320A,119.0015,25.4553,莆田市,莆田市监测站,,,,28,0,8,53,,57,57,4,8,4,5,0.4,0.4
2025-07-14T1600,2321A,119.1119,25.4561,莆田市,涵江区六中,,24,24,50,6,13,58,,84,84,9,11,3,3,0.3,0.4
2025-07-14T1600,2322A,119.1013,25.3215,莆田市,秀屿区政府,细颗粒物(PM2.5),77,63,32,56,20,137,,106,106,16,15,4,7,0.6,0.5
2025-07-14T1600,2323A,118.981,25.4792,莆田市,东圳水库,,,,,,,,,,,,,,,,
2025-07-14T1600,2392A,115.0312,35.7636,濮阳市,环保局,臭氧1小时,104,44,46,28,31,208,,190,190,10,15,4,6,0.5,0.6
2025-07-14T1600,2394A,115.0574,35.7609,濮阳市,油田运输公司,臭氧1小时,102,44,56,29,30,203,,182,182,9,14,2,4,0.3,0.4
2025-07-14T1600,3021A,115,35.7668,濮阳市,濮水河管理处,臭氧1小时,87,50,51,33,32,189,,174,174,11,20,4,5,0.4,0.5
2025-07-14T1600,4216A,115.0924,35.7686,濮阳市,任丘路479号,臭氧1小时,100,49,66,23,35,200,,178,178,6,14,7,8,0.3,0.4
2025-07-14T1600,2601A,100.98,22.7633,普洱市,市环保局,,20,20,25,6,11,62,,45,45,2,5,5,4,0.5,0.6
2025-07-14T1600,2602A,100.9817,22.8322,普洱市,普洱第二中学,,22,16,26,6,13,70,,50,50,4,9,7,7,0.5,0.5
2025-07-14T1600,2262A,131.0518,45.8751,七台河市,新一中,,29,20,14,6,10,90,,77,77,7,20,10,9,1.1,0.9
2025-07-14T1600,3345A,131.0577,45.7879,七台河市,中波台,,22,,8,7,8,69,,58,58,9,26,7,8,0.5,0.6
2025-07-14T1600,3637A,131.0176,45.7761,七台河市,人民广场,,25,,22,11,13,78,,64,64,6,23,14,14,0.4,0.6
2025-07-14T1600,3684A,130.8781,45.8222,七台河市,新建矿广场,,23,,13,6,7,73,,63,63,8,24,11,11,0.3,0.5
2025-07-14T1600,1779A,123.9305,47.3636,齐齐哈尔市,安居小区,,28,18,21,10,8,87,,81,81,9,25,3,3,0.5,0.6
2025-07-14T1600,1780A,123.9488,47.3386,齐齐哈尔市,中心广场,,27,26,25,3,6,86,,80,80,9,19,9,9,0.4,0.4
2025-07-14T1600,1781A,123.9483,47.3227,齐齐哈尔市,农牧车辆厂,,29,19,23,10,7,90,,81,81,6,16,6,6,0.3,0.3
2025-07-14T1600,1783A,123.945,47.2988,齐齐哈尔市,市环境监测站,,30,,18,6,8,93,,78,78,7,18,5,5,0.4,0.4
2025-07-14T1600,3662A,123.6333,47.2075,齐齐哈尔市,富区青少年活动中心,,,15,23,7,10,107,,89,89,,24,4,5,0.1,0.2
2025-07-14T1600,2591A,107.9783,26.5747,黔东南苗族侗族自治州,市环境监测站,,23,18,16,12,12,71,,58,58,7,8,2,2,0.4,0.4
2025-07-14T1600,2881A,107.8908,26.5311,黔东南苗族侗族自治州,凯里学院,,24,12,12,11,10,76,,56,56,5,7,2,2,0.3,0.3
2025-07-14T1600,2593A,107.5228,26.2403,黔南布依族苗族自治州,小围寨,,18,12,9,12,7,55,,46,46,7,6,2,2,0.4,0.4
2025-07-14T1600,3538A,107.5175,26.2978,黔南布依族苗族自治州,沙坝,,21,9,15,3,1,65,,51,51,3,7,4,4,0.3,0.4
2025-07-14T1600,2589A,104.9022,25.0925,黔西南布依族苗族自治州,场坝街,,25,21,23,3,11,79,,62,62,8,11,6,14,0.3,0.3
2025-07-14T1600,2590A,104.8811,25.0992,黔西南布依族苗族自治州,坪东大道,,26,23,22,6,13,82,,64,64,8,13,2,3,0.2,0.2
2025-07-14T1600,2502A,108.6236,21.9667,钦州市,市环保站,,17,9,26,7,12,54,,52,52,12,15,1,3,0.4,0.4
2025-07-14T1600,2503A,108.6549,21.9481,钦州市,沙埠小学,,19,12,29,12,14,59,,54,54,8,14,1,2,0.4,0.5
2025-07-14T1600,2504A,108.5989,21.7431,钦州市,港区一小,,18,18,38,10,12,55,,51,51,20,22,2,3,0.4,0.5
2025-07-14T1600,3404A,108.5959,21.9633,钦州市,北职校,,19,19,31,7,18,55,,50,50,7,15,3,4,0.5,0.6
2025-07-14T1600,1043A,119.7493,40.0116,秦皇岛市,第一关,,37,20,20,8,13,118,,103,103,11,25,5,5,0.2,0.2
2025-07-14T1600,1044A,119.5897,39.9499,秦皇岛市,监测站,,40,21,29,3,8,127,,106,106,9,15,4,4,0.3,0.3
2025-07-14T1600,1046A,119.5251,39.9041,秦皇岛市,建设大厦,,39,23,29,10,9,122,,101,101,11,23,5,5,0.2,0.3
2025-07-14T1600,3132A,119.610547,39.943889,秦皇岛市,文明里,,38,28,27,13,10,121,,102,102,9,10,4,4,0.1,0.2
2025-07-14T1600,4198A,119.5090,39.8253,秦皇岛市,北戴河轮滑馆,,37,30,27,3,9,116,,105,105,5,16,3,3,0.5,0.5
2025-07-14T1600,1307A,120.6659,36.2403,青岛市,仰口,,38,31,22,3,10,121,,121,121,10,9,8,8,0.2,0.4
2025-07-14T1600,1310A,120.4134,36.0658,青岛市,市南区东部子站,,34,22,26,3,12,108,,110,110,31,45,8,9,0.2,0.2
2025-07-14T1600,1311A,120.3664,36.1032,青岛市,四方区子站,,37,22,26,3,14,118,,120,120,7,15,4,6,0.2,0.2
2025-07-14T1600,1312A,120.2994,36.054,青岛市,市南区西部子站,,35,27,26,10,14,110,,111,111,15,16,8,9,0.4,0.6
2025-07-14T1600,1313A,120.4581,36.0858,青岛市,崂山区子站,,37,12,19,3,8,116,,115,115,6,8,8,8,0.3,0.3
2025-07-14T1600,1315A,120.3999,36.3083,青岛市,城阳区子站,,37,9,21,7,10,116,,118,118,4,10,6,7,0.1,0.3
2025-07-14T1600,1966A,120.0405,35.8735,青岛市,黄岛区4号,,40,22,31,3,12,128,,127,127,18,17,10,10,0.3,0.5
2025-07-14T1600,3362A,120.5014,36.4034,青岛市,即墨2号,,35,12,20,6,9,110,,111,111,4,10,3,4,0.2,0.2
2025-07-14T1600,3642A,120.3503,36.0736,青岛市,市北区南部,,34,29,25,3,10,108,,107,107,12,18,10,10,0.2,0.5
2025-07-14T1600,3643A,120.3948,36.1805,青岛市,李沧区北部,,29,22,22,9,14,92,,98,98,10,11,4,6,0.2,0.3
2025-07-14T1600,4290A,120.1969,35.9546,青岛市,珠江路669号,,36,24,29,7,15,114,,113,113,12,16,6,7,0.4,0.5
2025-07-14T1600,1702A,113.0426,23.691,清远市,环保大楼,,39,,30,27,19,98,,84,84,10,12,7,11,0.7,0.7
2025-07-14T1600,1703A,113.0208,23.7106,清远市,凤城街办,,24,22,31,16,18,75,,74,74,11,16,7,8,0.5,0.5
2025-07-14T1600,3025A,113.0477,23.6344,清远市,技师学院,,36,32,34,21,19,115,,86,86,8,14,6,7,0.6,0.6
2025-07-14T1600,3318A,112.9903,23.7403,清远市,清新太和,,24,24,32,15,17,65,,77,77,9,13,5,5,0.6,0.6
2025-07-14T1600,3455A,113.076,23.7198,清远市,清城东城,,49,47,30,34,19,106,,88,88,9,10,6,7,0.5,0.5
2025-07-14T1600,2661A,107.6325,35.7357,庆阳市,庆阳五中,,33,17,30,9,18,105,,113,110,4,7,6,6,0.4,0.4
2025-07-14T1600,2662A,107.6364,35.7067,庆阳市,市环保局,,35,24,32,8,16,109,,116,114,3,6,9,10,0.6,0.6
2025-07-14T1600,1916A,103.7897,25.5035,曲靖市,环境监测站,,40,28,33,16,17,128,,94,94,6,11,5,11,0.3,0.4
2025-07-14T1600,1917A,103.8,25.5364,曲靖市,烟厂办公区,,42,14,31,12,20,134,,89,89,4,11,4,7,0.2,0.4
2025-07-14T1600,3376A,103.7947,25.462,曲靖市,南苑二区,,42,17,31,15,18,133,,94,94,6,10,4,7,0.5,0.7
2025-07-14T1600,3377A,103.7444,25.5261,曲靖市,曲靖师范学院,,,,33,15,24,109,,85,85,7,10,7,13,0.3,0.3
2025-07-14T1600,1264A,118.8692,28.9398,衢州市,环保大楼,,29,17,31,13,19,90,,73,73,4,10,4,4,0.4,0.5
2025-07-14T1600,1265A,118.8709,28.9666,衢州市,实验学校,,30,18,31,10,17,96,,75,75,3,10,3,4,0.4,0.5
2025-07-14T1600,1266A,118.8621,28.9808,衢州市,衢州学院,,32,20,26,12,16,100,,79,79,4,11,4,4,0.3,0.4
2025-07-14T1600,1611A,118.5819,24.9117,泉州市,涂山街,,44,44,27,25,16,114,,88,88,20,14,3,3,0.5,0.5
2025-07-14T1600,1612A,118.5972,24.8978,泉州市,津头埔,,49,49,32,24,16,136,,100,100,15,11,3,3,0.6,0.6
2025-07-14T1600,1613A,118.6663,24.9424,泉州市,万安,颗粒物(PM10),56,61,33,37,15,159,,102,102,16,15,3,2,0.6,0.5
2025-07-14T1600,1614A,118.6117,24.9604,泉州市,清源山,,,,,,,,,,,,,,,,
2025-07-14T1600,3529A,118.6333,24.9264,泉州市,城华南路,,43,39,24,30,14,131,,92,92,18,9,4,4,0.6,0.4
2025-07-14T1600,2626A,88.8876,29.2718,日喀则市,日喀则监测站,,24,6,5,3,2,76,,71,71,8,8,14,14,0.3,0.4
2025-07-14T1600,3726A,88.8781,29.2426,日喀则市,林业技术推广中心,,34,6,6,3,1,106,,92,92,3,4,8,8,0.3,0.3
2025-07-14T1600,1659A,119.471,35.4209,日照市,监测站,,43,22,21,7,12,135,,122,122,9,14,8,7,0.7,0.7
2025-07-14T1600,1660A,119.523,35.4216,日照市,市政府广场,,42,19,19,3,9,134,,123,123,4,9,7,6,0.6,0.7
2025-07-14T1600,1661A,119.5587,35.4044,日照市,港务局,,41,14,19,12,15,131,,119,119,8,11,10,9,0.6,0.7
2025-07-14T1600,3507A,119.5328,35.4625,日照市,职业技术学院,,42,31,20,9,10,134,,119,119,12,14,8,6,0.5,0.5
2025-07-14T1600,3604A,119.3266,35.1044,日照市,岚山环保分局,臭氧1小时,53,22,27,8,12,162,,132,132,6,16,10,16,0.5,1.2
2025-07-14T1600,1835A,111.1922,34.7752,三门峡市,市政府,,37,22,40,13,22,116,,118,118,6,19,3,6,0.4,0.5
2025-07-14T1600,1836A,111.1587,34.7942,三门峡市,开发区,,38,28,42,14,25,121,,120,120,10,17,4,7,0,0.2
2025-07-14T1600,1838A,111.143,34.7955,三门峡市,风景区,,,,,,,,,,,,,,,,
2025-07-14T1600,3039A,111.1911,34.7829,三门峡市,三门峡市第一小学,,,41,45,,26,114,,115,115,10,21,10,13,0.4,0.5
2025-07-14T1600,3598A,111.1,34.7167,三门峡市,富达温泉假日酒店,,37,19,38,16,23,118,,123,123,5,14,8,8,0.5,0.5
2025-07-14T1600,2324A,117.6211,26.2625,三明市,三钢,,27,20,22,6,16,84,,52,52,8,13,5,6,0.9,1.2
2025-07-14T1600,2325A,117.635,26.2714,三明市,三明二中,,26,12,19,3,10,81,,53,53,12,12,3,2,1.0,0.8
2025-07-14T1600,2326A,117.6028,26.2378,三明市,三元区政府,,29,,22,10,12,92,,58,58,9,11,4,2,0.6,0.2
2025-07-14T1600,2327A,117.7275,26.3108,三明市,洋溪,,,,,,,,,,,,,,,,
2025-07-14T1600,1876A,109.5078,18.2489,三亚市,河东子站,,31,31,22,10,11,51,,52,52,2,5,4,3,0.3,0.3
2025-07-14T1600,1877A,109.4964,18.2681,三亚市,河西子站,,24,24,21,14,14,53,,50,50,2,8,2,2,0.3,0.3
2025-07-14T1600,3540A,109.7348,18.3443,三亚市,君悦子站,,26,26,19,12,10,57,,52,52,3,7,1,3,0.1,0.1
2025-07-14T1600,2624A,91.7608,29.2313,山南市,山南监测站,,35,6,7,3,4,110,,87,87,4,6,3,3,0.3,0.2
2025-07-14T1600,2625A,91.7706,29.2436,山南市,山南人民医院,,35,6,10,3,5,112,,88,88,1,6,4,4,0,0
2025-07-14T1600,1674A,116.6794,23.3667,汕头市,金平子站,,26,26,30,13,13,75,,71,71,6,9,2,3,0.6,0.7
2025-07-14T1600,1675A,116.7244,23.3633,汕头市,龙湖子站,,25,24,30,14,13,78,,68,68,5,7,6,6,0.6,0.6
2025-07-14T1600,1676A,116.7258,23.2775,汕头市,濠江子站,,27,27,41,13,15,65,,66,66,3,7,5,5,0.7,0.7
2025-07-14T1600,1677A,116.7519,23.4714,汕头市,澄海子站,,42,42,40,12,16,80,,76,76,10,10,3,2,0.7,0.6
2025-07-14T1600,1678A,116.6092,23.2539,汕头市,潮阳子站,,,37,32,16,11,68,,69,69,,5,4,4,0.7,0.7
2025-07-14T1600,3444A,116.454,23.2684,汕头市,潮南峡山,,25,25,34,10,16,66,,70,70,7,6,5,6,0.6,0.6
2025-07-14T1600,3624A,116.4069,23.2533,汕头市,潮南子站,,30,30,38,12,18,79,,69,69,5,5,5,4,0.5,0.5
2025-07-14T1600,1693A,115.3653,22.775,汕尾市,市环保局,,24,24,27,8,11,68,,63,63,2,4,2,2,0.5,0.5
2025-07-14T1600,1694A,115.3706,22.7898,汕尾市,市政府,,,15,36,7,19,67,,67,67,2,5,,3,0.5,0.4
2025-07-14T1600,1695A,115.3622,22.7925,汕尾市,新城中学,,25,25,32,7,12,75,,67,67,3,6,3,3,0.4,0.4
2025-07-14T1600,2645A,109.9154,33.8715,商洛市,监测站,,30,28,34,19,22,96,,92,92,5,13,5,7,0.4,0.5
2025-07-14T1600,3045A,109.9643,33.8471,商洛市,商州区中学,,34,34,42,18,22,90,,87,87,6,16,6,7,0.4,0.4
2025-07-14T1600,2408A,115.6702,34.4285,商丘市,环境监测站,,50,,43,26,24,158,,162,162,6,11,2,3,0.4,0.4
2025-07-14T1600,2409A,115.6458,34.4045,商丘市,粮食局,,,22,41,8,23,142,,162,162,6,11,,3,0.5,0.4
2025-07-14T1600,2410A,115.6293,34.3948,商丘市,睢阳区环保局,,44,44,52,29,22,138,,155,155,10,21,3,3,0.2,0.2
2025-07-14T1600,3171A,115.6071,34.4465,商丘市,梁园区档案局,,45,43,46,29,22,142,,151,151,2,13,1,2,0.5,0.5
2025-07-14T1600,1141A,121.4,31.238,上海市,普陀,臭氧1小时,52,,43,34,34,161,,153,153,10,20,6,6,0.5,0.5
2025-07-14T1600,1142A,121.478,31.2036,上海市,十五厂,臭氧1小时,64,31,41,31,30,171,,160,160,10,18,8,8,0.7,0.7
2025-07-14T1600,1143A,121.467,31.3008,上海市,虹口,臭氧1小时,57,30,43,24,29,165,,155,155,9,19,11,9,1.0,0.9
2025-07-14T1600,1147A,121.425,31.2261,上海市,静安监测站,,50,30,42,30,31,159,,152,152,10,20,5,5,0.6,0.7
2025-07-14T1600,1148A,121.703,31.1907,上海市,浦东川沙,臭氧1小时,74,33,35,33,24,179,,168,168,22,20,10,9,0.8,0.8
2025-07-14T1600,1149A,121.533,31.2284,上海市,浦东新区监测站,臭氧1小时,79,31,39,31,25,183,,165,165,8,17,9,8,0.7,0.7
2025-07-14T1600,1150A,121.577,31.2071,上海市,浦东张江,臭氧1小时,67,,48,31,24,173,,166,166,10,18,6,6,1.0,0.9
2025-07-14T1600,3265A,121.4316,31.3322,上海市,宝山庙行,臭氧1小时,68,29,44,29,30,174,,167,167,12,24,8,6,0.7,0.5
2025-07-14T1600,3266A,121.8791,31.4662,上海市,崇明上实东滩,,40,14,33,8,24,128,,142,142,6,17,3,3,0.5,0.6
2025-07-14T1600,3268A,121.3162,31.2838,上海市,嘉定南翔,,47,,58,21,34,149,,145,145,4,23,8,7,0.5,0.5
2025-07-14T1600,3269A,121.3359,30.7456,上海市,金山新城,臭氧1小时,104,60,47,45,27,208,,155,155,11,13,3,4,1.0,0.8
