timepoint,stationcode,longitude,latitude,area,positionname,primarypollutant,aqi,pm10,pm10_24h,pm2_5,pm2_5_24h,o3,o3_24h,o3_8h,o3_8h_24h,no2,no2_24h,so2,so2_24h,co,co_24h
2025-07-21T1900,2566A,102.1879,31.914,阿坝藏族羌族自治州,州农科所,颗粒物(PM10),60,69,20,10,9,47,,45,45,8,7,14,19,4.2,1.3
2025-07-21T1900,2568A,102.2502,31.8896,阿坝藏族羌族自治州,马师校,,19,,10,13,14,37,,42,42,3,7,6,7,0.8,0.8
2025-07-21T1900,3994A,102.2165,31.9024,阿坝藏族羌族自治州,马尔康中学西区,,14,12,11,6,11,44,,48,48,2,6,7,7,0.7,0.7
2025-07-21T1900,2695A,80.292,41.1694,阿克苏地区,电视台,颗粒物(PM10),53,56,52,25,18,104,,108,100,21,19,1,3,0.4,0.4
2025-07-21T1900,2696A,80.2613,41.1551,阿克苏地区,艺术中心,颗粒物(PM10),63,75,53,44,25,118,,112,112,7,3,4,3,0.4,0.5
2025-07-21T1900,2204A,105.6467,38.8363,阿拉善盟,西城区西花园,臭氧1小时,72,19,13,3,5,177,,150,150,13,10,14,10,0.8,0.7
2025-07-21T1900,2205A,105.6985,38.8411,阿拉善盟,蒙二幼,臭氧1小时,80,36,14,9,5,184,,156,156,13,9,13,9,0.5,0.4
2025-07-21T1900,2206A,105.724,38.8516,阿拉善盟,环保局新楼,臭氧1小时,77,20,9,10,5,181,,150,150,8,5,15,11,0.5,0.4
2025-07-21T1900,2708A,88.1264,47.8517,阿勒泰地区,市站,,30,23,28,3,6,96,,99,99,9,9,2,2,0.3,0.3
2025-07-21T1900,2630A,80.1161,32.5,阿里地区,阿里监测站,,38,,3,3,2,119,,116,116,4,5,6,6,0.1,0.2
2025-07-21T1900,3192A,80.0903,32.5028,阿里地区,阿里藏医院,,40,6,6,3,1,128,,126,126,3,4,6,6,0.3,0.3
2025-07-21T1900,2642A,109.0318,32.6537,安康市,香溪洞,,35,28,23,13,9,111,,92,92,4,8,8,9,0.6,0.6
2025-07-21T1900,2644A,109.0072,32.6975,安康市,汉滨区检察院,,44,44,23,20,12,104,,82,82,3,7,4,4,0.8,0.8
2025-07-21T1900,4054A,109.0325,32.6913,安康市,市邮政管理局,,39,39,26,16,13,106,,91,91,4,10,4,11,0.6,0.7
2025-07-21T1900,2291A,117.0809,30.5177,安庆市,环科院,,25,18,19,6,7,80,,88,88,3,5,4,4,0.4,0.5
2025-07-21T1900,2292A,117.0331,30.5119,安庆市,马山宾馆,,25,19,20,7,10,78,,85,85,8,7,2,3,0.5,0.5
2025-07-21T1900,2294A,116.9896,30.6145,安庆市,安庆大学,,31,20,16,10,7,98,,96,96,6,7,4,4,0.3,0.3
2025-07-21T1900,3173A,117.0598,30.5351,安庆市,市人大,,27,19,19,8,7,84,,92,92,10,9,3,3,0.4,0.4
2025-07-21T1900,3122A,105.9606,26.2611,安顺市,伍家关,,,,8,6,6,55,,70,61,4,5,3,3,0.4,0.4
2025-07-21T1900,3123A,105.9408,26.2431,安顺市,凤凰山,,20,9,12,6,7,64,,80,67,4,5,3,6,0.6,0.6
2025-07-21T1900,3124A,105.9439,26.2564,安顺市,金钟山,,18,8,13,8,11,55,,70,61,4,5,4,8,0.4,0.5
2025-07-21T1900,3125A,105.8983,26.2481,安顺市,娄家坡,,17,10,10,6,5,53,,69,57,4,5,8,8,0.5,0.5
2025-07-21T1900,1818A,114.4839,36.0621,安阳市,棉研所,,,,,,,,,,,,,,,,
2025-07-21T1900,1819A,114.3551,36.1017,安阳市,红庙街,,45,36,32,31,21,128,,136,136,6,8,2,4,0.5,0.6
2025-07-21T1900,1820A,114.361,36.0681,安阳市,银杏小区,颗粒物(PM10),61,72,37,43,29,113,,127,126,4,4,4,4,0.5,0.5
2025-07-21T1900,3141A,114.3922,36.0878,安阳市,信访局,,49,47,34,34,21,131,,142,142,7,10,5,5,0.8,0.8
2025-07-21T1900,3669A,114.4705,36.0637,安阳市,左辅环卫站,细颗粒物(PM2.5),62,53,32,44,25,95,,122,118,10,8,4,5,0.9,0.9
2025-07-21T1900,3703A,114.2917,36.0949,安阳市,安钢职工学校,,48,48,39,25,25,121,,130,130,2,6,3,4,0.6,0.7
2025-07-21T1900,1748A,123.044,41.1196,鞍山市,深沟寺,,35,24,30,12,18,111,,109,109,12,16,5,5,0.9,1.2
2025-07-21T1900,1749A,123.011,41.0931,鞍山市,太阳城,,39,17,34,12,23,123,,120,120,11,15,7,7,0.8,1.2
2025-07-21T1900,1750A,123.0485,41.1442,鞍山市,太平,,35,17,39,12,22,112,,113,113,15,17,6,6,1.1,1.3
2025-07-21T1900,1751A,122.9642,41.0971,鞍山市,铁西三道街,,35,18,32,14,30,112,,110,110,12,21,5,6,0.9,1.4
2025-07-21T1900,1753A,123.022,41.0821,鞍山市,明达新区,,36,19,29,11,21,115,,110,110,12,13,8,8,0.8,1.1
2025-07-21T1900,1754A,123.1289,41.0228,鞍山市,千山,,,,,,,,,,,,,,,,
2025-07-21T1900,4201A,122.9446,41.0826,鞍山市,兴盛南路290号,,35,17,34,12,21,111,,113,113,15,22,7,7,0.8,1.3
2025-07-21T1900,2195A,107.4212,40.761,巴彦淖尔市,附二中,,47,17,18,12,10,149,,158,158,5,11,6,7,0.4,0.5
2025-07-21T1900,2196A,107.37,40.7372,巴彦淖尔市,市环保大楼,,39,20,29,7,12,124,,142,140,8,9,6,7,0.3,0.4
2025-07-21T1900,1956A,86.1472,41.7538,巴音郭楞蒙古自治州,孔雀公园,颗粒物(PM10),69,88,87,31,32,79,,94,93,12,25,3,3,0.2,0.4
2025-07-21T1900,1957A,86.1972,41.7166,巴音郭楞蒙古自治州,棉纺厂,,,,110,12,24,100,,94,,11,22,4,4,0.2,0.2
2025-07-21T1900,1958A,86.2357,41.7173,巴音郭楞蒙古自治州,经济开发区,颗粒物(PM10),62,73,65,24,19,96,,108,108,12,9,2,3,0.2,0.2
2025-07-21T1900,2914A,106.7677,31.8794,巴中市,苏山坪,,32,28,10,18,7,100,,95,95,4,6,5,4,0.5,0.5
2025-07-21T1900,3181A,106.7768,31.8526,巴中市,市五中,,31,21,16,16,8,98,,106,106,5,10,8,8,0.5,0.5
2025-07-21T1900,3183A,106.7418,31.8654,巴中市,圣泉水务公司,,33,22,12,10,6,105,,106,106,5,7,6,6,0.6,0.6
2025-07-21T1900,3616A,106.7616,31.8344,巴中市,市中心医院,,33,20,14,15,10,103,,108,108,5,11,8,8,0.4,0.4
2025-07-21T1900,2235A,122.7911,45.6077,白城市,洮北区环保局,,28,10,9,7,9,88,,92,92,1,2,4,3,0.2,0.2
2025-07-21T1900,2236A,122.8738,45.5725,白城市,市环保局,,28,14,8,3,4,87,,87,87,2,3,4,3,0.5,0.5
2025-07-21T1900,2231A,126.4219,41.9171,白山市,喜丰,,15,15,13,3,5,34,,48,46,6,8,4,4,0.4,0.4
2025-07-21T1900,2232A,126.4077,41.9419,白山市,环保局,,17,17,14,3,6,48,,56,56,6,8,10,8,0.4,0.5
2025-07-21T1900,2647A,104.1724,36.5446,白银市,第三小学,,39,22,49,8,17,123,,123,123,6,17,4,39,0.3,0.7
2025-07-21T1900,2648A,104.1465,36.5482,白银市,动力公司,,39,25,33,10,15,122,,120,120,7,14,6,18,0.3,0.4
2025-07-21T1900,2512A,106.6103,23.9011,百色市,市监测站,,13,7,24,6,13,39,,53,51,6,10,4,4,0.6,0.6
2025-07-21T1900,2513A,106.6538,23.8859,百色市,市中心血站,,13,11,29,9,16,33,,53,50,20,25,1,2,0.7,0.7
2025-07-21T1900,3406A,106.6085,23.8798,百色市,祈福高中,,12,,28,7,15,37,,51,49,11,12,4,4,0.7,0.7
2025-07-21T1900,2270A,117.396,32.939,蚌埠市,工人疗养院,,29,24,22,3,3,91,,96,96,5,10,7,6,0.2,0.2
2025-07-21T1900,2271A,117.3605,32.9427,蚌埠市,百货大楼,,28,20,20,3,3,88,,92,92,4,8,6,7,0.3,0.3
2025-07-21T1900,2273A,117.4185,32.8911,蚌埠市,蚌埠学院,,30,9,16,3,5,94,,99,99,1,4,4,5,0.2,0.3
2025-07-21T1900,2274A,117.3533,32.9673,蚌埠市,淮上区政府,,,24,23,3,6,91,,96,96,9,11,6,6,,0.4
2025-07-21T1900,2275A,117.3145,32.8977,蚌埠市,高新区,,30,27,18,6,4,94,,98,98,6,8,6,6,0.4,0.4
2025-07-21T1900,3715A,117.3092,32.9314,蚌埠市,蚌埠田家炳中学,,29,24,21,3,7,90,,92,92,7,6,8,8,0.2,0.2
2025-07-21T1900,1585A,109.8756,40.6532,包头市,市环境监测站,,43,,21,9,9,137,,144,144,13,22,3,7,0.3,0.5
2025-07-21T1900,1587A,109.9991,40.5842,包头市,包头八中,,42,19,30,3,11,134,,135,135,13,26,8,9,0.4,0.7
2025-07-21T1900,1588A,109.8538,40.6821,包头市,青山宾馆,,43,9,24,3,12,135,,139,139,8,28,4,6,0.3,0.5
2025-07-21T1900,1589A,109.8642,40.6288,包头市,惠龙物流,,44,,22,8,9,139,,140,140,9,18,4,7,0.3,0.5
2025-07-21T1900,1590A,110.0377,40.5546,包头市,东河鸿龙湾,,45,21,25,3,8,144,,146,146,10,25,3,6,0.5,0.6
2025-07-21T1900,3283A,109.9154,40.5685,包头市,滨河大厦,,46,6,19,3,10,146,,144,144,8,28,3,5,0.4,0.5
2025-07-21T1900,3419A,109.9447,40.6261,包头市,包头市委党校,,45,6,18,3,10,142,,142,142,9,22,6,10,0.3,0.6
2025-07-21T1900,3683A,109.8331,40.6576,包头市,昆区政府,,43,11,21,6,12,137,,141,141,11,25,2,5,0.5,0.7
2025-07-21T1900,1930A,107.185,34.3063,宝鸡市,庙沟村,,32,24,17,8,5,102,,98,98,5,8,4,4,0.4,0.4
2025-07-21T1900,1931A,107.0708,34.3017,宝鸡市,竹园沟,,24,20,22,7,7,75,,81,81,5,7,6,7,0.4,0.3
2025-07-21T1900,1932A,107.1906,34.3672,宝鸡市,三陆医院,,36,28,23,15,9,115,,100,100,8,20,6,7,0.6,0.6
2025-07-21T1900,1933A,107.1431,34.3547,宝鸡市,监测站,,35,26,21,12,9,112,,99,99,9,10,8,8,0.4,0.3
2025-07-21T1900,1934A,107.1186,34.3739,宝鸡市,技工学校,,37,26,21,8,10,117,,100,100,9,8,5,5,0.5,0.5
2025-07-21T1900,1936A,107.2058,34.3497,宝鸡市,文理学院,,36,33,23,13,10,115,,104,104,6,12,6,6,0.5,0.5
2025-07-21T1900,1937A,107.2386,34.3622,宝鸡市,三迪小学,,36,28,23,16,12,113,,106,106,9,19,7,7,0.4,0.4
2025-07-21T1900,4308A,107.3898,34.3601,宝鸡市,陈仓区北开路21号,,36,,10,25,12,115,,110,110,6,14,7,9,0.4,0.3
2025-07-21T1900,1051A,115.493,38.8632,保定市,游泳馆,,38,26,25,14,15,120,,146,145,5,6,3,3,0,0
2025-07-21T1900,1052A,115.5213,38.8959,保定市,华电二区,,43,26,22,10,12,136,,159,159,7,8,3,3,0.4,0.4
2025-07-21T1900,1053A,115.4713,38.9108,保定市,接待中心,,41,28,27,6,14,131,,147,147,3,5,3,3,0.3,0.4
2025-07-21T1900,1054A,115.4612,38.8416,保定市,地表水厂,,40,31,32,8,11,126,,144,144,1,7,2,2,0.2,0.2
2025-07-21T1900,3581A,115.31981,38.95208,保定市,满城区生态环境分局,,47,22,24,9,15,150,,131,131,3,4,2,2,0.2,0.3
2025-07-21T1900,3582A,115.47694,38.76408,保定市,清苑区第二中学,,38,34,27,18,20,120,,135,135,2,6,1,2,0.2,0.3
2025-07-21T1900,3583A,115.62909,39.02311,保定市,徐水物探局,,39,18,23,3,7,122,,136,136,1,5,3,3,0.3,0.3
2025-07-21T1900,4004A,115.4202,38.8656,保定市,双鹰农机,,42,23,21,11,14,134,,148,148,7,11,1,2,0.1,0.2
2025-07-21T1900,4034A,115.5150,38.8590,保定市,植保所站,,44,31,27,10,11,138,,162,162,7,11,3,2,0.2,0.2
2025-07-21T1900,2594A,99.1678,25.1081,保山市,市环境监测站,,29,15,16,12,15,91,,94,94,5,7,3,5,0.4,0.4
2025-07-21T1900,2595A,99.1711,25.1328,保山市,市环保局,,31,14,18,13,10,99,,103,103,2,4,8,8,0.3,0.3
2025-07-21T1900,1866A,109.2262,21.588,北海市,牛尾岭水库,,25,11,7,3,4,80,,79,79,1,3,2,2,0.5,0.6
2025-07-21T1900,1867A,109.1436,21.4086,北海市,海滩公园,,,53,20,17,6,69,,61,61,,5,2,2,0.5,0.8
2025-07-21T1900,1868A,109.0981,21.4661,北海市,新市环保局,,,35,16,,10,67,,59,59,,6,2,2,0.3,0.3
2025-07-21T1900,1869A,109.1778,21.5233,北海市,北海工业园,,26,26,14,10,9,66,,58,58,4,5,3,3,0.3,0.4
2025-07-21T1900,3400A,109.1911,21.4415,北海市,龙潭自来水厂,,27,27,13,10,10,69,,59,59,4,4,3,3,0.5,0.5
2025-07-21T1900,1001A,116.3621,39.8784,北京市,万寿西宫,,40,8,25,7,19,127,,149,149,10,16,2,2,0.5,0.5
2025-07-21T1900,1002A,116.2202,40.2915,北京市,定陵,,36,17,14,3,7,115,,140,140,1,2,5,5,0.4,0.4
2025-07-21T1900,1003A,116.4174,39.9289,北京市,东四,,45,9,28,3,18,143,,164,164,11,18,3,4,0.3,0.4
2025-07-21T1900,1004A,116.4072,39.8863,北京市,天坛,,39,10,23,6,18,123,,149,149,8,17,4,4,0.4,0.5
2025-07-21T1900,1005A,116.462,39.9365,北京市,农展馆,,37,10,28,8,21,118,,149,149,5,10,3,2,0.7,0.8
2025-07-21T1900,1006A,116.3392,39.9295,北京市,官园,,42,15,26,10,18,133,,156,156,8,20,2,3,0.4,0.5
2025-07-21T1900,1007A,116.2878,39.9611,北京市,海淀万柳,,41,16,22,8,14,129,,148,148,10,21,3,3,0.3,0.4
2025-07-21T1900,1008A,116.6636,40.135,北京市,顺义新城,臭氧1小时,54,19,24,15,16,163,,144,144,13,8,3,3,0.3,0.3
2025-07-21T1900,1009A,116.6275,40.3275,北京市,怀柔镇,,46,12,17,8,11,145,,122,122,8,8,1,1,0.4,0.4
2025-07-21T1900,1010A,116.2296,40.217,北京市,昌平镇,,50,25,18,10,10,160,,156,156,12,10,3,3,0.2,0.2
2025-07-21T1900,1011A,116.3966,39.9821,北京市,奥体中心,,41,12,24,6,15,129,,142,142,7,15,3,3,0.2,0.2
2025-07-21T1900,3281A,115.9718,40.4529,北京市,延庆夏都,,46,16,13,8,8,145,,124,124,6,10,5,5,0.3,0.3
2025-07-21T1900,3418A,116.8336,40.4095,北京市,密云新城,,45,19,15,9,9,144,,104,104,8,4,1,2,0.4,0.5
2025-07-21T1900,3671A,116.088,39.9726,北京市,门头沟三家店,,37,22,23,14,10,117,,140,140,8,12,3,3,0.3,0.4
2025-07-21T1900,3672A,116.1541,39.8204,北京市,丰台云岗,,40,22,28,20,21,125,,136,136,7,14,2,2,0.4,0.4
2025-07-21T1900,3673A,116.6804,39.9081,北京市,通州东关,,47,16,34,7,23,149,,162,162,10,16,2,2,0.4,0.5
2025-07-21T1900,3674A,115.9577,39.7603,北京市,房山燕山,,27,20,17,8,10,86,,109,106,3,4,1,1,0.4,0.4
2025-07-21T1900,3675A,116.4672,39.7733,北京市,大兴旧宫,,49,9,28,3,18,154,,144,144,8,11,1,1,0.6,0.6
2025-07-21T1900,3694A,115.986,40.4563,北京市,延庆石河营,,40,13,12,9,7,125,,107,107,7,9,2,2,0.3,0.3
2025-07-21T1900,3695A,116.6151,40.3053,北京市,怀柔新城,,39,14,18,9,12,124,,117,117,11,5,1,1,0.4,0.5
2025-07-21T1900,3696A,116.2545,39.8768,北京市,丰台小屯,,39,23,25,12,17,124,,130,130,3,13,1,1,0.6,0.5
2025-07-21T1900,3697A,116.84,40.3844,北京市,密云镇,,49,13,13,12,9,156,,109,109,10,9,4,4,0.5,0.6
2025-07-21T1900,4182A,116.1942,39.9158,北京市,八角北路9号,,45,20,27,10,15,142,,151,151,8,17,2,2,0.4,0.4
2025-07-21T1900,4194A,117.0790,40.1518,北京市,洳河巡河路,,41,12,22,9,16,130,,119,119,8,8,3,2,0.3,0.4
2025-07-21T1900,1761A,123.8275,41.3064,本溪市,大峪,,35,35,28,17,11,109,,98,98,9,15,6,5,1.0,0.7
2025-07-21T1900,1762A,123.7567,41.3325,本溪市,溪湖,,36,26,26,17,15,115,,105,105,4,10,2,2,1.1,1.2
2025-07-21T1900,1763A,123.7169,41.3094,本溪市,彩屯,,35,26,24,24,17,105,,100,100,14,17,7,7,0.8,0.8
2025-07-21T1900,1764A,123.7669,41.2864,本溪市,东明,,45,45,26,16,11,118,,95,95,12,19,4,4,1.2,1.1
2025-07-21T1900,1765A,123.7992,41.2664,本溪市,新立屯,,46,46,21,17,7,54,,91,89,16,13,4,4,1.1,0.8
2025-07-21T1900,1766A,123.8142,41.3472,本溪市,威宁,,39,39,21,26,15,99,,94,94,9,14,6,6,0.8,0.7
2025-07-21T1900,2587A,105.2864,27.3125,毕节市,八中,,22,,8,10,8,68,,89,68,5,4,4,4,0.4,0.3
2025-07-21T1900,2588A,105.31,27.2944,毕节市,师专,,22,8,11,3,5,69,,88,66,5,4,4,4,0.7,0.6
2025-07-21T1900,4263A,105.3688,27.3598,毕节市,工业大道,,25,6,8,3,6,80,,91,72,6,6,6,5,0.7,0.6
2025-07-21T1900,1629A,118.0018,37.3617,滨州市,第二水厂,,30,17,16,3,13,95,,99,99,11,5,3,3,0.5,0.6
2025-07-21T1900,1630A,117.9776,37.393,滨州市,北中新校,,30,12,21,7,13,95,,104,104,15,10,15,16,0.3,0.3
2025-07-21T1900,3514A,117.9378,37.3956,滨州市,中海酒店,,29,14,18,12,16,92,,101,101,9,4,8,8,0.6,0.7
2025-07-21T1900,3515A,117.9378,37.3553,滨州市,开发区一中,,32,14,18,3,13,101,,106,106,14,9,10,11,0.4,0.5
2025-07-21T1900,3516A,118.0917,37.694,滨州市,金海六路,,37,12,16,7,11,118,,114,114,8,7,12,10,0.2,0.3
2025-07-21T1900,4028A,117.9956,37.3753,滨州市,滨州市西街道办事处,,32,,12,9,14,102,,109,109,12,7,2,2,0.3,0.3
2025-07-21T1900,2311A,115.8072,33.8399,亳州市,污水处理厂,,29,19,21,9,11,92,,107,106,7,8,4,5,0.6,0.6
2025-07-21T1900,2312A,115.7789,33.8518,亳州市,三国揽胜宫,,30,29,29,3,6,94,,102,102,2,4,4,5,0.5,0.5
2025-07-21T1900,3332A,115.7633,33.8034,亳州市,亳州学院,,31,16,18,3,8,97,,106,106,4,8,3,4,0.5,0.4
2025-07-21T1900,2693A,82.0485,44.8556,博尔塔拉蒙古自治州,市党校,,38,38,35,22,16,103,,98,98,6,9,3,3,0.1,0.1
2025-07-21T1900,2694A,82.0806,44.8969,博尔塔拉蒙古自治州,市环保局,,34,27,49,16,17,106,,100,100,6,8,4,3,0.4,0.2
2025-07-21T1900,1071A,116.8842,38.2991,沧州市,沧县城建局,细颗粒物(PM2.5),52,40,39,36,32,128,,153,152,10,11,3,3,0.5,0.6
2025-07-21T1900,1072A,116.8584,38.3254,沧州市,电视转播站,,49,49,44,34,30,126,,132,132,13,13,4,2,0.3,0.5
2025-07-21T1900,1073A,116.8709,38.3228,沧州市,市环保局,细颗粒物(PM2.5),54,42,42,38,33,103,,126,125,11,12,3,2,0.4,0.6
2025-07-21T1900,3324A,116.8136,38.3004,沧州市,河北水利电力学院,细颗粒物(PM2.5),52,,33,36,27,140,,156,156,8,8,3,3,0.4,0.5
2025-07-21T1900,2622A,97.1806,31.1273,昌都市,昌都监测站,,29,7,11,3,4,91,,83,83,3,6,3,3,0.3,0.3
2025-07-21T1900,3719A,97.1714,31.1406,昌都市,昌都会议中心,,24,12,9,6,5,76,,71,71,6,5,4,5,0.2,0.2
2025-07-21T1900,2690A,88.1236,43.8886,昌吉回族自治州,天山天池,,36,36,30,18,12,111,,117,117,6,7,5,5,0.5,0.6
2025-07-21T1900,2692A,87.2717,44.0297,昌吉回族自治州,新区政务中心,,37,29,32,18,12,118,,112,112,3,10,6,7,0.4,0.5
2025-07-21T1900,3613A,87.3095,44.0142,昌吉回族自治州,亚心广场,,41,41,42,22,14,107,,110,110,10,15,7,8,0.2,0.3
2025-07-21T1900,1120A,125.2863,43.9027,长春市,客车厂,,36,23,18,14,9,114,,110,110,13,14,3,3,0.5,0.4
2025-07-21T1900,1121A,125.2841,43.8463,长春市,邮电学院,,36,24,15,9,7,115,,117,117,13,11,5,4,0.4,0.4
2025-07-21T1900,1122A,125.3716,43.8772,长春市,劳动公园,,36,25,19,9,9,114,,116,116,18,14,6,5,0.9,0.8
2025-07-21T1900,1123A,125.3297,43.8805,长春市,园林处,,37,24,16,9,8,117,,118,118,12,10,4,4,0.8,0.8
2025-07-21T1900,1124A,125.4605,43.79,长春市,净月潭,,34,31,37,18,15,108,,,,8,5,4,4,0.2,0.2
2025-07-21T1900,1125A,125.7194,43.515,长春市,甩湾子,,25,11,12,7,9,78,,95,94,11,9,1,2,0.6,0.6
2025-07-21T1900,1126A,125.3863,43.8447,长春市,经开区环卫处,,36,25,17,8,7,115,,112,112,12,10,6,6,0.4,0.4
2025-07-21T1900,1127A,125.245,43.7783,长春市,高新区管委会,,35,26,16,8,9,111,,119,119,13,10,3,2,0.5,0.5
2025-07-21T1900,1128A,125.1761,43.8325,长春市,岱山公园,,34,21,18,8,8,108,,109,109,11,16,3,3,0.5,0.4
2025-07-21T1900,4281A,125.3346,43.9164,长春市,北亚泰大街1068号,,35,22,19,11,9,111,,110,110,14,15,5,6,0.4,0.4
2025-07-21T1900,1335A,113.0833,28.2325,长沙市,经开区环保局,,21,21,15,3,3,44,,54,52,8,9,4,4,0.4,0.3
2025-07-21T1900,1336A,112.8872,28.2189,长沙市,高开区环保局,,22,22,18,3,3,57,,58,58,3,8,3,4,0.3,0.3
2025-07-21T1900,1337A,113.0792,28.2053,长沙市,马坡岭,,18,16,16,11,5,57,,62,61,6,7,4,4,0.5,0.4
2025-07-21T1900,1338A,112.9394,28.19,长沙市,湖南师范大学,,18,10,16,3,6,55,,64,63,5,7,2,2,0.2,0.3
2025-07-21T1900,1339A,113.0178,28.1322,长沙市,雨花区环保局,,18,17,17,3,5,56,,61,61,3,5,5,5,0.6,0.6
2025-07-21T1900,1340A,112.9792,28.2597,长沙市,伍家岭,,15,12,17,3,5,48,,56,55,3,8,2,2,0.3,0.3
2025-07-21T1900,1341A,113.0014,28.1944,长沙市,火车新站,,23,23,16,7,4,50,,56,54,4,8,6,6,0.3,0.4
2025-07-21T1900,1342A,112.9844,28.1178,长沙市,天心区环保局,,21,,13,7,4,66,,68,68,4,5,1,2,0.3,0.3
2025-07-21T1900,1343A,112.8908,28.1308,长沙市,湖南中医药大学,,20,19,18,14,8,58,,65,64,3,8,2,2,0.7,0.7
2025-07-21T1900,1344A,112.9581,28.3611,长沙市,沙坪,,17,17,16,7,9,54,,53,53,9,8,3,4,0.4,0.4
2025-07-21T1900,1727A,113.1147,36.1547,长治市,清华站,,35,23,19,7,8,110,,116,116,8,9,7,7,0.8,0.9
2025-07-21T1900,1730A,113.0886,36.2125,长治市,审计局,,38,22,17,14,10,120,,117,117,7,9,5,5,1.0,0.8
2025-07-21T1900,1731A,113.0844,36.1856,长治市,长治八中,,36,27,16,19,17,113,,116,116,5,6,7,7,0.7,0.6
2025-07-21T1900,2845A,113.1569,36.1911,长治市,德盛苑,,35,28,18,14,8,111,,111,111,8,7,7,6,1.0,0.7
2025-07-21T1900,3568A,113.06,36.0464,长治市,向阳小学,,46,46,52,22,15,117,,122,122,3,10,4,6,0.8,1
2025-07-21T1900,3569A,112.8792,36.3144,长治市,屯留一中,,40,,24,28,25,110,,128,128,10,16,8,10,0.5,0.5
2025-07-21T1900,4189A,113.1131,36.19948,长治市,英华南巷50号,,36,26,20,14,11,115,,73,,11,11,6,6,1.0,0.8
2025-07-21T1900,4190A,113.2367,36.3344,长治市,学府街1号,,,56,24,14,15,133,,120,120,,22,,6,0.5,0.6
2025-07-21T1900,1854A,111.6975,28.9703,常德市,市二中,,26,16,18,3,13,81,,91,89,4,7,2,3,0.4,0.5
2025-07-21T1900,1857A,111.7158,29.1456,常德市,白鹤山,,,,,,,,,,,,,,,,
2025-07-21T1900,3138A,111.7153,29.0289,常德市,武陵区永安,,22,18,25,13,16,69,,90,88,5,5,2,3,0.2,0.3
2025-07-21T1900,3139A,111.6892,28.9881,常德市,鼎城区玉霞,,24,15,22,7,11,74,,88,86,2,3,2,5,0.4,0.5
2025-07-21T1900,3140A,111.6625,29.0531,常德市,武陵区长庚,,21,13,23,10,16,65,,88,85,5,6,2,3,0.5,0.5
2025-07-21T1900,1196A,119.9633,31.762,常州市,市监测站,,18,15,18,6,7,57,,75,75,16,15,10,11,0.5,0.6
2025-07-21T1900,1200A,119.9468,31.7069,常州市,武进监测站,,19,18,16,3,5,60,,72,72,5,5,11,10,0.6,0.6
2025-07-21T1900,1201A,119.9255,31.9087,常州市,安家,,26,26,23,6,4,62,,77,77,12,10,7,7,0.5,0.5
2025-07-21T1900,3002A,119.9805,31.8174,常州市,行政中心,,25,25,17,7,6,56,,74,74,9,9,7,7,0.2,0.2
2025-07-21T1900,3003A,120.0522,31.7748,常州市,经开区,,27,27,29,3,5,55,,73,73,9,11,4,5,0.0,0
2025-07-21T1900,3010A,119.9025,31.7964,常州市,钟楼,,20,16,28,3,4,62,,76,76,9,9,6,6,0.4,0.5
2025-07-21T1900,3429A,119.8598,31.7066,常州市,武进经发区,,25,25,18,7,7,61,,72,72,5,4,5,6,0.6,0.6
2025-07-21T1900,3430A,119.5826,31.7245,常州市,金坛城区,,24,7,14,3,6,74,,78,78,6,6,6,6,0.2,0.2
2025-07-21T1900,2220A,120.4318,41.5881,朝阳市,西梁,,30,23,21,16,12,93,,100,100,11,14,8,9,0.7,0.8
2025-07-21T1900,2221A,120.4521,41.5646,朝阳市,河畔小区,,33,10,17,7,6,104,,103,103,7,9,5,6,0.5,0.6
2025-07-21T1900,2222A,120.4176,41.5648,朝阳市,八里堡,,30,27,27,13,10,93,,103,103,14,15,4,7,0.5,0.8
2025-07-21T1900,2223A,120.3806,41.5969,朝阳市,农业园区,,31,20,18,7,7,99,,110,110,9,11,5,6,0.4,0.5
2025-07-21T1900,1705A,116.6367,23.6719,潮州市,西园路,,15,14,16,8,7,48,,53,51,5,6,2,2,0.3,0.3
2025-07-21T1900,3026A,116.6183,23.6608,潮州市,市政府,,22,22,17,8,7,43,,51,48,6,5,2,2,0.4,0.4
2025-07-21T1900,4036A,116.6461,23.6761,潮州市,金山,,17,16,15,11,12,54,,60,57,4,5,6,5,0.5,0.5
2025-07-21T1900,2472A,113.0073,25.9061,郴州市,马头岭,,29,,17,20,9,43,,52,52,6,6,6,7,0.5,0.5
2025-07-21T1900,2473A,113.0116,25.8226,郴州市,市职中,,14,12,12,7,8,42,,56,56,6,6,4,5,0.7,0.7
2025-07-21T1900,2475A,113.0383,25.8071,郴州市,市审计局,,,16,10,3,6,52,,62,62,,19,4,5,0.3,0.5
2025-07-21T1900,2476A,113.0348,25.7759,郴州市,市环保局,,17,17,14,3,7,49,,62,62,3,5,5,9,0.2,0.2
2025-07-21T1900,4252A,113.0138,25.8011,郴州市,好美居路49号,,17,10,15,3,7,52,,58,58,6,5,2,3,0.3,0.2
2025-07-21T1900,1431A,103.9728,30.7236,成都市,金泉两河,,50,,25,23,8,158,,143,143,8,14,2,3,0.4,0.4
2025-07-21T1900,1432A,104.176,30.6872,成都市,十里店,,,,23,,8,143,,153,153,,14,4,5,0.3,0.4
2025-07-21T1900,1433A,104.079,30.5706,成都市,三瓦窑,,49,29,26,26,14,154,,161,161,11,24,2,3,0.1,0.2
2025-07-21T1900,1434A,104.1114,30.63,成都市,沙河铺,,39,,24,26,10,124,,127,127,8,14,6,6,0.3,0.3
2025-07-21T1900,1437A,104.0786,30.6531,成都市,君平街,,49,27,29,17,12,155,,156,156,13,14,5,6,0.6,0.8
2025-07-21T1900,1438A,103.613,31.0283,成都市,灵岩寺,,,,,,,,,,,,,,,,
2025-07-21T1900,2880A,104.0239,30.65639,成都市,大石西路,细颗粒物(PM2.5),60,,23,43,14,143,,136,136,12,15,3,3,0.6,0.7
2025-07-21T1900,3136A,104.2725,30.5589,成都市,龙泉驿区区政府,,40,12,16,7,5,125,,135,135,9,15,4,4,0.4,0.4
2025-07-21T1900,3357A,104.0106,30.6931,成都市,金博路,,48,18,16,13,11,152,,142,142,10,16,4,5,0.5,0.5
2025-07-21T1900,3359A,104.0578,30.5225,成都市,华阳,,44,14,21,9,14,138,,141,141,12,14,4,4,0.4,0.5
2025-07-21T1900,3488A,104.3853,30.7453,成都市,青白江技师分院,,40,24,25,6,12,128,,131,131,6,21,5,5,0.4,0.4
2025-07-21T1900,3489A,104.0789,30.4072,成都市,科学城,,47,18,20,13,11,148,,153,153,6,11,3,3,0.4,0.5
2025-07-21T1900,4011A,103.8506,30.6947,成都市,光华大道三段,,43,17,21,6,10,135,,136,136,11,13,4,5,0.6,0.7
2025-07-21T1900,4224A,104.2433,30.5353,成都市,鲸龙路1057号,,42,21,22,10,7,132,,139,139,7,14,7,7,0.6,0.6
2025-07-21T1900,1062A,117.9531,40.9081,承德市,铁路,,33,33,16,13,5,84,,94,94,18,10,2,2,0.3,0.2
2025-07-21T1900,1063A,117.9392,40.9763,承德市,中国银行,,30,26,17,11,6,94,,102,102,11,5,1,3,0.2,0.2
2025-07-21T1900,1064A,117.9503,40.928,承德市,开发区,,30,27,25,8,8,93,,100,100,11,8,2,2,0.2,0.2
2025-07-21T1900,1066A,117.9268,41.0026,承德市,离宫,,35,35,23,14,13,49,,83,83,6,5,1,2,0.3,0.3
2025-07-21T1900,4274A,117.7994,40.9605,承德市,滨河大街98号,,43,,31,30,16,72,,99,99,4,13,3,18,0.3,0.6
2025-07-21T1900,2314A,117.47,30.6618,池州市,池州学院,,26,19,16,9,8,83,,75,75,6,7,5,5,0.4,0.3
2025-07-21T1900,3237A,117.4918,30.6617,池州市,展览馆,,27,12,16,3,7,84,,76,76,4,6,4,4,0.5,0.4
2025-07-21T1900,3333A,117.5627,30.695,池州市,第八中学,,27,14,16,3,7,85,,76,76,3,4,4,4,0.4,0.4
2025-07-21T1900,3334A,117.5038,30.6243,池州市,第十二中学,,27,14,17,3,7,86,,80,80,6,7,3,3,0.6,0.6
2025-07-21T1900,1744A,118.9233,42.2816,赤峰市,松山一中,,25,18,13,6,4,77,,90,90,18,13,11,10,0.4,0.4
2025-07-21T1900,1745A,118.9576,42.2728,赤峰市,哈达街,,24,18,14,3,6,76,,87,87,17,12,12,12,0.5,0.4
2025-07-21T1900,1746A,118.8788,42.2554,赤峰市,天义路,,27,,8,7,6,86,,90,90,10,9,14,10,0.1,0
2025-07-21T1900,3058A,119.2658,42.0353,赤峰市,银河街,,25,17,22,3,12,77,,101,101,13,12,9,14,0.5,0.6
2025-07-21T1900,3286A,118.9359,42.3147,赤峰市,桥北物流园区,,,10,16,,10,75,,84,84,13,17,12,11,0.5,0.6
2025-07-21T1900,2521A,107.3476,22.4136,崇左市,市环保局江州分局,,19,17,23,9,12,59,,61,58,5,5,6,6,0.5,0.5
2025-07-21T1900,4256A,107.3750,22.3736,崇左市,石景林东路7号,,26,26,20,9,11,59,,60,59,6,7,2,2,0.5,0.5
2025-07-21T1900,2298A,118.3093,32.3153,滁州市,老年大学,,25,25,23,8,9,78,,81,81,8,7,8,9,0.2,0.2
2025-07-21T1900,2299A,118.3244,32.2786,滁州市,人大宾馆,,25,16,10,8,8,79,,85,85,6,4,4,4,0.1,0.1
2025-07-21T1900,3207A,118.3118,32.3038,滁州市,市政府原办公楼,,25,23,18,13,18,80,,84,84,3,3,5,5,0.2,0.2
2025-07-21T1900,3331A,118.3267,32.2634,滁州市,图书馆,,26,15,13,11,9,83,,86,86,6,7,9,9,0.2,0.2
2025-07-21T1900,2605A,101.5482,25.0441,楚雄彝族自治州,州环境监测站,,22,14,16,10,13,69,,82,82,10,15,8,8,0.6,0.7
2025-07-21T1900,2606A,101.538,25.0492,楚雄彝族自治州,市经济开发区,,31,31,24,12,11,69,,84,84,10,12,10,8,0.7,0.6
2025-07-21T1900,2548A,107.5277,31.2827,达州市,达州职业技术学院,,26,26,30,3,3,59,,98,96,20,12,6,8,0.3,0.4
2025-07-21T1900,2549A,107.5086,31.2186,达州市,市环境监测站,,26,24,27,3,3,81,,106,106,20,18,6,6,0.4,0.4
2025-07-21T1900,2550A,107.4988,31.2132,达州市,凤凰小区,,25,22,24,9,6,79,,103,102,16,17,5,6,0.3,0.4
2025-07-21T1900,2551A,107.5082,31.1986,达州市,达县机关宾馆,,29,29,25,7,5,78,,111,110,26,21,4,4,0.4,0.4
2025-07-21T1900,2552A,107.4644,31.2124,达州市,市政中心,,32,32,30,12,5,81,,102,102,11,16,3,4,0.3,0.3
2025-07-21T1900,2614A,100.1542,25.7054,大理白族自治州,大理市环境监测站,,33,,17,17,17,104,,114,114,10,14,5,5,0.5,0.5
2025-07-21T1900,2615A,100.2171,25.5811,大理白族自治州,大理古城,,28,15,16,12,10,87,,103,102,15,8,4,4,0.6,0.6
2025-07-21T1900,1109A,121.612,38.9741,大连市,甘井子,,40,,10,28,11,96,,109,109,30,17,4,6,0.3,0.2
2025-07-21T1900,1110A,121.565,38.9511,大连市,周水子,,26,18,14,18,9,80,,100,99,34,13,2,2,0.5,0.3
2025-07-21T1900,1111A,121.5637,38.8845,大连市,星海三站,,27,11,14,10,7,84,,93,93,13,6,4,4,0.5,0.3
2025-07-21T1900,1112A,121.6302,38.9117,大连市,青泥洼桥,,40,40,16,19,7,77,,105,103,34,13,6,6,0.8,0.6
2025-07-21T1900,1113A,121.6251,38.8638,大连市,傅家庄,,35,12,16,8,6,112,,108,108,6,8,10,10,0.2,0.1
2025-07-21T1900,1114A,121.5213,38.8661,大连市,七贤岭,,28,14,13,14,6,87,,113,112,19,8,12,12,0.4,0.3
2025-07-21T1900,1115A,121.2529,38.8061,大连市,旅顺,,32,9,11,7,7,100,,98,98,13,11,4,4,0.4,0.3
2025-07-21T1900,1116A,121.7485,39.1311,大连市,金州,,29,26,16,19,12,92,,113,113,16,14,6,7,0.3,0.2
2025-07-21T1900,1117A,121.7811,39.0496,大连市,开发区,,29,,14,20,9,91,,107,106,32,18,9,8,0.4,0.2
2025-07-21T1900,1118A,121.9762,39.0631,大连市,双D港,,25,22,16,13,8,80,,94,94,8,9,9,8,0.3,0.3
2025-07-21T1900,1789A,124.81117,46.03138,大庆市,大同区,,32,32,16,7,5,78,,83,83,9,6,7,7,0.6,0.6
2025-07-21T1900,1790A,125.129,46.533,大庆市,龙凤区,,30,30,14,6,8,85,,92,92,17,11,5,5,0.6,0.5
2025-07-21T1900,1791A,124.902,46.408,大庆市,红岗区,,28,26,19,15,10,87,,95,94,12,7,9,8,0.5,0.5
2025-07-21T1900,1792A,125.153,46.586,大庆市,萨尔图区,,,31,24,8,6,,,71,,14,11,9,10,0.4,0.4
2025-07-21T1900,1793A,124.9042,46.6215,大庆市,让胡路区,,28,25,24,17,14,87,,89,89,9,8,6,5,0.2,0.3
2025-07-21T1900,3481A,125.141,46.634,大庆市,萨区政府监测点,,30,26,23,3,2,96,,99,99,9,8,6,7,0.3,0.3
2025-07-21T1900,1721A,113.3819,40.1097,大同市,果树场,,34,12,21,6,12,107,,114,114,10,16,7,7,0.2,0.3
2025-07-21T1900,1723A,113.2994,40.0758,大同市,云冈宾馆,,38,12,25,6,9,120,,123,123,13,18,6,8,0.5,1.2
2025-07-21T1900,1724A,113.3444,40.0917,大同市,大同大学,,,13,17,3,8,128,,129,129,,20,6,12,0.2,0.3
2025-07-21T1900,1725A,113.2661,40.1269,大同市,安家小村,,41,14,26,3,7,130,,131,131,11,17,8,8,0.4,0.8
2025-07-21T1900,1726A,113.2711,40.0844,大同市,教育学院,,39,15,31,3,12,123,,124,124,18,23,8,11,0.3,0.8
2025-07-21T1900,3282A,113.3397,40.0597,大同市,大同市卫生学校,,37,16,17,8,9,118,,116,116,8,16,5,6,0.4,0.5
2025-07-21T1900,3565A,113.1367,40.1122,大同市,云冈站,,42,22,49,14,22,133,,127,127,42,37,4,6,0.1,0.3
2025-07-21T1900,3566A,113.1186,40.2556,大同市,图书馆,,45,24,23,10,12,141,,134,134,8,7,7,8,0.7,0.6
2025-07-21T1900,3567A,113.5931,40.0461,大同市,区一中,,,,14,4,5,127,,123,123,9,8,14,12,0.5,0.4
2025-07-21T1900,4199A,113.2798,40.0997,大同市,魏都大道141号,,42,8,30,6,12,133,,133,133,10,18,7,9,0.3,1.1
2025-07-21T1900,2269A,124.1069,50.4097,大兴安岭地区,科技局,,28,28,20,13,10,28,,58,43,4,2,7,7,0.4,0.3
2025-07-21T1900,3663A,124.1164,50.4278,大兴安岭地区,红旗社区,,18,12,4,12,6,31,,58,41,6,2,4,4,0.3,0.3
2025-07-21T1900,1600A,124.3303,40.0625,丹东市,江湾东路,,24,24,23,12,8,34,,36,36,12,7,3,9,0.6,0.5
2025-07-21T1900,1601A,124.4256,40.1503,丹东市,临江后街,,29,29,19,7,5,31,,35,33,12,5,4,5,0.8,0.6
2025-07-21T1900,1602A,124.3933,40.1461,丹东市,元宝山,,21,21,13,8,5,27,,33,30,14,9,2,2,0.5,0.4
2025-07-21T1900,1603A,124.3633,40.1092,丹东市,民主桥,,24,24,16,10,6,23,,26,26,15,7,3,3,0.6,0.5
2025-07-21T1900,3541A,109.5726,19.5167,儋州市,第一中学子站,,16,7,9,3,6,51,,48,48,2,2,3,3,0.7,0.7
2025-07-21T1900,3542A,109.5567,19.5187,儋州市,东坡学校子站,,19,6,8,3,5,60,,52,,1,2,6,5,0.5,0.5
2025-07-21T1900,2616A,98.5842,24.428,德宏傣族景颇族自治州,德宏州监测站,,26,9,16,8,8,82,,92,92,7,7,17,10,0.6,0.6
2025-07-21T1900,3677A,98.5881,24.4368,德宏傣族景颇族自治州,芒市人民政府综合楼,,28,24,25,6,9,87,,93,93,7,6,14,9,0.4,0.5
2025-07-21T1900,1901A,104.4239,31.1208,德阳市,东山公园,,41,15,17,8,8,130,,132,132,6,12,5,6,0.7,0.7
2025-07-21T1900,1902A,104.3826,31.1317,德阳市,西小区,,,17,22,12,12,125,,128,128,7,14,,7,0.8,0.8
2025-07-21T1900,1904A,104.3553,31.1091,德阳市,耐火材料厂,,,,25,,12,,,65,,,18,,3,,0.4
2025-07-21T1900,3639A,104.4019,31.1244,德阳市,市教育局,,40,20,21,7,10,125,,128,128,2,9,6,7,0.6,0.6
2025-07-21T1900,1622A,116.3032,37.4674,德州市,儿童乐园,,43,29,38,24,34,136,,143,143,8,10,8,8,0.7,0.8
2025-07-21T1900,1624A,116.2991,37.4451,德州市,监理站,,44,22,38,14,29,140,,146,146,8,10,8,9,0.5,0.6
2025-07-21T1900,3066A,116.2721,37.4379,德州市,九衢泉纯净水厂,细颗粒物(PM2.5),52,,43,36,38,135,,139,139,8,12,1,3,0.7,0.8
2025-07-21T1900,3371A,116.3728,37.4403,德州市,开发区人民医院,,40,24,34,24,32,125,,128,128,8,10,7,8,0.9,1
2025-07-21T1900,3511A,116.5652,37.3319,德州市,陵城艺术中心,,39,34,40,17,29,123,,110,110,9,9,7,5,0.4,0.5
2025-07-21T1900,4292A,116.3525,37.4209,德州市,新河东路,,41,29,38,17,29,129,,137,137,9,11,7,7,0.7,0.8
2025-07-21T1900,2621A,99.7056,27.8317,迪庆藏族自治州,迪庆州站,,27,,19,13,15,84,,92,91,10,10,8,10,0.3,0.3
2025-07-21T1900,3180A,99.7136,27.8094,迪庆藏族自治州,质量技术监督局,,25,19,20,8,9,80,,92,91,17,14,6,7,0.5,0.4
2025-07-21T1900,4257A,104.6092,35.5962,定西市,将台街,,43,22,33,10,12,135,,136,136,3,8,7,7,0,0
2025-07-21T1900,4309A,104.6159,35.5701,定西市,正龙路62号,,41,18,25,9,13,131,,132,132,2,3,4,4,0.2,0.2
2025-07-21T1900,1389A,113.7547,23.0494,东莞市,莞城梨川,,26,26,16,14,9,48,,78,72,20,8,7,7,0.6,0.5
2025-07-21T1900,1390A,113.7944,23.0128,东莞市,东城石井,,18,18,15,10,8,37,,69,64,26,14,3,2,0.6,0.6
2025-07-21T1900,1391A,113.7383,22.9658,东莞市,南城西平,,13,11,12,8,7,40,,70,66,23,13,5,4,0.6,0.7
2025-07-21T1900,3319A,113.7338,23.0381,东莞市,万江金泰,,18,18,13,10,8,38,,69,64,18,8,3,3,0.9,0.8
2025-07-21T1900,3626A,113.7533,23.0202,东莞市,南城元岭,,18,18,13,10,7,45,,77,71,22,12,4,4,0.6,0.5
2025-07-21T1900,3627A,113.7875,23.0457,东莞市,东城主山,,20,20,14,10,7,45,,75,68,20,9,3,3,0.5,0.4
2025-07-21T1900,1666A,118.6614,37.4309,东营市,市环保局,,25,7,5,3,2,78,,93,93,12,13,5,6,0.2,0.2
2025-07-21T1900,3036A,118.6904,37.4338,东营市,开发区管委会,,28,16,11,3,2,88,,101,101,9,11,5,6,0.3,0.3
2025-07-21T1900,3365A,118.5719,37.565,东营市,垦利区民丰路,,26,9,9,3,5,81,,99,99,11,11,4,4,0.4,0.5
2025-07-21T1900,3498A,118.5055,37.8612,东营市,河口城区,,28,14,12,7,5,88,,98,90,16,11,8,7,0.6,0.7
2025-07-21T1900,3646A,118.4978,37.4623,东营市,胜利站,,27,,16,3,3,84,,104,104,14,15,3,4,0.4,0.5
2025-07-21T1900,3734A,118.35,37.26,东营市,理想之城,,24,7,6,3,4,76,,98,98,11,10,6,7,0.4,0.4
2025-07-21T1900,1591A,110.0023,39.8129,鄂尔多斯市,综合楼,,45,24,22,3,5,144,,141,141,13,19,2,3,0.8,0.7
2025-07-21T1900,1592A,109.9486,39.8261,鄂尔多斯市,巴音孟克林场办事处,,47,31,32,12,8,149,,147,147,11,17,3,3,0.6,0.6
2025-07-21T1900,1593A,109.7736,39.5986,鄂尔多斯市,康泽苑,,,31,26,,8,151,,148,148,7,13,3,4,0.3,0.3
2025-07-21T1900,1594A,109.8119,39.5989,鄂尔多斯市,华泰汽车城,,44,17,24,7,9,138,,137,137,8,24,5,5,0.4,0.5
2025-07-21T1900,1595A,109.9734,39.7884,鄂尔多斯市,奥林花园,,45,22,30,7,13,143,,141,141,10,33,5,6,0.8,0.8
2025-07-21T1900,2436A,114.8938,30.3994,鄂州市,市政府,,23,15,17,3,2,71,,68,67,8,11,4,3,0.5,0.5
2025-07-21T1900,2437A,114.8989,30.3714,鄂州市,赵家坝,,22,16,20,3,2,70,,70,70,7,4,6,7,0.4,0.4
2025-07-21T1900,3654A,114.8094,30.4089,鄂州市,精准医疗中心,,21,13,16,3,1,67,,74,72,5,12,9,5,0.6,0.5
2025-07-21T1900,2454A,109.4978,30.2981,恩施土家族苗族自治州,湖北民院,,30,23,25,21,18,65,,72,68,4,7,5,5,0.6,0.6
2025-07-21T1900,2455A,109.4707,30.2798,恩施土家族苗族自治州,州电力总公司,,21,18,22,12,20,66,,70,66,5,12,8,8,0.7,0.6
2025-07-21T1900,3549A,109.5061,30.3772,恩施土家族苗族自治州,龙凤新区,,21,14,19,10,14,65,,77,63,3,6,4,4,0.5,0.5
2025-07-21T1900,2499A,108.3411,21.6158,防城港市,沙万,,,,12,1,9,56,,57,57,3,4,1,2,0.6,0.5
2025-07-21T1900,2500A,108.3514,21.7731,防城港市,防城档案局,,23,,16,16,15,50,,50,50,4,6,2,2,0.6,0.5
2025-07-21T1900,2501A,108.3506,21.6414,防城港市,大海花园,,19,,10,3,11,59,,58,58,2,4,3,3,0.6,0.6
2025-07-21T1900,1371A,113.1294,23.0067,佛山市,湾梁,,14,14,9,8,7,41,,80,76,26,17,5,6,0.6,0.6
2025-07-21T1900,1372A,113.1083,23.0478,佛山市,华材职中,,17,9,8,8,5,52,,95,91,19,8,7,7,0.6,0.6
2025-07-21T1900,1373A,113.144,23.0453,佛山市,南海气象局,,20,20,14,8,6,40,,74,70,25,13,3,3,0.7,0.7
2025-07-21T1900,1374A,113.2881,22.8094,佛山市,顺德苏岗,,13,10,15,3,3,41,,68,63,16,14,5,7,0.5,0.5
2025-07-21T1900,1376A,112.8383,22.8678,佛山市,高明孔堂,,18,16,11,6,6,57,,98,95,18,11,8,6,0.8,0.7
2025-07-21T1900,1377A,112.8836,23.1588,佛山市,三水监测站,,18,9,7,7,7,57,,94,94,23,13,2,2,0.6,0.6
2025-07-21T1900,1378A,112.867,23.185,佛山市,三水云东海,,30,30,18,14,7,56,,98,96,27,12,2,2,0.6,0.5
2025-07-21T1900,3625A,113.2544,22.7642,佛山市,容桂街道办,,14,6,4,3,3,42,,73,69,18,14,5,5,0.5,0.5
2025-07-21T1900,1280A,119.3903,26.0543,福州市,鼓山,,,,,,,,,,,,,,,,
2025-07-21T1900,1282A,119.2681,26.0504,福州市,师大,,12,6,7,3,0,36,,51,40,15,8,4,4,0.3,0.3
2025-07-21T1900,1283A,119.2984,26.1028,福州市,五四北路,,13,12,10,3,0,30,,48,42,26,13,3,3,0.4,0.3
2025-07-21T1900,1284A,119.2648,26.0768,福州市,杨桥西路,,14,14,9,7,2,28,,50,40,26,12,3,3,0.3,0.2
2025-07-21T1900,1285A,119.317,26.0746,福州市,紫阳,,14,14,9,3,1,26,,46,38,21,10,4,4,0.4,0.2
2025-07-21T1900,3048A,119.5799,26.0936,福州市,九龙,,18,6,11,3,1,56,,56,56,2,4,4,4,0.2,0.2
2025-07-21T1900,3526A,119.5189,25.9664,福州市,吴航,,17,6,8,3,4,53,,56,56,3,5,5,4,0.3,0.4
2025-07-21T1900,1755A,123.7977,41.8491,抚顺市,望花区,,44,44,24,18,22,126,,137,137,14,16,9,8,0.9,0.9
2025-07-21T1900,1756A,123.9161,41.8822,抚顺市,顺城区,细颗粒物(PM2.5),53,54,30,37,25,135,,139,139,19,17,8,5,1.7,1.2
2025-07-21T1900,1757A,124.0436,41.8611,抚顺市,东洲区,细颗粒物(PM2.5),53,42,26,37,24,133,,130,130,15,14,8,7,1.2,1.1
2025-07-21T1900,1758A,123.9247,41.8642,抚顺市,新抚区,细颗粒物(PM2.5),55,53,32,39,25,129,,129,129,12,11,6,5,1.3,1.1
2025-07-21T1900,1759A,124.0972,41.8961,抚顺市,大伙房水库,细颗粒物(PM2.5),55,42,22,39,21,138,,130,130,16,13,8,6,1.3,1
2025-07-21T1900,1760A,123.7086,41.8391,抚顺市,沈抚新城,,36,18,25,14,22,114,,132,132,15,14,6,6,0.7,0.9
2025-07-21T1900,2376A,116.2127,28.0814,抚州市,桐源党溪,,20,20,23,9,11,31,,56,50,6,4,9,9,0.5,0.5
2025-07-21T1900,2377A,116.3544,27.9831,抚州市,市站,,12,9,20,3,7,36,,61,58,2,4,4,6,0.3,0.3
2025-07-21T1900,2378A,116.3565,27.963,抚州市,血防站,,14,14,19,6,7,33,,56,51,3,4,4,6,0.4,0.4
2025-07-21T1900,2379A,116.3564,28.0007,抚州市,采茶剧团,,15,15,20,6,6,37,,65,61,2,2,5,8,0.6,0.6
2025-07-21T1900,2380A,116.385,27.9647,抚州市,医学分院,,18,18,29,3,8,39,,62,57,2,2,5,5,0.8,0.7
2025-07-21T1900,2207A,121.6094,41.998,阜新市,工业园区,,44,40,26,13,11,139,,122,122,12,15,8,12,0.7,0.5
2025-07-21T1900,2208A,121.6697,42.0279,阜新市,长青街,,41,24,22,10,10,130,,114,114,9,11,7,19,0.6,0.5
2025-07-21T1900,2209A,121.6673,42.0705,阜新市,农业园区,,42,32,25,9,10,134,,118,118,9,11,6,6,1.0,0.7
2025-07-21T1900,2210A,121.6717,42.0224,阜新市,东苑,,41,30,30,14,13,130,,114,114,14,15,8,25,0.6,0.5
2025-07-21T1900,2211A,121.6506,42.0498,阜新市,玉龙新城,,39,38,24,15,10,122,,110,110,11,14,8,7,0.8,0.5
2025-07-21T1900,2301A,115.8277,32.8929,阜阳市,市监测站,,32,22,26,10,12,100,,89,89,7,10,3,3,0.2,0.2
2025-07-21T1900,2303A,115.8554,32.8605,阜阳市,开发区,,33,31,24,8,9,104,,96,96,8,10,6,6,0.2,0.2
2025-07-21T1900,2875A,115.784,32.8892,阜阳市,阜阳职业技术学院,,38,18,20,3,7,120,,110,110,3,5,4,4,0.4,0.4
2025-07-21T1900,3468A,115.7901,32.8613,阜阳市,市规划展馆,,35,19,26,12,8,110,,101,101,8,9,2,3,0.1,0.1
2025-07-21T1900,3469A,115.836,32.9183,阜阳市,枣园社区,,,26,24,13,8,108,,102,102,,13,2,3,0.4,0.4
2025-07-21T1900,2669A,102.9099,34.9841,甘南藏族自治州,州政府,,,13,21,10,15,85,,86,85,5,16,3,2,,0.2
2025-07-21T1900,3380A,102.8914,34.9617,甘南藏族自治州,甘肃民族师范学院,,31,31,28,6,9,92,,88,88,2,8,9,8,0.3,0.3
2025-07-21T1900,2570A,101.9603,30.0475,甘孜藏族自治州,水桥子,,31,12,7,9,4,97,,98,98,7,8,6,5,0.6,0.5
2025-07-21T1900,3065A,101.9533,29.9972,甘孜藏族自治州,州环保局,,30,15,9,3,5,93,,101,101,12,8,5,5,0.4,0.4
2025-07-21T1900,3414A,115.8347,28.932,赣江新区,桑海产业园,,18,6,13,3,2,57,,68,67,4,8,7,6,0.2,0.2
2025-07-21T1900,2362A,114.9017,25.9149,赣州市,通天岩,,20,20,14,10,8,27,,51,47,6,4,13,13,0.3,0.4
2025-07-21T1900,2363A,114.9367,25.8664,赣州市,地委,,20,20,18,3,7,39,,58,57,9,8,11,11,1.1,1
2025-07-21T1900,2364A,114.9461,25.8481,赣州市,气象台,,14,13,16,3,5,43,,59,58,8,6,5,9,0.6,0.5
2025-07-21T1900,2365A,114.9322,25.8333,赣州市,市图书馆,,13,12,13,3,6,40,,57,56,8,6,4,4,0.5,0.5
2025-07-21T1900,2366A,114.8905,25.8471,赣州市,华坚鞋城,,20,20,19,11,6,32,,47,46,16,11,4,5,0.4,0.4
2025-07-21T1900,3109A,115.0093,25.8613,赣州市,赣县区卫计委,,15,,13,7,7,45,,54,54,4,5,3,3,0.5,0.5
2025-07-21T1900,2683A,106.2319,36.1417,固原市,马园,,37,29,33,6,9,116,,115,115,10,20,6,6,0.4,0.5
2025-07-21T1900,2684A,106.2792,36.0022,固原市,监测站,,40,15,24,10,10,125,,125,125,4,15,5,5,0.2,0.2
2025-07-21T1900,2685A,106.2375,36.0211,固原市,新区,,37,17,21,7,12,117,,120,120,9,12,7,6,0.4,0.5
2025-07-21T1900,3522A,106.2177,35.9959,固原市,原州区十五小,,39,14,22,8,11,122,,122,122,5,7,10,10,0.3,0.3
2025-07-21T1900,2543A,106.6308,30.5278,广安市,小平旧居,,,,,,,,,,,,,,,,
2025-07-21T1900,2544A,106.6303,30.4576,广安市,市委,,37,24,22,15,13,117,,116,116,8,11,8,11,0.4,0.4
2025-07-21T1900,2545A,106.6271,30.4663,广安市,友谊中学,,38,18,19,14,13,119,,117,117,8,12,4,8,0.8,0.8
2025-07-21T1900,2547A,106.6388,30.4551,广安市,广电花园,,36,,29,17,12,114,,113,113,7,10,1,3,0.6,0.6
2025-07-21T1900,2902A,106.6351,30.4865,广安市,北辰小学,,37,23,21,14,12,118,,113,113,4,8,3,9,0.5,0.5
2025-07-21T1900,2523A,105.8945,32.4535,广元市,黑石坡,,33,19,20,3,8,103,,85,85,4,8,6,7,0.3,0.3
2025-07-21T1900,2524A,105.821,32.4444,广元市,老城,,35,14,14,9,7,112,,103,103,10,10,6,4,0.6,0.6
2025-07-21T1900,2526A,105.8628,32.4287,广元市,监测站,,23,21,13,9,7,72,,88,88,15,8,10,10,0.9,0.7
2025-07-21T1900,3617A,105.8047,32.4166,广元市,经开区,,31,30,23,12,9,98,,89,89,7,10,4,4,0.6,0.5
2025-07-21T1900,1345A,113.2347,23.1423,广州市,广雅中学,,18,18,13,12,8,52,,83,80,29,13,3,2,0.5,0.5
2025-07-21T1900,1346A,113.2612,23.105,广州市,市五中,,22,22,14,13,8,47,,84,80,30,13,4,4,0.7,0.7
2025-07-21T1900,1348A,113.3478,23.0916,广州市,广东商学院,,30,23,15,21,11,41,,78,73,41,18,3,3,0.7,0.6
2025-07-21T1900,1349A,113.4332,23.1047,广州市,市八十六中,,31,21,12,16,8,12,,64,54,61,19,3,2,0.6,0.5
2025-07-21T1900,1350A,113.3505,22.9483,广州市,番禺中学,,13,13,13,9,8,39,,81,74,26,13,5,5,0.5,0.5
2025-07-21T1900,1351A,113.2146,23.3916,广州市,花都师范,,18,12,11,10,6,55,,78,76,22,16,4,3,0.6,0.5
2025-07-21T1900,1352A,113.2597,23.1331,广州市,市监测站,,22,22,15,12,7,49,,82,79,28,12,5,5,0.6,0.5
2025-07-21T1900,1353A,113.5618,23.312,广州市,九龙镇镇龙,,17,15,12,11,7,53,,70,68,13,7,6,6,0.4,0.4
2025-07-21T1900,1354A,113.2765,23.1544,广州市,麓湖,,19,19,13,11,8,41,,71,68,32,14,2,2,0.8,0.7
2025-07-21T1900,1355A,113.443,23.3035,广州市,帽峰山森林公园,,20,9,4,6,7,64,,72,72,14,12,4,4,0.3,0.3
2025-07-21T1900,2846A,113.3221,23.1322,广州市,体育西,,25,25,13,15,8,41,,76,72,42,16,5,4,0.8,0.7
2025-07-21T1900,3298A,113.5717,23.5491,广州市,从化街口,,15,13,9,7,5,46,,69,65,8,5,5,5,0.6,0.6
2025-07-21T1900,3299A,113.3472,23.3692,广州市,白云竹料,,14,14,10,9,6,42,,64,62,14,7,3,3,0.5,0.5
2025-07-21T1900,3300A,113.2981,23.237,广州市,白云嘉禾,,19,19,10,11,5,46,,77,74,31,10,5,5,0.8,0.6
2025-07-21T1900,3301A,113.4256,23.1716,广州市,黄埔科学城,,30,30,11,13,7,35,,74,67,35,8,2,2,0.8,0.7
2025-07-21T1900,3302A,113.3942,23.0483,广州市,番禺大学城,,21,21,18,11,8,35,,83,76,36,16,6,7,0.5,0.5
2025-07-21T1900,3303A,113.4922,22.8168,广州市,南沙黄阁,,14,11,11,3,7,42,,77,69,24,17,5,5,0.1,0.1
2025-07-21T1900,3304A,113.5342,22.7896,广州市,南沙街,,13,12,12,3,6,39,,80,69,23,11,3,3,0.5,0.5
2025-07-21T1900,3443A,113.2902,23.5544,广州市,花都梯面,,17,9,10,3,6,53,,72,69,8,6,4,4,0.5,0.5
2025-07-21T1900,3445A,113.7858,23.7478,广州市,从化良口,,17,11,8,7,5,52,,58,58,5,4,4,4,0.5,0.5
2025-07-21T1900,3446A,113.8051,23.2614,广州市,增城荔城,,16,12,10,7,4,49,,70,64,9,4,7,7,0.3,0.3
2025-07-21T1900,2505A,109.568,23.1478,贵港市,德智高中,,,,,,,,,,,,,,,,
2025-07-21T1900,2506A,109.6047,23.0666,贵港市,江南子站,,19,,14,13,16,54,,57,57,9,7,8,8,0.8,0.7
2025-07-21T1900,2508A,109.5669,23.1065,贵港市,荷城子站,,19,6,11,3,4,58,,60,60,7,4,7,7,0.4,0.3
2025-07-21T1900,3405A,109.5886,23.1172,贵港市,新世纪学校,,19,7,12,6,10,60,,62,62,5,3,4,2,0.3,0.3
2025-07-21T1900,4260A,109.5933,23.0951,贵港市,中山路155-3号,颗粒物(PM10),51,52,21,8,12,65,,69,69,6,4,3,3,0.4,0.4
2025-07-21T1900,1439A,106.6899,26.5998,贵阳市,马鞍山,,,2,10,,3,29,,42,40,5,6,2,3,0.3,0.3
2025-07-21T1900,1441A,106.6243,26.6266,贵阳市,鉴湖路,,12,12,15,3,2,36,,46,39,9,7,4,4,0.2,0.2
2025-07-21T1900,1442A,106.7487,26.6343,贵阳市,燕子冲,,14,,8,9,14,43,,47,46,7,8,8,8,0.0,0.1
2025-07-21T1900,1443A,106.6555,26.4365,贵阳市,碧云窝,,,,24,,7,51,,54,52,9,10,4,4,,0.5
2025-07-21T1900,1445A,106.7109,26.6027,贵阳市,红边门,,16,7,13,3,8,49,,56,48,8,10,3,2,0,0.1
2025-07-21T1900,1446A,106.7164,26.5699,贵阳市,新华路,,19,19,21,3,9,52,,59,54,10,10,8,7,0.3,0.3
2025-07-21T1900,1447A,106.674,26.5424,贵阳市,太慈桥,,15,6,9,3,5,48,,50,47,10,10,4,4,0.2,0.3
2025-07-21T1900,1552A,106.805,26.3003,贵阳市,桐木岭,,22,22,24,9,15,47,,56,50,4,5,16,15,1.1,1.1
2025-07-21T1900,4230A,106.6882,26.5695,贵阳市,花果园大街66号,,15,,5,3,10,48,,60,47,8,8,3,3,0.2,0.4
2025-07-21T1900,4231A,106.6873,26.5169,贵阳市,漓江路57号,,15,7,12,3,6,48,,53,49,7,7,3,4,0.3,0.3
2025-07-21T1900,1862A,110.4144,25.3167,桂林市,电子科大尧山校区,,,,,,,,,,,,,,,,
2025-07-21T1900,1864A,110.3089,25.2708,桂林市,龙隐路小学,,20,17,16,8,6,61,,66,66,3,2,9,8,0.4,0.3
2025-07-21T1900,1865A,110.2869,25.2178,桂林市,八中,,20,15,16,7,8,64,,69,69,10,8,6,6,0.6,0.5
2025-07-21T1900,3531A,110.296,25.1253,桂林市,旅游学院,,21,,7,9,6,65,,68,68,4,4,3,3,0.3,0.3
2025-07-21T1900,4222A,110.1835,25.2444,桂林市,环湖路276号,,21,17,14,7,8,65,,67,67,6,6,5,3,0.4,0.4
2025-07-21T1900,4301A,110.2803,25.2773,桂林市,信义路13号,,20,19,16,8,9,64,,71,71,9,6,4,4,0.7,0.7
2025-07-21T1900,2674A,100.2561,34.4714,果洛藏族自治州,玛沁县大武镇,,34,31,15,12,7,107,,101,101,2,2,17,18,0.3,0.3
2025-07-21T1900,1129A,126.5422,45.755,哈尔滨市,岭北,,32,10,10,3,7,101,,105,105,12,12,8,9,0.5,0.4
2025-07-21T1900,1130A,126.561,45.8167,哈尔滨市,松北商大,,25,11,14,8,5,77,,82,82,11,9,8,8,0.6,0.5
2025-07-21T1900,1131A,126.979,45.5419,哈尔滨市,阿城会宁,,28,16,14,8,8,88,,103,103,12,11,3,4,0.4,0.4
2025-07-21T1900,1132A,126.599,45.7222,哈尔滨市,南岗学府路,,26,26,21,3,5,78,,90,90,14,13,7,7,0.6,0.6
2025-07-21T1900,1133A,126.689,45.7733,哈尔滨市,太平宏伟公园,,27,14,19,7,9,86,,89,89,11,12,7,7,0.6,0.6
2025-07-21T1900,1134A,126.635,45.7667,哈尔滨市,道外承德广场,,46,46,32,11,8,79,,86,86,16,14,7,7,0.6,0.6
2025-07-21T1900,1135A,126.685,45.7319,哈尔滨市,香坊红旗大街,,24,22,16,14,11,76,,89,89,20,18,4,5,0.6,0.6
2025-07-21T1900,1136A,126.6411,45.7258,哈尔滨市,动力和平路,,31,31,21,3,7,83,,94,94,13,14,4,4,0.4,0.4
2025-07-21T1900,1137A,126.593,45.7478,哈尔滨市,道里建国路,,30,24,23,21,11,79,,84,84,17,17,9,6,0.4,0.3
2025-07-21T1900,1138A,126.615,45.61,哈尔滨市,平房东轻厂,,32,32,19,18,9,80,,88,88,14,12,9,8,0.3,0.4
2025-07-21T1900,1139A,126.595,45.9855,哈尔滨市,呼兰师专,,26,16,14,8,4,83,,87,87,11,9,7,8,0.5,0.6
2025-07-21T1900,1140A,126.6206,45.6842,哈尔滨市,省农科院,,49,49,29,6,8,75,,80,80,17,18,9,9,0.5,0.5
2025-07-21T1900,2688A,93.5128,42.8172,哈密市,地区监测站,,40,27,49,14,16,125,,130,130,8,16,5,5,0.1,0.1
2025-07-21T1900,2689A,93.4961,42.8328,哈密市,哈密师范学校,,38,36,54,11,21,119,,126,126,10,21,4,4,0.2,0.3
2025-07-21T1900,2671A,100.9048,36.9639,海北藏族自治州,海晏县西海镇,,49,24,21,19,16,154,,143,143,3,4,8,9,0.4,0.5
2025-07-21T1900,3867A,102.0738,36.5056,海东市,平安区公安北苑,,43,29,28,14,13,137,,146,146,5,5,12,10,0.6,0.6
2025-07-21T1900,1409A,110.576,19.9507,海口市,东寨港,,19,19,10,6,7,38,,44,39,3,3,7,5,0.4,0.4
2025-07-21T1900,1410A,110.3232,20.0574,海口市,海南大学,,17,10,9,6,5,54,,60,54,5,3,2,2,0.4,0.4
2025-07-21T1900,1411A,110.283,20.0053,海口市,秀英海南医院,,16,,8,9,5,49,,55,50,7,5,5,5,0.3,0.4
2025-07-21T1900,1412A,110.338,19.9969,海口市,海南师范大学,,17,6,8,6,6,52,,56,48,5,4,3,3,0.4,0.4
2025-07-21T1900,1413A,110.33,20.0356,海口市,龙华路环保局宿舍,,16,,8,7,6,50,,58,51,7,5,5,5,0.3,0.3
2025-07-21T1900,3539A,110.5111,19.9736,海口市,桂林洋子站,,,7,9,3,5,47,,52,44,,,5,5,0.2,0.2
2025-07-21T1900,2673A,100.6188,36.2866,海南藏族自治州,共和县恰卜恰镇,,41,17,24,6,9,129,,132,132,4,8,6,11,0.5,0.4
2025-07-21T1900,2676A,97.3731,37.3753,海西蒙古族藏族自治州,德令哈市,,50,21,20,19,15,158,,158,158,1,2,20,18,0.5,0.5
2025-07-21T1900,1048A,114.5302,36.6116,邯郸市,东污水处理厂,,42,39,27,3,7,132,,136,136,4,7,4,5,0.2,0.4
2025-07-21T1900,1049A,114.4918,36.5713,邯郸市,矿院,,45,20,21,3,8,142,,146,146,5,7,4,5,0.3,0.5
2025-07-21T1900,1050A,114.484,36.6133,邯郸市,丛台公园,,47,18,22,3,11,148,,151,151,5,9,3,5,0.3,0.5
2025-07-21T1900,3458A,114.7895,36.5593,邯郸市,香泉濮院小区,颗粒物(PM10),55,60,33,3,1,137,,140,140,5,6,2,3,0.4,0.4
2025-07-21T1900,3579A,114.50634,36.77178,邯郸市,永年区实验高中,,43,30,36,16,20,135,,140,139,5,12,3,4,0.2,0.4
2025-07-21T1900,3580A,114.20016,36.44293,邯郸市,峰峰矿区临水派出所,,46,26,34,3,4,146,,167,167,6,8,8,10,0.1,0.4
2025-07-21T1900,2634A,106.9893,33.1842,汉中市,汉川机床厂子校,,36,21,19,13,9,114,,110,110,4,9,3,3,0.4,0.4
2025-07-21T1900,2635A,107.0154,33.0706,汉中市,市监测站,,30,20,17,15,8,96,,99,99,4,9,5,5,0.7,0.7
2025-07-21T1900,2636A,107.0089,33.1138,汉中市,鑫源开发区,,31,24,18,7,7,99,,99,99,3,10,5,6,0.4,0.4
2025-07-21T1900,2637A,107.007,33.0323,汉中市,南郑大河坎水厂,,32,17,21,17,9,100,,104,104,5,9,7,7,0.6,0.6
2025-07-21T1900,1223A,120.2072,30.2111,杭州市,滨江,,10,6,10,3,5,31,,53,49,9,12,6,6,0.3,0.3
2025-07-21T1900,1224A,120.0633,30.2747,杭州市,西溪,,11,7,12,3,6,34,,52,48,7,11,4,4,0.2,0.2
2025-07-21T1900,1226A,120.3417,30.3150,杭州市,下沙,,15,15,16,6,6,30,,53,49,8,11,4,5,0.2,0.2
2025-07-21T1900,1227A,120.1269,30.2456,杭州市,卧龙桥,,11,11,14,3,6,29,,44,42,6,6,7,7,0.3,0.3
2025-07-21T1900,1228A,120.1903,30.2692,杭州市,浙江农大,,10,,12,3,6,30,,50,47,6,11,4,5,0.3,0.3
2025-07-21T1900,1230A,120.1197,30.3119,杭州市,和睦小学,,14,14,14,6,7,33,,55,52,7,10,4,5,0.4,0.4
2025-07-21T1900,1231A,120.3019,30.4183,杭州市,临平镇,,24,24,21,3,5,33,,60,58,7,5,6,6,0.3,0.3
2025-07-21T1900,1232A,120.2753,30.1839,杭州市,城厢镇,,11,11,17,3,7,28,,49,44,3,6,6,7,0.3,0.4
2025-07-21T1900,1233A,120.0883,30.1808,杭州市,云栖,,12,12,14,3,4,33,,49,46,8,11,8,8,0.3,0.4
2025-07-21T1900,3557A,119.9464,30.0494,杭州市,镇二中,,12,12,11,7,6,33,,47,44,4,7,3,3,0.4,0.4
2025-07-21T1900,3558A,119.7183,30.2367,杭州市,市府大楼,,15,13,14,3,5,46,,67,65,6,9,7,7,0.2,0.3
2025-07-21T1900,3656A,120.1556,30.2864,杭州市,消防大队,,15,15,17,3,6,32,,52,50,7,11,7,7,0.4,0.4
2025-07-21T1900,1270A,117.1959,31.7848,合肥市,明珠广场,,30,22,18,7,6,94,,92,92,10,10,6,7,0.4,0.4
2025-07-21T1900,1271A,117.3072,31.8764,合肥市,三里街,,28,17,18,3,6,88,,79,79,8,10,5,5,0.3,0.4
2025-07-21T1900,1272A,117.2588,31.8707,合肥市,琥珀山庄,,30,19,18,9,9,94,,87,87,8,10,8,9,0.6,0.6
2025-07-21T1900,1273A,117.1604,31.9052,合肥市,董铺水库,,27,19,18,17,7,85,,80,80,6,7,5,5,0.4,0.3
2025-07-21T1900,1274A,117.25,31.8571,合肥市,长江中路,,30,27,23,8,9,95,,92,92,9,10,7,7,0.2,0.3
2025-07-21T1900,1275A,117.266,31.9436,合肥市,庐阳区,,,,19,,6,98,,86,86,6,7,8,10,0.5,0.5
2025-07-21T1900,1276A,117.3453,31.8616,合肥市,瑶海区,,28,22,20,7,4,88,,79,79,10,10,6,6,0.6,0.6
2025-07-21T1900,1277A,117.3027,31.7964,合肥市,包河区,,29,24,22,9,6,91,,89,89,9,12,5,6,0.5,0.6
2025-07-21T1900,1278A,117.2776,31.7385,合肥市,滨湖新区,,30,22,19,9,12,95,,91,91,5,6,6,6,0.4,0.4
2025-07-21T1900,1279A,117.1318,31.8403,合肥市,高新区,,30,24,23,3,7,93,,90,90,9,11,5,6,0.4,0.4
2025-07-21T1900,3464A,117.3803,31.9147,合肥市,高教基地,,31,27,16,8,9,97,,83,83,9,8,5,5,0.5,0.5
2025-07-21T1900,3614A,79.924,37.0877,和田地区,地区环保局,颗粒物(PM10),500,644,397,145,93,107,,100,100,6,10,3,3,0.7,0.8
2025-07-21T1900,3615A,79.9131,37.113,和田地区,市环保局,颗粒物(PM10),496,596,341,136,85,100,,94,94,10,21,2,2,0.4,0.5
2025-07-21T1900,2516A,108.2011,24.715,河池市,东仁乐园,,,,,,,,,,,,,,,,
2025-07-21T1900,2517A,108.0497,24.6947,河池市,市环保站,,21,21,16,7,9,54,,69,59,3,3,4,4,0.6,0.5
2025-07-21T1900,2518A,108.0983,24.6989,河池市,市疾控中心,,17,15,15,6,9,53,,75,59,9,6,3,3,0.6,0.6
2025-07-21T1900,1696A,114.6778,23.7569,河源市,源西,,22,22,9,3,2,44,,33,33,6,5,3,3,0.7,0.7
2025-07-21T1900,1697A,114.6944,23.7586,河源市,东埔,,15,12,9,7,5,47,,54,53,9,6,4,4,0.6,0.5
2025-07-21T1900,1698A,114.6892,23.7233,河源市,老城,,,52,11,10,7,49,,53,53,5,4,,4,0.5,0.5
2025-07-21T1900,1718A,115.4208,35.2464,菏泽市,气象局,,43,37,19,22,17,136,,124,124,6,6,2,2,0.5,0.3
2025-07-21T1900,3374A,115.5564,35.0891,菏泽市,定陶老年大学,,36,29,11,17,5,114,,115,115,10,8,3,3,0.3,0.2
2025-07-21T1900,4184A,115.4797,35.24401,菏泽市,永昌路1号,,44,31,15,25,17,139,,126,126,8,8,5,4,0.3,0.1
2025-07-21T1900,4193A,115.4715,35.2800,菏泽市,长城路999号,,44,30,17,18,10,138,,129,129,7,7,4,4,0.5,0.4
2025-07-21T1900,2514A,111.5264,24.4172,贺州市,环保小区,,26,21,13,18,11,56,,55,55,10,8,9,11,0.8,0.6
2025-07-21T1900,2515A,111.5608,24.4078,贺州市,政协大楼,,20,20,9,11,8,64,,64,64,6,7,14,14,0.5,0.5
2025-07-21T1900,3534A,111.4744,24.4553,贺州市,西湾,,14,14,16,8,11,42,,51,51,10,7,7,7,0.4,0.5
2025-07-21T1900,2385A,114.17,35.9019,鹤壁市,市监测站,细颗粒物(PM2.5),60,,39,43,30,117,,133,133,11,11,5,9,0.8,1
2025-07-21T1900,2386A,114.2956,35.7511,鹤壁市,市交警支队,细颗粒物(PM2.5),59,48,34,42,26,86,,111,111,16,13,1,6,0.6,0.8
2025-07-21T1900,2387A,114.2878,35.7306,鹤壁市,迎宾馆,细颗粒物(PM2.5),59,62,38,42,28,102,,120,120,15,12,4,4,0.8,0.8
2025-07-21T1900,3474A,114.2617,35.6822,鹤壁市,大新区,,49,35,28,34,21,107,,121,121,8,7,6,7,0.7,0.8
2025-07-21T1900,3596A,114.1572,35.9603,鹤壁市,南山宾馆,,39,39,38,18,25,124,,141,141,7,10,3,5,0.5,0.8
2025-07-21T1900,2244A,130.2537,47.3416,鹤岗市,哈啤分公司,,27,27,18,9,7,74,,92,91,13,10,11,11,0.2,0.4
2025-07-21T1900,2245A,130.2684,47.3086,鹤岗市,斯达机电,,31,31,24,14,9,71,,89,88,18,12,12,11,0.5,0.4
2025-07-21T1900,2246A,130.3114,47.3388,鹤岗市,东山纸板厂,,35,35,21,16,12,80,,95,94,17,12,11,11,0.7,0.6
2025-07-21T1900,2247A,130.1097,47.3382,鹤岗市,五号水库,,21,18,7,10,6,67,,79,78,9,10,7,8,0.1,0.1
2025-07-21T1900,2263A,127.4833,50.2524,黑河市,交通局,,16,16,18,6,7,50,,57,56,8,6,8,7,0.5,0.3
2025-07-21T1900,2264A,127.5144,50.2341,黑河市,环保局,,23,23,18,15,11,56,,62,62,9,7,3,4,0.1,0.1
2025-07-21T1900,2265A,127.5291,50.2472,黑河市,大黑河岛,,,,3,6,7,51,,45,45,4,4,26,28,,
2025-07-21T1900,1074A,115.6838,37.7541,衡水市,电机北厂,,,42,39,23,28,145,,142,142,6,8,3,4,,0.5
2025-07-21T1900,1075A,115.6303,37.7316,衡水市,市监测站,,47,47,51,14,24,142,,146,146,9,7,9,8,0.3,0.4
2025-07-21T1900,3188A,115.6683,37.7217,衡水市,市城管局,,46,24,31,24,27,145,,145,145,8,10,3,7,0.5,0.5
2025-07-21T1900,3459A,115.5989,37.5491,衡水市,地表水厂,,42,24,40,6,16,132,,151,149,9,7,6,6,0.3,0.4
2025-07-21T1900,2456A,112.5003,26.9167,衡阳市,原169医院,,28,25,16,6,7,87,,87,87,4,8,3,4,0.4,0.5
2025-07-21T1900,2457A,112.6194,26.9258,衡阳市,衡阳化工总厂,颗粒物(PM10),66,81,23,9,8,70,,77,77,7,6,2,4,0.6,0.6
2025-07-21T1900,2458A,112.6211,26.8956,衡阳市,珠晖区环保局,,29,29,18,8,9,19,,24,23,8,11,5,5,0.3,0.4
2025-07-21T1900,2459A,112.6197,26.8733,衡阳市,市委党校,颗粒物(PM10),75,99,88,7,7,79,,75,75,4,6,5,7,0.5,0.5
2025-07-21T1900,2460A,112.6006,26.8919,衡阳市,市监测站,,26,18,18,13,9,82,,78,78,7,7,2,3,0.6,0.5
2025-07-21T1900,2461A,112.5664,26.9056,衡阳市,真空机电公司,,23,13,18,9,9,73,,76,76,4,4,3,5,0.6,0.6
2025-07-21T1900,3399A,112.6703,26.882,衡阳市,师范学院,,23,,16,10,8,72,,73,73,4,6,6,6,0.5,0.6
2025-07-21T1900,2608A,103.3772,23.3993,红河哈尼族彝族自治州,污水处理厂,,32,24,25,11,15,100,,92,92,9,10,10,15,0.3,0.3
2025-07-21T1900,2609A,103.3861,23.35,红河哈尼族彝族自治州,监测站,,29,25,37,16,21,90,,92,85,8,8,8,14,0.4,0.4
2025-07-21T1900,3038A,103.3758,23.368,红河哈尼族彝族自治州,州图书馆,,29,22,25,13,19,90,,86,86,8,8,2,9,0.3,0.3
2025-07-21T1900,1090A,111.6507,40.7517,呼和浩特市,呼市一监,,39,9,17,7,9,124,,124,124,3,14,7,8,0.3,0.5
2025-07-21T1900,1091A,111.6572,40.8033,呼和浩特市,小召,,39,9,14,7,9,122,,133,133,15,20,8,8,0.6,0.6
2025-07-21T1900,1094A,111.7516,40.8369,呼和浩特市,如意水处理厂,,43,13,13,6,7,136,,136,136,6,16,1,2,0.2,0.2
2025-07-21T1900,1095A,111.7276,40.8062,呼和浩特市,二十九中,,44,20,17,6,8,140,,138,138,7,17,5,5,0.6,0.7
2025-07-21T1900,1096A,111.5512,40.7866,呼和浩特市,工大金川校区,,44,22,21,7,8,138,,140,140,12,21,10,6,0.3,0.4
2025-07-21T1900,1097A,111.717,40.7612,呼和浩特市,化肥厂生活区,,45,14,19,3,7,142,,139,139,8,18,6,6,0.3,0.5
2025-07-21T1900,3698A,111.5968,40.8178,呼和浩特市,红旗小学,,45,27,18,6,7,141,,143,143,12,18,5,4,0.3,0.3
2025-07-21T1900,3699A,111.6518,40.8389,呼和浩特市,海东办,,45,9,13,8,9,141,,148,148,9,18,5,5,0.4,0.4
2025-07-21T1900,2192A,119.7594,49.2261,呼伦贝尔市,区环保局,,25,25,21,16,14,68,,66,66,43,31,12,6,1.0,0.7
2025-07-21T1900,3061A,119.7512,49.1577,呼伦贝尔市,国华电力东,,,23,13,16,10,83,,90,90,8,7,,3,0.5,0.5
2025-07-21T1900,1250A,120.0751,30.8669,湖州市,城西水厂,,19,19,22,6,7,47,,72,71,6,8,6,6,0.4,0.4
2025-07-21T1900,2873A,120.0830,30.8929,湖州市,仁皇山新区,,12,9,19,3,6,38,,66,64,4,6,4,4,0.4,0.4
2025-07-21T1900,2907A,120.1844,30.8596,湖州市,吴兴区站,,18,18,19,7,7,36,,63,61,2,4,6,7,0.3,0.3
2025-07-21T1900,3562A,120.4148,30.8538,湖州市,南浔区站,,17,17,17,9,8,38,,64,62,6,6,6,6,0.4,0.4
2025-07-21T1900,1607A,120.9049,40.7211,葫芦岛市,龙港区,细颗粒物(PM2.5),75,61,28,55,20,132,,120,120,3,10,6,3,1.5,0.6
2025-07-21T1900,1608A,120.8392,40.7514,葫芦岛市,化工街,,40,24,15,19,12,125,,120,120,10,20,7,6,0.8,0.6
2025-07-21T1900,1609A,120.8341,40.7073,葫芦岛市,新区,细颗粒物(PM2.5),63,,19,45,23,130,,121,121,4,10,6,4,1.5,0.9
2025-07-21T1900,1610A,120.8695,40.7677,葫芦岛市,东城区,,,,21,,24,123,,122,122,,16,,6,1.1,0.8
2025-07-21T1900,2482A,109.5981,27.5721,怀化市,林科所,,10,7,12,3,5,29,,44,42,4,5,5,4,0.2,0.3
2025-07-21T1900,2483A,109.9453,27.5444,怀化市,河西地税局,,12,8,14,3,7,36,,48,46,6,6,2,2,0.2,0.3
2025-07-21T1900,2484A,109.9781,27.5342,怀化市,市四医院,,11,9,9,6,8,34,,48,47,3,3,2,4,0.3,0.3
2025-07-21T1900,2485A,109.9972,27.5578,怀化市,监测楼,,15,15,14,10,7,36,,49,48,2,3,3,3,0,0
2025-07-21T1900,2486A,110.0394,27.583,怀化市,市委党校,,12,10,11,3,7,37,,51,49,2,2,4,4,0.2,0.3
2025-07-21T1900,1210A,119.036,33.5981,淮安市,钵池山,,30,17,19,10,11,95,,91,91,8,9,7,8,0.5,0.5
2025-07-21T1900,1211A,119.007,33.575,淮安市,北京南路,,29,24,20,9,10,91,,90,90,7,7,6,6,0.6,0.6
2025-07-21T1900,1212A,118.989,33.6067,淮安市,市监测站,,28,24,22,14,11,88,,84,84,5,5,8,8,0.6,0.6
2025-07-21T1900,1213A,119.135,33.5039,淮安市,楚州区监测站,,27,27,26,9,10,85,,87,87,4,4,8,8,0.4,0.4
2025-07-21T1900,3426A,118.8755,33.2894,淮安市,新华书店,,31,21,19,8,11,97,,94,94,6,7,8,8,0.5,0.5
2025-07-21T1900,4206A,119.0288,33.6319,淮安市,承德北路606号,,29,29,24,10,8,92,,88,88,7,8,6,6,0.3,0.3
2025-07-21T1900,2282A,116.8004,33.975,淮北市,监测站,,33,27,28,19,12,105,,94,94,6,6,6,7,0.4,0.5
2025-07-21T1900,2283A,116.8091,33.9007,淮北市,烈山区政府,,35,32,35,7,7,112,,96,96,5,8,6,6,0.5,0.6
2025-07-21T1900,3330A,116.8873,33.9836,淮北市,杜集区检察院,,33,22,26,9,8,104,,90,90,5,6,6,6,0.6,0.6
2025-07-21T1900,4017A,116.7923,33.9535,淮北市,市博物馆,,35,24,23,11,12,109,,96,96,3,5,8,8,0.6,0.5
2025-07-21T1900,2277A,116.8305,32.7727,淮南市,潘集区政府,,27,27,26,7,9,82,,87,87,7,8,4,5,0.0,0.1
2025-07-21T1900,2279A,116.8569,32.5951,淮南市,谢家集区政府,,35,35,24,3,3,87,,79,79,7,6,6,7,0.1,0.1
2025-07-21T1900,2280A,116.8281,32.633,淮南市,八公山区政府,,29,26,19,6,5,91,,82,82,4,5,4,7,0.3,0.2
2025-07-21T1900,2281A,116.6325,32.6201,淮南市,焦岗湖风景区管理处,,,,,,,,,,,,,,,,
2025-07-21T1900,2894A,117.0566,32.6531,淮南市,经济技术开发区消防队,,15,10,16,8,5,48,,80,77,7,7,8,8,0.0,0.1
2025-07-21T1900,3329A,117.0108,32.5893,淮南市,山南新区,,29,17,14,7,9,90,,80,80,3,3,9,9,0.2,0.2
2025-07-21T1900,4209A,117.0031,32.6445,淮南市,国庆中路369号,,30,27,22,11,11,95,,90,90,5,5,11,11,0.2,0.2
2025-07-21T1900,2446A,114.9028,30.4742,黄冈市,职工中心,,24,20,18,9,8,74,,75,73,2,2,8,9,0.3,0.4
2025-07-21T1900,2929A,114.8858,30.4519,黄冈市,红卫路,,25,15,14,3,7,77,,79,77,3,3,9,9,0.3,0.3
2025-07-21T1900,3398A,114.9136,30.4445,黄冈市,市林业局,,25,22,17,6,6,77,,77,76,5,3,7,7,0.2,0.2
2025-07-21T1900,2672A,102.0199,35.5102,黄南藏族自治州,同仁县隆务镇,,17,13,19,3,7,54,,60,60,12,9,9,9,0.2,0.2
2025-07-21T1900,2295A,118.2903,29.6963,黄山市,延安路89号,,19,7,5,3,5,59,,63,63,2,2,3,3,0.3,0.3
2025-07-21T1900,2297A,118.1371,30.2756,黄山市,黄山区政府5号楼,,17,,10,9,5,53,,56,56,2,2,4,4,0.3,0.3
2025-07-21T1900,4210A,118.3354,29.7203,黄山市,滨江东路7-2号,,19,16,12,6,5,58,,60,60,2,2,2,2,0.2,0.3
2025-07-21T1900,2423A,115.0601,30.2313,黄石市,沈家营,,26,26,23,3,3,78,,83,83,9,9,8,7,0.4,0.3
2025-07-21T1900,2426A,114.8988,30.2019,黄石市,铁山,,26,26,20,3,3,67,,76,76,8,10,6,10,0.6,0.6
2025-07-21T1900,2427A,115.0307,30.2092,黄石市,团城山,,28,14,16,3,1,87,,91,91,2,6,6,7,0.3,0.4
2025-07-21T1900,3149A,115.0235,30.1578,黄石市,笔架山北路,,22,20,14,3,1,68,,80,79,4,8,5,7,0.3,0.3
2025-07-21T1900,4185A,115.0780,30.21118,黄石市,磁湖东路29号,,25,25,26,7,5,71,,80,80,9,12,5,7,0.4,0.5
2025-07-21T1900,1392A,114.4183,23.0528,惠州市,河南岸金山湖子站,,15,12,11,9,8,47,,58,54,11,9,6,6,0.4,0.4
2025-07-21T1900,1393A,114.4053,23.0822,惠州市,下埔横江三路子站,,16,13,10,7,6,50,,71,56,11,5,4,4,0.4,0.3
2025-07-21T1900,1394A,114.4103,23.1142,惠州市,江北云山西路子站,,18,12,11,7,5,55,,59,56,6,3,7,7,0.5,0.5
2025-07-21T1900,1395A,114.4645,22.7833,惠州市,惠阳区承修路船湖子站,,16,12,11,8,6,51,,69,63,9,9,6,6,0.5,0.5
2025-07-21T1900,1396A,114.5317,22.7422,惠州市,大亚湾管委会子站,,15,13,12,3,5,46,,74,61,13,12,6,6,0.5,0.6
2025-07-21T1900,3314A,114.4338,22.8134,惠州市,惠阳秋长,,16,,6,6,7,49,,59,57,10,10,5,7,0.5,0.4
2025-07-21T1900,3452A,114.6517,22.775,惠州市,大亚湾霞涌,,18,15,13,3,4,57,,74,65,4,4,5,6,0.8,0.8
2025-07-21T1900,2240A,130.9762,45.3001,鸡西市,环保局,,30,19,18,6,9,95,,104,96,8,7,5,4,0.2,0.2
2025-07-21T1900,2243A,130.9429,45.3039,鸡西市,第一中学,,31,15,15,10,11,97,,101,95,7,7,9,9,0.3,0.3
2025-07-21T1900,3707A,131.0207,45.3073,鸡西市,欧美日汽修厂,,30,15,18,8,10,95,,100,94,9,11,8,10,0.2,0.3
2025-07-21T1900,3709A,130.9967,45.3106,鸡西市,市政设施管理处,,30,13,18,11,11,94,,104,96,12,11,4,4,0.4,0.4
2025-07-21T1900,2367A,114.9754,27.0803,吉安市,红声器材厂,,20,19,19,6,6,63,,63,63,3,3,7,10,0.6,0.6
2025-07-21T1900,2368A,114.9658,27.0999,吉安市,市森林工业局,,19,14,19,3,7,59,,65,65,1,2,8,12,0.4,0.4
2025-07-21T1900,2369A,114.99,27.1312,吉安市,市环境监测站,,18,11,16,3,8,55,,64,63,2,3,12,19,0.4,0.4
2025-07-21T1900,2370A,115.0093,27.0968,吉安市,青原区法院,,17,14,16,6,7,52,,58,58,8,8,7,8,0.6,0.6
2025-07-21T1900,1772A,126.54,43.8622,吉林市,哈达湾,,,12,16,9,11,104,,103,103,5,6,6,6,,0.5
2025-07-21T1900,1773A,126.5844,43.8358,吉林市,东局子,,30,15,23,6,11,95,,99,99,11,10,5,5,0.5,0.6
2025-07-21T1900,1774A,126.5052,43.8245,吉林市,电力学院,,32,15,17,13,16,101,,100,100,7,11,5,5,0.6,0.7
2025-07-21T1900,1775A,126.6133,43.8972,吉林市,江北,,31,19,20,13,13,98,,102,102,6,7,3,3,0.6,0.7
2025-07-21T1900,1776A,126.555,43.8306,吉林市,江南公园,,33,11,16,7,12,103,,106,106,6,6,2,2,0.4,0.4
2025-07-21T1900,1778A,126.7061,43.7133,吉林市,丰满,,36,8,14,8,13,114,,112,112,4,5,4,4,0.6,0.6
2025-07-21T1900,2868A,126.4739,43.953,吉林市,九站,,31,,13,10,11,97,,108,108,13,7,2,2,0.5,0.5
2025-07-21T1900,1299A,116.9862,36.6114,济南市,科干所,,25,17,20,15,21,80,,95,95,14,16,5,5,0.4,0.5
2025-07-21T1900,1300A,116.9376,36.665,济南市,农科所,,27,27,22,17,14,78,,95,95,15,12,7,7,0.4,0.4
2025-07-21T1900,1301A,117.1265,36.6734,济南市,开发区,,25,20,22,12,16,79,,88,88,17,16,7,7,0.6,0.7
2025-07-21T1900,1303A,117.0624,36.6868,济南市,省种子仓库,,30,27,27,17,14,94,,101,101,14,13,5,5,0.6,0.6
2025-07-21T1900,1304A,116.9489,36.6447,济南市,机床二厂,,29,29,25,17,12,83,,97,97,18,15,6,5,0.3,0.3
2025-07-21T1900,1305A,117.0495,36.663,济南市,市监测站,,25,22,24,17,16,76,,84,84,19,18,8,8,0.5,0.6
2025-07-21T1900,1306A,116.7675,36.5484,济南市,长清党校,,22,17,22,15,20,70,,81,81,14,13,3,4,0.4,0.5
2025-07-21T1900,1616A,117.6795,36.229,济南市,技术学院,,20,,8,7,5,62,,84,84,10,11,6,6,0.7,0.7
2025-07-21T1900,1961A,117.532,36.6868,济南市,东山小学,,22,10,21,3,12,70,,89,89,6,11,5,6,0.2,0.3
2025-07-21T1900,3059A,117.7161,36.2049,济南市,泰兴公司,,17,12,11,7,6,54,,71,71,10,9,6,7,0.5,0.4
2025-07-21T1900,3064A,117.6867,36.2171,济南市,莱芜战役纪念馆,,15,7,12,7,7,47,,64,64,12,12,5,7,0.9,0.9
2025-07-21T1900,3494A,117.1673,36.9782,济南市,济阳区政府,,29,20,27,10,14,90,,96,96,7,9,9,7,0.2,0.2
2025-07-21T1900,3495A,117.1171,36.63,济南市,锦屏中学,,26,10,22,7,14,82,,97,97,8,11,8,8,0.6,0.7
2025-07-21T1900,3682A,116.9814,36.6819,济南市,济南四建,,,,19,24,16,90,,97,97,20,15,6,5,0.7,0.6
2025-07-21T1900,1653A,116.6251,35.4302,济宁市,火炬城,,,,23,,9,50,,97,90,5,5,3,3,0.4,0.5
2025-07-21T1900,1655A,116.5491,35.4042,济宁市,电化厂,,18,16,23,3,11,56,,107,99,9,6,4,4,0.7,0.7
2025-07-21T1900,3500A,116.5814,35.3707,济宁市,北湖一中,,19,13,22,3,12,60,,104,97,6,6,6,6,0.3,0.4
2025-07-21T1900,3501A,116.8249,35.5593,济宁市,服务中心,,17,8,20,3,7,53,,91,85,14,12,3,3,0.2,0.3
2025-07-21T1900,3678A,116.5907,35.4054,济宁市,市第七中学,,15,7,24,3,7,48,,98,90,8,5,6,6,0.3,0.4
2025-07-21T1900,2255A,130.2751,46.8028,佳木斯市,佳纺,,25,14,12,9,7,80,,86,86,14,10,8,8,0.3,0.3
2025-07-21T1900,2256A,130.3995,46.8307,佳木斯市,发电厂,,28,24,18,6,8,89,,91,91,10,9,5,5,0.5,0.5
2025-07-21T1900,2257A,130.3258,46.7975,佳木斯市,环保局,,27,18,17,8,8,84,,90,90,14,9,9,9,0.5,0.5
2025-07-21T1900,2258A,130.3648,46.8032,佳木斯市,十一中,,27,22,17,12,9,86,,91,91,13,10,7,7,0.5,0.5
2025-07-21T1900,2259A,130.3794,46.7588,佳木斯市,四丰,,,,,,,7,,7,7,6,6,,70,0.5,0.5
2025-07-21T1900,1252A,120.7436,30.778,嘉兴市,清河小学,,23,23,20,6,6,33,,63,60,8,8,8,9,0.6,0.6
2025-07-21T1900,1253A,120.726,30.7478,嘉兴市,嘉兴学院,,20,20,18,6,7,28,,60,58,4,4,3,3,0.6,0.6
2025-07-21T1900,2872A,120.7846,30.7525,嘉兴市,南湖区残联,,16,16,16,9,7,31,,62,60,5,3,6,5,0.2,0.3
2025-07-21T1900,3407A,120.6916,30.7739,嘉兴市,秀洲住建,,18,18,18,8,7,32,,67,64,14,12,6,6,0.3,0.4
2025-07-21T1900,1945A,98.2908,39.7711,嘉峪关市,气象局,,48,22,21,9,8,151,,150,150,6,14,7,12,0.7,0.7
2025-07-21T1900,2884A,98.2672,39.7978,嘉峪关市,酒钢宾馆,,,17,33,3,9,160,,156,156,,17,8,16,1.5,1.4
2025-07-21T1900,3248A,98.2643,39.7724,嘉峪关市,雄关区,,45,23,25,8,10,141,,142,142,8,19,8,9,0.4,0.5
2025-07-21T1900,1383A,113.1064,22.6058,江门市,北街,,13,13,13,7,7,36,,80,70,23,11,2,2,0.4,0.4
2025-07-21T1900,1384A,113.0731,22.5835,江门市,西区,,22,22,14,6,6,47,,76,70,13,10,5,5,0.6,0.5
2025-07-21T1900,1385A,113.0219,22.5311,江门市,圭峰西,,15,14,14,3,6,46,,73,69,11,8,4,4,0.8,0.7
2025-07-21T1900,1386A,113.0828,22.5947,江门市,东湖,,18,,14,12,7,42,,72,65,13,11,6,5,0.4,0.5
2025-07-21T1900,3311A,113.1075,22.5647,江门市,江海富民,,33,33,26,9,8,46,,76,68,15,12,7,7,0.4,0.2
2025-07-21T1900,3449A,113.05,22.4667,江门市,新会银湖,,15,7,10,3,6,45,,65,61,6,4,2,3,0.3,0.3
2025-07-21T1900,1830A,113.1992,35.2590,焦作市,影视城,,,,,,,,,,,,,,,,
2025-07-21T1900,3335A,113.3137,35.2641,焦作市,马村街道办,臭氧1小时,80,37,44,14,28,184,,185,185,12,15,6,12,0.7,1
2025-07-21T1900,3336A,113.2465,35.2373,焦作市,焦作技师学院,,42,27,45,9,16,132,,141,141,10,14,6,7,0.7,1.1
2025-07-21T1900,3477A,113.1656,35.2539,焦作市,中站许衡医院,,42,39,42,23,27,133,,146,146,12,13,7,11,0.7,0.9
2025-07-21T1900,3981A,113.2449,35.1803,焦作市,原李万街道办,,44,32,47,7,15,140,,145,145,9,13,7,8,0.9,1.1
2025-07-21T1900,4264A,113.2340,35.2190,焦作市,新安路1731号,,,36,48,10,20,139,,150,150,7,12,5,7,,0.7
2025-07-21T1900,4295A,113.2722,35.2121,焦作市,人民路3066号,,41,41,48,17,30,128,,139,139,15,17,8,10,0.4,0.7
2025-07-21T1900,1708A,116.3701,23.5345,揭阳市,新兴,,30,30,24,7,8,42,,59,51,17,9,7,5,0.9,0.7
2025-07-21T1900,1709A,116.3264,23.5443,揭阳市,西马,,32,32,22,6,7,46,,58,53,6,4,1,2,0.7,0.6
2025-07-21T1900,1710A,116.3611,23.5626,揭阳市,东兴,,21,21,16,8,6,36,,50,44,12,7,3,2,0.9,0.7
2025-07-21T1900,1711A,116.4151,23.5294,揭阳市,渔湖,,28,28,32,3,2,46,,58,52,12,7,6,6,1.1,0.9
2025-07-21T1900,3320A,116.403,23.5699,揭阳市,曲溪,,,,13,,6,43,,55,50,,7,20,4,0.7,0.6
2025-07-21T1900,1944A,102.1692,38.5167,金昌市,天庆家园,颗粒物(PM10),53,56,45,11,20,152,,146,146,7,16,45,31,0.3,0.8
2025-07-21T1900,4022A,102.1647,38.5371,金昌市,金川区人防中心,颗粒物(PM10),54,58,38,11,18,145,,39,,7,13,11,31,0.7,0.8
2025-07-21T1900,4239A,102.1930,38.5319,金昌市,长春路96号,颗粒物(PM10),54,58,49,18,19,145,,135,135,1,8,9,53,0.3,0.6
2025-07-21T1900,1262A,119.647,29.077,金华市,十五中,,15,15,13,3,5,28,,62,52,14,13,2,2,0.1,0.1
2025-07-21T1900,1263A,119.686,29.1029,金华市,监测站,,14,14,14,3,6,20,,58,47,16,14,3,2,0.3,0.2
2025-07-21T1900,3659A,119.656,29.1131,金华市,气象局,,14,14,14,3,3,26,,58,49,11,14,3,3,0.3,0.3
2025-07-21T1900,1767A,121.1115,41.0879,锦州市,南山,,35,35,23,23,15,104,,126,126,11,8,5,5,0.6,0.8
2025-07-21T1900,1768A,121.0604,40.8428,锦州市,开发区,颗粒物(PM10),52,53,29,28,16,126,,116,116,18,23,6,5,1.0,0.8
2025-07-21T1900,1769A,121.1836,41.1119,锦州市,百股街道,,35,22,22,7,9,109,,127,127,8,8,5,7,0.7,0.9
2025-07-21T1900,1770A,121.1178,41.1222,锦州市,天安街道,,36,26,21,25,16,104,,129,129,18,12,6,10,0.9,0.9
2025-07-21T1900,1771A,121.1303,41.1386,锦州市,北湖公园,,33,,24,20,14,104,,125,125,13,9,5,6,0.7,0.8
2025-07-21T1900,2160A,112.85,35.5051,晋城市,自来水公司,颗粒物(PM10),52,53,43,24,16,154,,139,139,14,17,4,5,0.8,1.1
2025-07-21T1900,2161A,112.8318,35.4936,晋城市,白云商贸,颗粒物(PM10),53,56,38,12,4,142,,130,130,11,14,6,5,0.9,1.1
2025-07-21T1900,2162A,112.8508,35.4887,晋城市,市环保局,颗粒物(PM10),53,56,43,27,13,132,,121,121,6,10,4,8,0.8,1.2
2025-07-21T1900,2163A,112.8676,35.4897,晋城市,技术学院,,,54,39,,11,132,,120,120,,16,5,5,0.9,1.2
2025-07-21T1900,2165A,112.8453,35.546,晋城市,白马寺,细颗粒物(PM2.5),53,40,25,37,21,151,,133,133,6,7,6,6,0.9,0.9
2025-07-21T1900,3620A,112.8271,35.4828,晋城市,泽州一中,,47,40,30,22,11,149,,136,136,9,11,3,8,1.0,1.2
2025-07-21T1900,2173A,112.7249,37.7067,晋中市,南都小区,,37,28,30,14,21,117,,127,127,2,7,2,4,0.5,0.6
2025-07-21T1900,2174A,112.6991,37.6982,晋中市,榆次区政府,,38,22,29,15,15,120,,132,132,5,16,7,8,0.4,0.6
2025-07-21T1900,2865A,112.7195,37.6828,晋中市,榆次三中,,38,19,24,9,15,119,,132,132,3,10,7,7,0.5,0.6
2025-07-21T1900,4200A,112.7478,37.6954,晋中市,迎宾街26号,,39,19,23,7,14,122,,136,136,3,10,8,8,0.5,0.5
2025-07-21T1900,2439A,112.2014,31.0481,荆门市,竹园小学,,37,31,34,18,22,116,,114,114,10,10,2,2,0.5,0.5
2025-07-21T1900,2440A,112.1969,30.9891,荆门市,掇刀,,39,13,45,6,27,124,,116,116,2,3,8,13,0.6,0.5
2025-07-21T1900,2441A,112.2213,31.0386,荆门市,石化一小,,45,45,39,30,27,123,,118,118,6,7,6,5,0.2,0.2
2025-07-21T1900,3012A,112.1849,31.0362,荆门市,西山林语,,40,40,30,18,21,122,,117,117,2,3,6,6,0.4,0.5
2025-07-21T1900,3547A,112.1632,31.0138,荆门市,龙泉中学南校,,39,,27,25,19,124,,116,116,9,8,3,4,0.6,0.6
2025-07-21T1900,1844A,112.2494,30.3197,荆州市,市图书馆,,39,19,21,10,16,122,,98,98,12,9,3,3,0.6,0.5
2025-07-21T1900,1845A,112.2008,30.3544,荆州市,市委党校,,37,33,25,11,20,118,,95,95,13,15,6,3,0.7,0.6
2025-07-21T1900,3194A,112.2747,30.3122,荆州市,管委会,,35,25,24,22,17,112,,86,86,8,8,7,8,0.9,0.8
2025-07-21T1900,4268A,112.1722,30.3366,荆州市,学苑路85号,,36,30,23,25,22,113,,92,92,3,9,4,4,0.5,0.4
2025-07-21T1900,2342A,117.3102,29.3867,景德镇市,王港中学,,,,,,,,,,,,,,,,
2025-07-21T1900,2343A,117.2117,29.2933,景德镇市,老干部活动中心,,21,21,10,3,2,62,,60,60,4,4,6,6,0.3,0.2
2025-07-21T1900,2344A,117.1894,29.2789,景德镇市,兽医站,,21,19,16,8,4,67,,64,64,3,3,4,4,0.4,0.5
2025-07-21T1900,2345A,117.1547,29.2617,景德镇市,台达陶瓷,,,,,,,,,,,,,,,,
2025-07-21T1900,2346A,117.2461,29.2956,景德镇市,陶研所,,20,15,10,3,4,63,,62,62,6,5,4,4,0.7,0.6
2025-07-21T1900,1803A,115.9872,29.6815,九江市,十里,,19,12,8,12,7,59,,93,92,5,6,4,5,0.6,0.5
2025-07-21T1900,1804A,115.9584,29.7046,九江市,茅山头,,25,25,12,16,6,57,,88,85,8,6,4,4,0.4,0.4
2025-07-21T1900,1805A,115.9877,29.7295,九江市,西园,,20,16,10,3,5,63,,97,93,12,17,5,7,0.5,0.6
2025-07-21T1900,1808A,115.9114,29.6038,九江市,综合工业园,,21,18,8,3,1,67,,84,84,8,7,6,6,0.4,0.4
2025-07-21T1900,1809A,116.0721,29.7535,九江市,石化总厂,,17,,12,10,10,53,,84,82,13,18,9,8,0.4,0.4
2025-07-21T1900,1810A,115.9773,29.5698,九江市,庐山气象台,,19,6,4,3,4,60,,62,62,3,2,6,7,0.9,0.9
2025-07-21T1900,3190A,116.0254,29.6994,九江市,外国语学校,,19,12,8,8,4,59,,91,90,5,6,8,8,0.7,0.7
2025-07-21T1900,4253A,116.0102,29.6594,九江市,莲花大道8号,,19,,6,7,4,59,,82,82,2,2,4,4,0.5,0.5
2025-07-21T1900,4240A,98.4958,39.7339,酒泉市,玉门东路5号,,46,36,33,23,21,147,,140,140,6,12,13,19,0.4,0.4
2025-07-21T1900,4241A,98.5099,39.7506,酒泉市,北大街108号,,50,41,28,13,16,158,,145,145,7,11,14,19,0.4,0.3
2025-07-21T1900,2698A,76.0072,39.4467,喀什地区,巡警大队,颗粒物(PM10),70,89,112,35,32,131,,115,115,11,13,5,4,0.5,0.4
2025-07-21T1900,2699A,75.9755,39.4694,喀什地区,吾办,颗粒物(PM10),78,105,120,50,52,126,,113,113,11,17,4,6,0.5,0.5
2025-07-21T1900,4027A,75.9483,39.4689,喀什地区,老干局,颗粒物(PM10),65,79,103,32,37,121,,110,107,6,10,4,5,0.1,0.2
2025-07-21T1900,1824A,114.3389,34.7781,开封市,肿瘤医院,颗粒物(PM10),51,51,37,25,23,140,,133,133,9,10,2,2,0.7,0.7
2025-07-21T1900,1826A,114.2885,34.7965,开封市,世纪星幼儿园,细颗粒物(PM2.5),57,48,38,40,31,136,,131,131,9,10,3,3,0.8,0.9
2025-07-21T1900,3147A,114.3438,34.8106,开封市,龙亭公园,细颗粒物(PM2.5),62,,42,44,25,131,,126,126,7,7,3,2,0.5,0.6
2025-07-21T1900,3210A,114.3644,34.7964,开封市,汴京公园,,49,49,43,34,32,135,,128,128,8,8,4,3,0.6,0.6
2025-07-21T1900,3473A,114.2485,34.8306,开封市,技师学院,,43,40,37,26,32,137,,132,132,7,8,3,3,1.0,1
2025-07-21T1900,3592A,114.4644,34.7556,开封市,祥符区生态环境局,,,,31,44,23,127,,121,121,,13,22,5,0.6,0.7
2025-07-21T1900,1951A,84.895,45.6094,克拉玛依市,长征新村,,32,27,22,11,12,100,,94,94,5,6,4,3,0.2,0.2
2025-07-21T1900,1952A,84.8988,45.5893,克拉玛依市,南林小区,,33,33,22,3,9,98,,94,94,4,4,1,1,0.1,0.1
2025-07-21T1900,1954A,84.905,44.3396,克拉玛依市,独山子区,颗粒物(PM10),53,56,54,17,17,129,,119,119,10,13,7,8,0.4,0.4
2025-07-21T1900,1955A,85.6979,46.098,克拉玛依市,乌尔禾区商贸楼,,31,21,26,7,11,98,,91,91,3,5,6,5,0.3,0.3
2025-07-21T1900,3612A,85.1045,45.6899,克拉玛依市,白碱滩区新站,,38,32,31,11,18,121,,107,107,4,4,9,9,0.2,0.3
2025-07-21T1900,2697A,76.1454,39.7142,克孜勒苏柯尔克孜自治州,市人民政府,颗粒物(PM10),72,93,100,46,49,120,,121,118,5,10,3,6,0.0,0
2025-07-21T1900,3665A,76.1658,39.7157,克孜勒苏柯尔克孜自治州,克州文化中心,颗粒物(PM10),159,268,114,48,56,119,,123,114,3,7,4,7,0.3,0.2
2025-07-21T1900,1450A,102.8204,24.8886,昆明市,呈贡新区,,25,12,15,9,15,77,,80,80,12,27,3,4,0.4,0.6
2025-07-21T1900,1451A,102.6251,24.9608,昆明市,西山森林公园,,,,,,,,,,,,,,,,
2025-07-21T1900,1452A,102.7252,25.0902,昆明市,龙泉镇,,23,13,21,8,9,71,,74,74,8,21,1,1,0.3,0.4
2025-07-21T1900,1453A,102.7266,25.0375,昆明市,东风东路,,23,14,20,10,13,72,,85,78,12,20,3,5,0.3,0.4
2025-07-21T1900,1454A,102.6742,25.0669,昆明市,金鼎山,,25,16,28,3,11,77,,78,78,3,17,1,1,0.2,0.4
2025-07-21T1900,1455A,102.6644,25.0401,昆明市,碧鸡广场,,23,8,27,3,15,72,,76,76,9,22,8,8,0.4,0.5
2025-07-21T1900,3179A,102.7494,25.0119,昆明市,官渡区博物馆,,22,9,20,7,11,69,,76,76,11,26,3,2,0.2,0.4
2025-07-21T1900,3375A,102.8017,24.8336,昆明市,青年创业园,,25,10,18,6,11,79,,82,82,7,22,3,3,0.6,0.7
2025-07-21T1900,3550A,102.7997,24.9786,昆明市,昆明学院,,24,10,21,3,13,76,,82,82,9,22,6,7,0.3,0.5
2025-07-21T1900,3551A,102.5967,24.6736,昆明市,晋宁区生态环境分局,,26,13,26,7,13,82,,97,97,9,14,2,2,0.3,0.5
2025-07-21T1900,3552A,102.6678,24.9856,昆明市,云天化总部,,23,8,20,3,12,71,,78,78,10,20,3,4,0.2,0.3
2025-07-21T1900,1456A,91.1319,29.6514,拉萨市,八廓街,,33,10,10,3,6,105,,116,116,10,11,6,5,0.3,0.3
2025-07-21T1900,1457A,91.1221,29.6747,拉萨市,市环保局,,33,8,9,7,7,104,,121,120,9,10,5,5,0.2,0.2
2025-07-21T1900,1458A,91.0874,29.6475,拉萨市,区监测站,,31,9,8,3,6,98,,106,106,13,13,3,3,0.2,0.2
2025-07-21T1900,1459A,91.1774,29.6541,拉萨市,西藏大学,,33,10,8,3,6,103,,116,116,12,13,7,6,0.2,0.2
2025-07-21T1900,1460A,90.9798,29.6588,拉萨市,区辐射站,,27,17,10,6,7,84,,102,101,18,14,4,4,0.3,0.3
2025-07-21T1900,1461A,91.0834,29.6292,拉萨市,拉萨火车站,,33,19,11,7,5,104,,109,109,7,13,5,4,0.3,0.3
2025-07-21T1900,2520A,109.2203,23.7256,来宾市,来宾技工学校,,17,14,20,9,11,54,,64,63,4,5,5,5,0.6,0.6
2025-07-21T1900,3535A,109.1781,23.7297,来宾市,兴宾区政府,,19,13,17,9,11,58,,68,68,5,3,5,6,0.5,0.5
2025-07-21T1900,4002A,109.2416,23.7461,来宾市,中南小学,,18,12,20,12,9,56,,66,66,6,6,6,6,0.4,0.5
2025-07-21T1900,1477A,104.1373,35.9454,兰州市,榆中兰大校区,,,,,,,,,,,,,,,,
2025-07-21T1900,1479A,103.831,36.0464,兰州市,铁路设计院,,39,32,44,20,22,124,,126,126,17,35,8,14,0.3,0.5
2025-07-21T1900,3241A,103.7439,36.0842,兰州市,百合公园,,35,17,33,8,17,111,,124,124,8,22,2,3,0.3,0.6
2025-07-21T1900,3242A,103.9611,35.998,兰州市,和平,,39,33,29,14,12,123,,124,124,8,12,9,9,0.3,0.3
2025-07-21T1900,4236A,103.6293,36.0938,兰州市,庄浪东路808号,,42,42,43,27,25,126,,159,159,19,28,10,15,0.4,0.4
2025-07-21T1900,4237A,103.7251,36.1043,兰州市,安宁西路88号,,44,34,42,15,17,139,,155,155,2,17,5,6,0.4,0.5
2025-07-21T1900,4238A,103.8470,36.0676,兰州市,北滨河东路1号,,39,35,39,20,22,124,,130,130,16,40,6,10,0.4,0.7
2025-07-21T1900,3245A,103.6633,36.533,兰州新区,新区管委会,,44,31,33,19,19,140,,143,143,6,15,2,6,0.3,0.4
2025-07-21T1900,3246A,103.6975,36.4789,兰州新区,舟曲中学,,44,21,36,8,15,139,,139,139,6,27,5,8,0.4,0.5
2025-07-21T1900,1067A,116.6708,39.5111,廊坊市,药材公司,,44,23,29,3,17,139,,137,137,5,8,2,3,0.2,0.3
2025-07-21T1900,1068A,116.7214,39.5589,廊坊市,开发区,,42,23,37,10,19,132,,137,137,8,12,1,1,0.3,0.3
2025-07-21T1900,1070A,116.7244,39.5269,廊坊市,北华航天学院,,43,31,42,3,20,136,,140,140,4,7,2,3,0.3,0.3
2025-07-21T1900,2919A,116.7022,39.5453,廊坊市,河北工业大学,,45,32,41,9,15,141,,137,137,6,10,3,4,0.3,0.3
2025-07-21T1900,2535A,103.7723,29.5462,乐山市,花湖湾,,40,15,15,11,11,125,,95,95,2,6,2,2,0.6,0.6
2025-07-21T1900,2536A,103.7627,29.5844,乐山市,牛耳桥,,48,20,15,9,9,151,,135,135,13,12,5,5,0.7,0.7
2025-07-21T1900,2537A,103.7508,29.6006,乐山市,市第三水厂,,49,21,16,10,10,154,,133,133,6,11,3,3,0.9,0.9
2025-07-21T1900,2538A,103.7571,29.5664,乐山市,市监测站,,45,13,16,10,10,141,,126,126,7,8,6,6,0.8,0.8
2025-07-21T1900,3361A,103.7311,29.5628,乐山市,理工大学,,46,12,14,8,10,147,,126,126,6,10,6,5,0.6,0.7
2025-07-21T1900,2598A,100.2143,26.8576,丽江市,西南郊,,,,,,,,,,,,,,,,
2025-07-21T1900,2599A,100.2497,26.8802,丽江市,丽江古城,,29,16,21,3,9,91,,96,95,8,11,10,9,0.4,0.5
2025-07-21T1900,2600A,100.2203,26.8906,丽江市,市中心,,30,19,12,8,10,93,,98,98,9,11,9,9,1.0,0.9
2025-07-21T1900,1267A,119.914,28.4514,丽水市,监测站大楼,,20,16,7,3,3,62,,53,53,9,8,3,3,0.3,0.2
2025-07-21T1900,1268A,119.93,28.4586,丽水市,莲都小学,,22,8,6,3,2,68,,57,57,5,6,3,3,0.2,0.2
2025-07-21T1900,1269A,119.879,28.4231,丽水市,余庄前,,15,10,10,3,0,45,,42,41,7,5,4,5,0.3,0.3
2025-07-21T1900,1173A,119.176,34.5885,连云港市,市环境监测站,,27,27,20,3,3,76,,85,85,7,7,2,2,0.1,0.1
2025-07-21T1900,3000A,119.3581,34.6972,连云港市,德源药业,,29,29,20,3,2,57,,60,60,13,11,4,3,0.6,0.6
2025-07-21T1900,3007A,119.178,34.844,连云港市,新城一中,,24,24,25,6,8,42,,57,54,11,10,4,4,0.6,0.6
2025-07-21T1900,3008A,119.3608,34.7519,连云港市,胡沟管理处,,22,22,19,3,6,56,,55,54,9,10,5,6,0.3,0.4
2025-07-21T1900,3009A,119.1478,34.5911,连云港市,矿山设计院,,27,27,19,9,5,70,,78,78,10,10,2,2,0.3,0.3
2025-07-21T1900,3434A,119.2413,34.6539,连云港市,工贸学校,,23,23,19,12,9,69,,81,81,1,2,5,5,0.6,0.6
2025-07-21T1900,3664A,119.4172,34.7341,连云港市,连云街道,,25,25,23,6,8,53,,60,58,8,6,2,2,0.5,0.5
2025-07-21T1900,2571A,102.3431,27.8099,凉山彝族自治州,青龙寺,,19,6,10,3,3,59,,96,94,3,4,6,6,0.6,0.6
2025-07-21T1900,2572A,102.2721,27.8415,凉山彝族自治州,邛海宾馆,,27,22,12,9,7,84,,108,108,2,10,6,7,0.3,0.4
2025-07-21T1900,2573A,102.2625,27.898,凉山彝族自治州,西昌市政府,,27,22,15,6,8,85,,103,103,4,7,4,6,0.4,0.4
2025-07-21T1900,2574A,102.2685,27.8851,凉山彝族自治州,凉山州政府,,27,18,14,11,7,84,,101,101,11,14,8,9,0.8,0.9
2025-07-21T1900,4229A,102.2342,27.8859,凉山彝族自治州,凯乐南路30号,,26,19,16,3,7,83,,102,102,10,9,7,7,0.4,0.5
2025-07-21T1900,2212A,123.2,41.1953,辽阳市,宏伟区,,37,27,31,8,15,116,,117,117,16,15,2,2,0.8,1
2025-07-21T1900,2213A,123.1683,41.2495,辽阳市,新华园,,36,17,33,8,19,114,,114,114,18,18,2,3,0.9,1
2025-07-21T1900,2214A,123.2354,41.2639,辽阳市,滨河路,,41,25,28,12,17,129,,128,128,15,17,6,4,0.8,0.9
2025-07-21T1900,2215A,123.149,41.2991,辽阳市,铁西工业园,,33,13,50,3,24,104,,98,98,10,16,3,3,1.0,1.6
2025-07-21T1900,2227A,125.1358,42.8845,辽源市,环保局,,37,23,19,15,7,118,,112,112,5,5,5,6,0.6,0.4
2025-07-21T1900,3239A,125.0764,42.9078,辽源市,银鹰制药,,38,10,12,9,6,120,,118,118,9,12,5,6,0.5,0.5
2025-07-21T1900,1625A,115.9848,36.4372,聊城市,区政府,,30,28,33,17,26,95,,108,108,16,11,5,5,0.8,0.9
2025-07-21T1900,2878A,116.0072,36.4343,聊城市,聊大东校,,31,22,38,16,31,98,,116,116,17,11,6,5,0.8,0.9
2025-07-21T1900,3200A,115.9819,36.4978,聊城市,监控中心,,32,16,23,12,20,100,,106,106,14,11,6,5,0.4,0.6
2025-07-21T1900,3513A,116.0445,36.4361,聊城市,九州社区,,29,19,45,13,24,90,,107,107,13,13,3,3,0.3,0.5
2025-07-21T1900,4018A,116.0567,36.4608,聊城市,星美广场,,28,28,45,13,25,82,,101,101,16,12,4,4,0.5,0.7
2025-07-21T1900,2632A,94.3681,29.6376,林芝市,林芝监测站,,23,14,8,6,5,73,,76,76,3,4,6,5,0.5,0.5
2025-07-21T1900,2633A,94.3616,29.6616,林芝市,林芝人民医院,,24,8,10,3,5,74,,75,75,2,3,2,2,0.2,0.3
2025-07-21T1900,2603A,100.0781,23.8982,临沧市,市环保局,,36,31,17,25,16,72,,93,93,11,7,11,9,0.5,0.4
2025-07-21T1900,2604A,100.0894,23.8822,临沧市,市气象局,,22,16,15,10,9,70,,82,81,7,7,10,8,0.5,0.5
2025-07-21T1900,1733A,111.5531,36.0783,临汾市,临钢医院,颗粒物(PM10),68,85,46,38,16,137,,152,152,15,16,7,5,1.7,1.1
2025-07-21T1900,1734A,111.5028,36.0714,临汾市,技工学校,细颗粒物(PM2.5),79,79,43,58,33,147,,161,161,13,14,9,7,1.4,1.1
2025-07-21T1900,1736A,111.5018,36.0855,临汾市,市委,颗粒物(PM10),70,89,62,37,20,156,,172,172,13,13,9,7,1.7,1.3
2025-07-21T1900,3018A,111.505,36.1014,临汾市,唐尧大酒店,颗粒物(PM10),70,89,60,40,20,146,,161,161,12,15,6,5,1.5,1.1
2025-07-21T1900,4244A,111.4879,36.0530,临汾市,启星学校,细颗粒物(PM2.5),83,69,42,61,35,135,,156,156,15,14,8,6,1.4,1
2025-07-21T1900,4271A,103.2464,35.6123,临夏回族自治州,滨河东路1号,,26,24,40,8,15,81,,84,84,9,16,5,4,0.2,0.3
2025-07-21T1900,4310A,103.2093,35.5995,临夏回族自治州,新华街21号,,28,16,32,7,17,89,,92,92,8,14,6,5,0.2,0.3
2025-07-21T1900,1618A,118.3429,35.0532,临沂市,沂河小区,,27,27,26,12,12,71,,80,80,6,10,6,7,0.2,0.2
2025-07-21T1900,1619A,118.295,35.0583,临沂市,鲁南制药厂,,27,27,21,12,12,73,,83,83,6,7,8,8,0.3,0.3
2025-07-21T1900,1620A,118.2794,34.9976,临沂市,新光毛纺厂,,24,,15,11,11,76,,86,86,8,9,6,6,0.4,0.4
2025-07-21T1900,1621A,118.3956,35.0888,临沂市,河东保险公司,,21,14,20,3,4,66,,76,76,8,11,5,5,0.3,0.3
2025-07-21T1900,3370A,118.3564,35.0215,临沂市,十里堡居委,,24,24,18,7,8,75,,85,85,7,11,9,9,0.4,0.4
2025-07-21T1900,3496A,118.3604,35.1084,临沂市,南坊新区,,22,22,26,3,3,65,,74,74,6,9,8,9,0.3,0.3
2025-07-21T1900,3860A,118.3920,35.0300,临沂市,皇山花园小区,,24,24,22,10,12,72,,,,7,6,9,9,0.4,0.3
2025-07-21T1900,1870A,109.4856,24.3895,柳州市,柳东小学,,25,23,18,13,10,78,,74,74,3,3,4,4,0.6,0.6
2025-07-21T1900,1871A,109.4157,24.3277,柳州市,环保监测站,,30,,18,21,12,66,,70,70,8,5,9,8,0.5,0.4
2025-07-21T1900,1872A,109.389,24.341,柳州市,河西水厂,,23,21,22,12,12,72,,73,73,8,11,5,7,0.4,0.7
2025-07-21T1900,1873A,109.4311,24.2921,柳州市,市四中,,,21,20,,22,53,,69,68,18,9,7,7,0.6,0.5
2025-07-21T1900,1874A,109.4006,24.3631,柳州市,市九中,,26,26,23,10,12,72,,70,70,6,7,3,4,0.3,0.3
2025-07-21T1900,1875A,109.4958,24.3134,柳州市,古亭山,,22,22,19,9,10,46,,66,64,9,4,5,5,0.5,0.5
2025-07-21T1900,3402A,109.5422,24.3996,柳州市,市二中,,26,16,18,12,9,81,,79,79,7,6,5,4,0.6,0.6
2025-07-21T1900,2307A,116.5079,31.737,六安市,监测大楼,,31,21,16,8,9,97,,86,86,2,3,7,6,0.4,0.4
2025-07-21T1900,2308A,116.4738,31.7643,六安市,皖西学院,,30,17,20,8,8,96,,83,83,6,6,2,2,0.2,0.2
2025-07-21T1900,2309A,116.4996,31.7905,六安市,朝阳厂,,29,18,17,8,8,92,,82,82,8,8,6,6,0.3,0.3
2025-07-21T1900,2310A,116.5567,31.7886,六安市,开发区,,31,15,10,3,10,99,,85,85,2,4,4,4,0.2,0.2
2025-07-21T1900,2576A,104.8,26.5892,六盘水市,窑上,,20,11,25,3,3,64,,78,68,5,5,5,6,0.3,0.3
2025-07-21T1900,2577A,104.83,26.5917,六盘水市,黄土坡,,20,9,7,3,6,63,,88,68,10,7,9,10,0.3,0.3
2025-07-21T1900,2578A,104.89,26.5939,六盘水市,水钢,,20,11,12,3,5,62,,88,60,11,11,5,7,0.2,0.3
2025-07-21T1900,2579A,104.8475,26.5894,六盘水市,民中,,22,6,9,3,2,70,,91,67,6,7,8,8,0.4,0.4
2025-07-21T1900,2580A,104.9544,26.5506,六盘水市,双水,,17,6,9,3,5,52,,80,56,22,12,10,10,0.4,0.4
2025-07-21T1900,2335A,117.0189,25.1181,龙岩市,龙岩师专,,,,,,,,,,,,,,,,
2025-07-21T1900,2336A,117.0217,25.1033,龙岩市,龙岩市监测站,,14,8,10,6,7,42,,49,48,12,10,4,5,0.5,0.5
2025-07-21T1900,2337A,117.0258,25.0661,龙岩市,闽西职业技术学院,,11,10,12,7,8,35,,43,41,13,10,4,4,0.5,0.5
2025-07-21T1900,2338A,117.0196,25.0306,龙岩市,龙岩学院,,10,8,14,3,6,32,,39,38,14,14,3,2,0.3,0.4
2025-07-21T1900,2665A,105.0822,33.3261,陇南市,汉王镇固水子,,,,,,,,,,,,,,,,
2025-07-21T1900,2885A,104.9339,33.3826,陇南市,滨江中学,,,30,30,7,11,88,,81,81,8,5,,6,0.4,0.4
2025-07-21T1900,3247A,104.955,33.371,陇南市,市总工会,,31,31,35,9,11,97,,89,89,3,4,4,5,0.4,0.4
2025-07-21T1900,2487A,111.9589,27.8901,娄底市,电视发射台,,21,16,23,3,5,66,,75,75,5,5,7,6,0.4,0.4
2025-07-21T1900,2488A,111.9975,27.725,娄底市,市监测站,,19,16,16,9,9,58,,68,68,7,8,3,5,0.5,0.5
2025-07-21T1900,2489A,112.0194,27.7314,娄底市,市委党校,,21,19,12,7,8,67,,64,,10,7,4,4,0.9,0.8
2025-07-21T1900,2490A,111.9561,27.7569,娄底市,涟钢,,22,8,18,7,10,48,,62,62,17,16,14,13,2.2,1.6
2025-07-21T1900,2491A,111.9892,27.7044,娄底市,市政府,,21,6,16,3,6,66,,74,74,3,4,4,5,1.0,1
2025-07-21T1900,1893A,105.4324,28.9634,泸州市,九狮山,,32,27,21,22,21,81,,95,95,13,8,3,3,0.3,0.4
2025-07-21T1900,1894A,105.4427,28.9063,泸州市,小市上码头,,24,24,18,8,8,64,,74,74,10,7,2,2,0.4,0.3
2025-07-21T1900,1895A,105.4241,28.8573,泸州市,兰田宪桥,,25,11,20,10,7,77,,87,87,6,7,7,8,0.3,0.3
2025-07-21T1900,1896A,105.4379,28.8833,泸州市,市环监站,,26,17,18,12,12,82,,87,87,14,11,6,6,0.4,0.4
2025-07-21T1900,4272A,105.3689,28.7783,泸州市,纳溪中医医院,,26,26,20,16,15,74,,87,87,11,14,4,4,0.6,0.7
2025-07-21T1900,2183A,111.1406,37.5211,吕梁市,环保局,,,48,38,38,18,,,178,178,14,23,3,3,0.5,0.5
2025-07-21T1900,2185A,111.1297,37.5136,吕梁市,自来水公司,,49,32,40,30,14,154,,174,174,9,16,3,3,0.5,0.5
2025-07-21T1900,2867A,111.1283,37.51,吕梁市,马茂庄小学,,46,32,36,25,15,146,,42,,13,24,5,4,0.6,0.6
2025-07-21T1900,1812A,112.3931,34.6516,洛阳市,市委党校,,49,27,28,15,16,155,,149,149,9,12,7,10,0.6,0.6
2025-07-21T1900,1815A,112.494,34.6886,洛阳市,河南林校,,50,33,36,18,18,157,,151,151,10,14,7,9,0.9,1
2025-07-21T1900,1816A,112.3844,34.623,洛阳市,开发区管委会,,,,24,,17,155,,148,148,6,8,,3,,0.7
2025-07-21T1900,1817A,112.4267,34.6258,洛阳市,市委新办公区,,45,27,26,19,22,144,,140,140,10,11,7,9,0.6,0.7
2025-07-21T1900,3340A,112.6005,34.6326,洛阳市,伊滨,,46,21,21,14,16,145,,141,141,9,12,5,6,0.9,0.9
2025-07-21T1900,3341A,112.4951,34.6332,洛阳市,中移产业园,,46,26,30,16,18,145,,140,140,7,10,6,8,0.7,0.8
2025-07-21T1900,3593A,112.5736,34.8993,洛阳市,吉利监测站,,47,46,40,22,23,149,,147,147,8,8,8,8,0.7,0.8
2025-07-21T1900,3635A,112.3677,34.662,洛阳市,河科大西苑校区,,48,30,28,10,13,152,,143,143,5,8,7,8,0.5,0.6
2025-07-21T1900,3636A,112.4388,34.6781,洛阳市,英才小学,,45,34,33,19,22,141,,134,134,6,10,7,10,0.6,0.7
2025-07-21T1900,4214A,112.4600,34.6949,洛阳市,春都路1号院,,47,27,31,11,14,149,,142,142,8,12,7,9,0.7,0.8
2025-07-21T1900,2399A,114.051,33.5699,漯河市,三五一五工厂,,39,31,27,21,17,122,,112,112,6,6,4,5,0.6,0.7
2025-07-21T1900,2400A,114.0055,33.5698,漯河市,漯河大学,,46,46,50,17,16,128,,119,119,10,8,4,4,0.5,0.6
2025-07-21T1900,2401A,114.0138,33.5828,漯河市,市水利局,,36,36,32,22,18,112,,104,104,7,8,3,4,0.6,0.6
2025-07-21T1900,2402A,114.0261,33.5698,漯河市,市广电局,,42,29,26,22,26,134,,123,123,4,5,2,2,0.5,0.5
2025-07-21T1900,3478A,113.9749,33.5664,漯河市,市图书馆,,,29,26,25,20,124,,115,115,6,6,6,5,,0.6
2025-07-21T1900,4250A,114.0892,33.5882,漯河市,韶山路11号,,36,33,32,23,16,114,,108,108,8,9,2,2,0.6,0.6
2025-07-21T1900,1798A,118.5092,31.6837,马鞍山市,湖东路四小,,30,30,25,8,9,89,,87,87,7,8,7,7,0.3,0.3
2025-07-21T1900,1799A,118.5024,31.6449,马鞍山市,开发区,,37,37,29,7,8,95,,92,92,6,8,7,7,0.4,0.4
2025-07-21T1900,1802A,118.6245,31.7241,马鞍山市,濮塘,,30,26,20,9,7,95,,86,86,4,5,6,7,0.4,0.5
2025-07-21T1900,3633A,118.4918,31.6809,马鞍山市,雨山,,,26,22,8,9,86,,85,85,,10,,6,0.4,0.4
2025-07-21T1900,4191A,118.5274,31.72227,马鞍山市,慈湖高新区,,28,25,24,9,9,89,,86,86,10,9,7,8,0.3,0.3
2025-07-21T1900,1686A,111.0286,21.4688,茂名市,电白南海,,34,34,21,9,13,61,,63,61,5,4,2,2,0.3,0.3
2025-07-21T1900,1687A,110.9294,21.6533,茂名市,茂石化七小,,15,14,12,7,6,47,,54,51,6,5,3,3,0.3,0.3
2025-07-21T1900,1688A,110.9107,21.6687,茂名市,健康路,,17,14,11,3,8,52,,58,56,8,8,3,4,0.4,0.4
2025-07-21T1900,1689A,110.8592,21.6828,茂名市,高岭,,19,19,15,3,3,53,,58,57,8,7,8,7,0.3,0.3
2025-07-21T1900,3450A,111.01,21.5165,茂名市,电白水东,,19,14,12,3,8,60,,64,62,12,12,5,5,0.4,0.4
2025-07-21T1900,2539A,104.0308,30.0478,眉山市,黑龙滩水库,,34,22,24,3,6,108,,,,8,10,2,2,0.5,0.5
2025-07-21T1900,2540A,103.8416,30.0874,眉山市,气象局,,49,25,25,3,8,155,,148,148,9,14,1,2,0.4,0.5
2025-07-21T1900,3137A,103.8578,30.0744,眉山市,市委党校,,47,12,16,3,7,150,,141,141,8,15,6,7,0.4,0.5
2025-07-21T1900,3148A,103.8291,30.0564,眉山市,区人社局,臭氧1小时,65,41,34,3,3,172,,150,150,15,18,9,10,0.6,0.5
2025-07-21T1900,1690A,116.1231,24.3284,梅州市,梅江月梅,,16,,10,3,6,51,,50,50,2,2,6,11,0.6,0.7
2025-07-21T1900,1691A,116.0797,24.2719,梅州市,梅县新城,,12,11,9,6,7,37,,48,47,10,7,6,6,0.6,0.5
2025-07-21T1900,1692A,116.1248,24.2654,梅州市,环境监控中心,,13,8,7,7,5,41,,46,45,7,7,3,6,0.4,0.3
2025-07-21T1900,3315A,116.1233,24.2991,梅州市,梅龙,,14,9,8,7,6,44,,45,45,2,2,6,6,0.6,0.5
2025-07-21T1900,1878A,104.7778,31.4741,绵阳市,富乐山,,35,25,18,14,11,110,,112,112,4,8,8,8,0.3,0.3
2025-07-21T1900,1880A,104.6697,31.4668,绵阳市,高新区自来水公司,,33,20,20,7,5,104,,108,108,5,12,9,9,0.4,0.4
2025-07-21T1900,1881A,104.7287,31.5075,绵阳市,三水厂,,35,15,21,6,10,111,,113,113,6,15,6,6,0.3,0.3
2025-07-21T1900,3491A,104.69,31.5322,绵阳市,西科大附属小学,,36,22,24,12,9,114,,115,115,6,16,8,8,0.6,0.6
2025-07-21T1900,3492A,104.5648,31.5343,绵阳市,安州区旅游局,,35,9,16,3,5,112,,112,112,6,10,8,5,0.2,0.1
2025-07-21T1900,4226A,104.7651,31.4531,绵阳市,绵阳市气象局,,33,17,18,9,8,103,,110,110,13,10,5,7,0.4,0.4
2025-07-21T1900,1784A,129.61,44.561,牡丹江市,环保大楼,,30,,19,16,17,96,,98,98,11,13,2,2,0.4,0.4
2025-07-21T1900,1785A,129.6115,44.5782,牡丹江市,文化广场,,29,21,17,14,20,91,,97,96,14,14,6,5,0.6,0.5
2025-07-21T1900,1786A,129.5904,44.5963,牡丹江市,第一医院,,32,27,22,22,19,99,,104,104,13,14,6,5,0.3,0.3
2025-07-21T1900,1787A,129.6364,44.6075,牡丹江市,机车工厂,,31,19,17,6,13,97,,99,99,10,15,5,5,0.5,0.5
2025-07-21T1900,1788A,129.6386,44.5462,牡丹江市,第一中学,,30,16,21,8,14,96,,93,93,10,13,6,6,0.5,0.5
2025-07-21T1900,2531A,105.0703,29.61,内江市,市监测站,,35,23,15,12,10,112,,112,112,10,10,8,5,0.8,0.7
2025-07-21T1900,2532A,105.0717,29.5947,内江市,东兴区政府,,33,15,13,8,3,105,,105,105,10,10,6,6,0.6,0.5
2025-07-21T1900,2533A,105.0653,29.5817,内江市,内江二中,,34,,20,16,11,106,,104,104,10,12,4,4,0.5,0.5
2025-07-21T1900,2534A,105.0406,29.5822,内江市,内江日报社,,31,16,15,14,10,99,,98,98,10,12,5,5,0.4,0.5
2025-07-21T1900,2628A,92.0657,31.4846,那曲市,那曲监测站,,35,30,25,24,23,108,,111,111,13,12,19,14,0.4,0.4
2025-07-21T1900,4243A,92.0515,31.4787,那曲市,那曲市委宣传部,,39,15,14,11,8,122,,124,124,6,7,6,6,0.3,0.3
2025-07-21T1900,1290A,115.8931,28.6843,南昌市,省外办,,13,,10,7,7,41,,55,53,4,6,5,5,0.4,0.4
2025-07-21T1900,1291A,115.8886,28.7003,南昌市,省林业公司,,15,6,7,3,1,47,,57,57,6,7,10,11,0.4,0.4
2025-07-21T1900,1292A,115.8126,28.7442,南昌市,林科所,,14,6,8,3,2,42,,59,56,7,8,5,6,0.2,0.2
2025-07-21T1900,1294A,115.8518,28.687,南昌市,建工学校,,15,,15,8,6,47,,61,60,9,9,7,12,0.4,0.4
2025-07-21T1900,1295A,115.8921,28.6424,南昌市,象湖,,14,9,6,3,0,43,,58,56,9,5,11,6,1.1,0.4
2025-07-21T1900,1296A,115.7423,28.7996,南昌市,武术学校,,16,16,14,6,7,49,,65,63,3,4,17,19,0.4,0.5
2025-07-21T1900,3046A,115.9084,28.6062,南昌市,机电学校,,,12,17,3,3,42,,61,58,10,10,4,5,,0.9
2025-07-21T1900,3690A,115.9721,28.7031,南昌市,外国语学校,,15,7,10,3,4,46,,61,59,4,3,10,10,0.2,0.2
2025-07-21T1900,4192A,115.9316,28.68677,南昌市,南京东路235号,,17,12,13,3,1,53,,59,59,8,6,2,3,0.6,0.5
2025-07-21T1900,1905A,106.056,30.8064,南充市,西山风景区,,,,,,,,,,,,,,,,
2025-07-21T1900,1906A,106.0789,30.8023,南充市,南充市委,,36,32,21,21,12,114,,112,112,7,9,4,4,0.4,0.4
2025-07-21T1900,1907A,106.1031,30.8217,南充市,南充炼油厂,,32,28,20,16,10,102,,97,97,7,9,4,5,0.3,0.3
2025-07-21T1900,4227A,106.1083,30.7884,南充市,梨树横街98号,,33,30,23,17,9,105,,101,101,9,8,3,3,0.3,0.4
2025-07-21T1900,4304A,106.1172,30.843,南充市,清泉寺北路188号,,40,,21,28,14,118,,107,107,4,8,2,2,0.3,0.2
2025-07-21T1900,4305A,106.067,30.7616,南充市,同庆路1号,,,37,21,17,10,111,,107,107,9,10,2,2,,0.3
2025-07-21T1900,1151A,118.8086,32.1065,南京市,迈皋桥,,26,13,12,9,6,81,,77,77,2,4,4,4,0.2,0.2
2025-07-21T1900,1152A,118.7538,32.0551,南京市,草场门,,27,27,18,3,7,77,,71,71,6,7,8,8,0.4,0.4
2025-07-21T1900,1153A,118.7794,32.0745,南京市,山西路,,26,19,17,3,1,81,,75,75,12,7,4,4,0.3,0.3
2025-07-21T1900,1154A,118.7752,32.0023,南京市,中华门,,22,19,14,3,4,68,,64,64,5,3,8,8,0.4,0.5
2025-07-21T1900,1155A,118.8109,32.0309,南京市,瑞金路,,25,12,11,3,5,77,,72,72,2,3,7,6,0.4,0.4
2025-07-21T1900,1156A,118.7997,32.0754,南京市,玄武湖,,24,15,19,3,1,74,,69,69,10,9,11,10,0.3,0.3
2025-07-21T1900,1157A,118.6414,32.0931,南京市,浦口,,25,23,19,3,4,77,,73,73,7,8,4,4,0.4,0.4
2025-07-21T1900,1158A,118.7356,31.9996,南京市,奥体中心,,26,21,18,7,7,81,,76,76,6,6,5,4,0.2,0.2
2025-07-21T1900,1159A,118.9125,32.1028,南京市,仙林大学城,,25,17,21,3,1,79,,76,76,2,3,6,7,0.4,0.4
2025-07-21T1900,3422A,118.8436,31.9198,南京市,江宁彩虹桥,,25,19,20,7,5,79,,75,75,2,2,4,4,0.5,0.4
2025-07-21T1900,3427A,118.8554,32.3578,南京市,六合雄州,,27,22,20,3,3,86,,76,76,14,16,4,5,0.1,0.1
2025-07-21T1900,4249A,118.8708,31.3402,南京市,汶溪路181号,,29,16,16,13,9,91,,89,89,9,10,4,5,0.4,0.4
2025-07-21T1900,4312A,119.019,31.6512,南京市,中山西路1号,,24,14,13,9,9,74,,73,73,7,7,4,4,0.4,0.5
2025-07-21T1900,1401A,108.3103,22.7881,南宁市,二十一中,,35,35,22,8,13,48,,47,47,7,8,4,5,0.6,0.6
2025-07-21T1900,1402A,108.3141,22.8528,南宁市,北湖,,24,24,23,9,16,56,,54,54,11,11,3,6,0.5,0.5
2025-07-21T1900,1403A,108.3206,22.8225,南宁市,市监测站,,18,17,24,11,19,55,,50,50,12,12,7,9,0.4,0.4
2025-07-21T1900,1404A,108.3829,22.8037,南宁市,大自然花园,,19,14,21,9,15,58,,57,57,7,8,4,5,0.2,0.2
2025-07-21T1900,1405A,108.4394,22.7904,南宁市,仙葫,,23,23,20,8,14,54,,59,59,6,8,3,4,0.5,0.6
2025-07-21T1900,1406A,108.2397,22.8467,南宁市,区农职院,,34,34,21,7,12,53,,54,54,13,8,4,4,0.5,0.6
2025-07-21T1900,1407A,108.3275,22.735,南宁市,英华嘉园,,20,18,23,8,14,62,,62,62,6,11,3,2,0.3,0.4
2025-07-21T1900,3401A,108.4834,22.7618,南宁市,红星社区,,18,10,19,3,14,56,,63,63,4,4,1,2,0.4,0.4
2025-07-21T1900,4221A,108.2177,22.7774,南宁市,乐贤路16号,,20,20,26,13,23,61,,56,56,11,10,2,4,0.6,0.6
2025-07-21T1900,2331A,118.0966,26.6761,南平市,茫荡山,,,,,,,,,,,,,,,,
2025-07-21T1900,2332A,118.1681,26.6369,南平市,南平市监测站,,17,6,7,3,4,53,,55,55,3,5,4,4,0.4,0.4
2025-07-21T1900,2333A,118.1825,26.6489,南平市,南平铝业有限公司,,18,9,9,3,1,55,,55,55,5,8,4,4,0.4,0.5
2025-07-21T1900,2334A,118.1756,26.6272,南平市,南平七中,,18,6,10,3,5,57,,55,55,2,4,2,3,0.4,0.4
2025-07-21T1900,1168A,120.9098,31.9663,南通市,狼山街道,,18,18,18,8,4,40,,61,61,7,7,3,3,0.5,0.5
2025-07-21T1900,1169A,120.86,32.0005,南通市,虹桥,,15,13,12,8,6,47,,68,68,10,10,2,2,0.8,0.8
2025-07-21T1900,1170A,120.87,32.02,南通市,城中,,24,24,21,3,5,38,,56,56,8,7,4,4,0.5,0.5
2025-07-21T1900,1171A,120.94,31.93,南通市,星湖花园,,13,13,13,3,3,40,,61,60,11,11,2,2,0.4,0.4
2025-07-21T1900,1172A,120.81,32.0417,南通市,紫琅学院,,13,13,15,3,1,40,,57,56,9,9,5,5,0.7,0.7
2025-07-21T1900,3291A,121.067,32.062,南通市,通州监测站,,14,12,11,3,2,43,,52,52,3,5,1,2,0.5,0.6
2025-07-21T1900,3432A,120.9348,31.9883,南通市,环境教育馆,,22,22,21,3,2,49,,68,68,7,6,3,3,0.2,0.2
2025-07-21T1900,2404A,112.5224,33.0122,南阳市,瓦房庄,,36,34,38,14,17,113,,126,123,6,7,8,8,0.5,0.6
2025-07-21T1900,2405A,112.5003,32.9735,南阳市,汉画馆,,35,31,36,11,11,111,,123,120,6,9,6,8,0.3,0.4
2025-07-21T1900,2406A,112.5573,33.027,南阳市,气象站,,38,37,32,14,18,119,,129,127,4,7,7,8,0.5,0.6
2025-07-21T1900,2407A,112.5481,32.9689,南阳市,理工学院,,,36,34,11,11,114,,124,122,,7,,8,0.5,0.6
2025-07-21T1900,4008A,112.5234,32.9922,南阳市,卧龙区政府,,35,22,30,18,17,109,,122,119,8,10,5,6,0.6,0.7
2025-07-21T1900,1234A,121.8358,29.911,宁波市,区环保大楼,,22,22,21,7,6,14,,29,25,11,7,3,3,0.4,0.4
2025-07-21T1900,1235A,121.56,29.82,宁波市,万里学院,,16,16,16,8,7,22,,34,31,5,3,4,4,0.4,0.3
2025-07-21T1900,1236A,121.713,29.9572,宁波市,龙赛医院,,22,22,17,6,8,17,,30,27,6,3,4,4,0.2,0.2
2025-07-21T1900,1239A,121.633,29.7733,宁波市,钱湖水厂,,16,16,16,3,5,25,,34,32,3,2,4,6,0.3,0.3
2025-07-21T1900,1240A,121.5856,29.8635,宁波市,太古小学,,14,14,16,3,4,21,,32,29,3,2,2,6,0.2,0.2
2025-07-21T1900,1241A,121.524,29.8674,宁波市,市环境监测中心,,19,19,15,3,4,15,,28,25,11,7,4,4,0.4,0.4
2025-07-21T1900,2871A,121.6147,29.9017,宁波市,万里国际学校,,13,13,12,6,4,18,,33,29,6,3,3,3,0.4,0.4
2025-07-21T1900,3710A,121.5594,29.8975,宁波市,白沙活动中心,,16,16,13,6,3,20,,34,31,6,3,4,4,0.3,0.3
2025-07-21T1900,2339A,119.5001,26.6946,宁德市,金涵水库,,,,,,,,,,,,,,,,
2025-07-21T1900,2341A,119.5388,26.6612,宁德市,宁德市监测站,,14,,11,3,3,43,,58,55,13,10,6,6,0.7,0.4
2025-07-21T1900,3209A,119.5231,26.6562,宁德市,宁德一中,,15,6,9,3,5,45,,63,60,11,6,4,4,0.5,0.3
2025-07-21T1900,2618A,98.8601,25.8567,怒江傈僳族自治州,州监测站,,26,19,20,14,12,82,,84,84,7,7,10,7,0.4,0.4
2025-07-21T1900,2619A,98.8546,25.8417,怒江傈僳族自治州,泸水一中,,44,44,21,8,10,63,,68,68,10,10,6,6,0.5,0.4
2025-07-21T1900,1888A,101.6891,26.571,攀枝花市,弄弄坪,,40,32,32,18,14,126,,120,120,12,15,13,14,0.8,1.1
2025-07-21T1900,1889A,101.5769,26.5928,攀枝花市,河门口,,39,25,28,10,12,124,,112,112,16,10,8,6,1.0,0.9
2025-07-21T1900,1890A,101.7169,26.585,攀枝花市,炳草岗,,41,38,31,13,15,131,,124,124,14,20,12,13,0.7,1.3
2025-07-21T1900,1891A,101.7369,26.5008,攀枝花市,仁和,,38,28,29,14,15,121,,131,131,11,16,14,17,0.6,1.5
2025-07-21T1900,2835A,101.7227,26.567,攀枝花市,四十中小,,45,28,28,14,15,142,,133,133,10,23,15,23,1.0,2
2025-07-21T1900,1604A,122.0303,41.1489,盘锦市,开发区,,38,12,15,11,14,121,,116,116,8,10,9,9,0.4,0.7
2025-07-21T1900,1605A,122.0485,41.0883,盘锦市,兴隆台,,41,15,14,8,10,129,,122,122,7,9,6,6,0.6,0.5
2025-07-21T1900,1606A,121.8297,41.1028,盘锦市,新生街道,,42,22,15,9,13,134,,127,127,8,10,4,4,0.5,0.5
2025-07-21T1900,1832A,113.3257,33.742,平顶山市,新华旅馆,,42,37,33,23,24,132,,120,120,15,11,2,3,0.5,0.5
2025-07-21T1900,1833A,113.2919,33.737,平顶山市,规划设计院,,41,36,34,24,23,131,,119,119,10,9,6,6,0.7,0.7
2025-07-21T1900,1834A,113.182,33.774,平顶山市,平顶山工学院,,45,33,32,22,21,144,,138,138,10,10,5,6,0.7,0.7
2025-07-21T1900,3204A,113.3025,33.73,平顶山市,规划局,,44,41,32,16,18,140,,128,128,9,8,3,4,0.7,0.6
2025-07-21T1900,3594A,112.8867,33.9116,平顶山市,石龙区,,48,38,32,24,20,151,,159,159,9,10,7,9,0.6,0.6
2025-07-21T1900,2656A,106.6692,35.5461,平凉市,聚贤嘉苑,,38,17,31,7,9,120,,120,120,6,19,19,13,0.6,0.7
2025-07-21T1900,2657A,106.7021,35.5307,平凉市,博物馆,,38,26,34,10,12,121,,121,121,4,16,10,10,0.7,0.8
2025-07-21T1900,2347A,114.0997,27.5002,萍乡市,武功山,,15,6,3,3,4,46,,58,58,3,3,7,12,0.3,0.4
2025-07-21T1900,2348A,113.8385,27.6434,萍乡市,中医院,,24,24,18,15,11,68,,76,76,10,10,11,13,0.7,0.7
2025-07-21T1900,2349A,113.8493,27.6253,萍乡市,市政府车库,,23,17,19,16,11,66,,73,73,8,12,10,16,0.6,1.7
2025-07-21T1900,2350A,113.8676,27.6435,萍乡市,市环保局,,25,22,18,3,10,78,,82,82,5,6,7,9,0.6,0.6
2025-07-21T1900,2351A,113.866,27.6198,萍乡市,安源区政府,,22,16,23,14,11,70,,74,74,7,9,9,9,0.6,1
2025-07-21T1900,2319A,119.0141,25.4325,莆田市,荔城区仓后路,,11,8,15,3,4,34,,44,44,12,9,4,4,0.7,0.6
2025-07-21T1900,2320A,119.0015,25.4553,莆田市,莆田市监测站,,29,22,16,20,3,36,,47,46,14,9,4,4,0.5,0.4
2025-07-21T1900,2321A,119.1119,25.4561,莆田市,涵江区六中,,13,9,15,3,6,40,,49,47,11,10,3,3,0.4,0.3
2025-07-21T1900,2322A,119.1013,25.3215,莆田市,秀屿区政府,,15,15,17,3,4,43,,49,49,5,6,3,3,0.4,0.4
2025-07-21T1900,2323A,118.981,25.4792,莆田市,东圳水库,,,,,,,,,,,,,,,,
2025-07-21T1900,2392A,115.0312,35.7636,濮阳市,环保局,细颗粒物(PM2.5),62,45,30,44,33,140,,126,126,12,12,3,4,0.7,0.6
2025-07-21T1900,2394A,115.0574,35.7609,濮阳市,油田运输公司,细颗粒物(PM2.5),70,67,53,51,33,131,,117,117,9,9,1,2,0.8,0.8
2025-07-21T1900,3021A,115,35.7668,濮阳市,濮水河管理处,细颗粒物(PM2.5),74,63,46,54,36,133,,109,109,8,9,3,3,0.5,0.5
2025-07-21T1900,4216A,115.0924,35.7686,濮阳市,任丘路479号,细颗粒物(PM2.5),82,78,62,60,42,118,,112,112,10,10,4,5,0.6,0.5
2025-07-21T1900,2601A,100.98,22.7633,普洱市,市环保局,,42,36,31,29,15,75,,78,78,9,10,5,5,0.6,0.6
2025-07-21T1900,2602A,100.9817,22.8322,普洱市,普洱第二中学,,24,24,29,16,12,72,,80,80,6,11,5,6,0.5,0.5
2025-07-21T1900,2262A,131.0518,45.8751,七台河市,新一中,,39,39,16,17,10,84,,101,96,16,16,10,10,0.8,0.9
2025-07-21T1900,3345A,131.0577,45.7879,七台河市,中波台,,36,36,19,6,9,65,,76,70,12,11,7,7,0.5,0.1
2025-07-21T1900,3637A,131.0176,45.7761,七台河市,人民广场,,22,18,16,12,10,70,,82,73,12,9,11,11,0.5,0.6
2025-07-21T1900,3684A,130.8781,45.8222,七台河市,新建矿广场,,34,34,13,15,7,60,,76,72,19,16,11,10,0.5,0.4
2025-07-21T1900,1779A,123.9305,47.3636,齐齐哈尔市,安居小区,,22,14,20,3,8,69,,85,84,26,14,1,2,0.6,0.4
2025-07-21T1900,1780A,123.9488,47.3386,齐齐哈尔市,中心广场,,32,32,18,3,3,73,,84,83,22,10,4,4,0.5,0.4
2025-07-21T1900,1781A,123.9483,47.3227,齐齐哈尔市,农牧车辆厂,,24,19,24,8,7,76,,79,79,13,11,6,6,0.3,0.3
2025-07-21T1900,1783A,123.945,47.2988,齐齐哈尔市,市环境监测站,,25,24,17,7,7,79,,83,83,12,10,5,5,0.4,0.4
2025-07-21T1900,3662A,123.6333,47.2075,齐齐哈尔市,富区青少年活动中心,,28,28,37,7,16,77,,80,80,11,21,4,9,0.3,0.6
2025-07-21T1900,2591A,107.9783,26.5747,黔东南苗族侗族自治州,市环境监测站,,15,14,17,7,12,45,,47,43,4,5,2,3,0.2,0.3
2025-07-21T1900,2881A,107.8908,26.5311,黔东南苗族侗族自治州,凯里学院,,16,,10,7,10,50,,50,47,8,9,2,2,0.3,0.4
2025-07-21T1900,2593A,107.5228,26.2403,黔南布依族苗族自治州,小围寨,,8,6,14,3,6,23,,31,27,4,6,2,2,0.4,0.4
2025-07-21T1900,3538A,107.5175,26.2978,黔南布依族苗族自治州,沙坝,,11,6,11,3,1,34,,42,40,4,6,3,4,0.4,0.4
2025-07-21T1900,2589A,104.9022,25.0925,黔西南布依族苗族自治州,场坝街,,19,14,14,3,7,60,,82,73,6,11,9,14,0.3,0.3
2025-07-21T1900,2590A,104.8811,25.0992,黔西南布依族苗族自治州,坪东大道,,20,20,16,6,9,60,,79,73,8,13,4,4,0.2,0.3
2025-07-21T1900,2502A,108.6236,21.9667,钦州市,市环保站,,,,10,3,7,53,,56,56,,6,,3,1.1,1.1
2025-07-21T1900,2503A,108.6549,21.9481,钦州市,沙埠小学,,18,,16,3,10,57,,60,60,4,6,1,1,0.2,0.3
2025-07-21T1900,2504A,108.5989,21.7431,钦州市,港区一小,,17,11,14,3,10,52,,53,53,5,8,2,2,0.5,0.5
2025-07-21T1900,3404A,108.5959,21.9633,钦州市,北职校,,18,6,16,3,10,55,,55,55,3,5,3,3,0.5,0.6
2025-07-21T1900,1043A,119.7493,40.0116,秦皇岛市,第一关,颗粒物(PM10),54,58,28,32,16,152,,158,158,9,32,6,5,1.2,0.5
2025-07-21T1900,1044A,119.5897,39.9499,秦皇岛市,监测站,臭氧1小时,57,46,39,18,12,165,,160,160,10,17,6,5,1.2,0.7
2025-07-21T1900,1046A,119.5251,39.9041,秦皇岛市,建设大厦,,48,48,32,19,15,150,,155,155,8,18,6,5,1.0,0.7
2025-07-21T1900,3132A,119.610547,39.943889,秦皇岛市,文明里,颗粒物(PM10),52,54,36,28,16,155,,155,155,9,15,7,5,0.9,0.5
2025-07-21T1900,4198A,119.5090,39.8253,秦皇岛市,北戴河轮滑馆,,49,47,44,31,22,155,,171,171,7,9,4,4,0.8,0.7
2025-07-21T1900,1307A,120.6659,36.2403,青岛市,仰口,,21,21,18,3,5,43,,43,43,5,5,8,8,0.6,0.7
2025-07-21T1900,1310A,120.4134,36.0658,青岛市,市南区东部子站,,27,27,30,3,6,36,,40,40,2,3,5,6,0.1,0.1
2025-07-21T1900,1311A,120.3664,36.1032,青岛市,四方区子站,,19,19,20,9,9,42,,45,45,4,3,4,3,0.2,0.2
2025-07-21T1900,1312A,120.2994,36.054,青岛市,市南区西部子站,,24,24,23,3,7,35,,28,28,14,13,7,8,0.5,0.5
2025-07-21T1900,1313A,120.4581,36.0858,青岛市,崂山区子站,,31,31,38,7,7,37,,42,42,12,9,7,7,0.2,0.2
2025-07-21T1900,1315A,120.3999,36.3083,青岛市,城阳区子站,,19,19,18,7,7,45,,43,,5,4,5,5,0.2,0.2
2025-07-21T1900,1966A,120.0405,35.8735,青岛市,黄岛区4号,,18,17,23,3,4,56,,57,57,2,2,8,9,0.3,0.3
2025-07-21T1900,3362A,120.5014,36.4034,青岛市,即墨2号,,21,21,16,7,8,48,,48,48,4,4,3,3,0.2,0.1
2025-07-21T1900,3642A,120.3503,36.0736,青岛市,市北区南部,,26,26,23,7,4,36,,59,55,9,7,7,7,0.4,0.4
2025-07-21T1900,3643A,120.3948,36.1805,青岛市,李沧区北部,,25,17,13,17,9,35,,37,37,2,2,3,4,0.2,0.2
2025-07-21T1900,4290A,120.1969,35.9546,青岛市,珠江路669号,,17,17,18,3,8,44,,41,41,2,2,5,5,0.3,0.4
2025-07-21T1900,1702A,113.0426,23.691,清远市,环保大楼,,18,,6,10,7,55,,69,69,13,5,6,6,0.7,0.7
2025-07-21T1900,1703A,113.0208,23.7106,清远市,凤城街办,,17,11,8,3,3,52,,62,62,13,8,5,5,0.6,0.5
2025-07-21T1900,3025A,113.0477,23.6344,清远市,技师学院,,16,7,10,3,5,50,,66,66,10,7,6,9,0.5,0.4
2025-07-21T1900,3318A,112.9903,23.7403,清远市,清新太和,,19,17,11,8,4,58,,70,69,9,6,5,6,0.6,0.6
2025-07-21T1900,3455A,113.076,23.7198,清远市,清城东城,,17,11,11,3,3,54,,60,60,6,5,6,6,0.8,0.7
2025-07-21T1900,2661A,107.6325,35.7357,庆阳市,庆阳五中,,37,17,23,8,10,118,,114,114,6,7,6,7,0.4,0.4
2025-07-21T1900,2662A,107.6364,35.7067,庆阳市,市环保局,,38,24,25,6,10,121,,117,117,5,5,9,11,0.4,0.4
2025-07-21T1900,1916A,103.7897,25.5035,曲靖市,环境监测站,,18,18,18,3,7,48,,80,70,16,11,11,9,0.5,0.5
2025-07-21T1900,1917A,103.8,25.5364,曲靖市,烟厂办公区,,17,17,15,3,6,52,,84,74,14,8,7,5,0.7,0.6
2025-07-21T1900,3376A,103.7947,25.462,曲靖市,南苑二区,,18,9,14,6,8,57,,83,74,12,10,4,5,0.5,0.6
2025-07-21T1900,3377A,103.7444,25.5261,曲靖市,曲靖师范学院,,23,23,12,6,7,47,,81,60,13,10,6,6,0.4,0.2
2025-07-21T1900,1264A,118.8692,28.9398,衢州市,环保大楼,,22,22,18,11,6,39,,66,62,10,10,2,3,0.3,0.3
2025-07-21T1900,1265A,118.8709,28.9666,衢州市,实验学校,,18,18,15,3,3,43,,71,67,5,6,5,5,0.3,0.3
2025-07-21T1900,1266A,118.8621,28.9808,衢州市,衢州学院,,14,14,14,6,5,39,,73,68,11,8,4,4,0.3,0.3
2025-07-21T1900,1611A,118.5819,24.9117,泉州市,涂山街,,18,10,15,7,9,57,,64,61,10,9,2,2,0.4,0.4
2025-07-21T1900,1612A,118.5972,24.8978,泉州市,津头埔,,13,11,15,6,7,39,,55,47,12,7,1,2,0.5,0.3
2025-07-21T1900,1613A,118.6663,24.9424,泉州市,万安,,10,10,17,6,6,30,,52,46,16,6,1,2,0.6,0.4
2025-07-21T1900,1614A,118.6117,24.9604,泉州市,清源山,,,,,,,,,,,,,,,,
2025-07-21T1900,3529A,118.6333,24.9264,泉州市,城华南路,,,8,13,3,6,32,,51,44,16,8,3,3,,0.3
2025-07-21T1900,2626A,88.8876,29.2718,日喀则市,日喀则监测站,,16,6,3,3,1,49,,73,68,11,8,12,10,0.4,0.4
2025-07-21T1900,3726A,88.8781,29.2426,日喀则市,林业技术推广中心,,27,9,6,3,1,86,,95,93,2,3,9,8,0.2,0.2
2025-07-21T1900,1659A,119.471,35.4209,日照市,监测站,,22,22,19,3,6,36,,47,45,9,12,5,5,0.3,0.4
2025-07-21T1900,1660A,119.523,35.4216,日照市,市政府广场,,24,24,21,3,4,46,,48,48,5,5,5,6,0.4,0.6
2025-07-21T1900,1661A,119.5587,35.4044,日照市,港务局,,22,22,23,10,10,39,,48,47,10,5,8,9,0.6,0.5
2025-07-21T1900,3507A,119.5328,35.4625,日照市,职业技术学院,,22,22,18,3,4,42,,48,48,4,4,3,4,0.4,0.4
2025-07-21T1900,3604A,119.3266,35.1044,日照市,岚山环保分局,,17,17,22,3,2,37,,47,45,7,7,8,7,0.5,0.5
2025-07-21T1900,1835A,111.1922,34.7752,三门峡市,市政府,,33,27,33,18,19,104,,94,94,7,14,2,2,0.9,0.8
2025-07-21T1900,1836A,111.1587,34.7942,三门峡市,开发区,,,25,31,17,20,100,,97,97,,10,,5,0.8,0.6
2025-07-21T1900,1838A,111.143,34.7955,三门峡市,风景区,,41,41,25,15,15,107,,106,106,5,8,4,4,0.7,0.6
2025-07-21T1900,3039A,111.1911,34.7829,三门峡市,三门峡市第一小学,,35,35,36,22,17,105,,99,99,12,16,6,8,0.6,0.5
2025-07-21T1900,3598A,111.1,34.7167,三门峡市,富达温泉假日酒店,,36,36,38,18,26,102,,97,97,14,16,10,10,0.5,0.4
2025-07-21T1900,2324A,117.6211,26.2625,三明市,三钢,,25,,9,17,11,35,,49,49,14,7,3,4,0.4,0.3
2025-07-21T1900,2325A,117.635,26.2714,三明市,三明二中,,18,,7,12,8,36,,46,46,13,8,3,2,0.3,0.2
2025-07-21T1900,2326A,117.6028,26.2378,三明市,三元区政府,,14,7,9,3,5,42,,51,51,11,8,3,3,0.1,0.1
2025-07-21T1900,2327A,117.7275,26.3108,三明市,洋溪,,,,,,,,,,,,,,,,
2025-07-21T1900,1876A,109.5078,18.2489,三亚市,河东子站,,27,27,26,9,10,43,,64,45,10,8,2,2,0.5,0.5
2025-07-21T1900,1877A,109.4964,18.2681,三亚市,河西子站,,23,23,25,3,4,52,,64,47,4,6,2,3,0.4,0.4
2025-07-21T1900,3540A,109.7348,18.3443,三亚市,君悦子站,,18,12,14,3,5,56,,70,53,4,5,2,2,0.6,0.5
2025-07-21T1900,2624A,91.7608,29.2313,山南市,山南监测站,,25,16,5,3,2,80,,92,82,4,4,3,3,0.3,0.3
2025-07-21T1900,2625A,91.7706,29.2436,山南市,山南人民医院,,27,,6,8,5,85,,96,86,2,3,4,3,0.2,0.2
2025-07-21T1900,1674A,116.6794,23.3667,汕头市,金平子站,,19,18,19,8,8,60,,61,54,6,9,2,2,0.7,0.6
2025-07-21T1900,1675A,116.7244,23.3633,汕头市,龙湖子站,,21,6,20,6,7,65,,60,57,5,7,5,5,0.7,0.7
2025-07-21T1900,1676A,116.7258,23.2775,汕头市,濠江子站,,,10,33,10,8,55,,57,50,,6,4,4,,0.7
2025-07-21T1900,1677A,116.7519,23.4714,汕头市,澄海子站,,18,18,21,11,8,52,,54,50,9,8,2,2,0.6,0.6
2025-07-21T1900,1678A,116.6092,23.2539,汕头市,潮阳子站,,,,22,,8,62,,64,58,,5,4,4,,0.6
2025-07-21T1900,3444A,116.454,23.2684,汕头市,潮南峡山,,18,18,21,10,9,56,,56,56,7,6,5,5,0.7,0.6
2025-07-21T1900,3624A,116.4069,23.2533,汕头市,潮南子站,,24,24,22,11,9,54,,61,54,9,6,4,3,0.5,0.5
2025-07-21T1900,1693A,115.3653,22.775,汕尾市,市环保局,,24,24,17,8,5,57,,82,68,9,5,2,2,0.5,0.5
2025-07-21T1900,1694A,115.3706,22.7898,汕尾市,市政府,,20,20,15,3,6,58,,84,70,9,4,3,3,0.5,0.4
2025-07-21T1900,1695A,115.3622,22.7925,汕尾市,新城中学,,22,22,15,7,5,55,,81,68,11,6,4,4,0.4,0.4
2025-07-21T1900,2645A,109.9154,33.8715,商洛市,监测站,,32,32,23,19,9,96,,103,103,8,11,4,4,0.6,0.5
2025-07-21T1900,3045A,109.9643,33.8471,商洛市,商州区中学,,,34,27,16,5,83,,98,98,,14,4,3,0.5,0.4
2025-07-21T1900,2408A,115.6702,34.4285,商丘市,环境监测站,颗粒物(PM10),62,73,36,22,17,117,,120,120,8,8,2,2,0.5,0.5
2025-07-21T1900,2409A,115.6458,34.4045,商丘市,粮食局,颗粒物(PM10),53,55,32,13,14,114,,112,112,7,6,1,4,0.5,0.6
2025-07-21T1900,2410A,115.6293,34.3948,商丘市,睢阳区环保局,,43,43,31,15,16,117,,115,115,6,7,2,2,0.3,0.3
2025-07-21T1900,3171A,115.6071,34.4465,商丘市,梁园区档案局,,37,37,26,17,15,103,,106,106,7,9,1,2,0.5,0.5
2025-07-21T1900,1141A,121.4,31.238,上海市,普陀,,30,30,23,11,7,30,,45,43,9,7,4,4,0.3,0.3
2025-07-21T1900,1142A,121.478,31.2036,上海市,十五厂,,29,29,24,9,7,28,,41,40,11,10,7,7,0.5,0.5
2025-07-21T1900,1143A,121.467,31.3008,上海市,虹口,,28,28,24,7,7,29,,44,42,4,4,9,9,0.7,0.7
2025-07-21T1900,1147A,121.425,31.2261,上海市,静安监测站,,25,25,22,13,7,29,,43,42,9,7,3,3,0.4,0.4
2025-07-21T1900,1148A,121.703,31.1907,上海市,浦东川沙,,36,36,31,8,6,24,,35,34,9,9,9,9,0.6,0.6
2025-07-21T1900,1149A,121.533,31.2284,上海市,浦东新区监测站,,26,26,23,3,4,28,,42,42,6,6,7,7,0.4,0.4
2025-07-21T1900,1150A,121.577,31.2071,上海市,浦东张江,颗粒物(PM10),58,66,58,10,8,34,,47,46,7,6,5,5,0.7,0.7
2025-07-21T1900,3265A,121.4316,31.3322,上海市,宝山庙行,,26,26,23,6,5,32,,47,46,5,5,6,6,0.3,0.3
2025-07-21T1900,3266A,121.8791,31.4662,上海市,崇明上实东滩,,23,23,22,9,7,27,,46,44,7,7,3,3,0.4,0.4
2025-07-21T1900,3268A,121.3162,31.2838,上海市,嘉定南翔,,36,36,36,7,7,26,,40,39,6,4,6,6,0.3,0.3
2025-07-21T1900,3269A,121.3359,30.7456,上海市,金山新城,,,37,41,3,7,30,,50,48,8,8,7,8,,0.3
2025-07-21T1900,3270A,121.4996,31.0739,上海市,闵行浦江,,28,28,25,7,6,24,,38,36,8,5,4,4,0.7,0.7
2025-07-21T1900,3271A,121.2886,31.1663,上海市,青浦徐泾,,29,29,23,3,6,29,,46,44,5,4,5,6,0.4,0.4
2025-07-21T1900,3272A,121.2186,31.0378,上海市,松江图书馆,,22,22,20,7,6,33,,48,46,4,2,7,6,0.4,0.4
2025-07-21T1900,3273A,121.3902,31.2059,上海市,长宁仙霞,,26,26,24,7,8,27,,40,38,9,7,6,6,0.4,0.4
2025-07-21T1900,3274A,121.7965,31.0507,上海市,浦东惠南,,27,27,21,8,7,31,,42,41,3,4,10,9,0.6,0.6
2025-07-21T1900,3544A,121.4891,30.925,上海市,奉贤南桥新城,,27,27,23,11,9,31,,43,42,4,2,7,6,0.7,0.6
2025-07-21T1900,4183A,121.4174,31.16637,上海市,冠生园路458号,,,28,22,,6,23,,33,32,10,8,4,4,0.6,0.6
2025-07-21T1900,4205A,121.5419,31.2683,上海市,宁武路151号,,36,36,29,11,9,28,,36,36,7,9,7,7,0.5,0.5
2025-07-21T1900,2381A,118.005,28.4572,上饶市,百草园,,,,,,,,,,,,,,,,
2025-07-21T1900,2382A,117.9756,28.4436,上饶市,市监测站,,19,9,17,6,7,60,,68,67,2,5,2,3,0.3,0.3
2025-07-21T1900,2383A,117.9519,28.4628,上饶市,凤凰光学,,17,17,19,10,8,51,,67,65,4,6,6,10,0.8,0.8
2025-07-21T1900,3685A,117.897,28.4315,上饶市,双创科技城,,18,11,16,8,7,57,,73,71,7,9,2,5,0.3,0.3
2025-07-21T1900,4211A,118.1904,28.4448,上饶市,裕丰大道,,14,,9,3,6,42,,62,58,7,6,4,6,0.6,0.6
2025-07-21T1900,1669A,113.5824,24.7733,韶关市,市八中,,20,20,12,6,3,48,,59,58,11,9,7,8,0.6,0.6
2025-07-21T1900,1671A,113.5917,24.7972,韶关市,园林处,,17,10,9,6,5,52,,58,58,7,4,8,9,0.4,0.3
2025-07-21T1900,1673A,113.5971,24.6863,韶关市,曲江监测站,,19,9,10,7,6,59,,64,64,7,10,2,4,0.7,0.7
2025-07-21T1900,2809A,113.6668,24.7756,韶关市,大学路288号,,20,20,16,9,6,56,,61,61,7,6,8,6,0.4,0.4
2025-07-21T1900,3622A,113.5556,24.8082,韶关市,碧湖山庄,,16,10,10,6,5,51,,59,58,6,6,6,6,0.5,0.5
2025-07-21T1900,2462A,111.5239,27.3033,邵阳市,市水土所,,,,,,,,,,,,,,,,
2025-07-21T1900,2464A,111.5283,27.2442,邵阳市,市化工厂,,23,18,13,3,8,73,,86,86,7,7,8,8,0.5,0.5
2025-07-21T1900,2466A,111.4328,27.2272,邵阳市,市环保局,,47,47,17,18,5,73,,79,79,7,8,6,6,0.5,0.6
2025-07-21T1900,4218A,111.4460,27.2472,邵阳市,北塔二期4-26地块,,23,18,14,14,7,73,,80,80,8,9,4,5,0.3,0.4
2025-07-21T1900,4219A,111.4739,27.2282,邵阳市,邵水西路287号,,23,20,15,13,8,72,,85,85,8,7,5,6,0.5,0.6
2025-07-21T1900,1247A,120.6053,29.9928,绍兴市,城东开发委,,9,6,15,3,4,28,,37,33,3,6,3,4,0.1,0.2
2025-07-21T1900,2921A,120.5483,30.0003,绍兴市,树下王站,,10,6,12,3,5,32,,42,38,3,5,4,4,0.4,0.4
2025-07-21T1900,3408A,120.5683,29.9361,绍兴市,绍兴中专,,11,11,13,3,6,30,,39,36,2,4,5,5,0.5,0.5
2025-07-21T1900,3409A,120.4906,30.0861,绍兴市,柯桥区政府,,,15,16,,7,28,,41,37,6,7,3,5,0.3,0.3
2025-07-21T1900,3410A,120.8752,30.0249,绍兴市,重华小学,,18,,11,12,6,25,,33,31,4,5,6,6,0.3,0.4
2025-07-21T1900,3411A,120.8369,30.0137,绍兴市,上虞中学,,10,9,11,3,6,29,,37,36,3,4,7,7,0.3,0.3
