timepoint,stationcode,longitude,latitude,area,positionname,primarypollutant,aqi,pm10,pm10_24h,pm2_5,pm2_5_24h,o3,o3_24h,o3_8h,o3_8h_24h,no2,no2_24h,so2,so2_24h,co,co_24h
2026-04-30T2200,2568A,102.2503,31.8896,阿坝藏族羌族自治州,马师校,,28,28,17,3,8,73,73,91,84,4,4,6,6,0.3,0.3
2026-04-30T2200,3994A,102.2174,31.9016,阿坝藏族羌族自治州,马尔康中学西区,颗粒物(PM10),53,53,12,6,6,70,70,86,81,5,6,4,4,0.4,0.3
2026-04-30T2200,2695A,80.2899,41.1684,阿克苏地区,电视台,颗粒物(PM10),137,216,127,96,55,92,92,119,115,26,15,3,3,0.4,0.3
2026-04-30T2200,2696A,80.2592,41.1541,阿克苏地区,艺术中心,细颗粒物(PM2.5),118,162,109,79,52,78,78,119,NA,30,23,4,4,0.6,0.4
2026-04-30T2200,2205A,105.699,38.8409,阿拉善盟,蒙二幼,颗粒物(PM10),70,78,46,17,13,129,129,138,137,6,5,10,10,0.5,0.5
2026-04-30T2200,2206A,105.7198,38.8508,阿拉善盟,环保局新楼,颗粒物(PM10),71,79,42,16,11,126,126,132,132,6,5,9,9,0.5,0.5
2026-04-30T2200,2708A,88.1266,47.8515,阿勒泰地区,市站,,24,24,15,13,2,63,63,108,100,30,8,5,5,0.3,0.2
2026-04-30T2200,4166A,88.1198,47.7931,阿勒泰地区,阿勒泰路33号,,31,23,13,3,2,97,97,107,105,5,5,4,5,0.1,0.2
2026-04-30T2200,2630A,80.1171,32.4999,阿里地区,阿里监测站,NA,NA,NA,10,NA,3,121,121,NA,NA,NA,4,7,7,0.3,0.4
2026-04-30T2200,3192A,80.0906,32.5029,阿里地区,阿里藏医院,,42,28,7,3,2,133,133,132,132,1,1,9,9,0.3,0.3
2026-04-30T2200,2644A,109.0088,32.6974,安康市,汉滨区检察院,颗粒物(PM10),53,53,37,21,17,46,46,110,91,22,11,6,8,0.4,0.4
2026-04-30T2200,4054A,109.0324,32.6913,安康市,市邮政管理局,颗粒物(PM10),55,56,45,25,20,62,62,109,93,15,11,7,16,0.6,0.5
2026-04-30T2200,2291A,117.0806,30.5181,安庆市,环科院,二氧化氮(NO2),57,47,26,19,20,5,5,126,96,114,25,8,8,0.5,0.5
2026-04-30T2200,2292A,117.0331,30.5118,安庆市,马山宾馆,,37,37,26,15,20,70,70,120,107,45,22,6,6,0.2,0.3
2026-04-30T2200,2294A,116.9897,30.6146,安庆市,安庆大学,,35,35,28,17,17,72,72,135,120,23,17,4,5,0.5,0.4
2026-04-30T2200,3173A,117.0598,30.5351,安庆市,市人大,,30,30,29,16,20,72,72,126,111,27,18,7,6,0.4,0.5
2026-04-30T2200,3123A,105.9408,26.2431,安顺市,凤凰山,细颗粒物(PM2.5),106,82,37,66,27,74,74,97,92,17,10,11,12,0.7,0.5
2026-04-30T2200,3124A,105.9443,26.2567,安顺市,金钟山,细颗粒物(PM2.5),96,71,32,58,27,72,72,89,85,11,8,11,10,0.7,0.5
2026-04-30T2200,3125A,105.8983,26.248,安顺市,娄家坡,细颗粒物(PM2.5),66,55,27,43,24,73,73,90,88,10,7,7,9,0.6,0.6
2026-04-30T2200,1819A,114.3552,36.1017,安阳市,红庙街,"颗粒物(PM10),细颗粒物(PM2.5)",60,64,58,40,27,115,115,163,151,26,21,5,6,0.5,0.6
2026-04-30T2200,1820A,114.361,36.0681,安阳市,银杏小区,颗粒物(PM10),70,78,65,30,27,114,114,166,148,26,24,7,8,0.2,0.3
2026-04-30T2200,3141A,114.3921,36.0879,安阳市,信访局,细颗粒物(PM2.5),60,60,56,40,28,125,125,167,158,18,16,6,6,0.6,0.6
2026-04-30T2200,3669A,114.4706,36.0634,安阳市,左辅环卫站,细颗粒物(PM2.5),72,78,64,46,29,109,109,160,149,19,19,2,3,0.6,0.6
2026-04-30T2200,4117A,114.2918,36.0769,安阳市,钢三路198号,颗粒物(PM10),90,105,62,44,27,106,106,158,144,19,16,5,6,0.8,0.6
2026-04-30T2200,1748A,123.0441,41.1201,鞍山市,深沟寺,颗粒物(PM10),65,70,36,33,17,126,126,137,135,26,15,19,11,1.1,0.7
2026-04-30T2200,1749A,123.011,41.0931,鞍山市,太阳城,颗粒物(PM10),69,76,39,40,19,111,111,131,127,25,14,19,11,1.2,0.7
2026-04-30T2200,1750A,123.0483,41.1445,鞍山市,太平,颗粒物(PM10),72,80,48,33,19,115,115,128,125,25,16,20,12,1.4,1
2026-04-30T2200,1751A,122.964,41.0968,鞍山市,铁西三道街,颗粒物(PM10),65,71,47,42,24,119,119,130,127,27,25,18,11,1.0,0.9
2026-04-30T2200,1753A,123.0219,41.0822,鞍山市,明达新区,颗粒物(PM10),64,69,35,34,18,116,116,131,128,26,16,22,11,1.3,0.8
2026-04-30T2200,4201A,122.944647,41.082639,鞍山市,兴盛南路290号,颗粒物(PM10),85,99,63,42,25,113,113,134,126,26,30,18,13,1.1,1
2026-04-30T2200,2195A,107.4206,40.7609,巴彦淖尔市,附二中,颗粒物(PM10),76,86,64,29,18,117,117,139,136,10,10,8,10,0.4,0.4
2026-04-30T2200,2196A,107.37,40.7372,巴彦淖尔市,市环保大楼,颗粒物(PM10),72,80,51,25,14,125,125,139,136,10,8,17,8,0.4,0.4
2026-04-30T2200,1956A,86.1476,41.7529,巴音郭楞蒙古自治州,孔雀公园,细颗粒物(PM2.5),150,190,179,114,76,80,80,104,100,16,8,3,3,0.5,0.3
2026-04-30T2200,1957A,86.1971,41.7166,巴音郭楞蒙古自治州,棉纺厂,NA,NA,NA,212,NA,68,83,83,110,107,18,5,/,/,/,/
2026-04-30T2200,1958A,86.236,41.7172,巴音郭楞蒙古自治州,经济开发区,颗粒物(PM10),115,157,178,64,53,96,96,107,106,6,3,16,9,0.2,0.2
2026-04-30T2200,3181A,106.776805,31.852614,巴中市,市五中,细颗粒物(PM2.5),86,64,22,53,19,41,41,97,76,17,13,9,9,0.8,0.7
2026-04-30T2200,3183A,106.7419,31.8654,巴中市,圣泉水务公司,NA,NA,63,32,34,15,NA,NA,104,94,29,19,6,8,0.8,0.7
2026-04-30T2200,3616A,106.7617,31.8343,巴中市,市中心医院,颗粒物(PM10),65,71,35,42,20,20,20,98,75,39,16,10,10,0.7,0.5
2026-04-30T2200,2235A,122.7909,45.608,白城市,洮北区环保局,,47,47,42,11,10,92,92,112,102,7,5,3,5,0.4,0.4
2026-04-30T2200,2236A,122.8741,45.5725,白城市,市环保局,,34,34,44,10,11,95,95,110,103,11,12,4,5,0.3,0.3
2026-04-30T2200,2231A,126.4219,41.9172,白山市,喜丰,颗粒物(PM10),58,60,54,33,19,27,27,117,89,52,27,12,10,1.1,1
2026-04-30T2200,2232A,126.4082,41.9416,白山市,环保局,,49,49,32,25,15,39,39,112,87,26,16,11,10,1.0,0.7
2026-04-30T2200,2647A,104.1727,36.5448,白银市,第三小学,颗粒物(PM10),54,55,49,19,17,73,73,91,88,7,11,29,31,0.4,0.5
2026-04-30T2200,2648A,104.1467,36.5482,白银市,动力公司,,47,47,43,19,20,83,83,97,92,8,12,72,23,0.4,0.5
2026-04-30T2200,2512A,106.6102,23.901,百色市,市监测站,,39,39,26,23,7,57,57,116,109,18,14,12,10,0.7,0.5
2026-04-30T2200,2513A,106.6524,23.8842,百色市,市中心血站,,43,37,27,30,12,82,82,118,112,24,15,21,16,0.8,0.6
2026-04-30T2200,4133A,106.6273,23.8798,百色市,龙景西路,,40,40,27,27,11,78,78,123,117,22,13,21,14,0.5,0.4
2026-04-30T2200,2270A,117.396,32.9389,蚌埠市,工人疗养院,,44,44,51,12,21,102,102,140,130,26,20,6,4,0.5,0.4
2026-04-30T2200,2271A,117.3606,32.9428,蚌埠市,百货大楼,,49,49,47,12,20,101,101,140,130,18,12,7,5,0.5,0.4
2026-04-30T2200,2273A,117.4183,32.8909,蚌埠市,蚌埠学院,,36,36,46,14,27,96,96,139,124,21,21,5,6,0.5,0.6
2026-04-30T2200,2274A,117.3534,32.9672,蚌埠市,淮上区政府,,37,31,46,9,22,116,116,143,135,19,20,5,5,0.2,0.3
2026-04-30T2200,2275A,117.3143,32.8977,蚌埠市,高新区,颗粒物(PM10),51,51,47,15,23,83,83,126,116,28,21,8,6,0.4,0.3
2026-04-30T2200,3715A,117.3091,32.9314,蚌埠市,蚌埠田家炳中学,颗粒物(PM10),56,58,57,18,26,86,86,138,124,29,20,22,10,0.3,0.3
2026-04-30T2200,1585A,109.8761,40.6533,包头市,市环境监测站,细颗粒物(PM2.5),66,63,55,43,29,61,61,158,128,72,44,9,12,0.6,0.5
2026-04-30T2200,1587A,109.9992,40.5843,包头市,包头八中,颗粒物(PM10),60,63,70,37,33,100,100,154,136,37,41,17,15,0.6,1.1
2026-04-30T2200,1589A,109.8641,40.6288,包头市,惠龙物流,颗粒物(PM10),60,64,48,39,29,53,53,147,126,70,39,10,11,0.6,0.6
2026-04-30T2200,1590A,110.0376,40.5546,包头市,东河鸿龙湾,颗粒物(PM10),77,87,62,45,37,60,60,157,131,82,53,27,18,0.6,0.6
2026-04-30T2200,3283A,109.9154,40.5684,包头市,滨河大厦,"颗粒物(PM10),细颗粒物(PM2.5)",54,55,51,37,35,70,70,155,135,57,47,24,14,0.5,0.6
2026-04-30T2200,3419A,109.9449,40.6259,包头市,包头市委党校,颗粒物(PM10),70,77,45,38,27,39,39,152,126,101,39,10,13,0.7,0.8
2026-04-30T2200,3683A,109.8332,40.6577,包头市,昆区政府,细颗粒物(PM2.5),62,52,49,41,30,60,60,148,131,79,44,7,11,0.9,0.8
2026-04-30T2200,1931A,107.0802,34.3129,宝鸡市,竹园沟,,42,42,55,20,33,93,93,136,126,13,10,8,8,0.6,0.6
2026-04-30T2200,1933A,107.1429,34.3549,宝鸡市,监测站,颗粒物(PM10),55,56,68,32,35,93,93,138,130,22,17,6,6,0.4,0.4
2026-04-30T2200,1934A,107.1172,34.3759,宝鸡市,技工学校,颗粒物(PM10),59,62,69,34,41,102,102,140,130,19,13,5,5,0.6,0.6
2026-04-30T2200,1936A,107.2025,34.3518,宝鸡市,文理学院,颗粒物(PM10),67,73,68,29,39,80,80,143,135,31,16,6,6,0.6,0.5
2026-04-30T2200,1937A,107.2396,34.3626,宝鸡市,三迪小学,颗粒物(PM10),63,68,76,38,41,90,90,142,134,36,18,6,6,0.6,0.6
2026-04-30T2200,4155A,107.1721,34.3558,宝鸡市,滨河北路,NA,NA,NA,131,36,40,88,88,136,129,24,15,8,8,0.6,0.7
2026-04-30T2200,4308A,107.3898,34.3601,宝鸡市,陈仓区北开路21号,颗粒物(PM10),74,83,84,38,41,96,96,136,130,35,22,9,9,0.5,0.5
2026-04-30T2200,1051A,115.4803,38.8568,保定市,游泳馆,颗粒物(PM10),60,64,55,38,31,116,116,161,150,18,18,6,4,0.3,0.4
2026-04-30T2200,1052A,115.509,38.8895,保定市,华电二区,,48,48,42,27,26,120,120,150,145,15,17,2,3,0.6,0.4
2026-04-30T2200,1053A,115.4588,38.9037,保定市,接待中心,颗粒物(PM10),60,63,53,37,25,121,121,158,147,12,13,5,4,0.4,0.3
2026-04-30T2200,1054A,115.4484,38.8344,保定市,地表水厂,颗粒物(PM10),74,83,69,32,25,104,104,161,148,21,21,4,5,0.3,0.3
2026-04-30T2200,3581A,115.3136,38.9511,保定市,满城区生态环境分局,颗粒物(PM10),83,95,71,26,21,104,104,166,152,17,15,4,4,0.4,0.3
2026-04-30T2200,3582A,115.4709,38.7628,保定市,清苑区第二中学,颗粒物(PM10),82,94,74,34,25,112,112,155,143,17,21,9,8,0.5,0.4
2026-04-30T2200,3583A,115.6231,39.0223,保定市,徐水物探局,颗粒物(PM10),70,77,75,28,30,111,111,156,146,23,24,4,4,0.5,0.4
2026-04-30T2200,4004A,115.4199,38.8665,保定市,双鹰农机,颗粒物(PM10),64,69,67,39,29,119,119,166,152,17,19,3,3,0.4,0.3
2026-04-30T2200,4034A,115.515,38.8589,保定市,植保所站,颗粒物(PM10),72,80,60,24,25,130,130,167,158,14,19,3,3,0.5,0.4
2026-04-30T2200,2594A,99.1589,25.1137,保山市,市环境监测站,,28,21,20,19,16,59,59,94,89,8,10,6,6,0.3,0.3
2026-04-30T2200,2595A,99.1616,25.1381,保山市,市环保局,,28,21,22,19,20,67,67,96,92,4,7,7,7,0.3,0.3
2026-04-30T2200,1867A,109.1435,21.4085,北海市,海滩公园,,36,14,17,9,10,115,115,107,107,8,9,7,7,0.5,0.7
2026-04-30T2200,1868A,109.0983,21.466,北海市,新市环保局,,31,14,14,13,7,99,99,103,103,12,9,5,5,0.6,0.5
2026-04-30T2200,1869A,109.1775,21.5232,北海市,北海工业园,,29,NA,16,20,10,92,92,108,106,13,8,6,6,0.8,0.7
2026-04-30T2200,3400A,109.1844,21.4396,北海市,龙潭自来水厂,NA,NA,15,14,NA,7,81,81,109,106,10,9,7,9,0.9,0.8
2026-04-30T2200,1001A,116.3611,39.8786,北京市,万寿西宫,颗粒物(PM10),73,82,58,33,21,128,128,156,154,17,29,5,4,0.4,0.3
2026-04-30T2200,1003A,116.4174,39.9289,北京市,东四,颗粒物(PM10),71,79,53,35,26,135,135,160,160,18,28,4,3,0.2,0.1
2026-04-30T2200,1004A,116.4073,39.8858,北京市,天坛,颗粒物(PM10),60,63,47,23,20,122,122,150,148,15,25,6,4,0.1,0
2026-04-30T2200,1005A,116.4622,39.9364,北京市,农展馆,颗粒物(PM10),71,79,55,29,20,131,131,153,153,15,26,5,4,0.5,0.4
2026-04-30T2200,1006A,116.3399,39.9293,北京市,官园,颗粒物(PM10),70,77,52,37,27,127,127,146,146,20,34,4,3,0.5,0.3
2026-04-30T2200,1007A,116.2879,39.9613,北京市,海淀万柳,颗粒物(PM10),73,81,65,35,26,104,104,131,130,23,18,6,5,0.5,0.4
2026-04-30T2200,1008A,116.6635,40.1349,北京市,顺义新城,颗粒物(PM10),89,104,55,41,20,138,138,151,150,21,26,6,4,0.5,0.4
2026-04-30T2200,1009A,116.6275,40.327,北京市,怀柔镇,颗粒物(PM10),56,58,36,27,15,100,100,150,146,26,11,5,5,0.5,0.3
2026-04-30T2200,1010A,116.2295,40.217,北京市,昌平镇,颗粒物(PM10),59,62,42,22,15,123,123,150,148,22,19,4,4,0.5,0.4
2026-04-30T2200,1011A,116.3968,39.982,北京市,奥体中心,颗粒物(PM10),67,73,48,32,23,124,124,141,141,17,32,6,4,0.4,0.2
2026-04-30T2200,3418A,116.8336,40.4095,北京市,密云新城,颗粒物(PM10),60,63,39,23,14,121,121,144,142,18,13,4,3,0.3,0.2
2026-04-30T2200,3671A,116.0879,39.9725,北京市,门头沟三家店,细颗粒物(PM2.5),64,64,47,42,19,92,92,142,138,25,18,3,3,0.3,0.2
2026-04-30T2200,3672A,116.1507,39.8246,北京市,丰台云岗,颗粒物(PM10),80,92,70,30,23,116,116,154,151,25,30,3,2,0.5,0.3
2026-04-30T2200,3674A,115.9578,39.7602,北京市,房山燕山,,49,49,47,19,19,115,115,139,138,12,14,6,4,0.6,0.3
2026-04-30T2200,3675A,116.4669,39.7734,北京市,大兴旧宫,颗粒物(PM10),68,74,53,26,20,115,115,152,148,20,26,2,2,0.5,0.4
2026-04-30T2200,3694A,115.9859,40.4562,北京市,延庆石河营,颗粒物(PM10),60,63,44,26,16,118,118,144,143,11,15,1,2,0.5,0.4
2026-04-30T2200,3695A,116.6151,40.3052,北京市,怀柔新城,颗粒物(PM10),53,53,37,28,16,107,107,143,139,16,13,5,4,0.5,0.3
2026-04-30T2200,3696A,116.2542,39.8764,北京市,丰台小屯,颗粒物(PM10),73,82,62,30,24,105,105,138,135,22,31,3,3,0.5,0.4
2026-04-30T2200,3697A,116.8399,40.3843,北京市,密云镇,颗粒物(PM10),63,67,40,22,15,125,125,147,145,23,25,5,4,0.5,0.4
2026-04-30T2200,4057A,115.9423,40.4431,北京市,延庆百泉,颗粒物(PM10),61,65,41,22,16,121,121,146,144,15,23,1,2,0.5,0.4
2026-04-30T2200,4058A,116.6598,39.9164,北京市,通州新华,颗粒物(PM10),68,74,58,26,21,111,111,138,137,22,32,6,5,0.5,0.4
2026-04-30T2200,4182A,116.1942,39.9158,北京市,石景山八角,颗粒物(PM10),89,104,71,28,25,111,111,142,139,28,36,5,3,0.5,0.2
2026-04-30T2200,4194A,117.078628,40.151726,北京市,平谷新城,颗粒物(PM10),65,71,49,23,19,109,109,147,144,21,16,4,3,0.5,0.4
2026-04-30T2200,1761A,123.8274146,41.31234549,本溪市,大峪,颗粒物(PM10),55,56,37,25,15,94,94,122,113,21,20,10,8,0.7,0.7
2026-04-30T2200,1763A,123.7169,41.3094,本溪市,彩屯,颗粒物(PM10),56,58,52,35,24,88,88,121,108,25,28,12,18,0.7,1.4
2026-04-30T2200,1764A,123.7672166,41.28649327,本溪市,东明,颗粒物(PM10),55,57,52,30,16,110,110,119,117,28,30,15,6,1.3,0.8
2026-04-30T2200,1765A,123.799345,41.266614,本溪市,新立屯,颗粒物(PM10),55,56,37,27,11,53,53,124,95,57,31,9,8,0.8,0.6
2026-04-30T2200,1766A,123.829144,41.336777,本溪市,威宁,颗粒物(PM10),53,54,49,24,18,74,74,122,109,21,23,8,8,0.8,0.7
2026-04-30T2200,2587A,105.287,27.3133,毕节市,八中,细颗粒物(PM2.5),54,52,38,37,25,75,75,87,85,10,11,8,9,0.5,0.6
2026-04-30T2200,2588A,105.3079,27.2987,毕节市,师专,细颗粒物(PM2.5),64,54,41,42,25,63,63,82,78,10,11,10,11,0.5,0.4
2026-04-30T2200,4263A,105.3688,27.3598,毕节市,工业大道,颗粒物(PM10),55,56,42,36,24,80,80,94,93,10,12,10,11,/,/
2026-04-30T2200,1629A,117.9961,37.3604,滨州市,第二水厂,颗粒物(PM10),68,75,52,38,25,103,103,144,135,22,24,7,8,0.5,0.3
2026-04-30T2200,1630A,117.9789,37.3931,滨州市,北中新校,颗粒物(PM10),55,56,46,34,21,120,120,156,150,26,23,10,10,0.4,0.3
2026-04-30T2200,3514A,117.9379,37.3959,滨州市,中海酒店,细颗粒物(PM2.5),62,61,43,41,24,112,112,162,150,32,28,10,10,0.5,0.4
2026-04-30T2200,3515A,117.9381509,37.35547456,滨州市,开发区一中,颗粒物(PM10),68,75,58,42,26,103,103,148,138,33,27,11,11,0.5,0.4
2026-04-30T2200,3516A,118.0914,37.6938,滨州市,金海六路,颗粒物(PM10),63,68,54,41,24,96,96,150,136,35,27,8,8,0.5,0.2
2026-04-30T2200,4028A,117.9955,37.3752,滨州市,滨州市西街道办事处,颗粒物(PM10),70,78,52,36,22,104,104,152,144,24,21,6,7,0.7,0.5
2026-04-30T2200,2311A,115.8071,33.8399,亳州市,污水处理厂,,35,35,43,14,16,99,99,123,117,16,10,6,8,0.2,0.2
2026-04-30T2200,2312A,115.7789,33.8519,亳州市,三国揽胜宫,,43,43,45,14,16,101,101,117,112,10,8,6,7,0.2,0.1
2026-04-30T2200,3332A,115.7631,33.803,亳州市,亳州学院,,30,27,30,15,19,96,96,116,109,9,7,9,10,0.3,0.3
2026-04-30T2200,2693A,82.0482,44.8553,博尔塔拉蒙古自治州,市党校,颗粒物(PM10),100,119,181,25,44,111,111,123,122,10,4,4,3,0.4,0.4
2026-04-30T2200,2694A,82.0805,44.8966,博尔塔拉蒙古自治州,市环保局,颗粒物(PM10),73,81,164,16,35,80,80,115,111,28,10,2,2,0.3,0.3
2026-04-30T2200,1071A,116.8733,38.2922,沧州市,沧县城建局,颗粒物(PM10),65,71,51,38,27,119,119,153,146,24,21,10,6,0.6,0.5
2026-04-30T2200,1072A,116.8462,38.3189,沧州市,电视转播站,颗粒物(PM10),63,68,48,37,25,123,123,158,152,21,18,15,9,0.4,0.4
2026-04-30T2200,1073A,116.8588,38.3161,沧州市,市环保局,颗粒物(PM10),65,71,57,42,23,115,115,156,146,25,19,11,8,0.5,0.5
2026-04-30T2200,3324A,116.8011,38.294,沧州市,河北水利电力学院,"颗粒物(PM10),细颗粒物(PM2.5)",70,78,53,45,29,94,94,128,120,26,28,11,9,0.4,0.4
2026-04-30T2200,2622A,97.1813,31.1289,昌都市,昌都监测站,,33,NA,10,3,3,104,104,108,108,4,10,12,12,0.3,0.5
2026-04-30T2200,3719A,97.1707,31.1428,昌都市,昌都会议中心,,34,6,9,3,4,106,106,112,112,3,6,7,7,0.4,0.4
2026-04-30T2200,2692A,87.2722,44.0298,昌吉回族自治州,新区政务中心,,30,NA,34,21,12,94,94,106,103,16,14,5,6,0.4,0.4
2026-04-30T2200,3613A,87.3069,44.0093,昌吉回族自治州,亚心广场,,32,24,40,6,10,102,102,112,111,12,10,4,5,0.3,0.3
2026-04-30T2200,4164A,87.2057,43.9289,昌吉回族自治州,财政所,颗粒物(PM10),52,52,48,34,7,67,67,107,102,38,10,8,7,0.5,0.3
2026-04-30T2200,1120A,125.2874,43.9024,长春市,客车厂,,50,48,40,35,23,103,103,114,108,21,20,9,8,0.4,0.4
2026-04-30T2200,1121A,125.2943,43.8508,长春市,邮电学院,,48,48,34,24,15,114,114,122,119,16,14,9,8,0.4,0.4
2026-04-30T2200,1122A,125.3648,43.8745,长春市,劳动公园,,41,41,35,21,15,121,121,124,122,14,15,8,8,0.4,0.3
2026-04-30T2200,1123A,125.3233,43.8781,长春市,园林处,,41,41,34,24,15,120,120,127,125,14,13,8,8,0.4,0.4
2026-04-30T2200,1124A,125.4604,43.7904,长春市,净月潭,,34,34,26,19,15,97,97,125,118,12,10,6,6,0.5,0.4
2026-04-30T2200,1126A,125.38,43.8422,长春市,经开区环卫处,,43,43,41,24,15,108,108,125,115,18,19,6,6,0.5,0.4
2026-04-30T2200,1127A,125.234,43.7761,长春市,高新区管委会,,41,41,34,22,14,103,103,124,114,17,15,9,9,0.4,0.3
2026-04-30T2200,1128A,125.1695,43.83,长春市,岱山公园,颗粒物(PM10),51,51,40,21,15,102,102,134,119,32,27,6,6,0.4,0.4
2026-04-30T2200,4281A,125.334645,43.916281,长春市,北亚泰大街1068号,,49,49,39,25,18,112,112,120,114,22,22,8,7,0.4,0.4
2026-04-30T2200,1335A,113.082,28.2421,长沙市,经开区环保局,,38,38,26,24,16,104,104,124,122,23,14,3,3,0.5,0.4
2026-04-30T2200,1336A,112.8873,28.2202,长沙市,高开区环保局,NA,NA,NA,27,NA,17,NA,NA,142,NA,NA,19,NA,6,NA,0.4
2026-04-30T2200,1337A,113.0785,28.2012,长沙市,马坡岭,细颗粒物(PM2.5),64,53,28,42,18,13,13,134,117,82,19,5,6,0.9,0.6
2026-04-30T2200,1338A,112.9448,28.1894,长沙市,湖南师范大学,,42,42,26,19,16,68,68,133,120,26,16,6,6,0.6,0.5
2026-04-30T2200,1339A,113.0177,28.1322,长沙市,雨花区环保局,,35,32,25,24,16,105,105,141,136,27,15,4,4,0.6,0.5
2026-04-30T2200,1340A,112.9795,28.2593,长沙市,伍家岭,颗粒物(PM10),68,75,32,43,19,12,12,128,103,72,18,4,4,1.2,0.7
2026-04-30T2200,1341A,113.002,28.1944,长沙市,火车新站,细颗粒物(PM2.5),68,59,28,44,18,57,57,126,112,54,21,5,5,0.7,0.4
2026-04-30T2200,1342A,112.9846,28.1177,长沙市,天心区环保局,,50,50,28,31,17,67,67,140,128,51,18,6,6,0.7,0.3
2026-04-30T2200,1343A,112.8906,28.1307,长沙市,湖南中医药大学,,48,48,30,29,17,44,44,146,122,57,26,6,6,0.7,0.6
2026-04-30T2200,1727A,113.1146,36.1547,长治市,清华站,,42,40,34,22,18,133,133,154,148,15,18,10,9,0.5,0.5
2026-04-30T2200,1730A,113.0887,36.2126,长治市,审计局,,50,50,38,27,22,133,133,156,152,16,15,10,10,0.5,0.6
2026-04-30T2200,1731A,113.0845,36.1856,长治市,长治八中,颗粒物(PM10),58,60,46,32,20,126,126,153,146,21,15,12,11,0.5,0.5
2026-04-30T2200,2845A,113.1561,36.1912,长治市,德盛苑,,44,41,34,22,22,138,138,166,156,17,14,11,11,0.5,0.5
2026-04-30T2200,3568A,113.0603,36.0464,长治市,向阳小学,颗粒物(PM10),65,70,71,23,22,136,136,155,152,21,21,10,9,0.6,0.6
2026-04-30T2200,3569A,112.8788,36.315,长治市,屯留一中,,32,29,32,22,19,99,99,143,133,20,19,8,8,0.6,0.5
2026-04-30T2200,4189A,113.113092,36.199482,长治市,英华南巷50号,,48,48,43,25,19,138,138,159,151,14,14,10,9,0.6,0.6
2026-04-30T2200,4190A,113.23666,36.33435,长治市,学府街1号,颗粒物(PM10),53,54,44,23,17,112,112,143,134,22,17,8,8,0.8,0.6
2026-04-30T2200,1854A,111.696,28.9725,常德市,市二中,颗粒物(PM10),53,54,30,22,16,118,118,127,122,9,13,11,9,0.7,0.7
2026-04-30T2200,3138A,111.7152,29.0288,常德市,武陵区永安,,45,45,32,23,16,109,109,134,128,7,9,6,8,0.6,0.6
2026-04-30T2200,3139A,111.6891,28.9881,常德市,鼎城区玉霞,,44,44,31,28,17,47,47,128,116,77,15,11,9,0.8,0.7
2026-04-30T2200,3140A,111.6651,29.0526,常德市,武陵区长庚,,44,44,32,23,18,113,113,133,129,11,12,8,9,0.7,0.7
2026-04-30T2200,1196A,119.9524,31.7586,常州市,市监测站,,50,50,57,23,31,78,78,140,128,38,22,15,7,0.7,0.7
2026-04-30T2200,1200A,119.9351,31.703,常州市,武进监测站,,49,49,47,27,27,74,74,129,116,36,22,17,8,0.8,0.6
2026-04-30T2200,3002A,119.9701,31.813,常州市,行政中心,NA,NA,73,50,23,30,NA,NA,133,133,31,23,14,7,0.4,0.4
2026-04-30T2200,3003A,120.0434,31.7726,常州市,经开区,颗粒物(PM10),51,51,56,21,25,99,99,147,139,19,17,14,6,0.7,0.7
2026-04-30T2200,3010A,119.8919,31.7892,常州市,钟楼,,46,46,52,26,28,84,84,146,132,41,29,14,8,0.5,0.5
2026-04-30T2200,3429A,119.8595,31.706,常州市,武进经发区,颗粒物(PM10),85,99,44,27,30,107,107,134,124,40,23,13,8,0.7,0.7
2026-04-30T2200,3430A,119.5812,31.7256,常州市,金坛城区,,36,32,33,25,31,103,103,132,124,14,13,18,10,0.5,0.6
2026-04-30T2200,4089A,119.9551,31.863,常州市,崇义南街5-H号,颗粒物(PM10),54,55,54,23,32,77,77,143,130,44,28,8,7,0.6,0.6
2026-04-30T2200,2220A,120.4318,41.588,朝阳市,西梁,,43,43,45,30,15,126,126,137,136,19,25,8,9,0.6,0.6
2026-04-30T2200,2221A,120.452,41.565,朝阳市,河畔小区,,45,37,35,16,13,141,141,142,142,14,13,8,8,0.5,0.4
2026-04-30T2200,2222A,120.4176,41.5648,朝阳市,八里堡,,45,45,40,29,13,119,119,139,135,25,23,9,9,0.6,0.5
2026-04-30T2200,3026A,116.6179,23.6608,潮州市,市政府,,25,21,10,17,6,42,42,65,57,11,4,20,4,0.5,0.4
2026-04-30T2200,4036A,116.646,23.676,潮州市,金山,,26,18,9,18,6,30,30,57,50,17,5,11,3,0.4,0.3
2026-04-30T2200,2473A,113.0116,25.8228,郴州市,市职中,,23,23,13,13,9,55,55,110,93,18,10,5,6,0.3,0.2
2026-04-30T2200,2475A,113.0381,25.8074,郴州市,市审计局,NA,NA,24,16,11,9,NA,NA,96,92,13,9,3,6,/,/
2026-04-30T2200,2476A,113.0348,25.7757,郴州市,市环保局,,35,30,21,24,11,43,43,105,91,32,11,6,9,0.4,0.3
2026-04-30T2200,4252A,113.0138,25.8011,郴州市,好美居路49号,,32,32,17,20,7,43,43,112,98,30,10,6,7,/,/
2026-04-30T2200,1431A,103.9727,30.7242,成都市,金泉两河,细颗粒物(PM2.5),82,74,47,51,34,69,69,103,96,27,20,8,4,0.6,0.4
2026-04-30T2200,1432A,104.1423,30.6765,成都市,十里店,颗粒物(PM10),56,58,44,36,33,82,82,101,98,18,21,6,4,0.7,0.6
2026-04-30T2200,1433A,104.0594,30.5765,成都市,三瓦窑,细颗粒物(PM2.5),60,53,42,40,33,92,92,106,106,16,21,4,3,0.5,0.8
2026-04-30T2200,1434A,104.1122,30.6306,成都市,沙河铺,细颗粒物(PM2.5),60,57,44,40,31,80,80,95,95,28,22,5,2,0.6,0.6
2026-04-30T2200,2880A,104.0219,30.6561,成都市,大石西路,细颗粒物(PM2.5),78,75,49,49,37,75,75,93,93,26,22,5,4,0.8,0.6
2026-04-30T2200,3136A,104.2724,30.559,成都市,龙泉驿区区政府,细颗粒物(PM2.5),72,66,36,46,28,68,68,104,96,27,13,8,7,0.7,0.6
2026-04-30T2200,3357A,104.0028,30.6891,成都市,金博路,细颗粒物(PM2.5),68,62,38,44,34,75,75,98,97,24,21,7,5,0.7,0.6
2026-04-30T2200,3359A,104.056,30.5228,成都市,华阳,,43,41,40,30,29,84,84,104,102,22,16,5,5,0.5,0.8
2026-04-30T2200,3488A,104.387954,30.746684,成都市,青石路225号,细颗粒物(PM2.5),92,75,40,56,35,59,59,110,97,33,17,6,6,0.8,0.6
2026-04-30T2200,3489A,104.0788,30.4054,成都市,科学城,颗粒物(PM10),52,52,42,25,26,90,90,114,108,21,11,6,5,0.5,0.6
2026-04-30T2200,4011A,103.8505,30.6946,成都市,光华大道三段,细颗粒物(PM2.5),103,93,58,63,39,69,69,101,96,21,14,5,4,0.7,0.6
2026-04-30T2200,4144A,104.3257,30.6406,成都市,八角井街185号,颗粒物(PM10),59,62,43,33,33,59,59,101,92,28,13,6,6,0.7,0.6
2026-04-30T2200,4224A,104.2433276,30.53529463,成都市,鲸龙路1057号,细颗粒物(PM2.5),72,68,39,46,28,72,72,108,101,30,15,8,7,0.7,0.6
2026-04-30T2200,1062A,117.9531,40.908,承德市,铁路,,43,43,26,25,8,76,76,117,106,19,17,3,7,0.4,0.4
2026-04-30T2200,1063A,117.9397,40.9763,承德市,中国银行,颗粒物(PM10),54,55,30,21,7,56,56,114,106,49,15,28,11,1.0,0.4
2026-04-30T2200,4073A,117.9462,40.95,承德市,杏林街1号,,41,41,31,20,12,78,78,130,121,31,15,17,8,1.0,0.5
2026-04-30T2200,4274A,117.7994,40.9605,承德市,滨河大街98号,,42,41,35,25,10,132,132,127,127,12,16,53,38,0.3,0.7
2026-04-30T2200,2314A,117.4698,30.6617,池州市,池州学院,,25,15,19,13,18,80,80,124,111,23,19,3,3,0.5,0.5
2026-04-30T2200,3237A,117.4918,30.6617,池州市,展览馆,,19,19,16,12,16,59,59,132,110,28,17,2,3,0.6,0.6
2026-04-30T2200,3333A,117.5626,30.695,池州市,第八中学,,25,12,19,10,15,78,78,123,110,28,25,3,4,0.4,0.4
2026-04-30T2200,3334A,117.5037,30.6242,池州市,第十二中学,,20,18,20,10,14,50,50,130,101,39,28,5,4,0.8,0.6
2026-04-30T2200,1744A,118.9229,42.2816,赤峰市,松山一中,颗粒物(PM10),51,51,39,6,14,84,84,109,88,17,35,6,9,0.5,0.7
2026-04-30T2200,1745A,118.9588,42.2733,赤峰市,哈达街,NA,NA,32,16,10,10,NA,NA,93,86,12,17,6,9,0.4,0.5
2026-04-30T2200,1746A,118.8792,42.2551,赤峰市,天义路,,35,35,16,10,9,82,82,108,88,12,23,5,9,0.4,0.5
2026-04-30T2200,3058A,119.2656,42.0356,赤峰市,银河街,颗粒物(PM10),60,64,43,25,16,67,67,120,102,28,23,12,15,0.6,0.6
2026-04-30T2200,3286A,118.9359,42.3146,赤峰市,桥北物流园区,,48,48,19,12,6,84,84,103,86,3,20,4,4,0.4,0.5
2026-04-30T2200,2521A,107.3473,22.4137,崇左市,市环保局江州分局,,32,26,17,14,7,102,102,106,106,12,7,3,5,0.8,0.7
2026-04-30T2200,4256A,107.375,22.3736,崇左市,石景林东路7号,,33,20,13,12,7,104,104,109,109,10,7,4,3,0.4,0.4
2026-04-30T2200,3207A,118.31131,32.3033,滁州市,市政府原办公楼,,49,39,34,34,28,98,98,130,120,15,12,5,4,0.4,0.4
2026-04-30T2200,3331A,118.3268,32.2633,滁州市,图书馆,,36,36,32,23,20,103,103,128,121,17,12,9,9,0.6,0.6
2026-04-30T2200,4101A,118.3196,32.3335,滁州市,银山路666号,,38,38,33,26,25,96,96,130,122,16,10,6,6,0.3,0.3
2026-04-30T2200,4102A,118.3426,32.2979,滁州市,黄山路555号,颗粒物(PM10),60,63,46,22,23,97,97,137,127,16,10,6,6,0.7,0.7
2026-04-30T2200,2606A,101.5379,25.0492,楚雄彝族自治州,市经济开发区,,45,45,22,24,16,80,80,83,83,9,9,2,2,0.6,0.5
2026-04-30T2200,4153A,101.5536,25.0343,楚雄彝族自治州,团结路562号,,28,24,17,19,15,88,88,89,89,6,6,4,4,0.3,0.4
2026-04-30T2200,2549A,107.5087,31.2186,达州市,市环境监测站,颗粒物(PM10),58,60,42,26,15,35,35,99,80,39,27,5,5,0.4,0.4
2026-04-30T2200,2550A,107.4988,31.2132,达州市,凤凰小区,颗粒物(PM10),55,56,44,29,15,30,30,105,79,46,26,5,5,0.6,0.4
2026-04-30T2200,2551A,107.5081,31.1987,达州市,达县机关宾馆,颗粒物(PM10),60,63,45,39,18,4,4,101,70,66,33,4,4,0.5,0.4
2026-04-30T2200,2552A,107.4644,31.2124,达州市,市政中心,颗粒物(PM10),65,71,52,33,16,17,17,109,86,67,31,5,4,0.6,0.4
2026-04-30T2200,2614A,100.2168,25.5818,大理白族自治州,大理市环境监测站,,30,18,17,10,11,95,95,96,96,11,11,4,4,0.5,0.6
2026-04-30T2200,2615A,100.1542,25.7055,大理白族自治州,大理古城,,26,NA,16,18,14,63,63,69,69,19,11,2,4,0.9,0.8
2026-04-30T2200,1109A,121.6119,38.974,大连市,甘井子,细颗粒物(PM2.5),116,139,58,77,40,62,62,126,109,65,35,12,11,0.7,0.5
2026-04-30T2200,1110A,121.565,38.9509,大连市,周水子,细颗粒物(PM2.5),135,NA,53,98,36,40,40,114,93,NA,39,8,9,1.1,0.8
2026-04-30T2200,1111A,121.5637,38.8849,大连市,星海三站,细颗粒物(PM2.5),130,111,61,92,41,96,96,130,130,37,29,6,7,0.9,0.6
2026-04-30T2200,1112A,121.6301,38.9117,大连市,青泥洼桥,细颗粒物(PM2.5),92,77,52,56,35,111,111,143,135,36,26,6,8,0.8,0.6
2026-04-30T2200,1113A,121.6248,38.8643,大连市,傅家庄,细颗粒物(PM2.5),110,109,59,70,40,158,158,143,143,19,24,10,9,0.7,0.5
2026-04-30T2200,1114A,121.5117,38.8636,大连市,七贤岭,细颗粒物(PM2.5),88,94,53,54,32,82,82,115,107,36,29,7,7,0.7,0.5
2026-04-30T2200,1116A,121.7507,39.1339,大连市,金州,细颗粒物(PM2.5),133,128,45,96,31,86,86,151,138,50,21,11,11,0.8,0.5
2026-04-30T2200,1117A,121.7811,39.0495,大连市,开发区,细颗粒物(PM2.5),128,110,52,90,38,119,119,138,135,50,43,11,10,0.6,0.6
2026-04-30T2200,1118A,121.9762,39.0631,大连市,双D港,细颗粒物(PM2.5),116,85,47,77,39,94,94,94,94,30,35,6,7,0.7,0.6
2026-04-30T2200,4082A,121.2548,38.8188,大连市,旅顺,细颗粒物(PM2.5),109,82,49,69,35,127,127,169,165,47,24,8,8,0.7,0.6
2026-04-30T2200,1789A,124.8085,46.0381,大庆市,大同区,颗粒物(PM10),60,64,120,29,17,85,85,110,102,10,7,1,2,0.4,0.4
2026-04-30T2200,1790A,125.1166,46.5255,大庆市,龙凤区,颗粒物(PM10),63,67,112,32,28,75,75,92,88,10,10,6,7,0.2,0.3
2026-04-30T2200,1791A,124.8894,46.4007,大庆市,红岗区,细颗粒物(PM2.5),102,89,107,62,36,73,73,97,90,11,8,10,10,0.5,0.3
2026-04-30T2200,1792A,125.1391,46.578,大庆市,萨尔图区,颗粒物(PM10),55,57,106,26,20,83,83,98,93,10,12,7,9,0.3,0.4
2026-04-30T2200,1793A,124.9026,46.6217,大庆市,让胡路区,细颗粒物(PM2.5),74,69,97,47,21,68,68,94,88,15,8,1,2,0.5,0.3
2026-04-30T2200,3481A,125.127,46.6277,大庆市,萨区政府监测点,颗粒物(PM10),61,65,119,32,22,76,76,100,93,4,5,9,11,0.4,0.4
2026-04-30T2200,1723A,113.2926,40.0759,大同市,云冈宾馆,颗粒物(PM10),57,59,80,20,24,94,94,136,130,34,40,10,11,0.7,1.2
2026-04-30T2200,1724A,113.3437,40.0921,大同市,大同大学,颗粒物(PM10),68,74,75,30,26,72,72,133,122,55,32,8,10,0.6,0.6
2026-04-30T2200,1725A,113.2637,40.129,大同市,安家小村,颗粒物(PM10),52,52,79,18,21,90,90,133,127,35,33,11,11,1.6,1.1
2026-04-30T2200,3282A,113.3399,40.0586,大同市,大同市卫生学校,颗粒物(PM10),77,87,71,35,23,78,78,142,132,48,34,9,11,0.6,0.8
2026-04-30T2200,3565A,113.1371,40.1122,大同市,云冈站,颗粒物(PM10),60,64,62,17,17,62,62,135,118,34,30,10,10,0.3,0.4
2026-04-30T2200,3566A,113.1186,40.2556,大同市,图书馆,颗粒物(PM10),117,164,60,3,18,59,59,132,117,12,15,4,6,NA,0.6
2026-04-30T2200,3567A,113.5931,40.0459,大同市,区一中,颗粒物(PM10),66,72,63,22,20,56,56,146,125,26,20,3,3,0.5,0.5
2026-04-30T2200,4199A,113.2798248,40.09972476,大同市,魏都大道141号,颗粒物(PM10),52,52,104,27,26,87,87,127,120,31,39,12,13,0.5,1.4
2026-04-30T2200,2269A,124.1068,50.4091,大兴安岭地区,科技局,,28,20,108,8,76,89,89,94,92,1,12,5,9,0.2,0.5
2026-04-30T2200,3663A,124.117,50.4279,大兴安岭地区,红旗社区,,30,7,74,3,69,94,94,100,98,4,17,6,8,0.2,0.5
2026-04-30T2200,1600A,124.33,40.0625,丹东市,江湾东路,细颗粒物(PM2.5),88,92,60,54,32,31,31,136,105,54,21,16,11,0.6,0.7
2026-04-30T2200,1601A,124.4242,40.1513,丹东市,临江后街,细颗粒物(PM2.5),102,108,48,62,28,59,59,131,106,27,16,11,8,1.0,0.4
2026-04-30T2200,1602A,124.3935,40.1461,丹东市,元宝山,细颗粒物(PM2.5),92,85,49,56,28,58,58,130,107,34,18,10,8,0.7,0.6
2026-04-30T2200,1603A,124.3634,40.1093,丹东市,民主桥,细颗粒物(PM2.5),103,99,63,63,35,52,52,129,105,37,29,12,9,0.7,0.8
2026-04-30T2200,3541A,109.5726195,19.51688767,儋州市,第一中学子站,,37,37,19,22,10,82,82,90,90,8,5,4,4,0.5,0.5
2026-04-30T2200,3542A,109.5567,19.5187,儋州市,东坡学校子站,,35,30,25,24,9,90,90,99,99,8,5,5,4,0.5,0.5
2026-04-30T2200,2616A,98.5611,24.4273,德宏傣族景颇族自治州,德宏州监测站,,30,24,29,21,28,47,47,81,73,11,11,7,7,0.7,1
2026-04-30T2200,3677A,98.5887,24.4366,德宏傣族景颇族自治州,芒市人民政府综合楼,颗粒物(PM10),51,51,59,28,30,46,46,82,72,12,12,3,3,0.9,0.9
2026-04-30T2200,1901A,104.424,31.1209,德阳市,东山公园,细颗粒物(PM2.5),96,NA,29,58,32,78,78,88,85,13,9,3,4,0.6,0.5
2026-04-30T2200,1902A,104.3827,31.1318,德阳市,西小区,细颗粒物(PM2.5),100,64,41,60,34,66,66,84,76,22,17,5,4,0.6,0.5
2026-04-30T2200,1904A,104.3553,31.1091,德阳市,耐火材料厂,细颗粒物(PM2.5),104,75,46,64,36,64,64,94,85,24,23,9,3,0.5,0.5
2026-04-30T2200,4145A,104.4144,31.1495,德阳市,市林业局,细颗粒物(PM2.5),130,NA,35,93,39,77,77,97,90,22,19,3,4,0.6,0.4
2026-04-30T2200,1622A,116.3034,37.4675,德州市,儿童乐园,颗粒物(PM10),67,73,60,27,32,136,136,165,156,18,15,8,9,0.6,0.5
2026-04-30T2200,1624A,116.2992,37.4449,德州市,监理站,颗粒物(PM10),65,70,58,31,26,134,134,159,152,20,15,11,11,0.4,0.4
2026-04-30T2200,3066A,116.2722,37.438,德州市,九衢泉纯净水厂,颗粒物(PM10),60,63,55,33,30,114,114,155,136,34,29,7,8,0.7,0.6
2026-04-30T2200,3371A,116.3693,37.44,德州市,开发区人民医院,颗粒物(PM10),67,73,59,39,29,120,120,157,150,24,21,11,12,0.5,0.5
2026-04-30T2200,3511A,116.5687,37.3331,德州市,陵城艺术中心,颗粒物(PM10),68,75,57,38,32,118,118,154,146,21,20,16,16,0.7,0.7
2026-04-30T2200,4292A,116.352738,37.420875,德州市,新河东路,颗粒物(PM10),78,88,57,40,28,96,96,156,142,34,26,9,11,0.8,0.7
2026-04-30T2200,2621A,99.7054,27.8319,迪庆藏族自治州,迪庆州站,,26,25,17,10,9,82,82,87,87,14,10,7,7,0.3,0.2
2026-04-30T2200,3180A,99.7122,27.8129,迪庆藏族自治州,质量技术监督局,,30,15,13,11,8,95,95,96,96,8,9,8,8,0.5,0.5
2026-04-30T2200,4257A,104.6092,35.5962,定西市,将台街,,38,38,47,16,13,90,90,94,91,6,6,3,3,0.1,0.1
2026-04-30T2200,4309A,104.6159,35.5701,定西市,正龙路62号,,43,43,45,9,15,90,90,89,89,7,8,2,2,0.2,0.2
2026-04-30T2200,4071A,114.9883,38.5232,定州市,交通局,颗粒物(PM10),71,79,80,18,24,134,134,164,155,20,21,9,6,0.7,0.5
2026-04-30T2200,4072A,115.0045,38.5136,定州市,第五中学,颗粒物(PM10),83,96,78,25,22,106,106,157,147,32,21,6,5,0.6,0.5
2026-04-30T2200,1390A,113.7943,23.0132,东莞市,东城石井,,27,23,10,12,5,85,85,109,100,21,15,6,6,0.7,0.6
2026-04-30T2200,1391A,113.7384,22.9659,东莞市,南城西平,,25,18,9,10,4,80,80,107,98,18,13,5,4,0.4,0.4
2026-04-30T2200,3319A,113.7283,23.041,东莞市,万江金泰,,24,22,10,8,4,75,75,98,93,15,9,7,6,0.2,0.2
2026-04-30T2200,4129A,113.8666,23.1062,东莞市,裕兴路,,25,22,10,11,4,78,78,101,92,16,9,8,7,0.6,0.5
2026-04-30T2200,4130A,114.0076,22.9739,东莞市,教育路1号,,26,23,18,11,7,82,82,111,102,18,12,4,6,0.4,0.4
2026-04-30T2200,4131A,113.7981,22.8124,东莞市,长怡路1号,,38,38,18,16,7,71,71,129,112,29,15,7,7,0.6,0.6
2026-04-30T2200,1666A,118.6612,37.4313,东营市,市环保局,颗粒物(PM10),56,58,50,26,24,92,92,160,144,43,38,9,12,0.4,0.4
2026-04-30T2200,3036A,118.6903,37.4337,东营市,开发区管委会,,46,46,54,23,26,127,127,157,148,25,47,7,9,0.4,0.5
2026-04-30T2200,3365A,118.5721,37.5654,东营市,垦利区民丰路,颗粒物(PM10),58,61,43,24,24,94,94,169,152,36,29,12,12,0.6,0.5
2026-04-30T2200,3498A,118.5063,37.8606,东营市,河口城区,颗粒物(PM10),72,80,41,35,21,116,116,172,158,18,19,9,9,0.6,0.6
2026-04-30T2200,3646A,118.4979,37.4623,东营市,胜利站,,49,49,44,29,26,84,84,148,132,47,38,7,9,0.6,0.7
2026-04-30T2200,3734A,118.5753,37.4405,东营市,理想之城,颗粒物(PM10),55,56,57,24,27,48,48,139,121,75,49,6,8,0.5,0.6
2026-04-30T2200,1591A,110.0024,39.8127,鄂尔多斯市,综合楼,颗粒物(PM10),68,75,52,22,20,112,112,145,139,30,21,7,8,0.6,0.5
2026-04-30T2200,1592A,109.9485,39.8259,鄂尔多斯市,巴音孟克林场办事处,颗粒物(PM10),67,73,45,29,16,122,122,148,144,24,17,7,7,0.5,0.4
2026-04-30T2200,1593A,109.7734,39.5987,鄂尔多斯市,康泽苑,颗粒物(PM10),56,58,47,16,17,124,124,155,145,16,14,10,10,0.4,0.4
2026-04-30T2200,1594A,109.8121,39.5987,鄂尔多斯市,华泰汽车城,,46,46,43,22,14,112,112,151,137,18,25,6,6,0.4,0.4
2026-04-30T2200,1595A,109.9734,39.7884,鄂尔多斯市,奥林花园,颗粒物(PM10),75,85,57,23,16,78,78,143,129,57,32,8,7,0.5,0.4
2026-04-30T2200,2436A,114.894,30.3989,鄂州市,市政府,颗粒物(PM10),58,60,41,30,21,107,107,138,128,30,25,10,13,0.5,0.7
2026-04-30T2200,2437A,114.8986,30.3714,鄂州市,赵家坝,颗粒物(PM10),51,51,34,27,19,108,108,149,139,12,9,11,15,0.7,0.6
2026-04-30T2200,3654A,114.8093,30.4091,鄂州市,精准医疗中心,细颗粒物(PM2.5),54,54,50,37,24,81,81,122,117,40,14,16,8,1.0,0.7
2026-04-30T2200,2454A,109.4978,30.2979,恩施土家族苗族自治州,湖北民院,,45,36,30,31,16,84,84,107,102,13,9,9,8,0.4,0.3
2026-04-30T2200,3549A,109.5061,30.3771,恩施土家族苗族自治州,龙凤新区,,45,43,29,31,16,35,35,99,79,10,7,7,7,0.5,0.5
2026-04-30T2200,2499A,108.3411,21.6159,防城港市,沙万,,37,37,19,20,9,87,87,96,95,20,9,7,5,0.7,0.4
2026-04-30T2200,2500A,108.3515,21.7733,防城港市,防城档案局,,50,50,25,26,10,67,67,109,104,23,8,7,7,0.4,0.4
2026-04-30T2200,2501A,108.3506,21.6414,防城港市,大海花园,,40,NA,17,28,13,90,90,111,110,25,7,14,7,1.4,0.5
2026-04-30T2200,1371A,113.1293,23.0065,佛山市,湾梁,,26,19,11,18,12,80,80,108,100,18,12,/,/,/,/
2026-04-30T2200,1372A,113.1082,23.0477,佛山市,华材职中,,29,29,17,17,10,71,71,104,93,25,13,4,4,0.5,0.4
2026-04-30T2200,1373A,113.1439,23.045,佛山市,南海气象局,,24,NA,20,15,8,74,74,110,102,24,14,/,/,/,/
2026-04-30T2200,1374A,113.2879,22.8094,佛山市,顺德苏岗,,24,18,7,15,7,75,75,125,118,20,12,/,/,0.6,0.6
2026-04-30T2200,1376A,112.8384,22.8678,佛山市,高明孔堂,,24,24,17,14,10,58,58,102,91,20,17,/,/,/,/
2026-04-30T2200,1377A,112.8835,23.1584,佛山市,三水监测站,,24,14,10,10,7,75,75,84,80,17,15,2,3,0.5,0.5
2026-04-30T2200,1378A,112.8668,23.185,佛山市,三水云东海,,41,41,23,14,7,43,43,83,69,22,13,/,/,/,/
2026-04-30T2200,3625A,113.2568,22.7629,佛山市,容桂街道办,,21,19,11,13,7,65,65,123,114,33,19,/,/,/,/
2026-04-30T2200,1282A,119.2681,26.0506,福州市,师大,,27,21,12,7,5,84,84,76,75,16,13,4,3,0.4,0.4
2026-04-30T2200,1283A,119.2983,26.1028,福州市,五四北路,,24,19,12,9,4,75,75,72,64,19,18,4,4,0.3,0.3
2026-04-30T2200,1284A,119.2648,26.0769,福州市,杨桥西路,,25,20,12,6,4,79,79,76,70,16,14,4,3,/,/
2026-04-30T2200,3048A,119.5799,26.0937,福州市,九龙,,34,12,8,3,0,108,108,100,100,9,11,5,5,0.2,0.2
2026-04-30T2200,3526A,119.5188,25.9666,福州市,吴航,,22,12,7,7,4,70,70,88,84,18,11,5,5,0.3,0.2
2026-04-30T2200,4104A,119.3106,26.0648,福州市,路通桥巷6号,,24,20,11,14,8,75,75,73,70,19,14,/,/,/,/
2026-04-30T2200,1755A,123.7974,41.8494,抚顺市,望花区,颗粒物(PM10),63,68,55,30,22,84,84,141,130,42,26,20,16,0.6,0.7
2026-04-30T2200,1756A,123.9161,41.8827,抚顺市,顺城区,颗粒物(PM10),57,59,43,29,22,87,87,137,126,39,31,18,12,0.8,0.7
2026-04-30T2200,1757A,124.0437,41.8615,抚顺市,东洲区,颗粒物(PM10),63,68,37,37,17,92,92,135,126,27,18,13,10,1.8,0.7
2026-04-30T2200,1758A,123.9246,41.8638,抚顺市,新抚区,颗粒物(PM10),70,78,45,36,21,96,96,149,139,31,25,18,11,1.0,0.7
2026-04-30T2200,1759A,124.0972,41.8961,抚顺市,大伙房水库,颗粒物(PM10),56,58,39,24,12,88,88,138,125,31,18,12,10,0.9,0.6
2026-04-30T2200,1760A,123.708,41.8386,抚顺市,沈抚新城,颗粒物(PM10),51,51,52,28,22,95,95,143,135,31,30,11,19,0.6,1
2026-04-30T2200,2377A,116.3544,27.9833,抚州市,市站,,30,24,15,20,10,94,94,112,110,11,5,54,6,0.5,0.5
2026-04-30T2200,2378A,116.3562,27.9631,抚州市,血防站,,31,25,21,17,10,98,98,122,119,13,5,24,10,0.4,0.6
2026-04-30T2200,2379A,116.3561,28.0007,抚州市,采茶剧团,,33,27,17,23,10,96,96,117,114,16,6,29,9,0.7,0.6
2026-04-30T2200,2380A,116.3854,27.9648,抚州市,医学分院,,36,36,23,10,8,106,106,117,116,6,4,13,9,0.7,0.6
2026-04-30T2200,2207A,121.6095,41.9978,阜新市,工业园区,细颗粒物(PM2.5),64,54,54,42,27,138,138,148,148,14,23,13,12,0.8,0.5
2026-04-30T2200,2208A,121.6567,42.0188,阜新市,长青街,细颗粒物(PM2.5),56,52,39,38,23,150,150,150,150,18,21,13,11,0.6,0.6
2026-04-30T2200,2209A,121.6672,42.07,阜新市,农业园区,颗粒物(PM10),58,61,50,38,23,155,155,150,150,15,18,9,11,0.7,0.6
2026-04-30T2200,2211A,121.6343,42.0455,阜新市,玉龙新城,细颗粒物(PM2.5),72,58,53,46,24,137,137,149,149,21,26,13,12,0.8,0.6
2026-04-30T2200,2301A,115.8276,32.8929,阜阳市,市监测站,,45,45,38,21,16,112,112,132,128,14,10,6,6,0.5,0.4
2026-04-30T2200,2303A,115.8551,32.8606,阜阳市,开发区,颗粒物(PM10),58,60,44,24,19,103,103,125,120,17,13,5,5,0.5,0.4
2026-04-30T2200,2875A,115.783962,32.889217,阜阳市,阜阳职业技术学院,,41,41,39,19,18,124,124,131,127,13,12,7,7,0.4,0.3
2026-04-30T2200,3468A,115.79,32.8614,阜阳市,市规划展馆,,37,34,39,20,16,116,116,134,132,11,8,8,7,0.6,0.5
2026-04-30T2200,3469A,115.835101,32.918568,阜阳市,枣园社区,,49,49,36,23,17,110,110,129,121,17,14,7,6,0.5,0.5
2026-04-30T2200,2669A,102.9097,34.9841,甘南藏族自治州,州政府,,26,26,35,18,14,76,76,99,94,9,18,6,6,0.3,0.3
2026-04-30T2200,3380A,102.8915,34.9618,甘南藏族自治州,甘肃民族师范学院,,39,30,38,27,13,25,25,118,83,13,18,1,3,0.3,0.3
2026-04-30T2200,2570A,101.96,30.048,甘孜藏族自治州,水桥子,,15,15,11,3,3,36,36,57,55,20,19,6,6,0.3,0.3
2026-04-30T2200,3065A,101.9534,29.9976,甘孜藏族自治州,州环保局,,17,17,12,10,4,48,48,60,59,15,22,7,6,0.2,0.4
2026-04-30T2200,2363A,114.9368,25.8663,赣州市,地委,,29,29,18,10,7,62,62,95,88,12,4,2,2,0.4,0.4
2026-04-30T2200,2364A,114.946,25.8483,赣州市,气象台,,33,33,22,7,11,63,63,90,85,20,9,4,5,0.3,0.4
2026-04-30T2200,2365A,114.932,25.8332,赣州市,市图书馆,,26,15,16,9,13,81,81,101,96,15,8,3,4,0.2,0.1
2026-04-30T2200,2366A,114.8905,25.8472,赣州市,华坚鞋城,,21,20,22,13,10,66,66,90,84,20,10,7,6,0.3,0.1
2026-04-30T2200,3109A,115.0094,25.8614,赣州市,赣县区卫计委,,21,17,13,11,9,66,66,86,82,13,6,3,3,0.3,0.5
2026-04-30T2200,2684A,106.2753,36.0057,固原市,监测站,,38,38,42,18,22,82,82,110,104,11,9,7,6,0.3,0.3
2026-04-30T2200,2685A,106.2384,36.0189,固原市,新区,,26,21,45,12,19,83,83,105,99,9,8,5,5,0.4,0.5
2026-04-30T2200,2544A,106.6307,30.4577,广安市,市委,细颗粒物(PM2.5),82,71,30,51,20,46,46,123,103,47,17,8,7,0.7,0.4
2026-04-30T2200,2545A,106.6266,30.4662,广安市,友谊中学,,45,45,25,28,16,43,43,116,98,31,13,7,7,0.7,0.5
2026-04-30T2200,2547A,106.6386,30.4551,广安市,广电花园,细颗粒物(PM2.5),56,57,28,38,20,36,36,116,93,48,19,7,7,0.8,0.5
2026-04-30T2200,2902A,106.6347,30.4868,广安市,北辰小学,颗粒物(PM10),55,56,32,37,18,61,61,118,106,18,12,6,8,0.4,0.4
2026-04-30T2200,2524A,105.8211,32.4444,广元市,老城,颗粒物(PM10),51,51,41,26,16,27,27,90,75,40,24,2,4,0.5,0.5
2026-04-30T2200,2526A,105.8629,32.429,广元市,监测站,,45,45,43,10,13,54,54,80,72,16,18,4,5,0.4,0.5
2026-04-30T2200,3617A,105.8047,32.4167,广元市,经开区,,34,34,39,20,19,61,61,80,77,18,20,4,8,0.5,0.6
2026-04-30T2200,1345A,113.2346,23.1423,广州市,广雅中学,,34,34,18,21,11,64,64,102,89,41,24,3,3,0.7,0.6
2026-04-30T2200,1346A,113.2611,23.105,广州市,市五中,NA,NA,23,11,16,7,NA,NA,122,117,30,17,4,4,/,/
2026-04-30T2200,1348A,113.3477,23.0916,广州市,广东商学院,,24,24,11,9,4,71,71,110,101,32,17,5,5,0.7,0.6
2026-04-30T2200,1349A,113.4332,23.105,广州市,市八十六中,,22,22,14,12,8,68,68,98,90,27,16,6,6,/,/
2026-04-30T2200,1350A,113.3506,22.9488,广州市,番禺中学,NA,NA,27,12,19,8,67,67,119,109,NA,18,NA,5,0.5,0.4
2026-04-30T2200,1351A,113.2147,23.3918,广州市,花都师范,,25,23,10,15,7,78,78,98,96,24,13,8,7,0.7,0.7
2026-04-30T2200,1352A,113.2599,23.1329,广州市,市监测站,,30,30,17,16,9,64,64,106,94,32,11,3,3,/,/
2026-04-30T2200,1353A,113.5618,23.3119,广州市,九龙镇镇龙,,27,27,6,13,4,66,66,91,86,17,10,6,5,0.5,0.4
2026-04-30T2200,1354A,113.2764,23.1544,广州市,麓湖,,24,24,14,14,8,52,52,104,89,29,14,6,6,0.6,0.6
2026-04-30T2200,2846A,113.3209,23.1323,广州市,体育西,,29,29,15,19,11,74,74,106,99,29,17,6,6,0.6,0.5
2026-04-30T2200,3298A,113.5718,23.5493,广州市,从化街口,,42,NA,9,29,8,47,47,92,81,31,9,5,6,0.6,0.5
2026-04-30T2200,3299A,113.3463,23.369,广州市,白云竹料,,30,30,12,18,7,57,57,100,91,31,10,4,4,0.7,0.5
2026-04-30T2200,3300A,113.2981,23.2365,广州市,白云嘉禾,,29,29,15,14,7,49,49,101,91,49,16,9,8,/,/
2026-04-30T2200,3301A,113.4256,23.1716,广州市,黄埔科学城,,23,23,10,12,6,64,64,86,81,19,10,5,4,0.7,0.6
2026-04-30T2200,3302A,113.3942,23.0485,广州市,番禺大学城,,27,27,10,11,5,78,78,114,108,27,15,7,6,0.3,0.3
2026-04-30T2200,3303A,113.4923,22.8169,广州市,南沙黄阁,,40,40,20,16,9,73,73,128,119,34,22,7,7,/,/
2026-04-30T2200,3304A,113.534,22.7893,广州市,南沙街,,33,33,17,15,8,77,77,132,122,33,22,8,9,0.5,0.4
2026-04-30T2200,3443A,113.2905,23.5541,广州市,花都梯面,,18,18,10,12,7,23,23,91,77,35,11,7,8,/,/
2026-04-30T2200,3445A,113.786,23.7479,广州市,从化良口,,21,10,6,6,4,66,66,94,87,7,6,4,4,/,/
2026-04-30T2200,3446A,113.805,23.2614,广州市,增城荔城,,25,9,7,6,4,79,79,91,86,10,8,7,6,0.5,0.4
2026-04-30T2200,2506A,109.604387,23.066791,贵港市,江南子站,,44,44,17,25,8,77,77,106,101,26,11,7,7,0.7,0.5
2026-04-30T2200,2508A,109.5669,23.1065,贵港市,荷城子站,,34,34,14,21,9,69,69,99,94,23,10,4,4,0.7,0.6
2026-04-30T2200,3405A,109.5886,23.1172,贵港市,新世纪学校,,34,34,16,20,9,64,64,104,99,28,10,/,/,0.4,0.3
2026-04-30T2200,4260A,109.5933,23.095,贵港市,中山路155-3号,,40,40,18,26,9,77,77,110,107,22,9,/,/,0.4,0.3
2026-04-30T2200,1439A,106.6863,26.6035,贵阳市,马鞍山,,33,27,25,23,15,69,69,99,88,15,12,6,5,/,/
2026-04-30T2200,1441A,106.6241,26.6266,贵阳市,鉴湖路,,44,44,41,22,17,78,78,109,99,14,14,7,6,0.7,0.6
2026-04-30T2200,1442A,106.7468,26.6344,贵阳市,燕子冲,,36,36,31,8,14,72,72,103,93,13,12,8,12,0.6,0.6
2026-04-30T2200,1443A,106.6556,26.4362,贵阳市,碧云窝,,39,39,39,21,15,83,83,103,96,9,11,8,7,/,/
2026-04-30T2200,1445A,106.6963,26.6063,贵阳市,红边门,,36,36,32,10,14,69,69,101,87,22,17,5,5,/,/
2026-04-30T2200,1446A,106.7162383,26.56964667,贵阳市,新华路,,41,41,38,16,17,76,76,116,100,19,14,6,11,0.2,0.3
2026-04-30T2200,1447A,106.6742,26.542,贵阳市,太慈桥,,36,36,31,17,15,64,64,90,84,12,12,5,4,/,/
2026-04-30T2200,4230A,106.688212,26.56952,贵阳市,花果园大街66号,,25,22,20,17,14,72,72,99,92,14,13,4,3,/,/
2026-04-30T2200,4231A,106.687268,26.516892,贵阳市,漓江路57号,,29,29,24,19,17,66,66,92,83,18,17,8,6,0.7,0.7
2026-04-30T2200,1864A,110.3091,25.2705,桂林市,龙隐路小学,,32,32,18,16,10,80,80,113,108,12,6,4,4,0.4,0.4
2026-04-30T2200,1865A,110.2849361,25.22909545,桂林市,八中,,31,31,20,11,8,67,67,98,92,30,11,4,4,0.6,0.5
2026-04-30T2200,3531A,110.296,25.1254,桂林市,旅游学院,NA,NA,43,25,32,10,NA,NA,113,112,12,6,7,6,0.4,0.6
2026-04-30T2200,4222A,110.1835,25.2444,桂林市,环湖路276号,,39,36,18,27,11,93,93,112,109,17,7,8,5,0.5,0.4
2026-04-30T2200,4301A,110.2803,25.2773,桂林市,信义路13号,,33,23,19,23,12,96,96,113,111,19,10,6,5,0.5,0.5
2026-04-30T2200,2674A,100.2262,34.4854,果洛藏族自治州,玛沁县大武镇,,28,22,31,3,12,89,89,104,98,1,4,18,20,0.3,0.4
2026-04-30T2200,1130A,126.5557,45.8109,哈尔滨市,松北商大,颗粒物(PM10),104,130,78,61,21,76,76,116,103,13,16,6,6,0.7,0.6
2026-04-30T2200,1132A,126.6162,45.719,哈尔滨市,南岗学府路,颗粒物(PM10),102,123,113,54,22,85,85,118,111,17,22,6,5,0,0.1
2026-04-30T2200,1133A,126.6894,45.7733,哈尔滨市,太平宏伟公园,颗粒物(PM10),117,162,111,65,28,79,79,113,108,18,30,6,10,0.7,0.7
2026-04-30T2200,1134A,126.6361,45.7672,哈尔滨市,道外承德广场,颗粒物(PM10),125,185,132,57,19,79,79,108,104,18,29,8,8,0.7,0.6
2026-04-30T2200,1136A,126.644,45.7261,哈尔滨市,动力和平路,颗粒物(PM10),111,147,94,54,19,92,92,118,113,16,25,6,8,0.3,0.3
2026-04-30T2200,1137A,126.5933,45.7479,哈尔滨市,道里建国路,颗粒物(PM10),106,134,86,54,24,87,87,107,101,13,27,8,11,0,0.1
2026-04-30T2200,1138A,126.6127,45.6119,哈尔滨市,平房东轻厂,NA,NA,NA,70,NA,21,NA,NA,120,113,19,14,9,11,0.5,0.5
2026-04-30T2200,1139A,126.5875,45.9827,哈尔滨市,呼兰师专,NA,NA,120,116,55,21,NA,NA,123,109,14,23,10,11,0.5,0.3
2026-04-30T2200,1140A,126.6299,45.6799,哈尔滨市,省农科院,颗粒物(PM10),120,170,154,60,25,95,95,113,106,11,22,7,7,0.4,0.3
2026-04-30T2200,4282A,126.6769,45.7379,哈尔滨市,华山路1号,颗粒物(PM10),125,183,110,50,21,89,89,114,111,11,25,2,18,0.5,0.5
2026-04-30T2200,4283A,126.9717,45.5356,哈尔滨市,解放大街52号,颗粒物(PM10),111,148,75,40,12,79,79,119,108,18,14,9,7,0.6,0.5
2026-04-30T2200,2688A,93.5124,42.8176,哈密市,地区监测站,,30,11,40,9,18,93,93,115,110,5,5,9,11,0.0,0
2026-04-30T2200,2689A,93.5014,42.8312,哈密市,哈密师范学校,,30,30,44,20,19,92,92,119,113,12,7,11,11,0,0.1
2026-04-30T2200,2671A,100.9016,36.9464,海北藏族自治州,海晏县西海镇,,38,32,31,25,20,121,121,136,NA,1,5,14,9,0.5,0.5
2026-04-30T2200,3867A,102.074,36.5056,海东市,平安区公安局北苑,,38,32,47,22,30,121,121,135,133,8,11,9,14,0.5,0.6
2026-04-30T2200,4163A,102.0984,36.5119,海东市,滨河路,,35,32,38,24,24,99,99,104,103,14,25,8,15,0.6,0.7
2026-04-30T2200,1410A,110.3189,20.0596,海口市,海南大学,,35,22,16,11,8,111,111,109,109,5,7,6,7,0.5,0.4
2026-04-30T2200,1411A,110.2827,20.0051,海口市,秀英海南医院,,32,19,16,14,10,100,100,99,99,6,10,6,6,0.4,0.4
2026-04-30T2200,1412A,110.3391,19.9979,海口市,海南师范大学,,33,20,19,11,9,104,104,103,103,6,7,4,5,0.5,0.5
2026-04-30T2200,1413A,110.3303,20.0359,海口市,龙华路环保局宿舍,,34,21,17,11,9,107,107,107,107,8,7,/,/,0.6,0.3
2026-04-30T2200,3539A,110.5111,19.9737,海口市,桂林洋子站,,32,32,21,14,10,94,94,98,98,8,7,/,/,/,/
2026-04-30T2200,4134A,110.1952,20.0451,海口市,长滨二路9号,,32,20,17,11,10,101,101,104,104,4,6,/,/,/,/
2026-04-30T2200,2673A,100.6158,36.2985,海南藏族自治州,共和县恰卜恰镇,,37,28,29,23,14,118,118,136,134,6,10,15,14,0.4,0.3
2026-04-30T2200,2676A,97.373,37.376,海西蒙古族藏族自治州,德令哈市,颗粒物(PM10),59,62,21,26,14,155,155,160,159,1,2,15,17,0.3,0.3
2026-04-30T2200,1049A,114.492,36.5712,邯郸市,矿院,细颗粒物(PM2.5),68,65,44,44,25,122,122,184,172,15,14,6,10,0.6,0.7
2026-04-30T2200,1050A,114.4839,36.6136,邯郸市,丛台公园,细颗粒物(PM2.5),64,57,38,42,21,127,127,177,167,14,14,5,9,0.5,0.6
2026-04-30T2200,3458A,114.7893,36.5592,邯郸市,香泉濮院小区,颗粒物(PM10),70,77,54,39,31,125,125,168,162,18,16,4,7,0.6,0.6
2026-04-30T2200,3580A,114.1998,36.4439,邯郸市,峰峰矿区临水派出所,颗粒物(PM10),55,56,46,34,24,141,141,179,169,11,10,8,8,0.6,0.7
2026-04-30T2200,4068A,114.5209,36.7697,邯郸市,建安街268号,颗粒物(PM10),68,74,49,40,20,122,122,169,164,20,15,3,5,0.3,0.5
2026-04-30T2200,4069A,114.5488,36.6177,邯郸市,丛台东路558号,细颗粒物(PM2.5),64,66,42,42,18,100,100,174,157,34,18,12,9,0.9,0.6
2026-04-30T2200,2635A,107.0155,33.0707,汉中市,市监测站,,32,30,42,22,23,69,69,104,92,15,14,4,5,0.5,0.5
2026-04-30T2200,2636A,107.0083,33.114,汉中市,鑫源开发区,,26,23,39,13,18,83,83,107,97,10,13,5,5,0.5,0.5
2026-04-30T2200,2637A,107.0072,33.0323,汉中市,南郑大河坎水厂,细颗粒物(PM2.5),56,53,41,38,19,50,50,101,84,16,13,3,4,0.4,0.4
2026-04-30T2200,1223A,120.2073,30.2111,杭州市,滨江,颗粒物(PM10),55,57,24,31,16,60,60,138,122,56,12,8,8,1.1,0.9
2026-04-30T2200,1224A,120.0625,30.2737,杭州市,西溪,,29,29,24,12,13,36,36,126,100,19,9,5,5,0.6,0.5
2026-04-30T2200,1226A,120.3417,30.315,杭州市,下沙,二氧化氮(NO2),57,55,38,26,19,23,23,129,102,114,26,9,9,0.6,0.5
2026-04-30T2200,1227A,120.1252,30.2465,杭州市,卧龙桥,,20,20,22,10,13,35,35,128,91,14,12,8,8,0.5,0.4
2026-04-30T2200,1228A,120.1902,30.2691,杭州市,浙江农大,颗粒物(PM10),53,54,27,29,20,58,58,127,108,61,22,8,8,0.5,0.3
2026-04-30T2200,1230A,120.1195,30.3121,杭州市,和睦小学,颗粒物(PM10),52,52,20,34,16,67,67,126,111,52,18,7,7,0.6,0.5
2026-04-30T2200,1231A,120.3076,30.4146,杭州市,临平镇,颗粒物(PM10),58,60,29,34,21,40,40,139,116,79,22,8,7,0.7,0.4
2026-04-30T2200,1232A,120.2753,30.1839,杭州市,城厢镇,颗粒物(PM10),53,54,26,27,17,55,55,127,107,51,20,7,6,0.6,0.4
2026-04-30T2200,1233A,120.0883,30.1808,杭州市,云栖,,19,19,22,8,13,59,59,122,100,19,16,6,7,0.5,0.5
2026-04-30T2200,3557A,119.9463,30.0496,杭州市,镇二中,,32,29,18,22,17,64,64,122,106,27,13,6,5,0.5,0.5
2026-04-30T2200,3558A,119.7184,30.2367,杭州市,市府大楼,颗粒物(PM10),53,54,17,34,16,50,50,117,102,26,12,7,7,0.6,0.4
2026-04-30T2200,3656A,120.1554,30.2863,杭州市,消防大队,颗粒物(PM10),67,73,38,30,19,73,73,130,114,38,13,5,5,0.6,0.4
2026-04-30T2200,1270A,117.1957,31.7845,合肥市,明珠广场,,36,36,30,14,14,95,95,130,120,23,18,8,7,0.5,0.5
2026-04-30T2200,1271A,117.307,31.8765,合肥市,三里街,,36,36,30,15,15,62,62,110,99,53,24,6,6,0.4,0.4
2026-04-30T2200,1272A,117.2587,31.8703,合肥市,琥珀山庄,,31,31,33,12,15,87,87,123,115,28,18,8,8,0.6,0.6
2026-04-30T2200,1275A,117.2593,31.9376,合肥市,庐阳区,,34,34,33,11,14,102,102,128,118,22,19,4,4,0.7,0.7
2026-04-30T2200,1276A,117.345251,31.861615,合肥市,瑶海区,,31,31,34,12,13,86,86,121,109,34,25,6,6,0.4,0.4
2026-04-30T2200,1277A,117.3033,31.7967,合肥市,包河区,,48,48,47,13,15,108,108,116,114,9,15,9,8,0.4,0.4
2026-04-30T2200,1278A,117.278,31.7392,合肥市,滨湖新区,NA,NA,24,33,9,13,NA,NA,120,120,12,25,5,5,0.4,0.5
2026-04-30T2200,1279A,117.1324,31.8395,合肥市,高新区,,32,31,33,11,13,102,102,127,120,22,14,5,5,0.4,0.4
2026-04-30T2200,3464A,117.3802,31.9148,合肥市,高教基地,,25,22,31,7,13,77,77,127,114,19,15,8,8,0.5,0.5
2026-04-30T2200,4098A,117.2518,31.8404,合肥市,中国科学技术大学,,31,31,30,15,14,82,82,129,116,33,15,6,7,0.5,0.5
2026-04-30T2200,3614A,79.9241,37.0878,和田地区,地区环保局,颗粒物(PM10),121,173,229,46,62,90,90,108,106,15,9,3,3,0.2,0.2
2026-04-30T2200,3615A,79.9132,37.1137,和田地区,市环保局,NA,NA,NA,210,NA,81,98,98,111,110,NA,10,NA,3,0.5,0.2
2026-04-30T2200,2517A,108.0496,24.6957,河池市,市环保站,,25,18,19,17,7,79,79,104,100,10,10,13,7,0.5,0.4
2026-04-30T2200,4302A,108.0901,24.6945,河池市,上任中路54号,,25,23,23,17,8,75,75,98,95,16,11,10,8,0.8,0.7
2026-04-30T2200,1697A,114.6962,23.7538,河源市,东埔,,22,17,11,12,9,68,68,90,84,9,6,6,6,0.4,0.3
2026-04-30T2200,1698A,114.6895,23.7232,河源市,老城,,22,16,12,15,9,64,64,87,80,11,7,6,6,0.4,0.4
2026-04-30T2200,3374A,115.5562,35.089,菏泽市,定陶老年大学,颗粒物(PM10),62,66,60,25,29,100,100,125,121,15,14,6,6,0.4,0.3
2026-04-30T2200,4114A,115.4239,35.2593,菏泽市,黄河路600号,颗粒物(PM10),74,83,76,21,30,99,99,134,128,14,13,4,4,0.4,0.4
2026-04-30T2200,4115A,115.5025,35.2727,菏泽市,菏泽市人社局,颗粒物(PM10),56,58,61,17,28,116,116,141,137,10,11,6,8,0.3,0.3
2026-04-30T2200,4184A,115.479691,35.244011,菏泽市,永昌路1号,颗粒物(PM10),60,63,64,20,28,109,109,147,139,16,13,6,7,0.3,0.3
2026-04-30T2200,4193A,115.471542,35.280012,菏泽市,长城路999号,颗粒物(PM10),60,63,65,19,28,116,116,149,144,14,13,6,7,0.3,0.3
2026-04-30T2200,2514A,111.5264,24.4178,贺州市,环保小区,,33,25,12,23,8,53,53,93,86,14,8,6,6,0.5,0.3
2026-04-30T2200,2515A,111.561,24.4074,贺州市,政协大楼,,29,29,16,14,7,54,54,102,91,21,13,10,10,0.5,0.4
2026-04-30T2200,3534A,111.4744,24.455,贺州市,西湾,,36,36,15,20,7,40,40,88,79,28,9,10,8,0.7,0.4
2026-04-30T2200,2385A,114.17,35.9019,鹤壁市,市监测站,颗粒物(PM10),58,60,51,37,33,110,110,158,147,21,15,6,6,0.6,0.6
2026-04-30T2200,2386A,114.2953,35.7512,鹤壁市,市交警支队,细颗粒物(PM2.5),80,87,69,50,30,96,96,151,138,22,20,10,5,0.7,0.6
2026-04-30T2200,2387A,114.2877,35.7302,鹤壁市,迎宾馆,颗粒物(PM10),81,93,72,48,35,97,97,154,140,27,23,9,8,0.5,0.5
2026-04-30T2200,3474A,114.2616,35.6824,鹤壁市,大新区,颗粒物(PM10),71,79,68,45,38,87,87,148,131,25,30,5,8,0.5,0.5
2026-04-30T2200,3596A,114.1573,35.9607,鹤壁市,南山宾馆,颗粒物(PM10),63,68,53,36,33,113,113,162,151,15,11,9,8,0.9,0.7
2026-04-30T2200,2244A,130.2537,47.3416,鹤岗市,哈啤分公司,,39,30,40,27,18,83,83,117,110,8,13,11,12,0.4,0.5
2026-04-30T2200,2245A,130.2683,47.3087,鹤岗市,斯达机电,颗粒物(PM10),51,51,49,27,15,87,87,117,110,6,9,11,12,0.5,0.5
2026-04-30T2200,2246A,130.3114,47.3388,鹤岗市,东山纸板厂,颗粒物(PM10),58,61,137,29,30,86,86,118,110,8,20,10,14,0.4,0.6
2026-04-30T2200,2263A,127.4832,50.2524,黑河市,交通局,,24,24,43,6,15,70,70,87,80,12,14,5,6,0.2,0.2
2026-04-30T2200,2264A,127.5146,50.2339,黑河市,环保局,,31,31,35,16,15,77,77,86,82,8,11,6,7,0.3,0.3
2026-04-30T2200,1074A,115.6839,37.754,衡水市,电机北厂,颗粒物(PM10),73,81,52,36,22,144,144,160,159,20,19,6,5,0.4,0.4
2026-04-30T2200,1075A,115.6303,37.7318,衡水市,市监测站,颗粒物(PM10),75,84,57,30,18,114,114,156,149,22,19,6,7,0.5,0.4
2026-04-30T2200,3188A,115.6684,37.7216,衡水市,市城管局,颗粒物(PM10),69,76,53,40,23,136,136,161,157,16,19,7,5,0.5,0.3
2026-04-30T2200,3459A,115.599,37.5491,衡水市,地表水厂,颗粒物(PM10),78,89,55,34,22,103,103,155,141,29,25,8,7,0.5,0.4
2026-04-30T2200,2457A,112.6209,26.9268,衡阳市,衡阳化工总厂,,39,39,23,20,14,69,69,121,107,25,16,8,6,0.7,0.6
2026-04-30T2200,2458A,112.621,26.8957,衡阳市,珠晖区环保局,,40,40,24,16,11,60,60,119,97,47,22,8,8,0.8,0.7
2026-04-30T2200,2459A,112.628,26.8654,衡阳市,市委党校,,32,32,20,21,12,89,89,119,110,16,9,11,10,0.7,0.6
2026-04-30T2200,2460A,112.6007,26.8977,衡阳市,市监测站,颗粒物(PM10),56,58,25,32,12,59,59,112,105,36,16,9,9,0.9,0.7
2026-04-30T2200,2461A,112.5658,26.9013,衡阳市,真空机电公司,NA,NA,48,22,NA,13,37,37,128,112,79,19,9,8,1.0,0.6
2026-04-30T2200,3399A,112.6703,26.8817,衡阳市,师范学院,颗粒物(PM10),56,58,19,35,11,54,54,124,109,26,10,7,7,0.7,0.5
2026-04-30T2200,3038A,103.3757,23.3679,红河哈尼族彝族自治州,州图书馆,,29,29,28,19,16,71,71,74,70,7,7,5,4,0.4,0.3
2026-04-30T2200,4154A,103.401,23.3561,红河哈尼族彝族自治州,蒙自市朝阳路,,26,NA,14,18,16,68,68,76,74,5,4,4,4,0.3,0.4
2026-04-30T2200,1090A,111.6506,40.7517,呼和浩特市,呼市一监,细颗粒物(PM2.5),72,73,61,46,28,72,72,144,128,37,30,9,9,0.5,0.5
2026-04-30T2200,1094A,111.7516,40.8369,呼和浩特市,如意水处理厂,颗粒物(PM10),69,76,60,37,29,30,30,148,126,89,32,11,11,0.6,0.4
2026-04-30T2200,1095A,111.727798,40.806187,呼和浩特市,二十九中,颗粒物(PM10),54,55,58,30,26,62,62,135,122,50,29,12,12,0.6,0.5
2026-04-30T2200,1097A,111.717,40.7617,呼和浩特市,化肥厂生活区,颗粒物(PM10),90,106,70,53,36,33,33,150,NA,78,38,8,9,1.0,0.5
2026-04-30T2200,3699A,111.6519,40.8389,呼和浩特市,海东办,颗粒物(PM10),58,61,59,26,32,70,70,137,121,50,37,6,8,0.3,0.4
2026-04-30T2200,4275A,111.591512,40.827312,呼和浩特市,成吉思汗西街8号,颗粒物(PM10),101,122,76,26,29,60,60,131,111,58,39,6,8,0.4,0.4
2026-04-30T2200,4276A,111.6597,40.8077,呼和浩特市,公园东路75号,细颗粒物(PM2.5),86,95,66,53,30,67,67,133,121,49,28,18,10,0.6,0.5
2026-04-30T2200,4277A,111.5427,40.7846,呼和浩特市,金海路35号,颗粒物(PM10),55,56,56,37,25,72,72,130,110,30,35,5,7,0.3,0.3
2026-04-30T2200,3061A,119.7511,49.1576,呼伦贝尔市,国华电力东,,25,25,28,14,10,77,77,98,92,7,5,5,5,0.3,0.3
2026-04-30T2200,4279A,119.7569,49.2222,呼伦贝尔市,伊敏大街东7号,,29,29,31,14,11,68,68,105,NA,12,8,7,7,0.5,0.4
2026-04-30T2200,1250A,120.075,30.867,湖州市,城西水厂,NA,NA,40,31,28,26,28,28,145,122,93,23,7,6,NA,0.5
2026-04-30T2200,2873A,120.083,30.8929,湖州市,仁皇山新区,,31,31,33,20,24,62,62,133,116,28,25,5,6,0.6,0.6
2026-04-30T2200,2907A,120.1846,30.8592,湖州市,吴兴区站,,43,39,33,30,26,49,49,139,123,68,23,7,6,0.6,0.4
2026-04-30T2200,3562A,120.4146,30.8538,湖州市,南浔区站,颗粒物(PM10),53,53,39,31,28,93,93,132,124,23,18,6,6,0.6,0.5
2026-04-30T2200,1607A,120.904878,40.721091,葫芦岛市,龙港区,细颗粒物(PM2.5),72,56,43,46,25,159,159,124,124,16,25,11,12,0.6,0.5
2026-04-30T2200,1608A,120.8382,40.7521,葫芦岛市,化工街,细颗粒物(PM2.5),96,78,75,58,39,139,139,124,124,24,45,13,27,0.5,0.7
2026-04-30T2200,1609A,120.8339,40.7078,葫芦岛市,新区,细颗粒物(PM2.5),92,NA,42,56,37,157,157,116,116,16,30,10,11,0.6,0.6
2026-04-30T2200,1610A,120.8697,40.7679,葫芦岛市,东城区,细颗粒物(PM2.5),96,NA,58,58,42,150,150,137,137,22,40,10,21,0.7,0.8
2026-04-30T2200,2483A,109.9297,27.5383,怀化市,河西地税局,NA,NA,40,25,21,11,NA,NA,115,104,NA,9,8,8,/,/
2026-04-30T2200,2484A,109.9783,27.5342,怀化市,市四医院,,45,45,36,28,14,64,64,114,103,20,13,6,5,0.5,0.3
2026-04-30T2200,2485A,109.9971,27.5579,怀化市,监测楼,,42,42,30,20,17,72,72,108,101,12,10,4,4,0.6,0.5
2026-04-30T2200,1210A,119.0566,33.5991,淮安市,钵池山,,37,29,41,16,27,116,116,136,132,16,17,8,9,0.4,0.5
2026-04-30T2200,1211A,119.0083,33.578,淮安市,北京南路,,41,41,42,20,28,101,101,140,128,24,29,10,9,0.5,0.5
2026-04-30T2200,1212A,118.9938,33.6083,淮安市,市监测站,,40,29,36,19,28,125,125,148,141,16,25,5,7,0.3,0.4
2026-04-30T2200,1213A,119.135,33.5038,淮安市,楚州区监测站,,42,42,47,27,29,77,77,134,117,40,35,6,6,0.4,0.4
2026-04-30T2200,3426A,118.8757,33.2897,淮安市,新华书店,,48,48,52,20,26,55,55,137,117,54,29,8,7,0.5,0.6
2026-04-30T2200,4092A,119.119691,33.550006,淮安市,枚皋中路89号,细颗粒物(PM2.5),52,46,40,36,26,90,90,140,127,23,23,7,7,0.4,0.5
2026-04-30T2200,4206A,119.028838,33.631911,淮安市,承德北路606号,,39,39,48,16,25,114,114,135,129,12,18,6,6,0.3,0.4
2026-04-30T2200,2282A,116.8005,33.9749,淮北市,监测站,颗粒物(PM10),69,76,60,28,31,102,102,140,131,22,17,8,7,0.5,0.5
2026-04-30T2200,2283A,116.8094,33.9008,淮北市,烈山区政府,颗粒物(PM10),52,52,58,23,29,91,91,134,118,23,22,9,8,0.4,0.4
2026-04-30T2200,4017A,116.7926,33.9534,淮北市,市博物馆,,45,45,52,23,31,102,102,137,126,18,16,5,5,0.4,0.4
2026-04-30T2200,4100A,116.8322,33.9884,淮北市,杜集区第一实验学校,,50,50,60,18,24,104,104,142,130,17,13,7,7,0.4,0.5
2026-04-30T2200,2277A,116.8304,32.7726,淮南市,潘集区政府,,32,32,37,14,17,89,89,128,116,29,18,8,6,0.4,0.4
2026-04-30T2200,2279A,116.8569,32.5949,淮南市,谢家集区政府,,30,15,24,9,18,96,96,130,118,16,14,7,7,0.2,0.2
2026-04-30T2200,2280A,116.8279,32.6333,淮南市,八公山区政府,,31,28,32,11,15,98,98,129,117,13,8,7,5,0.2,0.2
2026-04-30T2200,2894A,117.0561,32.6536,淮南市,经济技术开发区消防队,,32,31,31,10,16,101,101,124,118,11,9,7,7,0.3,0.3
2026-04-30T2200,3329A,117.011,32.5891,淮南市,山南新区,,33,23,28,10,19,105,105,130,123,17,14,9,8,0.3,0.3
2026-04-30T2200,4209A,117.003137,32.644456,淮南市,国庆中路369号,,33,32,32,8,18,103,103,122,119,14,10,5,6,0.1,0.3
2026-04-30T2200,2446A,114.9021,30.474,黄冈市,职工中心,NA,NA,36,34,33,24,NA,NA,145,145,35,13,4,10,0.6,0.7
2026-04-30T2200,2929A,114.8858,30.4519,黄冈市,红卫路,细颗粒物(PM2.5),60,44,34,40,23,61,61,145,131,44,14,7,9,0.7,0.7
2026-04-30T2200,3398A,114.9134,30.4446,黄冈市,市林业局,颗粒物(PM10),68,74,42,37,24,41,41,147,128,95,20,4,4,0.1,0.4
2026-04-30T2200,2672A,102.02,35.5101,黄南藏族自治州,同仁县隆务镇,,40,24,29,18,14,128,128,125,124,2,3,11,11,0.3,0.2
2026-04-30T2200,2295A,118.2905,29.6965,黄山市,延安路89号,,19,15,13,11,10,59,59,115,96,11,6,5,5,0.2,0.1
2026-04-30T2200,2297A,118.1369,30.2755,黄山市,黄山区政府5号楼,,20,20,17,13,7,38,38,104,83,8,4,3,3,0.2,0.1
2026-04-30T2200,4210A,118.335445,29.720283,黄山市,滨江东路7-2号,颗粒物(PM10),55,57,30,19,7,40,40,114,93,26,8,/,/,/,/
2026-04-30T2200,2423A,115.0547,30.2332,黄石市,沈家营,,50,50,33,19,16,57,57,146,121,41,14,4,4,0.7,0.5
2026-04-30T2200,2426A,114.899,30.211,黄石市,铁山,,46,46,34,22,20,73,73,143,134,34,13,8,9,0.6,0.3
2026-04-30T2200,2427A,115.0259,30.2108,黄石市,团城山,,47,47,32,30,19,118,118,159,152,20,8,9,6,0.7,0.5
2026-04-30T2200,3149A,115.0174,30.1591,黄石市,笔架山北路,颗粒物(PM10),55,56,39,27,17,111,111,148,142,15,14,14,8,0.6,0.5
2026-04-30T2200,4185A,115.078022,30.21118,黄石市,磁湖东路29号,细颗粒物(PM2.5),70,68,36,45,20,104,104,139,132,30,13,8,4,1.0,0.4
2026-04-30T2200,1392A,114.4181,23.0528,惠州市,河南岸金山湖子站,,24,13,12,6,7,74,74,98,95,8,10,6,7,0.5,0.5
2026-04-30T2200,1393A,114.4055,23.0824,惠州市,下埔横江三路子站,,24,16,13,9,7,74,74,102,97,9,8,5,5,0.6,0.5
2026-04-30T2200,1395A,114.4645,22.7832,惠州市,惠阳区承修路船湖子站,,24,24,16,12,7,63,63,92,86,16,9,9,7,0.5,0.4
2026-04-30T2200,1396A,114.5316,22.7423,惠州市,大亚湾管委会子站,,23,17,12,9,6,73,73,88,87,10,8,5,5,0.4,0.4
2026-04-30T2200,3314A,114.4334,22.8134,惠州市,惠阳秋长,,22,22,14,13,9,68,68,101,97,15,6,/,/,/,/
2026-04-30T2200,3452A,114.6521,22.7755,惠州市,大亚湾霞涌,,22,7,11,3,5,69,69,82,81,9,7,/,/,/,/
2026-04-30T2200,4300A,114.4089,23.1147,惠州市,文华一路1号,,22,15,11,10,7,70,70,102,96,10,7,/,/,/,/
2026-04-30T2200,2240A,130.9618,45.2926,鸡西市,环保局,,33,31,54,20,22,105,105,122,117,11,16,10,8,0.4,0.4
2026-04-30T2200,2243A,130.9294,45.2959,鸡西市,第一中学,,35,24,43,12,21,110,110,120,117,6,12,6,6,0.3,0.3
2026-04-30T2200,3707A,131.0069,45.2988,鸡西市,欧美日汽修厂,,35,32,61,24,23,93,93,112,106,11,19,7,7,0.3,0.4
2026-04-30T2200,2367A,114.9753,27.0803,吉安市,红声器材厂,,31,23,28,15,11,98,98,134,128,19,11,8,9,0.4,0.3
2026-04-30T2200,2369A,114.9903,27.1313,吉安市,市环境监测站,,33,30,21,12,11,103,103,131,128,17,11,11,11,/,/
2026-04-30T2200,2370A,115.009527,27.096792,吉安市,青原区法院,,29,29,20,18,10,70,70,122,108,26,13,7,8,0.4,0.3
2026-04-30T2200,1772A,126.54,43.8622,吉林市,哈达湾,,38,35,31,26,18,99,99,135,127,20,10,7,7,0.4,0.3
2026-04-30T2200,1773A,126.5843,43.8358,吉林市,东局子,,39,39,33,21,19,88,88,136,117,28,16,5,5,0.9,0.8
2026-04-30T2200,1774A,126.5051,43.8243,吉林市,电力学院,颗粒物(PM10),68,75,34,35,18,80,80,147,127,35,15,5,6,0.8,0.6
2026-04-30T2200,1775A,126.6133,43.8971,吉林市,江北,,45,45,40,21,17,86,86,134,114,21,13,10,11,0.6,0.8
2026-04-30T2200,1776A,126.5549,43.8304,吉林市,江南公园,,42,42,30,26,19,78,78,132,116,26,13,7,8,0.8,0.6
2026-04-30T2200,2868A,126.4737,43.953,吉林市,九站,,39,31,32,16,16,122,122,134,123,13,14,9,9,0.5,0.5
2026-04-30T2200,1299A,116.9866,36.6118,济南市,科干所,颗粒物(PM10),68,75,48,33,20,139,139,147,143,18,13,12,11,0.1,0.2
2026-04-30T2200,1300A,116.9379,36.6652,济南市,农科所,颗粒物(PM10),63,68,46,30,21,100,100,141,127,28,22,6,6,0.4,0.3
2026-04-30T2200,1301A,117.1265,36.6736,济南市,开发区,颗粒物(PM10),62,66,42,33,20,133,133,148,142,16,14,7,6,0.5,0.4
2026-04-30T2200,1303A,117.0616,36.6865,济南市,省种子仓库,颗粒物(PM10),67,73,56,36,21,133,133,152,145,19,26,7,5,0.6,0.5
2026-04-30T2200,1304A,116.9495185,36.644937,济南市,机床二厂,颗粒物(PM10),78,88,55,38,26,126,126,142,138,18,22,7,6,0.5,0.4
2026-04-30T2200,1305A,117.0496,36.6629,济南市,市监测站,颗粒物(PM10),69,76,46,30,21,135,135,142,138,16,14,5,4,0.7,0.6
2026-04-30T2200,1306A,116.7674,36.5458,济南市,长清党校,颗粒物(PM10),57,59,47,29,21,120,120,139,134,22,21,6,6,0.7,0.5
2026-04-30T2200,1961A,117.5323,36.6865,济南市,东山小学,颗粒物(PM10),62,66,52,33,21,110,110,150,139,22,20,3,4,0.4,0.4
2026-04-30T2200,3059A,117.7181,36.205,济南市,泰兴公司,NA,NA,63,57,31,26,NA,NA,138,137,36,35,8,9,0.5,0.4
2026-04-30T2200,3064A,117.6861,36.2172,济南市,莱芜战役纪念馆,颗粒物(PM10),56,58,58,29,26,123,123,143,138,15,28,4,6,0.2,0.3
2026-04-30T2200,3494A,117.1673,36.9782,济南市,济阳区政府,颗粒物(PM10),57,59,66,27,28,111,111,145,136,31,37,8,7,0.7,0.5
2026-04-30T2200,3495A,117.1168,36.6299,济南市,锦屏中学,颗粒物(PM10),55,56,44,36,20,125,125,139,132,13,14,7,6,0.2,0.2
2026-04-30T2200,4108A,117.7107,36.2385,济南市,山财大街5号,颗粒物(PM10),65,70,58,34,27,112,112,139,133,22,35,5,6,0.3,0.6
2026-04-30T2200,4109A,116.9744,36.6889,济南市,无影山路12号,颗粒物(PM10),63,68,44,36,24,114,114,141,131,23,19,6,5,0.5,0.4
2026-04-30T2200,1653A,116.6229,35.4288,济宁市,火炬城,颗粒物(PM10),56,58,50,27,25,84,84,118,108,13,11,3,3,0.5,0.4
2026-04-30T2200,3500A,116.5808,35.3703,济宁市,北湖一中,颗粒物(PM10),64,69,60,21,25,85,85,132,121,22,13,7,6,0.3,0.3
2026-04-30T2200,3501A,116.8251,35.5592,济宁市,服务中心,颗粒物(PM10),63,68,62,22,27,68,68,118,104,25,18,1,2,0.5,0.5
2026-04-30T2200,3678A,116.5907,35.4054,济宁市,市第七中学,颗粒物(PM10),60,64,67,24,25,98,98,137,128,17,15,5,5,0.3,0.3
2026-04-30T2200,4111A,116.6075,35.4566,济宁市,任和路,颗粒物(PM10),63,67,62,20,24,108,108,139,133,10,10,6,6,0.4,0.3
2026-04-30T2200,4112A,116.5648,35.3921,济宁市,文体南路1号,颗粒物(PM10),62,66,64,21,25,84,84,130,118,15,14,3,5,0.5,0.5
2026-04-30T2200,4122A,112.6071,35.1015,济源市,市委党校,颗粒物(PM10),91,107,76,28,28,58,58,142,125,39,14,7,13,0.7,0.6
2026-04-30T2200,4123A,112.596,35.0702,济源市,沁园中路1号,颗粒物(PM10),71,79,62,39,31,61,61,136,121,41,26,11,8,1.2,0.9
2026-04-30T2200,2255A,130.2749,46.8028,佳木斯市,佳纺,颗粒物(PM10),58,61,59,22,19,115,115,134,129,6,15,6,5,0.3,0.3
2026-04-30T2200,2257A,130.3258,46.7975,佳木斯市,环保局,颗粒物(PM10),59,62,53,19,21,115,115,141,134,6,17,4,4,0.4,0.3
2026-04-30T2200,4285A,130.363,46.806,佳木斯市,顺和街,颗粒物(PM10),59,62,57,21,21,116,116,136,132,9,24,3,3,0.3,0.3
2026-04-30T2200,4286A,130.3952,46.8268,佳木斯市,长安路196号,颗粒物(PM10),60,64,57,19,25,115,115,134,130,10,23,3,3,0.3,0.4
2026-04-30T2200,1252A,120.7439,30.778,嘉兴市,清河小学,细颗粒物(PM2.5),66,68,32,43,24,65,65,128,111,48,19,8,7,0.8,0.6
2026-04-30T2200,1253A,120.7261,30.7477,嘉兴市,嘉兴学院,,43,43,33,30,23,50,50,129,114,75,20,6,6,0.6,0.5
2026-04-30T2200,2872A,120.7845,30.7524,嘉兴市,南湖区残联,,49,47,30,34,24,76,76,143,129,51,20,6,7,0.5,0.4
2026-04-30T2200,3407A,120.6915,30.7741,嘉兴市,秀洲住建,,45,45,29,27,22,21,21,146,109,78,20,6,7,0.5,0.3
2026-04-30T2200,1945A,98.291,39.7705,嘉峪关市,气象局,颗粒物(PM10),58,61,58,18,19,92,92,110,108,12,19,10,28,0.5,1.1
2026-04-30T2200,2884A,98.2672,39.7978,嘉峪关市,酒钢宾馆,细颗粒物(PM2.5),86,66,64,53,24,102,102,118,116,11,16,14,52,0.6,1.1
2026-04-30T2200,3248A,98.2644,39.7723,嘉峪关市,雄关区,颗粒物(PM10),75,84,60,18,19,68,68,112,105,39,24,9,25,0.3,0.8
2026-04-30T2200,1383A,113.1063,22.6058,江门市,北街,,23,16,18,15,10,71,71,129,120,29,23,/,/,/,/
2026-04-30T2200,1384A,113.073,22.5835,江门市,西区,,29,29,17,15,10,67,67,133,121,28,17,/,/,/,/
2026-04-30T2200,1385A,113.0218,22.531,江门市,圭峰西,,26,NA,18,11,9,81,81,126,116,15,16,/,/,/,/
2026-04-30T2200,1386A,113.0826,22.5947,江门市,东湖,,30,30,16,15,10,63,63,127,116,24,16,6,6,0.5,0.4
2026-04-30T2200,3311A,113.1077,22.5647,江门市,江海富民,,28,28,23,13,9,71,71,135,126,22,17,/,/,0.4,0.3
2026-04-30T2200,3449A,113.0496,22.4669,江门市,新会银湖,NA,NA,NA,21,16,9,65,65,140,128,NA,21,NA,9,NA,0.3
2026-04-30T2200,3335A,113.3137,35.2643,焦作市,马村街道办,颗粒物(PM10),70,77,66,29,24,106,106,149,138,14,13,8,10,0.5,0.4
2026-04-30T2200,3336A,113.2464,35.2374,焦作市,焦作技师学院,颗粒物(PM10),62,66,55,27,24,96,96,143,132,24,15,8,11,0.5,0.6
2026-04-30T2200,3477A,113.1656,35.2536,焦作市,中站许衡医院,颗粒物(PM10),60,63,56,22,23,103,103,143,130,23,15,9,12,0.4,0.5
2026-04-30T2200,3981A,113.2456,35.18,焦作市,原李万街道办,颗粒物(PM10),58,61,61,24,26,89,89,146,133,30,17,6,7,0.4,0.4
2026-04-30T2200,4264A,113.234,35.219,焦作市,新安路1731号,颗粒物(PM10),57,59,58,30,26,99,99,145,134,23,17,9,12,0.4,0.4
2026-04-30T2200,4295A,113.2722,35.2121,焦作市,人民路3066号,颗粒物(PM10),65,70,58,40,28,66,66,132,116,24,14,5,7,0.6,0.5
2026-04-30T2200,1708A,116.3701,23.5345,揭阳市,新兴,,38,38,19,18,7,29,29,58,48,36,15,9,6,0.7,0.6
2026-04-30T2200,1709A,116.3261,23.5442,揭阳市,西马,,44,44,19,26,8,35,35,58,51,30,15,9,5,0.7,0.6
2026-04-30T2200,1710A,116.361,23.5627,揭阳市,东兴,,37,37,18,18,8,28,28,53,47,28,14,8,4,/,/
2026-04-30T2200,1711A,116.4151,23.5295,揭阳市,渔湖,,30,30,18,15,7,29,29,55,51,28,16,4,3,/,/
2026-04-30T2200,3320A,116.4028,23.5699,揭阳市,曲溪,,36,36,17,19,8,33,33,51,47,25,16,4,3,0.7,0.5
2026-04-30T2200,1944A,102.1691,38.5166,金昌市,天庆家园,颗粒物(PM10),56,58,118,26,40,119,119,130,126,2,9,4,6,0.4,0.5
2026-04-30T2200,4022A,102.1648,38.5369,金昌市,金川区人防中心,颗粒物(PM10),58,61,74,29,39,119,119,130,127,4,8,7,9,0.3,0.4
2026-04-30T2200,4239A,102.193042,38.531887,金昌市,长春路96号,颗粒物(PM10),73,81,118,26,42,114,114,124,121,2,7,6,18,0.4,0.5
2026-04-30T2200,1262A,119.6478,29.0773,金华市,十五中,,22,22,23,10,15,54,54,111,98,30,16,1,1,0.4,0.4
2026-04-30T2200,1263A,119.6859,29.1032,金华市,监测站,,21,18,18,10,12,66,66,121,111,25,18,3,3,0.3,0.3
2026-04-30T2200,3659A,119.656,29.1132,金华市,气象局,,24,24,21,11,12,61,61,109,96,22,15,4,4,0.4,0.4
2026-04-30T2200,1767A,121.1114,41.0879,锦州市,南山,细颗粒物(PM2.5),82,NA,47,51,40,125,125,143,140,31,33,11,9,0.6,0.6
2026-04-30T2200,1768A,121.060361,40.842794,锦州市,开发区,细颗粒物(PM2.5),98,72,60,59,37,141,141,113,113,38,38,7,7,0.6,0.6
2026-04-30T2200,1769A,121.1836,41.1118,锦州市,百股街道,细颗粒物(PM2.5),103,NA,53,63,49,137,137,143,140,22,37,9,22,0.6,0.8
2026-04-30T2200,1770A,121.1176,41.1224,锦州市,天安街道,细颗粒物(PM2.5),94,68,57,57,43,126,126,144,141,28,35,15,15,0.7,0.7
2026-04-30T2200,1771A,121.1303,41.1385,锦州市,北湖公园,细颗粒物(PM2.5),80,60,61,50,46,130,130,145,141,25,31,18,16,0.7,0.6
2026-04-30T2200,2160A,112.8496,35.5051,晋城市,自来水公司,颗粒物(PM10),53,54,66,13,15,135,135,154,151,17,24,4,6,0.3,0.6
2026-04-30T2200,2162A,112.8509,35.4886,晋城市,市环保局,颗粒物(PM10),56,58,62,16,18,125,125,150,145,12,18,5,7,0.3,0.6
2026-04-30T2200,3620A,112.8258,35.4804,晋城市,泽州一中,,45,45,59,26,23,118,118,153,147,21,19,4,6,0.2,0.7
2026-04-30T2200,4078A,112.8246,35.5152,晋城市,前书院路,颗粒物(PM10),75,85,58,38,19,55,55,152,138,65,29,8,10,0.5,0.8
2026-04-30T2200,4079A,112.8864,35.4773,晋城市,祥云街666号,,44,28,51,28,23,140,140,152,150,11,20,9,10,0.5,0.7
2026-04-30T2200,2174A,112.6992,37.6984,晋中市,榆次区政府,颗粒物(PM10),78,88,68,33,29,62,62,140,128,49,32,6,11,0.6,0.7
2026-04-30T2200,2865A,112.7195,37.683,晋中市,榆次三中,颗粒物(PM10),83,95,72,34,27,55,55,147,122,47,29,7,11,0.5,0.6
2026-04-30T2200,4080A,112.7375,37.7215,晋中市,广安街188号,颗粒物(PM10),100,120,83,37,30,19,19,135,111,76,31,6,9,0.2,0.4
2026-04-30T2200,4200A,112.7478,37.6954,晋中市,迎宾街26号,颗粒物(PM10),56,58,67,21,30,67,67,152,126,35,26,5,10,0.4,0.5
2026-04-30T2200,2439A,112.2012,31.048,荆门市,竹园小学,,45,45,45,29,26,124,124,139,137,10,12,8,7,0.5,0.4
2026-04-30T2200,2440A,112.1968,30.9892,荆门市,掇刀,颗粒物(PM10),55,56,48,23,26,116,116,142,137,24,21,9,10,0.5,0.5
2026-04-30T2200,3012A,112.1849,31.0361,荆门市,西山林语,,42,NA,46,29,25,98,98,132,128,14,10,7,7,0.5,0.5
2026-04-30T2200,3547A,112.1631,31.0134,荆门市,龙泉中学南校,,42,42,34,20,24,118,118,135,130,13,13,5,5,0.3,0.4
2026-04-30T2200,4124A,112.2213,31.0654,荆门市,新台西路6号,,47,47,43,30,28,88,88,139,130,26,12,26,10,0.7,0.6
2026-04-30T2200,1844A,112.2493,30.3198,荆州市,市图书馆,,44,44,35,13,19,100,100,132,127,19,13,8,9,0.4,0.6
2026-04-30T2200,1845A,112.2009,30.3543,荆州市,市委党校,,40,40,32,25,19,86,86,105,100,23,17,8,8,0.5,0.4
2026-04-30T2200,3194A,112.2749,30.3124,荆州市,管委会,颗粒物(PM10),51,51,31,31,21,88,88,126,118,29,19,10,9,0.5,0.4
2026-04-30T2200,4268A,112.1722,30.3366,荆州市,学苑路85号,,46,46,31,17,20,86,86,133,120,19,11,7,6,0.5,0.2
2026-04-30T2200,2343A,117.2114,29.2931,景德镇市,老干部活动中心,NA,NA,75,13,17,11,NA,NA,99,98,10,4,4,5,0.6,0.5
2026-04-30T2200,2344A,117.1893,29.2789,景德镇市,兽医站,,28,28,19,16,5,63,63,116,103,24,7,13,4,0.6,0.4
2026-04-30T2200,2346A,117.246,29.2958,景德镇市,陶研所,,29,29,11,13,7,48,48,106,84,16,6,5,4,0.6,0.6
2026-04-30T2200,4289A,117.154766,29.256967,景德镇市,青少年活动中心,,30,30,13,20,9,53,53,106,91,24,9,24,13,/,/
2026-04-30T2200,1803A,115.9873,29.6816,九江市,十里,,44,44,26,21,18,46,46,120,96,51,27,6,6,1.0,0.8
2026-04-30T2200,1804A,115.9583,29.7047,九江市,茅山头,,30,30,22,10,18,61,61,119,104,40,19,4,4,0.6,0.5
2026-04-30T2200,1805A,115.9877,29.7295,九江市,西园,,34,34,24,12,17,70,70,114,101,38,27,5,5,0.7,0.6
2026-04-30T2200,1808A,115.9112,29.6038,九江市,综合工业园,,25,25,21,10,16,74,74,120,105,49,30,7,7,0.5,0.5
2026-04-30T2200,3190A,116.0254,29.6995,九江市,外国语学校,,26,26,21,6,17,68,68,114,102,22,21,10,11,0.7,0.7
2026-04-30T2200,4253A,116.010205,29.659402,九江市,莲花大道8号,,28,28,29,3,14,71,71,103,91,14,19,4,4,0.4,0.4
2026-04-30T2200,4240A,98.495752,39.733935,酒泉市,玉门东路5号,,48,48,47,21,19,85,85,99,95,9,9,6,7,0.2,0.3
2026-04-30T2200,4241A,98.5099,39.7506,酒泉市,北大街108号,,48,48,45,24,28,87,87,106,100,9,10,7,8,0.4,0.3
2026-04-30T2200,2698A,76.0071,39.466,喀什地区,巡警大队,颗粒物(PM10),129,195,196,74,74,81,81,111,108,34,38,4,5,0.4,0.4
2026-04-30T2200,2699A,75.9756,39.4693,喀什地区,吾办,颗粒物(PM10),135,211,199,76,79,88,88,108,106,18,24,3,4,0.4,0.6
2026-04-30T2200,4027A,75.9485,39.4688,喀什地区,老干局,颗粒物(PM10),127,189,185,87,80,88,88,110,108,14,26,2,3,0.2,0.3
2026-04-30T2200,1824A,114.3389,34.778,开封市,肿瘤医院,颗粒物(PM10),53,53,68,28,35,95,95,140,127,23,21,7,8,0.6,0.6
2026-04-30T2200,1826A,114.2884,34.7966,开封市,世纪星幼儿园,颗粒物(PM10),58,61,71,29,32,97,97,139,128,22,20,8,8,0.5,0.6
2026-04-30T2200,3147A,114.3434,34.8101,开封市,龙亭公园,颗粒物(PM10),57,59,75,23,32,106,106,150,138,25,24,8,9,0.5,0.6
2026-04-30T2200,3210A,114.3645,34.7955,开封市,汴京公园,颗粒物(PM10),65,71,72,26,31,102,102,148,136,19,16,4,6,0.5,0.5
2026-04-30T2200,3473A,114.2485,34.8306,开封市,技师学院,颗粒物(PM10),56,58,77,29,38,111,111,149,140,12,17,6,7,0.8,0.8
2026-04-30T2200,3592A,114.4518,34.7503,开封市,祥符区生态环境局,颗粒物(PM10),62,66,65,31,35,92,92,141,129,33,25,9,9,0.6,0.6
2026-04-30T2200,1951A,84.886,45.6029,克拉玛依市,长征新村,,30,22,50,9,12,93,93,114,112,13,6,5,6,0.4,0.4
2026-04-30T2200,1952A,84.8894,45.5827,克拉玛依市,南林小区,,32,32,52,11,9,62,62,101,96,22,8,3,3,0.2,0.1
2026-04-30T2200,1954A,84.896,44.3328,克拉玛依市,独山子区,,47,47,89,14,14,102,102,116,114,9,6,7,6,0.5,0.4
2026-04-30T2200,1955A,85.6888,46.0909,克拉玛依市,乌尔禾区商贸楼,,39,39,43,15,10,93,93,113,109,11,9,3,4,0.3,0.2
2026-04-30T2200,3612A,85.1045,45.6895,克拉玛依市,白碱滩区新站,NA,NA,NA,47,NA,13,101,101,124,122,14,4,7,7,NA,0.2
2026-04-30T2200,2697A,76.1457,39.7143,克孜勒苏柯尔克孜自治州,市人民政府,颗粒物(PM10),139,219,147,76,53,83,83,103,98,12,7,5,5,0.1,0
2026-04-30T2200,3665A,76.1654,39.7157,克孜勒苏柯尔克孜自治州,克州文化中心,颗粒物(PM10),131,200,151,76,59,109,109,113,113,5,7,2,3,0.3,0.2
2026-04-30T2200,1450A,102.8203,24.889,昆明市,呈贡新区,,42,42,22,26,18,67,67,93,86,26,14,4,3,0.7,0.6
2026-04-30T2200,1452A,102.7253,25.0904,昆明市,龙泉镇,,37,37,29,24,21,64,64,78,76,20,19,5,5,0.6,0.6
2026-04-30T2200,1453A,102.7267,25.0378,昆明市,东风东路,,28,25,29,17,19,87,87,89,88,15,17,3,3,0.5,0.5
2026-04-30T2200,1454A,102.6744,25.0671,昆明市,金鼎山,,38,36,30,26,21,72,72,87,85,22,16,2,2,0.7,0.7
2026-04-30T2200,1455A,102.6643,25.0401,昆明市,碧鸡广场,,36,36,30,25,19,55,55,80,74,29,16,6,6,0.7,0.6
2026-04-30T2200,3179A,102.7491,25.012,昆明市,官渡区博物馆,,26,24,29,18,18,71,71,88,85,22,26,4,4,0.6,0.6
2026-04-30T2200,3375A,102.8016,24.8336,昆明市,青年创业园,,35,35,28,19,16,75,75,97,91,12,11,4,4,0.5,0.7
2026-04-30T2200,3550A,102.8,24.9787,昆明市,昆明学院,,34,34,32,16,15,80,80,90,88,17,20,7,5,0.6,0.5
2026-04-30T2200,3551A,102.5969,24.6738,昆明市,晋宁区生态环境分局,,37,37,32,24,23,83,83,96,92,9,11,2,4,0.3,0.3
2026-04-30T2200,3552A,102.6673,24.9861,昆明市,云天化总部,,35,NA,25,24,14,90,90,84,84,9,11,5,5,0.5,0.6
2026-04-30T2200,1456A,91.132,29.6515,拉萨市,八廓街,,32,32,16,12,7,89,89,112,101,9,5,5,5,0.5,0.5
2026-04-30T2200,1457A,91.1221,29.6748,拉萨市,市环保局,,25,25,14,7,9,79,79,104,94,15,10,4,4,0.3,0.2
2026-04-30T2200,1458A,91.0874,29.6476,拉萨市,区监测站,,25,24,12,11,9,78,78,106,96,18,11,5,5,0.4,0.4
2026-04-30T2200,1459A,91.1774,29.6541,拉萨市,西藏大学,,28,23,13,8,8,89,89,103,96,13,11,5,2,0.4,0.4
2026-04-30T2200,1460A,90.9798,29.6586,拉萨市,区辐射站,,25,25,16,16,8,67,67,92,86,32,16,6,6,0.5,0.3
2026-04-30T2200,1461A,91.0831,29.6292,拉萨市,拉萨火车站,,28,22,13,10,7,87,87,108,101,12,8,4,4,0.4,0.4
2026-04-30T2200,2520A,109.2203,23.7252,来宾市,来宾技工学校,NA,NA,28,24,17,12,NA,NA,135,135,13,6,7,8,0.4,0.8
2026-04-30T2200,3535A,109.1781,23.7293,来宾市,兴宾区政府,,32,31,22,18,11,102,102,141,135,15,6,10,9,0.5,0.5
2026-04-30T2200,4002A,109.2312,23.7428,来宾市,中南小学,,32,32,23,18,11,71,71,139,129,37,10,7,8,0.5,0.4
2026-04-30T2200,1479A,103.8309,36.0467,兰州市,铁路设计院,颗粒物(PM10),54,55,53,23,19,77,77,101,92,13,17,4,5,0.5,0.5
2026-04-30T2200,3241A,103.7439,36.0841,兰州市,百合公园,颗粒物(PM10),67,73,54,20,20,75,75,105,93,13,17,4,5,0.1,0.4
2026-04-30T2200,3242A,103.9613,35.9985,兰州市,和平,,48,48,48,15,27,85,85,105,98,7,9,8,8,0.4,0.4
2026-04-30T2200,4236A,103.629272,36.093822,兰州市,庄浪东路808号,颗粒物(PM10),64,69,61,20,22,74,74,121,101,14,17,7,8,0.4,0.4
2026-04-30T2200,4237A,103.7251,36.104344,兰州市,安宁西路88号,颗粒物(PM10),59,62,60,25,21,85,85,118,105,10,15,7,8,0.2,0.3
2026-04-30T2200,4238A,103.846982,36.067567,兰州市,北滨河东路1号,颗粒物(PM10),77,87,64,28,24,76,76,105,93,14,15,8,9,0.5,0.6
2026-04-30T2200,1067A,116.6712,39.5109,廊坊市,药材公司,颗粒物(PM10),63,67,50,34,28,103,103,150,141,22,22,21,5,0.4,0.4
2026-04-30T2200,1068A,116.7215,39.5592,廊坊市,开发区,颗粒物(PM10),68,74,55,35,29,130,130,156,152,17,19,10,3,0.4,0.4
2026-04-30T2200,1070A,116.7246,39.5273,廊坊市,北华航天学院,颗粒物(PM10),74,83,58,35,31,121,121,159,153,24,21,10,5,0.4,0.3
2026-04-30T2200,2919A,116.7022,39.5454,廊坊市,河北工业大学,颗粒物(PM10),72,80,53,37,28,121,121,159,154,20,20,15,5,0.4,0.4
2026-04-30T2200,2536A,103.7629,29.5844,乐山市,牛耳桥,细颗粒物(PM2.5),98,75,41,59,30,76,76,101,96,25,14,8,4,0.7,0.5
2026-04-30T2200,2537A,103.7501,29.6002,乐山市,市第三水厂,细颗粒物(PM2.5),92,67,39,56,28,74,74,101,96,26,16,7,5,0.7,0.6
2026-04-30T2200,2538A,103.7571,29.5664,乐山市,市监测站,细颗粒物(PM2.5),104,91,46,64,30,73,73,94,90,22,12,5,4,0.7,0.5
2026-04-30T2200,3361A,103.7313,29.563,乐山市,理工大学,细颗粒物(PM2.5),92,64,36,56,27,71,71,106,98,22,12,6,6,0.6,0.4
2026-04-30T2200,2599A,100.2497,26.8802,丽江市,丽江古城,,39,39,29,23,15,77,77,83,82,15,11,6,6,0.4,0.4
2026-04-30T2200,2600A,100.2203,26.8906,丽江市,市中心,,23,16,20,8,18,72,72,79,78,15,13,6,8,0.6,0.6
2026-04-30T2200,1267A,119.9141,28.4513,丽水市,监测站大楼,,18,12,11,7,6,57,57,92,83,12,9,4,4,0.4,0.3
2026-04-30T2200,1268A,119.93,28.4589,丽水市,莲都小学,,17,13,12,6,7,52,52,90,78,12,10,/,/,/,/
2026-04-30T2200,1269A,119.8794,28.4232,丽水市,余庄前,,13,13,11,7,5,11,11,84,59,9,9,4,4,0.3,0.3
2026-04-30T2200,1173A,119.1759,34.5885,连云港市,市环境监测站,,44,44,44,27,26,119,119,137,131,16,19,8,10,0.6,0.6
2026-04-30T2200,3000A,119.3577,34.6971,连云港市,德源药业,颗粒物(PM10),51,51,45,24,24,111,111,145,138,18,20,6,6,0.4,0.4
2026-04-30T2200,3007A,119.178,34.8442,连云港市,新城一中,颗粒物(PM10),69,76,55,29,33,104,104,143,133,22,23,6,8,0.6,0.7
2026-04-30T2200,3008A,119.3607,34.7519,连云港市,胡沟管理处,,35,27,26,17,18,111,111,138,130,24,22,10,11,0.4,0.4
2026-04-30T2200,3009A,119.1478,34.5913,连云港市,矿山设计院,颗粒物(PM10),56,58,53,24,26,110,110,136,126,20,19,7,7,0.7,0.7
2026-04-30T2200,3434A,119.2414,34.6539,连云港市,工贸学校,,47,47,44,26,28,112,112,144,137,17,14,5,6,0.5,0.5
2026-04-30T2200,3664A,119.4171,34.734,连云港市,连云街道,,43,43,43,20,22,131,131,141,138,12,12,10,10,0.8,0.7
2026-04-30T2200,2573A,102.2629,27.8981,凉山彝族自治州,西昌市政府,,38,28,22,26,18,95,95,103,100,12,15,13,13,0.9,0.6
2026-04-30T2200,2574A,102.2686,27.885,凉山彝族自治州,凉山州政府,,38,32,25,26,16,82,82,87,85,10,13,14,8,0.8,0.6
2026-04-30T2200,4229A,102.2342,27.8859,凉山彝族自治州,凯乐南路30号,,33,30,25,23,17,92,92,92,91,9,17,8,7,0.6,0.6
2026-04-30T2200,2212A,123.1978,41.2036,辽阳市,宏伟区,颗粒物(PM10),55,57,38,31,15,118,118,138,135,19,12,11,8,0.8,0.6
2026-04-30T2200,2213A,123.1684,41.2497,辽阳市,新华园,颗粒物(PM10),62,66,43,34,18,115,115,141,137,27,19,8,7,0.7,0.7
2026-04-30T2200,2214A,123.2355,41.2663,辽阳市,滨河路,颗粒物(PM10),56,58,35,30,17,105,105,134,131,30,17,9,8,0.5,0.5
2026-04-30T2200,4083A,123.153,41.2874,辽阳市,铁西路150号,颗粒物(PM10),63,67,49,39,23,109,109,131,124,25,18,15,12,1.2,0.8
2026-04-30T2200,2227A,125.1359,42.8845,辽源市,环保局,颗粒物(PM10),54,55,32,32,16,43,43,136,114,52,22,7,6,0.8,0.5
2026-04-30T2200,4085A,125.0998,42.9134,辽源市,安宁大街333号,颗粒物(PM10),58,60,40,27,14,101,101,131,121,16,14,8,6,0.6,0.5
2026-04-30T2200,1625A,115.9789,36.4372,聊城市,区政府,颗粒物(PM10),82,94,63,39,32,124,124,158,155,19,14,9,9,0.5,0.4
2026-04-30T2200,3200A,115.9772,36.4986,聊城市,监控中心,颗粒物(PM10),88,102,64,37,27,139,139,166,163,21,14,13,10,0.4,0.4
2026-04-30T2200,3513A,116.0443,36.436,聊城市,九州社区,颗粒物(PM10),83,96,67,46,35,117,117,166,159,27,19,5,9,0.5,0.5
2026-04-30T2200,4018A,116.0564,36.4609,聊城市,星美广场,颗粒物(PM10),84,97,68,43,35,112,112,155,150,29,18,9,8,0.6,0.4
2026-04-30T2200,4113A,116.0091,36.4495,聊城市,利民路,颗粒物(PM10),58,60,45,38,33,145,145,171,169,18,12,11,12,0.7,0.5
2026-04-30T2200,2632A,94.3683,29.6373,林芝市,林芝监测站,,26,6,5,3,4,81,81,88,87,4,4,2,3,0.5,0.5
2026-04-30T2200,2633A,94.3616,29.6634,林芝市,林芝人民医院,,27,6,6,3,5,86,86,94,93,4,5,4,4,0.6,0.7
2026-04-30T2200,2603A,100.0779,23.8981,临沧市,市环保局,,46,NA,35,32,27,24,24,74,67,13,9,1,2,0.8,0.7
2026-04-30T2200,2604A,100.0894,23.882,临沧市,市气象局,,43,37,32,30,29,36,36,75,70,10,10,3,3,1.0,0.9
2026-04-30T2200,1733A,111.5552,36.0791,临汾市,临钢医院,颗粒物(PM10),69,76,66,29,26,106,106,155,145,23,17,9,9,0.8,0.7
2026-04-30T2200,1734A,111.4984,36.0734,临汾市,技工学校,颗粒物(PM10),77,87,71,44,32,92,92,154,143,33,20,9,10,0.9,0.7
2026-04-30T2200,1736A,111.5017,36.0857,临汾市,市委,颗粒物(PM10),79,90,70,40,27,99,99,158,147,30,19,11,10,0.9,0.8
2026-04-30T2200,3018A,111.5048,36.1015,临汾市,唐尧大酒店,颗粒物(PM10),94,111,84,39,27,88,88,159,147,41,21,12,9,0.9,0.8
2026-04-30T2200,4244A,111.4879,36.053,临汾市,启星学校,颗粒物(PM10),96,114,69,38,27,90,90,156,143,31,18,8,8,0.8,0.7
2026-04-30T2200,4271A,103.2464,35.6123,临夏回族自治州,滨河东路1号,颗粒物(PM10),70,78,65,26,33,70,70,106,98,8,14,11,11,0.3,0.4
2026-04-30T2200,4310A,103.207136,35.599807,临夏回族自治州,新华街21号,颗粒物(PM10),62,66,58,21,30,54,54,83,76,5,10,8,8,0.5,0.5
2026-04-30T2200,1618A,118.3429,35.0532,临沂市,沂河小区,颗粒物(PM10),60,63,70,29,35,101,101,137,130,22,19,11,13,0.4,0.4
2026-04-30T2200,1619A,118.2962,35.0568,临沂市,鲁南制药厂,颗粒物(PM10),60,63,67,28,35,101,101,142,131,25,22,13,14,0.3,0.3
2026-04-30T2200,1620A,118.2793,34.9976,临沂市,新光毛纺厂,颗粒物(PM10),67,73,69,30,37,96,96,139,128,29,24,13,15,0.4,0.3
2026-04-30T2200,1621A,118.3955,35.0889,临沂市,河东保险公司,颗粒物(PM10),51,51,59,22,32,116,116,148,141,18,19,12,14,0.4,0.4
2026-04-30T2200,3370A,118.3563,35.0215,临沂市,十里堡居委,颗粒物(PM10),78,88,69,34,36,97,97,146,136,32,25,12,13,0.5,0.5
2026-04-30T2200,3496A,118.359,35.1067,临沂市,南坊新区,颗粒物(PM10),58,61,60,21,34,111,111,138,130,18,20,14,14,0.3,0.3
2026-04-30T2200,3860A,118.3915,35.0297,临沂市,皇山花园小区,颗粒物(PM10),63,68,61,34,41,108,108,144,137,30,26,16,15,0.5,0.5
2026-04-30T2200,1870A,109.4854,24.3898,柳州市,柳东小学,,35,18,16,16,11,112,112,118,118,8,5,10,5,0.5,0.4
2026-04-30T2200,1871A,109.4109,24.3304,柳州市,环保监测站,,37,NA,21,20,12,27,27,109,97,74,13,6,8,0.8,0.6
2026-04-30T2200,1872A,109.3886,24.3408,柳州市,河西水厂,颗粒物(PM10),63,67,26,40,15,42,42,120,106,51,12,15,14,0.9,0.6
2026-04-30T2200,1873A,109.4263,24.2951,柳州市,市四中,,45,41,21,31,12,48,48,114,102,44,12,7,7,0.9,0.6
2026-04-30T2200,1874A,109.396,24.3658,柳州市,市九中,NA,NA,79,28,36,14,NA,NA,110,105,33,12,11,9,0.8,0.4
2026-04-30T2200,1875A,109.4912,24.3164,柳州市,古亭山,,25,21,37,17,13,46,46,108,94,36,10,5,5,0.7,0.7
2026-04-30T2200,3402A,109.5422,24.3994,柳州市,市二中,NA,NA,28,16,19,11,51,51,116,103,NA,7,7,7,0.5,0.4
2026-04-30T2200,2307A,116.5078,31.7369,六安市,监测大楼,,31,19,20,18,14,99,99,118,113,12,13,4,4,0.3,0.3
2026-04-30T2200,2308A,116.4738,31.7642,六安市,皖西学院,,34,24,19,17,13,107,107,128,122,11,9,5,4,0.3,0.3
2026-04-30T2200,2309A,116.4997,31.7904,六安市,朝阳厂,,32,21,15,19,13,100,100,119,114,16,9,5,6,0.3,0.2
2026-04-30T2200,2310A,116.5566,31.7885,六安市,开发区,,32,NA,12,22,13,92,92,132,121,25,20,6,5,0.3,0.3
2026-04-30T2200,2577A,104.8293,26.592,六盘水市,黄土坡,,43,40,32,30,20,74,74,72,70,12,11,6,5,0.3,0.3
2026-04-30T2200,2579A,104.8481,26.5898,六盘水市,民中,,40,35,25,28,21,73,73,69,69,10,10,7,6,0.4,0.4
2026-04-30T2200,2580A,104.9541,26.5506,六盘水市,双水,,41,41,30,28,23,70,70,70,70,8,8,4,4,0.3,0.3
2026-04-30T2200,4151A,104.8899,26.5685,六盘水市,钟山大道中段564号,颗粒物(PM10),51,51,35,26,20,78,78,72,72,6,7,2,2,0.6,0.5
2026-04-30T2200,2336A,117.022,25.1031,龙岩市,龙岩市监测站,,21,NA,11,9,7,66,66,79,77,7,7,6,7,0.4,0.4
2026-04-30T2200,2337A,117.0257,25.0662,龙岩市,闽西职业技术学院,,19,10,11,9,7,60,60,76,73,6,4,12,7,0.7,0.5
2026-04-30T2200,2338A,117.0195,25.0306,龙岩市,龙岩学院,,20,15,12,9,7,62,62,76,72,8,5,8,5,/,/
2026-04-30T2200,2885A,104.9344,33.3827,陇南市,滨江中学,,40,40,51,13,14,85,85,85,84,5,8,4,5,0.5,0.5
2026-04-30T2200,3247A,104.9551,33.3709,陇南市,市总工会,,29,29,42,10,12,88,88,86,86,5,7,4,6,0.5,0.5
2026-04-30T2200,2488A,111.9984,27.7346,娄底市,市监测站,,35,35,30,20,20,102,102,120,116,14,18,10,14,0.5,0.6
2026-04-30T2200,2491A,111.9888,27.7035,娄底市,市政府,,35,32,25,24,16,88,88,121,117,21,13,5,3,0.5,0.5
2026-04-30T2200,4127A,111.9812,27.7591,娄底市,涟钢职大,颗粒物(PM10),57,59,23,34,11,61,61,129,117,33,11,5,4,0.4,0.6
2026-04-30T2200,4128A,112.0303,27.7457,娄底市,娄底体校,,43,43,24,18,15,63,63,116,108,18,10,4,4,0.5,0.3
2026-04-30T2200,1894A,105.4427,28.9063,泸州市,小市上码头,,43,37,20,30,12,69,69,87,86,24,14,8,8,0.5,0.5
2026-04-30T2200,1895A,105.4241,28.8573,泸州市,兰田宪桥,,48,48,28,25,16,54,54,91,87,22,14,6,7,0.6,0.6
2026-04-30T2200,1896A,105.4378,28.8833,泸州市,市环监站,,35,35,22,21,11,72,72,98,95,30,17,8,9,0.9,0.8
2026-04-30T2200,4272A,105.3689,28.7783,泸州市,纳溪中医医院,细颗粒物(PM2.5),62,55,34,41,19,37,37,90,82,30,17,5,5,0.7,0.6
2026-04-30T2200,2183A,111.1447,37.5212,吕梁市,环保局,颗粒物(PM10),97,115,64,32,19,46,46,137,106,59,26,4,5,0.5,0.4
2026-04-30T2200,2185A,111.1285,37.5338,吕梁市,自来水公司,颗粒物(PM10),93,109,64,39,22,63,63,134,106,33,28,2,7,0.5,0.5
2026-04-30T2200,2867A,111.1225,37.5093,吕梁市,马茂庄小学,颗粒物(PM10),79,90,63,27,18,54,54,143,109,39,29,3,5,0.5,0.4
2026-04-30T2200,1812A,112.3934,34.6517,洛阳市,市委党校,,47,47,47,24,27,113,113,137,133,15,15,9,9,0.6,0.5
2026-04-30T2200,1815A,112.494,34.6883,洛阳市,河南林校,颗粒物(PM10),58,61,59,22,26,92,92,136,130,23,20,11,11,0.4,0.6
2026-04-30T2200,1816A,112.3843,34.623,洛阳市,开发区管委会,颗粒物(PM10),55,56,54,29,32,114,114,139,135,14,15,11,11,0.5,0.5
2026-04-30T2200,1817A,112.4263,34.6249,洛阳市,市委新办公区,颗粒物(PM10),54,55,50,25,28,119,119,139,137,13,15,10,10,0.5,0.4
2026-04-30T2200,3340A,112.6005,34.6323,洛阳市,伊滨,颗粒物(PM10),55,56,57,26,29,106,106,136,132,14,17,9,10,0.3,0.4
2026-04-30T2200,3341A,112.495,34.6338,洛阳市,中移产业园,颗粒物(PM10),56,58,51,23,28,112,112,142,138,21,17,9,10,0.5,0.5
2026-04-30T2200,3593A,112.5736,34.8993,洛阳市,吉利监测站,颗粒物(PM10),55,56,54,22,21,84,84,138,125,28,18,9,9,0.4,0.4
2026-04-30T2200,3635A,112.3678,34.6623,洛阳市,河科大西苑校区,颗粒物(PM10),53,54,51,22,28,117,117,141,138,15,19,12,12,0.5,0.4
2026-04-30T2200,3636A,112.4387,34.678,洛阳市,英才小学,NA,NA,53,61,29,36,109,109,139,135,14,21,NA,9,NA,0.5
2026-04-30T2200,4214A,112.460027,34.694929,洛阳市,春都路1号院,NA,NA,51,69,NA,11,110,110,142,137,16,19,10,13,0.5,0.6
2026-04-30T2200,2399A,114.051,33.5721,漯河市,三五一五工厂,颗粒物(PM10),56,58,57,21,31,83,83,134,121,28,20,5,7,0.5,0.5
2026-04-30T2200,2400A,114.0055,33.5698,漯河市,漯河大学,颗粒物(PM10),55,56,49,32,33,83,83,134,119,31,20,18,8,0.5,0.4
2026-04-30T2200,2401A,114.0134,33.5826,漯河市,市水利局,"颗粒物(PM10),细颗粒物(PM2.5)",56,58,50,38,30,81,81,132,118,28,17,20,7,0.6,0.5
2026-04-30T2200,2402A,114.0261,33.5697,漯河市,市广电局,颗粒物(PM10),53,54,48,27,30,90,90,133,122,23,20,8,7,0.4,0.4
2026-04-30T2200,3478A,113.9691,33.568,漯河市,市图书馆,颗粒物(PM10),54,55,51,36,29,78,78,128,116,29,18,9,8,0.5,0.4
2026-04-30T2200,4250A,114.089259,33.588274,漯河市,韶山路11号,颗粒物(PM10),58,61,58,27,28,87,87,131,120,20,15,6,8,0.4,0.3
2026-04-30T2200,1798A,118.5084,31.6838,马鞍山市,湖东路四小,颗粒物(PM10),53,54,40,24,29,64,64,139,124,48,26,5,6,0.6,0.5
2026-04-30T2200,1799A,118.5019,31.6449,马鞍山市,开发区,颗粒物(PM10),51,51,41,19,29,59,59,136,118,44,33,5,6,0.4,0.5
2026-04-30T2200,3633A,118.4914,31.681,马鞍山市,雨山,颗粒物(PM10),51,51,39,17,25,70,70,140,124,41,26,4,5,0.7,0.6
2026-04-30T2200,4191A,118.527362,31.722269,马鞍山市,慈湖高新区,,40,40,48,21,32,70,70,134,119,42,32,5,9,0.4,0.7
2026-04-30T2200,1686A,111.0285,21.469,茂名市,电白南海,,33,27,29,10,12,103,103,116,116,12,10,7,9,0.8,0.7
2026-04-30T2200,1687A,110.9294,21.6533,茂名市,茂石化七小,NA,NA,31,25,17,12,NA,NA,96,94,17,13,7,11,0.7,0.6
2026-04-30T2200,1688A,110.9108,21.6688,茂名市,健康路,,31,22,19,15,10,97,97,97,97,14,12,5,9,0.7,0.6
2026-04-30T2200,1689A,110.8592,21.6826,茂名市,高岭,,36,36,28,22,11,90,90,95,95,17,10,6,17,/,/
2026-04-30T2200,3450A,111.0101,21.5165,茂名市,电白水东,,34,19,21,12,12,107,107,113,113,9,11,5,7,/,/
2026-04-30T2200,2540A,103.8414,30.0871,眉山市,气象局,颗粒物(PM10),68,74,45,42,21,74,74,112,101,21,15,8,7,0.7,0.7
2026-04-30T2200,3148A,103.829,30.0563,眉山市,区人社局,细颗粒物(PM2.5),98,69,50,59,28,71,71,107,95,30,19,8,7,0.9,0.8
2026-04-30T2200,4148A,103.8836,30.0695,眉山市,眉职院,颗粒物(PM10),78,89,47,48,22,74,74,109,101,24,16,10,9,1.0,0.8
2026-04-30T2200,1690A,116.1248,24.3307,梅州市,梅江月梅,,15,NA,7,10,3,43,43,67,61,21,8,/,/,/,/
2026-04-30T2200,1691A,116.0798,24.2719,梅州市,梅县新城,,20,9,9,9,5,61,61,70,68,9,8,8,8,0.4,0.4
2026-04-30T2200,3315A,116.1234,24.2994,梅州市,梅龙,,19,9,6,8,4,60,60,72,68,9,6,6,6,0.2,0.2
2026-04-30T2200,1878A,104.7775,31.4741,绵阳市,富乐山,,29,25,34,20,30,64,64,88,79,17,13,7,8,0.6,0.6
2026-04-30T2200,1880A,104.6698,31.4668,绵阳市,高新区自来水公司,,32,32,47,20,30,62,62,98,87,25,19,6,7,0.5,0.5
2026-04-30T2200,3491A,104.6899,31.5324,绵阳市,西科大附属小学,,41,41,46,24,28,60,60,93,84,23,20,5,6,0.4,0.4
2026-04-30T2200,3492A,104.5647,31.5343,绵阳市,安州区旅游局,,32,32,36,20,26,74,74,97,89,10,15,6,6,0.3,0.3
2026-04-30T2200,4146A,104.7092,31.4972,绵阳市,科技城新区公安局,,31,31,48,20,29,62,62,86,78,20,16,6,6,0.6,0.7
2026-04-30T2200,4226A,104.765114,31.453094,绵阳市,绵阳市气象局,,31,31,40,20,28,57,57,67,62,29,24,7,9,0.6,0.6
2026-04-30T2200,1784A,129.61,44.561,牡丹江市,环保大楼,,29,29,38,12,18,92,92,123,112,11,15,3,2,0.2,0.3
2026-04-30T2200,1787A,129.6364,44.6075,牡丹江市,机车工厂,,41,41,53,17,25,74,74,114,92,19,24,7,8,0.3,0.3
2026-04-30T2200,1788A,129.6386,44.5462,牡丹江市,第一中学,,34,34,28,12,14,95,95,123,110,10,12,4,3,0.3,0.3
2026-04-30T2200,4287A,129.5992,44.5964,牡丹江市,东晓云街98号,,43,NA,42,30,21,63,63,113,88,25,16,5,4,0.4,0.4
2026-04-30T2200,2531A,105.0703,29.61,内江市,市监测站,NA,NA,NA,25,47,19,81,81,121,117,31,14,8,9,0.5,0.7
2026-04-30T2200,2533A,105.0657,29.5807,内江市,内江二中,,45,45,28,25,18,70,70,114,110,37,15,7,7,0.5,0.4
2026-04-30T2200,2534A,105.0407,29.5828,内江市,内江日报社,,42,42,25,29,18,55,55,117,109,46,17,13,13,0.6,0.5
2026-04-30T2200,4147A,105.0433,29.6105,内江市,玉峰路西段888号,细颗粒物(PM2.5),54,51,27,37,18,71,71,118,114,35,15,5,4,0.7,0.5
2026-04-30T2200,2628A,92.0653,31.4846,那曲市,那曲监测站,,43,38,23,30,17,90,90,103,101,24,17,8,8,0.9,0.7
2026-04-30T2200,4243A,92.0515,31.4787,那曲市,那曲市委宣传部,,33,14,12,3,13,105,105,117,115,11,10,12,12,0.6,0.6
2026-04-30T2200,1291A,115.8887,28.7006,南昌市,省林业公司,,31,31,18,14,15,55,55,117,104,39,14,3,3,0.4,0.3
2026-04-30T2200,1292A,115.813,28.7443,南昌市,林科所,NA,NA,12,16,9,14,NA,NA,128,117,50,10,8,8,0.4,0.3
2026-04-30T2200,1294A,115.8518,28.687,南昌市,建工学校,,44,44,25,26,15,42,42,119,104,43,8,6,6,0.9,0.6
2026-04-30T2200,1295A,115.8926,28.6425,南昌市,象湖,,26,26,17,12,16,53,53,117,101,40,14,7,8,0.9,0.8
2026-04-30T2200,3046A,115.9084,28.6062,南昌市,机电学校,,27,27,24,11,16,50,50,128,106,51,14,5,5,0.4,0.4
2026-04-30T2200,3690A,115.9718,28.7032,南昌市,外国语学校,,26,26,22,12,15,39,39,117,99,48,16,8,9,0.6,0.5
2026-04-30T2200,4106A,115.7923,28.6873,南昌市,工业二路,,42,42,26,17,15,36,36,128,106,52,11,5,5,0.5,0.4
2026-04-30T2200,4192A,115.931587,28.686774,南昌市,南京东路235号,颗粒物(PM10),53,54,27,31,16,47,47,137,117,48,16,6,6,1.3,0.3
2026-04-30T2200,1906A,106.0791,30.8022,南充市,南充市委,,46,46,30,27,17,56,56,114,106,33,18,6,7,0.5,0.4
2026-04-30T2200,1907A,106.1038,30.8215,南充市,南充炼油厂,,50,50,36,25,17,54,54,113,107,48,16,6,6,0.5,0.4
2026-04-30T2200,4227A,106.108336,30.788436,南充市,梨树横街98号,颗粒物(PM10),51,51,28,27,17,44,44,118,109,63,16,6,6,0.7,0.3
2026-04-30T2200,4304A,106.1172,30.843,南充市,清泉寺北路188号,颗粒物(PM10),56,58,28,24,18,80,80,116,113,25,13,8,7,0.5,0.4
2026-04-30T2200,4305A,106.067,30.7616,南充市,同庆路1号,,42,42,29,25,18,42,42,118,106,54,17,6,7,0.7,0.4
2026-04-30T2200,1151A,118.8033,32.1085,南京市,迈皋桥,NA,NA,51,39,NA,NA,93,93,155,143,24,13,2,2,0.6,0.5
2026-04-30T2200,1152A,118.7487,32.057,南京市,草场门,,39,39,34,15,18,100,100,136,130,26,23,5,4,0.5,0.4
2026-04-30T2200,1154A,118.770105,32.004342,南京市,中华门,,31,31,42,12,19,77,77,140,125,30,22,7,8,0.7,0.8
2026-04-30T2200,1155A,118.8059,32.0329,南京市,瑞金路,,34,34,42,15,24,103,103,142,134,24,23,4,6,0.5,0.6
2026-04-30T2200,1156A,118.7946,32.0774,南京市,玄武湖,NA,NA,58,36,13,20,NA,NA,139,139,16,17,4,4,0.5,0.4
2026-04-30T2200,1157A,118.6415,32.0964,南京市,浦口,,32,NA,35,14,19,102,102,128,121,13,12,4,4,0.5,0.6
2026-04-30T2200,1158A,118.730129,32.000956,南京市,奥体中心,,38,38,40,11,19,81,81,119,111,24,30,8,9,0.4,0.4
2026-04-30T2200,1159A,118.9072,32.1047,南京市,仙林大学城,,34,34,43,16,23,96,96,143,133,28,25,8,8,0.6,0.7
2026-04-30T2200,3422A,118.8443,31.919,南京市,江宁彩虹桥,,38,38,35,14,18,76,76,141,127,39,19,4,4,0.5,0.7
2026-04-30T2200,3427A,118.8497,32.3599,南京市,六合雄州,,35,34,36,15,22,112,112,136,132,18,16,6,5,0.5,0.5
2026-04-30T2200,4086A,118.7641,32.0841,南京市,新模范马路66号,,48,48,42,19,22,104,104,144,136,28,20,4,4,0.7,0.5
2026-04-30T2200,4249A,118.8707617,31.34017673,南京市,汶溪路181号,,35,35,30,12,14,85,85,132,122,28,16,6,5,0.3,0.3
2026-04-30T2200,4312A,119.019,31.6512,南京市,中山西路1号,,36,36,34,14,22,68,68,123,115,26,20,4,4,0.5,0.6
2026-04-30T2200,1401A,108.3098,22.788,南宁市,二十一中,,30,24,17,20,11,96,96,118,114,13,9,2,4,0.3,0.3
2026-04-30T2200,1402A,108.3135,22.8529,南宁市,北湖,NA,NA,29,20,22,15,NA,NA,121,119,10,14,4,11,0.5,0.4
2026-04-30T2200,1403A,108.3205,22.8222,南宁市,市监测站,,32,24,20,22,12,100,100,118,114,13,11,3,7,0.5,0.4
2026-04-30T2200,1404A,108.3828,22.8038,南宁市,大自然花园,,32,23,19,18,9,100,100,121,117,17,13,5,6,0.4,0.3
2026-04-30T2200,1406A,108.2397,22.8462,南宁市,区农职院,,35,31,22,24,13,95,95,110,109,12,9,3,5,0.6,0.3
2026-04-30T2200,1407A,108.3285,22.7356,南宁市,英华嘉园,,34,24,20,17,12,107,107,135,129,12,8,5,5,0.5,0.4
2026-04-30T2200,3401A,108.4829,22.762,南宁市,红星社区,,38,26,18,26,11,104,104,120,118,15,8,6,5,0.5,0.4
2026-04-30T2200,4132A,108.2927,23.1477,南宁市,起凤路9号,,33,33,17,23,12,75,75,110,101,16,7,5,7,0.4,0.3
2026-04-30T2200,4221A,108.2177,22.7774,南宁市,乐贤路16号,,49,49,26,22,14,70,70,118,109,36,15,5,11,0.5,0.4
2026-04-30T2200,2332A,118.1682,26.6371,南平市,南平市监测站,,15,9,6,3,3,45,45,63,53,7,7,4,4,0.3,0.3
2026-04-30T2200,2334A,118.1757,26.6276,南平市,南平七中,,13,13,10,7,4,22,22,61,50,13,8,2,8,0.5,0.5
2026-04-30T2200,1168A,120.9056,31.9669,南通市,狼山街道,,45,45,36,24,20,69,69,130,110,35,23,4,4,0.6,0.5
2026-04-30T2200,1170A,120.8635,32.0231,南通市,城中,颗粒物(PM10),66,72,50,34,26,80,80,129,119,50,23,8,5,0.8,0.5
2026-04-30T2200,1171A,120.9376,31.9301,南通市,星湖花园,颗粒物(PM10),57,59,42,30,26,98,98,136,124,33,23,8,6,0.8,0.7
2026-04-30T2200,1172A,120.8053,32.046,南通市,紫琅学院,颗粒物(PM10),62,66,40,37,27,80,80,146,136,61,27,7,6,0.8,0.7
2026-04-30T2200,3291A,121.0631,32.0644,南通市,通州监测站,颗粒物(PM10),63,68,45,34,23,72,72,133,120,52,21,4,4,0.6,0.5
2026-04-30T2200,3432A,120.9348,31.9874,南通市,环境教育馆,颗粒物(PM10),53,53,39,28,18,91,91,130,119,37,21,5,5,0.7,0.6
2026-04-30T2200,4091A,120.8692,31.9885,南通市,洪江路,颗粒物(PM10),58,60,42,36,26,75,75,125,106,45,25,6,6,1.3,0.9
2026-04-30T2200,2404A,112.5338,33.0086,南阳市,瓦房庄,颗粒物(PM10),53,54,49,18,21,110,110,125,124,16,15,6,6,0.4,0.4
2026-04-30T2200,2405A,112.5002,32.9734,南阳市,汉画馆,颗粒物(PM10),53,54,51,26,22,96,96,121,116,22,17,7,7,0.4,0.4
2026-04-30T2200,2406A,112.5778,33.0144,南阳市,气象站,颗粒物(PM10),53,54,53,15,22,119,119,134,130,15,16,6,7,0.3,0.3
2026-04-30T2200,2407A,112.548,32.9687,南阳市,理工学院,颗粒物(PM10),51,51,54,24,26,106,106,125,119,17,20,7,8,0.4,0.4
2026-04-30T2200,4008A,112.5233,32.9921,南阳市,卧龙区政府,,43,43,45,17,23,108,108,124,121,16,15,8,8,0.4,0.4
2026-04-30T2200,1234A,121.8352,29.9111,宁波市,区环保大楼,,48,48,31,32,17,76,76,144,125,48,22,6,7,0.4,0.3
2026-04-30T2200,1235A,121.5595,29.8208,宁波市,万里学院,颗粒物(PM10),53,53,25,34,20,71,71,144,133,50,15,4,4,0.5,0.4
2026-04-30T2200,1236A,121.713,29.9564,宁波市,龙赛医院,颗粒物(PM10),60,64,33,39,20,28,28,146,126,94,19,7,6,0.5,0.4
2026-04-30T2200,1240A,121.5855,29.8635,宁波市,太古小学,颗粒物(PM10),63,68,34,39,20,54,54,142,126,74,17,4,4,0.8,0.5
2026-04-30T2200,1241A,121.5239,29.8673,宁波市,市环境监测中心,细颗粒物(PM2.5),70,58,28,45,24,49,49,139,119,67,21,7,7,0.8,0.5
2026-04-30T2200,2871A,121.6156,29.9015,宁波市,万里国际学校,细颗粒物(PM2.5),52,49,28,36,22,90,90,147,128,38,20,4,4,0.6,0.5
2026-04-30T2200,3710A,121.5593,29.8976,宁波市,白沙活动中心,细颗粒物(PM2.5),54,41,18,37,20,71,71,146,132,47,17,5,5,0.5,0.3
2026-04-30T2200,4095A,121.8962,29.7529,宁波市,中科路88号,颗粒物(PM10),54,55,25,35,18,50,50,144,116,58,18,7,7,0.6,0.5
2026-04-30T2200,2341A,119.5387,26.6611,宁德市,宁德市监测站,,33,12,10,7,6,103,103,95,95,14,14,8,8,0.3,0.4
2026-04-30T2200,3209A,119.5231,26.6562,宁德市,宁德一中,,34,16,11,9,6,106,106,93,93,11,11,6,7,0.3,0.3
2026-04-30T2200,2618A,98.859,25.8541,怒江傈僳族自治州,州监测站,,49,38,31,34,21,31,31,49,48,16,10,6,5,0.4,0.3
2026-04-30T2200,2619A,98.8607,25.8168,怒江傈僳族自治州,泸水一中,,35,28,27,24,23,32,32,42,41,17,14,4,4,0.6,0.6
2026-04-30T2200,1888A,101.6891,26.571,攀枝花市,弄弄坪,,34,34,38,19,19,67,67,96,90,20,22,7,14,0.7,0.9
2026-04-30T2200,1889A,101.577,26.5914,攀枝花市,河门口,,38,34,37,26,22,90,90,115,107,10,19,9,22,0.6,1
2026-04-30T2200,1891A,101.7365,26.4986,攀枝花市,仁和,,36,36,26,23,18,68,68,97,90,17,15,5,6,0.4,0.5
2026-04-30T2200,2835A,101.7222,26.567,攀枝花市,四十中小,,30,30,34,21,21,70,70,101,94,21,21,7,25,0.8,0.9
2026-04-30T2200,1604A,122.0303,41.1489,盘锦市,开发区,NA,NA,NA,39,NA,43,122,122,164,158,11,18,8,9,0.6,0.5
2026-04-30T2200,1605A,122.0486,41.0883,盘锦市,兴隆台,细颗粒物(PM2.5),66,NA,40,43,59,128,128,157,154,16,23,9,11,0.6,0.6
2026-04-30T2200,1606A,121.8297,41.1026,盘锦市,新生街道,细颗粒物(PM2.5),52,NA,34,36,36,125,125,138,137,17,27,6,8,0.5,0.6
2026-04-30T2200,1832A,113.3257,33.7423,平顶山市,新华旅馆,颗粒物(PM10),70,77,62,34,28,97,97,128,122,19,11,4,5,0.5,0.5
2026-04-30T2200,1833A,113.2917,33.737,平顶山市,规划设计院,颗粒物(PM10),53,53,55,36,26,103,103,128,122,18,14,7,7,0.5,0.5
2026-04-30T2200,1834A,113.182,33.7738,平顶山市,平顶山工学院,,45,45,43,25,25,107,107,129,124,10,9,6,6,0.5,0.5
2026-04-30T2200,3594A,112.8736,33.9068,平顶山市,石龙区,颗粒物(PM10),52,52,55,23,27,94,94,120,116,11,10,7,7,0.4,0.3
2026-04-30T2200,4116A,113.284,33.7139,平顶山市,姚电大道23号,颗粒物(PM10),90,106,66,42,29,87,87,127,115,26,18,7,7,0.4,0.4
2026-04-30T2200,2656A,106.6633,35.5338,平凉市,聚贤嘉苑,颗粒物(PM10),60,63,73,18,26,76,76,103,95,14,18,5,7,0.9,0.6
2026-04-30T2200,2657A,106.7021,35.5307,平凉市,博物馆,颗粒物(PM10),58,61,63,21,28,93,93,110,105,8,18,9,10,0.5,0.6
2026-04-30T2200,2348A,113.8384,27.6436,萍乡市,中医院,,32,25,14,22,9,92,92,123,116,19,10,7,6,0.4,0.3
2026-04-30T2200,2350A,113.8677,27.6438,萍乡市,市环保局,,32,24,17,17,12,102,102,126,119,18,13,13,9,0.6,0.6
2026-04-30T2200,2351A,113.8663,27.6202,萍乡市,安源区政府,,30,29,21,19,12,96,96,136,124,20,16,7,7,0.4,0.5
2026-04-30T2200,4107A,113.8686,27.6668,萍乡市,联洪村委会,,44,44,22,20,12,87,87,122,113,20,11,8,6,0.2,0.2
2026-04-30T2200,2319A,119.0142,25.4324,莆田市,荔城区仓后路,,23,21,12,11,4,71,71,76,74,8,7,/,/,/,/
2026-04-30T2200,2320A,119.0016,25.4553,莆田市,莆田市监测站,,21,21,11,12,3,58,58,74,69,13,12,3,3,0.4,0.4
2026-04-30T2200,2321A,119.112,25.4561,莆田市,涵江区六中,,24,22,11,14,5,76,76,80,79,9,9,/,/,0.5,0.4
2026-04-30T2200,2322A,119.1014,25.3215,莆田市,秀屿区政府,,28,20,11,9,6,88,88,90,90,9,8,5,4,0.6,0.5
2026-04-30T2200,2392A,115.0312,35.7636,濮阳市,环保局,颗粒物(PM10),51,51,54,29,26,113,113,150,145,21,18,5,6,0.6,0.6
2026-04-30T2200,3021A,115,35.7667,濮阳市,濮水河管理处,颗粒物(PM10),63,67,58,32,28,100,100,147,136,19,18,5,6,0.7,0.7
2026-04-30T2200,4118A,115.0552,35.7816,濮阳市,中原东路68号,颗粒物(PM10),63,68,62,26,24,120,120,163,155,14,14,4,5,0.6,0.6
2026-04-30T2200,4216A,115.0923632,35.76857718,濮阳市,任丘路479号,颗粒物(PM10),61,65,58,33,27,105,105,154,145,24,20,4,5,0.6,0.6
2026-04-30T2200,2601A,100.9801,22.7634,普洱市,市环保局,,31,31,39,18,19,64,64,89,84,8,9,4,4,0.8,0.7
2026-04-30T2200,2602A,100.9763,22.8237,普洱市,普洱第二中学,,36,34,38,25,21,54,54,94,84,11,11,6,6,0.8,0.8
2026-04-30T2200,3345A,131.0413,45.7795,七台河市,中波台,,48,48,50,25,21,117,117,116,116,9,10,3,4,0.2,0.2
2026-04-30T2200,3637A,131.0136,45.7688,七台河市,人民广场,,40,40,42,18,12,89,89,111,105,18,14,7,10,0.4,0.5
2026-04-30T2200,3684A,130.8639,45.8144,七台河市,新建矿广场,,27,27,53,18,18,86,86,110,101,14,17,7,16,0.4,0.5
2026-04-30T2200,1779A,123.9307,47.3641,齐齐哈尔市,安居小区,,27,17,53,9,9,84,84,96,91,2,5,9,11,0.2,0.3
2026-04-30T2200,1780A,123.9497,47.3389,齐齐哈尔市,中心广场,,28,20,54,3,9,87,87,100,94,4,5,5,8,0.2,0.2
2026-04-30T2200,1781A,123.9483,47.3229,齐齐哈尔市,农牧车辆厂,,28,22,54,3,7,89,89,100,96,4,7,4,5,0.4,0.3
2026-04-30T2200,1783A,123.9442,47.2994,齐齐哈尔市,市环境监测站,,27,21,65,14,10,86,86,97,93,5,7,2,4,0.3,0.3
2026-04-30T2200,3662A,123.6341,47.2079,齐齐哈尔市,富区青少年活动中心,,27,20,63,3,9,84,84,95,89,3,7,3,4,0.3,0.5
2026-04-30T2200,2591A,107.9765,26.5724,黔东南苗族侗族自治州,市环境监测站,,38,38,26,15,16,24,24,101,80,48,13,2,3,0.6,0.5
2026-04-30T2200,2881A,107.8909,26.531,黔东南苗族侗族自治州,凯里学院,,34,34,25,16,16,67,67,114,102,11,8,2,2,0.4,0.3
2026-04-30T2200,2593A,107.5223,26.2371,黔南布依族苗族自治州,小围寨,,24,24,27,15,13,71,71,98,93,10,8,5,6,0.6,0.5
2026-04-30T2200,3538A,107.5175,26.2977,黔南布依族苗族自治州,沙坝,颗粒物(PM10),51,51,22,17,10,43,43,105,93,19,6,4,4,0.5,0.4
2026-04-30T2200,2589A,104.9022,25.0943,黔西南布依族苗族自治州,场坝街,,28,NA,19,19,14,77,77,86,83,5,5,6,7,0.3,0.3
2026-04-30T2200,2590A,104.8812,25.0994,黔西南布依族苗族自治州,坪东大道,,30,30,19,17,13,76,76,84,81,5,9,4,4,0.3,0.3
2026-04-30T2200,2502A,108.6238,21.9667,钦州市,市环保站,颗粒物(PM10),60,63,26,32,8,95,95,110,109,26,9,7,2,0.7,0.5
2026-04-30T2200,2503A,108.655,21.9481,钦州市,沙埠小学,颗粒物(PM10),78,89,30,25,11,72,72,112,104,32,10,3,2,0.5,0.3
2026-04-30T2200,2504A,108.5989,21.7435,钦州市,港区一小,颗粒物(PM10),57,59,26,33,14,90,90,108,102,36,18,4,4,0.6,0.5
2026-04-30T2200,3404A,108.5959,21.9634,钦州市,北职校,颗粒物(PM10),55,56,19,28,10,63,63,113,105,32,8,2,2,0.5,0.4
2026-04-30T2200,1046A,119.5247,39.9346,秦皇岛市,建设大厦,颗粒物(PM10),73,82,66,21,21,122,122,151,148,20,20,14,14,0.5,0.7
2026-04-30T2200,3132A,119.5979,39.938,秦皇岛市,文明里,颗粒物(PM10),68,75,70,31,22,123,123,145,144,27,27,14,15,0.5,0.6
2026-04-30T2200,4066A,119.7458,39.9952,秦皇岛市,南园路157号,细颗粒物(PM2.5),72,56,66,46,28,117,117,137,137,25,40,9,11,0.4,0.6
2026-04-30T2200,4067A,119.5131,39.8858,秦皇岛市,翠岛大街1号,颗粒物(PM10),58,60,52,23,24,117,117,151,146,32,29,16,15,0.5,0.7
2026-04-30T2200,4198A,119.509013,39.825305,秦皇岛市,北戴河轮滑馆,颗粒物(PM10),59,62,62,35,21,125,125,148,148,20,26,9,14,0.5,0.6
2026-04-30T2200,1310A,120.404,36.0625,青岛市,市南区东部子站,颗粒物(PM10),56,58,55,33,37,104,104,132,128,24,27,6,8,0.4,0.6
2026-04-30T2200,1311A,120.362344,36.10282,青岛市,四方区子站,颗粒物(PM10),65,70,53,42,32,112,112,162,150,34,28,7,8,0.8,0.8
2026-04-30T2200,1312A,120.294373,36.054183,青岛市,市南区西部子站,颗粒物(PM10),86,100,61,36,32,71,71,132,124,70,46,10,7,0.5,0.5
2026-04-30T2200,1313A,120.4581,36.0858,青岛市,崂山区子站,颗粒物(PM10),56,58,50,33,30,133,133,153,151,7,19,9,11,0.3,0.4
2026-04-30T2200,1315A,120.3945,36.3083,青岛市,城阳区子站,颗粒物(PM10),75,85,53,41,26,92,92,148,134,45,26,8,8,0.8,0.7
2026-04-30T2200,3642A,120.3454,36.0735,青岛市,市北区南部,,48,48,49,28,28,122,122,152,148,18,21,6,6,0.7,0.7
2026-04-30T2200,3643A,120.3897,36.18,青岛市,李沧区北部,颗粒物(PM10),60,63,47,37,26,111,111,147,138,30,25,10,11,0.6,0.6
2026-04-30T2200,4110A,120.5222,36.4089,青岛市,盟旺路653号,颗粒物(PM10),57,59,42,37,24,133,133,152,149,16,17,5,5,0.7,0.7
2026-04-30T2200,4290A,120.196923,35.954556,青岛市,珠江路669号,,41,41,63,22,31,129,129,141,141,16,29,5,8,0.7,0.8
2026-04-30T2200,4291A,120.0424,35.8656,青岛市,黄岛区人民政府广场,颗粒物(PM10),51,51,55,23,26,114,114,132,132,25,26,11,11,0.7,0.8
2026-04-30T2200,1703A,113.0218,23.7086,清远市,凤城街办,,22,18,9,11,5,70,70,78,76,21,13,/,/,/,/
2026-04-30T2200,3025A,113.0479,23.6343,清远市,技师学院,,25,21,12,8,6,80,80,89,88,20,15,6,6,0.6,0.5
2026-04-30T2200,3318A,112.9898,23.7403,清远市,清新太和,,27,11,7,3,5,85,85,87,87,14,10,9,8,0.4,0.4
2026-04-30T2200,3455A,113.076,23.72,清远市,清城东城,,19,14,10,9,4,59,59,86,80,16,13,/,/,/,/
2026-04-30T2200,2661A,107.6325,35.7357,庆阳市,庆阳五中,颗粒物(PM10),56,58,59,19,24,93,93,108,105,14,12,3,3,0.4,0.4
2026-04-30T2200,2662A,107.6361,35.7067,庆阳市,市环保局,颗粒物(PM10),55,56,54,19,21,106,106,120,118,14,12,5,6,0.4,0.4
2026-04-30T2200,1916A,103.7897,25.5036,曲靖市,环境监测站,,36,36,34,19,24,87,87,104,102,13,11,4,5,0.4,0.4
2026-04-30T2200,1917A,103.8013,25.5357,曲靖市,烟厂办公区,,31,31,35,21,22,82,82,110,107,11,9,4,7,0.3,0.5
2026-04-30T2200,3376A,103.7926,25.4651,曲靖市,南苑二区,,29,29,27,20,22,84,84,101,97,14,12,4,4,0.4,0.4
2026-04-30T2200,3377A,103.7442,25.5259,曲靖市,曲靖师范学院,,37,37,35,22,25,85,85,104,100,11,12,3,3,0.4,0.4
2026-04-30T2200,1264A,118.8694,28.94,衢州市,环保大楼,,20,20,14,11,10,58,58,109,100,27,14,/,/,/,/
2026-04-30T2200,1266A,118.8622,28.9809,衢州市,衢州学院,,24,20,11,8,11,19,19,100,83,48,13,6,6,0.5,0.4
2026-04-30T2200,4097A,118.9646,28.9832,衢州市,衢州三中,,29,29,15,14,11,36,36,106,90,35,15,8,7,0.4,0.3
2026-04-30T2200,1611A,118.5818,24.9116,泉州市,涂山街,,25,22,11,17,9,58,58,63,62,17,13,4,3,0.4,0.4
2026-04-30T2200,1612A,118.597,24.8976,泉州市,津头埔,,26,22,14,18,11,71,71,73,73,17,14,3,3,0.4,0.4
2026-04-30T2200,1613A,118.6669,24.9422,泉州市,万安,,26,23,13,18,10,59,59,66,66,16,13,5,4,0.5,0.5
2026-04-30T2200,4105A,118.6355,24.9148,泉州市,霞新路6号,,29,25,13,20,10,59,59,64,64,13,9,/,/,0.5,0.4
2026-04-30T2200,2626A,88.8873,29.2723,日喀则市,日喀则监测站,,37,18,10,13,4,118,118,116,116,14,8,8,8,0.6,0.5
2026-04-30T2200,3726A,88.8775,29.2425,日喀则市,林业技术推广中心,NA,NA,16,11,10,2,114,114,120,119,9,6,NA,7,0.5,0.4
2026-04-30T2200,1659A,119.4711,35.421,日照市,监测站,颗粒物(PM10),58,61,45,35,28,65,65,144,108,50,43,11,9,0.9,0.7
2026-04-30T2200,1660A,119.523,35.4216,日照市,市政府广场,颗粒物(PM10),63,68,51,39,28,90,90,143,120,36,31,11,9,1.0,0.8
2026-04-30T2200,1661A,119.5511,35.4113,日照市,港务局,颗粒物(PM10),67,73,64,38,32,82,82,146,117,52,38,13,9,0.9,0.7
2026-04-30T2200,3507A,119.5326,35.4627,日照市,职业技术学院,颗粒物(PM10),70,78,58,37,29,103,103,148,133,38,36,12,10,0.9,0.7
2026-04-30T2200,3604A,119.3267,35.1043,日照市,岚山环保分局,颗粒物(PM10),65,70,64,33,28,102,102,141,128,27,37,53,17,0.6,1.1
2026-04-30T2200,1835A,111.1922,34.7752,三门峡市,市政府,,37,37,46,11,23,112,112,128,122,13,15,9,10,0.4,0.5
2026-04-30T2200,1836A,111.1588,34.794,三门峡市,开发区,,34,34,51,9,25,93,93,127,121,17,13,10,10,0.5,0.5
2026-04-30T2200,3039A,111.1911,34.7829,三门峡市,三门峡市第一小学,NA,NA,22,49,13,26,108,108,128,122,NA,13,8,8,0.3,0.3
2026-04-30T2200,3598A,111.1031,34.719,三门峡市,富达温泉假日酒店,NA,NA,NA,49,NA,21,115,115,136,131,12,13,6,11,0.4,0.3
2026-04-30T2200,2324A,117.621,26.2626,三明市,三钢,,23,18,10,16,7,55,55,65,64,13,7,10,5,0.4,0.4
2026-04-30T2200,2325A,117.6352,26.2714,三明市,三明二中,,17,8,14,7,4,54,54,62,61,9,6,5,3,0.4,0.4
2026-04-30T2200,2326A,117.6028,26.2377,三明市,三元区政府,,19,12,12,8,4,59,59,64,64,11,8,6,4,0.6,0.5
2026-04-30T2200,1877A,109.4962,18.2682,三亚市,河西子站,,36,36,24,16,15,100,100,99,99,5,7,4,4,0.5,0.5
2026-04-30T2200,3540A,109.7348,18.3443,三亚市,君悦子站,颗粒物(PM10),67,73,27,11,6,105,105,107,107,6,7,4,3,0.5,0.5
2026-04-30T2200,4135A,109.1714,18.3739,三亚市,城东小学站,,29,25,27,14,18,90,90,90,90,7,11,/,/,/,/
2026-04-30T2200,2624A,91.7592,29.234,山南市,山南监测站,,31,21,8,3,2,98,98,97,96,2,4,6,6,0.2,0.2
2026-04-30T2200,2625A,91.7701,29.2436,山南市,山南人民医院,,33,12,12,3,3,105,105,100,99,2,5,7,7,0.3,0.4
2026-04-30T2200,1674A,116.6795,23.3666,汕头市,金平子站,,23,23,20,15,10,49,49,65,58,14,15,5,7,0.6,0.6
2026-04-30T2200,1675A,116.7248,23.3632,汕头市,龙湖子站,,20,20,16,14,9,45,45,63,54,10,11,6,7,/,/
2026-04-30T2200,1676A,116.7257,23.2774,汕头市,濠江子站,颗粒物(PM10),69,76,22,11,9,42,42,57,51,12,15,8,9,/,/
2026-04-30T2200,1677A,116.7518,23.4712,汕头市,澄海子站,颗粒物(PM10),52,52,19,17,7,43,43,60,51,15,12,8,8,0.7,0.6
2026-04-30T2200,1678A,116.6088,23.2539,汕头市,潮阳子站,,20,20,22,12,11,49,49,62,57,12,11,8,7,0.5,0.6
2026-04-30T2200,3444A,116.4539,23.2684,汕头市,潮南峡山,NA,NA,27,11,13,6,NA,NA,66,64,21,11,9,7,0.6,0.7
2026-04-30T2200,3624A,116.4069,23.2533,汕头市,潮南子站,NA,NA,35,15,16,6,NA,NA,58,57,24,14,10,6,/,/
2026-04-30T2200,1693A,115.3653,22.7751,汕尾市,市环保局,,20,20,12,9,6,63,63,65,59,8,8,5,5,0.5,0.4
2026-04-30T2200,1695A,115.362,22.7926,汕尾市,新城中学,,22,19,10,15,7,53,53,67,51,9,8,6,6,0.6,0.5
2026-04-30T2200,2645A,109.9155,33.8714,商洛市,监测站,NA,NA,35,33,21,16,107,107,112,107,NA,12,16,11,0.4,0.5
2026-04-30T2200,3045A,109.9647,33.8486,商洛市,商州区中学,,35,35,41,19,15,96,96,112,102,18,13,11,15,0.6,0.5
2026-04-30T2200,2408A,115.6701,34.4283,商丘市,环境监测站,NA,NA,64,58,NA,26,110,110,131,129,7,6,3,3,0.4,0.4
2026-04-30T2200,2409A,115.6458,34.4047,商丘市,粮食局,,49,49,55,28,25,106,106,126,123,12,12,4,3,0.4,0.3
2026-04-30T2200,3171A,115.6069,34.4465,商丘市,梁园区档案局,,44,44,58,26,25,103,103,126,121,10,9,5,5,0.3,0.3
2026-04-30T2200,4119A,115.6701,34.3767,商丘市,北海东路185号,颗粒物(PM10),66,72,49,30,23,68,68,129,120,32,9,5,5,0.5,0.4
2026-04-30T2200,4120A,115.6172,34.3704,商丘市,中山大街3号,颗粒物(PM10),62,66,52,31,26,78,78,122,111,17,10,4,5,0.4,0.3
2026-04-30T2200,1141A,121.401,31.2382,上海市,普陀,NA,NA,55,39,37,27,NA,NA,148,141,51,30,7,6,0.7,0.5
2026-04-30T2200,1142A,121.4774,31.2043,上海市,十五厂,,30,30,35,19,27,87,87,145,134,32,21,6,7,0.7,0.7
2026-04-30T2200,1143A,121.4673,31.3011,上海市,虹口,颗粒物(PM10),53,53,33,34,27,77,77,130,119,53,31,5,5,0.7,0.6
2026-04-30T2200,1147A,121.4253,31.226,上海市,静安监测站,,43,42,32,30,25,83,83,147,133,55,34,9,9,0.9,0.7
2026-04-30T2200,1148A,121.7029,31.1905,上海市,浦东川沙,,32,32,31,17,24,79,79,134,116,39,28,7,8,0.5,0.6
2026-04-30T2200,1149A,121.5339,31.229,上海市,浦东新区监测站,,28,28,31,19,26,87,87,131,122,28,26,6,7,0.5,0.5
