timepoint,stationcode,longitude,latitude,area,positionname,primarypollutant,aqi,pm10,pm10_24h,pm2_5,pm2_5_24h,o3,o3_24h,o3_8h,o3_8h_24h,no2,no2_24h,so2,so2_24h,co,co_24h
2026-04-30T1700,2568A,102.2503,31.8896,阿坝藏族羌族自治州,马师校,,29,9,20,3,9,92,92,84,84,4,5,6,6,0.2,0.3
2026-04-30T1700,3994A,102.2174,31.9016,阿坝藏族羌族自治州,马尔康中学西区,,27,9,11,3,7,86,86,82,82,5,6,4,4,0.3,0.3
2026-04-30T1700,2695A,80.2899,41.1684,阿克苏地区,电视台,颗粒物(PM10),139,220,107,87,59,119,119,102,102,4,15,3,4,0.2,0.3
2026-04-30T1700,2696A,80.2592,41.1541,阿克苏地区,艺术中心,颗粒物(PM10),122,175,93,62,50,125,125,97,97,NA,22,5,4,0.3,0.5
2026-04-30T1700,2205A,105.699,38.8409,阿拉善盟,蒙二幼,,45,26,40,10,12,141,141,131,131,6,5,10,10,0.4,0.5
2026-04-30T1700,2206A,105.7198,38.8508,阿拉善盟,环保局新楼,,41,35,36,3,10,130,130,124,124,6,5,9,9,0.4,0.5
2026-04-30T1700,2708A,88.1266,47.8515,阿勒泰地区,市站,NA,NA,10,18,NA,2,110,110,103,103,4,7,4,5,0.2,0.2
2026-04-30T1700,4166A,88.1198,47.7931,阿勒泰地区,阿勒泰路33号,,35,13,21,3,2,109,109,102,102,3,4,5,6,0.1,0.2
2026-04-30T1700,2630A,80.1171,32.4999,阿里地区,阿里监测站,NA,NA,6,11,3,3,NA,NA,NA,NA,1,4,7,7,0.3,0.4
2026-04-30T1700,3192A,80.0906,32.5029,阿里地区,阿里藏医院,,42,6,7,3,2,132,132,125,125,1,1,9,9,0.3,0.2
2026-04-30T1700,2644A,109.0088,32.6974,安康市,汉滨区检察院,,38,38,36,18,17,117,117,107,107,6,11,6,8,0.3,0.4
2026-04-30T1700,4054A,109.0324,32.6913,安康市,市邮政管理局,,43,43,46,18,19,121,121,105,105,6,12,5,17,0.4,0.5
2026-04-30T1700,2291A,117.0806,30.5181,安庆市,环科院,,43,12,24,3,21,135,135,118,118,12,17,7,8,0.3,0.5
2026-04-30T1700,2292A,117.0331,30.5118,安庆市,马山宾馆,,39,21,25,9,22,124,124,109,109,23,18,6,6,0.1,0.3
2026-04-30T1700,2294A,116.9897,30.6146,安庆市,安庆大学,,46,24,24,12,17,145,145,123,123,17,16,14,5,0.5,0.4
2026-04-30T1700,3173A,117.0598,30.5351,安庆市,市人大,,41,29,28,8,22,131,131,118,118,16,17,5,5,0.3,0.5
2026-04-30T1700,3123A,105.9408,26.2431,安顺市,凤凰山,,45,34,35,31,22,105,105,92,92,8,9,7,13,0.5,0.5
2026-04-30T1700,3124A,105.9443,26.2567,安顺市,金钟山,,40,36,28,28,21,96,96,86,86,7,8,6,11,0.6,0.5
2026-04-30T1700,3125A,105.8983,26.248,安顺市,娄家坡,,32,27,22,22,19,97,97,88,88,5,6,6,10,0.4,0.6
2026-04-30T1700,1819A,114.3552,36.1017,安阳市,红庙街,颗粒物(PM10),65,70,52,27,22,170,170,149,149,12,19,5,6,0.5,0.5
2026-04-30T1700,1820A,114.361,36.0681,安阳市,银杏小区,臭氧1小时(O3_1h),68,69,62,32,23,174,174,151,151,13,19,8,7,0.2,0.3
2026-04-30T1700,3141A,114.3921,36.0879,安阳市,信访局,臭氧1小时(O3_1h),74,52,50,32,24,179,179,151,151,5,16,5,5,0.5,0.5
2026-04-30T1700,3669A,114.4706,36.0634,安阳市,左辅环卫站,臭氧1小时(O3_1h),67,68,58,32,25,173,173,143,143,11,19,4,2,0.6,0.5
2026-04-30T1700,4117A,114.2918,36.0769,安阳市,钢三路198号,颗粒物(PM10),58,61,51,36,24,165,165,148,148,12,15,6,6,0.6,0.6
2026-04-30T1700,1748A,123.0441,41.1201,鞍山市,深沟寺,,46,43,29,20,13,146,146,129,129,14,15,9,10,0.6,0.7
2026-04-30T1700,1749A,123.011,41.0931,鞍山市,太阳城,,45,43,33,21,14,141,141,124,124,12,14,10,10,0.6,0.7
2026-04-30T1700,1750A,123.0483,41.1445,鞍山市,太平,颗粒物(PM10),64,69,38,25,15,128,128,124,124,24,16,19,11,1.5,1
2026-04-30T1700,1751A,122.964,41.0968,鞍山市,铁西三道街,,47,47,41,24,20,140,140,125,125,16,25,8,10,0.6,0.9
2026-04-30T1700,1753A,123.0219,41.0822,鞍山市,明达新区,,44,43,29,22,14,139,139,124,124,14,16,10,11,0.7,0.8
2026-04-30T1700,4201A,122.944647,41.082639,鞍山市,兴盛南路290号,颗粒物(PM10),60,63,54,27,21,143,143,129,129,19,29,10,13,0.5,1
2026-04-30T1700,2195A,107.4206,40.7609,巴彦淖尔市,附二中,颗粒物(PM10),85,98,53,22,15,141,141,126,126,8,11,9,11,0.4,0.3
2026-04-30T1700,2196A,107.37,40.7372,巴彦淖尔市,市环保大楼,颗粒物(PM10),63,68,40,20,12,140,140,126,126,8,9,8,7,0.4,0.4
2026-04-30T1700,1956A,86.1476,41.7529,巴音郭楞蒙古自治州,孔雀公园,颗粒物(PM10),161,272,153,91,58,107,107,100,99,5,8,2,4,0.3,0.3
2026-04-30T1700,1957A,86.1971,41.7166,巴音郭楞蒙古自治州,棉纺厂,颗粒物(PM10),173,296,183,79,59,111,111,107,107,5,5,/,/,/,/
2026-04-30T1700,1958A,86.236,41.7172,巴音郭楞蒙古自治州,经济开发区,颗粒物(PM10),143,231,159,74,43,108,108,103,103,2,3,8,9,0.1,0.1
2026-04-30T1700,3181A,106.776805,31.852614,巴中市,市五中,,30,20,16,9,16,96,96,92,92,9,12,9,9,0.6,0.7
2026-04-30T1700,3183A,106.7419,31.8654,巴中市,圣泉水务公司,NA,NA,22,32,9,14,104,104,96,96,5,19,6,9,NA,0.6
2026-04-30T1700,3616A,106.7617,31.8343,巴中市,市中心医院,,32,19,34,9,18,100,100,92,92,5,14,10,10,0.4,0.5
2026-04-30T1700,2235A,122.7909,45.608,白城市,洮北区环保局,颗粒物(PM10),57,59,36,17,9,109,109,110,110,4,5,3,5,0.4,0.4
2026-04-30T1700,2236A,122.8741,45.5725,白城市,市环保局,,48,48,38,11,11,109,109,108,108,9,14,5,5,0.3,0.3
2026-04-30T1700,2231A,126.4219,41.9172,白山市,喜丰,,38,20,54,3,18,119,119,115,115,5,27,8,9,0.8,0.9
2026-04-30T1700,2232A,126.4082,41.9416,白山市,环保局,,36,17,31,3,15,114,114,112,112,8,17,8,10,0.7,0.7
2026-04-30T1700,2647A,104.1727,36.5448,白银市,第三小学,,41,41,50,19,19,104,104,84,84,4,12,40,31,0.3,0.5
2026-04-30T1700,2648A,104.1467,36.5482,白银市,动力公司,,41,41,43,11,24,104,104,95,95,8,13,18,20,0.3,0.5
2026-04-30T1700,2512A,106.6102,23.901,百色市,市监测站,,42,27,18,11,4,132,132,100,100,11,13,22,9,0.6,0.5
2026-04-30T1700,2513A,106.6524,23.8842,百色市,市中心血站,,41,36,22,10,9,130,130,106,106,9,14,21,14,0.6,0.6
2026-04-30T1700,4133A,106.6273,23.8798,百色市,龙景西路,,44,27,22,16,8,140,140,103,103,11,12,30,13,0.4,0.3
2026-04-30T1700,2270A,117.396,32.9389,蚌埠市,工人疗养院,,45,45,55,6,24,142,142,134,134,15,21,4,4,0.3,0.4
2026-04-30T1700,2271A,117.3606,32.9428,蚌埠市,百货大楼,,45,35,49,3,24,141,141,134,134,6,13,5,5,0.3,0.4
2026-04-30T1700,2273A,117.4183,32.8909,蚌埠市,蚌埠学院,,44,31,49,3,31,140,140,133,133,10,22,4,5,0.3,0.6
2026-04-30T1700,2274A,117.3534,32.9672,蚌埠市,淮上区政府,,46,39,49,8,26,145,145,138,138,14,22,5,5,0.2,0.3
2026-04-30T1700,2275A,117.3143,32.8977,蚌埠市,高新区,,39,34,50,6,26,124,124,121,121,10,22,6,6,0.2,0.3
2026-04-30T1700,3715A,117.3091,32.9314,蚌埠市,蚌埠田家炳中学,,45,39,61,6,43,142,142,132,132,12,22,5,9,0.3,0.3
2026-04-30T1700,1585A,109.8761,40.6533,包头市,市环境监测站,臭氧1小时(O3_1h),54,31,54,12,27,163,163,145,145,11,41,9,12,0.4,0.5
2026-04-30T1700,1587A,109.9992,40.5843,包头市,包头八中,臭氧1小时(O3_1h),57,38,68,25,32,165,165,142,142,13,43,10,14,0.4,1.2
2026-04-30T1700,1589A,109.8641,40.6288,包头市,惠龙物流,,48,28,45,20,28,153,153,135,135,10,38,8,11,0.4,0.6
2026-04-30T1700,1590A,110.0376,40.5546,包头市,东河鸿龙湾,臭氧1小时(O3_1h),55,39,59,24,37,164,164,148,148,12,54,13,16,0.4,0.6
2026-04-30T1700,3283A,109.9154,40.5684,包头市,滨河大厦,臭氧1小时(O3_1h),54,41,46,25,33,163,163,143,143,13,47,12,13,0.5,0.6
2026-04-30T1700,3419A,109.9449,40.6259,包头市,包头市委党校,,50,28,40,22,26,157,157,139,139,14,36,9,13,0.5,0.7
2026-04-30T1700,3683A,109.8332,40.6577,包头市,昆区政府,,45,25,47,20,28,142,142,135,135,14,47,9,12,0.6,0.8
2026-04-30T1700,1931A,107.0802,34.3129,宝鸡市,竹园沟,颗粒物(PM10),70,78,59,18,29,144,144,123,123,11,10,9,8,0.6,0.7
2026-04-30T1700,1933A,107.1429,34.3549,宝鸡市,监测站,颗粒物(PM10),69,76,73,19,40,139,139,120,120,16,17,6,6,0.4,0.5
2026-04-30T1700,1934A,107.1172,34.3759,宝鸡市,技工学校,颗粒物(PM10),63,67,76,20,45,143,143,126,126,14,13,5,5,0.5,0.6
2026-04-30T1700,1936A,107.2025,34.3518,宝鸡市,文理学院,颗粒物(PM10),52,52,73,19,44,142,142,123,123,11,17,6,6,0.4,0.5
2026-04-30T1700,1937A,107.2396,34.3626,宝鸡市,三迪小学,颗粒物(PM10),53,53,82,23,45,142,142,125,125,12,18,6,6,0.5,0.6
2026-04-30T1700,4155A,107.1721,34.3558,宝鸡市,滨河北路,颗粒物(PM10),68,75,148,19,46,136,136,118,118,11,15,8,8,0.6,0.7
2026-04-30T1700,4308A,107.3898,34.3601,宝鸡市,陈仓区北开路21号,颗粒物(PM10),65,70,88,23,46,137,137,126,126,10,23,9,9,0.4,0.5
2026-04-30T1700,1051A,115.4803,38.8568,保定市,游泳馆,臭氧1小时(O3_1h),63,52,51,26,29,170,170,148,148,9,18,5,4,0.2,0.5
2026-04-30T1700,1052A,115.509,38.8895,保定市,华电二区,臭氧1小时(O3_1h),52,46,42,28,24,161,161,130,130,10,18,3,3,0.4,0.3
2026-04-30T1700,1053A,115.4588,38.9037,保定市,接待中心,臭氧1小时(O3_1h),54,46,48,22,23,163,163,144,144,7,13,3,3,0.3,0.3
2026-04-30T1700,1054A,115.4484,38.8344,保定市,地表水厂,"颗粒物(PM10),臭氧1小时(O3_1h)",63,67,65,21,23,170,170,148,148,10,22,4,4,0.2,0.3
2026-04-30T1700,3581A,115.3136,38.9511,保定市,满城区生态环境分局,臭氧1小时(O3_1h),64,66,65,13,19,171,171,150,150,5,16,4,4,0.2,0.3
2026-04-30T1700,3582A,115.4709,38.7628,保定市,清苑区第二中学,颗粒物(PM10),73,81,69,19,23,161,161,147,147,6,21,9,7,0.4,0.4
2026-04-30T1700,3583A,115.6231,39.0223,保定市,徐水物探局,颗粒物(PM10),73,81,73,31,29,166,166,141,141,11,24,4,3,0.5,0.5
2026-04-30T1700,4004A,115.4199,38.8665,保定市,双鹰农机,臭氧1小时(O3_1h),70,60,65,26,27,176,176,153,153,7,19,2,3,0.2,0.2
2026-04-30T1700,4034A,115.515,38.8589,保定市,植保所站,臭氧1小时(O3_1h),73,55,57,26,23,178,178,151,151,10,20,2,3,0.4,0.4
2026-04-30T1700,2594A,99.1589,25.1137,保山市,市环境监测站,,30,29,21,11,16,93,93,82,82,7,10,6,6,0.3,0.3
2026-04-30T1700,2595A,99.1616,25.1381,保山市,市环保局,,30,25,23,16,20,94,94,84,84,6,8,7,7,0.3,0.3
2026-04-30T1700,1867A,109.1435,21.4085,北海市,海滩公园,,34,20,17,13,12,106,106,90,90,7,9,7,7,0.5,0.7
2026-04-30T1700,1868A,109.0983,21.466,北海市,新市环保局,,35,19,14,11,8,110,110,92,92,8,8,4,5,0.6,0.5
2026-04-30T1700,1869A,109.1775,21.5232,北海市,北海工业园,,35,33,14,10,9,110,110,97,97,5,7,6,6,0.7,0.7
2026-04-30T1700,3400A,109.1844,21.4396,北海市,龙潭自来水厂,NA,NA,13,14,NA,6,114,114,94,94,7,8,11,10,0.8,0.8
2026-04-30T1700,1001A,116.3611,39.8786,北京市,万寿西宫,臭氧1小时(O3_1h),62,58,49,24,17,169,169,128,128,12,29,5,3,0.3,0.3
2026-04-30T1700,1003A,116.4174,39.9289,北京市,东四,臭氧1小时(O3_1h),69,56,44,30,21,175,175,131,131,12,28,4,3,0,0.1
2026-04-30T1700,1004A,116.4073,39.8858,北京市,天坛,臭氧1小时(O3_1h),54,54,39,24,17,163,163,123,123,9,24,6,4,0,0
2026-04-30T1700,1005A,116.4622,39.9364,北京市,农展馆,"颗粒物(PM10),臭氧1小时(O3_1h)",57,59,45,19,17,165,165,124,124,7,26,5,3,0.3,0.4
2026-04-30T1700,1006A,116.3399,39.9293,北京市,官园,颗粒物(PM10),56,58,43,36,22,156,156,119,119,16,34,3,2,0.3,0.3
2026-04-30T1700,1007A,116.2879,39.9613,北京市,海淀万柳,颗粒物(PM10),53,53,53,24,20,134,134,108,108,12,17,5,4,0.3,0.3
2026-04-30T1700,1008A,116.6635,40.1349,北京市,顺义新城,臭氧1小时(O3_1h),52,51,42,31,15,161,161,130,130,14,27,4,3,0.4,0.4
2026-04-30T1700,1009A,116.6275,40.327,北京市,怀柔镇,颗粒物(PM10),53,53,29,26,12,159,159,127,127,11,9,5,4,0.3,0.3
2026-04-30T1700,1010A,116.2295,40.217,北京市,昌平镇,"颗粒物(PM10),臭氧1小时(O3_1h)",57,59,34,20,12,165,165,122,122,12,19,4,3,0.4,0.3
2026-04-30T1700,1011A,116.3968,39.982,北京市,奥体中心,颗粒物(PM10),54,55,40,28,19,152,152,113,113,12,31,5,4,0.2,0.2
2026-04-30T1700,3418A,116.8336,40.4095,北京市,密云新城,,49,47,34,20,11,156,156,131,131,14,13,3,2,0.2,0.2
2026-04-30T1700,3671A,116.0879,39.9725,北京市,门头沟三家店,颗粒物(PM10),75,85,35,42,12,153,153,118,118,12,17,4,2,0.2,0.1
2026-04-30T1700,3672A,116.1507,39.8246,北京市,丰台云岗,颗粒物(PM10),65,71,61,37,19,164,164,128,128,12,30,3,2,0.4,0.2
2026-04-30T1700,3674A,115.9578,39.7602,北京市,房山燕山,颗粒物(PM10),65,70,40,26,16,149,149,119,119,11,12,5,4,0.3,0.3
2026-04-30T1700,3675A,116.4669,39.7734,北京市,大兴旧宫,臭氧1小时(O3_1h),55,38,47,17,17,164,164,127,127,9,28,2,2,0.4,0.3
2026-04-30T1700,3694A,115.9859,40.4562,北京市,延庆石河营,,49,44,37,15,13,154,154,105,105,6,16,2,2,0.4,0.4
2026-04-30T1700,3695A,116.6151,40.3052,北京市,怀柔新城,颗粒物(PM10),54,55,31,14,12,152,152,121,121,19,13,5,4,0.3,0.3
2026-04-30T1700,3696A,116.2542,39.8764,北京市,丰台小屯,,49,49,53,19,19,143,143,116,116,8,30,4,3,0.3,0.4
2026-04-30T1700,3697A,116.8399,40.3843,北京市,密云镇,颗粒物(PM10),53,54,32,29,12,157,157,132,132,20,24,4,3,0.3,0.4
2026-04-30T1700,4057A,115.9423,40.4431,北京市,延庆百泉,,50,46,34,13,14,158,158,109,109,11,23,2,2,0.4,0.4
2026-04-30T1700,4058A,116.6598,39.9164,北京市,通州新华,颗粒物(PM10),52,52,50,22,18,149,149,114,114,13,32,6,5,0.4,0.4
2026-04-30T1700,4182A,116.1942,39.9158,北京市,石景山八角,颗粒物(PM10),81,93,57,29,20,144,144,105,105,18,37,4,3,0.2,0.1
2026-04-30T1700,4194A,117.078628,40.151726,北京市,平谷新城,颗粒物(PM10),53,53,43,19,17,160,160,128,128,12,16,3,2,0.4,0.3
2026-04-30T1700,1761A,123.8274146,41.31234549,本溪市,大峪,,39,24,36,8,14,123,123,114,114,10,20,10,8,0.6,0.7
2026-04-30T1700,1763A,123.7169,41.3094,本溪市,彩屯,,39,33,52,6,26,122,122,114,114,5,30,10,19,0.4,1.4
2026-04-30T1700,1764A,123.7672166,41.28649327,本溪市,东明,颗粒物(PM10),54,55,52,11,18,120,120,114,114,13,33,7,6,0.7,0.9
2026-04-30T1700,1765A,123.799345,41.266614,本溪市,新立屯,,41,27,36,3,11,129,129,121,121,5,33,8,8,0.6,0.7
2026-04-30T1700,1766A,123.829144,41.336777,本溪市,威宁,,40,22,49,8,18,128,128,116,116,10,25,11,8,0.8,0.8
2026-04-30T1700,2587A,105.287,27.3133,毕节市,八中,,48,37,32,33,19,88,88,79,79,12,11,12,9,0.5,0.6
2026-04-30T1700,2588A,105.3079,27.2987,毕节市,师专,,42,42,36,27,19,81,81,67,67,12,11,17,11,0.5,0.4
2026-04-30T1700,4263A,105.3688,27.3598,毕节市,工业大道,,41,41,39,25,20,96,96,76,76,10,13,10,11,/,/
2026-04-30T1700,1629A,117.9961,37.3604,滨州市,第二水厂,,48,48,45,17,21,149,149,136,136,8,23,7,8,0.2,0.3
2026-04-30T1700,1630A,117.9789,37.3931,滨州市,北中新校,,50,44,42,16,17,160,160,151,151,12,23,11,9,0.3,0.3
2026-04-30T1700,3514A,117.9379,37.3959,滨州市,中海酒店,臭氧1小时(O3_1h),64,39,38,15,19,171,171,154,154,15,28,8,9,0.3,0.3
2026-04-30T1700,3515A,117.9381509,37.35547456,滨州市,开发区一中,,49,46,50,16,21,156,156,141,141,12,27,9,11,0.3,0.4
2026-04-30T1700,3516A,118.0914,37.6938,滨州市,金海六路,颗粒物(PM10),60,63,48,14,21,155,155,146,146,4,27,6,7,0.3,0.1
2026-04-30T1700,4028A,117.9955,37.3752,滨州市,滨州市西街道办事处,颗粒物(PM10),53,53,44,15,18,158,158,144,144,9,22,5,7,0.4,0.5
2026-04-30T1700,2311A,115.8071,33.8399,亳州市,污水处理厂,,39,35,43,6,16,124,124,121,121,7,10,6,8,0.1,0.2
2026-04-30T1700,2312A,115.7789,33.8519,亳州市,三国揽胜宫,,43,43,44,9,16,117,117,114,114,5,8,6,6,0.1,0.1
2026-04-30T1700,3332A,115.7631,33.803,亳州市,亳州学院,,37,24,31,7,20,116,116,114,114,3,7,7,10,0.2,0.3
2026-04-30T1700,2693A,82.0482,44.8553,博尔塔拉蒙古自治州,市党校,颗粒物(PM10),88,102,164,18,39,125,125,107,107,4,4,3,2,0.3,0.4
2026-04-30T1700,2694A,82.0805,44.8966,博尔塔拉蒙古自治州,市环保局,颗粒物(PM10),81,93,149,16,35,119,119,98,98,5,9,4,2,0.3,0.3
2026-04-30T1700,1071A,116.8733,38.2922,沧州市,沧县城建局,,50,41,48,24,24,160,160,147,147,12,22,6,6,0.5,0.5
2026-04-30T1700,1072A,116.8462,38.3189,沧州市,电视转播站,臭氧1小时(O3_1h),57,49,51,27,22,165,165,148,148,12,18,13,7,0.3,0.4
2026-04-30T1700,1073A,116.8588,38.3161,沧州市,市环保局,"颗粒物(PM10),臭氧1小时(O3_1h)",53,53,53,24,19,162,162,149,149,11,20,10,8,0.4,0.4
2026-04-30T1700,3324A,116.8011,38.294,沧州市,河北水利电力学院,,48,48,48,24,26,134,134,122,122,10,29,10,8,0.3,0.3
2026-04-30T1700,2622A,97.1813,31.1289,昌都市,昌都监测站,,36,11,11,3,3,115,115,90,90,4,11,12,12,0.1,0.5
2026-04-30T1700,3719A,97.1707,31.1428,昌都市,昌都会议中心,,38,7,10,3,4,120,120,90,90,4,6,6,7,0.4,0.4
2026-04-30T1700,2692A,87.2722,44.0298,昌吉回族自治州,新区政务中心,NA,NA,12,41,3,12,NA,NA,94,94,6,15,7,6,0.3,0.4
2026-04-30T1700,3613A,87.3069,44.0093,昌吉回族自治州,亚心广场,,35,12,51,3,11,111,111,100,100,2,10,4,5,0.2,0.3
2026-04-30T1700,4164A,87.2057,43.9289,昌吉回族自治州,财政所,,35,19,56,3,8,109,109,102,102,6,9,7,7,0.3,0.3
2026-04-30T1700,1120A,125.2874,43.9024,长春市,客车厂,,38,37,38,18,21,120,120,111,111,12,22,9,8,0.4,0.4
2026-04-30T1700,1121A,125.2943,43.8508,长春市,邮电学院,,40,33,33,13,14,126,126,118,118,10,17,8,8,0.4,0.4
2026-04-30T1700,1122A,125.3648,43.8745,长春市,劳动公园,,41,34,36,15,15,129,129,121,121,10,18,8,7,0.4,0.3
2026-04-30T1700,1123A,125.3233,43.8781,长春市,园林处,,42,30,32,12,14,133,133,124,124,9,14,8,8,0.4,0.4
2026-04-30T1700,1124A,125.4604,43.7904,长春市,净月潭,,40,28,25,13,14,128,128,122,122,7,11,6,6,0.4,0.3
2026-04-30T1700,1126A,125.38,43.8422,长春市,经开区环卫处,颗粒物(PM10),55,57,40,14,16,128,128,120,120,13,23,6,6,0.4,0.4
2026-04-30T1700,1127A,125.234,43.7761,长春市,高新区管委会,,40,31,34,13,14,128,128,120,120,9,19,10,8,0.4,0.3
2026-04-30T1700,1128A,125.1695,43.83,长春市,岱山公园,,45,37,39,13,15,142,142,133,133,11,31,6,6,0.4,0.3
2026-04-30T1700,4281A,125.334645,43.916281,长春市,北亚泰大街1068号,,39,34,38,24,17,124,124,117,117,17,26,8,7,0.4,0.4
2026-04-30T1700,1335A,113.082,28.2421,长沙市,经开区环保局,,42,30,24,15,13,132,132,111,111,9,13,3,3,0.4,0.4
2026-04-30T1700,1336A,112.8873,28.2202,长沙市,高开区环保局,,47,26,26,14,16,148,148,119,119,11,18,6,6,0.4,0.4
2026-04-30T1700,1337A,113.0785,28.2012,长沙市,马坡岭,NA,NA,28,24,12,14,141,141,122,122,8,15,NA,6,NA,0.6
2026-04-30T1700,1338A,112.9448,28.1894,长沙市,湖南师范大学,,48,25,23,12,15,151,151,125,125,8,14,6,6,0.5,0.5
2026-04-30T1700,1339A,113.0177,28.1322,长沙市,雨花区环保局,,45,26,24,13,14,144,144,125,125,12,14,4,4,0.4,0.5
2026-04-30T1700,1340A,112.9795,28.2593,长沙市,伍家岭,,44,26,27,12,16,139,139,114,114,5,13,5,4,0.6,0.6
2026-04-30T1700,1341A,113.002,28.1944,长沙市,火车新站,,43,25,25,11,15,136,136,114,114,12,16,4,5,0.3,0.3
2026-04-30T1700,1342A,112.9846,28.1177,长沙市,天心区环保局,,48,32,25,14,15,151,151,126,126,14,15,5,5,0.3,0.3
2026-04-30T1700,1343A,112.8906,28.1307,长沙市,湖南中医药大学,臭氧1小时(O3_1h),58,35,28,14,15,166,166,130,130,11,21,6,6,0.6,0.6
2026-04-30T1700,1727A,113.1146,36.1547,长治市,清华站,,50,22,35,14,18,157,157,147,147,12,17,9,9,0.3,0.5
2026-04-30T1700,1730A,113.0887,36.2126,长治市,审计局,,50,27,38,7,21,158,158,145,145,8,14,8,10,0.4,0.6
2026-04-30T1700,1731A,113.0845,36.1856,长治市,长治八中,,50,36,47,7,20,159,159,143,143,10,15,10,10,0.3,0.5
2026-04-30T1700,2845A,113.1561,36.1912,长治市,德盛苑,臭氧1小时(O3_1h),58,25,34,13,23,166,166,162,162,11,13,10,11,0.4,0.5
2026-04-30T1700,3568A,113.0603,36.0464,长治市,向阳小学,颗粒物(PM10),58,60,69,17,22,162,162,148,148,18,22,10,9,0.4,0.6
2026-04-30T1700,3569A,112.8788,36.315,长治市,屯留一中,,47,16,33,3,20,148,148,135,135,9,18,9,8,0.3,0.5
2026-04-30T1700,4189A,113.113092,36.199482,长治市,英华南巷50号,臭氧1小时(O3_1h),52,29,43,8,19,161,161,149,149,10,13,8,9,0.3,0.6
2026-04-30T1700,4190A,113.23666,36.33435,长治市,学府街1号,,45,22,47,8,19,142,142,136,136,9,16,6,7,0.4,0.6
2026-04-30T1700,1854A,111.696,28.9725,常德市,市二中,,43,23,26,12,15,137,137,113,113,8,13,10,9,0.6,0.7
2026-04-30T1700,3138A,111.7152,29.0288,常德市,武陵区永安,,44,28,29,12,14,139,139,119,119,5,9,6,8,0.5,0.6
2026-04-30T1700,3139A,111.6891,28.9881,常德市,鼎城区玉霞,,43,28,28,13,15,137,137,120,120,4,13,9,9,0.7,0.7
2026-04-30T1700,3140A,111.6651,29.0526,常德市,武陵区长庚,,43,38,29,15,16,137,137,119,119,7,12,8,9,0.6,0.7
2026-04-30T1700,1196A,119.9524,31.7586,常州市,市监测站,,46,34,56,14,32,146,146,130,130,14,24,5,6,0.6,0.7
2026-04-30T1700,1200A,119.9351,31.703,常州市,武进监测站,,42,25,47,11,27,134,134,120,120,14,22,3,8,0.5,0.6
2026-04-30T1700,3002A,119.9701,31.813,常州市,行政中心,,46,43,46,15,30,146,146,123,123,15,25,5,6,0.3,0.4
2026-04-30T1700,3003A,120.0434,31.7726,常州市,经开区,臭氧1小时(O3_1h),54,29,56,10,26,163,163,137,137,11,20,2,6,0.5,0.7
2026-04-30T1700,3010A,119.8919,31.7892,常州市,钟楼,,50,34,51,14,28,159,159,134,134,19,30,7,8,0.3,0.5
2026-04-30T1700,3429A,119.8595,31.706,常州市,武进经发区,,45,24,38,17,30,143,143,124,124,16,26,6,7,0.6,0.7
2026-04-30T1700,3430A,119.5812,31.7256,常州市,金坛城区,,43,24,33,18,31,135,135,122,122,7,13,9,9,0.5,0.6
2026-04-30T1700,4089A,119.9551,31.863,常州市,崇义南街5-H号,NA,NA,50,50,17,32,156,156,130,130,NA,29,7,7,NA,0.6
2026-04-30T1700,2220A,120.4318,41.588,朝阳市,西梁,,50,50,43,19,13,148,148,123,123,14,25,11,8,0.5,0.5
2026-04-30T1700,2221A,120.452,41.565,朝阳市,河畔小区,颗粒物(PM10),56,58,31,21,11,151,151,126,126,11,13,12,8,0.5,0.4
2026-04-30T1700,2222A,120.4176,41.5648,朝阳市,八里堡,颗粒物(PM10),63,67,37,18,13,154,154,127,127,16,22,13,9,0.5,0.5
2026-04-30T1700,3026A,116.6179,23.6608,潮州市,市政府,,23,22,5,7,4,72,72,64,64,4,2,3,2,0.4,0.4
2026-04-30T1700,4036A,116.646,23.676,潮州市,金山,,20,11,7,6,5,63,63,56,56,4,3,2,2,0.4,0.3
2026-04-30T1700,2473A,113.0116,25.8228,郴州市,市职中,,36,12,12,3,8,113,113,103,103,8,10,7,6,0.2,0.2
2026-04-30T1700,2475A,113.0381,25.8074,郴州市,市审计局,,31,14,15,6,9,99,99,91,91,6,8,8,6,/,/
2026-04-30T1700,2476A,113.0348,25.7757,郴州市,市环保局,,34,18,19,7,10,107,107,100,100,11,9,10,9,0.2,0.3
2026-04-30T1700,4252A,113.0138,25.8011,郴州市,好美居路49号,,36,24,15,3,6,114,114,104,104,7,8,9,7,/,/
2026-04-30T1700,1431A,103.9727,30.7242,成都市,金泉两河,,45,44,42,31,28,113,113,85,85,14,20,3,3,0.4,0.4
2026-04-30T1700,1432A,104.1423,30.6765,成都市,十里店,颗粒物(PM10),55,57,40,29,29,120,120,88,88,17,18,4,4,0.6,0.5
2026-04-30T1700,1433A,104.0594,30.5765,成都市,三瓦窑,颗粒物(PM10),53,54,39,35,29,99,99,91,91,23,19,3,3,0.9,0.8
2026-04-30T1700,1434A,104.1122,30.6306,成都市,沙河铺,颗粒物(PM10),53,53,41,31,27,107,107,78,78,22,20,2,2,0.6,0.6
2026-04-30T1700,2880A,104.0219,30.6561,成都市,大石西路,细颗粒物(PM2.5),60,56,44,40,32,102,102,73,73,21,20,4,4,0.6,0.6
2026-04-30T1700,3136A,104.2724,30.559,成都市,龙泉驿区区政府,,46,46,31,30,24,110,110,98,98,15,10,7,7,0.6,0.6
2026-04-30T1700,3357A,104.0028,30.6891,成都市,金博路,,50,42,33,35,29,109,109,80,80,17,20,5,5,0.6,0.6
2026-04-30T1700,3359A,104.056,30.5228,成都市,华阳,颗粒物(PM10),55,56,34,33,25,103,103,97,97,25,13,5,5,0.5,0.9
2026-04-30T1700,3488A,104.387954,30.746684,成都市,青石路225号,,38,29,35,26,29,112,112,106,106,12,15,6,6,0.5,0.5
2026-04-30T1700,3489A,104.0788,30.4054,成都市,科学城,颗粒物(PM10),58,60,30,34,21,116,116,109,109,9,7,5,5,0.4,0.6
2026-04-30T1700,4011A,103.8505,30.6946,成都市,光华大道三段,细颗粒物(PM2.5),58,58,52,39,32,107,107,85,85,10,15,4,4,0.5,0.6
2026-04-30T1700,4144A,104.3257,30.6406,成都市,八角井街185号,,42,38,40,29,29,108,108,95,95,11,10,6,6,0.6,0.6
2026-04-30T1700,4224A,104.2433276,30.53529463,成都市,鲸龙路1057号,,49,49,32,34,23,113,113,101,101,17,12,6,6,0.6,0.6
2026-04-30T1700,1062A,117.9531,40.908,承德市,铁路,,39,12,23,3,6,124,124,105,105,7,16,7,7,0.3,0.4
2026-04-30T1700,1063A,117.9397,40.9763,承德市,中国银行,,39,12,27,3,7,122,122,105,105,3,14,6,5,0.3,0.4
2026-04-30T1700,4073A,117.9462,40.95,承德市,杏林街1号,,42,25,30,6,11,132,132,114,114,4,16,6,6,0.3,0.4
2026-04-30T1700,4274A,117.7994,40.9605,承德市,滨河大街98号,,40,12,31,3,9,128,128,110,110,4,15,15,26,0.5,0.8
2026-04-30T1700,2314A,117.4698,30.6617,池州市,池州学院,,41,13,20,12,19,130,130,110,110,15,17,4,3,0.3,0.5
2026-04-30T1700,3237A,117.4918,30.6617,池州市,展览馆,,44,NA,19,7,17,138,138,123,123,12,15,3,3,0.4,0.6
2026-04-30T1700,3333A,117.5626,30.695,池州市,第八中学,NA,NA,12,20,9,16,133,133,111,111,22,21,4,3,NA,0.4
2026-04-30T1700,3334A,117.5037,30.6242,池州市,第十二中学,,44,15,19,10,14,138,138,119,119,15,23,5,4,0.3,0.6
2026-04-30T1700,1744A,118.9229,42.2816,赤峰市,松山一中,,35,8,40,3,17,111,111,103,103,16,38,6,9,0.5,0.7
2026-04-30T1700,1745A,118.9588,42.2733,赤峰市,哈达街,,30,NA,17,10,12,96,96,92,92,15,18,6,10,0.4,0.6
2026-04-30T1700,1746A,118.8792,42.2551,赤峰市,天义路,,36,6,16,3,9,114,114,103,103,9,26,5,8,0.4,0.6
2026-04-30T1700,3058A,119.2656,42.0356,赤峰市,银河街,,38,6,44,3,17,121,121,112,112,6,23,6,19,0.4,0.6
2026-04-30T1700,3286A,118.9359,42.3146,赤峰市,桥北物流园区,,35,6,17,3,7,112,112,98,98,2,24,3,4,0.4,0.5
2026-04-30T1700,2521A,107.3473,22.4137,崇左市,市环保局江州分局,,34,22,14,6,5,108,108,101,101,6,6,5,6,0.7,0.7
2026-04-30T1700,4256A,107.375,22.3736,崇左市,石景林东路7号,,35,13,11,7,6,111,111,102,102,6,6,4,4,0.4,0.4
2026-04-30T1700,3207A,118.31131,32.3033,滁州市,市政府原办公楼,,41,28,34,19,27,131,131,125,125,10,13,5,4,0.3,0.4
2026-04-30T1700,3331A,118.3268,32.2633,滁州市,图书馆,,41,25,34,12,20,129,129,122,122,9,13,9,9,0.5,0.6
2026-04-30T1700,4101A,118.3196,32.3335,滁州市,银山路666号,,41,30,34,14,25,130,130,125,125,9,11,7,6,0.2,0.3
2026-04-30T1700,4102A,118.3426,32.2979,滁州市,黄山路555号,,44,35,46,13,23,139,139,134,134,3,11,7,6,0.6,0.7
2026-04-30T1700,2606A,101.5379,25.0492,楚雄彝族自治州,市经济开发区,NA,NA,NA,19,NA,14,86,86,81,NA,NA,9,2,2,0.4,0.5
2026-04-30T1700,4153A,101.5536,25.0343,楚雄彝族自治州,团结路562号,,29,16,16,13,14,91,91,86,86,5,6,3,4,0.3,0.3
2026-04-30T1700,2549A,107.5087,31.2186,达州市,市环境监测站,NA,NA,NA,44,12,14,103,103,95,95,12,28,5,5,0.2,0.4
2026-04-30T1700,2550A,107.4988,31.2132,达州市,凤凰小区,,36,36,45,9,15,108,108,95,95,7,27,4,5,0.3,0.4
2026-04-30T1700,2551A,107.5081,31.1987,达州市,达县机关宾馆,,39,39,46,8,18,107,107,91,91,16,33,3,4,0.3,0.5
2026-04-30T1700,2552A,107.4644,31.2124,达州市,市政中心,颗粒物(PM10),64,69,52,10,16,112,112,97,97,11,31,4,4,0.3,0.5
2026-04-30T1700,2614A,100.2168,25.5818,大理白族自治州,大理市环境监测站,,32,14,18,10,12,101,101,83,83,9,12,4,4,0.5,0.6
2026-04-30T1700,2615A,100.1542,25.7055,大理白族自治州,大理古城,,24,20,15,16,13,75,75,62,62,10,10,5,4,0.8,0.8
2026-04-30T1700,1109A,121.6119,38.974,大连市,甘井子,细颗粒物(PM2.5),82,85,43,51,32,130,130,124,124,40,28,12,11,0.6,0.5
2026-04-30T1700,1110A,121.565,38.9509,大连市,周水子,细颗粒物(PM2.5),86,73,46,53,29,119,119,106,106,45,32,12,9,1.0,0.7
2026-04-30T1700,1111A,121.5637,38.8849,大连市,星海三站,细颗粒物(PM2.5),92,79,56,56,38,134,134,96,89,35,27,8,7,0.7,0.5
2026-04-30T1700,1112A,121.6301,38.9117,大连市,青泥洼桥,细颗粒物(PM2.5),80,76,44,50,29,163,163,129,129,27,22,10,8,0.7,0.5
2026-04-30T1700,1113A,121.6248,38.8643,大连市,傅家庄,细颗粒物(PM2.5),94,84,59,57,37,134,134,100,85,31,23,10,9,0.7,0.5
2026-04-30T1700,1114A,121.5117,38.8636,大连市,七贤岭,NA,NA,71,41,44,26,129,129,111,111,NA,22,8,7,0.6,0.5
2026-04-30T1700,1116A,121.7507,39.1339,大连市,金州,NA,NA,61,44,52,26,156,156,102,NA,NA,24,NA,11,0.6,0.5
2026-04-30T1700,1117A,121.7811,39.0495,大连市,开发区,细颗粒物(PM2.5),74,64,43,47,29,155,155,123,123,40,41,13,10,0.7,0.6
2026-04-30T1700,1118A,121.9762,39.0631,大连市,双D港,细颗粒物(PM2.5),84,57,42,52,30,94,94,83,76,47,32,8,7,0.6,0.6
2026-04-30T1700,4082A,121.2548,38.8188,大连市,旅顺,臭氧1小时(O3_1h),58,43,48,27,34,166,166,135,135,14,22,10,8,0.5,0.6
2026-04-30T1700,1789A,124.8085,46.0381,大庆市,大同区,颗粒物(PM10),93,110,104,7,16,107,107,108,108,6,9,2,2,0.3,0.4
2026-04-30T1700,1790A,125.1166,46.5255,大庆市,龙凤区,颗粒物(PM10),113,153,97,42,24,92,92,91,91,11,12,7,14,0.2,0.3
2026-04-30T1700,1791A,124.8894,46.4007,大庆市,红岗区,颗粒物(PM10),142,228,94,76,29,97,97,94,94,7,10,10,10,0.2,0.3
2026-04-30T1700,1792A,125.1391,46.578,大庆市,萨尔图区,颗粒物(PM10),108,139,93,18,16,95,95,96,96,12,14,7,9,0.2,0.4
2026-04-30T1700,1793A,124.9026,46.6217,大庆市,让胡路区,颗粒物(PM10),104,130,86,25,15,90,90,91,91,6,9,3,2,0.3,0.3
2026-04-30T1700,3481A,125.127,46.6277,大庆市,萨区政府监测点,颗粒物(PM10),122,176,102,21,16,98,98,98,98,2,6,8,11,0.3,0.4
2026-04-30T1700,1723A,113.2926,40.0759,大同市,云冈宾馆,,47,33,85,15,25,150,150,119,119,10,41,6,11,0.5,1.3
2026-04-30T1700,1724A,113.3437,40.0921,大同市,大同大学,,46,41,77,13,27,146,146,119,119,12,32,5,10,0.4,0.6
2026-04-30T1700,1725A,113.2637,40.129,大同市,安家小村,,46,39,85,11,23,146,146,119,119,11,34,7,11,0.1,1
2026-04-30T1700,3282A,113.3399,40.0586,大同市,大同市卫生学校,,50,42,74,8,23,160,160,124,124,11,34,7,12,0.3,0.8
2026-04-30T1700,3565A,113.1371,40.1122,大同市,云冈站,,45,30,66,10,18,141,141,126,126,5,30,5,10,0.3,0.4
2026-04-30T1700,3566A,113.1186,40.2556,大同市,图书馆,,43,28,55,10,19,136,136,125,125,11,16,6,7,0.5,0.7
2026-04-30T1700,3567A,113.5931,40.0459,大同市,区一中,,49,49,64,14,20,155,155,131,131,15,19,6,2,0.4,0.5
2026-04-30T1700,4199A,113.2798248,40.09972476,大同市,魏都大道141号,NA,NA,NA,99,0,28,141,141,114,114,9,41,NA,14,0.3,1.5
2026-04-30T1700,2269A,124.1068,50.4091,大兴安岭地区,科技局,,30,28,138,6,101,94,94,94,94,2,17,6,10,0.1,0.7
2026-04-30T1700,3663A,124.117,50.4279,大兴安岭地区,红旗社区,,31,12,108,3,94,99,99,100,100,5,23,5,10,0.2,0.6
2026-04-30T1700,1600A,124.33,40.0625,丹东市,江湾东路,,41,27,59,13,32,131,131,134,134,14,19,8,8,0.3,0.8
2026-04-30T1700,1601A,124.4242,40.1513,丹东市,临江后街,,41,28,50,14,28,130,130,128,128,11,16,8,9,0.2,0.5
2026-04-30T1700,1602A,124.3935,40.1461,丹东市,元宝山,,41,27,49,11,28,130,130,127,127,12,19,7,9,0.4,0.7
2026-04-30T1700,1603A,124.3634,40.1093,丹东市,民主桥,,40,32,65,13,35,126,126,127,127,13,29,8,9,0.4,0.8
2026-04-30T1700,3541A,109.5726195,19.51688767,儋州市,第一中学子站,,29,17,18,9,9,92,92,80,80,4,5,4,4,0.5,0.5
2026-04-30T1700,3542A,109.5567,19.5187,儋州市,东坡学校子站,,33,18,24,8,7,103,103,92,92,4,5,4,4,0.4,0.5
2026-04-30T1700,2616A,98.5611,24.4273,德宏傣族景颇族自治州,德宏州监测站,,40,31,32,28,31,83,83,69,69,8,11,7,7,0.6,1
2026-04-30T1700,3677A,98.5887,24.4366,德宏傣族景颇族自治州,芒市人民政府综合楼,颗粒物(PM10),67,73,62,31,34,81,81,70,70,11,12,4,3,0.8,0.8
2026-04-30T1700,1901A,104.424,31.1209,德阳市,东山公园,,30,NA,27,20,27,93,93,79,79,7,8,3,4,0.5,0.5
2026-04-30T1700,1902A,104.3827,31.1318,德阳市,西小区,,32,24,37,22,28,88,88,80,80,9,16,4,4,0.4,0.5
2026-04-30T1700,1904A,104.3553,31.1091,德阳市,耐火材料厂,,38,33,41,26,28,93,93,87,87,18,22,2,3,0.4,0.4
2026-04-30T1700,4145A,104.4144,31.1495,德阳市,市林业局,,33,NA,32,23,27,103,103,89,89,7,18,2,3,0.4,0.4
2026-04-30T1700,1622A,116.3034,37.4675,德州市,儿童乐园,臭氧1小时(O3_1h),55,44,52,15,28,164,164,158,158,7,15,8,9,0.5,0.5
2026-04-30T1700,1624A,116.2992,37.4449,德州市,监理站,臭氧1小时(O3_1h),53,39,54,17,23,162,162,149,149,6,14,10,10,0.3,0.4
2026-04-30T1700,3066A,116.2722,37.438,德州市,九衢泉纯净水厂,臭氧1小时(O3_1h),52,46,48,19,24,161,161,147,147,12,31,7,9,0.6,0.6
2026-04-30T1700,3371A,116.3693,37.44,德州市,开发区人民医院,,49,44,53,18,24,156,156,151,151,11,22,11,12,0.4,0.5
2026-04-30T1700,3511A,116.5687,37.3331,德州市,陵城艺术中心,,49,44,50,21,28,156,156,145,145,11,20,17,14,0.6,0.7
2026-04-30T1700,4292A,116.352738,37.420875,德州市,新河东路,,49,44,50,17,24,154,154,147,147,9,26,9,11,0.6,0.7
2026-04-30T1700,2621A,99.7054,27.8319,迪庆藏族自治州,迪庆州站,,27,11,16,3,9,85,85,78,78,10,11,8,7,0.2,0.2
2026-04-30T1700,3180A,99.7122,27.8129,迪庆藏族自治州,质量技术监督局,,30,11,14,7,9,94,94,85,82,12,9,8,8,0.5,0.5
2026-04-30T1700,4257A,104.6092,35.5962,定西市,将台街,颗粒物(PM10),55,56,49,25,14,92,92,93,93,6,7,4,3,0.2,0.1
2026-04-30T1700,4309A,104.6159,35.5701,定西市,正龙路62号,NA,NA,58,47,NA,15,86,86,88,88,6,8,2,2,0.2,0.2
2026-04-30T1700,4071A,114.9883,38.5232,定州市,交通局,NA,NA,74,66,NA,24,180,180,154,154,13,20,7,6,0.5,0.5
2026-04-30T1700,4072A,115.0045,38.5136,定州市,第五中学,臭氧1小时(O3_1h),68,66,70,22,20,174,174,147,147,10,20,6,5,0.5,0.4
2026-04-30T1700,1390A,113.7943,23.0132,东莞市,东城石井,,35,9,8,3,4,109,109,107,107,14,14,5,6,0.6,0.6
2026-04-30T1700,1391A,113.7384,22.9659,东莞市,南城西平,,37,11,8,3,3,116,116,103,103,11,13,5,4,0.4,0.4
2026-04-30T1700,3319A,113.7283,23.041,东莞市,万江金泰,,34,14,8,7,4,106,106,95,95,10,8,6,6,0.2,0.2
2026-04-30T1700,4129A,113.8666,23.1062,东莞市,裕兴路,,32,9,8,3,3,100,100,99,99,6,8,7,7,0.5,0.5
2026-04-30T1700,4130A,114.0076,22.9739,东莞市,教育路1号,,37,20,15,6,6,116,116,106,106,10,10,6,6,0.4,0.4
2026-04-30T1700,4131A,113.7981,22.8124,东莞市,长怡路1号,NA,NA,17,15,6,5,131,131,128,128,14,12,6,7,NA,0.6
2026-04-30T1700,1666A,118.6612,37.4313,东营市,市环保局,臭氧1小时(O3_1h),64,31,48,13,23,171,171,154,154,9,36,10,12,0.3,0.4
2026-04-30T1700,3036A,118.6903,37.4337,东营市,开发区管委会,臭氧1小时(O3_1h),60,37,52,14,24,168,168,152,152,15,47,8,9,0.5,0.5
2026-04-30T1700,3365A,118.5721,37.5654,东营市,垦利区民丰路,臭氧1小时(O3_1h),77,36,40,19,23,181,181,162,162,12,28,11,12,0.5,0.5
2026-04-30T1700,3498A,118.5063,37.8606,东营市,河口城区,臭氧1小时(O3_1h),80,39,37,13,19,184,184,164,164,8,19,12,9,0.5,0.6
2026-04-30T1700,3646A,118.4979,37.4623,东营市,胜利站,,49,38,42,15,23,156,156,143,143,16,36,6,9,0.5,0.6
2026-04-30T1700,3734A,118.5753,37.4405,东营市,理想之城,NA,NA,NA,53,18,25,155,155,131,131,18,47,NA,8,NA,0.6
2026-04-30T1700,1591A,110.0024,39.8127,鄂尔多斯市,综合楼,,48,48,53,16,20,153,153,141,141,11,24,5,9,0.4,0.5
2026-04-30T1700,1592A,109.9485,39.8259,鄂尔多斯市,巴音孟克林场办事处,,48,36,42,21,16,153,153,145,145,8,20,6,7,0.3,0.4
2026-04-30T1700,1593A,109.7734,39.5987,鄂尔多斯市,康泽苑,,49,48,43,16,17,155,155,149,149,8,15,10,9,0.3,0.4
2026-04-30T1700,1594A,109.8121,39.5987,鄂尔多斯市,华泰汽车城,,48,48,39,12,13,150,150,145,145,10,28,7,6,0.4,0.4
2026-04-30T1700,1595A,109.9734,39.7884,鄂尔多斯市,奥林花园,颗粒物(PM10),51,51,52,17,14,150,150,140,140,12,35,6,6,0.3,0.3
2026-04-30T1700,2436A,114.894,30.3989,鄂州市,市政府,,45,39,35,22,16,143,143,124,124,23,21,10,12,0.6,0.6
2026-04-30T1700,2437A,114.8986,30.3714,鄂州市,赵家坝,臭氧1小时(O3_1h),58,34,29,14,16,166,166,130,130,3,7,16,15,0.7,0.6
2026-04-30T1700,3654A,114.8093,30.4091,鄂州市,精准医疗中心,,42,25,49,19,20,133,133,110,110,6,13,4,7,0.7,0.6
2026-04-30T1700,2454A,109.4978,30.2979,恩施土家族苗族自治州,湖北民院,,36,24,32,14,15,114,114,97,97,6,9,8,8,0.3,0.3
2026-04-30T1700,3549A,109.5061,30.3771,恩施土家族苗族自治州,龙凤新区,,34,28,31,14,15,108,108,92,92,4,6,7,7,0.4,0.5
2026-04-30T1700,2499A,108.3411,21.6159,防城港市,沙万,,30,15,18,10,7,95,95,88,88,11,7,6,5,0.4,0.4
2026-04-30T1700,2500A,108.3515,21.7733,防城港市,防城档案局,,36,22,24,13,8,113,113,98,98,7,8,7,7,0.3,0.4
2026-04-30T1700,2501A,108.3506,21.6414,防城港市,大海花园,,42,42,16,18,10,114,114,103,103,6,6,7,7,0.4,0.5
2026-04-30T1700,1371A,113.1293,23.0065,佛山市,湾梁,,35,NA,10,16,9,110,110,106,106,11,12,/,/,/,/
2026-04-30T1700,1372A,113.1082,23.0477,佛山市,华材职中,,31,27,15,12,8,97,97,98,98,11,12,4,4,0.4,0.4
2026-04-30T1700,1373A,113.1439,23.045,佛山市,南海气象局,,36,18,19,10,7,113,113,102,102,12,14,/,/,/,/
2026-04-30T1700,1374A,113.2879,22.8094,佛山市,顺德苏岗,,45,NA,6,13,5,143,143,110,110,14,10,/,/,0.6,0.6
2026-04-30T1700,1376A,112.8384,22.8678,佛山市,高明孔堂,,32,13,16,11,8,102,102,95,95,14,17,/,/,/,/
2026-04-30T1700,1377A,112.8835,23.1584,佛山市,三水监测站,,26,NA,9,9,5,82,82,78,78,16,14,3,3,0.5,0.4
2026-04-30T1700,1378A,112.8668,23.185,佛山市,三水云东海,,27,20,19,9,5,85,85,78,78,10,12,/,/,/,/
2026-04-30T1700,3625A,113.2568,22.7629,佛山市,容桂街道办,,46,22,9,13,6,146,146,110,110,21,17,/,/,/,/
2026-04-30T1700,1282A,119.2681,26.0506,福州市,师大,,22,21,9,10,3,68,68,76,66,17,13,3,3,0.4,0.4
2026-04-30T1700,1283A,119.2983,26.1028,福州市,五四北路,,19,17,10,3,2,59,59,72,57,18,18,4,4,0.3,0.3
2026-04-30T1700,1284A,119.2648,26.0769,福州市,杨桥西路,,20,20,9,8,3,62,62,76,63,18,14,3,3,/,/
2026-04-30T1700,3048A,119.5799,26.0937,福州市,九龙,,32,11,7,3,0,100,100,86,86,9,11,5,5,0.2,0.2
2026-04-30T1700,3526A,119.5188,25.9666,福州市,吴航,,27,14,5,9,3,86,86,88,85,11,10,5,5,0.3,0.2
2026-04-30T1700,4104A,119.3106,26.0648,福州市,路通桥巷6号,,21,17,9,11,6,65,65,73,62,14,13,/,/,/,/
2026-04-30T1700,1755A,123.7974,41.8494,抚顺市,望花区,,47,42,52,12,22,150,150,133,133,13,26,13,16,0.7,0.7
2026-04-30T1700,1756A,123.9161,41.8827,抚顺市,顺城区,,46,31,43,10,23,145,145,127,127,13,34,13,12,0.6,0.8
2026-04-30T1700,1757A,124.0437,41.8615,抚顺市,东洲区,,44,34,35,9,16,140,140,125,125,12,19,8,10,0.6,0.6
2026-04-30T1700,1758A,123.9246,41.8638,抚顺市,新抚区,,50,30,43,10,20,157,157,137,137,11,25,10,10,0.5,0.7
2026-04-30T1700,1759A,124.0972,41.8961,抚顺市,大伙房水库,,45,36,35,6,10,143,143,128,128,15,16,10,9,0.6,0.5
2026-04-30T1700,1760A,123.708,41.8386,抚顺市,沈抚新城,,49,36,51,15,20,154,154,133,133,14,33,13,19,0.6,1
2026-04-30T1700,2377A,116.3544,27.9833,抚州市,市站,,36,14,15,6,9,114,114,104,104,3,5,5,4,0.4,0.5
2026-04-30T1700,2378A,116.3562,27.9631,抚州市,血防站,NA,NA,22,19,9,8,123,123,114,114,4,5,9,9,NA,0.7
2026-04-30T1700,2379A,116.3561,28.0007,抚州市,采茶剧团,,38,18,15,6,8,119,119,110,110,3,5,8,9,0.6,0.6
2026-04-30T1700,2380A,116.3854,27.9648,抚州市,医学分院,,37,24,21,3,7,118,118,110,110,3,4,9,8,0.6,0.6
2026-04-30T1700,2207A,121.6095,41.9978,阜新市,工业园区,颗粒物(PM10),70,77,48,16,20,150,150,132,132,12,22,11,12,0.5,0.5
2026-04-30T1700,2208A,121.6567,42.0188,阜新市,长青街,颗粒物(PM10),51,51,32,11,17,151,151,133,133,14,20,8,10,0.5,0.5
2026-04-30T1700,2209A,121.6672,42.07,阜新市,农业园区,颗粒物(PM10),59,62,43,11,17,150,150,131,131,13,17,8,11,0.5,0.5
2026-04-30T1700,2211A,121.6343,42.0455,阜新市,玉龙新城,颗粒物(PM10),54,55,46,13,17,151,151,133,133,13,25,11,11,0.5,0.5
2026-04-30T1700,2301A,115.8276,32.8929,阜阳市,市监测站,,44,39,36,14,16,139,139,128,128,9,10,6,6,0.4,0.4
2026-04-30T1700,2303A,115.8551,32.8606,阜阳市,开发区,,49,49,41,15,18,134,134,120,120,9,13,5,5,0.4,0.4
2026-04-30T1700,2875A,115.783962,32.889217,阜阳市,阜阳职业技术学院,,43,40,36,12,18,137,137,128,128,9,11,7,7,0.3,0.3
2026-04-30T1700,3468A,115.79,32.8614,阜阳市,市规划展馆,颗粒物(PM10),54,55,38,14,16,140,140,128,128,8,7,7,7,0.4,0.5
2026-04-30T1700,3469A,115.835101,32.918568,阜阳市,枣园社区,,47,47,34,13,17,136,136,127,127,11,13,7,6,0.4,0.4
2026-04-30T1700,2669A,102.9097,34.9841,甘南藏族自治州,州政府,,35,13,35,3,13,111,111,94,94,3,19,8,5,0.2,0.3
2026-04-30T1700,3380A,102.8915,34.9618,甘南藏族自治州,甘肃民族师范学院,NA,NA,23,44,3,14,125,125,109,109,6,21,NA,4,NA,0.3
2026-04-30T1700,2570A,101.96,30.048,甘孜藏族自治州,水桥子,,20,6,11,3,3,64,64,47,47,3,24,6,6,0.2,0.3
2026-04-30T1700,3065A,101.9534,29.9976,甘孜藏族自治州,州环保局,,22,11,11,6,4,70,70,54,54,8,27,8,5,0.1,0.6
2026-04-30T1700,2363A,114.9368,25.8663,赣州市,地委,,30,14,17,9,7,96,96,92,92,6,3,3,2,0.4,0.4
2026-04-30T1700,2364A,114.946,25.8483,赣州市,气象台,,30,16,21,12,11,93,93,87,87,9,8,7,5,0.5,0.3
2026-04-30T1700,2365A,114.932,25.8332,赣州市,市图书馆,,33,13,15,8,13,103,103,98,98,8,6,3,4,0.1,0.1
2026-04-30T1700,2366A,114.8905,25.8472,赣州市,华坚鞋城,,30,20,21,9,9,95,95,89,89,8,8,7,6,0.2,0.1
2026-04-30T1700,3109A,115.0094,25.8614,赣州市,赣县区卫计委,,27,11,11,3,8,85,85,85,85,7,5,4,3,0.2,0.5
2026-04-30T1700,2684A,106.2753,36.0057,固原市,监测站,,42,42,44,16,23,115,115,103,103,7,10,5,6,0.3,0.4
2026-04-30T1700,2685A,106.2384,36.0189,固原市,新区,颗粒物(PM10),68,75,47,16,20,111,111,102,102,8,8,5,5,0.4,0.6
2026-04-30T1700,2544A,106.6307,30.4577,广安市,市委,,40,28,25,11,16,127,127,110,110,6,13,8,7,0.3,0.4
2026-04-30T1700,2545A,106.6266,30.4662,广安市,友谊中学,,37,24,22,8,14,118,118,103,103,8,11,8,7,0.4,0.5
2026-04-30T1700,2547A,106.6386,30.4551,广安市,广电花园,,39,27,24,13,17,124,124,104,104,12,16,7,6,0.3,0.4
2026-04-30T1700,2902A,106.6347,30.4868,广安市,北辰小学,,40,34,28,11,16,125,125,111,111,8,11,6,8,0.3,0.4
2026-04-30T1700,2524A,105.8211,32.4444,广元市,老城,,30,27,41,6,14,94,94,80,80,8,20,2,4,0.4,0.5
2026-04-30T1700,2526A,105.8629,32.429,广元市,监测站,,27,24,41,7,14,84,84,72,72,15,17,6,5,0.5,0.5
2026-04-30T1700,3617A,105.8047,32.4167,广元市,经开区,,26,23,41,13,19,82,82,70,70,16,18,5,8,0.5,0.6
2026-04-30T1700,1345A,113.2346,23.1423,广州市,广雅中学,,33,20,16,12,9,105,105,95,95,28,20,3,3,0.7,0.6
2026-04-30T1700,1346A,113.2611,23.105,广州市,市五中,,40,16,9,9,6,128,128,113,113,20,16,3,4,/,/
2026-04-30T1700,1348A,113.3477,23.0916,广州市,广东商学院,,36,16,10,6,3,114,114,102,102,17,14,5,5,0.6,0.6
2026-04-30T1700,1349A,113.4332,23.105,广州市,市八十六中,,34,22,12,13,7,107,107,92,92,17,12,6,6,/,/
2026-04-30T1700,1350A,113.3506,22.9488,广州市,番禺中学,,41,17,10,11,6,130,130,110,110,17,15,5,5,0.4,0.4
2026-04-30T1700,1351A,113.2147,23.3918,广州市,花都师范,,33,15,8,11,5,105,105,93,93,12,12,8,6,0.6,0.7
2026-04-30T1700,1352A,113.2599,23.1329,广州市,市监测站,,35,26,16,12,8,111,111,100,100,12,8,2,3,/,/
2026-04-30T1700,1353A,113.5618,23.3119,广州市,九龙镇镇龙,,31,11,3,7,3,98,98,86,86,10,8,6,5,0.4,0.4
2026-04-30T1700,1354A,113.2764,23.1544,广州市,麓湖,,35,19,11,10,7,112,112,98,98,12,12,6,6,0.5,0.6
2026-04-30T1700,2846A,113.3209,23.1323,广州市,体育西,,34,22,12,13,9,106,106,96,96,17,14,5,5,0.6,0.6
2026-04-30T1700,3298A,113.5718,23.5493,广州市,从化街口,,31,NA,6,12,5,97,97,91,91,8,6,6,6,0.5,0.5
2026-04-30T1700,3299A,113.3463,23.369,广州市,白云竹料,,34,15,9,8,5,107,107,94,94,10,8,4,4,0.5,0.5
2026-04-30T1700,3300A,113.2981,23.2365,广州市,白云嘉禾,,33,19,12,9,6,105,105,95,95,17,13,8,8,/,/
2026-04-30T1700,3301A,113.4256,23.1716,广州市,黄埔科学城,,29,14,8,9,6,92,92,80,80,10,7,4,4,0.6,0.6
2026-04-30T1700,3302A,113.3942,23.0485,广州市,番禺大学城,,40,19,9,7,4,126,126,109,109,13,13,7,6,0.2,0.4
2026-04-30T1700,3303A,113.4923,22.8169,广州市,南沙黄阁,,46,28,18,13,8,147,147,114,114,18,21,7,8,/,/
2026-04-30T1700,3304A,113.534,22.7893,广州市,南沙街,,45,21,15,10,7,141,141,118,118,21,21,8,9,0.4,0.4
2026-04-30T1700,3443A,113.2905,23.5541,广州市,花都梯面,,31,14,8,9,5,97,97,86,86,10,8,8,8,/,/
2026-04-30T1700,3445A,113.786,23.7479,广州市,从化良口,,30,11,6,11,3,94,94,92,92,5,6,5,4,/,/
2026-04-30T1700,3446A,113.805,23.2614,广州市,增城荔城,,30,8,6,6,3,95,95,90,90,8,7,6,6,0.5,0.4
2026-04-30T1700,2506A,109.604387,23.066791,贵港市,江南子站,,36,19,12,8,5,113,113,99,99,8,8,7,7,0.5,0.4
2026-04-30T1700,2508A,109.5669,23.1065,贵港市,荷城子站,,34,14,10,10,7,106,106,92,92,8,8,4,4,0.6,0.5
2026-04-30T1700,3405A,109.5886,23.1172,贵港市,新世纪学校,,35,22,13,12,8,111,111,95,95,9,8,/,/,0.3,0.3
2026-04-30T1700,4260A,109.5933,23.095,贵港市,中山路155-3号,,37,21,14,3,6,117,117,101,101,7,7,/,/,0.3,0.3
2026-04-30T1700,1439A,106.6863,26.6035,贵阳市,马鞍山,,35,24,24,24,14,102,102,94,94,12,11,5,4,/,/
2026-04-30T1700,1441A,106.6241,26.6266,贵阳市,鉴湖路,,39,39,39,18,16,115,115,102,102,14,13,7,6,0.7,0.6
2026-04-30T1700,1442A,106.7468,26.6344,贵阳市,燕子冲,NA,NA,36,31,19,14,112,112,97,97,11,10,NA,13,0.6,0.6
2026-04-30T1700,1443A,106.6556,26.4362,贵阳市,碧云窝,,36,36,39,20,15,106,106,96,96,6,11,7,6,/,/
2026-04-30T1700,1445A,106.6963,26.6063,贵阳市,红边门,NA,NA,NA,31,NA,14,NA,NA,92,92,NA,15,NA,5,/,/
2026-04-30T1700,1446A,106.7162383,26.56964667,贵阳市,新华路,颗粒物(PM10),51,51,37,20,15,115,115,116,116,11,12,33,9,0.6,0.3
2026-04-30T1700,1447A,106.6742,26.542,贵阳市,太慈桥,,36,36,30,17,15,95,95,85,85,9,12,5,3,/,/
2026-04-30T1700,4230A,106.688212,26.56952,贵阳市,花果园大街66号,,34,22,19,21,14,106,106,91,91,11,12,3,3,/,/
2026-04-30T1700,4231A,106.687268,26.516892,贵阳市,漓江路57号,,29,22,22,19,16,91,91,89,89,24,15,6,5,0.7,0.7
2026-04-30T1700,1864A,110.3091,25.2705,桂林市,龙隐路小学,,37,12,15,6,8,118,118,108,108,4,5,4,4,0.3,0.4
2026-04-30T1700,1865A,110.2849361,25.22909545,桂林市,八中,,32,22,21,6,7,101,101,95,95,10,8,4,4,0.5,0.5
2026-04-30T1700,3531A,110.296,25.1254,桂林市,旅游学院,NA,NA,30,22,9,8,117,117,110,110,NA,5,6,5,0.6,0.6
2026-04-30T1700,4222A,110.1835,25.2444,桂林市,环湖路276号,,36,17,14,12,8,115,115,105,105,5,5,4,4,0.3,0.4
2026-04-30T1700,4301A,110.2803,25.2773,桂林市,信义路13号,,37,27,16,6,10,118,118,106,106,9,9,5,5,0.5,0.5
2026-04-30T1700,2674A,100.2262,34.4854,果洛藏族自治州,玛沁县大武镇,,31,23,33,11,13,99,99,100,100,2,4,15,19,0.3,0.4
2026-04-30T1700,1130A,126.5557,45.8109,哈尔滨市,松北商大,颗粒物(PM10),106,135,66,29,18,120,120,113,113,8,19,6,6,0.5,0.6
2026-04-30T1700,1132A,126.6162,45.719,哈尔滨市,南岗学府路,颗粒物(PM10),128,192,99,17,22,123,123,113,113,8,26,6,5,0,0.1
2026-04-30T1700,1133A,126.6894,45.7733,哈尔滨市,太平宏伟公园,颗粒物(PM10),126,186,96,26,26,117,117,108,108,12,34,4,9,0.7,0.7
2026-04-30T1700,1134A,126.6361,45.7672,哈尔滨市,道外承德广场,颗粒物(PM10),145,237,101,20,16,113,113,104,104,16,35,8,8,0.8,0.6
2026-04-30T1700,1136A,126.644,45.7261,哈尔滨市,动力和平路,颗粒物(PM10),114,154,77,18,17,123,123,114,114,10,28,12,7,0.1,0.3
2026-04-30T1700,1137A,126.5933,45.7479,哈尔滨市,道里建国路,颗粒物(PM10),112,151,71,26,23,101,101,107,107,15,34,10,10,0,0.1
2026-04-30T1700,1138A,126.6127,45.6119,哈尔滨市,平房东轻厂,颗粒物(PM10),83,96,64,25,20,122,122,117,117,9,19,12,11,0.4,0.5
2026-04-30T1700,1139A,126.5875,45.9827,哈尔滨市,呼兰师专,颗粒物(PM10),121,173,91,18,14,112,112,120,120,12,26,13,11,0.2,0.3
2026-04-30T1700,1140A,126.6299,45.6799,哈尔滨市,省农科院,颗粒物(PM10),156,261,135,26,24,116,116,110,110,7,26,8,7,0.2,0.3
2026-04-30T1700,4282A,126.6769,45.7379,哈尔滨市,华山路1号,颗粒物(PM10),115,158,92,9,20,119,119,110,110,4,30,3,18,0.4,0.5
2026-04-30T1700,4283A,126.9717,45.5356,哈尔滨市,解放大街52号,颗粒物(PM10),75,85,70,13,14,126,126,116,116,7,17,9,7,0.4,0.5
2026-04-30T1700,2688A,93.5124,42.8176,哈密市,地区监测站,,37,30,85,20,29,118,118,111,111,4,5,12,12,0.0,0
2026-04-30T1700,2689A,93.5014,42.8312,哈密市,哈密师范学校,,38,NA,81,26,28,121,121,116,116,6,7,11,11,0,0.1
2026-04-30T1700,2671A,100.9016,36.9464,海北藏族自治州,海晏县西海镇,NA,NA,30,29,13,19,148,148,125,125,NA,5,NA,8,0.7,0.5
2026-04-30T1700,3867A,102.074,36.5056,海东市,平安区公安局北苑,细颗粒物(PM2.5),76,NA,48,48,32,135,135,123,123,8,12,12,15,0.5,0.6
2026-04-30T1700,4163A,102.0984,36.5119,海东市,滨河路,,44,44,39,23,25,102,102,98,98,20,28,11,17,0.6,0.7
2026-04-30T1700,1410A,110.3189,20.0596,海口市,海南大学,,32,18,17,8,9,102,102,95,95,5,7,5,6,0.4,0.4
2026-04-30T1700,1411A,110.2827,20.0051,海口市,秀英海南医院,,29,19,16,10,11,92,92,86,86,6,11,6,7,0.4,0.4
2026-04-30T1700,1412A,110.3391,19.9979,海口市,海南师范大学,,31,22,18,9,10,99,99,90,90,5,8,4,5,0.4,0.5
2026-04-30T1700,1413A,110.3303,20.0359,海口市,龙华路环保局宿舍,,32,15,18,9,10,101,101,92,92,5,8,/,/,0.4,0.3
2026-04-30T1700,3539A,110.5111,19.9737,海口市,桂林洋子站,,32,28,19,12,10,102,102,83,83,5,8,/,/,/,/
2026-04-30T1700,4134A,110.1952,20.0451,海口市,长滨二路9号,,30,18,17,8,12,95,95,94,94,4,7,/,/,/,/
2026-04-30T1700,2673A,100.6158,36.2985,海南藏族自治州,共和县恰卜恰镇,颗粒物(PM10),54,55,25,19,20,147,147,130,130,5,11,18,13,0.4,0.3
2026-04-30T1700,2676A,97.373,37.376,海西蒙古族藏族自治州,德令哈市,,50,24,19,8,11,158,158,156,156,1,3,16,17,0.3,0.3
2026-04-30T1700,1049A,114.492,36.5712,邯郸市,矿院,臭氧1小时(O3_1h),95,51,38,23,21,196,196,174,174,5,14,10,10,0.7,0.6
2026-04-30T1700,1050A,114.4839,36.6136,邯郸市,丛台公园,臭氧1小时(O3_1h),84,38,34,26,16,187,187,165,165,8,13,8,8,0.6,0.5
2026-04-30T1700,3458A,114.7893,36.5592,邯郸市,香泉濮院小区,臭氧1小时(O3_1h),78,46,45,26,27,182,182,146,146,8,15,5,7,0.6,0.6
2026-04-30T1700,3580A,114.1998,36.4439,邯郸市,峰峰矿区临水派出所,臭氧1小时(O3_1h),83,45,41,28,21,186,186,167,167,5,9,8,7,0.6,0.7
2026-04-30T1700,4068A,114.5209,36.7697,邯郸市,建安街268号,臭氧1小时(O3_1h),78,40,44,15,15,182,182,147,147,8,14,5,5,0.4,0.5
2026-04-30T1700,4069A,114.5488,36.6177,邯郸市,丛台东路558号,臭氧1小时(O3_1h),87,48,37,19,13,189,189,163,163,4,16,8,8,0.7,0.6
2026-04-30T1700,2635A,107.0155,33.0707,汉中市,市监测站,,36,36,46,16,25,103,103,98,98,6,15,4,5,0.4,0.6
2026-04-30T1700,2636A,107.0083,33.114,汉中市,鑫源开发区,,37,37,42,11,19,107,107,100,100,6,15,4,5,0.5,0.5
2026-04-30T1700,2637A,107.0072,33.0323,汉中市,南郑大河坎水厂,,43,43,43,13,20,100,100,94,94,6,14,3,4,0.3,0.4
2026-04-30T1700,1223A,120.2073,30.2111,杭州市,滨江,,46,17,21,10,15,147,147,127,127,7,9,8,8,0.9,0.8
2026-04-30T1700,1224A,120.0625,30.2737,杭州市,西溪,,43,18,23,6,14,136,136,123,123,7,9,5,4,0.4,0.5
2026-04-30T1700,1226A,120.3417,30.315,杭州市,下沙,,43,32,35,16,18,137,137,120,120,10,18,8,9,0.5,0.5
2026-04-30T1700,1227A,120.1252,30.2465,杭州市,卧龙桥,,43,16,23,8,14,137,137,122,122,10,11,8,8,0.4,0.4
2026-04-30T1700,1228A,120.1902,30.2691,杭州市,浙江农大,,40,17,26,11,19,125,125,118,118,21,19,8,8,0.3,0.3
2026-04-30T1700,1230A,120.1195,30.3121,杭州市,和睦小学,,41,20,16,9,15,130,130,118,118,16,15,7,6,0.4,0.5
2026-04-30T1700,1231A,120.3076,30.4146,杭州市,临平镇,,47,21,25,12,21,149,149,131,131,16,17,7,7,0.4,0.4
2026-04-30T1700,1232A,120.2753,30.1839,杭州市,城厢镇,,43,21,22,12,16,136,136,118,118,16,15,6,6,0.4,0.4
2026-04-30T1700,1233A,120.0883,30.1808,杭州市,云栖,,39,15,23,8,14,124,124,119,119,19,16,7,7,0.6,0.5
2026-04-30T1700,3557A,119.9463,30.0496,杭州市,镇二中,,40,18,15,11,16,127,127,117,117,15,11,5,5,0.4,0.5
2026-04-30T1700,3558A,119.7184,30.2367,杭州市,市府大楼,,39,17,12,9,14,122,122,107,107,12,10,7,6,0.3,0.4
2026-04-30T1700,3656A,120.1554,30.2863,杭州市,消防大队,,43,43,30,10,19,134,134,123,123,8,11,5,5,0.4,0.4
2026-04-30T1700,1270A,117.1957,31.7845,合肥市,明珠广场,,43,27,32,9,16,135,135,125,125,12,18,7,7,0.4,0.5
2026-04-30T1700,1271A,117.307,31.8765,合肥市,三里街,,38,22,32,7,17,119,119,108,108,20,24,6,6,0.3,0.4
2026-04-30T1700,1272A,117.2587,31.8703,合肥市,琥珀山庄,,41,29,35,8,18,130,130,120,120,14,19,8,8,0.6,0.6
2026-04-30T1700,1275A,117.2593,31.9376,合肥市,庐阳区,,42,27,35,9,15,133,133,121,121,15,19,5,4,0.6,0.7
2026-04-30T1700,1276A,117.345251,31.861615,合肥市,瑶海区,,40,34,37,3,15,127,127,119,119,18,26,6,6,0.4,0.5
2026-04-30T1700,1277A,117.3033,31.7967,合肥市,包河区,,39,29,47,6,18,123,123,111,111,2,18,8,8,0.3,0.4
2026-04-30T1700,1278A,117.278,31.7392,合肥市,滨湖新区,NA,NA,22,32,6,14,122,122,110,110,NA,25,4,4,0.4,0.5
2026-04-30T1700,1279A,117.1324,31.8395,合肥市,高新区,,42,24,36,3,16,132,132,122,122,10,14,6,5,0.3,0.4
2026-04-30T1700,3464A,117.3802,31.9148,合肥市,高教基地,,42,22,34,3,15,133,133,122,122,7,15,8,8,0.5,0.5
2026-04-30T1700,4098A,117.2518,31.8404,合肥市,中国科学技术大学,,42,27,31,11,15,134,134,129,129,10,15,6,7,0.5,0.5
2026-04-30T1700,3614A,79.9241,37.0878,和田地区,地区环保局,颗粒物(PM10),195,339,230,41,66,112,112,94,94,4,9,1,3,0.2,0.2
2026-04-30T1700,3615A,79.9132,37.1137,和田地区,市环保局,颗粒物(PM10),105,131,208,35,86,114,114,91,91,2,12,1,3,0.0,0.2
2026-04-30T1700,2517A,108.0496,24.6957,河池市,市环保站,,36,32,16,3,5,114,114,97,97,7,10,7,6,0.4,0.4
2026-04-30T1700,4302A,108.0901,24.6945,河池市,上任中路54号,,34,23,20,9,7,106,106,90,90,5,10,7,6,0.7,0.7
2026-04-30T1700,1697A,114.6962,23.7538,河源市,东埔,,30,13,9,12,8,93,93,88,88,5,6,6,5,0.3,0.3
2026-04-30T1700,1698A,114.6895,23.7232,河源市,老城,,28,20,10,9,8,89,89,87,87,7,6,6,6,0.4,0.4
2026-04-30T1700,3374A,115.5562,35.089,菏泽市,定陶老年大学,颗粒物(PM10),60,63,54,14,28,135,135,122,122,11,15,5,6,0.3,0.3
2026-04-30T1700,4114A,115.4239,35.2593,菏泽市,黄河路600号,颗粒物(PM10),87,101,69,20,30,151,151,122,122,8,14,4,4,0.5,0.4
2026-04-30T1700,4115A,115.5025,35.2727,菏泽市,菏泽市人社局,颗粒物(PM10),59,62,56,20,27,155,155,128,128,7,11,7,7,0.3,0.3
2026-04-30T1700,4184A,115.479691,35.244011,菏泽市,永昌路1号,颗粒物(PM10),62,66,58,21,27,164,164,134,134,8,13,6,7,0.3,0.3
2026-04-30T1700,4193A,115.471542,35.280012,菏泽市,长城路999号,颗粒物(PM10),63,67,58,22,27,164,164,134,134,8,13,7,7,0.3,0.3
2026-04-30T1700,2514A,111.5264,24.4178,贺州市,环保小区,,32,9,11,6,5,100,100,85,85,6,8,6,5,0.4,0.3
2026-04-30T1700,2515A,111.561,24.4074,贺州市,政协大楼,,34,16,18,6,5,106,106,95,95,9,12,10,10,0.3,0.3
2026-04-30T1700,3534A,111.4744,24.455,贺州市,西湾,,29,14,11,10,4,92,92,83,83,7,7,8,8,0.4,0.4
2026-04-30T1700,2385A,114.17,35.9019,鹤壁市,市监测站,颗粒物(PM10),63,67,44,38,26,168,168,147,147,10,14,8,5,0.6,0.5
2026-04-30T1700,2386A,114.2953,35.7512,鹤壁市,市交警支队,颗粒物(PM10),66,72,59,28,25,165,165,135,135,8,19,3,4,0.7,0.6
2026-04-30T1700,2387A,114.2877,35.7302,鹤壁市,迎宾馆,颗粒物(PM10),75,85,63,37,29,171,171,136,136,11,21,6,8,0.5,0.5
2026-04-30T1700,3474A,114.2616,35.6824,鹤壁市,大新区,颗粒物(PM10),69,76,61,38,33,164,164,136,136,10,30,7,8,0.5,0.4
2026-04-30T1700,3596A,114.1573,35.9607,鹤壁市,南山宾馆,臭氧1小时(O3_1h),65,65,45,29,29,172,172,153,153,7,10,10,8,0.8,0.7
2026-04-30T1700,2244A,130.2537,47.3416,鹤岗市,哈啤分公司,,40,40,34,15,15,122,122,108,108,10,12,11,12,0.5,0.5
2026-04-30T1700,2245A,130.2683,47.3087,鹤岗市,斯达机电,颗粒物(PM10),65,70,40,20,11,116,116,111,111,12,9,20,12,0.6,0.5
2026-04-30T1700,2246A,130.3114,47.3388,鹤岗市,东山纸板厂,颗粒物(PM10),65,70,131,19,27,123,123,113,113,9,21,12,13,0.5,0.6
2026-04-30T1700,2263A,127.4832,50.2524,黑河市,交通局,,27,25,46,3,17,85,85,86,86,15,15,5,6,0.1,0.2
2026-04-30T1700,2264A,127.5146,50.2339,黑河市,环保局,,25,23,35,8,15,79,79,84,84,11,11,10,7,0.3,0.3
2026-04-30T1700,1074A,115.6839,37.754,衡水市,电机北厂,臭氧1小时(O3_1h),54,51,43,19,17,163,163,143,143,12,18,4,4,0.4,0.3
2026-04-30T1700,1075A,115.6303,37.7318,衡水市,市监测站,臭氧1小时(O3_1h),57,56,51,20,15,165,165,141,141,12,18,4,7,0.4,0.3
2026-04-30T1700,3188A,115.6684,37.7216,衡水市,市城管局,臭氧1小时(O3_1h),59,42,45,18,18,167,167,145,145,8,19,6,4,0.4,0.3
2026-04-30T1700,3459A,115.599,37.5491,衡水市,地表水厂,臭氧1小时(O3_1h),63,52,47,14,18,170,170,142,142,5,23,7,6,0.5,0.4
2026-04-30T1700,2457A,112.6209,26.9268,衡阳市,衡阳化工总厂,,40,18,21,7,13,127,127,114,114,8,16,7,6,0.5,0.6
2026-04-30T1700,2458A,112.621,26.8957,衡阳市,珠晖区环保局,,38,29,21,3,10,120,120,114,114,15,17,8,8,0.7,0.7
2026-04-30T1700,2459A,112.628,26.8654,衡阳市,市委党校,,39,26,18,10,10,124,124,111,111,8,8,10,10,0.5,0.6
2026-04-30T1700,2460A,112.6007,26.8977,衡阳市,市监测站,NA,NA,19,23,NA,12,117,117,105,105,NA,14,9,9,NA,0.7
2026-04-30T1700,2461A,112.5658,26.9013,衡阳市,真空机电公司,,42,25,20,8,13,134,134,121,121,12,13,8,8,0.5,0.6
2026-04-30T1700,3399A,112.6703,26.8817,衡阳市,师范学院,,41,14,17,6,10,129,129,117,117,8,9,7,7,0.4,0.5
2026-04-30T1700,3038A,103.3757,23.3679,红河哈尼族彝族自治州,州图书馆,,31,31,25,18,16,71,71,74,71,6,7,4,4,0.4,0.3
2026-04-30T1700,4154A,103.401,23.3561,红河哈尼族彝族自治州,蒙自市朝阳路,,28,NA,14,19,16,76,76,72,72,2,4,4,4,0.4,0.4
2026-04-30T1700,1090A,111.6506,40.7517,呼和浩特市,呼市一监,,48,39,63,12,29,151,151,130,130,10,30,9,9,0.4,0.6
2026-04-30T1700,1094A,111.7516,40.8369,呼和浩特市,如意水处理厂,,48,43,59,21,27,152,152,134,134,10,30,11,11,0.3,0.4
2026-04-30T1700,1095A,111.727798,40.806187,呼和浩特市,二十九中,,47,47,59,22,26,138,138,120,120,13,29,12,12,0.3,0.5
2026-04-30T1700,1097A,111.717,40.7617,呼和浩特市,化肥厂生活区,颗粒物(PM10),51,51,68,23,32,147,147,130,130,12,34,8,9,0.3,0.5
2026-04-30T1700,3699A,111.6519,40.8389,呼和浩特市,海东办,,45,41,59,20,34,143,143,128,128,12,37,10,8,0.3,0.4
2026-04-30T1700,4275A,111.591512,40.827312,呼和浩特市,成吉思汗西街8号,颗粒物(PM10),56,58,70,30,29,139,139,122,122,13,36,7,8,0.3,0.4
2026-04-30T1700,4276A,111.6597,40.8077,呼和浩特市,公园东路75号,细颗粒物(PM2.5),62,51,64,41,30,140,140,120,120,12,27,9,8,0.4,0.5
2026-04-30T1700,4277A,111.5427,40.7846,呼和浩特市,金海路35号,,44,44,57,23,26,132,132,123,123,16,34,7,8,0.3,0.4
2026-04-30T1700,3061A,119.7511,49.1576,呼伦贝尔市,国华电力东,,32,16,29,12,11,100,100,98,98,5,6,5,5,0.3,0.3
2026-04-30T1700,4279A,119.7569,49.2222,呼伦贝尔市,伊敏大街东7号,,34,25,28,8,12,106,106,102,102,6,8,7,6,0.4,0.5
2026-04-30T1700,1250A,120.075,30.867,湖州市,城西水厂,NA,NA,21,29,17,25,151,151,129,129,11,18,6,6,NA,0.5
2026-04-30T1700,2873A,120.083,30.8929,湖州市,仁皇山新区,,45,25,30,18,22,143,143,119,119,19,24,6,6,0.5,0.5
2026-04-30T1700,2907A,120.1846,30.8592,湖州市,吴兴区站,NA,NA,32,31,19,24,145,145,133,133,16,20,6,6,NA,0.4
2026-04-30T1700,3562A,120.4146,30.8538,湖州市,南浔区站,,43,29,34,14,28,135,135,121,121,12,17,6,6,0.4,0.5
2026-04-30T1700,1607A,120.904878,40.721091,葫芦岛市,龙港区,颗粒物(PM10),52,52,40,32,21,106,106,94,94,30,25,12,12,0.6,0.6
2026-04-30T1700,1608A,120.8382,40.7521,葫芦岛市,化工街,颗粒物(PM10),65,70,70,42,34,122,122,104,104,31,47,16,26,0.6,0.7
2026-04-30T1700,1609A,120.8339,40.7078,葫芦岛市,新区,细颗粒物(PM2.5),62,55,43,41,33,96,96,88,88,33,33,11,11,0.7,0.6
2026-04-30T1700,1610A,120.8697,40.7679,葫芦岛市,东城区,颗粒物(PM10),52,52,58,33,38,136,136,115,115,28,43,12,21,0.7,0.8
2026-04-30T1700,2483A,109.9297,27.5383,怀化市,河西地税局,,40,32,24,13,12,126,126,107,107,6,10,9,7,/,/
2026-04-30T1700,2484A,109.9783,27.5342,怀化市,市四医院,,38,28,34,7,14,121,121,105,105,7,12,6,5,0.3,0.3
2026-04-30T1700,2485A,109.9971,27.5579,怀化市,监测楼,,36,30,30,18,15,115,115,97,97,5,10,4,4,0.5,0.5
2026-04-30T1700,1210A,119.0566,33.5991,淮安市,钵池山,,45,34,40,19,26,143,143,129,129,10,18,9,9,0.4,0.4
2026-04-30T1700,1211A,119.0083,33.578,淮安市,北京南路,,45,39,40,18,26,144,144,131,131,9,29,9,9,0.3,0.4
2026-04-30T1700,1212A,118.9938,33.6083,淮安市,市监测站,,49,34,34,18,27,156,156,141,141,8,25,6,7,0.3,0.4
2026-04-30T1700,1213A,119.135,33.5038,淮安市,楚州区监测站,,45,44,47,20,27,142,142,129,129,6,33,6,6,0.4,0.4
2026-04-30T1700,3426A,118.8757,33.2897,淮安市,新华书店,NA,NA,37,56,13,30,144,144,133,133,6,29,7,8,NA,0.6
2026-04-30T1700,4092A,119.119691,33.550006,淮安市,枚皋中路89号,,47,34,38,17,24,148,148,133,133,6,24,7,7,0.4,0.4
2026-04-30T1700,4206A,119.028838,33.631911,淮安市,承德北路606号,,44,39,48,16,25,138,138,127,127,7,20,6,7,0.4,0.4
2026-04-30T1700,2282A,116.8005,33.9749,淮北市,监测站,,46,46,58,20,32,141,141,138,138,10,18,7,7,0.3,0.5
2026-04-30T1700,2283A,116.8094,33.9008,淮北市,烈山区政府,,43,42,61,19,31,137,137,132,132,8,23,6,7,0.3,0.4
2026-04-30T1700,4017A,116.7926,33.9534,淮北市,市博物馆,颗粒物(PM10),51,51,53,17,33,138,138,135,135,9,16,4,5,0.3,0.4
2026-04-30T1700,4100A,116.8322,33.9884,淮北市,杜集区第一实验学校,,49,49,62,11,26,144,144,141,141,7,14,7,7,0.4,0.5
2026-04-30T1700,2277A,116.8304,32.7726,淮南市,潘集区政府,,40,12,38,7,19,128,128,125,125,15,17,7,6,0.3,0.4
2026-04-30T1700,2279A,116.8569,32.5949,淮南市,谢家集区政府,,42,24,26,7,21,134,134,126,126,8,14,7,7,0.2,0.2
2026-04-30T1700,2280A,116.8279,32.6333,淮南市,八公山区政府,,41,24,33,7,18,131,131,127,127,6,8,4,4,0.2,0.2
2026-04-30T1700,2894A,117.0561,32.6536,淮南市,经济技术开发区消防队,,40,19,34,6,19,128,128,123,123,4,12,7,7,0.2,0.3
2026-04-30T1700,3329A,117.011,32.5891,淮南市,山南新区,,43,23,32,6,22,135,135,126,126,11,14,8,7,0.2,0.3
2026-04-30T1700,4209A,117.003137,32.644456,淮南市,国庆中路369号,,42,26,36,8,21,132,132,117,117,4,10,6,6,0.1,0.4
2026-04-30T1700,2446A,114.9021,30.474,黄冈市,职工中心,NA,NA,NA,30,NA,21,147,147,126,126,6,12,NA,10,0.7,0.6
2026-04-30T1700,2929A,114.8858,30.4519,黄冈市,红卫路,,48,25,31,18,20,153,153,130,130,6,12,7,9,0.5,0.6
2026-04-30T1700,3398A,114.9134,30.4446,黄冈市,市林业局,,48,33,38,22,21,151,151,130,130,8,16,4,4,0.1,0.4
2026-04-30T1700,2672A,102.02,35.5101,黄南藏族自治州,同仁县隆务镇,,41,35,27,21,12,130,130,117,117,6,3,12,11,0.3,0.1
2026-04-30T1700,2295A,118.2905,29.6965,黄山市,延安路89号,,37,10,11,3,8,117,117,110,110,3,5,5,5,0.1,0.1
2026-04-30T1700,2297A,118.1369,30.2755,黄山市,黄山区政府5号楼,,35,14,16,3,6,109,109,102,102,3,3,3,3,0.1,0.1
2026-04-30T1700,4210A,118.335445,29.720283,黄山市,滨江东路7-2号,,45,45,23,3,5,120,120,112,112,7,6,/,/,/,/
2026-04-30T1700,2423A,115.0547,30.2332,黄石市,沈家营,,49,18,31,7,14,155,155,135,135,13,10,4,4,0.5,0.4
2026-04-30T1700,2426A,114.899,30.211,黄石市,铁山,NA,NA,36,32,24,16,160,160,133,133,7,10,NA,9,0.3,0.3
2026-04-30T1700,2427A,115.0259,30.2108,黄石市,团城山,臭氧1小时(O3_1h),67,29,31,13,16,173,173,144,144,6,7,5,5,0.4,0.5
2026-04-30T1700,3149A,115.0174,30.1591,黄石市,笔架山北路,臭氧1小时(O3_1h),54,39,35,12,14,163,163,135,135,11,13,8,7,0.5,0.5
2026-04-30T1700,4185A,115.078022,30.21118,黄石市,磁湖东路29号,NA,NA,24,31,10,14,152,152,126,126,NA,10,4,4,0.1,0.3
2026-04-30T1700,1392A,114.4181,23.0528,惠州市,河南岸金山湖子站,,34,16,10,12,6,106,106,94,94,10,9,7,7,0.5,0.5
2026-04-30T1700,1393A,114.4055,23.0824,惠州市,下埔横江三路子站,,34,14,11,7,6,108,108,98,98,7,7,6,5,0.5,0.6
2026-04-30T1700,1395A,114.4645,22.7832,惠州市,惠阳区承修路船湖子站,,33,15,15,7,6,103,103,86,86,7,7,7,7,0.4,0.4
2026-04-30T1700,1396A,114.5316,22.7423,惠州市,大亚湾管委会子站,,30,15,12,7,5,95,95,79,79,8,7,5,5,0.4,0.4
2026-04-30T1700,3314A,114.4334,22.8134,惠州市,惠阳秋长,,36,12,12,8,8,113,113,94,94,6,5,/,/,/,/
2026-04-30T1700,3452A,114.6521,22.7755,惠州市,大亚湾霞涌,,28,13,9,3,5,89,89,76,76,7,6,/,/,/,/
2026-04-30T1700,4300A,114.4089,23.1147,惠州市,文华一路1号,,34,12,10,8,6,108,108,98,98,6,7,/,/,/,/
2026-04-30T1700,2240A,130.9618,45.2926,鸡西市,环保局,,40,34,57,14,23,125,125,118,118,5,17,7,8,0.3,0.4
2026-04-30T1700,2243A,130.9294,45.2959,鸡西市,第一中学,NA,NA,NA,47,NA,19,121,121,115,115,NA,14,6,6,0.2,0.3
2026-04-30T1700,3707A,131.0069,45.2988,鸡西市,欧美日汽修厂,,35,29,63,14,24,110,110,108,108,4,20,6,7,0.2,0.4
2026-04-30T1700,2367A,114.9753,27.0803,吉安市,红声器材厂,,45,24,28,8,9,142,142,127,127,9,11,8,9,0.3,0.3
2026-04-30T1700,2369A,114.9903,27.1313,吉安市,市环境监测站,,43,16,20,8,10,135,135,120,120,10,10,11,11,/,/
2026-04-30T1700,2370A,115.009527,27.096792,吉安市,青原区法院,,41,12,20,8,8,129,129,113,113,8,10,7,8,0.3,0.3
2026-04-30T1700,1772A,126.54,43.8622,吉林市,哈达湾,NA,NA,28,31,NA,19,133,133,133,133,5,11,6,7,0.3,0.3
2026-04-30T1700,1773A,126.5843,43.8358,吉林市,东局子,,43,26,32,12,19,136,136,134,134,10,17,4,5,0.7,0.7
2026-04-30T1700,1774A,126.5051,43.8243,吉林市,电力学院,NA,NA,15,36,10,20,146,146,144,144,NA,15,5,6,0.5,0.6
2026-04-30T1700,1775A,126.6133,43.8971,吉林市,江北,NA,NA,31,46,10,18,132,132,132,132,10,14,NA,11,0.8,0.9
2026-04-30T1700,1776A,126.5549,43.8304,吉林市,江南公园,,42,24,29,11,18,133,133,130,130,6,13,7,8,0.6,0.6
2026-04-30T1700,2868A,126.4737,43.953,吉林市,九站,,42,31,32,10,16,132,132,133,133,8,16,8,9,0.4,0.4
2026-04-30T1700,1299A,116.9866,36.6118,济南市,科干所,颗粒物(PM10),51,51,43,13,19,150,150,144,144,15,13,11,10,0.1,0.2
2026-04-30T1700,1300A,116.9379,36.6652,济南市,农科所,,46,34,43,12,20,145,145,137,137,10,21,7,6,0.2,0.3
2026-04-30T1700,1301A,117.1265,36.6736,济南市,开发区,,50,44,38,21,18,157,157,146,146,14,14,7,5,0.5,0.3
2026-04-30T1700,1303A,117.0616,36.6865,济南市,省种子仓库,,50,48,52,15,19,157,157,150,150,13,27,6,5,0.5,0.4
2026-04-30T1700,1304A,116.9495185,36.644937,济南市,机床二厂,,48,44,50,22,24,152,152,136,136,12,24,6,6,0.4,0.4
2026-04-30T1700,1305A,117.0496,36.6629,济南市,市监测站,,49,49,41,16,19,148,148,140,140,12,15,5,4,0.6,0.6
2026-04-30T1700,1306A,116.7674,36.5458,济南市,长清党校,,46,46,46,12,20,145,145,135,135,7,22,4,6,0.5,0.5
2026-04-30T1700,1961A,117.5323,36.6865,济南市,东山小学,颗粒物(PM10),51,51,47,16,18,156,156,142,142,11,20,3,3,0.4,0.4
2026-04-30T1700,3059A,117.7181,36.205,济南市,泰兴公司,颗粒物(PM10),56,58,51,19,22,142,142,134,134,11,35,8,9,0.3,0.4
2026-04-30T1700,3064A,117.6861,36.2172,济南市,莱芜战役纪念馆,颗粒物(PM10),53,53,54,17,23,148,148,138,138,9,29,5,6,0.2,0.4
2026-04-30T1700,3494A,117.1673,36.9782,济南市,济阳区政府,颗粒物(PM10),51,51,62,22,23,146,146,139,139,17,37,7,7,0.5,0.5
2026-04-30T1700,3495A,117.1168,36.6299,济南市,锦屏中学,,46,46,39,18,17,147,147,135,135,13,14,7,6,0.2,0.2
2026-04-30T1700,4108A,117.7107,36.2385,济南市,山财大街5号,NA,NA,NA,51,21,23,143,143,134,134,10,37,5,6,0.3,0.7
2026-04-30T1700,4109A,116.9744,36.6889,济南市,无影山路12号,,45,31,42,14,23,144,144,139,139,10,20,5,5,0.3,0.4
2026-04-30T1700,1653A,116.6229,35.4288,济宁市,火炬城,NA,NA,58,44,16,22,115,115,111,111,NA,11,4,3,NA,0.4
2026-04-30T1700,3500A,116.5808,35.3703,济宁市,北湖一中,颗粒物(PM10),57,59,54,19,24,136,136,125,125,7,13,7,6,0.3,0.3
2026-04-30T1700,3501A,116.8251,35.5592,济宁市,服务中心,颗粒物(PM10),68,74,54,25,25,122,122,112,112,8,17,2,2,0.5,0.5
2026-04-30T1700,3678A,116.5907,35.4054,济宁市,市第七中学,颗粒物(PM10),70,77,65,17,24,140,140,129,129,9,15,5,5,0.3,0.3
2026-04-30T1700,4111A,116.6075,35.4566,济宁市,任和路,颗粒物(PM10),58,60,55,18,23,144,144,130,130,7,10,6,6,0.3,0.3
2026-04-30T1700,4112A,116.5648,35.3921,济宁市,文体南路1号,颗粒物(PM10),61,65,58,13,24,134,134,129,129,6,15,4,5,0.4,0.5
2026-04-30T1700,4122A,112.6071,35.1015,济源市,市委党校,NA,NA,49,72,19,27,146,146,128,128,5,12,6,13,NA,0.6
2026-04-30T1700,4123A,112.596,35.0702,济源市,沁园中路1号,,45,38,59,11,30,142,142,128,128,6,24,2,7,0.5,0.9
2026-04-30T1700,2255A,130.2749,46.8028,佳木斯市,佳纺,颗粒物(PM10),83,96,47,34,18,138,138,130,130,6,17,6,5,0.3,0.3
2026-04-30T1700,2257A,130.3258,46.7975,佳木斯市,环保局,NA,NA,88,41,41,18,142,142,134,134,NA,20,4,3,NA,0.3
2026-04-30T1700,4285A,130.363,46.806,佳木斯市,顺和街,颗粒物(PM10),80,91,46,37,18,141,141,131,131,11,27,4,3,0.4,0.3
2026-04-30T1700,4286A,130.3952,46.8268,佳木斯市,长安路196号,颗粒物(PM10),72,80,45,38,22,136,136,130,130,16,24,4,3,0.4,0.4
2026-04-30T1700,1252A,120.7439,30.778,嘉兴市,清河小学,,43,27,24,16,19,135,135,118,118,12,16,7,7,0.5,0.6
2026-04-30T1700,1253A,120.7261,30.7477,嘉兴市,嘉兴学院,,41,18,29,14,21,131,131,122,122,12,16,6,6,0.4,0.4
2026-04-30T1700,2872A,120.7845,30.7524,嘉兴市,南湖区残联,,47,25,28,18,21,149,149,133,133,15,17,6,7,0.3,0.4
2026-04-30T1700,3407A,120.6915,30.7741,嘉兴市,秀洲住建,,47,19,26,10,20,150,150,134,134,10,12,6,6,0.3,0.3
2026-04-30T1700,1945A,98.291,39.7705,嘉峪关市,气象局,颗粒物(PM10),55,56,57,19,17,119,119,105,105,5,20,18,28,0.6,1.1
2026-04-30T1700,2884A,98.2672,39.7978,嘉峪关市,酒钢宾馆,颗粒物(PM10),53,53,61,17,19,124,124,111,111,6,16,24,51,0.6,1
2026-04-30T1700,3248A,98.2644,39.7723,嘉峪关市,雄关区,NA,NA,NA,55,NA,18,116,116,101,101,6,20,12,24,NA,0.8
2026-04-30T1700,1383A,113.1063,22.6058,江门市,北街,,50,32,18,15,8,159,159,114,114,24,22,/,/,/,/
2026-04-30T1700,1384A,113.073,22.5835,江门市,西区,,50,27,12,13,8,158,158,118,118,18,17,/,/,/,/
2026-04-30T1700,1385A,113.0218,22.531,江门市,圭峰西,,44,23,18,10,7,140,140,112,112,16,16,/,/,/,/
2026-04-30T1700,1386A,113.0826,22.5947,江门市,东湖,,49,27,13,12,9,155,155,112,112,17,16,6,6,0.5,0.4
2026-04-30T1700,3311A,113.1077,22.5647,江门市,江海富民,臭氧1小时(O3_1h),55,24,22,13,7,164,164,116,116,16,18,/,/,0.4,0.3
2026-04-30T1700,3449A,113.0496,22.4669,江门市,新会银湖,臭氧1小时(O3_1h),67,19,18,12,7,173,173,122,122,24,21,9,9,0.4,0.3
2026-04-30T1700,3335A,113.3137,35.2643,焦作市,马村街道办,,50,49,64,21,22,157,157,137,137,8,12,7,10,0.3,0.4
2026-04-30T1700,3336A,113.2464,35.2374,焦作市,焦作技师学院,,49,49,52,18,22,153,153,132,132,9,14,8,11,0.4,0.6
2026-04-30T1700,3477A,113.1656,35.2536,焦作市,中站许衡医院,,49,40,49,20,22,156,156,132,132,10,13,9,12,0.4,0.5
2026-04-30T1700,3981A,113.2456,35.18,焦作市,原李万街道办,,49,45,60,19,25,155,155,133,133,8,16,4,7,0.3,0.4
2026-04-30T1700,4264A,113.234,35.219,焦作市,新安路1731号,颗粒物(PM10),52,52,54,17,24,152,152,133,133,10,16,8,12,0.3,0.4
2026-04-30T1700,4295A,113.2722,35.2121,焦作市,人民路3066号,,45,44,52,16,25,141,141,122,122,7,12,4,7,0.3,0.4
2026-04-30T1700,1708A,116.3701,23.5345,揭阳市,新兴,,20,20,13,10,4,61,61,58,58,19,11,5,5,0.6,0.6
2026-04-30T1700,1709A,116.3261,23.5442,揭阳市,西马,,27,27,12,10,4,62,62,57,57,18,11,5,5,0.6,0.5
2026-04-30T1700,1710A,116.361,23.5627,揭阳市,东兴,,26,26,14,10,6,57,57,52,52,16,12,2,3,/,/
2026-04-30T1700,1711A,116.4151,23.5295,揭阳市,渔湖,,38,38,13,12,6,57,57,53,53,20,14,4,2,/,/
2026-04-30T1700,3320A,116.4028,23.5699,揭阳市,曲溪,,36,36,12,15,5,52,52,48,48,22,14,10,2,0.6,0.5
2026-04-30T1700,1944A,102.1691,38.5166,金昌市,天庆家园,颗粒物(PM10),84,97,119,22,40,126,126,121,121,7,11,4,24,0.4,0.5
2026-04-30T1700,4022A,102.1648,38.5369,金昌市,金川区人防中心,颗粒物(PM10),68,75,64,30,39,130,130,124,124,4,9,8,10,0.3,0.4
2026-04-30T1700,4239A,102.193042,38.531887,金昌市,长春路96号,NA,NA,NA,109,NA,43,121,121,116,116,3,8,7,18,NA,0.5
2026-04-30T1700,1262A,119.6478,29.0773,金华市,十五中,,39,19,20,9,14,122,122,102,102,12,15,1,1,0.4,0.4
2026-04-30T1700,1263A,119.6859,29.1032,金华市,监测站,,42,13,17,8,10,134,134,108,108,14,19,4,3,0.2,0.3
2026-04-30T1700,3659A,119.656,29.1132,金华市,气象局,,39,18,18,8,11,123,123,103,103,11,14,4,4,0.3,0.3
2026-04-30T1700,1767A,121.1114,41.0879,锦州市,南山,细颗粒物(PM2.5),68,69,43,44,36,153,153,132,132,31,33,12,10,0.8,0.6
2026-04-30T1700,1768A,121.060361,40.842794,锦州市,开发区,细颗粒物(PM2.5),70,76,70,45,35,94,94,90,90,46,41,8,9,0.6,0.6
2026-04-30T1700,1769A,121.1836,41.1118,锦州市,百股街道,细颗粒物(PM2.5),80,75,50,50,41,155,155,136,136,30,37,13,22,0.8,0.8
2026-04-30T1700,1770A,121.1176,41.1224,锦州市,天安街道,细颗粒物(PM2.5),72,76,50,46,38,157,157,129,129,28,34,11,14,0.7,0.6
2026-04-30T1700,1771A,121.1303,41.1385,锦州市,北湖公园,细颗粒物(PM2.5),70,73,55,45,42,158,158,131,131,25,29,14,16,0.7,0.6
2026-04-30T1700,2160A,112.8496,35.5051,晋城市,自来水公司,,50,41,68,8,13,159,159,137,137,14,23,5,6,0.3,0.6
2026-04-30T1700,2162A,112.8509,35.4886,晋城市,市环保局,颗粒物(PM10),61,65,65,20,15,154,154,136,136,7,18,6,6,0.3,0.6
2026-04-30T1700,3620A,112.8258,35.4804,晋城市,泽州一中,,50,37,59,21,23,157,157,143,143,7,19,5,6,0.2,0.8
2026-04-30T1700,4078A,112.8246,35.5152,晋城市,前书院路,,49,39,56,20,17,154,154,149,149,6,30,9,9,0.4,0.8
2026-04-30T1700,4079A,112.8864,35.4773,晋城市,祥云街666号,细颗粒物(PM2.5),56,51,51,38,21,155,155,136,136,8,21,10,10,0.5,0.7
2026-04-30T1700,2174A,112.6992,37.6984,晋中市,榆次区政府,,47,31,71,13,31,148,148,128,128,16,32,5,11,0.3,0.7
2026-04-30T1700,2865A,112.7195,37.683,晋中市,榆次三中,,48,31,72,15,28,153,153,136,136,4,26,6,11,0.3,0.6
2026-04-30T1700,4080A,112.7375,37.7215,晋中市,广安街188号,,45,29,79,17,30,142,142,126,126,6,28,5,9,0.1,0.5
2026-04-30T1700,4200A,112.7478,37.6954,晋中市,迎宾街26号,NA,NA,46,67,17,32,158,158,142,142,NA,23,NA,10,0.4,0.5
2026-04-30T1700,2439A,112.2012,31.048,荆门市,竹园小学,,46,40,45,22,25,146,146,130,130,8,13,1,6,0.4,0.5
2026-04-30T1700,2440A,112.1968,30.9892,荆门市,掇刀,,48,48,47,21,26,149,149,132,132,17,21,8,11,0.5,0.5
2026-04-30T1700,3012A,112.1849,31.0361,荆门市,西山林语,,50,50,45,27,23,139,139,125,125,8,10,7,6,0.5,0.5
2026-04-30T1700,3547A,112.1631,31.0134,荆门市,龙泉中学南校,,45,36,33,18,24,143,143,128,128,10,13,4,6,0.3,0.5
2026-04-30T1700,4124A,112.2213,31.0654,荆门市,新台西路6号,颗粒物(PM10),52,52,43,31,27,146,146,131,131,10,12,10,10,0.6,0.6
2026-04-30T1700,1844A,112.2493,30.3198,荆州市,市图书馆,,43,28,31,19,17,135,135,126,126,9,13,7,9,0.6,0.6
2026-04-30T1700,1845A,112.2009,30.3543,荆州市,市委党校,,33,29,31,19,19,103,103,100,100,11,17,7,8,0.4,0.4
2026-04-30T1700,3194A,112.2749,30.3124,荆州市,管委会,,41,33,29,14,19,130,130,121,121,15,20,7,8,0.4,0.4
2026-04-30T1700,4268A,112.1722,30.3366,荆州市,学苑路85号,,42,NA,31,20,19,134,134,128,128,4,11,4,6,0.4,0.1
2026-04-30T1700,2343A,117.2114,29.2931,景德镇市,老干部活动中心,,33,NA,9,9,10,103,103,91,91,2,3,5,4,0.4,0.5
2026-04-30T1700,2344A,117.1893,29.2789,景德镇市,兽医站,,38,15,17,3,4,119,119,106,106,5,5,4,4,0.3,0.4
2026-04-30T1700,2346A,117.246,29.2958,景德镇市,陶研所,,35,8,8,3,5,110,110,100,100,3,6,4,4,0.5,0.6
2026-04-30T1700,4289A,117.154766,29.256967,景德镇市,青少年活动中心,,34,14,10,8,7,108,108,97,97,13,6,21,6,/,/
2026-04-30T1700,1803A,115.9873,29.6816,九江市,十里,,37,17,25,3,17,116,116,114,114,15,23,6,6,0.7,0.8
2026-04-30T1700,1804A,115.9583,29.7047,九江市,茅山头,,39,9,22,3,19,123,123,114,114,12,16,4,4,0.5,0.5
2026-04-30T1700,1805A,115.9877,29.7295,九江市,西园,,39,15,23,3,18,123,123,114,114,21,23,4,5,0.5,0.6
2026-04-30T1700,1808A,115.9112,29.6038,九江市,综合工业园,NA,NA,NA,19,4,17,125,125,118,118,NA,28,NA,7,0.4,0.5
2026-04-30T1700,3190A,116.0254,29.6995,九江市,外国语学校,,38,8,21,3,18,120,120,110,110,16,20,11,11,0.6,0.7
2026-04-30T1700,4253A,116.010205,29.659402,九江市,莲花大道8号,,33,14,26,3,16,105,105,98,98,15,19,5,4,0.3,0.4
2026-04-30T1700,4240A,98.495752,39.733935,酒泉市,玉门东路5号,,44,44,44,14,20,103,103,98,98,5,8,7,7,0.3,0.2
2026-04-30T1700,4241A,98.5099,39.7506,酒泉市,北大街108号,NA,NA,41,44,40,27,108,108,103,103,3,11,NA,8,0.2,0.3
2026-04-30T1700,2698A,76.0071,39.466,喀什地区,巡警大队,颗粒物(PM10),120,171,196,62,74,112,112,84,84,4,38,4,5,0.2,0.4
2026-04-30T1700,2699A,75.9756,39.4693,喀什地区,吾办,颗粒物(PM10),122,176,201,69,81,109,109,86,86,4,24,3,4,0.1,0.6
2026-04-30T1700,4027A,75.9485,39.4688,喀什地区,老干局,颗粒物(PM10),124,180,185,72,75,109,109,84,84,2,26,4,3,0.1,0.3
2026-04-30T1700,1824A,114.3389,34.778,开封市,肿瘤医院,颗粒物(PM10),68,74,63,42,34,147,147,132,132,16,22,9,8,0.6,0.6
2026-04-30T1700,1826A,114.2884,34.7966,开封市,世纪星幼儿园,颗粒物(PM10),72,80,65,36,32,147,147,131,131,16,20,8,8,0.6,0.6
2026-04-30T1700,3147A,114.3434,34.8101,开封市,龙亭公园,颗粒物(PM10),83,96,69,31,31,157,157,140,140,19,24,9,9,0.5,0.6
2026-04-30T1700,3210A,114.3645,34.7955,开封市,汴京公园,颗粒物(PM10),72,80,66,29,29,157,157,138,138,10,17,6,6,0.5,0.5
2026-04-30T1700,3473A,114.2485,34.8306,开封市,技师学院,颗粒物(PM10),78,89,68,37,37,160,160,138,138,9,18,7,7,0.7,0.7
2026-04-30T1700,3592A,114.4518,34.7503,开封市,祥符区生态环境局,颗粒物(PM10),52,52,62,34,35,148,148,133,133,18,28,9,9,0.6,0.5
2026-04-30T1700,1951A,84.886,45.6029,克拉玛依市,长征新村,,37,23,113,3,26,117,117,110,110,2,6,5,6,0.4,0.4
2026-04-30T1700,1952A,84.8894,45.5827,克拉玛依市,南林小区,,33,28,115,3,22,103,103,96,96,2,7,3,3,0.1,0.1
2026-04-30T1700,1954A,84.896,44.3328,克拉玛依市,独山子区,NA,NA,56,99,3,15,119,119,108,108,NA,6,6,6,0.4,0.4
2026-04-30T1700,1955A,85.6888,46.0909,克拉玛依市,乌尔禾区商贸楼,,37,26,86,10,16,116,116,100,100,5,9,3,4,0.2,0.2
2026-04-30T1700,3612A,85.1045,45.6895,克拉玛依市,白碱滩区新站,,40,24,120,3,32,128,128,119,119,1,4,7,7,0.2,0.2
2026-04-30T1700,2697A,76.1457,39.7143,克孜勒苏柯尔克孜自治州,市人民政府,颗粒物(PM10),123,179,141,61,51,116,116,98,98,2,7,5,5,0.0,0
2026-04-30T1700,3665A,76.1654,39.7157,克孜勒苏柯尔克孜自治州,克州文化中心,颗粒物(PM10),124,180,145,63,57,115,115,96,96,1,7,3,3,0.2,0.2
2026-04-30T1700,1450A,102.8203,24.889,昆明市,呈贡新区,,29,20,20,20,16,87,87,87,87,17,13,2,3,0.6,0.6
2026-04-30T1700,1452A,102.7253,25.0904,昆明市,龙泉镇,,29,27,29,20,20,81,81,74,74,12,19,5,5,0.6,0.6
2026-04-30T1700,1453A,102.7267,25.0378,昆明市,东风东路,,32,27,28,22,18,89,89,87,87,16,17,3,3,0.5,0.5
2026-04-30T1700,1454A,102.6744,25.0671,昆明市,金鼎山,,36,36,28,24,19,90,90,85,85,16,15,2,2,0.7,0.6
2026-04-30T1700,1455A,102.6643,25.0401,昆明市,碧鸡广场,,32,26,29,22,18,83,83,77,77,14,15,6,6,0.6,0.5
2026-04-30T1700,3179A,102.7491,25.012,昆明市,官渡区博物馆,,36,36,29,17,17,86,86,84,84,15,27,4,4,0.5,0.6
2026-04-30T1700,3375A,102.8016,24.8336,昆明市,青年创业园,NA,NA,23,25,16,14,100,100,93,93,NA,11,5,5,0.5,0.7
2026-04-30T1700,3550A,102.8,24.9787,昆明市,昆明学院,,28,23,31,14,14,87,87,84,84,14,22,5,5,0.5,0.5
2026-04-30T1700,3551A,102.5969,24.6738,昆明市,晋宁区生态环境分局,,32,27,30,12,22,101,101,92,92,5,11,2,4,0.3,0.3
2026-04-30T1700,3552A,102.6673,24.9861,昆明市,云天化总部,NA,NA,NA,25,NA,13,84,84,80,80,13,11,NA,5,0.6,0.6
2026-04-30T1700,1456A,91.132,29.6515,拉萨市,八廓街,,34,26,20,3,8,108,108,111,111,3,6,6,5,0.5,0.5
2026-04-30T1700,1457A,91.1221,29.6748,拉萨市,市环保局,,31,13,15,8,8,99,99,102,102,8,9,4,4,0.2,0.2
2026-04-30T1700,1458A,91.0874,29.6476,拉萨市,区监测站,,34,NA,14,11,8,106,106,104,104,10,11,5,5,0.4,0.3
2026-04-30T1700,1459A,91.1774,29.6541,拉萨市,西藏大学,,31,11,17,6,9,97,97,100,100,8,11,1,1,0.3,0.4
2026-04-30T1700,1460A,90.9798,29.6586,拉萨市,区辐射站,,27,21,20,10,9,86,86,91,91,16,15,6,5,0.4,0.3
2026-04-30T1700,1461A,91.0831,29.6292,拉萨市,拉萨火车站,,35,11,11,6,7,109,109,107,107,8,8,3,4,0.4,0.4
2026-04-30T1700,2520A,109.2203,23.7252,来宾市,来宾技工学校,,45,34,22,22,9,141,141,126,126,5,5,8,8,0.8,0.8
2026-04-30T1700,3535A,109.1781,23.7293,来宾市,兴宾区政府,,46,27,18,18,9,147,147,131,131,7,4,9,9,0.5,0.5
2026-04-30T1700,4002A,109.2312,23.7428,来宾市,中南小学,,46,32,19,14,8,145,145,132,132,8,8,8,8,0.5,0.4
2026-04-30T1700,1479A,103.8309,36.0467,兰州市,铁路设计院,,48,48,53,16,19,101,101,95,95,14,18,4,5,0.4,0.5
2026-04-30T1700,3241A,103.7439,36.0841,兰州市,百合公园,,44,44,53,18,22,105,105,101,101,10,16,3,6,0.3,0.4
2026-04-30T1700,3242A,103.9613,35.9985,兰州市,和平,细颗粒物(PM2.5),90,59,47,55,26,108,108,101,101,6,10,8,8,0.4,0.4
2026-04-30T1700,4236A,103.629272,36.093822,兰州市,庄浪东路808号,颗粒物(PM10),57,59,60,22,31,115,115,116,116,6,18,8,8,0.3,0.4
2026-04-30T1700,4237A,103.7251,36.104344,兰州市,安宁西路88号,,47,47,57,18,21,119,119,112,112,10,16,7,8,0.2,0.3
2026-04-30T1700,4238A,103.846982,36.067567,兰州市,北滨河东路1号,颗粒物(PM10),80,91,59,21,23,104,104,100,100,12,15,8,9,0.5,0.6
2026-04-30T1700,1067A,116.6712,39.5109,廊坊市,药材公司,,50,44,44,26,25,160,160,136,136,7,22,3,4,0.4,0.4
2026-04-30T1700,1068A,116.7215,39.5592,廊坊市,开发区,颗粒物(PM10),55,56,48,20,26,163,163,140,140,15,18,3,3,0.4,0.3
2026-04-30T1700,1070A,116.7246,39.5273,廊坊市,北华航天学院,臭氧1小时(O3_1h),64,43,50,25,28,171,171,144,144,10,20,4,4,0.3,0.3
2026-04-30T1700,2919A,116.7022,39.5454,廊坊市,河北工业大学,臭氧1小时(O3_1h),64,37,45,29,24,171,171,141,141,7,20,4,4,0.4,0.3
2026-04-30T1700,2536A,103.7629,29.5844,乐山市,牛耳桥,,34,30,37,16,25,107,107,91,91,10,12,5,4,0.5,0.5
2026-04-30T1700,2537A,103.7501,29.6002,乐山市,市第三水厂,,35,26,34,14,22,109,109,90,90,12,15,4,4,0.5,0.5
2026-04-30T1700,2538A,103.7571,29.5664,乐山市,市监测站,NA,NA,34,39,15,24,100,100,86,86,9,11,3,4,NA,0.5
2026-04-30T1700,3361A,103.7313,29.563,乐山市,理工大学,,36,26,32,14,21,114,114,96,96,8,11,5,6,0.4,0.4
2026-04-30T1700,2599A,100.2497,26.8802,丽江市,丽江古城,,39,28,27,27,14,89,89,78,78,9,11,6,6,0.4,0.4
2026-04-30T1700,2600A,100.2203,26.8906,丽江市,市中心,,27,NA,18,17,16,85,85,76,76,10,14,6,9,0.5,0.7
2026-04-30T1700,1267A,119.9141,28.4513,丽水市,监测站大楼,,32,11,9,3,5,102,102,90,90,7,9,4,4,0.3,0.3
2026-04-30T1700,1268A,119.93,28.4589,丽水市,莲都小学,,32,10,10,3,6,100,100,86,86,6,9,/,/,/,/
2026-04-30T1700,1269A,119.8794,28.4232,丽水市,余庄前,,31,9,10,3,4,97,97,82,82,7,10,4,4,0.2,0.3
2026-04-30T1700,1173A,119.1759,34.5885,连云港市,市环境监测站,,44,44,43,19,25,140,140,129,129,11,20,9,10,0.6,0.6
2026-04-30T1700,3000A,119.3577,34.6971,连云港市,德源药业,,46,41,46,19,25,146,146,137,137,12,24,6,6,0.3,0.4
2026-04-30T1700,3007A,119.178,34.8442,连云港市,新城一中,颗粒物(PM10),58,60,48,19,31,144,144,137,137,10,25,6,8,0.6,0.7
2026-04-30T1700,3008A,119.3607,34.7519,连云港市,胡沟管理处,,44,27,23,14,17,139,139,131,131,16,22,10,11,0.4,0.4
2026-04-30T1700,3009A,119.1478,34.5913,连云港市,矿山设计院,,46,46,48,17,24,137,137,129,129,15,18,6,7,0.6,0.6
2026-04-30T1700,3434A,119.2414,34.6539,连云港市,工贸学校,,46,29,42,18,27,147,147,137,137,10,14,5,7,0.5,0.5
2026-04-30T1700,3664A,119.4171,34.734,连云港市,连云街道,,45,37,41,18,21,143,143,133,133,12,12,10,10,0.8,0.6
2026-04-30T1700,2573A,102.2629,27.8981,凉山彝族自治州,西昌市政府,,31,24,20,16,15,98,98,90,90,9,14,15,12,0.6,0.6
2026-04-30T1700,2574A,102.2686,27.885,凉山彝族自治州,凉山州政府,,29,29,22,16,13,85,85,76,76,8,12,12,6,0.5,0.5
2026-04-30T1700,4229A,102.2342,27.8859,凉山彝族自治州,凯乐南路30号,,30,27,23,21,14,84,84,77,77,15,17,16,6,1.0,0.6
2026-04-30T1700,2212A,123.1978,41.2036,辽阳市,宏伟区,,46,44,34,12,10,146,146,131,131,10,12,8,7,0.5,0.5
2026-04-30T1700,2213A,123.1684,41.2497,辽阳市,新华园,,47,36,38,14,14,150,150,132,132,14,19,7,7,0.6,0.7
2026-04-30T1700,2214A,123.2355,41.2663,辽阳市,滨河路,,43,35,31,11,13,137,137,124,124,10,18,7,9,0.4,0.5
2026-04-30T1700,4083A,123.153,41.2874,辽阳市,铁西路150号,,48,48,44,26,18,137,137,128,128,17,18,12,13,0.7,0.8
2026-04-30T1700,2227A,125.1359,42.8845,辽源市,环保局,,45,20,30,8,15,143,143,132,132,6,20,6,7,0.3,0.5
2026-04-30T1700,4085A,125.0998,42.9134,辽源市,安宁大街333号,,43,28,41,6,14,136,136,128,128,6,16,6,7,0.4,0.5
2026-04-30T1700,1625A,115.9789,36.4372,聊城市,区政府,臭氧1小时(O3_1h),59,58,54,22,27,167,167,136,136,8,14,10,8,0.4,0.3
2026-04-30T1700,3200A,115.9772,36.4986,聊城市,监控中心,臭氧1小时(O3_1h),72,63,56,21,23,177,177,150,150,11,13,12,9,0.4,0.4
2026-04-30T1700,3513A,116.0443,36.436,聊城市,九州社区,臭氧1小时(O3_1h),67,53,58,18,31,173,173,152,152,8,20,9,9,0.5,0.4
2026-04-30T1700,4018A,116.0564,36.4609,聊城市,星美广场,臭氧1小时(O3_1h),55,52,59,20,31,164,164,135,135,13,17,8,7,0.4,0.4
2026-04-30T1700,4113A,116.0091,36.4495,聊城市,利民路,臭氧1小时(O3_1h),74,38,40,20,29,179,179,148,148,9,10,12,11,0.6,0.5
2026-04-30T1700,2632A,94.3683,29.6373,林芝市,林芝监测站,,30,6,6,3,4,93,93,86,86,5,4,3,3,0.5,0.5
2026-04-30T1700,2633A,94.3616,29.6634,林芝市,林芝人民医院,,31,6,7,3,5,99,99,90,90,5,5,4,4,0.6,0.6
2026-04-30T1700,2603A,100.0779,23.8981,临沧市,市环保局,,46,40,34,32,28,90,90,58,58,8,9,3,2,0.7,0.7
2026-04-30T1700,2604A,100.0894,23.882,临沧市,市气象局,,40,28,30,28,30,91,91,58,58,9,10,4,3,0.8,0.9
2026-04-30T1700,1733A,111.5552,36.0791,临汾市,临钢医院,颗粒物(PM10),56,58,65,20,26,162,162,139,139,9,16,8,8,0.7,0.7
2026-04-30T1700,1734A,111.4984,36.0734,临汾市,技工学校,臭氧1小时(O3_1h),53,50,69,19,32,162,162,133,133,11,20,9,10,0.6,0.7
2026-04-30T1700,1736A,111.5017,36.0857,临汾市,市委,颗粒物(PM10),60,64,68,16,27,165,165,138,138,9,18,10,10,0.7,0.8
2026-04-30T1700,3018A,111.5048,36.1015,临汾市,唐尧大酒店,NA,NA,76,76,20,27,165,165,140,140,10,20,NA,9,0.7,0.8
2026-04-30T1700,4244A,111.4879,36.053,临汾市,启星学校,颗粒物(PM10),75,84,67,16,27,162,162,135,135,11,19,8,8,0.6,0.7
2026-04-30T1700,4271A,103.2464,35.6123,临夏回族自治州,滨河东路1号,,43,43,62,24,34,110,110,92,92,9,16,12,10,0.3,0.4
2026-04-30T1700,4310A,103.207136,35.599807,临夏回族自治州,新华街21号,,27,27,57,12,30,81,81,73,73,3,11,8,7,0,0.5
2026-04-30T1700,1618A,118.3429,35.0532,临沂市,沂河小区,颗粒物(PM10),63,68,67,24,34,144,144,132,132,11,20,10,15,0.3,0.4
2026-04-30T1700,1619A,118.2962,35.0568,临沂市,鲁南制药厂,颗粒物(PM10),62,66,61,20,33,148,148,138,138,12,21,11,16,0.3,0.3
2026-04-30T1700,1620A,118.2793,34.9976,临沂市,新光毛纺厂,颗粒物(PM10),63,68,64,20,35,146,146,134,134,12,23,10,16,0.2,0.3
2026-04-30T1700,1621A,118.3955,35.0889,临沂市,河东保险公司,颗粒物(PM10),53,53,56,22,31,155,155,142,142,14,20,11,15,0.3,0.4
2026-04-30T1700,3370A,118.3563,35.0215,临沂市,十里堡居委,颗粒物(PM10),55,56,63,24,35,153,153,140,140,12,25,10,14,0.4,0.5
2026-04-30T1700,3496A,118.359,35.1067,临沂市,南坊新区,颗粒物(PM10),53,53,56,20,33,142,142,135,135,14,20,10,14,0.2,0.3
2026-04-30T1700,3860A,118.3915,35.0297,临沂市,皇山花园小区,颗粒物(PM10),58,61,56,27,40,152,152,136,136,18,26,10,16,0.4,0.5
2026-04-30T1700,1870A,109.4854,24.3898,柳州市,柳东小学,,39,17,14,9,9,123,123,104,104,4,5,4,5,0.4,0.4
2026-04-30T1700,1871A,109.4109,24.3304,柳州市,环保监测站,,37,25,16,10,10,117,117,103,103,8,10,5,8,0.5,0.7
2026-04-30T1700,1872A,109.3886,24.3408,柳州市,河西水厂,,41,26,20,16,12,129,129,112,112,8,8,14,14,0.6,0.6
2026-04-30T1700,1873A,109.4263,24.2951,柳州市,市四中,,39,18,17,12,8,124,124,106,106,9,8,7,7,0.6,0.6
2026-04-30T1700,1874A,109.396,24.3658,柳州市,市九中,NA,NA,31,22,12,11,118,118,104,104,6,9,NA,7,0.4,0.4
2026-04-30T1700,1875A,109.4912,24.3164,柳州市,古亭山,,37,23,37,8,11,117,117,102,102,7,7,4,5,0.6,0.6
2026-04-30T1700,3402A,109.5422,24.3994,柳州市,市二中,,39,19,14,14,9,122,122,110,110,6,6,7,7,0.4,0.4
2026-04-30T1700,2307A,116.5078,31.7369,六安市,监测大楼,,38,9,21,3,14,121,121,114,114,7,14,4,4,0.2,0.3
2026-04-30T1700,2308A,116.4738,31.7642,六安市,皖西学院,,41,NA,20,3,13,129,129,124,124,4,10,4,4,0.3,0.3
2026-04-30T1700,2309A,116.4997,31.7904,六安市,朝阳厂,,39,8,15,3,13,122,122,116,116,6,9,6,6,0.2,0.2
2026-04-30T1700,2310A,116.5566,31.7885,六安市,开发区,,43,NA,13,3,13,135,135,129,129,14,23,4,5,0.2,0.3
2026-04-30T1700,2577A,104.8293,26.592,六盘水市,黄土坡,,41,41,29,28,18,68,68,72,60,13,11,5,6,0.3,0.3
2026-04-30T1700,2579A,104.8481,26.5898,六盘水市,民中,,40,32,24,28,19,64,64,69,57,11,10,7,7,0.4,0.4
2026-04-30T1700,2580A,104.9541,26.5506,六盘水市,双水,,42,39,26,29,20,73,73,68,65,12,8,4,4,0.3,0.2
2026-04-30T1700,4151A,104.8899,26.5685,六盘水市,钟山大道中段564号,,44,44,31,26,17,66,66,67,58,9,7,3,2,0.6,0.5
2026-04-30T1700,2336A,117.022,25.1031,龙岩市,龙岩市监测站,,29,16,10,10,6,90,90,73,73,8,7,6,6,0.4,0.4
2026-04-30T1700,2337A,117.0257,25.0662,龙岩市,闽西职业技术学院,,26,18,9,9,6,82,82,71,71,4,4,8,6,0.5,0.5
2026-04-30T1700,2338A,117.0195,25.0306,龙岩市,龙岩学院,,26,19,10,8,6,81,81,72,72,4,5,5,5,/,/
2026-04-30T1700,2885A,104.9344,33.3827,陇南市,滨江中学,颗粒物(PM10),53,53,55,12,15,86,86,82,82,5,7,4,5,0.5,0.5
2026-04-30T1700,3247A,104.9551,33.3709,陇南市,市总工会,,39,39,47,14,13,89,89,81,81,4,7,4,7,0.5,0.5
2026-04-30T1700,2488A,111.9984,27.7346,娄底市,市监测站,,38,12,29,8,19,121,121,110,110,4,18,3,12,0.3,0.5
2026-04-30T1700,2491A,111.9888,27.7035,娄底市,市政府,,39,18,22,9,14,123,123,108,108,10,11,3,3,0.4,0.5
2026-04-30T1700,4127A,111.9812,27.7591,娄底市,涟钢职大,,41,19,19,3,7,129,129,120,120,9,10,2,3,0.1,0.6
2026-04-30T1700,4128A,112.0303,27.7457,娄底市,娄底体校,NA,NA,NA,21,NA,13,123,123,106,106,3,11,4,4,0.3,0.2
2026-04-30T1700,1894A,105.4427,28.9063,泸州市,小市上码头,,30,19,18,12,9,95,95,70,70,8,14,7,7,0.4,0.6
2026-04-30T1700,1895A,105.4241,28.8573,泸州市,兰田宪桥,,32,26,25,18,13,100,100,76,76,10,13,4,8,0.4,0.6
2026-04-30T1700,1896A,105.4378,28.8833,泸州市,市环监站,,34,18,20,9,10,106,106,77,77,11,16,8,9,0.7,0.8
2026-04-30T1700,4272A,105.3689,28.7783,泸州市,纳溪中医医院,,33,25,31,12,16,103,103,71,71,6,15,4,5,0.4,0.6
2026-04-30T1700,2183A,111.1447,37.5212,吕梁市,环保局,NA,NA,NA,60,NA,19,139,139,130,130,10,25,4,5,0.3,0.4
2026-04-30T1700,2185A,111.1285,37.5338,吕梁市,自来水公司,,42,29,62,9,23,132,132,129,129,12,28,2,7,0.4,0.5
2026-04-30T1700,2867A,111.1225,37.5093,吕梁市,马茂庄小学,,47,42,60,3,18,149,149,143,143,8,27,2,5,0.3,0.4
2026-04-30T1700,1812A,112.3934,34.6517,洛阳市,市委党校,,45,24,52,7,30,144,144,120,120,8,15,7,9,0.4,0.6
2026-04-30T1700,1815A,112.494,34.6883,洛阳市,河南林校,NA,NA,48,63,6,30,146,146,124,124,10,20,11,11,NA,0.7
2026-04-30T1700,1816A,112.3843,34.623,洛阳市,开发区管委会,,46,29,59,19,36,147,147,122,122,9,15,10,11,0.4,0.5
2026-04-30T1700,1817A,112.4263,34.6249,洛阳市,市委新办公区,,47,30,55,14,31,148,148,122,122,12,15,9,10,0.3,0.5
2026-04-30T1700,3340A,112.6005,34.6323,洛阳市,伊滨,,47,31,60,26,32,148,148,119,119,12,17,11,10,0.2,0.4
2026-04-30T1700,3341A,112.495,34.6338,洛阳市,中移产业园,,48,31,54,19,33,153,153,124,124,13,17,8,10,0.2,0.5
2026-04-30T1700,3593A,112.5736,34.8993,洛阳市,吉利监测站,颗粒物(PM10),56,58,52,10,22,153,153,130,130,10,17,7,9,0.3,0.4
2026-04-30T1700,3635A,112.3678,34.6623,洛阳市,河科大西苑校区,,47,26,55,3,31,149,149,125,125,12,19,8,12,0.4,0.4
2026-04-30T1700,3636A,112.4387,34.678,洛阳市,英才小学,,48,NA,66,33,38,144,144,120,120,13,20,6,9,0.3,0.5
2026-04-30T1700,4214A,112.460027,34.694929,洛阳市,春都路1号院,NA,NA,43,74,NA,11,151,151,123,123,8,19,8,13,0.4,0.6
2026-04-30T1700,2399A,114.051,33.5721,漯河市,三五一五工厂,,44,44,55,17,31,139,139,128,128,11,20,5,6,0.4,0.5
2026-04-30T1700,2400A,114.0055,33.5698,漯河市,漯河大学,,45,45,48,28,33,138,138,129,129,15,18,6,8,0.4,0.4
2026-04-30T1700,2401A,114.0134,33.5826,漯河市,市水利局,,43,39,49,13,29,136,136,127,127,10,16,5,7,0.4,0.4
2026-04-30T1700,2402A,114.0261,33.5697,漯河市,市广电局,,43,39,48,23,30,135,135,128,128,12,20,5,8,0.3,0.4
2026-04-30T1700,3478A,113.9691,33.568,漯河市,市图书馆,,42,41,51,16,30,134,134,124,124,10,19,7,8,0.4,0.4
2026-04-30T1700,4250A,114.089259,33.588274,漯河市,韶山路11号,,42,35,56,22,28,134,134,123,123,8,16,6,8,0.3,0.3
2026-04-30T1700,1798A,118.5084,31.6838,马鞍山市,湖东路四小,,49,42,37,22,29,154,154,126,126,16,24,6,6,0.6,0.5
2026-04-30T1700,1799A,118.5019,31.6449,马鞍山市,开发区,,48,40,38,27,30,153,153,126,126,15,33,8,6,0.5,0.5
2026-04-30T1700,3633A,118.4914,31.681,马鞍山市,雨山,,50,48,35,22,26,157,157,128,128,14,25,6,5,0.7,0.6
2026-04-30T1700,4191A,118.527362,31.722269,马鞍山市,慈湖高新区,,47,43,48,26,33,148,148,120,120,18,31,10,9,0.8,0.7
2026-04-30T1700,1686A,111.0285,21.469,茂名市,电白南海,,40,36,28,19,11,126,126,96,96,10,10,12,8,0.7,0.7
2026-04-30T1700,1687A,110.9294,21.6533,茂名市,茂石化七小,NA,NA,24,21,13,8,91,91,86,86,NA,11,11,10,0.6,0.6
2026-04-30T1700,1688A,110.9108,21.6688,茂名市,健康路,,30,NA,15,10,8,95,95,84,84,9,10,7,9,0.6,0.6
2026-04-30T1700,1689A,110.8592,21.6826,茂名市,高岭,,28,27,24,9,7,89,89,80,80,9,8,9,18,/,/
2026-04-30T1700,3450A,111.0101,21.5165,茂名市,电白水东,,38,36,19,20,10,120,120,91,91,10,11,11,6,/,/
2026-04-30T1700,2540A,103.8414,30.0871,眉山市,气象局,,37,30,39,16,15,117,117,103,103,7,13,6,7,0.6,0.7
2026-04-30T1700,3148A,103.829,30.0563,眉山市,区人社局,,47,47,43,23,20,112,112,100,100,16,17,5,7,0.8,0.8
2026-04-30T1700,4148A,103.8836,30.0695,眉山市,眉职院,,43,43,41,18,18,114,114,106,106,11,14,8,9,0.8,0.8
2026-04-30T1700,1690A,116.1248,24.3307,梅州市,梅江月梅,,21,11,6,3,2,66,66,67,66,6,8,/,/,/,/
2026-04-30T1700,1691A,116.0798,24.2719,梅州市,梅县新城,,23,18,8,3,4,72,72,70,70,9,8,8,8,0.4,0.5
2026-04-30T1700,3315A,116.1234,24.2994,梅州市,梅龙,,23,NA,6,3,3,72,72,61,NA,5,6,6,6,0.2,0.2
2026-04-30T1700,1878A,104.7775,31.4741,绵阳市,富乐山,,25,17,35,12,30,77,77,85,85,9,12,7,8,0.6,0.6
2026-04-30T1700,1880A,104.6698,31.4668,绵阳市,高新区自来水公司,,32,24,48,13,28,102,102,88,88,12,18,7,8,0.4,0.5
2026-04-30T1700,3491A,104.6899,31.5324,绵阳市,西科大附属小学,,31,21,45,12,26,97,97,83,83,11,20,5,6,0.4,0.4
2026-04-30T1700,3492A,104.5647,31.5343,绵阳市,安州区旅游局,,30,27,37,18,24,93,93,87,87,16,14,6,6,0.3,0.3
2026-04-30T1700,4146A,104.7092,31.4972,绵阳市,科技城新区公安局,,27,12,51,10,29,86,86,85,85,12,14,5,7,0.5,0.7
2026-04-30T1700,4226A,104.765114,31.453094,绵阳市,绵阳市气象局,,30,30,40,16,27,55,55,63,63,54,19,8,8,0.5,0.6
2026-04-30T1700,1784A,129.61,44.561,牡丹江市,环保大楼,,40,38,43,12,22,127,127,120,120,8,20,4,3,0.2,0.3
2026-04-30T1700,1787A,129.6364,44.6075,牡丹江市,机车工厂,NA,NA,NA,54,16,29,120,120,112,112,9,22,6,10,0.2,0.3
2026-04-30T1700,1788A,129.6386,44.5462,牡丹江市,第一中学,,40,29,35,10,18,127,127,120,120,6,15,4,3,0.3,0.3
2026-04-30T1700,4287A,129.5992,44.5964,牡丹江市,东晓云街98号,,37,31,45,9,21,117,117,110,110,8,14,4,5,0.2,0.4
2026-04-30T1700,2531A,105.0703,29.61,内江市,市监测站,,40,32,22,13,17,127,127,100,100,10,12,8,8,0.7,0.8
2026-04-30T1700,2533A,105.0657,29.5807,内江市,内江二中,,39,24,24,12,16,123,123,95,95,10,13,6,7,0.3,0.3
2026-04-30T1700,2534A,105.0407,29.5828,内江市,内江日报社,,40,19,21,13,17,125,125,100,100,13,15,12,12,0.4,0.4
2026-04-30T1700,4147A,105.0433,29.6105,内江市,玉峰路西段888号,,41,21,23,11,16,130,130,99,99,11,14,4,4,0.4,0.5
2026-04-30T1700,2628A,92.0653,31.4846,那曲市,那曲监测站,NA,NA,24,24,3,16,100,100,93,93,NA,16,6,8,NA,0.7
2026-04-30T1700,4243A,92.0515,31.4787,那曲市,那曲市委宣传部,,37,6,13,3,14,117,117,110,110,6,11,11,12,0.5,0.6
2026-04-30T1700,1291A,115.8887,28.7006,南昌市,省林业公司,,38,12,15,8,14,121,121,113,113,9,12,3,3,0.3,0.3
2026-04-30T1700,1292A,115.813,28.7443,南昌市,林科所,NA,NA,NA,14,8,15,132,132,124,124,5,8,8,8,NA,0.2
2026-04-30T1700,1294A,115.8518,28.687,南昌市,建工学校,,40,8,23,8,14,125,125,116,116,5,6,6,6,0.5,0.6
2026-04-30T1700,1295A,115.8926,28.6425,南昌市,象湖,,38,7,15,7,17,121,121,113,113,11,12,8,8,0.7,0.8
2026-04-30T1700,3046A,115.9084,28.6062,南昌市,机电学校,,41,21,22,6,17,131,131,125,125,10,10,6,5,0.3,0.4
2026-04-30T1700,3690A,115.9718,28.7032,南昌市,外国语学校,,36,17,21,3,16,115,115,114,114,18,13,8,9,0.4,0.5
2026-04-30T1700,4106A,115.7923,28.6873,南昌市,工业二路,,42,22,23,8,15,134,134,125,125,5,9,5,5,0.4,0.4
2026-04-30T1700,4192A,115.931587,28.686774,南昌市,南京东路235号,,44,18,25,3,15,138,138,133,133,14,13,5,6,0.2,0.3
2026-04-30T1700,1906A,106.0791,30.8022,南充市,南充市委,,40,23,29,8,17,128,128,91,91,7,16,6,7,0.3,0.4
2026-04-30T1700,1907A,106.1038,30.8215,南充市,南充炼油厂,,40,40,34,9,18,128,128,89,89,8,13,6,5,0.3,0.3
2026-04-30T1700,4227A,106.108336,30.788436,南充市,梨树横街98号,,42,23,27,8,17,132,132,92,92,6,13,6,6,0.2,0.3
2026-04-30T1700,4304A,106.1172,30.843,南充市,清泉寺北路188号,,42,26,27,10,18,133,133,92,92,9,11,6,7,0.3,0.4
2026-04-30T1700,4305A,106.067,30.7616,南充市,同庆路1号,,41,21,28,9,17,131,131,98,98,6,13,6,7,0.3,0.4
2026-04-30T1700,1151A,118.8033,32.1085,南京市,迈皋桥,NA,NA,33,37,NA,18,163,163,143,143,2,14,2,2,0.4,0.5
2026-04-30T1700,1152A,118.7487,32.057,南京市,草场门,,45,39,33,7,19,144,144,125,125,12,23,4,4,0.3,0.4
2026-04-30T1700,1154A,118.770105,32.004342,南京市,中华门,,47,34,41,6,20,148,148,128,128,9,22,8,8,0.8,0.7
2026-04-30T1700,1155A,118.8059,32.0329,南京市,瑞金路,,48,39,42,9,27,153,153,131,131,15,24,4,6,0.6,0.5
2026-04-30T1700,1156A,118.7946,32.0774,南京市,玄武湖,NA,NA,34,32,6,21,144,144,123,123,5,18,3,4,NA,0.4
2026-04-30T1700,1157A,118.6415,32.0964,南京市,浦口,,42,39,39,6,21,133,133,125,125,8,13,4,4,0.3,0.7
2026-04-30T1700,1158A,118.730129,32.000956,南京市,奥体中心,,40,32,39,3,20,126,126,107,107,17,31,9,9,0.4,0.4
2026-04-30T1700,1159A,118.9072,32.1047,南京市,仙林大学城,,50,39,43,8,25,157,157,133,133,13,28,9,8,0.6,0.7
2026-04-30T1700,3422A,118.8443,31.919,南京市,江宁彩虹桥,颗粒物(PM10),51,51,33,18,19,148,148,132,132,12,19,4,4,0.7,0.6
2026-04-30T1700,3427A,118.8497,32.3599,南京市,六合雄州,,45,18,37,3,24,141,141,125,125,8,20,6,4,0.4,0.5
2026-04-30T1700,4086A,118.7641,32.0841,南京市,新模范马路66号,,48,46,41,6,23,152,152,134,134,6,20,5,4,0.5,0.5
2026-04-30T1700,4249A,118.8707617,31.34017673,南京市,汶溪路181号,,43,32,28,3,16,135,135,118,118,11,16,5,5,0.2,0.3
2026-04-30T1700,4312A,119.019,31.6512,南京市,中山西路1号,,42,31,32,11,24,134,134,110,110,11,21,4,4,0.6,0.6
2026-04-30T1700,1401A,108.3098,22.788,南宁市,二十一中,,38,28,14,14,8,121,121,113,113,8,9,4,4,0.2,0.3
2026-04-30T1700,1402A,108.3135,22.8529,南宁市,北湖,,39,29,17,17,12,124,124,115,115,11,14,7,12,0.4,0.4
2026-04-30T1700,1403A,108.3205,22.8222,南宁市,市监测站,,38,30,18,15,9,120,120,111,111,11,11,6,8,0.4,0.4
2026-04-30T1700,1404A,108.3828,22.8038,南宁市,大自然花园,,39,25,16,12,6,123,123,115,115,12,12,5,6,0.3,0.3
2026-04-30T1700,1406A,108.2397,22.8462,南宁市,区农职院,,37,NA,20,17,11,116,116,102,102,4,8,4,4,0.6,0.2
2026-04-30T1700,1407A,108.3285,22.7356,南宁市,英华嘉园,,44,35,17,15,9,140,140,127,127,9,8,6,5,0.4,0.4
2026-04-30T1700,3401A,108.4829,22.762,南宁市,红星社区,,40,20,15,8,8,128,128,114,114,8,7,6,5,0.4,0.4
2026-04-30T1700,4132A,108.2927,23.1477,南宁市,起凤路9号,,37,19,13,13,9,117,117,105,105,5,6,6,7,0.4,0.3
2026-04-30T1700,4221A,108.2177,22.7774,南宁市,乐贤路16号,,40,27,21,13,11,125,125,109,109,10,12,7,10,0.4,0.4
2026-04-30T1700,2332A,118.1682,26.6371,南平市,南平市监测站,,21,8,5,3,2,65,65,63,63,6,6,6,4,0.3,0.3
2026-04-30T1700,2334A,118.1757,26.6276,南平市,南平七中,NA,NA,NA,11,4,3,64,64,61,61,5,7,8,9,0.5,0.5
2026-04-30T1700,1168A,120.9056,31.9669,南通市,狼山街道,,44,37,32,8,19,139,139,125,125,14,20,5,4,0.5,0.5
2026-04-30T1700,1170A,120.8635,32.0231,南通市,城中,,42,42,44,10,26,134,134,125,125,22,19,5,5,0.4,0.5
2026-04-30T1700,1171A,120.9376,31.9301,南通市,星湖花园,,46,36,36,12,25,146,146,127,127,14,20,6,5,0.5,0.6
2026-04-30T1700,1172A,120.8053,32.046,南通市,紫琅学院,,48,30,33,13,24,153,153,138,138,19,25,6,6,0.6,0.7
2026-04-30T1700,3291A,121.0631,32.0644,南通市,通州监测站,,45,29,38,6,21,141,141,124,124,9,17,4,4,0.4,0.5
2026-04-30T1700,3432A,120.9348,31.9874,南通市,环境教育馆,,44,36,33,12,17,139,139,122,122,14,20,5,5,0.5,0.6
2026-04-30T1700,4091A,120.8692,31.9885,南通市,洪江路,,42,31,36,11,24,133,133,120,120,17,20,6,6,0.8,0.9
2026-04-30T1700,2404A,112.5338,33.0086,南阳市,瓦房庄,,44,44,49,19,21,127,127,114,114,11,17,5,6,0.4,0.4
2026-04-30T1700,2405A,112.5002,32.9734,南阳市,汉画馆,,49,49,49,21,21,126,126,110,110,10,17,6,7,0.4,0.4
2026-04-30T1700,2406A,112.5778,33.0144,南阳市,气象站,颗粒物(PM10),55,56,52,18,22,141,141,123,123,8,17,5,7,0.2,0.3
2026-04-30T1700,2407A,112.548,32.9687,南阳市,理工学院,颗粒物(PM10),56,58,53,19,26,138,138,116,116,9,21,7,8,0.3,0.4
2026-04-30T1700,4008A,112.5233,32.9921,南阳市,卧龙区政府,,40,32,45,25,22,128,128,112,112,9,16,7,8,0.4,0.4
2026-04-30T1700,1234A,121.8352,29.9111,宁波市,区环保大楼,,46,34,23,18,12,147,147,137,137,23,17,8,6,0.2,0.2
2026-04-30T1700,1235A,121.5595,29.8208,宁波市,万里学院,,48,32,19,18,15,151,151,134,134,13,12,4,3,0.4,0.4
2026-04-30T1700,1236A,121.713,29.9564,宁波市,龙赛医院,,47,32,26,19,14,148,148,137,137,18,13,6,6,0.3,0.3
2026-04-30T1700,1240A,121.5855,29.8635,宁波市,太古小学,,46,38,25,20,14,145,145,133,133,13,12,3,4,0.4,0.4
2026-04-30T1700,1241A,121.5239,29.8673,宁波市,市环境监测中心,,46,36,22,24,17,146,146,125,125,19,15,7,7,0.5,0.5
2026-04-30T1700,2871A,121.6156,29.9015,宁波市,万里国际学校,,49,30,22,17,17,155,155,135,135,16,15,4,4,0.4,0.4
2026-04-30T1700,3710A,121.5593,29.8976,宁波市,白沙活动中心,,48,24,14,18,14,151,151,132,132,15,14,5,5,0.3,0.2
2026-04-30T1700,4095A,121.8962,29.7529,宁波市,中科路88号,,49,34,18,25,12,154,154,136,136,16,11,7,7,0.4,0.5
2026-04-30T1700,2341A,119.5387,26.6611,宁德市,宁德市监测站,,31,14,9,11,4,99,99,72,72,12,14,9,8,0.4,0.4
2026-04-30T1700,3209A,119.5231,26.6562,宁德市,宁德一中,,29,25,9,10,5,91,91,70,70,13,11,7,7,0.4,0.3
2026-04-30T1700,2618A,98.859,25.8541,怒江傈僳族自治州,州监测站,,25,25,31,15,20,56,56,36,36,8,10,6,5,0.3,0.3
2026-04-30T1700,2619A,98.8607,25.8168,怒江傈僳族自治州,泸水一中,,29,NA,27,20,22,55,55,32,32,12,13,4,4,0.5,0.6
2026-04-30T1700,1888A,101.6891,26.571,攀枝花市,弄弄坪,,30,23,38,14,17,96,96,86,86,8,23,7,15,0.5,0.9
2026-04-30T1700,1889A,101.577,26.5914,攀枝花市,河门口,,37,31,34,20,20,116,116,110,110,11,20,13,23,1.0,1
2026-04-30T1700,1891A,101.7365,26.4986,攀枝花市,仁和,,31,28,24,20,17,98,98,88,88,8,15,4,7,0.4,0.5
2026-04-30T1700,2835A,101.7222,26.567,攀枝花市,四十中小,,32,32,32,17,20,100,100,88,88,7,24,6,26,0.6,0.9
2026-04-30T1700,1604A,122.0303,41.1489,盘锦市,开发区,臭氧1小时(O3_1h),67,46,36,33,38,173,173,150,150,14,18,9,9,0.5,0.5
2026-04-30T1700,1605A,122.0486,41.0883,盘锦市,兴隆台,细颗粒物(PM2.5),82,NA,38,51,53,168,168,142,142,12,25,10,11,0.7,0.6
2026-04-30T1700,1606A,121.8297,41.1026,盘锦市,新生街道,,48,43,33,33,34,152,152,124,124,39,25,10,8,0.7,0.6
2026-04-30T1700,1832A,113.3257,33.7423,平顶山市,新华旅馆,颗粒物(PM10),52,52,62,26,28,133,133,122,122,7,11,4,5,0.4,0.5
2026-04-30T1700,1833A,113.2917,33.737,平顶山市,规划设计院,,50,50,53,19,26,131,131,123,123,10,14,7,8,0.4,0.4
2026-04-30T1700,1834A,113.182,33.7738,平顶山市,平顶山工学院,,43,37,45,21,26,137,137,124,124,7,10,6,6,0.4,0.4
2026-04-30T1700,3594A,112.8736,33.9068,平顶山市,石龙区,,41,41,60,21,31,126,126,113,113,5,12,7,7,0.3,0.4
2026-04-30T1700,4116A,113.284,33.7139,平顶山市,姚电大道23号,,41,41,63,22,29,129,129,125,125,11,18,7,6,0.3,0.5
2026-04-30T1700,2656A,106.6633,35.5338,平凉市,聚贤嘉苑,颗粒物(PM10),56,58,78,16,30,109,109,99,99,8,18,6,7,0.5,0.6
2026-04-30T1700,2657A,106.7021,35.5307,平凉市,博物馆,,50,50,70,18,32,115,115,110,110,6,19,9,10,0.5,0.7
2026-04-30T1700,2348A,113.8384,27.6436,萍乡市,中医院,,40,10,14,7,6,127,127,117,117,7,9,5,6,0.3,0.3
2026-04-30T1700,2350A,113.8677,27.6438,萍乡市,市环保局,,40,23,16,13,11,128,128,122,122,9,14,12,7,0.6,0.6
2026-04-30T1700,2351A,113.8663,27.6202,萍乡市,安源区政府,,44,21,19,6,10,140,140,132,132,12,15,6,6,0.3,0.5
2026-04-30T1700,4107A,113.8686,27.6668,萍乡市,联洪村委会,,40,17,18,8,10,125,125,115,115,5,10,6,6,0.2,0.2
2026-04-30T1700,2319A,119.0142,25.4324,莆田市,荔城区仓后路,,23,22,8,9,2,73,73,76,73,12,8,/,/,/,/
2026-04-30T1700,2320A,119.0016,25.4553,莆田市,莆田市监测站,,30,30,8,9,1,71,71,74,72,16,12,3,3,0.5,0.4
2026-04-30T1700,2321A,119.112,25.4561,莆田市,涵江区六中,,25,24,8,13,2,79,79,80,76,11,10,/,/,0.5,0.4
2026-04-30T1700,2322A,119.1014,25.3215,莆田市,秀屿区政府,,29,14,9,12,4,90,90,86,86,10,8,4,4,0.5,0.5
2026-04-30T1700,2392A,115.0312,35.7636,濮阳市,环保局,颗粒物(PM10),58,60,45,32,22,155,155,131,131,14,18,6,6,0.6,0.5
2026-04-30T1700,3021A,115,35.7667,濮阳市,濮水河管理处,颗粒物(PM10),56,58,49,29,23,161,161,132,132,10,17,6,6,0.7,0.6
2026-04-30T1700,4118A,115.0552,35.7816,濮阳市,中原东路68号,颗粒物(PM10),63,67,53,31,21,168,168,143,143,10,13,6,5,0.6,0.6
2026-04-30T1700,4216A,115.0923632,35.76857718,濮阳市,任丘路479号,颗粒物(PM10),59,62,51,30,24,162,162,137,137,18,19,5,5,0.5,0.6
2026-04-30T1700,2601A,100.9801,22.7634,普洱市,市环保局,,47,47,40,23,18,86,86,87,87,7,9,5,4,0.7,0.7
2026-04-30T1700,2602A,100.9763,22.8237,普洱市,普洱第二中学,,50,50,38,23,21,92,92,91,91,7,13,7,6,0.6,0.9
2026-04-30T1700,3345A,131.0413,45.7795,七台河市,中波台,颗粒物(PM10),68,74,46,22,19,120,120,115,115,8,9,3,4,0.2,0.2
2026-04-30T1700,3637A,131.0136,45.7688,七台河市,人民广场,,36,34,43,11,13,114,114,110,110,11,14,7,11,0.3,0.6
2026-04-30T1700,3684A,130.8639,45.8144,七台河市,新建矿广场,,44,44,54,16,18,111,111,110,110,12,16,7,16,0.4,0.5
2026-04-30T1700,1779A,123.9307,47.3641,齐齐哈尔市,安居小区,颗粒物(PM10),60,63,55,12,9,99,99,92,92,2,6,10,11,0.3,0.3
2026-04-30T1700,1780A,123.9497,47.3389,齐齐哈尔市,中心广场,颗粒物(PM10),72,80,59,8,9,101,101,100,100,1,5,5,9,0.2,0.2
2026-04-30T1700,1781A,123.9483,47.3229,齐齐哈尔市,农牧车辆厂,颗粒物(PM10),63,68,56,10,9,101,101,96,96,6,8,4,5,0.2,0.3
2026-04-30T1700,1783A,123.9442,47.2994,齐齐哈尔市,市环境监测站,颗粒物(PM10),83,96,64,13,10,98,98,94,94,5,7,2,4,0.3,0.3
2026-04-30T1700,3662A,123.6341,47.2079,齐齐哈尔市,富区青少年活动中心,颗粒物(PM10),96,114,66,30,11,99,99,92,92,5,8,3,4,0.3,0.5
2026-04-30T1700,2591A,107.9765,26.5724,黔东南苗族侗族自治州,市环境监测站,,33,17,26,15,15,105,105,87,87,6,9,3,3,0.4,0.4
2026-04-30T1700,2881A,107.8909,26.531,黔东南苗族侗族自治州,凯里学院,,37,27,24,18,16,118,118,100,100,8,8,3,2,0.3,0.3
2026-04-30T1700,2593A,107.5223,26.2371,黔南布依族苗族自治州,小围寨,颗粒物(PM10),70,78,27,13,11,96,96,91,91,16,8,6,6,0.5,0.5
2026-04-30T1700,3538A,107.5175,26.2977,黔南布依族苗族自治州,沙坝,,35,19,20,10,8,110,110,96,96,4,6,3,4,0.4,0.4
2026-04-30T1700,2589A,104.9022,25.0943,黔西南布依族苗族自治州,场坝街,,27,NA,17,15,13,85,85,84,84,2,6,5,8,0.3,0.3
2026-04-30T1700,2590A,104.8812,25.0994,黔西南布依族苗族自治州,坪东大道,,25,13,18,9,12,80,80,84,84,4,9,3,5,0.3,0.3
2026-04-30T1700,2502A,108.6238,21.9667,钦州市,市环保站,,35,29,20,7,6,112,112,104,104,9,7,1,2,0.5,0.5
2026-04-30T1700,2503A,108.655,21.9481,钦州市,沙埠小学,,40,40,22,15,9,114,114,104,104,7,8,2,2,0.4,0.3
2026-04-30T1700,2504A,108.5989,21.7435,钦州市,港区一小,,36,25,21,12,12,115,115,102,102,12,15,5,4,0.5,0.5
2026-04-30T1700,3404A,108.5959,21.9634,钦州市,北职校,,37,13,16,7,8,117,117,106,106,6,7,2,2,0.4,0.4
2026-04-30T1700,1046A,119.5247,39.9346,秦皇岛市,建设大厦,颗粒物(PM10),67,73,58,32,17,155,155,140,140,12,20,9,13,0.5,0.6
2026-04-30T1700,3132A,119.5979,39.938,秦皇岛市,文明里,颗粒物(PM10),83,95,64,30,19,155,155,134,134,22,30,12,15,0.4,0.7
2026-04-30T1700,4066A,119.7458,39.9952,秦皇岛市,南园路157号,颗粒物(PM10),81,93,63,34,24,143,143,118,118,23,45,11,11,0.6,0.6
2026-04-30T1700,4067A,119.5131,39.8858,秦皇岛市,翠岛大街1号,颗粒物(PM10),64,69,47,21,20,158,158,139,139,17,29,11,15,0.5,0.7
2026-04-30T1700,4198A,119.509013,39.825305,秦皇岛市,北戴河轮滑馆,NA,NA,NA,56,NA,17,165,165,135,135,NA,27,NA,14,0.5,0.6
2026-04-30T1700,1310A,120.404,36.0625,青岛市,市南区东部子站,细颗粒物(PM2.5),60,61,48,40,33,136,136,109,109,25,27,8,8,0.5,0.6
2026-04-30T1700,1311A,120.362344,36.10282,青岛市,四方区子站,臭氧1小时(O3_1h),57,51,46,26,27,165,165,149,149,16,26,8,8,0.7,0.7
2026-04-30T1700,1312A,120.294373,36.054183,青岛市,市南区西部子站,颗粒物(PM10),62,66,52,30,27,148,148,115,115,33,45,5,6,0.4,0.5
2026-04-30T1700,1313A,120.4581,36.0858,青岛市,崂山区子站,颗粒物(PM10),62,66,44,26,26,158,158,124,124,11,18,11,10,0.3,0.4
2026-04-30T1700,1315A,120.3945,36.3083,青岛市,城阳区子站,颗粒物(PM10),65,70,43,31,20,157,157,136,136,21,23,9,8,0.7,0.7
2026-04-30T1700,3642A,120.3454,36.0735,青岛市,市北区南部,颗粒物(PM10),61,65,43,27,23,157,157,137,137,14,20,6,6,0.7,0.7
2026-04-30T1700,3643A,120.3897,36.18,青岛市,李沧区北部,颗粒物(PM10),58,61,40,27,21,152,152,137,137,17,24,10,10,0.5,0.5
2026-04-30T1700,4110A,120.5222,36.4089,青岛市,盟旺路653号,,49,34,36,17,19,155,155,138,138,9,17,4,5,0.6,0.7
2026-04-30T1700,4290A,120.196923,35.954556,青岛市,珠江路669号,颗粒物(PM10),62,66,57,28,28,154,154,117,117,26,28,6,8,0.6,0.7
2026-04-30T1700,4291A,120.0424,35.8656,青岛市,黄岛区人民政府广场,颗粒物(PM10),53,53,48,20,22,149,149,127,127,19,24,10,11,0.6,0.7
2026-04-30T1700,1703A,113.0218,23.7086,清远市,凤城街办,,26,12,7,8,4,82,82,73,73,11,12,/,/,/,/
2026-04-30T1700,3025A,113.0479,23.6343,清远市,技师学院,,28,15,9,7,5,88,88,81,81,12,14,4,6,0.5,0.5
2026-04-30T1700,3318A,112.9898,23.7403,清远市,清新太和,,29,14,5,14,3,92,92,84,84,9,9,8,8,0.4,0.4
2026-04-30T1700,3455A,113.076,23.72,清远市,清城东城,,27,9,8,3,3,85,85,80,80,10,12,/,/,/,/
2026-04-30T1700,2661A,107.6325,35.7357,庆阳市,庆阳五中,,50,50,63,13,26,111,111,100,100,11,13,3,3,0.3,0.4
2026-04-30T1700,2662A,107.6361,35.7067,庆阳市,市环保局,,44,44,58,14,23,125,125,114,114,11,14,5,6,0.4,0.4
2026-04-30T1700,1916A,103.7897,25.5036,曲靖市,环境监测站,,37,37,38,20,27,112,112,94,94,8,12,4,5,0.4,0.5
2026-04-30T1700,1917A,103.8013,25.5357,曲靖市,烟厂办公区,NA,NA,28,37,10,24,112,112,93,93,NA,9,4,9,NA,0.6
2026-04-30T1700,3376A,103.7926,25.4651,曲靖市,南苑二区,,34,24,32,16,26,106,106,90,90,8,12,4,4,0.4,0.4
2026-04-30T1700,3377A,103.7442,25.5259,曲靖市,曲靖师范学院,,33,24,36,21,26,105,105,96,96,11,12,4,3,0.4,0.4
2026-04-30T1700,1264A,118.8694,28.94,衢州市,环保大楼,,37,6,12,3,10,116,116,105,105,10,14,/,/,/,/
2026-04-30T1700,1266A,118.8622,28.9809,衢州市,衢州学院,NA,NA,4,10,NA,10,107,107,94,94,7,11,7,6,0.3,0.4
2026-04-30T1700,4097A,118.9646,28.9832,衢州市,衢州三中,,35,6,13,3,11,111,111,103,103,12,14,8,7,0.3,0.2
2026-04-30T1700,1611A,118.5818,24.9116,泉州市,涂山街,,22,19,8,15,6,64,64,63,63,17,12,3,3,0.4,0.4
2026-04-30T1700,1612A,118.597,24.8976,泉州市,津头埔,,24,18,10,15,9,74,74,71,71,17,13,3,3,0.4,0.4
2026-04-30T1700,1613A,118.6669,24.9422,泉州市,万安,,25,17,10,17,7,65,65,64,64,15,13,3,3,0.5,0.5
2026-04-30T1700,4105A,118.6355,24.9148,泉州市,霞新路6号,,23,18,10,16,7,64,64,63,63,10,9,/,/,0.4,0.5
2026-04-30T1700,2626A,88.8873,29.2723,日喀则市,日喀则监测站,,37,7,10,3,6,116,116,108,108,7,8,7,8,0.5,0.5
2026-04-30T1700,3726A,88.8775,29.2425,日喀则市,林业技术推广中心,NA,NA,6,11,3,3,119,119,112,112,6,7,NA,7,0.5,0.4
2026-04-30T1700,1659A,119.4711,35.421,日照市,监测站,颗粒物(PM10),53,53,40,22,25,146,146,144,144,17,39,8,9,0.5,0.7
2026-04-30T1700,1660A,119.523,35.4216,日照市,市政府广场,颗粒物(PM10),51,51,46,21,24,144,144,141,141,18,30,6,9,0.6,0.7
2026-04-30T1700,1661A,119.5511,35.4113,日照市,港务局,颗粒物(PM10),68,75,61,29,27,146,146,146,146,23,38,5,9,0.6,0.7
2026-04-30T1700,3507A,119.5326,35.4627,日照市,职业技术学院,颗粒物(PM10),65,70,53,21,25,152,152,145,145,20,36,8,9,0.5,0.7
2026-04-30T1700,3604A,119.3267,35.1043,日照市,岚山环保分局,颗粒物(PM10),63,68,57,19,25,139,139,141,141,22,36,13,14,0.6,1
2026-04-30T1700,1835A,111.1922,34.7752,三门峡市,市政府,,42,31,48,7,26,132,132,123,123,10,15,9,10,0.4,0.5
2026-04-30T1700,1836A,111.1588,34.794,三门峡市,开发区,,42,24,56,13,28,134,134,121,121,12,14,8,10,0.4,0.5
2026-04-30T1700,3039A,111.1911,34.7829,三门峡市,三门峡市第一小学,,48,48,53,10,29,132,132,122,122,12,13,5,9,0.3,0.4
2026-04-30T1700,3598A,111.1031,34.719,三门峡市,富达温泉假日酒店,NA,NA,34,52,12,23,145,145,127,127,NA,14,8,12,NA,0.3
2026-04-30T1700,2324A,117.621,26.2626,三明市,三钢,,22,NA,8,6,5,69,69,64,63,5,7,4,5,0.3,0.5
2026-04-30T1700,2325A,117.6352,26.2714,三明市,三明二中,,21,6,12,3,3,65,65,61,60,5,6,3,3,0.4,0.4
2026-04-30T1700,2326A,117.6028,26.2377,三明市,三元区政府,,21,NA,8,3,4,66,66,61,59,6,8,4,4,0.4,0.5
2026-04-30T1700,1877A,109.4962,18.2682,三亚市,河西子站,,33,19,25,12,17,103,103,83,83,9,6,4,3,0.5,0.5
2026-04-30T1700,3540A,109.7348,18.3443,三亚市,君悦子站,,35,31,23,11,4,111,111,94,94,5,8,3,3,0.5,0.5
2026-04-30T1700,4135A,109.1714,18.3739,三亚市,城东小学站,,33,33,29,12,20,85,85,83,83,19,10,/,/,/,/
2026-04-30T1700,2624A,91.7592,29.234,山南市,山南监测站,,32,10,11,3,2,100,100,94,94,4,4,6,6,0.3,0.2
2026-04-30T1700,2625A,91.7701,29.2436,山南市,山南人民医院,,32,14,14,3,3,102,102,95,95,5,4,6,8,0.4,0.3
2026-04-30T1700,1674A,116.6795,23.3666,汕头市,金平子站,,30,30,17,12,8,68,68,62,62,19,14,7,7,0.6,0.6
2026-04-30T1700,1675A,116.7248,23.3632,汕头市,龙湖子站,,20,20,12,8,7,63,63,63,63,11,9,6,7,/,/
2026-04-30T1700,1676A,116.7257,23.2774,汕头市,濠江子站,,31,31,17,10,8,57,57,56,56,18,14,8,8,/,/
2026-04-30T1700,1677A,116.7518,23.4712,汕头市,澄海子站,,23,23,11,8,5,59,59,60,60,13,11,7,7,0.6,0.6
2026-04-30T1700,1678A,116.6088,23.2539,汕头市,潮阳子站,,50,50,17,15,9,61,61,60,60,15,9,9,7,0.7,0.6
2026-04-30T1700,3444A,116.4539,23.2684,汕头市,潮南峡山,,22,18,8,10,4,70,70,63,63,15,9,6,7,0.7,0.7
2026-04-30T1700,3624A,116.4069,23.2533,汕头市,潮南子站,,20,19,10,8,4,62,62,56,55,17,13,6,6,/,/
2026-04-30T1700,1693A,115.3653,22.7751,汕尾市,市环保局,,20,18,10,7,5,64,64,65,63,10,7,5,5,0.5,0.4
2026-04-30T1700,1695A,115.362,22.7926,汕尾市,新城中学,,18,12,9,7,5,56,56,67,62,12,6,6,6,0.5,0.5
2026-04-30T1700,2645A,109.9155,33.8714,商洛市,监测站,,34,25,33,13,15,106,106,110,110,4,12,5,11,0.4,0.5
2026-04-30T1700,3045A,109.9647,33.8486,商洛市,商州区中学,颗粒物(PM10),52,52,41,11,15,107,107,112,112,5,13,5,16,0.5,0.5
2026-04-30T1700,2408A,115.6701,34.4283,商丘市,环境监测站,颗粒物(PM10),80,92,61,23,27,138,138,124,124,4,7,3,2,0.3,0.3
2026-04-30T1700,2409A,115.6458,34.4047,商丘市,粮食局,颗粒物(PM10),60,64,54,24,26,134,134,120,120,9,13,3,3,0.3,0.3
2026-04-30T1700,3171A,115.6069,34.4465,商丘市,梁园区档案局,颗粒物(PM10),55,57,58,18,25,134,134,121,121,5,10,4,5,0.3,0.3
2026-04-30T1700,4119A,115.6701,34.3767,商丘市,北海东路185号,,43,42,55,20,27,136,136,123,123,4,11,5,5,0.4,0.4
2026-04-30T1700,4120A,115.6172,34.3704,商丘市,中山大街3号,,46,46,51,21,27,130,130,118,118,5,12,5,5,0.3,0.3
2026-04-30T1700,1141A,121.401,31.2382,上海市,普陀,,50,28,35,13,26,159,159,134,134,16,27,7,6,0.5,0.5
2026-04-30T1700,1142A,121.4774,31.2043,上海市,十五厂,,50,28,32,18,26,158,158,130,130,14,20,7,7,0.6,0.7
2026-04-30T1700,1143A,121.4673,31.3011,上海市,虹口,,46,30,29,22,25,146,146,118,118,19,29,5,5,0.5,0.5
2026-04-30T1700,1147A,121.4253,31.226,上海市,静安监测站,,50,24,29,17,24,159,159,134,134,21,30,9,9,0.6,0.7
2026-04-30T1700,1148A,121.7029,31.1905,上海市,浦东川沙,,44,30,29,20,24,139,139,127,127,24,24,8,8,0.5,0.6
2026-04-30T1700,1149A,121.5339,31.229,上海市,浦东新区监测站,,42,27,29,20,26,132,132,116,116,20,27,7,7,0.5,0.5
2026-04-30T1700,1150A,121.5776,31.2038,上海市,浦东张江,,45,26,30,19,25,141,141,126,126,19,29,8,7,0.2,0.3
2026-04-30T1700,3265A,121.4242,31.3303,上海市,宝山庙行,,48,30,31,19,26,152,152,128,128,17,29,8,7,0.3,0.3
2026-04-30T1700,3266A,121.8789,31.4662,上海市,崇明上实东滩,,41,10,20,8,16,129,129,126,126,7,9,8,8,0.2,0.3
2026-04-30T1700,3268A,121.316,31.2839,上海市,嘉定南翔,,49,22,30,16,25,154,154,129,129,10,24,6,6,0.5,0.5
2026-04-30T1700,3269A,121.3357,30.7455,上海市,金山新城,,50,30,30,23,26,158,158,130,130,16,18,4,4,0.5,0.4
2026-04-30T1700,3270A,121.4996,31.0741,上海市,闵行浦江,,50,35,37,23,30,157,157,129,129,24,29,7,6,0.4,0.4
2026-04-30T1700,3271A,121.2886,31.1663,上海市,青浦徐泾,臭氧1小时(O3_1h),64,38,32,28,29,171,171,139,139,15,29,6,5,0.6,0.5
2026-04-30T1700,3272A,121.2193,31.0382,上海市,松江图书馆,臭氧1小时(O3_1h),59,40,38,27,32,167,167,134,134,14,19,8,8,0.4,0.4
2026-04-30T1700,3273A,121.3904,31.206,上海市,长宁仙霞,,45,30,34,20,31,143,143,124,124,24,28,8,7,0.4,0.4
2026-04-30T1700,3274A,121.7964,31.0507,上海市,浦东惠南,,45,33,25,23,23,142,142,128,128,24,26,7,7,0.5,0.5
2026-04-30T1700,3544A,121.4891,30.925,上海市,奉贤南桥新城,臭氧1小时(O3_1h),54,42,34,22,32,163,163,131,131,24,27,4,3,0.5,0.4
2026-04-30T1700,4183A,121.417401,31.16637,上海市,冠生园路458号,,46,31,29,22,28,145,145,115,115,20,24,5,4,0.6,0.6
2026-04-30T1700,4205A,121.541914,31.268301,上海市,宁武路151号,,46,26,28,22,25,145,145,127,127,20,26,8,7,0.4,0.4
2026-04-30T1700,2382A,117.9758,28.4439,上饶市,市监测站,,34,20,15,3,5,108,108,94,94,2,6,4,5,/,/
