timepoint,stationcode,longitude,latitude,area,positionname,primarypollutant,aqi,pm10,pm10_24h,pm2_5,pm2_5_24h,o3,o3_24h,o3_8h,o3_8h_24h,no2,no2_24h,so2,so2_24h,co,co_24h
2025-05-16T1300,2566A,102.1879,31.914,阿坝藏族羌族自治州,州农科所,颗粒物(PM10),60,70,21,18,7,51,,30,30,9,8,11,11,0.7,0.7
2025-05-16T1300,2568A,102.2502,31.8896,阿坝藏族羌族自治州,马师校,,18,,18,12,19,39,,12,12,10,10,5,5,0.5,0.5
2025-05-16T1300,3994A,102.2165,31.9024,阿坝藏族羌族自治州,马尔康中学西区,,23,23,19,16,14,42,,16,16,8,8,4,4,0.3,0.3
2025-05-16T1300,2695A,80.292,41.1694,阿克苏地区,电视台,颗粒物(PM10),71,91,135,29,49,103,,95,95,17,32,4,6,0.6,0.6
2025-05-16T1300,2696A,80.2613,41.1551,阿克苏地区,艺术中心,,,61,154,10,49,103,,90,90,,24,3,4,0.2,0.3
2025-05-16T1300,2204A,105.6467,38.8363,阿拉善盟,西城区西花园,颗粒物(PM10),136,221,62,71,27,115,,112,110,6,9,6,8,0.6,0.6
2025-05-16T1300,2205A,105.6985,38.8411,阿拉善盟,蒙二幼,颗粒物(PM10),120,190,56,62,18,96,,96,93,5,8,8,12,0.4,0.4
2025-05-16T1300,2206A,105.724,38.8516,阿拉善盟,环保局新楼,颗粒物(PM10),126,201,52,85,26,104,,112,105,3,4,8,10,0.4,0.4
2025-05-16T1300,2708A,88.1264,47.8517,阿勒泰地区,市站,,29,23,23,3,5,91,,77,69,8,5,2,2,0.1,0.2
2025-05-16T1300,2630A,80.1161,32.5,阿里地区,阿里监测站,,47,9,7,9,5,150,,146,138,5,5,6,7,0.4,0.4
2025-05-16T1300,3192A,80.0903,32.5028,阿里地区,阿里藏医院,臭氧1小时,53,11,33,6,8,162,,141,141,1,7,5,6,0.4,0.4
2025-05-16T1300,2642A,109.0318,32.6537,安康市,香溪洞,颗粒物(PM10),52,54,53,34,34,129,,86,86,5,8,9,9,0.8,0.8
2025-05-16T1300,2644A,109.0072,32.6975,安康市,汉滨区检察院,颗粒物(PM10),53,55,63,35,32,132,,76,76,8,11,11,10,0.6,0.6
2025-05-16T1300,4054A,109.0325,32.6913,安康市,市邮政管理局,颗粒物(PM10),52,54,66,33,36,113,,69,69,8,12,8,9,0.5,0.6
2025-05-16T1300,2291A,117.0809,30.5177,安庆市,环科院,,35,15,26,10,20,109,,92,92,14,8,2,1,0.8,0.8
2025-05-16T1300,2292A,117.0331,30.5119,安庆市,马山宾馆,,34,19,26,12,24,108,,93,86,17,12,3,4,0.9,0.9
2025-05-16T1300,2294A,116.9896,30.6145,安庆市,安庆大学,,38,12,24,12,25,121,,99,99,9,10,4,3,0.5,0.5
2025-05-16T1300,3173A,117.0598,30.5351,安庆市,市人大,,42,18,25,8,22,133,,109,109,5,11,6,7,0.6,0.6
2025-05-16T1300,3123A,105.9408,26.2431,安顺市,凤凰山,细颗粒物(PM2.5),84,66,63,62,61,80,,63,59,9,11,8,16,0.7,0.7
2025-05-16T1300,3124A,105.9439,26.2564,安顺市,金钟山,细颗粒物(PM2.5),85,68,64,63,62,76,,61,58,8,10,5,10,0.6,0.4
2025-05-16T1300,3125A,105.8983,26.2481,安顺市,娄家坡,细颗粒物(PM2.5),75,57,61,55,60,80,,64,61,8,9,9,14,0.7,0.6
2025-05-16T1300,1819A,114.3551,36.1017,安阳市,红庙街,臭氧1小时,108,124,66,58,27,215,,118,118,2,9,7,4,0.6,0.5
2025-05-16T1300,1820A,114.361,36.0681,安阳市,银杏小区,臭氧1小时,104,131,64,72,40,207,,112,112,2,13,7,4,0.6,0.4
2025-05-16T1300,3141A,114.3922,36.0878,安阳市,信访局,臭氧1小时,105,143,74,57,26,210,,119,119,8,14,6,4,0.7,0.5
2025-05-16T1300,3669A,114.4705,36.0637,安阳市,左辅环卫站,颗粒物(PM10),86,122,73,55,39,183,,112,112,14,22,7,5,0.6,0.4
2025-05-16T1300,3703A,114.2917,36.0949,安阳市,安钢职工学校,臭氧1小时,106,117,64,62,22,212,,114,114,9,12,8,8,0.6,0.4
2025-05-16T1300,1748A,123.044,41.1196,鞍山市,深沟寺,,39,14,27,3,15,122,,112,105,7,13,5,7,0.4,0.6
2025-05-16T1300,1749A,123.011,41.0931,鞍山市,太阳城,,38,6,19,3,11,119,,107,104,7,14,6,9,0.3,0.6
2025-05-16T1300,1750A,123.0485,41.1442,鞍山市,太平,,37,6,26,3,15,116,,106,98,9,16,9,9,0.5,0.6
2025-05-16T1300,1751A,122.9642,41.0971,鞍山市,铁西三道街,,37,28,35,7,15,116,,97,95,12,22,4,6,0.5,0.8
2025-05-16T1300,1753A,123.022,41.0821,鞍山市,明达新区,,36,10,23,3,12,115,,108,102,5,10,5,8,0.3,0.5
2025-05-16T1300,4201A,122.9446,41.0826,鞍山市,兴盛南路290号,,36,20,32,6,15,113,,94,92,9,20,6,10,0.5,0.7
2025-05-16T1300,2195A,107.4212,40.761,巴彦淖尔市,附二中,颗粒物(PM10),78,106,104,20,29,103,,91,91,6,11,4,3,0.4,0.4
2025-05-16T1300,2196A,107.37,40.7372,巴彦淖尔市,市环保大楼,颗粒物(PM10),81,111,93,18,29,110,,95,95,10,18,5,4,0.2,0.2
2025-05-16T1300,1956A,86.1472,41.7538,巴音郭楞蒙古自治州,孔雀公园,,36,36,106,15,31,98,,81,81,20,32,8,8,0.2,0.3
2025-05-16T1300,1957A,86.1972,41.7166,巴音郭楞蒙古自治州,棉纺厂,,,55,136,8,28,112,,92,92,,18,4,4,0.2,0.2
2025-05-16T1300,1958A,86.2357,41.7173,巴音郭楞蒙古自治州,经济开发区,,35,22,100,3,22,110,,97,97,3,8,8,8,0.2,0.2
2025-05-16T1300,2914A,106.7677,31.8794,巴中市,苏山坪,,48,48,76,32,49,140,,104,103,8,10,5,5,0.5,0.5
2025-05-16T1300,3181A,106.7768,31.8526,巴中市,市五中,,45,45,87,26,59,142,,75,75,5,14,6,7,0.5,0.7
2025-05-16T1300,3183A,106.7418,31.8654,巴中市,圣泉水务公司,细颗粒物(PM2.5),54,53,73,38,50,145,,81,81,7,20,8,8,0.6,0.7
2025-05-16T1300,3616A,106.7616,31.8344,巴中市,市中心医院,细颗粒物(PM2.5),79,,91,58,59,141,,69,69,5,19,5,5,0.5,0.8
2025-05-16T1300,2235A,122.7911,45.6077,白城市,洮北区环保局,细颗粒物(PM2.5),74,,41,54,24,78,,78,78,14,10,3,2,0.5,0.3
2025-05-16T1300,2236A,122.8738,45.5725,白城市,市环保局,细颗粒物(PM2.5),72,61,38,52,27,78,,77,77,9,5,4,2,0.6,0.4
2025-05-16T1300,2231A,126.4219,41.9171,白山市,喜丰,,37,6,31,3,10,118,,80,80,9,21,11,8,0.5,0.5
2025-05-16T1300,2232A,126.4077,41.9419,白山市,环保局,,37,12,28,3,8,116,,80,80,7,16,10,11,0.5,0.5
2025-05-16T1300,2647A,104.1724,36.5446,白银市,第三小学,,46,46,42,16,16,130,,78,78,3,16,16,34,0.3,0.6
2025-05-16T1300,2648A,104.1465,36.5482,白银市,动力公司,颗粒物(PM10),54,57,37,17,16,123,,83,83,8,14,18,23,0.3,0.5
2025-05-16T1300,2512A,106.6103,23.9011,百色市,市监测站,,32,32,29,17,19,87,,41,41,7,10,4,5,0.7,0.7
2025-05-16T1300,2513A,106.6538,23.8859,百色市,市中心血站,,44,44,32,24,23,88,,40,40,10,14,10,6,0.6,0.6
2025-05-16T1300,3406A,106.6085,23.8798,百色市,祈福高中,,35,35,31,18,23,81,,44,44,6,10,5,6,0.5,0.6
2025-05-16T1300,2270A,117.396,32.939,蚌埠市,工人疗养院,臭氧1小时,69,44,107,27,69,175,,112,112,6,21,4,5,0.4,0.7
2025-05-16T1300,2271A,117.3605,32.9427,蚌埠市,百货大楼,臭氧1小时,63,44,99,31,67,170,,114,114,11,25,6,6,0.4,0.6
2025-05-16T1300,2273A,117.4185,32.8911,蚌埠市,蚌埠学院,,,,79,,78,162,,119,119,5,22,3,4,0.4,0.6
2025-05-16T1300,2274A,117.3533,32.9673,蚌埠市,淮上区政府,臭氧1小时,69,39,92,37,70,175,,114,114,9,23,5,5,0.6,0.8
2025-05-16T1300,2275A,117.3145,32.8977,蚌埠市,高新区,臭氧1小时,53,27,90,26,74,162,,115,115,8,24,4,5,0.5,0.8
2025-05-16T1300,3715A,117.3092,32.9314,蚌埠市,蚌埠田家炳中学,臭氧1小时,64,40,106,31,61,171,,118,118,5,15,5,5,0.5,0.6
2025-05-16T1300,1585A,109.8756,40.6532,包头市,市环境监测站,颗粒物(PM10),115,179,71,66,29,105,,70,70,4,25,7,15,0.3,0.7
2025-05-16T1300,1587A,109.9991,40.5842,包头市,包头八中,颗粒物(PM10),115,179,78,35,31,104,,77,77,8,24,9,13,0.5,0.6
2025-05-16T1300,1588A,109.8538,40.6821,包头市,青山宾馆,颗粒物(PM10),117,183,75,38,31,104,,67,67,4,35,7,13,0.3,0.7
2025-05-16T1300,1589A,109.8642,40.6288,包头市,惠龙物流,颗粒物(PM10),109,168,65,45,24,107,,74,74,6,19,7,15,0.2,0.5
2025-05-16T1300,1590A,110.0377,40.5546,包头市,东河鸿龙湾,颗粒物(PM10),123,196,68,26,18,100,,68,68,5,20,6,9,0.4,0.4
2025-05-16T1300,3283A,109.9154,40.5685,包头市,滨河大厦,颗粒物(PM10),114,177,66,31,19,106,,72,72,2,17,7,8,0.4,0.5
2025-05-16T1300,3419A,109.9447,40.6261,包头市,包头市委党校,颗粒物(PM10),124,198,76,32,23,102,,75,75,2,14,7,11,0.3,0.5
2025-05-16T1300,3683A,109.8331,40.6576,包头市,昆区政府,颗粒物(PM10),104,158,72,36,29,103,,70,70,6,25,5,15,0.3,0.8
2025-05-16T1300,1930A,107.185,34.3063,宝鸡市,庙沟村,颗粒物(PM10),55,59,62,38,36,132,,125,125,7,13,8,8,0.4,0.5
2025-05-16T1300,1931A,107.0708,34.3017,宝鸡市,竹园沟,颗粒物(PM10),57,64,67,20,29,122,,84,84,4,15,4,4,0.3,0.4
2025-05-16T1300,1932A,107.1906,34.3672,宝鸡市,三陆医院,颗粒物(PM10),61,72,83,42,38,114,,66,66,10,37,6,11,0.5,0.5
2025-05-16T1300,1933A,107.1431,34.3547,宝鸡市,监测站,颗粒物(PM10),56,61,81,30,34,110,,77,77,7,25,5,6,0.3,0.4
2025-05-16T1300,1934A,107.1186,34.3739,宝鸡市,技工学校,颗粒物(PM10),95,140,88,22,37,117,,85,85,3,15,5,6,0.6,0.6
2025-05-16T1300,1935A,107.3906,34.3528,宝鸡市,陈仓区环保局家属楼,颗粒物(PM10),62,73,90,26,45,138,,86,86,8,30,4,11,0.4,0.5
2025-05-16T1300,1936A,107.2058,34.3497,宝鸡市,文理学院,颗粒物(PM10),53,56,75,23,32,120,,85,85,7,20,7,8,0.4,0.4
2025-05-16T1300,1937A,107.2386,34.3622,宝鸡市,三迪小学,颗粒物(PM10),64,78,83,26,37,120,,77,77,9,28,6,8,0.3,0.4
2025-05-16T1300,1051A,115.493,38.8632,保定市,游泳馆,臭氧1小时,77,84,72,41,33,181,,103,103,15,24,8,4,0.4,0.2
2025-05-16T1300,1052A,115.5213,38.8959,保定市,华电二区,臭氧1小时,89,60,53,22,26,191,,103,103,10,22,6,4,0.5,0.4
2025-05-16T1300,1053A,115.4713,38.9108,保定市,接待中心,臭氧1小时,80,60,54,38,28,184,,93,93,11,24,7,4,0.4,0.3
2025-05-16T1300,1054A,115.4612,38.8416,保定市,地表水厂,臭氧1小时,78,79,63,38,24,182,,100,100,15,26,6,3,0.4,0.3
2025-05-16T1300,3581A,115.31981,38.95208,保定市,满城区生态环境分局,臭氧1小时,80,78,65,41,28,184,,103,103,11,22,8,5,0.4,0.4
2025-05-16T1300,3582A,115.47694,38.76408,保定市,清苑区第二中学,臭氧1小时,89,85,67,43,32,191,,117,117,9,19,7,4,0.4,0.3
2025-05-16T1300,3583A,115.62909,39.02311,保定市,徐水物探局,臭氧1小时,84,82,65,51,25,187,,91,91,11,18,8,4,0.7,0.6
2025-05-16T1300,4004A,115.4202,38.8656,保定市,双鹰农机,臭氧1小时,72,56,48,31,25,177,,96,96,10,19,6,4,0.4,0.3
2025-05-16T1300,4034A,115.5150,38.8590,保定市,植保所站,臭氧1小时,89,68,62,37,28,191,,103,103,10,24,6,5,0.4,0.4
2025-05-16T1300,2594A,99.1678,25.1081,保山市,市环境监测站,,48,45,32,33,26,109,,86,86,5,7,6,6,0.5,0.5
2025-05-16T1300,2595A,99.1711,25.1328,保山市,市环保局,,48,48,37,15,20,118,,97,97,5,5,6,6,0.3,0.3
2025-05-16T1300,1867A,109.1436,21.4086,北海市,海滩公园,,26,15,9,3,2,83,,61,58,4,4,5,5,0.5,0.5
2025-05-16T1300,1868A,109.0981,21.4661,北海市,新市环保局,,21,12,10,7,5,65,,62,55,4,7,2,2,0.4,0.5
2025-05-16T1300,1869A,109.1778,21.5233,北海市,北海工业园,,19,,14,3,7,60,,54,52,5,8,7,7,0.4,0.5
2025-05-16T1300,3400A,109.1911,21.4415,北海市,龙潭自来水厂,,,13,9,,6,73,,59,55,5,6,3,3,0.3,0.3
2025-05-16T1300,1001A,116.3621,39.8784,北京市,万寿西宫,臭氧1小时,108,79,55,64,28,215,,115,115,14,22,9,5,0.8,0.5
2025-05-16T1300,1003A,116.4174,39.9289,北京市,东四,臭氧1小时,104,113,66,73,29,208,,105,105,16,27,8,5,0.8,0.5
2025-05-16T1300,1004A,116.4072,39.8863,北京市,天坛,臭氧1小时,101,103,54,56,25,202,,100,100,14,28,7,4,0.7,0.4
2025-05-16T1300,1005A,116.462,39.9365,北京市,农展馆,臭氧1小时,94,109,60,69,28,195,,88,88,14,30,9,5,0.8,0.6
2025-05-16T1300,1006A,116.3392,39.9295,北京市,官园,臭氧1小时,92,101,57,52,26,193,,107,107,18,22,10,7,0.7,0.4
2025-05-16T1300,1007A,116.2878,39.9611,北京市,海淀万柳,臭氧1小时,97,94,56,58,23,197,,94,94,20,27,11,7,0.7,0.4
2025-05-16T1300,1008A,116.6636,40.135,北京市,顺义新城,细颗粒物(PM2.5),99,108,65,74,33,161,,96,96,19,22,8,6,0.8,0.5
2025-05-16T1300,1009A,116.6275,40.3275,北京市,怀柔镇,细颗粒物(PM2.5),102,120,51,76,27,178,,106,106,20,19,6,5,1.0,0.7
2025-05-16T1300,1010A,116.2296,40.217,北京市,昌平镇,臭氧1小时,88,97,53,43,26,190,,92,92,36,27,8,5,0.7,0.8
2025-05-16T1300,1011A,116.3966,39.9821,北京市,奥体中心,臭氧1小时,84,86,50,44,24,187,,91,91,21,32,8,4,0.6,0.3
2025-05-16T1300,3281A,115.9718,40.4529,北京市,延庆夏都,细颗粒物(PM2.5),75,96,46,55,24,176,,115,115,22,16,8,5,0.7,0.5
2025-05-16T1300,3418A,116.8336,40.4095,北京市,密云新城,细颗粒物(PM2.5),97,109,47,72,24,174,,109,109,14,15,6,4,0.7,0.4
2025-05-16T1300,3672A,116.1541,39.8204,北京市,丰台云岗,臭氧1小时,101,95,63,46,25,201,,105,105,15,24,7,5,0.6,0.2
2025-05-16T1300,3673A,116.6804,39.9081,北京市,通州东关,臭氧1小时,110,122,73,80,35,219,,106,106,8,27,7,4,0.7,0.5
2025-05-16T1300,3674A,115.9577,39.7603,北京市,房山燕山,臭氧1小时,83,82,52,59,25,186,,104,104,17,19,4,2,0.6,0.5
2025-05-16T1300,3675A,116.4672,39.7733,北京市,大兴旧宫,臭氧1小时,95,106,60,54,27,196,,93,93,13,24,2,2,1.0,0.6
2025-05-16T1300,3694A,115.986,40.4563,北京市,延庆石河营,臭氧1小时,72,84,44,47,23,177,,114,114,21,15,5,2,0.7,0.5
2025-05-16T1300,3695A,116.6151,40.3053,北京市,怀柔新城,细颗粒物(PM2.5),104,110,51,78,29,173,,101,101,18,20,5,3,0.9,0.7
2025-05-16T1300,3696A,116.2545,39.8768,北京市,丰台小屯,细颗粒物(PM2.5),95,108,69,71,33,189,,94,94,11,22,7,4,0.6,0.6
2025-05-16T1300,3697A,116.84,40.3844,北京市,密云镇,细颗粒物(PM2.5),93,100,47,69,26,179,,108,108,11,18,8,8,0.7,0.5
2025-05-16T1300,4182A,116.1942,39.9158,北京市,八角北路9号,臭氧1小时,83,114,66,58,26,186,,94,94,16,30,7,4,0.6,0.4
2025-05-16T1300,4194A,117.0790,40.1518,北京市,洳河巡河路,细颗粒物(PM2.5),110,137,61,83,33,191,,127,127,12,11,7,5,0.8,0.5
2025-05-16T1300,1761A,123.8275,41.3064,本溪市,大峪,,39,13,25,3,11,123,,92,92,3,15,5,6,0.5,0.7
2025-05-16T1300,1762A,123.7567,41.3325,本溪市,溪湖,,38,29,30,7,15,119,,105,100,7,14,3,7,0.5,1
2025-05-16T1300,1763A,123.7169,41.3094,本溪市,彩屯,,36,36,38,13,21,115,,94,94,17,30,15,19,1.4,2.1
2025-05-16T1300,1764A,123.7669,41.2864,本溪市,东明,,48,48,39,11,17,121,,112,105,7,12,7,8,0.5,0.6
2025-05-16T1300,1765A,123.7992,41.2664,本溪市,新立屯,,41,41,35,7,13,118,,118,110,7,10,5,5,0.5,0.5
2025-05-16T1300,1766A,123.8142,41.3472,本溪市,威宁,,46,46,40,3,15,115,,93,93,10,20,5,5,0.4,0.5
2025-05-16T1300,2587A,105.2864,27.3125,毕节市,八中,"颗粒物(PM10),细颗粒物(PM2.5)",60,69,71,43,40,71,,48,48,10,10,5,5,0.6,0.5
2025-05-16T1300,2588A,105.31,27.2944,毕节市,师专,颗粒物(PM10),62,74,76,43,41,64,,50,49,15,12,4,4,0.5,0.5
2025-05-16T1300,4263A,105.3688,27.3598,毕节市,工业大道,颗粒物(PM10),58,65,63,36,36,86,,52,52,12,14,6,7,0.6,0.6
2025-05-16T1300,1629A,118.0018,37.3617,滨州市,第二水厂,臭氧1小时,78,70,75,34,40,182,,104,104,12,42,10,9,0.6,0.6
2025-05-16T1300,1630A,117.9776,37.393,滨州市,北中新校,臭氧1小时,93,53,63,34,36,194,,125,125,10,33,15,14,0.7,0.6
2025-05-16T1300,3514A,117.9378,37.3956,滨州市,中海酒店,臭氧1小时,108,58,58,46,44,216,,137,137,9,30,11,10,0.9,0.9
2025-05-16T1300,3515A,117.9378,37.3553,滨州市,开发区一中,臭氧1小时,94,66,69,39,38,195,,108,108,15,44,10,8,0.8,0.8
2025-05-16T1300,3516A,118.0917,37.694,滨州市,金海六路,臭氧1小时,125,76,53,39,31,249,,136,136,17,22,12,9,0.6,0.5
2025-05-16T1300,4028A,117.9956,37.3753,滨州市,滨州市西街道办事处,臭氧1小时,109,56,62,36,44,217,,138,138,11,32,7,9,0.5,0.4
2025-05-16T1300,2311A,115.8072,33.8399,亳州市,污水处理厂,,50,40,84,25,63,159,,109,109,5,11,2,6,0.4,0.7
2025-05-16T1300,2312A,115.7789,33.8518,亳州市,三国揽胜宫,臭氧1小时,62,48,73,28,56,169,,116,116,6,9,4,4,0.4,0.9
2025-05-16T1300,3332A,115.7633,33.8034,亳州市,亳州学院,臭氧1小时,54,29,65,26,60,163,,110,110,5,18,3,2,0.4,0.7
2025-05-16T1300,2693A,82.0485,44.8556,博尔塔拉蒙古自治州,市党校,,34,23,28,12,14,108,,70,70,9,9,10,10,0.4,0.4
2025-05-16T1300,2694A,82.0806,44.8969,博尔塔拉蒙古自治州,市环保局,,39,39,40,12,14,108,,68,68,9,14,9,7,0.3,0.6
2025-05-16T1300,1071A,116.8842,38.2991,沧州市,沧县城建局,细颗粒物(PM2.5),90,88,58,67,31,146,,101,101,11,26,3,3,0.8,0.5
2025-05-16T1300,1072A,116.8584,38.3254,沧州市,电视转播站,细颗粒物(PM2.5),98,94,61,73,43,134,,96,96,12,22,4,7,0.7,0.4
2025-05-16T1300,1073A,116.8709,38.3228,沧州市,市环保局,细颗粒物(PM2.5),105,105,70,79,43,154,,112,112,11,21,3,5,0.7,0.4
2025-05-16T1300,3324A,116.8136,38.3004,沧州市,河北水利电力学院,细颗粒物(PM2.5),102,114,68,76,37,173,,123,123,13,23,5,8,0.7,0.5
2025-05-16T1300,2622A,97.1806,31.1273,昌都市,昌都监测站,,42,,5,6,5,134,,121,121,5,3,3,3,0.3,0.3
2025-05-16T1300,3719A,97.1714,31.1406,昌都市,昌都会议中心,细颗粒物(PM2.5),55,40,8,39,7,130,,119,116,5,3,4,4,0.2,0.2
2025-05-16T1300,2690A,88.1236,43.8886,昌吉回族自治州,天山天池,,30,16,16,9,7,96,,66,66,4,5,7,7,0.4,0.4
2025-05-16T1300,2692A,87.2717,44.0297,昌吉回族自治州,新区政务中心,,49,,30,34,18,123,,66,66,4,12,7,7,0.3,0.3
2025-05-16T1300,3613A,87.3095,44.0142,昌吉回族自治州,亚心广场,颗粒物(PM10),53,56,43,19,17,112,,63,63,7,17,9,8,0.2,0.3
2025-05-16T1300,1119A,125.3325,43.9166,长春市,食品厂,,43,38,41,16,22,136,,89,89,16,21,6,5,0.3,0.4
2025-05-16T1300,1120A,125.2863,43.9027,长春市,客车厂,,46,46,41,15,23,138,,87,87,13,19,6,5,0.3,0.4
2025-05-16T1300,1121A,125.2841,43.8463,长春市,邮电学院,,48,48,43,16,20,144,,94,94,9,14,6,6,0.4,0.5
2025-05-16T1300,1122A,125.3716,43.8772,长春市,劳动公园,,44,36,40,11,18,138,,89,89,5,13,7,6,0.5,0.6
2025-05-16T1300,1123A,125.3297,43.8805,长春市,园林处,,45,26,30,16,15,144,,92,92,7,15,7,7,0.4,0.4
2025-05-16T1300,1124A,125.4605,43.79,长春市,净月潭,,42,21,34,11,16,133,,90,90,3,7,7,6,0.4,0.4
2025-05-16T1300,1126A,125.3863,43.8447,长春市,经开区环卫处,颗粒物(PM10),52,53,52,9,15,132,,90,90,6,13,7,6,0.3,0.4
2025-05-16T1300,1127A,125.245,43.7783,长春市,高新区管委会,,43,28,33,9,17,136,,90,90,6,13,7,7,0.4,0.5
2025-05-16T1300,1128A,125.1761,43.8325,长春市,岱山公园,,43,34,37,22,22,137,,89,89,10,22,5,5,0.3,0.4
2025-05-16T1300,1335A,113.0833,28.2325,长沙市,经开区环保局,,45,33,33,17,36,143,,96,96,12,16,4,4,0.6,0.6
2025-05-16T1300,1336A,112.8872,28.2189,长沙市,高开区环保局,,40,29,29,14,22,127,,95,95,2,6,4,5,0.6,0.6
2025-05-16T1300,1337A,113.0792,28.2053,长沙市,马坡岭,,42,24,33,15,27,133,,93,93,5,12,3,3,0.6,0.7
2025-05-16T1300,1338A,112.9394,28.19,长沙市,湖南师范大学,,44,35,31,17,23,138,,103,103,8,9,2,1,0.4,0.5
2025-05-16T1300,1339A,113.0178,28.1322,长沙市,雨花区环保局,,42,37,31,17,24,133,,98,98,6,9,3,3,1.0,1
2025-05-16T1300,1340A,112.9792,28.2597,长沙市,伍家岭,,41,39,35,20,28,131,,96,96,5,10,2,2,0.6,0.6
2025-05-16T1300,1341A,113.0014,28.1944,长沙市,火车新站,,41,36,31,22,23,130,,99,99,8,10,7,6,0.5,0.7
2025-05-16T1300,1342A,112.9844,28.1178,长沙市,天心区环保局,,43,34,32,15,26,137,,97,97,9,12,2,2,0.4,0.4
2025-05-16T1300,1343A,112.8908,28.1308,长沙市,湖南中医药大学,,40,31,30,13,25,128,,95,95,4,8,2,2,0.5,0.6
2025-05-16T1300,1344A,112.9581,28.3611,长沙市,沙坪,,38,19,50,14,14,121,,85,85,3,6,3,3,0.6,0.6
2025-05-16T1300,1727A,113.1147,36.1547,长治市,清华站,臭氧1小时,52,48,49,14,15,161,,133,133,7,11,6,7,0.5,0.6
2025-05-16T1300,1730A,113.0886,36.2125,长治市,审计局,臭氧1小时,55,49,43,22,21,164,,126,126,9,17,8,10,0.3,0.5
2025-05-16T1300,1731A,113.0844,36.1856,长治市,长治八中,颗粒物(PM10),54,58,54,29,26,155,,123,123,9,16,9,12,0.4,0.6
2025-05-16T1300,2845A,113.1569,36.1911,长治市,德盛苑,颗粒物(PM10),53,56,46,14,19,156,,144,144,6,9,6,7,0.4,0.5
2025-05-16T1300,3568A,113.06,36.0464,长治市,向阳小学,颗粒物(PM10),56,61,67,30,26,150,,134,134,8,11,8,9,0.4,0.5
2025-05-16T1300,3569A,112.8792,36.3144,长治市,屯留一中,,47,39,31,15,19,150,,103,103,5,20,9,10,0.2,0.3
2025-05-16T1300,4189A,113.1131,36.19948,长治市,英华南巷50号,臭氧1小时,67,61,48,27,23,173,,146,146,6,12,6,7,0.5,0.7
2025-05-16T1300,4190A,113.2367,36.3344,长治市,学府街1号,臭氧1小时,77,72,54,17,19,181,,131,131,8,26,4,7,0.4,0.6
2025-05-16T1300,1854A,111.6975,28.9703,常德市,市二中,,36,35,22,19,22,115,,74,74,5,9,5,5,0.1,0.2
2025-05-16T1300,3138A,111.7153,29.0289,常德市,武陵区永安,,39,24,33,13,26,122,,79,79,3,8,7,7,0.4,0.5
2025-05-16T1300,3139A,111.6892,28.9881,常德市,鼎城区玉霞,,39,21,30,14,20,124,,74,74,4,8,4,4,0.5,0.5
2025-05-16T1300,3140A,111.6625,29.0531,常德市,武陵区长庚,,40,25,31,12,21,126,,76,76,4,9,8,8,0.6,0.7
2025-05-16T1300,1196A,119.9633,31.762,常州市,市监测站,,33,27,109,16,54,103,,81,81,8,28,12,15,0.9,1.2
2025-05-16T1300,1200A,119.9468,31.7069,常州市,武进监测站,,40,40,139,18,53,103,,75,75,18,47,6,13,0.6,1.1
2025-05-16T1300,1201A,119.9255,31.9087,常州市,安家,,,28,113,13,58,94,,84,81,14,41,14,13,,0.8
2025-05-16T1300,3002A,119.9805,31.8174,常州市,行政中心,,,20,118,13,53,107,,85,85,12,33,6,14,,0.8
2025-05-16T1300,3003A,120.0522,31.7748,常州市,经开区,,30,30,68,12,51,96,,80,80,22,42,4,6,0.5,0.8
2025-05-16T1300,3010A,119.9025,31.7964,常州市,钟楼,,28,21,110,12,59,87,,74,72,14,35,7,9,0.6,0.8
2025-05-16T1300,3429A,119.8598,31.7066,常州市,武进经发区,,30,21,103,11,45,95,,66,66,13,41,9,11,0.8,1.2
2025-05-16T1300,3430A,119.5826,31.7245,常州市,金坛城区,,37,31,131,17,40,116,,92,92,11,25,8,9,0.6,1
2025-05-16T1300,2220A,120.4318,41.5881,朝阳市,西梁,,40,28,43,3,18,125,,90,90,10,16,6,10,0.2,0.5
2025-05-16T1300,2221A,120.4521,41.5646,朝阳市,河畔小区,,42,38,41,8,22,134,,98,98,7,12,9,13,0.3,0.5
2025-05-16T1300,2222A,120.4176,41.5648,朝阳市,八里堡,颗粒物(PM10),79,107,58,12,18,125,,91,91,12,17,5,11,0.3,0.6
2025-05-16T1300,2223A,120.3806,41.5969,朝阳市,农业园区,,42,42,45,12,20,130,,88,88,9,14,7,9,0.3,0.5
2025-05-16T1300,1705A,116.6367,23.6719,潮州市,西园路,,39,39,30,24,20,110,,70,70,6,10,4,5,0.3,0.3
2025-05-16T1300,3026A,116.6183,23.6608,潮州市,市政府,,37,37,29,13,14,114,,75,75,5,10,4,5,0.6,0.6
2025-05-16T1300,4036A,116.6461,23.6761,潮州市,金山,,37,37,27,21,21,117,,71,71,4,10,7,9,0.7,0.7
2025-05-16T1300,2472A,113.0073,25.9061,郴州市,马头岭,,30,,38,21,20,52,,42,37,9,14,7,8,0.2,0.5
2025-05-16T1300,2473A,113.0116,25.8226,郴州市,市职中,,18,,36,12,33,57,,45,40,7,12,3,3,0.6,0.8
2025-05-16T1300,2475A,113.0383,25.8071,郴州市,市审计局,,19,,36,13,31,59,,52,43,6,9,2,4,0.4,0.7
2025-05-16T1300,2476A,113.0348,25.7759,郴州市,市环保局,,27,27,43,6,39,50,,46,36,7,10,4,6,0.4,0.7
2025-05-16T1300,4252A,113.0138,25.8011,郴州市,好美居路49号,,18,,39,8,26,56,,55,42,8,11,6,7,0.5,0.7
2025-05-16T1300,1431A,103.9728,30.7236,成都市,金泉两河,颗粒物(PM10),60,70,73,24,35,81,,32,32,27,36,8,6,0.4,0.4
2025-05-16T1300,1432A,104.176,30.6872,成都市,十里店,颗粒物(PM10),55,59,74,11,37,95,,60,60,24,25,8,6,0.6,0.7
2025-05-16T1300,1433A,104.079,30.5706,成都市,三瓦窑,颗粒物(PM10),59,67,72,38,37,99,,62,62,25,32,9,9,0.8,0.9
2025-05-16T1300,1434A,104.1114,30.63,成都市,沙河铺,,,,75,,37,73,,43,43,29,29,,8,0.8,0.8
2025-05-16T1300,1437A,104.0786,30.6531,成都市,君平街,颗粒物(PM10),57,64,80,14,42,67,,38,38,29,32,10,12,0.7,0.8
2025-05-16T1300,2880A,104.0239,30.65639,成都市,大石西路,颗粒物(PM10),57,64,79,24,43,81,,45,45,35,40,10,10,0.6,0.7
2025-05-16T1300,3136A,104.2725,30.5589,成都市,龙泉驿区区政府,,44,44,56,19,29,109,,86,86,17,20,5,6,0.5,0.5
2025-05-16T1300,3357A,104.0106,30.6931,成都市,金博路,,50,50,64,18,30,78,,34,34,31,41,13,13,0.5,0.6
2025-05-16T1300,3359A,104.0578,30.5225,成都市,华阳,颗粒物(PM10),54,58,65,34,42,96,,62,62,18,25,8,8,0.6,0.6
2025-05-16T1300,3488A,104.3853,30.7453,成都市,青白江技师分院,,46,46,79,21,40,118,,73,73,21,34,6,7,0.5,0.6
2025-05-16T1300,3489A,104.0789,30.4072,成都市,科学城,,45,45,66,29,39,102,,89,89,14,18,4,6,0.5,0.6
2025-05-16T1300,4011A,103.8506,30.6947,成都市,光华大道三段,细颗粒物(PM2.5),69,86,78,50,47,62,,28,28,29,28,7,6,0.8,0.8
2025-05-16T1300,4224A,104.2433,30.5353,成都市,鲸龙路1057号,,48,48,73,30,37,119,,93,93,13,15,6,7,0.5,0.6
2025-05-16T1300,1062A,117.9531,40.9081,承德市,铁路,臭氧1小时,62,39,43,16,19,169,,129,129,12,21,8,5,0.5,0.4
2025-05-16T1300,1063A,117.9392,40.9763,承德市,中国银行,臭氧1小时,59,56,38,17,17,167,,112,112,6,15,3,3,0.5,0.4
2025-05-16T1300,1064A,117.9503,40.928,承德市,开发区,臭氧1小时,64,45,44,24,24,171,,120,120,10,14,7,4,0.6,0.5
2025-05-16T1300,1065A,117.8051,40.9655,承德市,文化中心,臭氧1小时,60,42,47,15,17,168,,116,116,8,16,3,4,0.4,0.4
2025-05-16T1300,1066A,117.9268,41.0026,承德市,离宫,臭氧1小时,60,45,39,16,31,168,,113,113,6,9,5,3,0.5,0.4
2025-05-16T1300,2314A,117.47,30.6618,池州市,池州学院,,40,16,26,14,21,125,,96,96,4,7,4,4,0.6,0.7
2025-05-16T1300,3237A,117.4918,30.6617,池州市,展览馆,,39,14,25,12,18,124,,97,97,5,7,4,4,0.6,0.7
2025-05-16T1300,3333A,117.5627,30.695,池州市,第八中学,,39,11,24,10,19,123,,94,94,7,7,5,4,0.5,0.6
2025-05-16T1300,3334A,117.5038,30.6243,池州市,第十二中学,,42,13,24,10,21,132,,97,97,4,9,5,5,0.8,0.9
2025-05-16T1300,1744A,118.9233,42.2816,赤峰市,松山一中,臭氧1小时,53,35,30,7,7,162,,85,85,16,24,12,12,0.6,0.6
2025-05-16T1300,1745A,118.9576,42.2728,赤峰市,哈达街,,48,41,29,6,13,153,,80,80,17,24,8,11,0.6,0.5
2025-05-16T1300,1746A,118.8788,42.2554,赤峰市,天义路,,49,33,20,21,14,155,,78,78,14,23,10,15,0.5,0.5
2025-05-16T1300,3058A,119.2658,42.0353,赤峰市,银河街,,,,46,24,19,149,,92,92,10,12,17,19,0.7,0.6
2025-05-16T1300,3286A,118.9359,42.3147,赤峰市,桥北物流园区,颗粒物(PM10),73,95,30,36,18,143,,89,89,10,14,13,12,0.7,0.7
2025-05-16T1300,2521A,107.3476,22.4136,崇左市,市环保局江州分局,,38,38,30,23,15,62,,28,28,5,8,6,6,0.4,0.5
2025-05-16T1300,4256A,107.3750,22.3736,崇左市,石景林东路7号,,42,42,21,22,13,68,,33,33,6,9,3,3,0.5,0.5
2025-05-16T1300,2298A,118.3093,32.3153,滁州市,老年大学,颗粒物(PM10),51,52,53,26,41,148,,135,135,4,15,2,3,0.3,0.5
2025-05-16T1300,2299A,118.3244,32.2786,滁州市,人大宾馆,,41,17,47,14,50,131,,114,114,7,19,8,8,0.3,0.5
2025-05-16T1300,3207A,118.3118,32.3038,滁州市,市政府原办公楼,,47,,44,22,49,149,,132,132,3,13,3,4,0.4,0.6
2025-05-16T1300,3331A,118.3267,32.2634,滁州市,图书馆,,40,,44,19,41,128,,119,119,4,11,7,8,0.4,0.5
2025-05-16T1300,2605A,101.5482,25.0441,楚雄彝族自治州,州环境监测站,,36,24,23,15,18,114,,87,87,6,12,7,7,0.4,0.4
2025-05-16T1300,2606A,101.538,25.0492,楚雄彝族自治州,市经济开发区,,36,,26,12,16,115,,83,83,5,13,7,7,0.5,0.5
2025-05-16T1300,2548A,107.5277,31.2827,达州市,达州职业技术学院,颗粒物(PM10),57,63,81,36,43,141,,56,56,8,23,8,8,0.7,0.8
2025-05-16T1300,2549A,107.5086,31.2186,达州市,市环境监测站,颗粒物(PM10),70,90,85,48,50,159,,60,60,24,38,8,6,0.5,0.6
2025-05-16T1300,2550A,107.4988,31.2132,达州市,凤凰小区,颗粒物(PM10),68,85,82,48,53,155,,67,67,22,37,10,9,0.6,0.7
2025-05-16T1300,2551A,107.5082,31.1986,达州市,达县机关宾馆,颗粒物(PM10),68,85,91,46,52,150,,67,67,25,38,8,7,0.5,0.6
2025-05-16T1300,2552A,107.4644,31.2124,达州市,市政中心,细颗粒物(PM2.5),64,71,87,46,51,145,,58,58,13,37,5,3,0.6,0.7
2025-05-16T1300,2614A,100.1542,25.7054,大理白族自治州,大理市环境监测站,,35,24,25,24,26,109,,102,101,7,7,7,7,0.4,0.4
2025-05-16T1300,2615A,100.2171,25.5811,大理白族自治州,大理古城,,38,32,29,26,20,115,,98,98,6,10,8,8,0.6,0.6
2025-05-16T1300,1109A,121.612,38.9741,大连市,甘井子,,31,16,34,6,19,99,,106,106,12,20,1,2,0.4,0.3
2025-05-16T1300,1110A,121.565,38.9511,大连市,周水子,,32,19,37,6,24,102,,95,95,11,17,4,5,0.3,0.4
2025-05-16T1300,1111A,121.5637,38.8845,大连市,星海三站,,36,12,29,3,23,113,,106,106,6,10,2,3,0.4,0.4
2025-05-16T1300,1112A,121.6302,38.9117,大连市,青泥洼桥,,34,7,24,3,19,107,,104,104,5,8,5,6,0.4,0.5
2025-05-16T1300,1113A,121.6251,38.8638,大连市,傅家庄,,37,9,25,3,18,117,,116,116,9,16,6,7,0.2,0.2
2025-05-16T1300,1114A,121.5213,38.8661,大连市,七贤岭,,35,11,32,3,22,111,,106,106,11,15,5,5,0.4,0.4
2025-05-16T1300,1115A,121.2529,38.8061,大连市,旅顺,,34,8,26,3,21,108,,95,95,11,21,4,5,0.3,0.3
2025-05-16T1300,1116A,121.7485,39.1311,大连市,金州,,36,8,27,6,17,114,,108,108,9,16,5,6,0.3,0.3
2025-05-16T1300,1117A,121.7811,39.0496,大连市,开发区,,34,16,31,3,20,108,,104,104,15,18,1,2,0.7,0.6
2025-05-16T1300,1118A,121.9762,39.0631,大连市,双D港,,36,8,18,3,17,113,,110,110,5,13,6,6,0.5,0.4
2025-05-16T1300,1789A,124.81117,46.03138,大庆市,大同区,细颗粒物(PM2.5),54,,67,38,40,67,,64,61,10,9,4,4,0.5,0.5
2025-05-16T1300,1790A,125.129,46.533,大庆市,龙凤区,细颗粒物(PM2.5),52,41,57,36,32,78,,67,67,13,13,5,5,0.4,0.5
2025-05-16T1300,1791A,124.902,46.408,大庆市,红岗区,,38,35,58,26,34,90,,74,73,6,8,6,7,0.3,0.3
2025-05-16T1300,1792A,125.153,46.586,大庆市,萨尔图区,,50,50,60,23,30,68,,62,61,15,12,7,7,0.5,0.4
2025-05-16T1300,1793A,124.9042,46.6215,大庆市,让胡路区,,42,33,59,29,37,62,,62,57,14,10,7,7,0.3,0.3
2025-05-16T1300,3481A,125.141,46.634,大庆市,萨区政府监测点,,34,34,59,14,20,68,,66,66,13,8,6,5,0.4,0.4
2025-05-16T1300,1723A,113.2994,40.0758,大同市,云冈宾馆,颗粒物(PM10),68,86,62,15,15,130,,114,114,10,25,9,12,0.3,0.5
2025-05-16T1300,1724A,113.3444,40.0917,大同市,大同大学,颗粒物(PM10),65,80,55,20,22,132,,128,128,9,23,11,16,0.3,0.5
2025-05-16T1300,1726A,113.2711,40.0844,大同市,教育学院,颗粒物(PM10),72,93,69,38,23,125,,93,93,8,25,7,10,0.4,0.5
2025-05-16T1300,3282A,113.3397,40.0597,大同市,大同市卫生学校,颗粒物(PM10),68,85,62,16,20,122,,114,114,7,20,7,12,0.4,0.5
2025-05-16T1300,3565A,113.1367,40.1122,大同市,云冈站,颗粒物(PM10),68,86,57,32,24,116,,74,74,6,18,4,9,0.3,0.5
2025-05-16T1300,3566A,113.1186,40.2556,大同市,图书馆,颗粒物(PM10),69,87,53,30,20,109,,96,96,3,11,5,9,0.4,0.5
2025-05-16T1300,3567A,113.5931,40.0461,大同市,区一中,,,138,64,17,20,152,,122,122,,21,10,13,0.3,0.4
2025-05-16T1300,4199A,113.2798,40.0997,大同市,魏都大道141号,颗粒物(PM10),83,116,76,18,17,128,,103,103,8,23,6,9,0.4,0.5
2025-05-16T1300,2269A,124.1069,50.4097,大兴安岭地区,科技局,,24,23,27,14,20,74,,72,72,2,2,6,5,0.1,0.2
2025-05-16T1300,3663A,124.1164,50.4278,大兴安岭地区,红旗社区,,23,14,11,12,10,72,,70,70,1,2,2,2,0.2,0.2
2025-05-16T1300,1600A,124.3303,40.0625,丹东市,江湾东路,,36,35,21,20,16,114,,102,102,6,7,11,8,0.7,0.7
2025-05-16T1300,1601A,124.4256,40.1503,丹东市,临江后街,,35,34,33,14,17,111,,96,96,10,11,8,7,0.8,0.9
2025-05-16T1300,1602A,124.3933,40.1461,丹东市,元宝山,,33,26,23,12,14,105,,92,92,8,10,9,8,0.5,0.6
2025-05-16T1300,1603A,124.3633,40.1092,丹东市,民主桥,,35,32,25,16,13,111,,97,97,6,8,8,8,0.9,0.9
2025-05-16T1300,3541A,109.5726,19.5167,儋州市,第一中学子站,,17,,14,8,6,53,,33,33,1,5,4,5,0.6,0.7
2025-05-16T1300,2616A,98.5842,24.428,德宏傣族景颇族自治州,德宏州监测站,,38,38,36,20,21,88,,48,48,11,13,10,7,0.5,0.6
2025-05-16T1300,3677A,98.5881,24.4368,德宏傣族景颇族自治州,芒市人民政府综合楼,颗粒物(PM10),51,52,39,19,20,104,,60,60,10,11,10,6,0.5,0.6
2025-05-16T1300,1901A,104.4239,31.1208,德阳市,东山公园,细颗粒物(PM2.5),94,135,89,70,56,90,,63,58,44,20,11,8,1.1,0.9
2025-05-16T1300,1902A,104.3826,31.1317,德阳市,西小区,细颗粒物(PM2.5),122,174,108,92,67,104,,64,64,34,34,12,8,1.2,1.1
2025-05-16T1300,1904A,104.3553,31.1091,德阳市,耐火材料厂,细颗粒物(PM2.5),98,140,129,73,73,130,,58,58,28,39,15,11,0.8,0.8
2025-05-16T1300,3639A,104.4019,31.1244,德阳市,市教育局,颗粒物(PM10),95,140,93,64,54,113,,62,62,41,29,13,9,0.9,0.9
2025-05-16T1300,1622A,116.3032,37.4674,德州市,儿童乐园,细颗粒物(PM2.5),128,105,78,97,58,164,,117,117,7,14,7,8,1.0,0.8
2025-05-16T1300,1624A,116.2991,37.4451,德州市,监理站,细颗粒物(PM2.5),92,100,68,68,45,171,,126,126,5,12,7,9,0.6,0.6
2025-05-16T1300,3066A,116.2721,37.4379,德州市,九衢泉纯净水厂,细颗粒物(PM2.5),89,114,73,66,44,149,,105,105,12,21,6,7,0.9,0.7
2025-05-16T1300,3371A,116.3728,37.4403,德州市,开发区人民医院,颗粒物(PM10),84,117,72,61,42,178,,119,119,6,17,6,7,0.9,0.8
2025-05-16T1300,3372A,116.3572,37.4094,德州市,太阳城中学,,,,75,,48,167,,,,8,27,4,6,,0.6
2025-05-16T1300,3511A,116.5652,37.3319,德州市,陵城艺术中心,细颗粒物(PM2.5),83,110,78,61,48,158,,119,119,8,15,6,7,0.8,0.6
2025-05-16T1300,2621A,99.7056,27.8317,迪庆藏族自治州,迪庆州站,,30,15,22,14,12,96,,98,98,14,14,5,5,0.2,0.2
2025-05-16T1300,3180A,99.7136,27.8094,迪庆藏族自治州,质量技术监督局,,32,14,18,7,9,102,,106,103,8,8,3,4,0.4,0.4
2025-05-16T1300,4257A,104.6092,35.5962,定西市,将台街,,42,37,56,7,21,132,,70,70,8,19,6,5,0.1,0.1
2025-05-16T1300,4309A,104.6159,35.5701,定西市,正龙路62号,,42,37,52,11,21,132,,74,74,3,10,8,7,0.3,0.3
2025-05-16T1300,1389A,113.7547,23.0494,东莞市,莞城梨川,,36,21,24,13,11,114,,63,63,11,18,6,6,0.4,0.4
2025-05-16T1300,1390A,113.7944,23.0128,东莞市,东城石井,,31,19,21,10,11,99,,50,50,13,20,4,4,0.4,0.4
2025-05-16T1300,1391A,113.7383,22.9658,东莞市,南城西平,,28,11,22,9,10,89,,49,49,12,23,3,3,0.5,0.5
2025-05-16T1300,3319A,113.7338,23.0381,东莞市,万江金泰,,30,16,23,6,10,95,,55,55,9,18,2,3,0.6,0.6
2025-05-16T1300,3626A,113.7533,23.0202,东莞市,南城元岭,,33,20,21,9,10,104,,59,59,14,20,5,5,0.5,0.5
2025-05-16T1300,3627A,113.7875,23.0457,东莞市,东城主山,,34,26,25,10,10,107,,57,57,7,14,4,5,0.3,0.3
2025-05-16T1300,1666A,118.6614,37.4309,东营市,市环保局,臭氧1小时,77,58,53,31,31,181,,112,112,20,22,8,11,0.7,0.6
2025-05-16T1300,3036A,118.6904,37.4338,东营市,开发区管委会,臭氧1小时,101,87,56,31,29,201,,127,127,19,22,8,8,0.6,0.6
2025-05-16T1300,3365A,118.5719,37.565,东营市,垦利区民丰路,臭氧1小时,92,53,52,34,31,193,,119,119,17,23,7,7,0.8,0.7
2025-05-16T1300,3498A,118.5055,37.8612,东营市,河口城区,臭氧1小时,100,53,47,24,26,200,,130,130,19,21,9,9,0.8,0.9
2025-05-16T1300,3646A,118.4978,37.4623,东营市,胜利站,臭氧1小时,65,63,48,27,34,172,,106,106,13,23,9,10,0.8,0.9
2025-05-16T1300,3734A,118.35,37.26,东营市,理想之城,臭氧1小时,89,61,63,29,34,191,,112,112,24,27,7,7,0.7,0.7
2025-05-16T1300,1591A,110.0023,39.8129,鄂尔多斯市,综合楼,颗粒物(PM10),139,227,103,39,26,107,,96,96,6,18,6,9,0.2,0
2025-05-16T1300,1592A,109.9486,39.8261,鄂尔多斯市,巴音孟克林场办事处,颗粒物(PM10),114,178,92,44,25,108,,95,95,7,14,6,8,0.3,0.3
2025-05-16T1300,1593A,109.7736,39.5986,鄂尔多斯市,康泽苑,颗粒物(PM10),165,280,91,36,25,120,,94,94,4,12,9,12,0.2,0.3
2025-05-16T1300,1594A,109.8119,39.5989,鄂尔多斯市,华泰汽车城,颗粒物(PM10),146,241,85,46,27,116,,92,92,5,11,4,7,0.2,0.2
2025-05-16T1300,1595A,109.9734,39.7884,鄂尔多斯市,奥林花园,颗粒物(PM10),131,212,82,39,25,110,,89,89,6,21,1,4,0.4,0.4
2025-05-16T1300,2436A,114.8938,30.3994,鄂州市,市政府,颗粒物(PM10),52,54,31,35,18,143,,106,106,12,16,11,7,1.0,0.5
2025-05-16T1300,2437A,114.8989,30.3714,鄂州市,赵家坝,,46,38,23,26,11,145,,105,105,9,11,5,4,0.9,0.7
2025-05-16T1300,3654A,114.8094,30.4089,鄂州市,精准医疗中心,,49,35,29,29,16,155,,100,100,2,9,4,4,0.7,0.6
2025-05-16T1300,2454A,109.4978,30.2981,恩施土家族苗族自治州,湖北民院,,43,43,50,28,30,118,,39,39,2,17,6,6,0.5,0.6
2025-05-16T1300,2455A,109.4707,30.2798,恩施土家族苗族自治州,州电力总公司,,36,36,41,20,26,96,,31,31,4,19,7,7,0.3,0.3
2025-05-16T1300,3549A,109.5061,30.3772,恩施土家族苗族自治州,龙凤新区,,50,36,37,35,23,112,,55,55,4,12,6,6,0.3,0.4
2025-05-16T1300,2499A,108.3411,21.6158,防城港市,沙万,,26,26,16,8,6,49,,,,21,21,3,2,0.5,0.4
2025-05-16T1300,2500A,108.3514,21.7731,防城港市,防城档案局,,28,28,14,10,6,55,,42,42,8,11,2,2,0.4,0.5
2025-05-16T1300,2501A,108.3506,21.6414,防城港市,大海花园,,32,32,14,3,6,56,,44,44,12,15,3,4,0.5,0.5
2025-05-16T1300,1371A,113.1294,23.0067,佛山市,湾梁,,23,17,21,16,9,64,,22,22,19,16,7,7,0.4,0.4
2025-05-16T1300,1372A,113.1083,23.0478,佛山市,华材职中,,23,19,18,9,10,73,,55,55,18,15,5,4,0.4,0.3
2025-05-16T1300,1373A,113.144,23.0453,佛山市,南海气象局,,46,46,25,10,10,73,,50,50,17,16,1,2,0.5,0.5
2025-05-16T1300,1374A,113.2881,22.8094,佛山市,顺德苏岗,,16,15,19,7,7,51,,48,48,16,10,6,6,0.5,0.4
2025-05-16T1300,1376A,112.8383,22.8678,佛山市,高明孔堂,,32,32,26,11,10,57,,53,53,6,9,5,5,0.6,0.6
2025-05-16T1300,1377A,112.8836,23.1588,佛山市,三水监测站,,35,29,24,24,17,76,,38,38,19,27,5,4,0.5,0.5
2025-05-16T1300,1378A,112.867,23.185,佛山市,三水云东海,,47,47,38,13,13,82,,48,48,21,28,2,2,0.5,0.5
2025-05-16T1300,3625A,113.2544,22.7642,佛山市,容桂街道办,,15,,14,9,10,46,,47,47,22,14,5,5,0.7,0.7
2025-05-16T1300,1282A,119.2681,26.0504,福州市,师大,,38,27,37,7,19,119,,78,78,7,12,4,5,0.3,0.4
2025-05-16T1300,1283A,119.2984,26.1028,福州市,五四北路,,38,29,32,12,22,121,,79,79,10,14,4,5,0.4,0.5
2025-05-16T1300,1284A,119.2648,26.0768,福州市,杨桥西路,,35,33,41,3,22,112,,79,79,6,13,4,5,0.2,0.5
2025-05-16T1300,1285A,119.317,26.0746,福州市,紫阳,,40,35,40,10,22,126,,78,78,11,17,6,7,0.3,0.4
2025-05-16T1300,3048A,119.5799,26.0936,福州市,九龙,,32,26,23,9,18,102,,74,74,6,5,4,4,0.2,0.3
2025-05-16T1300,3526A,119.5189,25.9664,福州市,吴航,,37,35,31,9,18,117,,68,68,6,9,4,5,0.3,0.5
2025-05-16T1300,1755A,123.7977,41.8491,抚顺市,望花区,,44,44,60,8,23,127,,95,95,14,25,6,11,0.6,0.8
2025-05-16T1300,1756A,123.9161,41.8822,抚顺市,顺城区,,39,21,56,3,22,124,,92,92,12,31,7,10,0.4,0.8
2025-05-16T1300,1757A,124.0436,41.8611,抚顺市,东洲区,,38,26,48,3,17,121,,111,111,8,14,6,9,0.3,0.5
2025-05-16T1300,1758A,123.9247,41.8642,抚顺市,新抚区,,37,36,59,7,18,117,,84,84,7,19,7,9,0.3,0.7
2025-05-16T1300,1759A,124.0972,41.8961,抚顺市,大伙房水库,,42,6,41,3,21,132,,112,112,7,13,8,9,0.6,0.9
2025-05-16T1300,1760A,123.7086,41.8391,抚顺市,沈抚新城,颗粒物(PM10),56,62,59,7,24,127,,99,99,11,22,7,9,0.6,0.8
2025-05-16T1300,2376A,116.2127,28.0814,抚州市,桐源党溪,,22,16,42,11,27,69,,58,58,2,3,2,3,0.8,0.7
2025-05-16T1300,2377A,116.3544,27.9831,抚州市,市站,,18,18,33,11,26,57,,50,48,10,11,1,2,0.6,0.5
2025-05-16T1300,2378A,116.3565,27.963,抚州市,血防站,,20,16,43,9,28,61,,47,47,2,4,2,2,0.6,0.7
2025-05-16T1300,2379A,116.3564,28.0007,抚州市,采茶剧团,,19,19,34,9,23,42,,38,37,7,6,3,3,0.8,0.7
2025-05-16T1300,2380A,116.385,27.9647,抚州市,医学分院,,16,14,34,8,22,51,,48,44,7,6,3,4,1.1,1
2025-05-16T1300,2207A,121.6094,41.998,阜新市,工业园区,颗粒物(PM10),120,190,75,22,31,159,,106,106,8,18,9,19,0.4,0.7
2025-05-16T1300,2208A,121.6697,42.0279,阜新市,长青街,颗粒物(PM10),95,140,65,17,28,146,,103,103,11,20,9,18,0.5,0.7
2025-05-16T1300,2209A,121.6673,42.0705,阜新市,农业园区,颗粒物(PM10),69,87,66,24,36,148,,103,103,10,16,8,14,0.4,0.7
2025-05-16T1300,2210A,121.6717,42.0224,阜新市,东苑,颗粒物(PM10),81,111,73,28,30,157,,110,110,11,20,9,20,0.5,0.7
2025-05-16T1300,2301A,115.8277,32.8929,阜阳市,市监测站,,49,32,76,23,62,156,,129,129,6,15,7,7,0.3,0.7
2025-05-16T1300,2303A,115.8554,32.8605,阜阳市,开发区,,50,45,95,19,75,157,,133,133,6,15,6,6,0.2,0.4
2025-05-16T1300,2875A,115.784,32.8892,阜阳市,阜阳职业技术学院,臭氧1小时,58,53,66,21,48,166,,141,141,6,11,5,4,0.4,0.6
2025-05-16T1300,3468A,115.7901,32.8613,阜阳市,市规划展馆,,50,36,78,17,71,160,,125,125,6,14,6,6,0.3,0.6
2025-05-16T1300,3469A,115.836,32.9183,阜阳市,枣园社区,,49,,151,17,71,156,,132,132,6,14,5,4,0.3,0.6
2025-05-16T1300,2669A,102.9099,34.9841,甘南藏族自治州,州政府,,37,28,46,16,20,116,,52,52,3,23,8,6,0.2,0.3
2025-05-16T1300,3380A,102.8914,34.9617,甘南藏族自治州,甘肃民族师范学院,,36,26,47,10,14,113,,42,42,2,28,8,9,0.3,0.4
2025-05-16T1300,2570A,101.9603,30.0475,甘孜藏族自治州,水桥子,,19,17,11,7,6,60,,19,19,12,32,5,5,0.3,0.4
2025-05-16T1300,3065A,101.9533,29.9972,甘孜藏族自治州,州环保局,,19,6,11,3,5,60,,24,24,14,30,1,1,0.3,0.4
2025-05-16T1300,3414A,115.8347,28.932,赣江新区,桑海产业园,,35,17,43,14,41,110,,75,75,6,16,6,5,0.3,0.5
2025-05-16T1300,2363A,114.9367,25.8664,赣州市,地委,,20,18,30,14,15,61,,41,41,8,12,17,12,0.4,0.5
2025-05-16T1300,2364A,114.9461,25.8481,赣州市,气象台,,20,20,27,8,12,64,,46,46,7,11,9,9,0.3,0.3
2025-05-16T1300,2365A,114.9322,25.8333,赣州市,市图书馆,,19,19,22,12,14,56,,41,38,6,9,3,5,0.4,0.5
2025-05-16T1300,2366A,114.8905,25.8471,赣州市,华坚鞋城,,26,26,26,11,13,60,,49,45,5,10,3,5,0.2,0.3
2025-05-16T1300,3109A,115.0093,25.8613,赣州市,赣县区卫计委,,22,22,23,3,12,55,,40,35,5,9,4,4,0.7,0.7
2025-05-16T1300,2683A,106.2319,36.1417,固原市,马园,,,133,68,,21,130,,113,113,3,11,5,5,0.5,0.6
2025-05-16T1300,2684A,106.2792,36.0022,固原市,监测站,颗粒物(PM10),72,93,62,10,19,124,,102,102,5,8,5,6,0.2,0.2
2025-05-16T1300,2685A,106.2375,36.0211,固原市,新区,颗粒物(PM10),84,118,56,15,19,121,,96,96,3,7,7,7,0.1,0.2
2025-05-16T1300,3522A,106.2177,35.9959,固原市,原州区十五小,颗粒物(PM10),53,56,56,26,24,124,,107,107,3,5,10,11,0.2,0.2
2025-05-16T1300,2544A,106.6303,30.4576,广安市,市委,细颗粒物(PM2.5),110,104,84,83,74,104,,73,73,14,14,10,8,0.6,0.7
2025-05-16T1300,2545A,106.6271,30.4663,广安市,友谊中学,细颗粒物(PM2.5),87,101,79,64,54,116,,73,73,18,19,10,5,0.7,0.8
2025-05-16T1300,2547A,106.6388,30.4551,广安市,广电花园,,,97,79,68,56,108,,62,62,,16,7,6,,0.7
2025-05-16T1300,2902A,106.6351,30.4865,广安市,北辰小学,细颗粒物(PM2.5),89,101,81,66,55,119,,68,68,16,17,14,9,0.8,0.8
2025-05-16T1300,2523A,105.8945,32.4535,广元市,黑石坡,颗粒物(PM10),74,98,83,36,31,146,,82,82,12,12,8,7,0.5,0.4
2025-05-16T1300,2524A,105.821,32.4444,广元市,老城,颗粒物(PM10),72,94,76,39,37,159,,65,65,12,31,9,2,1.5,1
2025-05-16T1300,2526A,105.8628,32.4287,广元市,监测站,细颗粒物(PM2.5),64,68,62,46,41,166,,79,79,12,14,13,4,0.8,0.6
2025-05-16T1300,3617A,105.8047,32.4166,广元市,经开区,细颗粒物(PM2.5),99,112,97,74,67,166,,72,72,19,28,60,15,1.5,0.9
2025-05-16T1300,1345A,113.2347,23.1423,广州市,广雅中学,,26,26,22,10,8,74,,49,49,14,14,3,3,0.1,0.1
2025-05-16T1300,1346A,113.2612,23.105,广州市,市五中,,27,27,20,12,8,66,,40,40,14,14,2,2,0,0
2025-05-16T1300,1348A,113.3478,23.0916,广州市,广东商学院,,29,29,17,11,7,58,,36,36,19,19,4,4,0.5,0.5
2025-05-16T1300,1349A,113.4332,23.1047,广州市,市八十六中,,18,18,22,6,6,55,,29,29,23,34,3,3,0.4,0.4
2025-05-16T1300,1350A,113.3505,22.9483,广州市,番禺中学,,,25,19,17,10,64,,43,43,16,17,6,6,,0.4
2025-05-16T1300,1351A,113.2146,23.3916,广州市,花都师范,,25,25,23,12,10,62,,40,40,17,18,3,3,0.6,0.6
2025-05-16T1300,1352A,113.2597,23.1331,广州市,市监测站,,28,28,21,9,7,71,,46,46,15,16,4,4,0.2,0.2
2025-05-16T1300,1353A,113.5618,23.312,广州市,九龙镇镇龙,,41,41,30,18,13,129,,49,49,19,28,6,7,0.4,0.4
2025-05-16T1300,1354A,113.2765,23.1544,广州市,麓湖,,25,25,20,11,8,64,,44,44,9,9,5,5,0.3,0.3
2025-05-16T1300,1355A,113.443,23.3035,广州市,帽峰山森林公园,,29,19,16,11,8,92,,42,42,15,21,8,8,0.6,0.6
2025-05-16T1300,2846A,113.3221,23.1322,广州市,体育西,,26,26,21,14,10,59,,39,39,20,19,4,4,0.4,0.3
2025-05-16T1300,3298A,113.5717,23.5491,广州市,从化街口,,33,25,28,12,14,103,,55,55,9,18,7,8,0.4,0.5
2025-05-16T1300,3299A,113.3472,23.3692,广州市,白云竹料,,26,26,24,11,10,78,,42,42,16,23,3,3,0.4,0.4
2025-05-16T1300,3300A,113.2981,23.237,广州市,白云嘉禾,,24,24,20,12,9,56,,36,36,25,24,6,6,0.8,0.7
2025-05-16T1300,3301A,113.4256,23.1716,广州市,黄埔科学城,,23,23,22,10,9,66,,35,35,16,20,3,3,0.4,0.4
2025-05-16T1300,3302A,113.3942,23.0483,广州市,番禺大学城,,23,23,21,8,7,65,,39,39,17,20,6,6,0.3,0.3
2025-05-16T1300,3303A,113.4922,22.8168,广州市,南沙黄阁,,23,23,18,6,7,61,,45,45,4,13,5,5,0.4,0.4
2025-05-16T1300,3304A,113.5342,22.7896,广州市,南沙街,,19,17,19,3,7,59,,39,39,5,14,3,3,0.4,0.5
2025-05-16T1300,3443A,113.2902,23.5544,广州市,花都梯面,,27,27,27,14,11,67,,31,31,19,22,5,5,0.7,0.6
2025-05-16T1300,3445A,113.7858,23.7478,广州市,从化良口,,27,13,21,9,14,84,,38,38,4,15,6,6,0.5,0.5
2025-05-16T1300,3446A,113.8051,23.2614,广州市,增城荔城,,38,32,28,14,13,121,,60,60,12,17,8,8,0.2,0.2
2025-05-16T1300,2506A,109.6047,23.0666,贵港市,江南子站,,38,29,29,26,17,19,,12,12,24,20,5,5,0.8,0.7
2025-05-16T1300,2508A,109.5669,23.1065,贵港市,荷城子站,,21,21,23,14,12,20,,21,19,26,20,4,5,0.4,0.3
2025-05-16T1300,3405A,109.5886,23.1172,贵港市,新世纪学校,,32,27,21,22,14,14,,16,13,27,19,1,2,0.9,0.6
2025-05-16T1300,4260A,109.5933,23.0951,贵港市,中山路155-3号,,31,31,35,16,23,22,,19,18,26,22,4,5,0.7,0.5
2025-05-16T1300,1439A,106.6899,26.5998,贵阳市,马鞍山,,22,22,30,12,16,50,,26,26,7,8,3,3,0.6,0.6
2025-05-16T1300,1441A,106.6243,26.6266,贵阳市,鉴湖路,,32,31,40,22,25,61,,42,42,20,14,5,4,0.4,0.5
2025-05-16T1300,1442A,106.7487,26.6343,贵阳市,燕子冲,,28,27,33,19,28,70,,56,56,10,11,4,4,0.4,0.4
2025-05-16T1300,1443A,106.6555,26.4365,贵阳市,碧云窝,,39,39,42,14,23,76,,48,48,24,25,5,4,0.4,0.3
2025-05-16T1300,1445A,106.7109,26.6027,贵阳市,红边门,,39,,34,27,30,71,,54,54,4,7,3,3,0.2,0.3
2025-05-16T1300,1446A,106.7164,26.5699,贵阳市,新华路,,22,22,26,14,22,68,,55,55,8,11,8,5,0.5,0.5
2025-05-16T1300,1447A,106.674,26.5424,贵阳市,太慈桥,,22,22,32,14,21,64,,40,40,17,19,4,4,0.3,0.3
2025-05-16T1300,4230A,106.6882,26.5695,贵阳市,花果园大街66号,,33,24,32,23,30,65,,54,54,12,13,3,3,0.4,0.4
2025-05-16T1300,4231A,106.6873,26.5169,贵阳市,漓江路57号,,32,27,35,22,26,62,,50,50,14,16,8,8,0.4,0.4
2025-05-16T1300,1864A,110.3089,25.2708,桂林市,龙隐路小学,,27,27,23,14,18,60,,20,20,5,14,8,9,0.5,0.6
2025-05-16T1300,1865A,110.2869,25.2178,桂林市,八中,,22,22,24,11,18,57,,20,20,7,17,1,2,0.6,0.6
2025-05-16T1300,3531A,110.296,25.1253,桂林市,旅游学院,,15,9,15,9,12,46,,20,20,4,12,3,3,0.3,0.3
2025-05-16T1300,4222A,110.1835,25.2444,桂林市,环湖路276号,,,14,29,9,22,46,,33,33,,18,2,13,0.3,0.4
2025-05-16T1300,4301A,110.2803,25.2773,桂林市,信义路13号,,28,28,29,15,20,60,,24,24,6,16,2,4,0.4,0.6
2025-05-16T1300,2674A,100.2561,34.4714,果洛藏族自治州,玛沁县大武镇,,37,35,28,9,13,116,,72,72,1,5,20,21,0.4,0.4
2025-05-16T1300,1129A,126.5422,45.755,哈尔滨市,岭北,,29,20,38,17,27,92,,75,74,9,12,29,28,0.9,1
2025-05-16T1300,1130A,126.561,45.8167,哈尔滨市,松北商大,,23,23,36,14,22,73,,59,59,14,15,5,6,0.5,0.5
2025-05-16T1300,1131A,126.979,45.5419,哈尔滨市,阿城会宁,,33,27,51,23,24,61,,64,57,13,18,7,18,0.4,0.5
2025-05-16T1300,1132A,126.599,45.7222,哈尔滨市,南岗学府路,,30,30,55,13,25,88,,74,68,11,12,5,6,0.4,0.5
2025-05-16T1300,1133A,126.689,45.7733,哈尔滨市,太平宏伟公园,,27,24,55,17,27,86,,70,65,13,14,4,5,0.5,0.5
2025-05-16T1300,1134A,126.635,45.7667,哈尔滨市,道外承德广场,,32,31,56,22,33,79,,68,63,17,15,5,5,0.2,0.4
2025-05-16T1300,1135A,126.685,45.7319,哈尔滨市,香坊红旗大街,,,24,58,16,23,88,,72,65,14,16,10,13,,0.6
2025-05-16T1300,1136A,126.6411,45.7258,哈尔滨市,动力和平路,,33,33,52,15,23,80,,66,63,14,16,3,3,0.5,0.5
2025-05-16T1300,1137A,126.593,45.7478,哈尔滨市,道里建国路,,28,28,47,16,25,89,,68,68,10,14,4,4,0.6,0.6
2025-05-16T1300,1138A,126.615,45.61,哈尔滨市,平房东轻厂,,43,43,56,22,31,74,,64,58,19,19,8,8,0.4,0.4
2025-05-16T1300,1139A,126.595,45.9855,哈尔滨市,呼兰师专,,24,24,49,16,26,71,,65,65,19,16,4,5,0.5,0.6
2025-05-16T1300,1140A,126.6206,45.6842,哈尔滨市,省农科院,,36,36,75,18,27,82,,66,60,13,16,10,9,0.6,0.6
2025-05-16T1300,2688A,93.5128,42.8172,哈密市,地区监测站,颗粒物(PM10),92,133,156,43,35,106,,92,92,5,9,2,3,0.1,0.1
2025-05-16T1300,2689A,93.4961,42.8328,哈密市,哈密师范学校,颗粒物(PM10),72,93,106,28,22,101,,88,86,6,6,4,4,0.1,0.1
2025-05-16T1300,2671A,100.9048,36.9639,海北藏族自治州,海晏县西海镇,,40,27,23,9,13,128,,94,94,1,4,7,8,0.4,0.4
2025-05-16T1300,3867A,102.0738,36.5056,海东市,平安区公安北苑,,41,39,37,15,14,131,,84,84,1,9,10,10,0.5,0.6
2025-05-16T1300,1409A,110.576,19.9507,海口市,东寨港,,28,28,15,12,7,43,,25,25,2,4,3,3,0.2,0.2
2025-05-16T1300,1410A,110.3232,20.0574,海口市,海南大学,,20,7,14,6,7,64,,45,45,3,8,3,3,0.3,0.4
2025-05-16T1300,1411A,110.283,20.0053,海口市,秀英海南医院,,,,16,,8,60,,35,35,,20,4,4,0.3,0.3
2025-05-16T1300,1412A,110.338,19.9969,海口市,海南师范大学,,19,11,21,3,8,59,,39,39,3,8,3,3,0.4,0.4
2025-05-16T1300,1413A,110.33,20.0356,海口市,龙华路环保局宿舍,,19,11,14,3,7,60,,43,43,5,9,4,4,0.2,0.3
2025-05-16T1300,3539A,110.5111,19.9736,海口市,桂林洋子站,,16,6,18,3,8,49,,31,31,3,10,4,4,0.2,0.2
2025-05-16T1300,2673A,100.6188,36.2866,海南藏族自治州,共和县恰卜恰镇,,40,,36,27,18,128,,91,91,5,8,9,12,0.3,0.4
2025-05-16T1300,2676A,97.3731,37.3753,海西蒙古族藏族自治州,德令哈市,,40,38,35,6,14,128,,126,126,2,2,8,8,0.4,0.4
2025-05-16T1300,1048A,114.5302,36.6116,邯郸市,东污水处理厂,颗粒物(PM10),73,95,54,36,22,151,,97,97,9,18,4,5,0.6,0.4
2025-05-16T1300,1049A,114.4918,36.5713,邯郸市,矿院,颗粒物(PM10),59,68,45,41,20,143,,91,91,7,14,5,5,0.5,0.3
2025-05-16T1300,1050A,114.484,36.6133,邯郸市,丛台公园,颗粒物(PM10),68,85,50,41,21,158,,103,103,9,15,5,5,0.6,0.3
2025-05-16T1300,3458A,114.7895,36.5593,邯郸市,香泉濮院小区,颗粒物(PM10),80,109,64,36,14,151,,111,111,6,15,3,5,0.8,0.4
2025-05-16T1300,3579A,114.50634,36.77178,邯郸市,永年区实验高中,细颗粒物(PM2.5),69,86,58,50,30,155,,92,92,7,16,4,6,0.6,0.6
2025-05-16T1300,3580A,114.20016,36.44293,邯郸市,峰峰矿区临水派出所,臭氧1小时,89,60,39,34,12,191,,133,133,6,13,11,8,0.8,0.6
2025-05-16T1300,2634A,106.9893,33.1842,汉中市,汉川机床厂子校,颗粒物(PM10),70,89,70,50,34,162,,90,90,12,15,17,8,1.1,0.5
2025-05-16T1300,2635A,107.0154,33.0706,汉中市,市监测站,,,83,77,39,30,141,,91,91,,12,6,8,0.7,0.8
2025-05-16T1300,2636A,107.0089,33.1138,汉中市,鑫源开发区,颗粒物(PM10),63,76,74,35,34,161,,104,104,10,20,8,7,0.8,0.6
2025-05-16T1300,2637A,107.007,33.0323,汉中市,南郑大河坎水厂,颗粒物(PM10),57,64,68,39,36,138,,69,69,7,15,6,6,0.5,0.5
2025-05-16T1300,1223A,120.2072,30.2111,杭州市,滨江,,46,46,199,18,59,63,,61,59,43,40,6,7,0.6,0.8
2025-05-16T1300,1224A,120.0633,30.2747,杭州市,西溪,,28,21,77,19,57,62,,55,52,12,21,4,4,0.6,0.7
2025-05-16T1300,1226A,120.3417,30.3150,杭州市,下沙,细颗粒物(PM2.5),75,79,203,55,139,76,,72,72,34,39,6,8,0.7,0.9
2025-05-16T1300,1227A,120.1269,30.2456,杭州市,卧龙桥,,39,29,77,27,59,66,,58,58,20,20,6,7,0.6,0.7
2025-05-16T1300,1228A,120.1903,30.2692,杭州市,浙江农大,,35,25,77,24,63,56,,59,57,29,37,8,9,0.8,0.9
2025-05-16T1300,1230A,120.1197,30.3119,杭州市,和睦小学,,28,,85,19,55,76,,74,65,12,28,8,10,0.8,0.9
2025-05-16T1300,1231A,120.3019,30.4183,杭州市,临平镇,,28,26,115,18,71,88,,73,73,14,29,5,6,0.7,1
2025-05-16T1300,1232A,120.2753,30.1839,杭州市,城厢镇,,50,,99,35,93,84,,54,54,18,39,7,9,0.6,0.9
2025-05-16T1300,1233A,120.0883,30.1808,杭州市,云栖,,18,18,69,12,50,49,,34,34,16,28,5,5,0.7,0.9
2025-05-16T1300,3557A,119.9464,30.0494,杭州市,镇二中,,35,27,74,24,56,62,,67,63,24,31,4,4,0.7,0.8
2025-05-16T1300,3558A,119.7183,30.2367,杭州市,市府大楼,,21,17,58,14,45,66,,68,67,14,23,7,7,0.7,0.8
2025-05-16T1300,3656A,120.1556,30.2864,杭州市,消防大队,,30,30,84,18,62,64,,69,60,26,32,3,4,1.0,1.1
2025-05-16T1300,1270A,117.1959,31.7848,合肥市,明珠广场,臭氧1小时,55,31,45,24,34,164,,128,128,12,18,4,5,0.4,0.6
2025-05-16T1300,1271A,117.3072,31.8764,合肥市,三里街,,48,36,47,22,33,152,,120,120,9,18,4,4,0.6,0.7
2025-05-16T1300,1272A,117.2588,31.8707,合肥市,琥珀山庄,臭氧1小时,54,27,43,21,39,163,,126,126,11,21,4,4,0.6,0.8
2025-05-16T1300,1273A,117.1604,31.9052,合肥市,董铺水库,,48,34,42,22,33,151,,128,128,4,10,1,1,0.4,0.4
2025-05-16T1300,1274A,117.25,31.8571,合肥市,长江中路,臭氧1小时,54,34,47,23,38,163,,128,128,7,15,5,5,0.6,0.7
2025-05-16T1300,1275A,117.266,31.9436,合肥市,庐阳区,,48,34,41,19,32,153,,124,124,7,16,7,7,0.5,0.6
2025-05-16T1300,1276A,117.3453,31.8616,合肥市,瑶海区,,46,24,38,20,31,147,,123,123,9,17,6,6,0.5,0.6
2025-05-16T1300,1277A,117.3027,31.7964,合肥市,包河区,臭氧1小时,54,34,39,29,35,163,,112,112,10,21,6,6,0.8,0.9
2025-05-16T1300,1278A,117.2776,31.7385,合肥市,滨湖新区,臭氧1小时,53,36,38,31,37,162,,118,118,11,18,9,9,0.6,0.6
2025-05-16T1300,1279A,117.1318,31.8403,合肥市,高新区,,48,34,44,25,36,151,,124,124,10,17,5,4,0.5,0.6
2025-05-16T1300,3464A,117.3803,31.9147,合肥市,高教基地,,47,22,40,11,31,149,,120,120,5,14,5,5,0.5,0.5
2025-05-16T1300,3614A,79.924,37.0877,和田地区,地区环保局,颗粒物(PM10),129,207,443,65,139,89,,68,66,4,6,1,2,0.4,0.4
2025-05-16T1300,3615A,79.9131,37.113,和田地区,市环保局,颗粒物(PM10),127,204,372,60,102,99,,66,61,5,11,3,2,0.6,0.6
2025-05-16T1300,2517A,108.0497,24.6947,河池市,市环保站,,23,23,14,10,7,54,,45,45,6,8,5,5,0.7,0.7
2025-05-16T1300,2518A,108.0983,24.6989,河池市,市疾控中心,,21,21,11,11,7,46,,41,40,8,12,2,2,0.7,0.6
2025-05-16T1300,1696A,114.6778,23.7569,河源市,源西,,26,25,20,8,11,81,,49,49,6,8,4,4,0.5,0.5
2025-05-16T1300,1697A,114.6944,23.7586,河源市,东埔,,26,17,17,9,13,81,,51,51,11,13,4,4,0.3,0.3
2025-05-16T1300,1698A,114.6892,23.7233,河源市,老城,,24,21,21,10,10,76,,45,45,9,12,4,5,0.3,0.3
2025-05-16T1300,1718A,115.4208,35.2464,菏泽市,气象局,细颗粒物(PM2.5),77,94,88,56,52,160,,114,114,7,16,3,2,0.5,0.5
2025-05-16T1300,3374A,115.5564,35.0891,菏泽市,定陶老年大学,颗粒物(PM10),63,75,88,36,56,149,,99,99,10,15,3,6,0.7,0.8
2025-05-16T1300,4184A,115.4797,35.24401,菏泽市,永昌路1号,细颗粒物(PM2.5),79,81,89,58,56,158,,107,107,7,15,6,6,0.4,0.4
2025-05-16T1300,4193A,115.4715,35.2800,菏泽市,长城路999号,"颗粒物(PM10),细颗粒物(PM2.5)",70,89,80,51,54,158,,111,111,9,15,7,8,0.4,0.4
2025-05-16T1300,2514A,111.5264,24.4172,贺州市,环保小区,,29,,29,20,16,48,,37,37,11,16,7,7,1.1,1.1
2025-05-16T1300,2515A,111.5608,24.4078,贺州市,政协大楼,二氧化氮,72,23,25,7,16,28,,25,25,144,66,32,16,1.2,0.9
2025-05-16T1300,3534A,111.4744,24.4553,贺州市,西湾,,15,9,26,3,18,46,,37,37,9,12,6,7,0.6,0.6
2025-05-16T1300,2385A,114.17,35.9019,鹤壁市,市监测站,臭氧1小时,101,98,62,46,32,201,,122,122,15,17,10,4,0.7,0.5
2025-05-16T1300,2386A,114.2956,35.7511,鹤壁市,市交警支队,臭氧1小时,103,101,62,46,34,205,,120,120,13,21,5,3,0.8,0.4
2025-05-16T1300,2387A,114.2878,35.7306,鹤壁市,迎宾馆,臭氧1小时,105,126,80,68,43,209,,124,124,21,23,7,4,0.7,0.5
2025-05-16T1300,3474A,114.2617,35.6822,鹤壁市,大新区,臭氧1小时,104,104,58,52,47,207,,116,116,15,32,13,10,0.7,0.5
2025-05-16T1300,3596A,114.1572,35.9603,鹤壁市,南山宾馆,臭氧1小时,102,108,75,48,32,203,,138,138,11,13,10,6,0.5,0.3
2025-05-16T1300,2244A,130.2537,47.3416,鹤岗市,哈啤分公司,,35,,27,24,33,83,,84,81,7,7,14,14,0.3,0.3
2025-05-16T1300,2245A,130.2684,47.3086,鹤岗市,斯达机电,,27,27,39,12,29,78,,77,73,7,8,11,13,0.3,0.4
2025-05-16T1300,2246A,130.3114,47.3388,鹤岗市,东山纸板厂,,41,41,44,10,23,73,,77,74,9,8,12,12,0.4,0.5
2025-05-16T1300,2263A,127.4833,50.2524,黑河市,交通局,,24,14,31,9,23,74,,68,68,4,6,7,7,0.1,0.2
2025-05-16T1300,2264A,127.5144,50.2341,黑河市,环保局,,26,14,30,11,25,82,,77,77,5,6,3,3,0.3,0.3
2025-05-16T1300,2265A,127.5291,50.2472,黑河市,大黑河岛,,23,6,35,3,19,71,,57,56,4,7,2,5,0.2,0.3
2025-05-16T1300,1074A,115.6838,37.7541,衡水市,电机北厂,细颗粒物(PM2.5),100,122,64,75,38,164,,118,118,8,12,10,6,0.6,0.4
2025-05-16T1300,1075A,115.6303,37.7316,衡水市,市监测站,细颗粒物(PM2.5),103,122,72,77,30,167,,120,120,8,11,7,8,0.6,0.4
2025-05-16T1300,3188A,115.6683,37.7217,衡水市,市城管局,颗粒物(PM10),86,122,65,63,36,168,,119,119,8,16,4,5,0.7,0.6
2025-05-16T1300,3459A,115.5989,37.5491,衡水市,地表水厂,颗粒物(PM10),106,161,70,63,34,169,,119,119,8,18,7,7,0.5,0.4
2025-05-16T1300,2456A,112.5003,26.9167,衡阳市,原169医院,,24,24,25,16,25,73,,66,62,12,11,4,4,0.6,0.7
2025-05-16T1300,2457A,112.6194,26.9258,衡阳市,衡阳化工总厂,,37,37,31,24,24,70,,67,64,8,5,8,5,0.5,0.6
2025-05-16T1300,2458A,112.6211,26.8956,衡阳市,珠晖区环保局,,,26,28,,,70,,69,62,10,10,7,7,0.7,0.8
2025-05-16T1300,2459A,112.6197,26.8733,衡阳市,市委党校,,28,,30,19,20,69,,73,64,6,6,4,5,0.6,0.7
2025-05-16T1300,2460A,112.6006,26.8919,衡阳市,市监测站,,49,36,29,34,22,68,,68,64,14,9,10,9,0.6,0.6
2025-05-16T1300,2461A,112.5664,26.9056,衡阳市,真空机电公司,,29,24,26,20,26,77,,69,61,3,5,5,5,0.6,0.7
2025-05-16T1300,3399A,112.6703,26.882,衡阳市,师范学院,,24,23,29,11,23,76,,77,69,9,8,7,6,0.7,0.8
2025-05-16T1300,2608A,103.3772,23.3993,红河哈尼族彝族自治州,污水处理厂,,27,22,17,13,17,84,,61,61,4,6,5,6,0.4,0.5
2025-05-16T1300,2609A,103.3861,23.35,红河哈尼族彝族自治州,监测站,,24,15,21,7,10,75,,58,58,3,5,7,8,0.2,0.2
2025-05-16T1300,3038A,103.3758,23.368,红河哈尼族彝族自治州,州图书馆,,25,16,13,10,15,79,,64,64,3,3,2,6,0.2,0.2
2025-05-16T1300,1090A,111.6507,40.7517,呼和浩特市,呼市一监,颗粒物(PM10),146,241,95,68,26,136,,108,108,7,10,13,12,0.5,0.4
2025-05-16T1300,1091A,111.6572,40.8033,呼和浩特市,小召,颗粒物(PM10),103,156,83,43,21,142,,109,109,20,21,12,10,0.6,0.5
2025-05-16T1300,1094A,111.7516,40.8369,呼和浩特市,如意水处理厂,颗粒物(PM10),100,150,80,46,22,139,,86,86,13,21,11,8,0.5,0.5
2025-05-16T1300,1095A,111.7276,40.8062,呼和浩特市,二十九中,颗粒物(PM10),85,119,77,60,28,143,,98,98,10,15,9,7,0.5,0.5
2025-05-16T1300,1096A,111.5512,40.7866,呼和浩特市,工大金川校区,颗粒物(PM10),85,119,79,48,25,138,,105,105,15,20,12,16,0.6,0.6
2025-05-16T1300,1097A,111.717,40.7612,呼和浩特市,化肥厂生活区,颗粒物(PM10),129,207,87,64,26,145,,117,117,16,20,11,9,0.4,0.3
2025-05-16T1300,3698A,111.5968,40.8178,呼和浩特市,红旗小学,颗粒物(PM10),115,180,96,80,32,146,,104,104,16,26,10,11,0.6,0.5
2025-05-16T1300,3699A,111.6518,40.8389,呼和浩特市,海东办,颗粒物(PM10),107,163,96,66,28,133,,93,93,13,19,12,12,0.6,0.6
2025-05-16T1300,2192A,119.7594,49.2261,呼伦贝尔市,区环保局,细颗粒物(PM2.5),52,,67,36,63,80,,56,56,7,15,6,5,0.3,0.4
2025-05-16T1300,3061A,119.7512,49.1577,呼伦贝尔市,国华电力东,,46,34,69,32,53,83,,60,60,5,10,4,4,0.3,0.4
2025-05-16T1300,1250A,120.0751,30.8669,湖州市,城西水厂,,36,34,107,25,80,77,,67,63,28,46,5,7,0.8,0.9
2025-05-16T1300,2873A,120.0830,30.8929,湖州市,仁皇山新区,,39,30,96,27,71,101,,85,78,16,32,5,5,1.1,1.1
2025-05-16T1300,2907A,120.1844,30.8596,湖州市,吴兴区站,,39,39,72,22,63,82,,75,68,13,33,5,7,0.8,0.9
2025-05-16T1300,3562A,120.4148,30.8538,湖州市,南浔区站,,45,,76,31,74,88,,80,,18,30,3,5,1.0,0.9
2025-05-16T1300,1607A,120.9049,40.7211,葫芦岛市,龙港区,,42,,39,23,29,133,,98,98,8,12,8,9,0.6,0.6
2025-05-16T1300,1608A,120.8392,40.7514,葫芦岛市,化工街,,43,29,55,14,26,136,,97,97,11,20,6,7,0.4,0.5
2025-05-16T1300,1609A,120.8341,40.7073,葫芦岛市,新区,,42,,40,22,29,132,,97,97,9,16,6,7,0.6,0.6
2025-05-16T1300,1610A,120.8695,40.7677,葫芦岛市,东城区,,44,44,44,28,32,130,,93,93,10,21,4,6,0.6,0.7
2025-05-16T1300,2483A,109.9453,27.5444,怀化市,河西地税局,,34,15,27,12,20,108,,56,56,5,10,3,3,0.5,0.5
2025-05-16T1300,2484A,109.9781,27.5342,怀化市,市四医院,,39,,31,27,23,115,,72,72,5,6,3,2,0.8,0.8
2025-05-16T1300,2485A,109.9972,27.5578,怀化市,监测楼,,36,23,30,12,22,115,,73,73,10,13,1,2,0.3,0.3
2025-05-16T1300,2486A,110.0394,27.583,怀化市,市委党校,,32,,25,22,24,102,,64,64,3,6,3,3,0.5,0.6
2025-05-16T1300,1210A,119.036,33.5981,淮安市,钵池山,,43,,40,23,51,136,,82,82,5,13,8,8,1.2,1.3
2025-05-16T1300,1211A,119.007,33.575,淮安市,北京南路,,45,,40,21,54,144,,95,95,3,12,7,7,0.9,1
2025-05-16T1300,1212A,118.989,33.6067,淮安市,市监测站,,43,,44,22,39,135,,84,84,10,16,8,8,0.7,0.8
2025-05-16T1300,1213A,119.135,33.5039,淮安市,楚州区监测站,,39,,42,22,52,123,,83,83,2,9,6,6,0.4,0.5
2025-05-16T1300,3426A,118.8755,33.2894,淮安市,新华书店,,41,20,39,9,25,131,,86,86,5,17,7,7,0.5,0.6
2025-05-16T1300,4206A,119.0288,33.6319,淮安市,承德北路606号,,47,,54,22,54,150,,89,89,6,15,6,7,0.4,0.5
2025-05-16T1300,2282A,116.8004,33.975,淮北市,监测站,细颗粒物(PM2.5),70,74,83,51,54,148,,89,89,9,14,6,6,0.7,0.8
2025-05-16T1300,2283A,116.8091,33.9007,淮北市,烈山区政府,细颗粒物(PM2.5),68,,101,49,76,125,,69,69,7,15,4,5,0.9,1
2025-05-16T1300,3330A,116.8873,33.9836,淮北市,杜集区检察院,,,87,104,,99,134,,79,79,12,14,7,7,1.0,1
2025-05-16T1300,4017A,116.7923,33.9535,淮北市,市博物馆,颗粒物(PM10),54,58,79,32,56,147,,85,85,8,14,5,5,0.8,0.9
2025-05-16T1300,2277A,116.8305,32.7727,淮南市,潘集区政府,"颗粒物(PM10),臭氧1小时",54,58,96,34,85,163,,79,79,10,23,5,3,0.5,0.8
2025-05-16T1300,2279A,116.8569,32.5951,淮南市,谢家集区政府,细颗粒物(PM2.5),52,47,72,36,56,160,,97,97,11,19,4,5,0.2,0.3
2025-05-16T1300,2280A,116.8281,32.633,淮南市,八公山区政府,颗粒物(PM10),53,56,76,36,54,156,,97,97,10,12,4,4,0.4,0.5
2025-05-16T1300,3329A,117.0108,32.5893,淮南市,山南新区,细颗粒物(PM2.5),70,,74,51,61,164,,106,106,11,15,7,8,0.4,0.5
2025-05-16T1300,4209A,117.0031,32.6445,淮南市,国庆中路369号,细颗粒物(PM2.5),58,,83,41,72,154,,97,97,6,11,10,10,0.3,0.4
2025-05-16T1300,2929A,114.8858,30.4519,黄冈市,红卫路,,50,43,26,33,22,159,,126,126,2,2,6,5,0.7,0.6
2025-05-16T1300,3398A,114.9136,30.4445,黄冈市,市林业局,,46,37,24,24,17,147,,114,114,3,5,7,6,1.0,0.9
2025-05-16T1300,2672A,102.0199,35.5102,黄南藏族自治州,同仁县隆务镇,,36,22,22,14,10,114,,81,81,6,3,5,3,0.2,0.1
2025-05-16T1300,2295A,118.2903,29.6963,黄山市,延安路89号,,20,12,53,8,37,63,,52,47,6,10,5,5,0.6,0.6
2025-05-16T1300,2297A,118.1371,30.2756,黄山市,黄山区政府5号楼,,29,,42,3,28,91,,55,55,4,6,3,4,0.5,0.4
2025-05-16T1300,4210A,118.3354,29.7203,黄山市,滨江东路7-2号,,21,18,50,3,32,66,,53,48,7,10,4,5,0.3,0.6
2025-05-16T1300,2423A,115.0601,30.2313,黄石市,沈家营,,42,34,30,23,13,134,,106,106,6,10,7,6,0.5,0.5
2025-05-16T1300,2426A,114.8988,30.2019,黄石市,铁山,颗粒物(PM10),62,74,33,30,17,125,,,,2,5,12,9,0.4,0.5
2025-05-16T1300,2427A,115.0307,30.2092,黄石市,团城山,颗粒物(PM10),54,57,32,21,9,102,,87,87,5,9,7,7,0.6,0.6
2025-05-16T1300,3149A,115.0235,30.1578,黄石市,笔架山北路,,40,38,29,21,11,126,,95,95,2,4,7,6,0.7,0.8
2025-05-16T1300,4185A,115.0780,30.21118,黄石市,磁湖东路29号,,43,37,29,27,17,135,,108,108,3,16,6,6,0.5,0.5
2025-05-16T1300,1392A,114.4183,23.0528,惠州市,河南岸金山湖子站,,19,14,18,6,6,58,,46,46,8,11,8,8,0.3,0.3
2025-05-16T1300,1393A,114.4053,23.0822,惠州市,下埔横江三路子站,,21,16,17,6,8,65,,53,53,8,9,4,8,0.2,0.3
2025-05-16T1300,1394A,114.4103,23.1142,惠州市,江北云山西路子站,,25,14,16,6,7,78,,61,61,6,8,10,11,0.4,0.4
2025-05-16T1300,1395A,114.4645,22.7833,惠州市,惠阳区承修路船湖子站,,20,14,17,7,6,63,,53,53,6,7,7,7,0.4,0.5
2025-05-16T1300,1396A,114.5317,22.7422,惠州市,大亚湾管委会子站,,20,12,18,6,7,62,,54,54,7,8,4,3,0.4,0.5
2025-05-16T1300,3314A,114.4338,22.8134,惠州市,惠阳秋长,,23,12,14,8,6,71,,61,61,5,6,7,8,0.3,0.3
2025-05-16T1300,3452A,114.6517,22.775,惠州市,大亚湾霞涌,,,25,16,7,7,64,,48,48,,9,6,7,0.2,0.4
2025-05-16T1300,2240A,130.9762,45.3001,鸡西市,环保局,,35,35,34,17,16,100,,88,88,11,16,7,6,0.4,0.5
2025-05-16T1300,2243A,130.9429,45.3039,鸡西市,第一中学,,34,34,28,14,15,94,,83,83,9,7,12,7,0.5,0.5
2025-05-16T1300,3709A,130.9967,45.3106,鸡西市,市政设施管理处,,43,43,43,13,20,88,,75,75,12,17,6,6,0.5,0.6
2025-05-16T1300,2367A,114.9754,27.0803,吉安市,红声器材厂,,24,20,30,7,14,75,,72,66,11,9,9,10,0.5,0.7
2025-05-16T1300,2368A,114.9658,27.0999,吉安市,市森林工业局,,22,22,26,8,17,66,,72,65,14,10,8,8,0.6,0.6
2025-05-16T1300,2369A,114.99,27.1312,吉安市,市环境监测站,,23,12,27,3,15,72,,73,63,7,7,8,9,0.8,0.9
2025-05-16T1300,2370A,115.0093,27.0968,吉安市,青原区法院,,22,17,26,7,20,68,,61,54,13,11,10,10,0.5,0.5
2025-05-16T1300,1772A,126.54,43.8622,吉林市,哈达湾,,44,13,32,10,20,140,,98,98,6,11,6,7,0.3,0.4
2025-05-16T1300,1773A,126.5844,43.8358,吉林市,东局子,,44,22,33,10,20,138,,95,95,9,12,6,7,0.4,0.6
2025-05-16T1300,1774A,126.5052,43.8245,吉林市,电力学院,,44,15,32,9,21,140,,98,98,6,12,5,5,0.4,0.5
2025-05-16T1300,1775A,126.6133,43.8972,吉林市,江北,,46,23,37,6,19,145,,98,98,10,13,6,7,0.3,0.4
2025-05-16T1300,1776A,126.555,43.8306,吉林市,江南公园,,44,19,31,17,22,138,,95,95,5,13,6,6,0.3,0.4
2025-05-16T1300,2868A,126.4739,43.953,吉林市,九站,,45,20,35,8,20,144,,93,93,6,14,7,10,0.3,0.4
2025-05-16T1300,1299A,116.9862,36.6114,济南市,科干所,臭氧1小时,74,73,68,49,39,179,,156,156,9,16,4,4,0.5,0.4
2025-05-16T1300,1300A,116.9376,36.665,济南市,农科所,细颗粒物(PM2.5),70,81,69,51,36,169,,143,143,11,21,7,7,0.4,0.4
2025-05-16T1300,1301A,117.1265,36.6734,济南市,开发区,臭氧1小时,65,54,76,39,44,172,,145,145,9,24,7,8,0.8,0.8
2025-05-16T1300,1303A,117.0624,36.6868,济南市,省种子仓库,臭氧1小时,73,83,85,46,50,178,,153,153,9,29,5,5,0.6,0.7
2025-05-16T1300,1304A,116.9489,36.6447,济南市,机床二厂,,,,77,,41,156,,134,134,18,26,8,8,0.6,0.6
2025-05-16T1300,1305A,117.0495,36.663,济南市,市监测站,臭氧1小时,60,63,74,37,54,168,,149,,13,26,8,9,0.6,0.7
2025-05-16T1300,1306A,116.7675,36.5484,济南市,长清党校,细颗粒物(PM2.5),89,78,57,66,41,156,,133,133,12,14,5,6,1.0,0.8
2025-05-16T1300,1616A,117.6795,36.229,济南市,技术学院,细颗粒物(PM2.5),85,95,60,63,43,164,,115,115,14,21,10,11,0.8,0.8
2025-05-16T1300,1961A,117.532,36.6868,济南市,东山小学,颗粒物(PM10),68,85,62,44,37,152,,138,138,8,14,5,6,0.5,0.6
2025-05-16T1300,3059A,117.7161,36.2049,济南市,泰兴公司,细颗粒物(PM2.5),77,80,55,56,41,160,,103,103,12,23,8,7,0.5,0.5
2025-05-16T1300,3064A,117.6867,36.2171,济南市,莱芜战役纪念馆,细颗粒物(PM2.5),77,83,64,56,44,160,,108,108,17,25,8,7,0.7,0.7
2025-05-16T1300,3494A,117.1673,36.9782,济南市,济阳区政府,臭氧1小时,101,93,87,46,47,202,,143,143,18,27,8,9,0.6,0.7
2025-05-16T1300,3495A,117.1171,36.63,济南市,锦屏中学,臭氧1小时,57,54,62,39,36,165,,142,142,8,19,8,9,0.5,0.6
2025-05-16T1300,3682A,116.9814,36.6819,济南市,济南四建,臭氧1小时,78,70,73,54,45,182,,153,153,11,22,5,5,0.6,0.7
2025-05-16T1300,1653A,116.6251,35.4302,济宁市,火炬城,细颗粒物(PM2.5),85,108,77,63,49,138,,89,89,5,8,7,6,0.8,0.6
2025-05-16T1300,1655A,116.5491,35.4042,济宁市,电化厂,细颗粒物(PM2.5),89,93,74,66,51,126,,86,86,4,7,4,4,1.0,0.9
2025-05-16T1300,3500A,116.5814,35.3707,济宁市,北湖一中,细颗粒物(PM2.5),124,110,79,94,74,117,,74,74,6,8,2,3,0.7,0.6
2025-05-16T1300,3501A,116.8249,35.5593,济宁市,服务中心,细颗粒物(PM2.5),85,69,56,63,45,142,,95,95,9,15,2,2,0.8,0.6
2025-05-16T1300,3678A,116.5907,35.4054,济宁市,市第七中学,细颗粒物(PM2.5),89,94,71,66,49,131,,88,88,5,8,8,8,0.7,0.6
2025-05-16T1300,2255A,130.2751,46.8028,佳木斯市,佳纺,,27,27,29,3,19,81,,79,79,7,6,3,4,0.2,0.3
2025-05-16T1300,2256A,130.3995,46.8307,佳木斯市,发电厂,,26,21,29,12,21,82,,85,83,9,8,4,3,0.2,0.3
2025-05-16T1300,2257A,130.3258,46.7975,佳木斯市,环保局,,,,35,25,22,84,,,,8,8,4,8,0.3,0.4
2025-05-16T1300,2258A,130.3648,46.8032,佳木斯市,十一中,,26,22,31,15,23,82,,81,80,11,10,2,2,0.4,0.4
2025-05-16T1300,2259A,130.3794,46.7588,佳木斯市,四丰,,,16,20,9,14,,,,,5,6,1,1,0.3,0.4
2025-05-16T1300,1252A,120.7436,30.778,嘉兴市,清河小学,,26,15,70,10,48,82,,60,60,14,33,5,6,1.2,1.1
2025-05-16T1300,1253A,120.726,30.7478,嘉兴市,嘉兴学院,,,31,107,17,66,81,,60,60,,22,5,7,0.6,0.6
2025-05-16T1300,2872A,120.7846,30.7525,嘉兴市,南湖区残联,,31,,82,12,52,97,,69,69,11,30,5,7,1.0,1
2025-05-16T1300,3407A,120.6916,30.7739,嘉兴市,秀洲住建,,38,38,130,15,40,86,,64,64,5,28,6,7,1.1,1
2025-05-16T1300,1945A,98.2908,39.7711,嘉峪关市,气象局,颗粒物(PM10),57,63,48,12,10,115,,103,103,2,5,3,4,0.3,0.3
2025-05-16T1300,2884A,98.2672,39.7978,嘉峪关市,酒钢宾馆,颗粒物(PM10),58,66,55,24,14,127,,109,109,2,6,13,13,0.6,0.6
2025-05-16T1300,3248A,98.2643,39.7724,嘉峪关市,雄关区,颗粒物(PM10),54,57,45,11,14,126,,110,110,18,20,9,10,0.4,0.3
2025-05-16T1300,1383A,113.1064,22.6058,江门市,北街,,15,,18,10,7,34,,44,42,16,9,4,4,0.4,0.3
2025-05-16T1300,1384A,113.0731,22.5835,江门市,西区,,21,21,18,6,8,36,,50,46,23,10,6,7,0.5,0.4
2025-05-16T1300,1385A,113.0219,22.5311,江门市,圭峰西,,18,16,20,12,9,45,,49,48,6,6,4,4,0.4,0.4
2025-05-16T1300,1386A,113.0828,22.5947,江门市,东湖,,25,25,17,9,8,36,,50,46,20,10,7,8,0.6,0.5
2025-05-16T1300,3311A,113.1075,22.5647,江门市,江海富民,,30,30,26,13,10,53,,49,49,10,10,8,7,0.3,0.2
2025-05-16T1300,3449A,113.05,22.4667,江门市,新会银湖,,32,32,21,9,9,44,,41,41,6,10,3,1,0.3,0.3
2025-05-16T1300,3169A,113.2725,35.2067,焦作市,太极体育中心,臭氧1小时,78,47,65,47,30,182,,115,115,11,19,8,9,0.1,0.1
2025-05-16T1300,3335A,113.3137,35.2641,焦作市,马村街道办,臭氧1小时,101,68,64,37,29,202,,136,136,14,19,13,12,0.7,0.6
2025-05-16T1300,3336A,113.2465,35.2373,焦作市,焦作技师学院,臭氧1小时,101,70,48,29,21,202,,136,136,12,12,11,8,0.8,0.8
2025-05-16T1300,3477A,113.1656,35.2539,焦作市,中站许衡医院,臭氧1小时,102,57,57,37,29,204,,144,144,15,26,14,10,0.8,0.6
2025-05-16T1300,3981A,113.2449,35.1803,焦作市,原李万街道办,臭氧1小时,89,69,54,24,27,191,,116,116,11,21,15,17,0.5,0.6
2025-05-16T1300,4264A,113.2340,35.2190,焦作市,新安路1731号,臭氧1小时,83,67,60,35,26,186,,114,114,13,17,11,10,0.6,0.6
2025-05-16T1300,1708A,116.3701,23.5345,揭阳市,新兴,,47,47,32,16,17,85,,72,72,4,8,4,6,0.4,0.4
2025-05-16T1300,1709A,116.3264,23.5443,揭阳市,西马,,32,32,27,12,13,90,,67,67,4,6,6,7,0.5,0.5
2025-05-16T1300,1710A,116.3611,23.5626,揭阳市,东兴,,27,25,23,11,10,86,,69,69,1,3,3,5,0.4,0.5
2025-05-16T1300,1711A,116.4151,23.5294,揭阳市,渔湖,,36,36,28,6,10,93,,71,71,4,10,4,4,0.6,0.7
2025-05-16T1300,3320A,116.403,23.5699,揭阳市,曲溪,,33,21,21,7,10,104,,79,79,7,10,4,5,0.4,0.5
2025-05-16T1300,1944A,102.1692,38.5167,金昌市,天庆家园,颗粒物(PM10),98,146,82,23,18,115,,116,108,3,6,7,8,0.6,0.7
2025-05-16T1300,4022A,102.1647,38.5371,金昌市,金川区人防中心,颗粒物(PM10),138,225,94,25,18,116,,119,108,4,6,6,5,0.4,0.6
2025-05-16T1300,1262A,119.647,29.077,金华市,十五中,颗粒物(PM10),52,53,94,32,62,92,,59,59,19,28,2,5,0.7,0.8
2025-05-16T1300,1263A,119.686,29.1029,金华市,监测站,细颗粒物(PM2.5),52,48,81,36,58,95,,57,57,16,25,3,5,0.7,0.8
2025-05-16T1300,3659A,119.656,29.1131,金华市,气象局,,49,49,91,34,63,81,,49,49,23,30,2,4,0.7,0.8
2025-05-16T1300,1767A,121.1115,41.0879,锦州市,南山,细颗粒物(PM2.5),52,41,44,36,41,125,,90,90,10,21,6,10,0.6,0.8
2025-05-16T1300,1768A,121.0604,40.8428,锦州市,开发区,,46,46,53,26,34,127,,92,92,12,22,5,7,0.6,0.7
2025-05-16T1300,1769A,121.1836,41.1119,锦州市,百股街道,,40,26,47,22,33,128,,97,97,9,19,7,9,0.5,0.7
2025-05-16T1300,1770A,121.1178,41.1222,锦州市,天安街道,细颗粒物(PM2.5),58,,60,41,44,128,,97,97,12,21,6,9,0.5,0.7
2025-05-16T1300,1771A,121.1303,41.1386,锦州市,北湖公园,,50,35,59,35,38,128,,98,98,12,21,6,9,0.6,0.8
2025-05-16T1300,2160A,112.85,35.5051,晋城市,自来水公司,颗粒物(PM10),52,53,60,17,20,159,,119,119,9,20,7,9,0.2,0.4
2025-05-16T1300,2161A,112.8318,35.4936,晋城市,白云商贸,颗粒物(PM10),54,58,56,9,12,153,,123,123,10,22,7,8,0.6,0.7
2025-05-16T1300,2162A,112.8508,35.4887,晋城市,市环保局,颗粒物(PM10),59,68,61,24,19,149,,117,117,7,23,5,7,0.1,0.3
2025-05-16T1300,2163A,112.8676,35.4897,晋城市,技术学院,颗粒物(PM10),57,64,57,17,16,148,,104,104,10,29,8,10,0.7,0.8
2025-05-16T1300,3620A,112.8271,35.4828,晋城市,泽州一中,颗粒物(PM10),67,83,57,19,18,158,,124,124,12,21,4,4,0.5,0.5
2025-05-16T1300,2173A,112.7249,37.7067,晋中市,南都小区,颗粒物(PM10),73,96,53,18,17,177,,136,136,10,15,8,9,0.6,0.5
2025-05-16T1300,2174A,112.6991,37.6982,晋中市,榆次区政府,臭氧1小时,78,95,59,14,17,182,,130,130,12,17,11,12,0.7,0.7
2025-05-16T1300,2865A,112.7195,37.6828,晋中市,榆次三中,"颗粒物(PM10),臭氧1小时",78,105,65,27,20,182,,123,123,9,17,9,9,0.8,0.7
2025-05-16T1300,4200A,112.7478,37.6954,晋中市,迎宾街26号,颗粒物(PM10),75,100,65,19,16,174,,123,123,9,16,8,8,0.4,0.4
2025-05-16T1300,2439A,112.2014,31.0481,荆门市,竹园小学,,46,42,71,28,59,147,,76,76,6,12,6,6,0.4,0.5
2025-05-16T1300,2440A,112.1969,30.9891,荆门市,掇刀,细颗粒物(PM2.5),55,,66,39,61,150,,71,71,3,9,6,5,0.4,0.4
2025-05-16T1300,2441A,112.2213,31.0386,荆门市,石化一小,,,,67,40,64,137,,67,67,,15,4,3,0.4,0.6
2025-05-16T1300,3012A,112.1849,31.0362,荆门市,西山林语,,43,38,52,26,58,135,,63,63,4,9,9,8,0.4,0.5
2025-05-16T1300,3547A,112.1632,31.0138,荆门市,龙泉中学南校,,43,30,46,19,33,135,,66,66,4,11,6,4,1.0,1
2025-05-16T1300,1844A,112.2494,30.3197,荆州市,市图书馆,,48,26,33,25,23,151,,98,98,8,25,4,5,0.4,0.5
2025-05-16T1300,1845A,112.2008,30.3544,荆州市,市委党校,,40,38,42,24,25,127,,84,84,8,19,7,7,0.4,0.5
2025-05-16T1300,3194A,112.2747,30.3122,荆州市,管委会,,47,33,32,26,24,149,,98,98,7,17,8,8,0.6,0.7
2025-05-16T1300,4268A,112.1722,30.3366,荆州市,学苑路85号,颗粒物(PM10),60,70,35,38,35,140,,78,78,4,23,2,3,0.6,0.6
2025-05-16T1300,2343A,117.2117,29.2933,景德镇市,老干部活动中心,,34,34,34,21,21,78,,73,73,16,15,12,9,0.6,0.5
2025-05-16T1300,2344A,117.1894,29.2789,景德镇市,兽医站,,44,44,39,19,26,68,,63,63,16,15,4,4,0.5,0.4
2025-05-16T1300,2345A,117.1547,29.2617,景德镇市,台达陶瓷,,47,47,39,25,26,73,,71,70,35,19,19,19,0.9,0.6
2025-05-16T1300,2346A,117.2461,29.2956,景德镇市,陶研所,,,33,34,32,26,73,,57,57,20,12,,4,0.4,0.3
2025-05-16T1300,1803A,115.9872,29.6815,九江市,十里,,40,22,41,18,36,126,,96,96,8,10,1,2,0.9,0.8
2025-05-16T1300,1804A,115.9584,29.7046,九江市,茅山头,,45,41,42,31,37,130,,105,105,14,13,4,5,0.8,0.8
2025-05-16T1300,1805A,115.9877,29.7295,九江市,西园,,50,39,37,35,31,135,,112,112,26,27,5,5,1.1,0.9
2025-05-16T1300,1808A,115.9114,29.6038,九江市,综合工业园,,36,15,31,13,25,114,,91,91,15,29,6,8,1.0,0.9
2025-05-16T1300,1809A,116.0721,29.7535,九江市,石化总厂,细颗粒物(PM2.5),60,,41,43,40,134,,104,104,11,18,4,3,0.9,0.9
2025-05-16T1300,1810A,115.9773,29.5698,九江市,庐山气象台,,28,,6,10,8,88,,100,93,5,5,8,7,1.0,1
2025-05-16T1300,3190A,116.0254,29.6994,九江市,外国语学校,,39,29,34,27,37,118,,88,88,16,18,4,4,1.0,1
2025-05-16T1300,4253A,116.0102,29.6594,九江市,莲花大道8号,,36,,31,18,38,113,,86,86,6,7,4,4,0.8,0.8
2025-05-16T1300,4240A,98.4958,39.7339,酒泉市,玉门东路5号,颗粒物(PM10),84,117,69,16,21,117,,103,103,2,5,9,12,0.2,0.3
2025-05-16T1300,4241A,98.5099,39.7506,酒泉市,北大街108号,,,70,83,15,17,109,,94,94,4,9,10,12,,0.2
2025-05-16T1300,2698A,76.0072,39.4467,喀什地区,巡警大队,颗粒物(PM10),137,224,226,70,68,78,,57,44,18,26,5,4,0.3,0.3
2025-05-16T1300,4027A,75.9483,39.4689,喀什地区,老干局,颗粒物(PM10),121,191,196,67,65,78,,66,53,10,15,5,4,0.2,0.3
2025-05-16T1300,1824A,114.3389,34.7781,开封市,肿瘤医院,臭氧1小时,70,63,87,40,46,176,,112,112,9,17,6,7,0.6,0.8
2025-05-16T1300,1826A,114.2885,34.7965,开封市,世纪星幼儿园,臭氧1小时,73,86,85,36,55,178,,102,102,13,18,9,8,0.7,0.8
2025-05-16T1300,3147A,114.3438,34.8106,开封市,龙亭公园,臭氧1小时,82,74,90,28,46,185,,118,118,9,15,3,3,0.7,0.7
2025-05-16T1300,3210A,114.3644,34.7964,开封市,汴京公园,颗粒物(PM10),69,88,102,36,55,166,,108,108,8,18,6,6,0.7,0.8
2025-05-16T1300,3473A,114.2485,34.8306,开封市,技师学院,臭氧1小时,100,87,82,25,64,200,,129,129,10,12,4,3,0.8,0.8
2025-05-16T1300,3592A,114.4644,34.7556,开封市,祥符区生态环境局,颗粒物(PM10),100,150,130,44,44,173,,111,111,12,25,8,8,0.5,0.7
2025-05-16T1300,1951A,84.895,45.6094,克拉玛依市,长征新村,,32,24,30,3,5,101,,75,75,7,5,7,5,0.1,0.2
2025-05-16T1300,1952A,84.8988,45.5893,克拉玛依市,南林小区,,34,33,22,22,12,106,,84,84,5,3,5,5,0.1,0.1
2025-05-16T1300,1954A,84.905,44.3396,克拉玛依市,独山子区,,30,24,17,3,5,96,,87,87,4,7,7,7,0.5,0.5
2025-05-16T1300,1955A,85.6979,46.098,克拉玛依市,乌尔禾区商贸楼,,31,16,28,3,5,99,,84,70,2,4,10,10,0.4,0.4
2025-05-16T1300,3612A,85.1045,45.6899,克拉玛依市,白碱滩区新站,,42,41,58,29,28,108,,83,83,8,5,12,12,0.2,0.1
2025-05-16T1300,2697A,76.1454,39.7142,克孜勒苏柯尔克孜自治州,市人民政府,颗粒物(PM10),151,252,243,106,98,102,,97,95,4,7,2,2,0.2,0.1
2025-05-16T1300,3665A,76.1658,39.7157,克孜勒苏柯尔克孜自治州,克州文化中心,颗粒物(PM10),173,296,237,109,99,97,,93,93,6,5,3,2,0.2,0.2
2025-05-16T1300,1450A,102.8204,24.8886,昆明市,呈贡新区,,40,18,28,13,16,126,,87,87,6,11,6,6,0.4,0.6
2025-05-16T1300,1452A,102.7252,25.0902,昆明市,龙泉镇,,40,,21,15,16,125,,81,81,9,13,2,2,0.4,0.4
2025-05-16T1300,1453A,102.7266,25.0375,昆明市,东风东路,,39,24,24,18,16,124,,84,84,10,16,8,8,0.3,0.4
2025-05-16T1300,1454A,102.6742,25.0669,昆明市,金鼎山,,40,34,26,20,12,126,,80,80,9,14,4,4,0.3,0.4
2025-05-16T1300,1455A,102.6644,25.0401,昆明市,碧鸡广场,,37,,21,17,10,117,,75,75,10,15,6,6,0.4,0.5
2025-05-16T1300,3179A,102.7494,25.0119,昆明市,官渡区博物馆,,40,38,25,17,13,125,,83,83,7,14,7,8,0.4,0.5
2025-05-16T1300,3375A,102.8017,24.8336,昆明市,青年创业园,,39,15,19,12,14,123,,87,87,5,10,8,10,0.3,0.4
2025-05-16T1300,3550A,102.7997,24.9786,昆明市,昆明学院,,39,20,23,11,15,122,,83,83,9,13,6,6,0.2,0.5
2025-05-16T1300,3551A,102.5967,24.6736,昆明市,晋宁区生态环境分局,,34,,16,17,12,107,,72,72,5,8,6,6,0.5,0.6
2025-05-16T1300,3552A,102.6678,24.9856,昆明市,云天化总部,,35,12,18,7,13,111,,79,79,7,9,4,3,0.6,0.7
2025-05-16T1300,1456A,91.1319,29.6514,拉萨市,八廓街,,46,8,12,3,7,146,,149,149,6,7,5,6,0.2,0.3
2025-05-16T1300,1457A,91.1221,29.6747,拉萨市,市环保局,,40,18,15,3,6,126,,127,127,10,10,4,4,0.2,0.2
2025-05-16T1300,1458A,91.0874,29.6475,拉萨市,区监测站,,45,11,12,3,7,142,,147,147,12,10,6,6,0.1,0.1
2025-05-16T1300,1459A,91.1774,29.6541,拉萨市,西藏大学,,45,9,11,3,6,142,,144,144,7,8,3,7,0.2,0.5
2025-05-16T1300,1460A,90.9798,29.6588,拉萨市,区辐射站,,39,15,15,6,7,122,,131,131,18,14,5,5,0.4,0.4
2025-05-16T1300,1461A,91.0834,29.6292,拉萨市,拉萨火车站,,47,6,10,6,6,148,,147,147,4,5,3,3,0.3,0.4
2025-05-16T1300,2520A,109.2203,23.7256,来宾市,来宾技工学校,,18,,22,3,12,56,,30,30,6,13,6,8,0.5,0.6
2025-05-16T1300,3535A,109.1781,23.7297,来宾市,兴宾区政府,,17,9,18,3,12,52,,31,31,6,13,4,5,0.6,0.6
2025-05-16T1300,4002A,109.2416,23.7461,来宾市,中南小学,,17,6,21,6,13,54,,29,29,8,13,6,6,0.6,0.5
2025-05-16T1300,1479A,103.831,36.0464,兰州市,铁路设计院,,40,39,58,26,30,126,,45,45,28,73,14,15,0.6,0.9
2025-05-16T1300,3241A,103.7439,36.0842,兰州市,百合公园,,46,42,47,12,18,147,,51,51,33,53,18,7,0.6,0.5
2025-05-16T1300,3242A,103.9611,35.998,兰州市,和平,颗粒物(PM10),53,55,47,21,18,125,,93,81,10,16,9,10,0.3,0.4
2025-05-16T1300,4236A,103.6293,36.0938,兰州市,庄浪东路808号,,46,46,48,23,22,122,,60,60,18,43,16,15,0.3,0.4
2025-05-16T1300,4237A,103.7251,36.1043,兰州市,安宁西路88号,"颗粒物(PM10),臭氧1小时",57,64,62,27,28,165,,66,66,30,46,20,11,0.6,0.4
2025-05-16T1300,4238A,103.8470,36.0676,兰州市,北滨河东路1号,,43,43,58,20,22,112,,37,37,43,62,17,12,0.8,0.8
2025-05-16T1300,3245A,103.6633,36.533,兰州新区,新区管委会,,47,36,36,16,24,149,,98,98,4,11,15,37,0.3,0.3
2025-05-16T1300,3246A,103.6975,36.4789,兰州新区,舟曲中学,,45,32,38,13,13,144,,114,114,6,12,11,25,0.2,0.3
2025-05-16T1300,1067A,116.6708,39.5111,廊坊市,药材公司,细颗粒物(PM2.5),100,104,62,75,39,185,,117,117,12,18,6,5,0.7,0.4
2025-05-16T1300,1068A,116.7214,39.5589,廊坊市,开发区,臭氧1小时,101,138,71,71,29,202,,110,110,15,27,8,5,0.7,0.4
2025-05-16T1300,1070A,116.7244,39.5269,廊坊市,北华航天学院,细颗粒物(PM2.5),135,120,73,103,42,188,,110,110,13,25,7,6,0.7,0.4
2025-05-16T1300,2919A,116.7022,39.5453,廊坊市,河北工业大学,臭氧1小时,99,116,70,69,33,199,,118,118,13,22,9,7,0.7,0.4
2025-05-16T1300,2535A,103.7723,29.5462,乐山市,花湖湾,,43,43,63,24,38,109,,48,48,7,18,4,6,0.4,0.7
2025-05-16T1300,2536A,103.7627,29.5844,乐山市,牛耳桥,,44,44,65,26,37,106,,51,51,10,30,9,13,0.6,0.9
2025-05-16T1300,2537A,103.7508,29.6006,乐山市,市第三水厂,,44,44,60,23,36,106,,58,52,14,30,8,11,0.7,0.9
2025-05-16T1300,2538A,103.7571,29.5664,乐山市,市监测站,,49,49,68,26,39,99,,48,46,9,26,21,11,1.0,1.2
2025-05-16T1300,3361A,103.7311,29.5628,乐山市,理工大学,,,,57,,37,101,,53,50,14,30,20,12,,0.9
2025-05-16T1300,2599A,100.2497,26.8802,丽江市,丽江古城,,32,19,23,8,14,100,,95,94,9,11,9,9,0.5,0.5
2025-05-16T1300,2600A,100.2203,26.8906,丽江市,市中心,,32,22,16,6,12,100,,94,92,9,12,8,8,0.7,0.7
2025-05-16T1300,1267A,119.914,28.4514,丽水市,监测站大楼,,25,23,28,17,16,45,,,,22,14,2,3,0.7,0.6
2025-05-16T1300,1268A,119.93,28.4586,丽水市,莲都小学,,27,27,33,16,19,54,,60,44,14,13,3,4,0.5,0.4
2025-05-16T1300,1269A,119.879,28.4231,丽水市,余庄前,,43,39,30,30,20,44,,29,20,17,15,3,3,0.7,0.5
2025-05-16T1300,1173A,119.176,34.5885,连云港市,市环境监测站,,46,34,50,27,50,145,,106,106,9,16,6,5,0.3,0.5
2025-05-16T1300,3000A,119.3581,34.6972,连云港市,德源药业,,45,44,33,31,31,115,,100,96,10,11,9,8,0.6,0.6
2025-05-16T1300,3007A,119.178,34.844,连云港市,新城一中,,33,29,37,18,18,104,,104,101,8,12,5,6,0.6,0.6
2025-05-16T1300,3008A,119.3608,34.7519,连云港市,胡沟管理处,,42,,28,29,24,86,,90,90,26,23,8,8,0.8,0.8
2025-05-16T1300,3009A,119.1478,34.5911,连云港市,矿山设计院,,44,44,52,27,45,138,,98,98,7,13,5,5,0.5,0.6
2025-05-16T1300,3434A,119.2413,34.6539,连云港市,工贸学校,,49,41,34,21,29,154,,116,116,1,13,8,7,0.6,0.6
2025-05-16T1300,3664A,119.4172,34.7341,连云港市,连云街道,颗粒物(PM10),55,59,69,37,42,82,,76,72,30,31,8,7,0.5,0.5
2025-05-16T1300,2571A,102.3431,27.8099,凉山彝族自治州,青龙寺,,27,15,16,7,6,84,,52,52,4,6,5,4,0.5,0.5
2025-05-16T1300,2572A,102.2721,27.8415,凉山彝族自治州,邛海宾馆,,27,22,21,14,12,86,,57,57,6,11,9,9,0.6,0.6
2025-05-16T1300,2573A,102.2625,27.898,凉山彝族自治州,西昌市政府,,29,23,19,20,10,82,,63,59,11,12,10,11,0.6,0.5
2025-05-16T1300,2574A,102.2685,27.8851,凉山彝族自治州,凉山州政府,,26,21,21,13,14,81,,61,59,11,14,8,8,0.9,0.8
2025-05-16T1300,4229A,102.2342,27.8859,凉山彝族自治州,凯乐南路30号,,26,18,24,11,12,83,,59,56,12,17,4,9,0.4,0.9
2025-05-16T1300,2212A,123.2,41.1953,辽阳市,宏伟区,颗粒物(PM10),56,61,41,12,17,124,,114,112,5,10,6,8,0.3,0.5
2025-05-16T1300,2213A,123.1683,41.2495,辽阳市,新华园,,35,20,40,3,17,112,,100,100,5,12,7,10,0.4,0.6
2025-05-16T1300,2214A,123.2354,41.2639,辽阳市,滨河路,,35,30,31,7,17,110,,105,100,5,12,12,10,0.3,0.6
2025-05-16T1300,2215A,123.149,41.2991,辽阳市,铁西工业园,颗粒物(PM10),68,85,52,9,21,109,,100,100,6,12,5,8,0.3,0.7
2025-05-16T1300,2227A,125.1358,42.8845,辽源市,环保局,,42,23,37,3,16,134,,102,102,9,18,7,8,0.3,0.5
2025-05-16T1300,3239A,125.0764,42.9078,辽源市,银鹰制药,,45,13,30,3,17,143,,108,108,10,19,3,5,0.3,0.4
2025-05-16T1300,1625A,115.9848,36.4372,聊城市,区政府,细颗粒物(PM2.5),83,103,73,61,48,151,,104,104,7,12,6,6,1.0,0.9
2025-05-16T1300,2878A,116.0072,36.4343,聊城市,聊大东校,细颗粒物(PM2.5),104,105,81,78,58,156,,106,106,7,13,8,8,0.6,0.5
2025-05-16T1300,3200A,115.9819,36.4978,聊城市,监控中心,颗粒物(PM10),89,128,86,58,45,158,,109,109,7,10,7,6,0.8,0.7
2025-05-16T1300,3513A,116.0445,36.4361,聊城市,九州社区,颗粒物(PM10),86,121,84,63,46,162,,108,108,7,10,4,7,0.7,0.5
2025-05-16T1300,4018A,116.0567,36.4608,聊城市,星美广场,颗粒物(PM10),95,140,81,56,38,156,,108,108,3,10,9,10,0.9,0.8
2025-05-16T1300,2632A,94.3681,29.6376,林芝市,林芝监测站,,35,6,6,3,5,111,,94,94,6,6,6,5,0.3,0.3
2025-05-16T1300,2633A,94.3616,29.6616,林芝市,林芝人民医院,,,6,6,3,3,114,,90,90,5,3,,6,0.4,0.1
2025-05-16T1300,2603A,100.0781,23.8982,临沧市,市环保局,,45,42,40,31,31,107,,62,62,7,9,6,6,0.6,0.7
2025-05-16T1300,2604A,100.0894,23.8822,临沧市,市气象局,,,30,32,17,26,118,,82,82,10,11,,8,0.5,0.6
2025-05-16T1300,1733A,111.5531,36.0783,临汾市,临钢医院,臭氧1小时,75,93,71,33,20,180,,106,106,11,19,9,7,0.8,0.6
2025-05-16T1300,1734A,111.5028,36.0714,临汾市,技工学校,臭氧1小时,80,70,63,32,29,184,,114,114,7,15,12,8,0.7,0.6
2025-05-16T1300,1736A,111.5018,36.0855,临汾市,市委,臭氧1小时,80,105,71,28,16,184,,121,121,15,20,11,11,0.9,0.8
2025-05-16T1300,3018A,111.505,36.1014,临汾市,唐尧大酒店,"颗粒物(PM10),臭氧1小时",73,95,70,30,20,178,,108,108,10,16,12,7,0.8,0.7
2025-05-16T1300,4244A,111.4879,36.0530,临汾市,启星学校,臭氧1小时,75,82,59,24,23,180,,111,111,11,17,10,7,0.7,0.7
2025-05-16T1300,4271A,103.2464,35.6123,临夏回族自治州,滨河东路1号,颗粒物(PM10),59,67,69,14,33,121,,52,52,7,25,10,7,0.3,0.4
2025-05-16T1300,4310A,103.2093,35.5995,临夏回族自治州,新华街21号,颗粒物(PM10),53,55,49,21,28,119,,62,62,11,21,8,6,0.3,0.3
2025-05-16T1300,1618A,118.3429,35.0532,临沂市,沂河小区,颗粒物(PM10),86,122,74,58,43,100,,77,72,15,15,6,4,0.5,0.5
2025-05-16T1300,1619A,118.295,35.0583,临沂市,鲁南制药厂,颗粒物(PM10),84,117,71,52,41,111,,76,76,22,39,7,5,0.6,0.6
2025-05-16T1300,1620A,118.2794,34.9976,临沂市,新光毛纺厂,细颗粒物(PM2.5),85,105,63,63,46,108,,74,72,21,22,9,7,0.5,0.5
2025-05-16T1300,1621A,118.3956,35.0888,临沂市,河东保险公司,细颗粒物(PM2.5),95,95,56,71,38,100,,73,72,16,13,7,5,0.6,0.6
2025-05-16T1300,3370A,118.3564,35.0215,临沂市,十里堡居委,细颗粒物(PM2.5),104,95,61,78,50,114,,81,76,19,20,8,6,0.7,0.7
2025-05-16T1300,3496A,118.3604,35.1084,临沂市,南坊新区,细颗粒物(PM2.5),89,95,56,66,39,99,,80,72,19,14,7,6,0.5,0.5
2025-05-16T1300,3860A,118.3920,35.0300,临沂市,皇山花园小区,细颗粒物(PM2.5),104,90,56,78,47,104,,82,77,22,21,8,7,0.8,0.7
2025-05-16T1300,1870A,109.4856,24.3895,柳州市,柳东小学,,21,17,19,13,12,66,,36,36,6,11,10,10,0.4,0.6
2025-05-16T1300,1871A,109.4157,24.3277,柳州市,环保监测站,,25,,22,17,14,59,,33,33,9,14,1,2,0.6,0.7
2025-05-16T1300,1872A,109.389,24.341,柳州市,河西水厂,,22,22,22,8,14,56,,33,33,7,13,4,4,0.5,0.5
2025-05-16T1300,1873A,109.4311,24.2921,柳州市,市四中,,24,24,24,12,15,56,,28,28,9,17,7,7,0.4,0.5
2025-05-16T1300,1874A,109.4006,24.3631,柳州市,市九中,,19,14,25,6,16,59,,32,32,8,14,8,8,0.5,0.6
2025-05-16T1300,1875A,109.4958,24.3134,柳州市,古亭山,,22,22,26,10,15,65,,32,32,6,14,6,6,0.9,0.8
2025-05-16T1300,3402A,109.5422,24.3996,柳州市,市二中,,40,40,21,12,14,59,,31,31,7,16,10,10,0.4,0.4
2025-05-16T1300,2307A,116.5079,31.737,六安市,监测大楼,,47,36,32,22,30,148,,103,103,11,11,1,1,0.5,0.5
2025-05-16T1300,2308A,116.4738,31.7643,六安市,皖西学院,,49,45,38,18,24,155,,105,105,4,10,4,5,0.3,0.4
2025-05-16T1300,2309A,116.4996,31.7905,六安市,朝阳厂,,45,39,35,20,27,144,,90,90,12,15,4,4,0.3,0.3
2025-05-16T1300,2310A,116.5567,31.7886,六安市,开发区,,50,45,47,33,35,159,,102,102,10,12,5,5,0.5,0.5
2025-05-16T1300,2577A,104.83,26.5917,六盘水市,黄土坡,,36,34,41,25,32,83,,70,69,15,18,10,9,0.6,0.6
2025-05-16T1300,2578A,104.89,26.5939,六盘水市,水钢,,39,39,41,22,29,88,,84,84,9,12,9,9,0.4,0.4
2025-05-16T1300,2579A,104.8475,26.5894,六盘水市,民中,,35,28,37,24,27,83,,76,76,9,14,9,8,0.4,0.5
2025-05-16T1300,2580A,104.9544,26.5506,六盘水市,双水,,34,34,31,18,21,88,,89,89,9,11,8,9,0.2,0.2
2025-05-16T1300,2336A,117.0217,25.1033,龙岩市,龙岩市监测站,,34,34,26,9,18,83,,70,70,6,14,3,10,0.4,0.5
2025-05-16T1300,2337A,117.0258,25.0661,龙岩市,闽西职业技术学院,,22,,28,10,19,70,,59,59,4,12,4,21,0.3,0.4
2025-05-16T1300,2338A,117.0196,25.0306,龙岩市,龙岩学院,,24,15,22,8,16,75,,67,67,3,6,8,7,0.4,0.4
2025-05-16T1300,2885A,104.9339,33.3826,陇南市,滨江中学,,48,48,56,26,28,92,,62,62,8,8,7,9,0.4,0.4
2025-05-16T1300,3247A,104.955,33.371,陇南市,市总工会,,,,55,,20,93,,72,68,7,6,6,8,,0.4
2025-05-16T1300,2487A,111.9589,27.8901,娄底市,电视发射台,,25,20,30,11,12,80,,53,53,3,2,6,5,0.6,0.6
2025-05-16T1300,2488A,111.9975,27.725,娄底市,市监测站,,41,41,30,24,21,83,,64,64,20,14,19,10,1.2,0.8
2025-05-16T1300,2489A,112.0194,27.7314,娄底市,市委党校,,46,40,20,32,18,82,,64,63,22,8,11,7,1.3,0.6
2025-05-16T1300,2490A,111.9561,27.7569,娄底市,涟钢,,34,34,29,14,20,91,,32,,7,11,7,5,0.5,0.7
2025-05-16T1300,2491A,111.9892,27.7044,娄底市,市政府,,30,26,22,9,18,96,,68,68,7,6,4,4,0.5,0.6
2025-05-16T1300,1893A,105.4324,28.9634,泸州市,九狮山,颗粒物(PM10),56,62,76,35,44,56,,55,55,29,22,7,5,0.4,0.4
2025-05-16T1300,1894A,105.4427,28.9063,泸州市,小市上码头,颗粒物(PM10),56,62,78,31,41,61,,61,61,24,26,4,4,0.5,0.5
2025-05-16T1300,1895A,105.4241,28.8573,泸州市,兰田宪桥,细颗粒物(PM2.5),57,62,82,40,47,60,,63,63,11,19,8,9,0.5,0.6
2025-05-16T1300,1896A,105.4379,28.8833,泸州市,市环监站,颗粒物(PM10),56,62,80,36,45,58,,66,66,15,21,12,13,0.3,0.4
2025-05-16T1300,4272A,105.3689,28.7783,泸州市,纳溪中医医院,颗粒物(PM10),64,77,82,41,49,54,,55,55,21,35,9,8,0.6,0.7
2025-05-16T1300,2183A,111.1406,37.5211,吕梁市,环保局,臭氧1小时,64,65,76,20,22,171,,96,96,8,23,6,4,0.5,0.6
2025-05-16T1300,2185A,111.1297,37.5136,吕梁市,自来水公司,颗粒物(PM10),61,72,84,30,27,153,,79,79,23,36,7,5,0.5,0.6
2025-05-16T1300,2867A,111.1283,37.51,吕梁市,马茂庄小学,颗粒物(PM10),62,73,81,28,25,153,,93,93,18,32,6,6,0.7,0.6
2025-05-16T1300,1812A,112.3931,34.6516,洛阳市,市委党校,颗粒物(PM10),52,53,52,28,28,146,,96,96,2,19,4,7,0.5,0.6
2025-05-16T1300,1815A,112.494,34.6886,洛阳市,河南林校,,,95,54,,28,159,,101,101,7,21,7,10,0.0,0.5
2025-05-16T1300,1816A,112.3844,34.623,洛阳市,开发区管委会,,47,42,50,21,27,150,,104,104,5,16,6,7,0.4,0.4
2025-05-16T1300,1817A,112.4267,34.6258,洛阳市,市委新办公区,,49,47,55,29,28,154,,107,107,6,20,7,9,0.3,0.3
2025-05-16T1300,3340A,112.6005,34.6326,洛阳市,伊滨,臭氧1小时,69,70,69,31,31,175,,112,112,10,22,7,8,0.6,0.6
2025-05-16T1300,3341A,112.4951,34.6332,洛阳市,中移产业园,臭氧1小时,65,58,59,25,29,172,,124,124,7,22,7,9,0.5,0.5
2025-05-16T1300,3593A,112.5736,34.8993,洛阳市,吉利监测站,臭氧1小时,77,60,51,32,21,181,,126,126,8,19,10,11,0.6,0.6
2025-05-16T1300,3635A,112.3677,34.662,洛阳市,河科大西苑校区,臭氧1小时,53,54,55,23,26,162,,108,108,3,21,7,12,0.4,0.5
2025-05-16T1300,3636A,112.4388,34.6781,洛阳市,英才小学,"颗粒物(PM10),臭氧1小时",55,59,59,23,24,164,,115,115,2,21,3,8,0.5,0.5
2025-05-16T1300,4214A,112.4600,34.6949,洛阳市,春都路1号院,臭氧1小时,59,57,56,22,25,167,,103,103,10,28,2,7,0.3,0.4
2025-05-16T1300,2399A,114.051,33.5699,漯河市,三五一五工厂,,47,27,83,19,62,150,,100,100,4,13,4,6,0.5,0.8
2025-05-16T1300,2400A,114.0055,33.5698,漯河市,漯河大学,,50,46,92,17,60,158,,,,6,16,3,7,0.3,0.7
2025-05-16T1300,2401A,114.0138,33.5828,漯河市,市水利局,,49,34,108,19,58,154,,107,107,5,11,4,6,0.4,0.8
2025-05-16T1300,2402A,114.0261,33.5698,漯河市,市广电局,,47,34,95,11,66,149,,101,101,6,16,2,4,0.4,0.7
2025-05-16T1300,3478A,113.9749,33.5664,漯河市,市图书馆,,48,43,112,22,71,153,,103,103,7,17,5,6,0.3,0.7
2025-05-16T1300,4250A,114.0892,33.5882,漯河市,韶山路11号,,47,43,107,23,63,150,,102,102,5,13,4,5,0.6,1
2025-05-16T1300,1798A,118.5092,31.6837,马鞍山市,湖东路四小,,36,34,38,16,34,113,,112,107,15,14,6,6,0.8,0.7
2025-05-16T1300,1799A,118.5024,31.6449,马鞍山市,开发区,,35,18,38,17,26,109,,114,107,28,20,9,9,1.3,0.9
2025-05-16T1300,1802A,118.6245,31.7241,马鞍山市,濮塘,,37,23,40,12,29,118,,103,103,7,10,7,7,0.8,0.8
2025-05-16T1300,3633A,118.4918,31.6809,马鞍山市,雨山,,33,,38,20,26,105,,112,104,20,15,6,7,1.2,0.9
2025-05-16T1300,4191A,118.5274,31.72227,马鞍山市,慈湖高新区,,36,28,48,22,37,114,,106,102,23,19,7,6,0.9,0.6
2025-05-16T1300,1686A,111.0286,21.4688,茂名市,电白南海,,18,14,19,9,12,57,,49,49,4,7,2,2,0.5,0.5
2025-05-16T1300,1687A,110.9294,21.6533,茂名市,茂石化七小,,17,14,20,7,8,52,,34,34,4,9,1,2,0.5,0.5
2025-05-16T1300,1688A,110.9107,21.6687,茂名市,健康路,,18,7,11,3,5,56,,38,38,4,8,3,2,0.4,0.4
2025-05-16T1300,1689A,110.8592,21.6828,茂名市,高岭,,22,22,28,3,5,49,,37,37,6,11,5,3,0.4,0.4
2025-05-16T1300,3450A,111.01,21.5165,茂名市,电白水东,,17,6,11,3,4,52,,47,46,7,8,3,2,0.4,0.4
2025-05-16T1300,2539A,104.0308,30.0478,眉山市,黑龙滩水库,,38,38,53,15,23,100,,87,87,6,12,1,3,0.4,0.5
2025-05-16T1300,2540A,103.8416,30.0874,眉山市,气象局,颗粒物(PM10),53,55,61,22,31,83,,74,74,22,23,3,4,0.4,0.4
2025-05-16T1300,3137A,103.8578,30.0744,眉山市,市委党校,,46,46,59,22,28,82,,71,71,16,22,10,12,0.4,0.4
2025-05-16T1300,3148A,103.8291,30.0564,眉山市,区人社局,,37,37,51,17,27,86,,71,70,19,26,12,14,0.4,0.5
2025-05-16T1300,1690A,116.1231,24.3284,梅州市,梅江月梅,,24,16,25,10,20,76,,52,52,1,9,4,9,0.5,0.6
2025-05-16T1300,1691A,116.0797,24.2719,梅州市,梅县新城,,25,22,26,12,19,77,,61,61,4,10,6,6,0.5,0.6
2025-05-16T1300,1692A,116.1248,24.2654,梅州市,环境监控中心,,23,19,27,15,19,72,,47,47,7,16,7,7,0.6,0.7
2025-05-16T1300,3315A,116.1233,24.2991,梅州市,梅龙,,21,14,24,8,15,67,,45,45,1,7,6,8,0.5,0.6
2025-05-16T1300,1878A,104.7778,31.4741,绵阳市,富乐山,细颗粒物(PM2.5),179,169,123,135,97,194,,84,84,25,18,14,10,0.9,0.8
2025-05-16T1300,1880A,104.6697,31.4668,绵阳市,高新区自来水公司,细颗粒物(PM2.5),119,156,106,90,64,166,,68,68,27,39,8,5,0.9,0.7
2025-05-16T1300,1881A,104.7287,31.5075,绵阳市,三水厂,细颗粒物(PM2.5),163,,131,124,62,197,,73,73,28,34,12,9,1.1,0.8
2025-05-16T1300,3491A,104.69,31.5322,绵阳市,西科大附属小学,细颗粒物(PM2.5),156,179,113,119,65,181,,71,71,26,36,11,8,0.9,0.6
2025-05-16T1300,3492A,104.5648,31.5343,绵阳市,安州区旅游局,细颗粒物(PM2.5),140,148,80,107,47,163,,89,89,22,20,14,11,1.1,0.8
2025-05-16T1300,4226A,104.7651,31.4531,绵阳市,绵阳市气象局,细颗粒物(PM2.5),147,152,121,112,86,182,,76,76,24,24,10,9,1.0,0.8
2025-05-16T1300,1784A,129.61,44.561,牡丹江市,环保大楼,,36,21,21,9,15,114,,93,93,9,10,6,6,0.3,0.3
2025-05-16T1300,1785A,129.6115,44.5782,牡丹江市,文化广场,,37,22,24,13,15,116,,94,94,12,13,10,9,0.4,0.4
2025-05-16T1300,1786A,129.5904,44.5963,牡丹江市,第一医院,,39,16,22,12,16,123,,98,98,11,14,8,6,0.4,0.4
2025-05-16T1300,1787A,129.6364,44.6075,牡丹江市,机车工厂,,36,34,24,7,11,113,,92,92,11,11,8,6,0.3,0.3
2025-05-16T1300,1788A,129.6386,44.5462,牡丹江市,第一中学,,37,21,21,11,13,116,,97,97,9,11,2,2,0.3,0.2
2025-05-16T1300,2531A,105.0703,29.61,内江市,市监测站,细颗粒物(PM2.5),55,44,63,39,52,87,,77,72,11,18,5,6,0.9,0.9
2025-05-16T1300,2532A,105.0717,29.5947,内江市,东兴区政府,颗粒物(PM10),51,52,67,33,46,80,,68,64,13,19,11,13,0.6,0.7
2025-05-16T1300,2533A,105.0653,29.5817,内江市,内江二中,细颗粒物(PM2.5),59,60,75,42,57,79,,61,59,16,18,7,9,0.5,0.6
2025-05-16T1300,2534A,105.0406,29.5822,内江市,内江日报社,细颗粒物(PM2.5),64,55,74,46,62,70,,56,54,11,17,6,7,0.6,0.6
2025-05-16T1300,2628A,92.0657,31.4846,那曲市,那曲监测站,,36,36,21,19,15,112,,97,90,22,18,8,7,0.5,0.5
2025-05-16T1300,4243A,92.0515,31.4787,那曲市,那曲市委宣传部,,34,13,12,9,8,106,,106,94,13,13,4,9,0.4,0.5
2025-05-16T1300,1290A,115.8931,28.6843,南昌市,省外办,,32,32,48,19,41,84,,65,65,18,20,3,6,0.7,0.8
2025-05-16T1300,1291A,115.8886,28.7003,南昌市,省林业公司,,,,40,29,39,86,,71,71,15,13,,9,0.9,1
2025-05-16T1300,1292A,115.8126,28.7442,南昌市,林科所,,29,22,36,19,35,91,,58,58,6,12,4,4,0.7,0.6
2025-05-16T1300,1294A,115.8518,28.687,南昌市,建工学校,,31,31,46,14,34,78,,62,62,16,21,5,4,0.7,0.8
2025-05-16T1300,1295A,115.8921,28.6424,南昌市,象湖,,27,24,38,17,32,85,,65,65,13,16,7,7,0.8,0.9
2025-05-16T1300,1296A,115.7423,28.7996,南昌市,武术学校,,30,,33,21,36,75,,44,44,10,6,6,6,0.7,0.8
2025-05-16T1300,3046A,115.9084,28.6062,南昌市,机电学校,,33,33,42,19,33,84,,65,65,17,19,5,4,0.6,0.6
2025-05-16T1300,3690A,115.9721,28.7031,南昌市,外国语学校,,35,35,49,15,41,74,,67,67,10,20,6,6,0.8,0.9
2025-05-16T1300,4192A,115.9316,28.68677,南昌市,南京东路235号,,29,29,58,19,42,86,,69,69,10,12,3,3,0.9,1
2025-05-16T1300,1906A,106.0789,30.8023,南充市,南充市委,细颗粒物(PM2.5),98,91,85,73,69,153,,76,76,14,19,9,7,0.7,0.6
2025-05-16T1300,1907A,106.1031,30.8217,南充市,南充炼油厂,细颗粒物(PM2.5),98,98,81,73,62,154,,73,73,13,16,10,7,0.6,0.5
2025-05-16T1300,4227A,106.1083,30.7884,南充市,梨树横街98号,细颗粒物(PM2.5),80,96,84,59,54,145,,77,77,11,15,8,5,0.5,0.5
2025-05-16T1300,4304A,106.1172,30.843,南充市,清泉寺北路188号,细颗粒物(PM2.5),90,108,80,67,71,156,,67,67,14,15,9,6,0.5,0.5
2025-05-16T1300,4305A,106.067,30.7616,南充市,同庆路1号,细颗粒物(PM2.5),89,99,74,66,59,130,,72,72,11,21,9,6,0.4,0.4
2025-05-16T1300,1151A,118.8086,32.1065,南京市,迈皋桥,,,23,49,12,36,150,,122,122,13,31,,4,0.3,0.4
2025-05-16T1300,1152A,118.7538,32.0551,南京市,草场门,,,19,45,17,36,145,,121,121,,26,1,2,0.3,0.4
2025-05-16T1300,1153A,118.7794,32.0745,南京市,山西路,,49,29,49,12,37,155,,123,123,16,31,4,4,0.4,0.4
2025-05-16T1300,1154A,118.7752,32.0023,南京市,中华门,,41,,32,19,30,130,,107,107,8,15,4,4,0.5,0.4
2025-05-16T1300,1155A,118.8109,32.0309,南京市,瑞金路,,43,24,42,14,33,137,,111,111,17,23,6,6,0.1,0.2
2025-05-16T1300,1156A,118.7997,32.0754,南京市,玄武湖,,41,28,48,19,31,131,,108,108,10,14,4,4,0.4,0.5
2025-05-16T1300,1157A,118.6414,32.0931,南京市,浦口,,42,15,39,11,28,134,,119,119,13,25,2,3,1.0,1
2025-05-16T1300,1158A,118.7356,31.9996,南京市,奥体中心,,46,16,40,14,31,145,,121,120,16,22,3,4,0.4,0.5
2025-05-16T1300,1159A,118.9125,32.1028,南京市,仙林大学城,,43,29,48,17,37,137,,111,111,18,23,10,10,0.6,0.6
2025-05-16T1300,3422A,118.8436,31.9198,南京市,江宁彩虹桥,,48,18,37,9,30,151,,118,118,6,23,3,4,0.4,0.5
2025-05-16T1300,3427A,118.8554,32.3578,南京市,六合雄州,,41,9,64,7,37,131,,121,121,16,32,5,6,0.4,0.7
2025-05-16T1300,4249A,118.8708,31.3402,南京市,汶溪路181号,,,7,27,,29,118,,109,102,12,18,2,2,0.6,0.7
2025-05-16T1300,4312A,119.019,31.6512,南京市,中山西路1号,,41,14,30,8,26,131,,105,103,4,7,8,7,0.5,0.7
2025-05-16T1300,1401A,108.3103,22.7881,南宁市,二十一中,,22,15,22,12,12,69,,43,43,6,11,1,2,0.5,0.6
2025-05-16T1300,1402A,108.3141,22.8528,南宁市,北湖,,23,,18,6,10,71,,44,44,8,10,4,4,0.5,0.6
2025-05-16T1300,1403A,108.3206,22.8225,南宁市,市监测站,,21,15,15,8,9,67,,42,42,5,8,1,2,0.5,0.5
2025-05-16T1300,1404A,108.3829,22.8037,南宁市,大自然花园,,22,17,16,10,12,69,,44,44,4,7,4,5,0.5,0.5
2025-05-16T1300,1405A,108.4394,22.7904,南宁市,仙葫,,,,15,,10,75,,41,41,6,7,,6,0.7,0.6
2025-05-16T1300,1406A,108.2397,22.8467,南宁市,区农职院,,25,,19,6,10,79,,81,81,11,14,3,4,0.9,0.9
2025-05-16T1300,1407A,108.3275,22.735,南宁市,英华嘉园,,24,24,18,10,10,70,,38,38,6,13,6,7,0.4,0.5
2025-05-16T1300,3401A,108.4834,22.7618,南宁市,红星社区,,32,27,16,22,10,75,,46,46,3,6,8,8,0.6,0.4
2025-05-16T1300,4221A,108.2177,22.7774,南宁市,乐贤路16号,,20,,18,14,12,63,,31,31,6,13,4,4,0.4,0.6
2025-05-16T1300,2332A,118.1681,26.6369,南平市,南平市监测站,细颗粒物(PM2.5),68,54,36,49,29,78,,53,53,17,12,4,4,1.2,0.8
2025-05-16T1300,2333A,118.1825,26.6489,南平市,南平铝业有限公司,细颗粒物(PM2.5),60,62,39,43,28,91,,55,55,13,13,4,5,1.0,0.8
2025-05-16T1300,2334A,118.1756,26.6272,南平市,南平七中,颗粒物(PM10),55,60,38,36,25,68,,48,48,9,8,4,4,0.9,0.8
2025-05-16T1300,1168A,120.9098,31.9663,南通市,狼山街道,,31,,30,3,22,99,,73,73,12,28,3,4,0.6,0.7
2025-05-16T1300,1169A,120.86,32.0005,南通市,虹桥,,31,11,34,7,26,98,,72,72,12,26,1,2,0.4,0.6
2025-05-16T1300,1170A,120.87,32.02,南通市,城中,,32,8,40,3,21,100,,75,75,12,24,3,4,0.4,0.6
2025-05-16T1300,1171A,120.94,31.93,南通市,星湖花园,,30,,31,7,23,95,,68,68,9,27,2,3,0.4,0.5
2025-05-16T1300,1172A,120.81,32.0417,南通市,紫琅学院,,30,8,34,3,20,95,,78,78,14,22,4,5,0.4,0.5
2025-05-16T1300,3291A,121.067,32.062,南通市,通州监测站,,33,9,34,3,17,104,,79,79,5,11,4,5,0.6,0.7
2025-05-16T1300,3432A,120.9348,31.9883,南通市,环境教育馆,,32,12,39,3,24,102,,46,,10,19,2,3,0.2,0.3
2025-05-16T1300,2404A,112.5224,33.0122,南阳市,瓦房庄,颗粒物(PM10),56,61,76,30,37,150,,90,90,8,15,6,6,0.4,0.5
2025-05-16T1300,2406A,112.5573,33.027,南阳市,气象站,,,56,75,27,41,150,,62,,,12,6,6,0.4,0.5
2025-05-16T1300,2407A,112.5481,32.9689,南阳市,理工学院,,49,49,67,28,37,146,,96,96,4,13,5,5,0.4,0.5
2025-05-16T1300,4008A,112.5234,32.9922,南阳市,卧龙区政府,颗粒物(PM10),51,52,71,32,44,150,,88,88,7,16,5,5,0.4,0.5
2025-05-16T1300,1234A,121.8358,29.911,宁波市,区环保大楼,,28,20,22,10,9,87,,76,76,6,13,8,8,0.4,0.3
2025-05-16T1300,1235A,121.56,29.82,宁波市,万里学院,,29,,23,20,14,68,,,,15,13,6,4,0.5,0.4
2025-05-16T1300,1236A,121.713,29.9572,宁波市,龙赛医院,,28,23,24,10,11,88,,70,70,6,8,7,6,0.4,0.3
2025-05-16T1300,1239A,121.633,29.7733,宁波市,钱湖水厂,,19,19,16,7,6,59,,58,56,4,4,8,8,0.5,0.4
2025-05-16T1300,1240A,121.5856,29.8635,宁波市,太古小学,,29,29,21,11,8,72,,59,59,12,10,7,6,0.7,0.5
2025-05-16T1300,1241A,121.524,29.8674,宁波市,市环境监测中心,,22,20,24,7,11,69,,53,51,15,18,10,11,0.5,0.5
2025-05-16T1300,2871A,121.6147,29.9017,宁波市,万里国际学校,,25,22,18,13,11,80,,66,66,13,9,7,6,0.7,0.6
2025-05-16T1300,3710A,121.5594,29.8975,宁波市,白沙活动中心,,22,16,16,12,10,70,,59,59,8,6,8,8,0.5,0.4
2025-05-16T1300,2341A,119.5388,26.6612,宁德市,宁德市监测站,颗粒物(PM10),52,53,33,25,20,110,,80,80,14,12,5,6,0.6,0.5
2025-05-16T1300,3209A,119.5231,26.6562,宁德市,宁德一中,细颗粒物(PM2.5),64,53,37,46,28,110,,78,78,10,9,4,5,0.7,0.6
2025-05-16T1300,2618A,98.8601,25.8567,怒江傈僳族自治州,州监测站,,44,44,40,24,23,84,,51,51,9,10,10,10,0.4,0.4
2025-05-16T1300,2619A,98.8546,25.8417,怒江傈僳族自治州,泸水一中,细颗粒物(PM2.5),54,49,36,38,22,65,,32,32,12,17,7,7,0.3,0.4
2025-05-16T1300,1888A,101.6891,26.571,攀枝花市,弄弄坪,,40,25,38,23,22,125,,71,71,11,16,12,10,0.6,0.7
2025-05-16T1300,1889A,101.5769,26.5928,攀枝花市,河门口,,40,33,44,18,27,128,,56,56,10,19,13,12,1.1,1
2025-05-16T1300,1890A,101.7169,26.585,攀枝花市,炳草岗,,40,28,40,16,24,126,,69,69,9,22,13,9,0.6,0.8
2025-05-16T1300,1891A,101.7369,26.5008,攀枝花市,仁和,,45,39,37,26,25,141,,77,77,10,15,18,12,0.6,0.7
2025-05-16T1300,2835A,101.7227,26.567,攀枝花市,四十中小,,42,30,30,17,19,133,,88,88,8,17,13,10,0.7,1
2025-05-16T1300,1604A,122.0303,41.1489,盘锦市,开发区,,,39,40,8,24,133,,123,123,,11,9,10,0.3,0.4
2025-05-16T1300,1605A,122.0485,41.0883,盘锦市,兴隆台,,40,24,34,3,21,126,,113,113,9,15,7,8,0.3,0.5
2025-05-16T1300,1606A,121.8297,41.1028,盘锦市,新生街道,,44,16,29,6,24,139,,115,115,10,15,8,8,0.4,0.5
2025-05-16T1300,1832A,113.3257,33.742,平顶山市,新华旅馆,颗粒物(PM10),54,57,77,24,36,160,,109,109,8,14,5,6,0.5,0.6
2025-05-16T1300,1833A,113.2919,33.737,平顶山市,规划设计院,颗粒物(PM10),51,52,79,26,48,159,,112,112,8,16,5,5,0.5,0.6
2025-05-16T1300,1834A,113.182,33.774,平顶山市,平顶山工学院,,,61,79,22,44,154,,112,112,,11,3,4,0.4,0.4
2025-05-16T1300,3204A,113.3025,33.73,平顶山市,规划局,颗粒物(PM10),52,53,73,21,37,155,,115,115,5,11,6,6,0.4,0.5
2025-05-16T1300,3594A,112.8867,33.9116,平顶山市,石龙区,,50,50,83,21,42,160,,116,116,8,24,7,9,0.4,0.6
2025-05-16T1300,2656A,106.6692,35.5461,平凉市,聚贤嘉苑,细颗粒物(PM2.5),80,62,79,59,36,131,,75,75,3,26,8,9,0.5,0.6
2025-05-16T1300,2657A,106.7021,35.5307,平凉市,博物馆,颗粒物(PM10),54,57,78,17,25,129,,68,68,4,22,10,10,0.3,0.5
2025-05-16T1300,2347A,114.0997,27.5002,萍乡市,武功山,,20,6,4,3,4,61,,54,54,7,6,17,16,1.0,0.9
2025-05-16T1300,2348A,113.8385,27.6434,萍乡市,中医院,,44,44,30,29,27,62,,62,59,17,9,14,9,1.3,1
2025-05-16T1300,2349A,113.8493,27.6253,萍乡市,市政府车库,细颗粒物(PM2.5),59,45,20,42,23,57,,59,57,21,12,8,5,1.1,0.7
2025-05-16T1300,2350A,113.8676,27.6435,萍乡市,市环保局,,45,45,24,30,21,68,,67,64,18,12,10,5,1.2,0.9
2025-05-16T1300,2351A,113.866,27.6198,萍乡市,安源区政府,,35,35,24,18,15,55,,56,56,16,11,6,4,0.9,0.7
2025-05-16T1300,2319A,119.0141,25.4325,莆田市,荔城区仓后路,,34,27,43,3,19,107,,64,64,9,17,4,6,0.4,0.5
2025-05-16T1300,2320A,119.0015,25.4553,莆田市,莆田市监测站,,35,34,29,3,19,110,,62,62,5,11,5,6,0.4,0.5
2025-05-16T1300,2321A,119.1119,25.4561,莆田市,涵江区六中,,37,31,35,3,21,117,,66,66,10,18,3,6,0.3,0.4
2025-05-16T1300,2322A,119.1013,25.3215,莆田市,秀屿区政府,,33,22,29,3,16,105,,69,69,6,11,6,6,0.5,0.4
2025-05-16T1300,2392A,115.0312,35.7636,濮阳市,环保局,细颗粒物(PM2.5),77,89,64,56,49,150,,106,106,10,15,6,7,0.7,0.7
2025-05-16T1300,2394A,115.0574,35.7609,濮阳市,油田运输公司,细颗粒物(PM2.5),84,107,89,62,50,156,,103,103,9,14,7,12,1.0,0.9
2025-05-16T1300,3021A,115,35.7668,濮阳市,濮水河管理处,细颗粒物(PM2.5),77,96,81,56,51,152,,111,111,10,16,6,6,0.9,0.8
2025-05-16T1300,4216A,115.0924,35.7686,濮阳市,任丘路479号,细颗粒物(PM2.5),83,108,95,61,57,158,,103,103,13,21,7,7,1.0,0.8
2025-05-16T1300,2601A,100.98,22.7633,普洱市,市环保局,,33,33,27,6,14,70,,52,52,3,2,7,7,0.5,0.4
2025-05-16T1300,2602A,100.9817,22.8322,普洱市,普洱第二中学,,23,21,14,12,16,73,,51,51,6,6,4,5,0.5,0.5
2025-05-16T1300,2262A,131.0518,45.8751,七台河市,新一中,,29,25,26,14,15,90,,95,92,8,10,9,10,0.7,0.8
2025-05-16T1300,3345A,131.0577,45.7879,七台河市,中波台,,,23,18,9,9,76,,75,,,11,5,7,0.3,0.3
2025-05-16T1300,3637A,131.0176,45.7761,七台河市,人民广场,,42,39,34,29,22,88,,87,83,9,10,11,11,0.4,0.5
2025-05-16T1300,3684A,130.8781,45.8222,七台河市,新建矿广场,颗粒物(PM10),67,83,37,12,13,68,,79,77,23,10,10,9,0.5,0.6
2025-05-16T1300,1779A,123.9305,47.3636,齐齐哈尔市,安居小区,细颗粒物(PM2.5),90,,67,67,42,83,,67,67,12,10,2,4,0.6,0.5
2025-05-16T1300,1780A,123.9488,47.3386,齐齐哈尔市,中心广场,细颗粒物(PM2.5),89,90,71,66,44,86,,69,68,8,8,5,4,0.4,0.4
2025-05-16T1300,1781A,123.9483,47.3227,齐齐哈尔市,农牧车辆厂,细颗粒物(PM2.5),83,75,60,61,35,76,,66,66,12,9,5,5,0.4,0.4
2025-05-16T1300,1783A,123.945,47.2988,齐齐哈尔市,市环境监测站,细颗粒物(PM2.5),89,76,66,66,45,83,,66,66,10,10,3,3,0.4,0.4
2025-05-16T1300,3662A,123.6333,47.2075,齐齐哈尔市,富区青少年活动中心,细颗粒物(PM2.5),110,87,76,83,63,78,,64,64,12,11,6,3,0.8,0.6
2025-05-16T1300,2591A,107.9783,26.5747,黔东南苗族侗族自治州,市环境监测站,,33,25,27,23,24,67,,67,61,7,8,3,3,0.5,0.5
2025-05-16T1300,2881A,107.8908,26.5311,黔东南苗族侗族自治州,凯里学院,,28,,20,19,25,87,,72,72,5,6,2,2,0.4,0.4
2025-05-16T1300,2593A,107.5228,26.2403,黔南布依族苗族自治州,小围寨,,23,12,25,9,18,73,,46,46,5,7,1,2,0.3,0.3
2025-05-16T1300,3538A,107.5175,26.2978,黔南布依族苗族自治州,沙坝,,,,30,9,20,78,,50,50,4,7,3,3,,0.4
2025-05-16T1300,2589A,104.9022,25.0925,黔西南布依族苗族自治州,场坝街,,33,31,45,23,32,79,,78,75,6,7,2,3,0.3,0.3
2025-05-16T1300,2590A,104.8811,25.0992,黔西南布依族苗族自治州,坪东大道,,34,34,42,23,28,69,,68,66,10,10,2,4,0.4,0.2
2025-05-16T1300,2502A,108.6236,21.9667,钦州市,市环保站,,21,12,11,3,5,65,,42,42,11,16,2,2,0.4,0.5
2025-05-16T1300,2503A,108.6549,21.9481,钦州市,沙埠小学,,24,24,19,9,8,61,,43,43,13,18,6,5,0.5,0.4
2025-05-16T1300,2504A,108.5989,21.7431,钦州市,港区一小,,20,12,25,10,11,62,,53,53,10,20,7,7,0.4,0.5
2025-05-16T1300,3404A,108.5959,21.9633,钦州市,北职校,,19,6,18,3,9,59,,33,33,5,19,6,7,0.4,0.5
2025-05-16T1300,1043A,119.7493,40.0116,秦皇岛市,第一关,,45,33,42,31,32,111,,85,85,13,28,4,5,0.3,0.3
2025-05-16T1300,1044A,119.5897,39.9499,秦皇岛市,监测站,颗粒物(PM10),51,51,54,33,23,115,,83,83,14,22,3,5,0.4,0.4
2025-05-16T1300,1046A,119.5251,39.9041,秦皇岛市,建设大厦,,45,40,55,31,26,110,,73,73,14,28,3,6,0.3,0.4
2025-05-16T1300,3132A,119.610547,39.943889,秦皇岛市,文明里,,45,36,52,31,24,118,,84,84,7,22,2,4,0.3,0.3
2025-05-16T1300,4198A,119.5090,39.8253,秦皇岛市,北戴河轮滑馆,,42,39,40,29,24,108,,81,81,18,19,2,3,0.4,0.3
2025-05-16T1300,1307A,120.6659,36.2403,青岛市,仰口,,31,,18,12,20,99,,108,101,6,8,8,7,0.4,0.4
2025-05-16T1300,1310A,120.4134,36.0658,青岛市,市南区东部子站,,33,,17,9,14,105,,111,107,3,4,6,6,0.3,0.3
2025-05-16T1300,1311A,120.3664,36.1032,青岛市,四方区子站,,35,12,24,7,17,109,,113,108,7,12,6,5,0.6,0.7
2025-05-16T1300,1312A,120.2994,36.054,青岛市,市南区西部子站,,34,,14,3,12,106,,112,109,11,13,6,7,0.7,0.7
2025-05-16T1300,1313A,120.4581,36.0858,青岛市,崂山区子站,,34,,15,3,11,107,,119,113,8,6,8,7,0.4,0.4
2025-05-16T1300,1315A,120.3999,36.3083,青岛市,城阳区子站,,48,48,41,24,20,132,,103,103,22,23,5,4,0.6,0.5
2025-05-16T1300,1966A,120.0405,35.8735,青岛市,黄岛区4号,,36,7,18,3,9,113,,117,113,11,14,8,7,0.6,0.7
2025-05-16T1300,3362A,120.5014,36.4034,青岛市,即墨2号,,33,14,25,9,22,103,,98,93,7,11,6,6,0.6,0.6
2025-05-16T1300,3643A,120.3948,36.1805,青岛市,李沧区北部,,32,31,32,9,20,100,,90,86,15,24,8,8,0.5,0.6
2025-05-16T1300,4290A,120.1969,35.9546,青岛市,珠江路669号,,33,6,17,3,16,103,,112,109,6,7,6,6,0.6,0.6
2025-05-16T1300,1702A,113.0426,23.691,清远市,环保大楼,,23,22,19,16,17,47,,32,28,23,20,6,6,0.7,0.6
2025-05-16T1300,1703A,113.0208,23.7106,清远市,凤城街办,,31,31,28,14,14,46,,28,23,26,25,6,6,0.5,0.5
2025-05-16T1300,3025A,113.0477,23.6344,清远市,技师学院,,28,28,29,15,13,47,,31,31,19,20,6,7,0.3,0.3
2025-05-16T1300,3318A,112.9903,23.7403,清远市,清新太和,,28,28,26,15,12,66,,31,31,14,17,8,8,0.4,0.5
2025-05-16T1300,3455A,113.076,23.7198,清远市,清城东城,,30,30,31,12,13,40,,22,22,19,19,7,8,0.7,0.6
2025-05-16T1300,2661A,107.6325,35.7357,庆阳市,庆阳五中,颗粒物(PM10),56,61,67,27,33,113,,117,111,5,7,4,5,0.5,0.5
2025-05-16T1300,2662A,107.6364,35.7067,庆阳市,市环保局,颗粒物(PM10),55,59,66,19,30,123,,119,114,3,8,7,8,0.4,0.5
2025-05-16T1300,1916A,103.7897,25.5035,曲靖市,环境监测站,,34,23,32,9,17,108,,62,62,8,14,2,4,0.6,0.7
2025-05-16T1300,1917A,103.8,25.5364,曲靖市,烟厂办公区,,35,20,30,15,17,109,,66,66,6,10,4,4,0.5,0.6
2025-05-16T1300,3376A,103.7947,25.462,曲靖市,南苑二区,,35,13,31,13,18,110,,67,67,6,11,4,5,0.6,0.8
2025-05-16T1300,3377A,103.7444,25.5261,曲靖市,曲靖师范学院,,38,20,26,12,24,121,,71,71,6,8,6,6,0.4,0.5
2025-05-16T1300,1264A,118.8692,28.9398,衢州市,环保大楼,,39,34,78,27,54,66,,47,47,8,25,3,4,0.6,0.7
2025-05-16T1300,1265A,118.8709,28.9666,衢州市,实验学校,,22,21,67,15,58,66,,46,46,7,23,3,2,0.5,0.6
2025-05-16T1300,1266A,118.8621,28.9808,衢州市,衢州学院,,30,,60,21,48,64,,46,46,9,28,4,5,0.4,0.5
2025-05-16T1300,1611A,118.5819,24.9117,泉州市,涂山街,,36,36,34,7,13,92,,53,53,4,20,5,8,0.4,0.5
2025-05-16T1300,1612A,118.5972,24.8978,泉州市,津头埔,,31,31,32,7,14,88,,49,49,7,22,3,4,0.5,0.6
2025-05-16T1300,1613A,118.6663,24.9424,泉州市,万安,,35,35,30,6,15,82,,45,45,5,19,4,4,0.5,0.6
2025-05-16T1300,3529A,118.6333,24.9264,泉州市,城华南路,,26,21,27,7,13,83,,47,47,7,21,4,5,0.4,0.5
2025-05-16T1300,2626A,88.8876,29.2718,日喀则市,日喀则监测站,,48,18,16,8,7,151,,125,125,5,6,8,9,0.3,0.3
2025-05-16T1300,3726A,88.8781,29.2426,日喀则市,林业技术推广中心,,48,15,22,3,7,151,,129,129,3,3,7,7,0.0,0.1
2025-05-16T1300,1659A,119.471,35.4209,日照市,监测站,细颗粒物(PM2.5),70,70,38,51,31,89,,103,84,34,20,9,5,1.2,0.7
2025-05-16T1300,1660A,119.523,35.4216,日照市,市政府广场,颗粒物(PM10),51,51,36,26,26,82,,96,80,25,11,6,4,0.8,0.6
2025-05-16T1300,1661A,119.5587,35.4044,日照市,港务局,,34,27,25,20,30,108,,114,106,9,7,7,5,0.7,0.6
2025-05-16T1300,3507A,119.5328,35.4625,日照市,职业技术学院,,36,36,35,12,22,104,,107,98,16,11,5,4,0.7,0.6
2025-05-16T1300,3604A,119.3266,35.1044,日照市,岚山环保分局,,40,39,38,28,28,103,,93,86,18,22,5,6,0.7,0.7
2025-05-16T1300,1835A,111.1922,34.7752,三门峡市,市政府,臭氧1小时,79,66,55,30,31,183,,138,138,13,20,13,8,0.7,0.7
2025-05-16T1300,1836A,111.1587,34.7942,三门峡市,开发区,细颗粒物(PM2.5),55,53,60,39,35,155,,120,120,11,15,9,10,0.5,0.6
2025-05-16T1300,3039A,111.1911,34.7829,三门峡市,三门峡市第一小学,臭氧1小时,83,86,59,33,24,186,,141,141,12,16,15,10,0.6,0.6
2025-05-16T1300,3598A,111.1,34.7167,三门峡市,富达温泉假日酒店,颗粒物(PM10),61,72,69,21,27,160,,118,118,10,17,9,8,0.2,0.3
2025-05-16T1300,2324A,117.6211,26.2625,三明市,三钢,颗粒物(PM10),59,67,37,35,24,95,,59,59,17,18,17,11,3.8,1.6
2025-05-16T1300,2325A,117.635,26.2714,三明市,三明二中,颗粒物(PM10),53,56,30,32,27,95,,56,56,11,13,10,7,1.2,0.9
2025-05-16T1300,2326A,117.6028,26.2378,三明市,三元区政府,颗粒物(PM10),56,61,37,38,27,93,,58,58,10,14,4,4,0.8,0.8
2025-05-16T1300,1876A,109.5078,18.2489,三亚市,河东子站,,14,6,9,3,6,44,,33,33,2,5,3,3,0.6,0.5
2025-05-16T1300,1877A,109.4964,18.2681,三亚市,河西子站,,15,6,10,3,6,47,,34,34,2,8,2,2,0.2,0.2
2025-05-16T1300,3540A,109.7348,18.3443,三亚市,君悦子站,,17,6,15,3,5,54,,38,38,3,9,3,3,0.3,0.3
2025-05-16T1300,2624A,91.7608,29.2313,山南市,山南监测站,,40,8,10,3,3,127,,121,112,3,4,3,3,0.4,0.4
2025-05-16T1300,2625A,91.7706,29.2436,山南市,山南人民医院,,39,20,17,9,11,124,,116,105,6,6,5,5,0.5,0.5
2025-05-16T1300,1674A,116.6794,23.3667,汕头市,金平子站,,19,17,16,6,11,60,,73,64,4,7,4,4,0.4,0.6
2025-05-16T1300,1675A,116.7244,23.3633,汕头市,龙湖子站,,22,22,17,3,6,54,,78,66,1,3,4,5,0.3,0.4
2025-05-16T1300,1676A,116.7258,23.2775,汕头市,濠江子站,,19,19,18,6,12,43,,76,62,1,6,4,4,0.5,0.5
2025-05-16T1300,1677A,116.7519,23.4714,汕头市,澄海子站,,,,20,10,14,52,,66,64,5,7,2,2,0.5,0.6
2025-05-16T1300,1678A,116.6092,23.2539,汕头市,潮阳子站,,17,16,20,8,13,54,,77,65,3,6,8,8,0.4,0.5
2025-05-16T1300,3444A,116.454,23.2684,汕头市,潮南峡山,,20,6,19,3,11,62,,70,67,2,7,5,5,0.5,0.6
2025-05-16T1300,3624A,116.4069,23.2533,汕头市,潮南子站,,20,16,20,3,10,63,,66,63,5,5,4,5,0.5,0.5
2025-05-16T1300,1693A,115.3653,22.775,汕尾市,市环保局,,16,14,14,3,7,49,,66,58,2,3,6,6,0.5,0.6
2025-05-16T1300,1694A,115.3706,22.7898,汕尾市,市政府,,16,9,15,9,14,49,,64,56,2,5,4,4,0.4,0.4
2025-05-16T1300,1695A,115.3622,22.7925,汕尾市,新城中学,,45,45,21,7,7,53,,62,59,4,4,2,2,0.4,0.5
2025-05-16T1300,2645A,109.9154,33.8715,商洛市,监测站,,49,48,63,31,35,154,,79,79,11,20,10,9,0.6,0.6
2025-05-16T1300,3045A,109.9643,33.8471,商洛市,商州区中学,颗粒物(PM10),60,70,59,22,35,148,,71,71,12,25,10,6,0.5,0.4
2025-05-16T1300,2408A,115.6702,34.4285,商丘市,环境监测站,颗粒物(PM10),54,58,106,13,61,152,,107,107,5,11,3,3,0.4,0.6
2025-05-16T1300,2409A,115.6458,34.4045,商丘市,粮食局,细颗粒物(PM2.5),62,66,103,44,75,156,,106,106,5,11,6,5,0.4,0.7
2025-05-16T1300,2410A,115.6293,34.3948,商丘市,睢阳区环保局,颗粒物(PM10),51,51,106,33,79,153,,103,103,3,10,3,4,0.4,0.6
2025-05-16T1300,3171A,115.6071,34.4465,商丘市,梁园区档案局,,47,47,96,26,76,141,,98,98,6,12,2,2,0.6,0.7
2025-05-16T1300,1141A,121.4,31.238,上海市,普陀,细颗粒物(PM2.5),92,,52,68,37,104,,62,62,24,31,5,5,0.8,0.6
2025-05-16T1300,1142A,121.478,31.2036,上海市,十五厂,细颗粒物(PM2.5),107,,51,80,34,102,,56,56,24,35,7,8,1.0,0.7
2025-05-16T1300,1143A,121.467,31.3008,上海市,虹口,,,,55,65,33,84,,58,58,22,31,,11,1.0,0.8
2025-05-16T1300,1147A,121.425,31.2261,上海市,静安监测站,细颗粒物(PM2.5),94,,49,70,30,100,,60,60,29,27,8,8,1.3,0.7
2025-05-16T1300,1148A,121.703,31.1907,上海市,浦东川沙,细颗粒物(PM2.5),114,,47,86,27,99,,51,51,23,35,6,6,1.1,0.8
2025-05-16T1300,1149A,121.533,31.2284,上海市,浦东新区监测站,细颗粒物(PM2.5),88,,48,65,28,104,,57,57,19,28,6,7,0.7,0.4
2025-05-16T1300,1150A,121.577,31.2071,上海市,浦东张江,细颗粒物(PM2.5),105,,55,79,32,103,,51,51,19,29,5,6,1.3,0.9
2025-05-16T1300,3265A,121.4316,31.3322,上海市,宝山庙行,,,,58,,32,74,,66,66,31,48,,8,0.7,0.5
2025-05-16T1300,3266A,121.8791,31.4662,上海市,崇明上实东滩,,49,37,25,34,17,87,,59,59,22,26,1,1,1.0,0.6
2025-05-16T1300,3268A,121.3162,31.2838,上海市,嘉定南翔,细颗粒物(PM2.5),89,,58,66,37,69,,49,49,31,49,5,7,0.8,0.7
2025-05-16T1300,3269A,121.3359,30.7456,上海市,金山新城,颗粒物(PM10),78,106,40,51,24,98,,67,67,27,26,4,4,0.7,0.6
2025-05-16T1300,3270A,121.4996,31.0739,上海市,闵行浦江,细颗粒物(PM2.5),123,,47,93,35,86,,42,42,24,26,4,4,1.0,0.7
2025-05-16T1300,3271A,121.2886,31.1663,上海市,青浦徐泾,细颗粒物(PM2.5),94,,62,70,36,95,,56,56,24,32,5,7,1.0,0.7
2025-05-16T1300,3272A,121.2186,31.0378,上海市,松江图书馆,细颗粒物(PM2.5),93,,59,69,40,121,,68,68,18,35,7,7,0.9,0.7
2025-05-16T1300,3273A,121.3902,31.2059,上海市,长宁仙霞,细颗粒物(PM2.5),95,,49,71,33,83,,45,45,28,31,7,8,1.2,0.9
2025-05-16T1300,3274A,121.7965,31.0507,上海市,浦东惠南,,49,35,35,34,22,90,,56,56,14,20,7,7,1.0,0.9
2025-05-16T1300,3544A,121.4891,30.925,上海市,奉贤南桥新城,细颗粒物(PM2.5),63,52,39,45,27,102,,57,57,22,30,4,4,0.9,0.6
2025-05-16T1300,4183A,121.4174,31.16637,上海市,冠生园路458号,细颗粒物(PM2.5),112,,51,84,34,90,,51,51,22,29,4,4,1.1,0.8
2025-05-16T1300,4205A,121.5419,31.2683,上海市,宁武路151号,细颗粒物(PM2.5),57,54,58,40,26,104,,55,55,26,44,5,5,1.0,0.7
2025-05-16T1300,2382A,117.9756,28.4436,上饶市,市监测站,,29,21,64,20,45,73,,54,54,10,18,4,8,0.5,0.7
2025-05-16T1300,2383A,117.9519,28.4628,上饶市,凤凰光学,,23,18,64,11,42,72,,45,45,8,17,8,12,0.7,0.8
2025-05-16T1300,3685A,117.897,28.4315,上饶市,双创科技城,,32,31,52,22,39,68,,44,44,14,29,7,8,0.6,0.8
2025-05-16T1300,4211A,118.1904,28.4448,上饶市,裕丰大道,,23,15,55,15,40,72,,41,41,5,17,10,6,0.5,0.7
2025-05-16T1300,1669A,113.5824,24.7733,韶关市,市八中,,27,27,35,14,17,33,,37,24,21,25,12,14,0.5,0.7
2025-05-16T1300,1671A,113.5917,24.7972,韶关市,园林处,,20,16,27,14,17,29,,35,21,12,20,8,11,0.4,0.5
2025-05-16T1300,1673A,113.5971,24.6863,韶关市,曲江监测站,,26,26,28,15,15,30,,36,23,22,24,7,8,0.8,0.7
2025-05-16T1300,2809A,113.6668,24.7756,韶关市,大学路288号,,31,31,29,21,18,28,,45,30,21,15,10,11,1.1,0.6
