timepoint,stationcode,longitude,latitude,area,positionname,primarypollutant,aqi,pm10,pm10_24h,pm2_5,pm2_5_24h,o3,o3_24h,o3_8h,o3_8h_24h,no2,no2_24h,so2,so2_24h,co,co_24h
2025-05-29T2100,2566A,102.1879,31.914,阿坝藏族羌族自治州,州农科所,颗粒物(PM10),52,54,14,17,9,36,,78,71,33,8,20,12,0.7,0.5
2025-05-29T2100,2568A,102.2502,31.8896,阿坝藏族羌族自治州,马师校,,36,,18,25,15,39,,97,89,22,10,5,5,0.5,0.5
2025-05-29T2100,3994A,102.2165,31.9024,阿坝藏族羌族自治州,马尔康中学西区,,,,16,56,16,,,101,101,9,7,5,5,0.6,0.4
2025-05-29T2100,2695A,80.292,41.1694,阿克苏地区,电视台,颗粒物(PM10),113,175,122,75,52,92,,94,94,13,16,7,3,0.6,0.6
2025-05-29T2100,2696A,80.2613,41.1551,阿克苏地区,艺术中心,颗粒物(PM10),136,221,156,71,53,105,,98,98,7,23,4,4,0.4,0.7
2025-05-29T2100,2204A,105.6467,38.8363,阿拉善盟,西城区西花园,颗粒物(PM10),500,930,229,246,78,113,,143,143,9,9,5,6,0.6,0.7
2025-05-29T2100,2205A,105.6985,38.8411,阿拉善盟,蒙二幼,细颗粒物(PM2.5),251,244,277,201,78,105,,124,124,8,8,9,10,0.4,0.4
2025-05-29T2100,2206A,105.724,38.8516,阿拉善盟,环保局新楼,颗粒物(PM10),488,588,247,208,76,116,,133,133,6,6,10,10,0.5,0.5
2025-05-29T2100,2708A,88.1264,47.8517,阿勒泰地区,市站,,29,16,11,9,6,91,,96,96,2,3,2,2,0.1,0.1
2025-05-29T2100,2630A,80.1161,32.5,阿里地区,阿里监测站,,45,10,15,3,8,143,,163,141,2,3,6,6,0.3,0.3
2025-05-29T2100,3192A,80.0903,32.5028,阿里地区,阿里藏医院,,49,17,21,7,8,154,,177,150,1,3,5,6,0.3,0.3
2025-05-29T2100,2642A,109.0318,32.6537,安康市,香溪洞,,36,35,40,18,24,115,,127,126,5,7,8,10,0.3,0.4
2025-05-29T2100,2644A,109.0072,32.6975,安康市,汉滨区检察院,,42,42,34,20,23,74,,135,124,29,11,9,18,0.8,0.6
2025-05-29T2100,4054A,109.0325,32.6913,安康市,市邮政管理局,颗粒物(PM10),52,54,42,30,28,62,,132,117,27,14,16,16,0.9,0.6
2025-05-29T2100,2291A,117.0809,30.5177,安庆市,环科院,,46,44,37,26,26,145,,164,163,13,28,4,4,0.4,0.5
2025-05-29T2100,2292A,117.0331,30.5119,安庆市,马山宾馆,,46,41,38,21,28,145,,165,164,15,20,6,6,0.3,0.6
2025-05-29T2100,2294A,116.9896,30.6145,安庆市,安庆大学,,49,39,34,24,26,155,,165,165,10,12,4,4,0.4,0.4
2025-05-29T2100,3173A,117.0598,30.5351,安庆市,市人大,,44,43,43,23,28,139,,171,168,22,21,10,10,0.4,0.5
2025-05-29T2100,3122A,105.9606,26.2611,安顺市,伍家关,,30,30,17,18,10,72,,66,66,12,8,5,4,0.6,0.5
2025-05-29T2100,3123A,105.9408,26.2431,安顺市,凤凰山,细颗粒物(PM2.5),60,,22,43,24,87,,84,84,15,12,21,12,0.7,0.5
2025-05-29T2100,3124A,105.9439,26.2564,安顺市,金钟山,,38,29,20,26,20,80,,80,80,10,6,14,10,0.4,0.4
2025-05-29T2100,3125A,105.8983,26.2481,安顺市,娄家坡,,42,42,21,29,20,81,,79,79,10,10,14,12,0.7,0.6
2025-05-29T2100,1818A,114.4839,36.0621,安阳市,棉研所,,,,,,,,,,,,,,,,
2025-05-29T2100,1819A,114.3551,36.1017,安阳市,红庙街,臭氧1小时,70,69,71,34,37,176,,205,196,4,11,2,3,0.4,0.5
2025-05-29T2100,1820A,114.361,36.0681,安阳市,银杏小区,颗粒物(PM10),61,71,70,35,39,168,,203,194,12,24,2,5,0.3,0.4
2025-05-29T2100,3141A,114.3922,36.0878,安阳市,信访局,臭氧1小时,75,70,71,35,36,180,,211,202,15,19,2,5,0.5,0.6
2025-05-29T2100,3669A,114.4705,36.0637,安阳市,左辅环卫站,颗粒物(PM10),66,81,82,36,42,153,,200,188,10,19,3,4,0.4,0.6
2025-05-29T2100,3703A,114.2917,36.0949,安阳市,安钢职工学校,颗粒物(PM10),61,72,78,34,39,158,,195,190,10,13,3,4,0.4,0.4
2025-05-29T2100,1748A,123.044,41.1196,鞍山市,深沟寺,细颗粒物(PM2.5),62,60,38,44,26,138,,178,171,25,13,8,7,0.9,0.8
2025-05-29T2100,1749A,123.011,41.0931,鞍山市,太阳城,"颗粒物(PM10),细颗粒物(PM2.5)",63,75,38,45,26,144,,176,168,23,14,8,7,0.7,0.6
2025-05-29T2100,1750A,123.0485,41.1442,鞍山市,太平,颗粒物(PM10),66,81,49,43,28,144,,170,163,24,15,11,9,1.0,0.8
2025-05-29T2100,1751A,122.9642,41.0971,鞍山市,铁西三道街,"颗粒物(PM10),细颗粒物(PM2.5)",59,67,50,42,30,150,,178,172,25,23,8,6,0.7,0.6
2025-05-29T2100,1753A,123.022,41.0821,鞍山市,明达新区,细颗粒物(PM2.5),64,74,39,46,27,138,,169,162,21,12,8,7,0.5,0.5
2025-05-29T2100,1754A,123.1289,41.0228,鞍山市,千山,,,,26,,18,,,124,,,7,,5,,0.4
2025-05-29T2100,4201A,122.9446,41.0826,鞍山市,兴盛南路290号,颗粒物(PM10),64,78,53,43,28,136,,175,165,31,23,8,8,0.6,0.6
2025-05-29T2100,2195A,107.4212,40.761,巴彦淖尔市,附二中,颗粒物(PM10),144,238,91,73,31,105,,145,142,7,10,6,6,0.4,0.4
2025-05-29T2100,2196A,107.37,40.7372,巴彦淖尔市,市环保大楼,颗粒物(PM10),138,226,80,48,33,110,,157,153,11,12,6,6,0.2,0.3
2025-05-29T2100,1956A,86.1472,41.7538,巴音郭楞蒙古自治州,孔雀公园,颗粒物(PM10),206,354,253,91,70,78,,98,96,9,17,8,9,0.3,0.3
2025-05-29T2100,1957A,86.1972,41.7166,巴音郭楞蒙古自治州,棉纺厂,颗粒物(PM10),243,380,335,110,81,91,,106,104,8,12,3,5,0.3,0.3
2025-05-29T2100,1958A,86.2357,41.7173,巴音郭楞蒙古自治州,经济开发区,颗粒物(PM10),193,335,263,86,64,89,,104,102,7,6,8,10,0.3,0.3
2025-05-29T2100,2914A,106.7677,31.8794,巴中市,苏山坪,,38,29,17,23,12,121,,109,109,11,8,5,4,0.5,0.4
2025-05-29T2100,3181A,106.7768,31.8526,巴中市,市五中,,38,28,26,26,16,118,,112,112,8,15,8,7,0.5,0.5
2025-05-29T2100,3183A,106.7418,31.8654,巴中市,圣泉水务公司,,28,26,21,18,16,87,,109,107,28,21,5,4,0.7,0.5
2025-05-29T2100,3616A,106.7616,31.8344,巴中市,市中心医院,,33,22,23,14,17,105,,106,106,11,17,6,5,0.5,0.5
2025-05-29T2100,2235A,122.7911,45.6077,白城市,洮北区环保局,颗粒物(PM10),71,92,66,28,31,171,,200,195,16,13,6,6,0.4,0.4
2025-05-29T2100,2236A,122.8738,45.5725,白城市,市环保局,颗粒物(PM10),71,92,62,34,33,173,,197,192,11,8,7,6,0.5,0.8
2025-05-29T2100,2231A,126.4219,41.9171,白山市,喜丰,颗粒物(PM10),70,89,74,29,22,9,,151,114,88,29,9,9,1.0,0.7
2025-05-29T2100,2232A,126.4077,41.9419,白山市,环保局,,,66,41,40,26,74,,142,120,20,17,,5,0.7,0.5
2025-05-29T2100,2647A,104.1724,36.5446,白银市,第三小学,颗粒物(PM10),67,83,38,24,17,104,,104,104,8,7,164,46,0.5,0.6
2025-05-29T2100,2648A,104.1465,36.5482,白银市,动力公司,颗粒物(PM10),54,58,30,12,14,106,,106,106,12,13,60,44,0.5,0.5
2025-05-29T2100,2512A,106.6103,23.9011,百色市,市监测站,,25,25,11,16,5,24,,50,48,19,9,7,5,0.8,0.6
2025-05-29T2100,2513A,106.6538,23.8859,百色市,市中心血站,,34,34,18,21,4,20,,49,46,34,12,22,5,1.0,0.7
2025-05-29T2100,3406A,106.6085,23.8798,百色市,祈福高中,,25,25,13,7,3,29,,47,46,15,9,6,5,0.7,0.6
2025-05-29T2100,2270A,117.396,32.939,蚌埠市,工人疗养院,颗粒物(PM10),61,72,69,26,36,144,,194,184,24,15,4,5,0.4,0.5
2025-05-29T2100,2271A,117.3605,32.9427,蚌埠市,百货大楼,颗粒物(PM10),54,58,64,31,37,151,,192,182,11,13,7,8,0.4,0.5
2025-05-29T2100,2273A,117.4185,32.8911,蚌埠市,蚌埠学院,细颗粒物(PM2.5),79,90,58,58,44,131,,187,175,30,15,5,5,0.5,0.5
2025-05-29T2100,2274A,117.3533,32.9673,蚌埠市,淮上区政府,颗粒物(PM10),54,58,60,28,39,149,,201,188,27,18,7,7,0.5,0.5
2025-05-29T2100,2275A,117.3145,32.8977,蚌埠市,高新区,颗粒物(PM10),56,61,60,35,38,140,,186,173,25,18,5,6,0.4,0.6
2025-05-29T2100,3715A,117.3092,32.9314,蚌埠市,蚌埠田家炳中学,细颗粒物(PM2.5),53,52,60,37,40,148,,192,179,14,12,6,6,0.4,0.4
2025-05-29T2100,1585A,109.8756,40.6532,包头市,市环境监测站,颗粒物(PM10),64,78,58,27,26,156,,172,170,23,20,12,13,0.5,0.6
2025-05-29T2100,1587A,109.9991,40.5842,包头市,包头八中,颗粒物(PM10),64,77,62,28,31,151,,179,175,23,22,12,20,0.6,0.7
2025-05-29T2100,1588A,109.8538,40.6821,包头市,青山宾馆,颗粒物(PM10),58,66,53,29,30,157,,174,171,24,19,12,12,0.7,0.7
2025-05-29T2100,1589A,109.8642,40.6288,包头市,惠龙物流,颗粒物(PM10),63,75,61,31,28,154,,176,171,27,20,9,11,0.5,0.5
2025-05-29T2100,1590A,110.0377,40.5546,包头市,东河鸿龙湾,颗粒物(PM10),68,85,66,21,25,138,,183,176,26,25,6,23,0.6,0.6
2025-05-29T2100,3283A,109.9154,40.5685,包头市,滨河大厦,颗粒物(PM10),61,72,60,36,24,155,,176,172,28,22,11,12,0.7,0.6
2025-05-29T2100,3419A,109.9447,40.6261,包头市,包头市委党校,颗粒物(PM10),66,82,59,18,25,148,,176,171,26,17,11,15,0.4,0.5
2025-05-29T2100,3683A,109.8331,40.6576,包头市,昆区政府,颗粒物(PM10),58,66,55,30,30,147,,168,164,27,22,9,11,0.6,0.7
2025-05-29T2100,1930A,107.185,34.3063,宝鸡市,庙沟村,,35,18,29,3,16,109,,149,125,10,12,8,10,0.6,0.6
2025-05-29T2100,1931A,107.0708,34.3017,宝鸡市,竹园沟,,29,20,28,10,19,92,,143,121,10,11,5,5,0.4,0.5
2025-05-29T2100,1932A,107.1906,34.3672,宝鸡市,三陆医院,,32,,42,22,30,95,,146,119,16,31,6,9,0.4,0.5
2025-05-29T2100,1933A,107.1431,34.3547,宝鸡市,监测站,,40,40,33,17,15,90,,141,116,18,19,5,6,0.4,0.3
2025-05-29T2100,1934A,107.1186,34.3739,宝鸡市,技工学校,,34,16,44,7,23,108,,146,126,10,14,5,8,0.4,0.5
2025-05-29T2100,1935A,107.3906,34.3528,宝鸡市,陈仓区环保局家属楼,,34,20,45,9,24,106,,161,138,7,20,4,6,0.3,0.5
2025-05-29T2100,1936A,107.2058,34.3497,宝鸡市,文理学院,,30,20,36,8,22,96,,149,124,15,18,7,8,0.4,0.5
2025-05-29T2100,1937A,107.2386,34.3622,宝鸡市,三迪小学,,32,,42,10,23,102,,150,123,13,23,7,9,0.4,0.4
2025-05-29T2100,1051A,115.493,38.8632,保定市,游泳馆,,,,83,,53,151,,219,204,24,25,,6,,0.4
2025-05-29T2100,1052A,115.5213,38.8959,保定市,华电二区,颗粒物(PM10),57,64,69,33,41,158,,213,202,15,15,2,3,0.3,0.6
2025-05-29T2100,1053A,115.4713,38.9108,保定市,接待中心,臭氧1小时,69,77,70,31,46,175,,220,210,15,18,2,6,0.2,0.5
2025-05-29T2100,1054A,115.4612,38.8416,保定市,地表水厂,颗粒物(PM10),62,74,89,27,46,160,,212,197,23,29,2,5,0.3,0.5
2025-05-29T2100,3581A,115.31981,38.95208,保定市,满城区生态环境分局,颗粒物(PM10),68,85,89,34,46,163,,224,206,17,21,3,4,0.3,0.3
2025-05-29T2100,3582A,115.47694,38.76408,保定市,清苑区第二中学,颗粒物(PM10),83,116,97,45,52,146,,219,200,30,24,3,4,0.6,0.6
2025-05-29T2100,3583A,115.62909,39.02311,保定市,徐水物探局,颗粒物(PM10),73,95,99,27,43,161,,210,197,15,26,3,3,0.5,0.5
2025-05-29T2100,4004A,115.4202,38.8656,保定市,双鹰农机,"颗粒物(PM10),臭氧1小时",64,77,70,40,41,171,,223,209,17,20,4,5,0.3,0.4
2025-05-29T2100,4034A,115.5150,38.8590,保定市,植保所站,颗粒物(PM10),64,78,84,42,49,137,,213,192,27,25,4,6,0.5,0.6
2025-05-29T2100,2594A,99.1678,25.1081,保山市,市环境监测站,,32,,12,22,15,32,,44,42,11,9,8,7,0.6,0.5
2025-05-29T2100,2595A,99.1711,25.1328,保山市,市环保局,,19,15,11,13,7,38,,47,46,9,7,7,7,0.5,0.4
2025-05-29T2100,1866A,109.2262,21.588,北海市,牛尾岭水库,,,13,16,3,7,41,,76,66,,11,6,12,0.6,0.6
2025-05-29T2100,1867A,109.1436,21.4086,北海市,海滩公园,,25,25,21,7,6,55,,76,72,11,6,5,5,0.8,0.6
2025-05-29T2100,1868A,109.0981,21.4661,北海市,新市环保局,,22,16,22,9,12,68,,87,83,10,8,3,3,0.8,0.6
2025-05-29T2100,1869A,109.1778,21.5233,北海市,北海工业园,,22,22,22,10,13,60,,84,79,13,10,8,8,0.7,0.6
2025-05-29T2100,3400A,109.1911,21.4415,北海市,龙潭自来水厂,,24,24,16,16,11,58,,86,81,12,6,3,4,0.6,0.4
2025-05-29T2100,1001A,116.3621,39.8784,北京市,万寿西宫,臭氧1小时,73,57,80,26,45,178,,230,224,21,24,4,6,0.4,0.7
2025-05-29T2100,1002A,116.2202,40.2915,北京市,定陵,,,,,,,,,,,,,,,,
2025-05-29T2100,1003A,116.4174,39.9289,北京市,东四,臭氧1小时,77,55,81,23,46,181,,233,226,28,31,3,7,0.4,0.7
2025-05-29T2100,1004A,116.4072,39.8863,北京市,天坛,臭氧1小时,52,49,73,28,40,161,,226,215,17,21,3,5,0.5,0.7
2025-05-29T2100,1005A,116.462,39.9365,北京市,农展馆,臭氧1小时,57,58,77,28,44,165,,209,203,17,24,4,7,0.8,1
2025-05-29T2100,1006A,116.3392,39.9295,北京市,官园,臭氧1小时,70,52,82,27,43,176,,207,204,16,24,6,9,0.3,0.6
2025-05-29T2100,1007A,116.2878,39.9611,北京市,海淀万柳,臭氧1小时,64,54,85,23,48,171,,213,208,17,28,4,5,0.6,0.9
2025-05-29T2100,1008A,116.6636,40.135,北京市,顺义新城,颗粒物(PM10),60,70,76,34,43,132,,206,198,34,18,6,10,0.6,0.8
2025-05-29T2100,1009A,116.6275,40.3275,北京市,怀柔镇,颗粒物(PM10),54,57,75,34,45,154,,219,210,37,14,4,6,0.8,0.9
2025-05-29T2100,1010A,116.2296,40.217,北京市,昌平镇,臭氧1小时,75,63,79,28,49,180,,219,216,24,23,5,7,0.4,0.6
2025-05-29T2100,1011A,116.3966,39.9821,北京市,奥体中心,臭氧1小时,58,54,77,25,44,166,,202,198,18,28,4,6,0.6,0.9
2025-05-29T2100,3281A,115.9718,40.4529,北京市,延庆夏都,臭氧1小时,77,54,73,26,43,181,,215,215,15,20,6,6,0.6,0.7
2025-05-29T2100,3418A,116.8336,40.4095,北京市,密云新城,臭氧1小时,83,54,73,28,43,186,,220,218,24,17,5,5,0.5,0.6
2025-05-29T2100,3671A,116.088,39.9726,北京市,门头沟三家店,颗粒物(PM10),66,81,81,35,44,151,,216,207,19,18,3,3,0.5,0.5
2025-05-29T2100,3672A,116.1541,39.8204,北京市,丰台云岗,颗粒物(PM10),58,65,89,35,42,143,,220,208,27,28,4,5,0.4,0.5
2025-05-29T2100,3673A,116.6804,39.9081,北京市,通州东关,颗粒物(PM10),65,80,80,34,39,156,,223,214,36,18,3,6,0.6,0.8
2025-05-29T2100,3674A,115.9577,39.7603,北京市,房山燕山,颗粒物(PM10),53,56,71,36,47,142,,204,195,24,16,2,4,0.5,0.6
2025-05-29T2100,3675A,116.4672,39.7733,北京市,大兴旧宫,颗粒物(PM10),54,58,89,25,42,161,,226,216,17,21,3,5,0.7,0.9
2025-05-29T2100,3694A,115.986,40.4563,北京市,延庆石河营,臭氧1小时,65,57,74,29,43,172,,207,207,15,17,3,3,0.6,0.7
2025-05-29T2100,3695A,116.6151,40.3053,北京市,怀柔新城,颗粒物(PM10),57,63,73,33,46,161,,220,212,31,13,3,6,0.6,0.8
2025-05-29T2100,3696A,116.2545,39.8768,北京市,丰台小屯,颗粒物(PM10),53,55,81,21,42,147,,210,201,31,27,3,4,0.5,0.7
2025-05-29T2100,3697A,116.84,40.3844,北京市,密云镇,臭氧1小时,88,68,75,29,44,190,,225,222,19,23,7,8,0.5,0.7
2025-05-29T2100,4182A,116.1942,39.9158,北京市,八角北路9号,颗粒物(PM10),58,65,90,26,45,153,,205,199,25,30,2,4,0.6,0.6
2025-05-29T2100,4194A,117.0790,40.1518,北京市,洳河巡河路,颗粒物(PM10),64,78,94,37,48,152,,218,211,21,9,12,10,0.7,0.9
2025-05-29T2100,1761A,123.8275,41.3064,本溪市,大峪,,49,49,45,23,24,123,,156,143,13,14,6,7,0.6,0.6
2025-05-29T2100,1762A,123.7567,41.3325,本溪市,溪湖,,46,46,50,27,30,120,,151,144,20,18,10,11,1.1,1.4
2025-05-29T2100,1763A,123.7169,41.3094,本溪市,彩屯,颗粒物(PM10),55,59,51,38,33,78,,149,133,18,19,10,14,0.6,1.3
2025-05-29T2100,1764A,123.7669,41.2864,本溪市,东明,颗粒物(PM10),51,52,48,24,24,147,,159,156,16,17,6,6,0.6,0.8
2025-05-29T2100,1765A,123.7992,41.2664,本溪市,新立屯,,38,32,38,22,22,119,,158,135,31,18,5,6,0.7,0.6
2025-05-29T2100,1766A,123.8142,41.3472,本溪市,威宁,,38,36,60,26,27,110,,151,136,19,24,5,6,0.4,0.5
2025-05-29T2100,2587A,105.2864,27.3125,毕节市,八中,,25,25,23,16,13,61,,93,88,13,9,7,7,0.5,0.5
2025-05-29T2100,2588A,105.31,27.2944,毕节市,师专,,29,29,24,17,14,60,,98,90,19,12,5,6,0.4,0.4
2025-05-29T2100,4263A,105.3688,27.3598,毕节市,工业大道,,30,25,21,21,15,67,,92,83,12,12,7,6,0.6,0.5
2025-05-29T2100,1629A,118.0018,37.3617,滨州市,第二水厂,颗粒物(PM10),64,78,67,44,35,162,,226,219,27,20,7,8,0.7,0.5
2025-05-29T2100,1630A,117.9776,37.393,滨州市,北中新校,臭氧1小时,69,73,58,31,32,175,,229,223,22,18,9,10,0.6,0.7
2025-05-29T2100,3514A,117.9378,37.3956,滨州市,中海酒店,臭氧1小时,103,63,59,29,35,206,,252,247,18,16,10,14,0.8,0.7
2025-05-29T2100,3515A,117.9378,37.3553,滨州市,开发区一中,颗粒物(PM10),60,70,60,36,31,158,,213,208,30,25,11,9,0.6,0.5
2025-05-29T2100,3516A,118.0917,37.694,滨州市,金海六路,臭氧1小时,75,85,64,36,28,180,,240,232,23,21,14,12,0.3,0.3
2025-05-29T2100,4028A,117.9956,37.3753,滨州市,滨州市西街道办事处,臭氧1小时,83,68,61,41,34,186,,243,237,19,18,9,10,0.7,0.6
2025-05-29T2100,2311A,115.8072,33.8399,亳州市,污水处理厂,颗粒物(PM10),74,97,78,44,42,175,,189,187,16,12,3,6,0.4,0.5
2025-05-29T2100,2312A,115.7789,33.8518,亳州市,三国揽胜宫,臭氧1小时,82,75,77,43,42,185,,192,192,17,15,6,7,0.6,0.6
2025-05-29T2100,3332A,115.7633,33.8034,亳州市,亳州学院,,,114,81,41,41,,,168,168,18,14,5,4,0.5,0.5
2025-05-29T2100,2693A,82.0485,44.8556,博尔塔拉蒙古自治州,市党校,,40,33,59,28,20,112,,112,112,8,10,3,3,0.2,0.3
2025-05-29T2100,2694A,82.0806,44.8969,博尔塔拉蒙古自治州,市环保局,,,31,52,19,15,109,,110,110,,11,3,2,,0.4
2025-05-29T2100,1071A,116.8842,38.2991,沧州市,沧县城建局,臭氧1小时,59,58,65,41,43,167,,209,201,25,26,2,4,0.4,0.4
2025-05-29T2100,1072A,116.8584,38.3254,沧州市,电视转播站,细颗粒物(PM2.5),62,69,69,44,45,157,,203,197,21,21,1,2,0.5,0.4
2025-05-29T2100,1073A,116.8709,38.3228,沧州市,市环保局,颗粒物(PM10),68,86,80,42,46,168,,198,192,17,20,2,4,0.5,0.5
2025-05-29T2100,3324A,116.8136,38.3004,沧州市,河北水利电力学院,臭氧1小时,93,70,69,40,41,194,,221,216,19,24,8,8,0.4,0.4
2025-05-29T2100,2622A,97.1806,31.1273,昌都市,昌都监测站,,15,,19,9,10,45,,79,70,8,9,4,4,0.2,0.2
2025-05-29T2100,3719A,97.1714,31.1406,昌都市,昌都会议中心,,17,7,25,7,12,53,,77,68,2,8,4,3,0.2,0.2
2025-05-29T2100,2690A,88.1236,43.8886,昌吉回族自治州,天山天池,,28,15,12,8,8,87,,107,106,6,5,6,5,0.6,0.5
2025-05-29T2100,2692A,87.2717,44.0297,昌吉回族自治州,新区政务中心,,40,27,32,6,14,128,,126,126,2,14,7,6,0.2,0.4
2025-05-29T2100,3613A,87.3095,44.0142,昌吉回族自治州,亚心广场,,41,22,43,3,13,130,,122,122,7,24,9,8,0.4,0.5
2025-05-29T2100,1119A,125.3325,43.9166,长春市,食品厂,,48,48,61,29,33,96,,146,132,53,41,5,5,0.6,0.6
2025-05-29T2100,1120A,125.2863,43.9027,长春市,客车厂,,46,46,57,31,36,104,,155,141,48,39,6,7,0.4,0.4
2025-05-29T2100,1121A,125.2841,43.8463,长春市,邮电学院,,39,39,45,26,28,107,,154,143,34,29,6,7,0.3,0.4
2025-05-29T2100,1122A,125.3716,43.8772,长春市,劳动公园,,40,40,50,21,30,118,,149,141,21,24,6,7,0.6,0.6
2025-05-29T2100,1123A,125.3297,43.8805,长春市,园林处,,39,32,47,18,26,122,,154,146,27,24,6,8,0.6,0.6
2025-05-29T2100,1124A,125.4605,43.79,长春市,净月潭,,29,29,36,15,22,91,,155,136,15,14,6,6,0.4,0.4
2025-05-29T2100,1125A,125.7194,43.515,长春市,甩湾子,,38,38,36,17,21,96,,153,137,32,34,3,3,0.5,0.5
2025-05-29T2100,1126A,125.3863,43.8447,长春市,经开区环卫处,颗粒物(PM10),53,56,73,21,30,111,,146,135,26,41,5,6,0.4,0.5
2025-05-29T2100,1127A,125.245,43.7783,长春市,高新区管委会,,41,41,47,25,30,87,,151,134,38,34,6,7,0.4,0.5
2025-05-29T2100,1128A,125.1761,43.8325,长春市,岱山公园,,42,42,53,27,38,67,,152,130,82,53,5,6,0.4,0.4
2025-05-29T2100,1335A,113.0833,28.2325,长沙市,经开区环保局,,,38,21,25,13,,,118,118,26,17,4,3,0.4,0.6
2025-05-29T2100,1336A,112.8872,28.2189,长沙市,高开区环保局,,35,28,22,18,12,111,,128,126,15,13,4,4,0.5,0.5
2025-05-29T2100,1337A,113.0792,28.2053,长沙市,马坡岭,,28,25,23,17,14,88,,114,111,25,16,4,4,0.6,0.5
2025-05-29T2100,1338A,112.9394,28.19,长沙市,湖南师范大学,,,,23,,11,,,127,126,12,12,4,5,,0.4
2025-05-29T2100,1339A,113.0178,28.1322,长沙市,雨花区环保局,,35,22,24,18,12,109,,133,130,21,15,4,4,0.6,0.5
2025-05-29T2100,1340A,112.9792,28.2597,长沙市,伍家岭,,35,35,24,21,12,96,,119,118,17,15,3,2,0.5,0.5
2025-05-29T2100,1341A,113.0014,28.1944,长沙市,火车新站,,32,32,23,14,10,102,,114,113,19,14,6,6,0.5,0.4
2025-05-29T2100,1342A,112.9844,28.1178,长沙市,天心区环保局,,34,27,22,17,13,108,,136,133,25,15,2,2,0.4,0.4
2025-05-29T2100,1343A,112.8908,28.1308,长沙市,湖南中医药大学,,43,,25,30,16,99,,130,126,17,16,3,2,0.6,0.6
2025-05-29T2100,1344A,112.9581,28.3611,长沙市,沙坪,,35,,16,24,9,98,,119,118,11,7,4,3,0.6,0.6
2025-05-29T2100,1727A,113.1147,36.1547,长治市,清华站,臭氧1小时,101,52,53,31,28,202,,202,202,15,17,3,5,0.5,0.5
2025-05-29T2100,1730A,113.0886,36.2125,长治市,审计局,臭氧1小时,108,54,53,27,32,216,,212,212,14,19,8,11,0.5,0.6
2025-05-29T2100,1731A,113.0844,36.1856,长治市,长治八中,,,82,67,40,39,200,,200,200,15,21,9,11,,0.2
2025-05-29T2100,2845A,113.1569,36.1911,长治市,德盛苑,臭氧1小时,89,54,52,34,30,191,,192,192,3,10,6,10,0.5,1.3
2025-05-29T2100,3568A,113.06,36.0464,长治市,向阳小学,臭氧1小时,102,98,75,45,40,203,,211,211,19,16,5,5,0.6,0.6
2025-05-29T2100,3569A,112.8792,36.3144,长治市,屯留一中,臭氧1小时,103,50,46,40,34,206,,208,208,18,22,9,9,0.2,0.3
2025-05-29T2100,4189A,113.1131,36.19948,长治市,英华南巷50号,臭氧1小时,103,57,59,36,34,205,,204,204,14,16,7,11,0.7,0.9
2025-05-29T2100,4190A,113.2367,36.3344,长治市,学府街1号,臭氧1小时,108,80,86,32,34,215,,221,219,10,36,2,2,0.4,0.6
2025-05-29T2100,1854A,111.6975,28.9703,常德市,市二中,,43,,30,30,24,92,,119,116,21,12,5,5,0.6,0.6
2025-05-29T2100,1857A,111.7158,29.1456,常德市,白鹤山,,,,,,,,,,,,,,,,
2025-05-29T2100,3138A,111.7153,29.0289,常德市,武陵区永安,,37,29,33,19,25,118,,125,125,12,9,3,4,0.4,0.5
2025-05-29T2100,3139A,111.6892,28.9881,常德市,鼎城区玉霞,,35,31,31,24,22,79,,130,124,36,14,3,3,0.6,0.6
2025-05-29T2100,3140A,111.6625,29.0531,常德市,武陵区长庚,,39,24,29,16,21,124,,132,132,10,8,5,6,0.6,0.6
2025-05-29T2100,1196A,119.9633,31.762,常州市,市监测站,细颗粒物(PM2.5),55,56,67,39,36,148,,205,199,34,30,8,9,0.4,0.5
2025-05-29T2100,1200A,119.9468,31.7069,常州市,武进监测站,颗粒物(PM10),53,55,66,35,32,158,,198,194,28,27,3,7,0.7,0.8
2025-05-29T2100,1201A,119.9255,31.9087,常州市,安家,颗粒物(PM10),58,65,81,40,39,150,,205,199,33,38,10,13,0.2,0.3
2025-05-29T2100,3002A,119.9805,31.8174,常州市,行政中心,臭氧1小时,62,46,61,33,36,169,,204,202,25,36,7,8,0.5,0.5
2025-05-29T2100,3003A,120.0522,31.7748,常州市,经开区,臭氧1小时,68,82,73,32,36,174,,214,211,30,45,5,5,1.0,0.7
2025-05-29T2100,3010A,119.9025,31.7964,常州市,钟楼,臭氧1小时,58,57,68,39,32,166,,187,186,20,19,16,9,0.6,0.6
2025-05-29T2100,3429A,119.8598,31.7066,常州市,武进经发区,细颗粒物(PM2.5),67,69,56,48,32,140,,192,186,31,18,19,7,0.8,0.7
2025-05-29T2100,3430A,119.5826,31.7245,常州市,金坛城区,细颗粒物(PM2.5),52,45,54,36,25,136,,186,182,23,19,8,8,0.5,0.4
2025-05-29T2100,2220A,120.4318,41.5881,朝阳市,西梁,颗粒物(PM10),58,66,40,39,20,147,,170,167,20,15,13,9,0.7,0.5
2025-05-29T2100,2221A,120.4521,41.5646,朝阳市,河畔小区,,50,44,37,30,22,158,,177,175,17,13,14,10,0.5,0.5
2025-05-29T2100,2222A,120.4176,41.5648,朝阳市,八里堡,,,55,52,38,23,,,188,187,,16,17,8,0.5,0.4
2025-05-29T2100,2223A,120.3806,41.5969,朝阳市,农业园区,细颗粒物(PM2.5),59,52,41,42,29,141,,176,170,24,20,11,8,0.6,0.6
2025-05-29T2100,1705A,116.6367,23.6719,潮州市,西园路,,23,,9,7,16,73,,62,62,8,11,6,6,0.3,0.4
2025-05-29T2100,3026A,116.6183,23.6608,潮州市,市政府,,,,16,,12,67,,61,60,,14,4,6,0.7,0.8
2025-05-29T2100,4036A,116.6461,23.6761,潮州市,金山,,22,,13,3,12,70,,61,61,8,13,6,7,0.7,0.7
2025-05-29T2100,2472A,113.0073,25.9061,郴州市,马头岭,,31,31,18,11,7,12,,60,45,14,6,7,7,0.3,0.3
2025-05-29T2100,2473A,113.0116,25.8226,郴州市,市职中,,,28,15,20,11,14,,62,49,14,9,1,1,,0.7
2025-05-29T2100,2475A,113.0383,25.8071,郴州市,市审计局,,32,29,13,22,10,27,,60,51,12,7,4,4,0.6,0.8
2025-05-29T2100,2476A,113.0348,25.7759,郴州市,市环保局,,32,27,13,22,13,19,,58,49,20,10,3,2,0.3,0.2
2025-05-29T2100,4252A,113.0138,25.8011,郴州市,好美居路49号,,39,39,15,15,9,14,,70,56,29,11,10,8,0.5,0.5
2025-05-29T2100,1431A,103.9728,30.7236,成都市,金泉两河,细颗粒物(PM2.5),60,,44,43,32,69,,84,81,27,28,4,3,0.5,0.5
2025-05-29T2100,1432A,104.176,30.6872,成都市,十里店,,43,43,39,29,24,72,,90,85,33,25,4,4,0.6,0.6
2025-05-29T2100,1433A,104.079,30.5706,成都市,三瓦窑,细颗粒物(PM2.5),74,72,44,54,30,86,,105,98,36,26,4,5,1.0,0.9
2025-05-29T2100,1434A,104.1114,30.63,成都市,沙河铺,,,64,43,27,24,,,70,64,35,22,4,7,0.5,0.4
2025-05-29T2100,1437A,104.0786,30.6531,成都市,君平街,细颗粒物(PM2.5),60,58,50,43,31,75,,94,85,35,31,8,9,0.8,0.8
2025-05-29T2100,1438A,103.613,31.0283,成都市,灵岩寺,,,,,,,,,,,,,,,,
2025-05-29T2100,2880A,104.0239,30.65639,成都市,大石西路,细颗粒物(PM2.5),54,51,50,38,35,76,,89,82,26,26,5,6,0.8,0.8
2025-05-29T2100,3136A,104.2725,30.5589,成都市,龙泉驿区区政府,,36,36,23,19,15,79,,103,96,22,14,5,5,0.6,0.6
2025-05-29T2100,3357A,104.0106,30.6931,成都市,金博路,,50,50,40,28,25,55,,78,68,31,29,8,9,0.8,0.7
2025-05-29T2100,3359A,104.0578,30.5225,成都市,华阳,细颗粒物(PM2.5),55,58,40,39,29,75,,94,87,32,19,7,7,0.9,0.8
2025-05-29T2100,3488A,104.3853,30.7453,成都市,青白江技师分院,细颗粒物(PM2.5),98,88,37,73,24,89,,104,104,32,22,5,5,0.8,0.6
2025-05-29T2100,3489A,104.0789,30.4072,成都市,科学城,,37,37,33,25,24,93,,122,118,26,13,4,4,0.7,0.6
2025-05-29T2100,4011A,103.8506,30.6947,成都市,光华大道三段,,,45,51,,35,76,,104,96,18,22,5,5,0.7,0.7
2025-05-29T2100,4224A,104.2433,30.5353,成都市,鲸龙路1057号,,40,40,37,27,24,82,,101,96,33,20,7,7,0.7,0.6
2025-05-29T2100,1062A,117.9531,40.9081,承德市,铁路,颗粒物(PM10),64,77,72,41,39,165,,190,179,34,23,6,5,0.6,0.6
2025-05-29T2100,1063A,117.9392,40.9763,承德市,中国银行,颗粒物(PM10),57,63,58,33,36,107,,189,169,17,13,1,3,0.5,0.5
2025-05-29T2100,1064A,117.9503,40.928,承德市,开发区,臭氧1小时,75,53,74,35,42,180,,194,190,12,15,4,4,0.6,0.6
2025-05-29T2100,1065A,117.8051,40.9655,承德市,文化中心,颗粒物(PM10),72,93,71,46,36,125,,184,169,29,22,7,6,0.6,0.6
2025-05-29T2100,1066A,117.9268,41.0026,承德市,离宫,细颗粒物(PM2.5),58,57,60,41,45,132,,190,165,9,10,4,3,0.5,0.5
2025-05-29T2100,2314A,117.47,30.6618,池州市,池州学院,,48,48,36,32,26,116,,133,131,33,16,7,5,0.5,0.7
2025-05-29T2100,3237A,117.4918,30.6617,池州市,展览馆,,49,46,31,34,24,120,,136,135,20,14,7,5,0.5,0.7
2025-05-29T2100,3333A,117.5627,30.695,池州市,第八中学,,40,40,33,28,26,119,,140,138,21,13,7,5,0.3,0.4
2025-05-29T2100,3334A,117.5038,30.6243,池州市,第十二中学,,41,39,34,26,23,129,,138,138,16,19,4,3,0.5,0.7
2025-05-29T2100,1744A,118.9233,42.2816,赤峰市,松山一中,臭氧1小时,55,42,56,18,27,164,,180,165,15,21,6,7,0.5,0.7
2025-05-29T2100,1745A,118.9576,42.2728,赤峰市,哈达街,颗粒物(PM10),52,53,55,25,31,136,,141,140,21,22,11,10,0.5,0.7
2025-05-29T2100,1746A,118.8788,42.2554,赤峰市,天义路,,49,34,38,26,32,156,,165,153,10,14,8,10,0.5,0.6
2025-05-29T2100,3058A,119.2658,42.0353,赤峰市,银河街,颗粒物(PM10),54,58,73,26,37,145,,158,152,13,15,9,11,0.7,0.8
2025-05-29T2100,3286A,118.9359,42.3147,赤峰市,桥北物流园区,细颗粒物(PM2.5),60,,55,43,45,128,,156,137,24,18,8,16,0.4,0.8
2025-05-29T2100,2521A,107.3476,22.4136,崇左市,市环保局江州分局,,16,16,18,6,10,38,,46,44,6,5,6,6,0.4,0.5
2025-05-29T2100,4256A,107.3750,22.3736,崇左市,石景林东路7号,,15,8,14,3,9,45,,53,51,6,7,3,3,0.4,0.7
2025-05-29T2100,2298A,118.3093,32.3153,滁州市,老年大学,颗粒物(PM10),54,58,62,35,43,152,,213,205,25,21,3,3,0.3,0.4
2025-05-29T2100,2299A,118.3244,32.2786,滁州市,人大宾馆,颗粒物(PM10),53,56,67,26,44,136,,197,187,24,21,5,6,0.3,0.4
2025-05-29T2100,3207A,118.3118,32.3038,滁州市,市政府原办公楼,颗粒物(PM10),55,59,60,38,45,138,,215,205,22,16,5,6,0.4,0.4
2025-05-29T2100,3331A,118.3267,32.2634,滁州市,图书馆,,49,39,55,34,45,145,,204,195,15,15,9,9,0.4,0.5
2025-05-29T2100,2605A,101.5482,25.0441,楚雄彝族自治州,州环境监测站,,26,18,8,18,11,45,,64,62,24,12,8,9,0.8,0.6
2025-05-29T2100,2606A,101.538,25.0492,楚雄彝族自治州,市经济开发区,,25,22,12,17,12,44,,64,61,23,13,7,9,0.8,0.7
2025-05-29T2100,2548A,107.5277,31.2827,达州市,达州职业技术学院,,38,38,28,11,7,73,,124,116,30,22,5,5,0.2,0.2
2025-05-29T2100,2549A,107.5086,31.2186,达州市,市环境监测站,,44,44,28,14,8,105,,125,122,19,26,5,5,0.3,0.4
2025-05-29T2100,2550A,107.4988,31.2132,达州市,凤凰小区,,34,34,24,17,11,103,,127,123,19,23,7,7,0.4,0.5
2025-05-29T2100,2551A,107.5082,31.1986,达州市,达县机关宾馆,颗粒物(PM10),51,51,26,21,6,41,,124,111,66,31,6,5,0.6,0.4
2025-05-29T2100,2552A,107.4644,31.2124,达州市,市政中心,,38,38,34,12,8,92,,116,113,20,26,2,2,0.5,0.5
2025-05-29T2100,2614A,100.1542,25.7054,大理白族自治州,大理市环境监测站,,29,,7,20,12,41,,64,60,19,14,6,6,0.7,0.5
2025-05-29T2100,2615A,100.2171,25.5811,大理白族自治州,大理古城,,16,10,6,6,6,51,,59,58,10,6,8,8,0.5,0.5
2025-05-29T2100,1109A,121.612,38.9741,大连市,甘井子,,36,36,38,23,23,72,,109,98,47,36,7,6,0.3,0.3
2025-05-29T2100,1110A,121.565,38.9511,大连市,周水子,,46,46,45,28,27,104,,138,126,35,27,7,7,0.4,0.4
2025-05-29T2100,1111A,121.5637,38.8845,大连市,星海三站,,37,30,39,22,27,118,,114,114,20,19,4,4,0.4,0.4
2025-05-29T2100,1112A,121.6302,38.9117,大连市,青泥洼桥,,40,40,37,26,24,125,,158,153,24,18,8,8,0.3,0.3
2025-05-29T2100,1113A,121.6251,38.8638,大连市,傅家庄,,36,29,30,25,21,102,,117,117,42,26,8,8,0.2,0.2
2025-05-29T2100,1114A,121.5213,38.8661,大连市,七贤岭,,45,45,40,26,26,81,,104,102,41,24,6,7,0.2,0.2
2025-05-29T2100,1115A,121.2529,38.8061,大连市,旅顺,,,24,27,24,26,105,,112,112,,13,5,3,0.2,0.2
2025-05-29T2100,1116A,121.7485,39.1311,大连市,金州,,45,39,40,27,27,142,,154,143,24,22,10,10,0.3,0.4
2025-05-29T2100,1117A,121.7811,39.0496,大连市,开发区,,40,40,46,28,27,78,,111,105,45,32,4,6,0.6,0.6
2025-05-29T2100,1118A,121.9762,39.0631,大连市,双D港,,26,20,25,18,20,51,,93,74,27,15,6,7,0.3,0.3
2025-05-29T2100,1789A,124.81117,46.03138,大庆市,大同区,颗粒物(PM10),57,63,71,31,33,148,,172,168,16,14,6,5,0.6,0.5
2025-05-29T2100,1790A,125.129,46.533,大庆市,龙凤区,颗粒物(PM10),53,56,72,31,32,152,,178,173,16,14,6,6,0.5,0.5
2025-05-29T2100,1791A,124.902,46.408,大庆市,红岗区,"颗粒物(PM10),臭氧1小时",58,66,67,36,32,166,,187,185,11,10,9,9,0.4,0.4
2025-05-29T2100,1792A,125.153,46.586,大庆市,萨尔图区,颗粒物(PM10),60,69,72,30,31,142,,157,155,18,15,8,9,0.6,0.6
2025-05-29T2100,1793A,124.9042,46.6215,大庆市,让胡路区,臭氧1小时,67,53,61,27,33,173,,178,178,11,10,8,8,0.3,0.3
2025-05-29T2100,3481A,125.141,46.634,大庆市,萨区政府监测点,"颗粒物(PM10),臭氧1小时",62,74,79,31,31,169,,179,179,12,11,8,7,0.5,0.5
2025-05-29T2100,1721A,113.3819,40.1097,大同市,果树场,,,,,,,,,,,,,,,,
2025-05-29T2100,1723A,113.2994,40.0758,大同市,云冈宾馆,臭氧1小时,101,68,56,25,25,202,,198,196,18,18,8,8,0.6,0.5
2025-05-29T2100,1724A,113.3444,40.0917,大同市,大同大学,臭氧1小时,105,76,47,39,28,209,,203,202,17,16,10,8,0.6,0.6
2025-05-29T2100,1725A,113.2661,40.1269,大同市,安家小村,臭氧1小时,101,113,63,45,29,201,,195,194,12,12,6,6,0.6,0.6
2025-05-29T2100,1726A,113.2711,40.0844,大同市,教育学院,臭氧1小时,102,81,60,32,30,204,,198,196,16,20,9,8,0.5,0.5
2025-05-29T2100,3282A,113.3397,40.0597,大同市,大同市卫生学校,臭氧1小时,92,65,48,39,29,193,,185,184,15,14,10,11,0.7,0.6
2025-05-29T2100,3565A,113.1367,40.1122,大同市,云冈站,臭氧1小时,84,79,72,53,38,187,,186,185,14,17,8,9,0.6,0.6
2025-05-29T2100,3566A,113.1186,40.2556,大同市,图书馆,颗粒物(PM10),59,67,67,31,35,164,,183,177,16,14,9,10,0.8,0.8
2025-05-29T2100,3567A,113.5931,40.0461,大同市,区一中,臭氧1小时,109,56,48,40,30,218,,196,196,17,14,16,14,0.6,0.4
2025-05-29T2100,4199A,113.2798,40.0997,大同市,魏都大道141号,臭氧1小时,102,69,62,34,31,204,,199,197,13,15,8,8,0.7,0.6
2025-05-29T2100,2269A,124.1069,50.4097,大兴安岭地区,科技局,颗粒物(PM10),54,58,70,24,26,0,,114,0,16,7,8,8,0.3,0.4
2025-05-29T2100,3663A,124.1164,50.4278,大兴安岭地区,红旗社区,,30,29,50,15,23,93,,140,132,12,8,6,6,0.4,0.4
2025-05-29T2100,1600A,124.3303,40.0625,丹东市,江湾东路,细颗粒物(PM2.5),64,65,57,46,33,87,,146,130,24,15,43,13,0.8,0.7
2025-05-29T2100,1601A,124.4256,40.1503,丹东市,临江后街,颗粒物(PM10),99,148,90,59,43,99,,138,125,24,22,12,10,1.0,0.8
2025-05-29T2100,1602A,124.3933,40.1461,丹东市,元宝山,颗粒物(PM10),55,60,57,30,27,96,,138,125,22,18,10,9,0.7,0.6
2025-05-29T2100,1603A,124.3633,40.1092,丹东市,民主桥,,50,50,50,28,25,110,,142,132,15,19,16,10,0.7,0.7
2025-05-29T2100,3541A,109.5726,19.5167,儋州市,第一中学子站,,25,24,14,17,9,58,,59,53,5,4,6,5,0.5,0.6
2025-05-29T2100,3542A,109.5567,19.5187,儋州市,东坡学校子站,,21,,14,14,7,65,,61,55,4,4,6,6,0.5,0.5
2025-05-29T2100,2616A,98.5842,24.428,德宏傣族景颇族自治州,德宏州监测站,,22,,18,15,10,32,,44,43,13,10,6,7,0.6,0.7
2025-05-29T2100,3677A,98.5881,24.4368,德宏傣族景颇族自治州,芒市人民政府综合楼,,26,26,21,6,7,28,,42,39,12,8,6,6,0.6,0.5
2025-05-29T2100,1901A,104.4239,31.1208,德阳市,东山公园,颗粒物(PM10),53,55,34,33,23,87,,99,99,24,16,6,5,0.8,0.8
2025-05-29T2100,1902A,104.3826,31.1317,德阳市,西小区,细颗粒物(PM2.5),60,57,40,43,28,70,,101,100,35,23,7,5,0.7,0.7
2025-05-29T2100,1904A,104.3553,31.1091,德阳市,耐火材料厂,"颗粒物(PM10),细颗粒物(PM2.5)",57,63,52,40,28,63,,103,101,33,28,9,7,0.6,0.6
2025-05-29T2100,3639A,104.4019,31.1244,德阳市,市教育局,"颗粒物(PM10),细颗粒物(PM2.5)",54,57,40,38,26,90,,111,111,27,21,9,7,0.9,0.9
2025-05-29T2100,1622A,116.3032,37.4674,德州市,儿童乐园,臭氧1小时,95,73,75,34,39,196,,233,229,20,21,7,10,0.6,0.7
2025-05-29T2100,1624A,116.2991,37.4451,德州市,监理站,臭氧1小时,75,75,75,34,39,180,,225,220,24,22,7,8,0.5,0.6
2025-05-29T2100,3066A,116.2721,37.4379,德州市,九衢泉纯净水厂,颗粒物(PM10),67,83,77,39,40,163,,211,204,30,36,9,8,0.7,0.6
2025-05-29T2100,3371A,116.3728,37.4403,德州市,开发区人民医院,颗粒物(PM10),67,83,75,46,35,161,,226,217,44,28,8,10,0.7,0.7
2025-05-29T2100,3372A,116.3572,37.4094,德州市,太阳城中学,臭氧1小时,72,80,81,44,40,177,,226,220,41,34,7,6,0.5,0.6
2025-05-29T2100,3511A,116.5652,37.3319,德州市,陵城艺术中心,颗粒物(PM10),73,95,75,41,34,163,,226,220,32,18,9,10,0.6,0.5
2025-05-29T2100,2621A,99.7056,27.8317,迪庆藏族自治州,迪庆州站,,23,16,14,16,14,42,,48,47,8,7,6,6,0.5,0.4
2025-05-29T2100,3180A,99.7136,27.8094,迪庆藏族自治州,质量技术监督局,,14,10,15,8,8,44,,46,46,8,8,6,5,0.5,0.5
2025-05-29T2100,4257A,104.6092,35.5962,定西市,将台街,颗粒物(PM10),52,53,44,21,21,112,,118,118,5,5,4,4,0.4,0.4
2025-05-29T2100,4309A,104.6159,35.5701,定西市,正龙路62号,,47,47,38,27,17,110,,115,115,6,6,6,7,0.3,0.2
2025-05-29T2100,1389A,113.7547,23.0494,东莞市,莞城梨川,,14,6,38,3,30,44,,51,49,14,22,8,8,0.5,0.6
2025-05-29T2100,1390A,113.7944,23.0128,东莞市,东城石井,,10,8,39,3,24,30,,44,37,18,26,4,3,0.7,1
2025-05-29T2100,1391A,113.7383,22.9658,东莞市,南城西平,,18,6,33,3,23,22,,43,37,35,34,6,6,0.6,0.6
2025-05-29T2100,3319A,113.7338,23.0381,东莞市,万江金泰,,11,6,33,3,27,35,,42,42,14,21,2,3,0.6,0.6
2025-05-29T2100,3626A,113.7533,23.0202,东莞市,南城元岭,,12,7,32,3,29,38,,48,46,18,24,5,5,0.8,0.8
2025-05-29T2100,3627A,113.7875,23.0457,东莞市,东城主山,,13,6,32,3,25,40,,48,46,14,22,5,5,0.7,0.8
2025-05-29T2100,1666A,118.6614,37.4309,东营市,市环保局,颗粒物(PM10),51,51,55,22,23,158,,210,202,18,22,6,12,0.5,0.6
2025-05-29T2100,3036A,118.6904,37.4338,东营市,开发区管委会,臭氧1小时,80,56,59,27,26,184,,234,227,17,21,6,12,0.6,0.7
2025-05-29T2100,3365A,118.5719,37.565,东营市,垦利区民丰路,臭氧1小时,68,61,58,34,26,174,,253,234,25,25,13,11,0.9,0.8
2025-05-29T2100,3498A,118.5055,37.8612,东营市,河口城区,臭氧1小时,106,66,58,27,24,211,,202,,17,20,9,11,1.1,1
2025-05-29T2100,3646A,118.4978,37.4623,东营市,胜利站,臭氧1小时,74,42,55,27,27,179,,237,225,17,24,10,12,0.8,0.7
2025-05-29T2100,3734A,118.35,37.26,东营市,理想之城,,,56,54,27,30,,,223,218,18,31,4,7,0.6,0.6
2025-05-29T2100,1591A,110.0023,39.8129,鄂尔多斯市,综合楼,臭氧1小时,74,58,71,24,27,179,,175,175,16,17,14,9,0.4,0.5
2025-05-29T2100,1592A,109.9486,39.8261,鄂尔多斯市,巴音孟克林场办事处,臭氧1小时,99,102,83,29,30,199,,189,189,18,17,9,8,0.4,0.5
2025-05-29T2100,1593A,109.7736,39.5986,鄂尔多斯市,康泽苑,臭氧1小时,82,61,59,29,22,185,,184,184,15,12,6,7,0.6,0.7
2025-05-29T2100,1594A,109.8119,39.5989,鄂尔多斯市,华泰汽车城,臭氧1小时,64,73,64,24,26,171,,165,165,13,13,6,7,0.4,0.5
2025-05-29T2100,1595A,109.9734,39.7884,鄂尔多斯市,奥林花园,臭氧1小时,84,80,75,29,29,187,,184,184,19,17,8,8,0.6,0.6
2025-05-29T2100,2436A,114.8938,30.3994,鄂州市,市政府,,,,37,,23,,,82,,,18,,9,,0.3
2025-05-29T2100,2437A,114.8989,30.3714,鄂州市,赵家坝,,46,36,30,18,18,145,,154,153,17,16,7,8,0.4,0.5
2025-05-29T2100,3654A,114.8094,30.4089,鄂州市,精准医疗中心,颗粒物(PM10),53,56,35,34,20,100,,142,136,23,13,13,4,0.8,0.8
2025-05-29T2100,2454A,109.4978,30.2981,恩施土家族苗族自治州,湖北民院,,38,34,33,13,19,119,,144,144,9,10,5,5,0.3,0.3
2025-05-29T2100,2455A,109.4707,30.2798,恩施土家族苗族自治州,州电力总公司,,33,25,26,18,17,105,,131,131,7,11,6,6,0.1,0.3
2025-05-29T2100,3549A,109.5061,30.3772,恩施土家族苗族自治州,龙凤新区,,33,33,25,15,16,96,,128,125,10,7,7,6,0.3,0.3
2025-05-29T2100,2499A,108.3411,21.6158,防城港市,沙万,,17,14,25,7,13,54,,62,61,8,15,2,4,0.5,0.5
2025-05-29T2100,2500A,108.3514,21.7731,防城港市,防城档案局,,33,33,35,11,13,45,,54,53,15,13,1,2,0.7,0.6
2025-05-29T2100,2501A,108.3506,21.6414,防城港市,大海花园,,22,22,32,6,5,56,,65,63,11,11,2,6,0.6,0.7
2025-05-29T2100,1371A,113.1294,23.0067,佛山市,湾梁,,21,17,26,7,16,13,,36,31,41,35,7,7,0.9,0.8
2025-05-29T2100,1372A,113.1083,23.0478,佛山市,华材职中,,19,9,20,6,18,24,,37,33,37,31,5,5,0.6,0.7
2025-05-29T2100,1373A,113.144,23.0453,佛山市,南海气象局,,20,12,23,7,17,10,,32,26,40,30,2,2,0.9,0.8
2025-05-29T2100,1374A,113.2881,22.8094,佛山市,顺德苏岗,,20,20,30,3,20,25,,34,34,31,34,6,6,0.6,0.7
2025-05-29T2100,1376A,112.8383,22.8678,佛山市,高明孔堂,,21,21,35,11,21,25,,50,46,33,26,5,5,0.9,0.9
2025-05-29T2100,1377A,112.8836,23.1588,佛山市,三水监测站,,,,31,12,24,,,34,33,32,33,3,3,0.9,0.8
2025-05-29T2100,1378A,112.867,23.185,佛山市,三水云东海,,29,29,46,8,36,22,,39,35,30,28,3,3,1.1,1
2025-05-29T2100,3625A,113.2544,22.7642,佛山市,容桂街道办,,,17,21,,28,32,,39,39,30,32,6,5,0.8,0.8
2025-05-29T2100,1280A,119.3903,26.0543,福州市,鼓山,,,,6,,2,,,86,,,6,,2,,0.2
2025-05-29T2100,1282A,119.2681,26.0504,福州市,师大,,21,18,10,9,3,67,,80,75,19,12,4,4,0.4,0.3
2025-05-29T2100,1283A,119.2984,26.1028,福州市,五四北路,,23,23,9,7,2,52,,80,74,20,13,3,3,0.5,0.5
2025-05-29T2100,1284A,119.2648,26.0768,福州市,杨桥西路,,30,30,10,20,3,51,,81,75,25,11,3,3,0.5,0.4
2025-05-29T2100,1285A,119.317,26.0746,福州市,紫阳,,28,28,15,18,5,53,,72,61,30,20,5,5,0.5,0.4
2025-05-29T2100,3048A,119.5799,26.0936,福州市,九龙,,,22,10,9,2,,,68,58,13,9,5,4,0.3,0.3
2025-05-29T2100,3526A,119.5189,25.9664,福州市,吴航,,23,22,9,16,6,33,,93,81,22,11,4,4,0.4,0.3
2025-05-29T2100,1755A,123.7977,41.8491,抚顺市,望花区,颗粒物(PM10),56,62,66,39,36,99,,187,165,56,31,6,8,0.6,0.8
2025-05-29T2100,1756A,123.9161,41.8822,抚顺市,顺城区,颗粒物(PM10),54,57,52,27,30,123,,164,150,25,35,10,11,0.6,0.8
2025-05-29T2100,1757A,124.0436,41.8611,抚顺市,东洲区,,43,43,36,24,24,89,,161,139,32,19,7,8,0.5,0.5
2025-05-29T2100,1758A,123.9247,41.8642,抚顺市,新抚区,,45,45,58,26,28,123,,166,149,17,30,21,20,0.5,0.7
2025-05-29T2100,1759A,124.0972,41.8961,抚顺市,大伙房水库,细颗粒物(PM2.5),79,,31,58,28,120,,159,147,13,19,13,8,0.4,0.5
2025-05-29T2100,1760A,123.7086,41.8391,抚顺市,沈抚新城,,45,45,56,31,32,89,,180,160,56,33,8,11,0.7,0.9
2025-05-29T2100,2376A,116.2127,28.0814,抚州市,桐源党溪,,29,29,31,17,13,24,,91,74,3,3,3,3,0.9,0.8
2025-05-29T2100,2377A,116.3544,27.9831,抚州市,市站,,29,29,20,19,12,72,,110,102,11,5,3,2,0.7,0.6
2025-05-29T2100,2378A,116.3565,27.963,抚州市,血防站,,,,24,,11,,,114,111,16,5,2,4,0.7,0.2
2025-05-29T2100,2379A,116.3564,28.0007,抚州市,采茶剧团,,33,33,22,17,11,78,,111,103,3,2,3,6,0.3,0.2
2025-05-29T2100,2380A,116.385,27.9647,抚州市,医学分院,,,31,23,18,9,,,114,113,8,2,4,4,0.9,0.8
2025-05-29T2100,2207A,121.6094,41.998,阜新市,工业园区,颗粒物(PM10),51,51,56,30,25,158,,185,182,21,16,20,15,0.6,0.5
2025-05-29T2100,2208A,121.6697,42.0279,阜新市,长青街,颗粒物(PM10),83,115,57,33,24,149,,172,168,18,16,12,12,0.4,0.4
2025-05-29T2100,2209A,121.6673,42.0705,阜新市,农业园区,,,37,41,,25,159,,180,177,15,14,14,11,0.5,0.5
2025-05-29T2100,2210A,121.6717,42.0224,阜新市,东苑,,,53,49,29,24,,,183,181,22,17,14,12,0.6,0.5
2025-05-29T2100,2211A,121.6506,42.0498,阜新市,玉龙新城,,47,47,60,27,21,146,,171,168,18,13,15,11,0.7,0.6
2025-05-29T2100,2301A,115.8277,32.8929,阜阳市,市监测站,细颗粒物(PM2.5),78,94,97,57,58,158,,190,187,20,17,8,8,0.3,0.3
2025-05-29T2100,2303A,115.8554,32.8605,阜阳市,开发区,,,129,109,53,59,,,199,199,23,23,7,6,0.3,0.4
2025-05-29T2100,2875A,115.784,32.8892,阜阳市,阜阳职业技术学院,臭氧1小时,83,80,79,50,52,186,,205,204,16,15,6,5,0.5,0.5
2025-05-29T2100,3468A,115.7901,32.8613,阜阳市,市规划展馆,颗粒物(PM10),73,95,101,47,65,160,,199,195,21,18,7,7,0.6,0.7
2025-05-29T2100,3469A,115.836,32.9183,阜阳市,枣园社区,颗粒物(PM10),76,102,99,49,61,156,,192,188,21,16,6,6,0.5,0.5
2025-05-29T2100,2669A,102.9099,34.9841,甘南藏族自治州,州政府,,36,36,41,18,17,83,,107,102,2,19,6,4,0.2,0.3
2025-05-29T2100,3380A,102.8914,34.9617,甘南藏族自治州,甘肃民族师范学院,,,,61,,17,,,76,,,29,,8,,0.4
2025-05-29T2100,2570A,101.9603,30.0475,甘孜藏族自治州,水桥子,,,12,12,7,5,48,,73,67,18,17,,5,0.6,0.6
2025-05-29T2100,3065A,101.9533,29.9972,甘孜藏族自治州,州环保局,,19,14,13,3,6,59,,76,72,11,13,2,1,0.5,0.5
2025-05-29T2100,3414A,115.8347,28.932,赣江新区,桑海产业园,,23,17,19,7,12,71,,123,115,30,12,4,5,0.5,0.5
2025-05-29T2100,2362A,114.9017,25.9149,赣州市,通天岩,,17,17,15,8,5,27,,72,55,3,4,1,1,0.8,0.9
2025-05-29T2100,2363A,114.9367,25.8664,赣州市,地委,,24,24,18,12,8,54,,76,69,18,7,1,1,0.7,0.6
2025-05-29T2100,2364A,114.9461,25.8481,赣州市,气象台,,32,32,22,10,7,43,,68,62,20,11,8,6,0.7,0.7
2025-05-29T2100,2365A,114.9322,25.8333,赣州市,市图书馆,,26,25,11,18,8,37,,73,63,24,7,4,4,0.6,0.5
2025-05-29T2100,2366A,114.8905,25.8471,赣州市,华坚鞋城,,,30,16,14,10,,,73,67,,8,,3,,0.3
2025-05-29T2100,3109A,115.0093,25.8613,赣州市,赣县区卫计委,,25,25,12,14,8,33,,67,58,15,7,2,3,0.5,0.5
2025-05-29T2100,2683A,106.2319,36.1417,固原市,马园,,29,26,43,11,15,91,,117,110,20,20,5,5,0.3,0.4
2025-05-29T2100,2684A,106.2792,36.0022,固原市,监测站,,32,31,30,9,13,102,,116,112,7,15,4,4,0.2,0.2
2025-05-29T2100,2685A,106.2375,36.0211,固原市,新区,,,,28,,13,,,111,109,9,11,4,5,,0.5
2025-05-29T2100,3522A,106.2177,35.9959,固原市,原州区十五小,,32,20,25,11,15,100,,116,113,9,9,11,11,0.1,0.1
2025-05-29T2100,2543A,106.6308,30.5278,广安市,小平旧居,,,,,,,,,,,,,,,,
2025-05-29T2100,2544A,106.6303,30.4576,广安市,市委,,,25,25,,19,114,,125,124,18,15,5,5,0.4,0.5
2025-05-29T2100,2545A,106.6271,30.4663,广安市,友谊中学,,35,26,23,19,15,110,,131,127,23,15,4,5,0.9,0.9
2025-05-29T2100,2547A,106.6388,30.4551,广安市,广电花园,,34,28,25,18,15,106,,129,126,20,15,7,7,0.6,0.5
2025-05-29T2100,2902A,106.6351,30.4865,广安市,北辰小学,,37,32,26,20,15,116,,137,134,17,15,6,9,0.7,0.7
2025-05-29T2100,2523A,105.8945,32.4535,广元市,黑石坡,,34,34,44,13,17,82,,91,91,10,8,8,6,0.4,0.5
2025-05-29T2100,2524A,105.821,32.4444,广元市,老城,,28,28,33,17,17,88,,113,111,16,13,1,2,0.8,0.8
2025-05-29T2100,2526A,105.8628,32.4287,广元市,监测站,,25,12,28,11,20,79,,102,100,15,13,4,6,0.5,0.6
2025-05-29T2100,3617A,105.8047,32.4166,广元市,经开区,,29,29,37,16,23,76,,106,103,24,18,4,9,0.5,0.5
2025-05-29T2100,1345A,113.2347,23.1423,广州市,广雅中学,,25,17,22,11,15,6,,34,31,49,35,2,2,0.8,0.7
2025-05-29T2100,1346A,113.2612,23.105,广州市,市五中,,14,12,24,6,16,20,,31,31,28,31,2,3,0.8,0.8
2025-05-29T2100,1348A,113.3478,23.0916,广州市,广东商学院,,16,8,23,6,19,12,,32,28,32,37,3,4,1.0,1
2025-05-29T2100,1349A,113.4332,23.1047,广州市,市八十六中,,16,7,27,3,19,19,,27,25,31,39,2,3,0.3,0.4
2025-05-29T2100,1350A,113.3505,22.9483,广州市,番禺中学,,17,12,29,3,20,20,,35,33,33,38,6,6,0.8,1.1
2025-05-29T2100,1351A,113.2146,23.3916,广州市,花都师范,,17,7,21,3,17,53,,52,52,16,24,3,3,0.7,0.8
2025-05-29T2100,1352A,113.2597,23.1331,广州市,市监测站,,,13,23,7,15,,,31,31,41,37,4,4,0.8,0.7
2025-05-29T2100,1353A,113.5618,23.312,广州市,九龙镇镇龙,,13,6,15,3,11,40,,39,39,8,15,6,5,0.6,0.6
2025-05-29T2100,1354A,113.2765,23.1544,广州市,麓湖,,17,13,21,6,13,9,,29,26,33,35,3,3,0.6,0.6
2025-05-29T2100,1355A,113.443,23.3035,广州市,帽峰山森林公园,,15,6,12,3,13,25,,46,41,29,17,4,5,0.7,0.7
2025-05-29T2100,2846A,113.3221,23.1322,广州市,体育西,,16,12,29,7,15,22,,37,34,31,39,4,5,0.8,0.8
2025-05-29T2100,3298A,113.5717,23.5491,广州市,从化街口,,13,6,16,3,12,39,,45,45,12,16,6,6,0.8,0.8
2025-05-29T2100,3299A,113.3472,23.3692,广州市,白云竹料,,,,19,,15,,,66,66,10,15,2,2,0.7,0.7
2025-05-29T2100,3300A,113.2981,23.237,广州市,白云嘉禾,,20,20,30,7,19,19,,36,34,37,36,6,6,1.0,1
2025-05-29T2100,3301A,113.4256,23.1716,广州市,黄埔科学城,,11,6,26,3,19,20,,31,30,22,21,4,4,0.7,0.6
2025-05-29T2100,3302A,113.3942,23.0483,广州市,番禺大学城,,,19,29,3,7,,,36,35,35,34,5,5,0.7,0.7
2025-05-29T2100,3303A,113.4922,22.8168,广州市,南沙黄阁,,24,24,36,6,23,17,,32,27,32,37,6,5,0.7,0.7
2025-05-29T2100,3304A,113.5342,22.7896,广州市,南沙街,,28,28,28,7,17,26,,47,39,33,35,2,2,0.8,0.8
2025-05-29T2100,3443A,113.2902,23.5544,广州市,花都梯面,,18,6,23,3,16,57,,54,54,8,14,4,4,0.5,0.6
2025-05-29T2100,3445A,113.7858,23.7478,广州市,从化良口,,11,6,13,3,11,35,,53,50,13,9,6,6,0.5,0.5
2025-05-29T2100,3446A,113.8051,23.2614,广州市,增城荔城,,12,7,20,3,15,37,,46,45,8,11,8,8,0.4,0.4
2025-05-29T2100,2505A,109.568,23.1478,贵港市,德智高中,,,,,,,,,,,,,,,,
2025-05-29T2100,2506A,109.6047,23.0666,贵港市,江南子站,,,,,,,,,,,,,,,,
2025-05-29T2100,2508A,109.5669,23.1065,贵港市,荷城子站,,14,9,19,3,9,44,,53,52,13,12,4,5,0.5,0.5
2025-05-29T2100,3405A,109.5886,23.1172,贵港市,新世纪学校,,15,12,16,8,12,46,,54,52,11,13,1,2,0.7,0.6
2025-05-29T2100,4260A,109.5933,23.0951,贵港市,中山路155-3号,,23,23,25,6,13,53,,66,63,13,11,3,3,0.6,0.5
2025-05-29T2100,1439A,106.6899,26.5998,贵阳市,马鞍山,,22,22,12,3,3,52,,63,61,9,6,3,3,0.4,0.3
2025-05-29T2100,1441A,106.6243,26.6266,贵阳市,鉴湖路,,25,24,20,17,7,56,,64,64,10,11,7,7,0.4,0.4
2025-05-29T2100,1442A,106.7487,26.6343,贵阳市,燕子冲,,32,,19,22,15,71,,84,83,9,8,4,4,0.4,0.4
2025-05-29T2100,1443A,106.6555,26.4365,贵阳市,碧云窝,,36,36,20,24,7,74,,90,86,13,9,4,4,0.4,0.4
2025-05-29T2100,1445A,106.7109,26.6027,贵阳市,红边门,,28,24,14,19,12,70,,83,82,6,6,8,6,0.2,0.3
2025-05-29T2100,1446A,106.7164,26.5699,贵阳市,新华路,,24,24,13,9,7,72,,84,81,11,7,6,8,0.4,0.4
2025-05-29T2100,1447A,106.674,26.5424,贵阳市,太慈桥,,26,24,13,14,6,81,,83,82,16,11,4,4,0.3,0.3
2025-05-29T2100,1552A,106.805,26.3003,贵阳市,桐木岭,细颗粒物(PM2.5),52,46,28,36,15,84,,82,82,4,3,1,1,0.8,0.5
2025-05-29T2100,4230A,106.6882,26.5695,贵阳市,花果园大街66号,,23,17,12,14,11,72,,82,80,11,8,4,3,0.3,0.3
2025-05-29T2100,4231A,106.6873,26.5169,贵阳市,漓江路57号,,27,27,14,17,9,79,,81,80,12,8,2,2,0.4,0.4
2025-05-29T2100,1862A,110.4144,25.3167,桂林市,电子科大尧山校区,,,,,,,,,,,,,,,,
2025-05-29T2100,1864A,110.3089,25.2708,桂林市,龙隐路小学,,24,24,13,12,8,51,,86,82,9,7,8,8,0.7,0.7
2025-05-29T2100,1865A,110.2869,25.2178,桂林市,八中,,23,23,15,10,6,46,,80,76,34,14,6,5,0.7,0.7
2025-05-29T2100,3531A,110.296,25.1253,桂林市,旅游学院,,,17,5,3,5,,,75,75,6,10,2,2,0.4,0.4
2025-05-29T2100,4222A,110.1835,25.2444,桂林市,环湖路276号,,25,19,17,12,14,77,,86,86,12,11,5,17,0.5,0.6
2025-05-29T2100,4301A,110.2803,25.2773,桂林市,信义路13号,,23,23,14,6,11,60,,83,81,20,12,2,2,0.6,0.6
2025-05-29T2100,2674A,100.2561,34.4714,果洛藏族自治州,玛沁县大武镇,,,47,25,24,13,,,132,132,1,5,22,21,0.3,0.4
2025-05-29T2100,1129A,126.5422,45.755,哈尔滨市,岭北,,,26,37,15,29,139,,170,164,20,19,,13,0.6,0.7
2025-05-29T2100,1130A,126.561,45.8167,哈尔滨市,松北商大,,38,32,44,16,22,120,,159,148,20,24,4,6,0.6,0.6
2025-05-29T2100,1131A,126.979,45.5419,哈尔滨市,阿城会宁,,46,46,49,20,22,110,,192,169,24,22,7,8,0.5,0.5
2025-05-29T2100,1132A,126.599,45.7222,哈尔滨市,南岗学府路,颗粒物(PM10),53,55,57,29,27,118,,172,164,30,19,9,9,0.6,0.6
2025-05-29T2100,1133A,126.689,45.7733,哈尔滨市,太平宏伟公园,,38,36,59,23,26,121,,162,155,33,21,6,6,0.6,0.5
2025-05-29T2100,1134A,126.635,45.7667,哈尔滨市,道外承德广场,,46,46,57,26,26,120,,164,153,38,31,7,7,0.5,0.6
2025-05-29T2100,1135A,126.685,45.7319,哈尔滨市,香坊红旗大街,颗粒物(PM10),62,73,64,26,28,102,,170,157,52,35,7,8,0.7,0.6
2025-05-29T2100,1136A,126.6411,45.7258,哈尔滨市,动力和平路,,45,45,59,29,30,119,,159,153,31,24,10,10,0.5,0.5
2025-05-29T2100,1137A,126.593,45.7478,哈尔滨市,道里建国路,细颗粒物(PM2.5),53,,49,37,30,120,,172,158,30,23,4,5,0.8,0.9
2025-05-29T2100,1138A,126.615,45.61,哈尔滨市,平房东轻厂,,43,43,54,24,26,114,,174,161,21,20,7,9,0.4,0.5
2025-05-29T2100,1139A,126.595,45.9855,哈尔滨市,呼兰师专,,49,49,59,25,30,123,,159,148,27,24,10,9,0.7,0.6
2025-05-29T2100,1140A,126.6206,45.6842,哈尔滨市,省农科院,颗粒物(PM10),52,53,80,27,32,102,,162,150,38,30,5,5,0.7,0.7
2025-05-29T2100,2688A,93.5128,42.8172,哈密市,地区监测站,,,52,50,,17,,,105,105,18,12,3,3,0.1,0
2025-05-29T2100,2689A,93.4961,42.8328,哈密市,哈密师范学校,,38,38,42,10,13,96,,110,109,15,15,4,5,0.3,0.3
2025-05-29T2100,2671A,100.9048,36.9639,海北藏族自治州,海晏县西海镇,,40,38,72,25,27,126,,148,145,5,5,9,14,0.5,0.5
2025-05-29T2100,3867A,102.0738,36.5056,海东市,平安区公安北苑,颗粒物(PM10),105,159,120,61,51,113,,127,126,4,7,11,13,0.7,0.8
2025-05-29T2100,1409A,110.576,19.9507,海口市,东寨港,,12,,10,8,9,28,,39,35,4,3,6,7,0.4,0.4
2025-05-29T2100,1410A,110.3232,20.0574,海口市,海南大学,,10,10,15,3,7,31,,52,42,4,5,3,3,0.4,0.4
2025-05-29T2100,1411A,110.283,20.0053,海口市,秀英海南医院,,,18,19,7,7,27,,58,42,12,12,,5,0.2,0.3
2025-05-29T2100,1412A,110.338,19.9969,海口市,海南师范大学,,14,14,16,6,9,30,,55,44,7,6,4,4,0.4,0.4
2025-05-29T2100,1413A,110.33,20.0356,海口市,龙华路环保局宿舍,,15,15,17,8,8,31,,52,42,6,6,4,4,0.3,0.3
2025-05-29T2100,3539A,110.5111,19.9736,海口市,桂林洋子站,,10,10,17,3,8,25,,38,33,7,8,5,4,0.2,0.2
2025-05-29T2100,2673A,100.6188,36.2866,海南藏族自治州,共和县恰卜恰镇,颗粒物(PM10),73,96,42,37,29,117,,136,133,3,14,17,13,0.4,0.4
2025-05-29T2100,2676A,97.3731,37.3753,海西蒙古族藏族自治州,德令哈市,颗粒物(PM10),69,87,125,35,44,98,,122,107,5,4,10,11,1.0,0.8
2025-05-29T2100,1048A,114.5302,36.6116,邯郸市,东污水处理厂,颗粒物(PM10),52,54,67,19,29,156,,182,176,19,26,7,9,0.4,0.5
2025-05-29T2100,1049A,114.4918,36.5713,邯郸市,矿院,颗粒物(PM10),58,66,55,24,32,146,,173,168,14,19,4,6,0.4,0.5
2025-05-29T2100,1050A,114.484,36.6133,邯郸市,丛台公园,臭氧1小时,58,54,59,24,34,166,,174,172,13,19,6,8,0.4,0.5
2025-05-29T2100,3458A,114.7895,36.5593,邯郸市,香泉濮院小区,颗粒物(PM10),73,95,83,25,28,154,,195,187,18,19,4,6,0.4,0.4
2025-05-29T2100,3579A,114.50634,36.77178,邯郸市,永年区实验高中,颗粒物(PM10),62,74,74,36,44,165,,198,190,17,20,3,7,0.1,0.4
2025-05-29T2100,3580A,114.20016,36.44293,邯郸市,峰峰矿区临水派出所,,,64,49,20,22,151,,184,178,14,11,12,10,,0.5
2025-05-29T2100,2634A,106.9893,33.1842,汉中市,汉川机床厂子校,,34,26,26,15,18,108,,126,122,9,10,4,4,0.4,0.4
2025-05-29T2100,2635A,107.0154,33.0706,汉中市,市监测站,,31,23,36,16,21,97,,120,113,9,10,5,6,0.5,0.6
2025-05-29T2100,2636A,107.0089,33.1138,汉中市,鑫源开发区,,30,17,39,15,24,95,,116,110,9,16,5,6,0.5,0.6
2025-05-29T2100,2637A,107.007,33.0323,汉中市,南郑大河坎水厂,,30,,30,12,19,96,,117,111,10,11,6,6,0.4,0.5
2025-05-29T2100,1223A,120.2072,30.2111,杭州市,滨江,,,53,32,34,17,,,156,147,39,21,9,7,,0.2
2025-05-29T2100,1224A,120.0633,30.2747,杭州市,西溪,,35,30,21,24,16,77,,151,138,23,14,4,4,0.3,0.3
2025-05-29T2100,1226A,120.3417,30.3150,杭州市,下沙,,35,35,23,19,13,76,,144,123,30,25,8,7,0.3,0.3
2025-05-29T2100,1227A,120.1269,30.2456,杭州市,卧龙桥,,42,39,26,29,17,51,,159,137,27,13,8,8,0.4,0.3
2025-05-29T2100,1228A,120.1903,30.2692,杭州市,浙江农大,,47,47,28,28,18,74,,124,114,26,19,10,9,0.4,0.4
2025-05-29T2100,1230A,120.1197,30.3119,杭州市,和睦小学,,34,34,22,17,15,87,,147,135,22,14,8,7,0.4,0.3
2025-05-29T2100,1231A,120.3019,30.4183,杭州市,临平镇,,44,44,29,23,17,76,,143,125,23,19,6,6,0.4,0.4
2025-05-29T2100,1232A,120.2753,30.1839,杭州市,城厢镇,细颗粒物(PM2.5),60,,27,43,20,78,,153,135,33,24,11,8,0.4,0.4
2025-05-29T2100,1233A,120.0883,30.1808,杭州市,云栖,,40,40,29,24,16,55,,164,142,35,21,6,6,0.4,0.4
2025-05-29T2100,3557A,119.9464,30.0494,杭州市,镇二中,,47,47,24,29,19,106,,148,144,24,20,3,3,0.4,0.4
2025-05-29T2100,3558A,119.7183,30.2367,杭州市,市府大楼,,44,44,29,30,13,124,,172,168,27,20,8,8,0.5,0.4
2025-05-29T2100,3656A,120.1556,30.2864,杭州市,消防大队,,36,33,24,25,16,86,,142,129,28,19,5,5,0.5,0.5
2025-05-29T2100,1270A,117.1959,31.7848,合肥市,明珠广场,颗粒物(PM10),96,141,54,44,33,145,,180,174,33,24,6,6,0.3,0.4
2025-05-29T2100,1271A,117.3072,31.8764,合肥市,三里街,颗粒物(PM10),52,53,58,27,34,131,,164,162,36,24,7,6,0.5,0.5
2025-05-29T2100,1272A,117.2588,31.8707,合肥市,琥珀山庄,,48,44,52,22,35,151,,177,175,23,20,6,6,0.5,0.5
2025-05-29T2100,1273A,117.1604,31.9052,合肥市,董铺水库,,47,36,54,19,29,149,,163,162,17,19,3,3,0.4,0.4
2025-05-29T2100,1274A,117.25,31.8571,合肥市,长江中路,颗粒物(PM10),51,51,60,31,35,149,,171,170,23,20,7,6,0.5,0.5
2025-05-29T2100,1275A,117.266,31.9436,合肥市,庐阳区,臭氧1小时,53,39,57,27,35,162,,173,173,13,21,7,7,0.5,0.6
2025-05-29T2100,1276A,117.3453,31.8616,合肥市,瑶海区,颗粒物(PM10),57,63,61,24,35,112,,161,154,48,29,7,7,0.4,0.5
2025-05-29T2100,1277A,117.3027,31.7964,合肥市,包河区,,,46,54,27,36,,,174,174,23,29,5,5,0.4,0.5
2025-05-29T2100,1278A,117.2776,31.7385,合肥市,滨湖新区,,48,41,50,31,37,152,,170,168,17,14,7,6,0.4,0.6
2025-05-29T2100,1279A,117.1318,31.8403,合肥市,高新区,,48,44,50,26,33,152,,175,172,21,20,6,6,0.4,0.5
2025-05-29T2100,3464A,117.3803,31.9147,合肥市,高教基地,颗粒物(PM10),51,51,53,20,34,145,,168,166,19,16,8,7,0.6,0.7
2025-05-29T2100,3614A,79.924,37.0877,和田地区,地区环保局,颗粒物(PM10),500,632,1544,156,347,58,,60,60,12,13,1,2,0.6,0.7
2025-05-29T2100,3615A,79.9131,37.113,和田地区,市环保局,颗粒物(PM10),441,541,1375,106,345,63,,70,69,9,5,3,3,0.4,0.4
2025-05-29T2100,2516A,108.2011,24.715,河池市,东仁乐园,,,,,,,,,,,,,,,,
2025-05-29T2100,2517A,108.0497,24.6947,河池市,市环保站,,14,,8,7,3,43,,55,53,5,7,6,6,0.6,0.6
2025-05-29T2100,2518A,108.0983,24.6989,河池市,市疾控中心,,14,14,7,3,2,28,,52,47,18,13,6,6,0.7,0.6
2025-05-29T2100,1696A,114.6778,23.7569,河源市,源西,,13,9,11,9,14,37,,50,48,23,18,4,3,0.7,0.6
2025-05-29T2100,1697A,114.6944,23.7586,河源市,东埔,,15,,10,10,15,46,,52,51,16,12,4,4,0.8,0.7
2025-05-29T2100,1698A,114.6892,23.7233,河源市,老城,,14,8,11,6,9,44,,48,47,14,13,4,4,0.6,0.6
2025-05-29T2100,1718A,115.4208,35.2464,菏泽市,气象局,臭氧1小时,79,96,78,39,37,183,,201,196,18,16,4,5,0.4,0.4
2025-05-29T2100,3374A,115.5564,35.0891,菏泽市,定陶老年大学,颗粒物(PM10),67,83,63,34,32,152,,174,171,24,18,3,7,0.2,0.6
2025-05-29T2100,4184A,115.4797,35.24401,菏泽市,永昌路1号,臭氧1小时,69,79,74,39,48,175,,196,191,21,19,6,9,0.3,0.3
2025-05-29T2100,4193A,115.4715,35.2800,菏泽市,长城路999号,臭氧1小时,88,89,79,40,34,190,,203,200,19,19,8,10,0.4,0.4
2025-05-29T2100,2514A,111.5264,24.4172,贺州市,环保小区,,42,,8,29,9,42,,54,52,12,10,7,6,0.8,0.6
2025-05-29T2100,2515A,111.5608,24.4078,贺州市,政协大楼,,13,,7,8,5,41,,56,52,14,10,9,8,0.9,0.7
2025-05-29T2100,3534A,111.4744,24.4553,贺州市,西湾,,15,,11,10,8,22,,55,49,23,8,7,7,1.0,0.8
2025-05-29T2100,2385A,114.17,35.9019,鹤壁市,市监测站,臭氧1小时,74,78,67,39,41,179,,215,208,24,18,7,9,2.5,1.3
2025-05-29T2100,2386A,114.2956,35.7511,鹤壁市,市交警支队,颗粒物(PM10),66,82,64,37,34,153,,198,190,32,27,9,8,0.6,0.7
2025-05-29T2100,2387A,114.2878,35.7306,鹤壁市,迎宾馆,颗粒物(PM10),75,100,77,50,43,152,,204,194,27,27,5,4,0.6,0.7
2025-05-29T2100,3474A,114.2617,35.6822,鹤壁市,大新区,细颗粒物(PM2.5),59,65,57,42,36,137,,200,188,38,20,9,6,0.7,0.7
2025-05-29T2100,3596A,114.1572,35.9603,鹤壁市,南山宾馆,细颗粒物(PM2.5),88,92,78,65,47,182,,216,210,26,14,5,5,0.9,0.8
2025-05-29T2100,2244A,130.2537,47.3416,鹤岗市,哈啤分公司,,49,36,36,34,29,142,,178,160,13,12,13,13,0.4,0.4
2025-05-29T2100,2245A,130.2684,47.3086,鹤岗市,斯达机电,颗粒物(PM10),59,68,55,39,30,154,,157,152,14,17,14,16,0.7,0.7
2025-05-29T2100,2246A,130.3114,47.3388,鹤岗市,东山纸板厂,颗粒物(PM10),76,102,71,29,30,137,,168,159,22,23,20,17,0.8,0.9
2025-05-29T2100,2247A,130.1097,47.3382,鹤岗市,五号水库,,,,,,,,,,,,,,,,
2025-05-29T2100,2263A,127.4833,50.2524,黑河市,交通局,,49,49,57,23,23,92,,106,,9,9,6,7,0.4,0.4
2025-05-29T2100,2264A,127.5144,50.2341,黑河市,环保局,"颗粒物(PM10),细颗粒物(PM2.5)",55,59,68,39,31,137,,164,159,10,8,19,6,0.6,0.3
2025-05-29T2100,2265A,127.5291,50.2472,黑河市,大黑河岛,,,23,59,,,142,,123,110,7,8,11,4,0.4,0.4
2025-05-29T2100,1074A,115.6838,37.7541,衡水市,电机北厂,臭氧1小时,95,63,70,34,36,196,,224,219,12,16,3,3,0.4,0.4
2025-05-29T2100,1075A,115.6303,37.7316,衡水市,市监测站,臭氧1小时,90,62,69,34,33,192,,220,216,11,16,9,10,0.4,0.5
2025-05-29T2100,3188A,115.6683,37.7217,衡水市,市城管局,细颗粒物(PM2.5),73,79,68,53,38,176,,222,216,25,22,3,5,0.3,0.4
2025-05-29T2100,3459A,115.5989,37.5491,衡水市,地表水厂,"颗粒物(PM10),臭氧1小时",63,75,80,30,36,170,,214,205,24,34,10,10,0.4,0.4
2025-05-29T2100,2456A,112.5003,26.9167,衡阳市,原169医院,,31,21,17,12,11,98,,115,113,9,11,2,2,0.7,0.6
2025-05-29T2100,2457A,112.6194,26.9258,衡阳市,衡阳化工总厂,,25,23,30,15,12,78,,105,101,16,6,6,6,0.6,0.5
2025-05-29T2100,2458A,112.6211,26.8956,衡阳市,珠晖区环保局,,32,26,20,12,10,100,,110,110,10,11,7,7,0.8,0.7
2025-05-29T2100,2459A,112.6197,26.8733,衡阳市,市委党校,,22,22,21,14,9,66,,102,96,24,10,4,4,0.6,0.5
2025-05-29T2100,2460A,112.6006,26.8919,衡阳市,市监测站,,30,30,18,19,13,67,,103,97,27,9,9,8,0.6,0.4
2025-05-29T2100,2461A,112.5664,26.9056,衡阳市,真空机电公司,,28,26,15,13,9,87,,106,102,11,8,5,6,0.8,0.7
2025-05-29T2100,3399A,112.6703,26.882,衡阳市,师范学院,,33,,19,23,11,80,,108,104,17,8,7,7,0.8,0.7
2025-05-29T2100,2608A,103.3772,23.3993,红河哈尼族彝族自治州,污水处理厂,,29,29,15,16,13,65,,75,75,14,10,5,8,0.4,0.4
2025-05-29T2100,2609A,103.3861,23.35,红河哈尼族彝族自治州,监测站,,30,30,21,21,12,57,,71,71,12,8,9,15,0.7,0.5
2025-05-29T2100,3038A,103.3758,23.368,红河哈尼族彝族自治州,州图书馆,,30,28,14,21,11,61,,75,75,8,8,3,8,0.4,0.4
2025-05-29T2100,1090A,111.6507,40.7517,呼和浩特市,呼市一监,颗粒物(PM10),67,83,70,26,31,118,,186,176,33,14,11,11,0.1,0.2
2025-05-29T2100,1091A,111.6572,40.8033,呼和浩特市,小召,颗粒物(PM10),57,63,74,22,26,133,,188,177,38,21,10,9,0.6,0.7
2025-05-29T2100,1094A,111.7516,40.8369,呼和浩特市,如意水处理厂,颗粒物(PM10),58,65,61,20,29,141,,187,181,34,24,8,7,0.3,0.4
2025-05-29T2100,1095A,111.7276,40.8062,呼和浩特市,二十九中,,,,54,,29,,,143,,,19,,6,,0.4
2025-05-29T2100,1096A,111.5512,40.7866,呼和浩特市,工大金川校区,颗粒物(PM10),53,56,69,27,34,128,,195,183,43,25,8,11,0.5,0.6
2025-05-29T2100,1097A,111.717,40.7612,呼和浩特市,化肥厂生活区,,,,59,,29,137,,193,184,,24,8,8,0.4,0.5
2025-05-29T2100,3698A,111.5968,40.8178,呼和浩特市,红旗小学,颗粒物(PM10),59,68,78,25,37,135,,201,189,52,37,4,8,0.4,0.5
2025-05-29T2100,3699A,111.6518,40.8389,呼和浩特市,海东办,颗粒物(PM10),56,61,67,24,33,132,,183,174,34,28,8,10,0.5,0.5
2025-05-29T2100,2192A,119.7594,49.2261,呼伦贝尔市,区环保局,,35,31,54,24,43,86,,121,94,13,9,6,6,0.2,0.3
2025-05-29T2100,3061A,119.7512,49.1577,呼伦贝尔市,国华电力东,,30,30,54,18,36,90,,123,98,6,7,4,4,0.2,0.3
2025-05-29T2100,1250A,120.0751,30.8669,湖州市,城西水厂,,41,41,44,25,28,107,,192,181,30,23,6,6,0.4,0.4
2025-05-29T2100,2873A,120.0830,30.8929,湖州市,仁皇山新区,,41,41,41,25,27,109,,186,176,22,20,11,8,0.6,0.6
2025-05-29T2100,2907A,120.1844,30.8596,湖州市,吴兴区站,,43,43,43,28,28,93,,177,164,26,23,8,8,0.3,0.3
2025-05-29T2100,3562A,120.4148,30.8538,湖州市,南浔区站,,46,46,41,23,26,91,,174,158,20,20,5,5,0.4,0.4
2025-05-29T2100,1607A,120.9049,40.7211,葫芦岛市,龙港区,臭氧1小时,83,31,37,26,24,186,,173,173,11,11,10,10,0.5,0.5
2025-05-29T2100,1608A,120.8392,40.7514,葫芦岛市,化工街,,,53,47,34,27,,,159,159,20,15,10,8,0.5,0.6
2025-05-29T2100,1609A,120.8341,40.7073,葫芦岛市,新区,臭氧1小时,72,34,38,34,30,177,,169,169,13,14,8,7,0.6,0.7
2025-05-29T2100,1610A,120.8695,40.7677,葫芦岛市,东城区,细颗粒物(PM2.5),64,,39,46,32,169,,164,164,17,17,6,6,0.7,0.6
2025-05-29T2100,2482A,109.5981,27.5721,怀化市,林科所,,28,28,22,3,10,35,,82,68,13,6,3,5,0.5,0.6
2025-05-29T2100,2483A,109.9453,27.5444,怀化市,河西地税局,,,42,23,28,14,,,80,72,18,14,1,2,0.1,0.6
2025-05-29T2100,2484A,109.9781,27.5342,怀化市,市四医院,颗粒物(PM10),55,60,32,27,19,48,,82,77,18,8,5,3,1.0,0.8
2025-05-29T2100,2485A,109.9972,27.5578,怀化市,监测楼,,42,40,29,29,18,40,,80,74,24,9,11,8,0.5,0.3
2025-05-29T2100,2486A,110.0394,27.583,怀化市,市委党校,,31,31,23,17,19,32,,75,70,21,10,2,5,0.8,0.7
2025-05-29T2100,1210A,119.036,33.5981,淮安市,钵池山,,39,39,33,24,28,110,,143,138,24,17,7,8,0.5,0.5
2025-05-29T2100,1211A,119.007,33.575,淮安市,北京南路,,46,46,40,24,29,118,,152,145,23,11,8,10,0.5,0.5
2025-05-29T2100,1212A,118.989,33.6067,淮安市,市监测站,,38,34,37,24,27,120,,135,132,16,13,10,11,0.7,0.8
2025-05-29T2100,1213A,119.135,33.5039,淮安市,楚州区监测站,颗粒物(PM10),59,68,43,27,31,85,,130,122,34,10,10,9,0.7,0.5
2025-05-29T2100,3426A,118.8755,33.2894,淮安市,新华书店,颗粒物(PM10),56,62,47,24,28,125,,172,165,29,17,10,10,0.6,0.9
2025-05-29T2100,4206A,119.0288,33.6319,淮安市,承德北路606号,颗粒物(PM10),54,58,46,26,30,104,,143,137,33,14,7,8,0.4,0.4
2025-05-29T2100,2282A,116.8004,33.975,淮北市,监测站,臭氧1小时,77,68,65,28,39,181,,198,196,9,9,7,7,0.6,0.7
2025-05-29T2100,2283A,116.8091,33.9007,淮北市,烈山区政府,,,112,61,35,38,,,205,205,17,16,4,6,0.8,0.8
2025-05-29T2100,3330A,116.8873,33.9836,淮北市,杜集区检察院,臭氧1小时,82,70,68,31,40,185,,196,196,16,16,8,9,0.8,0.9
2025-05-29T2100,4017A,116.7923,33.9535,淮北市,市博物馆,臭氧1小时,92,65,58,28,41,193,,211,209,15,15,6,7,0.7,0.7
2025-05-29T2100,2277A,116.8305,32.7727,淮南市,潘集区政府,颗粒物(PM10),69,87,83,42,54,134,,187,171,26,19,7,6,0.4,0.6
2025-05-29T2100,2279A,116.8569,32.5951,淮南市,谢家集区政府,颗粒物(PM10),77,104,81,42,46,118,,183,163,37,21,7,7,0.3,0.4
2025-05-29T2100,2280A,116.8281,32.633,淮南市,八公山区政府,颗粒物(PM10),59,67,74,30,43,140,,187,174,13,13,6,6,0.3,0.4
2025-05-29T2100,2281A,116.6325,32.6201,淮南市,焦岗湖风景区管理处,,,,,,,,,,,,,,,,
2025-05-29T2100,2894A,117.0566,32.6531,淮南市,经济技术开发区消防队,,,80,75,51,53,,,168,165,25,19,7,7,0.4,0.5
2025-05-29T2100,3329A,117.0108,32.5893,淮南市,山南新区,细颗粒物(PM2.5),82,101,86,60,60,147,,190,177,23,17,10,8,0.5,0.5
2025-05-29T2100,4209A,117.0031,32.6445,淮南市,国庆中路369号,颗粒物(PM10),72,94,84,32,50,146,,185,177,16,12,6,5,0.5,0.4
2025-05-29T2100,2446A,114.9028,30.4742,黄冈市,职工中心,,,,34,,27,150,,158,158,11,8,,7,0.6,0.6
2025-05-29T2100,2929A,114.8858,30.4519,黄冈市,红卫路,,44,37,34,29,33,140,,155,154,12,5,4,4,0.6,0.6
2025-05-29T2100,3398A,114.9136,30.4445,黄冈市,市林业局,颗粒物(PM10),56,61,39,26,26,129,,149,147,20,10,10,8,0.7,0.7
2025-05-29T2100,2672A,102.0199,35.5102,黄南藏族自治州,同仁县隆务镇,,,130,44,21,13,,,124,124,5,4,,5,0.3,0.2
2025-05-29T2100,2295A,118.2903,29.6963,黄山市,延安路89号,,28,17,16,3,10,89,,107,104,9,5,5,5,0.3,0.3
2025-05-29T2100,2297A,118.1371,30.2756,黄山市,黄山区政府5号楼,,26,24,22,15,15,82,,112,107,6,4,4,3,0.3,0.3
2025-05-29T2100,4210A,118.3354,29.7203,黄山市,滨江东路7-2号,,31,18,23,3,11,98,,109,108,6,5,4,4,0.2,0.2
2025-05-29T2100,2423A,115.0601,30.2313,黄石市,沈家营,,44,32,29,24,16,138,,152,151,9,10,6,7,0.6,0.7
2025-05-29T2100,2426A,114.8988,30.2019,黄石市,铁山,,36,36,31,25,15,92,,152,143,39,6,5,4,0.6,0.6
2025-05-29T2100,2427A,115.0307,30.2092,黄石市,团城山,,50,36,32,17,13,157,,162,162,7,7,7,9,0.4,0.5
2025-05-29T2100,3149A,115.0235,30.1578,黄石市,笔架山北路,,45,32,24,14,11,142,,153,152,16,12,8,8,0.5,0.6
2025-05-29T2100,4185A,115.0780,30.21118,黄石市,磁湖东路29号,,49,42,30,34,19,145,,156,155,13,8,6,7,0.6,0.6
2025-05-29T2100,1392A,114.4183,23.0528,惠州市,河南岸金山湖子站,,11,6,24,3,18,35,,43,39,14,14,10,9,0.7,0.7
2025-05-29T2100,1393A,114.4053,23.0822,惠州市,下埔横江三路子站,,13,6,26,3,19,40,,52,44,12,12,5,6,0.5,0.5
2025-05-29T2100,1394A,114.4103,23.1142,惠州市,江北云山西路子站,,14,6,11,3,17,42,,49,47,12,13,7,7,0.5,0.7
2025-05-29T2100,1395A,114.4645,22.7833,惠州市,惠阳区承修路船湖子站,,15,15,34,10,20,18,,59,36,26,16,7,8,0.7,0.6
2025-05-29T2100,1396A,114.5317,22.7422,惠州市,大亚湾管委会子站,,10,8,34,3,20,32,,59,37,19,12,8,8,0.7,0.6
2025-05-29T2100,3314A,114.4338,22.8134,惠州市,惠阳秋长,,12,9,27,8,20,35,,65,47,16,16,8,11,0.7,0.6
2025-05-29T2100,3452A,114.6517,22.775,惠州市,大亚湾霞涌,,11,8,22,3,16,34,,60,45,14,11,6,6,0.7,0.6
2025-05-29T2100,2240A,130.9762,45.3001,鸡西市,环保局,颗粒物(PM10),55,59,53,27,26,38,,145,116,55,27,6,6,0.8,0.6
2025-05-29T2100,2243A,130.9429,45.3039,鸡西市,第一中学,,,47,39,20,20,,,135,123,12,16,8,7,0.5,0.5
2025-05-29T2100,3707A,131.0207,45.3073,鸡西市,欧美日汽修厂,颗粒物(PM10),55,59,53,27,28,54,,141,113,31,26,7,7,0.5,0.4
2025-05-29T2100,3709A,130.9967,45.3106,鸡西市,市政设施管理处,颗粒物(PM10),56,61,57,29,24,60,,141,115,36,32,7,6,0.6,0.5
2025-05-29T2100,2367A,114.9754,27.0803,吉安市,红声器材厂,,27,27,20,11,9,71,,99,96,14,9,11,11,0.6,0.5
2025-05-29T2100,2368A,114.9658,27.0999,吉安市,市森林工业局,,25,24,22,9,12,78,,94,92,10,6,7,6,0.7,0.4
2025-05-29T2100,2369A,114.99,27.1312,吉安市,市环境监测站,,37,37,24,3,13,68,,94,92,13,4,16,13,0.6,0.6
2025-05-29T2100,2370A,115.0093,27.0968,吉安市,青原区法院,,28,28,21,15,13,64,,98,91,11,7,4,5,0.4,0.3
2025-05-29T2100,1772A,126.54,43.8622,吉林市,哈达湾,颗粒物(PM10),57,64,51,35,22,108,,169,151,31,22,6,6,0.5,0.4
2025-05-29T2100,1773A,126.5844,43.8358,吉林市,东局子,细颗粒物(PM2.5),57,54,39,40,26,89,,172,145,45,20,6,6,1.0,0.7
2025-05-29T2100,1774A,126.5052,43.8245,吉林市,电力学院,细颗粒物(PM2.5),104,104,41,78,25,55,,166,136,41,27,6,6,0.8,0.5
2025-05-29T2100,1775A,126.6133,43.8972,吉林市,江北,,,63,46,35,23,,,176,155,22,18,8,7,0.9,0.6
2025-05-29T2100,1776A,126.555,43.8306,吉林市,江南公园,细颗粒物(PM2.5),59,57,36,42,28,104,,163,142,22,14,6,6,0.7,0.6
2025-05-29T2100,1778A,126.7061,43.7133,吉林市,丰满,,,,,,,,,,,,,,,,
2025-05-29T2100,2868A,126.4739,43.953,吉林市,九站,颗粒物(PM10),54,58,50,23,28,124,,182,159,28,34,7,8,0.4,0.4
2025-05-29T2100,1299A,116.9862,36.6114,济南市,科干所,臭氧1小时,77,44,47,29,24,181,,224,218,12,11,4,6,0.3,0.3
2025-05-29T2100,1300A,116.9376,36.665,济南市,农科所,臭氧1小时,57,49,52,27,24,165,,220,208,17,16,7,8,0.3,0.3
2025-05-29T2100,1301A,117.1265,36.6734,济南市,开发区,臭氧1小时,68,73,51,39,30,174,,236,229,29,14,10,9,1.0,0.7
2025-05-29T2100,1303A,117.0624,36.6868,济南市,省种子仓库,臭氧1小时,109,92,62,41,27,218,,253,250,26,17,11,7,0.7,0.5
2025-05-29T2100,1304A,116.9489,36.6447,济南市,机床二厂,颗粒物(PM10),59,68,60,29,26,141,,212,199,44,20,5,7,0.6,0.6
2025-05-29T2100,1305A,117.0495,36.663,济南市,市监测站,臭氧1小时,90,85,55,39,26,192,,226,222,31,14,13,10,0.9,0.6
2025-05-29T2100,1306A,116.7675,36.5484,济南市,长清党校,臭氧1小时,93,61,49,29,28,194,,212,208,20,13,5,6,0.6,0.5
2025-05-29T2100,1616A,117.6795,36.229,济南市,技术学院,臭氧1小时,87,56,45,34,26,189,,211,208,22,24,10,12,0.6,0.7
2025-05-29T2100,1961A,117.532,36.6868,济南市,东山小学,颗粒物(PM10),64,78,53,37,25,145,,228,218,33,6,5,5,0.4,0.4
2025-05-29T2100,3059A,117.7161,36.2049,济南市,泰兴公司,臭氧1小时,78,68,48,29,28,182,,209,204,26,23,6,8,0.5,0.6
2025-05-29T2100,3064A,117.6867,36.2171,济南市,莱芜战役纪念馆,臭氧1小时,89,61,50,37,29,191,,215,211,18,16,6,8,0.7,0.7
2025-05-29T2100,3494A,117.1673,36.9782,济南市,济阳区政府,臭氧1小时,111,83,82,37,31,221,,244,242,16,28,10,10,0.7,0.6
2025-05-29T2100,3495A,117.1171,36.63,济南市,锦屏中学,,44,44,46,24,26,136,,223,200,21,14,9,10,0.8,0.7
2025-05-29T2100,3682A,116.9814,36.6819,济南市,济南四建,臭氧1小时,108,73,56,39,28,215,,230,225,31,19,10,7,0.7,0.7
2025-05-29T2100,1653A,116.6251,35.4302,济宁市,火炬城,,,,55,,33,,,205,205,12,12,6,7,0.6,0.4
2025-05-29T2100,1655A,116.5491,35.4042,济宁市,电化厂,臭氧1小时,83,54,56,31,27,186,,196,196,3,6,2,4,0.6,0.6
2025-05-29T2100,3500A,116.5814,35.3707,济宁市,北湖一中,臭氧1小时,93,62,57,29,33,194,,207,207,8,10,6,6,0.6,0.5
2025-05-29T2100,3501A,116.8249,35.5593,济宁市,服务中心,臭氧1小时,73,65,62,27,23,178,,206,202,14,20,2,3,0.4,0.3
2025-05-29T2100,3678A,116.5907,35.4054,济宁市,市第七中学,臭氧1小时,77,49,54,24,25,181,,200,198,10,9,7,8,0.5,0.4
2025-05-29T2100,2255A,130.2751,46.8028,佳木斯市,佳纺,,,66,50,28,23,,,178,175,19,14,6,5,0.5,0.4
2025-05-29T2100,2256A,130.3995,46.8307,佳木斯市,发电厂,臭氧1小时,70,58,45,35,27,176,,184,182,16,18,5,5,0.6,0.5
2025-05-29T2100,2257A,130.3258,46.7975,佳木斯市,环保局,颗粒物(PM10),57,63,44,32,24,162,,177,174,14,11,5,4,0.4,0.3
2025-05-29T2100,2258A,130.3648,46.8032,佳木斯市,十一中,颗粒物(PM10),56,61,49,26,29,164,,179,176,18,16,6,4,0.6,0.5
2025-05-29T2100,2259A,130.3794,46.7588,佳木斯市,四丰,,,40,25,22,17,,,,,11,10,1,1,0.6,0.5
2025-05-29T2100,1252A,120.7436,30.778,嘉兴市,清河小学,,40,40,35,18,19,81,,150,133,18,17,8,7,0.6,0.6
2025-05-29T2100,1253A,120.726,30.7478,嘉兴市,嘉兴学院,,43,43,32,25,20,79,,157,138,24,18,9,6,0.5,0.6
2025-05-29T2100,2872A,120.7846,30.7525,嘉兴市,南湖区残联,,36,36,35,25,21,84,,156,138,14,14,8,7,0.5,0.5
2025-05-29T2100,3407A,120.6916,30.7739,嘉兴市,秀洲住建,,38,38,32,22,20,80,,165,146,22,20,11,7,0.4,0.4
2025-05-29T2100,1945A,98.2908,39.7711,嘉峪关市,气象局,颗粒物(PM10),73,95,66,39,28,97,,112,108,12,7,3,5,0.2,0.1
2025-05-29T2100,2884A,98.2672,39.7978,嘉峪关市,酒钢宾馆,颗粒物(PM10),58,66,65,17,16,99,,107,107,6,12,14,20,0.6,0.8
2025-05-29T2100,3248A,98.2643,39.7724,嘉峪关市,雄关区,颗粒物(PM10),52,53,53,22,16,104,,107,106,11,10,8,10,0.2,0.2
2025-05-29T2100,1383A,113.1064,22.6058,江门市,北街,,24,22,26,6,20,6,,53,40,48,31,3,3,0.7,0.6
2025-05-29T2100,1384A,113.0731,22.5835,江门市,西区,,,24,20,11,15,,,57,54,46,30,6,7,0.8,0.7
2025-05-29T2100,1385A,113.0219,22.5311,江门市,圭峰西,,18,16,24,7,22,17,,61,51,35,22,4,4,0.6,0.6
2025-05-29T2100,1386A,113.0828,22.5947,江门市,东湖,,16,11,25,11,16,11,,54,46,18,15,8,8,0.7,0.6
2025-05-29T2100,3311A,113.1075,22.5647,江门市,江海富民,,31,31,48,13,30,12,,63,50,46,33,8,9,0.7,0.7
2025-05-29T2100,3449A,113.05,22.4667,江门市,新会银湖,,27,27,28,9,22,5,,68,52,49,30,2,2,0.8,0.7
2025-05-29T2100,1830A,113.1992,35.2590,焦作市,影视城,,,,,,,,,,,,,,,,
2025-05-29T2100,3169A,113.2725,35.2067,焦作市,太极体育中心,颗粒物(PM10),94,137,84,56,41,177,,241,233,23,13,14,11,0.4,0.3
2025-05-29T2100,3335A,113.3137,35.2641,焦作市,马村街道办,,,,84,,45,,,240,240,25,18,11,12,,0.7
2025-05-29T2100,3336A,113.2465,35.2373,焦作市,焦作技师学院,臭氧1小时,82,91,66,46,37,185,,228,224,15,12,11,7,0.6,0.5
2025-05-29T2100,3477A,113.1656,35.2539,焦作市,中站许衡医院,颗粒物(PM10),76,102,82,49,38,174,,221,217,28,16,10,7,0.6,0.5
2025-05-29T2100,3981A,113.2449,35.1803,焦作市,原李万街道办,颗粒物(PM10),92,134,83,46,35,171,,236,228,25,18,15,19,0.3,0.4
2025-05-29T2100,4264A,113.2340,35.2190,焦作市,新安路1731号,颗粒物(PM10),166,282,88,51,39,,,216,216,19,13,8,9,0.6,0.5
2025-05-29T2100,1708A,116.3701,23.5345,揭阳市,新兴,,22,,17,11,19,69,,62,60,20,23,5,5,0.6,0.7
2025-05-29T2100,1709A,116.3264,23.5443,揭阳市,西马,,20,8,19,3,12,63,,60,59,13,17,7,7,0.7,0.8
2025-05-29T2100,1710A,116.3611,23.5626,揭阳市,东兴,,,,17,,20,73,,64,64,,19,3,4,0.8,0.8
2025-05-29T2100,1711A,116.4151,23.5294,揭阳市,渔湖,,24,,17,3,10,75,,62,62,14,22,2,2,0.7,0.7
2025-05-29T2100,3320A,116.403,23.5699,揭阳市,曲溪,,23,,18,8,15,72,,66,66,16,20,15,6,0.4,0.5
2025-05-29T2100,1944A,102.1692,38.5167,金昌市,天庆家园,颗粒物(PM10),67,83,295,22,72,113,,122,118,1,3,5,3,1.0,0.6
2025-05-29T2100,4022A,102.1647,38.5371,金昌市,金川区人防中心,颗粒物(PM10),77,103,217,14,54,108,,118,115,2,3,7,8,0.7,0.5
2025-05-29T2100,4239A,102.1930,38.5319,金昌市,长春路96号,颗粒物(PM10),75,99,354,18,73,110,,126,120,2,2,5,7,0.7,0.6
2025-05-29T2100,1262A,119.647,29.077,金华市,十五中,,30,24,26,19,23,96,,124,119,27,15,5,4,0.6,0.5
2025-05-29T2100,1263A,119.686,29.1029,金华市,监测站,,29,24,26,20,21,92,,129,119,20,17,4,3,0.5,0.5
2025-05-29T2100,3659A,119.656,29.1131,金华市,气象局,,30,30,26,18,17,72,,118,108,33,20,3,2,0.5,0.4
2025-05-29T2100,1767A,121.1115,41.0879,锦州市,南山,细颗粒物(PM2.5),79,,46,58,40,162,,159,159,21,20,11,12,0.7,0.6
2025-05-29T2100,1768A,121.0604,40.8428,锦州市,开发区,臭氧1小时,59,44,55,34,31,167,,169,169,27,25,7,7,0.6,0.6
2025-05-29T2100,1769A,121.1836,41.1119,锦州市,百股街道,细颗粒物(PM2.5),58,42,40,41,30,165,,162,162,17,16,9,8,0.7,0.6
2025-05-29T2100,1770A,121.1178,41.1222,锦州市,天安街道,细颗粒物(PM2.5),72,53,52,52,39,166,,164,164,20,19,9,12,0.7,0.7
2025-05-29T2100,1771A,121.1303,41.1386,锦州市,北湖公园,细颗粒物(PM2.5),77,,50,56,37,168,,163,163,19,18,9,12,0.8,0.7
2025-05-29T2100,2160A,112.85,35.5051,晋城市,自来水公司,臭氧1小时,120,78,73,44,37,240,,224,224,15,21,3,3,0.3,0.3
2025-05-29T2100,2161A,112.8318,35.4936,晋城市,白云商贸,臭氧1小时,111,115,83,31,28,222,,224,224,19,24,7,7,0.5,0.6
2025-05-29T2100,2162A,112.8508,35.4887,晋城市,市环保局,臭氧1小时,111,97,88,41,38,222,,210,210,15,19,8,9,0.3,0.4
2025-05-29T2100,2163A,112.8676,35.4897,晋城市,技术学院,臭氧1小时,118,96,84,31,32,236,,243,243,19,28,8,8,0.5,0.6
2025-05-29T2100,2165A,112.8453,35.546,晋城市,白马寺,臭氧1小时,118,67,59,44,37,235,,241,241,13,9,5,5,0.5,0.5
2025-05-29T2100,3620A,112.8271,35.4828,晋城市,泽州一中,臭氧1小时,119,76,74,44,35,237,,241,241,17,21,10,10,0.5,0.5
2025-05-29T2100,2173A,112.7249,37.7067,晋中市,南都小区,臭氧1小时,88,68,57,17,22,190,,204,200,10,10,6,7,0.2,0.3
2025-05-29T2100,2174A,112.6991,37.6982,晋中市,榆次区政府,臭氧1小时,72,53,55,19,18,177,,192,187,16,14,8,9,0.6,0.5
2025-05-29T2100,2865A,112.7195,37.6828,晋中市,榆次三中,臭氧1小时,70,66,58,19,23,176,,189,185,14,16,4,5,0.4,0.4
2025-05-29T2100,4200A,112.7478,37.6954,晋中市,迎宾街26号,臭氧1小时,64,63,58,22,25,171,,194,184,13,14,5,6,0.2,0.5
2025-05-29T2100,2439A,112.2014,31.0481,荆门市,竹园小学,,,51,48,25,36,153,,169,165,,10,4,8,0.5,0.4
2025-05-29T2100,2440A,112.1969,30.9891,荆门市,掇刀,,44,41,41,30,36,139,,160,156,9,10,10,9,0.5,0.5
2025-05-29T2100,2441A,112.2213,31.0386,荆门市,石化一小,,,43,50,,38,126,,158,153,21,16,13,15,0.4,0.2
2025-05-29T2100,3012A,112.1849,31.0362,荆门市,西山林语,,42,42,37,14,38,115,,154,148,8,7,8,9,0.3,0.3
2025-05-29T2100,3547A,112.1632,31.0138,荆门市,龙泉中学南校,,42,,35,25,25,134,,149,147,7,9,5,5,1.0,1
2025-05-29T2100,1844A,112.2494,30.3197,荆州市,市图书馆,,35,29,24,21,21,110,,141,138,26,21,5,6,0.7,0.7
2025-05-29T2100,1845A,112.2008,30.3544,荆州市,市委党校,,37,22,26,19,22,117,,146,138,31,26,5,7,0.3,0.4
2025-05-29T2100,3194A,112.2747,30.3122,荆州市,管委会,,35,28,24,16,21,110,,136,134,16,22,8,11,0.6,0.6
2025-05-29T2100,4268A,112.1722,30.3366,荆州市,学苑路85号,,29,,21,20,23,90,,144,135,39,33,2,6,0.5,0.6
2025-05-29T2100,2342A,117.3102,29.3867,景德镇市,王港中学,,,,,,,,,,,,,,,,
2025-05-29T2100,2343A,117.2117,29.2933,景德镇市,老干部活动中心,,24,13,16,12,10,74,,100,95,14,6,5,5,0.4,0.4
2025-05-29T2100,2344A,117.1894,29.2789,景德镇市,兽医站,,27,18,24,9,10,86,,100,97,3,5,4,4,0.6,0.6
2025-05-29T2100,2345A,117.1547,29.2617,景德镇市,台达陶瓷,,27,13,20,3,13,84,,102,98,10,7,3,5,0.5,0.5
2025-05-29T2100,2346A,117.2461,29.2956,景德镇市,陶研所,,28,13,16,8,11,87,,99,96,5,6,2,1,0.2,0.2
2025-05-29T2100,1803A,115.9872,29.6815,九江市,十里,细颗粒物(PM2.5),57,42,32,40,27,83,,159,151,32,18,4,5,0.9,0.6
2025-05-29T2100,1804A,115.9584,29.7046,九江市,茅山头,细颗粒物(PM2.5),53,39,36,37,25,120,,173,168,24,15,4,5,0.6,0.5
2025-05-29T2100,1805A,115.9877,29.7295,九江市,西园,,42,39,34,17,26,133,,164,162,34,28,5,11,0.7,0.6
2025-05-29T2100,1808A,115.9114,29.6038,九江市,综合工业园,"二氧化氮,颗粒物(PM10)",55,60,34,31,21,93,,160,152,110,30,12,11,0.6,0.6
2025-05-29T2100,1809A,116.0721,29.7535,九江市,石化总厂,细颗粒物(PM2.5),60,,35,43,32,116,,156,152,31,20,4,4,0.7,0.7
2025-05-29T2100,1810A,115.9773,29.5698,九江市,庐山气象台,,37,18,18,18,16,118,,125,124,4,4,6,6,0.8,0.7
2025-05-29T2100,3190A,116.0254,29.6994,九江市,外国语学校,,42,42,33,28,24,108,,157,152,25,21,10,13,0.9,0.8
2025-05-29T2100,4253A,116.0102,29.6594,九江市,莲花大道8号,,37,36,28,23,20,118,,149,147,5,4,5,5,0.7,0.6
2025-05-29T2100,4240A,98.4958,39.7339,酒泉市,玉门东路5号,颗粒物(PM10),85,119,76,39,26,90,,113,98,6,4,11,17,0.4,0.3
2025-05-29T2100,4241A,98.5099,39.7506,酒泉市,北大街108号,颗粒物(PM10),78,105,65,37,21,95,,115,110,11,7,12,12,0.3,0.2
2025-05-29T2100,2698A,76.0072,39.4467,喀什地区,巡警大队,,,66,41,28,9,113,,114,114,9,12,5,5,,0.3
2025-05-29T2100,2699A,75.9755,39.4694,喀什地区,吾办,,,,42,,13,,,77,,,3,,12,,0.3
2025-05-29T2100,4027A,75.9483,39.4689,喀什地区,老干局,颗粒物(PM10),67,84,43,32,10,101,,100,100,4,3,5,4,0.0,0
2025-05-29T2100,1824A,114.3389,34.7781,开封市,肿瘤医院,颗粒物(PM10),87,123,88,41,41,160,,218,210,21,16,10,9,0.8,0.7
2025-05-29T2100,1826A,114.2885,34.7965,开封市,世纪星幼儿园,颗粒物(PM10),84,118,91,50,47,167,,223,214,29,22,7,8,0.7,0.7
2025-05-29T2100,3147A,114.3438,34.8106,开封市,龙亭公园,颗粒物(PM10),88,126,88,40,42,168,,226,218,27,21,6,7,0.8,0.8
2025-05-29T2100,3210A,114.3644,34.7964,开封市,汴京公园,颗粒物(PM10),95,140,98,44,48,169,,225,215,24,19,6,8,0.8,0.9
2025-05-29T2100,3473A,114.2485,34.8306,开封市,技师学院,"颗粒物(PM10),臭氧1小时",72,94,80,47,40,177,,214,210,12,12,7,8,0.7,0.7
2025-05-29T2100,3592A,114.4644,34.7556,开封市,祥符区生态环境局,颗粒物(PM10),72,94,76,38,36,156,,213,201,30,31,7,8,0.5,0.5
2025-05-29T2100,1951A,84.895,45.6094,克拉玛依市,长征新村,,,,8,1,5,92,,94,94,5,10,6,6,0.2,0.2
2025-05-29T2100,1952A,84.8988,45.5893,克拉玛依市,南林小区,,29,19,29,9,7,90,,97,97,6,9,11,11,0.3,0.3
2025-05-29T2100,1954A,84.905,44.3396,克拉玛依市,独山子区,,34,18,30,6,13,106,,114,114,8,9,6,6,0.2,0.4
2025-05-29T2100,1955A,85.6979,46.098,克拉玛依市,乌尔禾区商贸楼,,33,22,27,17,7,103,,105,105,5,8,2,2,0.3,0.4
2025-05-29T2100,3612A,85.1045,45.6899,克拉玛依市,白碱滩区新站,,37,31,45,11,18,118,,112,112,1,7,13,13,0.0,0
2025-05-29T2100,2697A,76.1454,39.7142,克孜勒苏柯尔克孜自治州,市人民政府,,39,27,37,11,17,124,,120,120,2,5,2,5,0.5,0.5
2025-05-29T2100,3665A,76.1658,39.7157,克孜勒苏柯尔克孜自治州,克州文化中心,,39,32,36,11,19,122,,119,119,6,3,5,6,0.3,0.3
2025-05-29T2100,1450A,102.8204,24.8886,昆明市,呈贡新区,,20,20,17,7,7,28,,66,56,20,12,3,4,0.6,0.6
2025-05-29T2100,1451A,102.6251,24.9608,昆明市,西山森林公园,,,,,,,,,,,,,,,,
2025-05-29T2100,1452A,102.7252,25.0902,昆明市,龙泉镇,,26,26,11,11,9,29,,53,49,11,14,3,3,0.5,0.5
2025-05-29T2100,1453A,102.7266,25.0375,昆明市,东风东路,,27,27,18,14,10,35,,61,54,28,23,6,6,0.5,0.5
2025-05-29T2100,1454A,102.6742,25.0669,昆明市,金鼎山,,31,31,13,15,9,30,,57,51,26,21,1,1,0.6,0.5
2025-05-29T2100,1455A,102.6644,25.0401,昆明市,碧鸡广场,,23,23,14,3,7,29,,61,53,36,24,5,5,0.7,0.6
2025-05-29T2100,3179A,102.7494,25.0119,昆明市,官渡区博物馆,,21,21,12,10,8,19,,60,49,37,30,6,6,0.4,0.5
2025-05-29T2100,3375A,102.8017,24.8336,昆明市,青年创业园,,14,7,6,3,5,42,,71,64,13,12,7,6,0.4,0.4
2025-05-29T2100,3550A,102.7997,24.9786,昆明市,昆明学院,,13,12,13,8,10,40,,67,58,16,22,4,4,0.2,0.2
2025-05-29T2100,3551A,102.5967,24.6736,昆明市,晋宁区生态环境分局,,17,17,13,9,4,34,,68,57,16,10,4,5,0.6,0.6
2025-05-29T2100,3552A,102.6678,24.9856,昆明市,云天化总部,,18,17,12,12,10,18,,61,50,35,22,3,3,0.6,0.6
2025-05-29T2100,1456A,91.1319,29.6514,拉萨市,八廓街,颗粒物(PM10),78,105,20,21,8,66,,98,88,11,14,7,7,0.3,0.3
2025-05-29T2100,1457A,91.1221,29.6747,拉萨市,市环保局,颗粒物(PM10),103,155,23,32,8,63,,93,83,10,13,6,5,0.2,0.2
2025-05-29T2100,1458A,91.0874,29.6475,拉萨市,区监测站,颗粒物(PM10),91,131,17,26,8,69,,95,86,9,13,6,6,0.2,0.2
2025-05-29T2100,1459A,91.1774,29.6541,拉萨市,西藏大学,颗粒物(PM10),58,66,17,20,7,62,,92,86,12,15,4,7,0.3,0.4
2025-05-29T2100,1460A,90.9798,29.6588,拉萨市,区辐射站,颗粒物(PM10),106,162,22,47,9,59,,84,76,15,15,6,6,0.3,0.3
2025-05-29T2100,1461A,91.0834,29.6292,拉萨市,拉萨火车站,颗粒物(PM10),88,125,16,26,8,68,,93,85,5,7,4,4,0.1,0.2
2025-05-29T2100,2520A,109.2203,23.7256,来宾市,来宾技工学校,,,13,8,11,5,,,68,65,13,6,6,4,0.7,1
2025-05-29T2100,3535A,109.1781,23.7297,来宾市,兴宾区政府,,14,8,8,7,4,44,,62,57,9,6,4,4,0.8,0.7
2025-05-29T2100,4002A,109.2416,23.7461,来宾市,中南小学,,16,14,9,11,3,48,,68,63,15,8,3,3,0.8,0.7
2025-05-29T2100,1477A,104.1373,35.9454,兰州市,榆中兰大校区,,,,,,,,,,,,,,,,
2025-05-29T2100,1479A,103.831,36.0464,兰州市,铁路设计院,颗粒物(PM10),56,62,44,32,23,106,,117,117,15,17,9,9,0.4,0.4
2025-05-29T2100,3241A,103.7439,36.0842,兰州市,百合公园,颗粒物(PM10),54,58,37,20,14,103,,118,117,8,6,3,3,0.2,0.3
2025-05-29T2100,3242A,103.9611,35.998,兰州市,和平,颗粒物(PM10),58,65,46,31,21,107,,117,117,8,8,6,7,0.4,0.4
2025-05-29T2100,4236A,103.6293,36.0938,兰州市,庄浪东路808号,颗粒物(PM10),59,68,48,36,26,96,,116,114,17,20,10,9,0.3,0.3
2025-05-29T2100,4237A,103.7251,36.1043,兰州市,安宁西路88号,颗粒物(PM10),67,83,51,28,26,115,,130,129,4,3,5,5,0.2,0.3
2025-05-29T2100,4238A,103.8470,36.0676,兰州市,北滨河东路1号,颗粒物(PM10),65,79,47,29,22,110,,121,121,14,12,8,8,0.5,0.6
2025-05-29T2100,3245A,103.6633,36.533,兰州新区,新区管委会,颗粒物(PM10),125,199,48,75,29,125,,130,130,6,7,8,13,0.2,0.4
2025-05-29T2100,3246A,103.6975,36.4789,兰州新区,舟曲中学,颗粒物(PM10),93,136,43,59,18,124,,124,124,10,11,4,9,0.2,0.3
2025-05-29T2100,1067A,116.6708,39.5111,廊坊市,药材公司,颗粒物(PM10),59,68,80,32,51,162,,217,207,17,17,6,4,0.5,0.6
2025-05-29T2100,1068A,116.7214,39.5589,廊坊市,开发区,臭氧1小时,62,61,87,30,46,169,,224,217,20,28,3,4,0.4,0.6
2025-05-29T2100,1070A,116.7244,39.5269,廊坊市,北华航天学院,颗粒物(PM10),65,80,97,30,55,162,,212,206,17,20,7,5,0.4,0.6
2025-05-29T2100,2919A,116.7022,39.5453,廊坊市,河北工业大学,颗粒物(PM10),74,98,89,40,51,170,,220,214,19,21,6,6,0.4,0.6
2025-05-29T2100,2535A,103.7723,29.5462,乐山市,花湖湾,,46,46,31,31,22,122,,134,134,21,12,5,7,0.5,0.5
2025-05-29T2100,2536A,103.7627,29.5844,乐山市,牛耳桥,细颗粒物(PM2.5),52,50,34,36,23,107,,126,124,23,16,8,9,1.0,0.9
2025-05-29T2100,2537A,103.7508,29.6006,乐山市,市第三水厂,,44,44,32,28,24,104,,126,124,24,18,6,6,0.9,0.8
2025-05-29T2100,2538A,103.7571,29.5664,乐山市,市监测站,,,64,38,37,25,110,,120,120,18,15,10,10,,1.2
2025-05-29T2100,3361A,103.7311,29.5628,乐山市,理工大学,,36,36,31,25,23,102,,126,123,27,20,6,7,0.7,0.7
2025-05-29T2100,2598A,100.2143,26.8576,丽江市,西南郊,,22,,7,15,5,43,,64,54,12,6,6,6,1.3,1.1
2025-05-29T2100,2599A,100.2497,26.8802,丽江市,丽江古城,细颗粒物(PM2.5),62,,12,44,12,51,,57,54,11,12,9,9,0.5,0.5
2025-05-29T2100,2600A,100.2203,26.8906,丽江市,市中心,,15,,6,10,8,37,,52,45,14,16,6,8,0.5,0.6
2025-05-29T2100,1267A,119.914,28.4514,丽水市,监测站大楼,,17,17,12,3,6,48,,93,82,18,11,3,2,0.3,0.3
2025-05-29T2100,1268A,119.93,28.4586,丽水市,莲都小学,,20,20,12,6,5,38,,99,86,26,13,3,3,0.3,0.3
2025-05-29T2100,1269A,119.879,28.4231,丽水市,余庄前,,10,10,11,3,6,19,,90,62,6,9,3,3,0.3,0.3
2025-05-29T2100,1173A,119.176,34.5885,连云港市,市环境监测站,,41,41,36,17,19,94,,150,136,20,12,10,8,0.4,0.3
2025-05-29T2100,3000A,119.3581,34.6972,连云港市,德源药业,,28,27,38,12,16,87,,145,123,21,16,9,10,0.5,0.7
2025-05-29T2100,3007A,119.178,34.844,连云港市,新城一中,,32,32,41,12,20,70,,149,126,40,25,10,8,1.0,0.9
2025-05-29T2100,3008A,119.3608,34.7519,连云港市,胡沟管理处,,29,29,24,14,12,67,,127,89,47,26,18,13,0.6,0.6
2025-05-29T2100,3009A,119.1478,34.5911,连云港市,矿山设计院,,41,41,34,17,16,88,,140,126,15,11,7,5,0.5,0.5
2025-05-29T2100,3434A,119.2413,34.6539,连云港市,工贸学校,,34,24,26,18,18,107,,160,147,9,8,14,10,0.5,0.5
2025-05-29T2100,3664A,119.4172,34.7341,连云港市,连云街道,,40,40,38,21,19,94,,142,130,16,15,20,12,0.6,0.5
2025-05-29T2100,2571A,102.3431,27.8099,凉山彝族自治州,青龙寺,,18,7,11,3,4,55,,78,71,4,4,5,5,0.7,0.8
2025-05-29T2100,2572A,102.2721,27.8415,凉山彝族自治州,邛海宾馆,,19,16,15,8,8,60,,71,67,7,14,5,7,0.7,0.8
2025-05-29T2100,2573A,102.2625,27.898,凉山彝族自治州,西昌市政府,,21,11,18,3,14,65,,85,78,6,13,7,11,0.7,1
2025-05-29T2100,2574A,102.2685,27.8851,凉山彝族自治州,凉山州政府,,20,11,17,6,11,64,,80,74,7,14,7,8,0.7,1.1
2025-05-29T2100,4229A,102.2342,27.8859,凉山彝族自治州,凯乐南路30号,,,18,25,3,16,,,76,70,9,21,5,16,0.5,1.1
2025-05-29T2100,2212A,123.2,41.1953,辽阳市,宏伟区,,48,48,34,26,21,143,,182,176,24,9,9,7,0.7,0.6
2025-05-29T2100,2213A,123.1683,41.2495,辽阳市,新华园,细颗粒物(PM2.5),62,70,42,44,26,124,,185,173,34,11,15,7,1.0,0.6
2025-05-29T2100,2214A,123.2354,41.2639,辽阳市,滨河路,颗粒物(PM10),51,51,35,29,25,120,,169,157,31,12,11,12,0.7,0.5
2025-05-29T2100,2215A,123.149,41.2991,辽阳市,铁西工业园,颗粒物(PM10),64,78,48,42,25,124,,170,160,29,12,12,6,1.1,0.6
2025-05-29T2100,2227A,125.1358,42.8845,辽源市,环保局,,41,41,44,23,22,65,,143,123,30,34,3,3,0.5,0.4
2025-05-29T2100,3239A,125.0764,42.9078,辽源市,银鹰制药,颗粒物(PM10),55,59,40,25,23,64,,148,120,52,39,5,22,0.6,0.7
2025-05-29T2100,1625A,115.9848,36.4372,聊城市,区政府,臭氧1小时,93,52,63,24,31,194,,216,214,11,19,6,8,0.7,0.8
2025-05-29T2100,2878A,116.0072,36.4343,聊城市,聊大东校,臭氧1小时,93,61,66,36,37,194,,218,215,15,16,8,8,0.5,0.6
2025-05-29T2100,3200A,115.9819,36.4978,聊城市,监控中心,臭氧1小时,95,47,64,29,30,196,,217,214,11,22,8,9,0.7,0.7
2025-05-29T2100,3513A,116.0445,36.4361,聊城市,九州社区,臭氧1小时,74,56,61,30,30,179,,210,205,6,16,8,6,0.7,0.7
2025-05-29T2100,4018A,116.0567,36.4608,聊城市,星美广场,臭氧1小时,92,57,74,27,33,193,,219,215,8,15,8,9,0.7,0.8
2025-05-29T2100,2632A,94.3681,29.6376,林芝市,林芝监测站,,15,6,5,6,4,47,,62,56,4,4,3,3,0.3,0.5
2025-05-29T2100,2633A,94.3616,29.6616,林芝市,林芝人民医院,,12,12,9,7,5,38,,60,53,5,3,6,6,0.4,0.3
2025-05-29T2100,2603A,100.0781,23.8982,临沧市,市环保局,细颗粒物(PM2.5),55,,13,39,24,21,,33,28,10,7,4,4,0.6,0.5
2025-05-29T2100,2604A,100.0894,23.8822,临沧市,市气象局,,19,,12,13,11,36,,46,42,11,8,4,3,0.4,0.4
2025-05-29T2100,1733A,111.5531,36.0783,临汾市,临钢医院,臭氧1小时,104,98,75,42,30,208,,214,213,15,19,4,4,0.7,0.7
2025-05-29T2100,1734A,111.5028,36.0714,临汾市,技工学校,臭氧1小时,107,104,69,59,39,213,,218,217,13,14,4,6,0.5,0.5
2025-05-29T2100,1736A,111.5018,36.0855,临汾市,市委,臭氧1小时,103,106,80,39,30,206,,211,209,16,17,5,6,0.7,0.7
2025-05-29T2100,3018A,111.505,36.1014,临汾市,唐尧大酒店,臭氧1小时,105,102,77,38,29,209,,220,218,16,14,6,6,0.6,0.7
2025-05-29T2100,4244A,111.4879,36.0530,临汾市,启星学校,臭氧1小时,103,80,70,50,38,206,,218,214,17,16,3,4,0.5,0.5
2025-05-29T2100,4271A,103.2464,35.6123,临夏回族自治州,滨河东路1号,,,84,47,14,17,,,115,115,8,9,8,8,0.2,0.3
2025-05-29T2100,4310A,103.2093,35.5995,临夏回族自治州,新华街21号,颗粒物(PM10),65,79,39,29,19,96,,122,121,10,14,6,7,0.3,0.3
2025-05-29T2100,1618A,118.3429,35.0532,临沂市,沂河小区,颗粒物(PM10),62,73,55,29,29,120,,176,162,24,18,8,7,0.4,0.4
2025-05-29T2100,1619A,118.295,35.0583,临沂市,鲁南制药厂,颗粒物(PM10),59,68,50,19,29,138,,186,174,24,18,9,7,0.6,0.5
2025-05-29T2100,1620A,118.2794,34.9976,临沂市,新光毛纺厂,颗粒物(PM10),60,70,46,25,27,127,,181,168,38,18,11,9,0.4,0.4
2025-05-29T2100,1621A,118.3956,35.0888,临沂市,河东保险公司,颗粒物(PM10),54,58,47,26,23,117,,182,168,22,16,6,6,0.4,0.4
2025-05-29T2100,3370A,118.3564,35.0215,临沂市,十里堡居委,颗粒物(PM10),56,61,47,31,24,126,,182,168,27,21,10,8,0.5,0.5
2025-05-29T2100,3496A,118.3604,35.1084,临沂市,南坊新区,颗粒物(PM10),56,61,54,24,24,118,,178,163,21,18,8,8,0.5,0.5
2025-05-29T2100,3860A,118.3920,35.0300,临沂市,皇山花园小区,颗粒物(PM10),59,68,46,26,25,118,,184,168,35,25,11,9,0.5,0.6
2025-05-29T2100,1870A,109.4856,24.3895,柳州市,柳东小学,,14,14,8,9,4,39,,52,49,6,5,17,10,0.5,0.5
2025-05-29T2100,1871A,109.4157,24.3277,柳州市,环保监测站,,30,30,12,17,7,25,,50,44,22,12,3,2,0.9,0.9
2025-05-29T2100,1872A,109.389,24.341,柳州市,河西水厂,,19,14,16,13,8,31,,51,43,14,11,5,8,0.6,0.8
2025-05-29T2100,1873A,109.4311,24.2921,柳州市,市四中,,30,30,13,10,8,26,,51,44,23,11,10,8,1.0,0.8
2025-05-29T2100,1874A,109.4006,24.3631,柳州市,市九中,,30,30,14,13,6,32,,49,46,18,13,16,12,0.7,0.8
2025-05-29T2100,1875A,109.4958,24.3134,柳州市,古亭山,,14,14,6,7,3,37,,56,51,4,3,5,5,0.4,0.4
2025-05-29T2100,3402A,109.5422,24.3996,柳州市,市二中,,12,9,7,8,3,38,,49,47,8,9,10,10,0.5,0.4
2025-05-29T2100,2307A,116.5079,31.737,六安市,监测大楼,细颗粒物(PM2.5),53,52,36,37,24,151,,153,153,12,9,4,4,0.3,0.4
2025-05-29T2100,2308A,116.4738,31.7643,六安市,皖西学院,颗粒物(PM10),52,54,35,28,21,155,,162,162,12,6,6,5,0.3,0.3
2025-05-29T2100,2309A,116.4996,31.7905,六安市,朝阳厂,,,62,36,42,25,,,136,136,22,15,7,5,0.4,0.3
2025-05-29T2100,2310A,116.5567,31.7886,六安市,开发区,颗粒物(PM10),52,53,50,23,26,157,,162,162,13,12,7,7,0.3,0.4
2025-05-29T2100,2576A,104.8,26.5892,六盘水市,窑上,,23,20,27,16,19,48,,67,63,7,6,1,3,0.4,0.5
2025-05-29T2100,2577A,104.83,26.5917,六盘水市,黄土坡,,19,19,16,13,15,60,,77,74,13,14,8,9,0.4,0.4
2025-05-29T2100,2578A,104.89,26.5939,六盘水市,水钢,,22,18,19,10,9,69,,80,77,8,11,8,10,0.2,0.4
2025-05-29T2100,2579A,104.8475,26.5894,六盘水市,民中,,20,16,18,7,10,64,,75,73,8,14,7,10,0.4,0.5
2025-05-29T2100,2580A,104.9544,26.5506,六盘水市,双水,,20,12,10,3,7,63,,76,73,10,11,9,9,0.2,0.3
2025-05-29T2100,2335A,117.0189,25.1181,龙岩市,龙岩师专,,,,,,,,,,,,,,,,
2025-05-29T2100,2336A,117.0217,25.1033,龙岩市,龙岩市监测站,,17,6,8,3,6,54,,53,53,8,14,4,4,0.5,0.6
2025-05-29T2100,2337A,117.0258,25.0661,龙岩市,闽西职业技术学院,,15,6,9,3,6,45,,45,45,5,9,4,6,0.6,0.6
2025-05-29T2100,2338A,117.0196,25.0306,龙岩市,龙岩学院,,14,6,8,3,5,43,,45,45,9,11,7,7,0.5,0.5
2025-05-29T2100,2665A,105.0822,33.3261,陇南市,汉王镇固水子,,,,,,,,,,,,,,,,
2025-05-29T2100,2885A,104.9339,33.3826,陇南市,滨江中学,,32,31,37,15,19,102,,105,102,2,6,8,9,0.5,0.5
2025-05-29T2100,3247A,104.955,33.371,陇南市,市总工会,,33,25,33,10,14,103,,103,102,2,5,8,8,0.6,0.5
2025-05-29T2100,2487A,111.9589,27.8901,娄底市,电视发射台,,35,35,18,16,6,52,,107,92,2,2,6,6,0.2,0.2
2025-05-29T2100,2488A,111.9975,27.725,娄底市,市监测站,,36,,20,25,11,105,,106,106,12,17,23,8,0.4,0.4
2025-05-29T2100,2489A,112.0194,27.7314,娄底市,市委党校,,31,31,16,19,11,95,,108,108,9,5,5,3,0.3,0.2
2025-05-29T2100,2490A,111.9561,27.7569,娄底市,涟钢,颗粒物(PM10),87,124,24,28,8,88,,96,96,16,9,16,7,0.7,0.8
2025-05-29T2100,2491A,111.9892,27.7044,娄底市,市政府,,32,28,14,22,8,83,,107,105,20,8,5,4,0.6,0.5
2025-05-29T2100,1893A,105.4324,28.9634,泸州市,九狮山,,39,,25,27,19,53,,119,108,25,18,5,5,0.5,0.4
2025-05-29T2100,1894A,105.4427,28.9063,泸州市,小市上码头,,21,13,22,12,10,66,,100,92,14,13,10,11,0.7,0.6
2025-05-29T2100,1895A,105.4241,28.8573,泸州市,兰田宪桥,,24,11,22,8,10,75,,110,103,8,12,8,9,0.4,0.4
2025-05-29T2100,1896A,105.4379,28.8833,泸州市,市环监站,,25,9,20,7,13,77,,109,103,6,12,7,8,0.4,0.5
2025-05-29T2100,4272A,105.3689,28.7783,泸州市,纳溪中医医院,,19,18,27,11,16,59,,106,98,26,19,6,6,0.7,0.7
2025-05-29T2100,2183A,111.1406,37.5211,吕梁市,环保局,臭氧1小时,105,78,91,41,35,209,,208,208,19,30,5,6,0.6,0.5
2025-05-29T2100,2185A,111.1297,37.5136,吕梁市,自来水公司,臭氧1小时,105,69,79,38,31,210,,204,204,15,24,4,4,0.3,0.4
2025-05-29T2100,2867A,111.1283,37.51,吕梁市,马茂庄小学,臭氧1小时,78,82,90,34,34,182,,196,195,40,38,3,4,0.7,0.6
2025-05-29T2100,1812A,112.3931,34.6516,洛阳市,市委党校,"颗粒物(PM10),臭氧1小时",62,74,84,37,47,169,,195,188,13,23,9,8,0.6,0.7
2025-05-29T2100,1815A,112.494,34.6886,洛阳市,河南林校,臭氧1小时,83,68,91,45,50,186,,214,206,16,25,6,12,0.7,0.8
2025-05-29T2100,1816A,112.3844,34.623,洛阳市,开发区管委会,臭氧1小时,88,80,85,40,49,190,,214,205,12,20,7,9,0.5,0.6
2025-05-29T2100,1817A,112.4267,34.6258,洛阳市,市委新办公区,臭氧1小时,74,76,85,39,46,179,,209,201,16,23,12,8,1.0,0.8
2025-05-29T2100,3340A,112.6005,34.6326,洛阳市,伊滨,臭氧1小时,80,88,110,38,50,184,,218,209,17,26,5,8,0.4,0.5
2025-05-29T2100,3341A,112.4951,34.6332,洛阳市,中移产业园,臭氧1小时,84,70,101,34,48,187,,211,204,10,25,5,9,0.7,0.8
2025-05-29T2100,3593A,112.5736,34.8993,洛阳市,吉利监测站,颗粒物(PM10),63,76,91,43,45,157,,220,209,23,20,4,13,0.6,0.7
2025-05-29T2100,3635A,112.3677,34.662,洛阳市,河科大西苑校区,臭氧1小时,90,83,91,33,43,192,,218,210,14,26,8,10,0.7,0.8
2025-05-29T2100,3636A,112.4388,34.6781,洛阳市,英才小学,臭氧1小时,85,79,95,33,41,188,,215,207,12,24,7,10,0.5,0.6
2025-05-29T2100,4214A,112.4600,34.6949,洛阳市,春都路1号院,臭氧1小时,103,93,105,30,41,205,,237,228,15,23,5,10,0.5,0.6
2025-05-29T2100,2399A,114.051,33.5699,漯河市,三五一五工厂,颗粒物(PM10),137,223,129,46,49,149,,221,207,29,29,4,6,0.6,0.7
2025-05-29T2100,2400A,114.0055,33.5698,漯河市,漯河大学,颗粒物(PM10),147,243,140,34,50,165,,224,214,23,25,3,4,0.4,0.5
2025-05-29T2100,2401A,114.0138,33.5828,漯河市,市水利局,颗粒物(PM10),180,310,150,41,48,160,,223,212,22,21,4,6,0.7,0.8
2025-05-29T2100,2402A,114.0261,33.5698,漯河市,市广电局,,,,132,30,52,,,224,220,24,26,2,4,0.5,0.7
2025-05-29T2100,3478A,113.9749,33.5664,漯河市,市图书馆,颗粒物(PM10),157,264,128,48,50,149,,219,207,29,24,2,4,0.7,0.8
2025-05-29T2100,4250A,114.0892,33.5882,漯河市,韶山路11号,颗粒物(PM10),173,296,136,,51,,,218,211,32,29,4,7,0.4,0.6
2025-05-29T2100,1798A,118.5092,31.6837,马鞍山市,湖东路四小,,40,40,51,25,31,124,,178,168,29,16,6,8,0.4,0.5
2025-05-29T2100,1799A,118.5024,31.6449,马鞍山市,开发区,颗粒物(PM10),59,67,61,24,29,108,,175,162,24,19,6,9,0.4,0.6
2025-05-29T2100,1802A,118.6245,31.7241,马鞍山市,濮塘,,46,31,41,28,32,147,,166,161,8,7,8,8,0.6,0.7
2025-05-29T2100,3633A,118.4918,31.6809,马鞍山市,雨山,,45,45,48,23,30,134,,175,168,23,15,9,10,0.4,0.5
2025-05-29T2100,4191A,118.5274,31.72227,马鞍山市,慈湖高新区,,46,37,56,32,42,124,,170,161,33,20,5,7,0.4,0.5
2025-05-29T2100,1686A,111.0286,21.4688,茂名市,电白南海,,24,24,20,12,14,29,,50,42,12,9,2,2,0.5,0.4
2025-05-29T2100,1687A,110.9294,21.6533,茂名市,茂石化七小,,12,12,20,7,10,23,,50,39,14,10,3,4,0.4,0.3
2025-05-29T2100,1688A,110.9107,21.6687,茂名市,健康路,,25,,17,17,13,28,,58,46,14,12,4,5,0.5,0.4
2025-05-29T2100,1689A,110.8592,21.6828,茂名市,高岭,,19,19,27,7,8,21,,52,41,18,12,11,28,0.4,0.4
2025-05-29T2100,3450A,111.01,21.5165,茂名市,电白水东,,20,17,17,14,8,21,,47,38,19,13,3,4,0.3,0.2
2025-05-29T2100,2539A,104.0308,30.0478,眉山市,黑龙滩水库,,34,23,15,18,14,108,,136,133,18,5,1,3,0.4,0.4
2025-05-29T2100,2540A,103.8416,30.0874,眉山市,气象局,细颗粒物(PM2.5),64,50,36,46,23,122,,141,139,28,17,3,3,0.5,0.4
2025-05-29T2100,3137A,103.8578,30.0744,眉山市,市委党校,,,63,29,34,15,,,131,131,28,15,9,8,0.5,0.5
2025-05-29T2100,3148A,103.8291,30.0564,眉山市,区人社局,细颗粒物(PM2.5),52,47,30,36,16,129,,140,140,25,16,14,13,0.6,0.4
2025-05-29T2100,1690A,116.1231,24.3284,梅州市,梅江月梅,,12,11,9,8,8,10,,36,33,24,12,6,5,0.8,0.7
2025-05-29T2100,1691A,116.0797,24.2719,梅州市,梅县新城,,,8,9,6,11,,,44,44,13,16,6,6,0.7,0.8
2025-05-29T2100,1692A,116.1248,24.2654,梅州市,环境监控中心,,13,13,11,9,11,24,,41,36,23,17,3,5,1.0,0.8
2025-05-29T2100,3315A,116.1233,24.2991,梅州市,梅龙,,16,12,9,11,7,22,,38,36,22,11,6,6,0.8,0.7
2025-05-29T2100,1878A,104.7778,31.4741,绵阳市,富乐山,,43,40,40,30,29,65,,80,80,17,18,8,8,0.5,0.6
2025-05-29T2100,1880A,104.6697,31.4668,绵阳市,高新区自来水公司,,,46,49,,27,62,,84,84,28,22,3,4,0.9,0.7
2025-05-29T2100,1881A,104.7287,31.5075,绵阳市,三水厂,,50,50,46,33,35,57,,80,80,32,28,8,8,0.6,0.6
2025-05-29T2100,3491A,104.69,31.5322,绵阳市,西科大附属小学,,38,38,51,24,31,66,,81,81,26,32,7,7,0.6,0.6
2025-05-29T2100,3492A,104.5648,31.5343,绵阳市,安州区旅游局,,35,35,36,19,26,69,,81,81,18,25,3,2,0.9,0.9
2025-05-29T2100,4226A,104.7651,31.4531,绵阳市,绵阳市气象局,,45,45,46,27,30,64,,74,74,31,20,2,3,0.8,0.6
2025-05-29T2100,1784A,129.61,44.561,牡丹江市,环保大楼,,,,21,,17,,,94,,,15,,6,,0.2
2025-05-29T2100,1785A,129.6115,44.5782,牡丹江市,文化广场,,,,40,,21,,,133,118,46,25,35,10,1.0,0.6
2025-05-29T2100,1786A,129.5904,44.5963,牡丹江市,第一医院,颗粒物(PM10),55,59,34,31,20,77,,134,111,22,21,4,4,0.6,0.5
2025-05-29T2100,1787A,129.6364,44.6075,牡丹江市,机车工厂,,45,45,49,30,17,73,,133,115,16,20,30,7,0.4,0.5
2025-05-29T2100,1788A,129.6386,44.5462,牡丹江市,第一中学,,33,32,22,23,14,76,,134,112,19,13,6,6,0.4,0.3
2025-05-29T2100,2531A,105.0703,29.61,内江市,市监测站,,29,20,19,20,16,88,,108,106,18,13,7,7,0.8,0.8
2025-05-29T2100,2532A,105.0717,29.5947,内江市,东兴区政府,,32,20,14,12,9,100,,118,116,17,15,3,5,0.6,0.5
2025-05-29T2100,2533A,105.0653,29.5817,内江市,内江二中,,33,14,16,10,18,103,,120,118,15,17,5,6,0.4,0.4
2025-05-29T2100,2534A,105.0406,29.5822,内江市,内江日报社,,,,18,,15,91,,120,116,,12,16,7,0.6,0.6
2025-05-29T2100,2628A,92.0657,31.4846,那曲市,那曲监测站,,30,20,23,3,8,94,,105,105,13,12,7,7,0.2,0.2
2025-05-29T2100,4243A,92.0515,31.4787,那曲市,那曲市委宣传部,,33,33,17,12,7,105,,113,113,4,6,7,6,0.2,0.2
2025-05-29T2100,1290A,115.8931,28.6843,南昌市,省外办,,28,20,21,17,16,89,,108,104,15,12,8,9,0.4,0.4
2025-05-29T2100,1291A,115.8886,28.7003,南昌市,省林业公司,,,,16,,13,83,,107,103,10,11,7,10,,0.4
2025-05-29T2100,1292A,115.8126,28.7442,南昌市,林科所,,22,17,14,7,11,70,,118,106,22,11,4,4,0.2,0.2
2025-05-29T2100,1294A,115.8518,28.687,南昌市,建工学校,,30,10,19,9,22,94,,108,105,12,9,5,5,0.3,0.3
2025-05-29T2100,1295A,115.8921,28.6424,南昌市,象湖,,25,18,23,3,10,80,,106,102,19,10,6,6,0.6,0.6
2025-05-29T2100,1296A,115.7423,28.7996,南昌市,武术学校,,21,21,20,12,10,41,,116,94,5,4,10,10,0.5,0.5
2025-05-29T2100,3046A,115.9084,28.6062,南昌市,机电学校,,28,28,25,9,14,66,,102,97,19,14,3,3,0.4,0.4
2025-05-29T2100,3690A,115.9721,28.7031,南昌市,外国语学校,,26,19,18,8,14,83,,110,105,14,7,7,6,0.2,0.2
2025-05-29T2100,4192A,115.9316,28.68677,南昌市,南京东路235号,细颗粒物(PM2.5),97,78,27,72,13,88,,102,99,11,9,6,6,0.5,0.5
2025-05-29T2100,1905A,106.056,30.8064,南充市,西山风景区,,,,,,,,,,,,,,,,
2025-05-29T2100,1906A,106.0789,30.8023,南充市,南充市委,,,22,21,,15,,,126,126,18,13,6,6,0.5,0.4
2025-05-29T2100,1907A,106.1031,30.8217,南充市,南充炼油厂,,37,27,26,23,19,117,,120,120,12,12,5,6,0.5,0.5
2025-05-29T2100,4227A,106.1083,30.7884,南充市,梨树横街98号,细颗粒物(PM2.5),80,,25,59,20,113,,119,119,14,10,10,5,0.3,0.3
2025-05-29T2100,4304A,106.1172,30.843,南充市,清泉寺北路188号,,36,32,24,20,17,113,,116,116,12,11,7,5,0.4,0.4
2025-05-29T2100,4305A,106.067,30.7616,南充市,同庆路1号,,37,37,27,17,18,118,,122,122,12,10,4,5,0.3,0.3
2025-05-29T2100,1151A,118.8086,32.1065,南京市,迈皋桥,,48,43,48,29,31,153,,172,166,15,14,4,5,0.4,0.5
2025-05-29T2100,1152A,118.7538,32.0551,南京市,草场门,,46,44,49,22,30,145,,176,168,28,18,2,2,0.3,0.3
2025-05-29T2100,1153A,118.7794,32.0745,南京市,山西路,颗粒物(PM10),56,61,57,24,30,156,,188,180,2,7,4,5,0.3,0.2
2025-05-29T2100,1154A,118.7752,32.0023,南京市,中华门,,45,39,47,24,30,142,,164,158,20,13,3,4,0.4,0.4
2025-05-29T2100,1155A,118.8109,32.0309,南京市,瑞金路,,46,46,53,29,31,124,,166,157,23,11,6,6,0.4,0.3
2025-05-29T2100,1156A,118.7997,32.0754,南京市,玄武湖,,48,35,48,22,26,153,,165,162,14,10,4,4,0.4,0.5
2025-05-29T2100,1157A,118.6414,32.0931,南京市,浦口,颗粒物(PM10),51,52,49,23,28,107,,166,154,30,22,4,4,0.4,0.5
2025-05-29T2100,1158A,118.7356,31.9996,南京市,奥体中心,,47,43,54,24,30,150,,181,175,23,17,3,5,0.2,0.3
2025-05-29T2100,1159A,118.9125,32.1028,南京市,仙林大学城,颗粒物(PM10),57,63,57,27,28,150,,168,164,20,14,8,8,0.4,0.5
2025-05-29T2100,3422A,118.8436,31.9198,南京市,江宁彩虹桥,,47,31,47,24,29,149,,168,164,21,18,3,4,0.3,0.4
2025-05-29T2100,3427A,118.8554,32.3578,南京市,六合雄州,颗粒物(PM10),59,68,60,39,38,144,,206,200,59,39,8,8,0.5,0.6
2025-05-29T2100,4249A,118.8708,31.3402,南京市,汶溪路181号,颗粒物(PM10),53,56,44,26,26,131,,165,163,18,18,5,4,0.4,0.2
2025-05-29T2100,4312A,119.019,31.6512,南京市,中山西路1号,,,36,38,25,26,,,156,156,22,14,4,8,0.3,0.4
2025-05-29T2100,1401A,108.3103,22.7881,南宁市,二十一中,,16,10,14,3,10,51,,48,48,13,16,1,2,0.6,0.7
2025-05-29T2100,1402A,108.3141,22.8528,南宁市,北湖,,18,17,20,8,10,55,,54,53,11,14,4,7,0.6,0.5
2025-05-29T2100,1403A,108.3206,22.8225,南宁市,市监测站,,15,,16,10,13,44,,39,39,8,12,2,2,0.8,0.7
2025-05-29T2100,1404A,108.3829,22.8037,南宁市,大自然花园,,19,,12,6,12,60,,56,56,7,10,5,4,0.6,0.6
2025-05-29T2100,1405A,108.4394,22.7904,南宁市,仙葫,,19,9,13,3,8,58,,60,60,8,9,10,9,0.7,0.7
2025-05-29T2100,1406A,108.2397,22.8467,南宁市,区农职院,,15,15,21,7,12,40,,38,38,11,13,4,4,1.0,1
2025-05-29T2100,1407A,108.3275,22.735,南宁市,英华嘉园,,19,,16,8,10,60,,55,55,9,11,7,6,0.5,0.5
2025-05-29T2100,3401A,108.4834,22.7618,南宁市,红星社区,,22,10,12,10,11,68,,68,68,2,7,2,5,0.5,0.4
2025-05-29T2100,4221A,108.2177,22.7774,南宁市,乐贤路16号,,20,20,20,8,15,32,,43,38,27,22,6,7,0.6,0.6
2025-05-29T2100,2331A,118.0966,26.6761,南平市,茫荡山,,,,,,,,,,,,,,,,
2025-05-29T2100,2332A,118.1681,26.6369,南平市,南平市监测站,,15,10,4,7,5,45,,80,62,12,6,5,4,0.6,0.5
2025-05-29T2100,2333A,118.1825,26.6489,南平市,南平铝业有限公司,,,,7,14,6,,,83,65,15,6,4,3,0.5,0.5
2025-05-29T2100,2334A,118.1756,26.6272,南平市,南平七中,,15,15,9,3,5,43,,77,60,10,6,4,7,0.6,0.6
2025-05-29T2100,1168A,120.9098,31.9663,南通市,狼山街道,细颗粒物(PM2.5),77,68,46,56,35,75,,138,116,15,18,7,6,0.8,0.6
2025-05-29T2100,1169A,120.86,32.0005,南通市,虹桥,细颗粒物(PM2.5),103,81,48,77,40,80,,154,127,24,21,7,4,0.6,0.5
2025-05-29T2100,1170A,120.87,32.02,南通市,城中,细颗粒物(PM2.5),100,98,56,75,37,72,,150,126,24,18,9,6,0.8,0.6
2025-05-29T2100,1171A,120.94,31.93,南通市,星湖花园,细颗粒物(PM2.5),85,80,42,63,34,62,,128,108,25,20,7,6,0.5,0.3
2025-05-29T2100,1172A,120.81,32.0417,南通市,紫琅学院,细颗粒物(PM2.5),83,92,53,61,33,60,,145,112,29,21,8,7,0.7,0.5
2025-05-29T2100,3291A,121.067,32.062,南通市,通州监测站,细颗粒物(PM2.5),144,124,55,110,43,83,,138,116,17,10,10,7,0.6,0.3
2025-05-29T2100,3432A,120.9348,31.9883,南通市,环境教育馆,细颗粒物(PM2.5),104,102,58,78,42,67,,145,119,24,20,7,4,0.5,0.4
2025-05-29T2100,2404A,112.5224,33.0122,南阳市,瓦房庄,臭氧1小时,69,84,64,28,31,175,,210,205,17,10,6,7,0.5,0.5
2025-05-29T2100,2405A,112.5003,32.9735,南阳市,汉画馆,颗粒物(PM10),56,62,61,26,31,142,,192,186,29,16,6,5,0.5,0.6
2025-05-29T2100,2406A,112.5573,33.027,南阳市,气象站,颗粒物(PM10),66,82,72,31,34,165,,202,198,14,11,5,5,0.4,0.4
2025-05-29T2100,2407A,112.5481,32.9689,南阳市,理工学院,颗粒物(PM10),62,73,60,24,30,159,,198,193,19,16,5,5,0.6,0.6
2025-05-29T2100,4008A,112.5234,32.9922,南阳市,卧龙区政府,颗粒物(PM10),60,69,57,35,38,162,,196,192,18,14,4,5,0.5,0.5
2025-05-29T2100,1234A,121.8358,29.911,宁波市,区环保大楼,,48,48,29,23,16,56,,127,105,56,25,13,10,0.4,0.4
2025-05-29T2100,1235A,121.56,29.82,宁波市,万里学院,,,35,24,25,21,,,138,129,33,22,8,5,0.5,0.5
2025-05-29T2100,1236A,121.713,29.9572,宁波市,龙赛医院,,42,42,29,16,13,57,,129,110,41,14,17,9,0.3,0.3
2025-05-29T2100,1239A,121.633,29.7733,宁波市,钱湖水厂,,38,38,28,19,18,58,,136,117,29,16,9,9,0.5,0.4
2025-05-29T2100,1240A,121.5856,29.8635,宁波市,太古小学,,40,40,28,23,18,79,,137,122,33,18,11,8,0.4,0.4
2025-05-29T2100,1241A,121.524,29.8674,宁波市,市环境监测中心,,38,38,23,26,19,72,,129,114,36,21,16,11,0.5,0.5
2025-05-29T2100,2871A,121.6147,29.9017,宁波市,万里国际学校,,33,33,22,21,18,73,,128,113,35,22,10,8,0.3,0.3
2025-05-29T2100,3710A,121.5594,29.8975,宁波市,白沙活动中心,,38,31,20,26,15,72,,135,118,28,12,15,10,0.4,0.4
2025-05-29T2100,2339A,119.5001,26.6946,宁德市,金涵水库,,,,,,,,,,,,,,,,
2025-05-29T2100,2341A,119.5388,26.6612,宁德市,宁德市监测站,,21,16,10,9,7,65,,79,78,20,12,4,4,0.3,0.4
2025-05-29T2100,3209A,119.5231,26.6562,宁德市,宁德一中,,19,19,9,6,5,40,,86,77,10,7,4,4,0.4,0.4
2025-05-29T2100,2618A,98.8601,25.8567,怒江傈僳族自治州,州监测站,,19,13,16,13,9,38,,51,48,8,5,8,8,0.4,0.4
2025-05-29T2100,2619A,98.8546,25.8417,怒江傈僳族自治州,泸水一中,,10,7,16,3,9,29,,35,34,9,12,6,6,0.3,0.4
2025-05-29T2100,1888A,101.6891,26.571,攀枝花市,弄弄坪,,,37,33,16,18,,,84,84,14,23,8,13,1.1,1.1
2025-05-29T2100,1889A,101.5769,26.5928,攀枝花市,河门口,,35,35,23,10,14,57,,93,90,12,16,9,12,0.6,1
2025-05-29T2100,1890A,101.7169,26.585,攀枝花市,炳草岗,,36,36,34,17,21,47,,87,80,27,26,13,18,1.8,1.2
2025-05-29T2100,1891A,101.7369,26.5008,攀枝花市,仁和,,16,12,15,8,10,49,,71,65,11,8,7,8,0.7,0.7
2025-05-29T2100,2835A,101.7227,26.567,攀枝花市,四十中小,,25,23,23,17,20,69,,94,91,12,21,8,16,1.0,1.3
2025-05-29T2100,1604A,122.0303,41.1489,盘锦市,开发区,,,,31,27,29,180,,161,,12,17,13,12,0.9,0.9
2025-05-29T2100,1605A,122.0485,41.0883,盘锦市,兴隆台,臭氧1小时,58,38,40,32,30,166,,177,177,17,19,8,8,0.5,0.5
2025-05-29T2100,1606A,121.8297,41.1028,盘锦市,新生街道,臭氧1小时,93,32,29,30,28,194,,186,186,20,23,8,9,0.4,0.4
2025-05-29T2100,1832A,113.3257,33.742,平顶山市,新华旅馆,颗粒物(PM10),80,109,126,30,44,178,,210,204,18,27,5,7,0.5,0.6
2025-05-29T2100,1833A,113.2919,33.737,平顶山市,规划设计院,颗粒物(PM10),90,129,118,37,53,168,,203,197,23,27,4,6,0.6,0.8
2025-05-29T2100,1834A,113.182,33.774,平顶山市,平顶山工学院,臭氧1小时,79,96,94,39,47,183,,208,205,13,15,4,5,0.5,0.6
2025-05-29T2100,3204A,113.3025,33.73,平顶山市,规划局,颗粒物(PM10),113,175,130,34,42,164,,202,196,22,25,4,8,0.6,0.6
2025-05-29T2100,3594A,112.8867,33.9116,平顶山市,石龙区,颗粒物(PM10),71,91,145,40,47,155,,203,194,35,46,7,11,0.5,0.6
2025-05-29T2100,2656A,106.6692,35.5461,平凉市,聚贤嘉苑,,,,,,,,,,,,,,,,
2025-05-29T2100,2657A,106.7021,35.5307,平凉市,博物馆,,40,40,52,15,22,109,,118,114,8,16,10,12,0.7,0.9
2025-05-29T2100,2347A,114.0997,27.5002,萍乡市,武功山,,16,10,4,3,4,51,,90,84,4,4,9,9,0.3,0.3
2025-05-29T2100,2348A,113.8385,27.6434,萍乡市,中医院,,35,22,28,17,19,112,,124,123,10,6,9,19,0.6,0.6
2025-05-29T2100,2349A,113.8493,27.6253,萍乡市,市政府车库,,29,22,19,20,22,90,,110,108,12,6,8,11,1.1,0.6
2025-05-29T2100,2350A,113.8676,27.6435,萍乡市,市环保局,,34,22,27,21,18,108,,118,118,6,3,3,12,0.5,0.5
2025-05-29T2100,2351A,113.866,27.6198,萍乡市,安源区政府,,,,24,,13,,,107,107,9,9,3,4,0.5,1
2025-05-29T2100,2319A,119.0141,25.4325,莆田市,荔城区仓后路,,17,15,11,3,6,53,,74,70,19,14,3,3,0.7,0.5
2025-05-29T2100,2320A,119.0015,25.4553,莆田市,莆田市监测站,,,,11,0,6,66,,71,70,6,10,3,3,0.4,0.5
2025-05-29T2100,2321A,119.1119,25.4561,莆田市,涵江区六中,,29,6,11,3,5,92,,81,81,12,24,3,3,0.5,0.6
2025-05-29T2100,2322A,119.1013,25.3215,莆田市,秀屿区政府,,28,,7,9,2,87,,94,93,13,10,1,3,0.4,0.5
2025-05-29T2100,2323A,118.981,25.4792,莆田市,东圳水库,,,,,,,,,,,,,,,,
2025-05-29T2100,2392A,115.0312,35.7636,濮阳市,环保局,臭氧1小时,55,58,57,31,33,164,,195,188,19,17,5,6,0.7,0.7
2025-05-29T2100,2394A,115.0574,35.7609,濮阳市,油田运输公司,颗粒物(PM10),64,78,64,32,32,159,,200,190,17,16,6,13,0.7,0.7
2025-05-29T2100,3021A,115,35.7668,濮阳市,濮水河管理处,颗粒物(PM10),56,62,57,33,34,148,,194,184,25,21,4,6,0.7,0.7
2025-05-29T2100,4216A,115.0924,35.7686,濮阳市,任丘路479号,颗粒物(PM10),60,69,65,39,34,164,,199,190,16,16,7,8,0.7,0.7
2025-05-29T2100,2601A,100.98,22.7633,普洱市,市环保局,细颗粒物(PM2.5),57,,25,40,15,35,,43,40,4,4,4,4,0.5,0.5
2025-05-29T2100,2602A,100.9817,22.8322,普洱市,普洱第二中学,,39,,12,27,12,26,,43,37,6,6,5,5,0.5,0.5
2025-05-29T2100,2262A,131.0518,45.8751,七台河市,新一中,颗粒物(PM10),54,57,34,30,19,89,,162,146,27,16,11,11,1.0,0.8
2025-05-29T2100,3345A,131.0577,45.7879,七台河市,中波台,,36,36,35,11,9,75,,122,106,38,23,6,7,0.6,0.4
2025-05-29T2100,3637A,131.0176,45.7761,七台河市,人民广场,颗粒物(PM10),59,67,53,32,28,76,,129,110,26,22,11,12,0.6,0.6
2025-05-29T2100,3684A,130.8781,45.8222,七台河市,新建矿广场,颗粒物(PM10),63,75,73,32,20,84,,134,121,35,23,11,12,0.5,0.5
2025-05-29T2100,1779A,123.9305,47.3636,齐齐哈尔市,安居小区,颗粒物(PM10),67,84,76,26,28,143,,175,170,26,16,8,6,0.7,0.6
2025-05-29T2100,1780A,123.9488,47.3386,齐齐哈尔市,中心广场,颗粒物(PM10),71,91,88,27,32,157,,183,179,25,17,8,8,0.6,0.5
2025-05-29T2100,1781A,123.9483,47.3227,齐齐哈尔市,农牧车辆厂,颗粒物(PM10),65,80,79,31,25,152,,171,169,13,12,6,7,0.2,0.2
2025-05-29T2100,1783A,123.945,47.2988,齐齐哈尔市,市环境监测站,颗粒物(PM10),53,56,66,30,28,159,,180,177,12,10,4,5,0.3,0.3
2025-05-29T2100,3662A,123.6333,47.2075,齐齐哈尔市,富区青少年活动中心,颗粒物(PM10),63,75,73,41,43,165,,187,185,10,8,4,4,0.5,0.5
2025-05-29T2100,2591A,107.9783,26.5747,黔东南苗族侗族自治州,市环境监测站,,25,21,14,17,10,66,,85,80,10,6,1,1,0.5,0.5
2025-05-29T2100,2881A,107.8908,26.5311,黔东南苗族侗族自治州,凯里学院,,20,14,9,13,9,64,,88,82,17,8,2,2,0.4,0.4
2025-05-29T2100,2593A,107.5228,26.2403,黔南布依族苗族自治州,小围寨,,17,12,9,9,4,54,,68,63,6,4,1,2,0.3,0.4
2025-05-29T2100,3538A,107.5175,26.2978,黔南布依族苗族自治州,沙坝,,,29,14,,2,53,,84,74,10,5,3,3,0.4,0.4
2025-05-29T2100,2589A,104.9022,25.0925,黔西南布依族苗族自治州,场坝街,,25,10,14,3,6,78,,76,76,8,12,2,2,0.4,0.4
2025-05-29T2100,2590A,104.8811,25.0992,黔西南布依族苗族自治州,坪东大道,,19,18,14,9,7,58,,60,60,10,11,1,2,0.2,0.2
2025-05-29T2100,2502A,108.6236,21.9667,钦州市,市环保站,,18,12,28,3,8,57,,69,68,9,14,4,5,0.6,0.8
2025-05-29T2100,2503A,108.6549,21.9481,钦州市,沙埠小学,,19,17,40,10,15,60,,70,70,10,25,4,7,0.5,0.5
2025-05-29T2100,2504A,108.5989,21.7431,钦州市,港区一小,,25,25,44,11,16,50,,65,64,14,20,8,8,0.6,0.7
2025-05-29T2100,3404A,108.5959,21.9633,钦州市,北职校,,18,18,31,11,13,46,,61,59,13,17,6,7,1.1,0.9
2025-05-29T2100,1043A,119.7493,40.0116,秦皇岛市,第一关,臭氧1小时,98,101,64,67,34,198,,174,174,23,44,11,5,0.7,0.4
2025-05-29T2100,1044A,119.5897,39.9499,秦皇岛市,监测站,臭氧1小时,97,94,62,69,29,197,,184,184,24,33,7,4,0.6,0.4
2025-05-29T2100,1046A,119.5251,39.9041,秦皇岛市,建设大厦,臭氧1小时,75,74,59,47,26,180,,164,164,19,37,6,4,0.6,0.4
2025-05-29T2100,3132A,119.610547,39.943889,秦皇岛市,文明里,臭氧1小时,94,85,63,41,20,195,,170,170,18,27,7,4,0.5,0.3
2025-05-29T2100,4198A,119.5090,39.8253,秦皇岛市,北戴河轮滑馆,颗粒物(PM10),63,75,49,43,31,162,,157,157,9,9,4,3,0.5,0.3
2025-05-29T2100,1307A,120.6659,36.2403,青岛市,仰口,臭氧1小时,60,35,33,33,26,168,,160,160,6,8,8,8,0.5,0.5
2025-05-29T2100,1310A,120.4134,36.0658,青岛市,市南区东部子站,,34,31,23,22,14,106,,122,112,17,12,8,8,0.4,0.3
2025-05-29T2100,1311A,120.3664,36.1032,青岛市,四方区子站,,42,27,24,22,18,134,,163,154,22,16,4,4,0.6,0.6
2025-05-29T2100,1312A,120.2994,36.054,青岛市,市南区西部子站,,33,22,22,20,16,103,,106,99,13,21,7,8,0.7,0.6
2025-05-29T2100,1313A,120.4581,36.0858,青岛市,崂山区子站,,32,29,20,19,13,102,,117,108,16,13,7,7,0.5,0.5
2025-05-29T2100,1315A,120.3999,36.3083,青岛市,城阳区子站,,48,41,31,24,16,152,,173,164,20,17,5,5,0.5,0.5
2025-05-29T2100,1966A,120.0405,35.8735,青岛市,黄岛区4号,,41,31,23,19,12,129,,138,135,11,11,8,8,0.6,0.6
2025-05-29T2100,3362A,120.5014,36.4034,青岛市,即墨2号,臭氧1小时,63,53,48,36,26,170,,183,179,10,16,8,8,0.7,0.6
2025-05-29T2100,3642A,120.3503,36.0736,青岛市,市北区南部,,39,30,25,27,14,120,,119,117,13,12,6,8,0.4,0.4
2025-05-29T2100,3643A,120.3948,36.1805,青岛市,李沧区北部,,44,44,32,24,21,140,,164,150,18,18,7,7,0.6,0.5
2025-05-29T2100,4290A,120.1969,35.9546,青岛市,珠江路669号,,39,,19,20,15,124,,129,124,7,6,6,7,0.5,0.5
2025-05-29T2100,1702A,113.0426,23.691,清远市,环保大楼,,16,,31,6,17,51,,72,53,14,14,7,6,1.0,0.9
2025-05-29T2100,1703A,113.0208,23.7106,清远市,凤城街办,,15,6,18,3,13,46,,57,48,17,18,8,8,0.8,0.7
2025-05-29T2100,3025A,113.0477,23.6344,清远市,技师学院,,16,6,25,3,18,50,,59,51,15,16,7,6,0.7,0.7
2025-05-29T2100,3318A,112.9903,23.7403,清远市,清新太和,,10,6,18,3,15,30,,47,34,18,20,8,8,0.8,0.7
2025-05-29T2100,3455A,113.076,23.7198,清远市,清城东城,,,6,25,,21,,,57,57,13,11,,7,0.6,0.6
2025-05-29T2100,2661A,107.6325,35.7357,庆阳市,庆阳五中,,45,45,45,22,25,142,,143,142,12,11,4,4,0.4,0.4
2025-05-29T2100,2662A,107.6364,35.7067,庆阳市,市环保局,,46,40,44,17,21,147,,147,146,8,7,8,10,0.5,0.5
2025-05-29T2100,1916A,103.7897,25.5035,曲靖市,环境监测站,,30,30,16,8,7,48,,65,63,17,16,4,4,0.6,0.6
2025-05-29T2100,1917A,103.8,25.5364,曲靖市,烟厂办公区,,18,18,13,11,8,53,,66,63,13,13,4,4,0.7,0.7
2025-05-29T2100,3376A,103.7947,25.462,曲靖市,南苑二区,,20,20,12,8,7,57,,72,70,13,14,4,4,0.6,0.6
2025-05-29T2100,3377A,103.7444,25.5261,曲靖市,曲靖师范学院,,19,18,12,9,10,59,,72,70,8,11,5,6,0.5,0.6
2025-05-29T2100,1264A,118.8692,28.9398,衢州市,环保大楼,,28,27,26,16,19,87,,133,124,27,15,4,3,0.4,0.3
2025-05-29T2100,1265A,118.8709,28.9666,衢州市,实验学校,,30,26,24,16,18,96,,137,130,23,12,2,2,0.3,0.3
2025-05-29T2100,1266A,118.8621,28.9808,衢州市,衢州学院,,28,27,25,16,19,87,,123,114,19,12,5,5,0.2,0.3
2025-05-29T2100,1611A,118.5819,24.9117,泉州市,涂山街,,,12,7,6,6,,,84,82,13,12,3,4,0.7,0.7
2025-05-29T2100,1612A,118.5972,24.8978,泉州市,津头埔,,23,10,7,7,8,72,,79,77,18,17,2,2,0.6,0.5
2025-05-29T2100,1613A,118.6663,24.9424,泉州市,万安,,24,13,11,6,7,75,,81,81,9,7,3,4,0.5,0.5
2025-05-29T2100,1614A,118.6117,24.9604,泉州市,清源山,,,,,,,,,,,,,,,,
2025-05-29T2100,3529A,118.6333,24.9264,泉州市,城华南路,,19,14,13,7,6,59,,70,69,14,14,2,3,0.5,0.5
2025-05-29T2100,2626A,88.8876,29.2718,日喀则市,日喀则监测站,,21,6,11,3,8,67,,103,94,9,11,17,15,0.0,0.1
2025-05-29T2100,3726A,88.8781,29.2426,日喀则市,林业技术推广中心,,,,11,19,3,,,102,97,4,4,5,7,0.1,0.5
2025-05-29T2100,1659A,119.471,35.4209,日照市,监测站,,39,39,42,26,22,103,,142,137,37,37,7,7,0.5,0.5
2025-05-29T2100,1660A,119.523,35.4216,日照市,市政府广场,,39,39,32,18,14,110,,140,135,21,12,5,5,0.5,0.5
2025-05-29T2100,1661A,119.5587,35.4044,日照市,港务局,,42,34,28,29,23,125,,132,130,16,10,8,8,0.4,0.4
2025-05-29T2100,3507A,119.5328,35.4625,日照市,职业技术学院,,39,34,34,17,15,124,,150,145,15,13,5,5,0.5,0.5
2025-05-29T2100,3604A,119.3266,35.1044,日照市,岚山环保分局,,35,29,44,14,20,109,,155,139,19,22,7,8,0.5,0.6
2025-05-29T2100,1835A,111.1922,34.7752,三门峡市,市政府,颗粒物(PM10),65,80,80,40,44,166,,200,196,22,18,5,12,0.7,0.7
2025-05-29T2100,1836A,111.1587,34.7942,三门峡市,开发区,臭氧1小时,69,84,73,42,38,175,,201,196,22,17,5,8,0.6,0.6
2025-05-29T2100,1838A,111.143,34.7955,三门峡市,风景区,,,,73,,36,,,208,207,15,12,8,11,0.5,0.5
2025-05-29T2100,3039A,111.1911,34.7829,三门峡市,三门峡市第一小学,臭氧1小时,70,75,82,39,37,176,,210,206,20,17,8,11,0.6,0.6
2025-05-29T2100,3598A,111.1,34.7167,三门峡市,富达温泉假日酒店,,,,70,,35,192,,199,199,10,12,,7,0.5,0.4
2025-05-29T2100,2324A,117.6211,26.2625,三明市,三钢,,23,23,9,10,5,53,,65,63,12,8,7,2,0.8,0.7
2025-05-29T2100,2325A,117.635,26.2714,三明市,三明二中,,,17,7,13,4,,,64,63,11,6,8,4,0.4,1.1
2025-05-29T2100,2326A,117.6028,26.2378,三明市,三元区政府,,18,12,7,8,4,55,,67,64,12,9,6,3,0.4,0.8
2025-05-29T2100,2327A,117.7275,26.3108,三明市,洋溪,,,,,,,,,,,,,,,,
2025-05-29T2100,1876A,109.5078,18.2489,三亚市,河东子站,,24,24,13,10,8,15,,36,28,16,5,3,3,0.6,0.5
