timepoint,stationcode,longitude,latitude,area,positionname,primarypollutant,aqi,pm10,pm10_24h,pm2_5,pm2_5_24h,o3,o3_24h,o3_8h,o3_8h_24h,no2,no2_24h,so2,so2_24h,co,co_24h
2025-05-29T1200,2566A,102.1879,31.914,阿坝藏族羌族自治州,州农科所,,21,12,16,6,9,65,,40,40,5,8,11,12,0.4,0.6
2025-05-29T1200,2568A,102.2502,31.8896,阿坝藏族羌族自治州,马师校,,25,14,18,6,15,78,,37,37,8,10,5,5,0.5,0.5
2025-05-29T1200,3994A,102.2165,31.9024,阿坝藏族羌族自治州,马尔康中学西区,,25,14,16,9,15,80,,41,41,5,7,5,5,0.4,0.4
2025-05-29T1200,2695A,80.292,41.1694,阿克苏地区,电视台,,43,43,82,30,38,74,,68,68,12,16,3,3,0.6,0.6
2025-05-29T1200,2696A,80.2613,41.1551,阿克苏地区,艺术中心,,,,78,,33,,,89,,,21,,4,,0.8
2025-05-29T1200,2204A,105.6467,38.8363,阿拉善盟,西城区西花园,颗粒物(PM10),195,339,158,124,55,107,,116,101,8,9,6,6,0.7,0.7
2025-05-29T1200,2205A,105.6985,38.8411,阿拉善盟,蒙二幼,颗粒物(PM10),420,520,203,152,50,90,,103,90,5,8,,10,,0.5
2025-05-29T1200,2206A,105.724,38.8516,阿拉善盟,环保局新楼,颗粒物(PM10),430,530,158,148,47,98,,112,95,6,6,10,9,0.5,0.5
2025-05-29T1200,2708A,88.1264,47.8517,阿勒泰地区,市站,,28,12,10,3,6,87,,56,55,3,5,2,2,0.1,0.1
2025-05-29T1200,2630A,80.1161,32.5,阿里地区,阿里监测站,臭氧1小时,58,14,18,9,9,166,,163,163,2,3,6,6,0.3,0.3
2025-05-29T1200,3192A,80.0903,32.5028,阿里地区,阿里藏医院,臭氧1小时,70,22,35,8,10,176,,177,177,4,6,6,6,0.4,0.4
2025-05-29T1200,2642A,109.0318,32.6537,安康市,香溪洞,,44,44,43,27,23,124,,91,86,5,7,10,9,0.5,0.5
2025-05-29T1200,2644A,109.0072,32.6975,安康市,汉滨区检察院,,43,38,32,29,24,135,,78,78,6,10,11,16,0.6,0.6
2025-05-29T1200,4054A,109.0325,32.6913,安康市,市邮政管理局,,41,36,40,25,29,129,,77,77,7,13,12,14,0.6,0.6
2025-05-29T1200,2291A,117.0809,30.5177,安庆市,环科院,,45,33,37,22,27,143,,64,64,8,35,4,3,0.4,0.6
2025-05-29T1200,2292A,117.0331,30.5119,安庆市,马山宾馆,,46,46,34,19,29,144,,70,70,10,22,6,5,0.5,0.6
2025-05-29T1200,2294A,116.9896,30.6145,安庆市,安庆大学,,45,32,33,25,26,143,,75,75,6,14,4,4,0.4,0.4
2025-05-29T1200,3173A,117.0598,30.5351,安庆市,市人大,颗粒物(PM10),52,53,37,20,28,150,,76,76,10,21,10,10,0.5,0.6
2025-05-29T1200,3122A,105.9606,26.2611,安顺市,伍家关,,,15,10,15,4,,,45,44,5,6,2,3,0.4,0.4
2025-05-29T1200,3123A,105.9408,26.2431,安顺市,凤凰山,,22,18,17,15,18,67,,54,54,11,12,8,8,0.5,0.4
2025-05-29T1200,3124A,105.9439,26.2564,安顺市,金钟山,,23,18,15,16,13,62,,52,52,4,5,6,7,0.4,0.3
2025-05-29T1200,3125A,105.8983,26.2481,安顺市,娄家坡,,,,9,18,12,63,,54,52,6,7,7,11,,0.5
2025-05-29T1200,1818A,114.4839,36.0621,安阳市,棉研所,,,,,,,,,,,,,,,,
2025-05-29T1200,1819A,114.3551,36.1017,安阳市,红庙街,臭氧1小时,107,76,70,29,39,214,,124,124,2,11,3,3,0.5,0.5
2025-05-29T1200,1820A,114.361,36.0681,安阳市,银杏小区,臭氧1小时,107,64,68,28,40,213,,108,108,2,27,3,4,0.4,0.4
2025-05-29T1200,3141A,114.3922,36.0878,安阳市,信访局,臭氧1小时,109,77,69,36,36,218,,122,122,4,20,3,5,0.5,0.6
2025-05-29T1200,3669A,114.4705,36.0637,安阳市,左辅环卫站,,,,58,,26,,,187,,,10,,1,,0.7
2025-05-29T1200,3703A,114.2917,36.0949,安阳市,安钢职工学校,臭氧1小时,92,70,75,24,40,193,,130,130,2,13,2,3,0.3,0.5
2025-05-29T1200,1748A,123.044,41.1196,鞍山市,深沟寺,臭氧1小时,62,28,39,18,28,169,,142,142,8,13,6,7,0.7,0.8
2025-05-29T1200,1749A,123.011,41.0931,鞍山市,太阳城,臭氧1小时,67,23,38,17,27,173,,140,140,8,12,7,7,0.6,0.7
2025-05-29T1200,1750A,123.0485,41.1442,鞍山市,太平,臭氧1小时,53,34,52,21,30,162,,142,142,10,15,8,9,0.7,0.9
2025-05-29T1200,1751A,122.9642,41.0971,鞍山市,铁西三道街,臭氧1小时,60,43,52,25,31,168,,122,122,17,23,9,5,0.8,0.7
2025-05-29T1200,1753A,123.022,41.0821,鞍山市,明达新区,臭氧1小时,52,28,39,19,28,161,,135,135,8,12,6,7,0.4,0.5
2025-05-29T1200,1754A,123.1289,41.0228,鞍山市,千山,,,,29,,20,,,153,,,8,,5,,0.4
2025-05-29T1200,4201A,122.9446,41.0826,鞍山市,兴盛南路290号,臭氧1小时,60,39,56,21,30,168,,130,130,12,22,7,8,0.7,0.7
2025-05-29T1200,2195A,107.4212,40.761,巴彦淖尔市,附二中,颗粒物(PM10),56,62,122,13,35,123,,113,112,8,9,7,5,0.5,0.4
2025-05-29T1200,2196A,107.37,40.7372,巴彦淖尔市,市环保大楼,颗粒物(PM10),55,59,107,34,34,135,,120,120,11,12,8,6,0.3,0.2
2025-05-29T1200,1956A,86.1472,41.7538,巴音郭楞蒙古自治州,孔雀公园,颗粒物(PM10),86,122,193,26,53,84,,81,81,10,19,9,9,0.2,0.3
2025-05-29T1200,1957A,86.1972,41.7166,巴音郭楞蒙古自治州,棉纺厂,颗粒物(PM10),100,149,259,31,60,94,,79,79,6,13,3,5,0.3,0.3
2025-05-29T1200,1958A,86.2357,41.7173,巴音郭楞蒙古自治州,经济开发区,颗粒物(PM10),78,106,206,33,47,96,,86,86,3,6,8,10,0.3,0.2
2025-05-29T1200,2914A,106.7677,31.8794,巴中市,苏山坪,,33,13,17,7,13,103,,93,93,6,8,3,4,0.4,0.3
2025-05-29T1200,3181A,106.7768,31.8526,巴中市,市五中,,33,16,27,6,16,104,,62,62,6,15,7,7,0.5,0.5
2025-05-29T1200,3183A,106.7418,31.8654,巴中市,圣泉水务公司,,34,13,22,12,17,106,,61,61,4,20,5,5,0.5,0.5
2025-05-29T1200,3616A,106.7616,31.8344,巴中市,市中心医院,,31,14,24,14,20,99,,49,49,5,18,5,5,0.4,0.5
2025-05-29T1200,2235A,122.7911,45.6077,白城市,洮北区环保局,臭氧1小时,87,73,66,30,30,189,,152,152,12,12,6,6,0.5,0.4
2025-05-29T1200,2236A,122.8738,45.5725,白城市,市环保局,臭氧1小时,88,80,55,31,30,190,,152,152,7,7,7,6,0.9,0.8
2025-05-29T1200,2231A,126.4219,41.9171,白山市,喜丰,臭氧1小时,52,48,70,27,21,161,,71,71,12,26,9,9,0.7,0.6
2025-05-29T1200,2232A,126.4077,41.9419,白山市,环保局,,,,35,53,20,152,,72,72,12,17,7,9,,0.4
2025-05-29T1200,2647A,104.1724,36.5446,白银市,第三小学,,27,22,33,15,16,84,,73,71,4,8,24,29,0.5,0.5
2025-05-29T1200,2648A,104.1465,36.5482,白银市,动力公司,,29,20,30,14,14,90,,80,80,7,13,28,31,0.4,0.5
2025-05-29T1200,2512A,106.6103,23.9011,百色市,市监测站,,12,8,19,3,8,37,,33,32,10,8,3,4,0.6,0.6
2025-05-29T1200,2513A,106.6538,23.8859,百色市,市中心血站,,,6,23,3,9,38,,32,32,,10,3,3,0.7,0.8
2025-05-29T1200,3406A,106.6085,23.8798,百色市,祈福高中,,12,,26,3,16,37,,29,27,7,10,4,5,0.6,0.7
2025-05-29T1200,2270A,117.396,32.939,蚌埠市,工人疗养院,臭氧1小时,94,74,72,33,38,195,,111,111,17,17,6,5,0.5,0.5
2025-05-29T1200,2271A,117.3605,32.9427,蚌埠市,百货大楼,臭氧1小时,92,75,67,41,37,193,,115,115,16,14,10,8,0.4,0.5
2025-05-29T1200,2273A,117.4185,32.8911,蚌埠市,蚌埠学院,臭氧1小时,80,51,59,34,46,184,,111,111,9,15,6,5,0.5,0.5
2025-05-29T1200,2274A,117.3533,32.9673,蚌埠市,淮上区政府,臭氧1小时,103,70,65,37,41,206,,120,120,14,19,8,7,0.5,0.5
2025-05-29T1200,2275A,117.3145,32.8977,蚌埠市,高新区,臭氧1小时,89,58,63,43,40,191,,124,124,17,18,8,6,0.5,0.6
2025-05-29T1200,3715A,117.3092,32.9314,蚌埠市,蚌埠田家炳中学,臭氧1小时,95,67,64,42,40,196,,126,126,14,12,7,6,0.4,0.5
2025-05-29T1200,1585A,109.8756,40.6532,包头市,市环境监测站,臭氧1小时,64,63,59,29,27,171,,134,134,16,21,11,13,0.6,0.6
2025-05-29T1200,1587A,109.9991,40.5842,包头市,包头八中,颗粒物(PM10),69,88,62,39,31,170,,138,138,15,24,14,20,0.6,0.7
2025-05-29T1200,1588A,109.8538,40.6821,包头市,青山宾馆,臭氧1小时,70,61,55,32,31,176,,134,134,14,19,11,12,0.7,0.7
2025-05-29T1200,1589A,109.8642,40.6288,包头市,惠龙物流,臭氧1小时,69,56,63,30,28,175,,141,141,15,20,8,11,0.5,0.5
2025-05-29T1200,1590A,110.0377,40.5546,包头市,东河鸿龙湾,臭氧1小时,65,65,66,31,25,172,,124,124,14,27,9,24,0.5,0.7
2025-05-29T1200,3283A,109.9154,40.5685,包头市,滨河大厦,颗粒物(PM10),63,75,60,29,24,168,,132,132,13,22,8,12,0.6,0.6
2025-05-29T1200,3419A,109.9447,40.6261,包头市,包头市委党校,臭氧1小时,62,67,58,27,25,169,,140,140,13,17,12,15,0.5,0.6
2025-05-29T1200,3683A,109.8331,40.6576,包头市,昆区政府,臭氧1小时,62,66,58,31,30,169,,138,138,18,22,9,11,0.7,0.7
2025-05-29T1200,1930A,107.185,34.3063,宝鸡市,庙沟村,臭氧1小时,69,55,31,34,19,175,,117,117,14,13,11,10,0.7,0.6
2025-05-29T1200,1931A,107.0708,34.3017,宝鸡市,竹园沟,臭氧1小时,59,57,31,35,20,167,,90,90,12,11,7,5,0.6,0.5
2025-05-29T1200,1932A,107.1906,34.3672,宝鸡市,三陆医院,"细颗粒物(PM2.5),臭氧1小时",62,67,48,44,27,169,,72,72,16,32,9,9,0.5,0.5
2025-05-29T1200,1933A,107.1431,34.3547,宝鸡市,监测站,臭氧1小时,55,50,36,26,17,164,,84,84,14,24,8,7,0.4,0.4
2025-05-29T1200,1934A,107.1186,34.3739,宝鸡市,技工学校,颗粒物(PM10),61,72,49,39,26,168,,86,86,12,17,7,8,0.6,0.5
2025-05-29T1200,1935A,107.3906,34.3528,宝鸡市,陈仓区环保局家属楼,臭氧1小时,65,71,49,44,25,172,,93,93,14,22,7,6,0.5,0.6
2025-05-29T1200,1936A,107.2058,34.3497,宝鸡市,文理学院,臭氧1小时,63,50,39,44,24,170,,88,88,12,19,9,9,0.5,0.5
2025-05-29T1200,1937A,107.2386,34.3622,宝鸡市,三迪小学,"颗粒物(PM10),臭氧1小时",64,77,46,35,26,171,,82,82,15,25,10,9,0.5,0.4
2025-05-29T1200,1051A,115.493,38.8632,保定市,游泳馆,臭氧1小时,111,73,85,54,53,222,,123,123,13,24,12,6,0.7,0.4
2025-05-29T1200,1052A,115.5213,38.8959,保定市,华电二区,,,,63,,40,209,,101,96,8,15,,4,0.9,0.6
2025-05-29T1200,1053A,115.4713,38.9108,保定市,接待中心,臭氧1小时,113,55,71,47,48,225,,111,111,11,19,8,6,0.5,0.6
2025-05-29T1200,1054A,115.4612,38.8416,保定市,地表水厂,臭氧1小时,108,86,90,43,47,215,,113,113,13,30,10,5,0.7,0.5
2025-05-29T1200,3581A,115.31981,38.95208,保定市,满城区生态环境分局,臭氧1小时,116,97,89,53,48,232,,111,111,14,23,8,4,0.5,0.4
2025-05-29T1200,3582A,115.47694,38.76408,保定市,清苑区第二中学,臭氧1小时,114,102,99,54,54,227,,130,130,12,22,10,5,1.0,0.5
2025-05-29T1200,3583A,115.62909,39.02311,保定市,徐水物探局,臭氧1小时,105,126,100,,43,209,,90,90,14,25,5,3,0.8,0.5
2025-05-29T1200,4004A,115.4202,38.8656,保定市,双鹰农机,臭氧1小时,116,71,73,41,43,231,,119,119,11,20,12,6,0.6,0.4
2025-05-29T1200,4034A,115.5150,38.8590,保定市,植保所站,臭氧1小时,110,68,85,59,50,219,,101,101,7,24,13,6,0.9,0.6
2025-05-29T1200,2594A,99.1678,25.1081,保山市,市环境监测站,,25,,12,17,15,40,,33,33,9,8,7,6,0.6,0.5
2025-05-29T1200,2595A,99.1711,25.1328,保山市,市环保局,,16,16,12,8,6,43,,38,38,10,7,7,7,0.4,0.4
2025-05-29T1200,1866A,109.2262,21.588,北海市,牛尾岭水库,,,30,20,,11,82,,50,50,7,9,6,13,0.5,0.6
2025-05-29T1200,1867A,109.1436,21.4086,北海市,海滩公园,,21,17,25,7,7,66,,43,43,4,5,5,5,0.6,0.6
2025-05-29T1200,1868A,109.0981,21.4661,北海市,新市环保局,,35,27,20,24,11,76,,53,53,8,7,4,3,0.7,0.6
2025-05-29T1200,1869A,109.1778,21.5233,北海市,北海工业园,,25,25,27,17,13,76,,39,39,8,10,8,7,0.6,0.5
2025-05-29T1200,3400A,109.1911,21.4415,北海市,龙潭自来水厂,,24,18,19,10,11,75,,47,47,6,5,3,4,0.4,0.4
2025-05-29T1200,1001A,116.3621,39.8784,北京市,万寿西宫,臭氧1小时,104,61,86,44,51,207,,119,119,20,24,9,6,0.8,0.7
2025-05-29T1200,1002A,116.2202,40.2915,北京市,定陵,,,,,,,,,,,,,,,,
2025-05-29T1200,1003A,116.4174,39.9289,北京市,东四,臭氧1小时,106,83,86,50,48,212,,123,123,26,32,9,7,0.9,0.7
2025-05-29T1200,1004A,116.4072,39.8863,北京市,天坛,臭氧1小时,103,73,79,36,43,205,,110,110,17,21,8,5,0.9,0.7
2025-05-29T1200,1005A,116.462,39.9365,北京市,农展馆,臭氧1小时,78,81,82,52,46,182,,101,101,17,25,9,7,1.3,1
2025-05-29T1200,1006A,116.3392,39.9295,北京市,官园,臭氧1小时,82,74,89,30,51,185,,106,106,20,25,11,9,0.9,0.6
2025-05-29T1200,1007A,116.2878,39.9611,北京市,海淀万柳,臭氧1小时,84,86,92,50,54,187,,96,96,22,28,8,5,1.1,0.9
2025-05-29T1200,1008A,116.6636,40.135,北京市,顺义新城,颗粒物(PM10),63,75,86,40,52,164,,109,109,16,18,14,10,1.2,0.8
2025-05-29T1200,1009A,116.6275,40.3275,北京市,怀柔镇,臭氧1小时,95,84,83,43,51,196,,138,138,13,14,9,6,1.0,0.8
2025-05-29T1200,1010A,116.2296,40.217,北京市,昌平镇,颗粒物(PM10),74,98,82,47,51,154,,123,118,26,23,9,6,0.7,0.6
2025-05-29T1200,1011A,116.3966,39.9821,北京市,奥体中心,臭氧1小时,75,67,81,33,49,180,,107,107,20,29,9,6,1.2,0.9
2025-05-29T1200,3281A,115.9718,40.4529,北京市,延庆夏都,臭氧1小时,72,53,71,32,42,177,,142,142,10,19,7,6,0.7,0.6
2025-05-29T1200,3418A,116.8336,40.4095,北京市,密云新城,臭氧1小时,90,78,81,47,50,192,,110,110,13,18,9,5,0.7,0.6
2025-05-29T1200,3671A,116.088,39.9726,北京市,门头沟三家店,臭氧1小时,84,94,87,55,50,187,,111,111,21,18,5,3,0.8,0.5
2025-05-29T1200,3672A,116.1541,39.8204,北京市,丰台云岗,臭氧1小时,93,77,94,39,48,194,,111,111,18,28,9,6,0.7,0.5
2025-05-29T1200,3673A,116.6804,39.9081,北京市,通州东关,臭氧1小时,88,88,85,46,43,190,,118,118,14,20,10,7,1.1,0.8
2025-05-29T1200,3674A,115.9577,39.7603,北京市,房山燕山,,,,72,,44,,,150,,,13,,5,,0.7
2025-05-29T1200,3675A,116.4672,39.7733,北京市,大兴旧宫,臭氧1小时,100,111,91,43,46,200,,107,107,17,21,7,5,1.1,0.9
2025-05-29T1200,3694A,115.986,40.4563,北京市,延庆石河营,臭氧1小时,60,47,74,27,42,168,,133,133,9,19,4,3,0.7,0.6
2025-05-29T1200,3695A,116.6151,40.3053,北京市,怀柔新城,臭氧1小时,98,73,81,43,51,198,,133,133,10,14,8,6,1.0,0.8
2025-05-29T1200,3696A,116.2545,39.8768,北京市,丰台小屯,臭氧1小时,78,68,89,37,48,182,,108,108,22,27,7,5,0.9,0.7
2025-05-29T1200,3697A,116.84,40.3844,北京市,密云镇,臭氧1小时,90,62,85,46,50,192,,114,114,12,23,11,7,0.7,0.6
2025-05-29T1200,4182A,116.1942,39.9158,北京市,八角北路9号,颗粒物(PM10),68,85,97,45,50,173,,99,99,25,28,6,5,0.7,0.5
2025-05-29T1200,4194A,117.0790,40.1518,北京市,洳河巡河路,臭氧1小时,79,105,100,56,51,183,,143,133,11,9,16,9,1.5,0.9
2025-05-29T1200,1761A,123.8275,41.3064,本溪市,大峪,臭氧1小时,53,34,46,21,24,162,,115,115,8,14,6,7,0.5,0.6
2025-05-29T1200,1762A,123.7567,41.3325,本溪市,溪湖,,48,35,51,18,30,153,,121,121,11,18,10,11,1.1,1.4
2025-05-29T1200,1763A,123.7169,41.3094,本溪市,彩屯,,49,40,52,24,32,155,,116,116,6,20,13,13,1.3,1.2
2025-05-29T1200,1764A,123.7669,41.2864,本溪市,东明,,,42,47,23,23,156,,114,114,8,16,5,6,,0.8
2025-05-29T1200,1765A,123.7992,41.2664,本溪市,新立屯,臭氧1小时,53,44,37,19,23,162,,140,140,8,18,6,6,0.6,0.6
2025-05-29T1200,1766A,123.8142,41.3472,本溪市,威宁,臭氧1小时,53,49,60,19,27,162,,96,96,11,25,6,6,0.5,0.5
2025-05-29T1200,2587A,105.2864,27.3125,毕节市,八中,,26,24,18,14,11,81,,36,36,10,7,7,5,0.4,0.5
2025-05-29T1200,2588A,105.31,27.2944,毕节市,师专,,30,23,20,14,12,93,,40,40,10,10,6,4,0.4,0.4
2025-05-29T1200,4263A,105.3688,27.3598,毕节市,工业大道,,,23,20,16,14,94,,45,45,11,11,,7,0.5,0.5
2025-05-29T1200,1629A,118.0018,37.3617,滨州市,第二水厂,臭氧1小时,93,63,68,27,34,194,,126,126,10,20,9,8,0.6,0.5
2025-05-29T1200,1630A,117.9776,37.393,滨州市,北中新校,,,68,56,34,33,198,,123,123,11,19,13,9,,0.8
2025-05-29T1200,3514A,117.9378,37.3956,滨州市,中海酒店,,,,57,,36,214,,136,136,15,16,13,13,0.8,0.7
2025-05-29T1200,3515A,117.9378,37.3553,滨州市,开发区一中,臭氧1小时,67,63,62,31,32,173,,105,105,17,25,12,9,0.6,0.5
2025-05-29T1200,3516A,118.0917,37.694,滨州市,金海六路,臭氧1小时,104,66,64,29,27,208,,115,115,10,22,14,16,0.3,0.3
2025-05-29T1200,4028A,117.9956,37.3753,滨州市,滨州市西街道办事处,臭氧1小时,108,66,63,36,34,215,,138,138,12,19,14,10,0.7,0.6
2025-05-29T1200,2311A,115.8072,33.8399,亳州市,污水处理厂,臭氧1小时,83,66,78,49,42,186,,120,120,6,13,4,6,0.5,0.5
2025-05-29T1200,2312A,115.7789,33.8518,亳州市,三国揽胜宫,臭氧1小时,85,96,77,40,42,188,,118,118,8,15,6,8,0.7,0.6
2025-05-29T1200,3332A,115.7633,33.8034,亳州市,亳州学院,,,67,77,45,39,130,,115,96,,14,4,4,,0.5
2025-05-29T1200,2693A,82.0485,44.8556,博尔塔拉蒙古自治州,市党校,颗粒物(PM10),52,54,64,13,22,96,,56,56,7,10,3,3,0.2,0.3
2025-05-29T1200,2694A,82.0806,44.8969,博尔塔拉蒙古自治州,市环保局,,48,48,61,16,15,84,,45,45,8,12,2,2,0.4,0.4
2025-05-29T1200,1071A,116.8842,38.2991,沧州市,沧县城建局,臭氧1小时,99,71,66,27,44,199,,140,140,11,26,7,4,0.3,0.4
2025-05-29T1200,1072A,116.8584,38.3254,沧州市,电视转播站,臭氧1小时,83,57,69,31,46,186,,138,138,11,21,3,3,0.3,0.5
2025-05-29T1200,1073A,116.8709,38.3228,沧州市,市环保局,臭氧1小时,89,59,81,33,47,191,,139,139,10,21,2,4,0.4,0.5
2025-05-29T1200,3324A,116.8136,38.3004,沧州市,河北水利电力学院,臭氧1小时,104,56,68,28,43,207,,149,149,11,24,6,8,0.3,0.4
2025-05-29T1200,2622A,97.1806,31.1273,昌都市,昌都监测站,,27,26,22,7,12,84,,51,51,4,12,4,4,0.2,0.3
2025-05-29T1200,3719A,97.1714,31.1406,昌都市,昌都会议中心,,26,20,24,9,13,81,,50,50,7,9,4,3,0.2,0.2
2025-05-29T1200,2690A,88.1236,43.8886,昌吉回族自治州,天山天池,,,3,17,,11,98,,70,70,5,5,6,5,0.5,0.5
2025-05-29T1200,2692A,87.2717,44.0297,昌吉回族自治州,新区政务中心,,34,29,35,14,14,106,,46,46,3,14,6,7,0.2,0.5
2025-05-29T1200,3613A,87.3095,44.0142,昌吉回族自治州,亚心广场,,,31,48,7,13,95,,51,51,,23,8,9,0.5,0.5
2025-05-29T1200,1119A,125.3325,43.9166,长春市,食品厂,,45,38,64,8,36,142,,128,128,17,39,4,6,0.4,0.6
2025-05-29T1200,1120A,125.2863,43.9027,长春市,客车厂,,48,45,61,7,40,153,,128,128,11,41,5,7,0.3,0.5
2025-05-29T1200,1121A,125.2841,43.8463,长春市,邮电学院,,48,25,48,11,31,153,,132,132,8,29,6,7,0.3,0.5
2025-05-29T1200,1122A,125.3716,43.8772,长春市,劳动公园,,47,44,54,16,32,148,,122,122,6,25,7,7,0.5,0.6
2025-05-29T1200,1123A,125.3297,43.8805,长春市,园林处,,48,37,48,13,28,152,,136,136,9,25,6,8,0.5,0.7
2025-05-29T1200,1124A,125.4605,43.79,长春市,净月潭,,50,42,39,15,24,157,,102,102,5,14,6,6,0.4,0.4
2025-05-29T1200,1125A,125.7194,43.515,长春市,甩湾子,,48,28,35,18,21,151,,95,95,7,33,3,3,0.5,0.5
2025-05-29T1200,1126A,125.3863,43.8447,长春市,经开区环卫处,颗粒物(PM10),55,60,77,13,34,147,,109,109,10,42,6,7,0.4,0.6
2025-05-29T1200,1127A,125.245,43.7783,长春市,高新区管委会,,47,38,50,12,35,150,,112,112,7,35,6,7,0.3,0.5
2025-05-29T1200,1128A,125.1761,43.8325,长春市,岱山公园,,48,41,62,23,42,153,,114,114,12,54,4,6,0.3,0.5
2025-05-29T1200,1335A,113.0833,28.2325,长沙市,经开区环保局,,33,21,19,9,12,105,,,,8,16,4,3,0.7,0.7
2025-05-29T1200,1336A,112.8872,28.2189,长沙市,高开区环保局,,35,19,21,8,11,112,,70,70,4,13,4,4,0.4,0.5
2025-05-29T1200,1337A,113.0792,28.2053,长沙市,马坡岭,,33,24,24,12,13,104,,63,63,7,16,4,4,0.5,0.5
2025-05-29T1200,1338A,112.9394,28.19,长沙市,湖南师范大学,,36,28,23,9,10,114,,80,80,6,13,6,5,0.4,0.4
2025-05-29T1200,1339A,113.0178,28.1322,长沙市,雨花区环保局,,35,21,23,10,12,112,,62,62,5,16,4,4,0.5,0.5
2025-05-29T1200,1340A,112.9792,28.2597,长沙市,伍家岭,,33,15,23,6,11,103,,58,58,4,14,2,2,0.4,0.5
2025-05-29T1200,1341A,113.0014,28.1944,长沙市,火车新站,,33,21,23,7,10,103,,70,70,7,14,6,6,0.4,0.4
2025-05-29T1200,1342A,112.9844,28.1178,长沙市,天心区环保局,,37,18,24,11,14,117,,70,70,7,15,2,2,0.3,0.5
2025-05-29T1200,1343A,112.8908,28.1308,长沙市,湖南中医药大学,,,24,24,,15,112,,64,64,7,15,3,2,0.5,0.6
2025-05-29T1200,1344A,112.9581,28.3611,长沙市,沙坪,,31,14,16,6,11,99,,67,67,6,5,3,3,0.6,0.6
2025-05-29T1200,1727A,113.1147,36.1547,长治市,清华站,臭氧1小时,99,55,50,31,27,199,,149,149,11,17,4,6,0.4,0.5
2025-05-29T1200,1730A,113.0886,36.2125,长治市,审计局,臭氧1小时,104,50,49,24,30,208,,143,143,12,19,8,11,0.4,0.6
2025-05-29T1200,1731A,113.0844,36.1856,长治市,长治八中,臭氧1小时,95,48,64,40,37,196,,129,129,12,20,9,11,0.2,0.2
2025-05-29T1200,2845A,113.1569,36.1911,长治市,德盛苑,,,,48,,29,191,,154,154,,12,6,11,,1.4
2025-05-29T1200,3568A,113.06,36.0464,长治市,向阳小学,臭氧1小时,100,66,71,43,39,200,,157,157,9,17,4,15,0.5,0.6
2025-05-29T1200,3569A,112.8792,36.3144,长治市,屯留一中,臭氧1小时,103,40,44,31,34,205,,131,131,13,21,9,9,0.3,0.3
2025-05-29T1200,4189A,113.1131,36.19948,长治市,英华南巷50号,臭氧1小时,100,52,55,29,33,200,,154,154,10,16,7,12,0.6,0.9
2025-05-29T1200,4190A,113.2367,36.3344,长治市,学府街1号,臭氧1小时,114,74,81,34,31,228,,137,137,12,36,3,2,0.5,0.6
2025-05-29T1200,1854A,111.6975,28.9703,常德市,市二中,细颗粒物(PM2.5),57,44,30,40,27,107,,44,44,7,12,5,5,0.6,0.6
2025-05-29T1200,1857A,111.7158,29.1456,常德市,白鹤山,,,,,,,,,,,,,,,,
2025-05-29T1200,3138A,111.7153,29.0289,常德市,武陵区永安,颗粒物(PM10),52,54,34,25,27,111,,55,55,6,10,4,4,0.5,0.6
2025-05-29T1200,3139A,111.6892,28.9881,常德市,鼎城区玉霞,,,63,33,43,22,98,,45,45,,15,4,3,0.6,0.6
2025-05-29T1200,3140A,111.6625,29.0531,常德市,武陵区长庚,,37,34,34,23,25,116,,54,54,6,10,6,6,0.6,0.6
2025-05-29T1200,1196A,119.9633,31.762,常州市,市监测站,臭氧1小时,64,72,65,40,32,171,,83,83,15,32,8,9,0.3,0.5
2025-05-29T1200,1200A,119.9468,31.7069,常州市,武进监测站,臭氧1小时,59,60,61,36,28,167,,96,96,24,27,5,9,0.9,0.8
2025-05-29T1200,1201A,119.9255,31.9087,常州市,安家,颗粒物(PM10),63,76,75,38,33,163,,76,76,16,38,12,12,0.3,0.3
2025-05-29T1200,3002A,119.9805,31.8174,常州市,行政中心,"颗粒物(PM10),臭氧1小时",54,58,55,33,32,163,,76,76,14,37,7,9,0.4,0.6
2025-05-29T1200,3003A,120.0522,31.7748,常州市,经开区,,,60,63,36,32,174,,72,72,,47,3,5,,0.6
2025-05-29T1200,3010A,119.9025,31.7964,常州市,钟楼,颗粒物(PM10),61,71,67,38,27,155,,86,86,13,20,8,9,0.7,0.6
2025-05-29T1200,3429A,119.8598,31.7066,常州市,武进经发区,臭氧1小时,54,43,55,29,29,163,,100,100,12,18,6,7,0.8,0.7
2025-05-29T1200,3430A,119.5826,31.7245,常州市,金坛城区,,46,20,59,15,27,146,,93,93,12,19,7,8,0.3,0.5
2025-05-29T1200,2220A,120.4318,41.5881,朝阳市,西梁,,50,40,39,19,19,160,,130,130,12,14,9,9,0.6,0.5
2025-05-29T1200,2221A,120.4521,41.5646,朝阳市,河畔小区,臭氧1小时,57,42,34,23,22,165,,141,141,11,12,9,9,0.5,0.5
2025-05-29T1200,2222A,120.4176,41.5648,朝阳市,八里堡,,,,48,,18,174,,138,138,16,16,8,8,0.5,0.4
2025-05-29T1200,2223A,120.3806,41.5969,朝阳市,农业园区,臭氧1小时,59,49,40,28,26,167,,114,114,15,19,10,8,0.6,0.6
2025-05-29T1200,1705A,116.6367,23.6719,潮州市,西园路,,20,,18,13,23,62,,42,42,10,13,5,6,0.3,0.5
2025-05-29T1200,3026A,116.6183,23.6608,潮州市,市政府,,21,,22,7,16,66,,49,49,10,14,6,6,0.8,0.8
2025-05-29T1200,4036A,116.6461,23.6761,潮州市,金山,,20,,21,6,19,61,,39,39,10,14,5,7,0.6,0.7
2025-05-29T1200,2472A,113.0073,25.9061,郴州市,马头岭,,18,15,13,3,5,57,,56,56,4,7,7,7,0.3,0.3
2025-05-29T1200,2473A,113.0116,25.8226,郴州市,市职中,,20,13,12,9,9,63,,57,57,8,10,1,1,0.9,0.7
2025-05-29T1200,2475A,113.0383,25.8071,郴州市,市审计局,,20,12,10,12,7,61,,54,54,7,8,3,4,0.8,0.9
2025-05-29T1200,2476A,113.0348,25.7759,郴州市,市环保局,,20,17,11,14,9,59,,55,55,10,11,2,2,0.2,0.2
2025-05-29T1200,4252A,113.0138,25.8011,郴州市,好美居路49号,,22,14,10,7,8,70,,63,63,10,10,9,8,0.4,0.5
2025-05-29T1200,1431A,103.9728,30.7236,成都市,金泉两河,颗粒物(PM10),55,59,38,34,22,79,,53,46,31,23,5,3,0.6,0.4
2025-05-29T1200,1432A,104.176,30.6872,成都市,十里店,细颗粒物(PM2.5),59,64,31,42,18,108,,78,78,22,18,6,4,0.7,0.5
2025-05-29T1200,1433A,104.079,30.5706,成都市,三瓦窑,细颗粒物(PM2.5),54,56,33,38,21,120,,73,73,21,21,6,5,0.9,0.8
2025-05-29T1200,1434A,104.1114,30.63,成都市,沙河铺,细颗粒物(PM2.5),52,49,33,36,21,95,,63,63,19,16,9,8,0.3,0.3
2025-05-29T1200,1437A,104.0786,30.6531,成都市,君平街,细颗粒物(PM2.5),59,65,41,42,23,111,,72,71,27,24,10,9,0.8,0.7
2025-05-29T1200,1438A,103.613,31.0283,成都市,灵岩寺,,,,,,,,,,,,,,,,
2025-05-29T1200,2880A,104.0239,30.65639,成都市,大石西路,,48,48,43,30,27,105,,69,69,22,21,8,5,0.8,0.7
2025-05-29T1200,3136A,104.2725,30.5589,成都市,龙泉驿区区政府,,36,27,17,14,11,113,,77,77,5,10,5,5,0.6,0.5
2025-05-29T1200,3357A,104.0106,30.6931,成都市,金博路,颗粒物(PM10),53,56,33,25,20,85,,61,55,29,23,10,9,0.7,0.6
2025-05-29T1200,3359A,104.0578,30.5225,成都市,华阳,,39,39,29,24,22,122,,81,81,10,14,7,7,0.7,0.7
2025-05-29T1200,3488A,104.3853,30.7453,成都市,青白江技师分院,,40,38,25,28,18,108,,80,80,16,18,5,5,0.5,0.5
2025-05-29T1200,3489A,104.0789,30.4072,成都市,科学城,,37,26,28,18,21,117,,90,90,7,10,4,4,0.6,0.6
2025-05-29T1200,4011A,103.8506,30.6947,成都市,光华大道三段,颗粒物(PM10),54,57,43,32,28,78,,58,48,25,20,6,7,0.8,0.7
2025-05-29T1200,4224A,104.2433,30.5353,成都市,鲸龙路1057号,,38,38,29,26,18,105,,69,69,10,14,8,7,0.6,0.6
2025-05-29T1200,1062A,117.9531,40.9081,承德市,铁路,臭氧1小时,101,56,69,37,39,201,,113,113,15,22,6,6,0.5,0.6
2025-05-29T1200,1063A,117.9392,40.9763,承德市,中国银行,臭氧1小时,102,43,58,21,34,204,,101,101,8,12,6,3,0.7,0.5
2025-05-29T1200,1064A,117.9503,40.928,承德市,开发区,臭氧1小时,101,61,65,39,40,202,,120,120,13,16,5,4,0.6,0.6
2025-05-29T1200,1065A,117.8051,40.9655,承德市,文化中心,臭氧1小时,105,63,70,32,37,210,,117,117,17,22,15,6,1.8,0.7
2025-05-29T1200,1066A,117.9268,41.0026,承德市,离宫,臭氧1小时,105,57,60,44,42,210,,111,111,9,10,8,3,0.9,0.5
2025-05-29T1200,2314A,117.47,30.6618,池州市,池州学院,,40,31,37,19,29,127,,73,73,5,15,6,6,0.5,0.8
2025-05-29T1200,3237A,117.4918,30.6617,池州市,展览馆,,40,21,37,20,26,127,,67,67,3,15,5,5,0.5,0.8
2025-05-29T1200,3333A,117.5627,30.695,池州市,第八中学,,41,23,38,16,29,130,,74,74,4,13,5,6,0.2,0.6
2025-05-29T1200,3334A,117.5038,30.6243,池州市,第十二中学,,41,30,38,17,26,130,,65,65,4,21,3,4,0.4,0.8
2025-05-29T1200,1744A,118.9233,42.2816,赤峰市,松山一中,臭氧1小时,69,60,55,21,27,175,,149,149,13,22,5,8,0.5,0.7
2025-05-29T1200,1745A,118.9576,42.2728,赤峰市,哈达街,,,,51,7,30,134,,125,125,,23,,11,0.5,0.7
2025-05-29T1200,1746A,118.8788,42.2554,赤峰市,天义路,,50,45,38,23,32,158,,156,156,12,15,7,11,0.5,0.6
2025-05-29T1200,3058A,119.2658,42.0353,赤峰市,银河街,颗粒物(PM10),64,78,81,43,41,164,,126,126,12,16,12,11,0.8,0.9
2025-05-29T1200,3286A,118.9359,42.3147,赤峰市,桥北物流园区,细颗粒物(PM2.5),79,,60,58,43,155,,126,126,10,18,10,19,0.5,0.8
2025-05-29T1200,2521A,107.3476,22.4136,崇左市,市环保局江州分局,,,13,25,3,14,40,,46,37,4,6,5,6,,0.5
2025-05-29T1200,4256A,107.3750,22.3736,崇左市,石景林东路7号,,16,,20,3,13,50,,42,40,4,7,3,3,0.7,0.7
2025-05-29T1200,2298A,118.3093,32.3153,滁州市,老年大学,臭氧1小时,87,52,62,42,44,189,,107,107,15,21,1,3,0.5,0.4
2025-05-29T1200,2299A,118.3244,32.2786,滁州市,人大宾馆,臭氧1小时,68,64,65,45,45,174,,97,97,15,21,7,6,0.6,0.4
2025-05-29T1200,3207A,118.3118,32.3038,滁州市,市政府原办公楼,臭氧1小时,90,49,60,42,45,192,,108,108,10,15,7,6,0.5,0.4
2025-05-29T1200,3331A,118.3267,32.2634,滁州市,图书馆,臭氧1小时,74,55,52,50,41,179,,101,101,12,15,11,9,0.7,0.5
2025-05-29T1200,2605A,101.5482,25.0441,楚雄彝族自治州,州环境监测站,,23,,6,16,7,54,,51,51,9,11,8,9,0.7,0.6
2025-05-29T1200,2606A,101.538,25.0492,楚雄彝族自治州,市经济开发区,,17,,9,11,7,53,,46,46,11,12,7,10,0.7,0.6
2025-05-29T1200,2548A,107.5277,31.2827,达州市,达州职业技术学院,,35,20,26,3,7,111,,43,43,5,22,6,5,0.2,0.2
2025-05-29T1200,2549A,107.5086,31.2186,达州市,市环境监测站,,,,24,,5,113,,37,37,15,26,5,5,0.5,0.4
2025-05-29T1200,2550A,107.4988,31.2132,达州市,凤凰小区,,38,24,20,12,9,121,,47,47,9,23,7,7,0.5,0.4
2025-05-29T1200,2551A,107.5082,31.1986,达州市,达县机关宾馆,,38,19,23,3,6,120,,45,45,11,30,6,5,0.5,0.5
2025-05-29T1200,2552A,107.4644,31.2124,达州市,市政中心,,33,33,31,7,7,105,,38,38,10,27,3,2,0.5,0.5
2025-05-29T1200,2614A,100.1542,25.7054,大理白族自治州,大理市环境监测站,,20,,7,14,12,62,,54,54,6,14,6,6,0.5,0.5
2025-05-29T1200,2615A,100.2171,25.5811,大理白族自治州,大理古城,,19,8,6,3,7,59,,54,54,3,6,8,8,0.5,0.4
2025-05-29T1200,1109A,121.612,38.9741,大连市,甘井子,,,32,41,17,26,101,,77,77,,33,7,6,0.3,0.3
2025-05-29T1200,1110A,121.565,38.9511,大连市,周水子,,35,35,46,15,26,94,,69,69,24,24,8,8,0.4,0.4
2025-05-29T1200,1111A,121.5637,38.8845,大连市,星海三站,,31,28,43,18,29,98,,60,60,15,16,5,4,0.4,0.4
2025-05-29T1200,1112A,121.6302,38.9117,大连市,青泥洼桥,,45,27,38,17,25,142,,84,84,11,17,8,7,0.3,0.4
2025-05-29T1200,1113A,121.6251,38.8638,大连市,傅家庄,,29,25,36,18,24,90,,79,79,24,22,9,7,0.2,0.2
2025-05-29T1200,1114A,121.5213,38.8661,大连市,七贤岭,,30,24,45,17,31,96,,65,65,18,17,8,8,0.2,0.2
2025-05-29T1200,1115A,121.2529,38.8061,大连市,旅顺,,,20,29,20,26,98,,70,70,,13,3,2,0.2,0.2
2025-05-29T1200,1116A,121.7485,39.1311,大连市,金州,臭氧1小时,55,22,41,19,28,164,,110,110,13,19,10,9,0.3,0.4
2025-05-29T1200,1117A,121.7811,39.0496,大连市,开发区,,40,40,48,17,30,101,,80,79,27,28,5,5,0.6,0.6
2025-05-29T1200,1118A,121.9762,39.0631,大连市,双D港,,,28,27,,23,101,,88,88,,9,7,6,0.3,0.3
2025-05-29T1200,1789A,124.81117,46.03138,大庆市,大同区,颗粒物(PM10),73,96,62,30,30,164,,144,144,11,13,5,5,0.6,0.5
2025-05-29T1200,1790A,125.129,46.533,大庆市,龙凤区,颗粒物(PM10),73,96,70,36,31,175,,154,154,10,15,6,6,0.5,0.5
2025-05-29T1200,1791A,124.902,46.408,大庆市,红岗区,臭氧1小时,80,93,63,28,30,184,,166,166,8,10,9,9,0.4,0.4
2025-05-29T1200,1792A,125.153,46.586,大庆市,萨尔图区,颗粒物(PM10),75,99,68,32,31,154,,143,143,12,16,8,8,0.6,0.6
2025-05-29T1200,1793A,124.9042,46.6215,大庆市,让胡路区,臭氧1小时,69,74,55,32,33,175,,161,161,8,9,8,8,0.3,0.3
2025-05-29T1200,3481A,125.141,46.634,大庆市,萨区政府监测点,颗粒物(PM10),74,98,68,31,30,174,,156,,8,11,7,7,0.5,0.5
2025-05-29T1200,1721A,113.3819,40.1097,大同市,果树场,,,,,,,,,,,,,,,,
2025-05-29T1200,1723A,113.2994,40.0758,大同市,云冈宾馆,臭氧1小时,104,73,51,26,24,207,,139,139,16,18,10,7,0.5,0.5
2025-05-29T1200,1724A,113.3444,40.0917,大同市,大同大学,臭氧1小时,106,51,43,28,25,212,,150,150,15,16,12,7,0.8,0.6
2025-05-29T1200,1725A,113.2661,40.1269,大同市,安家小村,臭氧1小时,101,82,55,41,26,202,,147,147,14,11,8,5,0.6,0.5
2025-05-29T1200,1726A,113.2711,40.0844,大同市,教育学院,臭氧1小时,103,72,55,30,28,205,,130,130,15,20,,8,0.5,0.4
2025-05-29T1200,3282A,113.3397,40.0597,大同市,大同市卫生学校,臭氧1小时,92,51,43,29,26,193,,133,133,12,14,12,10,0.7,0.6
2025-05-29T1200,3565A,113.1367,40.1122,大同市,云冈站,臭氧1小时,93,91,69,40,37,194,,105,105,15,17,10,8,0.6,0.6
2025-05-29T1200,3566A,113.1186,40.2556,大同市,图书馆,,,,56,,33,184,,119,119,13,15,,10,,0.8
2025-05-29T1200,3567A,113.5931,40.0461,大同市,区一中,臭氧1小时,85,57,41,29,26,188,,124,124,12,14,16,13,0.4,0.4
2025-05-29T1200,4199A,113.2798,40.0997,大同市,魏都大道141号,臭氧1小时,104,83,56,37,28,207,,136,136,12,15,10,8,0.7,0.6
2025-05-29T1200,2269A,124.1069,50.4097,大兴安岭地区,科技局,,,105,63,19,24,,,114,,4,5,,8,0.3,0.3
2025-05-29T1200,3663A,124.1164,50.4278,大兴安岭地区,红旗社区,,46,46,49,19,22,134,,104,100,5,9,6,6,0.4,0.4
2025-05-29T1200,1600A,124.3303,40.0625,丹东市,江湾东路,,49,49,55,20,32,153,,88,88,5,15,13,10,0.6,0.8
2025-05-29T1200,1601A,124.4256,40.1503,丹东市,临江后街,颗粒物(PM10),54,57,90,29,45,142,,75,75,12,21,12,10,0.7,0.8
2025-05-29T1200,1602A,124.3933,40.1461,丹东市,元宝山,,45,45,64,25,26,139,,75,75,11,18,11,9,0.5,0.6
2025-05-29T1200,1603A,124.3633,40.1092,丹东市,民主桥,,50,50,51,22,25,143,,82,82,6,19,11,10,0.7,0.7
2025-05-29T1200,3541A,109.5726,19.5167,儋州市,第一中学子站,,25,19,13,17,7,70,,34,34,4,4,6,5,0.5,0.7
2025-05-29T1200,3542A,109.5567,19.5187,儋州市,东坡学校子站,,24,12,14,10,6,74,,34,34,3,4,6,6,0.5,0.5
2025-05-29T1200,2616A,98.5842,24.428,德宏傣族景颇族自治州,德宏州监测站,,,25,16,13,10,29,,18,18,10,10,,7,0.6,0.8
2025-05-29T1200,3677A,98.5881,24.4368,德宏傣族景颇族自治州,芒市人民政府综合楼,,20,20,20,13,7,36,,18,18,7,8,6,6,0.6,0.6
2025-05-29T1200,1901A,104.4239,31.1208,德阳市,东山公园,,50,50,22,26,20,50,,66,58,27,13,5,4,0.9,0.7
2025-05-29T1200,1902A,104.3826,31.1317,德阳市,西小区,颗粒物(PM10),52,53,33,33,21,40,,72,52,31,22,5,4,0.8,0.7
2025-05-29T1200,1904A,104.3553,31.1091,德阳市,耐火材料厂,颗粒物(PM10),56,61,43,30,21,46,,59,49,29,25,7,6,0.7,0.6
2025-05-29T1200,3639A,104.4019,31.1244,德阳市,市教育局,颗粒物(PM10),52,54,30,27,19,54,,67,57,26,19,7,6,0.9,0.8
2025-05-29T1200,1622A,116.3032,37.4674,德州市,儿童乐园,臭氧1小时,106,66,74,34,41,212,,150,150,8,21,8,10,0.5,0.7
2025-05-29T1200,1624A,116.2991,37.4451,德州市,监理站,臭氧1小时,102,56,75,29,40,204,,142,142,6,23,7,8,0.5,0.6
2025-05-29T1200,3066A,116.2721,37.4379,德州市,九衢泉纯净水厂,臭氧1小时,94,61,79,29,41,195,,124,124,6,40,6,8,0.5,0.7
2025-05-29T1200,3371A,116.3728,37.4403,德州市,开发区人民医院,臭氧1小时,103,66,74,27,37,205,,142,142,12,27,9,10,0.6,0.7
2025-05-29T1200,3372A,116.3572,37.4094,德州市,太阳城中学,臭氧1小时,102,68,78,24,41,204,,132,132,,32,5,7,0.5,0.6
2025-05-29T1200,3511A,116.5652,37.3319,德州市,陵城艺术中心,臭氧1小时,101,66,76,24,35,202,,149,149,8,18,9,10,0.5,0.5
2025-05-29T1200,2621A,99.7056,27.8317,迪庆藏族自治州,迪庆州站,,29,,15,20,11,47,,37,37,7,7,6,6,0.4,0.4
2025-05-29T1200,3180A,99.7136,27.8094,迪庆藏族自治州,质量技术监督局,,30,30,18,10,8,45,,37,36,10,8,4,5,0.5,0.4
2025-05-29T1200,4257A,104.6092,35.5962,定西市,将台街,,36,36,40,18,21,108,,85,85,3,5,4,4,0.4,0.4
2025-05-29T1200,4309A,104.6159,35.5701,定西市,正龙路62号,,33,30,31,7,16,105,,82,82,6,6,7,7,0.2,0.2
2025-05-29T1200,1389A,113.7547,23.0494,东莞市,莞城梨川,细颗粒物(PM2.5),72,57,56,52,41,57,,38,38,37,25,9,8,0.6,0.5
2025-05-29T1200,1390A,113.7944,23.0128,东莞市,东城石井,,50,49,54,35,31,69,,24,24,35,27,3,3,1.1,1
2025-05-29T1200,1391A,113.7383,22.9658,东莞市,南城西平,细颗粒物(PM2.5),53,42,46,37,30,50,,24,24,47,36,6,4,0.7,0.6
2025-05-29T1200,3319A,113.7338,23.0381,东莞市,万江金泰,细颗粒物(PM2.5),60,53,49,43,38,43,,26,26,32,24,4,3,0.7,0.6
2025-05-29T1200,3626A,113.7533,23.0202,东莞市,南城元岭,细颗粒物(PM2.5),52,44,45,36,38,59,,31,31,33,26,5,5,0.9,0.8
2025-05-29T1200,3627A,113.7875,23.0457,东莞市,东城主山,细颗粒物(PM2.5),58,57,49,41,36,61,,36,36,37,25,5,5,0.9,0.8
2025-05-29T1200,1666A,118.6614,37.4309,东营市,市环保局,臭氧1小时,89,66,54,24,23,191,,106,106,21,22,11,11,0.6,0.6
2025-05-29T1200,3036A,118.6904,37.4338,东营市,开发区管委会,臭氧1小时,103,66,59,36,26,205,,121,121,22,21,11,11,0.7,0.6
2025-05-29T1200,3365A,118.5719,37.565,东营市,垦利区民丰路,臭氧1小时,119,73,55,36,24,237,,131,131,24,22,13,10,1.0,0.8
2025-05-29T1200,3498A,118.5055,37.8612,东营市,河口城区,臭氧1小时,107,61,58,29,24,214,,129,129,17,20,12,11,1.0,1
2025-05-29T1200,3646A,118.4978,37.4623,东营市,胜利站,臭氧1小时,112,70,55,39,26,223,,117,117,20,24,15,11,0.8,0.7
2025-05-29T1200,3734A,118.35,37.26,东营市,理想之城,臭氧1小时,104,66,52,36,29,208,,99,99,28,31,12,6,0.7,0.5
2025-05-29T1200,1591A,110.0023,39.8129,鄂尔多斯市,综合楼,臭氧1小时,57,56,78,27,31,165,,149,149,13,17,8,9,0.4,0.6
2025-05-29T1200,1592A,109.9486,39.8261,鄂尔多斯市,巴音孟克林场办事处,臭氧1小时,74,85,81,31,30,179,,161,161,14,17,8,8,0.4,0.5
2025-05-29T1200,1593A,109.7736,39.5986,鄂尔多斯市,康泽苑,臭氧1小时,59,66,55,19,22,167,,163,163,8,12,6,7,0.6,0.6
2025-05-29T1200,1594A,109.8119,39.5989,鄂尔多斯市,华泰汽车城,颗粒物(PM10),57,63,63,24,26,153,,146,146,10,13,7,7,0.4,0.5
2025-05-29T1200,1595A,109.9734,39.7884,鄂尔多斯市,奥林花园,臭氧1小时,65,66,72,27,29,172,,150,150,11,17,6,8,0.6,0.6
2025-05-29T1200,2436A,114.8938,30.3994,鄂州市,市政府,,38,38,38,26,23,116,,68,68,11,17,10,9,0.4,0.3
2025-05-29T1200,2437A,114.8989,30.3714,鄂州市,赵家坝,,44,38,30,18,17,139,,76,76,7,17,6,8,0.5,0.6
2025-05-29T1200,3654A,114.8094,30.4089,鄂州市,精准医疗中心,,42,30,32,20,18,132,,73,73,2,13,4,4,0.8,0.9
2025-05-29T1200,2454A,109.4978,30.2981,恩施土家族苗族自治州,湖北民院,,39,,33,27,18,83,,33,33,8,11,5,5,0.3,0.2
2025-05-29T1200,2455A,109.4707,30.2798,恩施土家族苗族自治州,州电力总公司,,,33,26,18,17,80,,25,25,,13,,6,0.2,0.4
2025-05-29T1200,3549A,109.5061,30.3772,恩施土家族苗族自治州,龙凤新区,,27,24,25,16,15,85,,31,31,7,8,7,6,0.3,0.3
2025-05-29T1200,2499A,108.3411,21.6158,防城港市,沙万,,29,29,36,15,16,45,,32,32,9,21,2,5,0.6,0.5
2025-05-29T1200,2500A,108.3514,21.7731,防城港市,防城档案局,,23,23,37,11,16,46,,16,16,8,13,3,2,0.6,0.6
2025-05-29T1200,2501A,108.3506,21.6414,防城港市,大海花园,,29,29,43,9,3,48,,42,37,10,16,2,10,0.7,0.8
2025-05-29T1200,1371A,113.1294,23.0067,佛山市,湾梁,,15,9,33,3,21,33,,15,15,30,36,7,7,0.9,0.8
2025-05-29T1200,1372A,113.1083,23.0478,佛山市,华材职中,,17,14,28,6,23,33,,20,15,34,30,5,5,0.7,0.6
2025-05-29T1200,1373A,113.144,23.0453,佛山市,南海气象局,,20,,33,14,22,30,,13,13,28,30,2,2,0.9,0.8
2025-05-29T1200,1374A,113.2881,22.8094,佛山市,顺德苏岗,,22,22,37,14,26,19,,11,11,36,34,6,6,0.7,0.7
2025-05-29T1200,1376A,112.8383,22.8678,佛山市,高明孔堂,,,,47,10,26,38,,30,21,26,27,6,6,0.8,0.8
2025-05-29T1200,1377A,112.8836,23.1588,佛山市,三水监测站,,15,,48,10,33,31,,26,23,26,43,3,4,0.8,0.7
2025-05-29T1200,1378A,112.867,23.185,佛山市,三水云东海,,20,20,67,3,52,33,,28,28,24,38,3,3,1.0,1
2025-05-29T1200,3625A,113.2544,22.7642,佛山市,容桂街道办,,,24,26,,25,19,,22,20,40,32,5,5,0.9,0.8
2025-05-29T1200,1280A,119.3903,26.0543,福州市,鼓山,,,,6,,4,,,80,,,7,,2,,0.3
2025-05-29T1200,1282A,119.2681,26.0504,福州市,师大,,25,11,8,3,3,80,,75,75,13,13,4,4,0.3,0.4
2025-05-29T1200,1283A,119.2984,26.1028,福州市,五四北路,,23,12,8,3,3,73,,69,69,16,15,3,3,0.4,0.5
2025-05-29T1200,1284A,119.2648,26.0768,福州市,杨桥西路,,26,8,8,3,2,82,,75,75,11,12,3,3,0.3,0.4
2025-05-29T1200,1285A,119.317,26.0746,福州市,紫阳,,22,19,13,3,6,69,,70,70,24,19,5,5,0.4,0.5
2025-05-29T1200,3048A,119.5799,26.0936,福州市,九龙,,22,6,8,3,1,68,,67,67,7,10,4,4,0.3,0.4
2025-05-29T1200,3526A,119.5189,25.9664,福州市,吴航,,29,9,8,7,5,90,,88,88,9,12,4,4,0.4,0.2
2025-05-29T1200,1755A,123.7977,41.8491,抚顺市,望花区,臭氧1小时,87,56,64,21,35,189,,110,110,13,31,6,9,0.6,0.8
2025-05-29T1200,1756A,123.9161,41.8822,抚顺市,顺城区,臭氧1小时,65,42,53,22,30,172,,87,87,14,34,10,11,0.7,0.8
2025-05-29T1200,1757A,124.0436,41.8611,抚顺市,东洲区,臭氧1小时,65,33,35,21,24,172,,115,115,12,18,7,8,0.5,0.5
2025-05-29T1200,1758A,123.9247,41.8642,抚顺市,新抚区,臭氧1小时,73,45,55,26,28,178,,91,91,12,28,16,20,0.8,0.7
2025-05-29T1200,1759A,124.0972,41.8961,抚顺市,大伙房水库,臭氧1小时,58,33,29,16,24,166,,104,104,9,18,9,8,0.5,0.5
2025-05-29T1200,1760A,123.7086,41.8391,抚顺市,沈抚新城,臭氧1小时,78,38,58,19,32,182,,117,117,14,32,7,11,0.7,0.9
2025-05-29T1200,2376A,116.2127,28.0814,抚州市,桐源党溪,,28,23,36,13,17,89,,72,72,3,3,3,5,0.8,0.8
2025-05-29T1200,2377A,116.3544,27.9831,抚州市,市站,,34,20,19,11,12,108,,80,80,4,6,1,2,0.7,0.5
2025-05-29T1200,2378A,116.3565,27.963,抚州市,血防站,,36,18,24,3,13,113,,85,85,4,6,4,4,0.2,0.2
2025-05-29T1200,2379A,116.3564,28.0007,抚州市,采茶剧团,,35,18,23,8,12,110,,80,80,2,3,6,5,0.2,0.2
2025-05-29T1200,2380A,116.385,27.9647,抚州市,医学分院,,35,14,24,3,9,110,,82,82,2,2,5,4,0.7,0.9
2025-05-29T1200,2207A,121.6094,41.998,阜新市,工业园区,臭氧1小时,64,58,49,27,22,171,,140,140,13,15,11,14,0.4,0.5
2025-05-29T1200,2208A,121.6697,42.0279,阜新市,长青街,,,73,46,20,21,156,,134,131,,15,10,13,0.4,0.4
2025-05-29T1200,2209A,121.6673,42.0705,阜新市,农业园区,臭氧1小时,63,51,39,27,27,170,,143,141,13,14,10,11,0.5,0.5
2025-05-29T1200,2210A,121.6717,42.0224,阜新市,东苑,臭氧1小时,69,67,46,23,22,175,,140,140,12,16,10,13,0.5,0.5
2025-05-29T1200,2211A,121.6506,42.0498,阜新市,玉龙新城,,50,50,47,19,20,159,,129,128,10,12,10,11,0.5,0.6
2025-05-29T1200,2301A,115.8277,32.8929,阜阳市,市监测站,颗粒物(PM10),61,71,95,39,52,166,,112,112,8,18,8,8,0.2,0.3
2025-05-29T1200,2303A,115.8554,32.8605,阜阳市,开发区,臭氧1小时,68,57,107,31,55,174,,114,114,14,25,6,6,0.2,0.4
2025-05-29T1200,2875A,115.784,32.8892,阜阳市,阜阳职业技术学院,臭氧1小时,70,37,76,30,48,176,,129,129,8,15,5,5,0.4,0.5
2025-05-29T1200,3468A,115.7901,32.8613,阜阳市,市规划展馆,,,55,93,21,60,172,,115,115,7,19,,7,,0.7
2025-05-29T1200,3469A,115.836,32.9183,阜阳市,枣园社区,臭氧1小时,60,58,98,27,60,168,,104,104,7,16,5,6,0.4,0.5
2025-05-29T1200,2669A,102.9099,34.9841,甘南藏族自治州,州政府,,32,23,41,9,22,100,,47,47,2,19,4,4,0.3,0.3
2025-05-29T1200,3380A,102.8914,34.9617,甘南藏族自治州,甘肃民族师范学院,,35,21,56,3,16,111,,49,49,2,25,8,8,0.3,0.4
2025-05-29T1200,2570A,101.9603,30.0475,甘孜藏族自治州,水桥子,,23,11,12,3,6,71,,40,40,8,17,5,4,0.6,0.6
2025-05-29T1200,3065A,101.9533,29.9972,甘孜藏族自治州,州环保局,,24,10,13,3,5,74,,44,44,8,13,2,1,0.5,0.4
2025-05-29T1200,3414A,115.8347,28.932,赣江新区,桑海产业园,,39,17,20,9,12,122,,82,82,7,12,4,4,0.5,0.5
2025-05-29T1200,2362A,114.9017,25.9149,赣州市,通天岩,,25,25,16,10,5,72,,72,70,5,5,1,2,0.9,0.9
2025-05-29T1200,2363A,114.9367,25.8664,赣州市,地委,,24,22,23,12,13,76,,71,71,5,10,2,1,0.6,0.7
2025-05-29T1200,2364A,114.9461,25.8481,赣州市,气象台,,23,23,26,12,10,68,,63,63,10,14,7,6,0.6,0.7
2025-05-29T1200,2365A,114.9322,25.8333,赣州市,市图书馆,,24,21,15,10,11,75,,69,69,5,9,4,4,0.5,0.5
2025-05-29T1200,2366A,114.8905,25.8471,赣州市,华坚鞋城,,25,20,19,9,12,78,,72,72,7,10,4,4,0.3,0.4
2025-05-29T1200,3109A,115.0093,25.8613,赣州市,赣县区卫计委,,22,18,12,13,10,70,,64,64,5,11,4,3,0.5,0.5
2025-05-29T1200,2683A,106.2319,36.1417,固原市,马园,,38,33,38,13,14,121,,71,71,11,22,6,5,0.4,0.4
2025-05-29T1200,2684A,106.2792,36.0022,固原市,监测站,,37,30,31,11,14,118,,74,74,7,15,5,4,0.2,0.3
2025-05-29T1200,2685A,106.2375,36.0211,固原市,新区,,36,28,29,9,13,113,,80,80,7,12,5,5,0.5,0.4
2025-05-29T1200,3522A,106.2177,35.9959,固原市,原州区十五小,,37,26,26,15,15,118,,88,88,7,10,12,11,0.1,0.1
2025-05-29T1200,2543A,106.6308,30.5278,广安市,小平旧居,,,,,,,,,,,,,,,,
2025-05-29T1200,2544A,106.6303,30.4576,广安市,市委,,38,22,26,8,20,119,,69,69,10,14,5,6,0.4,0.5
2025-05-29T1200,2545A,106.6271,30.4663,广安市,友谊中学,,40,13,24,12,14,127,,68,68,10,15,5,5,0.8,0.9
2025-05-29T1200,2547A,106.6388,30.4551,广安市,广电花园,,39,19,25,9,15,123,,63,63,10,15,6,6,0.5,0.5
2025-05-29T1200,2902A,106.6351,30.4865,广安市,北辰小学,,,19,24,7,15,126,,61,61,8,14,,11,0.6,0.6
2025-05-29T1200,2523A,105.8945,32.4535,广元市,黑石坡,,37,37,43,8,17,72,,55,55,13,6,4,4,0.5,0.4
2025-05-29T1200,2524A,105.821,32.4444,广元市,老城,,29,21,35,17,18,90,,62,62,16,11,1,3,0.9,0.8
2025-05-29T1200,2526A,105.8628,32.4287,广元市,监测站,,29,29,30,17,21,82,,57,57,17,11,8,6,0.6,0.5
2025-05-29T1200,3617A,105.8047,32.4166,广元市,经开区,,,38,37,,24,84,,57,57,21,15,21,6,,0.4
2025-05-29T1200,1345A,113.2347,23.1423,广州市,广雅中学,,21,8,33,3,20,15,,18,12,41,37,2,3,0.8,0.7
2025-05-29T1200,1346A,113.2612,23.105,广州市,市五中,,18,8,33,3,22,19,,18,15,36,33,3,3,0.9,0.8
2025-05-29T1200,1348A,113.3478,23.0916,广州市,广东商学院,,14,6,38,3,29,29,,12,12,27,40,4,4,1.0,0.9
2025-05-29T1200,1349A,113.4332,23.1047,广州市,市八十六中,,16,12,42,7,27,17,,8,6,32,47,2,4,0.4,0.3
2025-05-29T1200,1350A,113.3505,22.9483,广州市,番禺中学,,,32,39,20,28,17,,14,9,,40,,6,1.4,1.1
2025-05-29T1200,1351A,113.2146,23.3916,广州市,花都师范,,14,6,43,3,28,43,,34,34,20,32,3,4,0.8,0.8
2025-05-29T1200,1352A,113.2597,23.1331,广州市,市监测站,,23,8,36,3,22,18,,19,14,45,37,5,5,0.8,0.7
2025-05-29T1200,1353A,113.5618,23.312,广州市,九龙镇镇龙,,12,6,30,3,22,38,,38,32,16,19,5,6,0.7,0.6
2025-05-29T1200,1354A,113.2765,23.1544,广州市,麓湖,,17,9,33,3,20,21,,10,10,33,37,3,4,0.7,0.6
2025-05-29T1200,1355A,113.443,23.3035,广州市,帽峰山森林公园,,15,6,26,3,24,47,,42,35,15,19,5,6,0.7,0.6
2025-05-29T1200,2846A,113.3221,23.1322,广州市,体育西,,14,7,42,3,24,36,,12,11,27,43,5,5,0.8,0.6
2025-05-29T1200,3298A,113.5717,23.5491,广州市,从化街口,,,6,31,3,22,30,,42,33,23,17,,7,,0.7
2025-05-29T1200,3299A,113.3472,23.3692,广州市,白云竹料,,17,6,43,3,29,54,,51,49,17,22,2,3,0.8,0.7
2025-05-29T1200,3300A,113.2981,23.237,广州市,白云嘉禾,,,,61,4,32,22,,14,14,36,42,6,6,1.1,0.9
2025-05-29T1200,3301A,113.4256,23.1716,广州市,黄埔科学城,,,,46,,32,21,,24,11,,26,4,4,,0.6
2025-05-29T1200,3302A,113.3942,23.0483,广州市,番禺大学城,,,39,53,9,25,17,,,,39,47,,7,0.8,0.8
2025-05-29T1200,3303A,113.4922,22.8168,广州市,南沙黄阁,,33,29,42,23,32,39,,19,19,43,38,6,5,0.7,0.7
2025-05-29T1200,3304A,113.5342,22.7896,广州市,南沙街,,33,33,32,21,26,62,,27,27,31,37,2,3,0.8,0.7
2025-05-29T1200,3443A,113.2902,23.5544,广州市,花都梯面,,13,6,48,3,30,41,,38,35,14,20,4,5,0.7,0.6
2025-05-29T1200,3445A,113.7858,23.7478,广州市,从化良口,,16,7,22,3,18,50,,42,42,7,10,6,6,0.6,0.5
2025-05-29T1200,3446A,113.8051,23.2614,广州市,增城荔城,,13,12,34,9,24,33,,34,29,12,13,8,8,0.4,0.4
2025-05-29T1200,2505A,109.568,23.1478,贵港市,德智高中,,,,,,,,,,,,,,,,
2025-05-29T1200,2506A,109.6047,23.0666,贵港市,江南子站,,,,,,,,,,,,,,,,
2025-05-29T1200,2508A,109.5669,23.1065,贵港市,荷城子站,,,6,37,3,20,52,,49,44,8,14,4,6,,0.6
2025-05-29T1200,3405A,109.5886,23.1172,贵港市,新世纪学校,,17,6,34,3,24,52,,48,44,10,16,1,3,0.6,0.7
2025-05-29T1200,4260A,109.5933,23.0951,贵港市,中山路155-3号,,20,7,48,3,25,63,,60,53,8,13,3,4,0.5,0.6
2025-05-29T1200,1439A,106.6899,26.5998,贵阳市,马鞍山,,17,9,9,3,2,52,,40,40,6,7,3,3,0.4,0.3
2025-05-29T1200,1441A,106.6243,26.6266,贵阳市,鉴湖路,,,29,18,27,6,50,,48,48,,14,,7,0.5,0.4
2025-05-29T1200,1442A,106.7487,26.6343,贵阳市,燕子冲,,,17,14,17,14,70,,60,60,,9,3,3,0.4,0.4
2025-05-29T1200,1443A,106.6555,26.4365,贵阳市,碧云窝,,29,27,16,12,5,91,,66,66,8,10,5,4,0.4,0.4
2025-05-29T1200,1445A,106.7109,26.6027,贵阳市,红边门,,23,19,11,14,10,72,,63,63,5,6,4,4,0.2,0.3
2025-05-29T1200,1446A,106.7164,26.5699,贵阳市,新华路,,,17,8,9,4,80,,70,70,5,7,,6,,0.5
2025-05-29T1200,1447A,106.674,26.5424,贵阳市,太慈桥,,25,7,9,7,4,78,,62,62,11,13,5,4,0.3,0.3
2025-05-29T1200,1552A,106.805,26.3003,贵阳市,桐木岭,,,24,23,14,12,85,,69,69,,4,,1,0.9,0.3
2025-05-29T1200,4230A,106.6882,26.5695,贵阳市,花果园大街66号,,24,17,9,10,10,74,,66,66,6,10,4,3,0.3,0.4
2025-05-29T1200,4231A,106.6873,26.5169,贵阳市,漓江路57号,,25,14,12,9,6,79,,64,64,6,8,2,2,0.4,0.4
2025-05-29T1200,1862A,110.4144,25.3167,桂林市,电子科大尧山校区,,,,,,,,,,,,,,,,
2025-05-29T1200,1864A,110.3089,25.2708,桂林市,龙隐路小学,,24,19,9,10,7,75,,71,70,8,9,8,8,0.7,0.7
2025-05-29T1200,1865A,110.2869,25.2178,桂林市,八中,,25,25,11,11,2,69,,67,62,13,14,6,5,0.6,0.7
2025-05-29T1200,3531A,110.296,25.1253,桂林市,旅游学院,,20,7,2,7,3,64,,56,55,12,12,2,1,0.5,0.4
2025-05-29T1200,4222A,110.1835,25.2444,桂林市,环湖路276号,,25,17,12,17,12,65,,39,39,8,14,13,16,0.6,0.6
2025-05-29T1200,4301A,110.2803,25.2773,桂林市,信义路13号,,35,,9,24,8,68,,67,59,16,13,2,2,0.6,0.6
2025-05-29T1200,2674A,100.2561,34.4714,果洛藏族自治州,玛沁县大武镇,,40,17,59,3,14,127,,81,81,1,6,21,21,0.3,0.4
2025-05-29T1200,1129A,126.5422,45.755,哈尔滨市,岭北,细颗粒物(PM2.5),113,,43,85,32,165,,153,153,62,20,,13,2.1,0.7
2025-05-29T1200,1130A,126.561,45.8167,哈尔滨市,松北商大,,49,36,47,16,25,154,,110,110,7,24,5,8,0.6,0.6
2025-05-29T1200,1131A,126.979,45.5419,哈尔滨市,阿城会宁,臭氧1小时,89,38,51,14,24,191,,128,128,12,22,8,9,0.5,0.5
2025-05-29T1200,1132A,126.599,45.7222,哈尔滨市,南岗学府路,臭氧1小时,63,58,58,25,29,170,,141,141,8,20,7,9,0.5,0.6
2025-05-29T1200,1133A,126.689,45.7733,哈尔滨市,太平宏伟公园,颗粒物(PM10),77,103,58,20,30,158,,134,134,10,22,5,6,0.5,0.5
2025-05-29T1200,1134A,126.635,45.7667,哈尔滨市,道外承德广场,臭氧1小时,55,42,62,18,29,164,,136,136,14,30,6,7,0.5,0.6
2025-05-29T1200,1135A,126.685,45.7319,哈尔滨市,香坊红旗大街,颗粒物(PM10),60,70,66,17,32,166,,127,127,16,35,8,8,0.6,0.6
2025-05-29T1200,1136A,126.6411,45.7258,哈尔滨市,动力和平路,颗粒物(PM10),60,69,61,22,33,154,,128,128,15,25,8,10,0.6,0.5
2025-05-29T1200,1137A,126.593,45.7478,哈尔滨市,道里建国路,颗粒物(PM10),62,73,50,25,30,166,,141,141,10,23,4,7,0.8,0.9
2025-05-29T1200,1138A,126.615,45.61,哈尔滨市,平房东轻厂,颗粒物(PM10),64,78,52,28,23,168,,117,117,8,19,8,10,0.5,0.5
2025-05-29T1200,1139A,126.595,45.9855,哈尔滨市,呼兰师专,颗粒物(PM10),53,56,60,21,31,157,,135,135,12,25,9,9,0.6,0.6
2025-05-29T1200,1140A,126.6206,45.6842,哈尔滨市,省农科院,颗粒物(PM10),111,171,78,30,31,158,,117,117,13,32,4,6,0.6,0.7
2025-05-29T1200,2688A,93.5128,42.8172,哈密市,地区监测站,,40,40,72,15,22,95,,76,76,7,12,9,3,0.0,0
2025-05-29T1200,2689A,93.4961,42.8328,哈密市,哈密师范学校,,37,37,61,14,21,96,,71,70,9,16,4,5,0.2,0.3
2025-05-29T1200,2671A,100.9048,36.9639,海北藏族自治州,海晏县西海镇,,44,38,63,19,22,138,,107,103,3,5,12,12,0.5,0.4
2025-05-29T1200,3867A,102.0738,36.5056,海东市,平安区公安北苑,,42,42,108,28,46,114,,92,86,4,7,10,13,0.7,0.7
2025-05-29T1200,1409A,110.576,19.9507,海口市,东寨港,,35,35,13,6,10,46,,24,24,3,3,5,8,0.4,0.4
2025-05-29T1200,1410A,110.3232,20.0574,海口市,海南大学,,19,19,15,12,7,55,,40,40,4,5,3,3,0.4,0.4
2025-05-29T1200,1411A,110.283,20.0053,海口市,秀英海南医院,,22,18,18,11,7,68,,38,38,7,11,5,5,0.3,0.3
2025-05-29T1200,1412A,110.338,19.9969,海口市,海南师范大学,,20,16,16,10,8,64,,42,42,5,5,4,4,0.3,0.4
2025-05-29T1200,1413A,110.33,20.0356,海口市,龙华路环保局宿舍,,18,15,16,11,9,57,,40,40,7,6,4,4,0.3,0.3
2025-05-29T1200,3539A,110.5111,19.9736,海口市,桂林洋子站,,13,9,19,3,9,41,,24,24,6,8,4,4,0.2,0.2
2025-05-29T1200,2673A,100.6188,36.2866,海南藏族自治州,共和县恰卜恰镇,,41,27,32,16,14,131,,99,99,4,12,10,12,0.3,0.4
2025-05-29T1200,2676A,97.3731,37.3753,海西蒙古族藏族自治州,德令哈市,颗粒物(PM10),162,274,86,91,30,109,,122,110,3,4,11,12,0.8,0.7
2025-05-29T1200,1048A,114.5302,36.6116,邯郸市,东污水处理厂,,,,36,,13,,,155,,,8,,7,,0.4
2025-05-29T1200,1049A,114.4918,36.5713,邯郸市,矿院,臭氧1小时,69,29,59,22,35,175,,109,109,6,21,5,6,0.5,0.5
2025-05-29T1200,1050A,114.484,36.6133,邯郸市,丛台公园,臭氧1小时,78,34,60,24,36,182,,119,119,9,19,6,7,0.4,0.5
2025-05-29T1200,3458A,114.7895,36.5593,邯郸市,香泉濮院小区,臭氧1小时,89,80,84,21,31,191,,126,126,14,19,3,6,0.4,0.4
2025-05-29T1200,3579A,114.50634,36.77178,邯郸市,永年区实验高中,臭氧1小时,103,62,78,30,50,206,,131,131,10,22,5,7,0.2,0.5
2025-05-29T1200,3580A,114.20016,36.44293,邯郸市,峰峰矿区临水派出所,臭氧1小时,82,40,47,16,21,185,,161,161,4,10,6,8,0.3,0.5
2025-05-29T1200,2634A,106.9893,33.1842,汉中市,汉川机床厂子校,,40,19,29,12,19,125,,80,80,4,10,3,3,0.4,0.4
2025-05-29T1200,2635A,107.0154,33.0706,汉中市,市监测站,,,,38,,23,119,,67,67,,10,5,5,0.5,0.6
2025-05-29T1200,2636A,107.0089,33.1138,汉中市,鑫源开发区,,36,18,41,17,24,114,,60,60,5,17,5,6,0.5,0.6
2025-05-29T1200,2637A,107.007,33.0323,汉中市,南郑大河坎水厂,,38,33,33,16,21,119,,69,69,6,11,7,6,0.5,0.5
2025-05-29T1200,1223A,120.2072,30.2111,杭州市,滨江,,46,32,28,15,15,145,,105,105,17,20,7,7,0.2,0.2
2025-05-29T1200,1224A,120.0633,30.2747,杭州市,西溪,,44,25,22,15,16,140,,69,69,9,15,5,4,0.3,0.3
2025-05-29T1200,1226A,120.3417,30.3150,杭州市,下沙,,48,23,24,14,13,152,,96,96,13,27,8,7,0.3,0.3
2025-05-29T1200,1227A,120.1269,30.2456,杭州市,卧龙桥,,47,31,27,17,16,148,,84,84,11,13,8,7,0.3,0.3
2025-05-29T1200,1228A,120.1903,30.2692,杭州市,浙江农大,,38,34,25,17,17,120,,77,77,15,18,10,9,0.4,0.4
2025-05-29T1200,1230A,120.1197,30.3119,杭州市,和睦小学,,45,21,25,13,18,144,,96,96,8,15,8,7,0.3,0.3
2025-05-29T1200,1231A,120.3019,30.4183,杭州市,临平镇,,45,21,31,13,20,142,,94,94,7,24,6,6,0.3,0.4
2025-05-29T1200,1232A,120.2753,30.1839,杭州市,城厢镇,,45,24,24,17,18,143,,100,100,17,22,8,7,0.3,0.4
2025-05-29T1200,1233A,120.0883,30.1808,杭州市,云栖,,46,24,28,15,16,146,,80,80,12,23,6,6,0.4,0.4
2025-05-29T1200,3557A,119.9464,30.0494,杭州市,镇二中,,43,23,21,20,18,135,,63,63,12,20,4,3,0.3,0.5
2025-05-29T1200,3558A,119.7183,30.2367,杭州市,市府大楼,,42,25,27,10,14,134,,70,70,21,21,8,8,0.4,0.5
2025-05-29T1200,3656A,120.1556,30.2864,杭州市,消防大队,,44,25,30,14,17,138,,94,94,15,19,6,5,0.5,0.5
2025-05-29T1200,1270A,117.1959,31.7848,合肥市,明珠广场,臭氧1小时,60,39,59,19,39,168,,108,108,14,23,5,6,0.3,0.5
2025-05-29T1200,1271A,117.3072,31.8764,合肥市,三里街,,45,31,65,17,41,142,,92,92,13,25,6,6,0.4,0.6
2025-05-29T1200,1272A,117.2588,31.8707,合肥市,琥珀山庄,,50,44,58,22,45,159,,107,107,14,21,7,6,0.4,0.6
2025-05-29T1200,1273A,117.1604,31.9052,合肥市,董铺水库,颗粒物(PM10),52,53,64,27,37,158,,94,94,15,21,4,3,0.3,0.4
2025-05-29T1200,1274A,117.25,31.8571,合肥市,长江中路,臭氧1小时,53,51,69,31,43,162,,108,108,14,21,6,6,0.5,0.6
2025-05-29T1200,1275A,117.266,31.9436,合肥市,庐阳区,,50,31,64,17,42,157,,93,93,9,22,6,7,0.5,0.7
2025-05-29T1200,1276A,117.3453,31.8616,合肥市,瑶海区,,46,31,67,17,42,147,,94,94,11,29,6,7,0.4,0.6
2025-05-29T1200,1277A,117.3027,31.7964,合肥市,包河区,,49,41,62,27,44,156,,84,84,13,30,5,5,0.4,0.6
2025-05-29T1200,1278A,117.2776,31.7385,合肥市,滨湖新区,,47,34,59,27,45,148,,103,103,7,15,7,6,0.5,0.6
2025-05-29T1200,1279A,117.1318,31.8403,合肥市,高新区,臭氧1小时,57,41,58,18,41,165,,107,107,14,21,6,6,0.4,0.5
2025-05-29T1200,3464A,117.3803,31.9147,合肥市,高教基地,,49,31,62,14,42,156,,88,88,4,18,6,6,0.6,0.6
2025-05-29T1200,3614A,79.924,37.0877,和田地区,地区环保局,颗粒物(PM10),500,605,1747,173,404,59,,56,56,10,13,1,2,0.6,0.6
2025-05-29T1200,3615A,79.9131,37.113,和田地区,市环保局,颗粒物(PM10),500,794,1595,340,410,65,,65,65,4,5,3,3,0.4,0.4
2025-05-29T1200,2516A,108.2011,24.715,河池市,东仁乐园,,,,,,,,,,,,,,,,
2025-05-29T1200,2517A,108.0497,24.6947,河池市,市环保站,,15,8,12,3,5,46,,44,44,7,8,6,6,0.5,0.6
2025-05-29T1200,2518A,108.0983,24.6989,河池市,市疾控中心,,14,8,12,3,5,44,,41,41,13,17,6,6,0.6,0.7
2025-05-29T1200,1696A,114.6778,23.7569,河源市,源西,,19,,18,13,18,41,,38,36,10,18,3,3,0.6,0.6
2025-05-29T1200,1697A,114.6944,23.7586,河源市,东埔,,18,,18,12,19,38,,44,37,13,13,4,4,0.8,0.7
2025-05-29T1200,1698A,114.6892,23.7233,河源市,老城,,10,10,18,3,14,32,,40,33,16,12,4,4,0.5,0.5
2025-05-29T1200,1718A,115.4208,35.2464,菏泽市,气象局,臭氧1小时,101,69,73,31,34,201,,150,150,9,16,4,5,0.4,0.4
2025-05-29T1200,3374A,115.5564,35.0891,菏泽市,定陶老年大学,,,53,66,24,34,171,,110,110,,21,6,9,,0.9
2025-05-29T1200,4184A,115.4797,35.24401,菏泽市,永昌路1号,臭氧1小时,93,63,68,58,41,194,,132,132,9,21,7,9,0.2,0.3
2025-05-29T1200,4193A,115.4715,35.2800,菏泽市,长城路999号,臭氧1小时,101,63,74,28,33,202,,137,137,10,19,9,11,0.4,0.4
2025-05-29T1200,2514A,111.5264,24.4172,贺州市,环保小区,,17,10,17,8,15,54,,53,52,12,13,7,7,0.6,0.7
2025-05-29T1200,2515A,111.5608,24.4078,贺州市,政协大楼,,17,7,18,3,13,54,,54,54,11,12,9,9,0.7,0.8
2025-05-29T1200,3534A,111.4744,24.4553,贺州市,西湾,,,22,18,6,13,56,,55,54,,11,8,7,0.7,0.7
2025-05-29T1200,2385A,114.17,35.9019,鹤壁市,市监测站,臭氧1小时,107,53,64,38,41,214,,149,149,12,18,11,9,1.2,0.9
2025-05-29T1200,2386A,114.2956,35.7511,鹤壁市,市交警支队,臭氧1小时,100,65,64,26,34,200,,115,115,9,28,13,9,0.6,0.7
2025-05-29T1200,2387A,114.2878,35.7306,鹤壁市,迎宾馆,臭氧1小时,102,102,74,36,46,204,,104,104,11,29,3,3,0.6,0.7
2025-05-29T1200,3474A,114.2617,35.6822,鹤壁市,大新区,臭氧1小时,100,60,57,35,37,200,,119,119,9,19,8,6,0.6,0.7
2025-05-29T1200,3596A,114.1572,35.9603,鹤壁市,南山宾馆,臭氧1小时,106,58,75,37,50,212,,161,161,8,14,3,5,0.7,0.8
2025-05-29T1200,2244A,130.2537,47.3416,鹤岗市,哈啤分公司,臭氧1小时,72,38,35,30,28,177,,130,130,8,11,12,12,0.4,0.4
2025-05-29T1200,2245A,130.2684,47.3086,鹤岗市,斯达机电,,48,39,52,19,28,153,,121,121,16,15,21,15,0.7,0.6
2025-05-29T1200,2246A,130.3114,47.3388,鹤岗市,东山纸板厂,臭氧1小时,58,43,75,28,27,166,,105,105,10,24,15,16,0.7,0.9
2025-05-29T1200,2247A,130.1097,47.3382,鹤岗市,五号水库,,,,,,,,,,,,,,,,
2025-05-29T1200,2263A,127.4833,50.2524,黑河市,交通局,颗粒物(PM10),52,54,53,24,23,115,,94,94,8,8,6,7,0.5,0.4
2025-05-29T1200,2264A,127.5144,50.2341,黑河市,环保局,细颗粒物(PM2.5),58,64,62,41,28,159,,133,133,8,8,5,5,0.5,0.3
2025-05-29T1200,2265A,127.5291,50.2472,黑河市,大黑河岛,,,50,53,,,140,,114,114,6,7,4,4,0.4,0.4
2025-05-29T1200,1074A,115.6838,37.7541,衡水市,电机北厂,臭氧1小时,105,67,68,28,37,209,,152,152,10,16,3,5,0.4,0.4
2025-05-29T1200,1075A,115.6303,37.7316,衡水市,市监测站,臭氧1小时,103,62,70,33,35,206,,141,141,8,17,12,8,0.4,0.5
2025-05-29T1200,3188A,115.6683,37.7217,衡水市,市城管局,臭氧1小时,105,64,66,20,39,209,,145,145,,21,2,5,0.4,0.4
2025-05-29T1200,3459A,115.5989,37.5491,衡水市,地表水厂,臭氧1小时,104,70,82,27,38,207,,124,124,11,36,11,10,0.4,0.5
2025-05-29T1200,2456A,112.5003,26.9167,衡阳市,原169医院,,35,,14,11,11,111,,72,72,5,11,2,2,0.5,0.6
2025-05-29T1200,2457A,112.6194,26.9258,衡阳市,衡阳化工总厂,,31,25,16,9,10,97,,82,82,4,7,6,5,0.4,0.6
2025-05-29T1200,2458A,112.6211,26.8956,衡阳市,珠晖区环保局,,,27,17,,10,103,,78,78,,12,7,7,,0.8
2025-05-29T1200,2459A,112.6197,26.8733,衡阳市,市委党校,,,29,16,,8,97,,79,79,6,10,3,4,0.4,0.5
2025-05-29T1200,2460A,112.6006,26.8919,衡阳市,市监测站,,,29,17,15,12,99,,83,83,,11,8,8,0.3,0.5
2025-05-29T1200,2461A,112.5664,26.9056,衡阳市,真空机电公司,,33,13,12,9,9,104,,85,85,6,10,5,5,0.6,0.7
2025-05-29T1200,3399A,112.6703,26.882,衡阳市,师范学院,,33,26,15,12,9,104,,82,82,6,9,8,7,0.7,0.8
2025-05-29T1200,2608A,103.3772,23.3993,红河哈尼族彝族自治州,污水处理厂,,16,9,14,6,12,49,,45,45,11,7,12,6,0.4,0.4
2025-05-29T1200,2609A,103.3861,23.35,红河哈尼族彝族自治州,监测站,,26,26,22,11,11,48,,40,40,9,7,29,13,0.6,0.5
2025-05-29T1200,3038A,103.3758,23.368,红河哈尼族彝族自治州,州图书馆,,17,9,10,9,10,54,,47,47,8,6,19,6,0.4,0.3
2025-05-29T1200,1090A,111.6507,40.7517,呼和浩特市,呼市一监,颗粒物(PM10),84,117,67,31,32,178,,140,140,25,12,12,11,0.2,0.2
2025-05-29T1200,1091A,111.6572,40.8033,呼和浩特市,小召,,,110,70,34,29,184,,148,148,,22,10,10,0.6,1.4
2025-05-29T1200,1094A,111.7516,40.8369,呼和浩特市,如意水处理厂,臭氧1小时,74,77,61,38,31,179,,107,107,17,24,10,7,0.4,0.4
2025-05-29T1200,1095A,111.7276,40.8062,呼和浩特市,二十九中,,,,51,,30,,,143,,,18,,6,,0.5
2025-05-29T1200,1096A,111.5512,40.7866,呼和浩特市,工大金川校区,臭氧1小时,97,72,70,35,37,197,,126,126,12,25,10,12,0.5,0.6
2025-05-29T1200,1097A,111.717,40.7612,呼和浩特市,化肥厂生活区,臭氧1小时,79,75,59,37,30,183,,132,132,23,25,9,8,0.6,0.5
2025-05-29T1200,3698A,111.5968,40.8178,呼和浩特市,红旗小学,臭氧1小时,102,97,76,34,43,203,,103,103,17,37,8,8,0.5,0.5
2025-05-29T1200,3699A,111.6518,40.8389,呼和浩特市,海东办,臭氧1小时,74,90,64,42,34,179,,120,120,15,28,11,11,0.5,0.6
2025-05-29T1200,2192A,119.7594,49.2261,呼伦贝尔市,区环保局,细颗粒物(PM2.5),77,75,57,56,39,84,,121,100,14,10,6,6,0.5,0.3
2025-05-29T1200,3061A,119.7512,49.1577,呼伦贝尔市,国华电力东,,,78,57,67,33,91,,123,106,11,7,,4,0.4,0.3
2025-05-29T1200,1250A,120.0751,30.8669,湖州市,城西水厂,臭氧1小时,52,28,49,19,29,161,,106,106,12,26,7,7,0.3,0.5
2025-05-29T1200,2873A,120.0830,30.8929,湖州市,仁皇山新区,,50,34,44,22,28,157,,102,102,13,24,7,6,0.5,0.6
2025-05-29T1200,2907A,120.1844,30.8596,湖州市,吴兴区站,,,45,42,32,28,153,,104,104,,28,7,8,0.3,0.3
2025-05-29T1200,3562A,120.4148,30.8538,湖州市,南浔区站,,49,43,45,29,28,154,,107,107,16,24,5,6,0.4,0.5
2025-05-29T1200,1607A,120.9049,40.7211,葫芦岛市,龙港区,,43,38,32,27,20,135,,130,121,12,10,10,9,0.5,0.5
2025-05-29T1200,1608A,120.8392,40.7514,葫芦岛市,化工街,,46,46,39,29,23,132,,111,109,10,13,8,8,0.6,0.6
2025-05-29T1200,1609A,120.8341,40.7073,葫芦岛市,新区,,43,38,36,30,24,136,,117,112,14,13,7,7,0.6,0.7
2025-05-29T1200,1610A,120.8695,40.7677,葫芦岛市,东城区,,45,41,36,29,26,141,,118,114,13,16,6,5,0.6,0.6
2025-05-29T1200,2482A,109.5981,27.5721,怀化市,林科所,,,28,18,13,7,71,,32,32,4,5,3,4,,0.6
2025-05-29T1200,2483A,109.9453,27.5444,怀化市,河西地税局,,,24,19,15,11,,,13,,5,13,2,2,0.6,0.6
2025-05-29T1200,2484A,109.9781,27.5342,怀化市,市四医院,,32,23,25,22,16,72,,39,39,3,7,3,3,0.8,0.8
2025-05-29T1200,2485A,109.9972,27.5578,怀化市,监测楼,,38,38,22,22,14,71,,31,31,2,7,8,6,0.2,0.3
2025-05-29T1200,2486A,110.0394,27.583,怀化市,市委党校,,36,,20,25,15,65,,28,28,1,9,3,5,0.6,0.7
2025-05-29T1200,1210A,119.036,33.5981,淮安市,钵池山,,44,36,39,26,30,140,,98,98,11,18,16,7,0.5,0.5
2025-05-29T1200,1211A,119.007,33.575,淮安市,北京南路,,48,44,45,24,30,152,,105,105,5,11,16,9,0.5,0.6
2025-05-29T1200,1212A,118.989,33.6067,淮安市,市监测站,,48,48,42,29,30,139,,96,96,11,14,16,10,0.9,0.9
2025-05-29T1200,1213A,119.135,33.5039,淮安市,楚州区监测站,,40,39,50,28,34,127,,93,93,3,9,15,8,0.6,0.5
2025-05-29T1200,3426A,118.8755,33.2894,淮安市,新华书店,臭氧1小时,52,44,50,27,30,161,,102,102,9,17,10,10,0.7,1.1
2025-05-29T1200,4206A,119.0288,33.6319,淮安市,承德北路606号,颗粒物(PM10),53,56,52,29,31,149,,102,102,9,13,13,8,0.5,0.5
2025-05-29T1200,2282A,116.8004,33.975,淮北市,监测站,臭氧1小时,85,90,60,42,39,188,,138,138,6,10,7,7,0.7,0.7
2025-05-29T1200,2283A,116.8091,33.9007,淮北市,烈山区政府,臭氧1小时,90,49,55,43,36,192,,135,135,10,15,6,6,0.8,0.8
2025-05-29T1200,3330A,116.8873,33.9836,淮北市,杜集区检察院,臭氧1小时,79,62,67,31,41,183,,138,138,12,16,8,9,0.8,0.8
2025-05-29T1200,4017A,116.7923,33.9535,淮北市,市博物馆,,,54,53,48,43,198,,142,140,12,16,7,7,,0.7
2025-05-29T1200,2277A,116.8305,32.7727,淮南市,潘集区政府,臭氧1小时,92,67,86,43,53,193,,116,116,11,18,5,7,0.5,0.6
2025-05-29T1200,2279A,116.8569,32.5951,淮南市,谢家集区政府,臭氧1小时,90,57,80,40,48,192,,113,113,11,19,6,7,0.4,0.4
2025-05-29T1200,2280A,116.8281,32.633,淮南市,八公山区政府,臭氧1小时,85,59,76,34,44,188,,115,115,10,13,6,5,0.4,0.4
2025-05-29T1200,2281A,116.6325,32.6201,淮南市,焦岗湖风景区管理处,,,,,,,,,,,,,,,,
2025-05-29T1200,2894A,117.0566,32.6531,淮南市,经济技术开发区消防队,细颗粒物(PM2.5),70,74,77,51,55,164,,102,102,11,19,7,7,0.4,0.5
2025-05-29T1200,3329A,117.0108,32.5893,淮南市,山南新区,臭氧1小时,100,78,94,47,64,200,,125,125,13,17,9,9,0.5,0.5
2025-05-29T1200,4209A,117.0031,32.6445,淮南市,国庆中路369号,,,79,97,32,49,184,,118,118,,13,,5,0.4,0.5
2025-05-29T1200,2446A,114.9028,30.4742,黄冈市,职工中心,,44,28,34,23,28,138,,77,77,1,8,6,7,0.6,0.6
2025-05-29T1200,2929A,114.8858,30.4519,黄冈市,红卫路,,,39,31,36,33,141,,84,84,2,5,3,3,,0.6
2025-05-29T1200,3398A,114.9136,30.4445,黄冈市,市林业局,,45,44,37,31,26,132,,78,78,6,10,6,8,0.7,0.7
2025-05-29T1200,2672A,102.0199,35.5102,黄南藏族自治州,同仁县隆务镇,,38,22,32,14,12,120,,105,105,2,4,5,4,0.3,0.2
2025-05-29T1200,2295A,118.2903,29.6963,黄山市,延安路89号,,32,13,22,8,14,102,,66,66,2,7,5,5,0.3,0.4
2025-05-29T1200,2297A,118.1371,30.2756,黄山市,黄山区政府5号楼,,34,,25,13,19,106,,50,50,2,5,4,3,0.2,0.3
2025-05-29T1200,4210A,118.3354,29.7203,黄山市,滨江东路7-2号,,,,28,,16,103,,57,57,3,6,4,4,0.2,0.2
2025-05-29T1200,2423A,115.0601,30.2313,黄石市,沈家营,,43,30,29,13,14,136,,85,85,5,15,7,7,0.6,0.7
2025-05-29T1200,2426A,114.8988,30.2019,黄石市,铁山,,43,31,28,10,13,137,,82,82,2,4,4,4,0.6,0.5
2025-05-29T1200,2427A,115.0307,30.2092,黄石市,团城山,,45,32,32,12,11,144,,85,85,5,7,11,9,0.6,0.5
2025-05-29T1200,3149A,115.0235,30.1578,黄石市,笔架山北路,,45,27,22,14,9,144,,80,80,8,11,10,7,0.6,0.6
2025-05-29T1200,4185A,115.0780,30.21118,黄石市,磁湖东路29号,,,52,28,17,16,135,,79,79,7,8,8,7,,0.6
2025-05-29T1200,1392A,114.4183,23.0528,惠州市,河南岸金山湖子站,,38,35,36,26,26,32,,43,38,21,15,7,9,0.7,0.7
2025-05-29T1200,1393A,114.4053,23.0822,惠州市,下埔横江三路子站,,43,40,41,30,26,37,,52,45,18,13,6,7,0.5,0.5
2025-05-29T1200,1394A,114.4103,23.1142,惠州市,江北云山西路子站,,,,37,20,25,38,,49,44,15,14,8,8,0.5,0.6
2025-05-29T1200,1395A,114.4645,22.7833,惠州市,惠阳区承修路船湖子站,,34,34,44,23,25,76,,59,55,18,16,9,8,0.5,0.6
2025-05-29T1200,1396A,114.5317,22.7422,惠州市,大亚湾管委会子站,,37,37,43,23,24,68,,52,52,11,9,9,8,0.6,0.6
2025-05-29T1200,3314A,114.4338,22.8134,惠州市,惠阳秋长,细颗粒物(PM2.5),54,51,37,38,26,75,,65,57,26,18,15,12,0.6,0.6
2025-05-29T1200,3452A,114.6517,22.775,惠州市,大亚湾霞涌,,28,28,29,16,20,70,,52,52,7,11,6,7,0.6,0.6
2025-05-29T1200,2240A,130.9762,45.3001,鸡西市,环保局,,49,41,51,18,25,154,,93,93,9,28,6,6,0.4,0.6
2025-05-29T1200,2243A,130.9429,45.3039,鸡西市,第一中学,,45,26,39,12,20,144,,86,86,5,18,6,7,0.5,0.5
2025-05-29T1200,3707A,131.0207,45.3073,鸡西市,欧美日汽修厂,,,55,54,18,27,150,,74,74,8,27,5,7,,0.4
2025-05-29T1200,3709A,130.9967,45.3106,鸡西市,市政设施管理处,,47,46,56,12,25,149,,85,85,11,32,6,6,0.4,0.5
2025-05-29T1200,2367A,114.9754,27.0803,吉安市,红声器材厂,,28,18,18,3,9,89,,77,77,7,8,10,10,0.5,0.5
2025-05-29T1200,2368A,114.9658,27.0999,吉安市,市森林工业局,,28,20,18,11,11,87,,76,76,4,5,8,6,0.4,0.4
2025-05-29T1200,2369A,114.99,27.1312,吉安市,市环境监测站,,28,28,16,10,11,85,,74,74,4,4,14,13,0.5,0.6
2025-05-29T1200,2370A,115.0093,27.0968,吉安市,青原区法院,,29,15,18,6,12,92,,72,72,5,8,4,5,0.3,0.3
2025-05-29T1200,1772A,126.54,43.8622,吉林市,哈达湾,臭氧1小时,88,66,53,36,22,190,,114,114,9,24,8,6,0.5,0.4
2025-05-29T1200,1773A,126.5844,43.8358,吉林市,东局子,臭氧1小时,88,47,36,41,22,190,,113,113,10,20,8,5,0.7,0.6
2025-05-29T1200,1774A,126.5052,43.8245,吉林市,电力学院,臭氧1小时,84,43,39,24,24,187,,99,99,9,29,7,5,0.6,0.5
2025-05-29T1200,1775A,126.6133,43.8972,吉林市,江北,臭氧1小时,101,65,42,30,21,201,,112,112,11,18,9,7,0.7,0.6
2025-05-29T1200,1776A,126.555,43.8306,吉林市,江南公园,臭氧1小时,78,,32,56,24,182,,111,111,8,15,7,6,0.7,0.5
2025-05-29T1200,1778A,126.7061,43.7133,吉林市,丰满,,,,,,,,,,,,,,,,
2025-05-29T1200,2868A,126.4739,43.953,吉林市,九站,臭氧1小时,97,65,49,33,28,197,,113,113,8,39,7,8,0.5,0.4
2025-05-29T1200,1299A,116.9862,36.6114,济南市,科干所,臭氧1小时,106,51,52,24,26,212,,177,177,9,13,6,6,0.3,0.4
2025-05-29T1200,1300A,116.9376,36.665,济南市,农科所,臭氧1小时,109,54,57,24,26,217,,152,152,11,18,8,8,0.3,0.3
2025-05-29T1200,1301A,117.1265,36.6734,济南市,开发区,臭氧1小时,108,54,54,34,30,215,,164,164,13,13,8,9,0.7,0.7
2025-05-29T1200,1303A,117.0624,36.6868,济南市,省种子仓库,臭氧1小时,112,58,64,27,29,223,,170,170,10,17,6,7,0.5,0.6
2025-05-29T1200,1304A,116.9489,36.6447,济南市,机床二厂,臭氧1小时,101,61,65,27,28,202,,149,149,13,20,7,7,0.5,0.6
2025-05-29T1200,1305A,117.0495,36.663,济南市,市监测站,臭氧1小时,105,59,57,32,27,209,,165,165,11,15,10,10,0.6,0.7
2025-05-29T1200,1306A,116.7675,36.5484,济南市,长清党校,臭氧1小时,102,49,52,34,29,204,,164,164,9,13,7,6,0.5,0.6
2025-05-29T1200,1616A,117.6795,36.229,济南市,技术学院,臭氧1小时,93,61,42,39,24,194,,119,119,17,24,13,11,0.7,0.7
2025-05-29T1200,1961A,117.532,36.6868,济南市,东山小学,臭氧1小时,109,54,56,27,26,217,,164,164,2,6,5,5,0.4,0.5
2025-05-29T1200,3059A,117.7161,36.2049,济南市,泰兴公司,臭氧1小时,92,53,46,27,27,193,,106,106,13,22,10,7,0.6,0.5
2025-05-29T1200,3064A,117.6867,36.2171,济南市,莱芜战役纪念馆,臭氧1小时,100,56,47,34,29,200,,120,120,12,16,10,7,0.8,0.7
2025-05-29T1200,3494A,117.1673,36.9782,济南市,济阳区政府,臭氧1小时,109,56,83,27,32,218,,126,126,11,28,8,10,0.5,0.6
2025-05-29T1200,3495A,117.1171,36.63,济南市,锦屏中学,臭氧1小时,98,44,49,24,26,198,,,,10,13,10,10,0.7,0.8
2025-05-29T1200,3682A,116.9814,36.6819,济南市,济南四建,臭氧1小时,110,61,57,29,32,219,,171,171,15,18,7,7,0.5,0.9
2025-05-29T1200,1653A,116.6251,35.4302,济宁市,火炬城,臭氧1小时,92,53,54,36,35,193,,129,129,9,12,7,7,0.5,0.4
2025-05-29T1200,1655A,116.5491,35.4042,济宁市,电化厂,臭氧1小时,83,52,55,29,27,186,,122,122,2,8,2,4,0.5,0.6
2025-05-29T1200,3500A,116.5814,35.3707,济宁市,北湖一中,臭氧1小时,93,54,54,36,32,194,,121,121,5,11,6,6,0.4,0.5
2025-05-29T1200,3501A,116.8249,35.5593,济宁市,服务中心,臭氧1小时,99,68,60,27,22,199,,105,105,11,20,3,3,0.3,0.3
2025-05-29T1200,3678A,116.5907,35.4054,济宁市,市第七中学,臭氧1小时,83,63,53,29,28,186,,122,122,5,10,8,8,0.5,0.4
2025-05-29T1200,2255A,130.2751,46.8028,佳木斯市,佳纺,臭氧1小时,70,41,41,24,20,176,,130,130,7,13,5,4,0.4,0.3
2025-05-29T1200,2256A,130.3995,46.8307,佳木斯市,发电厂,臭氧1小时,82,46,39,23,23,185,,132,132,11,16,5,4,0.5,0.4
2025-05-29T1200,2257A,130.3258,46.7975,佳木斯市,环保局,臭氧1小时,72,48,37,32,22,177,,135,135,7,10,4,4,0.3,0.3
2025-05-29T1200,2258A,130.3648,46.8032,佳木斯市,十一中,,,66,45,37,23,181,,127,127,9,16,,4,0.4,0.5
2025-05-29T1200,2259A,130.3794,46.7588,佳木斯市,四丰,,,,24,23,14,,,,,7,9,1,1,0.5,0.5
2025-05-29T1200,1252A,120.7436,30.778,嘉兴市,清河小学,,45,38,36,22,18,144,,97,97,12,20,6,7,0.6,0.7
2025-05-29T1200,1253A,120.726,30.7478,嘉兴市,嘉兴学院,,47,31,33,21,20,148,,104,104,14,20,6,6,0.6,0.6
2025-05-29T1200,2872A,120.7846,30.7525,嘉兴市,南湖区残联,,47,41,34,22,20,148,,97,97,8,17,6,7,0.4,0.5
2025-05-29T1200,3407A,120.6916,30.7739,嘉兴市,秀洲住建,,49,37,33,24,19,155,,86,86,9,23,7,7,0.4,0.5
2025-05-29T1200,1945A,98.2908,39.7711,嘉峪关市,气象局,,35,19,481,14,96,110,,112,106,4,5,3,3,0,0.1
2025-05-29T1200,2884A,98.2672,39.7978,嘉峪关市,酒钢宾馆,,32,22,493,9,72,102,,105,100,10,12,11,20,0.5,0.9
2025-05-29T1200,3248A,98.2643,39.7724,嘉峪关市,雄关区,,35,18,351,8,57,110,,107,102,5,8,8,10,0.0,0.2
2025-05-29T1200,1383A,113.1064,22.6058,江门市,北街,,33,33,30,20,27,47,,30,30,26,29,3,3,0.6,0.6
2025-05-29T1200,1384A,113.0731,22.5835,江门市,西区,,30,30,25,18,18,51,,38,38,30,28,7,7,0.7,0.6
2025-05-29T1200,1385A,113.0219,22.5311,江门市,圭峰西,,33,33,29,21,29,63,,33,33,13,21,4,4,0.5,0.5
2025-05-29T1200,1386A,113.0828,22.5947,江门市,东湖,,32,27,36,22,20,46,,30,30,14,14,8,8,0.5,0.6
2025-05-29T1200,3311A,113.1075,22.5647,江门市,江海富民,,42,42,53,25,35,66,,41,41,29,32,8,9,0.7,0.7
2025-05-29T1200,3449A,113.05,22.4667,江门市,新会银湖,,39,34,27,27,27,69,,26,26,13,31,2,2,0.6,0.6
2025-05-29T1200,1830A,113.1992,35.2590,焦作市,影视城,,,,,,,,,,,,,,,,
2025-05-29T1200,3169A,113.2725,35.2067,焦作市,太极体育中心,臭氧1小时,111,77,75,35,37,222,,163,163,7,12,6,11,0.3,0.3
2025-05-29T1200,3335A,113.3137,35.2641,焦作市,马村街道办,臭氧1小时,110,77,79,42,42,220,,166,166,13,18,13,13,0.7,0.7
2025-05-29T1200,3336A,113.2465,35.2373,焦作市,焦作技师学院,臭氧1小时,104,75,57,29,32,208,,158,158,9,11,9,8,0.5,0.4
2025-05-29T1200,3477A,113.1656,35.2539,焦作市,中站许衡医院,臭氧1小时,103,67,76,30,34,206,,166,166,10,17,9,8,0.6,0.5
2025-05-29T1200,3981A,113.2449,35.1803,焦作市,原李万街道办,臭氧1小时,108,89,74,36,32,216,,159,159,14,17,12,19,0.3,0.4
2025-05-29T1200,4264A,113.2340,35.2190,焦作市,新安路1731号,臭氧1小时,97,72,72,35,37,197,,148,148,7,11,10,8,0.5,0.5
2025-05-29T1200,1708A,116.3701,23.5345,揭阳市,新兴,,22,,28,15,25,63,,38,38,21,24,5,6,0.6,0.7
2025-05-29T1200,1709A,116.3264,23.5443,揭阳市,西马,,19,9,30,3,19,60,,47,47,15,18,7,7,0.8,0.8
2025-05-29T1200,1710A,116.3611,23.5626,揭阳市,东兴,,17,14,26,9,28,53,,44,44,19,20,3,5,0.8,0.8
2025-05-29T1200,1711A,116.4151,23.5294,揭阳市,渔湖,,,19,26,3,14,63,,52,52,,24,2,3,0.7,0.7
2025-05-29T1200,3320A,116.403,23.5699,揭阳市,曲溪,,18,12,26,7,19,56,,44,44,18,21,4,7,0.5,0.5
2025-05-29T1200,1944A,102.1692,38.5167,金昌市,天庆家园,,,83,710,18,139,118,,105,105,2,4,,2,0.4,0.5
2025-05-29T1200,4022A,102.1647,38.5371,金昌市,金川区人防中心,颗粒物(PM10),61,72,282,14,81,118,,101,101,2,3,8,7,0.4,0.5
2025-05-29T1200,4239A,102.1930,38.5319,金昌市,长春路96号,颗粒物(PM10),66,81,736,15,144,128,,115,115,1,2,6,9,0.6,0.6
2025-05-29T1200,1262A,119.647,29.077,金华市,十五中,,40,17,30,16,26,125,,82,82,10,15,4,4,0.4,0.6
2025-05-29T1200,1263A,119.686,29.1029,金华市,监测站,,,14,33,10,25,126,,73,73,,19,3,2,0.4,0.5
2025-05-29T1200,3659A,119.656,29.1131,金华市,气象局,,38,16,32,10,21,121,,69,69,12,23,2,2,0.4,0.4
2025-05-29T1200,1767A,121.1115,41.0879,锦州市,南山,颗粒物(PM10),56,61,41,36,34,126,,113,113,14,19,6,12,0.6,0.6
2025-05-29T1200,1768A,121.0604,40.8428,锦州市,开发区,颗粒物(PM10),58,65,48,31,27,138,,118,115,18,25,6,6,0.6,0.6
2025-05-29T1200,1769A,121.1836,41.1119,锦州市,百股街道,,,45,39,24,28,137,,105,105,9,16,,8,0.6,0.6
2025-05-29T1200,1770A,121.1178,41.1222,锦州市,天安街道,"颗粒物(PM10),细颗粒物(PM2.5)",53,55,47,37,37,135,,122,122,16,19,6,13,0.6,0.7
2025-05-29T1200,1771A,121.1303,41.1386,锦州市,北湖公园,颗粒物(PM10),56,62,45,31,33,133,,120,118,14,17,7,13,0.7,0.7
2025-05-29T1200,2160A,112.85,35.5051,晋城市,自来水公司,颗粒物(PM10),62,73,61,27,32,154,,135,135,10,20,3,2,0.3,0.3
2025-05-29T1200,2161A,112.8318,35.4936,晋城市,白云商贸,臭氧1小时,101,81,70,24,25,202,,133,133,16,23,7,7,0.5,0.6
2025-05-29T1200,2162A,112.8508,35.4887,晋城市,市环保局,颗粒物(PM10),69,88,78,34,35,49,,16,16,18,19,9,8,0.4,0.4
2025-05-29T1200,2163A,112.8676,35.4897,晋城市,技术学院,臭氧1小时,108,62,77,27,29,215,,126,126,10,27,8,9,0.5,0.6
2025-05-29T1200,2165A,112.8453,35.546,晋城市,白马寺,臭氧1小时,107,63,52,32,35,213,,192,189,6,8,4,5,0.5,0.5
2025-05-29T1200,3620A,112.8271,35.4828,晋城市,泽州一中,臭氧1小时,107,71,61,24,31,213,,143,143,15,21,10,11,0.5,0.5
2025-05-29T1200,2173A,112.7249,37.7067,晋中市,南都小区,臭氧1小时,105,58,56,22,25,210,,166,166,7,10,8,8,0.3,0.3
2025-05-29T1200,2174A,112.6991,37.6982,晋中市,榆次区政府,臭氧1小时,101,61,52,18,21,201,,157,157,10,14,9,9,0.5,0.5
2025-05-29T1200,2865A,112.7195,37.6828,晋中市,榆次三中,臭氧1小时,98,61,54,24,24,198,,136,136,8,16,7,6,0.4,0.5
2025-05-29T1200,4200A,112.7478,37.6954,晋中市,迎宾街26号,臭氧1小时,94,68,51,29,24,195,,151,151,9,14,6,6,0.7,0.7
2025-05-29T1200,2439A,112.2014,31.0481,荆门市,竹园小学,细颗粒物(PM2.5),58,59,56,41,42,161,,111,111,10,11,7,8,0.4,0.4
2025-05-29T1200,2440A,112.1969,30.9891,荆门市,掇刀,细颗粒物(PM2.5),55,44,50,39,42,156,,99,99,8,11,8,9,0.5,0.6
2025-05-29T1200,2441A,112.2213,31.0386,荆门市,石化一小,,,49,58,44,42,155,,90,90,13,17,,14,,0
2025-05-29T1200,3012A,112.1849,31.0362,荆门市,西山林语,,48,42,43,33,46,150,,84,84,7,8,10,10,0.3,0.4
2025-05-29T1200,3547A,112.1632,31.0138,荆门市,龙泉中学南校,,45,24,36,22,28,144,,84,84,6,10,4,4,1.0,0.9
2025-05-29T1200,1844A,112.2494,30.3197,荆州市,市图书馆,,38,,29,19,26,120,,85,85,23,20,8,6,0.6,0.8
2025-05-29T1200,1845A,112.2008,30.3544,荆州市,市委党校,,47,25,33,20,26,148,,92,92,21,22,8,8,0.4,0.6
2025-05-29T1200,3194A,112.2747,30.3122,荆州市,管委会,,35,22,31,22,27,110,,71,71,23,22,13,11,0.5,0.7
2025-05-29T1200,4268A,112.1722,30.3366,荆州市,学苑路85号,,41,,26,22,29,129,,78,78,24,31,7,6,0.5,0.6
2025-05-29T1200,2342A,117.3102,29.3867,景德镇市,王港中学,,,,,,,,,,,,,,,,
2025-05-29T1200,2343A,117.2117,29.2933,景德镇市,老干部活动中心,,,,20,,13,95,,68,68,3,6,3,6,0.4,0.4
2025-05-29T1200,2344A,117.1894,29.2789,景德镇市,兽医站,,30,22,30,8,15,95,,67,67,4,6,5,4,0.6,0.6
2025-05-29T1200,2345A,117.1547,29.2617,景德镇市,台达陶瓷,,30,23,24,15,18,95,,70,70,7,8,5,5,0.5,0.6
2025-05-29T1200,2346A,117.2461,29.2956,景德镇市,陶研所,,30,12,22,6,17,94,,61,61,3,7,3,1,0.2,0.2
2025-05-29T1200,1803A,115.9872,29.6815,九江市,十里,,41,39,26,26,21,129,,52,52,6,17,4,5,0.5,0.6
2025-05-29T1200,1804A,115.9584,29.7046,九江市,茅山头,,44,38,31,21,22,140,,67,67,6,15,4,5,0.5,0.6
2025-05-29T1200,1805A,115.9877,29.7295,九江市,西园,,43,34,29,21,22,137,,68,68,16,27,5,11,0.6,0.6
2025-05-29T1200,1808A,115.9114,29.6038,九江市,综合工业园,,44,44,26,25,17,140,,67,67,14,29,11,11,0.5,0.5
2025-05-29T1200,1809A,116.0721,29.7535,九江市,石化总厂,,,,30,,28,127,,61,61,9,19,4,4,0.7,0.7
2025-05-29T1200,1810A,115.9773,29.5698,九江市,庐山气象台,,39,25,12,15,15,124,,111,111,4,4,6,6,0.6,0.7
2025-05-29T1200,3190A,116.0254,29.6994,九江市,外国语学校,,41,38,27,27,21,130,,58,58,11,20,10,13,0.8,0.8
2025-05-29T1200,4253A,116.0102,29.6594,九江市,莲花大道8号,,40,32,24,26,19,125,,64,64,4,5,4,5,0.5,0.5
2025-05-29T1200,4240A,98.4958,39.7339,酒泉市,玉门东路5号,,,,313,,62,98,,113,103,1,3,8,17,0.3,0.3
2025-05-29T1200,4241A,98.5099,39.7506,酒泉市,北大街108号,,37,14,282,12,57,116,,110,108,4,6,10,12,0.1,0.2
2025-05-29T1200,2698A,76.0072,39.4467,喀什地区,巡警大队,,33,33,64,3,14,72,,67,64,19,13,5,5,0.3,0.3
2025-05-29T1200,2699A,75.9755,39.4694,喀什地区,吾办,,33,33,64,6,21,74,,71,65,3,13,11,12,0.4,0.3
2025-05-29T1200,4027A,75.9483,39.4689,喀什地区,老干局,,25,25,64,8,14,60,,49,41,5,3,4,3,0,0
2025-05-29T1200,1824A,114.3389,34.7781,开封市,肿瘤医院,臭氧1小时,102,77,79,38,40,204,,136,136,6,16,9,9,0.6,0.7
2025-05-29T1200,1826A,114.2885,34.7965,开封市,世纪星幼儿园,臭氧1小时,106,90,81,32,41,212,,145,145,14,23,7,8,0.6,0.8
2025-05-29T1200,3147A,114.3438,34.8106,开封市,龙亭公园,细颗粒物(PM2.5),115,93,78,87,38,215,,150,150,10,21,7,7,0.7,0.8
2025-05-29T1200,3210A,114.3644,34.7964,开封市,汴京公园,臭氧1小时,107,91,89,32,45,213,,150,150,9,19,7,8,0.8,0.9
2025-05-29T1200,3473A,114.2485,34.8306,开封市,技师学院,臭氧1小时,104,93,72,17,39,207,,153,153,7,14,8,8,0.6,1.1
2025-05-29T1200,3592A,114.4644,34.7556,开封市,祥符区生态环境局,臭氧1小时,105,74,79,48,36,209,,127,127,15,37,8,8,0.4,0.4
2025-05-29T1200,1951A,84.895,45.6094,克拉玛依市,长征新村,,,,7,5,4,78,,54,51,18,10,7,6,0.3,0.2
2025-05-29T1200,1952A,84.8988,45.5893,克拉玛依市,南林小区,,38,38,27,11,7,82,,38,34,12,9,12,11,0.3,0.3
2025-05-29T1200,1954A,84.905,44.3396,克拉玛依市,独山子区,,33,30,30,12,14,105,,83,83,7,9,7,7,0.3,0.4
2025-05-29T1200,1955A,85.6979,46.098,克拉玛依市,乌尔禾区商贸楼,,37,37,25,10,6,85,,43,43,6,8,2,2,0.3,0.3
2025-05-29T1200,3612A,85.1045,45.6899,克拉玛依市,白碱滩区新站,,45,45,45,14,17,77,,56,56,17,7,13,12,0.1,0
2025-05-29T1200,2697A,76.1454,39.7142,克孜勒苏柯尔克孜自治州,市人民政府,颗粒物(PM10),53,56,66,21,27,95,,97,86,12,6,4,5,0.5,0.5
2025-05-29T1200,3665A,76.1658,39.7157,克孜勒苏柯尔克孜自治州,克州文化中心,,50,50,68,27,30,98,,96,88,4,3,6,6,0.4,0.3
2025-05-29T1200,1450A,102.8204,24.8886,昆明市,呈贡新区,,21,21,13,3,8,67,,56,56,10,13,4,4,0.5,0.6
2025-05-29T1200,1451A,102.6251,24.9608,昆明市,西山森林公园,,,,,,,,,,,,,,,,
2025-05-29T1200,1452A,102.7252,25.0902,昆明市,龙泉镇,,,,8,12,5,45,,38,36,17,12,,3,0.5,0.4
2025-05-29T1200,1453A,102.7266,25.0375,昆明市,东风东路,,22,22,14,11,9,51,,44,42,29,22,6,6,0.6,0.5
2025-05-29T1200,1454A,102.6742,25.0669,昆明市,金鼎山,,16,,9,10,7,49,,42,38,21,18,3,1,0.5,0.5
2025-05-29T1200,1455A,102.6644,25.0401,昆明市,碧鸡广场,,16,11,10,7,10,51,,44,41,25,22,5,5,0.6,0.6
2025-05-29T1200,3179A,102.7494,25.0119,昆明市,官渡区博物馆,,19,,9,3,4,60,,34,34,19,30,7,6,0.4,0.5
2025-05-29T1200,3375A,102.8017,24.8336,昆明市,青年创业园,,22,6,6,3,4,68,,53,53,8,13,6,6,0.4,0.4
2025-05-29T1200,3550A,102.7997,24.9786,昆明市,昆明学院,,22,6,12,3,10,70,,44,44,10,25,4,4,0.2,0.3
2025-05-29T1200,3551A,102.5967,24.6736,昆明市,晋宁区生态环境分局,,23,10,12,3,3,71,,58,58,7,11,6,4,0.5,0.6
2025-05-29T1200,3552A,102.6678,24.9856,昆明市,云天化总部,,20,8,10,7,8,61,,40,40,16,23,3,2,0.6,0.6
2025-05-29T1200,1456A,91.1319,29.6514,拉萨市,八廓街,,31,10,18,7,9,98,,74,74,6,15,6,7,0.3,0.3
2025-05-29T1200,1457A,91.1221,29.6747,拉萨市,市环保局,,29,9,18,3,8,92,,74,74,10,14,5,5,0.2,0.2
2025-05-29T1200,1458A,91.0874,29.6475,拉萨市,区监测站,,30,8,13,3,7,95,,85,79,7,14,6,6,0.2,0.2
2025-05-29T1200,1459A,91.1774,29.6541,拉萨市,西藏大学,,,11,17,7,7,88,,70,70,,16,2,10,0.3,0.4
2025-05-29T1200,1460A,90.9798,29.6588,拉萨市,区辐射站,,26,10,18,6,8,82,,76,73,10,16,6,6,0.3,0.3
2025-05-29T1200,1461A,91.0834,29.6292,拉萨市,拉萨火车站,,30,6,12,3,8,93,,86,80,6,8,4,4,0.2,0.2
2025-05-29T1200,2520A,109.2203,23.7256,来宾市,来宾技工学校,,23,10,22,3,13,72,,58,58,5,8,4,5,1.0,1
2025-05-29T1200,3535A,109.1781,23.7297,来宾市,兴宾区政府,,20,6,24,3,15,62,,55,55,4,8,4,4,0.7,0.8
2025-05-29T1200,4002A,109.2416,23.7461,来宾市,中南小学,,23,12,21,3,11,72,,58,58,6,9,2,4,0.7,0.7
2025-05-29T1200,1477A,104.1373,35.9454,兰州市,榆中兰大校区,,,,,,,,,,,,,,,,
2025-05-29T1200,1479A,103.831,36.0464,兰州市,铁路设计院,,31,28,37,18,23,97,,72,72,16,18,10,9,0.5,0.4
2025-05-29T1200,3241A,103.7439,36.0842,兰州市,百合公园,,32,24,33,7,15,102,,74,74,2,7,2,3,0.4,0.4
2025-05-29T1200,3242A,103.9611,35.998,兰州市,和平,,34,34,36,9,23,96,,73,73,6,9,7,7,0.4,0.4
2025-05-29T1200,4236A,103.6293,36.0938,兰州市,庄浪东路808号,,34,34,45,22,26,103,,60,60,12,21,9,9,0.3,0.3
2025-05-29T1200,4237A,103.7251,36.1043,兰州市,安宁西路88号,,,35,46,17,25,112,,84,84,,3,6,5,0.3,0.2
2025-05-29T1200,4238A,103.8470,36.0676,兰州市,北滨河东路1号,,,33,38,22,20,105,,77,77,,13,10,8,0.6,0.6
2025-05-29T1200,3245A,103.6633,36.533,兰州新区,新区管委会,,48,43,44,33,30,109,,84,84,6,8,7,10,0.4,0.4
2025-05-29T1200,3246A,103.6975,36.4789,兰州新区,舟曲中学,,36,36,42,23,17,110,,79,79,8,13,7,8,0.3,0.3
2025-05-29T1200,1067A,116.6708,39.5111,廊坊市,药材公司,臭氧1小时,85,84,79,53,53,188,,96,96,14,18,5,4,0.6,0.6
2025-05-29T1200,1068A,116.7214,39.5589,廊坊市,开发区,臭氧1小时,90,97,87,47,47,192,,96,96,18,29,5,4,0.7,0.6
2025-05-29T1200,1070A,116.7244,39.5269,廊坊市,北华航天学院,臭氧1小时,82,100,98,56,56,185,,92,92,15,21,5,5,0.6,0.6
2025-05-29T1200,2919A,116.7022,39.5453,廊坊市,河北工业大学,"细颗粒物(PM2.5),臭氧1小时",84,89,87,62,49,187,,98,98,16,22,7,6,0.7,0.6
2025-05-29T1200,2535A,103.7723,29.5462,乐山市,花湖湾,,,31,27,22,20,121,,57,56,,11,,6,0.5,0.5
2025-05-29T1200,2536A,103.7627,29.5844,乐山市,牛耳桥,,37,32,37,20,21,116,,62,62,10,16,8,8,1.0,0.9
2025-05-29T1200,2537A,103.7508,29.6006,乐山市,市第三水厂,,36,27,29,20,23,113,,64,64,9,17,7,6,0.8,0.8
2025-05-29T1200,2538A,103.7571,29.5664,乐山市,市监测站,,,,29,,21,100,,52,52,12,13,,6,1.1,1.2
2025-05-29T1200,3361A,103.7311,29.5628,乐山市,理工大学,,38,35,28,25,21,119,,56,56,12,18,9,7,0.7,0.7
2025-05-29T1200,2598A,100.2143,26.8576,丽江市,西南郊,,21,6,6,3,4,67,,57,57,3,5,6,6,1.0,1.1
2025-05-29T1200,2599A,100.2497,26.8802,丽江市,丽江古城,,19,11,13,10,10,60,,50,50,13,13,9,9,0.5,0.5
2025-05-29T1200,2600A,100.2203,26.8906,丽江市,市中心,,,14,8,6,9,52,,38,38,14,18,6,10,,0.6
2025-05-29T1200,1267A,119.914,28.4514,丽水市,监测站大楼,,29,19,14,3,10,91,,68,68,9,12,2,2,0.3,0.3
2025-05-29T1200,1268A,119.93,28.4586,丽水市,莲都小学,,30,11,17,6,8,96,,71,71,7,13,3,3,0.3,0.3
2025-05-29T1200,1269A,119.879,28.4231,丽水市,余庄前,,30,8,17,3,10,94,,64,64,7,10,4,3,0.3,0.3
2025-05-29T1200,1173A,119.176,34.5885,连云港市,市环境监测站,,,29,36,,18,145,,129,129,9,12,6,7,0.3,0.3
2025-05-29T1200,3000A,119.3581,34.6972,连云港市,德源药业,颗粒物(PM10),51,51,34,22,14,153,,122,122,14,14,13,9,0.5,0.8
2025-05-29T1200,3007A,119.178,34.844,连云港市,新城一中,,47,38,46,28,17,150,,110,110,14,24,9,8,0.9,0.9
2025-05-29T1200,3008A,119.3608,34.7519,连云港市,胡沟管理处,,41,31,23,17,11,131,,120,119,22,18,14,11,0.7,0.6
2025-05-29T1200,3009A,119.1478,34.5911,连云港市,矿山设计院,,43,27,34,14,14,135,,120,120,10,10,4,5,0.4,0.5
2025-05-29T1200,3434A,119.2413,34.6539,连云港市,工贸学校,,48,19,25,17,16,152,,139,136,9,8,8,9,0.4,0.5
2025-05-29T1200,3664A,119.4172,34.7341,连云港市,连云街道,颗粒物(PM10),53,56,31,26,16,154,,130,116,18,14,14,10,0.5,0.5
2025-05-29T1200,2571A,102.3431,27.8099,凉山彝族自治州,青龙寺,,26,12,11,6,3,83,,44,44,4,4,6,5,0.8,0.7
2025-05-29T1200,2572A,102.2721,27.8415,凉山彝族自治州,邛海宾馆,,31,31,12,18,6,65,,38,38,21,14,14,6,1.3,0.8
2025-05-29T1200,2573A,102.2625,27.898,凉山彝族自治州,西昌市政府,,49,,15,34,14,86,,44,44,17,12,20,10,1.5,0.9
2025-05-29T1200,2574A,102.2685,27.8851,凉山彝族自治州,凉山州政府,,38,38,15,24,10,74,,42,42,22,13,13,7,1.6,1
2025-05-29T1200,4229A,102.2342,27.8859,凉山彝族自治州,凯乐南路30号,,38,36,23,26,15,85,,41,41,16,20,25,14,1.5,1
2025-05-29T1200,2212A,123.2,41.1953,辽阳市,宏伟区,臭氧1小时,67,62,36,21,22,173,,161,160,10,10,8,7,0.5,0.6
2025-05-29T1200,2213A,123.1683,41.2495,辽阳市,新华园,臭氧1小时,72,58,48,21,29,177,,159,159,10,12,6,8,0.6,0.7
2025-05-29T1200,2214A,123.2354,41.2639,辽阳市,滨河路,臭氧1小时,59,56,37,23,25,167,,146,146,9,12,10,12,0.4,0.5
2025-05-29T1200,2215A,123.149,41.2991,辽阳市,铁西工业园,颗粒物(PM10),54,57,52,20,27,160,,137,137,12,13,6,7,0.5,0.7
2025-05-29T1200,2227A,125.1358,42.8845,辽源市,环保局,,45,38,47,13,24,144,,88,88,7,37,2,3,0.3,0.5
2025-05-29T1200,3239A,125.0764,42.9078,辽源市,银鹰制药,,48,23,43,15,26,153,,98,98,13,38,34,13,0.6,0.7
2025-05-29T1200,1625A,115.9848,36.4372,聊城市,区政府,臭氧1小时,97,61,65,29,33,197,,141,141,8,20,7,8,0.9,0.8
2025-05-29T1200,2878A,116.0072,36.4343,聊城市,聊大东校,臭氧1小时,102,63,67,34,38,204,,140,140,6,17,9,8,0.6,0.6
2025-05-29T1200,3200A,115.9819,36.4978,聊城市,监控中心,臭氧1小时,103,59,68,27,34,206,,153,153,8,24,6,9,0.8,0.7
2025-05-29T1200,3513A,116.0445,36.4361,聊城市,九州社区,臭氧1小时,99,60,63,27,32,199,,139,139,4,16,7,7,0.8,0.7
2025-05-29T1200,4018A,116.0567,36.4608,聊城市,星美广场,臭氧1小时,105,63,75,23,36,209,,148,148,6,15,9,9,0.9,0.8
2025-05-29T1200,2632A,94.3681,29.6376,林芝市,林芝监测站,,,12,8,3,5,64,,52,49,,4,4,3,0.3,0.6
2025-05-29T1200,2633A,94.3616,29.6616,林芝市,林芝人民医院,,20,8,11,3,5,64,,48,43,4,3,6,6,0.3,0.3
2025-05-29T1200,2603A,100.0781,23.8982,临沧市,市环保局,,14,14,16,9,18,38,,21,21,6,8,5,4,0.5,0.5
2025-05-29T1200,2604A,100.0894,23.8822,临沧市,市气象局,,18,,15,12,10,54,,32,32,9,9,4,3,0.4,0.4
2025-05-29T1200,1733A,111.5531,36.0783,临汾市,临钢医院,臭氧1小时,103,65,69,29,29,206,,140,140,14,19,4,4,0.7,0.7
2025-05-29T1200,1734A,111.5028,36.0714,临汾市,技工学校,臭氧1小时,105,68,63,33,38,210,,154,154,9,13,6,6,0.5,0.5
2025-05-29T1200,1736A,111.5018,36.0855,临汾市,市委,臭氧1小时,103,76,77,30,29,205,,151,151,12,17,6,6,0.7,0.7
2025-05-29T1200,3018A,111.505,36.1014,临汾市,唐尧大酒店,,,,72,,28,,,170,,,15,,6,,0.7
2025-05-29T1200,4244A,111.4879,36.0530,临汾市,启星学校,臭氧1小时,107,66,65,35,37,213,,158,158,11,16,4,4,0.5,0.5
2025-05-29T1200,4271A,103.2464,35.6123,临夏回族自治州,滨河东路1号,,36,36,39,20,16,82,,47,47,4,9,9,8,0.3,0.3
2025-05-29T1200,4310A,103.2093,35.5995,临夏回族自治州,新华街21号,,28,21,35,15,18,87,,52,52,8,13,7,6,0.3,0.3
2025-05-29T1200,1618A,118.3429,35.0532,临沂市,沂河小区,臭氧1小时,83,78,53,38,27,186,,111,111,19,17,8,6,0.4,0.4
2025-05-29T1200,1619A,118.295,35.0583,临沂市,鲁南制药厂,臭氧1小时,94,63,50,35,29,195,,123,123,14,16,8,7,0.6,0.5
2025-05-29T1200,1620A,118.2794,34.9976,临沂市,新光毛纺厂,臭氧1小时,85,61,46,30,28,188,,120,120,13,16,8,8,0.4,0.4
2025-05-29T1200,1621A,118.3956,35.0888,临沂市,河东保险公司,臭氧1小时,84,58,47,26,23,187,,105,105,11,16,9,6,0.4,0.4
2025-05-29T1200,3370A,118.3564,35.0215,临沂市,十里堡居委,臭氧1小时,90,51,45,27,23,192,,114,114,17,20,9,8,0.5,0.5
2025-05-29T1200,3496A,118.3604,35.1084,临沂市,南坊新区,臭氧1小时,80,68,53,31,24,184,,106,106,18,18,11,8,0.6,0.5
2025-05-29T1200,3860A,118.3920,35.0300,临沂市,皇山花园小区,,,,47,,24,190,,108,108,,23,12,9,0.7,0.6
2025-05-29T1200,1870A,109.4856,24.3895,柳州市,柳东小学,,17,6,17,3,10,52,,48,48,4,6,10,9,0.5,0.5
2025-05-29T1200,1871A,109.4157,24.3277,柳州市,环保监测站,,17,10,18,7,14,54,,46,46,12,11,2,2,0.8,0.9
2025-05-29T1200,1872A,109.389,24.341,柳州市,河西水厂,,,,19,,12,51,,50,50,,12,9,7,,1
2025-05-29T1200,1873A,109.4311,24.2921,柳州市,市四中,,18,16,21,6,15,55,,48,48,10,12,8,8,0.8,0.8
2025-05-29T1200,1874A,109.4006,24.3631,柳州市,市九中,,16,16,18,9,13,48,,47,47,17,12,12,11,0.8,0.8
2025-05-29T1200,1875A,109.4958,24.3134,柳州市,古亭山,,17,7,13,3,6,54,,53,53,3,5,5,5,0.4,0.4
2025-05-29T1200,3402A,109.5422,24.3996,柳州市,市二中,,16,6,13,3,7,49,,49,47,9,10,10,10,0.4,0.5
2025-05-29T1200,2307A,116.5079,31.737,六安市,监测大楼,,44,31,45,19,32,138,,86,86,6,10,4,4,0.4,0.5
2025-05-29T1200,2308A,116.4738,31.7643,六安市,皖西学院,,47,42,45,17,29,150,,106,106,6,6,5,5,0.3,0.4
2025-05-29T1200,2309A,116.4996,31.7905,六安市,朝阳厂,,43,41,43,21,31,135,,90,90,14,17,5,5,0.3,0.4
2025-05-29T1200,2310A,116.5567,31.7886,六安市,开发区,,50,31,60,30,33,158,,95,95,4,14,6,7,0.4,0.5
2025-05-29T1200,2576A,104.8,26.5892,六盘水市,窑上,,25,21,23,17,13,68,,41,41,11,5,5,3,0.5,0.4
2025-05-29T1200,2577A,104.83,26.5917,六盘水市,黄土坡,,,38,12,17,12,69,,42,42,19,14,14,9,,0.3
2025-05-29T1200,2578A,104.89,26.5939,六盘水市,水钢,,23,23,14,14,6,72,,54,54,9,12,12,10,0.3,0.5
2025-05-29T1200,2579A,104.8475,26.5894,六盘水市,民中,细颗粒物(PM2.5),55,49,12,39,6,55,,45,45,25,15,16,9,1.2,0.5
2025-05-29T1200,2580A,104.9544,26.5506,六盘水市,双水,,23,14,7,6,6,73,,46,46,9,12,10,9,0.3,0.2
2025-05-29T1200,2335A,117.0189,25.1181,龙岩市,龙岩师专,,,,,,,,,,,,,,,,
2025-05-29T1200,2336A,117.0217,25.1033,龙岩市,龙岩市监测站,,15,6,15,3,12,46,,37,34,13,18,4,4,0.7,0.7
2025-05-29T1200,2337A,117.0258,25.0661,龙岩市,闽西职业技术学院,,12,9,15,3,10,37,,31,30,10,13,4,5,0.7,0.6
2025-05-29T1200,2338A,117.0196,25.0306,龙岩市,龙岩学院,,11,8,13,7,9,33,,34,33,15,12,9,7,0.6,0.5
2025-05-29T1200,2665A,105.0822,33.3261,陇南市,汉王镇固水子,,,,,,,,,,,,,,,,
2025-05-29T1200,2885A,104.9339,33.3826,陇南市,滨江中学,,,,37,,16,104,,69,69,,6,8,9,,0.5
2025-05-29T1200,3247A,104.955,33.371,陇南市,市总工会,,33,33,31,18,13,104,,73,72,3,5,8,9,0.5,0.5
2025-05-29T1200,2487A,111.9589,27.8901,娄底市,电视发射台,,31,9,16,3,4,98,,59,59,1,2,6,6,0.2,0.2
2025-05-29T1200,2488A,111.9975,27.725,娄底市,市监测站,,30,14,19,9,10,93,,62,62,7,19,5,8,0.4,0.4
2025-05-29T1200,2489A,112.0194,27.7314,娄底市,市委党校,,30,10,16,3,10,94,,69,69,2,5,3,3,0.2,0.3
2025-05-29T1200,2490A,111.9561,27.7569,娄底市,涟钢,,,6,14,3,9,97,,58,58,,6,11,3,0.9,0.8
2025-05-29T1200,2491A,111.9892,27.7044,娄底市,市政府,,31,18,14,3,7,99,,60,60,6,8,3,4,0.4,0.5
2025-05-29T1200,1893A,105.4324,28.9634,泸州市,九狮山,,34,25,24,13,23,106,,39,39,15,18,5,4,0.4,0.4
2025-05-29T1200,1894A,105.4427,28.9063,泸州市,小市上码头,,31,16,23,9,10,97,,36,36,7,15,11,11,0.5,0.5
2025-05-29T1200,1895A,105.4241,28.8573,泸州市,兰田宪桥,,32,20,25,8,11,101,,36,36,8,12,9,8,0.4,0.4
2025-05-29T1200,1896A,105.4379,28.8833,泸州市,市环监站,,32,16,22,11,14,101,,34,34,8,13,8,7,0.5,0.5
2025-05-29T1200,4272A,105.3689,28.7783,泸州市,纳溪中医医院,,30,29,26,21,16,84,,30,30,20,21,6,5,0.6,0.7
2025-05-29T1200,2183A,111.1406,37.5211,吕梁市,环保局,臭氧1小时,93,56,86,29,36,194,,113,113,11,30,6,6,0.4,0.6
2025-05-29T1200,2185A,111.1297,37.5136,吕梁市,自来水公司,臭氧1小时,88,53,73,21,31,190,,106,106,9,25,4,5,0.2,0.4
2025-05-29T1200,2867A,111.1283,37.51,吕梁市,马茂庄小学,臭氧1小时,84,59,86,29,35,187,,108,108,14,39,2,5,0.5,0.7
2025-05-29T1200,1812A,112.3931,34.6516,洛阳市,市委党校,臭氧1小时,97,92,78,52,46,197,,113,113,16,24,12,8,0.7,0.6
2025-05-29T1200,1815A,112.494,34.6886,洛阳市,河南林校,臭氧1小时,107,95,81,50,47,214,,128,128,19,25,13,12,0.9,0.8
2025-05-29T1200,1816A,112.3844,34.623,洛阳市,开发区管委会,臭氧1小时,111,84,78,45,48,221,,126,126,15,21,14,9,0.6,0.6
2025-05-29T1200,1817A,112.4267,34.6258,洛阳市,市委新办公区,臭氧1小时,106,110,83,56,47,212,,113,113,,24,14,8,0.9,0.7
2025-05-29T1200,3340A,112.6005,34.6326,洛阳市,伊滨,臭氧1小时,110,97,97,53,48,220,,120,120,21,26,11,8,0.6,0.5
2025-05-29T1200,3341A,112.4951,34.6332,洛阳市,中移产业园,臭氧1小时,106,107,94,49,47,212,,117,117,16,26,12,9,0.8,0.8
2025-05-29T1200,3593A,112.5736,34.8993,洛阳市,吉利监测站,臭氧1小时,108,96,80,42,41,215,,120,120,12,20,13,14,0.6,0.7
2025-05-29T1200,3635A,112.3677,34.662,洛阳市,河科大西苑校区,臭氧1小时,110,103,83,47,42,220,,122,122,18,27,13,10,0.8,0.8
2025-05-29T1200,3636A,112.4388,34.6781,洛阳市,英才小学,臭氧1小时,109,112,88,46,39,218,,125,125,16,24,12,10,0.7,0.6
2025-05-29T1200,4214A,112.4600,34.6949,洛阳市,春都路1号院,臭氧1小时,119,108,93,40,42,237,,150,150,17,24,11,10,0.6,0.5
2025-05-29T1200,2399A,114.051,33.5699,漯河市,三五一五工厂,臭氧1小时,106,79,112,33,49,212,,106,106,10,28,5,6,0.6,0.6
2025-05-29T1200,2400A,114.0055,33.5698,漯河市,漯河大学,臭氧1小时,107,87,118,46,47,214,,115,115,10,25,4,4,0.5,0.5
2025-05-29T1200,2401A,114.0138,33.5828,漯河市,市水利局,臭氧1小时,107,105,122,41,46,214,,115,115,8,21,5,6,0.7,0.7
2025-05-29T1200,2402A,114.0261,33.5698,漯河市,市广电局,臭氧1小时,108,93,118,36,51,216,,114,114,10,25,3,4,0.7,0.7
2025-05-29T1200,3478A,113.9749,33.5664,漯河市,市图书馆,臭氧1小时,106,90,107,44,49,211,,115,115,15,23,4,4,0.7,0.8
2025-05-29T1200,4250A,114.0892,33.5882,漯河市,韶山路11号,臭氧1小时,107,66,112,54,49,213,,104,104,11,28,6,7,0.5,0.6
2025-05-29T1200,1798A,118.5092,31.6837,马鞍山市,湖东路四小,,50,50,56,16,37,160,,101,101,8,15,6,9,0.5,0.6
2025-05-29T1200,1799A,118.5024,31.6449,马鞍山市,开发区,,50,46,65,20,35,160,,93,93,9,21,7,10,0.5,0.7
2025-05-29T1200,1802A,118.6245,31.7241,马鞍山市,濮塘,臭氧1小时,53,45,47,22,38,162,,93,93,4,8,9,9,0.7,0.7
2025-05-29T1200,3633A,118.4918,31.6809,马鞍山市,雨山,,49,40,53,23,34,156,,103,103,9,15,7,10,0.5,0.6
2025-05-29T1200,4191A,118.5274,31.72227,马鞍山市,慈湖高新区,,50,36,61,14,46,158,,96,96,12,20,6,8,0.5,0.5
2025-05-29T1200,1686A,111.0286,21.4688,茂名市,电白南海,,28,19,21,19,16,54,,40,38,6,9,2,3,0.4,0.5
2025-05-29T1200,1687A,110.9294,21.6533,茂名市,茂石化七小,,27,27,21,17,10,47,,36,36,10,9,4,3,0.4,0.3
2025-05-29T1200,1688A,110.9107,21.6687,茂名市,健康路,,22,22,17,14,11,54,,45,45,11,10,5,5,0.5,0.4
2025-05-29T1200,1689A,110.8592,21.6828,茂名市,高岭,,,34,30,9,8,52,,38,38,14,12,,26,0.5,0.4
2025-05-29T1200,3450A,111.01,21.5165,茂名市,电白水东,,16,9,15,3,7,50,,35,35,9,12,2,3,0.2,0.2
2025-05-29T1200,2539A,104.0308,30.0478,眉山市,黑龙滩水库,,39,11,14,10,14,122,,76,76,1,4,3,3,0.4,0.3
2025-05-29T1200,2540A,103.8416,30.0874,眉山市,气象局,,40,26,31,19,19,128,,76,76,6,15,3,3,0.4,0.4
2025-05-29T1200,3137A,103.8578,30.0744,眉山市,市委党校,,36,17,24,7,13,114,,77,77,8,14,8,8,0.4,0.5
2025-05-29T1200,3148A,103.8291,30.0564,眉山市,区人社局,,40,25,26,9,12,126,,86,86,10,14,13,12,0.4,0.4
2025-05-29T1200,1690A,116.1231,24.3284,梅州市,梅江月梅,,10,,14,7,12,30,,28,25,8,10,5,5,0.7,0.7
2025-05-29T1200,1691A,116.0797,24.2719,梅州市,梅县新城,,15,,15,10,16,28,,26,24,18,17,6,6,0.8,0.7
2025-05-29T1200,1692A,116.1248,24.2654,梅州市,环境监控中心,,15,9,17,8,15,48,,34,34,14,15,3,5,0.8,0.8
2025-05-29T1200,3315A,116.1233,24.2991,梅州市,梅龙,,12,7,12,3,10,36,,35,34,9,8,6,6,0.7,0.6
2025-05-29T1200,1878A,104.7778,31.4741,绵阳市,富乐山,,38,38,32,26,23,30,,61,46,35,13,8,8,0.7,0.5
2025-05-29T1200,1880A,104.6697,31.4668,绵阳市,高新区自来水公司,,50,50,37,17,22,53,,52,50,20,19,4,4,0.9,0.6
2025-05-29T1200,1881A,104.7287,31.5075,绵阳市,三水厂,细颗粒物(PM2.5),57,62,36,40,28,26,,45,24,34,26,9,8,0.7,0.6
2025-05-29T1200,3491A,104.69,31.5322,绵阳市,西科大附属小学,颗粒物(PM10),55,60,45,35,26,32,,28,15,26,31,7,7,0.6,0.5
2025-05-29T1200,3492A,104.5648,31.5343,绵阳市,安州区旅游局,,42,34,31,29,21,37,,31,31,26,22,2,2,1.0,0.8
2025-05-29T1200,4226A,104.7651,31.4531,绵阳市,绵阳市气象局,,,72,36,31,23,28,,62,45,,14,6,3,0.8,0.5
2025-05-29T1200,1784A,129.61,44.561,牡丹江市,环保大楼,,44,15,21,15,19,139,,78,78,8,16,6,6,0.2,0.2
2025-05-29T1200,1785A,129.6115,44.5782,牡丹江市,文化广场,,44,30,43,19,23,138,,78,78,12,25,8,9,0.4,0.5
2025-05-29T1200,1786A,129.5904,44.5963,牡丹江市,第一医院,,45,10,33,6,21,141,,67,67,12,21,4,4,0.4,0.5
2025-05-29T1200,1787A,129.6364,44.6075,牡丹江市,机车工厂,,45,26,43,3,15,141,,68,68,12,20,4,6,0.3,0.5
2025-05-29T1200,1788A,129.6386,44.5462,牡丹江市,第一中学,,44,18,20,9,14,140,,84,84,8,13,6,6,0.4,0.3
2025-05-29T1200,2531A,105.0703,29.61,内江市,市监测站,,30,14,19,10,15,94,,46,46,8,11,8,7,0.8,0.7
2025-05-29T1200,2532A,105.0717,29.5947,内江市,东兴区政府,,34,,14,12,8,106,,59,59,8,13,6,6,0.6,0.5
2025-05-29T1200,2533A,105.0653,29.5817,内江市,内江二中,,34,,17,14,18,106,,58,58,14,18,6,6,0.4,0.4
2025-05-29T1200,2534A,105.0406,29.5822,内江市,内江日报社,,34,18,16,11,16,108,,59,59,5,12,7,6,0.6,0.6
2025-05-29T1200,2628A,92.0657,31.4846,那曲市,那曲监测站,,30,18,22,6,9,93,,81,81,8,12,6,7,0.2,0.3
2025-05-29T1200,4243A,92.0515,31.4787,那曲市,那曲市委宣传部,,31,13,15,3,7,98,,90,90,4,5,6,6,0.2,0.2
2025-05-29T1200,1290A,115.8931,28.6843,南昌市,省外办,,,19,24,,19,106,,86,86,8,13,7,9,,0.3
2025-05-29T1200,1291A,115.8886,28.7003,南昌市,省林业公司,,33,14,18,12,15,105,,76,76,6,10,7,9,0.3,0.4
2025-05-29T1200,1292A,115.8126,28.7442,南昌市,林科所,,38,9,16,9,13,119,,88,88,6,11,4,4,0.4,0.2
2025-05-29T1200,1294A,115.8518,28.687,南昌市,建工学校,,34,23,22,23,20,106,,84,84,5,9,4,5,0.2,0.3
2025-05-29T1200,1295A,115.8921,28.6424,南昌市,象湖,,34,24,25,7,13,106,,78,78,7,10,6,6,0.5,0.6
2025-05-29T1200,1296A,115.7423,28.7996,南昌市,武术学校,,36,21,19,6,12,115,,63,63,4,4,10,10,0.5,0.5
2025-05-29T1200,3046A,115.9084,28.6062,南昌市,机电学校,,,,27,,17,,,99,,,16,,3,,0.5
2025-05-29T1200,3690A,115.9721,28.7031,南昌市,外国语学校,,35,14,21,12,16,110,,82,82,4,6,6,6,0.2,0.2
2025-05-29T1200,4192A,115.9316,28.68677,南昌市,南京东路235号,,32,17,29,10,14,101,,73,73,6,10,5,6,0.5,0.5
2025-05-29T1200,1905A,106.056,30.8064,南充市,西山风景区,,,,,,,,,,,,,,,,
2025-05-29T1200,1906A,106.0789,30.8023,南充市,南充市委,,35,12,23,8,16,111,,64,64,7,13,6,6,0.4,0.4
2025-05-29T1200,1907A,106.1031,30.8217,南充市,南充炼油厂,,34,19,27,9,20,107,,63,63,6,12,6,6,0.4,0.4
2025-05-29T1200,4227A,106.1083,30.7884,南充市,梨树横街98号,,33,10,27,9,18,104,,70,70,4,10,6,5,0.3,0.3
2025-05-29T1200,4304A,106.1172,30.843,南充市,清泉寺北路188号,,32,18,25,3,16,102,,60,60,7,11,7,5,0.4,0.4
2025-05-29T1200,4305A,106.067,30.7616,南充市,同庆路1号,,33,21,26,14,18,104,,68,68,6,10,4,5,0.2,0.3
2025-05-29T1200,1151A,118.8086,32.1065,南京市,迈皋桥,臭氧1小时,57,45,50,29,33,165,,101,101,5,14,4,5,0.4,0.5
2025-05-29T1200,1152A,118.7538,32.0551,南京市,草场门,臭氧1小时,62,46,52,24,32,169,,105,105,14,18,2,3,0.3,0.4
2025-05-29T1200,1153A,118.7794,32.0745,南京市,山西路,臭氧1小时,82,63,60,27,32,185,,112,112,2,9,5,5,0.2,0.3
2025-05-29T1200,1154A,118.7752,32.0023,南京市,中华门,,50,44,52,24,33,159,,98,98,8,14,4,3,0.4,0.5
2025-05-29T1200,1155A,118.8109,32.0309,南京市,瑞金路,,50,44,56,24,33,160,,96,96,6,10,6,6,0.3,0.3
2025-05-29T1200,1156A,118.7997,32.0754,南京市,玄武湖,,48,45,51,24,28,153,,93,93,8,11,4,4,0.5,0.5
2025-05-29T1200,1157A,118.6414,32.0931,南京市,浦口,,50,44,49,30,29,158,,91,91,15,21,4,4,0.5,0.5
2025-05-29T1200,1158A,118.7356,31.9996,南京市,奥体中心,,,47,58,27,33,171,,106,106,,18,,7,0.3,0.3
2025-05-29T1200,1159A,118.9125,32.1028,南京市,仙林大学城,颗粒物(PM10),54,58,60,24,29,160,,98,98,10,14,8,9,0.5,0.5
2025-05-29T1200,3422A,118.8436,31.9198,南京市,江宁彩虹桥,臭氧1小时,59,45,52,29,32,167,,95,95,10,19,3,4,0.3,0.4
2025-05-29T1200,3427A,118.8554,32.3578,南京市,六合雄州,,,48,59,35,36,173,,76,76,24,36,8,8,,0.6
2025-05-29T1200,4249A,118.8708,31.3402,南京市,汶溪路181号,颗粒物(PM10),51,52,47,12,28,144,,98,98,10,20,3,4,0,0.2
2025-05-29T1200,4312A,119.019,31.6512,南京市,中山西路1号,,45,29,45,22,28,143,,78,78,6,14,6,8,0.3,0.5
2025-05-29T1200,1401A,108.3103,22.7881,南宁市,二十一中,,20,20,24,6,15,35,,40,37,20,19,4,3,0.7,0.7
2025-05-29T1200,1402A,108.3141,22.8528,南宁市,北湖,,,8,28,3,15,50,,39,39,12,17,9,6,,0.6
2025-05-29T1200,1403A,108.3206,22.8225,南宁市,市监测站,,13,11,27,9,18,36,,31,28,14,15,3,2,0.6,0.7
2025-05-29T1200,1404A,108.3829,22.8037,南宁市,大自然花园,,14,10,11,9,19,44,,45,44,11,13,4,4,0.6,0.6
2025-05-29T1200,1405A,108.4394,22.7904,南宁市,仙葫,,16,12,23,3,14,51,,46,46,6,11,10,9,0.7,0.7
2025-05-29T1200,1406A,108.2397,22.8467,南宁市,区农职院,,14,14,30,6,16,35,,28,28,8,16,4,4,1.0,1.1
2025-05-29T1200,1407A,108.3275,22.735,南宁市,英华嘉园,,15,9,21,8,14,45,,44,44,12,13,6,6,0.5,0.5
2025-05-29T1200,3401A,108.4834,22.7618,南宁市,红星社区,,,11,23,7,16,58,,53,53,4,8,2,8,,0.4
2025-05-29T1200,4221A,108.2177,22.7774,南宁市,乐贤路16号,,25,25,24,16,19,37,,30,30,12,25,19,6,0.6,0.6
2025-05-29T1200,2331A,118.0966,26.6761,南平市,茫荡山,,,,,,,,,,,,,,,,
2025-05-29T1200,2332A,118.1681,26.6369,南平市,南平市监测站,,22,6,3,3,6,69,,80,74,6,6,4,4,0.4,0.6
2025-05-29T1200,2333A,118.1825,26.6489,南平市,南平铝业有限公司,,23,9,6,6,5,72,,83,75,6,7,3,3,0.5,0.5
2025-05-29T1200,2334A,118.1756,26.6272,南平市,南平七中,,22,18,8,3,6,68,,77,71,7,6,8,7,0.6,0.6
2025-05-29T1200,1168A,120.9098,31.9663,南通市,狼山街道,,47,35,42,27,31,150,,90,90,8,17,6,6,0.6,0.6
2025-05-29T1200,1169A,120.86,32.0005,南通市,虹桥,细颗粒物(PM2.5),53,43,43,37,34,161,,106,106,16,19,6,4,0.5,0.5
2025-05-29T1200,1170A,120.87,32.02,南通市,城中,颗粒物(PM10),53,55,49,33,32,157,,103,103,13,16,8,5,0.6,0.6
2025-05-29T1200,1171A,120.94,31.93,南通市,星湖花园,,45,32,37,25,29,141,,89,89,10,19,6,6,0.3,0.4
2025-05-29T1200,1172A,120.81,32.0417,南通市,紫琅学院,,,56,45,32,28,146,,86,86,13,18,,6,0.4,0.5
2025-05-29T1200,3291A,121.067,32.062,南通市,通州监测站,细颗粒物(PM2.5),58,51,53,41,40,152,,111,111,8,11,7,6,0.3,0.3
2025-05-29T1200,3432A,120.9348,31.9883,南通市,环境教育馆,,49,44,53,31,36,154,,91,91,9,20,5,4,0.3,0.3
2025-05-29T1200,2404A,112.5224,33.0122,南阳市,瓦房庄,,,,71,32,32,186,,128,128,10,8,7,7,0.5,0.5
2025-05-29T1200,2405A,112.5003,32.9735,南阳市,汉画馆,臭氧1小时,62,60,67,31,33,169,,113,113,12,15,6,5,0.6,0.5
2025-05-29T1200,2406A,112.5573,33.027,南阳市,气象站,臭氧1小时,72,68,80,36,34,177,,122,122,7,11,5,5,0.4,0.5
2025-05-29T1200,2407A,112.5481,32.9689,南阳市,理工学院,臭氧1小时,68,65,69,27,30,174,,110,110,6,17,5,5,0.6,0.6
2025-05-29T1200,4008A,112.5234,32.9922,南阳市,卧龙区政府,臭氧1小时,67,54,65,39,37,173,,120,120,11,16,5,5,0.5,0.5
2025-05-29T1200,1234A,121.8358,29.911,宁波市,区环保大楼,,40,27,24,14,15,127,,81,81,12,20,9,8,0.3,0.4
2025-05-29T1200,1235A,121.56,29.82,宁波市,万里学院,,46,23,24,19,21,145,,74,74,15,21,4,4,0.5,0.5
2025-05-29T1200,1236A,121.713,29.9572,宁波市,龙赛医院,,41,15,31,13,14,129,,80,80,2,12,8,8,0.3,0.4
2025-05-29T1200,1239A,121.633,29.7733,宁波市,钱湖水厂,,44,16,28,10,19,139,,77,77,10,12,8,9,0.4,0.4
2025-05-29T1200,1240A,121.5856,29.8635,宁波市,太古小学,,44,21,30,16,16,140,,94,94,13,17,8,7,0.4,0.4
2025-05-29T1200,1241A,121.524,29.8674,宁波市,市环境监测中心,,41,20,26,17,16,129,,85,85,14,22,10,10,0.5,0.5
2025-05-29T1200,2871A,121.6147,29.9017,宁波市,万里国际学校,,41,17,23,16,18,129,,83,83,15,21,7,6,0.3,0.3
2025-05-29T1200,3710A,121.5594,29.8975,宁波市,白沙活动中心,,43,19,20,13,15,135,,94,94,7,11,9,9,0.4,0.4
2025-05-29T1200,2339A,119.5001,26.6946,宁德市,金涵水库,,,,,,,,,,,,,,,,
2025-05-29T1200,2341A,119.5388,26.6612,宁德市,宁德市监测站,,19,14,6,7,8,60,,70,64,18,12,4,4,0.4,0.4
2025-05-29T1200,3209A,119.5231,26.6562,宁德市,宁德一中,,21,10,6,3,8,67,,79,76,16,6,4,4,0.4,0.4
2025-05-29T1200,2618A,98.8601,25.8567,怒江傈僳族自治州,州监测站,,16,13,15,7,10,50,,26,26,4,5,8,8,0.3,0.4
2025-05-29T1200,2619A,98.8546,25.8417,怒江傈僳族自治州,泸水一中,,20,15,14,14,8,36,,10,10,6,12,6,6,0.3,0.5
2025-05-29T1200,1888A,101.6891,26.571,攀枝花市,弄弄坪,,33,33,27,17,15,70,,38,38,12,23,17,11,0.7,1.1
2025-05-29T1200,1889A,101.5769,26.5928,攀枝花市,河门口,,32,28,15,22,12,58,,41,41,21,17,26,10,1.6,0.9
2025-05-29T1200,1890A,101.7169,26.585,攀枝花市,炳草岗,,23,19,31,12,20,72,,32,32,13,30,34,16,0.9,1.2
2025-05-29T1200,1891A,101.7369,26.5008,攀枝花市,仁和,细颗粒物(PM2.5),64,57,13,46,9,72,,47,47,9,10,18,8,0.8,0.7
2025-05-29T1200,2835A,101.7227,26.567,攀枝花市,四十中小,,29,22,21,20,15,71,,41,41,18,25,19,15,1.0,1.4
2025-05-29T1200,1604A,122.0303,41.1489,盘锦市,开发区,臭氧1小时,58,43,31,21,28,166,,128,128,14,17,12,12,0.9,0.9
2025-05-29T1200,1605A,122.0485,41.0883,盘锦市,兴隆台,臭氧1小时,53,47,37,21,30,162,,130,130,10,19,8,8,0.4,0.5
2025-05-29T1200,1606A,121.8297,41.1028,盘锦市,新生街道,,46,42,27,18,27,147,,127,127,37,25,9,8,0.4,0.4
2025-05-29T1200,1832A,113.3257,33.742,平顶山市,新华旅馆,臭氧1小时,100,73,130,26,46,200,,92,92,11,28,5,8,0.5,0.6
2025-05-29T1200,1833A,113.2919,33.737,平顶山市,规划设计院,臭氧1小时,93,81,119,42,59,194,,108,108,9,28,4,7,0.6,0.9
2025-05-29T1200,1834A,113.182,33.774,平顶山市,平顶山工学院,臭氧1小时,98,89,93,53,43,198,,128,128,9,15,5,5,0.6,0.5
2025-05-29T1200,3204A,113.3025,33.73,平顶山市,规划局,臭氧1小时,89,92,132,31,43,191,,98,98,11,25,5,8,0.6,0.6
2025-05-29T1200,3594A,112.8867,33.9116,平顶山市,石龙区,臭氧1小时,93,99,146,38,45,194,,94,94,12,44,8,12,0.6,0.6
2025-05-29T1200,2656A,106.6692,35.5461,平凉市,聚贤嘉苑,,,,,,,,,,,,,,,,
2025-05-29T1200,2657A,106.7021,35.5307,平凉市,博物馆,,45,45,61,15,23,119,,76,76,5,17,11,11,0.7,0.9
2025-05-29T1200,2347A,114.0997,27.5002,萍乡市,武功山,,26,,3,7,4,81,,70,70,4,4,8,9,0.3,0.3
2025-05-29T1200,2348A,113.8385,27.6434,萍乡市,中医院,,35,22,28,15,20,112,,76,76,4,6,12,20,0.5,0.6
2025-05-29T1200,2349A,113.8493,27.6253,萍乡市,市政府车库,,31,,16,14,21,99,,71,71,3,7,8,10,0.3,0.6
2025-05-29T1200,2350A,113.8676,27.6435,萍乡市,市环保局,,33,19,24,6,18,104,,77,77,1,3,7,13,0.5,0.5
2025-05-29T1200,2351A,113.866,27.6198,萍乡市,安源区政府,,,,22,9,12,94,,68,68,7,10,3,4,0.8,1.1
2025-05-29T1200,2319A,119.0141,25.4325,莆田市,荔城区仓后路,,22,10,12,3,7,68,,55,54,11,14,2,3,0.6,0.5
2025-05-29T1200,2320A,119.0015,25.4553,莆田市,莆田市监测站,,23,9,12,3,7,71,,58,58,8,12,2,3,0.5,0.5
2025-05-29T1200,2321A,119.1119,25.4561,莆田市,涵江区六中,,20,10,12,3,6,63,,51,51,17,24,3,3,0.6,0.6
2025-05-29T1200,2322A,119.1013,25.3215,莆田市,秀屿区政府,,27,14,9,3,1,86,,81,80,10,10,2,4,0.5,0.6
2025-05-29T1200,2323A,118.981,25.4792,莆田市,东圳水库,,,,,,,,,,,,,,,,
2025-05-29T1200,2392A,115.0312,35.7636,濮阳市,环保局,臭氧1小时,95,55,59,33,35,196,,138,138,12,18,6,7,0.7,0.7
2025-05-29T1200,2394A,115.0574,35.7609,濮阳市,油田运输公司,臭氧1小时,100,60,65,34,33,200,,134,134,11,18,8,13,0.7,0.7
2025-05-29T1200,3021A,115,35.7668,濮阳市,濮水河管理处,臭氧1小时,95,57,58,29,34,196,,128,128,11,22,6,6,0.7,0.8
2025-05-29T1200,4216A,115.0924,35.7686,濮阳市,任丘路479号,臭氧1小时,98,60,66,37,35,198,,134,134,8,17,8,9,0.8,0.8
2025-05-29T1200,2601A,100.98,22.7633,普洱市,市环保局,,22,22,24,13,13,44,,38,38,3,5,4,4,0.5,0.5
2025-05-29T1200,2602A,100.9817,22.8322,普洱市,普洱第二中学,,,18,11,9,11,45,,31,31,3,6,5,5,,0.5
2025-05-29T1200,2262A,131.0518,45.8751,七台河市,新一中,臭氧1小时,68,20,32,13,19,174,,104,104,7,16,10,10,0.8,0.8
2025-05-29T1200,3345A,131.0577,45.7879,七台河市,中波台,,46,43,34,11,9,145,,61,61,10,25,7,7,0.4,0.4
2025-05-29T1200,3637A,131.0176,45.7761,七台河市,人民广场,,47,44,52,31,29,150,,80,80,8,21,12,12,0.5,0.6
2025-05-29T1200,3684A,130.8781,45.8222,七台河市,新建矿广场,,48,44,71,10,19,153,,80,80,10,23,8,12,0.3,0.4
2025-05-29T1200,1779A,123.9305,47.3636,齐齐哈尔市,安居小区,颗粒物(PM10),74,97,72,25,29,167,,154,154,16,15,8,6,0.6,0.6
2025-05-29T1200,1780A,123.9488,47.3386,齐齐哈尔市,中心广场,颗粒物(PM10),91,131,89,27,31,175,,158,158,18,16,8,8,0.5,0.5
2025-05-29T1200,1781A,123.9483,47.3227,齐齐哈尔市,农牧车辆厂,颗粒物(PM10),79,107,79,34,25,163,,149,149,11,11,7,7,0.1,0.2
2025-05-29T1200,1783A,123.945,47.2988,齐齐哈尔市,市环境监测站,颗粒物(PM10),73,96,64,25,28,170,,155,155,8,10,4,4,0.3,0.3
2025-05-29T1200,3662A,123.6333,47.2075,齐齐哈尔市,富区青少年活动中心,颗粒物(PM10),72,93,79,48,46,167,,146,146,7,9,4,4,0.5,0.5
2025-05-29T1200,2591A,107.9783,26.5747,黔东南苗族侗族自治州,市环境监测站,,30,18,10,13,7,96,,64,64,6,6,1,1,0.4,0.5
2025-05-29T1200,2881A,107.8908,26.5311,黔东南苗族侗族自治州,凯里学院,,29,14,5,10,7,90,,65,65,7,7,3,2,0.4,0.4
2025-05-29T1200,2593A,107.5228,26.2403,黔南布依族苗族自治州,小围寨,,21,,5,12,1,65,,48,48,5,5,3,2,0.4,0.4
2025-05-29T1200,3538A,107.5175,26.2978,黔南布依族苗族自治州,沙坝,,,12,8,,1,87,,65,65,4,4,3,3,0.4,0.4
2025-05-29T1200,2589A,104.9022,25.0925,黔西南布依族苗族自治州,场坝街,,,29,16,9,6,64,,57,55,,16,2,2,0.4,0.3
2025-05-29T1200,2590A,104.8811,25.0992,黔西南布依族苗族自治州,坪东大道,,19,19,13,6,7,53,,45,45,11,14,2,1,0.2,0.2
2025-05-29T1200,2502A,108.6236,21.9667,钦州市,市环保站,,17,17,32,7,10,50,,36,27,8,15,4,5,1.2,0.6
2025-05-29T1200,2503A,108.6549,21.9481,钦州市,沙埠小学,,28,28,43,11,16,43,,24,24,12,27,5,7,0.7,0.5
2025-05-29T1200,2504A,108.5989,21.7431,钦州市,港区一小,,38,38,49,24,18,32,,39,28,22,20,8,9,1.3,0.6
2025-05-29T1200,3404A,108.5959,21.9633,钦州市,北职校,,16,16,33,11,13,48,,24,24,7,17,6,7,0.6,0.8
2025-05-29T1200,1043A,119.7493,40.0116,秦皇岛市,第一关,,44,41,53,28,27,138,,80,80,8,43,4,4,0.3,0.3
2025-05-29T1200,1044A,119.5897,39.9499,秦皇岛市,监测站,颗粒物(PM10),51,51,52,24,24,138,,86,86,14,32,4,3,0.4,0.3
2025-05-29T1200,1046A,119.5251,39.9041,秦皇岛市,建设大厦,颗粒物(PM10),51,51,52,21,21,137,,65,65,10,36,3,3,0.4,0.3
2025-05-29T1200,3132A,119.610547,39.943889,秦皇岛市,文明里,,50,50,55,3,15,136,,98,98,11,27,3,3,0.3,0.2
2025-05-29T1200,4198A,119.5090,39.8253,秦皇岛市,北戴河轮滑馆,颗粒物(PM10),51,52,39,27,27,131,,102,99,6,11,4,3,0.4,0.3
2025-05-29T1200,1307A,120.6659,36.2403,青岛市,仰口,臭氧1小时,54,33,26,25,21,163,,146,143,7,7,8,8,0.5,0.4
2025-05-29T1200,1310A,120.4134,36.0658,青岛市,市南区东部子站,,36,29,20,17,12,113,,122,121,14,10,9,8,0.3,0.3
2025-05-29T1200,1311A,120.3664,36.1032,青岛市,四方区子站,,50,24,20,17,14,160,,142,142,16,16,4,4,0.6,0.5
2025-05-29T1200,1312A,120.2994,36.054,青岛市,市南区西部子站,,32,31,21,22,13,99,,102,102,30,21,9,8,0.7,0.6
2025-05-29T1200,1313A,120.4581,36.0858,青岛市,崂山区子站,,34,22,16,17,10,106,,113,113,25,12,9,7,0.5,0.5
2025-05-29T1200,1315A,120.3999,36.3083,青岛市,城阳区子站,臭氧1小时,54,31,24,17,13,163,,137,137,15,15,5,5,0.5,0.4
2025-05-29T1200,1966A,120.0405,35.8735,青岛市,黄岛区4号,,43,27,21,17,10,135,,131,130,11,10,9,8,0.6,0.6
2025-05-29T1200,3362A,120.5014,36.4034,青岛市,即墨2号,臭氧1小时,82,51,39,30,21,185,,121,121,12,15,8,8,0.6,0.6
2025-05-29T1200,3642A,120.3503,36.0736,青岛市,市北区南部,,38,27,23,14,11,120,,115,115,12,12,8,8,0.4,0.4
2025-05-29T1200,3643A,120.3948,36.1805,青岛市,李沧区北部,,,29,24,19,16,162,,134,134,9,19,,7,0.5,0.5
2025-05-29T1200,4290A,120.1969,35.9546,青岛市,珠江路669号,,42,17,18,12,12,133,,126,126,4,6,7,7,0.5,0.5
2025-05-29T1200,1702A,113.0426,23.691,清远市,环保大楼,,14,,61,6,35,43,,72,51,17,19,6,8,1.0,0.9
2025-05-29T1200,1703A,113.0208,23.7106,清远市,凤城街办,,15,,44,3,30,26,,57,41,30,25,8,9,0.8,0.7
2025-05-29T1200,3025A,113.0477,23.6344,清远市,技师学院,,12,6,49,3,33,38,,59,47,18,22,6,8,0.7,0.7
2025-05-29T1200,3318A,112.9903,23.7403,清远市,清新太和,,12,6,42,3,30,26,,47,36,24,21,8,9,0.8,0.7
2025-05-29T1200,3455A,113.076,23.7198,清远市,清城东城,,12,6,51,3,38,37,,49,44,14,16,7,8,0.6,0.6
2025-05-29T1200,2661A,107.6325,35.7357,庆阳市,庆阳五中,,48,48,43,19,23,139,,126,122,9,11,4,4,0.4,0.4
2025-05-29T1200,2662A,107.6364,35.7067,庆阳市,市环保局,,45,45,44,18,20,143,,128,126,6,7,9,10,0.5,0.5
2025-05-29T1200,1916A,103.7897,25.5035,曲靖市,环境监测站,,18,14,14,11,8,56,,52,49,19,17,3,4,0.6,0.7
2025-05-29T1200,1917A,103.8,25.5364,曲靖市,烟厂办公区,,20,13,13,7,8,62,,55,51,13,15,4,4,0.7,0.8
2025-05-29T1200,3376A,103.7947,25.462,曲靖市,南苑二区,,22,9,13,8,7,68,,58,58,12,16,3,4,0.6,0.7
2025-05-29T1200,3377A,103.7444,25.5261,曲靖市,曲靖师范学院,,22,11,11,10,9,70,,57,56,8,12,6,6,0.5,0.6
2025-05-29T1200,1264A,118.8692,28.9398,衢州市,环保大楼,,39,18,30,13,24,122,,76,76,11,15,3,3,0.3,0.4
2025-05-29T1200,1265A,118.8709,28.9666,衢州市,实验学校,,39,22,29,18,22,123,,86,86,11,12,2,2,0.3,0.3
2025-05-29T1200,1266A,118.8621,28.9808,衢州市,衢州学院,,,,30,,24,,,72,72,,12,,6,,0.4
2025-05-29T1200,1611A,118.5819,24.9117,泉州市,涂山街,,25,8,7,6,7,77,,73,73,11,11,4,4,0.7,0.7
2025-05-29T1200,1612A,118.5972,24.8978,泉州市,津头埔,,,9,8,6,9,74,,72,71,16,16,2,2,,0.6
2025-05-29T1200,1613A,118.6663,24.9424,泉州市,万安,,23,22,11,9,8,71,,75,73,9,7,3,4,0.6,0.5
2025-05-29T1200,1614A,118.6117,24.9604,泉州市,清源山,,,,,,,,,,,,,,,,
2025-05-29T1200,3529A,118.6333,24.9264,泉州市,城华南路,,20,7,14,3,7,63,,61,61,14,13,2,3,0.5,0.5
2025-05-29T1200,2626A,88.8876,29.2718,日喀则市,日喀则监测站,,31,,14,14,7,98,,71,71,4,11,14,14,0.0,0.2
2025-05-29T1200,3726A,88.8781,29.2426,日喀则市,林业技术推广中心,,31,6,11,3,2,98,,82,82,3,4,8,7,0.5,0.5
2025-05-29T1200,1659A,119.471,35.4209,日照市,监测站,颗粒物(PM10),56,61,36,26,19,129,,72,72,37,31,11,7,0.6,0.5
2025-05-29T1200,1660A,119.523,35.4216,日照市,市政府广场,,45,36,27,10,13,141,,104,100,9,10,8,5,0.5,0.5
2025-05-29T1200,1661A,119.5587,35.4044,日照市,港务局,,43,31,24,25,21,136,,124,121,11,9,10,7,0.4,0.4
2025-05-29T1200,3507A,119.5328,35.4625,日照市,职业技术学院,,,46,29,12,12,146,,120,120,16,12,8,5,,0.5
2025-05-29T1200,3604A,119.3266,35.1044,日照市,岚山环保分局,,50,48,39,24,18,158,,123,123,21,21,12,8,0.7,0.6
2025-05-29T1200,1835A,111.1922,34.7752,三门峡市,市政府,臭氧1小时,98,80,75,38,43,198,,150,150,11,18,7,12,0.7,0.6
2025-05-29T1200,1836A,111.1587,34.7942,三门峡市,开发区,臭氧1小时,101,64,69,36,37,202,,161,161,17,17,10,9,0.7,0.6
2025-05-29T1200,1838A,111.143,34.7955,三门峡市,风景区,臭氧1小时,105,116,67,39,35,210,,169,169,12,12,12,11,0.6,0.5
2025-05-29T1200,3039A,111.1911,34.7829,三门峡市,三门峡市第一小学,臭氧1小时,104,103,77,33,37,207,,163,163,12,18,11,11,0.6,0.6
2025-05-29T1200,3598A,111.1,34.7167,三门峡市,富达温泉假日酒店,臭氧1小时,101,57,73,29,36,201,,167,167,10,12,,8,,0.4
2025-05-29T1200,2324A,117.6211,26.2625,三明市,三钢,,26,,6,18,4,62,,62,62,9,9,3,2,0.8,0.8
2025-05-29T1200,2325A,117.635,26.2714,三明市,三明二中,,20,13,5,3,4,61,,62,61,7,7,4,3,1.1,1.1
2025-05-29T1200,2326A,117.6028,26.2378,三明市,三元区政府,,21,11,5,3,5,65,,64,64,9,10,4,3,0.4,1
2025-05-29T1200,2327A,117.7275,26.3108,三明市,洋溪,,,,,,,,,,,,,,,,
2025-05-29T1200,1876A,109.5078,18.2489,三亚市,河东子站,,13,,15,3,11,39,,26,26,4,3,3,3,0.6,0.5
2025-05-29T1200,1877A,109.4964,18.2681,三亚市,河西子站,,13,7,13,6,11,41,,27,27,6,6,3,3,0.2,0.2
2025-05-29T1200,3540A,109.7348,18.3443,三亚市,君悦子站,,15,6,16,3,7,45,,30,30,6,5,2,2,0.3,0.4
2025-05-29T1200,2624A,91.7608,29.2313,山南市,山南监测站,,24,10,9,3,4,76,,76,68,6,5,11,10,0.3,0.3
2025-05-29T1200,2625A,91.7706,29.2436,山南市,山南人民医院,,29,29,15,9,7,74,,76,69,7,5,6,5,0.4,0.4
2025-05-29T1200,1674A,116.6794,23.3667,汕头市,金平子站,,24,6,14,3,15,75,,69,69,20,19,3,3,0.5,0.5
2025-05-29T1200,1675A,116.7244,23.3633,汕头市,龙湖子站,,23,6,15,6,12,71,,67,67,12,11,4,4,0.5,0.5
2025-05-29T1200,1676A,116.7258,23.2775,汕头市,濠江子站,,27,,14,6,14,84,,72,72,5,9,4,4,0.5,0.6
2025-05-29T1200,1677A,116.7519,23.4714,汕头市,澄海子站,,25,,17,7,16,77,,67,67,13,15,2,2,0.6,0.6
2025-05-29T1200,1678A,116.6092,23.2539,汕头市,潮阳子站,,26,,16,8,16,82,,74,74,9,11,3,3,0.5,0.5
2025-05-29T1200,3444A,116.454,23.2684,汕头市,潮南峡山,,24,6,24,3,15,74,,64,64,10,10,4,5,0.6,0.6
2025-05-29T1200,3624A,116.4069,23.2533,汕头市,潮南子站,,20,10,31,7,23,61,,55,55,16,15,3,4,0.7,0.7
2025-05-29T1200,1693A,115.3653,22.775,汕尾市,市环保局,,31,31,31,19,20,69,,55,53,14,13,2,2,0.6,0.6
2025-05-29T1200,1694A,115.3706,22.7898,汕尾市,市政府,,39,32,30,27,32,67,,51,51,14,13,5,5,0.6,0.5
2025-05-29T1200,1695A,115.3622,22.7925,汕尾市,新城中学,,45,45,37,19,22,71,,54,54,12,12,2,3,0.5,0.6
2025-05-29T1200,2645A,109.9154,33.8715,商洛市,监测站,臭氧1小时,79,50,49,33,33,183,,98,98,12,19,10,9,0.7,0.6
2025-05-29T1200,3045A,109.9643,33.8471,商洛市,商州区中学,臭氧1小时,75,69,60,32,32,180,,89,89,12,29,7,7,0.7,0.6
2025-05-29T1200,2408A,115.6702,34.4285,商丘市,环境监测站,臭氧1小时,83,54,72,38,39,186,,119,119,10,19,5,5,0.3,0.2
2025-05-29T1200,2409A,115.6458,34.4045,商丘市,粮食局,臭氧1小时,89,63,67,54,45,191,,135,135,9,16,3,4,0.5,0.5
2025-05-29T1200,2410A,115.6293,34.3948,商丘市,睢阳区环保局,臭氧1小时,89,87,75,31,43,191,,137,137,10,16,1,3,0.5,0.5
2025-05-29T1200,3171A,115.6071,34.4465,商丘市,梁园区档案局,臭氧1小时,84,67,64,26,43,187,,129,129,11,17,3,4,0.5,0.5
