timepoint,stationcode,longitude,latitude,area,positionname,primarypollutant,aqi,pm10,pm10_24h,pm2_5,pm2_5_24h,o3,o3_24h,o3_8h,o3_8h_24h,no2,no2_24h,so2,so2_24h,co,co_24h
2025-05-29T1800,2566A,102.1879,31.914,阿坝藏族羌族自治州,州农科所,,24,6,14,3,8,76,,76,76,5,7,11,11,0.4,0.5
2025-05-29T1800,2568A,102.2502,31.8896,阿坝藏族羌族自治州,马师校,,31,12,19,9,15,97,,95,95,7,10,5,5,0.4,0.5
2025-05-29T1800,3994A,102.2165,31.9024,阿坝藏族羌族自治州,马尔康中学西区,,,7,16,3,15,104,,98,98,4,7,5,5,,0.4
2025-05-29T1800,2695A,80.292,41.1694,阿克苏地区,电视台,颗粒物(PM10),184,318,111,121,48,97,,86,86,8,16,7,3,0.5,0.6
2025-05-29T1800,2696A,80.2613,41.1551,阿克苏地区,艺术中心,颗粒物(PM10),191,332,127,114,44,100,,,,2,22,4,4,0.5,0.7
2025-05-29T1800,2204A,105.6467,38.8363,阿拉善盟,西城区西花园,,50,47,195,30,69,157,,130,130,10,9,6,6,0.7,0.7
2025-05-29T1800,2205A,105.6985,38.8411,阿拉善盟,蒙二幼,,,,275,,70,134,,110,110,8,8,10,10,0.4,0.4
2025-05-29T1800,2206A,105.724,38.8516,阿拉善盟,环保局新楼,颗粒物(PM10),60,69,227,26,68,144,,119,119,8,6,10,10,0.5,0.5
2025-05-29T1800,2708A,88.1264,47.8517,阿勒泰地区,市站,,31,14,11,6,6,97,,93,93,3,3,2,2,0.1,0.1
2025-05-29T1800,2630A,80.1161,32.5,阿里地区,阿里监测站,,44,25,17,13,9,138,,163,150,5,3,7,6,0.3,0.3
2025-05-29T1800,3192A,80.0903,32.5028,阿里地区,阿里藏医院,,46,21,26,10,9,147,,177,160,4,4,6,6,0.3,0.4
2025-05-29T1800,2642A,109.0318,32.6537,安康市,香溪洞,,44,44,40,22,24,125,,125,125,5,7,8,10,0.4,0.4
2025-05-29T1800,2644A,109.0072,32.6975,安康市,汉滨区检察院,,43,29,34,21,24,135,,134,134,7,10,10,17,0.6,0.6
2025-05-29T1800,4054A,109.0325,32.6913,安康市,市邮政管理局,,41,30,41,23,28,130,,132,132,7,14,14,16,0.5,0.6
2025-05-29T1800,2291A,117.0809,30.5177,安庆市,环科院,臭氧1小时,68,36,35,24,26,174,,156,156,8,32,4,3,0.4,0.5
2025-05-29T1800,2292A,117.0331,30.5119,安庆市,马山宾馆,臭氧1小时,67,43,37,20,27,173,,159,159,11,20,5,6,0.3,0.6
2025-05-29T1800,2294A,116.9896,30.6145,安庆市,安庆大学,臭氧1小时,63,38,33,22,26,170,,158,158,8,13,4,4,0.3,0.4
2025-05-29T1800,3173A,117.0598,30.5351,安庆市,市人大,臭氧1小时,73,51,41,22,27,178,,167,167,11,20,10,10,0.4,0.5
2025-05-29T1800,3122A,105.9606,26.2611,安顺市,伍家关,,26,22,15,18,8,73,,45,,8,7,6,3,0.5,0.5
2025-05-29T1800,3123A,105.9408,26.2431,安顺市,凤凰山,,32,27,20,22,21,90,,75,75,12,12,21,10,0.4,0.4
2025-05-29T1800,3124A,105.9439,26.2564,安顺市,金钟山,,33,23,18,23,17,84,,72,72,6,5,17,9,0.4,0.4
2025-05-29T1800,3125A,105.8983,26.2481,安顺市,娄家坡,,40,40,17,24,18,83,,71,71,7,10,15,11,0.5,0.5
2025-05-29T1800,1818A,114.4839,36.0621,安阳市,棉研所,,,,,,,,,,,,,,,,
2025-05-29T1800,1819A,114.3551,36.1017,安阳市,红庙街,臭氧1小时,100,62,70,23,38,200,,205,205,2,11,2,3,0.4,0.5
2025-05-29T1800,1820A,114.361,36.0681,安阳市,银杏小区,臭氧1小时,94,58,69,28,39,195,,203,203,11,28,2,5,0.3,0.4
2025-05-29T1800,3141A,114.3922,36.0878,安阳市,信访局,臭氧1小时,103,68,70,32,36,206,,211,211,5,20,2,5,0.5,0.6
2025-05-29T1800,3669A,114.4705,36.0637,安阳市,左辅环卫站,臭氧1小时,98,65,82,26,43,198,,200,200,2,21,3,4,0.4,0.6
2025-05-29T1800,3703A,114.2917,36.0949,安阳市,安钢职工学校,臭氧1小时,98,63,77,24,39,198,,195,195,2,13,2,4,0.3,0.5
2025-05-29T1800,1748A,123.044,41.1196,鞍山市,深沟寺,臭氧1小时,73,46,38,32,27,178,,178,178,22,13,10,7,0.8,0.8
2025-05-29T1800,1749A,123.011,41.0931,鞍山市,太阳城,臭氧1小时,60,57,39,34,26,168,,176,176,23,13,11,7,0.8,0.7
2025-05-29T1800,1750A,123.0485,41.1442,鞍山市,太平,颗粒物(PM10),58,66,50,35,29,165,,170,170,28,15,12,9,1.1,0.9
2025-05-29T1800,1751A,122.9642,41.0971,鞍山市,铁西三道街,臭氧1小时,59,60,52,38,31,167,,178,178,28,24,11,6,0.8,0.7
2025-05-29T1800,1753A,123.022,41.0821,鞍山市,明达新区,臭氧1小时,55,54,39,34,27,164,,169,169,21,12,10,7,0.6,0.6
2025-05-29T1800,1754A,123.1289,41.0228,鞍山市,千山,,,,28,,19,,,130,,,8,,5,,0.4
2025-05-29T1800,4201A,122.9446,41.0826,鞍山市,兴盛南路290号,颗粒物(PM10),61,71,55,38,29,158,,175,175,30,23,10,8,0.7,0.7
2025-05-29T1800,2195A,107.4212,40.761,巴彦淖尔市,附二中,颗粒物(PM10),69,87,95,29,31,162,,142,142,12,10,7,6,0.5,0.4
2025-05-29T1800,2196A,107.37,40.7372,巴彦淖尔市,市环保大楼,臭氧1小时,67,77,82,24,33,173,,153,153,17,12,7,6,0.3,0.3
2025-05-29T1800,1956A,86.1472,41.7538,巴音郭楞蒙古自治州,孔雀公园,颗粒物(PM10),137,223,224,70,61,98,,97,97,2,18,8,9,0.2,0.3
2025-05-29T1800,1957A,86.1972,41.7166,巴音郭楞蒙古自治州,棉纺厂,颗粒物(PM10),151,251,301,65,69,104,,105,105,6,13,3,5,0.3,0.3
2025-05-29T1800,1958A,86.2357,41.7173,巴音郭楞蒙古自治州,经济开发区,颗粒物(PM10),133,216,233,48,56,102,,104,104,5,6,8,10,0.3,0.3
2025-05-29T1800,2914A,106.7677,31.8794,巴中市,苏山坪,,33,15,16,8,12,105,,104,104,9,8,4,4,0.4,0.4
2025-05-29T1800,3181A,106.7768,31.8526,巴中市,市五中,,35,16,26,6,15,111,,106,106,8,15,7,7,0.5,0.5
2025-05-29T1800,3183A,106.7418,31.8654,巴中市,圣泉水务公司,,35,17,21,14,16,111,,108,108,8,20,5,4,0.5,0.5
2025-05-29T1800,3616A,106.7616,31.8344,巴中市,市中心医院,,33,15,23,7,17,105,,102,102,8,18,5,5,0.4,0.5
2025-05-29T1800,2235A,122.7911,45.6077,白城市,洮北区环保局,臭氧1小时,101,93,64,27,30,201,,198,198,14,12,7,6,0.4,0.4
2025-05-29T1800,2236A,122.8738,45.5725,白城市,市环保局,臭氧1小时,98,63,58,34,32,198,,195,195,7,7,6,6,0.8,0.8
2025-05-29T1800,2231A,126.4219,41.9171,白山市,喜丰,,42,31,73,13,22,132,,151,151,14,28,7,9,0.7,0.7
2025-05-29T1800,2232A,126.4077,41.9419,白山市,环保局,,40,26,40,21,24,128,,142,142,12,18,1,7,0.6,0.5
2025-05-29T1800,2647A,104.1724,36.5446,白银市,第三小学,颗粒物(PM10),55,60,35,16,17,108,,96,96,7,8,45,37,0.6,0.6
2025-05-29T1800,2648A,104.1465,36.5482,白银市,动力公司,,,,29,,14,,,98,98,,13,,39,,0.5
2025-05-29T1800,2512A,106.6103,23.9011,百色市,市监测站,,19,17,10,10,4,60,,48,48,11,8,5,3,0.7,0.6
2025-05-29T1800,2513A,106.6538,23.8859,百色市,市中心血站,,26,26,16,10,2,47,,45,45,21,10,6,3,0.7,0.7
2025-05-29T1800,3406A,106.6085,23.8798,百色市,祈福高中,,18,18,13,11,3,52,,44,44,14,8,11,5,0.7,0.6
2025-05-29T1800,2270A,117.396,32.939,蚌埠市,工人疗养院,臭氧1小时,87,47,70,20,36,189,,192,192,6,16,3,5,0.4,0.5
2025-05-29T1800,2271A,117.3605,32.9427,蚌埠市,百货大楼,臭氧1小时,83,54,67,21,37,186,,190,190,8,14,6,8,0.3,0.5
2025-05-29T1800,2273A,117.4185,32.8911,蚌埠市,蚌埠学院,臭氧1小时,79,36,56,27,43,183,,186,186,7,14,3,5,0.4,0.5
2025-05-29T1800,2274A,117.3533,32.9673,蚌埠市,淮上区政府,臭氧1小时,85,41,62,29,40,188,,200,200,12,19,6,7,0.4,0.5
2025-05-29T1800,2275A,117.3145,32.8977,蚌埠市,高新区,臭氧1小时,74,44,60,23,39,179,,186,186,14,17,4,6,0.4,0.6
2025-05-29T1800,3715A,117.3092,32.9314,蚌埠市,蚌埠田家炳中学,臭氧1小时,79,38,63,31,40,183,,192,192,8,12,5,6,0.3,0.4
2025-05-29T1800,1585A,109.8756,40.6532,包头市,市环境监测站,臭氧1小时,65,51,57,24,27,172,,170,170,15,21,8,13,0.4,0.6
2025-05-29T1800,1587A,109.9991,40.5842,包头市,包头八中,臭氧1小时,83,59,60,27,31,186,,177,177,14,22,12,20,0.6,0.7
2025-05-29T1800,1588A,109.8538,40.6821,包头市,青山宾馆,臭氧1小时,69,43,52,20,30,175,,172,172,9,19,8,12,0.5,0.7
2025-05-29T1800,1589A,109.8642,40.6288,包头市,惠龙物流,臭氧1小时,72,54,59,18,29,177,,174,174,13,20,7,11,0.4,0.5
2025-05-29T1800,1590A,110.0377,40.5546,包头市,东河鸿龙湾,臭氧1小时,82,67,63,22,25,185,,180,180,16,26,7,23,0.6,0.6
2025-05-29T1800,3283A,109.9154,40.5685,包头市,滨河大厦,臭氧1小时,74,68,59,17,23,179,,174,174,14,22,8,12,0.5,0.6
2025-05-29T1800,3419A,109.9447,40.6261,包头市,包头市委党校,臭氧1小时,75,64,57,29,26,180,,174,174,12,17,10,15,0.4,0.5
2025-05-29T1800,3683A,109.8331,40.6576,包头市,昆区政府,臭氧1小时,60,47,55,19,29,168,,167,167,16,22,7,11,0.6,0.7
2025-05-29T1800,1930A,107.185,34.3063,宝鸡市,庙沟村,,38,22,31,3,17,120,,149,147,6,13,8,10,0.6,0.6
2025-05-29T1800,1931A,107.0708,34.3017,宝鸡市,竹园沟,,36,14,30,8,20,114,,143,143,5,11,5,5,0.4,0.5
2025-05-29T1800,1932A,107.1906,34.3672,宝鸡市,三陆医院,,,25,47,,30,110,,146,142,7,32,6,9,0.3,0.5
2025-05-29T1800,1933A,107.1431,34.3547,宝鸡市,监测站,,35,27,35,7,16,110,,141,139,8,20,5,6,0.3,0.4
2025-05-29T1800,1934A,107.1186,34.3739,宝鸡市,技工学校,,36,25,47,8,25,115,,146,146,5,16,5,8,0.4,0.5
2025-05-29T1800,1935A,107.3906,34.3528,宝鸡市,陈仓区环保局家属楼,,44,32,48,12,26,138,,161,160,6,22,5,6,0.3,0.5
2025-05-29T1800,1936A,107.2058,34.3497,宝鸡市,文理学院,,36,13,38,3,23,114,,149,146,7,19,7,8,0.4,0.5
2025-05-29T1800,1937A,107.2386,34.3622,宝鸡市,三迪小学,,35,21,46,7,25,110,,150,147,8,24,7,9,0.3,0.4
2025-05-29T1800,1051A,115.493,38.8632,保定市,游泳馆,臭氧1小时,102,55,83,31,52,203,,219,219,9,24,3,6,0.3,0.4
2025-05-29T1800,1052A,115.5213,38.8959,保定市,华电二区,臭氧1小时,102,111,70,32,42,204,,204,204,3,15,3,3,0.3,0.6
2025-05-29T1800,1053A,115.4713,38.9108,保定市,接待中心,臭氧1小时,103,54,71,27,47,206,,216,216,8,19,2,6,0.1,0.5
2025-05-29T1800,1054A,115.4612,38.8416,保定市,地表水厂,臭氧1小时,94,66,90,26,47,195,,212,212,11,30,3,5,0.2,0.5
2025-05-29T1800,3581A,115.31981,38.95208,保定市,满城区生态环境分局,臭氧1小时,103,68,89,27,47,206,,224,224,10,22,3,4,0.1,0.3
2025-05-29T1800,3582A,115.47694,38.76408,保定市,清苑区第二中学,臭氧1小时,95,68,98,30,54,196,,219,219,11,24,2,5,0.5,0.6
2025-05-29T1800,3583A,115.62909,39.02311,保定市,徐水物探局,臭氧1小时,85,70,99,27,43,188,,207,207,6,26,1,3,0.4,0.5
2025-05-29T1800,4004A,115.4202,38.8656,保定市,双鹰农机,臭氧1小时,103,35,72,24,41,206,,223,223,8,21,3,5,0.2,0.4
2025-05-29T1800,4034A,115.5150,38.8590,保定市,植保所站,臭氧1小时,93,58,87,37,51,194,,213,213,4,24,6,6,0.5,0.6
2025-05-29T1800,2594A,99.1678,25.1081,保山市,市环境监测站,,20,,11,14,15,44,,44,44,10,8,8,7,0.6,0.5
2025-05-29T1800,2595A,99.1711,25.1328,保山市,市环保局,,15,9,11,3,7,46,,46,46,9,7,8,7,0.4,0.4
2025-05-29T1800,1866A,109.2262,21.588,北海市,牛尾岭水库,,20,17,19,10,11,63,,76,76,15,11,6,12,0.6,0.6
2025-05-29T1800,1867A,109.1436,21.4086,北海市,海滩公园,,24,21,21,3,6,74,,74,74,8,5,5,5,0.8,0.6
2025-05-29T1800,1868A,109.0981,21.4661,北海市,新市环保局,,27,24,24,12,12,84,,86,86,7,8,4,3,0.7,0.6
2025-05-29T1800,1869A,109.1778,21.5233,北海市,北海工业园,,27,27,23,12,12,82,,82,82,8,10,8,7,0.7,0.6
2025-05-29T1800,3400A,109.1911,21.4415,北海市,龙潭自来水厂,,28,20,16,16,11,88,,84,84,6,5,3,4,0.5,0.4
2025-05-29T1800,1001A,116.3621,39.8784,北京市,万寿西宫,臭氧1小时,118,53,82,26,47,235,,224,224,13,24,6,6,0.5,0.7
2025-05-29T1800,1002A,116.2202,40.2915,北京市,定陵,,,,,,,,,,,,,,,,
2025-05-29T1800,1003A,116.4174,39.9289,北京市,东四,臭氧1小时,119,55,83,24,47,238,,226,226,16,31,6,7,0.5,0.7
2025-05-29T1800,1004A,116.4072,39.8863,北京市,天坛,臭氧1小时,116,52,75,23,42,231,,220,220,11,21,5,5,0.5,0.7
2025-05-29T1800,1005A,116.462,39.9365,北京市,农展馆,臭氧1小时,107,56,79,28,45,214,,200,200,14,25,6,7,0.8,1
2025-05-29T1800,1006A,116.3392,39.9295,北京市,官园,臭氧1小时,104,52,85,26,46,208,,200,200,15,24,6,9,0.4,0.6
2025-05-29T1800,1007A,116.2878,39.9611,北京市,海淀万柳,臭氧1小时,108,59,87,26,50,216,,205,205,15,28,5,5,0.7,0.9
2025-05-29T1800,1008A,116.6636,40.135,北京市,顺义新城,臭氧1小时,106,52,81,25,48,211,,197,197,13,18,7,10,0.6,0.8
2025-05-29T1800,1009A,116.6275,40.3275,北京市,怀柔镇,臭氧1小时,106,41,79,23,48,211,,215,215,11,13,3,6,0.7,0.9
2025-05-29T1800,1010A,116.2296,40.217,北京市,昌平镇,臭氧1小时,108,52,80,23,50,215,,198,198,16,23,6,7,0.4,0.6
2025-05-29T1800,1011A,116.3966,39.9821,北京市,奥体中心,臭氧1小时,102,54,78,24,46,203,,194,194,15,28,6,6,0.7,0.9
2025-05-29T1800,3281A,115.9718,40.4529,北京市,延庆夏都,臭氧1小时,108,47,74,24,44,216,,206,206,13,19,6,6,0.6,0.7
2025-05-29T1800,3418A,116.8336,40.4095,北京市,密云新城,臭氧1小时,110,48,77,27,47,220,,214,214,20,17,4,5,0.4,0.7
2025-05-29T1800,3671A,116.088,39.9726,北京市,门头沟三家店,臭氧1小时,104,52,83,19,47,207,,209,209,5,18,5,3,0.4,0.6
2025-05-29T1800,3672A,116.1541,39.8204,北京市,丰台云岗,臭氧1小时,112,52,91,32,44,223,,214,214,15,28,6,6,0.4,0.5
2025-05-29T1800,3673A,116.6804,39.9081,北京市,通州东关,臭氧1小时,112,53,83,26,42,223,,215,215,14,19,4,7,0.4,0.9
2025-05-29T1800,3674A,115.9577,39.7603,北京市,房山燕山,臭氧1小时,107,54,72,39,46,213,,98,,11,14,4,5,0.6,0.6
2025-05-29T1800,3675A,116.4672,39.7733,北京市,大兴旧宫,臭氧1小时,112,51,90,22,44,224,,221,221,10,22,4,5,0.7,0.9
2025-05-29T1800,3694A,115.986,40.4563,北京市,延庆石河营,臭氧1小时,104,48,77,24,44,208,,198,198,11,19,3,3,0.6,0.7
2025-05-29T1800,3695A,116.6151,40.3053,北京市,怀柔新城,臭氧1小时,107,46,77,23,49,214,,217,217,16,13,3,6,0.5,0.8
2025-05-29T1800,3696A,116.2545,39.8768,北京市,丰台小屯,臭氧1小时,107,50,83,22,44,214,,204,204,15,27,5,5,0.6,0.7
2025-05-29T1800,3697A,116.84,40.3844,北京市,密云镇,臭氧1小时,113,52,82,31,47,226,,217,217,13,23,6,8,0.4,0.7
2025-05-29T1800,4182A,116.1942,39.9158,北京市,八角北路9号,臭氧1小时,106,52,93,22,47,212,,194,194,14,29,4,5,0.6,0.5
2025-05-29T1800,4194A,117.0790,40.1518,北京市,洳河巡河路,臭氧1小时,117,61,100,27,51,233,,209,209,8,9,4,9,0.6,1
2025-05-29T1800,1761A,123.8275,41.3064,本溪市,大峪,,47,38,45,18,24,149,,156,154,7,14,7,7,0.5,0.6
2025-05-29T1800,1762A,123.7567,41.3325,本溪市,溪湖,,48,38,51,22,31,152,,151,151,11,18,7,11,0.8,1.4
2025-05-29T1800,1763A,123.7169,41.3094,本溪市,彩屯,,45,39,52,27,33,144,,149,149,21,20,15,13,1.3,1.3
2025-05-29T1800,1764A,123.7669,41.2864,本溪市,东明,,50,46,47,31,24,158,,159,159,15,17,6,6,0.7,0.8
2025-05-29T1800,1765A,123.7992,41.2664,本溪市,新立屯,,45,43,38,21,23,144,,158,155,16,18,6,6,0.6,0.6
2025-05-29T1800,1766A,123.8142,41.3472,本溪市,威宁,,45,43,61,21,27,143,,151,150,11,25,6,6,0.4,0.5
2025-05-29T1800,2587A,105.2864,27.3125,毕节市,八中,,26,26,22,14,13,79,,91,91,8,8,8,6,0.5,0.5
2025-05-29T1800,2588A,105.31,27.2944,毕节市,师专,,28,28,23,17,14,79,,96,96,15,11,6,6,0.4,0.4
2025-05-29T1800,4263A,105.3688,27.3598,毕节市,工业大道,,22,20,21,15,15,66,,92,92,10,12,6,7,0.6,0.5
2025-05-29T1800,1629A,118.0018,37.3617,滨州市,第二水厂,臭氧1小时,122,70,66,31,34,243,,218,218,10,20,6,7,0.5,0.5
2025-05-29T1800,1630A,117.9776,37.393,滨州市,北中新校,臭氧1小时,118,58,57,27,32,236,,217,217,11,18,8,9,0.5,0.7
2025-05-29T1800,3514A,117.9378,37.3956,滨州市,中海酒店,臭氧1小时,124,51,58,34,34,247,,236,236,10,16,8,13,0.7,0.7
2025-05-29T1800,3515A,117.9378,37.3553,滨州市,开发区一中,臭氧1小时,108,58,60,31,31,216,,200,200,12,24,8,9,0.4,0.5
2025-05-29T1800,3516A,118.0917,37.694,滨州市,金海六路,臭氧1小时,133,76,63,34,27,266,,233,233,14,21,11,15,0.3,0.3
2025-05-29T1800,4028A,117.9956,37.3753,滨州市,滨州市西街道办事处,臭氧1小时,130,58,60,39,33,259,,234,234,13,18,9,10,0.6,0.6
2025-05-29T1800,2311A,115.8072,33.8399,亳州市,污水处理厂,臭氧1小时,93,59,77,30,42,194,,187,187,5,12,3,6,0.3,0.5
2025-05-29T1800,2312A,115.7789,33.8518,亳州市,三国揽胜宫,臭氧1小时,93,53,76,31,41,194,,188,188,11,15,6,8,0.5,0.6
2025-05-29T1800,3332A,115.7633,33.8034,亳州市,亳州学院,臭氧1小时,98,59,78,31,40,198,,149,149,8,14,4,4,0.4,0.5
2025-05-29T1800,2693A,82.0485,44.8556,博尔塔拉蒙古自治州,市党校,,37,22,63,6,21,116,,104,104,6,10,2,3,0.3,0.3
2025-05-29T1800,2694A,82.0806,44.8969,博尔塔拉蒙古自治州,市环保局,,36,17,57,10,16,115,,100,100,6,11,3,2,0.4,0.4
2025-05-29T1800,1071A,116.8842,38.2991,沧州市,沧县城建局,臭氧1小时,107,46,64,25,43,213,,206,206,12,26,3,4,0.4,0.4
2025-05-29T1800,1072A,116.8584,38.3254,沧州市,电视转播站,臭氧1小时,106,53,70,31,45,211,,199,199,10,21,3,3,0.3,0.4
2025-05-29T1800,1073A,116.8709,38.3228,沧州市,市环保局,臭氧1小时,100,73,80,33,46,200,,196,196,10,21,2,4,0.4,0.5
2025-05-29T1800,3324A,116.8136,38.3004,沧州市,河北水利电力学院,臭氧1小时,113,53,69,26,42,226,,218,218,12,25,6,8,0.3,0.4
2025-05-29T1800,2622A,97.1806,31.1273,昌都市,昌都监测站,,23,8,21,3,12,72,,79,79,1,12,4,4,0.1,0.3
2025-05-29T1800,3719A,97.1714,31.1406,昌都市,昌都会议中心,,21,15,26,7,13,66,,77,77,4,9,4,3,0.2,0.2
2025-05-29T1800,2690A,88.1236,43.8886,昌吉回族自治州,天山天池,,36,14,12,3,9,115,,102,102,6,5,6,5,0.5,0.5
2025-05-29T1800,2692A,87.2717,44.0297,昌吉回族自治州,新区政务中心,,40,17,35,3,14,126,,114,114,1,14,6,6,0.2,0.4
2025-05-29T1800,3613A,87.3095,44.0142,昌吉回族自治州,亚心广场,,39,19,47,3,13,122,,108,108,6,24,8,9,0.3,0.5
2025-05-29T1800,1119A,125.3325,43.9166,长春市,食品厂,,45,32,62,23,33,141,,146,145,22,40,4,5,0.4,0.6
2025-05-29T1800,1120A,125.2863,43.9027,长春市,客车厂,,47,36,59,31,37,148,,155,154,18,41,5,6,0.3,0.5
2025-05-29T1800,1121A,125.2841,43.8463,长春市,邮电学院,,48,32,46,16,29,152,,154,154,11,29,5,7,0.3,0.4
2025-05-29T1800,1122A,125.3716,43.8772,长春市,劳动公园,,46,32,53,12,31,147,,149,149,9,24,6,7,0.5,0.6
2025-05-29T1800,1123A,125.3297,43.8805,长春市,园林处,,48,28,48,11,27,151,,154,153,12,24,6,8,0.5,0.6
2025-05-29T1800,1124A,125.4605,43.79,长春市,净月潭,,47,24,36,12,22,149,,155,155,5,14,6,6,0.3,0.4
2025-05-29T1800,1125A,125.7194,43.515,长春市,甩湾子,,47,23,36,15,21,150,,153,153,8,33,3,3,0.4,0.5
2025-05-29T1800,1126A,125.3863,43.8447,长春市,经开区环卫处,,45,45,73,11,30,138,,146,146,13,42,5,6,0.4,0.5
2025-05-29T1800,1127A,125.245,43.7783,长春市,高新区管委会,,45,33,50,17,33,144,,151,150,12,34,6,7,0.3,0.5
2025-05-29T1800,1128A,125.1761,43.8325,长春市,岱山公园,,44,28,59,19,39,138,,152,151,21,54,4,6,0.3,0.5
2025-05-29T1800,1335A,113.0833,28.2325,长沙市,经开区环保局,,38,15,19,12,12,120,,113,113,10,17,4,3,0.3,0.7
2025-05-29T1800,1336A,112.8872,28.2189,长沙市,高开区环保局,,42,16,21,10,11,132,,122,122,6,12,4,4,0.4,0.5
2025-05-29T1800,1337A,113.0792,28.2053,长沙市,马坡岭,,36,17,23,12,13,113,,110,110,9,16,4,4,0.4,0.5
2025-05-29T1800,1338A,112.9394,28.19,长沙市,湖南师范大学,,42,15,22,11,10,134,,125,125,6,12,5,5,0.4,0.4
2025-05-29T1800,1339A,113.0178,28.1322,长沙市,雨花区环保局,,43,24,24,11,12,136,,126,126,6,15,4,4,0.4,0.5
2025-05-29T1800,1340A,112.9792,28.2597,长沙市,伍家岭,,40,24,24,13,11,128,,114,114,8,14,3,2,0.4,0.5
2025-05-29T1800,1341A,113.0014,28.1944,长沙市,火车新站,,36,21,23,9,9,115,,111,111,8,14,6,6,0.3,0.4
2025-05-29T1800,1342A,112.9844,28.1178,长沙市,天心区环保局,,44,18,24,9,13,138,,130,130,9,14,2,2,0.3,0.4
2025-05-29T1800,1343A,112.8908,28.1308,长沙市,湖南中医药大学,,42,26,24,13,14,132,,125,125,9,15,3,2,0.5,0.6
2025-05-29T1800,1344A,112.9581,28.3611,长沙市,沙坪,,41,16,16,16,8,130,,115,115,9,6,4,3,0.5,0.6
2025-05-29T1800,1727A,113.1147,36.1547,长治市,清华站,臭氧1小时,104,48,51,29,27,207,,198,198,12,17,6,6,0.4,0.5
2025-05-29T1800,1730A,113.0886,36.2125,长治市,审计局,臭氧1小时,107,51,50,27,31,213,,208,208,15,19,8,11,0.5,0.6
2025-05-29T1800,1731A,113.0844,36.1856,长治市,长治八中,臭氧1小时,101,57,64,30,37,202,,196,196,14,20,10,11,0.2,0.2
2025-05-29T1800,2845A,113.1569,36.1911,长治市,德盛苑,臭氧1小时,90,36,49,22,29,192,,189,188,2,11,6,10,0.5,1.3
2025-05-29T1800,3568A,113.06,36.0464,长治市,向阳小学,臭氧1小时,109,81,73,38,39,217,,206,206,11,16,5,8,0.5,0.6
2025-05-29T1800,3569A,112.8792,36.3144,长治市,屯留一中,臭氧1小时,104,47,45,30,33,208,,206,206,16,22,9,9,0.2,0.3
2025-05-29T1800,4189A,113.1131,36.19948,长治市,英华南巷50号,臭氧1小时,103,62,57,31,33,205,,201,201,12,17,7,11,0.6,0.9
2025-05-29T1800,4190A,113.2367,36.3344,长治市,学府街1号,臭氧1小时,106,93,83,23,32,211,,221,221,10,37,2,3,0.4,0.6
2025-05-29T1800,1854A,111.6975,28.9703,常德市,市二中,,39,26,31,10,25,124,,110,110,7,11,5,5,0.5,0.6
2025-05-29T1800,1857A,111.7158,29.1456,常德市,白鹤山,,,,,,,,,,,,,,,,
2025-05-29T1800,3138A,111.7153,29.0289,常德市,武陵区永安,,42,27,33,17,26,132,,116,116,6,10,3,4,0.4,0.5
2025-05-29T1800,3139A,111.6892,28.9881,常德市,鼎城区玉霞,,43,22,32,14,22,135,,118,118,5,13,3,3,0.5,0.6
2025-05-29T1800,3140A,111.6625,29.0531,常德市,武陵区长庚,,44,18,30,13,22,138,,124,124,4,9,5,6,0.5,0.6
2025-05-29T1800,1196A,119.9633,31.762,常州市,市监测站,臭氧1小时,105,44,67,33,35,210,,197,197,23,31,8,9,0.3,0.5
2025-05-29T1800,1200A,119.9468,31.7069,常州市,武进监测站,臭氧1小时,104,50,65,28,31,207,,188,188,23,27,1,8,0.7,0.8
2025-05-29T1800,1201A,119.9255,31.9087,常州市,安家,臭氧1小时,106,58,80,33,37,212,,199,199,20,37,12,12,0.3,0.3
2025-05-29T1800,3002A,119.9805,31.8174,常州市,行政中心,臭氧1小时,104,46,59,36,35,207,,195,195,22,36,8,8,0.5,0.5
2025-05-29T1800,3003A,120.0522,31.7748,常州市,经开区,臭氧1小时,107,86,69,27,35,213,,204,204,26,46,4,5,0.8,0.6
2025-05-29T1800,3010A,119.9025,31.7964,常州市,钟楼,臭氧1小时,100,53,68,37,31,200,,179,179,17,20,9,9,0.6,0.6
2025-05-29T1800,3429A,119.8598,31.7066,常州市,武进经发区,臭氧1小时,103,46,55,31,30,206,,184,184,14,18,6,6,0.7,0.7
2025-05-29T1800,3430A,119.5826,31.7245,常州市,金坛城区,臭氧1小时,107,38,55,30,25,213,,180,180,20,19,8,8,0.4,0.4
2025-05-29T1800,2220A,120.4318,41.5881,朝阳市,西梁,臭氧1小时,58,57,39,25,18,166,,168,168,18,15,9,9,0.7,0.5
2025-05-29T1800,2221A,120.4521,41.5646,朝阳市,河畔小区,臭氧1小时,70,51,35,27,21,176,,176,176,16,13,9,9,0.5,0.4
2025-05-29T1800,2222A,120.4176,41.5648,朝阳市,八里堡,臭氧1小时,82,88,51,34,20,185,,186,186,17,16,9,8,0.6,0.4
2025-05-29T1800,2223A,120.3806,41.5969,朝阳市,农业园区,臭氧1小时,63,57,41,38,27,170,,176,176,19,19,8,8,0.5,0.6
2025-05-29T1800,1705A,116.6367,23.6719,潮州市,西园路,,19,,12,11,18,58,,58,58,13,13,6,6,0.5,0.4
2025-05-29T1800,3026A,116.6183,23.6608,潮州市,市政府,,18,,17,6,14,56,,61,61,16,15,4,6,0.9,0.9
2025-05-29T1800,4036A,116.6461,23.6761,潮州市,金山,,18,,16,7,15,56,,58,58,13,14,7,7,0.7,0.7
2025-05-29T1800,2472A,113.0073,25.9061,郴州市,马头岭,,24,24,16,12,6,48,,60,57,5,6,7,7,0.3,0.3
2025-05-29T1800,2473A,113.0116,25.8226,郴州市,市职中,,,21,12,19,10,60,,62,62,9,9,2,1,,0.7
2025-05-29T1800,2475A,113.0383,25.8071,郴州市,市审计局,,21,21,12,14,8,59,,60,60,9,7,5,4,0.5,0.8
2025-05-29T1800,2476A,113.0348,25.7759,郴州市,市环保局,,22,20,12,15,11,60,,58,58,9,10,4,2,0.1,0.2
2025-05-29T1800,4252A,113.0138,25.8011,郴州市,好美居路49号,,24,24,12,12,9,63,,70,69,12,9,9,8,0.4,0.5
2025-05-29T1800,1431A,103.9728,30.7236,成都市,金泉两河,,28,28,45,18,30,78,,79,79,21,27,3,4,0.5,0.5
2025-05-29T1800,1432A,104.176,30.6872,成都市,十里店,,33,28,38,13,22,104,,90,90,23,23,4,4,0.6,0.6
2025-05-29T1800,1433A,104.079,30.5706,成都市,三瓦窑,细颗粒物(PM2.5),72,61,40,52,27,116,,103,103,23,25,4,5,1.0,0.9
2025-05-29T1800,1434A,104.1114,30.63,成都市,沙河铺,,,,38,,22,78,,70,70,19,20,4,8,,0.3
2025-05-29T1800,1437A,104.0786,30.6531,成都市,君平街,颗粒物(PM10),53,56,49,23,28,103,,92,92,31,29,8,9,0.8,0.8
2025-05-29T1800,1438A,103.613,31.0283,成都市,灵岩寺,,,,,,,,,,,,,,,,
2025-05-29T1800,2880A,104.0239,30.65639,成都市,大石西路,细颗粒物(PM2.5),65,71,51,47,34,90,,87,87,25,25,11,6,0.8,0.7
2025-05-29T1800,3136A,104.2725,30.5589,成都市,龙泉驿区区政府,,35,29,21,12,14,110,,103,103,14,12,4,5,0.6,0.6
2025-05-29T1800,3357A,104.0106,30.6931,成都市,金博路,,50,50,40,26,25,75,,76,76,31,27,8,9,0.7,0.6
2025-05-29T1800,3359A,104.0578,30.5225,成都市,华阳,,45,36,37,31,27,99,,93,93,20,17,6,7,0.8,0.7
2025-05-29T1800,3488A,104.3853,30.7453,成都市,青白江技师分院,,45,42,33,31,22,117,,101,101,21,22,5,5,0.6,0.5
2025-05-29T1800,3489A,104.0789,30.4072,成都市,科学城,,41,32,31,24,23,129,,122,122,16,11,4,4,0.7,0.6
2025-05-29T1800,4011A,103.8506,30.6947,成都市,光华大道三段,,44,44,50,27,35,88,,99,99,20,22,4,7,0.7,0.7
2025-05-29T1800,4224A,104.2433,30.5353,成都市,鲸龙路1057号,,34,30,35,21,22,106,,101,101,20,18,7,7,0.7,0.6
2025-05-29T1800,1062A,117.9531,40.9081,承德市,铁路,臭氧1小时,77,53,72,15,39,181,,190,190,14,23,5,5,0.4,0.6
2025-05-29T1800,1063A,117.9392,40.9763,承德市,中国银行,臭氧1小时,77,46,60,25,36,181,,189,189,5,13,2,3,0.4,0.5
2025-05-29T1800,1064A,117.9503,40.928,承德市,开发区,臭氧1小时,85,116,74,24,42,188,,194,194,8,16,3,4,0.4,0.6
2025-05-29T1800,1065A,117.8051,40.9655,承德市,文化中心,臭氧1小时,67,45,68,18,35,173,,184,184,6,21,3,4,0.3,0.6
2025-05-29T1800,1066A,117.9268,41.0026,承德市,离宫,臭氧1小时,75,48,61,35,45,180,,190,190,4,10,4,3,0.4,0.5
2025-05-29T1800,2314A,117.47,30.6618,池州市,池州学院,,44,30,35,22,26,139,,131,131,9,14,5,5,0.4,0.7
2025-05-29T1800,3237A,117.4918,30.6617,池州市,展览馆,,45,23,31,22,24,142,,133,133,6,13,4,4,0.5,0.7
2025-05-29T1800,3333A,117.5627,30.695,池州市,第八中学,,46,26,34,20,26,147,,137,137,10,13,5,5,0.2,0.4
2025-05-29T1800,3334A,117.5038,30.6243,池州市,第十二中学,,,,34,,23,146,,136,136,6,20,3,3,0.4,0.7
2025-05-29T1800,1744A,118.9233,42.2816,赤峰市,松山一中,臭氧1小时,53,29,56,14,28,162,,180,170,12,21,4,7,0.4,0.7
2025-05-29T1800,1745A,118.9576,42.2728,赤峰市,哈达街,,43,29,55,25,30,137,,141,139,16,22,8,10,0.4,0.7
2025-05-29T1800,1746A,118.8788,42.2554,赤峰市,天义路,,47,19,38,17,33,149,,165,154,12,15,7,11,0.5,0.6
2025-05-29T1800,3058A,119.2658,42.0353,赤峰市,银河街,颗粒物(PM10),51,51,78,24,39,151,,158,158,12,16,6,11,0.6,0.8
2025-05-29T1800,3286A,118.9359,42.3147,赤峰市,桥北物流园区,,41,,59,28,45,129,,156,146,24,18,8,17,0.4,0.8
2025-05-29T1800,2521A,107.3476,22.4136,崇左市,市环保局江州分局,,15,8,21,3,11,48,,46,44,2,5,5,6,0.4,0.5
2025-05-29T1800,4256A,107.3750,22.3736,崇左市,石景林东路7号,,,6,16,3,10,55,,52,52,3,7,2,3,,0.7
2025-05-29T1800,2298A,118.3093,32.3153,滁州市,老年大学,臭氧1小时,112,52,64,31,45,223,,207,207,16,21,3,2,0.5,0.4
2025-05-29T1800,2299A,118.3244,32.2786,滁州市,人大宾馆,臭氧1小时,104,54,66,24,45,208,,193,193,15,20,6,6,0.5,0.4
2025-05-29T1800,3207A,118.3118,32.3038,滁州市,市政府原办公楼,臭氧1小时,114,52,61,36,46,227,,209,209,12,16,6,6,0.5,0.4
2025-05-29T1800,3331A,118.3267,32.2634,滁州市,图书馆,臭氧1小时,109,47,54,40,44,218,,199,199,10,15,9,9,0.5,0.5
2025-05-29T1800,2605A,101.5482,25.0441,楚雄彝族自治州,州环境监测站,,33,,6,23,9,69,,64,64,9,11,9,9,0.7,0.6
2025-05-29T1800,2606A,101.538,25.0492,楚雄彝族自治州,市经济开发区,,35,,10,24,10,64,,63,63,13,12,8,10,0.7,0.6
2025-05-29T1800,2548A,107.5277,31.2827,达州市,达州职业技术学院,,41,28,28,8,6,129,,121,121,7,22,5,5,0.2,0.2
2025-05-29T1800,2549A,107.5086,31.2186,达州市,市环境监测站,,40,31,27,7,6,127,,120,120,16,26,5,5,0.3,0.4
2025-05-29T1800,2550A,107.4988,31.2132,达州市,凤凰小区,,40,27,22,9,10,127,,124,124,11,23,6,7,0.4,0.4
2025-05-29T1800,2551A,107.5082,31.1986,达州市,达县机关宾馆,,39,29,25,3,5,123,,122,122,16,30,4,5,0.4,0.4
2025-05-29T1800,2552A,107.4644,31.2124,达州市,市政中心,,38,29,33,7,8,120,,112,112,9,27,2,2,0.4,0.5
2025-05-29T1800,2614A,100.1542,25.7054,大理白族自治州,大理市环境监测站,,19,11,7,8,11,59,,64,64,14,14,6,6,0.6,0.5
2025-05-29T1800,2615A,100.2171,25.5811,大理白族自治州,大理古城,,18,7,6,3,7,55,,59,59,10,6,8,8,0.5,0.4
2025-05-29T1800,1109A,121.612,38.9741,大连市,甘井子,,33,33,39,20,24,95,,109,107,46,35,7,6,0.3,0.3
2025-05-29T1800,1110A,121.565,38.9511,大连市,周水子,,40,40,46,20,28,76,,138,138,55,24,8,7,0.4,0.4
2025-05-29T1800,1111A,121.5637,38.8845,大连市,星海三站,,33,30,41,20,28,103,,104,104,29,18,6,4,0.4,0.4
2025-05-29T1800,1112A,121.6302,38.9117,大连市,青泥洼桥,,50,34,38,22,25,159,,156,156,17,18,8,8,0.2,0.3
2025-05-29T1800,1113A,121.6251,38.8638,大连市,傅家庄,,44,29,32,22,22,140,,100,100,27,25,8,7,0.2,0.2
2025-05-29T1800,1114A,121.5213,38.8661,大连市,七贤岭,,35,29,42,24,27,104,,96,96,44,22,9,8,0.1,0.2
2025-05-29T1800,1115A,121.2529,38.8061,大连市,旅顺,,,24,28,24,27,112,,108,108,,13,3,2,0.2,0.2
2025-05-29T1800,1116A,121.7485,39.1311,大连市,金州,,49,28,41,22,28,155,,154,154,27,21,11,10,0.3,0.4
2025-05-29T1800,1117A,121.7811,39.0496,大连市,开发区,,37,37,48,19,29,67,,111,109,63,30,10,6,0.6,0.6
2025-05-29T1800,1118A,121.9762,39.0631,大连市,双D港,,25,19,26,14,22,79,,93,86,24,13,8,7,0.3,0.3
2025-05-29T1800,1789A,124.81117,46.03138,大庆市,大同区,臭氧1小时,63,74,70,31,32,170,,170,170,21,14,6,5,0.5,0.5
2025-05-29T1800,1790A,125.129,46.533,大庆市,龙凤区,臭氧1小时,72,79,72,35,31,177,,178,178,16,15,6,6,0.5,0.5
2025-05-29T1800,1791A,124.902,46.408,大庆市,红岗区,臭氧1小时,93,69,67,26,33,194,,186,186,9,10,9,9,0.4,0.4
2025-05-29T1800,1792A,125.153,46.586,大庆市,萨尔图区,颗粒物(PM10),62,74,70,27,31,156,,157,157,17,16,8,8,0.6,0.6
2025-05-29T1800,1793A,124.9042,46.6215,大庆市,让胡路区,臭氧1小时,72,61,60,29,33,177,,178,178,13,9,8,8,0.3,0.3
2025-05-29T1800,3481A,125.141,46.634,大庆市,萨区政府监测点,臭氧1小时,69,82,77,19,30,175,,178,178,14,11,7,7,0.5,0.5
2025-05-29T1800,1721A,113.3819,40.1097,大同市,果树场,,,,,,,,,,,,,,,,
2025-05-29T1800,1723A,113.2994,40.0758,大同市,云冈宾馆,臭氧1小时,92,38,54,9,24,193,,198,198,13,18,6,7,0.4,0.5
2025-05-29T1800,1724A,113.3444,40.0917,大同市,大同大学,臭氧1小时,99,38,45,25,27,199,,202,202,13,16,9,8,0.6,0.6
2025-05-29T1800,1725A,113.2661,40.1269,大同市,安家小村,臭氧1小时,85,68,62,18,27,188,,195,195,11,11,5,6,0.4,0.6
2025-05-29T1800,1726A,113.2711,40.0844,大同市,教育学院,臭氧1小时,90,51,59,20,29,192,,197,197,13,20,8,8,0.3,0.4
2025-05-29T1800,3282A,113.3397,40.0597,大同市,大同市卫生学校,臭氧1小时,78,44,46,20,28,182,,185,185,13,14,9,10,0.5,0.6
2025-05-29T1800,3565A,113.1367,40.1122,大同市,云冈站,臭氧1小时,82,54,71,22,37,185,,186,186,13,18,7,9,0.5,0.5
2025-05-29T1800,3566A,113.1186,40.2556,大同市,图书馆,臭氧1小时,80,63,66,28,35,184,,181,181,11,15,8,10,0.6,0.8
2025-05-29T1800,3567A,113.5931,40.0461,大同市,区一中,臭氧1小时,93,35,45,26,28,194,,188,188,15,14,14,13,0.5,0.4
2025-05-29T1800,4199A,113.2798,40.0997,大同市,魏都大道141号,臭氧1小时,93,48,60,18,30,194,,198,198,9,15,7,8,0.5,0.6
2025-05-29T1800,2269A,124.1069,50.4097,大兴安岭地区,科技局,颗粒物(PM10),53,55,71,28,26,0,,114,,9,6,8,8,0.3,0.4
2025-05-29T1800,3663A,124.1164,50.4278,大兴安岭地区,红旗社区,,41,34,52,21,23,129,,140,140,8,8,6,6,0.4,0.4
2025-05-29T1800,1600A,124.3303,40.0625,丹东市,江湾东路,,48,48,56,24,32,124,,146,146,20,15,24,11,0.6,0.7
2025-05-29T1800,1601A,124.4256,40.1503,丹东市,临江后街,颗粒物(PM10),78,105,88,37,44,113,,138,138,19,22,10,10,0.7,0.8
2025-05-29T1800,1602A,124.3933,40.1461,丹东市,元宝山,,38,38,61,23,27,114,,138,137,22,18,10,9,0.5,0.6
2025-05-29T1800,1603A,124.3633,40.1092,丹东市,民主桥,,43,43,51,16,25,118,,142,141,16,19,11,10,0.6,0.7
2025-05-29T1800,3541A,109.5726,19.5167,儋州市,第一中学子站,,15,12,13,9,8,48,,59,57,3,4,6,5,0.4,0.6
2025-05-29T1800,3542A,109.5567,19.5187,儋州市,东坡学校子站,,16,7,14,6,6,49,,61,60,2,4,6,6,0.4,0.5
2025-05-29T1800,2616A,98.5842,24.428,德宏傣族景颇族自治州,德宏州监测站,,20,20,18,11,10,47,,43,43,12,10,6,6,0.6,0.7
2025-05-29T1800,3677A,98.5881,24.4368,德宏傣族景颇族自治州,芒市人民政府综合楼,,20,20,21,9,7,38,,41,41,12,8,6,6,0.5,0.5
2025-05-29T1800,1901A,104.4239,31.1208,德阳市,东山公园,,48,48,30,27,22,100,,83,83,18,16,5,5,0.8,0.8
2025-05-29T1800,1902A,104.3826,31.1317,德阳市,西小区,细颗粒物(PM2.5),60,49,37,43,25,102,,85,85,21,23,6,5,0.7,0.7
2025-05-29T1800,1904A,104.3553,31.1091,德阳市,耐火材料厂,细颗粒物(PM2.5),58,64,49,41,26,106,,87,87,22,27,8,7,0.6,0.6
2025-05-29T1800,3639A,104.4019,31.1244,德阳市,市教育局,颗粒物(PM10),51,52,37,34,23,110,,94,94,18,20,7,6,0.9,0.8
2025-05-29T1800,1622A,116.3032,37.4674,德州市,儿童乐园,臭氧1小时,121,66,75,29,39,242,,228,228,12,20,8,10,0.6,0.7
2025-05-29T1800,1624A,116.2991,37.4451,德州市,监理站,臭氧1小时,117,58,76,27,39,233,,221,221,8,22,7,8,0.4,0.6
2025-05-29T1800,3066A,116.2721,37.4379,德州市,九衢泉纯净水厂,臭氧1小时,109,66,78,31,40,217,,210,210,9,40,8,8,0.6,0.6
2025-05-29T1800,3371A,116.3728,37.4403,德州市,开发区人民医院,臭氧1小时,119,66,75,31,35,238,,221,221,14,27,9,10,0.6,0.7
2025-05-29T1800,3372A,116.3572,37.4094,德州市,太阳城中学,臭氧1小时,120,80,80,36,40,239,,222,222,20,33,5,6,0.4,0.6
2025-05-29T1800,3511A,116.5652,37.3319,德州市,陵城艺术中心,臭氧1小时,112,58,76,29,35,224,,223,223,10,18,10,10,0.4,0.5
2025-05-29T1800,2621A,99.7056,27.8317,迪庆藏族自治州,迪庆州站,,26,,14,18,13,46,,48,48,7,6,6,6,0.5,0.4
2025-05-29T1800,3180A,99.7136,27.8094,迪庆藏族自治州,质量技术监督局,,20,14,16,14,8,44,,45,45,10,8,5,5,0.5,0.5
2025-05-29T1800,4257A,104.6092,35.5962,定西市,将台街,颗粒物(PM10),59,67,44,19,21,122,,114,114,5,5,5,4,0.4,0.4
2025-05-29T1800,4309A,104.6159,35.5701,定西市,正龙路62号,颗粒物(PM10),53,55,36,18,17,119,,112,112,5,6,7,7,0.3,0.2
2025-05-29T1800,1389A,113.7547,23.0494,东莞市,莞城梨川,,19,6,44,3,34,58,,51,51,12,23,8,8,0.5,0.6
2025-05-29T1800,1390A,113.7944,23.0128,东莞市,东城石井,,14,6,45,3,28,44,,44,44,16,27,3,3,0.7,1.1
2025-05-29T1800,1391A,113.7383,22.9658,东莞市,南城西平,,15,6,39,3,27,45,,43,43,22,35,6,5,0.6,0.7
2025-05-29T1800,3319A,113.7338,23.0381,东莞市,万江金泰,,16,6,39,3,32,50,,42,42,12,22,2,3,0.6,0.6
2025-05-29T1800,3626A,113.7533,23.0202,东莞市,南城元岭,,17,6,37,3,33,54,,48,48,15,25,5,5,0.8,0.8
2025-05-29T1800,3627A,113.7875,23.0457,东莞市,东城主山,,17,6,37,3,30,54,,48,48,12,23,5,5,0.7,0.8
2025-05-29T1800,1666A,118.6614,37.4309,东营市,市环保局,臭氧1小时,102,63,55,27,23,204,,206,206,18,22,10,12,0.6,0.6
2025-05-29T1800,3036A,118.6904,37.4338,东营市,开发区管委会,臭氧1小时,115,62,60,24,26,230,,229,229,17,21,10,12,0.6,0.6
2025-05-29T1800,3365A,118.5719,37.565,东营市,垦利区民丰路,臭氧1小时,122,75,57,31,25,243,,253,253,20,23,15,10,0.9,0.8
2025-05-29T1800,3498A,118.5055,37.8612,东营市,河口城区,,,,55,,24,,,189,,,20,,11,,1
2025-05-29T1800,3646A,118.4978,37.4623,东营市,胜利站,臭氧1小时,111,63,57,29,26,221,,235,235,20,24,14,12,0.7,0.7
2025-05-29T1800,3734A,118.35,37.26,东营市,理想之城,臭氧1小时,107,53,54,34,30,214,,218,218,,32,,7,0.6,0.6
2025-05-29T1800,1591A,110.0023,39.8129,鄂尔多斯市,综合楼,臭氧1小时,73,83,73,31,27,178,,170,170,13,17,8,9,0.4,0.6
2025-05-29T1800,1592A,109.9486,39.8261,鄂尔多斯市,巴音孟克林场办事处,臭氧1小时,93,119,81,31,30,194,,182,182,14,17,8,8,0.4,0.5
2025-05-29T1800,1593A,109.7736,39.5986,鄂尔多斯市,康泽苑,臭氧1小时,85,75,59,22,22,188,,177,177,9,12,6,7,0.6,0.7
2025-05-29T1800,1594A,109.8119,39.5989,鄂尔多斯市,华泰汽车城,颗粒物(PM10),67,83,63,24,26,170,,160,160,10,13,6,7,0.4,0.5
2025-05-29T1800,1595A,109.9734,39.7884,鄂尔多斯市,奥林花园,臭氧1小时,87,90,73,29,29,189,,178,178,11,17,7,8,0.5,0.6
2025-05-29T1800,2436A,114.8938,30.3994,鄂州市,市政府,,42,24,36,17,23,134,,124,124,10,17,7,9,0.4,0.3
2025-05-29T1800,2437A,114.8989,30.3714,鄂州市,赵家坝,,49,21,28,12,16,156,,147,147,9,16,6,8,0.4,0.5
2025-05-29T1800,3654A,114.8094,30.4089,鄂州市,精准医疗中心,,47,29,32,21,17,148,,139,139,3,12,4,4,0.7,0.8
2025-05-29T1800,2454A,109.4978,30.2981,恩施土家族苗族自治州,湖北民院,,50,,33,32,19,157,,127,127,6,11,5,5,0.3,0.3
2025-05-29T1800,2455A,109.4707,30.2798,恩施土家族苗族自治州,州电力总公司,,45,26,26,21,17,142,,119,119,2,12,6,6,0.1,0.3
2025-05-29T1800,3549A,109.5061,30.3772,恩施土家族苗族自治州,龙凤新区,,42,24,25,22,16,132,,119,119,4,8,6,6,0.3,0.3
2025-05-29T1800,2499A,108.3411,21.6158,防城港市,沙万,,20,17,29,9,14,61,,59,59,7,19,1,4,0.5,0.5
2025-05-29T1800,2500A,108.3514,21.7731,防城港市,防城档案局,,26,26,34,14,14,53,,52,52,13,13,1,2,0.6,0.6
2025-05-29T1800,2501A,108.3506,21.6414,防城港市,大海花园,,20,17,37,6,4,64,,62,62,9,13,2,7,0.6,0.7
2025-05-29T1800,1371A,113.1294,23.0067,佛山市,湾梁,,14,9,27,3,18,35,,36,36,28,35,7,7,0.8,0.8
2025-05-29T1800,1372A,113.1083,23.0478,佛山市,华材职中,,16,9,22,6,20,34,,35,35,32,30,5,5,0.7,0.6
2025-05-29T1800,1373A,113.144,23.0453,佛山市,南海气象局,,14,,24,9,19,26,,32,32,27,29,2,2,0.8,0.8
2025-05-29T1800,1374A,113.2881,22.8094,佛山市,顺德苏岗,,21,21,32,3,23,35,,32,32,26,35,6,6,0.7,0.7
2025-05-29T1800,1376A,112.8383,22.8678,佛山市,高明孔堂,,24,24,37,9,23,48,,50,50,23,26,5,5,0.8,0.8
2025-05-29T1800,1377A,112.8836,23.1588,佛山市,三水监测站,,15,12,35,10,28,34,,34,34,26,35,2,3,0.8,0.8
2025-05-29T1800,1378A,112.867,23.185,佛山市,三水云东海,,21,21,52,3,43,42,,39,39,18,31,3,3,0.9,1
2025-05-29T1800,3625A,113.2544,22.7642,佛山市,容桂街道办,,,14,22,,28,34,,37,37,30,32,5,5,0.9,0.8
2025-05-29T1800,1280A,119.3903,26.0543,福州市,鼓山,,,,7,,3,,,85,,,6,,2,,0.3
2025-05-29T1800,1282A,119.2681,26.0504,福州市,师大,,23,17,8,3,3,73,,80,80,22,12,3,4,0.3,0.4
2025-05-29T1800,1283A,119.2984,26.1028,福州市,五四北路,,23,15,8,3,2,72,,80,79,15,13,3,3,0.4,0.5
2025-05-29T1800,1284A,119.2648,26.0768,福州市,杨桥西路,,25,12,8,3,1,79,,81,81,15,11,3,3,0.3,0.4
2025-05-29T1800,1285A,119.317,26.0746,福州市,紫阳,,22,20,13,7,4,68,,72,68,27,20,5,5,0.4,0.4
2025-05-29T1800,3048A,119.5799,26.0936,福州市,九龙,,20,14,9,9,1,62,,68,64,16,9,6,4,0.3,0.4
2025-05-29T1800,3526A,119.5189,25.9664,福州市,吴航,,27,12,8,8,5,84,,93,92,11,11,4,4,0.3,0.3
2025-05-29T1800,1755A,123.7977,41.8491,抚顺市,望花区,臭氧1小时,70,66,66,27,36,176,,187,187,20,31,5,8,0.6,0.8
2025-05-29T1800,1756A,123.9161,41.8822,抚顺市,顺城区,,49,42,53,22,31,154,,164,164,20,35,10,12,0.7,0.9
2025-05-29T1800,1757A,124.0436,41.8611,抚顺市,东洲区,,45,40,37,19,24,143,,161,159,18,18,8,9,0.5,0.5
2025-05-29T1800,1758A,123.9247,41.8642,抚顺市,新抚区,,,48,57,26,28,154,,166,166,,29,17,20,0.6,0.7
2025-05-29T1800,1759A,124.0972,41.8961,抚顺市,大伙房水库,,47,35,31,24,24,149,,159,159,12,19,9,8,0.4,0.5
2025-05-29T1800,1760A,123.7086,41.8391,抚顺市,沈抚新城,臭氧1小时,65,41,58,24,32,172,,180,180,18,32,8,11,0.6,0.9
2025-05-29T1800,2376A,116.2127,28.0814,抚州市,桐源党溪,,29,19,31,11,13,92,,91,91,2,3,3,4,0.9,0.8
2025-05-29T1800,2377A,116.3544,27.9831,抚州市,市站,,34,24,19,14,11,107,,110,110,4,5,2,2,0.7,0.5
2025-05-29T1800,2378A,116.3565,27.963,抚州市,血防站,,35,25,23,12,11,109,,114,114,4,5,4,4,0.2,0.2
2025-05-29T1800,2379A,116.3564,28.0007,抚州市,采茶剧团,,34,20,23,13,10,106,,111,111,2,3,5,6,0.2,0.2
2025-05-29T1800,2380A,116.385,27.9647,抚州市,医学分院,,35,29,23,9,8,112,,113,113,2,2,3,4,0.7,0.8
2025-05-29T1800,2207A,121.6094,41.998,阜新市,工业园区,臭氧1小时,84,81,54,31,23,187,,182,182,14,16,15,14,0.6,0.5
2025-05-29T1800,2208A,121.6697,42.0279,阜新市,长青街,颗粒物(PM10),83,115,54,28,22,173,,169,169,14,16,9,12,0.4,0.4
2025-05-29T1800,2209A,121.6673,42.0705,阜新市,农业园区,,,50,41,,25,177,,177,177,14,14,10,11,0.5,0.5
2025-05-29T1800,2210A,121.6717,42.0224,阜新市,东苑,臭氧1小时,78,72,48,26,22,182,,181,181,16,17,6,12,0.5,0.5
2025-05-29T1800,2211A,121.6506,42.0498,阜新市,玉龙新城,臭氧1小时,63,73,59,26,20,170,,168,168,12,13,11,11,0.6,0.6
2025-05-29T1800,2301A,115.8277,32.8929,阜阳市,市监测站,臭氧1小时,101,99,96,58,54,202,,184,184,16,18,9,8,0.2,0.3
2025-05-29T1800,2303A,115.8554,32.8605,阜阳市,开发区,臭氧1小时,105,77,106,35,56,210,,190,190,21,24,6,6,0.3,0.4
2025-05-29T1800,2875A,115.784,32.8892,阜阳市,阜阳职业技术学院,臭氧1小时,111,96,77,46,50,222,,197,197,16,15,6,5,0.6,0.5
2025-05-29T1800,3468A,115.7901,32.8613,阜阳市,市规划展馆,臭氧1小时,108,90,96,43,63,215,,192,192,15,18,8,7,0.7,0.7
2025-05-29T1800,3469A,115.836,32.9183,阜阳市,枣园社区,臭氧1小时,98,68,97,32,60,198,,184,184,10,16,6,6,0.4,0.5
2025-05-29T1800,2669A,102.9099,34.9841,甘南藏族自治州,州政府,,32,16,41,9,21,100,,107,107,2,19,5,4,0.2,0.3
2025-05-29T1800,3380A,102.8914,34.9617,甘南藏族自治州,甘肃民族师范学院,,,,58,,17,119,,121,121,2,27,8,8,0.4,0.4
2025-05-29T1800,2570A,101.9603,30.0475,甘孜藏族自治州,水桥子,,21,10,12,3,5,66,,72,72,4,16,5,4,0.6,0.6
2025-05-29T1800,3065A,101.9533,29.9972,甘孜藏族自治州,州环保局,,22,10,13,3,5,69,,76,76,7,13,2,1,0.5,0.5
2025-05-29T1800,3414A,115.8347,28.932,赣江新区,桑海产业园,,39,9,19,3,12,122,,123,123,7,12,5,5,0.5,0.5
2025-05-29T1800,2362A,114.9017,25.9149,赣州市,通天岩,,20,17,14,3,5,61,,72,66,3,4,2,2,0.8,0.9
2025-05-29T1800,2363A,114.9367,25.8664,赣州市,地委,,25,18,19,8,9,77,,76,76,9,6,1,1,0.6,0.6
2025-05-29T1800,2364A,114.9461,25.8481,赣州市,气象台,,22,17,23,3,8,70,,68,68,13,11,6,6,0.6,0.7
2025-05-29T1800,2365A,114.9322,25.8333,赣州市,市图书馆,,24,16,12,6,8,76,,73,73,10,6,3,4,0.5,0.5
2025-05-29T1800,2366A,114.8905,25.8471,赣州市,华坚鞋城,,24,14,16,14,10,75,,73,72,12,8,2,4,0.3,0.3
2025-05-29T1800,3109A,115.0093,25.8613,赣州市,赣县区卫计委,,21,13,12,10,8,65,,67,67,7,7,3,3,0.5,0.5
2025-05-29T1800,2683A,106.2319,36.1417,固原市,马园,颗粒物(PM10),59,67,44,12,15,108,,117,117,13,21,5,5,0.3,0.4
2025-05-29T1800,2684A,106.2792,36.0022,固原市,监测站,,36,22,31,13,14,113,,116,116,5,15,4,4,0.1,0.2
2025-05-29T1800,2685A,106.2375,36.0211,固原市,新区,,35,25,28,10,13,110,,111,111,6,11,4,5,0.4,0.5
2025-05-29T1800,3522A,106.2177,35.9959,固原市,原州区十五小,,36,22,26,12,15,113,,116,116,6,9,11,11,0.1,0.1
2025-05-29T1800,2543A,106.6308,30.5278,广安市,小平旧居,,,,,,,,,,,,,,,,
2025-05-29T1800,2544A,106.6303,30.4576,广安市,市委,,40,,25,17,19,127,,123,123,10,15,6,5,0.4,0.5
2025-05-29T1800,2545A,106.6271,30.4663,广安市,友谊中学,,41,17,23,10,15,129,,128,128,9,15,4,5,0.8,0.9
2025-05-29T1800,2547A,106.6388,30.4551,广安市,广电花园,,40,12,25,11,15,127,,126,126,8,15,6,6,0.5,0.5
2025-05-29T1800,2902A,106.6351,30.4865,广安市,北辰小学,,43,23,25,15,14,135,,133,133,8,14,8,10,0.6,0.6
2025-05-29T1800,2523A,105.8945,32.4535,广元市,黑石坡,,40,40,44,12,18,93,,90,90,6,7,7,5,0.4,0.4
2025-05-29T1800,2524A,105.821,32.4444,广元市,老城,,35,12,34,3,18,112,,108,108,6,12,1,2,0.7,0.7
2025-05-29T1800,2526A,105.8628,32.4287,广元市,监测站,,32,,30,21,21,102,,97,97,8,12,10,6,0.7,0.6
2025-05-29T1800,3617A,105.8047,32.4166,广元市,经开区,,33,26,37,14,24,105,,102,102,13,16,20,8,0.5,0.5
2025-05-29T1800,1345A,113.2347,23.1423,广州市,广雅中学,,13,7,25,3,16,41,,30,30,24,35,2,2,0.7,0.7
2025-05-29T1800,1346A,113.2612,23.105,广州市,市五中,,11,9,26,3,18,33,,30,30,22,32,2,3,0.8,0.8
2025-05-29T1800,1348A,113.3478,23.0916,广州市,广东商学院,,12,6,27,3,22,30,,32,32,23,37,3,4,1.0,0.9
2025-05-29T1800,1349A,113.4332,23.1047,广州市,市八十六中,,12,6,31,3,22,31,,26,26,23,40,2,3,0.3,0.4
2025-05-29T1800,1350A,113.3505,22.9483,广州市,番禺中学,,14,10,33,3,24,31,,35,34,28,39,6,6,0.8,1.1
2025-05-29T1800,1351A,113.2146,23.3916,广州市,花都师范,,17,6,30,3,22,53,,49,49,16,26,3,3,0.8,0.8
2025-05-29T1800,1352A,113.2597,23.1331,广州市,市监测站,,,6,26,3,18,33,,29,29,25,36,4,4,,0.7
2025-05-29T1800,1353A,113.5618,23.312,广州市,九龙镇镇龙,,13,6,19,3,15,40,,38,37,11,16,5,5,0.6,0.6
2025-05-29T1800,1354A,113.2765,23.1544,广州市,麓湖,,12,6,24,3,15,28,,29,29,23,35,3,4,0.6,0.6
2025-05-29T1800,1355A,113.443,23.3035,广州市,帽峰山森林公园,,15,6,15,3,16,48,,46,46,15,17,5,5,0.7,0.6
2025-05-29T1800,2846A,113.3221,23.1322,广州市,体育西,,13,8,31,3,18,34,,36,36,25,40,5,5,0.8,0.7
2025-05-29T1800,3298A,113.5717,23.5491,广州市,从化街口,,17,6,21,3,15,53,,42,42,7,16,6,7,0.7,0.7
2025-05-29T1800,3299A,113.3472,23.3692,广州市,白云竹料,,23,6,27,3,20,71,,64,64,10,17,2,2,0.7,0.7
2025-05-29T1800,3300A,113.2981,23.237,广州市,白云嘉禾,,13,10,40,3,24,39,,36,36,25,37,6,6,0.9,1
2025-05-29T1800,3301A,113.4256,23.1716,广州市,黄埔科学城,,10,6,31,3,23,31,,30,30,14,22,4,4,0.7,0.6
2025-05-29T1800,3302A,113.3942,23.0483,广州市,番禺大学城,,19,19,38,3,15,32,,32,32,26,41,5,6,0.7,0.8
2025-05-29T1800,3303A,113.4922,22.8168,广州市,南沙黄阁,,15,15,38,3,28,33,,32,32,28,39,6,5,0.7,0.8
2025-05-29T1800,3304A,113.5342,22.7896,广州市,南沙街,,18,18,30,3,22,40,,47,47,27,37,2,2,0.8,0.8
2025-05-29T1800,3443A,113.2902,23.5544,广州市,花都梯面,,18,6,32,3,20,55,,48,48,8,17,4,4,0.5,0.6
2025-05-29T1800,3445A,113.7858,23.7478,广州市,从化良口,,18,6,16,3,13,56,,53,53,5,9,6,6,0.5,0.5
2025-05-29T1800,3446A,113.8051,23.2614,广州市,增城荔城,,15,6,24,3,18,47,,44,44,7,11,8,8,0.4,0.4
2025-05-29T1800,2505A,109.568,23.1478,贵港市,德智高中,,,,,,,,,,,,,,,,
2025-05-29T1800,2506A,109.6047,23.0666,贵港市,江南子站,,,,,,,,,,,,,,,,
2025-05-29T1800,2508A,109.5669,23.1065,贵港市,荷城子站,,18,6,25,3,13,55,,53,53,12,13,4,5,0.5,0.5
2025-05-29T1800,3405A,109.5886,23.1172,贵港市,新世纪学校,,17,9,21,3,16,54,,54,54,10,14,1,2,0.7,0.6
2025-05-29T1800,4260A,109.5933,23.0951,贵港市,中山路155-3号,,20,13,31,3,16,64,,66,66,10,11,3,3,0.5,0.5
2025-05-29T1800,1439A,106.6899,26.5998,贵阳市,马鞍山,,20,17,11,3,2,63,,59,59,5,6,3,3,0.4,0.3
2025-05-29T1800,1441A,106.6243,26.6266,贵阳市,鉴湖路,,24,24,19,12,6,70,,60,60,7,13,7,7,0.4,0.4
2025-05-29T1800,1442A,106.7487,26.6343,贵阳市,燕子冲,,28,27,17,19,15,83,,81,81,8,8,3,4,0.4,0.4
2025-05-29T1800,1443A,106.6555,26.4365,贵阳市,碧云窝,,27,22,17,9,6,86,,90,90,10,9,4,4,0.4,0.4
2025-05-29T1800,1445A,106.7109,26.6027,贵阳市,红边门,,27,19,12,12,11,86,,82,82,5,6,11,5,0.3,0.3
2025-05-29T1800,1446A,106.7164,26.5699,贵阳市,新华路,,27,14,11,7,6,84,,84,84,10,7,11,8,0.3,0.4
2025-05-29T1800,1447A,106.674,26.5424,贵阳市,太慈桥,,26,19,11,9,5,82,,82,82,12,11,4,4,0.3,0.3
2025-05-29T1800,1552A,106.805,26.3003,贵阳市,桐木岭,细颗粒物(PM2.5),52,51,25,36,13,78,,82,81,4,3,2,1,0.8,0.4
2025-05-29T1800,4230A,106.6882,26.5695,贵阳市,花果园大街66号,,26,17,11,12,10,82,,81,81,10,8,3,3,0.3,0.3
2025-05-29T1800,4231A,106.6873,26.5169,贵阳市,漓江路57号,,25,17,13,9,7,77,,81,81,10,8,2,2,0.4,0.4
2025-05-29T1800,1862A,110.4144,25.3167,桂林市,电子科大尧山校区,,,,,,,,,,,,,,,,
2025-05-29T1800,1864A,110.3089,25.2708,桂林市,龙隐路小学,,29,15,11,9,8,90,,84,84,5,7,8,8,0.7,0.7
2025-05-29T1800,1865A,110.2869,25.2178,桂林市,八中,,27,13,13,8,5,85,,77,77,12,13,6,5,0.6,0.7
2025-05-29T1800,3531A,110.296,25.1253,桂林市,旅游学院,,,,4,9,4,74,,73,73,6,11,,1,0.3,0.4
2025-05-29T1800,4222A,110.1835,25.2444,桂林市,环湖路276号,,28,17,15,12,13,89,,80,80,8,11,4,17,0.5,0.6
2025-05-29T1800,4301A,110.2803,25.2773,桂林市,信义路13号,,27,15,13,8,11,84,,78,78,14,12,2,2,0.5,0.6
2025-05-29T1800,2674A,100.2561,34.4714,果洛藏族自治州,玛沁县大武镇,,,18,56,8,13,133,,130,130,2,6,20,21,,0.4
2025-05-29T1800,1129A,126.5422,45.755,哈尔滨市,岭北,,,21,39,13,30,171,,169,169,12,20,,14,0.6,0.7
2025-05-29T1800,1130A,126.561,45.8167,哈尔滨市,松北商大,,45,30,45,14,23,144,,159,156,17,24,4,7,0.6,0.6
2025-05-29T1800,1131A,126.979,45.5419,哈尔滨市,阿城会宁,臭氧1小时,68,38,50,13,23,174,,192,191,15,22,8,9,0.4,0.5
2025-05-29T1800,1132A,126.599,45.7222,哈尔滨市,南岗学府路,臭氧1小时,65,50,58,27,28,172,,172,172,11,19,7,9,0.5,0.6
2025-05-29T1800,1133A,126.689,45.7733,哈尔滨市,太平宏伟公园,臭氧1小时,55,47,60,19,27,164,,161,161,15,21,5,6,0.4,0.5
2025-05-29T1800,1134A,126.635,45.7667,哈尔滨市,道外承德广场,臭氧1小时,53,36,59,17,28,162,,163,162,21,30,6,7,0.5,0.6
2025-05-29T1800,1135A,126.685,45.7319,哈尔滨市,香坊红旗大街,臭氧1小时,57,44,67,14,30,165,,170,170,22,35,7,8,0.6,0.6
2025-05-29T1800,1136A,126.6411,45.7258,哈尔滨市,动力和平路,臭氧1小时,52,44,61,22,32,161,,158,158,14,24,8,10,0.4,0.5
2025-05-29T1800,1137A,126.593,45.7478,哈尔滨市,道里建国路,臭氧1小时,60,43,52,28,30,168,,172,171,16,22,4,6,0.7,0.9
2025-05-29T1800,1138A,126.615,45.61,哈尔滨市,平房东轻厂,臭氧1小时,64,48,55,32,25,171,,174,173,13,20,7,9,0.4,0.5
2025-05-29T1800,1139A,126.595,45.9855,哈尔滨市,呼兰师专,颗粒物(PM10),54,58,62,23,30,152,,159,158,14,25,9,9,0.5,0.6
2025-05-29T1800,1140A,126.6206,45.6842,哈尔滨市,省农科院,颗粒物(PM10),57,63,81,26,31,160,,162,162,14,31,5,5,0.6,0.7
2025-05-29T1800,2688A,93.5128,42.8172,哈密市,地区监测站,,,42,56,16,17,104,,101,101,7,12,,3,0.0,0
2025-05-29T1800,2689A,93.4961,42.8328,哈密市,哈密师范学校,,34,27,48,9,16,108,,105,105,6,16,4,5,0.2,0.3
2025-05-29T1800,2671A,100.9048,36.9639,海北藏族自治州,海晏县西海镇,,45,41,69,24,25,142,,147,147,4,5,12,14,0.4,0.5
2025-05-29T1800,3867A,102.0738,36.5056,海东市,平安区公安北苑,颗粒物(PM10),81,112,120,39,50,127,,122,122,5,8,3,13,0.6,0.8
2025-05-29T1800,1409A,110.576,19.9507,海口市,东寨港,,12,12,11,3,9,33,,39,39,2,3,5,7,0.4,0.4
2025-05-29T1800,1410A,110.3232,20.0574,海口市,海南大学,,13,12,16,7,8,39,,52,51,9,5,2,3,0.4,0.4
2025-05-29T1800,1411A,110.283,20.0053,海口市,秀英海南医院,,,15,19,6,7,33,,58,57,,12,4,5,,0.3
2025-05-29T1800,1412A,110.338,19.9969,海口市,海南师范大学,,12,11,17,7,9,37,,55,54,8,5,4,4,0.4,0.4
2025-05-29T1800,1413A,110.33,20.0356,海口市,龙华路环保局宿舍,,16,16,18,7,9,38,,52,51,9,6,4,4,0.3,0.3
2025-05-29T1800,3539A,110.5111,19.9736,海口市,桂林洋子站,,10,8,18,3,8,32,,38,38,6,8,4,4,0.2,0.2
2025-05-29T1800,2673A,100.6188,36.2866,海南藏族自治州,共和县恰卜恰镇,细颗粒物(PM2.5),67,,34,48,25,134,,136,136,9,14,15,12,0.3,0.3
2025-05-29T1800,2676A,97.3731,37.3753,海西蒙古族藏族自治州,德令哈市,颗粒物(PM10),72,94,115,49,40,108,,122,110,4,4,9,11,1.0,0.7
2025-05-29T1800,1048A,114.5302,36.6116,邯郸市,东污水处理厂,臭氧1小时,79,57,70,17,32,183,,182,182,9,28,7,9,0.3,0.5
2025-05-29T1800,1049A,114.4918,36.5713,邯郸市,矿院,臭氧1小时,69,52,57,9,32,175,,172,172,4,19,4,6,0.3,0.5
2025-05-29T1800,1050A,114.484,36.6133,邯郸市,丛台公园,臭氧1小时,70,46,59,15,34,176,,174,174,9,19,6,7,0.3,0.5
2025-05-29T1800,3458A,114.7895,36.5593,邯郸市,香泉濮院小区,臭氧1小时,94,64,84,11,29,195,,195,195,16,19,4,6,0.3,0.4
2025-05-29T1800,3579A,114.50634,36.77178,邯郸市,永年区实验高中,臭氧1小时,98,50,74,29,45,198,,198,198,8,21,4,7,0.1,0.4
2025-05-29T1800,3580A,114.20016,36.44293,邯郸市,峰峰矿区临水派出所,,,,48,,22,190,,184,184,,11,6,9,0.3,0.5
2025-05-29T1800,2634A,106.9893,33.1842,汉中市,汉川机床厂子校,,39,20,26,11,18,124,,126,126,5,10,3,4,0.4,0.4
2025-05-29T1800,2635A,107.0154,33.0706,汉中市,市监测站,,35,21,37,14,21,110,,120,119,4,10,5,6,0.4,0.6
2025-05-29T1800,2636A,107.0089,33.1138,汉中市,鑫源开发区,,34,26,40,15,24,106,,116,116,7,17,5,6,0.5,0.6
2025-05-29T1800,2637A,107.007,33.0323,汉中市,南郑大河坎水厂,,35,16,32,9,20,110,,117,117,6,11,5,6,0.4,0.5
2025-05-29T1800,1223A,120.2072,30.2111,杭州市,滨江,,47,46,29,25,15,148,,156,156,21,20,9,7,0.1,0.2
2025-05-29T1800,1224A,120.0633,30.2747,杭州市,西溪,,48,34,20,25,15,153,,151,151,9,13,4,4,0.3,0.3
2025-05-29T1800,1226A,120.3417,30.3150,杭州市,下沙,,41,25,22,19,12,130,,144,143,15,25,6,6,0.2,0.3
2025-05-29T1800,1227A,120.1269,30.2456,杭州市,卧龙桥,,49,40,25,28,15,154,,159,159,10,12,9,8,0.3,0.3
2025-05-29T1800,1228A,120.1903,30.2692,杭州市,浙江农大,,42,42,26,27,17,124,,123,123,14,18,9,9,0.4,0.4
2025-05-29T1800,1230A,120.1197,30.3119,杭州市,和睦小学,,45,29,22,18,15,142,,147,147,10,13,8,7,0.3,0.3
2025-05-29T1800,1231A,120.3019,30.4183,杭州市,临平镇,,40,31,27,16,17,128,,143,143,10,20,6,6,0.4,0.4
2025-05-29T1800,1232A,120.2753,30.1839,杭州市,城厢镇,,43,37,25,24,18,137,,153,153,17,22,8,7,0.4,0.4
2025-05-29T1800,1233A,120.0883,30.1808,杭州市,云栖,臭氧1小时,52,46,27,27,15,161,,164,164,19,20,7,6,0.4,0.4
2025-05-29T1800,3557A,119.9464,30.0494,杭州市,镇二中,臭氧1小时,60,40,20,24,17,168,,142,142,17,19,3,3,0.4,0.4
2025-05-29T1800,3558A,119.7183,30.2367,杭州市,市府大楼,臭氧1小时,75,37,27,22,12,180,,160,160,16,20,8,8,0.4,0.5
2025-05-29T1800,3656A,120.1556,30.2864,杭州市,消防大队,,43,30,25,23,16,135,,142,142,17,18,5,5,0.5,0.5
2025-05-29T1800,1270A,117.1959,31.7848,合肥市,明珠广场,臭氧1小时,75,39,53,24,35,180,,176,176,20,23,6,6,0.3,0.4
2025-05-29T1800,1271A,117.3072,31.8764,合肥市,三里街,臭氧1小时,67,39,60,22,36,173,,158,158,14,24,6,6,0.4,0.6
2025-05-29T1800,1272A,117.2588,31.8707,合肥市,琥珀山庄,臭氧1小时,78,41,54,16,39,182,,172,172,12,20,6,6,0.4,0.5
2025-05-29T1800,1273A,117.1604,31.9052,合肥市,董铺水库,臭氧1小时,57,41,57,19,33,165,,160,160,9,20,4,3,0.3,0.4
2025-05-29T1800,1274A,117.25,31.8571,合肥市,长江中路,臭氧1小时,68,36,63,19,38,174,,168,168,13,19,6,6,0.4,0.5
2025-05-29T1800,1275A,117.266,31.9436,合肥市,庐阳区,臭氧1小时,77,39,59,19,38,181,,167,167,9,21,7,7,0.5,0.6
2025-05-29T1800,1276A,117.3453,31.8616,合肥市,瑶海区,臭氧1小时,64,44,62,20,38,171,,158,158,14,28,6,7,0.4,0.6
2025-05-29T1800,1277A,117.3027,31.7964,合肥市,包河区,臭氧1小时,73,34,56,19,39,178,,167,167,11,29,5,5,0.4,0.6
2025-05-29T1800,1278A,117.2776,31.7385,合肥市,滨湖新区,臭氧1小时,68,36,54,27,39,174,,164,164,8,14,7,6,0.5,0.6
2025-05-29T1800,1279A,117.1318,31.8403,合肥市,高新区,臭氧1小时,69,36,52,22,36,175,,171,171,14,20,6,6,0.4,0.5
2025-05-29T1800,3464A,117.3803,31.9147,合肥市,高教基地,臭氧1小时,72,36,55,16,37,177,,165,165,6,16,8,6,0.6,0.7
2025-05-29T1800,3614A,79.924,37.0877,和田地区,地区环保局,颗粒物(PM10),437,537,1571,117,360,62,,60,60,7,13,1,2,0.6,0.7
2025-05-29T1800,3615A,79.9131,37.113,和田地区,市环保局,颗粒物(PM10),282,407,1407,92,359,70,,70,70,2,5,3,3,0.4,0.3
2025-05-29T1800,2516A,108.2011,24.715,河池市,东仁乐园,,,,,,,,,,,,,,,,
2025-05-29T1800,2517A,108.0497,24.6947,河池市,市环保站,,16,10,9,3,3,51,,55,55,10,7,6,6,0.6,0.6
2025-05-29T1800,2518A,108.0983,24.6989,河池市,市疾控中心,,17,10,8,3,2,52,,52,52,7,14,6,6,0.6,0.6
2025-05-29T1800,1696A,114.6778,23.7569,河源市,源西,,16,,13,9,16,50,,50,50,12,18,4,3,0.6,0.6
2025-05-29T1800,1697A,114.6944,23.7586,河源市,东埔,,17,,13,9,17,52,,50,50,13,13,4,4,0.7,0.7
2025-05-29T1800,1698A,114.6892,23.7233,河源市,老城,,16,6,13,3,11,49,,45,45,12,13,4,3,0.6,0.5
2025-05-29T1800,1718A,115.4208,35.2464,菏泽市,气象局,臭氧1小时,101,71,75,38,35,202,,201,201,9,16,2,5,0.4,0.4
2025-05-29T1800,3374A,115.5564,35.0891,菏泽市,定陶老年大学,臭氧1小时,70,56,62,19,31,176,,174,174,10,18,3,7,0.1,0.7
2025-05-29T1800,4184A,115.4797,35.24401,菏泽市,永昌路1号,,,,71,,47,196,,196,196,12,20,8,9,0.3,0.3
2025-05-29T1800,4193A,115.4715,35.2800,菏泽市,长城路999号,臭氧1小时,103,77,77,27,33,205,,203,203,14,19,7,11,0.4,0.4
2025-05-29T1800,2514A,111.5264,24.4172,贺州市,环保小区,,18,,8,11,9,56,,53,53,8,11,6,7,0.7,0.7
2025-05-29T1800,2515A,111.5608,24.4078,贺州市,政协大楼,,17,6,9,6,8,53,,56,56,11,11,9,8,0.7,0.7
2025-05-29T1800,3534A,111.4744,24.4553,贺州市,西湾,,38,,12,26,8,55,,55,55,5,8,6,7,0.8,0.7
2025-05-29T1800,2385A,114.17,35.9019,鹤壁市,市监测站,臭氧1小时,107,54,64,38,41,213,,214,214,13,18,7,9,1.9,1.1
2025-05-29T1800,2386A,114.2956,35.7511,鹤壁市,市交警支队,臭氧1小时,101,55,64,19,33,202,,197,197,7,28,6,8,0.4,0.7
2025-05-29T1800,2387A,114.2878,35.7306,鹤壁市,迎宾馆,臭氧1小时,105,66,75,41,43,209,,202,202,12,28,2,3,0.5,0.7
2025-05-29T1800,3474A,114.2617,35.6822,鹤壁市,大新区,臭氧1小时,103,46,56,27,35,206,,199,199,10,18,5,6,0.6,0.7
2025-05-29T1800,3596A,114.1572,35.9603,鹤壁市,南山宾馆,臭氧1小时,108,60,76,34,48,215,,215,215,10,14,4,5,0.7,0.8
2025-05-29T1800,2244A,130.2537,47.3416,鹤岗市,哈啤分公司,,50,32,36,30,28,157,,178,175,10,12,14,13,0.4,0.4
2025-05-29T1800,2245A,130.2684,47.3086,鹤岗市,斯达机电,,49,49,51,29,29,149,,157,156,13,16,16,16,0.7,0.7
2025-05-29T1800,2246A,130.3114,47.3388,鹤岗市,东山纸板厂,,49,28,70,24,29,156,,168,167,10,24,13,17,0.7,0.9
2025-05-29T1800,2247A,130.1097,47.3382,鹤岗市,五号水库,,,,,,,,,,,,,,,,
2025-05-29T1800,2263A,127.4833,50.2524,黑河市,交通局,颗粒物(PM10),59,67,56,22,24,109,,106,,12,8,9,7,0.5,0.4
2025-05-29T1800,2264A,127.5144,50.2341,黑河市,环保局,颗粒物(PM10),68,86,67,34,30,162,,164,164,9,8,5,5,0.7,0.3
2025-05-29T1800,2265A,127.5291,50.2472,黑河市,大黑河岛,,,71,60,,,81,,123,111,10,8,4,4,0.4,0.4
2025-05-29T1800,1074A,115.6838,37.7541,衡水市,电机北厂,臭氧1小时,114,68,70,35,38,227,,220,220,10,17,2,4,0.4,0.4
2025-05-29T1800,1075A,115.6303,37.7316,衡水市,市监测站,臭氧1小时,108,67,70,31,34,216,,215,215,7,16,7,9,0.4,0.5
2025-05-29T1800,3188A,115.6683,37.7217,衡水市,市城管局,臭氧1小时,114,62,67,32,38,227,,218,218,14,22,3,5,0.4,0.4
2025-05-29T1800,3459A,115.5989,37.5491,衡水市,地表水厂,臭氧1小时,108,76,81,30,37,216,,210,210,13,36,10,10,0.4,0.4
2025-05-29T1800,2456A,112.5003,26.9167,衡阳市,原169医院,,37,11,17,11,11,118,,114,114,5,11,2,2,0.5,0.6
2025-05-29T1800,2457A,112.6194,26.9258,衡阳市,衡阳化工总厂,,35,20,27,10,11,110,,102,102,5,6,7,6,0.5,0.5
2025-05-29T1800,2458A,112.6211,26.8956,衡阳市,珠晖区环保局,,37,24,19,10,9,116,,107,107,7,11,6,7,0.7,0.7
2025-05-29T1800,2459A,112.6197,26.8733,衡阳市,市委党校,,,24,19,,9,107,,101,101,7,9,4,4,0.4,0.5
2025-05-29T1800,2460A,112.6006,26.8919,衡阳市,市监测站,,34,20,17,10,12,108,,101,101,7,9,8,8,0.4,0.4
2025-05-29T1800,2461A,112.5664,26.9056,衡阳市,真空机电公司,,34,26,14,12,9,108,,104,104,8,9,7,6,0.7,0.7
2025-05-29T1800,3399A,112.6703,26.882,衡阳市,师范学院,,35,16,17,12,10,112,,106,106,7,8,7,7,0.7,0.7
2025-05-29T1800,2608A,103.3772,23.3993,红河哈尼族彝族自治州,污水处理厂,,25,19,14,16,13,79,,67,67,15,10,6,8,0.4,0.4
2025-05-29T1800,2609A,103.3861,23.35,红河哈尼族彝族自治州,监测站,,26,21,22,18,12,81,,64,64,6,8,9,15,0.5,0.5
2025-05-29T1800,3038A,103.3758,23.368,红河哈尼族彝族自治州,州图书馆,,26,21,13,18,9,83,,70,70,7,7,4,8,0.4,0.3
2025-05-29T1800,1090A,111.6507,40.7517,呼和浩特市,呼市一监,臭氧1小时,87,53,70,21,32,189,,186,186,6,13,11,11,0.1,0.2
2025-05-29T1800,1091A,111.6572,40.8033,呼和浩特市,小召,臭氧1小时,84,51,74,18,28,187,,187,187,18,21,8,9,0.6,0.8
2025-05-29T1800,1094A,111.7516,40.8369,呼和浩特市,如意水处理厂,臭氧1小时,85,47,62,17,30,188,,184,184,9,24,6,7,0.3,0.4
2025-05-29T1800,1095A,111.7276,40.8062,呼和浩特市,二十九中,,,,51,,31,,,143,,,19,,6,,0.4
2025-05-29T1800,1096A,111.5512,40.7866,呼和浩特市,工大金川校区,臭氧1小时,98,67,70,23,35,198,,194,194,15,25,9,11,0.4,0.6
2025-05-29T1800,1097A,111.717,40.7612,呼和浩特市,化肥厂生活区,臭氧1小时,93,47,60,18,30,194,,191,191,17,25,7,8,0.5,0.5
2025-05-29T1800,3698A,111.5968,40.8178,呼和浩特市,红旗小学,臭氧1小时,102,83,80,25,39,203,,201,201,21,37,7,8,0.4,0.5
2025-05-29T1800,3699A,111.6518,40.8389,呼和浩特市,海东办,臭氧1小时,84,66,67,24,33,187,,182,182,12,28,10,10,0.4,0.5
2025-05-29T1800,2192A,119.7594,49.2261,呼伦贝尔市,区环保局,,33,25,56,23,44,98,,121,93,8,9,6,6,0.2,0.3
2025-05-29T1800,3061A,119.7512,49.1577,呼伦贝尔市,国华电力东,,31,27,56,18,37,99,,123,96,6,7,4,4,0.2,0.3
2025-05-29T1800,1250A,120.0751,30.8669,湖州市,城西水厂,臭氧1小时,102,43,45,29,28,203,,185,185,16,24,6,7,0.4,0.4
2025-05-29T1800,2873A,120.0830,30.8929,湖州市,仁皇山新区,臭氧1小时,95,45,43,30,27,196,,178,178,15,22,13,7,0.6,0.6
2025-05-29T1800,2907A,120.1844,30.8596,湖州市,吴兴区站,臭氧1小时,90,55,43,30,28,192,,173,173,14,25,8,8,0.4,0.3
2025-05-29T1800,3562A,120.4148,30.8538,湖州市,南浔区站,臭氧1小时,87,41,43,23,27,189,,172,172,17,22,4,5,0.4,0.4
2025-05-29T1800,1607A,120.9049,40.7211,葫芦岛市,龙港区,臭氧1小时,68,46,35,22,22,174,,157,157,11,10,10,9,0.5,0.5
2025-05-29T1800,1608A,120.8392,40.7514,葫芦岛市,化工街,颗粒物(PM10),51,51,45,31,25,159,,147,147,19,14,10,8,0.5,0.6
2025-05-29T1800,1609A,120.8341,40.7073,葫芦岛市,新区,臭氧1小时,60,45,37,32,27,168,,156,156,13,14,7,7,0.6,0.7
2025-05-29T1800,1610A,120.8695,40.7677,葫芦岛市,东城区,臭氧1小时,53,35,37,35,29,162,,153,153,16,17,6,6,0.7,0.6
2025-05-29T1800,2482A,109.5981,27.5721,怀化市,林科所,,20,19,21,13,9,61,,82,79,6,5,4,5,0.5,0.6
2025-05-29T1800,2483A,109.9453,27.5444,怀化市,河西地税局,,,19,21,12,13,73,,80,80,,13,,3,0.6,0.6
2025-05-29T1800,2484A,109.9781,27.5342,怀化市,市四医院,,34,34,28,18,18,83,,81,81,12,7,1,3,0.8,0.8
2025-05-29T1800,2485A,109.9972,27.5578,怀化市,监测楼,,26,25,26,16,16,81,,78,78,5,7,8,8,0.3,0.3
2025-05-29T1800,2486A,110.0394,27.583,怀化市,市委党校,,24,18,22,10,19,76,,72,72,2,8,2,6,0.6,0.7
2025-05-29T1800,1210A,119.036,33.5981,淮安市,钵池山,,47,22,35,22,28,148,,143,143,12,17,7,8,0.4,0.5
2025-05-29T1800,1211A,119.007,33.575,淮安市,北京南路,,48,29,42,20,29,151,,152,152,8,11,8,10,0.4,0.5
2025-05-29T1800,1212A,118.989,33.6067,淮安市,市监测站,,43,24,39,19,29,137,,135,135,12,13,9,11,0.6,0.8
2025-05-29T1800,1213A,119.135,33.5039,淮安市,楚州区监测站,,42,27,43,20,32,132,,130,130,6,9,8,9,0.5,0.5
2025-05-29T1800,3426A,118.8755,33.2894,淮安市,新华书店,臭氧1小时,70,41,47,20,29,176,,170,170,13,16,10,10,0.6,0.9
2025-05-29T1800,4206A,119.0288,33.6319,淮安市,承德北路606号,,46,34,48,22,31,147,,143,143,12,13,7,9,0.3,0.4
2025-05-29T1800,2282A,116.8004,33.975,淮北市,监测站,臭氧1小时,101,52,64,27,39,202,,197,197,6,9,6,7,0.6,0.7
2025-05-29T1800,2283A,116.8091,33.9007,淮北市,烈山区政府,臭氧1小时,108,49,55,28,37,215,,202,202,,15,,6,0.7,0.8
2025-05-29T1800,3330A,116.8873,33.9836,淮北市,杜集区检察院,臭氧1小时,103,62,66,26,40,205,,191,191,13,16,7,9,0.7,0.9
2025-05-29T1800,4017A,116.7923,33.9535,淮北市,市博物馆,臭氧1小时,107,50,56,26,41,214,,207,207,12,15,6,7,0.7,0.7
2025-05-29T1800,2277A,116.8305,32.7727,淮南市,潘集区政府,臭氧1小时,67,50,84,31,55,173,,187,187,12,18,4,6,0.4,0.6
2025-05-29T1800,2279A,116.8569,32.5951,淮南市,谢家集区政府,臭氧1小时,69,70,80,17,46,175,,183,183,13,19,5,6,0.3,0.4
2025-05-29T1800,2280A,116.8281,32.633,淮南市,八公山区政府,臭氧1小时,75,49,76,22,44,180,,187,187,8,13,5,6,0.3,0.4
2025-05-29T1800,2281A,116.6325,32.6201,淮南市,焦岗湖风景区管理处,,,,,,,,,,,,,,,,
2025-05-29T1800,2894A,117.0566,32.6531,淮南市,经济技术开发区消防队,,,53,75,25,53,165,,166,166,8,18,,7,,0.5
2025-05-29T1800,3329A,117.0108,32.5893,淮南市,山南新区,臭氧1小时,79,45,88,26,63,183,,190,190,14,17,7,8,0.3,0.5
2025-05-29T1800,4209A,117.0031,32.6445,淮南市,国庆中路369号,臭氧1小时,74,49,85,25,50,179,,184,184,8,12,4,5,0.4,0.4
2025-05-29T1800,2446A,114.9028,30.4742,黄冈市,职工中心,,,29,32,20,25,160,,152,152,,8,8,7,0.5,0.6
2025-05-29T1800,2929A,114.8858,30.4519,黄冈市,红卫路,,49,32,31,26,32,154,,151,151,4,5,4,3,0.6,0.6
2025-05-29T1800,3398A,114.9136,30.4445,黄冈市,市林业局,,48,33,36,20,25,152,,144,144,6,9,8,8,0.6,0.7
2025-05-29T1800,2672A,102.0199,35.5102,黄南藏族自治州,同仁县隆务镇,颗粒物(PM10),60,69,38,15,12,116,,124,123,10,5,6,4,0.2,0.2
2025-05-29T1800,2295A,118.2903,29.6963,黄山市,延安路89号,,34,10,18,3,10,108,,106,106,1,6,5,5,0.2,0.4
2025-05-29T1800,2297A,118.1371,30.2756,黄山市,黄山区政府5号楼,,36,22,22,14,16,113,,110,110,2,4,3,3,0.2,0.3
2025-05-29T1800,4210A,118.3354,29.7203,黄山市,滨江东路7-2号,,34,17,24,3,12,107,,107,107,4,6,4,4,0.1,0.2
2025-05-29T1800,2423A,115.0601,30.2313,黄石市,沈家营,,49,25,28,13,15,156,,147,147,4,11,7,7,0.6,0.7
2025-05-29T1800,2426A,114.8988,30.2019,黄石市,铁山,,47,25,30,13,14,150,,149,149,3,4,4,4,0.8,0.5
2025-05-29T1800,2427A,115.0307,30.2092,黄石市,团城山,臭氧1小时,59,27,31,11,12,167,,155,155,3,6,7,9,0.4,0.5
2025-05-29T1800,3149A,115.0235,30.1578,黄石市,笔架山北路,,50,21,22,11,10,158,,148,148,9,11,8,8,0.4,0.6
2025-05-29T1800,4185A,115.0780,30.21118,黄石市,磁湖东路29号,臭氧1小时,55,34,28,20,17,164,,148,148,1,7,7,7,0.5,0.6
2025-05-29T1800,1392A,114.4183,23.0528,惠州市,河南岸金山湖子站,,14,6,29,3,22,42,,43,38,12,15,8,9,0.7,0.7
2025-05-29T1800,1393A,114.4053,23.0822,惠州市,下埔横江三路子站,,16,6,33,3,23,49,,52,43,8,13,4,6,0.5,0.5
2025-05-29T1800,1394A,114.4103,23.1142,惠州市,江北云山西路子站,,16,6,23,3,21,51,,49,45,8,14,6,7,0.5,0.7
2025-05-29T1800,1395A,114.4645,22.7833,惠州市,惠阳区承修路船湖子站,,11,6,37,3,22,34,,59,54,17,16,7,8,0.7,0.6
2025-05-29T1800,1396A,114.5317,22.7422,惠州市,大亚湾管委会子站,,9,7,38,3,22,27,,59,54,16,10,7,8,0.7,0.6
2025-05-29T1800,3314A,114.4338,22.8134,惠州市,惠阳秋长,,15,6,30,3,22,46,,65,62,12,17,9,12,0.6,0.6
2025-05-29T1800,3452A,114.6517,22.775,惠州市,大亚湾霞涌,,11,9,24,3,18,33,,60,54,10,11,6,6,0.7,0.6
2025-05-29T1800,2240A,130.9762,45.3001,鸡西市,环保局,,40,38,53,18,26,127,,145,145,16,29,6,6,0.4,0.6
2025-05-29T1800,2243A,130.9429,45.3039,鸡西市,第一中学,,38,23,40,13,20,120,,135,135,9,18,6,7,0.4,0.5
2025-05-29T1800,3707A,131.0207,45.3073,鸡西市,欧美日汽修厂,,39,28,54,18,28,123,,141,139,12,27,6,7,0.4,0.4
2025-05-29T1800,3709A,130.9967,45.3106,鸡西市,市政设施管理处,,40,36,57,21,25,125,,141,141,18,32,6,6,0.5,0.5
2025-05-29T1800,2367A,114.9754,27.0803,吉安市,红声器材厂,,33,17,19,6,9,103,,98,98,9,8,11,10,0.5,0.5
2025-05-29T1800,2368A,114.9658,27.0999,吉安市,市森林工业局,,30,22,20,11,11,94,,94,94,8,5,6,6,0.3,0.4
2025-05-29T1800,2369A,114.99,27.1312,吉安市,市环境监测站,,48,48,22,17,13,96,,93,93,5,4,14,13,0.5,0.5
2025-05-29T1800,2370A,115.0093,27.0968,吉安市,青原区法院,,33,21,19,8,12,103,,97,97,6,7,5,5,0.3,0.3
2025-05-29T1800,1772A,126.54,43.8622,吉林市,哈达湾,,50,26,54,11,21,159,,169,169,9,22,6,6,0.3,0.4
2025-05-29T1800,1773A,126.5844,43.8358,吉林市,东局子,臭氧1小时,52,38,37,27,25,161,,172,172,14,20,6,6,0.7,0.7
2025-05-29T1800,1774A,126.5052,43.8245,吉林市,电力学院,,48,22,40,14,25,151,,166,166,10,28,5,5,0.4,0.5
2025-05-29T1800,1775A,126.6133,43.8972,吉林市,江北,臭氧1小时,57,42,46,24,23,165,,176,176,11,19,7,7,0.6,0.6
2025-05-29T1800,1776A,126.555,43.8306,吉林市,江南公园,,46,27,35,21,27,146,,163,163,10,15,6,6,0.5,0.6
2025-05-29T1800,1778A,126.7061,43.7133,吉林市,丰满,,,,,,,,,,,,,,,,
2025-05-29T1800,2868A,126.4739,43.953,吉林市,九站,臭氧1小时,55,27,52,13,30,164,,182,180,13,39,5,8,0.4,0.5
2025-05-29T1800,1299A,116.9862,36.6114,济南市,科干所,臭氧1小时,114,53,49,29,25,227,,223,223,14,12,5,6,0.4,0.3
2025-05-29T1800,1300A,116.9376,36.665,济南市,农科所,臭氧1小时,106,56,55,24,25,212,,220,220,12,17,8,8,0.3,0.3
2025-05-29T1800,1301A,117.1265,36.6734,济南市,开发区,臭氧1小时,118,68,54,32,30,235,,232,232,19,13,8,9,0.8,0.7
2025-05-29T1800,1303A,117.0624,36.6868,济南市,省种子仓库,臭氧1小时,135,66,62,29,28,269,,245,245,15,16,6,7,0.5,0.5
2025-05-29T1800,1304A,116.9489,36.6447,济南市,机床二厂,臭氧1小时,109,59,62,27,27,217,,210,210,20,19,6,7,0.6,0.6
2025-05-29T1800,1305A,117.0495,36.663,济南市,市监测站,臭氧1小时,110,54,55,29,26,220,,222,222,13,14,9,10,0.6,0.6
2025-05-29T1800,1306A,116.7675,36.5484,济南市,长清党校,臭氧1小时,107,54,50,32,28,213,,210,210,11,13,5,6,0.6,0.5
2025-05-29T1800,1616A,117.6795,36.229,济南市,技术学院,臭氧1小时,101,39,44,24,26,202,,208,208,15,24,12,12,0.6,0.7
2025-05-29T1800,1961A,117.532,36.6868,济南市,东山小学,臭氧1小时,98,46,52,24,24,198,,223,223,3,5,5,5,0.3,0.5
2025-05-29T1800,3059A,117.7161,36.2049,济南市,泰兴公司,臭氧1小时,101,34,48,27,28,201,,205,205,13,23,6,8,0.5,0.6
2025-05-29T1800,3064A,117.6867,36.2171,济南市,莱芜战役纪念馆,臭氧1小时,103,44,49,29,28,205,,213,213,9,16,7,8,0.5,0.7
2025-05-29T1800,3494A,117.1673,36.9782,济南市,济阳区政府,臭氧1小时,126,63,81,27,31,252,,236,236,11,28,10,10,0.5,0.6
2025-05-29T1800,3495A,117.1171,36.63,济南市,锦屏中学,臭氧1小时,105,39,49,27,27,209,,223,221,11,14,10,10,0.7,0.7
2025-05-29T1800,3682A,116.9814,36.6819,济南市,济南四建,臭氧1小时,120,58,57,29,29,239,,227,227,23,19,6,7,0.5,0.8
2025-05-29T1800,1653A,116.6251,35.4302,济宁市,火炬城,臭氧1小时,107,57,54,34,33,213,,202,202,7,12,6,7,0.4,0.4
2025-05-29T1800,1655A,116.5491,35.4042,济宁市,电化厂,臭氧1小时,103,58,55,29,27,205,,193,193,3,7,3,4,0.6,0.6
2025-05-29T1800,3500A,116.5814,35.3707,济宁市,北湖一中,臭氧1小时,107,54,55,36,33,213,,202,202,6,10,6,6,0.5,0.5
2025-05-29T1800,3501A,116.8249,35.5593,济宁市,服务中心,臭氧1小时,106,54,61,21,24,211,,205,205,11,20,2,3,0.4,0.3
2025-05-29T1800,3678A,116.5907,35.4054,济宁市,市第七中学,臭氧1小时,103,51,52,27,26,206,,196,196,5,9,7,8,0.5,0.4
2025-05-29T1800,2255A,130.2751,46.8028,佳木斯市,佳纺,臭氧1小时,84,61,47,22,22,187,,178,178,9,14,5,5,0.4,0.4
2025-05-29T1800,2256A,130.3995,46.8307,佳木斯市,发电厂,臭氧1小时,92,56,42,29,25,193,,183,183,14,17,5,4,0.5,0.5
2025-05-29T1800,2257A,130.3258,46.7975,佳木斯市,环保局,臭氧1小时,80,44,41,25,23,184,,177,177,11,11,5,4,0.4,0.3
2025-05-29T1800,2258A,130.3648,46.8032,佳木斯市,十一中,臭氧1小时,82,41,47,26,28,185,,179,179,15,16,4,4,0.6,0.5
2025-05-29T1800,2259A,130.3794,46.7588,佳木斯市,四丰,,,22,24,19,16,,,,,9,10,1,1,0.6,0.5
2025-05-29T1800,1252A,120.7436,30.778,嘉兴市,清河小学,,42,35,36,17,19,134,,150,150,16,18,7,7,0.6,0.7
2025-05-29T1800,1253A,120.726,30.7478,嘉兴市,嘉兴学院,,,35,32,20,20,138,,157,157,18,18,6,6,,0.6
2025-05-29T1800,2872A,120.7846,30.7525,嘉兴市,南湖区残联,,44,34,35,21,21,138,,156,156,12,16,7,6,0.4,0.5
2025-05-29T1800,3407A,120.6916,30.7739,嘉兴市,秀洲住建,,46,32,33,20,20,147,,165,165,12,21,7,7,0.4,0.4
2025-05-29T1800,1945A,98.2908,39.7711,嘉峪关市,气象局,颗粒物(PM10),106,161,145,39,42,110,,112,109,7,6,4,5,0.1,0.1
2025-05-29T1800,2884A,98.2672,39.7978,嘉峪关市,酒钢宾馆,颗粒物(PM10),97,144,149,36,26,106,,107,107,10,13,14,20,0.6,0.9
2025-05-29T1800,3248A,98.2643,39.7724,嘉峪关市,雄关区,颗粒物(PM10),89,127,117,33,24,108,,107,107,11,10,10,11,0.2,0.2
2025-05-29T1800,1383A,113.1064,22.6058,江门市,北街,,29,29,27,3,22,38,,53,52,34,30,3,3,0.7,0.6
2025-05-29T1800,1384A,113.0731,22.5835,江门市,西区,,19,19,21,9,16,46,,57,57,34,29,6,7,0.7,0.6
2025-05-29T1800,1385A,113.0219,22.5311,江门市,圭峰西,,17,17,26,7,25,51,,61,61,23,21,4,4,0.6,0.6
2025-05-29T1800,1386A,113.0828,22.5947,江门市,东湖,,14,8,29,6,18,42,,54,54,15,15,8,8,0.6,0.6
2025-05-29T1800,3311A,113.1075,22.5647,江门市,江海富民,,37,37,50,15,32,45,,63,63,34,32,8,9,0.6,0.7
2025-05-29T1800,3449A,113.05,22.4667,江门市,新会银湖,,29,29,28,11,24,50,,68,68,32,31,2,2,0.7,0.6
2025-05-29T1800,1830A,113.1992,35.2590,焦作市,影视城,,,,,,,,,,,,,,,,
2025-05-29T1800,3169A,113.2725,35.2067,焦作市,太极体育中心,臭氧1小时,125,97,78,41,39,250,,236,236,9,12,,10,0.2,0.3
2025-05-29T1800,3335A,113.3137,35.2641,焦作市,马村街道办,臭氧1小时,127,88,84,52,44,253,,233,233,16,19,10,13,0.6,0.7
2025-05-29T1800,3336A,113.2465,35.2373,焦作市,焦作技师学院,臭氧1小时,120,75,62,34,35,240,,223,223,9,12,6,7,0.4,0.5
2025-05-29T1800,3477A,113.1656,35.2539,焦作市,中站许衡医院,臭氧1小时,115,83,79,43,36,229,,216,216,11,16,5,7,0.5,0.5
2025-05-29T1800,3981A,113.2449,35.1803,焦作市,原李万街道办,臭氧1小时,122,71,77,36,34,243,,231,231,15,18,8,19,0.3,0.4
2025-05-29T1800,4264A,113.2340,35.2190,焦作市,新安路1731号,臭氧1小时,111,79,77,35,38,221,,209,209,11,12,5,8,,0.5
2025-05-29T1800,1708A,116.3701,23.5345,揭阳市,新兴,,18,,20,11,21,57,,62,62,26,23,5,6,0.7,0.7
2025-05-29T1800,1709A,116.3264,23.5443,揭阳市,西马,,18,12,23,3,14,57,,60,60,18,18,7,7,0.9,0.9
2025-05-29T1800,1710A,116.3611,23.5626,揭阳市,东兴,,,,20,8,23,59,,59,59,19,21,,4,0.9,0.8
2025-05-29T1800,1711A,116.4151,23.5294,揭阳市,渔湖,,17,6,20,3,11,52,,62,60,28,24,2,3,0.8,0.7
2025-05-29T1800,3320A,116.403,23.5699,揭阳市,曲溪,,18,,22,11,17,57,,60,60,22,22,3,6,0.6,0.6
2025-05-29T1800,1944A,102.1692,38.5167,金昌市,天庆家园,颗粒物(PM10),79,107,517,14,111,118,,122,121,2,3,6,3,0.7,0.5
2025-05-29T1800,4022A,102.1647,38.5371,金昌市,金川区人防中心,颗粒物(PM10),83,116,233,14,60,116,,118,118,3,3,8,8,0.7,0.5
2025-05-29T1800,4239A,102.1930,38.5319,金昌市,长春路96号,颗粒物(PM10),77,104,544,14,111,117,,126,125,1,2,11,7,0.6,0.6
2025-05-29T1800,1262A,119.647,29.077,金华市,十五中,,38,16,26,14,23,120,,124,124,14,14,6,4,0.4,0.5
2025-05-29T1800,1263A,119.686,29.1029,金华市,监测站,,35,13,27,10,21,111,,129,126,14,16,3,2,0.4,0.5
2025-05-29T1800,3659A,119.656,29.1131,金华市,气象局,,35,15,27,8,18,109,,118,118,14,20,3,2,0.4,0.4
2025-05-29T1800,1767A,121.1115,41.0879,锦州市,南山,细颗粒物(PM2.5),59,61,44,42,36,162,,146,146,17,20,8,12,0.6,0.6
2025-05-29T1800,1768A,121.0604,40.8428,锦州市,开发区,臭氧1小时,64,66,54,30,29,171,,158,158,24,25,6,6,0.6,0.6
2025-05-29T1800,1769A,121.1836,41.1119,锦州市,百股街道,臭氧1小时,57,48,39,27,28,165,,152,152,13,17,8,8,0.7,0.6
2025-05-29T1800,1770A,121.1178,41.1222,锦州市,天安街道,颗粒物(PM10),59,68,49,38,37,166,,153,153,18,19,7,13,0.7,0.7
2025-05-29T1800,1771A,121.1303,41.1386,锦州市,北湖公园,臭氧1小时,54,51,46,34,34,163,,151,151,18,17,9,13,0.7,0.7
2025-05-29T1800,2160A,112.85,35.5051,晋城市,自来水公司,臭氧1小时,129,95,70,44,35,258,,190,190,15,20,3,3,0.3,0.3
2025-05-29T1800,2161A,112.8318,35.4936,晋城市,白云商贸,臭氧1小时,120,111,80,31,27,239,,216,216,20,24,7,7,0.5,0.6
2025-05-29T1800,2162A,112.8508,35.4887,晋城市,市环保局,臭氧1小时,121,115,87,41,37,241,,143,143,14,18,8,9,0.3,0.4
2025-05-29T1800,2163A,112.8676,35.4897,晋城市,技术学院,臭氧1小时,129,104,82,34,31,258,,233,233,19,28,8,8,0.5,0.6
2025-05-29T1800,2165A,112.8453,35.546,晋城市,白马寺,臭氧1小时,128,71,57,37,36,255,,228,228,10,9,4,5,0.5,0.5
2025-05-29T1800,3620A,112.8271,35.4828,晋城市,泽州一中,臭氧1小时,129,92,69,39,33,258,,231,231,16,21,10,10,0.5,0.5
2025-05-29T1800,2173A,112.7249,37.7067,晋中市,南都小区,臭氧1小时,106,48,55,15,22,212,,203,203,6,9,6,7,0.1,0.3
2025-05-29T1800,2174A,112.6991,37.6982,晋中市,榆次区政府,臭氧1小时,98,53,52,14,19,198,,192,192,10,13,8,9,0.4,0.4
2025-05-29T1800,2865A,112.7195,37.6828,晋中市,榆次三中,臭氧1小时,95,61,55,19,23,196,,189,189,8,16,4,5,0.3,0.4
2025-05-29T1800,4200A,112.7478,37.6954,晋中市,迎宾街26号,臭氧1小时,98,68,55,27,24,198,,194,188,7,14,5,6,0.2,0.6
2025-05-29T1800,2439A,112.2014,31.0481,荆门市,竹园小学,,,40,51,24,39,161,,167,167,8,11,,8,0.2,0.4
2025-05-29T1800,2440A,112.1969,30.9891,荆门市,掇刀,,48,34,43,27,39,153,,158,158,7,10,6,9,0.5,0.5
2025-05-29T1800,2441A,112.2213,31.0386,荆门市,石化一小,,48,34,53,31,40,151,,157,157,8,16,12,14,0.4,0.1
2025-05-29T1800,3012A,112.1849,31.0362,荆门市,西山林语,,46,36,38,12,41,147,,152,152,4,7,8,9,0.3,0.3
2025-05-29T1800,3547A,112.1632,31.0138,荆门市,龙泉中学南校,,45,34,36,20,27,144,,147,147,4,10,5,4,1.0,1
2025-05-29T1800,1844A,112.2494,30.3197,荆州市,市图书馆,,45,30,26,18,23,143,,136,136,17,21,4,6,0.6,0.7
2025-05-29T1800,1845A,112.2008,30.3544,荆州市,市委党校,,43,25,28,20,23,136,,146,146,22,25,6,7,0.3,0.5
2025-05-29T1800,3194A,112.2747,30.3122,荆州市,管委会,,44,28,25,18,23,138,,129,129,11,22,10,11,0.5,0.6
2025-05-29T1800,4268A,112.1722,30.3366,荆州市,学苑路85号,,44,20,24,19,25,140,,142,142,18,32,2,6,0.6,0.5
2025-05-29T1800,2342A,117.3102,29.3867,景德镇市,王港中学,,,,,,,,,,,,,,,,
2025-05-29T1800,2343A,117.2117,29.2933,景德镇市,老干部活动中心,,31,17,19,3,11,97,,99,99,5,6,4,6,0.4,0.4
2025-05-29T1800,2344A,117.1894,29.2789,景德镇市,兽医站,,31,8,26,3,12,98,,99,99,4,5,4,4,0.6,0.6
2025-05-29T1800,2345A,117.1547,29.2617,景德镇市,台达陶瓷,,31,12,22,6,15,99,,101,101,5,7,1,6,0.4,0.5
2025-05-29T1800,2346A,117.2461,29.2956,景德镇市,陶研所,,31,7,19,3,14,98,,98,98,2,6,1,1,0.1,0.2
2025-05-29T1800,1803A,115.9872,29.6815,九江市,十里,臭氧1小时,70,30,31,25,26,176,,151,151,5,18,4,5,0.5,0.6
2025-05-29T1800,1804A,115.9584,29.7046,九江市,茅山头,臭氧1小时,82,26,36,24,25,185,,164,164,9,15,4,5,0.5,0.6
2025-05-29T1800,1805A,115.9877,29.7295,九江市,西园,臭氧1小时,68,29,33,20,26,174,,158,158,24,28,5,11,0.6,0.6
2025-05-29T1800,1808A,115.9114,29.6038,九江市,综合工业园,臭氧1小时,54,35,31,22,19,163,,156,156,19,26,12,11,0.7,0.5
2025-05-29T1800,1809A,116.0721,29.7535,九江市,石化总厂,臭氧1小时,54,33,34,31,29,163,,148,148,14,19,4,4,0.7,0.7
2025-05-29T1800,1810A,115.9773,29.5698,九江市,庐山气象台,,38,31,16,17,16,120,,124,124,5,4,6,7,0.6,0.8
2025-05-29T1800,3190A,116.0254,29.6994,九江市,外国语学校,臭氧1小时,69,31,32,20,23,175,,152,152,13,20,10,13,0.8,0.9
2025-05-29T1800,4253A,116.0102,29.6594,九江市,莲花大道8号,臭氧1小时,62,33,29,22,20,169,,144,144,3,5,5,5,0.6,0.5
2025-05-29T1800,4240A,98.4958,39.7339,酒泉市,玉门东路5号,颗粒物(PM10),85,119,161,61,34,101,,113,99,4,4,8,17,0.3,0.3
2025-05-29T1800,4241A,98.5099,39.7506,酒泉市,北大街108号,颗粒物(PM10),92,134,133,37,29,113,,115,115,8,7,10,12,0.3,0.2
2025-05-29T1800,2698A,76.0072,39.4467,喀什地区,巡警大队,,37,28,53,3,11,117,,99,99,9,13,5,5,0.2,0.3
2025-05-29T1800,2699A,75.9755,39.4694,喀什地区,吾办,,41,41,47,14,16,118,,98,98,2,5,9,11,0.3,0.3
2025-05-29T1800,4027A,75.9483,39.4689,喀什地区,老干局,,44,44,53,8,12,102,,84,84,4,3,5,3,0.0,0
2025-05-29T1800,1824A,114.3389,34.7781,开封市,肿瘤医院,臭氧1小时,110,86,84,32,41,219,,215,215,8,16,8,9,0.6,0.7
2025-05-29T1800,1826A,114.2885,34.7965,开封市,世纪星幼儿园,臭氧1小时,113,97,87,41,44,226,,220,220,15,22,7,8,0.6,0.7
2025-05-29T1800,3147A,114.3438,34.8106,开封市,龙亭公园,臭氧1小时,113,93,83,34,40,226,,223,223,14,22,5,7,0.7,0.8
2025-05-29T1800,3210A,114.3644,34.7964,开封市,汴京公园,臭氧1小时,113,95,94,35,47,225,,225,225,11,20,4,8,0.7,0.9
2025-05-29T1800,3473A,114.2485,34.8306,开封市,技师学院,臭氧1小时,108,78,76,28,40,216,,210,210,7,14,6,8,0.6,0.7
2025-05-29T1800,3592A,114.4644,34.7556,开封市,祥符区生态环境局,臭氧1小时,105,77,75,43,34,210,,213,213,20,33,7,8,0.4,0.5
2025-05-29T1800,1951A,84.895,45.6094,克拉玛依市,长征新村,,30,8,8,3,5,96,,87,87,5,10,6,6,0.2,0.2
2025-05-29T1800,1952A,84.8988,45.5893,克拉玛依市,南林小区,,35,35,30,3,6,101,,90,90,2,9,11,11,0.2,0.3
2025-05-29T1800,1954A,84.905,44.3396,克拉玛依市,独山子区,,39,25,32,7,14,122,,112,112,6,9,6,7,0.3,0.4
2025-05-29T1800,1955A,85.6979,46.098,克拉玛依市,乌尔禾区商贸楼,,34,34,27,3,6,108,,96,96,2,8,2,2,0.3,0.4
2025-05-29T1800,3612A,85.1045,45.6899,克拉玛依市,白碱滩区新站,,,,46,,18,113,,100,100,2,7,13,12,0.0,0
2025-05-29T1800,2697A,76.1454,39.7142,克孜勒苏柯尔克孜自治州,市人民政府,,39,18,53,11,24,122,,109,109,2,6,2,5,0.5,0.5
2025-05-29T1800,3665A,76.1658,39.7157,克孜勒苏柯尔克孜自治州,克州文化中心,,38,27,51,10,26,120,,109,109,2,3,4,6,0.3,0.3
2025-05-29T1800,1450A,102.8204,24.8886,昆明市,呈贡新区,,30,30,16,7,7,55,,66,64,12,13,3,4,0.6,0.6
2025-05-29T1800,1451A,102.6251,24.9608,昆明市,西山森林公园,,,,,,,,,,,,,,,,
2025-05-29T1800,1452A,102.7252,25.0902,昆明市,龙泉镇,,18,16,10,12,8,51,,53,53,16,14,1,3,0.5,0.5
2025-05-29T1800,1453A,102.7266,25.0375,昆明市,东风东路,,31,31,16,12,10,50,,61,61,32,23,6,6,0.5,0.5
2025-05-29T1800,1454A,102.6742,25.0669,昆明市,金鼎山,,26,26,11,11,9,46,,57,57,28,20,1,1,0.5,0.5
2025-05-29T1800,1455A,102.6644,25.0401,昆明市,碧鸡广场,,17,15,12,3,8,54,,61,61,29,23,5,5,0.7,0.6
2025-05-29T1800,3179A,102.7494,25.0119,昆明市,官渡区博物馆,,16,,11,7,7,49,,60,60,25,30,6,6,0.4,0.5
2025-05-29T1800,3375A,102.8017,24.8336,昆明市,青年创业园,,21,,6,8,5,65,,71,71,9,12,7,6,0.4,0.4
2025-05-29T1800,3550A,102.7997,24.9786,昆明市,昆明学院,,18,10,13,6,10,56,,67,67,15,23,5,4,0.2,0.3
2025-05-29T1800,3551A,102.5967,24.6736,昆明市,晋宁区生态环境分局,,19,10,12,7,3,58,,68,67,10,9,5,5,0.5,0.6
2025-05-29T1800,3552A,102.6678,24.9856,昆明市,云天化总部,,16,9,11,8,9,50,,61,61,19,21,3,3,0.7,0.6
2025-05-29T1800,1456A,91.1319,29.6514,拉萨市,八廓街,,28,20,16,3,8,89,,98,98,7,15,7,7,0.3,0.3
2025-05-29T1800,1457A,91.1221,29.6747,拉萨市,市环保局,,26,12,16,6,7,81,,93,93,11,13,6,5,0.2,0.2
2025-05-29T1800,1458A,91.0874,29.6475,拉萨市,区监测站,,27,7,11,3,7,85,,95,95,10,13,6,6,0.3,0.2
2025-05-29T1800,1459A,91.1774,29.6541,拉萨市,西藏大学,,27,6,15,3,7,86,,92,91,6,16,3,8,0.3,0.4
2025-05-29T1800,1460A,90.9798,29.6588,拉萨市,区辐射站,,22,10,16,3,8,69,,84,84,13,15,6,6,0.3,0.3
2025-05-29T1800,1461A,91.0834,29.6292,拉萨市,拉萨火车站,,26,7,10,7,7,82,,93,93,4,8,4,4,0.1,0.2
2025-05-29T1800,2520A,109.2203,23.7256,来宾市,来宾技工学校,,20,,10,6,6,63,,68,68,6,7,5,4,1.1,1
2025-05-29T1800,3535A,109.1781,23.7297,来宾市,兴宾区政府,,18,6,13,3,8,55,,62,62,6,6,4,4,0.8,0.8
2025-05-29T1800,4002A,109.2416,23.7461,来宾市,中南小学,,20,6,10,3,4,64,,68,68,7,8,2,3,0.7,0.7
2025-05-29T1800,1477A,104.1373,35.9454,兰州市,榆中兰大校区,,,,,,,,,,,,,,,,
2025-05-29T1800,1479A,103.831,36.0464,兰州市,铁路设计院,颗粒物(PM10),68,86,41,21,23,118,,112,112,16,17,9,9,0.4,0.4
2025-05-29T1800,3241A,103.7439,36.0842,兰州市,百合公园,,45,45,34,14,15,118,,114,114,5,6,3,3,0.4,0.4
2025-05-29T1800,3242A,103.9611,35.998,兰州市,和平,颗粒物(PM10),73,96,45,26,22,117,,112,112,8,9,7,7,0.4,0.4
2025-05-29T1800,4236A,103.6293,36.0938,兰州市,庄浪东路808号,颗粒物(PM10),57,63,46,31,26,112,,113,113,15,20,9,9,0.3,0.3
2025-05-29T1800,4237A,103.7251,36.1043,兰州市,安宁西路88号,颗粒物(PM10),64,77,49,27,25,129,,126,126,5,3,5,5,0.3,0.2
2025-05-29T1800,4238A,103.8470,36.0676,兰州市,北滨河东路1号,颗粒物(PM10),68,86,44,25,21,122,,118,118,13,13,8,8,0.5,0.6
2025-05-29T1800,3245A,103.6633,36.533,兰州新区,新区管委会,,44,44,45,24,30,129,,122,122,6,7,10,13,0.3,0.4
2025-05-29T1800,3246A,103.6975,36.4789,兰州新区,舟曲中学,,39,30,42,10,18,124,,118,118,11,12,8,10,0.3,0.3
2025-05-29T1800,1067A,116.6708,39.5111,廊坊市,药材公司,臭氧1小时,109,66,83,31,53,218,,210,210,8,18,4,4,0.4,0.6
2025-05-29T1800,1068A,116.7214,39.5589,廊坊市,开发区,臭氧1小时,113,74,90,30,47,226,,215,215,13,30,4,4,0.4,0.6
2025-05-29T1800,1070A,116.7244,39.5269,廊坊市,北华航天学院,臭氧1小时,107,73,101,31,57,214,,205,205,9,21,5,5,0.4,0.6
2025-05-29T1800,2919A,116.7022,39.5453,廊坊市,河北工业大学,臭氧1小时,112,84,90,46,51,224,,212,212,9,22,7,6,0.4,0.6
2025-05-29T1800,2535A,103.7723,29.5462,乐山市,花湖湾,,44,22,27,16,20,140,,126,126,8,11,7,6,0.4,0.5
2025-05-29T1800,2536A,103.7627,29.5844,乐山市,牛耳桥,,40,29,34,20,21,128,,121,121,11,15,8,9,0.9,0.9
2025-05-29T1800,2537A,103.7508,29.6006,乐山市,市第三水厂,,40,33,29,19,23,128,,123,123,14,17,5,6,0.7,0.8
2025-05-29T1800,2538A,103.7571,29.5664,乐山市,市监测站,,,40,32,27,22,129,,112,112,,14,12,9,1.1,1.2
2025-05-29T1800,3361A,103.7311,29.5628,乐山市,理工大学,,42,36,29,24,22,132,,122,122,16,18,8,7,0.7,0.7
2025-05-29T1800,2598A,100.2143,26.8576,丽江市,西南郊,,16,10,6,6,4,49,,64,63,9,5,5,6,1.2,1.1
2025-05-29T1800,2599A,100.2497,26.8802,丽江市,丽江古城,,,11,12,,11,51,,57,57,13,13,9,9,0.5,0.5
2025-05-29T1800,2600A,100.2203,26.8906,丽江市,市中心,,13,,6,8,9,40,,52,50,14,17,5,8,0.5,0.6
2025-05-29T1800,1267A,119.914,28.4514,丽水市,监测站大楼,,28,17,13,8,8,87,,93,93,10,11,3,2,0.3,0.3
2025-05-29T1800,1268A,119.93,28.4586,丽水市,莲都小学,,30,19,13,6,6,94,,99,99,9,12,3,3,0.3,0.3
2025-05-29T1800,1269A,119.879,28.4231,丽水市,余庄前,,24,11,13,6,8,75,,90,86,5,10,3,3,0.3,0.3
2025-05-29T1800,1173A,119.176,34.5885,连云港市,市环境监测站,,,39,35,,19,133,,150,150,15,11,12,7,0.4,0.3
2025-05-29T1800,3000A,119.3581,34.6972,连云港市,德源药业,,36,27,36,14,16,114,,145,145,12,15,10,10,0.3,0.7
2025-05-29T1800,3007A,119.178,34.844,连云港市,新城一中,,38,38,42,15,20,117,,149,148,16,24,8,8,0.9,0.9
2025-05-29T1800,3008A,119.3608,34.7519,连云港市,胡沟管理处,,31,31,24,14,12,93,,127,117,36,22,14,12,0.5,0.6
2025-05-29T1800,3009A,119.1478,34.5911,连云港市,矿山设计院,,48,48,33,22,15,126,,140,140,13,10,10,5,0.6,0.5
2025-05-29T1800,3434A,119.2413,34.6539,连云港市,工贸学校,,46,29,26,19,18,145,,160,160,11,8,21,10,0.6,0.5
2025-05-29T1800,3664A,119.4172,34.7341,连云港市,连云街道,,44,29,37,15,19,139,,140,140,6,15,11,11,0.3,0.5
2025-05-29T1800,2571A,102.3431,27.8099,凉山彝族自治州,青龙寺,,24,,11,3,4,74,,78,78,1,4,5,5,0.7,0.8
2025-05-29T1800,2572A,102.2721,27.8415,凉山彝族自治州,邛海宾馆,,21,20,15,8,7,67,,71,71,7,14,6,7,0.7,0.8
2025-05-29T1800,2573A,102.2625,27.898,凉山彝族自治州,西昌市政府,,23,13,17,3,14,72,,85,85,8,13,8,11,0.7,1
2025-05-29T1800,2574A,102.2685,27.8851,凉山彝族自治州,凉山州政府,,22,11,17,6,11,70,,80,80,8,14,8,8,0.8,1.1
2025-05-29T1800,4229A,102.2342,27.8859,凉山彝族自治州,凯乐南路30号,,,,24,,16,63,,76,76,13,20,20,16,,1.1
2025-05-29T1800,2212A,123.2,41.1953,辽阳市,宏伟区,臭氧1小时,74,37,36,22,22,179,,181,181,11,10,7,7,0.6,0.6
2025-05-29T1800,2213A,123.1683,41.2495,辽阳市,新华园,臭氧1小时,77,48,47,24,28,181,,184,184,10,12,7,8,0.7,0.7
2025-05-29T1800,2214A,123.2354,41.2639,辽阳市,滨河路,,50,36,37,24,25,157,,169,167,17,13,8,12,0.5,0.5
2025-05-29T1800,2215A,123.149,41.2991,辽阳市,铁西工业园,臭氧1小时,62,56,49,25,25,169,,170,170,11,13,6,7,0.5,0.6
2025-05-29T1800,2227A,125.1358,42.8845,辽源市,环保局,,44,34,45,8,22,138,,143,142,7,36,2,3,0.3,0.4
2025-05-29T1800,3239A,125.0764,42.9078,辽源市,银鹰制药,,44,19,42,8,25,139,,148,146,9,38,8,17,0.6,0.7
2025-05-29T1800,1625A,115.9848,36.4372,聊城市,区政府,臭氧1小时,111,48,64,24,32,222,,213,213,8,20,6,8,0.7,0.8
2025-05-29T1800,2878A,116.0072,36.4343,聊城市,聊大东校,臭氧1小时,111,63,66,29,37,221,,215,215,9,17,7,8,0.5,0.6
2025-05-29T1800,3200A,115.9819,36.4978,聊城市,监控中心,臭氧1小时,112,45,67,22,32,224,,216,216,9,24,8,9,0.7,0.7
2025-05-29T1800,3513A,116.0445,36.4361,聊城市,九州社区,臭氧1小时,107,45,61,22,31,213,,208,208,2,16,6,6,0.7,0.7
2025-05-29T1800,4018A,116.0567,36.4608,聊城市,星美广场,臭氧1小时,111,49,75,23,34,222,,216,216,6,15,9,9,0.8,0.8
2025-05-29T1800,2632A,94.3681,29.6376,林芝市,林芝监测站,,17,7,6,3,5,54,,62,60,5,4,4,3,0.4,0.5
2025-05-29T1800,2633A,94.3616,29.6616,林芝市,林芝人民医院,,17,13,11,6,5,52,,60,60,4,3,6,6,0.3,0.3
2025-05-29T1800,2603A,100.0781,23.8982,临沧市,市环保局,,49,,14,34,23,25,,33,32,7,7,5,4,0.5,0.5
2025-05-29T1800,2604A,100.0894,23.8822,临沧市,市气象局,,16,11,13,11,11,36,,46,46,8,8,4,3,0.3,0.4
2025-05-29T1800,1733A,111.5531,36.0783,临汾市,临钢医院,臭氧1小时,102,91,73,24,28,204,,210,210,17,19,4,4,0.6,0.7
2025-05-29T1800,1734A,111.5028,36.0714,临汾市,技工学校,臭氧1小时,109,84,66,36,37,217,,216,216,11,13,6,6,0.5,0.5
2025-05-29T1800,1736A,111.5018,36.0855,临汾市,市委,臭氧1小时,104,91,78,26,29,208,,209,209,14,17,6,6,0.7,0.7
2025-05-29T1800,3018A,111.505,36.1014,临汾市,唐尧大酒店,臭氧1小时,110,84,75,34,28,219,,217,217,11,14,7,6,0.5,0.7
2025-05-29T1800,4244A,111.4879,36.0530,临汾市,启星学校,臭氧1小时,109,93,67,28,37,218,,216,216,14,16,5,4,0.4,0.5
2025-05-29T1800,4271A,103.2464,35.6123,临夏回族自治州,滨河东路1号,,,50,40,20,17,129,,106,106,,9,9,8,0.3,0.3
2025-05-29T1800,4310A,103.2093,35.5995,临夏回族自治州,新华街21号,,46,46,37,17,19,147,,113,113,11,14,7,7,0.3,0.3
2025-05-29T1800,1618A,118.3429,35.0532,临沂市,沂河小区,臭氧1小时,52,39,53,20,28,161,,176,176,13,18,5,6,0.2,0.4
2025-05-29T1800,1619A,118.295,35.0583,临沂市,鲁南制药厂,臭氧1小时,64,34,49,18,29,171,,186,186,16,17,5,7,0.3,0.5
2025-05-29T1800,1620A,118.2794,34.9976,临沂市,新光毛纺厂,臭氧1小时,64,27,44,20,27,171,,181,181,11,16,10,9,0.3,0.4
2025-05-29T1800,1621A,118.3956,35.0888,临沂市,河东保险公司,臭氧1小时,59,31,45,12,22,167,,182,182,11,16,5,6,0.3,0.4
2025-05-29T1800,3370A,118.3564,35.0215,临沂市,十里堡居委,臭氧1小时,58,31,45,17,23,166,,182,182,13,20,6,8,0.3,0.5
2025-05-29T1800,3496A,118.3604,35.1084,临沂市,南坊新区,臭氧1小时,57,34,52,14,23,165,,178,178,11,18,6,8,0.4,0.5
2025-05-29T1800,3860A,118.3920,35.0300,临沂市,皇山花园小区,臭氧1小时,63,29,43,17,24,170,,184,182,14,24,7,9,0.3,0.6
2025-05-29T1800,1870A,109.4856,24.3895,柳州市,柳东小学,,18,6,9,3,4,55,,52,52,4,5,9,9,0.5,0.5
2025-05-29T1800,1871A,109.4157,24.3277,柳州市,环保监测站,,15,15,10,7,6,48,,50,50,14,11,1,2,0.8,0.9
2025-05-29T1800,1872A,109.389,24.341,柳州市,河西水厂,,22,22,15,11,7,39,,51,48,16,11,8,8,0.6,0.8
2025-05-29T1800,1873A,109.4311,24.2921,柳州市,市四中,,17,14,11,6,8,54,,51,51,10,10,7,8,0.8,0.8
2025-05-29T1800,1874A,109.4006,24.3631,柳州市,市九中,,17,16,13,8,6,54,,49,49,9,12,11,11,0.7,0.8
2025-05-29T1800,1875A,109.4958,24.3134,柳州市,古亭山,,19,7,6,3,2,59,,56,56,4,4,4,5,0.4,0.4
2025-05-29T1800,3402A,109.5422,24.3996,柳州市,市二中,,18,10,6,3,2,56,,49,48,9,10,10,10,0.4,0.4
2025-05-29T1800,2307A,116.5079,31.737,六安市,监测大楼,臭氧1小时,54,37,37,24,27,163,,147,147,7,9,4,4,0.3,0.4
2025-05-29T1800,2308A,116.4738,31.7643,六安市,皖西学院,臭氧1小时,55,35,36,23,24,164,,157,157,5,5,5,5,0.2,0.4
2025-05-29T1800,2309A,116.4996,31.7905,六安市,朝阳厂,,44,37,37,20,27,138,,134,134,12,15,5,5,0.2,0.4
2025-05-29T1800,2310A,116.5567,31.7886,六安市,开发区,臭氧1小时,62,40,53,14,28,169,,159,159,7,13,6,7,0.3,0.4
2025-05-29T1800,2576A,104.8,26.5892,六盘水市,窑上,,40,36,26,28,17,65,,66,66,4,6,3,3,0.5,0.5
2025-05-29T1800,2577A,104.83,26.5917,六盘水市,黄土坡,,23,16,16,16,15,72,,76,76,10,15,8,10,0.4,0.4
2025-05-29T1800,2578A,104.89,26.5939,六盘水市,水钢,,27,27,19,14,8,74,,78,78,10,11,9,10,0.3,0.4
2025-05-29T1800,2579A,104.8475,26.5894,六盘水市,民中,,23,20,17,12,9,71,,72,72,11,15,8,10,0.3,0.5
2025-05-29T1800,2580A,104.9544,26.5506,六盘水市,双水,,24,9,10,6,7,74,,76,76,10,12,9,9,0.3,0.3
2025-05-29T1800,2335A,117.0189,25.1181,龙岩市,龙岩师专,,,,,,,,,,,,,,,,
2025-05-29T1800,2336A,117.0217,25.1033,龙岩市,龙岩市监测站,,16,6,10,3,8,50,,50,50,9,16,3,4,0.6,0.7
2025-05-29T1800,2337A,117.0258,25.0661,龙岩市,闽西职业技术学院,,15,11,10,3,6,46,,43,43,5,11,3,5,0.6,0.6
2025-05-29T1800,2338A,117.0196,25.0306,龙岩市,龙岩学院,,14,7,9,3,5,44,,42,42,13,11,7,7,0.6,0.5
2025-05-29T1800,2665A,105.0822,33.3261,陇南市,汉王镇固水子,,,,,,,,,,,,,,,,
2025-05-29T1800,2885A,104.9339,33.3826,陇南市,滨江中学,,37,37,38,19,18,97,,105,104,3,6,8,9,0.5,0.5
2025-05-29T1800,3247A,104.955,33.371,陇南市,市总工会,,33,33,33,12,14,98,,103,103,4,5,7,8,0.6,0.5
2025-05-29T1800,2487A,111.9589,27.8901,娄底市,电视发射台,,37,21,16,11,5,117,,107,107,1,2,6,6,0.2,0.2
2025-05-29T1800,2488A,111.9975,27.725,娄底市,市监测站,,35,22,20,16,11,109,,100,100,8,18,5,7,0.4,0.4
2025-05-29T1800,2489A,112.0194,27.7314,娄底市,市委党校,,36,13,15,13,9,114,,102,102,2,5,3,3,0.1,0.2
2025-05-29T1800,2490A,111.9561,27.7569,娄底市,涟钢,,33,14,18,3,8,105,,92,92,9,7,11,5,0.6,0.8
2025-05-29T1800,2491A,111.9892,27.7044,娄底市,市政府,,37,,14,14,7,116,,103,103,6,7,4,4,0.4,0.5
2025-05-29T1800,1893A,105.4324,28.9634,泸州市,九狮山,,36,19,25,17,20,114,,116,116,12,18,4,4,0.4,0.4
2025-05-29T1800,1894A,105.4427,28.9063,泸州市,小市上码头,,,,22,,10,92,,98,98,,14,11,11,,0.5
2025-05-29T1800,1895A,105.4241,28.8573,泸州市,兰田宪桥,,33,12,23,11,10,104,,107,107,7,12,8,9,0.3,0.4
2025-05-29T1800,1896A,105.4379,28.8833,泸州市,市环监站,,33,8,20,8,13,105,,106,106,4,12,8,7,0.4,0.5
2025-05-29T1800,4272A,105.3689,28.7783,泸州市,纳溪中医医院,,30,18,27,8,16,96,,103,103,12,19,6,5,0.6,0.7
2025-05-29T1800,2183A,111.1406,37.5211,吕梁市,环保局,臭氧1小时,106,58,90,30,35,211,,200,200,12,30,4,6,0.4,0.5
2025-05-29T1800,2185A,111.1297,37.5136,吕梁市,自来水公司,臭氧1小时,104,62,76,24,30,207,,196,196,10,25,2,4,0.2,0.4
2025-05-29T1800,2867A,111.1283,37.51,吕梁市,马茂庄小学,,,67,87,,33,197,,191,191,22,39,3,4,0.6,0.6
2025-05-29T1800,1812A,112.3931,34.6516,洛阳市,市委党校,臭氧1小时,80,72,83,36,47,184,,194,194,7,24,4,8,0.5,0.7
2025-05-29T1800,1815A,112.494,34.6886,洛阳市,河南林校,臭氧1小时,104,88,89,43,49,207,,212,212,14,25,8,12,0.8,0.8
2025-05-29T1800,1816A,112.3844,34.623,洛阳市,开发区管委会,臭氧1小时,101,76,83,43,49,201,,213,213,7,21,6,9,0.5,0.6
2025-05-29T1800,1817A,112.4267,34.6258,洛阳市,市委新办公区,臭氧1小时,99,88,84,34,46,199,,207,207,8,24,5,8,0.8,0.8
2025-05-29T1800,3340A,112.6005,34.6326,洛阳市,伊滨,臭氧1小时,108,119,109,40,50,216,,216,216,13,26,5,8,0.4,0.5
2025-05-29T1800,3341A,112.4951,34.6332,洛阳市,中移产业园,臭氧1小时,102,85,101,36,49,204,,209,209,7,26,6,9,0.7,0.8
2025-05-29T1800,3593A,112.5736,34.8993,洛阳市,吉利监测站,臭氧1小时,105,83,91,36,45,209,,218,218,8,20,4,13,0.5,0.7
2025-05-29T1800,3635A,112.3677,34.662,洛阳市,河科大西苑校区,臭氧1小时,102,85,89,30,43,203,,217,217,10,27,7,10,0.6,0.8
2025-05-29T1800,3636A,112.4388,34.6781,洛阳市,英才小学,臭氧1小时,102,83,94,35,41,204,,213,213,10,24,7,10,0.5,0.6
2025-05-29T1800,4214A,112.4600,34.6949,洛阳市,春都路1号院,臭氧1小时,114,101,102,35,42,227,,234,234,12,24,6,10,0.5,0.6
2025-05-29T1800,2399A,114.051,33.5699,漯河市,三五一五工厂,臭氧1小时,111,141,122,39,49,221,,218,218,13,28,4,6,0.5,0.7
2025-05-29T1800,2400A,114.0055,33.5698,漯河市,漯河大学,臭氧1小时,113,151,130,31,50,225,,220,220,15,25,3,4,0.4,0.5
2025-05-29T1800,2401A,114.0138,33.5828,漯河市,市水利局,颗粒物(PM10),114,178,138,34,49,224,,220,220,11,21,4,6,0.6,0.8
2025-05-29T1800,2402A,114.0261,33.5698,漯河市,市广电局,臭氧1小时,113,154,132,27,51,226,,221,221,13,25,2,4,0.6,0.7
2025-05-29T1800,3478A,113.9749,33.5664,漯河市,市图书馆,臭氧1小时,111,127,117,27,50,221,,216,216,15,24,3,4,0.6,0.8
2025-05-29T1800,4250A,114.0892,33.5882,漯河市,韶山路11号,臭氧1小时,107,147,122,34,51,213,,216,216,19,29,4,7,0.5,0.6
2025-05-29T1800,1798A,118.5092,31.6837,马鞍山市,湖东路四小,臭氧1小时,75,46,53,17,33,180,,176,176,13,15,7,8,0.5,0.6
2025-05-29T1800,1799A,118.5024,31.6449,马鞍山市,开发区,臭氧1小时,73,44,62,18,31,178,,173,173,9,20,7,10,0.4,0.7
2025-05-29T1800,1802A,118.6245,31.7241,马鞍山市,濮塘,臭氧1小时,62,33,44,22,33,169,,164,164,3,7,8,8,0.6,0.7
2025-05-29T1800,3633A,118.4918,31.6809,马鞍山市,雨山,臭氧1小时,72,34,50,24,32,177,,173,173,11,15,8,10,0.4,0.6
2025-05-29T1800,4191A,118.5274,31.72227,马鞍山市,慈湖高新区,臭氧1小时,69,40,59,39,45,175,,168,168,23,21,6,7,0.4,0.5
2025-05-29T1800,1686A,111.0286,21.4688,茂名市,电白南海,,29,29,20,17,15,40,,50,49,10,9,2,3,0.5,0.4
2025-05-29T1800,1687A,110.9294,21.6533,茂名市,茂石化七小,,22,22,20,7,9,34,,50,49,17,10,2,3,0.4,0.3
2025-05-29T1800,1688A,110.9107,21.6687,茂名市,健康路,,19,19,17,7,12,41,,58,56,15,11,3,5,0.5,0.4
2025-05-29T1800,1689A,110.8592,21.6828,茂名市,高岭,,24,24,28,3,7,36,,52,51,18,12,6,27,0.4,0.4
2025-05-29T1800,3450A,111.01,21.5165,茂名市,电白水东,,24,24,15,14,7,40,,47,46,14,12,3,3,0.3,0.2
2025-05-29T1800,2539A,104.0308,30.0478,眉山市,黑龙滩水库,,45,11,14,7,14,142,,134,134,2,4,3,3,0.3,0.4
2025-05-29T1800,2540A,103.8416,30.0874,眉山市,气象局,,46,46,34,22,20,142,,138,138,16,16,3,3,0.4,0.4
2025-05-29T1800,3137A,103.8578,30.0744,眉山市,市委党校,,41,39,26,22,14,131,,125,125,18,15,9,8,0.4,0.5
2025-05-29T1800,3148A,103.8291,30.0564,眉山市,区人社局,,45,36,27,17,13,141,,135,135,19,15,16,12,0.5,0.4
2025-05-29T1800,1690A,116.1231,24.3284,梅州市,梅江月梅,,12,8,10,6,9,38,,36,36,13,11,5,5,0.7,0.7
2025-05-29T1800,1691A,116.0797,24.2719,梅州市,梅县新城,,,6,10,3,12,47,,40,40,13,17,,6,0.8,0.8
2025-05-29T1800,1692A,116.1248,24.2654,梅州市,环境监控中心,,13,8,12,6,12,39,,41,40,19,16,2,5,0.9,0.8
2025-05-29T1800,3315A,116.1233,24.2991,梅州市,梅龙,,13,9,10,3,7,40,,38,38,16,9,5,6,0.8,0.7
2025-05-29T1800,1878A,104.7778,31.4741,绵阳市,富乐山,,48,46,38,33,28,96,,62,62,17,17,8,8,0.6,0.5
2025-05-29T1800,1880A,104.6697,31.4668,绵阳市,高新区自来水公司,颗粒物(PM10),53,55,47,34,26,93,,77,77,16,21,3,4,0.8,0.7
2025-05-29T1800,1881A,104.7287,31.5075,绵阳市,三水厂,细颗粒物(PM2.5),52,52,44,36,33,86,,60,60,22,28,9,8,0.6,0.6
2025-05-29T1800,3491A,104.69,31.5322,绵阳市,西科大附属小学,,37,37,51,24,30,90,,68,68,12,32,7,7,0.5,0.6
2025-05-29T1800,3492A,104.5648,31.5343,绵阳市,安州区旅游局,,31,18,35,14,26,99,,66,66,11,25,3,2,0.9,0.9
2025-05-29T1800,4226A,104.7651,31.4531,绵阳市,绵阳市气象局,细颗粒物(PM2.5),55,56,44,39,29,81,,62,58,23,18,2,3,0.8,0.6
2025-05-29T1800,1784A,129.61,44.561,牡丹江市,环保大楼,,38,27,22,19,18,121,,135,135,16,16,6,6,0.3,0.2
2025-05-29T1800,1785A,129.6115,44.5782,牡丹江市,文化广场,,,25,41,17,22,125,,133,133,18,26,,10,,0.5
2025-05-29T1800,1786A,129.5904,44.5963,牡丹江市,第一医院,,39,27,37,18,22,123,,134,134,19,21,3,4,0.4,0.5
2025-05-29T1800,1787A,129.6364,44.6075,牡丹江市,机车工厂,,37,30,42,14,16,118,,133,133,19,20,4,5,0.4,0.5
2025-05-29T1800,1788A,129.6386,44.5462,牡丹江市,第一中学,,38,18,21,15,14,121,,134,134,14,14,6,6,0.3,0.3
2025-05-29T1800,2531A,105.0703,29.61,内江市,市监测站,,35,,19,10,15,112,,104,104,10,12,8,7,0.8,0.8
2025-05-29T1800,2532A,105.0717,29.5947,内江市,东兴区政府,,,,14,,9,120,,114,114,11,14,,6,0.5,0.5
2025-05-29T1800,2533A,105.0653,29.5817,内江市,内江二中,,39,13,17,7,18,122,,116,116,9,17,5,6,0.4,0.4
2025-05-29T1800,2534A,105.0406,29.5822,内江市,内江日报社,,38,14,17,8,15,121,,116,116,3,12,9,7,0.6,0.6
2025-05-29T1800,2628A,92.0657,31.4846,那曲市,那曲监测站,,35,24,23,3,9,110,,100,100,10,12,6,7,0.1,0.3
2025-05-29T1800,4243A,92.0515,31.4787,那曲市,那曲市委宣传部,,37,18,16,3,7,117,,105,105,6,5,7,6,0.2,0.2
2025-05-29T1800,1290A,115.8931,28.6843,南昌市,省外办,,34,14,23,7,17,106,,108,107,9,12,8,9,0.3,0.3
2025-05-29T1800,1291A,115.8886,28.7003,南昌市,省林业公司,,,6,16,3,14,107,,107,107,,11,7,10,0.3,0.4
2025-05-29T1800,1292A,115.8126,28.7442,南昌市,林科所,,35,7,14,3,12,109,,118,118,8,10,5,4,0.2,0.2
2025-05-29T1800,1294A,115.8518,28.687,南昌市,建工学校,,33,,21,19,24,105,,108,108,7,9,4,5,0.2,0.3
2025-05-29T1800,1295A,115.8921,28.6424,南昌市,象湖,,33,9,23,3,12,105,,106,106,9,10,6,6,0.5,0.6
2025-05-29T1800,1296A,115.7423,28.7996,南昌市,武术学校,,30,17,19,14,10,93,,116,115,3,4,11,10,0.5,0.5
2025-05-29T1800,3046A,115.9084,28.6062,南昌市,机电学校,,,52,25,17,15,105,,77,,,15,5,4,0.6,0.4
2025-05-29T1800,3690A,115.9721,28.7031,南昌市,外国语学校,,35,11,18,3,15,111,,109,109,6,6,6,6,0.1,0.2
2025-05-29T1800,4192A,115.9316,28.68677,南昌市,南京东路235号,,31,16,26,3,11,99,,102,102,9,9,6,6,0.4,0.5
2025-05-29T1800,1905A,106.056,30.8064,南充市,西山风景区,,,,,,,,,,,,,,,,
2025-05-29T1800,1906A,106.0789,30.8023,南充市,南充市委,,41,15,22,11,15,131,,118,118,9,13,5,6,0.4,0.4
2025-05-29T1800,1907A,106.1031,30.8217,南充市,南充炼油厂,,39,16,26,16,19,124,,112,112,7,12,5,6,0.4,0.4
2025-05-29T1800,4227A,106.1083,30.7884,南充市,梨树横街98号,,40,,25,16,18,128,,111,111,6,10,4,5,0.3,0.3
2025-05-29T1800,4304A,106.1172,30.843,南充市,清泉寺北路188号,,38,18,23,10,16,119,,109,109,7,11,5,5,0.4,0.4
2025-05-29T1800,4305A,106.067,30.7616,南充市,同庆路1号,,40,,27,17,18,127,,114,114,6,10,4,5,0.3,0.3
2025-05-29T1800,1151A,118.8086,32.1065,南京市,迈皋桥,臭氧1小时,60,40,48,19,32,168,,170,170,3,14,4,5,0.3,0.5
2025-05-29T1800,1152A,118.7538,32.0551,南京市,草场门,臭氧1小时,65,36,51,24,31,172,,175,175,16,17,2,2,0.2,0.4
2025-05-29T1800,1153A,118.7794,32.0745,南京市,山西路,臭氧1小时,80,46,58,17,31,184,,186,186,2,7,3,5,0.2,0.3
2025-05-29T1800,1154A,118.7752,32.0023,南京市,中华门,,50,29,50,14,31,157,,163,163,10,13,5,4,0.3,0.4
2025-05-29T1800,1155A,118.8109,32.0309,南京市,瑞金路,臭氧1小时,53,41,54,22,32,162,,165,165,10,10,6,6,0.3,0.3
2025-05-29T1800,1156A,118.7997,32.0754,南京市,玄武湖,臭氧1小时,57,36,50,15,27,165,,163,163,9,10,4,4,0.4,0.5
2025-05-29T1800,1157A,118.6414,32.0931,南京市,浦口,臭氧1小时,52,52,50,24,29,161,,165,165,16,21,3,4,0.4,0.5
2025-05-29T1800,1158A,118.7356,31.9996,南京市,奥体中心,臭氧1小时,70,40,58,22,32,176,,181,180,9,18,3,6,0.2,0.3
2025-05-29T1800,1159A,118.9125,32.1028,南京市,仙林大学城,臭氧1小时,59,39,58,17,28,167,,166,166,6,14,6,8,0.4,0.5
2025-05-29T1800,3422A,118.8436,31.9198,南京市,江宁彩虹桥,,50,35,49,17,30,158,,167,167,9,18,3,4,0.2,0.4
2025-05-29T1800,3427A,118.8554,32.3578,南京市,六合雄州,臭氧1小时,112,43,60,32,37,224,,200,200,28,36,7,8,0.5,0.6
2025-05-29T1800,4249A,118.8708,31.3402,南京市,汶溪路181号,,,,46,21,26,184,,160,160,10,18,4,4,,0.1
2025-05-29T1800,4312A,119.019,31.6512,南京市,中山西路1号,,50,22,40,20,27,157,,154,154,14,14,7,8,0.3,0.4
2025-05-29T1800,1401A,108.3103,22.7881,南宁市,二十一中,,16,6,16,6,11,51,,44,44,13,17,3,3,0.6,0.7
2025-05-29T1800,1402A,108.3141,22.8528,南宁市,北湖,,18,18,20,8,11,44,,54,53,17,15,4,7,0.6,0.5
2025-05-29T1800,1403A,108.3206,22.8225,南宁市,市监测站,,14,14,18,9,14,38,,38,38,14,14,1,2,0.8,0.7
2025-05-29T1800,1404A,108.3829,22.8037,南宁市,大自然花园,,18,12,12,3,14,57,,51,51,7,11,4,4,0.5,0.6
2025-05-29T1800,1405A,108.4394,22.7904,南宁市,仙葫,,19,6,16,6,9,58,,57,57,6,9,10,9,0.7,0.7
2025-05-29T1800,1406A,108.2397,22.8467,南宁市,区农职院,,12,12,24,7,14,32,,38,38,10,15,4,4,1.0,1
2025-05-29T1800,1407A,108.3275,22.735,南宁市,英华嘉园,,18,,18,7,11,55,,48,48,9,12,7,6,0.5,0.5
2025-05-29T1800,3401A,108.4834,22.7618,南宁市,红星社区,,21,,15,6,13,65,,65,65,3,7,2,6,0.5,0.4
2025-05-29T1800,4221A,108.2177,22.7774,南宁市,乐贤路16号,,22,22,20,10,17,34,,43,43,16,24,6,6,0.6,0.6
2025-05-29T1800,2331A,118.0966,26.6761,南平市,茫荡山,,,,,,,,,,,,,,,,
2025-05-29T1800,2332A,118.1681,26.6369,南平市,南平市监测站,,20,,3,7,5,62,,80,68,9,5,4,4,0.5,0.5
2025-05-29T1800,2333A,118.1825,26.6489,南平市,南平铝业有限公司,,22,15,6,7,5,68,,83,68,6,6,3,3,0.5,0.5
2025-05-29T1800,2334A,118.1756,26.6272,南平市,南平七中,,18,14,8,3,5,57,,77,67,7,6,4,8,0.5,0.6
2025-05-29T1800,1168A,120.9098,31.9663,南通市,狼山街道,,39,22,43,15,32,124,,138,138,8,19,4,6,0.4,0.6
2025-05-29T1800,1169A,120.86,32.0005,南通市,虹桥,,33,24,46,18,37,103,,154,150,41,21,3,4,0.3,0.5
2025-05-29T1800,1170A,120.87,32.02,南通市,城中,,35,32,52,15,35,111,,150,149,35,18,5,5,0.4,0.6
2025-05-29T1800,1171A,120.94,31.93,南通市,星湖花园,,36,27,39,17,31,114,,128,128,13,20,4,6,0.2,0.3
2025-05-29T1800,1172A,120.81,32.0417,南通市,紫琅学院,,31,31,49,14,31,99,,145,140,35,19,6,7,0.3,0.4
2025-05-29T1800,3291A,121.067,32.062,南通市,通州监测站,,39,39,55,24,42,115,,138,136,9,10,8,7,0.4,0.3
2025-05-29T1800,3432A,120.9348,31.9883,南通市,环境教育馆,,42,29,55,10,38,133,,145,145,10,21,4,4,0.2,0.3
2025-05-29T1800,2404A,112.5224,33.0122,南阳市,瓦房庄,臭氧1小时,104,59,67,27,32,208,,204,204,10,10,5,7,0.5,0.5
2025-05-29T1800,2405A,112.5003,32.9735,南阳市,汉画馆,臭氧1小时,92,57,63,26,32,193,,187,187,13,16,5,5,0.5,0.6
2025-05-29T1800,2406A,112.5573,33.027,南阳市,气象站,臭氧1小时,101,61,77,29,35,202,,196,196,7,11,5,5,0.4,0.4
2025-05-29T1800,2407A,112.5481,32.9689,南阳市,理工学院,臭氧1小时,99,54,64,22,30,199,,192,192,7,17,4,5,0.6,0.6
2025-05-29T1800,4008A,112.5234,32.9922,南阳市,卧龙区政府,臭氧1小时,97,55,61,36,38,197,,191,191,10,16,4,5,0.5,0.6
2025-05-29T1800,1234A,121.8358,29.911,宁波市,区环保大楼,,45,45,26,20,15,93,,127,125,38,21,13,9,0.3,0.4
2025-05-29T1800,1235A,121.56,29.82,宁波市,万里学院,,39,26,23,16,20,122,,138,138,17,21,7,4,0.4,0.5
2025-05-29T1800,1236A,121.713,29.9572,宁波市,龙赛医院,,36,25,29,13,13,115,,129,129,7,12,11,8,0.3,0.3
2025-05-29T1800,1239A,121.633,29.7733,宁波市,钱湖水厂,,40,24,26,13,18,126,,136,136,17,13,8,9,0.5,0.4
2025-05-29T1800,1240A,121.5856,29.8635,宁波市,太古小学,,38,26,27,22,16,120,,137,137,15,17,10,7,0.4,0.4
2025-05-29T1800,1241A,121.524,29.8674,宁波市,市环境监测中心,,35,21,23,20,17,111,,129,129,19,21,15,11,0.4,0.5
2025-05-29T1800,2871A,121.6147,29.9017,宁波市,万里国际学校,,37,23,21,18,17,116,,128,128,17,21,11,7,0.3,0.3
2025-05-29T1800,3710A,121.5594,29.8975,宁波市,白沙活动中心,,37,21,19,16,14,116,,135,134,9,10,14,9,0.4,0.4
2025-05-29T1800,2339A,119.5001,26.6946,宁德市,金涵水库,,,,,,,,,,,,,,,,
2025-05-29T1800,2341A,119.5388,26.6612,宁德市,宁德市监测站,,27,14,8,8,7,84,,76,76,12,12,4,4,0.3,0.4
2025-05-29T1800,3209A,119.5231,26.6562,宁德市,宁德一中,,27,12,6,3,6,85,,86,86,6,6,4,4,0.4,0.3
2025-05-29T1800,2618A,98.8601,25.8567,怒江傈僳族自治州,州监测站,,19,19,16,7,9,50,,50,50,5,5,9,8,0.3,0.4
2025-05-29T1800,2619A,98.8546,25.8417,怒江傈僳族自治州,泸水一中,,19,13,16,13,9,37,,34,34,8,12,6,6,0.3,0.4
2025-05-29T1800,1888A,101.6891,26.571,攀枝花市,弄弄坪,,40,40,31,18,18,79,,82,82,16,23,10,12,0.7,1.1
2025-05-29T1800,1889A,101.5769,26.5928,攀枝花市,河门口,,43,43,20,16,14,95,,88,88,16,16,12,11,0.9,1
2025-05-29T1800,1890A,101.7169,26.585,攀枝花市,炳草岗,,,,33,18,22,82,,83,83,17,28,13,17,0.8,1.2
2025-05-29T1800,1891A,101.7369,26.5008,攀枝花市,仁和,,21,7,15,3,10,65,,71,71,6,9,7,8,0.6,0.7
2025-05-29T1800,2835A,101.7227,26.567,攀枝花市,四十中小,,32,25,23,22,19,95,,91,91,13,24,12,16,0.8,1.4
2025-05-29T1800,1604A,122.0303,41.1489,盘锦市,开发区,,,,31,,29,,,152,,,18,,12,,0.9
2025-05-29T1800,1605A,122.0485,41.0883,盘锦市,兴隆台,臭氧1小时,84,43,39,26,31,187,,174,174,12,19,10,8,0.5,0.5
2025-05-29T1800,1606A,121.8297,41.1028,盘锦市,新生街道,臭氧1小时,98,32,29,23,29,198,,169,169,19,23,10,8,0.4,0.4
2025-05-29T1800,1832A,113.3257,33.742,平顶山市,新华旅馆,臭氧1小时,104,62,130,33,45,208,,204,204,10,28,4,8,0.4,0.6
2025-05-29T1800,1833A,113.2919,33.737,平顶山市,规划设计院,臭氧1小时,101,73,118,38,55,202,,197,197,12,28,4,6,0.6,0.9
2025-05-29T1800,1834A,113.182,33.774,平顶山市,平顶山工学院,臭氧1小时,102,63,94,39,46,204,,203,203,9,15,4,5,0.5,0.6
2025-05-29T1800,3204A,113.3025,33.73,平顶山市,规划局,臭氧1小时,102,78,130,33,43,203,,196,196,10,25,4,8,0.5,0.6
2025-05-29T1800,3594A,112.8867,33.9116,平顶山市,石龙区,臭氧1小时,102,75,146,32,46,203,,198,198,11,44,7,12,0.5,0.6
2025-05-29T1800,2656A,106.6692,35.5461,平凉市,聚贤嘉苑,,,,,,,,,,,,,,,,
2025-05-29T1800,2657A,106.7021,35.5307,平凉市,博物馆,,45,45,58,16,23,111,,118,118,5,16,11,12,0.6,0.9
2025-05-29T1800,2347A,114.0997,27.5002,萍乡市,武功山,,31,,3,14,4,99,,89,89,4,4,10,9,0.3,0.3
2025-05-29T1800,2348A,113.8385,27.6434,萍乡市,中医院,,40,22,29,14,20,127,,120,120,7,6,10,20,0.6,0.5
2025-05-29T1800,2349A,113.8493,27.6253,萍乡市,市政府车库,,37,17,18,14,22,116,,108,108,5,6,6,10,0.5,0.5
2025-05-29T1800,2350A,113.8676,27.6435,萍乡市,市环保局,,39,26,26,3,18,123,,114,114,3,2,4,12,0.5,0.5
2025-05-29T1800,2351A,113.866,27.6198,萍乡市,安源区政府,,,30,22,8,13,110,,103,103,,9,,4,,1
2025-05-29T1800,2319A,119.0141,25.4325,莆田市,荔城区仓后路,,25,12,11,3,6,79,,72,72,10,14,2,3,0.5,0.5
2025-05-29T1800,2320A,119.0015,25.4553,莆田市,莆田市监测站,,24,10,11,3,6,76,,71,71,9,11,2,3,0.5,0.5
2025-05-29T1800,2321A,119.1119,25.4561,莆田市,涵江区六中,,25,14,11,3,6,77,,75,75,18,25,3,3,0.6,0.6
2025-05-29T1800,2322A,119.1013,25.3215,莆田市,秀屿区政府,,30,11,7,3,1,95,,92,92,10,10,1,3,0.4,0.5
2025-05-29T1800,2323A,118.981,25.4792,莆田市,东圳水库,,,,,,,,,,,,,,,,
2025-05-29T1800,2392A,115.0312,35.7636,濮阳市,环保局,臭氧1小时,90,54,57,32,34,192,,195,195,12,17,5,7,0.6,0.7
2025-05-29T1800,2394A,115.0574,35.7609,濮阳市,油田运输公司,臭氧1小时,97,55,63,26,31,197,,200,200,9,17,6,13,0.6,0.7
2025-05-29T1800,3021A,115,35.7668,濮阳市,濮水河管理处,臭氧1小时,89,52,56,32,33,191,,194,194,13,22,5,6,0.6,0.7
2025-05-29T1800,4216A,115.0924,35.7686,濮阳市,任丘路479号,臭氧1小时,89,48,65,26,33,191,,199,199,10,17,7,9,0.6,0.7
2025-05-29T1800,2601A,100.98,22.7633,普洱市,市环保局,,26,26,25,14,12,40,,43,43,4,5,4,4,0.4,0.5
2025-05-29T1800,2602A,100.9817,22.8322,普洱市,普洱第二中学,,26,,11,18,12,40,,43,42,4,6,5,5,0.4,0.5
2025-05-29T1800,2262A,131.0518,45.8751,七台河市,新一中,臭氧1小时,67,50,34,19,19,173,,162,162,12,16,11,11,0.8,0.8
2025-05-29T1800,3345A,131.0577,45.7879,七台河市,中波台,,37,37,36,6,9,95,,122,119,21,23,5,7,0.4,0.4
2025-05-29T1800,3637A,131.0176,45.7761,七台河市,人民广场,,33,25,52,18,28,104,,129,126,17,22,11,12,0.5,0.6
2025-05-29T1800,3684A,130.8781,45.8222,七台河市,新建矿广场,颗粒物(PM10),58,66,68,13,20,122,,134,132,16,23,10,12,0.4,0.5
2025-05-29T1800,1779A,123.9305,47.3636,齐齐哈尔市,安居小区,臭氧1小时,72,76,73,28,28,177,,174,174,24,16,7,6,0.7,0.6
2025-05-29T1800,1780A,123.9488,47.3386,齐齐哈尔市,中心广场,臭氧1小时,75,90,86,39,33,180,,183,183,26,17,8,8,0.6,0.5
2025-05-29T1800,1781A,123.9483,47.3227,齐齐哈尔市,农牧车辆厂,臭氧1小时,69,83,76,23,24,175,,170,170,12,12,6,7,0.2,0.2
2025-05-29T1800,1783A,123.945,47.2988,齐齐哈尔市,市环境监测站,臭氧1小时,78,74,64,26,28,182,,178,178,11,10,4,4,0.3,0.3
2025-05-29T1800,3662A,123.6333,47.2075,齐齐哈尔市,富区青少年活动中心,臭氧1小时,90,77,73,46,42,192,,182,182,7,8,4,4,0.5,0.5
2025-05-29T1800,2591A,107.9783,26.5747,黔东南苗族侗族自治州,市环境监测站,,26,16,12,12,9,83,,85,85,7,6,1,1,0.4,0.5
2025-05-29T1800,2881A,107.8908,26.5311,黔东南苗族侗族自治州,凯里学院,,25,,7,14,8,77,,87,87,11,7,2,2,0.4,0.4
2025-05-29T1800,2593A,107.5228,26.2403,黔南布依族苗族自治州,小围寨,,20,12,7,3,3,63,,68,68,4,4,4,2,0.3,0.4
2025-05-29T1800,3538A,107.5175,26.2978,黔南布依族苗族自治州,沙坝,,,24,12,,1,72,,84,84,6,5,4,3,0.4,0.4
2025-05-29T1800,2589A,104.9022,25.0925,黔西南布依族苗族自治州,场坝街,,23,12,15,7,6,71,,73,72,7,13,2,2,0.4,0.4
2025-05-29T1800,2590A,104.8811,25.0992,黔西南布依族苗族自治州,坪东大道,,18,18,13,9,7,54,,60,60,12,13,2,1,0.2,0.2
2025-05-29T1800,2502A,108.6236,21.9667,钦州市,市环保站,,22,19,28,3,8,68,,65,65,8,14,4,5,0.6,0.7
2025-05-29T1800,2503A,108.6549,21.9481,钦州市,沙埠小学,,30,30,41,10,16,70,,65,65,9,26,4,7,0.5,0.5
2025-05-29T1800,2504A,108.5989,21.7431,钦州市,港区一小,,38,38,46,9,17,64,,58,58,14,20,8,8,0.6,0.7
2025-05-29T1800,3404A,108.5959,21.9633,钦州市,北职校,,20,17,31,7,13,64,,58,58,7,17,7,7,1.1,0.9
2025-05-29T1800,1043A,119.7493,40.0116,秦皇岛市,第一关,颗粒物(PM10),63,75,58,38,29,162,,149,149,15,43,7,4,0.4,0.3
2025-05-29T1800,1044A,119.5897,39.9499,秦皇岛市,监测站,臭氧1小时,78,88,56,35,25,182,,158,158,22,33,7,4,0.5,0.4
2025-05-29T1800,1046A,119.5251,39.9041,秦皇岛市,建设大厦,颗粒物(PM10),56,62,55,32,22,156,,149,149,16,37,5,3,0.5,0.4
2025-05-29T1800,3132A,119.610547,39.943889,秦皇岛市,文明里,臭氧1小时,67,70,58,24,17,173,,148,148,18,27,6,3,0.4,0.3
2025-05-29T1800,4198A,119.5090,39.8253,秦皇岛市,北戴河轮滑馆,颗粒物(PM10),67,83,45,41,29,172,,140,140,7,9,4,3,0.4,0.3
2025-05-29T1800,1307A,120.6659,36.2403,青岛市,仰口,,48,47,30,28,24,152,,159,159,11,8,8,8,0.5,0.4
2025-05-29T1800,1310A,120.4134,36.0658,青岛市,市南区东部子站,,38,27,22,14,13,120,,122,115,10,11,8,8,0.3,0.3
2025-05-29T1800,1311A,120.3664,36.1032,青岛市,四方区子站,,48,29,22,19,17,153,,163,163,15,16,4,4,0.6,0.5
2025-05-29T1800,1312A,120.2994,36.054,青岛市,市南区西部子站,,35,24,22,24,14,92,,106,102,23,20,7,8,0.7,0.6
2025-05-29T1800,1313A,120.4581,36.0858,青岛市,崂山区子站,,35,22,19,12,12,111,,117,109,10,13,8,7,0.5,0.5
2025-05-29T1800,1315A,120.3999,36.3083,青岛市,城阳区子站,,50,39,29,20,15,158,,173,171,23,17,5,5,0.5,0.4
2025-05-29T1800,1966A,120.0405,35.8735,青岛市,黄岛区4号,,41,19,22,9,11,129,,138,137,18,10,8,8,0.5,0.6
2025-05-29T1800,3362A,120.5014,36.4034,青岛市,即墨2号,臭氧1小时,77,51,44,30,23,181,,183,183,13,16,8,8,0.7,0.6
2025-05-29T1800,3642A,120.3503,36.0736,青岛市,市北区南部,,36,29,24,9,12,115,,119,118,11,12,7,8,0.4,0.4
2025-05-29T1800,3643A,120.3948,36.1805,青岛市,李沧区北部,,45,44,29,27,20,143,,164,161,19,18,8,7,0.6,0.5
2025-05-29T1800,4290A,120.1969,35.9546,青岛市,珠江路669号,,39,22,19,15,14,124,,129,129,5,6,7,7,0.5,0.5
2025-05-29T1800,1702A,113.0426,23.691,清远市,环保大楼,,17,,41,6,23,54,,72,51,15,16,6,7,1.0,0.9
2025-05-29T1800,1703A,113.0208,23.7106,清远市,凤城街办,,17,,26,3,18,53,,57,44,15,20,8,8,0.8,0.7
2025-05-29T1800,3025A,113.0477,23.6344,清远市,技师学院,,16,6,33,3,23,49,,59,48,15,17,6,7,0.8,0.7
2025-05-29T1800,3318A,112.9903,23.7403,清远市,清新太和,,12,6,24,3,20,33,,47,34,24,19,8,8,0.8,0.7
2025-05-29T1800,3455A,113.076,23.7198,清远市,清城东城,,19,6,35,3,26,59,,52,52,7,12,7,7,0.6,0.6
2025-05-29T1800,2661A,107.6325,35.7357,庆阳市,庆阳五中,,47,46,44,18,24,148,,142,142,10,11,4,4,0.4,0.4
2025-05-29T1800,2662A,107.6364,35.7067,庆阳市,市环保局,,48,40,44,16,21,151,,146,146,7,7,8,10,0.5,0.5
2025-05-29T1800,1916A,103.7897,25.5035,曲靖市,环境监测站,,24,24,15,8,7,55,,65,65,20,17,6,4,0.6,0.6
2025-05-29T1800,1917A,103.8,25.5364,曲靖市,烟厂办公区,,23,18,13,16,8,54,,66,66,17,15,4,4,0.7,0.7
2025-05-29T1800,3376A,103.7947,25.462,曲靖市,南苑二区,,22,10,12,6,7,69,,71,71,13,15,7,4,0.5,0.6
2025-05-29T1800,3377A,103.7444,25.5261,曲靖市,曲靖师范学院,,20,14,12,9,10,62,,72,72,11,12,6,6,0.5,0.6
2025-05-29T1800,1264A,118.8692,28.9398,衢州市,环保大楼,,41,17,26,10,21,130,,130,130,14,14,3,3,0.3,0.4
2025-05-29T1800,1265A,118.8709,28.9666,衢州市,实验学校,,43,16,25,12,19,136,,134,134,12,11,2,2,0.3,0.3
2025-05-29T1800,1266A,118.8621,28.9808,衢州市,衢州学院,,39,18,26,12,20,122,,120,120,10,11,5,5,0.2,0.3
2025-05-29T1800,1611A,118.5819,24.9117,泉州市,涂山街,,26,12,6,7,6,81,,84,84,15,11,3,4,0.7,0.7
2025-05-29T1800,1612A,118.5972,24.8978,泉州市,津头埔,,25,15,6,11,8,79,,79,79,22,16,2,2,0.5,0.5
2025-05-29T1800,1613A,118.6663,24.9424,泉州市,万安,,28,17,11,8,7,88,,80,80,8,7,3,4,0.5,0.5
2025-05-29T1800,1614A,118.6117,24.9604,泉州市,清源山,,,,,,,,,,,,,,,,
2025-05-29T1800,3529A,118.6333,24.9264,泉州市,城华南路,,23,15,13,6,5,72,,70,70,18,13,2,3,0.5,0.5
2025-05-29T1800,2626A,88.8876,29.2718,日喀则市,日喀则监测站,,31,,12,3,8,99,,103,103,3,11,17,15,0.0,0.1
2025-05-29T1800,3726A,88.8781,29.2426,日喀则市,林业技术推广中心,,,7,9,3,2,99,,102,102,3,4,,8,0.5,0.5
2025-05-29T1800,1659A,119.471,35.4209,日照市,监测站,臭氧1小时,53,48,40,27,21,162,,139,139,21,34,7,7,0.5,0.5
2025-05-29T1800,1660A,119.523,35.4216,日照市,市政府广场,,46,34,31,17,13,147,,139,139,8,10,5,5,0.5,0.5
2025-05-29T1800,1661A,119.5587,35.4044,日照市,港务局,,41,29,28,26,22,130,,132,132,14,10,8,7,0.4,0.4
2025-05-29T1800,3507A,119.5328,35.4625,日照市,职业技术学院,,47,36,33,19,14,150,,150,150,12,12,5,5,0.5,0.5
2025-05-29T1800,3604A,119.3266,35.1044,日照市,岚山环保分局,,48,48,43,27,20,143,,155,155,20,22,6,8,0.6,0.6
2025-05-29T1800,1835A,111.1922,34.7752,三门峡市,市政府,臭氧1小时,104,95,78,36,44,207,,200,200,10,18,4,12,0.6,0.7
2025-05-29T1800,1836A,111.1587,34.7942,三门峡市,开发区,臭氧1小时,104,84,72,32,38,208,,201,201,15,17,6,9,0.6,0.6
2025-05-29T1800,1838A,111.143,34.7955,三门峡市,风景区,臭氧1小时,108,107,72,33,36,216,,208,208,10,12,8,11,0.5,0.5
2025-05-29T1800,3039A,111.1911,34.7829,三门峡市,三门峡市第一小学,臭氧1小时,109,110,80,37,37,218,,210,210,13,17,8,11,0.5,0.6
2025-05-29T1800,3598A,111.1,34.7167,三门峡市,富达温泉假日酒店,臭氧1小时,107,95,71,31,36,214,,199,199,10,13,6,7,0.5,0.4
2025-05-29T1800,2324A,117.6211,26.2625,三明市,三钢,,21,13,8,6,5,65,,65,65,9,8,2,2,0.7,0.7
2025-05-29T1800,2325A,117.635,26.2714,三明市,三明二中,,20,10,6,3,3,62,,64,64,8,6,3,3,1.1,1.1
2025-05-29T1800,2326A,117.6028,26.2378,三明市,三元区政府,,21,16,6,6,5,66,,67,67,10,9,3,3,0.4,0.9
2025-05-29T1800,2327A,117.7275,26.3108,三明市,洋溪,,,,,,,,,,,,,,,,
2025-05-29T1800,1876A,109.5078,18.2489,三亚市,河东子站,,19,19,13,6,10,27,,36,35,9,4,3,3,0.5,0.5
2025-05-29T1800,1877A,109.4964,18.2681,三亚市,河西子站,,12,12,11,7,12,28,,38,37,9,5,3,3,0.2,0.2
2025-05-29T1800,3540A,109.7348,18.3443,三亚市,君悦子站,,11,6,16,3,7,34,,44,44,6,6,2,2,0.4,0.4
2025-05-29T1800,2624A,91.7608,29.2313,山南市,山南监测站,,20,8,8,3,3,61,,76,73,7,4,10,10,0.3,0.3
2025-05-29T1800,2625A,91.7706,29.2436,山南市,山南人民医院,,25,25,15,10,8,57,,76,71,12,5,5,5,0.4,0.4
2025-05-29T1800,1674A,116.6794,23.3667,汕头市,金平子站,,27,6,11,3,11,84,,78,78,18,19,3,3,0.5,0.5
2025-05-29T1800,1675A,116.7244,23.3633,汕头市,龙湖子站,,27,6,11,3,10,85,,77,77,11,11,4,4,0.5,0.5
2025-05-29T1800,1676A,116.7258,23.2775,汕头市,濠江子站,,,,10,,12,,,76,,,8,,4,,0.5
2025-05-29T1800,1677A,116.7519,23.4714,汕头市,澄海子站,,27,8,12,6,12,85,,80,80,16,14,2,2,0.6,0.6
2025-05-29T1800,1678A,116.6092,23.2539,汕头市,潮阳子站,,27,6,12,3,12,86,,86,86,11,10,3,3,0.5,0.5
2025-05-29T1800,3444A,116.454,23.2684,汕头市,潮南峡山,,26,6,17,3,11,83,,79,79,10,10,4,4,0.6,0.6
2025-05-29T1800,3624A,116.4069,23.2533,汕头市,潮南子站,,21,6,24,3,19,66,,66,66,17,15,3,4,0.7,0.7
