timepoint,stationcode,longitude,latitude,area,positionname,primarypollutant,aqi,pm10,pm10_24h,pm2_5,pm2_5_24h,o3,o3_24h,o3_8h,o3_8h_24h,no2,no2_24h,so2,so2_24h,co,co_24h
2024-10-06T1100,2566A,102.1879,31.914,阿坝藏族羌族自治州,州农科所,颗粒物(PM10),61,72,24,21,8,47,,46,46,45,17,20,9,0.2,0
2024-10-06T1100,2568A,102.2502,31.8896,阿坝藏族羌族自治州,马师校,,33,25,18,23,17,48,,33,33,15,8,4,5,0.3,0.2
2024-10-06T1100,3994A,102.2165,31.9024,阿坝藏族羌族自治州,马尔康中学西区,,33,,19,23,16,50,,36,36,9,8,5,6,0.4,0.4
2024-10-06T1100,2695A,80.292,41.1694,阿克苏地区,电视台,颗粒物(PM10),96,141,142,39,43,32,,44,39,29,28,3,5,0.6,0.6
2024-10-06T1100,2696A,80.2613,41.1551,阿克苏地区,艺术中心,颗粒物(PM10),176,302,153,38,37,20,,27,27,38,36,5,4,0.7,0.8
2024-10-06T1100,2204A,105.6467,38.8363,阿拉善盟,西城区西花园,,34,29,44,19,26,106,,100,100,8,10,7,10,0.7,0.8
2024-10-06T1100,2205A,105.6985,38.8411,阿拉善盟,蒙二幼,,34,21,38,3,18,106,,101,99,7,9,8,9,0.6,0.7
2024-10-06T1100,2206A,105.724,38.8516,阿拉善盟,环保局新楼,,37,16,36,3,17,117,,110,108,7,9,9,10,0.5,0.6
2024-10-06T1100,2708A,88.1264,47.8517,阿勒泰地区,市站,,27,27,31,14,8,61,,70,68,24,14,7,7,0.2,0.2
2024-10-06T1100,2630A,80.1161,32.5,阿里地区,阿里监测站,颗粒物(PM10),56,62,17,20,7,66,,66,52,20,15,10,10,0.4,0.4
2024-10-06T1100,3192A,80.0903,32.5028,阿里地区,阿里藏医院,,30,30,15,11,5,71,,86,72,21,9,14,6,0.5,0.3
2024-10-06T1100,2642A,109.0318,32.6537,安康市,香溪洞,,40,34,41,28,30,40,,51,42,8,9,7,9,0.4,0.5
2024-10-06T1100,2643A,109.0281,32.6939,安康市,安康市监测站,,39,37,49,27,29,64,,35,35,10,17,9,13,0.5,0.6
2024-10-06T1100,2644A,109.0072,32.6975,安康市,汉滨区检察院,,49,40,50,34,32,65,,32,32,10,18,10,10,0.6,0.5
2024-10-06T1100,2291A,117.0809,30.5177,安庆市,环科院,,17,17,28,3,22,48,,60,51,15,15,7,8,0.6,0.6
2024-10-06T1100,2292A,117.0331,30.5119,安庆市,马山宾馆,,19,8,24,3,23,58,,64,58,14,15,8,10,0.7,0.7
2024-10-06T1100,2294A,116.9896,30.6145,安庆市,安庆大学,,18,13,26,3,20,57,,60,58,10,11,8,8,0.6,0.7
2024-10-06T1100,3173A,117.0598,30.5351,安庆市,市人大,,16,6,25,3,23,49,,58,51,11,11,10,10,0.8,0.8
2024-10-06T1100,3123A,105.9408,26.2431,安顺市,凤凰山,,47,47,47,32,34,85,,89,85,11,9,7,10,0.4,0.4
2024-10-06T1100,3124A,105.9439,26.2564,安顺市,金钟山,细颗粒物(PM2.5),52,50,49,36,38,86,,90,86,10,8,10,12,0.5,0.5
2024-10-06T1100,3125A,105.8983,26.2481,安顺市,娄家坡,细颗粒物(PM2.5),63,62,53,45,38,87,,89,84,13,10,12,13,0.7,0.7
2024-10-06T1100,1818A,114.4839,36.0621,安阳市,棉研所,细颗粒物(PM2.5),82,106,86,60,43,91,,22,22,37,56,11,7,0.7,0.6
2024-10-06T1100,1819A,114.3551,36.1017,安阳市,红庙街,颗粒物(PM10),77,103,69,49,35,64,,33,33,42,27,11,5,1.3,0.8
2024-10-06T1100,1820A,114.361,36.0681,安阳市,银杏小区,细颗粒物(PM2.5),79,101,68,58,35,63,,27,27,42,25,10,4,1.0,0.6
2024-10-06T1100,3141A,114.3922,36.0878,安阳市,信访局,,,103,66,70,34,64,,15,14,45,34,,3,1.0,0.4
2024-10-06T1100,3669A,114.4705,36.0637,安阳市,左辅环卫站,细颗粒物(PM2.5),85,109,96,63,42,84,,27,27,45,57,8,5,1.0,0.8
2024-10-06T1100,3703A,114.2917,36.0949,安阳市,安钢职工学校,颗粒物(PM10),86,121,77,59,38,57,,27,27,42,31,19,14,1.5,0.6
2024-10-06T1100,1748A,123.044,41.1196,鞍山市,深沟寺,细颗粒物(PM2.5),128,138,57,97,36,26,,94,78,86,19,14,7,2.0,0.8
2024-10-06T1100,1749A,123.011,41.0931,鞍山市,太阳城,细颗粒物(PM2.5),147,190,70,112,43,14,,110,78,90,24,31,11,3.5,0.9
2024-10-06T1100,1750A,123.0485,41.1442,鞍山市,太平,细颗粒物(PM2.5),152,195,72,116,42,19,,104,82,74,32,23,13,3.0,1.2
2024-10-06T1100,1751A,122.9642,41.0971,鞍山市,铁西三道街,细颗粒物(PM2.5),138,197,119,105,61,29,,42,26,71,55,39,10,2.8,1.3
2024-10-06T1100,1752A,122.9341,41.0833,鞍山市,铁西工业园区,细颗粒物(PM2.5),132,178,100,100,52,29,,41,29,66,49,34,12,2.5,1
2024-10-06T1100,1753A,123.022,41.0821,鞍山市,明达新区,细颗粒物(PM2.5),162,184,70,123,46,17,,94,72,80,23,31,9,3.5,1
2024-10-06T1100,2195A,107.4212,40.761,巴彦淖尔市,附二中,,43,43,61,24,26,70,,55,55,6,15,5,6,0.4,0.5
2024-10-06T1100,2196A,107.37,40.7372,巴彦淖尔市,市环保大楼,,41,41,52,10,23,71,,58,58,6,11,3,5,0.3,0.4
2024-10-06T1100,1956A,86.1472,41.7538,巴音郭楞蒙古自治州,孔雀公园,颗粒物(PM10),77,103,77,28,24,50,,32,32,37,41,9,5,0.4,0.5
2024-10-06T1100,1957A,86.1972,41.7166,巴音郭楞蒙古自治州,棉纺厂,颗粒物(PM10),89,127,98,22,25,42,,38,38,47,31,6,5,0.5,0.4
2024-10-06T1100,1958A,86.2357,41.7173,巴音郭楞蒙古自治州,经济开发区,颗粒物(PM10),85,119,74,35,25,65,,63,63,26,17,7,7,0.3,0.3
2024-10-06T1100,2914A,106.7677,31.8794,巴中市,苏山坪,,49,46,44,34,29,29,,54,46,17,16,1,3,0.5,0.4
2024-10-06T1100,3182A,106.7656,31.8545,巴中市,丽阳花园,,49,41,42,34,30,36,,33,33,23,23,5,5,0.6,0.5
2024-10-06T1100,3183A,106.7418,31.8654,巴中市,圣泉水务公司,,43,36,39,30,28,41,,27,27,15,22,4,5,0.5,0.4
2024-10-06T1100,3616A,106.7616,31.8344,巴中市,市中心医院,,42,39,44,29,31,40,,38,38,12,18,5,5,0.6,0.5
2024-10-06T1100,2235A,122.7911,45.6077,白城市,洮北区环保局,,31,31,34,16,18,62,,58,57,9,9,4,5,0.5,0.5
2024-10-06T1100,2236A,122.8738,45.5725,白城市,市环保局,,29,29,28,16,19,55,,55,53,11,12,3,4,0.4,0.4
2024-10-06T1100,2231A,126.4219,41.9171,白山市,喜丰,颗粒物(PM10),75,99,57,25,17,12,,10,10,42,31,11,10,0.8,0.6
2024-10-06T1100,2232A,126.4077,41.9419,白山市,环保局,颗粒物(PM10),67,84,51,25,18,13,,17,12,44,27,12,9,0.9,0.7
2024-10-06T1100,2647A,104.1724,36.5446,白银市,第三小学,,,43,48,14,22,101,,82,82,10,25,,48,0.5,0.9
2024-10-06T1100,2648A,104.1465,36.5482,白银市,动力公司,,36,36,40,14,14,93,,81,81,8,19,5,26,0.4,0.8
2024-10-06T1100,2512A,106.6103,23.9011,百色市,市监测站,,48,48,54,23,31,81,,35,35,8,17,8,10,0.7,0.8
2024-10-06T1100,2513A,106.6538,23.8859,百色市,市中心血站,细颗粒物(PM2.5),59,49,76,42,42,76,,29,29,10,27,6,13,0.7,0.8
2024-10-06T1100,3406A,106.6085,23.8798,百色市,祈福高中,,42,37,74,29,36,67,,32,32,14,28,5,8,0.7,0.7
2024-10-06T1100,2270A,117.396,32.939,蚌埠市,工人疗养院,,32,12,26,3,12,101,,85,85,3,9,4,5,0.3,0.3
2024-10-06T1100,2271A,117.3605,32.9427,蚌埠市,百货大楼,,31,10,24,3,11,98,,82,82,5,9,4,5,0.3,0.3
2024-10-06T1100,2273A,117.4185,32.8911,蚌埠市,蚌埠学院,,,,18,,14,99,,85,85,,8,5,6,,0.3
2024-10-06T1100,2274A,117.3533,32.9673,蚌埠市,淮上区政府,,31,12,23,11,15,99,,83,83,6,7,5,5,0.3,0.3
2024-10-06T1100,2275A,117.3145,32.8977,蚌埠市,高新区,,32,7,19,7,13,100,,84,84,8,10,5,6,0.3,0.3
2024-10-06T1100,3715A,117.3092,32.9314,蚌埠市,蚌埠田家炳中学,,32,9,24,6,13,101,,83,83,5,7,4,5,0.2,0.2
2024-10-06T1100,1585A,109.8756,40.6532,包头市,市环境监测站,,26,26,40,12,17,62,,66,64,12,26,5,10,0.5,0.7
2024-10-06T1100,1587A,109.9991,40.5842,包头市,包头八中,,28,28,50,19,18,61,,62,60,12,27,2,7,0.7,0.8
2024-10-06T1100,1588A,109.8538,40.6821,包头市,青山宾馆,,32,26,31,22,17,65,,66,65,8,22,5,9,0.5,0.7
2024-10-06T1100,1589A,109.8642,40.6288,包头市,惠龙物流,,,,42,24,16,62,,65,63,13,22,6,10,0.6,0.6
2024-10-06T1100,1590A,110.0377,40.5546,包头市,东河鸿龙湾,,28,28,37,9,15,56,,62,59,13,23,4,8,0.4,0.5
2024-10-06T1100,3283A,109.9154,40.5685,包头市,滨河大厦,,26,26,33,18,17,63,,61,61,13,27,8,13,0.5,0.6
2024-10-06T1100,3419A,109.9447,40.6261,包头市,包头市委党校,,31,31,41,17,16,64,,65,63,9,26,5,10,0.4,0.5
2024-10-06T1100,3683A,109.8331,40.6576,包头市,昆区政府,,32,28,35,22,17,65,,65,64,9,20,5,8,0.4,0.5
2024-10-06T1100,1930A,107.185,34.3063,宝鸡市,庙沟村,,31,31,67,20,43,37,,47,37,8,24,6,8,0.6,0.7
2024-10-06T1100,1931A,107.0708,34.3017,宝鸡市,竹园沟,,34,34,63,22,49,40,,23,23,14,23,8,9,0.4,0.6
2024-10-06T1100,1932A,107.1906,34.3672,宝鸡市,三陆医院,细颗粒物(PM2.5),79,67,105,58,82,18,,8,8,37,52,10,11,0.7,0.7
2024-10-06T1100,1933A,107.1431,34.3547,宝鸡市,监测站,颗粒物(PM10),57,64,90,35,66,22,,18,15,26,34,7,8,0.7,0.8
2024-10-06T1100,1934A,107.1186,34.3739,宝鸡市,技工学校,细颗粒物(PM2.5),69,64,92,50,79,28,,26,21,23,35,7,9,0.7,0.7
2024-10-06T1100,1935A,107.3906,34.3528,宝鸡市,陈仓区环保局家属楼,细颗粒物(PM2.5),83,93,115,61,94,26,,9,9,31,54,10,12,0.7,0.8
2024-10-06T1100,1936A,107.2058,34.3497,宝鸡市,文理学院,颗粒物(PM10),53,55,96,31,62,23,,19,17,24,38,8,10,0.6,0.7
2024-10-06T1100,1937A,107.2386,34.3622,宝鸡市,三迪小学,细颗粒物(PM2.5),69,70,100,50,80,24,,14,14,31,52,10,11,0.8,0.8
2024-10-06T1100,1051A,115.493,38.8632,保定市,游泳馆,细颗粒物(PM2.5),147,,133,112,109,64,,40,30,38,45,3,5,0.7,0.9
2024-10-06T1100,1052A,115.5213,38.8959,保定市,华电二区,细颗粒物(PM2.5),134,119,129,102,100,53,,26,25,42,46,4,5,0.6,0.7
2024-10-06T1100,1053A,115.4713,38.9108,保定市,接待中心,细颗粒物(PM2.5),155,,133,118,105,68,,37,30,38,45,4,5,0.7,0.8
2024-10-06T1100,1054A,115.4612,38.8416,保定市,地表水厂,细颗粒物(PM2.5),127,,142,96,109,64,,29,20,37,55,4,6,0.3,0.5
2024-10-06T1100,3581A,115.31981,38.95208,保定市,满城区生态环境分局,细颗粒物(PM2.5),138,136,137,105,92,103,,50,41,31,40,5,6,0.9,1
2024-10-06T1100,3582A,115.47694,38.76408,保定市,清苑区第二中学,细颗粒物(PM2.5),137,126,162,104,119,49,,20,19,52,56,5,6,0.6,0.8
2024-10-06T1100,3583A,115.62909,39.02311,保定市,徐水物探局,细颗粒物(PM2.5),147,112,125,112,110,66,,30,30,42,54,6,8,0.7,0.7
2024-10-06T1100,4004A,115.4202,38.8656,保定市,双鹰农机,细颗粒物(PM2.5),135,127,144,103,103,69,,35,31,42,53,4,7,0.8,0.9
2024-10-06T1100,4034A,115.5150,38.8590,保定市,植保所站,细颗粒物(PM2.5),125,110,136,95,109,56,,30,26,45,53,7,8,0.6,0.8
2024-10-06T1100,2594A,99.1678,25.1081,保山市,市环境监测站,,29,,16,20,10,30,,9,9,8,6,6,5,0.4,0.4
2024-10-06T1100,2595A,99.1711,25.1328,保山市,市环保局,,18,18,19,6,5,32,,15,15,10,5,7,6,0.5,0.5
2024-10-06T1100,1867A,109.1436,21.4086,北海市,海滩公园,颗粒物(PM10),51,52,54,29,27,125,,119,113,11,13,10,9,0.7,0.7
2024-10-06T1100,1868A,109.0981,21.4661,北海市,新市环保局,颗粒物(PM10),56,62,52,39,32,118,,110,104,13,13,10,11,0.9,0.8
2024-10-06T1100,1869A,109.1778,21.5233,北海市,北海工业园,颗粒物(PM10),53,56,51,34,32,122,,94,94,11,14,10,9,0.8,0.8
2024-10-06T1100,3400A,109.1911,21.4415,北海市,龙潭自来水厂,细颗粒物(PM2.5),54,52,46,38,35,117,,82,82,9,12,15,9,0.7,0.6
2024-10-06T1100,1001A,116.3621,39.8784,北京市,万寿西宫,细颗粒物(PM2.5),80,74,80,59,64,79,,34,34,47,52,3,4,0.6,0.6
2024-10-06T1100,1002A,116.2202,40.2915,北京市,定陵,细颗粒物(PM2.5),119,90,92,90,73,49,,41,39,12,16,1,2,0.6,0.6
2024-10-06T1100,1003A,116.4174,39.9289,北京市,东四,细颗粒物(PM2.5),99,115,114,74,71,61,,31,31,50,49,5,5,0.8,0.8
2024-10-06T1100,1004A,116.4072,39.8863,北京市,天坛,细颗粒物(PM2.5),103,104,87,77,64,68,,27,27,46,36,2,3,0.8,0.7
2024-10-06T1100,1005A,116.462,39.9365,北京市,农展馆,细颗粒物(PM2.5),97,107,100,72,63,51,,18,18,49,53,3,2,0.6,0.7
2024-10-06T1100,1006A,116.3392,39.9295,北京市,官园,细颗粒物(PM2.5),94,107,105,70,66,55,,38,38,44,38,1,2,0.9,0.8
2024-10-06T1100,1007A,116.2878,39.9611,北京市,海淀万柳,细颗粒物(PM2.5),98,102,97,73,65,34,,20,20,51,50,3,4,0.6,0.6
2024-10-06T1100,1008A,116.6636,40.135,北京市,顺义新城,细颗粒物(PM2.5),69,72,98,50,64,56,,33,33,26,40,1,3,0.4,0.5
2024-10-06T1100,1009A,116.6275,40.3275,北京市,怀柔镇,细颗粒物(PM2.5),78,84,81,57,56,55,,65,58,13,13,3,2,0.6,0.6
2024-10-06T1100,1010A,116.2296,40.217,北京市,昌平镇,细颗粒物(PM2.5),100,109,98,75,59,53,,53,42,20,26,3,4,0.6,0.6
2024-10-06T1100,1011A,116.3966,39.9821,北京市,奥体中心,细颗粒物(PM2.5),99,108,102,74,67,21,,28,28,76,53,3,3,0.8,0.7
2024-10-06T1100,1012A,116.184,39.9136,北京市,古城,细颗粒物(PM2.5),109,129,129,82,75,68,,46,46,26,46,3,4,0.9,0.9
2024-10-06T1100,3281A,115.9718,40.4529,北京市,延庆夏都,细颗粒物(PM2.5),117,110,92,88,64,37,,68,45,31,18,3,2,0.6,0.5
2024-10-06T1100,3417A,117.0709,40.1465,北京市,平谷新城,细颗粒物(PM2.5),80,75,85,59,61,59,,53,46,15,17,3,3,0.4,0.5
2024-10-06T1100,3418A,116.8336,40.4095,北京市,密云新城,细颗粒物(PM2.5),70,76,87,51,50,80,,80,80,14,18,1,2,0.5,0.5
2024-10-06T1100,3671A,116.088,39.9726,北京市,门头沟三家店,细颗粒物(PM2.5),93,103,101,69,60,31,,33,32,28,29,2,2,0.6,0.6
2024-10-06T1100,3672A,116.1541,39.8204,北京市,丰台云岗,细颗粒物(PM2.5),105,107,109,79,73,40,,31,31,27,46,3,4,0.6,0.6
2024-10-06T1100,3673A,116.6804,39.9081,北京市,通州东关,细颗粒物(PM2.5),107,132,127,80,74,36,,7,7,42,48,3,2,0.6,0.6
2024-10-06T1100,3674A,115.9577,39.7603,北京市,房山燕山,细颗粒物(PM2.5),83,97,96,61,66,53,,56,55,22,19,3,2,0.6,0.7
2024-10-06T1100,3675A,116.4672,39.7733,北京市,大兴旧宫,细颗粒物(PM2.5),105,108,84,79,59,47,,18,18,40,31,3,3,0.5,0.5
2024-10-06T1100,3694A,115.986,40.4563,北京市,延庆石河营,细颗粒物(PM2.5),117,97,86,88,62,32,,55,37,31,16,3,3,0.6,0.5
2024-10-06T1100,3695A,116.6151,40.3053,北京市,怀柔新城,细颗粒物(PM2.5),88,75,79,65,58,67,,75,67,11,17,3,3,0.6,0.5
2024-10-06T1100,3696A,116.2545,39.8768,北京市,丰台小屯,细颗粒物(PM2.5),94,103,100,70,66,66,,33,33,32,54,2,2,0.8,0.8
2024-10-06T1100,3697A,116.84,40.3844,北京市,密云镇,细颗粒物(PM2.5),70,79,84,51,54,78,,44,44,18,39,3,4,0.5,0.5
2024-10-06T1100,1761A,123.8275,41.3064,本溪市,大峪,颗粒物(PM10),58,66,48,31,25,41,,23,21,30,29,10,10,1.0,0.8
2024-10-06T1100,1762A,123.7567,41.3325,本溪市,溪湖,颗粒物(PM10),65,80,80,42,38,26,,13,13,41,35,9,10,1.0,1
2024-10-06T1100,1763A,123.7169,41.3094,本溪市,彩屯,细颗粒物(PM2.5),67,72,73,48,51,17,,11,11,59,40,12,11,1.3,1.5
2024-10-06T1100,1764A,123.7669,41.2864,本溪市,东明,颗粒物(PM10),60,70,63,36,30,32,,18,18,44,50,6,7,1.2,1.2
2024-10-06T1100,1765A,123.7992,41.2664,本溪市,新立屯,颗粒物(PM10),57,64,34,24,16,31,,27,24,46,46,6,6,1.0,0.6
2024-10-06T1100,1766A,123.8142,41.3472,本溪市,威宁,颗粒物(PM10),58,66,68,36,30,38,,19,19,25,34,8,9,0.9,0.9
2024-10-06T1100,2587A,105.2864,27.3125,毕节市,八中,,17,13,49,6,31,53,,52,51,13,11,6,7,0.5,0.5
2024-10-06T1100,2588A,105.31,27.2944,毕节市,师专,,19,12,50,8,33,59,,59,54,9,9,7,10,0.5,0.5
2024-10-06T1100,3537A,105.3631,27.3533,毕节市,长征村,,20,14,60,10,46,62,,59,58,10,11,7,11,0.6,0.5
2024-10-06T1100,1629A,118.0018,37.3617,滨州市,第二水厂,,40,31,91,22,51,125,,62,62,12,32,14,19,0.1,0.4
2024-10-06T1100,1630A,117.9776,37.393,滨州市,北中新校,,44,44,92,22,48,134,,65,65,17,33,18,20,0.5,0.7
2024-10-06T1100,3514A,117.9378,37.3956,滨州市,中海酒店,细颗粒物(PM2.5),64,75,92,46,54,126,,79,74,30,27,49,19,0.8,0.8
2024-10-06T1100,3515A,117.9378,37.3553,滨州市,开发区一中,,42,36,99,29,51,130,,70,70,20,34,17,28,0.6,0.9
2024-10-06T1100,3516A,118.0917,37.694,滨州市,金海六路,,41,27,92,17,53,129,,83,63,21,33,8,12,0.3,0.6
2024-10-06T1100,4028A,117.9956,37.3753,滨州市,滨州市西街道办事处,,44,,87,22,57,139,,70,70,8,28,12,21,0.5,0.9
2024-10-06T1100,2311A,115.8072,33.8399,亳州市,污水处理厂,,46,38,49,32,30,74,,49,49,13,18,7,6,0.5,0.4
2024-10-06T1100,2312A,115.7789,33.8518,亳州市,三国揽胜宫,,40,34,41,28,28,81,,56,56,12,15,4,5,0.4,0.4
2024-10-06T1100,3332A,115.7633,33.8034,亳州市,亳州学院,,,41,46,,21,86,,65,65,12,15,4,3,0.4,0.4
2024-10-06T1100,2693A,82.0485,44.8556,博尔塔拉蒙古自治州,市党校,,36,36,55,24,18,42,,44,37,23,16,8,11,0.4,0.4
2024-10-06T1100,2694A,82.0806,44.8969,博尔塔拉蒙古自治州,市环保局,,40,40,48,15,15,29,,34,30,20,17,5,4,0.5,0.4
2024-10-06T1100,1071A,116.8842,38.2991,沧州市,沧县城建局,颗粒物(PM10),62,74,100,35,63,94,,59,59,33,43,7,6,0.6,0.6
2024-10-06T1100,1072A,116.8584,38.3254,沧州市,电视转播站,细颗粒物(PM2.5),64,69,83,46,62,84,,66,64,33,33,10,11,0.5,0.5
2024-10-06T1100,1073A,116.8709,38.3228,沧州市,市环保局,细颗粒物(PM2.5),72,86,94,52,61,85,,62,60,38,38,7,7,0.4,0.5
2024-10-06T1100,3324A,116.8136,38.3004,沧州市,河北水利电力学院,细颗粒物(PM2.5),77,92,95,56,63,89,,60,56,27,35,7,6,0.4,0.5
2024-10-06T1100,2622A,97.1806,31.1273,昌都市,昌都监测站,,12,12,9,6,5,22,,16,16,13,9,8,8,0.6,0.5
2024-10-06T1100,3719A,97.1714,31.1406,昌都市,昌都会议中心,,9,7,8,3,5,26,,20,20,8,5,8,8,0.5,0.4
2024-10-06T1100,2690A,88.1236,43.8886,昌吉回族自治州,天山天池,,,,9,1,4,80,,68,68,1,2,7,7,0.4,0.4
2024-10-06T1100,2692A,87.2717,44.0297,昌吉回族自治州,新区政务中心,颗粒物(PM10),71,91,54,25,21,33,,7,7,41,34,8,6,1.1,0.8
2024-10-06T1100,3613A,87.3095,44.0142,昌吉回族自治州,亚心广场,颗粒物(PM10),76,102,67,34,16,36,,10,10,45,44,7,5,1.0,0.8
2024-10-06T1100,1119A,125.3325,43.9166,长春市,食品厂,,40,40,58,18,30,34,,48,42,24,34,5,7,0.3,0.5
2024-10-06T1100,1120A,125.2863,43.9027,长春市,客车厂,,36,36,54,17,34,30,,47,36,30,35,8,9,0.6,0.6
2024-10-06T1100,1121A,125.2841,43.8463,长春市,邮电学院,,32,28,55,22,25,39,,46,42,23,28,7,8,0.3,0.5
2024-10-06T1100,1122A,125.3716,43.8772,长春市,劳动公园,,50,50,61,15,27,42,,46,40,26,30,7,9,0.3,0.5
2024-10-06T1100,1123A,125.3297,43.8805,长春市,园林处,,44,44,51,18,28,37,,48,41,25,27,5,7,0.3,0.5
2024-10-06T1100,1124A,125.4605,43.79,长春市,净月潭,,23,23,46,13,25,43,,42,41,16,21,6,7,0.2,0.4
2024-10-06T1100,1126A,125.3863,43.8447,长春市,经开区环卫处,,38,38,58,18,25,32,,40,37,29,35,8,9,0.4,0.7
2024-10-06T1100,1127A,125.245,43.7783,长春市,高新区管委会,,46,46,58,13,31,42,,45,44,24,36,6,7,0.3,0.6
2024-10-06T1100,1128A,125.1761,43.8325,长春市,岱山公园,,39,39,54,19,29,28,,37,33,30,38,6,7,0.7,0.6
2024-10-06T1100,1335A,113.0833,28.2325,长沙市,经开区环保局,细颗粒物(PM2.5),139,148,80,106,58,121,,75,75,24,26,9,8,0.7,0.6
2024-10-06T1100,1336A,112.8872,28.2189,长沙市,高开区环保局,细颗粒物(PM2.5),115,106,82,87,57,98,,66,66,18,16,9,8,0.5,0.4
2024-10-06T1100,1337A,113.0792,28.2053,长沙市,马坡岭,细颗粒物(PM2.5),140,127,79,107,61,126,,80,80,18,19,9,8,0.8,0.7
2024-10-06T1100,1338A,112.9394,28.19,长沙市,湖南师范大学,细颗粒物(PM2.5),112,115,82,84,58,112,,78,76,16,14,7,6,0.9,0.7
2024-10-06T1100,1339A,113.0178,28.1322,长沙市,雨花区环保局,细颗粒物(PM2.5),98,117,76,73,47,132,,88,88,15,15,10,10,0.8,0.7
2024-10-06T1100,1340A,112.9792,28.2597,长沙市,伍家岭,细颗粒物(PM2.5),113,110,84,85,59,93,,68,66,17,18,6,7,0.9,0.8
2024-10-06T1100,1341A,113.0014,28.1944,长沙市,火车新站,细颗粒物(PM2.5),107,116,80,80,55,106,,78,74,19,20,9,9,0.7,0.6
2024-10-06T1100,1342A,112.9844,28.1178,长沙市,天心区环保局,细颗粒物(PM2.5),109,138,87,82,52,115,,72,72,20,19,9,8,1.0,0.9
2024-10-06T1100,1343A,112.8908,28.1308,长沙市,湖南中医药大学,细颗粒物(PM2.5),128,133,87,97,64,114,,74,74,13,12,11,9,1.2,1
2024-10-06T1100,1344A,112.9581,28.3611,长沙市,沙坪,细颗粒物(PM2.5),94,91,71,70,51,104,,73,66,12,11,13,12,1.0,0.9
2024-10-06T1100,1727A,113.1147,36.1547,长治市,清华站,细颗粒物(PM2.5),83,76,61,61,45,59,,45,40,30,26,14,9,1.2,0.9
2024-10-06T1100,1728A,113.1031,36.1989,长治市,监测站,细颗粒物(PM2.5),79,81,65,58,47,43,,34,25,43,35,18,12,1.3,0.9
2024-10-06T1100,1730A,113.0886,36.2125,长治市,审计局,细颗粒物(PM2.5),94,80,62,70,48,45,,38,27,31,26,14,8,0.9,0.6
2024-10-06T1100,1731A,113.0844,36.1856,长治市,长治八中,颗粒物(PM10),73,95,79,42,35,48,,34,22,38,32,16,9,1.2,0.9
2024-10-06T1100,2845A,113.1569,36.1911,长治市,德盛苑,,,78,63,61,49,,,61,52,32,22,12,7,,0.9
2024-10-06T1100,3568A,113.06,36.0464,长治市,向阳小学,细颗粒物(PM2.5),89,98,86,66,54,52,,33,33,40,34,13,8,1.0,0.7
2024-10-06T1100,3569A,112.8792,36.3144,长治市,屯留一中,细颗粒物(PM2.5),55,44,70,39,54,78,,47,47,29,31,24,13,1.5,1.5
2024-10-06T1100,3570A,113.235,36.3489,长治市,潞城四中,细颗粒物(PM2.5),99,116,83,74,53,78,,28,28,31,34,13,11,1.1,1.1
2024-10-06T1100,1854A,111.6975,28.9703,常德市,市二中,,50,50,84,31,61,114,,102,102,12,15,10,13,0.7,0.8
2024-10-06T1100,3138A,111.7153,29.0289,常德市,武陵区永安,颗粒物(PM10),51,51,80,29,57,112,,98,98,13,16,12,14,0.9,0.9
2024-10-06T1100,3139A,111.6892,28.9881,常德市,鼎城区玉霞,颗粒物(PM10),79,107,87,29,55,120,,107,107,12,14,13,15,0.7,0.8
2024-10-06T1100,3140A,111.6625,29.0531,常德市,武陵区长庚,颗粒物(PM10),57,64,80,36,56,118,,96,96,14,17,10,12,0.5,0.6
2024-10-06T1100,1196A,119.9633,31.762,常州市,市监测站,,27,11,30,3,13,86,,88,88,15,11,7,7,0.4,0.5
2024-10-06T1100,1200A,119.9468,31.7069,常州市,武进监测站,,29,16,30,3,12,91,,88,88,10,7,9,10,0.9,0.7
2024-10-06T1100,1201A,119.9255,31.9087,常州市,安家,,28,11,31,3,14,89,,82,82,11,15,5,6,0.3,0.3
2024-10-06T1100,3002A,119.9805,31.8174,常州市,行政中心,,26,14,28,12,12,81,,83,83,16,12,5,6,0.2,0.2
2024-10-06T1100,3003A,120.0522,31.7748,常州市,经开区,,28,22,26,7,10,88,,86,86,18,15,7,6,0.2,0.1
2024-10-06T1100,3010A,119.9025,31.7964,常州市,钟楼,,28,9,28,3,13,87,,83,83,13,13,8,8,0.5,0.5
2024-10-06T1100,3429A,119.8598,31.7066,常州市,武进经发区,,27,7,25,3,13,86,,76,76,14,14,6,6,0.5,0.5
2024-10-06T1100,3430A,119.5826,31.7245,常州市,金坛城区,,29,8,13,7,10,92,,84,84,9,8,8,8,0.5,0.6
2024-10-06T1100,2220A,120.4318,41.5881,朝阳市,西梁,,25,25,53,12,30,51,,49,49,11,23,7,12,0.5,0.8
2024-10-06T1100,2221A,120.4521,41.5646,朝阳市,河畔小区,,25,21,44,17,28,52,,53,52,15,17,7,11,0.3,0.6
2024-10-06T1100,2222A,120.4176,41.5648,朝阳市,八里堡,,38,38,66,18,31,50,,47,47,18,36,8,13,0.5,1
2024-10-06T1100,2223A,120.3806,41.5969,朝阳市,农业园区,,20,16,45,14,28,47,,42,42,10,23,6,9,0.4,0.6
2024-10-06T1100,1705A,116.6367,23.6719,潮州市,西园路,,32,30,32,22,23,54,,28,28,7,14,3,4,0.4,0.5
2024-10-06T1100,3026A,116.6183,23.6608,潮州市,市政府,,37,37,34,13,17,62,,47,40,4,12,5,8,0.5,0.6
2024-10-06T1100,4036A,116.6461,23.6761,潮州市,金山,,39,39,31,17,28,61,,32,32,3,11,7,8,0.5,0.6
2024-10-06T1100,2472A,113.0073,25.9061,郴州市,马头岭,颗粒物(PM10),62,73,63,25,24,124,,101,101,18,14,13,11,0.7,0.6
2024-10-06T1100,2473A,113.0116,25.8226,郴州市,市职中,细颗粒物(PM2.5),62,56,55,44,42,143,,98,98,14,23,10,8,0.7,0.7
2024-10-06T1100,2474A,113.0161,25.8001,郴州市,兴隆步行街,细颗粒物(PM2.5),67,74,58,48,38,147,,110,110,16,20,10,8,0.5,0.4
2024-10-06T1100,2475A,113.0383,25.8071,郴州市,市审计局,细颗粒物(PM2.5),60,59,53,43,41,138,,111,111,8,18,7,6,0.6,0.6
2024-10-06T1100,2476A,113.0348,25.7759,郴州市,市环保局,细颗粒物(PM2.5),62,66,62,44,40,136,,109,109,12,22,10,10,0.7,0.6
2024-10-06T1100,1431A,103.9728,30.7236,成都市,金泉两河,,18,18,35,9,14,55,,43,43,14,19,3,3,0.4,0.4
2024-10-06T1100,1432A,104.176,30.6872,成都市,十里店,细颗粒物(PM2.5),52,,34,36,24,38,,39,34,28,21,1,1,0.7,0.6
2024-10-06T1100,1433A,104.079,30.5706,成都市,三瓦窑,,41,41,43,23,32,43,,37,37,28,30,3,3,0.6,0.6
2024-10-06T1100,1434A,104.1114,30.63,成都市,沙河铺,细颗粒物(PM2.5),64,49,50,46,32,32,,31,31,28,24,2,2,0.6,0.6
2024-10-06T1100,1437A,104.0786,30.6531,成都市,君平街,,32,31,42,22,28,33,,40,40,28,30,3,3,0.6,0.6
2024-10-06T1100,2880A,104.0239,30.65639,成都市,大石西路,,34,34,45,22,26,42,,40,40,20,23,3,3,0.4,0.4
2024-10-06T1100,3136A,104.2725,30.5589,成都市,龙泉驿区区政府,,42,36,37,29,25,57,,51,51,23,20,1,1,0.5,0.5
2024-10-06T1100,3357A,104.0106,30.6931,成都市,金博路,,37,37,36,19,20,37,,34,33,22,25,1,1,0.6,0.6
2024-10-06T1100,3359A,104.0578,30.5225,成都市,华阳,,45,41,41,31,29,44,,48,48,24,19,3,3,0.6,0.6
2024-10-06T1100,3487A,104.2394,30.5319,成都市,车城东七路,,46,42,44,32,29,64,,58,58,17,17,2,2,0.5,0.5
2024-10-06T1100,3488A,104.3853,30.7453,成都市,青白江技师分院,,49,,35,34,23,52,,36,36,21,22,4,2,0.9,0.7
2024-10-06T1100,3489A,104.0789,30.4072,成都市,科学城,,42,36,38,29,28,65,,61,61,18,16,5,4,0.5,0.5
2024-10-06T1100,4011A,103.8506,30.6947,成都市,光华大道三段,,35,33,42,24,24,48,,43,43,14,16,2,3,0.6,0.6
2024-10-06T1100,1062A,117.9531,40.9081,承德市,铁路,细颗粒物(PM2.5),63,73,68,45,39,19,,14,10,40,41,8,10,0.7,0.6
2024-10-06T1100,1063A,117.9392,40.9763,承德市,中国银行,,35,35,76,19,42,39,,12,12,21,36,5,8,0.5,0.8
2024-10-06T1100,1064A,117.9503,40.928,承德市,开发区,颗粒物(PM10),55,59,74,36,36,27,,9,7,32,35,7,9,0.6,0.7
2024-10-06T1100,1065A,117.8051,40.9655,承德市,文化中心,颗粒物(PM10),59,68,92,32,46,26,,14,13,33,46,9,30,0.6,1
2024-10-06T1100,1066A,117.9268,41.0026,承德市,离宫,细颗粒物(PM2.5),59,,76,42,50,30,,9,9,14,18,3,6,0.4,0.7
2024-10-06T1100,2314A,117.47,30.6618,池州市,池州学院,,14,6,32,3,22,44,,44,41,10,15,6,7,0.4,0.5
2024-10-06T1100,3237A,117.4918,30.6617,池州市,展览馆,,14,14,28,6,16,41,,46,40,12,14,4,5,0.6,0.4
2024-10-06T1100,3333A,117.5627,30.695,池州市,第八中学,,13,6,27,3,15,40,,41,37,12,14,4,5,0.6,0.5
2024-10-06T1100,3334A,117.5038,30.6243,池州市,第十二中学,,12,8,23,6,18,38,,51,39,17,12,4,4,0.7,0.6
2024-10-06T1100,1744A,118.9233,42.2816,赤峰市,松山一中,,16,10,32,3,12,50,,61,56,24,21,10,11,0.4,0.4
2024-10-06T1100,1745A,118.9576,42.2728,赤峰市,哈达街,,19,11,34,9,14,60,,67,64,13,16,7,9,0.4,0.4
2024-10-06T1100,1746A,118.8788,42.2554,赤峰市,天义路,,28,28,28,3,15,50,,60,55,22,19,6,9,0.2,0.2
2024-10-06T1100,3058A,119.2658,42.0353,赤峰市,银河街,,18,9,41,7,17,55,,59,57,12,17,10,13,0.3,0.4
2024-10-06T1100,3286A,118.9359,42.3147,赤峰市,桥北物流园区,,18,9,30,3,8,56,,68,62,24,17,9,10,0.0,0.2
2024-10-06T1100,2521A,107.3476,22.4136,崇左市,市环保局江州分局,,48,48,57,27,28,106,,56,56,8,11,5,4,0.6,0.6
2024-10-06T1100,2522A,107.3702,22.3707,崇左市,城南新区,,43,43,45,28,28,114,,58,58,9,17,6,5,0.6,0.6
2024-10-06T1100,2298A,118.3093,32.3153,滁州市,老年大学,,27,,22,10,15,84,,73,73,10,12,6,6,0.3,0.3
2024-10-06T1100,2299A,118.3244,32.2786,滁州市,人大宾馆,,27,11,27,6,17,84,,72,72,10,15,5,6,0.2,0.3
2024-10-06T1100,3207A,118.3118,32.3038,滁州市,市政府原办公楼,,26,10,26,10,20,83,,71,71,10,12,4,5,0.3,0.3
2024-10-06T1100,3331A,118.3267,32.2634,滁州市,图书馆,,27,6,22,3,13,86,,73,73,10,13,4,4,0.3,0.3
2024-10-06T1100,2605A,101.5482,25.0441,楚雄彝族自治州,州环境监测站,,16,,10,11,8,40,,38,38,4,4,7,6,0.6,0.5
2024-10-06T1100,2606A,101.538,25.0492,楚雄彝族自治州,市经济开发区,,18,,13,12,9,39,,36,36,6,5,5,5,0.7,0.7
2024-10-06T1100,2548A,107.5277,31.2827,达州市,达州职业技术学院,细颗粒物(PM2.5),57,56,52,40,33,31,,18,18,27,35,4,5,0.8,0.7
2024-10-06T1100,2549A,107.5086,31.2186,达州市,市环境监测站,"颗粒物(PM10),细颗粒物(PM2.5)",52,54,59,36,32,28,,36,32,38,32,5,6,0.6,0.5
2024-10-06T1100,2550A,107.4988,31.2132,达州市,凤凰小区,,,53,57,34,35,35,,54,47,,25,6,8,0.6,0.5
2024-10-06T1100,2551A,107.5082,31.1986,达州市,达县机关宾馆,颗粒物(PM10),51,51,57,33,34,27,,43,35,44,35,5,6,0.6,0.5
2024-10-06T1100,2552A,107.4644,31.2124,达州市,市政中心,细颗粒物(PM2.5),55,50,63,39,37,31,,47,39,28,27,4,8,0.6,0.6
2024-10-06T1100,2614A,100.1542,25.7054,大理白族自治州,大理市环境监测站,,22,15,13,15,10,31,,29,29,7,5,6,6,0.6,0.6
2024-10-06T1100,2615A,100.2171,25.5811,大理白族自治州,大理古城,,15,15,16,9,9,42,,24,24,4,8,6,7,0.5,0.5
2024-10-06T1100,1109A,121.612,38.9741,大连市,甘井子,,48,40,32,33,19,127,,98,87,25,27,10,9,0.9,0.8
2024-10-06T1100,1110A,121.565,38.9511,大连市,周水子,,50,49,41,35,22,124,,60,60,32,39,13,10,0.7,0.6
2024-10-06T1100,1111A,121.5637,38.8845,大连市,星海三站,,48,43,34,33,22,144,,88,88,11,21,9,7,0.5,0.4
2024-10-06T1100,1112A,121.6302,38.9117,大连市,青泥洼桥,颗粒物(PM10),56,62,28,36,17,120,,89,73,33,20,11,8,0.6,0.4
2024-10-06T1100,1113A,121.6251,38.8638,大连市,傅家庄,,46,39,25,32,15,137,,114,111,17,10,12,9,0.6,0.5
2024-10-06T1100,1114A,121.5213,38.8661,大连市,七贤岭,,49,47,32,34,19,151,,81,81,14,17,10,8,0.6,0.6
2024-10-06T1100,1115A,121.2529,38.8061,大连市,旅顺,颗粒物(PM10),57,63,39,35,22,126,,97,91,21,21,9,8,0.7,0.6
2024-10-06T1100,1116A,121.7485,39.1311,大连市,金州,,,,32,25,22,84,,82,74,41,20,9,8,,0.6
2024-10-06T1100,1117A,121.7811,39.0496,大连市,开发区,,50,50,35,30,21,96,,61,58,41,27,14,10,0.5,0.5
2024-10-06T1100,1118A,121.9762,39.0631,大连市,双D港,,48,48,21,29,13,124,,98,97,31,17,10,8,0.8,0.6
2024-10-06T1100,1789A,124.81117,46.03138,大庆市,大同区,,23,23,28,16,17,46,,40,38,10,9,2,3,0.3,0.3
2024-10-06T1100,1790A,125.129,46.533,大庆市,龙凤区,,29,20,31,20,17,48,,50,44,12,10,2,2,0.3,0.3
2024-10-06T1100,1791A,124.902,46.408,大庆市,红岗区,,23,23,30,11,14,46,,44,38,18,13,6,6,0.4,0.3
2024-10-06T1100,1792A,125.153,46.586,大庆市,萨尔图区,,29,29,24,9,9,46,,50,44,11,10,5,5,0.2,0.2
2024-10-06T1100,1793A,124.9042,46.6215,大庆市,让胡路区,,25,25,29,12,21,37,,38,32,20,12,4,4,0.4,0.3
2024-10-06T1100,3481A,125.141,46.634,大庆市,萨区政府监测点,,22,16,20,15,9,48,,47,44,8,6,5,5,0.2,0.2
2024-10-06T1100,1721A,113.3819,40.1097,大同市,果树场,,39,,51,27,25,47,,55,55,24,22,6,9,0.6,0.7
2024-10-06T1100,1723A,113.2994,40.0758,大同市,云冈宾馆,,42,42,64,18,25,65,,67,67,18,38,7,10,0.4,0.8
2024-10-06T1100,1724A,113.3444,40.0917,大同市,大同大学,,,26,48,25,24,66,,57,57,17,32,10,15,,0.6
2024-10-06T1100,1725A,113.2661,40.1269,大同市,安家小村,,36,36,52,18,20,57,,72,72,14,28,11,14,0.4,0.5
2024-10-06T1100,1726A,113.2711,40.0844,大同市,教育学院,,31,31,74,16,31,49,,64,64,18,47,8,12,0.5,1
2024-10-06T1100,3282A,113.3397,40.0597,大同市,大同市卫生学校,,30,27,54,21,23,70,,66,66,17,29,7,11,0.6,0.8
2024-10-06T1100,3565A,113.1367,40.1122,大同市,云冈站,,33,33,90,22,30,61,,69,69,11,26,9,12,0.5,0.6
2024-10-06T1100,3566A,113.1186,40.2556,大同市,图书馆,,42,32,96,29,29,52,,62,62,16,29,9,13,0.7,0.8
2024-10-06T1100,3567A,113.5931,40.0461,大同市,区一中,,27,27,43,15,14,74,,57,57,16,21,7,10,0.5,0.5
2024-10-06T1100,3676A,113.2802,40.0995,大同市,第二人民医院,,34,34,67,19,27,53,,68,68,17,38,13,16,0.6,0.9
2024-10-06T1100,2269A,124.1069,50.4097,大兴安岭地区,科技局,"颗粒物(PM10),细颗粒物(PM2.5)",55,60,22,39,19,43,,39,36,5,5,7,7,0.6,0.3
2024-10-06T1100,3663A,124.1164,50.4278,大兴安岭地区,红旗社区,细颗粒物(PM2.5),109,90,25,82,22,50,,28,28,6,10,2,2,0.8,0.4
2024-10-06T1100,1600A,124.3303,40.0625,丹东市,江湾东路,,41,41,49,21,28,53,,37,37,23,26,7,11,0.6,0.8
2024-10-06T1100,1601A,124.4256,40.1503,丹东市,临江后街,,46,46,54,30,30,29,,24,24,24,22,7,7,0.8,0.9
2024-10-06T1100,1602A,124.3933,40.1461,丹东市,元宝山,,32,30,41,22,22,39,,22,22,13,17,4,5,0.7,0.7
2024-10-06T1100,1603A,124.3633,40.1092,丹东市,民主桥,,34,34,40,20,21,47,,38,38,29,21,6,6,0.6,0.6
2024-10-06T1100,3541A,109.5726,19.5167,儋州市,第一中学子站,,46,46,36,28,23,107,,77,75,9,6,7,7,0.7,0.6
2024-10-06T1100,3542A,109.5567,19.5187,儋州市,东坡学校子站,,44,44,36,25,23,104,,74,68,13,8,7,6,0.7,0.6
2024-10-06T1100,2616A,98.5842,24.428,德宏傣族景颇族自治州,德宏州监测站,,26,26,22,9,8,16,,5,5,8,12,4,10,0.5,0.5
2024-10-06T1100,3677A,98.5881,24.4368,德宏傣族景颇族自治州,芒市人民政府综合楼,,18,17,19,12,7,15,,8,7,9,9,5,7,0.6,0.5
2024-10-06T1100,1901A,104.4239,31.1208,德阳市,东山公园,,34,34,34,23,23,42,,44,43,23,18,3,2,0.6,0.5
2024-10-06T1100,1902A,104.3826,31.1317,德阳市,西小区,细颗粒物(PM2.5),52,49,42,36,30,57,,63,52,26,18,2,2,0.6,0.5
2024-10-06T1100,1904A,104.3553,31.1091,德阳市,耐火材料厂,,48,48,40,26,25,52,,55,44,22,17,4,3,0.3,0.2
2024-10-06T1100,3639A,104.4019,31.1244,德阳市,市教育局,颗粒物(PM10),67,83,45,41,28,42,,54,44,31,21,3,1,0.5,0.4
2024-10-06T1100,1622A,116.3032,37.4674,德州市,儿童乐园,颗粒物(PM10),65,80,91,36,46,134,,55,55,29,42,11,10,0.6,0.6
2024-10-06T1100,1624A,116.2991,37.4451,德州市,监理站,颗粒物(PM10),65,80,89,39,48,141,,50,50,26,48,9,8,0.4,0.6
2024-10-06T1100,3066A,116.2721,37.4379,德州市,九衢泉纯净水厂,颗粒物(PM10),60,70,99,36,49,124,,37,37,25,61,10,9,0.5,0.7
2024-10-06T1100,3371A,116.3728,37.4403,德州市,开发区人民医院,颗粒物(PM10),54,58,81,24,40,141,,35,35,12,48,10,11,0.4,0.5
2024-10-06T1100,3372A,116.3572,37.4094,德州市,太阳城中学,颗粒物(PM10),56,61,89,24,45,140,,32,32,22,55,9,10,0.5,0.6
2024-10-06T1100,3511A,116.5652,37.3319,德州市,陵城艺术中心,颗粒物(PM10),64,78,90,29,51,158,,49,49,21,66,14,11,0.5,0.6
2024-10-06T1100,2621A,99.7056,27.8317,迪庆藏族自治州,迪庆州站,,16,15,15,11,10,43,,34,34,8,10,9,9,0.3,0.4
2024-10-06T1100,3180A,99.7136,27.8094,迪庆藏族自治州,质量技术监督局,,22,22,14,9,9,45,,44,40,7,8,6,6,0.5,0.5
2024-10-06T1100,2663A,104.6241,35.5734,定西市,东关小学,,42,41,48,29,32,65,,15,15,19,26,10,7,0.4,0.4
2024-10-06T1100,2664A,104.6194,35.5934,定西市,供电公司,,40,37,47,28,23,67,,14,14,12,26,10,8,0.5,0.5
2024-10-06T1100,1389A,113.7547,23.0494,东莞市,莞城梨川,,37,35,34,21,19,117,,83,83,13,16,8,8,0.6,0.6
2024-10-06T1100,1390A,113.7944,23.0128,东莞市,东城石井,,37,37,33,22,19,116,,72,72,12,16,9,8,0.7,0.7
2024-10-06T1100,1391A,113.7383,22.9658,东莞市,南城西平,,37,33,25,22,20,117,,61,61,15,25,4,3,0.7,0.7
2024-10-06T1100,3319A,113.7338,23.0381,东莞市,万江金泰,,36,36,33,18,19,114,,84,84,12,13,9,7,0.5,0.5
2024-10-06T1100,3626A,113.7533,23.0202,东莞市,南城元岭,,41,41,35,24,20,119,,84,84,12,12,9,8,0.7,0.6
2024-10-06T1100,3627A,113.7875,23.0457,东莞市,东城主山,,42,42,37,21,19,115,,82,82,51,22,10,9,0.6,0.5
2024-10-06T1100,1666A,118.6614,37.4309,东营市,市环保局,,40,39,66,17,36,127,,78,71,16,23,10,12,0.4,0.5
2024-10-06T1100,3036A,118.6904,37.4338,东营市,开发区管委会,颗粒物(PM10),55,60,68,19,37,128,,77,72,20,25,7,10,0.3,0.3
2024-10-06T1100,3365A,118.5719,37.565,东营市,垦利区民丰路,,42,36,58,14,34,133,,88,80,24,31,12,11,0.5,0.6
2024-10-06T1100,3498A,118.5055,37.8612,东营市,河口城区,,,31,78,20,44,112,,106,84,,24,9,10,0.4,0.5
2024-10-06T1100,3646A,118.4978,37.4623,东营市,胜利站,,47,47,67,17,33,128,,77,72,23,26,16,15,0.5,0.5
2024-10-06T1100,3734A,118.35,37.26,东营市,理想之城,,37,36,69,22,42,116,,70,61,24,32,14,10,0.4,0.5
2024-10-06T1100,1591A,110.0023,39.8129,鄂尔多斯市,综合楼,,48,48,62,12,16,63,,56,52,16,33,7,8,0.4,0.7
2024-10-06T1100,1592A,109.9486,39.8261,鄂尔多斯市,巴音孟克林场办事处,,44,44,51,14,20,54,,44,40,19,35,7,9,0.5,0.6
2024-10-06T1100,1593A,109.7736,39.5986,鄂尔多斯市,康泽苑,,34,34,44,17,19,60,,59,58,10,22,8,8,0.6,0.6
2024-10-06T1100,1594A,109.8119,39.5989,鄂尔多斯市,华泰汽车城,,36,36,44,17,22,57,,48,48,12,30,10,10,0.6,0.6
2024-10-06T1100,1595A,109.9734,39.7884,鄂尔多斯市,奥林花园,颗粒物(PM10),51,51,58,19,21,53,,51,51,21,39,6,7,0.5,0.7
2024-10-06T1100,2436A,114.8938,30.3994,鄂州市,市政府,细颗粒物(PM2.5),108,109,49,81,34,99,,66,66,21,26,12,11,0.9,0.8
2024-10-06T1100,2437A,114.8989,30.3714,鄂州市,赵家坝,细颗粒物(PM2.5),95,84,43,71,30,113,,75,75,21,20,11,12,0.8,0.7
2024-10-06T1100,3654A,114.8094,30.4089,鄂州市,精准医疗中心,细颗粒物(PM2.5),93,106,56,69,38,109,,81,81,14,14,6,7,0.8,0.8
2024-10-06T1100,2454A,109.4978,30.2981,恩施土家族苗族自治州,湖北民院,,50,45,48,35,34,40,,48,41,22,17,9,9,0.7,0.6
2024-10-06T1100,2455A,109.4707,30.2798,恩施土家族苗族自治州,州电力总公司,细颗粒物(PM2.5),52,45,40,36,30,21,,43,32,42,22,7,7,0.8,0.7
2024-10-06T1100,3549A,109.5061,30.3772,恩施土家族苗族自治州,龙凤新区,,50,40,42,35,31,27,,37,29,26,17,6,6,0.8,0.7
2024-10-06T1100,2499A,108.3411,21.6158,防城港市,沙万,颗粒物(PM10),55,60,49,30,27,122,,113,113,16,16,12,10,0.7,0.7
2024-10-06T1100,2500A,108.3514,21.7731,防城港市,防城档案局,颗粒物(PM10),65,79,96,38,39,109,,93,93,19,32,12,10,0.6,0.6
2024-10-06T1100,2501A,108.3506,21.6414,防城港市,大海花园,颗粒物(PM10),52,54,51,35,29,114,,107,107,15,13,10,9,0.7,0.7
2024-10-06T1100,1371A,113.1294,23.0067,佛山市,湾梁,颗粒物(PM10),51,51,38,22,21,106,,85,85,32,25,9,8,0.6,0.6
2024-10-06T1100,1372A,113.1083,23.0478,佛山市,华材职中,颗粒物(PM10),53,56,44,26,28,104,,78,78,34,31,11,9,0.6,0.6
2024-10-06T1100,1373A,113.144,23.0453,佛山市,南海气象局,,45,45,38,21,21,102,,80,80,28,22,10,9,0.7,0.7
2024-10-06T1100,1374A,113.2881,22.8094,佛山市,顺德苏岗,,41,41,28,17,16,104,,73,73,18,20,9,9,0.7,0.7
2024-10-06T1100,1376A,112.8383,22.8678,佛山市,高明孔堂,,45,45,41,27,27,110,,82,82,20,21,13,10,0.7,0.6
2024-10-06T1100,1377A,112.8836,23.1588,佛山市,三水监测站,,44,44,36,28,25,104,,76,76,22,24,10,9,0.6,0.5
2024-10-06T1100,1378A,112.867,23.185,佛山市,三水云东海,,38,36,32,26,23,99,,63,63,23,27,12,11,0.6,0.6
2024-10-06T1100,3625A,113.2544,22.7642,佛山市,容桂街道办,,36,29,28,22,20,114,,81,81,19,20,8,8,0.7,0.7
2024-10-06T1100,1282A,119.2681,26.0504,福州市,师大,,31,31,19,3,7,52,,43,43,6,8,2,2,0.3,0.3
2024-10-06T1100,1283A,119.2984,26.1028,福州市,五四北路,,17,17,20,3,12,50,,26,26,8,17,3,3,0.4,0.4
2024-10-06T1100,1284A,119.2648,26.0768,福州市,杨桥西路,,17,9,17,3,10,52,,42,42,7,11,3,3,0.5,0.5
2024-10-06T1100,1285A,119.317,26.0746,福州市,紫阳,,17,17,23,3,14,44,,25,25,15,23,6,6,0.6,0.6
2024-10-06T1100,3048A,119.5799,26.0936,福州市,九龙,,17,17,19,6,9,30,,17,17,3,18,6,6,0.5,0.6
2024-10-06T1100,3526A,119.5189,25.9664,福州市,吴航,,24,24,21,15,16,28,,20,20,19,21,8,6,0.7,0.6
2024-10-06T1100,1755A,123.7977,41.8491,抚顺市,望花区,颗粒物(PM10),65,80,88,42,47,45,,19,19,31,42,7,9,0.6,0.9
2024-10-06T1100,1756A,123.9161,41.8822,抚顺市,顺城区,颗粒物(PM10),54,58,71,26,42,59,,40,40,29,38,8,7,0.6,0.7
2024-10-06T1100,1757A,124.0436,41.8611,抚顺市,东洲区,,46,46,61,22,46,56,,26,26,15,22,7,8,0.6,0.7
2024-10-06T1100,1758A,123.9247,41.8642,抚顺市,新抚区,颗粒物(PM10),53,56,73,32,41,55,,24,24,30,40,7,6,0.6,0.7
2024-10-06T1100,1759A,124.0972,41.8961,抚顺市,大伙房水库,细颗粒物(PM2.5),52,38,56,36,38,68,,48,48,17,18,8,9,0.6,0.7
2024-10-06T1100,1760A,123.7086,41.8391,抚顺市,沈抚新城,细颗粒物(PM2.5),63,66,78,45,45,70,,29,29,25,39,11,11,0.5,0.7
2024-10-06T1100,2376A,116.2127,28.0814,抚州市,桐源党溪,颗粒物(PM10),51,52,44,27,24,78,,55,55,7,4,5,6,0.9,0.8
2024-10-06T1100,2377A,116.3544,27.9831,抚州市,市站,,45,45,40,18,20,69,,52,52,7,9,3,3,0.9,0.7
2024-10-06T1100,2378A,116.3565,27.963,抚州市,血防站,,35,35,37,18,19,76,,57,56,10,11,1,4,0.6,0.6
2024-10-06T1100,2379A,116.3564,28.0007,抚州市,采茶剧团,,34,34,38,20,21,71,,52,52,5,6,5,4,0.8,0.7
2024-10-06T1100,2380A,116.385,27.9647,抚州市,医学分院,,35,35,40,22,20,80,,68,67,6,9,3,4,0.8,0.7
2024-10-06T1100,2207A,121.6094,41.998,阜新市,工业园区,,29,29,68,7,23,60,,46,46,15,37,6,14,0.6,0.9
2024-10-06T1100,2208A,121.6697,42.0279,阜新市,长青街,,19,19,57,13,26,52,,50,50,13,21,5,11,0.4,0.7
2024-10-06T1100,2209A,121.6673,42.0705,阜新市,农业园区,,23,23,43,12,33,57,,52,52,12,17,5,10,0.4,0.6
2024-10-06T1100,2210A,121.6717,42.0224,阜新市,东苑,,31,31,64,9,24,54,,50,50,18,40,9,18,0.6,1
2024-10-06T1100,2211A,121.6506,42.0498,阜新市,玉龙新城,,28,28,58,13,28,61,,49,49,13,36,6,12,0.2,0.6
2024-10-06T1100,2301A,115.8277,32.8929,阜阳市,市监测站,,29,,42,20,22,86,,59,59,10,15,6,6,0.3,0.4
2024-10-06T1100,2303A,115.8554,32.8605,阜阳市,开发区,,32,32,62,20,26,89,,56,56,13,19,6,7,0.3,0.3
2024-10-06T1100,2875A,115.784,32.8892,阜阳市,阜阳职业技术学院,,28,16,43,15,22,87,,59,59,11,16,5,6,0.3,0.3
2024-10-06T1100,3468A,115.7901,32.8613,阜阳市,市规划展馆,,30,27,44,13,27,95,,67,67,14,18,6,7,0.5,0.5
2024-10-06T1100,3469A,115.836,32.9183,阜阳市,枣园社区,,26,24,46,15,27,83,,51,51,12,17,6,7,0.4,0.4
2024-10-06T1100,2669A,102.9099,34.9841,甘南藏族自治州,州政府,,27,27,25,13,16,80,,81,80,10,8,12,10,0.5,0.4
2024-10-06T1100,3380A,102.8914,34.9617,甘南藏族自治州,甘肃民族师范学院,,32,32,25,21,15,76,,84,84,16,10,5,4,0.5,0.5
2024-10-06T1100,2570A,101.9603,30.0475,甘孜藏族自治州,水桥子,,18,14,6,6,5,56,,45,45,6,8,5,6,0.2,0.3
2024-10-06T1100,3065A,101.9533,29.9972,甘孜藏族自治州,州环保局,,19,11,7,3,5,60,,46,46,10,10,2,3,0.3,0.3
2024-10-06T1100,3414A,115.8347,28.932,赣江新区,桑海产业园,,31,31,40,21,22,99,,75,75,12,15,10,11,0.6,0.6
2024-10-06T1100,2362A,114.9017,25.9149,赣州市,通天岩,细颗粒物(PM2.5),53,42,35,37,30,144,,85,85,8,8,23,17,0.4,0.4
2024-10-06T1100,2363A,114.9367,25.8664,赣州市,地委,,39,28,37,26,26,124,,105,105,10,12,5,4,1.1,1.2
2024-10-06T1100,2364A,114.9461,25.8481,赣州市,气象台,,41,38,41,22,26,130,,108,108,7,10,8,8,0.5,0.6
2024-10-06T1100,2365A,114.9322,25.8333,赣州市,市图书馆,,43,37,39,23,23,135,,118,118,7,9,8,7,0.7,0.7
2024-10-06T1100,2366A,114.8905,25.8471,赣州市,华坚鞋城,,39,39,35,18,22,123,,106,106,9,9,6,6,0.4,0.5
2024-10-06T1100,3109A,115.0093,25.8613,赣州市,赣县区卫计委,,43,43,42,21,27,121,,99,99,9,14,8,8,0.6,0.6
2024-10-06T1100,2683A,106.2319,36.1417,固原市,马园,,43,43,42,15,21,62,,19,19,17,24,9,6,0.5,0.5
2024-10-06T1100,2684A,106.2792,36.0022,固原市,监测站,,46,46,35,18,24,62,,36,36,21,22,9,7,0.4,0.5
2024-10-06T1100,2685A,106.2375,36.0211,固原市,新区,,42,42,31,15,18,75,,50,50,10,18,8,6,0.4,0.4
2024-10-06T1100,3522A,106.2177,35.9959,固原市,原州区十五小,,44,44,38,18,19,71,,53,52,13,22,8,7,0.5,0.5
2024-10-06T1100,2544A,106.6303,30.4576,广安市,市委,,48,46,73,33,49,77,,78,78,15,23,3,4,0.4,0.5
2024-10-06T1100,2545A,106.6271,30.4663,广安市,友谊中学,细颗粒物(PM2.5),53,47,69,37,49,72,,74,74,17,24,2,6,0.7,0.6
2024-10-06T1100,2547A,106.6388,30.4551,广安市,广电花园,,48,43,65,33,48,72,,74,74,13,22,1,6,0.4,0.5
2024-10-06T1100,2902A,106.6351,30.4865,广安市,北辰小学,,46,42,72,32,47,72,,77,77,15,21,2,8,0.5,0.5
2024-10-06T1100,2523A,105.8945,32.4535,广元市,黑石坡,,39,34,27,27,19,6,,12,5,12,12,15,14,0.5,0.5
2024-10-06T1100,2524A,105.821,32.4444,广元市,老城,,40,40,35,11,18,5,,6,6,29,31,6,3,1.2,0.6
2024-10-06T1100,2526A,105.8628,32.4287,广元市,监测站,颗粒物(PM10),51,51,34,19,25,9,,17,12,29,20,4,2,0.7,0.6
2024-10-06T1100,3617A,105.8047,32.4166,广元市,经开区,,49,44,51,34,34,8,,9,6,24,28,4,12,0.6,0.7
2024-10-06T1100,1345A,113.2347,23.1423,广州市,广雅中学,颗粒物(PM10),53,55,44,27,24,114,,85,85,24,27,8,8,0.7,0.7
2024-10-06T1100,1346A,113.2612,23.105,广州市,市五中,颗粒物(PM10),52,53,39,30,24,114,,96,96,19,15,6,5,0.7,0.7
2024-10-06T1100,1348A,113.3478,23.0916,广州市,广东商学院,,42,42,38,23,24,109,,85,85,19,23,7,6,0.7,0.7
2024-10-06T1100,1349A,113.4332,23.1047,广州市,市八十六中,,44,44,36,21,20,105,,83,83,20,22,5,4,0.6,0.6
2024-10-06T1100,1350A,113.3505,22.9483,广州市,番禺中学,,45,45,34,24,25,76,,56,56,21,19,7,6,0.6,0.6
2024-10-06T1100,1351A,113.2146,23.3916,广州市,花都师范,,42,42,37,27,23,119,,113,113,11,11,11,9,0.6,0.5
2024-10-06T1100,1352A,113.2597,23.1331,广州市,市监测站,,48,48,35,28,21,109,,83,83,25,22,6,6,1.0,0.8
2024-10-06T1100,1353A,113.5618,23.312,广州市,九龙镇镇龙,,38,38,33,24,24,105,,78,78,11,17,8,7,0.6,0.6
2024-10-06T1100,1354A,113.2765,23.1544,广州市,麓湖,,46,46,34,26,21,107,,73,73,22,21,8,7,0.6,0.6
2024-10-06T1100,1355A,113.443,23.3035,广州市,帽峰山森林公园,,40,40,24,24,18,122,,89,89,11,10,8,7,0.4,0.5
2024-10-06T1100,2846A,113.3221,23.1322,广州市,体育西,,39,39,35,27,26,104,,81,81,17,18,6,4,0.6,0.6
2024-10-06T1100,3298A,113.5717,23.5491,广州市,从化街口,,37,32,35,23,24,118,,103,103,8,16,11,10,0.6,0.6
2024-10-06T1100,3299A,113.3472,23.3692,广州市,白云竹料,,39,38,37,24,24,123,,98,98,11,15,8,7,0.6,0.7
2024-10-06T1100,3300A,113.2981,23.237,广州市,白云嘉禾,颗粒物(PM10),52,54,46,28,24,112,,70,70,24,20,7,6,0.8,0.7
2024-10-06T1100,3301A,113.4256,23.1716,广州市,黄埔科学城,,36,36,34,24,20,109,,74,74,14,18,7,7,0.8,0.8
2024-10-06T1100,3302A,113.3942,23.0483,广州市,番禺大学城,,35,30,34,24,22,101,,68,68,23,24,12,12,0.4,0.2
2024-10-06T1100,3303A,113.4922,22.8168,广州市,南沙黄阁,颗粒物(PM10),54,57,44,24,24,118,,75,75,26,30,12,12,0.7,0.8
2024-10-06T1100,3304A,113.5342,22.7896,广州市,南沙街,,42,42,37,27,21,118,,75,75,22,23,9,10,0.8,0.7
2024-10-06T1100,3443A,113.2902,23.5544,广州市,花都梯面,,37,37,33,25,21,108,,99,95,8,10,13,12,0.6,0.6
2024-10-06T1100,3445A,113.7858,23.7478,广州市,从化良口,,33,30,26,22,18,103,,84,84,7,8,9,9,0.6,0.6
2024-10-06T1100,3446A,113.8051,23.2614,广州市,增城荔城,,34,30,28,22,18,106,,92,92,8,10,8,7,0.6,0.5
2024-10-06T1100,2506A,109.6047,23.0666,贵港市,江南子站,颗粒物(PM10),67,83,82,42,39,77,,27,27,36,34,17,11,0.9,0.8
2024-10-06T1100,2507A,109.6014,23.0948,贵港市,贵城子站,"颗粒物(PM10),细颗粒物(PM2.5)",55,59,62,39,37,108,,81,81,19,22,18,10,0.7,0.8
2024-10-06T1100,2508A,109.5669,23.1065,贵港市,荷城子站,颗粒物(PM10),53,56,54,29,25,106,,89,89,19,20,17,12,0.6,0.6
2024-10-06T1100,3405A,109.5886,23.1172,贵港市,新世纪学校,颗粒物(PM10),64,78,51,34,25,92,,99,88,21,14,12,9,0.6,0.6
2024-10-06T1100,1439A,106.6899,26.5998,贵阳市,马鞍山,颗粒物(PM10),52,53,45,31,25,75,,73,70,12,13,5,4,0.7,0.7
2024-10-06T1100,1440A,106.6971,26.5694,贵阳市,市环保站,细颗粒物(PM2.5),67,56,50,48,39,84,,93,85,12,10,11,7,0.5,0.5
2024-10-06T1100,1441A,106.6243,26.6266,贵阳市,鉴湖路,细颗粒物(PM2.5),58,63,52,41,30,76,,82,78,9,10,9,6,0.5,0.4
2024-10-06T1100,1442A,106.7487,26.6343,贵阳市,燕子冲,细颗粒物(PM2.5),58,53,42,41,35,79,,83,77,11,8,14,9,0.6,0.5
2024-10-06T1100,1443A,106.6555,26.4365,贵阳市,碧云窝,颗粒物(PM10),64,78,61,31,30,76,,91,79,17,12,11,8,0.5,0.4
2024-10-06T1100,1444A,106.694,26.5161,贵阳市,中院村,细颗粒物(PM2.5),62,61,50,44,34,76,,89,79,14,12,15,11,0.6,0.6
2024-10-06T1100,1445A,106.7109,26.6027,贵阳市,红边门,细颗粒物(PM2.5),64,58,54,46,40,78,,82,75,12,14,13,9,0.7,0.6
2024-10-06T1100,1446A,106.7164,26.5699,贵阳市,新华路,颗粒物(PM10),56,61,49,36,34,77,,86,76,12,11,12,8,0.5,0.4
2024-10-06T1100,1447A,106.674,26.5424,贵阳市,太慈桥,颗粒物(PM10),52,53,48,34,27,82,,92,83,11,11,10,8,0.5,0.4
2024-10-06T1100,1862A,110.4144,25.3167,桂林市,电子科大尧山校区,颗粒物(PM10),52,54,46,33,30,152,,130,130,8,9,8,10,0.6,0.6
2024-10-06T1100,1863A,110.2819,25.2697,桂林市,监测站,颗粒物(PM10),54,57,47,30,32,154,,134,133,12,13,14,11,0.4,0.4
2024-10-06T1100,1864A,110.3089,25.2708,桂林市,龙隐路小学,臭氧1小时,53,54,42,34,32,162,,137,137,8,8,16,17,0.7,0.7
2024-10-06T1100,1865A,110.2869,25.2178,桂林市,八中,颗粒物(PM10),55,60,45,34,33,153,,128,128,12,13,15,13,0.7,0.7
2024-10-06T1100,3403A,110.1764,25.2381,桂林市,创业大厦,颗粒物(PM10),53,56,49,34,35,161,,134,134,9,10,12,15,0.4,0.4
2024-10-06T1100,3531A,110.296,25.1253,桂林市,旅游学院,,50,48,42,31,29,159,,103,103,8,13,12,12,0.5,0.4
2024-10-06T1100,2674A,100.2561,34.4714,果洛藏族自治州,玛沁县大武镇,,25,13,16,9,11,79,,61,61,2,2,8,9,0.4,0.4
2024-10-06T1100,1129A,126.5422,45.755,哈尔滨市,岭北,,25,14,25,8,16,78,,73,69,16,16,10,9,0,0.2
2024-10-06T1100,1130A,126.561,45.8167,哈尔滨市,松北商大,,28,28,32,8,16,44,,28,27,17,24,8,8,0.4,0.4
2024-10-06T1100,1131A,126.979,45.5419,哈尔滨市,阿城会宁,,23,23,47,8,23,49,,31,31,14,25,15,12,0.5,0.6
2024-10-06T1100,1132A,126.599,45.7222,哈尔滨市,南岗学府路,,32,32,43,6,14,52,,47,43,16,16,6,7,0.3,0.3
2024-10-06T1100,1133A,126.689,45.7733,哈尔滨市,太平宏伟公园,,30,30,41,13,20,46,,35,34,13,19,6,5,0.4,0.4
2024-10-06T1100,1134A,126.635,45.7667,哈尔滨市,道外承德广场,,28,28,45,6,16,48,,43,40,20,20,6,6,0.4,0.6
2024-10-06T1100,1135A,126.685,45.7319,哈尔滨市,香坊红旗大街,,29,29,40,7,16,52,,42,39,14,18,8,7,0.5,0.6
2024-10-06T1100,1136A,126.6411,45.7258,哈尔滨市,动力和平路,,22,22,37,10,19,52,,44,41,15,16,7,8,0.3,0.5
2024-10-06T1100,1137A,126.593,45.7478,哈尔滨市,道里建国路,,39,39,39,8,18,47,,47,43,18,23,12,14,0.3,0.6
2024-10-06T1100,1138A,126.615,45.61,哈尔滨市,平房东轻厂,,32,32,50,11,19,47,,28,28,23,35,6,7,0.4,0.5
2024-10-06T1100,1139A,126.595,45.9855,哈尔滨市,呼兰师专,,22,22,35,8,17,48,,34,34,14,18,4,5,0.4,0.5
2024-10-06T1100,1140A,126.6206,45.6842,哈尔滨市,省农科院,,24,24,51,8,20,49,,43,39,16,22,6,5,0.5,0.5
2024-10-06T1100,2688A,93.5128,42.8172,哈密市,地区监测站,颗粒物(PM10),53,55,64,23,22,60,,30,27,27,40,9,5,0.3,0.3
2024-10-06T1100,2689A,93.4961,42.8328,哈密市,哈密师范学校,,50,50,58,26,26,58,,24,24,34,36,13,6,0.8,0.6
2024-10-06T1100,2671A,100.9048,36.9639,海北藏族自治州,海晏县西海镇,,43,42,28,30,22,99,,91,91,8,7,12,12,0.6,0.5
2024-10-06T1100,3867A,102.0738,36.5056,海东市,平安区公安北苑,,50,50,48,30,27,62,,70,62,23,23,26,23,1.2,0.8
2024-10-06T1100,1410A,110.3232,20.0574,海口市,海南大学,,50,50,37,33,22,128,,134,127,12,8,6,5,0.5,0.5
2024-10-06T1100,1411A,110.283,20.0053,海口市,秀英海南医院,,46,43,36,32,23,128,,130,128,15,12,11,8,0.5,0.4
2024-10-06T1100,1412A,110.338,19.9969,海口市,海南师范大学,,48,48,37,30,22,127,,133,131,10,9,12,9,0.6,0.5
2024-10-06T1100,1413A,110.33,20.0356,海口市,龙华路环保局宿舍,,44,44,36,30,22,126,,132,126,11,8,11,7,0.5,0.4
2024-10-06T1100,3539A,110.5111,19.9736,海口市,桂林洋子站,,44,44,40,26,24,117,,140,138,10,9,11,9,0.5,0.4
2024-10-06T1100,2673A,100.6188,36.2866,海南藏族自治州,共和县恰卜恰镇,,40,40,29,22,15,91,,63,60,6,10,9,10,0.6,0.6
2024-10-06T1100,2676A,97.3731,37.3753,海西蒙古族藏族自治州,德令哈市,,33,33,41,9,14,94,,74,67,15,11,14,10,0.7,0.5
2024-10-06T1100,1048A,114.5302,36.6116,邯郸市,东污水处理厂,"颗粒物(PM10),细颗粒物(PM2.5)",73,95,67,53,35,51,,15,15,44,37,5,3,0.9,0.6
2024-10-06T1100,1049A,114.4918,36.5713,邯郸市,矿院,细颗粒物(PM2.5),92,95,71,68,38,40,,12,12,44,32,8,5,0.9,0.5
2024-10-06T1100,1050A,114.484,36.6133,邯郸市,丛台公园,细颗粒物(PM2.5),77,66,65,56,35,66,,26,22,34,32,7,4,1.1,0.6
2024-10-06T1100,3458A,114.7895,36.5593,邯郸市,香泉濮院小区,细颗粒物(PM2.5),90,114,78,67,35,68,,29,29,27,27,8,4,0.8,0.4
2024-10-06T1100,3579A,114.50634,36.77178,邯郸市,永年区实验高中,颗粒物(PM10),87,123,82,62,40,73,,34,27,36,26,11,7,1.4,0.7
2024-10-06T1100,3580A,114.20016,36.44293,邯郸市,峰峰矿区临水派出所,颗粒物(PM10),68,85,54,47,30,54,,84,69,33,20,9,9,1.0,0.7
2024-10-06T1100,2634A,106.9893,33.1842,汉中市,汉川机床厂子校,细颗粒物(PM2.5),52,46,34,36,20,36,,45,39,18,9,7,6,0.7,0.6
2024-10-06T1100,2635A,107.0154,33.0706,汉中市,市监测站,颗粒物(PM10),54,57,47,31,30,33,,29,23,26,13,13,9,0.8,0.6
2024-10-06T1100,2636A,107.0089,33.1138,汉中市,鑫源开发区,颗粒物(PM10),54,57,48,26,25,38,,28,26,22,20,15,11,0.6,0.4
2024-10-06T1100,2637A,107.007,33.0323,汉中市,南郑大河坎水厂,颗粒物(PM10),54,58,45,35,29,29,,28,23,27,16,13,9,0.8,0.5
2024-10-06T1100,1223A,120.2072,30.2111,杭州市,滨江,,22,,22,3,11,68,,,,20,20,4,4,0.6,0.6
2024-10-06T1100,1224A,120.0633,30.2747,杭州市,西溪,,16,11,23,3,12,50,,52,52,22,19,5,5,0.7,0.7
2024-10-06T1100,1226A,120.3461,30.3153,杭州市,下沙,,21,15,20,7,15,67,,62,62,29,29,6,6,0.6,0.7
2024-10-06T1100,1227A,120.1269,30.2456,杭州市,卧龙桥,,18,11,21,3,13,55,,53,53,21,18,5,5,0.5,0.5
2024-10-06T1100,1228A,120.1903,30.2692,杭州市,浙江农大,,19,10,15,3,12,43,,47,42,38,21,8,8,0.6,0.6
2024-10-06T1100,1230A,120.1197,30.3119,杭州市,和睦小学,,21,6,18,3,15,67,,58,57,22,22,6,7,0.6,0.6
2024-10-06T1100,1231A,120.3019,30.4183,杭州市,临平镇,,26,7,20,7,12,83,,72,72,14,16,4,4,0.5,0.6
2024-10-06T1100,1232A,120.2697,30.1819,杭州市,城厢镇,,24,6,17,3,15,75,,62,61,14,18,6,6,0.7,0.6
2024-10-06T1100,1233A,120.0883,30.1808,杭州市,云栖,,16,6,10,3,10,50,,41,41,15,15,6,6,0.7,0.6
2024-10-06T1100,3557A,119.9464,30.0494,杭州市,镇二中,,18,,15,7,17,57,,59,57,25,20,8,8,0.6,0.5
2024-10-06T1100,3558A,119.7183,30.2367,杭州市,市府大楼,,23,6,14,3,7,73,,68,68,10,13,6,6,0.6,0.6
2024-10-06T1100,3656A,120.1556,30.2864,杭州市,消防大队,,18,11,26,6,16,55,,55,53,25,20,8,8,0.4,0.4
2024-10-06T1100,1270A,117.1959,31.7848,合肥市,明珠广场,,24,,20,9,13,75,,64,64,12,15,9,10,0.4,0.5
2024-10-06T1100,1271A,117.3072,31.8764,合肥市,三里街,,22,9,20,3,11,68,,62,61,11,11,3,4,0.4,0.5
2024-10-06T1100,1272A,117.2588,31.8707,合肥市,琥珀山庄,,25,14,21,9,17,79,,69,69,17,16,7,7,0.5,0.5
2024-10-06T1100,1273A,117.1604,31.9052,合肥市,董铺水库,,27,6,23,3,12,86,,68,68,6,11,3,4,0.2,0.4
2024-10-06T1100,1274A,117.25,31.8571,合肥市,长江中路,,25,22,31,15,18,79,,67,67,13,13,7,8,0.7,0.8
2024-10-06T1100,1275A,117.266,31.9436,合肥市,庐阳区,,29,9,22,3,12,91,,76,76,11,11,3,3,0.4,0.5
2024-10-06T1100,1276A,117.336,31.8586,合肥市,瑶海区,,25,7,23,3,11,78,,70,70,12,14,6,6,0.4,0.4
2024-10-06T1100,1277A,117.3027,31.7964,合肥市,包河区,,20,9,22,3,13,61,,53,53,22,22,5,5,0.5,0.6
2024-10-06T1100,1278A,117.2776,31.7385,合肥市,滨湖新区,,23,6,24,3,16,72,,65,65,12,14,4,5,0.3,0.4
2024-10-06T1100,1279A,117.1318,31.8403,合肥市,高新区,,24,,21,11,16,75,,65,65,12,14,6,7,0.7,0.7
2024-10-06T1100,3464A,117.3803,31.9147,合肥市,高教基地,,24,10,23,7,17,74,,64,64,7,8,4,4,0.3,0.3
2024-10-06T1100,3614A,79.924,37.0877,和田地区,地区环保局,颗粒物(PM10),119,187,160,47,45,48,,41,37,19,19,8,8,0.5,0.4
2024-10-06T1100,3615A,79.9131,37.113,和田地区,市环保局,颗粒物(PM10),103,155,134,44,45,41,,27,19,28,24,8,8,0.5,0.4
2024-10-06T1100,2516A,108.2011,24.715,河池市,东仁乐园,颗粒物(PM10),67,84,49,36,30,103,,39,39,12,11,8,5,0.7,0.6
2024-10-06T1100,2517A,108.0497,24.6947,河池市,市环保站,颗粒物(PM10),59,67,46,32,32,88,,43,43,14,18,18,15,0.7,0.6
2024-10-06T1100,2518A,108.0983,24.6989,河池市,市疾控中心,颗粒物(PM10),54,57,50,29,32,98,,32,32,16,25,15,13,0.6,0.6
2024-10-06T1100,1696A,114.6778,23.7569,河源市,源西,,38,38,31,21,22,116,,84,84,9,14,8,8,0.5,0.5
2024-10-06T1100,1697A,114.6944,23.7586,河源市,东埔,,37,32,36,20,23,118,,89,89,12,13,6,6,0.8,0.8
2024-10-06T1100,1698A,114.6892,23.7233,河源市,老城,,39,26,34,19,22,122,,94,94,11,13,5,6,0.6,0.6
2024-10-06T1100,1718A,115.4208,35.2464,菏泽市,气象局,,49,49,54,23,26,126,,72,72,20,32,6,6,0.3,0.3
2024-10-06T1100,1719A,115.4747,35.2375,菏泽市,市政协,颗粒物(PM10),52,53,57,29,29,122,,55,55,14,29,7,7,0.3,0.4
2024-10-06T1100,3374A,115.5564,35.0891,菏泽市,定陶老年大学,,48,48,60,27,29,113,,44,44,11,25,8,8,0.3,0.3
2024-10-06T1100,3647A,115.4702,35.2706,菏泽市,菏泽医专,,50,50,56,28,30,125,,51,51,14,38,3,11,0.7,0.8
2024-10-06T1100,2514A,111.5264,24.4172,贺州市,环保小区,细颗粒物(PM2.5),55,54,50,39,33,140,,104,104,14,17,10,9,0.6,0.6
2024-10-06T1100,2515A,111.5608,24.4078,贺州市,政协大楼,颗粒物(PM10),53,56,51,34,30,140,,104,104,13,16,9,8,0.7,0.7
2024-10-06T1100,3534A,111.4744,24.4553,贺州市,西湾,细颗粒物(PM2.5),57,56,46,40,31,132,,99,99,14,14,9,8,0.7,0.6
2024-10-06T1100,2385A,114.17,35.9019,鹤壁市,市监测站,细颗粒物(PM2.5),69,78,72,50,36,98,,50,50,34,33,9,5,0.8,0.7
2024-10-06T1100,2386A,114.2956,35.7511,鹤壁市,市交警支队,颗粒物(PM10),61,72,62,28,27,109,,31,31,23,38,1,3,0.4,0.4
2024-10-06T1100,2387A,114.2878,35.7306,鹤壁市,迎宾馆,,,89,63,40,32,105,,38,38,26,34,9,6,,0.6
2024-10-06T1100,3474A,114.2617,35.6822,鹤壁市,大新区,细颗粒物(PM2.5),77,84,63,56,39,100,,29,29,24,36,6,3,0.3,0.3
2024-10-06T1100,3596A,114.1572,35.9603,鹤壁市,南山宾馆,细颗粒物(PM2.5),74,79,62,54,38,92,,88,83,22,17,2,2,0.7,0.5
2024-10-06T1100,2244A,130.2537,47.3416,鹤岗市,哈啤分公司,,18,,34,12,22,56,,54,54,2,8,13,15,0.3,0.5
2024-10-06T1100,2245A,130.2684,47.3086,鹤岗市,斯达机电,,35,35,42,9,23,57,,56,55,4,10,12,14,0.2,0.4
2024-10-06T1100,2246A,130.3114,47.3388,鹤岗市,东山纸板厂,,,,45,17,28,50,,56,52,,13,17,17,,0.3
2024-10-06T1100,2247A,130.1097,47.3382,鹤岗市,五号水库,,20,7,26,6,16,64,,62,61,3,6,8,8,0.1,0.1
2024-10-06T1100,2263A,127.4833,50.2524,黑河市,交通局,,18,16,19,11,15,56,,47,47,12,8,8,7,0.3,0.3
2024-10-06T1100,2264A,127.5144,50.2341,黑河市,环保局,,20,,12,10,14,62,,59,58,7,6,3,5,0.3,0.3
2024-10-06T1100,2265A,127.5291,50.2472,黑河市,大黑河岛,,,,,10,11,60,,55,55,8,11,3,4,0.1,0.1
2024-10-06T1100,1074A,115.6838,37.7541,衡水市,电机北厂,颗粒物(PM10),59,68,71,14,31,122,,63,61,11,21,9,8,0.4,0.4
2024-10-06T1100,1075A,115.6303,37.7316,衡水市,市监测站,颗粒物(PM10),58,66,73,12,29,128,,73,73,21,32,10,8,0.5,0.5
2024-10-06T1100,3188A,115.6683,37.7217,衡水市,市城管局,颗粒物(PM10),57,64,73,22,33,132,,64,64,15,35,8,7,0.5,0.4
2024-10-06T1100,3459A,115.5989,37.5491,衡水市,地表水厂,颗粒物(PM10),55,60,70,25,33,131,,52,52,15,42,6,4,0.3,0.4
2024-10-06T1100,2456A,112.5003,26.9167,衡阳市,原169医院,颗粒物(PM10),69,88,55,48,35,146,,102,102,21,20,20,17,0.8,0.7
2024-10-06T1100,2457A,112.6194,26.9258,衡阳市,衡阳化工总厂,细颗粒物(PM2.5),94,96,65,70,50,148,,78,78,10,14,14,11,0.9,0.8
2024-10-06T1100,2458A,112.6211,26.8956,衡阳市,珠晖区环保局,细颗粒物(PM2.5),74,88,63,54,44,146,,80,80,15,24,13,13,0.8,0.8
2024-10-06T1100,2459A,112.6197,26.8733,衡阳市,市委党校,颗粒物(PM10),75,99,63,49,40,151,,76,76,17,21,15,15,0.9,1
2024-10-06T1100,2460A,112.6006,26.8919,衡阳市,市监测站,细颗粒物(PM2.5),78,80,66,57,50,154,,89,89,17,18,13,12,0.9,0.8
2024-10-06T1100,2461A,112.5664,26.9056,衡阳市,真空机电公司,细颗粒物(PM2.5),72,91,59,52,39,136,,91,91,19,15,9,8,0.9,0.8
2024-10-06T1100,3399A,112.6703,26.882,衡阳市,师范学院,细颗粒物(PM2.5),82,95,64,60,41,145,,99,99,17,17,14,15,0.8,0.7
2024-10-06T1100,2608A,103.3772,23.3993,红河哈尼族彝族自治州,污水处理厂,,33,26,29,23,23,92,,80,80,6,8,6,6,0.4,0.5
2024-10-06T1100,2609A,103.3861,23.35,红河哈尼族彝族自治州,监测站,,43,30,31,30,26,95,,77,77,4,7,8,9,0.5,0.5
2024-10-06T1100,3038A,103.3758,23.368,红河哈尼族彝族自治州,州图书馆,,29,29,29,10,15,92,,79,79,4,7,6,6,0.4,0.4
2024-10-06T1100,1090A,111.6507,40.7517,呼和浩特市,呼市一监,,39,36,48,27,19,51,,60,56,7,15,6,8,0.5,0.6
2024-10-06T1100,1091A,111.6572,40.8033,呼和浩特市,小召,,40,34,45,28,22,49,,59,55,12,23,7,9,0.5,0.6
2024-10-06T1100,1094A,111.7516,40.8369,呼和浩特市,如意水处理厂,,40,40,50,24,20,49,,59,54,9,25,7,9,0.4,0.5
2024-10-06T1100,1095A,111.7276,40.8062,呼和浩特市,二十九中,,45,35,50,31,26,55,,66,60,13,26,4,7,0.5,0.6
2024-10-06T1100,1096A,111.5512,40.7866,呼和浩特市,工大金川校区,,38,32,50,26,22,53,,65,57,11,24,2,5,0.5,0.6
2024-10-06T1100,1097A,111.717,40.7612,呼和浩特市,化肥厂生活区,,43,43,56,25,22,53,,59,56,12,28,7,10,0.4,0.5
2024-10-06T1100,3698A,111.5968,40.8178,呼和浩特市,红旗小学,,40,31,52,28,23,52,,60,56,12,27,2,6,0.4,0.5
2024-10-06T1100,3699A,111.6518,40.8389,呼和浩特市,海东办,,35,,42,24,22,54,,64,59,9,23,4,7,0.5,0.6
2024-10-06T1100,2192A,119.7594,49.2261,呼伦贝尔市,区环保局,细颗粒物(PM2.5),206,202,98,156,87,42,,27,27,12,13,6,6,1.1,0.5
2024-10-06T1100,3061A,119.7512,49.1577,呼伦贝尔市,国华电力东,细颗粒物(PM2.5),222,186,97,172,86,49,,28,28,8,8,4,3,1.3,0.7
2024-10-06T1100,1250A,120.0751,30.8669,湖州市,城西水厂,,26,6,14,3,10,83,,82,82,19,21,4,4,0.7,0.7
2024-10-06T1100,2873A,120.0875,30.8955,湖州市,仁皇山新区,,26,6,13,3,10,82,,84,83,14,13,7,7,0.7,0.6
2024-10-06T1100,2907A,120.1844,30.8596,湖州市,吴兴区站,,26,6,18,3,13,81,,74,74,9,13,5,5,0.6,0.6
2024-10-06T1100,3562A,120.4148,30.8538,湖州市,南浔区站,,25,,9,3,8,78,,71,71,13,8,2,2,0.9,0.4
2024-10-06T1100,1607A,120.9092,40.7136,葫芦岛市,龙港区,,21,21,82,10,66,55,,48,48,18,29,19,20,0.4,1.1
2024-10-06T1100,1608A,120.8392,40.7514,葫芦岛市,化工街,,41,41,103,12,47,52,,42,42,15,46,17,43,0.2,0.9
2024-10-06T1100,1609A,120.8341,40.7073,葫芦岛市,新区,,45,45,79,8,56,52,,43,43,20,45,22,18,0.4,1.1
2024-10-06T1100,1610A,120.8695,40.7677,葫芦岛市,东城区,,27,27,78,10,55,53,,40,40,10,44,16,25,0.1,0.9
2024-10-06T1100,2482A,109.5981,27.5721,怀化市,林科所,颗粒物(PM10),54,58,42,36,26,123,,117,117,16,15,11,10,1.0,0.9
2024-10-06T1100,2483A,109.9453,27.5444,怀化市,河西地税局,细颗粒物(PM2.5),72,74,60,52,41,126,,117,117,14,13,13,18,0.6,0.5
2024-10-06T1100,2484A,109.9781,27.5342,怀化市,市四医院,"颗粒物(PM10),细颗粒物(PM2.5)",68,85,74,49,43,122,,93,93,8,11,12,16,0.7,0.7
2024-10-06T1100,2485A,109.9972,27.5578,怀化市,监测楼,"颗粒物(PM10),细颗粒物(PM2.5)",65,80,74,47,40,127,,87,87,11,15,9,11,0.6,0.6
2024-10-06T1100,2486A,110.0394,27.583,怀化市,市委党校,细颗粒物(PM2.5),65,71,68,47,40,127,,91,91,10,15,13,19,0.6,0.6
2024-10-06T1100,1210A,119.036,33.5981,淮安市,钵池山,,40,,36,28,29,75,,63,63,12,14,4,4,0.7,0.6
2024-10-06T1100,1211A,119.007,33.575,淮安市,北京南路,,32,24,40,22,25,74,,72,72,15,16,5,6,0.4,0.4
2024-10-06T1100,1213A,119.135,33.5039,淮安市,楚州区监测站,,42,,34,29,27,75,,70,70,15,18,5,6,0.6,0.5
2024-10-06T1100,1214A,119.0186,33.6297,淮安市,淮阴区监测站,,42,,42,29,31,73,,63,63,22,24,1,2,0.3,0.3
2024-10-06T1100,3426A,118.8755,33.2894,淮安市,新华书店,,29,17,28,11,16,92,,78,78,15,18,7,8,0.2,0.3
2024-10-06T1100,2282A,116.8004,33.975,淮北市,监测站,,,12,33,10,19,80,,59,59,9,12,,6,0.3,0.4
2024-10-06T1100,2283A,116.8091,33.9007,淮北市,烈山区政府,,28,,27,8,17,87,,66,66,5,10,4,4,0.2,0.2
2024-10-06T1100,3330A,116.8873,33.9836,淮北市,杜集区检察院,,25,23,35,8,22,79,,63,63,12,12,1,2,0.3,0.3
2024-10-06T1100,4017A,116.7923,33.9535,淮北市,市博物馆,,26,12,29,10,21,81,,65,65,11,13,8,9,0.6,0.6
2024-10-06T1100,2277A,116.8305,32.7727,淮南市,潘集区政府,,31,,28,9,20,99,,85,85,8,11,6,7,0.4,0.4
2024-10-06T1100,2278A,117.0067,32.6524,淮南市,师范学院,,27,,26,9,22,85,,81,81,12,8,6,6,0.2,0.2
2024-10-06T1100,2279A,116.8569,32.5951,淮南市,谢家集区政府,,27,,21,12,18,84,,77,77,10,10,5,6,0.2,0.2
2024-10-06T1100,2280A,116.8281,32.633,淮南市,八公山区政府,,28,12,30,8,17,87,,80,80,9,7,7,8,0.2,0.3
2024-10-06T1100,2281A,116.6325,32.6201,淮南市,焦岗湖风景区管理处,,22,,21,6,9,68,,51,51,5,8,7,7,0,0
2024-10-06T1100,2894A,117.0566,32.6531,淮南市,经济技术开发区消防队,,25,6,24,3,7,79,,76,76,15,9,4,4,0.3,0.3
2024-10-06T1100,3329A,117.0108,32.5893,淮南市,山南新区,,26,15,27,8,11,83,,82,82,16,12,1,2,0.4,0.4
2024-10-06T1100,2446A,114.9028,30.4742,黄冈市,职工中心,细颗粒物(PM2.5),118,131,65,89,44,103,,70,70,18,20,9,9,0.7,0.6
2024-10-06T1100,2929A,114.8858,30.4519,黄冈市,红卫路,细颗粒物(PM2.5),87,65,55,64,37,105,,72,72,16,23,9,9,0.8,0.7
2024-10-06T1100,3398A,114.9136,30.4445,黄冈市,市林业局,细颗粒物(PM2.5),117,,63,88,35,102,,84,80,12,10,,10,0.6,0.5
2024-10-06T1100,2672A,102.0199,35.5102,黄南藏族自治州,同仁县隆务镇,,46,46,44,29,21,94,,82,82,7,6,10,9,0.5,0.5
2024-10-06T1100,2295A,118.2903,29.6963,黄山市,延安路89号,,20,20,26,3,7,63,,50,48,5,6,6,6,0.4,0.4
2024-10-06T1100,2296A,118.327,29.7178,黄山市,黄山东路89号,,21,21,21,3,6,58,,50,48,5,6,5,5,0.4,0.4
2024-10-06T1100,2297A,118.1371,30.2756,黄山市,黄山区政府5号楼,,17,11,28,7,16,53,,49,46,9,8,7,8,0.6,0.5
2024-10-06T1100,2423A,115.0601,30.2313,黄石市,沈家营,颗粒物(PM10),61,72,51,35,28,110,,80,74,21,18,8,11,0.6,0.7
2024-10-06T1100,2424A,115.0817,30.2006,黄石市,陈家湾,颗粒物(PM10),67,83,46,47,33,102,,90,82,24,22,18,14,0.7,0.6
2024-10-06T1100,2426A,114.8988,30.2019,黄石市,铁山,细颗粒物(PM2.5),57,62,62,40,36,128,,56,56,14,35,12,14,0.1,0.4
2024-10-06T1100,2427A,115.0307,30.2092,黄石市,团城山,颗粒物(PM10),57,63,52,34,28,105,,69,67,21,24,10,12,0.7,0.8
2024-10-06T1100,3149A,115.0235,30.1578,黄石市,笔架山北路,颗粒物(PM10),56,62,44,33,27,118,,73,73,18,19,11,11,0.6,0.6
2024-10-06T1100,1392A,114.4183,23.0528,惠州市,河南岸金山湖子站,,38,38,35,24,20,115,,85,85,9,11,8,8,0.6,0.5
2024-10-06T1100,1393A,114.4053,23.0822,惠州市,下埔横江三路子站,,39,38,36,22,22,124,,93,93,8,12,7,10,0.6,0.6
2024-10-06T1100,1394A,114.4103,23.1142,惠州市,江北云山西路子站,,38,35,33,19,21,119,,92,92,8,10,8,8,0.5,0.5
2024-10-06T1100,1395A,114.4645,22.7833,惠州市,惠阳区承修路船湖子站,,37,37,39,20,20,99,,67,67,13,16,8,8,0.6,0.6
2024-10-06T1100,1396A,114.5317,22.7422,惠州市,大亚湾管委会子站,,31,31,31,19,18,91,,70,70,20,16,9,9,0.5,0.5
2024-10-06T1100,3314A,114.4338,22.8134,惠州市,惠阳秋长,,33,31,28,20,20,104,,75,75,9,12,8,8,0.5,0.5
2024-10-06T1100,3452A,114.6517,22.775,惠州市,大亚湾霞涌,,,,22,17,16,86,,63,63,,9,8,6,0.2,0.4
2024-10-06T1100,2240A,130.9762,45.3001,鸡西市,环保局,颗粒物(PM10),55,60,59,28,25,62,,48,48,6,25,6,6,0.3,0.5
2024-10-06T1100,3707A,131.0207,45.3073,鸡西市,欧美日汽修厂,,46,42,57,32,31,67,,42,42,12,32,6,8,0.2,0.4
2024-10-06T1100,3709A,130.9967,45.3106,鸡西市,市政设施管理处,颗粒物(PM10),55,60,76,24,30,66,,36,36,12,39,6,7,0.2,0.5
2024-10-06T1100,2367A,114.9754,27.0803,吉安市,红声器材厂,颗粒物(PM10),53,56,47,26,24,116,,83,82,22,19,18,14,0.6,0.5
2024-10-06T1100,2368A,114.9658,27.0999,吉安市,市森林工业局,颗粒物(PM10),52,53,43,32,25,118,,85,84,23,20,17,16,0.7,0.7
2024-10-06T1100,2369A,114.99,27.1312,吉安市,市环境监测站,颗粒物(PM10),51,51,43,29,24,114,,87,84,19,18,25,20,0.7,0.5
2024-10-06T1100,2370A,115.0093,27.0968,吉安市,青原区法院,颗粒物(PM10),53,56,47,32,25,116,,89,85,22,20,23,21,0.7,0.6
2024-10-06T1100,1772A,126.54,43.8622,吉林市,哈达湾,,39,39,54,14,31,39,,42,29,20,28,11,11,0.6,0.8
2024-10-06T1100,1773A,126.5844,43.8358,吉林市,东局子,,31,31,53,17,26,43,,32,29,19,30,6,6,0.5,0.7
2024-10-06T1100,1774A,126.5052,43.8245,吉林市,电力学院,,34,34,66,20,36,40,,28,28,21,30,15,11,0.7,0.9
2024-10-06T1100,1775A,126.6133,43.8972,吉林市,江北,,20,20,56,11,28,50,,26,22,12,25,7,8,0.7,0.9
2024-10-06T1100,1776A,126.555,43.8306,吉林市,江南公园,,29,29,57,16,35,41,,32,31,21,28,8,8,0.6,0.8
2024-10-06T1100,1778A,126.7061,43.7133,吉林市,丰满,,30,30,35,21,31,38,,52,38,19,13,6,6,0.5,0.6
2024-10-06T1100,2868A,126.4739,43.953,吉林市,九站,,34,34,57,18,32,29,,24,24,27,34,40,22,0.7,0.8
2024-10-06T1100,1299A,116.9862,36.6114,济南市,科干所,颗粒物(PM10),58,66,59,32,28,143,,85,85,22,32,10,7,0.7,0.7
2024-10-06T1100,1300A,116.9376,36.665,济南市,农科所,颗粒物(PM10),61,71,69,32,31,122,,56,56,29,54,8,5,0.6,0.8
2024-10-06T1100,1301A,117.1265,36.6734,济南市,开发区,颗粒物(PM10),59,68,58,37,31,143,,96,96,25,33,7,5,0.6,0.6
2024-10-06T1100,1303A,117.0624,36.6868,济南市,省种子仓库,颗粒物(PM10),62,73,74,31,34,140,,72,72,16,44,7,4,0.5,0.5
2024-10-06T1100,1304A,116.9489,36.6447,济南市,机床二厂,颗粒物(PM10),57,63,77,27,32,141,,55,55,26,56,8,5,0.7,0.8
2024-10-06T1100,1305A,117.0495,36.663,济南市,市监测站,颗粒物(PM10),61,71,61,37,32,145,,88,88,23,42,8,5,0.6,0.7
2024-10-06T1100,1306A,116.7675,36.5484,济南市,长清党校,颗粒物(PM10),59,68,59,27,30,148,,80,80,21,32,10,7,0.6,0.7
2024-10-06T1100,1616A,117.6795,36.229,济南市,技术学院,颗粒物(PM10),73,95,54,51,28,93,,53,52,28,28,28,13,1.8,1
2024-10-06T1100,1961A,117.532,36.6868,济南市,东山小学,颗粒物(PM10),66,81,61,29,29,152,,73,73,30,37,7,5,0.5,0.6
2024-10-06T1100,3059A,117.7161,36.2049,济南市,泰兴公司,颗粒物(PM10),64,78,47,44,23,98,,40,39,29,35,24,11,1.5,0.7
2024-10-06T1100,3064A,117.6867,36.2171,济南市,莱芜战役纪念馆,颗粒物(PM10),69,88,53,41,23,89,,52,48,31,31,20,10,1.8,0.9
2024-10-06T1100,3494A,117.1673,36.9782,济南市,济阳区政府,颗粒物(PM10),73,95,88,44,43,125,,40,40,42,60,11,8,0.4,0.5
2024-10-06T1100,3495A,117.1171,36.63,济南市,锦屏中学,颗粒物(PM10),52,54,42,27,24,156,,100,100,18,24,8,5,0.5,0.5
2024-10-06T1100,3682A,116.9814,36.6819,济南市,济南四建,颗粒物(PM10),53,56,69,32,35,130,,61,61,27,56,7,4,0.5,0.7
2024-10-06T1100,1653A,116.6251,35.4302,济宁市,火炬城,,35,,39,24,21,106,,66,66,13,20,9,10,0.6,0.6
2024-10-06T1100,1655A,116.5491,35.4042,济宁市,电化厂,,45,45,54,22,23,99,,64,64,21,24,10,9,0.9,0.8
2024-10-06T1100,3500A,116.5814,35.3707,济宁市,北湖一中,,35,27,39,24,24,110,,63,63,13,21,9,7,0.4,0.4
2024-10-06T1100,3501A,116.8249,35.5593,济宁市,服务中心,,46,46,46,18,21,84,,40,40,25,32,10,7,0.5,0.5
2024-10-06T1100,3678A,116.5907,35.4054,济宁市,市第七中学,,34,33,41,19,22,108,,63,63,12,19,10,9,0.6,0.6
2024-10-06T1100,2255A,130.2751,46.8028,佳木斯市,佳纺,,19,12,36,7,18,58,,49,48,6,12,2,3,0.4,0.5
2024-10-06T1100,2256A,130.3995,46.8307,佳木斯市,发电厂,,19,7,31,3,20,60,,53,53,1,8,5,7,0.3,0.5
2024-10-06T1100,2257A,130.3258,46.7975,佳木斯市,环保局,,22,22,36,8,18,49,,48,46,9,12,7,9,0.4,0.5
2024-10-06T1100,2258A,130.3648,46.8032,佳木斯市,十一中,,19,9,38,8,19,60,,58,57,4,12,6,8,0.3,0.5
2024-10-06T1100,2259A,130.3794,46.7588,佳木斯市,四丰,,20,,27,14,16,55,,49,48,8,13,1,1,0.1,0.3
2024-10-06T1100,1252A,120.7436,30.778,嘉兴市,清河小学,,29,6,13,3,7,91,,79,79,14,15,4,4,0.8,0.7
2024-10-06T1100,1253A,120.726,30.7478,嘉兴市,嘉兴学院,,28,6,13,3,10,88,,76,76,12,12,3,3,0.4,0.3
2024-10-06T1100,2872A,120.7846,30.7525,嘉兴市,南湖区残联,,29,9,15,3,9,90,,80,80,11,9,4,4,0.5,0.4
2024-10-06T1100,3407A,120.6916,30.7739,嘉兴市,秀洲住建,,26,,11,3,7,83,,73,73,13,12,6,5,0.5,0.4
2024-10-06T1100,1945A,98.2908,39.7711,嘉峪关市,气象局,,46,46,53,17,19,77,,70,70,18,16,5,9,0.2,0.3
2024-10-06T1100,2884A,98.2672,39.7978,嘉峪关市,酒钢宾馆,,36,36,60,14,20,90,,79,73,9,20,16,43,0.2,0.6
2024-10-06T1100,3248A,98.2643,39.7724,嘉峪关市,雄关区,,30,25,54,21,24,79,,58,55,15,23,8,12,0.3,0.4
2024-10-06T1100,1383A,113.1064,22.6058,江门市,北街,,49,49,44,29,27,127,,78,78,19,24,7,6,0.8,0.8
2024-10-06T1100,1384A,113.0731,22.5835,江门市,西区,,45,45,47,21,26,125,,77,77,20,23,8,8,0.5,0.5
2024-10-06T1100,1385A,113.0219,22.5311,江门市,圭峰西,,45,45,41,27,27,116,,75,75,22,23,6,5,0.8,0.8
2024-10-06T1100,1386A,113.0828,22.5947,江门市,东湖,,44,44,43,22,21,122,,76,76,19,21,7,6,0.5,0.5
2024-10-06T1100,3311A,113.1075,22.5647,江门市,江海富民,,39,39,47,23,23,122,,75,75,20,25,9,8,0.4,0.4
2024-10-06T1100,3449A,113.05,22.4667,江门市,新会银湖,,50,50,45,26,27,117,,64,64,19,27,6,5,0.6,0.6
2024-10-06T1100,1828A,113.227,35.2125,焦作市,市环保局,细颗粒物(PM2.5),69,84,79,50,45,102,,51,51,26,35,12,10,0.6,0.4
2024-10-06T1100,1830A,113.1992,35.2590,焦作市,影视城,,50,50,57,25,40,118,,109,109,16,16,9,8,0.5,0.4
2024-10-06T1100,3169A,113.2725,35.2067,焦作市,太极体育中心,颗粒物(PM10),68,85,88,38,42,96,,44,44,27,42,11,9,0.6,0.4
2024-10-06T1100,3335A,113.3137,35.2641,焦作市,马村街道办,细颗粒物(PM2.5),90,91,76,67,44,82,,56,56,44,31,29,8,0.8,0.4
2024-10-06T1100,3336A,113.2465,35.2373,焦作市,焦作技师学院,"颗粒物(PM10),细颗粒物(PM2.5)",58,66,75,41,42,100,,73,73,25,28,4,6,0.6,0.6
2024-10-06T1100,3477A,113.1656,35.2539,焦作市,中站许衡医院,,47,47,60,25,37,122,,90,90,14,24,7,6,0.7,0.5
2024-10-06T1100,3981A,113.2449,35.1803,焦作市,原李万街道办,细颗粒物(PM2.5),87,92,90,64,52,112,,38,38,15,32,12,6,0.8,0.5
2024-10-06T1100,1708A,116.3701,23.5345,揭阳市,新兴,颗粒物(PM10),73,95,45,27,21,101,,68,67,12,14,7,8,0.6,0.6
2024-10-06T1100,1709A,116.3264,23.5443,揭阳市,西马,颗粒物(PM10),54,58,44,22,20,96,,66,58,7,10,7,8,0.7,0.7
2024-10-06T1100,1710A,116.3611,23.5626,揭阳市,东兴,颗粒物(PM10),55,60,47,27,23,106,,61,60,11,16,6,7,0.7,0.8
2024-10-06T1100,1711A,116.4151,23.5294,揭阳市,渔湖,颗粒物(PM10),53,55,46,22,17,120,,70,70,17,17,8,9,0.8,0.8
2024-10-06T1100,3320A,116.403,23.5699,揭阳市,曲溪,,43,43,37,23,21,120,,64,64,14,19,2,2,0.6,0.7
2024-10-06T1100,1944A,102.1692,38.5167,金昌市,天庆家园,颗粒物(PM10),65,80,32,36,13,65,,89,75,37,14,26,12,0.9,0.7
2024-10-06T1100,3170A,102.1864,38.5253,金昌市,市委党校,颗粒物(PM10),76,102,42,39,13,53,,96,76,36,12,23,8,0.7,0.4
2024-10-06T1100,4022A,102.1647,38.5371,金昌市,金川区人防中心,颗粒物(PM10),68,85,42,37,14,65,,98,80,37,12,21,10,0.7,0.5
2024-10-06T1100,1262A,119.647,29.077,金华市,十五中,,30,30,80,17,22,48,,33,33,19,20,2,2,0.5,0.5
2024-10-06T1100,1263A,119.686,29.1029,金华市,监测站,,19,19,27,12,18,36,,29,28,25,19,2,2,0.6,0.6
2024-10-06T1100,3659A,119.656,29.1131,金华市,气象局,,22,18,27,15,20,42,,26,26,21,22,3,3,0.3,0.3
2024-10-06T1100,1767A,121.1115,41.0879,锦州市,南山,,25,20,62,17,69,50,,62,54,16,25,10,14,0.5,1
2024-10-06T1100,1768A,121.0533,40.8434,锦州市,开发区,颗粒物(PM10),55,59,121,17,76,45,,38,38,16,64,13,15,0.5,1.3
2024-10-06T1100,1769A,121.1836,41.1119,锦州市,百股街道,,31,31,67,7,53,51,,57,51,8,26,9,18,0.6,1.3
2024-10-06T1100,1770A,121.1178,41.1222,锦州市,天安街道,,20,18,70,14,65,52,,66,49,12,28,10,15,0.4,1
2024-10-06T1100,1771A,121.1303,41.1386,锦州市,北湖公园,,26,26,74,12,66,55,,65,53,12,26,9,13,0.4,1
2024-10-06T1100,2160A,112.85,35.5051,晋城市,自来水公司,细颗粒物(PM2.5),85,104,76,63,43,103,,54,54,30,34,27,14,2.3,0.9
2024-10-06T1100,2161A,112.8318,35.4936,晋城市,白云商贸,细颗粒物(PM2.5),79,98,84,58,40,104,,59,59,33,36,26,9,2.7,0.9
2024-10-06T1100,2162A,112.8508,35.4887,晋城市,市环保局,细颗粒物(PM2.5),83,111,82,61,42,100,,54,54,32,35,23,10,2.5,0.9
2024-10-06T1100,2163A,112.8676,35.4897,晋城市,技术学院,细颗粒物(PM2.5),73,86,80,53,40,103,,49,49,31,38,22,9,1.9,1
2024-10-06T1100,3620A,112.8271,35.4828,晋城市,泽州一中,细颗粒物(PM2.5),85,88,71,63,44,96,,65,65,30,35,28,14,2.5,1
2024-10-06T1100,2171A,112.7532,37.6945,晋中市,锦纶小区,细颗粒物(PM2.5),92,95,92,68,55,101,,69,59,18,29,15,11,0.9,0.8
2024-10-06T1100,2173A,112.7249,37.7067,晋中市,南都小区,,,96,88,61,53,100,,68,66,21,32,13,10,,1
2024-10-06T1100,2174A,112.6991,37.6982,晋中市,榆次区政府,颗粒物(PM10),73,95,98,51,46,95,,66,62,26,32,14,10,0.9,0.7
2024-10-06T1100,2865A,112.7195,37.6828,晋中市,榆次三中,细颗粒物(PM2.5),85,97,95,63,52,95,,70,58,20,30,16,13,1.0,0.8
2024-10-06T1100,2439A,112.2014,31.0481,荆门市,竹园小学,,41,41,62,26,39,112,,105,105,19,20,10,13,0.5,0.5
2024-10-06T1100,2440A,112.1969,30.9891,荆门市,掇刀,,39,38,57,27,37,116,,113,113,19,21,4,9,0.5,0.5
2024-10-06T1100,2441A,112.2213,31.0386,荆门市,石化一小,,43,43,68,29,42,113,,106,106,16,19,15,18,0.5,0.5
2024-10-06T1100,3012A,112.1849,31.0362,荆门市,西山林语,,39,38,57,22,34,124,,114,114,14,18,8,10,0.3,0.5
2024-10-06T1100,3547A,112.1632,31.0138,荆门市,龙泉中学南校,,38,30,54,22,32,121,,120,119,19,20,8,9,0.5,0.5
2024-10-06T1100,1844A,112.2494,30.3197,荆州市,市图书馆,,45,45,54,30,45,116,,104,104,18,22,10,12,0.6,0.6
2024-10-06T1100,1845A,112.2008,30.3544,荆州市,市委党校,,37,35,54,23,44,117,,111,111,18,19,8,10,0.5,0.6
2024-10-06T1100,3194A,112.2747,30.3122,荆州市,管委会,,38,33,50,25,43,120,,106,106,12,17,8,11,0.6,0.7
2024-10-06T1100,3548A,112.1655,30.3364,荆州市,学苑路,颗粒物(PM10),51,51,71,31,43,125,,111,111,18,19,8,10,0.6,0.6
2024-10-06T1100,2343A,117.2117,29.2933,景德镇市,老干部活动中心,,24,15,18,10,11,76,,59,59,5,6,8,8,0.3,0.2
2024-10-06T1100,2344A,117.1894,29.2789,景德镇市,兽医站,,26,19,22,12,11,83,,67,67,2,3,6,7,0.2,0.2
2024-10-06T1100,2345A,117.1547,29.2617,景德镇市,台达陶瓷,,24,20,19,11,10,76,,64,64,10,8,31,9,0.4,0.4
2024-10-06T1100,2346A,117.2461,29.2956,景德镇市,陶研所,,,17,22,14,10,79,,61,61,8,10,,6,0.3,0.3
2024-10-06T1100,1803A,115.9872,29.6815,九江市,十里,,30,22,35,21,19,66,,68,64,13,13,8,9,0.8,0.7
2024-10-06T1100,1804A,115.9584,29.7046,九江市,茅山头,,29,,26,20,20,60,,66,62,15,15,10,8,0.9,0.7
2024-10-06T1100,1805A,115.9877,29.7295,九江市,西园,,25,21,30,17,21,67,,71,68,14,14,8,9,0.7,0.5
2024-10-06T1100,1806A,116.0172,29.6547,九江市,五七二七厂,,29,20,31,20,28,59,,60,55,14,13,8,9,0.8,0.7
2024-10-06T1100,1808A,115.9114,29.6038,九江市,综合工业园,,27,27,29,12,19,75,,74,68,17,18,6,9,0.6,0.5
2024-10-06T1100,1809A,116.0721,29.7535,九江市,石化总厂,,42,31,37,29,28,56,,60,56,14,14,8,8,0.8,0.7
2024-10-06T1100,1810A,115.9773,29.5698,九江市,庐山气象台,,32,26,23,20,18,100,,116,116,5,4,7,8,0.9,0.7
2024-10-06T1100,3190A,116.0254,29.6994,九江市,外国语学校,,36,25,33,25,21,53,,56,52,14,15,5,8,0.3,0.3
2024-10-06T1100,2658A,98.5061,39.7443,酒泉市,仓门街子站,,41,41,45,23,22,78,,71,70,9,10,6,10,0.4,0.4
2024-10-06T1100,2659A,98.4989,39.7256,酒泉市,油田生活基地,颗粒物(PM10),51,51,55,24,27,73,,67,62,15,14,11,13,0.3,0.3
2024-10-06T1100,2698A,76.0072,39.4467,喀什地区,巡警大队,颗粒物(PM10),109,168,127,19,23,58,,56,56,22,32,5,4,0.5,0.6
2024-10-06T1100,2699A,75.9755,39.4694,喀什地区,吾办,颗粒物(PM10),115,179,120,50,37,44,,49,49,32,30,4,4,0.6,0.6
2024-10-06T1100,4027A,75.9483,39.4689,喀什地区,老干局,颗粒物(PM10),124,197,132,27,21,49,,58,57,25,24,5,5,0.5,0.5
2024-10-06T1100,1824A,114.3389,34.7781,开封市,肿瘤医院,细颗粒物(PM2.5),94,101,77,70,50,101,,38,38,20,28,3,2,0.5,0.5
2024-10-06T1100,1826A,114.2885,34.7965,开封市,世纪星幼儿园,颗粒物(PM10),87,124,67,47,31,100,,47,47,28,30,3,2,0.4,0.4
2024-10-06T1100,3147A,114.3438,34.8106,开封市,龙亭公园,颗粒物(PM10),78,106,76,56,44,99,,43,43,24,34,5,3,0.4,0.4
2024-10-06T1100,3210A,114.3644,34.7964,开封市,汴京公园,细颗粒物(PM2.5),87,108,75,64,45,93,,33,33,25,29,5,3,0.5,0.4
2024-10-06T1100,3473A,114.2485,34.8306,开封市,技师学院,颗粒物(PM10),78,106,70,35,31,93,,43,43,26,34,6,4,0.5,0.5
2024-10-06T1100,3592A,114.4644,34.7556,开封市,祥符区生态环境局,细颗粒物(PM2.5),80,104,92,59,49,101,,34,34,21,43,10,9,0.6,0.6
2024-10-06T1100,1951A,84.895,45.6094,克拉玛依市,长征新村,颗粒物(PM10),53,56,26,3,7,67,,82,75,16,7,6,6,0.2,0.2
2024-10-06T1100,1952A,84.8988,45.5893,克拉玛依市,南林小区,颗粒物(PM10),52,53,30,20,15,25,,47,45,45,21,4,2,0.2,0.1
2024-10-06T1100,1954A,84.905,44.3396,克拉玛依市,独山子区,颗粒物(PM10),52,53,36,14,13,72,,60,51,20,17,11,9,0.5,0.5
2024-10-06T1100,1955A,85.6979,46.098,克拉玛依市,乌尔禾区商贸楼,,25,25,26,3,9,58,,49,44,12,19,3,2,0.3,0.3
2024-10-06T1100,3612A,85.1045,45.6899,克拉玛依市,白碱滩区新站,颗粒物(PM10),66,81,27,13,9,20,,84,56,55,12,8,8,0.5,0.2
2024-10-06T1100,2697A,76.1454,39.7142,克孜勒苏柯尔克孜自治州,市人民政府,颗粒物(PM10),96,141,100,40,39,53,,83,76,27,16,4,5,0.4,0.4
2024-10-06T1100,3665A,76.1658,39.7157,克孜勒苏柯尔克孜自治州,克州文化中心,颗粒物(PM10),95,140,92,36,28,63,,86,83,22,15,7,6,0.4,0.2
2024-10-06T1100,1450A,102.8204,24.8886,昆明市,呈贡新区,,26,26,26,15,12,49,,32,32,5,14,4,6,0.5,0.6
2024-10-06T1100,1452A,102.7252,25.0902,昆明市,龙泉镇,,18,18,20,7,9,44,,28,28,7,15,6,7,0.6,0.7
2024-10-06T1100,1453A,102.7266,25.0375,昆明市,东风东路,,17,17,21,10,10,44,,29,29,6,12,6,7,0.4,0.6
2024-10-06T1100,1454A,102.6742,25.0669,昆明市,金鼎山,,15,9,19,3,10,45,,28,28,6,15,1,3,0.4,0.6
2024-10-06T1100,1455A,102.6644,25.0401,昆明市,碧鸡广场,,14,14,25,7,12,38,,18,18,9,19,5,7,0.3,0.5
2024-10-06T1100,3179A,102.7494,25.0119,昆明市,官渡区博物馆,,21,21,22,14,10,53,,30,30,6,13,8,7,0.4,0.6
2024-10-06T1100,3375A,102.8017,24.8336,昆明市,青年创业园,,29,23,17,20,11,50,,28,28,4,13,3,5,0.5,0.6
2024-10-06T1100,3550A,102.7997,24.9786,昆明市,昆明学院,,28,28,20,19,13,51,,30,30,10,13,10,8,0.5,0.6
2024-10-06T1100,3551A,102.5967,24.6736,昆明市,晋宁区生态环境分局,,18,12,24,12,16,42,,20,20,6,12,1,2,0.8,1
2024-10-06T1100,3552A,102.6678,24.9856,昆明市,云天化总部,,,10,18,7,12,48,,33,33,3,9,4,6,,0.5
2024-10-06T1100,1456A,91.1319,29.6514,拉萨市,八廓街,,30,8,15,7,8,94,,82,78,9,15,6,7,0.3,0.4
2024-10-06T1100,1457A,91.1221,29.6747,拉萨市,市环保局,,30,17,14,3,7,94,,79,72,11,14,6,6,0.3,0.3
2024-10-06T1100,1458A,91.0874,29.6475,拉萨市,区监测站,,27,10,10,3,6,85,,85,78,8,11,5,6,0.3,0.3
2024-10-06T1100,1459A,91.1774,29.6541,拉萨市,西藏大学,,26,13,11,3,6,83,,77,74,12,11,6,7,0.3,0.3
2024-10-06T1100,1460A,90.9798,29.6588,拉萨市,区辐射站,,27,17,14,6,7,86,,92,81,10,13,8,8,0.2,0.2
2024-10-06T1100,1461A,91.0834,29.6292,拉萨市,拉萨火车站,,26,7,9,7,6,81,,86,81,10,8,5,5,0.3,0.3
2024-10-06T1100,2520A,109.2203,23.7256,来宾市,来宾技工学校,,,59,57,33,33,136,,74,74,,19,17,15,0.9,0.9
2024-10-06T1100,3535A,109.1781,23.7297,来宾市,兴宾区政府,颗粒物(PM10),51,51,52,34,34,143,,72,72,11,12,17,11,0.9,0.7
2024-10-06T1100,4002A,109.2416,23.7461,来宾市,中南小学,颗粒物(PM10),60,69,65,34,35,145,,87,87,9,24,20,16,1.1,1.1
2024-10-06T1100,1476A,103.631,36.1031,兰州市,兰炼宾馆,,40,40,62,18,34,86,,23,23,14,47,9,11,0.4,0.6
2024-10-06T1100,1478A,103.8412,36.0726,兰州市,生物制品所,,46,46,53,30,34,57,,13,13,31,40,26,15,0.5,0.5
2024-10-06T1100,1479A,103.831,36.0464,兰州市,铁路设计院,颗粒物(PM10),56,61,62,34,38,53,,12,12,36,57,25,12,0.6,0.7
2024-10-06T1100,3186A,103.7158,36.1058,兰州市,教育港,,44,44,59,29,35,87,,19,19,14,41,10,14,0.4,0.6
2024-10-06T1100,3241A,103.7439,36.0842,兰州市,百合公园,,47,47,51,18,26,86,,17,17,13,44,8,12,0.5,0.7
2024-10-06T1100,3242A,103.9611,35.998,兰州市,和平,颗粒物(PM10),58,66,46,26,22,87,,63,63,17,23,35,16,0.5,0.5
2024-10-06T1100,3245A,103.6633,36.533,兰州新区,新区管委会,,41,41,51,14,25,110,,87,83,6,20,11,14,0.4,0.5
2024-10-06T1100,3246A,103.6975,36.4789,兰州新区,舟曲中学,,42,42,47,14,21,108,,82,82,9,27,8,20,0.3,0.5
2024-10-06T1100,1067A,116.6708,39.5111,廊坊市,药材公司,细颗粒物(PM2.5),110,114,102,83,65,35,,39,39,54,38,9,8,0.6,0.5
2024-10-06T1100,1068A,116.7214,39.5589,廊坊市,开发区,细颗粒物(PM2.5),112,131,100,84,61,18,,36,36,60,38,2,3,0.5,0.5
2024-10-06T1100,1070A,116.7244,39.5269,廊坊市,北华航天学院,细颗粒物(PM2.5),112,111,110,84,62,38,,45,38,55,48,3,4,0.6,0.6
2024-10-06T1100,2919A,116.7022,39.5453,廊坊市,河北工业大学,细颗粒物(PM2.5),114,114,100,86,65,25,,59,50,58,46,4,5,0.5,0.6
2024-10-06T1100,2535A,103.7723,29.5462,乐山市,花湖湾,,43,38,31,30,20,43,,47,39,13,15,2,2,0.7,0.7
2024-10-06T1100,2536A,103.7627,29.5844,乐山市,牛耳桥,,46,,32,32,26,60,,54,50,15,18,5,4,0.4,0.4
2024-10-06T1100,2537A,103.7508,29.6006,乐山市,市第三水厂,,38,33,36,26,25,70,,60,56,10,12,5,4,0.6,0.6
2024-10-06T1100,2538A,103.7571,29.5664,乐山市,市监测站,,35,34,35,24,22,57,,52,48,13,14,5,4,0.5,0.5
2024-10-06T1100,3361A,103.7311,29.5628,乐山市,理工大学,,45,41,34,31,27,66,,54,54,11,14,6,3,0.5,0.4
2024-10-06T1100,2599A,100.2497,26.8802,丽江市,丽江古城,,22,21,19,15,12,26,,18,18,12,12,9,9,0.6,0.6
2024-10-06T1100,2600A,100.2203,26.8906,丽江市,市中心,,40,40,13,10,9,29,,20,20,8,11,8,6,0.6,0.5
2024-10-06T1100,1267A,119.914,28.4514,丽水市,监测站大楼,,16,9,22,6,13,49,,42,40,18,18,8,6,0.6,0.5
2024-10-06T1100,1268A,119.93,28.4586,丽水市,莲都小学,,16,9,27,9,18,51,,43,41,15,16,4,4,0.6,0.5
2024-10-06T1100,1269A,119.879,28.4231,丽水市,余庄前,,16,13,26,7,16,50,,32,32,13,13,4,4,0.5,0.4
2024-10-06T1100,1173A,119.176,34.5885,连云港市,市环境监测站,,25,14,18,7,11,78,,61,61,21,17,6,6,0.3,0.3
2024-10-06T1100,3000A,119.3581,34.6972,连云港市,德源药业,,25,17,19,12,10,79,,53,53,20,30,6,6,0.4,0.3
2024-10-06T1100,3007A,119.178,34.844,连云港市,新城一中,,35,35,35,12,13,74,,64,64,14,21,5,6,0.5,0.5
2024-10-06T1100,3008A,119.3608,34.7519,连云港市,胡沟管理处,,28,,16,19,9,53,,50,50,23,18,2,2,0.5,0.4
2024-10-06T1100,3009A,119.1478,34.5911,连云港市,矿山设计院,,20,17,24,7,16,61,,53,53,33,20,6,5,0.6,0.6
2024-10-06T1100,3434A,119.2413,34.6539,连云港市,工贸学校,,27,16,18,11,11,84,,70,70,17,13,7,7,0.7,0.5
2024-10-06T1100,3664A,119.4172,34.7341,连云港市,连云街道,,26,24,15,18,8,75,,63,63,23,14,7,5,0.8,0.4
2024-10-06T1100,2571A,102.3431,27.8099,凉山彝族自治州,青龙寺,,13,13,16,3,4,27,,21,21,5,6,6,6,0.7,0.7
2024-10-06T1100,2572A,102.2721,27.8415,凉山彝族自治州,邛海宾馆,,11,9,20,6,12,33,,30,30,11,15,11,10,0.8,0.7
2024-10-06T1100,2573A,102.2625,27.898,凉山彝族自治州,西昌市政府,,9,8,21,3,13,27,,29,29,11,13,7,9,0.7,0.7
2024-10-06T1100,2574A,102.2685,27.8851,凉山彝族自治州,凉山州政府,,10,6,21,3,13,32,,29,29,9,14,6,8,0.8,0.7
2024-10-06T1100,2575A,102.237,27.8914,凉山彝族自治州,长安,,10,8,20,3,10,30,,29,29,12,15,13,12,0.9,0.9
2024-10-06T1100,2212A,123.2,41.1953,辽阳市,宏伟区,颗粒物(PM10),63,76,51,41,30,42,,85,61,46,25,6,7,0.9,0.7
2024-10-06T1100,2213A,123.1683,41.2495,辽阳市,新华园,细颗粒物(PM2.5),70,81,69,51,37,37,,54,45,58,34,15,16,1.5,1.3
2024-10-06T1100,2214A,123.2354,41.2639,辽阳市,滨河路,颗粒物(PM10),66,81,57,40,31,21,,68,52,51,28,12,13,1.8,1.1
2024-10-06T1100,2215A,123.149,41.2991,辽阳市,铁西工业园,颗粒物(PM10),118,186,76,47,35,24,,35,27,41,27,14,14,2.3,1.1
2024-10-06T1100,2227A,125.1358,42.8845,辽源市,环保局,颗粒物(PM10),55,60,58,37,39,45,,18,18,24,35,10,9,0.7,1
2024-10-06T1100,3239A,125.0764,42.9078,辽源市,银鹰制药,,49,49,63,33,42,48,,20,20,15,37,6,7,0.6,1
2024-10-06T1100,1625A,115.9848,36.4372,聊城市,区政府,颗粒物(PM10),67,84,80,33,38,123,,53,53,26,36,14,10,0.5,0.5
2024-10-06T1100,2878A,116.0072,36.4343,聊城市,聊大东校,颗粒物(PM10),57,63,72,33,40,135,,52,52,23,34,13,9,0.6,0.7
2024-10-06T1100,3200A,115.9819,36.4978,聊城市,监控中心,颗粒物(PM10),54,57,81,29,44,134,,42,42,17,43,14,9,0.6,0.7
2024-10-06T1100,3513A,116.0445,36.4361,聊城市,九州社区,颗粒物(PM10),53,55,70,27,34,134,,48,48,13,35,9,6,0.4,0.4
2024-10-06T1100,4018A,116.0567,36.4608,聊城市,星美广场,颗粒物(PM10),68,86,73,20,34,138,,50,50,11,28,9,8,0.6,0.5
2024-10-06T1100,2632A,94.3681,29.6376,林芝市,林芝监测站,,13,13,5,3,7,23,,26,19,4,3,10,10,0.3,0.3
2024-10-06T1100,2633A,94.3616,29.6616,林芝市,林芝人民医院,,10,9,6,7,4,27,,26,20,5,6,5,5,0.3,0.3
2024-10-06T1100,2603A,100.0781,23.8982,临沧市,市环保局,,16,16,16,11,13,30,,22,22,8,8,4,4,0.5,0.5
2024-10-06T1100,2604A,100.0894,23.8822,临沧市,市气象局,,23,16,14,16,14,25,,13,13,12,9,4,3,0.6,0.6
2024-10-06T1100,1733A,111.5531,36.0783,临汾市,临钢医院,细颗粒物(PM2.5),84,105,118,62,63,54,,36,36,34,37,8,7,1.0,0.8
2024-10-06T1100,1734A,111.5028,36.0714,临汾市,技工学校,细颗粒物(PM2.5),94,123,114,70,71,53,,37,37,48,47,6,8,1.0,0.9
2024-10-06T1100,1736A,111.5018,36.0855,临汾市,市委,细颗粒物(PM2.5),92,115,114,68,66,62,,46,46,28,33,8,9,0.9,0.8
2024-10-06T1100,3018A,111.505,36.1014,临汾市,唐尧大酒店,细颗粒物(PM2.5),83,95,110,61,69,67,,39,39,26,34,8,8,1.0,0.9
2024-10-06T1100,3668A,111.5036,36.0414,临汾市,城南,细颗粒物(PM2.5),98,142,128,73,72,43,,17,17,44,45,8,8,0.9,0.8
2024-10-06T1100,2667A,103.2069,35.5993,临夏回族自治州,环保局,,47,47,45,18,20,61,,19,19,16,23,13,11,0.5,0.6
2024-10-06T1100,2668A,103.2417,35.6057,临夏回族自治州,建设大厦,,48,48,44,24,27,71,,27,27,11,18,4,3,0.4,0.5
2024-10-06T1100,1618A,118.3429,35.0532,临沂市,沂河小区,,27,22,45,17,26,86,,51,51,15,19,5,7,0.3,0.4
2024-10-06T1100,1619A,118.295,35.0583,临沂市,鲁南制药厂,,27,14,38,12,21,84,,54,54,20,18,4,6,0.4,0.4
2024-10-06T1100,1620A,118.2794,34.9976,临沂市,新光毛纺厂,,40,,37,28,26,64,,34,29,36,27,4,6,0.7,0.6
2024-10-06T1100,1621A,118.3956,35.0888,临沂市,河东保险公司,,22,22,45,14,29,68,,49,44,34,34,6,8,0.7,0.7
2024-10-06T1100,3370A,118.3564,35.0215,临沂市,十里堡居委,,35,24,34,24,28,65,,50,48,32,23,4,6,0.7,0.6
2024-10-06T1100,3496A,118.3604,35.1084,临沂市,南坊新区,,46,46,46,31,30,47,,47,43,43,25,7,8,0.7,0.6
2024-10-06T1100,3860A,118.3920,35.0300,临沂市,皇山花园小区,,39,29,49,27,38,64,,45,44,35,31,7,8,0.7,0.7
2024-10-06T1100,1870A,109.4856,24.3895,柳州市,柳东小学,,48,48,41,32,28,134,,116,116,8,7,10,11,0.7,0.6
2024-10-06T1100,1871A,109.4157,24.3277,柳州市,环保监测站,细颗粒物(PM2.5),54,43,68,38,39,130,,72,72,9,20,13,12,0.8,0.8
2024-10-06T1100,1872A,109.389,24.341,柳州市,河西水厂,细颗粒物(PM2.5),77,78,80,56,43,118,,49,49,17,26,28,17,1.3,0.9
2024-10-06T1100,1873A,109.4311,24.2921,柳州市,市四中,颗粒物(PM10),54,58,56,33,37,140,,98,98,9,20,11,11,0.9,1
2024-10-06T1100,1874A,109.4006,24.3631,柳州市,市九中,细颗粒物(PM2.5),67,60,75,48,41,135,,73,73,11,25,11,9,1.0,1.1
2024-10-06T1100,1875A,109.4958,24.3134,柳州市,古亭山,颗粒物(PM10),52,53,44,31,30,140,,115,115,10,18,11,11,0.8,0.8
2024-10-06T1100,3402A,109.5422,24.3996,柳州市,市二中,颗粒物(PM10),51,51,46,29,30,131,,76,76,11,17,11,10,0.7,0.7
2024-10-06T1100,2307A,116.5079,31.737,六安市,监测大楼,,24,16,27,6,25,74,,62,61,8,9,4,5,0.4,0.5
2024-10-06T1100,2308A,116.4738,31.7643,六安市,皖西学院,,23,,36,10,24,73,,58,58,10,12,4,5,0.4,0.5
2024-10-06T1100,2309A,116.4996,31.7905,六安市,朝阳厂,,23,,26,10,23,73,,59,59,8,11,3,2,0.3,0.4
2024-10-06T1100,2310A,116.5567,31.7886,六安市,开发区,,25,,32,9,18,77,,58,58,9,14,1,2,0.4,0.5
2024-10-06T1100,2577A,104.83,26.5917,六盘水市,黄土坡,,16,,35,10,25,49,,56,49,8,10,6,6,0.5,0.5
2024-10-06T1100,2578A,104.89,26.5939,六盘水市,水钢,,19,19,46,3,26,48,,60,50,13,10,5,6,0.8,0.4
2024-10-06T1100,2579A,104.8475,26.5894,六盘水市,民中,,15,9,34,3,24,48,,60,51,12,12,7,7,0.5,0.5
2024-10-06T1100,2580A,104.9544,26.5506,六盘水市,双水,,15,7,40,3,28,47,,61,48,8,7,6,6,0.4,0.5
2024-10-06T1100,2336A,117.0217,25.1033,龙岩市,龙岩市监测站,,20,16,17,13,18,63,,52,52,6,10,7,10,0.4,0.5
2024-10-06T1100,2337A,117.0258,25.0661,龙岩市,闽西职业技术学院,,21,11,17,10,12,66,,54,54,5,6,6,8,0.5,0.6
2024-10-06T1100,2338A,117.0196,25.0306,龙岩市,龙岩学院,,20,20,16,10,11,63,,44,44,9,7,8,4,0.5,0.5
2024-10-06T1100,2885A,104.9339,33.3826,陇南市,滨江中学,,42,42,45,26,22,21,,20,17,16,13,10,9,0.6,0.5
2024-10-06T1100,3247A,104.955,33.371,陇南市,市总工会,,46,46,37,15,9,21,,26,20,17,13,4,3,0.6,0.4
2024-10-06T1100,2487A,111.9589,27.8901,娄底市,电视发射台,颗粒物(PM10),67,83,68,47,42,123,,132,123,9,8,68,12,1.0,1
2024-10-06T1100,2488A,111.9975,27.725,娄底市,市监测站,细颗粒物(PM2.5),82,92,79,60,54,126,,85,83,10,18,10,16,0.6,0.8
2024-10-06T1100,2489A,112.0194,27.7314,娄底市,市委党校,细颗粒物(PM2.5),89,94,77,66,52,116,,90,79,13,16,9,11,0.6,0.7
2024-10-06T1100,2490A,111.9561,27.7569,娄底市,涟钢,细颗粒物(PM2.5),79,75,67,58,45,97,,74,74,16,17,16,10,1.2,1.1
2024-10-06T1100,2491A,111.9892,27.7044,娄底市,市政府,细颗粒物(PM2.5),77,92,65,56,46,121,,57,57,14,14,9,7,0.6,0.6
2024-10-06T1100,1893A,105.4324,28.9634,泸州市,九狮山,细颗粒物(PM2.5),59,56,52,42,31,56,,51,50,22,20,5,4,0.3,0.5
2024-10-06T1100,1894A,105.4427,28.9063,泸州市,小市上码头,颗粒物(PM10),58,65,62,40,34,69,,78,73,15,16,3,4,0.6,0.5
2024-10-06T1100,1895A,105.4241,28.8573,泸州市,兰田宪桥,细颗粒物(PM2.5),68,56,56,49,37,64,,64,62,17,16,3,4,0.5,0.5
2024-10-06T1100,1896A,105.4379,28.8833,泸州市,市环监站,细颗粒物(PM2.5),69,69,60,50,41,51,,69,62,20,17,3,3,0.6,0.5
2024-10-06T1100,3490A,105.3617,28.7703,泸州市,纳溪区环保局,细颗粒物(PM2.5),55,58,51,39,38,60,,60,59,21,16,5,6,0.4,0.5
2024-10-06T1100,2183A,111.1406,37.5211,吕梁市,环保局,颗粒物(PM10),69,88,94,40,39,48,,19,19,37,36,12,5,1.4,0.7
2024-10-06T1100,2185A,111.1297,37.5136,吕梁市,自来水公司,颗粒物(PM10),68,85,79,40,35,54,,16,16,31,31,9,4,1.0,0.7
2024-10-06T1100,2867A,111.1283,37.51,吕梁市,马茂庄小学,颗粒物(PM10),77,104,101,51,36,37,,12,12,51,45,16,5,1.5,0.7
2024-10-06T1100,1812A,112.3931,34.6516,洛阳市,市委党校,细颗粒物(PM2.5),118,127,108,89,72,105,,34,34,24,45,38,19,,0.7
2024-10-06T1100,1814A,112.4657,34.6871,洛阳市,豫西宾馆,细颗粒物(PM2.5),97,114,102,72,63,73,,16,16,27,47,56,16,1.2,0.9
2024-10-06T1100,1815A,112.494,34.6886,洛阳市,河南林校,细颗粒物(PM2.5),100,101,94,75,70,98,,30,30,25,44,41,9,0.8,0.6
2024-10-06T1100,1816A,112.3844,34.623,洛阳市,开发区管委会,细颗粒物(PM2.5),115,114,110,87,76,90,,40,40,23,41,12,11,0.5,0.5
2024-10-06T1100,1817A,112.4267,34.6258,洛阳市,市委新办公区,细颗粒物(PM2.5),103,125,117,77,76,90,,39,39,20,40,13,8,0.5,0.5
2024-10-06T1100,3340A,112.6005,34.6326,洛阳市,伊滨,细颗粒物(PM2.5),84,79,109,62,80,100,,26,26,20,42,33,12,0.8,0.6
2024-10-06T1100,3341A,112.4951,34.6332,洛阳市,中移产业园,细颗粒物(PM2.5),104,96,99,78,73,113,,38,38,23,49,30,10,0.8,0.7
2024-10-06T1100,3593A,112.5736,34.8993,洛阳市,吉利监测站,细颗粒物(PM2.5),58,48,86,41,50,104,,42,42,14,47,11,10,0.5,0.6
2024-10-06T1100,3635A,112.3677,34.662,洛阳市,河科大西苑校区,细颗粒物(PM2.5),110,115,105,83,70,108,,35,35,24,49,25,17,0.8,0.8
2024-10-06T1100,3636A,112.4388,34.6781,洛阳市,英才小学,颗粒物(PM10),104,158,119,66,58,95,,28,28,36,50,48,12,0.9,0.6
2024-10-06T1100,2399A,114.051,33.5699,漯河市,三五一五工厂,,35,29,81,18,38,111,,74,74,11,22,6,7,0.4,0.5
2024-10-06T1100,2400A,114.0055,33.5698,漯河市,漯河大学,,42,42,80,19,43,106,,72,72,11,22,4,6,0.5,0.6
2024-10-06T1100,2401A,114.0138,33.5828,漯河市,市水利局,,34,27,79,17,41,106,,76,76,7,22,5,6,0.6,0.8
2024-10-06T1100,2402A,114.0261,33.5698,漯河市,市广电局,,38,,75,26,43,112,,81,81,8,20,6,8,0.5,0.6
2024-10-06T1100,3478A,113.9749,33.5664,漯河市,市图书馆,,,29,85,,46,108,,68,68,10,27,9,8,0.3,0.5
2024-10-06T1100,3479A,114.0967,33.5906,漯河市,召陵区卫健委,,38,,54,26,43,105,,75,75,10,18,7,8,0.3,0.6
2024-10-06T1100,1798A,118.5092,31.6837,马鞍山市,湖东路四小,,26,7,21,3,18,82,,71,71,13,17,6,6,0.7,0.7
2024-10-06T1100,1799A,118.5024,31.6449,马鞍山市,开发区,,25,6,21,3,16,79,,70,70,16,17,6,6,0.6,0.6
2024-10-06T1100,1800A,118.5228,31.7231,马鞍山市,慈湖,,25,7,30,6,19,80,,72,72,10,16,7,7,0.7,0.7
2024-10-06T1100,1802A,118.6245,31.7241,马鞍山市,濮塘,,24,6,20,3,18,75,,70,70,4,6,8,8,1.0,1
2024-10-06T1100,3633A,118.4918,31.6809,马鞍山市,雨山,,25,6,20,3,16,79,,68,68,12,15,5,5,0.8,0.8
2024-10-06T1100,1686A,111.0286,21.4688,茂名市,电白南海,颗粒物(PM10),52,53,55,17,25,108,,92,90,10,15,16,15,0.7,0.7
2024-10-06T1100,1687A,110.9294,21.6533,茂名市,茂石化七小,,31,31,47,19,29,99,,82,76,10,14,10,20,0.7,0.7
2024-10-06T1100,1688A,110.9107,21.6687,茂名市,健康路,,41,41,46,24,25,105,,74,74,8,12,20,32,0.6,0.7
2024-10-06T1100,1689A,110.8592,21.6828,茂名市,高岭,,46,46,55,27,30,91,,55,52,13,17,12,17,0.7,0.8
2024-10-06T1100,3450A,111.01,21.5165,茂名市,电白水东,,39,36,39,27,24,98,,93,86,12,11,11,14,0.7,0.7
2024-10-06T1100,2539A,104.0308,30.0478,眉山市,黑龙滩水库,,49,41,43,34,30,58,,57,54,5,5,4,4,0.6,0.5
2024-10-06T1100,2540A,103.8416,30.0874,眉山市,气象局,细颗粒物(PM2.5),64,,38,46,29,48,,45,41,27,20,8,7,0.5,0.5
2024-10-06T1100,3137A,103.8578,30.0744,眉山市,市委党校,,46,46,37,29,24,49,,50,46,28,20,12,9,0.6,0.4
2024-10-06T1100,3148A,103.8291,30.0564,眉山市,区人社局,颗粒物(PM10),51,51,40,29,24,52,,45,45,22,22,14,8,0.6,0.6
2024-10-06T1100,1690A,116.1231,24.3284,梅州市,梅江月梅,,37,37,31,23,22,90,,28,28,9,17,9,8,0.6,0.6
2024-10-06T1100,1691A,116.0797,24.2719,梅州市,梅县新城,,44,44,26,25,22,93,,47,47,9,13,7,5,0.6,0.6
2024-10-06T1100,1692A,116.1248,24.2654,梅州市,环境监控中心,,37,37,34,20,25,82,,31,31,13,25,7,8,0.6,0.6
2024-10-06T1100,3315A,116.1233,24.2991,梅州市,梅龙,,27,22,29,15,19,86,,36,36,9,15,11,11,0.6,0.6
2024-10-06T1100,1878A,104.7778,31.4741,绵阳市,富乐山,细颗粒物(PM2.5),54,44,44,38,38,44,,41,38,27,18,3,2,0.6,0.5
2024-10-06T1100,1879A,104.7563,31.4535,绵阳市,市人大,细颗粒物(PM2.5),60,60,55,43,35,53,,59,53,26,20,20,11,0.6,0.5
2024-10-06T1100,1880A,104.6697,31.4668,绵阳市,高新区自来水公司,颗粒物(PM10),59,68,54,29,26,35,,52,43,31,22,5,4,0.5,0.5
2024-10-06T1100,1881A,104.7287,31.5075,绵阳市,三水厂,细颗粒物(PM2.5),73,56,47,53,37,28,,48,36,34,22,7,6,0.6,0.5
2024-10-06T1100,3491A,104.69,31.5322,绵阳市,西科大附属小学,,49,49,46,33,33,33,,56,46,25,20,6,5,0.5,0.5
2024-10-06T1100,3492A,104.5648,31.5343,绵阳市,安州区旅游局,细颗粒物(PM2.5),73,64,45,53,40,34,,59,47,18,15,16,10,0.6,0.5
2024-10-06T1100,1784A,129.61,44.561,牡丹江市,环保大楼,,46,46,49,24,24,66,,24,24,21,29,8,8,0.5,0.5
2024-10-06T1100,1785A,129.6115,44.5782,牡丹江市,文化广场,,50,50,62,30,29,51,,19,19,30,38,10,9,0.7,0.7
2024-10-06T1100,1786A,129.5904,44.5963,牡丹江市,第一医院,颗粒物(PM10),52,53,58,33,30,55,,24,24,31,27,8,8,0.5,0.6
2024-10-06T1100,1787A,129.6364,44.6075,牡丹江市,机车工厂,,47,47,51,25,35,65,,19,19,25,28,9,17,0.5,0.5
2024-10-06T1100,1788A,129.6386,44.5462,牡丹江市,第一中学,,41,41,39,15,20,78,,29,29,18,25,7,7,0.5,0.4
2024-10-06T1100,2531A,105.0703,29.61,内江市,市监测站,,44,44,44,29,33,61,,68,65,28,21,6,7,0.3,0.3
2024-10-06T1100,2532A,105.0717,29.5947,内江市,东兴区政府,,43,37,45,30,30,73,,74,73,22,24,4,6,0.5,0.5
2024-10-06T1100,2533A,105.0653,29.5817,内江市,内江二中,,48,36,45,33,35,66,,78,76,23,22,4,5,0.5,0.5
2024-10-06T1100,2534A,105.0406,29.5822,内江市,内江日报社,,46,37,46,32,33,62,,70,68,25,27,4,5,0.5,0.4
2024-10-06T1100,2628A,92.0657,31.4846,那曲市,那曲监测站,,24,21,20,10,10,75,,88,81,5,5,5,6,0.4,0.3
2024-10-06T1100,3128A,92.0506,31.4797,那曲市,那曲会议中心,颗粒物(PM10),96,141,31,28,9,85,,93,87,8,6,3,3,0.4,0.4
2024-10-06T1100,1290A,115.8931,28.6843,南昌市,省外办,,36,28,41,24,29,113,,77,77,15,20,11,11,0.6,0.7
2024-10-06T1100,1291A,115.8886,28.7003,南昌市,省林业公司,,37,29,43,17,25,117,,76,76,9,17,7,8,0.5,0.6
2024-10-06T1100,1292A,115.8126,28.7442,南昌市,林科所,,39,27,31,17,19,122,,90,90,14,17,8,9,0.5,0.6
2024-10-06T1100,1294A,115.8518,28.687,南昌市,建工学校,,36,35,43,17,23,114,,82,82,10,15,8,9,0.5,0.6
2024-10-06T1100,1295A,115.8921,28.6424,南昌市,象湖,,,22,36,,22,120,,84,84,13,18,8,9,0.6,0.7
2024-10-06T1100,1296A,115.7423,28.7996,南昌市,武术学校,细颗粒物(PM2.5),58,,20,41,25,117,,78,78,7,7,1,2,0.5,0.5
2024-10-06T1100,1298A,115.9314,28.6842,南昌市,省站,,32,19,42,18,26,102,,72,72,10,16,9,11,0.7,0.7
2024-10-06T1100,3046A,115.9084,28.6062,南昌市,机电学校,,35,31,44,9,23,111,,78,78,10,17,7,8,0.5,0.6
2024-10-06T1100,3690A,115.9721,28.7031,南昌市,外国语学校,,,24,40,14,25,103,,72,72,10,15,7,7,,0.7
2024-10-06T1100,1905A,106.056,30.8064,南充市,西山风景区,,48,34,33,33,31,38,,54,44,11,10,1,3,1.0,0.8
2024-10-06T1100,1906A,106.0789,30.8023,南充市,南充市委,细颗粒物(PM2.5),64,52,54,46,40,50,,43,43,20,21,2,3,0.5,0.4
2024-10-06T1100,1907A,106.1031,30.8217,南充市,南充炼油厂,细颗粒物(PM2.5),60,52,53,43,37,53,,54,54,20,16,2,4,0.5,0.4
2024-10-06T1100,1908A,106.1064,30.7856,南充市,高坪区监测站,细颗粒物(PM2.5),59,53,58,42,41,48,,45,45,19,22,5,7,0.5,0.5
2024-10-06T1100,1909A,106.0642,30.7636,南充市,嘉陵区环保局,细颗粒物(PM2.5),52,46,59,36,36,48,,39,39,19,26,3,5,0.5,0.5
2024-10-06T1100,1910A,106.1087,30.8388,南充市,市环境监测站,,,36,56,33,38,54,,48,48,,20,3,5,,0.3
2024-10-06T1100,1151A,118.8086,32.1065,南京市,迈皋桥,,22,6,14,3,9,68,,66,66,23,18,4,4,0.3,0.3
2024-10-06T1100,1152A,118.7538,32.0551,南京市,草场门,,22,6,16,3,9,69,,60,60,21,20,4,4,0.3,0.3
2024-10-06T1100,1153A,118.7794,32.0745,南京市,山西路,,24,,21,7,13,74,,65,65,18,13,4,4,0.4,0.4
2024-10-06T1100,1154A,118.7752,32.0023,南京市,中华门,,23,6,17,3,11,71,,62,62,11,13,4,4,0.4,0.4
2024-10-06T1100,1155A,118.8109,32.0309,南京市,瑞金路,,22,9,20,3,12,68,,60,60,15,16,4,4,0.6,0.5
2024-10-06T1100,1156A,118.7997,32.0754,南京市,玄武湖,,21,10,22,3,9,67,,55,55,25,28,5,5,0.4,0.4
2024-10-06T1100,1157A,118.6414,32.0931,南京市,浦口,,,,18,,12,74,,57,57,7,13,,6,0.2,0.3
2024-10-06T1100,1158A,118.7356,31.9996,南京市,奥体中心,,25,,19,7,16,77,,67,67,15,18,5,5,0.3,0.4
2024-10-06T1100,1159A,118.9125,32.1028,南京市,仙林大学城,,26,6,19,3,10,81,,77,77,14,17,4,5,0.4,0.4
2024-10-06T1100,3422A,118.8436,31.9198,南京市,江宁彩虹桥,,25,7,20,3,10,78,,66,66,9,12,5,4,0.4,0.4
2024-10-06T1100,3423A,119.0138,31.6494,南京市,溧水永阳,,26,,12,3,9,81,,81,80,12,12,5,4,0.5,0.6
2024-10-06T1100,3424A,118.879,31.3302,南京市,高淳老职中,,27,,9,3,10,84,,79,79,12,13,3,4,0.6,0.6
2024-10-06T1100,3427A,118.8554,32.3578,南京市,六合雄州,,27,6,17,3,9,84,,72,72,10,11,6,7,0.3,0.3
2024-10-06T1100,1401A,108.3103,22.7881,南宁市,二十一中,细颗粒物(PM2.5),73,81,65,53,43,90,,33,33,35,38,23,16,1.0,1
2024-10-06T1100,1402A,108.3141,22.8528,南宁市,北湖,颗粒物(PM10),63,75,67,44,41,103,,44,44,29,43,24,17,1.0,1
2024-10-06T1100,1403A,108.3206,22.8225,南宁市,市监测站,颗粒物(PM10),79,108,73,50,42,87,,26,26,36,40,31,18,1.0,0.9
2024-10-06T1100,1404A,108.3829,22.8037,南宁市,大自然花园,颗粒物(PM10),51,52,55,32,38,136,,39,38,12,26,12,12,0.5,0.6
2024-10-06T1100,1405A,108.4394,22.7904,南宁市,仙葫,颗粒物(PM10),51,52,57,29,40,128,,54,54,13,32,12,15,0.8,0.9
2024-10-06T1100,1406A,108.2397,22.8467,南宁市,区农职院,颗粒物(PM10),68,85,62,40,37,111,,44,44,17,24,44,22,0.8,0.7
2024-10-06T1100,1407A,108.3275,22.735,南宁市,英华嘉园,颗粒物(PM10),72,94,61,40,39,88,,48,48,37,35,17,12,0.7,0.7
2024-10-06T1100,1408A,108.2257,22.7757,南宁市,沙井镇街道办,细颗粒物(PM2.5),69,78,69,50,40,104,,38,38,20,42,20,9,0.8,0.8
2024-10-06T1100,3401A,108.4834,22.7618,南宁市,红星社区,,46,46,54,28,36,142,,76,76,10,25,10,10,0.6,0.7
2024-10-06T1100,2332A,118.1681,26.6369,南平市,南平市监测站,,20,,26,14,21,60,,39,39,7,16,4,5,0.3,0.4
2024-10-06T1100,2333A,118.1825,26.6489,南平市,南平铝业有限公司,,19,,24,13,22,55,,41,41,8,10,4,5,0.5,0.5
2024-10-06T1100,2334A,118.1756,26.6272,南平市,南平七中,,19,,23,10,14,58,,35,35,6,8,4,4,0.6,0.5
2024-10-06T1100,1168A,120.9098,31.9663,南通市,狼山街道,,30,,11,3,4,95,,97,96,7,7,5,6,0.3,0.4
2024-10-06T1100,1169A,120.86,32.0005,南通市,虹桥,,29,6,14,3,6,91,,95,92,8,8,6,6,0.4,0.4
2024-10-06T1100,1170A,120.87,32.02,南通市,城中,,29,6,14,3,4,92,,95,93,12,12,5,6,0.4,0.4
2024-10-06T1100,1171A,120.94,31.93,南通市,星湖花园,,30,6,9,3,4,94,,96,95,10,11,5,6,0.5,0.5
2024-10-06T1100,1172A,120.81,32.0417,南通市,紫琅学院,,28,6,8,3,5,87,,90,87,7,9,6,7,0.3,0.3
2024-10-06T1100,3291A,121.067,32.062,南通市,通州监测站,,33,6,11,3,3,103,,106,104,5,6,2,2,0.5,0.5
2024-10-06T1100,3432A,120.9348,31.9883,南通市,环境教育馆,,31,6,15,3,2,98,,98,97,8,9,3,3,0.4,0.5
2024-10-06T1100,2404A,112.5224,33.0122,南阳市,瓦房庄,细颗粒物(PM2.5),70,64,77,51,62,76,,71,71,28,21,5,5,0.7,0.7
2024-10-06T1100,2405A,112.5003,32.9735,南阳市,汉画馆,细颗粒物(PM2.5),74,66,68,54,58,59,,64,64,37,25,8,7,0.7,0.6
2024-10-06T1100,2406A,112.5573,33.027,南阳市,气象站,细颗粒物(PM2.5),98,86,85,73,66,59,,73,67,33,24,8,9,0.7,0.7
2024-10-06T1100,2407A,112.5481,32.9689,南阳市,理工学院,细颗粒物(PM2.5),70,69,76,51,57,81,,70,70,28,24,8,8,0.7,0.7
2024-10-06T1100,4008A,112.5234,32.9922,南阳市,卧龙区政府,,,72,77,52,56,78,,69,69,,26,5,6,,0.7
2024-10-06T1100,1234A,121.8358,29.911,宁波市,区环保大楼,,14,9,10,6,5,32,,45,35,28,22,6,6,0.8,0.6
2024-10-06T1100,1235A,121.56,29.82,宁波市,万里学院,,15,11,11,6,6,48,,61,55,22,15,6,6,0.6,0.5
2024-10-06T1100,1236A,121.713,29.9572,宁波市,龙赛医院,,16,15,13,3,3,45,,49,35,31,21,8,8,0.7,0.6
2024-10-06T1100,1239A,121.633,29.7733,宁波市,钱湖水厂,,15,6,11,3,6,46,,50,48,22,17,8,8,0.6,0.6
2024-10-06T1100,1240A,121.5856,29.8635,宁波市,太古小学,,15,8,11,3,4,45,,60,52,24,17,7,7,0.8,0.7
2024-10-06T1100,1241A,121.524,29.8674,宁波市,市环境监测中心,,15,7,14,3,3,47,,59,53,23,15,6,4,0.6,0.5
2024-10-06T1100,2871A,121.6147,29.9017,宁波市,万里国际学校,,15,10,15,7,7,37,,53,42,30,20,7,7,0.7,0.5
2024-10-06T1100,3710A,121.5594,29.8975,宁波市,白沙活动中心,,14,7,13,3,3,42,,61,51,23,14,8,8,0.4,0.3
2024-10-06T1100,2341A,119.5388,26.6612,宁德市,宁德市监测站,,25,25,17,11,11,28,,14,14,18,21,7,7,0.6,0.6
2024-10-06T1100,3209A,119.5231,26.6562,宁德市,宁德一中,,16,,18,11,17,32,,19,19,13,13,5,5,0.5,0.5
2024-10-06T1100,2618A,98.8601,25.8567,怒江傈僳族自治州,州监测站,,16,14,15,11,12,24,,21,18,12,8,8,7,0.4,0.3
2024-10-06T1100,2619A,98.8546,25.8417,怒江傈僳族自治州,泸水一中,,,,11,18,6,24,,16,15,7,10,6,6,0.3,0.4
2024-10-06T1100,1888A,101.6891,26.571,攀枝花市,弄弄坪,,38,38,36,13,11,36,,11,11,15,22,19,12,0.6,0.7
2024-10-06T1100,1889A,101.5769,26.5928,攀枝花市,河门口,,34,34,23,16,11,28,,14,14,20,18,21,15,1.2,0.9
2024-10-06T1100,1890A,101.7169,26.585,攀枝花市,炳草岗,,32,32,31,12,13,34,,12,12,16,22,22,16,0.6,0.6
2024-10-06T1100,1891A,101.7369,26.5008,攀枝花市,仁和,,14,14,15,8,8,41,,19,19,10,12,7,7,0.4,0.5
2024-10-06T1100,2835A,101.7227,26.567,攀枝花市,四十中小,,26,26,27,15,15,40,,18,18,9,16,19,12,0.8,0.8
2024-10-06T1100,1604A,122.0303,41.1489,盘锦市,开发区,细颗粒物(PM2.5),54,38,55,38,61,59,,98,70,17,20,2,8,0.5,0.7
2024-10-06T1100,1605A,122.0485,41.0883,盘锦市,兴隆台,,42,32,53,29,62,54,,76,57,23,28,6,7,0.4,0.7
2024-10-06T1100,1606A,121.8297,41.1028,盘锦市,新生街道,,33,33,42,15,43,55,,78,59,16,19,8,9,0.3,0.7
2024-10-06T1100,1832A,113.3257,33.742,平顶山市,新华旅馆,颗粒物(PM10),79,107,94,57,43,79,,24,24,30,39,13,9,0.7,0.6
2024-10-06T1100,1833A,113.2919,33.737,平顶山市,规划设计院,细颗粒物(PM2.5),98,134,95,73,54,65,,28,28,35,41,13,10,0.8,0.7
2024-10-06T1100,1834A,113.182,33.774,平顶山市,平顶山工学院,细颗粒物(PM2.5),149,148,95,114,56,47,,28,26,48,34,20,9,0.8,0.6
2024-10-06T1100,3204A,113.3025,33.73,平顶山市,规划局,细颗粒物(PM2.5),113,124,92,85,59,62,,27,27,36,40,14,9,0.7,0.6
2024-10-06T1100,3594A,112.8867,33.9116,平顶山市,石龙区,颗粒物(PM10),72,94,102,47,47,73,,23,23,32,55,10,12,0.8,0.7
2024-10-06T1100,2656A,106.6692,35.5461,平凉市,聚贤嘉苑,颗粒物(PM10),55,60,61,29,35,72,,27,27,18,35,11,9,0.4,0.5
2024-10-06T1100,2657A,106.7021,35.5307,平凉市,博物馆,,,56,71,31,39,73,,26,26,,46,13,13,0.3,0.5
2024-10-06T1100,2347A,114.0997,27.5002,萍乡市,武功山,,36,16,22,8,11,115,,63,63,5,7,7,6,0.4,0.3
2024-10-06T1100,2348A,113.8385,27.6434,萍乡市,中医院,颗粒物(PM10),60,70,56,37,32,122,,71,71,21,20,23,13,1.3,0.9
2024-10-06T1100,2349A,113.8493,27.6253,萍乡市,市政府车库,细颗粒物(PM2.5),73,82,51,53,36,116,,59,59,21,17,28,14,1.5,0.7
2024-10-06T1100,2350A,113.8676,27.6435,萍乡市,市环保局,细颗粒物(PM2.5),73,83,57,53,37,114,,60,60,20,17,26,12,1.6,0.9
2024-10-06T1100,2351A,113.866,27.6198,萍乡市,安源区政府,颗粒物(PM10),64,77,55,36,28,118,,58,58,30,22,34,14,2.2,0.6
2024-10-06T1100,2319A,119.0141,25.4325,莆田市,荔城区仓后路,,18,18,12,3,3,42,,24,24,8,11,7,7,0.5,0.5
2024-10-06T1100,2320A,119.0015,25.4553,莆田市,莆田市监测站,,17,17,9,3,1,46,,37,37,5,6,7,6,0.4,0.4
2024-10-06T1100,2321A,119.1119,25.4561,莆田市,涵江区六中,,21,21,12,3,3,45,,28,28,2,6,3,4,0.3,0.5
2024-10-06T1100,2322A,119.1013,25.3215,莆田市,秀屿区政府,,16,13,21,3,8,51,,33,33,3,11,6,7,0.6,0.7
2024-10-06T1100,2392A,115.0312,35.7636,濮阳市,环保局,,50,47,71,35,41,124,,55,55,12,26,5,3,0.5,0.5
2024-10-06T1100,2394A,115.0574,35.7609,濮阳市,油田运输公司,细颗粒物(PM2.5),62,56,72,44,45,125,,48,48,11,31,6,4,0.5,0.6
2024-10-06T1100,2395A,115.0866,35.7754,濮阳市,油田物探公司,,,,67,40,45,128,,47,47,10,26,5,2,0.4,0.5
2024-10-06T1100,3021A,115,35.7668,濮阳市,濮水河管理处,,49,36,54,34,40,116,,37,37,8,21,4,3,0.4,0.4
2024-10-06T1100,2601A,100.98,22.7633,普洱市,市环保局,,32,28,25,22,14,30,,16,16,9,6,5,4,0.5,0.5
2024-10-06T1100,2602A,100.9817,22.8322,普洱市,普洱第二中学,,37,37,30,3,13,42,,12,12,9,7,5,4,0.6,0.6
2024-10-06T1100,2262A,131.0518,45.8751,七台河市,新一中,,22,15,35,8,18,68,,70,58,6,14,9,10,1.2,1.3
2024-10-06T1100,3345A,131.0577,45.7879,七台河市,中波台,,31,31,40,8,16,51,,59,44,14,23,9,7,0.5,0.6
2024-10-06T1100,3637A,131.0176,45.7761,七台河市,人民广场,,45,45,44,15,24,52,,59,48,15,22,11,9,0.4,0.5
2024-10-06T1100,3684A,130.8781,45.8222,七台河市,新建矿广场,,34,34,76,15,28,52,,36,36,12,28,8,8,0.3,0.6
2024-10-06T1100,1779A,123.9305,47.3636,齐齐哈尔市,安居小区,,21,17,39,3,19,65,,37,37,9,15,7,8,0.3,0.4
2024-10-06T1100,1780A,123.9488,47.3386,齐齐哈尔市,中心广场,,20,17,28,3,8,61,,37,37,9,16,2,2,0.2,0.2
2024-10-06T1100,1781A,123.9483,47.3227,齐齐哈尔市,农牧车辆厂,,24,24,37,3,8,62,,37,37,10,13,7,8,0.3,0.3
2024-10-06T1100,1783A,123.945,47.2988,齐齐哈尔市,市环境监测站,,20,20,29,8,12,62,,40,38,9,14,8,8,0.2,0.2
2024-10-06T1100,3662A,123.6333,47.2075,齐齐哈尔市,富区青少年活动中心,,26,26,37,7,15,60,,38,38,15,13,9,5,0.5,0.4
2024-10-06T1100,2591A,107.9783,26.5747,黔东南苗族侗族自治州,市环境监测站,,46,46,43,32,31,117,,84,84,14,17,7,6,0.5,0.5
2024-10-06T1100,2881A,107.8908,26.5311,黔东南苗族侗族自治州,凯里学院,,48,48,39,28,26,130,,69,69,8,15,5,4,0.5,0.5
2024-10-06T1100,2593A,107.5228,26.2403,黔南布依族苗族自治州,小围寨,,45,41,37,31,27,121,,90,90,5,5,16,9,0.5,0.5
2024-10-06T1100,3538A,107.5175,26.2978,黔南布依族苗族自治州,沙坝,,39,39,45,27,26,123,,63,63,9,11,12,6,0.5,0.5
2024-10-06T1100,2589A,104.9022,25.0925,黔西南布依族苗族自治州,场坝街,,36,36,32,21,23,108,,93,93,6,8,3,4,0.3,0.3
2024-10-06T1100,2590A,104.8811,25.0992,黔西南布依族苗族自治州,坪东大道,,33,32,36,20,23,105,,88,88,6,7,8,8,0.4,0.4
2024-10-06T1100,2502A,108.6236,21.9667,钦州市,市环保站,颗粒物(PM10),59,68,92,34,38,121,,85,85,14,28,12,15,0.7,1.8
2024-10-06T1100,2503A,108.6549,21.9481,钦州市,沙埠小学,颗粒物(PM10),61,72,86,33,42,127,,92,92,15,23,10,10,0.7,0.8
2024-10-06T1100,2504A,108.5989,21.7431,钦州市,港区一小,颗粒物(PM10),69,87,81,43,37,110,,85,82,27,29,12,12,0.8,0.8
2024-10-06T1100,3404A,108.5959,21.9633,钦州市,北职校,颗粒物(PM10),63,76,67,36,41,131,,92,92,14,19,13,10,0.9,0.9
2024-10-06T1100,1042A,119.5134,39.8207,秦皇岛市,北戴河环保局,细颗粒物(PM2.5),82,71,95,60,52,90,,90,88,33,28,4,6,0.9,1
2024-10-06T1100,1043A,119.7493,40.0116,秦皇岛市,第一关,颗粒物(PM10),75,99,92,54,55,47,,47,44,79,64,4,6,0.7,0.7
2024-10-06T1100,1044A,119.5897,39.9499,秦皇岛市,监测站,细颗粒物(PM2.5),87,89,91,64,62,87,,67,67,54,45,6,10,0.8,0.9
2024-10-06T1100,1046A,119.5251,39.9041,秦皇岛市,建设大厦,细颗粒物(PM2.5),74,88,99,54,53,80,,81,68,42,33,5,9,0.8,0.8
2024-10-06T1100,3132A,119.610547,39.943889,秦皇岛市,文明里,细颗粒物(PM2.5),84,102,109,62,58,86,,77,72,55,43,6,9,0.9,1
2024-10-06T1100,1307A,120.6659,36.2403,青岛市,仰口,,25,,8,16,8,80,,92,82,12,4,6,6,1.0,0.9
2024-10-06T1100,1310A,120.4134,36.0658,青岛市,市南区东部子站,,33,12,9,3,3,103,,94,92,10,8,6,6,0.4,0.4
2024-10-06T1100,1311A,120.3664,36.1032,青岛市,四方区子站,,29,19,15,7,7,91,,74,74,33,27,8,8,0.3,0.3
2024-10-06T1100,1312A,120.2994,36.054,青岛市,市南区西部子站,,33,14,11,3,2,105,,98,94,16,11,10,8,0.4,0.4
2024-10-06T1100,1313A,120.4581,36.0858,青岛市,崂山区子站,,28,17,4,3,1,89,,91,90,26,15,8,8,0.5,0.5
2024-10-06T1100,1314A,120.1983,35.9608,青岛市,黄岛区子站,,34,9,13,3,8,107,,50,46,15,23,8,9,0.4,0.4
2024-10-06T1100,1315A,120.3999,36.3083,青岛市,城阳区子站,,34,34,22,15,10,86,,60,60,35,27,8,7,0.5,0.5
2024-10-06T1100,1966A,120.0405,35.8735,青岛市,黄岛区4号,,27,27,14,9,5,85,,72,72,32,19,7,6,0.4,0.4
2024-10-06T1100,3362A,120.5014,36.4034,青岛市,即墨2号,,28,21,16,3,8,87,,65,65,17,13,6,6,0.4,0.4
2024-10-06T1100,3642A,120.3503,36.0736,青岛市,市北区南部,,29,27,15,3,3,92,,82,82,24,19,6,6,0.6,0.5
2024-10-06T1100,3643A,120.3948,36.1805,青岛市,李沧区北部,,29,29,17,14,9,79,,87,82,40,26,9,8,0.6,0.6
2024-10-06T1100,1702A,113.0426,23.691,清远市,环保大楼,,36,36,29,25,23,108,,95,95,13,14,12,11,0.7,0.7
2024-10-06T1100,1703A,113.0208,23.7106,清远市,凤城街办,,38,36,30,26,19,107,,101,101,9,8,12,11,0.7,0.7
2024-10-06T1100,3025A,113.0477,23.6344,清远市,技师学院,,47,47,36,23,19,107,,88,88,13,12,12,11,0.7,0.7
2024-10-06T1100,3318A,112.9903,23.7403,清远市,清新太和,,36,34,30,21,18,115,,111,111,6,8,8,7,0.5,0.5
2024-10-06T1100,3455A,113.076,23.7198,清远市,清城东城,,36,36,32,23,19,113,,98,98,5,6,10,9,0.5,0.5
2024-10-06T1100,2661A,107.6325,35.7357,庆阳市,庆阳五中,颗粒物(PM10),57,63,62,30,34,57,,70,58,12,17,8,8,0.5,0.5
2024-10-06T1100,2662A,107.6364,35.7067,庆阳市,市环保局,颗粒物(PM10),57,63,55,34,32,54,,76,62,15,17,8,7,0.5,0.4
2024-10-06T1100,1916A,103.7897,25.5035,曲靖市,环境监测站,,37,37,39,16,20,62,,44,44,16,14,6,7,0.5,0.5
2024-10-06T1100,1917A,103.8,25.5364,曲靖市,烟厂办公区,,39,39,30,26,19,61,,46,46,13,13,4,4,0.6,0.5
2024-10-06T1100,3376A,103.7947,25.462,曲靖市,南苑二区,,29,25,35,20,21,68,,50,50,13,12,14,17,0.8,0.8
2024-10-06T1100,3377A,103.7444,25.5261,曲靖市,曲靖师范学院,,28,26,26,19,18,65,,52,52,10,12,8,10,0.5,0.6
2024-10-06T1100,1264A,118.8692,28.9398,衢州市,环保大楼,,18,11,25,7,15,55,,45,45,13,15,6,6,0.4,0.5
2024-10-06T1100,1265A,118.8709,28.9666,衢州市,实验学校,,19,10,26,8,22,58,,44,44,10,12,3,4,0.3,0.3
2024-10-06T1100,1266A,118.8621,28.9808,衢州市,衢州学院,,18,,44,8,22,56,,40,40,14,20,7,7,0.3,0.3
2024-10-06T1100,1611A,118.5819,24.9117,泉州市,涂山街,,20,20,17,9,9,59,,44,44,7,11,2,2,0.3,0.4
2024-10-06T1100,1612A,118.5972,24.8978,泉州市,津头埔,,26,26,20,7,8,54,,42,42,7,11,4,4,0.4,0.4
2024-10-06T1100,1613A,118.6663,24.9424,泉州市,万安,,24,24,17,8,7,51,,40,40,6,9,2,2,0.3,0.4
2024-10-06T1100,3529A,118.6333,24.9264,泉州市,城华南路,,17,17,14,6,7,54,,36,36,3,7,3,3,0.2,0.3
2024-10-06T1100,2626A,88.8876,29.2718,日喀则市,日喀则监测站,,30,18,15,9,6,94,,86,77,6,11,5,5,0.3,0.4
2024-10-06T1100,3726A,88.8781,29.2426,日喀则市,林业技术推广中心,,29,14,13,3,2,90,,94,87,11,7,7,7,0.4,0.4
2024-10-06T1100,1659A,119.471,35.4209,日照市,监测站,,24,24,13,10,7,68,,82,72,28,20,10,11,0.5,0.5
2024-10-06T1100,1660A,119.523,35.4216,日照市,市政府广场,,27,27,14,13,8,64,,86,75,28,15,7,6,0.5,0.4
2024-10-06T1100,1661A,119.5587,35.4044,日照市,港务局,,25,22,13,15,11,79,,96,89,22,10,10,8,0.6,0.5
2024-10-06T1100,3507A,119.5328,35.4625,日照市,职业技术学院,,23,22,12,7,7,71,,85,76,26,14,10,9,0.5,0.5
2024-10-06T1100,3604A,119.3266,35.1044,日照市,岚山环保分局,,27,27,21,15,12,55,,59,54,36,22,18,21,0.7,1.4
2024-10-06T1100,1835A,111.1922,34.7752,三门峡市,市政府,细颗粒物(PM2.5),73,80,66,53,45,88,,53,48,32,31,39,22,0.8,0.7
2024-10-06T1100,1836A,111.1587,34.7942,三门峡市,开发区,细颗粒物(PM2.5),84,104,77,62,43,95,,59,52,22,26,24,18,0.7,0.7
2024-10-06T1100,1838A,111.143,34.7955,三门峡市,风景区,颗粒物(PM10),59,68,64,41,38,111,,69,69,19,21,27,18,0.9,0.8
2024-10-06T1100,3039A,111.1911,34.7829,三门峡市,三门峡市第一小学,细颗粒物(PM2.5),100,95,66,75,47,99,,61,55,25,26,35,19,0.8,0.7
2024-10-06T1100,3598A,111.1,34.7167,三门峡市,富达温泉假日酒店,细颗粒物(PM2.5),115,121,99,87,65,69,,39,33,37,28,31,15,0.7,0.6
2024-10-06T1100,2324A,117.6211,26.2625,三明市,三钢,,40,29,25,28,18,85,,50,50,3,12,2,2,0.4,0.4
2024-10-06T1100,2325A,117.635,26.2714,三明市,三明二中,,30,30,20,20,15,81,,46,46,9,13,3,3,0.5,0.5
2024-10-06T1100,2326A,117.6028,26.2378,三明市,三元区政府,,43,38,27,30,21,80,,36,36,13,16,4,3,0.6,0.6
2024-10-06T1100,1876A,109.5078,18.2489,三亚市,河东子站,,44,44,36,19,19,81,,68,61,14,9,5,5,0.6,0.5
2024-10-06T1100,1877A,109.4964,18.2681,三亚市,河西子站,,35,35,31,15,19,72,,60,50,13,10,4,4,0.5,0.5
2024-10-06T1100,3540A,109.7348,18.3443,三亚市,君悦子站,,40,33,38,22,20,128,,73,73,9,10,3,3,0.9,0.6
2024-10-06T1100,2624A,91.7608,29.2313,山南市,山南监测站,,26,26,11,13,5,59,,53,48,8,6,10,9,0.4,0.4
2024-10-06T1100,2625A,91.7706,29.2436,山南市,山南人民医院,,29,29,17,10,6,54,,57,48,12,11,10,9,0.4,0.4
2024-10-06T1100,1674A,116.6794,23.3667,汕头市,金平子站,颗粒物(PM10),59,67,27,35,22,125,,79,76,20,16,12,7,0.7,0.6
2024-10-06T1100,1675A,116.7244,23.3633,汕头市,龙湖子站,,50,50,26,21,17,106,,76,73,7,6,10,9,0.8,0.8
2024-10-06T1100,1676A,116.7258,23.2775,汕头市,濠江子站,,47,47,21,27,20,101,,72,70,16,10,11,7,0.9,0.8
2024-10-06T1100,1677A,116.7519,23.4714,汕头市,澄海子站,,39,39,28,20,24,100,,67,63,8,12,8,8,0.9,0.9
2024-10-06T1100,1678A,116.6092,23.2539,汕头市,潮阳子站,,48,48,27,22,18,117,,78,76,10,8,11,7,0.7,0.6
2024-10-06T1100,3444A,116.454,23.2684,汕头市,潮南峡山,,36,30,36,16,18,115,,80,80,5,8,8,7,0.8,0.8
2024-10-06T1100,3624A,116.4069,23.2533,汕头市,潮南子站,,42,42,41,20,19,118,,83,83,12,13,7,7,0.8,0.7
2024-10-06T1100,1693A,115.3653,22.775,汕尾市,市环保局,,36,36,26,23,18,101,,70,70,9,10,9,9,0.5,0.5
2024-10-06T1100,1694A,115.3706,22.7898,汕尾市,市政府,颗粒物(PM10),51,52,41,22,33,84,,60,60,9,11,9,8,0.6,0.6
2024-10-06T1100,1695A,115.3622,22.7925,汕尾市,新城中学,,45,45,30,17,18,83,,62,62,4,7,7,7,0.7,0.8
2024-10-06T1100,2645A,109.9154,33.8715,商洛市,监测站,颗粒物(PM10),59,67,49,34,28,59,,29,29,22,27,5,6,0.5,0.5
2024-10-06T1100,3045A,109.9643,33.8471,商洛市,商州区中学,颗粒物(PM10),52,53,51,27,26,47,,25,25,24,33,6,8,0.4,0.4
2024-10-06T1100,2408A,115.6702,34.4285,商丘市,环境监测站,颗粒物(PM10),52,53,65,21,45,104,,65,65,15,22,4,5,0.5,0.6
2024-10-06T1100,2409A,115.6458,34.4045,商丘市,粮食局,,38,,54,26,48,118,,80,80,7,12,5,5,0.5,0.7
2024-10-06T1100,2410A,115.6293,34.3948,商丘市,睢阳区环保局,,35,26,56,11,38,110,,71,71,11,18,6,7,0.3,0.4
2024-10-06T1100,3171A,115.6071,34.4465,商丘市,梁园区档案局,,33,25,57,13,42,105,,70,70,8,16,5,6,0.6,0.7
2024-10-06T1100,1141A,121.4,31.238,上海市,普陀,,28,6,16,3,6,87,,86,86,13,17,4,4,0.4,0.4
2024-10-06T1100,1142A,121.478,31.2036,上海市,十五厂,,29,7,14,3,6,92,,90,90,16,18,8,8,0.4,0.4
