timepoint,stationcode,longitude,latitude,area,positionname,primarypollutant,aqi,pm10,pm10_24h,pm2_5,pm2_5_24h,o3,o3_24h,o3_8h,o3_8h_24h,no2,no2_24h,so2,so2_24h,co,co_24h
2024-10-06T0300,2566A,102.1879,31.914,阿坝藏族羌族自治州,州农科所,,10,10,34,3,9,17,,,,10,16,7,8,0,0
2024-10-06T0300,2568A,102.2502,31.8896,阿坝藏族羌族自治州,马师校,,22,22,16,14,15,6,,,,7,7,5,5,0.2,0.3
2024-10-06T0300,3994A,102.2165,31.9024,阿坝藏族羌族自治州,马尔康中学西区,,20,20,20,14,17,8,,,,8,9,6,7,0.4,0.4
2024-10-06T0300,2695A,80.292,41.1694,阿克苏地区,电视台,颗粒物(PM10),88,126,121,51,39,61,,,,20,27,6,6,0.5,0.6
2024-10-06T0300,2696A,80.2613,41.1551,阿克苏地区,艺术中心,颗粒物(PM10),100,150,121,46,34,0,,,,69,34,4,4,1.4,0.8
2024-10-06T0300,2204A,105.6467,38.8363,阿拉善盟,西城区西花园,颗粒物(PM10),63,76,44,35,26,92,,,,12,14,8,10,0.9,0.9
2024-10-06T0300,2205A,105.6985,38.8411,阿拉善盟,蒙二幼,颗粒物(PM10),56,62,38,39,18,100,,,,9,11,10,9,0.9,0.7
2024-10-06T0300,2206A,105.724,38.8516,阿拉善盟,环保局新楼,颗粒物(PM10),56,62,38,35,18,112,,,,10,9,12,10,0.8,0.6
2024-10-06T0300,2708A,88.1264,47.8517,阿勒泰地区,市站,,22,20,35,15,8,68,,,,4,16,7,8,0.1,0.2
2024-10-06T0300,2630A,80.1161,32.5,阿里地区,阿里监测站,,25,6,19,3,8,80,,,,18,17,6,7,0.4,0.4
2024-10-06T0300,3192A,80.0903,32.5028,阿里地区,阿里藏医院,,31,12,17,3,6,97,,,,8,11,5,6,0.3,0.3
2024-10-06T0300,2642A,109.0318,32.6537,安康市,香溪洞,,43,38,42,30,30,62,,,,8,9,9,10,0.5,0.4
2024-10-06T0300,2643A,109.0281,32.6939,安康市,安康市监测站,,40,39,51,28,29,44,,,,13,18,12,16,0.5,0.5
2024-10-06T0300,2644A,109.0072,32.6975,安康市,汉滨区检察院,,48,48,49,33,31,35,,,,14,18,8,10,0.5,0.5
2024-10-06T0300,2291A,117.0809,30.5177,安庆市,环科院,,32,,37,22,26,67,,,,10,17,6,9,0.7,0.6
2024-10-06T0300,2292A,117.0331,30.5119,安庆市,马山宾馆,,29,,32,20,28,68,,,,11,17,8,11,0.8,0.6
2024-10-06T0300,2294A,116.9896,30.6145,安庆市,安庆大学,,40,,35,28,26,62,,,,10,12,8,9,0.8,0.7
2024-10-06T0300,3173A,117.0598,30.5351,安庆市,市人大,,30,,32,21,28,66,,,,7,13,9,11,0.9,0.8
2024-10-06T0300,3123A,105.9408,26.2431,安顺市,凤凰山,,46,46,46,32,33,93,,,,8,10,9,19,0.4,0.5
2024-10-06T0300,3124A,105.9439,26.2564,安顺市,金钟山,细颗粒物(PM2.5),52,51,45,36,36,96,,,,8,8,12,21,0.5,0.6
2024-10-06T0300,3125A,105.8983,26.2481,安顺市,娄家坡,,50,50,49,34,34,95,,,,10,10,12,17,0.7,0.7
2024-10-06T0300,1819A,114.3551,36.1017,安阳市,红庙街,颗粒物(PM10),59,67,68,36,35,33,,,,33,27,3,4,0.7,0.6
2024-10-06T0300,1820A,114.361,36.0681,安阳市,银杏小区,颗粒物(PM10),59,67,68,38,36,30,,,,26,28,3,4,0.6,0.5
2024-10-06T0300,3141A,114.3922,36.0878,安阳市,信访局,颗粒物(PM10),65,80,69,41,32,2,,,,77,30,2,3,0.3,0.2
2024-10-06T0300,3669A,114.4705,36.0637,安阳市,左辅环卫站,颗粒物(PM10),80,109,89,51,37,8,,,,82,50,4,5,0.8,0.8
2024-10-06T0300,3703A,114.2917,36.0949,安阳市,安钢职工学校,细颗粒物(PM2.5),67,82,69,48,36,27,,,,34,29,8,10,0.6,0.5
2024-10-06T0300,1748A,123.044,41.1196,鞍山市,深沟寺,颗粒物(PM10),51,51,46,30,29,88,,,,11,14,5,7,0.7,0.7
2024-10-06T0300,1749A,123.011,41.0931,鞍山市,太阳城,颗粒物(PM10),56,61,52,36,32,115,,,,12,16,8,10,0.7,0.6
2024-10-06T0300,1750A,123.0485,41.1442,鞍山市,太平,颗粒物(PM10),51,52,57,31,32,118,,,,12,27,8,13,0.8,1
2024-10-06T0300,1751A,122.9642,41.0971,鞍山市,铁西三道街,颗粒物(PM10),78,106,90,52,46,62,,,,33,38,6,8,1.2,0.9
2024-10-06T0300,1752A,122.9341,41.0833,鞍山市,铁西工业园区,颗粒物(PM10),80,109,73,53,40,34,,,,52,36,8,12,0.8,0.7
2024-10-06T0300,1753A,123.022,41.0821,鞍山市,明达新区,细颗粒物(PM2.5),57,61,55,40,35,84,,,,19,16,6,8,1.2,0.7
2024-10-06T0300,2195A,107.4212,40.761,巴彦淖尔市,附二中,,48,48,61,14,25,52,,,,9,19,4,7,0.4,0.5
2024-10-06T0300,2196A,107.37,40.7372,巴彦淖尔市,市环保大楼,,31,31,53,15,19,58,,,,5,15,3,5,0.3,0.4
2024-10-06T0300,1956A,86.1472,41.7538,巴音郭楞蒙古自治州,孔雀公园,颗粒物(PM10),68,86,62,28,20,3,,,,86,32,1,5,0.5,0.5
2024-10-06T0300,1957A,86.1972,41.7166,巴音郭楞蒙古自治州,棉纺厂,颗粒物(PM10),99,147,81,16,19,40,,,,28,27,5,5,0.3,0.4
2024-10-06T0300,1958A,86.2357,41.7173,巴音郭楞蒙古自治州,经济开发区,,,,63,58,23,51,,,,22,19,7,7,0.2,0.3
2024-10-06T0300,2914A,106.7677,31.8794,巴中市,苏山坪,,41,41,44,28,28,54,,,,14,16,3,3,0.4,0.4
2024-10-06T0300,3182A,106.7656,31.8545,巴中市,丽阳花园,,45,42,41,31,28,22,,,,27,25,5,6,0.5,0.5
2024-10-06T0300,3183A,106.7418,31.8654,巴中市,圣泉水务公司,,40,38,39,28,26,28,,,,21,23,4,5,0.5,0.4
2024-10-06T0300,3616A,106.7616,31.8344,巴中市,市中心医院,细颗粒物(PM2.5),54,52,45,38,31,17,,,,21,21,5,6,0.5,0.5
2024-10-06T0300,2235A,122.7911,45.6077,白城市,洮北区环保局,,33,31,35,23,20,59,,,,6,10,3,6,0.6,0.6
2024-10-06T0300,2236A,122.8738,45.5725,白城市,市环保局,,38,29,33,26,19,59,,,,8,13,2,6,0.4,0.4
2024-10-06T0300,2231A,126.4219,41.9171,白山市,喜丰,颗粒物(PM10),55,60,52,16,16,10,,,,32,28,11,9,0.6,0.6
2024-10-06T0300,2232A,126.4077,41.9419,白山市,环保局,,45,45,43,9,17,22,,,,18,25,9,9,0.6,0.7
2024-10-06T0300,2647A,104.1724,36.5446,白银市,第三小学,颗粒物(PM10),51,52,49,16,27,56,,,,25,28,14,62,1.3,1.1
2024-10-06T0300,2648A,104.1465,36.5482,白银市,动力公司,,32,32,39,13,19,51,,,,11,22,6,34,1.1,1
2024-10-06T0300,2512A,106.6103,23.9011,百色市,市监测站,,46,46,54,31,30,34,,,,13,18,6,10,0.8,0.8
2024-10-06T0300,2513A,106.6538,23.8859,百色市,市中心血站,颗粒物(PM10),68,86,77,48,41,32,,,,39,25,16,14,1.0,0.8
2024-10-06T0300,3406A,106.6085,23.8798,百色市,祈福高中,颗粒物(PM10),59,67,76,37,36,26,,,,32,28,4,8,0.7,0.7
2024-10-06T0300,2270A,117.396,32.939,蚌埠市,工人疗养院,,28,18,30,11,13,89,,,,3,12,4,6,0.3,0.3
2024-10-06T0300,2271A,117.3605,32.9427,蚌埠市,百货大楼,,29,12,30,3,13,92,,,,1,13,4,6,0.3,0.3
2024-10-06T0300,2273A,117.4185,32.8911,蚌埠市,蚌埠学院,,26,,25,18,16,75,,,,18,18,9,8,0.3,0.3
2024-10-06T0300,2274A,117.3533,32.9673,蚌埠市,淮上区政府,,29,14,30,13,17,91,,,,4,12,5,6,0.3,0.4
2024-10-06T0300,2275A,117.3145,32.8977,蚌埠市,高新区,,29,14,26,12,15,90,,,,6,25,5,10,0.3,0.3
2024-10-06T0300,3715A,117.3092,32.9314,蚌埠市,蚌埠田家炳中学,,28,15,29,14,14,89,,,,2,11,4,6,0.2,0.2
2024-10-06T0300,1585A,109.8756,40.6532,包头市,市环境监测站,,21,21,53,12,24,65,,,,8,41,6,13,0.5,0.9
2024-10-06T0300,1587A,109.9991,40.5842,包头市,包头八中,,19,18,61,6,26,59,,,,12,41,2,12,0.6,0.9
2024-10-06T0300,1588A,109.8538,40.6821,包头市,青山宾馆,,21,17,46,6,26,66,,,,6,39,6,13,0.5,0.9
2024-10-06T0300,1589A,109.8642,40.6288,包头市,惠龙物流,,22,22,56,9,20,64,,,,9,38,6,14,0.3,0.7
2024-10-06T0300,1590A,110.0377,40.5546,包头市,东河鸿龙湾,,20,20,50,7,20,58,,,,14,36,5,11,0.3,0.6
2024-10-06T0300,3283A,109.9154,40.5685,包头市,滨河大厦,,18,18,44,12,22,51,,,,22,41,11,14,0.4,0.7
2024-10-06T0300,3419A,109.9447,40.6261,包头市,包头市委党校,,20,18,52,3,22,61,,,,10,42,7,16,0.3,0.7
2024-10-06T0300,3683A,109.8331,40.6576,包头市,昆区政府,,20,18,50,6,26,62,,,,7,35,5,13,0.3,0.7
2024-10-06T0300,1930A,107.185,34.3063,宝鸡市,庙沟村,,49,49,72,33,46,50,,,,15,24,7,8,0.7,0.7
2024-10-06T0300,1931A,107.0708,34.3017,宝鸡市,竹园沟,细颗粒物(PM2.5),52,46,67,36,54,19,,,,20,24,7,9,0.5,0.6
2024-10-06T0300,1932A,107.1906,34.3672,宝鸡市,三陆医院,细颗粒物(PM2.5),110,106,100,83,79,5,,,,57,52,12,12,0.6,0.6
2024-10-06T0300,1933A,107.1431,34.3547,宝鸡市,监测站,细颗粒物(PM2.5),85,84,90,63,68,28,,,,22,33,7,8,0.7,0.8
2024-10-06T0300,1934A,107.1186,34.3739,宝鸡市,技工学校,细颗粒物(PM2.5),114,88,87,86,74,36,,,,22,34,7,9,0.7,0.7
2024-10-06T0300,1935A,107.3906,34.3528,宝鸡市,陈仓区环保局家属楼,细颗粒物(PM2.5),129,123,104,98,85,6,,,,63,50,13,11,0.8,0.8
2024-10-06T0300,1936A,107.2058,34.3497,宝鸡市,文理学院,细颗粒物(PM2.5),85,102,97,63,64,26,,,,28,40,9,11,0.6,0.7
2024-10-06T0300,1937A,107.2386,34.3622,宝鸡市,三迪小学,细颗粒物(PM2.5),112,105,97,84,79,22,,,,43,53,10,12,0.8,0.8
2024-10-06T0300,1051A,115.493,38.8632,保定市,游泳馆,细颗粒物(PM2.5),162,140,118,123,86,46,,,,47,37,2,5,0.9,0.7
2024-10-06T0300,1052A,115.5213,38.8959,保定市,华电二区,细颗粒物(PM2.5),145,143,111,111,82,12,,,,72,42,4,5,0.8,0.6
2024-10-06T0300,1053A,115.4713,38.9108,保定市,接待中心,细颗粒物(PM2.5),153,134,120,117,90,50,,,,36,43,2,6,0.9,0.7
2024-10-06T0300,1054A,115.4612,38.8416,保定市,地表水厂,细颗粒物(PM2.5),152,148,127,116,92,45,,,,54,46,3,6,0.6,0.3
2024-10-06T0300,3581A,115.31981,38.95208,保定市,满城区生态环境分局,细颗粒物(PM2.5),110,110,125,83,76,75,,,,20,38,3,6,0.9,0.8
2024-10-06T0300,3582A,115.47694,38.76408,保定市,清苑区第二中学,细颗粒物(PM2.5),196,199,138,147,96,8,,,,89,48,2,7,1.0,0.7
2024-10-06T0300,3583A,115.62909,39.02311,保定市,徐水物探局,细颗粒物(PM2.5),178,134,119,134,92,32,,,,70,55,6,7,0.8,0.6
2024-10-06T0300,4004A,115.4202,38.8656,保定市,双鹰农机,细颗粒物(PM2.5),162,154,127,123,84,61,,,,30,48,3,7,0.9,0.7
2024-10-06T0300,4034A,115.5150,38.8590,保定市,植保所站,细颗粒物(PM2.5),205,180,120,155,86,3,,,,87,49,8,9,0.9,0.7
2024-10-06T0300,2594A,99.1678,25.1081,保山市,市环境监测站,,17,17,16,3,9,8,,,,4,5,5,5,0.3,0.4
2024-10-06T0300,2595A,99.1711,25.1328,保山市,市环保局,,19,19,20,3,5,17,,,,3,4,7,6,0.4,0.5
2024-10-06T0300,1867A,109.1436,21.4086,北海市,海滩公园,,48,48,54,27,26,124,,,,10,13,12,10,0.6,0.7
2024-10-06T0300,1868A,109.0981,21.4661,北海市,新市环保局,细颗粒物(PM2.5),62,66,52,44,32,116,,,,14,13,29,10,0.8,0.8
2024-10-06T0300,1869A,109.1778,21.5233,北海市,北海工业园,细颗粒物(PM2.5),55,58,52,39,32,97,,,,16,14,11,10,0.8,0.8
2024-10-06T0300,3400A,109.1911,21.4415,北海市,龙潭自来水厂,细颗粒物(PM2.5),58,53,49,41,36,88,,,,12,13,9,10,0.6,0.6
2024-10-06T0300,1001A,116.3621,39.8784,北京市,万寿西宫,细颗粒物(PM2.5),89,85,85,66,68,19,,,,75,45,3,3,0.7,0.6
2024-10-06T0300,1002A,116.2202,40.2915,北京市,定陵,细颗粒物(PM2.5),98,91,87,73,67,41,,,,10,16,1,2,0.6,0.5
2024-10-06T0300,1003A,116.4174,39.9289,北京市,东四,细颗粒物(PM2.5),99,121,110,74,69,1,,,,99,44,4,4,1.1,0.8
2024-10-06T0300,1004A,116.4072,39.8863,北京市,天坛,细颗粒物(PM2.5),82,80,84,60,62,8,,,,33,30,3,3,0.8,0.7
2024-10-06T0300,1005A,116.462,39.9365,北京市,农展馆,细颗粒物(PM2.5),75,96,93,55,60,0,,,,99,48,3,2,0.9,0.7
2024-10-06T0300,1006A,116.3392,39.9295,北京市,官园,细颗粒物(PM2.5),103,131,102,77,64,10,,,,68,39,3,3,1.0,0.8
2024-10-06T0300,1007A,116.2878,39.9611,北京市,海淀万柳,细颗粒物(PM2.5),98,111,96,73,63,19,,,,64,43,3,4,0.6,0.6
2024-10-06T0300,1008A,116.6636,40.135,北京市,顺义新城,细颗粒物(PM2.5),99,118,97,74,63,13,,,,66,42,3,3,0.5,0.5
2024-10-06T0300,1009A,116.6275,40.3275,北京市,怀柔镇,细颗粒物(PM2.5),77,81,78,56,55,72,,,,8,12,3,2,0.5,0.6
2024-10-06T0300,1010A,116.2296,40.217,北京市,昌平镇,细颗粒物(PM2.5),88,102,94,65,56,72,,,,15,21,4,4,0.6,0.6
2024-10-06T0300,1011A,116.3966,39.9821,北京市,奥体中心,细颗粒物(PM2.5),103,125,97,77,65,1,,,,91,51,2,3,0.8,0.7
2024-10-06T0300,1012A,116.184,39.9136,北京市,古城,细颗粒物(PM2.5),104,126,128,78,73,43,,,,32,45,3,4,0.9,0.9
2024-10-06T0300,3281A,115.9718,40.4529,北京市,延庆夏都,细颗粒物(PM2.5),80,91,90,59,62,72,,,,9,20,3,2,0.5,0.6
2024-10-06T0300,3417A,117.0709,40.1465,北京市,平谷新城,细颗粒物(PM2.5),83,79,83,61,57,58,,,,9,17,3,3,0.4,0.4
2024-10-06T0300,3418A,116.8336,40.4095,北京市,密云新城,细颗粒物(PM2.5),69,81,87,50,50,78,,,,8,22,1,2,0.5,0.5
2024-10-06T0300,3671A,116.088,39.9726,北京市,门头沟三家店,细颗粒物(PM2.5),83,102,96,61,58,34,,,,23,25,1,2,0.6,0.5
2024-10-06T0300,3672A,116.1541,39.8204,北京市,丰台云岗,细颗粒物(PM2.5),108,126,103,81,68,9,,,,72,42,3,4,0.7,0.6
2024-10-06T0300,3673A,116.6804,39.9081,北京市,通州东关,细颗粒物(PM2.5),108,153,122,81,70,0,,,,68,46,2,2,0.7,0.6
2024-10-06T0300,3674A,115.9577,39.7603,北京市,房山燕山,细颗粒物(PM2.5),87,93,84,64,60,59,,,,12,18,3,2,0.7,0.6
2024-10-06T0300,3675A,116.4672,39.7733,北京市,大兴旧宫,细颗粒物(PM2.5),68,68,81,49,53,19,,,,20,30,3,2,0.5,0.5
2024-10-06T0300,3694A,115.986,40.4563,北京市,延庆石河营,细颗粒物(PM2.5),78,80,87,57,59,55,,,,9,18,3,3,0.5,0.5
2024-10-06T0300,3695A,116.6151,40.3053,北京市,怀柔新城,细颗粒物(PM2.5),85,76,79,63,56,80,,,,10,16,3,3,0.5,0.5
2024-10-06T0300,3696A,116.2545,39.8768,北京市,丰台小屯,细颗粒物(PM2.5),107,120,96,80,62,11,,,,64,51,1,2,0.8,0.8
2024-10-06T0300,3697A,116.84,40.3844,北京市,密云镇,细颗粒物(PM2.5),67,72,82,48,54,26,,,,38,40,3,4,0.5,0.5
2024-10-06T0300,1761A,123.8275,41.3064,本溪市,大峪,颗粒物(PM10),51,51,43,25,21,32,,,,38,27,9,10,0.7,0.7
2024-10-06T0300,1762A,123.7567,41.3325,本溪市,溪湖,颗粒物(PM10),77,103,63,45,30,13,,,,34,32,9,11,1.2,0.8
2024-10-06T0300,1763A,123.7169,41.3094,本溪市,彩屯,细颗粒物(PM2.5),87,88,59,64,38,12,,,,47,35,9,12,2.4,1.3
2024-10-06T0300,1764A,123.7669,41.2864,本溪市,东明,颗粒物(PM10),60,70,52,26,26,9,,,,70,44,4,7,0.9,1
2024-10-06T0300,1765A,123.7992,41.2664,本溪市,新立屯,,29,21,26,18,12,11,,,,57,36,5,6,0.4,0.4
2024-10-06T0300,1766A,123.8142,41.3472,本溪市,威宁,颗粒物(PM10),67,84,61,38,25,14,,,,34,32,8,9,0.9,0.7
2024-10-06T0300,2587A,105.2864,27.3125,毕节市,八中,,22,22,62,14,41,51,,,,8,12,6,8,0.4,0.5
2024-10-06T0300,2588A,105.31,27.2944,毕节市,师专,,23,23,62,16,41,57,,,,6,10,7,11,0.5,0.5
2024-10-06T0300,3537A,105.3631,27.3533,毕节市,长征村,,18,10,80,7,61,56,,,,8,11,7,12,0.5,0.5
2024-10-06T0300,1629A,118.0018,37.3617,滨州市,第二水厂,细颗粒物(PM2.5),70,88,102,51,56,76,,,,29,42,13,25,0.5,0.4
2024-10-06T0300,1630A,117.9776,37.393,滨州市,北中新校,颗粒物(PM10),79,107,99,56,53,72,,,,38,40,17,27,0.9,0.7
2024-10-06T0300,3514A,117.9378,37.3956,滨州市,中海酒店,细颗粒物(PM2.5),92,119,90,68,53,88,,,,31,31,14,21,1.0,0.7
2024-10-06T0300,3515A,117.9378,37.3553,滨州市,开发区一中,细颗粒物(PM2.5),85,114,104,63,55,70,,,,40,47,22,41,1.2,0.9
2024-10-06T0300,3516A,118.0917,37.694,滨州市,金海六路,细颗粒物(PM2.5),79,90,93,58,53,132,,,,24,38,12,12,0.6,0.5
2024-10-06T0300,4028A,117.9956,37.3753,滨州市,滨州市西街道办事处,细颗粒物(PM2.5),77,88,97,56,64,82,,,,27,38,16,31,1.0,0.8
2024-10-06T0300,2311A,115.8072,33.8399,亳州市,污水处理厂,细颗粒物(PM2.5),63,56,49,45,26,42,,,,16,20,7,10,0.5,0.4
2024-10-06T0300,2312A,115.7789,33.8518,亳州市,三国揽胜宫,细颗粒物(PM2.5),62,53,44,44,27,43,,,,16,16,4,8,0.5,0.4
2024-10-06T0300,3332A,115.7633,33.8034,亳州市,亳州学院,颗粒物(PM10),51,52,49,33,20,29,,,,28,16,2,5,0.5,0.4
2024-10-06T0300,2693A,82.0485,44.8556,博尔塔拉蒙古自治州,市党校,颗粒物(PM10),55,59,52,23,17,62,,,,6,13,6,9,0.3,0.4
2024-10-06T0300,2694A,82.0806,44.8969,博尔塔拉蒙古自治州,市环保局,颗粒物(PM10),56,61,48,17,15,38,,,,14,17,4,5,0.4,0.5
2024-10-06T0300,1071A,116.8842,38.2991,沧州市,沧县城建局,细颗粒物(PM2.5),138,144,88,105,56,32,,,,71,39,5,8,0.7,0.6
2024-10-06T0300,1072A,116.8584,38.3254,沧州市,电视转播站,细颗粒物(PM2.5),122,104,77,92,56,59,,,,52,33,10,13,0.6,0.6
2024-10-06T0300,1073A,116.8709,38.3228,沧州市,市环保局,细颗粒物(PM2.5),95,103,86,71,57,72,,,,43,36,6,8,0.5,0.5
2024-10-06T0300,3324A,116.8136,38.3004,沧州市,河北水利电力学院,细颗粒物(PM2.5),100,110,90,75,57,73,,,,46,31,6,8,0.5,0.5
2024-10-06T0300,2622A,97.1806,31.1273,昌都市,昌都监测站,,7,7,13,3,5,18,,,,5,10,8,8,0.4,0.6
2024-10-06T0300,3719A,97.1714,31.1406,昌都市,昌都会议中心,,7,7,9,3,5,16,,,,6,6,8,8,0.4,0.4
2024-10-06T0300,2690A,88.1236,43.8886,昌吉回族自治州,天山天池,,20,15,9,3,5,63,,,,1,2,7,8,0.4,0.4
2024-10-06T0300,2692A,87.2717,44.0297,昌吉回族自治州,新区政务中心,颗粒物(PM10),62,73,47,31,20,1,,,,54,30,4,6,0.9,0.8
2024-10-06T0300,3613A,87.3095,44.0142,昌吉回族自治州,亚心广场,颗粒物(PM10),63,75,58,19,14,11,,,,60,38,4,4,0.8,0.8
2024-10-06T0300,1119A,125.3325,43.9166,长春市,食品厂,,35,35,61,14,33,54,,,,12,35,5,8,0.3,0.6
2024-10-06T0300,1120A,125.2863,43.9027,长春市,客车厂,,37,37,56,17,38,50,,,,14,33,8,10,0.3,0.6
2024-10-06T0300,1121A,125.2841,43.8463,长春市,邮电学院,,,38,54,20,23,51,,,,15,28,,9,0.3,0.6
2024-10-06T0300,1122A,125.3716,43.8772,长春市,劳动公园,,40,40,61,17,28,51,,,,19,27,7,9,0.3,0.5
2024-10-06T0300,1123A,125.3297,43.8805,长春市,园林处,,36,36,53,20,30,54,,,,13,26,6,8,0.3,0.6
2024-10-06T0300,1124A,125.4605,43.79,长春市,净月潭,颗粒物(PM10),55,59,45,26,26,46,,,,22,19,6,7,0.4,0.5
2024-10-06T0300,1126A,125.3863,43.8447,长春市,经开区环卫处,,45,45,57,20,25,46,,,,19,32,8,10,0.4,0.7
2024-10-06T0300,1127A,125.245,43.7783,长春市,高新区管委会,,49,49,57,17,34,52,,,,17,33,7,8,0.3,0.6
2024-10-06T0300,1128A,125.1761,43.8325,长春市,岱山公园,,39,39,55,20,31,40,,,,22,36,6,7,0.4,0.7
2024-10-06T0300,1335A,113.0833,28.2325,长沙市,经开区环保局,细颗粒物(PM2.5),64,71,60,46,34,83,,,,32,28,9,7,0.6,0.5
2024-10-06T0300,1336A,112.8872,28.2189,长沙市,高开区环保局,细颗粒物(PM2.5),93,105,66,69,41,72,,,,22,19,8,7,0.6,0.4
2024-10-06T0300,1337A,113.0792,28.2053,长沙市,马坡岭,细颗粒物(PM2.5),68,58,60,49,39,88,,,,26,21,9,8,0.7,0.6
2024-10-06T0300,1338A,112.9394,28.19,长沙市,湖南师范大学,细颗粒物(PM2.5),99,91,63,74,40,95,,,,15,17,7,6,0.8,0.6
2024-10-06T0300,1339A,113.0178,28.1322,长沙市,雨花区环保局,颗粒物(PM10),59,67,59,41,32,106,,,,18,23,10,9,0.7,0.6
2024-10-06T0300,1340A,112.9792,28.2597,长沙市,伍家岭,细颗粒物(PM2.5),102,94,70,76,38,78,,,,22,26,8,6,0.9,0.7
2024-10-06T0300,1341A,113.0014,28.1944,长沙市,火车新站,细颗粒物(PM2.5),77,71,63,56,38,93,,,,23,26,9,8,0.6,0.5
2024-10-06T0300,1342A,112.9844,28.1178,长沙市,天心区环保局,细颗粒物(PM2.5),84,81,70,62,37,87,,,,22,29,8,7,0.9,0.8
2024-10-06T0300,1343A,112.8908,28.1308,长沙市,湖南中医药大学,细颗粒物(PM2.5),120,108,66,91,41,79,,,,15,13,9,8,1.2,0.9
2024-10-06T0300,1344A,112.9581,28.3611,长沙市,沙坪,细颗粒物(PM2.5),70,73,43,51,36,96,,,,12,10,11,10,0.9,0.7
2024-10-06T0300,1727A,113.1147,36.1547,长治市,清华站,细颗粒物(PM2.5),64,62,56,46,37,56,,,,21,26,8,9,0.9,0.8
2024-10-06T0300,1728A,113.1031,36.1989,长治市,监测站,细颗粒物(PM2.5),67,70,56,48,41,51,,,,32,31,10,11,0.9,0.8
2024-10-06T0300,1730A,113.0886,36.2125,长治市,审计局,细颗粒物(PM2.5),70,63,56,51,43,53,,,,26,24,7,8,0.7,0.5
2024-10-06T0300,1731A,113.0844,36.1856,长治市,长治八中,颗粒物(PM10),68,86,69,33,29,54,,,,25,29,8,9,0.9,0.8
2024-10-06T0300,2845A,113.1569,36.1911,长治市,德盛苑,细颗粒物(PM2.5),79,64,53,58,42,65,,,,24,21,6,6,1.2,0.8
2024-10-06T0300,3568A,113.06,36.0464,长治市,向阳小学,细颗粒物(PM2.5),79,97,74,58,44,33,,,,36,30,7,8,0.7,0.6
2024-10-06T0300,3569A,112.8792,36.3144,长治市,屯留一中,细颗粒物(PM2.5),87,80,69,64,52,33,,,,38,33,9,14,1.5,1.4
2024-10-06T0300,3570A,113.235,36.3489,长治市,潞城四中,细颗粒物(PM2.5),88,80,75,65,47,52,,,,27,32,6,11,0.8,1
2024-10-06T0300,1854A,111.6975,28.9703,常德市,市二中,细颗粒物(PM2.5),93,104,90,69,70,97,,,,16,20,14,15,0.8,0.9
2024-10-06T0300,3138A,111.7153,29.0289,常德市,武陵区永安,细颗粒物(PM2.5),100,104,91,75,67,91,,,,19,20,15,15,1.0,1
2024-10-06T0300,3139A,111.6892,28.9881,常德市,鼎城区玉霞,细颗粒物(PM2.5),89,106,90,66,63,102,,,,17,19,15,16,0.9,0.8
2024-10-06T0300,3140A,111.6625,29.0531,常德市,武陵区长庚,细颗粒物(PM2.5),123,122,88,93,64,82,,,,21,20,15,13,0.7,0.6
2024-10-06T0300,1196A,119.9633,31.762,常州市,市监测站,,27,27,38,9,18,78,,,,8,15,6,8,0.6,0.5
2024-10-06T0300,1200A,119.9468,31.7069,常州市,武进监测站,,27,24,36,7,16,86,,,,2,11,10,12,0.7,0.8
2024-10-06T0300,1201A,119.9255,31.9087,常州市,安家,,44,44,36,15,17,63,,,,18,20,6,7,0.4,0.3
2024-10-06T0300,3002A,119.9805,31.8174,常州市,行政中心,,25,21,34,6,16,78,,,,9,15,6,6,0.4,0.2
2024-10-06T0300,3003A,120.0522,31.7748,常州市,经开区,,32,32,35,6,17,76,,,,10,20,6,7,0.1,0.1
2024-10-06T0300,3010A,119.9025,31.7964,常州市,钟楼,,24,23,33,12,17,74,,,,10,18,8,9,0.8,0.5
2024-10-06T0300,3429A,119.8598,31.7066,常州市,武进经发区,,24,15,35,7,18,74,,,,12,17,6,7,0.5,0.5
2024-10-06T0300,3430A,119.5826,31.7245,常州市,金坛城区,,24,8,20,7,13,75,,,,7,10,7,8,0.6,0.6
2024-10-06T0300,2220A,120.4318,41.5881,朝阳市,西梁,颗粒物(PM10),57,64,59,35,40,22,,,,34,26,12,11,1.0,0.9
2024-10-06T0300,2221A,120.4521,41.5646,朝阳市,河畔小区,,43,40,53,30,36,48,,,,15,19,12,12,0.6,0.7
2024-10-06T0300,2222A,120.4176,41.5648,朝阳市,八里堡,颗粒物(PM10),61,72,72,34,38,15,,,,44,41,12,13,0.9,1.1
2024-10-06T0300,2223A,120.3806,41.5969,朝阳市,农业园区,,40,40,53,19,39,31,,,,21,24,8,10,0.5,0.7
2024-10-06T0300,1705A,116.6367,23.6719,潮州市,西园路,,,,29,28,19,29,,,,15,14,3,4,0.5,0.5
2024-10-06T0300,3026A,116.6183,23.6608,潮州市,市政府,,31,31,30,20,15,61,,,,10,12,6,7,0.6,0.6
2024-10-06T0300,4036A,116.6461,23.6761,潮州市,金山,细颗粒物(PM2.5),53,,27,37,24,27,,,,12,11,7,8,0.6,0.6
2024-10-06T0300,2472A,113.0073,25.9061,郴州市,马头岭,颗粒物(PM10),65,80,54,30,20,111,,,,14,13,14,10,0.6,0.6
2024-10-06T0300,2473A,113.0116,25.8226,郴州市,市职中,细颗粒物(PM2.5),62,62,51,44,39,56,,,,30,23,7,8,0.7,0.7
2024-10-06T0300,2474A,113.0161,25.8001,郴州市,兴隆步行街,细颗粒物(PM2.5),63,65,54,45,35,88,,,,22,20,7,8,0.5,0.4
2024-10-06T0300,2475A,113.0383,25.8071,郴州市,市审计局,细颗粒物(PM2.5),65,64,49,47,37,82,,,,20,19,6,6,0.6,0.6
2024-10-06T0300,2476A,113.0348,25.7759,郴州市,市环保局,细颗粒物(PM2.5),70,84,57,51,37,92,,,,22,26,10,10,0.7,0.6
2024-10-06T0300,1431A,103.9728,30.7236,成都市,金泉两河,,30,30,32,3,11,22,,,,19,21,3,3,0.4,0.4
2024-10-06T0300,1432A,104.176,30.6872,成都市,十里店,,35,25,29,24,19,37,,,,30,18,1,1,0.6,0.6
2024-10-06T0300,1433A,104.079,30.5706,成都市,三瓦窑,细颗粒物(PM2.5),63,48,41,45,28,22,,,,24,33,3,3,0.6,0.6
2024-10-06T0300,1434A,104.1114,30.63,成都市,沙河铺,细颗粒物(PM2.5),58,52,45,41,25,22,,,,22,22,3,2,0.6,0.6
2024-10-06T0300,1437A,104.0786,30.6531,成都市,君平街,,44,44,39,29,24,31,,,,32,30,3,3,0.6,0.5
2024-10-06T0300,2880A,104.0239,30.65639,成都市,大石西路,,46,43,42,32,23,43,,,,20,24,3,3,0.3,0.4
2024-10-06T0300,3136A,104.2725,30.5589,成都市,龙泉驿区区政府,,44,44,33,27,21,42,,,,20,20,1,1,0.5,0.5
2024-10-06T0300,3357A,104.0106,30.6931,成都市,金博路,,34,34,33,16,17,35,,,,19,25,1,1,0.5,0.6
2024-10-06T0300,3359A,104.0578,30.5225,成都市,华阳,,45,39,38,31,27,40,,,,15,20,3,3,0.6,0.6
2024-10-06T0300,3487A,104.2394,30.5319,成都市,车城东七路,细颗粒物(PM2.5),59,64,37,42,23,42,,,,18,18,2,2,0.5,0.5
2024-10-06T0300,3488A,104.3853,30.7453,成都市,青白江技师分院,,29,27,34,20,23,7,,,,28,22,2,2,0.7,0.6
2024-10-06T0300,3489A,104.0789,30.4072,成都市,科学城,细颗粒物(PM2.5),59,54,35,42,25,49,,,,14,16,5,4,0.5,0.5
2024-10-06T0300,4011A,103.8506,30.6947,成都市,光华大道三段,,34,34,41,21,21,40,,,,9,16,2,6,0.6,0.6
2024-10-06T0300,1062A,117.9531,40.9081,承德市,铁路,颗粒物(PM10),51,52,68,28,39,8,,,,49,37,8,10,0.6,0.5
2024-10-06T0300,1063A,117.9392,40.9763,承德市,中国银行,颗粒物(PM10),60,69,75,36,40,6,,,,36,33,5,8,0.8,0.8
2024-10-06T0300,1064A,117.9503,40.928,承德市,开发区,颗粒物(PM10),60,70,76,32,37,14,,,,40,33,6,9,0.7,0.6
2024-10-06T0300,1065A,117.8051,40.9655,承德市,文化中心,颗粒物(PM10),60,70,95,38,47,18,,,,46,44,9,32,0.5,1.1
2024-10-06T0300,1066A,117.9268,41.0026,承德市,离宫,细颗粒物(PM2.5),72,85,72,52,50,11,,,,20,17,4,6,0.7,0.7
2024-10-06T0300,2314A,117.47,30.6618,池州市,池州学院,细颗粒物(PM2.5),53,54,39,37,26,49,,,,17,17,9,7,0.5,0.5
2024-10-06T0300,3237A,117.4918,30.6617,池州市,展览馆,,32,32,36,21,20,52,,,,10,14,5,6,0.5,0.5
2024-10-06T0300,3333A,117.5627,30.695,池州市,第八中学,,31,31,34,20,19,44,,,,11,13,4,5,0.6,0.6
2024-10-06T0300,3334A,117.5038,30.6243,池州市,第十二中学,,29,24,30,20,23,64,,,,6,13,4,5,0.6,0.6
2024-10-06T0300,1744A,118.9233,42.2816,赤峰市,松山一中,,20,17,46,9,21,62,,,,13,23,10,11,0.3,0.5
2024-10-06T0300,1745A,118.9576,42.2728,赤峰市,哈达街,,20,18,52,7,22,64,,,,10,18,8,9,0.3,0.5
2024-10-06T0300,1746A,118.8788,42.2554,赤峰市,天义路,,22,22,43,15,25,60,,,,11,21,7,9,0.1,0.3
2024-10-06T0300,3058A,119.2658,42.0353,赤峰市,银河街,,32,32,59,18,28,54,,,,12,22,10,14,0.2,0.5
2024-10-06T0300,3286A,118.9359,42.3147,赤峰市,桥北物流园区,,21,13,48,9,21,67,,,,11,23,10,10,0.8,0.2
2024-10-06T0300,2521A,107.3476,22.4136,崇左市,市环保局江州分局,颗粒物(PM10),53,56,58,27,28,57,,,,11,11,4,5,0.6,0.6
2024-10-06T0300,2522A,107.3702,22.3707,崇左市,城南新区,,42,42,46,27,28,40,,,,22,17,4,5,0.6,0.5
2024-10-06T0300,2298A,118.3093,32.3153,滁州市,老年大学,,25,25,27,15,17,75,,,,10,15,8,6,0.4,0.3
2024-10-06T0300,2299A,118.3244,32.2786,滁州市,人大宾馆,,26,19,32,17,19,81,,,,9,19,6,6,0.2,0.3
2024-10-06T0300,3207A,118.3118,32.3038,滁州市,市政府原办公楼,,35,32,30,24,21,77,,,,8,16,5,6,0.3,0.3
2024-10-06T0300,3331A,118.3267,32.2634,滁州市,图书馆,,26,22,28,14,15,83,,,,9,16,4,5,0.2,0.3
2024-10-06T0300,2605A,101.5482,25.0441,楚雄彝族自治州,州环境监测站,,18,12,9,12,6,39,,,,3,3,6,6,0.6,0.5
2024-10-06T0300,2606A,101.538,25.0492,楚雄彝族自治州,市经济开发区,,20,19,12,14,8,38,,,,4,5,5,5,0.7,0.7
2024-10-06T0300,2548A,107.5277,31.2827,达州市,达州职业技术学院,"颗粒物(PM10),细颗粒物(PM2.5)",55,60,49,39,30,4,,,,46,35,4,6,0.7,0.7
2024-10-06T0300,2549A,107.5086,31.2186,达州市,市环境监测站,"颗粒物(PM10),细颗粒物(PM2.5)",58,66,58,41,29,33,,,,30,33,5,6,0.5,0.5
2024-10-06T0300,2550A,107.4988,31.2132,达州市,凤凰小区,颗粒物(PM10),56,61,53,39,30,61,,,,22,27,8,8,0.4,0.5
2024-10-06T0300,2551A,107.5082,31.1986,达州市,达县机关宾馆,细颗粒物(PM2.5),54,56,58,38,34,50,,,,28,37,4,6,0.4,0.4
2024-10-06T0300,2552A,107.4644,31.2124,达州市,市政中心,细颗粒物(PM2.5),67,80,60,48,33,48,,,,29,29,10,6,0.6,0.5
2024-10-06T0300,2614A,100.1542,25.7054,大理白族自治州,大理市环境监测站,,15,10,13,10,9,29,,,,5,4,6,6,0.6,0.6
2024-10-06T0300,2615A,100.2171,25.5811,大理白族自治州,大理古城,,13,11,16,9,8,22,,,,4,8,7,7,0.5,0.5
2024-10-06T0300,1109A,121.612,38.9741,大连市,甘井子,,35,28,33,13,20,112,,,,15,23,8,9,0.7,0.8
2024-10-06T0300,1110A,121.565,38.9511,大连市,周水子,,42,42,40,26,22,60,,,,54,31,9,10,0.6,0.6
2024-10-06T0300,1111A,121.5637,38.8845,大连市,星海三站,,34,28,33,16,22,106,,,,10,18,6,8,0.4,0.4
2024-10-06T0300,1112A,121.6302,38.9117,大连市,青泥洼桥,,34,15,28,8,17,107,,,,10,14,7,8,0.4,0.4
2024-10-06T0300,1113A,121.6251,38.8638,大连市,傅家庄,,35,18,27,8,16,111,,,,8,9,8,9,0.4,0.5
2024-10-06T0300,1114A,121.5213,38.8661,大连市,七贤岭,,25,25,31,12,19,61,,,,15,18,7,8,0.5,0.6
2024-10-06T0300,1115A,121.2529,38.8061,大连市,旅顺,,36,13,41,11,22,115,,,,19,21,7,8,0.5,0.5
2024-10-06T0300,1116A,121.7485,39.1311,大连市,金州,,31,27,32,17,23,98,,,,16,19,9,8,0.5,0.6
2024-10-06T0300,1117A,121.7811,39.0496,大连市,开发区,,33,33,34,23,21,84,,,,27,23,10,11,0.4,0.4
2024-10-06T0300,1118A,121.9762,39.0631,大连市,双D港,,35,9,22,8,14,112,,,,13,17,7,8,0.6,0.6
2024-10-06T0300,1789A,124.81117,46.03138,大庆市,大同区,,25,23,38,17,24,45,,,,6,10,4,3,0.3,0.4
2024-10-06T0300,1790A,125.129,46.533,大庆市,龙凤区,,22,22,43,15,22,56,,,,3,13,3,3,0.2,0.4
2024-10-06T0300,1791A,124.902,46.408,大庆市,红岗区,,33,33,40,16,17,49,,,,9,12,6,7,0.3,0.4
2024-10-06T0300,1792A,125.153,46.586,大庆市,萨尔图区,,20,20,38,8,15,55,,,,3,14,5,6,0.1,0.3
2024-10-06T0300,1793A,124.9042,46.6215,大庆市,让胡路区,,35,24,39,24,24,45,,,,8,11,4,4,0.3,0.4
2024-10-06T0300,3481A,125.141,46.634,大庆市,萨区政府监测点,,18,18,33,8,17,51,,,,4,10,5,6,0.2,0.3
2024-10-06T0300,1721A,113.3819,40.1097,大同市,果树场,,40,40,66,19,31,20,,,,24,28,7,10,0.7,0.8
2024-10-06T0300,1723A,113.2994,40.0758,大同市,云冈宾馆,颗粒物(PM10),62,74,74,31,29,26,,,,41,46,10,11,1.2,0.9
2024-10-06T0300,1724A,113.3444,40.0917,大同市,大同大学,颗粒物(PM10),53,56,63,24,27,39,,,,33,41,18,16,0.6,0.8
2024-10-06T0300,1725A,113.2661,40.1269,大同市,安家小村,颗粒物(PM10),56,61,67,23,25,31,,,,38,38,13,16,0.5,0.7
2024-10-06T0300,1726A,113.2711,40.0844,大同市,教育学院,颗粒物(PM10),71,91,90,36,37,19,,,,59,59,13,13,2.0,1.3
2024-10-06T0300,3282A,113.3397,40.0597,大同市,大同市卫生学校,颗粒物(PM10),55,60,68,25,28,43,,,,30,40,12,11,0.8,0.8
2024-10-06T0300,3565A,113.1367,40.1122,大同市,云冈站,颗粒物(PM10),85,119,97,41,32,13,,,,34,32,11,13,0.7,0.6
2024-10-06T0300,3566A,113.1186,40.2556,大同市,图书馆,颗粒物(PM10),95,140,104,35,31,13,,,,34,31,10,14,1.0,0.7
2024-10-06T0300,3567A,113.5931,40.0461,大同市,区一中,,47,47,49,9,15,49,,,,18,21,7,11,0.5,0.6
2024-10-06T0300,3676A,113.2802,40.0995,大同市,第二人民医院,颗粒物(PM10),67,83,82,27,31,23,,,,51,48,19,17,2.0,1.1
2024-10-06T0300,2269A,124.1069,50.4097,大兴安岭地区,科技局,,22,16,18,15,17,42,,,,4,5,7,7,0.3,0.3
2024-10-06T0300,3663A,124.1164,50.4278,大兴安岭地区,红旗社区,,13,,11,9,9,36,,,,4,8,2,3,0.3,0.3
2024-10-06T0300,1600A,124.3303,40.0625,丹东市,江湾东路,颗粒物(PM10),51,52,49,28,30,40,,,,20,26,8,11,0.7,0.8
2024-10-06T0300,1601A,124.4256,40.1503,丹东市,临江后街,颗粒物(PM10),51,52,54,28,30,12,,,,27,20,6,7,0.8,0.9
2024-10-06T0300,1602A,124.3933,40.1461,丹东市,元宝山,,43,43,41,27,22,15,,,,22,17,4,5,0.7,0.7
2024-10-06T0300,1603A,124.3633,40.1092,丹东市,民主桥,,43,43,41,23,22,41,,,,16,22,5,6,0.6,0.6
2024-10-06T0300,3541A,109.5726,19.5167,儋州市,第一中学子站,,36,36,39,24,24,82,,,,6,6,9,7,0.6,0.6
2024-10-06T0300,3542A,109.5567,19.5187,儋州市,东坡学校子站,,37,37,39,22,23,95,,,,6,7,5,7,0.6,0.7
2024-10-06T0300,2616A,98.5842,24.428,德宏傣族景颇族自治州,德宏州监测站,,27,27,21,7,9,5,,,,10,13,4,12,0.5,0.4
2024-10-06T0300,3677A,98.5881,24.4368,德宏傣族景颇族自治州,芒市人民政府综合楼,,21,21,18,6,7,12,,,,6,11,4,8,0.4,0.5
2024-10-06T0300,1901A,104.4239,31.1208,德阳市,东山公园,,38,33,34,26,22,40,,,,15,18,2,2,0.5,0.5
2024-10-06T0300,1902A,104.3826,31.1317,德阳市,西小区,,40,40,40,28,26,71,,,,12,18,1,1,0.5,0.5
2024-10-06T0300,1904A,104.3553,31.1091,德阳市,耐火材料厂,,37,37,38,21,22,56,,,,19,16,3,3,0.2,0.2
2024-10-06T0300,3639A,104.4019,31.1244,德阳市,市教育局,细颗粒物(PM2.5),52,48,40,36,26,53,,,,24,21,1,2,0.4,0.4
2024-10-06T0300,1622A,116.3032,37.4674,德州市,儿童乐园,细颗粒物(PM2.5),83,102,84,61,44,43,,,,60,36,9,12,0.7,0.6
2024-10-06T0300,1624A,116.2991,37.4451,德州市,监理站,细颗粒物(PM2.5),94,114,80,70,44,25,,,,84,40,8,10,0.6,0.6
2024-10-06T0300,3066A,116.2721,37.4379,德州市,九衢泉纯净水厂,颗粒物(PM10),84,117,90,58,44,15,,,,88,54,9,11,0.7,0.7
2024-10-06T0300,3371A,116.3728,37.4403,德州市,开发区人民医院,"颗粒物(PM10),细颗粒物(PM2.5)",73,95,78,53,38,15,,,,85,37,10,13,0.4,0.5
2024-10-06T0300,3372A,116.3572,37.4094,德州市,太阳城中学,细颗粒物(PM2.5),85,105,84,63,42,6,,,,90,49,8,12,0.7,0.6
2024-10-06T0300,3511A,116.5652,37.3319,德州市,陵城艺术中心,细颗粒物(PM2.5),98,107,82,73,45,6,,,,107,58,12,11,0.6,0.6
2024-10-06T0300,2621A,99.7056,27.8317,迪庆藏族自治州,迪庆州站,,15,10,15,10,9,31,,,,9,11,8,9,0.3,0.4
2024-10-06T0300,3180A,99.7136,27.8094,迪庆藏族自治州,质量技术监督局,,13,11,14,9,8,35,,,,9,8,6,6,0.5,0.5
2024-10-06T0300,2663A,104.6241,35.5734,定西市,东关小学,细颗粒物(PM2.5),59,63,41,42,28,1,,,,30,18,6,6,0.5,0.4
2024-10-06T0300,2664A,104.6194,35.5934,定西市,供电公司,,49,49,40,19,21,0,,,,33,20,9,7,0.6,0.5
2024-10-06T0300,1389A,113.7547,23.0494,东莞市,莞城梨川,,34,34,35,21,19,76,,,,14,16,8,8,0.6,0.6
2024-10-06T0300,1390A,113.7944,23.0128,东莞市,东城石井,,36,36,34,22,19,45,,,,19,16,6,8,0.8,0.7
2024-10-06T0300,1391A,113.7383,22.9658,东莞市,南城西平,,28,,28,19,20,52,,,,32,21,4,3,0.7,0.7
2024-10-06T0300,3319A,113.7338,23.0381,东莞市,万江金泰,,34,34,34,19,19,71,,,,14,15,9,7,0.5,0.5
2024-10-06T0300,3626A,113.7533,23.0202,东莞市,南城元岭,,34,34,35,19,20,74,,,,11,13,9,9,0.6,0.6
2024-10-06T0300,3627A,113.7875,23.0457,东莞市,东城主山,,29,29,38,19,20,77,,,,16,20,9,9,0.5,0.5
2024-10-06T0300,1666A,118.6614,37.4309,东营市,市环保局,,48,48,89,29,49,85,,,,20,33,17,13,0.6,0.7
2024-10-06T0300,3036A,118.6904,37.4338,东营市,开发区管委会,颗粒物(PM10),69,88,88,27,49,92,,,,20,33,12,10,0.4,0.5
2024-10-06T0300,3365A,118.5719,37.565,东营市,垦利区民丰路,,34,34,82,19,50,99,,,,20,50,11,15,0.5,0.7
2024-10-06T0300,3498A,118.5055,37.8612,东营市,河口城区,"颗粒物(PM10),细颗粒物(PM2.5)",70,90,94,51,54,140,,,,20,31,8,11,0.6,0.5
2024-10-06T0300,3646A,118.4978,37.4623,东营市,胜利站,颗粒物(PM10),56,61,95,3,50,109,,,,10,44,10,27,0.2,0.7
2024-10-06T0300,1591A,110.0023,39.8129,鄂尔多斯市,综合楼,,48,48,71,7,22,52,,,,32,36,7,11,0.4,0.8
2024-10-06T0300,1592A,109.9486,39.8261,鄂尔多斯市,巴音孟克林场办事处,,36,36,60,9,25,55,,,,25,36,7,11,0.5,0.7
2024-10-06T0300,1593A,109.7736,39.5986,鄂尔多斯市,康泽苑,,41,41,53,19,23,59,,,,12,29,7,8,0.5,0.6
2024-10-06T0300,1594A,109.8119,39.5989,鄂尔多斯市,华泰汽车城,,48,48,53,22,26,48,,,,17,36,9,11,0.6,0.7
2024-10-06T0300,1595A,109.9734,39.7884,鄂尔多斯市,奥林花园,,46,46,66,12,26,53,,,,30,43,6,7,0.5,0.8
2024-10-06T0300,2436A,114.8938,30.3994,鄂州市,市政府,,44,44,38,29,25,67,,,,29,25,11,12,0.8,0.7
2024-10-06T0300,2437A,114.8989,30.3714,鄂州市,赵家坝,,43,43,44,28,24,84,,,,20,23,11,13,0.6,0.6
2024-10-06T0300,3654A,114.8094,30.4089,鄂州市,精准医疗中心,颗粒物(PM10),55,60,48,31,26,84,,,,18,17,4,7,0.7,0.7
2024-10-06T0300,2454A,109.4978,30.2981,恩施土家族苗族自治州,湖北民院,细颗粒物(PM2.5),55,46,46,39,34,55,,,,8,18,9,9,0.6,0.6
2024-10-06T0300,2455A,109.4707,30.2798,恩施土家族苗族自治州,州电力总公司,,46,41,43,32,31,53,,,,18,22,7,7,0.7,0.7
2024-10-06T0300,3549A,109.5061,30.3772,恩施土家族苗族自治州,龙凤新区,细颗粒物(PM2.5),52,47,43,36,31,50,,,,11,18,6,6,0.7,0.7
2024-10-06T0300,2499A,108.3411,21.6158,防城港市,沙万,,46,46,50,25,27,96,,,,19,15,8,10,0.7,0.7
2024-10-06T0300,2500A,108.3514,21.7731,防城港市,防城档案局,颗粒物(PM10),97,144,96,39,38,44,,,,54,32,8,11,0.6,0.6
2024-10-06T0300,2501A,108.3506,21.6414,防城港市,大海花园,,48,48,52,30,28,108,,,,11,12,9,9,0.6,0.8
2024-10-06T0300,1371A,113.1294,23.0067,佛山市,湾梁,,39,39,36,21,20,63,,,,32,25,8,9,0.6,0.6
2024-10-06T0300,1372A,113.1083,23.0478,佛山市,华材职中,颗粒物(PM10),59,68,42,34,26,50,,,,40,29,9,10,0.6,0.6
2024-10-06T0300,1373A,113.144,23.0453,佛山市,南海气象局,,42,42,36,21,21,64,,,,26,21,8,9,0.7,0.6
2024-10-06T0300,1374A,113.2881,22.8094,佛山市,顺德苏岗,,32,22,28,22,17,68,,,,19,21,11,9,0.7,0.7
2024-10-06T0300,1376A,112.8383,22.8678,佛山市,高明孔堂,,43,42,40,30,27,71,,,,23,21,12,10,0.6,0.6
2024-10-06T0300,1377A,112.8836,23.1588,佛山市,三水监测站,,40,31,38,28,27,76,,,,23,24,11,9,0.5,0.5
2024-10-06T0300,1378A,112.867,23.185,佛山市,三水云东海,,33,29,33,23,23,52,,,,26,27,11,10,0.6,0.5
2024-10-06T0300,1282A,119.2681,26.0504,福州市,师大,,19,19,16,6,7,41,,,,7,8,2,2,0.3,0.3
2024-10-06T0300,1283A,119.2984,26.1028,福州市,五四北路,,23,21,18,16,9,26,,,,13,16,3,3,0.4,0.4
2024-10-06T0300,1284A,119.2648,26.0768,福州市,杨桥西路,,19,19,17,13,10,41,,,,8,10,3,3,0.5,0.4
2024-10-06T0300,1285A,119.317,26.0746,福州市,紫阳,,22,21,21,15,13,27,,,,13,21,6,6,0.5,0.6
2024-10-06T0300,3048A,119.5799,26.0936,福州市,九龙,,23,23,14,15,6,4,,,,36,15,6,6,0.6,0.5
2024-10-06T0300,3526A,119.5189,25.9664,福州市,吴航,,28,24,17,19,13,20,,,,20,21,6,6,0.6,0.6
2024-10-06T0300,1755A,123.7977,41.8491,抚顺市,望花区,颗粒物(PM10),89,128,79,57,40,20,,,,43,39,7,9,0.8,0.9
2024-10-06T0300,1756A,123.9161,41.8822,抚顺市,顺城区,颗粒物(PM10),62,73,64,42,36,35,,,,32,37,5,8,0.7,0.7
2024-10-06T0300,1757A,124.0436,41.8611,抚顺市,东洲区,细颗粒物(PM2.5),98,81,51,73,38,7,,,,37,18,7,9,0.8,0.6
2024-10-06T0300,1758A,123.9247,41.8642,抚顺市,新抚区,细颗粒物(PM2.5),79,76,66,58,34,15,,,,36,38,4,6,0.7,0.7
2024-10-06T0300,1759A,124.0972,41.8961,抚顺市,大伙房水库,细颗粒物(PM2.5),69,77,48,50,32,41,,,,28,15,7,9,0.7,0.6
2024-10-06T0300,1760A,123.7086,41.8391,抚顺市,沈抚新城,细颗粒物(PM2.5),70,84,66,51,37,18,,,,46,33,10,11,1.1,0.5
2024-10-06T0300,2376A,116.2127,28.0814,抚州市,桐源党溪,,43,43,44,27,23,57,,,,2,5,5,6,0.8,0.7
2024-10-06T0300,2377A,116.3544,27.9831,抚州市,市站,,45,45,39,21,20,50,,,,12,10,3,3,0.8,0.7
2024-10-06T0300,2378A,116.3565,27.963,抚州市,血防站,,37,37,39,20,19,56,,,,13,12,3,4,0.6,0.6
2024-10-06T0300,2379A,116.3564,28.0007,抚州市,采茶剧团,,31,31,39,20,21,52,,,,6,7,4,5,0.7,0.7
2024-10-06T0300,2380A,116.385,27.9647,抚州市,医学分院,,44,44,41,18,19,69,,,,10,9,4,4,0.6,0.7
2024-10-06T0300,2207A,121.6094,41.998,阜新市,工业园区,,35,35,79,15,34,19,,,,33,43,8,18,0.7,1.1
2024-10-06T0300,2208A,121.6697,42.0279,阜新市,长青街,,31,31,80,19,36,40,,,,18,25,6,17,0.6,0.9
2024-10-06T0300,2209A,121.6673,42.0705,阜新市,农业园区,,28,28,61,12,57,52,,,,13,21,6,17,0.4,0.8
2024-10-06T0300,2210A,121.6717,42.0224,阜新市,东苑,颗粒物(PM10),63,75,76,21,35,36,,,,38,48,12,27,0.9,1.1
2024-10-06T0300,2211A,121.6506,42.0498,阜新市,玉龙新城,,24,24,72,16,34,37,,,,25,42,7,15,0.3,0.8
2024-10-06T0300,2301A,115.8277,32.8929,阜阳市,市监测站,颗粒物(PM10),52,54,45,31,23,45,,,,19,16,6,7,0.4,0.4
2024-10-06T0300,2303A,115.8554,32.8605,阜阳市,开发区,颗粒物(PM10),51,51,67,31,27,43,,,,20,20,6,7,0.3,0.4
2024-10-06T0300,2875A,115.784,32.8892,阜阳市,阜阳职业技术学院,,50,50,48,27,23,38,,,,24,17,5,7,0.4,0.3
2024-10-06T0300,3468A,115.7901,32.8613,阜阳市,市规划展馆,细颗粒物(PM2.5),68,58,48,49,25,41,,,,25,19,6,8,0.6,0.5
2024-10-06T0300,3469A,115.836,32.9183,阜阳市,枣园社区,细颗粒物(PM2.5),65,62,48,47,25,39,,,,19,18,7,9,0.5,0.4
2024-10-06T0300,2669A,102.9099,34.9841,甘南藏族自治州,州政府,,27,27,26,14,17,83,,,,6,14,11,11,0.4,0.5
2024-10-06T0300,3380A,102.8914,34.9617,甘南藏族自治州,甘肃民族师范学院,,34,34,33,3,18,78,,,,10,18,4,4,0.5,0.5
2024-10-06T0300,2570A,101.9603,30.0475,甘孜藏族自治州,水桥子,,13,,4,6,5,39,,,,5,9,6,6,0.3,0.3
2024-10-06T0300,3065A,101.9533,29.9972,甘孜藏族自治州,州环保局,,11,,6,3,5,33,,,,10,12,3,3,0.3,0.3
2024-10-06T0300,3414A,115.8347,28.932,赣江新区,桑海产业园,,36,31,44,25,23,67,,,,14,19,11,12,0.8,0.6
2024-10-06T0300,2362A,114.9017,25.9149,赣州市,通天岩,,43,43,33,28,27,65,,,,8,9,14,18,0.4,0.4
2024-10-06T0300,2363A,114.9367,25.8664,赣州市,地委,,46,42,34,32,24,95,,,,14,12,8,4,1.2,1.1
2024-10-06T0300,2364A,114.9461,25.8481,赣州市,气象台,,50,47,38,35,23,106,,,,9,10,27,7,0.6,0.6
2024-10-06T0300,2365A,114.9322,25.8333,赣州市,市图书馆,,44,44,35,24,20,122,,,,8,8,8,6,0.7,0.7
2024-10-06T0300,2366A,114.8905,25.8471,赣州市,华坚鞋城,,35,35,32,17,20,109,,,,8,9,4,6,0.5,0.4
2024-10-06T0300,3109A,115.0093,25.8613,赣州市,赣县区卫计委,,43,36,39,30,23,79,,,,19,14,6,8,0.6,0.6
2024-10-06T0300,2683A,106.2319,36.1417,固原市,马园,,44,44,40,25,19,12,,,,25,25,6,6,0.5,0.6
2024-10-06T0300,2684A,106.2792,36.0022,固原市,监测站,,48,46,31,33,23,3,,,,35,23,7,6,0.6,0.5
2024-10-06T0300,2685A,106.2375,36.0211,固原市,新区,,29,29,28,18,17,15,,,,28,20,5,5,0.4,0.4
2024-10-06T0300,3522A,106.2177,35.9959,固原市,原州区十五小,,35,35,32,18,17,53,,,,16,20,6,5,0.5,0.5
2024-10-06T0300,2544A,106.6303,30.4576,广安市,市委,细颗粒物(PM2.5),92,94,85,68,54,64,,,,24,28,2,8,0.5,0.5
2024-10-06T0300,2545A,106.6271,30.4663,广安市,友谊中学,细颗粒物(PM2.5),77,80,70,56,51,68,,,,22,28,7,9,0.6,0.6
2024-10-06T0300,2547A,106.6388,30.4551,广安市,广电花园,细颗粒物(PM2.5),83,81,74,61,54,65,,,,23,26,5,10,0.6,0.6
2024-10-06T0300,2902A,106.6351,30.4865,广安市,北辰小学,细颗粒物(PM2.5),85,87,79,63,49,70,,,,18,26,8,12,0.5,0.6
2024-10-06T0300,2523A,105.8945,32.4535,广元市,黑石坡,,35,35,25,19,17,14,,,,16,11,14,14,0.4,0.4
2024-10-06T0300,2524A,105.821,32.4444,广元市,老城,,35,30,33,24,15,3,,,,35,29,3,3,0.5,0.6
2024-10-06T0300,2526A,105.8628,32.4287,广元市,监测站,,46,36,32,32,24,22,,,,17,22,2,3,0.5,0.6
2024-10-06T0300,3617A,105.8047,32.4166,广元市,经开区,,43,42,52,30,30,21,,,,21,29,4,13,0.6,0.7
2024-10-06T0300,1345A,113.2347,23.1423,广州市,广雅中学,,46,46,45,25,24,53,,,,37,28,7,9,0.7,0.8
2024-10-06T0300,1346A,113.2612,23.105,广州市,市五中,,37,37,40,23,24,80,,,,17,16,4,5,0.6,0.6
2024-10-06T0300,1348A,113.3478,23.0916,广州市,广东商学院,,38,34,41,26,24,65,,,,24,23,6,6,0.7,0.7
2024-10-06T0300,1349A,113.4332,23.1047,广州市,市八十六中,,31,31,37,20,20,62,,,,28,22,4,4,0.6,0.6
2024-10-06T0300,1350A,113.3505,22.9483,广州市,番禺中学,,36,32,35,25,25,48,,,,24,19,7,7,0.6,0.6
2024-10-06T0300,1351A,113.2146,23.3916,广州市,花都师范,,36,35,36,23,23,114,,,,9,12,7,10,0.3,0.5
2024-10-06T0300,1352A,113.2597,23.1331,广州市,市监测站,,36,36,37,23,21,66,,,,26,23,5,6,0.8,0.8
2024-10-06T0300,1353A,113.5618,23.312,广州市,九龙镇镇龙,,40,40,34,27,23,49,,,,24,17,6,7,0.6,0.6
2024-10-06T0300,1354A,113.2765,23.1544,广州市,麓湖,,31,31,37,21,21,60,,,,23,21,7,7,0.5,0.6
2024-10-06T0300,1355A,113.443,23.3035,广州市,帽峰山森林公园,,26,24,23,18,18,68,,,,15,9,7,7,0.4,0.5
2024-10-06T0300,2846A,113.3221,23.1322,广州市,体育西,,39,33,35,27,25,57,,,,24,19,4,5,0.6,0.6
2024-10-06T0300,3298A,113.5717,23.5491,广州市,从化街口,,29,27,36,20,23,68,,,,21,18,9,10,0.6,0.6
2024-10-06T0300,3299A,113.3472,23.3692,广州市,白云竹料,,28,26,36,18,22,87,,,,15,14,6,8,0.6,0.6
2024-10-06T0300,3300A,113.2981,23.237,广州市,白云嘉禾,,45,45,46,26,23,48,,,,24,19,6,7,0.8,0.7
2024-10-06T0300,3301A,113.4256,23.1716,广州市,黄埔科学城,,37,37,34,23,20,42,,,,29,17,6,8,0.8,0.7
2024-10-06T0300,3302A,113.3942,23.0483,广州市,番禺大学城,,38,32,34,26,21,60,,,,24,23,11,12,0.4,0.2
2024-10-06T0300,3303A,113.4922,22.8168,广州市,南沙黄阁,,41,41,43,24,24,53,,,,34,32,15,10,0.8,0.8
2024-10-06T0300,3304A,113.5342,22.7896,广州市,南沙街,,43,43,38,25,21,49,,,,32,26,14,10,0.9,0.7
2024-10-06T0300,3443A,113.2902,23.5544,广州市,花都梯面,,34,32,30,21,18,106,,,,8,11,10,11,0.5,0.6
2024-10-06T0300,3445A,113.7858,23.7478,广州市,从化良口,,24,24,25,14,17,58,,,,8,8,8,8,0.6,0.6
2024-10-06T0300,3446A,113.8051,23.2614,广州市,增城荔城,,29,25,29,14,18,91,,,,9,11,8,7,0.5,0.6
2024-10-06T0300,2506A,109.6047,23.0666,贵港市,江南子站,颗粒物(PM10),96,141,91,53,42,25,,,,61,32,9,11,0.8,0.8
2024-10-06T0300,2507A,109.6014,23.0948,贵港市,贵城子站,细颗粒物(PM2.5),73,82,65,53,37,34,,,,49,21,8,10,0.8,0.8
2024-10-06T0300,2508A,109.5669,23.1065,贵港市,荷城子站,颗粒物(PM10),59,68,56,34,24,62,,,,40,18,11,12,0.7,0.6
2024-10-06T0300,3405A,109.5886,23.1172,贵港市,新世纪学校,,46,46,54,21,25,121,,,,12,13,9,9,0.5,0.6
2024-10-06T0300,1439A,106.6899,26.5998,贵阳市,马鞍山,,46,46,39,31,20,74,,,,11,12,5,4,0.7,0.6
2024-10-06T0300,1440A,106.6971,26.5694,贵阳市,市环保站,细颗粒物(PM2.5),67,58,43,48,31,94,,,,9,10,6,6,0.5,0.4
2024-10-06T0300,1441A,106.6243,26.6266,贵阳市,鉴湖路,颗粒物(PM10),54,58,46,34,25,83,,,,9,10,9,5,0.5,0.4
2024-10-06T0300,1442A,106.7487,26.6343,贵阳市,燕子冲,细颗粒物(PM2.5),55,44,35,39,27,83,,,,7,8,7,7,0.5,0.4
2024-10-06T0300,1443A,106.6555,26.4365,贵阳市,碧云窝,,48,48,54,31,24,106,,,,8,12,7,7,0.4,0.4
2024-10-06T0300,1444A,106.694,26.5161,贵阳市,中院村,颗粒物(PM10),52,53,41,31,25,97,,,,9,12,10,9,0.5,0.6
2024-10-06T0300,1445A,106.7109,26.6027,贵阳市,红边门,细颗粒物(PM2.5),73,70,46,53,31,82,,,,13,14,10,7,0.6,0.5
2024-10-06T0300,1446A,106.7164,26.5699,贵阳市,新华路,,49,44,40,34,25,95,,,,8,10,8,7,0.4,0.4
2024-10-06T0300,1447A,106.674,26.5424,贵阳市,太慈桥,,49,46,42,34,22,94,,,,10,11,7,7,0.4,0.3
2024-10-06T0300,1862A,110.4144,25.3167,桂林市,电子科大尧山校区,,44,44,44,28,30,128,,,,10,9,13,10,0.6,0.6
2024-10-06T0300,1863A,110.2819,25.2697,桂林市,监测站,,45,44,46,31,32,139,,,,8,13,9,11,0.4,0.4
2024-10-06T0300,1864A,110.3089,25.2708,桂林市,龙隐路小学,,43,38,41,26,32,136,,,,8,8,18,17,0.7,0.7
2024-10-06T0300,1865A,110.2869,25.2178,桂林市,八中,,48,43,45,33,32,127,,,,11,15,11,13,0.7,0.7
2024-10-06T0300,3403A,110.1764,25.2381,桂林市,创业大厦,颗粒物(PM10),53,56,49,36,35,126,,,,12,11,23,19,0.4,0.4
2024-10-06T0300,3531A,110.296,25.1253,桂林市,旅游学院,,,,43,,29,,,,,,16,,14,,0.4
2024-10-06T0300,2674A,100.2561,34.4714,果洛藏族自治州,玛沁县大武镇,,20,18,16,12,13,61,,,,3,2,8,9,0.5,0.4
2024-10-06T0300,1129A,126.5422,45.755,哈尔滨市,岭北,,25,18,34,9,25,79,,,,15,15,8,10,0.2,0.3
2024-10-06T0300,1130A,126.561,45.8167,哈尔滨市,松北商大,,24,24,40,12,20,36,,,,20,21,8,9,0.3,0.5
2024-10-06T0300,1131A,126.979,45.5419,哈尔滨市,阿城会宁,,25,25,52,12,27,33,,,,24,23,11,11,0.4,0.7
2024-10-06T0300,1132A,126.599,45.7222,哈尔滨市,南岗学府路,,26,26,53,6,21,51,,,,14,16,6,8,0.2,0.4
2024-10-06T0300,1133A,126.689,45.7733,哈尔滨市,太平宏伟公园,,17,17,50,11,24,39,,,,17,19,4,6,0.3,0.5
2024-10-06T0300,1134A,126.635,45.7667,哈尔滨市,道外承德广场,,25,25,59,7,22,50,,,,14,21,5,6,0.5,0.7
2024-10-06T0300,1135A,126.685,45.7319,哈尔滨市,香坊红旗大街,,22,22,51,6,24,47,,,,14,19,5,8,0.4,0.7
2024-10-06T0300,1136A,126.6411,45.7258,哈尔滨市,动力和平路,,16,14,46,3,29,51,,,,10,17,7,10,0.4,0.6
2024-10-06T0300,1137A,126.593,45.7478,哈尔滨市,道里建国路,,19,19,49,7,25,49,,,,14,23,14,15,0.2,0.8
2024-10-06T0300,1138A,126.615,45.61,哈尔滨市,平房东轻厂,,41,41,55,15,21,32,,,,34,29,6,7,0.4,0.6
2024-10-06T0300,1139A,126.595,45.9855,哈尔滨市,呼兰师专,,14,14,44,9,25,39,,,,15,21,4,6,0.4,0.5
2024-10-06T0300,1140A,126.6206,45.6842,哈尔滨市,省农科院,,16,16,67,6,31,50,,,,12,23,6,5,0.5,0.6
2024-10-06T0300,2688A,93.5128,42.8172,哈密市,地区监测站,颗粒物(PM10),71,91,47,25,19,17,,,,71,26,4,6,0.3,0.3
2024-10-06T0300,2689A,93.4961,42.8328,哈密市,哈密师范学校,,46,46,49,29,23,14,,,,42,30,5,6,0.6,0.5
2024-10-06T0300,2671A,100.9048,36.9639,海北藏族自治州,海晏县西海镇,,34,34,24,20,20,96,,,,8,7,11,12,0.6,0.5
2024-10-06T0300,3867A,102.0738,36.5056,海东市,平安区公安北苑,,42,42,53,27,33,77,,,,13,24,30,19,1.1,0.8
2024-10-06T0300,1410A,110.3232,20.0574,海口市,海南大学,,45,34,36,21,20,142,,,,8,8,5,5,0.4,0.5
2024-10-06T0300,1411A,110.283,20.0053,海口市,秀英海南医院,,43,32,35,21,22,136,,,,12,12,7,8,0.4,0.4
2024-10-06T0300,1412A,110.338,19.9969,海口市,海南师范大学,,43,28,36,21,21,136,,,,9,9,8,9,0.5,0.5
2024-10-06T0300,1413A,110.33,20.0356,海口市,龙华路环保局宿舍,,45,30,36,20,21,141,,,,7,8,6,7,0.4,0.4
2024-10-06T0300,3539A,110.5111,19.9736,海口市,桂林洋子站,,43,38,38,21,22,137,,,,8,9,8,9,0.4,0.4
2024-10-06T0300,2673A,100.6188,36.2866,海南藏族自治州,共和县恰卜恰镇,,27,27,31,17,16,65,,,,9,8,13,11,0.6,0.6
2024-10-06T0300,2676A,97.3731,37.3753,海西蒙古族藏族自治州,德令哈市,,33,33,38,12,13,82,,,,6,11,8,10,0.5,0.5
2024-10-06T0300,1048A,114.5302,36.6116,邯郸市,东污水处理厂,颗粒物(PM10),60,69,65,36,34,14,,,,60,29,3,3,0.5,0.5
2024-10-06T0300,1049A,114.4918,36.5713,邯郸市,矿院,细颗粒物(PM2.5),67,71,72,48,36,24,,,,44,26,5,5,0.5,0.4
2024-10-06T0300,1050A,114.484,36.6133,邯郸市,丛台公园,细颗粒物(PM2.5),62,63,61,44,36,48,,,,31,27,5,3,0.6,0.4
2024-10-06T0300,3458A,114.7895,36.5593,邯郸市,香泉濮院小区,细颗粒物(PM2.5),54,,78,38,38,28,,,,39,22,4,5,0.4,0.3
2024-10-06T0300,3579A,114.50634,36.77178,邯郸市,永年区实验高中,颗粒物(PM10),68,85,82,40,40,42,,,,32,28,7,7,0.8,0.6
2024-10-06T0300,3580A,114.20016,36.44293,邯郸市,峰峰矿区临水派出所,颗粒物(PM10),56,61,51,33,29,90,,,,18,18,12,8,0.8,0.7
2024-10-06T0300,2634A,106.9893,33.1842,汉中市,汉川机床厂子校,,36,27,34,25,19,49,,,,8,9,5,6,0.6,0.6
2024-10-06T0300,2635A,107.0154,33.0706,汉中市,市监测站,,46,43,48,32,31,33,,,,10,16,7,10,0.6,0.6
2024-10-06T0300,2636A,107.0089,33.1138,汉中市,鑫源开发区,,50,50,52,26,22,41,,,,16,22,10,13,0.4,0.5
2024-10-06T0300,2637A,107.007,33.0323,汉中市,南郑大河坎水厂,,44,44,47,28,30,36,,,,11,17,10,9,0.5,0.6
2024-10-06T0300,1223A,120.2072,30.2111,杭州市,滨江,,20,12,24,7,11,64,,,,9,22,4,4,0.5,0.6
2024-10-06T0300,1224A,120.0633,30.2747,杭州市,西溪,,21,21,29,11,15,48,,,,13,20,5,5,0.6,0.7
2024-10-06T0300,1226A,120.3461,30.3153,杭州市,下沙,,18,18,25,11,19,56,,,,21,30,6,6,0.6,0.6
2024-10-06T0300,1227A,120.1269,30.2456,杭州市,卧龙桥,,16,16,25,9,16,50,,,,12,18,5,5,0.4,0.5
2024-10-06T0300,1228A,120.1903,30.2692,杭州市,浙江农大,,16,15,18,11,13,46,,,,14,20,8,8,0.5,0.6
2024-10-06T0300,1230A,120.1197,30.3119,杭州市,和睦小学,,18,15,22,11,18,57,,,,16,24,7,7,0.5,0.5
2024-10-06T0300,1231A,120.3019,30.4183,杭州市,临平镇,,21,18,26,10,11,66,,,,12,17,4,4,0.5,0.6
2024-10-06T0300,1232A,120.2697,30.1819,杭州市,城厢镇,,22,10,23,9,17,69,,,,9,19,6,6,0.6,0.6
2024-10-06T0300,1233A,120.0883,30.1808,杭州市,云栖,,11,8,14,6,13,35,,,,11,16,6,6,0.6,0.6
2024-10-06T0300,3557A,119.9464,30.0494,杭州市,镇二中,,20,,19,12,20,63,,,,13,21,8,8,0.4,0.6
2024-10-06T0300,3558A,119.7183,30.2367,杭州市,市府大楼,,23,6,20,3,10,73,,,,7,15,5,6,0.5,0.6
2024-10-06T0300,3656A,120.1556,30.2864,杭州市,消防大队,,19,18,32,13,18,60,,,,12,20,8,8,0.3,0.4
2024-10-06T0300,1270A,117.1959,31.7848,合肥市,明珠广场,,28,22,27,19,15,60,,,,15,19,10,11,0.5,0.5
2024-10-06T0300,1271A,117.3072,31.8764,合肥市,三里街,,25,,27,17,14,54,,,,10,14,3,5,0.5,0.6
2024-10-06T0300,1272A,117.2588,31.8707,合肥市,琥珀山庄,,36,,29,25,21,60,,,,18,19,7,8,0.5,0.5
2024-10-06T0300,1273A,117.1604,31.9052,合肥市,董铺水库,,28,24,29,19,14,56,,,,10,14,4,4,0.3,0.4
2024-10-06T0300,1274A,117.25,31.8571,合肥市,长江中路,,32,29,38,22,21,57,,,,13,16,7,9,0.8,0.8
2024-10-06T0300,1275A,117.266,31.9436,合肥市,庐阳区,,23,17,30,9,14,71,,,,8,15,3,4,0.5,0.5
2024-10-06T0300,1276A,117.336,31.8586,合肥市,瑶海区,,25,17,32,17,14,65,,,,11,19,5,6,0.4,0.4
2024-10-06T0300,1277A,117.3027,31.7964,合肥市,包河区,,25,17,31,17,16,45,,,,25,28,5,6,0.6,0.6
2024-10-06T0300,1278A,117.2776,31.7385,合肥市,滨湖新区,,28,22,31,19,17,63,,,,14,17,4,5,0.4,0.4
2024-10-06T0300,1279A,117.1318,31.8403,合肥市,高新区,,29,,27,20,17,56,,,,15,17,6,7,0.7,0.7
2024-10-06T0300,3464A,117.3803,31.9147,合肥市,高教基地,,24,24,29,15,20,61,,,,7,10,3,5,0.3,0.4
2024-10-06T0300,3614A,79.924,37.0877,和田地区,地区环保局,颗粒物(PM10),106,161,160,36,47,53,,,,23,14,10,7,0.5,0.4
2024-10-06T0300,3615A,79.9131,37.113,和田地区,市环保局,颗粒物(PM10),75,100,137,41,45,60,,,,18,18,9,7,0.4,0.4
2024-10-06T0300,2516A,108.2011,24.715,河池市,东仁乐园,,42,36,49,29,28,33,,,,10,11,3,5,0.6,0.6
2024-10-06T0300,2517A,108.0497,24.6947,河池市,市环保站,,49,40,47,34,31,32,,,,25,18,11,17,0.7,0.6
2024-10-06T0300,2518A,108.0983,24.6989,河池市,市疾控中心,细颗粒物(PM2.5),53,40,51,37,32,21,,,,30,23,11,13,0.6,0.6
2024-10-06T0300,1696A,114.6778,23.7569,河源市,源西,,33,28,30,23,21,77,,,,15,14,8,7,0.5,0.5
2024-10-06T0300,1697A,114.6944,23.7586,河源市,东埔,,40,30,33,28,19,79,,,,14,13,9,6,0.8,0.7
2024-10-06T0300,1698A,114.6892,23.7233,河源市,老城,,39,30,31,27,19,85,,,,12,14,8,6,0.6,0.6
2024-10-06T0300,1718A,115.4208,35.2464,菏泽市,气象局,颗粒物(PM10),53,55,49,24,23,75,,,,37,26,6,5,0.3,0.3
2024-10-06T0300,1719A,115.4747,35.2375,菏泽市,市政协,颗粒物(PM10),51,52,49,23,26,55,,,,34,23,6,6,0.4,0.3
2024-10-06T0300,3374A,115.5564,35.0891,菏泽市,定陶老年大学,,48,48,52,24,24,35,,,,25,20,7,8,0.3,0.3
2024-10-06T0300,3647A,115.4702,35.2706,菏泽市,菏泽医专,颗粒物(PM10),54,58,49,34,25,17,,,,76,30,9,10,0.8,0.7
2024-10-06T0300,2514A,111.5264,24.4172,贺州市,环保小区,,42,40,48,29,31,74,,,,20,16,9,8,0.6,0.6
2024-10-06T0300,2515A,111.5608,24.4078,贺州市,政协大楼,颗粒物(PM10),51,51,50,30,29,97,,,,14,17,10,7,0.7,0.7
2024-10-06T0300,3534A,111.4744,24.4553,贺州市,西湾,细颗粒物(PM2.5),52,41,48,36,32,83,,,,18,14,9,8,0.6,0.6
2024-10-06T0300,2385A,114.17,35.9019,鹤壁市,市监测站,颗粒物(PM10),59,68,66,33,33,43,,,,25,34,4,5,0.6,0.7
2024-10-06T0300,2386A,114.2956,35.7511,鹤壁市,市交警支队,颗粒物(PM10),62,74,64,32,29,16,,,,49,38,3,3,0.4,0.4
2024-10-06T0300,2387A,114.2878,35.7306,鹤壁市,迎宾馆,"颗粒物(PM10),细颗粒物(PM2.5)",54,57,67,38,36,34,,,,32,38,4,7,0.6,0.6
2024-10-06T0300,3474A,114.2617,35.6822,鹤壁市,大新区,细颗粒物(PM2.5),64,55,66,46,37,30,,,,30,39,1,3,0.3,0.3
2024-10-06T0300,3596A,114.1572,35.9603,鹤壁市,南山宾馆,细颗粒物(PM2.5),64,62,65,46,38,92,,,,11,20,1,2,0.5,0.4
2024-10-06T0300,2244A,130.2537,47.3416,鹤岗市,哈啤分公司,,33,33,42,18,23,58,,,,2,17,12,18,0.4,0.6
2024-10-06T0300,2245A,130.2684,47.3086,鹤岗市,斯达机电,,32,32,46,19,26,61,,,,3,16,13,15,0.3,0.4
2024-10-06T0300,2246A,130.3114,47.3388,鹤岗市,东山纸板厂,,29,20,55,20,31,58,,,,3,20,17,18,0.2,0.6
2024-10-06T0300,2247A,130.1097,47.3382,鹤岗市,五号水库,,22,22,30,15,16,66,,,,3,7,8,9,0.1,0.1
2024-10-06T0300,2263A,127.4833,50.2524,黑河市,交通局,,15,12,24,9,18,48,,,,3,9,6,7,0.3,0.3
2024-10-06T0300,2264A,127.5144,50.2341,黑河市,环保局,,20,,19,14,16,62,,,,2,7,5,5,0.2,0.3
2024-10-06T0300,2265A,127.5291,50.2472,黑河市,大黑河岛,,,,,4,15,54,,,,5,15,2,5,0.1,0.1
2024-10-06T0300,1074A,115.6838,37.7541,衡水市,电机北厂,颗粒物(PM10),65,80,67,46,31,82,,,,22,18,8,9,0.3,0.4
2024-10-06T0300,1075A,115.6303,37.7316,衡水市,市监测站,细颗粒物(PM2.5),65,71,71,47,30,67,,,,42,31,8,9,0.4,0.5
2024-10-06T0300,3188A,115.6683,37.7217,衡水市,市城管局,颗粒物(PM10),63,75,70,41,34,65,,,,41,33,7,7,0.4,0.4
2024-10-06T0300,3459A,115.5989,37.5491,衡水市,地表水厂,颗粒物(PM10),61,71,70,38,35,53,,,,39,41,3,5,0.3,0.4
2024-10-06T0300,2456A,112.5003,26.9167,衡阳市,原169医院,细颗粒物(PM2.5),55,54,49,39,32,101,,,,21,20,16,16,0.7,0.7
2024-10-06T0300,2457A,112.6194,26.9258,衡阳市,衡阳化工总厂,细颗粒物(PM2.5),78,67,63,57,46,88,,,,15,13,7,12,0.7,0.8
2024-10-06T0300,2458A,112.6211,26.8956,衡阳市,珠晖区环保局,细颗粒物(PM2.5),58,53,58,41,40,92,,,,25,23,9,13,0.7,0.8
2024-10-06T0300,2459A,112.6197,26.8733,衡阳市,市委党校,细颗粒物(PM2.5),69,65,56,50,36,64,,,,31,17,13,14,1.0,0.8
2024-10-06T0300,2460A,112.6006,26.8919,衡阳市,市监测站,细颗粒物(PM2.5),73,71,61,53,47,84,,,,22,17,12,13,0.9,0.8
2024-10-06T0300,2461A,112.5664,26.9056,衡阳市,真空机电公司,细颗粒物(PM2.5),57,60,57,40,37,95,,,,16,15,7,8,0.7,0.8
2024-10-06T0300,3399A,112.6703,26.882,衡阳市,师范学院,细颗粒物(PM2.5),55,52,58,39,38,107,,,,14,16,12,12,0.7,0.7
2024-10-06T0300,2608A,103.3772,23.3993,红河哈尼族彝族自治州,污水处理厂,,35,34,29,24,21,73,,,,7,8,6,5,0.5,0.4
2024-10-06T0300,2609A,103.3861,23.35,红河哈尼族彝族自治州,监测站,,38,36,30,26,24,70,,,,5,7,8,9,0.5,0.5
2024-10-06T0300,3038A,103.3758,23.368,红河哈尼族彝族自治州,州图书馆,,35,35,29,19,16,72,,,,4,7,6,6,0.4,0.4
2024-10-06T0300,1090A,111.6507,40.7517,呼和浩特市,呼市一监,,24,24,56,10,23,62,,,,4,26,5,8,0.4,0.6
2024-10-06T0300,1091A,111.6572,40.8033,呼和浩特市,小召,,20,17,54,10,27,61,,,,7,36,7,9,0.4,0.6
2024-10-06T0300,1094A,111.7516,40.8369,呼和浩特市,如意水处理厂,,26,26,56,9,23,65,,,,6,36,7,9,0.3,0.5
2024-10-06T0300,1095A,111.7276,40.8062,呼和浩特市,二十九中,,27,27,60,10,30,70,,,,10,37,4,8,0.4,0.7
2024-10-06T0300,1096A,111.5512,40.7866,呼和浩特市,工大金川校区,,30,30,64,10,28,71,,,,6,36,3,6,0.4,0.7
2024-10-06T0300,1097A,111.717,40.7612,呼和浩特市,化肥厂生活区,,25,25,64,9,27,61,,,,8,37,7,10,0.3,0.6
2024-10-06T0300,3698A,111.5968,40.8178,呼和浩特市,红旗小学,,24,24,69,12,30,61,,,,9,39,2,7,0.3,0.6
2024-10-06T0300,3699A,111.6518,40.8389,呼和浩特市,海东办,,21,14,52,11,27,66,,,,7,37,4,7,0.4,0.7
2024-10-06T0300,2192A,119.7594,49.2261,呼伦贝尔市,区环保局,细颗粒物(PM2.5),178,150,39,134,31,29,,,,9,10,6,5,0.8,0.2
2024-10-06T0300,3061A,119.7512,49.1577,呼伦贝尔市,国华电力东,细颗粒物(PM2.5),203,180,37,153,31,31,,,,6,5,3,3,1.2,0.4
2024-10-06T0300,1250A,120.0751,30.8669,湖州市,城西水厂,,26,6,19,3,13,82,,,,10,23,4,4,0.5,0.7
2024-10-06T0300,2873A,120.0875,30.8955,湖州市,仁皇山新区,,26,6,19,3,12,83,,,,5,14,7,7,0.5,0.6
2024-10-06T0300,2907A,120.1844,30.8596,湖州市,吴兴区站,,23,7,23,3,15,73,,,,7,14,5,5,0.5,0.6
2024-10-06T0300,3562A,120.4148,30.8538,湖州市,南浔区站,,21,9,13,8,10,65,,,,7,9,2,2,0.4,0.4
2024-10-06T0300,1607A,120.9092,40.7136,葫芦岛市,龙港区,细颗粒物(PM2.5),211,168,71,161,57,44,,,,52,26,38,17,2.1,1
2024-10-06T0300,1608A,120.8392,40.7514,葫芦岛市,化工街,细颗粒物(PM2.5),104,156,100,78,47,7,,,,79,46,43,33,1.6,0.9
2024-10-06T0300,1609A,120.8341,40.7073,葫芦岛市,新区,细颗粒物(PM2.5),152,117,69,116,54,11,,,,88,46,15,12,1.6,1.1
2024-10-06T0300,1610A,120.8695,40.7677,葫芦岛市,东城区,细颗粒物(PM2.5),120,109,77,91,57,2,,,,72,49,21,21,1.1,0.9
2024-10-06T0300,2482A,109.5981,27.5721,怀化市,林科所,,39,39,39,23,24,120,,,,16,15,11,15,0.9,0.8
2024-10-06T0300,2483A,109.9453,27.5444,怀化市,河西地税局,细颗粒物(PM2.5),54,50,54,38,36,116,,,,10,14,29,16,0.5,0.5
2024-10-06T0300,2484A,109.9781,27.5342,怀化市,市四医院,颗粒物(PM10),62,74,67,39,40,94,,,,9,11,19,18,0.7,0.7
2024-10-06T0300,2485A,109.9972,27.5578,怀化市,监测楼,颗粒物(PM10),66,82,66,38,36,76,,,,17,16,12,14,0.6,0.6
2024-10-06T0300,2486A,110.0394,27.583,怀化市,市委党校,颗粒物(PM10),64,77,71,37,40,67,,,,20,17,22,22,0.6,0.5
2024-10-06T0300,1210A,119.036,33.5981,淮安市,钵池山,细颗粒物(PM2.5),58,48,35,41,23,52,,,,17,19,4,4,0.7,0.6
2024-10-06T0300,1211A,119.007,33.575,淮安市,北京南路,细颗粒物(PM2.5),53,39,40,37,20,65,,,,16,19,5,6,0.4,0.4
2024-10-06T0300,1212A,118.989,33.6067,淮安市,市监测站,细颗粒物(PM2.5),77,56,33,56,25,50,,,,23,21,6,7,0.6,0.5
2024-10-06T0300,1213A,119.135,33.5039,淮安市,楚州区监测站,,46,,35,32,20,58,,,,21,19,6,6,0.4,0.4
2024-10-06T0300,1214A,119.0186,33.6297,淮安市,淮阴区监测站,细颗粒物(PM2.5),69,63,42,50,26,45,,,,27,33,1,3,0.4,0.3
2024-10-06T0300,3426A,118.8755,33.2894,淮安市,新华书店,,28,28,35,19,17,77,,,,19,22,7,9,0.3,0.4
2024-10-06T0300,2282A,116.8004,33.975,淮北市,监测站,,45,45,33,30,18,52,,,,14,12,6,7,0.5,0.5
2024-10-06T0300,2283A,116.8091,33.9007,淮北市,烈山区政府,,43,43,26,28,14,58,,,,16,10,4,5,0.3,0.2
2024-10-06T0300,3330A,116.8873,33.9836,淮北市,杜集区检察院,细颗粒物(PM2.5),53,50,36,37,20,46,,,,14,12,1,4,0.3,0.3
2024-10-06T0300,4017A,116.7923,33.9535,淮北市,市博物馆,细颗粒物(PM2.5),57,42,32,40,19,59,,,,15,13,10,9,0.6,0.5
2024-10-06T0300,2277A,116.8305,32.7727,淮南市,潘集区政府,,28,22,38,19,26,74,,,,12,14,6,7,0.4,0.4
2024-10-06T0300,2278A,117.0067,32.6524,淮南市,师范学院,,38,,32,26,21,74,,,,6,10,6,6,0.2,0.2
2024-10-06T0300,2279A,116.8569,32.5951,淮南市,谢家集区政府,,42,,25,29,17,65,,,,10,11,5,7,0.3,0.3
2024-10-06T0300,2280A,116.8281,32.633,淮南市,八公山区政府,,39,35,36,27,17,70,,,,6,10,8,8,0.3,0.3
2024-10-06T0300,2281A,116.6325,32.6201,淮南市,焦岗湖风景区管理处,,13,,22,9,9,38,,,,8,9,7,7,0.0,0
2024-10-06T0300,2894A,117.0566,32.6531,淮南市,经济技术开发区消防队,,29,29,29,11,7,68,,,,9,10,4,4,0.3,0.3
2024-10-06T0300,3329A,117.0108,32.5893,淮南市,山南新区,,35,31,31,24,12,79,,,,12,12,2,2,0.5,0.4
2024-10-06T0300,2446A,114.9028,30.4742,黄冈市,职工中心,"颗粒物(PM10),细颗粒物(PM2.5)",55,60,47,39,30,74,,,,18,18,9,9,0.6,0.6
2024-10-06T0300,2929A,114.8858,30.4519,黄冈市,红卫路,,48,48,40,30,25,79,,,,16,21,11,8,0.7,0.6
2024-10-06T0300,3398A,114.9136,30.4445,黄冈市,市林业局,颗粒物(PM10),60,69,55,32,26,94,,,,11,10,11,9,0.5,0.5
2024-10-06T0300,2672A,102.0199,35.5102,黄南藏族自治州,同仁县隆务镇,,34,34,45,19,24,74,,,,1,6,7,8,0.4,0.5
2024-10-06T0300,2295A,118.2903,29.6963,黄山市,延安路89号,,22,22,31,7,10,55,,,,8,8,6,6,0.4,0.3
2024-10-06T0300,2296A,118.327,29.7178,黄山市,黄山东路89号,,18,18,26,3,6,52,,,,8,8,5,5,0.5,0.4
2024-10-06T0300,2297A,118.1371,30.2756,黄山市,黄山区政府5号楼,,35,34,33,24,18,51,,,,7,9,7,7,0.5,0.5
2024-10-06T0300,2423A,115.0601,30.2313,黄石市,沈家营,细颗粒物(PM2.5),55,54,35,39,20,95,,,,18,15,8,9,0.9,0.6
2024-10-06T0300,2424A,115.0817,30.2006,黄石市,陈家湾,颗粒物(PM10),58,65,32,39,26,107,,,,12,24,10,18,0.7,0.6
2024-10-06T0300,2426A,114.8988,30.2019,黄石市,铁山,细颗粒物(PM2.5),89,103,45,66,27,50,,,,65,25,26,14,0.8,0.3
2024-10-06T0300,2427A,115.0307,30.2092,黄石市,团城山,细颗粒物(PM2.5),60,52,40,43,21,68,,,,34,21,13,14,1.1,0.7
2024-10-06T0300,3149A,115.0235,30.1578,黄石市,笔架山北路,细颗粒物(PM2.5),57,57,32,40,18,65,,,,31,15,7,11,0.6,0.5
2024-10-06T0300,1392A,114.4183,23.0528,惠州市,河南岸金山湖子站,,32,32,36,18,20,78,,,,9,11,8,9,0.5,0.5
2024-10-06T0300,1393A,114.4053,23.0822,惠州市,下埔横江三路子站,,34,34,35,22,21,84,,,,12,12,8,12,0.6,0.6
2024-10-06T0300,1394A,114.4103,23.1142,惠州市,江北云山西路子站,,32,32,33,22,21,82,,,,11,10,10,8,0.4,0.6
2024-10-06T0300,1395A,114.4645,22.7833,惠州市,惠阳区承修路船湖子站,,37,37,40,19,20,59,,,,17,16,8,9,0.6,0.6
2024-10-06T0300,1396A,114.5317,22.7422,惠州市,大亚湾管委会子站,,33,33,32,21,19,62,,,,15,16,9,9,0.5,0.4
2024-10-06T0300,3314A,114.4338,22.8134,惠州市,惠阳秋长,,24,24,27,16,20,71,,,,11,11,7,8,0.5,0.5
2024-10-06T0300,3452A,114.6517,22.775,惠州市,大亚湾霞涌,,19,14,27,13,18,58,,,,8,9,6,6,0.3,0.4
2024-10-06T0300,2240A,130.9762,45.3001,鸡西市,环保局,,47,47,55,20,22,42,,,,12,26,5,6,0.4,0.5
2024-10-06T0300,2243A,130.9429,45.3039,鸡西市,第一中学,,42,42,37,21,16,80,,,,10,16,6,6,0.2,0.1
2024-10-06T0300,3707A,131.0207,45.3073,鸡西市,欧美日汽修厂,,44,44,56,28,27,15,,,,37,34,7,8,0.4,0.4
2024-10-06T0300,3709A,130.9967,45.3106,鸡西市,市政设施管理处,颗粒物(PM10),59,67,77,33,28,4,,,,60,40,7,8,0.4,0.5
2024-10-06T0300,2367A,114.9754,27.0803,吉安市,红声器材厂,,42,42,45,23,22,94,,,,17,19,14,13,0.5,0.5
2024-10-06T0300,2368A,114.9658,27.0999,吉安市,市森林工业局,,39,39,41,23,23,94,,,,21,19,15,16,0.7,0.7
2024-10-06T0300,2369A,114.99,27.1312,吉安市,市环境监测站,,40,40,41,23,23,99,,,,15,18,25,19,0.6,0.4
2024-10-06T0300,2370A,115.0093,27.0968,吉安市,青原区法院,,45,45,46,25,24,99,,,,17,22,21,22,0.6,0.6
2024-10-06T0300,1772A,126.54,43.8622,吉林市,哈达湾,细颗粒物(PM2.5),64,73,45,46,27,52,,,,33,25,18,8,0.8,0.7
2024-10-06T0300,1773A,126.5844,43.8358,吉林市,东局子,颗粒物(PM10),62,74,41,37,21,23,,,,40,26,7,6,0.8,0.7
2024-10-06T0300,1774A,126.5052,43.8245,吉林市,电力学院,颗粒物(PM10),54,58,60,36,33,43,,,,19,27,5,6,0.7,0.8
2024-10-06T0300,1775A,126.6133,43.8972,吉林市,江北,颗粒物(PM10),59,67,45,35,20,34,,,,18,20,7,8,0.9,0.9
2024-10-06T0300,1776A,126.555,43.8306,吉林市,江南公园,颗粒物(PM10),60,69,49,41,30,44,,,,28,24,8,7,0.8,0.7
2024-10-06T0300,1778A,126.7061,43.7133,吉林市,丰满,,38,30,23,26,21,64,,,,5,7,5,6,0.6,0.5
2024-10-06T0300,2868A,126.4739,43.953,吉林市,九站,细颗粒物(PM2.5),64,69,55,46,30,19,,,,48,30,14,8,1.1,0.8
2024-10-06T0300,1299A,116.9862,36.6114,济南市,科干所,颗粒物(PM10),59,68,53,34,25,56,,,,50,29,6,7,0.7,0.7
2024-10-06T0300,1300A,116.9376,36.665,济南市,农科所,颗粒物(PM10),63,76,68,39,31,34,,,,66,60,4,5,0.7,0.8
2024-10-06T0300,1301A,117.1265,36.6734,济南市,开发区,颗粒物(PM10),52,54,57,32,33,89,,,,29,34,5,5,0.6,0.6
2024-10-06T0300,1303A,117.0624,36.6868,济南市,省种子仓库,颗粒物(PM10),68,85,69,44,30,42,,,,60,43,3,4,0.6,0.5
2024-10-06T0300,1304A,116.9489,36.6447,济南市,机床二厂,颗粒物(PM10),64,78,76,34,33,22,,,,74,57,3,5,0.8,0.8
2024-10-06T0300,1305A,117.0495,36.663,济南市,市监测站,颗粒物(PM10),57,63,54,34,28,67,,,,48,40,4,5,0.6,0.7
2024-10-06T0300,1306A,116.7675,36.5484,济南市,长清党校,颗粒物(PM10),64,78,54,32,30,84,,,,37,32,7,7,0.7,0.6
2024-10-06T0300,1616A,117.6795,36.229,济南市,技术学院,,41,41,55,19,31,56,,,,35,25,10,12,0.8,0.9
2024-10-06T0300,1961A,117.532,36.6868,济南市,东山小学,颗粒物(PM10),51,51,61,27,30,70,,,,41,34,4,5,0.6,0.6
2024-10-06T0300,3059A,117.7161,36.2049,济南市,泰兴公司,,39,39,54,22,30,62,,,,27,36,9,10,0.6,0.6
2024-10-06T0300,3064A,117.6867,36.2171,济南市,莱芜战役纪念馆,,44,44,58,12,29,68,,,,24,31,8,9,0.7,0.8
2024-10-06T0300,3494A,117.1673,36.9782,济南市,济阳区政府,颗粒物(PM10),81,112,79,51,39,6,,,,134,48,8,7,0.5,0.4
2024-10-06T0300,3495A,117.1171,36.63,济南市,锦屏中学,,39,39,38,27,22,86,,,,28,23,4,5,0.5,0.5
2024-10-06T0300,3682A,116.9814,36.6819,济南市,济南四建,细颗粒物(PM2.5),64,73,65,46,35,37,,,,66,63,2,4,0.6,0.7
2024-10-06T0300,1653A,116.6251,35.4302,济宁市,火炬城,,43,43,42,24,24,70,,,,22,20,10,11,0.6,0.6
2024-10-06T0300,1655A,116.5491,35.4042,济宁市,电化厂,,48,48,60,27,26,66,,,,23,24,8,9,0.8,0.8
2024-10-06T0300,3500A,116.5814,35.3707,济宁市,北湖一中,,48,48,44,29,28,47,,,,29,22,6,7,0.4,0.4
2024-10-06T0300,3501A,116.8249,35.5593,济宁市,服务中心,颗粒物(PM10),54,57,55,25,26,18,,,,62,32,6,8,0.6,0.6
2024-10-06T0300,3678A,116.5907,35.4054,济宁市,市第七中学,颗粒物(PM10),52,53,45,27,28,65,,,,22,20,10,10,0.6,0.6
2024-10-06T0300,2255A,130.2751,46.8028,佳木斯市,佳纺,,38,38,39,21,20,56,,,,4,11,3,4,0.4,0.5
2024-10-06T0300,2256A,130.3995,46.8307,佳木斯市,发电厂,,33,,38,23,22,57,,,,3,13,6,8,0.3,0.5
2024-10-06T0300,2257A,130.3258,46.7975,佳木斯市,环保局,,32,29,38,22,20,50,,,,6,11,7,9,0.3,0.5
2024-10-06T0300,2258A,130.3648,46.8032,佳木斯市,十一中,,37,37,41,20,21,59,,,,3,16,7,8,0.3,0.6
2024-10-06T0300,2259A,130.3794,46.7588,佳木斯市,四丰,,26,26,26,12,15,53,,,,8,11,1,1,0.2,0.3
2024-10-06T0300,1252A,120.7436,30.778,嘉兴市,清河小学,,21,14,17,8,8,65,,,,15,16,4,4,0.7,0.7
2024-10-06T0300,1253A,120.726,30.7478,嘉兴市,嘉兴学院,,25,,19,17,12,65,,,,12,13,3,3,0.3,0.4
2024-10-06T0300,2872A,120.7846,30.7525,嘉兴市,南湖区残联,,22,16,18,12,9,70,,,,6,9,4,5,0.3,0.3
2024-10-06T0300,3407A,120.6916,30.7739,嘉兴市,秀洲住建,,20,14,14,9,8,63,,,,11,12,5,6,0.4,0.4
2024-10-06T0300,1945A,98.2908,39.7711,嘉峪关市,气象局,颗粒物(PM10),52,53,58,19,21,64,,,,23,19,15,24,0.3,0.4
2024-10-06T0300,2884A,98.2672,39.7978,嘉峪关市,酒钢宾馆,颗粒物(PM10),56,61,63,17,22,76,,,,24,23,45,59,1.1,0.7
2024-10-06T0300,3248A,98.2643,39.7724,嘉峪关市,雄关区,颗粒物(PM10),52,53,55,24,25,63,,,,19,24,14,19,0.4,0.5
2024-10-06T0300,1383A,113.1064,22.6058,江门市,北街,,42,42,46,20,27,68,,,,22,25,8,7,0.8,0.8
2024-10-06T0300,1384A,113.0731,22.5835,江门市,西区,,43,43,49,22,30,65,,,,23,24,9,8,0.4,0.5
2024-10-06T0300,1385A,113.0219,22.5311,江门市,圭峰西,,40,40,41,26,27,60,,,,26,23,6,6,0.8,0.8
2024-10-06T0300,1386A,113.0828,22.5947,江门市,东湖,,35,35,45,16,21,65,,,,22,22,7,7,0.5,0.6
2024-10-06T0300,3311A,113.1075,22.5647,江门市,江海富民,颗粒物(PM10),51,52,48,23,22,52,,,,30,26,10,9,0.4,0.4
2024-10-06T0300,3449A,113.05,22.4667,江门市,新会银湖,颗粒物(PM10),53,55,46,34,28,13,,,,44,27,5,6,0.7,0.6
2024-10-06T0300,1828A,113.227,35.2125,焦作市,市环保局,颗粒物(PM10),58,66,81,39,46,56,,,,24,35,6,12,0.3,0.4
2024-10-06T0300,1830A,113.1992,35.2590,焦作市,影视城,"颗粒物(PM10),细颗粒物(PM2.5)",55,60,54,39,40,99,,,,13,16,8,8,0.4,0.4
2024-10-06T0300,3169A,113.2725,35.2067,焦作市,太极体育中心,颗粒物(PM10),66,82,92,40,43,34,,,,38,43,4,10,0.4,0.4
2024-10-06T0300,3335A,113.3137,35.2641,焦作市,马村街道办,颗粒物(PM10),60,70,77,42,40,45,,,,24,31,4,7,0.4,0.4
2024-10-06T0300,3336A,113.2465,35.2373,焦作市,焦作技师学院,颗粒物(PM10),55,60,79,36,43,72,,,,17,29,3,6,0.5,0.6
2024-10-06T0300,3477A,113.1656,35.2539,焦作市,中站许衡医院,细颗粒物(PM2.5),62,57,60,44,36,66,,,,30,24,6,6,0.5,0.5
2024-10-06T0300,3981A,113.2449,35.1803,焦作市,原李万街道办,颗粒物(PM10),69,88,89,43,50,40,,,,25,30,4,9,0.5,0.4
2024-10-06T0300,1708A,116.3701,23.5345,揭阳市,新兴,,35,35,35,24,16,82,,,,12,14,8,7,0.5,0.6
2024-10-06T0300,1709A,116.3264,23.5443,揭阳市,西马,,41,41,37,19,17,87,,,,7,9,8,7,0.7,0.7
2024-10-06T0300,1710A,116.3611,23.5626,揭阳市,东兴,,48,48,37,27,17,85,,,,16,15,16,6,0.7,0.8
2024-10-06T0300,1711A,116.4151,23.5294,揭阳市,渔湖,,31,31,35,10,14,77,,,,16,15,8,9,0.7,0.7
2024-10-06T0300,3320A,116.403,23.5699,揭阳市,曲溪,,36,26,30,25,16,85,,,,14,17,2,2,0.5,0.6
2024-10-06T0300,1944A,102.1692,38.5167,金昌市,天庆家园,,30,13,40,10,19,93,,,,7,20,12,14,0.9,0.7
2024-10-06T0300,3170A,102.1864,38.5253,金昌市,市委党校,,32,30,44,10,15,102,,,,7,16,8,10,0.4,0.5
2024-10-06T0300,4022A,102.1647,38.5371,金昌市,金川区人防中心,,34,26,47,11,15,106,,,,3,12,9,12,0.5,0.5
2024-10-06T0300,1262A,119.647,29.077,金华市,十五中,,27,27,84,17,21,36,,,,15,21,2,2,0.5,0.5
2024-10-06T0300,1263A,119.686,29.1029,金华市,监测站,,16,14,30,11,18,34,,,,13,18,2,2,0.6,0.6
2024-10-06T0300,3659A,119.656,29.1131,金华市,气象局,,20,20,30,14,17,12,,,,33,23,3,3,0.3,0.3
2024-10-06T0300,1767A,121.1115,41.0879,锦州市,南山,细颗粒物(PM2.5),149,,66,114,72,64,,,,24,30,8,14,1.2,1.1
2024-10-06T0300,1768A,121.0533,40.8434,锦州市,开发区,细颗粒物(PM2.5),205,170,126,155,74,10,,,,76,76,8,15,1.7,1.2
2024-10-06T0300,1769A,121.1836,41.1119,锦州市,百股街道,细颗粒物(PM2.5),100,88,67,75,55,62,,,,30,31,11,12,1.5,1.2
2024-10-06T0300,1770A,121.1178,41.1222,锦州市,天安街道,细颗粒物(PM2.5),129,98,79,98,72,89,,,,30,36,12,15,1.2,1.1
2024-10-06T0300,1771A,121.1303,41.1386,锦州市,北湖公园,细颗粒物(PM2.5),120,103,78,91,72,66,,,,25,31,10,13,1.2,1.1
2024-10-06T0300,2160A,112.85,35.5051,晋城市,自来水公司,细颗粒物(PM2.5),73,72,69,53,37,74,,,,33,31,13,12,0.7,0.8
2024-10-06T0300,2161A,112.8318,35.4936,晋城市,白云商贸,颗粒物(PM10),78,105,80,51,36,50,,,,54,37,9,8,0.9,0.8
2024-10-06T0300,2162A,112.8508,35.4887,晋城市,市环保局,细颗粒物(PM2.5),70,88,76,51,39,71,,,,38,34,9,9,0.8,0.8
2024-10-06T0300,2163A,112.8676,35.4897,晋城市,技术学院,细颗粒物(PM2.5),73,84,75,53,37,57,,,,45,36,8,8,0.9,0.9
2024-10-06T0300,3620A,112.8271,35.4828,晋城市,泽州一中,细颗粒物(PM2.5),73,93,70,53,39,58,,,,44,37,14,12,0.9,0.9
2024-10-06T0300,2171A,112.7532,37.6945,晋中市,锦纶小区,细颗粒物(PM2.5),89,83,86,66,44,90,,,,19,32,7,11,0.8,0.7
2024-10-06T0300,2173A,112.7249,37.7067,晋中市,南都小区,细颗粒物(PM2.5),74,85,82,54,43,85,,,,27,40,6,10,1.1,0.9
2024-10-06T0300,2174A,112.6991,37.6982,晋中市,榆次区政府,颗粒物(PM10),67,83,92,45,37,92,,,,21,36,6,10,0.6,0.6
2024-10-06T0300,2865A,112.7195,37.6828,晋中市,榆次三中,细颗粒物(PM2.5),83,90,87,61,41,95,,,,19,30,8,14,0.8,0.7
2024-10-06T0300,2439A,112.2014,31.0481,荆门市,竹园小学,颗粒物(PM10),53,55,71,32,41,106,,,,18,24,11,14,0.5,0.5
2024-10-06T0300,2440A,112.1969,30.9891,荆门市,掇刀,,50,50,62,32,37,117,,,,16,23,5,10,0.5,0.5
2024-10-06T0300,2441A,112.2213,31.0386,荆门市,石化一小,颗粒物(PM10),54,57,73,34,42,109,,,,13,23,17,18,0.5,0.5
2024-10-06T0300,3012A,112.1849,31.0362,荆门市,西山林语,,47,47,63,27,35,122,,,,14,22,7,11,0.4,0.5
2024-10-06T0300,3547A,112.1632,31.0138,荆门市,龙泉中学南校,,43,43,61,27,35,124,,,,19,22,7,10,0.4,0.5
2024-10-06T0300,1844A,112.2494,30.3197,荆州市,市图书馆,细颗粒物(PM2.5),65,56,64,47,54,100,,,,18,27,12,15,0.6,0.7
2024-10-06T0300,1845A,112.2008,30.3544,荆州市,市委党校,细颗粒物(PM2.5),64,,61,46,54,98,,,,18,23,8,11,0.5,0.6
2024-10-06T0300,3194A,112.2747,30.3122,荆州市,管委会,细颗粒物(PM2.5),63,47,62,45,54,103,,,,14,23,10,13,0.6,0.7
2024-10-06T0300,3548A,112.1655,30.3364,荆州市,学苑路,颗粒物(PM10),61,72,81,40,50,101,,,,16,21,49,9,0.6,0.6
2024-10-06T0300,2343A,117.2117,29.2933,景德镇市,老干部活动中心,,23,20,18,16,12,54,,,,5,6,9,9,0.2,0.2
2024-10-06T0300,2344A,117.1894,29.2789,景德镇市,兽医站,,23,22,22,16,11,62,,,,4,4,10,8,0.2,0.2
2024-10-06T0300,2345A,117.1547,29.2617,景德镇市,台达陶瓷,,20,14,21,9,11,61,,,,5,8,6,7,0.4,0.4
2024-10-06T0300,2346A,117.2461,29.2956,景德镇市,陶研所,,23,23,22,10,8,52,,,,13,10,7,6,0.3,0.3
2024-10-06T0300,1803A,115.9872,29.6815,九江市,十里,,31,31,41,14,22,69,,,,12,15,6,10,0.6,0.6
2024-10-06T0300,1804A,115.9584,29.7046,九江市,茅山头,,22,19,35,15,23,66,,,,14,16,5,8,0.7,0.7
2024-10-06T0300,1805A,115.9877,29.7295,九江市,西园,,26,21,36,18,24,71,,,,16,15,8,10,0.4,0.5
2024-10-06T0300,1806A,116.0172,29.6547,九江市,五七二七厂,细颗粒物(PM2.5),55,,37,39,28,67,,,,12,14,9,10,0.6,0.6
2024-10-06T0300,1808A,115.9114,29.6038,九江市,综合工业园,,27,,38,13,24,84,,,,10,20,6,12,0.5,0.5
2024-10-06T0300,1809A,116.0721,29.7535,九江市,石化总厂,,45,33,44,31,29,58,,,,12,14,7,9,0.7,0.7
2024-10-06T0300,1810A,115.9773,29.5698,九江市,庐山气象台,,29,6,21,3,15,90,,,,2,4,8,6,0.5,0.7
2024-10-06T0300,3190A,116.0254,29.6994,九江市,外国语学校,,23,18,41,16,24,59,,,,13,17,8,9,0.2,0.3
2024-10-06T0300,2658A,98.5061,39.7443,酒泉市,仓门街子站,颗粒物(PM10),51,51,49,30,21,71,,,,7,12,2,12,0.3,0.4
2024-10-06T0300,2659A,98.4989,39.7256,酒泉市,油田生活基地,颗粒物(PM10),59,68,59,31,26,70,,,,8,16,28,12,0.3,0.4
2024-10-06T0300,2698A,76.0072,39.4467,喀什地区,巡警大队,颗粒物(PM10),100,150,120,31,24,56,,,,29,34,4,4,0.5,0.6
2024-10-06T0300,2699A,75.9755,39.4694,喀什地区,吾办,颗粒物(PM10),100,150,115,53,37,44,,,,41,36,4,4,0.6,0.6
2024-10-06T0300,4027A,75.9483,39.4689,喀什地区,老干局,颗粒物(PM10),109,167,122,29,21,56,,,,28,28,4,5,0.6,0.6
2024-10-06T0300,1824A,114.3389,34.7781,开封市,肿瘤医院,细颗粒物(PM2.5),75,84,69,55,44,35,,,,42,23,3,3,0.5,0.4
2024-10-06T0300,1826A,114.2885,34.7965,开封市,世纪星幼儿园,颗粒物(PM10),59,68,61,31,30,40,,,,35,26,3,2,0.5,0.4
2024-10-06T0300,3147A,114.3438,34.8106,开封市,龙亭公园,细颗粒物(PM2.5),62,70,71,44,44,27,,,,54,31,2,5,0.4,0.5
2024-10-06T0300,3210A,114.3644,34.7964,开封市,汴京公园,"颗粒物(PM10),细颗粒物(PM2.5)",60,70,69,43,42,24,,,,39,27,2,4,0.5,0.4
2024-10-06T0300,3473A,114.2485,34.8306,开封市,技师学院,颗粒物(PM10),65,80,62,37,30,26,,,,49,27,4,4,0.5,0.5
2024-10-06T0300,3592A,114.4644,34.7556,开封市,祥符区生态环境局,颗粒物(PM10),67,83,93,45,49,5,,,,81,43,9,9,0.7,0.6
2024-10-06T0300,1951A,84.895,45.6094,克拉玛依市,长征新村,,25,17,27,10,7,78,,,,3,7,5,6,0.2,0.2
2024-10-06T0300,1952A,84.8988,45.5893,克拉玛依市,南林小区,,25,25,30,8,13,37,,,,30,20,2,2,0.1,0.1
2024-10-06T0300,1954A,84.905,44.3396,克拉玛依市,独山子区,,33,33,27,16,9,51,,,,22,14,8,9,0.5,0.4
2024-10-06T0300,1955A,85.6979,46.098,克拉玛依市,乌尔禾区商贸楼,,28,27,28,19,10,52,,,,24,19,2,2,0.3,0.3
2024-10-06T0300,3612A,85.1045,45.6899,克拉玛依市,白碱滩区新站,,28,14,24,3,6,89,,,,4,6,8,8,0.2,0.1
2024-10-06T0300,2697A,76.1454,39.7142,克孜勒苏柯尔克孜自治州,市人民政府,颗粒物(PM10),80,109,88,32,37,89,,,,12,16,3,9,0.2,0.6
2024-10-06T0300,3665A,76.1658,39.7157,克孜勒苏柯尔克孜自治州,克州文化中心,颗粒物(PM10),75,99,81,30,27,84,,,,15,18,5,10,0.2,0.2
2024-10-06T0300,1450A,102.8204,24.8886,昆明市,呈贡新区,,26,26,24,12,10,22,,,,20,14,4,6,0.6,0.6
2024-10-06T0300,1452A,102.7252,25.0902,昆明市,龙泉镇,,15,15,18,6,9,26,,,,15,14,6,7,0.7,0.7
2024-10-06T0300,1453A,102.7266,25.0375,昆明市,东风东路,,18,18,17,7,9,28,,,,10,12,6,6,0.5,0.6
2024-10-06T0300,1454A,102.6742,25.0669,昆明市,金鼎山,,17,17,16,9,7,29,,,,14,14,3,4,0.6,0.6
2024-10-06T0300,1455A,102.6644,25.0401,昆明市,碧鸡广场,,24,24,22,13,10,16,,,,21,17,7,7,0.5,0.5
2024-10-06T0300,3179A,102.7494,25.0119,昆明市,官渡区博物馆,,17,17,19,10,8,25,,,,19,12,7,7,0.5,0.6
2024-10-06T0300,3375A,102.8017,24.8336,昆明市,青年创业园,,14,14,13,9,8,21,,,,15,13,4,5,0.6,0.6
2024-10-06T0300,3550A,102.7997,24.9786,昆明市,昆明学院,,23,23,15,15,9,25,,,,18,11,18,7,0.7,0.6
2024-10-06T0300,3551A,102.5967,24.6736,昆明市,晋宁区生态环境分局,,23,23,18,9,13,31,,,,12,10,1,1,1.1,0.9
2024-10-06T0300,3552A,102.6678,24.9856,昆明市,云天化总部,,15,15,16,10,10,35,,,,7,9,6,6,0.5,0.5
2024-10-06T0300,1456A,91.1319,29.6514,拉萨市,八廓街,,28,12,14,7,8,87,,,,11,15,7,9,0.4,0.3
2024-10-06T0300,1457A,91.1221,29.6747,拉萨市,市环保局,,29,11,12,3,6,92,,,,8,14,6,7,0.2,0.3
2024-10-06T0300,1458A,91.0874,29.6475,拉萨市,区监测站,,28,6,9,6,6,88,,,,7,12,5,6,0.3,0.3
2024-10-06T0300,1459A,91.1774,29.6541,拉萨市,西藏大学,,26,13,10,6,6,81,,,,8,10,6,9,0.3,0.3
2024-10-06T0300,1460A,90.9798,29.6588,拉萨市,区辐射站,,30,10,13,3,7,94,,,,5,14,8,8,0.2,0.2
2024-10-06T0300,1461A,91.0834,29.6292,拉萨市,拉萨火车站,,29,6,9,3,6,91,,,,4,9,5,6,0.2,0.3
2024-10-06T0300,2520A,109.2203,23.7256,来宾市,来宾技工学校,颗粒物(PM10),57,63,57,35,32,46,,,,28,18,17,15,0.9,0.9
2024-10-06T0300,3535A,109.1781,23.7297,来宾市,兴宾区政府,颗粒物(PM10),52,54,52,35,33,53,,,,12,11,7,11,0.6,0.7
2024-10-06T0300,4002A,109.2416,23.7461,来宾市,中南小学,颗粒物(PM10),55,60,67,24,36,78,,,,24,25,22,14,0.9,1.1
2024-10-06T0300,1476A,103.631,36.1031,兰州市,兰炼宾馆,颗粒物(PM10),62,74,59,40,35,8,,,,51,42,10,12,0.6,0.7
2024-10-06T0300,1478A,103.8412,36.0726,兰州市,生物制品所,颗粒物(PM10),54,57,47,33,32,4,,,,46,37,10,18,0.5,0.7
2024-10-06T0300,1479A,103.831,36.0464,兰州市,铁路设计院,颗粒物(PM10),55,59,55,38,36,4,,,,59,51,8,14,0.8,0.8
2024-10-06T0300,3186A,103.7158,36.1058,兰州市,教育港,"颗粒物(PM10),细颗粒物(PM2.5)",52,53,53,36,35,12,,,,40,38,8,15,0.5,0.7
2024-10-06T0300,3241A,103.7439,36.0842,兰州市,百合公园,,45,45,47,29,26,5,,,,52,41,8,13,0.7,0.8
2024-10-06T0300,3242A,103.9611,35.998,兰州市,和平,,44,44,44,24,22,69,,,,14,24,16,13,0.5,0.6
2024-10-06T0300,3245A,103.6633,36.533,兰州新区,新区管委会,,50,50,52,21,28,94,,,,5,22,5,17,0.3,0.6
2024-10-06T0300,3246A,103.6975,36.4789,兰州新区,舟曲中学,,35,35,53,11,26,74,,,,22,30,10,25,0.3,0.6
2024-10-06T0300,1067A,116.6708,39.5111,廊坊市,药材公司,细颗粒物(PM2.5),110,128,113,83,73,26,,,,65,38,9,9,0.6,0.5
2024-10-06T0300,1068A,116.7214,39.5589,廊坊市,开发区,细颗粒物(PM2.5),112,131,103,84,62,18,,,,70,40,3,4,0.6,0.5
2024-10-06T0300,1070A,116.7244,39.5269,廊坊市,北华航天学院,细颗粒物(PM2.5),98,114,119,73,65,60,,,,49,49,10,5,0.5,0.6
2024-10-06T0300,2919A,116.7022,39.5453,廊坊市,河北工业大学,细颗粒物(PM2.5),115,118,104,87,68,56,,,,48,49,10,6,0.5,0.6
2024-10-06T0300,2535A,103.7723,29.5462,乐山市,花湖湾,,30,30,32,20,21,53,,,,10,17,2,2,0.6,0.6
2024-10-06T0300,2536A,103.7627,29.5844,乐山市,牛耳桥,,36,28,34,25,25,58,,,,15,20,3,5,0.4,0.4
2024-10-06T0300,2537A,103.7508,29.6006,乐山市,市第三水厂,,36,30,36,25,24,68,,,,10,14,3,5,0.6,0.6
2024-10-06T0300,2538A,103.7571,29.5664,乐山市,市监测站,,34,34,37,18,23,49,,,,11,17,3,5,0.5,0.5
2024-10-06T0300,3361A,103.7311,29.5628,乐山市,理工大学,,36,31,33,25,26,46,,,,13,16,2,4,0.4,0.4
2024-10-06T0300,2599A,100.2497,26.8802,丽江市,丽江古城,,16,15,18,11,10,14,,,,13,11,9,9,0.6,0.6
2024-10-06T0300,2600A,100.2203,26.8906,丽江市,市中心,,15,,13,10,10,15,,,,12,9,6,6,0.6,0.6
2024-10-06T0300,1267A,119.914,28.4514,丽水市,监测站大楼,,14,8,29,8,20,44,,,,15,20,6,7,0.5,0.5
2024-10-06T0300,1268A,119.93,28.4586,丽水市,莲都小学,,25,22,35,17,23,47,,,,10,18,4,4,0.5,0.5
2024-10-06T0300,1269A,119.879,28.4231,丽水市,余庄前,,20,20,33,12,22,24,,,,9,13,4,4,0.4,0.4
2024-10-06T0300,1173A,119.176,34.5885,连云港市,市环境监测站,,45,39,20,31,10,35,,,,38,17,7,7,0.3,0.3
2024-10-06T0300,3000A,119.3581,34.6972,连云港市,德源药业,,21,19,20,12,8,28,,,,42,31,6,6,0.2,0.2
2024-10-06T0300,3007A,119.178,34.844,连云港市,新城一中,,50,50,38,28,17,41,,,,34,25,14,9,0.8,0.6
2024-10-06T0300,3008A,119.3608,34.7519,连云港市,胡沟管理处,,41,41,14,24,5,19,,,,35,16,3,2,0.4,0.3
2024-10-06T0300,3009A,119.1478,34.5911,连云港市,矿山设计院,细颗粒物(PM2.5),64,68,25,46,15,19,,,,39,21,6,5,0.6,0.5
2024-10-06T0300,3434A,119.2413,34.6539,连云港市,工贸学校,,25,25,13,17,8,55,,,,18,12,6,7,0.4,0.4
2024-10-06T0300,3664A,119.4172,34.7341,连云港市,连云街道,,23,10,9,3,5,72,,,,7,11,4,4,0.3,0.2
2024-10-06T0300,2571A,102.3431,27.8099,凉山彝族自治州,青龙寺,,20,20,18,3,6,8,,,,16,8,6,6,0.8,0.7
2024-10-06T0300,2572A,102.2721,27.8415,凉山彝族自治州,邛海宾馆,,21,21,23,12,13,6,,,,25,18,9,10,0.8,0.7
2024-10-06T0300,2573A,102.2625,27.898,凉山彝族自治州,西昌市政府,,19,19,23,8,15,21,,,,10,17,8,9,0.6,0.8
2024-10-06T0300,2574A,102.2685,27.8851,凉山彝族自治州,凉山州政府,,12,12,23,8,14,20,,,,15,17,7,8,0.7,0.7
2024-10-06T0300,2575A,102.237,27.8914,凉山彝族自治州,长安,,10,10,21,7,11,20,,,,14,18,11,11,0.8,0.9
2024-10-06T0300,2212A,123.2,41.1953,辽阳市,宏伟区,,42,39,42,29,23,92,,,,9,18,4,7,0.5,0.7
2024-10-06T0300,2213A,123.1683,41.2495,辽阳市,新华园,颗粒物(PM10),59,68,53,37,29,62,,,,22,25,12,15,1.1,1.1
2024-10-06T0300,2214A,123.2354,41.2639,辽阳市,滨河路,颗粒物(PM10),54,58,45,25,28,76,,,,18,21,10,13,1.0,0.9
2024-10-06T0300,2215A,123.149,41.2991,辽阳市,铁西工业园,颗粒物(PM10),60,69,56,32,26,39,,,,18,21,10,14,0.9,0.9
2024-10-06T0300,2227A,125.1358,42.8845,辽源市,环保局,细颗粒物(PM2.5),62,62,47,44,30,10,,,,34,29,8,9,1.0,0.9
2024-10-06T0300,3239A,125.0764,42.9078,辽源市,银鹰制药,细颗粒物(PM2.5),63,64,53,45,32,20,,,,35,34,5,7,1.0,0.9
2024-10-06T0300,1625A,115.9848,36.4372,聊城市,区政府,细颗粒物(PM2.5),77,100,73,56,34,31,,,,57,31,9,10,0.5,0.5
2024-10-06T0300,2878A,116.0072,36.4343,聊城市,聊大东校,细颗粒物(PM2.5),79,97,70,58,38,44,,,,42,29,8,9,0.7,0.7
2024-10-06T0300,3200A,115.9819,36.4978,聊城市,监控中心,细颗粒物(PM2.5),94,102,70,70,38,25,,,,69,36,10,10,0.7,0.7
2024-10-06T0300,3513A,116.0445,36.4361,聊城市,九州社区,颗粒物(PM10),71,92,64,46,31,14,,,,78,27,5,5,0.4,0.4
2024-10-06T0300,4018A,116.0567,36.4608,聊城市,星美广场,颗粒物(PM10),69,88,67,45,29,13,,,,67,21,11,8,0.6,0.5
2024-10-06T0300,2632A,94.3681,29.6376,林芝市,林芝监测站,,10,6,3,3,7,32,,,,1,3,10,10,0.2,0.2
2024-10-06T0300,2633A,94.3616,29.6616,林芝市,林芝人民医院,,10,6,6,3,4,31,,,,6,6,5,5,0.3,0.3
2024-10-06T0300,2603A,100.0781,23.8982,临沧市,市环保局,,16,15,16,11,12,9,,,,7,9,4,4,0.4,0.5
2024-10-06T0300,2604A,100.0894,23.8822,临沧市,市气象局,,22,15,14,15,14,5,,,,10,10,3,3,0.7,0.6
2024-10-06T0300,1733A,111.5531,36.0783,临汾市,临钢医院,细颗粒物(PM2.5),83,108,111,61,55,31,,,,42,39,5,7,0.8,0.8
2024-10-06T0300,1734A,111.5028,36.0714,临汾市,技工学校,细颗粒物(PM2.5),88,114,102,65,62,28,,,,60,42,6,8,0.8,0.8
2024-10-06T0300,1736A,111.5018,36.0855,临汾市,市委,细颗粒物(PM2.5),93,128,106,69,58,26,,,,51,31,8,9,0.8,0.7
2024-10-06T0300,3018A,111.505,36.1014,临汾市,唐尧大酒店,细颗粒物(PM2.5),93,117,102,69,61,28,,,,49,32,8,8,0.9,0.8
2024-10-06T0300,3668A,111.5036,36.0414,临汾市,城南,细颗粒物(PM2.5),77,86,113,56,63,24,,,,47,40,6,8,0.8,0.8
2024-10-06T0300,2667A,103.2069,35.5993,临夏回族自治州,环保局,,42,42,51,10,26,14,,,,22,25,9,11,0.5,0.6
2024-10-06T0300,2668A,103.2417,35.6057,临夏回族自治州,建设大厦,,49,47,50,34,31,23,,,,14,20,3,3,0.5,0.6
2024-10-06T0300,1619A,118.295,35.0583,临沂市,鲁南制药厂,颗粒物(PM10),71,92,47,46,25,33,,,,37,23,7,10,0.6,0.4
2024-10-06T0300,1620A,118.2794,34.9976,临沂市,新光毛纺厂,,39,39,39,25,26,35,,,,32,28,5,9,0.7,0.6
2024-10-06T0300,1621A,118.3956,35.0888,临沂市,河东保险公司,细颗粒物(PM2.5),54,46,60,38,39,57,,,,32,41,8,9,0.7,0.8
2024-10-06T0300,3370A,118.3564,35.0215,临沂市,十里堡居委,细颗粒物(PM2.5),79,66,39,58,30,48,,,,30,24,7,13,0.8,0.6
2024-10-06T0300,3496A,118.3604,35.1084,临沂市,南坊新区,颗粒物(PM10),53,56,54,36,37,57,,,,25,24,8,9,0.6,0.6
2024-10-06T0300,3860A,118.3920,35.0300,临沂市,皇山花园小区,细颗粒物(PM2.5),82,75,68,60,49,42,,,,38,36,8,10,0.8,0.7
2024-10-06T0300,1870A,109.4856,24.3895,柳州市,柳东小学,,43,41,44,30,29,114,,,,7,8,12,12,0.6,0.6
2024-10-06T0300,1871A,109.4157,24.3277,柳州市,环保监测站,细颗粒物(PM2.5),67,80,70,48,40,55,,,,25,20,13,11,0.9,0.8
2024-10-06T0300,1872A,109.389,24.341,柳州市,河西水厂,颗粒物(PM10),69,88,79,48,42,43,,,,25,24,16,16,0.9,0.9
2024-10-06T0300,1873A,109.4311,24.2921,柳州市,市四中,细颗粒物(PM2.5),52,49,56,36,37,95,,,,14,20,11,11,0.8,0.9
2024-10-06T0300,1874A,109.4006,24.3631,柳州市,市九中,"颗粒物(PM10),细颗粒物(PM2.5)",59,67,77,42,41,70,,,,23,26,7,9,1.1,1.1
2024-10-06T0300,1875A,109.4958,24.3134,柳州市,古亭山,,37,35,44,23,30,117,,,,12,18,12,12,0.8,0.8
2024-10-06T0300,3402A,109.5422,24.3996,柳州市,市二中,,44,44,45,24,30,72,,,,18,16,10,11,0.7,0.7
2024-10-06T0300,2307A,116.5079,31.737,六安市,监测大楼,细颗粒物(PM2.5),55,,32,39,24,63,,,,9,14,4,5,0.5,0.5
2024-10-06T0300,2308A,116.4738,31.7643,六安市,皖西学院,细颗粒物(PM2.5),53,,48,37,26,48,,,,16,18,4,6,0.6,0.6
2024-10-06T0300,2309A,116.4996,31.7905,六安市,朝阳厂,,43,,35,30,24,51,,,,13,17,3,2,0.4,0.4
2024-10-06T0300,2310A,116.5567,31.7886,六安市,开发区,,20,20,43,14,22,50,,,,15,17,1,2,0.6,0.5
2024-10-06T0300,2577A,104.83,26.5917,六盘水市,黄土坡,细颗粒物(PM2.5),53,37,39,37,25,58,,,,10,9,6,5,0.5,0.4
2024-10-06T0300,2578A,104.89,26.5939,六盘水市,水钢,细颗粒物(PM2.5),59,43,47,42,25,63,,,,10,8,5,6,0.6,0.3
2024-10-06T0300,2579A,104.8475,26.5894,六盘水市,民中,,49,42,36,34,25,59,,,,10,12,7,7,0.6,0.5
2024-10-06T0300,2580A,104.9544,26.5506,六盘水市,双水,细颗粒物(PM2.5),52,41,44,36,28,75,,,,8,6,6,6,0.5,0.4
2024-10-06T0300,2336A,117.0217,25.1033,龙岩市,龙岩市监测站,,22,,17,15,17,57,,,,8,10,8,10,0.5,0.5
2024-10-06T0300,2337A,117.0258,25.0661,龙岩市,闽西职业技术学院,,19,12,16,9,12,58,,,,5,5,7,7,0.5,0.6
2024-10-06T0300,2338A,117.0196,25.0306,龙岩市,龙岩学院,,14,14,15,9,11,35,,,,7,7,3,5,0.4,0.4
2024-10-06T0300,2885A,104.9339,33.3826,陇南市,滨江中学,,43,43,42,26,18,23,,,,12,10,8,9,0.5,0.5
2024-10-06T0300,3247A,104.955,33.371,陇南市,市总工会,,32,32,34,9,7,28,,,,11,10,3,3,0.4,0.4
2024-10-06T0300,2487A,111.9589,27.8901,娄底市,电视发射台,细颗粒物(PM2.5),67,74,55,48,32,138,,,,9,8,11,8,1.1,1
2024-10-06T0300,2488A,111.9975,27.725,娄底市,市监测站,细颗粒物(PM2.5),82,85,68,60,45,81,,,,40,20,22,19,1.1,0.9
2024-10-06T0300,2489A,112.0194,27.7314,娄底市,市委党校,细颗粒物(PM2.5),69,68,70,50,45,117,,,,15,19,11,12,0.6,0.8
2024-10-06T0300,2490A,111.9561,27.7569,娄底市,涟钢,细颗粒物(PM2.5),69,76,62,50,41,83,,,,12,17,6,11,1.0,1.1
2024-10-06T0300,2491A,111.9892,27.7044,娄底市,市政府,细颗粒物(PM2.5),84,76,61,62,43,55,,,,17,15,5,8,0.8,0.6
2024-10-06T0300,1893A,105.4324,28.9634,泸州市,九狮山,"颗粒物(PM10),细颗粒物(PM2.5)",53,55,45,37,26,51,,,,19,19,4,4,0.4,0.6
2024-10-06T0300,1894A,105.4427,28.9063,泸州市,小市上码头,颗粒物(PM10),58,65,54,37,28,83,,,,12,18,4,4,0.5,0.5
2024-10-06T0300,1895A,105.4241,28.8573,泸州市,兰田宪桥,颗粒物(PM10),54,58,48,37,31,63,,,,11,16,3,3,0.5,0.5
2024-10-06T0300,1896A,105.4379,28.8833,泸州市,市环监站,细颗粒物(PM2.5),59,62,51,42,36,85,,,,9,19,3,3,0.5,0.5
2024-10-06T0300,3490A,105.3617,28.7703,泸州市,纳溪区环保局,细颗粒物(PM2.5),59,53,46,42,35,64,,,,12,16,6,6,0.5,0.4
2024-10-06T0300,2183A,111.1406,37.5211,吕梁市,环保局,颗粒物(PM10),84,117,87,45,32,18,,,,40,34,3,5,0.7,0.6
2024-10-06T0300,2185A,111.1297,37.5136,吕梁市,自来水公司,颗粒物(PM10),65,80,75,37,28,20,,,,47,30,2,4,1.0,0.6
2024-10-06T0300,2867A,111.1283,37.51,吕梁市,马茂庄小学,颗粒物(PM10),98,145,90,43,30,2,,,,69,41,7,5,0.9,0.5
2024-10-06T0300,1812A,112.3931,34.6516,洛阳市,市委党校,细颗粒物(PM2.5),108,111,101,81,67,22,,,,58,47,14,15,0.7,0.6
2024-10-06T0300,1814A,112.4657,34.6871,洛阳市,豫西宾馆,细颗粒物(PM2.5),105,115,99,79,58,0,,,,66,44,11,15,0.9,0.8
2024-10-06T0300,1815A,112.494,34.6886,洛阳市,河南林校,细颗粒物(PM2.5),124,104,89,94,65,17,,,,55,43,4,10,0.6,0.6
2024-10-06T0300,1816A,112.3844,34.623,洛阳市,开发区管委会,细颗粒物(PM2.5),128,122,104,97,70,22,,,,60,42,6,11,0.5,0.5
2024-10-06T0300,1817A,112.4267,34.6258,洛阳市,市委新办公区,细颗粒物(PM2.5),109,135,108,82,68,16,,,,60,42,6,7,0.5,0.5
2024-10-06T0300,3340A,112.6005,34.6326,洛阳市,伊滨,细颗粒物(PM2.5),133,127,103,101,70,0,,,,49,45,8,12,0.7,0.6
2024-10-06T0300,3341A,112.4951,34.6332,洛阳市,中移产业园,细颗粒物(PM2.5),119,110,93,90,67,8,,,,73,49,6,8,0.8,0.6
2024-10-06T0300,3593A,112.5736,34.8993,洛阳市,吉利监测站,细颗粒物(PM2.5),77,88,86,56,49,19,,,,56,56,6,11,0.9,0.5
2024-10-06T0300,3635A,112.3677,34.662,洛阳市,河科大西苑校区,细颗粒物(PM2.5),110,107,97,83,64,25,,,,56,51,11,14,0.8,0.7
2024-10-06T0300,3636A,112.4388,34.6781,洛阳市,英才小学,细颗粒物(PM2.5),99,130,109,74,54,7,,,,69,50,6,9,0.6,0.6
2024-10-06T0300,2399A,114.051,33.5699,漯河市,三五一五工厂,细颗粒物(PM2.5),113,156,92,85,45,38,,,,33,26,8,10,0.7,0.6
2024-10-06T0300,2400A,114.0055,33.5698,漯河市,漯河大学,细颗粒物(PM2.5),134,131,84,102,43,35,,,,34,24,6,8,0.8,0.6
2024-10-06T0300,2401A,114.0138,33.5828,漯河市,市水利局,细颗粒物(PM2.5),110,127,91,83,46,48,,,,24,27,6,9,0.9,0.8
2024-10-06T0300,2402A,114.0261,33.5698,漯河市,市广电局,细颗粒物(PM2.5),124,134,84,94,46,51,,,,25,23,8,10,0.8,0.6
2024-10-06T0300,3478A,113.9749,33.5664,漯河市,市图书馆,细颗粒物(PM2.5),159,164,85,121,43,10,,,,51,28,8,8,0.8,0.5
2024-10-06T0300,3479A,114.0967,33.5906,漯河市,召陵区卫健委,,,,91,62,55,58,,,,,31,8,12,0.6,0.7
2024-10-06T0300,1798A,118.5092,31.6837,马鞍山市,湖东路四小,,28,28,28,15,20,58,,,,12,18,6,6,0.6,0.6
2024-10-06T0300,1799A,118.5024,31.6449,马鞍山市,开发区,,22,21,27,15,20,57,,,,13,20,6,6,0.5,0.6
2024-10-06T0300,1800A,118.5228,31.7231,马鞍山市,慈湖,,36,36,31,18,21,62,,,,8,17,7,7,0.6,0.6
2024-10-06T0300,1802A,118.6245,31.7241,马鞍山市,濮塘,,20,18,25,8,22,64,,,,6,6,8,9,0.9,0.9
2024-10-06T0300,3633A,118.4918,31.6809,马鞍山市,雨山,,22,21,25,15,19,54,,,,10,17,5,6,0.7,0.7
2024-10-06T0300,1686A,111.0286,21.4688,茂名市,电白南海,颗粒物(PM10),60,70,56,31,25,99,,,,20,16,14,15,0.8,0.7
2024-10-06T0300,1687A,110.9294,21.6533,茂名市,茂石化七小,细颗粒物(PM2.5),64,73,44,46,26,77,,,,22,13,55,19,0.8,0.7
2024-10-06T0300,1688A,110.9107,21.6687,茂名市,健康路,颗粒物(PM10),58,66,43,31,23,86,,,,19,11,64,29,0.7,0.7
2024-10-06T0300,1689A,110.8592,21.6828,茂名市,高岭,细颗粒物(PM2.5),58,61,54,41,29,79,,,,15,17,31,17,0.8,0.9
2024-10-06T0300,3450A,111.01,21.5165,茂名市,电白水东,,44,44,40,24,25,105,,,,13,11,17,19,0.7,0.7
2024-10-06T0300,2539A,104.0308,30.0478,眉山市,黑龙滩水库,,48,41,40,33,26,57,,,,6,6,5,4,0.5,0.5
2024-10-06T0300,2540A,103.8416,30.0874,眉山市,气象局,,39,37,36,27,28,59,,,,13,20,6,8,0.4,0.5
2024-10-06T0300,3137A,103.8578,30.0744,眉山市,市委党校,,28,27,36,19,21,72,,,,14,19,9,9,0.4,0.4
2024-10-06T0300,3148A,103.8291,30.0564,眉山市,区人社局,,38,38,37,19,22,51,,,,19,23,6,9,0.6,0.5
2024-10-06T0300,1690A,116.1231,24.3284,梅州市,梅江月梅,,25,25,27,16,21,16,,,,25,14,8,8,0.6,0.6
2024-10-06T0300,1691A,116.0797,24.2719,梅州市,梅县新城,,26,20,24,18,22,41,,,,11,14,4,5,0.5,0.6
2024-10-06T0300,1692A,116.1248,24.2654,梅州市,环境监控中心,细颗粒物(PM2.5),52,50,29,36,23,7,,,,40,22,6,6,0.6,0.6
2024-10-06T0300,3315A,116.1233,24.2991,梅州市,梅龙,,27,27,26,18,17,25,,,,14,14,10,11,0.6,0.6
2024-10-06T0300,1878A,104.7778,31.4741,绵阳市,富乐山,细颗粒物(PM2.5),62,47,42,44,31,34,,,,14,19,2,3,0.5,0.5
2024-10-06T0300,1879A,104.7563,31.4535,绵阳市,市人大,细颗粒物(PM2.5),62,65,52,44,32,60,,,,16,21,12,11,0.5,0.5
2024-10-06T0300,1880A,104.6697,31.4668,绵阳市,高新区自来水公司,颗粒物(PM10),59,68,48,27,24,55,,,,17,21,5,4,0.5,0.5
2024-10-06T0300,1881A,104.7287,31.5075,绵阳市,三水厂,细颗粒物(PM2.5),57,43,45,40,33,53,,,,14,22,6,7,0.4,0.4
2024-10-06T0300,3491A,104.69,31.5322,绵阳市,西科大附属小学,,50,50,45,34,31,56,,,,16,20,4,5,0.5,0.5
2024-10-06T0300,3492A,104.5648,31.5343,绵阳市,安州区旅游局,细颗粒物(PM2.5),58,,41,41,34,62,,,,12,16,10,9,0.5,0.5
2024-10-06T0300,1784A,129.61,44.561,牡丹江市,环保大楼,,38,38,43,23,22,12,,,,24,27,6,8,0.4,0.5
2024-10-06T0300,1785A,129.6115,44.5782,牡丹江市,文化广场,颗粒物(PM10),54,57,53,31,26,5,,,,34,36,8,9,0.6,0.7
2024-10-06T0300,1786A,129.5904,44.5963,牡丹江市,第一医院,,50,40,51,35,27,32,,,,15,24,7,8,0.5,0.5
2024-10-06T0300,1787A,129.6364,44.6075,牡丹江市,机车工厂,颗粒物(PM10),51,52,47,35,32,7,,,,23,25,12,16,0.5,0.5
2024-10-06T0300,1788A,129.6386,44.5462,牡丹江市,第一中学,,38,37,35,26,19,7,,,,24,23,6,7,0.3,0.3
2024-10-06T0300,2531A,105.0703,29.61,内江市,市监测站,,39,34,44,27,32,73,,,,10,21,6,8,0.3,0.3
2024-10-06T0300,2532A,105.0717,29.5947,内江市,东兴区政府,,45,43,46,31,28,79,,,,13,25,5,6,0.4,0.5
2024-10-06T0300,2533A,105.0653,29.5817,内江市,内江二中,,50,39,45,35,34,82,,,,12,23,4,5,0.5,0.5
2024-10-06T0300,2534A,105.0406,29.5822,内江市,内江日报社,,50,48,46,35,33,70,,,,20,26,6,4,0.4,0.4
2024-10-06T0300,2628A,92.0657,31.4846,那曲市,那曲监测站,,27,12,24,3,12,86,,,,5,6,5,6,0.4,0.3
2024-10-06T0300,3128A,92.0506,31.4797,那曲市,那曲会议中心,,29,13,32,6,10,90,,,,4,8,3,3,0.5,0.4
2024-10-06T0300,1290A,115.8931,28.6843,南昌市,省外办,,44,44,44,27,31,70,,,,19,23,10,12,0.7,0.7
2024-10-06T0300,1291A,115.8886,28.7003,南昌市,省林业公司,,32,31,47,22,26,70,,,,16,19,7,9,0.6,0.6
2024-10-06T0300,1292A,115.8126,28.7442,南昌市,林科所,,32,29,33,22,20,81,,,,16,18,8,10,0.6,0.6
2024-10-06T0300,1294A,115.8518,28.687,南昌市,建工学校,,44,44,45,28,24,73,,,,14,16,9,10,0.7,0.6
2024-10-06T0300,1295A,115.8921,28.6424,南昌市,象湖,,36,36,39,25,24,75,,,,20,21,9,10,0.7,0.7
2024-10-06T0300,1296A,115.7423,28.7996,南昌市,武术学校,,48,,21,33,24,25,,,,7,8,3,2,0.5,0.5
2024-10-06T0300,1298A,115.9314,28.6842,南昌市,省站,颗粒物(PM10),57,63,46,32,29,61,,,,17,18,10,12,0.8,0.7
2024-10-06T0300,3046A,115.9084,28.6062,南昌市,机电学校,,47,47,50,27,27,69,,,,18,20,9,9,0.7,0.7
2024-10-06T0300,3690A,115.9721,28.7031,南昌市,外国语学校,,49,42,46,34,26,60,,,,21,18,9,9,0.9,0.6
2024-10-06T0300,1905A,106.056,30.8064,南充市,西山风景区,,49,,36,34,31,59,,,,8,12,5,4,0.8,0.8
2024-10-06T0300,1906A,106.0789,30.8023,南充市,南充市委,细颗粒物(PM2.5),55,51,56,39,39,30,,,,18,24,3,4,0.4,0.5
2024-10-06T0300,1907A,106.1031,30.8217,南充市,南充炼油厂,细颗粒物(PM2.5),60,52,59,43,39,55,,,,11,21,5,6,0.3,0.4
2024-10-06T0300,1908A,106.1064,30.7856,南充市,高坪区监测站,颗粒物(PM10),52,53,57,29,39,49,,,,23,26,6,8,0.5,0.5
2024-10-06T0300,1909A,106.0642,30.7636,南充市,嘉陵区环保局,"颗粒物(PM10),细颗粒物(PM2.5)",58,66,60,41,34,21,,,,35,33,9,6,0.5,0.5
2024-10-06T0300,1910A,106.1087,30.8388,南充市,市环境监测站,"颗粒物(PM10),细颗粒物(PM2.5)",54,58,60,38,40,53,,,,15,23,4,6,0.3,0.3
2024-10-06T0300,1151A,118.8086,32.1065,南京市,迈皋桥,,16,9,21,7,11,49,,,,16,23,4,4,0.3,0.3
2024-10-06T0300,1152A,118.7538,32.0551,南京市,草场门,,18,,21,12,10,42,,,,20,22,4,5,0.3,0.3
2024-10-06T0300,1153A,118.7794,32.0745,南京市,山西路,,15,9,26,9,14,46,,,,14,17,4,4,0.4,0.4
2024-10-06T0300,1154A,118.7752,32.0023,南京市,中华门,,18,7,23,7,12,55,,,,8,15,4,5,0.4,0.4
2024-10-06T0300,1155A,118.8109,32.0309,南京市,瑞金路,,17,,24,9,13,54,,,,9,17,5,4,0.4,0.4
2024-10-06T0300,1156A,118.7997,32.0754,南京市,玄武湖,,21,21,28,11,11,34,,,,29,31,5,6,0.4,0.4
2024-10-06T0300,1157A,118.6414,32.0931,南京市,浦口,,23,19,23,16,15,37,,,,16,17,5,5,1.2,0.3
2024-10-06T0300,1158A,118.7356,31.9996,南京市,奥体中心,,18,,24,12,18,55,,,,17,19,5,6,0.3,0.3
2024-10-06T0300,1159A,118.9125,32.1028,南京市,仙林大学城,,19,12,26,7,13,58,,,,14,21,5,7,0.4,0.4
2024-10-06T0300,3422A,118.8436,31.9198,南京市,江宁彩虹桥,,17,,26,3,12,54,,,,5,16,4,4,0.4,0.4
2024-10-06T0300,3423A,119.0138,31.6494,南京市,溧水永阳,,26,,20,6,12,83,,,,4,16,4,4,0.5,0.6
2024-10-06T0300,3424A,118.879,31.3302,南京市,高淳老职中,,23,7,14,7,14,73,,,,9,15,4,4,0.5,0.6
2024-10-06T0300,3427A,118.8554,32.3578,南京市,六合雄州,,19,17,25,7,12,60,,,,10,15,7,8,0.4,0.4
2024-10-06T0300,1401A,108.3103,22.7881,南宁市,二十一中,细颗粒物(PM2.5),80,90,67,59,44,21,,,,63,38,34,16,1.0,0.9
2024-10-06T0300,1402A,108.3141,22.8528,南宁市,北湖,颗粒物(PM10),81,112,68,48,40,2,,,,88,43,27,18,1.2,1
2024-10-06T0300,1403A,108.3206,22.8225,南宁市,市监测站,细颗粒物(PM2.5),83,107,73,61,41,9,,,,66,39,24,20,1.2,0.9
2024-10-06T0300,1404A,108.3829,22.8037,南宁市,大自然花园,细颗粒物(PM2.5),60,47,54,43,38,59,,,,23,24,11,13,0.7,0.6
2024-10-06T0300,1405A,108.4394,22.7904,南宁市,仙葫,细颗粒物(PM2.5),77,67,58,56,40,65,,,,32,31,20,19,0.9,0.8
2024-10-06T0300,1406A,108.2397,22.8467,南宁市,区农职院,颗粒物(PM10),51,51,61,32,37,53,,,,25,23,15,19,0.7,0.7
2024-10-06T0300,1407A,108.3275,22.735,南宁市,英华嘉园,细颗粒物(PM2.5),74,80,60,54,39,57,,,,38,34,22,11,0.7,0.7
2024-10-06T0300,1408A,108.2257,22.7757,南宁市,沙井镇街道办,细颗粒物(PM2.5),62,67,72,44,39,15,,,,53,42,6,10,0.8,0.8
2024-10-06T0300,3401A,108.4834,22.7618,南宁市,红星社区,颗粒物(PM10),55,60,56,38,35,66,,,,31,24,15,11,0.7,0.7
2024-10-06T0300,2332A,118.1681,26.6369,南平市,南平市监测站,,30,25,27,21,20,28,,,,11,15,4,5,0.3,0.4
2024-10-06T0300,2333A,118.1825,26.6489,南平市,南平铝业有限公司,,32,,26,22,21,40,,,,8,10,5,5,0.5,0.5
2024-10-06T0300,2334A,118.1756,26.6272,南平市,南平七中,,22,20,23,15,14,22,,,,10,9,2,3,0.4,0.5
2024-10-06T0300,1168A,120.9098,31.9663,南通市,狼山街道,,30,6,18,3,6,96,,,,5,8,6,6,0.3,0.4
2024-10-06T0300,1169A,120.86,32.0005,南通市,虹桥,,30,10,18,3,8,94,,,,6,9,6,6,0.4,0.4
2024-10-06T0300,1170A,120.87,32.02,南通市,城中,,30,7,20,3,6,96,,,,10,13,6,6,0.4,0.4
2024-10-06T0300,1171A,120.94,31.93,南通市,星湖花园,,30,6,12,3,6,96,,,,9,12,5,6,0.4,0.5
2024-10-06T0300,1172A,120.81,32.0417,南通市,紫琅学院,,30,,13,3,7,93,,,,5,11,7,7,0.3,0.3
2024-10-06T0300,3291A,121.067,32.062,南通市,通州监测站,,34,6,15,3,4,107,,,,4,7,2,2,0.5,0.5
2024-10-06T0300,3432A,120.9348,31.9883,南通市,环境教育馆,,30,7,19,3,3,93,,,,9,10,2,3,0.4,0.5
2024-10-06T0300,2404A,112.5224,33.0122,南阳市,瓦房庄,细颗粒物(PM2.5),118,92,76,89,57,70,,,,22,19,4,6,0.8,0.7
2024-10-06T0300,2405A,112.5003,32.9735,南阳市,汉画馆,细颗粒物(PM2.5),110,,68,83,51,56,,,,26,23,6,8,0.7,0.6
2024-10-06T0300,2406A,112.5573,33.027,南阳市,气象站,细颗粒物(PM2.5),119,105,84,90,58,71,,,,24,23,7,10,0.7,0.7
2024-10-06T0300,2407A,112.5481,32.9689,南阳市,理工学院,细颗粒物(PM2.5),95,88,78,71,57,68,,,,23,23,7,9,0.7,0.7
2024-10-06T0300,4008A,112.5234,32.9922,南阳市,卧龙区政府,细颗粒物(PM2.5),110,95,75,83,52,71,,,,22,24,5,6,0.8,0.7
2024-10-06T0300,1234A,121.8358,29.911,宁波市,区环保大楼,,16,16,10,3,4,51,,,,20,21,6,6,0.7,0.6
2024-10-06T0300,1235A,121.56,29.82,宁波市,万里学院,,19,13,13,12,7,59,,,,12,15,6,6,0.5,0.5
2024-10-06T0300,1236A,121.713,29.9572,宁波市,龙赛医院,,21,12,13,3,3,65,,,,20,16,8,8,0.6,0.6
2024-10-06T0300,1239A,121.633,29.7733,宁波市,钱湖水厂,,18,10,12,7,6,56,,,,12,17,8,8,0.6,0.5
2024-10-06T0300,1240A,121.5856,29.8635,宁波市,太古小学,,20,12,13,3,5,63,,,,13,18,7,7,0.7,0.7
2024-10-06T0300,1241A,121.524,29.8674,宁波市,市环境监测中心,,19,13,16,3,3,59,,,,12,16,5,4,0.5,0.5
2024-10-06T0300,2871A,121.6147,29.9017,宁波市,万里国际学校,,18,16,18,3,9,57,,,,21,18,7,7,0.6,0.5
2024-10-06T0300,3710A,121.5594,29.8975,宁波市,白沙活动中心,,18,18,15,3,4,56,,,,12,15,8,8,0.4,0.3
2024-10-06T0300,2341A,119.5388,26.6612,宁德市,宁德市监测站,,15,,19,10,11,12,,,,16,21,6,7,0.6,0.7
2024-10-06T0300,3209A,119.5231,26.6562,宁德市,宁德一中,,22,,21,15,18,16,,,,5,15,5,6,0.4,0.5
2024-10-06T0300,2618A,98.8601,25.8567,怒江傈僳族自治州,州监测站,,11,11,16,6,11,24,,,,4,8,7,6,0.2,0.3
2024-10-06T0300,2619A,98.8546,25.8417,怒江傈僳族自治州,泸水一中,,6,6,13,3,6,19,,,,8,11,6,6,0.3,0.4
2024-10-06T0300,1888A,101.6891,26.571,攀枝花市,弄弄坪,,44,44,42,10,15,9,,,,27,23,12,12,0.8,0.7
2024-10-06T0300,1889A,101.5769,26.5928,攀枝花市,河门口,,15,15,23,6,13,13,,,,18,18,9,15,0.7,0.9
2024-10-06T0300,1890A,101.7169,26.585,攀枝花市,炳草岗,,23,23,34,15,14,10,,,,26,22,13,15,0.6,0.6
2024-10-06T0300,1891A,101.7369,26.5008,攀枝花市,仁和,,9,9,16,3,9,18,,,,11,13,6,7,0.4,0.5
2024-10-06T0300,2835A,101.7227,26.567,攀枝花市,四十中小,,26,26,31,11,20,16,,,,16,17,7,12,0.9,0.9
2024-10-06T0300,1604A,122.0303,41.1489,盘锦市,开发区,细颗粒物(PM2.5),125,,47,95,49,123,,,,19,18,4,11,0.7,0.6
2024-10-06T0300,1605A,122.0485,41.0883,盘锦市,兴隆台,细颗粒物(PM2.5),134,,43,102,50,86,,,,30,24,7,6,0.8,0.6
2024-10-06T0300,1606A,121.8297,41.1028,盘锦市,新生街道,细颗粒物(PM2.5),84,,42,62,39,98,,,,16,18,8,10,0.7,0.7
2024-10-06T0300,1832A,113.3257,33.742,平顶山市,新华旅馆,颗粒物(PM10),56,62,100,36,49,14,,,,56,35,6,10,0.6,0.5
2024-10-06T0300,1833A,113.2919,33.737,平顶山市,规划设计院,细颗粒物(PM2.5),84,102,93,62,53,26,,,,55,35,7,11,0.7,0.7
2024-10-06T0300,1834A,113.182,33.774,平顶山市,平顶山工学院,颗粒物(PM10),73,95,98,48,53,54,,,,22,35,7,8,0.5,0.6
2024-10-06T0300,3204A,113.3025,33.73,平顶山市,规划局,细颗粒物(PM2.5),79,90,97,58,60,23,,,,58,38,6,11,0.6,0.6
2024-10-06T0300,3594A,112.8867,33.9116,平顶山市,石龙区,颗粒物(PM10),67,83,116,46,51,13,,,,64,57,9,14,0.6,0.7
2024-10-06T0300,2656A,106.6692,35.5461,平凉市,聚贤嘉苑,,48,48,71,27,42,26,,,,29,37,8,10,0.3,0.5
2024-10-06T0300,2657A,106.7021,35.5307,平凉市,博物馆,颗粒物(PM10),53,55,80,31,44,19,,,,43,45,10,14,0.4,0.5
2024-10-06T0300,2347A,114.0997,27.5002,萍乡市,武功山,,19,18,20,3,11,60,,,,5,6,6,7,0.3,0.3
2024-10-06T0300,2348A,113.8385,27.6434,萍乡市,中医院,,43,43,49,25,28,70,,,,21,19,10,11,0.7,0.7
2024-10-06T0300,2349A,113.8493,27.6253,萍乡市,市政府车库,细颗粒物(PM2.5),57,50,47,40,33,46,,,,19,17,8,14,0.6,0.8
2024-10-06T0300,2350A,113.8676,27.6435,萍乡市,市环保局,细颗粒物(PM2.5),57,53,53,40,34,54,,,,17,18,8,14,0.7,0.8
2024-10-06T0300,2351A,113.866,27.6198,萍乡市,安源区政府,颗粒物(PM10),53,55,51,28,24,51,,,,19,22,7,12,0.5,0.5
2024-10-06T0300,2319A,119.0141,25.4325,莆田市,荔城区仓后路,,13,13,9,3,1,25,,,,13,9,8,7,0.6,0.5
2024-10-06T0300,2320A,119.0015,25.4553,莆田市,莆田市监测站,,13,6,7,3,2,40,,,,5,6,7,6,0.4,0.4
2024-10-06T0300,2321A,119.1119,25.4561,莆田市,涵江区六中,,9,9,12,3,2,24,,,,11,8,2,6,0.4,0.5
2024-10-06T0300,2322A,119.1013,25.3215,莆田市,秀屿区政府,,12,10,22,3,7,36,,,,6,11,7,7,0.7,0.6
2024-10-06T0300,2392A,115.0312,35.7636,濮阳市,环保局,细颗粒物(PM2.5),79,75,63,58,35,34,,,,37,25,2,4,0.6,0.5
2024-10-06T0300,2394A,115.0574,35.7609,濮阳市,油田运输公司,细颗粒物(PM2.5),73,86,61,53,39,21,,,,55,28,2,4,0.6,0.5
2024-10-06T0300,2395A,115.0866,35.7754,濮阳市,油田物探公司,细颗粒物(PM2.5),87,79,57,64,38,10,,,,43,23,1,3,0.7,0.4
2024-10-06T0300,3021A,115,35.7668,濮阳市,濮水河管理处,细颗粒物(PM2.5),69,69,49,50,32,6,,,,36,20,3,2,0.5,0.4
2024-10-06T0300,2601A,100.98,22.7633,普洱市,市环保局,,27,27,25,12,13,10,,,,5,6,4,4,0.4,0.5
2024-10-06T0300,2602A,100.9817,22.8322,普洱市,普洱第二中学,,23,23,29,16,12,8,,,,8,8,4,4,0.5,0.5
2024-10-06T0300,2262A,131.0518,45.8751,七台河市,新一中,,44,44,30,26,15,79,,,,9,14,9,10,1.4,1.3
2024-10-06T0300,3345A,131.0577,45.7879,七台河市,中波台,,45,45,36,24,12,72,,,,31,22,7,7,0.8,0.6
2024-10-06T0300,3637A,131.0176,45.7761,七台河市,人民广场,颗粒物(PM10),52,53,38,25,20,68,,,,24,22,8,8,0.8,0.5
2024-10-06T0300,3684A,130.8781,45.8222,七台河市,新建矿广场,颗粒物(PM10),141,232,107,41,26,9,,,,56,32,10,8,0.8,0.6
2024-10-06T0300,1779A,123.9305,47.3636,齐齐哈尔市,安居小区,,35,35,37,9,21,42,,,,11,13,8,9,0.3,0.4
2024-10-06T0300,1780A,123.9488,47.3386,齐齐哈尔市,中心广场,,26,26,29,12,7,46,,,,10,12,2,3,0.1,0.2
2024-10-06T0300,1781A,123.9483,47.3227,齐齐哈尔市,农牧车辆厂,,24,24,39,3,7,51,,,,7,9,8,8,0.2,0.3
2024-10-06T0300,1783A,123.945,47.2988,齐齐哈尔市,市环境监测站,,19,18,29,13,13,54,,,,9,10,9,8,0.2,0.2
2024-10-06T0300,3662A,123.6333,47.2075,齐齐哈尔市,富区青少年活动中心,,27,27,42,16,12,36,,,,13,13,4,6,0.3,0.4
2024-10-06T0300,2591A,107.9783,26.5747,黔东南苗族侗族自治州,市环境监测站,,48,45,39,33,27,85,,,,20,16,6,6,0.5,0.5
2024-10-06T0300,2881A,107.8908,26.5311,黔东南苗族侗族自治州,凯里学院,,43,39,37,30,23,65,,,,17,14,3,4,0.5,0.5
2024-10-06T0300,2593A,107.5228,26.2403,黔南布依族苗族自治州,小围寨,,39,36,32,27,22,88,,,,5,5,8,8,0.4,0.4
2024-10-06T0300,3538A,107.5175,26.2978,黔南布依族苗族自治州,沙坝,,42,41,40,29,22,54,,,,16,10,5,6,0.5,0.5
2024-10-06T0300,2589A,104.9022,25.0925,黔西南布依族苗族自治州,场坝街,,38,33,31,26,22,86,,,,7,8,4,4,0.3,0.3
2024-10-06T0300,2590A,104.8811,25.0992,黔西南布依族苗族自治州,坪东大道,,40,35,34,28,22,72,,,,8,7,8,7,0.3,0.4
2024-10-06T0300,2502A,108.6236,21.9667,钦州市,市环保站,颗粒物(PM10),73,95,92,51,37,68,,,,33,26,27,14,2.4,1.5
2024-10-06T0300,2503A,108.6549,21.9481,钦州市,沙埠小学,颗粒物(PM10),76,102,88,49,46,63,,,,35,26,9,11,0.9,1.2
2024-10-06T0300,2504A,108.5989,21.7431,钦州市,港区一小,颗粒物(PM10),62,73,84,39,36,99,,,,23,28,20,12,0.9,0.8
2024-10-06T0300,3404A,108.5959,21.9633,钦州市,北职校,细颗粒物(PM2.5),57,46,69,40,40,85,,,,18,18,8,9,0.8,0.9
2024-10-06T0300,1042A,119.5134,39.8207,秦皇岛市,北戴河环保局,细颗粒物(PM2.5),84,105,93,62,47,90,,,,28,29,8,6,0.9,1
2024-10-06T0300,1043A,119.7493,40.0116,秦皇岛市,第一关,细颗粒物(PM2.5),65,72,90,47,52,41,,,,72,62,4,9,0.6,0.9
2024-10-06T0300,1044A,119.5897,39.9499,秦皇岛市,监测站,细颗粒物(PM2.5),80,80,84,59,54,58,,,,50,40,14,13,0.7,1.1
2024-10-06T0300,1046A,119.5251,39.9041,秦皇岛市,建设大厦,细颗粒物(PM2.5),87,106,95,64,46,75,,,,42,31,11,13,0.8,1.1
2024-10-06T0300,3132A,119.610547,39.943889,秦皇岛市,文明里,颗粒物(PM10),82,113,102,56,51,67,,,,49,39,10,13,0.9,1.2
2024-10-06T0300,1307A,120.6659,36.2403,青岛市,仰口,,29,,10,11,9,92,,,,2,5,6,6,0.8,0.8
2024-10-06T0300,1310A,120.4134,36.0658,青岛市,市南区东部子站,,30,7,10,3,4,95,,,,5,11,5,6,0.4,0.4
2024-10-06T0300,1311A,120.3664,36.1032,青岛市,四方区子站,,24,24,16,9,8,65,,,,34,25,8,8,0.3,0.4
2024-10-06T0300,1312A,120.2994,36.054,青岛市,市南区西部子站,,33,9,11,3,3,105,,,,7,9,8,8,0.5,0.4
2024-10-06T0300,1313A,120.4581,36.0858,青岛市,崂山区子站,,27,9,4,3,2,84,,,,22,13,8,8,0.5,0.5
2024-10-06T0300,1314A,120.1983,35.9608,青岛市,黄岛区子站,,22,14,11,10,8,70,,,,34,17,8,9,0.4,0.4
2024-10-06T0300,1315A,120.3999,36.3083,青岛市,城阳区子站,,34,34,20,20,9,40,,,,45,26,8,7,0.6,0.5
2024-10-06T0300,1966A,120.0405,35.8735,青岛市,黄岛区4号,,28,12,12,7,5,89,,,,17,17,6,6,0.4,0.4
2024-10-06T0300,3362A,120.5014,36.4034,青岛市,即墨2号,,26,21,12,18,7,68,,,,17,11,6,6,0.4,0.3
2024-10-06T0300,3642A,120.3503,36.0736,青岛市,市北区南部,,24,18,16,3,5,74,,,,25,20,6,6,0.6,0.5
2024-10-06T0300,3643A,120.3948,36.1805,青岛市,李沧区北部,,29,17,15,7,9,90,,,,19,24,8,8,0.5,0.6
2024-10-06T0300,1702A,113.0426,23.691,清远市,环保大楼,,36,27,28,25,22,88,,,,14,13,13,10,0.7,0.7
2024-10-06T0300,1703A,113.0208,23.7106,清远市,凤城街办,,29,25,31,15,18,90,,,,8,7,12,11,0.7,0.7
2024-10-06T0300,3025A,113.0477,23.6344,清远市,技师学院,,28,28,35,15,19,82,,,,12,12,11,10,0.7,0.7
2024-10-06T0300,3318A,112.9903,23.7403,清远市,清新太和,,35,35,31,21,19,82,,,,15,8,9,6,0.6,0.5
2024-10-06T0300,3455A,113.076,23.7198,清远市,清城东城,,26,22,33,16,19,82,,,,9,5,12,8,0.5,0.4
2024-10-06T0300,2661A,107.6325,35.7357,庆阳市,庆阳五中,颗粒物(PM10),52,54,65,34,40,84,,,,8,16,6,9,0.5,0.5
2024-10-06T0300,2662A,107.6364,35.7067,庆阳市,市环保局,,43,43,59,24,37,84,,,,9,16,5,7,0.4,0.4
2024-10-06T0300,1916A,103.7897,25.5035,曲靖市,环境监测站,,49,49,37,27,19,33,,,,15,14,14,7,0.7,0.5
2024-10-06T0300,1917A,103.8,25.5364,曲靖市,烟厂办公区,,31,31,32,13,19,41,,,,14,13,4,4,0.6,0.6
2024-10-06T0300,3376A,103.7947,25.462,曲靖市,南苑二区,颗粒物(PM10),52,53,38,30,21,39,,,,15,12,28,17,1.0,0.8
2024-10-06T0300,3377A,103.7444,25.5261,曲靖市,曲靖师范学院,,40,40,28,28,20,36,,,,19,12,15,11,0.8,0.6
2024-10-06T0300,1264A,118.8692,28.9398,衢州市,环保大楼,,19,19,31,13,18,45,,,,12,16,6,6,0.4,0.5
2024-10-06T0300,1265A,118.8709,28.9666,衢州市,实验学校,,33,23,31,23,24,40,,,,14,14,3,4,0.3,0.3
2024-10-06T0300,1266A,118.8621,28.9808,衢州市,衢州学院,颗粒物(PM10),61,71,46,25,24,31,,,,24,21,7,8,0.4,0.3
2024-10-06T0300,1611A,118.5819,24.9117,泉州市,涂山街,,15,8,17,3,9,45,,,,8,11,2,2,0.4,0.4
2024-10-06T0300,1612A,118.5972,24.8978,泉州市,津头埔,,13,7,19,3,8,41,,,,7,12,4,4,0.4,0.4
2024-10-06T0300,1613A,118.6663,24.9424,泉州市,万安,,13,6,15,3,7,40,,,,6,9,2,2,0.3,0.4
2024-10-06T0300,3529A,118.6333,24.9264,泉州市,城华南路,,11,10,13,6,7,35,,,,6,6,3,3,0.3,0.3
2024-10-06T0300,2626A,88.8876,29.2718,日喀则市,日喀则监测站,,26,8,15,3,6,83,,,,12,12,6,5,0.3,0.4
2024-10-06T0300,3726A,88.8781,29.2426,日喀则市,林业技术推广中心,,29,7,16,3,3,91,,,,5,7,7,7,0.3,0.4
2024-10-06T0300,1659A,119.471,35.4209,日照市,监测站,,29,9,17,6,12,92,,,,13,32,11,11,0.4,0.5
2024-10-06T0300,1660A,119.523,35.4216,日照市,市政府广场,,28,14,19,11,10,89,,,,16,24,6,6,0.4,0.4
2024-10-06T0300,1661A,119.5587,35.4044,日照市,港务局,,32,,19,15,16,101,,,,9,20,4,8,0.5,0.5
2024-10-06T0300,3507A,119.5328,35.4625,日照市,职业技术学院,,27,14,15,9,8,84,,,,18,19,10,9,0.5,0.5
2024-10-06T0300,3604A,119.3266,35.1044,日照市,岚山环保分局,,29,29,20,18,12,67,,,,32,16,78,18,0.9,1
2024-10-06T0300,1835A,111.1922,34.7752,三门峡市,市政府,细颗粒物(PM2.5),64,61,65,46,45,24,,,,70,27,17,22,0.6,0.6
2024-10-06T0300,1836A,111.1587,34.7942,三门峡市,开发区,颗粒物(PM10),61,72,73,40,40,72,,,,22,25,19,19,0.6,0.6
2024-10-06T0300,1838A,111.143,34.7955,三门峡市,风景区,颗粒物(PM10),52,54,63,35,39,79,,,,17,21,17,20,0.8,0.8
2024-10-06T0300,3039A,111.1911,34.7829,三门峡市,三门峡市第一小学,细颗粒物(PM2.5),64,62,66,46,44,68,,,,19,25,17,18,0.6,0.7
2024-10-06T0300,3598A,111.1,34.7167,三门峡市,富达温泉假日酒店,细颗粒物(PM2.5),88,88,93,65,59,58,,,,21,26,9,17,0.5,0.7
2024-10-06T0300,2324A,117.6211,26.2625,三明市,三钢,,28,28,24,15,17,18,,,,13,14,1,3,0.4,0.5
2024-10-06T0300,2325A,117.635,26.2714,三明市,三明二中,,22,20,19,15,14,22,,,,16,13,2,3,0.5,0.4
2024-10-06T0300,2326A,117.6028,26.2378,三明市,三元区政府,,32,22,23,22,17,15,,,,18,16,2,3,0.6,0.6
2024-10-06T0300,1876A,109.5078,18.2489,三亚市,河东子站,,32,32,34,20,18,71,,,,9,8,4,5,0.5,0.4
2024-10-06T0300,1877A,109.4964,18.2681,三亚市,河西子站,,26,26,32,16,20,71,,,,7,9,4,4,0.5,0.5
2024-10-06T0300,3540A,109.7348,18.3443,三亚市,君悦子站,,45,45,39,23,20,68,,,,12,9,3,4,0.6,0.6
2024-10-06T0300,2624A,91.7608,29.2313,山南市,山南监测站,,,,10,6,5,55,,,,8,6,10,9,0.4,0.4
2024-10-06T0300,2625A,91.7706,29.2436,山南市,山南人民医院,,20,8,13,3,5,63,,,,10,9,10,9,0.4,0.4
2024-10-06T0300,1674A,116.6794,23.3667,汕头市,金平子站,,39,,21,27,16,86,,,,15,16,6,6,0.6,0.6
2024-10-06T0300,1675A,116.7244,23.3633,汕头市,龙湖子站,,27,25,21,17,13,84,,,,5,6,8,9,0.8,0.8
2024-10-06T0300,1676A,116.7258,23.2775,汕头市,濠江子站,,36,,17,25,13,84,,,,8,8,6,7,0.8,0.8
2024-10-06T0300,1677A,116.7519,23.4714,汕头市,澄海子站,,39,,23,27,17,85,,,,11,12,8,8,0.9,0.8
2024-10-06T0300,1678A,116.6092,23.2539,汕头市,潮阳子站,,31,20,23,16,12,99,,,,4,8,5,7,0.5,0.5
2024-10-06T0300,3444A,116.454,23.2684,汕头市,潮南峡山,,30,30,29,11,13,83,,,,5,8,6,7,0.7,0.7
2024-10-06T0300,3624A,116.4069,23.2533,汕头市,潮南子站,,38,38,32,21,14,88,,,,11,13,6,6,0.7,0.7
2024-10-06T0300,1693A,115.3653,22.775,汕尾市,市环保局,,35,31,21,24,14,70,,,,13,9,9,9,0.5,0.4
2024-10-06T0300,1694A,115.3706,22.7898,汕尾市,市政府,颗粒物(PM10),88,126,33,35,29,56,,,,15,10,8,8,0.7,0.6
2024-10-06T0300,1695A,115.3622,22.7925,汕尾市,新城中学,,32,32,25,22,15,58,,,,10,6,6,7,0.8,0.7
2024-10-06T0300,2645A,109.9154,33.8715,商洛市,监测站,,49,49,47,28,26,22,,,,43,27,4,6,0.5,0.5
2024-10-06T0300,3045A,109.9643,33.8471,商洛市,商州区中学,颗粒物(PM10),51,51,52,28,26,43,,,,32,34,9,9,0.5,0.4
2024-10-06T0300,2408A,115.6702,34.4285,商丘市,环境监测站,细颗粒物(PM2.5),89,79,66,66,47,51,,,,28,25,5,5,0.7,0.6
2024-10-06T0300,2409A,115.6458,34.4045,商丘市,粮食局,细颗粒物(PM2.5),70,61,53,51,45,80,,,,11,13,6,5,0.7,0.8
2024-10-06T0300,2410A,115.6293,34.3948,商丘市,睢阳区环保局,细颗粒物(PM2.5),69,54,53,50,36,61,,,,19,19,9,8,0.4,0.4
2024-10-06T0300,3171A,115.6071,34.4465,商丘市,梁园区档案局,细颗粒物(PM2.5),107,84,57,80,41,51,,,,24,20,6,6,0.9,0.7
2024-10-06T0300,1141A,121.4,31.238,上海市,普陀,,25,14,19,10,7,79,,,,14,17,4,4,0.4,0.5
2024-10-06T0300,1142A,121.478,31.2036,上海市,十五厂,,24,14,18,9,7,75,,,,23,18,8,8,0.4,0.4
2024-10-06T0300,1143A,121.467,31.3008,上海市,虹口,,27,13,19,6,6,86,,,,13,18,6,7,0.4,0.4
2024-10-06T0300,1144A,121.412,31.1654,上海市,徐汇上师大,,20,18,18,14,8,58,,,,27,19,6,6,0.5,0.5
2024-10-06T0300,1145A,121.536,31.2659,上海市,杨浦四漂,,28,13,21,6,5,89,,,,13,19,8,8,0.7,0.6
2024-10-06T0300,1147A,121.425,31.2261,上海市,静安监测站,,22,18,20,12,8,70,,,,20,19,6,6,0.4,0.4
2024-10-06T0300,1148A,121.703,31.1907,上海市,浦东川沙,,32,12,16,3,3,101,,,,9,11,6,6,0.6,0.5
2024-10-06T0300,1149A,121.533,31.2284,上海市,浦东新区监测站,,27,10,14,10,7,85,,,,14,16,6,6,0.5,0.5
2024-10-06T0300,1150A,121.577,31.2071,上海市,浦东张江,,27,13,16,10,7,85,,,,18,25,5,5,0.6,0.6
2024-10-06T0300,3265A,121.4316,31.3322,上海市,宝山庙行,,29,13,19,6,7,90,,,,11,18,7,7,0.6,0.6
2024-10-06T0300,3266A,121.8791,31.4662,上海市,崇明上实东滩,,31,14,16,3,5,98,,,,4,4,7,7,0.7,0.7
2024-10-06T0300,3268A,121.3162,31.2838,上海市,嘉定南翔,,26,14,19,9,6,83,,,,12,18,7,7,0.6,0.4
2024-10-06T0300,3269A,121.3359,30.7456,上海市,金山新城,,29,29,16,10,6,53,,,,17,10,4,4,0.3,0.3
2024-10-06T0300,3270A,121.4996,31.0739,上海市,闵行浦江,,28,12,17,3,7,87,,,,9,13,5,5,0.5,0.5
2024-10-06T0300,3271A,121.2886,31.1663,上海市,青浦徐泾,,25,18,20,17,9,73,,,,18,24,6,6,0.6,0.4
2024-10-06T0300,3272A,121.2186,31.0378,上海市,松江图书馆,,40,40,23,20,7,44,,,,27,18,4,4,0.5,0.5
2024-10-06T0300,3273A,121.3902,31.2059,上海市,长宁仙霞,,20,14,13,13,8,61,,,,23,18,5,5,0.7,0.6
2024-10-06T0300,3274A,121.7965,31.0507,上海市,浦东惠南,,28,15,18,3,4,88,,,,13,10,8,8,0.7,0.7
2024-10-06T0300,3544A,121.4891,30.925,上海市,奉贤南桥新城,,25,20,18,8,5,77,,,,16,14,8,8,0.5,0.4
2024-10-06T0300,2381A,118.005,28.4572,上饶市,百草园,,32,,32,22,11,62,,,,8,9,7,6,0.5,0.4
2024-10-06T0300,2382A,117.9756,28.4436,上饶市,市监测站,,21,15,26,8,13,66,,,,9,9,5,4,0.6,0.6
2024-10-06T0300,2383A,117.9519,28.4628,上饶市,凤凰光学,,18,18,26,10,13,55,,,,9,8,5,9,0.8,0.8
2024-10-06T0300,3413A,118.1953,28.4401,上饶市,广丰区教体局,,19,12,23,12,13,58,,,,12,10,6,5,0.8,0.8
2024-10-06T0300,3685A,117.897,28.4315,上饶市,双创科技城,,23,19,26,16,15,60,,,,15,16,4,6,0.6,0.5
2024-10-06T0300,1669A,113.5824,24.7733,韶关市,市八中,,33,33,37,19,24,83,,,,18,8,13,14,0.6,0.5
2024-10-06T0300,1671A,113.5917,24.7972,韶关市,园林处,,35,34,31,24,25,94,,,,8,6,12,14,0.5,0.4
2024-10-06T0300,1672A,113.6735,24.7791,韶关市,韶关学院,,36,32,33,25,22,53,,,,15,12,11,11,0.3,0.3
2024-10-06T0300,1673A,113.5971,24.6863,韶关市,曲江监测站,,40,40,38,25,23,44,,,,14,13,11,12,0.7,0.5
2024-10-06T0300,3622A,113.5556,24.8082,韶关市,碧湖山庄,,49,49,43,29,24,56,,,,9,6,13,12,0.5,0.4
2024-10-06T0300,2463A,111.4733,27.2317,邵阳市,市一中,细颗粒物(PM2.5),63,60,57,45,39,113,,,,12,16,10,11,0.7,0.6
2024-10-06T0300,2464A,111.5283,27.2442,邵阳市,市化工厂,细颗粒物(PM2.5),79,80,59,58,40,63,,,,23,16,11,10,0.9,0.7
2024-10-06T0300,2465A,111.4503,27.2537,邵阳市,市罐头厂,细颗粒物(PM2.5),70,57,52,51,42,115,,,,10,11,10,10,0.6,0.5
2024-10-06T0300,2466A,111.4328,27.2272,邵阳市,市环保局,细颗粒物(PM2.5),64,54,52,46,38,124,,,,8,11,8,8,0.7,0.6
2024-10-06T0300,1247A,120.6053,29.9928,绍兴市,城东开发委,,20,18,26,11,15,62,,,,13,23,7,7,0.4,0.4
2024-10-06T0300,2921A,120.5483,30.0003,绍兴市,树下王站,,22,18,28,15,22,65,,,,11,20,4,5,0.4,0.5
2024-10-06T0300,3408A,120.5683,29.9361,绍兴市,绍兴中专,,21,18,26,14,17,65,,,,11,19,4,4,0.4,0.5
2024-10-06T0300,3409A,120.4906,30.0861,绍兴市,柯桥区政府,,20,14,18,11,14,63,,,,13,23,6,6,0.6,0.6
2024-10-06T0300,3410A,120.8752,30.0249,绍兴市,重华小学,,21,15,17,10,11,65,,,,14,17,7,7,0.5,0.5
2024-10-06T0300,3411A,120.8369,30.0137,绍兴市,上虞中学,,19,15,18,12,13,60,,,,14,17,4,4,0.6,0.7
2024-10-06T0300,3560A,120.4722,30.0415,绍兴市,柯桥妇保,,21,17,25,10,13,65,,,,9,19,2,3,0.6,0.6
2024-10-06T0300,3658A,120.6153,30.0764,绍兴市,袍江中学,,21,14,27,8,15,65,,,,12,23,4,3,0.5,0.5
2024-10-06T0300,1356A,114.1063,22.5545,深圳市,通心岭子站,,32,32,36,18,20,66,,,,12,14,5,5,0.6,0.6
2024-10-06T0300,1357A,114.117,22.5625,深圳市,洪湖,,32,32,34,20,16,67,,,,14,18,9,9,0.5,0.5
2024-10-06T0300,1358A,113.987,22.5417,深圳市,华侨城,,38,38,65,14,29,63,,,,14,16,9,9,0.6,0.6
