timepoint,stationcode,longitude,latitude,area,positionname,primarypollutant,aqi,pm10,pm10_24h,pm2_5,pm2_5_24h,o3,o3_24h,o3_8h,o3_8h_24h,no2,no2_24h,so2,so2_24h,co,co_24h
2025-05-01T1900,2566A,102.1879,31.914,阿坝藏族羌族自治州,州农科所,,33,,20,23,8,72,,97,97,28,7,14,10,0.6,0.5
2025-05-01T1900,2568A,102.2502,31.8896,阿坝藏族羌族自治州,马师校,,,,18,14,13,94,,107,107,,9,,5,0.4,0.5
2025-05-01T1900,3994A,102.2165,31.9024,阿坝藏族羌族自治州,马尔康中学西区,,37,15,22,10,13,117,,121,121,1,5,4,4,0.3,0.4
2025-05-01T1900,2695A,80.292,41.1694,阿克苏地区,电视台,颗粒物(PM10),81,112,106,31,34,110,,108,108,2,29,5,8,0.5,0.8
2025-05-01T1900,2696A,80.2613,41.1551,阿克苏地区,艺术中心,颗粒物(PM10),81,111,124,22,40,100,,101,101,4,34,5,4,0.4,0.7
2025-05-01T1900,2204A,105.6467,38.8363,阿拉善盟,西城区西花园,颗粒物(PM10),92,133,85,61,31,105,,110,110,7,8,5,6,0.5,0.5
2025-05-01T1900,2205A,105.6985,38.8411,阿拉善盟,蒙二幼,颗粒物(PM10),109,167,85,52,36,89,,94,93,6,6,7,7,0.4,0.4
2025-05-01T1900,2206A,105.724,38.8516,阿拉善盟,环保局新楼,颗粒物(PM10),105,160,86,61,31,93,,102,97,3,3,8,8,0.4,0.4
2025-05-01T1900,2708A,88.1264,47.8517,阿勒泰地区,市站,,38,38,26,3,5,78,,71,71,7,9,3,3,0.3,0.4
2025-05-01T1900,2630A,80.1161,32.5,阿里地区,阿里监测站,,34,9,12,3,6,108,,108,108,3,6,5,4,0.4,0.4
2025-05-01T1900,3192A,80.0903,32.5028,阿里地区,阿里藏医院,,37,13,19,6,6,118,,117,117,2,6,5,7,0.3,0.4
2025-05-01T1900,2642A,109.0318,32.6537,安康市,香溪洞,颗粒物(PM10),76,102,71,30,27,117,,118,118,4,6,6,7,0.6,0.6
2025-05-01T1900,2644A,109.0072,32.6975,安康市,汉滨区检察院,颗粒物(PM10),89,128,75,31,24,121,,127,127,12,10,8,8,0.7,0.4
2025-05-01T1900,4054A,109.0325,32.6913,安康市,市邮政管理局,颗粒物(PM10),89,127,82,38,30,110,,124,124,13,10,6,17,0.4,0.3
2025-05-01T1900,2291A,117.0809,30.5177,安庆市,环科院,颗粒物(PM10),56,62,47,21,28,120,,131,131,20,12,2,2,0.6,0.7
2025-05-01T1900,2292A,117.0331,30.5119,安庆市,马山宾馆,颗粒物(PM10),51,52,44,17,29,130,,133,133,18,16,4,4,0.5,0.6
2025-05-01T1900,2294A,116.9896,30.6145,安庆市,安庆大学,颗粒物(PM10),56,61,48,18,29,123,,130,130,22,12,6,5,0.4,0.5
2025-05-01T1900,3173A,117.0598,30.5351,安庆市,市人大,颗粒物(PM10),55,60,48,18,28,135,,141,141,17,12,7,6,0.4,0.5
2025-05-01T1900,3123A,105.9408,26.2431,安顺市,凤凰山,颗粒物(PM10),54,58,38,22,23,108,,131,130,23,22,8,9,0.4,0.4
2025-05-01T1900,3124A,105.9439,26.2564,安顺市,金钟山,,45,45,26,24,17,124,,134,134,6,8,7,6,0.3,0.3
2025-05-01T1900,3125A,105.8983,26.2481,安顺市,娄家坡,颗粒物(PM10),61,72,36,38,22,123,,130,130,10,12,11,8,0.3,0.3
2025-05-01T1900,1819A,114.3551,36.1017,安阳市,红庙街,颗粒物(PM10),63,75,83,25,27,129,,132,132,2,8,3,4,0.3,0.4
2025-05-01T1900,1820A,114.361,36.0681,安阳市,银杏小区,颗粒物(PM10),63,75,80,23,39,132,,136,136,5,11,5,6,0.3,0.4
2025-05-01T1900,3141A,114.3922,36.0878,安阳市,信访局,颗粒物(PM10),67,83,76,25,34,129,,133,133,10,14,3,3,0.4,0.4
2025-05-01T1900,3669A,114.4705,36.0637,安阳市,左辅环卫站,颗粒物(PM10),58,65,68,21,41,123,,132,131,11,16,3,3,0.4,0.4
2025-05-01T1900,3703A,114.2917,36.0949,安阳市,安钢职工学校,颗粒物(PM10),66,81,90,20,36,127,,130,130,6,15,3,5,0.4,0.6
2025-05-01T1900,1748A,123.044,41.1196,鞍山市,深沟寺,,20,18,29,10,14,62,,82,80,13,14,5,6,0.4,0.6
2025-05-01T1900,1749A,123.011,41.0931,鞍山市,太阳城,,24,14,28,9,15,76,,74,74,10,13,6,8,0.5,0.9
2025-05-01T1900,1750A,123.0485,41.1442,鞍山市,太平,,34,34,38,14,15,79,,77,77,15,15,8,9,0.6,0.7
2025-05-01T1900,1751A,122.9642,41.0971,鞍山市,铁西三道街,,28,28,37,14,18,78,,78,76,25,20,12,9,1.6,1
2025-05-01T1900,1753A,123.022,41.0821,鞍山市,明达新区,,25,16,30,8,14,79,,78,78,14,14,6,8,0.2,0.5
2025-05-01T1900,4201A,122.9446,41.0826,鞍山市,兴盛南路290号,,26,26,33,12,16,77,,78,76,24,18,14,10,1.3,0.9
2025-05-01T1900,2195A,107.4212,40.761,巴彦淖尔市,附二中,颗粒物(PM10),53,55,61,20,20,103,,104,104,8,14,10,8,0.5,0.6
2025-05-01T1900,2196A,107.37,40.7372,巴彦淖尔市,市环保大楼,细颗粒物(PM2.5),52,51,59,36,28,112,,116,116,14,17,7,5,0.6,0.6
2025-05-01T1900,1956A,86.1472,41.7538,巴音郭楞蒙古自治州,孔雀公园,颗粒物(PM10),117,184,152,46,41,90,,100,100,4,35,6,11,0.4,0.5
2025-05-01T1900,1957A,86.1972,41.7166,巴音郭楞蒙古自治州,棉纺厂,颗粒物(PM10),116,182,167,41,39,91,,96,96,6,26,3,3,0.2,0.3
2025-05-01T1900,1958A,86.2357,41.7173,巴音郭楞蒙古自治州,经济开发区,颗粒物(PM10),121,191,127,51,27,85,,84,84,5,12,7,7,0.2,0.2
2025-05-01T1900,2914A,106.7677,31.8794,巴中市,苏山坪,颗粒物(PM10),59,67,41,26,23,148,,144,144,7,10,3,4,0.3,0.5
2025-05-01T1900,3181A,106.7768,31.8526,巴中市,市五中,颗粒物(PM10),54,58,42,23,23,148,,146,146,9,13,6,6,0.4,0.5
2025-05-01T1900,3183A,106.7418,31.8654,巴中市,圣泉水务公司,颗粒物(PM10),59,68,40,29,22,148,,148,148,7,19,7,7,0.3,0.4
2025-05-01T1900,3616A,106.7616,31.8344,巴中市,市中心医院,颗粒物(PM10),63,76,54,34,25,144,,142,142,7,17,5,4,0.4,0.5
2025-05-01T1900,2235A,122.7911,45.6077,白城市,洮北区环保局,,25,23,30,3,11,78,,90,90,13,16,3,3,0.3,0.3
2025-05-01T1900,2236A,122.8738,45.5725,白城市,市环保局,,25,24,26,8,13,79,,93,93,8,11,3,2,0.3,0.3
2025-05-01T1900,2231A,126.4219,41.9171,白山市,喜丰,,32,17,24,3,11,100,,107,101,10,11,25,7,0.6,0.7
2025-05-01T1900,2232A,126.4077,41.9419,白山市,环保局,,29,15,23,7,8,92,,100,96,7,10,4,7,0.4,0.5
2025-05-01T1900,2647A,104.1724,36.5446,白银市,第三小学,颗粒物(PM10),65,80,66,21,25,119,,117,117,6,13,16,18,0.3,0.8
2025-05-01T1900,2648A,104.1465,36.5482,白银市,动力公司,颗粒物(PM10),56,62,65,22,40,118,,120,120,10,10,17,17,0.5,0.8
2025-05-01T1900,2512A,106.6103,23.9011,百色市,市监测站,,42,42,27,23,13,107,,105,105,16,16,7,4,0.6,0.6
2025-05-01T1900,2513A,106.6538,23.8859,百色市,市中心血站,,,72,44,17,17,115,,113,113,20,24,8,6,,0.8
2025-05-01T1900,3406A,106.6085,23.8798,百色市,祈福高中,颗粒物(PM10),55,59,32,13,14,112,,105,105,15,14,7,5,0.5,0.6
2025-05-01T1900,2270A,117.396,32.939,蚌埠市,工人疗养院,颗粒物(PM10),55,60,69,19,24,140,,143,143,12,10,5,5,0.4,0.5
2025-05-01T1900,2271A,117.3605,32.9427,蚌埠市,百货大楼,颗粒物(PM10),62,73,73,22,27,144,,144,144,12,12,6,7,0.4,0.5
2025-05-01T1900,2273A,117.4185,32.8911,蚌埠市,蚌埠学院,颗粒物(PM10),59,68,70,23,28,146,,145,145,9,9,4,4,0.4,0.5
2025-05-01T1900,2274A,117.3533,32.9673,蚌埠市,淮上区政府,颗粒物(PM10),62,73,77,26,31,140,,145,145,16,14,5,6,0.3,0.4
2025-05-01T1900,2275A,117.3145,32.8977,蚌埠市,高新区,,,,67,23,31,140,,143,143,11,11,5,6,0.3,0.4
2025-05-01T1900,3715A,117.3092,32.9314,蚌埠市,蚌埠田家炳中学,颗粒物(PM10),63,76,76,34,31,142,,150,150,19,12,6,6,0.2,0.3
2025-05-01T1900,1585A,109.8756,40.6532,包头市,市环境监测站,颗粒物(PM10),59,67,52,25,26,104,,109,109,21,18,11,13,0.5,0.5
2025-05-01T1900,1587A,109.9991,40.5842,包头市,包头八中,颗粒物(PM10),62,74,53,31,24,109,,110,110,25,23,15,14,0.5,0.5
2025-05-01T1900,1588A,109.8538,40.6821,包头市,青山宾馆,颗粒物(PM10),53,56,42,29,23,108,,109,109,19,15,13,15,0.5,0.6
2025-05-01T1900,1589A,109.8642,40.6288,包头市,惠龙物流,颗粒物(PM10),54,57,47,30,26,111,,113,113,19,20,12,13,0.5,0.5
2025-05-01T1900,1590A,110.0377,40.5546,包头市,东河鸿龙湾,颗粒物(PM10),63,75,57,28,18,102,,107,107,23,22,14,10,0.5,0.5
2025-05-01T1900,3283A,109.9154,40.5685,包头市,滨河大厦,"颗粒物(PM10),细颗粒物(PM2.5)",58,65,48,41,28,110,,111,111,17,26,15,13,0.5,0.6
2025-05-01T1900,3419A,109.9447,40.6261,包头市,包头市委党校,颗粒物(PM10),53,56,49,18,13,105,,111,111,21,16,12,12,0.4,0.5
2025-05-01T1900,3683A,109.8331,40.6576,包头市,昆区政府,颗粒物(PM10),52,54,45,31,26,109,,110,110,25,18,9,13,0.5,0.6
2025-05-01T1900,1930A,107.185,34.3063,宝鸡市,庙沟村,颗粒物(PM10),61,72,139,15,42,121,,126,126,5,5,7,7,0.5,0.4
2025-05-01T1900,1931A,107.0708,34.3017,宝鸡市,竹园沟,颗粒物(PM10),54,57,133,13,37,106,,119,119,6,7,8,8,0.3,0.3
2025-05-01T1900,1932A,107.1906,34.3672,宝鸡市,三陆医院,,37,28,116,25,46,116,,120,120,9,24,6,7,0.3,0.3
2025-05-01T1900,1933A,107.1431,34.3547,宝鸡市,监测站,颗粒物(PM10),67,83,130,30,45,94,,107,107,17,20,5,5,0.3,0.3
2025-05-01T1900,1934A,107.1186,34.3739,宝鸡市,技工学校,颗粒物(PM10),53,55,110,18,36,110,,118,118,13,14,8,9,0.3,0.4
2025-05-01T1900,1935A,107.3906,34.3528,宝鸡市,陈仓区环保局家属楼,颗粒物(PM10),62,73,134,33,48,138,,132,132,21,18,8,36,0.4,0.6
2025-05-01T1900,1936A,107.2058,34.3497,宝鸡市,文理学院,,42,42,113,15,46,118,,123,123,8,16,7,7,0.4,0.4
2025-05-01T1900,1937A,107.2386,34.3622,宝鸡市,三迪小学,,,,135,23,57,107,,118,118,18,21,6,6,0.4,0.4
2025-05-01T1900,1051A,115.493,38.8632,保定市,游泳馆,,,58,50,20,19,116,,123,123,15,20,4,4,,0.2
2025-05-01T1900,1052A,115.5213,38.8959,保定市,华电二区,颗粒物(PM10),53,55,42,31,19,122,,126,126,6,7,2,2,0.2,0.1
2025-05-01T1900,1053A,115.4713,38.9108,保定市,接待中心,颗粒物(PM10),54,57,62,13,17,112,,113,113,8,13,2,2,0.2,0.4
2025-05-01T1900,1054A,115.4612,38.8416,保定市,地表水厂,颗粒物(PM10),57,63,65,26,15,119,,122,122,14,23,3,3,0.2,0.1
2025-05-01T1900,3581A,115.31981,38.95208,保定市,满城区生态环境分局,颗粒物(PM10),56,61,43,22,10,121,,129,129,13,7,2,2,0.3,0.2
2025-05-01T1900,3582A,115.47694,38.76408,保定市,清苑区第二中学,颗粒物(PM10),78,106,67,25,20,121,,128,128,7,10,6,5,0.3,0.3
2025-05-01T1900,3583A,115.62909,39.02311,保定市,徐水物探局,颗粒物(PM10),72,94,68,29,15,123,,129,129,15,18,2,3,0.2,0.1
2025-05-01T1900,4004A,115.4202,38.8656,保定市,双鹰农机,颗粒物(PM10),64,77,53,26,22,119,,122,122,8,16,4,9,0.2,0.2
2025-05-01T1900,4034A,115.5150,38.8590,保定市,植保所站,颗粒物(PM10),66,82,46,47,26,112,,122,122,11,9,3,3,0.7,0.7
2025-05-01T1900,2594A,99.1678,25.1081,保山市,市环境监测站,,29,,34,20,26,68,,81,81,9,13,8,7,0.5,0.5
2025-05-01T1900,2595A,99.1711,25.1328,保山市,市环保局,,25,20,32,3,18,80,,92,92,5,8,7,8,0.5,0.5
2025-05-01T1900,1867A,109.1436,21.4086,北海市,海滩公园,,37,37,38,12,17,102,,95,95,8,10,5,6,1.3,0.8
2025-05-01T1900,1868A,109.0981,21.4661,北海市,新市环保局,,31,26,36,17,20,98,,96,96,12,12,3,4,0.7,0.6
2025-05-01T1900,1869A,109.1778,21.5233,北海市,北海工业园,,32,24,45,22,27,99,,92,92,8,18,8,11,0.6,0.5
2025-05-01T1900,3400A,109.1911,21.4415,北海市,龙潭自来水厂,,34,24,31,22,25,106,,92,92,10,12,8,8,0.6,0.6
2025-05-01T1900,1001A,116.3621,39.8784,北京市,万寿西宫,,39,33,26,12,9,123,,122,122,16,10,6,6,0.5,0.4
2025-05-01T1900,1003A,116.4174,39.9289,北京市,东四,,41,41,36,14,9,111,,113,113,16,11,2,2,0.4,0.3
2025-05-01T1900,1004A,116.4072,39.8863,北京市,天坛,,35,33,28,12,9,109,,109,109,16,14,1,1,0.5,0.4
2025-05-01T1900,1005A,116.462,39.9365,北京市,农展馆,,33,33,30,13,9,104,,106,106,16,12,1,2,0.4,0.4
2025-05-01T1900,1006A,116.3392,39.9295,北京市,官园,,35,35,29,12,9,101,,104,104,18,12,5,4,0.3,0.3
2025-05-01T1900,1007A,116.2878,39.9611,北京市,海淀万柳,,31,29,31,12,10,98,,96,96,11,7,4,4,0.3,0.3
2025-05-01T1900,1008A,116.6636,40.135,北京市,顺义新城,,44,44,40,8,7,89,,106,105,16,8,6,6,0.3,0.2
2025-05-01T1900,1009A,116.6275,40.3275,北京市,怀柔镇,,29,28,30,9,9,91,,98,98,7,5,2,2,0.3,0.3
2025-05-01T1900,1010A,116.2296,40.217,北京市,昌平镇,,32,31,26,22,14,95,,99,99,15,11,3,2,0.3,0.2
2025-05-01T1900,1011A,116.3966,39.9821,北京市,奥体中心,,30,26,25,13,10,95,,104,104,25,19,3,3,0.2,0.1
2025-05-01T1900,3281A,115.9718,40.4529,北京市,延庆夏都,,32,23,25,11,9,101,,106,106,6,8,2,3,0.3,0.3
2025-05-01T1900,3418A,116.8336,40.4095,北京市,密云新城,,30,19,28,9,9,93,,94,94,2,7,3,3,0.4,0.4
2025-05-01T1900,3672A,116.1541,39.8204,北京市,丰台云岗,颗粒物(PM10),59,67,43,27,12,115,,111,111,12,2,3,2,0.3,0.2
2025-05-01T1900,3673A,116.6804,39.9081,北京市,通州东关,,47,47,43,13,7,111,,114,114,12,14,4,5,0.4,0.4
2025-05-01T1900,3674A,115.9577,39.7603,北京市,房山燕山,颗粒物(PM10),54,58,33,22,11,108,,103,103,16,5,1,4,0.3,0.2
2025-05-01T1900,3675A,116.4672,39.7733,北京市,大兴旧宫,,36,33,37,14,12,113,,109,109,13,12,3,3,0.2,0.2
2025-05-01T1900,3694A,115.986,40.4563,北京市,延庆石河营,,31,23,25,12,10,98,,102,102,3,4,2,2,0.4,0.3
2025-05-01T1900,3695A,116.6151,40.3053,北京市,怀柔新城,,28,24,22,7,8,89,,97,97,8,3,3,3,0.2,0.2
2025-05-01T1900,3696A,116.2545,39.8768,北京市,丰台小屯,,33,28,23,14,10,105,,102,102,13,8,2,2,0.3,0.3
2025-05-01T1900,3697A,116.84,40.3844,北京市,密云镇,,30,22,24,9,8,95,,98,98,4,19,5,5,0.3,0.3
2025-05-01T1900,4182A,116.1942,39.9158,北京市,八角北路9号,颗粒物(PM10),51,51,31,17,9,112,,115,115,17,5,4,3,0.2,0.2
2025-05-01T1900,4194A,117.0790,40.1518,北京市,洳河巡河路,,33,25,22,6,7,104,,106,106,4,6,2,2,0.3,0.3
2025-05-01T1900,1761A,123.8275,41.3064,本溪市,大峪,,29,14,28,8,13,90,,98,90,10,13,5,6,0.5,0.6
2025-05-01T1900,1762A,123.7567,41.3325,本溪市,溪湖,,27,19,39,12,16,86,,97,91,11,10,4,4,0.5,0.6
2025-05-01T1900,1763A,123.7169,41.3094,本溪市,彩屯,,30,30,36,12,19,82,,102,89,17,12,8,9,0.5,0.6
2025-05-01T1900,1764A,123.7669,41.2864,本溪市,东明,,27,18,26,13,17,85,,99,89,14,13,5,6,0.6,0.7
2025-05-01T1900,1765A,123.7992,41.2664,本溪市,新立屯,,28,14,25,11,18,88,,101,91,16,16,5,5,0.4,0.6
2025-05-01T1900,1766A,123.8142,41.3472,本溪市,威宁,,27,20,30,8,13,85,,90,88,5,7,4,5,0.5,0.6
2025-05-01T1900,2587A,105.2864,27.3125,毕节市,八中,颗粒物(PM10),64,77,40,27,18,102,,113,113,11,10,6,7,0.4,0.4
2025-05-01T1900,2588A,105.31,27.2944,毕节市,师专,颗粒物(PM10),56,61,42,24,20,114,,123,123,9,14,8,9,0.4,0.5
2025-05-01T1900,4263A,105.3688,27.3598,毕节市,工业大道,颗粒物(PM10),55,60,48,17,20,111,,117,117,10,17,8,7,0.2,0.4
2025-05-01T1900,1629A,118.0018,37.3617,滨州市,第二水厂,,37,34,77,9,25,118,,116,116,7,12,7,10,0.3,0.6
2025-05-01T1900,1630A,117.9776,37.393,滨州市,北中新校,,37,24,66,9,30,116,,118,118,13,18,6,8,0.3,0.6
2025-05-01T1900,3514A,117.9378,37.3956,滨州市,中海酒店,,36,24,46,14,32,115,,117,117,10,15,7,9,0.5,0.7
2025-05-01T1900,3515A,117.9378,37.3553,滨州市,开发区一中,,35,34,83,12,28,112,,114,114,15,22,3,9,0.4,0.6
2025-05-01T1900,3516A,118.0917,37.694,滨州市,金海六路,颗粒物(PM10),52,54,77,3,26,117,,111,111,12,23,6,9,0.1,0.3
2025-05-01T1900,4028A,117.9956,37.3753,滨州市,滨州市西街道办事处,,40,34,77,27,37,128,,127,127,11,15,6,7,0.9,0.8
2025-05-01T1900,2311A,115.8072,33.8399,亳州市,污水处理厂,,49,49,64,15,24,139,,142,142,10,8,1,2,0.2,0.3
2025-05-01T1900,2312A,115.7789,33.8518,亳州市,三国揽胜宫,颗粒物(PM10),53,56,72,12,20,146,,148,148,7,7,5,5,0.2,0.3
2025-05-01T1900,3332A,115.7633,33.8034,亳州市,亳州学院,,44,44,60,11,19,138,,145,145,9,9,2,3,0.3,0.4
2025-05-01T1900,2693A,82.0485,44.8556,博尔塔拉蒙古自治州,市党校,,50,50,118,10,29,95,,95,95,13,13,5,5,0.7,0.7
2025-05-01T1900,2694A,82.0806,44.8969,博尔塔拉蒙古自治州,市环保局,,,43,120,15,25,98,,97,97,,13,,3,0.7,0.5
2025-05-01T1900,1071A,116.8842,38.2991,沧州市,沧县城建局,细颗粒物(PM2.5),85,,67,63,32,117,,119,119,20,20,4,4,0.4,0.3
2025-05-01T1900,1072A,116.8584,38.3254,沧州市,电视转播站,颗粒物(PM10),51,52,58,19,24,132,,122,122,15,25,7,5,0.3,0.3
2025-05-01T1900,1073A,116.8709,38.3228,沧州市,市环保局,,45,42,69,24,29,144,,136,136,10,20,2,6,0.4,0.4
2025-05-01T1900,3324A,116.8136,38.3004,沧州市,河北水利电力学院,颗粒物(PM10),52,53,66,12,19,130,,127,127,17,25,8,9,0.3,0.3
2025-05-01T1900,3719A,97.1714,31.1406,昌都市,昌都会议中心,,37,22,19,12,12,118,,117,117,4,5,3,3,0.2,0.2
2025-05-01T1900,2690A,88.1236,43.8886,昌吉回族自治州,天山天池,,24,24,47,3,6,69,,80,80,7,7,6,6,0.5,0.5
2025-05-01T1900,2692A,87.2717,44.0297,昌吉回族自治州,新区政务中心,,,26,52,14,10,81,,96,96,7,4,8,9,,0.2
2025-05-01T1900,3613A,87.3095,44.0142,昌吉回族自治州,亚心广场,,36,36,57,7,12,85,,96,96,7,7,8,8,0.2,0.2
2025-05-01T1900,1119A,125.3325,43.9166,长春市,食品厂,,39,39,27,20,16,58,,98,84,35,15,5,6,0.4,0.4
2025-05-01T1900,1120A,125.2863,43.9027,长春市,客车厂,,35,31,27,24,17,75,,98,87,22,17,5,5,0.3,0.3
2025-05-01T1900,1121A,125.2841,43.8463,长春市,邮电学院,,29,29,21,17,18,78,,104,93,17,11,6,6,0.5,0.5
2025-05-01T1900,1122A,125.3716,43.8772,长春市,劳动公园,,29,,26,20,18,82,,101,93,14,10,6,6,0.4,0.4
2025-05-01T1900,1123A,125.3297,43.8805,长春市,园林处,,28,24,23,19,14,78,,100,90,17,12,6,6,0.3,0.2
2025-05-01T1900,1124A,125.4605,43.79,长春市,净月潭,,20,18,21,13,16,63,,95,84,7,7,5,6,0.3,0.3
2025-05-01T1900,1126A,125.3863,43.8447,长春市,经开区环卫处,,37,37,32,19,17,57,,96,85,25,13,6,6,0.5,0.4
2025-05-01T1900,1127A,125.245,43.7783,长春市,高新区管委会,,38,29,22,26,18,67,,99,90,17,12,6,6,0.3,0.2
2025-05-01T1900,1128A,125.1761,43.8325,长春市,岱山公园,,27,27,23,16,18,71,,103,93,24,14,4,4,0.5,0.5
2025-05-01T1900,1335A,113.0833,28.2325,长沙市,经开区环保局,颗粒物(PM10),70,89,69,18,46,140,,136,136,16,20,6,6,0.5,0.7
2025-05-01T1900,1336A,112.8872,28.2189,长沙市,高开区环保局,颗粒物(PM10),66,81,64,13,44,143,,138,138,5,10,6,6,0.4,0.6
2025-05-01T1900,1337A,113.0792,28.2053,长沙市,马坡岭,颗粒物(PM10),64,78,69,16,39,145,,142,142,14,19,5,5,0.3,0.5
2025-05-01T1900,1338A,112.9394,28.19,长沙市,湖南师范大学,颗粒物(PM10),62,74,65,16,38,126,,134,134,8,17,5,5,0.4,0.6
2025-05-01T1900,1339A,113.0178,28.1322,长沙市,雨花区环保局,颗粒物(PM10),64,77,65,23,41,150,,139,139,8,14,5,6,0.5,0.3
2025-05-01T1900,1340A,112.9792,28.2597,长沙市,伍家岭,颗粒物(PM10),66,82,71,19,35,134,,132,132,10,24,4,3,0.4,0.6
2025-05-01T1900,1341A,113.0014,28.1944,长沙市,火车新站,颗粒物(PM10),68,85,71,27,39,144,,142,142,10,20,8,8,0.4,0.7
2025-05-01T1900,1342A,112.9844,28.1178,长沙市,天心区环保局,颗粒物(PM10),58,66,63,18,36,147,,137,137,12,16,4,4,0.4,0.7
2025-05-01T1900,1343A,112.8908,28.1308,长沙市,湖南中医药大学,颗粒物(PM10),65,79,67,39,40,135,,136,136,9,18,4,4,0.3,0.6
2025-05-01T1900,1344A,112.9581,28.3611,长沙市,沙坪,,38,34,59,20,25,120,,124,124,9,14,6,5,0.5,0.6
2025-05-01T1900,1727A,113.1147,36.1547,长治市,清华站,,39,39,70,7,14,119,,124,124,7,15,6,8,0.4,0.5
2025-05-01T1900,1730A,113.0886,36.2125,长治市,审计局,,40,40,60,9,14,118,,124,124,12,18,7,11,0.2,0.3
2025-05-01T1900,1731A,113.0844,36.1856,长治市,长治八中,,37,37,64,19,35,114,,120,120,12,18,8,11,0.4,0.4
2025-05-01T1900,2845A,113.1569,36.1911,长治市,德盛苑,,42,42,57,24,21,116,,121,121,7,13,4,10,0.5,0.6
2025-05-01T1900,3568A,113.06,36.0464,长治市,向阳小学,颗粒物(PM10),56,61,74,29,19,120,,129,129,11,17,10,13,0.1,0.2
2025-05-01T1900,3569A,112.8792,36.3144,长治市,屯留一中,,46,46,48,7,13,117,,119,119,5,13,7,8,0.7,0.7
2025-05-01T1900,4189A,113.1131,36.19948,长治市,英华南巷50号,,44,44,63,22,20,120,,126,126,10,19,4,7,0.3,0.3
2025-05-01T1900,4190A,113.2367,36.3344,长治市,学府街1号,,36,36,68,18,27,114,,120,120,14,23,3,16,0.5,0.7
2025-05-01T1900,1854A,111.6975,28.9703,常德市,市二中,颗粒物(PM10),82,114,44,32,19,108,,118,118,24,11,6,5,0.6,0.7
2025-05-01T1900,3138A,111.7153,29.0289,常德市,武陵区永安,颗粒物(PM10),86,122,47,29,16,116,,122,122,11,7,7,6,0.6,0.6
2025-05-01T1900,3139A,111.6892,28.9881,常德市,鼎城区玉霞,颗粒物(PM10),81,111,43,29,18,115,,120,120,12,8,4,4,0.4,0.5
2025-05-01T1900,3140A,111.6625,29.0531,常德市,武陵区长庚,,,105,40,43,21,128,,127,127,8,7,7,8,,0.6
2025-05-01T1900,1196A,119.9633,31.762,常州市,市监测站,颗粒物(PM10),52,54,59,19,26,133,,142,142,16,10,9,10,0.6,0.7
2025-05-01T1900,1200A,119.9468,31.7069,常州市,武进监测站,颗粒物(PM10),52,54,56,18,21,135,,144,144,20,16,9,8,0.5,0.7
2025-05-01T1900,1201A,119.9255,31.9087,常州市,安家,颗粒物(PM10),58,65,64,16,24,114,,135,133,29,14,10,14,0.2,0.3
2025-05-01T1900,3002A,119.9805,31.8174,常州市,行政中心,,45,45,58,18,22,134,,142,142,16,12,16,19,0.3,0.4
2025-05-01T1900,3003A,120.0522,31.7748,常州市,经开区,,,,55,71,23,139,,150,150,,15,,11,0.4,0.5
2025-05-01T1900,3010A,119.9025,31.7964,常州市,钟楼,,41,39,55,13,21,131,,146,144,16,15,7,8,0.4,0.5
2025-05-01T1900,3429A,119.8598,31.7066,常州市,武进经发区,颗粒物(PM10),52,54,54,22,26,126,,142,142,19,10,9,11,0.6,0.7
2025-05-01T1900,3430A,119.5826,31.7245,常州市,金坛城区,颗粒物(PM10),71,92,60,19,25,145,,149,149,12,10,8,10,0.4,0.6
2025-05-01T1900,2220A,120.4318,41.5881,朝阳市,西梁,,30,30,59,6,12,76,,76,76,10,17,8,8,0.3,0.3
2025-05-01T1900,2221A,120.4521,41.5646,朝阳市,河畔小区,,25,25,49,10,10,79,,78,78,9,11,5,6,0.2,0.3
2025-05-01T1900,2222A,120.4176,41.5648,朝阳市,八里堡,,43,43,81,13,14,74,,76,76,11,16,6,7,0.3,0.3
2025-05-01T1900,2223A,120.3806,41.5969,朝阳市,农业园区,,25,15,76,14,13,79,,79,79,7,14,12,8,0.3,0.3
2025-05-01T1900,1705A,116.6367,23.6719,潮州市,西园路,,,,53,50,42,117,,105,105,15,15,8,6,0.8,0.6
2025-05-01T1900,3026A,116.6183,23.6608,潮州市,市政府,细颗粒物(PM2.5),64,64,65,46,37,111,,107,107,18,16,10,11,1.2,0.8
2025-05-01T1900,4036A,116.6461,23.6761,潮州市,金山,细颗粒物(PM2.5),62,56,53,44,32,116,,102,102,18,18,12,10,0.9,0.7
2025-05-01T1900,2472A,113.0073,25.9061,郴州市,马头岭,颗粒物(PM10),56,61,48,17,21,88,,83,83,7,14,8,7,0.3,0.5
2025-05-01T1900,2473A,113.0116,25.8226,郴州市,市职中,,42,42,45,21,39,97,,102,102,8,11,4,3,0.5,0.7
2025-05-01T1900,2475A,113.0383,25.8071,郴州市,市审计局,,44,44,48,20,38,87,,104,104,12,11,3,5,0.5,0.7
2025-05-01T1900,2476A,113.0348,25.7759,郴州市,市环保局,颗粒物(PM10),54,57,57,16,45,93,,103,103,10,13,3,9,0.5,0.7
2025-05-01T1900,4252A,113.0138,25.8011,郴州市,好美居路49号,,40,40,48,25,32,97,,104,104,11,12,5,7,0.6,0.8
2025-05-01T1900,1431A,103.9728,30.7236,成都市,金泉两河,细颗粒物(PM2.5),62,45,53,44,23,146,,151,151,12,29,3,3,0.7,0.8
2025-05-01T1900,1432A,104.176,30.6872,成都市,十里店,,49,49,48,18,21,146,,159,159,9,26,4,4,0.3,0.4
2025-05-01T1900,1433A,104.079,30.5706,成都市,三瓦窑,,43,41,45,20,23,137,,146,146,19,36,5,6,0.4,0.6
2025-05-01T1900,1434A,104.1114,30.63,成都市,沙河铺,,,,46,,22,103,,140,140,,23,7,7,,0.6
2025-05-01T1900,1437A,104.0786,30.6531,成都市,君平街,颗粒物(PM10),53,55,48,33,28,134,,124,124,13,31,8,8,0.6,0.7
2025-05-01T1900,2880A,104.0239,30.65639,成都市,大石西路,颗粒物(PM10),58,66,55,40,31,132,,142,142,19,32,6,6,0.3,0.4
2025-05-01T1900,3136A,104.2725,30.5589,成都市,龙泉驿区区政府,,36,36,30,19,14,108,,102,102,10,14,5,5,0.4,0.4
2025-05-01T1900,3357A,104.0106,30.6931,成都市,金博路,,48,48,43,29,20,136,,139,139,11,27,8,8,0.3,0.5
2025-05-01T1900,3359A,104.0578,30.5225,成都市,华阳,,40,36,45,24,29,128,,138,138,12,26,6,7,0.4,0.5
2025-05-01T1900,3488A,104.3853,30.7453,成都市,青白江技师分院,,50,49,39,30,19,160,,159,159,13,29,4,4,0.1,0.3
2025-05-01T1900,3489A,104.0789,30.4072,成都市,科学城,,40,34,39,19,22,125,,122,122,8,18,4,5,0.3,0.4
2025-05-01T1900,4011A,103.8506,30.6947,成都市,光华大道三段,臭氧1小时,59,57,55,9,33,167,,165,165,13,28,2,2,0.6,0.7
2025-05-01T1900,4224A,104.2433,30.5353,成都市,鲸龙路1057号,,,31,43,11,17,144,,138,138,,32,5,11,0.5,0.6
2025-05-01T1900,1062A,117.9531,40.9081,承德市,铁路,,29,,25,8,7,92,,93,93,6,10,3,3,0.2,0.3
2025-05-01T1900,1063A,117.9392,40.9763,承德市,中国银行,,27,22,27,16,7,85,,91,91,8,6,3,3,0.3,0.2
2025-05-01T1900,1064A,117.9503,40.928,承德市,开发区,,30,15,32,9,16,96,,96,96,4,9,3,6,0.2,0.3
2025-05-01T1900,1065A,117.8051,40.9655,承德市,文化中心,,31,15,29,3,6,99,,96,96,4,9,3,4,0.2,0.2
2025-05-01T1900,2314A,117.47,30.6618,池州市,池州学院,颗粒物(PM10),60,70,51,32,26,135,,143,143,11,6,6,6,0.4,0.5
2025-05-01T1900,3237A,117.4918,30.6617,池州市,展览馆,颗粒物(PM10),56,61,45,33,27,145,,145,145,12,8,6,5,0.5,0.5
2025-05-01T1900,3333A,117.5627,30.695,池州市,第八中学,颗粒物(PM10),60,70,46,31,25,127,,142,142,24,5,6,6,0.3,0.4
2025-05-01T1900,3334A,117.5038,30.6243,池州市,第十二中学,颗粒物(PM10),57,63,46,27,27,147,,146,146,9,7,6,3,0.5,0.6
2025-05-01T1900,1744A,118.9233,42.2816,赤峰市,松山一中,,22,8,36,3,7,70,,76,76,16,18,10,14,0.4,0.5
2025-05-01T1900,1745A,118.9576,42.2728,赤峰市,哈达街,,20,10,44,9,16,61,,75,73,26,20,10,12,0.4,0.5
2025-05-01T1900,1746A,118.8788,42.2554,赤峰市,天义路,,23,,27,8,12,72,,78,78,14,13,7,8,0.4,0.4
2025-05-01T1900,3058A,119.2658,42.0353,赤峰市,银河街,,29,29,43,8,12,64,,66,66,9,10,13,15,0.4,0.4
2025-05-01T1900,3286A,118.9359,42.3147,赤峰市,桥北物流园区,,22,20,33,13,11,70,,73,73,14,19,8,9,0.6,0.7
2025-05-01T1900,2521A,107.3476,22.4136,崇左市,市环保局江州分局,,34,28,23,15,15,107,,92,92,3,5,5,5,0.5,0.6
2025-05-01T1900,4256A,107.3750,22.3736,崇左市,石景林东路7号,,37,30,23,13,12,116,,102,102,6,6,5,4,0.5,0.6
2025-05-01T1900,2298A,118.3093,32.3153,滁州市,老年大学,,49,49,52,20,27,154,,151,151,8,6,2,3,0.2,0.3
2025-05-01T1900,2299A,118.3244,32.2786,滁州市,人大宾馆,颗粒物(PM10),55,60,54,18,28,154,,153,153,7,10,8,8,0.2,0.3
2025-05-01T1900,3207A,118.3118,32.3038,滁州市,市政府原办公楼,颗粒物(PM10),54,58,48,23,32,154,,151,151,10,7,4,5,0.2,0.3
2025-05-01T1900,3331A,118.3267,32.2634,滁州市,图书馆,颗粒物(PM10),55,59,54,26,30,148,,146,146,8,7,7,8,0.3,0.4
2025-05-01T1900,2605A,101.5482,25.0441,楚雄彝族自治州,州环境监测站,,45,27,23,10,19,141,,128,128,12,15,8,9,0.4,0.5
2025-05-01T1900,2606A,101.538,25.0492,楚雄彝族自治州,市经济开发区,,44,32,23,14,17,139,,124,124,12,15,18,12,0.5,0.5
2025-05-01T1900,2548A,107.5277,31.2827,达州市,达州职业技术学院,颗粒物(PM10),65,79,50,19,19,135,,138,138,14,23,6,6,0.4,0.5
2025-05-01T1900,2549A,107.5086,31.2186,达州市,市环境监测站,,,,51,,20,133,,138,138,22,35,,5,,0.3
2025-05-01T1900,2550A,107.4988,31.2132,达州市,凤凰小区,颗粒物(PM10),57,63,50,19,21,134,,140,140,24,33,9,8,0.4,0.4
2025-05-01T1900,2551A,107.5082,31.1986,达州市,达县机关宾馆,颗粒物(PM10),56,61,55,14,23,126,,138,138,27,41,5,6,0.4,0.5
2025-05-01T1900,2552A,107.4644,31.2124,达州市,市政中心,颗粒物(PM10),56,62,57,19,21,132,,134,134,14,32,4,3,0.3,0.4
2025-05-01T1900,2614A,100.1542,25.7054,大理白族自治州,大理市环境监测站,,36,30,33,25,24,41,,96,82,22,16,8,7,0.5,0.3
2025-05-01T1900,2615A,100.2171,25.5811,大理白族自治州,大理古城,,32,32,26,14,21,98,,90,90,12,11,8,8,0.3,0.7
2025-05-01T1900,1109A,121.612,38.9741,大连市,甘井子,,36,36,66,6,25,92,,100,98,18,19,10,8,0.4,0.4
2025-05-01T1900,1110A,121.565,38.9511,大连市,周水子,,46,46,79,3,26,83,,88,86,9,15,6,6,0.3,0.4
2025-05-01T1900,1111A,121.5637,38.8845,大连市,星海三站,,30,30,64,6,29,90,,110,94,8,13,3,4,0.3,0.4
2025-05-01T1900,1112A,121.6302,38.9117,大连市,青泥洼桥,,29,17,67,6,28,90,,101,95,13,14,5,6,0.2,0.5
2025-05-01T1900,1113A,121.6251,38.8638,大连市,傅家庄,,31,31,70,3,26,87,,112,96,20,17,4,5,0.1,0.3
2025-05-01T1900,1114A,121.5213,38.8661,大连市,七贤岭,,29,24,70,3,26,92,,107,96,10,14,5,6,0.3,0.5
2025-05-01T1900,1115A,121.2529,38.8061,大连市,旅顺,,22,22,57,6,24,67,,70,70,17,18,3,4,0.2,0.3
2025-05-01T1900,1116A,121.7485,39.1311,大连市,金州,,27,11,57,3,26,85,,93,90,15,16,5,6,0.1,0.3
2025-05-01T1900,1117A,121.7811,39.0496,大连市,开发区,,43,43,63,6,27,77,,94,83,17,16,5,4,0.3,0.4
2025-05-01T1900,1118A,121.9762,39.0631,大连市,双D港,,29,22,46,3,23,92,,109,99,6,9,5,6,0.1,0.4
2025-05-01T1900,1789A,124.81117,46.03138,大庆市,大同区,,40,40,52,19,33,83,,92,91,5,20,4,6,0.3,0.4
2025-05-01T1900,1790A,125.129,46.533,大庆市,龙凤区,,27,24,34,14,16,86,,94,93,12,22,4,6,0.6,0.6
2025-05-01T1900,1791A,124.902,46.408,大庆市,红岗区,,28,22,26,12,16,88,,97,97,8,14,5,6,0.3,0.3
2025-05-01T1900,1792A,125.153,46.586,大庆市,萨尔图区,,31,31,46,14,19,78,,86,85,15,25,6,6,0.3,0.3
2025-05-01T1900,1793A,124.9042,46.6215,大庆市,让胡路区,,26,24,36,17,22,83,,90,89,10,25,7,7,0.3,0.4
2025-05-01T1900,3481A,125.141,46.634,大庆市,萨区政府监测点,,28,28,35,3,7,88,,97,96,7,17,5,5,0.3,0.4
2025-05-01T1900,1723A,113.2994,40.0758,大同市,云冈宾馆,,35,28,44,20,14,110,,120,120,15,19,9,11,0.6,0.7
2025-05-01T1900,1724A,113.3444,40.0917,大同市,大同大学,,34,24,37,3,14,106,,112,112,13,22,8,12,0.3,0.5
2025-05-01T1900,1725A,113.2661,40.1269,大同市,安家小村,,32,30,40,6,11,102,,113,113,13,16,16,12,0.2,0.7
2025-05-01T1900,1726A,113.2711,40.0844,大同市,教育学院,,35,30,35,6,15,109,,116,116,11,14,8,11,0.3,0.4
2025-05-01T1900,3282A,113.3397,40.0597,大同市,大同市卫生学校,,34,24,37,10,15,107,,112,112,10,19,7,10,0.3,0.6
2025-05-01T1900,3565A,113.1367,40.1122,大同市,云冈站,,36,36,40,17,14,103,,115,114,10,13,10,14,0.4,0.4
2025-05-01T1900,3566A,113.1186,40.2556,大同市,图书馆,,31,27,43,8,15,97,,103,103,7,15,10,14,0.3,0.4
2025-05-01T1900,4199A,113.2798,40.0997,大同市,魏都大道141号,,,33,42,11,12,116,,128,125,12,18,13,16,,0.7
2025-05-01T1900,2269A,124.1069,50.4097,大兴安岭地区,科技局,,25,20,19,17,15,78,,80,80,7,5,4,4,0.3,0.3
2025-05-01T1900,3663A,124.1164,50.4278,大兴安岭地区,红旗社区,,26,17,7,12,8,83,,84,84,4,3,5,4,0.3,0.3
2025-05-01T1900,1600A,124.3303,40.0625,丹东市,江湾东路,,29,29,44,10,17,87,,134,103,10,7,8,9,0.5,0.5
2025-05-01T1900,1601A,124.4256,40.1503,丹东市,临江后街,,27,22,50,8,15,85,,122,94,7,5,4,6,0.5,0.5
2025-05-01T1900,1602A,124.3933,40.1461,丹东市,元宝山,,27,17,38,12,15,85,,124,92,7,6,7,7,0.4,0.4
2025-05-01T1900,1603A,124.3633,40.1092,丹东市,民主桥,,32,32,45,9,13,77,,128,94,17,9,6,7,0.8,0.7
2025-05-01T1900,3541A,109.5726,19.5167,儋州市,第一中学子站,,34,34,20,16,10,66,,74,73,3,5,4,5,0.5,0.6
2025-05-01T1900,3542A,109.5567,19.5187,儋州市,东坡学校子站,,23,23,18,15,8,70,,80,78,2,3,4,5,0.5,0.7
2025-05-01T1900,2616A,98.5842,24.428,德宏傣族景颇族自治州,德宏州监测站,,25,24,44,8,32,80,,66,66,6,17,8,9,0.5,0.7
2025-05-01T1900,3677A,98.5881,24.4368,德宏傣族景颇族自治州,芒市人民政府综合楼,,28,28,52,3,29,85,,74,74,9,14,6,7,0.4,0.5
2025-05-01T1900,1901A,104.4239,31.1208,德阳市,东山公园,臭氧1小时,58,48,51,25,27,166,,164,164,12,21,5,5,0.7,0.8
2025-05-01T1900,1902A,104.3826,31.1317,德阳市,西小区,臭氧1小时,69,56,63,29,35,175,,165,165,20,38,6,6,0.6,0.7
2025-05-01T1900,1904A,104.3553,31.1091,德阳市,耐火材料厂,臭氧1小时,75,54,66,25,33,180,,176,176,14,33,6,7,0.5,0.6
2025-05-01T1900,3639A,104.4019,31.1244,德阳市,市教育局,臭氧1小时,74,50,55,27,32,179,,176,176,17,32,7,7,0.5,0.6
2025-05-01T1900,1622A,116.3032,37.4674,德州市,儿童乐园,颗粒物(PM10),65,80,68,17,23,129,,130,130,9,18,5,7,0.4,0.5
2025-05-01T1900,1624A,116.2991,37.4451,德州市,监理站,颗粒物(PM10),51,51,66,19,23,127,,126,126,9,21,14,16,0.4,0.5
2025-05-01T1900,3066A,116.2721,37.4379,德州市,九衢泉纯净水厂,,,53,62,,29,117,,118,118,13,28,4,7,0.6,0.7
2025-05-01T1900,3371A,116.3728,37.4403,德州市,开发区人民医院,颗粒物(PM10),52,53,77,14,17,112,,121,121,16,14,5,6,0.5,0.5
2025-05-01T1900,3372A,116.3572,37.4094,德州市,太阳城中学,,46,46,68,19,24,123,,132,132,18,23,3,6,0.1,0.5
2025-05-01T1900,3511A,116.5652,37.3319,德州市,陵城艺术中心,颗粒物(PM10),52,53,75,14,24,130,,127,127,12,19,1,4,0.1,0.2
2025-05-01T1900,2621A,99.7056,27.8317,迪庆藏族自治州,迪庆州站,,31,25,23,18,12,98,,110,109,11,9,5,4,0.5,0.3
2025-05-01T1900,3180A,99.7136,27.8094,迪庆藏族自治州,质量技术监督局,,32,18,19,9,10,102,,114,113,9,11,4,4,0.5,0.5
2025-05-01T1900,4309A,104.6159,35.5701,定西市,正龙路62号,,43,37,77,11,22,136,,133,133,5,11,9,9,0.2,0.2
2025-05-01T1900,1389A,113.7547,23.0494,东莞市,莞城梨川,,45,37,46,31,32,131,,124,124,20,18,6,6,0.7,0.6
2025-05-01T1900,1390A,113.7944,23.0128,东莞市,东城石井,,34,34,39,20,24,84,,114,114,18,23,4,4,0.8,0.7
2025-05-01T1900,1391A,113.7383,22.9658,东莞市,南城西平,,48,40,40,33,25,106,,120,120,27,38,2,5,0.5,0.5
2025-05-01T1900,3319A,113.7338,23.0381,东莞市,万江金泰,,37,37,40,25,26,98,,99,99,24,17,4,4,0.8,0.7
2025-05-01T1900,3626A,113.7533,23.0202,东莞市,南城元岭,,37,33,36,23,24,116,,120,120,21,15,3,3,0.7,0.7
2025-05-01T1900,3627A,113.7875,23.0457,东莞市,东城主山,,40,34,39,24,24,126,,117,117,16,19,4,4,0.5,0.4
2025-05-01T1900,1666A,118.6614,37.4309,东营市,市环保局,,36,31,65,3,27,115,,126,126,26,21,6,7,0.4,0.5
2025-05-01T1900,3036A,118.6904,37.4338,东营市,开发区管委会,颗粒物(PM10),51,52,77,9,25,109,,122,122,22,20,5,6,0.4,0.3
2025-05-01T1900,3365A,118.5719,37.565,东营市,垦利区民丰路,,39,34,69,7,28,122,,123,123,22,22,4,6,0.6,0.7
2025-05-01T1900,3498A,118.5055,37.8612,东营市,河口城区,,41,29,61,3,23,130,,126,126,17,19,4,5,0.6,0.7
2025-05-01T1900,3646A,118.4978,37.4623,东营市,胜利站,,46,46,75,22,31,104,,113,113,42,25,8,11,0.6,0.8
2025-05-01T1900,3734A,118.35,37.26,东营市,理想之城,,,,87,,30,110,,113,113,21,20,,7,0.4,0.6
2025-05-01T1900,1591A,110.0023,39.8129,鄂尔多斯市,综合楼,,,,81,,21,108,,118,118,,16,,3,0.4,0.4
2025-05-01T1900,1592A,109.9486,39.8261,鄂尔多斯市,巴音孟克林场办事处,颗粒物(PM10),69,88,72,36,24,112,,118,118,16,21,7,6,0.4,0.3
2025-05-01T1900,1593A,109.7736,39.5986,鄂尔多斯市,康泽苑,颗粒物(PM10),56,61,74,27,17,121,,120,120,9,9,5,4,0.1,0.5
2025-05-01T1900,1594A,109.8119,39.5989,鄂尔多斯市,华泰汽车城,颗粒物(PM10),57,63,76,19,21,116,,115,115,10,14,8,6,0.2,0.2
2025-05-01T1900,1595A,109.9734,39.7884,鄂尔多斯市,奥林花园,颗粒物(PM10),59,68,73,19,16,109,,115,115,17,20,6,5,0.4,0.3
2025-05-01T1900,2436A,114.8938,30.3994,鄂州市,市政府,颗粒物(PM10),52,54,62,23,34,144,,140,140,15,21,7,9,0.3,0.7
2025-05-01T1900,2437A,114.8989,30.3714,鄂州市,赵家坝,颗粒物(PM10),55,59,48,20,26,154,,154,154,8,5,5,5,0.6,0.7
2025-05-01T1900,3654A,114.8094,30.4089,鄂州市,精准医疗中心,,49,43,49,23,28,156,,160,160,16,23,4,4,0.5,0.8
2025-05-01T1900,2454A,109.4978,30.2981,恩施土家族苗族自治州,湖北民院,颗粒物(PM10),87,123,57,46,26,122,,123,123,8,10,7,6,0.5,0.5
2025-05-01T1900,2455A,109.4707,30.2798,恩施土家族苗族自治州,州电力总公司,颗粒物(PM10),79,108,53,40,25,117,,124,124,18,15,6,5,0,0.1
2025-05-01T1900,3549A,109.5061,30.3772,恩施土家族苗族自治州,龙凤新区,颗粒物(PM10),78,105,45,38,21,99,,120,120,10,8,6,6,0.4,0.5
2025-05-01T1900,2499A,108.3411,21.6158,防城港市,沙万,,41,41,35,19,19,84,,75,75,13,14,3,3,0.7,0.7
2025-05-01T1900,2500A,108.3514,21.7731,防城港市,防城档案局,细颗粒物(PM2.5),52,46,34,36,17,91,,84,84,10,16,1,1,0.6,0.7
2025-05-01T1900,2501A,108.3506,21.6414,防城港市,大海花园,,40,40,32,18,17,98,,93,93,16,12,7,3,0.7,0.7
2025-05-01T1900,1371A,113.1294,23.0067,佛山市,湾梁,,32,27,38,18,19,100,,110,110,18,19,7,7,0.7,0.7
2025-05-01T1900,1372A,113.1083,23.0478,佛山市,华材职中,,38,27,36,22,22,120,,114,114,18,19,8,7,0.5,0.5
2025-05-01T1900,1373A,113.144,23.0453,佛山市,南海气象局,,33,30,39,23,22,91,,103,103,16,16,1,1,0.6,0.6
2025-05-01T1900,1374A,113.2881,22.8094,佛山市,顺德苏岗,,33,33,38,12,16,96,,95,95,14,12,9,6,0.6,0.6
2025-05-01T1900,1376A,112.8383,22.8678,佛山市,高明孔堂,,31,31,33,19,22,76,,85,85,9,10,5,5,0.6,0.6
2025-05-01T1900,1377A,112.8836,23.1588,佛山市,三水监测站,颗粒物(PM10),51,51,33,26,28,86,,99,99,52,33,4,4,0.5,0.6
2025-05-01T1900,1378A,112.867,23.185,佛山市,三水云东海,,50,50,42,23,28,84,,107,107,20,26,2,2,0.6,0.5
2025-05-01T1900,3625A,113.2544,22.7642,佛山市,容桂街道办,,30,,30,14,21,96,,89,89,16,16,5,5,0.8,0.7
2025-05-01T1900,1282A,119.2681,26.0504,福州市,师大,颗粒物(PM10),52,54,43,30,25,86,,90,90,26,20,4,4,0.7,0.5
2025-05-01T1900,1283A,119.2984,26.1028,福州市,五四北路,,41,41,41,25,26,87,,84,84,21,22,4,4,0.6,0.7
2025-05-01T1900,1284A,119.2648,26.0768,福州市,杨桥西路,颗粒物(PM10),56,61,49,32,29,77,,89,89,26,22,4,4,0.5,0.5
2025-05-01T1900,1285A,119.317,26.0746,福州市,紫阳,,47,47,48,25,28,87,,84,84,22,29,5,6,0.6,0.5
2025-05-01T1900,3048A,119.5799,26.0936,福州市,九龙,,33,31,33,23,21,68,,78,78,17,19,4,4,0.4,0.3
2025-05-01T1900,3526A,119.5189,25.9664,福州市,吴航,,33,31,44,23,26,68,,87,87,24,23,4,4,0.6,0.6
2025-05-01T1900,1755A,123.7977,41.8491,抚顺市,望花区,,28,21,23,15,15,87,,104,95,18,12,8,8,0.4,0.4
2025-05-01T1900,1756A,123.9161,41.8822,抚顺市,顺城区,,28,10,25,9,13,88,,101,92,18,15,6,6,0.4,0.3
2025-05-01T1900,1757A,124.0436,41.8611,抚顺市,东洲区,,28,8,25,6,15,87,,101,92,11,11,5,5,0.4,0.4
2025-05-01T1900,1758A,123.9247,41.8642,抚顺市,新抚区,,25,13,24,7,11,78,,98,88,11,8,6,6,0.4,0.4
2025-05-01T1900,1759A,124.0972,41.8961,抚顺市,大伙房水库,,29,10,20,8,15,92,,104,95,6,6,7,7,0.5,0.5
2025-05-01T1900,1760A,123.7086,41.8391,抚顺市,沈抚新城,,28,21,29,10,14,89,,90,86,12,17,6,8,0.3,0.7
2025-05-01T1900,2376A,116.2127,28.0814,抚州市,桐源党溪,颗粒物(PM10),61,71,54,28,32,86,,107,107,2,3,4,4,0.4,0.5
2025-05-01T1900,2377A,116.3544,27.9831,抚州市,市站,颗粒物(PM10),56,62,54,29,33,89,,94,94,8,9,3,4,1.1,1.1
2025-05-01T1900,2378A,116.3565,27.963,抚州市,血防站,,,59,62,23,36,99,,101,101,6,8,,4,,0.9
2025-05-01T1900,2379A,116.3564,28.0007,抚州市,采茶剧团,颗粒物(PM10),56,62,56,28,33,100,,93,93,2,4,2,2,0.1,0.4
2025-05-01T1900,2380A,116.385,27.9647,抚州市,医学分院,颗粒物(PM10),54,57,50,28,30,105,,102,102,2,4,6,5,0.6,0.8
2025-05-01T1900,2207A,121.6094,41.998,阜新市,工业园区,,30,25,40,10,11,93,,93,93,8,14,9,16,0.3,0.4
2025-05-01T1900,2208A,121.6697,42.0279,阜新市,长青街,,30,18,29,6,10,94,,92,92,10,16,6,17,0.3,0.4
2025-05-01T1900,2209A,121.6673,42.0705,阜新市,农业园区,,34,34,36,3,7,89,,87,87,9,12,6,24,0.4,0.6
2025-05-01T1900,2210A,121.6717,42.0224,阜新市,东苑,颗粒物(PM10),51,51,71,9,11,96,,92,92,6,15,8,32,0.5,0.5
2025-05-01T1900,2211A,121.6506,42.0498,阜新市,玉龙新城,,29,26,38,7,11,90,,91,91,10,18,7,16,0.3,0.5
2025-05-01T1900,2301A,115.8277,32.8929,阜阳市,市监测站,颗粒物(PM10),60,70,62,28,32,139,,137,137,11,10,9,8,0.2,0.3
2025-05-01T1900,2303A,115.8554,32.8605,阜阳市,开发区,颗粒物(PM10),69,87,76,25,23,144,,141,141,14,12,8,7,0.2,0.2
2025-05-01T1900,2875A,115.784,32.8892,阜阳市,阜阳职业技术学院,细颗粒物(PM2.5),73,75,68,53,31,152,,150,150,8,10,7,7,0.2,0.3
2025-05-01T1900,3468A,115.7901,32.8613,阜阳市,市规划展馆,颗粒物(PM10),59,67,71,23,28,150,,147,147,10,9,8,8,0.2,0.3
2025-05-01T1900,3469A,115.836,32.9183,阜阳市,枣园社区,颗粒物(PM10),57,64,71,30,31,145,,143,143,8,8,9,8,0.3,0.4
2025-05-01T1900,2669A,102.9099,34.9841,甘南藏族自治州,州政府,,29,14,55,13,19,90,,95,95,1,25,5,5,0.3,0.4
2025-05-01T1900,3380A,102.8914,34.9617,甘南藏族自治州,甘肃民族师范学院,,29,23,67,12,22,91,,79,79,2,30,7,9,0.3,0.4
2025-05-01T1900,2570A,101.9603,30.0475,甘孜藏族自治州,水桥子,,,37,37,17,11,98,,100,100,,29,,4,0.5,0.5
2025-05-01T1900,3065A,101.9533,29.9972,甘孜藏族自治州,州环保局,,32,27,27,6,7,102,,109,109,6,12,1,1,0.5,0.4
2025-05-01T1900,3414A,115.8347,28.932,赣江新区,桑海产业园,,44,44,43,13,23,112,,113,113,5,16,3,4,0.2,0.4
2025-05-01T1900,2363A,114.9367,25.8664,赣州市,地委,,34,34,42,13,28,96,,105,105,3,7,2,5,1.1,1.2
2025-05-01T1900,2364A,114.9461,25.8481,赣州市,气象台,,44,44,43,14,26,88,,106,105,14,13,7,9,0.2,0.3
2025-05-01T1900,2365A,114.9322,25.8333,赣州市,市图书馆,,40,40,44,18,27,92,,108,107,7,10,4,5,0.4,0.5
2025-05-01T1900,2366A,114.8905,25.8471,赣州市,华坚鞋城,,41,41,45,14,26,104,,111,111,7,11,5,7,0.5,0.6
2025-05-01T1900,3109A,115.0093,25.8613,赣州市,赣县区卫计委,,42,42,45,14,25,87,,104,102,2,7,3,5,1.1,1.1
2025-05-01T1900,2683A,106.2319,36.1417,固原市,马园,颗粒物(PM10),70,90,225,21,46,116,,120,120,14,20,5,5,0.1,0.4
2025-05-01T1900,2684A,106.2792,36.0022,固原市,监测站,颗粒物(PM10),55,60,216,24,61,116,,113,113,7,13,7,6,0.2,0.3
2025-05-01T1900,2685A,106.2375,36.0211,固原市,新区,颗粒物(PM10),52,53,186,18,47,112,,109,109,7,12,6,6,0.3,0.3
2025-05-01T1900,3522A,106.2177,35.9959,固原市,原州区十五小,"颗粒物(PM10),细颗粒物(PM2.5)",59,68,187,42,66,116,,115,115,9,6,9,9,0.2,0.2
2025-05-01T1900,2544A,106.6303,30.4576,广安市,市委,颗粒物(PM10),61,71,55,28,30,155,,144,144,10,18,6,4,0.4,0.5
2025-05-01T1900,2545A,106.6271,30.4663,广安市,友谊中学,臭氧1小时,63,46,46,31,26,170,,156,156,15,21,4,4,0.5,0.6
2025-05-01T1900,2547A,106.6388,30.4551,广安市,广电花园,颗粒物(PM10),52,54,49,8,26,158,,151,151,17,20,6,6,0.4,0.4
2025-05-01T1900,2902A,106.6351,30.4865,广安市,北辰小学,颗粒物(PM10),58,65,54,28,26,163,,154,154,12,22,6,5,0.4,0.5
2025-05-01T1900,2523A,105.8945,32.4535,广元市,黑石坡,颗粒物(PM10),65,80,62,18,15,140,,126,126,6,13,1,6,0.3,0.3
2025-05-01T1900,2524A,105.821,32.4444,广元市,老城,颗粒物(PM10),58,66,51,19,19,153,,135,135,6,27,1,3,0.4,0.5
2025-05-01T1900,2526A,105.8628,32.4287,广元市,监测站,颗粒物(PM10),51,51,44,27,20,153,,138,138,6,15,3,5,0.4,0.5
2025-05-01T1900,3617A,105.8047,32.4166,广元市,经开区,,,,58,,29,158,,138,138,8,27,,19,0.5,0.8
2025-05-01T1900,1345A,113.2347,23.1423,广州市,广雅中学,,44,30,35,22,21,138,,126,126,11,18,4,4,0.8,0.8
2025-05-01T1900,1346A,113.2612,23.105,广州市,市五中,,41,34,40,24,22,129,,120,120,11,16,1,1,0.9,0.9
2025-05-01T1900,1348A,113.3478,23.0916,广州市,广东商学院,,50,36,37,35,24,142,,124,124,19,30,4,4,0.8,0.8
2025-05-01T1900,1349A,113.4332,23.1047,广州市,市八十六中,,,35,36,21,18,125,,132,132,38,36,,4,0.7,0.7
2025-05-01T1900,1350A,113.3505,22.9483,广州市,番禺中学,,36,36,42,23,24,115,,118,118,18,18,5,5,0.8,0.7
2025-05-01T1900,1351A,113.2146,23.3916,广州市,花都师范,,41,33,31,26,21,131,,126,126,16,16,6,4,0.8,0.7
2025-05-01T1900,1352A,113.2597,23.1331,广州市,市监测站,,40,40,39,24,22,101,,103,103,31,22,5,5,0.5,0.6
2025-05-01T1900,1353A,113.5618,23.312,广州市,九龙镇镇龙,,43,34,31,30,20,131,,124,124,18,25,5,5,0.5,0.5
2025-05-01T1900,1354A,113.2765,23.1544,广州市,麓湖,,34,29,31,19,18,106,,111,111,16,28,5,4,0.6,0.6
2025-05-01T1900,1355A,113.443,23.3035,广州市,帽峰山森林公园,,29,27,21,20,13,88,,116,116,5,12,5,6,0.7,0.7
2025-05-01T1900,2846A,113.3221,23.1322,广州市,体育西,,,,42,,25,134,,123,123,26,27,,4,0.6,0.6
2025-05-01T1900,3298A,113.5717,23.5491,广州市,从化街口,,27,22,35,18,25,86,,121,120,16,19,6,6,0.7,0.7
2025-05-01T1900,3299A,113.3472,23.3692,广州市,白云竹料,,50,39,38,25,23,160,,148,148,17,20,3,3,0.7,0.7
2025-05-01T1900,3300A,113.2981,23.237,广州市,白云嘉禾,,45,41,36,31,24,120,,130,130,26,29,5,5,0.9,0.8
2025-05-01T1900,3301A,113.4256,23.1716,广州市,黄埔科学城,,37,25,32,17,21,116,,117,117,7,20,2,3,0.7,0.7
2025-05-01T1900,3302A,113.3942,23.0483,广州市,番禺大学城,,42,37,46,19,22,134,,134,134,16,25,5,6,0.7,0.7
2025-05-01T1900,3303A,113.4922,22.8168,广州市,南沙黄阁,,36,35,42,25,24,100,,105,105,15,13,5,5,0.9,0.8
2025-05-01T1900,3304A,113.5342,22.7896,广州市,南沙街,,36,35,44,25,25,102,,112,112,16,12,5,5,0.7,0.7
2025-05-01T1900,3443A,113.2902,23.5544,广州市,花都梯面,,39,34,28,27,18,79,,104,104,10,17,5,4,0.8,0.7
2025-05-01T1900,3445A,113.7858,23.7478,广州市,从化良口,,26,21,33,18,28,75,,100,99,10,14,7,6,0.4,0.4
2025-05-01T1900,3446A,113.8051,23.2614,广州市,增城荔城,,40,38,37,22,20,125,,116,116,9,16,7,7,0.4,0.4
2025-05-01T1900,2506A,109.6047,23.0666,贵港市,江南子站,,43,24,24,19,23,137,,129,129,11,12,4,3,0.7,0.7
2025-05-01T1900,2508A,109.5669,23.1065,贵港市,荷城子站,,37,17,24,12,14,118,,107,107,11,12,6,7,0.5,0.4
2025-05-01T1900,3405A,109.5886,23.1172,贵港市,新世纪学校,,39,34,22,16,19,124,,115,115,13,14,6,3,0.8,0.7
2025-05-01T1900,4260A,109.5933,23.0951,贵港市,中山路155-3号,,44,30,28,20,22,140,,129,129,12,11,4,3,0.6,0.6
2025-05-01T1900,1439A,106.6899,26.5998,贵阳市,马鞍山,颗粒物(PM10),60,70,35,22,9,110,,113,113,5,15,4,4,0.5,0.6
2025-05-01T1900,1441A,106.6243,26.6266,贵阳市,鉴湖路,颗粒物(PM10),67,83,46,24,13,114,,120,120,7,15,6,7,0.2,0.3
2025-05-01T1900,1442A,106.7487,26.6343,贵阳市,燕子冲,颗粒物(PM10),58,66,42,29,24,110,,118,118,9,23,3,5,0.1,0.3
2025-05-01T1900,1443A,106.6555,26.4365,贵阳市,碧云窝,颗粒物(PM10),81,112,53,24,16,120,,126,126,10,19,4,5,0.3,0.4
2025-05-01T1900,1445A,106.7109,26.6027,贵阳市,红边门,颗粒物(PM10),69,88,52,29,25,115,,123,123,16,25,2,4,0.1,0.3
2025-05-01T1900,1446A,106.7164,26.5699,贵阳市,新华路,颗粒物(PM10),70,90,53,31,24,109,,122,122,11,25,25,20,0.2,0.5
2025-05-01T1900,1447A,106.674,26.5424,贵阳市,太慈桥,颗粒物(PM10),68,85,41,22,13,115,,120,120,11,23,5,6,0.2,0.3
2025-05-01T1900,4230A,106.6882,26.5695,贵阳市,花果园大街66号,颗粒物(PM10),70,90,54,30,27,112,,112,112,12,33,3,5,0.3,0.5
2025-05-01T1900,4231A,106.6873,26.5169,贵阳市,漓江路57号,颗粒物(PM10),67,83,52,24,22,114,,121,121,11,27,8,9,0.3,0.5
2025-05-01T1900,1864A,110.3089,25.2708,桂林市,龙隐路小学,颗粒物(PM10),65,79,51,16,29,110,,109,109,7,12,9,15,0.4,0.7
2025-05-01T1900,1865A,110.2869,25.2178,桂林市,八中,颗粒物(PM10),64,78,50,23,31,98,,102,102,17,19,4,8,0.5,0.7
2025-05-01T1900,3531A,110.296,25.1253,桂林市,旅游学院,颗粒物(PM10),63,75,38,22,23,107,,104,104,6,13,2,6,0.5,0.7
2025-05-01T1900,4222A,110.1835,25.2444,桂林市,环湖路276号,颗粒物(PM10),71,92,45,31,26,98,,98,98,9,14,6,28,0.4,0.5
2025-05-01T1900,4301A,110.2803,25.2773,桂林市,信义路13号,颗粒物(PM10),66,81,53,18,27,103,,91,91,16,19,20,17,0.3,0.6
2025-05-01T1900,2674A,100.2561,34.4714,果洛藏族自治州,玛沁县大武镇,,36,30,43,13,19,115,,108,108,1,5,22,22,0.3,0.4
2025-05-01T1900,1129A,126.5422,45.755,哈尔滨市,岭北,,40,40,38,27,32,107,,116,116,15,21,9,11,0.8,0.8
2025-05-01T1900,1130A,126.561,45.8167,哈尔滨市,松北商大,,45,45,59,26,36,91,,108,108,19,32,6,7,0.5,0.5
2025-05-01T1900,1131A,126.979,45.5419,哈尔滨市,阿城会宁,颗粒物(PM10),54,58,50,20,31,76,,103,100,17,19,15,14,0.4,0.5
2025-05-01T1900,1132A,126.599,45.7222,哈尔滨市,南岗学府路,颗粒物(PM10),55,60,67,33,33,102,,109,109,16,25,8,8,0.4,0.4
2025-05-01T1900,1133A,126.689,45.7733,哈尔滨市,太平宏伟公园,细颗粒物(PM2.5),58,52,65,41,41,109,,112,112,14,28,6,7,0.6,0.6
2025-05-01T1900,1134A,126.635,45.7667,哈尔滨市,道外承德广场,细颗粒物(PM2.5),52,39,49,36,40,104,,108,108,14,22,7,7,0.5,0.5
2025-05-01T1900,1135A,126.685,45.7319,哈尔滨市,香坊红旗大街,细颗粒物(PM2.5),64,61,67,46,36,109,,110,110,16,27,8,10,0.5,0.5
2025-05-01T1900,1136A,126.6411,45.7258,哈尔滨市,动力和平路,"颗粒物(PM10),细颗粒物(PM2.5)",52,53,63,36,39,100,,105,105,18,25,6,7,0.4,0.4
2025-05-01T1900,1137A,126.593,45.7478,哈尔滨市,道里建国路,,49,49,48,31,35,98,,110,110,22,23,6,5,0.6,0.7
2025-05-01T1900,1138A,126.615,45.61,哈尔滨市,平房东轻厂,颗粒物(PM10),52,53,52,31,32,94,,112,112,13,24,7,10,0.4,0.5
2025-05-01T1900,1139A,126.595,45.9855,哈尔滨市,呼兰师专,细颗粒物(PM2.5),68,60,74,49,53,83,,103,103,23,31,8,8,0.5,0.5
2025-05-01T1900,1140A,126.6206,45.6842,哈尔滨市,省农科院,颗粒物(PM10),56,61,70,35,43,97,,105,105,13,30,6,8,0.4,0.5
2025-05-01T1900,2688A,93.5128,42.8172,哈密市,地区监测站,,45,45,59,26,35,106,,109,109,14,16,4,5,0.3,0.2
2025-05-01T1900,2689A,93.4961,42.8328,哈密市,哈密师范学校,,48,48,52,20,22,94,,102,102,17,23,5,5,0.2,0.3
2025-05-01T1900,2671A,100.9048,36.9639,海北藏族自治州,海晏县西海镇,,35,20,23,15,15,112,,110,110,1,7,11,8,0.3,0.4
2025-05-01T1900,3867A,102.0738,36.5056,海东市,平安区公安北苑,,35,25,42,9,17,110,,114,114,8,13,3,7,0.4,0.6
2025-05-01T1900,1409A,110.576,19.9507,海口市,东寨港,,35,35,24,9,10,70,,78,76,3,4,3,3,0.6,0.7
2025-05-01T1900,1410A,110.3232,20.0574,海口市,海南大学,,,10,29,3,13,83,,84,84,,8,,2,0.3,0.3
2025-05-01T1900,1411A,110.283,20.0053,海口市,秀英海南医院,,25,14,30,6,14,77,,81,81,5,10,4,4,0.3,0.4
2025-05-01T1900,1412A,110.338,19.9969,海口市,海南师范大学,,27,14,30,3,14,86,,89,89,9,10,3,3,0.4,0.4
2025-05-01T1900,1413A,110.33,20.0356,海口市,龙华路环保局宿舍,,28,14,30,7,15,87,,89,89,7,9,4,4,0.3,0.3
2025-05-01T1900,3539A,110.5111,19.9736,海口市,桂林洋子站,,27,15,28,7,13,84,,85,85,5,8,4,4,0.3,0.3
2025-05-01T1900,2673A,100.6188,36.2866,海南藏族自治州,共和县恰卜恰镇,颗粒物(PM10),51,51,36,16,16,113,,111,111,3,17,11,12,0.3,0.4
2025-05-01T1900,2676A,97.3731,37.3753,海西蒙古族藏族自治州,德令哈市,,48,48,53,3,14,114,,116,116,2,2,15,13,0.4,0.4
2025-05-01T1900,1048A,114.5302,36.6116,邯郸市,东污水处理厂,,,54,47,,9,122,,115,115,15,19,4,4,0.3,0.3
2025-05-01T1900,1049A,114.4918,36.5713,邯郸市,矿院,颗粒物(PM10),59,68,47,17,14,119,,109,109,9,18,4,4,0.3,0.4
2025-05-01T1900,1050A,114.484,36.6133,邯郸市,丛台公园,颗粒物(PM10),56,61,50,36,25,131,,120,120,12,18,2,2,0.3,0.4
2025-05-01T1900,3458A,114.7895,36.5593,邯郸市,香泉濮院小区,颗粒物(PM10),60,69,58,3,13,120,,115,115,10,13,5,4,0.2,0.3
2025-05-01T1900,3579A,114.50634,36.77178,邯郸市,永年区实验高中,颗粒物(PM10),62,74,66,26,27,123,,109,109,8,17,5,5,0.2,0.2
2025-05-01T1900,3580A,114.20016,36.44293,邯郸市,峰峰矿区临水派出所,,,59,47,31,23,134,,136,136,4,9,,9,0.6,0.8
2025-05-01T1900,2634A,106.9893,33.1842,汉中市,汉川机床厂子校,颗粒物(PM10),55,59,99,28,21,130,,132,132,6,6,7,7,0.5,0.5
2025-05-01T1900,2635A,107.0154,33.0706,汉中市,市监测站,颗粒物(PM10),70,89,63,25,21,132,,135,135,4,9,6,9,0.4,0.7
2025-05-01T1900,2636A,107.0089,33.1138,汉中市,鑫源开发区,颗粒物(PM10),54,58,69,28,22,126,,132,132,9,12,5,9,0.5,0.7
2025-05-01T1900,2637A,107.007,33.0323,汉中市,南郑大河坎水厂,颗粒物(PM10),58,66,59,33,24,132,,131,131,7,12,5,5,0.5,0.5
2025-05-01T1900,1223A,120.2072,30.2111,杭州市,滨江,,47,44,46,22,23,149,,139,139,16,13,6,6,0.5,0.6
2025-05-01T1900,1224A,120.0633,30.2747,杭州市,西溪,,45,33,32,18,24,144,,135,135,13,9,5,5,0.3,0.4
2025-05-01T1900,1226A,120.3417,30.3150,杭州市,下沙,颗粒物(PM10),52,54,52,22,25,147,,142,142,20,14,10,10,0.4,0.4
2025-05-01T1900,1227A,120.1269,30.2456,杭州市,卧龙桥,,46,46,43,24,25,145,,138,138,11,10,7,6,0.5,0.6
2025-05-01T1900,1228A,120.1903,30.2692,杭州市,浙江农大,颗粒物(PM10),62,74,41,19,22,135,,122,122,20,20,10,6,0.1,0.3
2025-05-01T1900,1230A,120.1197,30.3119,杭州市,和睦小学,,46,46,42,21,27,145,,136,136,8,8,7,6,0.4,0.4
2025-05-01T1900,1231A,120.3019,30.4183,杭州市,临平镇,颗粒物(PM10),52,53,48,20,23,155,,143,143,15,13,6,5,0.4,0.5
2025-05-01T1900,1232A,120.2753,30.1839,杭州市,城厢镇,颗粒物(PM10),52,53,52,24,28,153,,143,143,18,14,8,6,0.4,0.5
2025-05-01T1900,1233A,120.0883,30.1808,杭州市,云栖,,40,40,41,16,21,112,,131,130,20,18,5,6,0.5,0.6
2025-05-01T1900,3557A,119.9464,30.0494,杭州市,镇二中,,40,40,42,16,27,122,,121,121,22,18,3,3,0.3,0.5
2025-05-01T1900,3558A,119.7183,30.2367,杭州市,市府大楼,,46,46,43,22,24,133,,130,130,18,10,8,7,0.3,0.4
2025-05-01T1900,3656A,120.1556,30.2864,杭州市,消防大队,颗粒物(PM10),52,54,49,23,24,143,,138,138,16,13,4,4,0.4,0.5
2025-05-01T1900,1270A,117.1959,31.7848,合肥市,明珠广场,颗粒物(PM10),51,51,50,14,22,145,,140,140,11,16,6,6,0.2,0.3
2025-05-01T1900,1271A,117.3072,31.8764,合肥市,三里街,颗粒物(PM10),54,58,52,22,22,141,,134,134,10,14,5,4,0.3,0.4
2025-05-01T1900,1272A,117.2588,31.8707,合肥市,琥珀山庄,颗粒物(PM10),53,56,55,20,26,141,,135,135,9,13,4,4,0.4,0.5
2025-05-01T1900,1273A,117.1604,31.9052,合肥市,董铺水库,颗粒物(PM10),62,74,58,12,20,129,,125,125,6,9,2,2,0.2,0.3
2025-05-01T1900,1274A,117.25,31.8571,合肥市,长江中路,颗粒物(PM10),53,56,55,24,26,137,,134,134,12,12,9,8,0.4,0.5
2025-05-01T1900,1275A,117.266,31.9436,合肥市,庐阳区,颗粒物(PM10),59,68,54,29,23,143,,138,138,6,9,6,7,0.1,0.2
2025-05-01T1900,1276A,117.3453,31.8616,合肥市,瑶海区,颗粒物(PM10),53,56,57,17,21,135,,129,129,10,16,6,6,0.2,0.3
2025-05-01T1900,1277A,117.3027,31.7964,合肥市,包河区,,,,63,22,28,129,,131,131,,12,7,6,,0.4
2025-05-01T1900,1278A,117.2776,31.7385,合肥市,滨湖新区,颗粒物(PM10),57,63,56,22,27,128,,125,125,17,18,8,7,0.4,0.5
2025-05-01T1900,1279A,117.1318,31.8403,合肥市,高新区,颗粒物(PM10),57,63,57,15,24,135,,129,129,10,11,2,2,0.3,0.4
2025-05-01T1900,3464A,117.3803,31.9147,合肥市,高教基地,颗粒物(PM10),68,85,64,21,26,135,,128,128,7,11,6,5,0.2,0.4
2025-05-01T1900,3614A,79.924,37.0877,和田地区,地区环保局,颗粒物(PM10),60,70,150,20,39,103,,102,102,5,15,1,2,0.5,0.3
2025-05-01T1900,3615A,79.9131,37.113,和田地区,市环保局,颗粒物(PM10),57,64,125,27,40,113,,110,110,6,23,3,2,0.0,0.3
2025-05-01T1900,2517A,108.0497,24.6947,河池市,市环保站,,37,29,24,6,9,116,,116,116,6,7,10,8,0.5,0.5
2025-05-01T1900,2518A,108.0983,24.6989,河池市,市疾控中心,,38,38,23,12,13,121,,117,117,12,13,12,10,0.5,0.5
2025-05-01T1900,1696A,114.6778,23.7569,河源市,源西,,38,37,31,26,26,98,,95,95,13,13,3,3,0.8,0.7
2025-05-01T1900,1697A,114.6944,23.7586,河源市,东埔,,35,20,48,20,27,109,,101,101,15,15,4,4,1.0,0.8
2025-05-01T1900,1698A,114.6892,23.7233,河源市,老城,,,,33,23,28,103,,101,101,12,14,,4,0.6,0.5
2025-05-01T1900,1718A,115.4208,35.2464,菏泽市,气象局,细颗粒物(PM2.5),59,60,83,42,34,144,,142,142,13,13,2,7,0.3,0.3
2025-05-01T1900,3374A,115.5564,35.0891,菏泽市,定陶老年大学,,46,46,91,19,25,146,,147,147,11,14,6,6,0.3,0.4
2025-05-01T1900,4184A,115.4797,35.24401,菏泽市,永昌路1号,细颗粒物(PM2.5),58,56,76,41,34,145,,138,138,9,12,6,8,0.3,0.3
2025-05-01T1900,4193A,115.4715,35.2800,菏泽市,长城路999号,,50,50,63,18,25,145,,137,137,17,16,8,10,0.2,0.2
2025-05-01T1900,2514A,111.5264,24.4172,贺州市,环保小区,,46,46,28,9,14,95,,100,100,8,10,6,6,0.7,0.8
2025-05-01T1900,2515A,111.5608,24.4078,贺州市,政协大楼,,47,47,23,24,20,98,,103,103,13,12,7,7,0.5,0.7
2025-05-01T1900,3534A,111.4744,24.4553,贺州市,西湾,,35,35,24,10,16,93,,98,98,9,12,8,7,0.5,0.7
2025-05-01T1900,2385A,114.17,35.9019,鹤壁市,市监测站,颗粒物(PM10),82,114,79,28,35,139,,138,138,11,17,1,3,0.5,0.6
2025-05-01T1900,2386A,114.2956,35.7511,鹤壁市,市交警支队,颗粒物(PM10),56,61,76,23,24,134,,137,137,18,27,8,8,0.6,0.7
2025-05-01T1900,2387A,114.2878,35.7306,鹤壁市,迎宾馆,颗粒物(PM10),77,104,83,3,38,62,,119,116,5,16,1,4,0.1,0.6
2025-05-01T1900,3474A,114.2617,35.6822,鹤壁市,大新区,颗粒物(PM10),57,63,81,22,27,122,,133,133,16,18,10,8,0.5,0.6
2025-05-01T1900,3596A,114.1572,35.9603,鹤壁市,南山宾馆,颗粒物(PM10),59,68,83,36,41,142,,144,144,12,14,6,8,0.6,0.8
2025-05-01T1900,2244A,130.2537,47.3416,鹤岗市,哈啤分公司,细颗粒物(PM2.5),55,,33,39,30,87,,96,94,8,7,15,14,0.4,0.4
2025-05-01T1900,2245A,130.2684,47.3086,鹤岗市,斯达机电,细颗粒物(PM2.5),58,44,41,41,34,96,,95,95,10,8,11,11,0.3,0.3
2025-05-01T1900,2246A,130.3114,47.3388,鹤岗市,东山纸板厂,细颗粒物(PM2.5),57,49,46,40,34,83,,97,94,13,12,12,12,0.7,0.3
2025-05-01T1900,2263A,127.4833,50.2524,黑河市,交通局,,31,31,26,21,16,79,,92,91,20,10,6,7,0.6,0.4
2025-05-01T1900,2264A,127.5144,50.2341,黑河市,环保局,,35,35,25,19,18,90,,97,97,13,9,5,5,0.3,0.2
2025-05-01T1900,2265A,127.5291,50.2472,黑河市,大黑河岛,,25,24,24,17,11,70,,76,75,14,10,2,2,0.4,0.3
2025-05-01T1900,1074A,115.6838,37.7541,衡水市,电机北厂,,42,37,53,28,20,133,,128,128,9,14,3,3,0.3,0.3
2025-05-01T1900,1075A,115.6303,37.7316,衡水市,市监测站,,48,48,59,14,11,126,,125,125,9,15,8,9,0.3,0.3
2025-05-01T1900,3188A,115.6683,37.7217,衡水市,市城管局,,40,38,56,28,22,126,,126,126,11,13,3,6,0.4,0.3
2025-05-01T1900,3459A,115.5989,37.5491,衡水市,地表水厂,颗粒物(PM10),57,64,58,13,16,117,,125,125,17,16,7,8,0.2,0.3
2025-05-01T1900,2456A,112.5003,26.9167,衡阳市,原169医院,,50,50,45,25,28,117,,118,118,11,12,6,13,0.3,0.5
2025-05-01T1900,2457A,112.6194,26.9258,衡阳市,衡阳化工总厂,颗粒物(PM10),59,68,57,19,34,104,,114,114,10,10,8,8,0.5,0.5
2025-05-01T1900,2458A,112.6211,26.8956,衡阳市,珠晖区环保局,,,49,52,,32,113,,122,122,4,7,8,11,0.6,0.7
2025-05-01T1900,2459A,112.6197,26.8733,衡阳市,市委党校,,,45,59,,35,98,,109,109,10,11,3,7,0.4,0.7
2025-05-01T1900,2460A,112.6006,26.8919,衡阳市,市监测站,颗粒物(PM10),52,53,48,30,33,94,,109,109,10,13,10,13,0.6,0.7
2025-05-01T1900,2461A,112.5664,26.9056,衡阳市,真空机电公司,,,60,50,23,30,100,,108,108,,7,5,6,0.7,0.8
2025-05-01T1900,3399A,112.6703,26.882,衡阳市,师范学院,,50,50,70,25,37,113,,117,117,10,12,8,8,0.7,0.8
2025-05-01T1900,2608A,103.3772,23.3993,红河哈尼族彝族自治州,污水处理厂,,40,33,44,28,34,118,,116,116,10,14,6,20,0.4,0.5
2025-05-01T1900,2609A,103.3861,23.35,红河哈尼族彝族自治州,监测站,颗粒物(PM10),58,66,51,32,35,136,,129,129,9,14,8,28,0.3,0.4
2025-05-01T1900,3038A,103.3758,23.368,红河哈尼族彝族自治州,州图书馆,,40,,39,28,32,122,,112,112,7,13,4,27,0.3,0.4
2025-05-01T1900,1090A,111.6507,40.7517,呼和浩特市,呼市一监,,48,48,47,11,17,113,,112,112,5,10,4,3,0.4,0.4
2025-05-01T1900,1091A,111.6572,40.8033,呼和浩特市,小召,,46,46,41,12,16,108,,102,102,11,18,6,7,0,0.3
2025-05-01T1900,1094A,111.7516,40.8369,呼和浩特市,如意水处理厂,,38,38,41,16,18,104,,107,107,11,20,5,6,0.3,0.3
2025-05-01T1900,1095A,111.7276,40.8062,呼和浩特市,二十九中,,42,42,39,11,16,108,,107,107,6,12,4,4,0.4,0.3
2025-05-01T1900,1096A,111.5512,40.7866,呼和浩特市,工大金川校区,,40,40,42,13,18,110,,108,108,15,25,8,8,0.4,0.5
2025-05-01T1900,1097A,111.717,40.7612,呼和浩特市,化肥厂生活区,,44,44,45,12,16,107,,108,108,12,15,8,8,0.3,0.3
2025-05-01T1900,3698A,111.5968,40.8178,呼和浩特市,红旗小学,,48,48,43,15,16,115,,115,115,21,20,6,6,0.4,0.4
2025-05-01T1900,3699A,111.6518,40.8389,呼和浩特市,海东办,,46,46,39,24,18,110,,106,106,10,15,7,7,0.4,0.5
2025-05-01T1900,2192A,119.7594,49.2261,呼伦贝尔市,区环保局,,36,30,26,25,25,74,,84,84,19,12,6,6,0.4,0.4
2025-05-01T1900,3061A,119.7512,49.1577,呼伦贝尔市,国华电力东,,27,20,23,12,13,85,,89,89,8,7,8,6,0.3,0.2
2025-05-01T1900,1250A,120.0751,30.8669,湖州市,城西水厂,,47,47,46,19,25,148,,139,139,14,25,7,6,0.4,0.4
2025-05-01T1900,2873A,120.0830,30.8929,湖州市,仁皇山新区,,47,47,47,21,25,148,,148,148,13,18,5,5,0.6,0.7
2025-05-01T1900,2907A,120.1844,30.8596,湖州市,吴兴区站,颗粒物(PM10),51,52,45,19,23,144,,145,145,13,11,6,6,0.4,0.5
2025-05-01T1900,3562A,120.4148,30.8538,湖州市,南浔区站,,50,50,50,21,26,149,,147,147,15,12,4,4,0.4,0.5
2025-05-01T1900,1607A,120.9049,40.7211,葫芦岛市,龙港区,,49,49,67,8,23,72,,77,77,16,27,10,28,0.4,0.5
2025-05-01T1900,1608A,120.8392,40.7514,葫芦岛市,化工街,颗粒物(PM10),52,53,64,7,23,72,,79,78,16,33,6,24,0.4,0.6
2025-05-01T1900,1609A,120.8341,40.7073,葫芦岛市,新区,,48,48,55,8,20,75,,81,81,14,29,6,13,0.4,0.5
2025-05-01T1900,1610A,120.8695,40.7677,葫芦岛市,东城区,,39,39,56,3,20,71,,78,78,17,25,3,19,0.4,0.6
2025-05-01T1900,2482A,109.5981,27.5721,怀化市,林科所,颗粒物(PM10),69,87,34,31,15,93,,100,100,8,9,8,4,0.6,0.6
2025-05-01T1900,2483A,109.9453,27.5444,怀化市,河西地税局,颗粒物(PM10),83,116,36,37,17,69,,92,92,20,10,4,4,0.5,0.5
2025-05-01T1900,2484A,109.9781,27.5342,怀化市,市四医院,颗粒物(PM10),86,121,49,35,23,95,,105,105,13,12,6,7,0.5,0.6
2025-05-01T1900,2485A,109.9972,27.5578,怀化市,监测楼,颗粒物(PM10),81,112,43,33,20,90,,104,104,16,10,2,3,0.2,0.3
2025-05-01T1900,2486A,110.0394,27.583,怀化市,市委党校,颗粒物(PM10),82,113,38,34,17,93,,98,98,9,8,6,6,0.4,0.6
2025-05-01T1900,1210A,119.036,33.5981,淮安市,钵池山,,48,48,60,22,29,147,,143,143,13,11,9,9,0.3,0.4
2025-05-01T1900,1211A,119.007,33.575,淮安市,北京南路,颗粒物(PM10),52,53,58,22,28,140,,145,145,13,9,9,9,0.4,0.5
2025-05-01T1900,1212A,118.989,33.6067,淮安市,市监测站,颗粒物(PM10),52,53,58,19,30,127,,138,138,22,12,8,9,0.4,0.5
2025-05-01T1900,1213A,119.135,33.5039,淮安市,楚州区监测站,颗粒物(PM10),55,59,72,34,48,137,,139,139,13,10,8,8,0.3,0.4
2025-05-01T1900,3426A,118.8755,33.2894,淮安市,新华书店,颗粒物(PM10),54,58,63,20,29,141,,144,144,8,8,9,9,0.4,0.5
2025-05-01T1900,4206A,119.0288,33.6319,淮安市,承德北路606号,颗粒物(PM10),54,58,66,23,29,136,,139,139,13,8,8,9,0.4,0.5
2025-05-01T1900,2282A,116.8004,33.975,淮北市,监测站,颗粒物(PM10),57,63,74,25,34,144,,143,143,17,12,7,6,0.6,0.6
2025-05-01T1900,2283A,116.8091,33.9007,淮北市,烈山区政府,,,69,78,21,29,138,,140,140,14,10,,5,0.7,0.6
2025-05-01T1900,3330A,116.8873,33.9836,淮北市,杜集区检察院,颗粒物(PM10),62,74,84,26,34,138,,141,141,18,15,8,7,0.5,0.6
2025-05-01T1900,4017A,116.7923,33.9535,淮北市,市博物馆,颗粒物(PM10),56,62,80,30,40,150,,144,144,12,11,7,6,0.6,0.7
2025-05-01T1900,2277A,116.8305,32.7727,淮南市,潘集区政府,颗粒物(PM10),58,65,67,31,34,131,,140,140,13,11,4,4,0.2,0.3
2025-05-01T1900,2279A,116.8569,32.5951,淮南市,谢家集区政府,颗粒物(PM10),60,69,63,28,32,138,,144,144,10,11,5,5,0.2,0.2
2025-05-01T1900,2280A,116.8281,32.633,淮南市,八公山区政府,颗粒物(PM10),60,70,73,23,30,137,,140,140,6,7,6,6,0.2,0.3
2025-05-01T1900,2894A,117.0566,32.6531,淮南市,经济技术开发区消防队,,,69,65,,38,133,,141,141,9,10,,6,0.4,0.3
2025-05-01T1900,3329A,117.0108,32.5893,淮南市,山南新区,颗粒物(PM10),66,82,78,19,28,144,,151,151,11,12,8,8,0.3,0.3
2025-05-01T1900,4209A,117.0031,32.6445,淮南市,国庆中路369号,颗粒物(PM10),66,81,65,28,35,136,,144,144,7,8,9,9,0.3,0.3
2025-05-01T1900,2929A,114.8858,30.4519,黄冈市,红卫路,颗粒物(PM10),53,55,60,24,39,160,,164,164,9,15,6,8,0.6,0.7
2025-05-01T1900,3398A,114.9136,30.4445,黄冈市,市林业局,颗粒物(PM10),52,53,62,20,41,157,,159,159,11,19,10,9,0.6,0.7
2025-05-01T1900,2672A,102.0199,35.5102,黄南藏族自治州,同仁县隆务镇,,38,38,25,12,9,102,,106,106,8,3,4,4,0.2,0.1
2025-05-01T1900,2295A,118.2903,29.6963,黄山市,延安路89号,,39,39,37,20,22,116,,114,114,9,4,5,4,0.2,0.4
2025-05-01T1900,2297A,118.1371,30.2756,黄山市,黄山区政府5号楼,颗粒物(PM10),55,59,46,16,20,123,,130,130,6,4,4,4,0.5,0.6
2025-05-01T1900,4210A,118.3354,29.7203,黄山市,滨江东路7-2号,颗粒物(PM10),54,57,46,25,21,111,,113,113,8,4,4,4,0.4,0.6
2025-05-01T1900,2423A,115.0601,30.2313,黄石市,沈家营,臭氧1小时,64,54,60,24,25,171,,165,165,9,16,6,7,0.5,0.6
2025-05-01T1900,2426A,114.8988,30.2019,黄石市,铁山,颗粒物(PM10),62,74,61,28,28,142,,151,151,9,12,8,9,0.6,0.5
2025-05-01T1900,2427A,115.0307,30.2092,黄石市,团城山,颗粒物(PM10),52,54,52,26,21,157,,154,154,11,14,8,8,0.4,0.5
2025-05-01T1900,3149A,115.0235,30.1578,黄石市,笔架山北路,,49,44,48,16,21,156,,161,161,6,10,7,8,0.5,0.7
2025-05-01T1900,4185A,115.0780,30.21118,黄石市,磁湖东路29号,臭氧1小时,64,58,72,27,32,171,,164,164,16,20,6,7,0.6,0.6
2025-05-01T1900,1392A,114.4183,23.0528,惠州市,河南岸金山湖子站,,38,28,37,26,24,107,,96,96,17,16,8,8,0.6,0.5
2025-05-01T1900,1393A,114.4053,23.0822,惠州市,下埔横江三路子站,,39,26,41,19,26,123,,110,110,11,14,8,8,0.7,0.6
2025-05-01T1900,1394A,114.4103,23.1142,惠州市,江北云山西路子站,,40,21,40,17,24,125,,109,109,9,15,10,10,0.6,0.6
2025-05-01T1900,1395A,114.4645,22.7833,惠州市,惠阳区承修路船湖子站,,48,48,46,24,24,106,,108,108,26,16,8,8,0.5,0.6
2025-05-01T1900,1396A,114.5317,22.7422,惠州市,大亚湾管委会子站,,47,47,41,22,21,85,,102,102,24,17,7,8,0.6,0.5
2025-05-01T1900,3314A,114.4338,22.8134,惠州市,惠阳秋长,颗粒物(PM10),52,53,39,27,24,125,,122,122,22,16,9,6,0.7,0.6
2025-05-01T1900,3452A,114.6517,22.775,惠州市,大亚湾霞涌,,30,29,33,16,16,96,,103,103,16,10,8,8,0.5,0.5
2025-05-01T1900,2240A,130.9762,45.3001,鸡西市,环保局,颗粒物(PM10),51,52,31,34,17,85,,110,102,13,9,5,6,0.5,0.4
2025-05-01T1900,2243A,130.9429,45.3039,鸡西市,第一中学,,38,35,31,26,17,87,,106,100,8,8,6,6,0.4,0.4
2025-05-01T1900,3707A,131.0207,45.3073,鸡西市,欧美日汽修厂,,50,46,33,35,24,78,,105,96,16,7,4,4,0.6,0.4
2025-05-01T1900,3709A,130.9967,45.3106,鸡西市,市政设施管理处,颗粒物(PM10),58,66,34,30,18,80,,105,96,12,7,6,7,0.6,0.5
2025-05-01T1900,2367A,114.9754,27.0803,吉安市,红声器材厂,颗粒物(PM10),52,54,46,29,28,118,,112,112,6,10,10,10,0.6,0.6
2025-05-01T1900,2368A,114.9658,27.0999,吉安市,市森林工业局,,48,48,40,28,30,114,,107,107,5,7,9,8,0.3,0.5
2025-05-01T1900,2369A,114.99,27.1312,吉安市,市环境监测站,颗粒物(PM10),51,51,40,25,28,118,,108,108,2,5,8,9,0.6,0.7
2025-05-01T1900,2370A,115.0093,27.0968,吉安市,青原区法院,颗粒物(PM10),51,51,41,29,31,120,,114,114,4,9,12,11,0.5,0.5
2025-05-01T1900,1772A,126.54,43.8622,吉林市,哈达湾,,28,20,35,13,22,87,,99,93,15,13,7,7,0.3,0.4
2025-05-01T1900,1773A,126.5844,43.8358,吉林市,东局子,,27,16,27,14,22,85,,96,92,13,12,5,5,0.4,0.4
2025-05-01T1900,1774A,126.5052,43.8245,吉林市,电力学院,,27,16,35,12,26,84,,99,95,15,13,6,5,0.6,0.6
2025-05-01T1900,1775A,126.6133,43.8972,吉林市,江北,,,,36,23,23,70,,98,91,12,12,5,5,,0.7
2025-05-01T1900,1776A,126.555,43.8306,吉林市,江南公园,,25,25,34,9,22,78,,91,86,17,13,6,5,0.4,0.4
2025-05-01T1900,2868A,126.4739,43.953,吉林市,九站,,25,14,29,13,26,78,,95,91,18,16,8,9,0.4,0.5
2025-05-01T1900,1299A,116.9862,36.6114,济南市,科干所,,40,27,69,15,22,127,,120,120,5,18,3,3,0.3,0.4
2025-05-01T1900,1300A,116.9376,36.665,济南市,农科所,,36,27,60,12,24,114,,118,118,10,23,6,6,0.3,0.4
2025-05-01T1900,1301A,117.1265,36.6734,济南市,开发区,,40,37,57,22,33,128,,122,122,13,17,8,7,0.5,0.6
2025-05-01T1900,1303A,117.0624,36.6868,济南市,省种子仓库,颗粒物(PM10),73,95,93,9,28,128,,122,122,8,21,4,4,0.3,0.4
2025-05-01T1900,1304A,116.9489,36.6447,济南市,机床二厂,,49,34,70,34,40,125,,123,123,19,28,7,7,0.4,0.4
2025-05-01T1900,1305A,117.0495,36.663,济南市,市监测站,细颗粒物(PM2.5),83,,73,61,35,123,,118,118,12,23,7,8,0.4,0.5
2025-05-01T1900,1306A,116.7675,36.5484,济南市,长清党校,,44,24,57,22,29,139,,129,129,10,20,5,5,0.6,0.6
2025-05-01T1900,1616A,117.6795,36.229,济南市,技术学院,,41,39,65,14,29,130,,120,120,17,19,9,10,0.5,0.6
2025-05-01T1900,1961A,117.532,36.6868,济南市,东山小学,,46,46,77,10,25,132,,124,124,6,16,6,6,0.3,0.3
2025-05-01T1900,3059A,117.7161,36.2049,济南市,泰兴公司,,42,34,53,14,28,132,,126,126,15,18,5,5,0.2,0.3
2025-05-01T1900,3064A,117.6867,36.2171,济南市,莱芜战役纪念馆,,39,39,59,9,23,123,,119,119,18,18,4,5,0.5,0.6
2025-05-01T1900,3494A,117.1673,36.9782,济南市,济阳区政府,,43,42,67,20,28,136,,128,128,8,20,5,6,0.3,0.4
2025-05-01T1900,3495A,117.1171,36.63,济南市,锦屏中学,,39,32,48,15,19,122,,123,123,15,14,4,5,0.4,0.4
2025-05-01T1900,3682A,116.9814,36.6819,济南市,济南四建,,41,31,67,17,30,129,,124,124,11,24,4,4,0.3,0.5
2025-05-01T1900,1653A,116.6251,35.4302,济宁市,火炬城,,43,39,96,24,33,137,,128,128,6,9,5,6,0.3,0.4
2025-05-01T1900,1655A,116.5491,35.4042,济宁市,电化厂,,42,40,70,17,36,132,,126,126,7,9,1,2,0.3,0.5
2025-05-01T1900,3500A,116.5814,35.3707,济宁市,北湖一中,颗粒物(PM10),52,53,119,9,21,138,,127,127,6,11,4,4,0.2,0.3
2025-05-01T1900,3501A,116.8249,35.5593,济宁市,服务中心,颗粒物(PM10),57,64,100,15,25,143,,135,135,13,14,2,3,0.2,0.3
2025-05-01T1900,3678A,116.5907,35.4054,济宁市,市第七中学,,46,46,95,14,25,145,,133,133,6,12,3,9,0.3,0.4
2025-05-01T1900,2255A,130.2751,46.8028,佳木斯市,佳纺,,,,57,50,40,86,,99,96,17,15,6,6,0.5,0.5
2025-05-01T1900,2256A,130.3995,46.8307,佳木斯市,发电厂,细颗粒物(PM2.5),75,,37,55,38,94,,106,104,15,14,4,4,0.4,0.4
2025-05-01T1900,2257A,130.3258,46.7975,佳木斯市,环保局,细颗粒物(PM2.5),80,,47,59,41,80,,101,96,23,19,5,6,0.5,0.5
2025-05-01T1900,2258A,130.3648,46.8032,佳木斯市,十一中,细颗粒物(PM2.5),75,,41,55,36,83,,102,98,21,16,5,6,0.6,0.5
2025-05-01T1900,2259A,130.3794,46.7588,佳木斯市,四丰,,49,43,39,34,26,83,,85,84,10,16,1,1,0.4,0.3
2025-05-01T1900,1252A,120.7436,30.778,嘉兴市,清河小学,颗粒物(PM10),57,63,59,22,24,131,,137,137,17,16,5,5,0.6,0.8
2025-05-01T1900,1253A,120.726,30.7478,嘉兴市,嘉兴学院,颗粒物(PM10),56,62,56,20,26,140,,145,145,18,21,6,6,0.5,0.7
2025-05-01T1900,2872A,120.7846,30.7525,嘉兴市,南湖区残联,颗粒物(PM10),60,69,33,28,28,142,,149,149,16,11,6,6,0.4,0.6
2025-05-01T1900,3407A,120.6916,30.7739,嘉兴市,秀洲住建,颗粒物(PM10),53,56,54,24,24,150,,156,156,12,8,7,7,0.4,0.5
2025-05-01T1900,1945A,98.2908,39.7711,嘉峪关市,气象局,颗粒物(PM10),63,75,87,22,35,104,,104,104,7,10,25,12,1.0,0.8
2025-05-01T1900,2884A,98.2672,39.7978,嘉峪关市,酒钢宾馆,颗粒物(PM10),68,85,132,48,42,107,,106,106,6,7,22,20,0.3,0.3
2025-05-01T1900,3248A,98.2643,39.7724,嘉峪关市,雄关区,颗粒物(PM10),55,59,92,17,24,105,,105,105,6,15,6,8,0.7,0.7
2025-05-01T1900,1383A,113.1064,22.6058,江门市,北街,,27,20,35,15,20,86,,83,83,6,6,1,2,0.6,0.6
2025-05-01T1900,1384A,113.0731,22.5835,江门市,西区,,31,24,39,17,20,98,,91,91,11,13,6,6,0.6,0.6
2025-05-01T1900,1385A,113.0219,22.5311,江门市,圭峰西,,26,19,41,18,24,76,,81,81,7,11,3,3,0.5,0.4
2025-05-01T1900,1386A,113.0828,22.5947,江门市,东湖,,29,27,39,12,20,92,,86,86,11,12,8,8,0.6,0.6
2025-05-01T1900,3311A,113.1075,22.5647,江门市,江海富民,,41,41,53,18,20,87,,92,92,10,9,7,8,0.5,0.5
2025-05-01T1900,3449A,113.05,22.4667,江门市,新会银湖,,33,33,40,18,24,66,,90,88,11,14,2,2,0.6,0.7
2025-05-01T1900,3169A,113.2725,35.2067,焦作市,太极体育中心,颗粒物(PM10),97,143,116,43,33,160,,158,158,13,17,7,7,0.1,0.2
2025-05-01T1900,3335A,113.3137,35.2641,焦作市,马村街道办,,,101,101,38,37,145,,141,141,,15,,8,0.1,0.2
2025-05-01T1900,3336A,113.2465,35.2373,焦作市,焦作技师学院,颗粒物(PM10),87,123,104,17,23,150,,144,144,12,12,8,7,0.6,0.6
2025-05-01T1900,3477A,113.1656,35.2539,焦作市,中站许衡医院,颗粒物(PM10),73,95,82,23,30,152,,149,149,12,12,8,6,0.5,0.4
2025-05-01T1900,3981A,113.2449,35.1803,焦作市,原李万街道办,颗粒物(PM10),76,101,89,29,33,150,,145,145,14,19,11,12,0.4,0.3
2025-05-01T1900,4264A,113.2340,35.2190,焦作市,新安路1731号,颗粒物(PM10),73,96,102,52,37,153,,146,146,11,14,6,8,0.6,0.5
2025-05-01T1900,1708A,116.3701,23.5345,揭阳市,新兴,,,,51,,35,112,,115,115,8,16,6,8,0.7,0.9
2025-05-01T1900,1709A,116.3264,23.5443,揭阳市,西马,,46,38,55,32,37,106,,110,110,9,13,9,10,0.9,0.9
2025-05-01T1900,1710A,116.3611,23.5626,揭阳市,东兴,,40,40,59,28,34,110,,113,113,8,16,6,9,0.6,0.7
2025-05-01T1900,1711A,116.4151,23.5294,揭阳市,渔湖,,48,48,69,24,30,117,,119,119,9,15,5,6,0.9,0.9
2025-05-01T1900,3320A,116.403,23.5699,揭阳市,曲溪,,43,43,57,27,31,118,,125,125,14,22,3,4,0.7,0.8
2025-05-01T1900,1944A,102.1692,38.5167,金昌市,天庆家园,颗粒物(PM10),53,56,79,16,26,105,,110,109,3,4,11,10,0.8,0.6
2025-05-01T1900,4022A,102.1647,38.5371,金昌市,金川区人防中心,颗粒物(PM10),61,72,103,19,27,109,,113,112,3,5,3,5,0.5,0.5
2025-05-01T1900,4239A,102.1930,38.5319,金昌市,长春路96号,颗粒物(PM10),60,69,98,33,27,102,,110,103,2,3,14,13,0.6,0.5
2025-05-01T1900,1262A,119.647,29.077,金华市,十五中,颗粒物(PM10),52,53,55,24,34,115,,125,125,17,16,4,3,0.6,0.6
2025-05-01T1900,1263A,119.686,29.1029,金华市,监测站,,47,47,57,22,34,111,,119,119,13,15,4,5,0.4,0.5
2025-05-01T1900,3659A,119.656,29.1131,金华市,气象局,颗粒物(PM10),53,55,57,20,31,113,,124,124,16,18,2,2,0.5,0.6
2025-05-01T1900,1767A,121.1115,41.0879,锦州市,南山,,26,26,43,10,23,78,,78,78,11,17,5,11,0.5,0.6
2025-05-01T1900,1768A,121.0604,40.8428,锦州市,开发区,,36,36,60,21,28,76,,80,80,12,22,6,7,0.5,0.7
2025-05-01T1900,1769A,121.1836,41.1119,锦州市,百股街道,,24,24,42,3,20,76,,77,77,9,15,4,14,0.5,0.6
2025-05-01T1900,1770A,121.1178,41.1222,锦州市,天安街道,,25,17,40,10,26,79,,77,77,9,18,6,7,0.5,0.6
2025-05-01T1900,1771A,121.1303,41.1386,锦州市,北湖公园,,24,16,37,9,22,76,,76,76,9,13,7,8,0.4,0.6
2025-05-01T1900,2160A,112.85,35.5051,晋城市,自来水公司,颗粒物(PM10),54,57,86,12,17,130,,119,119,12,12,7,7,0.4,0.4
2025-05-01T1900,2161A,112.8318,35.4936,晋城市,白云商贸,,47,47,79,14,16,133,,126,126,15,15,6,6,0.4,0.4
2025-05-01T1900,2162A,112.8508,35.4887,晋城市,市环保局,颗粒物(PM10),56,62,83,12,17,127,,118,118,12,10,5,4,0.3,0.3
2025-05-01T1900,2163A,112.8676,35.4897,晋城市,技术学院,,41,41,74,7,17,124,,115,115,12,13,6,6,0.4,0.4
2025-05-01T1900,3620A,112.8271,35.4828,晋城市,泽州一中,,43,43,72,7,16,137,,127,127,11,11,4,4,0.5,0.3
2025-05-01T1900,2173A,112.7249,37.7067,晋中市,南都小区,,41,41,59,8,18,122,,128,128,11,16,9,8,0.1,0.1
2025-05-01T1900,2174A,112.6991,37.6982,晋中市,榆次区政府,,39,39,64,12,11,124,,131,131,12,19,10,9,0.5,0.5
2025-05-01T1900,2865A,112.7195,37.6828,晋中市,榆次三中,,44,44,69,9,16,123,,132,132,9,18,7,6,0.5,0.6
2025-05-01T1900,4200A,112.7478,37.6954,晋中市,迎宾街26号,,41,41,70,7,24,119,,124,124,10,15,8,7,0.5,0.3
2025-05-01T1900,2439A,112.2014,31.0481,荆门市,竹园小学,,,,91,,37,155,,144,144,,14,7,8,,0.2
2025-05-01T1900,2440A,112.1969,30.9891,荆门市,掇刀,颗粒物(PM10),97,143,96,35,33,154,,146,146,5,10,4,7,0.3,0.3
2025-05-01T1900,2441A,112.2213,31.0386,荆门市,石化一小,颗粒物(PM10),102,153,93,39,39,151,,142,142,8,14,13,10,0.2,0.3
2025-05-01T1900,3012A,112.1849,31.0362,荆门市,西山林语,颗粒物(PM10),83,116,90,34,33,150,,141,141,5,8,8,10,0.4,0.5
2025-05-01T1900,3547A,112.1632,31.0138,荆门市,龙泉中学南校,颗粒物(PM10),93,135,90,45,35,145,,139,139,10,13,6,9,0.4,0.5
2025-05-01T1900,1844A,112.2494,30.3197,荆州市,市图书馆,,,116,68,32,26,133,,140,140,,21,7,5,0.3,0.6
2025-05-01T1900,1845A,112.2008,30.3544,荆州市,市委党校,颗粒物(PM10),80,110,66,36,28,126,,134,134,17,14,8,7,0.4,0.5
2025-05-01T1900,3194A,112.2747,30.3122,荆州市,管委会,颗粒物(PM10),76,102,60,44,29,133,,139,139,20,18,11,7,0.5,0.6
2025-05-01T1900,4268A,112.1722,30.3366,荆州市,学苑路85号,颗粒物(PM10),72,94,53,34,30,129,,138,138,12,18,6,3,0.4,0.4
2025-05-01T1900,2343A,117.2117,29.2933,景德镇市,老干部活动中心,,36,36,47,25,28,106,,111,111,9,13,10,11,0.5,0.6
2025-05-01T1900,2344A,117.1894,29.2789,景德镇市,兽医站,颗粒物(PM10),57,64,57,20,28,102,,104,104,10,13,8,6,0.7,0.7
2025-05-01T1900,2345A,117.1547,29.2617,景德镇市,台达陶瓷,颗粒物(PM10),51,51,52,27,34,107,,105,105,6,21,11,32,0.4,0.8
2025-05-01T1900,2346A,117.2461,29.2956,景德镇市,陶研所,,48,48,44,26,32,96,,110,110,18,11,8,8,0.6,0.6
2025-05-01T1900,1803A,115.9872,29.6815,九江市,十里,颗粒物(PM10),52,54,41,19,28,132,,142,142,14,11,2,2,0.4,0.6
2025-05-01T1900,1804A,115.9584,29.7046,九江市,茅山头,颗粒物(PM10),54,58,41,21,26,122,,137,137,23,10,4,5,0.3,0.5
2025-05-01T1900,1805A,115.9877,29.7295,九江市,西园,颗粒物(PM10),55,59,39,22,25,129,,139,139,40,29,43,10,0.7,0.7
2025-05-01T1900,1808A,115.9114,29.6038,九江市,综合工业园,颗粒物(PM10),52,53,41,23,23,126,,134,134,34,24,11,8,0.6,0.7
2025-05-01T1900,1809A,116.0721,29.7535,九江市,石化总厂,颗粒物(PM10),59,68,50,24,36,130,,138,138,23,16,10,9,0.6,0.8
2025-05-01T1900,1810A,115.9773,29.5698,九江市,庐山气象台,,49,49,28,24,18,130,,119,119,10,5,7,6,1.0,0.7
2025-05-01T1900,3190A,116.0254,29.6994,九江市,外国语学校,颗粒物(PM10),57,63,40,21,26,122,,133,133,21,16,5,5,0.6,0.9
2025-05-01T1900,4253A,116.0102,29.6594,九江市,莲花大道8号,颗粒物(PM10),57,64,42,22,23,121,,133,133,12,8,5,4,0.5,0.6
2025-05-01T1900,4240A,98.4958,39.7339,酒泉市,玉门东路5号,颗粒物(PM10),67,83,122,46,43,115,,113,113,1,11,8,14,0.2,0.3
2025-05-01T1900,4241A,98.5099,39.7506,酒泉市,北大街108号,颗粒物(PM10),57,63,112,26,28,120,,118,118,4,12,8,19,0.1,0.3
2025-05-01T1900,2698A,76.0072,39.4467,喀什地区,巡警大队,颗粒物(PM10),74,97,184,26,49,126,,112,112,7,39,4,5,0.3,0.7
2025-05-01T1900,2699A,75.9755,39.4694,喀什地区,吾办,颗粒物(PM10),73,95,151,29,58,125,,115,115,10,37,7,7,0.2,0.6
2025-05-01T1900,4027A,75.9483,39.4689,喀什地区,老干局,颗粒物(PM10),77,104,123,26,34,121,,114,114,6,27,7,5,0.4,0.4
2025-05-01T1900,1824A,114.3389,34.7781,开封市,肿瘤医院,颗粒物(PM10),89,127,121,19,26,153,,146,146,7,7,8,8,0.3,0.4
2025-05-01T1900,1826A,114.2885,34.7965,开封市,世纪星幼儿园,颗粒物(PM10),92,133,122,37,34,170,,159,159,15,15,6,6,0.6,0.6
2025-05-01T1900,3147A,114.3438,34.8106,开封市,龙亭公园,颗粒物(PM10),101,152,171,57,57,159,,150,150,13,14,4,3,0.6,0.6
2025-05-01T1900,3210A,114.3644,34.7964,开封市,汴京公园,颗粒物(PM10),98,145,135,28,30,161,,158,158,17,13,5,4,0.5,0.5
2025-05-01T1900,3473A,114.2485,34.8306,开封市,技师学院,颗粒物(PM10),90,130,109,47,44,154,,145,145,11,20,5,6,0.5,0.6
2025-05-01T1900,3592A,114.4644,34.7556,开封市,祥符区生态环境局,细颗粒物(PM2.5),82,76,100,60,44,141,,150,150,23,18,8,10,0.3,0.4
2025-05-01T1900,1951A,84.895,45.6094,克拉玛依市,长征新村,,24,24,32,6,7,76,,74,74,7,7,7,7,0.3,0.2
2025-05-01T1900,1952A,84.8988,45.5893,克拉玛依市,南林小区,,26,23,31,17,14,82,,79,79,4,5,5,4,0.2,0.2
2025-05-01T1900,1954A,84.905,44.3396,克拉玛依市,独山子区,,29,29,76,13,22,76,,77,77,6,4,10,9,0.4,0.3
2025-05-01T1900,1955A,85.6979,46.098,克拉玛依市,乌尔禾区商贸楼,颗粒物(PM10),52,54,26,3,7,52,,69,68,10,4,7,7,0.3,0.2
2025-05-01T1900,3612A,85.1045,45.6899,克拉玛依市,白碱滩区新站,,26,26,22,3,7,73,,71,71,5,6,10,10,0.2,0.2
2025-05-01T1900,2697A,76.1454,39.7142,克孜勒苏柯尔克孜自治州,市人民政府,颗粒物(PM10),73,95,94,31,31,123,,121,121,2,8,5,7,0.2,0.2
2025-05-01T1900,3665A,76.1658,39.7157,克孜勒苏柯尔克孜自治州,克州文化中心,颗粒物(PM10),70,90,85,30,28,122,,120,120,2,10,8,10,0.3,0.3
2025-05-01T1900,1450A,102.8204,24.8886,昆明市,呈贡新区,,43,36,38,9,25,135,,133,133,8,30,6,5,0.3,0.5
2025-05-01T1900,1452A,102.7252,25.0902,昆明市,龙泉镇,,36,34,24,11,15,115,,119,119,10,16,8,8,0.2,0.4
2025-05-01T1900,1453A,102.7266,25.0375,昆明市,东风东路,,39,35,31,13,19,123,,126,126,14,23,7,8,0.3,0.5
2025-05-01T1900,1454A,102.6742,25.0669,昆明市,金鼎山,,41,37,31,9,20,131,,132,132,11,16,2,3,0.3,0.4
2025-05-01T1900,1455A,102.6644,25.0401,昆明市,碧鸡广场,,39,18,30,11,20,124,,128,128,17,19,6,7,0.3,0.5
2025-05-01T1900,3179A,102.7494,25.0119,昆明市,官渡区博物馆,,39,36,33,12,16,124,,128,128,13,28,7,7,0.3,0.5
2025-05-01T1900,3375A,102.8017,24.8336,昆明市,青年创业园,,42,24,28,16,18,132,,134,134,9,24,8,8,0.1,0.3
2025-05-01T1900,3550A,102.7997,24.9786,昆明市,昆明学院,,,19,40,8,28,,,138,138,10,29,6,6,0.2,0.5
2025-05-01T1900,3551A,102.5967,24.6736,昆明市,晋宁区生态环境分局,,43,24,36,12,28,135,,136,136,11,20,5,7,0.2,0.4
2025-05-01T1900,3552A,102.6678,24.9856,昆明市,云天化总部,,40,19,26,9,18,126,,127,127,12,18,7,6,0.3,0.4
2025-05-01T1900,1456A,91.1319,29.6514,拉萨市,八廓街,,46,14,18,9,10,145,,139,139,9,10,5,6,0.3,0.3
2025-05-01T1900,1457A,91.1221,29.6747,拉萨市,市环保局,,44,23,19,7,9,138,,130,130,7,10,3,3,0.4,0.4
2025-05-01T1900,1458A,91.0874,29.6475,拉萨市,区监测站,,42,12,15,7,9,134,,130,130,11,12,5,6,0.3,0.3
2025-05-01T1900,1459A,91.1774,29.6541,拉萨市,西藏大学,,43,10,14,8,9,136,,132,132,11,10,5,6,0.4,0.3
2025-05-01T1900,1460A,90.9798,29.6588,拉萨市,区辐射站,,44,18,18,11,10,139,,132,132,10,13,8,8,0.3,0.3
2025-05-01T1900,1461A,91.0834,29.6292,拉萨市,拉萨火车站,,44,11,14,6,9,139,,130,130,7,9,3,3,0.4,0.4
2025-05-01T1900,2520A,109.2203,23.7256,来宾市,来宾技工学校,,45,45,40,13,26,130,,123,123,14,12,9,10,0.6,0.7
2025-05-01T1900,3535A,109.1781,23.7297,来宾市,兴宾区政府,,38,28,34,12,27,120,,110,110,15,12,7,5,0.5,0.6
2025-05-01T1900,4002A,109.2416,23.7461,来宾市,中南小学,颗粒物(PM10),52,54,44,13,29,121,,117,117,12,12,9,8,0.5,0.7
2025-05-01T1900,1479A,103.831,36.0464,兰州市,铁路设计院,,37,25,70,15,22,118,,120,120,27,56,9,16,0.4,0.8
2025-05-01T1900,3241A,103.7439,36.0842,兰州市,百合公园,,36,22,64,16,24,113,,119,119,6,44,6,5,0.5,0.6
2025-05-01T1900,3242A,103.9611,35.998,兰州市,和平,,40,40,88,12,29,126,,119,119,7,26,12,21,0.4,0.9
2025-05-01T1900,4236A,103.6293,36.0938,兰州市,庄浪东路808号,,39,37,62,23,27,123,,118,118,13,35,12,12,0.3,0.4
2025-05-01T1900,4237A,103.7251,36.1043,兰州市,安宁西路88号,,46,46,80,18,30,143,,141,141,1,39,8,9,0.3,0.4
2025-05-01T1900,4238A,103.8470,36.0676,兰州市,北滨河东路1号,,40,40,75,18,25,120,,121,121,27,53,12,14,0.5,0.7
2025-05-01T1900,3245A,103.6633,36.533,兰州新区,新区管委会,,43,39,51,30,23,128,,124,124,5,11,9,9,0.3,0.3
2025-05-01T1900,3246A,103.6975,36.4789,兰州新区,舟曲中学,,43,43,54,14,15,136,,133,133,6,9,5,13,0.3,0.4
2025-05-01T1900,1067A,116.6708,39.5111,廊坊市,药材公司,,38,36,35,16,13,120,,118,118,12,18,2,2,0.4,0.4
2025-05-01T1900,1068A,116.7214,39.5589,廊坊市,开发区,,36,33,35,12,13,114,,115,115,11,16,2,2,0.3,0.3
2025-05-01T1900,1070A,116.7244,39.5269,廊坊市,北华航天学院,,40,40,48,10,15,110,,113,113,16,17,3,4,0.3,0.3
2025-05-01T1900,2919A,116.7022,39.5453,廊坊市,河北工业大学,颗粒物(PM10),52,53,47,13,14,116,,116,116,15,14,5,5,0.3,0.3
2025-05-01T1900,2535A,103.7723,29.5462,乐山市,花湖湾,,46,28,39,17,23,146,,136,136,6,18,7,8,0.4,0.6
2025-05-01T1900,2536A,103.7627,29.5844,乐山市,牛耳桥,,42,33,40,20,24,134,,133,133,11,22,7,9,0.2,0.4
2025-05-01T1900,2537A,103.7508,29.6006,乐山市,市第三水厂,,41,39,41,16,25,130,,130,130,10,23,5,6,0.5,0.6
2025-05-01T1900,2538A,103.7571,29.5664,乐山市,市监测站,,41,36,42,24,25,129,,126,126,10,19,7,9,0.5,0.8
2025-05-01T1900,3361A,103.7311,29.5628,乐山市,理工大学,,44,36,40,18,23,140,,140,140,8,20,5,7,0.4,0.7
2025-05-01T1900,2599A,100.2497,26.8802,丽江市,丽江古城,,29,24,28,17,15,90,,99,99,13,10,9,9,0.6,0.5
2025-05-01T1900,2600A,100.2203,26.8906,丽江市,市中心,,26,19,17,13,13,81,,96,91,9,5,6,7,1.0,1
2025-05-01T1900,1267A,119.914,28.4514,丽水市,监测站大楼,颗粒物(PM10),55,59,40,32,28,88,,110,109,15,16,3,3,0.4,0.4
2025-05-01T1900,1268A,119.93,28.4586,丽水市,莲都小学,颗粒物(PM10),53,56,42,24,21,85,,114,113,17,14,3,3,0.4,0.5
2025-05-01T1900,1269A,119.879,28.4231,丽水市,余庄前,,43,43,42,26,27,55,,109,101,8,8,3,3,0.4,0.4
2025-05-01T1900,1173A,119.176,34.5885,连云港市,市环境监测站,颗粒物(PM10),51,51,69,19,25,138,,142,142,17,11,6,7,0.6,0.5
2025-05-01T1900,3000A,119.3581,34.6972,连云港市,德源药业,,48,48,65,22,27,136,,138,138,21,14,10,9,0.5,0.5
2025-05-01T1900,3007A,119.178,34.844,连云港市,新城一中,颗粒物(PM10),65,80,80,26,31,129,,131,131,31,15,8,8,0.5,0.6
2025-05-01T1900,3008A,119.3608,34.7519,连云港市,胡沟管理处,颗粒物(PM10),51,51,54,17,26,92,,134,128,70,21,28,15,0.7,0.7
2025-05-01T1900,3009A,119.1478,34.5911,连云港市,矿山设计院,颗粒物(PM10),52,53,78,17,23,138,,142,142,23,18,9,8,0.5,0.5
2025-05-01T1900,3434A,119.2413,34.6539,连云港市,工贸学校,,48,48,59,22,30,140,,146,146,21,15,9,9,0.5,0.5
2025-05-01T1900,3664A,119.4172,34.7341,连云港市,连云街道,,47,47,72,20,37,110,,134,133,20,19,8,10,0.5,0.5
2025-05-01T1900,2571A,102.3431,27.8099,凉山彝族自治州,青龙寺,,41,41,29,7,7,122,,121,121,1,10,3,3,0.5,0.6
2025-05-01T1900,2572A,102.2721,27.8415,凉山彝族自治州,邛海宾馆,,35,35,31,16,14,106,,115,115,10,17,9,10,0.5,0.6
2025-05-01T1900,2573A,102.2625,27.898,凉山彝族自治州,西昌市政府,,,,25,,17,107,,112,112,6,9,,9,0.4,0.5
2025-05-01T1900,2574A,102.2685,27.8851,凉山彝族自治州,凉山州政府,,34,30,27,10,13,106,,111,111,8,14,5,6,0.6,0.5
2025-05-01T1900,4229A,102.2342,27.8859,凉山彝族自治州,凯乐南路30号,,34,34,31,20,16,96,,105,105,8,19,10,11,0.6,0.7
2025-05-01T1900,2212A,123.2,41.1953,辽阳市,宏伟区,,27,17,21,9,13,86,,89,88,11,11,9,8,0.5,0.6
2025-05-01T1900,2213A,123.1683,41.2495,辽阳市,新华园,,26,24,25,11,15,83,,86,85,14,11,4,6,0.4,0.5
2025-05-01T1900,2214A,123.2354,41.2639,辽阳市,滨河路,,45,32,24,31,17,77,,86,84,19,14,8,7,0.4,0.4
2025-05-01T1900,2215A,123.149,41.2991,辽阳市,铁西工业园,,23,21,30,15,16,73,,80,79,11,8,8,10,0.3,0.5
2025-05-01T1900,2227A,125.1358,42.8845,辽源市,环保局,,28,22,34,3,13,87,,109,102,15,15,7,7,0.3,0.3
2025-05-01T1900,3239A,125.0764,42.9078,辽源市,银鹰制药,,30,16,22,10,16,95,,115,112,16,14,4,4,0.3,0.3
2025-05-01T1900,1625A,115.9848,36.4372,聊城市,区政府,,50,50,68,12,22,133,,126,126,11,14,5,5,0.5,0.5
2025-05-01T1900,2878A,116.0072,36.4343,聊城市,聊大东校,,46,46,64,13,27,129,,123,123,13,12,5,7,0.4,0.3
2025-05-01T1900,3200A,115.9819,36.4978,聊城市,监控中心,,45,45,56,7,20,127,,124,124,15,15,6,7,0.4,0.4
2025-05-01T1900,3513A,116.0445,36.4361,聊城市,九州社区,,43,38,54,9,18,136,,132,132,8,11,5,5,0.5,0.4
2025-05-01T1900,4018A,116.0567,36.4608,聊城市,星美广场,,48,48,53,6,14,118,,123,123,26,20,9,10,0.5,0.6
2025-05-01T1900,2632A,94.3681,29.6376,林芝市,林芝监测站,,34,9,13,3,8,107,,101,101,6,9,5,5,0.2,0.2
2025-05-01T1900,2633A,94.3616,29.6616,林芝市,林芝人民医院,,34,13,16,3,8,107,,100,100,2,4,5,5,0.3,0.3
2025-05-01T1900,2603A,100.0781,23.8982,临沧市,市环保局,细颗粒物(PM2.5),52,,27,36,21,54,,68,68,11,11,5,6,0.8,0.7
2025-05-01T1900,2604A,100.0894,23.8822,临沧市,市气象局,,28,22,24,19,21,67,,77,77,11,12,6,7,0.7,0.7
2025-05-01T1900,1733A,111.5531,36.0783,临汾市,临钢医院,颗粒物(PM10),80,109,99,20,26,133,,124,124,10,18,8,5,0.6,0.6
2025-05-01T1900,1734A,111.5028,36.0714,临汾市,技工学校,颗粒物(PM10),85,120,98,24,27,136,,133,133,11,15,10,7,0.3,0.4
2025-05-01T1900,1736A,111.5018,36.0855,临汾市,市委,颗粒物(PM10),76,101,101,22,20,136,,132,132,10,14,9,7,0.3,0.3
2025-05-01T1900,3018A,111.505,36.1014,临汾市,唐尧大酒店,颗粒物(PM10),84,118,103,23,21,127,,126,126,14,19,6,4,0.4,0.4
2025-05-01T1900,4244A,111.4879,36.0530,临汾市,启星学校,颗粒物(PM10),85,119,89,37,28,131,,129,129,14,16,9,7,0.3,0.4
2025-05-01T1900,4271A,103.2464,35.6123,临夏回族自治州,滨河东路1号,,,90,73,8,28,123,,126,126,2,22,,4,0.2,0.4
2025-05-01T1900,4310A,103.2093,35.5995,临夏回族自治州,新华街21号,,34,17,65,8,28,108,,115,115,11,27,4,4,0.3,0.5
2025-05-01T1900,1618A,118.3429,35.0532,临沂市,沂河小区,颗粒物(PM10),59,68,84,29,33,131,,128,128,12,13,8,10,0.2,0.3
2025-05-01T1900,1619A,118.295,35.0583,临沂市,鲁南制药厂,,43,39,80,20,36,136,,138,138,22,21,5,6,0.4,0.5
2025-05-01T1900,1620A,118.2794,34.9976,临沂市,新光毛纺厂,,43,22,64,17,35,136,,137,137,17,19,8,8,0.2,0.3
2025-05-01T1900,1621A,118.3956,35.0888,临沂市,河东保险公司,,46,34,68,17,24,146,,140,140,13,13,5,6,0.3,0.3
2025-05-01T1900,3370A,118.3564,35.0215,临沂市,十里堡居委,,43,34,73,19,33,137,,138,138,16,18,3,4,0.3,0.4
2025-05-01T1900,3496A,118.3604,35.1084,临沂市,南坊新区,,46,46,67,12,33,135,,134,134,13,14,6,7,0.2,0.3
2025-05-01T1900,3860A,118.3920,35.0300,临沂市,皇山花园小区,,45,27,84,21,33,141,,136,136,14,18,5,13,0.2,0.3
2025-05-01T1900,1870A,109.4856,24.3895,柳州市,柳东小学,,45,45,32,17,20,134,,124,124,9,10,10,19,0.5,0.6
2025-05-01T1900,1871A,109.4157,24.3277,柳州市,环保监测站,,45,45,39,12,24,121,,116,116,10,14,10,17,0.3,0.5
2025-05-01T1900,1872A,109.389,24.341,柳州市,河西水厂,颗粒物(PM10),79,107,47,21,26,122,,116,116,10,18,7,17,0.2,0.5
2025-05-01T1900,1873A,109.4311,24.2921,柳州市,市四中,颗粒物(PM10),52,53,43,18,23,136,,122,122,10,16,8,13,0.7,0.9
2025-05-01T1900,1874A,109.4006,24.3631,柳州市,市九中,颗粒物(PM10),51,52,37,10,18,123,,115,115,10,13,9,14,0.5,0.6
2025-05-01T1900,1875A,109.4958,24.3134,柳州市,古亭山,,49,49,43,21,19,118,,116,116,9,10,7,9,0.6,0.7
2025-05-01T1900,3402A,109.5422,24.3996,柳州市,市二中,,39,38,31,14,19,123,,121,121,10,13,11,12,0.4,0.5
2025-05-01T1900,2307A,116.5079,31.737,六安市,监测大楼,颗粒物(PM10),59,67,57,19,24,127,,121,121,6,7,4,5,0.2,0.3
2025-05-01T1900,2308A,116.4738,31.7643,六安市,皖西学院,颗粒物(PM10),62,73,63,21,24,130,,130,130,11,10,5,5,0.2,0.3
2025-05-01T1900,2309A,116.4996,31.7905,六安市,朝阳厂,颗粒物(PM10),60,69,54,20,24,113,,119,119,15,11,4,4,0.2,0.3
2025-05-01T1900,2310A,116.5567,31.7886,六安市,开发区,颗粒物(PM10),59,68,64,26,28,119,,123,123,14,8,5,5,0.3,0.4
2025-05-01T1900,2577A,104.83,26.5917,六盘水市,黄土坡,颗粒物(PM10),62,73,41,19,15,121,,128,128,14,17,10,9,0.6,0.4
2025-05-01T1900,2578A,104.89,26.5939,六盘水市,水钢,颗粒物(PM10),61,72,65,15,20,124,,126,126,8,26,8,16,0.1,1.4
2025-05-01T1900,2579A,104.8475,26.5894,六盘水市,民中,颗粒物(PM10),61,72,43,24,16,121,,126,126,12,24,11,12,0.4,0.3
2025-05-01T1900,2580A,104.9544,26.5506,六盘水市,双水,颗粒物(PM10),60,70,51,29,15,120,,128,128,13,22,13,16,0.4,0.9
2025-05-01T1900,2336A,117.0217,25.1033,龙岩市,龙岩市监测站,,39,32,44,27,29,116,,140,140,17,18,6,9,0.7,0.7
2025-05-01T1900,2337A,117.0258,25.0661,龙岩市,闽西职业技术学院,,39,39,51,21,29,87,,126,124,17,17,6,22,0.6,0.6
2025-05-01T1900,2338A,117.0196,25.0306,龙岩市,龙岩学院,,35,35,41,22,29,104,,139,137,9,9,8,8,0.6,0.6
2025-05-01T1900,2885A,104.9339,33.3826,陇南市,滨江中学,颗粒物(PM10),58,66,63,14,25,115,,117,117,4,12,9,9,0.3,0.5
2025-05-01T1900,3247A,104.955,33.371,陇南市,市总工会,,49,49,61,19,19,127,,127,127,3,7,6,6,0.2,0.2
2025-05-01T1900,2487A,111.9589,27.8901,娄底市,电视发射台,颗粒物(PM10),71,91,39,23,13,82,,104,104,2,2,5,5,0.2,0.2
2025-05-01T1900,2488A,111.9975,27.725,娄底市,市监测站,颗粒物(PM10),70,90,70,30,31,122,,120,120,13,22,7,17,0.6,1.2
2025-05-01T1900,2489A,112.0194,27.7314,娄底市,市委党校,颗粒物(PM10),73,96,68,30,34,102,,109,109,16,15,4,7,0.2,0.6
2025-05-01T1900,2490A,111.9561,27.7569,娄底市,涟钢,,,,62,,29,102,,108,108,,14,5,12,0.3,0.5
2025-05-01T1900,2491A,111.9892,27.7044,娄底市,市政府,颗粒物(PM10),71,91,59,30,33,112,,114,114,11,10,5,5,0.4,0.6
2025-05-01T1900,1894A,105.4427,28.9063,泸州市,小市上码头,,,40,38,20,21,158,,164,164,,17,7,9,,0.6
2025-05-01T1900,1895A,105.4241,28.8573,泸州市,兰田宪桥,,48,42,38,23,26,152,,151,151,13,16,19,9,0.3,0.4
2025-05-01T1900,4272A,105.3689,28.7783,泸州市,纳溪中医医院,颗粒物(PM10),51,51,47,20,31,143,,132,132,12,21,10,7,0.4,0.5
2025-05-01T1900,2183A,111.1406,37.5211,吕梁市,环保局,,41,41,77,20,21,107,,113,113,18,15,2,3,0.3,0.4
2025-05-01T1900,2185A,111.1297,37.5136,吕梁市,自来水公司,,43,43,82,18,18,114,,111,111,12,15,2,4,0.4,0.4
2025-05-01T1900,2867A,111.1283,37.51,吕梁市,马茂庄小学,颗粒物(PM10),51,51,95,19,19,116,,114,114,11,25,3,5,0.2,0.3
2025-05-01T1900,1812A,112.3931,34.6516,洛阳市,市委党校,颗粒物(PM10),51,52,76,22,26,110,,108,108,9,10,3,3,0.3,0.4
2025-05-01T1900,1815A,112.494,34.6886,洛阳市,河南林校,颗粒物(PM10),53,56,91,24,29,116,,118,118,8,14,7,10,0.1,0.2
2025-05-01T1900,1816A,112.3844,34.623,洛阳市,开发区管委会,细颗粒物(PM2.5),67,57,82,48,44,106,,111,111,13,13,6,6,0.3,0.3
2025-05-01T1900,1817A,112.4267,34.6258,洛阳市,市委新办公区,颗粒物(PM10),58,65,84,17,26,113,,114,114,11,10,5,5,0.2,0.3
2025-05-01T1900,3340A,112.6005,34.6326,洛阳市,伊滨,颗粒物(PM10),51,51,88,24,38,119,,126,126,7,9,5,6,0.3,0.4
2025-05-01T1900,3341A,112.4951,34.6332,洛阳市,中移产业园,颗粒物(PM10),60,70,114,19,26,109,,118,118,20,11,5,7,0.4,0.4
2025-05-01T1900,3593A,112.5736,34.8993,洛阳市,吉利监测站,颗粒物(PM10),55,59,82,29,35,109,,122,122,11,10,7,8,0.3,0.4
2025-05-01T1900,3635A,112.3677,34.662,洛阳市,河科大西苑校区,颗粒物(PM10),52,53,84,15,22,117,,118,118,12,11,7,9,0.4,0.4
2025-05-01T1900,3636A,112.4388,34.6781,洛阳市,英才小学,,49,49,92,15,30,115,,120,120,16,18,6,9,0.5,0.6
2025-05-01T1900,4214A,112.4600,34.6949,洛阳市,春都路1号院,,,59,88,25,29,124,,126,126,,15,,8,0.4,0.5
2025-05-01T1900,2399A,114.051,33.5699,漯河市,三五一五工厂,颗粒物(PM10),71,92,128,32,35,136,,142,142,10,13,6,6,0.6,0.5
2025-05-01T1900,2400A,114.0055,33.5698,漯河市,漯河大学,颗粒物(PM10),68,85,99,44,36,138,,141,141,11,13,7,7,0.4,0.3
2025-05-01T1900,2401A,114.0138,33.5828,漯河市,市水利局,颗粒物(PM10),80,110,119,51,38,139,,140,140,8,11,6,6,0.4,0.3
2025-05-01T1900,2402A,114.0261,33.5698,漯河市,市广电局,颗粒物(PM10),73,95,109,27,36,134,,139,139,6,6,5,5,0.4,0.4
2025-05-01T1900,3478A,113.9749,33.5664,漯河市,市图书馆,颗粒物(PM10),84,117,117,25,38,134,,138,138,15,15,5,6,0.5,0.4
2025-05-01T1900,4250A,114.0892,33.5882,漯河市,韶山路11号,,,,135,,49,130,,140,140,12,14,5,6,0.4,0.4
2025-05-01T1900,1798A,118.5092,31.6837,马鞍山市,湖东路四小,,,62,53,18,25,144,,145,145,18,10,,11,0.5,0.7
2025-05-01T1900,1799A,118.5024,31.6449,马鞍山市,开发区,颗粒物(PM10),54,57,53,31,35,145,,147,147,20,14,9,7,0.5,0.6
2025-05-01T1900,1802A,118.6245,31.7241,马鞍山市,濮塘,颗粒物(PM10),56,62,58,25,30,154,,154,154,6,7,7,8,0.5,0.7
2025-05-01T1900,3633A,118.4918,31.6809,马鞍山市,雨山,颗粒物(PM10),58,65,56,20,26,145,,144,144,18,11,29,11,1.1,0.7
2025-05-01T1900,4191A,118.5274,31.72227,马鞍山市,慈湖高新区,颗粒物(PM10),54,57,57,29,31,140,,140,140,17,15,21,12,0.6,1
2025-05-01T1900,1686A,111.0286,21.4688,茂名市,电白南海,,35,29,40,24,23,74,,86,71,9,10,1,1,0.9,0.9
2025-05-01T1900,1687A,110.9294,21.6533,茂名市,茂石化七小,,24,24,45,14,21,63,,69,69,14,11,2,3,0.9,0.8
2025-05-01T1900,1688A,110.9107,21.6687,茂名市,健康路,,28,24,32,19,15,73,,81,81,12,8,2,2,0.9,0.9
2025-05-01T1900,1689A,110.8592,21.6828,茂名市,高岭,,29,29,44,3,16,76,,74,74,11,11,4,5,0.8,0.7
2025-05-01T1900,3450A,111.01,21.5165,茂名市,电白水东,,23,14,32,12,15,72,,77,68,12,11,1,3,0.9,0.9
2025-05-01T1900,2539A,104.0308,30.0478,眉山市,黑龙滩水库,,46,19,23,6,14,146,,144,144,2,6,2,2,0.3,0.4
2025-05-01T1900,2540A,103.8416,30.0874,眉山市,气象局,,41,37,54,19,27,130,,147,147,23,35,5,6,0.3,0.4
2025-05-01T1900,3137A,103.8578,30.0744,眉山市,市委党校,,,41,45,14,21,114,,134,134,,32,,8,0.3,0.4
2025-05-01T1900,3148A,103.8291,30.0564,眉山市,区人社局,,39,35,46,9,21,122,,140,140,26,38,6,8,0.3,0.5
2025-05-01T1900,1690A,116.1231,24.3284,梅州市,梅江月梅,,40,38,53,28,36,95,,102,102,7,19,5,8,0.8,0.8
2025-05-01T1900,1691A,116.0797,24.2719,梅州市,梅县新城,,48,40,54,33,33,101,,106,106,10,22,6,7,0.6,0.7
2025-05-01T1900,1692A,116.1248,24.2654,梅州市,环境监控中心,,48,45,48,33,32,90,,104,103,24,23,7,9,0.8,0.7
2025-05-01T1900,3315A,116.1233,24.2991,梅州市,梅龙,,45,36,50,31,31,99,,107,107,8,13,6,9,0.8,0.8
2025-05-01T1900,1878A,104.7778,31.4741,绵阳市,富乐山,臭氧1小时,58,55,47,20,26,166,,164,164,10,24,9,9,0.4,0.5
2025-05-01T1900,1880A,104.6697,31.4668,绵阳市,高新区自来水公司,,50,25,48,17,31,158,,166,166,11,42,4,5,0.5,0.7
2025-05-01T1900,1881A,104.7287,31.5075,绵阳市,三水厂,臭氧1小时,53,49,61,23,33,162,,166,166,16,37,9,7,0.6,0.8
2025-05-01T1900,3491A,104.69,31.5322,绵阳市,西科大附属小学,臭氧1小时,69,42,58,21,30,175,,177,177,11,31,8,8,0.5,0.6
2025-05-01T1900,3492A,104.5648,31.5343,绵阳市,安州区旅游局,臭氧1小时,63,38,49,22,26,170,,171,171,14,23,10,10,0.4,0.5
2025-05-01T1900,4226A,104.7651,31.4531,绵阳市,绵阳市气象局,,48,45,50,24,29,153,,152,152,9,30,9,8,0.4,0.5
2025-05-01T1900,1784A,129.61,44.561,牡丹江市,环保大楼,,24,23,24,10,18,75,,86,77,14,10,5,5,0.4,0.3
2025-05-01T1900,1785A,129.6115,44.5782,牡丹江市,文化广场,,30,30,29,21,24,69,,87,74,19,14,9,10,0.6,0.5
2025-05-01T1900,1786A,129.5904,44.5963,牡丹江市,第一医院,,32,25,25,22,18,68,,91,83,15,6,8,7,0.7,0.4
2025-05-01T1900,1787A,129.6364,44.6075,牡丹江市,机车工厂,,22,20,30,15,16,69,,82,76,20,11,7,7,0.5,0.5
2025-05-01T1900,1788A,129.6386,44.5462,牡丹江市,第一中学,,26,21,29,17,19,83,,92,84,12,10,7,8,0.6,0.5
2025-05-01T1900,2531A,105.0703,29.61,内江市,市监测站,,44,40,34,22,23,140,,144,144,17,21,12,11,0.4,0.6
2025-05-01T1900,2532A,105.0717,29.5947,内江市,东兴区政府,,45,41,32,11,16,143,,144,144,12,20,15,13,0.7,0.7
2025-05-01T1900,2533A,105.0653,29.5817,内江市,内江二中,,43,38,35,18,22,137,,138,138,23,22,9,7,0.3,0.4
2025-05-01T1900,2534A,105.0406,29.5822,内江市,内江日报社,,46,34,32,24,24,147,,145,145,9,26,12,10,0.3,0.4
2025-05-01T1900,2628A,92.0657,31.4846,那曲市,那曲监测站,,42,42,34,18,15,105,,113,113,29,15,8,7,0.6,0.5
2025-05-01T1900,4243A,92.0515,31.4787,那曲市,那曲市委宣传部,,38,30,38,12,18,120,,124,124,12,10,7,8,0.3,0.5
2025-05-01T1900,1290A,115.8931,28.6843,南昌市,省外办,细颗粒物(PM2.5),58,59,52,41,42,130,,120,120,21,18,5,6,0.6,0.6
2025-05-01T1900,1291A,115.8886,28.7003,南昌市,省林业公司,颗粒物(PM10),59,68,57,34,39,121,,118,118,17,10,8,8,0.7,0.7
2025-05-01T1900,1292A,115.8126,28.7442,南昌市,林科所,,41,41,44,19,31,73,,118,115,34,14,4,4,0.3,0.5
2025-05-01T1900,1294A,115.8518,28.687,南昌市,建工学校,颗粒物(PM10),52,53,58,24,36,123,,119,119,15,16,4,4,0.6,0.7
2025-05-01T1900,1295A,115.8921,28.6424,南昌市,象湖,颗粒物(PM10),54,57,59,31,39,138,,129,129,16,15,7,8,0.7,0.8
2025-05-01T1900,1296A,115.7423,28.7996,南昌市,武术学校,,24,17,30,13,12,76,,100,100,2,2,4,4,0.4,0.5
2025-05-01T1900,3046A,115.9084,28.6062,南昌市,机电学校,颗粒物(PM10),63,75,68,24,44,115,,112,112,13,13,4,4,0.5,0.6
2025-05-01T1900,3690A,115.9721,28.7031,南昌市,外国语学校,颗粒物(PM10),59,68,52,23,33,150,,137,137,9,8,8,8,0.5,0.4
2025-05-01T1900,4192A,115.9316,28.68677,南昌市,南京东路235号,颗粒物(PM10),59,68,63,38,38,147,,132,132,19,16,10,9,0.8,0.8
2025-05-01T1900,1906A,106.0789,30.8023,南充市,南充市委,,45,40,41,24,25,142,,137,137,14,25,6,6,0.5,0.6
2025-05-01T1900,1907A,106.1031,30.8217,南充市,南充炼油厂,,48,48,48,18,25,134,,136,136,16,20,5,5,0.5,0.5
2025-05-01T1900,4227A,106.1083,30.7884,南充市,梨树横街98号,,44,43,45,20,24,139,,136,136,11,19,4,5,0.2,0.3
2025-05-01T1900,4304A,106.1172,30.843,南充市,清泉寺北路188号,,43,43,46,20,23,137,,134,134,15,17,5,5,0.2,0.2
2025-05-01T1900,4305A,106.067,30.7616,南充市,同庆路1号,,44,43,43,22,26,138,,131,131,10,19,5,5,0.1,0.2
2025-05-01T1900,1151A,118.8086,32.1065,南京市,迈皋桥,,41,40,45,17,25,131,,137,137,20,14,4,8,0.2,0.4
2025-05-01T1900,1152A,118.7538,32.0551,南京市,草场门,,48,48,56,14,27,135,,136,136,18,16,3,4,0.1,0.4
2025-05-01T1900,1153A,118.7794,32.0745,南京市,山西路,颗粒物(PM10),57,63,67,17,26,142,,141,141,9,18,3,6,0.2,0.5
2025-05-01T1900,1154A,118.7752,32.0023,南京市,中华门,,46,46,51,19,26,128,,130,130,11,9,5,7,0.4,0.6
2025-05-01T1900,1155A,118.8109,32.0309,南京市,瑞金路,颗粒物(PM10),51,51,55,19,25,132,,136,136,6,8,6,7,0.4,0.4
2025-05-01T1900,1156A,118.7997,32.0754,南京市,玄武湖,,43,38,53,12,22,137,,135,135,6,7,7,8,0.2,0.4
2025-05-01T1900,1157A,118.6414,32.0931,南京市,浦口,颗粒物(PM10),71,92,63,14,23,138,,139,139,11,12,6,6,0.4,0.5
2025-05-01T1900,1158A,118.7356,31.9996,南京市,奥体中心,颗粒物(PM10),51,52,54,19,26,142,,145,145,10,15,2,9,0.2,0.5
2025-05-01T1900,1159A,118.9125,32.1028,南京市,仙林大学城,颗粒物(PM10),52,53,56,14,26,138,,138,138,11,12,10,11,0.3,0.5
2025-05-01T1900,3422A,118.8436,31.9198,南京市,江宁彩虹桥,颗粒物(PM10),56,61,58,14,27,149,,148,148,8,13,3,5,0.3,0.6
2025-05-01T1900,3427A,118.8554,32.3578,南京市,六合雄州,颗粒物(PM10),61,71,57,19,25,128,,134,134,26,17,5,6,0.3,0.4
2025-05-01T1900,4249A,118.8708,31.3402,南京市,汶溪路181号,颗粒物(PM10),57,63,48,25,25,137,,143,143,13,13,3,3,0.2,0.4
2025-05-01T1900,4312A,119.019,31.6512,南京市,中山西路1号,,46,46,42,24,26,144,,154,154,19,11,4,6,0.4,0.6
2025-05-01T1900,1401A,108.3103,22.7881,南宁市,二十一中,,42,39,28,19,20,132,,128,128,11,13,4,4,0.5,0.7
2025-05-01T1900,1402A,108.3141,22.8528,南宁市,北湖,,41,,28,17,23,130,,129,129,11,18,6,11,0.6,0.7
2025-05-01T1900,1403A,108.3206,22.8225,南宁市,市监测站,,33,33,26,20,19,104,,109,109,20,17,6,7,0.5,0.6
2025-05-01T1900,1404A,108.3829,22.8037,南宁市,大自然花园,,42,32,26,18,18,133,,130,130,8,10,6,5,0.5,0.6
2025-05-01T1900,1405A,108.4394,22.7904,南宁市,仙葫,,37,35,24,19,17,117,,113,113,7,13,5,4,0.6,0.7
2025-05-01T1900,1406A,108.2397,22.8467,南宁市,区农职院,,41,39,29,15,17,130,,119,119,8,11,6,5,0.6,0.7
2025-05-01T1900,1407A,108.3275,22.735,南宁市,英华嘉园,,48,34,30,23,22,152,,136,136,15,16,7,7,0.5,0.5
2025-05-01T1900,3401A,108.4834,22.7618,南宁市,红星社区,,46,33,23,21,13,145,,146,146,9,10,8,8,0.4,0.5
2025-05-01T1900,4221A,108.2177,22.7774,南宁市,乐贤路16号,,44,43,33,27,27,139,,118,118,11,18,8,7,0.5,0.6
2025-05-01T1900,2332A,118.1681,26.6369,南平市,南平市监测站,,42,35,42,29,36,79,,103,103,11,17,5,5,1.0,1
2025-05-01T1900,2333A,118.1825,26.6489,南平市,南平铝业有限公司,,39,39,44,27,34,80,,101,101,9,12,4,5,0.9,0.9
2025-05-01T1900,2334A,118.1756,26.6272,南平市,南平七中,,37,37,40,25,30,85,,102,102,9,13,5,5,0.8,0.8
2025-05-01T1900,1168A,120.9098,31.9663,南通市,狼山街道,颗粒物(PM10),51,52,60,24,26,143,,144,144,15,34,4,5,0.5,0.6
2025-05-01T1900,1169A,120.86,32.0005,南通市,虹桥,,45,43,54,20,28,142,,145,145,16,33,3,4,0.6,0.7
2025-05-01T1900,1170A,120.87,32.02,南通市,城中,颗粒物(PM10),59,67,68,22,26,134,,143,143,23,31,5,5,0.4,0.5
2025-05-01T1900,1171A,120.94,31.93,南通市,星湖花园,,46,46,54,20,27,139,,137,137,14,31,3,5,0.5,0.7
2025-05-01T1900,1172A,120.81,32.0417,南通市,紫琅学院,颗粒物(PM10),54,57,57,13,23,131,,136,136,15,34,6,6,0.6,0.7
2025-05-01T1900,3291A,121.067,32.062,南通市,通州监测站,,46,44,58,22,25,145,,146,146,10,24,5,7,0.5,0.7
2025-05-01T1900,3432A,120.9348,31.9883,南通市,环境教育馆,颗粒物(PM10),52,53,64,20,25,146,,153,153,12,26,4,5,0.3,0.3
2025-05-01T1900,2404A,112.5224,33.0122,南阳市,瓦房庄,颗粒物(PM10),61,71,122,14,28,120,,129,129,14,17,5,5,0.4,0.4
2025-05-01T1900,2405A,112.5003,32.9735,南阳市,汉画馆,颗粒物(PM10),60,69,105,21,30,111,,120,120,15,14,4,5,0.3,0.3
2025-05-01T1900,2406A,112.5573,33.027,南阳市,气象站,颗粒物(PM10),68,86,134,19,39,118,,133,133,15,16,4,5,0.6,0.6
2025-05-01T1900,2407A,112.5481,32.9689,南阳市,理工学院,颗粒物(PM10),65,80,111,20,33,114,,128,128,17,17,3,4,0.3,0.4
2025-05-01T1900,4008A,112.5234,32.9922,南阳市,卧龙区政府,颗粒物(PM10),62,74,115,26,35,114,,128,128,22,20,5,5,0.4,0.5
2025-05-01T1900,1234A,121.8358,29.911,宁波市,区环保大楼,颗粒物(PM10),57,64,48,29,17,132,,137,137,17,9,10,10,0.4,0.4
2025-05-01T1900,1235A,121.56,29.82,宁波市,万里学院,颗粒物(PM10),55,60,42,24,23,146,,139,139,29,12,7,6,0.5,0.4
2025-05-01T1900,1236A,121.713,29.9572,宁波市,龙赛医院,颗粒物(PM10),62,73,55,25,20,140,,151,151,17,9,7,6,0.6,0.6
2025-05-01T1900,1239A,121.633,29.7733,宁波市,钱湖水厂,颗粒物(PM10),53,56,41,24,20,147,,141,141,17,8,9,8,0.4,0.3
2025-05-01T1900,1240A,121.5856,29.8635,宁波市,太古小学,颗粒物(PM10),58,66,45,26,24,144,,139,139,35,13,8,7,0.7,0.7
2025-05-01T1900,1241A,121.524,29.8674,宁波市,市环境监测中心,颗粒物(PM10),58,66,44,27,18,135,,134,134,24,16,11,9,0.6,0.5
2025-05-01T1900,2871A,121.6147,29.9017,宁波市,万里国际学校,颗粒物(PM10),87,124,48,25,20,146,,143,143,16,11,9,9,0.5,0.5
2025-05-01T1900,3710A,121.5594,29.8975,宁波市,白沙活动中心,颗粒物(PM10),57,64,33,38,19,136,,138,138,21,11,11,8,0.6,0.5
2025-05-01T1900,2341A,119.5388,26.6612,宁德市,宁德市监测站,颗粒物(PM10),55,59,35,32,23,47,,55,55,43,25,6,5,0.9,0.5
2025-05-01T1900,3209A,119.5231,26.6562,宁德市,宁德一中,颗粒物(PM10),62,74,35,40,25,37,,52,52,30,18,7,7,0.7,0.4
2025-05-01T1900,2618A,98.8601,25.8567,怒江傈僳族自治州,州监测站,,23,22,41,11,26,71,,61,61,5,6,6,6,0.2,0.3
2025-05-01T1900,2619A,98.8546,25.8417,怒江傈僳族自治州,泸水一中,,17,9,36,3,25,54,,47,47,10,14,6,6,0.4,0.4
2025-05-01T1900,1888A,101.6891,26.571,攀枝花市,弄弄坪,,,36,35,14,20,116,,127,127,9,13,10,11,,0.6
2025-05-01T1900,1889A,101.5769,26.5928,攀枝花市,河门口,,36,30,39,14,21,114,,126,126,5,17,6,19,0.3,1.3
2025-05-01T1900,1890A,101.7169,26.585,攀枝花市,炳草岗,,34,32,50,11,27,108,,122,122,16,23,14,8,0.3,0.7
2025-05-01T1900,1891A,101.7369,26.5008,攀枝花市,仁和,,39,30,29,15,17,122,,124,124,8,11,9,11,0.4,0.5
2025-05-01T1900,2835A,101.7227,26.567,攀枝花市,四十中小,,38,31,37,20,23,121,,132,132,6,13,7,17,0.4,0.7
2025-05-01T1900,1604A,122.0303,41.1489,盘锦市,开发区,,34,34,27,11,19,87,,90,90,14,13,7,9,0.4,0.5
2025-05-01T1900,1605A,122.0485,41.0883,盘锦市,兴隆台,,,,35,11,17,78,,83,83,19,16,7,7,0.5,0.6
2025-05-01T1900,1606A,121.8297,41.1028,盘锦市,新生街道,,26,20,25,3,21,82,,84,84,32,22,8,8,0.3,0.5
2025-05-01T1900,1832A,113.3257,33.742,平顶山市,新华旅馆,颗粒物(PM10),63,76,110,31,29,131,,133,133,14,10,5,5,0.4,0.3
2025-05-01T1900,1833A,113.2919,33.737,平顶山市,规划设计院,颗粒物(PM10),61,72,100,21,27,124,,126,126,15,11,6,5,0.4,0.4
2025-05-01T1900,1834A,113.182,33.774,平顶山市,平顶山工学院,颗粒物(PM10),53,55,96,17,40,140,,137,137,10,10,2,4,0.1,0.1
2025-05-01T1900,3204A,113.3025,33.73,平顶山市,规划局,颗粒物(PM10),65,80,101,18,25,129,,128,128,8,6,6,7,0.3,0.3
2025-05-01T1900,3594A,112.8867,33.9116,平顶山市,石龙区,颗粒物(PM10),65,80,117,19,32,132,,126,126,17,13,8,6,0.1,0.1
2025-05-01T1900,2656A,106.6692,35.5461,平凉市,聚贤嘉苑,颗粒物(PM10),53,56,191,25,54,113,,6,,12,20,6,9,0.4,0.4
2025-05-01T1900,2657A,106.7021,35.5307,平凉市,博物馆,颗粒物(PM10),51,52,199,14,44,117,,117,117,7,16,10,10,0.4,0.5
2025-05-01T1900,2347A,114.0997,27.5002,萍乡市,武功山,颗粒物(PM10),51,52,32,19,14,104,,113,113,11,7,14,13,0.5,0.8
2025-05-01T1900,2348A,113.8385,27.6434,萍乡市,中医院,颗粒物(PM10),62,73,54,24,33,122,,120,120,10,8,14,12,0.9,1
2025-05-01T1900,2349A,113.8493,27.6253,萍乡市,市政府车库,颗粒物(PM10),59,67,44,28,30,124,,121,121,12,12,10,6,0.8,0.6
2025-05-01T1900,2350A,113.8676,27.6435,萍乡市,市环保局,颗粒物(PM10),57,63,50,27,32,128,,121,121,10,11,11,8,0.9,0.8
2025-05-01T1900,2351A,113.866,27.6198,萍乡市,安源区政府,,,75,50,37,35,113,,106,106,10,11,,,0.8,0.7
2025-05-01T1900,2319A,119.0141,25.4325,莆田市,荔城区仓后路,细颗粒物(PM2.5),113,116,63,85,40,150,,127,127,26,21,5,4,1.0,0.6
2025-05-01T1900,2320A,119.0015,25.4553,莆田市,莆田市监测站,细颗粒物(PM2.5),100,95,49,75,36,135,,125,125,20,16,6,6,0.6,0.5
2025-05-01T1900,2321A,119.1119,25.4561,莆田市,涵江区六中,细颗粒物(PM2.5),85,78,65,63,48,148,,137,137,28,26,6,6,0.5,0.5
2025-05-01T1900,2322A,119.1013,25.3215,莆田市,秀屿区政府,臭氧1小时,82,89,58,51,45,185,,154,154,17,20,8,9,0.7,0.6
2025-05-01T1900,2392A,115.0312,35.7636,濮阳市,环保局,颗粒物(PM10),51,51,56,14,18,137,,134,134,13,14,7,7,0.5,0.6
2025-05-01T1900,2394A,115.0574,35.7609,濮阳市,油田运输公司,颗粒物(PM10),52,53,64,13,19,143,,148,148,12,14,6,6,0.6,0.6
2025-05-01T1900,3021A,115,35.7668,濮阳市,濮水河管理处,,46,41,50,13,19,145,,146,146,12,14,6,5,0.6,0.6
2025-05-01T1900,4216A,115.0924,35.7686,濮阳市,任丘路479号,颗粒物(PM10),52,54,68,14,17,142,,143,143,12,15,7,7,0.5,0.6
2025-05-01T1900,2601A,100.98,22.7633,普洱市,市环保局,,30,30,32,18,13,56,,66,66,7,7,6,6,0.5,0.5
2025-05-01T1900,2602A,100.9817,22.8322,普洱市,普洱第二中学,,,18,19,10,13,71,,69,69,,11,7,7,0.5,0.6
2025-05-01T1900,2262A,131.0518,45.8751,七台河市,新一中,细颗粒物(PM2.5),57,46,30,40,19,105,,106,104,13,11,11,12,0.8,0.8
2025-05-01T1900,3345A,131.0577,45.7879,七台河市,中波台,细颗粒物(PM2.5),60,50,29,43,16,84,,89,86,21,15,6,7,0.5,0.4
2025-05-01T1900,3637A,131.0176,45.7761,七台河市,人民广场,细颗粒物(PM2.5),63,57,51,45,27,95,,98,95,21,16,10,10,0.7,0.5
2025-05-01T1900,3684A,130.8781,45.8222,七台河市,新建矿广场,细颗粒物(PM2.5),55,39,46,39,22,84,,85,85,15,16,10,10,0.7,0.6
2025-05-01T1900,1779A,123.9305,47.3636,齐齐哈尔市,安居小区,,33,,27,23,14,76,,83,82,10,13,3,3,0.4,0.3
2025-05-01T1900,1780A,123.9488,47.3386,齐齐哈尔市,中心广场,,32,32,31,7,10,76,,83,81,14,13,6,8,0.4,0.2
2025-05-01T1900,1781A,123.9483,47.3227,齐齐哈尔市,农牧车辆厂,,26,12,27,12,12,81,,86,85,8,12,5,5,0.2,0.2
2025-05-01T1900,1783A,123.945,47.2988,齐齐哈尔市,市环境监测站,,25,13,29,7,13,80,,84,83,6,10,3,3,0.3,0.3
2025-05-01T1900,3662A,123.6333,47.2075,齐齐哈尔市,富区青少年活动中心,,40,40,37,7,16,70,,81,79,11,10,2,2,0.5,0.4
2025-05-01T1900,2591A,107.9783,26.5747,黔东南苗族侗族自治州,市环境监测站,颗粒物(PM10),51,51,30,24,20,70,,98,98,22,15,4,4,0.5,0.4
2025-05-01T1900,2881A,107.8908,26.5311,黔东南苗族侗族自治州,凯里学院,颗粒物(PM10),58,66,32,26,19,98,,108,108,8,12,3,2,0.3,0.4
2025-05-01T1900,2593A,107.5228,26.2403,黔南布依族苗族自治州,小围寨,颗粒物(PM10),51,51,24,17,9,119,,125,125,3,8,3,2,0.2,0.2
2025-05-01T1900,3538A,107.5175,26.2978,黔南布依族苗族自治州,沙坝,颗粒物(PM10),58,66,32,19,10,116,,127,127,6,9,4,4,0.5,0.4
2025-05-01T1900,2589A,104.9022,25.0925,黔西南布依族苗族自治州,场坝街,颗粒物(PM10),74,98,43,30,25,129,,131,131,10,15,3,19,0.3,0.4
2025-05-01T1900,2590A,104.8811,25.0992,黔西南布依族苗族自治州,坪东大道,,33,30,31,14,32,105,,125,125,24,16,4,6,0.4,0.4
2025-05-01T1900,2502A,108.6236,21.9667,钦州市,市环保站,,33,31,20,19,10,105,,94,94,10,12,2,2,0.7,0.8
2025-05-01T1900,2503A,108.6549,21.9481,钦州市,沙埠小学,,39,39,26,26,15,100,,96,96,10,13,5,6,0.8,0.8
2025-05-01T1900,2504A,108.5989,21.7431,钦州市,港区一小,,50,50,32,23,16,106,,98,98,14,20,7,7,0.7,0.6
2025-05-01T1900,3404A,108.5959,21.9633,钦州市,北职校,,35,27,22,24,16,89,,86,86,14,14,6,6,0.7,0.8
2025-05-01T1900,1043A,119.7493,40.0116,秦皇岛市,第一关,,49,49,53,25,27,91,,97,96,16,25,4,5,0.3,0.4
2025-05-01T1900,1044A,119.5897,39.9499,秦皇岛市,监测站,,50,50,59,16,21,87,,95,94,20,21,3,4,0.4,0.4
2025-05-01T1900,1046A,119.5251,39.9041,秦皇岛市,建设大厦,,31,31,59,18,23,98,,99,99,15,22,2,3,0.3,0.3
2025-05-01T1900,3132A,119.610547,39.943889,秦皇岛市,文明里,,42,42,59,18,19,86,,96,93,24,23,3,4,0.3,0.3
2025-05-01T1900,4198A,119.5090,39.8253,秦皇岛市,北戴河轮滑馆,,31,30,50,14,26,97,,94,94,12,17,3,3,0.4,0.3
2025-05-01T1900,1307A,120.6659,36.2403,青岛市,仰口,,37,25,63,9,31,118,,133,126,11,8,7,8,0.5,0.5
2025-05-01T1900,1310A,120.4134,36.0658,青岛市,市南区东部子站,,44,44,72,14,25,112,,119,118,18,13,7,9,0.5,0.5
2025-05-01T1900,1311A,120.3664,36.1032,青岛市,四方区子站,,39,36,66,9,29,124,,128,128,17,16,12,15,0.6,0.7
2025-05-01T1900,1312A,120.2994,36.054,青岛市,市南区西部子站,,36,29,62,7,26,114,,116,114,25,22,7,8,0.6,0.8
2025-05-01T1900,1313A,120.4581,36.0858,青岛市,崂山区子站,,40,19,56,7,22,126,,128,128,12,13,8,9,0.5,0.6
2025-05-01T1900,1315A,120.3999,36.3083,青岛市,城阳区子站,,,,64,0,25,114,,122,121,,16,3,6,0.5,0.6
2025-05-01T1900,1966A,120.0405,35.8735,青岛市,黄岛区4号,,37,36,68,9,27,118,,124,124,14,16,9,9,0.5,0.7
2025-05-01T1900,3362A,120.5014,36.4034,青岛市,即墨2号,,38,37,70,8,39,120,,126,122,12,10,8,9,0.6,0.7
2025-05-01T1900,3642A,120.3503,36.0736,青岛市,市北区南部,,37,37,62,7,28,104,,110,107,15,13,8,8,0.6,0.8
2025-05-01T1900,3643A,120.3948,36.1805,青岛市,李沧区北部,,,,63,12,33,112,,113,113,17,19,8,9,0.5,0.6
2025-05-01T1900,4290A,120.1969,35.9546,青岛市,珠江路669号,,35,34,80,24,36,96,,121,120,35,19,7,8,0.5,0.7
2025-05-01T1900,1702A,113.0426,23.691,清远市,环保大楼,,39,,32,27,27,119,,131,131,13,15,5,6,0.8,0.8
2025-05-01T1900,1703A,113.0208,23.7106,清远市,凤城街办,,32,21,31,18,18,101,,110,110,14,17,6,6,0.7,0.6
2025-05-01T1900,3025A,113.0477,23.6344,清远市,技师学院,,34,18,31,15,21,107,,107,107,8,16,7,7,0.5,0.6
2025-05-01T1900,3318A,112.9903,23.7403,清远市,清新太和,,23,22,32,13,20,71,,112,109,10,14,7,7,0.7,0.7
2025-05-01T1900,3455A,113.076,23.7198,清远市,清城东城,,32,30,37,21,22,100,,111,111,10,13,7,7,0.7,0.9
2025-05-01T1900,2661A,107.6325,35.7357,庆阳市,庆阳五中,颗粒物(PM10),59,68,194,30,93,108,,107,107,6,9,2,3,0.4,0.5
2025-05-01T1900,2662A,107.6364,35.7067,庆阳市,市环保局,颗粒物(PM10),57,64,183,20,61,110,,112,112,8,6,8,8,0.6,0.6
2025-05-01T1900,1916A,103.7897,25.5035,曲靖市,环境监测站,颗粒物(PM10),51,51,40,18,16,119,,126,126,18,21,5,13,0.3,0.6
2025-05-01T1900,1917A,103.8,25.5364,曲靖市,烟厂办公区,,45,45,37,18,18,124,,124,124,12,17,4,12,0.3,0.6
2025-05-01T1900,3376A,103.7947,25.462,曲靖市,南苑二区,颗粒物(PM10),64,77,36,17,17,125,,131,131,16,20,8,14,0.4,0.8
2025-05-01T1900,3377A,103.7444,25.5261,曲靖市,曲靖师范学院,,45,45,38,18,21,132,,132,132,9,21,6,22,0.2,0.5
2025-05-01T1900,1264A,118.8692,28.9398,衢州市,环保大楼,,42,42,54,19,28,100,,107,107,12,10,4,4,0.5,0.5
2025-05-01T1900,1265A,118.8709,28.9666,衢州市,实验学校,,46,46,45,25,31,105,,112,112,12,13,6,6,0.2,0.2
2025-05-01T1900,1266A,118.8621,28.9808,衢州市,衢州学院,,44,44,44,25,32,100,,106,106,14,14,4,4,0.4,0.5
2025-05-01T1900,1611A,118.5819,24.9117,泉州市,涂山街,臭氧1小时,72,83,76,38,37,177,,153,153,25,37,7,11,0.8,0.7
2025-05-01T1900,1612A,118.5972,24.8978,泉州市,津头埔,,,95,71,39,38,174,,154,154,37,41,,9,0.8,0.7
2025-05-01T1900,1613A,118.6663,24.9424,泉州市,万安,臭氧1小时,94,82,65,44,35,195,,165,165,22,32,8,7,0.8,0.6
2025-05-01T1900,3529A,118.6333,24.9264,泉州市,城华南路,臭氧1小时,77,67,73,38,41,181,,158,158,29,29,6,7,0.7,0.6
2025-05-01T1900,2626A,88.8876,29.2718,日喀则市,日喀则监测站,,47,9,45,3,10,150,,146,146,3,5,6,5,0.3,0.3
2025-05-01T1900,3726A,88.8781,29.2426,日喀则市,林业技术推广中心,,,,48,10,10,137,,134,134,2,3,,6,0.2,0.5
2025-05-01T1900,1659A,119.471,35.4209,日照市,监测站,颗粒物(PM10),63,75,69,33,31,120,,130,130,40,19,7,6,0.7,0.7
2025-05-01T1900,1660A,119.523,35.4216,日照市,市政府广场,颗粒物(PM10),53,56,62,17,27,134,,133,133,29,16,6,5,0.5,0.5
2025-05-01T1900,1661A,119.5587,35.4044,日照市,港务局,,,,70,32,34,108,,129,127,60,19,7,7,0.9,0.8
2025-05-01T1900,3507A,119.5328,35.4625,日照市,职业技术学院,颗粒物(PM10),59,68,72,12,25,135,,132,132,23,13,5,6,0.5,0.6
2025-05-01T1900,3604A,119.3266,35.1044,日照市,岚山环保分局,颗粒物(PM10),70,90,69,26,31,115,,146,144,58,23,9,6,0.7,0.7
2025-05-01T1900,1835A,111.1922,34.7752,三门峡市,市政府,颗粒物(PM10),67,84,103,41,46,110,,135,135,25,27,9,8,0.6,0.6
2025-05-01T1900,1836A,111.1587,34.7942,三门峡市,开发区,颗粒物(PM10),72,94,108,31,45,128,,133,133,10,16,6,7,0.7,0.8
2025-05-01T1900,3039A,111.1911,34.7829,三门峡市,三门峡市第一小学,颗粒物(PM10),73,96,120,35,36,125,,139,139,18,17,8,8,0.5,0.5
2025-05-01T1900,3598A,111.1,34.7167,三门峡市,富达温泉假日酒店,颗粒物(PM10),80,110,126,44,50,118,,134,134,20,21,7,8,0.6,0.7
2025-05-01T1900,2324A,117.6211,26.2625,三明市,三钢,,42,42,43,25,31,85,,104,104,16,22,12,10,1.5,1.6
2025-05-01T1900,2325A,117.635,26.2714,三明市,三明二中,,47,47,38,3,30,77,,102,100,18,18,7,5,0.6,0.8
2025-05-01T1900,2326A,117.6028,26.2378,三明市,三元区政府,,45,45,43,21,30,58,,101,98,30,18,9,5,0.8,0.7
2025-05-01T1900,1876A,109.5078,18.2489,三亚市,河东子站,,22,,28,13,17,68,,78,76,7,4,3,3,0.4,0.4
2025-05-01T1900,1877A,109.4964,18.2681,三亚市,河西子站,,24,12,27,7,15,75,,80,79,6,6,2,2,0.3,0.3
2025-05-01T1900,3540A,109.7348,18.3443,三亚市,君悦子站,,20,11,28,7,15,61,,79,75,11,9,4,3,0.4,0.3
2025-05-01T1900,2624A,91.7608,29.2313,山南市,山南监测站,,45,13,11,7,8,141,,130,130,4,6,3,4,0.4,0.4
2025-05-01T1900,2625A,91.7706,29.2436,山南市,山南人民医院,,44,27,19,15,12,138,,131,131,10,8,4,5,0.4,0.4
2025-05-01T1900,1674A,116.6794,23.3667,汕头市,金平子站,颗粒物(PM10),55,60,43,32,29,108,,139,138,20,14,6,8,0.9,0.8
2025-05-01T1900,1675A,116.7244,23.3633,汕头市,龙湖子站,颗粒物(PM10),52,54,45,30,29,103,,138,138,9,9,5,7,0.7,0.7
2025-05-01T1900,1676A,116.7258,23.2775,汕头市,濠江子站,,35,35,43,17,31,75,,127,124,15,17,4,6,0.5,0.6
2025-05-01T1900,1677A,116.7519,23.4714,汕头市,澄海子站,,,73,49,36,33,128,,134,134,26,20,,5,1.0,0.9
2025-05-01T1900,1678A,116.6092,23.2539,汕头市,潮阳子站,颗粒物(PM10),59,68,53,23,27,79,,121,119,13,13,7,7,0.7,0.7
2025-05-01T1900,3444A,116.454,23.2684,汕头市,潮南峡山,细颗粒物(PM2.5),54,55,52,38,30,107,,130,130,12,10,5,6,0.7,0.6
2025-05-01T1900,3624A,116.4069,23.2533,汕头市,潮南子站,,42,42,55,24,33,98,,110,110,18,14,4,5,0.8,0.8
2025-05-01T1900,1693A,115.3653,22.775,汕尾市,市环保局,,30,30,33,13,16,87,,98,97,6,5,6,7,0.5,0.4
2025-05-01T1900,1694A,115.3706,22.7898,汕尾市,市政府,,,,31,,26,82,,92,91,9,8,4,4,0.3,0.5
2025-05-01T1900,1695A,115.3622,22.7925,汕尾市,新城中学,,30,30,35,14,15,90,,99,99,8,8,7,7,0.7,0.7
2025-05-01T1900,2645A,109.9154,33.8715,商洛市,监测站,颗粒物(PM10),58,66,109,21,45,103,,110,110,11,11,6,7,0.3,0.3
2025-05-01T1900,3045A,109.9643,33.8471,商洛市,商州区中学,颗粒物(PM10),52,54,129,21,41,100,,115,115,14,20,3,10,0.2,0.3
2025-05-01T1900,2408A,115.6702,34.4285,商丘市,环境监测站,颗粒物(PM10),57,64,77,22,26,141,,143,143,10,11,3,4,0.3,0.3
2025-05-01T1900,2409A,115.6458,34.4045,商丘市,粮食局,颗粒物(PM10),56,62,79,22,29,138,,140,140,8,10,2,4,0.2,0.2
2025-05-01T1900,2410A,115.6293,34.3948,商丘市,睢阳区环保局,颗粒物(PM10),56,62,84,23,31,135,,142,142,16,15,2,4,0.3,0.3
2025-05-01T1900,3171A,115.6071,34.4465,商丘市,梁园区档案局,颗粒物(PM10),80,109,87,20,31,129,,135,135,15,12,3,4,0.2,0.3
