timepoint,stationcode,longitude,latitude,area,positionname,primarypollutant,aqi,pm10,pm10_24h,pm2_5,pm2_5_24h,o3,o3_24h,o3_8h,o3_8h_24h,no2,no2_24h,so2,so2_24h,co,co_24h
2022-05-16T12:00:00,1001A,116.3621,39.8784,北京市,万寿西宫,,32,22,28,9,10,105,100,56,56,4,18,3,3,0.2,0.2
2022-05-16T12:00:00,1002A,116.2202,40.2915,北京市,定陵(对照点),,30,24,22,12,8,102,93,76,76,7,9,3,2,0.2,0.2
2022-05-16T12:00:00,1003A,116.4174,39.9289,北京市,东四,,31,20,28,10,12,110,99,63,54,4,20,4,4,0.3,0.3
2022-05-16T12:00:00,1004A,116.4072,39.8863,北京市,天坛,,32,18,22,9,11,111,101,50,50,6,18,3,3,0.2,0.2
2022-05-16T12:00:00,1005A,116.462,39.9365,北京市,农展馆,,31,18,21,4,10,105,97,55,50,5,21,3,4,0.4,0.4
2022-05-16T12:00:00,1006A,116.3392,39.9295,北京市,官园,,30,19,24,9,10,96,96,48,48,5,24,4,4,0.2,0.3
2022-05-16T12:00:00,1007A,116.2878,39.9611,北京市,海淀万柳,,30,30,28,8,10,99,91,45,45,11,32,1,1,0.1,0.2
2022-05-16T12:00:00,1008A,116.6636,40.135,北京市,顺义新城,,27,15,24,7,8,98,86,56,56,3,14,3,3,0.2,0.2
2022-05-16T12:00:00,1009A,116.6275,40.3275,北京市,怀柔镇,,29,21,20,6,7,103,92,67,62,2,6,3,3,0.2,0.2
2022-05-16T12:00:00,1010A,116.2296,40.217,北京市,昌平镇,,30,23,18,11,7,106,94,67,67,5,13,3,3,0.2,0.2
2022-05-16T12:00:00,1011A,116.3966,39.9821,北京市,奥体中心,,30,22,25,10,11,104,95,52,52,4,26,3,3,0.2,0.2
2022-05-16T12:00:00,1012A,116.184,39.9136,北京市,古城,,31,23,22,10,9,106,97,82,82,4,10,1,2,0.1,0.1
2022-05-16T12:00:00,1015A,117.1444,39.1661,天津市,勤俭道,,32,18,48,10,22,121,101,94,55,7,22,4,7,0.4,0.6
2022-05-16T12:00:00,1017A,117.237,39.1082,天津市,大直沽八号路,,30,21,51,8,23,119,96,95,59,8,24,5,8,0.3,0.4
2022-05-16T12:00:00,1018A,117.202,39.0927,天津市,前进道,,30,21,48,14,26,117,94,88,56,9,24,5,8,0.3,0.5
2022-05-16T12:00:00,1019A,117.1837,39.2133,天津市,淮河道,,32,24,52,22,23,122,101,89,56,5,25,6,9,0.3,0.4
2022-05-16T12:00:00,1021A,117.307,39.0877,天津市,跃进路,,31,23,47,14,25,118,97,84,59,8,24,5,8,0.3,0.4
2022-05-16T12:00:00,1023A,117.707,39.0343,天津市,第四大街,,29,9,20,5,13,111,90,76,55,12,32,6,7,0.4,0.7
2022-05-16T12:00:00,1024A,117.457,38.8394,天津市,永明路,,29,19,48,9,24,120,91,69,59,10,25,6,9,0.2,0.3
2022-05-16T12:00:00,1026A,117.764,39.1587,天津市,汉北路,,32,20,40,7,18,123,100,69,63,7,26,6,10,0.4,0.6
2022-05-16T12:00:00,1027A,117.157,38.9194,天津市,团泊洼(对照点),,31,17,52,9,30,126,97,78,68,24,28,6,10,0.5,0.7
2022-05-16T12:00:00,1029A,114.4422,38.0444,石家庄市,职工医院,,37,37,68,12,21,130,111,65,65,19,50,10,16,0.4,0.5
2022-05-16T12:00:00,1030A,114.6063,38.0266,石家庄市,高新区,,50,50,66,31,28,128,101,59,59,14,42,8,14,0.1,0.3
2022-05-16T12:00:00,1031A,114.4898,38.1328,石家庄市,西北水源,,45,45,65,18,29,120,105,61,61,14,44,8,12,0.4,0.5
2022-05-16T12:00:00,1032A,114.4586,38.0058,石家庄市,西南高教,颗粒物(PM10),51,51,60,12,28,124,109,64,64,2,42,4,7,0.3,0.5
2022-05-16T12:00:00,1033A,114.5331,38.0178,石家庄市,世纪公园,,46,46,60,15,23,132,104,56,56,1,32,4,8,0.4,0.5
2022-05-16T12:00:00,1034A,114.509,38.0457,石家庄市,人民会堂,,41,41,53,17,24,138,112,68,68,14,42,10,17,0.4,0.6
2022-05-16T12:00:00,1035A,114.3524,37.8911,石家庄市,封龙山(对照点),,39,39,51,7,16,121,92,98,87,3,5,11,13,0.4,0.5
2022-05-16T12:00:00,1037A,118.131,39.6363,唐山市,雷达站,,39,39,49,12,16,121,104,60,60,2,18,5,3,0.5,0.3
2022-05-16T12:00:00,1038A,118.1725,39.6334,唐山市,物资局,,39,39,49,10,21,124,105,73,66,3,19,8,7,0.4,0.3
2022-05-16T12:00:00,1040A,118.1705,39.6506,唐山市,十二中,,35,35,39,23,19,120,100,61,61,9,22,5,4,0.4,0.3
2022-05-16T12:00:00,1041A,118.1869,39.622,唐山市,小山,,33,26,43,10,17,125,103,73,67,8,23,6,6,0.4,0.3
2022-05-16T12:00:00,1042A,119.5134,39.8207,秦皇岛市,北戴河环保局,颗粒物(PM10),58,66,59,14,19,119,84,61,61,36,30,14,12,0.6,0.6
2022-05-16T12:00:00,1043A,119.7493,40.0116,秦皇岛市,第一关,,35,35,40,19,15,127,83,46,46,20,42,15,15,0.5,0.6
2022-05-16T12:00:00,1044A,119.5897,39.9499,秦皇岛市,监测站,,43,43,48,14,13,117,85,46,46,37,48,10,12,1.0,0.9
2022-05-16T12:00:00,1046A,119.5251,39.9041,秦皇岛市,建设大厦,,45,45,51,13,15,114,92,49,49,23,33,8,9,0.6,0.7
2022-05-16T12:00:00,1048A,114.5302,36.6116,邯郸市,东污水处理厂,,,30,44,19,24,150,113,79,79,8,22,7,19,,0.8
2022-05-16T12:00:00,1049A,114.4918,36.5713,邯郸市,矿院,,39,39,58,8,26,158,116,87,87,2,13,8,18,0.5,0.8
2022-05-16T12:00:00,1050A,114.484,36.6133,邯郸市,丛台公园,,,35,55,,26,154,111,82,82,4,15,8,19,0.5,1.1
2022-05-16T12:00:00,1051A,115.493,38.8632,保定市,游泳馆,,35,27,51,8,23,133,112,64,59,4,27,4,6,0.4,0.5
2022-05-16T12:00:00,1053A,115.4713,38.9108,保定市,接待中心,,35,34,52,10,18,132,112,59,59,10,32,6,8,0.4,0.5
2022-05-16T12:00:00,1054A,115.4612,38.8416,保定市,地表水厂,,41,41,67,10,24,125,105,53,53,7,31,8,10,0.3,0.4
2022-05-16T12:00:00,1055A,115.4323,38.8697,保定市,胶片厂,,36,27,52,7,28,134,114,59,59,6,25,9,12,0.4,0.5
2022-05-16T12:00:00,1056A,115.5086,38.8639,保定市,监测站,,43,43,70,23,28,131,109,69,56,3,26,6,9,0.2,0.3
2022-05-16T12:00:00,1057A,114.8883,40.8336,张家口市,人民公园,,31,16,24,2,3,109,98,77,77,11,6,6,4,0.3,0.3
2022-05-16T12:00:00,1059A,114.8687,40.8042,张家口市,五金库,,32,32,28,12,8,108,100,77,77,4,7,5,4,0.4,0.4
2022-05-16T12:00:00,1060A,114.8902,40.762,张家口市,世纪豪园,,32,17,22,2,6,107,100,75,75,10,13,4,3,0.2,0.2
2022-05-16T12:00:00,1061A,114.8916,40.8661,张家口市,北泵房(对照点),,,22,15,8,9,112,,79,79,6,5,10,9,0.5,0.5
2022-05-16T12:00:00,1062A,117.9531,40.9081,承德市,铁路,,30,14,28,9,14,93,93,42,42,2,19,7,8,0.2,0.3
2022-05-16T12:00:00,1063A,117.9392,40.9763,承德市,中国银行,,29,14,20,1,10,93,91,44,44,2,14,2,2,0.2,0.2
2022-05-16T12:00:00,1064A,117.9503,40.928,承德市,开发区,,38,38,33,6,10,100,100,46,46,4,22,7,8,0.3,0.4
2022-05-16T12:00:00,1065A,117.8051,40.9655,承德市,文化中心,,32,19,29,6,14,100,100,52,52,2,13,3,17,0.2,0.5
2022-05-16T12:00:00,1066A,117.9268,41.0026,承德市,离宫(对照点),,29,14,22,11,13,92,92,45,45,1,13,5,5,0.2,0.2
2022-05-16T12:00:00,1067A,116.6708,39.5111,廊坊市,药材公司,,33,18,35,14,16,118,103,65,45,15,34,9,10,0.3,0.3
2022-05-16T12:00:00,1068A,116.7214,39.5589,廊坊市,开发区,,31,9,42,12,17,115,98,61,48,11,31,6,7,0.3,0.4
2022-05-16T12:00:00,1070A,116.7244,39.5269,廊坊市,北华航天学院,,,33,51,9,17,115,89,65,45,,27,,7,0.2,0.3
2022-05-16T12:00:00,1071A,116.8842,38.2991,沧州市,沧县城建局,,36,35,60,15,22,133,113,92,70,17,29,11,11,0.5,0.4
2022-05-16T12:00:00,1072A,116.8584,38.3254,沧州市,电视转播站,,37,37,46,17,19,121,103,99,70,18,23,9,10,0.4,0.4
2022-05-16T12:00:00,1073A,116.8709,38.3228,沧州市,市环保局,,,,43,,24,134,112,109,74,22,27,8,8,0.4,0.4
2022-05-16T12:00:00,1074A,115.6838,37.7541,衡水市,电机北厂,颗粒物(PM10),62,73,66,9,21,157,107,108,67,14,18,17,19,0.4,0.6
2022-05-16T12:00:00,1075A,115.6303,37.7316,衡水市,市监测站,颗粒物(PM10),51,52,67,12,26,152,105,91,59,14,20,18,20,0.5,0.6
2022-05-16T12:00:00,1077A,114.4704,37.0886,邢台市,达活泉,,,,39,5,14,139,101,86,86,,18,4,7,,0.7
2022-05-16T12:00:00,1078A,114.5062,37.0349,邢台市,邢师高专,,37,32,52,19,25,143,116,75,75,7,25,2,5,0.2,0.6
2022-05-16T12:00:00,1079A,114.5237,37.0851,邢台市,路桥公司,,45,45,47,7,18,139,113,89,89,12,22,4,9,0.2,0.7
2022-05-16T12:00:00,1081A,112.5139,37.8873,太原市,尖草坪,,,,70,46,30,113,86,35,35,34,37,27,12,,0.5
2022-05-16T12:00:00,1083A,112.434,38.0108,太原市,上兰(对照点),颗粒物(PM10),56,62,36,34,21,112,88,69,59,28,17,12,8,0.6,0.4
2022-05-16T12:00:00,1084A,112.469,37.7124,太原市,晋源,颗粒物(PM10),68,86,61,39,27,110,91,33,33,34,48,26,11,0.8,0.6
2022-05-16T12:00:00,1085A,112.5583,37.7394,太原市,小店,,,105,74,,27,115,,22,22,39,49,33,15,,0.6
2022-05-16T12:00:00,1086A,112.5369,37.8692,太原市,桃园,细颗粒物(PM2.5),83,99,76,61,25,115,83,38,38,45,51,26,14,0.8,0.6
2022-05-16T12:00:00,1087A,112.57,37.8195,太原市,坞城,颗粒物(PM10),73,96,69,46,28,114,78,40,40,46,53,28,18,0.8,0.6
2022-05-16T12:00:00,1088A,112.549,37.9854,太原市,南寨,颗粒物(PM10),69,88,107,28,22,108,87,30,30,35,40,24,10,1.6,0.7
2022-05-16T12:00:00,1090A,111.6507,40.7517,呼和浩特市,呼市一监,,48,48,62,19,22,110,92,44,44,12,32,8,7,0.3,0.3
2022-05-16T12:00:00,1091A,111.6572,40.8033,呼和浩特市,小召,,48,48,36,22,17,98,74,42,41,24,34,11,6,0.4,0.4
2022-05-16T12:00:00,1094A,111.7516,40.8369,呼和浩特市,如意水处理厂,,,36,38,15,13,104,,30,30,,37,10,9,0.4,0.4
2022-05-16T12:00:00,1096A,111.5512,40.7866,呼和浩特市,工大金川校区,,,56,44,18,13,99,,19,19,18,28,9,7,0.4,0.4
2022-05-16T12:00:00,1097A,111.717,40.7612,呼和浩特市,化肥厂生活区,,47,47,54,7,9,100,82,39,39,11,28,11,10,0.3,0.4
2022-05-16T12:00:00,1098A,123.6836,41.9339,沈阳市,森林路(对照点),,34,20,36,12,19,120,106,84,71,5,15,7,12,0.2,0.5
2022-05-16T12:00:00,1099A,123.505,41.7406,沈阳市,浑南东路,,33,2,44,4,24,116,104,76,68,7,20,8,18,0.3,0.9
2022-05-16T12:00:00,1100A,123.4231,41.6989,沈阳市,新秀街,,32,19,54,7,23,108,100,70,63,13,30,7,16,0.4,0.9
2022-05-16T12:00:00,1102A,123.5903,41.8411,沈阳市,东陵路,,32,24,42,15,21,109,100,81,56,7,19,10,15,0.5,0.9
2022-05-16T12:00:00,1103A,123.4264,41.8467,沈阳市,陵东街,,32,8,36,5,21,110,102,90,71,8,18,5,8,0.2,0.5
2022-05-16T12:00:00,1104A,123.4114,41.7653,沈阳市,文化路,,33,24,60,4,27,112,103,85,63,4,18,6,12,0.3,0.7
2022-05-16T12:00:00,1105A,123.4678,41.7867,沈阳市,小河沿,,,14,52,5,22,109,96,87,61,,23,4,9,0.3,0.7
2022-05-16T12:00:00,1106A,123.4017,41.7972,沈阳市,太原街,,32,19,43,12,28,113,102,90,70,12,21,6,10,0.4,0.7
2022-05-16T12:00:00,1108A,123.3783,41.9228,沈阳市,京沈街,,,30,45,4,22,115,103,91,75,,,8,11,0.5,0.6
2022-05-16T12:00:00,1109A,121.612,38.9741,大连市,甘井子,颗粒物(PM10),78,106,72,46,28,146,119,119,101,28,21,16,13,0.7,0.6
2022-05-16T12:00:00,1110A,121.565,38.9511,大连市,周水子,颗粒物(PM10),73,96,57,45,25,153,126,117,102,22,16,20,16,1.1,0.9
2022-05-16T12:00:00,1111A,121.5637,38.8845,大连市,星海三站,细颗粒物(PM2.5),72,81,42,52,27,156,138,125,114,37,25,14,11,1.0,0.8
2022-05-16T12:00:00,1112A,121.6302,38.9117,大连市,青泥洼桥,颗粒物(PM10),62,73,43,31,17,146,129,120,107,36,23,16,13,0.8,0.6
2022-05-16T12:00:00,1113A,121.6251,38.8638,大连市,傅家庄,细颗粒物(PM2.5),64,70,55,46,37,166,126,115,96,24,21,9,4,1.1,1
2022-05-16T12:00:00,1114A,121.5213,38.8661,大连市,七贤岭,,,82,52,42,19,280,54,19,19,,18,23,20,0.7,0.7
2022-05-16T12:00:00,1115A,121.2529,38.8061,大连市,旅顺,颗粒物(PM10),55,60,44,35,29,151,132,104,99,35,23,15,13,0.9,0.8
2022-05-16T12:00:00,1116A,121.7485,39.1311,大连市,金州,颗粒物(PM10),81,112,74,47,32,158,122,107,102,34,32,13,12,0.8,0.8
2022-05-16T12:00:00,1117A,121.7811,39.0496,大连市,开发区,颗粒物(PM10),63,75,49,44,36,169,127,96,96,35,40,14,14,1.0,0.9
2022-05-16T12:00:00,1118A,121.9762,39.0631,大连市,双D港,,,58,34,36,21,152,,122,98,37,24,14,14,0.9,0.7
2022-05-16T12:00:00,1119A,125.3325,43.9166,长春市,食品厂,,,17,31,13,14,93,90,61,61,17,23,6,6,,0.3
2022-05-16T12:00:00,1120A,125.2863,43.9027,长春市,客车厂,,30,23,28,10,12,96,93,66,66,11,20,6,6,0.3,0.4
2022-05-16T12:00:00,1121A,125.2841,43.8463,长春市,邮电学院,,31,28,32,7,11,99,99,64,64,6,20,2,2,0.5,0.6
2022-05-16T12:00:00,1122A,125.3716,43.8772,长春市,劳动公园,,31,19,30,9,11,102,98,66,66,9,16,2,3,0.4,0.4
2022-05-16T12:00:00,1123A,125.3297,43.8805,长春市,园林处,,31,22,26,9,11,99,99,68,68,6,20,5,5,0.4,0.4
2022-05-16T12:00:00,1124A,125.4605,43.79,长春市,净月潭,,33,23,19,10,10,105,103,68,68,7,8,6,6,0.4,0.4
2022-05-16T12:00:00,1125A,125.7194,43.515,长春市,甩湾子(对照点),,30,25,26,8,12,98,96,67,67,6,11,8,8,0.5,0.5
2022-05-16T12:00:00,1126A,125.3863,43.8447,长春市,经开区环卫处,,33,23,26,9,14,105,105,68,68,4,14,8,8,0.4,0.5
2022-05-16T12:00:00,1127A,125.245,43.7783,长春市,高新区管委会,,32,17,22,13,12,103,101,62,62,6,19,5,6,0.3,0.3
2022-05-16T12:00:00,1128A,125.1761,43.8325,长春市,岱山公园,,27,18,30,10,12,86,86,54,54,10,24,6,8,0.4,0.4
2022-05-16T12:00:00,1129A,126.5422,45.755,哈尔滨市,岭北(对照点),,32,16,31,13,17,122,101,87,87,6,14,9,9,0.3,0.3
2022-05-16T12:00:00,1130A,126.561,45.8167,哈尔滨市,松北商大,,34,19,30,9,21,115,107,88,88,4,17,3,4,0.6,0.6
2022-05-16T12:00:00,1131A,126.979,45.5419,哈尔滨市,阿城会宁,,34,25,44,12,16,115,107,78,78,9,23,12,14,0.4,0.6
2022-05-16T12:00:00,1132A,126.599,45.7222,哈尔滨市,南岗学府路,,34,16,25,6,14,125,107,90,90,5,17,1,4,0.6,0.6
2022-05-16T12:00:00,1133A,126.689,45.7733,哈尔滨市,太平宏伟公园,,33,27,42,11,17,124,104,90,90,5,20,13,14,0.4,0.4
2022-05-16T12:00:00,1134A,126.635,45.7667,哈尔滨市,道外承德广场,,31,31,39,15,19,124,99,86,86,15,22,3,12,0.4,0.5
2022-05-16T12:00:00,1135A,126.685,45.7319,哈尔滨市,香坊红旗大街,,32,27,42,14,17,122,100,82,82,7,22,8,10,0.5,0.5
2022-05-16T12:00:00,1136A,126.6411,45.7258,哈尔滨市,动力和平路,,32,24,37,14,23,120,101,83,83,4,13,7,8,0.4,0.5
2022-05-16T12:00:00,1137A,126.593,45.7478,哈尔滨市,道里建国路,,32,23,33,18,20,120,100,89,89,13,21,8,9,0.7,0.8
2022-05-16T12:00:00,1138A,126.615,45.61,哈尔滨市,平房东轻厂,,41,41,21,13,23,128,100,96,96,16,24,10,20,0.9,1.3
2022-05-16T12:00:00,1139A,126.595,45.9855,哈尔滨市,呼兰师专,,35,25,42,24,30,110,99,86,86,7,16,7,8,0.4,0.5
2022-05-16T12:00:00,1140A,126.6206,45.6842,哈尔滨市,省农科院,,,19,32,8,17,130,104,84,84,,21,6,7,0.6,0.3
2022-05-16T12:00:00,1141A,121.4,31.238,上海市,普陀,臭氧1小时,55,51,44,28,27,171,164,83,83,13,27,5,5,1.0,1
2022-05-16T12:00:00,1143A,121.467,31.3008,上海市,虹口,,49,46,47,31,29,156,155,77,77,13,31,8,9,1.3,1.4
2022-05-16T12:00:00,1144A,121.412,31.1654,上海市,徐汇上师大,颗粒物(PM10),56,62,43,33,30,151,146,75,75,8,14,8,7,1.2,1.2
2022-05-16T12:00:00,1145A,121.536,31.2659,上海市,杨浦四漂,臭氧1小时,62,53,50,33,32,169,169,95,95,9,20,12,12,0.4,0.5
2022-05-16T12:00:00,1147A,121.425,31.2261,上海市,静安监测站,颗粒物(PM10),51,52,46,29,29,163,157,80,80,16,31,6,6,0.4,0.4
2022-05-16T12:00:00,1148A,121.703,31.1907,上海市,浦东川沙,颗粒物(PM10),52,53,52,35,34,157,155,87,87,18,26,9,7,1.4,1.3
2022-05-16T12:00:00,1149A,121.533,31.2284,上海市,浦东新区监测站,颗粒物(PM10),54,57,49,35,33,158,158,92,92,12,25,8,8,0.8,0.9
2022-05-16T12:00:00,1150A,121.577,31.2071,上海市,浦东张江,,,44,46,49,35,147,147,81,81,17,28,6,6,,
2022-05-16T12:00:00,1151A,118.8086,32.1065,南京市,迈皋桥,颗粒物(PM10),55,59,52,14,22,157,146,100,88,13,28,4,4,0.5,0.6
2022-05-16T12:00:00,1152A,118.7538,32.0551,南京市,草场门,臭氧1小时,54,56,54,19,25,164,163,110,110,11,29,4,7,0.2,0.3
2022-05-16T12:00:00,1153A,118.7794,32.0745,南京市,山西路,颗粒物(PM10),59,68,59,22,28,163,160,114,114,6,19,3,5,0.2,0.3
2022-05-16T12:00:00,1154A,118.7752,32.0023,南京市,中华门,颗粒物(PM10),56,61,61,19,24,166,159,100,100,4,18,3,3,0.9,0.6
2022-05-16T12:00:00,1155A,118.8109,32.0309,南京市,瑞金路,颗粒物(PM10),53,56,52,24,26,154,154,106,100,13,24,5,5,0.8,0.7
2022-05-16T12:00:00,1156A,118.7997,32.0754,南京市,玄武湖,,49,36,41,24,25,156,154,110,109,10,24,4,4,0.5,0.6
2022-05-16T12:00:00,1157A,118.6414,32.0931,南京市,浦口,颗粒物(PM10),51,51,48,20,24,166,159,130,119,12,18,7,5,0.1,0.3
2022-05-16T12:00:00,1158A,118.7356,31.9996,南京市,奥体中心,颗粒物(PM10),53,56,56,22,28,158,152,91,91,12,36,8,10,0.7,0.8
2022-05-16T12:00:00,1159A,118.9125,32.1028,南京市,仙林大学城,,50,46,56,17,28,158,158,106,106,8,24,6,8,0.7,0.7
2022-05-16T12:00:00,1160A,120.561,31.2472,苏州市,上方山(对照点),,45,37,24,26,20,142,142,77,77,13,20,6,6,0.4,0.4
2022-05-16T12:00:00,1162A,120.591,31.3019,苏州市,彩香,,49,40,33,23,20,156,156,86,86,10,24,8,7,0.7,0.6
2022-05-16T12:00:00,1163A,120.596,31.3264,苏州市,轧钢厂,,50,40,39,23,22,159,159,85,85,10,26,9,9,0.7,0.6
2022-05-16T12:00:00,1164A,120.613,31.2703,苏州市,吴中区,,,,30,,21,162,162,79,79,,27,,6,0.6,0.6
2022-05-16T12:00:00,1165A,120.543,31.2994,苏州市,苏州新区,臭氧1小时,53,40,33,27,20,162,162,94,94,9,19,8,7,0.5,0.5
2022-05-16T12:00:00,1166A,120.669,31.3097,苏州市,苏州工业园区,,49,49,31,27,20,152,152,84,84,11,26,6,6,0.6,0.6
2022-05-16T12:00:00,1167A,120.641,31.3708,苏州市,相城区,细颗粒物(PM2.5),60,60,43,43,29,154,151,84,84,13,34,10,8,0.6,0.6
2022-05-16T12:00:00,1168A,120.9098,31.9663,南通市,狼山街道,臭氧1小时,59,38,49,19,25,172,167,85,85,9,29,12,12,0.4,0.5
2022-05-16T12:00:00,1169A,120.86,32.0005,南通市,虹桥,颗粒物(PM10),56,62,50,33,32,158,158,76,76,21,40,8,10,0.5,0.6
2022-05-16T12:00:00,1170A,120.87,32.02,南通市,城中,颗粒物(PM10),51,52,51,24,26,160,160,90,90,21,39,11,11,0.3,0.6
2022-05-16T12:00:00,1171A,120.94,31.93,南通市,星湖花园,,,29,49,22,26,170,,82,69,23,38,15,13,0.9,0.8
2022-05-16T12:00:00,1172A,120.81,32.0417,南通市,紫琅学院,颗粒物(PM10),52,53,52,27,28,167,158,96,96,28,35,13,10,0.4,0.5
2022-05-16T12:00:00,1173A,119.176,34.5885,连云港市,市环境监测站,,,,56,,23,159,141,97,96,12,19,8,11,0.1,0.2
2022-05-16T12:00:00,1177A,117.179,34.2761,徐州市,黄河新村,颗粒物(PM10),65,80,56,33,21,144,137,104,104,15,17,9,6,0.5,0.4
2022-05-16T12:00:00,1178A,117.1918,34.2384,徐州市,淮塔,颗粒物(PM10),54,57,43,27,19,151,142,112,112,11,13,13,11,0.6,0.5
2022-05-16T12:00:00,1180A,117.256,34.2153,徐州市,新城区,颗粒物(PM10),63,76,58,26,20,146,141,103,97,14,22,12,10,0.7,0.6
2022-05-16T12:00:00,1181A,117.244,34.2911,徐州市,桃园路,,,90,66,,21,149,138,98,98,19,22,15,13,0.6,0.6
2022-05-16T12:00:00,1182A,117.2933,34.2778,徐州市,农科院,颗粒物(PM10),59,68,49,19,14,148,143,103,90,22,26,11,9,0.5,0.4
2022-05-16T12:00:00,1186A,119.389,32.3761,扬州市,邗江监测站,臭氧1小时,67,51,60,24,28,173,173,118,118,10,21,7,8,0.5,0.6
2022-05-16T12:00:00,1188A,120.269,31.4867,无锡市,雪浪,臭氧1小时,53,53,41,24,20,162,162,97,97,8,15,12,12,0.6,0.6
2022-05-16T12:00:00,1189A,120.275,31.6219,无锡市,黄巷,臭氧1小时,55,56,50,22,22,166,164,84,84,15,40,11,13,0.5,0.5
2022-05-16T12:00:00,1190A,120.294,31.56,无锡市,曹张,臭氧1小时,57,54,36,24,18,165,165,85,85,16,40,9,10,0.8,0.8
2022-05-16T12:00:00,1191A,120.242,31.5031,无锡市,漆塘,,,61,32,31,22,150,,73,66,14,20,7,8,0.5,0.5
2022-05-16T12:00:00,1192A,120.3489,31.5863,无锡市,东亭,臭氧1小时,57,53,47,22,24,166,165,94,94,16,31,12,12,0.7,0.7
2022-05-16T12:00:00,1193A,120.354,31.5475,无锡市,旺庄,臭氧1小时,57,56,43,24,24,165,165,91,91,11,31,13,12,0.7,0.7
2022-05-16T12:00:00,1194A,120.245,31.5631,无锡市,荣巷,臭氧1小时,60,61,35,31,21,168,168,100,100,14,18,13,12,0.5,0.5
2022-05-16T12:00:00,1195A,120.299,31.6817,无锡市,堰桥,臭氧1小时,59,51,49,22,28,174,167,89,89,16,36,12,12,0.9,0.8
2022-05-16T12:00:00,1196A,119.9633,31.762,常州市,市监测站,臭氧1小时,60,46,50,22,24,182,168,92,92,14,26,8,8,0.6,0.6
2022-05-16T12:00:00,1200A,119.9468,31.7069,常州市,武进监测站,,50,49,56,28,36,175,159,86,86,11,26,10,10,0.7,0.8
2022-05-16T12:00:00,1201A,119.9255,31.9087,常州市,安家,臭氧1小时,65,36,49,22,33,177,172,85,85,14,35,8,10,0.6,0.7
2022-05-16T12:00:00,1203A,119.6707,32.1875,镇江市,新区办事处,,,35,56,17,34,154,154,95,82,,42,7,10,0.5,0.8
2022-05-16T12:00:00,1204A,119.4974,32.1968,镇江市,职教中心,臭氧1小时,58,38,50,17,29,166,166,122,122,12,22,7,8,0.6,0.6
2022-05-16T12:00:00,1205A,119.4303,32.1328,镇江市,丹徒区监测站,臭氧1小时,67,33,48,18,32,173,173,135,135,13,20,4,8,0.5,0.6
2022-05-16T12:00:00,1206A,119.905,32.4878,泰州市,公园路,,48,39,48,22,28,152,152,97,97,7,17,5,7,0.4,0.6
2022-05-16T12:00:00,1207A,119.9189,32.4625,泰州市,莲花,,49,46,54,22,35,154,154,100,100,9,16,8,10,0.6,0.7
2022-05-16T12:00:00,1209A,119.888,32.4639,泰州市,留学生创业园,,50,33,53,18,28,157,157,100,100,9,20,6,9,0.5,0.6
2022-05-16T12:00:00,1210A,119.036,33.5981,淮安市,钵池山,,46,45,46,15,18,161,146,117,117,11,17,8,10,0.5,0.6
2022-05-16T12:00:00,1211A,119.007,33.575,淮安市,北京南路,颗粒物(PM10),54,58,60,20,23,157,140,95,95,13,28,11,14,0.5,0.8
2022-05-16T12:00:00,1212A,118.989,33.6067,淮安市,市监测站,颗粒物(PM10),52,53,53,17,19,161,116,98,92,14,20,8,12,0.5,0.5
2022-05-16T12:00:00,1213A,119.135,33.5039,淮安市,楚州区监测站,颗粒物(PM10),52,54,61,8,19,152,137,93,93,10,27,6,6,0.4,0.4
2022-05-16T12:00:00,1214A,119.0186,33.6297,淮安市,淮阴区监测站,,,,46,,20,151,132,101,101,,18,8,9,,0.5
2022-05-16T12:00:00,1215A,120.118,33.4022,盐城市,盐城电厂,,50,48,49,24,25,166,158,111,111,9,15,11,13,0.4,0.5
2022-05-16T12:00:00,1216A,120.156,33.3942,盐城市,市监测站,,49,42,39,16,20,163,155,110,110,8,14,10,12,0.2,0.3
2022-05-16T12:00:00,1218A,120.2144,33.38,盐城市,开发区管委会,颗粒物(PM10),56,62,48,15,17,159,149,107,96,11,18,9,11,0.3,0.4
2022-05-16T12:00:00,1220A,118.293,33.9528,宿迁市,宿迁学院,颗粒物(PM10),79,107,50,19,23,160,135,102,102,2,4,6,6,0.2,0.2
2022-05-16T12:00:00,1221A,118.2442,33.9592,宿迁市,宿迁中学,,42,37,46,17,22,159,132,98,98,6,14,7,7,0.3,0.3
2022-05-16T12:00:00,1223A,120.2072,30.2111,杭州市,滨江,,42,42,27,20,13,128,128,85,85,21,24,5,4,0.5,0.5
2022-05-16T12:00:00,1224A,120.0633,30.2747,杭州市,西溪,,,55,23,13,7,122,,72,72,18,26,10,8,0.6,0.5
2022-05-16T12:00:00,1226A,120.3461,30.3153,杭州市,下沙,颗粒物(PM10),51,51,36,27,13,138,134,93,93,23,23,8,7,0.5,0.5
2022-05-16T12:00:00,1227A,120.1269,30.2456,杭州市,卧龙桥,,40,34,16,16,8,125,125,67,67,16,17,7,5,0.5,0.5
2022-05-16T12:00:00,1228A,120.1903,30.2692,杭州市,浙江农大,,,37,25,26,17,130,129,87,87,18,24,7,5,,0.4
2022-05-16T12:00:00,1230A,120.1197,30.3119,杭州市,和睦小学,颗粒物(PM10),51,51,25,20,9,136,136,82,82,20,27,5,3,0.6,0.5
2022-05-16T12:00:00,1231A,120.3019,30.4183,杭州市,临平镇,颗粒物(PM10),60,69,34,28,15,151,151,89,89,19,30,5,4,0.6,0.6
2022-05-16T12:00:00,1232A,120.2697,30.1819,杭州市,城厢镇,,38,36,25,19,12,120,120,81,81,23,26,8,7,0.5,0.5
2022-05-16T12:00:00,1233A,120.0883,30.1808,杭州市,云栖,,43,43,20,15,8,124,122,84,84,24,22,8,8,0.5,0.4
2022-05-16T12:00:00,1234A,121.8358,29.911,宁波市,区环保大楼,,45,45,35,25,23,146,111,89,74,45,32,11,8,0.6,0.5
2022-05-16T12:00:00,1235A,121.56,29.82,宁波市,万里学院,,43,41,32,30,22,158,127,85,85,24,19,14,15,0.6,0.5
2022-05-16T12:00:00,1236A,121.713,29.9572,宁波市,龙赛医院,,38,35,32,20,18,161,119,73,73,41,38,8,9,0.5,0.5
2022-05-16T12:00:00,1239A,121.633,29.7733,宁波市,钱湖水厂,,43,34,30,30,23,151,97,81,74,33,20,13,12,0.6,0.4
2022-05-16T12:00:00,1240A,121.5856,29.8635,宁波市,太古小学,,,30,30,27,21,141,,75,62,21,26,8,11,0.5,0.5
2022-05-16T12:00:00,1241A,121.524,29.8674,宁波市,市环境监测中心,,43,37,33,17,18,144,137,72,72,16,23,10,16,0.5,0.5
2022-05-16T12:00:00,1242A,120.634,28.0089,温州市,瓯海,,30,23,19,18,13,96,96,57,57,15,25,6,5,0.4,0.4
2022-05-16T12:00:00,1243A,120.6748,27.9939,温州市,南浦,,35,35,21,22,14,99,99,69,62,13,19,7,6,0.4,0.3
2022-05-16T12:00:00,1245A,120.6709,28.0167,温州市,市站,,32,31,21,16,13,102,102,69,69,18,21,6,5,0.4,0.4
2022-05-16T12:00:00,1247A,120.6053,29.9928,绍兴市,城东开发委,,40,25,25,15,14,129,127,90,90,11,14,6,5,0.4,0.4
2022-05-16T12:00:00,1250A,120.0751,30.8669,湖州市,城西水厂,,48,48,33,21,12,140,140,59,59,18,37,8,6,0.5,0.4
2022-05-16T12:00:00,1252A,120.7436,30.778,嘉兴市,清河小学,颗粒物(PM10),59,67,33,30,15,160,160,75,75,16,32,10,9,0.6,0.6
2022-05-16T12:00:00,1253A,120.726,30.7478,嘉兴市,嘉兴学院,,,62,29,38,16,159,159,70,70,19,41,,6,0.3,0.3
2022-05-16T12:00:00,1255A,121.273,28.6459,台州市,黄岩环保大楼,,35,32,27,24,14,100,98,81,81,21,15,6,5,0.5,0.3
2022-05-16T12:00:00,1256A,121.419,28.6542,台州市,台州环保大楼,,37,29,28,19,17,116,116,90,90,15,15,5,5,0.4,0.4
2022-05-16T12:00:00,1257A,121.377,28.5773,台州市,路桥田洋王,,38,33,27,26,22,105,105,81,81,18,19,6,5,0.5,0.5
2022-05-16T12:00:00,1258A,122.122,30.0203,舟山市,定海檀枫,,41,30,32,18,22,146,130,86,86,9,17,5,4,0.5,0.4
2022-05-16T12:00:00,1259A,122.3094,29.9558,舟山市,普陀东港,,50,35,32,23,23,158,158,94,94,15,22,9,6,0.7,0.5
2022-05-16T12:00:00,1260A,122.19,29.9944,舟山市,临城新区,,45,34,33,19,18,152,144,84,84,10,17,6,5,0.4,0.4
2022-05-16T12:00:00,1262A,119.647,29.077,金华市,十五中,,46,46,26,21,16,110,101,67,58,23,20,7,6,0.5,0.4
2022-05-16T12:00:00,1263A,119.686,29.1029,金华市,监测站,,45,36,28,31,19,112,91,73,73,19,17,7,6,0.5,0.5
2022-05-16T12:00:00,1264A,118.8692,28.9398,衢州市,环保大楼,,44,44,24,15,12,113,113,75,61,19,20,12,6,0.5,0.4
2022-05-16T12:00:00,1265A,118.8709,28.9666,衢州市,实验学校,,35,29,18,18,9,114,111,77,61,21,19,3,2,0.6,0.4
2022-05-16T12:00:00,1266A,118.8621,28.9808,衢州市,衢州学院,,36,32,19,18,9,114,114,83,54,20,27,5,4,0.6,0.5
2022-05-16T12:00:00,1267A,119.914,28.4514,丽水市,监测站大楼,,30,20,17,11,9,94,94,68,68,12,12,6,5,0.2,0.2
2022-05-16T12:00:00,1268A,119.93,28.4586,丽水市,莲都小学,,32,20,19,13,8,102,102,73,73,10,13,7,6,0.2,0.1
2022-05-16T12:00:00,1269A,119.879,28.4231,丽水市,余庄前,,30,30,18,16,10,81,81,54,54,25,15,5,5,0.3,0.3
2022-05-16T12:00:00,1270A,117.1959,31.7848,合肥市,明珠广场,,44,44,68,14,32,155,116,82,78,18,39,5,6,0.2,0.4
2022-05-16T12:00:00,1271A,117.3072,31.8764,合肥市,三里街,,41,41,60,7,27,142,111,83,82,14,32,6,7,0.4,0.5
2022-05-16T12:00:00,1272A,117.2588,31.8707,合肥市,琥珀山庄,,38,36,66,12,33,151,121,86,86,10,28,2,3,0.5,0.7
2022-05-16T12:00:00,1273A,117.1604,31.9052,合肥市,董铺水库(对照点),,39,39,58,7,24,141,112,86,86,12,22,5,6,0.3,0.4
2022-05-16T12:00:00,1274A,117.25,31.8571,合肥市,长江中路,,,51,70,14,28,160,,94,87,18,38,7,8,0.4,0.6
2022-05-16T12:00:00,1275A,117.266,31.9436,合肥市,庐阳区,颗粒物(PM10),54,57,71,9,24,152,135,96,96,11,26,9,9,0.2,0.4
2022-05-16T12:00:00,1276A,117.336,31.8586,合肥市,瑶海区,,,48,73,19,36,152,118,63,63,13,43,,8,0.6,0.7
2022-05-16T12:00:00,1277A,117.3027,31.7964,合肥市,包河区,颗粒物(PM10),74,97,84,24,38,161,126,64,64,12,59,6,7,0.2,0.5
2022-05-16T12:00:00,1278A,117.2776,31.7385,合肥市,滨湖新区,颗粒物(PM10),51,51,70,22,34,173,134,67,67,8,51,6,7,0.2,0.3
2022-05-16T12:00:00,1279A,117.1318,31.8403,合肥市,高新区,,41,41,64,14,36,156,118,114,91,9,20,9,9,0.5,0.6
2022-05-16T12:00:00,1280A,119.3903,26.0543,福州市,鼓山(对照点),,,10,5,,,118,104,106,106,,,,,,
2022-05-16T12:00:00,1282A,119.2681,26.0504,福州市,师大,,,13,9,6,5,98,,87,87,14,14,2,2,0.4,0.4
2022-05-16T12:00:00,1283A,119.2984,26.1028,福州市,五四北路,,28,11,8,9,3,105,87,92,82,15,13,2,2,0.4,0.4
2022-05-16T12:00:00,1284A,119.2648,26.0768,福州市,杨桥西路,,27,10,7,4,5,91,84,77,77,11,12,2,2,0.4,0.5
2022-05-16T12:00:00,1285A,119.317,26.0746,福州市,紫阳,,,16,7,3,3,102,90,91,86,17,15,,5,0.4,0.4
2022-05-16T12:00:00,1286A,118.1608,24.8169,厦门市,溪东(对照点),,30,4,4,4,6,113,93,110,97,6,5,1,1,0.4,0.4
2022-05-16T12:00:00,1287A,118.1514,24.4767,厦门市,洪文,,29,7,3,6,6,100,91,99,89,22,22,2,2,0.4,0.5
2022-05-16T12:00:00,1288A,118.0661,24.4444,厦门市,鼓浪屿,,29,8,6,6,5,96,92,93,88,5,6,3,3,0.5,0.5
2022-05-16T12:00:00,1290A,115.8931,28.6843,南昌市,省外办,,42,42,26,20,16,139,127,88,88,9,12,6,3,0.7,0.6
2022-05-16T12:00:00,1291A,115.8886,28.7003,南昌市,省林业公司,,40,37,27,11,11,145,128,80,80,12,22,10,8,0.7,0.7
2022-05-16T12:00:00,1292A,115.8126,28.7442,南昌市,林科所,,44,44,25,16,18,145,129,89,89,3,8,7,4,0.5,0.5
2022-05-16T12:00:00,1294A,115.8518,28.687,南昌市,建工学校,,41,34,27,17,16,146,130,94,94,2,8,11,9,0.3,0.2
2022-05-16T12:00:00,1295A,115.8921,28.6424,南昌市,象湖,,44,44,33,12,11,144,130,89,89,10,19,4,3,0.3,0.3
2022-05-16T12:00:00,1296A,115.7423,28.7996,南昌市,武术学校(对照点),,42,42,23,26,13,138,130,66,66,12,10,2,3,0.6,0.5
2022-05-16T12:00:00,1298A,115.9314,28.6842,南昌市,省站,颗粒物(PM10),91,132,61,20,15,138,130,87,87,13,18,8,6,0.5,0.5
2022-05-16T12:00:00,1299A,116.9862,36.6114,济南市,科干所,颗粒物(PM10),52,53,50,29,18,144,130,120,113,16,15,16,15,0.8,0.8
2022-05-16T12:00:00,1300A,116.9376,36.665,济南市,农科所,,,,49,,14,134,110,100,90,21,26,15,12,0.4,0.4
2022-05-16T12:00:00,1301A,117.1265,36.6734,济南市,开发区,颗粒物(PM10),51,51,49,18,17,146,125,134,114,19,18,12,12,0.3,0.6
2022-05-16T12:00:00,1303A,117.0624,36.6868,济南市,省种子仓库,,,,60,,22,134,,117,100,,12,,13,,0.2
2022-05-16T12:00:00,1304A,116.9489,36.6447,济南市,机床二厂,颗粒物(PM10),61,71,78,20,27,135,118,98,90,14,20,12,10,0.4,0.4
2022-05-16T12:00:00,1305A,117.0495,36.663,济南市,市监测站,颗粒物(PM10),55,59,51,13,16,141,122,124,106,14,14,11,11,0.5,0.5
2022-05-16T12:00:00,1306A,116.7675,36.5484,济南市,长清党校,颗粒物(PM10),58,66,55,22,19,145,123,111,97,17,22,18,16,0.7,0.7
2022-05-16T12:00:00,1307A,120.6659,36.2403,青岛市,仰口(对照点),,45,44,52,31,29,140,130,116,114,12,11,6,6,0.5,0.5
2022-05-16T12:00:00,1310A,120.4134,36.0658,青岛市,市南区东部子站,颗粒物(PM10),62,73,62,29,29,151,94,113,81,38,18,11,7,1.1,0.5
2022-05-16T12:00:00,1311A,120.3664,36.1032,青岛市,四方区子站,颗粒物(PM10),63,75,62,36,31,163,134,120,76,42,32,12,8,1.0,0.8
2022-05-16T12:00:00,1312A,120.2994,36.054,青岛市,市南区西部子站,,,75,64,29,24,177,,136,88,,26,,9,,0.7
2022-05-16T12:00:00,1313A,120.4581,36.0858,青岛市,崂山区子站,颗粒物(PM10),69,88,64,39,30,162,92,116,87,46,24,14,10,1.2,0.6
2022-05-16T12:00:00,1314A,120.1983,35.9608,青岛市,黄岛区子站,颗粒物(PM10),62,73,61,32,33,162,125,120,104,38,27,16,8,1.0,0.5
2022-05-16T12:00:00,1315A,120.3999,36.3083,青岛市,城阳区子站,,,,69,20,22,141,141,114,87,20,28,8,8,0.5,0.7
2022-05-16T12:00:00,1316A,113.69031,34.76122,郑州市,烟厂,颗粒物(PM10),59,67,55,16,20,157,135,98,98,15,22,11,12,0.3,0.4
2022-05-16T12:00:00,1317A,113.65724,34.77134,郑州市,郑纺机,,,76,55,,12,148,127,86,86,14,24,12,12,0.8,0.8
2022-05-16T12:00:00,1318A,113.67526,34.80246,郑州市,银行学校,颗粒物(PM10),65,79,49,22,23,159,137,97,97,14,20,10,10,0.4,0.4
2022-05-16T12:00:00,1319A,113.56746,34.81334,郑州市,供水公司,,49,49,49,19,17,144,130,87,87,17,32,11,11,0.4,0.5
2022-05-16T12:00:00,1320A,113.7329,34.7178,郑州市,经开区管委,颗粒物(PM10),56,62,46,34,22,154,136,105,105,14,20,8,11,0.3,0.3
2022-05-16T12:00:00,1321A,113.73961,34.77172,郑州市,四十七中,颗粒物(PM10),55,60,52,16,16,165,138,104,104,12,16,12,11,0.7,0.7
2022-05-16T12:00:00,1322A,113.60532,34.74838,郑州市,市监测站,颗粒物(PM10),59,67,61,21,19,148,122,89,89,22,26,12,14,0.4,0.4
2022-05-16T12:00:00,1323A,113.64164,34.7525,郑州市,河医大,颗粒物(PM10),69,87,58,25,16,148,127,94,94,13,18,9,10,0.4,0.4
2022-05-16T12:00:00,1324A,113.51488,34.91089,郑州市,岗李水库(对照点),颗粒物(PM10),74,98,64,42,23,148,129,100,100,14,23,11,10,0.8,0.9
2022-05-16T12:00:00,1325A,114.3677,30.5584,武汉市,东湖梨园,,44,44,48,22,31,133,130,83,83,12,26,7,7,0.5,0.7
2022-05-16T12:00:00,1326A,114.2529,30.558,武汉市,汉阳月湖,,,,46,,28,138,,70,54,,41,,10,,0.7
2022-05-16T12:00:00,1327A,114.282,30.6189,武汉市,汉口花桥,细颗粒物(PM2.5),53,38,44,37,32,125,118,70,70,16,36,10,11,0.7,0.8
2022-05-16T12:00:00,1328A,114.3025,30.5332,武汉市,武昌紫阳,,49,49,52,22,24,126,120,74,74,18,36,12,10,0.7,0.9
2022-05-16T12:00:00,1329A,114.3646,30.6217,武汉市,青山钢花,,,48,50,,35,127,119,72,72,17,42,9,10,0.6,0.7
2022-05-16T12:00:00,1330A,114.1566,30.4825,武汉市,沌口新区,,42,42,51,14,27,131,119,55,55,21,38,12,11,0.6,0.7
2022-05-16T12:00:00,1331A,114.3014,30.5944,武汉市,汉口江滩,,,49,53,25,27,122,,70,63,25,40,8,8,0.5,0.6
2022-05-16T12:00:00,1333A,114.135,30.6319,武汉市,吴家山,,41,39,50,17,28,141,130,74,74,14,30,9,9,0.6,0.7
2022-05-16T12:00:00,1334A,113.8454,30.2917,武汉市,沉湖七壕(对照点),,35,30,40,13,21,111,111,70,70,7,12,6,6,0.6,0.7
2022-05-16T12:00:00,1335A,113.0833,28.2325,长沙市,经开区环保局,,48,37,31,33,30,99,99,66,66,12,18,2,2,0.5,0.5
2022-05-16T12:00:00,1336A,112.8872,28.2189,长沙市,高开区环保局,,45,18,24,31,34,115,115,82,82,14,13,8,7,0.4,0.5
2022-05-16T12:00:00,1337A,113.0792,28.2053,长沙市,马坡岭,,44,44,42,27,29,112,112,74,74,16,21,5,4,0.4,0.5
2022-05-16T12:00:00,1338A,112.9394,28.19,长沙市,湖南师范大学,,,49,41,,45,116,116,85,85,17,15,3,2,0.5,0.5
2022-05-16T12:00:00,1339A,113.0178,28.1322,长沙市,雨花区环保局,,49,36,36,34,39,109,109,80,80,16,18,5,5,0.4,0.4
2022-05-16T12:00:00,1340A,112.9792,28.2597,长沙市,伍家岭,,49,38,32,34,41,90,90,76,76,17,17,8,7,0.3,0.4
2022-05-16T12:00:00,1341A,113.0014,28.1944,长沙市,火车新站,,,34,42,33,41,106,106,79,79,18,15,7,6,,0.3
2022-05-16T12:00:00,1342A,112.9844,28.1178,长沙市,天心区环保局,,46,29,31,32,43,106,106,76,76,13,13,5,4,0.5,0.5
2022-05-16T12:00:00,1343A,112.8908,28.1308,长沙市,湖南中医药大学,,45,33,32,31,41,102,102,68,68,14,17,4,4,0.4,0.4
2022-05-16T12:00:00,1344A,112.9581,28.3611,长沙市,沙坪(对照点),,38,30,41,26,38,95,95,75,75,15,11,5,4,0.5,0.6
2022-05-16T12:00:00,1345A,113.2347,23.1423,广州市,广雅中学,,25,14,9,6,5,80,80,71,71,23,23,6,6,0.9,0.9
2022-05-16T12:00:00,1346A,113.2612,23.105,广州市,市五中,,27,17,8,11,5,93,85,86,86,20,14,4,4,0.6,0.6
2022-05-16T12:00:00,1348A,113.3478,23.0916,广州市,广东商学院,,,13,7,7,4,75,,70,67,23,17,4,3,0.8,0.7
2022-05-16T12:00:00,1349A,113.4332,23.1047,广州市,市八十六中,,23,11,5,4,2,76,72,72,70,18,16,6,6,0.7,0.7
2022-05-16T12:00:00,1350A,113.3505,22.9483,广州市,番禺中学,,22,8,5,2,2,73,68,69,68,22,16,8,7,0.8,0.7
2022-05-16T12:00:00,1351A,113.2146,23.3916,广州市,花都师范,,27,12,6,6,4,84,84,80,80,13,12,4,3,0.8,0.7
2022-05-16T12:00:00,1352A,113.2597,23.1331,广州市,市监测站,,28,15,7,6,4,90,87,84,84,16,14,5,5,0.8,0.8
2022-05-16T12:00:00,1353A,113.5618,23.312,广州市,九龙镇镇龙,,24,7,4,5,2,81,74,76,76,10,9,6,6,0.7,0.7
2022-05-16T12:00:00,1354A,113.2765,23.1544,广州市,麓湖,,28,11,7,5,4,88,87,82,82,17,16,4,3,0.7,0.7
2022-05-16T12:00:00,1355A,113.443,23.3035,广州市,帽峰山森林公园(对照点),,25,8,6,4,2,86,80,79,77,6,5,4,4,0.7,0.7
2022-05-16T12:00:00,1356A,114.1063,22.5545,深圳市,通心岭子站,,,15,8,9,4,80,61,68,65,21,11,,3,0.5,0.5
2022-05-16T12:00:00,1357A,114.117,22.5625,深圳市,洪湖,,20,16,9,4,3,71,61,68,66,22,14,6,6,0.5,0.5
2022-05-16T12:00:00,1358A,113.987,22.5417,深圳市,华侨城,,18,7,4,2,0,71,55,52,52,19,14,6,6,0.7,0.7
2022-05-16T12:00:00,1359A,113.9181,22.5171,深圳市,南海子站,,23,23,14,13,5,85,54,50,48,26,15,3,2,0.8,0.8
2022-05-16T12:00:00,1360A,114.2458,22.5689,深圳市,盐田,,17,9,5,5,2,77,54,70,68,23,18,2,2,0.8,0.8
2022-05-16T12:00:00,1361A,114.2283,22.7244,深圳市,龙岗,,22,12,7,4,2,78,68,74,73,22,17,3,2,0.6,0.6
2022-05-16T12:00:00,1363A,114.494,22.5422,深圳市,南澳,,22,6,4,0,0,99,69,68,68,8,6,8,8,0.8,0.8
2022-05-16T12:00:00,1364A,114.41,22.6342,深圳市,葵涌,,20,8,5,3,1,73,64,69,69,7,4,5,5,0.5,0.5
2022-05-16T12:00:00,1365A,114.297,22.5978,深圳市,梅沙,,23,6,4,2,0,92,73,79,79,10,7,3,2,0.5,0.4
2022-05-16T12:00:00,1366A,114.0678,22.738,深圳市,观澜,,17,16,8,9,2,64,54,51,51,27,13,4,4,0.8,0.7
2022-05-16T12:00:00,1367A,113.5814,22.2618,珠海市,吉大,,22,4,6,1,1,90,69,62,62,15,14,6,6,0.7,0.6
2022-05-16T12:00:00,1368A,113.4881,22.2335,珠海市,前山,,17,2,4,6,7,105,51,50,50,34,22,8,8,0.6,0.5
2022-05-16T12:00:00,1369A,113.628,22.4251,珠海市,唐家,,24,4,7,2,1,102,74,70,70,20,14,7,7,0.8,0.7
2022-05-16T12:00:00,1370A,113.299,22.2281,珠海市,斗门,,17,2,4,2,2,101,52,51,51,30,18,7,8,0.8,0.7
2022-05-16T12:00:00,1371A,113.1294,23.0067,佛山市,湾梁,,28,12,8,3,3,94,89,86,86,19,16,9,9,0.7,0.7
2022-05-16T12:00:00,1372A,113.1083,23.0478,佛山市,华材职中,,26,9,9,3,4,85,83,78,74,17,18,6,5,0.4,0.5
2022-05-16T12:00:00,1373A,113.144,23.0453,佛山市,南海气象局,,26,9,9,3,4,84,83,78,78,19,19,4,4,0.9,0.9
2022-05-16T12:00:00,1374A,113.2881,22.8094,佛山市,顺德苏岗,,,18,5,5,2,75,61,68,68,,17,,5,,0.9
2022-05-16T12:00:00,1376A,112.8383,22.8678,佛山市,高明孔堂,,24,22,15,7,6,80,75,64,64,22,19,6,8,0.7,0.7
2022-05-16T12:00:00,1377A,112.8836,23.1588,佛山市,三水监测站,,,14,8,8,7,63,63,54,54,12,17,5,4,,0.9
2022-05-16T12:00:00,1378A,112.867,23.185,佛山市,三水云东海,,20,14,12,0,2,62,62,53,53,10,12,5,5,0.7,0.7
2022-05-16T12:00:00,1379A,113.3769,22.5211,中山市,华柏园,,19,14,12,4,5,93,51,56,55,37,22,3,3,0.7,0.7
2022-05-16T12:00:00,1380A,113.3881,22.5497,中山市,张溪,,26,26,21,4,3,86,54,57,57,31,17,1,2,0.8,0.7
2022-05-16T12:00:00,1381A,113.4075,22.5111,中山市,紫马岭,,17,13,10,6,6,84,49,54,52,34,19,4,3,0.7,0.6
2022-05-16T12:00:00,1382A,113.4411,22.4853,中山市,长江旅游区(对照点),,18,13,10,6,5,91,49,52,50,35,21,3,3,0.7,0.6
2022-05-16T12:00:00,1383A,113.1064,22.6058,江门市,北街,,,,9,,3,87,,79,79,31,22,6,5,0.7,0.7
2022-05-16T12:00:00,1384A,113.0731,22.5835,江门市,西区,,22,20,11,8,5,78,68,72,71,30,22,5,5,0.6,0.6
2022-05-16T12:00:00,1385A,113.0219,22.5311,江门市,圭峰西,,21,9,10,2,3,81,67,72,71,26,18,4,5,0.6,0.6
2022-05-16T12:00:00,1386A,113.0828,22.5947,江门市,东湖,,20,11,7,12,3,82,64,74,73,26,19,6,6,0.6,0.6
2022-05-16T12:00:00,1389A,113.7547,23.0494,东莞市,莞城梨川,,22,8,4,4,2,82,69,76,76,17,11,8,8,0.7,0.7
2022-05-16T12:00:00,1390A,113.7944,23.0128,东莞市,东城石井,,23,9,4,4,2,75,71,71,70,17,12,6,6,0.7,0.6
2022-05-16T12:00:00,1391A,113.7383,22.9658,东莞市,南城西平,,17,13,6,3,2,66,53,58,58,31,21,3,3,0.9,0.9
2022-05-16T12:00:00,1392A,114.4183,23.0528,惠州市,河南岸金山湖子站,,,,7,,2,81,,77,74,10,10,2,3,0.7,0.6
2022-05-16T12:00:00,1393A,114.4053,23.0822,惠州市,下埔横江三路子站,,26,9,8,2,1,86,81,84,82,14,11,3,3,0.7,0.6
2022-05-16T12:00:00,1394A,114.4103,23.1142,惠州市,江北云山西路子站,,25,7,7,3,2,86,80,85,82,9,5,5,6,0.5,0.5
2022-05-16T12:00:00,1395A,114.4645,22.7833,惠州市,惠阳区承修路船湖子站,,21,16,7,4,2,68,65,65,65,14,11,1,1,0.6,0.6
2022-05-16T12:00:00,1396A,114.5317,22.7422,惠州市,大亚湾管委会子站,,,6,6,,6,68,61,67,66,14,10,4,4,0.6,0.5
2022-05-16T12:00:00,1397A,112.4267,23.0706,肇庆市,睦岗子站,,,8,5,3,3,65,62,54,54,,18,7,6,0.6,0.6
2022-05-16T12:00:00,1398A,112.4645,23.0475,肇庆市,城中子站,,24,6,4,2,2,76,76,63,63,10,11,8,8,0.6,0.7
2022-05-16T12:00:00,1399A,112.5544,23.1522,肇庆市,坑口子站,,22,8,6,4,4,70,70,61,61,7,9,7,7,0.7,0.7
2022-05-16T12:00:00,1400A,112.4753,23.1,肇庆市,七星岩子站(对照点),,23,6,5,3,3,73,73,63,60,7,8,6,6,0.7,0.7
2022-05-16T12:00:00,1401A,108.3103,22.7881,南宁市,二十一中,,23,23,14,5,5,63,53,53,50,19,18,9,8,0.6,0.6
2022-05-16T12:00:00,1402A,108.3141,22.8528,南宁市,北湖,,,11,16,8,7,61,56,50,49,13,13,14,12,,0.7
2022-05-16T12:00:00,1403A,108.3206,22.8225,南宁市,市监测站,,20,20,13,7,8,59,53,53,48,25,22,12,12,0.6,0.6
2022-05-16T12:00:00,1404A,108.3829,22.8037,南宁市,大自然花园,,,18,13,8,8,62,55,53,50,19,17,,8,0.6,0.6
2022-05-16T12:00:00,1405A,108.4394,22.7904,南宁市,仙葫(对照点),,18,10,12,5,7,62,56,52,45,17,17,6,5,0.8,0.8
2022-05-16T12:00:00,1406A,108.2397,22.8467,南宁市,区农职院,,20,9,8,10,5,64,64,58,58,12,14,7,8,0.6,0.6
2022-05-16T12:00:00,1407A,108.3275,22.735,南宁市,英华嘉园,,18,18,14,5,6,59,49,51,49,24,19,5,5,0.6,0.6
2022-05-16T12:00:00,1408A,108.2257,22.7757,南宁市,沙井镇街道办,,18,17,16,8,6,59,57,52,52,14,14,5,5,0.5,0.6
2022-05-16T12:00:00,1409A,110.576,19.9507,海口市,东寨港(对照点),,,9,6,2,2,73,73,32,30,4,5,2,3,,0.5
2022-05-16T12:00:00,1410A,110.3232,20.0574,海口市,海南大学,,21,12,6,4,8,72,67,53,53,1,5,4,4,0.5,0.7
2022-05-16T12:00:00,1411A,110.283,20.0053,海口市,秀英海南医院,,,14,13,2,8,99,54,32,32,2,11,3,3,,0.8
2022-05-16T12:00:00,1412A,110.338,19.9969,海口市,海南师范大学,,16,3,12,2,5,77,49,42,42,5,11,2,2,0.6,0.6
2022-05-16T12:00:00,1413A,110.33,20.0356,海口市,龙华路环保局宿舍,,18,10,10,3,5,85,56,50,50,6,8,4,4,0.6,0.6
2022-05-16T12:00:00,1414A,106.3787,29.8279,重庆市,缙云山(对照点),,26,8,8,9,9,87,82,75,75,10,8,8,7,0.3,0.3
2022-05-16T12:00:00,1416A,106.4213,29.8253,重庆市,天生,,,,25,,18,78,78,35,35,,21,5,6,,0.8
2022-05-16T12:00:00,1417A,106.6263,29.7228,重庆市,两路,,28,28,20,13,8,80,80,54,46,25,23,5,5,0.5,0.6
2022-05-16T12:00:00,1418A,106.2953,29.5983,重庆市,虎溪,,28,26,26,19,18,77,77,46,40,8,13,5,6,0.6,0.5
2022-05-16T12:00:00,1419A,106.5777,29.5102,重庆市,南坪,,38,38,32,23,15,82,82,46,42,18,19,5,6,0.6,0.6
2022-05-16T12:00:00,1420A,106.6556,29.6277,重庆市,唐家沱,,32,32,28,11,13,69,68,28,27,26,28,4,4,0.5,0.5
2022-05-16T12:00:00,1421A,106.6349,29.4906,重庆市,茶园,,37,37,25,14,11,79,79,48,38,22,28,8,7,0.7,0.6
2022-05-16T12:00:00,1422A,106.3754,29.4572,重庆市,白市驿,,25,25,16,7,8,74,74,54,54,20,10,7,6,0.6,0.7
2022-05-16T12:00:00,1425A,106.6205,29.7166,重庆市,空港,,30,21,25,21,18,75,75,50,42,16,16,4,4,0.6,0.5
2022-05-16T12:00:00,1426A,106.4782,29.4875,重庆市,新山村,,30,30,23,20,14,74,74,59,42,31,33,4,4,0.8,0.9
2022-05-16T12:00:00,1427A,106.5616,29.6453,重庆市,礼嘉,,,,21,21,12,56,56,42,41,,28,10,9,0.5,0.4
2022-05-16T12:00:00,1428A,106.4522,29.7091,重庆市,蔡家,,26,11,13,12,10,83,83,40,40,12,15,5,4,0.5,0.5
2022-05-16T12:00:00,1429A,106.5093,29.3917,重庆市,鱼新街,,27,27,21,17,15,83,83,48,48,26,24,13,10,0.7,0.7
2022-05-16T12:00:00,1431A,103.9728,30.7236,成都市,金泉两河,细颗粒物(PM2.5),64,66,39,46,25,148,81,49,24,26,27,5,2,0.5,0.4
2022-05-16T12:00:00,1432A,104.1419,30.6764,成都市,十里店,"颗粒物(PM10),细颗粒物(PM2.5)",70,89,44,51,22,134,51,39,21,54,37,4,2,0.6,0.4
2022-05-16T12:00:00,1433A,104.0594,30.5767,成都市,三瓦窑,颗粒物(PM10),57,64,38,35,19,137,72,68,21,50,45,5,3,0.5,0.4
2022-05-16T12:00:00,1434A,104.1122,30.6306,成都市,沙河铺,颗粒物(PM10),61,72,37,41,21,141,36,34,20,70,38,5,3,0.7,0.5
2022-05-16T12:00:00,1437A,104.0431,30.6556,成都市,君平街,"颗粒物(PM10),细颗粒物(PM2.5)",59,67,44,42,24,140,78,33,26,48,51,4,3,0.8,0.6
2022-05-16T12:00:00,1438A,103.6202,31.0201,成都市,灵岩寺(对照点),,28,28,12,17,9,112,79,78,69,8,5,3,6,0.4,0.3
2022-05-16T12:00:00,1439A,106.6899,26.5998,贵阳市,马鞍山,,,7,7,5,8,68,64,54,54,,8,5,6,0.6,0.6
2022-05-16T12:00:00,1440A,106.6971,26.5694,贵阳市,市环保站,,18,18,8,5,7,60,55,60,47,13,14,4,4,0.3,0.3
2022-05-16T12:00:00,1441A,106.6243,26.6266,贵阳市,鉴湖路,,22,12,12,5,3,68,68,61,61,7,9,2,2,0.3,0.3
2022-05-16T12:00:00,1442A,106.7487,26.6343,贵阳市,燕子冲,,23,14,12,9,11,72,72,64,60,5,6,5,6,0.6,0.5
2022-05-16T12:00:00,1443A,106.6555,26.4365,贵阳市,碧云窝,,27,27,20,12,8,68,68,62,56,14,13,5,3,0.6,0.5
2022-05-16T12:00:00,1444A,106.694,26.5161,贵阳市,中院村,,23,19,14,12,6,72,72,63,58,7,14,6,6,0.4,0.4
2022-05-16T12:00:00,1447A,106.674,26.5424,贵阳市,太慈桥,,22,17,16,2,2,70,70,60,60,8,11,5,4,0.6,0.6
2022-05-16T12:00:00,1450A,102.8204,24.8886,昆明市,呈贡新区,,32,20,14,22,10,69,67,63,62,21,14,15,12,0.8,0.7
2022-05-16T12:00:00,1451A,102.6251,24.9608,昆明市,西山森林公园(对照点),,17,16,5,9,4,62,54,59,59,12,13,7,7,0.9,0.8
2022-05-16T12:00:00,1452A,102.7252,25.0902,昆明市,龙泉镇,,35,17,12,24,11,61,58,56,56,12,11,8,8,0.7,0.6
2022-05-16T12:00:00,1453A,102.7266,25.0375,昆明市,东风东路,,32,27,14,22,8,64,64,60,60,14,11,6,6,0.6,0.5
2022-05-16T12:00:00,1454A,102.6742,25.0669,昆明市,金鼎山,,,28,14,17,11,61,54,58,57,,10,11,10,0.5,0.5
2022-05-16T12:00:00,1455A,102.6644,25.0401,昆明市,碧鸡广场,,31,31,15,20,11,66,62,62,60,17,14,10,9,0.7,0.6
2022-05-16T12:00:00,1456A,91.1319,29.6514,拉萨市,八廓街,,36,11,27,10,22,147,114,106,106,4,12,6,6,0.2,0.2
2022-05-16T12:00:00,1457A,91.1221,29.6747,拉萨市,市环保局,,,21,30,8,16,134,,93,91,11,11,6,5,0.3,0.2
2022-05-16T12:00:00,1458A,91.0874,29.6475,拉萨市,区监测站,,34,10,30,1,13,135,107,98,98,8,16,7,6,0.2,0.2
2022-05-16T12:00:00,1459A,91.1774,29.6541,拉萨市,西藏大学,,,,,1,14,123,96,91,91,7,10,8,7,0.2,0.2
2022-05-16T12:00:00,1460A,90.9798,29.6588,拉萨市,区辐射站,,34,11,29,4,17,139,107,99,98,13,18,7,7,0.3,0.3
2022-05-16T12:00:00,1461A,91.0834,29.6292,拉萨市,拉萨火车站,,,12,33,0,12,139,,103,101,8,8,7,7,,0.3
2022-05-16T12:00:00,1462A,108.882,34.2749,西安市,高压开关厂,,41,38,52,12,18,131,131,78,78,14,46,5,6,0.2,0.4
2022-05-16T12:00:00,1463A,108.993,34.2629,西安市,兴庆小区,,40,40,36,16,11,139,127,74,74,19,35,4,5,0.3,0.5
2022-05-16T12:00:00,1464A,109.06,34.2572,西安市,纺织城,,50,50,45,14,14,136,130,71,71,18,44,6,6,0.2,0.2
2022-05-16T12:00:00,1465A,108.9356,34.2173,西安市,小寨,,39,38,33,17,11,134,122,71,71,15,38,2,2,0.2,0.3
2022-05-16T12:00:00,1466A,108.954,34.2713,西安市,市人民体育场,,42,42,38,17,16,134,126,72,72,14,32,6,5,0.4,0.4
2022-05-16T12:00:00,1467A,108.8922,34.2322,西安市,高新西区,,,,41,,16,130,,63,63,9,38,7,7,0.3,0.5
2022-05-16T12:00:00,1468A,108.935,34.3474,西安市,经开区,,48,48,57,15,19,138,127,72,72,12,46,4,4,0.2,0.4
2022-05-16T12:00:00,1469A,108.906,34.1546,西安市,长安区,,41,40,40,14,13,144,130,76,76,14,29,6,6,0.5,0.5
2022-05-16T12:00:00,1471A,109.2186,34.3731,西安市,临潼区,,44,44,38,15,15,147,134,106,106,15,24,3,3,0.3,0.3
2022-05-16T12:00:00,1472A,108.869,34.378,西安市,草滩(对照点),颗粒物(PM10),69,88,64,14,14,135,125,65,65,14,40,8,7,0.3,0.5
2022-05-16T12:00:00,1473A,108.985,34.1978,西安市,曲江文化产业集团,,40,40,40,12,13,128,116,59,59,22,53,4,4,0.5,0.6
2022-05-16T12:00:00,1474A,109.051,34.3213,西安市,广运潭,,39,39,40,12,13,142,122,81,81,14,30,3,4,0.4,0.5
2022-05-16T12:00:00,1476A,103.631,36.1031,兰州市,兰炼宾馆,,39,39,46,22,28,115,114,97,80,13,19,7,9,0.4,0.4
2022-05-16T12:00:00,1478A,103.8412,36.0726,兰州市,生物制品所,,46,46,50,17,22,121,104,89,55,28,29,11,9,0.7,0.6
2022-05-16T12:00:00,1479A,103.831,36.0464,兰州市,铁路设计院,,,42,48,27,27,112,94,86,67,,32,,8,1.0,0.5
2022-05-16T12:00:00,1483A,101.524,36.6867,西宁市,第五水厂(对照点),,38,34,28,26,19,132,118,86,79,13,16,13,9,0.7,1.3
2022-05-16T12:00:00,1484A,105.9512,38.6016,银川市,贺兰山马莲口(对照点),,37,16,19,3,8,131,116,116,116,4,4,7,7,0.3,0.3
2022-05-16T12:00:00,1488A,106.2328,38.4975,银川市,贺兰山东路,,35,30,30,7,14,126,110,68,68,6,28,4,6,0.3,0.4
2022-05-16T12:00:00,1489A,106.1358,38.5036,银川市,学院路,,36,36,45,7,14,132,114,68,63,5,26,5,7,0.3,0.4
2022-05-16T12:00:00,1490A,87.5801,43.8303,乌鲁木齐市,监测站,,26,26,69,2,22,125,79,86,80,14,14,7,7,0.4,0.4
2022-05-16T12:00:00,1491A,87.6046,43.768,乌鲁木齐市,收费所,,35,27,66,24,26,116,69,85,78,18,10,6,7,0.3,0.3
2022-05-16T12:00:00,1492A,87.4754,43.9469,乌鲁木齐市,新疆农科院农场(对照点),颗粒物(PM10),60,70,91,22,31,123,82,80,80,8,9,5,7,0.5,0.4
2022-05-16T12:00:00,1493A,87.5525,43.8711,乌鲁木齐市,铁路局,,24,21,68,9,23,124,76,84,80,15,13,7,8,0.5,0.5
2022-05-16T12:00:00,1494A,87.6432,43.831,乌鲁木齐市,三十一中学,,23,21,69,7,20,127,73,90,81,14,7,9,11,0.3,0.3
2022-05-16T12:00:00,1496A,87.7216,44.1747,乌鲁木齐市,米东区环保局,,27,27,100,12,27,132,83,72,72,10,11,7,11,0.2,0.3
2022-05-16T12:00:00,1508A,112.9433,27.8614,湘潭市,板塘,,48,40,37,33,35,118,118,75,75,8,10,6,6,0.2,0.2
2022-05-16T12:00:00,1511A,112.9118,27.8403,湘潭市,市监测站,,,37,37,34,56,109,109,63,63,,20,8,8,0.7,0.6
2022-05-16T12:00:00,1512A,112.8937,27.8728,湘潭市,江麓,,42,42,43,23,40,116,116,70,70,12,15,8,5,0.6,0.7
2022-05-16T12:00:00,1513A,112.9227,27.8159,湘潭市,岳塘,,50,50,42,31,47,121,121,74,74,17,21,7,8,0.2,0.2
2022-05-16T12:00:00,1514A,112.9074,27.9119,湘潭市,科大,,40,39,41,28,35,116,116,67,67,16,22,5,4,0.6,0.6
2022-05-16T12:00:00,1515A,113.135,27.8244,株洲市,天台山庄,,,44,34,40,41,103,103,65,65,21,25,,5,,0.6
2022-05-16T12:00:00,1518A,113.095,27.8867,株洲市,株冶医院,,45,34,32,31,34,106,106,65,65,9,24,8,6,0.3,0.5
2022-05-16T12:00:00,1519A,113.167,27.8667,株洲市,市四中,细颗粒物(PM2.5),67,47,36,48,44,114,114,67,67,6,16,4,5,0.5,0.6
2022-05-16T12:00:00,1520A,113.143,27.8381,株洲市,火车站,细颗粒物(PM2.5),53,51,49,37,37,110,110,71,71,18,25,8,6,0.3,0.4
2022-05-16T12:00:00,1524A,113.13,27.8528,株洲市,市监测站,细颗粒物(PM2.5),74,53,47,54,53,106,106,64,64,15,24,6,5,0.5,0.6
2022-05-16T12:00:00,1552A,106.805,26.3003,贵阳市,桐木岭(对照点),,27,27,22,9,12,83,83,72,72,5,5,11,8,0.3,0.3
2022-05-16T12:00:00,1559A,113.251,27.8336,株洲市,大京风景区(对照点),颗粒物(PM10),64,77,64,22,23,102,102,66,66,17,20,5,4,0.5,0.7
2022-05-16T12:00:00,1562A,113.0048,27.9153,湘潭市,昭山,细颗粒物(PM2.5),52,39,36,36,45,90,90,52,52,16,19,6,6,0.6,0.6
2022-05-16T12:00:00,1564A,112.4876,27.9164,湘潭市,韶山(对照点),,42,42,56,17,25,111,111,60,60,9,8,5,2,0.5,0.6
2022-05-16T12:00:00,1585A,109.8756,40.6532,包头市,市环境监测站,颗粒物(PM10),62,73,44,35,15,106,89,36,35,46,38,40,14,2.4,1
2022-05-16T12:00:00,1587A,109.9991,40.5842,包头市,包头八中,颗粒物(PM10),53,56,47,12,17,112,101,43,43,14,37,12,16,0.4,0.6
2022-05-16T12:00:00,1588A,109.8538,40.6821,包头市,青山宾馆,颗粒物(PM10),58,65,36,24,12,104,90,41,41,56,33,55,16,3.1,0.9
2022-05-16T12:00:00,1589A,109.8642,40.6288,包头市,惠龙物流,,,68,48,41,22,109,,37,17,25,36,21,25,0.9,0.8
2022-05-16T12:00:00,1590A,110.0377,40.5546,包头市,东河鸿龙湾,,,51,40,14,15,105,,25,25,6,29,10,9,0.4,0.6
2022-05-16T12:00:00,1591A,110.0023,39.8129,鄂尔多斯市,综合楼,,32,24,33,17,21,111,102,96,83,8,16,4,6,0.4,0.5
2022-05-16T12:00:00,1592A,109.9486,39.8261,鄂尔多斯市,巴音孟克林场办事处,,34,31,35,7,12,116,107,98,88,5,10,6,6,0.4,0.5
2022-05-16T12:00:00,1593A,109.7736,39.5986,鄂尔多斯市,康泽苑,,35,31,29,7,6,117,111,88,88,2,7,4,4,0.3,0.3
2022-05-16T12:00:00,1595A,109.9734,39.7884,鄂尔多斯市,奥林花园,,33,31,36,14,13,113,103,82,82,6,16,5,5,0.3,0.4
2022-05-16T12:00:00,1597A,122.2703,40.7094,营口市,大庆路,,40,25,37,14,21,132,127,131,110,6,8,8,6,0.6,0.7
2022-05-16T12:00:00,1598A,122.215,40.6511,营口市,镜湖西路,,38,29,33,5,16,138,121,135,112,7,13,5,5,0.4,0.5
2022-05-16T12:00:00,1599A,122.167,40.6655,营口市,西炮台,,44,22,26,11,17,139,139,128,128,13,18,6,5,0.5,0.6
2022-05-16T12:00:00,1600A,124.3303,40.0625,丹东市,江湾东路,,41,36,45,22,27,151,131,115,115,9,11,10,11,0.6,0.6
2022-05-16T12:00:00,1601A,124.4256,40.1503,丹东市,临江后街,,,,,6,11,146,129,106,106,6,9,15,12,1.1,1.1
2022-05-16T12:00:00,1602A,124.3933,40.1461,丹东市,元宝山,,39,29,42,16,27,149,123,113,105,7,10,16,13,0.8,0.9
2022-05-16T12:00:00,1603A,124.3633,40.1092,丹东市,民主桥,,39,31,44,14,31,148,122,109,109,5,7,14,13,0.9,0.9
2022-05-16T12:00:00,1604A,122.0303,41.1489,盘锦市,开发区,,33,16,38,8,24,112,104,75,59,12,26,6,11,0.5,0.7
2022-05-16T12:00:00,1605A,122.0485,41.0883,盘锦市,兴隆台,,,10,44,10,22,110,100,73,49,15,28,,10,0.5,0.8
2022-05-16T12:00:00,1606A,121.8297,41.1028,盘锦市,新生街道,,34,21,30,7,14,118,107,73,60,10,22,7,14,0.5,0.8
2022-05-16T12:00:00,1607A,120.9092,40.7136,葫芦岛市,龙港区,,47,47,29,13,12,125,101,79,68,16,25,18,17,0.4,0.5
2022-05-16T12:00:00,1608A,120.8392,40.7514,葫芦岛市,化工街,,32,21,37,20,22,113,100,60,60,7,42,10,9,0.2,0.5
2022-05-16T12:00:00,1609A,120.8341,40.7073,葫芦岛市,新区,颗粒物(PM10),57,63,40,30,23,120,94,61,61,31,38,20,13,0.7,0.6
2022-05-16T12:00:00,1610A,120.8695,40.7677,葫芦岛市,东城区,,,,45,18,18,109,,58,58,15,37,69,14,0.5,0.5
2022-05-16T12:00:00,1611A,118.5819,24.9117,泉州市,涂山街,,30,7,4,6,4,110,96,102,92,8,9,6,5,0.4,0.4
2022-05-16T12:00:00,1612A,118.5972,24.8978,泉州市,津头埔,,28,28,10,10,6,103,88,102,85,14,14,5,5,0.4,0.4
2022-05-16T12:00:00,1613A,118.6663,24.9424,泉州市,万安,,,,9,,4,109,89,108,87,12,9,,5,0.5,0.5
2022-05-16T12:00:00,1614A,118.6117,24.9604,泉州市,清源山(对照点),,27,8,4,6,3,108,86,105,89,5,7,6,6,0.3,0.3
2022-05-16T12:00:00,1616A,117.6795,36.229,济南市,技术学院,颗粒物(PM10),74,97,79,45,40,144,144,84,84,24,38,30,23,1.9,1.2
2022-05-16T12:00:00,1618A,118.3429,35.0532,临沂市,沂河小区,颗粒物(PM10),64,78,67,22,23,145,132,82,82,19,29,15,14,0.5,0.4
2022-05-16T12:00:00,1619A,118.295,35.0583,临沂市,鲁南制药厂,细颗粒物(PM2.5),63,73,67,45,27,162,147,91,91,18,33,15,14,0.4,0.4
2022-05-16T12:00:00,1620A,118.2794,34.9976,临沂市,新光毛纺厂,颗粒物(PM10),68,85,71,29,24,157,142,90,90,10,24,11,15,0.6,0.6
2022-05-16T12:00:00,1621A,118.3956,35.0888,临沂市,河东保险公司,颗粒物(PM10),62,73,51,28,21,156,143,90,90,18,24,15,12,0.2,0.2
2022-05-16T12:00:00,1622A,116.3032,37.4674,德州市,儿童乐园,颗粒物(PM10),52,53,72,13,25,150,107,98,74,14,18,11,11,0.4,0.4
2022-05-16T12:00:00,1624A,116.2991,37.4451,德州市,监理站,细颗粒物(PM2.5),62,64,62,44,35,153,100,74,71,20,18,22,14,0.5,0.4
2022-05-16T12:00:00,1625A,115.9848,36.4372,聊城市,区政府,颗粒物(PM10),75,100,66,20,23,154,105,92,65,17,19,19,14,0.8,0.5
2022-05-16T12:00:00,1628A,118.0062,37.3803,滨州市,市环保局,,,94,72,50,38,159,,93,93,12,19,,14,1.0,0.8
2022-05-16T12:00:00,1629A,118.0018,37.3617,滨州市,第二水厂,,,100,99,41,32,136,114,79,79,12,28,17,14,,0.6
2022-05-16T12:00:00,1630A,117.9776,37.393,滨州市,北中新校,颗粒物(PM10),60,70,58,28,25,148,124,96,96,16,22,25,17,0.8,0.6
2022-05-16T12:00:00,1631A,118.0414,36.8103,淄博市,人民公园,颗粒物(PM10),51,51,53,17,25,144,137,109,109,12,31,8,10,0.5,0.4
2022-05-16T12:00:00,1633A,117.8525,36.4847,淄博市,双山,,49,42,49,34,27,139,137,123,110,10,14,8,8,0.4,0.3
2022-05-16T12:00:00,1634A,117.9592,36.6331,淄博市,气象站,细颗粒物(PM2.5),67,41,55,48,26,140,132,124,112,9,15,10,14,0.3,0.3
2022-05-16T12:00:00,1635A,118.3092,36.8194,淄博市,莆田园,,,,63,,25,139,134,119,119,18,24,,17,0.6,0.8
2022-05-16T12:00:00,1637A,117.558,34.8438,枣庄市,市中区政府,颗粒物(PM10),58,66,55,17,16,168,148,112,101,14,17,11,13,0.5,0.4
2022-05-16T12:00:00,1638A,117.2852,34.7837,枣庄市,薛城环保局,颗粒物(PM10),64,78,57,39,25,156,134,99,88,17,22,18,14,0.8,0.8
2022-05-16T12:00:00,1639A,117.5852,34.7745,枣庄市,峄城区政府,颗粒物(PM10),58,66,46,19,12,152,137,106,106,16,17,14,11,0.6,0.4
2022-05-16T12:00:00,1640A,117.7276,34.5578,枣庄市,台儿庄区环保局,颗粒物(PM10),59,68,53,19,18,158,133,80,80,25,30,14,10,0.8,0.7
2022-05-16T12:00:00,1641A,117.4518,35.0992,枣庄市,山亭区环保局,颗粒物(PM10),60,70,46,32,21,155,138,99,99,22,23,22,15,0.6,0.5
2022-05-16T12:00:00,1642A,121.2514,37.5639,烟台市,开发区,颗粒物(PM10),69,88,68,27,29,179,163,115,115,13,25,11,8,0.5,0.5
2022-05-16T12:00:00,1643A,121.3719,37.5433,烟台市,轴承厂,臭氧1小时,60,63,56,24,29,168,168,129,129,8,18,9,8,0.6,0.6
2022-05-16T12:00:00,1644A,121.3181,37.5436,烟台市,西郊化工站,颗粒物(PM10),63,75,56,29,24,155,155,119,119,13,18,14,15,0.5,0.6
2022-05-16T12:00:00,1645A,121.4478,37.4822,烟台市,莱山环保局,臭氧1小时,64,66,61,23,29,171,171,133,133,6,15,10,8,0.4,0.4
2022-05-16T12:00:00,1646A,121.2611,37.4967,烟台市,福山环保局,,,,65,27,25,159,159,105,105,6,22,13,10,0.5,0.5
2022-05-16T12:00:00,1650A,119.1437,36.7023,潍坊市,环保局,,,61,53,24,23,145,145,99,99,,25,,9,0.6,0.7
2022-05-16T12:00:00,1653A,116.6251,35.4302,济宁市,火炬城,颗粒物(PM10),62,74,58,36,23,152,126,94,81,22,21,19,14,0.7,0.5
2022-05-16T12:00:00,1655A,116.5491,35.4042,济宁市,电化厂,颗粒物(PM10),61,71,61,34,25,149,126,80,80,14,21,18,13,0.8,0.7
2022-05-16T12:00:00,1656A,117.1437,36.1937,泰安市,监测站,颗粒物(PM10),69,88,61,36,24,139,126,93,90,15,18,15,11,0.5,0.4
2022-05-16T12:00:00,1657A,117.0885,36.2017,泰安市,人口学校,颗粒物(PM10),65,80,59,28,21,137,121,111,84,22,20,14,11,0.3,0.2
2022-05-16T12:00:00,1658A,117.1089,36.1758,泰安市,电力学校,颗粒物(PM10),64,78,59,11,44,137,123,84,84,15,24,14,11,0.4,0.3
2022-05-16T12:00:00,1659A,119.471,35.4209,日照市,监测站,颗粒物(PM10),69,88,69,21,31,143,140,70,70,11,43,8,9,0.3,0.5
2022-05-16T12:00:00,1660A,119.523,35.4216,日照市,市政府广场,颗粒物(PM10),57,63,66,29,32,160,151,88,88,8,37,9,10,0.4,0.7
2022-05-16T12:00:00,1661A,119.5587,35.4044,日照市,港务局,,,127,80,18,29,176,111,70,70,,44,,9,0.6,0.8
2022-05-16T12:00:00,1662A,122.1214,37.4236,威海市,华夏技校,,47,46,44,19,24,148,148,138,138,6,10,5,5,0.3,0.4
2022-05-16T12:00:00,1663A,122.0508,37.5236,威海市,山大分校,臭氧1小时,65,54,39,15,19,220,172,148,148,9,12,8,9,0.3,0.3
2022-05-16T12:00:00,1664A,122.1067,37.5072,威海市,市监测站,颗粒物(PM10),55,59,43,18,18,164,151,147,139,7,10,9,10,0.3,0.4
2022-05-16T12:00:00,1666A,118.6614,37.4309,东营市,市环保局,颗粒物(PM10),58,66,69,39,39,154,154,95,95,14,30,46,18,0.6,0.6
2022-05-16T12:00:00,1669A,113.5824,24.7733,韶关市,市八中,,26,17,10,5,2,93,82,89,82,10,10,11,8,0.7,0.7
2022-05-16T12:00:00,1671A,113.5917,24.7972,韶关市,园林处,,27,14,10,8,10,90,84,85,80,8,7,10,6,0.6,0.6
2022-05-16T12:00:00,1672A,113.6735,24.7791,韶关市,韶关学院,,28,7,11,5,3,87,87,72,72,7,9,3,5,0.4,0.4
2022-05-16T12:00:00,1673A,113.5971,24.6863,韶关市,曲江监测站,,25,20,11,2,1,87,80,82,79,11,9,7,7,0.6,0.6
2022-05-16T12:00:00,1674A,116.6794,23.3667,汕头市,金平子站,,30,13,7,3,4,107,94,97,96,11,9,8,8,0.5,0.5
2022-05-16T12:00:00,1675A,116.7244,23.3633,汕头市,龙湖子站,,,,9,2,2,109,94,102,98,10,9,7,6,0.6,0.6
2022-05-16T12:00:00,1676A,116.7258,23.2775,汕头市,濠江子站,,32,8,6,3,3,114,101,109,104,7,6,9,8,0.4,0.4
2022-05-16T12:00:00,1677A,116.7519,23.4714,汕头市,澄海子站,,,13,6,,4,104,87,98,96,11,11,5,5,0.7,0.6
2022-05-16T12:00:00,1678A,116.6092,23.2539,汕头市,潮阳子站,,,9,6,,1,114,93,107,100,9,7,8,7,0.5,0.5
2022-05-16T12:00:00,1680A,110.3539,21.2706,湛江市,湛江影剧院,,16,7,8,2,3,118,50,47,44,6,6,6,10,0.7,0.7
2022-05-16T12:00:00,1681A,110.3928,21.2228,湛江市,市环境监测站,,17,4,7,1,3,138,54,52,52,8,7,5,6,0.5,0.6
2022-05-16T12:00:00,1682A,110.4019,21.1997,湛江市,环保局宿舍,,17,11,8,1,4,131,52,49,48,6,6,4,5,0.6,0.7
2022-05-16T12:00:00,1683A,110.4111,21.2028,湛江市,霞山游泳场,,16,7,7,3,4,120,51,50,48,6,7,5,5,0.6,0.6
2022-05-16T12:00:00,1684A,110.3316,21.2679,湛江市,麻章区环保局,,16,6,10,2,4,102,50,48,48,5,6,7,8,0.5,0.6
2022-05-16T12:00:00,1685A,110.4558,21.2567,湛江市,坡头区环保局,,17,7,9,3,6,141,53,51,50,5,6,5,5,0.7,0.8
2022-05-16T12:00:00,1686A,111.0286,21.4688,茂名市,电白南海,,18,12,12,2,3,111,56,48,48,6,10,5,5,0.7,0.8
2022-05-16T12:00:00,1687A,110.9294,21.6533,茂名市,茂石化七小,,,17,10,7,6,75,,40,38,10,10,8,8,0.7,0.7
2022-05-16T12:00:00,1688A,110.9107,21.6687,茂名市,健康路,,15,5,7,1,2,73,45,41,40,8,8,11,10,0.6,0.7
2022-05-16T12:00:00,1689A,110.8592,21.6828,茂名市,高岭,,15,7,7,2,3,81,48,44,42,8,7,16,12,0.7,0.7
2022-05-16T12:00:00,1690A,116.1231,24.3284,梅州市,梅江月梅,,,14,4,10,2,65,33,57,54,28,15,4,3,,0.6
2022-05-16T12:00:00,1691A,116.0797,24.2719,梅州市,梅县新城,,19,5,4,2,0,76,59,66,62,11,11,5,3,0.7,0.7
2022-05-16T12:00:00,1692A,116.1248,24.2654,梅州市,环境监控中心,,16,8,5,4,2,70,50,62,56,21,15,5,4,0.6,0.6
2022-05-16T12:00:00,1693A,115.3653,22.775,汕尾市,市环保局,,20,9,5,4,5,97,61,85,60,11,8,7,7,0.6,0.6
2022-05-16T12:00:00,1694A,115.3706,22.7898,汕尾市,市政府,,18,12,6,1,0,92,56,88,55,13,9,6,6,0.6,0.5
2022-05-16T12:00:00,1695A,115.3622,22.7925,汕尾市,新城中学,,20,7,5,3,3,96,64,92,61,5,5,6,6,0.7,0.7
2022-05-16T12:00:00,1696A,114.6778,23.7569,河源市,源西(对照点),,25,4,8,2,3,80,79,77,75,1,4,5,4,0.4,0.4
2022-05-16T12:00:00,1697A,114.6944,23.7586,河源市,东埔,,26,6,7,5,5,85,82,82,82,10,9,4,4,0.7,0.6
2022-05-16T12:00:00,1698A,114.6892,23.7233,河源市,老城,,,9,6,3,2,86,,82,81,12,10,3,2,0.8,0.8
2022-05-16T12:00:00,1699A,111.9797,21.8593,阳江市,鸳鸯湖(对照点),,24,18,9,3,6,80,75,68,68,8,10,6,6,0.7,0.7
2022-05-16T12:00:00,1701A,111.9491,21.8658,阳江市,马南垌,,24,13,11,2,5,80,74,65,65,11,14,4,5,0.6,0.6
2022-05-16T12:00:00,1702A,113.0426,23.691,清远市,环保大楼(对照点),,27,10,5,5,5,103,85,96,92,8,8,3,3,0.6,0.5
2022-05-16T12:00:00,1703A,113.0208,23.7106,清远市,凤城街办,,23,10,5,6,3,86,72,81,75,6,7,4,4,0.7,0.7
2022-05-16T12:00:00,1705A,116.6367,23.6719,潮州市,西园路(对照点),,21,13,7,6,6,86,66,70,65,11,9,4,4,0.9,0.7
2022-05-16T12:00:00,1706A,116.6447,23.6706,潮州市,档案局,,22,16,7,4,3,85,70,69,67,16,11,8,8,0.8,0.6
2022-05-16T12:00:00,1708A,116.3701,23.5345,揭阳市,新兴,,24,16,11,16,11,87,74,82,78,15,10,10,7,0.8,0.7
2022-05-16T12:00:00,1709A,116.3264,23.5443,揭阳市,西马,,32,25,13,22,11,87,66,77,74,19,9,7,6,0.7,0.6
2022-05-16T12:00:00,1710A,116.3611,23.5626,揭阳市,东兴,,20,20,12,11,6,88,62,78,69,19,11,6,6,0.9,0.7
2022-05-16T12:00:00,1711A,116.4151,23.5294,揭阳市,渔湖,,,,9,,4,87,,78,73,,9,,6,,0.5
2022-05-16T12:00:00,1714A,112.0539,22.9539,云浮市,牧羊,,18,15,8,3,2,64,57,64,54,10,9,12,12,0.6,0.6
2022-05-16T12:00:00,1715A,102.575,24.3711,玉溪市,东风水库,,18,5,9,6,8,62,56,59,59,7,7,7,7,0.7,0.7
2022-05-16T12:00:00,1718A,115.4208,35.2464,菏泽市,气象局,,,74,76,20,27,160,133,88,85,17,21,,12,0.4,0.4
2022-05-16T12:00:00,1719A,115.4747,35.2375,菏泽市,市政协,颗粒物(PM10),68,85,86,25,25,160,133,90,75,17,20,14,12,0.4,0.3
2022-05-16T12:00:00,1721A,113.3819,40.1097,大同市,果树场(对照点),,32,30,47,15,20,110,101,63,63,8,21,12,14,0.2,0.2
2022-05-16T12:00:00,1723A,113.2994,40.0758,大同市,云冈宾馆,,45,45,51,15,14,106,89,41,41,14,26,15,13,0.6,0.7
2022-05-16T12:00:00,1724A,113.3444,40.0917,大同市,大同大学,,,,36,,12,109,,50,50,11,24,10,15,0.3,0.4
2022-05-16T12:00:00,1725A,113.2661,40.1269,大同市,安家小村,,34,33,59,10,13,112,108,52,52,6,24,12,18,0.2,0.8
2022-05-16T12:00:00,1726A,113.2711,40.0844,大同市,教育学院,,35,35,43,24,11,100,93,57,45,11,24,11,15,0.3,0.5
2022-05-16T12:00:00,1727A,113.1147,36.1547,长治市,清华站,,39,39,48,7,20,123,114,62,62,4,23,9,9,0.4,0.5
2022-05-16T12:00:00,1728A,113.1031,36.1989,长治市,监测站,,39,34,45,9,21,135,123,73,73,10,32,9,10,0.3,0.6
2022-05-16T12:00:00,1730A,113.0886,36.2125,长治市,审计局,,39,35,44,5,21,137,122,70,70,8,33,9,11,0.6,0.8
2022-05-16T12:00:00,1731A,113.0844,36.1856,长治市,长治八中,,46,46,55,12,18,130,117,70,70,10,35,9,14,0.3,0.6
2022-05-16T12:00:00,1733A,111.5531,36.0783,临汾市,临钢医院,颗粒物(PM10),54,58,62,26,35,153,116,46,46,23,40,29,15,1.2,1
2022-05-16T12:00:00,1734A,111.5028,36.0714,临汾市,技工学校,细颗粒物(PM2.5),55,56,62,39,45,156,112,49,49,25,41,37,23,1.1,0.8
2022-05-16T12:00:00,1736A,111.5018,36.0855,临汾市,市委,颗粒物(PM10),63,76,66,40,44,160,113,50,50,25,44,38,23,1.6,1
2022-05-16T12:00:00,1738A,113.5758,37.8572,阳泉市,市中心,,,50,68,30,22,111,102,66,66,,45,14,18,,0.6
2022-05-16T12:00:00,1739A,113.4894,37.8731,阳泉市,赛鱼,,,38,52,11,22,112,105,59,59,24,50,,19,0.3,0.4
2022-05-16T12:00:00,1740A,113.5819,37.8486,阳泉市,南庄,颗粒物(PM10),52,53,64,26,30,111,106,67,67,21,43,12,16,0.4,0.6
2022-05-16T12:00:00,1742A,113.5614,37.8703,阳泉市,平坦,,45,45,58,21,26,114,110,66,66,19,52,12,18,0.5,0.5
2022-05-16T12:00:00,1743A,113.5158,37.8392,阳泉市,大阳泉,,40,40,34,17,20,113,106,79,79,23,28,12,14,0.4,0.4
2022-05-16T12:00:00,1744A,118.9233,42.2816,赤峰市,松山一中,,30,25,27,5,9,106,95,63,63,9,20,6,7,0.4,0.5
2022-05-16T12:00:00,1745A,118.9576,42.2728,赤峰市,哈达街,,28,25,26,2,5,104,89,58,58,13,20,12,11,0.4,0.5
2022-05-16T12:00:00,1746A,118.8788,42.2554,赤峰市,天义路,,30,20,24,4,7,105,94,70,67,11,17,8,8,0.5,0.5
2022-05-16T12:00:00,1748A,123.044,41.1196,鞍山市,深沟寺,,31,21,49,11,24,118,98,89,84,9,21,8,18,0.5,1.2
2022-05-16T12:00:00,1749A,123.011,41.0931,鞍山市,太阳城,,28,22,50,12,26,111,87,78,72,21,26,28,22,1.0,1.3
2022-05-16T12:00:00,1750A,123.0485,41.1442,鞍山市,太平,,37,37,39,12,17,110,94,89,89,9,22,11,17,0.5,1
2022-05-16T12:00:00,1751A,122.9642,41.0971,鞍山市,铁西三道街,,32,26,56,14,26,114,101,85,84,9,21,16,19,0.7,1.1
2022-05-16T12:00:00,1752A,122.9341,41.0833,鞍山市,铁西工业园区,,31,30,44,15,26,115,99,87,87,9,17,23,20,0.7,0.9
2022-05-16T12:00:00,1753A,123.022,41.0821,鞍山市,明达新区,,32,32,50,18,24,116,88,91,79,23,24,27,21,1.1,1.2
2022-05-16T12:00:00,1754A,123.1289,41.0228,鞍山市,千山(对照点),,26,26,25,16,14,101,80,80,69,19,15,21,15,1.1,1
2022-05-16T12:00:00,1755A,123.7977,41.8491,抚顺市,望花区,,35,35,63,9,27,106,97,57,57,5,26,5,24,0.3,0.9
2022-05-16T12:00:00,1756A,123.9161,41.8822,抚顺市,顺城区,,46,46,68,8,23,103,90,50,42,8,29,6,17,0.4,0.8
2022-05-16T12:00:00,1757A,124.0436,41.8611,抚顺市,东洲区,,33,33,45,9,20,113,98,60,57,9,19,4,11,0.4,0.8
2022-05-16T12:00:00,1758A,123.9247,41.8642,抚顺市,新抚区,,37,37,60,15,22,107,94,58,47,6,22,3,10,0.5,0.9
2022-05-16T12:00:00,1759A,124.0972,41.8961,抚顺市,大伙房水库,,,30,37,9,19,119,,70,62,4,12,5,10,0.3,0.6
2022-05-16T12:00:00,1760A,123.7086,41.8391,抚顺市,沈抚新城,,33,31,59,9,24,116,104,63,63,4,26,6,22,0.3,0.8
2022-05-16T12:00:00,1761A,123.8275,41.3064,本溪市,大峪,,,45,53,12,21,110,,104,55,10,26,12,18,0.5,1.1
2022-05-16T12:00:00,1762A,123.7567,41.3325,本溪市,溪湖,,33,33,51,18,28,122,104,78,64,6,32,16,31,0.5,1.9
2022-05-16T12:00:00,1763A,123.7169,41.3094,本溪市,彩屯,,,35,48,17,33,116,,65,65,6,22,14,19,0.5,1.3
2022-05-16T12:00:00,1764A,123.7669,41.2864,本溪市,东明,,44,44,44,18,20,102,91,102,74,15,27,22,23,0.7,1.1
2022-05-16T12:00:00,1765A,123.7992,41.2664,本溪市,新立屯,,40,40,38,15,14,110,92,93,86,9,17,20,16,0.9,0.8
2022-05-16T12:00:00,1766A,123.8142,41.3472,本溪市,威宁,,37,37,44,7,17,120,101,99,59,6,20,21,19,0.5,0.6
2022-05-16T12:00:00,1767A,121.1115,41.0879,锦州市,南山,,,23,42,8,23,103,90,60,60,3,14,7,20,,
2022-05-16T12:00:00,1768A,121.0533,40.8434,锦州市,开发区,,41,41,81,12,26,103,87,64,64,11,41,21,37,0.5,0.8
2022-05-16T12:00:00,1769A,121.1836,41.1119,锦州市,百股街道,,31,29,42,9,22,113,97,62,62,6,18,6,13,0.5,0.8
2022-05-16T12:00:00,1770A,121.1178,41.1222,锦州市,天安街道,,32,32,48,1,18,111,96,62,61,8,22,8,16,0.4,0.7
2022-05-16T12:00:00,1771A,121.1303,41.1386,锦州市,北湖公园,,35,35,39,7,17,96,87,58,49,4,17,8,15,0.4,0.6
2022-05-16T12:00:00,1772A,126.54,43.8622,吉林市,哈达湾,,33,17,20,9,13,108,105,69,69,7,12,5,5,0.4,0.5
2022-05-16T12:00:00,1773A,126.5844,43.8358,吉林市,东局子,,32,22,27,13,14,105,101,66,66,10,13,6,3,0.5,0.6
2022-05-16T12:00:00,1774A,126.5052,43.8245,吉林市,电力学院,,,19,29,,,119,119,73,73,6,13,13,13,0.5,0.6
2022-05-16T12:00:00,1775A,126.6133,43.8972,吉林市,江北,,33,18,20,10,14,105,104,64,64,8,18,12,8,0.5,0.5
2022-05-16T12:00:00,1776A,126.555,43.8306,吉林市,江南公园,,,,25,,14,100,,60,60,8,11,6,5,,0.5
2022-05-16T12:00:00,1779A,123.9305,47.3636,齐齐哈尔市,安居小区,颗粒物(PM10),51,51,58,8,23,98,87,62,62,14,29,2,4,0.3,0.4
2022-05-16T12:00:00,1780A,123.9488,47.3386,齐齐哈尔市,中心广场,,30,14,35,2,17,101,95,75,75,9,20,7,8,0.2,0.4
2022-05-16T12:00:00,1781A,123.9483,47.3227,齐齐哈尔市,农牧车辆厂,,32,24,43,8,20,106,101,78,78,6,18,2,3,0.3,0.5
2022-05-16T12:00:00,1783A,123.945,47.2988,齐齐哈尔市,市环境监测站,,30,22,43,11,27,102,96,74,74,7,18,6,6,0.5,0.5
2022-05-16T12:00:00,1784A,129.61,44.561,牡丹江市,环保大楼,,,21,23,5,10,101,101,60,60,,9,3,3,0.3,0.4
2022-05-16T12:00:00,1785A,129.6115,44.5782,牡丹江市,文化广场,,30,17,20,11,13,96,96,62,61,7,11,2,3,0.3,0.3
2022-05-16T12:00:00,1786A,129.5904,44.5963,牡丹江市,第一医院,,,,,,,95,95,60,60,5,9,3,3,0.5,0.6
2022-05-16T12:00:00,1787A,129.6364,44.6075,牡丹江市,机车工厂,,31,13,15,7,7,99,99,58,58,4,11,5,7,0.2,0.3
2022-05-16T12:00:00,1788A,129.6386,44.5462,牡丹江市,第一中学,,32,5,17,6,11,100,100,62,62,6,19,1,1,0.3,0.3
2022-05-16T12:00:00,1789A,124.81117,46.03138,大庆市,大同区,,31,15,23,12,12,102,98,84,83,4,7,4,4,0.4,0.5
2022-05-16T12:00:00,1790A,125.129,46.533,大庆市,龙凤区,,32,31,38,10,18,102,100,80,80,10,15,6,9,0.4,0.3
2022-05-16T12:00:00,1791A,124.902,46.408,大庆市,红岗区,,,11,20,9,14,106,98,83,83,,9,,6,0.5,0.5
2022-05-16T12:00:00,1792A,125.153,46.586,大庆市,萨尔图区,,32,24,29,20,22,104,101,80,80,9,12,5,6,0.4,0.4
2022-05-16T12:00:00,1793A,124.9042,46.6215,大庆市,让胡路区,,40,24,34,28,28,119,112,92,92,6,19,8,10,0.3,0.4
2022-05-16T12:00:00,1794A,118.3606,31.3519,芜湖市,监测站,颗粒物(PM10),62,74,53,43,26,155,155,66,66,22,57,15,12,1.0,0.7
2022-05-16T12:00:00,1795A,118.3714,31.4134,芜湖市,科创中心,,,,51,,29,156,149,59,59,,52,10,9,0.7,0.6
2022-05-16T12:00:00,1796A,118.3673,31.3131,芜湖市,四水厂,颗粒物(PM10),67,84,56,40,28,156,153,72,72,27,42,14,12,1.1,1
2022-05-16T12:00:00,1798A,118.5092,31.6837,马鞍山市,湖东路四小,臭氧1小时,64,56,50,34,35,171,171,106,106,11,28,5,8,0.4,0.6
2022-05-16T12:00:00,1799A,118.5024,31.6449,马鞍山市,开发区,臭氧1小时,54,42,56,34,29,166,163,93,93,7,39,8,10,0.5,0.7
2022-05-16T12:00:00,1800A,118.5228,31.7231,马鞍山市,慈湖,颗粒物(PM10),52,54,64,25,35,164,153,85,85,8,35,11,19,0.5,1
2022-05-16T12:00:00,1802A,118.6245,31.7241,马鞍山市,濮塘(对照点),,49,45,52,22,28,159,154,98,98,8,20,10,13,0.6,0.7
2022-05-16T12:00:00,1803A,115.9872,29.6815,九江市,十里,,50,50,45,26,26,159,142,88,88,20,31,10,6,0.9,0.5
2022-05-16T12:00:00,1804A,115.9584,29.7046,九江市,茅山头,,,55,38,36,25,155,121,79,79,,26,8,5,0.7,0.8
2022-05-16T12:00:00,1805A,115.9877,29.7295,九江市,西园,,,64,48,,22,145,,80,78,,31,,7,,0.5
2022-05-16T12:00:00,1806A,116.0172,29.6547,九江市,五七二七厂,颗粒物(PM10),54,57,43,30,23,138,127,80,80,7,4,10,7,0.5,0.4
2022-05-16T12:00:00,1808A,115.9114,29.6038,九江市,综合工业园,颗粒物(PM10),51,52,40,31,25,150,143,89,89,15,29,13,10,0.7,0.7
2022-05-16T12:00:00,1809A,116.0721,29.7535,九江市,石化总厂,颗粒物(PM10),65,79,52,39,29,148,135,88,88,18,27,10,7,0.7,0.6
2022-05-16T12:00:00,1810A,115.9773,29.5698,九江市,庐山气象台(对照点),细颗粒物(PM2.5),63,41,41,45,37,145,136,123,114,13,11,14,11,0.6,0.4
2022-05-16T12:00:00,1812A,112.3931,34.6516,洛阳市,市委党校,,49,49,38,15,15,129,126,84,84,11,15,6,6,0.3,0.4
2022-05-16T12:00:00,1814A,112.4657,34.6871,洛阳市,豫西宾馆,颗粒物(PM10),57,63,50,17,19,141,133,82,82,10,24,4,6,0.1,0.5
2022-05-16T12:00:00,1815A,112.494,34.6886,洛阳市,河南林校,颗粒物(PM10),51,52,43,14,19,139,130,83,83,12,23,7,7,0.1,0.2
2022-05-16T12:00:00,1816A,112.3844,34.623,洛阳市,开发区管委会,,47,47,37,12,16,137,130,76,76,13,21,3,4,0.1,0.2
2022-05-16T12:00:00,1817A,112.4267,34.6258,洛阳市,市委新办公区,,48,48,32,13,13,132,131,84,84,12,17,5,5,0.1,0.1
2022-05-16T12:00:00,1818A,114.4839,36.0621,安阳市,棉研所(对照点),颗粒物(PM10),55,60,77,14,23,151,116,72,62,9,27,7,11,0.4,0.7
2022-05-16T12:00:00,1819A,114.3551,36.1017,安阳市,红庙街,颗粒物(PM10),63,76,95,4,28,154,109,72,72,11,28,10,15,0.6,0.8
2022-05-16T12:00:00,1820A,114.361,36.0681,安阳市,银杏小区,颗粒物(PM10),59,68,77,23,28,166,117,81,81,11,28,6,13,0.2,0.7
2022-05-16T12:00:00,1824A,114.3389,34.7781,开封市,肿瘤医院,颗粒物(PM10),65,80,74,15,22,167,135,74,74,6,19,9,11,0.4,0.4
2022-05-16T12:00:00,1826A,114.2885,34.7965,开封市,世纪星幼儿园,颗粒物(PM10),64,78,64,17,20,165,136,78,78,12,19,8,8,0.4,0.4
2022-05-16T12:00:00,1828A,113.2269,35.2127,焦作市,市环保局,颗粒物(PM10),52,54,56,24,26,134,114,66,66,24,33,7,6,0.7,0.5
2022-05-16T12:00:00,1829A,113.2467,35.176,焦作市,高新区政府,颗粒物(PM10),54,57,53,19,22,133,111,67,67,24,28,15,10,0.4,0.2
2022-05-16T12:00:00,1830A,113.1987,35.2703,焦作市,影视城(对照点),,40,40,37,9,16,132,117,123,116,15,14,13,10,0.4,0.4
2022-05-16T12:00:00,1832A,113.3257,33.742,平顶山市,新华旅馆,,40,39,40,16,14,149,128,87,87,12,11,11,6,0.1,0.2
2022-05-16T12:00:00,1833A,113.2919,33.737,平顶山市,规划设计院,,48,48,41,10,7,145,124,74,74,18,18,15,8,0.4,0.4
2022-05-16T12:00:00,1834A,113.182,33.774,平顶山市,平顶山工学院,,42,42,40,23,17,138,127,87,84,20,17,7,4,0.3,0.4
2022-05-16T12:00:00,1835A,111.1922,34.7752,三门峡市,市政府,颗粒物(PM10),52,53,51,25,14,136,101,41,41,33,48,16,10,0.5,0.4
2022-05-16T12:00:00,1836A,111.1587,34.7942,三门峡市,开发区,颗粒物(PM10),55,60,44,25,15,133,96,45,45,20,24,19,10,0.6,0.4
2022-05-16T12:00:00,1838A,111.143,34.7955,三门峡市,风景区(对照点),颗粒物(PM10),55,59,45,23,13,138,100,44,38,20,24,10,4,0.5,0.4
2022-05-16T12:00:00,1840A,111.2992,30.6981,宜昌市,白龙岗,,25,22,25,7,12,111,79,35,31,24,32,7,7,0.2,0.2
2022-05-16T12:00:00,1841A,111.3549,30.6465,宜昌市,伍家岗,,24,19,30,12,14,103,76,35,35,19,29,5,5,0.2,0.3
2022-05-16T12:00:00,1842A,111.2628,30.6961,宜昌市,点军区,,20,18,28,12,14,111,61,31,31,30,22,9,8,0.2,0.2
2022-05-16T12:00:00,1843A,111.3275,30.7819,宜昌市,夷陵区,,33,33,33,7,15,116,73,30,30,17,20,7,7,0.3,0.3
2022-05-16T12:00:00,1844A,112.2494,30.3197,荆州市,市图书馆,细颗粒物(PM2.5),54,38,41,38,46,114,110,67,47,12,25,8,9,0.4,0.5
2022-05-16T12:00:00,1845A,112.2008,30.3544,荆州市,市委党校,,37,37,45,24,29,111,105,48,46,14,24,12,12,0.4,0.6
2022-05-16T12:00:00,1847A,113.1094,29.3578,岳阳市,南湖风景区,,33,32,40,17,22,104,104,59,59,11,19,7,7,0.5,0.6
2022-05-16T12:00:00,1848A,113.1493,29.4251,岳阳市,城陵矶,,36,36,36,21,23,94,89,49,41,18,27,11,10,0.5,0.6
2022-05-16T12:00:00,1849A,113.1497,29.3575,岳阳市,开发区,,38,28,37,16,20,119,119,44,44,5,19,8,8,0.5,0.6
2022-05-16T12:00:00,1850A,113.2621,29.4758,岳阳市,云溪区,,,36,39,25,26,105,105,42,42,,22,11,9,0.6,0.6
2022-05-16T12:00:00,1851A,112.9943,29.4402,岳阳市,君山区,,27,27,36,15,26,95,82,61,61,6,11,6,6,0.6,0.6
2022-05-16T12:00:00,1852A,113.2117,29.355,岳阳市,金凤水库(对照点),,37,37,34,25,24,102,102,36,36,11,21,6,6,0.3,0.4
2022-05-16T12:00:00,1854A,111.6975,28.9703,常德市,市二中,,29,28,23,15,15,92,92,52,49,7,10,6,6,0.5,0.6
2022-05-16T12:00:00,1857A,111.7158,29.1456,常德市,白鹤山(对照点),,29,28,27,19,20,92,92,61,61,6,4,8,6,0.4,0.4
2022-05-16T12:00:00,1858A,110.5319,29.1217,张家界市,永定新区,,22,18,23,10,15,95,69,41,41,8,10,1,1,0.5,0.5
2022-05-16T12:00:00,1859A,110.4697,29.1242,张家界市,电业局,,20,13,15,9,14,88,63,40,40,10,11,1,1,0.1,0.1
2022-05-16T12:00:00,1860A,110.5594,29.3547,张家界市,未央路,,23,12,21,8,12,82,72,36,36,5,5,1,1,0.2,0.2
2022-05-16T12:00:00,1861A,110.4417,29.315,张家界市,袁家界(对照点),细颗粒物(PM2.5),93,13,14,69,60,107,70,64,64,3,4,6,6,0.2,0.2
2022-05-16T12:00:00,1862A,110.4144,25.3167,桂林市,电子科大尧山校区(对照点),,35,28,14,17,6,112,112,101,98,5,5,6,5,0.5,0.6
2022-05-16T12:00:00,1863A,110.2819,25.2697,桂林市,监测站,,32,25,13,11,5,100,100,90,90,7,8,4,2,0.5,0.4
2022-05-16T12:00:00,1864A,110.3089,25.2708,桂林市,龙隐路小学,,33,32,11,19,8,104,104,95,92,7,9,9,6,0.6,0.6
2022-05-16T12:00:00,1865A,110.2869,25.2178,桂林市,八中,,,29,11,28,11,103,103,95,93,,6,,5,0.5,0.5
2022-05-16T12:00:00,1866A,109.2262,21.588,北海市,牛尾岭水库(对照点),,19,18,10,9,6,58,58,51,49,6,6,6,4,0.7,0.7
2022-05-16T12:00:00,1867A,109.1436,21.4086,北海市,海滩公园,,23,14,10,5,4,71,71,62,62,5,5,5,4,0.7,0.7
2022-05-16T12:00:00,1868A,109.0981,21.4661,北海市,新市环保局,,23,13,10,12,8,71,71,62,62,5,5,6,5,0.6,0.6
2022-05-16T12:00:00,1869A,109.1778,21.5233,北海市,北海工业园,,21,20,12,12,8,66,66,59,57,8,7,8,7,0.5,0.5
2022-05-16T12:00:00,1870A,109.4856,24.3895,柳州市,柳东小学,,25,11,8,10,15,79,79,77,77,4,4,9,8,0.6,0.6
2022-05-16T12:00:00,1871A,109.4157,24.3277,柳州市,环保监测站,,25,17,11,10,8,80,79,74,74,11,12,13,16,0.6,0.6
2022-05-16T12:00:00,1872A,109.389,24.341,柳州市,河西水厂,,39,39,30,24,21,73,62,56,56,29,40,22,30,1.4,1.7
2022-05-16T12:00:00,1873A,109.4311,24.2921,柳州市,市四中,,25,20,11,8,4,77,77,73,73,9,9,7,10,0.6,0.6
2022-05-16T12:00:00,1874A,109.4006,24.3631,柳州市,市九中,,25,22,19,17,12,75,74,66,66,13,17,23,36,0.7,0.7
2022-05-16T12:00:00,1875A,109.4958,24.3134,柳州市,古亭山,,24,11,7,12,3,75,74,73,73,8,7,5,5,0.6,0.6
2022-05-16T12:00:00,1876A,109.5078,18.2489,三亚市,河东子站,,26,26,17,4,10,80,67,61,50,4,4,2,2,0.6,0.4
2022-05-16T12:00:00,1877A,109.4964,18.2681,三亚市,河西子站,,21,14,17,4,10,79,66,59,46,2,4,2,2,0.4,0.3
2022-05-16T12:00:00,1878A,104.7778,31.4741,绵阳市,富乐山,,34,34,26,20,15,127,91,66,49,14,13,5,5,0.6,0.6
2022-05-16T12:00:00,1879A,104.7563,31.4535,绵阳市,市人大,,,26,29,,18,117,,64,47,,19,3,4,,0.5
2022-05-16T12:00:00,1880A,104.6697,31.4668,绵阳市,高新区自来水公司,,39,39,35,26,21,125,92,63,50,14,19,6,6,0.6,0.5
2022-05-16T12:00:00,1881A,104.7287,31.5075,绵阳市,三水厂,,45,45,34,21,18,121,91,63,46,15,21,8,8,0.6,0.6
2022-05-16T12:00:00,1882A,104.563,28.793,宜宾市,石马中学(对照点),,25,25,16,17,12,105,73,57,39,8,10,13,9,0.6,0.5
2022-05-16T12:00:00,1883A,104.6201,28.7728,宜宾市,市委,,31,31,18,18,11,98,48,53,27,22,18,10,7,0.5,0.4
2022-05-16T12:00:00,1884A,104.6055,28.793,宜宾市,宜宾四中,,31,31,18,19,11,106,71,61,38,13,17,11,7,0.4,0.4
2022-05-16T12:00:00,1885A,104.639,28.7562,宜宾市,市政府,,36,36,19,19,12,103,58,66,31,20,19,8,6,0.6,0.5
2022-05-16T12:00:00,1886A,104.5742,28.7199,宜宾市,黄金嘴,,24,24,16,12,9,96,60,56,33,11,11,9,7,0.4,0.4
2022-05-16T12:00:00,1888A,101.6891,26.571,攀枝花市,弄弄坪,,35,33,27,24,14,61,55,37,37,17,19,15,8,1.1,1.1
2022-05-16T12:00:00,1889A,101.5769,26.5928,攀枝花市,河门口,颗粒物(PM10),56,62,31,27,15,54,45,33,25,30,29,47,24,2.4,1.8
2022-05-16T12:00:00,1890A,101.7169,26.585,攀枝花市,炳草岗,,23,23,28,13,20,56,55,30,30,14,22,30,23,0.7,0.9
2022-05-16T12:00:00,1891A,101.7369,26.5008,攀枝花市,仁和,,23,15,23,12,15,72,72,49,49,11,17,16,16,0.8,0.9
2022-05-16T12:00:00,1893A,105.4324,28.9634,泸州市,九狮山(对照点),,24,20,19,6,12,81,74,34,34,19,18,22,7,0.3,0.4
2022-05-16T12:00:00,1894A,105.4427,28.9063,泸州市,小市上码头,,28,22,20,6,9,87,87,54,51,14,13,20,13,0.5,0.6
2022-05-16T12:00:00,1895A,105.4241,28.8573,泸州市,兰田宪桥,,24,22,19,11,13,85,76,35,35,12,14,20,14,0.5,0.5
2022-05-16T12:00:00,1896A,105.4379,28.8833,泸州市,市环监站,,27,17,19,5,10,85,85,56,36,11,16,12,8,0.3,0.3
2022-05-16T12:00:00,1901A,104.4239,31.1208,德阳市,东山公园,颗粒物(PM10),59,67,43,31,18,125,69,68,39,32,18,10,5,0.5,0.4
2022-05-16T12:00:00,1902A,104.3826,31.1317,德阳市,西小区,颗粒物(PM10),61,71,48,41,21,120,63,59,37,32,27,6,5,0.6,0.4
2022-05-16T12:00:00,1904A,104.3553,31.1091,德阳市,耐火材料厂,颗粒物(PM10),64,77,50,36,21,122,73,41,38,26,26,6,6,0.5,0.4
2022-05-16T12:00:00,1905A,106.056,30.8064,南充市,西山风景区(对照点),,39,21,25,27,22,79,79,53,42,11,13,1,3,0.6,0.6
2022-05-16T12:00:00,1906A,106.0789,30.8023,南充市,南充市委,,49,49,35,33,19,73,73,35,35,7,17,4,3,0.6,0.6
2022-05-16T12:00:00,1907A,106.1031,30.8217,南充市,南充炼油厂,颗粒物(PM10),54,57,37,34,18,82,81,40,32,7,12,5,5,0.5,0.6
2022-05-16T12:00:00,1908A,106.1064,30.7856,南充市,高坪区监测站,细颗粒物(PM2.5),54,48,31,38,21,72,72,44,33,7,11,6,9,0.5,0.5
2022-05-16T12:00:00,1909A,106.0642,30.7636,南充市,嘉陵区环保局,,44,44,24,29,22,68,67,37,37,6,13,11,8,0.4,0.5
2022-05-16T12:00:00,1910A,106.1087,30.8388,南充市,市环境监测站,细颗粒物(PM2.5),57,56,34,40,24,80,80,50,40,10,18,4,5,0.5,0.5
2022-05-16T12:00:00,1911A,106.9222,27.6869,遵义市,丁字口,,22,14,18,8,10,83,70,78,63,9,12,5,5,0.8,0.8
2022-05-16T12:00:00,1912A,106.9242,27.7019,遵义市,凤凰山,,21,7,14,9,10,83,67,79,63,7,8,6,5,0.5,0.5
2022-05-16T12:00:00,1913A,106.8906,27.6486,遵义市,忠庄,,19,17,20,11,10,79,59,69,49,12,7,1,2,0.3,0.3
2022-05-16T12:00:00,1914A,106.9231,27.6506,遵义市,舟水桥,,23,13,11,16,11,85,67,65,53,11,10,2,1,0.4,0.3
2022-05-16T12:00:00,1915A,106.9178,27.72,遵义市,干田坝,,21,12,12,10,11,81,67,80,64,5,9,4,4,0.9,0.9
2022-05-16T12:00:00,1916A,103.7897,25.5035,曲靖市,环境监测站,,25,11,19,17,12,75,75,50,50,14,20,7,8,0.7,0.8
2022-05-16T12:00:00,1917A,103.8,25.5364,曲靖市,烟厂办公区,,30,30,18,13,10,78,78,56,56,12,16,5,6,0.9,0.9
2022-05-16T12:00:00,1918A,108.7197,34.3956,咸阳市,气象站(对照点),,46,46,54,10,15,140,126,73,73,8,42,6,6,0.5,0.5
2022-05-16T12:00:00,1919A,108.673,34.3155,咸阳市,实验中学,,46,46,68,17,21,132,119,67,67,13,43,3,3,0.2,0.4
2022-05-16T12:00:00,1920A,108.7233,34.3617,咸阳市,师范学院,颗粒物(PM10),56,61,60,18,20,143,130,74,74,12,42,5,4,0.5,0.5
2022-05-16T12:00:00,1922A,109.0656,35.0994,铜川市,党校(对照点),,48,48,39,11,12,124,109,40,40,31,43,8,6,0.5,0.5
2022-05-16T12:00:00,1923A,109.0697,35.0697,铜川市,王益区政府,,44,44,42,11,12,134,130,55,55,17,32,6,6,0.3,0.3
2022-05-16T12:00:00,1924A,108.9344,34.9058,铜川市,新区管委会,,42,31,33,14,18,133,133,91,91,12,19,5,6,0.4,0.4
2022-05-16T12:00:00,1926A,109.4131,36.6275,延安市,枣园(对照点),,37,32,32,8,12,123,118,46,46,3,24,4,4,0.2,0.3
2022-05-16T12:00:00,1927A,109.4761,36.6028,延安市,延大医附院,,46,46,47,8,12,121,111,39,39,6,30,4,4,0.4,0.5
2022-05-16T12:00:00,1929A,109.5056,36.6106,延安市,百米大道,,50,50,51,14,16,118,108,39,39,11,34,3,3,0.4,0.5
2022-05-16T12:00:00,1930A,107.185,34.3063,宝鸡市,庙沟村(对照点),,34,34,24,15,12,121,108,89,81,8,10,6,5,0.4,0.3
2022-05-16T12:00:00,1931A,107.0708,34.3017,宝鸡市,竹园沟,,34,28,25,20,13,134,106,103,89,16,16,5,4,0.4,0.3
2022-05-16T12:00:00,1932A,107.1906,34.3672,宝鸡市,三陆医院,,,,42,,13,130,,66,44,15,28,6,7,0.5,0.5
2022-05-16T12:00:00,1933A,107.1431,34.3547,宝鸡市,监测站,,34,34,30,23,15,132,100,78,54,18,23,5,5,0.5,0.4
2022-05-16T12:00:00,1934A,107.1186,34.3739,宝鸡市,技工学校,,50,50,32,18,15,128,116,91,68,16,21,6,5,0.4,0.4
2022-05-16T12:00:00,1935A,107.3906,34.3528,宝鸡市,陈仓区环保局家属楼,,48,48,43,18,15,125,94,54,53,18,27,8,7,0.7,0.6
2022-05-16T12:00:00,1936A,107.2058,34.3497,宝鸡市,文理学院,,35,29,33,24,15,136,107,75,58,16,25,8,8,0.3,0.2
2022-05-16T12:00:00,1937A,107.2386,34.3622,宝鸡市,三迪小学,,40,40,38,19,18,128,102,59,54,19,31,8,10,0.4,0.4
2022-05-16T12:00:00,1938A,109.5293,34.5101,渭南市,农科所(对照点),,48,48,35,12,15,134,128,93,93,15,23,8,9,0.5,0.4
2022-05-16T12:00:00,1939A,109.4974,34.4877,渭南市,日报社,,,48,47,14,14,129,,83,83,14,27,8,10,0.4,0.3
2022-05-16T12:00:00,1940A,109.4636,34.493,渭南市,体育馆,颗粒物(PM10),54,58,40,17,12,139,132,89,89,18,34,5,8,0.4,0.4
2022-05-16T12:00:00,1941A,109.4259,34.5023,渭南市,高新一小,颗粒物(PM10),60,70,56,9,14,126,124,75,75,14,34,4,6,0.3,0.3
2022-05-16T12:00:00,1943A,102.1725,38.5339,金昌市,新川苑,,38,38,31,14,10,120,120,58,54,15,24,34,10,0.5,0.5
2022-05-16T12:00:00,1944A,102.1692,38.5167,金昌市,天庆家园,,49,49,40,20,18,119,116,60,60,14,23,45,17,0.5,0.6
2022-05-16T12:00:00,1945A,98.2908,39.7711,嘉峪关市,气象局,,36,36,27,7,10,122,115,92,81,7,14,1,4,0.3,0.2
2022-05-16T12:00:00,1947A,106.3394,38.817,石嘴山市,沙湖旅游区(对照点),,40,40,50,12,12,124,108,74,74,16,18,20,19,0.3,0.3
2022-05-16T12:00:00,1948A,106.3668,39.0145,石嘴山市,大武口朝阳西街,,38,38,45,14,18,111,100,76,69,9,23,5,13,0.5,0.8
2022-05-16T12:00:00,1949A,106.7704,39.2282,石嘴山市,惠农南大街,,35,24,50,14,16,114,109,45,45,11,27,22,14,0.7,0.6
2022-05-16T12:00:00,1950A,106.7099,39.1325,石嘴山市,红果子镇惠新街,颗粒物(PM10),61,71,56,14,17,103,103,60,47,15,23,19,10,0.7,0.4
2022-05-16T12:00:00,1951A,84.895,45.6094,克拉玛依市,长征新村,,30,14,26,0,6,105,95,100,87,12,10,5,5,0.2,0.2
2022-05-16T12:00:00,1952A,84.8988,45.5893,克拉玛依市,南林小区,,42,17,41,29,15,110,102,107,92,12,14,7,7,0.5,0.5
2022-05-16T12:00:00,1954A,84.905,44.3396,克拉玛依市,独山子区,,31,12,29,4,11,106,97,98,97,4,4,5,5,0.4,0.4
2022-05-16T12:00:00,1955A,85.6979,46.098,克拉玛依市,乌尔禾区商贸楼,,27,27,53,12,16,117,83,95,84,6,3,9,9,0.4,0.4
2022-05-16T12:00:00,1956A,86.1472,41.7538,巴音郭楞州,孔雀公园,颗粒物(PM10),79,107,144,29,43,112,65,64,64,18,23,3,2,0.4,0.5
2022-05-16T12:00:00,1957A,86.1972,41.7166,巴音郭楞州,棉纺厂,颗粒物(PM10),81,111,119,53,51,102,65,65,55,18,20,2,2,0.7,0.4
2022-05-16T12:00:00,1958A,86.2357,41.7173,巴音郭楞州,经济开发区,颗粒物(PM10),89,127,144,37,47,108,80,80,73,6,14,2,2,0.4,0.4
2022-05-16T12:00:00,1961A,117.532,36.6868,济南市,东山小学,颗粒物(PM10),53,56,54,15,17,149,135,140,116,14,21,11,10,0.5,0.4
2022-05-16T12:00:00,1966A,120.0405,35.8735,青岛市,黄岛区4号,颗粒物(PM10),92,134,65,39,34,178,118,123,102,39,31,15,10,0.9,0.6
2022-05-16T12:00:00,1982A,122.0693,37.2174,威海市,文登开发区,颗粒物(PM10),59,68,62,19,29,148,146,140,122,12,14,7,6,0.2,0.3
2022-05-16T12:00:00,2031A,113.1817,27.9958,株洲市,云田中学,细颗粒物(PM2.5),59,51,43,42,43,122,122,77,77,5,15,4,5,0.6,0.6
2022-05-16T12:00:00,2054A,114.1099,32.1059,信阳市,平桥分局,,,,35,15,19,144,113,74,74,11,18,10,8,0.5,0.5
2022-05-16T12:00:00,2064A,113.9956,32.1271,信阳市,南湾水厂,,37,24,33,13,12,144,117,86,86,8,10,8,7,0.3,0.4
2022-05-16T12:00:00,2065A,114.0775,32.1195,信阳市,市酿酒公司,,36,22,30,10,15,139,113,68,68,11,24,6,6,0.4,0.5
2022-05-16T12:00:00,2066A,114.0609,32.1399,信阳市,审计局,,34,26,34,18,16,137,108,83,83,10,21,6,6,0.2,0.3
2022-05-16T12:00:00,2067A,114.6613,33.6128,周口市,市环境监测站,颗粒物(PM10),62,74,44,9,15,144,129,89,86,12,15,8,6,0.3,0.4
2022-05-16T12:00:00,2068A,114.6758,33.6347,周口市,周口师范,颗粒物(PM10),75,100,52,12,13,136,124,87,82,12,15,10,9,0.4,0.4
2022-05-16T12:00:00,2069A,114.6546,33.5979,周口市,市运管处,颗粒物(PM10),60,69,44,19,14,139,125,84,84,15,16,10,7,0.2,0.3
2022-05-16T12:00:00,2070A,114.6369,33.6406,周口市,川汇区环保局,,,69,47,13,16,137,,81,64,16,19,5,5,0.5,0.5
2022-05-16T12:00:00,2075A,117.6336,24.4674,漳州市,九湖(对照点),,28,16,11,11,8,99,89,95,84,16,14,8,7,0.6,0.6
2022-05-16T12:00:00,2160A,112.85,35.5051,晋城市,自来水公司,颗粒物(PM10),52,53,54,5,15,127,117,116,79,15,23,6,8,0.4,0.6
2022-05-16T12:00:00,2161A,112.8318,35.4936,晋城市,白云商贸,,43,22,38,5,14,145,135,130,99,6,17,5,6,0.2,0.4
2022-05-16T12:00:00,2162A,112.8508,35.4887,晋城市,市环保局,,40,24,35,9,15,134,125,123,83,8,19,7,8,0.3,0.5
2022-05-16T12:00:00,2163A,112.8676,35.4897,晋城市,技术学院,,,,52,,14,128,119,115,71,5,19,,6,0.2,0.5
2022-05-16T12:00:00,2165A,112.8453,35.546,晋城市,白马寺 (对照点),,44,35,39,7,10,158,139,144,124,11,14,5,6,0.6,0.6
2022-05-16T12:00:00,2166A,112.4397,39.3522,朔州市,平朔,颗粒物(PM10),62,73,63,9,19,119,110,48,48,5,30,2,5,0.3,0.4
2022-05-16T12:00:00,2167A,112.4575,39.3617,朔州市,朔唯,,34,31,73,10,23,119,108,47,47,7,36,2,7,0.4,0.5
2022-05-16T12:00:00,2168A,112.4258,39.3197,朔州市,区政府,,47,47,55,9,14,127,114,68,63,9,24,4,6,0.2,0.3
2022-05-16T12:00:00,2169A,112.4072,39.3278,朔州市,市环保局,,,62,65,,18,118,111,76,65,9,24,8,9,0.4,0.5
2022-05-16T12:00:00,2170A,112.4272,39.3681,朔州市,市二中,,35,30,66,13,20,119,109,52,52,7,31,6,8,0.4,0.4
2022-05-16T12:00:00,2171A,112.7532,37.6945,晋中市,锦纶小区,颗粒物(PM10),79,107,59,49,28,174,145,57,57,34,37,32,16,0.7,0.4
2022-05-16T12:00:00,2173A,112.7249,37.7067,晋中市,南都小区,颗粒物(PM10),79,108,67,46,24,170,139,51,51,33,44,26,13,0.7,0.5
2022-05-16T12:00:00,2174A,112.6991,37.6982,晋中市,榆次区政府,颗粒物(PM10),74,97,65,48,29,159,137,51,51,32,43,25,13,0.7,0.5
2022-05-16T12:00:00,2175A,110.9956,35.0147,运城市,运城中学,颗粒物(PM10),55,60,49,20,21,142,123,81,81,12,22,6,8,0.3,0.4
2022-05-16T12:00:00,2178A,110.9686,35.0303,运城市,地区技校,颗粒物(PM10),55,60,55,10,18,135,118,71,71,11,31,5,6,0.5,0.6
2022-05-16T12:00:00,2179A,111.0414,35.1147,运城市,空港新区,,,95,70,34,25,138,114,53,53,,32,7,8,0.3,0.4
2022-05-16T12:00:00,2181A,112.7383,38.4519,忻州市,开发区,,44,44,37,18,18,117,104,76,55,20,27,12,13,0.4,0.4
2022-05-16T12:00:00,2182A,112.7003,38.4928,忻州市,会展中心,,44,44,41,20,13,95,95,53,53,24,38,10,12,0.4,0.4
2022-05-16T12:00:00,2183A,111.1406,37.5211,吕梁市,环保局,颗粒物(PM10),61,71,58,18,10,115,66,29,29,37,41,10,5,0.7,0.4
2022-05-16T12:00:00,2185A,111.1297,37.5136,吕梁市,自来水公司,,,66,67,23,12,102,70,22,22,52,47,,7,,0.3
2022-05-16T12:00:00,2187A,106.8174,39.6973,乌海市,市林业局,颗粒物(PM10),57,63,32,17,13,114,114,97,97,2,5,5,5,0.4,0.4
2022-05-16T12:00:00,2188A,106.7907,39.6667,乌海市,中海勃湾学校,,38,37,24,14,13,120,120,96,96,4,9,5,6,0.3,0.3
2022-05-16T12:00:00,2191A,122.2532,43.6801,通辽市,艺术职业学校,,31,18,35,13,12,103,98,75,75,8,14,5,6,0.1,0.1
2022-05-16T12:00:00,2192A,119.7594,49.2261,呼伦贝尔市,区环保局,,30,24,28,10,17,96,96,70,70,7,16,5,5,0.5,0.4
2022-05-16T12:00:00,2195A,107.4212,40.761,巴彦淖尔市,附二中,颗粒物(PM10),52,53,39,12,16,111,108,80,78,6,12,3,4,0.3,0.3
2022-05-16T12:00:00,2196A,107.37,40.7372,巴彦淖尔市,市环保大楼,颗粒物(PM10),62,73,45,17,21,117,117,79,79,12,18,4,5,0.3,0.3
2022-05-16T12:00:00,2197A,113.1306,40.9923,乌兰察布市,集宁新区,,34,21,22,13,12,108,108,88,69,1,8,7,9,0.3,0.4
2022-05-16T12:00:00,2200A,122.0392,46.0656,兴安盟,胜华新制药厂,,30,13,21,8,14,95,95,76,76,10,13,2,2,0.1,0.1
2022-05-16T12:00:00,2201A,121.9504,46.0741,兴安盟,科右前旗环保局,,30,14,17,6,12,95,95,84,84,6,7,3,3,0.2,0.1
2022-05-16T12:00:00,2202A,116.1042,43.9317,锡林郭勒盟,市环保监测站,,28,20,21,5,7,94,88,54,54,5,15,9,9,0.7,0.7
2022-05-16T12:00:00,2203A,116.0781,43.9311,锡林郭勒盟,市政府,,30,8,15,4,5,98,93,60,60,6,17,8,7,0.6,0.5
2022-05-16T12:00:00,2204A,105.6467,38.8363,阿拉善盟,西城区西花园(对照点),,37,28,33,5,16,126,116,102,102,5,8,5,8,0.1,0.1
2022-05-16T12:00:00,2205A,105.6985,38.8411,阿拉善盟,蒙二幼,,37,22,29,14,17,126,116,101,101,4,8,5,5,0.3,0.3
2022-05-16T12:00:00,2206A,105.724,38.8516,阿拉善盟,环保局新楼,,35,20,26,15,19,119,110,102,102,6,6,6,7,0.2,0.4
2022-05-16T12:00:00,2207A,121.6094,41.998,阜新市,工业园区,,,33,51,8,20,114,98,73,73,,23,,15,0.3,0.4
2022-05-16T12:00:00,2208A,121.6697,42.0279,阜新市,长青街,,30,22,44,1,19,100,93,61,61,4,19,8,20,0.3,0.4
2022-05-16T12:00:00,2209A,121.6673,42.0705,阜新市,农业园区,,30,20,38,5,16,106,96,76,76,2,9,6,12,0.3,0.4
2022-05-16T12:00:00,2210A,121.6717,42.0224,阜新市,东苑,,31,31,68,4,23,104,98,68,68,6,25,8,31,0.2,0.4
2022-05-16T12:00:00,2211A,121.6506,42.0498,阜新市,玉龙新城,,28,19,49,2,17,95,89,56,56,4,20,7,13,0.2,0.3
2022-05-16T12:00:00,2212A,123.2,41.1953,辽阳市,宏伟区,,30,20,46,9,22,107,95,79,77,6,21,8,18,0.4,0.8
2022-05-16T12:00:00,2213A,123.1683,41.2495,辽阳市,新华园,,,27,49,4,27,116,,79,76,9,24,6,18,0.5,1
2022-05-16T12:00:00,2214A,123.2354,41.2639,辽阳市,滨河路,,,31,46,10,27,120,84,80,70,8,23,8,19,,0.7
2022-05-16T12:00:00,2215A,123.149,41.2991,辽阳市,铁西工业园,,31,21,52,15,34,120,99,72,72,9,32,6,23,0.3,1.2
2022-05-16T12:00:00,2216A,123.8139,42.3022,铁岭市,汇工街西,颗粒物(PM10),51,51,53,7,24,116,101,77,77,12,23,9,12,0.4,0.6
2022-05-16T12:00:00,2217A,123.8649,42.2923,铁岭市,水上乐园,,33,18,40,2,15,114,103,83,78,7,19,6,7,0.1,0.3
2022-05-16T12:00:00,2218A,123.8486,42.2867,铁岭市,银州路东段,,36,36,52,17,24,109,97,80,74,12,23,6,7,0.4,0.6
2022-05-16T12:00:00,2219A,123.7153,42.2217,铁岭市,金沙江路北,,,,43,10,18,113,97,75,75,14,28,11,12,0.5,0.6
2022-05-16T12:00:00,2220A,120.4318,41.5881,朝阳市,西梁,,29,29,45,5,18,108,92,55,55,6,20,8,10,0.5,0.7
2022-05-16T12:00:00,2221A,120.4521,41.5646,朝阳市,河畔小区,,37,37,40,10,14,110,94,63,63,6,15,7,10,0.3,0.5
2022-05-16T12:00:00,2222A,120.4176,41.5648,朝阳市,八里堡,,30,30,44,8,17,106,93,52,52,5,21,7,10,0.5,0.7
2022-05-16T12:00:00,2223A,120.3806,41.5969,朝阳市,农业园区,,34,34,39,7,16,111,94,63,58,2,16,6,9,0.4,0.6
2022-05-16T12:00:00,2225A,124.4002,43.1713,四平市,一商场,,28,21,36,9,15,100,87,64,64,12,18,7,9,0.2,0.3
2022-05-16T12:00:00,2226A,124.388,43.193,四平市,境园,,,27,34,7,10,104,,63,56,6,14,15,12,0.4,0.3
2022-05-16T12:00:00,2227A,125.1358,42.8845,辽源市,环保局,,31,20,16,9,10,114,97,90,86,5,7,9,10,0.5,0.6
2022-05-16T12:00:00,2229A,125.9358,41.7173,通化市,光明,,,,26,,10,125,125,74,74,6,12,,9,0.7,0.5
2022-05-16T12:00:00,2230A,125.9446,41.7325,通化市,铁路,,39,24,31,8,12,122,122,76,76,8,19,9,8,0.6,0.6
2022-05-16T12:00:00,2231A,126.4219,41.9171,白山市,喜丰,,42,42,55,10,15,113,113,65,65,10,20,12,13,0.5,0.6
2022-05-16T12:00:00,2232A,126.4077,41.9419,白山市,环保局,,35,35,38,14,17,111,110,60,60,12,19,13,11,0.7,0.8
2022-05-16T12:00:00,2233A,124.8006,45.1214,松原市,江南,,34,20,26,14,13,106,106,91,88,8,12,3,3,0.2,0.2
2022-05-16T12:00:00,2234A,124.7965,45.1722,松原市,江北,,33,15,17,14,10,103,103,85,85,9,11,3,2,0.3,0.4
2022-05-16T12:00:00,2235A,122.7911,45.6077,白城市,洮北区环保局,,,,,,,97,97,78,78,8,9,6,6,0.3,0.3
2022-05-16T12:00:00,2236A,122.8738,45.5725,白城市,市环保局,,28,8,19,7,12,87,87,72,69,9,13,4,5,0.3,0.3
2022-05-16T12:00:00,2237A,129.47,42.8883,延边朝鲜族自治州,妇幼医院,,30,24,21,5,10,102,96,82,67,4,10,6,6,0.4,0.4
2022-05-16T12:00:00,2238A,129.5055,42.9108,延边朝鲜族自治州,延边医院,,,32,21,12,12,103,94,78,70,5,8,10,10,,0.5
2022-05-16T12:00:00,2239A,129.3964,42.8881,延边朝鲜族自治州,朝阳川镇医院,,31,24,27,8,10,105,98,73,73,5,8,8,8,0.4,0.4
2022-05-16T12:00:00,2240A,130.9762,45.3001,鸡西市,环保局,,29,19,28,9,12,95,92,70,70,15,22,3,5,0.2,0.3
2022-05-16T12:00:00,2243A,130.9429,45.3039,鸡西市,第一中学,,31,11,28,1,7,100,98,74,72,10,14,5,8,0.1,0.2
2022-05-16T12:00:00,2244A,130.2537,47.3416,鹤岗市,哈啤分公司,,34,1,21,0,9,107,106,79,79,5,7,13,14,0.3,0.3
2022-05-16T12:00:00,2245A,130.2684,47.3086,鹤岗市,斯达机电,,34,31,33,8,11,132,108,79,79,5,8,7,8,0.3,0.3
2022-05-16T12:00:00,2246A,130.3114,47.3388,鹤岗市,东山纸板厂,,35,35,32,6,12,108,106,74,74,4,9,9,11,0.3,0.4
2022-05-16T12:00:00,2247A,130.1097,47.3382,鹤岗市,五号水库(对照点),,32,12,11,7,11,105,102,73,73,5,6,6,6,0.2,0.2
2022-05-16T12:00:00,2248A,131.1511,46.6937,双鸭山市,双合村,,31,10,42,5,20,99,99,74,74,5,15,4,17,0.3,1
2022-05-16T12:00:00,2249A,131.1652,46.6191,双鸭山市,南小市,,,39,28,,12,98,98,76,76,5,8,5,4,0.1,0.1
2022-05-16T12:00:00,2250A,131.1524,46.6554,双鸭山市,环保局,,,5,21,11,13,98,98,79,79,,13,,6,0.4,1.2
2022-05-16T12:00:00,2251A,131.12,46.5656,双鸭山市,苗圃(对照点),,36,17,17,7,15,113,113,88,88,4,6,1,3,0.4,0.6
2022-05-16T12:00:00,2252A,128.5159,47.4311,伊春市,环保局,,28,18,13,5,7,94,88,56,56,7,9,5,6,0.4,0.4
2022-05-16T12:00:00,2253A,128.9102,47.7412,伊春市,电力嘉园,,32,19,19,9,13,105,102,60,60,5,9,4,5,0.3,0.3
2022-05-16T12:00:00,2254A,129.5029,48.471,伊春市,汤旺河国家公园(对照点),,30,1,3,0,0,96,96,77,77,3,3,12,9,0.5,0.4
2022-05-16T12:00:00,2255A,130.2751,46.8028,佳木斯市,佳纺,,33,13,15,17,14,106,105,78,78,5,13,2,3,0.4,0.4
2022-05-16T12:00:00,2256A,130.3995,46.8307,佳木斯市,发电厂,,,26,20,9,9,111,110,76,76,2,13,6,6,,0.2
2022-05-16T12:00:00,2257A,130.3258,46.7975,佳木斯市,环保局,,35,21,23,10,9,111,111,84,84,4,11,3,2,0.3,0.4
2022-05-16T12:00:00,2258A,130.3648,46.8032,佳木斯市,十一中,,33,28,29,10,11,105,103,74,74,8,19,1,2,0.3,0.3
2022-05-16T12:00:00,2259A,130.3794,46.7588,佳木斯市,四丰(对照点),,34,10,17,6,7,107,107,84,84,4,7,3,4,0.3,0.3
2022-05-16T12:00:00,2262A,131.0518,45.8751,七台河市,新一中(对照点),,34,10,20,2,10,108,107,80,80,5,10,6,8,0.6,0.7
2022-05-16T12:00:00,2263A,127.4833,50.2524,黑河市,交通局,,25,8,20,6,8,80,80,79,79,8,6,2,2,0.4,0.4
2022-05-16T12:00:00,2264A,127.5144,50.2341,黑河市,环保局,,27,12,19,5,10,96,84,96,86,4,7,5,10,0.3,0.3
2022-05-16T12:00:00,2265A,127.5291,50.2472,黑河市,大黑河岛(对照点),,29,12,19,7,7,91,91,84,84,1,3,3,5,0.3,0.3
2022-05-16T12:00:00,2266A,126.9785,46.6365,绥化市,人和东街,,28,17,41,11,24,99,87,77,77,5,12,5,6,0.3,0.4
2022-05-16T12:00:00,2267A,126.964,46.6528,绥化市,党政办公中心,,30,18,35,11,24,109,94,84,83,5,10,4,5,0.1,0.1
2022-05-16T12:00:00,2269A,124.1069,50.4097,大兴安岭地区,科技局,,29,10,11,5,8,98,90,78,78,4,4,3,4,0.4,0.4
2022-05-16T12:00:00,2270A,117.396,32.939,蚌埠市,工人疗养院,颗粒物(PM10),56,61,44,28,22,140,140,101,101,11,22,8,10,0.3,0.3
2022-05-16T12:00:00,2271A,117.3605,32.9427,蚌埠市,百货大楼,颗粒物(PM10),61,71,59,15,19,142,141,100,100,14,24,9,11,0.4,0.4
2022-05-16T12:00:00,2273A,117.4185,32.8911,蚌埠市,蚌埠学院,颗粒物(PM10),59,68,64,17,21,143,137,79,79,7,29,10,13,0.2,0.3
2022-05-16T12:00:00,2274A,117.3533,32.9673,蚌埠市,淮上区政府,颗粒物(PM10),57,63,60,19,20,139,139,91,91,6,25,11,13,0.3,0.3
2022-05-16T12:00:00,2275A,117.3145,32.8977,蚌埠市,高新区,颗粒物(PM10),59,68,59,22,23,141,133,76,76,12,35,10,10,0.4,0.4
2022-05-16T12:00:00,2277A,116.8305,32.7727,淮南市,潘集区政府,颗粒物(PM10),57,64,59,31,32,142,133,96,96,7,20,7,8,0.5,0.4
2022-05-16T12:00:00,2278A,117.0067,32.6524,淮南市,师范学院,颗粒物(PM10),52,53,58,23,34,140,127,101,101,9,21,7,9,0.3,0.4
2022-05-16T12:00:00,2279A,116.8569,32.5951,淮南市,谢家集区政府,颗粒物(PM10),53,56,55,20,25,145,119,81,81,7,18,5,6,0.2,0.3
2022-05-16T12:00:00,2280A,116.8281,32.633,淮南市,八公山区政府,颗粒物(PM10),56,61,53,20,21,142,116,122,99,7,14,4,5,0.2,0.3
2022-05-16T12:00:00,2281A,116.6325,32.6201,淮南市,焦岗湖风景区管理处(对照点),,,50,46,28,25,146,115,94,91,4,8,,9,0.3,0.2
2022-05-16T12:00:00,2282A,116.8004,33.975,淮北市,监测站,,,99,51,35,21,131,125,93,93,,10,,10,0.4,0.4
2022-05-16T12:00:00,2283A,116.8091,33.9007,淮北市,烈山区政府,颗粒物(PM10),60,69,66,42,34,133,130,79,79,11,24,10,8,0.5,0.4
2022-05-16T12:00:00,2284A,116.7856,33.9477,淮北市,职业技术学院,,50,50,45,23,21,126,124,94,90,7,12,10,9,0.6,0.5
2022-05-16T12:00:00,2285A,117.8177,30.9412,铜陵市,市第四中学,,,54,37,29,21,163,144,75,75,,35,16,26,0.5,0.7
2022-05-16T12:00:00,2286A,117.8059,30.9273,铜陵市,市公路局,颗粒物(PM10),58,65,42,32,23,142,137,71,71,16,24,10,6,0.5,0.5
2022-05-16T12:00:00,2287A,117.7807,30.9413,铜陵市,市新民污水厂,细颗粒物(PM2.5),62,66,62,44,31,161,142,67,67,14,42,12,26,0.4,0.4
2022-05-16T12:00:00,2288A,117.7439,30.8792,铜陵市,市第九中学,细颗粒物(PM2.5),59,55,52,42,26,136,136,59,59,20,32,16,13,0.6,0.6
2022-05-16T12:00:00,2289A,117.846,30.9413,铜陵市,车站新区,颗粒物(PM10),54,58,43,33,17,151,141,78,76,18,25,11,8,0.6,0.4
2022-05-16T12:00:00,2290A,117.8483,30.97,铜陵市,市职教基地,颗粒物(PM10),54,58,44,31,23,147,130,62,62,16,23,14,11,0.7,0.9
2022-05-16T12:00:00,2291A,117.0809,30.5177,安庆市,环科院,细颗粒物(PM2.5),55,50,44,39,28,161,125,62,62,9,26,8,8,0.6,0.6
2022-05-16T12:00:00,2292A,117.0331,30.5119,安庆市,马山宾馆,细颗粒物(PM2.5),54,54,47,38,27,157,121,56,56,11,35,9,10,0.6,0.6
2022-05-16T12:00:00,2294A,116.9896,30.6145,安庆市,安庆大学,,,49,52,26,22,150,,56,56,13,26,7,5,0.6,0.6
2022-05-16T12:00:00,2295A,118.2903,29.6963,黄山市,延安路89号,,36,25,21,15,8,113,113,59,59,3,3,6,5,0.2,0.1
2022-05-16T12:00:00,2296A,118.327,29.7178,黄山市,黄山东路89号,,37,4,21,6,8,117,117,60,60,3,5,6,5,0.3,0.3
2022-05-16T12:00:00,2297A,118.1371,30.2756,黄山市,黄山区政府5号楼,,45,31,20,19,7,142,142,52,52,5,7,6,5,0.7,0.6
2022-05-16T12:00:00,2298A,118.3093,32.3153,滁州市,老年大学,颗粒物(PM10),59,68,52,21,27,153,153,144,128,17,18,5,6,0.2,0.2
2022-05-16T12:00:00,2299A,118.3244,32.2786,滁州市,人大宾馆,颗粒物(PM10),52,54,58,28,33,153,153,131,115,18,22,6,7,0.3,0.3
2022-05-16T12:00:00,2301A,115.8277,32.8929,阜阳市,市监测站,颗粒物(PM10),51,51,45,22,24,144,114,114,98,8,12,8,8,0.4,0.4
2022-05-16T12:00:00,2303A,115.8554,32.8605,阜阳市,开发区,,,57,59,14,25,141,108,84,77,15,20,,6,0.5,0.5
2022-05-16T12:00:00,2307A,116.5079,31.737,六安市,监测大楼,,40,33,60,15,36,160,126,86,86,10,23,6,6,0.2,0.4
2022-05-16T12:00:00,2308A,116.4738,31.7643,六安市,皖西学院,,46,46,67,21,35,166,128,88,88,6,21,7,8,0.2,0.4
2022-05-16T12:00:00,2309A,116.4996,31.7905,六安市,朝阳厂,,39,38,60,15,37,154,122,91,91,7,18,6,7,0.2,0.3
2022-05-16T12:00:00,2310A,116.5567,31.7886,六安市,开发区,颗粒物(PM10),56,61,80,26,39,162,134,91,91,12,29,5,6,0.2,0.4
2022-05-16T12:00:00,2311A,115.8072,33.8399,亳州市,污水处理厂,,45,45,34,18,16,142,130,105,92,8,10,10,8,0.4,0.4
2022-05-16T12:00:00,2312A,115.7789,33.8518,亳州市,三国揽胜宫,,45,45,41,17,17,135,126,99,89,2,3,8,7,0.2,0.2
2022-05-16T12:00:00,2314A,117.47,30.6618,池州市,池州学院,颗粒物(PM10),54,57,31,34,17,147,136,77,77,8,16,8,7,0.4,0.5
2022-05-16T12:00:00,2316A,118.7581,30.9454,宣城市,鳌峰子站,,44,44,27,27,15,127,127,71,71,6,23,5,11,0.5,0.5
2022-05-16T12:00:00,2317A,118.7385,30.9743,宣城市,敬亭山子站,,43,42,26,29,14,135,135,72,72,7,16,6,5,0.4,0.3
2022-05-16T12:00:00,2318A,118.7173,30.9427,宣城市,开发区子站,,41,40,28,24,14,129,129,79,79,8,22,8,6,0.5,0.4
2022-05-16T12:00:00,2319A,119.0141,25.4325,莆田市,荔城区仓后路,,,13,5,2,3,104,99,102,94,7,8,4,4,,0.6
2022-05-16T12:00:00,2320A,119.0015,25.4553,莆田市,莆田市监测站,,32,4,4,4,6,105,102,105,99,2,5,4,4,0.6,0.6
2022-05-16T12:00:00,2321A,119.1119,25.4561,莆田市,涵江区六中,,30,16,7,6,6,108,94,92,86,6,7,6,5,0.6,0.5
2022-05-16T12:00:00,2322A,119.1013,25.3215,莆田市,秀屿区政府,,30,6,7,10,7,108,94,99,82,14,13,6,6,0.5,0.5
2022-05-16T12:00:00,2323A,118.981,25.4792,莆田市,东圳水库(对照点),,,,5,3,3,109,96,106,96,2,2,5,6,0.5,0.5
2022-05-16T12:00:00,2324A,117.6211,26.2625,三明市,三钢,,29,3,9,7,9,90,90,79,79,8,8,2,2,0.4,0.5
2022-05-16T12:00:00,2325A,117.635,26.2714,三明市,三明二中,,28,7,8,2,3,89,89,79,79,9,8,2,2,0.3,0.4
2022-05-16T12:00:00,2326A,117.6028,26.2378,三明市,三元区政府,,28,2,6,3,6,88,88,79,79,10,9,3,2,0.5,0.5
2022-05-16T12:00:00,2327A,117.7275,26.3108,三明市,洋溪(对照点),,28,11,7,4,5,88,88,81,81,5,6,4,5,0.4,0.5
2022-05-16T12:00:00,2331A,118.0966,26.6761,南平市,茫荡山(对照点),,29,8,1,6,4,91,90,77,77,2,2,4,4,0.3,0.4
2022-05-16T12:00:00,2332A,118.1681,26.6369,南平市,南平市监测站,,31,10,7,7,7,98,97,93,93,6,6,6,5,0.4,0.4
2022-05-16T12:00:00,2333A,118.1825,26.6489,南平市,南平铝业有限公司,,26,14,10,9,6,95,83,88,87,9,8,5,10,0.5,0.5
2022-05-16T12:00:00,2334A,118.1756,26.6272,南平市,南平七中,,,4,8,2,3,99,87,91,90,5,5,3,4,,0.2
2022-05-16T12:00:00,2335A,117.0189,25.1181,龙岩市,龙岩师专(对照点),,23,13,6,7,6,72,72,68,68,5,6,8,6,0.5,0.6
2022-05-16T12:00:00,2336A,117.0217,25.1033,龙岩市,龙岩市监测站,,24,9,4,3,2,74,74,68,67,8,10,6,5,0.4,0.5
2022-05-16T12:00:00,2337A,117.0258,25.0661,龙岩市,闽西职业技术学院,,24,13,7,6,6,76,76,68,63,6,9,6,5,0.5,0.6
2022-05-16T12:00:00,2338A,117.0196,25.0306,龙岩市,龙岩学院,,,18,6,4,4,77,77,64,64,6,10,5,3,,0.5
2022-05-16T12:00:00,2339A,119.5001,26.6946,宁德市,金涵水库(对照点),,25,10,8,8,8,93,80,89,82,16,13,6,6,0.6,0.5
2022-05-16T12:00:00,2341A,119.5388,26.6612,宁德市,宁德市监测站,,,,7,14,7,98,65,86,76,,12,,8,0.6,0.5
2022-05-16T12:00:00,2342A,117.3102,29.3867,景德镇市,王港中学(对照点),,36,21,17,13,11,113,113,59,59,3,3,5,4,0.6,0.6
2022-05-16T12:00:00,2343A,117.2117,29.2933,景德镇市,老干部活动中心,,40,38,33,16,18,127,127,90,80,9,10,3,4,0.4,0.4
2022-05-16T12:00:00,2344A,117.1894,29.2789,景德镇市,兽医站,,40,30,23,23,14,125,125,91,79,8,12,5,6,0.5,0.4
2022-05-16T12:00:00,2345A,117.1547,29.2617,景德镇市,台达陶瓷,,40,27,23,25,14,126,126,85,69,12,16,10,6,0.6,0.6
2022-05-16T12:00:00,2346A,117.2461,29.2956,景德镇市,陶研所,,37,33,29,15,11,117,117,83,70,7,7,5,4,0.7,0.6
2022-05-16T12:00:00,2347A,114.0997,27.5002,萍乡市,武功山(对照点),,33,7,7,10,8,119,103,73,73,6,5,9,8,0.4,0.3
2022-05-16T12:00:00,2348A,113.8385,27.6434,萍乡市,中医院,,50,41,32,35,33,132,131,87,71,18,21,6,6,0.6,0.8
2022-05-16T12:00:00,2349A,113.8493,27.6253,萍乡市,市政府车库,,40,40,35,19,23,120,119,67,67,11,16,3,4,0.5,0.9
2022-05-16T12:00:00,2350A,113.8676,27.6435,萍乡市,市环保局,,,41,33,36,29,128,118,85,67,,22,5,7,,0.7
2022-05-16T12:00:00,2351A,113.866,27.6198,萍乡市,安源区政府,颗粒物(PM10),51,52,42,28,26,120,120,64,64,18,21,7,6,1.4,1
2022-05-16T12:00:00,2352A,115.0861,27.9317,新余市,北岗(对照点),,36,33,30,25,21,125,113,62,62,6,7,13,9,0.5,0.5
2022-05-16T12:00:00,2353A,114.9886,27.8431,新余市,飞宇,,49,49,43,16,28,127,118,73,73,7,15,10,11,0.4,0.4
2022-05-16T12:00:00,2354A,114.9231,27.8246,新余市,第二水厂,,,33,34,22,23,122,115,81,78,10,15,8,10,,0.3
2022-05-16T12:00:00,2355A,114.9308,27.8036,新余市,市气象局,,34,33,34,22,25,113,106,78,75,10,14,9,10,0.3,0.3
2022-05-16T12:00:00,2357A,116.9822,28.1136,鹰潭市,龙虎山(对照点),,36,15,16,9,9,124,113,88,88,2,1,4,7,0.3,0.2
2022-05-16T12:00:00,2358A,117.0564,28.2642,鹰潭市,新监测站,,,,21,,13,120,96,77,77,,6,,18,0.3,0.2
2022-05-16T12:00:00,2359A,117.0311,28.2475,鹰潭市,财苑宾馆,,34,27,22,7,12,125,107,85,85,7,7,39,11,0.5,0.3
2022-05-16T12:00:00,2360A,117.0222,28.2264,鹰潭市,体育馆,,36,27,22,14,13,125,114,86,86,6,7,20,17,0.3,0.4
2022-05-16T12:00:00,2361A,117.0017,28.2131,鹰潭市,三川水表,,36,30,25,22,14,123,114,85,85,10,10,20,15,0.4,0.5
2022-05-16T12:00:00,2362A,114.9017,25.9149,赣州市,通天岩(对照点),,34,26,21,17,14,127,107,117,108,5,7,2,3,0.8,0.9
2022-05-16T12:00:00,2363A,114.9367,25.8664,赣州市,地委,,28,28,21,19,15,111,86,107,90,8,8,6,6,0.6,0.7
2022-05-16T12:00:00,2364A,114.9461,25.8481,赣州市,气象台,,38,28,20,26,14,120,92,116,96,13,13,7,5,0.6,0.7
2022-05-16T12:00:00,2365A,114.9322,25.8333,赣州市,市图书馆,,30,28,21,19,15,121,95,116,97,11,12,14,8,0.9,0.8
2022-05-16T12:00:00,2366A,114.8905,25.8471,赣州市,华坚鞋城,,30,29,20,20,14,117,93,112,94,12,10,3,2,0.8,0.9
2022-05-16T12:00:00,2367A,114.9754,27.0803,吉安市,红声器材厂,,40,29,40,18,25,128,128,93,93,8,10,7,6,0.3,0.4
2022-05-16T12:00:00,2368A,114.9658,27.0999,吉安市,市森林工业局,,35,35,35,15,23,132,110,87,82,7,8,7,6,0.4,0.4
2022-05-16T12:00:00,2369A,114.99,27.1312,吉安市,市环境监测站,,35,30,37,19,25,127,112,91,78,8,11,6,6,0.2,0.4
2022-05-16T12:00:00,2370A,115.0093,27.0968,吉安市,青原区法院,,35,30,37,18,25,136,112,109,86,8,11,10,11,0.4,0.5
2022-05-16T12:00:00,2371A,114.3408,27.8064,宜春市,槟榔水业(对照点),,45,45,38,31,27,127,124,75,75,6,7,7,5,0.5,0.5
2022-05-16T12:00:00,2373A,114.3956,27.7844,宜春市,市石油公司,,45,37,38,31,25,125,125,69,69,7,6,5,4,0.5,0.5
2022-05-16T12:00:00,2374A,114.3703,27.7914,宜春市,市气象局,,42,42,34,28,24,132,129,78,78,9,10,5,5,0.6,0.5
2022-05-16T12:00:00,2375A,114.4013,27.8074,宜春市,市广电局,,49,46,40,34,26,128,122,73,73,10,11,1,2,0.7,0.6
2022-05-16T12:00:00,2376A,116.2127,28.0814,抚州市,桐源党溪(对照点),,35,22,24,14,16,113,110,68,65,4,5,5,6,0.4,0.5
2022-05-16T12:00:00,2377A,116.3544,27.9831,抚州市,市站,,38,28,30,14,17,119,119,88,88,7,9,11,7,0.6,0.6
2022-05-16T12:00:00,2378A,116.3565,27.963,抚州市,血防站,,,28,30,11,15,119,119,84,80,15,17,14,14,,0.3
2022-05-16T12:00:00,2379A,116.3564,28.0007,抚州市,采茶剧团,,36,26,27,16,16,115,115,80,80,6,9,6,4,0.5,0.5
2022-05-16T12:00:00,2380A,116.385,27.9647,抚州市,医学分院,,39,25,27,12,16,123,123,87,87,9,11,14,7,0.5,0.4
2022-05-16T12:00:00,2381A,118.005,28.4572,上饶市,百草园(对照点),,31,25,23,11,10,102,97,65,64,7,9,7,7,0.4,0.3
2022-05-16T12:00:00,2382A,117.9756,28.4436,上饶市,市监测站,,30,25,23,14,13,116,96,74,71,8,9,6,8,0.4,0.3
2022-05-16T12:00:00,2383A,117.9519,28.4628,上饶市,凤凰光学,,35,21,21,15,13,111,111,79,76,5,9,8,10,0.5,0.5
2022-05-16T12:00:00,2385A,114.17,35.9019,鹤壁市,市监测站,,36,27,68,12,27,158,115,106,106,6,23,5,9,0.4,0.6
2022-05-16T12:00:00,2386A,114.2956,35.7511,鹤壁市,市交警支队,,35,14,60,2,22,151,110,72,72,10,33,6,11,0.3,0.7
2022-05-16T12:00:00,2387A,114.2878,35.7306,鹤壁市,迎宾馆,,34,12,60,3,23,157,107,55,47,2,32,2,9,0.3,0.5
2022-05-16T12:00:00,2389A,113.836,35.311,新乡市,环保西院,颗粒物(PM10),60,70,72,22,27,148,118,67,67,13,25,15,14,0.5,0.4
2022-05-16T12:00:00,2390A,113.884,35.272,新乡市,开发区,颗粒物(PM10),62,73,67,24,28,148,122,76,76,18,28,13,12,0.7,0.6
2022-05-16T12:00:00,2391A,113.883,35.303,新乡市,环保东院,颗粒物(PM10),53,56,58,11,23,154,120,75,75,19,30,13,12,0.6,0.5
2022-05-16T12:00:00,2392A,115.0312,35.7636,濮阳市,环保局,,,,57,21,27,149,116,98,58,23,20,,12,0.5,0.4
2022-05-16T12:00:00,2394A,115.0574,35.7609,濮阳市,油田运输公司,颗粒物(PM10),70,89,81,28,28,161,128,104,75,28,21,17,14,0.6,0.4
2022-05-16T12:00:00,2395A,115.0866,35.7754,濮阳市,油田物探公司,细颗粒物(PM2.5),92,78,62,68,34,157,133,102,79,18,17,16,15,0.2,0.2
2022-05-16T12:00:00,2396A,113.8276,34.0159,许昌市,监测站,,50,50,38,16,18,145,126,72,72,9,14,10,12,0.3,0.5
2022-05-16T12:00:00,2398A,113.7906,33.9953,许昌市,开发区,颗粒物(PM10),60,70,46,18,16,157,136,70,70,9,18,10,12,0.4,0.5
2022-05-16T12:00:00,2399A,114.051,33.5699,漯河市,三五一五工厂,颗粒物(PM10),51,51,45,9,15,145,128,95,88,7,9,7,7,0.3,0.4
2022-05-16T12:00:00,2400A,114.0055,33.5698,漯河市,漯河大学,,46,46,41,16,20,140,123,85,78,6,10,10,10,0.5,0.6
2022-05-16T12:00:00,2401A,114.0138,33.5828,漯河市,市水利局,,44,44,40,10,17,144,120,94,86,13,10,7,7,0.5,0.5
2022-05-16T12:00:00,2402A,114.0261,33.5698,漯河市,市广电局,,49,49,39,15,19,144,123,88,82,8,10,9,9,0.3,0.3
2022-05-16T12:00:00,2403A,112.5192,32.9917,南阳市,环保局,,40,40,40,16,19,115,95,53,53,8,18,4,4,0.3,0.4
2022-05-16T12:00:00,2404A,112.5339,33.0086,南阳市,瓦房庄,,41,41,42,17,19,114,94,56,56,13,18,5,5,0.5,0.5
2022-05-16T12:00:00,2405A,112.5003,32.9735,南阳市,汉画馆,,36,36,39,13,19,115,98,47,47,9,25,6,7,0.4,0.6
2022-05-16T12:00:00,2406A,112.5779,33.0144,南阳市,气象站,,50,50,43,19,17,120,101,64,59,13,21,7,7,0.4,0.4
2022-05-16T12:00:00,2407A,112.548,32.9692,南阳市,理工学院,,40,40,44,14,19,113,94,45,45,7,18,1,3,0.4,0.5
2022-05-16T12:00:00,2408A,115.6702,34.4285,商丘市,环境监测站,颗粒物(PM10),58,66,49,29,32,132,122,94,78,14,13,12,10,0.5,0.4
2022-05-16T12:00:00,2409A,115.6458,34.4045,商丘市,粮食局,颗粒物(PM10),60,70,52,23,22,142,128,92,80,15,14,11,10,0.5,0.4
2022-05-16T12:00:00,2410A,115.6293,34.3948,商丘市,睢阳区环保局,细颗粒物(PM2.5),55,53,46,39,28,136,124,80,76,18,20,10,9,0.5,0.4
2022-05-16T12:00:00,2420A,114.0189,32.9656,驻马店市,市一纸厂,,40,40,40,17,20,131,108,86,86,6,10,9,8,0.2,0.2
2022-05-16T12:00:00,2421A,114.0114,33.015,驻马店市,市彩印厂,,48,48,38,12,11,139,110,94,88,8,9,6,6,0.2,0.2
2022-05-16T12:00:00,2422A,113.9976,32.9771,驻马店市,天方二分厂,,46,46,36,17,17,141,113,90,88,7,8,3,3,0.4,0.4
2022-05-16T12:00:00,2423A,115.0601,30.2313,黄石市,沈家营,颗粒物(PM10),61,71,84,24,42,134,134,73,73,9,20,10,17,0.4,1
2022-05-16T12:00:00,2424A,115.0817,30.2006,黄石市,陈家湾,颗粒物(PM10),56,61,71,38,49,129,129,98,76,12,14,9,9,0.9,0.9
2022-05-16T12:00:00,2426A,114.8988,30.2019,黄石市,铁山,颗粒物(PM10),55,59,86,24,53,131,127,66,66,7,29,10,13,0.5,1.4
2022-05-16T12:00:00,2427A,115.0307,30.2092,黄石市,团城山,,,72,75,,46,138,138,72,65,10,26,10,29,,1
2022-05-16T12:00:00,2428A,111.0419,32.395,十堰市,武当山(对照点),,35,12,21,8,11,133,110,116,107,8,8,8,8,0.5,0.5
2022-05-16T12:00:00,2429A,110.78,32.6494,十堰市,滨河新村,,40,40,44,16,21,100,87,41,41,7,21,7,7,0.5,0.7
2022-05-16T12:00:00,2430A,110.7258,32.6389,十堰市,刘家沟,,27,27,29,6,11,94,80,57,48,9,11,8,8,0.4,0.5
2022-05-16T12:00:00,2431A,110.8839,32.5714,十堰市,铁二处,,40,40,32,19,15,95,89,50,50,11,12,6,7,0.3,0.4
2022-05-16T12:00:00,2432A,112.155,32.0197,襄阳市,襄城运动路,,44,44,45,13,21,114,66,29,29,20,30,12,18,0.6,0.6
2022-05-16T12:00:00,2433A,112.1392,32.0564,襄阳市,樊城新华路,颗粒物(PM10),51,51,43,19,21,119,46,75,29,26,26,8,10,0.5,0.5
2022-05-16T12:00:00,2434A,112.1825,32.1142,襄阳市,高新管委会,颗粒物(PM10),53,55,48,20,28,119,63,33,26,22,29,6,17,0.5,0.5
2022-05-16T12:00:00,2435A,112.2106,32.0903,襄阳市,襄州航空路,颗粒物(PM10),58,65,51,21,31,112,54,41,31,27,27,9,19,0.5,0.5
2022-05-16T12:00:00,2436A,114.8938,30.3994,鄂州市,市政府,,46,46,70,27,39,117,102,61,58,14,19,10,10,0.6,0.5
2022-05-16T12:00:00,2437A,114.8989,30.3714,鄂州市,赵家坝,颗粒物(PM10),56,61,70,26,41,126,112,66,63,14,19,6,7,0.3,0.5
2022-05-16T12:00:00,2439A,112.2014,31.0481,荆门市,竹园小学,,,33,44,9,28,128,105,70,48,,17,5,10,0.4,0.6
2022-05-16T12:00:00,2440A,112.1969,30.9891,荆门市,掇刀,,32,29,48,11,32,130,100,54,54,12,19,8,14,0.4,0.4
2022-05-16T12:00:00,2441A,112.2213,31.0386,荆门市,石化一小,,31,30,52,20,33,116,98,68,48,10,20,10,13,0.4,0.5
2022-05-16T12:00:00,2443A,113.9153,30.9285,孝感市,文化路,颗粒物(PM10),56,61,66,32,35,125,118,74,72,11,14,5,7,0.5,0.6
2022-05-16T12:00:00,2444A,113.942,30.9075,孝感市,东城区,颗粒物(PM10),55,60,66,25,31,117,112,72,70,4,14,3,4,0.5,0.6
2022-05-16T12:00:00,2446A,114.9028,30.4742,黄冈市,职工中心,颗粒物(PM10),53,56,72,29,39,140,132,81,76,14,21,6,6,0.6,0.7
2022-05-16T12:00:00,2447A,114.3175,29.8142,咸宁市,森林公园(对照点),,45,34,37,31,32,137,137,108,101,2,4,7,16,0.3,0.5
2022-05-16T12:00:00,2448A,114.3107,29.8454,咸宁市,市发改委,,43,32,42,30,36,135,135,76,76,7,10,8,11,0.2,0.4
2022-05-16T12:00:00,2449A,114.2936,29.8566,咸宁市,咸安区政府,,43,21,41,18,33,136,136,79,79,10,15,6,9,0.3,0.5
2022-05-16T12:00:00,2451A,113.3583,31.7275,随州市,市委党校,,44,44,37,18,24,124,93,43,43,13,19,5,3,0.5,0.6
2022-05-16T12:00:00,2452A,113.3833,31.6908,随州市,市林业局,,33,23,30,13,21,134,103,70,56,6,9,6,8,0.4,0.4
2022-05-16T12:00:00,2453A,113.3983,31.7308,随州市,市立交桥水厂,,31,31,43,13,27,127,97,40,40,8,19,12,9,0.5,0.6
2022-05-16T12:00:00,2454A,109.4978,30.2981,恩施土家族苗族自治州,湖北民院,,26,26,34,17,20,80,75,41,41,7,8,8,8,0.6,0.8
2022-05-16T12:00:00,2455A,109.4707,30.2798,恩施土家族苗族自治州,州电力总公司,,31,31,33,8,16,77,77,40,40,8,12,4,7,0.4,0.9
2022-05-16T12:00:00,2456A,112.5003,26.9167,衡阳市,原169医院(对照点),颗粒物(PM10),51,52,30,18,18,98,98,69,69,5,7,6,5,0.6,0.6
2022-05-16T12:00:00,2457A,112.6194,26.9258,衡阳市,衡阳化工总厂,颗粒物(PM10),55,59,33,32,23,118,118,73,73,10,14,7,5,0.6,0.5
2022-05-16T12:00:00,2458A,112.6211,26.8956,衡阳市,珠晖区环保局,,,43,30,,,115,115,75,75,13,15,6,4,0.7,0.7
2022-05-16T12:00:00,2459A,112.6197,26.8733,衡阳市,市委党校,,,36,30,29,29,116,116,79,79,8,11,6,5,,0.6
2022-05-16T12:00:00,2460A,112.6006,26.8919,衡阳市,市监测站,,49,49,32,34,26,117,117,79,79,9,10,10,7,0.7,0.6
2022-05-16T12:00:00,2461A,112.5664,26.9056,衡阳市,真空机电公司,,,48,30,,,110,110,74,74,11,12,5,4,0.5,0.6
2022-05-16T12:00:00,2462A,111.5239,27.3033,邵阳市,市水土所(对照点),,40,35,19,28,25,118,118,58,58,6,6,7,6,0.6,0.6
2022-05-16T12:00:00,2463A,111.4733,27.2317,邵阳市,市一中,,38,34,25,26,19,117,117,72,72,8,11,8,7,0.4,0.5
2022-05-16T12:00:00,2464A,111.5283,27.2442,邵阳市,市化工厂,,44,44,30,26,18,122,122,67,67,8,10,6,5,0.9,0.8
2022-05-16T12:00:00,2465A,111.4503,27.2537,邵阳市,市罐头厂,,47,47,27,32,20,113,113,64,64,8,10,10,9,0.3,0.3
2022-05-16T12:00:00,2466A,111.4328,27.2272,邵阳市,市环保局,,45,45,27,29,17,116,116,69,69,10,11,10,9,0.4,0.4
