timepoint,stationcode,longitude,latitude,area,positionname,primarypollutant,aqi,pm10,pm10_24h,pm2_5,pm2_5_24h,o3,o3_24h,o3_8h,o3_8h_24h,no2,no2_24h,so2,so2_24h,co,co_24h
2025-12-24T1300,2568A,102.2502,31.8896,阿坝藏族羌族自治州,马师校,,22,,23,15,20,56,56,32,32,8,19,5,5,0.6,0.7
2025-12-24T1300,3994A,102.2165,31.9024,阿坝藏族羌族自治州,马尔康中学西区,,27,27,21,7,12,58,58,36,36,7,16,5,6,0.6,0.7
2025-12-24T1300,2695A,80.292,41.1694,阿克苏地区,电视台,颗粒物(PM10),100,150,192,63,57,27,27,24,20,33,32,4,5,0.8,0.6
2025-12-24T1300,2696A,80.2613,41.1551,阿克苏地区,艺术中心,颗粒物(PM10),95,139,188,59,64,33,33,24,18,22,24,5,4,1.0,1
2025-12-24T1300,2205A,105.6985,38.8411,阿拉善盟,蒙二幼,,26,25,53,10,16,82,82,78,78,5,7,9,9,0.7,0.7
2025-12-24T1300,2206A,105.724,38.8516,阿拉善盟,环保局新楼,,28,28,45,14,26,75,75,74,74,4,5,9,9,0.5,0.5
2025-12-24T1300,2708A,88.1264,47.8517,阿勒泰地区,市站,,,16,12,3,8,,,53,39,,34,,3,,0.6
2025-12-24T1300,2630A,80.1161,32.5,阿里地区,阿里监测站,,20,6,3,3,3,62,62,66,63,9,7,7,7,0.4,0.3
2025-12-24T1300,3192A,80.0903,32.5028,阿里地区,阿里藏医院,,,,8,13,10,68,68,56,56,7,9,16,12,0.4,0.4
2025-12-24T1300,2644A,109.0072,32.6975,安康市,汉滨区检察院,细颗粒物(PM2.5),69,78,55,50,38,10,10,4,4,27,24,4,4,0.7,0.7
2025-12-24T1300,4054A,109.0325,32.6913,安康市,市邮政管理局,细颗粒物(PM2.5),69,77,48,50,38,8,8,2,2,25,23,4,5,1.0,0.9
2025-12-24T1300,2291A,117.0809,30.5177,安庆市,环科院,细颗粒物(PM2.5),75,58,47,55,42,15,15,13,13,15,12,4,4,0.7,0.7
2025-12-24T1300,2292A,117.0331,30.5119,安庆市,马山宾馆,细颗粒物(PM2.5),63,50,40,45,40,18,18,14,14,19,17,4,3,0.7,0.7
2025-12-24T1300,2294A,116.9896,30.6145,安庆市,安庆大学,细颗粒物(PM2.5),95,,50,71,53,24,24,17,17,16,14,3,2,0.6,0.6
2025-12-24T1300,3173A,117.0598,30.5351,安庆市,市人大,细颗粒物(PM2.5),69,60,46,50,44,15,15,12,12,20,18,4,4,0.6,0.5
2025-12-24T1300,3122A,105.9606,26.2611,安顺市,伍家关,,27,27,28,17,16,32,32,36,35,11,12,12,14,0.7,0.7
2025-12-24T1300,3123A,105.9408,26.2431,安顺市,凤凰山,,,,30,,25,34,34,39,36,,15,,16,0.7,0.6
2025-12-24T1300,3124A,105.9439,26.2564,安顺市,金钟山,,36,27,27,25,26,35,35,40,38,10,12,12,15,0.7,0.7
2025-12-24T1300,3125A,105.8983,26.2481,安顺市,娄家坡,,43,37,33,30,28,29,29,38,34,14,14,14,23,0.8,0.8
2025-12-24T1300,1819A,114.3551,36.1017,安阳市,红庙街,细颗粒物(PM2.5),68,73,102,49,79,54,54,18,18,22,37,5,5,0.5,1.2
2025-12-24T1300,1820A,114.361,36.0681,安阳市,银杏小区,细颗粒物(PM2.5),85,72,108,63,82,50,50,18,18,26,36,7,4,0.6,1.3
2025-12-24T1300,3141A,114.3922,36.0878,安阳市,信访局,细颗粒物(PM2.5),84,79,105,62,80,55,55,18,18,24,44,6,4,0.8,1.4
2025-12-24T1300,3669A,114.4705,36.0637,安阳市,左辅环卫站,细颗粒物(PM2.5),92,86,124,68,89,58,58,17,17,20,39,3,2,0.7,1.2
2025-12-24T1300,3703A,114.2917,36.0949,安阳市,安钢职工学校,细颗粒物(PM2.5),69,66,113,50,82,50,50,15,15,18,39,4,5,0.3,1
2025-12-24T1300,1748A,123.044,41.1196,鞍山市,深沟寺,,36,36,57,14,21,52,52,28,28,24,25,12,8,0.6,0.7
2025-12-24T1300,1749A,123.011,41.0931,鞍山市,太阳城,,29,29,44,12,22,57,57,38,38,15,23,10,11,0.5,0.8
2025-12-24T1300,1750A,123.0485,41.1442,鞍山市,太平,,40,40,74,12,34,56,56,26,23,25,29,18,12,0.7,0.8
2025-12-24T1300,1751A,122.9642,41.0971,鞍山市,铁西三道街,颗粒物(PM10),52,54,59,23,24,36,36,25,24,45,36,40,23,2.4,1.5
2025-12-24T1300,1753A,123.022,41.0821,鞍山市,明达新区,,28,28,43,12,20,56,56,39,39,18,21,14,12,0.3,0.4
2025-12-24T1300,4201A,122.9446,41.0826,鞍山市,兴盛南路290号,颗粒物(PM10),68,86,70,46,31,33,33,22,21,56,41,32,28,1.7,1.5
2025-12-24T1300,2195A,107.4212,40.761,巴彦淖尔市,附二中,,49,49,54,33,22,49,49,54,38,14,14,7,5,0.3,0.4
2025-12-24T1300,2196A,107.37,40.7372,巴彦淖尔市,市环保大楼,,37,37,51,12,22,60,60,48,39,14,14,6,4,0.4,0.3
2025-12-24T1300,1956A,86.1472,41.7538,巴音郭楞蒙古自治州,孔雀公园,颗粒物(PM10),82,113,131,29,33,13,13,4,4,52,56,11,9,0.9,0.8
2025-12-24T1300,1957A,86.1972,41.7166,巴音郭楞蒙古自治州,棉纺厂,颗粒物(PM10),83,115,89,8,18,37,37,19,19,18,35,7,6,0.5,0.7
2025-12-24T1300,1958A,86.2357,41.7173,巴音郭楞蒙古自治州,经济开发区,,,,84,,13,,,19,16,34,31,7,6,,0.5
2025-12-24T1300,3181A,106.7768,31.8526,巴中市,市五中,颗粒物(PM10),55,60,68,33,33,16,16,14,14,27,22,5,5,0.8,0.8
2025-12-24T1300,3183A,106.7418,31.8654,巴中市,圣泉水务公司,,,52,62,29,34,11,11,7,7,30,28,,5,0.8,0.6
2025-12-24T1300,3616A,106.7616,31.8344,巴中市,市中心医院,,47,47,53,31,34,17,17,9,9,24,24,6,6,0.7,0.8
2025-12-24T1300,2235A,122.7911,45.6077,白城市,洮北区环保局,,39,,27,27,20,57,57,48,43,12,13,6,6,0.2,0.2
2025-12-24T1300,2236A,122.8738,45.5725,白城市,市环保局,,29,22,23,20,22,56,56,42,37,11,17,7,6,0.4,0.4
2025-12-24T1300,2231A,126.4219,41.9171,白山市,喜丰,,,,38,,19,58,58,40,38,12,15,3,10,0.7,0.8
2025-12-24T1300,2232A,126.4077,41.9419,白山市,环保局,,30,22,25,21,22,60,60,26,26,11,23,11,10,0.9,0.9
2025-12-24T1300,2647A,104.1724,36.5446,白银市,第三小学,,28,23,44,9,20,87,87,69,69,7,18,8,11,0.5,0.8
2025-12-24T1300,2648A,104.1465,36.5482,白银市,动力公司,,26,19,43,7,21,82,82,64,64,6,16,3,6,0.5,0.7
2025-12-24T1300,2512A,106.6103,23.9011,百色市,市监测站,,,18,23,12,10,16,16,16,16,15,15,,7,0.7,0.5
2025-12-24T1300,2513A,106.6538,23.8859,百色市,市中心血站,,21,21,22,11,8,21,21,13,13,17,20,6,7,0.7,0.7
2025-12-24T1300,3406A,106.6085,23.8798,百色市,祈福高中,,24,24,24,13,11,13,13,13,13,18,19,5,6,0.6,0.6
2025-12-24T1300,2270A,117.396,32.939,蚌埠市,工人疗养院,细颗粒物(PM2.5),94,94,78,70,60,34,34,22,22,23,27,7,5,0.7,0.6
2025-12-24T1300,2271A,117.3605,32.9427,蚌埠市,百货大楼,细颗粒物(PM2.5),89,98,70,66,58,34,34,22,22,24,27,6,4,0.7,0.6
2025-12-24T1300,2273A,117.4185,32.8911,蚌埠市,蚌埠学院,细颗粒物(PM2.5),82,80,60,60,55,32,32,21,21,25,28,5,3,0.7,0.6
2025-12-24T1300,2274A,117.3533,32.9673,蚌埠市,淮上区政府,细颗粒物(PM2.5),97,90,71,72,60,38,38,24,24,21,26,4,2,0.6,0.6
2025-12-24T1300,2275A,117.3145,32.8977,蚌埠市,高新区,细颗粒物(PM2.5),87,80,65,64,61,27,27,21,21,25,27,9,6,0.7,0.6
2025-12-24T1300,3715A,117.3092,32.9314,蚌埠市,蚌埠田家炳中学,细颗粒物(PM2.5),90,98,80,67,63,32,32,19,19,27,34,8,5,0.7,0.6
2025-12-24T1300,1585A,109.8756,40.6532,包头市,市环境监测站,,30,30,94,7,19,69,69,44,44,9,37,5,9,0.6,1
2025-12-24T1300,1587A,109.9991,40.5842,包头市,包头八中,,31,31,96,12,31,66,66,39,39,9,39,8,10,0.5,0.9
2025-12-24T1300,1588A,109.8538,40.6821,包头市,青山宾馆,,31,31,83,12,33,67,67,34,34,10,42,8,11,0.6,1.1
2025-12-24T1300,1589A,109.8642,40.6288,包头市,惠龙物流,,26,26,87,12,26,67,67,51,51,11,38,9,16,0.5,1
2025-12-24T1300,1590A,110.0377,40.5546,包头市,东河鸿龙湾,,22,16,106,3,34,68,68,30,30,2,39,8,9,0.6,1.4
2025-12-24T1300,3283A,109.9154,40.5685,包头市,滨河大厦,,29,29,104,12,34,66,66,28,28,3,36,7,10,0.6,1.2
2025-12-24T1300,3419A,109.9447,40.6261,包头市,包头市委党校,,43,43,89,7,22,65,65,30,30,10,39,12,13,0.8,0.9
2025-12-24T1300,3683A,109.8331,40.6576,包头市,昆区政府,,33,33,87,15,26,64,64,48,48,14,39,7,11,0.5,1.1
2025-12-24T1300,1931A,107.0708,34.3017,宝鸡市,竹园沟,颗粒物(PM10),73,96,86,28,27,52,52,24,24,12,13,7,6,0.3,0.3
2025-12-24T1300,1932A,107.1906,34.3672,宝鸡市,三陆医院,颗粒物(PM10),92,134,140,29,42,40,40,17,17,26,32,8,6,0.4,0.4
2025-12-24T1300,1933A,107.1431,34.3547,宝鸡市,监测站,颗粒物(PM10),81,112,110,33,33,40,40,17,17,21,27,5,4,0.4,0.3
2025-12-24T1300,1934A,107.1186,34.3739,宝鸡市,技工学校,颗粒物(PM10),94,137,126,18,40,47,47,25,25,16,21,6,6,0.3,0.4
2025-12-24T1300,1936A,107.2058,34.3497,宝鸡市,文理学院,颗粒物(PM10),78,105,123,33,32,44,44,19,19,21,31,6,4,0.4,0.4
2025-12-24T1300,1937A,107.2386,34.3622,宝鸡市,三迪小学,,,128,136,36,41,40,40,17,17,,36,6,5,0.5,0.5
2025-12-24T1300,4308A,107.3898,34.3601,宝鸡市,陈仓区北开路21号,颗粒物(PM10),97,143,152,32,46,51,51,30,30,21,31,8,13,0.7,0.7
2025-12-24T1300,1051A,115.493,38.8632,保定市,游泳馆,,,60,71,27,50,54,54,14,14,,52,5,5,0.3,0.5
2025-12-24T1300,1052A,115.5213,38.8959,保定市,华电二区,,48,48,65,33,53,50,50,12,12,20,42,3,3,0.6,0.8
2025-12-24T1300,1053A,115.4713,38.9108,保定市,接待中心,细颗粒物(PM2.5),53,53,84,37,57,48,48,14,14,24,51,3,2,0.3,0.5
2025-12-24T1300,1054A,115.4612,38.8416,保定市,地表水厂,颗粒物(PM10),51,52,90,34,60,50,50,17,17,23,52,4,5,0.5,0.7
2025-12-24T1300,3582A,115.47694,38.76408,保定市,清苑区第二中学,颗粒物(PM10),61,72,104,32,61,52,52,19,19,21,47,5,5,0.5,0.7
2025-12-24T1300,3583A,115.62909,39.02311,保定市,徐水物探局,细颗粒物(PM2.5),72,87,94,52,56,28,28,9,9,52,59,8,8,0.7,0.8
2025-12-24T1300,4004A,115.4202,38.8656,保定市,双鹰农机,,,67,109,37,57,52,52,20,20,26,48,6,5,,0.7
2025-12-24T1300,4034A,115.5150,38.8590,保定市,植保所站,细颗粒物(PM2.5),53,40,72,37,51,49,49,11,11,27,60,1,3,0.5,0.7
2025-12-24T1300,2594A,99.1678,25.1081,保山市,市环境监测站,,22,22,22,8,14,67,67,50,50,5,8,2,4,0.2,0.3
2025-12-24T1300,2595A,99.1711,25.1328,保山市,市环保局,,24,24,24,14,20,73,73,55,55,3,5,4,4,0.4,0.5
2025-12-24T1300,1866A,109.2262,21.588,北海市,牛尾岭水库,,31,31,28,15,17,72,72,56,56,9,12,8,8,0.5,0.5
2025-12-24T1300,1867A,109.1436,21.4086,北海市,海滩公园,,32,25,34,15,16,100,100,71,69,7,10,11,8,0.8,0.7
2025-12-24T1300,1868A,109.0981,21.4661,北海市,新市环保局,,29,24,32,19,17,91,91,70,68,13,11,8,6,0.5,0.5
2025-12-24T1300,1869A,109.1778,21.5233,北海市,北海工业园,,32,32,40,17,20,95,95,57,57,5,13,9,8,0.7,0.7
2025-12-24T1300,3400A,109.1911,21.4415,北海市,龙潭自来水厂,,33,33,32,21,20,98,98,62,61,6,7,10,7,0.6,0.6
2025-12-24T1300,1001A,116.3621,39.8784,北京市,万寿西宫,,33,33,16,13,6,26,26,21,14,46,31,3,2,0.5,0.5
2025-12-24T1300,1003A,116.4174,39.9289,北京市,东四,,31,31,15,14,7,27,27,18,16,38,27,3,2,0.7,0.5
2025-12-24T1300,1004A,116.4072,39.8863,北京市,天坛,,31,31,13,15,7,28,28,12,12,46,27,3,2,0.6,0.4
2025-12-24T1300,1005A,116.462,39.9365,北京市,农展馆,,36,36,13,14,4,32,32,15,15,33,29,4,4,0.7,0.5
2025-12-24T1300,1006A,116.3392,39.9295,北京市,官园,,38,38,16,17,8,23,23,24,15,47,29,4,3,0.8,0.5
2025-12-24T1300,1007A,116.2878,39.9611,北京市,海淀万柳,,37,37,17,15,8,22,22,8,8,49,44,4,3,0.5,0.4
2025-12-24T1300,1008A,116.6636,40.135,北京市,顺义新城,,28,28,14,12,6,36,36,22,22,23,18,5,4,0.3,0.2
2025-12-24T1300,1009A,116.6275,40.3275,北京市,怀柔镇,,20,20,10,11,6,39,39,38,32,19,14,6,6,0.4,0.4
2025-12-24T1300,1010A,116.2296,40.217,北京市,昌平镇,,39,39,15,15,7,56,56,31,31,15,22,5,4,0.4,0.3
2025-12-24T1300,1011A,116.3966,39.9821,北京市,奥体中心,,30,30,14,13,6,28,28,11,11,43,39,5,4,0.5,0.6
2025-12-24T1300,3281A,115.9718,40.4529,北京市,延庆夏都,,43,43,21,22,12,37,37,19,19,26,29,5,2,0.6,0.7
2025-12-24T1300,3418A,116.8336,40.4095,北京市,密云新城,,18,18,9,10,6,47,47,36,30,24,14,3,2,0.4,0.3
2025-12-24T1300,3671A,116.088,39.9726,北京市,门头沟三家店,,45,45,19,11,7,52,52,32,32,11,21,6,4,0.4,0.3
2025-12-24T1300,3672A,116.1541,39.8204,北京市,丰台云岗,,30,30,13,13,5,47,47,30,26,21,21,3,2,0.4,0.3
2025-12-24T1300,3673A,116.6804,39.9081,北京市,通州东关,,33,33,20,15,9,30,30,14,14,31,34,5,4,0.4,0.3
2025-12-24T1300,3674A,115.9577,39.7603,北京市,房山燕山,,34,34,17,15,8,46,46,27,27,25,18,4,3,0.4,0.3
2025-12-24T1300,3675A,116.4672,39.7733,北京市,大兴旧宫,,30,30,16,11,6,31,31,10,10,42,37,3,4,0.6,0.5
2025-12-24T1300,3694A,115.986,40.4563,北京市,延庆石河营,,40,40,21,24,13,34,34,14,14,28,31,2,3,0.6,0.5
2025-12-24T1300,3695A,116.6151,40.3053,北京市,怀柔新城,,21,21,9,12,6,33,33,40,34,24,11,4,3,0.4,0.3
2025-12-24T1300,3696A,116.2545,39.8768,北京市,丰台小屯,,35,35,21,14,8,29,29,10,10,38,37,4,3,0.5,0.4
2025-12-24T1300,3697A,116.84,40.3844,北京市,密云镇,,23,23,10,10,6,43,43,18,18,19,20,3,2,0.4,0.4
2025-12-24T1300,4182A,116.1942,39.9158,北京市,八角北路9号,,34,34,17,12,6,33,33,18,18,27,26,1,2,0.3,0.3
2025-12-24T1300,4194A,117.0790,40.1518,北京市,洳河巡河路,,16,16,15,9,11,46,46,25,25,15,14,4,2,0.4,0.5
2025-12-24T1300,1761A,123.8275,41.3064,本溪市,大峪,颗粒物(PM10),56,62,58,27,33,51,51,24,24,24,25,13,10,0.9,1.3
2025-12-24T1300,1762A,123.7567,41.3325,本溪市,溪湖,颗粒物(PM10),61,72,66,33,37,51,51,20,20,26,31,11,8,1.0,1.2
2025-12-24T1300,1763A,123.7169,41.3094,本溪市,彩屯,细颗粒物(PM2.5),73,71,75,53,50,45,45,21,21,33,32,16,8,1.3,1.2
2025-12-24T1300,1764A,123.7669,41.2864,本溪市,东明,颗粒物(PM10),62,73,63,20,40,53,53,17,17,19,31,12,8,1.0,1.2
2025-12-24T1300,1765A,123.7992,41.2664,本溪市,新立屯,颗粒物(PM10),65,80,55,28,30,41,41,17,17,22,28,13,8,1.0,1
2025-12-24T1300,1766A,123.8142,41.3472,本溪市,威宁,,,84,64,42,33,46,46,20,20,16,22,,6,,1.3
2025-12-24T1300,2587A,105.2864,27.3125,毕节市,八中,,31,31,35,20,24,50,50,48,47,8,9,8,8,0.7,0.7
2025-12-24T1300,2588A,105.31,27.2944,毕节市,师专,,30,30,34,15,24,50,50,48,47,11,12,8,8,0.6,0.6
2025-12-24T1300,4263A,105.3688,27.3598,毕节市,工业大道,,48,48,34,33,25,50,50,51,49,5,8,9,10,0.6,0.8
2025-12-24T1300,1629A,118.0018,37.3617,滨州市,第二水厂,细颗粒物(PM2.5),69,83,80,50,58,35,35,16,16,33,45,11,9,0.7,0.9
2025-12-24T1300,1630A,117.9776,37.393,滨州市,北中新校,颗粒物(PM10),59,68,80,39,56,47,47,19,19,26,45,9,7,0.4,0.7
2025-12-24T1300,3514A,117.9378,37.3956,滨州市,中海酒店,细颗粒物(PM2.5),67,78,84,48,67,45,45,23,23,27,43,12,9,0.5,1.2
2025-12-24T1300,3515A,117.9378,37.3553,滨州市,开发区一中,细颗粒物(PM2.5),83,90,96,61,70,38,38,16,16,28,41,14,11,0.8,0.9
2025-12-24T1300,3516A,118.0917,37.694,滨州市,金海六路,,41,41,49,9,25,62,62,27,27,17,40,9,12,0.3,0.5
2025-12-24T1300,4028A,117.9956,37.3753,滨州市,滨州市西街道办事处,颗粒物(PM10),60,70,75,41,57,48,48,22,22,25,43,14,10,0.4,0.6
2025-12-24T1300,2311A,115.8072,33.8399,亳州市,污水处理厂,,,87,88,62,76,40,40,12,12,,39,20,5,,0.7
2025-12-24T1300,2312A,115.7789,33.8518,亳州市,三国揽胜宫,细颗粒物(PM2.5),93,110,104,69,70,40,40,16,16,29,38,8,5,0.7,0.7
2025-12-24T1300,3332A,115.7633,33.8034,亳州市,亳州学院,细颗粒物(PM2.5),98,91,94,73,79,41,41,22,22,27,30,6,3,0.7,0.7
2025-12-24T1300,2693A,82.0485,44.8556,博尔塔拉蒙古自治州,市党校,颗粒物(PM10),57,63,71,35,36,45,45,38,38,23,16,4,3,0.8,0.7
2025-12-24T1300,2694A,82.0806,44.8969,博尔塔拉蒙古自治州,市环保局,颗粒物(PM10),53,56,66,28,31,61,61,42,42,16,14,6,5,0.6,0.6
2025-12-24T1300,1071A,116.8842,38.2991,沧州市,沧县城建局,,43,43,50,19,29,51,51,21,21,20,36,7,3,0.4,0.4
2025-12-24T1300,1072A,116.8584,38.3254,沧州市,电视转播站,,41,41,52,22,26,49,49,18,18,22,38,6,4,0.8,0.8
2025-12-24T1300,1073A,116.8709,38.3228,沧州市,市环保局,,48,48,49,25,36,38,38,18,18,16,31,6,3,0.4,0.3
2025-12-24T1300,3324A,116.8136,38.3004,沧州市,河北水利电力学院,,41,41,43,16,24,42,42,18,18,24,36,12,8,0.6,0.3
2025-12-24T1300,2622A,97.1806,31.1273,昌都市,昌都监测站,,38,38,61,12,23,65,65,39,39,14,28,4,6,0.6,1
2025-12-24T1300,3719A,97.1714,31.1406,昌都市,昌都会议中心,,19,17,21,9,14,60,60,43,40,8,11,2,2,0.5,0.6
2025-12-24T1300,2692A,87.2717,44.0297,昌吉回族自治州,新区政务中心,细颗粒物(PM2.5),75,80,65,55,48,21,21,25,18,29,34,6,5,1.3,1.1
2025-12-24T1300,3613A,87.3095,44.0142,昌吉回族自治州,亚心广场,细颗粒物(PM2.5),89,85,69,66,55,23,23,26,18,28,29,8,6,1.5,0.9
2025-12-24T1300,1120A,125.2863,43.9027,长春市,客车厂,,32,23,66,22,63,55,55,30,30,19,44,9,11,0.4,0.7
2025-12-24T1300,1121A,125.2841,43.8463,长春市,邮电学院,,32,32,71,21,59,47,47,24,24,22,32,16,9,0.4,0.7
2025-12-24T1300,1122A,125.3716,43.8772,长春市,劳动公园,,27,27,72,14,55,50,50,26,26,22,40,11,9,0.2,0.6
2025-12-24T1300,1123A,125.3297,43.8805,长春市,园林处,,,20,62,20,51,48,48,25,25,18,40,,8,,0.5
2025-12-24T1300,1124A,125.4605,43.79,长春市,净月潭,细颗粒物(PM2.5),65,62,67,47,44,49,49,31,31,24,22,9,6,0.7,0.6
2025-12-24T1300,1125A,125.7194,43.515,长春市,甩湾子,,,57,71,30,66,60,60,36,36,,15,5,5,0.8,1.2
2025-12-24T1300,1126A,125.3863,43.8447,长春市,经开区环卫处,,,,82,42,56,41,41,14,14,,45,,6,0.8,0.9
2025-12-24T1300,1127A,125.245,43.7783,长春市,高新区管委会,,37,37,75,24,67,45,45,23,23,23,40,7,5,0.3,0.7
2025-12-24T1300,1128A,125.1761,43.8325,长春市,岱山公园,,38,33,74,26,60,56,56,27,27,13,42,9,8,0.4,0.7
2025-12-24T1300,4281A,125.3346,43.9164,长春市,北亚泰大街1068号,,27,27,63,18,56,51,51,24,24,22,44,31,10,0.5,0.8
2025-12-24T1300,1335A,113.0833,28.2325,长沙市,经开区环保局,细颗粒物(PM2.5),112,89,39,84,59,12,12,18,14,26,22,4,3,0.8,0.7
2025-12-24T1300,1336A,112.8872,28.2189,长沙市,高开区环保局,细颗粒物(PM2.5),115,92,50,87,52,21,21,21,19,16,13,4,4,0.8,0.7
2025-12-24T1300,1337A,113.0792,28.2053,长沙市,马坡岭,细颗粒物(PM2.5),87,93,43,64,33,12,12,17,12,22,18,4,4,0.9,0.8
2025-12-24T1300,1338A,112.9394,28.19,长沙市,湖南师范大学,细颗粒物(PM2.5),89,100,48,66,33,22,22,23,21,19,16,2,2,0.7,0.6
2025-12-24T1300,1339A,113.0178,28.1322,长沙市,雨花区环保局,细颗粒物(PM2.5),99,85,40,74,40,11,11,15,11,22,19,6,6,0.7,0.6
2025-12-24T1300,1340A,112.9792,28.2597,长沙市,伍家岭,细颗粒物(PM2.5),88,91,42,65,34,16,16,17,14,23,18,4,4,0.9,0.8
2025-12-24T1300,1341A,113.0014,28.1944,长沙市,火车新站,细颗粒物(PM2.5),94,91,46,70,41,16,16,19,15,27,21,7,7,0.8,0.7
2025-12-24T1300,1342A,112.9844,28.1178,长沙市,天心区环保局,细颗粒物(PM2.5),88,87,46,65,37,19,19,22,19,28,24,6,6,0.5,0.4
2025-12-24T1300,1343A,112.8908,28.1308,长沙市,湖南中医药大学,细颗粒物(PM2.5),102,96,47,76,42,19,19,23,18,23,17,5,5,0.9,0.8
2025-12-24T1300,1727A,113.1147,36.1547,长治市,清华站,颗粒物(PM10),89,128,126,48,40,42,42,14,14,29,35,21,13,0.8,0.7
2025-12-24T1300,1730A,113.0886,36.2125,长治市,审计局,颗粒物(PM10),84,117,125,46,41,47,47,16,16,31,40,24,16,0.7,0.5
2025-12-24T1300,1731A,113.0844,36.1856,长治市,长治八中,,,140,153,56,49,45,45,13,13,19,33,21,14,,0.8
2025-12-24T1300,2845A,113.1569,36.1911,长治市,德盛苑,颗粒物(PM10),84,118,126,48,41,48,48,29,27,25,19,24,13,1.1,0.8
2025-12-24T1300,3568A,113.06,36.0464,长治市,向阳小学,颗粒物(PM10),105,160,149,45,40,55,55,29,29,25,34,19,14,0.7,0.7
2025-12-24T1300,3569A,112.8792,36.3144,长治市,屯留一中,颗粒物(PM10),81,112,144,36,38,49,49,23,23,18,30,30,16,0.6,0.5
2025-12-24T1300,4189A,113.1131,36.19948,长治市,英华南巷50号,颗粒物(PM10),88,125,134,53,45,50,50,18,18,20,28,22,13,1.1,1
2025-12-24T1300,4190A,113.2367,36.3344,长治市,学府街1号,颗粒物(PM10),99,147,138,47,41,60,60,25,25,25,36,30,26,1.1,1.1
2025-12-24T1300,1854A,111.6975,28.9703,常德市,市二中,细颗粒物(PM2.5),74,83,46,54,32,42,42,26,26,15,18,7,5,0.6,0.7
2025-12-24T1300,3138A,111.7153,29.0289,常德市,武陵区永安,颗粒物(PM10),68,86,48,46,30,39,39,25,25,17,18,5,4,0.7,0.8
2025-12-24T1300,3139A,111.6892,28.9881,常德市,鼎城区玉霞,颗粒物(PM10),67,83,44,47,34,38,38,22,22,19,21,8,7,0.7,0.8
2025-12-24T1300,3140A,111.6625,29.0531,常德市,武陵区长庚,,,97,46,44,26,30,30,15,15,12,20,5,4,,0.7
2025-12-24T1300,1196A,119.9633,31.762,常州市,市监测站,细颗粒物(PM2.5),95,88,63,71,42,14,14,17,15,38,33,7,6,0.6,0.6
2025-12-24T1300,1200A,119.9468,31.7069,常州市,武进监测站,细颗粒物(PM2.5),92,88,65,68,38,16,16,15,14,33,31,10,9,0.6,0.6
2025-12-24T1300,1201A,119.9255,31.9087,常州市,安家,细颗粒物(PM2.5),90,96,86,67,41,13,13,13,11,38,36,11,10,0.8,0.8
2025-12-24T1300,3002A,119.9805,31.8174,常州市,行政中心,细颗粒物(PM2.5),87,99,55,64,42,22,22,15,13,30,33,7,6,0.6,0.6
2025-12-24T1300,3003A,120.0522,31.7748,常州市,经开区,细颗粒物(PM2.5),79,89,71,58,39,23,23,18,18,26,30,4,4,1.0,0.9
2025-12-24T1300,3010A,119.9025,31.7964,常州市,钟楼,细颗粒物(PM2.5),94,84,67,70,42,16,16,14,12,33,32,9,6,0.4,0.4
2025-12-24T1300,3429A,119.8598,31.7066,常州市,武进经发区,细颗粒物(PM2.5),94,88,53,70,47,13,13,12,11,38,32,8,6,0.8,0.7
2025-12-24T1300,3430A,119.5826,31.7245,常州市,金坛城区,细颗粒物(PM2.5),94,89,55,70,45,20,20,16,16,28,25,6,6,0.8,0.8
2025-12-24T1300,2220A,120.4318,41.5881,朝阳市,西梁,颗粒物(PM10),55,60,42,18,19,45,45,25,25,19,21,21,10,1.2,0.8
2025-12-24T1300,2221A,120.4521,41.5646,朝阳市,河畔小区,,43,43,33,17,14,50,50,34,34,13,17,14,8,0.6,0.5
2025-12-24T1300,2222A,120.4176,41.5648,朝阳市,八里堡,,39,39,40,17,20,46,46,23,23,19,22,24,9,1.2,0.6
2025-12-24T1300,2223A,120.3806,41.5969,朝阳市,农业园区,,47,47,39,18,24,54,54,23,20,11,21,14,9,0.6,0.6
2025-12-24T1300,3026A,116.6183,23.6608,潮州市,市政府,颗粒物(PM10),59,68,53,28,32,132,132,54,54,8,16,13,9,0.8,0.8
2025-12-24T1300,4036A,116.6461,23.6761,潮州市,金山,颗粒物(PM10),54,58,52,32,38,128,128,49,49,12,20,10,5,0.4,0.5
2025-12-24T1300,2473A,113.0116,25.8226,郴州市,市职中,,19,,24,13,23,13,13,12,12,16,17,3,4,0.8,0.8
2025-12-24T1300,2475A,113.0383,25.8071,郴州市,市审计局,,18,,29,12,23,24,24,20,20,9,13,2,3,0.9,0.9
2025-12-24T1300,2476A,113.0348,25.7759,郴州市,市环保局,,24,24,39,10,22,13,13,10,10,16,18,3,4,0.6,0.6
2025-12-24T1300,4252A,113.0138,25.8011,郴州市,好美居路49号,,22,,21,15,24,20,20,18,17,15,18,1,3,0.4,0.5
2025-12-24T1300,1431A,103.9728,30.7236,成都市,金泉两河,颗粒物(PM10),70,89,63,14,17,30,30,18,11,39,35,3,2,0.4,0.4
2025-12-24T1300,1432A,104.176,30.6872,成都市,十里店,颗粒物(PM10),62,73,64,27,27,28,28,26,19,42,31,4,3,0.5,0.5
2025-12-24T1300,1433A,104.079,30.5706,成都市,三瓦窑,颗粒物(PM10),68,86,66,37,28,11,11,11,6,56,36,4,4,0.8,0.6
2025-12-24T1300,1434A,104.1114,30.63,成都市,沙河铺,颗粒物(PM10),60,70,67,30,24,17,17,29,15,58,36,4,4,0.5,0.3
2025-12-24T1300,1437A,104.0786,30.6531,成都市,君平街,颗粒物(PM10),69,87,66,35,33,15,15,44,22,57,27,5,4,0.7,0.4
2025-12-24T1300,2880A,104.0239,30.65639,成都市,大石西路,颗粒物(PM10),66,82,65,36,27,10,10,35,15,58,32,4,5,0.7,0.5
2025-12-24T1300,3136A,104.2725,30.5589,成都市,龙泉驿区区政府,颗粒物(PM10),63,75,55,31,18,25,25,34,29,31,14,6,6,0.4,0.2
2025-12-24T1300,3357A,104.0106,30.6931,成都市,金博路,颗粒物(PM10),62,74,56,24,19,20,20,21,7,50,37,5,4,0.4,0.3
2025-12-24T1300,3359A,104.0578,30.5225,成都市,华阳,颗粒物(PM10),75,100,65,36,26,12,12,23,7,58,34,3,3,0.7,0.5
2025-12-24T1300,3488A,104.3880,30.7467,成都市,青石路225号,颗粒物(PM10),67,84,69,29,31,29,29,26,16,37,24,8,5,0.3,0.2
2025-12-24T1300,3489A,104.0789,30.4072,成都市,科学城,颗粒物(PM10),57,63,51,27,22,46,46,23,19,22,22,6,6,0.3,0.4
2025-12-24T1300,4011A,103.8506,30.6947,成都市,光华大道三段,颗粒物(PM10),67,83,66,42,30,17,17,15,11,47,34,4,4,0.6,0.5
2025-12-24T1300,4224A,104.2433,30.5353,成都市,鲸龙路1057号,颗粒物(PM10),75,99,58,41,22,13,13,11,9,56,33,7,6,0.7,0.5
2025-12-24T1300,1062A,117.9531,40.9081,承德市,铁路,,31,31,34,8,16,35,35,14,14,20,28,7,3,0.5,0.5
2025-12-24T1300,1063A,117.9392,40.9763,承德市,中国银行,,26,26,24,8,13,41,41,19,19,11,17,4,2,0.4,0.4
2025-12-24T1300,1064A,117.9503,40.928,承德市,开发区,,40,40,36,18,20,37,37,18,18,22,27,9,4,0.5,0.4
2025-12-24T1300,4274A,117.7994,40.9605,承德市,滨河大街98号,细颗粒物(PM2.5),83,86,37,61,20,29,29,14,14,32,22,66,7,2.4,0.6
2025-12-24T1300,2314A,117.47,30.6618,池州市,池州学院,,,49,31,46,27,12,12,10,9,,22,2,2,,0.4
2025-12-24T1300,3237A,117.4918,30.6617,池州市,展览馆,细颗粒物(PM2.5),74,55,36,54,33,13,13,10,9,23,25,1,1,0.6,0.6
2025-12-24T1300,3333A,117.5627,30.695,池州市,第八中学,细颗粒物(PM2.5),60,56,41,43,31,10,10,10,8,27,28,2,4,1.1,0.9
2025-12-24T1300,3334A,117.5038,30.6243,池州市,第十二中学,细颗粒物(PM2.5),57,43,32,40,26,13,13,11,10,24,27,2,2,1.0,0.9
2025-12-24T1300,1744A,118.9233,42.2816,赤峰市,松山一中,,26,26,22,3,10,45,45,43,36,17,18,9,5,0.5,0.5
2025-12-24T1300,1745A,118.9576,42.2728,赤峰市,哈达街,,15,,13,10,10,46,46,42,34,21,19,11,9,0.3,0.4
2025-12-24T1300,1746A,118.8788,42.2554,赤峰市,天义路,,16,16,18,10,11,48,48,47,36,16,17,13,6,0.5,0.5
2025-12-24T1300,3058A,119.2658,42.0353,赤峰市,银河街,颗粒物(PM10),95,139,52,59,21,50,50,27,27,12,22,40,20,0.9,1
2025-12-24T1300,3286A,118.9359,42.3147,赤峰市,桥北物流园区,,25,,23,17,12,54,54,40,40,11,17,5,4,0.6,0.6
2025-12-24T1300,2521A,107.3476,22.4136,崇左市,市环保局江州分局,,13,13,32,8,18,22,22,19,19,7,13,6,6,0.6,0.5
2025-12-24T1300,4256A,107.3750,22.3736,崇左市,石景林东路7号,,13,13,28,8,20,18,18,26,22,11,18,7,7,0.8,0.8
2025-12-24T1300,2298A,118.3093,32.3153,滁州市,老年大学,细颗粒物(PM2.5),92,87,55,68,48,29,29,20,20,20,21,18,17,0.7,0.6
2025-12-24T1300,2299A,118.3244,32.2786,滁州市,人大宾馆,细颗粒物(PM2.5),100,89,52,75,48,26,26,18,18,22,23,5,5,0.7,0.6
2025-12-24T1300,3207A,118.3118,32.3038,滁州市,市政府原办公楼,细颗粒物(PM2.5),89,91,61,66,47,29,29,20,20,22,23,4,4,0.5,0.4
2025-12-24T1300,3331A,118.3267,32.2634,滁州市,图书馆,细颗粒物(PM2.5),88,84,46,65,44,28,28,20,20,21,21,8,7,0.6,0.5
2025-12-24T1300,2605A,101.5482,25.0441,楚雄彝族自治州,州环境监测站,,,24,20,9,14,54,54,40,40,2,7,,7,0.5,0.6
2025-12-24T1300,2606A,101.538,25.0492,楚雄彝族自治州,市经济开发区,,19,15,32,10,20,59,59,49,49,4,11,6,6,0.4,0.6
2025-12-24T1300,2549A,107.5086,31.2186,达州市,市环境监测站,,38,38,51,24,31,21,21,8,8,26,33,22,15,0.3,0.5
2025-12-24T1300,2550A,107.4988,31.2132,达州市,凤凰小区,,31,31,52,17,32,26,26,12,12,19,30,25,15,0.3,0.5
2025-12-24T1300,2551A,107.5082,31.1986,达州市,达县机关宾馆,,41,41,53,27,33,16,16,6,6,29,32,19,12,0.5,0.6
2025-12-24T1300,2552A,107.4644,31.2124,达州市,市政中心,颗粒物(PM10),53,56,60,19,25,15,15,13,13,29,29,17,14,0.6,0.6
2025-12-24T1300,2614A,100.1542,25.7054,大理白族自治州,大理市环境监测站,,23,16,19,16,24,64,64,65,59,6,7,6,6,0.6,0.6
2025-12-24T1300,2615A,100.2171,25.5811,大理白族自治州,大理古城,,24,21,24,7,16,75,75,50,50,4,13,8,8,0.7,0.8
2025-12-24T1300,1109A,121.612,38.9741,大连市,甘井子,,25,25,41,6,25,66,66,54,54,12,27,8,7,0.4,0.1
2025-12-24T1300,1110A,121.565,38.9511,大连市,周水子,,25,25,41,7,23,63,63,52,52,14,26,11,8,0.3,0.4
2025-12-24T1300,1111A,121.5637,38.8845,大连市,星海三站,,23,23,36,11,27,63,63,53,53,13,20,7,6,0.4,0.6
2025-12-24T1300,1112A,121.6302,38.9117,大连市,青泥洼桥,,19,17,38,7,23,58,58,43,43,16,27,9,9,0.4,0.6
2025-12-24T1300,1113A,121.6251,38.8638,大连市,傅家庄,,,21,37,6,21,52,52,43,43,,21,11,10,0.3,0.4
2025-12-24T1300,1114A,121.5213,38.8661,大连市,七贤岭,,,25,39,3,21,64,64,61,61,,17,6,9,0.4,0.5
2025-12-24T1300,1115A,121.2529,38.8061,大连市,旅顺,,20,16,39,6,27,64,64,56,56,5,14,6,7,0.3,0.4
2025-12-24T1300,1116A,121.7485,39.1311,大连市,金州,,22,17,39,6,26,68,68,52,52,6,18,8,9,0.3,0.5
2025-12-24T1300,1117A,121.7811,39.0496,大连市,开发区,,24,24,39,7,24,61,61,46,46,9,19,8,8,0.4,0.5
2025-12-24T1300,1118A,121.9762,39.0631,大连市,双D港,,22,17,53,7,24,69,69,56,56,10,17,12,12,0.3,0.4
2025-12-24T1300,1789A,124.81117,46.03138,大庆市,大同区,,23,23,52,12,39,53,53,41,41,11,21,5,8,0.8,1
2025-12-24T1300,1790A,125.129,46.533,大庆市,龙凤区,,43,43,52,27,34,36,36,22,22,20,23,8,6,0.6,0.6
2025-12-24T1300,1791A,124.902,46.408,大庆市,红岗区,,,22,46,8,25,42,42,29,29,18,26,,8,0.6,0.7
2025-12-24T1300,1792A,125.153,46.586,大庆市,萨尔图区,,43,33,57,30,38,39,39,37,28,34,31,9,8,0.7,0.7
2025-12-24T1300,1793A,124.9042,46.6215,大庆市,让胡路区,,48,,45,33,39,50,50,36,34,10,23,10,7,0.4,0.5
2025-12-24T1300,3481A,125.141,46.634,大庆市,萨区政府监测点,,20,20,58,12,29,54,54,31,29,13,28,13,9,0.5,0.7
2025-12-24T1300,1721A,113.3819,40.1097,大同市,果树场,颗粒物(PM10),51,51,74,3,39,66,66,28,28,10,35,8,12,0.4,1.1
2025-12-24T1300,1723A,113.2994,40.0758,大同市,云冈宾馆,,20,17,52,3,19,62,62,21,21,9,33,6,14,0.5,0.9
2025-12-24T1300,1724A,113.3444,40.0917,大同市,大同大学,颗粒物(PM10),51,52,49,16,19,64,64,25,25,12,35,8,15,0.5,0.7
2025-12-24T1300,1725A,113.2661,40.1269,大同市,安家小村,,42,42,62,3,23,62,62,22,22,10,33,10,14,0.5,1.4
2025-12-24T1300,1726A,113.2711,40.0844,大同市,教育学院,,,45,58,11,21,58,58,20,20,11,33,,17,,0.8
2025-12-24T1300,3282A,113.3397,40.0597,大同市,大同市卫生学校,,48,48,51,10,18,61,61,20,20,17,40,7,13,0.5,0.7
2025-12-24T1300,3565A,113.1367,40.1122,大同市,云冈站,,39,39,47,19,16,65,65,26,26,1,24,5,12,0.3,0.5
2025-12-24T1300,3566A,113.1186,40.2556,大同市,图书馆,颗粒物(PM10),63,76,37,13,20,62,62,29,29,7,15,5,4,0.4,0.6
2025-12-24T1300,3567A,113.5931,40.0461,大同市,区一中,颗粒物(PM10),59,68,61,9,27,66,66,30,30,15,31,18,16,0.7,0.9
2025-12-24T1300,4199A,113.2798,40.0997,大同市,魏都大道141号,,,124,65,12,24,65,65,24,24,,38,6,12,0.4,1.3
2025-12-24T1300,2269A,124.1069,50.4097,大兴安岭地区,科技局,,19,17,23,13,20,42,42,37,37,2,8,5,5,0.2,0.2
2025-12-24T1300,3663A,124.1164,50.4278,大兴安岭地区,红旗社区,,,6,25,3,23,50,50,23,23,,26,6,7,0.2,0.5
2025-12-24T1300,1600A,124.3303,40.0625,丹东市,江湾东路,,31,31,36,15,22,62,62,51,51,7,18,9,15,0.5,0.7
2025-12-24T1300,1601A,124.4256,40.1503,丹东市,临江后街,,23,23,29,9,16,63,63,51,51,7,17,5,8,0.6,0.7
2025-12-24T1300,1602A,124.3933,40.1461,丹东市,元宝山,,27,27,44,10,19,64,64,53,53,7,14,7,10,0.4,0.5
2025-12-24T1300,1603A,124.3633,40.1092,丹东市,民主桥,,29,29,32,9,14,62,62,53,52,11,16,7,8,0.4,0.5
2025-12-24T1300,3541A,109.5726,19.5167,儋州市,第一中学子站,,19,17,29,10,12,58,58,47,47,2,2,4,4,0.4,0.4
2025-12-24T1300,3542A,109.5567,19.5187,儋州市,东坡学校子站,,21,17,28,10,11,65,65,52,52,2,2,5,4,0.4,0.4
2025-12-24T1300,2616A,98.5842,24.428,德宏傣族景颇族自治州,德宏州监测站,细颗粒物(PM2.5),55,51,41,39,35,63,63,21,21,17,23,10,7,0.5,0.6
2025-12-24T1300,3677A,98.5881,24.4368,德宏傣族景颇族自治州,芒市人民政府综合楼,,,60,49,,56,63,63,18,18,13,20,10,8,0.6,0.7
2025-12-24T1300,1901A,104.4239,31.1208,德阳市,东山公园,颗粒物(PM10),56,61,54,24,24,20,20,47,32,25,8,2,2,0.7,0.6
2025-12-24T1300,1902A,104.3826,31.1317,德阳市,西小区,颗粒物(PM10),80,109,79,39,30,15,15,16,8,47,31,5,3,0.6,0.6
2025-12-24T1300,1904A,104.3553,31.1091,德阳市,耐火材料厂,颗粒物(PM10),73,95,77,41,35,22,22,8,8,40,34,4,3,0.7,0.6
2025-12-24T1300,3639A,104.4019,31.1244,德阳市,市教育局,颗粒物(PM10),60,70,53,32,25,7,7,16,4,52,34,4,2,0.7,0.6
2025-12-24T1300,1622A,116.3032,37.4674,德州市,儿童乐园,颗粒物(PM10),51,51,110,27,76,49,49,20,20,31,51,13,12,0.9,1.4
2025-12-24T1300,1624A,116.2991,37.4451,德州市,监理站,,,36,102,22,71,56,56,23,23,,54,13,13,0.7,1.1
2025-12-24T1300,3066A,116.2721,37.4379,德州市,九衢泉纯净水厂,,46,46,130,27,90,49,49,17,17,31,54,14,15,0.4,0.9
2025-12-24T1300,3371A,116.3728,37.4403,德州市,开发区人民医院,,46,46,98,19,63,50,50,29,29,38,55,13,12,0.7,1
2025-12-24T1300,3511A,116.5652,37.3319,德州市,陵城艺术中心,细颗粒物(PM2.5),70,75,115,51,83,30,30,10,10,47,62,11,13,1.1,1.3
2025-12-24T1300,4292A,116.3525,37.4209,德州市,新河东路,颗粒物(PM10),52,53,99,27,69,44,44,23,23,49,60,14,12,1.1,1.3
2025-12-24T1300,2621A,99.7056,27.8317,迪庆藏族自治州,迪庆州站,,23,,28,15,19,72,72,60,54,6,9,5,5,0.3,0.3
2025-12-24T1300,3180A,99.7136,27.8094,迪庆藏族自治州,质量技术监督局,,25,22,32,9,21,77,77,62,51,9,12,10,8,0.4,0.4
2025-12-24T1300,4257A,104.6092,35.5962,定西市,将台街,颗粒物(PM10),53,55,64,36,38,75,75,23,23,10,31,10,12,0.3,0.6
2025-12-24T1300,4309A,104.6159,35.5701,定西市,正龙路62号,颗粒物(PM10),53,55,70,34,38,73,73,31,31,9,12,7,7,0.5,0.6
2025-12-24T1300,1389A,113.7547,23.0494,东莞市,莞城梨川,,47,38,72,31,44,149,149,60,60,20,42,5,6,0.7,0.8
2025-12-24T1300,1390A,113.7944,23.0128,东莞市,东城石井,臭氧1小时,58,47,60,33,39,166,166,51,51,31,49,9,9,0.8,0.8
2025-12-24T1300,1391A,113.7383,22.9658,东莞市,南城西平,,39,37,73,27,42,124,124,44,44,29,64,9,9,0.6,0.9
2025-12-24T1300,3319A,113.7338,23.0381,东莞市,万江金泰,细颗粒物(PM2.5),62,50,76,44,48,150,150,60,60,25,44,7,7,0.8,0.9
2025-12-24T1300,3626A,113.7533,23.0202,东莞市,南城元岭,,47,38,65,30,40,148,148,56,56,26,49,8,9,0.7,0.8
2025-12-24T1300,3627A,113.7875,23.0457,东莞市,东城主山,,49,46,74,33,47,155,155,59,59,23,51,6,8,0.6,0.7
2025-12-24T1300,1666A,118.6614,37.4309,东营市,市环保局,,,,53,,29,60,60,44,44,,36,8,8,,0.6
2025-12-24T1300,3036A,118.6904,37.4338,东营市,开发区管委会,,40,40,60,3,29,67,67,55,55,11,32,10,9,0.4,0.6
2025-12-24T1300,3365A,118.5719,37.565,东营市,垦利区民丰路,,48,48,52,12,28,61,61,39,39,17,35,8,8,0.5,0.8
2025-12-24T1300,3498A,118.5055,37.8612,东营市,河口城区,,46,46,51,7,21,69,69,54,54,15,33,5,7,0.4,0.6
2025-12-24T1300,3646A,118.4978,37.4623,东营市,胜利站,,36,36,54,7,31,58,58,40,40,22,40,11,9,0.4,0.6
2025-12-24T1300,3734A,118.35,37.26,东营市,理想之城,,,,60,12,32,56,56,31,31,24,37,8,5,0.5,0.7
2025-12-24T1300,1591A,110.0023,39.8129,鄂尔多斯市,综合楼,,27,27,49,9,14,63,63,64,56,14,18,7,6,0.4,0.4
2025-12-24T1300,1592A,109.9486,39.8261,鄂尔多斯市,巴音孟克林场办事处,,41,41,58,7,15,68,68,61,56,10,15,6,6,0.4,0.3
2025-12-24T1300,1593A,109.7736,39.5986,鄂尔多斯市,康泽苑,,,31,73,12,21,71,71,55,55,6,14,5,6,,0.4
2025-12-24T1300,1594A,109.8119,39.5989,鄂尔多斯市,华泰汽车城,,,29,74,9,20,73,73,50,50,7,23,3,4,,0.5
2025-12-24T1300,1595A,109.9734,39.7884,鄂尔多斯市,奥林花园,,46,46,71,7,12,67,67,58,57,10,28,4,4,0.3,0.3
2025-12-24T1300,2436A,114.8938,30.3994,鄂州市,市政府,细颗粒物(PM2.5),107,,61,80,65,12,12,9,8,23,24,4,4,0.8,0.7
2025-12-24T1300,2437A,114.8989,30.3714,鄂州市,赵家坝,细颗粒物(PM2.5),100,,64,75,64,15,15,13,10,14,14,5,6,1.1,1.1
2025-12-24T1300,3654A,114.8094,30.4089,鄂州市,精准医疗中心,细颗粒物(PM2.5),100,95,68,75,67,17,17,12,12,16,17,4,5,0.9,1.2
2025-12-24T1300,2454A,109.4978,30.2981,恩施土家族苗族自治州,湖北民院,,33,32,24,23,17,22,22,20,20,22,23,6,6,0.7,0.8
2025-12-24T1300,2455A,109.4707,30.2798,恩施土家族苗族自治州,州电力总公司,,28,22,18,19,15,10,10,18,15,23,22,6,6,0.9,0.9
2025-12-24T1300,3549A,109.5061,30.3772,恩施土家族苗族自治州,龙凤新区,,35,35,29,24,20,12,12,6,6,17,11,6,6,0.6,0.7
2025-12-24T1300,2499A,108.3411,21.6158,防城港市,沙万,颗粒物(PM10),54,58,51,27,30,67,67,58,51,15,23,6,6,0.5,0.5
2025-12-24T1300,2500A,108.3514,21.7731,防城港市,防城档案局,,,,39,,24,24,24,29,28,,17,,4,0.8,0.7
2025-12-24T1300,2501A,108.3506,21.6414,防城港市,大海花园,,46,46,37,24,20,66,66,68,55,12,14,8,6,0.6,0.6
2025-12-24T1300,1371A,113.1294,23.0067,佛山市,湾梁,颗粒物(PM10),60,70,77,40,33,134,134,43,43,38,67,7,7,0.9,0.9
2025-12-24T1300,1372A,113.1083,23.0478,佛山市,华材职中,细颗粒物(PM2.5),79,83,96,58,56,123,123,49,49,60,65,7,7,0.8,0.9
2025-12-24T1300,1373A,113.144,23.0453,佛山市,南海气象局,颗粒物(PM10),68,86,76,45,41,120,120,41,41,59,68,8,8,0.8,0.8
2025-12-24T1300,1374A,113.2881,22.8094,佛山市,顺德苏岗,细颗粒物(PM2.5),58,62,58,41,33,94,94,35,35,44,57,10,7,0.8,0.8
2025-12-24T1300,1376A,112.8383,22.8678,佛山市,高明孔堂,细颗粒物(PM2.5),109,104,69,82,45,157,157,53,53,70,40,9,5,0.8,0.7
2025-12-24T1300,1377A,112.8836,23.1588,佛山市,三水监测站,细颗粒物(PM2.5),72,85,143,52,72,157,157,56,56,33,81,9,8,0.8,1.1
2025-12-24T1300,1378A,112.867,23.185,佛山市,三水云东海,细颗粒物(PM2.5),95,113,120,71,76,165,165,60,60,41,62,12,8,0.9,1
2025-12-24T1300,3625A,113.2544,22.7642,佛山市,容桂街道办,颗粒物(PM10),54,58,58,36,34,128,128,47,47,35,53,8,7,0.7,0.7
2025-12-24T1300,1282A,119.2681,26.0504,福州市,师大,,,59,42,,17,42,42,27,27,42,37,8,6,0.5,0.5
2025-12-24T1300,1283A,119.2984,26.1028,福州市,五四北路,,50,50,37,26,15,47,47,30,30,31,31,5,4,0.7,0.5
2025-12-24T1300,1284A,119.2648,26.0768,福州市,杨桥西路,,48,48,35,25,14,46,46,31,31,31,26,5,4,0.6,0.5
2025-12-24T1300,1285A,119.317,26.0746,福州市,紫阳,颗粒物(PM10),71,91,56,39,22,30,30,25,25,47,36,8,7,0.5,0.5
2025-12-24T1300,3048A,119.5799,26.0936,福州市,九龙,细颗粒物(PM2.5),64,48,32,46,14,66,66,37,37,21,24,5,5,0.5,0.4
2025-12-24T1300,3526A,119.5189,25.9664,福州市,吴航,,,70,36,39,16,72,72,26,26,20,32,4,5,,0.6
2025-12-24T1300,1755A,123.7977,41.8491,抚顺市,望花区,细颗粒物(PM2.5),78,103,73,57,45,40,40,20,20,34,33,6,6,1.4,1
2025-12-24T1300,1756A,123.9161,41.8822,抚顺市,顺城区,颗粒物(PM10),62,73,64,36,42,36,36,20,20,31,35,8,8,0.8,0.9
2025-12-24T1300,1757A,124.0436,41.8611,抚顺市,东洲区,颗粒物(PM10),56,62,68,38,46,38,38,18,18,21,28,7,5,0.9,1
2025-12-24T1300,1758A,123.9247,41.8642,抚顺市,新抚区,"颗粒物(PM10),细颗粒物(PM2.5)",62,73,65,44,40,42,42,20,20,26,37,11,9,1.3,1
2025-12-24T1300,1759A,124.0972,41.8961,抚顺市,大伙房水库,细颗粒物(PM2.5),88,70,57,65,36,39,39,27,27,26,25,13,11,1.0,0.8
2025-12-24T1300,1760A,123.7086,41.8391,抚顺市,沈抚新城,细颗粒物(PM2.5),169,157,77,128,52,33,33,16,16,52,38,13,7,3.1,1.1
2025-12-24T1300,2377A,116.3544,27.9831,抚州市,市站,,22,22,34,13,23,17,17,28,24,16,16,4,6,1.1,1.1
2025-12-24T1300,2378A,116.3565,27.963,抚州市,血防站,,25,25,37,16,23,16,16,28,24,21,18,3,4,1.2,1.2
2025-12-24T1300,2379A,116.3564,28.0007,抚州市,采茶剧团,,26,25,34,18,23,16,16,26,22,15,12,3,4,1.3,1.3
2025-12-24T1300,2380A,116.385,27.9647,抚州市,医学分院,,28,28,42,15,21,18,18,26,23,14,15,5,4,1.1,1.2
2025-12-24T1300,2207A,121.6094,41.998,阜新市,工业园区,,40,40,70,18,21,53,53,22,22,13,19,20,12,0.4,0.4
2025-12-24T1300,2208A,121.6697,42.0279,阜新市,长青街,,21,21,28,14,12,54,54,34,25,16,16,14,9,0.4,0.5
2025-12-24T1300,2209A,121.6673,42.0705,阜新市,农业园区,,28,26,32,19,9,56,56,46,43,8,11,10,7,0.3,0.3
2025-12-24T1300,2210A,121.6717,42.0224,阜新市,东苑,,28,23,46,19,16,51,51,32,24,17,16,13,7,0.5,0.6
2025-12-24T1300,2211A,121.6506,42.0498,阜新市,玉龙新城,,38,38,39,10,10,55,55,23,23,12,21,14,10,0.4,0.4
2025-12-24T1300,2301A,115.8277,32.8929,阜阳市,市监测站,细颗粒物(PM2.5),108,102,102,81,77,22,22,8,8,34,34,5,4,0.7,0.6
2025-12-24T1300,2303A,115.8554,32.8605,阜阳市,开发区,细颗粒物(PM2.5),88,89,88,65,69,22,22,9,9,32,32,5,4,0.8,0.8
2025-12-24T1300,2875A,115.784,32.8892,阜阳市,阜阳职业技术学院,细颗粒物(PM2.5),84,88,90,62,68,27,27,14,14,29,26,7,5,0.7,0.6
2025-12-24T1300,3468A,115.7901,32.8613,阜阳市,市规划展馆,细颗粒物(PM2.5),98,100,96,73,74,23,23,10,10,34,31,8,6,0.4,0.5
2025-12-24T1300,3469A,115.836,32.9183,阜阳市,枣园社区,细颗粒物(PM2.5),110,103,98,83,81,22,22,9,9,32,33,8,5,0.6,0.6
2025-12-24T1300,2669A,102.9099,34.9841,甘南藏族自治州,州政府,细颗粒物(PM2.5),53,40,78,37,43,71,71,21,21,8,31,10,10,0.4,0.8
2025-12-24T1300,3380A,102.8914,34.9617,甘南藏族自治州,甘肃民族师范学院,,39,39,93,17,40,56,56,17,17,12,36,5,6,0.1,0.6
2025-12-24T1300,2570A,101.9603,30.0475,甘孜藏族自治州,水桥子,,12,11,12,7,7,37,37,53,34,23,12,8,7,0.4,0.3
2025-12-24T1300,3065A,101.9533,29.9972,甘孜藏族自治州,州环保局,,18,10,13,3,5,57,57,60,45,11,13,6,6,0.4,0.4
2025-12-24T1300,3414A,115.8347,28.932,赣江新区,桑海产业园,,40,34,30,28,21,21,21,20,20,14,17,7,5,0.9,0.9
2025-12-24T1300,2362A,114.9017,25.9149,赣州市,通天岩,细颗粒物(PM2.5),58,62,62,41,44,31,31,37,26,14,14,16,17,1.3,1.3
2025-12-24T1300,2363A,114.9367,25.8664,赣州市,地委,细颗粒物(PM2.5),59,63,74,42,47,25,25,29,21,17,20,6,8,1.0,1.1
2025-12-24T1300,2364A,114.9461,25.8481,赣州市,气象台,颗粒物(PM10),56,61,82,35,43,29,29,35,26,24,26,5,6,0.9,0.9
2025-12-24T1300,2365A,114.9322,25.8333,赣州市,市图书馆,,43,37,73,30,48,26,26,29,22,21,27,4,5,0.9,1
2025-12-24T1300,2366A,114.8905,25.8471,赣州市,华坚鞋城,,49,49,72,30,45,25,25,30,21,19,27,6,8,0.6,0.7
2025-12-24T1300,3109A,115.0093,25.8613,赣州市,赣县区卫计委,细颗粒物(PM2.5),55,,63,39,52,21,21,33,21,18,24,8,7,0.7,0.8
2025-12-24T1300,2684A,106.2792,36.0022,固原市,监测站,,,51,84,17,34,72,72,31,31,,24,4,5,,0.9
2025-12-24T1300,2685A,106.2375,36.0211,固原市,新区,颗粒物(PM10),55,59,79,8,26,71,71,44,44,7,25,4,4,0.4,0.6
2025-12-24T1300,3522A,106.2177,35.9959,固原市,原州区十五小,,50,50,90,16,30,65,65,48,48,8,21,3,3,0.3,0.6
2025-12-24T1300,2544A,106.6303,30.4576,广安市,市委,"颗粒物(PM10),细颗粒物(PM2.5)",55,59,38,39,28,16,16,17,14,23,16,2,3,0.8,0.7
2025-12-24T1300,2545A,106.6271,30.4663,广安市,友谊中学,细颗粒物(PM2.5),54,49,32,38,27,25,25,25,21,19,13,2,2,0.8,0.8
2025-12-24T1300,2547A,106.6388,30.4551,广安市,广电花园,细颗粒物(PM2.5),58,50,31,41,26,16,16,17,13,21,16,3,3,0.6,0.6
2025-12-24T1300,2902A,106.6351,30.4865,广安市,北辰小学,颗粒物(PM10),51,52,32,35,26,26,26,22,21,12,11,12,12,0.7,0.7
2025-12-24T1300,2524A,105.821,32.4444,广元市,老城,,26,25,50,18,18,58,58,52,50,16,27,2,2,0.9,0.8
2025-12-24T1300,2526A,105.8628,32.4287,广元市,监测站,,41,41,50,15,20,61,61,41,41,12,27,3,4,0.6,0.7
2025-12-24T1300,3617A,105.8047,32.4166,广元市,经开区,,48,48,57,17,19,50,50,44,41,18,29,2,2,0.4,0.5
2025-12-24T1300,1345A,113.2347,23.1423,广州市,广雅中学,颗粒物(PM10),61,72,82,36,47,120,120,46,46,29,64,4,4,1.0,1
2025-12-24T1300,1346A,113.2612,23.105,广州市,市五中,颗粒物(PM10),57,64,73,35,42,132,132,57,57,34,66,7,8,0.6,0.7
2025-12-24T1300,1348A,113.3478,23.0916,广州市,广东商学院,,48,48,80,30,46,95,95,35,35,27,62,8,7,0.8,0.9
2025-12-24T1300,1349A,113.4332,23.1047,广州市,市八十六中,颗粒物(PM10),55,60,70,38,46,127,127,33,33,46,88,13,9,0.9,1.1
2025-12-24T1300,1350A,113.3505,22.9483,广州市,番禺中学,颗粒物(PM10),54,57,76,29,41,114,114,44,44,24,66,7,7,0.8,0.9
2025-12-24T1300,1351A,113.2146,23.3916,广州市,花都师范,颗粒物(PM10),52,53,85,33,48,127,127,54,54,20,65,8,8,0.5,0.8
2025-12-24T1300,1352A,113.2597,23.1331,广州市,市监测站,颗粒物(PM10),62,74,79,43,44,128,128,48,48,34,64,5,6,0.8,0.9
2025-12-24T1300,1353A,113.5618,23.312,广州市,九龙镇镇龙,,44,44,69,26,44,99,99,34,34,24,36,6,6,0.5,0.7
2025-12-24T1300,1354A,113.2765,23.1544,广州市,麓湖,,,63,66,40,48,126,126,51,51,27,62,8,8,,0.5
2025-12-24T1300,2846A,113.3221,23.1322,广州市,体育西,,50,50,75,30,43,113,113,50,50,26,62,5,6,0.6,0.8
2025-12-24T1300,3298A,113.5717,23.5491,广州市,从化街口,细颗粒物(PM2.5),55,51,64,39,46,107,107,40,40,20,36,9,8,0.7,0.9
2025-12-24T1300,3299A,113.3472,23.3692,广州市,白云竹料,,37,37,79,23,48,118,118,52,52,16,50,5,5,0.6,0.8
2025-12-24T1300,3300A,113.2981,23.237,广州市,白云嘉禾,颗粒物(PM10),59,67,88,40,51,129,129,51,51,26,60,7,7,0.7,0.9
2025-12-24T1300,3301A,113.4256,23.1716,广州市,黄埔科学城,,49,48,74,34,47,118,118,52,52,36,52,7,7,0.9,1
2025-12-24T1300,3302A,113.3942,23.0483,广州市,番禺大学城,颗粒物(PM10),62,73,100,34,44,103,103,36,36,36,66,23,12,0.7,0.7
2025-12-24T1300,3303A,113.4922,22.8168,广州市,南沙黄阁,,48,48,76,21,42,120,120,44,44,27,68,8,9,0.8,1.1
2025-12-24T1300,3304A,113.5342,22.7896,广州市,南沙街,,48,48,71,27,36,128,128,46,46,28,61,6,8,0.4,0.5
2025-12-24T1300,3443A,113.2902,23.5544,广州市,花都梯面,颗粒物(PM10),52,53,55,35,37,109,109,50,50,13,38,16,7,0.7,0.7
2025-12-24T1300,3445A,113.7858,23.7478,广州市,从化良口,,46,38,39,32,32,99,99,41,41,11,20,9,7,0.8,0.8
2025-12-24T1300,3446A,113.8051,23.2614,广州市,增城荔城,,40,35,63,28,45,97,97,42,42,14,27,7,7,0.6,0.7
2025-12-24T1300,2506A,109.6047,23.0666,贵港市,江南子站,,9,7,63,3,35,16,16,14,12,13,22,4,7,0.9,0.9
2025-12-24T1300,2508A,109.5669,23.1065,贵港市,荷城子站,,11,6,49,3,35,16,16,21,14,12,18,3,6,1.1,1.1
2025-12-24T1300,3405A,109.5886,23.1172,贵港市,新世纪学校,,9,7,59,6,42,17,17,21,14,17,15,3,5,0.8,0.8
2025-12-24T1300,4260A,109.5933,23.0951,贵港市,中山路155-3号,,18,,59,12,43,21,21,28,19,13,20,2,6,0.7,0.7
2025-12-24T1300,1439A,106.6899,26.5998,贵阳市,马鞍山,,20,14,23,14,17,15,15,16,16,13,13,6,5,0.8,0.6
2025-12-24T1300,1441A,106.6243,26.6266,贵阳市,鉴湖路,,34,34,36,12,18,12,12,21,15,20,17,4,4,0.7,0.6
2025-12-24T1300,1442A,106.7487,26.6343,贵阳市,燕子冲,,,,25,22,23,21,21,25,25,14,13,,7,,0.6
2025-12-24T1300,1443A,106.6555,26.4365,贵阳市,碧云窝,,,,34,,17,16,16,20,17,,17,4,7,0.5,0.5
2025-12-24T1300,1445A,106.7109,26.6027,贵阳市,红边门,,27,27,27,14,19,17,17,22,20,15,14,7,8,0.3,0.2
2025-12-24T1300,1446A,106.7164,26.5699,贵阳市,新华路,,31,31,32,19,20,21,21,22,21,13,14,6,7,0.6,0.5
2025-12-24T1300,1447A,106.674,26.5424,贵阳市,太慈桥,,32,22,26,22,17,16,16,18,16,17,18,3,5,0.5,0.4
2025-12-24T1300,1552A,106.805,26.3003,贵阳市,桐木岭,,27,27,30,14,18,28,28,32,32,7,4,5,5,0.9,0.8
2025-12-24T1300,4230A,106.6882,26.5695,贵阳市,花果园大街66号,,18,12,22,12,15,12,12,13,12,16,16,2,2,0.6,0.5
2025-12-24T1300,4231A,106.6873,26.5169,贵阳市,漓江路57号,,18,17,26,12,17,21,21,22,20,16,19,6,6,0.8,0.7
2025-12-24T1300,1864A,110.3089,25.2708,桂林市,龙隐路小学,,16,16,14,3,10,36,36,38,38,12,13,5,6,0.6,0.7
2025-12-24T1300,1865A,110.2869,25.2178,桂林市,八中,,10,6,16,6,11,32,32,33,33,16,19,6,6,0.6,0.6
2025-12-24T1300,3531A,110.296,25.1253,桂林市,旅游学院,,14,,13,7,14,42,42,36,36,15,20,3,3,0.6,0.7
2025-12-24T1300,4222A,110.1835,25.2444,桂林市,环湖路276号,,13,9,12,9,13,30,30,30,30,12,15,5,5,0.4,0.5
2025-12-24T1300,4301A,110.2803,25.2773,桂林市,信义路13号,,10,,15,6,7,32,32,36,36,14,15,3,3,0.7,0.8
2025-12-24T1300,2674A,100.2561,34.4714,果洛藏族自治州,玛沁县大武镇,,45,45,76,3,14,71,71,51,40,4,4,18,15,0.4,0.4
2025-12-24T1300,1130A,126.561,45.8167,哈尔滨市,松北商大,细颗粒物(PM2.5),94,94,61,70,51,45,45,25,25,25,34,8,10,0.9,0.8
2025-12-24T1300,1132A,126.599,45.7222,哈尔滨市,南岗学府路,细颗粒物(PM2.5),113,108,72,85,51,43,43,22,22,26,29,10,8,0.8,0.7
2025-12-24T1300,1133A,126.689,45.7733,哈尔滨市,太平宏伟公园,细颗粒物(PM2.5),92,96,66,68,48,43,43,20,20,29,33,17,13,0.9,0.9
2025-12-24T1300,1134A,126.635,45.7667,哈尔滨市,道外承德广场,细颗粒物(PM2.5),85,103,99,63,51,47,47,21,21,27,41,9,9,0.8,0.9
2025-12-24T1300,1136A,126.6411,45.7258,哈尔滨市,动力和平路,细颗粒物(PM2.5),109,108,76,82,57,41,41,18,18,29,36,14,11,0.9,0.8
2025-12-24T1300,1137A,126.593,45.7478,哈尔滨市,道里建国路,细颗粒物(PM2.5),104,108,62,78,53,40,40,23,23,28,30,10,6,0.3,0.4
2025-12-24T1300,1138A,126.615,45.61,哈尔滨市,平房东轻厂,细颗粒物(PM2.5),117,106,72,88,51,39,39,26,26,36,31,7,7,1.0,0.7
2025-12-24T1300,1139A,126.595,45.9855,哈尔滨市,呼兰师专,细颗粒物(PM2.5),85,74,56,63,53,50,50,32,32,16,19,9,9,0.8,0.8
2025-12-24T1300,1140A,126.6206,45.6842,哈尔滨市,省农科院,细颗粒物(PM2.5),129,116,82,98,74,40,40,17,16,34,40,12,11,0.9,0.8
2025-12-24T1300,4282A,126.6769,45.7379,哈尔滨市,华山路1号,细颗粒物(PM2.5),105,95,70,79,53,43,43,21,21,33,38,17,15,1.2,1
2025-12-24T1300,4283A,126.9717,45.5356,哈尔滨市,解放大街52号,细颗粒物(PM2.5),110,90,69,83,57,58,58,41,41,20,22,10,21,1.0,0.7
2025-12-24T1300,2688A,93.5128,42.8172,哈密市,地区监测站,细颗粒物(PM2.5),64,63,43,46,32,51,51,43,25,19,28,8,6,0.2,0.5
2025-12-24T1300,2689A,93.4961,42.8328,哈密市,哈密师范学校,,,54,41,27,19,29,29,14,14,21,42,,10,0.5,0.7
2025-12-24T1300,2671A,100.9048,36.9639,海北藏族自治州,海晏县西海镇,细颗粒物(PM2.5),57,51,56,40,43,79,79,50,50,10,14,16,11,0.8,0.8
2025-12-24T1300,3867A,102.0738,36.5056,海东市,平安区公安北苑,,,78,82,38,51,59,59,28,27,,22,,28,0.8,1
2025-12-24T1300,1410A,110.3232,20.0574,海口市,海南大学,,30,30,39,13,14,96,96,81,81,6,6,5,5,0.3,0.3
2025-12-24T1300,1411A,110.283,20.0053,海口市,秀英海南医院,,29,29,36,14,14,89,89,74,74,7,7,7,7,0.3,0.3
2025-12-24T1300,1412A,110.338,19.9969,海口市,海南师范大学,,34,34,40,12,14,96,96,80,80,7,7,5,5,0.4,0.4
2025-12-24T1300,1413A,110.33,20.0356,海口市,龙华路环保局宿舍,,32,30,38,14,15,101,101,84,84,7,7,7,7,0.7,0.5
2025-12-24T1300,3539A,110.5111,19.9736,海口市,桂林洋子站,,27,23,37,11,13,86,86,73,73,5,7,7,7,0.3,0.3
2025-12-24T1300,2673A,100.6188,36.2866,海南藏族自治州,共和县恰卜恰镇,,,41,56,32,30,77,77,42,42,4,20,,12,0.5,0.6
2025-12-24T1300,2676A,97.3731,37.3753,海西蒙古族藏族自治州,德令哈市,,25,19,49,3,15,80,80,73,73,5,6,12,11,0.8,0.8
2025-12-24T1300,1048A,114.5302,36.6116,邯郸市,东污水处理厂,细颗粒物(PM2.5),113,92,97,85,86,47,47,13,13,30,47,10,5,1.1,1.1
2025-12-24T1300,1049A,114.4918,36.5713,邯郸市,矿院,细颗粒物(PM2.5),110,,99,83,93,49,49,13,13,37,50,,5,,1.1
2025-12-24T1300,1050A,114.484,36.6133,邯郸市,丛台公园,细颗粒物(PM2.5),94,82,98,70,78,57,57,23,23,27,42,18,13,0.9,1
2025-12-24T1300,3458A,114.7895,36.5593,邯郸市,香泉濮院小区,细颗粒物(PM2.5),117,119,96,88,80,54,54,22,22,25,41,8,6,1.0,0.9
2025-12-24T1300,3579A,114.50634,36.77178,邯郸市,永年区实验高中,细颗粒物(PM2.5),97,116,110,72,62,24,24,10,10,56,53,12,5,1.5,1.3
2025-12-24T1300,3580A,114.20016,36.44293,邯郸市,峰峰矿区临水派出所,细颗粒物(PM2.5),73,58,76,53,80,58,58,26,26,13,37,12,12,1.0,1.3
2025-12-24T1300,2635A,107.0154,33.0706,汉中市,市监测站,颗粒物(PM10),66,81,70,40,40,46,46,26,26,22,31,18,9,1.2,1
2025-12-24T1300,2636A,107.0089,33.1138,汉中市,鑫源开发区,颗粒物(PM10),63,76,62,40,36,43,43,21,21,18,28,10,6,0.9,0.7
2025-12-24T1300,2637A,107.007,33.0323,汉中市,南郑大河坎水厂,颗粒物(PM10),68,86,78,42,41,28,28,9,9,26,30,10,6,1.3,1.2
2025-12-24T1300,1223A,120.2072,30.2111,杭州市,滨江,,20,20,38,13,21,4,4,2,2,29,32,8,8,0.7,0.7
2025-12-24T1300,1224A,120.0633,30.2747,杭州市,西溪,,26,26,42,14,25,9,9,4,4,29,34,8,8,1.1,1
2025-12-24T1300,1226A,120.3417,30.3150,杭州市,下沙,,48,47,53,33,34,17,17,5,5,25,34,6,6,1.0,0.9
2025-12-24T1300,1227A,120.1269,30.2456,杭州市,卧龙桥,,23,23,38,14,24,8,8,5,5,25,29,8,8,0.7,0.7
2025-12-24T1300,1228A,120.1903,30.2692,杭州市,浙江农大,,22,22,38,15,27,5,5,3,3,33,36,2,2,0.7,0.6
2025-12-24T1300,1230A,120.1197,30.3119,杭州市,和睦小学,,31,31,45,14,25,11,11,6,6,28,32,4,4,0.9,0.8
2025-12-24T1300,1231A,120.3019,30.4183,杭州市,临平镇,细颗粒物(PM2.5),59,45,46,42,36,18,18,7,7,17,23,6,6,1.0,0.9
2025-12-24T1300,1232A,120.2753,30.1839,杭州市,城厢镇,,28,28,49,16,28,7,7,5,5,27,29,8,8,0.9,0.8
2025-12-24T1300,1233A,120.0883,30.1808,杭州市,云栖,,,20,44,10,24,9,9,4,,30,32,,4,0.8,0.8
2025-12-24T1300,3557A,119.9464,30.0494,杭州市,镇二中,,15,10,35,9,28,8,8,6,6,29,34,4,5,1.0,1
2025-12-24T1300,3558A,119.7183,30.2367,杭州市,市府大楼,,19,19,50,9,24,10,10,4,4,21,28,9,10,0.8,0.8
2025-12-24T1300,3656A,120.1556,30.2864,杭州市,消防大队,,,29,46,23,32,8,8,4,4,26,30,,6,1.0,0.9
2025-12-24T1300,1270A,117.1959,31.7848,合肥市,明珠广场,细颗粒物(PM2.5),94,90,64,70,52,24,24,15,15,24,25,6,5,1.0,0.9
2025-12-24T1300,1271A,117.3072,31.8764,合肥市,三里街,细颗粒物(PM2.5),94,92,67,70,54,26,26,15,15,24,27,5,4,0.8,0.7
2025-12-24T1300,1272A,117.2588,31.8707,合肥市,琥珀山庄,细颗粒物(PM2.5),89,97,65,66,49,26,26,16,16,24,25,7,6,1.0,0.9
2025-12-24T1300,1274A,117.25,31.8571,合肥市,长江中路,,,88,61,72,53,26,26,17,17,,24,7,6,0.8,0.8
2025-12-24T1300,1275A,117.266,31.9436,合肥市,庐阳区,细颗粒物(PM2.5),94,100,66,70,50,31,31,19,19,29,26,9,9,0.9,0.8
2025-12-24T1300,1276A,117.3453,31.8616,合肥市,瑶海区,细颗粒物(PM2.5),95,90,65,71,52,26,26,16,16,29,30,5,4,0.7,0.7
2025-12-24T1300,1277A,117.3027,31.7964,合肥市,包河区,细颗粒物(PM2.5),98,97,62,73,51,21,21,12,12,33,32,7,7,0.9,0.9
2025-12-24T1300,1278A,117.2776,31.7385,合肥市,滨湖新区,细颗粒物(PM2.5),107,95,61,80,56,20,20,14,14,33,32,5,4,1.0,0.9
2025-12-24T1300,1279A,117.1318,31.8403,合肥市,高新区,细颗粒物(PM2.5),88,85,63,65,51,27,27,16,16,23,26,4,4,0.9,0.8
2025-12-24T1300,3464A,117.3803,31.9147,合肥市,高教基地,细颗粒物(PM2.5),93,92,65,69,58,31,31,20,20,22,24,6,5,0.8,0.7
2025-12-24T1300,3614A,79.924,37.0877,和田地区,地区环保局,细颗粒物(PM2.5),63,66,65,45,36,44,44,44,38,19,18,5,3,0.3,0.4
2025-12-24T1300,3615A,79.9131,37.113,和田地区,市环保局,颗粒物(PM10),71,92,67,28,28,60,60,47,44,18,23,3,2,0.4,0.4
2025-12-24T1300,2517A,108.0497,24.6947,河池市,市环保站,,12,9,11,8,18,21,21,18,18,11,13,2,2,0.8,0.8
2025-12-24T1300,1697A,114.6944,23.7586,河源市,东埔,,43,,50,30,47,86,86,46,46,12,32,8,7,0.7,0.9
2025-12-24T1300,1698A,114.6892,23.7233,河源市,老城,,50,50,52,22,33,89,89,39,39,8,22,8,7,0.7,0.9
2025-12-24T1300,1718A,115.4208,35.2464,菏泽市,气象局,细颗粒物(PM2.5),97,104,107,72,76,49,49,23,23,37,33,5,4,0.7,0.9
2025-12-24T1300,3374A,115.5564,35.0891,菏泽市,定陶老年大学,细颗粒物(PM2.5),79,80,99,58,77,50,50,22,22,29,40,6,4,0.5,0.6
2025-12-24T1300,4184A,115.4797,35.24401,菏泽市,永昌路1号,细颗粒物(PM2.5),93,101,104,69,80,47,47,24,24,44,41,10,7,0.8,0.9
2025-12-24T1300,4193A,115.4715,35.2800,菏泽市,长城路999号,细颗粒物(PM2.5),98,105,110,73,81,50,50,23,23,34,36,4,4,0.8,0.9
2025-12-24T1300,2514A,111.5264,24.4172,贺州市,环保小区,,9,8,38,3,28,27,27,26,26,16,20,5,5,0.9,1
2025-12-24T1300,2515A,111.5608,24.4078,贺州市,政协大楼,,9,9,34,3,23,23,23,23,23,12,17,7,7,0.9,1
2025-12-24T1300,3534A,111.4744,24.4553,贺州市,西湾,,,10,35,3,26,22,22,21,21,,17,,6,0.7,0.9
2025-12-24T1300,2385A,114.17,35.9019,鹤壁市,市监测站,,48,48,84,26,64,61,61,29,29,16,25,10,5,0.5,1
2025-12-24T1300,2386A,114.2956,35.7511,鹤壁市,市交警支队,细颗粒物(PM2.5),58,57,92,41,63,49,49,17,17,23,39,10,4,0.5,1
2025-12-24T1300,2387A,114.2878,35.7306,鹤壁市,迎宾馆,颗粒物(PM10),62,74,87,41,55,58,58,23,23,17,29,11,7,0.6,1.1
2025-12-24T1300,3474A,114.2617,35.6822,鹤壁市,大新区,细颗粒物(PM2.5),64,74,77,46,54,59,59,28,28,22,29,11,6,0.6,1
2025-12-24T1300,3596A,114.1572,35.9603,鹤壁市,南山宾馆,,48,48,83,32,59,67,67,45,45,12,19,8,9,0.3,0.8
2025-12-24T1300,2244A,130.2537,47.3416,鹤岗市,哈啤分公司,,22,22,33,12,28,64,64,53,53,5,10,8,6,0.5,0.5
2025-12-24T1300,2245A,130.2684,47.3086,鹤岗市,斯达机电,,35,35,57,10,22,57,57,50,50,16,16,12,8,0.4,0.5
2025-12-24T1300,2246A,130.3114,47.3388,鹤岗市,东山纸板厂,,,,33,,35,53,53,35,35,17,25,13,10,0.9,1.3
2025-12-24T1300,2263A,127.4833,50.2524,黑河市,交通局,,,42,30,25,24,28,28,37,26,31,18,8,4,,0.4
2025-12-24T1300,2264A,127.5144,50.2341,黑河市,环保局,细颗粒物(PM2.5),64,55,38,46,31,31,31,34,19,25,24,10,8,0.5,0.6
2025-12-24T1300,1074A,115.6838,37.7541,衡水市,电机北厂,细颗粒物(PM2.5),62,48,118,44,86,58,58,18,18,19,46,5,8,0.4,0.9
2025-12-24T1300,1075A,115.6303,37.7316,衡水市,市监测站,,48,48,110,31,84,60,60,18,18,18,47,6,6,0.4,0.9
2025-12-24T1300,3188A,115.6683,37.7217,衡水市,市城管局,细颗粒物(PM2.5),60,62,112,43,81,62,62,20,20,18,50,8,8,0.5,0.9
2025-12-24T1300,3459A,115.5989,37.5491,衡水市,地表水厂,细颗粒物(PM2.5),64,49,122,46,98,59,59,23,23,22,47,3,7,0.5,1
2025-12-24T1300,2457A,112.6194,26.9258,衡阳市,衡阳化工总厂,细颗粒物(PM2.5),74,,18,54,21,31,31,25,22,18,14,5,5,1.1,0.9
2025-12-24T1300,2458A,112.6211,26.8956,衡阳市,珠晖区环保局,细颗粒物(PM2.5),60,46,22,43,29,27,27,22,16,17,18,2,2,1.2,1.1
2025-12-24T1300,2459A,112.6197,26.8733,衡阳市,市委党校,细颗粒物(PM2.5),58,,18,41,19,28,28,26,22,18,15,3,3,1.1,1
2025-12-24T1300,2460A,112.6006,26.8919,衡阳市,市监测站,细颗粒物(PM2.5),58,,24,41,21,31,31,26,22,16,15,6,5,0.9,0.9
2025-12-24T1300,2461A,112.5664,26.9056,衡阳市,真空机电公司,细颗粒物(PM2.5),83,,22,61,23,31,31,25,22,13,13,6,6,1.0,0.9
2025-12-24T1300,3399A,112.6703,26.882,衡阳市,师范学院,,48,39,24,33,20,30,30,28,25,19,18,1,2,1.0,0.9
2025-12-24T1300,2608A,103.3772,23.3993,红河哈尼族彝族自治州,污水处理厂,,30,26,34,21,25,66,66,58,56,6,9,5,6,0.2,0.3
2025-12-24T1300,2609A,103.3861,23.35,红河哈尼族彝族自治州,监测站,,28,28,37,15,29,68,68,60,56,3,8,7,9,0.2,0.2
2025-12-24T1300,3038A,103.3758,23.368,红河哈尼族彝族自治州,州图书馆,,22,,27,15,18,69,69,62,60,3,6,5,6,0.3,0.3
2025-12-24T1300,1090A,111.6507,40.7517,呼和浩特市,呼市一监,颗粒物(PM10),67,83,54,28,23,32,32,10,10,22,37,7,5,0.5,0.6
2025-12-24T1300,1091A,111.6572,40.8033,呼和浩特市,小召,颗粒物(PM10),71,92,47,30,17,31,31,21,21,35,40,8,7,0.5,0.6
2025-12-24T1300,1094A,111.7516,40.8369,呼和浩特市,如意水处理厂,,42,42,44,16,17,52,52,17,17,20,40,9,10,0.6,0.7
2025-12-24T1300,1095A,111.7276,40.8062,呼和浩特市,二十九中,颗粒物(PM10),70,89,46,17,12,43,43,18,18,22,38,11,11,1.0,0.8
2025-12-24T1300,1097A,111.717,40.7612,呼和浩特市,化肥厂生活区,,,72,49,25,21,37,37,13,13,28,40,,6,0.5,0.6
2025-12-24T1300,3699A,111.6518,40.8389,呼和浩特市,海东办,,24,9,39,3,16,75,75,31,31,6,36,3,5,0.2,0.4
2025-12-24T1300,3061A,119.7512,49.1577,呼伦贝尔市,国华电力东,,20,20,24,11,16,53,53,49,44,26,24,8,7,0.3,0.2
2025-12-24T1300,4279A,119.7569,49.2222,呼伦贝尔市,伊敏大街东7号,,29,23,23,20,18,49,49,44,42,6,9,8,7,0.8,0.8
2025-12-24T1300,1250A,120.0751,30.8669,湖州市,城西水厂,颗粒物(PM10),57,63,56,36,35,27,27,16,16,30,34,8,8,0.5,0.5
2025-12-24T1300,2873A,120.0830,30.8929,湖州市,仁皇山新区,,,,51,,40,29,29,20,20,28,34,8,8,0.4,0.8
2025-12-24T1300,2907A,120.1844,30.8596,湖州市,吴兴区站,细颗粒物(PM2.5),68,70,55,49,32,22,22,13,13,34,31,5,6,0.9,0.8
2025-12-24T1300,3562A,120.4148,30.8538,湖州市,南浔区站,细颗粒物(PM2.5),73,71,57,53,37,16,16,10,10,34,34,4,6,1.0,1
2025-12-24T1300,1607A,120.9049,40.7211,葫芦岛市,龙港区,,41,41,50,6,19,48,48,29,29,12,21,14,24,0.4,0.6
2025-12-24T1300,1608A,120.8392,40.7514,葫芦岛市,化工街,,,,47,,16,45,45,34,24,,23,25,19,0.4,0.5
2025-12-24T1300,1609A,120.8341,40.7073,葫芦岛市,新区,,43,43,40,10,13,51,51,42,32,14,20,12,13,0.5,0.6
2025-12-24T1300,1610A,120.8695,40.7677,葫芦岛市,东城区,颗粒物(PM10),54,57,41,12,18,46,46,37,27,22,23,20,18,0.6,0.7
2025-12-24T1300,2483A,109.9453,27.5444,怀化市,河西地税局,细颗粒物(PM2.5),63,,23,45,22,29,29,27,24,13,14,5,4,0.7,0.6
2025-12-24T1300,2484A,109.9781,27.5342,怀化市,市四医院,,,70,31,32,19,29,29,26,22,,14,9,9,,0.5
2025-12-24T1300,2485A,109.9972,27.5578,怀化市,监测楼,,47,47,23,28,16,27,27,19,19,17,18,3,2,0.3,0.3
2025-12-24T1300,2486A,110.0394,27.583,怀化市,市委党校,,46,37,19,32,18,30,30,25,24,11,11,3,3,0.2,0.2
2025-12-24T1300,1210A,119.036,33.5981,淮安市,钵池山,细颗粒物(PM2.5),100,92,59,75,42,37,37,19,19,28,30,7,6,0.8,0.8
2025-12-24T1300,1211A,119.007,33.575,淮安市,北京南路,细颗粒物(PM2.5),97,90,60,72,48,34,34,15,15,23,26,7,6,0.8,0.7
2025-12-24T1300,1212A,118.989,33.6067,淮安市,市监测站,细颗粒物(PM2.5),113,95,55,85,54,34,34,16,16,29,31,9,8,0.8,0.7
2025-12-24T1300,1213A,119.135,33.5039,淮安市,楚州区监测站,细颗粒物(PM2.5),104,98,40,78,53,34,34,17,17,24,27,9,8,1.0,1
2025-12-24T1300,3426A,118.8755,33.2894,淮安市,新华书店,细颗粒物(PM2.5),117,111,68,88,54,30,30,16,16,27,27,10,9,1.1,1
2025-12-24T1300,4206A,119.0288,33.6319,淮安市,承德北路606号,细颗粒物(PM2.5),94,110,69,70,43,36,36,17,17,26,29,8,7,0.8,0.7
2025-12-24T1300,2282A,116.8004,33.975,淮北市,监测站,细颗粒物(PM2.5),85,100,94,63,67,48,48,19,19,29,36,10,8,0.8,0.8
2025-12-24T1300,2283A,116.8091,33.9007,淮北市,烈山区政府,细颗粒物(PM2.5),85,76,85,63,74,48,48,17,17,26,36,13,9,0.6,0.6
2025-12-24T1300,3330A,116.8873,33.9836,淮北市,杜集区检察院,细颗粒物(PM2.5),89,89,88,66,68,48,48,15,15,27,31,8,5,0.7,0.7
2025-12-24T1300,4017A,116.7923,33.9535,淮北市,市博物馆,细颗粒物(PM2.5),80,94,98,59,75,50,50,20,20,27,35,14,10,0.6,0.6
2025-12-24T1300,2277A,116.8305,32.7727,淮南市,潘集区政府,细颗粒物(PM2.5),88,84,77,65,67,36,36,23,23,23,25,6,4,0.6,0.5
2025-12-24T1300,2279A,116.8569,32.5951,淮南市,谢家集区政府,细颗粒物(PM2.5),74,85,70,54,56,24,24,15,15,27,26,10,7,0.6,0.5
2025-12-24T1300,2280A,116.8281,32.633,淮南市,八公山区政府,细颗粒物(PM2.5),74,79,70,54,56,33,33,21,21,23,24,6,3,0.6,0.5
2025-12-24T1300,2894A,117.0566,32.6531,淮南市,经济技术开发区消防队,细颗粒物(PM2.5),90,100,80,67,63,27,27,16,16,31,29,6,4,0.6,0.5
2025-12-24T1300,3329A,117.0108,32.5893,淮南市,山南新区,颗粒物(PM10),72,94,75,47,51,28,28,18,18,27,26,4,2,0.7,0.6
2025-12-24T1300,4209A,117.0031,32.6445,淮南市,国庆中路369号,,,,70,,61,19,19,8,8,,29,,5,0.8,0.7
2025-12-24T1300,2446A,114.9028,30.4742,黄冈市,职工中心,细颗粒物(PM2.5),78,75,66,57,48,18,18,14,12,20,19,5,5,0.7,0.7
2025-12-24T1300,2929A,114.8858,30.4519,黄冈市,红卫路,细颗粒物(PM2.5),83,72,64,61,52,17,17,12,12,20,21,6,6,0.8,0.7
2025-12-24T1300,3398A,114.9136,30.4445,黄冈市,市林业局,细颗粒物(PM2.5),94,,62,70,58,20,20,13,13,15,21,5,4,0.7,0.9
2025-12-24T1300,2672A,102.0199,35.5102,黄南藏族自治州,同仁县隆务镇,细颗粒物(PM2.5),57,58,66,40,37,70,70,45,45,7,8,11,10,0.5,0.5
2025-12-24T1300,2295A,118.2903,29.6963,黄山市,延安路89号,,49,,27,34,24,11,11,10,7,21,23,3,4,0.8,0.7
2025-12-24T1300,2297A,118.1371,30.2756,黄山市,黄山区政府5号楼,,39,,25,27,22,12,12,11,10,19,22,6,6,0.6,0.6
2025-12-24T1300,4210A,118.3354,29.7203,黄山市,滨江东路7-2号,,,34,40,20,29,9,9,8,6,,25,,4,0.8,0.7
2025-12-24T1300,2423A,115.0601,30.2313,黄石市,沈家营,细颗粒物(PM2.5),73,79,65,53,42,5,5,4,3,14,6,4,5,1.0,1
2025-12-24T1300,2427A,115.0307,30.2092,黄石市,团城山,细颗粒物(PM2.5),89,74,64,66,55,6,6,5,3,17,15,6,6,0.9,1
2025-12-24T1300,3149A,115.0235,30.1578,黄石市,笔架山北路,细颗粒物(PM2.5),90,88,83,67,54,10,10,7,7,24,28,7,7,1.0,1.1
2025-12-24T1300,4185A,115.0780,30.21118,黄石市,磁湖东路29号,细颗粒物(PM2.5),88,70,65,65,56,6,6,8,5,17,15,5,6,1.0,1
2025-12-24T1300,1392A,114.4183,23.0528,惠州市,河南岸金山湖子站,细颗粒物(PM2.5),68,66,45,49,31,57,57,25,25,37,25,5,4,0.7,0.6
2025-12-24T1300,1393A,114.4053,23.0822,惠州市,下埔横江三路子站,"颗粒物(PM10),细颗粒物(PM2.5)",57,63,50,40,32,71,71,28,28,32,28,8,7,0.8,0.7
2025-12-24T1300,1395A,114.4645,22.7833,惠州市,惠阳区承修路船湖子站,,44,44,45,30,28,96,96,50,50,17,27,6,6,0.6,0.7
2025-12-24T1300,1396A,114.5317,22.7422,惠州市,大亚湾管委会子站,,38,38,45,24,26,94,94,35,35,14,34,7,6,0.6,0.6
2025-12-24T1300,3314A,114.4338,22.8134,惠州市,惠阳秋长,颗粒物(PM10),51,51,49,27,29,100,100,51,51,19,35,15,13,0.5,0.6
2025-12-24T1300,3452A,114.6517,22.775,惠州市,大亚湾霞涌,,47,47,28,24,16,87,87,44,44,16,22,4,3,0.7,0.6
2025-12-24T1300,2240A,130.9762,45.3001,鸡西市,环保局,,30,24,51,21,40,61,61,50,50,6,18,6,7,0.0,0.3
2025-12-24T1300,2243A,130.9429,45.3039,鸡西市,第一中学,,20,14,50,10,34,62,62,53,53,6,17,4,5,0.3,0.5
2025-12-24T1300,3707A,131.0207,45.3073,鸡西市,欧美日汽修厂,,20,20,75,8,50,59,59,49,49,9,20,7,12,0.2,0.5
2025-12-24T1300,3709A,130.9967,45.3106,鸡西市,市政设施管理处,,27,27,62,18,40,61,61,52,52,10,21,8,10,0.4,0.5
2025-12-24T1300,2367A,114.9754,27.0803,吉安市,红声器材厂,,19,19,48,8,31,15,15,14,11,23,27,5,8,1.1,1.1
2025-12-24T1300,2368A,114.9658,27.0999,吉安市,市森林工业局,,25,25,51,11,31,10,10,8,6,24,24,8,11,0.7,0.8
2025-12-24T1300,2369A,114.99,27.1312,吉安市,市环境监测站,,16,16,48,8,32,15,15,14,12,25,25,8,17,0.3,0.7
2025-12-24T1300,2370A,115.0093,27.0968,吉安市,青原区法院,,20,20,49,13,33,13,13,11,10,22,26,8,12,1.0,0.9
2025-12-24T1300,1772A,126.54,43.8622,吉林市,哈达湾,,50,50,62,34,38,54,54,29,29,14,27,13,6,0.9,1
2025-12-24T1300,1773A,126.5844,43.8358,吉林市,东局子,,41,41,54,25,47,49,49,18,18,20,25,13,12,0.9,1.1
2025-12-24T1300,1774A,126.5052,43.8245,吉林市,电力学院,,,54,86,31,54,58,58,29,29,,27,10,10,0.7,1
2025-12-24T1300,1775A,126.6133,43.8972,吉林市,江北,颗粒物(PM10),60,70,76,29,58,52,52,28,28,18,26,7,6,0.9,1.1
2025-12-24T1300,1776A,126.555,43.8306,吉林市,江南公园,,49,36,62,34,44,58,58,23,23,12,29,7,7,0.8,0.9
2025-12-24T1300,1778A,126.7061,43.7133,吉林市,丰满,,,43,49,,42,49,49,40,40,7,13,,6,0.6,0.8
2025-12-24T1300,2868A,126.4739,43.953,吉林市,九站,,38,31,85,26,63,57,57,24,24,16,34,5,6,0.8,1.1
2025-12-24T1300,1299A,116.9862,36.6114,济南市,科干所,颗粒物(PM10),63,75,82,39,56,45,45,14,14,35,41,10,5,0.9,1
2025-12-24T1300,1300A,116.9376,36.665,济南市,农科所,细颗粒物(PM2.5),83,85,90,61,69,32,32,10,10,43,40,6,3,0.9,1
2025-12-24T1300,1301A,117.1265,36.6734,济南市,开发区,细颗粒物(PM2.5),102,112,84,76,69,27,27,8,8,53,41,5,2,1.2,1
2025-12-24T1300,1303A,117.0624,36.6868,济南市,省种子仓库,细颗粒物(PM2.5),117,134,109,88,83,25,25,12,12,53,45,11,5,1.1,1
2025-12-24T1300,1304A,116.9489,36.6447,济南市,机床二厂,细颗粒物(PM2.5),77,76,99,56,81,39,39,12,12,30,35,12,13,0.7,1
2025-12-24T1300,1305A,117.0495,36.663,济南市,市监测站,细颗粒物(PM2.5),68,66,91,49,69,50,50,14,14,23,38,8,4,0.8,1.1
2025-12-24T1300,1306A,116.7675,36.5484,济南市,长清党校,细颗粒物(PM2.5),132,125,92,100,71,17,17,8,8,36,34,4,4,1.0,0.8
2025-12-24T1300,1616A,117.6795,36.229,济南市,技术学院,细颗粒物(PM2.5),92,88,73,68,58,58,58,14,14,32,45,14,4,5.4,0.9
2025-12-24T1300,1961A,117.532,36.6868,济南市,东山小学,,,85,89,59,66,54,54,16,16,,36,6,2,0.8,0.9
2025-12-24T1300,3059A,117.7161,36.2049,济南市,泰兴公司,细颗粒物(PM2.5),107,107,89,80,68,49,49,16,16,40,41,10,5,1.5,0.8
2025-12-24T1300,3064A,117.6867,36.2171,济南市,莱芜战役纪念馆,细颗粒物(PM2.5),114,117,91,86,73,49,49,16,16,39,42,15,8,3.9,0.6
2025-12-24T1300,3494A,117.1673,36.9782,济南市,济阳区政府,细颗粒物(PM2.5),80,76,89,59,71,23,23,13,13,45,42,6,5,0.9,0.8
2025-12-24T1300,3495A,117.1171,36.63,济南市,锦屏中学,细颗粒物(PM2.5),59,54,62,42,49,50,50,20,20,31,31,4,3,0.9,0.8
2025-12-24T1300,3682A,116.9814,36.6819,济南市,济南四建,细颗粒物(PM2.5),70,73,93,51,74,32,32,9,9,36,37,8,5,1.1,1.3
2025-12-24T1300,1653A,116.6251,35.4302,济宁市,火炬城,细颗粒物(PM2.5),70,79,76,51,70,51,51,19,19,21,32,8,6,0.5,0.7
2025-12-24T1300,1655A,116.5491,35.4042,济宁市,电化厂,细颗粒物(PM2.5),77,90,122,56,78,46,46,16,16,31,44,10,8,0.5,0.8
2025-12-24T1300,3500A,116.5814,35.3707,济宁市,北湖一中,细颗粒物(PM2.5),82,,69,60,70,46,46,22,22,28,31,8,6,0.7,0.8
2025-12-24T1300,3501A,116.8249,35.5593,济宁市,服务中心,细颗粒物(PM2.5),72,91,82,52,57,46,46,15,15,49,42,11,10,0.8,0.8
2025-12-24T1300,3678A,116.5907,35.4054,济宁市,市第七中学,颗粒物(PM10),68,86,74,39,60,59,59,24,24,20,34,10,9,0.6,0.8
2025-12-24T1300,2255A,130.2751,46.8028,佳木斯市,佳纺,,46,,41,32,33,58,58,46,46,7,13,5,4,0.3,0.3
2025-12-24T1300,2257A,130.3258,46.7975,佳木斯市,环保局,,38,29,37,26,30,58,58,44,44,13,18,2,2,0.5,0.5
2025-12-24T1300,4285A,130.363,46.806,佳木斯市,顺和街,,32,24,34,22,30,48,48,42,42,12,17,7,5,0.6,0.6
2025-12-24T1300,4286A,130.3952,46.8268,佳木斯市,长安路196号,,28,23,42,19,26,53,53,45,45,13,16,8,5,0.4,0.4
2025-12-24T1300,1252A,120.7436,30.778,嘉兴市,清河小学,细颗粒物(PM2.5),62,53,54,44,39,13,13,6,6,34,38,4,5,0.7,0.5
2025-12-24T1300,1253A,120.726,30.7478,嘉兴市,嘉兴学院,细颗粒物(PM2.5),69,72,64,50,39,10,10,6,6,38,37,6,7,1.0,0.8
2025-12-24T1300,2872A,120.7846,30.7525,嘉兴市,南湖区残联,细颗粒物(PM2.5),64,48,51,46,39,16,16,10,10,27,31,3,3,0.8,0.6
2025-12-24T1300,3407A,120.6916,30.7739,嘉兴市,秀洲住建,细颗粒物(PM2.5),77,58,55,56,44,14,14,7,7,30,32,5,6,0.8,0.7
2025-12-24T1300,1945A,98.2908,39.7711,嘉峪关市,气象局,,44,44,63,22,26,72,72,57,44,18,30,17,25,0.6,0.8
2025-12-24T1300,2884A,98.2672,39.7978,嘉峪关市,酒钢宾馆,颗粒物(PM10),67,83,77,44,29,61,61,52,45,24,25,42,42,1.7,1
2025-12-24T1300,3248A,98.2643,39.7724,嘉峪关市,雄关区,,34,34,55,22,33,66,66,41,37,25,37,20,27,0.8,0.9
2025-12-24T1300,1383A,113.1064,22.6058,江门市,北街,颗粒物(PM10),55,60,56,33,29,160,160,53,53,26,52,8,9,0.5,0.6
2025-12-24T1300,1384A,113.0731,22.5835,江门市,西区,,,62,61,37,26,171,171,50,50,36,51,9,8,,0.5
2025-12-24T1300,1385A,113.0219,22.5311,江门市,圭峰西,颗粒物(PM10),55,59,49,33,27,153,153,62,62,28,37,9,7,0.6,0.7
2025-12-24T1300,1386A,113.0828,22.5947,江门市,东湖,细颗粒物(PM2.5),58,64,50,41,31,164,164,54,54,37,52,8,7,0.5,0.6
2025-12-24T1300,3311A,113.1075,22.5647,江门市,江海富民,臭氧1小时,99,90,67,38,31,199,199,63,63,42,50,9,8,0.7,0.6
2025-12-24T1300,3449A,113.05,22.4667,江门市,新会银湖,,,67,47,,25,183,183,63,63,29,36,8,6,0.5,0.5
2025-12-24T1300,3335A,113.3137,35.2641,焦作市,马村街道办,细颗粒物(PM2.5),102,149,116,76,68,31,31,18,18,32,28,14,7,1.0,1
2025-12-24T1300,3336A,113.2465,35.2373,焦作市,焦作技师学院,颗粒物(PM10),101,151,119,68,65,31,31,13,13,30,33,14,9,1.0,1
2025-12-24T1300,3477A,113.1656,35.2539,焦作市,中站许衡医院,颗粒物(PM10),86,122,120,41,59,56,56,29,29,15,26,9,6,1.0,1
2025-12-24T1300,3981A,113.2449,35.1803,焦作市,原李万街道办,颗粒物(PM10),109,168,126,46,68,49,49,15,15,21,31,10,8,0.6,0.9
2025-12-24T1300,4264A,113.2340,35.2190,焦作市,新安路1731号,颗粒物(PM10),103,156,117,54,72,46,46,15,15,19,31,13,8,1.0,1.1
2025-12-24T1300,4295A,113.2722,35.2121,焦作市,人民路3066号,颗粒物(PM10),101,152,123,50,67,41,41,11,11,18,32,,8,,0.9
2025-12-24T1300,1708A,116.3701,23.5345,揭阳市,新兴,,,80,65,48,41,121,121,45,45,,37,16,13,0.7,0.8
2025-12-24T1300,1709A,116.3264,23.5443,揭阳市,西马,颗粒物(PM10),65,80,75,31,42,132,132,50,50,26,36,12,9,0.8,0.9
2025-12-24T1300,1710A,116.3611,23.5626,揭阳市,东兴,颗粒物(PM10),73,95,71,44,39,126,126,56,56,27,36,15,14,0.7,1
2025-12-24T1300,1711A,116.4151,23.5294,揭阳市,渔湖,颗粒物(PM10),67,84,63,30,27,140,140,52,52,27,33,11,10,0.7,0.8
2025-12-24T1300,3320A,116.403,23.5699,揭阳市,曲溪,细颗粒物(PM2.5),54,53,68,38,36,136,136,62,62,22,36,17,12,0.5,0.8
2025-12-24T1300,1944A,102.1692,38.5167,金昌市,天庆家园,,46,46,64,18,30,85,85,56,56,8,19,7,10,0.5,0.7
2025-12-24T1300,4022A,102.1647,38.5371,金昌市,金川区人防中心,颗粒物(PM10),51,51,62,18,32,79,79,49,49,3,11,6,11,0.3,0.5
2025-12-24T1300,4239A,102.1930,38.5319,金昌市,长春路96号,,45,45,59,17,24,80,80,56,56,5,12,7,13,0.5,0.7
2025-12-24T1300,1262A,119.647,29.077,金华市,十五中,,19,14,59,11,37,11,11,11,6,38,48,3,4,1.1,1
2025-12-24T1300,1263A,119.686,29.1029,金华市,监测站,,,14,59,8,31,6,6,7,3,39,51,,5,0.5,0.6
2025-12-24T1300,3659A,119.656,29.1131,金华市,气象局,,18,13,62,7,33,10,10,6,5,35,51,3,3,1.0,0.9
2025-12-24T1300,1767A,121.1115,41.0879,锦州市,南山,颗粒物(PM10),51,52,37,26,16,45,45,38,32,30,16,18,11,0.6,0.7
2025-12-24T1300,1768A,121.0604,40.8428,锦州市,开发区,,26,26,52,13,17,56,56,29,29,12,23,11,16,0.5,0.7
2025-12-24T1300,1769A,121.1836,41.1119,锦州市,百股街道,,33,33,45,17,17,47,47,25,25,22,22,22,15,0.6,0.7
2025-12-24T1300,1770A,121.1178,41.1222,锦州市,天安街道,,44,44,40,30,14,49,49,33,29,26,19,28,15,0.7,0.6
2025-12-24T1300,1771A,121.1303,41.1386,锦州市,北湖公园,,46,37,37,32,14,48,48,38,29,22,15,24,13,0.8,0.5
2025-12-24T1300,2160A,112.85,35.5051,晋城市,自来水公司,,,,168,,44,45,45,16,16,21,34,12,8,1.4,1
2025-12-24T1300,2161A,112.8318,35.4936,晋城市,白云商贸,颗粒物(PM10),83,115,182,24,33,57,57,20,20,8,24,4,4,0.5,0.8
2025-12-24T1300,2162A,112.8508,35.4887,晋城市,市环保局,颗粒物(PM10),103,156,181,41,40,44,44,18,18,17,27,12,6,1.3,1
2025-12-24T1300,2163A,112.8676,35.4897,晋城市,技术学院,颗粒物(PM10),114,177,175,46,40,38,38,14,14,29,41,15,8,1.6,1
2025-12-24T1300,2165A,112.8453,35.546,晋城市,白马寺,颗粒物(PM10),73,96,153,41,48,60,60,33,33,12,20,10,10,0.6,0.8
2025-12-24T1300,3620A,112.8271,35.4828,晋城市,泽州一中,颗粒物(PM10),100,149,180,22,38,64,64,25,25,14,29,5,4,0.4,0.7
2025-12-24T1300,2173A,112.7249,37.7067,晋中市,南都小区,颗粒物(PM10),92,133,157,51,40,41,41,20,20,33,38,39,16,1.1,0.7
2025-12-24T1300,2174A,112.6991,37.6982,晋中市,榆次区政府,颗粒物(PM10),104,158,166,63,52,37,37,15,15,36,42,41,16,1.1,0.8
2025-12-24T1300,2865A,112.7195,37.6828,晋中市,榆次三中,,,,159,,36,40,40,16,16,30,38,,14,1.5,0.9
2025-12-24T1300,4200A,112.7478,37.6954,晋中市,迎宾街26号,颗粒物(PM10),101,151,157,53,40,42,42,18,18,28,35,44,14,1.0,0.6
2025-12-24T1300,2439A,112.2014,31.0481,荆门市,竹园小学,颗粒物(PM10),73,95,95,51,50,48,48,34,34,24,25,1,2,0.0,0.2
2025-12-24T1300,2440A,112.1969,30.9891,荆门市,掇刀,,,105,96,57,49,45,45,36,36,21,20,4,4,,0.6
2025-12-24T1300,2441A,112.2213,31.0386,荆门市,石化一小,细颗粒物(PM2.5),74,96,101,54,49,44,44,30,30,23,26,8,9,0.0,0.1
2025-12-24T1300,3012A,112.1849,31.0362,荆门市,西山林语,颗粒物(PM10),71,92,89,46,38,50,50,38,38,21,20,5,5,0.5,0.6
2025-12-24T1300,3547A,112.1632,31.0138,荆门市,龙泉中学南校,颗粒物(PM10),70,90,95,43,47,58,58,51,51,14,17,8,9,0.5,0.5
2025-12-24T1300,1844A,112.2494,30.3197,荆州市,市图书馆,细颗粒物(PM2.5),74,66,64,54,45,44,44,30,30,21,26,8,7,0.6,0.7
2025-12-24T1300,1845A,112.2008,30.3544,荆州市,市委党校,细颗粒物(PM2.5),69,80,67,50,45,43,43,24,24,23,28,5,4,0.8,0.9
2025-12-24T1300,3194A,112.2747,30.3122,荆州市,管委会,细颗粒物(PM2.5),79,85,63,58,46,40,40,29,29,20,26,6,5,0.8,0.8
2025-12-24T1300,4268A,112.1722,30.3366,荆州市,学苑路85号,颗粒物(PM10),63,75,61,44,46,48,48,29,29,23,25,7,6,0.8,0.9
2025-12-24T1300,2343A,117.2117,29.2933,景德镇市,老干部活动中心,,20,,24,14,23,11,11,15,12,11,16,6,7,0.7,0.7
2025-12-24T1300,2344A,117.1894,29.2789,景德镇市,兽医站,,9,9,31,3,18,14,14,19,17,14,20,6,8,0.6,0.5
2025-12-24T1300,2346A,117.2461,29.2956,景德镇市,陶研所,,16,,22,11,21,13,13,16,15,15,19,4,4,0.8,0.7
2025-12-24T1300,4289A,117.1542,29.2566,景德镇市,青少年活动中心,,9,8,33,3,22,13,13,16,15,17,24,3,11,0.6,0.6
2025-12-24T1300,1803A,115.9872,29.6815,九江市,十里,,30,28,32,21,31,20,20,26,18,22,26,4,3,0.6,0.7
2025-12-24T1300,1804A,115.9584,29.7046,九江市,茅山头,,40,28,35,28,32,19,19,19,14,15,19,4,4,0.8,0.9
2025-12-24T1300,1805A,115.9877,29.7295,九江市,西园,,33,33,34,19,25,24,24,25,19,26,31,2,2,0.6,0.7
2025-12-24T1300,1808A,115.9114,29.6038,九江市,综合工业园,,46,,42,32,36,18,18,25,21,22,26,3,3,0.9,0.8
2025-12-24T1300,1809A,116.0721,29.7535,九江市,石化总厂,,43,,35,30,30,24,24,25,20,16,21,6,6,0.7,0.8
2025-12-24T1300,3190A,116.0254,29.6994,九江市,外国语学校,,30,,38,21,27,17,17,21,15,26,29,6,7,0.6,0.7
2025-12-24T1300,4253A,116.0102,29.6594,九江市,莲花大道8号,,45,,35,31,33,17,17,21,16,27,29,2,3,0.5,0.7
2025-12-24T1300,4240A,98.4958,39.7339,酒泉市,玉门东路5号,颗粒物(PM10),68,85,74,29,27,71,71,56,56,22,24,13,13,0.9,0.7
2025-12-24T1300,4241A,98.5099,39.7506,酒泉市,北大街108号,颗粒物(PM10),76,102,80,35,27,62,62,43,43,28,33,14,15,0.9,0.9
2025-12-24T1300,2698A,76.0072,39.4467,喀什地区,巡警大队,细颗粒物(PM2.5),119,159,100,90,57,13,13,17,13,58,34,5,3,2.4,1.2
2025-12-24T1300,2699A,75.9755,39.4694,喀什地区,吾办,细颗粒物(PM2.5),222,250,109,172,67,18,18,23,16,53,31,2,3,2.5,1.4
2025-12-24T1300,4027A,75.9483,39.4689,喀什地区,老干局,细颗粒物(PM2.5),113,132,101,85,56,20,20,30,22,37,22,3,2,1.8,1.1
2025-12-24T1300,1824A,114.3389,34.7781,开封市,肿瘤医院,颗粒物(PM10),71,91,90,50,67,40,40,19,19,33,36,4,5,0.7,1
2025-12-24T1300,1826A,114.2885,34.7965,开封市,世纪星幼儿园,细颗粒物(PM2.5),88,68,83,65,74,48,48,18,18,29,38,4,3,0.8,1
2025-12-24T1300,3147A,114.3438,34.8106,开封市,龙亭公园,细颗粒物(PM2.5),89,99,88,66,84,35,35,19,19,39,40,4,3,0.9,1
2025-12-24T1300,3210A,114.3644,34.7964,开封市,汴京公园,细颗粒物(PM2.5),82,108,105,60,73,45,45,22,22,37,39,7,6,0.7,0.9
2025-12-24T1300,3473A,114.2485,34.8306,开封市,技师学院,细颗粒物(PM2.5),87,65,90,64,78,43,43,17,17,38,46,6,7,0.6,0.9
2025-12-24T1300,3592A,114.4644,34.7556,开封市,祥符区生态环境局,细颗粒物(PM2.5),108,105,104,81,78,50,50,18,18,39,43,7,5,0.6,0.7
2025-12-24T1300,1951A,84.895,45.6094,克拉玛依市,长征新村,细颗粒物(PM2.5),92,78,39,68,31,28,28,26,26,35,27,5,4,0.7,0.4
2025-12-24T1300,1952A,84.8988,45.5893,克拉玛依市,南林小区,颗粒物(PM10),61,72,39,43,21,36,36,26,25,16,16,10,9,1.2,1
2025-12-24T1300,1954A,84.905,44.3396,克拉玛依市,独山子区,,22,19,52,15,37,59,59,55,55,16,23,5,5,0.5,0.6
2025-12-24T1300,1955A,85.6979,46.098,克拉玛依市,乌尔禾区商贸楼,细颗粒物(PM2.5),58,48,21,41,23,37,37,37,32,18,11,4,4,0.7,0.4
2025-12-24T1300,3612A,85.1045,45.6899,克拉玛依市,白碱滩区新站,细颗粒物(PM2.5),93,102,62,69,36,15,15,31,19,38,24,7,6,0.9,0.5
2025-12-24T1300,2697A,76.1454,39.7142,克孜勒苏柯尔克孜自治州,市人民政府,细颗粒物(PM2.5),87,120,110,64,53,50,50,39,36,22,20,6,6,0.6,0.5
2025-12-24T1300,3665A,76.1658,39.7157,克孜勒苏柯尔克孜自治州,克州文化中心,细颗粒物(PM2.5),95,107,113,71,56,46,46,28,28,22,26,8,8,0.9,0.9
2025-12-24T1300,1450A,102.8204,24.8886,昆明市,呈贡新区,,24,22,24,13,13,76,76,58,58,6,14,2,5,0.4,0.4
2025-12-24T1300,1452A,102.7252,25.0902,昆明市,龙泉镇,,22,,25,15,13,56,56,38,38,15,19,3,3,0.4,0.4
2025-12-24T1300,1453A,102.7266,25.0375,昆明市,东风东路,,29,28,28,20,18,61,61,46,46,21,23,3,5,0.4,0.4
2025-12-24T1300,1454A,102.6742,25.0669,昆明市,金鼎山,,25,25,28,8,15,62,62,51,50,13,14,2,4,0.3,0.6
2025-12-24T1300,1455A,102.6644,25.0401,昆明市,碧鸡广场,,28,28,28,17,17,59,59,43,43,16,20,3,4,0.4,0.4
2025-12-24T1300,3179A,102.7494,25.0119,昆明市,官渡区博物馆,,22,18,22,15,17,62,62,52,52,16,15,3,4,0.3,0.3
2025-12-24T1300,3375A,102.8017,24.8336,昆明市,青年创业园,,25,18,23,14,14,80,80,60,60,4,11,3,6,0.3,0.4
2025-12-24T1300,3550A,102.7997,24.9786,昆明市,昆明学院,,24,24,23,15,14,64,64,55,51,12,13,2,2,0.3,0.3
2025-12-24T1300,3551A,102.5967,24.6736,昆明市,晋宁区生态环境分局,,,,21,,15,63,63,45,45,9,12,2,3,0.3,0.5
2025-12-24T1300,3552A,102.6678,24.9856,昆明市,云天化总部,,22,22,24,15,15,66,66,53,53,12,21,5,6,0.3,0.3
2025-12-24T1300,1456A,91.1319,29.6514,拉萨市,八廓街,,34,34,45,21,32,77,77,51,51,16,37,13,13,0.6,1.2
2025-12-24T1300,1457A,91.1221,29.6747,拉萨市,市环保局,,32,30,52,22,36,68,68,37,37,15,34,18,8,0.4,1.4
2025-12-24T1300,1458A,91.0874,29.6475,拉萨市,区监测站,,,37,24,22,15,74,74,41,41,19,40,17,9,,1
2025-12-24T1300,1459A,91.1774,29.6541,拉萨市,西藏大学,,23,23,29,7,18,72,72,56,56,17,33,24,12,0.6,0.8
2025-12-24T1300,1460A,90.9798,29.6588,拉萨市,区辐射站,细颗粒物(PM2.5),70,82,60,51,34,77,77,32,30,41,45,7,7,0.7,1
2025-12-24T1300,1461A,91.0834,29.6292,拉萨市,拉萨火车站,,25,,23,17,13,64,64,32,22,32,38,7,7,0.8,0.9
2025-12-24T1300,2520A,109.2203,23.7256,来宾市,来宾技工学校,,,6,40,3,28,19,19,19,12,,12,,6,1.0,1
2025-12-24T1300,3535A,109.1781,23.7297,来宾市,兴宾区政府,,9,7,47,3,37,22,22,23,16,10,15,4,5,0.9,1
2025-12-24T1300,4002A,109.2416,23.7461,来宾市,中南小学,,9,9,37,3,26,18,18,18,12,9,14,3,3,0.7,0.8
2025-12-24T1300,3241A,103.7439,36.0842,兰州市,百合公园,,,,68,,32,64,64,18,18,,48,,13,0.6,0.8
2025-12-24T1300,3242A,103.9611,35.998,兰州市,和平,,,,61,,32,53,53,25,25,,21,7,9,0.4,0.8
2025-12-24T1300,4236A,103.6293,36.0938,兰州市,庄浪东路808号,细颗粒物(PM2.5),57,60,76,40,39,62,62,22,22,15,45,16,12,0.8,0.8
2025-12-24T1300,4237A,103.7251,36.1043,兰州市,安宁西路88号,,43,43,80,26,37,72,72,24,24,12,52,9,9,0.5,0.7
2025-12-24T1300,4238A,103.8470,36.0676,兰州市,北滨河东路1号,,33,33,70,22,35,81,81,21,21,13,51,9,11,0.5,1
2025-12-24T1300,3245A,103.6633,36.533,兰州新区,新区管委会,,,,67,,33,66,66,42,42,13,23,,17,0.4,0.5
2025-12-24T1300,3246A,103.6975,36.4789,兰州新区,舟曲中学,颗粒物(PM10),54,57,72,34,31,72,72,47,47,13,30,17,16,0.4,0.5
2025-12-24T1300,1067A,116.6708,39.5111,廊坊市,药材公司,,21,21,25,8,8,50,50,16,16,20,31,2,2,0.5,0.6
2025-12-24T1300,1068A,116.7214,39.5589,廊坊市,开发区,,20,16,20,14,7,41,41,15,13,30,35,4,2,0.4,0.3
2025-12-24T1300,1070A,116.7244,39.5269,廊坊市,北华航天学院,,33,33,26,13,9,49,49,16,16,24,36,3,2,0.4,0.4
2025-12-24T1300,2919A,116.7022,39.5453,廊坊市,河北工业大学,,38,38,25,15,9,47,47,16,13,26,34,3,2,0.4,0.4
2025-12-24T1300,2536A,103.7627,29.5844,乐山市,牛耳桥,颗粒物(PM10),61,71,59,42,32,17,17,20,9,29,27,8,7,0.7,0.6
2025-12-24T1300,2537A,103.7508,29.6006,乐山市,市第三水厂,颗粒物(PM10),66,81,59,42,30,20,20,26,12,39,28,7,6,0.7,0.6
2025-12-24T1300,2538A,103.7571,29.5664,乐山市,市监测站,颗粒物(PM10),66,81,61,42,31,16,16,24,12,29,22,9,8,0.7,0.6
2025-12-24T1300,3361A,103.7311,29.5628,乐山市,理工大学,细颗粒物(PM2.5),70,88,61,51,32,12,12,15,6,34,23,6,5,0.8,0.6
2025-12-24T1300,2599A,100.2497,26.8802,丽江市,丽江古城,,23,22,31,14,20,71,71,63,63,8,13,8,8,0.4,0.6
2025-12-24T1300,2600A,100.2203,26.8906,丽江市,市中心,,21,21,13,13,16,66,66,60,58,10,13,6,6,0.3,0.4
2025-12-24T1300,1267A,119.914,28.4514,丽水市,监测站大楼,细颗粒物(PM2.5),95,,50,71,35,24,24,13,13,31,38,5,6,0.8,0.9
2025-12-24T1300,1268A,119.93,28.4586,丽水市,莲都小学,细颗粒物(PM2.5),78,97,67,57,31,25,25,15,15,27,37,5,5,0.7,0.6
2025-12-24T1300,1269A,119.879,28.4231,丽水市,余庄前,细颗粒物(PM2.5),82,84,44,60,29,30,30,13,13,26,22,5,5,0.6,0.4
2025-12-24T1300,1173A,119.176,34.5885,连云港市,市环境监测站,细颗粒物(PM2.5),92,107,69,68,53,34,34,15,15,35,34,19,11,1.2,0.7
2025-12-24T1300,3000A,119.3581,34.6972,连云港市,德源药业,,,,76,,54,50,50,16,16,,33,9,6,,0.9
2025-12-24T1300,3007A,119.178,34.844,连云港市,新城一中,细颗粒物(PM2.5),68,76,60,49,59,50,50,22,22,29,39,22,13,1.6,1.2
2025-12-24T1300,3008A,119.3608,34.7519,连云港市,胡沟管理处,颗粒物(PM10),59,68,76,36,52,51,51,29,29,25,31,8,8,1.0,1.2
2025-12-24T1300,3009A,119.1478,34.5911,连云港市,矿山设计院,细颗粒物(PM2.5),92,119,74,68,50,35,35,13,13,34,31,20,11,1.7,1.1
2025-12-24T1300,3434A,119.2413,34.6539,连云港市,工贸学校,细颗粒物(PM2.5),93,91,76,69,60,33,33,10,10,32,33,14,11,1.2,1.2
2025-12-24T1300,3664A,119.4172,34.7341,连云港市,连云街道,颗粒物(PM10),56,62,83,38,54,49,49,26,26,33,43,8,9,1.0,1.1
2025-12-24T1300,2572A,102.2721,27.8415,凉山彝族自治州,邛海宾馆,,22,22,46,15,32,45,45,32,32,15,19,7,8,0.5,0.7
2025-12-24T1300,2573A,102.2625,27.898,凉山彝族自治州,西昌市政府,,,41,41,30,32,36,36,25,25,,23,7,9,0.6,0.9
2025-12-24T1300,2574A,102.2685,27.8851,凉山彝族自治州,凉山州政府,,39,38,46,27,32,29,29,23,23,20,24,9,10,0.7,0.8
2025-12-24T1300,4229A,102.2342,27.8859,凉山彝族自治州,凯乐南路30号,,30,30,48,17,27,43,43,31,31,22,34,10,10,0.9,1.2
2025-12-24T1300,2212A,123.2,41.1953,辽阳市,宏伟区,,35,35,65,23,27,67,67,35,35,10,22,10,10,0.6,0.7
2025-12-24T1300,2213A,123.1683,41.2495,辽阳市,新华园,,35,35,76,14,33,65,65,28,28,15,28,4,11,0.8,1
2025-12-24T1300,2214A,123.2354,41.2639,辽阳市,滨河路,颗粒物(PM10),57,63,81,38,34,48,48,21,21,25,30,8,13,0.9,1
2025-12-24T1300,2215A,123.149,41.2991,辽阳市,铁西工业园,,46,46,78,31,38,55,55,20,20,16,32,9,9,0.8,1.1
2025-12-24T1300,2227A,125.1358,42.8845,辽源市,环保局,颗粒物(PM10),60,69,86,42,46,59,59,22,22,15,31,4,6,0.6,1.1
2025-12-24T1300,3239A,125.0764,42.9078,辽源市,银鹰制药,,,86,69,62,42,54,54,22,22,14,30,4,4,,1
2025-12-24T1300,1625A,115.9848,36.4372,聊城市,区政府,细颗粒物(PM2.5),104,100,103,78,82,37,37,13,13,51,48,10,10,1.1,1.2
2025-12-24T1300,2878A,116.0072,36.4343,聊城市,聊大东校,细颗粒物(PM2.5),105,97,110,79,87,39,39,14,14,37,43,9,8,1.2,1.3
2025-12-24T1300,3200A,115.9819,36.4978,聊城市,监控中心,细颗粒物(PM2.5),185,160,103,139,88,15,15,10,10,59,36,12,9,1.7,1.5
2025-12-24T1300,3513A,116.0445,36.4361,聊城市,九州社区,细颗粒物(PM2.5),114,105,106,86,82,31,31,18,18,24,29,1,2,1.1,0.9
2025-12-24T1300,4018A,116.0567,36.4608,聊城市,星美广场,细颗粒物(PM2.5),120,114,116,91,86,30,30,19,19,48,40,3,3,1.1,1
2025-12-24T1300,2632A,94.3681,29.6376,林芝市,林芝监测站,,23,18,24,3,7,72,72,71,53,2,6,5,5,0.3,0.3
2025-12-24T1300,2633A,94.3616,29.6616,林芝市,林芝人民医院,,21,10,27,3,9,65,65,66,53,4,5,4,4,0.3,0.3
2025-12-24T1300,2603A,100.0781,23.8982,临沧市,市环保局,,43,31,34,30,41,73,73,25,25,5,14,8,7,0.5,0.6
2025-12-24T1300,2604A,100.0894,23.8822,临沧市,市气象局,,35,35,41,21,27,70,70,23,23,8,16,7,7,0.3,0.5
2025-12-24T1300,1733A,111.5531,36.0783,临汾市,临钢医院,颗粒物(PM10),125,200,219,50,52,42,42,16,16,19,26,8,7,0.7,0.7
2025-12-24T1300,1734A,111.5028,36.0714,临汾市,技工学校,颗粒物(PM10),112,174,213,40,50,35,35,13,13,26,31,8,6,0.7,0.7
2025-12-24T1300,1736A,111.5018,36.0855,临汾市,市委,颗粒物(PM10),111,171,224,43,44,35,35,14,14,31,35,11,9,1.1,1
2025-12-24T1300,3018A,111.505,36.1014,临汾市,唐尧大酒店,颗粒物(PM10),108,166,202,50,48,33,33,13,13,32,33,7,4,0.9,0.8
2025-12-24T1300,4244A,111.4879,36.0530,临汾市,启星学校,颗粒物(PM10),109,167,194,40,46,32,32,12,12,37,38,12,7,1.2,1.2
2025-12-24T1300,4271A,103.2464,35.6123,临夏回族自治州,滨河东路1号,颗粒物(PM10),104,157,142,60,67,51,51,19,19,20,26,9,5,0.9,1.2
2025-12-24T1300,4310A,103.2093,35.5995,临夏回族自治州,新华街21号,细颗粒物(PM2.5),97,129,134,72,71,37,37,14,14,25,24,12,8,1.1,1.3
2025-12-24T1300,1618A,118.3429,35.0532,临沂市,沂河小区,细颗粒物(PM2.5),97,92,70,72,52,53,53,29,29,30,36,11,10,0.7,0.7
2025-12-24T1300,1619A,118.295,35.0583,临沂市,鲁南制药厂,细颗粒物(PM2.5),94,100,70,70,52,54,54,24,24,32,44,12,11,0.6,0.6
2025-12-24T1300,1620A,118.2794,34.9976,临沂市,新光毛纺厂,细颗粒物(PM2.5),98,97,68,73,51,47,47,18,18,31,40,13,11,0.6,0.7
2025-12-24T1300,1621A,118.3956,35.0888,临沂市,河东保险公司,细颗粒物(PM2.5),82,95,66,60,42,57,57,27,27,19,31,13,9,0.7,0.6
2025-12-24T1300,3370A,118.3564,35.0215,临沂市,十里堡居委,细颗粒物(PM2.5),73,78,56,53,31,60,60,34,34,26,34,12,9,0.7,0.7
2025-12-24T1300,3496A,118.3604,35.1084,临沂市,南坊新区,细颗粒物(PM2.5),89,83,64,66,45,56,56,28,28,29,41,10,9,0.6,0.8
2025-12-24T1300,3860A,118.3920,35.0300,临沂市,皇山花园小区,细颗粒物(PM2.5),77,83,61,56,41,62,62,37,37,24,33,13,11,0.8,0.7
2025-12-24T1300,1870A,109.4856,24.3895,柳州市,柳东小学,,,3,31,,26,20,20,13,13,8,11,6,6,0.8,0.9
2025-12-24T1300,1871A,109.4157,24.3277,柳州市,环保监测站,,12,,30,8,21,18,18,10,10,14,20,6,7,0.9,1.1
2025-12-24T1300,1872A,109.389,24.341,柳州市,河西水厂,,15,14,31,7,23,15,15,11,9,21,21,7,8,1.5,1.2
2025-12-24T1300,1873A,109.4311,24.2921,柳州市,市四中,,10,,33,7,26,20,20,13,13,14,20,8,9,0.4,0.6
2025-12-24T1300,1874A,109.4006,24.3631,柳州市,市九中,,9,,26,6,26,21,21,13,13,15,20,9,10,0.6,0.8
2025-12-24T1300,1875A,109.4958,24.3134,柳州市,古亭山,,9,,24,3,15,18,18,13,12,10,12,8,8,0.9,0.9
2025-12-24T1300,3402A,109.5422,24.3996,柳州市,市二中,,9,6,24,3,14,19,19,11,9,11,14,7,7,0.9,0.9
2025-12-24T1300,2307A,116.5079,31.737,六安市,监测大楼,细颗粒物(PM2.5),88,79,69,65,59,25,25,16,16,25,27,3,3,0.5,0.5
2025-12-24T1300,2308A,116.4738,31.7643,六安市,皖西学院,细颗粒物(PM2.5),82,79,76,60,60,31,31,18,18,26,28,2,2,0.6,0.6
2025-12-24T1300,2309A,116.4996,31.7905,六安市,朝阳厂,细颗粒物(PM2.5),84,82,68,62,55,24,24,14,14,24,25,3,3,0.6,0.6
2025-12-24T1300,2310A,116.5567,31.7886,六安市,开发区,细颗粒物(PM2.5),93,100,74,69,58,23,23,13,13,27,27,1,1,0.6,0.5
2025-12-24T1300,2576A,104.8,26.5892,六盘水市,窑上,,29,27,53,20,40,41,41,34,32,9,12,3,3,0.4,0.6
2025-12-24T1300,2577A,104.83,26.5917,六盘水市,黄土坡,,18,18,45,10,33,36,36,29,27,16,20,8,8,0.7,0.8
2025-12-24T1300,2578A,104.89,26.5939,六盘水市,水钢,,25,25,49,14,38,35,35,30,29,11,15,7,7,0.5,0.7
2025-12-24T1300,2579A,104.8475,26.5894,六盘水市,民中,,25,24,47,17,36,32,32,28,25,15,18,4,5,0.5,0.7
2025-12-24T1300,2580A,104.9544,26.5506,六盘水市,双水,,33,29,40,23,32,36,36,29,28,11,14,4,5,1.0,0.6
2025-12-24T1300,2336A,117.0217,25.1033,龙岩市,龙岩市监测站,,47,47,39,27,26,73,73,29,29,24,31,11,19,0.8,0.7
2025-12-24T1300,2337A,117.0258,25.0661,龙岩市,闽西职业技术学院,,42,42,40,25,27,74,74,27,27,20,29,10,17,0.8,0.7
2025-12-24T1300,2338A,117.0196,25.0306,龙岩市,龙岩学院,,36,36,33,18,22,79,79,28,28,14,21,11,9,0.6,0.6
2025-12-24T1300,2885A,104.9339,33.3826,陇南市,滨江中学,颗粒物(PM10),52,54,72,19,31,50,50,26,25,19,38,8,12,0.7,1.2
2025-12-24T1300,3247A,104.955,33.371,陇南市,市总工会,颗粒物(PM10),57,64,68,27,22,49,49,39,30,21,24,6,4,0.7,0.7
2025-12-24T1300,2488A,111.9975,27.725,娄底市,市监测站,细颗粒物(PM2.5),67,58,36,48,29,27,27,34,26,21,17,5,5,1.1,0.7
2025-12-24T1300,2489A,112.0194,27.7314,娄底市,市委党校,,,88,48,32,32,19,19,33,24,15,18,1,6,,0.4
2025-12-24T1300,2490A,111.9561,27.7569,娄底市,涟钢,,37,37,42,24,28,23,23,27,20,17,12,6,5,0.5,0.4
2025-12-24T1300,2491A,111.9892,27.7044,娄底市,市政府,,48,45,29,33,24,26,26,38,25,14,11,5,5,0.9,0.9
2025-12-24T1300,1894A,105.4427,28.9063,泸州市,小市上码头,细颗粒物(PM2.5),64,68,51,46,30,3,3,1,0,32,27,10,10,0.7,0.7
2025-12-24T1300,1895A,105.4241,28.8573,泸州市,兰田宪桥,,,,38,,28,3,3,4,3,,21,7,7,,0.9
2025-12-24T1300,1896A,105.4379,28.8833,泸州市,市环监站,,,71,48,44,31,4,4,4,3,24,23,10,10,,0.7
2025-12-24T1300,4272A,105.3689,28.7783,泸州市,纳溪中医医院,细颗粒物(PM2.5),73,74,47,53,32,2,2,1,1,21,19,8,7,1.0,0.8
2025-12-24T1300,2183A,111.1406,37.5211,吕梁市,环保局,颗粒物(PM10),85,119,140,22,33,40,40,16,16,25,32,8,5,0.6,0.5
2025-12-24T1300,2185A,111.1297,37.5136,吕梁市,自来水公司,颗粒物(PM10),84,117,152,22,30,46,46,16,16,21,29,8,6,0.9,0.6
2025-12-24T1300,2867A,111.1283,37.51,吕梁市,马茂庄小学,颗粒物(PM10),94,137,151,33,42,29,29,11,11,31,30,10,6,0.8,0.6
2025-12-24T1300,1812A,112.3931,34.6516,洛阳市,市委党校,颗粒物(PM10),94,137,139,50,47,46,46,23,23,25,33,16,10,0.8,0.8
2025-12-24T1300,1815A,112.494,34.6886,洛阳市,河南林校,颗粒物(PM10),100,149,151,46,47,45,45,15,15,27,36,16,8,0.9,0.8
2025-12-24T1300,1816A,112.3844,34.623,洛阳市,开发区管委会,颗粒物(PM10),92,134,138,45,46,50,50,25,25,11,19,12,8,0.6,0.7
2025-12-24T1300,1817A,112.4267,34.6258,洛阳市,市委新办公区,颗粒物(PM10),90,129,136,52,47,49,49,23,23,24,30,14,9,0.7,0.7
2025-12-24T1300,3340A,112.6005,34.6326,洛阳市,伊滨,颗粒物(PM10),99,148,141,52,40,49,49,21,21,14,22,12,7,0.6,0.9
2025-12-24T1300,3341A,112.4951,34.6332,洛阳市,中移产业园,颗粒物(PM10),89,128,135,46,43,45,45,17,17,25,33,15,10,0.6,0.7
2025-12-24T1300,3593A,112.5736,34.8993,洛阳市,吉利监测站,颗粒物(PM10),90,129,141,29,38,64,64,32,32,14,34,9,7,0.5,0.7
2025-12-24T1300,3635A,112.3677,34.662,洛阳市,河科大西苑校区,颗粒物(PM10),98,145,157,42,42,58,58,25,25,14,29,15,11,0.7,0.8
2025-12-24T1300,3636A,112.4388,34.6781,洛阳市,英才小学,颗粒物(PM10),93,136,150,59,55,41,41,11,11,33,44,22,14,1.1,1
2025-12-24T1300,4214A,112.4600,34.6949,洛阳市,春都路1号院,颗粒物(PM10),109,168,169,52,45,40,40,14,14,30,35,18,8,1.1,1
2025-12-24T1300,2399A,114.051,33.5699,漯河市,三五一五工厂,细颗粒物(PM2.5),85,111,104,63,76,43,43,18,18,19,26,7,7,0.4,0.6
2025-12-24T1300,2400A,114.0055,33.5698,漯河市,漯河大学,细颗粒物(PM2.5),83,84,96,61,61,48,48,19,19,21,30,7,6,0.7,0.8
2025-12-24T1300,2401A,114.0138,33.5828,漯河市,市水利局,细颗粒物(PM2.5),83,83,95,61,65,33,33,12,12,25,30,7,7,0.8,0.9
2025-12-24T1300,2402A,114.0261,33.5698,漯河市,市广电局,细颗粒物(PM2.5),84,73,97,62,63,50,50,17,17,17,27,7,7,0.7,0.9
2025-12-24T1300,3478A,113.9749,33.5664,漯河市,市图书馆,细颗粒物(PM2.5),113,107,105,85,67,35,35,17,17,26,27,5,5,0.8,0.8
2025-12-24T1300,4250A,114.0892,33.5882,漯河市,韶山路11号,细颗粒物(PM2.5),90,93,105,67,68,47,47,12,12,19,35,9,8,0.6,0.8
2025-12-24T1300,1798A,118.5092,31.6837,马鞍山市,湖东路四小,细颗粒物(PM2.5),104,87,45,78,44,9,9,6,6,37,30,4,5,1.0,0.8
2025-12-24T1300,1799A,118.5024,31.6449,马鞍山市,开发区,细颗粒物(PM2.5),83,78,42,61,33,10,10,7,7,37,30,4,4,1.0,0.8
2025-12-24T1300,3633A,118.4918,31.6809,马鞍山市,雨山,细颗粒物(PM2.5),102,95,52,76,44,9,9,5,5,40,34,7,9,1.1,1
2025-12-24T1300,4191A,118.5274,31.72227,马鞍山市,慈湖高新区,,,,53,,43,13,13,6,6,35,30,5,7,1.1,0.8
2025-12-24T1300,1686A,111.0286,21.4688,茂名市,电白南海,,36,36,32,22,20,109,109,61,61,12,13,10,10,0.9,0.9
2025-12-24T1300,1687A,110.9294,21.6533,茂名市,茂石化七小,,34,34,37,14,16,87,87,60,60,11,16,7,6,0.4,0.5
2025-12-24T1300,1688A,110.9107,21.6687,茂名市,健康路,,31,19,29,9,14,99,99,64,64,12,16,10,12,0.3,0.5
2025-12-24T1300,1689A,110.8592,21.6828,茂名市,高岭,,36,36,45,3,13,96,96,51,51,13,20,8,12,0.4,0.5
2025-12-24T1300,3450A,111.01,21.5165,茂名市,电白水东,,34,34,25,19,13,94,94,57,57,13,11,8,9,0.7,0.8
2025-12-24T1300,2540A,103.8416,30.0874,眉山市,气象局,颗粒物(PM10),62,74,67,36,31,35,35,14,14,32,25,10,9,0.7,0.5
2025-12-24T1300,3137A,103.8578,30.0744,眉山市,市委党校,颗粒物(PM10),64,78,64,31,24,40,40,27,22,20,20,7,6,0.4,0.4
2025-12-24T1300,3148A,103.8291,30.0564,眉山市,区人社局,颗粒物(PM10),62,74,71,36,24,36,36,25,14,26,25,7,5,0.5,0.4
2025-12-24T1300,1690A,116.1231,24.3284,梅州市,梅江月梅,,38,34,43,26,27,70,70,29,29,17,30,10,7,0.6,0.6
2025-12-24T1300,1691A,116.0797,24.2719,梅州市,梅县新城,,41,41,42,27,27,79,79,33,33,20,30,12,8,0.7,0.7
2025-12-24T1300,1692A,116.1248,24.2654,梅州市,环境监控中心,,42,42,47,28,31,72,72,31,31,17,37,11,12,0.5,0.6
2025-12-24T1300,3315A,116.1233,24.2991,梅州市,梅龙,,36,36,43,22,26,60,60,31,31,16,29,11,10,0.6,0.6
2025-12-24T1300,1878A,104.7778,31.4741,绵阳市,富乐山,颗粒物(PM10),56,61,48,29,25,36,36,29,22,21,18,11,10,0.4,0.4
2025-12-24T1300,1880A,104.6697,31.4668,绵阳市,高新区自来水公司,颗粒物(PM10),60,69,58,31,29,21,21,16,6,43,34,8,8,0.5,0.4
2025-12-24T1300,1881A,104.7287,31.5075,绵阳市,三水厂,颗粒物(PM10),73,96,61,43,29,12,12,10,4,45,34,8,7,0.5,0.4
2025-12-24T1300,3491A,104.69,31.5322,绵阳市,西科大附属小学,,,95,62,35,24,7,7,6,4,,37,9,8,0.6,0.3
2025-12-24T1300,3492A,104.5648,31.5343,绵阳市,安州区旅游局,颗粒物(PM10),56,61,56,27,26,32,32,17,17,24,30,13,12,0.6,0.6
2025-12-24T1300,4226A,104.7651,31.4531,绵阳市,绵阳市气象局,颗粒物(PM10),52,53,52,17,19,34,34,28,18,21,23,9,8,0.5,0.6
2025-12-24T1300,1784A,129.61,44.561,牡丹江市,环保大楼,,28,27,43,19,30,51,51,39,34,16,22,8,9,0.2,0.4
2025-12-24T1300,1785A,129.6115,44.5782,牡丹江市,文化广场,,45,32,49,31,38,54,54,35,31,12,28,5,6,0.4,0.6
2025-12-24T1300,1787A,129.6364,44.6075,牡丹江市,机车工厂,,29,,62,20,41,51,51,34,29,16,30,5,16,0.3,0.5
2025-12-24T1300,1788A,129.6386,44.5462,牡丹江市,第一中学,,,,40,,38,54,54,39,36,8,16,6,7,,0.7
2025-12-24T1300,4287A,129.5992,44.5964,牡丹江市,东晓云街98号,,38,,64,26,51,55,55,33,32,9,25,5,7,0.5,0.6
2025-12-24T1300,2531A,105.0703,29.61,内江市,市监测站,细颗粒物(PM2.5),55,47,58,39,36,40,40,32,31,20,23,5,6,0.6,0.6
2025-12-24T1300,2532A,105.0717,29.5947,内江市,东兴区政府,,,36,53,26,28,34,34,23,23,22,28,,5,0.4,0.5
2025-12-24T1300,2533A,105.0653,29.5817,内江市,内江二中,颗粒物(PM10),59,68,69,31,33,32,32,23,18,24,28,5,5,0.7,0.7
2025-12-24T1300,2534A,105.0406,29.5822,内江市,内江日报社,,,38,55,29,29,33,33,27,25,,30,3,3,0.5,0.5
2025-12-24T1300,2628A,92.0657,31.4846,那曲市,那曲监测站,,,,64,,32,67,67,31,31,,32,12,16,0.9,1.9
2025-12-24T1300,4243A,92.0515,31.4787,那曲市,那曲市委宣传部,,23,21,40,6,18,72,72,31,31,10,18,5,8,0.5,1.3
2025-12-24T1300,1290A,115.8931,28.6843,南昌市,省外办,,39,27,29,27,24,26,26,22,22,27,24,7,7,1.1,1.2
2025-12-24T1300,1291A,115.8886,28.7003,南昌市,省林业公司,,35,,18,24,23,26,26,21,21,20,19,3,3,0.7,0.7
2025-12-24T1300,1292A,115.8126,28.7442,南昌市,林科所,,20,17,18,14,16,17,17,14,14,18,22,4,4,0.6,0.6
2025-12-24T1300,1294A,115.8518,28.687,南昌市,建工学校,,32,31,31,22,24,19,19,14,14,24,27,10,10,1.0,1.1
2025-12-24T1300,1295A,115.8921,28.6424,南昌市,象湖,,28,19,29,19,20,22,22,17,17,20,22,7,8,0.8,0.9
2025-12-24T1300,3046A,115.9084,28.6062,南昌市,机电学校,,35,,30,24,24,24,24,17,17,18,21,3,4,0.7,0.7
2025-12-24T1300,3690A,115.9721,28.7031,南昌市,外国语学校,,48,,31,33,29,20,20,16,16,24,25,9,9,0.6,0.7
2025-12-24T1300,4192A,115.9316,28.68677,南昌市,南京东路235号,,36,,30,25,25,27,27,22,22,25,28,4,4,0.8,0.9
2025-12-24T1300,1906A,106.0789,30.8023,南充市,南充市委,,47,47,44,32,26,26,26,23,20,19,19,5,4,0.5,0.5
2025-12-24T1300,1907A,106.1031,30.8217,南充市,南充炼油厂,,39,39,50,26,32,26,26,24,20,10,12,6,5,0.5,0.5
2025-12-24T1300,4227A,106.1083,30.7884,南充市,梨树横街98号,,44,44,42,22,22,30,30,26,23,13,15,6,5,0.4,0.5
2025-12-24T1300,4304A,106.1172,30.843,南充市,清泉寺北路188号,,35,29,37,24,20,30,30,25,22,12,12,6,5,0.5,0.5
2025-12-24T1300,4305A,106.067,30.7616,南充市,同庆路1号,颗粒物(PM10),51,52,44,24,22,25,25,24,20,19,18,7,6,0.5,0.8
2025-12-24T1300,1151A,118.8086,32.1065,南京市,迈皋桥,,,96,47,56,33,41,41,35,35,18,18,,4,,0.6
2025-12-24T1300,1152A,118.7538,32.0551,南京市,草场门,细颗粒物(PM2.5),77,85,44,56,34,21,21,16,16,29,31,5,5,0.6,0.6
2025-12-24T1300,1153A,118.7794,32.0745,南京市,山西路,细颗粒物(PM2.5),85,100,53,63,38,27,27,20,20,35,34,4,4,0.6,0.5
2025-12-24T1300,1154A,118.7752,32.0023,南京市,中华门,细颗粒物(PM2.5),89,90,44,66,35,15,15,10,10,21,21,5,5,0.8,0.7
2025-12-24T1300,1155A,118.8109,32.0309,南京市,瑞金路,,,92,44,63,37,13,13,10,10,31,34,,4,0.6,0.5
2025-12-24T1300,1156A,118.7997,32.0754,南京市,玄武湖,细颗粒物(PM2.5),82,92,46,60,34,24,24,15,15,18,19,4,4,0.8,0.7
2025-12-24T1300,1157A,118.6414,32.0931,南京市,浦口,细颗粒物(PM2.5),98,102,51,73,39,24,24,18,18,26,26,6,6,0.6,0.5
2025-12-24T1300,1158A,118.7356,31.9996,南京市,奥体中心,细颗粒物(PM2.5),83,88,43,61,35,26,26,24,24,40,39,6,6,0.7,0.6
2025-12-24T1300,1159A,118.9125,32.1028,南京市,仙林大学城,细颗粒物(PM2.5),89,88,47,66,37,18,18,13,13,28,30,6,6,0.8,0.8
2025-12-24T1300,3422A,118.8436,31.9198,南京市,江宁彩虹桥,细颗粒物(PM2.5),89,93,46,66,34,21,21,19,19,30,27,3,3,0.9,0.7
2025-12-24T1300,3427A,118.8554,32.3578,南京市,六合雄州,细颗粒物(PM2.5),84,87,50,62,38,28,28,23,23,27,25,7,8,0.6,0.6
2025-12-24T1300,4249A,118.8708,31.3402,南京市,汶溪路181号,细颗粒物(PM2.5),80,65,36,59,33,27,27,17,17,30,33,4,4,0.7,0.7
2025-12-24T1300,4312A,119.019,31.6512,南京市,中山西路1号,,,68,31,,36,27,27,21,21,27,31,4,4,0.8,0.7
2025-12-24T1300,1401A,108.3103,22.7881,南宁市,二十一中,,16,,43,11,31,7,7,21,16,22,21,3,3,0.7,0.6
2025-12-24T1300,1402A,108.3141,22.8528,南宁市,北湖,,26,26,45,10,31,11,11,19,12,18,26,8,8,0.9,0.8
2025-12-24T1300,1403A,108.3206,22.8225,南宁市,市监测站,,22,15,48,15,28,3,3,17,12,20,22,6,5,0.8,0.7
2025-12-24T1300,1404A,108.3829,22.8037,南宁市,大自然花园,,,,46,,30,15,15,21,20,,21,5,6,0.9,0.8
2025-12-24T1300,1406A,108.2397,22.8467,南宁市,区农职院,,18,17,52,12,30,14,14,15,14,15,32,5,6,0.8,0.6
2025-12-24T1300,1407A,108.3275,22.735,南宁市,英华嘉园,,15,15,46,9,34,18,18,26,19,13,18,2,3,0.6,0.6
2025-12-24T1300,3401A,108.4834,22.7618,南宁市,红星社区,,12,10,43,8,32,20,20,20,18,7,13,4,4,0.8,0.8
2025-12-24T1300,4221A,108.2177,22.7774,南宁市,乐贤路16号,,18,,49,12,24,11,11,15,10,17,31,6,8,0.8,0.7
2025-12-24T1300,2332A,118.1681,26.6369,南平市,南平市监测站,,23,23,30,15,24,56,56,18,18,13,24,6,7,0.5,0.6
2025-12-24T1300,2333A,118.1825,26.6489,南平市,南平铝业有限公司,,26,21,30,18,25,59,59,16,16,10,25,6,8,0.6,0.7
2025-12-24T1300,2334A,118.1756,26.6272,南平市,南平七中,,40,40,28,15,21,60,60,18,18,14,23,9,8,0.6,0.6
2025-12-24T1300,1168A,120.9098,31.9663,南通市,狼山街道,,,77,52,,34,38,38,30,30,,22,3,3,0.7,0.7
2025-12-24T1300,1169A,120.86,32.0005,南通市,虹桥,细颗粒物(PM2.5),63,62,46,45,38,37,37,28,28,17,25,3,3,0.7,0.8
2025-12-24T1300,1170A,120.87,32.02,南通市,城中,颗粒物(PM10),65,80,54,44,36,37,37,28,28,17,25,5,5,0.5,0.5
2025-12-24T1300,1171A,120.94,31.93,南通市,星湖花园,细颗粒物(PM2.5),72,79,50,52,37,36,36,30,30,17,27,4,4,0.7,0.7
2025-12-24T1300,1172A,120.81,32.0417,南通市,紫琅学院,细颗粒物(PM2.5),69,81,57,50,39,39,39,29,29,17,25,5,4,0.6,0.6
2025-12-24T1300,3291A,121.067,32.062,南通市,通州监测站,细颗粒物(PM2.5),62,66,46,44,38,53,53,35,35,15,25,3,3,0.7,0.7
2025-12-24T1300,3432A,120.9348,31.9883,南通市,环境教育馆,细颗粒物(PM2.5),70,73,50,51,41,42,42,31,31,16,24,4,4,0.5,0.5
2025-12-24T1300,2404A,112.5224,33.0122,南阳市,瓦房庄,颗粒物(PM10),88,125,120,56,66,36,36,28,28,22,25,8,7,0.7,0.8
2025-12-24T1300,2405A,112.5003,32.9735,南阳市,汉画馆,颗粒物(PM10),94,137,126,53,67,33,33,27,27,26,27,8,7,0.7,0.9
2025-12-24T1300,2406A,112.5573,33.027,南阳市,气象站,颗粒物(PM10),94,138,135,48,62,40,40,28,28,20,25,8,6,0.8,0.9
2025-12-24T1300,2407A,112.5481,32.9689,南阳市,理工学院,颗粒物(PM10),84,118,116,46,57,42,42,29,29,20,28,8,7,0.6,0.8
2025-12-24T1300,4008A,112.5234,32.9922,南阳市,卧龙区政府,颗粒物(PM10),95,140,113,54,65,34,34,28,28,28,31,8,7,0.8,0.8
2025-12-24T1300,1234A,121.8358,29.911,宁波市,区环保大楼,,35,35,63,19,28,12,12,5,5,41,45,6,6,0.8,0.8
2025-12-24T1300,1235A,121.56,29.82,宁波市,万里学院,,43,43,62,28,39,11,11,7,7,33,38,5,6,1.0,1
2025-12-24T1300,1236A,121.713,29.9572,宁波市,龙赛医院,,38,35,58,26,40,14,14,6,6,32,40,5,6,0.6,0.6
2025-12-24T1300,1239A,121.633,29.7733,宁波市,钱湖水厂,,36,30,53,25,34,16,16,8,8,30,39,5,6,0.6,0.6
2025-12-24T1300,1240A,121.5856,29.8635,宁波市,太古小学,,32,32,55,21,33,16,16,10,10,25,33,2,3,0.6,0.5
2025-12-24T1300,1241A,121.524,29.8674,宁波市,市环境监测中心,,32,32,50,15,29,9,9,6,6,27,35,4,5,0.8,1
2025-12-24T1300,2871A,121.6147,29.9017,宁波市,万里国际学校,,,46,60,20,38,12,12,6,6,,42,4,4,0.6,0.5
2025-12-24T1300,3710A,121.5594,29.8975,宁波市,白沙活动中心,,32,32,48,19,31,16,16,8,8,30,39,4,5,0.8,0.8
2025-12-24T1300,2341A,119.5388,26.6612,宁德市,宁德市监测站,颗粒物(PM10),52,53,26,25,14,44,44,18,18,23,21,8,6,0.7,0.6
2025-12-24T1300,3209A,119.5231,26.6562,宁德市,宁德一中,,48,48,26,22,16,51,51,20,20,22,18,7,4,0.5,0.4
2025-12-24T1300,2618A,98.8601,25.8567,怒江傈僳族自治州,州监测站,,,30,30,18,22,56,56,35,35,,11,6,8,0.4,0.4
2025-12-24T1300,2619A,98.8546,25.8417,怒江傈僳族自治州,泸水一中,,42,40,30,29,22,47,47,25,25,10,18,6,5,0.5,0.6
2025-12-24T1300,1888A,101.6891,26.571,攀枝花市,弄弄坪,,43,41,77,30,46,62,62,21,21,15,38,22,31,1.1,1.5
2025-12-24T1300,1889A,101.5769,26.5928,攀枝花市,河门口,,40,40,71,27,43,59,59,20,20,11,29,15,19,0.9,1.7
2025-12-24T1300,1890A,101.7169,26.585,攀枝花市,炳草岗,,44,44,78,27,51,49,49,14,14,24,44,19,33,1.3,1.8
2025-12-24T1300,1891A,101.7369,26.5008,攀枝花市,仁和,,48,47,71,33,45,57,57,15,15,28,31,31,16,2.9,1.4
2025-12-24T1300,2835A,101.7227,26.567,攀枝花市,四十中小,,48,48,74,32,44,53,53,23,23,21,39,24,30,1.6,1.6
2025-12-24T1300,1604A,122.0303,41.1489,盘锦市,开发区,,39,39,40,12,15,57,57,39,38,12,12,6,5,0.5,0.5
2025-12-24T1300,1605A,122.0485,41.0883,盘锦市,兴隆台,,33,33,38,11,14,48,48,41,33,20,20,8,7,0.6,0.5
2025-12-24T1300,1606A,121.8297,41.1028,盘锦市,新生街道,,21,21,34,3,10,48,48,25,25,22,27,10,6,0.3,0.4
2025-12-24T1300,1832A,113.3257,33.742,平顶山市,新华旅馆,颗粒物(PM10),108,165,138,65,54,32,32,14,14,37,37,11,9,0.8,0.6
2025-12-24T1300,1833A,113.2919,33.737,平顶山市,规划设计院,颗粒物(PM10),108,165,154,61,50,39,39,18,18,31,36,12,8,0.8,0.9
2025-12-24T1300,1834A,113.182,33.774,平顶山市,平顶山工学院,颗粒物(PM10),97,144,150,53,45,47,47,29,29,20,23,15,10,0.4,0.3
2025-12-24T1300,3204A,113.3025,33.73,平顶山市,规划局,颗粒物(PM10),119,188,156,78,51,31,31,15,15,37,35,11,8,0.9,0.7
2025-12-24T1300,3594A,112.8867,33.9116,平顶山市,石龙区,颗粒物(PM10),93,136,169,27,36,76,76,38,38,11,25,6,6,0.3,0.3
2025-12-24T1300,2656A,106.6692,35.5461,平凉市,聚贤嘉苑,,,67,86,32,28,81,81,36,36,5,29,,12,0.4,0.5
2025-12-24T1300,2657A,106.7021,35.5307,平凉市,博物馆,,41,41,81,15,31,82,82,42,42,6,28,9,11,0.3,0.6
2025-12-24T1300,2348A,113.8385,27.6434,萍乡市,中医院,,,43,31,22,22,,,17,,23,26,6,6,1.2,1.2
2025-12-24T1300,2349A,113.8493,27.6253,萍乡市,市政府车库,,35,35,25,24,20,17,17,18,17,13,16,7,7,0.8,0.7
2025-12-24T1300,2350A,113.8676,27.6435,萍乡市,市环保局,,38,27,26,26,23,13,13,18,16,17,21,15,18,0.7,0.7
2025-12-24T1300,2351A,113.866,27.6198,萍乡市,安源区政府,,,30,33,23,24,17,17,19,18,20,22,,10,0.9,0.8
2025-12-24T1300,2319A,119.0141,25.4325,莆田市,荔城区仓后路,颗粒物(PM10),56,62,46,23,19,92,92,45,45,14,21,5,3,0.8,0.8
2025-12-24T1300,2320A,119.0015,25.4553,莆田市,莆田市监测站,颗粒物(PM10),54,58,29,23,13,91,91,49,49,17,12,7,4,0.7,0.5
2025-12-24T1300,2321A,119.1119,25.4561,莆田市,涵江区六中,颗粒物(PM10),53,56,47,27,21,89,89,38,38,15,36,6,5,0.6,0.6
2025-12-24T1300,2322A,119.1013,25.3215,莆田市,秀屿区政府,,49,49,43,22,18,93,93,45,45,17,25,5,6,0.5,0.7
2025-12-24T1300,2392A,115.0312,35.7636,濮阳市,环保局,细颗粒物(PM2.5),94,82,76,70,62,49,49,27,27,31,32,8,7,0.9,1
2025-12-24T1300,2394A,115.0574,35.7609,濮阳市,油田运输公司,细颗粒物(PM2.5),82,81,97,60,65,60,60,30,30,27,41,9,8,0.8,1.4
2025-12-24T1300,3021A,115,35.7668,濮阳市,濮水河管理处,细颗粒物(PM2.5),103,88,95,77,66,54,54,26,26,28,37,10,7,0.8,1
2025-12-24T1300,4216A,115.0924,35.7686,濮阳市,任丘路479号,细颗粒物(PM2.5),77,78,100,56,69,60,60,28,28,22,36,7,6,0.9,1.2
2025-12-24T1300,2601A,100.98,22.7633,普洱市,市环保局,,,39,37,13,14,64,64,23,23,6,9,,4,,0.5
2025-12-24T1300,2602A,100.9817,22.8322,普洱市,普洱第二中学,,40,40,38,11,20,64,64,22,22,7,13,5,5,0.3,0.3
2025-12-24T1300,3345A,131.0577,45.7879,七台河市,中波台,,40,40,44,14,25,60,60,47,47,7,15,7,7,0.2,0.3
2025-12-24T1300,3637A,131.0176,45.7761,七台河市,人民广场,,38,31,49,26,30,62,62,49,49,10,18,7,7,0.3,0.4
2025-12-24T1300,3684A,130.8781,45.8222,七台河市,新建矿广场,,36,36,41,8,28,55,55,45,45,10,13,12,7,0.3,0.3
2025-12-24T1300,1779A,123.9305,47.3636,齐齐哈尔市,安居小区,,19,17,30,13,22,58,58,44,44,10,21,4,5,0.5,0.6
2025-12-24T1300,1780A,123.9488,47.3386,齐齐哈尔市,中心广场,,19,14,24,9,17,58,58,44,44,4,16,6,7,0.6,0.8
2025-12-24T1300,1781A,123.9483,47.3227,齐齐哈尔市,农牧车辆厂,,25,22,35,17,22,49,49,27,27,8,24,5,7,0.5,0.8
2025-12-24T1300,1783A,123.945,47.2988,齐齐哈尔市,市环境监测站,,19,19,40,12,26,60,60,38,35,6,23,6,7,0.5,0.7
2025-12-24T1300,3662A,123.6333,47.2075,齐齐哈尔市,富区青少年活动中心,,24,24,43,7,30,60,60,43,43,12,30,6,11,0.5,0.8
2025-12-24T1300,2591A,107.9783,26.5747,黔东南苗族侗族自治州,市环境监测站,细颗粒物(PM2.5),69,,17,50,16,44,44,42,42,11,11,5,4,0.6,0.6
2025-12-24T1300,2881A,107.8908,26.5311,黔东南苗族侗族自治州,凯里学院,,,,12,42,13,48,48,43,43,,11,4,3,0.5,0.6
2025-12-24T1300,2593A,107.5228,26.2403,黔南布依族苗族自治州,小围寨,,32,,8,22,7,42,42,34,34,5,6,3,4,0.7,0.7
2025-12-24T1300,3538A,107.5175,26.2978,黔南布依族苗族自治州,沙坝,,,29,12,24,9,48,48,38,38,6,10,4,4,,1
2025-12-24T1300,2589A,104.9022,25.0925,黔西南布依族苗族自治州,场坝街,,,58,42,49,31,26,26,31,29,,17,2,6,,0.7
2025-12-24T1300,2590A,104.8811,25.0992,黔西南布依族苗族自治州,坪东大道,"颗粒物(PM10),细颗粒物(PM2.5)",53,56,40,37,30,27,27,33,30,12,13,6,8,0.4,0.3
2025-12-24T1300,2502A,108.6236,21.9667,钦州市,市环保站,,29,29,45,12,22,23,23,48,28,18,22,2,4,0.7,0.6
2025-12-24T1300,2503A,108.6549,21.9481,钦州市,沙埠小学,,30,30,48,18,27,31,31,39,28,13,23,4,6,0.7,0.6
2025-12-24T1300,2504A,108.5989,21.7431,钦州市,港区一小,颗粒物(PM10),53,56,50,22,22,25,25,49,37,32,27,6,7,0.5,0.3
2025-12-24T1300,3404A,108.5959,21.9633,钦州市,北职校,,27,27,42,18,28,22,22,40,27,14,22,7,8,1.4,0.7
2025-12-24T1300,1043A,119.7493,40.0116,秦皇岛市,第一关,,,22,37,8,24,57,57,26,26,,38,,8,0.3,0.4
2025-12-24T1300,1044A,119.5897,39.9499,秦皇岛市,监测站,,35,35,50,6,19,51,51,34,23,23,34,10,8,0.5,0.6
2025-12-24T1300,1046A,119.5251,39.9041,秦皇岛市,建设大厦,,26,26,52,14,33,56,56,33,23,14,31,8,6,0.3,0.5
2025-12-24T1300,3132A,119.610547,39.943889,秦皇岛市,文明里,,24,24,49,6,20,42,42,36,24,14,19,12,10,0.3,0.3
2025-12-24T1300,4198A,119.5090,39.8253,秦皇岛市,北戴河轮滑馆,,23,23,43,3,18,61,61,51,44,8,22,6,6,0.2,0.4
2025-12-24T1300,1310A,120.4134,36.0658,青岛市,市南区东部子站,,,,75,,45,24,24,12,12,,33,,7,0.7,0.9
2025-12-24T1300,1311A,120.3664,36.1032,青岛市,四方区子站,颗粒物(PM10),59,68,76,24,48,59,59,34,34,21,31,5,3,0.7,0.9
2025-12-24T1300,1312A,120.2994,36.054,青岛市,市南区西部子站,,,51,70,20,43,47,47,22,22,17,31,5,3,,0.7
2025-12-24T1300,1313A,120.4581,36.0858,青岛市,崂山区子站,颗粒物(PM10),51,51,64,17,38,54,54,34,34,27,36,11,9,0.7,0.8
2025-12-24T1300,1315A,120.3999,36.3083,青岛市,城阳区子站,,39,39,72,12,41,67,67,42,42,13,34,8,7,0.5,0.8
2025-12-24T1300,3362A,120.5014,36.4034,青岛市,即墨2号,,35,35,68,11,43,61,61,43,43,13,26,6,6,0.5,0.8
2025-12-24T1300,3642A,120.3503,36.0736,青岛市,市北区南部,颗粒物(PM10),66,81,74,17,41,48,48,26,26,25,34,10,7,0.7,0.9
2025-12-24T1300,3643A,120.3948,36.1805,青岛市,李沧区北部,颗粒物(PM10),53,56,71,24,52,50,50,28,28,25,39,16,14,0.8,1
2025-12-24T1300,4290A,120.1969,35.9546,青岛市,珠江路669号,,,53,74,17,52,44,44,18,18,,45,14,10,0.4,0.6
2025-12-24T1300,4291A,120.0424,35.8656,青岛市,黄岛区人民政府广场,颗粒物(PM10),56,61,76,19,49,61,61,34,34,28,40,8,7,0.7,0.9
2025-12-24T1300,1703A,113.0208,23.7106,清远市,凤城街办,细颗粒物(PM2.5),65,61,61,47,42,114,114,52,52,20,37,11,12,0.8,0.8
2025-12-24T1300,3025A,113.0477,23.6344,清远市,技师学院,,,56,73,35,47,140,140,51,51,,45,8,11,0.7,0.8
2025-12-24T1300,3318A,112.9903,23.7403,清远市,清新太和,细颗粒物(PM2.5),67,71,51,48,33,102,102,53,48,27,26,15,12,0.7,0.7
2025-12-24T1300,3455A,113.076,23.7198,清远市,清城东城,,43,42,56,30,35,123,123,56,56,14,27,8,8,0.7,0.8
2025-12-24T1300,2661A,107.6325,35.7357,庆阳市,庆阳五中,颗粒物(PM10),57,64,130,32,43,70,70,64,59,7,16,5,5,0.4,0.5
2025-12-24T1300,2662A,107.6364,35.7067,庆阳市,市环保局,颗粒物(PM10),66,82,127,22,34,68,68,65,60,6,10,2,4,0.4,0.5
2025-12-24T1300,1916A,103.7897,25.5035,曲靖市,环境监测站,,,,46,9,25,69,69,41,41,6,22,,5,,1
2025-12-24T1300,1917A,103.8,25.5364,曲靖市,烟厂办公区,,22,18,55,8,30,68,68,39,39,5,26,3,4,0.3,0.7
2025-12-24T1300,3376A,103.7947,25.462,曲靖市,南苑二区,,24,14,43,9,26,74,74,44,44,2,16,4,4,0.2,0.5
2025-12-24T1300,3377A,103.7444,25.5261,曲靖市,曲靖师范学院,,22,,51,12,47,70,70,44,44,5,21,2,2,0.3,0.6
2025-12-24T1300,1264A,118.8692,28.9398,衢州市,环保大楼,,,33,69,25,44,11,11,9,9,,48,4,5,0.9,0.9
2025-12-24T1300,1265A,118.8709,28.9666,衢州市,实验学校,,32,29,63,22,42,11,11,10,10,26,45,6,6,0.8,0.8
2025-12-24T1300,1266A,118.8621,28.9808,衢州市,衢州学院,,32,29,64,22,42,12,12,9,9,25,44,3,4,0.7,0.6
2025-12-24T1300,1611A,118.5819,24.9117,泉州市,涂山街,,30,24,60,12,31,95,95,40,40,8,34,3,4,0.5,0.7
2025-12-24T1300,1612A,118.5972,24.8978,泉州市,津头埔,,28,26,57,13,30,89,89,41,41,10,36,4,5,0.5,0.7
2025-12-24T1300,1613A,118.6663,24.9424,泉州市,万安,,34,34,59,14,25,95,95,43,43,9,34,4,4,0.4,0.6
2025-12-24T1300,3529A,118.6333,24.9264,泉州市,城华南路,,29,29,47,14,23,90,90,49,49,13,28,4,5,0.4,0.5
2025-12-24T1300,2626A,88.8876,29.2718,日喀则市,日喀则监测站,,23,20,24,9,12,72,72,78,59,4,11,9,13,0.2,0.3
2025-12-24T1300,3726A,88.8781,29.2426,日喀则市,林业技术推广中心,,,18,22,6,4,71,71,85,63,,4,,10,0.3,0.2
2025-12-24T1300,1659A,119.471,35.4209,日照市,监测站,,46,46,71,27,51,66,66,26,26,17,39,7,8,0.6,0.8
2025-12-24T1300,1660A,119.523,35.4216,日照市,市政府广场,,39,39,69,20,50,70,70,33,33,14,35,9,10,0.7,1
2025-12-24T1300,1661A,119.5587,35.4044,日照市,港务局,,44,44,75,22,55,71,71,39,39,11,32,8,8,0.5,0.8
2025-12-24T1300,3507A,119.5328,35.4625,日照市,职业技术学院,,,41,71,17,42,70,70,36,36,,36,6,7,,0.9
2025-12-24T1300,3604A,119.3266,35.1044,日照市,岚山环保分局,,36,36,84,17,60,63,63,26,26,22,38,19,17,1.5,1.3
2025-12-24T1300,1835A,111.1922,34.7752,三门峡市,市政府,颗粒物(PM10),87,123,112,48,37,33,33,13,13,29,36,15,10,0.5,0.4
2025-12-24T1300,1836A,111.1587,34.7942,三门峡市,开发区,颗粒物(PM10),105,159,129,48,31,29,29,15,15,30,25,18,8,0.7,0.4
2025-12-24T1300,3039A,111.1911,34.7829,三门峡市,三门峡市第一小学,,,,127,,24,30,30,14,14,32,33,14,8,0.7,0.5
2025-12-24T1300,3598A,111.1,34.7167,三门峡市,富达温泉假日酒店,颗粒物(PM10),98,145,116,49,32,34,34,16,16,35,31,20,16,0.7,0.5
2025-12-24T1300,2324A,117.6211,26.2625,三明市,三钢,,49,49,42,26,30,73,73,24,24,14,27,9,7,1.0,1
2025-12-24T1300,2325A,117.635,26.2714,三明市,三明二中,,,,34,,24,70,70,25,25,11,23,10,10,0.7,0.8
2025-12-24T1300,2326A,117.6028,26.2378,三明市,三元区政府,颗粒物(PM10),54,57,46,34,30,56,56,20,20,34,31,36,13,3.3,1.5
2025-12-24T1300,1876A,109.5078,18.2489,三亚市,河东子站,,28,28,26,11,10,82,82,66,66,6,7,5,4,0.5,0.5
2025-12-24T1300,1877A,109.4964,18.2681,三亚市,河西子站,,26,23,29,11,12,82,82,59,59,4,7,4,4,0.3,0.3
2025-12-24T1300,3540A,109.7348,18.3443,三亚市,君悦子站,,49,49,31,12,12,75,75,48,48,4,7,5,5,0.6,0.6
2025-12-24T1300,2624A,91.7608,29.2313,山南市,山南监测站,颗粒物(PM10),66,82,33,47,17,70,70,46,35,25,19,7,6,0.5,0.4
2025-12-24T1300,2625A,91.7706,29.2436,山南市,山南人民医院,,37,37,30,14,17,57,57,39,33,23,21,6,6,0.5,0.5
2025-12-24T1300,1674A,116.6794,23.3667,汕头市,金平子站,,41,41,38,23,22,124,124,68,68,15,22,6,6,0.6,0.6
2025-12-24T1300,1675A,116.7244,23.3633,汕头市,龙湖子站,,38,27,37,17,18,119,119,68,68,13,18,11,10,0.6,0.6
2025-12-24T1300,1676A,116.7258,23.2775,汕头市,濠江子站,,38,38,35,20,20,104,104,65,65,15,17,9,7,0.6,0.6
2025-12-24T1300,1677A,116.7519,23.4714,汕头市,澄海子站,,,58,46,33,29,114,114,62,62,20,22,,9,0.7,0.7
2025-12-24T1300,1678A,116.6092,23.2539,汕头市,潮阳子站,,38,33,32,21,16,119,119,71,71,16,17,7,6,0.6,0.5
2025-12-24T1300,3444A,116.454,23.2684,汕头市,潮南峡山,,39,38,41,20,21,122,122,77,77,12,16,10,9,0.6,0.6
2025-12-24T1300,3624A,116.4069,23.2533,汕头市,潮南子站,颗粒物(PM10),52,54,53,23,23,116,116,71,71,19,19,8,7,0.5,0.6
2025-12-24T1300,1693A,115.3653,22.775,汕尾市,市环保局,细颗粒物(PM2.5),63,55,47,45,25,129,129,86,86,15,14,7,7,0.7,0.6
2025-12-24T1300,1694A,115.3706,22.7898,汕尾市,市政府,细颗粒物(PM2.5),59,51,38,42,28,126,126,81,81,20,18,8,8,0.7,0.6
2025-12-24T1300,1695A,115.3622,22.7925,汕尾市,新城中学,"颗粒物(PM10),细颗粒物(PM2.5)",58,65,41,41,24,135,135,83,83,14,15,6,6,0.7,0.6
2025-12-24T1300,2645A,109.9154,33.8715,商洛市,监测站,颗粒物(PM10),73,95,87,32,30,77,77,37,37,12,23,4,5,0.4,0.4
2025-12-24T1300,3045A,109.9643,33.8471,商洛市,商州区中学,颗粒物(PM10),95,140,100,31,30,76,76,25,25,11,32,5,5,0.6,0.6
2025-12-24T1300,2408A,115.6702,34.4285,商丘市,环境监测站,细颗粒物(PM2.5),92,,94,68,85,58,58,21,21,18,34,6,4,0.7,0.9
2025-12-24T1300,2409A,115.6458,34.4045,商丘市,粮食局,细颗粒物(PM2.5),64,58,85,46,75,56,56,23,23,20,33,6,4,0.4,0.7
2025-12-24T1300,2410A,115.6293,34.3948,商丘市,睢阳区环保局,细颗粒物(PM2.5),73,65,86,53,75,56,56,24,24,17,31,7,5,0.5,0.7
2025-12-24T1300,3171A,115.6071,34.4465,商丘市,梁园区档案局,细颗粒物(PM2.5),73,58,83,53,81,52,52,23,23,27,35,6,4,0.8,1
2025-12-24T1300,1141A,121.4,31.238,上海市,普陀,细颗粒物(PM2.5),67,64,53,48,34,17,17,19,19,43,44,5,6,0.9,0.8
2025-12-24T1300,1142A,121.478,31.2036,上海市,十五厂,细颗粒物(PM2.5),59,60,53,42,34,20,20,21,21,36,37,5,5,1.0,0.9
2025-12-24T1300,1143A,121.467,31.3008,上海市,虹口,细颗粒物(PM2.5),65,72,56,47,35,16,16,16,16,33,37,9,10,0.8,0.7
2025-12-24T1300,1147A,121.425,31.2261,上海市,静安监测站,,,60,49,45,34,17,17,24,23,39,36,6,7,,0.7
2025-12-24T1300,1148A,121.703,31.1907,上海市,浦东川沙,细颗粒物(PM2.5),58,62,54,41,32,28,28,24,24,30,37,7,6,0.6,0.6
2025-12-24T1300,1149A,121.533,31.2284,上海市,浦东新区监测站,,,,53,,36,26,26,29,29,27,35,6,7,0.7,0.7
2025-12-24T1300,1150A,121.577,31.2071,上海市,浦东张江,,,54,51,42,30,26,26,29,29,30,36,,6,0.6,0.6
2025-12-24T1300,3265A,121.4316,31.3322,上海市,宝山庙行,细颗粒物(PM2.5),70,68,56,51,35,16,16,22,21,38,39,5,6,0.8,0.8
2025-12-24T1300,3266A,121.8791,31.4662,上海市,崇明上实东滩,细颗粒物(PM2.5),57,58,43,40,24,36,36,37,37,14,20,4,4,0.7,0.6
2025-12-24T1300,3268A,121.3162,31.2838,上海市,嘉定南翔,细颗粒物(PM2.5),73,63,51,53,36,19,19,18,18,33,37,7,8,0.6,0.7
2025-12-24T1300,3269A,121.3359,30.7456,上海市,金山新城,细颗粒物(PM2.5),58,42,46,41,40,23,23,12,12,31,38,6,6,0.7,0.7
2025-12-24T1300,3270A,121.4996,31.0739,上海市,闵行浦江,细颗粒物(PM2.5),55,54,53,39,33,13,13,16,15,40,41,6,6,0.9,1
2025-12-24T1300,3271A,121.2886,31.1663,上海市,青浦徐泾,细颗粒物(PM2.5),65,53,62,47,36,20,20,15,15,34,40,4,4,0.6,0.7
2025-12-24T1300,3272A,121.2186,31.0378,上海市,松江图书馆,颗粒物(PM10),53,56,46,36,31,17,17,16,16,34,35,5,6,0.7,0.7
2025-12-24T1300,3273A,121.3902,31.2059,上海市,长宁仙霞,细颗粒物(PM2.5),64,58,51,46,33,20,20,19,19,37,40,5,6,0.5,0.5
2025-12-24T1300,3274A,121.7965,31.0507,上海市,浦东惠南,,48,48,48,30,32,27,27,25,25,33,40,3,3,0.8,0.8
2025-12-24T1300,3544A,121.4891,30.925,上海市,奉贤南桥新城,细颗粒物(PM2.5),62,55,50,44,34,16,16,17,17,43,42,5,7,0.8,0.8
2025-12-24T1300,4183A,121.4174,31.16637,上海市,冠生园路458号,细颗粒物(PM2.5),60,59,54,43,36,26,26,27,27,41,44,5,5,0.6,0.6
2025-12-24T1300,4205A,121.5419,31.2683,上海市,宁武路151号,细颗粒物(PM2.5),55,54,54,39,32,28,28,26,26,31,39,5,6,0.8,0.8
