timepoint,stationcode,longitude,latitude,area,positionname,primarypollutant,aqi,pm10,pm10_24h,pm2_5,pm2_5_24h,o3,o3_24h,o3_8h,o3_8h_24h,no2,no2_24h,so2,so2_24h,co,co_24h
2026-01-22T2200,2568A,102.2503,31.8896,阿坝藏族羌族自治州,马师校,,36,25,27,25,22,32,,70,59,25,13,4,4,0.6,0.5
2026-01-22T2200,3994A,102.2174,31.9016,阿坝藏族羌族自治州,马尔康中学西区,,38,28,24,26,13,34,,71,61,26,12,6,6,0.5,0.4
2026-01-22T2200,2695A,80.2899,41.1684,阿克苏地区,电视台,颗粒物(PM10),445,545,552,90,98,38,,49,48,29,34,8,7,1.6,2.4
2026-01-22T2200,2696A,80.2592,41.1541,阿克苏地区,艺术中心,颗粒物(PM10),398,498,524,108,106,33,,51,48,34,31,4,4,0.7,1
2026-01-22T2200,2205A,105.699,38.8409,阿拉善盟,蒙二幼,颗粒物(PM10),72,94,33,49,16,24,,85,68,48,15,13,10,1.3,0.7
2026-01-22T2200,2206A,105.7198,38.8508,阿拉善盟,环保局新楼,,27,27,21,12,8,76,,77,76,8,8,9,8,0.5,0.5
2026-01-22T2200,2708A,88.1266,47.8515,阿勒泰地区,市站,,28,23,16,13,7,29,,69,41,56,29,4,6,0.6,0.4
2026-01-22T2200,4166A,88.1198,47.7931,阿勒泰地区,阿勒泰路33号,,26,,16,18,4,40,,72,55,35,23,7,10,0.6,0.4
2026-01-22T2200,2630A,80.1171,32.4999,阿里地区,阿里监测站,,,,3,,3,56,,61,58,1,8,7,8,,0.6
2026-01-22T2200,3192A,80.0906,32.5029,阿里地区,阿里藏医院,,27,16,18,3,8,86,,86,86,2,8,10,13,0.5,0.7
2026-01-22T2200,2644A,109.0088,32.6974,安康市,汉滨区检察院,,46,44,40,32,32,25,,58,47,23,14,5,5,0.6,0.5
2026-01-22T2200,4054A,109.0324,32.6913,安康市,市邮政管理局,细颗粒物(PM2.5),74,67,47,54,35,15,,60,40,34,16,6,5,0.7,0.5
2026-01-22T2200,2291A,117.0806,30.5181,安庆市,环科院,细颗粒物(PM2.5),63,64,49,45,38,12,,69,59,66,17,7,8,0.6,0.5
2026-01-22T2200,2292A,117.0331,30.5118,安庆市,马山宾馆,细颗粒物(PM2.5),65,64,52,47,37,26,,70,59,63,28,6,7,0.8,0.4
2026-01-22T2200,2294A,116.9897,30.6146,安庆市,安庆大学,,50,41,45,35,36,30,,72,55,44,23,4,5,0.6,0.5
2026-01-22T2200,3173A,117.0598,30.5351,安庆市,市人大,细颗粒物(PM2.5),69,72,54,50,38,7,,68,51,73,24,7,7,0.7,0.5
2026-01-22T2200,3123A,105.9408,26.2431,安顺市,凤凰山,细颗粒物(PM2.5),62,,21,44,20,49,,54,54,24,18,27,16,0.6,0.5
2026-01-22T2200,3124A,105.9443,26.2567,安顺市,金钟山,细颗粒物(PM2.5),55,,20,39,22,51,,55,55,14,12,24,17,0.7,0.6
2026-01-22T2200,3125A,105.8983,26.248,安顺市,娄家坡,细颗粒物(PM2.5),67,,21,48,22,51,,55,55,15,13,30,21,0.5,0.7
2026-01-22T2200,1819A,114.3552,36.1017,安阳市,红庙街,细颗粒物(PM2.5),103,,103,77,96,71,,72,72,25,33,2,4,0.6,0.8
2026-01-22T2200,1820A,114.361,36.0681,安阳市,银杏小区,细颗粒物(PM2.5),99,80,108,74,107,76,,77,77,24,33,2,4,0.6,0.7
2026-01-22T2200,3141A,114.3921,36.0879,安阳市,信访局,细颗粒物(PM2.5),98,76,109,73,100,76,,79,79,20,27,4,7,0.5,0.7
2026-01-22T2200,3669A,114.4706,36.0634,安阳市,左辅环卫站,细颗粒物(PM2.5),93,84,118,69,100,71,,81,80,23,27,3,4,0.6,0.7
2026-01-22T2200,4117A,114.2918,36.0769,安阳市,钢三路198号,细颗粒物(PM2.5),119,98,132,90,104,55,,65,64,24,28,1,3,0.6,0.7
2026-01-22T2200,1748A,123.0441,41.1201,鞍山市,深沟寺,细颗粒物(PM2.5),55,57,48,39,30,24,,67,51,53,34,32,19,2.0,1.5
2026-01-22T2200,1749A,123.011,41.0931,鞍山市,太阳城,细颗粒物(PM2.5),59,58,52,42,36,16,,62,46,58,35,32,20,2.0,1.2
2026-01-22T2200,1750A,123.0483,41.1445,鞍山市,太平,细颗粒物(PM2.5),83,104,75,61,41,12,,60,38,59,41,25,17,1.9,1.6
2026-01-22T2200,1751A,122.964,41.0968,鞍山市,铁西三道街,颗粒物(PM10),79,107,93,50,42,16,,63,38,66,51,36,22,1.7,1.4
2026-01-22T2200,1753A,123.0219,41.0822,鞍山市,明达新区,颗粒物(PM10),58,65,55,38,33,26,,65,50,37,27,34,21,1.9,1.4
2026-01-22T2200,4201A,122.944647,41.082639,鞍山市,兴盛南路290号,颗粒物(PM10),73,96,96,51,43,24,,64,46,47,43,25,18,2.0,1.6
2026-01-22T2200,2195A,107.4206,40.7609,巴彦淖尔市,附二中,细颗粒物(PM2.5),75,95,70,55,35,2,,39,27,57,33,16,11,1.1,0.7
2026-01-22T2200,2196A,107.37,40.7372,巴彦淖尔市,市环保大楼,"颗粒物(PM10),细颗粒物(PM2.5)",85,120,71,63,37,6,,35,25,61,40,7,7,1.1,0.8
2026-01-22T2200,1956A,86.1476,41.7529,巴音郭楞蒙古自治州,孔雀公园,颗粒物(PM10),243,380,375,50,57,23,,61,58,46,33,8,8,0.8,0.8
2026-01-22T2200,1957A,86.1971,41.7166,巴音郭楞蒙古自治州,棉纺厂,颗粒物(PM10),312,429,434,53,57,22,,60,57,41,35,/,/,/,/
2026-01-22T2200,1958A,86.236,41.7172,巴音郭楞蒙古自治州,经济开发区,颗粒物(PM10),181,311,371,30,36,19,,57,51,42,25,5,5,0.6,0.5
2026-01-22T2200,3181A,106.776805,31.852614,巴中市,市五中,细颗粒物(PM2.5),62,60,46,44,33,15,,39,32,20,19,5,5,0.9,0.8
2026-01-22T2200,3183A,106.7419,31.8654,巴中市,圣泉水务公司,细颗粒物(PM2.5),75,59,40,55,35,2,,42,30,43,27,5,4,0.7,0.7
2026-01-22T2200,3616A,106.7617,31.8343,巴中市,市中心医院,细颗粒物(PM2.5),70,67,47,51,34,12,,42,35,32,22,7,7,0.9,0.7
2026-01-22T2200,2235A,122.7909,45.608,白城市,洮北区环保局,,35,35,29,13,14,60,,66,59,6,8,3,4,0.1,0.1
2026-01-22T2200,2236A,122.8741,45.5725,白城市,市环保局,,36,36,29,17,14,50,,58,46,12,15,4,5,0.3,0.3
2026-01-22T2200,2231A,126.4219,41.9172,白山市,喜丰,细颗粒物(PM2.5),60,66,58,43,37,14,,65,51,59,32,18,19,1.1,0.9
2026-01-22T2200,2232A,126.4082,41.9416,白山市,环保局,细颗粒物(PM2.5),62,48,43,44,35,20,,58,44,36,24,10,12,1.2,0.8
2026-01-22T2200,2647A,104.1727,36.5448,白银市,第三小学,细颗粒物(PM2.5),104,106,74,78,48,1,,63,52,78,42,32,39,1.4,0.9
2026-01-22T2200,2648A,104.1467,36.5482,白银市,动力公司,细颗粒物(PM2.5),95,94,58,71,41,40,,77,72,46,26,14,14,1.2,1.1
2026-01-22T2200,2512A,106.6102,23.901,百色市,市监测站,,25,25,22,11,10,25,,37,34,18,13,7,8,0.7,0.7
2026-01-22T2200,2513A,106.6524,23.8842,百色市,市中心血站,细颗粒物(PM2.5),54,,26,38,19,16,,39,37,26,9,9,9,0.8,0.7
2026-01-22T2200,4133A,106.6273,23.8798,百色市,龙景西路,,30,30,22,13,12,28,,38,37,16,11,9,8,0.5,0.5
2026-01-22T2200,2270A,117.396,32.9389,蚌埠市,工人疗养院,细颗粒物(PM2.5),68,79,67,49,50,19,,88,74,61,28,5,8,0.4,0.4
2026-01-22T2200,2271A,117.3606,32.9428,蚌埠市,百货大楼,细颗粒物(PM2.5),80,97,60,59,48,11,,88,72,77,31,6,8,0.9,0.6
2026-01-22T2200,2273A,117.4183,32.8909,蚌埠市,蚌埠学院,细颗粒物(PM2.5),65,61,56,47,46,28,,87,72,57,32,4,5,0.5,0.5
2026-01-22T2200,2274A,117.3534,32.9672,蚌埠市,淮上区政府,细颗粒物(PM2.5),102,107,70,76,55,9,,80,55,93,39,2,3,0.9,0.5
2026-01-22T2200,2275A,117.3143,32.8977,蚌埠市,高新区,细颗粒物(PM2.5),62,56,59,44,50,42,,89,74,42,32,6,8,0.5,0.4
2026-01-22T2200,3715A,117.3091,32.9314,蚌埠市,蚌埠田家炳中学,细颗粒物(PM2.5),102,111,70,76,54,12,,84,65,83,43,6,6,0.9,0.6
2026-01-22T2200,1585A,109.8761,40.6533,包头市,市环境监测站,颗粒物(PM10),71,92,96,42,52,15,,35,21,60,63,9,23,1.1,3.4
2026-01-22T2200,1587A,109.9992,40.5843,包头市,包头八中,颗粒物(PM10),77,104,99,52,68,7,,40,28,68,55,9,24,1.3,2.3
2026-01-22T2200,1589A,109.8641,40.6288,包头市,惠龙物流,颗粒物(PM10),67,84,87,42,57,40,,39,28,39,62,11,28,0.9,3.4
2026-01-22T2200,1590A,110.0376,40.5546,包头市,东河鸿龙湾,颗粒物(PM10),62,74,82,35,49,26,,48,36,63,64,11,20,1.0,1.8
2026-01-22T2200,3283A,109.9154,40.5684,包头市,滨河大厦,细颗粒物(PM2.5),87,97,73,64,50,2,,38,25,87,64,18,23,1.9,1.9
2026-01-22T2200,3419A,109.9449,40.6259,包头市,包头市委党校,细颗粒物(PM2.5),82,101,81,60,50,3,,40,28,77,59,13,19,1.7,2.4
2026-01-22T2200,3683A,109.8332,40.6577,包头市,昆区政府,颗粒物(PM10),69,88,97,34,61,40,,30,23,38,71,10,29,0.9,3.5
2026-01-22T2200,1931A,107.0802,34.3129,宝鸡市,竹园沟,细颗粒物(PM2.5),99,,66,74,64,25,,49,46,25,22,5,5,0.5,0.5
2026-01-22T2200,1933A,107.1429,34.3549,宝鸡市,监测站,细颗粒物(PM2.5),119,,80,90,71,19,,52,46,39,31,4,4,0.8,0.7
2026-01-22T2200,1934A,107.1172,34.3759,宝鸡市,技工学校,细颗粒物(PM2.5),108,,82,81,71,22,,55,50,40,28,4,4,0.7,0.6
2026-01-22T2200,1936A,107.2025,34.3518,宝鸡市,文理学院,细颗粒物(PM2.5),105,88,76,79,70,15,,60,51,44,31,3,4,0.8,0.8
2026-01-22T2200,1937A,107.2396,34.3626,宝鸡市,三迪小学,细颗粒物(PM2.5),133,125,83,101,78,2,,57,47,81,36,3,4,0.9,0.7
2026-01-22T2200,4155A,107.1721,34.3558,宝鸡市,滨河北路,细颗粒物(PM2.5),117,133,87,88,66,15,,51,45,41,30,4,4,0.7,0.7
2026-01-22T2200,4308A,107.3898,34.3601,宝鸡市,陈仓区北开路21号,细颗粒物(PM2.5),148,113,84,113,72,,,62,62,50,31,6,9,0.8,0.9
2026-01-22T2200,1051A,115.4803,38.8568,保定市,游泳馆,细颗粒物(PM2.5),87,79,75,64,59,19,,39,24,65,60,6,5,0.8,0.8
2026-01-22T2200,1052A,115.509,38.8895,保定市,华电二区,"颗粒物(PM10),细颗粒物(PM2.5)",72,94,76,52,58,11,,36,25,56,56,4,4,0.9,0.9
2026-01-22T2200,1053A,115.4588,38.9037,保定市,接待中心,细颗粒物(PM2.5),84,87,75,62,56,14,,40,30,59,51,2,2,0.5,0.6
2026-01-22T2200,1054A,115.4484,38.8344,保定市,地表水厂,细颗粒物(PM2.5),98,124,97,73,56,4,,37,18,80,65,5,6,1.2,0.8
2026-01-22T2200,3581A,115.3136,38.9511,保定市,满城区生态环境分局,细颗粒物(PM2.5),98,129,103,73,54,3,,38,21,82,54,5,4,1.3,1.1
2026-01-22T2200,3582A,115.4709,38.7628,保定市,清苑区第二中学,细颗粒物(PM2.5),118,140,117,89,66,4,,36,21,83,62,9,9,1.2,0.9
2026-01-22T2200,3583A,115.6231,39.0223,保定市,徐水物探局,细颗粒物(PM2.5),77,99,100,56,61,5,,35,19,74,56,6,4,0.8,0.9
2026-01-22T2200,4004A,115.4199,38.8665,保定市,双鹰农机,细颗粒物(PM2.5),87,99,93,64,56,28,,50,42,49,49,7,8,0.8,0.8
2026-01-22T2200,4034A,115.515,38.8589,保定市,植保所站,细颗粒物(PM2.5),92,81,82,68,63,12,,29,16,68,70,1,2,1.0,1.1
2026-01-22T2200,2594A,99.1589,25.1137,保山市,市环境监测站,,36,,23,25,16,68,,90,83,8,9,4,5,0.3,0.3
2026-01-22T2200,2595A,99.1616,25.1381,保山市,市环保局,,39,28,26,27,24,76,,91,86,4,6,4,4,0.4,0.4
2026-01-22T2200,1867A,109.1435,21.4085,北海市,海滩公园,,42,30,30,29,20,29,,34,34,15,15,6,6,0.7,0.8
2026-01-22T2200,1868A,109.0983,21.466,北海市,新市环保局,,45,,21,31,22,30,,32,32,16,15,5,5,1.1,0.9
2026-01-22T2200,1869A,109.1775,21.5232,北海市,北海工业园,,42,34,27,29,23,26,,31,30,16,15,6,6,0.6,0.6
2026-01-22T2200,3400A,109.1844,21.4396,北海市,龙潭自来水厂,,49,37,29,34,26,28,,33,32,17,15,7,6,0.8,0.8
2026-01-22T2200,1001A,116.3611,39.8786,北京市,万寿西宫,颗粒物(PM10),65,79,37,46,22,12,,47,26,70,40,5,2,0.7,0.5
2026-01-22T2200,1003A,116.4174,39.9289,北京市,东四,颗粒物(PM10),59,67,35,38,18,11,,40,26,59,39,5,4,0.9,0.5
2026-01-22T2200,1004A,116.4073,39.8858,北京市,天坛,细颗粒物(PM2.5),60,67,37,43,21,7,,45,29,55,37,1,2,1.0,0.7
2026-01-22T2200,1005A,116.4622,39.9364,北京市,农展馆,颗粒物(PM10),57,64,36,37,17,9,,44,32,57,37,4,3,0.9,0.6
2026-01-22T2200,1006A,116.3399,39.9293,北京市,官园,细颗粒物(PM2.5),67,72,36,48,20,21,,44,29,53,40,7,5,0.7,0.5
2026-01-22T2200,1007A,116.2879,39.9613,北京市,海淀万柳,颗粒物(PM10),56,61,38,32,20,3,,38,24,74,51,3,3,0.7,0.6
2026-01-22T2200,1008A,116.6635,40.1349,北京市,顺义新城,颗粒物(PM10),52,54,26,26,14,17,,59,33,42,21,4,4,0.6,0.3
2026-01-22T2200,1009A,116.6275,40.327,北京市,怀柔镇,,35,33,18,24,11,33,,53,41,16,14,4,4,0.6,0.4
2026-01-22T2200,1010A,116.2295,40.217,北京市,昌平镇,颗粒物(PM10),51,51,38,28,20,18,,29,26,38,33,3,3,0.6,0.6
2026-01-22T2200,1011A,116.3968,39.982,北京市,奥体中心,颗粒物(PM10),56,61,31,32,15,8,,48,29,81,51,5,4,0.8,0.5
2026-01-22T2200,3418A,116.8336,40.4095,北京市,密云新城,颗粒物(PM10),60,69,23,27,10,10,,61,44,42,14,1,1,0.6,0.4
2026-01-22T2200,3671A,116.0879,39.9725,北京市,门头沟三家店,颗粒物(PM10),52,54,39,28,20,2,,40,20,51,35,2,3,0.7,0.5
2026-01-22T2200,3672A,116.1507,39.8246,北京市,丰台云岗,颗粒物(PM10),57,64,38,30,21,5,,47,30,68,39,2,2,0.7,0.5
2026-01-22T2200,3674A,115.9578,39.7602,北京市,房山燕山,,50,50,41,23,21,24,,42,33,36,29,5,5,0.3,0.5
2026-01-22T2200,3675A,116.4669,39.7734,北京市,大兴旧宫,颗粒物(PM10),69,87,50,45,25,2,,43,27,55,43,2,3,0.7,0.5
2026-01-22T2200,3694A,115.9859,40.4562,北京市,延庆石河营,颗粒物(PM10),56,61,38,34,19,3,,38,26,49,34,3,4,0.9,0.7
2026-01-22T2200,3695A,116.6151,40.3052,北京市,怀柔新城,,31,31,19,20,12,34,,51,42,15,10,4,4,0.4,0.3
2026-01-22T2200,3696A,116.2542,39.8764,北京市,丰台小屯,颗粒物(PM10),59,67,46,37,23,1,,37,20,71,54,3,4,0.8,0.7
2026-01-22T2200,3697A,116.8399,40.3843,北京市,密云镇,,50,50,24,21,10,10,,60,36,44,23,2,1,0.4,0.3
2026-01-22T2200,4057A,115.9423,40.4431,北京市,延庆百泉,颗粒物(PM10),51,51,36,26,20,5,,31,22,48,28,1,3,0.7,0.7
2026-01-22T2200,4058A,116.6598,39.9164,北京市,通州新华,细颗粒物(PM2.5),75,96,58,55,21,6,,40,26,70,48,4,3,0.9,0.6
2026-01-22T2200,4182A,116.1942,39.9158,北京市,石景山八角,颗粒物(PM10),57,63,38,33,20,6,,40,26,66,44,2,3,0.7,0.5
2026-01-22T2200,4194A,117.078628,40.151726,北京市,平谷新城,颗粒物(PM10),52,54,22,35,16,20,,54,42,29,19,3,3,0.8,0.5
2026-01-22T2200,1761A,123.8274146,41.31234549,本溪市,大峪,颗粒物(PM10),60,69,71,36,38,14,,58,42,56,42,7,8,1.4,1.2
2026-01-22T2200,1763A,123.7169,41.3094,本溪市,彩屯,细颗粒物(PM2.5),63,74,112,45,69,18,,58,41,52,43,7,7,1.1,1.9
2026-01-22T2200,1764A,123.7672166,41.28649327,本溪市,东明,细颗粒物(PM2.5),94,81,71,70,55,10,,62,38,68,47,6,7,1.6,1.5
2026-01-22T2200,1765A,123.799345,41.266614,本溪市,新立屯,,41,41,45,19,26,20,,58,33,47,41,8,11,0.9,1.7
2026-01-22T2200,1766A,123.829144,41.336777,本溪市,威宁,细颗粒物(PM2.5),77,99,75,56,41,8,,56,30,53,51,6,6,1.5,1.2
2026-01-22T2200,2587A,105.287,27.3133,毕节市,八中,细颗粒物(PM2.5),65,54,25,47,22,35,,45,37,24,15,10,10,0.9,0.8
2026-01-22T2200,2588A,105.3079,27.2987,毕节市,师专,细颗粒物(PM2.5),68,59,25,49,20,33,,46,41,23,16,9,9,0.9,0.8
2026-01-22T2200,4263A,105.3688,27.3598,毕节市,工业大道,细颗粒物(PM2.5),60,59,25,43,19,37,,52,48,16,9,10,10,/,/
2026-01-22T2200,1629A,117.9961,37.3604,滨州市,第二水厂,细颗粒物(PM2.5),64,68,73,46,46,23,,55,46,51,49,16,21,0.7,0.8
2026-01-22T2200,1630A,117.9789,37.3931,滨州市,北中新校,细颗粒物(PM2.5),64,68,68,46,44,28,,55,46,44,33,11,14,0.7,0.8
2026-01-22T2200,3514A,117.9379,37.3959,滨州市,中海酒店,细颗粒物(PM2.5),77,78,71,56,50,16,,64,47,71,46,23,19,1.0,0.9
2026-01-22T2200,3515A,117.9381509,37.35547456,滨州市,开发区一中,细颗粒物(PM2.5),70,75,75,51,49,9,,56,41,66,46,20,24,0.7,0.7
2026-01-22T2200,3516A,118.0914,37.6938,滨州市,金海六路,细颗粒物(PM2.5),113,117,70,85,41,7,,66,35,77,54,20,10,1.2,0.7
2026-01-22T2200,4028A,117.9955,37.3752,滨州市,滨州市西街道办事处,细颗粒物(PM2.5),73,80,73,53,50,16,,60,40,52,42,12,17,1.0,0.9
2026-01-22T2200,2311A,115.8071,33.8399,亳州市,污水处理厂,细颗粒物(PM2.5),67,57,68,48,55,79,,104,102,22,32,5,6,0.2,0.3
2026-01-22T2200,2312A,115.7789,33.8519,亳州市,三国揽胜宫,细颗粒物(PM2.5),74,73,74,54,56,78,,100,98,23,27,4,5,0.4,0.5
2026-01-22T2200,3332A,115.7631,33.803,亳州市,亳州学院,细颗粒物(PM2.5),73,69,73,53,57,78,,102,98,19,24,5,5,0.4,0.5
2026-01-22T2200,2693A,82.0482,44.8553,博尔塔拉蒙古自治州,市党校,颗粒物(PM10),87,124,92,59,51,47,,47,45,39,31,7,6,1.0,1.1
2026-01-22T2200,2694A,82.0805,44.8966,博尔塔拉蒙古自治州,市环保局,,,79,112,39,50,,,58,58,29,30,5,8,0.5,1
2026-01-22T2200,1071A,116.8733,38.2922,沧州市,沧县城建局,细颗粒物(PM2.5),158,170,105,120,76,8,,75,51,100,53,9,13,1.6,1
2026-01-22T2200,1072A,116.8462,38.3189,沧州市,电视转播站,细颗粒物(PM2.5),176,139,101,133,84,25,,77,64,61,45,5,9,1.3,1
2026-01-22T2200,1073A,116.8588,38.3161,沧州市,市环保局,细颗粒物(PM2.5),169,129,106,128,82,12,,69,56,68,42,8,12,1.4,1
2026-01-22T2200,3324A,116.8011,38.294,沧州市,河北水利电力学院,细颗粒物(PM2.5),142,153,113,108,76,10,,68,50,93,54,8,11,1.0,0.9
2026-01-22T2200,2622A,97.1813,31.1289,昌都市,昌都监测站,颗粒物(PM10),60,69,35,39,12,19,,80,67,46,16,4,3,1.1,0.6
2026-01-22T2200,3719A,97.1707,31.1428,昌都市,昌都会议中心,,32,,12,22,14,52,,60,,9,3,4,2,0.4,0.3
2026-01-22T2200,2692A,87.2722,44.0298,昌吉回族自治州,新区政务中心,细颗粒物(PM2.5),199,171,172,149,134,56,,51,51,25,44,8,8,1.1,1.3
2026-01-22T2200,3613A,87.3069,44.0093,昌吉回族自治州,亚心广场,细颗粒物(PM2.5),213,205,182,163,144,46,,52,52,30,40,8,8,1.3,1.3
2026-01-22T2200,4164A,87.2057,43.9289,昌吉回族自治州,财政所,细颗粒物(PM2.5),211,221,157,161,120,15,,53,43,57,39,5,4,1.3,1.1
2026-01-22T2200,1120A,125.2874,43.9024,长春市,客车厂,,47,47,41,31,31,26,,58,44,51,30,11,11,0.6,0.5
2026-01-22T2200,1121A,125.2943,43.8508,长春市,邮电学院,,41,41,39,27,26,40,,55,48,34,30,11,12,0.4,0.4
2026-01-22T2200,1122A,125.3648,43.8745,长春市,劳动公园,,48,42,42,33,25,45,,59,53,33,30,6,7,0.6,0.5
2026-01-22T2200,1123A,125.3233,43.8781,长春市,园林处,,46,46,38,28,25,41,,54,44,31,26,15,11,0.6,0.7
2026-01-22T2200,1124A,125.4604,43.7904,长春市,净月潭,,46,38,37,32,22,54,,58,56,13,17,6,7,0.5,0.5
2026-01-22T2200,1126A,125.38,43.8422,长春市,经开区环卫处,,49,49,39,34,22,34,,61,53,43,29,7,7,0.6,0.5
2026-01-22T2200,1127A,125.234,43.7761,长春市,高新区管委会,细颗粒物(PM2.5),67,50,40,48,28,14,,67,50,71,31,6,9,0.7,0.5
2026-01-22T2200,1128A,125.1695,43.83,长春市,岱山公园,,46,46,43,29,31,5,,68,36,69,27,10,7,0.5,0.5
2026-01-22T2200,4281A,125.334645,43.916281,长春市,北亚泰大街1068号,细颗粒物(PM2.5),75,64,42,55,25,38,,54,42,36,30,12,11,0.6,0.5
2026-01-22T2200,1335A,113.082,28.2421,长沙市,经开区环保局,细颗粒物(PM2.5),97,82,59,72,48,22,,54,43,32,21,2,3,0.6,0.4
2026-01-22T2200,1336A,112.8873,28.2202,长沙市,高开区环保局,细颗粒物(PM2.5),89,75,53,66,45,40,,59,56,24,16,4,5,0.6,0.5
2026-01-22T2200,1337A,113.0785,28.2012,长沙市,马坡岭,细颗粒物(PM2.5),94,86,62,70,48,11,,60,47,44,22,4,5,0.9,0.7
2026-01-22T2200,1338A,112.9448,28.1894,长沙市,湖南师范大学,细颗粒物(PM2.5),68,66,54,49,33,31,,66,58,26,15,4,5,0.6,0.5
2026-01-22T2200,1339A,113.0177,28.1322,长沙市,雨花区环保局,细颗粒物(PM2.5),89,79,63,66,39,18,,50,41,45,24,7,8,0.8,0.6
2026-01-22T2200,1340A,112.9795,28.2593,长沙市,伍家岭,细颗粒物(PM2.5),77,77,56,56,38,36,,68,60,31,16,4,5,0.8,0.6
2026-01-22T2200,1341A,113.002,28.1944,长沙市,火车新站,细颗粒物(PM2.5),85,82,58,63,46,30,,61,53,38,20,1,2,0.9,0.7
2026-01-22T2200,1342A,112.9846,28.1177,长沙市,天心区环保局,细颗粒物(PM2.5),80,73,52,59,43,25,,59,50,44,22,5,5,0.6,0.4
2026-01-22T2200,1343A,112.8906,28.1307,长沙市,湖南中医药大学,细颗粒物(PM2.5),79,70,50,58,29,20,,63,53,50,20,6,6,0.6,0.5
2026-01-22T2200,1727A,113.1146,36.1547,长治市,清华站,细颗粒物(PM2.5),67,58,65,48,53,54,,71,70,29,30,14,15,1.1,1
2026-01-22T2200,1730A,113.0887,36.2126,长治市,审计局,细颗粒物(PM2.5),73,66,72,53,66,45,,64,62,37,32,13,12,1.4,1.3
2026-01-22T2200,1731A,113.0845,36.1856,长治市,长治八中,细颗粒物(PM2.5),80,77,87,59,73,48,,63,61,26,25,15,14,1.1,1.3
2026-01-22T2200,2845A,113.1561,36.1912,长治市,德盛苑,细颗粒物(PM2.5),60,45,49,43,50,71,,75,75,17,18,18,13,1.0,1.1
2026-01-22T2200,3568A,113.0603,36.0464,长治市,向阳小学,细颗粒物(PM2.5),78,86,85,57,60,59,,72,67,33,32,14,14,1.1,1.1
2026-01-22T2200,3569A,112.8788,36.315,长治市,屯留一中,细颗粒物(PM2.5),85,91,69,63,53,14,,66,54,52,33,37,20,2.6,1.8
2026-01-22T2200,4189A,113.113092,36.199482,长治市,英华南巷50号,细颗粒物(PM2.5),58,61,66,41,52,55,,67,66,22,25,14,12,1.2,1.2
2026-01-22T2200,4190A,113.23666,36.33435,长治市,学府街1号,细颗粒物(PM2.5),68,68,75,49,64,39,,60,44,40,39,12,13,1.3,1.4
2026-01-22T2200,1854A,111.696,28.9725,常德市,市二中,细颗粒物(PM2.5),67,57,54,48,45,65,,90,84,25,15,7,6,0.6,0.6
2026-01-22T2200,3138A,111.7152,29.0288,常德市,武陵区永安,细颗粒物(PM2.5),60,61,57,43,44,70,,90,87,23,16,6,6,0.7,0.7
2026-01-22T2200,3139A,111.6891,28.9881,常德市,鼎城区玉霞,细颗粒物(PM2.5),65,54,60,47,47,26,,93,80,78,18,10,8,0.5,0.5
2026-01-22T2200,3140A,111.6651,29.0526,常德市,武陵区长庚,颗粒物(PM10),89,128,61,42,46,76,,92,89,19,16,5,5,0.4,0.4
2026-01-22T2200,1196A,119.9524,31.7586,常州市,市监测站,细颗粒物(PM2.5),83,108,52,61,31,4,,63,42,84,38,4,6,1.2,1
2026-01-22T2200,1200A,119.9351,31.703,常州市,武进监测站,细颗粒物(PM2.5),73,68,43,53,32,25,,59,45,58,35,9,11,1.1,1
2026-01-22T2200,3002A,119.9701,31.813,常州市,行政中心,"颗粒物(PM10),细颗粒物(PM2.5)",64,78,50,46,30,8,,60,44,84,40,6,7,0.8,0.6
2026-01-22T2200,3003A,120.0434,31.7726,常州市,经开区,颗粒物(PM10),100,149,57,71,29,2,,26,26,83,37,5,5,1.0,0.6
2026-01-22T2200,3010A,119.8919,31.7892,常州市,钟楼,细颗粒物(PM2.5),62,65,47,44,30,12,,60,46,72,38,8,10,0.8,0.6
2026-01-22T2200,3429A,119.8595,31.706,常州市,武进经发区,细颗粒物(PM2.5),84,75,51,62,40,5,,60,41,84,43,7,7,0.7,0.7
2026-01-22T2200,3430A,119.5812,31.7256,常州市,金坛城区,细颗粒物(PM2.5),65,65,48,47,27,17,,72,59,63,25,13,8,0.8,0.8
2026-01-22T2200,4089A,119.9551,31.863,常州市,崇义南街5-H号,细颗粒物(PM2.5),69,80,48,50,28,5,,64,45,82,37,6,7,0.9,0.6
2026-01-22T2200,2220A,120.4318,41.588,朝阳市,西梁,细颗粒物(PM2.5),82,111,68,60,42,4,,61,35,64,40,15,12,0.9,0.9
2026-01-22T2200,2221A,120.452,41.565,朝阳市,河畔小区,细颗粒物(PM2.5),84,92,47,62,30,4,,62,41,59,31,14,10,1.8,1
2026-01-22T2200,2222A,120.4176,41.5648,朝阳市,八里堡,细颗粒物(PM2.5),134,144,60,102,41,6,,58,34,62,40,21,12,2.1,1.1
2026-01-22T2200,3026A,116.6179,23.6608,潮州市,市政府,,33,30,29,23,19,15,,31,24,12,8,2,2,0.5,0.4
2026-01-22T2200,4036A,116.646,23.676,潮州市,金山,,38,32,28,26,21,10,,26,18,16,12,2,3,0.6,0.6
2026-01-22T2200,2473A,113.0116,25.8228,郴州市,市职中,细颗粒物(PM2.5),53,46,37,37,31,22,,29,25,15,12,2,2,0.3,0.4
2026-01-22T2200,2475A,113.0381,25.8074,郴州市,市审计局,细颗粒物(PM2.5),62,,31,44,30,26,,28,26,16,17,1,2,/,/
2026-01-22T2200,2476A,113.0348,25.7757,郴州市,市环保局,细颗粒物(PM2.5),64,50,38,46,31,20,,27,24,15,15,2,2,0.5,0.5
2026-01-22T2200,4252A,113.0138,25.8011,郴州市,好美居路49号,细颗粒物(PM2.5),64,48,35,46,36,29,,37,32,17,14,1,2,/,/
2026-01-22T2200,1431A,103.9727,30.7242,成都市,金泉两河,细颗粒物(PM2.5),110,96,67,83,43,16,,35,26,49,37,3,2,0.7,0.6
2026-01-22T2200,1432A,104.1423,30.6765,成都市,十里店,颗粒物(PM10),55,60,63,34,45,37,,50,49,27,28,3,3,0.5,0.4
2026-01-22T2200,1433A,104.0594,30.5765,成都市,三瓦窑,细颗粒物(PM2.5),77,58,67,56,51,42,,51,50,28,37,2,3,0.6,0.6
2026-01-22T2200,1434A,104.1122,30.6306,成都市,沙河铺,细颗粒物(PM2.5),63,55,64,45,49,32,,46,44,35,33,4,4,0.7,0.7
2026-01-22T2200,2880A,104.0219,30.6561,成都市,大石西路,,,,71,,49,24,,43,37,31,21,4,6,0.6,0.6
2026-01-22T2200,3136A,104.2724,30.559,成都市,龙泉驿区区政府,,35,31,43,24,36,43,,61,59,17,18,6,6,0.8,0.8
2026-01-22T2200,3357A,104.0028,30.6891,成都市,金博路,细颗粒物(PM2.5),79,82,54,58,42,30,,37,32,38,30,4,4,0.7,0.6
2026-01-22T2200,3359A,104.056,30.5228,成都市,华阳,细颗粒物(PM2.5),52,46,56,36,44,42,,58,56,24,28,2,2,0.6,0.6
2026-01-22T2200,3488A,104.387954,30.746684,成都市,青石路225号,,48,43,54,33,42,45,,54,51,15,21,4,3,0.8,0.7
2026-01-22T2200,3489A,104.0788,30.4054,成都市,科学城,细颗粒物(PM2.5),52,40,57,36,47,37,,57,54,17,18,6,6,0.6,1
2026-01-22T2200,4011A,103.8505,30.6946,成都市,光华大道三段,细颗粒物(PM2.5),97,108,72,72,49,23,,55,45,47,31,3,2,0.7,0.6
2026-01-22T2200,4144A,104.3257,30.6406,成都市,八角井街185号,,48,48,61,31,45,38,,57,54,18,17,2,3,0.7,0.9
2026-01-22T2200,4224A,104.2433276,30.53529463,成都市,鲸龙路1057号,,42,42,50,29,38,39,,62,57,20,19,5,5,0.8,0.8
2026-01-22T2200,1062A,117.9531,40.908,承德市,铁路,颗粒物(PM10),56,62,47,37,27,20,,43,27,30,33,12,13,0.9,0.8
2026-01-22T2200,1063A,117.9397,40.9763,承德市,中国银行,颗粒物(PM10),59,68,40,40,16,10,,52,35,44,28,4,3,0.8,0.6
2026-01-22T2200,4073A,117.9462,40.95,承德市,杏林街1号,,48,48,32,22,20,15,,53,35,35,23,8,6,0.8,0.6
2026-01-22T2200,4274A,117.7994,40.9605,承德市,滨河大街98号,细颗粒物(PM2.5),57,55,38,40,20,8,,55,38,46,26,6,18,0.6,0.6
2026-01-22T2200,2314A,117.4698,30.6617,池州市,池州学院,细颗粒物(PM2.5),78,72,52,57,42,12,,65,49,57,30,4,7,0.8,0.6
2026-01-22T2200,3237A,117.4918,30.6617,池州市,展览馆,"颗粒物(PM10),细颗粒物(PM2.5)",57,63,50,40,33,8,,67,45,59,32,2,5,0.9,0.8
2026-01-22T2200,3333A,117.5626,30.695,池州市,第八中学,细颗粒物(PM2.5),72,70,53,52,38,25,,66,50,45,29,5,6,0.6,0.5
2026-01-22T2200,3334A,117.5037,30.6242,池州市,第十二中学,细颗粒物(PM2.5),67,75,54,48,38,3,,68,42,64,33,4,5,0.9,0.8
2026-01-22T2200,1744A,118.9229,42.2816,赤峰市,松山一中,颗粒物(PM10),60,69,29,31,14,3,,53,29,78,37,13,8,1.7,1
2026-01-22T2200,1745A,118.9588,42.2733,赤峰市,哈达街,细颗粒物(PM2.5),87,86,32,64,14,8,,57,38,52,21,51,15,1.2,0.7
2026-01-22T2200,1746A,118.8792,42.2551,赤峰市,天义路,,46,40,13,32,9,5,,68,39,60,20,8,6,1.4,0.7
2026-01-22T2200,3058A,119.2656,42.0356,赤峰市,银河街,细颗粒物(PM2.5),90,110,61,67,34,8,,62,41,48,23,22,25,1.6,1.1
2026-01-22T2200,3286A,118.9359,42.3146,赤峰市,桥北物流园区,颗粒物(PM10),58,66,25,32,15,10,,61,38,63,25,13,6,1.7,0.6
2026-01-22T2200,2521A,107.3473,22.4137,崇左市,市环保局江州分局,,43,43,19,26,12,21,,26,25,15,11,4,6,0.8,1
2026-01-22T2200,4256A,107.375,22.3736,崇左市,石景林东路7号,,29,22,15,20,10,28,,26,26,14,12,3,3,0.6,0.7
2026-01-22T2200,3207A,118.31131,32.3033,滁州市,市政府原办公楼,细颗粒物(PM2.5),73,78,54,53,35,8,,73,47,68,30,5,7,1.0,0.6
2026-01-22T2200,3331A,118.3268,32.2633,滁州市,图书馆,细颗粒物(PM2.5),60,60,44,43,27,12,,69,43,61,26,7,9,0.9,0.6
2026-01-22T2200,4101A,118.3196,32.3335,滁州市,银山路666号,细颗粒物(PM2.5),89,92,51,66,45,4,,72,45,49,23,3,4,0.6,0.4
2026-01-22T2200,4102A,118.3426,32.2979,滁州市,黄山路555号,细颗粒物(PM2.5),89,97,58,66,43,6,,78,48,73,25,14,16,1.3,0.8
2026-01-22T2200,2606A,101.5379,25.0492,楚雄彝族自治州,市经济开发区,,32,32,25,19,17,70,,78,75,13,17,3,4,0.5,0.4
2026-01-22T2200,4153A,101.5536,25.0343,楚雄彝族自治州,团结路562号,,,20,22,16,13,76,,70,70,5,14,4,5,,0.4
2026-01-22T2200,2549A,107.5087,31.2186,达州市,市环境监测站,细颗粒物(PM2.5),89,96,66,66,40,5,,25,20,43,29,6,11,0.8,0.6
2026-01-22T2200,2550A,107.4988,31.2132,达州市,凤凰小区,细颗粒物(PM2.5),85,97,67,63,44,7,,25,17,42,32,4,10,0.8,0.6
2026-01-22T2200,2551A,107.5081,31.1987,达州市,达县机关宾馆,细颗粒物(PM2.5),89,102,69,66,46,3,,24,17,45,34,2,9,0.9,0.8
2026-01-22T2200,2552A,107.4644,31.2124,达州市,市政中心,细颗粒物(PM2.5),92,121,71,68,41,6,,21,17,44,30,6,12,0.7,0.5
2026-01-22T2200,2614A,100.2168,25.5818,大理白族自治州,大理市环境监测站,,36,,18,25,16,82,,79,79,5,6,6,6,0.5,0.6
2026-01-22T2200,2615A,100.1542,25.7055,大理白族自治州,大理古城,,45,,21,31,13,76,,89,85,9,8,8,8,0.8,0.7
2026-01-22T2200,1109A,121.6119,38.974,大连市,甘井子,,37,37,32,23,20,51,,78,64,35,25,10,9,0.5,0.3
2026-01-22T2200,1110A,121.565,38.9509,大连市,周水子,细颗粒物(PM2.5),67,67,37,48,25,6,,66,39,89,38,15,14,1.3,0.6
2026-01-22T2200,1111A,121.5637,38.8849,大连市,星海三站,细颗粒物(PM2.5),58,,27,41,20,15,,70,53,42,24,9,9,1.0,0.7
2026-01-22T2200,1112A,121.6301,38.9117,大连市,青泥洼桥,颗粒物(PM10),53,56,37,36,21,7,,60,38,64,30,10,9,1.0,0.7
2026-01-22T2200,1113A,121.6248,38.8643,大连市,傅家庄,,36,32,28,25,19,23,,62,49,52,27,16,9,1.0,0.5
2026-01-22T2200,1114A,121.5117,38.8636,大连市,七贤岭,,20,18,25,14,17,61,,67,64,8,17,6,7,0.4,0.7
2026-01-22T2200,1116A,121.7507,39.1339,大连市,金州,,25,21,28,11,20,78,,74,72,12,16,5,9,0.3,0.3
2026-01-22T2200,1117A,121.7811,39.0495,大连市,开发区,细颗粒物(PM2.5),59,42,33,42,25,7,,67,50,70,35,4,4,0.8,0.7
2026-01-22T2200,1118A,121.9762,39.0631,大连市,双D港,,,,26,,16,,,84,,,11,,8,,0.3
2026-01-22T2200,4082A,121.2548,38.8188,大连市,旅顺,细颗粒物(PM2.5),87,82,42,64,34,19,,64,44,43,24,9,8,1.3,0.9
2026-01-22T2200,1789A,124.8085,46.0381,大庆市,大同区,细颗粒物(PM2.5),64,64,34,46,17,46,,66,55,28,15,12,8,1.0,0.7
2026-01-22T2200,1790A,125.1166,46.5255,大庆市,龙凤区,,,,34,59,24,25,,59,44,46,25,,12,0.7,0.4
2026-01-22T2200,1791A,124.8894,46.4007,大庆市,红岗区,,43,43,28,26,14,38,,54,44,22,15,5,5,0.5,0.4
2026-01-22T2200,1792A,125.1391,46.578,大庆市,萨尔图区,,49,49,31,23,15,28,,59,39,43,21,10,9,0.7,0.5
2026-01-22T2200,1793A,124.9026,46.6217,大庆市,让胡路区,细颗粒物(PM2.5),59,49,29,42,25,36,,70,52,42,15,8,9,1.0,0.7
2026-01-22T2200,3481A,125.127,46.6277,大庆市,萨区政府监测点,,49,47,28,34,12,42,,65,50,30,17,15,10,0.7,0.5
2026-01-22T2200,1723A,113.2926,40.0759,大同市,云冈宾馆,颗粒物(PM10),79,108,79,48,40,8,,39,35,63,47,20,18,1.5,1.4
2026-01-22T2200,1724A,113.3437,40.0921,大同市,大同大学,颗粒物(PM10),72,94,78,38,37,17,,40,26,56,47,22,24,1.4,1.1
2026-01-22T2200,1725A,113.2637,40.129,大同市,安家小村,细颗粒物(PM2.5),72,90,105,52,45,14,,35,29,56,48,17,24,1.3,2.4
2026-01-22T2200,3282A,113.3399,40.0586,大同市,大同市卫生学校,细颗粒物(PM2.5),69,85,72,50,33,5,,45,36,75,50,11,18,1.4,1.2
2026-01-22T2200,3565A,113.1371,40.1122,大同市,云冈站,颗粒物(PM10),55,60,66,29,30,25,,51,43,41,40,9,26,0.6,0.7
2026-01-22T2200,3566A,113.1186,40.2556,大同市,图书馆,颗粒物(PM10),57,63,66,39,35,34,,59,48,23,28,6,12,0.7,0.6
2026-01-22T2200,3567A,113.5931,40.0459,大同市,区一中,细颗粒物(PM2.5),124,113,94,94,47,13,,48,37,51,37,42,32,2.4,1.6
2026-01-22T2200,4199A,113.2798248,40.09972476,大同市,魏都大道141号,细颗粒物(PM2.5),80,98,110,59,45,8,,35,28,69,56,13,19,1.2,1.9
2026-01-22T2200,2269A,124.1068,50.4091,大兴安岭地区,科技局,,22,20,17,3,6,69,,69,69,1,2,5,6,0.1,0.1
2026-01-22T2200,3663A,124.117,50.4279,大兴安岭地区,红旗社区,,23,,4,8,6,72,,71,70,1,3,5,4,0.3,0.3
2026-01-22T2200,1600A,124.33,40.0625,丹东市,江湾东路,细颗粒物(PM2.5),108,144,61,81,36,6,,58,40,57,28,15,15,2.6,1.3
2026-01-22T2200,1601A,124.4242,40.1513,丹东市,临江后街,细颗粒物(PM2.5),100,102,46,75,34,20,,61,43,39,25,10,13,1.5,0.8
2026-01-22T2200,1602A,124.3935,40.1461,丹东市,元宝山,细颗粒物(PM2.5),72,66,38,52,23,27,,58,47,36,22,34,15,0.7,0.6
2026-01-22T2200,1603A,124.3634,40.1093,丹东市,民主桥,细颗粒物(PM2.5),93,122,59,69,34,6,,58,33,53,31,14,14,1.6,1
2026-01-22T2200,3541A,109.5726195,19.51688767,儋州市,第一中学子站,颗粒物(PM10),61,72,62,34,32,41,,51,31,11,11,4,4,0.8,0.8
2026-01-22T2200,3542A,109.5567,19.5187,儋州市,东坡学校子站,细颗粒物(PM2.5),59,61,56,42,34,50,,56,36,10,9,5,4,0.8,0.7
2026-01-22T2200,2616A,98.5611,24.4273,德宏傣族景颇族自治州,德宏州监测站,细颗粒物(PM2.5),74,62,53,54,41,36,,87,68,31,28,6,7,1.0,0.7
2026-01-22T2200,3677A,98.5887,24.4366,德宏傣族景颇族自治州,芒市人民政府综合楼,,49,49,45,27,28,44,,78,71,18,15,4,4,0.8,0.7
2026-01-22T2200,1901A,104.424,31.1209,德阳市,东山公园,细颗粒物(PM2.5),59,45,44,42,38,34,,46,43,11,9,1,1,0.7,0.6
2026-01-22T2200,1902A,104.3827,31.1318,德阳市,西小区,细颗粒物(PM2.5),62,51,58,44,45,33,,44,40,21,24,3,2,0.8,0.7
2026-01-22T2200,1904A,104.3553,31.1091,德阳市,耐火材料厂,细颗粒物(PM2.5),60,,59,43,47,28,,42,39,28,26,1,2,0.7,0.6
2026-01-22T2200,4145A,104.4144,31.1495,德阳市,市林业局,细颗粒物(PM2.5),58,48,49,41,47,27,,48,40,27,25,2,2,0.7,0.6
2026-01-22T2200,1622A,116.3034,37.4675,德州市,儿童乐园,细颗粒物(PM2.5),100,110,105,75,68,39,,79,68,49,42,16,15,1.0,1
2026-01-22T2200,1624A,116.2992,37.4449,德州市,监理站,细颗粒物(PM2.5),92,100,101,68,70,50,,85,73,50,48,14,14,0.8,0.9
2026-01-22T2200,3066A,116.2722,37.438,德州市,九衢泉纯净水厂,细颗粒物(PM2.5),98,107,110,73,76,20,,73,49,68,55,10,12,1.0,1.1
2026-01-22T2200,3371A,116.3693,37.44,德州市,开发区人民医院,细颗粒物(PM2.5),89,100,104,66,68,52,,87,76,44,51,17,17,0.8,0.8
2026-01-22T2200,3511A,116.5687,37.3331,德州市,陵城艺术中心,细颗粒物(PM2.5),70,83,87,51,52,41,,65,57,40,41,17,24,0.7,0.7
2026-01-22T2200,4292A,116.352738,37.420875,德州市,新河东路,细颗粒物(PM2.5),104,112,108,78,75,34,,75,60,47,50,14,16,0.9,1.1
2026-01-22T2200,2621A,99.7054,27.8319,迪庆藏族自治州,迪庆州站,,35,31,26,24,18,64,,74,71,10,8,5,4,0.4,0.5
2026-01-22T2200,3180A,99.7122,27.8129,迪庆藏族自治州,质量技术监督局,,36,26,24,25,14,73,,79,76,5,10,4,5,0.4,0.5
2026-01-22T2200,4257A,104.6092,35.5962,定西市,将台街,细颗粒物(PM2.5),99,110,82,74,52,20,,78,67,53,27,31,14,1.3,0.7
2026-01-22T2200,4309A,104.6159,35.5701,定西市,正龙路62号,颗粒物(PM10),59,67,85,38,46,44,,78,71,14,10,10,8,0.7,0.7
2026-01-22T2200,1390A,113.7943,23.0132,东莞市,东城石井,,31,31,35,16,19,19,,31,28,18,16,6,6,0.6,0.6
2026-01-22T2200,1391A,113.7384,22.9659,东莞市,南城西平,,29,29,31,15,16,15,,30,24,26,21,5,6,0.6,0.6
2026-01-22T2200,3319A,113.7283,23.041,东莞市,万江金泰,,28,28,30,17,17,24,,36,30,21,18,4,5,0.7,0.6
2026-01-22T2200,4129A,113.8666,23.1062,东莞市,裕兴路,,21,21,30,11,15,22,,37,30,18,16,4,4,0.8,0.8
2026-01-22T2200,4130A,114.0076,22.9739,东莞市,教育路1号,,,41,39,21,21,,,32,28,22,24,4,4,0.7,0.7
2026-01-22T2200,4131A,113.7981,22.8124,东莞市,长怡路1号,,37,37,40,18,19,13,,33,25,32,27,6,6,0.6,0.6
2026-01-22T2200,1666A,118.6612,37.4313,东营市,市环保局,细颗粒物(PM2.5),70,83,66,51,37,44,,59,48,40,50,13,17,0.9,1
2026-01-22T2200,3036A,118.6903,37.4337,东营市,开发区管委会,细颗粒物(PM2.5),77,79,64,56,39,50,,61,53,34,50,6,6,0.8,0.8
2026-01-22T2200,3365A,118.5721,37.5654,东营市,垦利区民丰路,颗粒物(PM10),70,90,71,46,41,3,,64,42,80,52,14,11,1.0,0.8
2026-01-22T2200,3498A,118.5063,37.8606,东营市,河口城区,细颗粒物(PM2.5),80,102,68,59,40,18,,68,54,62,42,18,8,1.1,0.9
2026-01-22T2200,3646A,118.4979,37.4623,东营市,胜利站,细颗粒物(PM2.5),70,87,69,51,44,1,,55,32,100,65,21,22,0.8,0.8
2026-01-22T2200,3734A,118.5753,37.4405,东营市,理想之城,细颗粒物(PM2.5),83,90,66,61,39,10,,58,41,70,52,34,12,0.9,0.8
2026-01-22T2200,1591A,110.0024,39.8127,鄂尔多斯市,综合楼,颗粒物(PM10),68,85,66,41,26,18,,52,34,56,39,20,15,0.8,0.7
2026-01-22T2200,1592A,109.9485,39.8259,鄂尔多斯市,巴音孟克林场办事处,细颗粒物(PM2.5),77,92,52,56,25,9,,65,37,63,30,14,13,1.0,0.8
2026-01-22T2200,1593A,109.7734,39.5987,鄂尔多斯市,康泽苑,颗粒物(PM10),57,63,48,33,24,24,,68,55,37,26,10,9,0.6,0.6
2026-01-22T2200,1594A,109.8121,39.5987,鄂尔多斯市,华泰汽车城,颗粒物(PM10),63,75,49,32,22,2,,66,46,61,36,6,7,1.0,0.6
2026-01-22T2200,1595A,109.9734,39.7884,鄂尔多斯市,奥林花园,颗粒物(PM10),80,110,65,46,25,2,,53,34,72,47,15,12,1.3,0.7
2026-01-22T2200,2436A,114.894,30.3989,鄂州市,市政府,细颗粒物(PM2.5),100,89,71,75,67,42,,73,68,37,22,5,7,1.0,0.9
2026-01-22T2200,2437A,114.8986,30.3714,鄂州市,赵家坝,细颗粒物(PM2.5),117,121,75,88,66,8,,75,57,73,19,8,9,1.2,1.1
2026-01-22T2200,3654A,114.8093,30.4091,鄂州市,精准医疗中心,细颗粒物(PM2.5),87,75,75,64,65,38,,87,76,52,14,6,9,0.5,0.8
2026-01-22T2200,2454A,109.4978,30.2979,恩施土家族苗族自治州,湖北民院,细颗粒物(PM2.5),109,,56,82,56,15,,39,33,18,12,6,6,0.9,0.7
2026-01-22T2200,3549A,109.5061,30.3771,恩施土家族苗族自治州,龙凤新区,细颗粒物(PM2.5),92,83,64,68,57,10,,33,26,22,20,7,7,1.0,0.7
2026-01-22T2200,2499A,108.3411,21.6159,防城港市,沙万,,23,23,15,13,4,30,,28,26,13,13,5,6,0.7,0.7
2026-01-22T2200,2500A,108.3515,21.7733,防城港市,防城档案局,,28,28,18,17,8,27,,23,22,12,12,4,4,0.5,0.6
2026-01-22T2200,2501A,108.3506,21.6414,防城港市,大海花园,,28,25,15,19,12,29,,28,25,14,13,5,5,0.6,0.6
2026-01-22T2200,1371A,113.1293,23.0065,佛山市,湾梁,,34,34,34,18,14,15,,33,19,28,23,/,/,/,/
2026-01-22T2200,1372A,113.1082,23.0477,佛山市,华材职中,,41,41,40,24,22,22,,35,22,20,19,6,7,0.6,0.6
2026-01-22T2200,1373A,113.1439,23.045,佛山市,南海气象局,,34,34,30,19,17,14,,32,18,34,28,/,/,/,/
2026-01-22T2200,1374A,113.2879,22.8094,佛山市,顺德苏岗,,30,30,25,19,15,21,,31,23,27,25,/,/,0.8,0.7
2026-01-22T2200,1376A,112.8384,22.8678,佛山市,高明孔堂,,33,33,40,21,23,18,,27,25,22,20,/,/,/,/
2026-01-22T2200,1377A,112.8835,23.1584,佛山市,三水监测站,,29,29,29,19,19,20,,28,24,25,22,3,3,0.8,0.7
2026-01-22T2200,1378A,112.8668,23.185,佛山市,三水云东海,,30,30,28,16,16,20,,29,24,25,24,/,/,/,/
2026-01-22T2200,3625A,113.2568,22.7629,佛山市,容桂街道办,,35,31,34,24,20,22,,29,21,28,29,/,/,/,/
2026-01-22T2200,1282A,119.2681,26.0506,福州市,师大,,31,31,29,19,26,44,,46,39,26,23,5,4,0.8,0.6
2026-01-22T2200,1283A,119.2983,26.1028,福州市,五四北路,,35,25,26,24,28,44,,45,42,22,20,8,5,0.7,0.6
2026-01-22T2200,1284A,119.2648,26.0769,福州市,杨桥西路,,30,30,29,20,27,41,,46,41,17,12,6,5,/,/
2026-01-22T2200,3048A,119.5799,26.0937,福州市,九龙,,39,33,31,27,25,44,,47,42,27,24,7,7,0.6,0.7
2026-01-22T2200,3526A,119.5188,25.9666,福州市,吴航,,42,42,43,29,31,49,,50,42,20,20,9,7,0.6,0.7
2026-01-22T2200,4104A,119.3106,26.0648,福州市,路通桥巷6号,,39,36,38,27,32,43,,45,43,22,16,/,/,/,/
2026-01-22T2200,1755A,123.7974,41.8494,抚顺市,望花区,细颗粒物(PM2.5),119,153,95,90,63,4,,51,33,70,47,7,6,1.8,1.5
2026-01-22T2200,1756A,123.9161,41.8827,抚顺市,顺城区,细颗粒物(PM2.5),142,126,88,108,68,9,,54,35,67,49,12,11,1.9,1.3
2026-01-22T2200,1757A,124.0437,41.8615,抚顺市,东洲区,细颗粒物(PM2.5),75,93,72,55,45,20,,51,40,51,34,9,9,1.2,1
2026-01-22T2200,1758A,123.9246,41.8638,抚顺市,新抚区,细颗粒物(PM2.5),112,118,89,84,57,7,,49,29,71,52,6,7,1.6,1.4
2026-01-22T2200,1759A,124.0972,41.8961,抚顺市,大伙房水库,,49,49,51,32,35,36,,55,52,28,27,9,10,0.9,0.9
2026-01-22T2200,1760A,123.708,41.8386,抚顺市,沈抚新城,细颗粒物(PM2.5),114,124,84,86,66,12,,63,36,74,44,12,9,1.5,1.9
2026-01-22T2200,2377A,116.3544,27.9833,抚州市,市站,细颗粒物(PM2.5),65,65,52,47,39,42,,62,55,15,13,7,8,1.4,1
2026-01-22T2200,2378A,116.3562,27.9631,抚州市,血防站,细颗粒物(PM2.5),67,64,59,48,37,39,,61,53,21,14,6,6,1.3,1.2
2026-01-22T2200,2379A,116.3561,28.0007,抚州市,采茶剧团,细颗粒物(PM2.5),65,65,53,47,38,41,,61,56,11,7,5,6,1.0,1.1
2026-01-22T2200,2380A,116.3854,27.9648,抚州市,医学分院,细颗粒物(PM2.5),65,69,59,47,36,38,,62,56,16,9,6,6,0.6,0.6
2026-01-22T2200,2207A,121.6095,41.9978,阜新市,工业园区,细颗粒物(PM2.5),113,119,51,85,17,5,,67,33,56,17,34,13,1.3,0.5
2026-01-22T2200,2208A,121.6567,42.0188,阜新市,长青街,细颗粒物(PM2.5),80,62,25,59,13,26,,71,48,35,11,17,8,0.8,0.5
2026-01-22T2200,2209A,121.6672,42.07,阜新市,农业园区,,28,28,22,12,4,54,,67,59,12,7,14,7,0.3,0.1
2026-01-22T2200,2211A,121.6343,42.0455,阜新市,玉龙新城,颗粒物(PM10),81,112,43,47,17,7,,69,34,56,17,13,7,1.5,0.6
2026-01-22T2200,2301A,115.8276,32.8929,阜阳市,市监测站,细颗粒物(PM2.5),82,93,85,60,67,44,,85,72,41,29,4,4,0.5,0.5
2026-01-22T2200,2303A,115.8551,32.8606,阜阳市,开发区,细颗粒物(PM2.5),83,81,68,61,57,20,,85,62,66,32,5,6,0.8,0.6
2026-01-22T2200,2875A,115.783962,32.889217,阜阳市,阜阳职业技术学院,细颗粒物(PM2.5),55,52,65,39,47,70,,93,86,23,23,8,9,0.6,0.7
2026-01-22T2200,3468A,115.79,32.8614,阜阳市,市规划展馆,"颗粒物(PM10),细颗粒物(PM2.5)",55,59,76,39,61,67,,96,85,23,21,6,7,0.4,0.8
2026-01-22T2200,3469A,115.835101,32.918568,阜阳市,枣园社区,细颗粒物(PM2.5),74,71,77,54,64,48,,88,77,40,30,4,6,0.4,0.4
2026-01-22T2200,2669A,102.9097,34.9841,甘南藏族自治州,州政府,颗粒物(PM10),66,81,62,37,31,4,,79,60,61,28,16,8,0.9,0.8
2026-01-22T2200,3380A,102.8915,34.9618,甘南藏族自治州,甘肃民族师范学院,颗粒物(PM10),68,86,80,23,24,5,,83,61,60,37,16,11,0.4,0.4
2026-01-22T2200,2570A,101.96,30.048,甘孜藏族自治州,水桥子,,38,38,19,3,7,17,,72,60,51,19,6,6,0.4,0.8
2026-01-22T2200,3065A,101.9534,29.9976,甘孜藏族自治州,州环保局,,30,30,19,3,6,60,,76,73,15,12,5,5,0.5,0.5
2026-01-22T2200,2363A,114.9368,25.8663,赣州市,地委,颗粒物(PM10),54,57,41,33,23,42,,42,42,14,15,7,7,0.5,0.4
2026-01-22T2200,2364A,114.946,25.8483,赣州市,气象台,颗粒物(PM10),61,72,55,33,20,38,,36,36,18,18,6,5,0.4,0.4
2026-01-22T2200,2365A,114.932,25.8332,赣州市,市图书馆,细颗粒物(PM2.5),57,47,33,40,25,35,,38,36,21,20,5,4,0.6,0.5
2026-01-22T2200,2366A,114.8905,25.8472,赣州市,华坚鞋城,颗粒物(PM10),51,52,35,34,27,38,,37,37,16,16,4,4,0.4,0.3
2026-01-22T2200,3109A,115.0094,25.8614,赣州市,赣县区卫计委,细颗粒物(PM2.5),74,60,38,54,36,36,,38,36,9,10,8,7,0.6,0.6
2026-01-22T2200,2684A,106.2753,36.0057,固原市,监测站,细颗粒物(PM2.5),158,130,71,120,47,14,,82,60,69,34,21,7,2.5,1.1
2026-01-22T2200,2685A,106.2384,36.0189,固原市,新区,细颗粒物(PM2.5),133,111,75,101,49,7,,76,59,74,36,8,7,,1.2
2026-01-22T2200,2544A,106.6307,30.4577,广安市,市委,细颗粒物(PM2.5),69,67,57,50,43,25,,30,30,22,20,8,8,0.9,0.9
2026-01-22T2200,2545A,106.6266,30.4662,广安市,友谊中学,,,60,50,54,44,,,31,,21,20,6,6,1.3,1.3
2026-01-22T2200,2547A,106.6386,30.4551,广安市,广电花园,细颗粒物(PM2.5),78,63,53,57,46,19,,28,26,22,19,8,8,0.8,0.7
2026-01-22T2200,2902A,106.6347,30.4868,广安市,北辰小学,细颗粒物(PM2.5),77,59,52,56,45,24,,32,31,18,17,4,4,1.1,1
2026-01-22T2200,2524A,105.8211,32.4444,广元市,老城,细颗粒物(PM2.5),59,61,43,42,28,34,,46,44,26,26,1,2,0.9,0.7
2026-01-22T2200,2526A,105.8629,32.429,广元市,监测站,细颗粒物(PM2.5),64,60,42,46,28,24,,42,39,28,23,9,6,1.1,0.7
2026-01-22T2200,3617A,105.8047,32.4167,广元市,经开区,细颗粒物(PM2.5),55,51,41,39,29,34,,43,42,17,23,3,3,0.8,0.7
2026-01-22T2200,1345A,113.2346,23.1423,广州市,广雅中学,,39,39,35,23,20,18,,32,20,33,28,2,4,0.3,0.3
2026-01-22T2200,1346A,113.2611,23.105,广州市,市五中,,38,38,36,22,22,28,,40,28,31,29,9,9,/,/
2026-01-22T2200,1348A,113.3477,23.0916,广州市,广东商学院,,37,37,31,22,17,24,,35,28,9,8,5,5,0.6,0.5
2026-01-22T2200,1349A,113.4332,23.105,广州市,市八十六中,,30,30,30,20,20,26,,32,30,21,21,7,7,/,/
2026-01-22T2200,1350A,113.3506,22.9488,广州市,番禺中学,,43,43,39,24,20,18,,34,28,30,23,3,3,0.6,0.5
2026-01-22T2200,1351A,113.2147,23.3918,广州市,花都师范,,,,31,33,21,19,,37,23,23,22,7,8,0.7,0.6
2026-01-22T2200,1352A,113.2599,23.1329,广州市,市监测站,,,36,24,24,22,25,,37,25,,26,2,3,/,/
2026-01-22T2200,1353A,113.5618,23.3119,广州市,九龙镇镇龙,,26,26,25,15,13,27,,36,33,18,16,4,4,0.5,0.5
2026-01-22T2200,1354A,113.2764,23.1544,广州市,麓湖,,35,35,33,24,21,22,,33,24,21,21,10,10,0.9,0.7
2026-01-22T2200,2846A,113.3209,23.1323,广州市,体育西,,40,40,33,25,18,20,,32,25,23,21,6,7,0.7,0.6
2026-01-22T2200,3298A,113.5718,23.5493,广州市,从化街口,,,16,21,9,12,,,42,36,10,12,8,8,0.4,0.6
2026-01-22T2200,3299A,113.3463,23.369,广州市,白云竹料,,35,35,32,22,17,28,,44,31,17,16,4,5,0.7,0.6
2026-01-22T2200,3300A,113.2981,23.2365,广州市,白云嘉禾,,34,34,31,19,16,28,,42,30,22,21,5,6,/,/
2026-01-22T2200,3301A,113.4256,23.1716,广州市,黄埔科学城,,33,33,31,19,18,26,,39,32,22,19,6,6,0.5,0.8
2026-01-22T2200,3302A,113.3942,23.0485,广州市,番禺大学城,,34,34,31,16,16,26,,38,32,20,20,5,6,0.6,0.6
2026-01-22T2200,3303A,113.4923,22.8169,广州市,南沙黄阁,,30,24,24,21,19,15,,30,23,34,30,6,7,/,/
2026-01-22T2200,3304A,113.534,22.7893,广州市,南沙街,,48,48,41,21,19,11,,28,20,32,28,8,8,0.9,0.7
2026-01-22T2200,3443A,113.2905,23.5541,广州市,花都梯面,,32,32,28,22,17,25,,37,30,13,11,4,8,/,/
2026-01-22T2200,3445A,113.786,23.7479,广州市,从化良口,,20,20,19,13,12,28,,35,33,12,11,7,7,/,/
2026-01-22T2200,3446A,113.805,23.2614,广州市,增城荔城,,20,20,22,13,14,24,,32,27,15,13,7,6,0.6,0.5
2026-01-22T2200,2506A,109.604387,23.066791,贵港市,江南子站,,48,48,26,32,15,26,,35,33,13,8,4,4,0.6,0.6
2026-01-22T2200,2508A,109.5669,23.1065,贵港市,荷城子站,,39,34,27,27,20,27,,33,31,17,15,4,4,0.9,0.8
2026-01-22T2200,3405A,109.5886,23.1172,贵港市,新世纪学校,,44,44,31,28,20,30,,34,32,14,13,/,/,0.4,0.4
2026-01-22T2200,4260A,109.5933,23.095,贵港市,中山路155-3号,,43,36,23,30,20,30,,36,34,15,12,/,/,0.8,0.7
2026-01-22T2200,1439A,106.6863,26.6035,贵阳市,马鞍山,,42,31,26,29,22,47,,44,44,15,13,12,8,/,/
2026-01-22T2200,1441A,106.6241,26.6266,贵阳市,鉴湖路,,41,41,34,27,22,43,,45,38,17,14,5,4,0.8,0.6
2026-01-22T2200,1442A,106.7468,26.6344,贵阳市,燕子冲,,42,,14,29,28,62,,54,54,9,11,10,9,0.7,0.8
2026-01-22T2200,1443A,106.6556,26.4362,贵阳市,碧云窝,,42,39,38,29,22,43,,62,61,25,15,12,6,/,/
2026-01-22T2200,1445A,106.6963,26.6063,贵阳市,红边门,,35,31,27,24,25,53,,48,48,15,13,14,8,/,/
2026-01-22T2200,1446A,106.7162383,26.56964667,贵阳市,新华路,,44,44,34,24,19,47,,48,48,20,15,6,5,0.4,0.5
2026-01-22T2200,1447A,106.6742,26.542,贵阳市,太慈桥,,39,31,31,27,22,42,,48,44,26,18,8,6,/,/
2026-01-22T2200,4230A,106.688212,26.56952,贵阳市,花果园大街66号,,50,,22,35,29,34,,38,35,22,17,5,5,/,/
2026-01-22T2200,4231A,106.687268,26.516892,贵阳市,漓江路57号,,35,31,32,24,23,32,,40,39,26,16,8,10,0.6,0.5
2026-01-22T2200,1864A,110.3091,25.2705,桂林市,龙隐路小学,细颗粒物(PM2.5),60,,21,43,27,46,,50,49,10,8,6,6,0.7,0.6
2026-01-22T2200,1865A,110.2849361,25.22909545,桂林市,八中,细颗粒物(PM2.5),58,,27,41,25,40,,44,44,16,12,7,7,0.5,0.8
2026-01-22T2200,3531A,110.296,25.1254,桂林市,旅游学院,,,,,24,17,48,,53,52,7,6,4,4,0.4,0.3
2026-01-22T2200,4222A,110.1835,25.2444,桂林市,环湖路276号,,42,,24,29,25,46,,51,51,8,5,6,7,0.6,0.5
2026-01-22T2200,4301A,110.2803,25.2773,桂林市,信义路13号,,46,,22,32,21,44,,49,48,14,10,4,4,0.8,0.7
2026-01-22T2200,2674A,100.2262,34.4854,果洛藏族自治州,玛沁县大武镇,颗粒物(PM10),57,64,55,26,10,49,,84,78,12,5,15,16,0.6,0.4
2026-01-22T2200,1130A,126.5557,45.8109,哈尔滨市,松北商大,,46,46,38,29,26,42,,57,46,27,25,9,8,0.6,0.6
2026-01-22T2200,1132A,126.6162,45.719,哈尔滨市,南岗学府路,颗粒物(PM10),57,63,45,35,28,27,,55,44,35,23,10,10,0.8,0.6
2026-01-22T2200,1133A,126.6894,45.7733,哈尔滨市,太平宏伟公园,,35,31,38,24,22,36,,64,56,35,18,18,21,0.6,0.6
2026-01-22T2200,1134A,126.6361,45.7672,哈尔滨市,道外承德广场,颗粒物(PM10),54,58,46,27,22,19,,65,48,60,25,10,11,0.5,0.2
2026-01-22T2200,1136A,126.644,45.7261,哈尔滨市,动力和平路,颗粒物(PM10),52,53,40,27,24,26,,58,47,38,24,10,12,0.9,0.6
2026-01-22T2200,1137A,126.5933,45.7479,哈尔滨市,道里建国路,,,55,42,45,27,24,,57,42,,23,10,12,0.9,0.3
2026-01-22T2200,1138A,126.6127,45.6119,哈尔滨市,平房东轻厂,细颗粒物(PM2.5),62,68,43,44,30,32,,55,34,39,36,11,11,1.0,0.9
2026-01-22T2200,1139A,126.5875,45.9827,哈尔滨市,呼兰师专,,40,37,47,28,43,40,,54,45,24,22,16,11,0.6,0.7
2026-01-22T2200,1140A,126.6299,45.6799,哈尔滨市,省农科院,细颗粒物(PM2.5),54,43,61,38,48,23,,53,35,42,39,14,15,0.7,0.8
2026-01-22T2200,4282A,126.6769,45.7379,哈尔滨市,华山路1号,细颗粒物(PM2.5),60,63,40,43,22,22,,56,41,48,28,33,38,0.5,0.3
2026-01-22T2200,4283A,126.9717,45.5356,哈尔滨市,解放大街52号,细颗粒物(PM2.5),97,81,57,72,47,35,,60,50,30,22,13,14,0.8,0.6
2026-01-22T2200,2688A,93.5124,42.8176,哈密市,地区监测站,颗粒物(PM10),82,113,104,43,45,17,,44,38,32,24,8,8,0.6,0.5
2026-01-22T2200,2689A,93.5014,42.8312,哈密市,哈密师范学校,颗粒物(PM10),74,97,99,32,34,24,,25,,35,35,5,5,0.8,1
2026-01-22T2200,2671A,100.9016,36.9464,海北藏族自治州,海晏县西海镇,,23,22,26,16,13,66,,90,84,2,2,8,7,0.4,0.4
2026-01-22T2200,3867A,102.074,36.5056,海东市,平安区公安局北苑,颗粒物(PM10),73,96,71,43,46,56,,64,63,25,23,44,20,1.1,1.1
2026-01-22T2200,4163A,102.0984,36.5119,海东市,滨河路,细颗粒物(PM2.5),89,106,76,66,48,43,,69,54,53,41,47,23,1.0,1
2026-01-22T2200,1410A,110.3189,20.0596,海口市,海南大学,,43,43,48,26,26,93,,73,73,12,15,6,6,0.5,0.4
2026-01-22T2200,1411A,110.2827,20.0051,海口市,秀英海南医院,,41,41,45,23,24,91,,66,66,12,16,8,8,0.5,0.5
2026-01-22T2200,1412A,110.3391,19.9979,海口市,海南师范大学,,40,40,43,24,27,94,,72,72,14,17,6,6,0.6,0.6
2026-01-22T2200,1413A,110.3303,20.0359,海口市,龙华路环保局宿舍,,40,40,42,25,26,95,,73,73,12,17,/,/,0.7,0.7
2026-01-22T2200,3539A,110.5111,19.9737,海口市,桂林洋子站,,42,42,44,26,26,92,,71,71,11,17,/,/,/,/
2026-01-22T2200,4134A,110.1952,20.0451,海口市,长滨二路9号,,39,39,46,26,28,90,,70,70,10,13,/,/,/,/
2026-01-22T2200,2673A,100.6158,36.2985,海南藏族自治州,共和县恰卜恰镇,,41,41,35,20,18,10,,88,66,47,19,18,12,0.7,0.6
2026-01-22T2200,2676A,97.373,37.376,海西蒙古族藏族自治州,德令哈市,,38,38,40,12,11,76,,94,89,8,5,17,16,0.7,0.3
2026-01-22T2200,1049A,114.492,36.5712,邯郸市,矿院,细颗粒物(PM2.5),115,90,98,87,95,66,,70,69,29,29,3,6,0.6,0.8
2026-01-22T2200,1050A,114.4839,36.6136,邯郸市,丛台公园,细颗粒物(PM2.5),107,88,103,80,96,76,,75,75,24,29,1,5,0.6,0.8
2026-01-22T2200,3458A,114.7893,36.5592,邯郸市,香泉濮院小区,细颗粒物(PM2.5),94,102,105,70,94,73,,79,79,26,23,4,5,0.7,0.8
2026-01-22T2200,3580A,114.1998,36.4439,邯郸市,峰峰矿区临水派出所,细颗粒物(PM2.5),108,91,95,81,86,72,,74,73,24,26,6,12,0.9,1.2
2026-01-22T2200,4068A,114.5209,36.7697,邯郸市,建安街268号,细颗粒物(PM2.5),123,103,105,93,99,41,,55,40,49,46,4,8,0.7,0.9
2026-01-22T2200,4069A,114.5488,36.6177,邯郸市,丛台东路558号,细颗粒物(PM2.5),143,112,102,109,102,26,,71,63,59,33,3,8,0.8,0.8
2026-01-22T2200,2635A,107.0155,33.0707,汉中市,市监测站,细颗粒物(PM2.5),68,,46,49,41,41,,56,53,22,20,5,5,0.8,0.7
2026-01-22T2200,2636A,107.0083,33.114,汉中市,鑫源开发区,细颗粒物(PM2.5),72,54,41,52,40,42,,62,57,21,18,4,4,0.7,0.5
2026-01-22T2200,2637A,107.0072,33.0323,汉中市,南郑大河坎水厂,细颗粒物(PM2.5),87,78,61,64,50,19,,57,48,36,20,6,4,0.9,0.8
2026-01-22T2200,1223A,120.2073,30.2111,杭州市,滨江,细颗粒物(PM2.5),72,73,55,52,40,19,,57,46,67,35,7,6,0.6,0.5
2026-01-22T2200,1224A,120.0625,30.2737,杭州市,西溪,"颗粒物(PM10),细颗粒物(PM2.5)",53,56,53,37,36,0,,55,39,63,33,8,9,0.5,0.5
2026-01-22T2200,1226A,120.3417,30.315,杭州市,下沙,颗粒物(PM10),56,62,50,39,36,1,,63,37,87,35,9,8,0.7,0.6
2026-01-22T2200,1227A,120.1252,30.2465,杭州市,卧龙桥,颗粒物(PM10),51,51,54,35,37,17,,54,40,36,29,9,10,0.4,0.4
2026-01-22T2200,1228A,120.1902,30.2691,杭州市,浙江农大,细颗粒物(PM2.5),63,64,54,45,41,15,,57,45,75,40,6,6,0.6,0.6
2026-01-22T2200,1230A,120.1195,30.3121,杭州市,和睦小学,颗粒物(PM10),60,69,54,41,38,7,,56,44,76,32,6,6,0.8,0.7
2026-01-22T2200,1231A,120.3076,30.4146,杭州市,临平镇,细颗粒物(PM2.5),72,70,52,52,37,13,,70,52,57,19,7,7,0.7,0.6
2026-01-22T2200,1232A,120.2753,30.1839,杭州市,城厢镇,细颗粒物(PM2.5),68,64,50,49,38,20,,66,47,61,28,8,8,0.4,0.7
2026-01-22T2200,1233A,120.0883,30.1808,杭州市,云栖,颗粒物(PM10),53,55,56,34,38,22,,52,40,31,27,3,3,0.5,0.5
2026-01-22T2200,3557A,119.9463,30.0496,杭州市,镇二中,细颗粒物(PM2.5),79,,53,58,45,18,,53,40,53,33,4,5,0.7,0.7
2026-01-22T2200,3558A,119.7184,30.2367,杭州市,市府大楼,细颗粒物(PM2.5),70,84,54,51,40,20,,63,50,37,21,10,11,1.1,0.9
2026-01-22T2200,3656A,120.1554,30.2863,杭州市,消防大队,细颗粒物(PM2.5),64,65,52,46,40,1,,56,42,84,33,7,7,0.5,0.4
2026-01-22T2200,1270A,117.1957,31.7845,合肥市,明珠广场,颗粒物(PM10),64,78,46,44,27,2,,64,45,82,29,6,7,1.2,0.9
2026-01-22T2200,1271A,117.307,31.8765,合肥市,三里街,颗粒物(PM10),60,70,46,36,30,13,,61,45,72,32,7,8,0.9,0.7
2026-01-22T2200,1272A,117.2587,31.8703,合肥市,琥珀山庄,细颗粒物(PM2.5),69,70,48,50,34,9,,69,53,96,27,8,10,1.3,0.7
2026-01-22T2200,1275A,117.2593,31.9376,合肥市,庐阳区,颗粒物(PM10),62,73,50,41,29,34,,63,53,57,32,7,6,0.9,0.8
2026-01-22T2200,1276A,117.345251,31.861615,合肥市,瑶海区,颗粒物(PM10),56,61,44,37,29,32,,66,55,57,29,4,6,0.5,0.4
2026-01-22T2200,1277A,117.3033,31.7967,合肥市,包河区,颗粒物(PM10),79,107,48,56,33,3,,70,49,124,37,12,7,0.9,0.6
2026-01-22T2200,1278A,117.278,31.7392,合肥市,滨湖新区,细颗粒物(PM2.5),70,61,39,51,33,11,,74,62,68,23,4,4,0.8,0.7
2026-01-22T2200,1279A,117.1324,31.8395,合肥市,高新区,颗粒物(PM10),56,61,42,38,25,18,,68,48,75,32,5,5,0.8,0.5
2026-01-22T2200,3464A,117.3802,31.9148,合肥市,高教基地,细颗粒物(PM2.5),80,63,46,59,38,9,,65,50,56,25,7,10,0.8,0.6
2026-01-22T2200,4098A,117.2518,31.8404,合肥市,中国科学技术大学,颗粒物(PM10),59,68,40,37,25,29,,70,61,52,21,9,10,0.8,0.5
2026-01-22T2200,3614A,79.9241,37.0878,和田地区,地区环保局,颗粒物(PM10),500,1277,1341,297,302,36,,51,48,21,20,3,3,0.1,0.5
2026-01-22T2200,3615A,79.9132,37.1137,和田地区,市环保局,颗粒物(PM10),500,1460,1429,272,282,49,,58,57,13,17,2,3,1.2,0.6
2026-01-22T2200,2517A,108.0496,24.6957,河池市,市环保站,,20,19,13,14,9,43,,63,58,10,8,27,4,0.7,0.6
2026-01-22T2200,4302A,108.0901,24.6945,河池市,上任中路54号,,48,,27,33,18,25,,53,44,22,8,7,5,0.5,0.5
2026-01-22T2200,1697A,114.6962,23.7538,河源市,东埔,,28,24,23,19,18,19,,28,25,18,14,5,5,0.4,0.4
2026-01-22T2200,1698A,114.6895,23.7232,河源市,老城,,,26,24,18,14,20,,29,26,16,13,5,5,,0.6
2026-01-22T2200,3374A,115.5562,35.089,菏泽市,定陶老年大学,细颗粒物(PM2.5),85,78,80,63,61,67,,104,96,28,21,4,5,0.5,0.3
2026-01-22T2200,4114A,115.4239,35.2593,菏泽市,黄河路600号,细颗粒物(PM2.5),87,73,85,64,71,88,,107,105,19,24,5,4,0.6,0.7
2026-01-22T2200,4115A,115.5025,35.2727,菏泽市,菏泽市人社局,细颗粒物(PM2.5),74,67,77,54,60,82,,98,97,17,20,9,9,0.5,0.5
2026-01-22T2200,4184A,115.479691,35.244011,菏泽市,永昌路1号,细颗粒物(PM2.5),87,67,83,64,66,84,,103,102,17,22,5,5,0.3,0.3
2026-01-22T2200,4193A,115.471542,35.280012,菏泽市,长城路999号,细颗粒物(PM2.5),70,66,78,51,57,88,,102,102,17,20,13,12,0.5,0.6
2026-01-22T2200,2514A,111.5264,24.4178,贺州市,环保小区,,33,33,25,21,19,30,,31,29,13,12,3,2,0.5,0.4
2026-01-22T2200,2515A,111.561,24.4074,贺州市,政协大楼,,30,30,25,6,15,27,,32,28,14,11,9,9,0.5,0.5
2026-01-22T2200,3534A,111.4744,24.455,贺州市,西湾,,32,31,26,22,17,32,,32,30,15,15,7,7,0.6,0.6
2026-01-22T2200,2385A,114.17,35.9019,鹤壁市,市监测站,细颗粒物(PM2.5),133,116,132,101,111,59,,71,70,31,28,7,5,0.8,1
2026-01-22T2200,2386A,114.2953,35.7512,鹤壁市,市交警支队,细颗粒物(PM2.5),118,109,127,89,109,59,,66,66,33,38,4,8,0.7,0.8
2026-01-22T2200,2387A,114.2877,35.7302,鹤壁市,迎宾馆,细颗粒物(PM2.5),112,91,125,84,105,59,,74,72,32,38,6,6,0.8,0.9
2026-01-22T2200,3474A,114.2616,35.6824,鹤壁市,大新区,细颗粒物(PM2.5),83,84,119,61,105,47,,74,69,44,45,4,6,0.7,0.8
2026-01-22T2200,3596A,114.1573,35.9607,鹤壁市,南山宾馆,细颗粒物(PM2.5),144,131,129,110,104,61,,78,76,30,27,4,6,0.8,0.9
2026-01-22T2200,2244A,130.2537,47.3416,鹤岗市,哈啤分公司,,25,23,22,11,13,78,,80,78,5,6,6,6,0.2,0.3
2026-01-22T2200,2245A,130.2683,47.3087,鹤岗市,斯达机电,,23,22,25,14,12,72,,72,71,6,6,6,6,0.4,0.4
2026-01-22T2200,2246A,130.3114,47.3388,鹤岗市,东山纸板厂,,26,26,23,7,13,74,,75,75,4,6,8,8,0.4,0.5
2026-01-22T2200,2263A,127.4832,50.2524,黑河市,交通局,,35,,18,24,15,48,,73,58,29,12,6,5,0.4,0.2
2026-01-22T2200,2264A,127.5146,50.2339,黑河市,环保局,,24,24,12,13,14,71,,71,66,10,11,4,4,0.3,0.4
2026-01-22T2200,1074A,115.6839,37.754,衡水市,电机北厂,细颗粒物(PM2.5),198,171,110,148,87,3,,72,61,90,39,10,11,1.1,0.8
2026-01-22T2200,1075A,115.6303,37.7318,衡水市,市监测站,细颗粒物(PM2.5),172,159,108,130,84,42,,70,63,39,42,8,10,1.1,0.9
2026-01-22T2200,3188A,115.6684,37.7216,衡水市,市城管局,细颗粒物(PM2.5),159,169,109,121,78,42,,75,66,45,42,8,9,1.0,0.8
2026-01-22T2200,3459A,115.599,37.5491,衡水市,地表水厂,细颗粒物(PM2.5),195,161,103,146,95,4,,74,44,109,52,21,11,1.2,0.8
2026-01-22T2200,2457A,112.6209,26.9268,衡阳市,衡阳化工总厂,细颗粒物(PM2.5),95,,49,71,50,21,,49,35,30,17,8,8,1.1,0.9
2026-01-22T2200,2458A,112.621,26.8957,衡阳市,珠晖区环保局,细颗粒物(PM2.5),72,64,53,52,47,33,,44,34,24,22,4,4,0.8,0.8
2026-01-22T2200,2459A,112.628,26.8654,衡阳市,市委党校,细颗粒物(PM2.5),87,,46,64,53,30,,48,33,19,17,10,10,0.9,0.9
2026-01-22T2200,2460A,112.6007,26.8977,衡阳市,市监测站,颗粒物(PM10),66,82,60,47,45,31,,49,35,25,15,6,5,0.8,0.9
2026-01-22T2200,2461A,112.5658,26.9013,衡阳市,真空机电公司,细颗粒物(PM2.5),70,71,54,51,41,31,,52,34,27,19,6,6,0.9,0.8
2026-01-22T2200,3399A,112.6703,26.8817,衡阳市,师范学院,细颗粒物(PM2.5),74,80,59,54,46,29,,52,38,22,14,2,2,1.2,1.2
2026-01-22T2200,3038A,103.3757,23.3679,红河哈尼族彝族自治州,州图书馆,,13,12,19,9,13,40,,60,56,11,9,6,6,0.8,0.7
2026-01-22T2200,4154A,103.401,23.3561,红河哈尼族彝族自治州,蒙自市朝阳路,,18,12,15,12,16,42,,64,57,9,7,6,6,0.7,0.6
2026-01-22T2200,1090A,111.6506,40.7517,呼和浩特市,呼市一监,细颗粒物(PM2.5),99,127,69,74,38,0,,41,27,64,45,16,15,1.5,1
2026-01-22T2200,1094A,111.7516,40.8369,呼和浩特市,如意水处理厂,"颗粒物(PM10),细颗粒物(PM2.5)",70,90,55,51,21,2,,44,25,66,47,13,14,1.4,1.1
2026-01-22T2200,1095A,111.727798,40.806187,呼和浩特市,二十九中,颗粒物(PM10),75,99,57,51,30,4,,44,30,68,44,17,16,1.1,0.8
2026-01-22T2200,1097A,111.717,40.7617,呼和浩特市,化肥厂生活区,细颗粒物(PM2.5),82,99,60,60,34,3,,44,32,72,45,13,9,1.4,0.9
2026-01-22T2200,3699A,111.6519,40.8389,呼和浩特市,海东办,颗粒物(PM10),67,83,66,45,35,2,,38,24,63,46,9,12,1.1,0.9
2026-01-22T2200,4275A,111.591512,40.827312,呼和浩特市,成吉思汗西街8号,颗粒物(PM10),58,66,65,35,33,6,,36,25,65,50,10,13,0.8,0.9
2026-01-22T2200,4276A,111.6597,40.8077,呼和浩特市,公园东路75号,细颗粒物(PM2.5),77,100,62,56,37,7,,40,28,70,50,12,10,1.2,1
2026-01-22T2200,4277A,111.5427,40.7846,呼和浩特市,金海路35号,颗粒物(PM10),63,76,64,34,33,1,,38,24,59,46,12,14,0.9,0.9
2026-01-22T2200,3061A,119.7511,49.1576,呼伦贝尔市,国华电力东,,32,32,23,19,13,56,,62,56,16,13,6,7,0.4,0.4
2026-01-22T2200,4279A,119.7569,49.2222,呼伦贝尔市,伊敏大街东7号,,33,28,26,23,14,49,,57,53,17,13,8,8,0.4,0.3
2026-01-22T2200,1250A,120.075,30.867,湖州市,城西水厂,,50,50,41,33,28,20,,76,60,62,25,6,6,0.4,0.4
2026-01-22T2200,2873A,120.083,30.8929,湖州市,仁皇山新区,,50,47,43,35,31,25,,76,60,60,30,5,6,0.7,0.6
2026-01-22T2200,2907A,120.1846,30.8592,湖州市,吴兴区站,细颗粒物(PM2.5),55,53,42,39,30,35,,72,62,43,24,6,5,0.6,0.3
2026-01-22T2200,3562A,120.4146,30.8538,湖州市,南浔区站,细颗粒物(PM2.5),57,52,42,40,30,36,,70,58,46,24,7,7,0.9,0.8
2026-01-22T2200,1607A,120.904878,40.721091,葫芦岛市,龙港区,颗粒物(PM10),70,89,71,38,50,35,,64,54,34,37,20,16,1.5,1.1
2026-01-22T2200,1608A,120.8382,40.7521,葫芦岛市,化工街,细颗粒物(PM2.5),120,153,79,91,48,12,,62,45,86,46,47,42,2.1,1
2026-01-22T2200,1609A,120.8339,40.7078,葫芦岛市,新区,细颗粒物(PM2.5),67,57,52,48,37,6,,62,47,72,47,16,20,2.0,1.2
2026-01-22T2200,1610A,120.8697,40.7679,葫芦岛市,东城区,颗粒物(PM10),125,199,74,83,52,11,,59,39,65,46,67,41,2.2,1.3
2026-01-22T2200,2483A,109.9297,27.5383,怀化市,河西地税局,细颗粒物(PM2.5),97,102,61,72,48,22,,72,59,35,17,3,5,/,/
2026-01-22T2200,2484A,109.9783,27.5342,怀化市,市四医院,细颗粒物(PM2.5),74,76,59,54,45,38,,72,66,22,13,7,6,0.7,0.6
2026-01-22T2200,2485A,109.9971,27.5579,怀化市,监测楼,细颗粒物(PM2.5),88,85,55,65,43,37,,81,74,28,12,3,4,0.5,0.2
2026-01-22T2200,1210A,119.0566,33.5991,淮安市,钵池山,细颗粒物(PM2.5),65,61,53,47,40,42,,67,61,34,25,8,10,0.5,0.5
2026-01-22T2200,1211A,119.0083,33.578,淮安市,北京南路,细颗粒物(PM2.5),60,63,62,43,37,10,,61,42,65,39,8,10,0.8,0.6
2026-01-22T2200,1212A,118.9938,33.6083,淮安市,市监测站,细颗粒物(PM2.5),58,53,49,41,42,8,,71,53,67,39,9,11,1.1,0.7
2026-01-22T2200,1213A,119.135,33.5038,淮安市,楚州区监测站,细颗粒物(PM2.5),75,81,59,55,42,19,,67,53,53,39,9,11,0.6,0.4
2026-01-22T2200,3426A,118.8757,33.2897,淮安市,新华书店,细颗粒物(PM2.5),70,61,56,51,45,14,,66,41,76,35,12,10,0.7,0.7
2026-01-22T2200,4092A,119.119691,33.550006,淮安市,枚皋中路89号,细颗粒物(PM2.5),60,48,57,43,43,42,,75,66,25,32,7,10,0.4,0.8
2026-01-22T2200,4206A,119.028838,33.631911,淮安市,承德北路606号,颗粒物(PM10),78,105,67,45,41,8,,69,52,78,37,8,9,1.0,0.7
2026-01-22T2200,2282A,116.8005,33.9749,淮北市,监测站,,,,90,,65,,,96,93,,26,,7,,0.7
2026-01-22T2200,2283A,116.8094,33.9008,淮北市,烈山区政府,细颗粒物(PM2.5),83,83,103,61,82,60,,97,90,33,41,7,6,0.5,0.6
2026-01-22T2200,4017A,116.7926,33.9534,淮北市,市博物馆,细颗粒物(PM2.5),80,87,95,59,72,68,,95,89,30,25,10,9,0.5,0.6
2026-01-22T2200,4100A,116.8322,33.9884,淮北市,杜集区第一实验学校,细颗粒物(PM2.5),72,72,86,52,66,78,,106,98,23,22,9,9,0.5,0.6
2026-01-22T2200,2277A,116.8304,32.7726,淮南市,潘集区政府,细颗粒物(PM2.5),88,72,71,65,58,58,,91,73,23,25,7,7,0.5,0.7
2026-01-22T2200,2279A,116.8569,32.5949,淮南市,谢家集区政府,颗粒物(PM10),53,56,51,33,26,59,,82,73,24,23,11,10,0.6,0.5
2026-01-22T2200,2280A,116.8279,32.6333,淮南市,八公山区政府,细颗粒物(PM2.5),60,57,45,43,33,56,,80,75,28,24,9,7,0.7,0.5
2026-01-22T2200,2894A,117.0561,32.6536,淮南市,经济技术开发区消防队,颗粒物(PM10),69,88,62,40,41,5,,77,57,82,38,6,7,0.9,0.6
2026-01-22T2200,3329A,117.011,32.5891,淮南市,山南新区,颗粒物(PM10),55,59,58,37,32,65,,81,74,25,30,9,10,0.8,0.7
2026-01-22T2200,4209A,117.003137,32.644456,淮南市,国庆中路369号,细颗粒物(PM2.5),67,66,49,48,40,43,,72,62,38,30,8,7,0.8,0.6
2026-01-22T2200,2446A,114.9021,30.474,黄冈市,职工中心,细颗粒物(PM2.5),80,78,65,59,46,59,,82,77,27,15,7,8,1.0,1.2
2026-01-22T2200,2929A,114.8858,30.4519,黄冈市,红卫路,细颗粒物(PM2.5),82,78,71,60,57,31,,78,67,54,20,7,9,0.9,0.7
2026-01-22T2200,3398A,114.9134,30.4446,黄冈市,市林业局,细颗粒物(PM2.5),85,69,64,63,58,60,,82,80,29,18,4,4,0.7,0.7
2026-01-22T2200,2672A,102.02,35.5101,黄南藏族自治州,同仁县隆务镇,,44,44,55,18,31,53,,72,66,4,8,11,11,0.5,0.5
2026-01-22T2200,2295A,118.2905,29.6965,黄山市,延安路89号,,43,36,44,30,36,37,,81,66,18,13,4,5,0.6,0.6
2026-01-22T2200,2297A,118.1369,30.2755,黄山市,黄山区政府5号楼,,46,33,53,32,41,27,,79,62,17,17,2,3,0.6,0.7
2026-01-22T2200,4210A,118.335445,29.720283,黄山市,滨江东路7-2号,细颗粒物(PM2.5),54,48,57,38,48,48,,80,69,16,16,/,/,/,/
2026-01-22T2200,2423A,115.0547,30.2332,黄石市,沈家营,细颗粒物(PM2.5),90,88,73,67,55,46,,56,43,9,15,6,7,1.4,1.5
2026-01-22T2200,2426A,114.899,30.211,黄石市,铁山,细颗粒物(PM2.5),107,,66,80,72,43,,81,68,14,17,5,7,0.8,0.9
2026-01-22T2200,2427A,115.0259,30.2108,黄石市,团城山,细颗粒物(PM2.5),94,87,67,70,62,77,,79,79,12,12,7,6,0.9,0.8
2026-01-22T2200,3149A,115.0174,30.1591,黄石市,笔架山北路,细颗粒物(PM2.5),95,105,92,71,62,42,,69,64,18,17,7,7,1.2,1.2
2026-01-22T2200,4185A,115.078022,30.21118,黄石市,磁湖东路29号,细颗粒物(PM2.5),107,81,71,80,68,43,,75,70,35,19,7,6,1.5,1.3
2026-01-22T2200,1392A,114.4181,23.0528,惠州市,河南岸金山湖子站,,26,26,32,15,18,26,,30,27,15,16,3,4,0.7,0.7
2026-01-22T2200,1393A,114.4055,23.0824,惠州市,下埔横江三路子站,,25,25,30,15,19,22,,28,26,18,15,6,6,0.7,0.7
2026-01-22T2200,1395A,114.4645,22.7832,惠州市,惠阳区承修路船湖子站,,32,32,38,20,24,19,,33,28,19,16,7,7,0.6,0.6
2026-01-22T2200,1396A,114.5316,22.7423,惠州市,大亚湾管委会子站,,32,32,36,15,19,20,,33,28,14,13,5,5,0.5,0.5
2026-01-22T2200,3314A,114.4334,22.8134,惠州市,惠阳秋长,,29,29,34,17,22,25,,36,31,16,16,/,/,/,/
2026-01-22T2200,3452A,114.6521,22.7755,惠州市,大亚湾霞涌,,30,30,33,16,22,24,,38,34,15,15,/,/,/,/
2026-01-22T2200,4300A,114.4089,23.1147,惠州市,文华一路1号,,26,26,31,17,21,20,,27,24,22,18,/,/,/,/
2026-01-22T2200,2240A,130.9618,45.2926,鸡西市,环保局,,26,26,25,15,16,61,,67,63,9,8,6,6,0.2,0.2
2026-01-22T2200,2243A,130.9294,45.2959,鸡西市,第一中学,,33,28,20,23,14,65,,70,68,8,7,3,3,0.4,0.3
2026-01-22T2200,3707A,131.0069,45.2988,鸡西市,欧美日汽修厂,,35,25,29,24,21,64,,68,65,6,7,6,6,0.2,0.3
2026-01-22T2200,2367A,114.9753,27.0803,吉安市,红声器材厂,细颗粒物(PM2.5),65,72,54,47,32,32,,48,44,23,19,12,10,0.7,0.4
2026-01-22T2200,2369A,114.9903,27.1313,吉安市,市环境监测站,细颗粒物(PM2.5),63,60,47,45,33,39,,53,49,14,11,16,10,/,/
2026-01-22T2200,2370A,115.009527,27.096792,吉安市,青原区法院,细颗粒物(PM2.5),69,69,49,50,34,37,,46,42,20,18,11,12,0.8,0.7
2026-01-22T2200,1772A,126.54,43.8622,吉林市,哈达湾,,30,30,30,20,19,63,,71,68,16,11,7,17,0.8,0.7
2026-01-22T2200,1773A,126.5843,43.8358,吉林市,东局子,,40,36,31,28,21,44,,62,58,28,17,5,4,0.8,0.7
2026-01-22T2200,1774A,126.5051,43.8243,吉林市,电力学院,,38,33,28,26,21,55,,72,67,22,13,7,6,0.7,0.6
2026-01-22T2200,1775A,126.6133,43.8971,吉林市,江北,,44,44,32,28,20,52,,63,58,17,14,9,10,0.8,0.9
2026-01-22T2200,1776A,126.5549,43.8304,吉林市,江南公园,细颗粒物(PM2.5),57,43,28,40,22,42,,67,63,31,10,11,7,0.7,0.6
2026-01-22T2200,2868A,126.4737,43.953,吉林市,九站,,33,26,28,23,22,62,,65,59,18,17,4,6,0.6,0.6
2026-01-22T2200,1299A,116.9866,36.6118,济南市,科干所,颗粒物(PM10),56,61,59,37,32,67,,75,73,22,17,13,11,0.5,0.5
2026-01-22T2200,1300A,116.9379,36.6652,济南市,农科所,颗粒物(PM10),55,59,56,34,29,67,,68,66,29,32,9,12,0.7,0.8
2026-01-22T2200,1301A,117.1265,36.6736,济南市,开发区,细颗粒物(PM2.5),55,54,55,39,37,72,,79,73,27,32,6,7,0.6,0.7
2026-01-22T2200,1303A,117.0616,36.6865,济南市,省种子仓库,,,66,65,39,37,61,,78,68,32,36,10,9,,0.8
2026-01-22T2200,1304A,116.9495185,36.644937,济南市,机床二厂,细颗粒物(PM2.5),59,59,62,42,38,74,,74,73,27,34,13,18,0.5,0.6
2026-01-22T2200,1305A,117.0496,36.6629,济南市,市监测站,"颗粒物(PM10),细颗粒物(PM2.5)",53,56,56,37,32,64,,75,68,26,29,8,8,0.6,0.7
2026-01-22T2200,1306A,116.7674,36.5458,济南市,长清党校,"颗粒物(PM10),细颗粒物(PM2.5)",53,56,59,37,36,74,,73,73,32,42,8,9,0.7,0.7
2026-01-22T2200,1961A,117.5323,36.6865,济南市,东山小学,颗粒物(PM10),53,56,60,32,35,71,,74,72,24,31,7,7,0.4,0.4
2026-01-22T2200,3059A,117.7181,36.205,济南市,泰兴公司,细颗粒物(PM2.5),64,63,73,46,51,60,,71,65,30,45,8,9,0.8,1
2026-01-22T2200,3064A,117.6861,36.2172,济南市,莱芜战役纪念馆,细颗粒物(PM2.5),65,63,72,47,50,62,,73,70,29,36,12,11,0.9,1.2
2026-01-22T2200,3494A,117.1673,36.9782,济南市,济阳区政府,颗粒物(PM10),63,76,79,37,38,42,,66,58,55,53,8,10,0.7,0.8
2026-01-22T2200,3495A,117.1168,36.6299,济南市,锦屏中学,颗粒物(PM10),59,68,49,32,30,83,,81,75,20,22,4,6,0.8,0.8
2026-01-22T2200,4108A,117.7107,36.2385,济南市,山财大街5号,,,51,57,40,38,,,76,76,22,46,10,13,0.8,1
2026-01-22T2200,4109A,116.9744,36.6889,济南市,无影山路12号,细颗粒物(PM2.5),58,58,56,41,37,68,,73,71,20,26,8,13,0.7,0.8
2026-01-22T2200,1653A,116.6229,35.4288,济宁市,火炬城,细颗粒物(PM2.5),98,,59,73,55,77,,89,88,18,18,4,5,0.5,0.4
2026-01-22T2200,3500A,116.5808,35.3703,济宁市,北湖一中,细颗粒物(PM2.5),88,,58,65,54,88,,93,93,21,26,4,5,0.5,0.5
2026-01-22T2200,3501A,116.8251,35.5592,济宁市,服务中心,细颗粒物(PM2.5),89,93,75,66,44,72,,81,80,22,26,5,6,0.5,0.4
2026-01-22T2200,3678A,116.5907,35.4054,济宁市,市第七中学,细颗粒物(PM2.5),77,,58,56,44,93,,100,100,17,22,5,5,0.6,0.6
2026-01-22T2200,4111A,116.6075,35.4566,济宁市,任和路,细颗粒物(PM2.5),75,77,69,55,47,94,,95,95,18,23,6,6,0.6,0.7
2026-01-22T2200,4112A,116.5648,35.3921,济宁市,文体南路1号,细颗粒物(PM2.5),103,,72,77,55,91,,98,98,17,25,4,5,0.4,0.5
2026-01-22T2200,2255A,130.2749,46.8028,佳木斯市,佳纺,,36,36,27,18,19,55,,64,55,17,11,12,7,0.6,0.5
2026-01-22T2200,2257A,130.3258,46.7975,佳木斯市,环保局,,32,32,29,19,25,54,,58,54,19,13,8,7,0.1,0.2
2026-01-22T2200,4285A,130.363,46.806,佳木斯市,顺和街,,36,29,24,25,20,53,,57,51,17,14,9,8,0.4,0.3
2026-01-22T2200,4286A,130.3952,46.8268,佳木斯市,长安路196号,,36,36,23,23,16,63,,66,61,12,11,7,6,0.4,0.4
2026-01-22T2200,1252A,120.7439,30.778,嘉兴市,清河小学,细颗粒物(PM2.5),64,75,50,46,33,13,,72,53,59,19,6,6,1.2,1.1
2026-01-22T2200,1253A,120.7261,30.7477,嘉兴市,嘉兴学院,颗粒物(PM10),64,77,56,40,29,20,,70,54,52,19,5,5,1.0,1
2026-01-22T2200,2872A,120.7845,30.7524,嘉兴市,南湖区残联,颗粒物(PM10),59,68,46,39,34,19,,70,53,67,26,6,6,1.0,0.9
2026-01-22T2200,3407A,120.6915,30.7741,嘉兴市,秀洲住建,细颗粒物(PM2.5),62,65,50,44,34,0,,69,42,67,27,6,7,0.7,0.7
2026-01-22T2200,1945A,98.291,39.7705,嘉峪关市,气象局,颗粒物(PM10),134,217,165,58,41,36,,76,62,45,22,14,20,0.8,0.6
2026-01-22T2200,2884A,98.2672,39.7978,嘉峪关市,酒钢宾馆,颗粒物(PM10),145,239,169,61,42,37,,74,62,40,24,12,22,0.7,0.8
2026-01-22T2200,3248A,98.2644,39.7723,嘉峪关市,雄关区,颗粒物(PM10),124,198,131,49,33,16,,76,63,61,30,15,17,0.8,0.6
2026-01-22T2200,1383A,113.1063,22.6058,江门市,北街,,41,41,40,25,22,13,,29,15,44,38,/,/,/,/
2026-01-22T2200,1384A,113.073,22.5835,江门市,西区,颗粒物(PM10),53,56,45,25,20,10,,29,16,38,31,/,/,/,/
2026-01-22T2200,1385A,113.0218,22.531,江门市,圭峰西,,42,42,37,26,23,11,,32,20,28,22,/,/,/,/
2026-01-22T2200,1386A,113.0826,22.5947,江门市,东湖,,45,45,38,27,22,12,,30,16,30,24,7,7,0.7,0.6
2026-01-22T2200,3311A,113.1077,22.5647,江门市,江海富民,颗粒物(PM10),51,52,45,19,19,12,,30,16,40,35,/,/,0.4,0.5
2026-01-22T2200,3449A,113.0496,22.4669,江门市,新会银湖,颗粒物(PM10),51,52,40,28,24,4,,26,13,41,33,7,8,0.6,0.6
2026-01-22T2200,3335A,113.3137,35.2643,焦作市,马村街道办,细颗粒物(PM2.5),208,197,153,158,134,,,91,91,46,32,7,8,1.5,1.2
2026-01-22T2200,3336A,113.2464,35.2374,焦作市,焦作技师学院,细颗粒物(PM2.5),221,204,157,171,133,36,,86,76,54,37,12,14,2.0,1.6
2026-01-22T2200,3477A,113.1656,35.2536,焦作市,中站许衡医院,细颗粒物(PM2.5),143,114,128,109,108,43,,82,72,60,39,7,8,1.3,1.3
2026-01-22T2200,3981A,113.2456,35.18,焦作市,原李万街道办,细颗粒物(PM2.5),211,169,145,161,129,49,,95,83,41,39,9,7,1.4,1.2
2026-01-22T2200,4264A,113.234,35.219,焦作市,新安路1731号,细颗粒物(PM2.5),241,221,164,191,141,46,,91,81,43,34,8,9,1.5,1.3
2026-01-22T2200,4295A,113.2722,35.2121,焦作市,人民路3066号,细颗粒物(PM2.5),212,201,150,162,125,40,,91,77,42,33,7,8,1.8,1.4
2026-01-22T2200,1708A,116.3701,23.5345,揭阳市,新兴,,,29,41,28,28,6,,34,20,,24,7,8,0.7,0.7
2026-01-22T2200,1709A,116.3261,23.5442,揭阳市,西马,,36,31,36,25,24,12,,31,21,20,16,4,4,0.6,0.6
2026-01-22T2200,1710A,116.361,23.5627,揭阳市,东兴,,38,38,45,24,25,4,,29,14,34,24,8,9,/,/
2026-01-22T2200,1711A,116.4151,23.5295,揭阳市,渔湖,,,,37,28,27,,,39,32,21,20,5,6,/,/
2026-01-22T2200,3320A,116.4028,23.5699,揭阳市,曲溪,,45,45,42,29,27,4,,38,25,26,15,3,1,0.7,0.6
2026-01-22T2200,1944A,102.1691,38.5166,金昌市,天庆家园,细颗粒物(PM2.5),104,107,126,78,81,35,,70,61,36,23,18,28,1.1,1
2026-01-22T2200,4022A,102.1648,38.5369,金昌市,金川区人防中心,细颗粒物(PM2.5),84,90,116,62,73,41,,70,64,25,22,9,21,1.0,0.9
2026-01-22T2200,4239A,102.193042,38.531887,金昌市,长春路96号,细颗粒物(PM2.5),85,113,123,63,71,34,,67,59,36,26,22,66,1.1,1
2026-01-22T2200,1262A,119.6478,29.0773,金华市,十五中,细颗粒物(PM2.5),90,88,67,67,46,42,,57,52,42,33,4,4,0.3,0.4
2026-01-22T2200,1263A,119.6859,29.1032,金华市,监测站,细颗粒物(PM2.5),90,95,68,67,47,4,,46,36,75,36,4,3,0.4,0.4
2026-01-22T2200,3659A,119.656,29.1132,金华市,气象局,细颗粒物(PM2.5),94,109,68,70,45,1,,48,29,74,35,4,4,1.0,0.9
2026-01-22T2200,1767A,121.1114,41.0879,锦州市,南山,细颗粒物(PM2.5),52,,52,36,43,15,,63,45,54,36,10,16,0.9,1
2026-01-22T2200,1768A,121.060361,40.842794,锦州市,开发区,细颗粒物(PM2.5),74,86,81,54,48,3,,53,39,84,47,26,55,1.0,1
2026-01-22T2200,1769A,121.1836,41.1118,锦州市,百股街道,细颗粒物(PM2.5),92,,54,68,46,9,,67,46,69,38,16,13,1.5,1.2
2026-01-22T2200,1770A,121.1176,41.1224,锦州市,天安街道,细颗粒物(PM2.5),74,58,49,54,36,7,,67,49,69,30,12,16,1.6,1.1
2026-01-22T2200,1771A,121.1303,41.1385,锦州市,北湖公园,细颗粒物(PM2.5),97,78,59,72,38,9,,63,46,56,32,21,17,1.4,1.1
2026-01-22T2200,2160A,112.8496,35.5051,晋城市,自来水公司,颗粒物(PM10),67,83,123,45,95,63,,75,74,32,34,10,8,0.7,1.4
2026-01-22T2200,2162A,112.8509,35.4886,晋城市,市环保局,细颗粒物(PM2.5),70,61,120,51,96,71,,78,77,26,32,8,7,0.9,1.6
2026-01-22T2200,3620A,112.8258,35.4804,晋城市,泽州一中,细颗粒物(PM2.5),74,82,139,54,111,56,,77,74,39,29,7,6,0.8,1.6
2026-01-22T2200,4078A,112.8246,35.5152,晋城市,前书院路,细颗粒物(PM2.5),78,88,153,57,93,30,,66,60,39,34,5,6,1.0,1.9
2026-01-22T2200,4079A,112.8864,35.4773,晋城市,祥云街666号,细颗粒物(PM2.5),57,52,130,40,105,74,,75,75,24,35,6,4,0.5,1.3
2026-01-22T2200,2174A,112.6992,37.6984,晋中市,榆次区政府,"颗粒物(PM10),细颗粒物(PM2.5)",108,166,95,81,45,1,,52,40,81,52,25,25,1.4,1
2026-01-22T2200,2865A,112.7195,37.683,晋中市,榆次三中,颗粒物(PM10),80,110,88,49,39,0,,56,40,71,47,22,24,1.0,1.2
2026-01-22T2200,4080A,112.7375,37.7215,晋中市,广安街188号,颗粒物(PM10),92,134,97,63,46,3,,57,40,76,52,24,26,1.0,1
2026-01-22T2200,4200A,112.7478,37.6954,晋中市,迎宾街26号,细颗粒物(PM2.5),72,83,84,52,42,5,,57,41,63,43,21,25,0.8,1.1
2026-01-22T2200,2439A,112.2012,31.048,荆门市,竹园小学,,,96,82,,64,,,102,102,,29,26,4,0.8,0.1
2026-01-22T2200,2440A,112.1968,30.9892,荆门市,掇刀,细颗粒物(PM2.5),72,63,51,52,64,75,,96,93,27,17,6,5,0.5,0.5
2026-01-22T2200,3012A,112.1849,31.0361,荆门市,西山林语,细颗粒物(PM2.5),64,64,81,46,54,76,,96,91,23,18,6,7,0.6,0.7
2026-01-22T2200,3547A,112.1631,31.0134,荆门市,龙泉中学南校,细颗粒物(PM2.5),70,64,78,51,63,81,,94,92,12,10,5,5,0.7,0.9
2026-01-22T2200,4124A,112.2213,31.0654,荆门市,新台西路6号,细颗粒物(PM2.5),70,61,90,51,78,70,,88,85,33,26,10,9,0.6,0.7
2026-01-22T2200,1844A,112.2493,30.3198,荆州市,市图书馆,,,,58,58,56,65,,95,87,28,21,10,9,0.6,0.8
2026-01-22T2200,1845A,112.2009,30.3543,荆州市,市委党校,细颗粒物(PM2.5),60,58,66,43,54,66,,87,80,34,26,4,4,0.6,0.7
2026-01-22T2200,3194A,112.2749,30.3124,荆州市,管委会,细颗粒物(PM2.5),68,63,57,49,54,54,,97,82,39,22,10,8,0.8,0.8
2026-01-22T2200,4268A,112.1722,30.3366,荆州市,学苑路85号,细颗粒物(PM2.5),54,49,55,38,53,84,,102,96,14,13,13,13,0.6,0.7
2026-01-22T2200,2343A,117.2114,29.2931,景德镇市,老干部活动中心,细颗粒物(PM2.5),62,53,35,44,35,40,,62,56,23,10,6,5,0.8,0.7
2026-01-22T2200,2344A,117.1893,29.2789,景德镇市,兽医站,颗粒物(PM10),51,51,44,33,22,47,,73,62,32,13,4,4,0.5,0.5
2026-01-22T2200,2346A,117.246,29.2958,景德镇市,陶研所,细颗粒物(PM2.5),57,41,31,40,34,29,,70,58,16,9,4,3,0.8,0.6
2026-01-22T2200,4289A,117.154766,29.256967,景德镇市,青少年活动中心,细颗粒物(PM2.5),52,50,37,36,27,42,,72,66,29,13,20,7,/,/
2026-01-22T2200,1803A,115.9873,29.6816,九江市,十里,细颗粒物(PM2.5),63,66,48,45,33,18,,80,63,66,25,5,6,0.9,0.7
2026-01-22T2200,1804A,115.9583,29.7047,九江市,茅山头,颗粒物(PM10),61,72,45,40,35,4,,80,60,71,19,4,5,0.8,0.6
2026-01-22T2200,1805A,115.9877,29.7295,九江市,西园,颗粒物(PM10),53,56,36,31,30,34,,88,75,65,25,4,5,0.7,0.5
2026-01-22T2200,1808A,115.9112,29.6038,九江市,综合工业园,细颗粒物(PM2.5),63,,44,45,49,22,,75,59,52,26,2,4,0.8,0.8
2026-01-22T2200,3190A,116.0254,29.6995,九江市,外国语学校,颗粒物(PM10),56,61,44,38,35,4,,71,44,89,29,8,8,1.1,0.8
2026-01-22T2200,4253A,116.010205,29.659402,九江市,莲花大道8号,颗粒物(PM10),56,61,55,34,39,40,,60,56,27,11,4,4,0.6,0.6
2026-01-22T2200,4240A,98.495752,39.733935,酒泉市,玉门东路5号,颗粒物(PM10),148,246,220,74,45,9,,72,57,57,22,11,14,1.1,0.7
2026-01-22T2200,4241A,98.5099,39.7506,酒泉市,北大街108号,颗粒物(PM10),144,237,213,55,42,24,,63,56,41,25,12,15,0.9,0.7
2026-01-22T2200,2698A,76.0071,39.466,喀什地区,巡警大队,颗粒物(PM10),500,647,737,176,179,40,,52,40,19,17,3,3,0.8,0.8
2026-01-22T2200,2699A,75.9756,39.4693,喀什地区,吾办,颗粒物(PM10),468,568,679,178,183,40,,51,43,23,18,8,7,0.8,0.7
2026-01-22T2200,4027A,75.9485,39.4688,喀什地区,老干局,颗粒物(PM10),500,623,738,134,147,35,,51,47,21,12,2,2,0.7,0.6
2026-01-22T2200,1824A,114.3389,34.778,开封市,肿瘤医院,细颗粒物(PM2.5),105,,93,79,78,94,,103,102,30,34,9,10,0.8,0.8
2026-01-22T2200,1826A,114.2884,34.7966,开封市,世纪星幼儿园,细颗粒物(PM2.5),108,,83,81,88,103,,107,107,20,30,5,6,0.6,0.7
2026-01-22T2200,3147A,114.3434,34.8101,开封市,龙亭公园,细颗粒物(PM2.5),114,,83,86,82,96,,103,103,28,32,7,7,0.8,0.8
2026-01-22T2200,3210A,114.3645,34.7955,开封市,汴京公园,细颗粒物(PM2.5),125,,93,95,87,90,,98,98,25,31,4,4,0.7,0.8
2026-01-22T2200,3473A,114.2485,34.8306,开封市,技师学院,细颗粒物(PM2.5),90,,82,67,67,115,,116,116,22,30,6,7,0.5,0.5
2026-01-22T2200,3592A,114.4518,34.7503,开封市,祥符区生态环境局,细颗粒物(PM2.5),110,111,109,83,83,78,,111,107,44,34,3,4,0.5,0.5
2026-01-22T2200,1951A,84.886,45.6029,克拉玛依市,长征新村,颗粒物(PM10),60,70,54,37,38,63,,60,60,16,19,8,8,0.4,0.4
2026-01-22T2200,1952A,84.8894,45.5827,克拉玛依市,南林小区,细颗粒物(PM2.5),63,70,59,45,32,53,,59,58,20,20,4,4,0.6,0.6
2026-01-22T2200,1954A,84.896,44.3328,克拉玛依市,独山子区,细颗粒物(PM2.5),168,180,113,127,71,41,,72,59,69,46,5,5,0.9,0.8
2026-01-22T2200,1955A,85.6888,46.0909,克拉玛依市,乌尔禾区商贸楼,,,61,54,44,38,,,52,52,57,34,8,7,0.6,0.9
2026-01-22T2200,3612A,85.1045,45.6895,克拉玛依市,白碱滩区新站,细颗粒物(PM2.5),72,83,67,52,39,52,,46,46,29,29,11,9,0.5,0.5
2026-01-22T2200,2697A,76.1457,39.7143,克孜勒苏柯尔克孜自治州,市人民政府,颗粒物(PM10),500,616,804,139,158,45,,55,54,17,10,3,3,0.5,0.5
2026-01-22T2200,3665A,76.1654,39.7157,克孜勒苏柯尔克孜自治州,克州文化中心,颗粒物(PM10),500,627,786,149,162,45,,53,53,15,8,4,3,0.7,0.6
2026-01-22T2200,1450A,102.8203,24.889,昆明市,呈贡新区,,33,31,28,23,18,42,,84,70,17,15,3,4,0.4,0.4
2026-01-22T2200,1452A,102.7253,25.0904,昆明市,龙泉镇,,36,36,40,18,20,69,,89,82,15,30,3,3,0.3,0.3
2026-01-22T2200,1453A,102.7267,25.0378,昆明市,东风东路,,38,36,35,26,20,68,,88,82,20,25,6,6,0.4,0.4
2026-01-22T2200,1454A,102.6744,25.0671,昆明市,金鼎山,,47,47,42,32,23,52,,84,73,28,25,4,4,0.4,0.4
2026-01-22T2200,1455A,102.6643,25.0401,昆明市,碧鸡广场,,49,49,34,24,18,44,,88,73,40,24,4,5,0.5,0.5
2026-01-22T2200,3179A,102.7491,25.012,昆明市,官渡区博物馆,,32,29,33,22,21,64,,93,84,22,23,4,4,0.5,0.6
2026-01-22T2200,3375A,102.8016,24.8336,昆明市,青年创业园,,41,41,28,20,16,40,,91,80,36,14,6,6,0.3,0.5
2026-01-22T2200,3550A,102.8,24.9787,昆明市,昆明学院,,42,42,32,24,18,62,,92,84,22,17,3,4,0.4,0.4
2026-01-22T2200,3551A,102.5969,24.6738,昆明市,晋宁区生态环境分局,,44,44,30,24,18,70,,90,86,14,11,2,3,0.6,0.6
2026-01-22T2200,3552A,102.6673,24.9861,昆明市,云天化总部,,35,33,30,24,18,74,,91,87,13,26,6,7,0.4,0.4
2026-01-22T2200,1456A,91.132,29.6515,拉萨市,八廓街,细颗粒物(PM2.5),54,52,20,38,12,15,,85,71,70,17,12,7,1.6,0.5
2026-01-22T2200,1457A,91.1221,29.6748,拉萨市,市环保局,细颗粒物(PM2.5),90,98,34,67,25,17,,79,65,71,32,15,8,2.1,1.1
2026-01-22T2200,1458A,91.0874,29.6476,拉萨市,区监测站,,32,17,15,12,10,24,,79,67,64,28,6,4,1.1,0.8
2026-01-22T2200,1459A,91.1774,29.6541,拉萨市,西藏大学,,,30,17,17,10,,,85,85,30,16,4,5,0.7,0.4
2026-01-22T2200,1460A,90.9798,29.6586,拉萨市,区辐射站,,44,44,21,24,11,43,,75,70,43,21,6,4,0.8,0.4
2026-01-22T2200,1461A,91.0831,29.6292,拉萨市,拉萨火车站,,23,22,16,16,9,37,,76,71,43,23,5,4,0.8,0.5
2026-01-22T2200,2520A,109.2203,23.7252,来宾市,来宾技工学校,,45,35,24,31,21,32,,47,42,20,10,8,7,0.5,0.5
2026-01-22T2200,3535A,109.1781,23.7293,来宾市,兴宾区政府,,38,38,20,25,15,42,,46,45,14,10,7,4,0.6,0.6
2026-01-22T2200,4002A,109.2312,23.7428,来宾市,中南小学,,50,39,26,35,19,26,,46,39,23,10,6,5,0.7,0.7
2026-01-22T2200,1479A,103.8309,36.0467,兰州市,铁路设计院,,,,,,,,,,,,,,,,
2026-01-22T2200,3241A,103.7439,36.0841,兰州市,百合公园,细颗粒物(PM2.5),94,113,85,70,45,0,,40,26,98,56,18,13,1.4,0.9
2026-01-22T2200,3242A,103.9613,35.9985,兰州市,和平,细颗粒物(PM2.5),102,107,97,76,61,68,,70,64,30,34,14,16,0.9,1.3
2026-01-22T2200,4236A,103.629272,36.093822,兰州市,庄浪东路808号,细颗粒物(PM2.5),94,117,94,70,49,9,,58,44,96,49,18,17,1.6,0.9
2026-01-22T2200,4237A,103.7251,36.104344,兰州市,安宁西路88号,颗粒物(PM10),88,126,89,64,42,4,,56,44,100,50,18,15,1.4,0.8
2026-01-22T2200,4238A,103.846982,36.067567,兰州市,北滨河东路1号,细颗粒物(PM2.5),95,129,82,71,46,2,,64,46,95,55,16,14,1.8,1.3
2026-01-22T2200,1067A,116.6712,39.5109,廊坊市,药材公司,细颗粒物(PM2.5),128,131,77,97,55,2,,31,19,74,58,5,5,1.4,0.9
2026-01-22T2200,1068A,116.7215,39.5592,廊坊市,开发区,细颗粒物(PM2.5),98,96,64,73,46,1,,31,20,83,62,9,4,1.0,0.7
2026-01-22T2200,1070A,116.7246,39.5273,廊坊市,北华航天学院,细颗粒物(PM2.5),137,134,80,104,50,2,,30,18,80,62,6,4,1.5,0.9
2026-01-22T2200,2919A,116.7022,39.5454,廊坊市,河北工业大学,细颗粒物(PM2.5),90,115,71,67,44,3,,33,24,78,57,4,4,1.1,0.7
2026-01-22T2200,2536A,103.7629,29.5844,乐山市,牛耳桥,,49,42,49,34,41,43,,59,57,23,20,5,4,0.8,0.7
2026-01-22T2200,2537A,103.7501,29.6002,乐山市,市第三水厂,,48,41,49,33,42,49,,63,62,20,23,5,6,0.9,0.8
2026-01-22T2200,2538A,103.7571,29.5664,乐山市,市监测站,,45,40,50,31,40,45,,61,59,18,17,5,6,0.8,0.7
2026-01-22T2200,3361A,103.7313,29.563,乐山市,理工大学,,50,43,50,35,41,50,,61,60,15,16,6,5,0.6,0.5
2026-01-22T2200,2599A,100.2497,26.8802,丽江市,丽江古城,,45,45,31,23,18,76,,81,80,14,12,10,10,0.5,0.4
2026-01-22T2200,2600A,100.2203,26.8906,丽江市,市中心,,48,38,27,33,17,74,,82,78,16,13,7,6,0.6,0.4
2026-01-22T2200,1267A,119.9141,28.4513,丽水市,监测站大楼,细颗粒物(PM2.5),80,,44,59,48,35,,56,44,27,21,6,5,0.4,0.5
2026-01-22T2200,1268A,119.93,28.4589,丽水市,莲都小学,细颗粒物(PM2.5),74,75,58,54,41,31,,54,43,40,25,/,/,/,/
2026-01-22T2200,1269A,119.8794,28.4232,丽水市,余庄前,细颗粒物(PM2.5),70,66,57,51,44,25,,55,41,37,24,4,5,0.4,0.4
2026-01-22T2200,1173A,119.1759,34.5885,连云港市,市环境监测站,细颗粒物(PM2.5),58,48,67,41,51,59,,64,63,27,40,11,16,0.6,0.8
2026-01-22T2200,3000A,119.3577,34.6971,连云港市,德源药业,细颗粒物(PM2.5),77,92,75,56,48,6,,60,48,72,44,8,8,0.7,0.6
2026-01-22T2200,3007A,119.178,34.8442,连云港市,新城一中,细颗粒物(PM2.5),79,68,63,58,53,46,,68,63,47,48,11,13,0.8,1
2026-01-22T2200,3008A,119.3607,34.7519,连云港市,胡沟管理处,细颗粒物(PM2.5),64,58,61,46,43,24,,57,48,67,50,8,10,0.7,0.8
2026-01-22T2200,3009A,119.1478,34.5913,连云港市,矿山设计院,颗粒物(PM10),51,51,69,34,45,59,,65,62,24,38,10,15,0.7,0.9
2026-01-22T2200,3434A,119.2414,34.6539,连云港市,工贸学校,细颗粒物(PM2.5),64,62,66,46,51,59,,62,61,22,26,15,14,0.7,0.8
2026-01-22T2200,3664A,119.4171,34.734,连云港市,连云街道,细颗粒物(PM2.5),52,49,61,36,39,59,,65,65,23,30,5,10,0.6,0.9
2026-01-22T2200,2573A,102.2629,27.8981,凉山彝族自治州,西昌市政府,,45,41,42,31,29,76,,89,88,10,14,6,7,0.6,0.6
2026-01-22T2200,2574A,102.2686,27.885,凉山彝族自治州,凉山州政府,颗粒物(PM10),51,52,45,30,31,58,,79,75,23,20,8,8,0.7,0.6
2026-01-22T2200,4229A,102.2342,27.8859,凉山彝族自治州,凯乐南路30号,细颗粒物(PM2.5),74,,48,54,33,24,,75,55,46,22,8,8,1.0,0.7
2026-01-22T2200,2212A,123.1978,41.2036,辽阳市,宏伟区,颗粒物(PM10),61,72,66,36,41,34,,71,58,31,24,24,13,1.2,1.1
2026-01-22T2200,2213A,123.1684,41.2497,辽阳市,新华园,细颗粒物(PM2.5),67,81,67,48,46,11,,64,41,64,42,24,22,1.4,1.1
2026-01-22T2200,2214A,123.2355,41.2663,辽阳市,滨河路,"颗粒物(PM10),细颗粒物(PM2.5)",55,59,56,39,32,19,,61,46,48,30,17,12,1.3,1
2026-01-22T2200,4083A,123.153,41.2874,辽阳市,铁西路150号,颗粒物(PM10),71,92,74,43,45,4,,68,41,68,44,31,23,1.8,1.6
2026-01-22T2200,2227A,125.1359,42.8845,辽源市,环保局,细颗粒物(PM2.5),113,,42,85,27,13,,67,45,65,31,8,5,1.5,0.9
2026-01-22T2200,4085A,125.0998,42.9134,辽源市,安宁大街333号,细颗粒物(PM2.5),63,50,41,45,26,24,,66,48,29,20,4,6,1.0,0.7
2026-01-22T2200,1625A,115.9789,36.4372,聊城市,区政府,细颗粒物(PM2.5),85,90,84,63,53,64,,78,74,32,33,11,14,0.8,0.8
2026-01-22T2200,3200A,115.9772,36.4986,聊城市,监控中心,细颗粒物(PM2.5),85,75,75,63,53,74,,81,80,27,32,8,8,0.7,0.7
2026-01-22T2200,3513A,116.0443,36.436,聊城市,九州社区,细颗粒物(PM2.5),99,94,84,74,58,69,,89,84,20,20,5,6,0.7,0.7
2026-01-22T2200,4018A,116.0564,36.4609,聊城市,星美广场,细颗粒物(PM2.5),85,92,85,63,52,68,,82,79,21,20,4,5,0.7,0.7
2026-01-22T2200,4113A,116.0091,36.4495,聊城市,利民路,细颗粒物(PM2.5),84,89,77,62,52,59,,73,69,30,29,10,11,0.8,0.8
2026-01-22T2200,2632A,94.3683,29.6373,林芝市,林芝监测站,,33,33,15,14,10,66,,82,74,1,5,2,2,0.2,0.4
2026-01-22T2200,2633A,94.3616,29.6634,林芝市,林芝人民医院,,30,30,18,14,10,75,,77,76,6,8,3,2,0.3,0.4
2026-01-22T2200,2603A,100.0779,23.8981,临沧市,市环保局,细颗粒物(PM2.5),83,62,36,61,39,48,,90,81,19,11,8,7,0.8,0.5
2026-01-22T2200,2604A,100.0894,23.882,临沧市,市气象局,细颗粒物(PM2.5),54,55,46,38,29,58,,95,85,14,11,10,7,0.6,0.5
2026-01-22T2200,1733A,111.5552,36.0791,临汾市,临钢医院,细颗粒物(PM2.5),85,111,70,63,46,6,,57,45,55,33,6,9,1.7,1.5
2026-01-22T2200,1734A,111.4984,36.0734,临汾市,技工学校,细颗粒物(PM2.5),97,105,73,72,51,13,,58,50,49,38,9,9,1.2,1.1
2026-01-22T2200,1736A,111.5017,36.0857,临汾市,市委,颗粒物(PM10),83,115,78,58,41,16,,61,53,61,41,12,12,1.2,1.1
2026-01-22T2200,3018A,111.5048,36.1015,临汾市,唐尧大酒店,颗粒物(PM10),89,128,83,64,41,6,,66,52,76,41,9,8,1.2,1.1
2026-01-22T2200,4244A,111.4879,36.053,临汾市,启星学校,细颗粒物(PM2.5),89,82,71,66,44,1,,60,49,90,51,12,12,1.2,1.3
2026-01-22T2200,4271A,103.2464,35.6123,临夏回族自治州,滨河东路1号,细颗粒物(PM2.5),156,228,156,119,87,1,,76,54,68,39,9,8,1.7,1.5
2026-01-22T2200,4310A,103.207136,35.599807,临夏回族自治州,新华街21号,细颗粒物(PM2.5),165,210,126,125,75,29,,71,62,53,30,15,10,1.5,1.3
2026-01-22T2200,1618A,118.3429,35.0532,临沂市,沂河小区,细颗粒物(PM2.5),69,63,76,50,53,72,,76,76,26,39,19,18,0.7,0.9
2026-01-22T2200,1619A,118.2962,35.0568,临沂市,鲁南制药厂,细颗粒物(PM2.5),68,58,80,49,57,69,,76,75,29,43,18,20,0.8,1.1
2026-01-22T2200,1620A,118.2793,34.9976,临沂市,新光毛纺厂,细颗粒物(PM2.5),60,48,69,43,50,71,,80,79,30,40,14,16,0.7,1
2026-01-22T2200,1621A,118.3955,35.0889,临沂市,河东保险公司,细颗粒物(PM2.5),59,56,64,42,43,90,,88,88,22,39,14,14,0.8,0.9
2026-01-22T2200,3370A,118.3563,35.0215,临沂市,十里堡居委,细颗粒物(PM2.5),62,68,72,44,45,63,,80,78,44,44,26,21,0.8,0.9
2026-01-22T2200,3496A,118.359,35.1067,临沂市,南坊新区,细颗粒物(PM2.5),58,58,71,41,47,85,,83,83,25,43,13,15,0.5,0.9
2026-01-22T2200,3860A,118.3915,35.0297,临沂市,皇山花园小区,细颗粒物(PM2.5),59,56,72,42,44,80,,85,85,35,49,18,19,0.7,0.9
2026-01-22T2200,1870A,109.4854,24.3898,柳州市,柳东小学,,42,31,23,29,21,32,,48,40,8,5,8,7,0.6,0.6
2026-01-22T2200,1871A,109.4109,24.3304,柳州市,环保监测站,,39,34,22,27,18,32,,51,44,17,11,5,4,0.6,0.5
2026-01-22T2200,1872A,109.3886,24.3408,柳州市,河西水厂,,45,45,27,16,19,34,,52,46,13,13,5,7,0.5,0.8
2026-01-22T2200,1873A,109.4263,24.2951,柳州市,市四中,,37,37,18,16,16,30,,50,41,18,9,10,9,0.9,0.7
2026-01-22T2200,1874A,109.396,24.3658,柳州市,市九中,,47,47,21,30,20,25,,50,42,23,12,9,8,0.7,0.5
2026-01-22T2200,1875A,109.4912,24.3164,柳州市,古亭山,,36,36,18,25,12,32,,48,40,13,6,8,6,1.0,0.9
2026-01-22T2200,3402A,109.5422,24.3994,柳州市,市二中,,45,36,21,31,18,34,,42,38,14,11,9,8,0.6,0.5
2026-01-22T2200,2307A,116.5078,31.7369,六安市,监测大楼,,46,40,33,32,24,54,,76,72,26,17,3,4,0.5,0.3
2026-01-22T2200,2308A,116.4738,31.7642,六安市,皖西学院,颗粒物(PM10),51,52,40,32,25,62,,82,78,27,19,6,5,0.6,0.4
2026-01-22T2200,2309A,116.4997,31.7904,六安市,朝阳厂,,46,45,35,32,26,49,,72,67,38,22,6,6,0.7,0.5
2026-01-22T2200,2310A,116.5566,31.7885,六安市,开发区,,49,39,30,34,28,36,,77,67,35,21,4,5,0.5,0.4
2026-01-22T2200,2577A,104.8293,26.592,六盘水市,黄土坡,细颗粒物(PM2.5),52,41,21,36,15,37,,41,37,21,16,7,7,1.0,0.8
2026-01-22T2200,2579A,104.8481,26.5898,六盘水市,民中,细颗粒物(PM2.5),52,41,19,36,15,36,,40,36,19,14,4,4,0.9,0.7
2026-01-22T2200,2580A,104.9541,26.5506,六盘水市,双水,,34,34,24,14,15,50,,49,49,12,13,5,5,0.7,0.8
2026-01-22T2200,4151A,104.8899,26.5685,六盘水市,钟山大道中段564号,,45,43,25,31,16,38,,37,37,13,13,7,7,0.9,0.9
2026-01-22T2200,2336A,117.022,25.1031,龙岩市,龙岩市监测站,,22,,16,15,13,12,,22,15,21,18,8,10,0.5,0.5
2026-01-22T2200,2337A,117.0257,25.0662,龙岩市,闽西职业技术学院,,22,22,18,15,15,13,,26,11,16,13,8,7,0.7,0.7
2026-01-22T2200,2338A,117.0195,25.0306,龙岩市,龙岩学院,,26,21,22,18,17,12,,24,11,16,14,10,9,/,/
2026-01-22T2200,2885A,104.9344,33.3827,陇南市,滨江中学,颗粒物(PM10),93,135,72,68,35,2,,49,31,65,35,24,9,3.8,1.3
2026-01-22T2200,3247A,104.9551,33.3709,陇南市,市总工会,细颗粒物(PM2.5),63,70,60,45,33,28,,55,45,30,23,10,9,0.9,0.7
2026-01-22T2200,2488A,111.9984,27.7346,娄底市,市监测站,细颗粒物(PM2.5),77,73,60,56,51,47,,57,49,28,24,10,14,0.9,1.2
2026-01-22T2200,2491A,111.9888,27.7035,娄底市,市政府,细颗粒物(PM2.5),84,63,59,62,50,28,,56,49,23,15,5,8,1.0,1
2026-01-22T2200,4127A,111.9812,27.7591,娄底市,涟钢职大,细颗粒物(PM2.5),83,86,58,61,39,33,,59,46,26,14,5,7,0.9,1
2026-01-22T2200,4128A,112.0303,27.7457,娄底市,娄底体校,细颗粒物(PM2.5),82,72,52,60,41,27,,54,42,18,5,2,5,0.6,0.6
2026-01-22T2200,1894A,105.4427,28.9063,泸州市,小市上码头,,48,46,28,33,21,23,,36,36,22,18,4,4,1.0,1.1
2026-01-22T2200,1895A,105.4241,28.8573,泸州市,兰田宪桥,,41,41,33,27,21,24,,35,35,19,12,7,7,1.1,1
2026-01-22T2200,1896A,105.4378,28.8833,泸州市,市环监站,,42,42,30,28,21,22,,34,34,19,15,8,8,1.1,1.1
2026-01-22T2200,4272A,105.3689,28.7783,泸州市,纳溪中医医院,颗粒物(PM10),54,58,37,34,28,21,,32,30,16,14,8,7,0.8,0.8
2026-01-22T2200,2183A,111.1447,37.5212,吕梁市,环保局,颗粒物(PM10),68,85,67,35,27,2,,43,28,64,44,3,3,0.3,0.3
2026-01-22T2200,2185A,111.1285,37.5338,吕梁市,自来水公司,颗粒物(PM10),77,103,90,43,33,6,,47,38,54,35,7,5,0.7,0.6
2026-01-22T2200,2867A,111.1225,37.5093,吕梁市,马茂庄小学,颗粒物(PM10),77,104,76,35,26,2,,41,26,63,43,4,4,0.7,0.6
2026-01-22T2200,1812A,112.3934,34.6517,洛阳市,市委党校,细颗粒物(PM2.5),109,85,106,82,91,84,,94,93,28,28,9,11,1.0,1
2026-01-22T2200,1815A,112.494,34.6883,洛阳市,河南林校,细颗粒物(PM2.5),107,94,115,80,102,76,,87,86,30,33,10,10,1.0,1
2026-01-22T2200,1816A,112.3843,34.623,洛阳市,开发区管委会,细颗粒物(PM2.5),119,110,127,90,104,88,,97,96,26,29,11,12,0.8,0.9
2026-01-22T2200,1817A,112.4263,34.6249,洛阳市,市委新办公区,细颗粒物(PM2.5),113,104,124,85,102,84,,97,96,29,28,9,11,0.8,0.9
2026-01-22T2200,3340A,112.6005,34.6323,洛阳市,伊滨,细颗粒物(PM2.5),119,130,136,90,100,28,,94,80,63,36,6,8,0.9,0.8
2026-01-22T2200,3341A,112.495,34.6338,洛阳市,中移产业园,细颗粒物(PM2.5),113,88,100,85,100,77,,94,92,34,33,10,13,0.9,0.9
2026-01-22T2200,3593A,112.5736,34.8993,洛阳市,吉利监测站,细颗粒物(PM2.5),139,134,112,106,109,6,,80,54,86,42,8,11,1.2,1.1
2026-01-22T2200,3635A,112.3678,34.6623,洛阳市,河科大西苑校区,细颗粒物(PM2.5),107,99,118,80,96,88,,95,95,27,31,8,9,0.7,0.9
2026-01-22T2200,3636A,112.4387,34.678,洛阳市,英才小学,细颗粒物(PM2.5),119,112,125,90,107,83,,95,94,31,33,11,11,1.0,1
2026-01-22T2200,4214A,112.460027,34.694929,洛阳市,春都路1号院,细颗粒物(PM2.5),97,109,138,72,91,74,,86,85,27,34,9,9,1.1,1.2
2026-01-22T2200,2399A,114.051,33.5721,漯河市,三五一五工厂,细颗粒物(PM2.5),128,124,98,97,74,95,,114,112,30,31,7,9,1.0,0.9
2026-01-22T2200,2400A,114.0055,33.5698,漯河市,漯河大学,细颗粒物(PM2.5),104,110,81,78,73,115,,122,122,16,21,6,8,0.7,0.8
2026-01-22T2200,2401A,114.0134,33.5826,漯河市,市水利局,细颗粒物(PM2.5),138,114,88,105,76,101,,107,107,17,22,4,5,0.8,0.7
2026-01-22T2200,2402A,114.0261,33.5697,漯河市,市广电局,细颗粒物(PM2.5),139,107,85,106,77,97,,111,110,24,27,6,8,0.7,0.7
2026-01-22T2200,3478A,113.9691,33.568,漯河市,市图书馆,细颗粒物(PM2.5),125,129,99,95,76,97,,109,109,20,22,5,7,0.9,0.8
2026-01-22T2200,4250A,114.089259,33.588274,漯河市,韶山路11号,细颗粒物(PM2.5),134,145,96,102,74,101,,109,108,20,25,7,8,0.7,0.8
2026-01-22T2200,1798A,118.5084,31.6838,马鞍山市,湖东路四小,"颗粒物(PM10),细颗粒物(PM2.5)",57,63,48,40,29,1,,66,50,75,31,2,4,0.7,0.6
2026-01-22T2200,1799A,118.5019,31.6449,马鞍山市,开发区,细颗粒物(PM2.5),69,58,47,50,35,6,,73,52,68,31,4,6,0.6,0.7
2026-01-22T2200,3633A,118.4914,31.681,马鞍山市,雨山,细颗粒物(PM2.5),52,52,50,36,33,23,,68,58,57,28,8,11,0.7,0.7
2026-01-22T2200,4191A,118.527362,31.722269,马鞍山市,慈湖高新区,细颗粒物(PM2.5),59,64,49,42,31,8,,64,44,62,34,3,5,0.5,0.6
2026-01-22T2200,1686A,111.0285,21.469,茂名市,电白南海,颗粒物(PM10),56,61,64,29,34,21,,67,56,24,22,14,13,0.9,0.9
2026-01-22T2200,1687A,110.9294,21.6533,茂名市,茂石化七小,,44,44,53,27,30,18,,52,42,23,21,8,12,0.9,0.9
2026-01-22T2200,1688A,110.9108,21.6688,茂名市,健康路,,41,41,45,24,32,19,,54,45,27,22,12,14,1.5,0.9
2026-01-22T2200,1689A,110.8592,21.6826,茂名市,高岭,,46,46,54,22,26,18,,46,39,22,18,20,17,/,/
2026-01-22T2200,3450A,111.0101,21.5165,茂名市,电白水东,颗粒物(PM10),51,51,59,31,35,22,,60,53,20,19,11,12,/,/
2026-01-22T2200,2540A,103.8414,30.0871,眉山市,气象局,颗粒物(PM10),52,53,58,29,46,58,,64,63,15,18,10,10,0.7,0.7
2026-01-22T2200,3148A,103.829,30.0563,眉山市,区人社局,,48,48,57,31,40,48,,57,56,17,17,6,5,0.8,0.7
2026-01-22T2200,4148A,103.8836,30.0695,眉山市,眉职院,,40,40,58,24,40,52,,62,62,10,12,1,2,0.9,0.9
2026-01-22T2200,1690A,116.1248,24.3307,梅州市,梅江月梅,,19,19,18,12,15,7,,16,12,21,19,/,/,/,/
2026-01-22T2200,1691A,116.0798,24.2719,梅州市,梅县新城,,19,19,19,12,16,11,,23,15,19,16,7,7,0.5,0.7
2026-01-22T2200,3315A,116.1234,24.2994,梅州市,梅龙,,19,19,22,11,14,8,,17,11,20,16,7,7,0.8,0.7
2026-01-22T2200,1878A,104.7775,31.4741,绵阳市,富乐山,细颗粒物(PM2.5),54,38,49,38,40,28,,50,44,17,13,8,7,0.6,0.6
2026-01-22T2200,1880A,104.6698,31.4668,绵阳市,高新区自来水公司,细颗粒物(PM2.5),52,48,56,36,44,15,,44,37,40,25,9,8,0.8,0.8
2026-01-22T2200,3491A,104.6899,31.5324,绵阳市,西科大附属小学,细颗粒物(PM2.5),53,53,59,37,40,15,,46,36,43,29,8,8,0.7,0.6
2026-01-22T2200,3492A,104.5647,31.5343,绵阳市,安州区旅游局,,49,39,53,34,41,28,,38,34,29,25,10,10,0.6,0.5
2026-01-22T2200,4146A,104.7092,31.4972,绵阳市,科技城新区公安局,,42,41,51,29,37,32,,51,46,35,29,9,9,0.8,0.8
2026-01-22T2200,4226A,104.765114,31.453094,绵阳市,绵阳市气象局,,43,40,47,30,40,18,,42,35,36,19,4,7,0.7,0.8
2026-01-22T2200,1784A,129.61,44.561,牡丹江市,环保大楼,,38,38,36,19,18,63,,66,63,13,13,3,4,0.3,0.3
2026-01-22T2200,1787A,129.6364,44.6075,牡丹江市,机车工厂,颗粒物(PM10),57,63,46,33,27,36,,67,57,24,15,12,3,0.6,0.5
2026-01-22T2200,1788A,129.6386,44.5462,牡丹江市,第一中学,,25,25,33,14,21,49,,66,61,25,11,4,4,0.3,0.4
2026-01-22T2200,4287A,129.5992,44.5964,牡丹江市,东晓云街98号,,38,34,36,26,27,60,,67,64,12,17,4,4,0.6,0.6
2026-01-22T2200,2531A,105.0703,29.61,内江市,市监测站,,,41,31,27,26,29,,43,40,,15,4,4,0.8,0.8
2026-01-22T2200,2533A,105.0657,29.5807,内江市,内江二中,,42,42,34,21,19,16,,33,29,24,22,4,4,0.5,0.6
2026-01-22T2200,2534A,105.0407,29.5828,内江市,内江日报社,,39,39,24,23,20,20,,35,32,23,23,4,3,0.8,0.7
2026-01-22T2200,4147A,105.0433,29.6105,内江市,玉峰路西段888号,,36,35,28,25,20,25,,37,33,19,20,3,2,1.1,1.1
2026-01-22T2200,2628A,92.0653,31.4846,那曲市,那曲监测站,细颗粒物(PM2.5),62,67,43,44,23,27,,67,60,52,22,15,8,1.9,1.1
2026-01-22T2200,4243A,92.0515,31.4787,那曲市,那曲市委宣传部,细颗粒物(PM2.5),53,48,34,37,20,28,,73,68,37,15,12,6,1.9,1
2026-01-22T2200,1291A,115.8887,28.7006,南昌市,省林业公司,细颗粒物(PM2.5),64,56,59,46,48,46,,67,59,20,11,4,5,0.3,0.2
2026-01-22T2200,1292A,115.813,28.7443,南昌市,林科所,细颗粒物(PM2.5),67,68,53,48,43,3,,70,48,65,21,2,5,0.5,0.5
2026-01-22T2200,1294A,115.8518,28.687,南昌市,建工学校,细颗粒物(PM2.5),69,64,59,50,48,39,,64,56,48,30,8,8,0.8,0.7
2026-01-22T2200,1295A,115.8926,28.6425,南昌市,象湖,细颗粒物(PM2.5),64,,50,46,48,41,,60,54,26,18,8,9,0.6,0.6
2026-01-22T2200,3046A,115.9084,28.6062,南昌市,机电学校,细颗粒物(PM2.5),67,73,75,48,53,44,,64,57,27,17,4,5,0.4,0.6
2026-01-22T2200,3690A,115.9718,28.7032,南昌市,外国语学校,细颗粒物(PM2.5),59,61,67,42,46,50,,67,62,29,22,12,13,0.6,0.5
2026-01-22T2200,4106A,115.7923,28.6873,南昌市,工业二路,细颗粒物(PM2.5),73,93,58,53,42,37,,74,65,33,14,4,4,0.6,0.5
2026-01-22T2200,4192A,115.931587,28.686774,南昌市,南京东路235号,细颗粒物(PM2.5),67,56,62,48,54,44,,69,62,31,16,6,7,0.5,0.4
2026-01-22T2200,1906A,106.0791,30.8022,南充市,南充市委,细颗粒物(PM2.5),60,50,41,43,37,2,,20,15,40,24,4,4,0.8,0.7
2026-01-22T2200,1907A,106.1038,30.8215,南充市,南充炼油厂,细颗粒物(PM2.5),67,55,53,48,42,16,,20,19,20,15,5,5,0.6,0.6
2026-01-22T2200,4227A,106.108336,30.788436,南充市,梨树横街98号,细颗粒物(PM2.5),52,52,47,36,35,14,,22,21,29,20,6,5,0.8,0.7
2026-01-22T2200,4304A,106.1172,30.843,南充市,清泉寺北路188号,细颗粒物(PM2.5),57,48,36,40,32,24,,27,27,18,15,7,7,0.6,0.6
2026-01-22T2200,4305A,106.067,30.7616,南充市,同庆路1号,细颗粒物(PM2.5),62,49,38,44,34,2,,23,18,51,29,6,6,1.0,0.8
2026-01-22T2200,1151A,118.8033,32.1085,南京市,迈皋桥,,45,45,40,29,25,25,,58,35,44,34,4,7,0.7,0.6
2026-01-22T2200,1152A,118.7487,32.057,南京市,草场门,,48,48,44,24,26,20,,42,35,60,36,3,4,0.8,0.3
2026-01-22T2200,1154A,118.770105,32.004342,南京市,中华门,,49,46,39,34,26,34,,64,52,38,23,4,5,0.6,0.5
2026-01-22T2200,1155A,118.8059,32.0329,南京市,瑞金路,细颗粒物(PM2.5),55,58,42,39,28,8,,110,42,50,18,4,4,1.3,1.2
2026-01-22T2200,1156A,118.7946,32.0774,南京市,玄武湖,,49,49,42,26,23,34,,61,49,24,21,4,4,0.5,0.2
2026-01-22T2200,1157A,118.6415,32.0964,南京市,浦口,,42,42,44,22,26,26,,58,47,45,26,8,9,0.6,0.9
2026-01-22T2200,1158A,118.730129,32.000956,南京市,奥体中心,,,44,44,29,28,33,,71,58,56,30,,9,,0.6
2026-01-22T2200,1159A,118.9072,32.1047,南京市,仙林大学城,,48,48,46,29,25,33,,60,43,40,30,6,7,0.7,0.7
2026-01-22T2200,3422A,118.8443,31.919,南京市,江宁彩虹桥,,49,45,38,34,25,30,,82,58,70,36,5,4,0.7,0.6
2026-01-22T2200,3427A,118.8497,32.3599,南京市,六合雄州,,48,48,46,28,27,24,,66,47,40,31,4,5,0.4,0.4
2026-01-22T2200,4086A,118.7641,32.0841,南京市,新模范马路66号,,48,48,49,33,33,41,,78,60,32,16,4,7,0.6,0.5
2026-01-22T2200,4249A,118.8707617,31.34017673,南京市,汶溪路181号,,50,50,41,33,35,46,,61,52,38,30,7,8,0.7,0.7
2026-01-22T2200,4312A,119.019,31.6512,南京市,中山西路1号,细颗粒物(PM2.5),57,56,38,40,31,35,,66,56,39,24,4,4,0.9,0.8
2026-01-22T2200,1401A,108.3098,22.788,南宁市,二十一中,,22,17,15,15,10,29,,27,25,18,17,4,4,0.6,0.6
2026-01-22T2200,1402A,108.3135,22.8529,南宁市,北湖,,24,24,19,11,8,21,,30,19,20,15,2,4,0.6,0.6
2026-01-22T2200,1403A,108.3205,22.8222,南宁市,市监测站,,23,18,18,16,12,24,,22,19,21,19,5,6,0.7,0.8
2026-01-22T2200,1404A,108.3828,22.8038,南宁市,大自然花园,,25,25,12,17,16,33,,34,34,11,8,6,5,0.6,0.6
2026-01-22T2200,1406A,108.2397,22.8462,南宁市,区农职院,,28,19,13,19,12,34,,28,28,17,15,10,7,1.0,1
2026-01-22T2200,1407A,108.3285,22.7356,南宁市,英华嘉园,,23,22,19,16,7,33,,30,30,12,11,4,3,0.8,0.8
2026-01-22T2200,3401A,108.4829,22.762,南宁市,红星社区,,36,,16,25,11,39,,42,42,11,10,6,5,0.5,0.5
2026-01-22T2200,4132A,108.2927,23.1477,南宁市,起凤路9号,,30,26,19,21,12,39,,29,29,7,8,1,1,0.8,0.8
2026-01-22T2200,4221A,108.2177,22.7774,南宁市,乐贤路16号,,30,30,22,18,13,13,,23,22,33,15,11,10,0.7,0.7
2026-01-22T2200,2332A,118.1682,26.6371,南平市,南平市监测站,细颗粒物(PM2.5),59,53,42,42,35,11,,34,22,25,15,3,3,0.3,0.3
2026-01-22T2200,2334A,118.1757,26.6276,南平市,南平七中,细颗粒物(PM2.5),54,,37,38,35,10,,34,20,26,16,3,6,0.6,0.6
2026-01-22T2200,1168A,120.9056,31.9669,南通市,狼山街道,细颗粒物(PM2.5),77,67,46,56,33,45,,68,58,36,23,3,4,0.6,0.5
2026-01-22T2200,1170A,120.8635,32.0231,南通市,城中,细颗粒物(PM2.5),77,76,50,56,32,42,,70,60,36,22,5,5,1.1,0.9
2026-01-22T2200,1171A,120.9376,31.9301,南通市,星湖花园,细颗粒物(PM2.5),55,56,43,39,27,52,,75,64,41,24,6,6,0.5,0.4
2026-01-22T2200,1172A,120.8053,32.046,南通市,紫琅学院,细颗粒物(PM2.5),72,74,53,52,34,49,,75,59,36,24,4,5,0.6,0.6
2026-01-22T2200,3291A,121.0631,32.0644,南通市,通州监测站,细颗粒物(PM2.5),67,58,43,48,31,51,,78,73,37,22,4,4,0.7,0.6
2026-01-22T2200,3432A,120.9348,31.9874,南通市,环境教育馆,细颗粒物(PM2.5),82,75,48,60,34,2,,71,47,76,28,4,5,0.8,0.7
2026-01-22T2200,4091A,120.8692,31.9885,南通市,洪江路,细颗粒物(PM2.5),70,61,41,51,30,38,,69,59,39,19,3,4,0.6,0.5
2026-01-22T2200,2404A,112.5338,33.0086,南阳市,瓦房庄,细颗粒物(PM2.5),77,67,75,56,71,84,,94,93,17,19,6,7,0.7,0.8
2026-01-22T2200,2405A,112.5002,32.9734,南阳市,汉画馆,细颗粒物(PM2.5),80,72,82,59,75,78,,92,88,23,29,6,6,0.5,0.6
2026-01-22T2200,2406A,112.5778,33.0144,南阳市,气象站,细颗粒物(PM2.5),73,72,83,53,60,93,,94,93,15,21,5,6,0.7,0.7
2026-01-22T2200,2407A,112.548,32.9687,南阳市,理工学院,细颗粒物(PM2.5),69,67,74,50,55,81,,88,84,17,23,5,5,0.6,0.6
2026-01-22T2200,4008A,112.5233,32.9921,南阳市,卧龙区政府,细颗粒物(PM2.5),80,81,88,59,64,78,,86,84,17,21,5,7,0.7,0.7
2026-01-22T2200,1234A,121.8352,29.9111,宁波市,区环保大楼,颗粒物(PM10),56,62,43,34,25,9,,55,39,64,31,4,5,0.9,0.7
2026-01-22T2200,1235A,121.5595,29.8208,宁波市,万里学院,颗粒物(PM10),60,69,50,38,32,8,,69,57,74,23,3,3,0.6,0.5
2026-01-22T2200,1236A,121.713,29.9564,宁波市,龙赛医院,"颗粒物(PM10),细颗粒物(PM2.5)",59,68,42,42,27,4,,61,45,80,27,4,3,0.5,0.4
2026-01-22T2200,1240A,121.5855,29.8635,宁波市,太古小学,颗粒物(PM10),64,77,49,39,29,28,,73,62,54,26,4,4,0.6,0.5
2026-01-22T2200,1241A,121.5239,29.8673,宁波市,市环境监测中心,细颗粒物(PM2.5),64,59,46,46,31,37,,70,64,38,18,6,6,0.7,0.5
2026-01-22T2200,2871A,121.6156,29.9015,宁波市,万里国际学校,细颗粒物(PM2.5),58,51,40,41,28,34,,72,62,49,21,3,4,0.7,0.6
2026-01-22T2200,3710A,121.5593,29.8976,宁波市,白沙活动中心,,50,47,40,35,27,44,,71,58,39,22,4,4,0.6,0.5
2026-01-22T2200,4095A,121.8962,29.7529,宁波市,中科路88号,,41,41,32,28,23,20,,59,42,46,27,4,5,0.4,0.4
2026-01-22T2200,2341A,119.5387,26.6611,宁德市,宁德市监测站,,38,36,31,26,20,42,,44,38,23,22,5,4,0.5,0.4
2026-01-22T2200,3209A,119.5231,26.6562,宁德市,宁德一中,,39,33,31,27,20,43,,47,38,21,19,3,3,0.5,0.4
2026-01-22T2200,2618A,98.859,25.8541,怒江傈僳族自治州,州监测站,,48,48,34,32,22,44,,78,71,22,12,6,5,0.7,0.4
2026-01-22T2200,2619A,98.8607,25.8168,怒江傈僳族自治州,泸水一中,,48,43,28,33,23,18,,68,52,38,18,4,4,0.9,0.6
2026-01-22T2200,1888A,101.6891,26.571,攀枝花市,弄弄坪,细颗粒物(PM2.5),139,112,101,106,66,55,,109,98,31,39,13,28,0.9,1.8
2026-01-22T2200,1889A,101.577,26.5914,攀枝花市,河门口,细颗粒物(PM2.5),107,103,88,80,59,62,,106,102,22,28,21,28,1.0,1.3
2026-01-22T2200,1891A,101.7365,26.4986,攀枝花市,仁和,细颗粒物(PM2.5),117,122,67,88,43,42,,98,82,30,28,10,11,1.2,1
2026-01-22T2200,2835A,101.7222,26.567,攀枝花市,四十中小,细颗粒物(PM2.5),84,85,70,62,46,29,,87,69,57,28,16,18,1.4,1.2
2026-01-22T2200,1604A,122.0303,41.1489,盘锦市,开发区,,26,20,42,18,25,35,,64,44,22,23,2,5,1.0,1.1
2026-01-22T2200,1605A,122.0486,41.0883,盘锦市,兴隆台,,38,30,41,26,30,17,,60,35,53,44,5,9,0.9,1
2026-01-22T2200,1606A,121.8297,41.1026,盘锦市,新生街道,,22,16,31,10,19,26,,68,48,43,35,7,13,0.4,0.6
2026-01-22T2200,1832A,113.3257,33.7423,平顶山市,新华旅馆,细颗粒物(PM2.5),108,135,98,81,60,31,,99,83,78,40,5,6,0.8,0.7
2026-01-22T2200,1833A,113.2917,33.737,平顶山市,规划设计院,细颗粒物(PM2.5),113,118,91,85,65,61,,98,90,34,22,6,7,0.8,0.6
2026-01-22T2200,1834A,113.182,33.7738,平顶山市,平顶山工学院,细颗粒物(PM2.5),92,77,80,68,66,85,,110,104,17,18,7,8,0.6,0.6
2026-01-22T2200,3594A,112.8736,33.9068,平顶山市,石龙区,细颗粒物(PM2.5),149,149,109,114,86,38,,99,84,52,24,5,6,0.9,0.7
2026-01-22T2200,4116A,113.284,33.7139,平顶山市,姚电大道23号,细颗粒物(PM2.5),118,114,102,89,70,60,,99,88,42,30,4,7,0.7,0.6
2026-01-22T2200,2656A,106.6633,35.5338,平凉市,聚贤嘉苑,细颗粒物(PM2.5),70,87,69,51,37,15,,53,42,49,33,19,22,0.8,0.6
2026-01-22T2200,2657A,106.7021,35.5307,平凉市,博物馆,细颗粒物(PM2.5),95,97,73,71,45,22,,54,40,40,37,15,15,1.3,1
2026-01-22T2200,2348A,113.8384,27.6436,萍乡市,中医院,细颗粒物(PM2.5),109,125,102,82,69,14,,26,24,51,39,5,4,0.9,1
2026-01-22T2200,2350A,113.8677,27.6438,萍乡市,市环保局,细颗粒物(PM2.5),123,107,87,93,75,11,,27,23,36,24,14,13,1.2,1.1
2026-01-22T2200,2351A,113.8663,27.6202,萍乡市,安源区政府,细颗粒物(PM2.5),109,97,84,82,68,16,,24,23,26,22,10,10,1.1,1
2026-01-22T2200,4107A,113.8686,27.6668,萍乡市,联洪村委会,细颗粒物(PM2.5),105,107,101,79,76,16,,23,20,34,30,2,3,0.9,1
2026-01-22T2200,2319A,119.0142,25.4324,莆田市,荔城区仓后路,,42,32,40,29,29,25,,49,36,33,17,/,/,/,/
2026-01-22T2200,2320A,119.0016,25.4553,莆田市,莆田市监测站,,28,20,28,19,27,51,,50,44,12,12,2,2,0.5,0.6
2026-01-22T2200,2321A,119.112,25.4561,莆田市,涵江区六中,,38,33,33,26,27,33,,51,38,26,19,/,/,0.4,0.4
2026-01-22T2200,2322A,119.1014,25.3215,莆田市,秀屿区政府,,50,44,37,35,31,26,,53,31,32,18,6,3,0.9,0.7
2026-01-22T2200,2392A,115.0312,35.7636,濮阳市,环保局,细颗粒物(PM2.5),92,,56,68,39,88,,84,84,23,23,6,6,0.5,0.4
2026-01-22T2200,3021A,115,35.7667,濮阳市,濮水河管理处,颗粒物(PM10),65,79,76,37,36,96,,95,95,20,19,5,6,0.6,0.6
2026-01-22T2200,4118A,115.0552,35.7816,濮阳市,中原东路68号,细颗粒物(PM2.5),83,80,75,61,54,99,,93,93,19,20,5,5,0.7,0.5
2026-01-22T2200,4216A,115.0923632,35.76857718,濮阳市,任丘路479号,细颗粒物(PM2.5),97,87,79,72,61,78,,88,87,26,22,4,5,0.8,0.7
2026-01-22T2200,2601A,100.9801,22.7634,普洱市,市环保局,颗粒物(PM10),58,65,53,15,15,50,,79,69,13,12,4,5,0.4,0.4
2026-01-22T2200,2602A,100.9763,22.8237,普洱市,普洱第二中学,颗粒物(PM10),51,52,49,34,25,61,,89,76,14,21,5,5,0.3,0.3
2026-01-22T2200,3345A,131.0413,45.7795,七台河市,中波台,,43,42,30,30,17,52,,66,61,20,14,9,8,0.5,0.4
2026-01-22T2200,3637A,131.0136,45.7688,七台河市,人民广场,,46,46,32,18,14,61,,67,63,16,16,5,6,0.5,0.5
2026-01-22T2200,3684A,130.8639,45.8144,七台河市,新建矿广场,,36,29,23,25,18,57,,61,59,12,9,4,5,0.3,0.3
2026-01-22T2200,1779A,123.9307,47.3641,齐齐哈尔市,安居小区,,28,28,20,10,8,52,,64,53,16,13,9,8,0.6,0.5
2026-01-22T2200,1780A,123.9497,47.3389,齐齐哈尔市,中心广场,,19,8,14,3,7,60,,62,53,9,12,7,5,0.4,0.6
2026-01-22T2200,1781A,123.9483,47.3229,齐齐哈尔市,农牧车辆厂,,20,14,19,7,6,61,,63,53,7,10,5,5,0.3,0.3
2026-01-22T2200,1783A,123.9442,47.2994,齐齐哈尔市,市环境监测站,,20,11,24,3,8,63,,64,49,9,12,6,4,0.4,0.5
2026-01-22T2200,3662A,123.6341,47.2079,齐齐哈尔市,富区青少年活动中心,,34,34,30,23,10,55,,65,44,12,16,7,7,0.7,0.7
2026-01-22T2200,2591A,107.9765,26.5724,黔东南苗族侗族自治州,市环境监测站,细颗粒物(PM2.5),59,46,40,42,36,18,,64,48,35,9,6,5,0.7,0.6
2026-01-22T2200,2881A,107.8909,26.531,黔东南苗族侗族自治州,凯里学院,,45,,40,31,30,40,,65,55,14,8,4,2,0.6,0.6
2026-01-22T2200,2593A,107.5223,26.2371,黔南布依族苗族自治州,小围寨,细颗粒物(PM2.5),52,,29,36,27,34,,56,44,14,7,6,5,0.8,0.8
2026-01-22T2200,3538A,107.5175,26.2977,黔南布依族苗族自治州,沙坝,细颗粒物(PM2.5),52,44,37,36,33,48,,63,52,8,8,5,5,0.7,0.6
2026-01-22T2200,2589A,104.9022,25.0943,黔西南布依族苗族自治州,场坝街,颗粒物(PM10),63,75,33,43,20,31,,39,36,15,14,3,5,0.9,0.8
2026-01-22T2200,2590A,104.8812,25.0994,黔西南布依族苗族自治州,坪东大道,细颗粒物(PM2.5),67,63,30,48,22,30,,40,36,17,13,6,7,1.0,0.9
2026-01-22T2200,2502A,108.6238,21.9667,钦州市,市环保站,,41,41,21,3,5,34,,34,34,19,16,2,1,0.9,1
2026-01-22T2200,2503A,108.655,21.9481,钦州市,沙埠小学,,29,26,16,20,9,39,,38,38,17,17,3,3,0.6,0.6
2026-01-22T2200,2504A,108.5989,21.7435,钦州市,港区一小,,33,32,27,23,21,30,,29,29,19,19,2,2,0.6,0.6
2026-01-22T2200,3404A,108.5959,21.9634,钦州市,北职校,,30,23,13,21,12,37,,36,36,9,8,1,1,0.5,0.5
2026-01-22T2200,1046A,119.5247,39.9346,秦皇岛市,建设大厦,颗粒物(PM10),64,78,53,34,24,4,,56,35,66,42,12,9,1.0,0.8
2026-01-22T2200,3132A,119.5979,39.938,秦皇岛市,文明里,颗粒物(PM10),66,81,48,43,23,2,,55,30,73,48,13,11,1.0,0.7
2026-01-22T2200,4066A,119.7458,39.9952,秦皇岛市,南园路157号,细颗粒物(PM2.5),85,92,41,63,18,7,,58,33,73,48,15,9,1.8,0.7
2026-01-22T2200,4067A,119.5131,39.8858,秦皇岛市,翠岛大街1号,颗粒物(PM10),63,75,44,40,13,4,,55,34,63,35,14,10,1.1,0.6
2026-01-22T2200,4198A,119.509013,39.825305,秦皇岛市,北戴河轮滑馆,细颗粒物(PM2.5),80,102,44,59,18,6,,59,40,68,32,15,8,1.5,0.7
2026-01-22T2200,1310A,120.404,36.0625,青岛市,市南区东部子站,细颗粒物(PM2.5),70,80,44,51,22,43,,65,60,40,28,15,14,0.9,0.6
2026-01-22T2200,1311A,120.362344,36.10282,青岛市,四方区子站,细颗粒物(PM2.5),73,75,44,53,27,42,,62,58,39,28,11,12,1.0,0.8
2026-01-22T2200,1312A,120.294373,36.054183,青岛市,市南区西部子站,颗粒物(PM10),63,75,40,39,23,35,,62,55,50,30,9,7,0.8,0.6
2026-01-22T2200,1313A,120.4581,36.0858,青岛市,崂山区子站,细颗粒物(PM2.5),64,73,36,46,20,42,,63,59,42,30,15,14,0.7,0.4
2026-01-22T2200,1315A,120.3945,36.3083,青岛市,城阳区子站,颗粒物(PM10),60,70,52,32,28,13,,63,37,72,50,11,11,1.1,1
2026-01-22T2200,3642A,120.3454,36.0735,青岛市,市北区南部,细颗粒物(PM2.5),70,56,38,51,21,37,,59,55,40,27,7,7,0.9,0.7
2026-01-22T2200,3643A,120.3897,36.18,青岛市,李沧区北部,细颗粒物(PM2.5),67,63,42,48,32,18,,57,42,63,40,14,14,1.3,1
2026-01-22T2200,4110A,120.5222,36.4089,青岛市,盟旺路653号,,49,49,63,28,34,38,,62,48,41,46,7,8,0.7,0.9
2026-01-22T2200,4290A,120.196923,35.954556,青岛市,珠江路669号,细颗粒物(PM2.5),74,66,34,54,27,49,,72,66,40,30,9,8,1.1,0.9
2026-01-22T2200,4291A,120.0424,35.8656,青岛市,黄岛区人民政府广场,细颗粒物(PM2.5),67,80,50,48,27,45,,70,61,42,36,15,12,1.0,1
2026-01-22T2200,1703A,113.0218,23.7086,清远市,凤城街办,,22,22,21,15,13,27,,32,30,20,18,/,/,/,/
2026-01-22T2200,3025A,113.0479,23.6343,清远市,技师学院,,34,34,28,22,16,21,,28,26,26,22,8,5,0.7,0.6
2026-01-22T2200,3318A,112.9898,23.7403,清远市,清新太和,,24,24,21,16,13,27,,33,32,15,14,8,6,0.6,0.6
2026-01-22T2200,3455A,113.076,23.72,清远市,清城东城,,,36,22,20,11,26,,34,30,,18,/,/,/,/
2026-01-22T2200,2661A,107.6325,35.7357,庆阳市,庆阳五中,细颗粒物(PM2.5),72,73,60,52,40,56,,82,71,32,24,8,8,1.1,0.7
2026-01-22T2200,2662A,107.6361,35.7067,庆阳市,市环保局,细颗粒物(PM2.5),80,61,55,59,44,74,,82,80,18,18,7,9,1.0,1.1
2026-01-22T2200,1916A,103.7897,25.5036,曲靖市,环境监测站,,49,49,45,27,22,11,,33,30,31,18,12,7,1.2,0.8
2026-01-22T2200,1917A,103.8013,25.5357,曲靖市,烟厂办公区,颗粒物(PM10),58,65,49,40,24,4,,27,19,36,21,20,11,1.6,0.8
2026-01-22T2200,3376A,103.7926,25.4651,曲靖市,南苑二区,,48,48,37,30,22,22,,40,37,15,12,3,5,0.9,0.8
2026-01-22T2200,3377A,103.7442,25.5259,曲靖市,曲靖师范学院,细颗粒物(PM2.5),72,70,57,52,39,12,,29,27,28,20,8,8,1.1,0.8
2026-01-22T2200,1264A,118.8694,28.94,衢州市,环保大楼,细颗粒物(PM2.5),84,75,55,62,47,29,,54,44,44,25,/,/,/,/
2026-01-22T2200,1266A,118.8622,28.9809,衢州市,衢州学院,细颗粒物(PM2.5),70,67,52,51,41,18,,53,41,55,26,6,6,0.6,0.6
2026-01-22T2200,4097A,118.9646,28.9832,衢州市,衢州三中,细颗粒物(PM2.5),87,90,62,64,47,13,,51,40,56,25,4,5,1.1,1
2026-01-22T2200,1611A,118.5818,24.9116,泉州市,涂山街,,45,36,32,31,29,28,,50,36,30,20,3,3,0.7,0.6
2026-01-22T2200,1612A,118.597,24.8976,泉州市,津头埔,,46,35,35,32,30,26,,50,36,27,18,4,4,0.5,0.5
2026-01-22T2200,1613A,118.6669,24.9422,泉州市,万安,,40,36,37,28,29,28,,46,34,27,21,4,4,0.5,0.4
2026-01-22T2200,4105A,118.6355,24.9148,泉州市,霞新路6号,,44,44,43,28,28,28,,50,36,30,21,/,/,0.6,0.6
2026-01-22T2200,2626A,88.8873,29.2723,日喀则市,日喀则监测站,,,,19,,10,14,,82,67,80,15,58,11,3.5,0.7
2026-01-22T2200,3726A,88.8775,29.2425,日喀则市,林业技术推广中心,,22,22,16,10,5,54,,78,75,12,6,10,9,0.3,0.3
2026-01-22T2200,1659A,119.4711,35.421,日照市,监测站,细颗粒物(PM2.5),85,90,63,63,40,28,,56,43,58,45,18,14,1.2,1
2026-01-22T2200,1660A,119.523,35.4216,日照市,市政府广场,细颗粒物(PM2.5),83,83,57,61,36,46,,60,52,44,39,17,13,1.1,0.7
2026-01-22T2200,1661A,119.5511,35.4113,日照市,港务局,细颗粒物(PM2.5),84,85,71,62,47,41,,51,45,46,44,15,11,1.3,0.9
2026-01-22T2200,3507A,119.5326,35.4627,日照市,职业技术学院,细颗粒物(PM2.5),67,75,58,48,32,53,,60,54,39,42,16,12,1.0,0.9
2026-01-22T2200,3604A,119.3267,35.1043,日照市,岚山环保分局,细颗粒物(PM2.5),70,58,72,51,50,52,,65,63,33,31,13,20,0.9,1.1
2026-01-22T2200,1835A,111.1922,34.7752,三门峡市,市政府,细颗粒物(PM2.5),95,91,74,71,67,17,,65,43,56,43,14,14,1.1,0.9
2026-01-22T2200,1836A,111.1588,34.794,三门峡市,开发区,细颗粒物(PM2.5),83,100,99,61,76,19,,66,53,56,29,9,9,0.9,0.8
2026-01-22T2200,3039A,111.1911,34.7829,三门峡市,三门峡市第一小学,细颗粒物(PM2.5),82,85,83,60,65,33,,66,51,39,34,8,11,0.7,0.8
2026-01-22T2200,3598A,111.1031,34.719,三门峡市,富达温泉假日酒店,细颗粒物(PM2.5),70,76,90,51,69,39,,69,58,33,38,10,14,0.7,0.9
2026-01-22T2200,2324A,117.621,26.2626,三明市,三钢,细颗粒物(PM2.5),59,,30,42,32,19,,34,24,17,12,8,5,0.4,0.5
2026-01-22T2200,2325A,117.6352,26.2714,三明市,三明二中,,50,,27,35,27,19,,34,26,18,11,5,2,0.5,0.5
2026-01-22T2200,2326A,117.6028,26.2377,三明市,三元区政府,,48,37,21,33,19,26,,38,30,16,11,7,4,0.5,0.5
2026-01-22T2200,1877A,109.4962,18.2682,三亚市,河西子站,,45,45,45,20,23,99,,104,103,8,10,3,3,0.5,0.5
2026-01-22T2200,3540A,109.7348,18.3443,三亚市,君悦子站,,39,39,45,24,23,87,,103,102,9,9,4,4,0.5,0.5
2026-01-22T2200,4135A,109.1714,18.3739,三亚市,城东小学站,细颗粒物(PM2.5),57,55,44,40,26,86,,105,103,15,11,/,/,/,/
2026-01-22T2200,2624A,91.7592,29.234,山南市,山南监测站,,40,40,24,27,11,40,,73,68,36,14,4,4,0.7,0.3
2026-01-22T2200,2625A,91.7701,29.2436,山南市,山南人民医院,,25,25,25,15,12,60,,81,77,21,14,9,8,0.8,0.6
2026-01-22T2200,1674A,116.6795,23.3666,汕头市,金平子站,,42,32,38,29,29,13,,51,36,21,17,6,6,0.9,0.9
2026-01-22T2200,1675A,116.7248,23.3632,汕头市,龙湖子站,,33,33,36,22,23,11,,62,42,22,17,11,11,/,/
2026-01-22T2200,1676A,116.7257,23.2774,汕头市,濠江子站,细颗粒物(PM2.5),52,36,37,36,30,6,,74,52,31,19,9,9,/,/
2026-01-22T2200,1677A,116.7518,23.4712,汕头市,澄海子站,,43,36,40,30,29,8,,38,27,21,16,6,9,0.7,0.6
2026-01-22T2200,1678A,116.6088,23.2539,汕头市,潮阳子站,,32,32,38,20,21,12,,60,45,24,16,8,7,0.8,0.7
2026-01-22T2200,3444A,116.4539,23.2684,汕头市,潮南峡山,,37,37,42,25,28,22,,58,43,17,20,8,9,0.8,0.8
2026-01-22T2200,3624A,116.4069,23.2533,汕头市,潮南子站,颗粒物(PM10),53,56,54,32,32,13,,50,37,26,22,7,8,/,/
2026-01-22T2200,1693A,115.3653,22.7751,汕尾市,市环保局,,23,16,27,16,22,27,,51,45,12,13,7,7,0.6,0.6
2026-01-22T2200,1695A,115.362,22.7926,汕尾市,新城中学,,25,22,27,17,21,29,,52,46,12,12,5,7,0.6,0.6
2026-01-22T2200,2645A,109.9155,33.8714,商洛市,监测站,细颗粒物(PM2.5),87,70,55,64,45,9,,53,36,56,30,8,7,1.3,0.7
2026-01-22T2200,3045A,109.9647,33.8486,商洛市,商州区中学,细颗粒物(PM2.5),52,40,52,36,41,40,,59,47,33,24,11,10,0.8,0.9
2026-01-22T2200,2408A,115.6701,34.4283,商丘市,环境监测站,细颗粒物(PM2.5),88,,62,65,67,91,,107,104,25,28,3,3,0.6,0.6
2026-01-22T2200,2409A,115.6458,34.4047,商丘市,粮食局,细颗粒物(PM2.5),83,,64,61,62,81,,98,94,22,21,6,5,0.7,0.7
2026-01-22T2200,3171A,115.6069,34.4465,商丘市,梁园区档案局,细颗粒物(PM2.5),83,,60,61,61,84,,107,101,22,27,3,6,0.7,0.5
2026-01-22T2200,4119A,115.6701,34.3767,商丘市,北海东路185号,细颗粒物(PM2.5),82,81,87,60,66,84,,99,96,28,38,2,2,0.7,0.8
2026-01-22T2200,4120A,115.6172,34.3704,商丘市,中山大街3号,细颗粒物(PM2.5),83,82,93,61,69,77,,97,89,36,41,6,5,0.3,0.4
2026-01-22T2200,1141A,121.401,31.2382,上海市,普陀,细颗粒物(PM2.5),69,72,43,50,31,33,,65,56,52,26,7,7,0.9,0.8
2026-01-22T2200,1142A,121.4774,31.2043,上海市,十五厂,细颗粒物(PM2.5),63,63,43,45,29,54,,59,57,38,33,6,7,0.9,0.9
2026-01-22T2200,1143A,121.4673,31.3011,上海市,虹口,细颗粒物(PM2.5),62,72,49,44,30,30,,51,44,52,31,8,9,0.5,0.5
2026-01-22T2200,1147A,121.4253,31.226,上海市,静安监测站,细颗粒物(PM2.5),70,68,43,51,33,45,,65,56,42,29,7,8,0.5,0.4
2026-01-22T2200,1148A,121.7029,31.1905,上海市,浦东川沙,,,71,46,,24,38,,63,58,49,28,7,7,0.3,0.2
2026-01-22T2200,1149A,121.5339,31.229,上海市,浦东新区监测站,细颗粒物(PM2.5),64,63,43,46,32,44,,58,54,42,31,6,7,0.8,0.7
2026-01-22T2200,1150A,121.5776,31.2038,上海市,浦东张江,细颗粒物(PM2.5),60,64,44,43,28,55,,63,61,31,27,7,7,0.7,0.6
2026-01-22T2200,3265A,121.4242,31.3303,上海市,宝山庙行,颗粒物(PM10),66,82,45,42,26,25,,64,52,47,29,8,8,0.6,0.5
2026-01-22T2200,3266A,121.8789,31.4662,上海市,崇明上实东滩,细颗粒物(PM2.5),52,49,40,36,27,52,,77,72,14,13,3,4,0.2,0.2
2026-01-22T2200,3268A,121.316,31.2839,上海市,嘉定南翔,"颗粒物(PM10),细颗粒物(PM2.5)",62,73,42,44,26,10,,61,45,76,29,4,5,0.9,0.7
2026-01-22T2200,3269A,121.3357,30.7455,上海市,金山新城,细颗粒物(PM2.5),64,54,39,46,33,48,,63,56,32,26,9,9,0.5,0.5
2026-01-22T2200,3270A,121.4996,31.0741,上海市,闵行浦江,细颗粒物(PM2.5),59,63,42,42,29,43,,54,51,30,20,7,8,0.5,0.4
2026-01-22T2200,3271A,121.2886,31.1663,上海市,青浦徐泾,颗粒物(PM10),63,76,43,43,29,19,,62,45,62,35,5,6,0.7,0.8
2026-01-22T2200,3272A,121.2193,31.0382,上海市,松江图书馆,颗粒物(PM10),75,100,48,48,30,10,,56,39,78,33,6,7,0.7,0.6
2026-01-22T2200,3273A,121.3904,31.206,上海市,长宁仙霞,细颗粒物(PM2.5),62,62,40,44,28,50,,62,57,29,21,7,8,0.3,0.3
2026-01-22T2200,3274A,121.7964,31.0507,上海市,浦东惠南,颗粒物(PM10),62,73,42,42,26,50,,67,61,32,25,5,5,0.8,0.7
2026-01-22T2200,3544A,121.4891,30.925,上海市,奉贤南桥新城,细颗粒物(PM2.5),67,76,48,48,32,53,,53,50,31,29,4,4,0.5,0.5
2026-01-22T2200,4183A,121.417401,31.16637,上海市,冠生园路458号,细颗粒物(PM2.5),69,64,39,50,28,50,,61,58,38,28,4,4,0.8,0.7
2026-01-22T2200,4205A,121.541914,31.268301,上海市,宁武路151号,细颗粒物(PM2.5),60,67,40,43,27,40,,60,50,45,32,5,5,0.9,0.8
