timepoint,stationcode,longitude,latitude,area,positionname,primarypollutant,aqi,pm10,pm10_24h,pm2_5,pm2_5_24h,o3,o3_24h,o3_8h,o3_8h_24h,no2,no2_24h,so2,so2_24h,co,co_24h
2022-01-03T13:00:00,1001A,116.3621,39.8784,北京市,万寿西宫,颗粒物(PM10),54,57,42,28,21,53,38,16,16,32,45,6,4,0.7,0.6
2022-01-03T13:00:00,1002A,116.2202,40.2915,北京市,定陵(对照点),,31,31,37,14,17,62,62,39,39,8,18,1,2,0.3,0.3
2022-01-03T13:00:00,1003A,116.4174,39.9289,北京市,东四,,40,40,42,25,21,52,39,22,17,25,36,3,2,0.5,0.5
2022-01-03T13:00:00,1004A,116.4072,39.8863,北京市,天坛,,40,40,37,23,18,59,41,16,16,29,40,3,2,0.5,0.4
2022-01-03T13:00:00,1005A,116.462,39.9365,北京市,农展馆,,41,41,49,26,22,53,39,23,14,26,42,3,2,0.4,0.5
2022-01-03T13:00:00,1006A,116.3392,39.9295,北京市,官园,,43,43,41,28,21,53,33,13,13,31,39,6,5,0.5,0.4
2022-01-03T13:00:00,1007A,116.2878,39.9611,北京市,海淀万柳,,50,50,52,22,20,53,40,15,15,30,44,4,2,0.4,0.4
2022-01-03T13:00:00,1008A,116.6636,40.135,北京市,顺义新城,,42,42,47,19,20,51,46,23,23,17,41,3,2,0.3,0.4
2022-01-03T13:00:00,1009A,116.6275,40.3275,北京市,怀柔镇,,38,38,38,17,19,48,44,27,25,15,27,1,2,0.4,0.4
2022-01-03T13:00:00,1010A,116.2296,40.217,北京市,昌平镇,,33,33,40,12,19,63,63,28,22,6,29,1,3,0.2,0.4
2022-01-03T13:00:00,1011A,116.3966,39.9821,北京市,奥体中心,,44,44,42,22,19,58,43,20,20,26,39,2,2,0.5,0.4
2022-01-03T13:00:00,1012A,116.184,39.9136,北京市,古城,颗粒物(PM10),54,58,52,32,20,53,27,13,13,36,40,3,3,0.6,0.4
2022-01-03T13:00:00,1015A,117.1444,39.1661,天津市,勤俭道,颗粒物(PM10),58,65,71,35,32,61,43,13,13,36,58,9,9,0.8,0.9
2022-01-03T13:00:00,1017A,117.237,39.1082,天津市,大直沽八号路,颗粒物(PM10),66,81,80,41,27,58,35,15,15,44,53,8,9,0.7,0.7
2022-01-03T13:00:00,1018A,117.202,39.0927,天津市,前进道,颗粒物(PM10),66,81,66,45,33,64,40,17,17,45,54,9,9,1.0,1
2022-01-03T13:00:00,1019A,117.1837,39.2133,天津市,淮河道,颗粒物(PM10),58,66,83,32,35,59,44,14,14,38,64,7,7,0.8,1.2
2022-01-03T13:00:00,1021A,117.307,39.0877,天津市,跃进路,颗粒物(PM10),65,80,78,40,32,64,41,14,14,41,55,6,9,0.6,0.7
2022-01-03T13:00:00,1023A,117.707,39.0343,天津市,第四大街,,,78,60,37,24,51,35,14,14,,58,,12,0.7,0.7
2022-01-03T13:00:00,1024A,117.457,38.8394,天津市,永明路,颗粒物(PM10),70,89,66,50,34,55,34,16,16,44,49,11,19,0.9,0.9
2022-01-03T13:00:00,1026A,117.764,39.1587,天津市,汉北路,,,84,54,42,22,58,34,10,10,40,56,9,9,,0.6
2022-01-03T13:00:00,1027A,117.157,38.9194,天津市,团泊洼(对照点),细颗粒物(PM2.5),69,78,66,50,32,55,40,14,14,50,54,9,10,0.5,0.5
2022-01-03T13:00:00,1029A,114.4422,38.0444,石家庄市,职工医院,颗粒物(PM10),65,79,55,41,33,62,24,11,11,40,43,17,8,1.1,0.7
2022-01-03T13:00:00,1030A,114.6063,38.0266,石家庄市,高新区,颗粒物(PM10),60,69,64,35,27,60,30,13,13,34,41,13,6,1.2,0.7
2022-01-03T13:00:00,1031A,114.4898,38.1328,石家庄市,西北水源,,23,23,68,16,34,67,38,14,14,18,28,12,8,1.3,0.4
2022-01-03T13:00:00,1032A,114.4586,38.0058,石家庄市,西南高教,细颗粒物(PM2.5),67,74,56,48,30,62,28,14,14,36,44,16,8,1.0,0.5
2022-01-03T13:00:00,1033A,114.5331,38.0178,石家庄市,世纪公园,颗粒物(PM10),63,75,54,39,34,65,24,12,12,37,35,15,8,1.0,0.4
2022-01-03T13:00:00,1034A,114.509,38.0457,石家庄市,人民会堂,细颗粒物(PM2.5),60,66,51,43,21,67,26,14,14,33,31,16,11,1.3,0.5
2022-01-03T13:00:00,1035A,114.3524,37.8911,石家庄市,封龙山(对照点),颗粒物(PM10),66,81,59,35,29,71,58,52,52,37,20,42,14,1.4,1
2022-01-03T13:00:00,1037A,118.131,39.6363,唐山市,雷达站,颗粒物(PM10),66,82,75,36,32,63,38,12,12,32,41,9,9,0.8,1
2022-01-03T13:00:00,1038A,118.1725,39.6334,唐山市,物资局,颗粒物(PM10),60,70,66,34,30,56,38,16,16,41,51,10,12,0.8,1
2022-01-03T13:00:00,1040A,118.1705,39.6506,唐山市,十二中,"颗粒物(PM10),细颗粒物(PM2.5)",57,64,67,40,36,61,43,15,15,36,48,8,10,0.7,1
2022-01-03T13:00:00,1041A,118.1869,39.622,唐山市,小山,颗粒物(PM10),59,67,80,31,31,62,40,16,16,43,56,7,10,0.7,1.1
2022-01-03T13:00:00,1042A,119.5134,39.8207,秦皇岛市,北戴河环保局,细颗粒物(PM2.5),54,56,58,38,32,67,54,26,26,22,39,12,16,1.0,1.3
2022-01-03T13:00:00,1043A,119.7493,40.0116,秦皇岛市,第一关,,34,34,69,12,31,71,71,33,33,16,45,6,15,0.4,1.4
2022-01-03T13:00:00,1044A,119.5897,39.9499,秦皇岛市,监测站,颗粒物(PM10),52,53,65,29,31,69,55,24,24,29,43,11,16,0.7,1.5
2022-01-03T13:00:00,1046A,119.5251,39.9041,秦皇岛市,建设大厦,颗粒物(PM10),52,53,65,32,32,73,58,27,27,22,40,8,15,0.7,1.5
2022-01-03T13:00:00,1048A,114.5302,36.6116,邯郸市,东污水处理厂,细颗粒物(PM2.5),88,99,85,65,48,60,37,19,19,44,50,24,17,0.9,0.8
2022-01-03T13:00:00,1049A,114.4918,36.5713,邯郸市,矿院,细颗粒物(PM2.5),98,97,80,73,50,60,38,18,18,40,44,26,17,1.1,0.7
2022-01-03T13:00:00,1050A,114.484,36.6133,邯郸市,丛台公园,细颗粒物(PM2.5),84,94,75,62,44,67,45,25,25,44,45,22,11,1.0,0.8
2022-01-03T13:00:00,1051A,115.493,38.8632,保定市,游泳馆,细颗粒物(PM2.5),62,52,50,44,36,68,40,20,20,40,51,7,8,0.6,0.6
2022-01-03T13:00:00,1052A,115.5213,38.8959,保定市,华电二区,,47,47,54,29,26,60,34,24,16,43,46,11,10,0.8,0.8
2022-01-03T13:00:00,1053A,115.4713,38.9108,保定市,接待中心,颗粒物(PM10),55,59,62,31,30,68,43,15,15,36,55,7,8,0.6,0.5
2022-01-03T13:00:00,1054A,115.4612,38.8416,保定市,地表水厂,颗粒物(PM10),56,61,74,25,33,72,41,17,17,44,57,11,12,0.5,0.7
2022-01-03T13:00:00,1055A,115.4323,38.8697,保定市,胶片厂,,,71,33,29,30,71,43,19,19,,53,9,11,0.6,0.6
2022-01-03T13:00:00,1056A,115.5086,38.8639,保定市,监测站,颗粒物(PM10),51,51,58,31,32,65,37,16,16,44,55,8,8,0.6,0.6
2022-01-03T13:00:00,1057A,114.8883,40.8336,张家口市,人民公园,,29,29,48,6,21,66,64,47,47,11,25,8,9,0.3,0.5
2022-01-03T13:00:00,1059A,114.8687,40.8042,张家口市,五金库,,46,46,53,17,27,61,59,48,47,17,26,10,10,0.5,0.5
2022-01-03T13:00:00,1060A,114.8902,40.762,张家口市,世纪豪园,,39,39,55,7,25,60,60,47,47,20,26,7,9,0.3,0.5
2022-01-03T13:00:00,1061A,114.8916,40.8661,张家口市,北泵房(对照点),,24,17,55,7,32,75,75,51,51,3,18,8,14,0.4,0.6
2022-01-03T13:00:00,1062A,117.9531,40.9081,承德市,铁路,颗粒物(PM10),69,88,67,26,34,54,26,10,10,31,41,11,11,0.7,1.1
2022-01-03T13:00:00,1063A,117.9392,40.9763,承德市,中国银行,颗粒物(PM10),63,75,62,34,41,62,30,17,17,34,39,13,10,1.2,1.3
2022-01-03T13:00:00,1064A,117.9503,40.928,承德市,开发区,颗粒物(PM10),53,55,68,32,38,65,26,13,13,40,47,14,12,1.1,1.3
2022-01-03T13:00:00,1065A,117.8051,40.9655,承德市,文化中心,颗粒物(PM10),69,88,75,44,49,56,34,9,9,31,42,37,18,1.1,1.3
2022-01-03T13:00:00,1066A,117.9268,41.0026,承德市,离宫(对照点),颗粒物(PM10),59,68,54,27,36,60,36,17,17,24,32,8,7,0.6,0.7
2022-01-03T13:00:00,1067A,116.6708,39.5111,廊坊市,药材公司,,50,50,76,20,39,57,32,11,11,34,52,5,6,0.5,0.7
2022-01-03T13:00:00,1068A,116.7214,39.5589,廊坊市,开发区,,48,48,75,15,39,56,39,10,10,29,55,5,7,0.4,0.7
2022-01-03T13:00:00,1070A,116.7244,39.5269,廊坊市,北华航天学院,颗粒物(PM10),57,64,81,14,35,57,36,12,12,35,52,6,8,0.5,0.7
2022-01-03T13:00:00,1071A,116.8842,38.2991,沧州市,沧县城建局,细颗粒物(PM2.5),65,77,85,47,42,63,42,14,14,39,54,17,15,0.8,1
2022-01-03T13:00:00,1072A,116.8584,38.3254,沧州市,电视转播站,颗粒物(PM10),62,73,79,41,39,66,48,18,18,36,51,10,12,0.8,0.8
2022-01-03T13:00:00,1073A,116.8709,38.3228,沧州市,市环保局,细颗粒物(PM2.5),73,81,71,53,40,64,47,16,16,32,50,14,13,0.7,0.7
2022-01-03T13:00:00,1074A,115.6838,37.7541,衡水市,电机北厂,细颗粒物(PM2.5),87,104,95,64,62,58,25,9,9,64,52,19,19,0.7,0.8
2022-01-03T13:00:00,1075A,115.6303,37.7316,衡水市,市监测站,,,,98,,56,50,32,9,9,,53,,13,,0.7
2022-01-03T13:00:00,1077A,114.4704,37.0886,邢台市,达活泉,细颗粒物(PM2.5),69,68,55,50,29,58,24,23,23,29,44,25,11,0.6,0.8
2022-01-03T13:00:00,1078A,114.5062,37.0349,邢台市,邢师高专,细颗粒物(PM2.5),73,76,62,53,40,59,50,28,28,25,39,13,10,0.9,0.7
2022-01-03T13:00:00,1079A,114.5237,37.0851,邢台市,路桥公司,细颗粒物(PM2.5),67,70,57,48,34,61,49,29,29,30,40,14,7,0.7,0.5
2022-01-03T13:00:00,1080A,114.4725,37.0719,邢台市,市环保局,细颗粒物(PM2.5),67,69,65,48,33,55,51,31,31,33,45,19,13,0.7,0.6
2022-01-03T13:00:00,1081A,112.5139,37.8873,太原市,尖草坪,细颗粒物(PM2.5),98,120,123,73,67,49,29,11,11,54,64,39,22,2.4,1.4
2022-01-03T13:00:00,1083A,112.434,38.0108,太原市,上兰(对照点),颗粒物(PM10),68,85,82,45,49,57,45,26,18,33,44,25,21,0.9,1
2022-01-03T13:00:00,1084A,112.469,37.7124,太原市,晋源,细颗粒物(PM2.5),103,118,130,77,79,39,25,9,9,70,77,51,24,2.5,1.8
2022-01-03T13:00:00,1085A,112.5583,37.7394,太原市,小店,细颗粒物(PM2.5),104,139,150,78,83,45,18,7,7,78,72,42,30,2.6,1.9
2022-01-03T13:00:00,1086A,112.5369,37.8692,太原市,桃园,细颗粒物(PM2.5),102,126,118,76,66,47,23,8,8,79,69,85,25,3.4,1.6
2022-01-03T13:00:00,1087A,112.57,37.8195,太原市,坞城,,,,133,,72,47,25,10,10,,67,,28,2.7,1.7
2022-01-03T13:00:00,1088A,112.549,37.9854,太原市,南寨,颗粒物(PM10),79,107,134,57,61,43,37,12,12,48,53,30,18,1.2,1.5
2022-01-03T13:00:00,1090A,111.6507,40.7517,呼和浩特市,呼市一监,颗粒物(PM10),82,114,120,57,68,54,39,18,18,32,56,22,26,1.1,2
2022-01-03T13:00:00,1091A,111.6572,40.8033,呼和浩特市,小召,细颗粒物(PM2.5),87,112,87,64,47,44,31,14,14,49,61,28,24,1.2,1.5
2022-01-03T13:00:00,1094A,111.7516,40.8369,呼和浩特市,如意水处理厂,"颗粒物(PM10),细颗粒物(PM2.5)",69,88,62,50,38,57,41,15,15,41,56,23,22,1.3,1.4
2022-01-03T13:00:00,1095A,111.7276,40.8062,呼和浩特市,二十九中,颗粒物(PM10),75,99,74,54,37,58,38,14,14,41,56,22,23,1.1,1.2
2022-01-03T13:00:00,1096A,111.5512,40.7866,呼和浩特市,工大金川校区,颗粒物(PM10),99,148,108,67,58,36,34,12,12,35,50,27,34,1.2,1.4
2022-01-03T13:00:00,1097A,111.717,40.7612,呼和浩特市,化肥厂生活区,颗粒物(PM10),79,108,90,57,58,54,30,12,12,39,51,25,26,1.1,1.7
2022-01-03T13:00:00,1098A,123.6836,41.9339,沈阳市,森林路(对照点),,,72,57,50,36,47,40,34,34,30,31,,21,,1.3
2022-01-03T13:00:00,1099A,123.505,41.7406,沈阳市,浑南东路,细颗粒物(PM2.5),62,71,75,44,50,59,36,14,14,43,46,40,35,0.9,1.6
2022-01-03T13:00:00,1100A,123.4231,41.6989,沈阳市,新秀街,细颗粒物(PM2.5),67,81,71,48,37,55,40,17,17,37,47,33,28,1.3,1.8
2022-01-03T13:00:00,1102A,123.5903,41.8411,沈阳市,东陵路,细颗粒物(PM2.5),62,72,73,44,44,53,42,18,18,28,38,27,26,0.9,1.5
2022-01-03T13:00:00,1103A,123.4264,41.8467,沈阳市,陵东街,细颗粒物(PM2.5),62,72,67,44,39,55,50,22,22,30,50,22,28,1.0,1.6
2022-01-03T13:00:00,1104A,123.4114,41.7653,沈阳市,文化路,细颗粒物(PM2.5),77,84,69,56,43,60,42,18,18,32,40,29,32,1.1,1.5
2022-01-03T13:00:00,1105A,123.4678,41.7867,沈阳市,小河沿,颗粒物(PM10),66,81,78,44,44,56,36,12,12,42,47,32,26,0.8,1.4
2022-01-03T13:00:00,1106A,123.4017,41.7972,沈阳市,太原街,细颗粒物(PM2.5),78,76,64,57,46,47,38,16,16,38,49,24,42,0.9,1.3
2022-01-03T13:00:00,1108A,123.3783,41.9228,沈阳市,京沈街,细颗粒物(PM2.5),79,78,65,58,44,59,52,22,22,23,44,14,30,1.1,1.6
2022-01-03T13:00:00,1109A,121.612,38.9741,大连市,甘井子,颗粒物(PM10),53,56,34,32,19,67,63,46,33,20,39,12,19,0.5,0.6
2022-01-03T13:00:00,1110A,121.565,38.9511,大连市,周水子,颗粒物(PM10),58,66,47,27,20,57,54,31,25,17,43,10,14,0.4,0.5
2022-01-03T13:00:00,1111A,121.5637,38.8845,大连市,星海三站,细颗粒物(PM2.5),57,57,31,40,16,63,44,56,36,19,28,9,11,0.5,0.7
2022-01-03T13:00:00,1112A,121.6302,38.9117,大连市,青泥洼桥,颗粒物(PM10),71,91,35,27,14,60,52,49,32,32,43,13,15,0.7,0.7
2022-01-03T13:00:00,1113A,121.6251,38.8638,大连市,傅家庄,颗粒物(PM10),52,54,32,35,15,52,52,50,40,22,23,10,15,0.6,0.5
2022-01-03T13:00:00,1114A,121.5213,38.8661,大连市,七贤岭,颗粒物(PM10),66,81,36,29,16,64,59,38,38,16,19,16,14,0.7,0.6
2022-01-03T13:00:00,1115A,121.2529,38.8061,大连市,旅顺,细颗粒物(PM2.5),58,57,32,41,19,68,65,58,43,20,25,11,10,0.5,0.4
2022-01-03T13:00:00,1116A,121.7485,39.1311,大连市,金州,,30,29,35,21,22,67,67,45,32,11,28,13,14,0.4,0.6
2022-01-03T13:00:00,1117A,121.7811,39.0496,大连市,开发区,,46,46,39,22,21,59,59,39,29,17,42,9,10,0.4,0.6
2022-01-03T13:00:00,1118A,121.9762,39.0631,大连市,双D港,,39,39,21,18,12,71,71,52,51,22,29,7,9,0.5,0.4
2022-01-03T13:00:00,1119A,125.3325,43.9166,长春市,食品厂,颗粒物(PM10),54,57,60,31,42,52,49,20,20,22,42,12,20,0.6,0.9
2022-01-03T13:00:00,1120A,125.2863,43.9027,长春市,客车厂,细颗粒物(PM2.5),55,45,63,39,42,61,58,22,22,13,34,3,11,0.5,0.9
2022-01-03T13:00:00,1121A,125.2841,43.8463,长春市,邮电学院,,45,45,65,24,39,52,49,19,19,15,38,16,16,0.6,0.9
2022-01-03T13:00:00,1122A,125.3716,43.8772,长春市,劳动公园,,42,42,48,22,35,58,55,19,19,17,40,15,17,0.4,0.7
2022-01-03T13:00:00,1123A,125.3297,43.8805,长春市,园林处,,,,48,,31,55,52,19,19,18,40,17,20,0.5,0.8
2022-01-03T13:00:00,1124A,125.4605,43.79,长春市,净月潭,,48,48,39,29,27,69,64,51,41,13,16,11,10,0.7,0.7
2022-01-03T13:00:00,1125A,125.7194,43.515,长春市,甩湾子(对照点),,50,50,48,29,33,60,52,31,31,16,18,6,5,0.6,0.7
2022-01-03T13:00:00,1126A,125.3863,43.8447,长春市,经开区环卫处,,40,40,47,22,33,59,54,25,25,21,37,18,15,0.8,1
2022-01-03T13:00:00,1127A,125.245,43.7783,长春市,高新区管委会,颗粒物(PM10),55,59,53,22,44,62,60,24,24,12,32,14,13,0.5,0.8
2022-01-03T13:00:00,1128A,125.1761,43.8325,长春市,岱山公园,,42,38,58,29,51,70,70,36,36,12,37,3,4,0.4,0.6
2022-01-03T13:00:00,1129A,126.5422,45.755,哈尔滨市,岭北(对照点),,,,49,41,28,68,62,49,41,,17,19,16,0.7,0.6
2022-01-03T13:00:00,1130A,126.561,45.8167,哈尔滨市,松北商大,细颗粒物(PM2.5),60,63,35,43,27,55,55,33,33,18,23,8,6,0.8,0.7
2022-01-03T13:00:00,1131A,126.979,45.5419,哈尔滨市,阿城会宁,颗粒物(PM10),66,81,48,33,35,60,60,32,32,23,25,33,27,0.6,0.4
2022-01-03T13:00:00,1133A,126.689,45.7733,哈尔滨市,太平宏伟公园,颗粒物(PM10),64,77,41,29,34,65,54,50,32,30,33,42,36,0.8,1
2022-01-03T13:00:00,1134A,126.635,45.7667,哈尔滨市,道外承德广场,,48,45,37,33,27,58,48,43,21,26,31,24,21,0.7,0.6
2022-01-03T13:00:00,1135A,126.685,45.7319,哈尔滨市,香坊红旗大街,细颗粒物(PM2.5),65,64,46,47,31,61,46,45,26,31,29,37,30,0.7,0.7
2022-01-03T13:00:00,1136A,126.6411,45.7258,哈尔滨市,动力和平路,细颗粒物(PM2.5),57,56,44,40,31,50,49,40,27,23,28,22,23,0.7,0.8
2022-01-03T13:00:00,1137A,126.593,45.7478,哈尔滨市,道里建国路,,,78,45,47,36,53,40,41,22,,32,,24,,0.1
2022-01-03T13:00:00,1138A,126.615,45.61,哈尔滨市,平房东轻厂,细颗粒物(PM2.5),75,65,42,55,31,57,44,26,26,30,32,22,17,0.7,0.6
2022-01-03T13:00:00,1139A,126.595,45.9855,哈尔滨市,呼兰师专,,39,33,38,27,29,60,56,41,41,16,22,16,17,0.7,0.8
2022-01-03T13:00:00,1140A,126.6206,45.6842,哈尔滨市,省农科院,,,,70,,50,82,48,52,34,31,36,36,34,,1.1
2022-01-03T13:00:00,1141A,121.4,31.238,上海市,普陀,细颗粒物(PM2.5),73,54,82,53,73,103,72,33,33,58,62,8,5,1.0,1.1
2022-01-03T13:00:00,1142A,121.478,31.2036,上海市,十五厂,细颗粒物(PM2.5),70,53,79,51,74,105,69,34,34,54,60,13,7,0.8,1.1
2022-01-03T13:00:00,1143A,121.467,31.3008,上海市,虹口,细颗粒物(PM2.5),68,44,66,49,70,103,79,31,31,50,67,5,4,0.7,1
2022-01-03T13:00:00,1144A,121.412,31.1654,上海市,徐汇上师大,细颗粒物(PM2.5),70,42,68,51,73,90,79,38,38,49,68,8,8,0.8,1.2
2022-01-03T13:00:00,1145A,121.536,31.2659,上海市,杨浦四漂,细颗粒物(PM2.5),55,32,57,39,58,112,70,28,28,61,75,7,7,1.0,1.2
2022-01-03T13:00:00,1147A,121.425,31.2261,上海市,静安监测站,细颗粒物(PM2.5),77,57,70,56,74,89,59,36,32,60,62,10,7,1.2,1.5
2022-01-03T13:00:00,1148A,121.703,31.1907,上海市,浦东川沙,,,37,71,40,72,112,82,35,35,29,59,,5,1.0,1.3
2022-01-03T13:00:00,1149A,121.533,31.2284,上海市,浦东新区监测站,细颗粒物(PM2.5),54,33,49,38,53,111,79,36,36,45,62,7,6,0.9,1.2
2022-01-03T13:00:00,1150A,121.577,31.2071,上海市,浦东张江,细颗粒物(PM2.5),62,31,66,44,72,103,84,38,38,42,63,5,5,0.8,1.2
2022-01-03T13:00:00,1151A,118.8086,32.1065,南京市,迈皋桥,细颗粒物(PM2.5),156,159,143,119,98,86,63,35,25,94,92,12,7,1.2,1.2
2022-01-03T13:00:00,1152A,118.7538,32.0551,南京市,草场门,细颗粒物(PM2.5),132,151,127,100,83,92,59,38,25,66,58,12,10,1.2,1.1
2022-01-03T13:00:00,1153A,118.7794,32.0745,南京市,山西路,细颗粒物(PM2.5),153,158,150,117,98,95,74,50,34,74,65,6,5,1.0,0.9
2022-01-03T13:00:00,1154A,118.7752,32.0023,南京市,中华门,细颗粒物(PM2.5),134,166,146,102,90,102,72,33,29,60,61,5,4,0.9,0.9
2022-01-03T13:00:00,1155A,118.8109,32.0309,南京市,瑞金路,细颗粒物(PM2.5),140,139,124,107,91,98,65,38,27,68,60,5,4,1.1,1.1
2022-01-03T13:00:00,1156A,118.7997,32.0754,南京市,玄武湖,细颗粒物(PM2.5),149,146,126,114,92,89,67,53,28,65,63,5,4,1.2,1.1
2022-01-03T13:00:00,1157A,118.6414,32.0931,南京市,浦口,细颗粒物(PM2.5),138,171,141,105,83,100,54,32,28,84,69,24,9,2.0,1.1
2022-01-03T13:00:00,1158A,118.7356,31.9996,南京市,奥体中心,细颗粒物(PM2.5),160,180,152,122,101,101,72,40,32,66,59,14,10,1.6,1.4
2022-01-03T13:00:00,1159A,118.9125,32.1028,南京市,仙林大学城,细颗粒物(PM2.5),119,139,128,90,82,98,79,50,37,61,57,13,10,1.2,1.2
2022-01-03T13:00:00,1160A,120.561,31.2472,苏州市,上方山(对照点),,,107,104,,97,87,87,27,27,49,60,10,10,,0.9
2022-01-03T13:00:00,1162A,120.591,31.3019,苏州市,彩香,细颗粒物(PM2.5),115,77,106,87,104,93,87,30,30,44,54,9,7,0.8,1.1
2022-01-03T13:00:00,1163A,120.596,31.3264,苏州市,轧钢厂,,,61,86,64,74,89,83,29,29,51,60,10,8,,1
2022-01-03T13:00:00,1164A,120.613,31.2703,苏州市,吴中区,细颗粒物(PM2.5),108,80,101,81,91,89,89,32,32,42,62,9,7,0.7,0.9
2022-01-03T13:00:00,1165A,120.543,31.2994,苏州市,苏州新区,细颗粒物(PM2.5),97,104,132,72,91,109,109,37,37,33,54,14,11,0.7,1
2022-01-03T13:00:00,1166A,120.669,31.3097,苏州市,苏州工业园区,细颗粒物(PM2.5),125,84,101,95,76,94,73,28,28,50,48,10,6,0.8,1
2022-01-03T13:00:00,1167A,120.641,31.3708,苏州市,相城区,细颗粒物(PM2.5),117,76,100,88,98,93,80,31,31,55,57,10,8,0.7,0.8
2022-01-03T13:00:00,1168A,120.9098,31.9663,南通市,狼山街道,,50,50,86,30,66,117,98,40,40,28,43,6,4,0.8,0.9
2022-01-03T13:00:00,1169A,120.86,32.0005,南通市,虹桥,细颗粒物(PM2.5),87,51,81,64,78,120,96,51,51,45,49,16,9,0.9,0.9
2022-01-03T13:00:00,1170A,120.87,32.02,南通市,城中,细颗粒物(PM2.5),78,64,89,57,75,121,100,45,45,48,53,18,13,1.0,0.9
2022-01-03T13:00:00,1171A,120.94,31.93,南通市,星湖花园,细颗粒物(PM2.5),73,70,84,53,67,114,94,44,43,28,32,7,4,0.7,0.8
2022-01-03T13:00:00,1172A,120.81,32.0417,南通市,紫琅学院,细颗粒物(PM2.5),110,87,94,83,80,118,86,39,39,40,43,16,9,0.8,0.7
2022-01-03T13:00:00,1173A,119.176,34.5885,连云港市,市环境监测站,,,,71,,31,81,81,72,59,18,19,11,6,0.8,0.6
2022-01-03T13:00:00,1177A,117.179,34.2761,徐州市,黄河新村,细颗粒物(PM2.5),127,173,137,96,73,64,54,32,29,54,50,8,8,1.0,0.7
2022-01-03T13:00:00,1178A,117.1918,34.2384,徐州市,淮塔,细颗粒物(PM2.5),144,117,100,110,73,61,54,19,19,51,56,13,12,1.0,0.8
2022-01-03T13:00:00,1180A,117.256,34.2153,徐州市,新城区,细颗粒物(PM2.5),127,144,123,96,67,68,68,24,24,32,42,13,13,1.0,0.8
2022-01-03T13:00:00,1181A,117.244,34.2911,徐州市,桃园路,细颗粒物(PM2.5),212,151,141,162,70,65,61,20,20,37,46,16,12,1.2,1
2022-01-03T13:00:00,1182A,117.2933,34.2778,徐州市,农科院,细颗粒物(PM2.5),112,149,136,84,76,58,44,14,14,51,50,17,13,1.1,0.9
2022-01-03T13:00:00,1186A,119.389,32.3761,扬州市,邗江监测站,细颗粒物(PM2.5),147,146,132,112,91,99,88,45,30,58,54,21,14,1.1,1.1
2022-01-03T13:00:00,1188A,120.269,31.4867,无锡市,雪浪,"颗粒物(PM10),细颗粒物(PM2.5)",64,78,116,46,68,113,113,39,39,23,56,12,12,0.7,1.1
2022-01-03T13:00:00,1190A,120.294,31.56,无锡市,曹张,,,87,115,61,78,109,109,38,38,19,47,14,15,,1.5
2022-01-03T13:00:00,1191A,120.242,31.5031,无锡市,漆塘,细颗粒物(PM2.5),67,75,117,48,71,109,109,45,45,26,53,10,10,0.9,1.2
2022-01-03T13:00:00,1192A,120.3489,31.5863,无锡市,东亭,细颗粒物(PM2.5),79,105,122,58,80,100,100,32,32,29,55,13,9,0.8,1.1
2022-01-03T13:00:00,1193A,120.354,31.5475,无锡市,旺庄,细颗粒物(PM2.5),70,78,120,51,82,106,106,38,38,27,57,12,12,0.7,1.1
2022-01-03T13:00:00,1194A,120.245,31.5631,无锡市,荣巷,细颗粒物(PM2.5),70,81,111,51,70,92,92,36,36,18,48,12,11,0.1,0.4
2022-01-03T13:00:00,1195A,120.299,31.6817,无锡市,堰桥,细颗粒物(PM2.5),107,136,136,80,87,96,84,30,30,51,51,15,10,1.0,1.3
2022-01-03T13:00:00,1196A,119.9633,31.762,常州市,市监测站,细颗粒物(PM2.5),125,151,153,95,97,104,104,34,34,39,64,11,9,0.8,1.1
2022-01-03T13:00:00,1200A,119.9468,31.7069,常州市,武进监测站,细颗粒物(PM2.5),144,152,149,110,102,115,115,40,40,34,58,5,3,0.6,1
2022-01-03T13:00:00,1201A,119.9255,31.9087,常州市,安家,细颗粒物(PM2.5),153,152,145,117,109,112,96,33,33,53,54,,9,0.9,1.1
2022-01-03T13:00:00,1203A,119.6707,32.1875,镇江市,新区办事处,细颗粒物(PM2.5),183,160,130,138,99,90,74,39,25,57,44,12,6,1.2,1.3
2022-01-03T13:00:00,1204A,119.4974,32.1968,镇江市,职教中心,细颗粒物(PM2.5),162,151,122,123,96,99,69,45,25,47,47,12,7,1.2,1.1
2022-01-03T13:00:00,1205A,119.4303,32.1328,镇江市,丹徒区监测站,细颗粒物(PM2.5),183,172,151,138,115,111,98,47,36,46,50,23,12,0.9,0.8
2022-01-03T13:00:00,1206A,119.905,32.4878,泰州市,公园路,细颗粒物(PM2.5),140,139,114,107,75,87,83,50,50,45,30,13,6,1.4,1.1
2022-01-03T13:00:00,1207A,119.9189,32.4625,泰州市,莲花,细颗粒物(PM2.5),137,129,110,104,83,88,88,49,46,43,32,13,8,1.0,0.7
2022-01-03T13:00:00,1209A,119.888,32.4639,泰州市,留学生创业园,细颗粒物(PM2.5),150,158,123,115,72,96,87,55,52,45,28,14,9,0.9,0.7
2022-01-03T13:00:00,1210A,119.036,33.5981,淮安市,钵池山,细颗粒物(PM2.5),122,114,98,92,62,83,83,50,50,32,35,11,5,1.1,0.8
2022-01-03T13:00:00,1211A,119.007,33.575,淮安市,北京南路,细颗粒物(PM2.5),122,136,118,92,62,78,78,45,35,32,37,12,6,1.1,0.9
2022-01-03T13:00:00,1212A,118.989,33.6067,淮安市,市监测站,细颗粒物(PM2.5),138,,95,105,48,71,71,57,48,45,42,17,11,,0.5
2022-01-03T13:00:00,1213A,119.135,33.5039,淮安市,楚州区监测站,细颗粒物(PM2.5),128,117,111,97,68,81,81,45,45,22,27,17,11,1.0,0.8
2022-01-03T13:00:00,1214A,119.0186,33.6297,淮安市,淮阴区监测站,细颗粒物(PM2.5),107,132,99,80,63,66,66,53,39,39,32,15,5,1.4,0.8
2022-01-03T13:00:00,1215A,120.118,33.4022,盐城市,盐城电厂,细颗粒物(PM2.5),87,115,99,64,51,152,152,64,64,23,50,14,7,0.8,0.7
2022-01-03T13:00:00,1216A,120.156,33.3942,盐城市,市监测站,细颗粒物(PM2.5),98,104,90,73,59,163,163,57,57,23,43,11,6,0.8,0.6
2022-01-03T13:00:00,1218A,120.2144,33.38,盐城市,开发区管委会,细颗粒物(PM2.5),97,87,68,72,46,113,113,44,43,24,40,10,7,1.0,0.8
2022-01-03T13:00:00,1220A,118.293,33.9528,宿迁市,宿迁学院,细颗粒物(PM2.5),139,130,102,106,72,80,80,32,32,27,40,9,4,0.9,0.8
2022-01-03T13:00:00,1221A,118.2442,33.9592,宿迁市,宿迁中学,细颗粒物(PM2.5),139,172,116,106,65,83,83,50,49,30,32,11,7,0.9,0.8
2022-01-03T13:00:00,1223A,120.2072,30.2111,杭州市,滨江,细颗粒物(PM2.5),153,194,172,117,109,87,66,21,21,65,79,15,12,1.1,1.1
2022-01-03T13:00:00,1224A,120.0633,30.2747,杭州市,西溪,细颗粒物(PM2.5),192,,131,144,98,94,43,12,12,73,62,8,8,,1.2
2022-01-03T13:00:00,1226A,120.3461,30.3153,杭州市,下沙,细颗粒物(PM2.5),162,241,206,123,103,93,72,22,22,73,87,13,11,1.2,1.2
2022-01-03T13:00:00,1227A,120.1269,30.2456,杭州市,卧龙桥,细颗粒物(PM2.5),201,187,146,151,113,105,58,22,22,72,59,12,8,1.4,1.3
2022-01-03T13:00:00,1228A,120.1903,30.2692,杭州市,浙江农大,细颗粒物(PM2.5),122,182,181,92,87,85,68,24,24,62,80,16,11,1.1,1.1
2022-01-03T13:00:00,1230A,120.1197,30.3119,杭州市,和睦小学,细颗粒物(PM2.5),214,239,195,164,154,82,47,14,14,88,76,9,9,1.4,1.3
2022-01-03T13:00:00,1231A,120.3019,30.4183,杭州市,临平镇,细颗粒物(PM2.5),203,215,191,153,122,110,52,32,17,100,72,14,9,1.3,1.3
2022-01-03T13:00:00,1232A,120.2697,30.1819,杭州市,城厢镇,细颗粒物(PM2.5),221,199,186,171,148,82,65,22,22,43,57,11,8,1.3,1.4
2022-01-03T13:00:00,1233A,120.0883,30.1808,杭州市,云栖,细颗粒物(PM2.5),168,204,170,127,105,81,43,19,18,82,58,11,8,1.4,1.1
2022-01-03T13:00:00,1234A,121.8358,29.911,宁波市,区环保大楼,颗粒物(PM10),76,101,106,38,52,116,91,50,49,79,47,28,15,1.3,1.2
2022-01-03T13:00:00,1235A,121.56,29.82,宁波市,万里学院,颗粒物(PM10),58,66,119,38,63,103,92,36,36,45,76,18,18,1.2,1.5
2022-01-03T13:00:00,1236A,121.713,29.9572,宁波市,龙赛医院,细颗粒物(PM2.5),73,82,112,53,67,162,162,57,57,70,61,23,20,1.1,1.3
2022-01-03T13:00:00,1239A,121.633,29.7733,宁波市,钱湖水厂,,,56,114,40,86,129,103,47,47,,40,,12,0.8,1.1
2022-01-03T13:00:00,1240A,121.5856,29.8635,宁波市,太古小学,细颗粒物(PM2.5),60,68,153,43,85,99,85,31,31,34,65,15,15,0.9,1.3
2022-01-03T13:00:00,1241A,121.524,29.8674,宁波市,市环境监测中心,细颗粒物(PM2.5),67,51,123,48,93,102,85,32,32,43,70,18,18,0.7,1.1
2022-01-03T13:00:00,1242A,120.634,28.0089,温州市,瓯海,细颗粒物(PM2.5),87,108,123,64,68,130,130,48,48,38,61,11,8,0.7,0.8
2022-01-03T13:00:00,1243A,120.6748,27.9939,温州市,南浦,,,118,134,72,83,124,112,42,42,30,51,,8,0.8,0.9
2022-01-03T13:00:00,1244A,120.76,27.9747,温州市,龙湾,细颗粒物(PM2.5),85,117,155,63,76,124,94,32,32,51,65,9,6,0.6,0.7
2022-01-03T13:00:00,1245A,120.6709,28.0167,温州市,市站,细颗粒物(PM2.5),122,155,140,92,80,121,121,48,48,42,48,10,8,0.8,0.7
2022-01-03T13:00:00,1247A,120.6053,29.9928,绍兴市,城东开发委,细颗粒物(PM2.5),210,190,173,160,146,83,76,26,26,80,74,14,11,1.2,1.2
2022-01-03T13:00:00,1250A,120.0751,30.8669,湖州市,城西水厂,细颗粒物(PM2.5),210,128,110,160,112,128,63,30,30,82,78,32,14,1.0,1
2022-01-03T13:00:00,1252A,120.7436,30.778,嘉兴市,清河小学,细颗粒物(PM2.5),94,103,117,70,80,104,104,46,46,27,55,11,11,0.3,0.6
2022-01-03T13:00:00,1253A,120.726,30.7478,嘉兴市,嘉兴学院,细颗粒物(PM2.5),87,101,117,64,71,108,108,51,51,33,63,12,12,0.4,0.6
2022-01-03T13:00:00,1255A,121.273,28.6459,台州市,黄岩环保大楼,细颗粒物(PM2.5),79,90,99,58,61,121,105,60,60,32,36,10,9,0.6,0.7
2022-01-03T13:00:00,1256A,121.419,28.6542,台州市,台州环保大楼,细颗粒物(PM2.5),84,95,134,62,81,118,91,70,46,45,48,9,11,0.5,0.7
2022-01-03T13:00:00,1257A,121.377,28.5773,台州市,路桥田洋王,细颗粒物(PM2.5),80,93,131,59,73,120,102,48,48,30,39,8,8,0.6,0.8
2022-01-03T13:00:00,1258A,122.122,30.0203,舟山市,定海檀枫,,34,29,50,14,30,110,108,50,50,23,33,5,4,0.5,0.6
2022-01-03T13:00:00,1259A,122.3094,29.9558,舟山市,普陀东港,,34,34,48,22,26,121,95,81,71,18,19,5,5,0.6,0.7
2022-01-03T13:00:00,1260A,122.19,29.9944,舟山市,临城新区,,32,20,57,20,28,112,100,50,48,27,39,5,6,0.3,0.6
2022-01-03T13:00:00,1262A,119.647,29.077,金华市,十五中,细颗粒物(PM2.5),122,144,118,92,76,116,99,33,33,47,64,13,13,0.9,0.9
2022-01-03T13:00:00,1263A,119.686,29.1029,金华市,监测站,细颗粒物(PM2.5),114,122,120,86,68,106,93,33,33,41,68,11,11,1.1,1.1
2022-01-03T13:00:00,1264A,118.8692,28.9398,衢州市,环保大楼,颗粒物(PM10),86,122,111,54,59,121,97,53,36,50,61,13,11,0.7,0.6
2022-01-03T13:00:00,1265A,118.8709,28.9666,衢州市,实验学校,细颗粒物(PM2.5),82,90,98,60,60,129,107,64,39,37,42,12,11,0.8,0.7
2022-01-03T13:00:00,1266A,118.8621,28.9808,衢州市,衢州学院,细颗粒物(PM2.5),113,134,128,85,82,126,114,59,35,50,60,15,14,0.9,0.8
2022-01-03T13:00:00,1267A,119.914,28.4514,丽水市,监测站大楼,细颗粒物(PM2.5),89,96,80,66,63,118,104,56,35,28,33,9,9,0.5,0.5
2022-01-03T13:00:00,1268A,119.93,28.4586,丽水市,莲都小学,细颗粒物(PM2.5),92,105,81,68,57,121,102,55,38,37,37,10,9,0.7,0.7
2022-01-03T13:00:00,1269A,119.879,28.4231,丽水市,余庄前,颗粒物(PM10),79,108,80,48,51,130,88,31,31,49,31,12,9,0.6,0.6
2022-01-03T13:00:00,1270A,117.1959,31.7848,合肥市,明珠广场,细颗粒物(PM2.5),147,185,158,112,96,69,54,20,20,77,88,17,13,1.0,0.9
2022-01-03T13:00:00,1271A,117.3072,31.8764,合肥市,三里街,细颗粒物(PM2.5),185,217,178,139,115,87,32,12,12,93,78,13,11,1.3,1.1
2022-01-03T13:00:00,1272A,117.2588,31.8707,合肥市,琥珀山庄,细颗粒物(PM2.5),156,205,164,119,98,88,59,20,20,74,76,15,11,1.3,1.2
2022-01-03T13:00:00,1273A,117.1604,31.9052,合肥市,董铺水库(对照点),细颗粒物(PM2.5),147,176,152,112,88,94,59,18,18,62,67,13,11,1.4,1.3
2022-01-03T13:00:00,1274A,117.25,31.8571,合肥市,长江中路,细颗粒物(PM2.5),156,185,149,119,98,91,58,33,23,74,66,16,14,1.6,1.6
2022-01-03T13:00:00,1275A,117.266,31.9436,合肥市,庐阳区,细颗粒物(PM2.5),144,193,176,110,98,105,73,20,20,66,80,11,10,1.1,1
2022-01-03T13:00:00,1276A,117.336,31.8586,合肥市,瑶海区,细颗粒物(PM2.5),156,227,159,119,96,98,38,13,13,90,79,17,12,1.3,1.3
2022-01-03T13:00:00,1277A,117.3027,31.7964,合肥市,包河区,细颗粒物(PM2.5),175,183,169,132,114,89,68,22,22,67,80,28,18,0.9,0.8
2022-01-03T13:00:00,1278A,117.2776,31.7385,合肥市,滨湖新区,细颗粒物(PM2.5),160,183,163,122,109,102,74,42,32,61,62,15,13,2.1,2
2022-01-03T13:00:00,1279A,117.1318,31.8403,合肥市,高新区,细颗粒物(PM2.5),163,183,149,124,105,80,77,30,30,68,80,15,15,1.3,1.2
2022-01-03T13:00:00,1280A,119.3903,26.0543,福州市,鼓山(对照点),,,,42,,27,128,88,117,91,33,20,,5,0.9,0.9
2022-01-03T13:00:00,1282A,119.2681,26.0504,福州市,师大,细颗粒物(PM2.5),64,74,58,46,37,100,97,100,66,32,24,5,4,1.0,0.8
2022-01-03T13:00:00,1283A,119.2984,26.1028,福州市,五四北路,颗粒物(PM10),61,72,48,42,31,98,84,94,70,42,30,5,5,0.8,0.7
2022-01-03T13:00:00,1284A,119.2648,26.0768,福州市,杨桥西路,颗粒物(PM10),59,67,54,36,33,97,90,94,65,26,22,3,3,0.8,0.7
2022-01-03T13:00:00,1285A,119.317,26.0746,福州市,紫阳,细颗粒物(PM2.5),68,80,54,49,39,93,76,89,64,37,23,6,6,0.9,0.8
2022-01-03T13:00:00,1286A,118.1608,24.8169,厦门市,溪东(对照点),,46,46,38,25,23,114,103,71,71,13,11,2,2,0.3,0.3
2022-01-03T13:00:00,1287A,118.1514,24.4767,厦门市,洪文,细颗粒物(PM2.5),70,76,44,51,31,116,116,74,64,23,23,5,5,0.8,0.6
2022-01-03T13:00:00,1288A,118.0661,24.4444,厦门市,鼓浪屿,颗粒物(PM10),59,68,48,41,27,136,136,83,78,8,10,5,6,0.4,0.4
2022-01-03T13:00:00,1290A,115.8931,28.6843,南昌市,省外办,细颗粒物(PM2.5),129,158,149,98,99,134,106,31,31,48,76,23,14,1.3,1.6
2022-01-03T13:00:00,1291A,115.8886,28.7003,南昌市,省林业公司,细颗粒物(PM2.5),117,152,154,88,93,128,79,25,25,55,84,22,10,1.2,1.2
2022-01-03T13:00:00,1292A,115.8126,28.7442,南昌市,林科所,细颗粒物(PM2.5),168,174,129,127,96,132,112,45,45,,58,27,15,1.1,1
2022-01-03T13:00:00,1294A,115.8518,28.687,南昌市,建工学校,细颗粒物(PM2.5),128,171,159,97,92,144,104,30,30,46,68,26,17,1.4,1.6
2022-01-03T13:00:00,1295A,115.8921,28.6424,南昌市,象湖,细颗粒物(PM2.5),132,130,141,100,98,135,94,27,27,58,91,19,9,1.5,1.7
2022-01-03T13:00:00,1296A,115.7423,28.7996,南昌市,武术学校(对照点),细颗粒物(PM2.5),127,95,59,96,54,108,89,46,46,,16,15,6,1.2,1.1
2022-01-03T13:00:00,1298A,115.9314,28.6842,南昌市,省站,细颗粒物(PM2.5),130,147,168,99,116,137,99,31,31,42,79,26,17,1.1,1.4
2022-01-03T13:00:00,1299A,116.9862,36.6114,济南市,科干所,细颗粒物(PM2.5),119,151,105,90,52,71,71,66,66,41,48,15,16,1.0,0.9
2022-01-03T13:00:00,1300A,116.9376,36.665,济南市,农科所,细颗粒物(PM2.5),123,164,129,93,52,64,64,44,44,32,53,18,20,1.0,1.1
2022-01-03T13:00:00,1301A,117.1265,36.6734,济南市,开发区,颗粒物(PM10),117,183,105,84,45,56,12,14,8,86,68,23,15,1.5,1.2
2022-01-03T13:00:00,1303A,117.0624,36.6868,济南市,省种子仓库,细颗粒物(PM2.5),117,175,141,88,62,57,11,9,8,76,69,29,29,1.6,1.7
2022-01-03T13:00:00,1304A,116.9489,36.6447,济南市,机床二厂,细颗粒物(PM2.5),138,156,130,105,60,70,70,53,53,30,54,15,32,0.9,1.1
2022-01-03T13:00:00,1305A,117.0495,36.663,济南市,市监测站,"颗粒物(PM10),细颗粒物(PM2.5)",123,195,129,93,52,54,12,20,18,86,68,29,18,1.2,1
2022-01-03T13:00:00,1306A,116.7675,36.5484,济南市,长清党校,细颗粒物(PM2.5),129,161,114,98,53,80,80,63,63,27,42,13,14,1.0,0.9
2022-01-03T13:00:00,1307A,120.6659,36.2403,青岛市,仰口(对照点),,41,41,47,24,24,80,80,65,65,17,18,4,4,0.8,0.8
2022-01-03T13:00:00,1310A,120.4134,36.0658,青岛市,市南区东部子站,颗粒物(PM10),52,53,46,19,16,75,50,74,52,48,31,9,7,1.0,0.6
2022-01-03T13:00:00,1311A,120.3664,36.1032,青岛市,四方区子站,细颗粒物(PM2.5),64,73,46,46,22,72,33,70,30,68,40,15,7,1.1,0.7
2022-01-03T13:00:00,1312A,120.2994,36.054,青岛市,市南区西部子站,颗粒物(PM10),59,68,51,29,15,83,32,82,33,75,37,15,9,1.0,0.7
2022-01-03T13:00:00,1313A,120.4581,36.0858,青岛市,崂山区子站,,48,48,47,19,18,75,63,75,55,40,34,11,8,0.9,0.7
2022-01-03T13:00:00,1314A,120.1983,35.9608,青岛市,黄岛区子站,颗粒物(PM10),69,88,53,49,24,66,66,66,55,37,41,10,7,1.3,0.7
2022-01-03T13:00:00,1315A,120.3999,36.3083,青岛市,城阳区子站,颗粒物(PM10),67,83,84,32,35,70,65,19,19,40,58,10,8,0.9,1.3
2022-01-03T13:00:00,1316A,113.69031,34.76122,郑州市,烟厂,细颗粒物(PM2.5),139,164,137,106,84,57,57,21,21,38,61,21,15,1.1,1.1
2022-01-03T13:00:00,1317A,113.65724,34.77134,郑州市,郑纺机,细颗粒物(PM2.5),149,126,126,114,89,64,64,24,24,39,62,20,14,1.5,1.3
2022-01-03T13:00:00,1318A,113.67526,34.80246,郑州市,银行学校,细颗粒物(PM2.5),149,132,117,114,87,58,58,20,20,38,57,26,18,1.2,1.1
2022-01-03T13:00:00,1319A,113.56746,34.81334,郑州市,供水公司,细颗粒物(PM2.5),153,126,127,117,88,64,64,24,24,34,62,27,22,1.3,1.3
2022-01-03T13:00:00,1320A,113.7329,34.7178,郑州市,经开区管委,细颗粒物(PM2.5),153,134,130,117,96,63,63,22,22,37,56,16,11,1.1,1.1
2022-01-03T13:00:00,1321A,113.73961,34.77172,郑州市,四十七中,细颗粒物(PM2.5),140,162,136,107,96,63,63,23,23,34,56,21,14,1.2,1.1
2022-01-03T13:00:00,1322A,113.60532,34.74838,郑州市,市监测站,细颗粒物(PM2.5),148,140,148,113,101,68,68,21,21,39,66,24,17,1.5,1.5
2022-01-03T13:00:00,1323A,113.64164,34.7525,郑州市,河医大,细颗粒物(PM2.5),158,157,139,120,91,65,65,22,22,40,62,20,14,1.0,1
2022-01-03T13:00:00,1324A,113.51488,34.91089,郑州市,岗李水库(对照点),细颗粒物(PM2.5),150,143,101,115,83,69,69,31,31,33,44,21,13,1.3,1.2
2022-01-03T13:00:00,1325A,114.3677,30.5584,武汉市,东湖梨园,细颗粒物(PM2.5),160,130,126,122,115,109,56,23,23,64,74,20,11,1.3,1
2022-01-03T13:00:00,1326A,114.2529,30.558,武汉市,汉阳月湖,细颗粒物(PM2.5),148,125,118,113,104,105,51,22,22,79,96,17,13,1.2,1.1
2022-01-03T13:00:00,1327A,114.282,30.6189,武汉市,汉口花桥,细颗粒物(PM2.5),132,144,126,100,101,81,48,18,18,78,100,18,19,1.4,1.6
2022-01-03T13:00:00,1328A,114.3025,30.5332,武汉市,武昌紫阳,细颗粒物(PM2.5),137,122,117,104,102,95,71,24,24,70,104,15,11,1.5,1.5
2022-01-03T13:00:00,1329A,114.3646,30.6217,武汉市,青山钢花,细颗粒物(PM2.5),138,138,143,105,116,112,70,30,27,54,88,17,19,1.3,1.4
2022-01-03T13:00:00,1330A,114.1566,30.4825,武汉市,沌口新区,细颗粒物(PM2.5),158,122,137,120,122,92,64,24,24,70,110,22,17,1.7,1.5
2022-01-03T13:00:00,1331A,114.3014,30.5944,武汉市,汉口江滩,细颗粒物(PM2.5),172,132,136,130,118,101,47,30,21,84,99,18,17,1.3,1.3
2022-01-03T13:00:00,1333A,114.135,30.6319,武汉市,吴家山,细颗粒物(PM2.5),132,148,159,100,117,85,68,20,20,81,109,19,15,1.0,1.2
2022-01-03T13:00:00,1334A,113.8454,30.2917,武汉市,沉湖七壕(对照点),颗粒物(PM10),73,95,121,52,70,131,108,39,39,27,52,12,10,0.8,0.9
2022-01-03T13:00:00,1335A,113.0833,28.2325,长沙市,经开区环保局,细颗粒物(PM2.5),110,89,106,83,95,96,45,38,38,72,74,9,8,0.8,1.1
2022-01-03T13:00:00,1336A,112.8872,28.2189,长沙市,高开区环保局,细颗粒物(PM2.5),115,78,108,87,97,117,,9,9,60,80,9,7,1.1,1.5
2022-01-03T13:00:00,1337A,113.0792,28.2053,长沙市,马坡岭,细颗粒物(PM2.5),109,68,129,82,100,110,26,18,18,68,67,10,9,,1.1
2022-01-03T13:00:00,1338A,112.9394,28.19,长沙市,湖南师范大学,细颗粒物(PM2.5),118,89,90,89,89,117,50,23,23,62,63,9,7,1.0,1.2
2022-01-03T13:00:00,1339A,113.0178,28.1322,长沙市,雨花区环保局,细颗粒物(PM2.5),118,100,100,89,93,91,41,43,22,53,54,8,8,0.9,1
2022-01-03T13:00:00,1340A,112.9792,28.2597,长沙市,伍家岭,颗粒物(PM10),78,105,131,52,83,104,49,27,27,66,65,9,7,0.9,1.2
2022-01-03T13:00:00,1341A,113.0014,28.1944,长沙市,火车新站,细颗粒物(PM2.5),115,100,113,87,107,115,17,10,10,91,88,8,9,0.9,1.5
2022-01-03T13:00:00,1342A,112.9844,28.1178,长沙市,天心区环保局,细颗粒物(PM2.5),118,,93,89,98,104,41,24,22,60,80,9,9,,0.7
2022-01-03T13:00:00,1343A,112.8908,28.1308,长沙市,湖南中医药大学,细颗粒物(PM2.5),115,114,136,87,96,106,36,14,14,71,66,12,9,1.2,1.4
2022-01-03T13:00:00,1344A,112.9581,28.3611,长沙市,沙坪(对照点),细颗粒物(PM2.5),88,85,76,65,74,114,58,60,60,67,47,8,7,1.2,1.2
2022-01-03T13:00:00,1345A,113.2347,23.1423,广州市,广雅中学,细颗粒物(PM2.5),97,133,119,72,62,125,68,21,21,65,77,9,9,1.2,1.5
2022-01-03T13:00:00,1346A,113.2612,23.105,广州市,市五中,颗粒物(PM10),75,100,116,54,60,129,86,27,27,49,74,7,6,1.1,1.4
2022-01-03T13:00:00,1348A,113.3478,23.0916,广州市,广东商学院,颗粒物(PM10),61,71,98,39,56,134,61,17,17,59,76,9,8,0.8,1
2022-01-03T13:00:00,1349A,113.4332,23.1047,广州市,市八十六中,,,94,108,55,52,117,77,20,20,,73,,11,1.2,1.4
2022-01-03T13:00:00,1350A,113.3505,22.9483,广州市,番禺中学,颗粒物(PM10),65,79,101,43,58,151,115,38,38,36,69,15,12,1.0,1.3
2022-01-03T13:00:00,1351A,113.2146,23.3916,广州市,花都师范,细颗粒物(PM2.5),64,72,73,46,46,113,100,38,38,30,51,10,8,0.9,1.1
2022-01-03T13:00:00,1352A,113.2597,23.1331,广州市,市监测站,细颗粒物(PM2.5),72,88,87,52,50,136,93,31,31,51,69,8,7,1.0,1.2
2022-01-03T13:00:00,1353A,113.5618,23.312,广州市,九龙镇镇龙,颗粒物(PM10),55,59,90,37,41,109,74,27,27,22,47,8,7,0.7,0.8
2022-01-03T13:00:00,1354A,113.2765,23.1544,广州市,麓湖,细颗粒物(PM2.5),60,64,68,43,43,121,75,29,29,48,59,8,7,0.8,0.9
2022-01-03T13:00:00,1355A,113.443,23.3035,广州市,帽峰山森林公园(对照点),,31,27,46,19,32,122,98,70,49,5,15,7,6,0.7,0.8
2022-01-03T13:00:00,1356A,114.1063,22.5545,深圳市,通心岭子站,,,42,46,25,30,137,102,74,43,,26,3,2,0.5,0.5
2022-01-03T13:00:00,1357A,114.117,22.5625,深圳市,洪湖,颗粒物(PM10),51,51,62,31,39,88,59,40,26,42,44,6,6,0.8,0.9
2022-01-03T13:00:00,1358A,113.987,22.5417,深圳市,华侨城,,48,44,60,33,42,145,91,75,45,20,36,5,6,0.6,0.6
2022-01-03T13:00:00,1359A,113.9181,22.5171,深圳市,南海子站,,,57,70,36,44,137,98,85,49,26,46,,7,0.4,0.5
2022-01-03T13:00:00,1360A,114.2458,22.5689,深圳市,盐田,,45,44,36,31,25,156,128,61,61,19,44,7,7,1.0,0.9
2022-01-03T13:00:00,1361A,114.2283,22.7244,深圳市,龙岗,细颗粒物(PM2.5),64,70,60,46,36,142,142,80,66,19,26,6,5,1.3,1.2
2022-01-03T13:00:00,1364A,114.41,22.6342,深圳市,葵涌,,40,38,38,23,25,164,126,69,55,13,13,7,6,0.5,0.5
2022-01-03T13:00:00,1365A,114.297,22.5978,深圳市,梅沙,,45,45,40,26,23,152,122,81,81,10,17,6,6,0.7,0.7
2022-01-03T13:00:00,1366A,114.0678,22.738,深圳市,观澜,细颗粒物(PM2.5),63,73,85,45,44,159,159,56,56,15,49,9,7,0.8,0.9
2022-01-03T13:00:00,1367A,113.5814,22.2618,珠海市,吉大,,40,40,59,19,32,226,77,98,66,41,31,8,8,0.5,0.6
2022-01-03T13:00:00,1368A,113.4881,22.2335,珠海市,前山,颗粒物(PM10),51,52,92,20,38,179,107,58,58,32,53,10,10,0.6,0.8
2022-01-03T13:00:00,1369A,113.628,22.4251,珠海市,唐家,,,45,66,32,40,216,124,53,53,26,31,,10,,0.6
2022-01-03T13:00:00,1370A,113.299,22.2281,珠海市,斗门,细颗粒物(PM2.5),64,65,100,46,69,167,126,63,56,31,46,7,8,0.5,0.7
2022-01-03T13:00:00,1371A,113.1294,23.0067,佛山市,湾梁,"颗粒物(PM10),细颗粒物(PM2.5)",100,149,99,75,54,137,60,19,19,115,74,11,10,0.9,1.2
2022-01-03T13:00:00,1372A,113.1083,23.0478,佛山市,华材职中,细颗粒物(PM2.5),114,166,108,86,60,143,84,24,24,104,85,11,12,1.1,1.3
2022-01-03T13:00:00,1373A,113.144,23.0453,佛山市,南海气象局,细颗粒物(PM2.5),119,156,103,90,57,107,58,12,12,107,73,8,9,1.0,1.1
2022-01-03T13:00:00,1374A,113.2881,22.8094,佛山市,顺德苏岗,细颗粒物(PM2.5),58,62,84,41,60,142,140,51,51,38,81,6,5,0.7,1
2022-01-03T13:00:00,1376A,112.8383,22.8678,佛山市,高明孔堂,细颗粒物(PM2.5),152,136,66,116,47,117,112,38,29,77,40,15,9,1.0,0.8
2022-01-03T13:00:00,1377A,112.8836,23.1588,佛山市,三水监测站,,,112,85,75,51,104,104,31,31,,59,18,19,0.7,0.9
2022-01-03T13:00:00,1378A,112.867,23.185,佛山市,三水云东海,细颗粒物(PM2.5),94,99,75,70,42,138,138,40,40,41,47,18,13,0.9,0.9
2022-01-03T13:00:00,1379A,113.3769,22.5211,中山市,华柏园,颗粒物(PM10),62,74,76,42,54,115,115,39,39,36,52,5,5,0.8,1.1
2022-01-03T13:00:00,1380A,113.3881,22.5497,中山市,张溪,颗粒物(PM10),66,82,99,46,62,119,119,43,43,24,60,5,5,0.6,0.9
2022-01-03T13:00:00,1381A,113.4075,22.5111,中山市,紫马岭,颗粒物(PM10),65,79,72,34,39,113,95,42,38,37,42,7,7,0.5,0.7
2022-01-03T13:00:00,1382A,113.4411,22.4853,中山市,长江旅游区(对照点),,49,49,47,31,35,130,103,51,44,30,26,6,6,0.6,0.6
2022-01-03T13:00:00,1383A,113.1064,22.6058,江门市,北街,细颗粒物(PM2.5),109,139,99,82,57,167,118,41,41,107,80,14,9,1.3,1.4
2022-01-03T13:00:00,1384A,113.0731,22.5835,江门市,西区,细颗粒物(PM2.5),129,138,110,98,63,172,138,44,44,102,83,12,9,1.2,1.3
2022-01-03T13:00:00,1385A,113.0219,22.5311,江门市,圭峰西,细颗粒物(PM2.5),127,116,78,96,59,165,156,74,66,85,48,8,6,1.1,0.9
2022-01-03T13:00:00,1386A,113.0828,22.5947,江门市,东湖,细颗粒物(PM2.5),125,192,121,95,58,176,136,45,45,101,72,12,8,1.2,1.3
2022-01-03T13:00:00,1389A,113.7547,23.0494,东莞市,莞城梨川,颗粒物(PM10),53,56,81,34,53,112,98,48,48,26,48,12,11,0.7,0.9
2022-01-03T13:00:00,1390A,113.7944,23.0128,东莞市,东城石井,颗粒物(PM10),52,54,66,31,42,129,120,47,47,30,48,13,12,0.7,0.9
2022-01-03T13:00:00,1391A,113.7383,22.9658,东莞市,南城西平,细颗粒物(PM2.5),73,66,91,53,67,156,156,51,51,37,57,13,12,0.7,0.9
2022-01-03T13:00:00,1392A,114.4183,23.0528,惠州市,河南岸金山湖子站,,,,66,,46,103,83,34,34,26,38,,4,0.7,0.8
2022-01-03T13:00:00,1393A,114.4053,23.0822,惠州市,下埔横江三路子站,,,66,66,36,44,100,89,52,40,,42,,5,0.6,0.8
2022-01-03T13:00:00,1394A,114.4103,23.1142,惠州市,江北云山西路子站,颗粒物(PM10),62,73,60,32,46,109,94,86,45,16,31,5,6,0.5,0.6
2022-01-03T13:00:00,1395A,114.4645,22.7833,惠州市,惠阳区承修路船湖子站,颗粒物(PM10),63,75,65,41,39,122,121,74,54,30,31,6,4,0.7,0.7
2022-01-03T13:00:00,1396A,114.5317,22.7422,惠州市,大亚湾管委会子站,颗粒物(PM10),54,58,54,23,29,127,124,63,44,19,37,7,7,0.5,0.6
2022-01-03T13:00:00,1397A,112.4267,23.0706,肇庆市,睦岗子站,细颗粒物(PM2.5),102,120,65,76,42,123,123,36,36,45,49,15,7,1.0,0.9
2022-01-03T13:00:00,1398A,112.4645,23.0475,肇庆市,城中子站,细颗粒物(PM2.5),80,88,63,59,42,111,101,29,29,47,53,17,16,0.8,0.9
2022-01-03T13:00:00,1399A,112.5544,23.1522,肇庆市,坑口子站,细颗粒物(PM2.5),104,112,51,78,37,153,153,54,54,35,25,15,9,0.9,0.8
2022-01-03T13:00:00,1400A,112.4753,23.1,肇庆市,七星岩子站(对照点),细颗粒物(PM2.5),124,128,57,94,32,174,174,57,57,36,32,17,12,0.9,0.7
2022-01-03T13:00:00,1401A,108.3103,22.7881,南宁市,二十一中,细颗粒物(PM2.5),78,98,82,57,42,48,48,13,13,53,45,11,8,1.1,1.2
2022-01-03T13:00:00,1402A,108.3141,22.8528,南宁市,北湖,细颗粒物(PM2.5),98,114,95,73,54,44,44,12,12,48,34,15,13,1.1,1.2
2022-01-03T13:00:00,1403A,108.3206,22.8225,南宁市,市监测站,细颗粒物(PM2.5),97,116,88,72,57,40,34,11,11,69,51,11,10,1.2,1.3
2022-01-03T13:00:00,1404A,108.3829,22.8037,南宁市,大自然花园,细颗粒物(PM2.5),82,83,65,60,47,62,62,15,15,40,45,10,7,1.0,1.2
2022-01-03T13:00:00,1405A,108.4394,22.7904,南宁市,仙葫(对照点),细颗粒物(PM2.5),78,86,79,57,47,53,53,14,14,34,38,13,11,0.8,0.9
2022-01-03T13:00:00,1406A,108.2397,22.8467,南宁市,区农职院,细颗粒物(PM2.5),85,108,53,63,34,53,53,13,13,63,32,10,7,1.0,0.8
2022-01-03T13:00:00,1407A,108.3275,22.735,南宁市,英华嘉园,细颗粒物(PM2.5),85,110,86,63,57,43,43,14,14,58,44,15,12,1.0,1.3
2022-01-03T13:00:00,1408A,108.2257,22.7757,南宁市,沙井镇街道办,细颗粒物(PM2.5),77,93,70,56,43,56,56,15,15,52,32,13,10,1.1,1
2022-01-03T13:00:00,1409A,110.576,19.9507,海口市,东寨港(对照点),,,40,45,8,44,157,80,75,31,,16,3,7,,0.6
2022-01-03T13:00:00,1410A,110.3232,20.0574,海口市,海南大学,,31,31,44,14,46,143,95,133,84,5,8,5,6,0.5,0.6
2022-01-03T13:00:00,1411A,110.283,20.0053,海口市,秀英海南医院,,29,26,51,10,42,148,90,93,70,1,14,4,5,0.5,0.8
2022-01-03T13:00:00,1412A,110.338,19.9969,海口市,海南师范大学,,30,26,51,13,35,148,95,102,80,2,11,3,4,0.4,0.7
2022-01-03T13:00:00,1413A,110.33,20.0356,海口市,龙华路环保局宿舍,,35,34,50,14,36,157,112,93,93,4,21,5,6,0.5,0.7
2022-01-03T13:00:00,1414A,106.3787,29.8279,重庆市,缙云山(对照点),,,,75,,48,88,24,86,69,,32,6,6,,0.3
2022-01-03T13:00:00,1416A,106.4213,29.8253,重庆市,天生,细颗粒物(PM2.5),134,128,101,102,76,62,4,3,3,68,55,12,12,0.4,0.6
2022-01-03T13:00:00,1417A,106.6263,29.7228,重庆市,两路,细颗粒物(PM2.5),98,111,95,73,78,71,25,32,19,60,61,9,10,1.0,1
2022-01-03T13:00:00,1418A,106.2953,29.5983,重庆市,虎溪,细颗粒物(PM2.5),125,134,98,95,75,69,8,6,6,67,59,13,6,1.5,1.2
2022-01-03T13:00:00,1419A,106.5777,29.5102,重庆市,南坪,细颗粒物(PM2.5),128,130,96,97,69,50,6,27,24,61,56,13,10,1.5,1.1
2022-01-03T13:00:00,1420A,106.6556,29.6277,重庆市,唐家沱,细颗粒物(PM2.5),128,116,95,97,76,47,17,12,12,50,48,14,7,1.4,1.2
2022-01-03T13:00:00,1421A,106.6349,29.4906,重庆市,茶园,细颗粒物(PM2.5),137,136,124,104,86,25,5,4,4,51,57,10,9,0.9,0.9
2022-01-03T13:00:00,1422A,106.3754,29.4572,重庆市,白市驿,细颗粒物(PM2.5),124,158,114,94,69,52,10,7,7,49,49,24,10,0.9,0.8
2022-01-03T13:00:00,1425A,106.6205,29.7166,重庆市,空港,细颗粒物(PM2.5),105,100,98,79,76,71,27,42,22,56,60,11,13,0.9,1
2022-01-03T13:00:00,1426A,106.4782,29.4875,重庆市,新山村,细颗粒物(PM2.5),139,140,110,106,78,38,6,6,6,62,70,16,9,1.4,1.5
2022-01-03T13:00:00,1427A,106.5616,29.6453,重庆市,礼嘉,颗粒物(PM10),84,117,119,53,60,62,20,10,10,52,78,14,11,1.4,1
2022-01-03T13:00:00,1428A,106.4522,29.7091,重庆市,蔡家,细颗粒物(PM2.5),104,134,108,78,79,60,4,2,2,69,55,6,5,1.3,1.1
2022-01-03T13:00:00,1429A,106.5093,29.3917,重庆市,鱼新街,细颗粒物(PM2.5),134,124,119,102,84,41,21,16,16,48,54,23,11,1.1,1.2
2022-01-03T13:00:00,1431A,103.9728,30.7236,成都市,金泉两河,细颗粒物(PM2.5),133,125,119,101,99,86,14,30,24,53,38,7,7,0.9,0.8
2022-01-03T13:00:00,1432A,104.1419,30.6764,成都市,十里店,细颗粒物(PM2.5),142,144,123,108,95,94,7,7,4,50,37,6,6,1.0,0.9
2022-01-03T13:00:00,1433A,104.0594,30.5767,成都市,三瓦窑,细颗粒物(PM2.5),139,130,118,106,95,97,13,10,6,50,40,3,3,1.0,0.9
2022-01-03T13:00:00,1434A,104.1122,30.6306,成都市,沙河铺,细颗粒物(PM2.5),150,140,127,115,98,93,5,5,4,51,41,7,7,1.0,0.8
2022-01-03T13:00:00,1437A,104.0431,30.6556,成都市,君平街,细颗粒物(PM2.5),147,130,122,112,104,93,21,21,21,68,52,9,9,0.8,0.5
2022-01-03T13:00:00,1438A,103.6202,31.0201,成都市,灵岩寺(对照点),细颗粒物(PM2.5),83,73,88,61,61,80,70,65,65,15,20,6,8,0.9,0.9
2022-01-03T13:00:00,1439A,106.6899,26.5998,贵阳市,马鞍山,,,,41,,36,33,13,19,16,20,28,,9,0.6,0.7
2022-01-03T13:00:00,1440A,106.6971,26.5694,贵阳市,市环保站,,,,,,,0,0,0,0,33,33,10,10,1.0,1
2022-01-03T13:00:00,1441A,106.6243,26.6266,贵阳市,鉴湖路,,29,29,41,12,23,38,20,35,27,22,24,8,10,0.9,0.9
2022-01-03T13:00:00,1442A,106.7487,26.6343,贵阳市,燕子冲,,45,31,46,31,40,30,13,16,7,29,32,14,10,1.0,0.9
2022-01-03T13:00:00,1443A,106.6555,26.4365,贵阳市,碧云窝,,24,24,40,7,21,44,37,34,32,9,20,11,8,0.7,0.7
2022-01-03T13:00:00,1444A,106.694,26.5161,贵阳市,中院村,,49,44,46,34,33,26,17,20,10,25,32,16,16,0.8,0.9
2022-01-03T13:00:00,1445A,106.7109,26.6027,贵阳市,红边门,,,39,51,29,39,25,16,13,10,33,40,,16,0.8,0.9
2022-01-03T13:00:00,1446A,106.7164,26.5699,贵阳市,新华路,颗粒物(PM10),52,53,43,31,32,24,10,14,7,34,32,15,10,0.6,0.4
2022-01-03T13:00:00,1447A,106.674,26.5424,贵阳市,太慈桥,,34,34,53,19,31,27,25,16,15,19,31,9,8,0.7,0.9
2022-01-03T13:00:00,1450A,102.8204,24.8886,昆明市,呈贡新区,,20,16,24,14,17,79,64,38,38,14,22,5,7,0.3,0.5
2022-01-03T13:00:00,1451A,102.6251,24.9608,昆明市,西山森林公园(对照点),,30,30,15,10,11,73,60,40,40,11,12,9,7,0.4,0.4
2022-01-03T13:00:00,1452A,102.7252,25.0902,昆明市,龙泉镇,,21,20,30,11,14,80,67,32,32,10,25,8,9,0.4,0.5
2022-01-03T13:00:00,1453A,102.7266,25.0375,昆明市,东风东路,,20,20,21,13,15,77,64,37,37,13,21,7,7,0.5,0.5
2022-01-03T13:00:00,1454A,102.6742,25.0669,昆明市,金鼎山,,17,8,32,11,17,75,52,22,22,7,25,8,11,0.3,0.5
2022-01-03T13:00:00,1456A,91.1319,29.6514,拉萨市,八廓街,,16,15,19,11,15,84,50,49,49,24,25,3,2,0.9,0.9
2022-01-03T13:00:00,1457A,91.1221,29.6747,拉萨市,市环保局,,38,38,36,26,21,81,49,40,40,34,35,7,7,0.9,1.2
2022-01-03T13:00:00,1458A,91.0874,29.6475,拉萨市,区监测站,,18,18,20,7,11,79,48,39,39,18,31,5,5,0.6,0.8
2022-01-03T13:00:00,1459A,91.1774,29.6541,拉萨市,西藏大学,,19,16,19,7,10,91,59,54,54,14,20,2,3,0.6,0.7
2022-01-03T13:00:00,1460A,90.9798,29.6588,拉萨市,区辐射站,颗粒物(PM10),66,82,53,39,29,72,36,26,21,43,39,8,8,1.1,1.1
2022-01-03T13:00:00,1461A,91.0834,29.6292,拉萨市,拉萨火车站,,30,30,16,10,6,83,28,57,20,47,27,7,6,1.0,0.9
2022-01-03T13:00:00,1462A,108.882,34.2749,西安市,高压开关厂,细颗粒物(PM2.5),138,123,127,105,110,85,69,25,25,23,39,19,17,1.6,1.9
2022-01-03T13:00:00,1463A,108.993,34.2629,西安市,兴庆小区,细颗粒物(PM2.5),147,108,114,112,112,75,44,34,28,50,36,14,11,1.8,1.5
2022-01-03T13:00:00,1464A,109.06,34.2572,西安市,纺织城,细颗粒物(PM2.5),132,123,145,100,127,70,62,18,18,34,50,16,10,1.4,1.6
2022-01-03T13:00:00,1465A,108.9356,34.2173,西安市,小寨,细颗粒物(PM2.5),143,145,157,109,119,74,62,25,25,44,59,18,12,1.0,1.3
2022-01-03T13:00:00,1466A,108.954,34.2713,西安市,市人民体育场,细颗粒物(PM2.5),166,152,128,126,126,72,53,16,16,47,56,19,12,1.5,1.6
2022-01-03T13:00:00,1467A,108.8922,34.2322,西安市,高新西区,细颗粒物(PM2.5),144,130,123,110,112,75,53,23,23,36,51,16,14,1.0,1.4
2022-01-03T13:00:00,1468A,108.935,34.3474,西安市,经开区,细颗粒物(PM2.5),152,115,121,116,120,76,58,20,19,35,47,16,12,1.2,1.4
2022-01-03T13:00:00,1469A,108.906,34.1546,西安市,长安区,细颗粒物(PM2.5),129,136,150,98,118,88,62,34,34,33,33,16,10,1.7,1.8
2022-01-03T13:00:00,1471A,109.2186,34.3731,西安市,临潼区,细颗粒物(PM2.5),220,190,140,170,118,69,34,33,18,61,53,16,14,2.1,2
2022-01-03T13:00:00,1472A,108.869,34.378,西安市,草滩(对照点),细颗粒物(PM2.5),166,167,135,126,117,68,39,16,16,52,45,13,8,1.4,1.5
2022-01-03T13:00:00,1473A,108.985,34.1978,西安市,曲江文化产业集团,细颗粒物(PM2.5),188,152,149,141,114,74,53,16,16,47,60,17,10,1.4,1.4
2022-01-03T13:00:00,1474A,109.051,34.3213,西安市,广运潭,细颗粒物(PM2.5),152,122,133,116,134,74,50,18,18,34,42,18,12,1.5,1.5
2022-01-03T13:00:00,1476A,103.631,36.1031,兰州市,兰炼宾馆,细颗粒物(PM2.5),67,72,119,48,80,58,24,7,7,51,73,71,26,1.9,2.1
2022-01-03T13:00:00,1477A,104.1373,35.9454,兰州市,榆中兰大校区(对照点),颗粒物(PM10),57,64,87,38,49,99,79,50,50,20,35,17,24,1.6,1.8
2022-01-03T13:00:00,1478A,103.8412,36.0726,兰州市,生物制品所,颗粒物(PM10),87,124,113,57,51,59,27,10,10,80,75,39,29,1.6,2
2022-01-03T13:00:00,1479A,103.831,36.0464,兰州市,铁路设计院,颗粒物(PM10),84,118,135,59,71,26,14,8,8,99,102,39,41,1.8,3.1
2022-01-03T13:00:00,1483A,101.524,36.6867,西宁市,第五水厂(对照点),细颗粒物(PM2.5),99,109,77,74,42,93,49,29,29,46,37,72,21,1.8,2.1
2022-01-03T13:00:00,1484A,105.9512,38.6016,银川市,贺兰山马莲口(对照点),颗粒物(PM10),64,77,78,40,31,55,49,45,36,28,26,36,22,1.1,0.8
2022-01-03T13:00:00,1488A,106.2328,38.4975,银川市,贺兰山东路,细颗粒物(PM2.5),84,102,88,62,49,68,40,15,15,48,57,34,16,1.4,1.7
2022-01-03T13:00:00,1489A,106.1358,38.5036,银川市,学院路,颗粒物(PM10),72,93,103,48,43,60,47,15,15,35,60,35,28,1.6,1.8
2022-01-03T13:00:00,1490A,87.5801,43.8303,乌鲁木齐市,监测站,细颗粒物(PM2.5),243,218,178,193,146,12,7,4,4,90,93,8,8,2.7,2.5
2022-01-03T13:00:00,1491A,87.6046,43.768,乌鲁木齐市,收费所,颗粒物(PM10),102,154,168,64,112,50,10,40,12,84,70,8,7,2.7,2.2
2022-01-03T13:00:00,1492A,87.4754,43.9469,乌鲁木齐市,新疆农科院农场(对照点),,,194,235,135,153,60,8,5,5,95,84,10,12,1.3,1.6
2022-01-03T13:00:00,1493A,87.5525,43.8711,乌鲁木齐市,铁路局,细颗粒物(PM2.5),280,305,172,230,152,24,11,14,5,64,69,5,5,2.9,2.3
2022-01-03T13:00:00,1494A,87.6432,43.831,乌鲁木齐市,三十一中学,细颗粒物(PM2.5),139,110,193,106,165,34,26,10,10,62,88,10,10,2.2,2.5
2022-01-03T13:00:00,1496A,87.7216,44.1747,乌鲁木齐市,米东区环保局,细颗粒物(PM2.5),218,306,296,168,212,30,17,6,6,68,79,7,8,3.5,3.4
2022-01-03T13:00:00,1508A,112.9433,27.8614,湘潭市,板塘,细颗粒物(PM2.5),137,128,114,104,99,107,36,20,20,59,71,10,8,0.8,0.8
2022-01-03T13:00:00,1511A,112.9118,27.8403,湘潭市,市监测站,细颗粒物(PM2.5),134,147,141,102,105,73,25,9,9,60,76,19,18,0.9,1.3
2022-01-03T13:00:00,1512A,112.8937,27.8728,湘潭市,江麓,细颗粒物(PM2.5),122,129,126,92,94,137,35,20,20,96,105,20,18,1.1,1.1
2022-01-03T13:00:00,1513A,112.9227,27.8159,湘潭市,岳塘,细颗粒物(PM2.5),132,146,137,100,106,106,39,27,27,62,73,13,18,1.1,1.5
2022-01-03T13:00:00,1514A,112.9074,27.9119,湘潭市,科大,细颗粒物(PM2.5),119,132,130,90,90,116,32,23,23,71,76,13,8,0.8,0.7
2022-01-03T13:00:00,1515A,113.135,27.8244,株洲市,天台山庄,细颗粒物(PM2.5),152,,118,116,98,130,23,28,28,,68,12,9,,0.9
2022-01-03T13:00:00,1518A,113.095,27.8867,株洲市,株冶医院,细颗粒物(PM2.5),128,114,114,97,86,107,24,35,28,86,75,13,13,1.1,1.2
2022-01-03T13:00:00,1519A,113.167,27.8667,株洲市,市四中,细颗粒物(PM2.5),150,119,128,115,101,126,33,35,30,55,52,15,11,0.9,0.7
2022-01-03T13:00:00,1520A,113.143,27.8381,株洲市,火车站,细颗粒物(PM2.5),165,161,151,125,109,128,32,20,20,72,70,16,15,1.9,1.9
2022-01-03T13:00:00,1524A,113.13,27.8528,株洲市,市监测站,细颗粒物(PM2.5),152,135,127,116,96,130,23,22,22,86,77,12,11,1.2,1.1
2022-01-03T13:00:00,1552A,106.805,26.3003,贵阳市,桐木岭(对照点),,22,22,27,12,21,52,48,51,46,4,6,7,10,0.6,0.7
2022-01-03T13:00:00,1559A,113.251,27.8336,株洲市,大京风景区(对照点),细颗粒物(PM2.5),113,100,78,85,62,142,63,46,46,35,29,12,7,0.8,0.7
2022-01-03T13:00:00,1562A,113.0048,27.9153,湘潭市,昭山,细颗粒物(PM2.5),119,107,107,90,83,94,29,19,19,70,77,18,11,0.8,0.8
2022-01-03T13:00:00,1564A,112.4876,27.9164,湘潭市,韶山(对照点),颗粒物(PM10),95,139,104,54,52,122,84,55,54,43,26,28,8,1.2,0.9
2022-01-03T13:00:00,1585A,109.8756,40.6532,包头市,市环境监测站,一氧化碳,64,66,73,37,36,43,16,30,27,80,44,70,21,6.4,1.4
2022-01-03T13:00:00,1587A,109.9991,40.5842,包头市,包头八中,颗粒物(PM10),79,107,118,54,54,44,33,12,12,50,57,25,20,1.3,1.7
2022-01-03T13:00:00,1588A,109.8538,40.6821,包头市,青山宾馆,一氧化碳,66,76,89,43,48,44,25,30,28,76,50,52,22,6.6,1.6
2022-01-03T13:00:00,1589A,109.8642,40.6288,包头市,惠龙物流,颗粒物(PM10),78,106,83,53,37,47,15,29,22,69,43,66,19,4.7,1.7
2022-01-03T13:00:00,1590A,110.0377,40.5546,包头市,东河鸿龙湾,细颗粒物(PM2.5),82,91,90,60,42,51,42,16,16,38,47,34,18,1.5,1.5
2022-01-03T13:00:00,1591A,110.0023,39.8129,鄂尔多斯市,综合楼,颗粒物(PM10),59,68,93,36,45,56,53,46,45,34,38,16,24,0.8,1
2022-01-03T13:00:00,1592A,109.9486,39.8261,鄂尔多斯市,巴音孟克林场办事处,,48,48,85,22,36,68,68,51,51,20,37,15,25,0.7,1.1
2022-01-03T13:00:00,1593A,109.7736,39.5986,鄂尔多斯市,康泽苑,颗粒物(PM10),51,52,58,17,23,90,74,40,40,18,34,15,11,0.6,0.6
2022-01-03T13:00:00,1594A,109.8119,39.5989,鄂尔多斯市,华泰汽车城,颗粒物(PM10),53,56,62,29,29,83,63,26,26,19,39,14,10,0.7,0.7
2022-01-03T13:00:00,1595A,109.9734,39.7884,鄂尔多斯市,奥林花园,,50,50,85,20,35,58,48,52,44,46,40,44,23,0.8,1
2022-01-03T13:00:00,1597A,122.2703,40.7094,营口市,大庆路,,40,40,35,23,19,92,56,45,36,26,34,26,19,0.8,0.8
2022-01-03T13:00:00,1598A,122.215,40.6511,营口市,镜湖西路,,40,40,36,22,16,63,48,45,39,23,27,18,9,1.2,1.2
2022-01-03T13:00:00,1599A,122.167,40.6655,营口市,西炮台,,36,36,45,21,21,60,53,47,39,21,27,17,9,0.7,0.9
2022-01-03T13:00:00,1600A,124.3303,40.0625,丹东市,江湾东路,颗粒物(PM10),57,63,62,24,35,60,49,26,26,16,31,32,39,0.9,1.2
2022-01-03T13:00:00,1601A,124.4256,40.1503,丹东市,临江后街,,37,37,60,24,39,63,39,28,20,30,34,34,25,0.9,1.2
2022-01-03T13:00:00,1602A,124.3933,40.1461,丹东市,元宝山,,39,38,59,27,39,64,39,22,22,27,28,26,26,0.9,1.2
2022-01-03T13:00:00,1604A,122.0303,41.1489,盘锦市,开发区,,48,48,47,24,27,60,60,36,25,17,39,15,26,0.8,1.1
2022-01-03T13:00:00,1605A,122.0485,41.0883,盘锦市,兴隆台,,45,45,44,20,25,66,55,29,23,26,44,18,20,0.9,1.1
2022-01-03T13:00:00,1606A,121.8297,41.1028,盘锦市,新生街道,颗粒物(PM10),54,57,36,18,19,67,66,47,26,17,32,15,27,0.7,0.9
2022-01-03T13:00:00,1607A,120.9092,40.7136,葫芦岛市,龙港区,颗粒物(PM10),72,94,48,28,30,70,58,33,33,21,30,64,31,1.6,1.6
2022-01-03T13:00:00,1608A,120.8392,40.7514,葫芦岛市,化工街,细颗粒物(PM2.5),52,36,54,36,27,58,58,25,25,16,37,20,20,1.3,1.6
2022-01-03T13:00:00,1609A,120.8341,40.7073,葫芦岛市,新区,颗粒物(PM10),54,58,43,23,24,61,58,25,25,20,40,24,18,0.7,0.8
2022-01-03T13:00:00,1610A,120.8695,40.7677,葫芦岛市,东城区,颗粒物(PM10),63,76,60,22,30,68,68,36,36,19,45,14,12,0.8,1
2022-01-03T13:00:00,1611A,118.5819,24.9117,泉州市,涂山街,颗粒物(PM10),54,58,50,36,27,125,125,93,48,28,26,9,8,0.6,0.6
2022-01-03T13:00:00,1612A,118.5972,24.8978,泉州市,津头埔,颗粒物(PM10),54,58,48,35,27,140,140,102,76,25,27,9,8,0.6,0.6
2022-01-03T13:00:00,1613A,118.6663,24.9424,泉州市,万安,细颗粒物(PM2.5),58,62,49,41,31,135,135,100,71,23,25,7,6,0.5,0.5
2022-01-03T13:00:00,1614A,118.6117,24.9604,泉州市,清源山(对照点),颗粒物(PM10),58,65,43,39,25,141,141,108,103,22,16,10,9,0.5,0.4
2022-01-03T13:00:00,1616A,117.6795,36.229,济南市,技术学院,细颗粒物(PM2.5),127,168,114,96,49,72,59,37,31,54,47,21,12,2.4,1.2
2022-01-03T13:00:00,1618A,118.3429,35.0532,临沂市,沂河小区,细颗粒物(PM2.5),143,168,107,109,57,69,60,26,26,59,48,28,13,1.1,0.7
2022-01-03T13:00:00,1619A,118.295,35.0583,临沂市,鲁南制药厂,细颗粒物(PM2.5),165,171,116,125,65,72,70,41,23,64,53,26,19,1.2,1
2022-01-03T13:00:00,1620A,118.2794,34.9976,临沂市,新光毛纺厂,细颗粒物(PM2.5),158,175,129,120,68,58,55,23,20,55,58,24,18,1.4,1.1
2022-01-03T13:00:00,1621A,118.3956,35.0888,临沂市,河东保险公司,细颗粒物(PM2.5),147,168,121,112,62,72,49,18,18,66,59,32,16,1.2,0.8
2022-01-03T13:00:00,1622A,116.3032,37.4674,德州市,儿童乐园,颗粒物(PM10),96,141,126,70,56,68,45,23,19,41,47,32,25,1.1,1
2022-01-03T13:00:00,1624A,116.2991,37.4451,德州市,监理站,细颗粒物(PM2.5),166,169,130,126,64,67,41,17,17,54,57,38,28,1.1,0.9
2022-01-03T13:00:00,1625A,115.9848,36.4372,聊城市,区政府,细颗粒物(PM2.5),139,175,122,106,59,64,50,29,29,33,53,18,16,1.2,1
2022-01-03T13:00:00,1628A,118.0062,37.3803,滨州市,市环保局,颗粒物(PM10),100,149,98,74,45,77,46,13,13,36,40,24,28,1.2,1
2022-01-03T13:00:00,1629A,118.0018,37.3617,滨州市,第二水厂,细颗粒物(PM2.5),107,147,101,80,46,72,42,14,14,37,42,33,29,1.2,1
2022-01-03T13:00:00,1630A,117.9776,37.393,滨州市,北中新校,细颗粒物(PM2.5),103,143,91,77,44,72,43,15,15,40,47,26,30,1.1,1
2022-01-03T13:00:00,1631A,118.0414,36.8103,淄博市,人民公园,细颗粒物(PM2.5),138,146,105,105,53,81,49,31,31,49,55,32,16,1.5,1
2022-01-03T13:00:00,1633A,117.8525,36.4847,淄博市,双山,细颗粒物(PM2.5),119,128,104,90,54,88,88,56,56,17,29,13,14,1.0,0.9
2022-01-03T13:00:00,1634A,117.9592,36.6331,淄博市,气象站,细颗粒物(PM2.5),119,144,102,90,44,78,78,52,52,33,40,19,28,1.2,1.1
2022-01-03T13:00:00,1635A,118.3092,36.8194,淄博市,莆田园,细颗粒物(PM2.5),134,143,103,102,57,75,60,26,26,42,49,21,17,1.5,2
2022-01-03T13:00:00,1637A,117.558,34.8438,枣庄市,市中区政府,细颗粒物(PM2.5),104,151,136,78,59,81,69,48,48,37,46,35,25,0.8,0.8
2022-01-03T13:00:00,1638A,117.2852,34.7837,枣庄市,薛城环保局,细颗粒物(PM2.5),134,154,122,102,62,78,78,53,53,37,41,22,27,1.0,0.8
2022-01-03T13:00:00,1639A,117.5852,34.7745,枣庄市,峄城区政府,细颗粒物(PM2.5),98,134,123,73,54,73,72,51,31,20,30,30,18,0.7,0.6
2022-01-03T13:00:00,1640A,117.7276,34.5578,枣庄市,台儿庄区环保局,细颗粒物(PM2.5),125,151,126,95,66,79,67,33,33,44,50,15,11,1.0,0.9
2022-01-03T13:00:00,1641A,117.4518,35.0992,枣庄市,山亭区环保局,细颗粒物(PM2.5),125,151,110,95,55,92,92,69,68,38,30,33,17,0.9,0.7
2022-01-03T13:00:00,1642A,121.2514,37.5639,烟台市,开发区,颗粒物(PM10),65,80,47,27,19,64,64,31,31,27,38,8,5,0.7,0.7
2022-01-03T13:00:00,1643A,121.3719,37.5433,烟台市,轴承厂,颗粒物(PM10),59,68,34,36,20,63,62,47,47,32,32,17,9,0.8,0.5
2022-01-03T13:00:00,1644A,121.3181,37.5436,烟台市,西郊化工站,颗粒物(PM10),63,75,45,31,16,66,66,47,47,32,33,12,7,0.9,0.8
2022-01-03T13:00:00,1645A,121.4478,37.4822,烟台市,莱山环保局,颗粒物(PM10),58,66,30,31,14,74,74,54,54,27,27,11,7,0.7,0.7
2022-01-03T13:00:00,1646A,121.2611,37.4967,烟台市,福山环保局,颗粒物(PM10),67,83,60,36,27,68,68,28,28,20,33,9,5,0.7,0.8
2022-01-03T13:00:00,1650A,119.1437,36.7023,潍坊市,环保局,,,90,64,54,35,70,55,37,31,,39,,8,0.9,0.9
2022-01-03T13:00:00,1653A,116.6251,35.4302,济宁市,火炬城,细颗粒物(PM2.5),132,112,91,100,56,65,60,42,42,38,41,14,15,1.0,0.8
2022-01-03T13:00:00,1655A,116.5491,35.4042,济宁市,电化厂,细颗粒物(PM2.5),134,118,88,102,61,84,68,43,43,38,37,26,19,1.3,1
2022-01-03T13:00:00,1656A,117.1437,36.1937,泰安市,监测站,细颗粒物(PM2.5),163,153,111,124,69,73,59,37,22,41,47,21,22,0.8,1
2022-01-03T13:00:00,1657A,117.0885,36.2017,泰安市,人口学校,细颗粒物(PM2.5),144,148,107,110,58,72,66,48,44,40,38,16,13,0.9,0.9
2022-01-03T13:00:00,1658A,117.1089,36.1758,泰安市,电力学校,细颗粒物(PM2.5),152,136,123,116,69,67,58,32,19,38,54,21,21,1.0,1.1
2022-01-03T13:00:00,1659A,119.471,35.4209,日照市,监测站,细颗粒物(PM2.5),73,90,115,53,52,81,70,21,21,33,48,14,14,0.9,1.3
2022-01-03T13:00:00,1661A,119.5587,35.4044,日照市,港务局,颗粒物(PM10),76,102,86,52,36,98,63,44,22,53,48,15,8,1.1,0.9
2022-01-03T13:00:00,1662A,122.1214,37.4236,威海市,华夏技校,颗粒物(PM10),51,51,22,34,17,76,76,55,55,15,16,7,4,0.5,0.3
2022-01-03T13:00:00,1663A,122.0508,37.5236,威海市,山大分校,,44,44,20,20,9,79,79,60,60,12,12,6,5,0.4,0.3
2022-01-03T13:00:00,1664A,122.1067,37.5072,威海市,市监测站,颗粒物(PM10),55,59,22,36,11,75,75,56,56,18,20,8,5,0.6,0.5
2022-01-03T13:00:00,1666A,118.6614,37.4309,东营市,市环保局,,,122,55,66,30,78,42,47,18,,31,76,16,,0.7
2022-01-03T13:00:00,1669A,113.5824,24.7733,韶关市,市八中,细颗粒物(PM2.5),58,63,56,41,37,116,116,61,61,19,33,10,9,0.5,0.6
2022-01-03T13:00:00,1671A,113.5917,24.7972,韶关市,园林处,颗粒物(PM10),60,69,53,39,36,108,108,53,53,13,30,12,11,0.8,0.8
2022-01-03T13:00:00,1672A,113.6735,24.7791,韶关市,韶关学院,颗粒物(PM10),63,75,53,41,41,108,100,41,41,19,32,13,10,0.7,0.7
2022-01-03T13:00:00,1673A,113.5971,24.6863,韶关市,曲江监测站,细颗粒物(PM2.5),60,66,53,43,36,104,104,47,47,22,37,11,10,0.4,0.5
2022-01-03T13:00:00,1674A,116.6794,23.3667,汕头市,金平子站,细颗粒物(PM2.5),53,42,41,37,27,123,114,79,56,19,23,10,9,0.5,0.4
2022-01-03T13:00:00,1675A,116.7244,23.3633,汕头市,龙湖子站,,39,35,36,27,20,130,120,88,74,19,19,12,11,0.8,0.7
2022-01-03T13:00:00,1676A,116.7258,23.2775,汕头市,濠江子站,,39,38,38,25,24,127,123,80,80,16,17,11,10,0.7,0.7
2022-01-03T13:00:00,1677A,116.7519,23.4714,汕头市,澄海子站,,49,48,38,34,28,119,119,81,63,20,26,10,12,0.5,0.5
2022-01-03T13:00:00,1678A,116.6092,23.2539,汕头市,潮阳子站,,40,40,39,21,17,140,126,90,71,16,19,12,12,0.6,0.5
2022-01-03T13:00:00,1680A,110.3539,21.2706,湛江市,湛江影剧院,,46,46,64,28,60,143,115,115,75,13,24,7,13,0.8,1
2022-01-03T13:00:00,1681A,110.3928,21.2228,湛江市,市环境监测站,颗粒物(PM10),55,60,68,29,67,152,118,100,86,14,24,7,11,0.5,0.7
2022-01-03T13:00:00,1682A,110.4019,21.1997,湛江市,环保局宿舍,,40,36,63,28,62,148,128,126,93,14,24,6,11,0.7,0.9
2022-01-03T13:00:00,1683A,110.4111,21.2028,湛江市,霞山游泳场,颗粒物(PM10),56,62,66,26,66,142,119,98,79,12,25,6,11,0.6,0.8
2022-01-03T13:00:00,1684A,110.3316,21.2679,湛江市,麻章区环保局,,49,49,74,30,72,140,115,113,65,11,26,8,15,0.8,1
2022-01-03T13:00:00,1685A,110.4558,21.2567,湛江市,坡头区环保局,,43,43,64,30,66,150,126,124,87,14,20,8,12,0.7,0.8
2022-01-03T13:00:00,1686A,111.0286,21.4688,茂名市,电白南海,颗粒物(PM10),58,66,88,31,54,138,112,116,76,15,21,10,14,0.6,0.8
2022-01-03T13:00:00,1687A,110.9294,21.6533,茂名市,茂石化七小,,,,83,,58,136,122,89,77,13,17,12,16,,1
2022-01-03T13:00:00,1688A,110.9107,21.6687,茂名市,健康路,颗粒物(PM10),62,74,84,42,55,139,135,92,70,12,19,11,17,1.0,1.1
2022-01-03T13:00:00,1689A,110.8592,21.6828,茂名市,高岭,细颗粒物(PM2.5),64,64,74,46,54,133,126,82,54,12,23,16,21,0.9,1.2
2022-01-03T13:00:00,1690A,116.1231,24.3284,梅州市,梅江月梅,,48,46,52,33,32,90,77,24,24,16,26,11,8,0.7,0.7
2022-01-03T13:00:00,1691A,116.0797,24.2719,梅州市,梅县新城,颗粒物(PM10),56,61,41,35,31,92,75,30,30,24,32,10,6,0.8,0.8
2022-01-03T13:00:00,1692A,116.1248,24.2654,梅州市,环境监控中心,细颗粒物(PM2.5),62,58,42,44,35,92,92,34,34,17,32,9,9,0.5,0.6
2022-01-03T13:00:00,1693A,115.3653,22.775,汕尾市,市环保局,,36,26,35,20,24,148,114,78,69,14,18,11,10,0.8,0.9
2022-01-03T13:00:00,1694A,115.3706,22.7898,汕尾市,市政府,,43,41,33,30,25,151,108,68,63,15,20,6,6,0.8,0.8
2022-01-03T13:00:00,1696A,114.6778,23.7569,河源市,源西(对照点),颗粒物(PM10),51,52,50,27,30,111,90,51,51,27,43,9,6,0.8,0.9
2022-01-03T13:00:00,1697A,114.6944,23.7586,河源市,东埔,,50,39,44,35,32,112,88,57,57,27,38,9,7,0.9,1
2022-01-03T13:00:00,1698A,114.6892,23.7233,河源市,老城,,46,41,42,32,28,112,86,39,39,19,30,8,6,0.9,0.9
2022-01-03T13:00:00,1699A,111.9797,21.8593,阳江市,鸳鸯湖(对照点),细颗粒物(PM2.5),79,59,71,58,71,165,150,84,84,14,28,11,8,0.7,0.9
2022-01-03T13:00:00,1701A,111.9491,21.8658,阳江市,马南垌,细颗粒物(PM2.5),88,76,72,65,77,157,154,98,94,25,34,11,9,0.8,1
2022-01-03T13:00:00,1702A,113.0426,23.691,清远市,环保大楼(对照点),,50,50,45,32,33,97,95,52,52,17,22,8,7,0.9,1
2022-01-03T13:00:00,1703A,113.0208,23.7106,清远市,凤城街办,细颗粒物(PM2.5),55,48,42,39,32,94,85,45,45,21,30,9,7,1.0,1.1
2022-01-03T13:00:00,1705A,116.6367,23.6719,潮州市,西园路(对照点),颗粒物(PM10),60,69,40,39,30,139,101,56,50,22,18,13,11,0.9,0.7
2022-01-03T13:00:00,1706A,116.6447,23.6706,潮州市,档案局,细颗粒物(PM2.5),68,59,33,49,25,136,96,47,47,22,19,10,9,0.8,0.7
2022-01-03T13:00:00,1708A,116.3701,23.5345,揭阳市,新兴,颗粒物(PM10),56,62,50,39,40,161,125,68,47,22,31,11,13,0.8,0.8
2022-01-03T13:00:00,1709A,116.3264,23.5443,揭阳市,西马,细颗粒物(PM2.5),63,64,59,45,39,166,128,68,43,17,26,11,11,0.7,0.7
2022-01-03T13:00:00,1710A,116.3611,23.5626,揭阳市,东兴,颗粒物(PM10),59,68,52,40,36,163,126,72,50,16,29,12,13,0.8,0.8
2022-01-03T13:00:00,1711A,116.4151,23.5294,揭阳市,渔湖,颗粒物(PM10),55,59,51,32,34,159,122,60,44,21,33,9,13,0.6,0.6
2022-01-03T13:00:00,1712A,112.0392,22.9169,云浮市,新市府(对照点),细颗粒物(PM2.5),78,68,42,57,30,116,116,40,40,28,22,10,12,0.9,0.8
2022-01-03T13:00:00,1714A,112.0539,22.9539,云浮市,牧羊,细颗粒物(PM2.5),82,85,60,60,37,120,120,36,36,34,40,11,22,0.9,0.9
2022-01-03T13:00:00,1715A,102.575,24.3711,玉溪市,东风水库,,20,10,17,5,10,62,61,31,30,8,16,6,7,0.6,0.7
2022-01-03T13:00:00,1718A,115.4208,35.2464,菏泽市,气象局,细颗粒物(PM2.5),199,211,158,149,98,62,62,32,32,45,52,19,18,1.1,1
2022-01-03T13:00:00,1719A,115.4747,35.2375,菏泽市,市政协,,,,153,,89,72,52,26,26,46,55,21,17,,1.1
2022-01-03T13:00:00,1721A,113.3819,40.1097,大同市,果树场(对照点),,50,50,94,9,52,58,55,30,30,27,41,26,33,1.2,1.3
2022-01-03T13:00:00,1723A,113.2994,40.0758,大同市,云冈宾馆,颗粒物(PM10),71,91,93,40,52,40,37,10,10,40,56,33,43,1.0,1.8
2022-01-03T13:00:00,1724A,113.3444,40.0917,大同市,大同大学,,,,100,,48,45,38,16,16,36,48,27,50,1.1,1.3
2022-01-03T13:00:00,1725A,113.2661,40.1269,大同市,安家小村,颗粒物(PM10),86,121,130,36,52,50,47,22,22,30,45,36,53,1.1,2
2022-01-03T13:00:00,1726A,113.2711,40.0844,大同市,教育学院,颗粒物(PM10),83,116,139,55,68,46,34,12,12,38,53,37,55,0.9,1.7
2022-01-03T13:00:00,1727A,113.1147,36.1547,长治市,清华站,细颗粒物(PM2.5),113,117,90,85,67,93,64,62,29,40,38,17,19,1.2,1
2022-01-03T13:00:00,1728A,113.1031,36.1989,长治市,监测站,细颗粒物(PM2.5),114,125,98,86,67,88,66,73,22,34,33,13,12,1.4,1.2
2022-01-03T13:00:00,1730A,113.0886,36.2125,长治市,审计局,细颗粒物(PM2.5),110,115,95,83,65,83,64,50,19,32,45,26,20,1.5,1.4
2022-01-03T13:00:00,1731A,113.0844,36.1856,长治市,长治八中,,,,112,,60,78,49,49,15,42,46,32,24,1.0,0.9
2022-01-03T13:00:00,1733A,111.5531,36.0783,临汾市,临钢医院,细颗粒物(PM2.5),113,98,85,85,64,73,50,18,18,40,47,16,14,1.4,1.1
2022-01-03T13:00:00,1734A,111.5028,36.0714,临汾市,技工学校,细颗粒物(PM2.5),117,103,92,88,74,71,43,14,14,40,52,21,21,1.2,1
2022-01-03T13:00:00,1736A,111.5018,36.0855,临汾市,市委,细颗粒物(PM2.5),109,108,102,82,69,68,44,14,14,41,55,17,18,1.2,1
2022-01-03T13:00:00,1738A,113.5758,37.8572,阳泉市,市中心,细颗粒物(PM2.5),98,84,97,73,55,55,55,23,23,43,57,47,48,1.1,1.1
2022-01-03T13:00:00,1739A,113.4894,37.8731,阳泉市,赛鱼,细颗粒物(PM2.5),67,52,84,48,48,58,58,22,22,40,60,48,44,1.1,1.3
2022-01-03T13:00:00,1740A,113.5819,37.8486,阳泉市,南庄,细颗粒物(PM2.5),80,77,91,59,52,49,49,20,20,48,52,65,39,1.6,1.1
2022-01-03T13:00:00,1742A,113.5614,37.8703,阳泉市,平坦,细颗粒物(PM2.5),98,51,81,73,58,60,60,20,20,37,60,40,45,0.7,0.9
2022-01-03T13:00:00,1743A,113.5158,37.8392,阳泉市,大阳泉,细颗粒物(PM2.5),89,51,71,66,52,72,72,37,37,34,57,48,48,1.1,1.2
2022-01-03T13:00:00,1744A,118.9233,42.2816,赤峰市,松山一中,,37,37,43,10,20,71,71,30,30,16,38,7,17,0.2,0.7
2022-01-03T13:00:00,1745A,118.9576,42.2728,赤峰市,哈达街,,43,43,32,22,18,68,68,46,28,15,28,11,11,0.2,0.5
2022-01-03T13:00:00,1746A,118.8788,42.2554,赤峰市,天义路,,45,45,28,17,13,72,72,52,24,16,31,7,10,0.4,0.6
2022-01-03T13:00:00,1748A,123.044,41.1196,鞍山市,深沟寺,颗粒物(PM10),61,71,59,40,33,68,50,67,36,26,29,25,25,1.0,1.3
2022-01-03T13:00:00,1749A,123.011,41.0931,鞍山市,太阳城,细颗粒物(PM2.5),62,70,55,44,32,71,44,70,31,40,31,41,22,1.5,1.3
2022-01-03T13:00:00,1750A,123.0485,41.1442,鞍山市,太平,颗粒物(PM10),60,70,60,41,35,67,50,64,31,27,37,28,29,0.8,1.2
2022-01-03T13:00:00,1751A,122.9642,41.0971,鞍山市,铁西三道街,颗粒物(PM10),59,67,65,33,34,54,50,46,34,25,34,30,24,1.3,1.5
2022-01-03T13:00:00,1752A,122.9341,41.0833,鞍山市,铁西工业园区,颗粒物(PM10),56,61,66,34,38,67,58,60,42,27,33,36,23,1.2,1.4
2022-01-03T13:00:00,1753A,123.022,41.0821,鞍山市,明达新区,,,81,61,49,33,70,40,70,33,42,29,44,24,,1.1
2022-01-03T13:00:00,1754A,123.1289,41.0228,鞍山市,千山(对照点),颗粒物(PM10),62,73,35,43,19,54,39,48,45,44,19,38,12,1.6,0.9
2022-01-03T13:00:00,1755A,123.7977,41.8491,抚顺市,望花区,细颗粒物(PM2.5),87,112,81,64,53,50,32,16,16,45,42,32,13,1.9,1.6
2022-01-03T13:00:00,1756A,123.9161,41.8822,抚顺市,顺城区,细颗粒物(PM2.5),92,112,82,68,61,51,33,19,19,47,44,32,21,1.6,1.4
2022-01-03T13:00:00,1757A,124.0436,41.8611,抚顺市,东洲区,颗粒物(PM10),87,123,60,55,41,51,30,24,24,50,30,31,13,1.9,1.2
2022-01-03T13:00:00,1758A,123.9247,41.8642,抚顺市,新抚区,颗粒物(PM10),92,134,77,60,57,49,27,16,16,55,44,33,12,2.1,1.4
2022-01-03T13:00:00,1759A,124.0972,41.8961,抚顺市,大伙房水库,,,,47,,37,58,35,29,29,45,26,33,13,1.9,1
2022-01-03T13:00:00,1760A,123.7086,41.8391,抚顺市,沈抚新城,"颗粒物(PM10),细颗粒物(PM2.5)",79,107,89,58,57,52,32,15,15,49,46,30,21,1.3,1.5
2022-01-03T13:00:00,1761A,123.8275,41.3064,本溪市,大峪,,,,61,,33,49,49,17,17,,47,32,23,,1.7
2022-01-03T13:00:00,1762A,123.7567,41.3325,本溪市,溪湖,颗粒物(PM10),52,54,82,32,47,60,58,20,20,24,45,32,42,1.0,1.8
2022-01-03T13:00:00,1764A,123.7669,41.2864,本溪市,东明,颗粒物(PM10),63,75,63,33,40,49,49,21,21,38,46,30,22,1.7,1.8
2022-01-03T13:00:00,1765A,123.7992,41.2664,本溪市,新立屯,颗粒物(PM10),64,78,48,37,27,50,49,46,46,30,34,31,18,1.9,1.4
2022-01-03T13:00:00,1766A,123.8142,41.3472,本溪市,威宁,颗粒物(PM10),86,121,96,46,37,54,44,21,21,38,43,30,12,1.4,1.3
2022-01-03T13:00:00,1767A,121.1115,41.0879,锦州市,南山,颗粒物(PM10),70,89,64,19,53,65,62,25,25,21,43,17,45,1.1,1.3
2022-01-03T13:00:00,1768A,121.0533,40.8434,锦州市,开发区,,44,44,88,30,36,57,55,27,27,17,48,20,28,1.0,1.1
2022-01-03T13:00:00,1769A,121.1836,41.1119,锦州市,百股街道,细颗粒物(PM2.5),155,136,73,118,48,63,58,26,26,29,40,,32,1.1,1.3
2022-01-03T13:00:00,1770A,121.1178,41.1222,锦州市,天安街道,,49,49,72,16,50,63,63,22,22,14,45,27,58,0.6,1.2
2022-01-03T13:00:00,1771A,121.1303,41.1386,锦州市,北湖公园,颗粒物(PM10),56,61,71,9,44,72,72,35,35,16,41,13,42,0.6,1.2
2022-01-03T13:00:00,1772A,126.54,43.8622,吉林市,哈达湾,,42,42,41,19,22,61,61,52,34,13,20,10,10,0.8,0.8
2022-01-03T13:00:00,1773A,126.5844,43.8358,吉林市,东局子,,44,44,40,27,23,58,56,47,30,18,25,14,11,0.8,0.7
2022-01-03T13:00:00,1774A,126.5052,43.8245,吉林市,电力学院,,32,31,67,22,45,63,61,42,31,16,28,14,15,0.8,1
2022-01-03T13:00:00,1775A,126.6133,43.8972,吉林市,江北,,45,45,60,29,37,56,55,47,30,24,30,15,14,1.1,1
2022-01-03T13:00:00,1776A,126.555,43.8306,吉林市,江南公园,,,38,36,30,24,60,60,44,32,,22,9,11,0.8,0.7
2022-01-03T13:00:00,1778A,126.7061,43.7133,吉林市,丰满(对照点),,47,47,28,32,17,60,56,48,48,18,10,19,10,1.0,0.6
2022-01-03T13:00:00,1779A,123.9305,47.3636,齐齐哈尔市,安居小区,,,40,30,39,23,54,46,39,37,8,15,,15,0.5,0.5
2022-01-03T13:00:00,1780A,123.9488,47.3386,齐齐哈尔市,中心广场,,32,32,19,17,10,55,53,49,41,4,10,4,7,0.4,0.5
2022-01-03T13:00:00,1781A,123.9483,47.3227,齐齐哈尔市,农牧车辆厂,,41,41,30,23,17,50,47,42,32,10,19,32,27,0.3,0.4
2022-01-03T13:00:00,1783A,123.945,47.2988,齐齐哈尔市,市环境监测站,,42,42,35,28,22,47,45,37,32,4,12,3,17,0.5,0.6
2022-01-03T13:00:00,1785A,129.6115,44.5782,牡丹江市,文化广场,,29,29,33,11,17,62,59,58,47,13,14,10,9,0.4,0.4
2022-01-03T13:00:00,1786A,129.5904,44.5963,牡丹江市,第一医院,,32,26,36,22,25,65,63,60,40,9,18,5,7,0.5,0.5
2022-01-03T13:00:00,1787A,129.6364,44.6075,牡丹江市,机车工厂,,23,23,38,16,21,63,59,54,40,11,16,3,5,0.3,0.4
2022-01-03T13:00:00,1788A,129.6386,44.5462,牡丹江市,第一中学,,24,24,28,13,18,68,66,58,57,11,12,5,7,0.5,0.4
2022-01-03T13:00:00,1789A,124.81117,46.03138,大庆市,大同区,,,,43,,32,64,57,45,39,,14,,10,0.6,0.6
2022-01-03T13:00:00,1790A,125.129,46.533,大庆市,龙凤区,细颗粒物(PM2.5),53,50,36,37,21,50,42,32,23,16,23,20,12,0.5,0.6
2022-01-03T13:00:00,1791A,124.902,46.408,大庆市,红岗区,,19,9,27,10,18,63,58,44,37,9,16,7,10,0.8,0.9
2022-01-03T13:00:00,1792A,125.153,46.586,大庆市,萨尔图区,细颗粒物(PM2.5),62,62,31,44,30,50,44,39,16,15,29,16,24,0.4,0.5
2022-01-03T13:00:00,1793A,124.9042,46.6215,大庆市,让胡路区,,23,21,27,16,18,59,55,46,34,6,13,9,5,0.6,0.4
2022-01-03T13:00:00,1794A,118.3606,31.3519,芜湖市,监测站,细颗粒物(PM2.5),210,,94,160,124,98,59,23,21,75,76,30,11,1.8,1.3
2022-01-03T13:00:00,1795A,118.3714,31.4134,芜湖市,科创中心,细颗粒物(PM2.5),200,142,113,150,129,100,46,25,18,87,77,22,11,1.4,0.9
2022-01-03T13:00:00,1796A,118.3673,31.3131,芜湖市,四水厂,细颗粒物(PM2.5),206,135,103,156,133,92,49,28,23,81,64,24,12,1.5,1.1
2022-01-03T13:00:00,1798A,118.5092,31.6837,马鞍山市,湖东路四小,细颗粒物(PM2.5),173,125,114,131,106,95,72,30,22,58,69,17,10,1.3,1.1
2022-01-03T13:00:00,1799A,118.5024,31.6449,马鞍山市,开发区,细颗粒物(PM2.5),168,138,118,127,106,90,69,26,26,68,71,19,12,1.6,1.2
2022-01-03T13:00:00,1800A,118.5228,31.7231,马鞍山市,慈湖,细颗粒物(PM2.5),202,170,147,152,128,103,46,29,19,86,62,43,18,2.1,1.2
2022-01-03T13:00:00,1802A,118.6245,31.7241,马鞍山市,濮塘(对照点),细颗粒物(PM2.5),113,126,112,85,80,98,95,39,39,40,42,19,15,1.1,1
2022-01-03T13:00:00,1803A,115.9872,29.6815,九江市,十里,细颗粒物(PM2.5),147,137,122,112,92,124,70,26,26,83,68,18,14,0.7,0.6
2022-01-03T13:00:00,1804A,115.9584,29.7046,九江市,茅山头,细颗粒物(PM2.5),140,133,126,107,100,108,51,15,15,76,70,13,10,1.4,1.2
2022-01-03T13:00:00,1805A,115.9877,29.7295,九江市,西园,细颗粒物(PM2.5),176,149,126,133,105,111,40,31,14,111,72,18,10,1.5,1.2
2022-01-03T13:00:00,1806A,116.0172,29.6547,九江市,五七二七厂,细颗粒物(PM2.5),122,143,128,92,86,85,61,61,56,60,33,7,7,1.3,1.1
2022-01-03T13:00:00,1808A,115.9114,29.6038,九江市,综合工业园,细颗粒物(PM2.5),144,134,131,110,100,82,54,25,25,68,77,14,11,0.7,0.7
2022-01-03T13:00:00,1809A,116.0721,29.7535,九江市,石化总厂,细颗粒物(PM2.5),140,169,147,107,97,110,65,29,23,58,67,17,13,1.2,1.1
2022-01-03T13:00:00,1810A,115.9773,29.5698,九江市,庐山气象台(对照点),,,28,38,14,25,117,105,114,102,14,19,6,6,,0.1
2022-01-03T13:00:00,1812A,112.3931,34.6516,洛阳市,市委党校,细颗粒物(PM2.5),113,146,122,85,66,49,44,19,19,34,48,10,7,0.7,0.5
2022-01-03T13:00:00,1814A,112.4657,34.6871,洛阳市,豫西宾馆,细颗粒物(PM2.5),118,141,114,89,67,49,36,10,10,42,50,12,11,1.1,0.9
2022-01-03T13:00:00,1815A,112.494,34.6886,洛阳市,河南林校,细颗粒物(PM2.5),132,141,126,100,74,53,47,18,18,38,50,10,6,0.7,0.6
2022-01-03T13:00:00,1816A,112.3844,34.623,洛阳市,开发区管委会,细颗粒物(PM2.5),119,131,113,90,68,57,56,22,22,27,42,8,7,0.7,0.7
2022-01-03T13:00:00,1817A,112.4267,34.6258,洛阳市,市委新办公区,细颗粒物(PM2.5),124,140,127,94,75,52,52,21,21,29,46,11,7,1.0,1
2022-01-03T13:00:00,1818A,114.4839,36.0621,安阳市,棉研所(对照点),颗粒物(PM10),90,129,113,61,59,56,29,11,11,48,47,27,9,1.2,0.7
2022-01-03T13:00:00,1819A,114.3551,36.1017,安阳市,红庙街,细颗粒物(PM2.5),88,117,101,65,51,59,28,10,10,55,53,33,12,2.2,1.3
2022-01-03T13:00:00,1820A,114.361,36.0681,安阳市,银杏小区,细颗粒物(PM2.5),88,120,98,65,55,56,23,8,8,50,47,29,10,1.9,1
2022-01-03T13:00:00,1824A,114.3389,34.7781,开封市,肿瘤医院,细颗粒物(PM2.5),144,136,151,110,115,53,44,16,16,45,59,16,12,1.1,1.2
2022-01-03T13:00:00,1826A,114.2885,34.7965,开封市,世纪星幼儿园,细颗粒物(PM2.5),143,157,177,109,126,32,32,9,9,50,59,20,15,,1.5
2022-01-03T13:00:00,1828A,113.2269,35.2127,焦作市,市环保局,细颗粒物(PM2.5),178,159,120,134,77,57,54,26,23,43,42,27,19,1.7,1.1
2022-01-03T13:00:00,1829A,113.2467,35.176,焦作市,高新区政府,细颗粒物(PM2.5),144,151,123,110,72,61,49,21,21,40,43,24,14,1.7,1.2
2022-01-03T13:00:00,1830A,113.1987,35.2703,焦作市,影视城(对照点),细颗粒物(PM2.5),153,174,114,117,76,62,57,61,42,52,35,26,29,1.7,1
2022-01-03T13:00:00,1832A,113.3257,33.742,平顶山市,新华旅馆,细颗粒物(PM2.5),166,218,208,126,143,59,47,18,18,54,69,14,12,1.5,1.5
2022-01-03T13:00:00,1833A,113.2919,33.737,平顶山市,规划设计院,细颗粒物(PM2.5),196,239,236,147,147,48,45,18,18,50,67,17,12,1.3,1.3
2022-01-03T13:00:00,1834A,113.182,33.774,平顶山市,平顶山工学院,细颗粒物(PM2.5),212,190,196,162,150,81,81,28,28,30,57,13,14,1.4,1.4
2022-01-03T13:00:00,1835A,111.1922,34.7752,三门峡市,市政府,细颗粒物(PM2.5),165,151,105,125,87,66,33,29,14,57,48,50,15,,0.9
2022-01-03T13:00:00,1836A,111.1587,34.7942,三门峡市,开发区,细颗粒物(PM2.5),144,138,119,110,87,67,52,28,18,35,43,27,16,1.1,1
2022-01-03T13:00:00,1838A,111.143,34.7955,三门峡市,风景区(对照点),细颗粒物(PM2.5),132,118,106,100,82,68,55,32,17,35,42,30,15,1.3,1.2
2022-01-03T13:00:00,1840A,111.2992,30.6981,宜昌市,白龙岗,细颗粒物(PM2.5),175,156,141,132,123,71,68,21,21,34,36,3,3,0.9,1
2022-01-03T13:00:00,1841A,111.3549,30.6465,宜昌市,伍家岗,细颗粒物(PM2.5),168,130,135,127,135,73,44,15,15,46,42,8,6,0.5,0.7
2022-01-03T13:00:00,1842A,111.2628,30.6961,宜昌市,点军区,细颗粒物(PM2.5),149,142,140,114,136,78,41,13,13,49,35,8,7,0.9,1
2022-01-03T13:00:00,1843A,111.3275,30.7819,宜昌市,夷陵区,细颗粒物(PM2.5),132,112,128,100,122,87,64,22,22,31,40,7,6,0.7,0.9
2022-01-03T13:00:00,1844A,112.2494,30.3197,荆州市,市图书馆,细颗粒物(PM2.5),234,206,161,184,127,94,94,34,34,47,68,16,12,1.2,1.4
2022-01-03T13:00:00,1845A,112.2008,30.3544,荆州市,市委党校,细颗粒物(PM2.5),217,199,175,167,137,102,102,40,40,44,70,23,15,1.2,1.4
2022-01-03T13:00:00,1847A,113.1094,29.3578,岳阳市,南湖风景区,细颗粒物(PM2.5),95,108,131,71,96,143,110,66,66,42,53,13,15,1.2,1.2
2022-01-03T13:00:00,1848A,113.1493,29.4251,岳阳市,城陵矶,细颗粒物(PM2.5),117,134,145,88,98,136,95,50,50,61,59,11,9,0.9,0.8
2022-01-03T13:00:00,1849A,113.1497,29.3575,岳阳市,开发区,细颗粒物(PM2.5),95,101,114,71,80,140,125,64,64,28,52,10,11,0.9,1.1
2022-01-03T13:00:00,1850A,113.2621,29.4758,岳阳市,云溪区,细颗粒物(PM2.5),158,175,144,120,113,131,123,45,45,34,48,20,11,1.1,1.4
2022-01-03T13:00:00,1851A,112.9943,29.4402,岳阳市,君山区,细颗粒物(PM2.5),137,108,135,104,113,148,118,62,29,30,55,,9,0.8,1
2022-01-03T13:00:00,1852A,113.2117,29.355,岳阳市,金凤水库(对照点),细颗粒物(PM2.5),83,82,123,61,87,153,139,82,82,18,48,8,10,0.6,0.7
2022-01-03T13:00:00,1854A,111.6975,28.9703,常德市,市二中,细颗粒物(PM2.5),205,132,106,155,125,113,79,23,22,26,33,14,10,1.3,1.4
2022-01-03T13:00:00,1857A,111.7158,29.1456,常德市,白鹤山(对照点),细颗粒物(PM2.5),183,160,113,138,93,118,84,112,72,37,22,14,9,1.1,0.9
2022-01-03T13:00:00,1858A,110.5319,29.1217,张家界市,永定新区,细颗粒物(PM2.5),245,252,184,195,144,42,5,7,4,65,42,4,4,1.9,1.6
2022-01-03T13:00:00,1859A,110.4697,29.1242,张家界市,电业局,细颗粒物(PM2.5),150,140,128,115,95,35,12,18,15,40,36,24,6,1.6,1.6
2022-01-03T13:00:00,1860A,110.5594,29.3547,张家界市,未央路,细颗粒物(PM2.5),69,70,52,50,47,47,16,10,6,24,17,2,2,1.1,1
2022-01-03T13:00:00,1861A,110.4417,29.315,张家界市,袁家界(对照点),,40,38,42,28,34,92,64,64,63,14,13,6,5,0.5,0.6
2022-01-03T13:00:00,1862A,110.4144,25.3167,桂林市,电子科大尧山校区(对照点),细颗粒物(PM2.5),72,60,49,52,39,79,65,52,48,11,11,12,7,0.5,0.5
2022-01-03T13:00:00,1863A,110.2819,25.2697,桂林市,监测站,细颗粒物(PM2.5),92,99,72,68,56,81,40,50,46,28,26,10,7,0.9,0.8
2022-01-03T13:00:00,1864A,110.3089,25.2708,桂林市,龙隐路小学,细颗粒物(PM2.5),87,86,66,64,53,96,46,57,50,39,27,11,9,0.9,0.7
2022-01-03T13:00:00,1865A,110.2869,25.2178,桂林市,八中,细颗粒物(PM2.5),119,,29,90,69,94,46,48,42,45,34,12,9,1.0,1
2022-01-03T13:00:00,1866A,109.2262,21.588,北海市,牛尾岭水库(对照点),细颗粒物(PM2.5),77,78,76,56,75,127,127,44,44,14,18,10,5,0.8,1.1
2022-01-03T13:00:00,1867A,109.1436,21.4086,北海市,海滩公园,细颗粒物(PM2.5),80,69,86,59,65,166,166,83,83,17,21,13,12,1.1,1.1
2022-01-03T13:00:00,1868A,109.0981,21.4661,北海市,新市环保局,细颗粒物(PM2.5),92,85,78,68,61,102,102,41,41,21,22,14,9,1.0,1
2022-01-03T13:00:00,1869A,109.1778,21.5233,北海市,北海工业园,细颗粒物(PM2.5),89,94,95,66,74,124,124,51,51,19,23,15,13,1.0,1.1
2022-01-03T13:00:00,1870A,109.4856,24.3895,柳州市,柳东小学,细颗粒物(PM2.5),69,52,55,50,51,91,59,48,43,23,19,10,11,0.4,0.4
2022-01-03T13:00:00,1871A,109.4157,24.3277,柳州市,环保监测站,细颗粒物(PM2.5),97,70,79,72,70,87,45,20,20,33,48,15,14,1.0,1.3
2022-01-03T13:00:00,1872A,109.389,24.341,柳州市,河西水厂,细颗粒物(PM2.5),68,65,83,49,61,66,46,16,16,19,37,20,24,0.6,1.1
2022-01-03T13:00:00,1873A,109.4311,24.2921,柳州市,市四中,细颗粒物(PM2.5),82,73,89,60,49,80,45,19,19,29,43,11,9,0.8,1.1
2022-01-03T13:00:00,1874A,109.4006,24.3631,柳州市,市九中,,,63,101,,69,70,56,18,18,18,45,18,21,0.9,1.4
2022-01-03T13:00:00,1875A,109.4958,24.3134,柳州市,古亭山,细颗粒物(PM2.5),69,60,51,50,37,86,46,16,16,26,31,9,7,0.7,0.7
2022-01-03T13:00:00,1876A,109.5078,18.2489,三亚市,河东子站,,34,34,30,12,19,115,99,115,96,6,7,6,5,0.5,0.5
2022-01-03T13:00:00,1877A,109.4964,18.2681,三亚市,河西子站,,31,31,28,10,19,109,98,109,89,6,7,3,3,0.4,0.5
2022-01-03T13:00:00,1878A,104.7778,31.4741,绵阳市,富乐山,细颗粒物(PM2.5),128,119,98,97,84,72,10,30,8,49,32,5,5,1.0,0.8
2022-01-03T13:00:00,1879A,104.7563,31.4535,绵阳市,市人大,细颗粒物(PM2.5),119,123,104,90,86,60,14,15,12,56,49,5,4,1.3,1.1
2022-01-03T13:00:00,1880A,104.6697,31.4668,绵阳市,高新区自来水公司,细颗粒物(PM2.5),124,92,117,94,101,58,44,20,20,30,40,3,4,0.7,0.8
2022-01-03T13:00:00,1881A,104.7287,31.5075,绵阳市,三水厂,细颗粒物(PM2.5),129,129,121,98,94,63,10,4,4,47,41,8,7,0.8,0.7
2022-01-03T13:00:00,1882A,104.563,28.793,宜宾市,石马中学(对照点),细颗粒物(PM2.5),142,127,105,108,88,95,51,15,15,24,34,16,12,0.9,0.8
2022-01-03T13:00:00,1883A,104.6201,28.7728,宜宾市,市委,细颗粒物(PM2.5),144,129,106,110,90,97,48,17,17,36,38,14,12,0.9,0.9
2022-01-03T13:00:00,1884A,104.6055,28.793,宜宾市,宜宾四中,细颗粒物(PM2.5),143,126,102,109,87,93,47,18,18,36,41,14,13,0.9,0.8
2022-01-03T13:00:00,1885A,104.639,28.7562,宜宾市,市政府,细颗粒物(PM2.5),143,132,102,109,89,92,47,9,9,38,50,11,9,0.9,0.9
2022-01-03T13:00:00,1886A,104.5742,28.7199,宜宾市,黄金嘴,细颗粒物(PM2.5),128,118,96,97,80,94,49,11,11,31,38,9,8,0.8,0.8
2022-01-03T13:00:00,1888A,101.6891,26.571,攀枝花市,弄弄坪,细颗粒物(PM2.5),108,97,74,81,54,93,35,11,11,72,48,62,29,5.0,3.4
2022-01-03T13:00:00,1889A,101.5769,26.5928,攀枝花市,河门口,,47,47,55,29,36,107,65,29,29,32,33,14,15,1.1,1.2
2022-01-03T13:00:00,1890A,101.7169,26.585,攀枝花市,炳草岗,细颗粒物(PM2.5),93,63,70,69,52,99,41,10,10,60,57,55,21,3.2,2.4
2022-01-03T13:00:00,1891A,101.7369,26.5008,攀枝花市,仁和,细颗粒物(PM2.5),83,88,54,61,42,100,47,34,18,65,30,89,19,4.9,1.8
2022-01-03T13:00:00,1893A,105.4324,28.9634,泸州市,九狮山(对照点),细颗粒物(PM2.5),153,83,92,117,96,79,36,14,14,36,30,14,10,0.6,0.7
2022-01-03T13:00:00,1894A,105.4427,28.9063,泸州市,小市上码头,细颗粒物(PM2.5),147,130,108,112,92,73,18,9,9,48,44,13,14,1.4,1.1
2022-01-03T13:00:00,1895A,105.4241,28.8573,泸州市,兰田宪桥,细颗粒物(PM2.5),130,121,95,99,86,66,24,8,8,37,42,14,12,1.0,0.9
2022-01-03T13:00:00,1896A,105.4379,28.8833,泸州市,市环监站,细颗粒物(PM2.5),143,118,110,109,92,70,22,11,11,41,43,10,8,0.9,0.9
2022-01-03T13:00:00,1901A,104.4239,31.1208,德阳市,东山公园,细颗粒物(PM2.5),115,108,113,87,98,77,49,29,29,29,39,4,4,0.8,0.9
2022-01-03T13:00:00,1902A,104.3826,31.1317,德阳市,西小区,细颗粒物(PM2.5),120,121,117,91,99,51,33,23,23,43,41,5,5,,0.9
2022-01-03T13:00:00,1904A,104.3553,31.1091,德阳市,耐火材料厂,细颗粒物(PM2.5),143,124,128,109,109,67,38,21,21,44,47,4,3,1.0,0.8
2022-01-03T13:00:00,1905A,106.056,30.8064,南充市,西山风景区(对照点),细颗粒物(PM2.5),87,74,69,64,56,64,25,43,25,12,11,4,4,0.9,0.8
2022-01-03T13:00:00,1906A,106.0789,30.8023,南充市,南充市委,细颗粒物(PM2.5),102,83,85,76,73,70,22,19,19,18,29,4,6,0.9,0.9
2022-01-03T13:00:00,1907A,106.1031,30.8217,南充市,南充炼油厂,细颗粒物(PM2.5),97,96,84,72,64,74,21,20,20,10,28,1,2,0.7,0.8
2022-01-03T13:00:00,1908A,106.1064,30.7856,南充市,高坪区监测站,细颗粒物(PM2.5),104,87,96,78,74,69,23,18,18,21,38,2,3,0.9,1
2022-01-03T13:00:00,1909A,106.0642,30.7636,南充市,嘉陵区环保局,细颗粒物(PM2.5),67,69,76,48,61,56,31,30,30,15,25,3,2,0.8,1
2022-01-03T13:00:00,1910A,106.1087,30.8388,南充市,市环境监测站,细颗粒物(PM2.5),94,82,72,70,62,61,12,22,12,22,18,2,3,0.5,0.5
2022-01-03T13:00:00,1911A,106.9222,27.6869,遵义市,丁字口,,,,62,,52,52,19,46,24,,27,8,19,0.8,0.8
2022-01-03T13:00:00,1912A,106.9242,27.7019,遵义市,凤凰山,,30,26,54,21,34,56,21,49,22,24,22,6,12,0.9,0.9
2022-01-03T13:00:00,1913A,106.8906,27.6486,遵义市,忠庄,,48,42,65,33,48,52,16,46,17,35,24,16,14,1.0,0.9
2022-01-03T13:00:00,1914A,106.9231,27.6506,遵义市,舟水桥,,49,39,63,34,46,53,27,50,31,23,17,9,24,0.6,0.7
2022-01-03T13:00:00,1915A,106.9178,27.72,遵义市,干田坝,,36,22,58,25,42,62,30,38,29,16,19,7,11,0.8,0.9
2022-01-03T13:00:00,1916A,103.7897,25.5035,曲靖市,环境监测站,,27,4,22,2,12,98,84,55,55,9,17,6,6,0.3,0.5
2022-01-03T13:00:00,1917A,103.8,25.5364,曲靖市,烟厂办公区,,25,13,12,4,10,93,80,53,53,7,11,5,5,0.3,0.4
2022-01-03T13:00:00,1918A,108.7197,34.3956,咸阳市,气象站(对照点),细颗粒物(PM2.5),193,183,144,145,126,77,54,29,18,48,46,19,13,1.9,1.9
2022-01-03T13:00:00,1919A,108.673,34.3155,咸阳市,实验中学,细颗粒物(PM2.5),198,199,159,148,155,79,53,16,16,40,49,15,14,1.5,1.7
2022-01-03T13:00:00,1920A,108.7233,34.3617,咸阳市,师范学院,细颗粒物(PM2.5),193,156,137,145,125,77,53,20,20,42,45,19,14,1.8,1.8
2022-01-03T13:00:00,1922A,109.0656,35.0994,铜川市,党校(对照点),细颗粒物(PM2.5),67,63,81,48,59,90,78,27,27,36,58,15,12,0.7,0.8
2022-01-03T13:00:00,1923A,109.0697,35.0697,铜川市,王益区政府,颗粒物(PM10),75,99,91,52,62,92,80,25,25,24,44,15,11,0.9,1.1
2022-01-03T13:00:00,1924A,108.9344,34.9058,铜川市,新区管委会,细颗粒物(PM2.5),122,125,82,92,61,85,63,47,41,,31,22,17,1.1,0.9
2022-01-03T13:00:00,1926A,109.4131,36.6275,延安市,枣园(对照点),颗粒物(PM10),54,57,54,22,41,97,74,26,26,16,35,8,5,0.8,1.1
2022-01-03T13:00:00,1927A,109.4761,36.6028,延安市,延大医附院,颗粒物(PM10),53,56,57,27,42,68,68,21,21,15,38,10,7,1.1,1.4
2022-01-03T13:00:00,1929A,109.5056,36.6106,延安市,百米大道,颗粒物(PM10),64,78,63,28,48,72,71,23,23,23,43,11,7,0.7,1.2
2022-01-03T13:00:00,1930A,107.185,34.3063,宝鸡市,庙沟村(对照点),细颗粒物(PM2.5),89,77,80,66,62,82,64,49,49,17,26,6,8,0.8,0.8
2022-01-03T13:00:00,1931A,107.0708,34.3017,宝鸡市,竹园沟,细颗粒物(PM2.5),90,75,80,67,69,85,61,35,27,22,23,5,4,0.9,1
2022-01-03T13:00:00,1932A,107.1906,34.3672,宝鸡市,三陆医院,细颗粒物(PM2.5),104,123,113,78,88,86,39,28,25,44,40,8,10,1.2,1.3
2022-01-03T13:00:00,1933A,107.1431,34.3547,宝鸡市,监测站,细颗粒物(PM2.5),100,74,92,75,80,83,58,23,23,33,41,6,6,1.0,1.1
2022-01-03T13:00:00,1934A,107.1186,34.3739,宝鸡市,技工学校,细颗粒物(PM2.5),93,91,103,69,70,80,51,26,22,31,35,8,8,0.9,0.9
2022-01-03T13:00:00,1935A,107.3906,34.3528,宝鸡市,陈仓区环保局家属楼,细颗粒物(PM2.5),134,140,142,102,113,78,41,16,16,40,48,17,29,1.6,2.2
2022-01-03T13:00:00,1936A,107.2058,34.3497,宝鸡市,文理学院,细颗粒物(PM2.5),114,95,100,86,79,88,41,23,21,39,39,9,9,1.1,0.9
2022-01-03T13:00:00,1937A,107.2386,34.3622,宝鸡市,三迪小学,细颗粒物(PM2.5),119,103,104,90,80,82,39,21,19,40,44,7,8,1.1,1
2022-01-03T13:00:00,1938A,109.5293,34.5101,渭南市,农科所(对照点),细颗粒物(PM2.5),199,217,209,149,121,72,31,36,12,51,47,13,12,1.8,1.6
2022-01-03T13:00:00,1939A,109.4974,34.4877,渭南市,日报社,细颗粒物(PM2.5),223,234,195,173,116,70,27,14,14,68,60,20,16,2.4,1.7
2022-01-03T13:00:00,1940A,109.4636,34.493,渭南市,体育馆,细颗粒物(PM2.5),211,208,194,161,120,79,33,16,14,63,60,32,14,1.9,1.6
2022-01-03T13:00:00,1941A,109.4259,34.5023,渭南市,高新一小,细颗粒物(PM2.5),206,217,196,156,143,69,41,15,15,42,61,17,15,1.6,1.7
2022-01-03T13:00:00,1943A,102.1725,38.5339,金昌市,新川苑,颗粒物(PM10),76,102,68,53,36,74,74,38,38,25,28,164,24,1.2,0.9
2022-01-03T13:00:00,1944A,102.1692,38.5167,金昌市,天庆家园,颗粒物(PM10),80,110,93,41,40,69,67,34,34,33,33,288,43,1.2,1
2022-01-03T13:00:00,1945A,98.2908,39.7711,嘉峪关市,气象局,颗粒物(PM10),56,61,70,29,34,87,50,27,27,54,47,108,28,2.5,1.1
2022-01-03T13:00:00,1947A,106.3394,38.817,石嘴山市,沙湖旅游区(对照点),颗粒物(PM10),74,97,139,49,59,50,50,19,19,16,37,19,34,1.0,2.2
2022-01-03T13:00:00,1948A,106.3668,39.0145,石嘴山市,大武口朝阳西街,细颗粒物(PM2.5),198,184,134,148,69,40,31,10,10,58,64,99,51,3.4,2.6
2022-01-03T13:00:00,1949A,106.7704,39.2282,石嘴山市,惠农南大街,细颗粒物(PM2.5),94,123,138,70,50,40,35,26,26,36,35,92,64,2.3,2.8
2022-01-03T13:00:00,1950A,106.7099,39.1325,石嘴山市,红果子镇惠新街,颗粒物(PM10),98,146,148,71,61,52,47,15,15,34,52,80,86,1.9,2.4
2022-01-03T13:00:00,1951A,84.895,45.6094,克拉玛依市,长征新村,颗粒物(PM10),112,173,233,79,90,40,18,19,19,40,42,10,8,1.2,1.1
2022-01-03T13:00:00,1952A,84.8988,45.5893,克拉玛依市,南林小区,颗粒物(PM10),141,231,258,104,107,37,11,6,6,48,46,13,11,1.6,1.3
2022-01-03T13:00:00,1954A,84.905,44.3396,克拉玛依市,独山子区,颗粒物(PM10),191,331,200,,100,70,26,33,27,63,60,5,5,1.3,1.2
2022-01-03T13:00:00,1955A,85.6979,46.098,克拉玛依市,乌尔禾区商贸楼,颗粒物(PM10),127,203,229,84,98,35,22,14,7,37,44,8,8,1.1,1.4
2022-01-03T13:00:00,1956A,86.1472,41.7538,巴音郭楞州,孔雀公园,颗粒物(PM10),116,181,162,71,68,57,41,48,32,41,42,3,3,0.4,0.4
2022-01-03T13:00:00,1957A,86.1972,41.7166,巴音郭楞州,棉纺厂,颗粒物(PM10),121,191,135,81,59,79,44,40,40,64,49,5,4,,0.8
2022-01-03T13:00:00,1958A,86.2357,41.7173,巴音郭楞州,经济开发区,颗粒物(PM10),98,145,137,58,52,68,54,66,37,35,28,2,2,0.3,0.3
2022-01-03T13:00:00,1961A,117.532,36.6868,济南市,东山小学,细颗粒物(PM2.5),123,147,111,93,49,65,46,47,47,55,50,30,24,1.2,1
2022-01-03T13:00:00,1966A,120.0405,35.8735,青岛市,黄岛区4号,颗粒物(PM10),65,80,63,44,26,77,77,43,43,28,42,16,11,1.3,0.9
2022-01-03T13:00:00,1982A,122.0693,37.2174,威海市,文登开发区,,41,41,34,19,22,80,80,40,40,27,26,4,4,0.6,0.7
2022-01-03T13:00:00,2031A,113.1817,27.9958,株洲市,云田中学,细颗粒物(PM2.5),118,100,99,89,82,121,86,89,89,38,37,13,10,0.6,0.7
2022-01-03T13:00:00,2054A,114.1099,32.1059,信阳市,平桥分局,细颗粒物(PM2.5),122,136,131,92,96,106,106,39,39,52,56,16,10,1.0,1
2022-01-03T13:00:00,2064A,113.9956,32.1271,信阳市,南湾水厂,细颗粒物(PM2.5),179,106,129,135,119,100,92,59,50,50,38,14,11,1.0,0.8
2022-01-03T13:00:00,2065A,114.0775,32.1195,信阳市,市酿酒公司,细颗粒物(PM2.5),142,148,135,108,119,99,89,32,32,52,59,16,12,,1
2022-01-03T13:00:00,2066A,114.0609,32.1399,信阳市,审计局,细颗粒物(PM2.5),208,162,157,158,141,101,66,18,18,63,61,13,11,1.0,1.1
2022-01-03T13:00:00,2067A,114.6613,33.6128,周口市,市环境监测站,细颗粒物(PM2.5),243,247,181,193,149,79,60,27,25,39,45,15,14,1.5,1.4
2022-01-03T13:00:00,2068A,114.6758,33.6347,周口市,周口师范,细颗粒物(PM2.5),240,244,178,190,145,84,52,35,21,54,48,16,16,1.1,1.1
2022-01-03T13:00:00,2069A,114.6546,33.5979,周口市,市运管处,细颗粒物(PM2.5),245,242,188,195,145,82,59,31,27,48,57,16,19,1.4,1.3
2022-01-03T13:00:00,2070A,114.6369,33.6406,周口市,川汇区环保局,细颗粒物(PM2.5),243,208,168,193,147,82,57,31,21,47,50,18,16,1.0,1
2022-01-03T13:00:00,2075A,117.6336,24.4674,漳州市,九湖(对照点),细颗粒物(PM2.5),62,67,62,44,37,128,106,50,44,24,30,9,7,0.7,0.6
2022-01-03T13:00:00,2160A,112.85,35.5051,晋城市,自来水公司,细颗粒物(PM2.5),98,108,105,73,67,92,85,27,27,38,53,33,19,2.7,1.3
2022-01-03T13:00:00,2161A,112.8318,35.4936,晋城市,白云商贸,细颗粒物(PM2.5),138,122,130,105,70,76,69,22,22,38,51,28,19,2.3,1.5
2022-01-03T13:00:00,2162A,112.8508,35.4887,晋城市,市环保局,细颗粒物(PM2.5),113,117,129,85,75,90,89,31,31,29,50,31,22,2.1,1.3
2022-01-03T13:00:00,2163A,112.8676,35.4897,晋城市,技术学院,,,,110,,60,81,77,25,25,26,50,21,16,2.0,1.2
2022-01-03T13:00:00,2165A,112.8453,35.546,晋城市,白马寺 (对照点),细颗粒物(PM2.5),107,139,133,80,72,85,70,60,43,41,37,41,24,3.2,1.7
2022-01-03T13:00:00,2166A,112.4397,39.3522,朔州市,平朔,细颗粒物(PM2.5),87,78,129,64,62,54,54,18,18,31,52,22,29,1.0,1
2022-01-03T13:00:00,2167A,112.4575,39.3617,朔州市,朔唯,细颗粒物(PM2.5),73,80,160,53,58,52,52,14,14,32,57,24,37,1.1,0.9
2022-01-03T13:00:00,2168A,112.4258,39.3197,朔州市,区政府,颗粒物(PM10),70,89,122,46,55,46,45,21,21,33,49,28,32,1.0,1.1
2022-01-03T13:00:00,2169A,112.4072,39.3278,朔州市,市环保局,颗粒物(PM10),63,76,125,41,54,46,46,21,21,36,50,26,32,1.0,1.1
2022-01-03T13:00:00,2170A,112.4272,39.3681,朔州市,市二中,颗粒物(PM10),69,88,135,44,52,53,53,21,21,29,50,12,22,0.9,0.8
2022-01-03T13:00:00,2171A,112.7532,37.6945,晋中市,锦纶小区,细颗粒物(PM2.5),137,128,103,104,76,46,46,15,15,50,55,109,38,1.9,1.3
2022-01-03T13:00:00,2173A,112.7249,37.7067,晋中市,南都小区,细颗粒物(PM2.5),148,117,102,113,80,48,43,15,15,52,52,108,33,2.0,1.4
2022-01-03T13:00:00,2174A,112.6991,37.6982,晋中市,榆次区政府,细颗粒物(PM2.5),144,140,103,110,76,46,38,12,12,65,58,109,30,2.3,1.2
2022-01-03T13:00:00,2175A,110.9956,35.0147,运城市,运城中学,细颗粒物(PM2.5),180,183,130,136,96,84,54,37,24,36,32,74,31,1.4,1.1
2022-01-03T13:00:00,2178A,110.9686,35.0303,运城市,地区技校,细颗粒物(PM2.5),152,183,131,116,91,86,63,33,21,30,35,26,15,1.2,1.1
2022-01-03T13:00:00,2179A,111.0414,35.1147,运城市,空港新区,颗粒物(PM10),133,215,141,,98,86,49,18,18,50,50,28,18,1.4,1.2
2022-01-03T13:00:00,2181A,112.7383,38.4519,忻州市,开发区,,,,94,,52,38,16,6,6,49,43,33,19,,0.9
2022-01-03T13:00:00,2182A,112.7003,38.4928,忻州市,会展中心,细颗粒物(PM2.5),113,144,109,85,62,39,17,6,6,46,42,16,13,1.0,0.9
2022-01-03T13:00:00,2183A,111.1406,37.5211,吕梁市,环保局,颗粒物(PM10),94,137,132,57,46,26,15,6,6,64,62,40,28,1.4,1
2022-01-03T13:00:00,2185A,111.1297,37.5136,吕梁市,自来水公司,颗粒物(PM10),95,139,157,52,50,26,16,9,9,59,55,32,26,1.3,1.1
2022-01-03T13:00:00,2187A,106.8174,39.6973,乌海市,市林业局,细颗粒物(PM2.5),75,83,88,55,44,52,52,32,21,25,42,21,30,0.7,1.1
2022-01-03T13:00:00,2188A,106.7907,39.6667,乌海市,中海勃湾学校,颗粒物(PM10),52,53,104,32,48,68,68,18,18,17,51,11,24,0.5,1.5
2022-01-03T13:00:00,2191A,122.2532,43.6801,通辽市,艺术职业学校,,28,26,75,19,66,61,61,29,29,10,41,9,13,0.3,0.7
2022-01-03T13:00:00,2192A,119.7594,49.2261,呼伦贝尔市,区环保局,,19,19,27,7,19,56,52,36,32,5,18,6,5,0.2,0.4
2022-01-03T13:00:00,2195A,107.4212,40.761,巴彦淖尔市,附二中,颗粒物(PM10),94,137,100,59,46,53,38,34,14,22,33,36,23,0.9,1
2022-01-03T13:00:00,2196A,107.37,40.7372,巴彦淖尔市,市环保大楼,颗粒物(PM10),78,106,71,56,39,52,40,37,24,26,33,43,17,0.8,0.8
2022-01-03T13:00:00,2197A,113.1306,40.9923,乌兰察布市,集宁新区,,35,32,47,24,27,68,65,60,40,22,33,16,17,0.5,0.6
2022-01-03T13:00:00,2200A,122.0392,46.0656,兴安盟,胜华新制药厂,,19,17,26,12,19,60,60,47,47,5,11,2,4,0.2,0.3
2022-01-03T13:00:00,2201A,121.9504,46.0741,兴安盟,科右前旗环保局,,20,10,25,6,16,61,61,49,49,4,10,5,6,0.4,0.5
2022-01-03T13:00:00,2202A,116.1042,43.9317,锡林郭勒盟,市环保监测站,,19,11,19,9,7,65,60,51,46,6,17,10,9,0.5,0.4
2022-01-03T13:00:00,2203A,116.0781,43.9311,锡林郭勒盟,市政府,,20,15,15,2,5,67,62,52,52,8,14,12,8,0.6,0.6
2022-01-03T13:00:00,2204A,105.6467,38.8363,阿拉善盟,西城区西花园(对照点),细颗粒物(PM2.5),52,40,64,36,32,78,78,60,60,11,28,8,8,0.5,0.8
2022-01-03T13:00:00,2205A,105.6985,38.8411,阿拉善盟,蒙二幼,颗粒物(PM10),55,60,61,26,40,87,82,63,56,14,26,13,13,0.3,0.7
2022-01-03T13:00:00,2206A,105.724,38.8516,阿拉善盟,环保局新楼,细颗粒物(PM2.5),58,44,43,41,29,89,82,86,76,17,16,8,9,0.4,0.4
2022-01-03T13:00:00,2207A,121.6094,41.998,阜新市,工业园区,,50,50,84,17,49,102,70,43,43,11,36,10,27,0.3,0.8
2022-01-03T13:00:00,2208A,121.6697,42.0279,阜新市,长青街,,31,31,80,9,49,69,68,27,27,9,37,12,26,0.3,0.8
2022-01-03T13:00:00,2209A,121.6673,42.0705,阜新市,农业园区,,29,29,58,14,38,72,71,44,44,4,24,9,32,0.2,0.7
2022-01-03T13:00:00,2210A,121.6717,42.0224,阜新市,东苑,颗粒物(PM10),59,68,85,12,52,66,66,25,25,10,34,48,38,0.4,0.9
2022-01-03T13:00:00,2211A,121.6506,42.0498,阜新市,玉龙新城,,31,31,72,7,46,70,68,25,25,6,33,9,20,0.6,1.1
2022-01-03T13:00:00,2212A,123.2,41.1953,辽阳市,宏伟区,颗粒物(PM10),61,71,50,43,26,48,40,46,27,26,29,18,18,1.0,1.2
2022-01-03T13:00:00,2213A,123.1683,41.2495,辽阳市,新华园,颗粒物(PM10),64,78,59,36,36,50,49,43,26,24,38,24,30,0.9,1.4
2022-01-03T13:00:00,2214A,123.2354,41.2639,辽阳市,滨河路,颗粒物(PM10),61,71,51,43,32,54,49,45,37,21,27,22,20,0.8,1
2022-01-03T13:00:00,2215A,123.149,41.2991,辽阳市,铁西工业园,颗粒物(PM10),58,65,78,24,34,55,52,45,25,13,33,17,25,0.7,1.3
2022-01-03T13:00:00,2216A,123.8139,42.3022,铁岭市,汇工街西,颗粒物(PM10),75,99,58,47,38,59,51,35,29,28,36,22,18,0.6,0.7
2022-01-03T13:00:00,2217A,123.8649,42.2923,铁岭市,水上乐园,,,110,70,60,38,67,54,40,38,37,36,24,14,,0.1
2022-01-03T13:00:00,2218A,123.8486,42.2867,铁岭市,银州路东段,细颗粒物(PM2.5),79,98,64,58,34,58,47,35,31,33,33,25,14,1.0,0.8
2022-01-03T13:00:00,2219A,123.7153,42.2217,铁岭市,金沙江路北,细颗粒物(PM2.5),83,88,57,61,38,60,44,30,26,34,39,15,10,1.5,1.2
2022-01-03T13:00:00,2220A,120.4318,41.5881,朝阳市,西梁,颗粒物(PM10),54,58,82,22,50,69,52,29,26,21,37,16,22,0.8,1.3
2022-01-03T13:00:00,2221A,120.4521,41.5646,朝阳市,河畔小区,,,,53,,36,68,57,42,36,21,29,16,15,,1
2022-01-03T13:00:00,2222A,120.4176,41.5648,朝阳市,八里堡,,39,39,62,17,40,68,54,29,25,25,38,22,23,0.8,1.2
2022-01-03T13:00:00,2223A,120.3806,41.5969,朝阳市,农业园区,,,73,59,27,37,79,66,47,33,,32,18,16,0.8,1
2022-01-03T13:00:00,2225A,124.4002,43.1713,四平市,一商场,"颗粒物(PM10),细颗粒物(PM2.5)",78,106,70,57,27,68,65,41,33,16,36,10,14,0.4,0.8
2022-01-03T13:00:00,2226A,124.388,43.193,四平市,境园,细颗粒物(PM2.5),64,70,62,46,39,77,72,36,36,12,31,19,16,0.4,1.3
2022-01-03T13:00:00,2227A,125.1358,42.8845,辽源市,环保局,细颗粒物(PM2.5),65,58,47,47,38,65,64,31,31,11,28,12,13,1.1,1.3
2022-01-03T13:00:00,2229A,125.9358,41.7173,通化市,光明,细颗粒物(PM2.5),155,161,56,118,41,66,59,20,20,14,30,24,25,0.9,1.1
2022-01-03T13:00:00,2230A,125.9446,41.7325,通化市,铁路,细颗粒物(PM2.5),204,210,65,154,40,60,49,21,21,17,35,30,26,1.7,1.5
2022-01-03T13:00:00,2231A,126.4219,41.9171,白山市,喜丰,颗粒物(PM10),66,81,78,37,33,65,49,27,27,26,38,39,28,1.1,0.9
2022-01-03T13:00:00,2232A,126.4077,41.9419,白山市,环保局,颗粒物(PM10),64,78,91,44,32,56,37,20,20,35,40,70,27,1.3,1.3
2022-01-03T13:00:00,2233A,124.8006,45.1214,松原市,江南,,44,44,48,20,22,58,52,36,36,11,20,7,8,0.3,0.3
2022-01-03T13:00:00,2234A,124.7965,45.1722,松原市,江北,,33,31,29,23,15,72,66,57,57,3,9,1,2,0.2,0.2
2022-01-03T13:00:00,2235A,122.7911,45.6077,白城市,洮北区环保局,,46,46,30,5,7,65,65,52,52,5,7,10,8,0.1,0.2
2022-01-03T13:00:00,2236A,122.8738,45.5725,白城市,市环保局,,38,38,32,15,20,57,57,41,37,10,16,9,11,0.4,0.4
2022-01-03T13:00:00,2237A,129.47,42.8883,延边朝鲜族自治州,妇幼医院,,45,45,45,9,26,66,64,54,42,15,13,22,20,0.6,0.7
2022-01-03T13:00:00,2238A,129.5055,42.9108,延边朝鲜族自治州,延边医院,,41,41,40,13,24,74,72,41,38,7,22,9,13,0.7,0.7
2022-01-03T13:00:00,2239A,129.3964,42.8881,延边朝鲜族自治州,朝阳川镇医院,,34,34,33,8,19,75,75,62,47,6,11,6,6,0.6,0.6
2022-01-03T13:00:00,2240A,130.9762,45.3001,鸡西市,环保局,,23,23,22,14,16,60,55,56,48,14,18,1,2,0.3,0.3
2022-01-03T13:00:00,2243A,130.9429,45.3039,鸡西市,第一中学,,19,14,22,6,14,61,59,58,53,13,15,5,6,0.2,0.2
2022-01-03T13:00:00,2244A,130.2537,47.3416,鹤岗市,哈啤分公司,,,34,27,25,20,71,56,60,49,5,9,8,6,,0.4
2022-01-03T13:00:00,2245A,130.2684,47.3086,鹤岗市,斯达机电,,31,31,37,14,21,68,52,55,45,6,11,8,10,0.3,0.5
2022-01-03T13:00:00,2246A,130.3114,47.3388,鹤岗市,东山纸板厂,,18,18,53,9,29,66,52,29,29,8,28,8,9,0.4,0.9
2022-01-03T13:00:00,2248A,131.1511,46.6937,双鸭山市,双合村,,23,13,26,16,20,61,58,61,49,4,8,6,8,0.6,0.7
2022-01-03T13:00:00,2249A,131.1652,46.6191,双鸭山市,南小市,,34,34,38,13,25,59,52,54,44,5,10,10,11,0.4,0.5
2022-01-03T13:00:00,2250A,131.1524,46.6554,双鸭山市,环保局,,30,28,47,21,36,62,52,57,39,5,16,3,5,0.4,0.4
2022-01-03T13:00:00,2251A,131.12,46.5656,双鸭山市,苗圃(对照点),,36,16,40,25,40,61,59,59,51,7,10,5,5,0.5,0.6
2022-01-03T13:00:00,2252A,128.5159,47.4311,伊春市,环保局,,29,29,31,14,24,53,46,46,41,5,10,9,8,0.2,0.4
2022-01-03T13:00:00,2253A,128.9102,47.7412,伊春市,电力嘉园,,15,14,33,10,22,53,45,47,25,6,16,6,8,0.2,0.3
2022-01-03T13:00:00,2254A,129.5029,48.471,伊春市,汤旺河国家公园(对照点),,23,10,10,16,10,63,52,60,45,2,3,8,7,0.4,0.4
2022-01-03T13:00:00,2255A,130.2751,46.8028,佳木斯市,佳纺,,42,33,37,29,31,61,58,48,46,6,14,7,11,0.3,0.5
2022-01-03T13:00:00,2256A,130.3995,46.8307,佳木斯市,发电厂,,,22,24,19,22,62,57,46,42,,15,10,13,0.3,0.6
2022-01-03T13:00:00,2257A,130.3258,46.7975,佳木斯市,环保局,,35,31,32,24,25,58,55,48,45,5,16,6,9,0.4,0.5
2022-01-03T13:00:00,2258A,130.3648,46.8032,佳木斯市,十一中,,29,24,29,20,23,55,54,46,44,12,24,6,10,0.4,0.5
2022-01-03T13:00:00,2259A,130.3794,46.7588,佳木斯市,四丰(对照点),,29,19,24,20,23,57,54,54,50,2,7,5,7,0.1,0.2
2022-01-03T13:00:00,2262A,131.0518,45.8751,七台河市,新一中(对照点),,29,29,21,8,15,65,60,55,54,8,11,5,6,0.5,0.6
2022-01-03T13:00:00,2263A,127.4833,50.2524,黑河市,交通局,,16,14,16,11,15,64,51,59,47,5,13,5,6,0.3,0.4
2022-01-03T13:00:00,2264A,127.5144,50.2341,黑河市,环保局,,23,17,20,16,18,66,50,60,49,4,9,5,6,0.3,0.3
2022-01-03T13:00:00,2265A,127.5291,50.2472,黑河市,大黑河岛(对照点),,,5,20,2,12,63,49,58,49,5,8,9,9,,0.4
2022-01-03T13:00:00,2266A,126.9785,46.6365,绥化市,人和东街,,41,41,37,11,22,48,48,36,32,15,20,7,8,0.3,0.4
2022-01-03T13:00:00,2267A,126.964,46.6528,绥化市,党政办公中心,细颗粒物(PM2.5),59,54,39,42,29,49,49,36,36,16,17,12,9,0.3,0.2
2022-01-03T13:00:00,2269A,124.1069,50.4097,大兴安岭地区,科技局,,21,21,19,13,16,59,51,44,44,5,8,3,6,0.6,0.4
2022-01-03T13:00:00,2270A,117.396,32.939,蚌埠市,工人疗养院,细颗粒物(PM2.5),186,194,149,140,103,95,84,26,26,44,57,20,18,1.2,1
2022-01-03T13:00:00,2271A,117.3605,32.9427,蚌埠市,百货大楼,细颗粒物(PM2.5),186,232,188,140,103,91,89,27,27,52,65,16,10,1.1,0.9
2022-01-03T13:00:00,2273A,117.4185,32.8911,蚌埠市,蚌埠学院,细颗粒物(PM2.5),178,200,145,134,94,104,104,42,42,39,54,24,16,,0.8
2022-01-03T13:00:00,2274A,117.3533,32.9673,蚌埠市,淮上区政府,细颗粒物(PM2.5),178,207,158,134,102,106,90,30,30,55,63,22,10,0.9,0.7
2022-01-03T13:00:00,2275A,117.3145,32.8977,蚌埠市,高新区,细颗粒物(PM2.5),199,200,150,149,106,92,92,38,38,50,54,24,14,0.9,0.8
2022-01-03T13:00:00,2277A,116.8305,32.7727,淮南市,潘集区政府,细颗粒物(PM2.5),182,175,175,137,127,101,98,46,38,46,51,15,9,0.9,1
2022-01-03T13:00:00,2278A,117.0067,32.6524,淮南市,师范学院,细颗粒物(PM2.5),158,209,186,120,116,105,95,45,38,55,60,16,14,1.0,1
2022-01-03T13:00:00,2279A,116.8569,32.5951,淮南市,谢家集区政府,细颗粒物(PM2.5),178,176,156,134,116,106,69,44,34,49,46,17,19,1.1,1
2022-01-03T13:00:00,2280A,116.8281,32.633,淮南市,八公山区政府,细颗粒物(PM2.5),180,161,139,136,119,114,109,46,44,28,43,22,21,,0.9
2022-01-03T13:00:00,2281A,116.6325,32.6201,淮南市,焦岗湖风景区管理处(对照点),细颗粒物(PM2.5),165,158,143,125,107,118,64,46,33,35,48,18,13,,1
2022-01-03T13:00:00,2282A,116.8004,33.975,淮北市,监测站,,,,140,,90,70,70,36,31,40,42,,8,1.3,1.2
2022-01-03T13:00:00,2283A,116.8091,33.9007,淮北市,烈山区政府,细颗粒物(PM2.5),156,166,137,119,88,76,69,42,42,42,34,20,13,1.3,0.9
2022-01-03T13:00:00,2284A,116.7856,33.9477,淮北市,职业技术学院,细颗粒物(PM2.5),168,183,142,127,93,67,67,34,34,37,35,15,11,1.1,1
2022-01-03T13:00:00,2285A,117.8177,30.9412,铜陵市,市第四中学,,,,146,,109,75,26,11,11,,82,,14,1.5,1.3
2022-01-03T13:00:00,2286A,117.8059,30.9273,铜陵市,市公路局,细颗粒物(PM2.5),270,264,170,220,129,78,52,23,23,88,81,39,23,1.6,1.4
2022-01-03T13:00:00,2287A,117.7807,30.9413,铜陵市,市新民污水厂,颗粒物(PM10),128,206,168,95,102,87,53,13,13,62,73,13,11,1.1,1.1
2022-01-03T13:00:00,2288A,117.7439,30.8792,铜陵市,市第九中学,细颗粒物(PM2.5),200,170,169,150,124,69,69,17,17,57,76,14,9,1.2,1.3
2022-01-03T13:00:00,2289A,117.846,30.9413,铜陵市,车站新区,细颗粒物(PM2.5),220,213,150,170,114,76,35,28,12,92,73,31,13,1.8,1.2
2022-01-03T13:00:00,2290A,117.8483,30.97,铜陵市,市职教基地,细颗粒物(PM2.5),153,229,171,117,94,62,54,46,16,82,70,38,17,1.7,1
2022-01-03T13:00:00,2291A,117.0809,30.5177,安庆市,环科院,细颗粒物(PM2.5),143,128,115,109,115,113,69,56,24,58,52,19,14,1.6,1.3
2022-01-03T13:00:00,2292A,117.0331,30.5119,安庆市,马山宾馆,细颗粒物(PM2.5),143,121,122,109,109,124,69,63,26,70,62,14,14,1.1,1.2
2022-01-03T13:00:00,2294A,116.9896,30.6145,安庆市,安庆大学,细颗粒物(PM2.5),148,172,138,113,103,120,86,31,31,57,52,22,8,0.9,1
2022-01-03T13:00:00,2295A,118.2903,29.6963,黄山市,延安路89号,细颗粒物(PM2.5),73,60,63,53,50,123,112,36,36,23,25,10,8,0.5,0.5
2022-01-03T13:00:00,2296A,118.327,29.7178,黄山市,黄山东路89号,细颗粒物(PM2.5),77,53,68,56,56,125,96,42,34,22,28,8,8,0.7,0.8
2022-01-03T13:00:00,2297A,118.1371,30.2756,黄山市,黄山区政府5号楼,细颗粒物(PM2.5),63,58,75,45,53,126,101,42,42,18,20,8,7,0.7,0.7
2022-01-03T13:00:00,2298A,118.3093,32.3153,滁州市,老年大学,细颗粒物(PM2.5),176,218,162,133,100,106,56,20,19,70,60,17,12,1.1,0.8
2022-01-03T13:00:00,2299A,118.3244,32.2786,滁州市,人大宾馆,细颗粒物(PM2.5),190,188,141,143,103,107,62,24,24,79,65,23,16,1.2,1
2022-01-03T13:00:00,2301A,115.8277,32.8929,阜阳市,市监测站,细颗粒物(PM2.5),158,157,173,120,129,94,84,33,33,43,49,16,17,0.9,1
2022-01-03T13:00:00,2303A,115.8554,32.8605,阜阳市,开发区,细颗粒物(PM2.5),172,177,201,130,134,99,87,41,34,43,47,14,15,0.8,0.9
2022-01-03T13:00:00,2307A,116.5079,31.737,六安市,监测大楼,细颗粒物(PM2.5),139,110,134,106,108,120,98,50,38,50,54,12,11,0.6,0.8
2022-01-03T13:00:00,2308A,116.4738,31.7643,六安市,皖西学院,细颗粒物(PM2.5),89,92,136,66,98,127,109,61,37,38,48,12,12,0.5,0.7
2022-01-03T13:00:00,2309A,116.4996,31.7905,六安市,朝阳厂,细颗粒物(PM2.5),108,92,134,81,98,123,91,58,28,55,54,11,12,0.6,0.8
2022-01-03T13:00:00,2310A,116.5567,31.7886,六安市,开发区,,,123,161,67,101,117,84,38,27,,56,16,12,0.6,0.7
2022-01-03T13:00:00,2311A,115.8072,33.8399,亳州市,污水处理厂,细颗粒物(PM2.5),173,181,148,131,94,72,72,28,28,32,36,10,10,1.0,0.9
2022-01-03T13:00:00,2312A,115.7789,33.8518,亳州市,三国揽胜宫,细颗粒物(PM2.5),153,196,160,117,97,68,68,30,30,34,40,12,11,1.1,1.1
2022-01-03T13:00:00,2314A,117.47,30.6618,池州市,池州学院,细颗粒物(PM2.5),127,128,151,96,115,100,88,54,28,36,53,12,14,1.1,1.3
2022-01-03T13:00:00,2316A,118.7581,30.9454,宣城市,鳌峰子站,细颗粒物(PM2.5),113,70,95,85,112,121,108,61,61,27,56,10,16,0.8,1
2022-01-03T13:00:00,2317A,118.7385,30.9743,宣城市,敬亭山子站,,,,93,,106,128,109,60,60,41,50,10,13,,1.1
2022-01-03T13:00:00,2318A,118.7173,30.9427,宣城市,开发区子站,细颗粒物(PM2.5),98,90,98,73,113,120,120,57,57,13,53,9,12,0.9,1.1
2022-01-03T13:00:00,2319A,119.0141,25.4325,莆田市,荔城区仓后路,,,76,57,,39,99,99,84,58,,23,9,5,,0.7
2022-01-03T13:00:00,2320A,119.0015,25.4553,莆田市,莆田市监测站,颗粒物(PM10),60,70,43,37,33,98,98,84,76,28,17,8,5,0.6,0.7
2022-01-03T13:00:00,2321A,119.1119,25.4561,莆田市,涵江区六中,细颗粒物(PM2.5),59,60,52,42,37,112,112,90,71,23,24,10,7,0.6,0.6
2022-01-03T13:00:00,2322A,119.1013,25.3215,莆田市,秀屿区政府,细颗粒物(PM2.5),68,54,50,49,39,121,121,108,77,23,24,7,5,0.9,0.8
2022-01-03T13:00:00,2323A,118.981,25.4792,莆田市,东圳水库(对照点),颗粒物(PM10),55,60,34,24,22,108,105,95,80,23,13,6,4,0.5,0.5
2022-01-03T13:00:00,2324A,117.6211,26.2625,三明市,三钢,颗粒物(PM10),56,61,58,33,44,71,70,24,24,25,35,21,8,2.1,1.3
2022-01-03T13:00:00,2325A,117.635,26.2714,三明市,三明二中,颗粒物(PM10),57,63,57,29,38,77,77,28,28,22,31,20,8,1.7,1
2022-01-03T13:00:00,2326A,117.6028,26.2378,三明市,三元区政府,,,83,77,40,53,72,67,18,18,,43,,15,2.4,1.6
2022-01-03T13:00:00,2327A,117.7275,26.3108,三明市,洋溪(对照点),细颗粒物(PM2.5),52,48,52,36,43,73,73,32,32,17,18,10,7,1.0,1
2022-01-03T13:00:00,2331A,118.0966,26.6761,南平市,茫荡山(对照点),,,31,27,19,23,76,76,54,54,8,10,,4,0.9,0.9
2022-01-03T13:00:00,2332A,118.1681,26.6369,南平市,南平市监测站,,49,49,47,34,36,85,85,59,59,12,24,8,6,0.7,0.9
2022-01-03T13:00:00,2333A,118.1825,26.6489,南平市,南平铝业有限公司,颗粒物(PM10),52,53,48,34,37,94,94,54,54,6,19,10,6,0.6,0.7
2022-01-03T13:00:00,2334A,118.1756,26.6272,南平市,南平七中,颗粒物(PM10),57,64,49,32,39,95,95,66,66,13,23,7,6,0.3,0.4
2022-01-03T13:00:00,2335A,117.0189,25.1181,龙岩市,龙岩师专(对照点),颗粒物(PM10),67,83,52,29,38,78,77,33,33,16,31,12,9,0.4,0.7
2022-01-03T13:00:00,2336A,117.0217,25.1033,龙岩市,龙岩市监测站,颗粒物(PM10),52,54,52,28,36,83,83,31,31,16,31,16,16,0.5,0.8
2022-01-03T13:00:00,2337A,117.0258,25.0661,龙岩市,闽西职业技术学院,,49,49,60,27,37,80,74,69,27,21,32,9,11,0.7,0.7
2022-01-03T13:00:00,2338A,117.0196,25.0306,龙岩市,龙岩学院,,48,48,48,22,35,85,69,57,36,27,23,6,6,0.5,0.5
2022-01-03T13:00:00,2339A,119.5001,26.6946,宁德市,金涵水库(对照点),颗粒物(PM10),69,87,44,30,25,108,87,76,70,32,19,12,7,0.2,0.2
2022-01-03T13:00:00,2341A,119.5388,26.6612,宁德市,宁德市监测站,颗粒物(PM10),56,62,46,31,29,112,90,88,61,20,16,16,8,0.4,0.4
2022-01-03T13:00:00,2342A,117.3102,29.3867,景德镇市,王港中学(对照点),颗粒物(PM10),51,52,60,34,40,128,124,40,40,12,13,12,10,0.0,0.2
2022-01-03T13:00:00,2343A,117.2117,29.2933,景德镇市,老干部活动中心,颗粒物(PM10),55,60,88,20,52,111,84,26,26,26,42,4,5,0.7,0.8
2022-01-03T13:00:00,2344A,117.1894,29.2789,景德镇市,兽医站,细颗粒物(PM2.5),67,77,84,48,55,120,91,30,30,28,39,7,12,0.9,1.1
2022-01-03T13:00:00,2345A,117.1547,29.2617,景德镇市,台达陶瓷,颗粒物(PM10),66,81,108,39,50,94,83,25,25,28,55,8,15,0.8,1.1
2022-01-03T13:00:00,2346A,117.2461,29.2956,景德镇市,陶研所,颗粒物(PM10),65,80,82,35,43,112,89,24,24,31,38,4,9,0.8,0.8
2022-01-03T13:00:00,2347A,114.0997,27.5002,萍乡市,武功山(对照点),,48,41,58,33,50,123,104,55,55,15,20,16,14,0.8,0.9
2022-01-03T13:00:00,2348A,113.8385,27.6434,萍乡市,中医院,细颗粒物(PM2.5),147,136,122,112,95,117,81,62,62,45,48,27,17,2.3,1.5
2022-01-03T13:00:00,2349A,113.8493,27.6253,萍乡市,市政府车库,细颗粒物(PM2.5),160,151,127,122,101,107,65,45,45,53,53,34,23,3.8,2.8
2022-01-03T13:00:00,2350A,113.8676,27.6435,萍乡市,市环保局,细颗粒物(PM2.5),144,150,117,110,93,117,70,60,50,61,49,32,20,2.5,1.4
2022-01-03T13:00:00,2351A,113.866,27.6198,萍乡市,安源区政府,细颗粒物(PM2.5),145,145,120,111,94,119,75,61,61,45,43,29,18,2.9,1.6
2022-01-03T13:00:00,2352A,115.0861,27.9317,新余市,北岗(对照点),细颗粒物(PM2.5),109,109,97,82,73,116,116,50,50,31,31,23,21,0.7,0.7
2022-01-03T13:00:00,2353A,114.9886,27.8431,新余市,飞宇,细颗粒物(PM2.5),104,129,124,78,75,99,96,41,41,28,58,20,30,0.6,0.8
2022-01-03T13:00:00,2354A,114.9231,27.8246,新余市,第二水厂,细颗粒物(PM2.5),117,170,141,88,87,115,105,36,36,34,65,23,23,0.9,2
2022-01-03T13:00:00,2355A,114.9308,27.8036,新余市,市气象局,细颗粒物(PM2.5),117,122,125,88,90,107,94,32,32,40,62,20,20,0.6,0.6
2022-01-03T13:00:00,2357A,116.9822,28.1136,鹰潭市,龙虎山(对照点),细颗粒物(PM2.5),75,64,61,55,59,118,103,46,46,9,13,18,11,1.1,0.9
2022-01-03T13:00:00,2358A,117.0564,28.2642,鹰潭市,新监测站,细颗粒物(PM2.5),122,96,92,92,90,122,89,31,31,36,50,121,43,0.9,0.9
2022-01-03T13:00:00,2359A,117.0311,28.2475,鹰潭市,财苑宾馆,细颗粒物(PM2.5),128,94,100,97,91,107,88,30,30,34,46,59,39,1.2,1.1
2022-01-03T13:00:00,2360A,117.0222,28.2264,鹰潭市,体育馆,细颗粒物(PM2.5),144,103,91,110,89,114,86,28,28,40,41,65,34,1.6,1.4
2022-01-03T13:00:00,2361A,117.0017,28.2131,鹰潭市,三川水表,细颗粒物(PM2.5),144,130,92,110,85,116,75,26,26,42,32,79,23,1.7,1.4
2022-01-03T13:00:00,2362A,114.9017,25.9149,赣州市,通天岩(对照点),,,20,39,18,29,107,64,64,64,,12,42,19,1.5,1.2
2022-01-03T13:00:00,2363A,114.9367,25.8664,赣州市,地委,细颗粒物(PM2.5),87,97,71,64,48,114,100,52,52,27,28,30,18,1.2,1.2
2022-01-03T13:00:00,2364A,114.9461,25.8481,赣州市,气象台,细颗粒物(PM2.5),74,87,68,54,48,114,91,50,50,32,34,19,13,1.1,1
2022-01-03T13:00:00,2365A,114.9322,25.8333,赣州市,市图书馆,细颗粒物(PM2.5),83,99,75,61,48,110,84,45,45,39,38,20,17,1.3,1.2
2022-01-03T13:00:00,2366A,114.8905,25.8471,赣州市,华坚鞋城,颗粒物(PM10),79,108,91,46,49,106,92,47,47,29,30,12,12,1.0,1
2022-01-03T13:00:00,2367A,114.9754,27.0803,吉安市,红声器材厂,细颗粒物(PM2.5),107,127,106,80,68,124,105,44,44,30,34,22,12,0.8,0.8
2022-01-03T13:00:00,2368A,114.9658,27.0999,吉安市,市森林工业局,细颗粒物(PM2.5),108,114,105,81,76,128,101,46,46,42,46,20,11,0.9,0.9
2022-01-03T13:00:00,2369A,114.99,27.1312,吉安市,市环境监测站,细颗粒物(PM2.5),102,119,106,76,70,119,102,37,37,36,41,42,17,0.9,1
2022-01-03T13:00:00,2370A,115.0093,27.0968,吉安市,青原区法院,细颗粒物(PM2.5),105,108,96,79,73,124,106,45,45,26,31,26,16,0.8,0.9
2022-01-03T13:00:00,2371A,114.3408,27.8064,宜春市,槟榔水业(对照点),细颗粒物(PM2.5),112,130,108,84,71,129,115,61,61,34,40,28,14,1.3,1.1
