timepoint,stationcode,longitude,latitude,area,positionname,primarypollutant,aqi,pm10,pm10_24h,pm2_5,pm2_5_24h,o3,o3_24h,o3_8h,o3_8h_24h,no2,no2_24h,so2,so2_24h,co,co_24h
2022-08-18T21:00:00,1001A,116.3621,39.8784,北京市,万寿西宫,细颗粒物(PM2.5),67,60,50,48,33,119,22,110,35,23,18,3,3,0.9,0.7
2022-08-18T21:00:00,1002A,116.2202,40.2915,北京市,定陵(对照点),,14,8,33,6,28,125,44,97,60,6,7,1,2,0.7,0.7
2022-08-18T21:00:00,1003A,116.4174,39.9289,北京市,东四,细颗粒物(PM2.5),67,50,43,48,31,122,36,117,52,28,19,2,2,0.9,0.6
2022-08-18T21:00:00,1004A,116.4072,39.8863,北京市,天坛,细颗粒物(PM2.5),63,63,49,45,32,102,25,95,36,21,15,3,3,0.9,0.7
2022-08-18T21:00:00,1005A,116.462,39.9365,北京市,农展馆,,45,37,47,31,33,117,25,108,41,31,21,3,3,0.8,0.6
2022-08-18T21:00:00,1006A,116.3392,39.9295,北京市,官园,细颗粒物(PM2.5),74,51,44,54,35,122,22,119,45,46,19,2,2,1.0,0.7
2022-08-18T21:00:00,1007A,116.2878,39.9611,北京市,海淀万柳,细颗粒物(PM2.5),54,43,51,38,38,121,32,115,36,22,22,3,3,0.7,0.6
2022-08-18T21:00:00,1008A,116.6636,40.135,北京市,顺义新城,,39,26,48,27,34,109,62,68,61,13,17,3,3,0.9,0.6
2022-08-18T21:00:00,1009A,116.6275,40.3275,北京市,怀柔镇,,19,15,39,13,27,155,56,93,69,9,17,3,3,0.7,0.7
2022-08-18T21:00:00,1010A,116.2296,40.217,北京市,昌平镇,,16,13,41,11,29,92,30,86,48,12,16,3,3,0.6,0.6
2022-08-18T21:00:00,1011A,116.3966,39.9821,北京市,奥体中心,细颗粒物(PM2.5),65,62,52,47,34,126,23,120,41,33,16,3,3,0.8,0.6
2022-08-18T21:00:00,1012A,116.184,39.9136,北京市,古城,细颗粒物(PM2.5),60,42,57,43,37,116,30,110,48,35,21,3,3,0.8,0.5
2022-08-18T21:00:00,1015A,117.1444,39.1661,天津市,勤俭道,细颗粒物(PM2.5),85,57,50,63,39,127,58,112,87,28,26,3,6,0.9,0.9
2022-08-18T21:00:00,1017A,117.237,39.1082,天津市,大直沽八号路,,36,29,48,25,33,112,103,106,106,1,16,5,6,0.6,0.8
2022-08-18T21:00:00,1018A,117.202,39.0927,天津市,前进道,,34,26,44,20,29,126,106,111,110,8,23,6,7,0.7,0.8
2022-08-18T21:00:00,1019A,117.1837,39.2133,天津市,淮河道,,,,,,,,,,,,,,,,
2022-08-18T21:00:00,1021A,117.307,39.0877,天津市,跃进路,,45,45,50,28,32,142,115,123,123,8,27,6,8,0.5,0.7
2022-08-18T21:00:00,1023A,117.707,39.0343,天津市,第四大街,细颗粒物(PM2.5),75,79,56,55,32,150,104,123,123,20,38,5,5,1.1,0.9
2022-08-18T21:00:00,1024A,117.457,38.8394,天津市,永明路,细颗粒物(PM2.5),59,49,50,42,38,166,110,143,142,17,21,4,5,0.9,0.8
2022-08-18T21:00:00,1026A,117.764,39.1587,天津市,汉北路,细颗粒物(PM2.5),70,63,47,51,31,187,119,151,151,20,21,6,7,1.1,0.9
2022-08-18T21:00:00,1027A,117.157,38.9194,天津市,团泊洼(对照点),,39,15,48,14,25,134,123,121,121,1,18,4,6,1.0,1
2022-08-18T21:00:00,1029A,114.4422,38.0444,石家庄市,职工医院,细颗粒物(PM2.5),93,94,62,69,41,105,28,101,62,20,10,1,2,0.5,0.4
2022-08-18T21:00:00,1030A,114.6063,38.0266,石家庄市,高新区,细颗粒物(PM2.5),107,104,75,80,43,89,34,87,52,30,22,4,4,0.6,0.5
2022-08-18T21:00:00,1031A,114.4898,38.1328,石家庄市,西北水源,细颗粒物(PM2.5),89,102,70,66,40,105,31,104,56,24,14,3,3,0.7,0.6
2022-08-18T21:00:00,1032A,114.4586,38.0058,石家庄市,西南高教,细颗粒物(PM2.5),94,93,66,70,37,108,33,96,60,10,7,1,2,0.9,0.8
2022-08-18T21:00:00,1033A,114.5331,38.0178,石家庄市,世纪公园,细颗粒物(PM2.5),99,112,79,74,49,105,40,97,56,22,21,4,4,0.7,0.7
2022-08-18T21:00:00,1034A,114.509,38.0457,石家庄市,人民会堂,细颗粒物(PM2.5),102,95,71,76,42,106,46,104,70,22,17,7,6,1.0,0.9
2022-08-18T21:00:00,1035A,114.3524,37.8911,石家庄市,封龙山(对照点),,34,34,59,12,36,145,96,123,102,9,12,16,16,1.2,1.1
2022-08-18T21:00:00,1037A,118.131,39.6363,唐山市,雷达站,,40,29,32,22,20,128,128,103,103,10,17,1,2,0.8,0.6
2022-08-18T21:00:00,1038A,118.1725,39.6334,唐山市,物资局,颗粒物(PM10),54,57,33,25,21,120,120,97,97,16,19,2,3,0.9,0.7
2022-08-18T21:00:00,1040A,118.1705,39.6506,唐山市,十二中,,33,19,26,19,14,103,103,90,90,25,24,1,1,1.1,0.8
2022-08-18T21:00:00,1041A,118.1869,39.622,唐山市,小山,,43,17,25,11,12,136,136,102,102,14,24,2,3,0.6,0.6
2022-08-18T21:00:00,1042A,119.5134,39.8207,秦皇岛市,北戴河环保局,,50,36,26,8,6,166,160,148,148,2,9,1,4,0.3,0.4
2022-08-18T21:00:00,1043A,119.7493,40.0116,秦皇岛市,第一关,,,34,33,,3,113,96,52,44,25,33,7,8,0.5,0.3
2022-08-18T21:00:00,1044A,119.5897,39.9499,秦皇岛市,监测站,,38,28,27,26,18,103,94,92,89,26,18,3,8,0.3,0.5
2022-08-18T21:00:00,1046A,119.5251,39.9041,秦皇岛市,建设大厦,,40,24,28,12,10,132,128,109,109,11,18,1,3,0.5,0.6
2022-08-18T21:00:00,1047A,114.5129,36.61763,邯郸市,环保局,,,,,,,,,,,,,,,,
2022-08-18T21:00:00,1048A,114.5302,36.6116,邯郸市,东污水处理厂,颗粒物(PM10),54,58,56,25,33,145,109,138,135,12,16,6,14,0.4,0.6
2022-08-18T21:00:00,1049A,114.4918,36.5713,邯郸市,矿院,颗粒物(PM10),51,52,55,22,22,137,105,128,126,10,17,4,6,0.9,0.9
2022-08-18T21:00:00,1050A,114.484,36.6133,邯郸市,丛台公园,颗粒物(PM10),52,53,47,30,28,134,107,127,126,10,13,4,8,0.4,0.4
2022-08-18T21:00:00,1051A,115.493,38.8632,保定市,游泳馆,,46,42,39,32,26,111,64,111,72,24,18,7,6,0.4,0.4
2022-08-18T21:00:00,1052A,115.5213,38.8959,保定市,华电二区,,40,40,35,26,23,112,66,92,66,16,14,3,4,0.7,0.6
2022-08-18T21:00:00,1053A,115.4713,38.9108,保定市,接待中心,颗粒物(PM10),52,53,40,30,20,108,51,105,66,25,17,4,5,0.5,0.4
2022-08-18T21:00:00,1054A,115.4612,38.8416,保定市,地表水厂,细颗粒物(PM2.5),54,56,49,38,28,110,49,97,70,16,14,4,4,0.4,0.4
2022-08-18T21:00:00,1055A,115.4323,38.8697,保定市,胶片厂,,49,46,36,34,30,105,55,103,66,18,15,8,7,0.5,0.4
2022-08-18T21:00:00,1056A,115.5086,38.8639,保定市,监测站,,48,48,38,33,28,125,77,118,77,16,15,4,3,0.5,0.4
2022-08-18T21:00:00,1057A,114.8883,40.8336,张家口市,人民公园,,,,16,10,9,133,83,129,97,9,8,6,6,0.7,0.6
2022-08-18T21:00:00,1059A,114.8687,40.8042,张家口市,五金库,,,15,21,,,127,83,125,96,9,9,8,9,0.6,0.6
2022-08-18T21:00:00,1060A,114.8902,40.762,张家口市,世纪豪园,,26,22,27,12,21,126,82,124,99,13,8,4,4,0.4,0.3
2022-08-18T21:00:00,1061A,114.8916,40.8661,张家口市,北泵房(对照点),,,31,33,27,32,,,,,7,7,,,,
2022-08-18T21:00:00,1062A,117.9531,40.9081,承德市,铁路,,32,14,31,22,23,86,66,68,68,37,35,4,4,0.8,0.6
2022-08-18T21:00:00,1063A,117.9392,40.9763,承德市,中国银行,,21,9,21,6,17,87,66,74,73,14,25,7,7,0.8,0.7
2022-08-18T21:00:00,1064A,117.9503,40.928,承德市,开发区,,33,17,33,13,18,104,104,91,91,9,24,5,5,0.8,0.7
2022-08-18T21:00:00,1065A,117.8051,40.9655,承德市,文化中心,,30,12,30,12,22,108,94,99,99,10,21,6,7,0.8,0.7
2022-08-18T21:00:00,1066A,117.9268,41.0026,承德市,离宫(对照点),,,,,67,53,73,49,58,58,14,13,3,3,0.8,0.6
2022-08-18T21:00:00,1067A,116.6708,39.5111,廊坊市,药材公司,,38,32,32,26,26,102,44,81,46,24,27,6,7,0.8,0.6
2022-08-18T21:00:00,1068A,116.7214,39.5589,廊坊市,开发区,,32,23,32,22,26,104,41,84,43,18,25,5,6,0.7,0.6
2022-08-18T21:00:00,1070A,116.7244,39.5269,廊坊市,北华航天学院,细颗粒物(PM2.5),53,42,42,37,33,101,40,83,49,26,23,8,8,0.8,0.5
2022-08-18T21:00:00,1071A,116.8842,38.2991,沧州市,沧县城建局,细颗粒物(PM2.5),54,51,49,38,23,148,106,131,124,14,26,8,9,0.5,0.4
2022-08-18T21:00:00,1072A,116.8584,38.3254,沧州市,电视转播站,,49,49,45,30,26,153,124,141,136,12,19,6,7,0.4,0.4
2022-08-18T21:00:00,1073A,116.8709,38.3228,沧州市,市环保局,,47,47,47,32,24,163,122,147,142,6,20,4,7,0.4,0.4
2022-08-18T21:00:00,1074A,115.6838,37.7541,衡水市,电机北厂,颗粒物(PM10),57,63,57,34,27,158,99,149,144,13,13,4,7,0.8,0.7
2022-08-18T21:00:00,1075A,115.6303,37.7316,衡水市,市监测站,颗粒物(PM10),70,89,61,34,23,154,72,142,133,14,14,9,10,0.8,0.5
2022-08-18T21:00:00,1077A,114.4704,37.0886,邢台市,达活泉,颗粒物(PM10),75,99,77,53,38,142,65,120,117,24,24,6,8,0.8,0.9
2022-08-18T21:00:00,1078A,114.5062,37.0349,邢台市,邢师高专,颗粒物(PM10),71,91,79,41,39,130,74,106,103,29,34,2,3,0.7,0.7
2022-08-18T21:00:00,1079A,114.5237,37.0851,邢台市,路桥公司,颗粒物(PM10),81,111,71,52,37,129,37,104,98,30,30,2,5,0.9,0.8
2022-08-18T21:00:00,1080A,114.4725,37.0719,邢台市,市环保局,细颗粒物(PM2.5),64,56,65,46,41,134,83,112,112,22,27,4,6,0.7,0.8
2022-08-18T21:00:00,1081A,112.5139,37.8873,太原市,尖草坪,细颗粒物(PM2.5),75,83,81,55,44,189,71,150,142,37,34,4,9,1.3,1
2022-08-18T21:00:00,1083A,112.434,38.0108,太原市,上兰(对照点),,,,,,,,,,,,,,,,
2022-08-18T21:00:00,1084A,112.469,37.7124,太原市,晋源,颗粒物(PM10),56,62,80,31,34,202,26,146,129,45,41,9,11,0.7,0.8
2022-08-18T21:00:00,1085A,112.5583,37.7394,太原市,小店,颗粒物(PM10),56,62,89,36,46,215,47,163,147,37,27,5,8,1.0,0.8
2022-08-18T21:00:00,1086A,112.5369,37.8692,太原市,桃园,细颗粒物(PM2.5),58,58,76,41,47,196,54,157,144,41,41,3,9,1.2,1.2
2022-08-18T21:00:00,1087A,112.57,37.8195,太原市,坞城,颗粒物(PM10),54,58,75,37,47,205,49,161,147,40,27,4,8,1.1,1
2022-08-18T21:00:00,1088A,112.549,37.9854,太原市,南寨,细颗粒物(PM2.5),82,81,72,60,42,157,7,111,95,64,39,5,5,1.1,1
2022-08-18T21:00:00,1089A,112.4701,37.782,太原市,金胜,,,,,,,,,,,,,,,,
2022-08-18T21:00:00,1090A,111.6507,40.7517,呼和浩特市,呼市一监,,,,22,18,19,120,67,110,106,16,14,5,5,0.7,0.6
2022-08-18T21:00:00,1091A,111.6572,40.8033,呼和浩特市,小召,,41,41,26,23,19,121,103,111,111,23,16,6,5,0.8,0.6
2022-08-18T21:00:00,1094A,111.7516,40.8369,呼和浩特市,如意水处理厂,,,23,23,22,21,94,82,94,88,20,16,,,,
2022-08-18T21:00:00,1095A,111.7276,40.8062,呼和浩特市,二十九中,,36,36,27,20,23,113,86,101,101,20,15,8,7,0.7,0.7
2022-08-18T21:00:00,1096A,111.5512,40.7866,呼和浩特市,工大金川校区,,35,35,45,7,20,132,71,108,107,17,16,5,4,0.4,0.6
2022-08-18T21:00:00,1097A,111.717,40.7612,呼和浩特市,化肥厂生活区,,29,29,31,16,22,113,83,103,101,20,14,6,6,0.7,0.6
2022-08-18T21:00:00,1098A,123.6836,41.9339,沈阳市,森林路(对照点),,,,,,,,,,,,,,,,
2022-08-18T21:00:00,1099A,123.505,41.7406,沈阳市,浑南东路,,26,26,44,16,23,134,55,114,87,24,31,12,21,0.9,1.1
2022-08-18T21:00:00,1100A,123.4231,41.6989,沈阳市,新秀街,,42,42,45,15,17,128,61,108,86,18,27,40,28,0.8,1
2022-08-18T21:00:00,1102A,123.5903,41.8411,沈阳市,东陵路,,26,26,44,14,17,128,54,111,87,17,23,6,12,0.5,0.9
2022-08-18T21:00:00,1103A,123.4264,41.8467,沈阳市,陵东街,,28,28,32,18,18,139,77,125,102,11,21,16,11,0.6,0.8
2022-08-18T21:00:00,1104A,123.4114,41.7653,沈阳市,文化路,,44,44,45,20,20,137,71,116,94,10,21,36,21,0.7,0.9
2022-08-18T21:00:00,1105A,123.4678,41.7867,沈阳市,小河沿,,25,25,36,14,17,135,76,115,96,13,23,12,12,0.4,0.8
2022-08-18T21:00:00,1106A,123.4017,41.7972,沈阳市,太原街,,34,34,33,18,20,137,70,117,95,15,24,22,15,0.5,0.8
2022-08-18T21:00:00,1108A,123.3783,41.9228,沈阳市,京沈街,,25,25,43,16,20,146,79,128,106,13,23,26,18,0.4,0.7
2022-08-18T21:00:00,1109A,121.612,38.9741,大连市,甘井子,,33,24,31,17,18,126,105,119,119,14,18,2,4,0.5,0.5
2022-08-18T21:00:00,1110A,121.565,38.9511,大连市,周水子,,33,28,28,8,15,139,104,124,123,14,23,5,19,0.8,0.9
2022-08-18T21:00:00,1111A,121.5637,38.8845,大连市,星海三站,,42,25,28,20,21,169,134,161,160,18,27,5,6,0.4,0.6
2022-08-18T21:00:00,1112A,121.6302,38.9117,大连市,青泥洼桥,,36,19,25,11,21,144,114,132,130,12,9,6,7,0.4,0.6
2022-08-18T21:00:00,1113A,121.6251,38.8638,大连市,傅家庄,,35,25,24,10,14,142,111,133,131,5,9,8,9,0.2,0.3
2022-08-18T21:00:00,1114A,121.5213,38.8661,大连市,七贤岭,,43,27,31,15,15,180,136,166,165,6,10,3,4,0.6,0.7
2022-08-18T21:00:00,1115A,121.2529,38.8061,大连市,旅顺,,,,19,11,14,150,105,138,136,10,13,6,6,0.7,0.8
2022-08-18T21:00:00,1116A,121.7485,39.1311,大连市,金州,,37,21,48,15,18,129,118,124,124,10,11,5,5,0.5,0.6
2022-08-18T21:00:00,1117A,121.7811,39.0496,大连市,开发区,,39,28,29,14,21,155,123,141,141,17,26,8,9,0.8,1
2022-08-18T21:00:00,1118A,121.9762,39.0631,大连市,双D港,,39,21,21,14,13,139,122,131,131,9,13,5,6,0.3,0.4
2022-08-18T21:00:00,1119A,125.3325,43.9166,长春市,食品厂,颗粒物(PM10),53,56,54,20,19,143,110,130,127,24,32,4,4,0.6,0.6
2022-08-18T21:00:00,1120A,125.2863,43.9027,长春市,客车厂,颗粒物(PM10),52,54,50,19,16,151,116,134,134,24,33,5,4,0.8,0.7
2022-08-18T21:00:00,1121A,125.2841,43.8463,长春市,邮电学院,,47,47,45,16,17,155,124,140,140,15,24,5,4,0.8,0.7
2022-08-18T21:00:00,1122A,125.3716,43.8772,长春市,劳动公园,,43,43,44,19,16,148,122,138,138,18,22,7,6,0.7,0.6
2022-08-18T21:00:00,1123A,125.3297,43.8805,长春市,园林处,颗粒物(PM10),52,54,48,15,13,158,124,144,142,18,25,5,4,0.7,0.6
2022-08-18T21:00:00,1124A,125.4605,43.79,长春市,净月潭,,47,47,33,14,12,149,129,139,139,5,4,6,5,0.5,0.5
2022-08-18T21:00:00,1125A,125.7194,43.515,长春市,甩湾子(对照点),,,,,,,,,,,,,,,,
2022-08-18T21:00:00,1126A,125.3863,43.8447,长春市,经开区环卫处,,49,49,47,16,16,128,116,122,121,14,25,4,4,0.7,0.7
2022-08-18T21:00:00,1127A,125.245,43.7783,长春市,高新区管委会,,50,50,34,27,17,140,113,128,127,15,19,4,4,0.7,0.6
2022-08-18T21:00:00,1128A,125.1761,43.8325,长春市,岱山公园,,47,47,51,15,17,161,106,140,136,29,33,8,6,0.8,0.7
2022-08-18T21:00:00,1129A,126.5422,45.755,哈尔滨市,岭北(对照点),"颗粒物(PM10),细颗粒物(PM2.5)",58,65,49,41,20,150,90,136,120,12,14,6,8,0.6,0.4
2022-08-18T21:00:00,1130A,126.561,45.8167,哈尔滨市,松北商大,颗粒物(PM10),54,58,38,24,12,136,83,124,107,14,21,6,6,0.7,0.5
2022-08-18T21:00:00,1131A,126.979,45.5419,哈尔滨市,阿城会宁,颗粒物(PM10),58,66,38,25,37,134,59,117,104,18,14,9,10,0.9,0.7
2022-08-18T21:00:00,1132A,126.599,45.7222,哈尔滨市,南岗学府路,细颗粒物(PM2.5),60,53,30,43,20,125,80,111,100,11,19,3,7,0.7,0.5
2022-08-18T21:00:00,1133A,126.689,45.7733,哈尔滨市,太平宏伟公园,颗粒物(PM10),81,111,53,24,12,144,83,128,116,17,20,3,7,0.4,0.3
2022-08-18T21:00:00,1134A,126.635,45.7667,哈尔滨市,道外承德广场,细颗粒物(PM2.5),94,87,46,70,24,134,82,121,106,18,23,4,9,0.8,0.6
2022-08-18T21:00:00,1135A,126.685,45.7319,哈尔滨市,香坊红旗大街,颗粒物(PM10),70,89,47,27,15,127,74,112,102,26,31,10,13,0.9,0.7
2022-08-18T21:00:00,1136A,126.6411,45.7258,哈尔滨市,动力和平路,,,72,50,,,137,86,123,110,21,28,4,8,0.9,0.7
2022-08-18T21:00:00,1137A,126.593,45.7478,哈尔滨市,道里建国路,颗粒物(PM10),69,88,43,33,17,135,71,122,102,13,27,8,9,1.1,1
2022-08-18T21:00:00,1138A,126.615,45.61,哈尔滨市,平房东轻厂,颗粒物(PM10),64,77,39,27,12,137,66,120,100,28,16,4,4,0.6,0.3
2022-08-18T21:00:00,1139A,126.595,45.9855,哈尔滨市,呼兰师专,颗粒物(PM10),64,77,53,24,15,134,57,120,99,19,22,6,5,0.8,0.6
2022-08-18T21:00:00,1140A,126.6206,45.6842,哈尔滨市,省农科院,颗粒物(PM10),58,66,40,31,14,141,71,126,108,23,20,8,10,0.6,0.6
2022-08-18T21:00:00,1141A,121.4,31.238,上海市,普陀,,27,27,37,14,21,207,46,183,152,24,25,3,3,0.4,0.6
2022-08-18T21:00:00,1142A,121.478,31.2036,上海市,十五厂,,28,28,31,13,22,180,29,154,125,25,21,4,4,0.6,0.7
2022-08-18T21:00:00,1143A,121.467,31.3008,上海市,虹口,,,27,36,,21,199,42,170,148,22,25,,3,0.3,0.4
2022-08-18T21:00:00,1144A,121.412,31.1654,上海市,徐汇上师大,,26,26,40,8,21,192,36,172,138,18,22,5,5,0.5,0.7
2022-08-18T21:00:00,1145A,121.536,31.2659,上海市,杨浦四漂,,24,24,34,15,26,203,34,160,136,24,19,3,3,0.6,0.7
2022-08-18T21:00:00,1146A,120.978,31.0935,上海市,青浦淀山湖(对照点),,,,,,,,,,,,,,,,
2022-08-18T21:00:00,1147A,121.425,31.2261,上海市,静安监测站,,30,30,41,12,23,172,39,149,128,24,24,2,2,0.3,0.4
2022-08-18T21:00:00,1148A,121.703,31.1907,上海市,浦东川沙,,38,38,34,10,20,184,15,139,96,28,26,5,6,0.4,0.4
2022-08-18T21:00:00,1149A,121.533,31.2284,上海市,浦东新区监测站,,26,26,36,7,23,203,38,183,140,27,25,5,5,0.5,0.6
2022-08-18T21:00:00,1150A,121.577,31.2071,上海市,浦东张江,,20,20,28,10,20,176,21,144,112,33,25,4,4,0.7,0.8
2022-08-18T21:00:00,1151A,118.8086,32.1065,南京市,迈皋桥,臭氧1小时,67,50,38,24,17,200,173,187,179,20,18,2,3,0.4,0.5
2022-08-18T21:00:00,1152A,118.7538,32.0551,南京市,草场门,,49,48,35,27,18,192,154,169,158,18,21,2,3,0.5,0.6
2022-08-18T21:00:00,1153A,118.7794,32.0745,南京市,山西路,臭氧1小时,64,44,39,31,18,196,171,189,184,15,16,3,4,0.3,0.4
2022-08-18T21:00:00,1154A,118.7752,32.0023,南京市,中华门,臭氧1小时,62,46,36,24,15,188,169,177,171,15,16,4,4,0.9,1
2022-08-18T21:00:00,1155A,118.8109,32.0309,南京市,瑞金路,臭氧1小时,68,42,38,24,20,211,174,196,186,8,7,4,4,0.3,0.4
2022-08-18T21:00:00,1156A,118.7997,32.0754,南京市,玄武湖,臭氧1小时,75,36,31,24,17,199,180,191,187,3,6,5,4,0.6,0.7
2022-08-18T21:00:00,1157A,118.6414,32.0931,南京市,浦口,,50,39,37,19,17,213,160,194,182,20,20,3,2,0.4,0.6
2022-08-18T21:00:00,1158A,118.7356,31.9996,南京市,奥体中心,臭氧1小时,77,56,41,48,26,204,181,188,183,22,18,2,3,0.5,0.5
2022-08-18T21:00:00,1159A,118.9125,32.1028,南京市,仙林大学城,臭氧1小时,90,36,39,29,22,214,192,201,196,8,10,6,7,0.6,0.7
2022-08-18T21:00:00,1160A,120.561,31.2472,苏州市,上方山(对照点),,50,50,47,27,24,203,107,184,170,20,21,8,7,0.3,0.4
2022-08-18T21:00:00,1161A,120.628,31.2864,苏州市,南门,,,,,,,,,,,,,,,,
2022-08-18T21:00:00,1162A,120.591,31.3019,苏州市,彩香,,,39,35,12,20,200,,177,174,16,17,7,7,0.7,0.8
2022-08-18T21:00:00,1163A,120.596,31.3264,苏州市,轧钢厂,,,21,34,,12,184,102,171,158,14,19,7,7,0.5,0.6
2022-08-18T21:00:00,1164A,120.613,31.2703,苏州市,吴中区,,36,36,36,7,19,198,102,176,165,20,23,8,8,0.4,0.5
2022-08-18T21:00:00,1165A,120.543,31.2994,苏州市,苏州新区,,40,23,38,8,24,211,125,188,178,24,27,6,6,0.7,0.8
2022-08-18T21:00:00,1166A,120.669,31.3097,苏州市,苏州工业园区,,30,25,28,13,23,166,93,158,146,18,24,5,5,0.6,0.7
2022-08-18T21:00:00,1167A,120.641,31.3708,苏州市,相城区,,32,24,34,18,23,194,102,176,159,23,20,7,6,0.4,0.6
2022-08-18T21:00:00,1168A,120.9098,31.9663,南通市,狼山街道,,43,37,26,12,10,149,135,142,141,15,8,8,8,0.6,0.5
2022-08-18T21:00:00,1169A,120.86,32.0005,南通市,虹桥,,43,36,24,20,17,149,135,138,138,8,7,8,8,0.5,0.5
2022-08-18T21:00:00,1170A,120.87,32.02,南通市,城中,,42,40,25,15,16,141,133,132,132,11,8,7,7,0.3,0.4
2022-08-18T21:00:00,1171A,120.94,31.93,南通市,星湖花园,,42,36,24,17,13,142,132,134,132,12,8,5,4,0.6,0.7
2022-08-18T21:00:00,1172A,120.81,32.0417,南通市,紫琅学院,,46,46,30,9,8,142,133,136,135,11,10,4,4,0.7,0.8
2022-08-18T21:00:00,1173A,119.176,34.5885,连云港市,市环境监测站,,27,27,28,7,10,140,76,131,112,6,5,1,1,0.1,0.1
2022-08-18T21:00:00,1177A,117.179,34.2761,徐州市,黄河新村,颗粒物(PM10),52,53,37,30,20,152,123,143,137,11,12,5,5,0.9,0.8
2022-08-18T21:00:00,1178A,117.1918,34.2384,徐州市,淮塔,颗粒物(PM10),52,54,42,34,21,150,122,144,139,12,12,7,7,0.8,0.7
2022-08-18T21:00:00,1180A,117.256,34.2153,徐州市,新城区,颗粒物(PM10),51,51,46,27,19,147,131,140,137,12,16,6,6,0.6,0.5
2022-08-18T21:00:00,1181A,117.244,34.2911,徐州市,桃园路,颗粒物(PM10),56,61,42,19,11,149,119,143,136,12,12,6,7,0.8,0.7
2022-08-18T21:00:00,1182A,117.2933,34.2778,徐州市,农科院,,44,44,36,17,10,123,103,115,114,17,20,5,6,0.8,0.7
2022-08-18T21:00:00,1186A,119.389,32.3761,扬州市,邗江监测站,,41,41,45,24,22,271,99,240,218,15,15,3,3,0.8,0.9
2022-08-18T21:00:00,1188A,120.269,31.4867,无锡市,雪浪,,39,39,42,22,26,248,122,227,201,8,10,5,6,0.7,0.8
2022-08-18T21:00:00,1189A,120.275,31.6219,无锡市,黄巷,颗粒物(PM10),59,67,52,34,32,252,107,229,207,44,27,6,7,0.8,0.7
2022-08-18T21:00:00,1190A,120.294,31.56,无锡市,曹张,,,45,37,22,28,248,113,223,200,8,9,,8,0.8,0.9
2022-08-18T21:00:00,1191A,120.242,31.5031,无锡市,漆塘,,44,44,39,22,20,242,123,219,196,11,15,7,9,0.5,0.6
2022-08-18T21:00:00,1192A,120.3489,31.5863,无锡市,东亭,,,44,44,22,27,220,,187,167,30,20,10,8,1.0,1
2022-08-18T21:00:00,1193A,120.354,31.5475,无锡市,旺庄,,40,40,36,26,22,248,80,222,191,44,26,5,7,1.0,1.2
2022-08-18T21:00:00,1194A,120.245,31.5631,无锡市,荣巷,颗粒物(PM10),51,51,37,29,26,243,109,220,196,21,16,8,8,0.5,0.7
2022-08-18T21:00:00,1195A,120.299,31.6817,无锡市,堰桥,颗粒物(PM10),59,68,44,34,25,249,125,225,212,27,17,8,7,1.1,0.2
2022-08-18T21:00:00,1196A,119.9633,31.762,常州市,市监测站,,46,33,38,32,28,239,143,214,198,17,21,7,9,0.6,0.8
2022-08-18T21:00:00,1200A,119.9468,31.7069,常州市,武进监测站,臭氧1小时,57,32,37,26,27,261,165,238,221,8,16,15,14,0.7,1
2022-08-18T21:00:00,1201A,119.9255,31.9087,常州市,安家,臭氧1小时,59,43,35,31,31,247,167,230,216,15,15,3,5,0.9,0.9
2022-08-18T21:00:00,1203A,119.6707,32.1875,镇江市,新区办事处,,45,44,41,31,24,278,131,243,222,25,21,10,8,0.9,0.8
2022-08-18T21:00:00,1204A,119.4974,32.1968,镇江市,职教中心,颗粒物(PM10),53,56,45,29,23,277,114,242,223,29,24,3,4,0.8,0.7
2022-08-18T21:00:00,1205A,119.4303,32.1328,镇江市,丹徒区监测站,细颗粒物(PM2.5),55,52,46,39,29,284,153,254,233,22,19,9,8,1.1,0.9
2022-08-18T21:00:00,1206A,119.905,32.4878,泰州市,公园路,,35,34,27,24,16,136,80,127,115,8,6,4,4,0.7,0.7
2022-08-18T21:00:00,1207A,119.9189,32.4625,泰州市,莲花,,35,29,25,24,21,149,84,136,124,12,9,7,6,0.8,0.8
2022-08-18T21:00:00,1209A,119.888,32.4639,泰州市,留学生创业园,,39,39,31,21,18,164,92,149,136,16,14,4,4,0.4,0.5
2022-08-18T21:00:00,1210A,119.036,33.5981,淮安市,钵池山,,32,22,21,13,11,133,100,128,122,8,9,4,4,0.5,0.5
2022-08-18T21:00:00,1211A,119.007,33.575,淮安市,北京南路,,33,29,26,14,12,137,105,132,126,8,9,8,8,0.5,0.5
2022-08-18T21:00:00,1212A,118.989,33.6067,淮安市,市监测站,,33,27,24,13,11,135,105,128,122,9,10,6,6,0.7,0.7
2022-08-18T21:00:00,1213A,119.135,33.5039,淮安市,楚州区监测站,,29,29,24,12,10,119,83,112,107,11,9,9,7,0.5,0.5
2022-08-18T21:00:00,1214A,119.0186,33.6297,淮安市,淮阴区监测站,,32,26,25,13,13,136,102,131,124,8,9,6,6,0.5,0.5
2022-08-18T21:00:00,1215A,120.118,33.4022,盐城市,盐城电厂,,30,24,22,12,10,143,96,128,112,8,8,5,6,0.4,0.4
2022-08-18T21:00:00,1216A,120.156,33.3942,盐城市,市监测站,,28,24,20,12,10,129,88,119,103,8,9,5,4,0.5,0.3
2022-08-18T21:00:00,1218A,120.2144,33.38,盐城市,开发区管委会,,27,14,23,11,13,127,86,119,104,14,13,6,6,0.3,0.4
2022-08-18T21:00:00,1220A,118.293,33.9528,宿迁市,宿迁学院,,36,36,34,23,18,172,97,156,141,22,16,5,6,0.4,0.4
2022-08-18T21:00:00,1221A,118.2442,33.9592,宿迁市,宿迁中学,,42,42,38,26,21,172,103,157,144,17,13,5,5,0.6,0.6
2022-08-18T21:00:00,1223A,120.2072,30.2111,杭州市,滨江,,,40,37,25,22,222,,191,182,23,23,6,6,0.5,0.6
2022-08-18T21:00:00,1224A,120.0633,30.2747,杭州市,西溪,,40,40,34,22,17,215,106,175,167,17,14,11,10,0.7,0.7
2022-08-18T21:00:00,1225A,119.026,29.635,杭州市,千岛湖(对照点),,,,,,,,,,,,,,,,
2022-08-18T21:00:00,1226A,120.3461,30.3153,杭州市,下沙,,28,26,46,8,23,201,89,186,158,18,35,5,5,0.4,0.6
2022-08-18T21:00:00,1227A,120.1269,30.2456,杭州市,卧龙桥,,40,40,34,25,22,240,69,206,183,29,23,4,5,0.6,0.5
2022-08-18T21:00:00,1228A,120.1903,30.2692,杭州市,浙江农大,,36,27,34,15,21,232,115,201,180,20,19,4,4,0.5,0.6
2022-08-18T21:00:00,1229A,120.157,30.2897,杭州市,朝晖五区,,,,,,,,,,,,,,,,
2022-08-18T21:00:00,1230A,120.1197,30.3119,杭州市,和睦小学,,,34,39,22,24,232,,194,187,24,23,7,7,0.6,0.8
2022-08-18T21:00:00,1231A,120.3019,30.4183,杭州市,临平镇,,33,23,47,10,21,234,103,187,159,21,18,4,3,0.6,0.7
2022-08-18T21:00:00,1232A,120.2697,30.1819,杭州市,城厢镇,,39,39,37,18,21,175,107,164,150,23,23,8,7,0.6,0.7
2022-08-18T21:00:00,1233A,120.0883,30.1808,杭州市,云栖,,38,38,33,21,18,219,56,191,162,29,16,6,7,0.5,0.5
2022-08-18T21:00:00,1234A,121.8358,29.911,宁波市,区环保大楼,,14,14,20,7,12,90,43,86,51,7,10,5,7,0.4,0.5
2022-08-18T21:00:00,1235A,121.56,29.82,宁波市,万里学院,,28,28,32,7,15,111,37,98,72,8,11,6,6,0.6,0.7
2022-08-18T21:00:00,1236A,121.713,29.9572,宁波市,龙赛医院,,16,16,30,6,14,117,38,98,63,7,11,6,7,0.4,0.5
2022-08-18T21:00:00,1239A,121.633,29.7733,宁波市,钱湖水厂,,12,11,16,3,10,95,37,87,67,6,8,3,2,0.4,0.4
2022-08-18T21:00:00,1240A,121.5856,29.8635,宁波市,太古小学,,19,19,25,5,15,112,34,94,65,10,14,8,8,0.4,0.6
2022-08-18T21:00:00,1241A,121.524,29.8674,宁波市,市环境监测中心,,23,23,32,16,15,119,34,97,65,6,15,4,5,0.2,0.4
2022-08-18T21:00:00,1242A,120.634,28.0089,温州市,瓯海,,19,19,29,9,16,119,27,86,45,11,12,6,6,0.3,0.4
2022-08-18T21:00:00,1243A,120.6748,27.9939,温州市,南浦,,17,17,26,8,11,122,26,77,42,8,6,4,5,0.3,0.4
2022-08-18T21:00:00,1244A,120.76,27.9747,温州市,龙湾,,14,14,27,6,9,115,30,60,37,7,11,5,6,0.3,0.3
2022-08-18T21:00:00,1245A,120.6709,28.0167,温州市,市站,,26,26,32,0,14,116,28,83,40,15,16,5,5,0.4,0.5
2022-08-18T21:00:00,1246A,120.598,30.0911,绍兴市,袍江站,,,,,,,,,,,,,,,,
2022-08-18T21:00:00,1247A,120.6053,29.9928,绍兴市,城东开发委,,30,30,33,0,18,155,72,133,121,14,10,5,6,0.3,0.3
2022-08-18T21:00:00,1250A,120.0751,30.8669,湖州市,城西水厂,,41,32,49,10,29,250,129,205,184,18,16,6,5,0.5,0.6
2022-08-18T21:00:00,1252A,120.7436,30.778,嘉兴市,清河小学,,,13,31,7,17,198,,169,154,22,16,5,5,0.4,0.7
2022-08-18T21:00:00,1253A,120.726,30.7478,嘉兴市,嘉兴学院,,27,27,35,8,22,169,35,155,128,26,16,4,3,0.5,0.5
2022-08-18T21:00:00,1255A,121.273,28.6459,台州市,黄岩环保大楼,,16,16,23,10,12,112,29,90,53,10,10,4,5,0.2,0.3
2022-08-18T21:00:00,1256A,121.419,28.6542,台州市,台州环保大楼,,17,17,21,7,10,115,34,69,38,6,8,5,5,0.4,0.4
2022-08-18T21:00:00,1257A,121.377,28.5773,台州市,路桥田洋王,,16,16,18,6,11,118,32,69,39,9,8,8,5,0.4,0.4
2022-08-18T21:00:00,1258A,122.122,30.0203,舟山市,定海檀枫,,15,15,18,8,8,81,36,75,40,11,10,2,2,0.3,0.3
2022-08-18T21:00:00,1259A,122.3094,29.9558,舟山市,普陀东港,,16,16,16,6,8,60,32,55,36,22,22,2,3,0.3,0.3
2022-08-18T21:00:00,1260A,122.19,29.9944,舟山市,临城新区,,13,13,16,5,7,80,36,75,39,13,13,3,3,0.3,0.4
2022-08-18T21:00:00,1261A,119.649,29.1131,金华市,四中(停运161031),,,,,,,,,,,,,,,,
2022-08-18T21:00:00,1262A,119.647,29.077,金华市,十五中,,20,15,33,7,18,128,64,112,92,10,15,3,4,0.4,0.4
2022-08-18T21:00:00,1263A,119.686,29.1029,金华市,监测站,,24,24,31,9,16,149,64,134,103,10,14,4,4,0.3,0.4
2022-08-18T21:00:00,1264A,118.8692,28.9398,衢州市,环保大楼,,43,43,39,23,24,191,78,169,143,21,16,6,13,0.6,0.6
2022-08-18T21:00:00,1265A,118.8709,28.9666,衢州市,实验学校,,36,36,32,14,12,194,67,173,147,30,19,6,9,0.4,0.6
2022-08-18T21:00:00,1266A,118.8621,28.9808,衢州市,衢州学院,,38,38,34,21,22,185,64,162,133,33,22,6,10,0.4,0.5
2022-08-18T21:00:00,1267A,119.914,28.4514,丽水市,监测站大楼,,22,18,28,15,19,87,60,78,76,12,9,6,6,0.4,0.4
2022-08-18T21:00:00,1268A,119.93,28.4586,丽水市,莲都小学,,23,22,30,8,14,101,71,88,86,7,11,6,6,0.3,0.4
2022-08-18T21:00:00,1269A,119.879,28.4231,丽水市,余庄前,,23,16,23,9,16,106,73,97,88,7,10,6,5,0.4,0.5
2022-08-18T21:00:00,1270A,117.1959,31.7848,合肥市,明珠广场,,44,44,49,27,30,179,133,154,141,19,18,7,8,0.6,0.9
2022-08-18T21:00:00,1271A,117.3072,31.8764,合肥市,三里街,,42,42,52,24,28,157,108,133,115,26,23,6,7,0.8,1
2022-08-18T21:00:00,1272A,117.2588,31.8707,合肥市,琥珀山庄,,44,36,50,27,30,170,138,148,134,15,16,5,5,0.7,1
2022-08-18T21:00:00,1273A,117.1604,31.9052,合肥市,董铺水库(对照点),,41,41,51,22,25,164,129,149,133,10,13,10,10,0.6,0.8
2022-08-18T21:00:00,1274A,117.25,31.8571,合肥市,长江中路,颗粒物(PM10),51,51,58,27,27,169,133,143,128,12,14,5,5,0.7,0.9
2022-08-18T21:00:00,1275A,117.266,31.9436,合肥市,庐阳区,,45,39,53,31,35,175,120,154,129,16,21,6,8,0.6,0.7
2022-08-18T21:00:00,1276A,117.336,31.8586,合肥市,瑶海区,颗粒物(PM10),51,51,53,23,28,165,102,140,118,23,15,9,10,0.7,0.9
2022-08-18T21:00:00,1277A,117.3027,31.7964,合肥市,包河区,,45,44,57,29,34,164,142,141,128,13,17,4,10,0.6,0.9
2022-08-18T21:00:00,1278A,117.2776,31.7385,合肥市,滨湖新区,,44,39,46,17,28,167,139,147,135,10,12,5,6,0.7,0.9
2022-08-18T21:00:00,1279A,117.1318,31.8403,合肥市,高新区,,46,46,49,29,29,173,141,153,141,11,15,5,6,0.5,0.7
2022-08-18T21:00:00,1280A,119.3903,26.0543,福州市,鼓山(对照点),,,,,,,,,,,,,,,,
2022-08-18T21:00:00,1282A,119.2681,26.0504,福州市,师大,,,20,30,3,9,136,,91,75,12,13,3,4,0.2,0.2
2022-08-18T21:00:00,1283A,119.2984,26.1028,福州市,五四北路,,15,15,19,5,8,100,32,80,60,11,13,2,3,0.2,0.3
2022-08-18T21:00:00,1284A,119.2648,26.0768,福州市,杨桥西路,,19,19,27,6,10,131,28,93,69,14,10,3,4,0.3,0.3
2022-08-18T21:00:00,1285A,119.317,26.0746,福州市,紫阳,,22,15,26,15,14,99,28,77,61,11,13,3,4,0.2,0.2
2022-08-18T21:00:00,1286A,118.1608,24.8169,厦门市,溪东(对照点),,,,,,,,,,,,,,,,
2022-08-18T21:00:00,1287A,118.1514,24.4767,厦门市,洪文,,18,4,7,3,4,62,55,55,54,10,8,2,3,0.4,0.5
2022-08-18T21:00:00,1288A,118.0661,24.4444,厦门市,鼓浪屿,,20,16,10,8,4,57,17,46,41,39,18,18,6,0.5,0.3
2022-08-18T21:00:00,1290A,115.8931,28.6843,南昌市,省外办,,32,32,32,17,9,167,92,144,131,11,12,8,10,0.6,0.7
2022-08-18T21:00:00,1291A,115.8886,28.7003,南昌市,省林业公司,,31,31,32,12,8,168,91,144,129,21,18,5,7,0.7,0.8
2022-08-18T21:00:00,1292A,115.8126,28.7442,南昌市,林科所,,39,39,37,19,16,166,74,156,135,42,17,7,8,0.5,0.5
2022-08-18T21:00:00,1294A,115.8518,28.687,南昌市,建工学校,,39,39,35,14,15,151,78,139,127,21,16,7,9,0.6,0.7
2022-08-18T21:00:00,1295A,115.8921,28.6424,南昌市,象湖,,44,44,43,12,8,158,82,140,121,15,8,4,7,0.5,0.6
2022-08-18T21:00:00,1296A,115.7423,28.7996,南昌市,武术学校(对照点),,33,22,26,23,15,144,45,117,84,9,9,5,5,0.8,0.7
2022-08-18T21:00:00,1298A,115.9314,28.6842,南昌市,省站,,33,33,36,21,18,173,84,150,125,15,11,11,12,0.9,0.9
2022-08-18T21:00:00,1299A,116.9862,36.6114,济南市,科干所,,49,44,44,24,26,160,154,155,155,9,13,4,5,0.8,0.8
2022-08-18T21:00:00,1300A,116.9376,36.665,济南市,农科所,,46,46,48,20,22,148,146,142,142,14,21,5,6,0.5,0.5
2022-08-18T21:00:00,1301A,117.1265,36.6734,济南市,开发区,,47,44,45,22,19,166,149,156,156,10,20,4,4,0.6,0.7
2022-08-18T21:00:00,1303A,117.0624,36.6868,济南市,省种子仓库,,46,46,48,27,25,153,147,149,149,8,15,4,6,0.5,0.6
2022-08-18T21:00:00,1304A,116.9489,36.6447,济南市,机床二厂,颗粒物(PM10),56,61,66,24,24,175,158,157,157,8,19,6,7,0.4,0.5
2022-08-18T21:00:00,1305A,117.0495,36.663,济南市,市监测站,,48,46,47,22,25,159,152,149,149,7,14,6,7,0.7,0.7
2022-08-18T21:00:00,1306A,116.7675,36.5484,济南市,长清党校,臭氧1小时,64,51,43,24,24,183,171,173,173,11,14,7,6,0.6,0.6
2022-08-18T21:00:00,1307A,120.6659,36.2403,青岛市,仰口(对照点),,,,,,,,,,,,,,,,
2022-08-18T21:00:00,1308A,120.3905,36.1851,青岛市,李沧区子站,,,,,,,,,,,,,,,,
2022-08-18T21:00:00,1309A,120.3471,36.0699,青岛市,市北区子站,,,,,,,,,,,,,,,,
2022-08-18T21:00:00,1310A,120.4134,36.0658,青岛市,市南区东部子站,,31,19,16,5,9,136,98,126,113,10,10,8,7,0.1,0.1
2022-08-18T21:00:00,1311A,120.3664,36.1032,青岛市,四方区子站,,29,17,19,7,8,134,90,125,106,10,11,5,5,0.6,0.5
2022-08-18T21:00:00,1312A,120.2994,36.054,青岛市,市南区西部子站,,28,17,16,5,5,134,89,122,103,18,16,6,6,0.5,0.5
2022-08-18T21:00:00,1313A,120.4581,36.0858,青岛市,崂山区子站,,35,31,19,9,7,142,111,134,124,9,11,5,5,0.3,0.3
2022-08-18T21:00:00,1314A,120.1983,35.9608,青岛市,黄岛区子站,,,12,16,7,11,154,,146,130,6,7,4,5,0.5,0.4
2022-08-18T21:00:00,1315A,120.3999,36.3083,青岛市,城阳区子站,,33,24,29,6,9,152,103,138,121,11,20,5,5,0.5,0.6
2022-08-18T21:00:00,1316A,113.69031,34.76122,郑州市,烟厂,颗粒物(PM10),51,51,43,22,28,146,94,135,127,21,10,4,3,0.7,0.7
2022-08-18T21:00:00,1317A,113.65724,34.77134,郑州市,郑纺机,,,34,45,,,161,110,151,142,16,10,5,5,0.8,0.7
2022-08-18T21:00:00,1318A,113.67526,34.80246,郑州市,银行学校,,44,44,43,21,24,165,104,155,146,21,10,2,2,0.7,0.7
2022-08-18T21:00:00,1319A,113.56746,34.81334,郑州市,供水公司,,,45,49,19,26,149,101,141,132,,8,3,3,0.4,0.5
2022-08-18T21:00:00,1320A,113.7329,34.7178,郑州市,经开区管委,颗粒物(PM10),59,67,48,24,28,168,113,156,148,21,10,1,1,0.7,0.7
2022-08-18T21:00:00,1321A,113.73961,34.77172,郑州市,四十七中,颗粒物(PM10),55,60,47,17,19,172,127,159,152,24,17,1,1,0.7,0.6
2022-08-18T21:00:00,1322A,113.60532,34.74838,郑州市,市监测站,,,48,48,,,166,113,154,145,22,15,2,2,0.5,0.6
2022-08-18T21:00:00,1323A,113.64164,34.7525,郑州市,河医大,,,49,49,,23,169,104,155,146,20,10,2,1,0.6,0.6
2022-08-18T21:00:00,1324A,113.51488,34.91089,郑州市,岗李水库(对照点),,,,,,,,,,,,,,,,
2022-08-18T21:00:00,1325A,114.3677,30.5584,武汉市,东湖梨园,,30,30,33,15,16,134,89,125,117,19,18,6,7,0.8,1
2022-08-18T21:00:00,1326A,114.2529,30.558,武汉市,汉阳月湖,,25,25,31,9,14,123,59,113,101,39,23,6,7,0.7,0.8
2022-08-18T21:00:00,1327A,114.282,30.6189,武汉市,汉口花桥,,29,29,37,12,20,136,76,123,110,19,16,6,6,0.5,0.7
2022-08-18T21:00:00,1328A,114.3025,30.5332,武汉市,武昌紫阳,,35,26,33,20,16,135,112,126,120,18,17,7,9,0.9,0.9
2022-08-18T21:00:00,1329A,114.3646,30.6217,武汉市,青山钢花,,29,29,39,14,23,149,82,127,108,31,21,6,9,0.6,0.8
2022-08-18T21:00:00,1330A,114.1566,30.4825,武汉市,沌口新区,,24,24,37,16,22,124,69,117,105,38,21,9,11,0.6,0.7
2022-08-18T21:00:00,1331A,114.3014,30.5944,武汉市,汉口江滩,,28,28,34,13,18,138,65,124,103,36,31,8,10,0.7,0.9
2022-08-18T21:00:00,1333A,114.135,30.6319,武汉市,吴家山,,36,36,38,7,16,130,70,110,91,28,18,4,5,0.7,0.8
2022-08-18T21:00:00,1334A,113.8454,30.2917,武汉市,沉湖七壕(对照点),,34,14,23,2,3,108,107,102,102,8,12,9,9,0.8,0.8
2022-08-18T21:00:00,1335A,113.0833,28.2325,长沙市,经开区环保局,,25,12,24,17,22,110,74,98,87,18,12,6,7,0.4,0.4
2022-08-18T21:00:00,1336A,112.8872,28.2189,长沙市,高开区环保局,,26,17,25,15,14,125,83,117,111,8,7,7,7,0.4,0.4
2022-08-18T21:00:00,1337A,113.0792,28.2053,长沙市,马坡岭,,24,18,30,11,19,110,75,104,94,13,10,6,7,0.7,0.6
2022-08-18T21:00:00,1338A,112.9394,28.19,长沙市,湖南师范大学,,,34,34,9,7,127,,107,93,11,8,,4,0.3,0.5
2022-08-18T21:00:00,1339A,113.0178,28.1322,长沙市,雨花区环保局,,27,14,24,13,13,116,85,112,105,13,13,6,8,0.6,0.5
2022-08-18T21:00:00,1340A,112.9792,28.2597,长沙市,伍家岭,,25,23,29,10,17,130,77,115,101,11,16,4,5,0.2,0.3
2022-08-18T21:00:00,1341A,113.0014,28.1944,长沙市,火车新站,,28,21,24,19,16,104,75,101,93,10,10,7,14,0.5,0.5
2022-08-18T21:00:00,1342A,112.9844,28.1178,长沙市,天心区环保局,,23,23,25,13,15,112,66,104,93,10,6,4,5,0.6,0.5
2022-08-18T21:00:00,1343A,112.8908,28.1308,长沙市,湖南中医药大学,,21,21,30,14,14,126,39,112,95,34,15,4,5,0.7,0.7
2022-08-18T21:00:00,1344A,112.9581,28.3611,长沙市,沙坪(对照点),,29,28,31,20,16,125,46,115,94,20,13,3,4,1.0,1.2
2022-08-18T21:00:00,1345A,113.2347,23.1423,广州市,广雅中学,,38,38,24,18,12,168,102,124,124,35,31,5,5,0.8,0.7
2022-08-18T21:00:00,1346A,113.2612,23.105,广州市,市五中,,34,34,22,22,13,177,94,136,136,33,27,3,4,0.7,0.6
2022-08-18T21:00:00,1348A,113.3478,23.0916,广州市,广东商学院,,42,42,27,23,14,157,80,118,118,43,30,4,5,0.5,0.5
2022-08-18T21:00:00,1349A,113.4332,23.1047,广州市,市八十六中,,47,47,29,17,12,138,58,105,105,69,35,7,7,0.8,0.7
2022-08-18T21:00:00,1350A,113.3505,22.9483,广州市,番禺中学,,22,22,15,11,8,151,57,93,91,31,24,10,11,0.5,0.5
2022-08-18T21:00:00,1351A,113.2146,23.3916,广州市,花都师范,,27,27,20,10,9,120,58,93,92,25,24,6,5,0.7,0.6
2022-08-18T21:00:00,1352A,113.2597,23.1331,广州市,市监测站,,38,38,25,21,11,160,102,126,126,34,29,5,5,0.7,0.7
2022-08-18T21:00:00,1353A,113.5618,23.312,广州市,九龙镇镇龙,,39,39,22,14,9,82,24,71,61,31,17,7,7,0.7,0.7
2022-08-18T21:00:00,1354A,113.2765,23.1544,广州市,麓湖,,42,42,26,18,12,160,66,105,105,34,26,4,4,0.8,0.7
2022-08-18T21:00:00,1355A,113.443,23.3035,广州市,帽峰山森林公园(对照点),,18,10,12,4,5,99,57,84,82,14,12,5,5,0.6,0.6
2022-08-18T21:00:00,1356A,114.1063,22.5545,深圳市,通心岭子站,,11,10,9,5,3,57,33,49,48,6,11,3,3,0.6,0.6
2022-08-18T21:00:00,1357A,114.117,22.5625,深圳市,洪湖,,9,9,12,2,3,41,26,36,36,14,20,8,8,0.4,0.5
2022-08-18T21:00:00,1358A,113.987,22.5417,深圳市,华侨城,,15,15,15,1,3,65,25,41,41,15,16,5,5,0.6,0.6
2022-08-18T21:00:00,1359A,113.9181,22.5171,深圳市,南海子站,,16,16,10,9,5,69,15,42,39,31,14,2,2,0.7,0.6
2022-08-18T21:00:00,1360A,114.2458,22.5689,深圳市,盐田,,11,10,12,3,3,53,34,42,42,15,22,4,4,0.8,0.7
2022-08-18T21:00:00,1361A,114.2283,22.7244,深圳市,龙岗,,11,11,19,4,8,107,32,74,69,16,23,4,4,0.5,0.5
2022-08-18T21:00:00,1362A,113.8953,22.5861,深圳市,西乡,,,,,,,,,,,,,,,,
2022-08-18T21:00:00,1363A,114.494,22.5422,深圳市,南澳,,18,18,13,1,1,58,33,53,49,7,6,4,6,0.6,0.8
2022-08-18T21:00:00,1364A,114.41,22.6342,深圳市,葵涌,,11,11,14,0,2,53,23,43,40,6,5,5,5,0.6,0.6
2022-08-18T21:00:00,1365A,114.297,22.5978,深圳市,梅沙,,15,9,9,2,1,56,46,48,48,4,6,6,6,0.4,0.4
2022-08-18T21:00:00,1366A,114.0678,22.738,深圳市,观澜,,24,24,29,5,10,104,6,75,60,21,17,5,5,0.5,0.5
2022-08-18T21:00:00,1367A,113.5814,22.2618,珠海市,吉大,,16,7,8,3,3,63,51,58,57,5,7,8,7,0.3,0.3
2022-08-18T21:00:00,1368A,113.4881,22.2335,珠海市,前山,,15,9,4,10,6,71,29,53,45,20,17,9,9,0.4,0.4
2022-08-18T21:00:00,1369A,113.628,22.4251,珠海市,唐家,,13,4,5,3,3,86,39,65,60,19,12,7,6,0.2,0.2
2022-08-18T21:00:00,1370A,113.299,22.2281,珠海市,斗门,,15,5,7,6,4,94,45,67,61,7,9,5,5,0.5,0.5
2022-08-18T21:00:00,1371A,113.1294,23.0067,佛山市,湾梁,,16,9,14,9,7,112,49,77,77,25,25,5,5,0.4,0.3
2022-08-18T21:00:00,1372A,113.1083,23.0478,佛山市,华材职中,,19,19,12,12,8,142,47,94,94,22,23,5,5,0.3,0.3
2022-08-18T21:00:00,1373A,113.144,23.0453,佛山市,南海气象局,,31,31,19,13,8,143,34,92,91,34,27,5,5,0.6,0.5
2022-08-18T21:00:00,1374A,113.2881,22.8094,佛山市,顺德苏岗,,16,16,4,7,4,122,36,77,77,26,26,4,4,0.5,0.5
2022-08-18T21:00:00,1375A,113.2544,22.7642,佛山市,容桂街道办,,,,,,,,,,,,,,,,
2022-08-18T21:00:00,1376A,112.8383,22.8678,佛山市,高明孔堂,,31,31,20,10,9,136,78,120,119,11,12,6,5,0.6,0.5
2022-08-18T21:00:00,1377A,112.8836,23.1588,佛山市,三水监测站,,46,46,19,13,11,148,37,109,108,45,31,5,5,0.5,0.5
2022-08-18T21:00:00,1378A,112.867,23.185,佛山市,三水云东海,,34,34,20,11,11,144,61,110,110,34,26,5,5,0.5,0.5
2022-08-18T21:00:00,1379A,113.3769,22.5211,中山市,华柏园,,,,6,,5,26,,23,,,17,,1,,0.7
2022-08-18T21:00:00,1380A,113.3881,22.5497,中山市,张溪,,15,6,15,3,5,93,45,67,66,11,16,1,2,0.6,0.6
2022-08-18T21:00:00,1381A,113.4075,22.5111,中山市,紫马岭,,14,8,12,4,6,85,43,84,66,8,8,2,2,0.5,0.4
2022-08-18T21:00:00,1382A,113.4411,22.4853,中山市,长江旅游区(对照点),,12,5,10,3,4,83,38,63,61,5,12,7,7,0.4,0.4
2022-08-18T21:00:00,1383A,113.1064,22.6058,江门市,北街,,14,14,16,7,5,129,34,103,93,18,22,5,5,0.5,0.5
2022-08-18T21:00:00,1384A,113.0731,22.5835,江门市,西区,,20,17,16,14,9,134,43,104,97,16,25,4,4,0.6,0.6
2022-08-18T21:00:00,1385A,113.0219,22.5311,江门市,圭峰西,,22,22,17,10,6,138,40,96,92,18,20,4,4,0.8,0.6
2022-08-18T21:00:00,1386A,113.0828,22.5947,江门市,东湖,,16,15,18,11,11,135,44,105,96,15,22,6,6,0.6,0.6
2022-08-18T21:00:00,1387A,113.7875,23.0457,东莞市,东城主山,,,,,,,,,,,,,,,,
2022-08-18T21:00:00,1388A,113.7533,23.0202,东莞市,南城元岭,,,,,,,,,,,,,,,,
2022-08-18T21:00:00,1389A,113.7547,23.0494,东莞市,莞城梨川,,24,24,20,11,10,129,52,101,94,26,19,8,8,0.7,0.7
2022-08-18T21:00:00,1390A,113.7944,23.0128,东莞市,东城石井,,20,20,23,9,11,154,47,124,116,20,21,8,8,0.8,0.7
2022-08-18T21:00:00,1391A,113.7383,22.9658,东莞市,南城西平,,27,27,24,3,10,122,43,98,89,31,25,6,6,0.7,0.9
2022-08-18T21:00:00,1392A,114.4183,23.0528,惠州市,河南岸金山湖子站,,,48,24,,5,55,20,49,45,26,12,3,3,0.7,0.6
2022-08-18T21:00:00,1393A,114.4053,23.0822,惠州市,下埔横江三路子站,,23,23,17,7,5,64,40,57,53,22,13,4,3,0.4,0.3
2022-08-18T21:00:00,1394A,114.4103,23.1142,惠州市,江北云山西路子站,,17,17,23,9,10,64,38,58,54,18,11,6,6,0.5,0.4
2022-08-18T21:00:00,1395A,114.4645,22.7833,惠州市,惠阳区承修路船湖子站,,15,15,18,5,7,79,40,59,57,8,12,5,5,0.4,0.4
2022-08-18T21:00:00,1396A,114.5317,22.7422,惠州市,大亚湾管委会子站,,23,23,19,6,6,51,39,45,44,12,15,3,5,0.5,0.5
2022-08-18T21:00:00,1397A,112.4267,23.0706,肇庆市,睦岗子站,,39,37,20,20,9,150,124,122,122,28,27,12,12,0.4,0.3
2022-08-18T21:00:00,1398A,112.4645,23.0475,肇庆市,城中子站,,33,27,19,20,10,142,103,118,118,50,30,9,11,0.6,0.5
2022-08-18T21:00:00,1399A,112.5544,23.1522,肇庆市,坑口子站,,32,27,22,22,13,150,77,109,109,28,28,8,10,0.5,0.5
2022-08-18T21:00:00,1400A,112.4753,23.1,肇庆市,七星岩子站(对照点),,,,,,,,,,,,,,,,
2022-08-18T21:00:00,1401A,108.3103,22.7881,南宁市,二十一中,,37,37,36,21,21,179,59,126,111,16,21,8,4,0.7,0.7
2022-08-18T21:00:00,1402A,108.3141,22.8528,南宁市,北湖,颗粒物(PM10),59,68,54,24,27,156,54,120,102,17,24,4,7,0.6,0.6
2022-08-18T21:00:00,1403A,108.3206,22.8225,南宁市,市监测站,,39,35,36,27,26,167,56,114,103,21,25,6,6,0.6,0.6
2022-08-18T21:00:00,1404A,108.3829,22.8037,南宁市,大自然花园,,33,28,30,23,20,173,58,113,96,8,14,6,8,0.6,0.7
2022-08-18T21:00:00,1405A,108.4394,22.7904,南宁市,仙葫(对照点),,32,32,39,19,18,129,46,99,75,11,13,6,7,0.7,0.6
2022-08-18T21:00:00,1406A,108.2397,22.8467,南宁市,区农职院,,40,36,37,28,22,154,62,123,109,21,26,6,8,0.6,0.7
2022-08-18T21:00:00,1407A,108.3275,22.735,南宁市,英华嘉园,,43,40,42,30,19,156,43,103,86,27,30,6,6,0.7,0.7
2022-08-18T21:00:00,1408A,108.2257,22.7757,南宁市,沙井镇街道办,,44,44,49,24,24,146,42,115,88,23,31,5,7,0.7,0.7
2022-08-18T21:00:00,1409A,110.576,19.9507,海口市,东寨港(对照点),,,4,17,13,31,74,35,68,60,,,5,5,0.2,0.2
2022-08-18T21:00:00,1410A,110.3232,20.0574,海口市,海南大学,,,15,12,,,66,49,58,56,8,9,4,4,0.7,0.7
2022-08-18T21:00:00,1411A,110.283,20.0053,海口市,秀英海南医院,,15,12,13,10,7,65,46,61,58,17,12,5,5,0.4,0.1
2022-08-18T21:00:00,1412A,110.338,19.9969,海口市,海南师范大学,,18,18,15,9,10,73,43,61,58,8,7,3,3,0.7,0.7
2022-08-18T21:00:00,1413A,110.33,20.0356,海口市,龙华路环保局宿舍,,16,14,12,11,4,68,51,64,61,8,7,3,3,0.5,0.5
2022-08-18T21:00:00,1414A,106.3787,29.8279,重庆市,缙云山(对照点),,30,7,9,11,5,126,96,120,118,16,15,7,6,0.3,0.3
2022-08-18T21:00:00,1416A,106.4213,29.8253,重庆市,天生,,27,27,24,17,10,124,69,120,110,25,13,5,5,0.6,0.5
2022-08-18T21:00:00,1417A,106.6263,29.7228,重庆市,两路,,19,17,22,13,14,107,56,96,88,30,22,10,10,0.5,0.3
2022-08-18T21:00:00,1418A,106.2953,29.5983,重庆市,虎溪,,36,36,29,23,10,121,86,116,110,23,18,7,9,0.4,0.4
2022-08-18T21:00:00,1419A,106.5777,29.5102,重庆市,南坪,,27,26,23,10,12,112,84,106,104,12,9,3,4,0.4,0.4
2022-08-18T21:00:00,1420A,106.6556,29.6277,重庆市,唐家沱,,42,42,15,23,9,91,75,86,86,12,18,5,5,0.6,0.6
2022-08-18T21:00:00,1421A,106.6349,29.4906,重庆市,茶园,,40,40,27,19,12,116,63,111,97,43,29,6,6,0.3,0.3
2022-08-18T21:00:00,1422A,106.3754,29.4572,重庆市,白市驿,,,31,21,17,12,110,95,107,105,,7,9,9,0.4,0.6
2022-08-18T21:00:00,1425A,106.6205,29.7166,重庆市,空港,,41,41,30,16,13,100,58,92,89,19,13,11,10,0.4,0.5
2022-08-18T21:00:00,1426A,106.4782,29.4875,重庆市,新山村,,28,26,20,14,7,113,87,106,103,25,17,6,7,0.4,0.4
2022-08-18T21:00:00,1427A,106.5616,29.6453,重庆市,礼嘉,,37,34,12,12,7,124,22,117,100,73,30,10,10,1.1,0.9
2022-08-18T21:00:00,1428A,106.4522,29.7091,重庆市,蔡家,,35,35,18,22,11,118,52,111,102,37,15,4,4,0.6,0.5
2022-08-18T21:00:00,1429A,106.5093,29.3917,重庆市,鱼新街,,33,31,19,23,11,102,73,97,95,23,7,5,6,0.8,0.7
2022-08-18T21:00:00,1431A,103.9728,30.7236,成都市,金泉两河,"颗粒物(PM10),细颗粒物(PM2.5)",53,55,49,37,36,233,159,162,162,12,20,3,3,0.5,0.5
2022-08-18T21:00:00,1432A,104.1419,30.6764,成都市,十里店,,,,53,,32,244,144,199,191,15,26,4,4,0.7,0.7
2022-08-18T21:00:00,1433A,104.0594,30.5767,成都市,三瓦窑,颗粒物(PM10),51,52,58,34,34,230,152,200,193,15,36,1,1,0.5,0.5
2022-08-18T21:00:00,1434A,104.1122,30.6306,成都市,沙河铺,,50,50,50,32,30,258,148,207,196,19,23,3,4,0.7,0.7
2022-08-18T21:00:00,1437A,104.0431,30.6556,成都市,君平街,细颗粒物(PM2.5),58,53,56,41,39,274,156,228,218,11,20,3,3,0.7,0.7
2022-08-18T21:00:00,1438A,103.6202,31.0201,成都市,灵岩寺(对照点),,36,33,28,25,21,135,98,117,115,4,2,6,6,0.6,0.6
2022-08-18T21:00:00,1439A,106.6899,26.5998,贵阳市,马鞍山,,17,17,16,7,8,93,47,87,64,20,9,6,6,0.6,0.5
2022-08-18T21:00:00,1440A,106.6971,26.5694,贵阳市,市环保站,,23,5,16,16,11,80,28,73,63,41,16,5,5,0.3,0.3
2022-08-18T21:00:00,1441A,106.6243,26.6266,贵阳市,鉴湖路,,34,34,22,14,10,83,54,80,75,16,7,4,3,0.3,0.3
2022-08-18T21:00:00,1442A,106.7487,26.6343,贵阳市,燕子冲,,25,22,23,17,15,96,45,93,80,19,8,8,8,0.3,0.4
2022-08-18T21:00:00,1443A,106.6555,26.4365,贵阳市,碧云窝,,29,29,31,7,8,85,41,79,72,38,11,5,5,0.5,0.4
2022-08-18T21:00:00,1444A,106.694,26.5161,贵阳市,中院村,,29,29,24,14,10,77,35,71,61,30,13,3,4,0.5,0.5
2022-08-18T21:00:00,1445A,106.7109,26.6027,贵阳市,红边门,,,,24,,15,83,38,77,67,34,17,4,5,0.3,0.5
2022-08-18T21:00:00,1446A,106.7164,26.5699,贵阳市,新华路,,31,31,20,12,11,83,46,80,69,22,9,5,5,0.3,0.3
2022-08-18T21:00:00,1447A,106.674,26.5424,贵阳市,太慈桥,,41,41,30,12,8,86,50,80,74,34,13,6,6,0.4,0.4
2022-08-18T21:00:00,1450A,102.8204,24.8886,昆明市,呈贡新区,,22,18,28,12,16,120,68,103,99,22,21,3,7,0.4,0.4
2022-08-18T21:00:00,1451A,102.6251,24.9608,昆明市,西山森林公园(对照点),,29,16,16,1,13,118,90,107,107,9,7,9,9,0.5,0.4
2022-08-18T21:00:00,1452A,102.7252,25.0902,昆明市,龙泉镇,,32,32,30,9,14,126,38,112,105,49,22,6,6,0.5,0.6
2022-08-18T21:00:00,1453A,102.7266,25.0375,昆明市,东风东路,,29,29,25,13,13,113,83,104,102,22,22,5,5,0.5,0.5
2022-08-18T21:00:00,1454A,102.6742,25.0669,昆明市,金鼎山,,24,24,36,16,19,121,63,108,104,24,19,5,10,0.4,0.5
2022-08-18T21:00:00,1455A,102.6644,25.0401,昆明市,碧鸡广场,,32,32,27,14,15,118,40,105,99,46,25,7,9,0.5,0.5
2022-08-18T21:00:00,1456A,91.1319,29.6514,拉萨市,八廓街,,,,,,,,,,,,,,,,
2022-08-18T21:00:00,1457A,91.1221,29.6747,拉萨市,市环保局,,33,12,6,6,4,105,105,99,99,6,7,7,7,0.1,0.1
2022-08-18T21:00:00,1458A,91.0874,29.6475,拉萨市,区监测站,,38,11,6,0,0,119,119,112,112,4,4,8,8,0.2,0.2
2022-08-18T21:00:00,1459A,91.1774,29.6541,拉萨市,西藏大学,颗粒物(PM10),52,54,12,5,3,112,112,104,104,6,7,10,10,0.1,0.2
2022-08-18T21:00:00,1460A,90.9798,29.6588,拉萨市,区辐射站,,32,10,8,6,4,105,100,98,98,5,10,9,9,0.2,0.2
2022-08-18T21:00:00,1461A,91.0834,29.6292,拉萨市,拉萨火车站,,35,14,7,3,3,112,112,103,103,3,6,11,10,0.2,0.2
2022-08-18T21:00:00,1462A,108.882,34.2749,西安市,高压开关厂,颗粒物(PM10),51,51,83,6,36,247,93,200,162,16,20,3,5,0.5,0.7
2022-08-18T21:00:00,1463A,108.993,34.2629,西安市,兴庆小区,,47,47,73,18,37,216,91,186,153,16,18,5,6,0.4,0.7
2022-08-18T21:00:00,1464A,109.06,34.2572,西安市,纺织城,,44,44,74,12,34,205,92,167,139,15,24,4,7,0.4,0.7
2022-08-18T21:00:00,1465A,108.9356,34.2173,西安市,小寨,,38,38,60,9,27,246,98,204,169,14,21,2,2,0.4,0.7
2022-08-18T21:00:00,1466A,108.954,34.2713,西安市,市人民体育场,颗粒物(PM10),51,52,78,9,38,228,94,194,159,14,19,5,6,0.2,0.6
2022-08-18T21:00:00,1467A,108.8922,34.2322,西安市,高新西区,,44,44,70,8,37,265,98,214,174,10,19,6,6,0.5,0.8
2022-08-18T21:00:00,1468A,108.935,34.3474,西安市,经开区,颗粒物(PM10),55,60,71,8,35,180,91,159,136,9,12,4,4,0.3,0.6
2022-08-18T21:00:00,1469A,108.906,34.1546,西安市,长安区,颗粒物(PM10),51,52,95,13,35,283,107,228,190,6,25,5,5,0.4,0.7
2022-08-18T21:00:00,1470A,109.2,34.6575,西安市,阎良区,,,,,,,,,,,,,,,,
2022-08-18T21:00:00,1471A,109.2186,34.3731,西安市,临潼区,,39,39,74,16,38,182,90,161,139,17,26,3,5,0.4,0.7
2022-08-18T21:00:00,1472A,108.869,34.378,西安市,草滩(对照点),,27,26,67,4,35,182,85,150,126,12,16,7,7,0.7,1
2022-08-18T21:00:00,1473A,108.985,34.1978,西安市,曲江文化产业集团,,31,12,63,12,34,253,98,218,176,13,17,4,5,0.5,0.7
2022-08-18T21:00:00,1474A,109.051,34.3213,西安市,广运潭,颗粒物(PM10),66,82,78,10,35,176,95,158,135,12,14,6,8,0.5,0.8
2022-08-18T21:00:00,1476A,103.631,36.1031,兰州市,兰炼宾馆,颗粒物(PM10),71,91,45,26,18,131,96,123,118,20,18,5,4,0.4,0.3
2022-08-18T21:00:00,1477A,104.1373,35.9454,兰州市,榆中兰大校区(对照点),,,,,,,,,,,,,,,,
2022-08-18T21:00:00,1478A,103.8412,36.0726,兰州市,生物制品所,颗粒物(PM10),69,87,46,31,27,120,94,113,111,12,17,11,6,0.8,0.9
2022-08-18T21:00:00,1479A,103.831,36.0464,兰州市,铁路设计院,颗粒物(PM10),77,104,49,30,21,126,79,115,108,34,27,17,7,0.4,0.6
2022-08-18T21:00:00,1480A,101.748,36.6428,西宁市,市环境监测站,,,,,,,,,,,,,,,,
2022-08-18T21:00:00,1482A,101.834,36.5819,西宁市,四陆医院,,,,,,,,,,,,,,,,
2022-08-18T21:00:00,1483A,101.524,36.6867,西宁市,第五水厂(对照点),,37,30,20,16,11,125,116,107,107,19,14,10,9,0.8,0.5
2022-08-18T21:00:00,1484A,105.9512,38.6016,银川市,贺兰山马莲口(对照点),颗粒物(PM10),74,98,36,28,22,134,109,126,124,6,7,7,8,0.3,0.6
2022-08-18T21:00:00,1488A,106.2328,38.4975,银川市,贺兰山东路,颗粒物(PM10),79,108,33,34,21,131,93,115,110,12,12,4,5,0.3,0.5
2022-08-18T21:00:00,1489A,106.1358,38.5036,银川市,学院路,颗粒物(PM10),80,109,42,32,27,124,89,112,104,12,13,6,6,0.4,0.6
2022-08-18T21:00:00,1490A,87.5801,43.8303,乌鲁木齐市,监测站,,37,24,31,7,9,126,116,118,118,6,14,7,6,0.3,0.3
2022-08-18T21:00:00,1491A,87.6046,43.768,乌鲁木齐市,收费所,,36,30,39,11,12,132,114,122,122,2,6,8,9,0.4,0.3
2022-08-18T21:00:00,1492A,87.4754,43.9469,乌鲁木齐市,新疆农科院农场(对照点),颗粒物(PM10),58,66,53,9,10,94,82,89,89,7,22,8,10,0.7,0.7
2022-08-18T21:00:00,1493A,87.5525,43.8711,乌鲁木齐市,铁路局,,36,27,32,11,10,126,113,118,118,5,13,5,6,0.5,0.5
2022-08-18T21:00:00,1494A,87.6432,43.831,乌鲁木齐市,三十一中学,,,41,41,,,129,116,120,120,3,7,8,7,0.3,0.3
2022-08-18T21:00:00,1496A,87.7216,44.1747,乌鲁木齐市,米东区环保局,,38,38,61,7,22,120,96,108,108,6,24,5,9,0.3,0.4
2022-08-18T21:00:00,1508A,112.9433,27.8614,湘潭市,板塘,,39,39,32,27,16,101,79,94,88,19,14,12,5,0.5,0.4
2022-08-18T21:00:00,1511A,112.9118,27.8403,湘潭市,市监测站,,32,27,21,22,17,95,73,87,80,19,13,8,10,0.6,0.7
2022-08-18T21:00:00,1512A,112.8937,27.8728,湘潭市,江麓,,35,35,35,24,24,79,79,79,79,10,10,4,4,0.7,0.7
2022-08-18T21:00:00,1513A,112.9227,27.8159,湘潭市,岳塘,,33,30,29,23,19,97,78,91,87,8,8,8,8,0.4,0.4
2022-08-18T21:00:00,1514A,112.9074,27.9119,湘潭市,科大,,34,34,38,10,12,107,78,98,90,10,10,5,8,0.1,0.3
2022-08-18T21:00:00,1515A,113.135,27.8244,株洲市,天台山庄,,39,20,16,27,12,88,72,84,83,13,8,3,6,0.6,0.4
2022-08-18T21:00:00,1518A,113.095,27.8867,株洲市,株冶医院,,25,22,12,14,13,100,80,96,92,16,9,11,8,0.6,0.4
2022-08-18T21:00:00,1519A,113.167,27.8667,株洲市,市四中,,30,22,21,21,15,94,83,91,89,11,12,3,5,0.5,0.5
2022-08-18T21:00:00,1520A,113.143,27.8381,株洲市,火车站,,31,31,22,14,12,86,60,81,78,19,13,4,5,0.3,0.3
2022-08-18T21:00:00,1524A,113.13,27.8528,株洲市,市监测站,,29,29,20,16,15,99,84,94,94,13,8,4,6,0.4,0.3
2022-08-18T21:00:00,1552A,106.805,26.3003,贵阳市,桐木岭(对照点),,,,,,,,,,,,,,,,
2022-08-18T21:00:00,1559A,113.251,27.8336,株洲市,大京风景区(对照点),,29,19,20,20,14,74,39,68,62,9,8,3,4,0.6,0.6
2022-08-18T21:00:00,1562A,113.0048,27.9153,湘潭市,昭山,,29,22,18,20,16,97,69,93,86,19,14,8,9,0.5,0.4
2022-08-18T21:00:00,1564A,112.4876,27.9164,湘潭市,韶山(对照点),,26,26,25,9,11,105,53,94,89,13,14,8,10,0.9,0.9
2022-08-18T21:00:00,1585A,109.8756,40.6532,包头市,市环境监测站,,42,42,43,5,23,160,72,133,114,27,19,4,9,0.4,0.7
2022-08-18T21:00:00,1587A,109.9991,40.5842,包头市,包头八中,,47,47,40,5,27,170,79,140,126,25,18,2,9,0.4,0.7
2022-08-18T21:00:00,1588A,109.8538,40.6821,包头市,青山宾馆,,36,36,43,4,25,152,62,125,110,31,22,6,8,0.5,0.8
2022-08-18T21:00:00,1589A,109.8642,40.6288,包头市,惠龙物流,,46,46,47,14,22,156,78,133,116,23,17,8,12,0.5,0.8
2022-08-18T21:00:00,1590A,110.0377,40.5546,包头市,东河鸿龙湾,颗粒物(PM10),51,52,44,12,22,170,68,130,118,24,15,1,7,0.5,0.8
2022-08-18T21:00:00,1591A,110.0023,39.8129,鄂尔多斯市,综合楼,,45,45,25,7,10,130,103,118,117,18,16,5,12,0.6,0.8
2022-08-18T21:00:00,1592A,109.9486,39.8261,鄂尔多斯市,巴音孟克林场办事处,颗粒物(PM10),53,56,29,19,16,129,87,116,113,26,15,5,7,0.9,1
2022-08-18T21:00:00,1593A,109.7736,39.5986,鄂尔多斯市,康泽苑,,46,46,25,12,11,125,53,117,109,34,13,4,4,0.7,0.8
2022-08-18T21:00:00,1594A,109.8119,39.5989,鄂尔多斯市,华泰汽车城,,39,39,29,17,15,123,63,109,101,32,14,6,7,0.8,0.9
2022-08-18T21:00:00,1595A,109.9734,39.7884,鄂尔多斯市,奥林花园,,48,48,31,19,15,132,102,121,119,16,15,5,7,0.9,1.1
2022-08-18T21:00:00,1596A,122.2414,40.6592,营口市,学府南路,,,,,,,,,,,,,,,,
2022-08-18T21:00:00,1597A,122.2703,40.7094,营口市,大庆路,,36,36,30,20,16,116,105,108,96,15,18,5,7,0.8,0.7
2022-08-18T21:00:00,1598A,122.215,40.6511,营口市,镜湖西路,,34,28,27,14,15,122,107,122,96,12,21,3,5,0.9,1
2022-08-18T21:00:00,1599A,122.167,40.6655,营口市,西炮台,,35,33,29,21,18,137,112,137,102,10,14,9,10,1.1,1.3
2022-08-18T21:00:00,1600A,124.3303,40.0625,丹东市,江湾东路,,,36,29,18,16,91,82,87,85,,14,8,10,0.7,0.7
2022-08-18T21:00:00,1601A,124.4256,40.1503,丹东市,临江后街,,,,,,,,,,,,,,,,
2022-08-18T21:00:00,1602A,124.3933,40.1461,丹东市,元宝山,,26,26,15,12,14,86,70,83,81,13,14,5,5,0.8,0.6
2022-08-18T21:00:00,1603A,124.3633,40.1092,丹东市,民主桥,,22,22,23,13,13,87,63,83,80,9,14,7,9,0.8,0.8
2022-08-18T21:00:00,1604A,122.0303,41.1489,盘锦市,开发区,,27,16,27,16,15,100,86,96,90,13,14,3,5,0.7,0.8
2022-08-18T21:00:00,1605A,122.0485,41.0883,盘锦市,兴隆台,,49,16,28,34,28,121,93,114,100,13,14,7,7,0.7,0.7
2022-08-18T21:00:00,1606A,121.8297,41.1028,盘锦市,新生街道,,,,,,,,,,,,,,,,
2022-08-18T21:00:00,1607A,120.9092,40.7136,葫芦岛市,龙港区,细颗粒物(PM2.5),59,30,23,42,16,129,118,110,110,11,15,8,9,0.5,0.5
2022-08-18T21:00:00,1608A,120.8392,40.7514,葫芦岛市,化工街,细颗粒物(PM2.5),65,4,27,47,25,125,123,118,118,10,19,5,5,0.4,0.7
2022-08-18T21:00:00,1609A,120.8341,40.7073,葫芦岛市,新区,,40,29,25,20,15,132,126,124,124,10,16,8,8,0.7,0.7
2022-08-18T21:00:00,1610A,120.8695,40.7677,葫芦岛市,东城区,,35,19,29,20,16,115,112,106,106,10,23,5,6,0.4,0.5
2022-08-18T21:00:00,1611A,118.5819,24.9117,泉州市,涂山街,,20,20,32,10,12,169,47,118,89,16,16,10,12,0.5,0.5
2022-08-18T21:00:00,1612A,118.5972,24.8978,泉州市,津头埔,,23,23,30,12,14,145,40,98,76,20,22,8,10,0.4,0.4
2022-08-18T21:00:00,1613A,118.6663,24.9424,泉州市,万安,,18,18,28,6,13,150,36,96,75,9,8,7,8,0.5,0.5
2022-08-18T21:00:00,1614A,118.6117,24.9604,泉州市,清源山(对照点),,,,,,,,,,,,,,,,
2022-08-18T21:00:00,1616A,117.6795,36.229,济南市,技术学院,,45,39,48,20,24,189,143,176,173,15,18,6,6,0.9,0.9
2022-08-18T21:00:00,1618A,118.3429,35.0532,临沂市,沂河小区,,41,41,34,23,18,147,104,141,132,14,10,10,11,0.4,0.3
2022-08-18T21:00:00,1619A,118.295,35.0583,临沂市,鲁南制药厂,,35,29,27,12,16,155,112,150,141,15,15,9,12,0.6,0.6
2022-08-18T21:00:00,1620A,118.2794,34.9976,临沂市,新光毛纺厂,颗粒物(PM10),51,51,33,16,18,144,93,137,127,25,15,21,12,0.5,0.5
2022-08-18T21:00:00,1621A,118.3956,35.0888,临沂市,河东保险公司,,29,29,30,17,15,147,92,141,130,19,10,6,6,0.5,0.5
2022-08-18T21:00:00,1622A,116.3032,37.4674,德州市,儿童乐园,颗粒物(PM10),52,53,57,33,33,193,140,177,174,20,15,10,14,0.7,0.9
2022-08-18T21:00:00,1624A,116.2991,37.4451,德州市,监理站,颗粒物(PM10),53,56,61,35,32,188,134,172,169,18,12,14,17,0.7,0.7
2022-08-18T21:00:00,1625A,115.9848,36.4372,聊城市,区政府,颗粒物(PM10),51,51,51,25,23,177,137,164,162,13,13,8,8,1.0,0.9
2022-08-18T21:00:00,1628A,118.0062,37.3803,滨州市,市环保局,颗粒物(PM10),52,53,51,31,30,184,116,169,142,17,21,7,13,0.3,0.5
2022-08-18T21:00:00,1629A,118.0018,37.3617,滨州市,第二水厂,颗粒物(PM10),53,56,50,27,24,176,116,162,138,10,19,5,10,0.7,0.9
2022-08-18T21:00:00,1630A,117.9776,37.393,滨州市,北中新校,颗粒物(PM10),51,52,44,27,25,182,127,170,148,12,18,7,13,0.5,0.7
2022-08-18T21:00:00,1631A,118.0414,36.8103,淄博市,人民公园,,47,39,57,32,31,153,149,147,147,11,22,9,9,0.5,0.8
2022-08-18T21:00:00,1632A,118.0253,36.8406,淄博市,东风化工厂,,,,,,,,,,,,,,,,
2022-08-18T21:00:00,1633A,117.8525,36.4847,淄博市,双山,,50,34,41,19,22,178,159,172,172,9,12,9,10,0.3,0.6
2022-08-18T21:00:00,1634A,117.9592,36.6331,淄博市,气象站,,50,42,46,19,24,167,157,156,156,9,14,9,11,0.2,0.4
2022-08-18T21:00:00,1635A,118.3092,36.8194,淄博市,莆田园,,48,34,52,22,31,151,151,143,143,10,21,5,8,0.3,1
2022-08-18T21:00:00,1636A,117.8661,36.805,淄博市,三金集团,,,,,,,,,,,,,,,,
2022-08-18T21:00:00,1637A,117.558,34.8438,枣庄市,市中区政府,,39,36,39,19,18,182,124,173,166,14,17,4,7,0.3,0.4
2022-08-18T21:00:00,1638A,117.2852,34.7837,枣庄市,薛城环保局,颗粒物(PM10),56,61,50,34,23,179,114,167,157,24,19,11,13,0.5,0.5
2022-08-18T21:00:00,1639A,117.5852,34.7745,枣庄市,峄城区政府,,46,46,51,22,23,187,117,172,162,14,14,7,10,0.5,0.5
2022-08-18T21:00:00,1640A,117.7276,34.5578,枣庄市,台儿庄区环保局,细颗粒物(PM2.5),55,56,38,39,18,196,104,178,163,19,14,16,13,0.9,0.9
2022-08-18T21:00:00,1641A,117.4518,35.0992,枣庄市,山亭区环保局,,,44,39,27,23,188,,183,183,12,11,12,15,0.8,0.8
2022-08-18T21:00:00,1642A,121.2514,37.5639,烟台市,开发区,,32,29,36,9,15,134,101,126,118,4,15,5,8,0.4,0.6
2022-08-18T21:00:00,1643A,121.3719,37.5433,烟台市,轴承厂,,34,7,25,7,15,131,106,124,119,2,7,7,7,0.1,0.2
2022-08-18T21:00:00,1644A,121.3181,37.5436,烟台市,西郊化工站,,33,12,28,5,11,132,103,124,117,8,17,7,8,0.3,0.4
2022-08-18T21:00:00,1645A,121.4478,37.4822,烟台市,莱山环保局,,29,12,23,3,11,128,91,122,116,3,12,5,8,0.3,0.4
2022-08-18T21:00:00,1646A,121.2611,37.4967,烟台市,福山环保局,,30,19,40,7,14,118,93,110,104,7,23,7,8,0.0,0.2
2022-08-18T21:00:00,1648A,119.12,36.7019,潍坊市,仲裁委,,,,,,,,,,,,,,,,
2022-08-18T21:00:00,1650A,119.1437,36.7023,潍坊市,环保局,,30,22,43,11,23,180,95,164,146,7,12,4,5,0.3,0.6
2022-08-18T21:00:00,1652A,119.1936,36.7729,潍坊市,寒亭监测站,,,,,,,,,,,,,,,,
2022-08-18T21:00:00,1653A,116.6251,35.4302,济宁市,火炬城,,45,45,47,29,22,190,135,175,168,12,12,5,7,0.8,0.7
2022-08-18T21:00:00,1655A,116.5491,35.4042,济宁市,电化厂,,,52,48,29,22,192,140,184,172,,5,13,11,1.0,0.8
2022-08-18T21:00:00,1656A,117.1437,36.1937,泰安市,监测站,颗粒物(PM10),51,51,51,29,32,170,137,160,157,11,13,8,9,0.4,0.5
2022-08-18T21:00:00,1657A,117.0885,36.2017,泰安市,人口学校,颗粒物(PM10),53,56,45,28,24,158,122,149,146,14,12,8,10,0.4,0.3
2022-08-18T21:00:00,1658A,117.1089,36.1758,泰安市,电力学校,颗粒物(PM10),51,51,48,32,24,163,123,152,148,12,11,7,8,0.3,0.3
2022-08-18T21:00:00,1659A,119.471,35.4209,日照市,监测站,,27,27,23,11,14,125,74,119,95,17,30,3,7,0.4,0.5
2022-08-18T21:00:00,1660A,119.523,35.4216,日照市,市政府广场,,28,27,25,12,11,130,88,119,98,9,15,4,5,0.4,0.4
2022-08-18T21:00:00,1661A,119.5587,35.4044,日照市,港务局,,32,14,23,5,10,142,101,136,107,2,7,3,4,0.3,0.3
2022-08-18T21:00:00,1662A,122.1214,37.4236,威海市,华夏技校,,28,19,23,12,16,123,88,119,108,4,6,5,5,0.2,0.3
2022-08-18T21:00:00,1663A,122.0508,37.5236,威海市,山大分校,,31,7,19,7,13,132,98,128,118,7,10,5,6,0.2,0.3
2022-08-18T21:00:00,1664A,122.1067,37.5072,威海市,市监测站,,,,25,,21,127,,124,115,5,10,6,5,0.3,0.5
2022-08-18T21:00:00,1665A,118.5019,37.4658,东营市,西城阳光环保公司,,,,,,,,,,,,,,,,
2022-08-18T21:00:00,1666A,118.6614,37.4309,东营市,市环保局,,37,36,42,12,21,176,117,162,153,7,11,10,14,0.4,0.6
2022-08-18T21:00:00,1669A,113.5824,24.7733,韶关市,市八中,,,25,22,,8,122,59,96,94,26,16,7,13,0.5,0.6
2022-08-18T21:00:00,1670A,113.5556,24.8082,韶关市,碧湖山庄,,,,,,,,,,,,,,,,
2022-08-18T21:00:00,1671A,113.5917,24.7972,韶关市,园林处,,19,15,26,6,8,96,59,84,82,22,13,13,15,0.6,0.6
2022-08-18T21:00:00,1672A,113.6735,24.7791,韶关市,韶关学院,,39,39,19,25,11,64,40,58,51,16,11,7,10,0.6,0.3
2022-08-18T21:00:00,1673A,113.5971,24.6863,韶关市,曲江监测站,,31,31,22,15,7,101,54,90,84,20,13,8,10,0.7,0.6
2022-08-18T21:00:00,1674A,116.6794,23.3667,汕头市,金平子站,,14,10,10,2,3,59,43,56,54,7,9,8,9,0.4,0.4
2022-08-18T21:00:00,1675A,116.7244,23.3633,汕头市,龙湖子站,,13,7,10,2,4,60,40,58,55,10,9,8,8,0.5,0.5
2022-08-18T21:00:00,1676A,116.7258,23.2775,汕头市,濠江子站,,11,6,9,3,4,66,34,59,56,10,10,10,10,0.6,0.5
2022-08-18T21:00:00,1677A,116.7519,23.4714,汕头市,澄海子站,,13,4,11,7,7,59,41,55,53,13,9,5,5,0.6,0.6
2022-08-18T21:00:00,1678A,116.6092,23.2539,汕头市,潮阳子站,,15,9,21,2,4,63,45,57,57,8,10,10,11,0.6,0.6
2022-08-18T21:00:00,1679A,116.4069,23.2533,汕头市,潮南子站,,,,,,,,,,,,,,,,
2022-08-18T21:00:00,1680A,110.3539,21.2706,湛江市,湛江影剧院,,19,19,20,9,9,84,44,76,73,19,11,7,12,0.7,0.6
2022-08-18T21:00:00,1681A,110.3928,21.2228,湛江市,市环境监测站,,22,22,20,7,10,86,46,73,69,19,13,7,15,0.6,0.5
2022-08-18T21:00:00,1682A,110.4019,21.1997,湛江市,环保局宿舍,,20,20,17,7,7,75,37,64,59,26,14,6,7,0.6,0.6
2022-08-18T21:00:00,1683A,110.4111,21.2028,湛江市,霞山游泳场,,18,11,14,8,8,82,57,66,63,14,12,6,10,0.5,0.5
2022-08-18T21:00:00,1684A,110.3316,21.2679,湛江市,麻章区环保局,,22,22,24,10,14,80,46,71,68,11,12,5,27,0.5,0.5
2022-08-18T21:00:00,1685A,110.4558,21.2567,湛江市,坡头区环保局,,23,14,18,10,8,94,73,80,80,6,13,6,12,0.5,0.5
2022-08-18T21:00:00,1686A,111.0286,21.4688,茂名市,电白南海,,31,31,23,9,11,104,76,90,89,14,16,4,5,0.5,0.5
2022-08-18T21:00:00,1687A,110.9294,21.6533,茂名市,茂石化七小,,22,22,20,14,12,91,69,74,72,12,12,6,8,0.8,0.7
2022-08-18T21:00:00,1688A,110.9107,21.6687,茂名市,健康路,,23,17,15,8,7,98,73,81,81,8,11,7,11,0.8,0.8
2022-08-18T21:00:00,1689A,110.8592,21.6828,茂名市,高岭,,23,12,19,14,15,76,73,72,72,9,13,8,19,0.5,0.5
2022-08-18T21:00:00,1690A,116.1231,24.3284,梅州市,梅江月梅,,16,10,18,4,10,56,49,54,52,7,11,4,4,0.3,0.3
2022-08-18T21:00:00,1691A,116.0797,24.2719,梅州市,梅县新城,,12,1,19,7,8,69,38,59,50,13,11,4,4,0.5,0.5
2022-08-18T21:00:00,1692A,116.1248,24.2654,梅州市,环境监控中心,,18,14,20,12,10,60,26,54,45,19,15,5,5,0.4,0.4
2022-08-18T21:00:00,1693A,115.3653,22.775,汕尾市,市环保局,,17,2,13,4,4,54,53,52,52,5,7,5,5,0.5,0.5
2022-08-18T21:00:00,1694A,115.3706,22.7898,汕尾市,市政府,,18,10,11,2,3,58,55,54,54,5,7,5,5,0.5,0.5
2022-08-18T21:00:00,1695A,115.3622,22.7925,汕尾市,新城中学,,17,0,14,4,4,60,54,56,56,4,4,6,6,0.5,0.4
2022-08-18T21:00:00,1696A,114.6778,23.7569,河源市,源西(对照点),,24,24,20,7,5,81,19,65,51,24,10,3,3,0.6,0.6
2022-08-18T21:00:00,1697A,114.6944,23.7586,河源市,东埔,,12,12,17,6,6,64,32,55,47,10,12,4,4,0.6,0.5
2022-08-18T21:00:00,1698A,114.6892,23.7233,河源市,老城,,27,27,27,5,7,74,27,64,51,10,12,3,3,0.7,0.7
2022-08-18T21:00:00,1699A,111.9797,21.8593,阳江市,鸳鸯湖(对照点),,,,,,,,,,,,,,,,
2022-08-18T21:00:00,1700A,111.9508,21.8536,阳江市,南恩路,,,,,,,,,,,,,,,,
2022-08-18T21:00:00,1701A,111.9491,21.8658,阳江市,马南垌,,23,11,14,5,8,93,72,85,84,5,11,5,5,0.6,0.5
2022-08-18T21:00:00,1702A,113.0426,23.691,清远市,环保大楼(对照点),,18,18,14,10,7,99,50,86,81,25,12,4,4,0.5,0.4
2022-08-18T21:00:00,1703A,113.0208,23.7106,清远市,凤城街办,,23,23,13,12,7,75,42,66,64,14,11,5,5,0.8,0.6
2022-08-18T21:00:00,1705A,116.6367,23.6719,潮州市,西园路(对照点),,23,23,18,4,8,80,42,60,60,10,9,5,5,0.8,0.8
2022-08-18T21:00:00,1706A,116.6447,23.6706,潮州市,档案局,,20,20,20,5,10,88,44,71,65,12,11,8,10,0.6,0.6
2022-08-18T21:00:00,1708A,116.3701,23.5345,揭阳市,新兴,,12,2,14,7,6,91,38,67,66,10,7,6,6,0.7,0.5
2022-08-18T21:00:00,1709A,116.3264,23.5443,揭阳市,西马,,14,14,21,4,7,94,41,66,65,8,8,5,5,0.8,0.6
2022-08-18T21:00:00,1710A,116.3611,23.5626,揭阳市,东兴,,17,17,21,5,7,99,42,70,70,9,10,5,6,0.6,0.5
2022-08-18T21:00:00,1711A,116.4151,23.5294,揭阳市,渔湖,,,5,20,,10,91,36,66,65,7,9,4,4,0.5,0.4
2022-08-18T21:00:00,1712A,112.0392,22.9169,云浮市,新市府(对照点),,,,,,,,,,,,,,,,
2022-08-18T21:00:00,1713A,112.0369,22.9394,云浮市,市监测站,,,,,,,,,,,,,,,,
2022-08-18T21:00:00,1714A,112.0539,22.9539,云浮市,牧羊,,39,39,25,10,10,72,40,58,57,38,22,16,15,0.7,0.6
2022-08-18T21:00:00,1715A,102.575,24.3711,玉溪市,东风水库,,37,37,24,10,11,105,44,90,83,20,14,7,5,1.6,1.1
2022-08-18T21:00:00,1718A,115.4208,35.2464,菏泽市,气象局,颗粒物(PM10),52,53,44,35,25,177,129,165,160,10,10,5,5,0.6,0.5
2022-08-18T21:00:00,1719A,115.4747,35.2375,菏泽市,市政协,颗粒物(PM10),56,61,48,30,20,181,142,169,165,9,11,5,6,0.4,0.4
2022-08-18T21:00:00,1720A,115.455,35.27,菏泽市,菏泽学院,,,,,,,,,,,,,,,,
2022-08-18T21:00:00,1721A,113.3819,40.1097,大同市,果树场(对照点),,,,,,,,,,,,,,,,
2022-08-18T21:00:00,1723A,113.2994,40.0758,大同市,云冈宾馆,颗粒物(PM10),52,53,29,21,12,94,22,90,48,42,22,8,15,1.4,1
2022-08-18T21:00:00,1724A,113.3444,40.0917,大同市,大同大学,,31,31,20,19,10,99,25,97,60,31,15,7,8,0.8,0.6
2022-08-18T21:00:00,1725A,113.2661,40.1269,大同市,安家小村,,32,32,24,17,10,95,23,90,58,45,19,12,12,1.0,0.8
2022-08-18T21:00:00,1726A,113.2711,40.0844,大同市,教育学院,,40,40,23,16,13,91,12,88,46,51,21,11,13,1.2,0.8
2022-08-18T21:00:00,1727A,113.1147,36.1547,长治市,清华站,颗粒物(PM10),52,54,38,27,23,115,108,110,110,9,10,9,9,0.7,0.6
2022-08-18T21:00:00,1728A,113.1031,36.1989,长治市,监测站,,44,44,40,29,19,121,109,115,115,13,8,9,9,0.8,0.8
2022-08-18T21:00:00,1730A,113.0886,36.2125,长治市,审计局,,46,46,36,29,22,127,120,123,123,13,12,9,9,1.0,0.9
2022-08-18T21:00:00,1731A,113.0844,36.1856,长治市,长治八中,细颗粒物(PM2.5),52,45,40,36,21,117,115,114,114,19,13,11,10,0.4,0.6
2022-08-18T21:00:00,1733A,111.5531,36.0783,临汾市,临钢医院,,43,35,38,30,26,176,68,148,126,24,25,3,4,0.9,0.9
2022-08-18T21:00:00,1734A,111.5028,36.0714,临汾市,技工学校,,43,43,39,20,26,185,67,154,127,27,18,4,4,0.7,0.7
2022-08-18T21:00:00,1735A,111.5169,36.0822,临汾市,工商学校,,,,,,,,,,,,,,,,
2022-08-18T21:00:00,1736A,111.5018,36.0855,临汾市,市委,细颗粒物(PM2.5),54,47,42,38,34,187,67,159,132,23,17,4,4,0.5,0.5
2022-08-18T21:00:00,1738A,113.5758,37.8572,阳泉市,市中心,细颗粒物(PM2.5),67,76,78,48,39,137,28,120,80,52,24,10,19,1.5,1.4
2022-08-18T21:00:00,1739A,113.4894,37.8731,阳泉市,赛鱼,颗粒物(PM10),87,123,93,39,35,128,38,111,86,36,27,4,12,1.4,1.4
2022-08-18T21:00:00,1740A,113.5819,37.8486,阳泉市,南庄,颗粒物(PM10),78,106,92,47,41,134,32,126,75,44,23,10,20,1.5,1.5
2022-08-18T21:00:00,1741A,113.6292,37.8531,阳泉市,白羊墅,,,,,,,,,,,,,,,,
2022-08-18T21:00:00,1742A,113.5614,37.8703,阳泉市,平坦,"颗粒物(PM10),细颗粒物(PM2.5)",62,74,79,44,34,133,56,118,94,37,25,9,19,1.7,1.6
2022-08-18T21:00:00,1743A,113.5158,37.8392,阳泉市,大阳泉,,34,34,66,17,40,133,75,114,95,16,16,6,13,0.7,1.3
2022-08-18T21:00:00,1744A,118.9233,42.2816,赤峰市,松山一中,,28,13,24,7,14,134,87,127,90,25,21,10,10,0.7,0.6
2022-08-18T21:00:00,1745A,118.9576,42.2728,赤峰市,哈达街,,35,11,25,11,15,141,109,129,103,15,17,10,10,0.5,0.4
2022-08-18T21:00:00,1746A,118.8788,42.2554,赤峰市,天义路,,29,16,21,2,9,133,92,126,96,19,19,12,11,0.9,0.7
2022-08-18T21:00:00,1748A,123.044,41.1196,鞍山市,深沟寺,,29,21,24,13,13,106,92,92,84,5,8,7,7,0.4,0.6
2022-08-18T21:00:00,1749A,123.011,41.0931,鞍山市,太阳城,,29,26,28,14,11,106,91,92,81,9,13,5,6,0.7,0.9
2022-08-18T21:00:00,1750A,123.0485,41.1442,鞍山市,太平,,26,26,30,14,15,107,80,94,78,6,9,5,6,0.8,0.9
2022-08-18T21:00:00,1751A,122.9642,41.0971,鞍山市,铁西三道街,,35,35,42,17,16,112,81,94,76,11,19,5,8,0.8,1
2022-08-18T21:00:00,1752A,122.9341,41.0833,鞍山市,铁西工业园区,,33,33,39,15,16,109,79,95,81,16,21,5,7,0.8,1.1
2022-08-18T21:00:00,1753A,123.022,41.0821,鞍山市,明达新区,,30,15,32,20,16,104,93,94,83,6,10,5,6,0.6,0.7
2022-08-18T21:00:00,1754A,123.1289,41.0228,鞍山市,千山(对照点),,,,,,,,,,,,,,,,
2022-08-18T21:00:00,1755A,123.7977,41.8491,抚顺市,望花区,,24,24,41,14,21,125,76,110,86,12,24,6,8,0.4,0.7
2022-08-18T21:00:00,1756A,123.9161,41.8822,抚顺市,顺城区,,30,30,41,19,22,139,76,118,94,12,25,8,10,0.6,0.5
2022-08-18T21:00:00,1757A,124.0436,41.8611,抚顺市,东洲区,,36,36,35,19,17,140,82,114,96,7,10,3,6,0.9,0.7
2022-08-18T21:00:00,1758A,123.9247,41.8642,抚顺市,新抚区,,28,26,49,19,21,137,68,117,92,18,20,5,5,0.5,0.6
2022-08-18T21:00:00,1759A,124.0972,41.8961,抚顺市,大伙房水库,,37,37,25,14,13,144,86,120,100,5,10,7,10,0.5,0.6
2022-08-18T21:00:00,1760A,123.7086,41.8391,抚顺市,沈抚新城,,30,30,43,14,19,129,68,109,86,14,20,8,9,0.6,0.7
2022-08-18T21:00:00,1761A,123.8275,41.3064,本溪市,大峪,,28,16,38,6,17,109,89,94,86,6,12,5,5,0.5,0.8
2022-08-18T21:00:00,1762A,123.7567,41.3325,本溪市,溪湖,,27,27,52,12,24,100,75,84,76,16,19,9,9,0.6,1
2022-08-18T21:00:00,1763A,123.7169,41.3094,本溪市,彩屯,细颗粒物(PM2.5),58,58,54,41,36,75,35,61,45,49,32,32,22,2.6,2.1
2022-08-18T21:00:00,1764A,123.7669,41.2864,本溪市,东明,,27,16,37,12,20,100,84,90,84,10,20,5,5,0.5,0.7
2022-08-18T21:00:00,1765A,123.7992,41.2664,本溪市,新立屯,,27,17,26,10,16,101,85,91,83,7,14,5,5,0.5,0.7
2022-08-18T21:00:00,1766A,123.8142,41.3472,本溪市,威宁,,19,17,36,7,17,104,60,90,72,2,12,9,9,0.5,0.8
2022-08-18T21:00:00,1767A,121.1115,41.0879,锦州市,南山,,35,12,28,15,21,117,109,97,97,7,23,4,6,0.5,0.6
2022-08-18T21:00:00,1768A,121.0533,40.8434,锦州市,开发区,,39,14,40,24,20,132,124,121,121,14,20,6,26,0.8,1
2022-08-18T21:00:00,1769A,121.1836,41.1119,锦州市,百股街道,,38,16,30,15,19,127,120,114,114,7,18,4,9,0.6,0.8
2022-08-18T21:00:00,1770A,121.1178,41.1222,锦州市,天安街道,,37,19,31,13,16,128,118,107,107,2,14,6,10,0.8,0.9
2022-08-18T21:00:00,1771A,121.1303,41.1386,锦州市,北湖公园,,35,16,28,14,18,126,111,102,102,6,20,4,6,0.6,0.7
2022-08-18T21:00:00,1772A,126.54,43.8622,吉林市,哈达湾,,37,37,23,21,14,114,62,107,89,19,12,6,6,0.7,0.6
2022-08-18T21:00:00,1773A,126.5844,43.8358,吉林市,东局子,,32,32,25,16,11,110,61,102,83,22,13,5,5,0.7,0.7
2022-08-18T21:00:00,1774A,126.5052,43.8245,吉林市,电力学院,,31,31,22,15,12,112,58,104,83,20,13,7,7,0.7,0.6
2022-08-18T21:00:00,1775A,126.6133,43.8972,吉林市,江北,,26,26,19,15,10,112,68,102,86,11,11,5,5,0.8,0.7
2022-08-18T21:00:00,1776A,126.555,43.8306,吉林市,江南公园,,31,31,25,20,14,112,74,105,87,14,14,5,4,0.8,0.7
2022-08-18T21:00:00,1778A,126.7061,43.7133,吉林市,丰满(对照点),,,,,,,,,,,,,,,,
2022-08-18T21:00:00,1779A,123.9305,47.3636,齐齐哈尔市,安居小区,,27,27,22,7,6,82,43,75,53,19,12,6,5,0.4,0.5
2022-08-18T21:00:00,1780A,123.9488,47.3386,齐齐哈尔市,中心广场,,21,21,19,3,4,82,45,76,55,20,12,5,4,0.3,0.3
2022-08-18T21:00:00,1781A,123.9483,47.3227,齐齐哈尔市,农牧车辆厂,,34,34,33,6,5,88,47,77,59,11,8,4,4,0.4,0.4
2022-08-18T21:00:00,1783A,123.945,47.2988,齐齐哈尔市,市环境监测站,,29,29,19,7,6,91,47,80,63,16,9,2,2,0.2,0.2
2022-08-18T21:00:00,1784A,129.61,44.561,牡丹江市,环保大楼,,31,31,17,7,6,94,46,85,78,27,15,5,5,0.6,0.4
2022-08-18T21:00:00,1785A,129.6115,44.5782,牡丹江市,文化广场,,42,42,25,23,10,95,51,85,80,25,17,2,2,0.7,0.5
2022-08-18T21:00:00,1786A,129.5904,44.5963,牡丹江市,第一医院,,29,29,10,11,6,86,20,78,69,43,14,4,4,1.1,0.7
2022-08-18T21:00:00,1787A,129.6364,44.6075,牡丹江市,机车工厂,,38,38,23,10,7,95,41,86,78,23,14,16,12,0.6,0.4
2022-08-18T21:00:00,1788A,129.6386,44.5462,牡丹江市,第一中学,,37,37,22,20,8,91,33,82,70,24,15,5,4,0.6,0.4
2022-08-18T21:00:00,1789A,124.81117,46.03138,大庆市,大同区,,41,41,30,18,13,99,52,89,70,12,8,5,5,0.3,0.3
2022-08-18T21:00:00,1790A,125.129,46.533,大庆市,龙凤区,,25,21,23,5,9,94,78,84,80,5,7,4,4,0.2,0.3
2022-08-18T21:00:00,1791A,124.902,46.408,大庆市,红岗区,,20,16,14,4,8,89,64,82,74,12,8,3,3,0.3,0.3
2022-08-18T21:00:00,1792A,125.153,46.586,大庆市,萨尔图区,,24,7,25,8,14,86,75,76,74,5,11,4,5,0.2,0.3
2022-08-18T21:00:00,1793A,124.9042,46.6215,大庆市,让胡路区,,20,20,15,7,7,79,56,74,71,11,8,2,2,0.5,0.5
2022-08-18T21:00:00,1794A,118.3606,31.3519,芜湖市,监测站,,50,50,43,34,29,169,157,158,156,24,16,4,4,0.6,0.7
2022-08-18T21:00:00,1795A,118.3714,31.4134,芜湖市,科创中心,臭氧1小时,59,51,44,35,30,184,167,166,159,23,15,8,8,0.7,0.7
2022-08-18T21:00:00,1796A,118.3673,31.3131,芜湖市,四水厂,颗粒物(PM10),54,58,43,35,29,178,162,159,153,17,14,8,7,0.8,0.8
2022-08-18T21:00:00,1797A,118.4022,31.3839,芜湖市,济民医院(对照点),,,,,,,,,,,,,,,,
2022-08-18T21:00:00,1798A,118.5092,31.6837,马鞍山市,湖东路四小,,48,41,38,28,22,192,151,161,158,14,13,2,2,0.7,0.8
2022-08-18T21:00:00,1799A,118.5024,31.6449,马鞍山市,开发区,颗粒物(PM10),62,73,50,29,30,195,120,159,148,28,24,5,5,0.8,1
2022-08-18T21:00:00,1800A,118.5228,31.7231,马鞍山市,慈湖,,47,37,43,26,27,197,150,162,156,16,16,3,8,0.8,0.9
2022-08-18T21:00:00,1801A,118.48,31.6928,马鞍山市,马钢动力厂,,,,,,,,,,,,,,,,
2022-08-18T21:00:00,1802A,118.6245,31.7241,马鞍山市,濮塘(对照点),,46,46,36,28,22,199,137,151,150,9,10,5,4,0.6,0.7
2022-08-18T21:00:00,1803A,115.9872,29.6815,九江市,十里,,26,26,36,16,27,195,72,144,111,16,18,7,10,0.9,1
2022-08-18T21:00:00,1804A,115.9584,29.7046,九江市,茅山头,,32,32,33,22,22,171,67,132,105,16,19,6,6,0.7,0.8
2022-08-18T21:00:00,1805A,115.9877,29.7295,九江市,西园,,33,33,35,21,18,177,87,145,115,18,25,10,12,0.7,0.9
2022-08-18T21:00:00,1806A,116.0172,29.6547,九江市,五七二七厂,,34,29,34,16,21,161,106,129,110,7,14,5,6,0.5,0.7
2022-08-18T21:00:00,1808A,115.9114,29.6038,九江市,综合工业园,,35,35,35,14,22,150,69,113,103,18,20,5,5,0.7,0.7
2022-08-18T21:00:00,1809A,116.0721,29.7535,九江市,石化总厂,细颗粒物(PM2.5),55,47,32,39,17,123,87,115,109,24,17,12,5,0.8,0.7
2022-08-18T21:00:00,1810A,115.9773,29.5698,九江市,庐山气象台(对照点),,33,25,25,13,20,142,105,128,106,4,4,6,8,0.4,0.5
2022-08-18T21:00:00,1811A,112.3628,34.6692,洛阳市,中信二小,,,,,,,,,,,,,,,,
2022-08-18T21:00:00,1812A,112.3931,34.6516,洛阳市,市委党校,细颗粒物(PM2.5),68,56,53,49,42,159,114,142,139,13,13,3,3,0.5,0.5
2022-08-18T21:00:00,1814A,112.4657,34.6871,洛阳市,豫西宾馆,颗粒物(PM10),64,77,61,44,30,165,121,154,149,18,18,2,4,0.5,0.5
2022-08-18T21:00:00,1815A,112.494,34.6886,洛阳市,河南林校,颗粒物(PM10),55,60,50,37,30,169,127,158,154,12,11,2,4,0.6,0.5
2022-08-18T21:00:00,1816A,112.3844,34.623,洛阳市,开发区管委会,颗粒物(PM10),56,61,54,39,34,190,148,177,174,7,10,3,2,0.6,0.6
2022-08-18T21:00:00,1817A,112.4267,34.6258,洛阳市,市委新办公区,颗粒物(PM10),59,67,56,41,34,167,123,155,151,13,12,5,7,0.8,0.7
2022-08-18T21:00:00,1818A,114.4839,36.0621,安阳市,棉研所(对照点),,,,,,,,,,,,,,,,
2022-08-18T21:00:00,1819A,114.3551,36.1017,安阳市,红庙街,颗粒物(PM10),57,64,66,19,26,152,110,140,136,12,20,2,5,0.4,0.5
2022-08-18T21:00:00,1820A,114.361,36.0681,安阳市,银杏小区,,,56,65,,26,154,113,142,139,6,20,3,4,0.5,0.6
2022-08-18T21:00:00,1824A,114.3389,34.7781,开封市,肿瘤医院,颗粒物(PM10),55,59,48,20,17,152,108,141,137,16,10,2,2,0.3,0.4
2022-08-18T21:00:00,1826A,114.2885,34.7965,开封市,世纪星幼儿园,,,,,,,,,,,,,,,,
2022-08-18T21:00:00,1828A,113.227,35.2125,焦作市,市环保局,颗粒物(PM10),51,52,51,27,29,177,110,158,154,10,9,1,3,0.5,0.7
2022-08-18T21:00:00,1829A,113.2464,35.1764,焦作市,高新区政府（停运20220628）,,,,,,,,,,,,,,,,
2022-08-18T21:00:00,1830A,113.1992,35.2590,焦作市,影视城(对照点),,,,,,,,,,,,,,,,
2022-08-18T21:00:00,1832A,113.3257,33.742,平顶山市,新华旅馆,,40,40,39,24,27,130,82,124,113,17,12,3,4,0.2,0.3
2022-08-18T21:00:00,1833A,113.2919,33.737,平顶山市,规划设计院,,46,46,41,22,19,136,89,131,122,12,9,2,4,0.3,0.4
2022-08-18T21:00:00,1834A,113.182,33.774,平顶山市,平顶山工学院,,,42,32,21,18,134,,133,133,,17,3,17,0.4,0.9
2022-08-18T21:00:00,1835A,111.1922,34.7752,三门峡市,市政府,颗粒物(PM10),55,59,56,35,35,150,148,126,126,10,10,2,3,0.8,0.8
2022-08-18T21:00:00,1836A,111.1587,34.7942,三门峡市,开发区,细颗粒物(PM2.5),52,50,61,36,37,149,135,129,129,10,10,3,3,0.9,0.8
2022-08-18T21:00:00,1838A,111.143,34.7955,三门峡市,风景区(对照点),,,,,,,,,,,,,,,,
2022-08-18T21:00:00,1839A,111.3009,30.7157,宜昌市,四零三,,,,,,,,,,,,,,,,
2022-08-18T21:00:00,1840A,111.2992,30.6981,宜昌市,白龙岗,,34,34,31,14,18,163,94,134,119,19,23,5,4,0.8,0.8
2022-08-18T21:00:00,1841A,111.3549,30.6465,宜昌市,伍家岗,,46,46,32,19,19,156,98,138,123,17,23,6,6,0.7,0.6
2022-08-18T21:00:00,1842A,111.2628,30.6961,宜昌市,点军区,,36,36,30,12,13,155,83,129,116,30,22,5,5,0.5,0.4
2022-08-18T21:00:00,1843A,111.3275,30.7819,宜昌市,夷陵区,,38,38,34,17,19,177,104,146,132,17,18,5,4,0.5,0.5
2022-08-18T21:00:00,1844A,112.2494,30.3197,荆州市,市图书馆,,42,42,39,28,28,150,80,138,118,20,17,11,10,0.5,0.7
2022-08-18T21:00:00,1845A,112.2008,30.3544,荆州市,市委党校,,28,25,38,11,18,147,89,135,120,16,14,5,8,0.4,0.5
2022-08-18T21:00:00,1847A,113.1094,29.3578,岳阳市,南湖风景区,,34,19,24,14,18,143,108,135,130,10,10,6,6,0.5,0.6
2022-08-18T21:00:00,1848A,113.1493,29.4251,岳阳市,城陵矶,,27,21,26,11,16,140,51,123,114,53,16,25,12,1.0,1
2022-08-18T21:00:00,1849A,113.1497,29.3575,岳阳市,开发区,,,20,21,,15,146,100,135,134,,9,6,7,,0.4
2022-08-18T21:00:00,1850A,113.2621,29.4758,岳阳市,云溪区,,25,25,21,15,15,119,66,111,101,23,8,11,10,0.8,0.7
2022-08-18T21:00:00,1851A,112.9943,29.4402,岳阳市,君山区,,29,15,27,9,17,124,90,115,109,8,9,9,10,0.6,0.6
2022-08-18T21:00:00,1852A,113.2117,29.355,岳阳市,金凤水库(对照点),,26,13,20,11,14,117,83,108,104,22,10,4,4,0.2,0.2
2022-08-18T21:00:00,1854A,111.6975,28.9703,常德市,市二中,,22,22,32,14,21,109,46,102,88,26,15,9,7,0.4,0.5
2022-08-18T21:00:00,1857A,111.7158,29.1456,常德市,白鹤山(对照点),,27,27,35,13,24,127,65,119,97,7,8,3,9,0.4,0.5
2022-08-18T21:00:00,1858A,110.5319,29.1217,张家界市,永定新区,,,18,20,5,10,118,52,88,68,,10,5,3,0.2,0.1
2022-08-18T21:00:00,1859A,110.4697,29.1242,张家界市,电业局,,17,17,24,11,11,96,48,83,65,17,11,4,4,0.3,0.3
2022-08-18T21:00:00,1860A,110.5594,29.3547,张家界市,未央路,,20,20,20,6,9,84,32,79,62,17,9,2,2,0.2,0.1
2022-08-18T21:00:00,1861A,110.4417,29.315,张家界市,袁家界(对照点),,28,7,13,6,12,101,89,97,86,5,6,7,7,0.5,0.5
2022-08-18T21:00:00,1862A,110.4144,25.3167,桂林市,电子科大尧山校区(对照点),,,36,30,,23,93,51,86,66,8,8,9,19,0.5,0.5
2022-08-18T21:00:00,1863A,110.2819,25.2697,桂林市,监测站,,26,26,26,13,13,103,57,96,82,16,9,8,7,0.6,0.4
2022-08-18T21:00:00,1864A,110.3089,25.2708,桂林市,龙隐路小学,,22,22,19,15,15,94,62,88,77,11,10,12,8,0.4,0.4
2022-08-18T21:00:00,1865A,110.2869,25.2178,桂林市,八中,,25,25,22,15,12,92,49,84,72,19,13,9,8,0.5,0.5
2022-08-18T21:00:00,1866A,109.2262,21.588,北海市,牛尾岭水库(对照点),,16,12,14,7,7,69,50,61,61,10,5,5,4,0.6,0.6
2022-08-18T21:00:00,1867A,109.1436,21.4086,北海市,海滩公园,,19,7,11,2,3,82,60,71,71,4,5,4,4,0.2,0.6
2022-08-18T21:00:00,1868A,109.0981,21.4661,北海市,新市环保局,,18,7,9,5,4,78,55,67,66,8,5,4,4,0.6,0.6
2022-08-18T21:00:00,1869A,109.1778,21.5233,北海市,北海工业园,,21,21,13,12,6,84,60,70,70,6,4,5,5,0.5,0.5
2022-08-18T21:00:00,1870A,109.4856,24.3895,柳州市,柳东小学,,25,11,26,12,20,132,78,118,108,10,11,4,4,0.6,0.6
2022-08-18T21:00:00,1871A,109.4157,24.3277,柳州市,环保监测站,,24,22,28,10,13,131,74,120,106,15,12,5,6,0.6,0.6
2022-08-18T21:00:00,1872A,109.389,24.341,柳州市,河西水厂,,,27,30,22,16,134,76,124,111,17,14,8,10,,0.8
2022-08-18T21:00:00,1873A,109.4311,24.2921,柳州市,市四中,,32,32,31,12,11,121,70,113,101,14,12,6,7,0.6,0.5
2022-08-18T21:00:00,1874A,109.4006,24.3631,柳州市,市九中,,,40,33,20,17,136,,125,118,14,10,6,7,0.7,0.7
2022-08-18T21:00:00,1875A,109.4958,24.3134,柳州市,古亭山,,26,26,24,16,13,101,54,99,86,15,15,5,5,0.7,0.6
2022-08-18T21:00:00,1876A,109.5078,18.2489,三亚市,河东子站,,15,9,11,2,3,59,48,51,48,4,4,2,2,0.3,0.4
2022-08-18T21:00:00,1877A,109.4964,18.2681,三亚市,河西子站,,15,7,12,2,5,60,48,52,49,2,3,1,1,0.4,0.4
2022-08-18T21:00:00,1878A,104.7778,31.4741,绵阳市,富乐山,,40,28,35,28,27,160,118,152,145,9,11,3,3,0.3,0.4
2022-08-18T21:00:00,1879A,104.7563,31.4535,绵阳市,市人大,,42,42,43,28,30,148,81,142,130,35,18,5,5,0.6,0.6
2022-08-18T21:00:00,1880A,104.6697,31.4668,绵阳市,高新区自来水公司,颗粒物(PM10),60,69,51,20,36,176,110,159,145,24,19,6,7,0.6,0.6
2022-08-18T21:00:00,1881A,104.7287,31.5075,绵阳市,三水厂,,49,38,33,34,31,159,75,152,139,44,20,2,3,0.6,0.6
2022-08-18T21:00:00,1882A,104.563,28.793,宜宾市,石马中学(对照点),,43,43,34,24,22,184,116,166,156,10,14,6,7,0.5,0.6
2022-08-18T21:00:00,1883A,104.6201,28.7728,宜宾市,市委,,48,48,35,29,21,176,104,159,151,23,19,7,9,0.6,0.5
2022-08-18T21:00:00,1884A,104.6055,28.793,宜宾市,宜宾四中,,43,43,36,24,21,197,130,184,174,13,13,7,10,0.6,0.6
2022-08-18T21:00:00,1885A,104.639,28.7562,宜宾市,市政府,颗粒物(PM10),53,56,44,26,21,209,133,185,180,15,16,9,10,0.5,0.5
2022-08-18T21:00:00,1886A,104.5742,28.7199,宜宾市,黄金嘴,颗粒物(PM10),53,56,40,30,23,202,123,182,176,14,11,9,12,0.6,0.6
2022-08-18T21:00:00,1888A,101.6891,26.571,攀枝花市,弄弄坪,颗粒物(PM10),54,57,72,26,18,110,53,97,90,28,22,10,10,2.3,1.2
2022-08-18T21:00:00,1889A,101.5769,26.5928,攀枝花市,河门口,,35,30,26,24,20,122,68,94,90,21,16,37,14,1.1,1
2022-08-18T21:00:00,1890A,101.7169,26.585,攀枝花市,炳草岗,颗粒物(PM10),52,53,41,19,22,120,67,109,103,30,29,15,17,0.7,0.9
2022-08-18T21:00:00,1891A,101.7369,26.5008,攀枝花市,仁和,,38,38,31,22,18,88,51,84,78,9,10,6,9,0.6,0.6
2022-08-18T21:00:00,1893A,105.4324,28.9634,泸州市,九狮山(对照点),,35,35,21,22,14,126,56,111,104,24,22,6,6,0.3,0.3
2022-08-18T21:00:00,1894A,105.4427,28.9063,泸州市,小市上码头,,33,29,27,23,21,143,97,128,125,17,13,4,5,0.5,0.5
2022-08-18T21:00:00,1895A,105.4241,28.8573,泸州市,兰田宪桥,,31,31,24,12,11,134,84,119,116,16,11,6,7,0.5,0.4
2022-08-18T21:00:00,1896A,105.4379,28.8833,泸州市,市环监站,,29,29,24,19,15,133,89,119,117,18,8,4,5,0.4,0.4
2022-08-18T21:00:00,1897A,104.7547,29.3628,自贡市,大塘山(对照点),,,,,,,,,,,,,,,,
2022-08-18T21:00:00,1900A,104.7692,29.3411,自贡市,春华路,,,,,,,,,,,,,,,,
2022-08-18T21:00:00,1901A,104.4239,31.1208,德阳市,东山公园,颗粒物(PM10),51,51,43,28,26,194,129,176,169,13,10,5,5,0.7,0.6
2022-08-18T21:00:00,1902A,104.3826,31.1317,德阳市,西小区,颗粒物(PM10),52,53,50,26,24,194,114,175,166,13,13,6,7,0.7,0.6
2022-08-18T21:00:00,1903A,104.4053,31.1167,德阳市,市检察院,,,,,,,,,,,,,,,,
2022-08-18T21:00:00,1904A,104.3553,31.1091,德阳市,耐火材料厂,颗粒物(PM10),52,54,56,23,22,184,110,159,151,13,23,5,5,0.8,0.8
2022-08-18T21:00:00,1905A,106.056,30.8064,南充市,西山风景区(对照点),,37,33,25,19,16,116,116,112,112,13,14,2,2,0.8,0.8
2022-08-18T21:00:00,1906A,106.0789,30.8023,南充市,南充市委,颗粒物(PM10),53,56,32,18,8,143,105,127,126,16,10,3,5,0.5,0.4
2022-08-18T21:00:00,1907A,106.1031,30.8217,南充市,南充炼油厂,,45,45,34,19,14,175,136,160,160,13,8,8,8,0.4,0.3
2022-08-18T21:00:00,1908A,106.1064,30.7856,南充市,高坪区监测站,,38,34,26,10,13,152,119,136,136,16,9,2,6,0.4,0.3
2022-08-18T21:00:00,1909A,106.0642,30.7636,南充市,嘉陵区环保局,,34,34,30,16,17,122,108,115,115,8,6,4,5,0.4,0.4
2022-08-18T21:00:00,1910A,106.1087,30.8388,南充市,市环境监测站,,38,38,29,26,20,138,118,130,130,5,7,5,5,0.4,0.3
2022-08-18T21:00:00,1911A,106.9222,27.6869,遵义市,丁字口,,28,28,23,10,16,123,77,109,100,12,7,7,7,0.6,0.6
2022-08-18T21:00:00,1912A,106.9242,27.7019,遵义市,凤凰山,,27,22,21,10,11,123,84,108,104,11,8,2,3,0.4,0.5
2022-08-18T21:00:00,1913A,106.8906,27.6486,遵义市,忠庄,,36,36,21,21,12,112,63,104,95,18,10,3,3,0.4,0.4
2022-08-18T21:00:00,1914A,106.9231,27.6506,遵义市,舟水桥,,,,21,,10,115,,105,102,12,11,2,3,,0.4
2022-08-18T21:00:00,1915A,106.9178,27.72,遵义市,干田坝,,23,16,16,14,12,122,73,109,99,14,7,6,7,0.7,0.7
2022-08-18T21:00:00,1916A,103.7897,25.5035,曲靖市,环境监测站,,38,38,25,10,16,101,71,96,94,17,13,11,5,0.6,0.5
2022-08-18T21:00:00,1917A,103.8,25.5364,曲靖市,烟厂办公区,,35,35,26,5,15,106,80,99,98,10,10,8,9,0.6,0.5
2022-08-18T21:00:00,1918A,108.7197,34.3956,咸阳市,气象站(对照点),,28,17,63,5,34,177,89,150,124,8,14,5,5,0.5,0.7
2022-08-18T21:00:00,1919A,108.673,34.3155,咸阳市,实验中学,,30,17,68,10,37,216,96,179,143,10,15,3,5,0.4,0.6
2022-08-18T21:00:00,1920A,108.7233,34.3617,咸阳市,师范学院,,32,32,72,7,35,204,94,172,140,7,13,5,7,0.4,0.7
2022-08-18T21:00:00,1922A,109.0656,35.0994,铜川市,党校(对照点),,18,10,43,4,26,83,56,70,64,11,12,4,4,0.7,0.9
2022-08-18T21:00:00,1923A,109.0697,35.0697,铜川市,王益区政府,,25,10,41,6,26,124,79,108,98,6,9,2,3,0.5,0.7
2022-08-18T21:00:00,1924A,108.9344,34.9058,铜川市,新区管委会,,26,12,50,10,28,144,83,124,111,9,14,3,4,0.6,0.8
2022-08-18T21:00:00,1925A,108.9589,34.8731,铜川市,新区兰芝公司,,,,,,,,,,,,,,,,
2022-08-18T21:00:00,1926A,109.4131,36.6275,延安市,枣园(对照点),,15,15,38,10,21,85,34,81,68,20,19,2,2,0.6,0.7
2022-08-18T21:00:00,1927A,109.4761,36.6028,延安市,延大医附院,,19,19,41,10,27,94,32,86,69,32,19,3,3,0.6,0.6
2022-08-18T21:00:00,1928A,109.4824,36.5767,延安市,市监测站,,,,,,,,,,,,,,,,
2022-08-18T21:00:00,1929A,109.5056,36.6106,延安市,百米大道,,22,22,58,12,26,89,29,78,64,38,26,3,4,0.8,0.9
2022-08-18T21:00:00,1930A,107.185,34.3063,宝鸡市,庙沟村(对照点),,32,2,50,10,30,130,101,113,107,6,9,2,2,0.3,0.6
2022-08-18T21:00:00,1931A,107.0708,34.3017,宝鸡市,竹园沟,,27,7,45,6,31,168,86,126,107,14,17,4,5,0.3,0.6
2022-08-18T21:00:00,1932A,107.1906,34.3672,宝鸡市,三陆医院,,20,14,62,6,31,174,64,128,102,18,18,3,5,0.4,0.6
2022-08-18T21:00:00,1933A,107.1431,34.3547,宝鸡市,监测站,,18,14,55,10,34,165,57,125,99,24,19,6,6,0.5,0.7
2022-08-18T21:00:00,1934A,107.1186,34.3739,宝鸡市,技工学校,,24,12,66,5,37,181,74,137,112,12,16,3,5,0.3,0.5
2022-08-18T21:00:00,1935A,107.3906,34.3528,宝鸡市,陈仓区环保局家属楼,,25,25,73,14,38,171,64,141,111,26,27,5,9,0.5,0.7
2022-08-18T21:00:00,1936A,107.2058,34.3497,宝鸡市,文理学院,,23,16,61,16,31,181,64,143,110,27,20,5,7,0.4,0.6
2022-08-18T21:00:00,1937A,107.2386,34.3622,宝鸡市,三迪小学,,20,20,66,9,39,162,54,123,96,30,21,4,6,0.5,0.6
2022-08-18T21:00:00,1938A,109.5293,34.5101,渭南市,农科所(对照点),,,,,,,,,,,,,,,,
2022-08-18T21:00:00,1939A,109.4974,34.4877,渭南市,日报社,,34,34,68,18,43,164,81,157,137,16,11,7,9,0.4,0.6
2022-08-18T21:00:00,1940A,109.4636,34.493,渭南市,体育馆,,41,41,61,25,41,167,73,156,135,16,11,5,7,0.4,0.6
2022-08-18T21:00:00,1941A,109.4259,34.5023,渭南市,高新一小,,50,50,76,8,41,148,76,134,116,16,12,4,4,0.3,0.5
2022-08-18T21:00:00,1943A,102.1725,38.5339,金昌市,新川苑,颗粒物(PM10),91,131,121,23,18,111,86,105,86,14,11,7,12,0.6,0.6
2022-08-18T21:00:00,1944A,102.1692,38.5167,金昌市,天庆家园,颗粒物(PM10),78,106,103,21,14,122,90,116,91,16,8,9,7,0.7,0.6
2022-08-18T21:00:00,1945A,98.2908,39.7711,嘉峪关市,气象局,颗粒物(PM10),184,317,260,53,46,112,87,106,103,18,11,2,12,0.3,0.4
2022-08-18T21:00:00,1947A,106.3394,38.817,石嘴山市,沙湖旅游区(对照点),颗粒物(PM10),169,287,48,13,16,170,98,142,132,12,12,5,9,0.3,0.5
2022-08-18T21:00:00,1948A,106.3668,39.0145,石嘴山市,大武口朝阳西街,颗粒物(PM10),94,138,38,15,15,137,105,126,118,9,10,7,9,1.0,0.5
2022-08-18T21:00:00,1949A,106.7704,39.2282,石嘴山市,惠农南大街,颗粒物(PM10),73,95,48,21,21,121,93,116,107,10,15,5,10,0.2,0.6
2022-08-18T21:00:00,1950A,106.7099,39.1325,石嘴山市,红果子镇惠新街,颗粒物(PM10),80,110,53,16,17,138,97,128,119,10,8,10,13,0.4,0.5
2022-08-18T21:00:00,1951A,84.895,45.6094,克拉玛依市,长征新村,,26,21,17,8,5,92,81,86,86,7,3,8,8,0.2,0.2
2022-08-18T21:00:00,1952A,84.8988,45.5893,克拉玛依市,南林小区,,33,33,21,5,6,86,35,80,76,49,10,3,2,0.2,0.1
2022-08-18T21:00:00,1953A,85.1186,45.6886,克拉玛依市,白碱滩区,,,,,,,,,,,,,,,,
2022-08-18T21:00:00,1954A,84.905,44.3396,克拉玛依市,独山子区,,28,23,24,8,9,101,87,89,89,8,7,8,9,0.2,0.2
2022-08-18T21:00:00,1955A,85.6979,46.098,克拉玛依市,乌尔禾区商贸楼,,28,28,15,9,6,90,68,82,82,9,4,3,2,0.5,0.6
2022-08-18T21:00:00,1956A,86.1472,41.7538,巴音郭楞州,孔雀公园,,40,40,26,16,9,118,104,115,114,2,5,2,3,0.1,0.2
2022-08-18T21:00:00,1957A,86.1972,41.7166,巴音郭楞州,棉纺厂,,34,28,25,16,14,119,108,116,115,4,9,4,4,0.1,0.2
2022-08-18T21:00:00,1958A,86.2357,41.7173,巴音郭楞州,经济开发区,,34,22,19,2,12,119,108,116,115,6,8,5,4,0.2,0.2
2022-08-18T21:00:00,1959A,118.746,36.881,寿光市,监测站,,,,,,,,,,,,,,,,
2022-08-18T21:00:00,1960A,118.780,36.864,寿光市,世纪学校,,,,,,,,,,,,,,,,
2022-08-18T21:00:00,1961A,117.532,36.6868,济南市,东山小学,颗粒物(PM10),56,61,57,15,21,166,150,160,160,11,17,6,6,0.6,0.7
2022-08-18T21:00:00,1962A,117.541,36.710,章丘市,明水开发区,,,,,,,,,,,,,,,,
2022-08-18T21:00:00,1963A,120.610,36.440,即墨市,环保局子站,,,,,,,,,,,,,,,,
2022-08-18T21:00:00,1964A,120.470,36.390,即墨市,开发区子站,,,,,,,,,,,,,,,,
2022-08-18T21:00:00,1965A,120.005,35.878,胶南市,JN子站,,,,,,,,,,,,,,,,
2022-08-18T21:00:00,1966A,120.0405,35.8735,青岛市,黄岛区4号,,35,22,19,5,7,145,110,139,120,4,7,4,4,0.5,0.6
2022-08-18T21:00:00,1967A,120.008,36.283,胶州市,胶州环保局,,,,,,,,,,,,,,,,
2022-08-18T21:00:00,1968A,120.014,36.253,胶州市,胶州一中,,,,,,,,,,,,,,,,
2022-08-18T21:00:00,1969A,120.537,36.865,莱西市,环保局子站,,,,,,,,,,,,,,,,
2022-08-18T21:00:00,1970A,120.515,36.885,莱西市,人民广场子站,,,,,,,,,,,,,,,,
2022-08-18T21:00:00,1971A,119.952,36.792,平度市,1号,,,,,,,,,,,,,,,,
2022-08-18T21:00:00,1972A,119.976,36.799,平度市,2号,,,,,,,,,,,,,,,,
2022-08-18T21:00:00,1973A,120.747,37.825,蓬莱市,蓬莱环保局,,,,,,,,,,,,,,,,
2022-08-18T21:00:00,1974A,120.773,37.809,蓬莱市,蓬莱博物馆,,,,,,,,,,,,,,,,
2022-08-18T21:00:00,1975A,120.399,37.374,招远市,招远环保局,,,,,,,,,,,,,,,,
2022-08-18T21:00:00,1976A,120.394,37.364,招远市,招远教育局,,,,,,,,,,,,,,,,
2022-08-18T21:00:00,1977A,119.941,37.177,莱州市,莱州环保局,,,,,,,,,,,,,,,,
2022-08-18T21:00:00,1978A,119.959,37.180,莱州市,莱州外经委,,,,,,,,,,,,,,,,
2022-08-18T21:00:00,1979A,122.471,37.154,荣成市,荣成市环保局办公楼,,,,,,,,,,,,,,,,
2022-08-18T21:00:00,1980A,122.410,37.161,荣成市,山东成山轮胎公司,,,,,,,,,,,,,,,,
2022-08-18T21:00:00,1981A,122.038,37.197,文登市,文登市环保局,,,,,,,,,,,,,,,,
2022-08-18T21:00:00,1982A,122.0693,37.2174,威海市,文登开发区,,29,7,25,2,13,123,90,118,98,8,15,4,5,0.6,0.7
2022-08-18T21:00:00,1983A,121.531,36.913,乳山市,乳山市环保局,,,,,,,,,,,,,,,,
2022-08-18T21:00:00,1984A,121.544,36.907,乳山市,乳山市气象局,,,,,,,,,,,,,,,,
2022-08-18T21:00:00,1985A,120.636,31.155,吴江市,吴江市环保局,,,,,,,,,,,,,,,,
2022-08-18T21:00:00,1986A,120.635,31.170,吴江市,教师进修学校,,,,,,,,,,,,,,,,
2022-08-18T21:00:00,1987A,120.658,31.172,吴江市,吴江开发区,,,,,,,,,,,,,,,,
2022-08-18T21:00:00,1988A,120.953,31.388,昆山市,昆山实验小学,,,,,,,,,,,,,,,,
2022-08-18T21:00:00,1989A,120.999,31.381,昆山市,震川中学,,,,,,,,,,,,,,,,
2022-08-18T21:00:00,1990A,120.758,31.670,常熟市,海虞子站,,,,,,,,,,,,,,,,
2022-08-18T21:00:00,1991A,120.721,31.671,常熟市,兴福子站,,,,,,,,,,,,,,,,
2022-08-18T21:00:00,1992A,120.734,31.656,常熟市,菱塘子站,,,,,,,,,,,,,,,,
2022-08-18T21:00:00,1993A,120.526,31.874,张家港市,张家港市监测站,,,,,,,,,,,,,,,,
2022-08-18T21:00:00,1994A,120.550,31.882,张家港市,城北小学,,,,,,,,,,,,,,,,
2022-08-18T21:00:00,1995A,121.115,31.453,太仓市,太仓市监测站,,,,,,,,,,,,,,,,
2022-08-18T21:00:00,1996A,121.140,31.422,太仓市,科教新城实小,,,,,,,,,,,,,,,,
2022-08-18T21:00:00,1997A,119.146,31.955,句容市,消防指挥中心,,,,,,,,,,,,,,,,
2022-08-18T21:00:00,1998A,119.180,31.955,句容市,房家坝,,,,,,,,,,,,,,,,
2022-08-18T21:00:00,1999A,120.268,31.920,江阴市,虹桥邮政,,,,,,,,,,,,,,,,
2022-08-18T21:00:00,2000A,120.237,31.909,江阴市,五星公园,,,,,,,,,,,,,,,,
2022-08-18T21:00:00,2001A,120.302,31.920,江阴市,第二实验小学,,,,,,,,,,,,,,,,
2022-08-18T21:00:00,2002A,119.818,31.354,宜兴市,宜兴市环保局,,,,,,,,,,,,,,,,
2022-08-18T21:00:00,2003A,119.794,31.371,宜兴市,宜园,,,,,,,,,,,,,,,,
2022-08-18T21:00:00,2004A,119.579,31.751,金坛市,金坛市环境监测站,,,,,,,,,,,,,,,,
2022-08-18T21:00:00,2005A,119.579,31.737,金坛市,金坛市自来水公司,,,,,,,,,,,,,,,,
2022-08-18T21:00:00,2006A,119.460,31.400,溧阳市,溧阳市东门子站,,,,,,,,,,,,,,,,
2022-08-18T21:00:00,2007A,119.438,31.317,溧阳市,燕山子站,,,,,,,,,,,,,,,,
2022-08-18T21:00:00,2008A,121.173,31.896,海门市,海门市监测站,,,,,,,,,,,,,,,,
2022-08-18T21:00:00,2009A,121.1518,31.89708,海门市,社会福利院,,,,,,,,,,,,,,,,
2022-08-18T21:00:00,2010A,119.7183,30.2366,临安市,市政府,,,,,,,,,,,,,,,,
2022-08-18T21:00:00,2011A,119.6942,30.2311,临安市,四中,,,,,,,,,,,,,,,,
2022-08-18T21:00:00,2012A,119.954,30.054,富阳市,监测站,,,,,,,,,,,,,,,,
2022-08-18T21:00:00,2013A,119.946,30.049,富阳市,富春二小,,,,,,,,,,,,,,,,
2022-08-18T21:00:00,2014A,120.091,29.305,义乌市,江东,,,,,,,,,,,,,,,,
2022-08-18T21:00:00,2015A,120.040,29.334,义乌市,北苑,,,,,,,,,,,,,,,,
2022-08-18T21:00:00,2016A,120.251,29.719,诸暨市,图书馆,,,,,,,,,,,,,,,,
2022-08-18T21:00:00,2017A,120.209,29.732,诸暨市,富林印务,,,,,,,,,,,,,,,,
2022-08-18T21:00:00,2018A,121.989,39.625,瓦房店市,抱龙山庄,,,,,,,,,,,,,,,,
2022-08-18T21:00:00,2019A,122.011,39.617,瓦房店市,东山公园,,,,,,,,,,,,,,,,
2022-08-18T21:00:00,2031A,113.1817,27.9958,株洲市,云田中学,,28,22,26,2,13,108,88,93,90,5,7,3,5,0.6,0.7
2022-08-18T21:00:00,2054A,114.1099,32.1059,信阳市,平桥分局,,35,31,39,18,18,157,109,133,126,8,13,8,8,0.5,0.5
2022-08-18T21:00:00,2064A,113.9956,32.1271,信阳市,南湾水厂,,32,32,23,9,6,151,100,131,122,7,6,7,7,0.5,0.6
2022-08-18T21:00:00,2065A,114.0775,32.1195,信阳市,市酿酒公司,,35,26,24,15,14,149,109,132,125,5,12,7,7,0.5,0.6
2022-08-18T21:00:00,2066A,114.0609,32.1399,信阳市,审计局,,34,34,27,16,14,144,102,126,119,6,9,9,9,0.7,0.8
2022-08-18T21:00:00,2067A,114.6613,33.6128,周口市,市环境监测站,,33,32,45,19,20,147,103,137,132,9,9,3,5,0.6,0.6
2022-08-18T21:00:00,2068A,114.6758,33.6347,周口市,周口师范,,36,36,39,19,19,150,109,142,138,7,6,2,2,0.6,0.7
2022-08-18T21:00:00,2069A,114.6546,33.5979,周口市,市运管处,,,,42,,23,146,94,139,130,14,8,3,2,0.8,0.8
2022-08-18T21:00:00,2070A,114.6369,33.6406,周口市,川汇区环保局,,43,34,37,30,22,136,100,128,124,5,4,3,3,0.7,0.7
2022-08-18T21:00:00,2075A,117.6336,24.4674,漳州市,九湖(对照点),,,,,,,,,,,,,,,,
2022-08-18T21:00:00,2160A,112.85,35.5051,晋城市,自来水公司,颗粒物(PM10),59,68,56,34,27,166,145,146,146,14,8,5,5,0.7,0.5
2022-08-18T21:00:00,2161A,112.8318,35.4936,晋城市,白云商贸,,,,,,,,,,,,,,,,
2022-08-18T21:00:00,2162A,112.8508,35.4887,晋城市,市环保局,细颗粒物(PM2.5),64,52,50,46,32,168,142,147,147,15,8,5,5,0.7,0.6
2022-08-18T21:00:00,2163A,112.8676,35.4897,晋城市,技术学院,颗粒物(PM10),57,63,34,27,21,155,133,138,138,15,7,2,3,0.5,0.5
2022-08-18T21:00:00,2164A,112.8271,35.4828,晋城市,泽州一中,,,,,,,,,,,,,,,,
2022-08-18T21:00:00,2165A,112.8453,35.546,晋城市,白马寺 (对照点),,,,,,,,,,,,,,,,
2022-08-18T21:00:00,2166A,112.4397,39.3522,朔州市,平朔,,19,17,18,13,21,86,43,77,49,24,18,7,7,1.2,1
2022-08-18T21:00:00,2167A,112.4575,39.3617,朔州市,朔唯,,22,22,22,13,20,92,37,82,50,27,21,8,7,0.8,0.7
2022-08-18T21:00:00,2168A,112.4258,39.3197,朔州市,区政府,,22,22,24,10,20,84,68,80,57,23,18,4,4,0.9,0.8
2022-08-18T21:00:00,2169A,112.4072,39.3278,朔州市,市环保局,,18,18,22,7,11,83,53,78,55,26,16,4,6,0.6,0.6
2022-08-18T21:00:00,2170A,112.4272,39.3681,朔州市,市二中,,22,12,23,15,23,84,34,75,52,20,15,6,6,0.9,0.8
2022-08-18T21:00:00,2171A,112.7532,37.6945,晋中市,锦纶小区,,44,44,73,27,42,182,64,148,142,21,18,5,6,0.7,0.8
2022-08-18T21:00:00,2173A,112.7249,37.7067,晋中市,南都小区,,45,45,65,24,33,201,72,162,156,20,16,7,8,0.9,0.8
2022-08-18T21:00:00,2174A,112.6991,37.6982,晋中市,榆次区政府,细颗粒物(PM2.5),52,44,71,36,44,187,59,152,143,14,12,5,6,0.8,0.8
2022-08-18T21:00:00,2175A,110.9956,35.0147,运城市,运城中学,颗粒物(PM10),54,57,52,37,38,141,115,115,115,8,6,5,5,0.7,0.6
2022-08-18T21:00:00,2176A,111.0233,35.0611,运城市,禹都开发区,,,,,,,,,,,,,,,,
2022-08-18T21:00:00,2178A,110.9686,35.0303,运城市,地区技校,,38,36,45,25,29,148,120,120,120,6,5,5,5,0.6,0.6
2022-08-18T21:00:00,2179A,111.0414,35.1147,运城市,空港新区,颗粒物(PM10),53,55,53,31,33,136,114,115,115,8,6,7,7,0.7,0.7
2022-08-18T21:00:00,2181A,112.7383,38.4519,忻州市,开发区,细颗粒物(PM2.5),62,38,42,44,35,91,36,91,42,21,18,7,12,1.2,0.9
2022-08-18T21:00:00,2182A,112.7003,38.4928,忻州市,会展中心,,32,32,40,20,25,76,10,76,31,38,26,6,8,0.9,0.7
2022-08-18T21:00:00,2183A,111.1406,37.5211,吕梁市,环保局,,33,18,67,7,28,116,6,72,29,65,39,3,4,0.6,0.7
2022-08-18T21:00:00,2185A,111.1297,37.5136,吕梁市,自来水公司,,24,22,66,7,23,112,15,94,33,47,29,4,5,0.7,0.8
2022-08-18T21:00:00,2186A,106.8288,39.6778,乌海市,聚英学校,,,,,,,,,,,,,,,,
2022-08-18T21:00:00,2187A,106.8174,39.6973,乌海市,市林业局,颗粒物(PM10),83,115,47,28,25,137,103,124,118,5,8,5,5,0.4,0.7
2022-08-18T21:00:00,2188A,106.7907,39.6667,乌海市,中海勃湾学校,颗粒物(PM10),77,104,48,26,21,145,116,131,127,6,9,4,9,0.3,0.5
2022-08-18T21:00:00,2191A,122.2532,43.6801,通辽市,艺术职业学校,颗粒物(PM10),52,54,36,16,22,129,104,119,118,15,13,8,7,0.5,0.5
2022-08-18T21:00:00,2192A,119.7594,49.2261,呼伦贝尔市,区环保局,,28,23,25,19,16,81,50,65,60,7,9,4,5,0.3,0.4
2022-08-18T21:00:00,2194A,107.5936,40.916,巴彦淖尔市,秋林养殖基地(对照点),,,,,,,,,,,,,,,,
2022-08-18T21:00:00,2195A,107.4212,40.761,巴彦淖尔市,附二中,颗粒物(PM10),216,361,73,92,31,134,85,122,111,13,9,4,5,0.4,0.6
2022-08-18T21:00:00,2196A,107.37,40.7372,巴彦淖尔市,市环保大楼,颗粒物(PM10),167,283,79,88,43,128,78,116,105,15,9,4,4,0.4,0.5
2022-08-18T21:00:00,2197A,113.1306,40.9923,乌兰察布市,集宁新区,,40,35,27,28,20,113,98,98,98,9,9,8,8,0.3,0.6
2022-08-18T21:00:00,2200A,122.0392,46.0656,兴安盟,胜华新制药厂,,16,11,17,10,12,75,49,72,59,8,5,2,3,0.4,0.3
2022-08-18T21:00:00,2201A,121.9504,46.0741,兴安盟,科右前旗环保局,,28,16,18,19,13,76,43,73,66,12,7,3,3,0.2,0.2
2022-08-18T21:00:00,2202A,116.1042,43.9317,锡林郭勒盟,市环保监测站,,19,10,23,10,6,108,59,85,76,3,6,6,8,0.2,0.3
2022-08-18T21:00:00,2203A,116.0781,43.9311,锡林郭勒盟,市政府,,34,34,27,6,5,103,51,77,70,9,9,10,10,0.2,0.3
2022-08-18T21:00:00,2204A,105.6467,38.8363,阿拉善盟,西城区西花园(对照点),颗粒物(PM10),51,51,51,29,21,132,96,120,109,10,8,4,4,0.3,0.5
2022-08-18T21:00:00,2205A,105.6985,38.8411,阿拉善盟,蒙二幼,颗粒物(PM10),62,74,64,35,28,134,100,124,115,10,6,7,8,0.3,0.3
2022-08-18T21:00:00,2206A,105.724,38.8516,阿拉善盟,环保局新楼,,43,43,36,24,22,136,94,121,106,9,8,7,7,0.3,0.4
2022-08-18T21:00:00,2207A,121.6094,41.998,阜新市,工业园区,,35,24,49,14,23,134,112,120,116,10,19,7,18,0.6,0.8
2022-08-18T21:00:00,2208A,121.6697,42.0279,阜新市,长青街,,38,36,50,14,19,142,119,127,123,8,15,6,15,0.4,0.7
2022-08-18T21:00:00,2209A,121.6673,42.0705,阜新市,农业园区,,35,14,38,13,24,131,110,116,112,6,13,5,12,0.6,0.8
2022-08-18T21:00:00,2210A,121.6717,42.0224,阜新市,东苑,,35,31,55,16,24,129,111,120,113,8,15,4,12,0.5,0.7
2022-08-18T21:00:00,2211A,121.6506,42.0498,阜新市,玉龙新城,,,,50,12,22,145,116,127,121,5,11,6,11,0.5,0.7
2022-08-18T21:00:00,2212A,123.2,41.1953,辽阳市,宏伟区,,28,16,27,9,11,94,89,85,82,2,10,5,6,0.5,0.5
2022-08-18T21:00:00,2213A,123.1683,41.2495,辽阳市,新华园,,25,17,33,13,14,99,80,88,78,5,15,5,6,0.4,0.5
2022-08-18T21:00:00,2214A,123.2354,41.2639,辽阳市,滨河路,,26,24,31,13,18,105,82,85,71,11,16,14,10,0.7,0.8
2022-08-18T21:00:00,2215A,123.149,41.2991,辽阳市,铁西工业园,,26,23,44,18,22,113,83,95,80,2,15,5,7,0.5,0.9
2022-08-18T21:00:00,2216A,123.8139,42.3022,铁岭市,汇工街西,,37,37,46,14,16,151,67,132,112,20,21,10,14,0.7,0.7
2022-08-18T21:00:00,2217A,123.8649,42.2923,铁岭市,水上乐园,,29,29,56,19,25,146,67,125,106,33,31,8,9,0.5,0.5
2022-08-18T21:00:00,2218A,123.8486,42.2867,铁岭市,银州路东段,,36,36,57,14,17,137,69,118,102,19,24,6,6,0.7,0.7
2022-08-18T21:00:00,2219A,123.7153,42.2217,铁岭市,金沙江路北,,32,32,43,17,14,149,59,129,104,28,28,10,9,1.0,0.7
2022-08-18T21:00:00,2220A,120.4318,41.5881,朝阳市,西梁,,31,6,48,16,20,120,98,117,88,6,10,6,7,0.8,1.2
2022-08-18T21:00:00,2221A,120.4521,41.5646,朝阳市,河畔小区,,35,19,54,16,23,140,109,129,97,5,7,7,8,0.7,1
2022-08-18T21:00:00,2222A,120.4176,41.5648,朝阳市,八里堡,,32,20,44,20,22,113,100,106,92,6,11,3,4,0.7,1.1
2022-08-18T21:00:00,2223A,120.3806,41.5969,朝阳市,农业园区,,,,42,18,25,105,102,96,87,5,13,6,7,0.8,1
2022-08-18T21:00:00,2225A,124.4002,43.1713,四平市,一商场,,42,42,38,28,19,161,84,148,131,2,5,4,5,0.6,0.5
2022-08-18T21:00:00,2226A,124.388,43.193,四平市,境园,,37,37,37,16,14,156,85,148,132,16,17,8,8,0.5,0.5
2022-08-18T21:00:00,2227A,125.1358,42.8845,辽源市,环保局,,38,38,33,24,19,146,91,132,125,9,9,6,6,0.6,0.6
2022-08-18T21:00:00,2229A,125.9358,41.7173,通化市,光明,,24,24,21,9,10,82,65,79,72,10,12,8,11,0.5,0.5
2022-08-18T21:00:00,2230A,125.9446,41.7325,通化市,铁路,,23,18,18,16,8,83,64,80,74,11,12,8,12,0.6,0.7
2022-08-18T21:00:00,2231A,126.4219,41.9171,白山市,喜丰,,26,26,30,9,11,82,36,76,66,10,11,5,7,0.6,0.6
2022-08-18T21:00:00,2232A,126.4077,41.9419,白山市,环保局,,35,35,36,13,13,81,33,79,66,15,13,6,7,0.6,0.5
2022-08-18T21:00:00,2233A,124.8006,45.1214,松原市,江南,细颗粒物(PM2.5),59,40,27,42,20,106,50,96,81,35,12,3,2,1.1,0.6
2022-08-18T21:00:00,2234A,124.7965,45.1722,松原市,江北,颗粒物(PM10),51,51,27,22,14,114,37,106,77,23,10,2,2,0.8,0.5
2022-08-18T21:00:00,2235A,122.7911,45.6077,白城市,洮北区环保局,,24,24,27,6,8,83,76,80,80,6,6,11,10,0.0,0.1
2022-08-18T21:00:00,2236A,122.8738,45.5725,白城市,市环保局,,30,30,30,7,9,85,72,83,79,10,6,5,5,0.1,0.1
2022-08-18T21:00:00,2237A,129.47,42.8883,延边朝鲜族自治州,妇幼医院,,26,26,20,18,11,90,29,80,66,14,10,10,8,0.6,0.5
2022-08-18T21:00:00,2238A,129.5055,42.9108,延边朝鲜族自治州,延边医院,,26,24,26,18,10,82,26,74,64,25,15,8,8,0.7,0.5
2022-08-18T21:00:00,2239A,129.3964,42.8881,延边朝鲜族自治州,朝阳川镇医院,,28,28,19,9,7,90,20,81,64,17,9,9,9,0.4,0.4
2022-08-18T21:00:00,2240A,130.9762,45.3001,鸡西市,环保局,,46,46,37,18,12,78,65,74,69,18,20,7,4,0.6,0.5
2022-08-18T21:00:00,2243A,130.9429,45.3039,鸡西市,第一中学,,31,31,27,19,8,95,90,90,90,4,8,8,4,0.6,0.4
2022-08-18T21:00:00,2244A,130.2537,47.3416,鹤岗市,哈啤分公司,,21,21,31,7,7,93,51,87,76,8,15,5,12,0.2,0.4
2022-08-18T21:00:00,2245A,130.2684,47.3086,鹤岗市,斯达机电,,25,25,22,8,7,97,66,85,80,10,14,8,12,0.4,0.4
2022-08-18T21:00:00,2246A,130.3114,47.3388,鹤岗市,东山纸板厂,颗粒物(PM10),52,54,107,13,16,87,48,80,73,13,18,12,12,0.4,0.5
2022-08-18T21:00:00,2247A,130.1097,47.3382,鹤岗市,五号水库(对照点),,11,4,7,4,4,98,34,91,76,13,8,4,4,0.3,0.2
2022-08-18T21:00:00,2248A,131.1511,46.6937,双鸭山市,双合村,,25,25,41,9,18,107,67,98,92,16,16,13,29,0.9,1.1
2022-08-18T21:00:00,2249A,131.1652,46.6191,双鸭山市,南小市,,20,14,23,14,9,84,59,76,75,7,6,4,4,0.1,0.1
2022-08-18T21:00:00,2250A,131.1524,46.6554,双鸭山市,环保局,,27,27,20,7,7,105,70,92,86,13,9,8,7,0.5,0.3
2022-08-18T21:00:00,2251A,131.12,46.5656,双鸭山市,苗圃(对照点),,28,18,16,19,14,113,60,99,87,4,3,3,3,0.4,0.4
2022-08-18T21:00:00,2252A,128.5159,47.4311,伊春市,环保局,,26,21,14,18,10,92,14,81,44,14,11,5,6,0.4,0.4
2022-08-18T21:00:00,2253A,128.9102,47.7412,伊春市,电力嘉园,,15,6,10,10,7,93,9,80,40,18,13,4,5,0.6,0.6
2022-08-18T21:00:00,2254A,129.5029,48.471,伊春市,汤旺河国家公园(对照点),,23,23,21,7,8,67,2,52,20,1,2,5,5,0.2,0.2
2022-08-18T21:00:00,2255A,130.2751,46.8028,佳木斯市,佳纺,,36,36,38,15,15,106,85,100,97,5,12,3,4,0.4,0.3
2022-08-18T21:00:00,2256A,130.3995,46.8307,佳木斯市,发电厂,,,43,35,15,12,109,,100,97,9,13,2,2,0.2,0.3
2022-08-18T21:00:00,2257A,130.3258,46.7975,佳木斯市,环保局,,,,27,,12,103,80,99,95,12,13,2,1,0.5,0.4
2022-08-18T21:00:00,2258A,130.3648,46.8032,佳木斯市,十一中,颗粒物(PM10),53,55,45,19,16,105,81,96,91,15,17,4,4,0.5,0.4
2022-08-18T21:00:00,2259A,130.3794,46.7588,佳木斯市,四丰(对照点),,33,19,14,12,9,123,103,118,115,5,5,1,1,0.8,0.7
2022-08-18T21:00:00,2262A,131.0518,45.8751,七台河市,新一中(对照点),,29,28,14,20,11,124,59,108,89,19,11,10,8,0.7,0.6
2022-08-18T21:00:00,2263A,127.4833,50.2524,黑河市,交通局,,27,27,16,9,8,98,22,81,40,9,8,5,6,0.4,0.4
2022-08-18T21:00:00,2264A,127.5144,50.2341,黑河市,环保局,,28,28,11,9,8,109,25,92,47,23,8,5,6,0.6,0.6
2022-08-18T21:00:00,2265A,127.5291,50.2472,黑河市,大黑河岛(对照点),,15,15,14,4,6,108,25,92,39,5,4,5,9,0.2,0.3
2022-08-18T21:00:00,2266A,126.9785,46.6365,绥化市,人和东街,,42,40,33,29,16,142,43,116,86,28,18,7,8,0.6,0.5
2022-08-18T21:00:00,2267A,126.964,46.6528,绥化市,党政办公中心,,49,49,32,33,17,151,45,121,94,26,15,6,7,0.6,0.5
2022-08-18T21:00:00,2269A,124.1069,50.4097,大兴安岭地区,科技局,,15,5,5,10,4,64,16,56,38,9,5,4,4,0.3,0.3
2022-08-18T21:00:00,2270A,117.396,32.939,蚌埠市,工人疗养院,,50,39,35,35,23,165,139,151,138,23,22,11,12,0.5,0.4
2022-08-18T21:00:00,2271A,117.3605,32.9427,蚌埠市,百货大楼,,50,40,34,23,17,163,157,150,140,14,19,9,11,0.7,0.6
2022-08-18T21:00:00,2273A,117.4185,32.8911,蚌埠市,蚌埠学院,,47,46,35,19,14,161,150,148,145,8,7,6,6,0.6,0.5
2022-08-18T21:00:00,2274A,117.3533,32.9673,蚌埠市,淮上区政府,颗粒物(PM10),56,62,42,27,18,168,116,153,135,25,17,7,11,0.5,0.5
2022-08-18T21:00:00,2275A,117.3145,32.8977,蚌埠市,高新区,,48,41,35,24,20,162,153,154,149,12,10,6,7,0.7,0.6
2022-08-18T21:00:00,2277A,116.8305,32.7727,淮南市,潘集区政府,,47,47,42,23,22,157,93,148,134,24,12,11,13,0.6,0.5
2022-08-18T21:00:00,2278A,117.0067,32.6524,淮南市,师范学院,颗粒物(PM10),52,54,47,23,20,163,112,148,137,10,9,6,7,0.3,0.4
2022-08-18T21:00:00,2279A,116.8569,32.5951,淮南市,谢家集区政府,,40,40,32,26,18,181,100,145,128,14,8,56,20,0.5,0.4
2022-08-18T21:00:00,2280A,116.8281,32.633,淮南市,八公山区政府,,33,24,30,23,21,166,104,137,122,14,10,7,6,0.4,0.5
2022-08-18T21:00:00,2281A,116.6325,32.6201,淮南市,焦岗湖风景区管理处(对照点),,44,44,36,23,16,145,55,135,108,44,12,5,5,0.3,0.3
2022-08-18T21:00:00,2282A,116.8004,33.975,淮北市,监测站,,50,50,38,29,19,187,140,177,170,9,7,6,8,0.7,0.6
2022-08-18T21:00:00,2283A,116.8091,33.9007,淮北市,烈山区政府,,46,46,33,28,19,187,141,179,173,7,7,8,9,1.0,0.8
2022-08-18T21:00:00,2284A,116.7856,33.9477,淮北市,职业技术学院,颗粒物(PM10),52,53,37,25,19,182,139,173,168,9,11,5,7,0.9,0.8
2022-08-18T21:00:00,2285A,117.8177,30.9412,铜陵市,市第四中学,,41,20,37,24,23,190,130,138,138,17,23,5,6,0.4,0.6
2022-08-18T21:00:00,2286A,117.8059,30.9273,铜陵市,市公路局,颗粒物(PM10),53,55,48,22,27,164,113,132,130,16,15,9,6,0.7,0.9
2022-08-18T21:00:00,2287A,117.7807,30.9413,铜陵市,市新民污水厂,,48,48,40,22,21,130,40,114,102,10,26,10,5,0.6,0.5
2022-08-18T21:00:00,2288A,117.7439,30.8792,铜陵市,市第九中学,颗粒物(PM10),56,61,44,23,22,159,67,138,124,42,38,11,4,0.7,0.7
2022-08-18T21:00:00,2289A,117.846,30.9413,铜陵市,车站新区,,,,42,,19,164,88,142,136,20,17,7,6,0.5,0.6
2022-08-18T21:00:00,2290A,117.8483,30.97,铜陵市,市职教基地,,27,23,43,17,22,176,86,158,136,16,14,8,8,0.8,1
2022-08-18T21:00:00,2291A,117.0809,30.5177,安庆市,环科院,,44,44,38,21,24,167,85,142,126,31,37,7,9,0.4,0.6
2022-08-18T21:00:00,2292A,117.0331,30.5119,安庆市,马山宾馆,,35,35,37,21,24,157,81,143,134,21,21,4,9,0.6,0.8
2022-08-18T21:00:00,2294A,116.9896,30.6145,安庆市,安庆大学,,45,45,34,24,22,156,41,141,115,45,19,4,5,0.6,0.6
2022-08-18T21:00:00,2295A,118.2903,29.6963,黄山市,延安路89号,,29,25,23,20,9,119,65,110,92,5,6,6,6,0.4,0.4
2022-08-18T21:00:00,2296A,118.327,29.7178,黄山市,黄山东路89号,,22,18,25,8,10,122,69,113,95,8,8,5,5,0.4,0.4
2022-08-18T21:00:00,2297A,118.1371,30.2756,黄山市,黄山区政府5号楼,,43,43,26,19,11,129,34,116,88,15,7,7,6,0.6,0.4
2022-08-18T21:00:00,2298A,118.3093,32.3153,滁州市,老年大学,"颗粒物(PM10),细颗粒物(PM2.5)",53,55,38,37,23,227,150,209,198,24,21,11,11,0.4,0.4
2022-08-18T21:00:00,2299A,118.3244,32.2786,滁州市,人大宾馆,颗粒物(PM10),61,71,39,32,16,204,154,196,187,21,24,5,6,0.5,0.6
2022-08-18T21:00:00,2301A,115.8277,32.8929,阜阳市,市监测站,,33,33,24,16,16,141,94,134,126,13,10,6,7,0.6,0.7
2022-08-18T21:00:00,2303A,115.8554,32.8605,阜阳市,开发区,,31,23,31,17,16,136,97,129,124,16,13,3,4,0.6,0.6
2022-08-18T21:00:00,2306A,116.989,33.6306,宿州市,火车站,,,,,,,,,,,,,,,,
2022-08-18T21:00:00,2307A,116.5079,31.737,六安市,监测大楼,,38,38,31,16,16,138,84,130,116,16,7,7,6,0.4,0.4
2022-08-18T21:00:00,2308A,116.4738,31.7643,六安市,皖西学院,,35,23,31,15,15,146,110,139,131,6,6,6,6,0.3,0.4
2022-08-18T21:00:00,2309A,116.4996,31.7905,六安市,朝阳厂,,46,46,33,18,14,155,104,142,129,10,6,10,10,0.4,0.5
2022-08-18T21:00:00,2310A,116.5567,31.7886,六安市,开发区,,50,50,44,16,21,143,91,131,119,11,13,8,11,0.4,0.5
2022-08-18T21:00:00,2311A,115.8072,33.8399,亳州市,污水处理厂,,40,40,29,21,13,154,105,144,132,10,10,3,7,0.9,0.8
2022-08-18T21:00:00,2312A,115.7789,33.8518,亳州市,三国揽胜宫,,39,39,33,23,15,158,123,149,142,6,7,1,4,1.0,0.9
2022-08-18T21:00:00,2314A,117.47,30.6618,池州市,池州学院,,25,21,32,12,19,174,77,156,139,10,12,4,7,0.6,0.8
2022-08-18T21:00:00,2315A,117.4974,30.6539,池州市,平天湖(对照点),,,,,,,,,,,,,,,,
2022-08-18T21:00:00,2316A,118.7581,30.9454,宣城市,鳌峰子站,,45,45,39,30,28,178,139,154,152,17,14,5,5,0.4,0.5
2022-08-18T21:00:00,2317A,118.7385,30.9743,宣城市,敬亭山子站,,49,49,42,28,26,154,111,136,126,31,23,8,5,0.5,0.6
2022-08-18T21:00:00,2318A,118.7173,30.9427,宣城市,开发区子站,,45,43,37,30,28,174,144,152,151,9,12,6,6,0.5,0.5
2022-08-18T21:00:00,2319A,119.0141,25.4325,莆田市,荔城区仓后路,,40,40,31,20,13,125,51,98,74,14,14,5,4,0.8,0.7
2022-08-18T21:00:00,2320A,119.0015,25.4553,莆田市,莆田市监测站,,38,38,27,24,13,135,38,101,77,7,5,6,6,0.8,0.7
2022-08-18T21:00:00,2321A,119.1119,25.4561,莆田市,涵江区六中,,37,37,27,12,14,137,61,99,77,6,10,6,6,0.6,0.7
2022-08-18T21:00:00,2322A,119.1013,25.3215,莆田市,秀屿区政府,,40,40,26,17,8,117,41,90,71,6,4,5,6,0.8,0.7
2022-08-18T21:00:00,2323A,118.981,25.4792,莆田市,东圳水库(对照点),,,,,,,,,,,,,,,,
2022-08-18T21:00:00,2324A,117.6211,26.2625,三明市,三钢,,26,26,29,18,16,124,33,103,74,29,15,2,6,0.6,0.7
2022-08-18T21:00:00,2325A,117.635,26.2714,三明市,三明二中,,,26,28,16,15,121,,99,73,29,17,4,8,0.6,0.9
2022-08-18T21:00:00,2326A,117.6028,26.2378,三明市,三元区政府,,37,37,25,22,14,105,25,91,70,34,14,7,9,0.5,0.5
2022-08-18T21:00:00,2327A,117.7275,26.3108,三明市,洋溪(对照点),,,,,,,,,,,,,,,,
2022-08-18T21:00:00,2331A,118.0966,26.6761,南平市,茫荡山(对照点),,,,,,,,,,,,,,,,
2022-08-18T21:00:00,2332A,118.1681,26.6369,南平市,南平市监测站,,26,26,24,8,13,103,39,89,68,17,9,6,7,0.7,0.5
2022-08-18T21:00:00,2333A,118.1825,26.6489,南平市,南平铝业有限公司,,26,26,23,14,15,102,41,88,67,15,8,7,6,0.6,0.5
2022-08-18T21:00:00,2334A,118.1756,26.6272,南平市,南平七中,,25,23,24,17,16,106,42,94,74,15,7,6,7,0.6,0.5
2022-08-18T21:00:00,2335A,117.0189,25.1181,龙岩市,龙岩师专(对照点),,,,,,,,,,,,,,,,
2022-08-18T21:00:00,2336A,117.0217,25.1033,龙岩市,龙岩市监测站,,28,15,28,11,14,94,87,85,83,19,22,9,9,0.5,0.5
2022-08-18T21:00:00,2337A,117.0258,25.0661,龙岩市,闽西职业技术学院,,37,37,33,11,13,91,91,82,82,18,19,12,12,0.5,0.5
2022-08-18T21:00:00,2338A,117.0196,25.0306,龙岩市,龙岩学院,,36,13,22,8,11,113,113,87,87,8,12,6,5,0.5,0.5
2022-08-18T21:00:00,2339A,119.5001,26.6946,宁德市,金涵水库(对照点),,,,,,,,,,,,,,,,
2022-08-18T21:00:00,2341A,119.5388,26.6612,宁德市,宁德市监测站,,12,3,22,5,10,86,36,57,45,7,9,7,9,0.4,0.5
2022-08-18T21:00:00,2342A,117.3102,29.3867,景德镇市,王港中学(对照点),,44,44,32,19,15,126,38,113,97,36,9,4,5,0.5,0.3
2022-08-18T21:00:00,2343A,117.2117,29.2933,景德镇市,老干部活动中心,颗粒物(PM10),55,60,43,26,20,172,64,141,117,20,13,10,8,0.5,0.5
2022-08-18T21:00:00,2344A,117.1894,29.2789,景德镇市,兽医站,,40,39,32,28,20,175,66,156,122,20,12,5,6,0.4,0.5
2022-08-18T21:00:00,2345A,117.1547,29.2617,景德镇市,台达陶瓷,颗粒物(PM10),53,56,35,36,19,144,29,129,105,68,14,97,15,0.7,0.4
2022-08-18T21:00:00,2346A,117.2461,29.2956,景德镇市,陶研所,,,59,28,25,16,176,60,128,107,10,8,,18,0.5,0.4
2022-08-18T21:00:00,2347A,114.0997,27.5002,萍乡市,武功山(对照点),,15,4,5,2,5,63,47,60,55,7,6,16,20,0.3,0.2
2022-08-18T21:00:00,2348A,113.8385,27.6434,萍乡市,中医院,颗粒物(PM10),57,63,39,28,20,158,18,121,83,49,23,8,12,0.9,0.8
2022-08-18T21:00:00,2349A,113.8493,27.6253,萍乡市,市政府车库,,43,43,34,20,19,150,48,122,91,31,23,9,14,0.8,0.8
2022-08-18T21:00:00,2350A,113.8676,27.6435,萍乡市,市环保局,,34,34,31,23,21,151,33,118,90,43,22,7,18,0.8,0.7
2022-08-18T21:00:00,2351A,113.866,27.6198,萍乡市,安源区政府,颗粒物(PM10),52,54,20,31,20,133,47,118,93,25,20,14,14,1.0,0.9
2022-08-18T21:00:00,2352A,115.0861,27.9317,新余市,北岗(对照点),,29,29,35,16,14,99,56,95,85,7,8,10,12,0.6,0.6
2022-08-18T21:00:00,2353A,114.9886,27.8431,新余市,飞宇,,37,37,34,13,14,86,54,81,74,10,13,5,9,0.4,0.4
2022-08-18T21:00:00,2354A,114.9231,27.8246,新余市,第二水厂,颗粒物(PM10),51,52,44,21,18,99,63,89,86,16,25,8,13,0.8,0.9
2022-08-18T21:00:00,2355A,114.9308,27.8036,新余市,市气象局,,39,39,44,22,17,198,36,96,87,8,16,6,16,0.5,1.1
2022-08-18T21:00:00,2357A,116.9822,28.1136,鹰潭市,龙虎山(对照点),,,,27,1,6,97,18,85,60,27,18,9,8,2.9,0.9
2022-08-18T21:00:00,2358A,117.0564,28.2642,鹰潭市,新监测站,,29,29,30,9,16,120,50,109,87,2,4,1,6,0.1,0.3
2022-08-18T21:00:00,2359A,117.0311,28.2475,鹰潭市,财苑宾馆,,21,21,38,6,9,108,41,103,79,4,5,3,5,0.2,0.3
2022-08-18T21:00:00,2360A,117.0222,28.2264,鹰潭市,体育馆,,28,20,29,19,13,118,46,105,83,3,3,1,2,0.4,0.4
2022-08-18T21:00:00,2361A,117.0017,28.2131,鹰潭市,三川水表,,27,27,39,7,9,110,35,94,75,2,5,1,2,0.0,0.1
2022-08-18T21:00:00,2362A,114.9017,25.9149,赣州市,通天岩(对照点),,30,30,21,14,10,94,67,86,84,7,8,5,7,0.4,0.4
2022-08-18T21:00:00,2363A,114.9367,25.8664,赣州市,地委,,33,33,19,14,11,83,65,79,78,17,10,9,6,0.9,0.8
2022-08-18T21:00:00,2364A,114.9461,25.8481,赣州市,气象台,,25,18,17,17,10,83,65,78,77,15,8,12,10,0.7,0.6
2022-08-18T21:00:00,2365A,114.9322,25.8333,赣州市,市图书馆,,29,29,16,9,10,102,75,84,81,22,12,9,6,1.1,1
2022-08-18T21:00:00,2366A,114.8905,25.8471,赣州市,华坚鞋城,,28,28,26,13,12,94,60,90,84,15,9,14,8,0.9,0.8
2022-08-18T21:00:00,2367A,114.9754,27.0803,吉安市,红声器材厂,,40,40,34,15,14,99,81,88,88,8,7,6,9,0.6,0.5
2022-08-18T21:00:00,2368A,114.9658,27.0999,吉安市,市森林工业局,,31,31,31,16,15,97,88,88,88,9,9,5,8,0.4,0.5
