timepoint,stationcode,longitude,latitude,area,positionname,primarypollutant,aqi,pm10,pm10_24h,pm2_5,pm2_5_24h,o3,o3_24h,o3_8h,o3_8h_24h,no2,no2_24h,so2,so2_24h,co,co_24h
2024-03-03T2100,2566A,102.1879,31.914,阿坝藏族羌族自治州,州农科所,,23,23,24,8,10,16,,27,26,16,9,7,8,1.4,1.4
2024-03-03T2100,2568A,102.2502,31.8896,阿坝藏族羌族自治州,马师校,,23,23,12,13,8,44,,75,70,20,11,4,4,0.6,0.4
2024-03-03T2100,3994A,102.2165,31.9024,阿坝藏族羌族自治州,马尔康中学西区,,26,26,16,12,7,48,,75,71,18,9,6,5,0.5,0.4
2024-03-03T2100,2695A,80.292,41.1694,阿克苏地区,电视台,颗粒物(PM10),186,322,335,75,71,79,,84,84,18,26,6,8,0.8,1.1
2024-03-03T2100,2696A,80.2613,41.1551,阿克苏地区,艺术中心,颗粒物(PM10),187,323,333,82,83,72,,78,78,28,32,7,9,0.9,1.3
2024-03-03T2100,2204A,105.6467,38.8363,阿拉善盟,西城区西花园,颗粒物(PM10),69,88,33,46,17,44,,89,80,48,17,8,8,1.3,0.9
2024-03-03T2100,2205A,105.6985,38.8411,阿拉善盟,蒙二幼,颗粒物(PM10),65,79,30,23,13,92,,83,78,12,13,10,7,0.8,0.7
2024-03-03T2100,2206A,105.724,38.8516,阿拉善盟,环保局新楼,颗粒物(PM10),51,52,24,21,12,94,,96,80,14,9,10,7,0.8,0.7
2024-03-03T2100,2708A,88.1264,47.8517,阿勒泰地区,市站,,29,25,26,20,12,82,,87,87,21,18,4,7,0.4,0.4
2024-03-03T2100,2630A,80.1161,32.5,阿里地区,阿里监测站,,30,11,15,4,3,96,,96,95,2,3,7,8,0.4,0.4
2024-03-03T2100,3192A,80.0903,32.5028,阿里地区,阿里藏医院,,31,17,16,6,3,98,,99,98,2,4,14,10,0.4,0.4
2024-03-03T2100,2642A,109.0318,32.6537,安康市,香溪洞,颗粒物(PM10),60,69,42,40,29,33,,42,30,34,23,8,8,0.9,0.8
2024-03-03T2100,2643A,109.0281,32.6939,安康市,安康市监测站,细颗粒物(PM2.5),90,98,53,67,36,3,,29,22,59,31,18,11,1.3,0.8
2024-03-03T2100,2644A,109.0072,32.6975,安康市,汉滨区检察院,细颗粒物(PM2.5),73,87,51,53,34,8,,31,23,57,29,11,16,1.0,0.7
2024-03-03T2100,2291A,117.0809,30.5177,安庆市,环科院,,38,38,43,23,26,57,,96,89,39,32,6,5,0.7,0.6
2024-03-03T2100,2292A,117.0331,30.5119,安庆市,马山宾馆,,46,46,44,21,25,66,,100,85,32,34,6,6,0.6,0.6
2024-03-03T2100,2294A,116.9896,30.6145,安庆市,安庆大学,,46,46,43,21,26,49,,100,88,42,24,8,9,0.6,0.5
2024-03-03T2100,3173A,117.0598,30.5351,安庆市,市人大,,36,36,44,18,24,79,,100,96,18,23,6,6,0.6,0.6
2024-03-03T2100,3122A,105.9606,26.2611,安顺市,伍家关,,,,,,,,,,,,,,,,
2024-03-03T2100,3123A,105.9408,26.2431,安顺市,凤凰山,,33,26,29,23,24,43,,58,43,10,11,16,15,0.7,0.6
2024-03-03T2100,3124A,105.9439,26.2564,安顺市,金钟山,,34,34,30,19,23,43,,60,44,9,11,10,13,0.6,0.6
2024-03-03T2100,3125A,105.8983,26.2481,安顺市,娄家坡,,41,41,30,17,22,40,,60,45,11,10,15,11,0.5,0.4
2024-03-03T2100,1818A,114.4839,36.0621,安阳市,棉研所,,,,,,,,,,,,,,,,
2024-03-03T2100,1819A,114.3551,36.1017,安阳市,红庙街,细颗粒物(PM2.5),100,114,92,75,48,59,,99,94,42,36,9,10,1.6,1.6
2024-03-03T2100,1820A,114.361,36.0681,安阳市,银杏小区,细颗粒物(PM2.5),93,116,86,69,47,42,,97,90,60,39,8,9,0.8,0.7
2024-03-03T2100,3141A,114.3922,36.0878,安阳市,信访局,细颗粒物(PM2.5),118,129,98,89,49,22,,96,85,84,41,8,9,0.8,0.8
2024-03-03T2100,3669A,114.4705,36.0637,安阳市,左辅环卫站,细颗粒物(PM2.5),94,126,95,70,52,48,,94,87,57,36,8,9,0.6,0.6
2024-03-03T2100,3703A,114.2917,36.0949,安阳市,安钢职工学校,细颗粒物(PM2.5),98,136,111,73,56,46,,101,93,59,38,9,10,1.3,1.2
2024-03-03T2100,1748A,123.044,41.1196,鞍山市,深沟寺,颗粒物(PM10),60,70,76,40,44,49,,92,80,37,29,9,14,0.8,0.9
2024-03-03T2100,1749A,123.011,41.0931,鞍山市,太阳城,,50,50,75,23,42,64,,91,86,26,31,11,17,0.5,1.1
2024-03-03T2100,1750A,123.0485,41.1442,鞍山市,太平,颗粒物(PM10),60,70,87,35,48,37,,92,72,57,40,11,17,0.7,1.3
2024-03-03T2100,1751A,122.9642,41.0971,鞍山市,铁西三道街,细颗粒物(PM2.5),82,95,92,60,53,14,,93,72,79,42,12,16,1.1,1.3
2024-03-03T2100,1752A,122.9341,41.0833,鞍山市,铁西工业园区,细颗粒物(PM2.5),84,101,96,62,59,20,,92,67,73,44,11,14,0.9,1.1
2024-03-03T2100,1753A,123.022,41.0821,鞍山市,明达新区,颗粒物(PM10),58,65,74,39,43,44,,85,78,45,33,13,18,0.6,1.2
2024-03-03T2100,1754A,123.1289,41.0228,鞍山市,千山,,,,,,,,,,,,,,,,
2024-03-03T2100,2195A,107.4212,40.761,巴彦淖尔市,附二中,细颗粒物(PM2.5),148,214,77,113,33,44,,94,88,60,25,16,14,1.1,0.5
2024-03-03T2100,2196A,107.37,40.7372,巴彦淖尔市,市环保大楼,细颗粒物(PM2.5),170,185,74,129,33,55,,93,90,44,19,12,6,1.1,0.6
2024-03-03T2100,1956A,86.1472,41.7538,巴音郭楞蒙古自治州,孔雀公园,颗粒物(PM10),165,280,289,60,67,58,,73,71,29,34,7,7,0.4,0.6
2024-03-03T2100,1957A,86.1972,41.7166,巴音郭楞蒙古自治州,棉纺厂,颗粒物(PM10),188,325,350,67,66,53,,72,70,30,38,3,4,0.6,0.6
2024-03-03T2100,1958A,86.2357,41.7173,巴音郭楞蒙古自治州,经济开发区,颗粒物(PM10),163,276,287,62,61,67,,82,80,23,24,6,6,0.4,0.4
2024-03-03T2100,2914A,106.7677,31.8794,巴中市,苏山坪,细颗粒物(PM2.5),52,43,42,36,32,69,,72,70,15,13,3,3,0.5,0.5
2024-03-03T2100,3182A,106.7656,31.8545,巴中市,丽阳花园,细颗粒物(PM2.5),60,62,56,43,42,6,,39,37,61,38,4,4,0.9,0.8
2024-03-03T2100,3183A,106.7418,31.8654,巴中市,圣泉水务公司,细颗粒物(PM2.5),69,66,47,50,36,15,,41,38,52,40,4,4,0.8,0.7
2024-03-03T2100,3616A,106.7616,31.8344,巴中市,市中心医院,细颗粒物(PM2.5),63,67,59,45,45,6,,42,40,55,35,5,5,0.9,0.8
2024-03-03T2100,2235A,122.7911,45.6077,白城市,洮北区环保局,颗粒物(PM10),62,73,42,24,15,61,,85,77,9,9,7,7,0.5,0.4
2024-03-03T2100,2236A,122.8738,45.5725,白城市,市环保局,颗粒物(PM10),60,70,44,31,17,44,,91,68,40,16,7,6,0.5,0.4
2024-03-03T2100,2231A,126.4219,41.9171,白山市,喜丰,,45,45,42,17,19,82,,94,90,15,18,11,16,0.8,1
2024-03-03T2100,2232A,126.4077,41.9419,白山市,环保局,,,66,59,20,20,68,,90,87,,9,11,12,0.9,0.9
2024-03-03T2100,2647A,104.1724,36.5446,白银市,第三小学,,45,45,72,26,40,55,,80,74,10,24,41,100,0.7,1
2024-03-03T2100,2648A,104.1465,36.5482,白银市,动力公司,,43,33,74,30,51,55,,88,79,16,31,16,51,0.7,1
2024-03-03T2100,2512A,106.6103,23.9011,百色市,市监测站,细颗粒物(PM2.5),82,87,84,60,61,52,,71,67,22,17,22,19,1.0,0.8
2024-03-03T2100,2513A,106.6538,23.8859,百色市,市中心血站,细颗粒物(PM2.5),87,74,77,64,70,55,,65,65,23,20,18,17,0.9,0.8
2024-03-03T2100,3406A,106.6085,23.8798,百色市,祈福高中,细颗粒物(PM2.5),105,86,79,79,74,33,,67,63,36,20,24,21,1.1,1
2024-03-03T2100,2270A,117.396,32.939,蚌埠市,工人疗养院,细颗粒物(PM2.5),73,77,73,53,47,96,,115,107,19,18,6,6,0.7,0.7
2024-03-03T2100,2271A,117.3605,32.9427,蚌埠市,百货大楼,细颗粒物(PM2.5),77,79,71,56,49,83,,112,104,31,18,3,3,0.6,0.6
2024-03-03T2100,2273A,117.4185,32.8911,蚌埠市,蚌埠学院,细颗粒物(PM2.5),75,80,68,55,45,79,,111,102,34,18,6,5,0.6,0.6
2024-03-03T2100,2274A,117.3533,32.9673,蚌埠市,淮上区政府,细颗粒物(PM2.5),73,83,69,53,49,82,,114,107,31,17,5,5,0.7,0.7
2024-03-03T2100,2275A,117.3145,32.8977,蚌埠市,高新区,细颗粒物(PM2.5),64,66,65,46,48,75,,114,106,36,20,5,5,0.6,0.6
2024-03-03T2100,3715A,117.3092,32.9314,蚌埠市,蚌埠田家炳中学,细颗粒物(PM2.5),83,98,81,61,53,69,,113,104,44,23,8,14,0.6,0.6
2024-03-03T2100,1585A,109.8756,40.6532,包头市,市环境监测站,颗粒物(PM10),77,103,73,44,26,9,,78,60,97,47,25,20,1.2,0.9
2024-03-03T2100,1587A,109.9991,40.5842,包头市,包头八中,颗粒物(PM10),90,130,94,64,39,7,,76,58,90,52,50,25,1.1,1.1
2024-03-03T2100,1588A,109.8538,40.6821,包头市,青山宾馆,细颗粒物(PM2.5),85,100,67,63,30,6,,79,63,93,41,30,18,1.7,0.9
2024-03-03T2100,1589A,109.8642,40.6288,包头市,惠龙物流,颗粒物(PM10),72,93,73,38,28,12,,76,62,77,43,34,19,0.8,0.6
2024-03-03T2100,1590A,110.0377,40.5546,包头市,东河鸿龙湾,颗粒物(PM10),83,115,83,48,27,14,,75,61,74,49,13,14,0.7,0.7
2024-03-03T2100,3283A,109.9154,40.5685,包头市,滨河大厦,颗粒物(PM10),75,99,73,30,26,18,,79,66,62,44,14,14,0.9,0.9
2024-03-03T2100,3419A,109.9447,40.6261,包头市,包头市委党校,颗粒物(PM10),77,104,70,31,27,7,,76,58,90,50,17,26,0.9,1
2024-03-03T2100,3683A,109.8331,40.6576,包头市,昆区政府,颗粒物(PM10),77,104,65,54,30,6,,72,57,94,36,47,19,1.9,1.1
2024-03-03T2100,1930A,107.185,34.3063,宝鸡市,庙沟村,细颗粒物(PM2.5),90,73,57,67,50,27,,58,53,45,24,9,10,0.9,0.8
2024-03-03T2100,1931A,107.0708,34.3017,宝鸡市,竹园沟,细颗粒物(PM2.5),88,68,53,65,47,26,,66,58,36,26,8,9,0.9,0.7
2024-03-03T2100,1932A,107.1906,34.3672,宝鸡市,三陆医院,细颗粒物(PM2.5),99,84,73,74,57,41,,74,69,56,41,12,13,0.9,0.8
2024-03-03T2100,1933A,107.1431,34.3547,宝鸡市,监测站,细颗粒物(PM2.5),98,94,64,73,49,31,,64,58,55,38,6,7,0.8,0.7
2024-03-03T2100,1934A,107.1186,34.3739,宝鸡市,技工学校,细颗粒物(PM2.5),94,88,64,70,48,48,,76,74,44,32,8,9,0.8,0.6
2024-03-03T2100,1935A,107.3906,34.3528,宝鸡市,陈仓区环保局家属楼,细颗粒物(PM2.5),117,100,78,88,57,61,,98,95,54,44,9,12,0.9,0.8
2024-03-03T2100,1936A,107.2058,34.3497,宝鸡市,文理学院,细颗粒物(PM2.5),98,88,71,73,51,40,,67,61,58,44,10,10,0.7,0.6
2024-03-03T2100,1937A,107.2386,34.3622,宝鸡市,三迪小学,细颗粒物(PM2.5),105,,70,79,51,42,,72,65,68,45,10,11,0.8,0.8
2024-03-03T2100,1051A,115.493,38.8632,保定市,游泳馆,颗粒物(PM10),67,84,127,34,47,62,,80,78,25,30,7,10,0.1,0.4
2024-03-03T2100,1052A,115.5213,38.8959,保定市,华电二区,颗粒物(PM10),66,81,107,42,45,48,,76,72,35,35,6,6,0.4,0.6
2024-03-03T2100,1053A,115.4713,38.9108,保定市,接待中心,颗粒物(PM10),60,70,112,24,42,67,,78,78,17,30,3,5,0.4,0.7
2024-03-03T2100,1054A,115.4612,38.8416,保定市,地表水厂,颗粒物(PM10),76,101,132,35,44,62,,78,76,23,37,4,6,0.6,0.8
2024-03-03T2100,3581A,115.31981,38.95208,保定市,满城区生态环境分局,颗粒物(PM10),78,105,132,44,48,53,,76,73,36,34,6,6,0.6,0.7
2024-03-03T2100,3582A,115.47694,38.76408,保定市,清苑区第二中学,颗粒物(PM10),72,93,130,35,40,49,,77,70,35,37,8,10,0.4,0.7
2024-03-03T2100,3583A,115.62909,39.02311,保定市,徐水物探局,颗粒物(PM10),62,73,139,17,43,62,,78,76,26,37,5,7,0.3,0.7
2024-03-03T2100,4004A,115.4202,38.8656,保定市,双鹰农机,颗粒物(PM10),69,88,109,37,41,65,,79,78,21,31,6,8,0.4,0.7
2024-03-03T2100,4034A,115.5150,38.8590,保定市,植保所站,细颗粒物(PM2.5),68,79,108,49,50,54,,80,77,30,33,5,6,0.2,0.5
2024-03-03T2100,2594A,99.1678,25.1081,保山市,市环境监测站,,43,43,36,30,23,96,,98,98,10,9,6,7,0.6,0.6
2024-03-03T2100,2595A,99.1711,25.1328,保山市,市环保局,,42,42,39,27,22,90,,95,94,4,7,7,7,0.5,0.4
2024-03-03T2100,1866A,109.2262,21.588,北海市,牛尾岭水库,,,,,,,,,,,,,,,,
2024-03-03T2100,1867A,109.1436,21.4086,北海市,海滩公园,,49,43,70,34,60,63,,60,60,16,19,7,12,1.0,0.9
2024-03-03T2100,1868A,109.0981,21.4661,北海市,新市环保局,,49,40,75,34,74,58,,32,32,19,28,6,10,0.9,1
2024-03-03T2100,1869A,109.1778,21.5233,北海市,北海工业园,细颗粒物(PM2.5),89,,81,66,67,55,,44,44,18,23,7,15,1.1,1.1
2024-03-03T2100,3400A,109.1911,21.4415,北海市,龙潭自来水厂,,46,,60,32,61,60,,67,67,15,18,8,15,0.9,1
2024-03-03T2100,1001A,116.3621,39.8784,北京市,万寿西宫,颗粒物(PM10),57,64,82,27,32,57,,69,66,29,38,4,2,0.3,0.5
2024-03-03T2100,1002A,116.2202,40.2915,北京市,定陵,颗粒物(PM10),62,73,57,35,26,49,,72,68,16,13,3,3,0.5,0.3
2024-03-03T2100,1003A,116.4174,39.9289,北京市,东四,颗粒物(PM10),54,57,83,23,30,59,,71,68,22,28,6,5,0.6,0.6
2024-03-03T2100,1004A,116.4072,39.8863,北京市,天坛,颗粒物(PM10),52,54,74,23,31,63,,75,71,23,30,4,2,0.4,0.6
2024-03-03T2100,1005A,116.462,39.9365,北京市,农展馆,颗粒物(PM10),54,57,80,21,30,66,,75,72,22,32,4,2,0.4,0.5
2024-03-03T2100,1006A,116.3392,39.9295,北京市,官园,颗粒物(PM10),61,72,84,30,28,65,,81,76,28,30,5,3,0.5,0.5
2024-03-03T2100,1007A,116.2878,39.9611,北京市,海淀万柳,颗粒物(PM10),68,86,79,31,24,58,,75,72,34,37,3,3,0.7,0.6
2024-03-03T2100,1008A,116.6636,40.135,北京市,顺义新城,颗粒物(PM10),61,71,62,33,27,50,,81,74,34,21,6,2,0.7,0.5
2024-03-03T2100,1009A,116.6275,40.3275,北京市,怀柔镇,颗粒物(PM10),66,82,38,38,14,47,,81,70,37,11,9,4,0.7,0.3
2024-03-03T2100,1010A,116.2296,40.217,北京市,昌平镇,颗粒物(PM10),65,79,75,32,26,51,,78,72,38,27,3,2,0.6,0.4
2024-03-03T2100,1011A,116.3966,39.9821,北京市,奥体中心,颗粒物(PM10),59,67,73,27,28,57,,70,67,27,30,5,3,0.5,0.5
2024-03-03T2100,1012A,116.184,39.9136,北京市,古城,颗粒物(PM10),65,79,77,29,25,59,,75,71,29,30,3,2,0.6,0.5
2024-03-03T2100,3281A,115.9718,40.4529,北京市,延庆夏都,,,,54,,14,,,65,,,8,,3,,0.2
2024-03-03T2100,3417A,117.0709,40.1465,北京市,平谷新城,颗粒物(PM10),55,60,82,29,28,70,,88,80,26,24,6,2,0.5,0.5
2024-03-03T2100,3418A,116.8336,40.4095,北京市,密云新城,颗粒物(PM10),66,82,30,31,9,63,,83,77,25,7,5,2,0.6,0.2
2024-03-03T2100,3671A,116.088,39.9726,北京市,门头沟三家店,,,,,,,,,,,,,,,,
2024-03-03T2100,3672A,116.1541,39.8204,北京市,丰台云岗,颗粒物(PM10),62,74,88,28,29,62,,77,74,24,27,3,2,0.4,0.4
2024-03-03T2100,3673A,116.6804,39.9081,北京市,通州东关,颗粒物(PM10),59,67,99,30,43,48,,87,77,38,33,5,3,0.6,0.7
2024-03-03T2100,3674A,115.9577,39.7603,北京市,房山燕山,颗粒物(PM10),56,62,78,31,31,67,,74,74,24,25,2,2,0.4,0.4
2024-03-03T2100,3675A,116.4672,39.7733,北京市,大兴旧宫,,48,48,91,20,36,66,,74,72,18,32,2,2,0.3,0.7
2024-03-03T2100,3694A,115.986,40.4563,北京市,延庆石河营,颗粒物(PM10),62,74,50,30,15,65,,74,72,22,12,2,2,0.6,0.3
2024-03-03T2100,3695A,116.6151,40.3053,北京市,怀柔新城,颗粒物(PM10),65,80,37,38,13,52,,84,75,34,9,4,3,0.5,0.1
2024-03-03T2100,3696A,116.2545,39.8768,北京市,丰台小屯,颗粒物(PM10),64,77,83,27,26,57,,74,69,32,39,5,2,0.5,0.5
2024-03-03T2100,3697A,116.84,40.3844,北京市,密云镇,颗粒物(PM10),67,83,31,37,11,60,,79,74,23,14,5,2,0.6,0.2
2024-03-03T2100,1761A,123.8275,41.3064,本溪市,大峪,,37,37,57,21,29,62,,84,78,18,32,8,11,1.4,1.8
2024-03-03T2100,1762A,123.7567,41.3325,本溪市,溪湖,"颗粒物(PM10),细颗粒物(PM2.5)",57,63,71,40,32,52,,90,83,21,26,10,11,0.7,1.1
2024-03-03T2100,1763A,123.7169,41.3094,本溪市,彩屯,细颗粒物(PM2.5),58,57,61,41,37,42,,88,73,34,30,9,12,0.9,1.2
2024-03-03T2100,1764A,123.7669,41.2864,本溪市,东明,细颗粒物(PM2.5),79,80,75,58,42,31,,88,78,56,46,11,19,0.9,1.5
2024-03-03T2100,1765A,123.7992,41.2664,本溪市,新立屯,,41,41,51,22,26,32,,88,68,50,39,9,14,0.6,1.1
2024-03-03T2100,1766A,123.8142,41.3472,本溪市,威宁,,44,44,64,30,27,46,,85,73,27,34,6,7,0.7,1
2024-03-03T2100,2587A,105.2864,27.3125,毕节市,八中,细颗粒物(PM2.5),75,65,47,55,37,63,,91,89,14,15,10,11,0.7,0.7
2024-03-03T2100,2588A,105.31,27.2944,毕节市,师专,细颗粒物(PM2.5),74,61,40,54,34,60,,83,82,16,16,13,14,0.6,0.6
2024-03-03T2100,3537A,105.3631,27.3533,毕节市,长征村,细颗粒物(PM2.5),115,110,71,87,55,,,95,95,16,13,9,9,0.8,0.7
2024-03-03T2100,1629A,118.0018,37.3617,滨州市,第二水厂,颗粒物(PM10),81,112,142,53,67,70,,90,87,33,53,7,15,0.8,0.9
2024-03-03T2100,1630A,117.9776,37.393,滨州市,北中新校,颗粒物(PM10),80,110,142,48,70,75,,91,90,33,47,11,18,0.7,0.8
2024-03-03T2100,3514A,117.9378,37.3956,滨州市,中海酒店,颗粒物(PM10),76,102,126,48,69,82,,95,95,30,40,11,20,0.5,0.8
2024-03-03T2100,3515A,117.9378,37.3553,滨州市,开发区一中,颗粒物(PM10),76,102,136,41,68,81,,94,94,26,46,13,22,0.6,0.7
2024-03-03T2100,3516A,118.0917,37.694,滨州市,金海六路,颗粒物(PM10),70,90,133,39,61,76,,95,94,32,46,10,15,0.6,0.8
2024-03-03T2100,4028A,117.9956,37.3753,滨州市,滨州市西街道办事处,颗粒物(PM10),82,114,138,58,77,67,,86,84,34,45,12,21,1.0,1
2024-03-03T2100,2311A,115.8072,33.8399,亳州市,污水处理厂,颗粒物(PM10),57,64,65,37,47,90,,111,107,16,14,8,10,0.8,0.8
2024-03-03T2100,2312A,115.7789,33.8518,亳州市,三国揽胜宫,颗粒物(PM10),55,60,82,36,44,84,,108,106,24,17,7,10,0.6,0.6
2024-03-03T2100,3332A,115.7633,33.8034,亳州市,亳州学院,颗粒物(PM10),53,55,72,31,49,91,,112,109,19,15,6,13,0.5,0.6
2024-03-03T2100,2693A,82.0485,44.8556,博尔塔拉蒙古自治州,市党校,颗粒物(PM10),58,65,67,29,31,68,,88,88,24,14,10,10,0.6,0.4
2024-03-03T2100,2694A,82.0806,44.8969,博尔塔拉蒙古自治州,市环保局,颗粒物(PM10),62,73,70,27,30,68,,81,81,31,24,12,13,0.7,0.8
2024-03-03T2100,1071A,116.8842,38.2991,沧州市,沧县城建局,颗粒物(PM10),67,84,98,38,48,71,,85,82,33,32,7,7,0.5,0.9
2024-03-03T2100,1072A,116.8584,38.3254,沧州市,电视转播站,颗粒物(PM10),63,76,93,34,43,53,,81,78,45,29,9,9,0.6,0.7
2024-03-03T2100,1073A,116.8709,38.3228,沧州市,市环保局,,,82,92,33,47,,,60,59,43,28,6,8,0.7,0.7
2024-03-03T2100,3324A,116.8136,38.3004,沧州市,河北水利电力学院,颗粒物(PM10),60,70,103,33,44,77,,82,82,21,32,9,11,0.4,0.6
2024-03-03T2100,2622A,97.1806,31.1273,昌都市,昌都监测站,,28,12,20,9,11,88,,86,86,6,17,8,8,0.2,0.4
2024-03-03T2100,3719A,97.1714,31.1406,昌都市,昌都会议中心,,29,9,9,6,6,90,,90,90,4,6,5,5,0.2,0.3
2024-03-03T2100,2690A,88.1236,43.8886,昌吉回族自治州,天山天池,颗粒物(PM10),55,59,27,18,9,99,,112,111,8,7,8,7,0.5,0.5
2024-03-03T2100,2692A,87.2717,44.0297,昌吉回族自治州,新区政务中心,,,68,104,41,66,,,103,,,48,6,6,0.7,1
2024-03-03T2100,3613A,87.3095,44.0142,昌吉回族自治州,亚心广场,颗粒物(PM10),62,73,103,31,63,94,,103,102,24,34,5,6,0.9,1.1
2024-03-03T2100,1119A,125.3325,43.9166,长春市,食品厂,颗粒物(PM10),55,60,38,33,21,15,,77,57,69,30,18,12,0.6,0.4
2024-03-03T2100,1120A,125.2863,43.9027,长春市,客车厂,细颗粒物(PM2.5),67,71,36,48,23,25,,76,58,60,27,16,22,0.9,0.5
2024-03-03T2100,1121A,125.2841,43.8463,长春市,邮电学院,颗粒物(PM10),57,63,35,36,21,14,,82,64,71,24,13,14,0.7,0.3
2024-03-03T2100,1122A,125.3716,43.8772,长春市,劳动公园,,47,47,32,24,17,49,,90,76,40,23,10,11,0.6,0.5
2024-03-03T2100,1123A,125.3297,43.8805,长春市,园林处,,48,48,30,26,16,32,,82,69,56,23,21,13,0.6,0.4
2024-03-03T2100,1124A,125.4605,43.79,长春市,净月潭,,28,28,30,18,18,73,,85,81,8,11,5,6,0.3,0.3
2024-03-03T2100,1125A,125.7194,43.515,长春市,甩湾子,,,,,,,,,,,,,,,,
2024-03-03T2100,1126A,125.3863,43.8447,长春市,经开区环卫处,颗粒物(PM10),53,56,36,30,17,20,,79,63,65,24,8,8,0.6,0.4
2024-03-03T2100,1127A,125.245,43.7783,长春市,高新区管委会,细颗粒物(PM2.5),114,100,36,86,24,,,88,68,65,23,9,7,0.9,0.4
2024-03-03T2100,1128A,125.1761,43.8325,长春市,岱山公园,颗粒物(PM10),69,87,33,47,24,9,,82,59,80,23,6,3,0.7,0.4
2024-03-03T2100,1335A,113.0833,28.2325,长沙市,经开区环保局,,48,48,49,25,32,50,,52,51,20,21,4,4,0.7,0.7
2024-03-03T2100,1336A,112.8872,28.2189,长沙市,高开区环保局,,50,50,49,29,33,55,,43,43,18,30,4,5,0.8,1
2024-03-03T2100,1337A,113.0792,28.2053,长沙市,马坡岭,,45,45,54,26,36,57,,48,48,14,26,6,6,0.6,0.7
2024-03-03T2100,1338A,112.9394,28.19,长沙市,湖南师范大学,颗粒物(PM10),52,54,51,32,36,55,,,,18,32,5,5,0.9,1.1
2024-03-03T2100,1339A,113.0178,28.1322,长沙市,雨花区环保局,,50,50,46,30,33,48,,40,40,20,29,4,5,0.7,0.7
2024-03-03T2100,1340A,112.9792,28.2597,长沙市,伍家岭,颗粒物(PM10),52,54,53,26,29,44,,38,38,26,34,5,6,1.1,1
2024-03-03T2100,1341A,113.0014,28.1944,长沙市,火车新站,,47,47,51,29,37,54,,40,40,20,38,3,3,0.7,0.8
2024-03-03T2100,1342A,112.9844,28.1178,长沙市,天心区环保局,颗粒物(PM10),54,57,49,26,30,48,,36,36,21,32,4,5,0.6,0.7
2024-03-03T2100,1343A,112.8908,28.1308,长沙市,湖南中医药大学,,,53,52,38,38,13,,42,34,48,38,4,5,,1.1
2024-03-03T2100,1344A,112.9581,28.3611,长沙市,沙坪,,39,39,39,26,32,24,,26,26,24,30,4,4,0.7,0.7
2024-03-03T2100,1727A,113.1147,36.1547,长治市,清华站,颗粒物(PM10),53,56,66,27,32,84,,89,89,20,27,13,12,0.7,1
2024-03-03T2100,1728A,113.1031,36.1989,长治市,监测站,颗粒物(PM10),64,78,73,39,33,72,,86,85,30,32,18,16,1.0,1.3
2024-03-03T2100,1730A,113.0886,36.2125,长治市,审计局,颗粒物(PM10),54,57,59,36,32,73,,88,86,29,31,15,17,0.7,0.9
2024-03-03T2100,1731A,113.0844,36.1856,长治市,长治八中,颗粒物(PM10),58,65,72,27,35,82,,90,90,34,40,13,11,0.8,1
2024-03-03T2100,2845A,113.1569,36.1911,长治市,德盛苑,,45,40,50,31,32,94,,96,96,17,22,12,13,0.7,1
2024-03-03T2100,3568A,113.06,36.0464,长治市,向阳小学,细颗粒物(PM2.5),63,71,78,45,36,87,,97,97,25,28,17,15,0.6,0.7
2024-03-03T2100,3569A,112.8792,36.3144,长治市,屯留一中,细颗粒物(PM2.5),68,76,59,49,36,78,,95,93,27,29,16,16,0.9,0.8
2024-03-03T2100,3570A,113.235,36.3489,长治市,潞城四中,颗粒物(PM10),69,87,75,42,37,81,,100,97,27,35,8,10,0.5,0.6
2024-03-03T2100,1854A,111.6975,28.9703,常德市,市二中,细颗粒物(PM2.5),70,62,48,51,41,46,,60,58,21,20,8,8,0.8,0.8
2024-03-03T2100,1857A,111.7158,29.1456,常德市,白鹤山,细颗粒物(PM2.5),62,66,52,44,34,31,,43,41,18,13,4,4,0.9,0.7
2024-03-03T2100,3138A,111.7153,29.0289,常德市,武陵区永安,细颗粒物(PM2.5),64,70,52,46,35,40,,61,57,28,25,8,8,0.9,0.7
2024-03-03T2100,3139A,111.6892,28.9881,常德市,鼎城区玉霞,细颗粒物(PM2.5),63,61,48,45,37,42,,59,56,30,30,10,9,0.8,0.7
2024-03-03T2100,3140A,111.6625,29.0531,常德市,武陵区长庚,细颗粒物(PM2.5),65,61,50,47,39,44,,62,60,27,24,7,6,0.8,0.7
2024-03-03T2100,1196A,119.9633,31.762,常州市,市监测站,细颗粒物(PM2.5),79,87,94,58,59,65,,115,105,62,39,10,12,1.0,0.8
2024-03-03T2100,1200A,119.9468,31.7069,常州市,武进监测站,细颗粒物(PM2.5),69,75,82,50,53,81,,114,110,43,31,7,8,0.8,0.7
2024-03-03T2100,1201A,119.9255,31.9087,常州市,安家,细颗粒物(PM2.5),73,77,84,53,58,45,,113,102,73,40,7,9,0.9,0.8
2024-03-03T2100,3002A,119.9805,31.8174,常州市,行政中心,细颗粒物(PM2.5),67,68,76,48,52,65,,109,102,63,39,7,10,0.8,0.8
2024-03-03T2100,3003A,120.0522,31.7748,常州市,经开区,细颗粒物(PM2.5),67,75,89,48,57,66,,115,107,59,37,6,8,0.8,1
2024-03-03T2100,3010A,119.9025,31.7964,常州市,钟楼,细颗粒物(PM2.5),80,76,79,59,55,66,,114,107,60,35,9,11,1.0,0.8
2024-03-03T2100,3429A,119.8598,31.7066,常州市,武进经发区,细颗粒物(PM2.5),74,81,86,54,62,87,,117,111,45,39,8,10,0.8,0.8
2024-03-03T2100,3430A,119.5826,31.7245,常州市,金坛城区,细颗粒物(PM2.5),65,76,76,47,54,93,,114,113,33,39,9,11,0.7,0.7
2024-03-03T2100,2220A,120.4318,41.5881,朝阳市,西梁,细颗粒物(PM2.5),92,129,50,68,27,37,,92,74,50,24,17,10,1.4,0.8
2024-03-03T2100,2221A,120.4521,41.5646,朝阳市,河畔小区,,46,38,45,32,25,59,,84,75,25,23,10,8,0.7,0.7
2024-03-03T2100,2222A,120.4176,41.5648,朝阳市,八里堡,细颗粒物(PM2.5),74,94,44,54,23,32,,86,68,53,24,16,11,1.3,0.7
2024-03-03T2100,2223A,120.3806,41.5969,朝阳市,农业园区,细颗粒物(PM2.5),78,71,39,57,25,11,,86,58,63,26,13,9,1.1,0.7
2024-03-03T2100,1705A,116.6367,23.6719,潮州市,西园路,,46,46,28,27,20,88,,98,98,18,13,6,5,0.5,0.4
2024-03-03T2100,3026A,116.6183,23.6608,潮州市,市政府,,30,30,29,20,17,84,,95,95,19,15,8,7,0.8,0.8
2024-03-03T2100,4036A,116.6461,23.6761,潮州市,金山,,39,36,28,27,28,87,,95,95,15,13,8,7,0.7,0.8
2024-03-03T2100,2472A,113.0073,25.9061,郴州市,马头岭,,30,28,37,21,16,24,,34,32,19,23,4,4,0.8,0.8
2024-03-03T2100,2473A,113.0116,25.8226,郴州市,市职中,细颗粒物(PM2.5),68,49,39,49,33,18,,29,27,26,25,6,6,0.8,0.9
2024-03-03T2100,2474A,113.0161,25.8001,郴州市,兴隆步行街,细颗粒物(PM2.5),65,60,54,47,42,19,,31,26,27,29,6,6,0.8,0.9
2024-03-03T2100,2475A,113.0383,25.8071,郴州市,市审计局,细颗粒物(PM2.5),65,64,44,47,32,13,,34,26,34,32,7,6,0.9,1.1
2024-03-03T2100,2476A,113.0348,25.7759,郴州市,市环保局,细颗粒物(PM2.5),60,61,46,43,38,6,,33,28,39,29,5,4,1.1,0.8
2024-03-03T2100,1431A,103.9728,30.7236,成都市,金泉两河,细颗粒物(PM2.5),85,96,84,63,67,20,,22,21,39,40,3,2,0.8,0.9
2024-03-03T2100,1432A,104.176,30.6872,成都市,十里店,细颗粒物(PM2.5),90,98,82,67,62,19,,41,41,55,46,1,2,0.9,0.9
2024-03-03T2100,1433A,104.079,30.5706,成都市,三瓦窑,细颗粒物(PM2.5),67,80,83,48,51,31,,46,46,41,44,1,2,0.7,0.8
2024-03-03T2100,1434A,104.1114,30.63,成都市,沙河铺,细颗粒物(PM2.5),90,89,85,67,63,26,,37,37,46,45,3,4,0.7,0.7
2024-03-03T2100,1437A,104.0786,30.6531,成都市,君平街,细颗粒物(PM2.5),105,94,85,79,68,20,,38,37,53,50,4,5,0.7,0.8
2024-03-03T2100,1438A,103.613,31.0283,成都市,灵岩寺,"颗粒物(PM10),细颗粒物(PM2.5)",68,86,59,49,37,58,,61,55,22,19,4,4,1.2,1.2
2024-03-03T2100,2880A,104.0239,30.65639,成都市,大石西路,细颗粒物(PM2.5),93,90,92,69,67,25,,34,34,46,46,3,3,0.8,0.8
2024-03-03T2100,3136A,104.2725,30.5589,成都市,龙泉驿区区政府,颗粒物(PM10),70,90,77,46,46,35,,53,51,34,33,2,3,0.7,0.8
2024-03-03T2100,3357A,104.0106,30.6931,成都市,金博路,细颗粒物(PM2.5),85,101,88,63,70,5,,19,17,60,48,2,2,0.9,0.8
2024-03-03T2100,3359A,104.0578,30.5225,成都市,华阳,细颗粒物(PM2.5),83,85,81,61,61,22,,45,44,56,51,2,2,0.7,0.7
2024-03-03T2100,3487A,104.2394,30.5319,成都市,车城东七路,细颗粒物(PM2.5),83,78,80,61,64,30,,53,49,42,39,2,3,0.8,0.9
2024-03-03T2100,3488A,104.3853,30.7453,成都市,青白江技师分院,细颗粒物(PM2.5),79,82,78,58,56,30,,48,48,33,34,2,3,0.7,0.8
2024-03-03T2100,3489A,104.0789,30.4072,成都市,科学城,细颗粒物(PM2.5),90,86,81,67,65,36,,60,59,40,38,3,3,0.8,0.8
2024-03-03T2100,4011A,103.8506,30.6947,成都市,光华大道三段,细颗粒物(PM2.5),94,100,74,70,53,15,,30,25,42,30,3,2,0.9,0.9
2024-03-03T2100,1062A,117.9531,40.9081,承德市,铁路,,45,43,29,31,14,50,,81,74,28,23,15,10,0.7,0.5
2024-03-03T2100,1063A,117.9392,40.9763,承德市,中国银行,颗粒物(PM10),59,68,26,25,10,36,,88,73,39,15,10,9,0.6,0.3
2024-03-03T2100,1064A,117.9503,40.928,承德市,开发区,,36,36,32,23,16,41,,82,72,25,17,9,9,0.5,0.3
2024-03-03T2100,1065A,117.8051,40.9655,承德市,文化中心,颗粒物(PM10),60,69,42,32,11,9,,89,69,66,21,10,10,0.6,0.4
2024-03-03T2100,1066A,117.9268,41.0026,承德市,离宫,,38,38,17,22,14,37,,83,72,32,7,8,5,0.4,0.2
2024-03-03T2100,2314A,117.47,30.6618,池州市,池州学院,颗粒物(PM10),51,52,41,34,27,59,,107,102,43,18,5,5,0.8,0.6
2024-03-03T2100,3237A,117.4918,30.6617,池州市,展览馆,,33,33,42,19,26,66,,108,100,28,20,4,4,0.5,0.6
2024-03-03T2100,3333A,117.5627,30.695,池州市,第八中学,,44,44,44,29,27,76,,105,100,37,17,5,3,0.4,0.5
2024-03-03T2100,3334A,117.5038,30.6243,池州市,第十二中学,颗粒物(PM10),51,52,46,29,29,29,,109,93,66,21,3,4,0.6,0.8
2024-03-03T2100,1744A,118.9233,42.2816,赤峰市,松山一中,,43,43,19,20,8,43,,75,64,40,17,20,14,0.9,0.5
2024-03-03T2100,1745A,118.9576,42.2728,赤峰市,哈达街,,36,36,18,21,12,51,,72,62,31,20,24,11,0.6,0.5
2024-03-03T2100,1746A,118.8788,42.2554,赤峰市,天义路,,26,22,17,18,7,52,,71,66,24,14,10,8,0.5,0.4
2024-03-03T2100,3058A,119.2658,42.0353,赤峰市,银河街,细颗粒物(PM2.5),77,75,26,56,15,38,,74,64,46,16,24,14,1.3,0.6
2024-03-03T2100,3286A,118.9359,42.3147,赤峰市,桥北物流园区,,48,48,17,33,10,14,,77,60,63,20,28,10,1.0,0.4
2024-03-03T2100,2521A,107.3476,22.4136,崇左市,市环保局江州分局,细颗粒物(PM2.5),100,116,82,75,53,36,,52,51,36,22,11,10,0.9,0.7
2024-03-03T2100,2522A,107.3702,22.3707,崇左市,城南新区,细颗粒物(PM2.5),148,,76,113,72,25,,46,45,52,21,9,8,0.9,0.6
2024-03-03T2100,2298A,118.3093,32.3153,滁州市,老年大学,颗粒物(PM10),64,78,67,43,48,34,,110,94,75,28,9,9,1.1,0.8
2024-03-03T2100,2299A,118.3244,32.2786,滁州市,人大宾馆,颗粒物(PM10),61,72,74,37,51,46,,108,97,57,28,6,7,1.0,0.9
2024-03-03T2100,3207A,118.3118,32.3038,滁州市,市政府原办公楼,细颗粒物(PM2.5),69,85,65,50,46,21,,108,87,84,30,5,5,1.3,0.8
2024-03-03T2100,3331A,118.3267,32.2634,滁州市,图书馆,"颗粒物(PM10),细颗粒物(PM2.5)",60,70,70,43,46,33,,106,96,79,27,8,8,1.1,0.8
2024-03-03T2100,2605A,101.5482,25.0441,楚雄彝族自治州,州环境监测站,,33,29,23,20,16,104,,101,101,6,4,6,6,0.5,0.4
2024-03-03T2100,2606A,101.538,25.0492,楚雄彝族自治州,市经济开发区,,50,50,25,21,17,96,,94,94,8,6,6,6,0.6,0.5
2024-03-03T2100,2548A,107.5277,31.2827,达州市,达州职业技术学院,颗粒物(PM10),79,107,68,55,44,6,,38,31,53,38,10,12,1.1,0.9
2024-03-03T2100,2549A,107.5086,31.2186,达州市,市环境监测站,细颗粒物(PM2.5),70,88,68,51,42,5,,31,27,73,49,8,10,1.4,1
2024-03-03T2100,2550A,107.4988,31.2132,达州市,凤凰小区,细颗粒物(PM2.5),85,97,63,63,45,6,,36,31,71,46,9,11,1.5,0.9
2024-03-03T2100,2551A,107.5082,31.1986,达州市,达县机关宾馆,细颗粒物(PM2.5),98,105,64,73,46,4,,34,29,64,47,7,8,1.1,0.9
2024-03-03T2100,2552A,107.4644,31.2124,达州市,市政中心,细颗粒物(PM2.5),79,82,70,58,44,10,,30,28,71,55,8,10,1.0,0.8
2024-03-03T2100,2614A,100.1542,25.7054,大理白族自治州,大理市环境监测站,,42,,30,29,20,89,,89,88,6,9,6,6,0.5,0.4
2024-03-03T2100,2615A,100.2171,25.5811,大理白族自治州,大理古城,,40,,23,28,16,85,,96,95,7,8,7,7,0.4,0.4
2024-03-03T2100,1109A,121.612,38.9741,大连市,甘井子,,,54,63,37,33,,,90,85,30,27,,8,0.6,0.6
2024-03-03T2100,1110A,121.565,38.9511,大连市,周水子,颗粒物(PM10),51,52,67,35,38,23,,93,75,57,39,12,10,1.0,0.9
2024-03-03T2100,1111A,121.5637,38.8845,大连市,星海三站,细颗粒物(PM2.5),53,54,63,37,36,32,,88,77,58,43,22,14,1.0,0.9
2024-03-03T2100,1112A,121.6302,38.9117,大连市,青泥洼桥,颗粒物(PM10),51,51,56,32,30,43,,91,83,50,36,13,14,0.7,0.7
2024-03-03T2100,1113A,121.6251,38.8638,大连市,傅家庄,,42,42,52,23,26,55,,88,80,37,27,14,13,0.8,0.8
2024-03-03T2100,1114A,121.5213,38.8661,大连市,七贤岭,,39,39,58,14,32,49,,80,72,29,25,15,13,0.7,0.8
2024-03-03T2100,1115A,121.2529,38.8061,大连市,旅顺,,34,34,61,20,32,73,,91,86,20,26,10,11,0.7,0.8
2024-03-03T2100,1116A,121.7485,39.1311,大连市,金州,细颗粒物(PM2.5),53,48,54,37,35,64,,95,83,19,21,10,10,1.0,0.8
2024-03-03T2100,1117A,121.7811,39.0496,大连市,开发区,,48,48,60,32,31,40,,87,78,50,27,7,8,0.7,0.6
2024-03-03T2100,1118A,121.9762,39.0631,大连市,双D港,,36,29,48,25,25,76,,96,89,13,13,9,9,0.7,0.7
2024-03-03T2100,1789A,124.81117,46.03138,大庆市,大同区,细颗粒物(PM2.5),78,72,45,57,28,53,,82,71,32,16,14,10,0.9,0.5
2024-03-03T2100,1790A,125.129,46.533,大庆市,龙凤区,颗粒物(PM10),55,59,46,28,26,52,,76,68,30,22,6,8,0.6,0.5
2024-03-03T2100,1791A,124.902,46.408,大庆市,红岗区,,40,34,32,28,22,68,,82,76,21,18,6,6,0.5,0.5
2024-03-03T2100,1792A,125.153,46.586,大庆市,萨尔图区,,36,36,37,23,20,52,,74,68,33,23,10,10,0.6,0.5
2024-03-03T2100,1793A,124.9042,46.6215,大庆市,让胡路区,,41,41,43,24,20,61,,81,75,27,20,7,7,0.4,0.3
2024-03-03T2100,3481A,125.141,46.634,大庆市,萨区政府监测点,,35,32,25,24,17,65,,80,76,25,23,16,9,0.4,0.4
2024-03-03T2100,1721A,113.3819,40.1097,大同市,果树场,,,,,,,,,,,,,,,,
2024-03-03T2100,1723A,113.2994,40.0758,大同市,云冈宾馆,颗粒物(PM10),76,102,67,48,22,54,,94,90,49,25,13,13,0.9,0.8
2024-03-03T2100,1724A,113.3444,40.0917,大同市,大同大学,颗粒物(PM10),70,90,59,43,20,46,,96,87,59,28,13,17,0.3,0.6
2024-03-03T2100,1725A,113.2661,40.1269,大同市,安家小村,颗粒物(PM10),72,93,71,48,23,69,,98,92,36,27,15,19,0.6,0.9
2024-03-03T2100,1726A,113.2711,40.0844,大同市,教育学院,颗粒物(PM10),65,80,68,44,22,50,,91,87,45,24,12,16,0.9,1
2024-03-03T2100,3282A,113.3397,40.0597,大同市,大同市卫生学校,细颗粒物(PM2.5),88,85,51,65,27,52,,95,89,51,25,19,13,0.6,0.7
2024-03-03T2100,3565A,113.1367,40.1122,大同市,云冈站,颗粒物(PM10),60,69,70,27,26,59,,92,88,30,28,16,25,0.6,0.8
2024-03-03T2100,3566A,113.1186,40.2556,大同市,图书馆,颗粒物(PM10),82,113,71,55,30,41,,84,75,40,21,21,21,0.7,0.7
2024-03-03T2100,3567A,113.5931,40.0461,大同市,区一中,颗粒物(PM10),75,100,73,40,25,64,,86,84,28,23,23,18,1.0,1
2024-03-03T2100,3676A,113.2802,40.0995,大同市,第二人民医院,细颗粒物(PM2.5),64,69,70,46,23,55,,95,92,51,31,12,16,0.7,0.8
2024-03-03T2100,2269A,124.1069,50.4097,大兴安岭地区,科技局,,33,30,24,23,19,62,,82,76,10,4,6,6,0.5,0.5
2024-03-03T2100,3663A,124.1164,50.4278,大兴安岭地区,红旗社区,细颗粒物(PM2.5),60,46,26,43,16,30,,82,67,33,20,16,8,0.7,0.5
2024-03-03T2100,1600A,124.3303,40.0625,丹东市,江湾东路,,34,34,43,19,25,85,,91,89,13,17,12,16,0.6,1
2024-03-03T2100,1601A,124.4256,40.1503,丹东市,临江后街,,38,38,38,23,17,74,,89,85,21,18,15,11,0.8,0.8
2024-03-03T2100,1602A,124.3933,40.1461,丹东市,元宝山,,30,30,32,19,17,76,,86,82,10,11,13,11,0.7,0.8
2024-03-03T2100,1603A,124.3633,40.1092,丹东市,民主桥,,38,38,46,16,18,77,,82,77,12,21,10,13,0.4,0.6
2024-03-03T2100,3541A,109.5726,19.5167,儋州市,第一中学子站,,28,28,9,6,5,72,,71,71,13,5,10,6,0.8,0.7
2024-03-03T2100,3542A,109.5567,19.5187,儋州市,东坡学校子站,,24,23,10,5,6,74,,75,75,14,7,8,5,0.8,0.7
2024-03-03T2100,2616A,98.5842,24.428,德宏傣族景颇族自治州,德宏州监测站,颗粒物(PM10),57,63,60,32,36,82,,114,112,21,27,9,20,0.5,0.6
2024-03-03T2100,3677A,98.5881,24.4368,德宏傣族景颇族自治州,芒市人民政府综合楼,颗粒物(PM10),54,58,51,22,33,77,,108,106,20,17,12,12,0.5,0.5
2024-03-03T2100,1901A,104.4239,31.1208,德阳市,东山公园,细颗粒物(PM2.5),77,70,66,56,54,27,,52,51,47,29,1,3,0.7,0.7
2024-03-03T2100,1902A,104.3826,31.1317,德阳市,西小区,细颗粒物(PM2.5),79,82,82,58,64,24,,46,46,42,40,2,5,0.8,0.9
2024-03-03T2100,1904A,104.3553,31.1091,德阳市,耐火材料厂,细颗粒物(PM2.5),80,77,84,59,67,28,,47,47,33,35,3,6,0.7,0.8
2024-03-03T2100,3639A,104.4019,31.1244,德阳市,市教育局,细颗粒物(PM2.5),82,73,69,60,57,34,,48,48,36,41,2,4,0.6,0.7
2024-03-03T2100,1622A,116.3032,37.4674,德州市,儿童乐园,颗粒物(PM10),111,171,145,80,64,77,,72,,30,35,12,13,0.7,0.8
2024-03-03T2100,1624A,116.2991,37.4451,德州市,监理站,颗粒物(PM10),113,175,138,75,62,82,,89,89,38,39,14,16,0.7,0.7
2024-03-03T2100,3066A,116.2721,37.4379,德州市,九衢泉纯净水厂,颗粒物(PM10),112,173,137,73,60,78,,85,85,33,37,13,12,1.0,1
2024-03-03T2100,3371A,116.3728,37.4403,德州市,开发区人民医院,颗粒物(PM10),109,168,141,70,61,,,83,83,38,39,12,12,0.7,0.7
2024-03-03T2100,3372A,116.3572,37.4094,德州市,太阳城中学,颗粒物(PM10),103,156,136,75,67,77,,83,83,32,41,9,12,0.7,0.8
2024-03-03T2100,3511A,116.5652,37.3319,德州市,陵城艺术中心,"颗粒物(PM10),细颗粒物(PM2.5)",107,163,140,80,67,74,,87,86,25,30,15,15,0.8,0.9
2024-03-03T2100,2621A,99.7056,27.8317,迪庆藏族自治州,迪庆州站,,30,30,34,16,21,89,,90,90,14,14,8,9,0.5,0.5
2024-03-03T2100,3180A,99.7136,27.8094,迪庆藏族自治州,质量技术监督局,,27,19,25,9,12,86,,88,88,5,7,9,8,0.5,0.6
2024-03-03T2100,2663A,104.6241,35.5734,定西市,东关小学,,45,40,56,31,36,54,,66,62,10,11,12,12,0.7,0.6
2024-03-03T2100,2664A,104.6194,35.5934,定西市,供电公司,,47,47,47,32,40,58,,67,64,9,13,10,11,0.4,0.5
2024-03-03T2100,1389A,113.7547,23.0494,东莞市,莞城梨川,颗粒物(PM10),53,56,41,34,28,32,,59,,39,30,10,9,0.6,0.7
2024-03-03T2100,1390A,113.7944,23.0128,东莞市,东城石井,颗粒物(PM10),53,56,40,31,26,15,,49,44,51,31,8,8,0.8,0.7
2024-03-03T2100,1391A,113.7383,22.9658,东莞市,南城西平,颗粒物(PM10),52,53,43,30,25,15,,54,46,55,38,7,7,1.1,1
2024-03-03T2100,3319A,113.7338,23.0381,东莞市,万江金泰,颗粒物(PM10),55,59,43,35,27,23,,50,45,39,28,11,9,1.1,0.9
2024-03-03T2100,3626A,113.7533,23.0202,东莞市,南城元岭,颗粒物(PM10),54,57,39,32,25,21,,52,48,42,26,9,8,1.0,0.8
2024-03-03T2100,3627A,113.7875,23.0457,东莞市,东城主山,颗粒物(PM10),56,62,42,36,25,23,,53,48,43,27,9,9,1.0,0.9
2024-03-03T2100,1666A,118.6614,37.4309,东营市,市环保局,颗粒物(PM10),64,78,127,36,67,95,,102,102,20,43,7,17,0.3,0.6
2024-03-03T2100,3036A,118.6904,37.4338,东营市,开发区管委会,颗粒物(PM10),65,79,129,39,72,90,,96,96,26,50,2,13,0.6,0.8
2024-03-03T2100,3365A,118.5719,37.565,东营市,垦利区民丰路,颗粒物(PM10),63,75,132,36,69,85,,97,97,26,43,11,17,0.7,1
2024-03-03T2100,3498A,118.5055,37.8612,东营市,河口城区,颗粒物(PM10),70,90,146,44,67,90,,94,94,18,37,6,11,0.7,0.8
2024-03-03T2100,3646A,118.4978,37.4623,东营市,胜利站,颗粒物(PM10),77,104,146,34,69,83,,96,95,26,48,8,19,0.6,0.9
2024-03-03T2100,3734A,118.35,37.26,东营市,理想之城,颗粒物(PM10),68,85,138,36,68,87,,95,95,23,53,4,13,0.6,0.8
2024-03-03T2100,1591A,110.0023,39.8129,鄂尔多斯市,综合楼,颗粒物(PM10),107,163,72,36,22,53,,95,88,58,34,20,16,0.7,0.7
2024-03-03T2100,1592A,109.9486,39.8261,鄂尔多斯市,巴音孟克林场办事处,细颗粒物(PM2.5),83,110,63,61,22,80,,90,90,25,22,14,13,0.6,0.6
2024-03-03T2100,1593A,109.7736,39.5986,鄂尔多斯市,康泽苑,颗粒物(PM10),79,107,49,56,20,64,,103,98,42,23,26,7,0.7,0.6
2024-03-03T2100,1594A,109.8119,39.5989,鄂尔多斯市,华泰汽车城,颗粒物(PM10),60,70,50,29,23,50,,96,89,54,26,11,7,0.6,0.6
2024-03-03T2100,1595A,109.9734,39.7884,鄂尔多斯市,奥林花园,颗粒物(PM10),96,141,71,41,26,50,,88,81,59,47,18,12,0.9,0.9
2024-03-03T2100,2436A,114.8938,30.3994,鄂州市,市政府,,36,30,59,25,39,77,,99,97,24,26,12,10,1.1,1.1
2024-03-03T2100,2437A,114.8989,30.3714,鄂州市,赵家坝,,38,38,55,23,40,76,,98,96,24,23,9,7,1.2,1
2024-03-03T2100,3654A,114.8094,30.4089,鄂州市,精准医疗中心,颗粒物(PM10),59,68,83,26,44,78,,98,97,21,32,15,13,1.3,1.4
2024-03-03T2100,2454A,109.4978,30.2981,恩施土家族苗族自治州,湖北民院,"颗粒物(PM10),细颗粒物(PM2.5)",62,73,63,44,33,12,,20,20,43,31,10,10,1.2,1.2
2024-03-03T2100,2455A,109.4707,30.2798,恩施土家族苗族自治州,州电力总公司,细颗粒物(PM2.5),98,81,62,73,53,17,,24,24,35,26,7,6,1.3,1.2
2024-03-03T2100,3549A,109.5061,30.3772,恩施土家族苗族自治州,龙凤新区,细颗粒物(PM2.5),95,83,55,71,48,2,,15,11,35,24,6,7,1.3,1.1
2024-03-03T2100,2499A,108.3411,21.6158,防城港市,沙万,细颗粒物(PM2.5),62,,87,44,64,7,,28,11,59,46,6,10,1.0,1.1
2024-03-03T2100,2500A,108.3514,21.7731,防城港市,防城档案局,细颗粒物(PM2.5),62,50,89,44,67,20,,37,30,48,42,6,10,1.2,1.1
2024-03-03T2100,2501A,108.3506,21.6414,防城港市,大海花园,细颗粒物(PM2.5),60,,79,43,64,27,,32,20,40,36,4,10,1.1,1.3
2024-03-03T2100,1371A,113.1294,23.0067,佛山市,湾梁,颗粒物(PM10),74,97,63,32,28,4,,25,13,63,47,8,8,1.0,0.9
2024-03-03T2100,1372A,113.1083,23.0478,佛山市,华材职中,颗粒物(PM10),76,102,63,44,29,5,,26,12,68,53,7,9,0.9,0.8
2024-03-03T2100,1373A,113.144,23.0453,佛山市,南海气象局,颗粒物(PM10),60,69,51,34,29,7,,26,15,63,49,6,6,1.0,0.9
2024-03-03T2100,1374A,113.2881,22.8094,佛山市,顺德苏岗,颗粒物(PM10),61,72,43,39,28,0,,33,20,67,45,10,9,0.8,0.7
2024-03-03T2100,1376A,112.8383,22.8678,佛山市,高明孔堂,颗粒物(PM10),68,86,67,46,42,5,,21,13,67,48,5,7,1.0,0.9
2024-03-03T2100,1377A,112.8836,23.1588,佛山市,三水监测站,颗粒物(PM10),65,80,68,43,38,2,,30,15,54,49,8,8,0.9,0.8
2024-03-03T2100,1378A,112.867,23.185,佛山市,三水云东海,细颗粒物(PM2.5),75,66,56,55,45,5,,32,17,47,43,4,5,0.8,0.8
2024-03-03T2100,3625A,113.2544,22.7642,佛山市,容桂街道办,颗粒物(PM10),64,78,52,44,28,4,,35,23,75,54,7,6,1.1,0.9
2024-03-03T2100,1280A,119.3903,26.0543,福州市,鼓山,,,,,,,,,,,,,,,,
2024-03-03T2100,1282A,119.2681,26.0504,福州市,师大,,45,45,38,20,23,93,,98,98,17,18,3,4,0.5,0.6
2024-03-03T2100,1283A,119.2984,26.1028,福州市,五四北路,,30,26,28,18,24,96,,98,98,13,16,3,4,0.5,0.6
2024-03-03T2100,1284A,119.2648,26.0768,福州市,杨桥西路,,33,33,35,18,22,99,,101,101,10,14,3,4,0.5,0.6
2024-03-03T2100,1285A,119.317,26.0746,福州市,紫阳,,38,38,39,18,23,94,,98,98,15,17,3,4,0.5,0.6
2024-03-03T2100,3048A,119.5799,26.0936,福州市,九龙,,,33,33,19,22,106,,117,116,,13,3,4,0.5,0.6
2024-03-03T2100,3526A,119.5189,25.9664,福州市,吴航,,42,42,36,24,20,106,,108,108,10,14,4,5,0.4,0.5
2024-03-03T2100,1755A,123.7977,41.8491,抚顺市,望花区,细颗粒物(PM2.5),73,60,62,53,35,12,,93,75,71,31,12,19,0.9,0.7
2024-03-03T2100,1756A,123.9161,41.8822,抚顺市,顺城区,细颗粒物(PM2.5),113,101,67,85,39,11,,98,73,77,38,10,8,1.7,0.8
2024-03-03T2100,1757A,124.0436,41.8611,抚顺市,东洲区,细颗粒物(PM2.5),75,66,80,55,40,58,,92,82,21,23,11,11,0.7,0.8
2024-03-03T2100,1758A,123.9247,41.8642,抚顺市,新抚区,"颗粒物(PM10),细颗粒物(PM2.5)",64,78,61,46,34,11,,102,80,62,32,8,7,0.8,0.6
2024-03-03T2100,1759A,124.0972,41.8961,抚顺市,大伙房水库,颗粒物(PM10),55,59,60,23,32,68,,94,87,12,23,9,10,0.6,0.7
2024-03-03T2100,1760A,123.7086,41.8391,抚顺市,沈抚新城,细颗粒物(PM2.5),82,,65,60,36,20,,93,77,55,28,7,7,0.9,0.6
2024-03-03T2100,2376A,116.2127,28.0814,抚州市,桐源党溪,,23,23,33,12,18,1,,53,34,39,15,4,5,0.4,0.5
2024-03-03T2100,2377A,116.3544,27.9831,抚州市,市站,颗粒物(PM10),69,88,43,45,24,5,,57,39,61,25,1,2,1.4,1
2024-03-03T2100,2378A,116.3565,27.963,抚州市,血防站,颗粒物(PM10),57,64,42,28,21,11,,57,,54,23,4,4,0.9,0.8
2024-03-03T2100,2379A,116.3564,28.0007,抚州市,采茶剧团,颗粒物(PM10),52,53,37,32,25,5,,55,42,64,22,7,7,1.4,0.9
2024-03-03T2100,2380A,116.385,27.9647,抚州市,医学分院,,48,48,36,24,18,25,,60,48,29,19,7,8,0.9,0.8
2024-03-03T2100,2207A,121.6094,41.998,阜新市,工业园区,细颗粒物(PM2.5),163,,44,124,23,12,,86,65,62,22,46,12,2.1,0.9
2024-03-03T2100,2208A,121.6697,42.0279,阜新市,长青街,细颗粒物(PM2.5),99,76,33,74,20,23,,89,72,45,14,46,10,1.1,0.7
2024-03-03T2100,2209A,121.6673,42.0705,阜新市,农业园区,,42,31,26,29,11,50,,80,71,25,11,41,12,1.0,0.7
2024-03-03T2100,2210A,121.6717,42.0224,阜新市,东苑,颗粒物(PM10),61,72,34,29,15,35,,81,66,45,18,153,14,1.2,0.8
2024-03-03T2100,2211A,121.6506,42.0498,阜新市,玉龙新城,细颗粒物(PM2.5),98,,33,73,17,18,,86,64,47,19,12,10,1.1,0.5
2024-03-03T2100,2301A,115.8277,32.8929,阜阳市,市监测站,细颗粒物(PM2.5),74,78,69,54,50,86,,103,99,26,19,7,6,0.6,0.6
2024-03-03T2100,2303A,115.8554,32.8605,阜阳市,开发区,颗粒物(PM10),80,110,89,49,51,70,,106,98,39,21,5,4,0.5,0.5
2024-03-03T2100,2875A,115.784,32.8892,阜阳市,阜阳职业技术学院,细颗粒物(PM2.5),79,78,73,58,49,91,,109,105,27,16,6,5,0.6,0.6
2024-03-03T2100,3468A,115.7901,32.8613,阜阳市,市规划展馆,"颗粒物(PM10),细颗粒物(PM2.5)",60,69,66,43,45,96,,108,106,26,18,5,6,0.6,0.6
2024-03-03T2100,3469A,115.836,32.9183,阜阳市,枣园社区,"颗粒物(PM10),细颗粒物(PM2.5)",62,74,66,44,43,84,,108,101,30,18,6,5,0.6,0.6
2024-03-03T2100,2669A,102.9099,34.9841,甘南藏族自治州,州政府,颗粒物(PM10),62,74,56,36,27,59,,83,81,27,27,20,18,1.0,1
2024-03-03T2100,3380A,102.8914,34.9617,甘南藏族自治州,甘肃民族师范学院,颗粒物(PM10),66,81,67,9,23,51,,81,79,40,32,15,15,0.7,0.6
2024-03-03T2100,2570A,101.9603,30.0475,甘孜藏族自治州,水桥子,,35,35,24,14,10,23,,62,60,46,28,12,11,0.5,0.4
2024-03-03T2100,3065A,101.9533,29.9972,甘孜藏族自治州,州环保局,,45,45,30,16,6,40,,61,60,30,22,8,8,0.5,0.3
2024-03-03T2100,3414A,115.8347,28.932,赣江新区,桑海产业园,,46,46,50,18,28,21,,71,55,30,27,5,6,0.7,0.7
2024-03-03T2100,2362A,114.9017,25.9149,赣州市,通天岩,,,,,,,,,,,,,,,,
2024-03-03T2100,2363A,114.9367,25.8664,赣州市,地委,,35,35,35,22,25,16,,25,23,26,21,10,10,1.5,1.4
2024-03-03T2100,2364A,114.9461,25.8481,赣州市,气象台,,39,34,39,27,28,18,,23,21,24,27,12,7,1.3,1.2
2024-03-03T2100,2365A,114.9322,25.8333,赣州市,市图书馆,,41,41,37,20,19,20,,23,22,25,31,4,5,0.9,0.8
2024-03-03T2100,2366A,114.8905,25.8471,赣州市,华坚鞋城,,46,46,40,26,21,9,,20,15,33,27,9,6,1.7,1.5
2024-03-03T2100,3109A,115.0093,25.8613,赣州市,赣县区卫计委,,28,28,38,18,25,25,,33,31,21,23,8,7,0.7,0.7
2024-03-03T2100,2683A,106.2319,36.1417,固原市,马园,,,41,63,21,33,63,,72,69,21,39,4,4,,0.5
2024-03-03T2100,2684A,106.2792,36.0022,固原市,监测站,颗粒物(PM10),72,93,57,42,42,69,,81,78,21,28,9,8,0.8,1.1
2024-03-03T2100,2685A,106.2375,36.0211,固原市,新区,,48,43,57,33,40,67,,77,74,20,37,7,6,0.7,0.9
2024-03-03T2100,3522A,106.2177,35.9959,固原市,原州区十五小,,,78,76,35,35,,,63,,16,23,9,8,0.6,0.7
2024-03-03T2100,2543A,106.6308,30.5278,广安市,小平旧居,,,,,,,,,,,,,,,,
2024-03-03T2100,2544A,106.6303,30.4576,广安市,市委,细颗粒物(PM2.5),88,76,67,65,50,55,,64,64,24,22,15,15,0.8,0.8
2024-03-03T2100,2545A,106.6271,30.4663,广安市,友谊中学,细颗粒物(PM2.5),82,62,51,60,47,59,,67,67,30,27,7,5,0.9,0.8
2024-03-03T2100,2547A,106.6388,30.4551,广安市,广电花园,细颗粒物(PM2.5),88,69,54,65,50,50,,65,64,35,24,6,5,1.0,0.9
2024-03-03T2100,2902A,106.6351,30.4865,广安市,北辰小学,细颗粒物(PM2.5),83,71,56,61,49,52,,66,66,30,21,11,8,1.0,0.9
2024-03-03T2100,2523A,105.8945,32.4535,广元市,黑石坡,细颗粒物(PM2.5),72,58,52,52,37,39,,62,54,47,26,8,7,0.7,0.8
2024-03-03T2100,2524A,105.821,32.4444,广元市,老城,细颗粒物(PM2.5),73,89,67,53,39,26,,47,46,47,32,3,6,0.8,0.8
2024-03-03T2100,2526A,105.8628,32.4287,广元市,监测站,细颗粒物(PM2.5),73,70,55,53,41,34,,47,45,44,32,9,9,0.9,0.8
2024-03-03T2100,3617A,105.8047,32.4166,广元市,经开区,细颗粒物(PM2.5),73,70,59,53,43,31,,49,48,37,33,6,10,0.7,0.7
2024-03-03T2100,1345A,113.2347,23.1423,广州市,广雅中学,颗粒物(PM10),68,85,55,45,34,3,,28,11,64,51,5,5,1.2,1
2024-03-03T2100,1346A,113.2612,23.105,广州市,市五中,,,,52,,37,,,30,19,68,47,8,7,1.3,1.1
2024-03-03T2100,1348A,113.3478,23.0916,广州市,广东商学院,颗粒物(PM10),58,65,50,38,30,5,,25,15,59,49,5,6,1.0,0.8
2024-03-03T2100,1349A,113.4332,23.1047,广州市,市八十六中,颗粒物(PM10),62,73,52,39,32,11,,31,22,56,44,6,5,0.8,0.7
2024-03-03T2100,1350A,113.3505,22.9483,广州市,番禺中学,颗粒物(PM10),62,74,57,38,31,3,,33,22,77,55,6,6,1.0,1
2024-03-03T2100,1351A,113.2146,23.3916,广州市,花都师范,细颗粒物(PM2.5),59,60,51,42,34,8,,32,22,44,45,4,5,0.8,0.8
2024-03-03T2100,1352A,113.2597,23.1331,广州市,市监测站,颗粒物(PM10),59,67,52,35,32,3,,30,13,60,51,5,5,1.1,1
2024-03-03T2100,1353A,113.5618,23.312,广州市,九龙镇镇龙,,43,43,40,28,24,26,,46,38,30,26,6,6,0.7,0.7
2024-03-03T2100,1354A,113.2765,23.1544,广州市,麓湖,,49,49,42,31,28,3,,33,15,48,41,5,5,0.9,0.8
2024-03-03T2100,1355A,113.443,23.3035,广州市,帽峰山森林公园,,31,31,26,21,17,38,,52,47,22,15,7,7,0.5,0.4
2024-03-03T2100,2846A,113.3221,23.1322,广州市,体育西,颗粒物(PM10),55,60,46,36,30,11,,31,19,52,41,7,7,1.0,0.9
2024-03-03T2100,3298A,113.5717,23.5491,广州市,从化街口,细颗粒物(PM2.5),73,73,51,53,40,16,,49,36,35,28,6,5,0.9,0.8
2024-03-03T2100,3299A,113.3472,23.3692,广州市,白云竹料,细颗粒物(PM2.5),68,71,50,49,34,13,,50,38,42,34,6,6,0.9,0.7
2024-03-03T2100,3300A,113.2981,23.237,广州市,白云嘉禾,颗粒物(PM10),60,69,50,33,26,6,,34,16,62,48,6,6,1.0,0.8
2024-03-03T2100,3301A,113.4256,23.1716,广州市,黄埔科学城,,46,44,37,32,26,20,,39,30,37,35,5,5,0.9,0.9
2024-03-03T2100,3302A,113.3942,23.0483,广州市,番禺大学城,颗粒物(PM10),55,60,44,29,26,5,,32,21,60,46,8,10,0.9,0.8
2024-03-03T2100,3303A,113.4922,22.8168,广州市,南沙黄阁,颗粒物(PM10),63,76,53,43,31,5,,37,31,82,51,8,6,1.1,0.9
2024-03-03T2100,3304A,113.5342,22.7896,广州市,南沙街,颗粒物(PM10),62,74,49,40,31,5,,36,30,77,44,8,6,1.0,0.9
2024-03-03T2100,3443A,113.2902,23.5544,广州市,花都梯面,细颗粒物(PM2.5),53,48,33,37,25,14,,39,30,25,26,5,6,0.7,0.6
2024-03-03T2100,3445A,113.7858,23.7478,广州市,从化良口,,29,22,19,20,15,46,,53,50,13,12,5,5,0.7,0.6
2024-03-03T2100,3446A,113.8051,23.2614,广州市,增城荔城,,45,45,34,24,18,38,,49,44,16,12,6,6,0.5,1.1
2024-03-03T2100,2505A,109.568,23.1478,贵港市,德智高中,,22,18,35,15,33,21,,45,31,38,30,3,4,0.9,0.8
2024-03-03T2100,2506A,109.6047,23.0666,贵港市,江南子站,,41,41,53,23,30,15,,43,26,29,22,5,6,1.1,0.9
2024-03-03T2100,2507A,109.6014,23.0948,贵港市,贵城子站,,32,22,40,22,32,15,,39,24,30,22,6,7,1.1,1
2024-03-03T2100,2508A,109.5669,23.1065,贵港市,荷城子站,,25,22,44,17,32,20,,44,25,26,20,9,9,1.3,1.1
2024-03-03T2100,3405A,109.5886,23.1172,贵港市,新世纪学校,,26,,47,18,36,24,,46,29,24,18,7,8,1.2,1
2024-03-03T2100,1439A,106.6899,26.5998,贵阳市,马鞍山,,41,41,29,22,18,46,,71,58,21,14,9,11,0.7,0.6
2024-03-03T2100,1440A,106.6971,26.5694,贵阳市,市环保站,,49,36,30,34,25,45,,72,59,27,17,8,8,0.7,0.6
2024-03-03T2100,1441A,106.6243,26.6266,贵阳市,鉴湖路,,31,31,37,19,17,58,,76,60,16,13,4,5,0.6,0.5
2024-03-03T2100,1442A,106.7487,26.6343,贵阳市,燕子冲,,36,36,29,19,23,57,,76,68,16,15,6,8,0.8,0.7
2024-03-03T2100,1443A,106.6555,26.4365,贵阳市,碧云窝,,36,36,40,17,19,56,,78,63,14,11,5,8,0.8,0.6
2024-03-03T2100,1444A,106.694,26.5161,贵阳市,中院村,,44,44,31,29,22,56,,72,60,18,15,11,13,0.6,0.6
2024-03-03T2100,1445A,106.7109,26.6027,贵阳市,红边门,,42,36,37,29,24,46,,68,56,24,20,10,10,0.7,0.6
2024-03-03T2100,1446A,106.7164,26.5699,贵阳市,新华路,,39,39,35,24,23,55,,74,64,21,17,3,6,0.6,0.6
2024-03-03T2100,1447A,106.674,26.5424,贵阳市,太慈桥,,35,31,33,24,20,58,,76,63,14,13,4,8,0.6,0.5
2024-03-03T2100,1552A,106.805,26.3003,贵阳市,桐木岭,,,,,,,,,,,,,,,,
2024-03-03T2100,1862A,110.4144,25.3167,桂林市,电子科大尧山校区,细颗粒物(PM2.5),54,41,36,38,31,38,,55,46,12,10,3,5,1.0,0.8
2024-03-03T2100,1863A,110.2819,25.2697,桂林市,监测站,细颗粒物(PM2.5),58,41,41,41,37,22,,65,36,28,21,7,9,1.0,0.7
2024-03-03T2100,1864A,110.3089,25.2708,桂林市,龙隐路小学,细颗粒物(PM2.5),60,52,39,43,38,34,,62,46,23,18,4,5,1.0,0.8
2024-03-03T2100,1865A,110.2869,25.2178,桂林市,八中,,49,,36,34,38,24,,62,36,33,22,4,5,1.1,0.8
2024-03-03T2100,3403A,110.1764,25.2381,桂林市,创业大厦,,35,31,38,24,31,32,,68,38,24,19,8,8,0.8,0.7
2024-03-03T2100,3531A,110.296,25.1253,桂林市,旅游学院,,28,24,33,19,33,37,,58,44,19,16,5,5,0.9,0.8
2024-03-03T2100,2674A,100.2561,34.4714,果洛藏族自治州,玛沁县大武镇,颗粒物(PM10),66,81,55,22,21,77,,87,86,16,18,9,14,0.6,0.6
2024-03-03T2100,1129A,126.5422,45.755,哈尔滨市,岭北,细颗粒物(PM2.5),68,74,47,49,30,78,,106,100,38,24,13,15,0.7,0.6
2024-03-03T2100,1130A,126.561,45.8167,哈尔滨市,松北商大,,33,33,46,21,24,63,,82,75,23,25,6,12,0.5,0.6
2024-03-03T2100,1131A,126.979,45.5419,哈尔滨市,阿城会宁,细颗粒物(PM2.5),69,62,51,50,32,55,,86,80,30,18,10,10,0.6,0.4
2024-03-03T2100,1132A,126.599,45.7222,哈尔滨市,南岗学府路,细颗粒物(PM2.5),67,72,65,48,31,35,,80,73,48,33,14,14,0.8,0.6
2024-03-03T2100,1133A,126.689,45.7733,哈尔滨市,太平宏伟公园,,36,,52,25,31,57,,86,83,27,29,9,16,0.6,0.6
2024-03-03T2100,1134A,126.635,45.7667,哈尔滨市,道外承德广场,细颗粒物(PM2.5),52,38,47,36,26,36,,86,77,60,35,7,12,0.6,0.6
2024-03-03T2100,1135A,126.685,45.7319,哈尔滨市,香坊红旗大街,细颗粒物(PM2.5),68,61,58,49,38,33,,79,71,51,37,10,14,0.9,0.8
2024-03-03T2100,1136A,126.6411,45.7258,哈尔滨市,动力和平路,细颗粒物(PM2.5),67,60,54,48,29,42,,85,77,46,35,12,15,0.9,0.7
2024-03-03T2100,1137A,126.593,45.7478,哈尔滨市,道里建国路,,50,46,54,35,31,34,,80,72,58,35,10,11,0.7,0.8
2024-03-03T2100,1138A,126.615,45.61,哈尔滨市,平房东轻厂,,44,44,49,29,27,33,,72,54,47,26,8,8,0.6,0.5
2024-03-03T2100,1139A,126.595,45.9855,哈尔滨市,呼兰师专,细颗粒物(PM2.5),58,54,67,41,37,57,,79,74,32,33,17,13,0.6,0.7
2024-03-03T2100,1140A,126.6206,45.6842,哈尔滨市,省农科院,细颗粒物(PM2.5),68,84,69,49,43,38,,83,68,55,49,24,18,0.9,0.8
2024-03-03T2100,2688A,93.5128,42.8172,哈密市,地区监测站,颗粒物(PM10),88,125,102,34,29,74,,86,85,24,24,3,7,0.4,0.5
2024-03-03T2100,2689A,93.4961,42.8328,哈密市,哈密师范学校,颗粒物(PM10),104,157,103,39,30,70,,84,83,24,28,4,9,0.4,0.6
2024-03-03T2100,2671A,100.9048,36.9639,海北藏族自治州,海晏县西海镇,,40,40,42,14,19,78,,87,87,7,15,11,16,0.3,0.6
2024-03-03T2100,3867A,102.0738,36.5056,海东市,平安区公安北苑,细颗粒物(PM2.5),88,105,73,65,46,94,,100,100,32,30,29,19,0.8,0.7
2024-03-03T2100,1409A,110.576,19.9507,海口市,东寨港,,,,,,,,,,,,,,,,
2024-03-03T2100,1410A,110.3232,20.0574,海口市,海南大学,,26,22,27,18,10,74,,68,67,7,11,6,6,0.4,0.5
2024-03-03T2100,1411A,110.283,20.0053,海口市,秀英海南医院,,30,30,27,4,13,66,,58,58,12,14,8,8,0.4,0.6
2024-03-03T2100,1412A,110.338,19.9969,海口市,海南师范大学,,23,23,27,6,15,70,,63,63,6,11,8,7,0.5,0.6
2024-03-03T2100,1413A,110.33,20.0356,海口市,龙华路环保局宿舍,,36,36,28,6,14,64,,61,57,10,13,7,8,0.3,0.5
2024-03-03T2100,3539A,110.5111,19.9736,海口市,桂林洋子站,,23,12,20,6,12,72,,70,70,5,9,7,6,0.4,0.5
2024-03-03T2100,2673A,100.6188,36.2866,海南藏族自治州,共和县恰卜恰镇,,49,49,35,13,23,57,,86,80,23,20,13,10,0.7,0.6
2024-03-03T2100,2676A,97.3731,37.3753,海西蒙古族藏族自治州,德令哈市,颗粒物(PM10),62,73,34,17,11,76,,94,92,21,7,15,12,0.7,0.3
2024-03-03T2100,1048A,114.5302,36.6116,邯郸市,东污水处理厂,颗粒物(PM10),101,151,103,66,42,42,,80,72,48,38,10,10,0.7,1
2024-03-03T2100,1049A,114.4918,36.5713,邯郸市,矿院,颗粒物(PM10),92,133,93,66,38,60,,76,74,34,42,7,7,0.8,0.9
2024-03-03T2100,1050A,114.484,36.6133,邯郸市,丛台公园,颗粒物(PM10),95,140,80,70,40,54,,86,84,43,31,9,16,0.7,1.3
2024-03-03T2100,3458A,114.7895,36.5593,邯郸市,香泉濮院小区,细颗粒物(PM2.5),99,140,96,74,52,60,,94,91,41,25,12,12,0.6,0.6
2024-03-03T2100,3579A,114.50634,36.77178,邯郸市,永年区实验高中,细颗粒物(PM2.5),99,139,90,74,46,53,,88,83,48,39,8,17,0.3,0.9
2024-03-03T2100,3580A,114.20016,36.44293,邯郸市,峰峰矿区临水派出所,颗粒物(PM10),86,122,49,54,23,62,,96,92,35,12,16,15,0.7,0.4
2024-03-03T2100,2634A,106.9893,33.1842,汉中市,汉川机床厂子校,,43,,36,30,30,66,,72,72,11,11,5,6,0.9,0.9
2024-03-03T2100,2635A,107.0154,33.0706,汉中市,市监测站,细颗粒物(PM2.5),53,52,38,37,30,52,,71,69,32,23,9,8,1.1,0.9
2024-03-03T2100,2636A,107.0089,33.1138,汉中市,鑫源开发区,细颗粒物(PM2.5),78,67,46,57,38,43,,66,64,33,23,9,8,0.8,0.7
2024-03-03T2100,2637A,107.007,33.0323,汉中市,南郑大河坎水厂,细颗粒物(PM2.5),83,72,42,61,31,17,,71,64,66,30,10,8,1.4,0.8
2024-03-03T2100,1223A,120.2072,30.2111,杭州市,滨江,细颗粒物(PM2.5),75,86,70,55,43,90,,95,95,34,37,5,5,0.5,0.8
2024-03-03T2100,1224A,120.0633,30.2747,杭州市,西溪,细颗粒物(PM2.5),79,93,59,58,36,105,,113,113,36,33,8,7,0.7,0.7
2024-03-03T2100,1226A,120.3461,30.3153,杭州市,下沙,细颗粒物(PM2.5),72,83,84,52,49,95,,116,116,47,41,6,7,0.6,0.7
2024-03-03T2100,1227A,120.1269,30.2456,杭州市,卧龙桥,颗粒物(PM10),62,73,52,43,35,105,,111,111,29,22,6,5,0.6,0.7
2024-03-03T2100,1228A,120.1903,30.2692,杭州市,浙江农大,细颗粒物(PM2.5),70,77,68,51,43,99,,111,111,38,38,7,7,0.7,0.7
2024-03-03T2100,1230A,120.1197,30.3119,杭州市,和睦小学,细颗粒物(PM2.5),79,85,70,58,47,96,,106,106,24,25,6,6,0.6,0.7
2024-03-03T2100,1231A,120.3019,30.4183,杭州市,临平镇,细颗粒物(PM2.5),69,78,88,50,56,95,,110,110,27,42,6,6,0.7,0.8
2024-03-03T2100,1232A,120.2697,30.1819,杭州市,城厢镇,细颗粒物(PM2.5),74,87,76,54,46,92,,114,113,47,37,9,8,0.7,0.6
2024-03-03T2100,1233A,120.0883,30.1808,杭州市,云栖,细颗粒物(PM2.5),70,85,52,51,32,104,,115,115,33,26,8,7,0.8,0.6
2024-03-03T2100,3557A,119.9464,30.0494,杭州市,镇二中,细颗粒物(PM2.5),74,75,45,54,35,96,,110,110,34,32,9,8,0.7,0.7
2024-03-03T2100,3558A,119.7183,30.2367,杭州市,市府大楼,颗粒物(PM10),74,97,52,49,34,109,,109,109,30,23,6,6,0.6,0.6
2024-03-03T2100,3656A,120.1556,30.2864,杭州市,消防大队,细颗粒物(PM2.5),67,79,64,48,41,105,,116,116,38,42,10,10,0.7,0.6
2024-03-03T2100,1270A,117.1959,31.7848,合肥市,明珠广场,颗粒物(PM10),53,56,62,22,38,71,,100,95,41,32,2,5,0.6,0.6
2024-03-03T2100,1271A,117.3072,31.8764,合肥市,三里街,细颗粒物(PM2.5),55,56,68,39,44,61,,95,88,48,41,7,6,0.6,0.6
2024-03-03T2100,1272A,117.2588,31.8707,合肥市,琥珀山庄,颗粒物(PM10),54,58,65,31,34,68,,105,99,52,44,5,4,0.6,0.7
2024-03-03T2100,1273A,117.1604,31.9052,合肥市,董铺水库,颗粒物(PM10),52,53,66,22,37,78,,102,100,33,24,3,2,0.5,0.5
2024-03-03T2100,1274A,117.25,31.8571,合肥市,长江中路,细颗粒物(PM2.5),55,53,61,39,44,74,,100,98,35,32,8,6,0.7,0.6
2024-03-03T2100,1275A,117.266,31.9436,合肥市,庐阳区,颗粒物(PM10),57,63,66,29,38,62,,92,87,48,34,6,5,0.8,0.8
2024-03-03T2100,1276A,117.336,31.8586,合肥市,瑶海区,颗粒物(PM10),52,53,60,31,37,69,,98,92,37,32,6,6,0.7,0.7
2024-03-03T2100,1277A,117.3027,31.7964,合肥市,包河区,颗粒物(PM10),58,66,62,36,39,76,,103,99,36,38,6,6,0.5,0.5
2024-03-03T2100,1278A,117.2776,31.7385,合肥市,滨湖新区,,46,46,57,27,35,92,,106,105,17,21,8,6,0.5,0.5
2024-03-03T2100,1279A,117.1318,31.8403,合肥市,高新区,,44,44,59,24,38,82,,101,99,33,25,6,4,0.6,0.6
2024-03-03T2100,3464A,117.3803,31.9147,合肥市,高教基地,,49,49,57,30,34,82,,107,102,29,26,5,4,0.5,0.5
2024-03-03T2100,3614A,79.924,37.0877,和田地区,地区环保局,颗粒物(PM10),243,380,324,103,86,73,,80,80,21,25,,9,0.7,0.8
2024-03-03T2100,3615A,79.9131,37.113,和田地区,市环保局,颗粒物(PM10),198,345,299,83,69,71,,79,79,20,18,7,7,3.3,1
2024-03-03T2100,2516A,108.2011,24.715,河池市,东仁乐园,,36,,70,25,62,19,,31,24,10,13,4,6,0.9,0.9
2024-03-03T2100,2517A,108.0497,24.6947,河池市,市环保站,,22,18,61,15,61,32,,56,39,20,21,7,9,0.9,0.8
2024-03-03T2100,2518A,108.0983,24.6989,河池市,市疾控中心,,17,17,62,10,65,28,,55,39,28,26,8,12,0.8,0.8
2024-03-03T2100,1696A,114.6778,23.7569,河源市,源西,,35,,19,24,15,26,,45,38,30,19,5,4,1.0,0.8
2024-03-03T2100,1697A,114.6944,23.7586,河源市,东埔,,46,38,26,32,33,27,,44,39,23,12,7,7,0.9,0.8
2024-03-03T2100,1698A,114.6892,23.7233,河源市,老城,,36,33,21,25,15,25,,45,40,22,11,5,5,0.8,0.7
2024-03-03T2100,1718A,115.4208,35.2464,菏泽市,气象局,颗粒物(PM10),74,98,107,53,66,96,,117,115,31,25,5,7,0.7,0.6
2024-03-03T2100,1719A,115.4747,35.2375,菏泽市,市政协,细颗粒物(PM2.5),92,101,102,68,64,86,,112,109,26,25,7,9,0.4,0.5
2024-03-03T2100,3374A,115.5564,35.0891,菏泽市,定陶老年大学,细颗粒物(PM2.5),92,107,97,68,63,88,,113,110,27,20,6,6,0.6,0.6
2024-03-03T2100,3647A,115.4702,35.2706,菏泽市,菏泽医专,细颗粒物(PM2.5),75,86,99,55,58,88,,109,108,27,23,6,7,0.7,0.6
2024-03-03T2100,2514A,111.5264,24.4172,贺州市,环保小区,,26,20,55,18,40,37,,46,46,16,22,8,8,0.8,0.8
2024-03-03T2100,2515A,111.5608,24.4078,贺州市,政协大楼,,31,31,53,14,33,38,,49,48,20,25,8,8,0.7,0.7
2024-03-03T2100,3534A,111.4744,24.4553,贺州市,西湾,细颗粒物(PM2.5),54,38,52,38,39,21,,50,43,32,21,8,8,1.1,0.9
2024-03-03T2100,2385A,114.17,35.9019,鹤壁市,市监测站,细颗粒物(PM2.5),104,144,84,78,44,38,,103,93,56,33,9,10,0.8,0.5
2024-03-03T2100,2386A,114.2956,35.7511,鹤壁市,市交警支队,细颗粒物(PM2.5),102,129,92,76,45,22,,98,85,76,42,8,8,0.6,0.6
2024-03-03T2100,2387A,114.2878,35.7306,鹤壁市,迎宾馆,细颗粒物(PM2.5),87,96,76,64,41,36,,96,87,67,43,5,5,0.7,0.7
2024-03-03T2100,3474A,114.2617,35.6822,鹤壁市,大新区,细颗粒物(PM2.5),85,105,89,63,48,4,,93,75,105,51,10,9,0.8,0.6
2024-03-03T2100,3596A,114.1572,35.9603,鹤壁市,南山宾馆,细颗粒物(PM2.5),110,143,71,83,37,63,,106,99,42,21,15,12,0.9,0.6
2024-03-03T2100,2244A,130.2537,47.3416,鹤岗市,哈啤分公司,,33,,26,23,18,78,,77,77,5,6,14,15,0.4,0.3
2024-03-03T2100,2245A,130.2684,47.3086,鹤岗市,斯达机电,,35,30,33,24,19,79,,80,79,8,9,9,10,0.3,0.3
2024-03-03T2100,2246A,130.3114,47.3388,鹤岗市,东山纸板厂,,30,,25,21,20,84,,84,84,5,6,14,14,0.5,0.4
2024-03-03T2100,2247A,130.1097,47.3382,鹤岗市,五号水库,,29,24,29,18,17,92,,92,92,5,5,9,9,0.3,0.3
2024-03-03T2100,2263A,127.4833,50.2524,黑河市,交通局,,32,28,18,22,11,73,,84,73,11,7,7,7,0.4,0.4
2024-03-03T2100,2264A,127.5144,50.2341,黑河市,环保局,,25,18,17,17,15,68,,81,73,17,9,5,5,0.4,0.4
2024-03-03T2100,2265A,127.5291,50.2472,黑河市,大黑河岛,,,56,17,39,11,,,,,,38,5,7,,
2024-03-03T2100,1074A,115.6838,37.7541,衡水市,电机北厂,细颗粒物(PM2.5),98,139,127,73,59,49,,82,80,31,24,6,6,0.6,0.6
2024-03-03T2100,1075A,115.6303,37.7316,衡水市,市监测站,颗粒物(PM10),98,146,119,60,49,61,,80,80,35,36,10,11,0.5,0.4
2024-03-03T2100,3188A,115.6683,37.7217,衡水市,市城管局,颗粒物(PM10),93,135,124,66,58,59,,80,80,30,32,10,8,0.7,0.6
2024-03-03T2100,3459A,115.5989,37.5491,衡水市,地表水厂,颗粒物(PM10),97,144,127,64,58,58,,79,77,24,35,4,8,0.5,0.6
2024-03-03T2100,2456A,112.5003,26.9167,衡阳市,原169医院,,48,43,45,33,37,18,,23,22,32,31,10,8,0.7,0.8
2024-03-03T2100,2457A,112.6194,26.9258,衡阳市,衡阳化工总厂,,43,38,46,30,38,43,,35,35,13,20,7,10,0.7,0.9
2024-03-03T2100,2458A,112.6211,26.8956,衡阳市,珠晖区环保局,,48,43,49,33,41,20,,26,24,35,29,8,10,0.8,0.9
2024-03-03T2100,2459A,112.6197,26.8733,衡阳市,市委党校,细颗粒物(PM2.5),52,44,46,36,41,28,,26,25,27,28,8,10,0.8,0.9
2024-03-03T2100,2460A,112.6006,26.8919,衡阳市,市监测站,细颗粒物(PM2.5),64,61,58,46,48,33,,28,28,23,25,8,10,1.1,1
2024-03-03T2100,2461A,112.5664,26.9056,衡阳市,真空机电公司,,49,42,49,34,44,30,,26,25,27,32,7,10,0.9,1.1
2024-03-03T2100,3399A,112.6703,26.882,衡阳市,师范学院,细颗粒物(PM2.5),54,46,47,38,38,32,,27,27,19,21,8,11,0.9,0.9
2024-03-03T2100,2608A,103.3772,23.3993,红河哈尼族彝族自治州,污水处理厂,细颗粒物(PM2.5),63,55,47,45,37,95,,119,112,9,9,6,6,0.7,0.6
2024-03-03T2100,2609A,103.3861,23.35,红河哈尼族彝族自治州,监测站,细颗粒物(PM2.5),64,56,48,46,35,98,,118,111,6,6,7,6,0.7,0.6
2024-03-03T2100,3038A,103.3758,23.368,红河哈尼族彝族自治州,州图书馆,颗粒物(PM10),51,52,41,34,31,96,,115,108,6,6,6,6,0.6,0.6
2024-03-03T2100,1090A,111.6507,40.7517,呼和浩特市,呼市一监,颗粒物(PM10),73,95,56,42,22,42,,91,82,53,22,12,9,0.8,0.6
2024-03-03T2100,1091A,111.6572,40.8033,呼和浩特市,小召,颗粒物(PM10),65,80,61,35,19,44,,89,79,64,33,13,10,0.7,0.6
2024-03-03T2100,1094A,111.7516,40.8369,呼和浩特市,如意水处理厂,颗粒物(PM10),62,73,52,29,17,38,,83,70,56,33,10,10,0.5,0.4
2024-03-03T2100,1095A,111.7276,40.8062,呼和浩特市,二十九中,颗粒物(PM10),81,111,56,41,19,13,,84,70,85,30,18,12,0.9,0.5
2024-03-03T2100,1096A,111.5512,40.7866,呼和浩特市,工大金川校区,颗粒物(PM10),81,112,60,34,20,5,,80,65,87,37,9,8,0.7,0.4
2024-03-03T2100,1097A,111.717,40.7612,呼和浩特市,化肥厂生活区,颗粒物(PM10),72,93,61,39,21,37,,82,71,59,27,16,14,0.6,0.4
2024-03-03T2100,3698A,111.5968,40.8178,呼和浩特市,红旗小学,颗粒物(PM10),67,83,51,37,19,17,,80,68,78,32,11,9,0.6,0.4
2024-03-03T2100,3699A,111.6518,40.8389,呼和浩特市,海东办,颗粒物(PM10),97,144,54,52,19,7,,86,70,95,37,15,12,1.1,0.4
2024-03-03T2100,2192A,119.7594,49.2261,呼伦贝尔市,区环保局,,35,35,35,21,29,77,,88,87,18,37,4,5,0.4,0.5
2024-03-03T2100,3061A,119.7512,49.1577,呼伦贝尔市,国华电力东,,38,32,24,26,21,76,,90,86,14,10,4,4,0.4,0.3
2024-03-03T2100,1250A,120.0751,30.8669,湖州市,城西水厂,细颗粒物(PM2.5),63,68,76,45,50,116,,109,109,31,46,7,5,0.7,0.7
2024-03-03T2100,2873A,120.0875,30.8955,湖州市,仁皇山新区,细颗粒物(PM2.5),62,66,75,44,53,111,,109,109,35,40,8,7,0.6,0.6
2024-03-03T2100,2907A,120.1844,30.8596,湖州市,吴兴区站,"颗粒物(PM10),细颗粒物(PM2.5)",62,73,85,44,51,128,,123,123,28,41,8,8,0.7,0.7
2024-03-03T2100,3562A,120.4148,30.8538,湖州市,南浔区站,"颗粒物(PM10),细颗粒物(PM2.5)",59,67,80,42,52,107,,112,112,26,34,9,8,0.6,0.6
2024-03-03T2100,1607A,120.9092,40.7136,葫芦岛市,龙港区,,35,28,55,24,31,80,,89,89,16,29,17,28,0.5,0.6
2024-03-03T2100,1608A,120.8392,40.7514,葫芦岛市,化工街,颗粒物(PM10),62,73,55,39,28,39,,85,75,53,38,14,16,1.0,0.8
2024-03-03T2100,1609A,120.8341,40.7073,葫芦岛市,新区,细颗粒物(PM2.5),54,43,50,38,35,43,,95,87,64,41,20,14,0.7,0.7
2024-03-03T2100,1610A,120.8695,40.7677,葫芦岛市,东城区,细颗粒物(PM2.5),64,46,53,46,32,16,,89,75,89,41,14,22,1.0,0.8
2024-03-03T2100,2482A,109.5981,27.5721,怀化市,林科所,,39,31,33,27,23,52,,71,69,4,4,6,6,0.8,0.8
2024-03-03T2100,2483A,109.9453,27.5444,怀化市,河西地税局,颗粒物(PM10),57,63,56,37,37,40,,56,55,26,26,7,6,0.8,0.8
2024-03-03T2100,2484A,109.9781,27.5342,怀化市,市四医院,细颗粒物(PM2.5),58,57,60,41,33,43,,61,58,23,34,5,6,0.9,0.8
2024-03-03T2100,2485A,109.9972,27.5578,怀化市,监测楼,,46,46,53,26,33,65,,72,72,12,27,6,8,0.8,0.8
2024-03-03T2100,2486A,110.0394,27.583,怀化市,市委党校,,46,46,55,30,34,52,,63,62,14,27,8,13,0.7,0.7
2024-03-03T2100,1210A,119.036,33.5981,淮安市,钵池山,细颗粒物(PM2.5),93,110,75,69,54,66,,106,102,50,21,10,9,1.0,0.8
2024-03-03T2100,1211A,119.007,33.575,淮安市,北京南路,细颗粒物(PM2.5),90,114,73,67,55,64,,116,110,46,23,7,8,1.0,0.7
2024-03-03T2100,1212A,118.989,33.6067,淮安市,市监测站,细颗粒物(PM2.5),94,100,76,70,54,89,,115,112,37,21,8,8,0.8,0.7
2024-03-03T2100,1213A,119.135,33.5039,淮安市,楚州区监测站,细颗粒物(PM2.5),88,100,83,65,57,44,,113,104,70,26,7,8,0.8,0.7
2024-03-03T2100,1214A,119.0186,33.6297,淮安市,淮阴区监测站,"颗粒物(PM10),细颗粒物(PM2.5)",89,127,90,66,54,63,,110,104,57,24,6,6,0.8,0.8
2024-03-03T2100,3426A,118.8755,33.2894,淮安市,新华书店,细颗粒物(PM2.5),80,83,79,59,58,88,,112,108,46,27,7,6,0.8,0.7
2024-03-03T2100,2282A,116.8004,33.975,淮北市,监测站,颗粒物(PM10),65,80,93,46,59,83,,110,104,31,22,5,6,0.7,0.7
2024-03-03T2100,2283A,116.8091,33.9007,淮北市,烈山区政府,细颗粒物(PM2.5),69,81,86,50,60,80,,113,108,38,29,10,6,0.5,0.5
2024-03-03T2100,3330A,116.8873,33.9836,淮北市,杜集区检察院,细颗粒物(PM2.5),70,59,89,51,62,112,,118,118,15,21,6,6,0.7,0.7
2024-03-03T2100,4017A,116.7923,33.9535,淮北市,市博物馆,细颗粒物(PM2.5),68,83,90,49,63,85,,113,107,24,17,7,7,0.9,0.9
2024-03-03T2100,2277A,116.8305,32.7727,淮南市,潘集区政府,细颗粒物(PM2.5),69,66,80,50,58,79,,110,105,19,18,2,2,0.5,0.5
2024-03-03T2100,2278A,117.0067,32.6524,淮南市,师范学院,细颗粒物(PM2.5),73,69,77,53,47,76,,106,102,32,24,8,7,0.5,0.6
2024-03-03T2100,2279A,116.8569,32.5951,淮南市,谢家集区政府,颗粒物(PM10),54,58,67,37,46,90,,111,106,20,21,7,4,0.6,0.5
2024-03-03T2100,2280A,116.8281,32.633,淮南市,八公山区政府,颗粒物(PM10),56,62,71,33,45,84,,116,111,26,18,3,3,0.5,0.5
2024-03-03T2100,2281A,116.6325,32.6201,淮南市,焦岗湖风景区管理处,颗粒物(PM10),53,56,77,23,39,58,,103,97,40,17,2,2,0.3,0.3
2024-03-03T2100,2894A,117.0566,32.6531,淮南市,经济技术开发区消防队,颗粒物(PM10),55,59,73,35,44,60,,104,99,42,23,4,4,0.4,0.4
2024-03-03T2100,3329A,117.0108,32.5893,淮南市,山南新区,颗粒物(PM10),51,52,68,31,45,97,,116,114,16,17,3,3,0.5,0.5
2024-03-03T2100,2446A,114.9028,30.4742,黄冈市,职工中心,,43,43,65,29,41,82,,102,100,14,17,9,10,0.6,0.6
2024-03-03T2100,2929A,114.8858,30.4519,黄冈市,红卫路,,39,38,62,27,41,86,,103,102,13,21,7,8,0.7,0.7
2024-03-03T2100,3398A,114.9136,30.4445,黄冈市,市林业局,,39,39,57,26,44,82,,103,101,16,22,6,6,0.5,0.6
2024-03-03T2100,2672A,102.0199,35.5102,黄南藏族自治州,同仁县隆务镇,颗粒物(PM10),74,98,68,47,40,47,,84,77,28,13,16,12,1.2,0.9
2024-03-03T2100,2295A,118.2903,29.6963,黄山市,延安路89号,,46,46,42,19,22,53,,94,86,15,12,5,5,0.5,0.5
2024-03-03T2100,2296A,118.327,29.7178,黄山市,黄山东路89号,细颗粒物(PM2.5),72,92,47,52,24,17,,83,63,35,16,6,5,0.7,0.5
2024-03-03T2100,2297A,118.1371,30.2756,黄山市,黄山区政府5号楼,细颗粒物(PM2.5),59,56,34,42,22,40,,93,81,18,11,4,4,0.8,0.5
2024-03-03T2100,2423A,115.0601,30.2313,黄石市,沈家营,,40,40,60,23,36,82,,103,102,20,34,11,10,0.8,1
2024-03-03T2100,2424A,115.0817,30.2006,黄石市,陈家湾,,48,45,63,33,47,78,,98,96,20,36,13,11,0.7,0.8
2024-03-03T2100,2426A,114.8988,30.2019,黄石市,铁山,,40,40,54,23,34,90,,105,104,14,23,12,10,0.8,0.9
2024-03-03T2100,2427A,115.0307,30.2092,黄石市,团城山,,40,40,66,20,37,91,,107,106,14,29,11,13,0.9,1
2024-03-03T2100,3149A,115.0235,30.1578,黄石市,笔架山北路,,39,38,59,27,40,73,,104,101,28,27,11,10,0.7,0.8
2024-03-03T2100,1392A,114.4183,23.0528,惠州市,河南岸金山湖子站,颗粒物(PM10),51,52,32,32,21,38,,55,53,21,16,5,5,0.8,0.8
2024-03-03T2100,1393A,114.4053,23.0822,惠州市,下埔横江三路子站,颗粒物(PM10),51,51,33,35,22,35,,64,57,28,16,6,6,1.0,0.8
2024-03-03T2100,1394A,114.4103,23.1142,惠州市,江北云山西路子站,,,50,30,37,21,,,59,58,27,14,10,9,0.9,0.8
2024-03-03T2100,1395A,114.4645,22.7833,惠州市,惠阳区承修路船湖子站,颗粒物(PM10),51,51,34,29,20,71,,75,75,28,22,8,8,0.8,0.8
2024-03-03T2100,1396A,114.5317,22.7422,惠州市,大亚湾管委会子站,,47,47,33,26,18,77,,81,81,30,24,8,8,0.7,0.7
2024-03-03T2100,3314A,114.4338,22.8134,惠州市,惠阳秋长,颗粒物(PM10),52,53,37,25,18,77,,81,81,32,25,8,8,0.7,0.7
2024-03-03T2100,3452A,114.6517,22.775,惠州市,大亚湾霞涌,,36,36,22,14,14,96,,87,87,12,10,8,8,0.4,0.6
2024-03-03T2100,2240A,130.9762,45.3001,鸡西市,环保局,,40,40,36,16,17,74,,75,75,12,9,5,6,0.4,0.3
2024-03-03T2100,2243A,130.9429,45.3039,鸡西市,第一中学,,29,29,35,15,16,86,,87,86,8,9,8,8,0.2,0.1
2024-03-03T2100,3707A,131.0207,45.3073,鸡西市,欧美日汽修厂,,36,36,50,18,31,73,,69,69,11,21,4,32,0.4,1
2024-03-03T2100,3709A,130.9967,45.3106,鸡西市,市政设施管理处,,40,40,41,15,19,80,,86,82,12,18,2,2,0.5,0.5
2024-03-03T2100,2367A,114.9754,27.0803,吉安市,红声器材厂,颗粒物(PM10),51,52,44,31,24,16,,43,36,47,24,8,7,1.2,0.8
2024-03-03T2100,2368A,114.9658,27.0999,吉安市,市森林工业局,,49,45,40,34,29,24,,44,39,37,25,17,8,0.6,0.5
2024-03-03T2100,2369A,114.99,27.1312,吉安市,市环境监测站,,45,45,40,25,24,28,,50,41,31,28,8,7,0.8,0.7
2024-03-03T2100,2370A,115.0093,27.0968,吉安市,青原区法院,颗粒物(PM10),52,54,40,31,25,10,,43,33,42,31,17,14,1.0,0.8
2024-03-03T2100,1772A,126.54,43.8622,吉林市,哈达湾,,28,28,33,15,19,82,,92,91,11,14,7,6,0.4,0.5
2024-03-03T2100,1773A,126.5844,43.8358,吉林市,东局子,,33,33,33,19,19,68,,89,85,26,16,6,7,0.4,0.4
2024-03-03T2100,1774A,126.5052,43.8245,吉林市,电力学院,细颗粒物(PM2.5),73,68,45,53,30,60,,94,88,30,18,10,7,1.0,0.8
2024-03-03T2100,1775A,126.6133,43.8972,吉林市,江北,颗粒物(PM10),54,58,38,35,21,65,,87,83,26,18,9,10,0.7,0.6
2024-03-03T2100,1776A,126.555,43.8306,吉林市,江南公园,,32,32,35,19,23,80,,91,88,14,15,4,5,0.5,0.6
2024-03-03T2100,1778A,126.7061,43.7133,吉林市,丰满,,,,,,,,,,,,,,,,
2024-03-03T2100,2868A,126.4739,43.953,吉林市,九站,,25,24,34,15,19,78,,95,91,18,18,7,9,0.5,0.6
2024-03-03T2100,1299A,116.9862,36.6114,济南市,科干所,细颗粒物(PM2.5),138,207,110,105,55,58,,100,92,58,25,14,11,1.1,0.7
2024-03-03T2100,1300A,116.9376,36.665,济南市,农科所,细颗粒物(PM2.5),150,237,123,115,57,40,,94,84,75,38,17,11,1.3,0.8
2024-03-03T2100,1301A,117.1265,36.6734,济南市,开发区,细颗粒物(PM2.5),158,212,110,120,56,44,,94,84,66,26,14,11,1.0,0.6
2024-03-03T2100,1303A,117.0624,36.6868,济南市,省种子仓库,细颗粒物(PM2.5),153,237,124,117,61,37,,97,86,68,26,14,10,0.9,0.5
2024-03-03T2100,1304A,116.9489,36.6447,济南市,机床二厂,细颗粒物(PM2.5),170,234,124,129,63,48,,102,92,72,33,15,12,1.2,0.7
2024-03-03T2100,1305A,117.0495,36.663,济南市,市监测站,,,,89,,44,,,98,,,22,,10,,0.6
2024-03-03T2100,1306A,116.7675,36.5484,济南市,长清党校,细颗粒物(PM2.5),123,193,111,93,59,67,,121,114,62,26,14,8,0.8,0.6
2024-03-03T2100,1616A,117.6795,36.229,济南市,技术学院,细颗粒物(PM2.5),104,92,110,78,69,99,,123,121,32,45,11,11,0.8,1
2024-03-03T2100,1961A,117.532,36.6868,济南市,东山小学,细颗粒物(PM2.5),153,215,120,117,61,58,,104,91,53,29,12,10,0.9,0.6
2024-03-03T2100,3059A,117.7161,36.2049,济南市,泰兴公司,细颗粒物(PM2.5),100,117,116,75,72,66,,118,110,45,48,11,11,0.8,1
2024-03-03T2100,3064A,117.6867,36.2171,济南市,莱芜战役纪念馆,细颗粒物(PM2.5),100,119,131,75,70,88,,111,109,31,48,10,9,0.9,1
2024-03-03T2100,3494A,117.1673,36.9782,济南市,济阳区政府,细颗粒物(PM2.5),123,166,125,93,63,72,,100,96,31,36,15,13,0.9,0.7
2024-03-03T2100,3495A,117.1171,36.63,济南市,锦屏中学,细颗粒物(PM2.5),160,222,106,122,56,49,,100,92,59,21,14,12,1.0,0.6
2024-03-03T2100,3682A,116.9814,36.6819,济南市,济南四建,细颗粒物(PM2.5),160,205,109,122,62,40,,87,75,65,31,20,13,1.1,0.7
2024-03-03T2100,1653A,116.6251,35.4302,济宁市,火炬城,细颗粒物(PM2.5),70,84,86,51,59,80,,109,107,21,16,5,5,0.7,0.7
2024-03-03T2100,1655A,116.5491,35.4042,济宁市,电化厂,"颗粒物(PM10),细颗粒物(PM2.5)",70,90,108,51,59,98,,113,113,22,27,4,6,0.7,0.7
2024-03-03T2100,3500A,116.5814,35.3707,济宁市,北湖一中,细颗粒物(PM2.5),64,76,89,46,61,94,,110,110,15,18,7,8,0.7,0.5
2024-03-03T2100,3501A,116.8249,35.5593,济宁市,服务中心,细颗粒物(PM2.5),87,109,117,64,62,78,,116,113,28,24,4,4,0.8,0.8
2024-03-03T2100,3678A,116.5907,35.4054,济宁市,市第七中学,颗粒物(PM10),66,81,86,46,60,85,,109,107,21,17,3,4,0.7,0.7
2024-03-03T2100,2255A,130.2751,46.8028,佳木斯市,佳纺,,44,44,37,22,21,65,,88,81,32,16,12,7,0.5,0.4
2024-03-03T2100,2256A,130.3995,46.8307,佳木斯市,发电厂,,29,28,28,14,18,92,,90,88,7,12,1,3,0.4,0.4
2024-03-03T2100,2257A,130.3258,46.7975,佳木斯市,环保局,,39,39,33,16,18,74,,86,80,19,15,6,5,0.4,0.4
2024-03-03T2100,2258A,130.3648,46.8032,佳木斯市,十一中,,37,37,31,20,19,71,,81,75,21,15,9,6,0.5,0.4
2024-03-03T2100,2259A,130.3794,46.7588,佳木斯市,四丰,,31,26,27,11,12,99,,103,100,5,5,1,1,0.3,0.3
2024-03-03T2100,1252A,120.7436,30.778,嘉兴市,清河小学,颗粒物(PM10),55,59,75,33,48,84,,110,109,30,27,7,8,0.6,0.9
2024-03-03T2100,1253A,120.726,30.7478,嘉兴市,嘉兴学院,颗粒物(PM10),52,54,74,30,46,90,,116,115,27,30,7,7,0.7,0.8
2024-03-03T2100,2872A,120.7846,30.7525,嘉兴市,南湖区残联,颗粒物(PM10),55,60,80,31,47,101,,134,132,30,28,7,8,0.5,0.6
2024-03-03T2100,3407A,120.6916,30.7739,嘉兴市,秀洲住建,颗粒物(PM10),53,56,75,36,53,76,,109,107,43,36,8,8,0.5,0.6
2024-03-03T2100,1945A,98.2908,39.7711,嘉峪关市,气象局,颗粒物(PM10),51,51,47,27,20,78,,92,92,21,43,1,2,0.5,0.6
2024-03-03T2100,2884A,98.2672,39.7978,嘉峪关市,酒钢宾馆,,36,36,49,12,20,94,,92,92,12,34,8,10,0.7,0.5
2024-03-03T2100,3248A,98.2643,39.7724,嘉峪关市,雄关区,,45,45,41,29,18,87,,93,93,13,42,7,7,0.4,0.5
2024-03-03T2100,1383A,113.1064,22.6058,江门市,北街,细颗粒物(PM2.5),75,79,60,55,45,6,,30,23,74,61,9,10,0.9,0.8
2024-03-03T2100,1384A,113.0731,22.5835,江门市,西区,"颗粒物(PM10),细颗粒物(PM2.5)",77,103,76,56,47,5,,30,22,73,60,8,9,0.9,0.9
2024-03-03T2100,1385A,113.0219,22.5311,江门市,圭峰西,细颗粒物(PM2.5),85,91,62,63,45,4,,31,24,78,63,6,8,1.1,0.9
2024-03-03T2100,1386A,113.0828,22.5947,江门市,东湖,细颗粒物(PM2.5),78,100,70,57,43,6,,31,24,63,52,7,8,1.0,0.9
2024-03-03T2100,3311A,113.1075,22.5647,江门市,江海富民,细颗粒物(PM2.5),103,109,77,77,43,4,,30,23,74,62,9,9,1.1,0.9
2024-03-03T2100,3449A,113.05,22.4667,江门市,新会银湖,细颗粒物(PM2.5),92,75,60,68,50,5,,39,29,69,55,8,7,1.1,1
2024-03-03T2100,1828A,113.227,35.2125,焦作市,市环保局,,,110,79,63,44,60,,90,86,,35,15,14,0.7,0.7
2024-03-03T2100,1830A,113.1992,35.2590,焦作市,影视城,,,,,,,,,,,,,,,,
2024-03-03T2100,3169A,113.2725,35.2067,焦作市,太极体育中心,细颗粒物(PM2.5),99,113,89,74,49,67,,95,92,35,29,18,14,0.7,0.7
2024-03-03T2100,3335A,113.3137,35.2641,焦作市,马村街道办,"颗粒物(PM10),细颗粒物(PM2.5)",88,126,91,65,41,57,,90,84,44,30,12,12,0.5,0.6
2024-03-03T2100,3336A,113.2465,35.2373,焦作市,焦作技师学院,细颗粒物(PM2.5),89,107,77,66,43,57,,92,86,45,29,8,9,0.7,0.8
2024-03-03T2100,3477A,113.1656,35.2539,焦作市,中站许衡医院,颗粒物(PM10),77,104,66,47,36,76,,90,87,27,22,9,10,0.5,0.5
2024-03-03T2100,3981A,113.2449,35.1803,焦作市,原李万街道办,细颗粒物(PM2.5),83,100,76,61,38,67,,94,92,33,30,9,13,0.8,0.9
2024-03-03T2100,1708A,116.3701,23.5345,揭阳市,新兴,细颗粒物(PM2.5),62,50,39,44,32,84,,92,92,19,23,13,14,0.8,0.9
2024-03-03T2100,1709A,116.3264,23.5443,揭阳市,西马,,41,41,39,26,28,90,,99,99,17,19,10,12,0.7,0.7
2024-03-03T2100,1710A,116.3611,23.5626,揭阳市,东兴,,31,28,42,19,29,98,,96,96,11,19,10,14,0.6,0.7
2024-03-03T2100,1711A,116.4151,23.5294,揭阳市,渔湖,,36,28,37,25,22,93,,98,98,15,19,8,12,0.7,0.8
2024-03-03T2100,3320A,116.403,23.5699,揭阳市,曲溪,,39,39,33,20,22,96,,99,99,13,16,15,11,0.7,0.7
2024-03-03T2100,1944A,102.1692,38.5167,金昌市,天庆家园,颗粒物(PM10),84,118,63,55,29,63,,84,82,34,24,14,26,0.7,0.7
2024-03-03T2100,3170A,102.1864,38.5253,金昌市,市委党校,细颗粒物(PM2.5),99,134,72,74,43,71,,90,88,22,16,15,27,0.7,0.7
2024-03-03T2100,4022A,102.1647,38.5371,金昌市,金川区人防中心,细颗粒物(PM2.5),140,175,60,107,38,59,,97,91,37,17,24,32,0.9,0.7
2024-03-03T2100,1262A,119.647,29.077,金华市,十五中,颗粒物(PM10),59,68,54,37,32,61,,110,102,59,30,3,3,0.8,0.7
2024-03-03T2100,1263A,119.686,29.1029,金华市,监测站,颗粒物(PM10),54,57,51,32,29,47,,103,94,61,30,3,3,0.4,0.3
2024-03-03T2100,3659A,119.656,29.1131,金华市,气象局,颗粒物(PM10),58,66,57,36,32,41,,104,94,65,37,4,3,0.8,0.7
2024-03-03T2100,1767A,121.1115,41.0879,锦州市,南山,细颗粒物(PM2.5),80,,58,59,43,59,,92,80,43,28,14,16,0.5,0.9
2024-03-03T2100,1768A,121.0533,40.8434,锦州市,开发区,细颗粒物(PM2.5),68,,71,49,44,19,,89,73,87,55,20,22,0.6,0.7
2024-03-03T2100,1769A,121.1836,41.1119,锦州市,百股街道,,49,36,51,34,37,69,,92,85,25,17,15,14,0.5,0.7
2024-03-03T2100,1770A,121.1178,41.1222,锦州市,天安街道,细颗粒物(PM2.5),58,52,56,41,33,66,,90,80,31,27,12,15,0.7,0.8
2024-03-03T2100,1771A,121.1303,41.1386,锦州市,北湖公园,细颗粒物(PM2.5),60,47,46,43,34,68,,90,82,29,21,15,21,0.7,0.7
2024-03-03T2100,2160A,112.85,35.5051,晋城市,自来水公司,细颗粒物(PM2.5),58,55,65,41,34,94,,105,104,24,28,9,8,0.7,1.1
2024-03-03T2100,2161A,112.8318,35.4936,晋城市,白云商贸,颗粒物(PM10),68,86,76,29,29,85,,102,100,32,32,9,7,0.8,1.1
2024-03-03T2100,2162A,112.8508,35.4887,晋城市,市环保局,颗粒物(PM10),58,65,74,36,34,85,,102,100,32,32,8,7,0.7,1
2024-03-03T2100,2163A,112.8676,35.4897,晋城市,技术学院,颗粒物(PM10),67,83,70,36,32,91,,102,100,27,35,10,9,0.9,1.2
2024-03-03T2100,2165A,112.8453,35.546,晋城市,白马寺,,,,,,,,,,,,,,,,
2024-03-03T2100,3620A,112.8271,35.4828,晋城市,泽州一中,颗粒物(PM10),57,63,62,29,26,90,,99,98,27,26,11,9,0.9,1.2
2024-03-03T2100,2171A,112.7532,37.6945,晋中市,锦纶小区,颗粒物(PM10),98,146,97,58,42,57,,95,86,43,36,13,16,0.8,0.7
2024-03-03T2100,2173A,112.7249,37.7067,晋中市,南都小区,颗粒物(PM10),98,145,101,58,46,52,,96,86,47,38,12,17,0.8,1
2024-03-03T2100,2174A,112.6991,37.6982,晋中市,榆次区政府,颗粒物(PM10),86,122,88,47,42,52,,97,86,46,38,13,17,0.7,0.8
2024-03-03T2100,2865A,112.7195,37.6828,晋中市,榆次三中,颗粒物(PM10),104,158,106,53,42,56,,95,85,43,38,13,17,0.8,0.9
2024-03-03T2100,2439A,112.2014,31.0481,荆门市,竹园小学,细颗粒物(PM2.5),59,60,61,42,46,61,,80,76,24,19,12,9,0.9,0.7
2024-03-03T2100,2440A,112.1969,30.9891,荆门市,掇刀,细颗粒物(PM2.5),62,60,60,44,47,62,,80,76,23,19,10,8,0.8,0.7
2024-03-03T2100,2441A,112.2213,31.0386,荆门市,石化一小,细颗粒物(PM2.5),59,52,63,42,52,71,,79,77,22,26,20,21,0.7,0.7
2024-03-03T2100,3012A,112.1849,31.0362,荆门市,西山林语,细颗粒物(PM2.5),74,66,58,54,40,63,,82,77,24,20,17,13,0.6,0.6
2024-03-03T2100,3547A,112.1632,31.0138,荆门市,龙泉中学南校,细颗粒物(PM2.5),58,54,59,41,44,60,,80,75,20,19,11,10,0.6,0.5
2024-03-03T2100,1844A,112.2494,30.3197,荆州市,市图书馆,,49,42,44,34,43,52,,69,65,21,16,6,7,0.7,0.6
2024-03-03T2100,1845A,112.2008,30.3544,荆州市,市委党校,,50,38,42,35,41,52,,70,67,28,19,7,6,0.8,0.7
2024-03-03T2100,3194A,112.2747,30.3122,荆州市,管委会,,49,35,41,34,42,54,,72,68,26,18,8,9,0.7,0.7
2024-03-03T2100,3548A,112.1655,30.3364,荆州市,学苑路,细颗粒物(PM2.5),52,,37,36,38,51,,66,63,24,21,11,8,0.7,0.6
2024-03-03T2100,2342A,117.3102,29.3867,景德镇市,王港中学,,42,,22,29,14,38,,95,81,7,5,4,4,0.3,0.3
2024-03-03T2100,2343A,117.2117,29.2933,景德镇市,老干部活动中心,,50,47,35,35,22,32,,78,68,22,17,4,5,0.6,0.5
2024-03-03T2100,2344A,117.1894,29.2789,景德镇市,兽医站,,50,50,35,21,18,44,,87,79,33,18,9,7,0.7,0.5
2024-03-03T2100,2345A,117.1547,29.2617,景德镇市,台达陶瓷,颗粒物(PM10),59,67,42,18,22,55,,78,74,22,23,4,6,0.6,0.6
2024-03-03T2100,2346A,117.2461,29.2956,景德镇市,陶研所,,32,32,27,16,13,41,,77,68,13,15,3,5,0.5,0.5
2024-03-03T2100,1803A,115.9872,29.6815,九江市,十里,颗粒物(PM10),51,51,40,28,26,50,,95,89,37,33,10,9,0.9,0.7
2024-03-03T2100,1804A,115.9584,29.7046,九江市,茅山头,,39,39,48,22,31,49,,79,75,43,46,12,12,1.0,1
2024-03-03T2100,1805A,115.9877,29.7295,九江市,西园,,45,35,44,31,30,48,,83,80,42,37,8,8,0.9,0.8
2024-03-03T2100,1806A,116.0172,29.6547,九江市,五七二七厂,,26,,33,18,22,60,,86,83,16,15,8,8,0.7,0.6
2024-03-03T2100,1808A,115.9114,29.6038,九江市,综合工业园,,39,39,43,24,29,50,,84,75,37,41,12,12,0.9,0.7
2024-03-03T2100,1809A,116.0721,29.7535,九江市,石化总厂,,30,30,42,17,22,74,,82,80,27,27,13,12,0.7,0.7
2024-03-03T2100,1810A,115.9773,29.5698,九江市,庐山气象台,,27,,20,16,16,86,,90,89,5,4,7,7,1.2,3.7
2024-03-03T2100,3190A,116.0254,29.6994,九江市,外国语学校,,28,28,36,18,25,74,,86,85,22,27,7,10,0.5,0.6
2024-03-03T2100,2658A,98.5061,39.7443,酒泉市,仓门街子站,,48,44,55,33,28,74,,84,84,16,28,8,8,0.6,0.6
2024-03-03T2100,2659A,98.4989,39.7256,酒泉市,油田生活基地,,46,46,60,25,31,87,,92,92,12,31,8,9,0.3,0.5
2024-03-03T2100,2698A,76.0072,39.4467,喀什地区,巡警大队,颗粒物(PM10),145,239,345,54,67,56,,61,61,25,24,2,2,0.7,0.6
2024-03-03T2100,2699A,75.9755,39.4694,喀什地区,吾办,颗粒物(PM10),145,239,342,68,86,58,,64,64,22,19,2,2,0.6,0.6
2024-03-03T2100,4027A,75.9483,39.4689,喀什地区,老干局,颗粒物(PM10),145,240,353,49,58,70,,73,73,10,12,3,3,0.7,0.7
2024-03-03T2100,1824A,114.3389,34.7781,开封市,肿瘤医院,细颗粒物(PM2.5),85,88,93,63,73,68,,93,88,25,28,4,4,0.7,0.7
2024-03-03T2100,1826A,114.2885,34.7965,开封市,世纪星幼儿园,细颗粒物(PM2.5),85,81,88,63,75,79,,104,100,25,28,6,6,0.6,0.6
2024-03-03T2100,3147A,114.3438,34.8106,开封市,龙亭公园,细颗粒物(PM2.5),100,93,97,75,80,65,,97,92,29,27,5,5,1.1,0.6
2024-03-03T2100,3210A,114.3644,34.7964,开封市,汴京公园,细颗粒物(PM2.5),90,113,97,67,80,75,,99,93,24,26,4,3,1.3,0.8
2024-03-03T2100,3473A,114.2485,34.8306,开封市,技师学院,细颗粒物(PM2.5),88,90,90,65,76,83,,101,98,18,22,6,5,0.9,0.8
2024-03-03T2100,3592A,114.4644,34.7556,开封市,祥符区生态环境局,细颗粒物(PM2.5),85,94,114,63,76,56,,96,87,40,29,4,4,0.8,0.7
2024-03-03T2100,1951A,84.895,45.6094,克拉玛依市,长征新村,细颗粒物(PM2.5),67,69,54,48,39,103,,97,97,22,27,9,9,0.5,0.5
2024-03-03T2100,1952A,84.8988,45.5893,克拉玛依市,南林小区,颗粒物(PM10),66,81,56,47,41,112,,105,105,18,23,1,1,0.3,0.2
2024-03-03T2100,1954A,84.905,44.3396,克拉玛依市,独山子区,,43,43,52,20,24,90,,101,95,10,11,5,5,0.4,0.4
2024-03-03T2100,1955A,85.6979,46.098,克拉玛依市,乌尔禾区商贸楼,细颗粒物(PM2.5),64,65,61,46,50,100,,106,106,21,22,8,9,0.6,0.6
2024-03-03T2100,3612A,85.1045,45.6899,克拉玛依市,白碱滩区新站,细颗粒物(PM2.5),84,88,60,62,40,110,,103,103,21,29,12,11,0.7,0.7
2024-03-03T2100,2697A,76.1454,39.7142,克孜勒苏柯尔克孜自治州,市人民政府,颗粒物(PM10),134,218,325,72,80,59,,61,61,9,8,5,5,1.2,1
2024-03-03T2100,3665A,76.1658,39.7157,克孜勒苏柯尔克孜自治州,克州文化中心,颗粒物(PM10),142,233,339,73,80,58,,66,62,10,7,6,6,0.7,0.6
2024-03-03T2100,1450A,102.8204,24.8886,昆明市,呈贡新区,,42,42,33,24,20,88,,99,95,14,11,5,6,0.6,0.6
2024-03-03T2100,1451A,102.6251,24.9608,昆明市,西山森林公园,,34,31,31,13,16,106,,118,106,5,6,7,8,0.9,0.9
2024-03-03T2100,1452A,102.7252,25.0902,昆明市,龙泉镇,,39,39,37,17,20,98,,101,100,10,36,9,9,0.4,0.5
2024-03-03T2100,1453A,102.7266,25.0375,昆明市,东风东路,,36,36,33,21,22,86,,94,91,16,14,8,8,0.5,0.5
2024-03-03T2100,1454A,102.6742,25.0669,昆明市,金鼎山,,32,32,25,14,17,96,,98,97,10,12,6,11,0.4,0.5
2024-03-03T2100,1455A,102.6644,25.0401,昆明市,碧鸡广场,,32,32,33,20,21,95,,101,99,11,16,8,10,0.6,0.6
2024-03-03T2100,3179A,102.7494,25.0119,昆明市,官渡区博物馆,,43,43,34,20,20,79,,94,89,21,13,8,10,0.5,0.6
2024-03-03T2100,3375A,102.8017,24.8336,昆明市,青年创业园,,34,34,33,21,24,103,,107,104,5,6,10,10,0.5,0.5
2024-03-03T2100,3550A,102.7997,24.9786,昆明市,昆明学院,,40,40,32,19,18,89,,94,91,8,8,9,9,0.4,0.4
2024-03-03T2100,3551A,102.5967,24.6736,昆明市,晋宁区生态环境分局,,45,45,36,22,24,101,,101,100,6,8,5,4,0.5,0.7
2024-03-03T2100,3552A,102.6678,24.9856,昆明市,云天化总部,,33,33,28,17,17,101,,104,102,7,7,7,9,0.5,0.5
2024-03-03T2100,1456A,91.1319,29.6514,拉萨市,八廓街,,35,35,18,9,8,93,,98,98,14,14,8,7,0.5,0.5
2024-03-03T2100,1457A,91.1221,29.6747,拉萨市,市环保局,,39,39,19,14,10,89,,96,94,12,12,8,7,0.5,0.7
2024-03-03T2100,1458A,91.0874,29.6475,拉萨市,区监测站,,30,25,16,9,8,95,,98,98,4,6,5,5,0.2,0.2
2024-03-03T2100,1459A,91.1774,29.6541,拉萨市,西藏大学,,30,29,16,11,8,93,,96,96,4,6,6,4,0.2,0.2
2024-03-03T2100,1460A,90.9798,29.6588,拉萨市,区辐射站,,,43,22,15,10,,,92,92,15,14,5,5,0.6,0.5
2024-03-03T2100,1461A,91.0834,29.6292,拉萨市,拉萨火车站,,31,31,16,10,8,97,,99,99,3,8,4,3,0.3,0.2
2024-03-03T2100,2520A,109.2203,23.7256,来宾市,来宾技工学校,,33,24,50,23,44,26,,52,34,19,17,6,9,1.1,0.9
2024-03-03T2100,3535A,109.1781,23.7297,来宾市,兴宾区政府,,43,35,65,30,48,19,,52,30,26,22,4,6,1.2,0.9
2024-03-03T2100,4002A,109.2416,23.7461,来宾市,中南小学,,26,24,47,18,42,22,,50,32,24,21,2,4,1.1,0.9
2024-03-03T2100,1476A,103.631,36.1031,兰州市,兰炼宾馆,细颗粒物(PM2.5),63,69,102,45,62,55,,88,86,24,63,10,14,0.7,1.2
2024-03-03T2100,1477A,104.1373,35.9454,兰州市,榆中兰大校区,,,,,,,,,,,,,,,,
2024-03-03T2100,1478A,103.8412,36.0726,兰州市,生物制品所,细颗粒物(PM2.5),72,62,88,52,59,47,,87,83,30,55,10,13,0.8,0.9
2024-03-03T2100,1479A,103.831,36.0464,兰州市,铁路设计院,细颗粒物(PM2.5),72,57,87,52,60,40,,81,79,36,59,8,12,0.7,1
2024-03-03T2100,3186A,103.7158,36.1058,兰州市,教育港,细颗粒物(PM2.5),63,69,76,45,51,54,,93,91,30,58,8,12,0.7,1
2024-03-03T2100,3241A,103.7439,36.0842,兰州市,百合公园,颗粒物(PM10),58,65,84,35,49,55,,92,89,27,60,4,8,0.6,1.2
2024-03-03T2100,3242A,103.9611,35.998,兰州市,和平,细颗粒物(PM2.5),78,59,74,57,44,57,,93,86,20,30,7,9,0.7,0.7
2024-03-03T2100,3245A,103.6633,36.533,兰州新区,新区管委会,细颗粒物(PM2.5),62,62,74,44,54,51,,98,94,33,26,16,15,1.6,1.1
2024-03-03T2100,3246A,103.6975,36.4789,兰州新区,舟曲中学,颗粒物(PM10),57,63,88,36,59,58,,96,93,22,33,59,23,1.1,0.9
2024-03-03T2100,1067A,116.6708,39.5111,廊坊市,药材公司,颗粒物(PM10),58,65,116,22,50,64,,81,79,26,39,2,6,0.3,1.1
2024-03-03T2100,1068A,116.7214,39.5589,廊坊市,开发区,,43,43,102,20,48,65,,77,75,22,36,3,6,0.4,1.1
2024-03-03T2100,1070A,116.7244,39.5269,廊坊市,北华航天学院,,39,39,103,12,41,62,,80,77,25,35,4,8,0.4,1.1
2024-03-03T2100,2919A,116.7022,39.5453,廊坊市,河北工业大学,,48,48,102,22,49,66,,76,76,20,34,3,7,0.4,1.1
2024-03-03T2100,2535A,103.7723,29.5462,乐山市,花湖湾,细颗粒物(PM2.5),114,116,92,86,63,49,,64,64,30,26,6,5,0.8,0.8
2024-03-03T2100,2536A,103.7627,29.5844,乐山市,牛耳桥,细颗粒物(PM2.5),109,103,72,82,62,28,,56,54,59,38,5,5,1.3,1.2
2024-03-03T2100,2537A,103.7508,29.6006,乐山市,市第三水厂,细颗粒物(PM2.5),84,93,74,62,46,47,,63,63,47,38,4,5,0.8,0.8
2024-03-03T2100,2538A,103.7571,29.5664,乐山市,市监测站,细颗粒物(PM2.5),94,86,69,70,54,56,,62,62,28,27,5,5,0.9,1
2024-03-03T2100,3361A,103.7311,29.5628,乐山市,理工大学,细颗粒物(PM2.5),103,89,70,77,60,61,,67,67,26,28,5,5,0.7,0.7
2024-03-03T2100,2598A,100.2143,26.8576,丽江市,西南郊,,,,,,,,,,,,,,,,
2024-03-03T2100,2599A,100.2497,26.8802,丽江市,丽江古城,,,,,,,,,,,,,,,,
2024-03-03T2100,2600A,100.2203,26.8906,丽江市,市中心,,28,11,20,11,11,89,,90,90,10,7,6,5,0.4,0.3
2024-03-03T2100,1267A,119.914,28.4514,丽水市,监测站大楼,,41,41,39,27,29,95,,97,97,12,19,3,4,0.3,0.4
2024-03-03T2100,1268A,119.93,28.4586,丽水市,莲都小学,,35,35,38,20,23,102,,104,104,10,16,4,3,0.3,0.4
2024-03-03T2100,1269A,119.879,28.4231,丽水市,余庄前,,34,32,37,18,26,106,,104,104,10,15,4,3,0.4,0.4
2024-03-03T2100,1173A,119.176,34.5885,连云港市,市环境监测站,细颗粒物(PM2.5),77,90,83,56,62,80,,115,112,34,19,8,7,1.0,0.9
2024-03-03T2100,3000A,119.3581,34.6972,连云港市,德源药业,细颗粒物(PM2.5),85,85,82,63,55,78,,116,111,24,20,4,5,0.6,0.6
2024-03-03T2100,3007A,119.178,34.844,连云港市,新城一中,细颗粒物(PM2.5),83,82,90,61,70,96,,128,126,31,29,9,9,0.8,0.8
2024-03-03T2100,3008A,119.3608,34.7519,连云港市,胡沟管理处,颗粒物(PM10),64,78,81,44,52,94,,114,113,23,20,9,9,0.7,0.6
2024-03-03T2100,3009A,119.1478,34.5911,连云港市,矿山设计院,细颗粒物(PM2.5),67,78,93,48,59,96,,116,115,19,19,7,7,0.7,0.6
2024-03-03T2100,3434A,119.2413,34.6539,连云港市,工贸学校,细颗粒物(PM2.5),82,86,100,60,68,107,,129,127,17,22,8,10,0.6,0.7
2024-03-03T2100,3664A,119.4172,34.7341,连云港市,连云街道,细颗粒物(PM2.5),77,86,93,56,62,119,,128,128,10,12,5,4,0.7,0.7
2024-03-03T2100,2571A,102.3431,27.8099,凉山彝族自治州,青龙寺,,36,36,25,8,6,98,,100,100,2,4,4,5,0.9,0.9
2024-03-03T2100,2572A,102.2721,27.8415,凉山彝族自治州,邛海宾馆,,31,31,25,18,15,87,,98,98,7,7,15,12,0.7,0.7
2024-03-03T2100,2573A,102.2625,27.898,凉山彝族自治州,西昌市政府,,32,32,29,17,17,88,,98,97,8,8,14,14,0.7,0.8
2024-03-03T2100,2574A,102.2685,27.8851,凉山彝族自治州,凉山州政府,,30,30,30,16,15,86,,94,94,8,7,14,12,0.6,0.7
2024-03-03T2100,2575A,102.237,27.8914,凉山彝族自治州,长安,颗粒物(PM10),53,55,35,16,15,90,,99,98,9,8,17,14,0.9,0.9
2024-03-03T2100,2212A,123.2,41.1953,辽阳市,宏伟区,,29,21,63,20,32,66,,84,79,15,28,12,18,0.8,1.2
2024-03-03T2100,2213A,123.1683,41.2495,辽阳市,新华园,细颗粒物(PM2.5),72,58,69,52,43,35,,84,73,48,36,34,24,1.1,1.3
2024-03-03T2100,2214A,123.2354,41.2639,辽阳市,滨河路,颗粒物(PM10),63,75,62,43,45,48,,83,74,34,30,15,28,0.6,0.9
2024-03-03T2100,2215A,123.149,41.2991,辽阳市,铁西工业园,细颗粒物(PM2.5),84,71,74,62,55,39,,91,72,44,34,22,20,0.9,0.9
2024-03-03T2100,2227A,125.1358,42.8845,辽源市,环保局,,39,39,30,22,18,38,,93,81,40,19,10,8,1.5,0.6
2024-03-03T2100,3239A,125.0764,42.9078,辽源市,银鹰制药,,38,38,29,26,20,33,,91,79,43,18,10,14,0.7,0.6
2024-03-03T2100,1625A,115.9848,36.4372,聊城市,区政府,细颗粒物(PM2.5),84,111,112,62,62,94,,110,110,27,21,5,9,0.8,0.8
2024-03-03T2100,2878A,116.0072,36.4343,聊城市,聊大东校,细颗粒物(PM2.5),94,110,103,70,68,90,,118,117,38,27,8,13,0.6,0.7
2024-03-03T2100,3200A,115.9819,36.4978,聊城市,监控中心,细颗粒物(PM2.5),85,107,113,63,64,109,,117,117,21,26,6,10,0.7,0.8
2024-03-03T2100,3513A,116.0445,36.4361,聊城市,九州社区,颗粒物(PM10),79,108,115,56,60,89,,115,113,32,24,4,13,0.6,0.7
2024-03-03T2100,4018A,116.0567,36.4608,聊城市,星美广场,颗粒物(PM10),79,107,117,57,60,94,,115,114,33,20,4,11,0.6,0.6
2024-03-03T2100,2632A,94.3681,29.6376,林芝市,林芝监测站,,,12,18,,8,98,,97,97,4,3,4,5,0.4,0.4
2024-03-03T2100,2633A,94.3616,29.6616,林芝市,林芝人民医院,,30,17,23,10,12,96,,94,94,4,4,5,5,0.4,0.4
2024-03-03T2100,2603A,100.0781,23.8982,临沧市,市环保局,细颗粒物(PM2.5),88,,39,65,34,105,,110,110,11,12,8,9,0.5,0.5
2024-03-03T2100,2604A,100.0894,23.8822,临沧市,市气象局,细颗粒物(PM2.5),59,53,45,42,35,106,,108,108,10,13,7,8,0.5,0.5
2024-03-03T2100,1733A,111.5531,36.0783,临汾市,临钢医院,,40,40,79,22,37,82,,87,87,18,30,7,8,0.5,0.7
2024-03-03T2100,1734A,111.5028,36.0714,临汾市,技工学校,颗粒物(PM10),59,68,79,29,41,76,,92,91,23,26,7,8,0.5,0.6
2024-03-03T2100,1736A,111.5018,36.0855,临汾市,市委,,50,50,78,23,37,87,,100,99,19,27,8,10,0.6,0.7
2024-03-03T2100,3018A,111.505,36.1014,临汾市,唐尧大酒店,颗粒物(PM10),55,59,78,20,38,85,,98,97,25,33,6,8,0.5,0.7
2024-03-03T2100,3668A,111.5036,36.0414,临汾市,城南,细颗粒物(PM2.5),55,56,73,39,42,82,,98,96,16,27,7,8,0.4,0.6
2024-03-03T2100,2667A,103.2069,35.5993,临夏回族自治州,环保局,颗粒物(PM10),103,156,164,32,32,81,,119,116,36,34,13,10,1.3,1.8
2024-03-03T2100,2668A,103.2417,35.6057,临夏回族自治州,建设大厦,,,129,107,63,48,,,124,,45,26,8,4,1.2,1.1
2024-03-03T2100,1618A,118.3429,35.0532,临沂市,沂河小区,细颗粒物(PM2.5),74,92,104,54,77,82,,108,105,34,30,10,8,0.7,0.8
2024-03-03T2100,1619A,118.295,35.0583,临沂市,鲁南制药厂,颗粒物(PM10),65,80,102,44,68,98,,117,116,29,31,7,8,0.5,0.6
2024-03-03T2100,1620A,118.2794,34.9976,临沂市,新光毛纺厂,颗粒物(PM10),74,97,97,48,64,86,,116,112,36,31,12,8,0.8,0.9
2024-03-03T2100,1621A,118.3956,35.0888,临沂市,河东保险公司,细颗粒物(PM2.5),64,75,95,46,66,95,,114,113,30,31,8,8,0.7,0.7
2024-03-03T2100,3370A,118.3564,35.0215,临沂市,十里堡居委,颗粒物(PM10),71,92,102,51,62,84,,121,112,32,34,9,9,0.7,0.8
2024-03-03T2100,3496A,118.3604,35.1084,临沂市,南坊新区,细颗粒物(PM2.5),62,66,93,44,62,104,,118,117,33,31,7,11,0.6,0.7
2024-03-03T2100,3860A,118.3920,35.0300,临沂市,皇山花园小区,细颗粒物(PM2.5),79,88,98,58,64,84,,115,112,32,31,14,11,1.0,0.9
2024-03-03T2100,1870A,109.4856,24.3895,柳州市,柳东小学,,38,27,76,26,72,19,,43,33,37,32,6,8,0.9,0.8
2024-03-03T2100,1871A,109.4157,24.3277,柳州市,环保监测站,,30,24,93,21,75,9,,38,25,42,32,6,8,1.0,0.9
2024-03-03T2100,1872A,109.389,24.341,柳州市,河西水厂,,29,29,99,13,59,7,,32,20,40,32,7,9,1.2,1
2024-03-03T2100,1873A,109.4311,24.2921,柳州市,市四中,,36,36,82,14,53,13,,38,28,40,30,6,8,1.2,0.9
2024-03-03T2100,1874A,109.4006,24.3631,柳州市,市九中,,40,,76,28,89,15,,35,27,29,32,5,8,0.9,0.8
2024-03-03T2100,1875A,109.4958,24.3134,柳州市,古亭山,,20,17,53,11,43,7,,34,22,39,32,6,7,1.0,0.8
2024-03-03T2100,3402A,109.5422,24.3996,柳州市,市二中,,28,28,58,18,54,17,,44,31,35,30,6,7,1.0,0.9
2024-03-03T2100,2307A,116.5079,31.737,六安市,监测大楼,,33,27,48,23,33,89,,105,102,15,19,5,4,0.6,0.7
2024-03-03T2100,2308A,116.4738,31.7643,六安市,皖西学院,,43,43,50,19,30,91,,107,105,18,18,4,4,0.5,0.6
2024-03-03T2100,2309A,116.4996,31.7905,六安市,朝阳厂,,41,41,48,19,33,93,,103,102,11,14,5,4,0.5,0.6
2024-03-03T2100,2310A,116.5567,31.7886,六安市,开发区,,34,34,59,17,39,98,,105,105,14,19,4,4,0.5,0.6
2024-03-03T2100,2576A,104.8,26.5892,六盘水市,窑上,,,,,,,,,,,,,,,,
2024-03-03T2100,2577A,104.83,26.5917,六盘水市,黄土坡,,44,44,23,30,18,57,,66,65,20,12,8,8,0.8,0.8
2024-03-03T2100,2578A,104.89,26.5939,六盘水市,水钢,颗粒物(PM10),51,52,23,35,19,64,,72,72,10,8,3,4,0.7,0.7
2024-03-03T2100,2579A,104.8475,26.5894,六盘水市,民中,,49,46,22,34,16,52,,66,65,22,11,8,7,1.0,0.8
2024-03-03T2100,2580A,104.9544,26.5506,六盘水市,双水,,31,31,20,19,15,64,,76,76,11,7,6,6,0.6,0.6
2024-03-03T2100,2335A,117.0189,25.1181,龙岩市,龙岩师专,,,,,,,,,,,,,,,,
2024-03-03T2100,2336A,117.0217,25.1033,龙岩市,龙岩市监测站,细颗粒物(PM2.5),64,53,30,46,26,20,,53,47,48,18,5,8,1.0,0.7
2024-03-03T2100,2337A,117.0258,25.0661,龙岩市,闽西职业技术学院,,49,47,25,34,22,45,,55,53,27,16,6,7,0.7,0.6
2024-03-03T2100,2338A,117.0196,25.0306,龙岩市,龙岩学院,,39,39,24,27,19,40,,54,49,14,12,4,6,0.7,0.6
2024-03-03T2100,2665A,105.0822,33.3261,陇南市,汉王镇固水子,,,,,,,,,,,,,,,,
2024-03-03T2100,2885A,104.9339,33.3826,陇南市,滨江中学,,39,39,46,20,21,76,,79,78,14,15,5,8,1.0,1
2024-03-03T2100,3247A,104.955,33.371,陇南市,市总工会,,27,27,35,10,16,69,,71,71,12,12,4,5,0.7,0.7
2024-03-03T2100,2487A,111.9589,27.8901,娄底市,电视发射台,颗粒物(PM10),52,53,55,32,34,43,,53,53,14,18,6,9,0.6,1
2024-03-03T2100,2488A,111.9975,27.725,娄底市,市监测站,细颗粒物(PM2.5),77,67,53,56,43,41,,59,54,20,22,6,7,0.8,0.7
2024-03-03T2100,2489A,112.0194,27.7314,娄底市,市委党校,细颗粒物(PM2.5),68,66,52,49,41,38,,50,48,20,20,8,8,0.6,0.5
2024-03-03T2100,2490A,111.9561,27.7569,娄底市,涟钢,细颗粒物(PM2.5),77,71,64,56,47,36,,38,38,21,28,6,10,0.7,1.4
2024-03-03T2100,2491A,111.9892,27.7044,娄底市,市政府,细颗粒物(PM2.5),77,70,47,56,40,39,,55,52,18,14,7,7,0.8,0.7
2024-03-03T2100,1893A,105.4324,28.9634,泸州市,九狮山,细颗粒物(PM2.5),132,116,88,100,66,54,,76,76,26,20,8,7,0.6,0.4
2024-03-03T2100,1894A,105.4427,28.9063,泸州市,小市上码头,细颗粒物(PM2.5),120,111,90,91,72,46,,57,57,34,29,7,6,0.7,0.7
2024-03-03T2100,1895A,105.4241,28.8573,泸州市,兰田宪桥,细颗粒物(PM2.5),138,115,88,105,77,55,,58,58,25,21,7,6,0.8,0.7
2024-03-03T2100,1896A,105.4379,28.8833,泸州市,市环监站,细颗粒物(PM2.5),117,121,94,88,73,47,,52,52,38,31,7,6,0.7,0.7
2024-03-03T2100,3490A,105.3617,28.7703,泸州市,纳溪区环保局,细颗粒物(PM2.5),125,134,83,95,73,64,,57,54,23,22,4,6,0.6,0.8
2024-03-03T2100,2183A,111.1406,37.5211,吕梁市,环保局,颗粒物(PM10),72,93,72,37,27,21,,101,92,82,43,11,4,0.7,0.4
2024-03-03T2100,2185A,111.1297,37.5136,吕梁市,自来水公司,颗粒物(PM10),64,77,90,35,33,48,,106,101,55,36,8,8,0.7,0.4
2024-03-03T2100,2867A,111.1283,37.51,吕梁市,马茂庄小学,颗粒物(PM10),83,115,89,55,31,11,,100,86,96,47,16,4,0.9,0.6
2024-03-03T2100,1812A,112.3931,34.6516,洛阳市,市委党校,细颗粒物(PM2.5),99,103,101,74,60,50,,72,71,57,60,10,13,0.9,0.8
2024-03-03T2100,1814A,112.4657,34.6871,洛阳市,豫西宾馆,细颗粒物(PM2.5),92,117,105,68,51,53,,77,74,47,51,10,14,0.5,0.4
2024-03-03T2100,1815A,112.494,34.6886,洛阳市,河南林校,细颗粒物(PM2.5),89,104,93,66,49,54,,78,76,42,51,8,11,0.6,0.6
2024-03-03T2100,1816A,112.3844,34.623,洛阳市,开发区管委会,细颗粒物(PM2.5),83,87,74,61,45,71,,84,84,34,38,6,9,0.7,0.7
2024-03-03T2100,1817A,112.4267,34.6258,洛阳市,市委新办公区,细颗粒物(PM2.5),93,96,78,69,50,64,,73,73,35,42,6,8,0.7,0.5
2024-03-03T2100,3340A,112.6005,34.6326,洛阳市,伊滨,细颗粒物(PM2.5),97,106,101,72,51,71,,86,86,28,38,4,6,0.6,0.5
2024-03-03T2100,3341A,112.4951,34.6332,洛阳市,中移产业园,细颗粒物(PM2.5),89,81,72,66,48,67,,84,83,45,40,7,9,0.8,0.7
2024-03-03T2100,3593A,112.5736,34.8993,洛阳市,吉利监测站,细颗粒物(PM2.5),87,91,60,64,35,69,,94,91,37,35,8,8,0.6,0.3
2024-03-03T2100,3635A,112.3677,34.662,洛阳市,河科大西苑校区,细颗粒物(PM2.5),92,114,108,68,62,50,,77,74,58,54,5,12,0.5,0.5
2024-03-03T2100,3636A,112.4388,34.6781,洛阳市,英才小学,细颗粒物(PM2.5),93,112,100,69,53,41,,71,67,52,56,8,12,0.7,0.8
2024-03-03T2100,2399A,114.051,33.5699,漯河市,三五一五工厂,细颗粒物(PM2.5),68,71,86,49,63,86,,106,103,19,30,8,7,0.6,0.7
2024-03-03T2100,2400A,114.0055,33.5698,漯河市,漯河大学,细颗粒物(PM2.5),64,71,81,46,62,70,,107,102,35,28,7,6,0.5,0.5
2024-03-03T2100,2401A,114.0138,33.5828,漯河市,市水利局,细颗粒物(PM2.5),58,63,84,41,63,89,,105,104,17,23,5,6,0.6,0.6
2024-03-03T2100,2402A,114.0261,33.5698,漯河市,市广电局,细颗粒物(PM2.5),59,59,81,42,62,80,,112,104,25,26,3,3,0.7,0.6
2024-03-03T2100,3478A,113.9749,33.5664,漯河市,市图书馆,细颗粒物(PM2.5),54,45,75,38,52,92,,112,109,27,23,9,8,0.5,0.6
2024-03-03T2100,3479A,114.0967,33.5906,漯河市,召陵区卫健委,细颗粒物(PM2.5),63,64,93,45,64,81,,105,101,21,33,3,5,0.6,0.6
2024-03-03T2100,1798A,118.5092,31.6837,马鞍山市,湖东路四小,颗粒物(PM10),58,65,69,38,36,87,,100,98,28,36,5,7,0.8,1.1
2024-03-03T2100,1799A,118.5024,31.6449,马鞍山市,开发区,颗粒物(PM10),59,67,60,41,42,45,,103,96,56,37,4,7,0.7,1
2024-03-03T2100,1800A,118.5228,31.7231,马鞍山市,慈湖,细颗粒物(PM2.5),64,56,65,46,47,92,,99,99,29,43,6,8,0.8,1.1
2024-03-03T2100,1802A,118.6245,31.7241,马鞍山市,濮塘,颗粒物(PM10),54,58,62,37,34,88,,94,94,18,23,6,7,0.5,0.9
2024-03-03T2100,3633A,118.4918,31.6809,马鞍山市,雨山,"颗粒物(PM10),细颗粒物(PM2.5)",54,57,69,38,40,89,,102,102,32,38,8,10,0.5,0.9
2024-03-03T2100,1686A,111.0286,21.4688,茂名市,电白南海,颗粒物(PM10),52,53,50,29,30,53,,61,60,21,19,8,10,0.6,0.8
2024-03-03T2100,1687A,110.9294,21.6533,茂名市,茂石化七小,细颗粒物(PM2.5),58,56,49,41,37,42,,48,46,21,18,12,8,0.9,0.9
2024-03-03T2100,1688A,110.9107,21.6687,茂名市,健康路,细颗粒物(PM2.5),55,51,41,39,35,44,,45,44,21,20,15,12,0.7,0.7
2024-03-03T2100,1689A,110.8592,21.6828,茂名市,高岭,细颗粒物(PM2.5),58,61,53,41,38,45,,43,42,27,26,18,14,1.0,0.9
2024-03-03T2100,3450A,111.01,21.5165,茂名市,电白水东,颗粒物(PM10),51,51,44,34,32,52,,57,56,19,19,17,9,0.7,0.7
2024-03-03T2100,2539A,104.0308,30.0478,眉山市,黑龙滩水库,细颗粒物(PM2.5),65,63,64,47,44,71,,82,82,13,17,5,5,0.5,0.6
2024-03-03T2100,2540A,103.8416,30.0874,眉山市,气象局,细颗粒物(PM2.5),89,88,75,66,57,40,,67,65,46,36,6,6,0.8,0.8
2024-03-03T2100,3137A,103.8578,30.0744,眉山市,市委党校,,,,71,,56,,,71,71,,39,,8,,0.6
2024-03-03T2100,3148A,103.8291,30.0564,眉山市,区人社局,细颗粒物(PM2.5),79,75,66,58,57,54,,63,63,43,41,8,11,0.7,0.8
2024-03-03T2100,1690A,116.1231,24.3284,梅州市,梅江月梅,细颗粒物(PM2.5),60,,24,43,18,8,,38,33,42,20,10,11,1.1,0.7
2024-03-03T2100,1691A,116.0797,24.2719,梅州市,梅县新城,细颗粒物(PM2.5),60,43,24,43,20,8,,44,36,46,20,6,7,1.2,0.8
2024-03-03T2100,1692A,116.1248,24.2654,梅州市,环境监控中心,"颗粒物(PM10),细颗粒物(PM2.5)",54,57,27,38,17,16,,46,39,41,20,6,8,0.8,0.7
2024-03-03T2100,3315A,116.1233,24.2991,梅州市,梅龙,细颗粒物(PM2.5),68,70,24,49,17,3,,38,30,53,26,7,7,1.2,0.6
2024-03-03T2100,1878A,104.7778,31.4741,绵阳市,富乐山,细颗粒物(PM2.5),73,73,68,53,54,34,,62,61,36,27,7,7,0.8,0.8
2024-03-03T2100,1879A,104.7563,31.4535,绵阳市,市人大,细颗粒物(PM2.5),83,87,89,61,56,35,,50,50,40,41,10,9,0.7,0.8
2024-03-03T2100,1880A,104.6697,31.4668,绵阳市,高新区自来水公司,细颗粒物(PM2.5),93,90,96,69,64,27,,49,49,48,42,7,8,0.7,0.8
2024-03-03T2100,1881A,104.7287,31.5075,绵阳市,三水厂,细颗粒物(PM2.5),83,75,88,61,65,30,,45,45,43,40,5,6,0.8,0.9
2024-03-03T2100,3491A,104.69,31.5322,绵阳市,西科大附属小学,细颗粒物(PM2.5),93,93,86,69,61,10,,52,51,59,37,6,8,0.7,1
2024-03-03T2100,3492A,104.5648,31.5343,绵阳市,安州区旅游局,细颗粒物(PM2.5),80,85,79,59,53,39,,52,51,23,24,7,7,1.0,1
2024-03-03T2100,1784A,129.61,44.561,牡丹江市,环保大楼,,39,39,39,27,26,93,,96,96,12,12,10,9,0.4,0.4
2024-03-03T2100,1785A,129.6115,44.5782,牡丹江市,文化广场,,40,40,45,22,29,60,,84,80,35,14,9,10,0.5,0.5
2024-03-03T2100,1786A,129.5904,44.5963,牡丹江市,第一医院,,44,44,39,24,26,82,,88,88,15,13,10,11,0.5,0.5
2024-03-03T2100,1787A,129.6364,44.6075,牡丹江市,机车工厂,,44,44,43,24,25,74,,89,87,18,13,8,9,0.3,0.3
2024-03-03T2100,1788A,129.6386,44.5462,牡丹江市,第一中学,,40,33,39,28,24,78,,89,88,17,12,9,9,0.4,0.4
2024-03-03T2100,2531A,105.0703,29.61,内江市,市监测站,细颗粒物(PM2.5),98,74,57,73,63,59,,69,68,30,25,9,9,0.6,0.6
2024-03-03T2100,2532A,105.0717,29.5947,内江市,东兴区政府,细颗粒物(PM2.5),74,60,64,54,50,62,,70,70,26,25,10,10,0.7,0.7
2024-03-03T2100,2533A,105.0653,29.5817,内江市,内江二中,细颗粒物(PM2.5),77,61,56,56,55,65,,74,74,29,26,6,6,1.0,0.8
2024-03-03T2100,2534A,105.0406,29.5822,内江市,内江日报社,细颗粒物(PM2.5),77,67,56,56,54,65,,71,71,28,29,8,9,0.8,0.7
2024-03-03T2100,2628A,92.0657,31.4846,那曲市,那曲监测站,,37,37,49,13,28,71,,89,87,4,11,7,9,0.8,1.3
2024-03-03T2100,3128A,92.0506,31.4797,那曲市,那曲会议中心,,35,35,39,6,15,80,,92,91,6,16,6,8,0.3,0.8
2024-03-03T2100,1290A,115.8931,28.6843,南昌市,省外办,,49,49,46,29,32,40,,70,63,33,27,6,6,0.6,0.5
2024-03-03T2100,1291A,115.8886,28.7003,南昌市,省林业公司,,39,39,43,24,30,49,,69,64,30,32,6,7,0.8,0.8
2024-03-03T2100,1292A,115.8126,28.7442,南昌市,林科所,,37,36,42,22,28,4,,80,66,73,40,7,7,0.7,0.9
2024-03-03T2100,1294A,115.8518,28.687,南昌市,建工学校,颗粒物(PM10),53,56,49,30,28,41,,70,62,39,35,7,6,0.8,0.7
2024-03-03T2100,1295A,115.8921,28.6424,南昌市,象湖,,43,37,40,30,29,36,,73,64,43,32,6,6,0.5,0.5
2024-03-03T2100,1296A,115.7423,28.7996,南昌市,武术学校,,32,,20,22,20,38,,82,66,13,9,7,5,0.5,0.4
2024-03-03T2100,1298A,115.9314,28.6842,南昌市,省站,颗粒物(PM10),60,70,56,30,34,39,,71,63,38,31,8,9,0.7,0.7
2024-03-03T2100,3046A,115.9084,28.6062,南昌市,机电学校,,44,44,46,29,29,43,,78,68,34,26,8,7,1.0,0.7
2024-03-03T2100,3690A,115.9721,28.7031,南昌市,外国语学校,,50,50,48,28,30,32,,68,60,43,29,5,6,0.6,0.5
2024-03-03T2100,1905A,106.056,30.8064,南充市,西山风景区,细颗粒物(PM2.5),58,52,47,41,46,61,,58,58,16,19,4,4,0.8,0.8
2024-03-03T2100,1906A,106.0789,30.8023,南充市,南充市委,颗粒物(PM10),61,72,72,39,36,38,,46,46,36,36,5,6,0.8,0.7
2024-03-03T2100,1907A,106.1031,30.8217,南充市,南充炼油厂,细颗粒物(PM2.5),74,67,68,54,50,51,,54,54,28,27,5,5,0.5,0.5
2024-03-03T2100,1908A,106.1064,30.7856,南充市,高坪区监测站,细颗粒物(PM2.5),62,60,61,44,42,48,,57,57,35,27,4,5,0.5,0.5
2024-03-03T2100,1909A,106.0642,30.7636,南充市,嘉陵区环保局,细颗粒物(PM2.5),62,65,64,44,43,51,,46,46,27,34,4,5,0.7,0.7
2024-03-03T2100,1910A,106.1087,30.8388,南充市,市环境监测站,细颗粒物(PM2.5),83,70,66,61,44,52,,54,54,25,26,5,5,0.5,0.5
2024-03-03T2100,1151A,118.8086,32.1065,南京市,迈皋桥,颗粒物(PM10),57,64,67,39,39,80,,99,97,30,28,4,5,0.6,0.7
2024-03-03T2100,1152A,118.7538,32.0551,南京市,草场门,细颗粒物(PM2.5),62,63,66,44,48,90,,102,102,29,36,2,4,1.0,1.2
2024-03-03T2100,1153A,118.7794,32.0745,南京市,山西路,颗粒物(PM10),54,58,67,36,42,92,,95,95,18,33,4,4,0.5,0.7
2024-03-03T2100,1154A,118.7752,32.0023,南京市,中华门,颗粒物(PM10),57,63,60,36,37,88,,106,104,27,41,8,10,0.7,0.8
2024-03-03T2100,1155A,118.8109,32.0309,南京市,瑞金路,颗粒物(PM10),58,66,68,34,40,82,,97,95,31,42,6,6,0.5,0.6
2024-03-03T2100,1156A,118.7997,32.0754,南京市,玄武湖,颗粒物(PM10),56,61,71,34,36,103,,102,102,18,27,8,9,0.5,0.7
2024-03-03T2100,1157A,118.6414,32.0931,南京市,浦口,颗粒物(PM10),51,51,70,29,34,50,,67,64,34,33,5,7,0.5,0.6
2024-03-03T2100,1158A,118.7356,31.9996,南京市,奥体中心,颗粒物(PM10),59,68,70,34,38,88,,102,101,30,36,6,8,0.6,0.8
2024-03-03T2100,1159A,118.9125,32.1028,南京市,仙林大学城,细颗粒物(PM2.5),52,51,62,36,36,100,,105,105,22,33,7,8,0.8,0.9
2024-03-03T2100,3422A,118.8436,31.9198,南京市,江宁彩虹桥,颗粒物(PM10),61,71,71,41,36,79,,110,104,35,37,4,4,0.8,0.8
2024-03-03T2100,3423A,119.0138,31.6494,南京市,溧水永阳,细颗粒物(PM2.5),64,66,54,46,44,94,,104,102,26,23,3,4,0.6,0.6
2024-03-03T2100,3424A,118.879,31.3302,南京市,高淳老职中,细颗粒物(PM2.5),67,71,59,48,40,87,,99,98,22,17,7,5,0.7,0.7
2024-03-03T2100,3427A,118.8554,32.3578,南京市,六合雄州,,45,45,72,26,33,90,,106,104,27,42,7,17,0.6,0.9
2024-03-03T2100,1401A,108.3103,22.7881,南宁市,二十一中,颗粒物(PM10),55,59,80,38,67,15,,50,34,37,24,4,6,0.9,0.8
2024-03-03T2100,1402A,108.3141,22.8528,南宁市,北湖,细颗粒物(PM2.5),60,52,79,43,68,5,,46,29,43,30,5,7,1.1,0.9
2024-03-03T2100,1403A,108.3206,22.8225,南宁市,市监测站,颗粒物(PM10),58,65,73,37,58,9,,48,31,46,30,6,7,1.3,1
2024-03-03T2100,1404A,108.3829,22.8037,南宁市,大自然花园,颗粒物(PM10),51,51,69,27,58,25,,43,29,24,24,5,6,1.1,0.9
2024-03-03T2100,1405A,108.4394,22.7904,南宁市,仙葫,,39,37,68,27,59,30,,50,36,18,18,7,8,1.2,1.1
2024-03-03T2100,1406A,108.2397,22.8467,南宁市,区农职院,细颗粒物(PM2.5),57,52,74,40,53,3,,48,33,46,32,6,7,0.9,0.7
2024-03-03T2100,1407A,108.3275,22.735,南宁市,英华嘉园,颗粒物(PM10),56,62,70,36,53,15,,46,28,33,24,6,7,1.1,0.9
2024-03-03T2100,1408A,108.2257,22.7757,南宁市,沙井镇街道办,细颗粒物(PM2.5),73,65,79,53,56,5,,40,29,45,36,5,7,1.1,0.9
2024-03-03T2100,3401A,108.4834,22.7618,南宁市,红星社区,,28,27,66,19,54,29,,48,33,20,18,6,8,1.0,0.8
2024-03-03T2100,2331A,118.0966,26.6761,南平市,茫荡山,,,,,,,,,,,,,,,,
2024-03-03T2100,2332A,118.1681,26.6369,南平市,南平市监测站,,42,42,22,26,16,15,,61,48,34,17,5,5,1.3,0.7
2024-03-03T2100,2333A,118.1825,26.6489,南平市,南平铝业有限公司,,41,41,21,18,14,6,,57,44,38,19,7,7,1.0,0.7
2024-03-03T2100,2334A,118.1756,26.6272,南平市,南平七中,,35,33,20,24,16,25,,64,57,26,16,5,4,0.8,0.5
2024-03-03T2100,1168A,120.9098,31.9663,南通市,狼山街道,,,72,74,,56,89,,118,113,45,41,10,10,0.7,0.8
2024-03-03T2100,1169A,120.86,32.0005,南通市,虹桥,细颗粒物(PM2.5),60,67,80,43,60,78,,106,102,44,48,5,7,0.6,0.8
2024-03-03T2100,1170A,120.87,32.02,南通市,城中,颗粒物(PM10),62,74,89,38,54,78,,107,103,44,47,6,8,0.4,0.8
2024-03-03T2100,1171A,120.94,31.93,南通市,星湖花园,颗粒物(PM10),60,69,79,38,49,71,,106,100,60,46,7,8,0.4,0.7
2024-03-03T2100,1172A,120.81,32.0417,南通市,紫琅学院,颗粒物(PM10),56,61,80,36,52,76,,99,96,43,50,8,10,0.5,0.8
2024-03-03T2100,3291A,121.067,32.062,南通市,通州监测站,细颗粒物(PM2.5),62,61,86,44,59,112,,115,115,21,41,10,9,0.6,0.6
2024-03-03T2100,3432A,120.9348,31.9883,南通市,环境教育馆,细颗粒物(PM2.5),65,63,78,47,59,85,,110,107,41,50,9,9,0.6,0.8
2024-03-03T2100,2404A,112.5224,33.0122,南阳市,瓦房庄,细颗粒物(PM2.5),52,52,60,36,47,77,,96,92,23,19,5,5,0.5,0.5
2024-03-03T2100,2405A,112.5003,32.9735,南阳市,汉画馆,颗粒物(PM10),56,62,59,39,46,55,,95,88,37,18,6,6,0.4,0.4
2024-03-03T2100,2406A,112.5573,33.027,南阳市,气象站,细颗粒物(PM2.5),55,54,58,39,42,78,,99,95,30,25,5,6,0.4,0.5
2024-03-03T2100,2407A,112.5481,32.9689,南阳市,理工学院,细颗粒物(PM2.5),55,57,57,39,44,68,,98,93,33,22,7,8,0.6,0.6
2024-03-03T2100,4008A,112.5234,32.9922,南阳市,卧龙区政府,,50,47,55,35,43,73,,94,90,23,19,7,7,0.7,0.6
2024-03-03T2100,1234A,121.8358,29.911,宁波市,区环保大楼,颗粒物(PM10),53,55,66,31,40,124,,120,120,13,26,6,8,0.6,0.8
2024-03-03T2100,1235A,121.56,29.82,宁波市,万里学院,颗粒物(PM10),52,53,65,29,37,101,,112,112,25,26,7,7,0.5,0.6
2024-03-03T2100,1236A,121.713,29.9572,宁波市,龙赛医院,,49,49,70,27,36,118,,117,117,20,34,5,6,0.5,0.6
2024-03-03T2100,1239A,121.633,29.7733,宁波市,钱湖水厂,,45,45,53,29,36,121,,120,120,9,13,6,6,0.5,0.6
2024-03-03T2100,1240A,121.5856,29.8635,宁波市,太古小学,,46,46,55,32,39,113,,114,114,22,28,7,7,0.5,0.6
2024-03-03T2100,1241A,121.524,29.8674,宁波市,市环境监测中心,,46,46,60,25,36,107,,114,114,25,29,6,7,0.6,0.6
2024-03-03T2100,2871A,121.6147,29.9017,宁波市,万里国际学校,,49,49,58,30,42,120,,118,118,19,25,8,8,0.5,0.6
2024-03-03T2100,3710A,121.5594,29.8975,宁波市,白沙活动中心,,50,50,63,28,37,116,,116,116,16,26,7,7,0.5,0.6
2024-03-03T2100,2339A,119.5001,26.6946,宁德市,金涵水库,,,,,,,,,,,,,,,,
2024-03-03T2100,2341A,119.5388,26.6612,宁德市,宁德市监测站,,39,,40,27,25,100,,97,97,11,12,6,7,0.3,0.4
2024-03-03T2100,3209A,119.5231,26.6562,宁德市,宁德一中,,38,38,37,22,22,103,,99,99,17,15,6,6,0.5,0.6
2024-03-03T2100,2618A,98.8601,25.8567,怒江傈僳族自治州,州监测站,,30,30,23,18,20,78,,94,94,6,14,7,7,0.5,0.5
2024-03-03T2100,2619A,98.8546,25.8417,怒江傈僳族自治州,泸水一中,,21,6,29,3,21,65,,86,85,13,16,6,6,0.5,0.5
2024-03-03T2100,1888A,101.6891,26.571,攀枝花市,弄弄坪,,48,48,41,26,21,75,,82,81,26,23,29,26,1.7,1.5
2024-03-03T2100,1889A,101.5769,26.5928,攀枝花市,河门口,,34,34,45,16,21,91,,92,92,8,21,6,27,0.3,0.7
2024-03-03T2100,1890A,101.7169,26.585,攀枝花市,炳草岗,,28,27,39,15,17,88,,92,92,12,25,16,15,0.9,0.8
2024-03-03T2100,1891A,101.7369,26.5008,攀枝花市,仁和,,45,45,26,18,16,59,,98,91,28,11,6,7,0.7,0.5
2024-03-03T2100,2835A,101.7227,26.567,攀枝花市,四十中小,,31,29,31,18,17,98,,100,100,9,17,4,8,0.4,0.6
2024-03-03T2100,1604A,122.0303,41.1489,盘锦市,开发区,细颗粒物(PM2.5),124,,59,94,38,30,,93,77,64,43,12,15,1.1,0.7
2024-03-03T2100,1605A,122.0485,41.0883,盘锦市,兴隆台,细颗粒物(PM2.5),100,94,56,75,37,40,,89,76,57,44,12,13,1.0,0.7
2024-03-03T2100,1606A,121.8297,41.1028,盘锦市,新生街道,,48,,50,33,30,13,,86,66,74,40,13,16,0.6,0.6
2024-03-03T2100,1832A,113.3257,33.742,平顶山市,新华旅馆,,,105,83,50,51,,,101,101,34,11,7,8,0.7,0.7
2024-03-03T2100,1833A,113.2919,33.737,平顶山市,规划设计院,,,76,71,50,53,,,96,94,27,21,5,5,0.7,0.6
2024-03-03T2100,1834A,113.182,33.774,平顶山市,平顶山工学院,细颗粒物(PM2.5),70,82,72,51,49,76,,101,95,24,8,6,5,0.6,0.5
2024-03-03T2100,3204A,113.3025,33.73,平顶山市,规划局,细颗粒物(PM2.5),74,78,77,54,55,89,,98,97,21,15,7,7,0.3,0.3
2024-03-03T2100,3594A,112.8867,33.9116,平顶山市,石龙区,细颗粒物(PM2.5),80,101,84,59,59,72,,104,96,32,25,9,8,0.7,0.6
2024-03-03T2100,2656A,106.6692,35.5461,平凉市,聚贤嘉苑,颗粒物(PM10),58,65,61,29,29,76,,85,85,20,31,6,8,0.6,0.7
2024-03-03T2100,2657A,106.7021,35.5307,平凉市,博物馆,颗粒物(PM10),51,52,69,32,41,85,,88,88,27,43,6,8,0.6,0.9
2024-03-03T2100,2347A,114.0997,27.5002,萍乡市,武功山,,32,31,23,22,12,36,,44,41,9,6,8,7,0.4,0.4
2024-03-03T2100,2348A,113.8385,27.6434,萍乡市,中医院,,29,29,54,16,33,41,,38,38,13,25,5,9,0.5,0.8
2024-03-03T2100,2349A,113.8493,27.6253,萍乡市,市政府车库,,45,42,44,31,37,41,,43,43,18,24,3,5,0.7,1.1
2024-03-03T2100,2350A,113.8676,27.6435,萍乡市,市环保局,,33,31,50,23,36,40,,41,41,15,26,4,7,0.6,0.9
2024-03-03T2100,2351A,113.866,27.6198,萍乡市,安源区政府,,39,39,43,20,30,40,,42,42,18,23,6,7,1.0,1
2024-03-03T2100,2319A,119.0141,25.4325,莆田市,荔城区仓后路,细颗粒物(PM2.5),60,68,45,43,28,72,,102,97,24,21,6,6,1.0,0.6
2024-03-03T2100,2320A,119.0015,25.4553,莆田市,莆田市监测站,,40,40,28,16,24,73,,103,98,16,17,6,6,0.8,0.7
2024-03-03T2100,2321A,119.1119,25.4561,莆田市,涵江区六中,,43,43,39,17,23,92,,104,100,13,19,6,6,0.8,0.7
2024-03-03T2100,2322A,119.1013,25.3215,莆田市,秀屿区政府,,36,36,35,22,24,79,,85,84,18,21,6,7,0.9,0.7
2024-03-03T2100,2323A,118.981,25.4792,莆田市,东圳水库,,,,,,,,,,,,,,,,
2024-03-03T2100,2392A,115.0312,35.7636,濮阳市,环保局,细颗粒物(PM2.5),105,100,83,79,61,72,,110,107,36,23,7,7,0.8,0.7
2024-03-03T2100,2394A,115.0574,35.7609,濮阳市,油田运输公司,细颗粒物(PM2.5),98,120,102,73,62,89,,120,117,22,21,10,10,0.5,0.5
2024-03-03T2100,2395A,115.0866,35.7754,濮阳市,油田物探公司,细颗粒物(PM2.5),112,122,105,84,65,77,,112,108,31,26,8,8,0.6,0.5
2024-03-03T2100,3021A,115,35.7668,濮阳市,濮水河管理处,细颗粒物(PM2.5),94,108,91,70,58,69,,107,102,34,23,8,8,0.5,0.5
2024-03-03T2100,2601A,100.98,22.7633,普洱市,市环保局,细颗粒物(PM2.5),65,72,56,47,42,109,,131,127,16,12,6,7,0.7,0.6
2024-03-03T2100,2602A,100.9817,22.8322,普洱市,普洱第二中学,颗粒物(PM10),58,66,54,39,36,66,,136,126,38,26,6,6,1.0,0.9
2024-03-03T2100,2262A,131.0518,45.8751,七台河市,新一中,,37,37,30,22,17,95,,99,96,10,9,11,11,0.7,0.6
2024-03-03T2100,3345A,131.0577,45.7879,七台河市,中波台,,39,39,34,21,21,80,,93,83,26,23,9,9,0.9,0.9
2024-03-03T2100,3637A,131.0176,45.7761,七台河市,人民广场,,48,48,41,22,26,72,,89,78,30,22,8,9,0.7,0.7
2024-03-03T2100,3684A,130.8781,45.8222,七台河市,新建矿广场,,46,,31,32,26,94,,97,88,15,20,6,5,0.6,0.6
2024-03-03T2100,1779A,123.9305,47.3636,齐齐哈尔市,安居小区,,,45,31,16,14,,,83,78,34,13,9,9,0.8,0.5
2024-03-03T2100,1780A,123.9488,47.3386,齐齐哈尔市,中心广场,,41,41,29,13,11,55,,77,72,22,11,5,6,0.8,0.4
2024-03-03T2100,1781A,123.9483,47.3227,齐齐哈尔市,农牧车辆厂,,27,27,26,8,10,67,,80,75,8,8,8,8,0.4,0.3
2024-03-03T2100,1783A,123.945,47.2988,齐齐哈尔市,市环境监测站,,42,42,32,24,11,60,,84,75,17,9,3,4,0.4,0.4
2024-03-03T2100,3662A,123.6333,47.2075,齐齐哈尔市,富区青少年活动中心,颗粒物(PM10),80,109,40,40,11,52,,81,74,29,15,31,12,0.6,0.5
2024-03-03T2100,2591A,107.9783,26.5747,黔东南苗族侗族自治州,市环境监测站,,35,27,43,24,36,68,,72,71,20,32,5,8,0.8,0.9
2024-03-03T2100,2881A,107.8908,26.5311,黔东南苗族侗族自治州,凯里学院,,35,32,37,24,27,66,,79,78,15,16,4,5,0.8,0.7
2024-03-03T2100,2593A,107.5228,26.2403,黔南布依族苗族自治州,小围寨,,35,,30,24,26,52,,66,58,10,11,3,5,0.5,0.4
2024-03-03T2100,3538A,107.5175,26.2978,黔南布依族苗族自治州,沙坝,,42,34,35,29,27,54,,72,63,8,13,4,6,0.7,0.7
2024-03-03T2100,2589A,104.9022,25.0925,黔西南布依族苗族自治州,场坝街,细颗粒物(PM2.5),77,66,26,56,22,71,,76,76,11,8,2,2,0.5,0.5
2024-03-03T2100,2590A,104.8811,25.0992,黔西南布依族苗族自治州,坪东大道,细颗粒物(PM2.5),78,65,28,57,23,70,,74,74,13,8,2,2,0.6,0.5
2024-03-03T2100,2502A,108.6236,21.9667,钦州市,市环保站,,42,39,73,29,48,11,,33,17,54,34,7,9,1.2,0.9
2024-03-03T2100,2503A,108.6549,21.9481,钦州市,沙埠小学,细颗粒物(PM2.5),59,,65,42,56,22,,28,24,43,31,5,6,0.8,0.6
2024-03-03T2100,2504A,108.5989,21.7431,钦州市,港区一小,细颗粒物(PM2.5),54,47,90,38,55,26,,30,16,37,33,6,7,0.9,0.9
2024-03-03T2100,3404A,108.5959,21.9633,钦州市,北职校,细颗粒物(PM2.5),54,,64,38,59,4,,24,15,69,38,9,9,1.2,1
2024-03-03T2100,1042A,119.5134,39.8207,秦皇岛市,北戴河环保局,,29,29,44,20,16,88,,89,89,16,26,8,9,0.2,0.2
2024-03-03T2100,1043A,119.7493,40.0116,秦皇岛市,第一关,,45,43,50,31,20,15,,87,68,83,48,10,11,0.4,0.4
2024-03-03T2100,1044A,119.5897,39.9499,秦皇岛市,监测站,颗粒物(PM10),53,56,46,32,21,61,,84,80,30,30,8,9,0.4,0.4
2024-03-03T2100,1046A,119.5251,39.9041,秦皇岛市,建设大厦,,50,,47,35,28,74,,87,85,20,38,3,4,0.6,0.4
2024-03-03T2100,3132A,119.610547,39.943889,秦皇岛市,文明里,颗粒物(PM10),51,52,52,30,22,69,,85,83,32,32,8,7,0.5,0.4
2024-03-03T2100,1307A,120.6659,36.2403,青岛市,仰口,细颗粒物(PM2.5),70,85,97,51,56,121,,120,120,15,19,6,5,0.4,0.4
2024-03-03T2100,1310A,120.4134,36.0658,青岛市,市南区东部子站,细颗粒物(PM2.5),89,117,124,66,71,90,,76,76,40,51,6,10,1.0,1.1
2024-03-03T2100,1311A,120.3664,36.1032,青岛市,四方区子站,细颗粒物(PM2.5),107,110,115,80,79,94,,94,94,42,51,5,7,0.9,1
2024-03-03T2100,1312A,120.2994,36.054,青岛市,市南区西部子站,细颗粒物(PM2.5),102,107,124,76,71,86,,77,77,35,49,7,10,0.9,1
2024-03-03T2100,1313A,120.4581,36.0858,青岛市,崂山区子站,细颗粒物(PM2.5),107,124,127,80,74,72,,73,73,41,43,7,9,0.9,1
2024-03-03T2100,1314A,120.1983,35.9608,青岛市,黄岛区子站,细颗粒物(PM2.5),85,88,112,63,74,112,,102,102,30,40,6,9,0.9,1.1
2024-03-03T2100,1315A,120.3999,36.3083,青岛市,城阳区子站,颗粒物(PM10),89,127,121,61,51,89,,105,101,40,47,10,10,1.1,1
2024-03-03T2100,1966A,120.0405,35.8735,青岛市,黄岛区4号,细颗粒物(PM2.5),83,92,111,61,72,107,,93,93,39,57,6,11,1.0,1.3
2024-03-03T2100,3362A,120.5014,36.4034,青岛市,即墨2号,细颗粒物(PM2.5),127,158,136,96,74,81,,106,104,47,42,12,11,1.3,1
2024-03-03T2100,3642A,120.3503,36.0736,青岛市,市北区南部,细颗粒物(PM2.5),98,123,124,73,73,108,,95,95,26,37,5,7,0.9,1.3
2024-03-03T2100,3643A,120.3948,36.1805,青岛市,李沧区北部,细颗粒物(PM2.5),119,119,118,90,76,95,,99,95,50,51,9,10,1.0,1.1
2024-03-03T2100,1702A,113.0426,23.691,清远市,环保大楼,,50,43,37,35,28,6,,43,33,38,23,2,5,1.2,1
2024-03-03T2100,1703A,113.0208,23.7106,清远市,凤城街办,细颗粒物(PM2.5),68,76,49,49,33,2,,44,30,49,30,4,7,0.9,0.7
