timepoint,stationcode,longitude,latitude,area,positionname,primarypollutant,aqi,pm10,pm10_24h,pm2_5,pm2_5_24h,o3,o3_24h,o3_8h,o3_8h_24h,no2,no2_24h,so2,so2_24h,co,co_24h
2026-03-20T1200,2568A,102.2503,31.8896,阿坝藏族羌族自治州,马师校,,27,15,26,8,7,84,84,64,58,7,7,5,5,0.3,0.3
2026-03-20T1200,3994A,102.2174,31.9016,阿坝藏族羌族自治州,马尔康中学西区,,25,14,20,8,7,80,80,67,61,7,7,2,2,0.3,0.3
2026-03-20T1200,2695A,80.2899,41.1684,阿克苏地区,电视台,颗粒物(PM10),129,193,221,87,108,62,62,44,44,20,25,4,3,0.8,0.8
2026-03-20T1200,2696A,80.2592,41.1541,阿克苏地区,艺术中心,颗粒物(PM10),127,190,216,70,87,55,55,31,31,28,36,4,4,0.7,0.7
2026-03-20T1200,2205A,105.699,38.8409,阿拉善盟,蒙二幼,颗粒物(PM10),307,425,145,91,34,92,92,86,86,4,6,7,8,0.5,0.5
2026-03-20T1200,2206A,105.7198,38.8508,阿拉善盟,环保局新楼,颗粒物(PM10),213,359,134,89,32,89,89,88,87,4,5,8,8,0.6,0.6
2026-03-20T1200,2708A,88.1266,47.8515,阿勒泰地区,市站,,31,31,22,3,4,50,50,96,79,20,12,8,6,0.3,0.2
2026-03-20T1200,4166A,88.1198,47.7931,阿勒泰地区,阿勒泰路33号,,17,17,22,3,4,51,51,94,75,8,10,5,6,0.2,0.3
2026-03-20T1200,2630A,80.1171,32.4999,阿里地区,阿里监测站,,33,6,9,3,2,103,103,84,84,2,2,8,9,0.3,0.3
2026-03-20T1200,3192A,80.0906,32.5029,阿里地区,阿里藏医院,,35,7,5,3,3,109,109,96,96,2,2,11,11,0.3,0.3
2026-03-20T1200,2644A,109.0088,32.6974,安康市,汉滨区检察院,颗粒物(PM10),58,61,76,31,33,66,66,24,24,14,23,6,5,0.6,0.6
2026-03-20T1200,4054A,109.0324,32.6913,安康市,市邮政管理局,颗粒物(PM10),57,59,85,28,38,70,70,27,27,9,22,7,12,0.6,0.7
2026-03-20T1200,2291A,117.0806,30.5181,安庆市,环科院,细颗粒物(PM2.5),124,116,84,86,69,60,60,40,38,20,19,10,8,1.0,0.9
2026-03-20T1200,2292A,117.0331,30.5118,安庆市,马山宾馆,细颗粒物(PM2.5),118,105,79,79,70,68,68,43,43,24,24,8,6,1.2,1
2026-03-20T1200,2294A,116.9897,30.6146,安庆市,安庆大学,细颗粒物(PM2.5),105,89,80,65,55,65,65,48,48,12,13,6,4,0.8,0.7
2026-03-20T1200,3173A,117.0598,30.5351,安庆市,市人大,细颗粒物(PM2.5),114,111,90,75,63,NA,NA,38,36,NA,25,8,7,1.0,0.8
2026-03-20T1200,3123A,105.9408,26.2431,安顺市,凤凰山,,20,NA,18,11,16,62,62,48,48,11,10,14,13,0.6,0.7
2026-03-20T1200,3124A,105.9443,26.2567,安顺市,金钟山,NA,NA,NA,17,11,15,NA,NA,40,40,9,9,11,13,0.7,0.8
2026-03-20T1200,3125A,105.8983,26.248,安顺市,娄家坡,,19,12,21,6,17,58,58,47,47,11,10,13,13,0.7,0.8
2026-03-20T1200,1819A,114.3552,36.1017,安阳市,红庙街,细颗粒物(PM2.5),135,135,107,98,65,79,79,24,24,24,29,12,5,1.1,0.6
2026-03-20T1200,1820A,114.361,36.0681,安阳市,银杏小区,细颗粒物(PM2.5),140,134,112,103,71,82,82,26,26,25,29,11,4,0.9,0.4
2026-03-20T1200,3141A,114.3921,36.0879,安阳市,信访局,细颗粒物(PM2.5),140,139,110,104,71,77,77,26,26,24,29,9,4,0.7,0.3
2026-03-20T1200,3669A,114.4706,36.0634,安阳市,左辅环卫站,细颗粒物(PM2.5),128,161,129,90,65,68,68,26,26,14,20,6,4,0.8,0.5
2026-03-20T1200,4117A,114.2918,36.0769,安阳市,钢三路198号,细颗粒物(PM2.5),129,182,144,91,69,78,78,28,28,31,28,16,7,1.3,0.7
2026-03-20T1200,1748A,123.0441,41.1201,鞍山市,深沟寺,细颗粒物(PM2.5),72,63,61,46,36,91,91,67,67,16,25,9,11,0.6,0.9
2026-03-20T1200,1749A,123.011,41.0931,鞍山市,太阳城,细颗粒物(PM2.5),64,57,59,42,36,91,91,75,75,14,23,8,10,0.6,0.9
2026-03-20T1200,1750A,123.0483,41.1445,鞍山市,太平,细颗粒物(PM2.5),74,73,67,47,37,95,95,70,70,16,27,10,16,0.7,1.2
2026-03-20T1200,1751A,122.964,41.0968,鞍山市,铁西三道街,细颗粒物(PM2.5),84,73,68,52,39,91,91,68,68,23,33,17,18,1.0,1.3
2026-03-20T1200,1753A,123.0219,41.0822,鞍山市,明达新区,细颗粒物(PM2.5),64,56,58,42,35,90,90,72,72,14,22,9,12,0.6,0.9
2026-03-20T1200,4201A,122.944647,41.082639,鞍山市,兴盛南路290号,细颗粒物(PM2.5),80,86,73,50,39,81,81,60,60,30,36,25,15,2.0,1.5
2026-03-20T1200,2195A,107.4206,40.7609,巴彦淖尔市,附二中,颗粒物(PM10),101,122,76,34,26,80,80,66,66,10,16,13,9,0.4,0.4
2026-03-20T1200,2196A,107.37,40.7372,巴彦淖尔市,市环保大楼,颗粒物(PM10),98,116,77,39,26,88,88,59,59,10,14,12,7,0.6,0.5
2026-03-20T1200,1956A,86.1476,41.7529,巴音郭楞蒙古自治州,孔雀公园,颗粒物(PM10),128,191,214,66,71,41,41,10,10,56,41,12,10,1.0,0.7
2026-03-20T1200,1957A,86.1971,41.7166,巴音郭楞蒙古自治州,棉纺厂,NA,NA,NA,264,NA,76,NA,NA,26,26,14,26,/,/,/,/
2026-03-20T1200,1958A,86.236,41.7172,巴音郭楞蒙古自治州,经济开发区,颗粒物(PM10),124,180,205,77,89,45,45,30,30,36,23,8,16,0.4,0.4
2026-03-20T1200,3181A,106.776805,31.852614,巴中市,市五中,,23,23,34,14,18,37,37,12,12,10,14,8,7,0.7,0.7
2026-03-20T1200,3183A,106.7419,31.8654,巴中市,圣泉水务公司,,29,27,30,20,17,40,40,11,11,9,17,9,9,0.8,0.7
2026-03-20T1200,3616A,106.7617,31.8343,巴中市,市中心医院,,20,19,31,14,18,42,42,14,14,5,16,10,10,0.7,0.7
2026-03-20T1200,2235A,122.7909,45.608,白城市,洮北区环保局,细颗粒物(PM2.5),153,154,160,117,113,123,123,82,82,20,22,6,6,0.7,0.7
2026-03-20T1200,2236A,122.8741,45.5725,白城市,市环保局,细颗粒物(PM2.5),149,151,133,113,94,98,98,47,47,13,17,8,6,0.6,0.6
2026-03-20T1200,2231A,126.4219,41.9172,白山市,喜丰,,31,31,59,3,14,96,96,86,86,3,7,7,7,0.5,0.6
2026-03-20T1200,2232A,126.4082,41.9416,白山市,环保局,,29,10,39,6,18,91,91,86,86,6,6,7,9,0.5,0.6
2026-03-20T1200,2647A,104.1727,36.5448,白银市,第三小学,颗粒物(PM10),102,123,137,41,41,87,87,42,42,12,21,9,6,0.3,0.6
2026-03-20T1200,2648A,104.1467,36.5482,白银市,动力公司,颗粒物(PM10),102,125,151,29,36,NA,NA,32,32,NA,21,9,4,NA,0.5
2026-03-20T1200,2512A,106.6102,23.901,百色市,市监测站,,36,34,54,25,37,31,31,40,29,10,14,10,17,0.7,0.7
2026-03-20T1200,2513A,106.6524,23.8842,百色市,市中心血站,NA,NA,NA,55,17,36,37,37,52,44,13,16,NA,16,0.9,0.7
2026-03-20T1200,4133A,106.6273,23.8798,百色市,龙景西路,,47,47,63,20,38,40,40,43,32,10,14,11,19,0.6,0.6
2026-03-20T1200,2270A,117.396,32.9389,蚌埠市,工人疗养院,NA,NA,NA,127,NA,103,113,113,73,70,NA,24,NA,4,0.9,1
2026-03-20T1200,2271A,117.3606,32.9428,蚌埠市,百货大楼,细颗粒物(PM2.5),124,116,122,86,91,115,115,83,83,16,21,5,5,0.6,0.7
2026-03-20T1200,2273A,117.4183,32.8909,蚌埠市,蚌埠学院,细颗粒物(PM2.5),132,NA,102,95,94,122,122,69,69,11,17,4,4,0.6,0.7
2026-03-20T1200,2274A,117.3534,32.9672,蚌埠市,淮上区政府,细颗粒物(PM2.5),140,110,118,103,103,115,115,79,77,18,22,6,5,0.6,0.8
2026-03-20T1200,2275A,117.3143,32.8977,蚌埠市,高新区,细颗粒物(PM2.5),132,100,107,95,93,114,114,69,69,16,24,7,6,0.7,0.8
2026-03-20T1200,3715A,117.3091,32.9314,蚌埠市,蚌埠田家炳中学,细颗粒物(PM2.5),133,120,126,96,103,115,115,78,78,NA,22,22,11,0.6,0.7
2026-03-20T1200,1585A,109.8761,40.6533,包头市,市环境监测站,细颗粒物(PM2.5),105,99,65,65,38,109,109,44,44,29,36,16,16,0.7,0.8
2026-03-20T1200,1587A,109.9992,40.5843,包头市,包头八中,细颗粒物(PM2.5),128,135,73,90,47,102,102,38,38,33,48,21,15,0.7,0.9
2026-03-20T1200,1589A,109.8641,40.6288,包头市,惠龙物流,细颗粒物(PM2.5),102,84,56,62,40,105,105,44,44,27,36,17,15,0.7,0.7
2026-03-20T1200,1590A,110.0376,40.5546,包头市,东河鸿龙湾,细颗粒物(PM2.5),123,115,64,85,55,109,109,29,29,38,54,21,12,NA,0.9
2026-03-20T1200,3283A,109.9154,40.5684,包头市,滨河大厦,细颗粒物(PM2.5),110,99,62,70,43,108,108,36,36,34,48,18,12,1.2,0.8
2026-03-20T1200,3419A,109.9449,40.6259,包头市,包头市委党校,细颗粒物(PM2.5),113,98,59,74,37,98,98,33,33,34,48,21,18,0.7,0.9
2026-03-20T1200,3683A,109.8332,40.6577,包头市,昆区政府,细颗粒物(PM2.5),115,88,56,76,41,106,106,51,49,34,36,14,17,0.8,0.9
2026-03-20T1200,1931A,107.0802,34.3129,宝鸡市,竹园沟,NA,NA,88,95,21,24,73,73,27,27,14,20,6,6,NA,0.2
2026-03-20T1200,1933A,107.1429,34.3549,宝鸡市,监测站,颗粒物(PM10),82,94,108,31,39,56,56,20,20,14,24,10,8,0.3,0.3
2026-03-20T1200,1934A,107.1172,34.3759,宝鸡市,技工学校,颗粒物(PM10),104,129,118,28,39,63,63,26,26,13,21,4,4,0.4,0.5
2026-03-20T1200,1936A,107.2025,34.3518,宝鸡市,文理学院,NA,NA,92,120,30,42,NA,NA,23,23,16,26,NA,5,0.5,0.6
2026-03-20T1200,1937A,107.2396,34.3626,宝鸡市,三迪小学,颗粒物(PM10),80,91,128,46,45,51,51,20,20,21,32,4,5,0.5,0.6
2026-03-20T1200,4155A,107.1721,34.3558,宝鸡市,滨河北路,颗粒物(PM10),84,97,135,31,43,60,60,26,26,16,27,6,6,0.5,0.6
2026-03-20T1200,4308A,107.3898,34.3601,宝鸡市,陈仓区北开路21号,颗粒物(PM10),101,122,134,45,49,65,65,30,30,14,30,23,38,0.5,0.8
2026-03-20T1200,1051A,115.4803,38.8568,保定市,游泳馆,细颗粒物(PM2.5),105,111,85,65,53,73,73,45,45,36,29,12,12,0.6,0.6
2026-03-20T1200,1052A,115.509,38.8895,保定市,华电二区,细颗粒物(PM2.5),107,87,74,67,47,67,67,38,38,33,24,7,5,0.6,0.6
2026-03-20T1200,1053A,115.4588,38.9037,保定市,接待中心,细颗粒物(PM2.5),106,110,82,66,48,68,68,40,40,38,29,7,6,0.3,0.3
2026-03-20T1200,1054A,115.4484,38.8344,保定市,地表水厂,颗粒物(PM10),103,126,95,61,45,72,72,43,43,39,33,9,8,0.5,0.5
2026-03-20T1200,3581A,115.3136,38.9511,保定市,满城区生态环境分局,颗粒物(PM10),103,127,103,52,43,78,78,42,42,31,31,8,7,0.5,0.5
2026-03-20T1200,3582A,115.4709,38.7628,保定市,清苑区第二中学,颗粒物(PM10),112,150,113,67,51,71,71,30,30,33,29,9,9,0.5,0.4
2026-03-20T1200,3583A,115.6231,39.0223,保定市,徐水物探局,细颗粒物(PM2.5),126,158,108,88,51,78,78,32,32,35,33,6,5,0.5,0.5
2026-03-20T1200,4004A,115.4199,38.8665,保定市,双鹰农机,"颗粒物(PM10),细颗粒物(PM2.5)",103,127,105,63,52,73,73,46,46,46,38,8,7,0.5,0.5
2026-03-20T1200,4034A,115.515,38.8589,保定市,植保所站,细颗粒物(PM2.5),112,NA,94,73,49,69,69,32,32,38,32,5,5,0.4,0.4
2026-03-20T1200,2594A,99.1589,25.1137,保山市,市环境监测站,,39,39,31,21,22,98,98,54,54,10,8,5,5,0.3,0.2
2026-03-20T1200,2595A,99.1616,25.1381,保山市,市环保局,,42,42,39,27,25,99,99,69,63,10,5,5,5,0.4,0.3
2026-03-20T1200,1867A,109.1435,21.4085,北海市,海滩公园,,21,18,22,8,10,65,65,55,55,6,8,7,7,0.4,0.5
2026-03-20T1200,1868A,109.0983,21.466,北海市,新市环保局,,20,18,21,8,8,61,61,53,53,6,8,8,8,0.5,0.5
2026-03-20T1200,1869A,109.1775,21.5232,北海市,北海工业园,,35,35,27,9,9,58,58,48,48,5,6,6,6,0.4,0.4
2026-03-20T1200,3400A,109.1844,21.4396,北海市,龙潭自来水厂,,22,22,19,10,6,63,63,53,53,4,5,4,4,0.6,0.6
2026-03-20T1200,1001A,116.3611,39.8786,北京市,万寿西宫,颗粒物(PM10),67,73,73,42,39,78,78,55,55,17,30,7,5,0.7,0.5
2026-03-20T1200,1003A,116.4174,39.9289,北京市,东四,颗粒物(PM10),65,70,68,36,36,79,79,55,55,16,29,11,8,0.5,0.4
2026-03-20T1200,1004A,116.4073,39.8858,北京市,天坛,颗粒物(PM10),66,72,69,33,36,72,72,42,42,13,23,8,4,0.6,0.5
2026-03-20T1200,1005A,116.4622,39.9364,北京市,农展馆,颗粒物(PM10),61,65,69,34,35,79,79,44,44,12,29,8,6,0.5,0.4
2026-03-20T1200,1006A,116.3399,39.9293,北京市,官园,颗粒物(PM10),70,77,71,43,42,68,68,44,44,19,32,6,4,0.5,0.4
2026-03-20T1200,1007A,116.2879,39.9613,北京市,海淀万柳,颗粒物(PM10),72,80,77,41,36,61,61,26,26,16,43,8,5,0.5,0.4
2026-03-20T1200,1008A,116.6635,40.1349,北京市,顺义新城,颗粒物(PM10),68,75,61,29,28,80,80,65,65,10,23,7,5,0.5,0.4
2026-03-20T1200,1009A,116.6275,40.327,北京市,怀柔镇,颗粒物(PM10),63,68,53,31,26,76,76,52,52,13,20,7,5,0.5,0.5
2026-03-20T1200,1010A,116.2295,40.217,北京市,昌平镇,颗粒物(PM10),74,83,47,40,24,74,74,43,43,18,27,7,4,0.7,0.5
2026-03-20T1200,1011A,116.3968,39.982,北京市,奥体中心,颗粒物(PM10),65,70,67,37,35,68,68,35,35,15,38,8,6,0.7,0.6
2026-03-20T1200,3418A,116.8336,40.4095,北京市,密云新城,颗粒物(PM10),65,70,57,32,25,80,80,55,55,11,20,6,3,0.6,0.5
2026-03-20T1200,3671A,116.0879,39.9725,北京市,门头沟三家店,细颗粒物(PM2.5),103,111,68,63,32,71,71,46,46,26,30,10,5,0.8,0.5
2026-03-20T1200,3672A,116.1507,39.8246,北京市,丰台云岗,细颗粒物(PM2.5),104,120,83,64,38,75,75,48,48,19,32,7,4,0.7,0.5
2026-03-20T1200,3674A,115.9578,39.7602,北京市,房山燕山,细颗粒物(PM2.5),104,122,69,64,35,68,68,49,49,30,22,7,5,0.7,0.5
2026-03-20T1200,3675A,116.4669,39.7734,北京市,大兴旧宫,颗粒物(PM10),60,64,79,32,38,75,75,39,39,11,32,7,6,0.4,0.5
2026-03-20T1200,3694A,115.9859,40.4562,北京市,延庆石河营,颗粒物(PM10),58,60,46,35,26,82,82,33,33,18,35,5,3,0.5,0.5
2026-03-20T1200,3695A,116.6151,40.3052,北京市,怀柔新城,颗粒物(PM10),59,62,49,28,28,75,75,54,54,11,14,6,4,0.4,0.3
2026-03-20T1200,3696A,116.2542,39.8764,北京市,丰台小屯,颗粒物(PM10),73,82,82,46,39,69,69,33,33,23,48,10,6,0.5,0.4
2026-03-20T1200,3697A,116.8399,40.3843,北京市,密云镇,颗粒物(PM10),58,60,54,35,26,80,80,46,46,14,34,6,3,0.4,0.4
2026-03-20T1200,4057A,115.9423,40.4431,北京市,延庆百泉,"颗粒物(PM10),细颗粒物(PM2.5)",54,55,41,37,24,73,73,25,25,19,33,4,3,0.5,0.4
2026-03-20T1200,4058A,116.6598,39.9164,北京市,通州新华,颗粒物(PM10),60,63,78,28,34,71,71,38,38,14,38,6,6,0.4,0.4
2026-03-20T1200,4182A,116.1942,39.9158,北京市,石景山八角,颗粒物(PM10),83,95,80,45,31,70,70,35,35,14,32,6,3,0.7,0.5
2026-03-20T1200,4194A,117.078628,40.151726,北京市,平谷新城,颗粒物(PM10),59,62,65,32,33,75,75,54,54,15,24,5,3,0.5,0.5
2026-03-20T1200,1761A,123.8274146,41.31234549,本溪市,大峪,NA,NA,49,42,34,21,94,94,74,74,NA,13,NA,10,0.5,0.6
2026-03-20T1200,1763A,123.7169,41.3094,本溪市,彩屯,,42,42,44,28,21,101,101,79,79,10,14,8,10,0.5,0.5
2026-03-20T1200,1764A,123.7672166,41.28649327,本溪市,东明,,45,44,48,31,22,96,96,78,78,9,15,8,11,0.5,0.6
2026-03-20T1200,1765A,123.799345,41.266614,本溪市,新立屯,,48,48,40,24,18,96,96,78,78,8,17,7,9,0.4,0.6
2026-03-20T1200,1766A,123.829144,41.336777,本溪市,威宁,,47,47,54,28,23,100,100,75,75,6,22,6,8,0.4,0.5
2026-03-20T1200,2587A,105.287,27.3133,毕节市,八中,,19,NA,10,7,8,60,60,56,56,8,8,10,9,0.6,0.6
2026-03-20T1200,2588A,105.3079,27.2987,毕节市,师专,,18,9,11,3,7,55,55,50,50,9,8,8,8,0.6,0.6
2026-03-20T1200,4263A,105.3688,27.3598,毕节市,工业大道,,21,7,7,3,6,66,66,63,63,7,7,9,10,/,/
2026-03-20T1200,1629A,117.9961,37.3604,滨州市,第二水厂,细颗粒物(PM2.5),120,124,85,81,55,111,111,62,62,21,28,18,13,0.7,0.5
2026-03-20T1200,1630A,117.9789,37.3931,滨州市,北中新校,细颗粒物(PM2.5),118,117,83,79,52,106,106,60,60,22,30,NA,12,0.3,0.4
2026-03-20T1200,3514A,117.9379,37.3959,滨州市,中海酒店,细颗粒物(PM2.5),115,117,84,76,56,110,110,69,69,24,30,20,12,0.7,0.7
2026-03-20T1200,3515A,117.9381509,37.35547456,滨州市,开发区一中,细颗粒物(PM2.5),110,122,91,71,57,110,110,65,65,13,23,19,17,0.8,0.7
2026-03-20T1200,3516A,118.0914,37.6938,滨州市,金海六路,细颗粒物(PM2.5),130,134,86,92,62,107,107,46,46,19,37,20,13,0.8,0.7
2026-03-20T1200,4028A,117.9955,37.3752,滨州市,滨州市西街道办事处,细颗粒物(PM2.5),116,127,90,77,54,114,114,62,62,19,24,19,12,0.7,0.6
2026-03-20T1200,2311A,115.8071,33.8399,亳州市,污水处理厂,细颗粒物(PM2.5),114,102,101,75,65,120,120,86,86,13,18,5,6,0.3,0.3
2026-03-20T1200,2312A,115.7789,33.8519,亳州市,三国揽胜宫,细颗粒物(PM2.5),116,122,110,77,66,109,109,84,84,10,16,5,6,0.3,0.3
2026-03-20T1200,3332A,115.7631,33.803,亳州市,亳州学院,细颗粒物(PM2.5),114,103,101,75,70,114,114,81,81,7,12,5,7,0.3,0.3
2026-03-20T1200,2693A,82.0482,44.8553,博尔塔拉蒙古自治州,市党校,颗粒物(PM10),70,78,79,27,22,65,65,62,56,8,7,3,4,0.4,0.4
2026-03-20T1200,2694A,82.0805,44.8966,博尔塔拉蒙古自治州,市环保局,颗粒物(PM10),54,55,69,28,32,48,48,36,35,30,22,4,3,0.5,0.5
2026-03-20T1200,1071A,116.8733,38.2922,沧州市,沧县城建局,细颗粒物(PM2.5),119,124,90,80,55,90,90,41,41,19,32,6,5,0.6,0.6
2026-03-20T1200,1072A,116.8462,38.3189,沧州市,电视转播站,细颗粒物(PM2.5),125,132,85,87,60,87,87,49,41,NA,26,6,3,0.4,0.4
2026-03-20T1200,1073A,116.8588,38.3161,沧州市,市环保局,细颗粒物(PM2.5),126,125,97,88,56,86,86,47,42,18,25,10,8,0.4,0.4
2026-03-20T1200,3324A,116.8011,38.294,沧州市,河北水利电力学院,细颗粒物(PM2.5),124,149,99,86,60,83,83,40,40,15,32,11,9,0.4,0.4
2026-03-20T1200,2622A,97.1813,31.1289,昌都市,昌都监测站,,23,14,9,3,3,71,71,60,56,8,4,5,7,0.6,0.5
2026-03-20T1200,3719A,97.1707,31.1428,昌都市,昌都会议中心,NA,NA,23,10,NA,6,NA,NA,60,54,5,4,NA,8,0.3,0.3
2026-03-20T1200,2692A,87.2722,44.0298,昌吉回族自治州,新区政务中心,NA,NA,50,55,25,42,101,101,52,52,15,28,9,8,NA,0.8
2026-03-20T1200,3613A,87.3069,44.0093,昌吉回族自治州,亚心广场,颗粒物(PM10),63,68,73,34,42,107,107,51,51,14,24,9,12,0.5,0.8
2026-03-20T1200,4164A,87.2057,43.9289,昌吉回族自治州,财政所,颗粒物(PM10),55,56,75,21,35,93,93,54,54,5,16,8,9,0.4,0.8
2026-03-20T1200,1120A,125.2874,43.9024,长春市,客车厂,细颗粒物(PM2.5),141,NA,86,105,46,112,112,71,71,19,17,10,8,0.6,0.4
2026-03-20T1200,1121A,125.2943,43.8508,长春市,邮电学院,细颗粒物(PM2.5),114,NA,76,75,37,104,104,72,72,14,14,9,9,0.5,0.4
2026-03-20T1200,1122A,125.3648,43.8745,长春市,劳动公园,细颗粒物(PM2.5),100,NA,74,60,36,96,96,77,77,16,13,10,8,0.6,0.5
2026-03-20T1200,1123A,125.3233,43.8781,长春市,园林处,细颗粒物(PM2.5),119,NA,75,80,38,104,104,76,76,16,15,9,8,0.5,0.4
2026-03-20T1200,1124A,125.4604,43.7904,长春市,净月潭,,38,31,66,26,32,80,80,78,78,14,12,7,6,0.3,0.3
2026-03-20T1200,1126A,125.38,43.8422,长春市,经开区环卫处,NA,NA,49,76,49,35,NA,NA,77,NA,17,14,6,6,0.4,0.4
2026-03-20T1200,1127A,125.234,43.7761,长春市,高新区管委会,细颗粒物(PM2.5),72,58,75,46,34,93,93,71,71,14,13,8,7,0.5,0.5
2026-03-20T1200,1128A,125.1695,43.83,长春市,岱山公园,细颗粒物(PM2.5),84,85,92,52,42,95,95,70,70,9,17,6,5,0.4,0.2
2026-03-20T1200,4281A,125.334645,43.916281,长春市,北亚泰大街1068号,细颗粒物(PM2.5),133,NA,85,96,45,98,98,70,70,23,19,12,8,0.6,0.4
2026-03-20T1200,1335A,113.082,28.2421,长沙市,经开区环保局,,26,26,29,15,21,35,35,30,29,23,24,2,3,0.6,0.6
2026-03-20T1200,1336A,112.8873,28.2202,长沙市,高开区环保局,,21,21,35,3,22,42,42,37,35,18,25,4,9,0.9,0.9
2026-03-20T1200,1337A,113.0785,28.2012,长沙市,马坡岭,,28,27,29,19,25,35,35,28,28,24,26,4,5,0.9,0.9
2026-03-20T1200,1338A,112.9448,28.1894,长沙市,湖南师范大学,,24,24,34,13,29,43,43,37,37,20,27,4,4,1.1,1.1
2026-03-20T1200,1339A,113.0177,28.1322,长沙市,雨花区环保局,,27,27,29,17,22,42,42,35,35,17,23,3,3,1.0,0.9
2026-03-20T1200,1340A,112.9795,28.2593,长沙市,伍家岭,,29,26,38,20,32,34,34,28,28,24,26,3,3,1.2,0.9
2026-03-20T1200,1341A,113.002,28.1944,长沙市,火车新站,NA,NA,30,32,20,27,44,44,32,32,NA,29,NA,3,0.8,0.8
2026-03-20T1200,1342A,112.9846,28.1177,长沙市,天心区环保局,,30,26,32,21,28,47,47,41,41,22,26,5,5,0.9,0.8
2026-03-20T1200,1343A,112.8906,28.1307,长沙市,湖南中医药大学,,21,21,34,12,28,46,46,34,34,16,24,5,5,0.8,0.8
2026-03-20T1200,1727A,113.1146,36.1547,长治市,清华站,颗粒物(PM10),75,84,77,47,35,78,78,46,46,26,23,18,10,1.0,0.7
2026-03-20T1200,1730A,113.0887,36.2126,长治市,审计局,细颗粒物(PM2.5),101,88,74,61,38,79,79,50,50,31,21,31,12,1.6,0.8
2026-03-20T1200,1731A,113.0845,36.1856,长治市,长治八中,颗粒物(PM10),90,106,97,52,41,78,78,48,48,22,19,24,13,1.2,0.8
2026-03-20T1200,2845A,113.1561,36.1912,长治市,德盛苑,细颗粒物(PM2.5),90,92,74,55,37,84,84,64,64,25,16,19,12,1.1,0.7
2026-03-20T1200,3568A,113.0603,36.0464,长治市,向阳小学,颗粒物(PM10),91,107,108,35,36,92,92,59,59,33,25,20,14,1.1,0.8
2026-03-20T1200,3569A,112.8788,36.315,长治市,屯留一中,颗粒物(PM10),55,56,72,32,27,101,101,53,53,29,23,22,9,0.8,0.7
2026-03-20T1200,4189A,113.113092,36.199482,长治市,英华南巷50号,NA,NA,98,82,49,39,NA,NA,50,50,25,23,NA,12,1.0,0.7
2026-03-20T1200,4190A,113.23666,36.33435,长治市,学府街1号,颗粒物(PM10),66,72,78,30,31,104,104,54,54,15,22,12,7,0.6,0.8
2026-03-20T1200,1854A,111.696,28.9725,常德市,市二中,细颗粒物(PM2.5),103,79,84,63,54,58,58,44,44,12,12,6,7,1.1,1
2026-03-20T1200,3138A,111.7152,29.0288,常德市,武陵区永安,细颗粒物(PM2.5),108,75,73,68,60,62,62,47,47,14,14,4,5,1.0,0.9
2026-03-20T1200,3139A,111.6891,28.9881,常德市,鼎城区玉霞,细颗粒物(PM2.5),108,84,76,68,54,54,54,44,44,19,15,7,8,1.0,1
2026-03-20T1200,3140A,111.6651,29.0526,常德市,武陵区长庚,细颗粒物(PM2.5),108,NA,66,68,64,64,64,42,41,14,11,6,8,1.0,1.1
2026-03-20T1200,1196A,119.9524,31.7586,常州市,市监测站,细颗粒物(PM2.5),123,130,96,85,66,101,101,35,35,30,49,10,9,0.8,0.9
2026-03-20T1200,1200A,119.9351,31.703,常州市,武进监测站,细颗粒物(PM2.5),125,118,98,87,72,96,96,37,37,27,46,10,8,0.7,0.7
2026-03-20T1200,3002A,119.9701,31.813,常州市,行政中心,细颗粒物(PM2.5),138,127,103,101,68,91,91,37,37,30,46,5,6,0.5,0.6
2026-03-20T1200,3003A,120.0434,31.7726,常州市,经开区,细颗粒物(PM2.5),125,129,97,87,63,108,108,38,38,25,49,9,10,0.8,0.9
2026-03-20T1200,3010A,119.8919,31.7892,常州市,钟楼,细颗粒物(PM2.5),129,121,90,91,65,103,103,38,38,37,50,8,7,0.5,0.6
2026-03-20T1200,3429A,119.8595,31.706,常州市,武进经发区,细颗粒物(PM2.5),128,119,106,90,81,108,108,37,37,25,59,8,8,0.8,1
2026-03-20T1200,3430A,119.5812,31.7256,常州市,金坛城区,细颗粒物(PM2.5),128,113,118,90,91,117,117,43,43,15,41,9,8,0.6,0.8
2026-03-20T1200,4089A,119.9551,31.863,常州市,崇义南街5-H号,细颗粒物(PM2.5),121,106,89,83,61,106,106,37,37,23,45,6,5,0.6,0.6
2026-03-20T1200,2220A,120.4318,41.588,朝阳市,西梁,,40,40,40,23,22,97,97,46,46,9,17,9,9,0.5,0.5
2026-03-20T1200,2221A,120.452,41.565,朝阳市,河畔小区,,38,38,35,24,17,97,97,48,48,10,18,10,9,0.3,0.4
2026-03-20T1200,2222A,120.4176,41.5648,朝阳市,八里堡,,30,22,37,10,18,95,95,42,42,8,20,7,7,0.3,0.4
2026-03-20T1200,3026A,116.6179,23.6608,潮州市,市政府,颗粒物(PM10),52,52,36,32,23,81,81,74,69,15,13,4,4,0.6,0.5
2026-03-20T1200,4036A,116.646,23.676,潮州市,金山,,43,43,33,28,20,88,88,81,74,16,13,4,4,0.5,0.6
2026-03-20T1200,2473A,113.0116,25.8228,郴州市,市职中,,33,26,34,23,26,19,19,23,21,16,13,2,3,0.8,0.7
2026-03-20T1200,2475A,113.0381,25.8074,郴州市,市审计局,,35,26,34,24,27,12,12,17,14,13,10,9,13,/,/
2026-03-20T1200,2476A,113.0348,25.7757,郴州市,市环保局,,32,29,45,22,31,14,14,19,16,24,20,13,14,1.2,0.6
2026-03-20T1200,4252A,113.0138,25.8011,郴州市,好美居路49号,,38,26,34,26,30,19,19,24,21,17,15,6,12,/,/
2026-03-20T1200,1431A,103.9727,30.7242,成都市,金泉两河,颗粒物(PM10),55,56,67,28,39,78,78,27,27,16,29,1,2,0.3,0.4
2026-03-20T1200,1432A,104.1423,30.6765,成都市,十里店,颗粒物(PM10),55,57,60,34,38,77,77,37,37,19,24,6,5,0.4,0.5
2026-03-20T1200,1433A,104.0594,30.5765,成都市,三瓦窑,,46,46,59,32,38,70,70,30,30,22,29,4,3,0.6,0.6
2026-03-20T1200,1434A,104.1122,30.6306,成都市,沙河铺,NA,NA,56,58,30,35,NA,NA,19,12,28,34,NA,4,0.4,0.3
2026-03-20T1200,2880A,104.0219,30.6561,成都市,大石西路,NA,NA,47,64,33,40,NA,NA,24,19,20,31,4,3,NA,0.6
2026-03-20T1200,3136A,104.2724,30.559,成都市,龙泉驿区区政府,NA,NA,58,54,30,29,NA,NA,44,43,14,18,8,7,NA,0.5
2026-03-20T1200,3357A,104.0028,30.6891,成都市,金博路,,39,29,52,27,36,80,80,32,32,24,35,6,6,0.5,0.5
2026-03-20T1200,3359A,104.056,30.5228,成都市,华阳,颗粒物(PM10),67,73,62,42,36,69,69,40,40,28,27,7,5,0.5,0.5
2026-03-20T1200,3488A,104.387954,30.746684,成都市,青石路225号,细颗粒物(PM2.5),62,52,60,41,36,80,80,34,34,19,32,8,5,0.5,0.5
2026-03-20T1200,3489A,104.0788,30.4054,成都市,科学城,细颗粒物(PM2.5),64,61,58,42,33,69,69,42,42,20,19,23,9,0.8,0.7
2026-03-20T1200,4011A,103.8505,30.6946,成都市,光华大道三段,,50,50,63,20,39,90,90,31,31,17,30,3,4,0.4,0.5
2026-03-20T1200,4144A,104.3257,30.6406,成都市,八角井街185号,细颗粒物(PM2.5),54,46,62,37,35,70,70,32,32,19,20,5,4,0.6,0.7
2026-03-20T1200,4224A,104.2433276,30.53529463,成都市,鲸龙路1057号,颗粒物(PM10),58,60,61,33,32,89,89,48,48,12,17,7,7,0.3,0.4
2026-03-20T1200,1062A,117.9531,40.908,承德市,铁路,,26,14,37,3,15,82,82,38,38,8,18,5,4,0.4,0.4
2026-03-20T1200,1063A,117.9397,40.9763,承德市,中国银行,,25,22,35,6,12,78,78,38,38,8,19,6,3,0.4,0.4
2026-03-20T1200,4073A,117.9462,40.95,承德市,杏林街1号,,31,31,36,16,20,86,86,42,42,8,16,6,5,0.4,0.4
2026-03-20T1200,4274A,117.7994,40.9605,承德市,滨河大街98号,,27,8,32,3,16,84,84,44,44,7,15,7,8,0.4,0.4
2026-03-20T1200,2314A,117.4698,30.6617,池州市,池州学院,细颗粒物(PM2.5),80,73,66,50,49,44,44,37,35,42,27,14,5,0.9,0.9
2026-03-20T1200,3237A,117.4918,30.6617,池州市,展览馆,细颗粒物(PM2.5),109,80,77,69,66,55,55,34,34,31,24,14,3,1.0,1.1
2026-03-20T1200,3333A,117.5626,30.695,池州市,第八中学,细颗粒物(PM2.5),60,58,66,40,47,62,62,32,32,24,26,4,3,0.9,1
2026-03-20T1200,3334A,117.5037,30.6242,池州市,第十二中学,细颗粒物(PM2.5),74,50,52,47,44,57,57,27,27,27,32,4,2,0.8,1
2026-03-20T1200,1744A,118.9229,42.2816,赤峰市,松山一中,,50,50,35,13,17,80,80,37,37,15,23,5,6,0.4,0.5
2026-03-20T1200,1745A,118.9588,42.2733,赤峰市,哈达街,NA,NA,NA,39,NA,20,73,73,35,35,12,17,9,11,0.4,0.5
2026-03-20T1200,1746A,118.8792,42.2551,赤峰市,天义路,,27,25,34,7,16,85,85,41,41,9,18,5,7,0.4,0.5
2026-03-20T1200,3058A,119.2656,42.0356,赤峰市,银河街,颗粒物(PM10),88,103,53,36,18,92,92,44,44,12,15,17,15,0.6,0.5
2026-03-20T1200,3286A,118.9359,42.3146,赤峰市,桥北物流园区,,41,41,25,7,15,81,81,40,40,16,18,3,4,0.5,0.5
2026-03-20T1200,2521A,107.3473,22.4137,崇左市,市环保局江州分局,NA,NA,72,48,44,27,54,54,47,39,NA,11,7,6,NA,0.8
2026-03-20T1200,4256A,107.375,22.3736,崇左市,石景林东路7号,颗粒物(PM10),70,77,42,29,26,68,68,46,46,11,12,4,3,0.5,0.6
2026-03-20T1200,3207A,118.31131,32.3033,滁州市,市政府原办公楼,细颗粒物(PM2.5),137,NA,104,100,105,112,112,46,46,19,32,7,4,0.6,0.7
2026-03-20T1200,3331A,118.3268,32.2633,滁州市,图书馆,细颗粒物(PM2.5),115,107,112,76,84,113,113,54,54,16,27,9,8,0.6,0.7
2026-03-20T1200,4101A,118.3196,32.3335,滁州市,银山路666号,细颗粒物(PM2.5),122,95,91,84,81,109,109,32,32,20,33,11,9,0.9,1
2026-03-20T1200,4102A,118.3426,32.2979,滁州市,黄山路555号,细颗粒物(PM2.5),126,119,128,88,94,118,118,42,42,27,35,9,6,1.0,1
2026-03-20T1200,2606A,101.5379,25.0492,楚雄彝族自治州,市经济开发区,NA,NA,20,39,12,24,93,93,82,65,NA,12,NA,4,0.4,0.5
2026-03-20T1200,4153A,101.5536,25.0343,楚雄彝族自治州,团结路562号,,32,30,36,7,21,101,101,91,71,3,12,1,5,0.2,0.3
2026-03-20T1200,2549A,107.5087,31.2186,达州市,市环境监测站,,48,34,32,33,16,35,35,9,9,23,24,6,7,0.5,0.3
2026-03-20T1200,2550A,107.4988,31.2132,达州市,凤凰小区,NA,NA,39,30,32,16,32,32,10,10,NA,23,4,7,0.5,0.4
2026-03-20T1200,2551A,107.5081,31.1987,达州市,达县机关宾馆,,41,41,31,21,18,42,42,11,11,22,28,4,6,0.7,0.5
2026-03-20T1200,2552A,107.4644,31.2124,达州市,市政中心,细颗粒物(PM2.5),60,52,37,40,15,34,34,13,13,23,25,4,5,0.6,0.5
2026-03-20T1200,2614A,100.2168,25.5818,大理白族自治州,大理市环境监测站,,28,26,33,16,24,88,88,86,82,9,10,7,7,0.6,0.6
2026-03-20T1200,2615A,100.1542,25.7055,大理白族自治州,大理古城,,30,24,32,14,23,95,95,86,83,5,8,11,11,0.6,0.6
2026-03-20T1200,1109A,121.6119,38.974,大连市,甘井子,,50,49,54,35,33,92,92,71,71,19,20,9,9,0.5,0.6
2026-03-20T1200,1110A,121.565,38.9509,大连市,周水子,NA,NA,44,45,34,36,86,86,65,65,17,17,NA,9,0.5,0.5
2026-03-20T1200,1111A,121.5637,38.8849,大连市,星海三站,,45,44,43,31,30,75,75,57,57,16,17,7,7,0.6,0.7
2026-03-20T1200,1112A,121.6301,38.9117,大连市,青泥洼桥,细颗粒物(PM2.5),62,58,53,41,34,96,96,72,72,17,18,6,7,0.4,0.4
2026-03-20T1200,1113A,121.6248,38.8643,大连市,傅家庄,细颗粒物(PM2.5),54,51,44,37,27,94,94,74,74,22,21,8,7,0.6,0.6
2026-03-20T1200,1114A,121.5117,38.8636,大连市,七贤岭,,48,42,33,33,29,88,88,73,73,17,16,7,8,0.5,0.5
2026-03-20T1200,1116A,121.7507,39.1339,大连市,金州,细颗粒物(PM2.5),74,60,54,47,37,100,100,77,77,14,19,6,8,0.5,0.5
2026-03-20T1200,1117A,121.7811,39.0495,大连市,开发区,细颗粒物(PM2.5),66,46,40,43,26,98,98,86,86,19,20,9,9,0.4,0.4
2026-03-20T1200,1118A,121.9762,39.0631,大连市,双D港,细颗粒物(PM2.5),56,55,54,38,32,96,96,80,80,16,20,6,7,0.6,0.5
2026-03-20T1200,4082A,121.2548,38.8188,大连市,旅顺,细颗粒物(PM2.5),60,50,44,40,34,95,95,68,68,12,17,5,7,0.5,0.5
2026-03-20T1200,1789A,124.8085,46.0381,大庆市,大同区,细颗粒物(PM2.5),74,62,64,47,42,85,85,59,59,10,10,9,10,0.4,0.3
2026-03-20T1200,1790A,125.1166,46.5255,大庆市,龙凤区,NA,NA,88,52,57,28,NA,NA,55,54,NA,16,5,4,0.6,0.4
2026-03-20T1200,1791A,124.8894,46.4007,大庆市,红岗区,细颗粒物(PM2.5),84,62,46,52,34,85,85,56,56,8,11,7,6,0.5,0.4
2026-03-20T1200,1792A,125.1391,46.578,大庆市,萨尔图区,细颗粒物(PM2.5),88,92,46,54,28,81,81,60,60,13,15,5,5,0.7,0.5
2026-03-20T1200,1793A,124.9026,46.6217,大庆市,让胡路区,细颗粒物(PM2.5),101,69,48,61,33,80,80,61,60,9,10,5,5,0.7,0.5
2026-03-20T1200,3481A,125.127,46.6277,大庆市,萨区政府监测点,细颗粒物(PM2.5),96,71,49,58,26,81,81,58,58,10,14,9,8,0.4,0.3
2026-03-20T1200,1723A,113.2926,40.0759,大同市,云冈宾馆,细颗粒物(PM2.5),106,126,58,66,32,84,84,42,42,48,31,26,14,1.1,1.2
2026-03-20T1200,1724A,113.3437,40.0921,大同市,大同大学,细颗粒物(PM2.5),101,94,58,61,29,100,100,52,52,36,31,19,13,0.9,0.9
2026-03-20T1200,1725A,113.2637,40.129,大同市,安家小村,细颗粒物(PM2.5),96,104,78,58,31,89,89,33,33,36,32,29,20,0.9,1.7
2026-03-20T1200,3282A,113.3399,40.0586,大同市,大同市卫生学校,细颗粒物(PM2.5),110,122,60,70,30,83,83,40,36,198,37,17,12,0.9,0.8
2026-03-20T1200,3565A,113.1371,40.1122,大同市,云冈站,颗粒物(PM10),100,120,64,46,21,76,76,25,25,42,36,23,16,0.8,0.6
2026-03-20T1200,3566A,113.1186,40.2556,大同市,图书馆,颗粒物(PM10),69,76,53,30,31,90,90,44,44,24,15,22,9,0.7,0.8
2026-03-20T1200,3567A,113.5931,40.0459,大同市,区一中,细颗粒物(PM2.5),122,132,76,84,46,121,121,60,60,30,22,31,17,1.1,0.8
2026-03-20T1200,4199A,113.2798248,40.09972476,大同市,魏都大道141号,颗粒物(PM10),107,138,72,66,36,89,89,34,34,41,33,26,16,1.0,1.2
2026-03-20T1200,2269A,124.1068,50.4091,大兴安岭地区,科技局,,26,18,22,10,10,82,82,73,72,1,3,6,6,0.3,0.3
2026-03-20T1200,3663A,124.117,50.4279,大兴安岭地区,红旗社区,,27,14,10,11,11,86,86,72,71,4,6,10,9,0.4,0.3
2026-03-20T1200,1600A,124.33,40.0625,丹东市,江湾东路,,31,30,62,12,37,97,97,74,74,10,25,7,8,0.6,0.9
2026-03-20T1200,1601A,124.4242,40.1513,丹东市,临江后街,,28,23,68,9,43,89,89,67,67,8,22,6,9,0.3,0.6
2026-03-20T1200,1602A,124.3935,40.1461,丹东市,元宝山,,27,26,82,10,39,84,84,63,63,9,20,5,8,0.3,0.6
2026-03-20T1200,1603A,124.3634,40.1093,丹东市,民主桥,,30,22,71,10,39,93,93,72,72,13,31,5,7,0.3,0.6
2026-03-20T1200,3541A,109.5726195,19.51688767,儋州市,第一中学子站,,31,31,33,15,17,71,71,44,44,4,7,6,7,0.4,0.4
2026-03-20T1200,3542A,109.5567,19.5187,儋州市,东坡学校子站,,33,33,29,17,20,77,77,44,44,3,8,5,7,0.3,0.5
2026-03-20T1200,2616A,98.5611,24.4273,德宏傣族景颇族自治州,德宏州监测站,细颗粒物(PM2.5),56,NA,31,38,30,40,40,27,27,8,9,5,5,0.7,0.6
2026-03-20T1200,3677A,98.5887,24.4366,德宏傣族景颇族自治州,芒市人民政府综合楼,NA,NA,51,53,41,31,37,37,23,21,13,10,2,3,NA,0.4
2026-03-20T1200,1901A,104.424,31.1209,德阳市,东山公园,颗粒物(PM10),64,69,60,37,39,70,70,29,29,23,28,5,5,0.5,0.6
2026-03-20T1200,1902A,104.3827,31.1318,德阳市,西小区,颗粒物(PM10),74,83,76,35,40,65,65,21,21,26,37,8,7,0.7,0.7
2026-03-20T1200,1904A,104.3553,31.1091,德阳市,耐火材料厂,细颗粒物(PM2.5),72,73,75,46,44,67,67,20,20,28,38,4,3,0.5,0.5
2026-03-20T1200,4145A,104.4144,31.1495,德阳市,市林业局,颗粒物(PM10),67,73,65,42,41,62,62,19,19,28,37,8,7,0.6,0.6
2026-03-20T1200,1622A,116.3034,37.4675,德州市,儿童乐园,细颗粒物(PM2.5),113,132,106,74,57,103,103,59,59,17,23,14,13,0.7,0.6
2026-03-20T1200,1624A,116.2992,37.4449,德州市,监理站,细颗粒物(PM2.5),116,134,107,77,54,108,108,64,64,18,26,9,8,0.7,0.6
2026-03-20T1200,3066A,116.2722,37.438,德州市,九衢泉纯净水厂,细颗粒物(PM2.5),115,119,101,76,57,103,103,50,50,22,37,5,6,0.6,0.5
2026-03-20T1200,3371A,116.3693,37.44,德州市,开发区人民医院,细颗粒物(PM2.5),115,134,107,76,61,100,100,50,50,15,27,11,10,0.6,0.6
2026-03-20T1200,3511A,116.5687,37.3331,德州市,陵城艺术中心,细颗粒物(PM2.5),114,122,95,75,59,91,91,48,48,15,21,12,9,0.7,0.7
2026-03-20T1200,4292A,116.352738,37.420875,德州市,新河东路,细颗粒物(PM2.5),114,122,102,75,56,99,99,44,44,13,30,13,10,0.6,0.6
2026-03-20T1200,2621A,99.7054,27.8319,迪庆藏族自治州,迪庆州站,,30,19,20,6,13,95,95,81,75,6,8,9,8,0.4,0.6
2026-03-20T1200,3180A,99.7122,27.8129,迪庆藏族自治州,质量技术监督局,,30,19,21,6,11,95,95,86,74,5,10,6,6,0.7,0.7
2026-03-20T1200,4257A,104.6092,35.5962,定西市,将台街,颗粒物(PM10),104,130,142,42,46,102,102,39,39,7,21,10,10,0.3,0.6
2026-03-20T1200,4309A,104.6159,35.5701,定西市,正龙路62号,颗粒物(PM10),106,135,148,35,40,96,96,48,48,9,13,5,6,0.4,0.5
2026-03-20T1200,4071A,114.9883,38.5232,定州市,交通局,颗粒物(PM10),97,115,99,58,51,78,78,37,37,36,32,14,14,0.6,0.6
2026-03-20T1200,4072A,115.0045,38.5136,定州市,第五中学,颗粒物(PM10),103,126,113,58,49,72,72,33,33,36,31,10,10,0.5,0.5
2026-03-20T1200,1390A,113.7943,23.0132,东莞市,东城石井,,34,32,37,16,18,108,108,71,71,16,33,3,4,0.6,0.6
2026-03-20T1200,1391A,113.7384,22.9659,东莞市,南城西平,,31,30,34,14,16,97,97,65,65,17,30,5,6,0.6,0.5
2026-03-20T1200,3319A,113.7283,23.041,东莞市,万江金泰,,35,35,40,20,24,100,100,70,70,19,26,5,6,0.6,0.6
2026-03-20T1200,4129A,113.8666,23.1062,东莞市,裕兴路,,38,37,55,17,24,120,120,68,68,16,28,6,7,0.7,0.7
2026-03-20T1200,4130A,114.0076,22.9739,东莞市,教育路1号,,34,28,47,13,21,108,108,63,63,13,27,5,5,0.6,0.5
2026-03-20T1200,4131A,113.7981,22.8124,东莞市,长怡路1号,,30,28,35,12,14,96,96,69,69,12,30,4,5,0.6,0.6
2026-03-20T1200,1666A,118.6612,37.4313,东营市,市环保局,细颗粒物(PM2.5),111,107,79,72,54,102,102,58,58,16,32,14,15,0.5,0.6
2026-03-20T1200,3036A,118.6903,37.4337,东营市,开发区管委会,细颗粒物(PM2.5),114,107,76,75,52,106,106,66,66,20,38,13,14,0.5,0.6
2026-03-20T1200,3365A,118.5721,37.5654,东营市,垦利区民丰路,细颗粒物(PM2.5),88,68,80,54,52,102,102,58,58,15,33,13,15,0.7,0.8
2026-03-20T1200,3498A,118.5063,37.8606,东营市,河口城区,,41,41,71,10,43,102,102,68,68,6,23,8,12,0.4,0.5
2026-03-20T1200,3646A,118.4979,37.4623,东营市,胜利站,细颗粒物(PM2.5),119,120,80,80,51,106,106,52,52,12,34,14,13,0.8,0.8
2026-03-20T1200,3734A,118.5753,37.4405,东营市,理想之城,细颗粒物(PM2.5),112,114,82,73,53,116,116,64,64,25,34,11,10,0.8,0.8
2026-03-20T1200,1591A,110.0024,39.8127,鄂尔多斯市,综合楼,颗粒物(PM10),86,100,39,34,20,92,92,72,72,18,23,10,9,0.4,0.4
2026-03-20T1200,1592A,109.9485,39.8259,鄂尔多斯市,巴音孟克林场办事处,颗粒物(PM10),88,102,40,23,15,98,98,81,81,13,22,10,9,0.4,0.5
2026-03-20T1200,1593A,109.7734,39.5987,鄂尔多斯市,康泽苑,颗粒物(PM10),95,112,38,24,16,109,109,64,64,10,15,9,7,0.4,0.4
2026-03-20T1200,1594A,109.8121,39.5987,鄂尔多斯市,华泰汽车城,颗粒物(PM10),95,112,38,18,15,113,113,48,48,10,20,8,6,0.3,0.4
2026-03-20T1200,1595A,109.9734,39.7884,鄂尔多斯市,奥林花园,颗粒物(PM10),88,102,44,24,18,98,98,56,56,16,35,10,8,0.4,0.4
2026-03-20T1200,2436A,114.894,30.3989,鄂州市,市政府,细颗粒物(PM2.5),78,74,64,49,44,46,46,51,43,37,26,8,8,0.4,0.5
2026-03-20T1200,2437A,114.8986,30.3714,鄂州市,赵家坝,细颗粒物(PM2.5),76,81,64,48,46,47,47,56,44,36,22,2,4,0.8,0.9
2026-03-20T1200,3654A,114.8093,30.4091,鄂州市,精准医疗中心,细颗粒物(PM2.5),88,84,74,54,48,43,43,50,39,46,32,5,11,0.8,0.9
2026-03-20T1200,2454A,109.4978,30.2979,恩施土家族苗族自治州,湖北民院,,22,22,34,15,20,14,14,7,7,15,15,6,6,0.7,0.6
2026-03-20T1200,3549A,109.5061,30.3771,恩施土家族苗族自治州,龙凤新区,,20,20,25,13,15,8,8,4,4,11,7,8,7,0.5,0.4
2026-03-20T1200,2499A,108.3411,21.6159,防城港市,沙万,颗粒物(PM10),53,54,48,12,17,39,39,39,34,14,22,6,7,0.4,0.5
2026-03-20T1200,2500A,108.3515,21.7733,防城港市,防城档案局,,30,30,40,10,21,33,33,20,17,13,12,7,8,0.6,0.6
2026-03-20T1200,2501A,108.3506,21.6414,防城港市,大海花园,NA,NA,NA,36,11,20,NA,NA,55,48,14,25,7,9,0.6,0.4
2026-03-20T1200,1371A,113.1293,23.0065,佛山市,湾梁,,36,36,40,22,24,74,74,43,43,17,24,/,/,/,/
2026-03-20T1200,1372A,113.1082,23.0477,佛山市,华材职中,,36,36,41,24,23,78,78,48,48,18,24,7,7,0.4,0.3
2026-03-20T1200,1373A,113.1439,23.045,佛山市,南海气象局,NA,NA,NA,50,NA,27,73,73,44,44,NA,31,/,/,/,/
2026-03-20T1200,1374A,113.2879,22.8094,佛山市,顺德苏岗,,27,27,43,13,18,77,77,51,51,16,24,/,/,0.4,0.4
2026-03-20T1200,1376A,112.8384,22.8678,佛山市,高明孔堂,,26,25,33,13,17,81,81,39,39,11,17,/,/,/,/
2026-03-20T1200,1377A,112.8835,23.1584,佛山市,三水监测站,NA,NA,31,46,26,27,68,68,22,22,18,37,NA,6,0.5,0.5
2026-03-20T1200,1378A,112.8668,23.185,佛山市,三水云东海,,43,43,61,23,24,70,70,24,24,22,32,/,/,/,/
2026-03-20T1200,3625A,113.2568,22.7629,佛山市,容桂街道办,,25,24,35,14,21,77,77,55,55,16,27,/,/,/,/
2026-03-20T1200,1282A,119.2681,26.0506,福州市,师大,,48,48,28,28,16,100,100,86,86,22,18,4,3,0.4,0.4
2026-03-20T1200,1283A,119.2983,26.1028,福州市,五四北路,,50,50,40,25,14,92,92,89,85,19,16,4,4,0.5,0.5
2026-03-20T1200,1284A,119.2648,26.0769,福州市,杨桥西路,,49,49,24,29,14,93,93,88,88,20,16,4,4,/,/
2026-03-20T1200,3048A,119.5799,26.0937,福州市,九龙,细颗粒物(PM2.5),56,44,25,38,13,128,128,94,94,11,13,4,4,0.4,0.4
2026-03-20T1200,3526A,119.5188,25.9666,福州市,吴航,NA,NA,47,28,31,16,124,124,102,102,NA,12,5,5,NA,0.5
2026-03-20T1200,4104A,119.3106,26.0648,福州市,路通桥巷6号,,46,42,24,32,21,93,93,79,79,17,14,/,/,/,/
2026-03-20T1200,1755A,123.7974,41.8494,抚顺市,望花区,细颗粒物(PM2.5),58,52,52,39,27,103,103,81,81,8,13,7,9,0.5,0.5
2026-03-20T1200,1756A,123.9161,41.8827,抚顺市,顺城区,,50,48,41,35,20,99,99,76,76,10,16,8,9,0.5,0.5
2026-03-20T1200,1757A,124.0437,41.8615,抚顺市,东洲区,细颗粒物(PM2.5),96,101,53,58,23,106,106,80,80,10,13,7,7,0.6,0.5
2026-03-20T1200,1758A,123.9246,41.8638,抚顺市,新抚区,细颗粒物(PM2.5),78,65,52,49,22,100,100,80,80,14,15,7,8,0.6,0.5
2026-03-20T1200,1759A,124.0972,41.8961,抚顺市,大伙房水库,细颗粒物(PM2.5),102,87,53,62,22,110,110,82,82,9,13,10,11,0.5,0.4
2026-03-20T1200,1760A,123.708,41.8386,抚顺市,沈抚新城,细颗粒物(PM2.5),60,60,55,40,22,99,99,73,73,10,20,6,8,0.5,0.5
2026-03-20T1200,2377A,116.3544,27.9833,抚州市,市站,,48,36,23,33,18,50,50,56,50,15,8,11,8,1.0,0.9
2026-03-20T1200,2378A,116.3562,27.9631,抚州市,血防站,,42,35,27,29,15,47,47,54,47,11,6,8,7,0.8,0.8
2026-03-20T1200,2379A,116.3561,28.0007,抚州市,采茶剧团,,43,40,27,30,17,52,52,53,48,12,9,16,14,0.8,0.7
2026-03-20T1200,2380A,116.3854,27.9648,抚州市,医学分院,颗粒物(PM10),51,51,33,26,16,54,54,59,54,14,10,10,11,1.2,1.1
2026-03-20T1200,2207A,121.6095,41.9978,阜新市,工业园区,,41,41,38,20,11,89,89,72,72,10,13,11,8,0.4,0.4
2026-03-20T1200,2208A,121.6567,42.0188,阜新市,长青街,,28,24,22,19,10,89,89,75,75,11,9,12,8,0.4,0.3
2026-03-20T1200,2209A,121.6672,42.07,阜新市,农业园区,,32,32,30,19,10,90,90,76,76,12,11,7,5,0.5,0.4
2026-03-20T1200,2211A,121.6343,42.0455,阜新市,玉龙新城,,29,23,33,20,11,90,90,69,69,9,16,8,6,0.5,0.4
2026-03-20T1200,2301A,115.8276,32.8929,阜阳市,市监测站,细颗粒物(PM2.5),111,113,110,72,73,106,106,64,57,15,20,6,5,0.6,0.6
2026-03-20T1200,2303A,115.8551,32.8606,阜阳市,开发区,NA,NA,NA,116,NA,75,NA,NA,105,NA,NA,17,NA,5,NA,0.6
2026-03-20T1200,2875A,115.783962,32.889217,阜阳市,阜阳职业技术学院,NA,NA,93,90,NA,60,108,108,94,91,16,15,8,6,1.0,0.8
2026-03-20T1200,3468A,115.79,32.8614,阜阳市,市规划展馆,细颗粒物(PM2.5),113,114,105,74,71,102,102,87,81,12,14,8,6,0.6,0.6
2026-03-20T1200,3469A,115.835101,32.918568,阜阳市,枣园社区,细颗粒物(PM2.5),119,104,105,80,74,97,97,70,61,18,20,6,4,0.6,0.5
2026-03-20T1200,2669A,102.9097,34.9841,甘南藏族自治州,州政府,,37,37,55,15,32,77,77,69,61,4,6,5,4,0.4,0.4
2026-03-20T1200,3380A,102.8915,34.9618,甘南藏族自治州,甘肃民族师范学院,,46,46,67,22,29,87,87,76,70,12,13,8,3,0.5,0.4
2026-03-20T1200,2570A,101.96,30.048,甘孜藏族自治州,水桥子,NA,NA,20,13,3,4,48,48,50,43,13,10,NA,4,0.7,0.7
2026-03-20T1200,3065A,101.9534,29.9976,甘孜藏族自治州,州环保局,,18,6,8,3,4,55,55,61,56,16,17,6,6,0.6,0.5
2026-03-20T1200,2363A,114.9368,25.8663,赣州市,地委,,27,27,20,14,14,31,31,34,28,16,13,4,4,1.2,1.2
2026-03-20T1200,2364A,114.946,25.8483,赣州市,气象台,,28,24,28,19,16,44,44,46,42,20,18,4,4,0.7,0.7
2026-03-20T1200,2365A,114.932,25.8332,赣州市,市图书馆,,26,24,21,18,14,43,43,47,43,22,14,3,4,0.8,0.8
2026-03-20T1200,2366A,114.8905,25.8472,赣州市,华坚鞋城,,26,26,23,12,15,40,40,40,37,17,14,4,5,0.5,0.5
2026-03-20T1200,3109A,115.0094,25.8614,赣州市,赣县区卫计委,NA,NA,26,20,16,12,32,32,41,32,NA,13,4,3,0.9,1
2026-03-20T1200,2684A,106.2753,36.0057,固原市,监测站,颗粒物(PM10),107,137,147,36,41,86,86,40,40,14,25,10,11,0.3,0.7
2026-03-20T1200,2685A,106.2384,36.0189,固原市,新区,颗粒物(PM10),106,134,136,33,38,98,98,36,36,10,30,8,8,0.4,0.6
2026-03-20T1200,2544A,106.6307,30.4577,广安市,市委,,43,35,28,30,19,42,42,28,21,12,14,6,6,0.6,0.6
2026-03-20T1200,2545A,106.6266,30.4662,广安市,友谊中学,,29,27,26,20,15,46,46,35,28,11,12,8,7,0.8,0.7
2026-03-20T1200,2547A,106.6386,30.4551,广安市,广电花园,NA,NA,30,31,26,18,43,43,24,18,16,16,NA,8,0.7,0.7
2026-03-20T1200,2902A,106.6347,30.4868,广安市,北辰小学,,40,38,27,28,18,36,36,29,23,16,11,5,4,0.8,0.7
2026-03-20T1200,2524A,105.8211,32.4444,广元市,老城,颗粒物(PM10),69,76,55,31,20,66,66,29,29,25,37,21,10,2.0,0.8
2026-03-20T1200,2526A,105.8629,32.429,广元市,监测站,颗粒物(PM10),58,61,52,25,19,67,67,33,33,23,26,14,4,0.7,0.5
2026-03-20T1200,3617A,105.8047,32.4167,广元市,经开区,颗粒物(PM10),54,55,56,21,26,66,66,23,23,19,38,14,8,0.6,0.6
2026-03-20T1200,1345A,113.2346,23.1423,广州市,广雅中学,,30,30,40,16,20,76,76,41,41,14,28,2,3,0.6,0.6
2026-03-20T1200,1346A,113.2611,23.105,广州市,市五中,,34,34,42,17,22,95,95,47,47,15,29,6,7,/,/
2026-03-20T1200,1348A,113.3477,23.0916,广州市,广东商学院,,30,30,36,20,20,75,75,33,33,15,27,5,5,0.7,0.7
2026-03-20T1200,1349A,113.4332,23.105,广州市,市八十六中,,30,30,30,12,15,79,79,34,34,16,42,4,6,/,/
2026-03-20T1200,1350A,113.3506,22.9488,广州市,番禺中学,,35,35,48,14,18,83,83,42,42,9,22,3,3,0.7,0.6
2026-03-20T1200,1351A,113.2147,23.3918,广州市,花都师范,,49,49,49,23,24,61,61,26,26,31,34,6,6,0.7,0.6
2026-03-20T1200,1352A,113.2599,23.1329,广州市,市监测站,,30,30,40,15,20,80,80,40,40,12,27,1,1,/,/
2026-03-20T1200,1353A,113.5618,23.3119,广州市,九龙镇镇龙,颗粒物(PM10),51,51,48,25,25,89,89,35,35,20,36,6,6,0.3,0.3
2026-03-20T1200,1354A,113.2764,23.1544,广州市,麓湖,,33,33,46,16,25,84,84,NA,NA,13,20,3,4,0.6,0.6
2026-03-20T1200,2846A,113.3209,23.1323,广州市,体育西,,32,32,38,14,17,80,80,38,38,16,31,5,6,0.7,0.6
2026-03-20T1200,3298A,113.5718,23.5493,广州市,从化街口,,45,45,60,28,40,89,89,25,25,13,35,6,7,0.6,0.7
2026-03-20T1200,3299A,113.3463,23.369,广州市,白云竹料,,37,37,51,17,24,78,78,32,32,22,34,3,5,0.6,0.6
2026-03-20T1200,3300A,113.2981,23.2365,广州市,白云嘉禾,,42,42,46,21,23,77,77,31,31,22,39,7,7,/,/
2026-03-20T1200,3301A,113.4256,23.1716,广州市,黄埔科学城,,33,33,40,17,22,86,86,35,35,17,36,8,9,0.6,0.5
2026-03-20T1200,3302A,113.3942,23.0485,广州市,番禺大学城,NA,NA,31,40,13,16,72,72,41,41,19,27,NA,7,0.5,0.4
2026-03-20T1200,3303A,113.4923,22.8169,广州市,南沙黄阁,,38,38,31,16,14,93,93,63,63,17,20,6,6,/,/
2026-03-20T1200,3304A,113.534,22.7893,广州市,南沙街,,32,32,28,14,13,92,92,60,60,11,15,8,8,0.6,0.5
2026-03-20T1200,3443A,113.2905,23.5541,广州市,花都梯面,NA,NA,49,47,28,27,NA,NA,21,21,26,27,NA,7,/,/
2026-03-20T1200,3445A,113.786,23.7479,广州市,从化良口,NA,NA,NA,35,NA,26,85,85,30,30,9,15,NA,5,/,/
2026-03-20T1200,3446A,113.805,23.2614,广州市,增城荔城,颗粒物(PM10),57,59,50,34,29,130,130,66,66,19,27,5,6,0.5,0.4
2026-03-20T1200,2506A,109.604387,23.066791,贵港市,江南子站,,44,44,79,17,28,61,61,32,32,8,21,8,12,0.5,0.8
2026-03-20T1200,2508A,109.5669,23.1065,贵港市,荷城子站,,36,36,69,23,43,61,61,39,36,13,23,10,13,0.5,0.7
2026-03-20T1200,3405A,109.5886,23.1172,贵港市,新世纪学校,,40,39,75,28,43,65,65,40,37,14,24,/,/,0.4,0.7
2026-03-20T1200,4260A,109.5933,23.095,贵港市,中山路155-3号,细颗粒物(PM2.5),52,51,80,36,45,62,62,33,33,8,20,/,/,0.4,0.8
2026-03-20T1200,1439A,106.6863,26.6035,贵阳市,马鞍山,,16,14,20,11,14,32,32,28,24,11,12,5,4,/,/
2026-03-20T1200,1441A,106.6241,26.6266,贵阳市,鉴湖路,,22,22,28,3,13,41,41,34,34,12,15,5,5,0.6,0.5
2026-03-20T1200,1442A,106.7468,26.6344,贵阳市,燕子冲,,18,17,20,12,12,32,32,31,29,15,13,9,7,1.3,1.2
2026-03-20T1200,1443A,106.6556,26.4362,贵阳市,碧云窝,,29,29,25,11,13,30,30,32,27,21,17,14,9,/,/
2026-03-20T1200,1445A,106.6963,26.6063,贵阳市,红边门,,22,22,25,9,14,39,39,34,30,17,16,12,9,/,/
2026-03-20T1200,1446A,106.7162383,26.56964667,贵阳市,新华路,,29,29,31,15,12,37,37,36,33,16,15,9,6,0.7,0.6
2026-03-20T1200,1447A,106.6742,26.542,贵阳市,太慈桥,,19,19,28,10,16,39,39,29,27,14,16,5,5,/,/
2026-03-20T1200,4230A,106.688212,26.56952,贵阳市,花果园大街66号,,13,NA,20,9,15,33,33,30,27,14,15,4,3,/,/
2026-03-20T1200,4231A,106.687268,26.516892,贵阳市,漓江路57号,NA,NA,17,18,16,13,NA,NA,31,26,21,18,11,9,1.0,0.9
2026-03-20T1200,1864A,110.3091,25.2705,桂林市,龙隐路小学,,19,15,37,13,27,44,44,48,44,16,15,3,3,0.7,0.7
2026-03-20T1200,1865A,110.2849361,25.22909545,桂林市,八中,,22,22,38,6,16,35,35,42,36,20,16,3,3,0.9,0.8
2026-03-20T1200,3531A,110.296,25.1254,桂林市,旅游学院,,28,28,48,18,33,38,38,34,34,22,18,4,5,0.7,0.7
2026-03-20T1200,4222A,110.1835,25.2444,桂林市,环湖路276号,,17,17,37,8,21,46,46,53,46,13,12,3,5,0.8,0.8
2026-03-20T1200,4301A,110.2803,25.2773,桂林市,信义路13号,,19,19,36,10,26,43,43,53,46,15,14,3,3,1.1,1.1
2026-03-20T1200,2674A,100.2262,34.4854,果洛藏族自治州,玛沁县大武镇,,43,43,45,27,15,89,89,65,65,8,3,19,13,0.4,0.3
2026-03-20T1200,1130A,126.5557,45.8109,哈尔滨市,松北商大,,44,44,47,24,31,87,87,64,64,3,9,1,3,0.1,0.2
2026-03-20T1200,1132A,126.6162,45.719,哈尔滨市,南岗学府路,颗粒物(PM10),52,52,47,34,24,99,99,61,61,8,13,8,12,0,0
2026-03-20T1200,1133A,126.6894,45.7733,哈尔滨市,太平宏伟公园,颗粒物(PM10),58,61,50,28,32,88,88,63,63,6,12,7,12,0.5,0.5
2026-03-20T1200,1134A,126.6361,45.7672,哈尔滨市,道外承德广场,颗粒物(PM10),57,59,68,23,28,96,96,72,72,9,12,7,9,0.7,0.9
2026-03-20T1200,1136A,126.644,45.7261,哈尔滨市,动力和平路,细颗粒物(PM2.5),56,52,48,38,29,90,90,66,66,8,11,9,10,0.9,0.8
2026-03-20T1200,1137A,126.5933,45.7479,哈尔滨市,道里建国路,颗粒物(PM10),64,69,41,24,25,88,88,64,64,13,15,8,6,0.5,0.8
2026-03-20T1200,1138A,126.6127,45.6119,哈尔滨市,平房东轻厂,细颗粒物(PM2.5),58,48,51,39,37,75,75,52,52,29,41,22,23,0.6,0.7
2026-03-20T1200,1139A,126.5875,45.9827,哈尔滨市,呼兰师专,NA,NA,NA,49,NA,31,NA,NA,53,53,10,12,10,8,0.2,0.3
2026-03-20T1200,1140A,126.6299,45.6799,哈尔滨市,省农科院,细颗粒物(PM2.5),80,69,58,50,32,89,89,67,67,6,9,10,10,0.5,0.6
2026-03-20T1200,4282A,126.6769,45.7379,哈尔滨市,华山路1号,颗粒物(PM10),55,56,53,35,35,84,84,68,68,13,13,3,4,0.6,0.6
2026-03-20T1200,4283A,126.9717,45.5356,哈尔滨市,解放大街52号,颗粒物(PM10),58,60,77,20,32,92,92,63,63,8,15,3,2,0,0.1
2026-03-20T1200,2688A,93.5124,42.8176,哈密市,地区监测站,颗粒物(PM10),109,141,87,42,29,71,71,54,54,9,22,7,6,0.1,0.3
2026-03-20T1200,2689A,93.5014,42.8312,哈密市,哈密师范学校,颗粒物(PM10),119,168,100,38,32,69,69,36,36,13,37,8,7,0.3,0.5
2026-03-20T1200,2671A,100.9016,36.9464,海北藏族自治州,海晏县西海镇,,42,42,44,29,23,73,73,50,50,8,4,10,7,0.6,0.4
2026-03-20T1200,3867A,102.074,36.5056,海东市,平安区公安局北苑,细颗粒物(PM2.5),98,99,104,59,47,98,98,65,63,8,10,14,16,0.8,0.7
2026-03-20T1200,4163A,102.0984,36.5119,海东市,滨河路,颗粒物(PM10),77,87,102,46,43,82,82,37,37,12,27,13,17,0.8,0.8
2026-03-20T1200,1410A,110.3189,20.0596,海口市,海南大学,,24,24,24,12,12,52,52,44,43,4,6,5,5,0.3,0.3
2026-03-20T1200,1411A,110.2827,20.0051,海口市,秀英海南医院,,21,21,19,10,11,50,50,38,38,5,8,7,7,0.2,0.3
2026-03-20T1200,1412A,110.3391,19.9979,海口市,海南师范大学,,27,27,25,13,11,54,54,43,41,7,8,5,6,0.3,0.4
2026-03-20T1200,1413A,110.3303,20.0359,海口市,龙华路环保局宿舍,,26,26,23,15,13,53,53,45,44,8,8,/,/,0.5,0.4
2026-03-20T1200,3539A,110.5111,19.9737,海口市,桂林洋子站,,28,28,23,13,11,46,46,39,39,8,8,/,/,/,/
2026-03-20T1200,4134A,110.1952,20.0451,海口市,长滨二路9号,,20,20,18,12,11,56,56,43,43,4,5,/,/,/,/
2026-03-20T1200,2673A,100.6158,36.2985,海南藏族自治州,共和县恰卜恰镇,,41,41,42,10,17,96,96,68,68,2,9,11,10,0.3,0.3
2026-03-20T1200,2676A,97.373,37.376,海西蒙古族藏族自治州,德令哈市,,42,29,34,9,17,132,132,126,126,2,2,17,14,0.3,0.3
2026-03-20T1200,1049A,114.492,36.5712,邯郸市,矿院,细颗粒物(PM2.5),96,108,93,58,49,80,80,31,31,34,24,9,4,1.0,0.6
2026-03-20T1200,1050A,114.4839,36.6136,邯郸市,丛台公园,细颗粒物(PM2.5),130,133,104,93,65,81,81,32,32,29,23,9,3,0.9,0.6
2026-03-20T1200,3458A,114.7893,36.5592,邯郸市,香泉濮院小区,颗粒物(PM10),108,139,108,67,43,74,74,36,36,15,17,3,2,0.7,0.5
2026-03-20T1200,3580A,114.1998,36.4439,邯郸市,峰峰矿区临水派出所,颗粒物(PM10),74,83,86,41,41,108,108,58,58,9,15,13,11,0.9,0.9
2026-03-20T1200,4068A,114.5209,36.7697,邯郸市,建安街268号,细颗粒物(PM2.5),115,126,101,76,61,76,76,25,25,32,36,9,3,0.7,0.5
2026-03-20T1200,4069A,114.5488,36.6177,邯郸市,丛台东路558号,细颗粒物(PM2.5),144,130,95,108,72,76,76,24,24,21,25,8,4,0.9,0.6
2026-03-20T1200,2635A,107.0155,33.0707,汉中市,市监测站,颗粒物(PM10),58,60,60,27,28,55,55,21,21,18,22,8,7,0.7,0.6
2026-03-20T1200,2636A,107.0083,33.114,汉中市,鑫源开发区,颗粒物(PM10),75,85,61,15,14,73,73,30,30,25,26,9,7,0.5,0.5
2026-03-20T1200,2637A,107.0072,33.0323,汉中市,南郑大河坎水厂,颗粒物(PM10),57,59,59,19,24,66,66,26,26,13,20,6,4,0.6,0.5
2026-03-20T1200,1223A,120.2073,30.2111,杭州市,滨江,细颗粒物(PM2.5),103,84,86,63,64,117,117,66,66,29,33,10,8,0.8,0.8
2026-03-20T1200,1224A,120.0625,30.2737,杭州市,西溪,细颗粒物(PM2.5),101,100,95,61,69,122,122,46,46,27,26,10,9,0.7,0.8
2026-03-20T1200,1226A,120.3417,30.315,杭州市,下沙,NA,NA,72,84,53,61,NA,NA,69,69,NA,27,NA,8,NA,0.6
2026-03-20T1200,1227A,120.1252,30.2465,杭州市,卧龙桥,细颗粒物(PM2.5),107,86,90,67,68,128,128,57,57,24,28,10,8,0.4,0.5
2026-03-20T1200,1228A,120.1902,30.2691,杭州市,浙江农大,细颗粒物(PM2.5),94,72,83,57,64,121,121,65,65,34,37,8,7,0.7,0.8
2026-03-20T1200,1230A,120.1195,30.3121,杭州市,和睦小学,细颗粒物(PM2.5),100,85,97,60,71,121,121,66,66,22,28,8,7,0.7,0.8
2026-03-20T1200,1231A,120.3076,30.4146,杭州市,临平镇,细颗粒物(PM2.5),84,77,83,52,61,130,130,77,77,15,28,8,7,0.6,0.7
2026-03-20T1200,1232A,120.2753,30.1839,杭州市,城厢镇,细颗粒物(PM2.5),110,99,88,70,63,120,120,65,65,19,25,12,10,0.8,0.8
2026-03-20T1200,1233A,120.0883,30.1808,杭州市,云栖,细颗粒物(PM2.5),94,98,84,57,54,113,113,52,52,37,33,8,5,0.7,0.7
2026-03-20T1200,3557A,119.9463,30.0496,杭州市,镇二中,细颗粒物(PM2.5),115,NA,67,76,65,102,102,56,56,25,27,6,5,NA,0.8
2026-03-20T1200,3558A,119.7184,30.2367,杭州市,市府大楼,细颗粒物(PM2.5),121,104,83,83,67,49,49,24,24,32,22,7,6,0.5,0.6
2026-03-20T1200,3656A,120.1554,30.2863,杭州市,消防大队,细颗粒物(PM2.5),96,80,94,58,68,123,123,64,64,16,31,9,8,0.7,0.8
2026-03-20T1200,1270A,117.1957,31.7845,合肥市,明珠广场,细颗粒物(PM2.5),142,127,112,106,97,94,94,53,53,NA,21,NA,5,1.1,1.2
2026-03-20T1200,1271A,117.307,31.8765,合肥市,三里街,细颗粒物(PM2.5),135,NA,122,98,101,70,70,33,33,40,41,6,5,1.0,1
2026-03-20T1200,1272A,117.2587,31.8703,合肥市,琥珀山庄,细颗粒物(PM2.5),123,119,114,85,91,86,86,49,49,42,36,7,7,1.0,1
2026-03-20T1200,1275A,117.2593,31.9376,合肥市,庐阳区,细颗粒物(PM2.5),122,112,126,84,96,92,92,40,40,29,39,4,4,1.0,1.1
2026-03-20T1200,1276A,117.345251,31.861615,合肥市,瑶海区,细颗粒物(PM2.5),120,119,125,82,88,79,79,40,39,40,38,5,5,0.9,0.9
2026-03-20T1200,1277A,117.3033,31.7967,合肥市,包河区,细颗粒物(PM2.5),125,124,117,87,81,75,75,35,35,52,50,8,8,1.1,1
2026-03-20T1200,1278A,117.278,31.7392,合肥市,滨湖新区,细颗粒物(PM2.5),124,114,114,86,89,106,106,62,62,10,14,3,4,0.9,0.9
2026-03-20T1200,1279A,117.1324,31.8395,合肥市,高新区,细颗粒物(PM2.5),117,107,110,78,83,96,96,61,61,24,21,4,5,0.9,1
2026-03-20T1200,3464A,117.3802,31.9148,合肥市,高教基地,细颗粒物(PM2.5),120,107,113,82,81,103,103,40,40,24,33,9,7,0.9,0.8
2026-03-20T1200,4098A,117.2518,31.8404,合肥市,中国科学技术大学,细颗粒物(PM2.5),120,114,111,82,86,100,100,59,59,23,23,7,5,0.9,0.9
2026-03-20T1200,3614A,79.9241,37.0878,和田地区,地区环保局,颗粒物(PM10),172,293,246,58,56,62,62,44,43,17,17,3,2,0.6,0.5
2026-03-20T1200,3615A,79.9132,37.1137,和田地区,市环保局,颗粒物(PM10),165,280,225,69,58,58,58,39,29,20,22,23,3,0.7,0.6
2026-03-20T1200,2517A,108.0496,24.6957,河池市,市环保站,,8,6,43,3,28,25,25,22,22,7,10,4,5,0.6,0.6
2026-03-20T1200,4302A,108.0901,24.6945,河池市,上任中路54号,,9,6,46,3,27,27,27,25,25,3,10,5,6,0.6,0.7
2026-03-20T1200,1697A,114.6962,23.7538,河源市,东埔,,33,33,34,22,24,88,88,50,50,8,16,6,6,0.6,0.8
2026-03-20T1200,1698A,114.6895,23.7232,河源市,老城,,30,30,35,18,24,88,88,57,57,6,12,6,6,0.6,0.8
2026-03-20T1200,3374A,115.5562,35.089,菏泽市,定陶老年大学,细颗粒物(PM2.5),117,112,101,78,53,NA,NA,41,40,NA,20,NA,6,NA,0.5
2026-03-20T1200,4114A,115.4239,35.2593,菏泽市,黄河路600号,细颗粒物(PM2.5),116,142,120,77,55,85,85,50,50,14,19,5,4,0.5,0.4
2026-03-20T1200,4115A,115.5025,35.2727,菏泽市,菏泽市人社局,细颗粒物(PM2.5),120,127,105,81,57,86,86,50,47,17,20,6,5,0.4,0.4
2026-03-20T1200,4184A,115.479691,35.244011,菏泽市,永昌路1号,细颗粒物(PM2.5),119,130,109,80,56,103,103,60,60,15,20,4,4,0.4,0.3
2026-03-20T1200,4193A,115.471542,35.280012,菏泽市,长城路999号,细颗粒物(PM2.5),111,130,108,72,50,91,91,54,54,17,20,9,6,0.4,0.4
2026-03-20T1200,2514A,111.5264,24.4178,贺州市,环保小区,细颗粒物(PM2.5),56,51,40,38,30,43,43,41,40,14,12,6,5,0.9,0.9
2026-03-20T1200,2515A,111.561,24.4074,贺州市,政协大楼,NA,NA,49,43,46,33,NA,NA,19,17,23,18,NA,7,0.7,0.5
2026-03-20T1200,3534A,111.4744,24.455,贺州市,西湾,细颗粒物(PM2.5),52,48,47,36,32,37,37,36,32,14,14,8,7,0.9,0.8
2026-03-20T1200,2385A,114.17,35.9019,鹤壁市,市监测站,细颗粒物(PM2.5),113,125,106,74,56,95,95,45,45,28,25,23,10,1.5,0.8
2026-03-20T1200,2386A,114.2953,35.7512,鹤壁市,市交警支队,细颗粒物(PM2.5),131,154,124,94,66,53,53,17,17,42,42,21,10,1.3,0.7
2026-03-20T1200,2387A,114.2877,35.7302,鹤壁市,迎宾馆,细颗粒物(PM2.5),131,179,140,94,66,55,55,13,13,NA,36,20,11,NA,0.6
2026-03-20T1200,3474A,114.2616,35.6824,鹤壁市,大新区,细颗粒物(PM2.5),137,146,117,100,72,69,69,26,26,34,40,22,8,1.6,0.8
2026-03-20T1200,3596A,114.1573,35.9607,鹤壁市,南山宾馆,细颗粒物(PM2.5),111,144,138,72,59,99,99,67,67,20,20,22,12,1.3,0.7
2026-03-20T1200,2244A,130.2537,47.3416,鹤岗市,哈啤分公司,,30,23,43,21,30,91,91,87,87,7,10,10,12,0.2,0.3
2026-03-20T1200,2245A,130.2683,47.3087,鹤岗市,斯达机电,NA,NA,34,45,18,29,98,98,97,96,NA,8,10,10,NA,0.6
2026-03-20T1200,2246A,130.3114,47.3388,鹤岗市,东山纸板厂,,30,30,60,11,30,91,91,84,84,3,9,7,9,0.3,0.4
2026-03-20T1200,2263A,127.4832,50.2524,黑河市,交通局,NA,NA,14,44,3,24,88,88,84,83,NA,12,6,7,0.1,0.3
2026-03-20T1200,2264A,127.5146,50.2339,黑河市,环保局,,29,12,45,3,29,91,91,87,86,8,15,4,7,0.4,0.4
2026-03-20T1200,1074A,115.6839,37.754,衡水市,电机北厂,细颗粒物(PM2.5),101,120,94,61,49,93,93,50,49,21,21,7,5,0.6,0.4
2026-03-20T1200,1075A,115.6303,37.7318,衡水市,市监测站,细颗粒物(PM2.5),112,123,91,73,50,86,86,46,46,21,21,7,6,0.5,0.4
2026-03-20T1200,3188A,115.6684,37.7216,衡水市,市城管局,颗粒物(PM10),96,114,98,48,48,89,89,46,46,20,22,10,7,0.7,0.5
2026-03-20T1200,3459A,115.599,37.5491,衡水市,地表水厂,细颗粒物(PM2.5),117,120,88,78,54,NA,NA,26,26,13,32,10,8,0.5,0.4
2026-03-20T1200,2457A,112.6209,26.9268,衡阳市,衡阳化工总厂,,25,22,24,17,21,27,27,30,28,14,13,4,5,1.1,1
2026-03-20T1200,2458A,112.621,26.8957,衡阳市,珠晖区环保局,,23,20,27,16,20,22,22,25,23,21,19,5,6,1.1,1
2026-03-20T1200,2459A,112.628,26.8654,衡阳市,市委党校,,20,NA,26,14,21,25,25,29,27,15,12,5,6,1.2,1.1
2026-03-20T1200,2460A,112.6007,26.8977,衡阳市,市监测站,,24,24,29,10,19,28,28,31,28,21,17,6,7,0.9,0.9
2026-03-20T1200,2461A,112.5658,26.9013,衡阳市,真空机电公司,,28,NA,26,19,22,38,38,30,30,18,17,6,7,1.2,1.2
2026-03-20T1200,3399A,112.6703,26.8817,衡阳市,师范学院,NA,NA,21,25,16,17,33,33,33,32,11,10,NA,5,1.1,1.1
2026-03-20T1200,3038A,103.3757,23.3679,红河哈尼族彝族自治州,州图书馆,细颗粒物(PM2.5),62,47,68,41,42,123,123,77,77,6,8,6,5,0.4,0.4
2026-03-20T1200,4154A,103.401,23.3561,红河哈尼族彝族自治州,蒙自市朝阳路,细颗粒物(PM2.5),54,NA,47,37,38,125,125,96,96,5,8,9,10,0.5,0.4
2026-03-20T1200,1090A,111.6506,40.7517,呼和浩特市,呼市一监,颗粒物(PM10),58,61,80,28,62,90,90,51,51,22,36,15,11,0.6,0.7
2026-03-20T1200,1094A,111.7516,40.8369,呼和浩特市,如意水处理厂,颗粒物(PM10),68,74,62,36,37,96,96,45,45,25,42,17,12,0.6,0.5
2026-03-20T1200,1095A,111.727798,40.806187,呼和浩特市,二十九中,颗粒物(PM10),68,74,63,42,36,87,87,49,49,23,36,16,11,0.6,0.6
2026-03-20T1200,1097A,111.717,40.7617,呼和浩特市,化肥厂生活区,细颗粒物(PM2.5),66,69,90,43,66,87,87,47,47,27,43,16,11,0.5,0.7
2026-03-20T1200,3699A,111.6519,40.8389,呼和浩特市,海东办,细颗粒物(PM2.5),92,78,59,56,40,91,91,37,37,26,47,14,9,0.6,0.5
2026-03-20T1200,4275A,111.591512,40.827312,呼和浩特市,成吉思汗西街8号,细颗粒物(PM2.5),102,92,60,62,37,83,83,33,33,31,43,16,8,0.6,0.5
2026-03-20T1200,4276A,111.6597,40.8077,呼和浩特市,公园东路75号,NA,NA,80,64,51,50,93,93,54,54,23,33,15,11,NA,0.7
2026-03-20T1200,4277A,111.5427,40.7846,呼和浩特市,金海路35号,细颗粒物(PM2.5),111,76,59,72,39,91,91,46,46,27,39,19,10,0.7,0.5
2026-03-20T1200,3061A,119.7511,49.1576,呼伦贝尔市,国华电力东,,29,29,29,12,15,89,89,81,81,8,9,5,5,0.2,0.2
2026-03-20T1200,4279A,119.7569,49.2222,呼伦贝尔市,伊敏大街东7号,,28,23,29,10,14,89,89,81,81,9,11,7,6,0.2,0.2
2026-03-20T1200,1250A,120.075,30.867,湖州市,城西水厂,细颗粒物(PM2.5),94,77,77,57,62,103,103,78,78,22,23,7,6,0.6,0.7
2026-03-20T1200,2873A,120.083,30.8929,湖州市,仁皇山新区,细颗粒物(PM2.5),96,82,81,58,60,104,104,70,70,22,26,6,5,0.7,0.8
2026-03-20T1200,2907A,120.1846,30.8592,湖州市,吴兴区站,细颗粒物(PM2.5),92,86,86,56,58,119,119,89,89,16,22,8,6,0.6,0.6
2026-03-20T1200,3562A,120.4146,30.8538,湖州市,南浔区站,细颗粒物(PM2.5),90,72,69,55,52,118,118,82,81,22,22,8,6,0.7,0.7
2026-03-20T1200,1607A,120.904878,40.721091,葫芦岛市,龙港区,,43,43,50,12,25,78,78,50,50,14,32,22,15,0.4,0.7
2026-03-20T1200,1608A,120.8382,40.7521,葫芦岛市,化工街,,36,36,46,23,23,70,70,65,65,18,23,12,14,0.3,0.5
2026-03-20T1200,1609A,120.8339,40.7078,葫芦岛市,新区,,46,46,44,25,24,72,72,62,61,17,24,30,14,0.5,0.6
2026-03-20T1200,1610A,120.8697,40.7679,葫芦岛市,东城区,,33,33,39,14,26,74,74,58,58,16,27,11,14,0.4,0.6
2026-03-20T1200,2483A,109.9297,27.5383,怀化市,河西地税局,,20,NA,33,14,23,57,57,50,50,11,10,3,3,/,/
2026-03-20T1200,2484A,109.9783,27.5342,怀化市,市四医院,,20,16,39,14,22,55,55,46,46,11,9,6,7,0.6,0.4
2026-03-20T1200,2485A,109.9971,27.5579,怀化市,监测楼,,25,19,33,17,24,61,61,47,47,7,7,3,4,0.4,0.3
2026-03-20T1200,1210A,119.0566,33.5991,淮安市,钵池山,细颗粒物(PM2.5),141,119,93,105,71,88,88,62,62,31,24,11,8,0.8,0.5
2026-03-20T1200,1211A,119.0083,33.578,淮安市,北京南路,细颗粒物(PM2.5),146,122,90,110,74,85,85,47,47,20,26,12,10,0.9,0.6
2026-03-20T1200,1212A,118.9938,33.6083,淮安市,市监测站,细颗粒物(PM2.5),144,112,87,108,79,98,98,59,59,20,25,8,8,0.8,0.8
2026-03-20T1200,1213A,119.135,33.5038,淮安市,楚州区监测站,细颗粒物(PM2.5),148,132,90,112,71,87,87,23,23,22,37,8,6,0.9,0.7
2026-03-20T1200,3426A,118.8757,33.2897,淮安市,新华书店,细颗粒物(PM2.5),137,132,101,100,75,104,104,51,51,9,23,9,7,0.8,0.5
2026-03-20T1200,4092A,119.119691,33.550006,淮安市,枚皋中路89号,细颗粒物(PM2.5),155,139,94,118,79,96,96,42,42,17,23,12,10,1.1,0.9
2026-03-20T1200,4206A,119.028838,33.631911,淮安市,承德北路606号,细颗粒物(PM2.5),140,144,112,104,74,97,97,63,63,16,19,10,10,0.7,0.6
2026-03-20T1200,2282A,116.8005,33.9749,淮北市,监测站,细颗粒物(PM2.5),131,134,115,94,71,120,120,66,66,16,21,7,6,0.9,0.8
2026-03-20T1200,2283A,116.8094,33.9008,淮北市,烈山区政府,细颗粒物(PM2.5),128,102,110,90,73,115,115,60,60,14,27,7,5,0.6,0.6
2026-03-20T1200,4017A,116.7926,33.9534,淮北市,市博物馆,细颗粒物(PM2.5),132,120,116,95,79,111,111,59,59,16,23,5,4,0.8,0.7
2026-03-20T1200,4100A,116.8322,33.9884,淮北市,杜集区第一实验学校,细颗粒物(PM2.5),137,116,117,100,75,113,113,55,55,15,22,8,6,0.8,0.7
2026-03-20T1200,2277A,116.8304,32.7726,淮南市,潘集区政府,细颗粒物(PM2.5),117,114,110,78,79,112,112,58,57,16,21,8,6,0.7,0.8
2026-03-20T1200,2279A,116.8569,32.5949,淮南市,谢家集区政府,细颗粒物(PM2.5),128,109,104,90,88,94,94,66,66,20,24,7,7,0.7,0.7
2026-03-20T1200,2280A,116.8279,32.6333,淮南市,八公山区政府,细颗粒物(PM2.5),127,105,104,89,83,102,102,70,70,13,15,12,11,0.7,0.7
2026-03-20T1200,2894A,117.0561,32.6536,淮南市,经济技术开发区消防队,细颗粒物(PM2.5),121,113,111,83,89,106,106,52,52,16,26,8,7,0.6,0.7
2026-03-20T1200,3329A,117.011,32.5891,淮南市,山南新区,细颗粒物(PM2.5),127,108,115,89,90,99,99,62,62,21,25,7,7,0.7,0.7
2026-03-20T1200,4209A,117.003137,32.644456,淮南市,国庆中路369号,细颗粒物(PM2.5),120,89,111,81,90,97,97,60,60,12,17,7,7,0.7,0.8
2026-03-20T1200,2446A,114.9021,30.474,黄冈市,职工中心,细颗粒物(PM2.5),90,82,66,55,49,58,58,67,61,28,17,6,6,0.9,0.8
2026-03-20T1200,2929A,114.8858,30.4519,黄冈市,红卫路,细颗粒物(PM2.5),86,71,62,53,52,81,81,59,59,15,17,5,4,0.5,0.5
2026-03-20T1200,3398A,114.9134,30.4446,黄冈市,市林业局,细颗粒物(PM2.5),84,82,75,52,48,67,67,66,62,25,19,3,4,0.6,0.6
2026-03-20T1200,2672A,102.02,35.5101,黄南藏族自治州,同仁县隆务镇,颗粒物(PM10),55,57,66,23,25,92,92,74,73,4,3,10,10,0.3,0.3
2026-03-20T1200,2295A,118.2905,29.6965,黄山市,延安路89号,,40,38,22,28,17,45,45,27,27,13,12,4,4,0.5,0.5
2026-03-20T1200,2297A,118.1369,30.2755,黄山市,黄山区政府5号楼,NA,NA,NA,32,15,18,38,38,22,22,9,10,2,2,0.7,0.7
2026-03-20T1200,4210A,118.335445,29.720283,黄山市,滨江东路7-2号,颗粒物(PM10),57,59,35,32,15,48,48,31,31,15,15,/,/,/,/
2026-03-20T1200,2423A,115.0547,30.2332,黄石市,沈家营,颗粒物(PM10),86,100,78,41,50,53,53,63,53,38,27,6,11,1.1,1.1
2026-03-20T1200,2426A,114.899,30.211,黄石市,铁山,细颗粒物(PM2.5),88,68,55,54,53,47,47,69,57,37,17,7,7,1.2,0.7
2026-03-20T1200,2427A,115.0259,30.2108,黄石市,团城山,细颗粒物(PM2.5),80,90,51,50,42,27,27,25,25,37,21,8,50,1.5,1.3
2026-03-20T1200,3149A,115.0174,30.1591,黄石市,笔架山北路,颗粒物(PM10),90,105,88,47,54,44,44,77,66,36,17,7,8,1.2,1.1
2026-03-20T1200,4185A,115.078022,30.21118,黄石市,磁湖东路29号,细颗粒物(PM2.5),100,100,77,60,54,39,39,70,48,49,20,6,6,1.2,1.1
2026-03-20T1200,1392A,114.4181,23.0528,惠州市,河南岸金山湖子站,,34,34,38,16,22,102,102,77,77,7,9,7,7,0.7,0.6
2026-03-20T1200,1393A,114.4055,23.0824,惠州市,下埔横江三路子站,,32,29,41,16,20,101,101,76,76,8,10,5,4,0.7,0.6
2026-03-20T1200,1395A,114.4645,22.7832,惠州市,惠阳区承修路船湖子站,,31,27,38,14,17,99,99,80,80,8,10,6,7,0.5,0.5
2026-03-20T1200,1396A,114.5316,22.7423,惠州市,大亚湾管委会子站,,31,26,34,14,16,97,97,79,79,5,8,4,4,0.6,0.6
2026-03-20T1200,3314A,114.4334,22.8134,惠州市,惠阳秋长,,32,22,34,11,18,102,102,81,81,8,11,/,/,/,/
2026-03-20T1200,3452A,114.6521,22.7755,惠州市,大亚湾霞涌,,32,21,26,14,15,102,102,85,85,8,9,/,/,/,/
2026-03-20T1200,4300A,114.4089,23.1147,惠州市,文华一路1号,,32,26,39,16,21,102,102,74,74,7,11,/,/,/,/
2026-03-20T1200,2240A,130.9618,45.2926,鸡西市,环保局,,47,47,40,31,23,91,91,81,81,5,11,6,7,0.3,0.3
2026-03-20T1200,2243A,130.9294,45.2959,鸡西市,第一中学,细颗粒物(PM2.5),94,NA,38,57,30,88,88,78,78,4,9,5,9,0.5,0.5
2026-03-20T1200,3707A,131.0069,45.2988,鸡西市,欧美日汽修厂,颗粒物(PM10),51,51,48,25,26,89,89,79,79,7,14,6,8,0.5,0.5
2026-03-20T1200,2367A,114.9753,27.0803,吉安市,红声器材厂,,42,42,29,16,16,47,47,43,42,20,22,6,6,0.9,0.9
2026-03-20T1200,2369A,114.9903,27.1313,吉安市,市环境监测站,,31,31,24,21,15,45,45,50,46,19,19,6,7,/,/
2026-03-20T1200,2370A,115.009527,27.096792,吉安市,青原区法院,NA,NA,NA,27,NA,18,48,48,46,45,18,23,NA,4,0.6,0.8
2026-03-20T1200,1772A,126.54,43.8622,吉林市,哈达湾,,44,44,78,24,41,87,87,76,76,7,12,5,6,0.4,0.5
2026-03-20T1200,1773A,126.5843,43.8358,吉林市,东局子,,33,28,87,23,41,83,83,72,72,9,15,3,4,0.5,0.6
2026-03-20T1200,1774A,126.5051,43.8243,吉林市,电力学院,,32,NA,84,22,36,94,94,84,84,6,12,5,6,0.5,0.6
2026-03-20T1200,1775A,126.6133,43.8971,吉林市,江北,,49,49,96,21,37,85,85,74,74,14,16,7,8,0.4,0.5
2026-03-20T1200,1776A,126.5549,43.8304,吉林市,江南公园,,38,38,68,24,38,84,84,74,74,8,13,6,7,0.5,0.5
2026-03-20T1200,2868A,126.4737,43.953,吉林市,九站,,49,49,105,32,52,91,91,71,71,7,20,6,9,0.5,0.6
2026-03-20T1200,1299A,116.9866,36.6118,济南市,科干所,颗粒物(PM10),96,114,85,50,47,100,100,88,86,15,15,6,6,0.7,0.6
2026-03-20T1200,1300A,116.9379,36.6652,济南市,农科所,颗粒物(PM10),106,134,87,61,52,97,97,60,60,21,25,10,8,0.6,0.5
2026-03-20T1200,1301A,117.1265,36.6736,济南市,开发区,颗粒物(PM10),100,120,83,58,46,104,104,78,78,19,20,6,4,0.7,0.6
2026-03-20T1200,1303A,117.0616,36.6865,济南市,省种子仓库,颗粒物(PM10),107,136,91,59,48,98,98,46,46,17,33,6,5,0.6,0.6
2026-03-20T1200,1304A,116.9495185,36.644937,济南市,机床二厂,颗粒物(PM10),101,122,91,52,49,102,102,67,66,17,22,6,7,0.6,0.6
2026-03-20T1200,1305A,117.0496,36.6629,济南市,市监测站,颗粒物(PM10),105,132,87,57,50,104,104,75,72,17,20,5,4,0.6,0.5
2026-03-20T1200,1306A,116.7674,36.5458,济南市,长清党校,颗粒物(PM10),88,103,93,40,48,102,102,83,83,10,15,4,5,0.5,0.5
2026-03-20T1200,1961A,117.5323,36.6865,济南市,东山小学,颗粒物(PM10),109,142,92,49,45,105,105,72,72,24,24,10,4,0.8,0.6
2026-03-20T1200,3059A,117.7181,36.205,济南市,泰兴公司,细颗粒物(PM2.5),98,88,100,59,62,127,127,49,49,9,36,8,9,0.8,0.8
2026-03-20T1200,3064A,117.6861,36.2172,济南市,莱芜战役纪念馆,细颗粒物(PM2.5),80,78,100,50,62,130,130,52,52,11,35,5,6,0.6,0.8
2026-03-20T1200,3494A,117.1673,36.9782,济南市,济阳区政府,细颗粒物(PM2.5),109,132,100,69,58,95,95,54,54,17,34,12,7,0.6,0.5
2026-03-20T1200,3495A,117.1168,36.6299,济南市,锦屏中学,颗粒物(PM10),97,115,81,50,48,106,106,75,75,14,16,10,8,0.6,0.6
2026-03-20T1200,4108A,117.7107,36.2385,济南市,山财大街5号,细颗粒物(PM2.5),82,75,95,51,63,103,103,40,40,11,34,9,9,0.4,0.8
2026-03-20T1200,4109A,116.9744,36.6889,济南市,无影山路12号,细颗粒物(PM2.5),105,117,80,65,49,91,91,64,62,21,24,7,6,0.7,0.6
2026-03-20T1200,1653A,116.6229,35.4288,济宁市,火炬城,细颗粒物(PM2.5),102,73,99,62,71,104,104,56,56,11,27,2,2,0.7,0.8
2026-03-20T1200,3500A,116.5808,35.3703,济宁市,北湖一中,细颗粒物(PM2.5),108,79,74,68,55,106,106,50,50,12,22,6,6,0.6,0.5
2026-03-20T1200,3501A,116.8251,35.5592,济宁市,服务中心,细颗粒物(PM2.5),111,121,98,72,58,108,108,54,54,11,25,3,3,0.8,0.7
2026-03-20T1200,3678A,116.5907,35.4054,济宁市,市第七中学,细颗粒物(PM2.5),98,72,84,59,54,116,116,59,59,9,26,4,4,0.7,0.6
2026-03-20T1200,4111A,116.6075,35.4566,济宁市,任和路,细颗粒物(PM2.5),104,117,100,64,57,110,110,50,50,10,21,6,6,NA,0.7
2026-03-20T1200,4112A,116.5648,35.3921,济宁市,文体南路1号,细颗粒物(PM2.5),110,115,95,70,55,107,107,53,53,12,22,4,4,0.7,0.5
2026-03-20T1200,4122A,112.6071,35.1015,济源市,市委党校,颗粒物(PM10),68,74,128,23,47,90,90,53,53,15,30,11,8,0.6,0.8
2026-03-20T1200,4123A,112.596,35.0702,济源市,沁园中路1号,颗粒物(PM10),60,63,112,14,46,100,100,48,48,16,38,9,6,0.7,0.9
2026-03-20T1200,2255A,130.2749,46.8028,佳木斯市,佳纺,细颗粒物(PM2.5),56,53,46,38,29,91,91,74,74,10,14,4,5,0.4,0.4
2026-03-20T1200,2257A,130.3258,46.7975,佳木斯市,环保局,,43,43,42,22,26,94,94,78,78,5,12,2,3,0.2,0.3
2026-03-20T1200,4285A,130.363,46.806,佳木斯市,顺和街,,45,39,39,31,29,86,86,71,71,9,14,3,4,0.3,0.4
2026-03-20T1200,4286A,130.3952,46.8268,佳木斯市,长安路196号,,40,32,39,28,28,86,86,73,73,4,9,1,3,0.5,0.6
2026-03-20T1200,1252A,120.7439,30.778,嘉兴市,清河小学,颗粒物(PM10),66,72,60,37,27,114,114,75,75,18,23,6,7,0.6,0.6
2026-03-20T1200,1253A,120.7261,30.7477,嘉兴市,嘉兴学院,颗粒物(PM10),58,60,56,38,37,110,110,78,78,26,27,6,6,0.6,0.6
2026-03-20T1200,2872A,120.7845,30.7524,嘉兴市,南湖区残联,细颗粒物(PM2.5),66,57,47,43,36,116,116,71,71,18,24,4,5,0.7,0.6
2026-03-20T1200,3407A,120.6915,30.7741,嘉兴市,秀洲住建,颗粒物(PM10),70,78,70,42,39,120,120,77,75,19,25,9,8,0.7,0.7
2026-03-20T1200,1945A,98.291,39.7705,嘉峪关市,气象局,颗粒物(PM10),135,210,224,49,53,95,95,68,68,4,10,9,8,0.4,0.3
2026-03-20T1200,2884A,98.2672,39.7978,嘉峪关市,酒钢宾馆,颗粒物(PM10),158,266,267,72,62,90,90,65,63,14,10,43,15,1.6,0.5
2026-03-20T1200,3248A,98.2644,39.7723,嘉峪关市,雄关区,颗粒物(PM10),125,184,193,54,55,89,89,58,58,9,13,14,7,0.6,0.3
2026-03-20T1200,1383A,113.1063,22.6058,江门市,北街,,33,33,32,13,16,77,77,45,45,12,21,/,/,/,/
2026-03-20T1200,1384A,113.073,22.5835,江门市,西区,,26,22,35,13,16,83,83,54,54,10,17,/,/,/,/
2026-03-20T1200,1385A,113.0218,22.531,江门市,圭峰西,,33,33,31,16,15,76,76,53,53,12,14,/,/,/,/
2026-03-20T1200,1386A,113.0826,22.5947,江门市,东湖,,26,26,31,14,14,80,80,49,49,11,16,7,8,0.5,0.6
2026-03-20T1200,3311A,113.1077,22.5647,江门市,江海富民,,40,40,45,14,16,84,84,60,60,10,17,/,/,0.3,0.4
2026-03-20T1200,3449A,113.0496,22.4669,江门市,新会银湖,,30,30,34,15,15,73,73,33,33,16,26,6,8,0.3,0.4
2026-03-20T1200,3335A,113.3137,35.2643,焦作市,马村街道办,细颗粒物(PM2.5),104,109,129,64,64,78,78,40,40,26,30,17,12,0.9,1
2026-03-20T1200,3336A,113.2464,35.2374,焦作市,焦作技师学院,颗粒物(PM10),100,119,135,51,63,87,87,39,39,16,31,17,13,0.8,0.9
2026-03-20T1200,3477A,113.1656,35.2536,焦作市,中站许衡医院,颗粒物(PM10),86,100,111,39,54,99,99,58,58,18,29,14,20,0.8,1
2026-03-20T1200,3981A,113.2456,35.18,焦作市,原李万街道办,颗粒物(PM10),87,101,121,52,51,79,79,36,36,18,28,31,14,1.2,0.8
2026-03-20T1200,4264A,113.234,35.219,焦作市,新安路1731号,颗粒物(PM10),104,129,135,50,60,94,94,45,45,19,33,18,16,0.9,0.9
2026-03-20T1200,4295A,113.2722,35.2121,焦作市,人民路3066号,"颗粒物(PM10),细颗粒物(PM2.5)",98,117,124,59,61,91,91,41,41,24,38,18,13,0.7,0.7
2026-03-20T1200,1708A,116.3701,23.5345,揭阳市,新兴,,45,45,33,29,20,79,79,80,72,24,16,7,7,0.8,0.7
2026-03-20T1200,1709A,116.3261,23.5442,揭阳市,西马,,45,45,38,28,20,77,77,77,71,20,13,6,6,0.7,0.7
2026-03-20T1200,1710A,116.361,23.5627,揭阳市,东兴,NA,NA,NA,32,NA,20,78,78,79,74,NA,11,NA,7,/,/
2026-03-20T1200,1711A,116.4151,23.5295,揭阳市,渔湖,,43,41,33,30,19,97,97,93,84,16,12,5,4,/,/
2026-03-20T1200,3320A,116.4028,23.5699,揭阳市,曲溪,,46,46,34,30,20,90,90,88,80,18,13,3,3,0.6,0.6
2026-03-20T1200,1944A,102.1691,38.5166,金昌市,天庆家园,颗粒物(PM10),180,310,307,67,66,104,104,56,56,4,14,20,21,0.7,0.7
2026-03-20T1200,4022A,102.1648,38.5369,金昌市,金川区人防中心,颗粒物(PM10),180,310,328,66,71,101,101,59,58,5,12,5,8,0.5,0.6
2026-03-20T1200,4239A,102.193042,38.531887,金昌市,长春路96号,颗粒物(PM10),188,325,315,61,68,94,94,51,51,5,14,6,17,0.6,0.7
2026-03-20T1200,1262A,119.6478,29.0773,金华市,十五中,细颗粒物(PM2.5),102,88,53,62,36,59,59,58,56,38,23,4,3,0.6,0.5
2026-03-20T1200,1263A,119.6859,29.1032,金华市,监测站,细颗粒物(PM2.5),106,89,50,66,41,43,43,45,42,47,33,4,4,0.6,0.6
2026-03-20T1200,3659A,119.656,29.1132,金华市,气象局,细颗粒物(PM2.5),106,93,60,66,42,NA,NA,43,39,47,35,109,7,0.6,0.6
2026-03-20T1200,1767A,121.1114,41.0879,锦州市,南山,,45,35,34,31,19,86,86,66,66,13,17,10,8,0.5,0.4
2026-03-20T1200,1768A,121.060361,40.842794,锦州市,开发区,,28,19,52,19,30,80,80,56,56,7,31,4,7,0.4,0.6
2026-03-20T1200,1769A,121.1836,41.1118,锦州市,百股街道,,47,47,40,31,27,89,89,58,58,12,22,12,10,0.5,0.6
2026-03-20T1200,1770A,121.1176,41.1224,锦州市,天安街道,,45,37,35,31,17,84,84,62,62,14,18,8,6,0.5,0.6
2026-03-20T1200,1771A,121.1303,41.1385,锦州市,北湖公园,,43,39,31,30,18,90,90,68,68,11,14,9,7,0.5,0.5
2026-03-20T1200,2160A,112.8496,35.5051,晋城市,自来水公司,颗粒物(PM10),59,62,120,10,39,92,92,47,47,17,22,10,8,0.8,0.9
2026-03-20T1200,2162A,112.8509,35.4886,晋城市,市环保局,NA,NA,NA,114,NA,47,95,95,48,48,NA,19,NA,8,1.1,1
2026-03-20T1200,3620A,112.8258,35.4804,晋城市,泽州一中,颗粒物(PM10),84,97,114,32,41,94,94,50,50,15,21,10,7,1.0,1.2
2026-03-20T1200,4078A,112.8246,35.5152,晋城市,前书院路,颗粒物(PM10),61,65,114,3,34,88,88,41,41,17,25,11,7,1.2,1.2
2026-03-20T1200,4079A,112.8864,35.4773,晋城市,祥云街666号,颗粒物(PM10),59,62,106,15,50,96,96,50,50,18,24,15,7,1.2,0.8
2026-03-20T1200,2174A,112.6992,37.6984,晋中市,榆次区政府,颗粒物(PM10),80,92,89,43,44,91,91,43,43,26,35,22,17,0.8,0.7
2026-03-20T1200,2865A,112.7195,37.683,晋中市,榆次三中,颗粒物(PM10),78,88,94,38,42,92,92,33,33,24,36,24,18,1.3,0.8
2026-03-20T1200,4080A,112.7375,37.7215,晋中市,广安街188号,颗粒物(PM10),73,82,92,35,41,93,93,40,40,21,37,26,18,0.8,0.6
2026-03-20T1200,4200A,112.7478,37.6954,晋中市,迎宾街26号,颗粒物(PM10),72,80,92,36,43,102,102,42,42,19,33,21,16,0.9,0.8
2026-03-20T1200,2439A,112.2012,31.048,荆门市,竹园小学,细颗粒物(PM2.5),104,115,131,64,74,31,31,20,20,28,28,2,1,1.2,1.1
2026-03-20T1200,2440A,112.1968,30.9892,荆门市,掇刀,细颗粒物(PM2.5),106,118,127,66,77,31,31,39,33,27,23,8,6,1.0,0.8
2026-03-20T1200,3012A,112.1849,31.0361,荆门市,西山林语,颗粒物(PM10),88,102,110,49,64,27,27,35,32,24,20,4,4,1.1,1
2026-03-20T1200,3547A,112.1631,31.0134,荆门市,龙泉中学南校,细颗粒物(PM2.5),110,121,121,70,77,NA,NA,30,28,13,19,2,4,0.8,0.8
2026-03-20T1200,4124A,112.2213,31.0654,荆门市,新台西路6号,细颗粒物(PM2.5),110,90,120,71,76,33,33,13,12,35,28,6,5,1.0,0.8
2026-03-20T1200,1844A,112.2493,30.3198,荆州市,市图书馆,细颗粒物(PM2.5),124,102,89,86,72,23,23,17,15,31,33,7,8,0.9,0.9
2026-03-20T1200,1845A,112.2009,30.3543,荆州市,市委党校,细颗粒物(PM2.5),140,123,105,104,86,17,17,13,9,34,34,9,8,1.0,0.9
2026-03-20T1200,3194A,112.2749,30.3124,荆州市,管委会,细颗粒物(PM2.5),135,102,95,98,79,25,25,13,13,31,32,10,12,0.9,0.9
2026-03-20T1200,4268A,112.1722,30.3366,荆州市,学苑路85号,细颗粒物(PM2.5),133,134,115,96,78,30,30,21,16,19,18,1,4,1.3,1.2
2026-03-20T1200,2343A,117.2114,29.2931,景德镇市,老干部活动中心,,43,43,15,18,14,20,20,14,14,9,12,6,5,0.8,0.9
2026-03-20T1200,2344A,117.1893,29.2789,景德镇市,兽医站,,17,17,23,9,9,25,25,21,21,11,14,3,4,0.8,0.8
2026-03-20T1200,2346A,117.246,29.2958,景德镇市,陶研所,,14,14,10,6,6,26,26,16,16,18,19,4,4,0.9,0.9
2026-03-20T1200,4289A,117.154766,29.256967,景德镇市,青少年活动中心,,20,17,16,14,13,26,26,18,18,11,21,3,6,/,/
2026-03-20T1200,1803A,115.9873,29.6816,九江市,十里,细颗粒物(PM2.5),111,78,63,72,56,49,49,57,48,30,27,9,9,1.1,1.1
2026-03-20T1200,1804A,115.9583,29.7047,九江市,茅山头,细颗粒物(PM2.5),118,90,61,79,60,48,48,64,53,26,21,3,4,0.8,0.8
2026-03-20T1200,1805A,115.9877,29.7295,九江市,西园,细颗粒物(PM2.5),111,81,61,72,49,53,53,61,55,32,31,5,4,1.0,0.9
2026-03-20T1200,1808A,115.9112,29.6038,九江市,综合工业园,NA,NA,77,60,59,49,34,34,45,39,NA,35,8,8,NA,1
2026-03-20T1200,3190A,116.0254,29.6995,九江市,外国语学校,细颗粒物(PM2.5),120,NA,54,81,55,44,44,53,44,27,22,5,4,1.0,0.9
2026-03-20T1200,4253A,116.010205,29.659402,九江市,莲花大道8号,细颗粒物(PM2.5),109,79,61,69,53,40,40,57,47,42,22,6,6,0.8,0.8
2026-03-20T1200,4240A,98.495752,39.733935,酒泉市,玉门东路5号,颗粒物(PM10),139,219,276,58,64,86,86,64,64,5,6,12,6,0.4,0.4
2026-03-20T1200,4241A,98.5099,39.7506,酒泉市,北大街108号,颗粒物(PM10),150,249,279,63,67,84,84,59,59,8,8,18,8,0.5,0.3
2026-03-20T1200,2698A,76.0071,39.466,喀什地区,巡警大队,颗粒物(PM10),147,241,168,84,70,36,36,21,14,47,30,6,4,0.9,0.8
2026-03-20T1200,2699A,75.9756,39.4693,喀什地区,吾办,颗粒物(PM10),145,236,173,87,72,36,36,14,9,42,30,3,6,1.0,0.9
2026-03-20T1200,4027A,75.9485,39.4688,喀什地区,老干局,颗粒物(PM10),160,269,240,76,66,32,32,7,7,46,34,5,3,1.3,1
2026-03-20T1200,1824A,114.3389,34.778,开封市,肿瘤医院,细颗粒物(PM2.5),104,109,109,64,72,87,87,31,31,29,38,11,8,1.0,0.9
2026-03-20T1200,1826A,114.2884,34.7966,开封市,世纪星幼儿园,细颗粒物(PM2.5),100,116,105,60,64,79,79,32,32,26,30,14,10,1.0,0.9
2026-03-20T1200,3147A,114.3434,34.8101,开封市,龙亭公园,颗粒物(PM10),105,132,115,61,62,89,89,34,34,29,34,14,10,1.1,0.9
2026-03-20T1200,3210A,114.3645,34.7955,开封市,汴京公园,细颗粒物(PM2.5),119,155,110,80,71,100,100,32,32,29,33,11,5,0.8,0.8
2026-03-20T1200,3473A,114.2485,34.8306,开封市,技师学院,细颗粒物(PM2.5),106,89,86,66,68,83,83,41,41,24,23,11,7,1.2,1
2026-03-20T1200,3592A,114.4518,34.7503,开封市,祥符区生态环境局,细颗粒物(PM2.5),111,94,126,72,71,90,90,34,34,20,34,10,6,0.8,0.7
2026-03-20T1200,1951A,84.886,45.6029,克拉玛依市,长征新村,,36,36,40,14,16,53,53,82,73,15,15,6,6,0.3,0.4
2026-03-20T1200,1952A,84.8894,45.5827,克拉玛依市,南林小区,,45,45,42,3,10,54,54,61,61,8,11,4,4,0.1,0.3
2026-03-20T1200,1954A,84.896,44.3328,克拉玛依市,独山子区,,49,49,89,7,33,92,92,86,86,5,15,6,6,0.5,0.8
2026-03-20T1200,1955A,85.6888,46.0909,克拉玛依市,乌尔禾区商贸楼,,40,NA,47,28,19,68,68,43,43,5,16,1,2,0.2,0.3
2026-03-20T1200,3612A,85.1045,45.6895,克拉玛依市,白碱滩区新站,,26,26,35,6,20,62,62,78,70,11,10,5,7,0.5,0.2
2026-03-20T1200,2697A,76.1457,39.7143,克孜勒苏柯尔克孜自治州,市人民政府,颗粒物(PM10),114,154,155,53,59,42,42,45,44,16,13,3,4,0.2,0.3
2026-03-20T1200,3665A,76.1654,39.7157,克孜勒苏柯尔克孜自治州,克州文化中心,颗粒物(PM10),117,162,150,72,61,26,26,44,43,NA,21,7,6,1.2,0.5
2026-03-20T1200,1450A,102.8203,24.889,昆明市,呈贡新区,,35,27,36,15,23,110,110,108,108,6,10,6,6,0.4,0.5
2026-03-20T1200,1452A,102.7253,25.0904,昆明市,龙泉镇,,31,15,34,9,19,97,97,100,96,6,8,3,4,0.4,0.5
2026-03-20T1200,1453A,102.7267,25.0378,昆明市,东风东路,,32,26,40,13,23,101,101,100,98,6,12,3,6,0.4,0.5
2026-03-20T1200,1454A,102.6744,25.0671,昆明市,金鼎山,,32,22,38,15,21,101,101,107,99,7,10,2,3,0.3,0.4
2026-03-20T1200,1455A,102.6643,25.0401,昆明市,碧鸡广场,,30,24,39,13,23,96,96,96,94,8,13,4,6,0.3,0.4
2026-03-20T1200,3179A,102.7491,25.012,昆明市,官渡区博物馆,,32,32,41,16,21,99,99,97,93,8,12,6,6,0.5,0.5
2026-03-20T1200,3375A,102.8016,24.8336,昆明市,青年创业园,,33,23,37,10,21,105,105,98,96,2,5,6,5,0.3,0.4
2026-03-20T1200,3550A,102.8,24.9787,昆明市,昆明学院,,34,32,39,3,17,108,108,107,104,7,8,8,5,0.4,0.4
2026-03-20T1200,3551A,102.5969,24.6738,昆明市,晋宁区生态环境分局,NA,NA,14,29,11,20,99,99,110,104,4,7,NA,5,NA,0.4
2026-03-20T1200,3552A,102.6673,24.9861,昆明市,云天化总部,,31,26,39,6,19,99,99,98,90,9,11,7,8,0.4,0.4
2026-03-20T1200,1456A,91.132,29.6515,拉萨市,八廓街,,29,17,22,3,8,90,90,60,60,8,16,5,5,0.4,0.5
2026-03-20T1200,1457A,91.1221,29.6748,拉萨市,市环保局,,28,20,25,6,9,89,89,42,42,9,21,3,4,0.5,0.7
2026-03-20T1200,1458A,91.0874,29.6476,拉萨市,区监测站,,29,13,15,6,8,91,91,59,59,7,21,4,4,0.4,0.5
2026-03-20T1200,1459A,91.1774,29.6541,拉萨市,西藏大学,,28,8,16,8,9,87,87,54,54,12,17,4,4,0.3,0.4
2026-03-20T1200,1460A,90.9798,29.6586,拉萨市,区辐射站,NA,NA,18,24,6,11,84,84,40,40,10,26,NA,6,0.3,0.5
2026-03-20T1200,1461A,91.0831,29.6292,拉萨市,拉萨火车站,,26,14,16,6,10,81,81,64,64,10,14,4,4,0.4,0.5
2026-03-20T1200,2520A,109.2203,23.7252,来宾市,来宾技工学校,细颗粒物(PM2.5),104,86,71,64,52,30,30,24,24,19,18,21,10,1.5,1.1
2026-03-20T1200,3535A,109.1781,23.7293,来宾市,兴宾区政府,细颗粒物(PM2.5),72,77,78,46,48,28,28,26,24,20,18,23,13,1.5,1
2026-03-20T1200,4002A,109.2312,23.7428,来宾市,中南小学,细颗粒物(PM2.5),96,86,71,58,51,31,31,24,24,18,18,23,12,1.3,1
2026-03-20T1200,1479A,103.8309,36.0467,兰州市,铁路设计院,NA,NA,NA,NA,NA,NA,NA,NA,NA,NA,NA,NA,NA,NA,NA,NA
2026-03-20T1200,3241A,103.7439,36.0841,兰州市,百合公园,颗粒物(PM10),80,92,121,49,47,78,78,38,38,21,21,29,13,0.6,0.5
2026-03-20T1200,3242A,103.9613,35.9985,兰州市,和平,NA,NA,NA,151,NA,41,86,86,69,65,NA,12,NA,12,0.9,0.5
2026-03-20T1200,4236A,103.629272,36.093822,兰州市,庄浪东路808号,颗粒物(PM10),90,106,124,48,45,84,84,58,54,11,11,29,14,0.6,0.5
2026-03-20T1200,4237A,103.7251,36.104344,兰州市,安宁西路88号,颗粒物(PM10),89,104,146,46,45,84,84,49,49,16,16,27,16,0.5,0.4
2026-03-20T1200,4238A,103.846982,36.067567,兰州市,北滨河东路1号,颗粒物(PM10),79,90,136,42,48,78,78,25,25,29,32,25,12,0.9,0.7
2026-03-20T1200,1067A,116.6712,39.5109,廊坊市,药材公司,颗粒物(PM10),62,66,66,30,36,82,82,NA,NA,12,16,3,3,0.5,0.5
2026-03-20T1200,1068A,116.7215,39.5592,廊坊市,开发区,颗粒物(PM10),63,68,76,25,42,84,84,42,42,7,20,3,3,0.3,0.4
2026-03-20T1200,1070A,116.7246,39.5273,廊坊市,北华航天学院,颗粒物(PM10),59,62,86,28,42,85,85,44,44,8,22,5,5,0.4,0.4
2026-03-20T1200,2919A,116.7022,39.5454,廊坊市,河北工业大学,颗粒物(PM10),55,56,81,22,41,81,81,39,39,8,23,5,5,0.4,0.4
2026-03-20T1200,2536A,103.7629,29.5844,乐山市,牛耳桥,,45,45,54,30,29,58,58,26,24,19,21,6,6,0.6,0.5
2026-03-20T1200,2537A,103.7501,29.6002,乐山市,市第三水厂,,45,39,50,31,29,59,59,32,26,27,23,5,4,0.7,0.5
2026-03-20T1200,2538A,103.7571,29.5664,乐山市,市监测站,,48,48,55,27,29,60,60,31,27,15,18,5,4,0.8,0.6
2026-03-20T1200,3361A,103.7313,29.563,乐山市,理工大学,NA,NA,42,50,26,27,66,66,26,24,NA,16,9,7,NA,0.6
2026-03-20T1200,2599A,100.2497,26.8802,丽江市,丽江古城,,32,29,26,8,9,102,102,91,91,7,7,8,8,0.4,0.4
2026-03-20T1200,2600A,100.2203,26.8906,丽江市,市中心,,33,24,18,12,12,104,104,92,92,8,10,8,8,0.3,0.3
2026-03-20T1200,1267A,119.9141,28.4513,丽水市,监测站大楼,,27,27,21,18,17,65,65,46,46,13,15,4,4,0.4,0.5
2026-03-20T1200,1268A,119.93,28.4589,丽水市,莲都小学,,28,28,26,19,16,59,59,37,37,14,16,/,/,/,/
2026-03-20T1200,1269A,119.8794,28.4232,丽水市,余庄前,,23,22,24,16,16,68,68,36,36,11,16,3,3,0.5,0.6
2026-03-20T1200,1173A,119.1759,34.5885,连云港市,市环境监测站,细颗粒物(PM2.5),121,122,99,83,74,102,102,43,43,19,29,10,9,0.6,0.6
2026-03-20T1200,3000A,119.3577,34.6971,连云港市,德源药业,颗粒物(PM10),104,129,89,63,43,102,102,30,30,26,43,8,7,0.8,0.6
2026-03-20T1200,3007A,119.178,34.8442,连云港市,新城一中,细颗粒物(PM2.5),163,141,99,124,88,82,82,35,35,32,37,15,8,0.8,0.7
2026-03-20T1200,3008A,119.3607,34.7519,连云港市,胡沟管理处,细颗粒物(PM2.5),148,144,89,112,58,77,77,53,46,29,38,10,8,1.0,0.8
2026-03-20T1200,3009A,119.1478,34.5913,连云港市,矿山设计院,细颗粒物(PM2.5),114,134,107,75,70,109,109,46,46,25,36,8,7,0.8,0.9
2026-03-20T1200,3434A,119.2414,34.6539,连云港市,工贸学校,细颗粒物(PM2.5),108,93,103,68,72,103,103,70,70,NA,20,11,10,0.9,0.9
2026-03-20T1200,3664A,119.4171,34.734,连云港市,连云街道,细颗粒物(PM2.5),150,155,98,114,64,87,87,75,46,29,26,9,6,0.8,0.6
2026-03-20T1200,2573A,102.2629,27.8981,凉山彝族自治州,西昌市政府,,29,20,20,20,16,87,87,80,NA,6,6,6,9,0.5,0.5
2026-03-20T1200,2574A,102.2686,27.885,凉山彝族自治州,凉山州政府,,24,24,25,13,11,76,76,66,56,8,7,3,5,0.4,0.4
2026-03-20T1200,4229A,102.2342,27.8859,凉山彝族自治州,凯乐南路30号,,28,28,28,10,10,80,80,72,61,9,9,4,7,0.4,0.5
2026-03-20T1200,2212A,123.1978,41.2036,辽阳市,宏伟区,细颗粒物(PM2.5),72,66,58,46,34,82,82,67,67,11,21,7,11,0.6,0.9
2026-03-20T1200,2213A,123.1684,41.2497,辽阳市,新华园,NA,NA,68,57,46,34,98,98,71,71,NA,27,6,9,0.6,0.8
2026-03-20T1200,2214A,123.2355,41.2663,辽阳市,滨河路,细颗粒物(PM2.5),70,68,53,45,33,92,92,62,62,14,24,6,9,0.6,0.7
2026-03-20T1200,4083A,123.153,41.2874,辽阳市,铁西路150号,细颗粒物(PM2.5),78,81,66,49,38,90,90,62,62,17,28,10,11,0.8,1
2026-03-20T1200,2227A,125.1359,42.8845,辽源市,环保局,颗粒物(PM10),54,55,63,34,24,94,94,77,77,9,8,6,4,0.5,0.5
2026-03-20T1200,4085A,125.0998,42.9134,辽源市,安宁大街333号,细颗粒物(PM2.5),68,56,69,44,30,98,98,74,74,9,8,4,3,0.5,0.5
2026-03-20T1200,1625A,115.9789,36.4372,聊城市,区政府,细颗粒物(PM2.5),115,129,102,76,55,96,96,62,62,13,20,13,11,0.7,0.6
2026-03-20T1200,3200A,115.9772,36.4986,聊城市,监控中心,细颗粒物(PM2.5),117,139,111,78,58,102,102,NA,NA,15,19,12,12,0.8,0.7
2026-03-20T1200,3513A,116.0443,36.436,聊城市,九州社区,细颗粒物(PM2.5),120,127,99,81,57,108,108,73,73,17,23,4,3,0.8,0.7
2026-03-20T1200,4018A,116.0564,36.4609,聊城市,星美广场,细颗粒物(PM2.5),126,142,113,88,60,96,96,64,64,10,16,9,6,NA,0.6
2026-03-20T1200,4113A,116.0091,36.4495,聊城市,利民路,NA,NA,NA,95,NA,49,105,105,71,71,NA,20,11,10,0.8,0.7
2026-03-20T1200,2632A,94.3683,29.6373,林芝市,林芝监测站,,24,7,7,3,6,76,76,68,60,3,2,2,4,0.4,0.4
2026-03-20T1200,2633A,94.3616,29.6634,林芝市,林芝人民医院,NA,NA,NA,10,NA,6,76,76,60,58,NA,2,5,5,0.4,0.5
2026-03-20T1200,2603A,100.0779,23.8981,临沧市,市环保局,细颗粒物(PM2.5),56,51,42,38,31,78,78,38,38,10,6,6,6,0.7,0.5
2026-03-20T1200,2604A,100.0894,23.882,临沧市,市气象局,细颗粒物(PM2.5),62,48,41,41,32,82,82,42,42,13,7,7,6,0.8,0.9
2026-03-20T1200,1733A,111.5552,36.0791,临汾市,临钢医院,颗粒物(PM10),117,163,118,62,42,89,89,31,31,21,26,14,9,NA,1
2026-03-20T1200,1734A,111.4984,36.0734,临汾市,技工学校,颗粒物(PM10),109,141,113,60,47,74,74,31,31,24,26,13,10,1.3,0.9
2026-03-20T1200,1736A,111.5017,36.0857,临汾市,市委,颗粒物(PM10),108,140,118,52,42,77,77,33,33,21,28,12,8,1.4,1
2026-03-20T1200,3018A,111.5048,36.1015,临汾市,唐尧大酒店,颗粒物(PM10),108,139,122,55,43,76,76,30,30,23,31,14,11,1.2,0.9
2026-03-20T1200,4244A,111.4879,36.053,临汾市,启星学校,颗粒物(PM10),109,143,116,55,47,74,74,28,28,28,34,14,8,1.3,0.9
2026-03-20T1200,4271A,103.2464,35.6123,临夏回族自治州,滨河东路1号,颗粒物(PM10),104,130,131,38,45,102,102,38,38,10,20,9,9,0.3,0.5
2026-03-20T1200,4310A,103.207136,35.599807,临夏回族自治州,新华街21号,颗粒物(PM10),107,138,122,48,42,75,75,49,45,8,9,8,7,0.9,0.9
2026-03-20T1200,1618A,118.3429,35.0532,临沂市,沂河小区,细颗粒物(PM2.5),104,124,111,64,74,97,97,43,43,17,26,11,13,0.5,0.5
2026-03-20T1200,1619A,118.2962,35.0568,临沂市,鲁南制药厂,NA,NA,NA,102,NA,74,NA,NA,33,33,22,31,12,14,0.5,0.5
2026-03-20T1200,1620A,118.2793,34.9976,临沂市,新光毛纺厂,细颗粒物(PM2.5),112,122,103,73,80,103,103,45,45,25,36,11,14,0.6,0.6
2026-03-20T1200,1621A,118.3955,35.0889,临沂市,河东保险公司,细颗粒物(PM2.5),102,112,103,62,71,108,108,39,39,25,35,12,12,0.4,0.5
2026-03-20T1200,3370A,118.3563,35.0215,临沂市,十里堡居委,细颗粒物(PM2.5),120,117,106,82,87,99,99,42,42,32,38,10,15,0.6,0.6
2026-03-20T1200,3496A,118.359,35.1067,临沂市,南坊新区,细颗粒物(PM2.5),103,112,94,63,74,108,108,55,55,14,21,11,12,0.4,0.5
2026-03-20T1200,3860A,118.3915,35.0297,临沂市,皇山花园小区,细颗粒物(PM2.5),116,119,111,77,86,98,98,45,45,28,38,13,15,0.6,0.6
2026-03-20T1200,1870A,109.4854,24.3898,柳州市,柳东小学,,38,35,39,26,27,26,26,26,19,10,11,6,7,0.8,0.8
2026-03-20T1200,1871A,109.4109,24.3304,柳州市,环保监测站,,33,33,45,20,25,16,16,20,16,19,17,7,9,1.1,1
2026-03-20T1200,1872A,109.3886,24.3408,柳州市,河西水厂,,43,43,49,26,29,15,15,17,14,18,17,20,19,1.6,1.1
2026-03-20T1200,1873A,109.4263,24.2951,柳州市,市四中,,34,34,42,23,28,20,20,25,21,12,12,9,10,0.6,0.7
2026-03-20T1200,1874A,109.396,24.3658,柳州市,市九中,,39,39,47,27,28,13,13,15,14,17,14,12,14,1.3,1
2026-03-20T1200,1875A,109.4912,24.3164,柳州市,古亭山,,46,33,41,32,30,19,19,36,23,12,11,8,8,0.8,0.8
2026-03-20T1200,3402A,109.5422,24.3994,柳州市,市二中,,38,38,40,20,29,22,22,42,32,16,14,6,6,0.9,0.8
2026-03-20T1200,2307A,116.5078,31.7369,六安市,监测大楼,细颗粒物(PM2.5),119,NA,86,80,84,85,85,61,58,21,20,4,3,0.6,0.6
2026-03-20T1200,2308A,116.4738,31.7642,六安市,皖西学院,细颗粒物(PM2.5),104,92,90,64,76,89,89,71,66,13,16,5,4,0.6,0.6
2026-03-20T1200,2309A,116.4997,31.7904,六安市,朝阳厂,细颗粒物(PM2.5),108,74,88,68,81,90,90,68,64,22,21,5,5,0.6,0.6
2026-03-20T1200,2310A,116.5566,31.7885,六安市,开发区,细颗粒物(PM2.5),116,NA,91,77,87,95,95,60,60,16,17,5,4,0.7,0.6
2026-03-20T1200,2577A,104.8293,26.592,六盘水市,黄土坡,,22,17,31,3,18,70,70,63,63,12,12,10,7,0.5,0.5
2026-03-20T1200,2579A,104.8481,26.5898,六盘水市,民中,,22,21,33,3,19,68,68,59,59,11,11,5,5,0.4,0.6
2026-03-20T1200,2580A,104.9541,26.5506,六盘水市,双水,,22,17,31,6,18,68,68,57,57,9,10,4,4,0.5,0.5
2026-03-20T1200,4151A,104.8899,26.5685,六盘水市,钟山大道中段564号,NA,NA,NA,37,NA,19,70,70,56,56,12,10,NA,8,1.1,0.8
2026-03-20T1200,2336A,117.022,25.1031,龙岩市,龙岩市监测站,,38,36,31,26,28,84,84,70,70,14,12,10,7,0.8,0.7
2026-03-20T1200,2337A,117.0257,25.0662,龙岩市,闽西职业技术学院,,31,31,32,20,25,81,81,64,64,11,12,10,8,0.7,0.6
2026-03-20T1200,2338A,117.0195,25.0306,龙岩市,龙岩学院,,34,34,35,22,26,89,89,65,65,8,10,8,7,/,/
2026-03-20T1200,2885A,104.9344,33.3827,陇南市,滨江中学,颗粒物(PM10),63,67,63,21,29,73,73,48,44,10,10,6,6,0.5,0.5
2026-03-20T1200,3247A,104.9551,33.3709,陇南市,市总工会,NA,NA,70,67,24,24,NA,NA,51,44,11,8,5,4,0.6,0.6
2026-03-20T1200,2488A,111.9984,27.7346,娄底市,市监测站,,27,27,34,13,26,35,35,41,41,28,15,11,16,0.7,0.7
2026-03-20T1200,2491A,111.9888,27.7035,娄底市,市政府,,25,20,29,17,35,43,43,44,44,18,13,4,5,0.5,0.5
2026-03-20T1200,4127A,111.9812,27.7591,娄底市,涟钢职大,,17,17,32,9,23,46,46,42,42,12,12,1,1,0.4,0.4
2026-03-20T1200,4128A,112.0303,27.7457,娄底市,娄底体校,,30,30,40,6,26,40,40,38,38,11,8,2,2,0.6,0.7
2026-03-20T1200,1894A,105.4427,28.9063,泸州市,小市上码头,,50,44,31,35,23,72,72,41,41,19,20,8,6,0.5,0.5
2026-03-20T1200,1895A,105.4241,28.8573,泸州市,兰田宪桥,,42,42,34,25,20,68,68,37,37,13,17,7,5,0.7,0.6
2026-03-20T1200,1896A,105.4378,28.8833,泸州市,市环监站,,45,45,43,28,24,76,76,43,43,20,23,18,7,0.6,0.6
2026-03-20T1200,4272A,105.3689,28.7783,泸州市,纳溪中医医院,颗粒物(PM10),54,55,39,27,20,85,85,41,41,16,17,11,7,0.7,0.7
2026-03-20T1200,2183A,111.1447,37.5212,吕梁市,环保局,颗粒物(PM10),69,76,58,17,18,75,75,36,36,31,39,8,6,0.6,0.3
2026-03-20T1200,2185A,111.1285,37.5338,吕梁市,自来水公司,颗粒物(PM10),69,76,77,26,25,75,75,30,30,33,33,9,7,0.8,0.4
2026-03-20T1200,2867A,111.1225,37.5093,吕梁市,马茂庄小学,颗粒物(PM10),70,77,63,21,20,69,69,28,28,32,40,8,5,0.8,0.4
2026-03-20T1200,1812A,112.3934,34.6517,洛阳市,市委党校,颗粒物(PM10),90,106,109,33,54,73,73,34,34,20,25,10,9,0.6,0.8
2026-03-20T1200,1815A,112.494,34.6883,洛阳市,河南林校,颗粒物(PM10),93,109,112,21,54,78,78,28,28,24,34,14,14,0.6,0.8
2026-03-20T1200,1816A,112.3843,34.623,洛阳市,开发区管委会,颗粒物(PM10),89,104,118,20,54,92,92,39,39,16,26,12,11,0.4,0.5
2026-03-20T1200,1817A,112.4263,34.6249,洛阳市,市委新办公区,颗粒物(PM10),93,110,115,38,60,77,77,37,37,20,23,10,10,0.5,0.6
2026-03-20T1200,3340A,112.6005,34.6323,洛阳市,伊滨,颗粒物(PM10),101,121,121,33,57,78,78,36,36,20,28,10,10,0.6,0.8
2026-03-20T1200,3341A,112.495,34.6338,洛阳市,中移产业园,颗粒物(PM10),92,108,112,36,56,73,73,29,29,21,26,7,13,0.4,0.6
2026-03-20T1200,3593A,112.5736,34.8993,洛阳市,吉利监测站,NA,NA,94,96,19,44,93,93,49,49,NA,34,8,9,NA,0.5
2026-03-20T1200,3635A,112.3678,34.6623,洛阳市,河科大西苑校区,颗粒物(PM10),91,107,114,37,57,80,80,36,36,25,31,11,10,0.7,0.9
2026-03-20T1200,3636A,112.4387,34.678,洛阳市,英才小学,颗粒物(PM10),102,123,121,29,56,76,76,26,26,26,38,13,13,0.6,0.8
2026-03-20T1200,4214A,112.460027,34.694929,洛阳市,春都路1号院,颗粒物(PM10),107,138,127,38,55,76,76,26,26,23,31,11,11,0.7,0.9
2026-03-20T1200,2399A,114.051,33.5721,漯河市,三五一五工厂,颗粒物(PM10),103,127,117,48,60,87,87,49,49,12,21,7,5,0.5,0.6
2026-03-20T1200,2400A,114.0055,33.5698,漯河市,漯河大学,NA,NA,107,103,59,70,87,87,49,49,15,19,8,6,NA,0.6
2026-03-20T1200,2401A,114.0134,33.5826,漯河市,市水利局,颗粒物(PM10),93,110,105,51,66,82,82,50,50,13,18,8,6,0.6,0.6
2026-03-20T1200,2402A,114.0261,33.5697,漯河市,市广电局,颗粒物(PM10),91,107,102,50,68,85,85,54,54,10,16,8,6,0.6,0.6
2026-03-20T1200,3478A,113.9691,33.568,漯河市,市图书馆,颗粒物(PM10),102,124,119,49,66,79,79,52,52,12,17,7,6,0.6,0.6
2026-03-20T1200,4250A,114.089259,33.588274,漯河市,韶山路11号,颗粒物(PM10),102,125,111,51,63,80,80,50,50,12,17,9,7,0.4,0.4
2026-03-20T1200,1798A,118.5084,31.6838,马鞍山市,湖东路四小,细颗粒物(PM2.5),117,101,111,78,92,115,115,60,60,18,31,6,7,0.7,0.8
2026-03-20T1200,1799A,118.5019,31.6449,马鞍山市,开发区,细颗粒物(PM2.5),132,120,129,95,94,111,111,54,54,21,35,6,6,0.6,0.7
2026-03-20T1200,3633A,118.4914,31.681,马鞍山市,雨山,细颗粒物(PM2.5),112,105,117,73,81,119,119,66,66,16,27,6,6,0.7,0.7
2026-03-20T1200,4191A,118.527362,31.722269,马鞍山市,慈湖高新区,细颗粒物(PM2.5),121,108,119,83,84,118,118,65,65,18,30,6,6,0.6,0.6
2026-03-20T1200,1686A,111.0285,21.469,茂名市,电白南海,,34,34,30,11,10,68,68,47,47,8,10,6,6,0.7,0.6
2026-03-20T1200,1687A,110.9294,21.6533,茂名市,茂石化七小,,39,39,32,13,15,66,66,44,44,10,13,6,8,0.4,0.5
2026-03-20T1200,1688A,110.9108,21.6688,茂名市,健康路,,27,27,24,12,13,71,71,49,49,9,12,4,6,0.5,0.5
2026-03-20T1200,1689A,110.8592,21.6826,茂名市,高岭,,48,48,36,13,13,72,72,52,52,10,12,4,8,/,/
2026-03-20T1200,3450A,111.0101,21.5165,茂名市,电白水东,,24,24,22,6,14,66,66,45,45,11,12,4,4,/,/
2026-03-20T1200,2540A,103.8414,30.0871,眉山市,气象局,颗粒物(PM10),53,53,60,26,21,68,68,25,21,21,19,8,7,0.6,0.5
2026-03-20T1200,3148A,103.829,30.0563,眉山市,区人社局,颗粒物(PM10),67,73,63,42,29,57,57,29,25,29,23,16,9,0.9,0.6
2026-03-20T1200,4148A,103.8836,30.0695,眉山市,眉职院,颗粒物(PM10),56,58,62,28,28,65,65,28,24,17,18,10,6,0.7,0.6
2026-03-20T1200,1690A,116.1248,24.3307,梅州市,梅江月梅,,25,14,33,8,26,80,80,77,69,10,13,/,/,/,/
2026-03-20T1200,1691A,116.0798,24.2719,梅州市,梅县新城,颗粒物(PM10),60,64,39,27,21,75,75,68,55,16,16,9,8,0.6,0.6
2026-03-20T1200,3315A,116.1234,24.2994,梅州市,梅龙,,25,19,32,12,24,77,77,69,60,8,11,7,8,0.6,0.7
2026-03-20T1200,1878A,104.7775,31.4741,绵阳市,富乐山,颗粒物(PM10),63,67,48,25,24,43,43,13,13,28,26,8,6,0.7,0.7
2026-03-20T1200,1880A,104.6698,31.4668,绵阳市,高新区自来水公司,颗粒物(PM10),60,63,70,27,30,54,54,15,15,18,33,13,10,0.6,0.7
2026-03-20T1200,3491A,104.6899,31.5324,绵阳市,西科大附属小学,颗粒物(PM10),63,67,65,31,29,40,40,10,10,21,31,10,8,0.7,0.7
2026-03-20T1200,3492A,104.5647,31.5343,绵阳市,安州区旅游局,颗粒物(PM10),65,70,68,31,29,54,54,17,17,25,18,8,7,0.5,0.5
2026-03-20T1200,4146A,104.7092,31.4972,绵阳市,科技城新区公安局,颗粒物(PM10),65,70,62,29,26,38,38,14,14,26,30,9,7,0.7,0.7
2026-03-20T1200,4226A,104.765114,31.453094,绵阳市,绵阳市气象局,颗粒物(PM10),58,61,58,31,28,35,35,9,9,35,36,9,8,0.7,0.6
2026-03-20T1200,1784A,129.61,44.561,牡丹江市,环保大楼,,49,49,83,17,58,89,89,84,81,8,14,1,2,0.4,0.5
2026-03-20T1200,1787A,129.6364,44.6075,牡丹江市,机车工厂,NA,NA,48,93,NA,71,86,86,77,77,9,17,5,4,0.5,0.8
2026-03-20T1200,1788A,129.6386,44.5462,牡丹江市,第一中学,,31,31,76,21,60,85,85,78,78,6,14,2,3,0.3,0.4
2026-03-20T1200,4287A,129.5992,44.5964,牡丹江市,东晓云街98号,,36,36,88,14,68,88,88,83,79,5,8,1,2,0.5,0.6
2026-03-20T1200,2531A,105.0703,29.61,内江市,市监测站,细颗粒物(PM2.5),56,48,51,38,26,75,75,44,40,16,17,8,7,0.4,0.5
2026-03-20T1200,2533A,105.0657,29.5807,内江市,内江二中,颗粒物(PM10),73,82,58,37,26,64,64,41,35,29,24,10,8,0.4,0.4
2026-03-20T1200,2534A,105.0407,29.5828,内江市,内江日报社,细颗粒物(PM2.5),58,40,47,39,27,69,69,34,28,22,21,11,11,0.4,0.4
2026-03-20T1200,4147A,105.0433,29.6105,内江市,玉峰路西段888号,细颗粒物(PM2.5),52,51,48,36,29,79,79,50,49,21,19,8,7,0.4,0.4
2026-03-20T1200,2628A,92.0653,31.4846,那曲市,那曲监测站,,38,32,61,26,33,74,74,41,41,9,29,7,14,0.5,1.4
2026-03-20T1200,4243A,92.0515,31.4787,那曲市,那曲市委宣传部,NA,NA,NA,28,12,20,81,81,44,44,NA,17,6,12,0.4,0.9
2026-03-20T1200,1291A,115.8887,28.7006,南昌市,省林业公司,,42,31,48,29,49,48,48,42,42,16,22,4,4,0.5,0.6
2026-03-20T1200,1292A,115.813,28.7443,南昌市,林科所,,34,34,51,23,39,46,46,52,49,21,23,7,8,0.5,0.5
2026-03-20T1200,1294A,115.8518,28.687,南昌市,建工学校,颗粒物(PM10),53,54,74,36,53,44,44,50,50,27,28,8,8,1.0,0.9
2026-03-20T1200,1295A,115.8926,28.6425,南昌市,象湖,NA,NA,34,55,NA,51,45,45,48,48,20,24,7,8,1.0,0.9
2026-03-20T1200,3046A,115.9084,28.6062,南昌市,机电学校,,49,48,72,34,52,45,45,49,49,22,25,4,4,0.8,0.7
2026-03-20T1200,3690A,115.9718,28.7032,南昌市,外国语学校,细颗粒物(PM2.5),68,NA,55,44,52,50,50,47,47,17,24,7,7,0.9,0.8
2026-03-20T1200,4106A,115.7923,28.6873,南昌市,工业二路,颗粒物(PM10),55,56,68,31,47,43,43,49,48,26,26,4,4,0.9,0.8
2026-03-20T1200,4192A,115.931587,28.686774,南昌市,南京东路235号,颗粒物(PM10),56,58,67,32,51,56,56,50,50,9,17,5,5,0.8,0.7
2026-03-20T1200,1906A,106.0791,30.8022,南充市,南充市委,,37,37,31,20,16,36,36,22,17,22,18,7,6,0.7,0.6
2026-03-20T1200,1907A,106.1038,30.8215,南充市,南充炼油厂,,38,38,38,19,15,38,38,25,18,20,16,6,5,0.6,0.5
2026-03-20T1200,4227A,106.108336,30.788436,南充市,梨树横街98号,,33,33,30,20,16,44,44,30,23,15,16,6,6,0.3,0.3
2026-03-20T1200,4304A,106.1172,30.843,南充市,清泉寺北路188号,,27,27,27,15,11,35,35,32,22,19,12,6,6,0.6,0.4
2026-03-20T1200,4305A,106.067,30.7616,南充市,同庆路1号,,38,38,30,12,9,33,33,25,17,15,17,8,6,0.6,0.5
2026-03-20T1200,1151A,118.8033,32.1085,南京市,迈皋桥,细颗粒物(PM2.5),122,100,104,84,86,136,136,67,67,10,27,7,7,0.4,0.5
2026-03-20T1200,1152A,118.7487,32.057,南京市,草场门,NA,NA,97,102,NA,74,118,118,55,55,34,49,8,8,0.5,0.7
2026-03-20T1200,1154A,118.770105,32.004342,南京市,中华门,细颗粒物(PM2.5),117,97,105,78,85,119,119,46,46,21,30,5,5,0.7,0.7
2026-03-20T1200,1155A,118.8059,32.0329,南京市,瑞金路,NA,NA,114,114,NA,90,NA,NA,30,30,16,25,NA,5,1.0,1.1
2026-03-20T1200,1156A,118.7946,32.0774,南京市,玄武湖,细颗粒物(PM2.5),111,105,112,72,84,118,118,55,55,12,24,8,7,0.9,1
2026-03-20T1200,1157A,118.6415,32.0964,南京市,浦口,细颗粒物(PM2.5),125,132,131,87,93,104,104,58,58,27,29,5,4,0.5,0.6
2026-03-20T1200,1158A,118.730129,32.000956,南京市,奥体中心,细颗粒物(PM2.5),115,104,111,76,78,119,119,52,52,26,44,6,5,0.5,0.6
2026-03-20T1200,1159A,118.9072,32.1047,南京市,仙林大学城,细颗粒物(PM2.5),118,107,102,79,82,115,115,51,51,20,29,8,6,0.7,0.7
2026-03-20T1200,3422A,118.8443,31.919,南京市,江宁彩虹桥,细颗粒物(PM2.5),119,121,118,80,75,114,114,37,37,27,47,NA,4,1.0,0.9
2026-03-20T1200,3427A,118.8497,32.3599,南京市,六合雄州,细颗粒物(PM2.5),130,122,101,92,80,95,95,27,27,38,48,5,4,0.8,0.7
2026-03-20T1200,4086A,118.7641,32.0841,南京市,新模范马路66号,细颗粒物(PM2.5),105,105,107,65,78,125,125,52,52,21,31,4,4,1.0,1.2
2026-03-20T1200,4249A,118.8707617,31.34017673,南京市,汶溪路181号,细颗粒物(PM2.5),106,113,117,66,76,115,115,54,54,18,32,7,6,0.2,0.4
2026-03-20T1200,4312A,119.019,31.6512,南京市,中山西路1号,细颗粒物(PM2.5),113,90,103,74,80,102,102,38,38,13,22,4,4,0.6,0.8
2026-03-20T1200,1401A,108.3098,22.788,南宁市,二十一中,,33,33,37,22,22,47,47,46,42,9,12,4,6,0.6,0.6
2026-03-20T1200,1402A,108.3135,22.8529,南宁市,北湖,,42,NA,39,29,27,47,47,48,45,9,12,2,4,0.6,0.7
2026-03-20T1200,1403A,108.3205,22.8222,南宁市,市监测站,,38,32,48,26,21,45,45,47,42,3,6,2,3,0.6,0.6
2026-03-20T1200,1404A,108.3828,22.8038,南宁市,大自然花园,,36,36,41,25,23,50,50,52,46,9,12,6,7,0.4,0.4
2026-03-20T1200,1406A,108.2397,22.8462,南宁市,区农职院,NA,NA,NA,50,NA,21,NA,NA,45,NA,NA,12,NA,7,NA,0.4
2026-03-20T1200,1407A,108.3285,22.7356,南宁市,英华嘉园,,50,50,48,21,22,47,47,38,38,9,16,4,6,0.7,0.8
2026-03-20T1200,3401A,108.4829,22.762,南宁市,红星社区,,28,28,39,17,21,52,52,52,45,8,11,5,7,0.6,0.6
2026-03-20T1200,4132A,108.2927,23.1477,南宁市,起凤路9号,,40,40,41,27,26,47,47,50,46,8,10,3,4,0.4,0.5
2026-03-20T1200,4221A,108.2177,22.7774,南宁市,乐贤路16号,,42,42,41,25,21,41,41,30,29,12,17,4,7,0.5,0.6
2026-03-20T1200,2332A,118.1682,26.6371,南平市,南平市监测站,NA,NA,24,18,21,14,58,58,50,46,NA,10,NA,4,0.9,0.8
2026-03-20T1200,2334A,118.1757,26.6276,南平市,南平七中,,20,18,19,13,13,62,62,52,52,9,9,3,3,0.8,0.7
2026-03-20T1200,1168A,120.9056,31.9669,南通市,狼山街道,颗粒物(PM10),80,91,50,48,21,110,110,54,54,19,26,4,4,0.6,0.4
2026-03-20T1200,1170A,120.8635,32.0231,南通市,城中,颗粒物(PM10),81,93,51,49,21,107,107,64,64,17,18,5,4,0.8,0.6
2026-03-20T1200,1171A,120.9376,31.9301,南通市,星湖花园,颗粒物(PM10),72,80,46,44,19,110,110,62,62,14,23,4,4,0.6,0.5
2026-03-20T1200,1172A,120.8053,32.046,南通市,紫琅学院,细颗粒物(PM2.5),82,83,53,51,21,98,98,47,47,32,28,7,5,0.9,0.7
2026-03-20T1200,3291A,121.0631,32.0644,南通市,通州监测站,细颗粒物(PM2.5),70,68,37,45,14,114,114,80,80,10,14,4,3,0.5,0.4
2026-03-20T1200,3432A,120.9348,31.9874,南通市,环境教育馆,NA,NA,NA,45,NA,14,113,113,32,32,15,31,4,4,0.6,0.5
2026-03-20T1200,4091A,120.8692,31.9885,南通市,洪江路,细颗粒物(PM2.5),78,83,44,49,21,68,68,53,53,49,26,6,4,1.0,0.7
2026-03-20T1200,2404A,112.5338,33.0086,南阳市,瓦房庄,细颗粒物(PM2.5),98,113,98,59,56,63,63,38,29,20,17,7,5,0.8,0.7
2026-03-20T1200,2405A,112.5002,32.9734,南阳市,汉画馆,细颗粒物(PM2.5),115,120,107,76,73,53,53,27,22,21,22,8,6,1.0,0.7
2026-03-20T1200,2406A,112.5778,33.0144,南阳市,气象站,颗粒物(PM10),105,132,118,56,59,69,69,38,32,20,17,113,10,0.8,0.7
2026-03-20T1200,2407A,112.548,32.9687,南阳市,理工学院,细颗粒物(PM2.5),96,109,102,58,65,61,61,25,23,18,18,8,6,0.8,0.7
2026-03-20T1200,4008A,112.5233,32.9921,南阳市,卧龙区政府,细颗粒物(PM2.5),102,116,111,62,64,50,50,30,22,22,17,8,7,0.8,0.7
2026-03-20T1200,1234A,121.8352,29.9111,宁波市,区环保大楼,颗粒物(PM10),70,78,66,42,37,121,121,52,52,20,46,9,8,0.7,0.5
2026-03-20T1200,1235A,121.5595,29.8208,宁波市,万里学院,细颗粒物(PM2.5),76,76,84,48,54,102,102,65,65,39,29,8,6,0.7,0.6
2026-03-20T1200,1236A,121.713,29.9564,宁波市,龙赛医院,颗粒物(PM10),61,65,68,34,38,109,109,59,59,24,35,5,6,0.4,0.5
2026-03-20T1200,1240A,121.5855,29.8635,宁波市,太古小学,细颗粒物(PM2.5),76,76,76,48,46,95,95,59,59,44,37,8,6,0.6,0.6
2026-03-20T1200,1241A,121.5239,29.8673,宁波市,市环境监测中心,细颗粒物(PM2.5),80,78,75,50,49,117,117,66,66,34,30,9,8,0.7,0.6
2026-03-20T1200,2871A,121.6156,29.9015,宁波市,万里国际学校,细颗粒物(PM2.5),68,70,70,44,44,112,112,62,62,37,33,8,8,0.5,0.5
2026-03-20T1200,3710A,121.5593,29.8976,宁波市,白沙活动中心,细颗粒物(PM2.5),82,72,61,51,49,132,132,73,73,30,31,7,7,0.5,0.5
2026-03-20T1200,4095A,121.8962,29.7529,宁波市,中科路88号,,39,39,54,20,38,94,94,59,59,27,32,6,7,0.4,0.6
2026-03-20T1200,2341A,119.5387,26.6611,宁德市,宁德市监测站,,44,44,23,26,15,103,103,87,82,18,15,6,4,0.7,0.6
2026-03-20T1200,3209A,119.5231,26.6562,宁德市,宁德一中,颗粒物(PM10),53,53,23,33,18,96,96,81,81,17,13,11,5,1.0,0.4
2026-03-20T1200,2618A,98.859,25.8541,怒江傈僳族自治州,州监测站,,29,29,33,17,17,48,48,34,33,12,12,7,7,0.6,0.6
2026-03-20T1200,2619A,98.8607,25.8168,怒江傈僳族自治州,泸水一中,,46,46,32,24,21,40,40,20,20,14,21,5,5,0.4,0.5
2026-03-20T1200,1888A,101.6891,26.571,攀枝花市,弄弄坪,颗粒物(PM10),55,56,44,24,19,102,102,76,75,14,16,14,20,0.6,1.1
2026-03-20T1200,1889A,101.577,26.5914,攀枝花市,河门口,,50,50,45,28,22,104,104,59,52,16,14,24,16,1.6,0.8
2026-03-20T1200,1891A,101.7365,26.4986,攀枝花市,仁和,,32,25,33,21,22,100,100,66,66,6,9,10,9,0.6,0.6
2026-03-20T1200,2835A,101.7222,26.567,攀枝花市,四十中小,,44,44,34,24,21,110,110,60,60,13,19,23,10,0.6,0.7
2026-03-20T1200,1604A,122.0303,41.1489,盘锦市,开发区,,36,31,40,25,29,91,91,78,78,17,25,5,6,0.4,0.5
2026-03-20T1200,1605A,122.0486,41.0883,盘锦市,兴隆台,,35,33,36,24,30,90,90,78,78,14,23,6,6,0.3,0.4
2026-03-20T1200,1606A,121.8297,41.1026,盘锦市,新生街道,,40,NA,35,28,28,90,90,66,66,15,29,6,7,0.3,0.5
2026-03-20T1200,1832A,113.3257,33.7423,平顶山市,新华旅馆,颗粒物(PM10),95,113,122,24,67,96,96,53,53,9,19,4,3,0.3,0.5
2026-03-20T1200,1833A,113.2917,33.737,平顶山市,规划设计院,颗粒物(PM10),81,93,131,27,66,90,90,40,40,9,22,7,6,0.4,0.7
2026-03-20T1200,1834A,113.182,33.7738,平顶山市,平顶山工学院,NA,NA,94,118,NA,61,84,84,39,39,11,18,6,4,0.6,0.6
2026-03-20T1200,3594A,112.8736,33.9068,平顶山市,石龙区,颗粒物(PM10),76,86,115,22,59,104,104,49,49,15,38,9,8,0.3,0.6
2026-03-20T1200,4116A,113.284,33.7139,平顶山市,姚电大道23号,颗粒物(PM10),79,90,128,28,62,84,84,37,37,19,29,8,6,0.4,0.6
2026-03-20T1200,2656A,106.6633,35.5338,平凉市,聚贤嘉苑,颗粒物(PM10),113,152,131,32,37,88,88,56,56,11,21,8,6,0.4,0.4
2026-03-20T1200,2657A,106.7021,35.5307,平凉市,博物馆,颗粒物(PM10),109,143,129,41,44,89,89,52,52,11,20,14,11,0.2,0.4
2026-03-20T1200,2348A,113.8384,27.6436,萍乡市,中医院,,35,25,31,24,20,48,48,51,49,17,12,3,3,0.8,0.8
2026-03-20T1200,2350A,113.8677,27.6438,萍乡市,市环保局,,33,28,26,23,22,55,55,56,54,15,12,4,4,0.7,0.7
2026-03-20T1200,2351A,113.8663,27.6202,萍乡市,安源区政府,,38,27,30,26,25,41,41,38,37,16,18,4,5,0.6,0.9
2026-03-20T1200,4107A,113.8686,27.6668,萍乡市,联洪村委会,,42,36,30,29,21,45,45,46,46,19,11,1,2,0.4,0.4
2026-03-20T1200,2319A,119.0142,25.4324,莆田市,荔城区仓后路,细颗粒物(PM2.5),54,49,29,37,15,98,98,83,82,21,17,/,/,/,/
2026-03-20T1200,2320A,119.0016,25.4553,莆田市,莆田市监测站,细颗粒物(PM2.5),60,51,29,40,15,98,98,87,85,19,12,4,3,0.4,0.4
2026-03-20T1200,2321A,119.112,25.4561,莆田市,涵江区六中,NA,NA,NA,26,NA,13,106,106,90,90,NA,14,/,/,0.5,0.4
2026-03-20T1200,2322A,119.1014,25.3215,莆田市,秀屿区政府,细颗粒物(PM2.5),52,45,29,36,17,123,123,103,103,12,11,6,4,0.5,0.4
2026-03-20T1200,2392A,115.0312,35.7636,濮阳市,环保局,细颗粒物(PM2.5),119,130,90,80,54,93,93,43,43,14,16,10,6,0.7,0.6
2026-03-20T1200,3021A,115,35.7667,濮阳市,濮水河管理处,细颗粒物(PM2.5),120,152,108,81,56,99,99,43,43,16,16,12,8,0.8,0.6
2026-03-20T1200,4118A,115.0552,35.7816,濮阳市,中原东路68号,细颗粒物(PM2.5),119,156,108,80,54,92,92,44,44,14,15,10,6,0.6,0.5
2026-03-20T1200,4216A,115.0923632,35.76857718,濮阳市,任丘路479号,细颗粒物(PM2.5),117,135,103,78,57,96,96,45,45,20,22,11,6,0.6,0.5
2026-03-20T1200,2601A,100.9801,22.7634,普洱市,市环保局,颗粒物(PM10),65,70,85,25,38,117,117,67,67,9,11,7,7,0.5,0.5
2026-03-20T1200,2602A,100.9763,22.8237,普洱市,普洱第二中学,颗粒物(PM10),65,70,87,31,43,114,114,51,51,11,19,7,7,0.5,0.6
2026-03-20T1200,3345A,131.0413,45.7795,七台河市,中波台,,49,49,39,34,28,95,95,75,75,8,13,4,5,0.3,0.4
2026-03-20T1200,3637A,131.0136,45.7688,七台河市,人民广场,,46,46,46,22,23,89,89,66,66,9,17,9,8,0.4,0.4
2026-03-20T1200,3684A,130.8639,45.8144,七台河市,新建矿广场,颗粒物(PM10),60,63,46,29,27,90,90,68,68,8,15,4,6,0.1,0.2
2026-03-20T1200,1779A,123.9307,47.3641,齐齐哈尔市,安居小区,,49,49,57,27,37,93,93,64,64,9,14,5,5,0.5,0.5
2026-03-20T1200,1780A,123.9497,47.3389,齐齐哈尔市,中心广场,细颗粒物(PM2.5),62,62,50,41,33,96,96,70,70,11,13,10,9,0.4,0.5
2026-03-20T1200,1781A,123.9483,47.3229,齐齐哈尔市,农牧车辆厂,细颗粒物(PM2.5),107,80,56,67,40,NA,NA,51,48,10,11,8,7,0.2,0.4
2026-03-20T1200,1783A,123.9442,47.2994,齐齐哈尔市,市环境监测站,NA,NA,86,64,58,39,NA,NA,51,50,11,13,NA,3,0.5,0.5
2026-03-20T1200,3662A,123.6341,47.2079,齐齐哈尔市,富区青少年活动中心,细颗粒物(PM2.5),80,70,75,50,54,89,89,59,59,12,17,5,5,0.7,0.9
2026-03-20T1200,2591A,107.9765,26.5724,黔东南苗族侗族自治州,市环境监测站,,18,18,22,6,15,48,48,54,51,12,10,2,2,0.6,0.6
2026-03-20T1200,2881A,107.8909,26.531,黔东南苗族侗族自治州,凯里学院,,19,14,17,13,14,48,48,54,50,12,10,4,4,0.8,0.8
2026-03-20T1200,2593A,107.5223,26.2371,黔南布依族苗族自治州,小围寨,,22,NA,8,15,9,30,30,44,39,8,6,4,4,0.8,0.5
2026-03-20T1200,3538A,107.5175,26.2977,黔南布依族苗族自治州,沙坝,,22,22,17,13,8,29,29,38,34,10,7,5,4,0.8,0.8
2026-03-20T1200,2589A,104.9022,25.0943,黔西南布依族苗族自治州,场坝街,,32,31,37,22,28,42,42,70,45,12,8,8,6,0.6,0.4
2026-03-20T1200,2590A,104.8812,25.0994,黔西南布依族苗族自治州,坪东大道,,35,35,41,20,29,39,39,62,40,13,12,8,6,0.7,0.6
2026-03-20T1200,2502A,108.6238,21.9667,钦州市,市环保站,,31,31,40,11,15,40,40,46,36,12,18,3,6,0.5,0.5
2026-03-20T1200,2503A,108.655,21.9481,钦州市,沙埠小学,,37,37,43,16,18,40,40,28,27,10,22,4,4,0.5,0.4
2026-03-20T1200,2504A,108.5989,21.7435,钦州市,港区一小,,41,41,46,12,17,58,58,52,48,7,10,2,3,0.4,0.5
2026-03-20T1200,3404A,108.5959,21.9634,钦州市,北职校,,38,38,37,24,18,41,41,42,35,11,18,4,8,0.4,0.5
2026-03-20T1200,1046A,119.5247,39.9346,秦皇岛市,建设大厦,,38,38,72,11,31,77,77,54,54,2,22,8,11,0.3,0.5
2026-03-20T1200,3132A,119.5979,39.938,秦皇岛市,文明里,,44,44,78,8,33,74,74,47,47,8,31,11,13,0.3,0.6
2026-03-20T1200,4066A,119.7458,39.9952,秦皇岛市,南园路157号,NA,NA,37,75,14,36,76,76,37,37,NA,46,9,11,0.4,0.6
2026-03-20T1200,4067A,119.5131,39.8858,秦皇岛市,翠岛大街1号,,27,27,73,7,38,73,73,50,50,11,28,9,11,0.3,0.5
2026-03-20T1200,4198A,119.509013,39.825305,秦皇岛市,北戴河轮滑馆,,29,29,71,13,36,77,77,56,56,13,28,9,9,0.3,0.5
2026-03-20T1200,1310A,120.404,36.0625,青岛市,市南区东部子站,细颗粒物(PM2.5),119,110,43,80,25,71,71,68,62,42,18,13,9,0.7,0.5
2026-03-20T1200,1311A,120.362344,36.10282,青岛市,四方区子站,细颗粒物(PM2.5),117,119,45,78,27,109,109,63,63,33,21,11,6,0.9,0.7
2026-03-20T1200,1312A,120.294373,36.054183,青岛市,市南区西部子站,细颗粒物(PM2.5),126,117,41,88,29,78,78,63,57,46,22,7,4,0.9,0.6
2026-03-20T1200,1313A,120.4581,36.0858,青岛市,崂山区子站,细颗粒物(PM2.5),90,70,37,55,23,63,63,63,56,48,25,11,8,0.6,0.5
2026-03-20T1200,1315A,120.3945,36.3083,青岛市,城阳区子站,细颗粒物(PM2.5),104,105,56,64,32,123,123,62,62,24,28,10,7,0.8,0.7
2026-03-20T1200,3642A,120.3454,36.0735,青岛市,市北区南部,细颗粒物(PM2.5),106,120,39,66,23,91,91,66,60,39,13,9,4,0.9,0.7
2026-03-20T1200,3643A,120.3897,36.18,青岛市,李沧区北部,细颗粒物(PM2.5),104,100,48,64,27,122,122,76,76,26,22,13,9,0.7,0.6
2026-03-20T1200,4110A,120.5222,36.4089,青岛市,盟旺路653号,NA,NA,98,56,56,34,NA,NA,72,71,10,14,7,4,0.8,0.8
2026-03-20T1200,4290A,120.196923,35.954556,青岛市,珠江路669号,细颗粒物(PM2.5),112,105,48,73,32,116,116,58,49,38,30,11,7,0.6,0.6
2026-03-20T1200,4291A,120.0424,35.8656,青岛市,黄岛区人民政府广场,细颗粒物(PM2.5),116,114,49,77,27,72,72,36,36,49,25,13,8,0.9,0.6
2026-03-20T1200,1703A,113.0218,23.7086,清远市,凤城街办,"颗粒物(PM10),细颗粒物(PM2.5)",56,58,54,38,33,33,33,44,30,51,26,/,/,/,/
2026-03-20T1200,3025A,113.0479,23.6343,清远市,技师学院,颗粒物(PM10),64,69,60,38,33,42,42,30,23,41,32,9,10,0.6,0.7
2026-03-20T1200,3318A,112.9898,23.7403,清远市,清新太和,NA,NA,66,52,39,30,NA,NA,41,25,45,28,NA,8,0.6,0.6
2026-03-20T1200,3455A,113.076,23.72,清远市,清城东城,颗粒物(PM10),58,61,55,35,31,57,57,47,38,31,22,/,/,/,/
2026-03-20T1200,2661A,107.6325,35.7357,庆阳市,庆阳五中,NA,NA,147,127,NA,35,87,87,70,69,10,15,7,6,NA,0.4
2026-03-20T1200,2662A,107.6361,35.7067,庆阳市,市环保局,颗粒物(PM10),100,119,120,44,43,94,94,82,82,10,16,7,10,0.1,0.2
2026-03-20T1200,1916A,103.7897,25.5036,曲靖市,环境监测站,,39,29,41,13,20,122,122,103,103,8,10,7,7,0.4,0.4
2026-03-20T1200,1917A,103.8013,25.5357,曲靖市,烟厂办公区,,45,45,42,19,19,107,107,87,83,5,8,4,4,0.5,0.4
2026-03-20T1200,3376A,103.7926,25.4651,曲靖市,南苑二区,,33,26,37,12,19,104,104,92,92,12,11,5,4,0.3,0.3
2026-03-20T1200,3377A,103.7442,25.5259,曲靖市,曲靖师范学院,,35,31,43,13,23,111,111,86,86,6,10,3,3,0.4,0.3
2026-03-20T1200,1264A,118.8694,28.94,衢州市,环保大楼,细颗粒物(PM2.5),72,66,41,46,31,61,61,51,51,24,21,/,/,/,/
2026-03-20T1200,1266A,118.8622,28.9809,衢州市,衢州学院,细颗粒物(PM2.5),72,60,36,46,29,73,73,47,47,18,23,4,4,0.7,0.7
2026-03-20T1200,4097A,118.9646,28.9832,衢州市,衢州三中,细颗粒物(PM2.5),78,68,42,49,29,56,56,45,45,24,23,6,6,0.6,0.6
2026-03-20T1200,1611A,118.5818,24.9116,泉州市,涂山街,,38,38,28,25,16,78,78,65,65,15,17,4,4,0.6,0.7
2026-03-20T1200,1612A,118.597,24.8976,泉州市,津头埔,,39,39,29,26,18,86,86,71,71,15,16,4,4,0.6,0.6
2026-03-20T1200,1613A,118.6669,24.9422,泉州市,万安,,45,45,32,26,18,79,79,68,68,14,15,5,5,0.6,0.6
2026-03-20T1200,4105A,118.6355,24.9148,泉州市,霞新路6号,,41,41,28,27,17,78,78,64,63,12,17,/,/,0.5,0.6
2026-03-20T1200,2626A,88.8873,29.2723,日喀则市,日喀则监测站,,31,18,16,6,8,98,98,86,82,5,7,7,7,0.4,0.4
2026-03-20T1200,3726A,88.8775,29.2425,日喀则市,林业技术推广中心,,30,24,16,7,5,95,95,85,85,4,4,9,8,0.4,0.4
2026-03-20T1200,1659A,119.4711,35.421,日照市,监测站,细颗粒物(PM2.5),114,100,62,75,34,110,110,31,31,28,39,12,10,0.9,0.9
2026-03-20T1200,1660A,119.523,35.4216,日照市,市政府广场,细颗粒物(PM2.5),125,105,66,87,42,101,101,42,42,25,38,10,8,0.7,0.7
2026-03-20T1200,1661A,119.5511,35.4113,日照市,港务局,NA,NA,NA,70,NA,33,63,63,22,22,NA,49,NA,6,1.0,0.8
2026-03-20T1200,3507A,119.5326,35.4627,日照市,职业技术学院,细颗粒物(PM2.5),125,117,69,87,44,99,99,51,51,31,38,11,9,0.9,0.9
2026-03-20T1200,3604A,119.3267,35.1043,日照市,岚山环保分局,细颗粒物(PM2.5),109,105,95,69,60,110,110,59,59,28,31,16,17,1.1,1.1
2026-03-20T1200,1835A,111.1922,34.7752,三门峡市,市政府,颗粒物(PM10),103,127,101,49,38,54,54,18,18,32,36,24,12,0.7,0.6
2026-03-20T1200,1836A,111.1588,34.794,三门峡市,开发区,"颗粒物(PM10),细颗粒物(PM2.5)",103,127,117,63,45,56,56,22,22,27,26,23,12,0.6,0.4
2026-03-20T1200,3039A,111.1911,34.7829,三门峡市,三门峡市第一小学,颗粒物(PM10),110,146,116,51,41,58,58,20,20,32,36,30,16,0.7,0.6
2026-03-20T1200,3598A,111.1031,34.719,三门峡市,富达温泉假日酒店,颗粒物(PM10),110,145,127,54,50,50,50,18,18,33,31,20,17,0.7,0.7
2026-03-20T1200,2324A,117.621,26.2626,三明市,三钢,,49,43,27,34,28,48,48,49,44,18,14,6,9,0.8,0.8
2026-03-20T1200,2325A,117.6352,26.2714,三明市,三明二中,,43,30,27,30,22,45,45,47,43,17,12,6,7,0.8,0.8
2026-03-20T1200,2326A,117.6028,26.2377,三明市,三元区政府,,50,NA,27,35,27,49,49,51,45,17,14,9,10,1.0,1.1
2026-03-20T1200,1877A,109.4962,18.2682,三亚市,河西子站,,23,23,21,12,12,68,68,46,46,4,6,4,4,0.3,0.4
2026-03-20T1200,3540A,109.7348,18.3443,三亚市,君悦子站,,26,26,23,7,11,69,69,40,40,3,8,4,4,0.4,0.4
2026-03-20T1200,4135A,109.1714,18.3739,三亚市,城东小学站,,28,28,27,13,12,77,77,49,49,5,8,/,/,/,/
2026-03-20T1200,2624A,91.7592,29.234,山南市,山南监测站,,26,11,11,3,3,82,82,79,68,3,3,4,3,0.3,0.2
2026-03-20T1200,2625A,91.7701,29.2436,山南市,山南人民医院,,26,12,15,3,3,83,83,79,68,4,4,6,5,0.3,0.3
2026-03-20T1200,1674A,116.6795,23.3666,汕头市,金平子站,,30,29,22,19,12,96,96,97,91,21,14,7,5,0.7,0.6
2026-03-20T1200,1675A,116.7248,23.3632,汕头市,龙湖子站,,30,27,24,17,12,93,93,95,90,18,12,7,5,/,/
2026-03-20T1200,1676A,116.7257,23.2774,汕头市,濠江子站,,38,38,21,21,11,91,91,93,88,18,12,10,7,/,/
2026-03-20T1200,1677A,116.7518,23.4712,汕头市,澄海子站,,36,36,27,21,11,87,87,87,80,19,14,9,7,0.7,0.7
2026-03-20T1200,1678A,116.6088,23.2539,汕头市,潮阳子站,,31,21,22,16,12,98,98,98,91,10,7,6,5,0.6,0.6
2026-03-20T1200,3444A,116.4539,23.2684,汕头市,潮南峡山,,34,28,29,20,21,108,108,96,95,13,12,7,6,0.6,0.6
2026-03-20T1200,3624A,116.4069,23.2533,汕头市,潮南子站,,44,44,43,23,22,96,96,86,84,12,9,8,6,/,/
2026-03-20T1200,1693A,115.3653,22.7751,汕尾市,市环保局,,31,20,24,16,15,97,97,88,88,12,8,6,5,0.6,0.7
2026-03-20T1200,1695A,115.362,22.7926,汕尾市,新城中学,,30,28,23,18,16,96,96,86,86,10,8,7,6,0.6,0.6
2026-03-20T1200,2645A,109.9155,33.8714,商洛市,监测站,颗粒物(PM10),69,76,82,27,34,92,92,35,35,12,25,6,7,0.4,0.6
2026-03-20T1200,3045A,109.9647,33.8486,商洛市,商州区中学,颗粒物(PM10),83,96,75,29,34,97,97,30,30,9,31,5,8,0.4,0.5
2026-03-20T1200,2408A,115.6701,34.4283,商丘市,环境监测站,细颗粒物(PM2.5),109,107,93,69,55,100,100,68,68,8,19,2,2,0.7,0.5
2026-03-20T1200,2409A,115.6458,34.4047,商丘市,粮食局,细颗粒物(PM2.5),102,101,83,62,55,99,99,75,75,12,21,2,2,0.6,0.4
2026-03-20T1200,3171A,115.6069,34.4465,商丘市,梁园区档案局,细颗粒物(PM2.5),100,84,81,60,49,97,97,72,72,8,17,2,2,0.7,0.5
2026-03-20T1200,4119A,115.6701,34.3767,商丘市,北海东路185号,细颗粒物(PM2.5),112,113,97,73,54,NA,NA,52,52,7,30,4,4,0.6,0.4
