timepoint,stationcode,longitude,latitude,area,positionname,primarypollutant,aqi,pm10,pm10_24h,pm2_5,pm2_5_24h,o3,o3_24h,o3_8h,o3_8h_24h,no2,no2_24h,so2,so2_24h,co,co_24h
2024-03-18T2200,2566A,102.1879,31.914,阿坝藏族羌族自治州,州农科所,,34,34,33,20,12,24,,29,28,5,7,3,3,0,0.1
2024-03-18T2200,2568A,102.2502,31.8896,阿坝藏族羌族自治州,马师校,,37,37,21,18,11,82,,90,89,7,4,3,3,0.4,0.5
2024-03-18T2200,3994A,102.2165,31.9024,阿坝藏族羌族自治州,马尔康中学西区,,32,32,20,11,11,89,,92,92,4,5,4,4,0.3,0.4
2024-03-18T2200,2695A,80.292,41.1694,阿克苏地区,电视台,颗粒物(PM10),168,285,247,70,56,73,,100,98,28,21,6,6,0.8,0.9
2024-03-18T2200,2696A,80.2613,41.1551,阿克苏地区,艺术中心,颗粒物(PM10),168,286,244,54,53,52,,100,96,57,32,6,5,1.1,1.3
2024-03-18T2200,2204A,105.6467,38.8363,阿拉善盟,西城区西花园,,41,41,78,22,21,86,,98,91,8,7,8,8,0.7,0.7
2024-03-18T2200,2205A,105.6985,38.8411,阿拉善盟,蒙二幼,,44,44,96,18,22,82,,94,88,8,7,4,5,0.4,0.4
2024-03-18T2200,2206A,105.724,38.8516,阿拉善盟,环保局新楼,,46,46,86,13,23,92,,96,92,4,5,6,6,0.5,0.5
2024-03-18T2200,2708A,88.1264,47.8517,阿勒泰地区,市站,,22,9,11,4,7,70,,82,78,17,10,5,8,0.2,0.2
2024-03-18T2200,2630A,80.1161,32.5,阿里地区,阿里监测站,,30,5,9,4,4,96,,102,101,7,7,8,13,0.6,0.5
2024-03-18T2200,3192A,80.0903,32.5028,阿里地区,阿里藏医院,,33,7,13,4,5,103,,106,106,3,5,6,9,0.4,0.4
2024-03-18T2200,2642A,109.0318,32.6537,安康市,香溪洞,,20,17,36,8,23,61,,82,76,5,7,6,6,0.6,0.6
2024-03-18T2200,2643A,109.0281,32.6939,安康市,安康市监测站,,29,28,49,20,31,38,,82,70,18,13,7,7,0.7,0.6
2024-03-18T2200,2644A,109.0072,32.6975,安康市,汉滨区检察院,,35,33,53,24,35,35,,82,69,22,11,9,8,0.6,0.5
2024-03-18T2200,2291A,117.0809,30.5177,安庆市,环科院,颗粒物(PM10),58,66,91,32,26,45,,54,52,31,22,7,8,0.8,0.7
2024-03-18T2200,2292A,117.0331,30.5119,安庆市,马山宾馆,颗粒物(PM10),63,76,96,33,25,46,,58,56,27,18,8,7,0.4,0.3
2024-03-18T2200,2294A,116.9896,30.6145,安庆市,安庆大学,颗粒物(PM10),65,79,94,32,25,49,,59,56,22,20,6,7,0.4,0.4
2024-03-18T2200,3173A,117.0598,30.5351,安庆市,市人大,颗粒物(PM10),62,73,97,31,27,43,,52,50,29,19,5,5,0.9,0.8
2024-03-18T2200,3123A,105.9408,26.2431,安顺市,凤凰山,,22,13,29,8,21,68,,81,80,10,12,14,15,0.8,1
2024-03-18T2200,3124A,105.9439,26.2564,安顺市,金钟山,,22,15,31,5,20,70,,79,78,9,11,10,10,0.5,0.7
2024-03-18T2200,3125A,105.8983,26.2481,安顺市,娄家坡,,23,15,33,10,24,71,,80,79,7,10,11,14,0.6,0.7
2024-03-18T2200,1819A,114.3551,36.1017,安阳市,红庙街,颗粒物(PM10),115,179,104,30,28,83,,90,88,19,22,18,9,1.0,0.7
2024-03-18T2200,1820A,114.361,36.0681,安阳市,银杏小区,颗粒物(PM10),76,102,99,52,36,62,,89,84,27,19,8,9,0.4,0.5
2024-03-18T2200,3141A,114.3922,36.0878,安阳市,信访局,颗粒物(PM10),81,111,106,40,36,55,,93,87,30,18,7,6,0.4,0.7
2024-03-18T2200,3669A,114.4705,36.0637,安阳市,左辅环卫站,颗粒物(PM10),69,88,99,30,32,53,,85,81,30,20,4,7,0.4,0.4
2024-03-18T2200,3703A,114.2917,36.0949,安阳市,安钢职工学校,颗粒物(PM10),174,297,124,24,33,83,,89,88,12,24,6,14,0.3,0.4
2024-03-18T2200,1748A,123.044,41.1196,鞍山市,深沟寺,细颗粒物(PM2.5),139,155,106,106,66,45,,112,96,62,33,9,15,0.9,1.2
2024-03-18T2200,1749A,123.011,41.0931,鞍山市,太阳城,细颗粒物(PM2.5),98,112,97,73,61,66,,120,104,44,29,12,15,0.7,1.1
2024-03-18T2200,1750A,123.0485,41.1442,鞍山市,太平,细颗粒物(PM2.5),173,221,125,131,79,37,,109,86,77,41,12,15,0.9,1.2
2024-03-18T2200,1751A,122.9642,41.0971,鞍山市,铁西三道街,细颗粒物(PM2.5),114,117,116,86,82,66,,121,104,49,41,12,16,0.6,1.1
2024-03-18T2200,1752A,122.9341,41.0833,鞍山市,铁西工业园区,细颗粒物(PM2.5),107,112,120,80,78,61,,120,99,56,41,16,17,0.8,1.4
2024-03-18T2200,1753A,123.022,41.0821,鞍山市,明达新区,细颗粒物(PM2.5),88,93,90,65,55,76,,113,100,36,30,12,16,0.7,1.1
2024-03-18T2200,2195A,107.4212,40.761,巴彦淖尔市,附二中,颗粒物(PM10),66,82,124,34,33,61,,95,84,24,6,10,3,0.5,0.3
2024-03-18T2200,2196A,107.37,40.7372,巴彦淖尔市,市环保大楼,颗粒物(PM10),60,69,117,30,31,55,,96,84,26,6,5,3,0.4,0.2
2024-03-18T2200,1956A,86.1472,41.7538,巴音郭楞蒙古自治州,孔雀公园,颗粒物(PM10),461,561,474,138,105,69,,89,85,20,31,6,5,0.4,0.4
2024-03-18T2200,1957A,86.1972,41.7166,巴音郭楞蒙古自治州,棉纺厂,颗粒物(PM10),500,749,663,146,128,68,,88,85,21,19,3,3,0.5,0.5
2024-03-18T2200,1958A,86.2357,41.7173,巴音郭楞蒙古自治州,经济开发区,颗粒物(PM10),500,626,563,137,117,59,,89,84,32,21,5,4,0.4,0.4
2024-03-18T2200,2914A,106.7677,31.8794,巴中市,苏山坪,颗粒物(PM10),65,79,28,29,9,88,,96,96,8,6,3,3,0.3,0.4
2024-03-18T2200,3182A,106.7656,31.8545,巴中市,丽阳花园,颗粒物(PM10),72,93,28,37,13,24,,83,68,39,20,4,4,0.6,0.5
2024-03-18T2200,3183A,106.7418,31.8654,巴中市,圣泉水务公司,颗粒物(PM10),74,98,31,41,14,10,,86,65,56,18,4,5,0.5,0.5
2024-03-18T2200,3616A,106.7616,31.8344,巴中市,市中心医院,颗粒物(PM10),79,107,33,44,15,28,,86,73,34,16,6,5,0.6,0.5
2024-03-18T2200,2235A,122.7911,45.6077,白城市,洮北区环保局,,39,39,19,21,11,78,,92,88,15,9,4,5,2.4,0.5
2024-03-18T2200,2236A,122.8738,45.5725,白城市,市环保局,颗粒物(PM10),51,51,26,23,13,53,,96,70,31,14,4,4,0.6,0.5
2024-03-18T2200,2231A,126.4219,41.9171,白山市,喜丰,颗粒物(PM10),55,60,44,33,20,66,,97,92,32,20,10,12,1.1,0.8
2024-03-18T2200,2232A,126.4077,41.9419,白山市,环保局,细颗粒物(PM2.5),74,89,57,54,23,52,,97,85,27,12,10,10,1.5,0.9
2024-03-18T2200,2647A,104.1724,36.5446,白银市,第三小学,颗粒物(PM10),112,174,137,48,32,91,,102,100,7,4,9,10,0.4,0.6
2024-03-18T2200,2648A,104.1465,36.5482,白银市,动力公司,颗粒物(PM10),97,143,117,44,28,94,,102,100,8,7,4,6,0.4,0.5
2024-03-18T2200,2512A,106.6103,23.9011,百色市,市监测站,,31,31,66,16,36,67,,95,82,10,15,10,21,0.6,0.7
2024-03-18T2200,2513A,106.6538,23.8859,百色市,市中心血站,,34,34,57,18,38,67,,87,76,11,14,5,16,0.8,0.9
2024-03-18T2200,3406A,106.6085,23.8798,百色市,祈福高中,,23,23,63,16,46,67,,88,78,9,17,7,20,0.9,1
2024-03-18T2200,2270A,117.396,32.939,蚌埠市,工人疗养院,颗粒物(PM10),58,65,71,26,24,35,,68,38,43,34,9,9,0.5,0.4
2024-03-18T2200,2271A,117.3605,32.9427,蚌埠市,百货大楼,颗粒物(PM10),58,66,73,30,25,31,,67,36,47,35,5,6,0.5,0.5
2024-03-18T2200,2273A,117.4185,32.8911,蚌埠市,蚌埠学院,颗粒物(PM10),80,110,74,53,25,19,,76,27,53,37,33,9,1.9,0.4
2024-03-18T2200,2274A,117.3533,32.9673,蚌埠市,淮上区政府,颗粒物(PM10),65,80,76,34,28,35,,75,36,41,31,8,8,0.5,0.4
2024-03-18T2200,2275A,117.3145,32.8977,蚌埠市,高新区,颗粒物(PM10),69,88,65,42,24,4,,83,41,72,31,7,6,0.6,0.4
2024-03-18T2200,3715A,117.3092,32.9314,蚌埠市,蚌埠田家炳中学,颗粒物(PM10),71,92,84,48,29,5,,67,28,74,41,48,12,0.5,0.4
2024-03-18T2200,1585A,109.8756,40.6532,包头市,市环境监测站,颗粒物(PM10),53,55,268,10,50,78,,91,88,9,19,9,14,0.5,0.9
2024-03-18T2200,1587A,109.9991,40.5842,包头市,包头八中,颗粒物(PM10),60,69,237,10,53,67,,91,86,18,22,6,16,0.3,0.6
2024-03-18T2200,1588A,109.8538,40.6821,包头市,青山宾馆,颗粒物(PM10),53,55,240,8,51,79,,92,90,8,18,8,13,0.5,0.8
2024-03-18T2200,1589A,109.8642,40.6288,包头市,惠龙物流,颗粒物(PM10),64,78,285,12,52,75,,89,86,15,20,7,12,0.4,0.7
2024-03-18T2200,1590A,110.0377,40.5546,包头市,东河鸿龙湾,颗粒物(PM10),57,64,208,4,36,66,,90,85,20,20,6,12,0.4,0.6
2024-03-18T2200,3283A,109.9154,40.5685,包头市,滨河大厦,,43,43,232,3,45,69,,93,89,17,16,6,15,0.6,0.6
2024-03-18T2200,3419A,109.9447,40.6261,包头市,包头市委党校,颗粒物(PM10),58,65,248,2,50,71,,88,85,19,22,8,15,0.6,0.9
2024-03-18T2200,3683A,109.8331,40.6576,包头市,昆区政府,颗粒物(PM10),56,62,264,12,56,73,,91,87,17,22,8,15,0.5,1.4
2024-03-18T2200,1930A,107.185,34.3063,宝鸡市,庙沟村,颗粒物(PM10),86,121,95,24,34,72,,89,86,8,10,13,8,0.2,0.3
2024-03-18T2200,1931A,107.0708,34.3017,宝鸡市,竹园沟,颗粒物(PM10),71,91,93,26,40,49,,103,87,27,16,4,4,0.4,0.5
2024-03-18T2200,1932A,107.1906,34.3672,宝鸡市,三陆医院,颗粒物(PM10),94,138,115,55,50,12,,102,88,71,31,8,8,0.6,0.4
2024-03-18T2200,1933A,107.1431,34.3547,宝鸡市,监测站,颗粒物(PM10),78,105,108,39,47,44,,88,76,31,23,5,3,0.3,0.4
2024-03-18T2200,1934A,107.1186,34.3739,宝鸡市,技工学校,颗粒物(PM10),90,129,112,42,43,43,,98,85,36,20,7,6,0.4,0.4
2024-03-18T2200,1935A,107.3906,34.3528,宝鸡市,陈仓区环保局家属楼,颗粒物(PM10),96,141,104,55,44,20,,100,80,62,25,8,8,0.6,0.6
2024-03-18T2200,1936A,107.2058,34.3497,宝鸡市,文理学院,颗粒物(PM10),89,127,114,32,46,15,,100,72,61,23,3,4,0.2,0.2
2024-03-18T2200,1937A,107.2386,34.3622,宝鸡市,三迪小学,颗粒物(PM10),91,131,113,42,44,18,,93,80,70,26,4,6,0.7,0.6
2024-03-18T2200,1051A,115.493,38.8632,保定市,游泳馆,颗粒物(PM10),176,301,170,18,40,86,,79,79,2,24,4,7,0.1,0.2
2024-03-18T2200,1052A,115.5213,38.8959,保定市,华电二区,颗粒物(PM10),117,184,121,37,37,83,,67,67,4,31,1,4,0.1,0.3
2024-03-18T2200,1053A,115.4713,38.9108,保定市,接待中心,颗粒物(PM10),128,206,146,17,37,84,,73,73,2,23,2,4,0.2,0.4
2024-03-18T2200,1054A,115.4612,38.8416,保定市,地表水厂,颗粒物(PM10),181,312,193,31,38,81,,81,81,4,27,2,6,0.4,0.6
2024-03-18T2200,3581A,115.31981,38.95208,保定市,满城区生态环境分局,颗粒物(PM10),153,256,167,12,39,87,,82,82,2,25,3,3,0,0.1
2024-03-18T2200,3582A,115.47694,38.76408,保定市,清苑区第二中学,颗粒物(PM10),177,303,188,22,34,80,,82,82,5,28,1,4,0.3,0.4
2024-03-18T2200,3583A,115.62909,39.02311,保定市,徐水物探局,颗粒物(PM10),349,459,202,22,36,81,,59,59,1,34,1,5,0.3,0.4
2024-03-18T2200,4004A,115.4202,38.8656,保定市,双鹰农机,颗粒物(PM10),135,219,142,44,38,83,,79,79,6,28,1,5,0.3,0.4
2024-03-18T2200,4034A,115.5150,38.8590,保定市,植保所站,颗粒物(PM10),141,231,142,47,41,86,,75,75,2,29,3,4,0.2,0.5
2024-03-18T2200,2594A,99.1678,25.1081,保山市,市环境监测站,颗粒物(PM10),56,61,54,34,32,114,,120,118,9,10,9,7,0.8,0.7
2024-03-18T2200,2595A,99.1711,25.1328,保山市,市环保局,颗粒物(PM10),56,61,57,39,35,123,,117,117,5,8,6,8,0.5,0.3
2024-03-18T2200,1867A,109.1436,21.4086,北海市,海滩公园,,49,49,40,34,24,48,,69,66,12,8,8,8,0.6,0.6
2024-03-18T2200,1868A,109.0981,21.4661,北海市,新市环保局,细颗粒物(PM2.5),64,55,40,46,27,37,,62,58,22,11,11,7,0.6,0.5
2024-03-18T2200,1869A,109.1778,21.5233,北海市,北海工业园,细颗粒物(PM2.5),77,83,51,56,35,27,,59,51,23,14,14,9,0.6,0.6
2024-03-18T2200,3400A,109.1911,21.4415,北海市,龙潭自来水厂,细颗粒物(PM2.5),55,49,40,39,31,44,,65,61,10,7,8,9,0.5,0.5
2024-03-18T2200,1001A,116.3621,39.8784,北京市,万寿西宫,颗粒物(PM10),367,473,133,58,41,76,,71,71,6,40,3,2,0.1,0.4
2024-03-18T2200,1003A,116.4174,39.9289,北京市,东四,颗粒物(PM10),458,558,140,62,42,74,,72,72,5,36,1,2,0.2,0.4
2024-03-18T2200,1004A,116.4072,39.8863,北京市,天坛,颗粒物(PM10),360,468,125,59,42,80,,74,74,3,32,3,3,0.2,0.5
2024-03-18T2200,1005A,116.462,39.9365,北京市,农展馆,颗粒物(PM10),338,450,129,52,40,74,,72,72,3,36,3,4,0.1,0.4
2024-03-18T2200,1006A,116.3392,39.9295,北京市,官园,颗粒物(PM10),494,594,144,77,43,88,,81,81,5,34,2,4,0.1,0.4
2024-03-18T2200,1007A,116.2878,39.9611,北京市,海淀万柳,颗粒物(PM10),393,494,133,52,37,79,,76,76,5,36,1,3,0.3,0.5
2024-03-18T2200,1008A,116.6636,40.135,北京市,顺义新城,颗粒物(PM10),500,637,140,87,39,79,,74,74,2,26,3,4,0.2,0.4
2024-03-18T2200,1009A,116.6275,40.3275,北京市,怀柔镇,颗粒物(PM10),500,611,136,99,41,83,,77,77,2,19,3,2,0.2,0.4
2024-03-18T2200,1010A,116.2296,40.217,北京市,昌平镇,颗粒物(PM10),462,562,136,71,34,77,,74,74,5,30,3,3,0.1,0.3
2024-03-18T2200,1011A,116.3966,39.9821,北京市,奥体中心,颗粒物(PM10),403,503,126,80,42,73,,70,70,4,38,3,3,0.2,0.4
2024-03-18T2200,1012A,116.184,39.9136,北京市,古城,颗粒物(PM10),416,516,143,55,37,84,,78,78,4,39,3,2,0.2,0.4
2024-03-18T2200,3281A,115.9718,40.4529,北京市,延庆夏都,颗粒物(PM10),401,501,152,88,36,78,,79,78,2,14,3,2,0.1,0.2
2024-03-18T2200,3417A,117.0709,40.1465,北京市,平谷新城,颗粒物(PM10),322,437,113,73,38,86,,90,86,9,28,3,2,0.1,0.4
2024-03-18T2200,3418A,116.8336,40.4095,北京市,密云新城,颗粒物(PM10),500,641,141,95,37,84,,80,80,2,16,3,2,0.1,0.3
2024-03-18T2200,3672A,116.1541,39.8204,北京市,丰台云岗,颗粒物(PM10),426,526,146,49,40,79,,72,72,3,32,3,2,0.1,0.4
2024-03-18T2200,3673A,116.6804,39.9081,北京市,通州东关,颗粒物(PM10),394,495,144,56,41,84,,85,85,7,35,3,3,0.2,0.4
2024-03-18T2200,3674A,115.9577,39.7603,北京市,房山燕山,颗粒物(PM10),194,338,114,39,35,81,,70,70,1,29,3,2,0.1,0.3
2024-03-18T2200,3675A,116.4672,39.7733,北京市,大兴旧宫,颗粒物(PM10),382,485,131,49,41,78,,68,68,2,34,3,2,0.0,0.4
2024-03-18T2200,3694A,115.986,40.4563,北京市,延庆石河营,颗粒物(PM10),404,504,143,83,31,86,,85,85,2,16,3,3,0.2,0.3
2024-03-18T2200,3695A,116.6151,40.3053,北京市,怀柔新城,颗粒物(PM10),500,630,140,89,40,87,,80,80,3,21,1,3,0,0.3
2024-03-18T2200,3696A,116.2545,39.8768,北京市,丰台小屯,颗粒物(PM10),469,569,146,53,40,74,,71,71,2,32,3,2,0.1,0.4
2024-03-18T2200,3697A,116.84,40.3844,北京市,密云镇,颗粒物(PM10),480,580,135,93,38,78,,74,74,1,26,3,3,0.1,0.4
2024-03-18T2200,1761A,123.8275,41.3064,本溪市,大峪,细颗粒物(PM2.5),75,78,74,55,39,63,,103,93,28,36,8,11,0.6,1.3
2024-03-18T2200,1762A,123.7567,41.3325,本溪市,溪湖,细颗粒物(PM2.5),107,156,96,80,41,12,,107,80,82,37,9,9,0.9,0.9
2024-03-18T2200,1763A,123.7169,41.3094,本溪市,彩屯,细颗粒物(PM2.5),89,104,100,66,58,41,,113,83,51,39,8,14,0.7,1.4
2024-03-18T2200,1764A,123.7669,41.2864,本溪市,东明,细颗粒物(PM2.5),89,98,78,66,44,43,,108,90,55,44,7,13,1.1,1.2
2024-03-18T2200,1765A,123.7992,41.2664,本溪市,新立屯,细颗粒物(PM2.5),72,59,58,52,33,30,,107,74,61,35,10,15,1.1,1.4
2024-03-18T2200,1766A,123.8142,41.3472,本溪市,威宁,细颗粒物(PM2.5),94,113,84,70,42,34,,104,76,50,35,6,8,0.9,0.9
2024-03-18T2200,2587A,105.2864,27.3125,毕节市,八中,,28,9,12,9,8,87,,86,86,8,8,7,7,0.5,0.5
2024-03-18T2200,2588A,105.31,27.2944,毕节市,师专,,28,11,12,10,8,89,,87,87,9,9,6,6,0.5,0.5
2024-03-18T2200,3537A,105.3631,27.3533,毕节市,长征村,,30,12,13,9,10,95,,92,92,8,9,6,6,0.6,0.6
2024-03-18T2200,1629A,118.0018,37.3617,滨州市,第二水厂,颗粒物(PM10),80,110,142,27,40,77,,87,86,19,41,6,12,0.6,0.9
2024-03-18T2200,1630A,117.9776,37.393,滨州市,北中新校,颗粒物(PM10),84,117,139,27,38,76,,84,83,23,43,12,19,0.6,0.9
2024-03-18T2200,3514A,117.9378,37.3956,滨州市,中海酒店,颗粒物(PM10),86,122,139,34,44,70,,79,78,24,39,19,24,0.7,0.9
2024-03-18T2200,3515A,117.9378,37.3553,滨州市,开发区一中,颗粒物(PM10),82,114,144,29,41,77,,86,85,25,49,14,18,0.5,0.7
2024-03-18T2200,3516A,118.0917,37.694,滨州市,金海六路,颗粒物(PM10),94,137,129,34,34,57,,82,75,28,31,10,20,0.7,0.9
2024-03-18T2200,4028A,117.9956,37.3753,滨州市,滨州市西街道办事处,颗粒物(PM10),80,110,143,36,46,78,,85,84,18,39,12,19,0.6,0.9
2024-03-18T2200,2311A,115.8072,33.8399,亳州市,污水处理厂,颗粒物(PM10),71,92,75,35,19,61,,74,67,23,18,16,8,0.4,0.3
2024-03-18T2200,2312A,115.7789,33.8518,亳州市,三国揽胜宫,颗粒物(PM10),70,89,81,34,18,59,,75,66,21,17,20,8,0.5,0.4
2024-03-18T2200,3332A,115.7633,33.8034,亳州市,亳州学院,颗粒物(PM10),73,95,76,40,21,56,,74,66,22,14,23,8,0.5,0.3
2024-03-18T2200,2693A,82.0485,44.8556,博尔塔拉蒙古自治州,市党校,,,55,70,21,22,81,,91,90,7,7,6,6,,0.3
2024-03-18T2200,2694A,82.0806,44.8969,博尔塔拉蒙古自治州,市环保局,颗粒物(PM10),57,64,71,20,19,69,,78,78,18,16,6,6,0.8,0.8
2024-03-18T2200,1071A,116.8842,38.2991,沧州市,沧县城建局,颗粒物(PM10),195,339,140,80,50,56,,83,73,38,33,8,11,0.5,0.6
2024-03-18T2200,1072A,116.8584,38.3254,沧州市,电视转播站,颗粒物(PM10),172,293,134,66,45,43,,78,71,41,29,5,8,0.4,0.4
2024-03-18T2200,1073A,116.8709,38.3228,沧州市,市环保局,颗粒物(PM10),183,315,138,73,47,49,,82,76,38,28,7,9,0.4,0.4
2024-03-18T2200,3324A,116.8136,38.3004,沧州市,河北水利电力学院,颗粒物(PM10),286,410,163,67,48,46,,80,70,38,27,12,13,0.4,0.4
2024-03-18T2200,2622A,97.1806,31.1273,昌都市,昌都监测站,,26,26,14,15,9,77,,93,89,13,8,6,6,0.6,0.4
2024-03-18T2200,3719A,97.1714,31.1406,昌都市,昌都会议中心,,29,,8,15,9,90,,104,101,3,3,6,7,0.5,0.5
2024-03-18T2200,2690A,88.1236,43.8886,昌吉回族自治州,天山天池,,23,18,8,8,2,73,,90,83,7,6,6,6,0.5,0.5
2024-03-18T2200,2692A,87.2717,44.0297,昌吉回族自治州,新区政务中心,,39,39,36,23,20,39,,72,69,40,29,7,9,0.6,0.8
2024-03-18T2200,3613A,87.3095,44.0142,昌吉回族自治州,亚心广场,,44,44,35,14,13,45,,72,71,35,26,5,7,0.8,0.9
2024-03-18T2200,1119A,125.3325,43.9166,长春市,食品厂,,46,46,52,32,39,56,,83,71,34,25,6,8,0.4,0.4
2024-03-18T2200,1120A,125.2863,43.9027,长春市,客车厂,细颗粒物(PM2.5),64,54,48,46,41,47,,80,63,41,26,6,8,0.7,0.5
2024-03-18T2200,1121A,125.2841,43.8463,长春市,邮电学院,细颗粒物(PM2.5),55,52,49,39,38,56,,88,74,34,21,11,10,0.4,0.4
2024-03-18T2200,1122A,125.3716,43.8772,长春市,劳动公园,,37,37,44,25,30,70,,92,85,22,17,5,7,0.6,0.6
2024-03-18T2200,1123A,125.3297,43.8805,长春市,园林处,,35,34,42,24,31,67,,86,77,24,20,7,11,0.4,0.4
2024-03-18T2200,1124A,125.4605,43.79,长春市,净月潭,,40,34,41,28,32,63,,87,80,13,13,6,8,0.3,0.3
2024-03-18T2200,1126A,125.3863,43.8447,长春市,经开区环卫处,,35,29,44,24,30,60,,88,78,16,19,4,8,0.4,0.4
2024-03-18T2200,1127A,125.245,43.7783,长春市,高新区管委会,,49,45,48,34,37,48,,91,73,36,19,11,10,0.6,0.5
2024-03-18T2200,1128A,125.1761,43.8325,长春市,岱山公园,,48,43,46,33,36,42,,86,68,46,21,7,7,0.5,0.4
2024-03-18T2200,1335A,113.0833,28.2325,长沙市,经开区环保局,颗粒物(PM10),56,61,25,17,16,59,,61,54,20,17,4,4,0.2,0.4
2024-03-18T2200,1336A,112.8872,28.2189,长沙市,高开区环保局,,49,49,28,20,22,65,,65,63,16,12,3,3,0.5,0.7
2024-03-18T2200,1337A,113.0792,28.2053,长沙市,马坡岭,颗粒物(PM10),53,56,29,8,24,55,,57,51,11,16,5,5,0.3,0.4
2024-03-18T2200,1338A,112.9394,28.19,长沙市,湖南师范大学,颗粒物(PM10),54,57,27,16,15,72,,65,65,13,13,2,2,0.5,0.6
2024-03-18T2200,1339A,113.0178,28.1322,长沙市,雨花区环保局,颗粒物(PM10),52,53,24,19,19,66,,58,58,11,9,3,3,0.4,0.6
2024-03-18T2200,1340A,112.9792,28.2597,长沙市,伍家岭,颗粒物(PM10),53,55,30,9,13,66,,60,59,17,17,5,4,0.5,0.6
2024-03-18T2200,1341A,113.0014,28.1944,长沙市,火车新站,颗粒物(PM10),55,60,29,19,19,72,,63,63,13,11,2,2,0.5,0.6
2024-03-18T2200,1342A,112.9844,28.1178,长沙市,天心区环保局,颗粒物(PM10),54,58,28,12,7,63,,60,56,10,9,2,1,0.5,0.6
2024-03-18T2200,1343A,112.8908,28.1308,长沙市,湖南中医药大学,,46,46,27,19,22,65,,65,59,14,10,3,3,0.4,0.6
2024-03-18T2200,1344A,112.9581,28.3611,长沙市,沙坪,,25,25,19,14,12,41,,42,42,11,11,4,4,0.5,0.6
2024-03-18T2200,1727A,113.1147,36.1547,长治市,清华站,颗粒物(PM10),163,276,92,36,24,78,,98,92,15,23,8,10,0.4,0.7
2024-03-18T2200,1728A,113.1031,36.1989,长治市,监测站,颗粒物(PM10),195,340,97,36,30,84,,107,99,14,21,10,12,0.4,0.5
2024-03-18T2200,1730A,113.0886,36.2125,长治市,审计局,颗粒物(PM10),199,348,93,44,28,79,,99,93,14,20,10,11,0.2,0.4
2024-03-18T2200,1731A,113.0844,36.1856,长治市,长治八中,颗粒物(PM10),215,360,113,46,26,82,,102,96,15,25,6,7,0.4,0.5
2024-03-18T2200,2845A,113.1569,36.1911,长治市,德盛苑,颗粒物(PM10),226,368,95,46,29,80,,103,97,14,19,6,10,0.5,0.7
2024-03-18T2200,3568A,113.06,36.0464,长治市,向阳小学,颗粒物(PM10),258,390,136,48,36,84,,107,103,14,20,6,9,0.3,0.6
2024-03-18T2200,3569A,112.8792,36.3144,长治市,屯留一中,颗粒物(PM10),189,328,98,53,30,84,,104,95,9,14,5,5,0.4,0.4
2024-03-18T2200,3570A,113.235,36.3489,长治市,潞城四中,颗粒物(PM10),349,459,140,42,32,78,,106,98,10,16,7,7,0.4,0.4
2024-03-18T2200,1854A,111.6975,28.9703,常德市,市二中,,47,47,54,15,17,46,,79,71,18,9,6,6,0.5,0.5
2024-03-18T2200,1857A,111.7158,29.1456,常德市,白鹤山,颗粒物(PM10),52,54,59,24,23,36,,39,39,2,2,7,6,0.4,0.5
2024-03-18T2200,3138A,111.7153,29.0289,常德市,武陵区永安,,44,44,52,19,19,64,,77,76,21,15,6,6,0.5,0.5
2024-03-18T2200,3139A,111.6892,28.9881,常德市,鼎城区玉霞,,48,48,53,19,18,38,,80,71,30,15,8,7,0.5,0.5
2024-03-18T2200,3140A,111.6625,29.0531,常德市,武陵区长庚,颗粒物(PM10),51,51,56,17,19,59,,77,74,15,12,5,5,0.5,0.6
2024-03-18T2200,1196A,119.9633,31.762,常州市,市监测站,颗粒物(PM10),69,88,93,39,34,15,,66,32,77,42,12,11,0.7,0.6
2024-03-18T2200,1200A,119.9468,31.7069,常州市,武进监测站,颗粒物(PM10),72,94,89,49,32,11,,63,26,76,41,21,17,1.4,1
2024-03-18T2200,1201A,119.9255,31.9087,常州市,安家,颗粒物(PM10),64,77,81,37,35,48,,66,51,32,30,8,11,0.7,0.8
2024-03-18T2200,3002A,119.9805,31.8174,常州市,行政中心,颗粒物(PM10),63,75,80,36,31,24,,44,33,61,41,11,10,1.1,0.9
2024-03-18T2200,3003A,120.0522,31.7748,常州市,经开区,颗粒物(PM10),66,82,87,36,29,6,,59,31,83,45,9,9,0.7,0.7
2024-03-18T2200,3010A,119.9025,31.7964,常州市,钟楼,颗粒物(PM10),66,81,82,38,32,12,,67,30,73,38,13,11,1.2,0.9
2024-03-18T2200,3429A,119.8598,31.7066,常州市,武进经发区,颗粒物(PM10),54,58,100,17,23,7,,61,21,85,44,12,10,1.3,1
2024-03-18T2200,3430A,119.5826,31.7245,常州市,金坛城区,颗粒物(PM10),83,116,113,30,25,41,,70,46,35,28,8,8,0.8,0.8
2024-03-18T2200,2220A,120.4318,41.5881,朝阳市,西梁,颗粒物(PM10),53,56,53,35,25,96,,108,107,16,22,13,16,0.7,0.6
2024-03-18T2200,2221A,120.4521,41.5646,朝阳市,河畔小区,细颗粒物(PM2.5),57,52,52,40,26,96,,104,104,12,16,8,30,0.7,0.7
2024-03-18T2200,2222A,120.4176,41.5648,朝阳市,八里堡,细颗粒物(PM2.5),58,60,56,41,31,71,,89,87,17,21,11,12,0.7,0.7
2024-03-18T2200,2223A,120.3806,41.5969,朝阳市,农业园区,细颗粒物(PM2.5),64,64,62,46,32,86,,101,100,14,19,10,9,0.7,0.6
2024-03-18T2200,1705A,116.6367,23.6719,潮州市,西园路,颗粒物(PM10),80,110,62,34,38,87,,99,97,23,23,9,8,0.4,0.5
2024-03-18T2200,3026A,116.6183,23.6608,潮州市,市政府,颗粒物(PM10),72,94,60,28,35,95,,106,104,21,24,9,9,0.7,0.8
2024-03-18T2200,4036A,116.6461,23.6761,潮州市,金山,颗粒物(PM10),70,89,58,28,35,86,,97,95,23,24,10,9,0.6,0.7
2024-03-18T2200,2472A,113.0073,25.9061,郴州市,马头岭,,15,15,18,5,10,42,,48,47,11,12,3,4,0.7,0.8
2024-03-18T2200,2473A,113.0116,25.8226,郴州市,市职中,,13,13,16,9,13,40,,50,49,14,12,4,4,0.6,0.8
2024-03-18T2200,2474A,113.0161,25.8001,郴州市,兴隆步行街,,14,11,16,9,12,42,,51,50,12,12,2,2,0.7,1
2024-03-18T2200,2475A,113.0383,25.8071,郴州市,市审计局,,15,10,16,6,12,46,,52,52,13,12,4,4,0.6,0.8
2024-03-18T2200,2476A,113.0348,25.7759,郴州市,市环保局,,15,15,20,10,12,40,,45,45,13,14,2,3,0.6,0.9
2024-03-18T2200,1431A,103.9728,30.7236,成都市,金泉两河,颗粒物(PM10),56,62,49,22,20,33,,82,69,36,11,3,2,0.4,0.3
2024-03-18T2200,1432A,104.176,30.6872,成都市,十里店,颗粒物(PM10),51,51,52,23,21,53,,91,86,27,15,4,1,0.6,0.5
2024-03-18T2200,1433A,104.079,30.5706,成都市,三瓦窑,颗粒物(PM10),51,51,57,20,25,50,,93,87,30,18,2,1,0.6,0.5
2024-03-18T2200,1434A,104.1114,30.63,成都市,沙河铺,颗粒物(PM10),59,67,54,24,22,41,,89,82,34,18,4,4,0.7,0.5
2024-03-18T2200,1437A,104.0786,30.6531,成都市,君平街,颗粒物(PM10),58,65,57,24,23,48,,95,86,39,20,5,4,0.4,0.4
2024-03-18T2200,1438A,103.613,31.0283,成都市,灵岩寺,,42,42,41,18,20,96,,79,79,10,14,4,4,0.4,0.5
2024-03-18T2200,2880A,104.0239,30.65639,成都市,大石西路,,,,56,,20,,,91,88,25,8,5,5,,0.6
2024-03-18T2200,3136A,104.2725,30.5589,成都市,龙泉驿区区政府,,46,46,47,24,20,51,,97,89,27,14,2,2,0.7,0.6
2024-03-18T2200,3357A,104.0106,30.6931,成都市,金博路,颗粒物(PM10),55,60,49,30,22,23,,92,76,41,11,1,2,0.6,0.5
2024-03-18T2200,3359A,104.0578,30.5225,成都市,华阳,颗粒物(PM10),53,56,55,27,28,53,,95,89,26,14,2,2,0.6,0.5
2024-03-18T2200,3487A,104.2394,30.5319,成都市,车城东七路,颗粒物(PM10),58,65,56,28,27,55,,96,90,36,18,2,2,0.5,0.4
2024-03-18T2200,3488A,104.3853,30.7453,成都市,青白江技师分院,颗粒物(PM10),64,77,51,17,15,18,,98,81,55,17,2,2,0.5,0.5
2024-03-18T2200,3489A,104.0789,30.4072,成都市,科学城,颗粒物(PM10),60,70,61,28,30,50,,103,97,40,16,3,2,0.5,0.4
2024-03-18T2200,4011A,103.8506,30.6947,成都市,光华大道三段,颗粒物(PM10),56,62,50,28,18,45,,80,69,18,9,3,3,0.5,0.4
2024-03-18T2200,1062A,117.9531,40.9081,承德市,铁路,颗粒物(PM10),258,390,116,56,26,87,,88,86,3,22,6,8,0.2,0.4
2024-03-18T2200,1063A,117.9392,40.9763,承德市,中国银行,颗粒物(PM10),199,348,104,50,23,89,,91,89,3,19,7,9,0.3,0.5
2024-03-18T2200,1064A,117.9503,40.928,承德市,开发区,颗粒物(PM10),198,345,109,35,26,85,,90,89,6,19,6,9,0.3,0.5
2024-03-18T2200,1065A,117.8051,40.9655,承德市,文化中心,颗粒物(PM10),248,383,130,55,26,86,,89,88,3,19,4,10,0.2,0.4
2024-03-18T2200,1066A,117.9268,41.0026,承德市,离宫,颗粒物(PM10),160,269,82,36,25,87,,85,85,2,9,1,3,0.1,0.3
2024-03-18T2200,2314A,117.47,30.6618,池州市,池州学院,颗粒物(PM10),61,72,89,34,28,38,,47,47,35,28,6,5,0.6,0.6
2024-03-18T2200,3237A,117.4918,30.6617,池州市,展览馆,颗粒物(PM10),61,71,89,34,28,32,,52,50,34,24,5,5,0.8,0.7
2024-03-18T2200,3333A,117.5627,30.695,池州市,第八中学,颗粒物(PM10),56,62,83,30,23,27,,53,51,39,22,4,4,0.7,0.6
2024-03-18T2200,3334A,117.5038,30.6243,池州市,第十二中学,颗粒物(PM10),58,66,83,34,27,20,,53,49,40,21,3,4,0.7,0.6
2024-03-18T2200,1744A,118.9233,42.2816,赤峰市,松山一中,,34,34,51,20,17,75,,70,70,11,26,8,15,0.5,0.7
2024-03-18T2200,1745A,118.9576,42.2728,赤峰市,哈达街,,36,36,52,15,17,73,,61,61,14,29,10,24,0.5,0.7
2024-03-18T2200,1746A,118.8788,42.2554,赤峰市,天义路,,36,36,46,13,13,66,,65,61,17,24,5,11,0.4,0.5
2024-03-18T2200,3058A,119.2658,42.0353,赤峰市,银河街,颗粒物(PM10),51,52,64,27,33,64,,83,78,15,20,10,19,0.5,0.6
2024-03-18T2200,3286A,118.9359,42.3147,赤峰市,桥北物流园区,,25,25,34,12,19,76,,88,84,9,16,5,7,0.5,0.5
2024-03-18T2200,2521A,107.3476,22.4136,崇左市,市环保局江州分局,细颗粒物(PM2.5),64,73,68,46,37,29,,38,36,16,18,7,8,0.7,0.7
2024-03-18T2200,2522A,107.3702,22.3707,崇左市,城南新区,细颗粒物(PM2.5),59,54,56,42,39,22,,40,35,23,20,6,6,0.8,0.7
2024-03-18T2200,2298A,118.3093,32.3153,滁州市,老年大学,颗粒物(PM10),55,60,60,34,26,23,,78,56,49,27,8,8,0.5,0.4
2024-03-18T2200,2299A,118.3244,32.2786,滁州市,人大宾馆,颗粒物(PM10),56,62,63,26,21,42,,75,56,42,28,6,6,0.6,0.6
2024-03-18T2200,3207A,118.3118,32.3038,滁州市,市政府原办公楼,颗粒物(PM10),52,53,54,29,24,42,,79,59,42,27,5,5,0.5,0.4
2024-03-18T2200,3331A,118.3267,32.2634,滁州市,图书馆,颗粒物(PM10),60,70,63,25,21,43,,77,58,38,25,7,7,0.6,0.6
2024-03-18T2200,2605A,101.5482,25.0441,楚雄彝族自治州,州环境监测站,,41,41,47,23,32,116,,123,121,7,15,6,9,0.6,0.7
2024-03-18T2200,2606A,101.538,25.0492,楚雄彝族自治州,市经济开发区,,45,45,46,31,30,100,,114,110,16,17,7,8,0.7,0.7
2024-03-18T2200,2548A,107.5277,31.2827,达州市,达州职业技术学院,颗粒物(PM10),52,53,18,17,6,5,,79,53,52,21,8,9,1.4,0.7
2024-03-18T2200,2549A,107.5086,31.2186,达州市,市环境监测站,,38,38,17,14,4,39,,73,61,41,22,7,7,0.9,0.7
2024-03-18T2200,2550A,107.4988,31.2132,达州市,凤凰小区,,29,29,11,17,6,44,,81,66,35,18,6,6,0.8,0.6
2024-03-18T2200,2551A,107.5082,31.1986,达州市,达县机关宾馆,,48,48,15,20,8,2,,62,44,52,32,4,4,0.8,0.6
2024-03-18T2200,2552A,107.4644,31.2124,达州市,市政中心,,36,36,23,14,6,7,,78,47,72,27,11,10,0.8,0.6
2024-03-18T2200,2614A,100.1542,25.7054,大理白族自治州,大理市环境监测站,,45,45,43,30,30,110,,119,118,12,11,8,7,0.5,0.6
2024-03-18T2200,2615A,100.2171,25.5811,大理白族自治州,大理古城,,46,42,42,32,29,114,,123,118,11,10,7,7,0.6,0.6
2024-03-18T2200,1109A,121.612,38.9741,大连市,甘井子,颗粒物(PM10),64,77,62,44,35,55,,89,65,52,43,9,8,0.8,0.8
2024-03-18T2200,1110A,121.565,38.9511,大连市,周水子,细颗粒物(PM2.5),67,78,55,48,35,41,,84,53,62,49,14,10,0.8,0.8
2024-03-18T2200,1111A,121.5637,38.8845,大连市,星海三站,细颗粒物(PM2.5),63,63,48,45,34,40,,68,45,50,34,6,7,0.5,0.6
2024-03-18T2200,1112A,121.6302,38.9117,大连市,青泥洼桥,颗粒物(PM10),66,81,52,43,30,65,,92,56,41,38,13,15,0.8,0.8
2024-03-18T2200,1113A,121.6251,38.8638,大连市,傅家庄,颗粒物(PM10),52,54,47,31,29,72,,72,64,35,32,11,11,0.6,0.6
2024-03-18T2200,1114A,121.5213,38.8661,大连市,七贤岭,颗粒物(PM10),63,76,51,44,28,50,,94,52,47,36,11,12,0.6,0.7
2024-03-18T2200,1115A,121.2529,38.8061,大连市,旅顺,颗粒物(PM10),57,63,46,39,29,61,,84,68,33,29,9,10,0.8,0.8
2024-03-18T2200,1116A,121.7485,39.1311,大连市,金州,细颗粒物(PM2.5),84,95,66,62,43,33,,93,71,60,29,16,14,1.0,0.8
2024-03-18T2200,1117A,121.7811,39.0496,大连市,开发区,颗粒物(PM10),72,93,66,49,39,8,,80,52,100,43,9,8,0.7,0.6
2024-03-18T2200,1118A,121.9762,39.0631,大连市,双D港,细颗粒物(PM2.5),57,61,51,40,38,59,,67,43,32,40,8,9,0.6,0.6
2024-03-18T2200,1789A,124.81117,46.03138,大庆市,大同区,细颗粒物(PM2.5),62,,26,44,30,64,,83,72,16,11,8,7,0.5,0.4
2024-03-18T2200,1790A,125.129,46.533,大庆市,龙凤区,,48,48,38,25,21,49,,83,63,36,20,11,5,0.4,0.3
2024-03-18T2200,1791A,124.902,46.408,大庆市,红岗区,,41,41,25,19,19,51,,87,76,29,12,6,6,0.6,0.4
2024-03-18T2200,1792A,125.153,46.586,大庆市,萨尔图区,,36,36,24,17,16,51,,81,72,32,13,9,10,0.5,0.4
2024-03-18T2200,1793A,124.9042,46.6215,大庆市,让胡路区,,40,34,24,28,20,44,,85,72,42,12,7,7,0.5,0.4
2024-03-18T2200,3481A,125.141,46.634,大庆市,萨区政府监测点,,26,26,19,16,15,54,,87,78,30,13,8,8,0.5,0.5
2024-03-18T2200,1723A,113.2994,40.0758,大同市,云冈宾馆,颗粒物(PM10),80,110,152,18,40,82,,96,90,4,17,3,9,0.4,0.5
2024-03-18T2200,1724A,113.3444,40.0917,大同市,大同大学,颗粒物(PM10),92,134,160,19,39,73,,93,85,9,16,8,13,0.4,0.5
2024-03-18T2200,1725A,113.2661,40.1269,大同市,安家小村,颗粒物(PM10),85,120,170,7,33,78,,92,86,5,15,9,17,0.2,0.7
2024-03-18T2200,1726A,113.2711,40.0844,大同市,教育学院,颗粒物(PM10),84,118,171,10,33,76,,87,81,7,21,5,11,0.3,0.4
2024-03-18T2200,3282A,113.3397,40.0597,大同市,大同市卫生学校,颗粒物(PM10),112,173,175,15,36,78,,96,89,7,18,4,8,0.4,0.5
2024-03-18T2200,3565A,113.1367,40.1122,大同市,云冈站,颗粒物(PM10),85,120,134,12,27,73,,95,86,14,27,6,16,0.3,0.4
2024-03-18T2200,3566A,113.1186,40.2556,大同市,图书馆,颗粒物(PM10),74,98,148,14,36,76,,93,84,9,12,8,11,0.6,0.6
2024-03-18T2200,3567A,113.5931,40.0461,大同市,区一中,颗粒物(PM10),110,170,156,13,28,75,,84,81,5,18,1,13,0.4,0.6
2024-03-18T2200,3676A,113.2802,40.0995,大同市,第二人民医院,颗粒物(PM10),86,121,183,11,36,81,,96,88,7,22,5,12,0.4,0.6
2024-03-18T2200,2269A,124.1069,50.4097,大兴安岭地区,科技局,,38,28,18,26,19,62,,81,76,10,5,10,8,0.6,0.5
2024-03-18T2200,3663A,124.1164,50.4278,大兴安岭地区,红旗社区,,30,22,17,21,13,62,,86,78,14,13,13,10,0.5,0.5
2024-03-18T2200,1600A,124.3303,40.0625,丹东市,江湾东路,细颗粒物(PM2.5),103,98,71,77,49,75,,109,94,19,23,7,14,1.1,1.1
2024-03-18T2200,1601A,124.4256,40.1503,丹东市,临江后街,细颗粒物(PM2.5),88,86,61,65,38,85,,112,99,17,18,11,12,0.8,0.7
2024-03-18T2200,1602A,124.3933,40.1461,丹东市,元宝山,细颗粒物(PM2.5),79,73,53,58,37,86,,106,97,20,19,10,11,0.9,0.8
2024-03-18T2200,1603A,124.3633,40.1092,丹东市,民主桥,细颗粒物(PM2.5),77,86,63,56,41,82,,107,95,22,23,15,15,1.0,0.7
2024-03-18T2200,3541A,109.5726,19.5167,儋州市,第一中学子站,,36,36,26,23,18,69,,67,67,7,6,8,7,0.5,0.6
2024-03-18T2200,3542A,109.5567,19.5187,儋州市,东坡学校子站,,33,30,21,23,16,71,,71,71,6,4,10,9,0.5,0.5
2024-03-18T2200,2616A,98.5842,24.428,德宏傣族景颇族自治州,德宏州监测站,细颗粒物(PM2.5),78,95,83,57,46,62,,133,116,36,31,4,8,1.1,0.8
2024-03-18T2200,3677A,98.5881,24.4368,德宏傣族景颇族自治州,芒市人民政府综合楼,颗粒物(PM10),62,74,71,40,45,93,,134,124,14,17,4,5,0.7,0.8
2024-03-18T2200,1901A,104.4239,31.1208,德阳市,东山公园,,49,49,43,21,24,44,,87,73,33,16,2,2,0.4,0.4
2024-03-18T2200,1902A,104.3826,31.1317,德阳市,西小区,颗粒物(PM10),54,57,50,29,27,39,,77,62,33,21,2,2,0.5,0.4
2024-03-18T2200,1904A,104.3553,31.1091,德阳市,耐火材料厂,颗粒物(PM10),64,77,51,42,27,28,,82,57,38,19,6,3,0.5,0.4
2024-03-18T2200,3639A,104.4019,31.1244,德阳市,市教育局,颗粒物(PM10),51,51,46,29,23,44,,86,69,27,16,2,2,0.4,0.4
2024-03-18T2200,1622A,116.3032,37.4674,德州市,儿童乐园,颗粒物(PM10),118,185,152,34,34,69,,91,87,22,23,10,12,0.5,0.5
2024-03-18T2200,1624A,116.2991,37.4451,德州市,监理站,颗粒物(PM10),117,183,149,31,35,75,,96,92,22,25,13,15,0.4,0.5
2024-03-18T2200,3066A,116.2721,37.4379,德州市,九衢泉纯净水厂,颗粒物(PM10),111,171,148,34,38,70,,90,86,23,29,8,11,0.5,0.6
2024-03-18T2200,3371A,116.3728,37.4403,德州市,开发区人民医院,颗粒物(PM10),124,197,152,31,33,74,,96,91,16,19,10,13,0.4,0.5
2024-03-18T2200,3372A,116.3572,37.4094,德州市,太阳城中学,颗粒物(PM10),126,202,156,36,38,70,,92,87,20,28,9,11,0.5,0.6
2024-03-18T2200,3511A,116.5652,37.3319,德州市,陵城艺术中心,颗粒物(PM10),125,200,155,34,31,68,,91,87,22,25,9,11,0.5,0.6
2024-03-18T2200,2621A,99.7056,27.8317,迪庆藏族自治州,迪庆州站,,42,42,38,21,23,96,,110,105,14,11,6,8,0.5,0.4
2024-03-18T2200,3180A,99.7136,27.8094,迪庆藏族自治州,质量技术监督局,,30,30,30,16,16,92,,108,102,11,11,6,6,0.5,0.6
2024-03-18T2200,2663A,104.6241,35.5734,定西市,东关小学,颗粒物(PM10),75,100,126,47,34,76,,102,97,18,10,17,13,0.6,0.3
2024-03-18T2200,2664A,104.6194,35.5934,定西市,供电公司,颗粒物(PM10),71,92,128,30,35,61,,103,97,29,10,10,9,0.3,0.3
2024-03-18T2200,1389A,113.7547,23.0494,东莞市,莞城梨川,,47,47,51,24,28,40,,52,52,42,44,7,8,0.6,0.7
2024-03-18T2200,1390A,113.7944,23.0128,东莞市,东城石井,,48,48,43,24,24,42,,54,54,37,33,7,7,0.7,0.7
2024-03-18T2200,1391A,113.7383,22.9658,东莞市,南城西平,颗粒物(PM10),51,52,47,26,25,27,,53,48,56,36,7,7,0.7,0.7
2024-03-18T2200,3319A,113.7338,23.0381,东莞市,万江金泰,颗粒物(PM10),55,60,60,25,31,34,,45,44,40,44,10,10,0.7,0.7
2024-03-18T2200,3626A,113.7533,23.0202,东莞市,南城元岭,,49,49,51,23,27,33,,45,45,42,43,8,8,0.8,0.9
2024-03-18T2200,3627A,113.7875,23.0457,东莞市,东城主山,,46,46,48,27,29,42,,45,,36,42,7,7,0.6,0.7
2024-03-18T2200,1666A,118.6614,37.4309,东营市,市环保局,颗粒物(PM10),86,122,107,31,32,65,,97,90,33,27,15,22,0.3,0.5
2024-03-18T2200,3036A,118.6904,37.4338,东营市,开发区管委会,颗粒物(PM10),91,132,109,36,33,54,,86,79,40,30,8,13,0.6,0.7
2024-03-18T2200,3365A,118.5719,37.565,东营市,垦利区民丰路,颗粒物(PM10),92,134,114,41,29,64,,95,89,31,30,14,18,0.7,0.7
2024-03-18T2200,3498A,118.5055,37.8612,东营市,河口城区,颗粒物(PM10),101,151,127,42,41,64,,94,86,22,21,7,12,0.7,0.7
2024-03-18T2200,3646A,118.4978,37.4623,东营市,胜利站,颗粒物(PM10),93,136,111,34,29,64,,84,80,30,31,17,21,0.6,0.7
2024-03-18T2200,3734A,118.35,37.26,东营市,理想之城,颗粒物(PM10),90,129,108,39,32,49,,87,79,37,31,10,13,0.6,0.7
2024-03-18T2200,1591A,110.0023,39.8129,鄂尔多斯市,综合楼,颗粒物(PM10),84,117,240,14,41,80,,93,87,13,9,3,3,0.6,0.5
2024-03-18T2200,1592A,109.9486,39.8261,鄂尔多斯市,巴音孟克林场办事处,颗粒物(PM10),80,110,232,22,36,77,,91,86,12,7,6,6,0.4,0.4
2024-03-18T2200,1593A,109.7736,39.5986,鄂尔多斯市,康泽苑,颗粒物(PM10),81,112,191,14,32,90,,96,94,6,7,4,5,0.4,0.4
2024-03-18T2200,1594A,109.8119,39.5989,鄂尔多斯市,华泰汽车城,颗粒物(PM10),87,124,197,19,36,89,,94,91,5,6,4,5,0.3,0.3
2024-03-18T2200,1595A,109.9734,39.7884,鄂尔多斯市,奥林花园,颗粒物(PM10),89,127,254,12,35,82,,87,86,9,14,4,11,0.4,0.4
2024-03-18T2200,2436A,114.8938,30.3994,鄂州市,市政府,颗粒物(PM10),58,66,64,24,24,37,,47,46,27,23,16,9,0.7,0.5
2024-03-18T2200,2437A,114.8989,30.3714,鄂州市,赵家坝,颗粒物(PM10),54,58,60,27,24,45,,58,52,19,16,4,5,0.5,0.5
2024-03-18T2200,3654A,114.8094,30.4089,鄂州市,精准医疗中心,颗粒物(PM10),59,68,82,23,23,50,,60,59,16,14,5,5,0.7,0.6
2024-03-18T2200,2454A,109.4978,30.2981,恩施土家族苗族自治州,湖北民院,,40,40,38,16,17,17,,76,56,26,18,8,8,1.1,1.1
2024-03-18T2200,2455A,109.4707,30.2798,恩施土家族苗族自治州,州电力总公司,,33,28,23,23,17,12,,75,54,33,17,8,7,1.1,1
2024-03-18T2200,3549A,109.5061,30.3772,恩施土家族苗族自治州,龙凤新区,,18,16,18,12,13,21,,79,54,17,15,6,7,0.8,0.8
2024-03-18T2200,2499A,108.3411,21.6158,防城港市,沙万,颗粒物(PM10),53,56,57,28,29,22,,35,26,31,31,4,8,0.6,0.8
2024-03-18T2200,2500A,108.3514,21.7731,防城港市,防城档案局,颗粒物(PM10),67,83,55,40,33,5,,44,34,33,22,6,7,1.1,1
2024-03-18T2200,2501A,108.3506,21.6414,防城港市,大海花园,,48,48,45,23,26,32,,53,48,24,17,4,6,0.8,0.7
2024-03-18T2200,1371A,113.1294,23.0067,佛山市,湾梁,颗粒物(PM10),54,58,74,22,32,18,,63,50,53,43,8,9,0.6,0.8
2024-03-18T2200,1372A,113.1083,23.0478,佛山市,华材职中,颗粒物(PM10),52,53,68,27,39,23,,64,55,50,45,9,10,0.5,0.7
2024-03-18T2200,1373A,113.144,23.0453,佛山市,南海气象局,,46,46,69,27,39,25,,59,50,46,46,8,8,0.6,0.8
2024-03-18T2200,1374A,113.2881,22.8094,佛山市,顺德苏岗,,45,45,52,24,29,30,,50,47,41,36,4,4,0.6,0.7
2024-03-18T2200,1376A,112.8383,22.8678,佛山市,高明孔堂,颗粒物(PM10),51,51,41,24,26,51,,69,66,16,17,4,4,0.6,0.6
2024-03-18T2200,1377A,112.8836,23.1588,佛山市,三水监测站,颗粒物(PM10),51,51,72,22,36,11,,43,33,54,48,6,8,0.7,0.9
2024-03-18T2200,1378A,112.867,23.185,佛山市,三水云东海,颗粒物(PM10),58,65,66,26,44,22,,61,50,52,32,4,6,0.5,0.7
2024-03-18T2200,3625A,113.2544,22.7642,佛山市,容桂街道办,,48,48,50,22,29,26,,53,46,47,37,6,6,0.6,0.6
2024-03-18T2200,1282A,119.2681,26.0504,福州市,师大,,38,38,55,10,19,86,,98,94,17,17,4,4,0.2,0.3
2024-03-18T2200,1283A,119.2984,26.1028,福州市,五四北路,,38,38,48,10,21,80,,109,93,20,16,4,3,0.5,0.6
2024-03-18T2200,1284A,119.2648,26.0768,福州市,杨桥西路,,38,38,56,10,18,86,,104,98,14,12,3,3,0.2,0.3
2024-03-18T2200,1285A,119.317,26.0746,福州市,紫阳,,41,41,59,12,19,80,,100,92,19,15,2,3,0.3,0.4
2024-03-18T2200,3048A,119.5799,26.0936,福州市,九龙,,39,39,50,9,12,96,,106,105,10,12,3,3,0.3,0.3
2024-03-18T2200,3526A,119.5189,25.9664,福州市,吴航,,,43,44,13,15,92,,100,97,10,12,3,3,,0.3
2024-03-18T2200,1755A,123.7977,41.8491,抚顺市,望花区,细颗粒物(PM2.5),97,90,82,72,54,74,,103,97,32,33,8,14,0.7,0.9
2024-03-18T2200,1756A,123.9161,41.8822,抚顺市,顺城区,细颗粒物(PM2.5),138,156,81,105,51,18,,110,85,81,42,8,8,1.4,0.9
2024-03-18T2200,1757A,124.0436,41.8611,抚顺市,东洲区,细颗粒物(PM2.5),109,118,68,82,39,84,,106,102,22,19,9,11,0.6,0.7
2024-03-18T2200,1758A,123.9247,41.8642,抚顺市,新抚区,细颗粒物(PM2.5),138,163,83,105,53,26,,108,90,64,34,7,6,1.0,0.8
2024-03-18T2200,1759A,124.0972,41.8961,抚顺市,大伙房水库,细颗粒物(PM2.5),115,129,65,87,45,83,,112,106,23,21,6,7,0.6,0.6
2024-03-18T2200,1760A,123.7086,41.8391,抚顺市,沈抚新城,细颗粒物(PM2.5),94,81,84,70,54,59,,103,90,37,31,8,10,0.6,0.8
2024-03-18T2200,2376A,116.2127,28.0814,抚州市,桐源党溪,,25,25,29,15,16,51,,71,48,11,10,3,3,0.8,0.8
2024-03-18T2200,2377A,116.3544,27.9831,抚州市,市站,,32,32,31,21,20,51,,75,48,16,14,2,5,0.9,0.9
2024-03-18T2200,2378A,116.3565,27.963,抚州市,血防站,,,36,35,16,19,58,,86,55,19,16,3,7,,0.8
2024-03-18T2200,2379A,116.3564,28.0007,抚州市,采茶剧团,,32,28,30,22,20,53,,76,48,18,17,5,7,0.8,0.9
2024-03-18T2200,2380A,116.385,27.9647,抚州市,医学分院,,35,35,33,18,17,47,,77,41,18,16,6,9,0.6,0.9
2024-03-18T2200,2207A,121.6094,41.998,阜新市,工业园区,颗粒物(PM10),53,56,50,28,30,60,,95,86,30,21,40,14,0.9,0.9
2024-03-18T2200,2208A,121.6697,42.0279,阜新市,长青街,细颗粒物(PM2.5),57,52,44,40,28,48,,93,81,37,20,31,16,0.7,0.6
2024-03-18T2200,2209A,121.6673,42.0705,阜新市,农业园区,,44,44,46,12,20,91,,98,93,14,16,10,17,0.6,0.6
2024-03-18T2200,2210A,121.6717,42.0224,阜新市,东苑,颗粒物(PM10),56,62,50,34,26,49,,91,79,40,23,39,23,0.5,0.7
2024-03-18T2200,2211A,121.6506,42.0498,阜新市,玉龙新城,,37,37,47,17,19,73,,92,84,19,21,13,13,0.3,0.4
2024-03-18T2200,2301A,115.8277,32.8929,阜阳市,市监测站,颗粒物(PM10),73,95,84,47,33,35,,64,56,39,22,7,8,0.6,0.4
2024-03-18T2200,2303A,115.8554,32.8605,阜阳市,开发区,颗粒物(PM10),85,120,112,53,31,35,,66,55,41,27,6,6,0.6,0.5
2024-03-18T2200,2875A,115.784,32.8892,阜阳市,阜阳职业技术学院,细颗粒物(PM2.5),75,83,87,55,33,25,,65,49,48,26,7,6,0.6,0.4
2024-03-18T2200,3468A,115.7901,32.8613,阜阳市,市规划展馆,颗粒物(PM10),73,95,97,51,28,45,,65,59,33,25,6,7,0.4,0.3
2024-03-18T2200,3469A,115.836,32.9183,阜阳市,枣园社区,颗粒物(PM10),68,85,92,48,26,49,,69,63,30,25,7,7,0.5,0.4
2024-03-18T2200,2669A,102.9099,34.9841,甘南藏族自治州,州政府,,,124,99,55,36,,,105,104,5,8,7,8,0.2,0.3
2024-03-18T2200,3380A,102.8914,34.9617,甘南藏族自治州,甘肃民族师范学院,颗粒物(PM10),96,142,112,40,32,68,,108,100,30,11,27,12,0.6,0.5
2024-03-18T2200,2570A,101.9603,30.0475,甘孜藏族自治州,水桥子,,27,27,10,15,6,70,,85,80,12,9,10,11,0.3,0.3
2024-03-18T2200,3065A,101.9533,29.9972,甘孜藏族自治州,州环保局,,33,33,15,7,5,75,,83,82,13,10,8,8,0.3,0.3
2024-03-18T2200,3414A,115.8347,28.932,赣江新区,桑海产业园,,48,48,64,20,30,54,,56,56,18,21,5,5,0.4,0.5
2024-03-18T2200,2363A,114.9367,25.8664,赣州市,地委,,17,13,21,11,18,54,,47,47,3,9,6,6,0.7,0.8
2024-03-18T2200,2364A,114.9461,25.8481,赣州市,气象台,,42,,18,29,42,55,,48,48,16,17,7,12,0.8,0.7
2024-03-18T2200,2365A,114.9322,25.8333,赣州市,市图书馆,,17,10,23,8,14,52,,46,46,14,15,8,10,0.6,0.9
2024-03-18T2200,2366A,114.8905,25.8471,赣州市,华坚鞋城,,17,17,24,8,12,53,,44,44,9,12,3,5,0.7,0.9
2024-03-18T2200,3109A,115.0093,25.8613,赣州市,赣县区卫计委,,16,6,19,3,13,50,,45,45,11,11,7,8,0.7,0.7
2024-03-18T2200,2683A,106.2319,36.1417,固原市,马园,颗粒物(PM10),193,336,215,82,36,54,,93,84,33,17,4,4,0,0
2024-03-18T2200,2684A,106.2792,36.0022,固原市,监测站,颗粒物(PM10),199,347,197,83,37,75,,93,89,14,15,6,6,0.3,0.3
2024-03-18T2200,2685A,106.2375,36.0211,固原市,新区,颗粒物(PM10),196,341,176,101,36,72,,96,90,14,12,7,7,0.2,0.3
2024-03-18T2200,3522A,106.2177,35.9959,固原市,原州区十五小,颗粒物(PM10),175,300,164,76,33,82,,102,96,12,11,6,8,0.2,0.3
2024-03-18T2200,2544A,106.6303,30.4576,广安市,市委,,32,28,22,22,14,44,,76,65,31,13,4,3,0.8,0.6
2024-03-18T2200,2545A,106.6271,30.4663,广安市,友谊中学,,38,38,20,16,13,28,,80,66,47,18,3,3,1.0,0.8
2024-03-18T2200,2547A,106.6388,30.4551,广安市,广电花园,,33,27,18,23,15,46,,77,66,30,15,4,4,0.9,0.7
2024-03-18T2200,2902A,106.6351,30.4865,广安市,北辰小学,,34,34,20,22,14,39,,77,62,29,14,6,6,0.8,0.7
2024-03-18T2200,2523A,105.8945,32.4535,广元市,黑石坡,颗粒物(PM10),78,106,55,35,17,92,,106,104,10,9,6,4,0.3,0.3
2024-03-18T2200,2524A,105.821,32.4444,广元市,老城,颗粒物(PM10),93,135,77,49,23,5,,90,66,78,20,2,2,0.4,0.4
2024-03-18T2200,2526A,105.8628,32.4287,广元市,监测站,颗粒物(PM10),75,99,67,39,20,48,,99,87,28,11,5,5,0.5,0.4
2024-03-18T2200,3617A,105.8047,32.4166,广元市,经开区,颗粒物(PM10),96,141,80,41,29,7,,93,71,68,20,4,4,0.5,0.5
2024-03-18T2200,1345A,113.2347,23.1423,广州市,广雅中学,,40,40,65,18,32,38,,57,52,36,50,5,5,0.8,0.9
2024-03-18T2200,1346A,113.2612,23.105,广州市,市五中,,44,44,62,22,34,37,,54,49,36,46,6,6,0.8,0.9
2024-03-18T2200,1348A,113.3478,23.0916,广州市,广东商学院,,45,45,54,27,32,32,,56,51,44,44,4,5,0.4,0.6
2024-03-18T2200,1349A,113.4332,23.1047,广州市,市八十六中,,46,46,59,18,26,7,,29,23,73,59,6,6,0.6,0.6
2024-03-18T2200,1350A,113.3505,22.9483,广州市,番禺中学,,41,41,47,21,24,37,,64,59,44,43,6,6,0.8,0.9
2024-03-18T2200,1351A,113.2146,23.3916,广州市,花都师范,,49,49,81,24,43,29,,57,54,42,52,5,6,0.7,1
2024-03-18T2200,1352A,113.2597,23.1331,广州市,市监测站,,44,44,59,23,31,27,,57,50,53,55,5,5,0.7,0.8
2024-03-18T2200,1353A,113.5618,23.312,广州市,九龙镇镇龙,颗粒物(PM10),56,62,67,30,36,8,,58,48,61,40,6,6,0.7,0.8
2024-03-18T2200,1354A,113.2765,23.1544,广州市,麓湖,,45,45,58,21,31,35,,60,55,34,37,5,5,0.7,0.8
2024-03-18T2200,1355A,113.443,23.3035,广州市,帽峰山森林公园,,24,23,31,15,24,27,,64,54,48,36,8,8,0.8,0.7
2024-03-18T2200,2846A,113.3221,23.1322,广州市,体育西,,33,32,48,23,28,32,,54,50,40,42,6,7,0.8,0.9
2024-03-18T2200,3298A,113.5717,23.5491,广州市,从化街口,"颗粒物(PM10),细颗粒物(PM2.5)",54,58,73,38,49,13,,55,45,47,35,6,6,0.9,0.9
2024-03-18T2200,3299A,113.3472,23.3692,广州市,白云竹料,,50,50,75,26,41,26,,51,46,46,40,7,6,0.7,0.8
2024-03-18T2200,3300A,113.2981,23.237,广州市,白云嘉禾,,46,46,70,21,33,38,,57,53,45,49,7,7,0.7,0.8
2024-03-18T2200,3301A,113.4256,23.1716,广州市,黄埔科学城,,,44,68,23,37,18,,39,34,,48,6,5,0.7,0.8
2024-03-18T2200,3302A,113.3942,23.0483,广州市,番禺大学城,,39,39,49,17,23,50,,62,60,30,39,3,4,1.1,1
2024-03-18T2200,3303A,113.4922,22.8168,广州市,南沙黄阁,,43,43,40,18,24,14,,59,50,76,37,6,5,0.8,0.8
2024-03-18T2200,3304A,113.5342,22.7896,广州市,南沙街,,47,47,38,18,24,5,,56,44,81,36,8,6,0.7,0.7
2024-03-18T2200,3443A,113.2902,23.5544,广州市,花都梯面,颗粒物(PM10),51,52,67,27,37,34,,60,58,37,34,7,6,0.8,0.8
2024-03-18T2200,3445A,113.7858,23.7478,广州市,从化良口,,48,47,47,33,34,19,,69,58,32,20,4,4,0.9,0.9
2024-03-18T2200,3446A,113.8051,23.2614,广州市,增城荔城,颗粒物(PM10),52,53,70,29,46,33,,45,40,36,37,6,6,0.6,0.6
2024-03-18T2200,2505A,109.568,23.1478,贵港市,德智高中,,12,8,53,6,33,36,,54,50,7,22,3,6,0.8,0.8
2024-03-18T2200,2506A,109.6047,23.0666,贵港市,江南子站,,19,19,53,11,36,34,,56,46,9,22,6,8,0.8,0.9
2024-03-18T2200,2507A,109.6014,23.0948,贵港市,贵城子站,,29,29,59,9,33,30,,53,44,10,22,8,9,0.7,0.7
2024-03-18T2200,2508A,109.5669,23.1065,贵港市,荷城子站,,24,24,47,5,33,35,,55,48,7,19,9,12,0.6,0.7
2024-03-18T2200,3405A,109.5886,23.1172,贵港市,新世纪学校,,24,24,47,6,34,36,,62,55,11,21,7,10,0.9,1
2024-03-18T2200,1439A,106.6899,26.5998,贵阳市,马鞍山,,21,17,13,5,5,66,,68,68,20,6,9,8,0.5,0.6
2024-03-18T2200,1440A,106.6971,26.5694,贵阳市,市环保站,,22,17,19,12,10,70,,71,71,12,13,5,5,0.4,0.4
2024-03-18T2200,1441A,106.6243,26.6266,贵阳市,鉴湖路,,23,22,23,7,9,73,,72,72,9,11,4,3,0.5,0.5
2024-03-18T2200,1442A,106.7487,26.6343,贵阳市,燕子冲,,23,,9,14,9,71,,72,72,9,9,6,6,0.4,0.5
2024-03-18T2200,1443A,106.6555,26.4365,贵阳市,碧云窝,,24,24,27,9,9,74,,73,73,11,13,7,7,0.3,0.5
2024-03-18T2200,1444A,106.694,26.5161,贵阳市,中院村,,,14,18,,10,,,72,72,10,12,10,9,0.5,0.5
2024-03-18T2200,1445A,106.7109,26.6027,贵阳市,红边门,,25,19,16,17,9,70,,72,72,8,9,6,5,0.4,0.4
2024-03-18T2200,1446A,106.7164,26.5699,贵阳市,新华路,,22,22,17,9,8,69,,73,73,14,12,6,6,0.5,0.5
2024-03-18T2200,1447A,106.674,26.5424,贵阳市,太慈桥,,23,14,15,12,8,71,,71,71,11,12,6,7,0.4,0.5
2024-03-18T2200,1862A,110.4144,25.3167,桂林市,电子科大尧山校区,,35,,11,24,17,59,,68,62,7,7,2,3,0.5,0.7
2024-03-18T2200,1863A,110.2819,25.2697,桂林市,监测站,,15,,15,8,17,48,,58,49,11,13,8,7,0.6,0.8
2024-03-18T2200,1864A,110.3089,25.2708,桂林市,龙隐路小学,,16,10,15,9,18,51,,59,55,10,11,4,4,0.6,0.7
2024-03-18T2200,1865A,110.2869,25.2178,桂林市,八中,,15,,13,9,16,48,,49,,12,12,4,4,0.6,0.7
2024-03-18T2200,3403A,110.1764,25.2381,桂林市,创业大厦,,17,12,18,9,12,53,,63,56,8,9,7,7,0.6,0.8
2024-03-18T2200,3531A,110.296,25.1253,桂林市,旅游学院,,16,2,9,0,8,49,,53,53,8,11,5,5,0.6,0.8
2024-03-18T2200,2674A,100.2561,34.4714,果洛藏族自治州,玛沁县大武镇,颗粒物(PM10),69,87,101,28,28,81,,104,102,22,18,9,11,0.4,0.5
2024-03-18T2200,1129A,126.5422,45.755,哈尔滨市,岭北,,22,18,19,15,15,66,,86,80,21,17,8,10,0.8,0.7
2024-03-18T2200,1130A,126.561,45.8167,哈尔滨市,松北商大,,25,22,23,17,15,71,,93,81,13,17,5,11,0.5,0.4
2024-03-18T2200,1131A,126.979,45.5419,哈尔滨市,阿城会宁,,49,43,22,34,20,34,,86,69,50,17,4,9,0.6,0.4
2024-03-18T2200,1132A,126.599,45.7222,哈尔滨市,南岗学府路,,33,33,36,14,13,59,,85,78,29,21,9,9,0.3,0.4
2024-03-18T2200,1133A,126.689,45.7733,哈尔滨市,太平宏伟公园,,42,36,31,29,25,60,,89,75,34,30,10,9,0.4,0.5
2024-03-18T2200,1134A,126.635,45.7667,哈尔滨市,道外承德广场,,50,42,27,35,18,36,,81,68,54,29,9,10,0.6,0.4
2024-03-18T2200,1135A,126.685,45.7319,哈尔滨市,香坊红旗大街,,29,28,29,20,20,53,,81,72,35,26,8,6,0.6,0.5
2024-03-18T2200,1136A,126.6411,45.7258,哈尔滨市,动力和平路,,31,31,27,14,18,59,,92,84,37,21,4,6,0.6,0.5
2024-03-18T2200,1137A,126.593,45.7478,哈尔滨市,道里建国路,,28,28,24,18,19,54,,84,77,38,24,10,8,0.5,0.5
2024-03-18T2200,1138A,126.615,45.61,哈尔滨市,平房东轻厂,,42,42,31,28,20,43,,72,58,38,26,8,6,0.6,0.4
2024-03-18T2200,1139A,126.595,45.9855,哈尔滨市,呼兰师专,细颗粒物(PM2.5),57,58,36,40,29,12,,86,61,80,31,16,12,0.8,0.7
2024-03-18T2200,1140A,126.6206,45.6842,哈尔滨市,省农科院,,50,50,33,26,25,32,,86,73,62,28,12,10,0.7,0.5
2024-03-18T2200,2688A,93.5128,42.8172,哈密市,地区监测站,颗粒物(PM10),106,161,81,42,25,67,,99,94,34,24,3,6,0.6,0.5
2024-03-18T2200,2689A,93.4961,42.8328,哈密市,哈密师范学校,颗粒物(PM10),129,208,86,47,25,38,,96,86,57,30,5,6,0.8,0.4
2024-03-18T2200,2671A,100.9048,36.9639,海北藏族自治州,海晏县西海镇,,39,39,83,17,31,76,,118,103,9,8,9,12,0.4,0.4
2024-03-18T2200,3867A,102.0738,36.5056,海东市,平安区公安北苑,颗粒物(PM10),86,121,134,28,40,80,,108,104,20,11,10,9,0.7,0.2
2024-03-18T2200,1410A,110.3232,20.0574,海口市,海南大学,,35,35,32,16,18,53,,60,56,5,6,7,7,0.3,0.3
2024-03-18T2200,1411A,110.283,20.0053,海口市,秀英海南医院,,28,28,29,17,17,48,,62,57,6,6,9,8,0.4,0.4
2024-03-18T2200,1412A,110.338,19.9969,海口市,海南师范大学,,30,30,34,17,17,47,,65,58,4,4,8,7,0.4,0.4
2024-03-18T2200,1413A,110.33,20.0356,海口市,龙华路环保局宿舍,,32,32,31,15,17,49,,59,54,4,6,8,8,0.3,0.3
2024-03-18T2200,3539A,110.5111,19.9736,海口市,桂林洋子站,,43,37,25,30,18,48,,59,53,4,4,7,7,0.3,0.3
2024-03-18T2200,2673A,100.6188,36.2866,海南藏族自治州,共和县恰卜恰镇,颗粒物(PM10),55,60,134,17,40,71,,121,103,20,7,14,11,0.3,0.4
2024-03-18T2200,2676A,97.3731,37.3753,海西蒙古族藏族自治州,德令哈市,颗粒物(PM10),73,95,96,21,20,86,,130,114,12,13,10,10,0.6,0.6
2024-03-18T2200,1048A,114.5302,36.6116,邯郸市,东污水处理厂,颗粒物(PM10),199,348,119,44,31,58,,78,73,20,20,4,5,0.4,0.5
2024-03-18T2200,1049A,114.4918,36.5713,邯郸市,矿院,颗粒物(PM10),93,136,81,38,24,69,,77,75,16,24,4,6,0.6,0.7
2024-03-18T2200,1050A,114.484,36.6133,邯郸市,丛台公园,颗粒物(PM10),168,286,92,33,28,75,,82,80,10,22,4,6,0.3,0.4
2024-03-18T2200,3458A,114.7895,36.5593,邯郸市,香泉濮院小区,颗粒物(PM10),72,94,110,30,31,62,,91,89,15,11,4,8,0.3,0.4
2024-03-18T2200,3579A,114.50634,36.77178,邯郸市,永年区实验高中,颗粒物(PM10),488,588,130,54,33,86,,96,86,3,25,2,11,0.2,0.7
2024-03-18T2200,3580A,114.20016,36.44293,邯郸市,峰峰矿区临水派出所,颗粒物(PM10),131,211,79,24,22,88,,104,102,9,14,5,9,0.3,0.6
2024-03-18T2200,2634A,106.9893,33.1842,汉中市,汉川机床厂子校,颗粒物(PM10),56,62,39,13,21,66,,93,88,8,12,3,4,0.5,0.8
2024-03-18T2200,2635A,107.0154,33.0706,汉中市,市监测站,颗粒物(PM10),63,76,44,30,28,55,,97,91,30,16,7,7,0.9,0.7
2024-03-18T2200,2636A,107.0089,33.1138,汉中市,鑫源开发区,颗粒物(PM10),55,60,48,21,26,54,,101,92,22,20,8,7,0.7,0.6
2024-03-18T2200,2637A,107.007,33.0323,汉中市,南郑大河坎水厂,颗粒物(PM10),66,82,44,39,25,15,,95,81,55,17,8,8,0.9,0.6
2024-03-18T2200,1223A,120.2072,30.2111,杭州市,滨江,颗粒物(PM10),65,79,97,30,29,20,,49,32,58,41,4,4,0.6,0.6
2024-03-18T2200,1224A,120.0633,30.2747,杭州市,西溪,颗粒物(PM10),64,78,71,33,21,7,,45,24,64,39,7,7,0.8,0.7
2024-03-18T2200,1226A,120.3461,30.3153,杭州市,下沙,颗粒物(PM10),69,87,108,32,25,37,,57,30,42,42,6,6,0.5,0.6
2024-03-18T2200,1227A,120.1269,30.2456,杭州市,卧龙桥,颗粒物(PM10),62,73,73,35,25,4,,47,26,53,34,4,5,0.6,0.5
2024-03-18T2200,1228A,120.1903,30.2692,杭州市,浙江农大,颗粒物(PM10),66,82,80,29,25,1,,46,18,68,42,6,6,0.8,0.7
2024-03-18T2200,1230A,120.1197,30.3119,杭州市,和睦小学,颗粒物(PM10),65,79,77,29,23,6,,47,24,64,35,6,6,0.7,0.6
2024-03-18T2200,1231A,120.3019,30.4183,杭州市,临平镇,颗粒物(PM10),66,81,119,43,29,3,,53,23,70,35,5,5,0.6,0.5
2024-03-18T2200,1232A,120.2697,30.1819,杭州市,城厢镇,颗粒物(PM10),62,74,84,32,25,32,,54,39,39,31,7,7,0.6,0.6
2024-03-18T2200,1233A,120.0883,30.1808,杭州市,云栖,颗粒物(PM10),65,79,76,35,26,4,,44,25,52,31,8,8,0.7,0.6
2024-03-18T2200,3557A,119.9464,30.0494,杭州市,镇二中,颗粒物(PM10),65,80,67,46,27,14,,41,29,53,37,10,9,0.7,0.6
2024-03-18T2200,3558A,119.7183,30.2367,杭州市,市府大楼,颗粒物(PM10),61,72,60,41,30,34,,52,40,33,31,5,5,0.7,0.6
2024-03-18T2200,3656A,120.1556,30.2864,杭州市,消防大队,颗粒物(PM10),69,88,82,40,28,6,,54,27,79,41,10,9,0.9,0.7
2024-03-18T2200,1270A,117.1959,31.7848,合肥市,明珠广场,颗粒物(PM10),67,83,73,41,25,2,,60,36,70,34,2,3,0.8,0.7
2024-03-18T2200,1271A,117.3072,31.8764,合肥市,三里街,颗粒物(PM10),62,73,70,27,25,7,,52,38,72,30,6,6,0.9,0.7
2024-03-18T2200,1272A,117.2588,31.8707,合肥市,琥珀山庄,颗粒物(PM10),60,70,73,22,20,14,,67,51,74,33,5,5,0.5,0.4
2024-03-18T2200,1273A,117.1604,31.9052,合肥市,董铺水库,颗粒物(PM10),54,58,82,17,22,5,,74,56,65,19,3,3,0.4,0.4
2024-03-18T2200,1274A,117.25,31.8571,合肥市,长江中路,颗粒物(PM10),58,66,70,30,27,10,,63,47,64,26,8,8,1.0,0.8
2024-03-18T2200,1275A,117.266,31.9436,合肥市,庐阳区,颗粒物(PM10),59,68,74,17,21,16,,63,43,58,27,3,3,0.6,0.6
2024-03-18T2200,1276A,117.336,31.8586,合肥市,瑶海区,颗粒物(PM10),59,68,72,24,22,6,,63,44,79,27,8,7,0.9,0.6
2024-03-18T2200,1277A,117.3027,31.7964,合肥市,包河区,颗粒物(PM10),59,68,76,24,24,3,,45,31,80,44,9,6,0.5,0.4
2024-03-18T2200,1278A,117.2776,31.7385,合肥市,滨湖新区,颗粒物(PM10),71,92,79,36,26,0,,58,42,83,26,8,7,0.9,0.6
2024-03-18T2200,1279A,117.1318,31.8403,合肥市,高新区,颗粒物(PM10),63,75,70,24,23,4,,60,42,76,31,5,6,0.7,0.6
2024-03-18T2200,3464A,117.3803,31.9147,合肥市,高教基地,颗粒物(PM10),52,54,69,21,20,8,,67,47,56,23,3,5,0.6,0.4
2024-03-18T2200,3614A,79.924,37.0877,和田地区,地区环保局,颗粒物(PM10),313,430,404,107,98,69,,98,95,24,11,6,7,0.9,0.8
2024-03-18T2200,3615A,79.9131,37.113,和田地区,市环保局,颗粒物(PM10),283,408,411,80,84,72,,103,99,18,13,7,6,0.8,0.8
2024-03-18T2200,2516A,108.2011,24.715,河池市,东仁乐园,,17,17,45,11,31,12,,13,12,7,9,5,5,0.7,0.6
2024-03-18T2200,2517A,108.0497,24.6947,河池市,市环保站,,18,6,43,6,31,56,,50,50,11,15,6,6,0.6,0.8
2024-03-18T2200,2518A,108.0983,24.6989,河池市,市疾控中心,,20,11,42,4,28,62,,55,55,9,20,7,9,0.7,0.7
2024-03-18T2200,1696A,114.6778,23.7569,河源市,源西,细颗粒物(PM2.5),57,40,50,40,37,57,,74,67,10,14,4,4,0.7,0.8
2024-03-18T2200,1697A,114.6944,23.7586,河源市,东埔,细颗粒物(PM2.5),65,68,66,47,44,57,,71,66,15,19,6,6,0.7,0.9
2024-03-18T2200,1698A,114.6892,23.7233,河源市,老城,,40,40,47,26,23,61,,72,68,14,14,5,5,0.6,0.7
2024-03-18T2200,1718A,115.4208,35.2464,菏泽市,气象局,颗粒物(PM10),98,145,189,25,28,71,,93,91,27,25,4,5,0.4,0.5
2024-03-18T2200,1719A,115.4747,35.2375,菏泽市,市政协,颗粒物(PM10),92,134,174,31,28,66,,87,86,23,21,3,4,0.4,0.4
2024-03-18T2200,3374A,115.5564,35.0891,菏泽市,定陶老年大学,颗粒物(PM10),82,114,141,19,21,75,,90,90,17,19,5,5,0.3,0.3
2024-03-18T2200,3647A,115.4702,35.2706,菏泽市,菏泽医专,颗粒物(PM10),93,135,178,19,21,73,,95,94,20,21,4,5,0.3,0.3
2024-03-18T2200,2514A,111.5264,24.4172,贺州市,环保小区,,17,14,34,9,20,52,,40,40,9,16,7,8,0.6,1
2024-03-18T2200,2515A,111.5608,24.4078,贺州市,政协大楼,,23,23,39,12,22,48,,35,35,12,20,7,7,0.6,0.8
2024-03-18T2200,3534A,111.4744,24.4553,贺州市,西湾,,,3,21,,20,53,,43,43,6,12,6,8,0.6,0.8
2024-03-18T2200,2385A,114.17,35.9019,鹤壁市,市监测站,颗粒物(PM10),107,164,96,53,38,57,,85,79,21,16,6,9,0.4,0.5
2024-03-18T2200,2386A,114.2956,35.7511,鹤壁市,市交警支队,颗粒物(PM10),71,91,89,36,26,42,,90,80,40,21,8,9,0.3,0.4
2024-03-18T2200,2387A,114.2878,35.7306,鹤壁市,迎宾馆,颗粒物(PM10),61,71,87,24,23,44,,90,81,34,21,8,11,0.4,0.5
2024-03-18T2200,3474A,114.2617,35.6822,鹤壁市,大新区,颗粒物(PM10),70,90,117,32,29,29,,91,74,54,29,8,12,0.4,0.5
2024-03-18T2200,3596A,114.1572,35.9603,鹤壁市,南山宾馆,颗粒物(PM10),180,309,119,35,33,90,,84,84,9,25,2,6,0.3,0.4
2024-03-18T2200,2244A,130.2537,47.3416,鹤岗市,哈啤分公司,,26,23,17,15,16,81,,84,82,4,5,12,12,0.4,0.3
2024-03-18T2200,2245A,130.2684,47.3086,鹤岗市,斯达机电,,28,27,22,19,16,80,,85,83,9,7,9,10,0.3,0.3
2024-03-18T2200,2246A,130.3114,47.3388,鹤岗市,东山纸板厂,,34,34,39,11,19,66,,88,84,18,9,17,14,0.7,0.6
2024-03-18T2200,2247A,130.1097,47.3382,鹤岗市,五号水库,,30,28,17,21,11,71,,94,90,6,4,8,8,1.0,0.9
2024-03-18T2200,2263A,127.4833,50.2524,黑河市,交通局,,42,42,20,25,16,52,,84,65,18,8,10,6,0.5,0.4
2024-03-18T2200,2264A,127.5144,50.2341,黑河市,环保局,,46,44,19,32,18,30,,88,68,46,10,9,4,0.7,0.3
2024-03-18T2200,1074A,115.6838,37.7541,衡水市,电机北厂,颗粒物(PM10),179,308,122,32,34,83,,90,90,4,15,1,5,0.3,0.4
2024-03-18T2200,1075A,115.6303,37.7316,衡水市,市监测站,颗粒物(PM10),155,259,113,53,33,79,,87,87,5,21,8,12,0.2,0.4
2024-03-18T2200,3188A,115.6683,37.7217,衡水市,市城管局,颗粒物(PM10),187,323,124,32,43,79,,87,87,8,21,4,8,0.3,0.4
2024-03-18T2200,3459A,115.5989,37.5491,衡水市,地表水厂,颗粒物(PM10),152,253,125,28,36,85,,93,92,2,20,3,6,0.4,0.4
2024-03-18T2200,2456A,112.5003,26.9167,衡阳市,原169医院,,27,27,15,9,10,56,,63,58,14,13,9,9,0.5,0.6
2024-03-18T2200,2457A,112.6194,26.9258,衡阳市,衡阳化工总厂,,31,31,18,7,9,57,,54,53,16,20,5,5,0.5,0.6
2024-03-18T2200,2458A,112.6211,26.8956,衡阳市,珠晖区环保局,,24,24,18,16,16,57,,54,54,9,14,5,5,0.6,0.8
2024-03-18T2200,2459A,112.6197,26.8733,衡阳市,市委党校,,24,24,19,15,11,59,,59,57,15,18,4,3,0.5,0.8
2024-03-18T2200,2460A,112.6006,26.8919,衡阳市,市监测站,,38,32,17,26,11,57,,58,58,11,13,7,6,0.5,0.7
2024-03-18T2200,2461A,112.5664,26.9056,衡阳市,真空机电公司,,25,25,17,15,14,57,,57,57,14,14,6,6,0.6,0.8
2024-03-18T2200,3399A,112.6703,26.882,衡阳市,师范学院,,24,24,18,16,14,56,,60,54,11,13,6,6,0.6,0.8
2024-03-18T2200,2608A,103.3772,23.3993,红河哈尼族彝族自治州,污水处理厂,细颗粒物(PM2.5),80,73,80,59,63,110,,143,132,11,10,7,8,0.8,0.8
2024-03-18T2200,2609A,103.3861,23.35,红河哈尼族彝族自治州,监测站,细颗粒物(PM2.5),78,90,81,57,65,113,,140,131,12,10,12,11,1.0,0.9
2024-03-18T2200,3038A,103.3758,23.368,红河哈尼族彝族自治州,州图书馆,细颗粒物(PM2.5),74,76,75,54,57,109,,136,126,10,9,6,6,0.9,0.8
2024-03-18T2200,1090A,111.6507,40.7517,呼和浩特市,呼市一监,,41,41,186,6,49,86,,91,90,6,21,8,12,0.3,0.5
2024-03-18T2200,1091A,111.6572,40.8033,呼和浩特市,小召,,36,36,220,6,46,86,,96,93,10,21,4,8,0.2,0.3
2024-03-18T2200,1094A,111.7516,40.8369,呼和浩特市,如意水处理厂,,39,39,166,4,37,78,,84,82,8,23,6,8,0.2,0.3
2024-03-18T2200,1095A,111.7276,40.8062,呼和浩特市,二十九中,,45,45,209,6,44,80,,90,88,9,22,8,11,0.4,0.5
2024-03-18T2200,1096A,111.5512,40.7866,呼和浩特市,工大金川校区,,44,44,208,15,58,80,,87,84,4,21,4,8,0.3,0.5
2024-03-18T2200,1097A,111.717,40.7612,呼和浩特市,化肥厂生活区,,48,48,170,6,45,81,,90,88,8,24,6,10,0.3,0.5
2024-03-18T2200,3698A,111.5968,40.8178,呼和浩特市,红旗小学,,41,41,244,6,49,78,,90,87,11,23,5,8,0.3,0.4
2024-03-18T2200,3699A,111.6518,40.8389,呼和浩特市,海东办,,41,41,214,6,39,79,,91,86,8,25,7,8,0.2,0.4
2024-03-18T2200,2192A,119.7594,49.2261,呼伦贝尔市,区环保局,,39,,28,27,18,88,,94,92,14,16,3,4,0.5,0.5
2024-03-18T2200,3061A,119.7512,49.1577,呼伦贝尔市,国华电力东,,30,28,23,19,16,93,,98,97,9,8,4,3,0.3,0.3
2024-03-18T2200,1250A,120.0751,30.8669,湖州市,城西水厂,颗粒物(PM10),65,80,101,36,23,10,,70,34,66,36,4,4,0.6,0.5
2024-03-18T2200,2873A,120.0875,30.8955,湖州市,仁皇山新区,颗粒物(PM10),61,72,100,36,26,4,,64,30,70,36,6,6,0.7,0.6
2024-03-18T2200,2907A,120.1844,30.8596,湖州市,吴兴区站,颗粒物(PM10),54,57,90,29,24,1,,60,27,66,34,6,7,0.8,0.7
2024-03-18T2200,3562A,120.4148,30.8538,湖州市,南浔区站,颗粒物(PM10),71,91,102,36,25,22,,66,38,56,32,8,8,0.8,0.6
2024-03-18T2200,1607A,120.9092,40.7136,葫芦岛市,龙港区,颗粒物(PM10),58,66,67,36,32,54,,91,83,48,27,13,19,0.8,0.7
2024-03-18T2200,1608A,120.8392,40.7514,葫芦岛市,化工街,,,92,81,48,36,26,,91,68,,35,17,12,1.1,0.9
2024-03-18T2200,1609A,120.8341,40.7073,葫芦岛市,新区,细颗粒物(PM2.5),100,111,63,75,34,37,,88,72,65,40,21,15,1.2,0.8
2024-03-18T2200,1610A,120.8695,40.7677,葫芦岛市,东城区,细颗粒物(PM2.5),87,99,73,64,39,25,,96,72,74,44,15,14,1.2,1
2024-03-18T2200,2482A,109.5981,27.5721,怀化市,林科所,,21,12,13,6,8,65,,72,68,4,4,5,5,0.5,0.7
2024-03-18T2200,2483A,109.9453,27.5444,怀化市,河西地税局,,23,22,17,16,13,47,,67,57,17,9,5,4,0.6,0.7
2024-03-18T2200,2484A,109.9781,27.5342,怀化市,市四医院,,18,17,16,9,12,56,,68,62,13,10,5,4,0.6,0.8
2024-03-18T2200,2485A,109.9972,27.5578,怀化市,监测楼,,20,20,17,11,11,50,,68,66,14,10,8,6,0.6,0.7
2024-03-18T2200,2486A,110.0394,27.583,怀化市,市委党校,,21,21,19,14,12,46,,65,57,15,9,6,6,0.6,0.7
2024-03-18T2200,1210A,119.036,33.5981,淮安市,钵池山,颗粒物(PM10),67,83,81,38,30,57,,78,66,30,31,10,9,0.6,0.6
2024-03-18T2200,1211A,119.007,33.575,淮安市,北京南路,颗粒物(PM10),69,88,89,42,31,31,,80,53,52,35,8,8,0.6,0.6
2024-03-18T2200,1212A,118.989,33.6067,淮安市,市监测站,颗粒物(PM10),58,66,91,36,33,60,,76,53,32,42,8,8,0.5,0.5
2024-03-18T2200,1213A,119.135,33.5039,淮安市,楚州区监测站,颗粒物(PM10),58,66,94,30,30,22,,81,54,62,34,7,9,0.6,0.6
2024-03-18T2200,1214A,119.0186,33.6297,淮安市,淮阴区监测站,颗粒物(PM10),65,80,100,37,32,40,,71,47,49,43,6,6,0.5,0.5
2024-03-18T2200,3426A,118.8755,33.2894,淮安市,新华书店,,50,50,87,30,31,55,,80,67,35,34,5,7,0.5,0.5
2024-03-18T2200,2282A,116.8004,33.975,淮北市,监测站,颗粒物(PM10),51,52,78,27,22,55,,89,69,20,19,8,8,0.4,0.5
2024-03-18T2200,2283A,116.8091,33.9007,淮北市,烈山区政府,颗粒物(PM10),57,63,86,29,24,34,,74,59,36,27,9,7,0.3,0.3
2024-03-18T2200,3330A,116.8873,33.9836,淮北市,杜集区检察院,颗粒物(PM10),59,68,78,28,29,52,,86,70,21,19,6,7,0.4,0.4
2024-03-18T2200,4017A,116.7923,33.9535,淮北市,市博物馆,颗粒物(PM10),51,52,78,29,23,53,,79,70,17,17,8,8,0.2,0.2
2024-03-18T2200,2277A,116.8305,32.7727,淮南市,潘集区政府,"颗粒物(PM10),细颗粒物(PM2.5)",69,87,79,50,36,24,,70,48,47,24,4,4,0.4,0.3
2024-03-18T2200,2278A,117.0067,32.6524,淮南市,师范学院,,47,47,75,28,30,43,,75,38,30,22,8,9,0.5,0.4
2024-03-18T2200,2279A,116.8569,32.5951,淮南市,谢家集区政府,颗粒物(PM10),59,68,74,18,27,39,,80,44,41,25,5,6,0.4,0.4
2024-03-18T2200,2280A,116.8281,32.633,淮南市,八公山区政府,颗粒物(PM10),62,73,74,29,23,45,,77,49,27,22,4,3,0.4,0.4
2024-03-18T2200,2281A,116.6325,32.6201,淮南市,焦岗湖风景区管理处,,49,49,64,19,18,50,,66,55,27,26,2,2,0.0,0
2024-03-18T2200,2894A,117.0566,32.6531,淮南市,经济技术开发区消防队,,42,42,68,21,23,47,,76,51,36,24,5,5,0.4,0.4
2024-03-18T2200,3329A,117.0108,32.5893,淮南市,山南新区,颗粒物(PM10),53,56,75,22,20,47,,82,60,33,23,3,4,0.4,0.4
2024-03-18T2200,2446A,114.9028,30.4742,黄冈市,职工中心,颗粒物(PM10),57,63,71,26,27,49,,55,55,18,10,8,8,0.5,0.4
2024-03-18T2200,2929A,114.8858,30.4519,黄冈市,红卫路,颗粒物(PM10),52,54,64,28,26,50,,57,56,22,14,6,6,0.5,0.4
2024-03-18T2200,3398A,114.9136,30.4445,黄冈市,市林业局,颗粒物(PM10),52,54,63,30,28,54,,57,57,10,9,6,6,0.6,0.4
2024-03-18T2200,2672A,102.0199,35.5102,黄南藏族自治州,同仁县隆务镇,颗粒物(PM10),65,79,122,23,39,74,,107,100,4,5,11,11,0.7,0.8
2024-03-18T2200,2295A,118.2903,29.6963,黄山市,延安路89号,,27,27,59,18,27,61,,76,63,10,9,5,6,0.4,0.4
2024-03-18T2200,2296A,118.327,29.7178,黄山市,黄山东路89号,,27,27,49,8,23,55,,71,57,14,13,4,5,0.4,0.4
2024-03-18T2200,2297A,118.1371,30.2756,黄山市,黄山区政府5号楼,颗粒物(PM10),56,62,64,32,31,42,,49,44,20,17,8,4,0.7,0.6
2024-03-18T2200,2423A,115.0601,30.2313,黄石市,沈家营,颗粒物(PM10),59,67,63,29,23,38,,57,41,23,19,16,6,0.7,0.7
2024-03-18T2200,2424A,115.0817,30.2006,黄石市,陈家湾,"颗粒物(PM10),细颗粒物(PM2.5)",59,68,72,42,36,44,,65,44,15,20,10,8,0.6,1
2024-03-18T2200,2426A,114.8988,30.2019,黄石市,铁山,颗粒物(PM10),55,59,62,24,26,20,,67,41,24,17,8,8,0.7,0.6
2024-03-18T2200,2427A,115.0307,30.2092,黄石市,团城山,颗粒物(PM10),59,67,63,26,23,41,,70,44,22,17,16,7,0.5,0.7
2024-03-18T2200,3149A,115.0235,30.1578,黄石市,笔架山北路,颗粒物(PM10),57,63,56,31,24,28,,66,43,28,17,6,5,0.6,0.5
2024-03-18T2200,1392A,114.4183,23.0528,惠州市,河南岸金山湖子站,颗粒物(PM10),52,54,48,32,29,63,,78,78,19,21,11,6,0.6,0.6
2024-03-18T2200,1393A,114.4053,23.0822,惠州市,下埔横江三路子站,颗粒物(PM10),52,53,54,31,32,68,,88,88,20,23,14,7,0.6,0.7
2024-03-18T2200,1394A,114.4103,23.1142,惠州市,江北云山西路子站,颗粒物(PM10),51,51,49,23,27,69,,85,85,17,23,13,11,0.5,0.5
2024-03-18T2200,1395A,114.4645,22.7833,惠州市,惠阳区承修路船湖子站,,35,35,39,17,22,85,,90,90,11,24,8,7,0.6,0.6
2024-03-18T2200,1396A,114.5317,22.7422,惠州市,大亚湾管委会子站,,38,38,48,16,22,89,,100,99,19,32,7,8,0.7,0.7
2024-03-18T2200,3314A,114.4338,22.8134,惠州市,惠阳秋长,,46,46,45,19,21,93,,98,98,21,30,8,8,0.6,0.6
2024-03-18T2200,3452A,114.6517,22.775,惠州市,大亚湾霞涌,,38,38,30,22,16,82,,91,91,9,15,9,8,0.4,0.5
2024-03-18T2200,2240A,130.9762,45.3001,鸡西市,环保局,,46,46,24,20,13,18,,64,54,46,12,8,6,0.5,0.3
2024-03-18T2200,2243A,130.9429,45.3039,鸡西市,第一中学,,36,36,20,19,12,52,,90,77,26,11,8,8,0.3,0.1
2024-03-18T2200,3707A,131.0207,45.3073,鸡西市,欧美日汽修厂,颗粒物(PM10),65,80,40,44,21,32,,74,58,28,16,4,4,0.6,0.5
2024-03-18T2200,3709A,130.9967,45.3106,鸡西市,市政设施管理处,颗粒物(PM10),63,75,29,42,15,39,,90,66,30,17,4,4,0.6,0.3
2024-03-18T2200,2367A,114.9754,27.0803,吉安市,红声器材厂,,29,29,35,11,16,56,,51,44,17,18,8,9,0.4,0.7
2024-03-18T2200,2368A,114.9658,27.0999,吉安市,市森林工业局,,19,17,26,13,19,56,,52,44,12,15,10,10,0.6,0.8
2024-03-18T2200,2369A,114.99,27.1312,吉安市,市环境监测站,,19,17,26,10,15,59,,53,45,19,21,7,7,0.5,0.8
2024-03-18T2200,2370A,115.0093,27.0968,吉安市,青原区法院,,22,19,26,15,17,47,,51,43,28,23,12,12,0.6,0.8
2024-03-18T2200,1772A,126.54,43.8622,吉林市,哈达湾,,34,34,34,20,23,72,,98,88,20,11,10,5,0.5,0.5
2024-03-18T2200,1773A,126.5844,43.8358,吉林市,东局子,,44,44,38,26,23,53,,95,79,33,16,14,7,0.6,0.5
2024-03-18T2200,1774A,126.5052,43.8245,吉林市,电力学院,,32,32,33,18,19,80,,102,94,12,11,7,7,0.5,0.5
2024-03-18T2200,1775A,126.6133,43.8972,吉林市,江北,颗粒物(PM10),61,71,50,41,29,43,,96,72,59,25,9,11,0.9,0.6
2024-03-18T2200,1776A,126.555,43.8306,吉林市,江南公园,,32,31,34,22,27,74,,95,86,17,13,6,6,0.5,0.6
2024-03-18T2200,2868A,126.4739,43.953,吉林市,九站,,39,39,38,26,25,58,,104,88,29,16,11,10,0.6,0.6
2024-03-18T2200,1299A,116.9862,36.6114,济南市,科干所,颗粒物(PM10),79,107,137,22,24,98,,98,98,12,17,6,8,0.4,0.5
2024-03-18T2200,1300A,116.9376,36.665,济南市,农科所,颗粒物(PM10),75,100,138,20,26,84,,89,89,20,26,5,7,0.6,0.7
2024-03-18T2200,1301A,117.1265,36.6734,济南市,开发区,颗粒物(PM10),78,105,130,20,22,98,,99,99,8,16,6,8,0.4,0.5
2024-03-18T2200,1303A,117.0624,36.6868,济南市,省种子仓库,颗粒物(PM10),86,122,146,27,26,95,,95,95,8,20,4,6,0.3,0.4
2024-03-18T2200,1304A,116.9489,36.6447,济南市,机床二厂,颗粒物(PM10),84,117,156,27,28,90,,96,96,15,19,6,7,0.5,0.6
2024-03-18T2200,1305A,117.0495,36.663,济南市,市监测站,颗粒物(PM10),79,107,138,27,23,100,,100,100,14,24,9,11,0.5,0.6
2024-03-18T2200,1306A,116.7675,36.5484,济南市,长清党校,颗粒物(PM10),80,110,143,27,26,98,,99,99,16,24,4,7,0.5,0.6
2024-03-18T2200,1616A,117.6795,36.229,济南市,技术学院,颗粒物(PM10),65,80,98,29,31,75,,90,88,25,36,10,10,0.7,0.8
2024-03-18T2200,1961A,117.532,36.6868,济南市,东山小学,颗粒物(PM10),73,95,119,27,25,75,,94,89,22,25,7,8,0.3,0.4
2024-03-18T2200,3059A,117.7161,36.2049,济南市,泰兴公司,颗粒物(PM10),68,85,98,29,34,72,,85,81,20,38,10,11,0.6,0.7
2024-03-18T2200,3064A,117.6867,36.2171,济南市,莱芜战役纪念馆,颗粒物(PM10),67,83,107,24,31,71,,81,80,20,35,8,9,0.6,0.7
2024-03-18T2200,3494A,117.1673,36.9782,济南市,济阳区政府,颗粒物(PM10),92,134,156,24,41,80,,86,85,21,30,7,10,0.4,0.6
2024-03-18T2200,3495A,117.1171,36.63,济南市,锦屏中学,颗粒物(PM10),75,100,122,17,22,99,,100,100,8,12,6,7,0.3,0.4
2024-03-18T2200,3682A,116.9814,36.6819,济南市,济南四建,颗粒物(PM10),78,105,148,27,27,86,,89,89,15,20,7,9,0.4,0.5
2024-03-18T2200,1653A,116.6251,35.4302,济宁市,火炬城,颗粒物(PM10),57,64,81,19,15,59,,75,71,16,17,4,5,0.5,0.5
2024-03-18T2200,1655A,116.5491,35.4042,济宁市,电化厂,颗粒物(PM10),71,91,110,31,20,38,,78,66,32,22,5,7,0.5,0.5
2024-03-18T2200,3500A,116.5814,35.3707,济宁市,北湖一中,颗粒物(PM10),65,79,91,24,20,52,,71,65,19,18,7,9,0.7,0.6
2024-03-18T2200,3501A,116.8249,35.5593,济宁市,服务中心,颗粒物(PM10),73,95,105,20,23,45,,74,62,31,25,5,6,0.7,0.7
2024-03-18T2200,3678A,116.5907,35.4054,济宁市,市第七中学,颗粒物(PM10),65,79,95,22,17,58,,78,73,16,15,4,5,0.6,0.6
2024-03-18T2200,2255A,130.2751,46.8028,佳木斯市,佳纺,颗粒物(PM10),72,93,39,33,14,15,,84,57,68,23,8,7,0.7,0.4
2024-03-18T2200,2256A,130.3995,46.8307,佳木斯市,发电厂,,28,28,18,15,9,88,,91,86,3,7,8,4,0.4,0.4
2024-03-18T2200,2257A,130.3258,46.7975,佳木斯市,环保局,,47,47,24,22,14,62,,89,70,25,21,4,6,0.6,0.6
2024-03-18T2200,2258A,130.3648,46.8032,佳木斯市,十一中,,39,39,20,26,12,70,,86,71,22,20,6,8,0.4,0.4
2024-03-18T2200,2259A,130.3794,46.7588,佳木斯市,四丰,,24,23,14,12,8,75,,99,94,16,8,1,1,0.5,0.5
2024-03-18T2200,1252A,120.7436,30.778,嘉兴市,清河小学,颗粒物(PM10),56,61,104,24,21,45,,66,38,32,28,7,7,0.5,0.8
2024-03-18T2200,1253A,120.726,30.7478,嘉兴市,嘉兴学院,颗粒物(PM10),58,65,93,23,23,49,,65,37,31,27,5,6,0.4,0.5
2024-03-18T2200,2872A,120.7846,30.7525,嘉兴市,南湖区残联,颗粒物(PM10),60,69,95,29,25,47,,62,35,32,31,6,6,0.5,0.5
2024-03-18T2200,3407A,120.6916,30.7739,嘉兴市,秀洲住建,颗粒物(PM10),54,58,108,27,28,20,,58,29,56,33,6,6,0.5,0.4
2024-03-18T2200,1945A,98.2908,39.7711,嘉峪关市,气象局,颗粒物(PM10),80,110,56,34,15,67,,102,94,39,10,8,7,0.3,0.2
2024-03-18T2200,2884A,98.2672,39.7978,嘉峪关市,酒钢宾馆,颗粒物(PM10),81,112,66,27,18,91,,98,95,20,10,8,16,0.4,0.5
2024-03-18T2200,3248A,98.2643,39.7724,嘉峪关市,雄关区,颗粒物(PM10),69,88,49,28,13,85,,100,96,24,11,8,7,0.4,0.4
2024-03-18T2200,1383A,113.1064,22.6058,江门市,北街,,29,29,37,20,27,65,,67,67,15,18,6,6,0.5,0.7
2024-03-18T2200,1384A,113.0731,22.5835,江门市,西区,,36,36,39,22,23,68,,71,71,22,24,6,6,0.5,0.5
2024-03-18T2200,1385A,113.0219,22.5311,江门市,圭峰西,,43,43,37,22,22,65,,68,67,20,20,6,6,0.6,0.7
2024-03-18T2200,1386A,113.0828,22.5947,江门市,东湖,,38,38,44,22,27,71,,72,72,18,21,6,6,0.4,0.5
2024-03-18T2200,3311A,113.1075,22.5647,江门市,江海富民,颗粒物(PM10),57,64,61,24,35,68,,71,71,19,21,6,6,0.4,0.5
2024-03-18T2200,3449A,113.05,22.4667,江门市,新会银湖,细颗粒物(PM2.5),54,42,37,38,35,62,,71,67,21,18,5,5,0.6,0.6
2024-03-18T2200,1828A,113.227,35.2125,焦作市,市环保局,颗粒物(PM10),83,115,103,36,35,79,,91,91,17,21,8,9,0.6,0.6
2024-03-18T2200,3169A,113.2725,35.2067,焦作市,太极体育中心,颗粒物(PM10),84,117,110,34,37,88,,96,96,19,27,8,9,0.6,0.5
2024-03-18T2200,3335A,113.3137,35.2641,焦作市,马村街道办,颗粒物(PM10),83,116,114,40,36,74,,91,90,24,23,9,11,0.6,0.4
2024-03-18T2200,3336A,113.2465,35.2373,焦作市,焦作技师学院,颗粒物(PM10),85,119,95,44,33,73,,88,86,31,26,8,8,1.0,0.5
2024-03-18T2200,3477A,113.1656,35.2539,焦作市,中站许衡医院,颗粒物(PM10),87,124,103,35,32,85,,89,89,17,23,7,11,0.5,0.7
2024-03-18T2200,3981A,113.2449,35.1803,焦作市,原李万街道办,颗粒物(PM10),83,115,115,34,30,57,,89,86,31,27,19,12,0.5,0.3
2024-03-18T2200,1708A,116.3701,23.5345,揭阳市,新兴,颗粒物(PM10),72,94,68,43,40,69,,99,93,36,28,14,11,0.8,0.9
2024-03-18T2200,1709A,116.3264,23.5443,揭阳市,西马,颗粒物(PM10),69,88,67,37,37,78,,103,96,25,25,12,11,0.7,0.8
2024-03-18T2200,1710A,116.3611,23.5626,揭阳市,东兴,颗粒物(PM10),78,106,71,45,43,79,,98,94,23,23,11,12,0.7,0.8
2024-03-18T2200,1711A,116.4151,23.5294,揭阳市,渔湖,颗粒物(PM10),80,110,68,33,18,73,,98,92,27,24,12,10,0.7,0.7
2024-03-18T2200,3320A,116.403,23.5699,揭阳市,曲溪,颗粒物(PM10),78,105,62,42,32,78,,98,92,25,25,7,10,0.7,0.8
2024-03-18T2200,1944A,102.1692,38.5167,金昌市,天庆家园,颗粒物(PM10),68,86,82,20,10,55,,100,92,34,10,11,6,0.5,0.2
2024-03-18T2200,3170A,102.1864,38.5253,金昌市,市委党校,颗粒物(PM10),88,125,108,37,22,68,,102,98,24,4,11,11,0.4,0.3
2024-03-18T2200,4022A,102.1647,38.5371,金昌市,金川区人防中心,颗粒物(PM10),74,97,106,18,17,62,,102,95,19,7,13,10,0.5,0.3
2024-03-18T2200,1262A,119.647,29.077,金华市,十五中,颗粒物(PM10),51,51,82,29,36,50,,56,46,33,35,3,3,0.5,0.6
2024-03-18T2200,1263A,119.686,29.1029,金华市,监测站,,43,37,63,30,38,46,,54,44,35,38,3,3,0.6,0.7
2024-03-18T2200,3659A,119.656,29.1131,金华市,气象局,颗粒物(PM10),51,52,78,26,31,43,,56,44,37,35,3,3,0.4,0.3
2024-03-18T2200,1767A,121.1115,41.0879,锦州市,南山,细颗粒物(PM2.5),85,85,64,63,40,59,,104,89,47,34,32,16,1.2,0.9
2024-03-18T2200,1768A,121.0533,40.8434,锦州市,开发区,细颗粒物(PM2.5),100,143,89,75,43,19,,88,52,91,52,29,22,1.2,0.9
2024-03-18T2200,1769A,121.1836,41.1119,锦州市,百股街道,细颗粒物(PM2.5),113,104,71,85,45,38,,104,79,63,28,22,14,0.8,0.4
2024-03-18T2200,1770A,121.1178,41.1222,锦州市,天安街道,细颗粒物(PM2.5),79,93,63,58,42,65,,96,81,38,29,38,15,0.8,0.7
2024-03-18T2200,1771A,121.1303,41.1386,锦州市,北湖公园,细颗粒物(PM2.5),85,84,60,63,40,57,,95,81,48,34,36,17,0.9,0.7
2024-03-18T2200,2160A,112.85,35.5051,晋城市,自来水公司,颗粒物(PM10),100,149,88,29,24,82,,100,95,24,22,4,5,0.6,0.7
2024-03-18T2200,2161A,112.8318,35.4936,晋城市,白云商贸,颗粒物(PM10),98,146,92,24,20,74,,98,94,31,24,7,8,0.7,0.7
2024-03-18T2200,2162A,112.8508,35.4887,晋城市,市环保局,颗粒物(PM10),101,152,92,29,22,75,,98,94,30,27,4,5,0.8,0.8
2024-03-18T2200,2163A,112.8676,35.4897,晋城市,技术学院,颗粒物(PM10),113,176,93,34,22,78,,96,92,26,31,3,3,0.5,0.6
2024-03-18T2200,3620A,112.8271,35.4828,晋城市,泽州一中,颗粒物(PM10),102,153,95,27,20,81,,99,97,21,20,6,8,0.6,0.7
2024-03-18T2200,2171A,112.7532,37.6945,晋中市,锦纶小区,颗粒物(PM10),147,244,176,22,34,88,,100,95,11,16,7,11,0.4,0.6
2024-03-18T2200,2173A,112.7249,37.7067,晋中市,南都小区,颗粒物(PM10),132,214,172,36,40,88,,103,98,10,15,7,10,0.3,0.6
2024-03-18T2200,2174A,112.6991,37.6982,晋中市,榆次区政府,颗粒物(PM10),110,170,132,30,42,88,,104,99,12,14,6,9,0.3,0.4
2024-03-18T2200,2865A,112.7195,37.6828,晋中市,榆次三中,颗粒物(PM10),150,249,188,29,37,86,,102,96,10,14,7,10,0.4,0.7
2024-03-18T2200,2439A,112.2014,31.0481,荆门市,竹园小学,颗粒物(PM10),51,52,79,34,27,47,,90,78,29,18,8,8,0.7,0.5
2024-03-18T2200,2440A,112.1969,30.9891,荆门市,掇刀,颗粒物(PM10),62,74,78,31,35,38,,87,74,41,16,10,10,0.6,0.5
2024-03-18T2200,2441A,112.2213,31.0386,荆门市,石化一小,颗粒物(PM10),56,62,78,33,32,33,,94,82,46,16,10,14,0.6,0.4
2024-03-18T2200,3012A,112.1849,31.0362,荆门市,西山林语,,38,38,72,21,21,58,,94,84,15,13,11,12,0.5,0.5
2024-03-18T2200,3547A,112.1632,31.0138,荆门市,龙泉中学南校,,45,45,72,21,28,28,,93,82,35,10,7,9,0.4,0.4
2024-03-18T2200,1844A,112.2494,30.3197,荆州市,市图书馆,颗粒物(PM10),58,66,68,26,32,45,,86,82,47,18,6,6,0.6,0.5
2024-03-18T2200,1845A,112.2008,30.3544,荆州市,市委党校,颗粒物(PM10),58,66,65,32,31,48,,91,84,32,18,6,5,0.7,0.6
2024-03-18T2200,3194A,112.2747,30.3122,荆州市,管委会,颗粒物(PM10),58,65,60,32,29,57,,86,83,33,9,9,8,0.8,0.6
2024-03-18T2200,3548A,112.1655,30.3364,荆州市,学苑路,颗粒物(PM10),58,66,66,34,32,73,,84,83,20,22,8,7,0.6,0.6
2024-03-18T2200,2342A,117.3102,29.3867,景德镇市,王港中学,,16,12,25,9,12,51,,75,60,3,2,5,5,0,0
2024-03-18T2200,2343A,117.2117,29.2933,景德镇市,老干部活动中心,,14,10,27,8,17,42,,66,53,11,9,4,4,0.3,0.3
2024-03-18T2200,2344A,117.1894,29.2789,景德镇市,兽医站,,34,34,31,13,13,29,,72,50,22,10,6,5,0.6,0.5
2024-03-18T2200,2345A,117.1547,29.2617,景德镇市,台达陶瓷,,27,27,30,17,17,23,,71,39,32,17,13,9,0.7,0.6
2024-03-18T2200,2346A,117.2461,29.2956,景德镇市,陶研所,,14,14,24,9,14,39,,70,51,16,12,4,4,0.4,0.4
2024-03-18T2200,1803A,115.9872,29.6815,九江市,十里,颗粒物(PM10),53,56,82,30,26,20,,55,47,42,23,9,9,0.6,0.6
2024-03-18T2200,1804A,115.9584,29.7046,九江市,茅山头,颗粒物(PM10),53,55,73,34,27,10,,54,44,52,26,13,9,0.7,0.6
2024-03-18T2200,1805A,115.9877,29.7295,九江市,西园,颗粒物(PM10),53,55,75,34,28,20,,53,46,37,24,9,9,0.7,0.6
2024-03-18T2200,1806A,116.0172,29.6547,九江市,五七二七厂,,50,50,68,24,26,41,,49,48,18,21,8,8,0.8,0.6
2024-03-18T2200,1808A,115.9114,29.6038,九江市,综合工业园,,46,46,75,25,32,49,,57,57,31,29,11,11,0.3,0.4
2024-03-18T2200,1809A,116.0721,29.7535,九江市,石化总厂,颗粒物(PM10),61,71,93,40,30,23,,52,46,27,18,12,10,0.7,0.7
2024-03-18T2200,1810A,115.9773,29.5698,九江市,庐山气象台,,37,37,11,21,9,69,,108,81,7,6,15,9,0.7,0.8
2024-03-18T2200,3190A,116.0254,29.6994,九江市,外国语学校,颗粒物(PM10),57,63,73,34,30,23,,49,42,45,29,4,9,0.6,0.5
2024-03-18T2200,2658A,98.5061,39.7443,酒泉市,仓门街子站,,,144,67,38,20,,,96,,38,13,13,7,0.8,0.3
2024-03-18T2200,2659A,98.4989,39.7256,酒泉市,油田生活基地,颗粒物(PM10),104,158,75,42,25,73,,102,95,34,13,16,11,0.5,0.3
2024-03-18T2200,2698A,76.0072,39.4467,喀什地区,巡警大队,颗粒物(PM10),466,566,521,118,107,79,,97,96,35,43,4,3,0.7,0.7
2024-03-18T2200,2699A,75.9755,39.4694,喀什地区,吾办,颗粒物(PM10),454,554,490,65,123,86,,98,98,27,31,5,5,0.6,0.7
2024-03-18T2200,4027A,75.9483,39.4689,喀什地区,老干局,颗粒物(PM10),483,583,523,96,92,94,,108,108,24,27,2,3,0.5,0.8
2024-03-18T2200,1824A,114.3389,34.7781,开封市,肿瘤医院,颗粒物(PM10),66,81,102,34,36,55,,83,78,20,28,2,4,0.5,0.4
2024-03-18T2200,1826A,114.2885,34.7965,开封市,世纪星幼儿园,颗粒物(PM10),65,80,95,27,26,59,,92,87,28,35,1,3,0.4,0.4
2024-03-18T2200,3147A,114.3438,34.8106,开封市,龙亭公园,颗粒物(PM10),59,67,99,31,27,49,,72,69,18,27,3,4,0.5,0.4
2024-03-18T2200,3210A,114.3644,34.7964,开封市,汴京公园,颗粒物(PM10),57,63,98,29,29,62,,91,86,13,22,2,4,0.4,0.3
2024-03-18T2200,3473A,114.2485,34.8306,开封市,技师学院,颗粒物(PM10),65,79,98,34,26,60,,88,85,18,31,7,7,0.4,0.4
2024-03-18T2200,3592A,114.4644,34.7556,开封市,祥符区生态环境局,,,,122,,31,66,,87,84,19,33,3,6,0.3,0.4
2024-03-18T2200,1951A,84.895,45.6094,克拉玛依市,长征新村,,30,30,20,8,8,70,,88,86,22,14,9,8,0.4,0.3
2024-03-18T2200,1952A,84.8988,45.5893,克拉玛依市,南林小区,,20,20,24,9,17,58,,91,87,37,22,8,8,0.5,0.6
2024-03-18T2200,1954A,84.905,44.3396,克拉玛依市,独山子区,,50,43,56,35,36,55,,88,83,29,12,6,7,0.7,0.7
2024-03-18T2200,1955A,85.6979,46.098,克拉玛依市,乌尔禾区商贸楼,,23,19,24,3,15,71,,94,90,18,18,7,6,0.4,0.4
2024-03-18T2200,3612A,85.1045,45.6899,克拉玛依市,白碱滩区新站,,37,37,20,14,14,77,,90,89,14,10,8,7,0.2,0.2
2024-03-18T2200,2697A,76.1454,39.7142,克孜勒苏柯尔克孜自治州,市人民政府,颗粒物(PM10),409,509,419,130,105,75,,104,101,26,11,6,5,0.9,0.7
2024-03-18T2200,3665A,76.1658,39.7157,克孜勒苏柯尔克孜自治州,克州文化中心,颗粒物(PM10),463,563,444,120,109,88,,101,101,18,12,6,5,0.8,0.5
2024-03-18T2200,1450A,102.8204,24.8886,昆明市,呈贡新区,,47,47,48,26,34,71,,128,113,36,13,7,8,0.6,0.6
2024-03-18T2200,1451A,102.6251,24.9608,昆明市,西山森林公园,,38,37,45,17,29,119,,130,124,6,7,12,12,1.1,1.5
2024-03-18T2200,1452A,102.7252,25.0902,昆明市,龙泉镇,颗粒物(PM10),54,58,58,26,31,69,,128,112,33,42,6,7,0.6,0.7
2024-03-18T2200,1453A,102.7266,25.0375,昆明市,东风东路,,40,40,50,25,36,99,,126,115,20,19,7,9,0.4,0.4
2024-03-18T2200,1454A,102.6742,25.0669,昆明市,金鼎山,,37,37,50,25,30,92,,122,111,22,26,5,6,0.7,0.7
2024-03-18T2200,1455A,102.6644,25.0401,昆明市,碧鸡广场,,50,50,48,33,34,81,,126,111,30,22,11,10,0.5,0.6
2024-03-18T2200,3179A,102.7494,25.0119,昆明市,官渡区博物馆,,40,40,52,23,32,94,,123,112,17,20,10,9,0.5,0.6
2024-03-18T2200,3375A,102.8017,24.8336,昆明市,青年创业园,,47,47,46,27,34,73,,131,114,33,12,13,11,0.5,0.6
2024-03-18T2200,3550A,102.7997,24.9786,昆明市,昆明学院,颗粒物(PM10),52,53,50,29,31,80,,114,103,22,13,10,10,0.5,0.7
2024-03-18T2200,3551A,102.5967,24.6736,昆明市,晋宁区生态环境分局,颗粒物(PM10),53,56,52,29,35,99,,124,116,14,10,6,6,0.6,0.7
2024-03-18T2200,3552A,102.6678,24.9856,昆明市,云天化总部,,38,38,48,22,31,119,,135,126,8,20,5,6,0.5,0.6
2024-03-18T2200,1456A,91.1319,29.6514,拉萨市,八廓街,,36,36,18,14,10,103,,107,107,13,13,7,6,0.4,0.4
2024-03-18T2200,1457A,91.1221,29.6747,拉萨市,市环保局,,41,41,24,27,14,94,,104,101,14,13,7,6,0.6,0.4
2024-03-18T2200,1458A,91.0874,29.6475,拉萨市,区监测站,,37,37,16,18,9,103,,106,106,10,13,4,5,0.3,0.4
2024-03-18T2200,1459A,91.1774,29.6541,拉萨市,西藏大学,,49,49,18,18,9,108,,105,105,3,8,4,3,0.6,0.3
2024-03-18T2200,1460A,90.9798,29.6588,拉萨市,区辐射站,颗粒物(PM10),58,66,22,25,11,99,,103,103,14,18,5,5,0.4,0.4
2024-03-18T2200,1461A,91.0834,29.6292,拉萨市,拉萨火车站,,39,39,27,12,16,104,,100,100,3,12,3,2,0.3,0.4
2024-03-18T2200,2520A,109.2203,23.7256,来宾市,来宾技工学校,,20,,44,12,30,61,,50,50,8,13,6,9,0.8,0.8
2024-03-18T2200,3535A,109.1781,23.7297,来宾市,兴宾区政府,,20,,37,1,25,64,,52,52,9,13,4,6,0.8,0.7
2024-03-18T2200,4002A,109.2416,23.7461,来宾市,中南小学,,20,10,38,6,24,62,,52,52,8,15,7,8,0.8,0.7
2024-03-18T2200,1476A,103.631,36.1031,兰州市,兰炼宾馆,颗粒物(PM10),78,105,131,43,47,72,,106,101,33,12,10,6,0.5,0.3
2024-03-18T2200,1478A,103.8412,36.0726,兰州市,生物制品所,颗粒物(PM10),82,113,141,44,44,61,,102,95,34,17,12,11,0.4,0.4
2024-03-18T2200,1479A,103.831,36.0464,兰州市,铁路设计院,颗粒物(PM10),77,104,136,46,48,70,,97,94,41,23,11,8,0.4,0.3
2024-03-18T2200,3186A,103.7158,36.1058,兰州市,教育港,颗粒物(PM10),81,112,134,38,38,86,,106,99,23,14,10,6,0.3,0.3
2024-03-18T2200,3241A,103.7439,36.0842,兰州市,百合公园,颗粒物(PM10),71,91,124,39,37,60,,103,97,40,14,6,5,0.5,0.4
2024-03-18T2200,3242A,103.9611,35.998,兰州市,和平,颗粒物(PM10),81,112,157,41,45,70,,108,100,28,11,12,13,0.4,0.3
2024-03-18T2200,3245A,103.6633,36.533,兰州新区,新区管委会,颗粒物(PM10),88,126,107,36,34,85,,102,100,9,8,5,8,0.4,0.4
2024-03-18T2200,3246A,103.6975,36.4789,兰州新区,舟曲中学,颗粒物(PM10),107,164,125,43,34,88,,95,94,6,8,6,8,0.4,0.5
2024-03-18T2200,1067A,116.6708,39.5111,廊坊市,药材公司,颗粒物(PM10),500,740,170,66,51,80,,77,77,7,36,3,4,0.2,0.5
2024-03-18T2200,1068A,116.7214,39.5589,廊坊市,开发区,颗粒物(PM10),500,642,157,57,53,82,,79,79,7,39,3,4,0.2,0.5
2024-03-18T2200,1070A,116.7244,39.5269,廊坊市,北华航天学院,颗粒物(PM10),500,601,161,57,50,85,,83,82,7,33,3,5,0.2,0.5
2024-03-18T2200,2919A,116.7022,39.5453,廊坊市,河北工业大学,颗粒物(PM10),478,578,148,51,53,82,,79,79,5,36,1,5,0.2,0.4
2024-03-18T2200,2535A,103.7723,29.5462,乐山市,花湖湾,颗粒物(PM10),69,87,55,41,22,85,,107,106,2,3,4,4,0.3,0.3
2024-03-18T2200,2536A,103.7627,29.5844,乐山市,牛耳桥,颗粒物(PM10),77,103,61,44,27,32,,104,90,67,22,4,4,0.7,0.5
2024-03-18T2200,2537A,103.7508,29.6006,乐山市,市第三水厂,颗粒物(PM10),67,83,60,47,28,71,,110,103,50,21,4,3,0.5,0.5
2024-03-18T2200,2538A,103.7571,29.5664,乐山市,市监测站,颗粒物(PM10),68,86,57,36,25,52,,110,104,52,16,5,4,0.6,0.5
2024-03-18T2200,3361A,103.7311,29.5628,乐山市,理工大学,颗粒物(PM10),64,77,54,35,25,73,,113,109,32,15,5,5,0.5,0.5
2024-03-18T2200,2599A,100.2497,26.8802,丽江市,丽江古城,,36,36,40,23,22,94,,111,106,11,8,10,9,0.7,0.6
2024-03-18T2200,2600A,100.2203,26.8906,丽江市,市中心,,26,26,28,13,17,81,,106,97,22,12,8,8,0.8,0.8
2024-03-18T2200,1267A,119.914,28.4514,丽水市,监测站大楼,,18,18,24,11,8,56,,80,72,18,12,3,4,0.3,0.4
2024-03-18T2200,1268A,119.93,28.4586,丽水市,莲都小学,,20,20,20,8,4,52,,86,73,19,12,2,2,0.3,0.3
2024-03-18T2200,1269A,119.879,28.4231,丽水市,余庄前,,19,19,23,10,15,55,,73,64,13,13,4,4,0.3,0.5
2024-03-18T2200,1173A,119.176,34.5885,连云港市,市环境监测站,颗粒物(PM10),59,68,110,34,38,53,,84,66,32,35,7,8,0.5,0.5
2024-03-18T2200,3000A,119.3581,34.6972,连云港市,德源药业,颗粒物(PM10),60,70,93,34,32,41,,87,68,45,50,5,5,0.5,0.5
2024-03-18T2200,3007A,119.178,34.844,连云港市,新城一中,颗粒物(PM10),75,100,118,48,45,35,,90,70,52,50,10,9,0.8,0.8
2024-03-18T2200,3008A,119.3608,34.7519,连云港市,胡沟管理处,颗粒物(PM10),58,66,103,29,30,46,,72,66,38,50,10,11,0.7,0.7
2024-03-18T2200,3009A,119.1478,34.5911,连云港市,矿山设计院,颗粒物(PM10),60,70,115,31,35,52,,83,66,30,38,8,6,0.5,0.6
2024-03-18T2200,3434A,119.2413,34.6539,连云港市,工贸学校,颗粒物(PM10),69,88,97,41,36,48,,92,74,43,24,10,9,0.7,0.6
2024-03-18T2200,3664A,119.4172,34.7341,连云港市,连云街道,颗粒物(PM10),53,56,96,21,32,85,,90,89,21,41,3,5,0.5,0.5
2024-03-18T2200,2571A,102.3431,27.8099,凉山彝族自治州,青龙寺,,33,33,34,7,7,92,,132,123,5,7,4,5,0.9,0.8
2024-03-18T2200,2572A,102.2721,27.8415,凉山彝族自治州,邛海宾馆,,29,29,32,17,19,84,,122,114,6,10,8,11,0.6,0.6
2024-03-18T2200,2573A,102.2625,27.898,凉山彝族自治州,西昌市政府,,39,39,34,16,21,81,,119,110,4,9,7,10,0.6,0.8
2024-03-18T2200,2574A,102.2685,27.8851,凉山彝族自治州,凉山州政府,,27,27,33,11,17,82,,118,110,6,10,6,9,0.6,0.7
2024-03-18T2200,2575A,102.237,27.8914,凉山彝族自治州,长安,,39,39,35,17,24,88,,123,116,4,11,9,12,0.7,0.9
2024-03-18T2200,2212A,123.2,41.1953,辽阳市,宏伟区,细颗粒物(PM2.5),202,187,95,152,68,57,,110,94,48,28,20,16,1.5,1
2024-03-18T2200,2213A,123.1683,41.2495,辽阳市,新华园,细颗粒物(PM2.5),172,,104,130,77,57,,110,92,48,38,14,19,0.9,1.2
2024-03-18T2200,2214A,123.2354,41.2639,辽阳市,滨河路,细颗粒物(PM2.5),252,,88,202,82,22,,106,81,79,30,21,14,1.4,1
2024-03-18T2200,2215A,123.149,41.2991,辽阳市,铁西工业园,细颗粒物(PM2.5),330,,120,280,97,26,,118,83,70,42,18,20,1.9,1.4
2024-03-18T2200,2227A,125.1358,42.8845,辽源市,环保局,,28,28,45,15,37,40,,110,86,37,21,12,12,0.9,0.8
2024-03-18T2200,3239A,125.0764,42.9078,辽源市,银鹰制药,,43,41,48,30,39,45,,107,79,28,21,7,12,0.7,0.7
2024-03-18T2200,1625A,115.9848,36.4372,聊城市,区政府,颗粒物(PM10),85,119,170,24,29,78,,85,85,11,19,4,7,0.4,0.6
2024-03-18T2200,2878A,116.0072,36.4343,聊城市,聊大东校,颗粒物(PM10),83,116,158,25,34,86,,91,91,14,22,5,8,0.5,0.6
2024-03-18T2200,3200A,115.9819,36.4978,聊城市,监控中心,颗粒物(PM10),88,125,192,27,30,87,,91,91,15,23,7,9,0.7,0.7
2024-03-18T2200,3513A,116.0445,36.4361,聊城市,九州社区,颗粒物(PM10),87,123,168,18,28,79,,89,88,10,19,5,11,0.6,0.6
2024-03-18T2200,4018A,116.0567,36.4608,聊城市,星美广场,颗粒物(PM10),89,128,176,24,34,86,,92,91,12,22,2,12,0.6,0.6
2024-03-18T2200,2632A,94.3681,29.6376,林芝市,林芝监测站,,40,24,10,13,6,127,,121,121,2,3,5,5,0.7,0.7
2024-03-18T2200,2633A,94.3616,29.6616,林芝市,林芝人民医院,,38,24,14,16,10,121,,117,117,5,6,6,6,0.6,0.6
2024-03-18T2200,2603A,100.0781,23.8982,临沧市,市环保局,细颗粒物(PM2.5),77,57,54,56,42,104,,126,122,14,15,9,8,0.5,0.5
2024-03-18T2200,2604A,100.0894,23.8822,临沧市,市气象局,细颗粒物(PM2.5),59,64,58,42,41,90,,122,116,16,14,7,9,0.6,0.5
2024-03-18T2200,1733A,111.5531,36.0783,临汾市,临钢医院,颗粒物(PM10),328,442,162,47,34,91,,99,99,7,16,3,7,0.3,0.5
2024-03-18T2200,1734A,111.5028,36.0714,临汾市,技工学校,颗粒物(PM10),352,461,165,55,37,86,,94,94,9,17,5,10,0.2,0.7
2024-03-18T2200,1736A,111.5018,36.0855,临汾市,市委,颗粒物(PM10),295,416,160,37,31,93,,102,102,5,14,2,8,0.3,0.6
2024-03-18T2200,3018A,111.505,36.1014,临汾市,唐尧大酒店,颗粒物(PM10),213,359,153,50,34,92,,99,99,7,14,4,9,0.3,0.5
2024-03-18T2200,3668A,111.5036,36.0414,临汾市,城南,颗粒物(PM10),265,395,150,44,37,82,,89,88,11,20,6,9,0.2,0.5
2024-03-18T2200,2667A,103.2069,35.5993,临夏回族自治州,环保局,颗粒物(PM10),94,137,165,47,41,64,,90,85,21,10,4,2,0.5,0.4
2024-03-18T2200,2668A,103.2417,35.6057,临夏回族自治州,建设大厦,颗粒物(PM10),132,214,166,63,44,45,,95,88,38,12,2,2,0.6,0.4
2024-03-18T2200,1618A,118.3429,35.0532,临沂市,沂河小区,颗粒物(PM10),65,80,113,43,43,43,,78,63,33,33,8,13,0.7,0.6
2024-03-18T2200,1619A,118.295,35.0583,临沂市,鲁南制药厂,颗粒物(PM10),71,92,116,38,37,27,,87,66,53,37,8,13,0.7,0.5
2024-03-18T2200,1620A,118.2794,34.9976,临沂市,新光毛纺厂,颗粒物(PM10),67,83,114,37,35,36,,80,60,42,40,7,13,0.9,0.8
2024-03-18T2200,1621A,118.3956,35.0888,临沂市,河东保险公司,颗粒物(PM10),60,70,103,30,37,51,,81,68,34,40,8,11,0.7,0.7
2024-03-18T2200,3370A,118.3564,35.0215,临沂市,十里堡居委,颗粒物(PM10),64,78,121,31,40,44,,80,64,36,38,6,14,0.7,0.7
2024-03-18T2200,3496A,118.3604,35.1084,临沂市,南坊新区,颗粒物(PM10),65,80,109,39,35,43,,83,67,38,33,8,12,0.7,0.6
2024-03-18T2200,3860A,118.3920,35.0300,临沂市,皇山花园小区,颗粒物(PM10),60,70,123,32,42,51,,82,69,27,37,9,18,0.7,0.8
2024-03-18T2200,1870A,109.4856,24.3895,柳州市,柳东小学,,17,10,27,1,18,54,,48,47,11,18,6,7,0.5,0.6
2024-03-18T2200,1871A,109.4157,24.3277,柳州市,环保监测站,,,6,32,,23,60,,48,48,12,18,6,7,0.7,0.8
2024-03-18T2200,1872A,109.389,24.341,柳州市,河西水厂,,16,14,33,11,22,43,,29,28,24,20,9,7,1.4,1.2
2024-03-18T2200,1873A,109.4311,24.2921,柳州市,市四中,颗粒物(PM10),74,97,46,5,21,62,,50,50,9,19,5,7,0.7,0.8
2024-03-18T2200,1874A,109.4006,24.3631,柳州市,市九中,,18,13,33,0,19,56,,43,43,18,22,8,8,0.6,0.8
2024-03-18T2200,1875A,109.4958,24.3134,柳州市,古亭山,,17,,40,6,19,54,,49,49,8,19,5,6,0.7,0.7
2024-03-18T2200,3402A,109.5422,24.3996,柳州市,市二中,,15,10,28,3,17,46,,47,46,12,21,6,8,0.9,0.9
2024-03-18T2200,2307A,116.5079,31.737,六安市,监测大楼,颗粒物(PM10),61,72,89,31,31,55,,67,66,29,24,5,5,0.6,0.5
2024-03-18T2200,2308A,116.4738,31.7643,六安市,皖西学院,颗粒物(PM10),62,74,91,32,27,50,,72,67,28,20,3,5,0.6,0.5
2024-03-18T2200,2309A,116.4996,31.7905,六安市,朝阳厂,颗粒物(PM10),54,57,75,34,29,58,,68,64,22,19,5,5,0.5,0.4
2024-03-18T2200,2310A,116.5567,31.7886,六安市,开发区,颗粒物(PM10),67,83,92,28,28,17,,64,48,58,24,4,4,0.6,0.5
2024-03-18T2200,2577A,104.83,26.5917,六盘水市,黄土坡,,28,14,34,10,27,87,,87,87,8,12,9,8,0.7,0.9
2024-03-18T2200,2578A,104.89,26.5939,六盘水市,水钢,,24,16,42,12,31,76,,78,78,19,20,10,10,0.9,1
2024-03-18T2200,2579A,104.8475,26.5894,六盘水市,民中,,27,18,39,7,26,84,,84,84,6,15,6,8,0.6,0.9
2024-03-18T2200,2580A,104.9544,26.5506,六盘水市,双水,,29,17,41,14,26,91,,91,91,7,11,6,7,0.5,0.7
2024-03-18T2200,2336A,117.0217,25.1033,龙岩市,龙岩市监测站,,32,27,25,22,18,49,,59,49,14,21,8,7,0.6,0.6
2024-03-18T2200,2337A,117.0258,25.0661,龙岩市,闽西职业技术学院,,34,34,32,23,20,45,,56,46,12,20,11,9,0.6,0.6
2024-03-18T2200,2338A,117.0196,25.0306,龙岩市,龙岩学院,,36,35,27,25,17,45,,61,54,11,13,16,10,0.7,0.6
2024-03-18T2200,2885A,104.9339,33.3826,陇南市,滨江中学,颗粒物(PM10),100,149,88,48,29,38,,91,78,40,15,7,7,1.1,0.8
2024-03-18T2200,3247A,104.955,33.371,陇南市,市总工会,颗粒物(PM10),89,128,81,30,26,72,,90,86,11,13,7,8,0.5,0.6
2024-03-18T2200,2487A,111.9589,27.8901,娄底市,电视发射台,,28,28,20,9,8,44,,78,60,5,7,5,5,0.2,0.3
2024-03-18T2200,2488A,111.9975,27.725,娄底市,市监测站,,29,24,14,20,10,73,,80,68,15,14,5,5,0.2,0.3
2024-03-18T2200,2489A,112.0194,27.7314,娄底市,市委党校,,26,23,10,18,10,66,,71,59,10,11,6,5,0.3,0.4
2024-03-18T2200,2490A,111.9561,27.7569,娄底市,涟钢,,25,25,18,9,10,50,,65,56,16,16,4,7,0.2,0.5
2024-03-18T2200,2491A,111.9892,27.7044,娄底市,市政府,,23,23,17,16,9,67,,72,60,10,11,5,4,0.4,0.4
2024-03-18T2200,1893A,105.4324,28.9634,泸州市,九狮山,,24,24,37,11,17,31,,74,68,25,13,4,4,0.4,0.4
2024-03-18T2200,1894A,105.4427,28.9063,泸州市,小市上码头,,39,39,44,21,20,44,,68,64,19,14,8,7,0.6,0.5
2024-03-18T2200,1895A,105.4241,28.8573,泸州市,兰田宪桥,,38,38,50,21,22,43,,70,66,17,11,6,6,0.5,0.4
2024-03-18T2200,1896A,105.4379,28.8833,泸州市,市环监站,,32,32,43,21,22,48,,62,59,16,11,7,7,0.4,0.4
2024-03-18T2200,3490A,105.3617,28.7703,泸州市,纳溪区环保局,,44,44,55,27,22,40,,70,57,22,12,4,3,0.7,0.6
2024-03-18T2200,2183A,111.1406,37.5211,吕梁市,环保局,颗粒物(PM10),135,220,166,32,37,88,,96,92,3,13,3,4,0.2,0.3
2024-03-18T2200,2185A,111.1297,37.5136,吕梁市,自来水公司,颗粒物(PM10),127,204,152,26,34,87,,95,90,5,11,3,2,0.3,0.4
2024-03-18T2200,2867A,111.1283,37.51,吕梁市,马茂庄小学,颗粒物(PM10),143,236,191,26,34,90,,99,94,6,17,3,3,0.4,0.5
2024-03-18T2200,1812A,112.3931,34.6516,洛阳市,市委党校,颗粒物(PM10),75,100,79,38,30,70,,91,88,28,22,8,3,0.4,0.3
2024-03-18T2200,1814A,112.4657,34.6871,洛阳市,豫西宾馆,颗粒物(PM10),79,108,90,33,28,73,,95,92,27,19,12,8,0.4,0.4
2024-03-18T2200,1815A,112.494,34.6886,洛阳市,河南林校,颗粒物(PM10),72,94,80,39,28,77,,92,90,20,19,10,7,0.3,0.2
2024-03-18T2200,1816A,112.3844,34.623,洛阳市,开发区管委会,颗粒物(PM10),71,92,78,39,29,83,,96,95,13,14,4,2,0.5,0.5
2024-03-18T2200,1817A,112.4267,34.6258,洛阳市,市委新办公区,颗粒物(PM10),75,99,77,36,29,80,,91,90,26,18,8,4,0.4,0.3
2024-03-18T2200,3340A,112.6005,34.6326,洛阳市,伊滨,颗粒物(PM10),74,97,82,34,27,84,,96,95,21,23,8,4,0.4,0.4
2024-03-18T2200,3341A,112.4951,34.6332,洛阳市,中移产业园,颗粒物(PM10),72,93,72,35,27,83,,95,94,17,15,13,5,0.4,0.3
2024-03-18T2200,3593A,112.5736,34.8993,洛阳市,吉利监测站,颗粒物(PM10),66,82,87,28,27,83,,94,94,24,27,7,8,0.5,0.5
2024-03-18T2200,3635A,112.3677,34.662,洛阳市,河科大西苑校区,颗粒物(PM10),78,106,83,36,27,63,,91,88,30,18,7,2,0.4,0.3
2024-03-18T2200,3636A,112.4388,34.6781,洛阳市,英才小学,颗粒物(PM10),76,102,85,39,28,58,,93,88,41,21,10,5,0.6,0.4
2024-03-18T2200,2399A,114.051,33.5699,漯河市,三五一五工厂,颗粒物(PM10),57,63,183,32,36,82,,91,90,11,21,10,13,0.3,0.4
2024-03-18T2200,2400A,114.0055,33.5698,漯河市,漯河大学,颗粒物(PM10),60,69,177,24,34,79,,90,88,8,16,5,8,0.4,0.5
2024-03-18T2200,2401A,114.0138,33.5828,漯河市,市水利局,颗粒物(PM10),56,61,180,24,33,84,,92,92,11,19,5,8,0.4,0.5
2024-03-18T2200,2402A,114.0261,33.5698,漯河市,市广电局,颗粒物(PM10),55,59,177,25,33,80,,94,92,7,16,2,5,0.4,0.5
2024-03-18T2200,3478A,113.9749,33.5664,漯河市,市图书馆,颗粒物(PM10),61,72,158,23,36,82,,96,95,12,20,10,12,0.3,0.5
2024-03-18T2200,3479A,114.0967,33.5906,漯河市,召陵区卫健委,颗粒物(PM10),66,81,166,28,35,84,,92,91,10,26,3,6,0.4,0.5
2024-03-18T2200,1798A,118.5092,31.6837,马鞍山市,湖东路四小,颗粒物(PM10),53,55,77,30,22,30,,69,53,54,25,8,6,0.9,0.6
2024-03-18T2200,1799A,118.5024,31.6449,马鞍山市,开发区,颗粒物(PM10),53,56,70,32,26,21,,68,52,61,29,7,6,0.8,0.7
2024-03-18T2200,1800A,118.5228,31.7231,马鞍山市,慈湖,颗粒物(PM10),61,71,68,34,29,2,,71,42,82,32,15,8,0.9,0.8
2024-03-18T2200,1802A,118.6245,31.7241,马鞍山市,濮塘,颗粒物(PM10),51,52,75,27,30,34,,63,50,29,21,5,5,0.6,0.6
2024-03-18T2200,3633A,118.4918,31.6809,马鞍山市,雨山,颗粒物(PM10),53,55,79,30,22,25,,69,52,56,26,10,8,0.8,0.6
2024-03-18T2200,1686A,111.0286,21.4688,茂名市,电白南海,,34,34,39,22,24,53,,64,61,12,14,6,7,0.6,0.6
2024-03-18T2200,1687A,110.9294,21.6533,茂名市,茂石化七小,,46,46,41,31,30,38,,64,56,18,17,6,8,0.6,0.6
2024-03-18T2200,1688A,110.9107,21.6687,茂名市,健康路,,39,36,35,27,26,36,,59,53,16,14,10,11,0.6,0.5
2024-03-18T2200,1689A,110.8592,21.6828,茂名市,高岭,,39,39,49,24,27,34,,55,48,22,20,13,10,0.8,0.8
2024-03-18T2200,3450A,111.01,21.5165,茂名市,电白水东,,29,29,29,19,21,58,,63,61,6,12,5,10,0.5,0.5
2024-03-18T2200,2539A,104.0308,30.0478,眉山市,黑龙滩水库,颗粒物(PM10),63,76,52,36,26,85,,108,107,11,7,3,3,0.4,0.3
2024-03-18T2200,2540A,103.8416,30.0874,眉山市,气象局,颗粒物(PM10),61,72,65,36,21,52,,95,90,42,22,9,7,0.5,0.4
2024-03-18T2200,3137A,103.8578,30.0744,眉山市,市委党校,颗粒物(PM10),64,78,52,39,23,52,,94,90,39,22,7,6,0.4,0.4
2024-03-18T2200,3148A,103.8291,30.0564,眉山市,区人社局,颗粒物(PM10),58,65,54,39,24,53,,93,88,43,26,9,5,0.6,0.4
2024-03-18T2200,1690A,116.1231,24.3284,梅州市,梅江月梅,,24,24,31,15,17,60,,67,65,8,14,8,9,0.5,0.5
2024-03-18T2200,1691A,116.0797,24.2719,梅州市,梅县新城,,40,38,32,28,19,48,,72,64,21,18,6,5,0.7,0.7
2024-03-18T2200,1692A,116.1248,24.2654,梅州市,环境监控中心,细颗粒物(PM2.5),58,,34,41,24,37,,63,56,25,20,5,8,0.6,0.6
2024-03-18T2200,3315A,116.1233,24.2991,梅州市,梅龙,细颗粒物(PM2.5),55,,30,39,21,53,,61,59,14,15,13,10,0.6,0.7
2024-03-18T2200,1878A,104.7778,31.4741,绵阳市,富乐山,颗粒物(PM10),56,61,45,30,23,24,,94,75,47,16,7,7,0.8,0.6
2024-03-18T2200,1879A,104.7563,31.4535,绵阳市,市人大,颗粒物(PM10),62,73,52,35,24,24,,87,67,54,22,3,5,0.6,0.5
2024-03-18T2200,1880A,104.6697,31.4668,绵阳市,高新区自来水公司,颗粒物(PM10),66,81,54,38,29,4,,95,68,68,23,9,7,0.7,0.5
2024-03-18T2200,1881A,104.7287,31.5075,绵阳市,三水厂,颗粒物(PM10),59,68,47,35,25,4,,88,61,69,24,11,9,1.1,0.7
2024-03-18T2200,3491A,104.69,31.5322,绵阳市,西科大附属小学,颗粒物(PM10),63,76,51,38,27,5,,90,63,69,25,8,6,0.9,0.7
2024-03-18T2200,3492A,104.5648,31.5343,绵阳市,安州区旅游局,颗粒物(PM10),66,82,55,45,29,24,,82,64,40,20,9,8,0.5,0.5
2024-03-18T2200,1784A,129.61,44.561,牡丹江市,环保大楼,,43,43,30,30,20,27,,80,69,52,17,9,8,0.9,0.4
2024-03-18T2200,1785A,129.6115,44.5782,牡丹江市,文化广场,细颗粒物(PM2.5),73,55,36,53,31,21,,67,53,53,22,12,10,1.0,0.6
2024-03-18T2200,1786A,129.5904,44.5963,牡丹江市,第一医院,细颗粒物(PM2.5),80,,39,59,37,42,,66,56,23,20,9,11,0.9,0.6
2024-03-18T2200,1787A,129.6364,44.6075,牡丹江市,机车工厂,,48,48,39,33,26,48,,76,68,15,16,9,20,0.4,0.4
2024-03-18T2200,1788A,129.6386,44.5462,牡丹江市,第一中学,,45,,29,31,24,12,,80,58,61,18,8,9,0.6,0.5
2024-03-18T2200,2531A,105.0703,29.61,内江市,市监测站,,40,40,31,22,15,54,,87,80,25,14,6,7,0.4,0.3
2024-03-18T2200,2532A,105.0717,29.5947,内江市,东兴区政府,,28,28,34,18,11,62,,93,88,16,11,8,8,0.4,0.3
2024-03-18T2200,2533A,105.0653,29.5817,内江市,内江二中,,33,33,29,16,11,65,,94,90,17,14,4,4,0.6,0.6
2024-03-18T2200,2534A,105.0406,29.5822,内江市,内江日报社,,25,21,23,17,11,62,,93,88,24,15,7,6,0.6,0.5
2024-03-18T2200,2628A,92.0657,31.4846,那曲市,那曲监测站,,46,37,36,32,22,76,,96,91,13,9,6,8,1.1,1
2024-03-18T2200,3128A,92.0506,31.4797,那曲市,那曲会议中心,颗粒物(PM10),54,57,37,18,14,89,,102,98,7,9,8,7,0.4,0.4
2024-03-18T2200,1290A,115.8931,28.6843,南昌市,省外办,,42,42,61,24,35,46,,52,52,22,19,5,5,0.5,0.6
2024-03-18T2200,1291A,115.8886,28.7003,南昌市,省林业公司,,41,41,56,24,34,43,,48,48,25,21,5,4,0.5,0.6
2024-03-18T2200,1292A,115.8126,28.7442,南昌市,林科所,,29,29,46,19,24,64,,59,59,16,18,6,5,0.8,0.8
2024-03-18T2200,1294A,115.8518,28.687,南昌市,建工学校,颗粒物(PM10),51,52,65,23,28,48,,48,48,22,22,4,3,0.5,0.6
2024-03-18T2200,1295A,115.8921,28.6424,南昌市,象湖,,44,44,62,28,34,49,,54,54,23,19,4,5,0.6,0.8
2024-03-18T2200,1296A,115.7423,28.7996,南昌市,武术学校,,23,23,33,14,32,54,,58,58,5,9,4,7,0.3,0.4
2024-03-18T2200,1298A,115.9314,28.6842,南昌市,省站,颗粒物(PM10),54,57,67,27,35,55,,58,58,16,14,7,7,0.5,0.6
2024-03-18T2200,3046A,115.9084,28.6062,南昌市,机电学校,,43,43,62,29,34,52,,56,56,23,20,5,5,0.5,0.6
2024-03-18T2200,3690A,115.9721,28.7031,南昌市,外国语学校,,46,41,61,32,33,45,,51,51,29,20,4,3,0.4,0.5
2024-03-18T2200,1905A,106.056,30.8064,南充市,西山风景区,,23,16,8,9,8,72,,92,88,11,7,9,3,0.6,0.5
2024-03-18T2200,1906A,106.0789,30.8023,南充市,南充市委,,24,24,18,0,2,61,,88,84,24,13,9,5,0.5,0.4
2024-03-18T2200,1907A,106.1031,30.8217,南充市,南充炼油厂,,23,23,20,12,10,69,,91,87,21,13,6,5,0.4,0.3
2024-03-18T2200,1908A,106.1064,30.7856,南充市,高坪区监测站,,20,16,13,14,8,64,,91,85,18,10,4,4,0.2,0.2
2024-03-18T2200,1909A,106.0642,30.7636,南充市,嘉陵区环保局,,26,26,16,14,7,65,,87,83,19,12,14,5,0.4,0.3
2024-03-18T2200,1910A,106.1087,30.8388,南充市,市环境监测站,,27,27,20,15,16,70,,96,90,23,13,4,4,0.5,0.4
2024-03-18T2200,1151A,118.8086,32.1065,南京市,迈皋桥,颗粒物(PM10),64,78,80,29,23,13,,59,33,69,34,6,5,0.6,0.5
2024-03-18T2200,1152A,118.7538,32.0551,南京市,草场门,颗粒物(PM10),59,68,75,39,22,20,,63,41,68,37,3,2,0.4,0.4
2024-03-18T2200,1153A,118.7794,32.0745,南京市,山西路,颗粒物(PM10),63,75,82,39,25,19,,63,43,67,34,4,4,0.5,0.4
2024-03-18T2200,1154A,118.7752,32.0023,南京市,中华门,颗粒物(PM10),57,63,70,36,22,17,,62,42,70,36,6,6,0.7,0.6
2024-03-18T2200,1155A,118.8109,32.0309,南京市,瑞金路,颗粒物(PM10),60,70,73,29,23,12,,61,42,76,31,8,8,0.5,0.4
2024-03-18T2200,1156A,118.7997,32.0754,南京市,玄武湖,颗粒物(PM10),60,70,80,31,20,16,,56,38,40,21,10,10,0.3,0.2
2024-03-18T2200,1157A,118.6414,32.0931,南京市,浦口,颗粒物(PM10),57,64,81,23,21,35,,52,40,39,35,10,8,0.6,0.7
2024-03-18T2200,1158A,118.7356,31.9996,南京市,奥体中心,颗粒物(PM10),61,71,78,34,23,15,,66,45,74,33,9,8,0.6,0.5
2024-03-18T2200,1159A,118.9125,32.1028,南京市,仙林大学城,颗粒物(PM10),60,70,79,27,21,3,,60,38,86,32,9,8,0.8,0.6
2024-03-18T2200,3422A,118.8436,31.9198,南京市,江宁彩虹桥,颗粒物(PM10),54,58,80,24,22,28,,71,48,56,27,4,5,0.4,0.4
2024-03-18T2200,3423A,119.0138,31.6494,南京市,溧水永阳,细颗粒物(PM2.5),64,68,88,46,36,31,,66,47,36,25,3,4,0.7,0.7
2024-03-18T2200,3424A,118.879,31.3302,南京市,高淳老职中,,50,50,91,35,35,39,,55,49,28,21,6,6,0.6,0.6
2024-03-18T2200,3427A,118.8554,32.3578,南京市,六合雄州,,45,45,64,30,22,9,,73,52,65,20,7,7,0.4,0.4
2024-03-18T2200,1401A,108.3103,22.7881,南宁市,二十一中,颗粒物(PM10),59,68,52,40,33,10,,42,37,41,19,3,4,1.2,0.9
2024-03-18T2200,1402A,108.3141,22.8528,南宁市,北湖,"颗粒物(PM10),细颗粒物(PM2.5)",70,90,60,51,38,5,,29,18,50,25,5,5,1.5,1.1
2024-03-18T2200,1403A,108.3206,22.8225,南宁市,市监测站,细颗粒物(PM2.5),64,66,58,46,34,5,,29,20,48,25,5,6,1.1,0.8
2024-03-18T2200,1404A,108.3829,22.8037,南宁市,大自然花园,颗粒物(PM10),55,60,46,36,33,11,,41,33,33,16,5,5,1.0,0.7
2024-03-18T2200,1405A,108.4394,22.7904,南宁市,仙葫,颗粒物(PM10),58,66,47,26,30,23,,50,41,29,19,6,7,0.5,0.4
2024-03-18T2200,1406A,108.2397,22.8467,南宁市,区农职院,颗粒物(PM10),67,83,60,39,33,1,,31,21,46,31,6,7,1.0,0.9
2024-03-18T2200,1407A,108.3275,22.735,南宁市,英华嘉园,细颗粒物(PM2.5),67,77,55,48,37,5,,37,28,46,27,6,6,0.9,0.7
2024-03-18T2200,1408A,108.2257,22.7757,南宁市,沙井镇街道办,颗粒物(PM10),84,117,66,57,36,1,,42,26,52,30,5,5,0.8,0.6
2024-03-18T2200,3401A,108.4834,22.7618,南宁市,红星社区,,45,45,46,29,35,23,,46,36,17,16,6,7,1.0,0.9
2024-03-18T2200,2332A,118.1681,26.6369,南平市,南平市监测站,,38,38,27,20,16,58,,91,74,14,12,3,3,0.7,0.7
2024-03-18T2200,2333A,118.1825,26.6489,南平市,南平铝业有限公司,,33,33,26,20,16,50,,86,63,16,12,5,5,0.6,0.6
2024-03-18T2200,2334A,118.1756,26.6272,南平市,南平七中,,26,26,25,17,17,53,,96,69,12,11,3,3,0.5,0.5
2024-03-18T2200,1168A,120.9098,31.9663,南通市,狼山街道,,50,50,56,26,21,74,,98,89,20,15,9,9,0.5,0.5
2024-03-18T2200,1169A,120.86,32.0005,南通市,虹桥,,48,48,55,30,23,68,,84,77,24,17,4,4,0.4,0.3
2024-03-18T2200,1170A,120.87,32.02,南通市,城中,,50,50,67,21,19,74,,84,77,19,17,3,4,0.5,0.4
2024-03-18T2200,1171A,120.94,31.93,南通市,星湖花园,,49,49,55,26,18,75,,89,84,24,20,6,6,0.5,0.5
2024-03-18T2200,1172A,120.81,32.0417,南通市,紫琅学院,,49,49,58,19,16,67,,92,82,27,19,6,7,0.5,0.4
2024-03-18T2200,3291A,121.067,32.062,南通市,通州监测站,颗粒物(PM10),51,51,49,29,19,87,,96,93,12,10,7,7,0.4,0.4
2024-03-18T2200,3432A,120.9348,31.9883,南通市,环境教育馆,,46,46,62,32,25,72,,93,83,23,19,6,7,0.3,0.3
2024-03-18T2200,2404A,112.5224,33.0122,南阳市,瓦房庄,,46,41,71,32,25,55,,92,77,23,17,6,6,0.5,0.4
2024-03-18T2200,2405A,112.5003,32.9735,南阳市,汉画馆,,48,44,76,33,30,46,,94,77,32,20,5,6,0.4,0.3
2024-03-18T2200,2406A,112.5573,33.027,南阳市,气象站,,45,45,78,24,19,57,,89,80,23,22,4,5,0.6,0.5
2024-03-18T2200,2407A,112.5481,32.9689,南阳市,理工学院,,42,42,78,26,24,50,,89,74,28,18,3,7,0.4,0.5
2024-03-18T2200,4008A,112.5234,32.9922,南阳市,卧龙区政府,,48,43,76,33,24,47,,86,73,26,18,4,5,0.6,0.5
2024-03-18T2200,1234A,121.8358,29.911,宁波市,区环保大楼,,50,50,95,16,22,28,,76,50,61,28,6,6,0.5,0.5
2024-03-18T2200,1235A,121.56,29.82,宁波市,万里学院,颗粒物(PM10),52,54,97,22,16,62,,79,70,32,26,7,7,0.5,0.5
2024-03-18T2200,1236A,121.713,29.9572,宁波市,龙赛医院,,38,38,68,14,17,69,,85,76,29,21,5,5,0.2,0.2
2024-03-18T2200,1239A,121.633,29.7733,宁波市,钱湖水厂,,46,46,96,15,15,38,,84,64,30,18,6,6,0.6,0.6
2024-03-18T2200,1240A,121.5856,29.8635,宁波市,太古小学,,48,48,75,18,14,60,,81,71,26,19,7,8,0.6,0.6
2024-03-18T2200,1241A,121.524,29.8674,宁波市,市环境监测中心,,49,49,79,16,16,60,,89,77,35,23,7,6,0.4,0.4
2024-03-18T2200,2871A,121.6147,29.9017,宁波市,万里国际学校,颗粒物(PM10),52,54,85,23,21,58,,86,73,38,28,8,8,0.7,0.7
2024-03-18T2200,3710A,121.5594,29.8975,宁波市,白沙活动中心,颗粒物(PM10),61,72,104,32,24,60,,84,72,26,22,7,7,0.3,0.4
2024-03-18T2200,2341A,119.5388,26.6612,宁德市,宁德市监测站,,25,22,43,15,28,80,,90,88,15,19,6,6,0.3,0.4
2024-03-18T2200,3209A,119.5231,26.6562,宁德市,宁德一中,,30,30,48,18,25,87,,91,89,13,18,5,7,0.3,0.5
2024-03-18T2200,2618A,98.8601,25.8567,怒江傈僳族自治州,州监测站,细颗粒物(PM2.5),103,109,64,77,46,99,,123,120,17,10,8,8,0.8,0.5
2024-03-18T2200,2619A,98.8546,25.8417,怒江傈僳族自治州,泸水一中,细颗粒物(PM2.5),80,71,60,59,46,42,,106,94,50,22,7,7,0.8,0.6
2024-03-18T2200,1888A,101.6891,26.571,攀枝花市,弄弄坪,,46,46,45,24,29,79,,113,101,23,21,10,22,0.4,1.1
2024-03-18T2200,1889A,101.5769,26.5928,攀枝花市,河门口,,40,40,46,22,30,63,,114,100,30,20,6,8,0.5,0.5
2024-03-18T2200,1890A,101.7169,26.585,攀枝花市,炳草岗,,50,50,40,23,23,36,,119,96,57,30,13,16,0.9,0.9
2024-03-18T2200,1891A,101.7369,26.5008,攀枝花市,仁和,,42,42,41,23,24,62,,121,102,24,16,7,7,0.8,0.7
2024-03-18T2200,2835A,101.7227,26.567,攀枝花市,四十中小,,39,39,40,24,27,73,,122,99,40,26,12,14,0.8,0.8
2024-03-18T2200,1604A,122.0303,41.1489,盘锦市,开发区,细颗粒物(PM2.5),186,,60,140,46,84,,124,111,31,22,12,9,1.2,0.9
2024-03-18T2200,1605A,122.0485,41.0883,盘锦市,兴隆台,细颗粒物(PM2.5),252,,65,202,54,48,,112,87,58,27,13,9,1.3,0.7
2024-03-18T2200,1606A,121.8297,41.1028,盘锦市,新生街道,细颗粒物(PM2.5),57,51,44,40,29,32,,106,81,67,27,11,11,0.9,0.8
2024-03-18T2200,1832A,113.3257,33.742,平顶山市,新华旅馆,颗粒物(PM10),66,81,100,22,24,72,,99,92,18,26,6,9,0.6,0.5
2024-03-18T2200,1833A,113.2919,33.737,平顶山市,规划设计院,颗粒物(PM10),53,55,84,26,26,64,,95,88,16,18,4,7,0.6,0.5
2024-03-18T2200,1834A,113.182,33.774,平顶山市,平顶山工学院,颗粒物(PM10),53,55,79,27,22,73,,96,90,6,14,4,5,0.4,0.4
2024-03-18T2200,3204A,113.3025,33.73,平顶山市,规划局,颗粒物(PM10),54,58,98,30,29,67,,99,91,17,20,6,9,0.3,0.3
2024-03-18T2200,3594A,112.8867,33.9116,平顶山市,石龙区,颗粒物(PM10),58,66,96,28,24,68,,104,95,22,30,6,6,0.4,0.3
2024-03-18T2200,2656A,106.6692,35.5461,平凉市,聚贤嘉苑,颗粒物(PM10),122,194,175,35,30,42,,109,98,54,20,10,8,0.4,0.3
2024-03-18T2200,2657A,106.7021,35.5307,平凉市,博物馆,颗粒物(PM10),174,297,193,44,32,94,,107,105,15,16,8,9,0.2,0.2
2024-03-18T2200,2347A,114.0997,27.5002,萍乡市,武功山,,12,11,10,1,4,37,,60,41,14,13,3,6,0.6,0.8
2024-03-18T2200,2348A,113.8385,27.6434,萍乡市,中医院,,28,24,16,19,14,39,,65,36,15,15,3,4,0.6,0.8
2024-03-18T2200,2349A,113.8493,27.6253,萍乡市,市政府车库,,28,28,17,15,12,28,,61,28,24,16,6,6,0.9,0.9
2024-03-18T2200,2350A,113.8676,27.6435,萍乡市,市环保局,,22,22,14,10,10,33,,57,30,15,15,5,7,0.7,0.9
2024-03-18T2200,2351A,113.866,27.6198,萍乡市,安源区政府,,23,23,15,9,11,28,,56,27,16,15,9,7,0.7,1.3
2024-03-18T2200,2319A,119.0141,25.4325,莆田市,荔城区仓后路,,40,40,49,9,13,73,,100,90,23,18,5,5,0.5,0.2
2024-03-18T2200,2320A,119.0015,25.4553,莆田市,莆田市监测站,,39,39,47,11,14,79,,103,92,22,18,6,6,0.5,0.6
2024-03-18T2200,2321A,119.1119,25.4561,莆田市,涵江区六中,,39,39,58,10,13,75,,107,89,26,18,5,5,0.5,0.6
2024-03-18T2200,2322A,119.1013,25.3215,莆田市,秀屿区政府,,35,35,51,10,11,88,,100,93,16,16,10,7,0.8,0.6
2024-03-18T2200,2392A,115.0312,35.7636,濮阳市,环保局,颗粒物(PM10),61,71,89,23,26,83,,95,93,13,18,7,10,0.4,0.4
2024-03-18T2200,2394A,115.0574,35.7609,濮阳市,油田运输公司,颗粒物(PM10),62,74,104,21,26,87,,97,96,14,20,8,10,0.4,0.4
2024-03-18T2200,2395A,115.0866,35.7754,濮阳市,油田物探公司,颗粒物(PM10),62,73,119,26,28,86,,93,92,12,19,5,8,0.3,0.3
2024-03-18T2200,3021A,115,35.7668,濮阳市,濮水河管理处,颗粒物(PM10),64,77,94,27,27,71,,87,85,19,22,7,8,0.3,0.3
2024-03-18T2200,2601A,100.98,22.7633,普洱市,市环保局,细颗粒物(PM2.5),82,87,76,60,50,91,,136,125,18,14,7,7,0.5,0.5
2024-03-18T2200,2602A,100.9817,22.8322,普洱市,普洱第二中学,"颗粒物(PM10),细颗粒物(PM2.5)",59,68,68,42,45,92,,140,125,28,30,8,8,0.7,0.7
2024-03-18T2200,2262A,131.0518,45.8751,七台河市,新一中,,27,26,14,18,11,84,,104,92,9,7,32,12,0.5,0.5
2024-03-18T2200,3345A,131.0577,45.7879,七台河市,中波台,颗粒物(PM10),75,99,22,34,14,27,,97,73,64,22,7,7,1.3,0.8
2024-03-18T2200,3637A,131.0176,45.7761,七台河市,人民广场,,42,42,24,27,20,41,,95,75,49,22,8,9,0.9,0.8
2024-03-18T2200,3684A,130.8781,45.8222,七台河市,新建矿广场,,33,,28,23,26,66,,96,81,22,20,7,12,0.6,0.6
2024-03-18T2200,1779A,123.9305,47.3636,齐齐哈尔市,安居小区,,30,26,23,21,15,64,,90,76,26,13,7,7,0.4,0.3
2024-03-18T2200,1780A,123.9488,47.3386,齐齐哈尔市,中心广场,,32,32,24,12,11,68,,82,72,18,12,5,5,0.3,0.3
2024-03-18T2200,1781A,123.9483,47.3227,齐齐哈尔市,农牧车辆厂,,29,29,24,15,11,73,,83,78,12,10,7,7,0.4,0.3
2024-03-18T2200,1783A,123.945,47.2988,齐齐哈尔市,市环境监测站,,25,25,24,15,14,78,,86,81,13,10,2,4,0.3,0.2
2024-03-18T2200,3662A,123.6333,47.2075,齐齐哈尔市,富区青少年活动中心,,31,31,27,15,11,75,,86,82,9,12,7,7,0.4,0.4
2024-03-18T2200,2591A,107.9783,26.5747,黔东南苗族侗族自治州,市环境监测站,,20,12,13,8,9,64,,57,54,9,13,4,4,0.6,0.8
2024-03-18T2200,2881A,107.8908,26.5311,黔东南苗族侗族自治州,凯里学院,,20,13,13,8,8,61,,58,54,9,11,3,3,0.7,0.7
2024-03-18T2200,2593A,107.5228,26.2403,黔南布依族苗族自治州,小围寨,,32,22,9,22,7,48,,68,65,15,8,4,4,1.1,0.5
2024-03-18T2200,3538A,107.5175,26.2978,黔南布依族苗族自治州,沙坝,,27,27,14,17,7,52,,62,60,6,7,4,5,0.5,0.4
2024-03-18T2200,2589A,104.9022,25.0925,黔西南布依族苗族自治州,场坝街,,46,44,72,32,57,75,,92,80,10,12,2,2,0.4,0.5
2024-03-18T2200,2590A,104.8811,25.0992,黔西南布依族苗族自治州,坪东大道,细颗粒物(PM2.5),52,38,74,36,55,74,,91,78,10,14,3,2,0.5,0.6
2024-03-18T2200,2502A,108.6236,21.9667,钦州市,市环保站,细颗粒物(PM2.5),64,58,59,46,35,14,,40,29,34,26,10,10,0.9,0.7
2024-03-18T2200,2503A,108.6549,21.9481,钦州市,沙埠小学,细颗粒物(PM2.5),59,59,97,42,41,22,,42,28,26,28,5,8,0.7,0.7
2024-03-18T2200,2504A,108.5989,21.7431,钦州市,港区一小,颗粒物(PM10),79,107,84,42,35,20,,47,37,20,15,8,9,0.8,0.8
2024-03-18T2200,3404A,108.5959,21.9633,钦州市,北职校,细颗粒物(PM2.5),74,72,63,54,38,3,,43,32,38,24,9,10,1.0,0.8
2024-03-18T2200,1042A,119.5134,39.8207,秦皇岛市,北戴河环保局,颗粒物(PM10),54,57,55,37,26,58,,83,79,39,34,7,10,0.4,0.6
2024-03-18T2200,1043A,119.7493,40.0116,秦皇岛市,第一关,细颗粒物(PM2.5),85,114,79,63,41,28,,83,59,92,56,13,14,0.8,1
2024-03-18T2200,1044A,119.5897,39.9499,秦皇岛市,监测站,颗粒物(PM10),79,108,78,54,38,27,,78,60,86,38,12,14,0.9,1
2024-03-18T2200,1046A,119.5251,39.9041,秦皇岛市,建设大厦,颗粒物(PM10),88,125,70,56,36,14,,84,68,97,37,8,10,1.0,0.9
2024-03-18T2200,3132A,119.610547,39.943889,秦皇岛市,文明里,颗粒物(PM10),79,108,80,52,33,41,,72,60,66,36,10,12,1.0,1
2024-03-18T2200,1307A,120.6659,36.2403,青岛市,仰口,颗粒物(PM10),87,124,77,34,32,79,,94,93,19,21,7,4,0.2,0.3
2024-03-18T2200,1310A,120.4134,36.0658,青岛市,市南区东部子站,颗粒物(PM10),60,70,84,34,30,60,,87,82,31,36,8,9,0.6,0.7
2024-03-18T2200,1311A,120.3664,36.1032,青岛市,四方区子站,颗粒物(PM10),68,85,87,39,39,44,,92,78,58,48,6,9,0.8,0.8
2024-03-18T2200,1312A,120.2994,36.054,青岛市,市南区西部子站,颗粒物(PM10),71,92,84,34,32,37,,79,64,62,49,9,7,0.8,0.8
2024-03-18T2200,1313A,120.4581,36.0858,青岛市,崂山区子站,颗粒物(PM10),64,78,80,34,28,60,,91,85,33,32,7,7,0.5,0.5
2024-03-18T2200,1314A,120.1983,35.9608,青岛市,黄岛区子站,颗粒物(PM10),59,68,80,34,33,57,,87,75,36,40,7,7,0.7,0.7
2024-03-18T2200,1315A,120.3999,36.3083,青岛市,城阳区子站,颗粒物(PM10),78,105,91,32,29,40,,86,68,61,47,10,10,0.9,1
2024-03-18T2200,1966A,120.0405,35.8735,青岛市,黄岛区4号,颗粒物(PM10),81,112,83,46,32,51,,83,71,46,39,13,9,0.8,0.7
2024-03-18T2200,3362A,120.5014,36.4034,青岛市,即墨2号,颗粒物(PM10),93,135,110,46,42,39,,88,73,65,46,11,9,0.9,0.8
2024-03-18T2200,3642A,120.3503,36.0736,青岛市,市北区南部,颗粒物(PM10),63,75,84,36,31,58,,92,83,41,41,7,6,0.6,0.6
2024-03-18T2200,3643A,120.3948,36.1805,青岛市,李沧区北部,颗粒物(PM10),74,97,102,41,45,51,,97,78,57,53,8,10,0.7,0.9
2024-03-18T2200,1702A,113.0426,23.691,清远市,环保大楼,颗粒物(PM10),62,73,78,34,42,16,,53,49,56,40,5,5,1.1,1.2
2024-03-18T2200,1703A,113.0208,23.7106,清远市,凤城街办,细颗粒物(PM2.5),107,128,93,80,62,6,,48,44,82,53,4,4,2.1,1.1
2024-03-18T2200,3025A,113.0477,23.6344,清远市,技师学院,颗粒物(PM10),71,91,88,47,48,12,,80,74,73,44,5,5,1.1,1.1
2024-03-18T2200,3318A,112.9903,23.7403,清远市,清新太和,颗粒物(PM10),56,62,86,32,47,28,,65,64,40,34,9,9,0.8,0.9
2024-03-18T2200,3455A,113.076,23.7198,清远市,清城东城,"颗粒物(PM10),细颗粒物(PM2.5)",60,69,83,43,53,19,,41,40,47,40,5,5,0.8,0.9
2024-03-18T2200,2661A,107.6325,35.7357,庆阳市,庆阳五中,颗粒物(PM10),185,319,211,74,49,73,,98,95,15,8,8,5,0.3,0.4
2024-03-18T2200,2662A,107.6364,35.7067,庆阳市,市环保局,颗粒物(PM10),177,303,200,61,42,82,,103,100,12,8,10,7,0.4,0.4
2024-03-18T2200,1916A,103.7897,25.5035,曲靖市,环境监测站,颗粒物(PM10),65,80,65,35,35,76,,138,114,13,13,13,14,0.5,0.4
2024-03-18T2200,1917A,103.8,25.5364,曲靖市,烟厂办公区,颗粒物(PM10),59,68,60,30,34,78,,141,115,11,13,4,5,0.7,0.6
2024-03-18T2200,3376A,103.7947,25.462,曲靖市,南苑二区,颗粒物(PM10),70,89,59,35,33,74,,129,110,14,13,5,7,0.7,0.6
2024-03-18T2200,3377A,103.7444,25.5261,曲靖市,曲靖师范学院,颗粒物(PM10),58,66,62,34,42,68,,132,107,19,19,12,14,0.8,0.7
2024-03-18T2200,1264A,118.8692,28.9398,衢州市,环保大楼,颗粒物(PM10),51,51,48,31,24,33,,71,54,31,17,6,6,0.4,0.4
2024-03-18T2200,1265A,118.8709,28.9666,衢州市,实验学校,颗粒物(PM10),51,52,46,34,27,37,,80,59,29,18,1,3,0.4,0.4
2024-03-18T2200,1266A,118.8621,28.9808,衢州市,衢州学院,,48,48,42,30,24,33,,73,50,29,20,5,5,0.4,0.4
2024-03-18T2200,1611A,118.5819,24.9117,泉州市,涂山街,,48,48,59,18,22,68,,96,85,27,19,5,4,0.5,0.5
2024-03-18T2200,1612A,118.5972,24.8978,泉州市,津头埔,,45,45,51,14,19,74,,107,96,32,21,6,5,0.6,0.6
2024-03-18T2200,1613A,118.6663,24.9424,泉州市,万安,,48,48,59,12,16,89,,115,106,22,22,5,3,0.6,0.6
2024-03-18T2200,3529A,118.6333,24.9264,泉州市,城华南路,颗粒物(PM10),51,52,49,14,19,79,,108,99,33,25,6,4,0.5,0.5
2024-03-18T2200,2626A,88.8876,29.2718,日喀则市,日喀则监测站,颗粒物(PM10),52,53,26,19,13,105,,101,100,9,10,2,4,0.5,0.5
2024-03-18T2200,3726A,88.8781,29.2426,日喀则市,林业技术推广中心,,44,44,27,17,12,112,,95,95,4,8,7,8,0.4,0.5
2024-03-18T2200,1659A,119.471,35.4209,日照市,监测站,颗粒物(PM10),78,105,111,51,43,28,,84,64,62,55,15,13,0.8,0.8
2024-03-18T2200,1660A,119.523,35.4216,日照市,市政府广场,颗粒物(PM10),75,100,105,42,39,38,,78,60,44,48,15,12,0.8,0.9
2024-03-18T2200,1661A,119.5587,35.4044,日照市,港务局,颗粒物(PM10),81,112,134,51,40,35,,67,58,57,67,21,14,0.9,0.9
2024-03-18T2200,3507A,119.5328,35.4625,日照市,职业技术学院,颗粒物(PM10),67,83,93,36,34,40,,76,62,47,44,11,11,0.7,0.8
2024-03-18T2200,3604A,119.3266,35.1044,日照市,岚山环保分局,颗粒物(PM10),69,88,115,39,41,50,,89,74,35,29,10,13,0.8,0.8
2024-03-18T2200,1835A,111.1922,34.7752,三门峡市,市政府,颗粒物(PM10),78,105,73,34,29,28,,94,87,65,20,8,7,0.9,0.6
2024-03-18T2200,1836A,111.1587,34.7942,三门峡市,开发区,颗粒物(PM10),80,110,85,36,34,43,,87,81,45,16,5,5,0.8,0.7
2024-03-18T2200,3039A,111.1911,34.7829,三门峡市,三门峡市第一小学,颗粒物(PM10),82,113,75,32,28,54,,90,87,32,17,6,6,0.7,0.5
2024-03-18T2200,3598A,111.1,34.7167,三门峡市,富达温泉假日酒店,颗粒物(PM10),101,152,89,38,35,72,,84,83,24,16,12,7,0.6,0.5
2024-03-18T2200,2324A,117.6211,26.2625,三明市,三钢,,19,,24,10,20,59,,75,66,11,16,4,6,0.6,0.7
