timepoint,stationcode,longitude,latitude,area,positionname,primarypollutant,aqi,pm10,pm10_24h,pm2_5,pm2_5_24h,o3,o3_24h,o3_8h,o3_8h_24h,no2,no2_24h,so2,so2_24h,co,co_24h
2026-04-27T0000,2568A,102.2503,31.8896,阿坝藏族羌族自治州,马师校,,20,18,25,3,7,63,63,95,86,4,4,6,6,0.3,0.3
2026-04-27T0000,3994A,102.2174,31.9016,阿坝藏族羌族自治州,马尔康中学西区,,22,11,20,3,7,68,68,90,83,5,5,5,4,0.3,0.3
2026-04-27T0000,2695A,80.2899,41.1684,阿克苏地区,电视台,"颗粒物(PM10),细颗粒物(PM2.5)",141,226,89,105,30,8,8,124,91,93,23,3,3,1.3,0.4
2026-04-27T0000,2696A,80.2592,41.1541,阿克苏地区,艺术中心,颗粒物(PM10),123,178,86,75,34,6,6,127,91,91,25,4,4,1.7,0.5
2026-04-27T0000,2205A,105.699,38.8409,阿拉善盟,蒙二幼,颗粒物(PM10),142,227,54,50,18,102,102,110,100,1,2,8,8,0.4,0.4
2026-04-27T0000,2206A,105.7198,38.8508,阿拉善盟,环保局新楼,颗粒物(PM10),117,163,47,42,9,101,101,106,100,3,4,8,8,0.6,0.6
2026-04-27T0000,2708A,88.1266,47.8515,阿勒泰地区,市站,,28,18,17,3,3,88,88,100,96,3,7,4,5,0.3,0.4
2026-04-27T0000,4166A,88.1198,47.7931,阿勒泰地区,阿勒泰路33号,,29,29,18,3,3,88,88,103,100,4,5,7,7,0.2,0.2
2026-04-27T0000,2630A,80.1171,32.4999,阿里地区,阿里监测站,,42,11,19,8,4,132,132,140,140,5,4,6,7,0.4,0.4
2026-04-27T0000,3192A,80.0906,32.5029,阿里地区,阿里藏医院,,46,8,12,3,3,146,146,156,156,2,3,7,9,0.3,0.3
2026-04-27T0000,2644A,109.0088,32.6974,安康市,汉滨区检察院,颗粒物(PM10),51,51,48,24,24,35,35,111,72,15,11,5,6,0.3,0.4
2026-04-27T0000,4054A,109.0324,32.6913,安康市,市邮政管理局,颗粒物(PM10),57,59,59,28,29,46,46,112,73,17,16,10,13,0.5,0.6
2026-04-27T0000,2291A,117.0806,30.5181,安庆市,环科院,,50,50,34,27,18,70,70,124,92,26,29,7,7,0.5,0.5
2026-04-27T0000,2292A,117.0331,30.5118,安庆市,马山宾馆,,45,45,31,24,18,64,64,121,78,29,31,6,5,0.5,0.5
2026-04-27T0000,2294A,116.9897,30.6146,安庆市,安庆大学,,47,47,38,23,18,77,77,133,101,19,19,6,6,0.3,0.4
2026-04-27T0000,3173A,117.0598,30.5351,安庆市,市人大,颗粒物(PM10),52,52,36,25,14,64,64,128,100,25,21,7,6,0.4,0.4
2026-04-27T0000,3123A,105.9408,26.2431,安顺市,凤凰山,,42,42,38,27,27,89,89,98,98,6,6,6,6,0.7,0.7
2026-04-27T0000,3124A,105.9443,26.2567,安顺市,金钟山,,42,41,37,29,28,86,86,91,91,4,5,5,5,0.7,0.7
2026-04-27T0000,3125A,105.8983,26.248,安顺市,娄家坡,,39,32,36,27,30,91,91,91,91,3,4,5,5,0.9,0.9
2026-04-27T0000,1819A,114.3552,36.1017,安阳市,红庙街,细颗粒物(PM2.5),92,78,74,56,37,82,82,138,112,17,14,5,6,0.3,0.4
2026-04-27T0000,1820A,114.361,36.0681,安阳市,银杏小区,细颗粒物(PM2.5),104,77,77,64,41,86,86,144,120,17,15,6,7,0.4,0.5
2026-04-27T0000,3141A,114.3921,36.0879,安阳市,信访局,细颗粒物(PM2.5),88,74,72,54,41,90,90,146,122,13,12,4,4,0.6,0.5
2026-04-27T0000,3669A,114.4706,36.0634,安阳市,左辅环卫站,颗粒物(PM10),82,94,80,48,38,87,87,139,114,13,12,3,3,0.5,0.5
2026-04-27T0000,4117A,114.2918,36.0769,安阳市,钢三路198号,细颗粒物(PM2.5),86,93,75,53,45,87,87,134,112,13,13,3,4,0.5,0.5
2026-04-27T0000,1748A,123.0441,41.1201,鞍山市,深沟寺,,26,26,49,14,22,71,71,102,80,15,19,9,11,0.5,0.9
2026-04-27T0000,1749A,123.011,41.0931,鞍山市,太阳城,,28,23,47,14,23,87,87,105,91,9,12,7,8,0.6,0.7
2026-04-27T0000,1750A,123.0483,41.1445,鞍山市,太平,,34,34,59,18,27,72,72,109,81,15,17,7,9,0.6,0.7
2026-04-27T0000,1751A,122.964,41.0968,鞍山市,铁西三道街,,38,38,51,22,24,51,51,105,86,27,19,5,12,0.7,1.2
2026-04-27T0000,1753A,123.0219,41.0822,鞍山市,明达新区,,25,24,45,14,23,78,78,103,89,12,14,7,8,0.6,0.7
2026-04-27T0000,4201A,122.944647,41.082639,鞍山市,兴盛南路290号,颗粒物(PM10),77,87,64,29,27,29,29,107,67,58,58,7,12,0.8,1.1
2026-04-27T0000,2195A,107.4206,40.7609,巴彦淖尔市,附二中,颗粒物(PM10),181,312,325,NA,58,89,89,108,95,2,6,9,13,0.3,0.3
2026-04-27T0000,2196A,107.37,40.7372,巴彦淖尔市,市环保大楼,颗粒物(PM10),197,343,270,108,54,93,93,111,98,4,7,6,8,0.3,0.3
2026-04-27T0000,1956A,86.1476,41.7529,巴音郭楞蒙古自治州,孔雀公园,颗粒物(PM10),70,78,87,43,27,91,91,108,97,8,6,2,2,0.3,0.3
2026-04-27T0000,1957A,86.1971,41.7166,巴音郭楞蒙古自治州,棉纺厂,颗粒物(PM10),99,118,114,48,38,107,107,118,112,4,4,/,/,/,/
2026-04-27T0000,1958A,86.236,41.7172,巴音郭楞蒙古自治州,经济开发区,细颗粒物(PM2.5),168,NA,79,127,46,100,100,105,101,2,3,8,9,0.3,0.4
2026-04-27T0000,3181A,106.776805,31.852614,巴中市,市五中,细颗粒物(PM2.5),74,74,62,47,37,8,8,65,37,32,25,8,9,0.8,0.8
2026-04-27T0000,3183A,106.7419,31.8654,巴中市,圣泉水务公司,,45,45,45,29,29,25,25,66,54,27,18,10,10,0.7,0.7
2026-04-27T0000,3616A,106.7617,31.8343,巴中市,市中心医院,细颗粒物(PM2.5),64,65,63,42,41,25,25,67,46,23,23,10,10,0.7,0.8
2026-04-27T0000,2235A,122.7909,45.608,白城市,洮北区环保局,,36,36,30,16,12,66,66,106,83,24,13,7,6,0.2,0.1
2026-04-27T0000,2236A,122.8741,45.5725,白城市,市环保局,,22,22,24,15,12,61,61,96,73,20,19,4,4,0.3,0.3
2026-04-27T0000,2231A,126.4219,41.9172,白山市,喜丰,,31,31,36,12,16,18,18,115,54,19,13,8,8,0.9,0.9
2026-04-27T0000,2232A,126.4082,41.9416,白山市,环保局,,23,23,27,11,15,31,31,123,58,13,11,9,10,0.6,0.8
2026-04-27T0000,2647A,104.1727,36.5448,白银市,第三小学,颗粒物(PM10),52,52,55,13,15,97,97,114,105,5,10,7,23,0.3,0.5
2026-04-27T0000,2648A,104.1467,36.5482,白银市,动力公司,,40,40,47,18,14,103,103,112,107,3,8,4,13,0.3,0.3
2026-04-27T0000,2512A,106.6102,23.901,百色市,市监测站,细颗粒物(PM2.5),76,66,57,48,37,51,51,94,75,17,22,12,14,1.0,0.8
2026-04-27T0000,2513A,106.6524,23.8842,百色市,市中心血站,细颗粒物(PM2.5),110,NA,53,71,45,55,55,101,83,21,17,18,16,1.0,0.9
2026-04-27T0000,4133A,106.6273,23.8798,百色市,龙景西路,细颗粒物(PM2.5),117,NA,73,78,48,57,57,99,82,21,21,16,16,0.8,0.6
2026-04-27T0000,2270A,117.396,32.9389,蚌埠市,工人疗养院,,48,48,54,17,20,109,109,141,127,16,18,4,5,0.4,0.4
2026-04-27T0000,2271A,117.3606,32.9428,蚌埠市,百货大楼,,40,40,44,16,19,104,104,142,128,14,12,6,6,0.4,0.5
2026-04-27T0000,2273A,117.4183,32.8909,蚌埠市,蚌埠学院,,34,34,48,20,22,94,94,130,112,14,13,5,6,0.4,0.5
2026-04-27T0000,2274A,117.3534,32.9672,蚌埠市,淮上区政府,,41,41,46,16,20,114,114,145,131,17,19,5,6,0.3,0.4
2026-04-27T0000,2275A,117.3143,32.8977,蚌埠市,高新区,,46,46,47,15,23,99,99,138,123,9,9,7,9,0.4,0.5
2026-04-27T0000,3715A,117.3091,32.9314,蚌埠市,蚌埠田家炳中学,,43,43,54,18,24,112,112,144,130,12,15,6,9,0.3,0.4
2026-04-27T0000,1585A,109.8761,40.6533,包头市,市环境监测站,颗粒物(PM10),500,809,179,97,50,108,108,129,110,4,11,5,9,0.3,0.5
2026-04-27T0000,1587A,109.9992,40.5843,包头市,包头八中,颗粒物(PM10),500,1446,254,146,50,102,102,119,105,2,12,6,9,0.4,0.5
2026-04-27T0000,1589A,109.8641,40.6288,包头市,惠龙物流,颗粒物(PM10),500,828,163,49,38,102,102,122,104,3,9,4,9,0.3,0.4
2026-04-27T0000,1590A,110.0376,40.5546,包头市,东河鸿龙湾,颗粒物(PM10),500,855,153,107,48,104,104,125,107,5,12,9,12,0.4,0.5
2026-04-27T0000,3283A,109.9154,40.5684,包头市,滨河大厦,颗粒物(PM10),500,1164,195,60,45,101,101,120,105,4,10,8,10,0.3,0.3
2026-04-27T0000,3419A,109.9449,40.6259,包头市,包头市委党校,颗粒物(PM10),500,1245,209,116,43,102,102,122,102,3,11,5,9,0.0,0.3
2026-04-27T0000,3683A,109.8332,40.6577,包头市,昆区政府,颗粒物(PM10),500,818,181,73,39,106,106,123,108,5,13,2,6,0.4,0.5
2026-04-27T0000,1931A,107.0802,34.3129,宝鸡市,竹园沟,颗粒物(PM10),59,62,56,24,22,84,84,138,107,13,10,8,8,0.5,0.4
2026-04-27T0000,1933A,107.1429,34.3549,宝鸡市,监测站,颗粒物(PM10),62,66,71,39,36,73,73,152,122,22,16,6,6,0.3,0.4
2026-04-27T0000,1934A,107.1172,34.3759,宝鸡市,技工学校,细颗粒物(PM2.5),66,61,73,43,38,86,86,153,130,11,12,6,6,0.6,0.5
2026-04-27T0000,1936A,107.2025,34.3518,宝鸡市,文理学院,颗粒物(PM10),67,73,71,39,36,81,81,153,126,23,16,6,6,0.6,0.5
2026-04-27T0000,1937A,107.2396,34.3626,宝鸡市,三迪小学,颗粒物(PM10),70,77,80,40,38,56,56,160,122,38,22,7,6,0.7,0.5
2026-04-27T0000,4155A,107.1721,34.3558,宝鸡市,滨河北路,颗粒物(PM10),78,88,84,46,44,73,73,145,117,19,14,11,9,0.7,0.7
2026-04-27T0000,4308A,107.3898,34.3601,宝鸡市,陈仓区北开路21号,颗粒物(PM10),75,84,87,42,36,53,53,154,115,28,18,10,9,0.5,0.5
2026-04-27T0000,1051A,115.4803,38.8568,保定市,游泳馆,颗粒物(PM10),54,55,67,22,33,65,65,116,91,22,18,2,3,0.2,0.1
2026-04-27T0000,1052A,115.509,38.8895,保定市,华电二区,,45,45,62,13,28,53,53,118,90,26,17,3,3,0.4,0.4
2026-04-27T0000,1053A,115.4588,38.9037,保定市,接待中心,,49,49,81,26,31,53,53,103,83,21,13,3,2,0.1,0.2
2026-04-27T0000,1054A,115.4484,38.8344,保定市,地表水厂,颗粒物(PM10),63,67,103,19,32,67,67,116,93,20,16,4,4,0.2,0.3
2026-04-27T0000,3581A,115.3136,38.9511,保定市,满城区生态环境分局,颗粒物(PM10),58,61,88,15,25,69,69,120,100,21,16,2,2,0.2,0.3
2026-04-27T0000,3582A,115.4709,38.7628,保定市,清苑区第二中学,颗粒物(PM10),60,63,97,27,34,51,51,116,81,31,19,6,5,0.3,0.3
2026-04-27T0000,3583A,115.6231,39.0223,保定市,徐水物探局,,48,48,99,11,32,27,27,114,85,51,20,2,2,0.4,0.4
2026-04-27T0000,4004A,115.4199,38.8665,保定市,双鹰农机,颗粒物(PM10),55,56,76,18,33,68,68,120,97,19,14,1,2,0.2,0.2
2026-04-27T0000,4034A,115.515,38.8589,保定市,植保所站,颗粒物(PM10),57,59,84,12,29,66,66,118,90,23,19,3,3,0.2,0.2
2026-04-27T0000,2594A,99.1589,25.1137,保山市,市环境监测站,,38,31,38,26,25,101,101,139,114,7,8,6,6,0.4,0.4
2026-04-27T0000,2595A,99.1616,25.1381,保山市,市环保局,,40,35,42,28,31,111,111,142,117,4,6,7,7,0.4,0.4
2026-04-27T0000,1867A,109.1435,21.4085,北海市,海滩公园,颗粒物(PM10),51,51,27,19,22,76,76,120,105,6,7,6,7,0.8,0.8
2026-04-27T0000,1868A,109.0983,21.466,北海市,新市环保局,,25,23,21,10,13,80,80,100,95,4,7,5,7,0.5,0.6
2026-04-27T0000,1869A,109.1775,21.5232,北海市,北海工业园,,25,24,32,16,19,78,78,106,96,4,9,6,6,0.7,0.8
2026-04-27T0000,3400A,109.1844,21.4396,北海市,龙潭自来水厂,,27,27,21,12,13,75,75,107,97,3,6,8,8,0.9,0.9
2026-04-27T0000,1001A,116.3611,39.8786,北京市,万寿西宫,,50,50,56,13,19,62,62,114,88,23,18,4,4,0.4,0.4
2026-04-27T0000,1003A,116.4174,39.9289,北京市,东四,,46,46,59,14,21,68,68,116,91,19,17,4,3,0.3,0.3
2026-04-27T0000,1004A,116.4073,39.8858,北京市,天坛,,41,41,53,13,19,53,53,108,81,29,22,5,5,0.1,0.2
2026-04-27T0000,1005A,116.4622,39.9364,北京市,农展馆,,49,49,58,13,19,62,62,112,88,23,20,5,4,0.5,0.5
2026-04-27T0000,1006A,116.3399,39.9293,北京市,官园,,47,47,54,13,22,64,64,104,87,24,24,3,2,0.2,0.2
2026-04-27T0000,1007A,116.2879,39.9613,北京市,海淀万柳,,50,50,54,14,18,55,55,99,81,29,28,5,5,0.4,0.4
2026-04-27T0000,1008A,116.6635,40.1349,北京市,顺义新城,,37,37,60,9,20,66,66,113,88,14,10,3,2,0.6,0.6
2026-04-27T0000,1009A,116.6275,40.327,北京市,怀柔镇,,35,35,48,11,16,60,60,115,93,24,16,5,5,0.4,0.4
2026-04-27T0000,1010A,116.2295,40.217,北京市,昌平镇,,49,49,45,16,15,69,69,112,95,24,17,4,3,0.4,0.2
2026-04-27T0000,1011A,116.3968,39.982,北京市,奥体中心,,45,45,54,14,19,62,62,100,83,24,23,5,4,0.3,0.4
2026-04-27T0000,3418A,116.8336,40.4095,北京市,密云新城,,43,43,49,14,17,56,56,109,85,18,9,5,4,0.3,0.2
2026-04-27T0000,3671A,116.0879,39.9725,北京市,门头沟三家店,颗粒物(PM10),58,60,55,20,21,75,75,107,92,19,21,4,3,0.3,0.3
2026-04-27T0000,3672A,116.1507,39.8246,北京市,丰台云岗,颗粒物(PM10),64,69,61,15,19,63,63,118,94,29,22,3,2,0.4,0.4
2026-04-27T0000,3674A,115.9578,39.7602,北京市,房山燕山,颗粒物(PM10),60,64,62,21,20,68,68,103,94,19,15,4,4,0.4,0.3
2026-04-27T0000,3675A,116.4669,39.7734,北京市,大兴旧宫,,45,45,57,13,22,48,48,111,84,29,20,3,2,0.5,0.5
2026-04-27T0000,3694A,115.9859,40.4562,北京市,延庆石河营,颗粒物(PM10),59,62,42,27,18,81,81,111,105,17,16,2,1,0.6,0.4
2026-04-27T0000,3695A,116.6151,40.3052,北京市,怀柔新城,,34,34,51,14,18,54,54,108,84,23,14,5,4,0.4,0.4
2026-04-27T0000,3696A,116.2542,39.8764,北京市,丰台小屯,,49,49,56,15,20,56,56,105,83,22,18,3,3,0.3,0.3
2026-04-27T0000,3697A,116.8399,40.3843,北京市,密云镇,,41,41,51,11,16,65,65,114,92,18,13,7,7,0.4,0.4
2026-04-27T0000,4057A,115.9423,40.4431,北京市,延庆百泉,颗粒物(PM10),65,70,46,25,18,79,79,115,108,17,16,1,1,0.6,0.5
2026-04-27T0000,4058A,116.6598,39.9164,北京市,通州新华,,44,44,66,12,24,53,53,103,79,32,24,5,5,0.5,0.4
2026-04-27T0000,4182A,116.1942,39.9158,北京市,石景山八角,颗粒物(PM10),70,78,62,18,17,58,58,103,84,28,27,5,5,0.3,0.3
2026-04-27T0000,4194A,117.078628,40.151726,北京市,平谷新城,,41,41,61,14,26,58,58,104,84,12,4,3,3,0.4,0.5
2026-04-27T0000,1761A,123.8274146,41.31234549,本溪市,大峪,,23,23,40,11,19,27,27,99,70,29,16,6,8,0.4,0.8
2026-04-27T0000,1763A,123.7169,41.3094,本溪市,彩屯,,35,35,53,22,30,36,36,105,69,25,18,8,12,0.6,1.1
2026-04-27T0000,1764A,123.7672166,41.28649327,本溪市,东明,,48,48,40,14,23,31,31,106,70,36,19,5,5,0.7,0.8
2026-04-27T0000,1765A,123.799345,41.266614,本溪市,新立屯,,18,18,31,6,18,43,43,111,61,25,16,7,8,0.4,0.6
2026-04-27T0000,1766A,123.829144,41.336777,本溪市,威宁,,43,43,40,14,22,26,26,100,68,26,19,6,7,0.6,0.9
2026-04-27T0000,2587A,105.287,27.3133,毕节市,八中,,50,50,48,30,31,44,44,89,63,12,12,7,9,0.7,0.7
2026-04-27T0000,2588A,105.3079,27.2987,毕节市,师专,,49,49,44,27,27,48,48,88,64,13,12,11,12,0.6,0.5
2026-04-27T0000,4263A,105.3688,27.3598,毕节市,工业大道,,35,30,38,24,25,55,55,98,74,12,10,10,10,/,/
2026-04-27T0000,1629A,117.9961,37.3604,滨州市,第二水厂,细颗粒物(PM2.5),64,63,72,42,39,78,78,130,98,17,20,6,9,0.7,0.8
2026-04-27T0000,1630A,117.9789,37.3931,滨州市,北中新校,颗粒物(PM10),75,85,70,33,36,80,80,141,103,22,24,11,13,0.4,0.5
2026-04-27T0000,3514A,117.9379,37.3959,滨州市,中海酒店,颗粒物(PM10),56,58,64,35,34,92,92,142,112,20,22,8,11,0.5,0.5
2026-04-27T0000,3515A,117.9381509,37.35547456,滨州市,开发区一中,细颗粒物(PM2.5),88,66,76,54,42,78,78,128,101,20,26,10,13,0.8,0.9
2026-04-27T0000,3516A,118.0914,37.6938,滨州市,金海六路,细颗粒物(PM2.5),56,56,66,38,40,75,75,133,102,17,22,13,10,0.7,0.9
2026-04-27T0000,4028A,117.9955,37.3752,滨州市,滨州市西街道办事处,细颗粒物(PM2.5),58,58,70,39,36,88,88,140,104,16,19,5,8,0.5,0.6
2026-04-27T0000,2311A,115.8071,33.8399,亳州市,污水处理厂,,39,39,38,26,18,70,70,137,104,14,11,7,6,0.2,0.2
2026-04-27T0000,2312A,115.7789,33.8519,亳州市,三国揽胜宫,颗粒物(PM10),57,59,48,24,19,78,78,131,104,12,9,11,6,0.2,0.2
2026-04-27T0000,3332A,115.7631,33.803,亳州市,亳州学院,,41,41,38,21,18,86,86,128,110,8,7,7,8,0.3,0.4
2026-04-27T0000,2693A,82.0482,44.8553,博尔塔拉蒙古自治州,市党校,,41,41,30,6,5,76,76,132,122,9,6,2,2,0.2,0.1
2026-04-27T0000,2694A,82.0805,44.8966,博尔塔拉蒙古自治州,市环保局,颗粒物(PM10),53,54,29,26,7,55,55,122,104,48,16,5,3,0.6,0.4
2026-04-27T0000,1071A,116.8733,38.2922,沧州市,沧县城建局,,34,34,53,17,27,54,54,100,80,31,20,4,7,0.7,0.7
2026-04-27T0000,1072A,116.8462,38.3189,沧州市,电视转播站,,44,44,55,17,31,51,51,102,84,29,16,4,8,0.4,0.4
2026-04-27T0000,1073A,116.8588,38.3161,沧州市,市环保局,,48,48,61,8,26,42,42,101,80,39,18,6,8,0.7,0.8
2026-04-27T0000,3324A,116.8011,38.294,沧州市,河北水利电力学院,,33,24,48,23,31,67,67,99,85,23,17,8,10,0.3,0.4
2026-04-27T0000,2622A,97.1813,31.1289,昌都市,昌都监测站,,31,8,14,3,3,97,97,104,101,5,9,10,10,0.6,0.6
2026-04-27T0000,3719A,97.1707,31.1428,昌都市,昌都会议中心,,30,8,13,3,4,95,95,104,103,4,5,6,6,0.4,0.4
2026-04-27T0000,2692A,87.2722,44.0298,昌吉回族自治州,新区政务中心,,31,23,16,21,11,28,28,125,104,62,14,5,6,0.6,0.3
2026-04-27T0000,3613A,87.3069,44.0093,昌吉回族自治州,亚心广场,,46,46,23,24,15,30,30,135,111,71,14,6,7,0.9,0.4
2026-04-27T0000,4164A,87.2057,43.9289,昌吉回族自治州,财政所,颗粒物(PM10),55,56,23,16,8,58,58,124,104,14,10,8,8,0.3,0.3
2026-04-27T0000,1120A,125.2874,43.9024,长春市,客车厂,,36,36,24,16,17,9,9,94,62,67,20,7,7,0.4,0.3
2026-04-27T0000,1121A,125.2943,43.8508,长春市,邮电学院,,37,37,20,17,15,47,47,103,77,24,8,6,6,0.6,0.5
2026-04-27T0000,1122A,125.3648,43.8745,长春市,劳动公园,,38,38,26,22,14,55,55,104,77,22,16,7,7,0.6,0.7
2026-04-27T0000,1123A,125.3233,43.8781,长春市,园林处,,35,35,21,23,15,52,52,101,78,25,12,6,6,0.4,0.3
2026-04-27T0000,1124A,125.4604,43.7904,长春市,净月潭,,19,18,22,13,14,45,45,102,78,12,9,9,7,0.3,0.3
2026-04-27T0000,1126A,125.38,43.8422,长春市,经开区环卫处,颗粒物(PM10),55,57,23,24,16,12,12,103,72,65,15,5,6,0.6,0.5
2026-04-27T0000,1127A,125.234,43.7761,长春市,高新区管委会,,43,43,20,26,14,22,22,99,72,45,12,9,8,0.3,0.3
2026-04-27T0000,1128A,125.1695,43.83,长春市,岱山公园,,27,27,22,14,16,48,48,109,78,39,20,4,4,0.4,0.3
2026-04-27T0000,4281A,125.334645,43.916281,长春市,北亚泰大街1068号,,49,49,24,32,17,21,21,100,65,48,18,5,6,0.6,0.4
2026-04-27T0000,1335A,113.082,28.2421,长沙市,经开区环保局,颗粒物(PM10),88,103,56,50,29,31,31,136,88,62,21,30,7,0.6,0.6
2026-04-27T0000,1336A,112.8873,28.2202,长沙市,高开区环保局,颗粒物(PM10),69,76,53,42,28,34,34,137,102,56,22,8,10,0.7,0.5
2026-04-27T0000,1337A,113.0785,28.2012,长沙市,马坡岭,颗粒物(PM10),102,123,60,61,32,13,13,139,72,70,28,8,9,0.9,0.7
2026-04-27T0000,1338A,112.9448,28.1894,长沙市,湖南师范大学,颗粒物(PM10),55,57,55,31,29,55,55,142,88,21,19,7,9,0.6,0.7
2026-04-27T0000,1339A,113.0177,28.1322,长沙市,雨花区环保局,细颗粒物(PM2.5),112,87,51,73,27,14,14,139,98,75,20,6,7,1.0,0.7
2026-04-27T0000,1340A,112.9795,28.2593,长沙市,伍家岭,细颗粒物(PM2.5),123,170,83,85,40,1,1,138,54,57,33,5,7,0.8,0.7
2026-04-27T0000,1341A,113.002,28.1944,长沙市,火车新站,颗粒物(PM10),102,123,60,59,22,8,8,136,76,84,28,6,8,0.9,0.6
2026-04-27T0000,1342A,112.9846,28.1177,长沙市,天心区环保局,细颗粒物(PM2.5),86,81,53,53,28,12,12,144,98,93,25,7,9,0.9,0.6
2026-04-27T0000,1343A,112.8906,28.1307,长沙市,湖南中医药大学,细颗粒物(PM2.5),103,94,62,63,33,3,3,137,60,65,39,6,9,0.8,0.7
2026-04-27T0000,1727A,113.1146,36.1547,长治市,清华站,,35,35,46,14,22,97,97,131,113,12,18,8,9,0.5,0.5
2026-04-27T0000,1730A,113.0887,36.2126,长治市,审计局,,37,37,46,15,24,86,86,127,109,14,14,12,9,0.5,0.5
2026-04-27T0000,1731A,113.0845,36.1856,长治市,长治八中,,38,38,54,16,24,89,89,124,108,14,19,10,10,0.5,0.5
2026-04-27T0000,2845A,113.1561,36.1912,长治市,德盛苑,,32,32,43,18,23,89,89,128,112,12,13,8,9,0.6,0.5
2026-04-27T0000,3568A,113.0603,36.0464,长治市,向阳小学,颗粒物(PM10),65,70,72,14,22,84,84,136,110,21,20,8,9,0.7,0.7
2026-04-27T0000,3569A,112.8788,36.315,长治市,屯留一中,颗粒物(PM10),68,74,58,37,28,44,44,123,96,52,29,15,14,1.6,0.9
2026-04-27T0000,4189A,113.113092,36.199482,长治市,英华南巷50号,,38,38,53,14,23,92,92,128,110,9,12,8,8,0.6,0.6
2026-04-27T0000,4190A,113.23666,36.33435,长治市,学府街1号,,38,38,61,10,24,70,70,137,109,20,18,11,7,1.0,0.9
2026-04-27T0000,1854A,111.696,28.9725,常德市,市二中,,41,41,56,18,34,83,83,129,104,5,12,8,9,0.8,1
2026-04-27T0000,3138A,111.7152,29.0288,常德市,武陵区永安,,49,49,58,31,34,90,90,135,108,8,14,6,8,0.5,0.7
2026-04-27T0000,3139A,111.6891,28.9881,常德市,鼎城区玉霞,,41,41,57,18,33,82,82,132,97,5,14,9,9,0.6,0.8
2026-04-27T0000,3140A,111.6651,29.0526,常德市,武陵区长庚,,42,42,57,19,36,83,83,129,100,4,11,9,11,0.7,0.8
2026-04-27T0000,1196A,119.9524,31.7586,常州市,市监测站,颗粒物(PM10),87,101,68,43,28,104,104,173,131,29,29,6,7,0.8,0.7
2026-04-27T0000,1200A,119.9351,31.703,常州市,武进监测站,颗粒物(PM10),77,87,51,43,23,112,112,158,137,25,22,3,6,0.6,0.6
2026-04-27T0000,3002A,119.9701,31.813,常州市,行政中心,细颗粒物(PM2.5),84,88,57,52,26,84,84,171,130,45,28,7,8,0.3,0.3
2026-04-27T0000,3003A,120.0434,31.7726,常州市,经开区,颗粒物(PM10),100,120,67,49,29,78,78,188,133,49,28,5,6,0.7,0.8
2026-04-27T0000,3010A,119.8919,31.7892,常州市,钟楼,颗粒物(PM10),71,79,54,44,24,135,135,188,152,28,27,9,10,0.4,0.5
2026-04-27T0000,3429A,119.8595,31.706,常州市,武进经发区,颗粒物(PM10),74,83,56,44,30,127,127,181,144,31,29,14,11,0.6,0.6
2026-04-27T0000,3430A,119.5812,31.7256,常州市,金坛城区,细颗粒物(PM2.5),62,62,47,41,26,118,118,171,149,20,14,12,12,1.0,0.7
2026-04-27T0000,4089A,119.9551,31.863,常州市,崇义南街5-H号,颗粒物(PM10),76,86,60,45,29,72,72,180,135,53,30,8,8,0.6,0.6
2026-04-27T0000,2220A,120.4318,41.588,朝阳市,西梁,,27,27,28,15,10,83,83,101,92,17,12,9,9,0.4,0.3
2026-04-27T0000,2221A,120.452,41.565,朝阳市,河畔小区,,32,26,26,14,10,102,102,106,100,13,9,8,8,0.3,0.3
2026-04-27T0000,2222A,120.4176,41.5648,朝阳市,八里堡,,38,35,31,26,10,82,82,103,91,20,13,10,8,0.5,0.5
2026-04-27T0000,3026A,116.6179,23.6608,潮州市,市政府,,50,43,40,35,22,94,94,151,136,12,9,5,4,0.7,0.6
2026-04-27T0000,4036A,116.646,23.676,潮州市,金山,,40,40,31,28,19,59,59,142,121,11,7,3,3,0.5,0.4
2026-04-27T0000,2473A,113.0116,25.8228,郴州市,市职中,颗粒物(PM10),51,51,40,33,22,33,33,114,69,33,25,6,6,0.7,0.6
2026-04-27T0000,2475A,113.0381,25.8074,郴州市,市审计局,,41,41,40,25,23,74,74,98,76,22,27,4,4,/,/
2026-04-27T0000,2476A,113.0348,25.7757,郴州市,市环保局,颗粒物(PM10),56,58,42,24,21,71,71,104,85,23,20,6,6,0.5,0.5
2026-04-27T0000,4252A,113.0138,25.8011,郴州市,好美居路49号,颗粒物(PM10),110,144,40,3,16,NA,NA,117,75,59,29,8,5,/,/
2026-04-27T0000,1431A,103.9727,30.7242,成都市,金泉两河,细颗粒物(PM2.5),76,65,80,48,48,73,73,121,98,18,22,4,6,0.4,0.5
2026-04-27T0000,1432A,104.1423,30.6765,成都市,十里店,细颗粒物(PM2.5),80,68,71,50,47,77,77,122,95,16,21,5,6,0.7,0.7
2026-04-27T0000,1433A,104.0594,30.5765,成都市,三瓦窑,,49,46,67,34,43,90,90,128,106,12,28,3,4,0.6,0.7
2026-04-27T0000,1434A,104.1122,30.6306,成都市,沙河铺,细颗粒物(PM2.5),60,62,72,40,45,78,78,116,94,22,27,3,4,0.5,0.6
2026-04-27T0000,2880A,104.0219,30.6561,成都市,大石西路,"颗粒物(PM10),细颗粒物(PM2.5)",60,63,76,40,51,72,72,120,100,22,27,4,5,0.6,0.7
2026-04-27T0000,3136A,104.2724,30.559,成都市,龙泉驿区区政府,,43,NA,49,30,35,91,91,115,103,5,7,8,8,0.5,0.5
2026-04-27T0000,3357A,104.0028,30.6891,成都市,金博路,细颗粒物(PM2.5),64,64,69,42,47,72,72,121,96,24,32,6,7,0.6,0.7
2026-04-27T0000,3359A,104.056,30.5228,成都市,华阳,,48,46,64,33,42,83,83,121,104,16,23,5,6,0.6,0.7
2026-04-27T0000,3488A,104.387954,30.746684,成都市,青石路225号,颗粒物(PM10),51,51,62,32,43,81,81,123,100,16,18,5,7,0.7,0.7
2026-04-27T0000,3489A,104.0788,30.4054,成都市,科学城,,32,NA,54,22,42,92,92,128,110,7,16,5,6,0.5,0.6
2026-04-27T0000,4011A,103.8505,30.6946,成都市,光华大道三段,颗粒物(PM10),74,83,83,45,48,81,81,122,104,10,13,5,7,0.5,0.6
2026-04-27T0000,4144A,104.3257,30.6406,成都市,八角井街185号,,45,45,61,27,36,70,70,113,96,11,12,6,7,0.6,0.6
2026-04-27T0000,4224A,104.2433276,30.53529463,成都市,鲸龙路1057号,,43,43,59,26,33,95,95,121,105,8,13,7,8,0.5,0.6
2026-04-27T0000,1062A,117.9531,40.908,承德市,铁路,颗粒物(PM10),51,51,42,31,15,86,86,110,100,14,10,3,3,0.4,0.3
2026-04-27T0000,1063A,117.9397,40.9763,承德市,中国银行,颗粒物(PM10),58,61,44,30,26,82,82,110,100,16,11,3,2,0.4,0.3
2026-04-27T0000,4073A,117.9462,40.95,承德市,杏林街1号,颗粒物(PM10),53,53,45,19,21,89,89,114,105,11,9,4,2,0.4,0.2
2026-04-27T0000,4274A,117.7994,40.9605,承德市,滨河大街98号,颗粒物(PM10),52,52,36,25,16,92,92,116,111,10,7,3,4,0.4,0.3
2026-04-27T0000,2314A,117.4698,30.6617,池州市,池州学院,,48,48,32,27,19,60,60,136,102,31,21,8,5,0.9,0.8
2026-04-27T0000,3237A,117.4918,30.6617,池州市,展览馆,颗粒物(PM10),57,59,36,24,17,21,21,143,79,33,19,2,3,0.6,0.7
2026-04-27T0000,3333A,117.5626,30.695,池州市,第八中学,颗粒物(PM10),56,58,34,31,18,50,50,133,100,37,23,6,5,0.4,0.4
2026-04-27T0000,3334A,117.5037,30.6242,池州市,第十二中学,,50,50,41,24,20,43,43,138,82,41,27,7,6,1.2,0.9
2026-04-27T0000,1744A,118.9229,42.2816,赤峰市,松山一中,,28,26,22,3,9,89,89,100,80,13,18,9,13,0.5,0.5
2026-04-27T0000,1745A,118.9588,42.2733,赤峰市,哈达街,,26,26,27,6,14,80,80,92,70,6,13,11,19,0.5,0.6
2026-04-27T0000,1746A,118.8792,42.2551,赤峰市,天义路,,27,11,18,3,9,85,85,102,79,13,18,6,14,0.6,0.5
2026-04-27T0000,3058A,119.2656,42.0356,赤峰市,银河街,,23,20,28,6,14,72,72,108,84,11,9,11,13,0.6,0.5
2026-04-27T0000,3286A,118.9359,42.3146,赤峰市,桥北物流园区,,24,12,19,7,9,76,76,100,80,10,10,11,4,0.5,0.4
2026-04-27T0000,2521A,107.3473,22.4137,崇左市,市环保局江州分局,,49,44,50,34,31,75,75,118,94,7,12,5,6,0.8,0.7
2026-04-27T0000,4256A,107.375,22.3736,崇左市,石景林东路7号,,38,30,37,26,28,72,72,119,86,9,14,3,3,0.6,0.6
2026-04-27T0000,3207A,118.31131,32.3033,滁州市,市政府原办公楼,,46,43,43,32,34,76,76,136,106,25,23,6,6,0.6,0.5
2026-04-27T0000,3331A,118.3268,32.2633,滁州市,图书馆,,49,49,46,21,21,95,95,145,120,26,24,11,10,0.7,0.6
2026-04-27T0000,4101A,118.3196,32.3335,滁州市,银山路666号,颗粒物(PM10),53,54,49,21,23,27,27,139,101,43,27,6,8,0.4,0.4
2026-04-27T0000,4102A,118.3426,32.2979,滁州市,黄山路555号,颗粒物(PM10),73,81,64,38,30,56,56,152,111,41,25,6,8,0.8,0.7
2026-04-27T0000,2606A,101.5379,25.0492,楚雄彝族自治州,市经济开发区,,40,29,42,22,30,125,125,133,130,6,8,2,3,0.4,0.5
2026-04-27T0000,4153A,101.5536,25.0343,楚雄彝族自治州,团结路562号,,42,25,36,23,29,132,132,137,134,5,7,4,4,0.4,0.5
2026-04-27T0000,2549A,107.5087,31.2186,达州市,市环境监测站,细颗粒物(PM2.5),92,96,94,56,49,3,3,36,12,55,51,7,10,0.7,0.6
2026-04-27T0000,2550A,107.4988,31.2132,达州市,凤凰小区,细颗粒物(PM2.5),96,102,97,58,48,1,1,42,13,58,48,6,10,0.6,0.4
2026-04-27T0000,2551A,107.5081,31.1987,达州市,达县机关宾馆,细颗粒物(PM2.5),115,107,102,76,53,0,0,46,7,57,52,5,9,0.7,0.6
2026-04-27T0000,2552A,107.4644,31.2124,达州市,市政中心,细颗粒物(PM2.5),101,95,100,61,48,4,4,40,26,57,49,6,9,0.8,0.6
2026-04-27T0000,2614A,100.2168,25.5818,大理白族自治州,大理市环境监测站,,35,19,39,18,30,111,111,127,113,11,10,4,4,0.5,0.6
2026-04-27T0000,2615A,100.1542,25.7055,大理白族自治州,大理古城,,38,26,36,26,29,111,111,131,NA,6,7,3,3,0.7,0.7
2026-04-27T0000,1109A,121.6119,38.974,大连市,甘井子,颗粒物(PM10),61,65,71,32,34,100,100,120,82,19,21,10,10,0.5,0.7
2026-04-27T0000,1110A,121.565,38.9509,大连市,周水子,颗粒物(PM10),58,60,60,30,32,92,92,121,71,18,24,6,7,0.7,0.7
2026-04-27T0000,1111A,121.5637,38.8849,大连市,星海三站,,49,49,50,32,28,100,100,119,80,9,19,4,5,0.5,0.5
2026-04-27T0000,1112A,121.6301,38.9117,大连市,青泥洼桥,,47,47,66,27,35,102,102,128,85,11,21,5,7,0.7,0.7
2026-04-27T0000,1113A,121.6248,38.8643,大连市,傅家庄,,45,45,52,24,28,96,96,110,84,7,16,9,10,0.6,0.6
2026-04-27T0000,1114A,121.5117,38.8636,大连市,七贤岭,颗粒物(PM10),57,59,61,28,30,100,100,125,84,9,17,6,7,0.7,0.7
2026-04-27T0000,1116A,121.7507,39.1339,大连市,金州,颗粒物(PM10),55,57,69,31,41,90,90,119,80,9,19,8,9,0.6,0.6
2026-04-27T0000,1117A,121.7811,39.0495,大连市,开发区,颗粒物(PM10),58,61,59,26,31,97,97,118,90,17,27,8,9,0.5,0.6
2026-04-27T0000,1118A,121.9762,39.0631,大连市,双D港,,40,40,55,24,30,87,87,121,103,9,22,5,7,0.6,0.5
2026-04-27T0000,4082A,121.2548,38.8188,大连市,旅顺,颗粒物(PM10),55,57,55,33,30,89,89,110,66,8,15,8,9,0.5,0.6
2026-04-27T0000,1789A,124.8085,46.0381,大庆市,大同区,,30,25,28,21,12,56,56,99,76,21,11,1,2,0.6,0.5
2026-04-27T0000,1790A,125.1166,46.5255,大庆市,龙凤区,,24,24,35,6,16,43,43,80,66,35,16,6,5,0.3,0.3
2026-04-27T0000,1791A,124.8894,46.4007,大庆市,红岗区,,26,26,29,16,12,43,43,84,62,27,12,8,8,0.6,0.4
2026-04-27T0000,1792A,125.1391,46.578,大庆市,萨尔图区,,23,23,30,16,14,52,52,81,69,25,14,7,8,0.5,0.5
2026-04-27T0000,1793A,124.9026,46.6217,大庆市,让胡路区,,34,34,31,15,14,63,63,81,64,9,10,3,3,0.3,0.3
2026-04-27T0000,3481A,125.127,46.6277,大庆市,萨区政府监测点,,22,22,26,12,11,63,63,86,72,8,8,9,8,0.4,0.3
2026-04-27T0000,1723A,113.2926,40.0759,大同市,云冈宾馆,颗粒物(PM10),174,298,46,76,14,87,87,118,104,9,12,6,7,0.5,0.6
2026-04-27T0000,1724A,113.3437,40.0921,大同市,大同大学,细颗粒物(PM2.5),124,119,21,86,13,90,90,121,106,9,14,2,5,0.4,0.6
2026-04-27T0000,1725A,113.2637,40.129,大同市,安家小村,颗粒物(PM10),199,347,47,66,10,76,76,120,110,10,11,9,10,0.4,0.4
2026-04-27T0000,3282A,113.3399,40.0586,大同市,大同市卫生学校,颗粒物(PM10),149,246,45,58,9,93,93,128,108,10,13,5,7,0.4,0.6
2026-04-27T0000,3565A,113.1371,40.1122,大同市,云冈站,颗粒物(PM10),328,442,52,60,10,85,85,115,85,5,14,3,7,0.3,0.4
2026-04-27T0000,3566A,113.1186,40.2556,大同市,图书馆,颗粒物(PM10),142,228,38,85,11,82,82,113,102,7,8,6,6,0.5,0.3
2026-04-27T0000,3567A,113.5931,40.0459,大同市,区一中,颗粒物(PM10),119,168,45,60,11,62,62,125,87,33,19,5,2,0.4,0.5
2026-04-27T0000,4199A,113.2798248,40.09972476,大同市,魏都大道141号,颗粒物(PM10),189,327,53,88,15,83,83,114,97,10,14,8,10,0.4,0.5
2026-04-27T0000,2269A,124.1068,50.4091,大兴安岭地区,科技局,,20,20,18,7,6,48,48,74,61,3,3,6,6,0.3,0.3
2026-04-27T0000,3663A,124.117,50.4279,大兴安岭地区,红旗社区,,13,NA,4,9,5,36,36,81,60,7,4,8,6,0.3,0.3
2026-04-27T0000,1600A,124.33,40.0625,丹东市,江湾东路,,43,43,40,28,22,49,49,109,66,17,15,5,5,0.8,0.5
2026-04-27T0000,1601A,124.4242,40.1513,丹东市,临江后街,,36,36,45,19,23,57,57,104,64,8,13,4,7,0.4,0.5
2026-04-27T0000,1602A,124.3935,40.1461,丹东市,元宝山,,26,26,44,17,20,55,55,102,64,10,13,5,7,0.5,0.5
2026-04-27T0000,1603A,124.3634,40.1093,丹东市,民主桥,,35,35,47,21,24,60,60,104,61,13,15,6,7,0.5,0.5
2026-04-27T0000,3541A,109.5726195,19.51688767,儋州市,第一中学子站,,19,6,21,3,14,58,58,86,74,8,5,5,4,0.6,0.7
2026-04-27T0000,3542A,109.5567,19.5187,儋州市,东坡学校子站,,23,8,26,3,14,71,71,97,83,4,5,4,4,0.5,0.6
2026-04-27T0000,2616A,98.5611,24.4273,德宏傣族景颇族自治州,德宏州监测站,细颗粒物(PM2.5),100,NA,45,60,46,51,51,130,88,12,14,6,7,1.0,1.2
2026-04-27T0000,3677A,98.5887,24.4366,德宏傣族景颇族自治州,芒市人民政府综合楼,细颗粒物(PM2.5),102,94,85,62,47,62,62,132,96,13,15,3,3,1.5,1.4
2026-04-27T0000,1901A,104.424,31.1209,德阳市,东山公园,细颗粒物(PM2.5),74,52,58,47,46,50,50,100,79,28,11,4,5,0.6,0.5
2026-04-27T0000,1902A,104.3827,31.1318,德阳市,西小区,细颗粒物(PM2.5),86,74,76,53,49,38,38,99,74,31,23,4,5,0.7,0.7
2026-04-27T0000,1904A,104.3553,31.1091,德阳市,耐火材料厂,细颗粒物(PM2.5),104,73,75,64,53,37,37,110,84,43,28,3,6,0.5,0.5
2026-04-27T0000,4145A,104.4144,31.1495,德阳市,市林业局,细颗粒物(PM2.5),90,62,64,55,47,52,52,112,84,28,21,3,4,0.5,0.5
2026-04-27T0000,1622A,116.3034,37.4675,德州市,儿童乐园,颗粒物(PM10),83,95,72,45,32,70,70,107,91,25,15,21,10,0.6,0.6
2026-04-27T0000,1624A,116.2992,37.4449,德州市,监理站,颗粒物(PM10),80,92,70,40,30,83,83,110,97,19,12,23,13,0.6,0.5
2026-04-27T0000,3066A,116.2722,37.438,德州市,九衢泉纯净水厂,颗粒物(PM10),75,85,65,39,30,89,89,113,104,23,18,17,12,0.8,0.8
2026-04-27T0000,3371A,116.3693,37.44,德州市,开发区人民医院,颗粒物(PM10),80,92,71,45,32,73,73,108,88,24,18,21,13,0.6,0.6
2026-04-27T0000,3511A,116.5687,37.3331,德州市,陵城艺术中心,细颗粒物(PM2.5),68,73,63,44,36,65,65,113,88,18,17,12,14,0.6,0.7
2026-04-27T0000,4292A,116.352738,37.420875,德州市,新河东路,颗粒物(PM10),79,90,66,39,29,80,80,109,97,19,15,12,11,0.8,0.8
2026-04-27T0000,2621A,99.7054,27.8319,迪庆藏族自治州,迪庆州站,,35,20,22,9,12,109,109,124,118,11,10,7,7,0.5,0.3
2026-04-27T0000,3180A,99.7122,27.8129,迪庆藏族自治州,质量技术监督局,,35,NA,24,12,11,111,111,128,118,7,9,8,8,0.4,0.4
2026-04-27T0000,4257A,104.6092,35.5962,定西市,将台街,颗粒物(PM10),61,65,63,36,25,110,110,142,128,6,16,3,5,0.1,0.1
2026-04-27T0000,4309A,104.6159,35.5701,定西市,正龙路62号,颗粒物(PM10),58,61,61,13,26,109,109,140,128,7,11,2,3,0.2,0.3
2026-04-27T0000,4071A,114.9883,38.5232,定州市,交通局,颗粒物(PM10),63,68,94,31,36,70,70,122,102,27,18,8,8,0.4,0.4
2026-04-27T0000,4072A,115.0045,38.5136,定州市,第五中学,颗粒物(PM10),78,89,107,25,34,61,61,118,94,24,16,3,3,0.4,0.4
2026-04-27T0000,1390A,113.7943,23.0132,东莞市,东城石井,,37,37,42,25,27,69,69,201,159,33,26,5,6,0.8,0.8
2026-04-27T0000,1391A,113.7384,22.9659,东莞市,南城西平,,37,37,43,21,28,92,92,192,158,23,26,8,7,0.5,0.6
2026-04-27T0000,3319A,113.7283,23.041,东莞市,万江金泰,,41,41,48,22,29,95,95,189,164,26,22,8,7,0.8,0.8
2026-04-27T0000,4129A,113.8666,23.1062,东莞市,裕兴路,颗粒物(PM10),60,63,51,33,26,78,78,185,162,37,22,6,9,0.8,0.7
2026-04-27T0000,4130A,114.0076,22.9739,东莞市,教育路1号,,50,50,49,25,28,97,97,199,164,26,26,8,8,0.6,0.6
2026-04-27T0000,4131A,113.7981,22.8124,东莞市,长怡路1号,,50,50,53,24,29,79,79,201,140,35,29,8,7,0.8,0.7
2026-04-27T0000,1666A,118.6612,37.4313,东营市,市环保局,颗粒物(PM10),58,61,68,32,38,88,88,167,115,13,19,6,12,0.3,0.5
2026-04-27T0000,3036A,118.6903,37.4337,东营市,开发区管委会,细颗粒物(PM2.5),56,55,65,38,44,92,92,169,117,18,23,6,11,0.4,0.6
2026-04-27T0000,3365A,118.5721,37.5654,东营市,垦利区民丰路,颗粒物(PM10),55,56,63,33,38,91,91,160,107,16,22,10,13,0.6,0.7
2026-04-27T0000,3498A,118.5063,37.8606,东营市,河口城区,,41,41,61,17,29,99,99,154,109,11,18,7,11,0.9,1.1
2026-04-27T0000,3646A,118.4979,37.4623,东营市,胜利站,细颗粒物(PM2.5),64,61,68,42,39,84,84,146,105,17,24,4,8,0.7,0.8
2026-04-27T0000,3734A,118.5753,37.4405,东营市,理想之城,细颗粒物(PM2.5),78,61,69,49,48,68,68,128,88,20,30,5,9,0.5,0.6
2026-04-27T0000,1591A,110.0024,39.8127,鄂尔多斯市,综合楼,颗粒物(PM10),500,2080,199,216,43,90,90,110,101,5,20,5,7,0.3,0.3
2026-04-27T0000,1592A,109.9485,39.8259,鄂尔多斯市,巴音孟克林场办事处,颗粒物(PM10),500,1731,173,181,32,96,96,115,104,4,11,4,6,0.2,0.2
2026-04-27T0000,1593A,109.7734,39.5987,鄂尔多斯市,康泽苑,细颗粒物(PM2.5),308,NA,59,258,25,88,88,114,103,5,9,7,8,0.3,0.3
2026-04-27T0000,1594A,109.8121,39.5987,鄂尔多斯市,华泰汽车城,细颗粒物(PM2.5),293,NA,108,243,24,79,79,111,100,10,12,8,8,0.4,0.3
2026-04-27T0000,1595A,109.9734,39.7884,鄂尔多斯市,奥林花园,颗粒物(PM10),500,1968,285,154,27,94,94,114,104,7,15,3,4,0.2,0.2
2026-04-27T0000,2436A,114.894,30.3989,鄂州市,市政府,,50,50,47,32,23,113,113,159,139,18,18,12,13,0.7,0.6
2026-04-27T0000,2437A,114.8986,30.3714,鄂州市,赵家坝,颗粒物(PM10),56,58,46,33,22,98,98,153,125,6,7,19,15,0.8,0.8
2026-04-27T0000,3654A,114.8093,30.4091,鄂州市,精准医疗中心,细颗粒物(PM2.5),74,77,53,47,29,71,71,148,117,35,25,49,21,3.9,1.8
2026-04-27T0000,2454A,109.4978,30.2979,恩施土家族苗族自治州,湖北民院,,46,45,48,32,29,28,28,96,49,12,14,8,8,0.4,0.4
2026-04-27T0000,3549A,109.5061,30.3771,恩施土家族苗族自治州,龙凤新区,,40,40,48,19,25,30,30,82,44,6,11,6,7,0.4,0.4
2026-04-27T0000,2499A,108.3411,21.6159,防城港市,沙万,,30,30,41,14,24,74,74,89,77,28,25,6,8,0.7,0.8
2026-04-27T0000,2500A,108.3515,21.7733,防城港市,防城档案局,,38,27,40,26,27,74,74,99,89,6,10,10,8,0.8,0.9
2026-04-27T0000,2501A,108.3506,21.6414,防城港市,大海花园,,30,30,34,15,25,81,81,105,88,27,16,9,12,0.7,0.9
2026-04-27T0000,1371A,113.1293,23.0065,佛山市,湾梁,,48,39,51,33,42,114,114,207,170,15,29,/,/,/,/
2026-04-27T0000,1372A,113.1082,23.0477,佛山市,华材职中,细颗粒物(PM2.5),58,46,56,39,50,117,117,210,174,18,27,4,4,0.6,0.6
2026-04-27T0000,1373A,113.1439,23.045,佛山市,南海气象局,,49,NA,50,34,39,122,122,204,169,14,27,/,/,/,/
2026-04-27T0000,1374A,113.2879,22.8094,佛山市,顺德苏岗,,41,30,33,26,31,129,129,212,176,9,18,/,/,0.7,0.7
2026-04-27T0000,1376A,112.8384,22.8678,佛山市,高明孔堂,,33,33,50,22,37,97,97,181,128,10,28,/,/,/,/
2026-04-27T0000,1377A,112.8835,23.1584,佛山市,三水监测站,细颗粒物(PM2.5),78,68,66,49,46,43,43,188,118,56,52,5,3,0.7,0.7
2026-04-27T0000,1378A,112.8668,23.185,佛山市,三水云东海,,44,44,72,29,41,63,63,210,130,23,37,/,/,/,/
2026-04-27T0000,3625A,113.2568,22.7629,佛山市,容桂街道办,,38,31,44,26,36,118,118,210,160,14,25,/,/,/,/
2026-04-27T0000,1282A,119.2681,26.0506,福州市,师大,,45,40,47,31,23,106,106,140,113,12,15,4,5,0.4,0.5
2026-04-27T0000,1283A,119.2983,26.1028,福州市,五四北路,,47,47,43,28,23,90,90,140,112,21,18,7,5,0.4,0.3
2026-04-27T0000,1284A,119.2648,26.0769,福州市,杨桥西路,,41,41,44,26,20,106,106,142,114,15,15,6,5,/,/
2026-04-27T0000,3048A,119.5799,26.0937,福州市,九龙,,27,27,31,16,15,52,52,135,109,13,12,5,5,0.3,0.3
2026-04-27T0000,3526A,119.5188,25.9666,福州市,吴航,,41,41,39,23,20,58,58,136,94,18,18,6,6,0.3,0.4
2026-04-27T0000,4104A,119.3106,26.0648,福州市,路通桥巷6号,,48,48,44,33,24,104,104,141,110,13,14,/,/,/,/
2026-04-27T0000,1755A,123.7974,41.8494,抚顺市,望花区,颗粒物(PM10),86,100,39,32,24,27,27,114,75,41,17,9,11,0.5,0.5
2026-04-27T0000,1756A,123.9161,41.8827,抚顺市,顺城区,,37,37,32,16,23,30,30,111,60,40,22,10,10,0.5,0.6
2026-04-27T0000,1757A,124.0437,41.8615,抚顺市,东洲区,,23,23,33,8,19,62,62,108,86,12,13,7,8,0.4,0.5
2026-04-27T0000,1758A,123.9246,41.8638,抚顺市,新抚区,,31,31,33,20,22,24,24,119,71,37,18,7,7,0.5,0.6
2026-04-27T0000,1759A,124.0972,41.8961,抚顺市,大伙房水库,,18,18,22,12,17,32,32,112,84,34,13,8,8,0.4,0.5
2026-04-27T0000,1760A,123.708,41.8386,抚顺市,沈抚新城,颗粒物(PM10),59,62,36,25,23,19,19,113,68,47,22,8,8,0.6,0.6
2026-04-27T0000,2377A,116.3544,27.9833,抚州市,市站,,48,48,40,25,25,72,72,108,85,14,15,8,5,0.7,0.7
2026-04-27T0000,2378A,116.3562,27.9631,抚州市,血防站,,50,50,37,22,20,76,76,118,100,16,15,10,8,0.9,0.8
2026-04-27T0000,2379A,116.3561,28.0007,抚州市,采茶剧团,,46,46,40,22,22,73,73,113,93,13,16,9,6,0.7,0.7
2026-04-27T0000,2380A,116.3854,27.9648,抚州市,医学分院,颗粒物(PM10),58,60,41,23,17,55,55,121,101,33,13,14,7,0.8,0.8
2026-04-27T0000,2207A,121.6095,41.9978,阜新市,工业园区,,47,47,27,24,10,5,5,98,62,57,16,11,9,0.5,0.4
2026-04-27T0000,2208A,121.6567,42.0188,阜新市,长青街,,38,38,20,21,10,21,21,105,72,41,14,9,5,0.7,0.6
2026-04-27T0000,2209A,121.6672,42.07,阜新市,农业园区,,49,49,25,3,9,73,73,96,80,15,11,19,8,0.4,0.5
2026-04-27T0000,2211A,121.6343,42.0455,阜新市,玉龙新城,,41,41,26,17,9,6,6,100,52,54,20,11,9,0.7,0.6
2026-04-27T0000,2301A,115.8276,32.8929,阜阳市,市监测站,颗粒物(PM10),52,52,44,23,17,84,84,128,102,18,13,7,7,0.3,0.3
2026-04-27T0000,2303A,115.8551,32.8606,阜阳市,开发区,细颗粒物(PM2.5),68,73,51,44,19,91,91,128,110,21,15,7,5,0.5,0.4
2026-04-27T0000,2875A,115.783962,32.889217,阜阳市,阜阳职业技术学院,颗粒物(PM10),57,59,43,22,17,110,110,133,121,12,10,7,8,0.4,0.4
2026-04-27T0000,3468A,115.79,32.8614,阜阳市,市规划展馆,,45,45,47,27,18,100,100,132,116,12,9,8,8,0.5,0.5
2026-04-27T0000,3469A,115.835101,32.918568,阜阳市,枣园社区,颗粒物(PM10),55,57,44,26,19,96,96,127,107,15,15,6,7,0.3,0.3
2026-04-27T0000,2669A,102.9097,34.9841,甘南藏族自治州,州政府,颗粒物(PM10),68,74,65,19,22,110,110,130,125,3,21,4,5,0.3,0.3
2026-04-27T0000,3380A,102.8915,34.9618,甘南藏族自治州,甘肃民族师范学院,颗粒物(PM10),78,89,80,21,24,122,122,143,138,1,22,2,3,0.3,0.4
2026-04-27T0000,2570A,101.96,30.048,甘孜藏族自治州,水桥子,,25,NA,21,16,12,78,78,93,85,11,15,5,6,0.3,0.2
2026-04-27T0000,3065A,101.9534,29.9976,甘孜藏族自治州,州环保局,,24,19,21,16,10,76,76,84,76,20,18,4,5,0.6,0.5
2026-04-27T0000,2363A,114.9368,25.8663,赣州市,地委,颗粒物(PM10),70,77,47,36,24,34,34,158,85,34,24,1,3,1.1,1.1
2026-04-27T0000,2364A,114.946,25.8483,赣州市,气象台,颗粒物(PM10),63,68,43,36,25,30,30,154,89,40,24,6,6,1.1,0.9
2026-04-27T0000,2365A,114.932,25.8332,赣州市,市图书馆,颗粒物(PM10),69,76,43,32,24,40,40,150,91,48,28,4,4,1.0,0.9
2026-04-27T0000,2366A,114.8905,25.8472,赣州市,华坚鞋城,颗粒物(PM10),66,72,50,34,28,33,33,143,76,46,29,8,9,0.3,0.3
2026-04-27T0000,3109A,115.0094,25.8614,赣州市,赣县区卫计委,颗粒物(PM10),55,56,46,30,21,34,34,136,89,34,25,3,4,0.6,0.6
2026-04-27T0000,2684A,106.2753,36.0057,固原市,监测站,颗粒物(PM10),55,57,58,14,21,94,94,133,113,8,12,7,7,0.3,0.3
2026-04-27T0000,2685A,106.2384,36.0189,固原市,新区,,48,48,54,15,20,90,90,137,116,8,9,5,7,0.5,0.5
2026-04-27T0000,2544A,106.6307,30.4577,广安市,市委,细颗粒物(PM2.5),66,52,56,43,43,55,55,84,66,8,12,7,7,0.4,0.4
2026-04-27T0000,2545A,106.6266,30.4662,广安市,友谊中学,,50,49,52,35,36,51,51,82,67,7,10,7,8,0.5,0.5
2026-04-27T0000,2547A,106.6386,30.4551,广安市,广电花园,细颗粒物(PM2.5),66,52,58,43,45,51,51,71,58,9,14,6,6,0.4,0.5
2026-04-27T0000,2902A,106.6347,30.4868,广安市,北辰小学,细颗粒物(PM2.5),64,60,59,42,42,55,55,76,64,8,11,7,8,0.4,0.4
2026-04-27T0000,2524A,105.8211,32.4444,广元市,老城,颗粒物(PM10),75,85,65,45,37,31,31,90,56,30,32,7,4,0.8,0.8
2026-04-27T0000,2526A,105.8629,32.429,广元市,监测站,细颗粒物(PM2.5),68,69,64,44,36,22,22,86,54,38,25,11,8,0.9,0.8
2026-04-27T0000,3617A,105.8047,32.4167,广元市,经开区,颗粒物(PM10),66,72,68,40,39,30,30,88,59,32,28,6,9,0.8,0.8
2026-04-27T0000,1345A,113.2346,23.1423,广州市,广雅中学,,39,39,49,26,29,103,103,191,159,28,33,3,3,0.9,1
2026-04-27T0000,1346A,113.2611,23.105,广州市,市五中,,42,42,46,29,33,117,117,218,182,28,30,4,5,/,/
2026-04-27T0000,1348A,113.3477,23.0916,广州市,广东商学院,,48,45,47,33,37,100,100,201,166,37,39,7,6,1.0,0.9
2026-04-27T0000,1349A,113.4332,23.105,广州市,市八十六中,,38,38,42,19,26,93,93,202,152,38,45,6,8,/,/
2026-04-27T0000,1350A,113.3506,22.9488,广州市,番禺中学,,39,39,47,24,27,117,117,201,169,18,25,6,6,0.7,0.7
2026-04-27T0000,1351A,113.2147,23.3918,广州市,花都师范,颗粒物(PM10),74,83,63,44,39,72,72,216,160,75,49,6,6,1.0,0.9
2026-04-27T0000,1352A,113.2599,23.1329,广州市,市监测站,,39,37,41,27,28,102,102,191,159,17,23,3,3,/,/
2026-04-27T0000,1353A,113.5618,23.3119,广州市,九龙镇镇龙,颗粒物(PM10),73,82,58,42,29,34,34,146,94,45,32,6,6,0.7,0.6
2026-04-27T0000,1354A,113.2764,23.1544,广州市,麓湖,,42,42,46,29,31,95,95,186,149,21,31,6,6,0.7,0.8
2026-04-27T0000,2846A,113.3209,23.1323,广州市,体育西,,44,44,50,24,28,117,117,191,161,22,33,9,6,0.8,0.8
2026-04-27T0000,3298A,113.5718,23.5493,广州市,从化街口,颗粒物(PM10),63,68,45,34,26,62,62,129,94,34,25,6,7,0.7,0.7
2026-04-27T0000,3299A,113.3463,23.369,广州市,白云竹料,细颗粒物(PM2.5),92,99,66,56,36,46,46,191,137,57,36,4,4,0.9,0.8
2026-04-27T0000,3300A,113.2981,23.2365,广州市,白云嘉禾,颗粒物(PM10),61,65,60,39,36,109,109,195,159,35,38,8,7,/,/
2026-04-27T0000,3301A,113.4256,23.1716,广州市,黄埔科学城,细颗粒物(PM2.5),70,70,54,45,39,76,76,196,135,41,34,6,5,0.7,0.8
2026-04-27T0000,3302A,113.3942,23.0485,广州市,番禺大学城,细颗粒物(PM2.5),56,55,52,38,31,98,98,213,168,33,32,7,8,0.6,0.5
2026-04-27T0000,3303A,113.4923,22.8169,广州市,南沙黄阁,,36,34,47,22,29,114,114,206,160,9,20,6,7,/,/
2026-04-27T0000,3304A,113.534,22.7893,广州市,南沙街,,35,NA,36,20,29,109,109,48,NA,16,27,6,6,0.6,0.7
2026-04-27T0000,3443A,113.2905,23.5541,广州市,花都梯面,,39,39,42,26,28,57,57,147,123,24,25,7,8,/,/
2026-04-27T0000,3445A,113.786,23.7479,广州市,从化良口,,34,34,28,18,19,106,106,115,104,15,13,6,5,/,/
2026-04-27T0000,3446A,113.805,23.2614,广州市,增城荔城,颗粒物(PM10),53,53,41,27,24,43,43,146,93,40,21,6,6,0.8,0.7
2026-04-27T0000,2506A,109.604387,23.066791,贵港市,江南子站,细颗粒物(PM2.5),62,58,63,41,39,60,60,118,79,17,20,8,11,0.7,0.8
2026-04-27T0000,2508A,109.5669,23.1065,贵港市,荷城子站,,48,39,50,33,34,69,69,112,85,18,19,5,9,0.6,0.7
2026-04-27T0000,3405A,109.5886,23.1172,贵港市,新世纪学校,,50,NA,52,35,38,79,79,119,92,17,26,/,/,0.7,0.7
2026-04-27T0000,4260A,109.5933,23.095,贵港市,中山路155-3号,细颗粒物(PM2.5),52,51,58,36,39,84,84,130,98,12,19,/,/,0.7,0.8
2026-04-27T0000,1439A,106.6863,26.6035,贵阳市,马鞍山,,39,34,34,27,24,65,65,89,86,8,10,1,3,/,/
2026-04-27T0000,1441A,106.6241,26.6266,贵阳市,鉴湖路,,44,44,48,26,22,92,92,96,96,11,12,5,7,0.7,0.7
2026-04-27T0000,1442A,106.7468,26.6344,贵阳市,燕子冲,,41,41,45,13,23,83,83,95,94,9,11,5,6,0.8,0.8
2026-04-27T0000,1443A,106.6556,26.4362,贵阳市,碧云窝,,44,44,48,26,25,90,90,94,94,6,7,4,9,/,/
2026-04-27T0000,1445A,106.6963,26.6063,贵阳市,红边门,,39,39,44,24,26,85,85,87,87,10,14,6,8,/,/
2026-04-27T0000,1446A,106.7162383,26.56964667,贵阳市,新华路,,36,36,49,24,23,87,87,87,87,10,14,11,19,0.2,0.3
2026-04-27T0000,1447A,106.6742,26.542,贵阳市,太慈桥,,35,34,41,24,25,72,72,82,81,7,13,4,5,/,/
2026-04-27T0000,4230A,106.688212,26.56952,贵阳市,花果园大街66号,,35,27,30,24,23,79,79,89,89,7,9,2,5,/,/
2026-04-27T0000,4231A,106.687268,26.516892,贵阳市,漓江路57号,,36,31,35,25,26,76,76,82,82,10,11,5,8,0.4,0.4
2026-04-27T0000,1864A,110.3091,25.2705,桂林市,龙隐路小学,细颗粒物(PM2.5),64,62,45,42,30,56,56,119,97,21,14,5,7,0.6,0.5
2026-04-27T0000,1865A,110.2849361,25.22909545,桂林市,八中,颗粒物(PM10),56,58,53,27,17,61,61,111,96,24,18,7,6,0.7,0.6
2026-04-27T0000,3531A,110.296,25.1254,桂林市,旅游学院,NA,NA,52,48,41,34,NA,NA,119,97,19,15,8,9,0.7,0.6
2026-04-27T0000,4222A,110.1835,25.2444,桂林市,环湖路276号,细颗粒物(PM2.5),58,56,46,39,30,50,50,124,109,38,29,4,6,0.5,0.4
2026-04-27T0000,4301A,110.2803,25.2773,桂林市,信义路13号,细颗粒物(PM2.5),86,61,51,53,29,65,65,120,100,22,18,9,11,0.9,0.8
2026-04-27T0000,2674A,100.2262,34.4854,果洛藏族自治州,玛沁县大武镇,,30,26,29,11,11,94,94,92,90,1,3,19,21,0.3,0.4
2026-04-27T0000,1130A,126.5557,45.8109,哈尔滨市,松北商大,,48,48,27,23,14,26,26,94,47,48,20,5,5,0.7,0.6
2026-04-27T0000,1132A,126.6162,45.719,哈尔滨市,南岗学府路,,33,33,33,12,10,51,51,96,66,21,16,2,2,0.5,0.6
2026-04-27T0000,1133A,126.6894,45.7733,哈尔滨市,太平宏伟公园,,27,27,32,9,11,52,52,96,65,22,21,5,5,0.3,0.3
2026-04-27T0000,1134A,126.6361,45.7672,哈尔滨市,道外承德广场,,41,41,41,11,10,57,57,90,69,18,23,7,7,0.5,0.4
2026-04-27T0000,1136A,126.644,45.7261,哈尔滨市,动力和平路,,23,23,29,15,11,47,47,94,66,27,21,5,7,0.3,0.2
2026-04-27T0000,1137A,126.5933,45.7479,哈尔滨市,道里建国路,,28,28,25,18,11,44,44,93,63,27,21,1,2,1.1,0.9
2026-04-27T0000,1138A,126.6127,45.6119,哈尔滨市,平房东轻厂,,44,44,25,22,11,9,9,99,44,66,32,10,11,0.6,0.5
2026-04-27T0000,1139A,126.5875,45.9827,哈尔滨市,呼兰师专,,33,33,27,10,9,19,19,82,47,40,20,10,10,0.2,0.1
2026-04-27T0000,1140A,126.6299,45.6799,哈尔滨市,省农科院,颗粒物(PM10),55,56,65,22,20,39,39,93,66,34,20,5,6,0.5,0.4
2026-04-27T0000,4282A,126.6769,45.7379,哈尔滨市,华山路1号,,27,27,28,14,11,59,59,101,73,17,15,1,2,0.4,0.4
2026-04-27T0000,4283A,126.9717,45.5356,哈尔滨市,解放大街52号,颗粒物(PM10),72,80,46,18,11,13,13,104,58,48,22,3,4,0.5,0.5
2026-04-27T0000,2688A,93.5124,42.8176,哈密市,地区监测站,,32,29,34,16,14,102,102,110,109,6,7,13,14,0.0,0.1
2026-04-27T0000,2689A,93.5014,42.8312,哈密市,哈密师范学校,颗粒物(PM10),55,56,43,11,16,106,106,112,110,8,9,12,13,0.2,0
2026-04-27T0000,2671A,100.9016,36.9464,海北藏族自治州,海晏县西海镇,,36,28,40,14,16,115,115,134,112,1,3,10,10,0.4,0.4
2026-04-27T0000,3867A,102.074,36.5056,海东市,平安区公安局北苑,颗粒物(PM10),55,57,64,26,29,112,112,143,129,7,11,10,12,0.5,0.5
2026-04-27T0000,4163A,102.0984,36.5119,海东市,滨河路,颗粒物(PM10),62,66,62,24,22,85,85,118,100,17,27,9,12,0.6,0.6
2026-04-27T0000,1410A,110.3189,20.0596,海口市,海南大学,,24,24,23,15,16,64,64,120,84,4,4,5,5,0.5,0.5
2026-04-27T0000,1411A,110.2827,20.0051,海口市,秀英海南医院,,20,20,24,14,14,54,54,101,70,6,7,7,7,0.3,0.4
2026-04-27T0000,1412A,110.3391,19.9979,海口市,海南师范大学,,26,26,28,16,17,55,55,109,72,6,6,6,6,0.5,0.5
2026-04-27T0000,1413A,110.3303,20.0359,海口市,龙华路环保局宿舍,,24,24,25,15,16,60,60,114,78,6,6,/,/,0.8,0.7
2026-04-27T0000,3539A,110.5111,19.9737,海口市,桂林洋子站,,25,25,26,13,16,52,52,89,65,5,6,/,/,/,/
2026-04-27T0000,4134A,110.1952,20.0451,海口市,长滨二路9号,,20,20,20,13,15,49,49,105,74,7,4,/,/,/,/
2026-04-27T0000,2673A,100.6158,36.2985,海南藏族自治州,共和县恰卜恰镇,颗粒物(PM10),66,72,50,20,20,119,119,144,132,5,7,12,11,0.3,0.3
2026-04-27T0000,2676A,97.373,37.376,海西蒙古族藏族自治州,德令哈市,,41,16,30,6,11,130,130,136,132,1,1,16,16,0.3,0.3
2026-04-27T0000,1049A,114.492,36.5712,邯郸市,矿院,细颗粒物(PM2.5),86,65,59,53,37,90,90,138,119,10,9,3,5,0.4,0.5
2026-04-27T0000,1050A,114.4839,36.6136,邯郸市,丛台公园,细颗粒物(PM2.5),96,79,58,58,36,82,82,135,114,13,10,2,4,0.4,0.5
2026-04-27T0000,3458A,114.7893,36.5592,邯郸市,香泉濮院小区,细颗粒物(PM2.5),107,82,71,67,43,70,70,123,97,18,12,3,3,0.5,0.4
2026-04-27T0000,3580A,114.1998,36.4439,邯郸市,峰峰矿区临水派出所,细颗粒物(PM2.5),60,61,67,40,32,97,97,137,116,23,21,3,7,0.5,0.6
2026-04-27T0000,4068A,114.5209,36.7697,邯郸市,建安街268号,细颗粒物(PM2.5),88,82,79,54,33,33,33,116,78,36,19,3,3,0.4,0.5
2026-04-27T0000,4069A,114.5488,36.6177,邯郸市,丛台东路558号,细颗粒物(PM2.5),82,63,65,51,32,74,74,128,102,17,14,1,4,0.4,0.5
2026-04-27T0000,2635A,107.0155,33.0707,汉中市,市监测站,,42,37,60,29,35,46,46,118,87,13,15,4,5,0.5,0.6
2026-04-27T0000,2636A,107.0083,33.114,汉中市,鑫源开发区,,46,37,54,32,35,52,52,119,94,13,16,6,7,0.5,0.7
2026-04-27T0000,2637A,107.0072,33.0323,汉中市,南郑大河坎水厂,,42,42,54,25,31,43,43,114,76,12,14,4,4,0.3,0.4
2026-04-27T0000,1223A,120.2073,30.2111,杭州市,滨江,细颗粒物(PM2.5),104,114,69,64,38,85,85,179,153,40,27,10,9,0.9,0.7
2026-04-27T0000,1224A,120.0625,30.2737,杭州市,西溪,细颗粒物(PM2.5),114,104,55,75,32,64,64,158,128,24,18,6,5,0.9,0.6
2026-04-27T0000,1226A,120.3417,30.315,杭州市,下沙,颗粒物(PM10),104,128,79,55,38,56,56,164,128,64,34,8,9,0.8,0.7
2026-04-27T0000,1227A,120.1252,30.2465,杭州市,卧龙桥,细颗粒物(PM2.5),84,83,51,52,29,35,35,174,94,29,24,8,8,0.5,0.5
2026-04-27T0000,1228A,120.1902,30.2691,杭州市,浙江农大,细颗粒物(PM2.5),102,101,63,62,37,75,75,163,134,52,42,9,9,0.6,0.5
2026-04-27T0000,1230A,120.1195,30.3121,杭州市,和睦小学,细颗粒物(PM2.5),100,88,56,60,35,83,83,164,144,37,29,8,7,0.6,0.6
2026-04-27T0000,1231A,120.3076,30.4146,杭州市,临平镇,颗粒物(PM10),72,80,66,45,37,107,107,183,161,29,27,7,7,0.6,0.5
2026-04-27T0000,1232A,120.2753,30.1839,杭州市,城厢镇,细颗粒物(PM2.5),105,94,65,65,41,65,65,152,125,47,31,11,8,0.7,0.6
2026-04-27T0000,1233A,120.0883,30.1808,杭州市,云栖,颗粒物(PM10),119,168,103,58,33,40,40,165,100,36,27,7,8,0.8,0.7
2026-04-27T0000,3557A,119.9463,30.0496,杭州市,镇二中,细颗粒物(PM2.5),80,82,53,50,36,82,82,161,140,34,26,7,6,0.6,0.6
2026-04-27T0000,3558A,119.7184,30.2367,杭州市,市府大楼,细颗粒物(PM2.5),62,59,44,41,32,61,61,153,124,28,20,7,7,0.8,0.6
2026-04-27T0000,3656A,120.1554,30.2863,杭州市,消防大队,颗粒物(PM10),100,120,72,58,40,70,70,151,129,36,23,6,6,0.7,0.6
2026-04-27T0000,1270A,117.1957,31.7845,合肥市,明珠广场,,46,46,40,28,22,96,96,138,116,21,21,8,8,0.6,0.6
2026-04-27T0000,1271A,117.307,31.8765,合肥市,三里街,颗粒物(PM10),56,58,46,26,22,80,80,116,103,40,34,8,7,0.4,0.5
2026-04-27T0000,1272A,117.2587,31.8703,合肥市,琥珀山庄,颗粒物(PM10),51,51,44,26,20,90,90,130,117,29,22,8,7,0.7,0.7
2026-04-27T0000,1275A,117.2593,31.9376,合肥市,庐阳区,颗粒物(PM10),51,51,47,24,21,105,105,125,114,18,26,6,6,0.6,0.7
2026-04-27T0000,1276A,117.345251,31.861615,合肥市,瑶海区,颗粒物(PM10),51,51,46,24,19,101,101,130,122,26,25,7,7,0.5,0.5
2026-04-27T0000,1277A,117.3033,31.7967,合肥市,包河区,颗粒物(PM10),53,53,48,23,19,106,106,127,123,10,23,11,10,0.5,0.5
2026-04-27T0000,1278A,117.278,31.7392,合肥市,滨湖新区,,41,41,36,22,17,112,112,130,125,9,10,6,6,0.5,0.5
2026-04-27T0000,1279A,117.1324,31.8395,合肥市,高新区,颗粒物(PM10),51,51,41,26,18,98,98,133,119,20,15,6,6,0.5,0.5
2026-04-27T0000,3464A,117.3802,31.9148,合肥市,高教基地,颗粒物(PM10),58,61,43,28,18,93,93,130,117,26,21,10,9,0.5,0.5
2026-04-27T0000,4098A,117.2518,31.8404,合肥市,中国科学技术大学,,48,48,40,23,18,103,103,136,124,15,16,8,7,0.6,0.6
2026-04-27T0000,3614A,79.9241,37.0878,和田地区,地区环保局,颗粒物(PM10),142,229,264,56,66,61,61,100,90,25,5,2,2,0.3,0.5
2026-04-27T0000,3615A,79.9132,37.1137,和田地区,市环保局,颗粒物(PM10),139,220,199,71,69,77,77,101,92,19,6,1,2,0.4,0.4
2026-04-27T0000,2517A,108.0496,24.6957,河池市,市环保站,细颗粒物(PM2.5),56,46,44,38,27,87,87,116,92,6,11,5,8,0.9,0.8
2026-04-27T0000,4302A,108.0901,24.6945,河池市,上任中路54号,颗粒物(PM10),53,54,49,34,27,40,40,115,74,37,25,8,10,1.0,0.9
2026-04-27T0000,1697A,114.6962,23.7538,河源市,东埔,,45,45,35,21,22,25,25,112,77,44,19,6,6,0.6,0.5
2026-04-27T0000,1698A,114.6895,23.7232,河源市,老城,颗粒物(PM10),57,59,36,25,22,51,51,108,78,29,16,7,6,0.5,0.5
2026-04-27T0000,3374A,115.5562,35.089,菏泽市,定陶老年大学,细颗粒物(PM2.5),98,78,55,59,23,82,82,130,112,17,13,7,6,0.5,0.4
2026-04-27T0000,4114A,115.4239,35.2593,菏泽市,黄河路600号,细颗粒物(PM2.5),121,99,70,83,30,80,80,129,105,14,11,5,4,0.5,0.4
2026-04-27T0000,4115A,115.5025,35.2727,菏泽市,菏泽市人社局,细颗粒物(PM2.5),117,92,56,78,28,85,85,130,110,14,10,9,7,0.5,0.3
2026-04-27T0000,4184A,115.479691,35.244011,菏泽市,永昌路1号,细颗粒物(PM2.5),120,106,58,81,28,94,94,140,116,12,10,9,6,0.3,0.2
2026-04-27T0000,4193A,115.471542,35.280012,菏泽市,长城路999号,细颗粒物(PM2.5),118,91,56,79,30,84,84,135,113,14,10,11,10,0.5,0.4
2026-04-27T0000,2514A,111.5264,24.4178,贺州市,环保小区,"颗粒物(PM10),细颗粒物(PM2.5)",74,83,50,47,29,92,92,145,119,20,17,10,7,0.6,0.5
2026-04-27T0000,2515A,111.561,24.4074,贺州市,政协大楼,细颗粒物(PM2.5),113,NA,45,74,35,107,107,157,128,23,24,27,13,0.5,0.4
2026-04-27T0000,3534A,111.4744,24.455,贺州市,西湾,颗粒物(PM10),67,73,55,33,31,105,105,143,114,15,22,11,10,0.6,0.6
2026-04-27T0000,2385A,114.17,35.9019,鹤壁市,市监测站,细颗粒物(PM2.5),86,70,70,53,49,86,86,145,NA,12,13,8,8,0.8,0.8
2026-04-27T0000,2386A,114.2953,35.7512,鹤壁市,市交警支队,颗粒物(PM10),79,90,80,35,41,86,86,138,111,10,11,6,8,0.6,0.7
2026-04-27T0000,2387A,114.2877,35.7302,鹤壁市,迎宾馆,细颗粒物(PM2.5),90,97,96,55,44,93,93,148,120,12,13,7,8,0.5,0.5
2026-04-27T0000,3474A,114.2616,35.6824,鹤壁市,大新区,细颗粒物(PM2.5),92,87,87,56,49,90,90,143,118,10,13,7,8,0.6,0.7
2026-04-27T0000,3596A,114.1573,35.9607,鹤壁市,南山宾馆,细颗粒物(PM2.5),84,85,84,52,48,79,79,141,111,18,14,9,9,0.9,0.7
2026-04-27T0000,2244A,130.2537,47.3416,鹤岗市,哈啤分公司,,22,16,25,3,11,70,70,89,79,6,10,10,11,0.2,0.3
2026-04-27T0000,2245A,130.2683,47.3087,鹤岗市,斯达机电,,26,26,30,14,13,76,76,90,82,6,9,10,11,0.4,0.4
2026-04-27T0000,2246A,130.3114,47.3388,鹤岗市,东山纸板厂,颗粒物(PM10),52,52,68,10,14,57,57,91,76,17,14,10,10,0.6,0.5
2026-04-27T0000,2263A,127.4832,50.2524,黑河市,交通局,,39,NA,15,27,20,58,58,74,64,7,11,5,6,0.2,0.3
2026-04-27T0000,2264A,127.5146,50.2339,黑河市,环保局,,21,13,12,9,9,67,67,73,69,6,8,6,6,0.2,0.3
2026-04-27T0000,1074A,115.6839,37.754,衡水市,电机北厂,颗粒物(PM10),78,89,76,47,40,73,73,116,89,24,17,4,4,0.4,0.4
2026-04-27T0000,1075A,115.6303,37.7318,衡水市,市监测站,颗粒物(PM10),79,90,77,48,35,59,59,114,89,29,16,8,8,0.5,0.5
2026-04-27T0000,3188A,115.6684,37.7216,衡水市,市城管局,细颗粒物(PM2.5),88,79,75,54,37,81,81,124,100,21,15,5,3,0.6,0.5
2026-04-27T0000,3459A,115.599,37.5491,衡水市,地表水厂,颗粒物(PM10),69,76,72,33,30,59,59,117,92,27,12,5,6,0.5,0.4
2026-04-27T0000,2457A,112.6209,26.9268,衡阳市,衡阳化工总厂,细颗粒物(PM2.5),110,108,63,70,32,20,20,126,92,52,20,7,8,0.7,0.6
2026-04-27T0000,2458A,112.621,26.8957,衡阳市,珠晖区环保局,颗粒物(PM10),78,88,60,46,30,36,36,120,73,39,26,11,10,0.9,0.8
2026-04-27T0000,2459A,112.628,26.8654,衡阳市,市委党校,颗粒物(PM10),102,124,61,59,38,42,42,123,86,25,17,11,11,1.0,0.8
2026-04-27T0000,2460A,112.6007,26.8977,衡阳市,市监测站,颗粒物(PM10),78,89,67,44,40,32,32,110,63,41,29,10,9,0.9,0.9
2026-04-27T0000,2461A,112.5658,26.9013,衡阳市,真空机电公司,细颗粒物(PM2.5),76,73,57,48,35,50,50,123,77,44,31,9,10,0.8,0.9
2026-04-27T0000,3399A,112.6703,26.8817,衡阳市,师范学院,颗粒物(PM10),65,71,56,40,33,68,68,125,81,15,15,11,10,0.6,0.6
2026-04-27T0000,3038A,103.3757,23.3679,红河哈尼族彝族自治州,州图书馆,,33,26,32,23,25,98,98,107,103,5,6,4,4,0.5,0.5
2026-04-27T0000,4154A,103.401,23.3561,红河哈尼族彝族自治州,蒙自市朝阳路,,31,23,21,16,24,98,98,106,103,2,3,4,4,0.4,0.4
2026-04-27T0000,1090A,111.6506,40.7517,呼和浩特市,呼市一监,细颗粒物(PM2.5),226,NA,57,176,29,96,96,126,114,4,8,5,7,0.3,0.3
2026-04-27T0000,1094A,111.7516,40.8369,呼和浩特市,如意水处理厂,颗粒物(PM10),500,991,159,164,36,90,90,125,113,3,8,6,7,0.2,0.2
2026-04-27T0000,1095A,111.727798,40.806187,呼和浩特市,二十九中,颗粒物(PM10),500,1235,179,157,37,82,82,117,103,2,5,8,8,0.4,0.4
2026-04-27T0000,1097A,111.717,40.7617,呼和浩特市,化肥厂生活区,颗粒物(PM10),500,905,154,212,49,94,94,124,113,4,8,6,7,0.2,0.2
2026-04-27T0000,3699A,111.6519,40.8389,呼和浩特市,海东办,细颗粒物(PM2.5),158,NA,69,120,41,84,84,118,106,29,10,3,4,0.2,0.2
2026-04-27T0000,4275A,111.591512,40.827312,呼和浩特市,成吉思汗西街8号,颗粒物(PM10),500,911,121,122,32,88,88,120,106,5,14,4,5,0.3,0.4
2026-04-27T0000,4276A,111.6597,40.8077,呼和浩特市,公园东路75号,细颗粒物(PM2.5),247,NA,74,197,47,82,82,115,103,7,9,4,5,0.2,0.3
2026-04-27T0000,4277A,111.5427,40.7846,呼和浩特市,金海路35号,颗粒物(PM10),500,1320,207,94,36,85,85,114,99,6,12,4,5,0.3,0.4
2026-04-27T0000,3061A,119.7511,49.1576,呼伦贝尔市,国华电力东,,40,40,26,14,11,34,34,82,68,30,9,5,4,0.3,0.3
2026-04-27T0000,4279A,119.7569,49.2222,呼伦贝尔市,伊敏大街东7号,,31,31,24,8,9,55,55,78,64,17,11,5,5,0.5,0.5
2026-04-27T0000,1250A,120.075,30.867,湖州市,城西水厂,颗粒物(PM10),59,62,53,37,31,134,134,182,156,24,28,8,8,0.5,0.4
2026-04-27T0000,2873A,120.083,30.8929,湖州市,仁皇山新区,颗粒物(PM10),60,64,51,39,32,113,113,173,146,35,32,7,6,0.6,0.5
2026-04-27T0000,2907A,120.1846,30.8592,湖州市,吴兴区站,颗粒物(PM10),63,68,69,34,29,115,115,182,165,28,28,8,8,0.4,0.4
2026-04-27T0000,3562A,120.4146,30.8538,湖州市,南浔区站,颗粒物(PM10),58,61,57,34,34,90,90,163,138,24,20,9,8,0.6,0.7
2026-04-27T0000,1607A,120.904878,40.721091,葫芦岛市,龙港区,,32,32,34,19,16,46,46,114,84,34,20,10,13,0.7,0.6
2026-04-27T0000,1608A,120.8382,40.7521,葫芦岛市,化工街,细颗粒物(PM2.5),96,107,40,58,24,7,7,106,71,80,24,146,21,0.7,0.4
2026-04-27T0000,1609A,120.8339,40.7078,葫芦岛市,新区,颗粒物(PM10),66,72,34,29,18,17,17,109,76,102,23,10,11,0.6,0.5
2026-04-27T0000,1610A,120.8697,40.7679,葫芦岛市,东城区,颗粒物(PM10),63,68,38,37,22,1,1,111,70,81,26,15,15,0.7,0.6
2026-04-27T0000,2483A,109.9297,27.5383,怀化市,河西地税局,,43,42,44,30,27,52,52,114,67,8,12,6,8,/,/
2026-04-27T0000,2484A,109.9783,27.5342,怀化市,市四医院,细颗粒物(PM2.5),68,48,64,44,51,44,44,114,75,10,17,5,8,0.4,0.4
2026-04-27T0000,2485A,109.9971,27.5579,怀化市,监测楼,NA,NA,NA,57,NA,32,NA,NA,108,79,NA,9,NA,6,NA,0.7
2026-04-27T0000,1210A,119.0566,33.5991,淮安市,钵池山,细颗粒物(PM2.5),78,63,54,49,33,124,124,166,151,29,20,11,11,0.7,0.6
2026-04-27T0000,1211A,119.0083,33.578,淮安市,北京南路,细颗粒物(PM2.5),64,61,50,42,29,121,121,158,143,27,20,11,11,0.4,0.4
2026-04-27T0000,1212A,118.9938,33.6083,淮安市,市监测站,细颗粒物(PM2.5),56,53,44,38,30,158,158,178,170,20,19,10,11,0.9,1
2026-04-27T0000,1213A,119.135,33.5038,淮安市,楚州区监测站,细颗粒物(PM2.5),72,66,58,46,34,82,82,174,127,49,30,8,8,0.6,0.6
2026-04-27T0000,3426A,118.8757,33.2897,淮安市,新华书店,颗粒物(PM10),62,66,54,37,25,124,124,149,134,20,19,12,9,0.8,0.6
2026-04-27T0000,4092A,119.119691,33.550006,淮安市,枚皋中路89号,细颗粒物(PM2.5),68,56,55,44,34,120,120,177,155,28,21,10,10,0.6,0.7
2026-04-27T0000,4206A,119.028838,33.631911,淮安市,承德北路606号,细颗粒物(PM2.5),72,68,58,46,26,132,132,158,145,22,18,10,11,0.6,0.6
2026-04-27T0000,2282A,116.8005,33.9749,淮北市,监测站,颗粒物(PM10),55,56,55,26,28,100,100,139,113,21,19,9,8,0.5,0.5
2026-04-27T0000,2283A,116.8094,33.9008,淮北市,烈山区政府,,49,49,63,21,27,93,93,132,114,18,18,8,9,0.4,0.4
2026-04-27T0000,4017A,116.7926,33.9534,淮北市,市博物馆,,49,49,55,20,29,94,94,135,114,18,17,8,8,0.5,0.5
2026-04-27T0000,4100A,116.8322,33.9884,淮北市,杜集区第一实验学校,颗粒物(PM10),55,57,63,16,23,98,98,137,114,13,14,8,9,0.6,0.5
2026-04-27T0000,2277A,116.8304,32.7726,淮南市,潘集区政府,,39,39,44,26,22,84,84,123,106,24,21,9,8,0.5,0.5
2026-04-27T0000,2279A,116.8569,32.5949,淮南市,谢家集区政府,,35,34,34,24,24,99,99,131,115,21,19,10,9,0.3,0.3
2026-04-27T0000,2280A,116.8279,32.6333,淮南市,八公山区政府,,48,48,45,24,21,102,102,128,118,14,12,8,7,0.3,0.3
2026-04-27T0000,2894A,117.0561,32.6536,淮南市,经济技术开发区消防队,,34,34,41,21,23,84,84,127,113,16,14,8,8,0.4,0.4
2026-04-27T0000,3329A,117.011,32.5891,淮南市,山南新区,,40,40,38,20,21,107,107,136,127,14,15,9,9,0.4,0.4
2026-04-27T0000,4209A,117.003137,32.644456,淮南市,国庆中路369号,,48,48,38,23,20,107,107,126,119,9,10,10,9,0.3,0.4
2026-04-27T0000,2446A,114.9021,30.474,黄冈市,职工中心,细颗粒物(PM2.5),56,42,38,38,27,102,102,145,124,13,14,8,12,0.8,0.7
2026-04-27T0000,2929A,114.8858,30.4519,黄冈市,红卫路,,46,39,36,32,27,120,120,153,136,11,11,7,8,0.2,0.2
2026-04-27T0000,3398A,114.9134,30.4446,黄冈市,市林业局,颗粒物(PM10),53,54,49,34,30,118,118,155,135,14,14,4,4,0.6,0.6
2026-04-27T0000,2672A,102.02,35.5101,黄南藏族自治州,同仁县隆务镇,颗粒物(PM10),54,55,45,15,16,121,121,147,142,3,2,11,11,0.2,0.2
2026-04-27T0000,2295A,118.2905,29.6965,黄山市,延安路89号,,39,39,29,24,16,32,32,107,76,20,9,5,5,0.3,0.3
2026-04-27T0000,2297A,118.1369,30.2755,黄山市,黄山区政府5号楼,细颗粒物(PM2.5),62,53,35,41,21,27,27,100,59,9,7,2,2,0.4,0.3
2026-04-27T0000,4210A,118.335445,29.720283,黄山市,滨江东路7-2号,,40,40,40,26,16,38,38,111,69,10,9,/,/,/,/
2026-04-27T0000,2423A,115.0547,30.2332,黄石市,沈家营,颗粒物(PM10),65,71,55,38,28,65,65,140,108,31,26,5,6,1.3,0.7
2026-04-27T0000,2426A,114.899,30.211,黄石市,铁山,颗粒物(PM10),63,68,51,41,26,80,80,150,120,26,14,12,12,0.2,0.2
2026-04-27T0000,2427A,115.0259,30.2108,黄石市,团城山,细颗粒物(PM2.5),60,61,50,40,24,59,59,126,103,25,21,12,9,1.3,0.9
2026-04-27T0000,3149A,115.0174,30.1591,黄石市,笔架山北路,颗粒物(PM10),70,77,65,33,28,98,98,143,124,15,15,16,15,1.1,1
2026-04-27T0000,4185A,115.078022,30.21118,黄石市,磁湖东路29号,颗粒物(PM10),72,80,57,38,29,88,88,141,117,37,26,8,5,1.0,0.7
2026-04-27T0000,1392A,114.4181,23.0528,惠州市,河南岸金山湖子站,,47,47,35,21,22,70,70,128,113,27,16,8,7,0.7,0.6
2026-04-27T0000,1393A,114.4055,23.0824,惠州市,下埔横江三路子站,颗粒物(PM10),56,58,39,30,22,81,81,134,119,23,13,5,5,0.9,0.8
2026-04-27T0000,1395A,114.4645,22.7832,惠州市,惠阳区承修路船湖子站,,42,42,47,24,27,113,113,135,119,8,15,6,7,0.5,0.6
2026-04-27T0000,1396A,114.5316,22.7423,惠州市,大亚湾管委会子站,,38,38,37,19,22,111,111,135,125,12,15,5,6,0.4,0.6
2026-04-27T0000,3314A,114.4334,22.8134,惠州市,惠阳秋长,,38,31,35,19,21,120,120,143,121,8,14,/,/,/,/
2026-04-27T0000,3452A,114.6521,22.7755,惠州市,大亚湾霞涌,,29,28,26,20,22,87,87,139,122,15,11,/,/,/,/
2026-04-27T0000,4300A,114.4089,23.1147,惠州市,文华一路1号,,44,44,35,24,22,83,83,132,114,22,14,/,/,/,/
2026-04-27T0000,2240A,130.9618,45.2926,鸡西市,环保局,颗粒物(PM10),61,65,22,35,14,24,24,95,63,34,12,8,7,0.5,0.3
2026-04-27T0000,2243A,130.9294,45.2959,鸡西市,第一中学,颗粒物(PM10),58,60,21,22,14,48,48,91,72,25,9,6,6,0.4,0.2
2026-04-27T0000,3707A,131.0069,45.2988,鸡西市,欧美日汽修厂,颗粒物(PM10),72,80,32,29,16,20,20,87,50,35,18,14,8,0.6,0.4
2026-04-27T0000,2367A,114.9753,27.0803,吉安市,红声器材厂,颗粒物(PM10),72,80,55,45,28,51,51,133,95,21,15,9,9,0.3,0.3
2026-04-27T0000,2369A,114.9903,27.1313,吉安市,市环境监测站,细颗粒物(PM2.5),80,83,50,50,29,20,20,140,77,46,21,14,14,/,/
2026-04-27T0000,2370A,115.009527,27.096792,吉安市,青原区法院,细颗粒物(PM2.5),90,89,54,55,32,28,28,125,65,34,24,7,8,0.5,0.4
2026-04-27T0000,1772A,126.54,43.8622,吉林市,哈达湾,,28,28,32,13,18,70,70,108,94,13,9,24,9,0.3,0.3
2026-04-27T0000,1773A,126.5843,43.8358,吉林市,东局子,,20,20,24,11,16,53,53,106,79,20,13,3,4,0.8,0.8
2026-04-27T0000,1774A,126.5051,43.8243,吉林市,电力学院,,29,29,30,18,21,58,58,117,94,13,9,11,8,0.6,0.6
2026-04-27T0000,1775A,126.6133,43.8971,吉林市,江北,,23,23,27,9,15,56,56,106,82,10,9,9,10,0.6,0.7
2026-04-27T0000,1776A,126.5549,43.8304,吉林市,江南公园,,29,29,27,15,17,51,51,102,86,27,12,15,9,0.6,0.6
2026-04-27T0000,2868A,126.4737,43.953,吉林市,九站,,40,38,34,28,21,36,36,106,76,46,20,15,19,0.4,0.3
2026-04-27T0000,1299A,116.9866,36.6118,济南市,科干所,颗粒物(PM10),75,85,59,47,29,74,74,147,111,26,15,8,7,0.9,0.7
2026-04-27T0000,1300A,116.9379,36.6652,济南市,农科所,细颗粒物(PM2.5),102,110,66,62,34,64,64,138,99,32,16,7,7,0.5,0.3
2026-04-27T0000,1301A,117.1265,36.6736,济南市,开发区,颗粒物(PM10),105,132,60,63,32,66,66,144,108,30,12,8,6,0.7,0.5
2026-04-27T0000,1303A,117.0616,36.6865,济南市,省种子仓库,颗粒物(PM10),109,141,84,67,33,65,65,145,104,28,13,9,6,0.8,0.6
2026-04-27T0000,1304A,116.9495185,36.644937,济南市,机床二厂,细颗粒物(PM2.5),106,129,72,66,39,63,63,140,98,34,16,8,7,0.6,0.5
2026-04-27T0000,1305A,117.0496,36.6629,济南市,市监测站,细颗粒物(PM2.5),103,122,65,63,33,64,64,142,104,34,16,7,5,0.9,0.7
2026-04-27T0000,1306A,116.7674,36.5458,济南市,长清党校,细颗粒物(PM2.5),100,103,68,60,35,62,62,138,100,27,14,6,7,0.8,0.7
2026-04-27T0000,1961A,117.5323,36.6865,济南市,东山小学,颗粒物(PM10),101,122,71,50,29,96,96,147,108,27,16,6,6,0.6,0.4
2026-04-27T0000,3059A,117.7181,36.205,济南市,泰兴公司,细颗粒物(PM2.5),100,95,62,60,30,75,75,142,106,26,26,12,14,0.7,0.6
2026-04-27T0000,3064A,117.6861,36.2172,济南市,莱芜战役纪念馆,细颗粒物(PM2.5),86,95,62,53,27,87,87,152,125,25,20,9,10,0.4,0.4
2026-04-27T0000,3494A,117.1673,36.9782,济南市,济阳区政府,细颗粒物(PM2.5),103,98,70,63,37,89,89,132,104,19,19,8,8,0.7,0.6
2026-04-27T0000,3495A,117.1168,36.6299,济南市,锦屏中学,细颗粒物(PM2.5),103,90,57,63,32,64,64,114,88,24,9,8,7,0.6,0.4
2026-04-27T0000,4108A,117.7107,36.2385,济南市,山财大街5号,细颗粒物(PM2.5),96,97,59,58,28,81,81,148,114,30,24,9,11,0.9,0.8
2026-04-27T0000,4109A,116.9744,36.6889,济南市,无影山路12号,细颗粒物(PM2.5),101,90,59,61,34,63,63,133,94,32,16,7,6,0.7,0.6
2026-04-27T0000,1653A,116.6229,35.4288,济宁市,火炬城,颗粒物(PM10),55,56,53,22,24,77,77,136,111,15,11,4,5,0.6,0.6
2026-04-27T0000,3500A,116.5808,35.3703,济宁市,北湖一中,颗粒物(PM10),53,54,51,20,23,100,100,148,126,16,14,10,9,0.4,0.4
2026-04-27T0000,3501A,116.8251,35.5592,济宁市,服务中心,颗粒物(PM10),63,67,56,30,36,83,83,138,114,24,15,4,4,0.6,0.6
2026-04-27T0000,3678A,116.5907,35.4054,济宁市,市第七中学,颗粒物(PM10),59,62,57,30,26,80,80,150,121,27,15,7,7,0.4,0.4
2026-04-27T0000,4111A,116.6075,35.4566,济宁市,任和路,颗粒物(PM10),60,64,62,22,24,91,91,151,130,13,11,6,8,0.6,0.5
2026-04-27T0000,4112A,116.5648,35.3921,济宁市,文体南路1号,颗粒物(PM10),57,59,57,21,20,82,82,139,115,15,9,5,6,0.7,0.7
2026-04-27T0000,4122A,112.6071,35.1015,济源市,市委党校,颗粒物(PM10),82,94,98,38,38,113,113,141,131,11,17,10,15,0.5,0.8
2026-04-27T0000,4123A,112.596,35.0702,济源市,沁园中路1号,颗粒物(PM10),72,80,76,36,36,109,109,140,131,14,22,6,8,0.7,1
2026-04-27T0000,2255A,130.2749,46.8028,佳木斯市,佳纺,,22,14,32,3,15,68,68,93,74,7,13,3,4,0.3,0.3
2026-04-27T0000,2257A,130.3258,46.7975,佳木斯市,环保局,,23,19,26,8,15,72,72,97,77,11,13,2,2,0.2,0.2
2026-04-27T0000,4285A,130.363,46.806,佳木斯市,顺和街,,25,16,28,14,17,80,80,92,78,5,18,2,2,0.2,0.3
2026-04-27T0000,4286A,130.3952,46.8268,佳木斯市,长安路196号,,25,14,24,10,15,78,78,95,81,5,13,2,2,0.3,0.3
2026-04-27T0000,1252A,120.7439,30.778,嘉兴市,清河小学,颗粒物(PM10),54,55,52,20,25,78,78,184,138,33,23,9,9,0.5,0.4
2026-04-27T0000,1253A,120.7261,30.7477,嘉兴市,嘉兴学院,颗粒物(PM10),55,56,59,30,28,83,83,192,150,32,24,8,8,0.6,0.5
2026-04-27T0000,2872A,120.7845,30.7524,嘉兴市,南湖区残联,,49,46,46,34,30,91,91,211,158,33,26,8,7,0.6,0.6
2026-04-27T0000,3407A,120.6915,30.7741,嘉兴市,秀洲住建,颗粒物(PM10),58,60,52,24,27,91,91,202,158,32,26,10,9,0.4,0.4
2026-04-27T0000,1945A,98.291,39.7705,嘉峪关市,气象局,,39,39,39,13,16,93,93,118,107,10,8,8,10,0.6,0.7
2026-04-27T0000,2884A,98.2672,39.7978,嘉峪关市,酒钢宾馆,颗粒物(PM10),53,53,43,16,15,79,79,119,108,21,10,13,17,0.6,0.8
2026-04-27T0000,3248A,98.2644,39.7723,嘉峪关市,雄关区,颗粒物(PM10),58,60,50,13,12,81,81,117,104,22,11,7,8,0.3,0.4
2026-04-27T0000,1383A,113.1063,22.6058,江门市,北街,,35,35,42,24,29,109,109,188,135,12,21,/,/,/,/
2026-04-27T0000,1384A,113.073,22.5835,江门市,西区,,38,27,43,26,29,113,113,177,143,16,27,/,/,/,/
2026-04-27T0000,1385A,113.0218,22.531,江门市,圭峰西,,43,NA,39,30,29,110,110,171,135,16,18,/,/,/,/
2026-04-27T0000,1386A,113.0826,22.5947,江门市,东湖,,42,40,45,29,23,114,114,182,140,12,20,9,8,0.6,0.6
2026-04-27T0000,3311A,113.1077,22.5647,江门市,江海富民,颗粒物(PM10),53,54,57,31,31,123,123,187,145,16,22,/,/,0.4,0.5
2026-04-27T0000,3449A,113.0496,22.4669,江门市,新会银湖,NA,NA,35,40,32,27,93,93,174,135,26,28,8,8,NA,0.4
2026-04-27T0000,3335A,113.3137,35.2643,焦作市,马村街道办,颗粒物(PM10),75,84,76,36,36,81,81,142,118,10,9,8,11,0.6,0.5
2026-04-27T0000,3336A,113.2464,35.2374,焦作市,焦作技师学院,细颗粒物(PM2.5),64,68,72,42,36,94,94,140,124,12,13,9,13,1.0,0.8
2026-04-27T0000,3477A,113.1656,35.2536,焦作市,中站许衡医院,颗粒物(PM10),68,74,63,32,31,91,91,143,129,17,14,10,15,1.1,0.8
2026-04-27T0000,3981A,113.2456,35.18,焦作市,原李万街道办,颗粒物(PM10),66,72,69,31,35,96,96,140,126,9,12,8,9,0.5,0.5
2026-04-27T0000,4264A,113.234,35.219,焦作市,新安路1731号,"颗粒物(PM10),细颗粒物(PM2.5)",64,69,72,42,35,103,103,152,137,8,10,10,15,0.6,0.5
2026-04-27T0000,4295A,113.2722,35.2121,焦作市,人民路3066号,颗粒物(PM10),68,74,76,36,36,94,94,142,127,14,14,5,8,0.5,0.6
2026-04-27T0000,1708A,116.3701,23.5345,揭阳市,新兴,,49,41,48,34,28,101,101,130,110,19,24,12,16,0.9,0.9
2026-04-27T0000,1709A,116.3261,23.5442,揭阳市,西马,,50,50,50,35,26,101,101,138,118,16,21,10,8,1.1,1
2026-04-27T0000,1710A,116.361,23.5627,揭阳市,东兴,细颗粒物(PM2.5),56,NA,46,38,33,105,105,138,115,14,18,5,7,/,/
2026-04-27T0000,1711A,116.4151,23.5295,揭阳市,渔湖,,49,36,52,34,28,104,104,138,121,19,25,4,7,/,/
2026-04-27T0000,3320A,116.4028,23.5699,揭阳市,曲溪,,48,44,42,33,24,103,103,143,122,15,21,11,14,0.9,0.8
2026-04-27T0000,1944A,102.1691,38.5166,金昌市,天庆家园,,39,39,56,13,15,105,105,115,108,5,8,4,6,0.3,0.4
2026-04-27T0000,4022A,102.1648,38.5369,金昌市,金川区人防中心,颗粒物(PM10),62,66,51,23,18,102,102,115,107,7,8,6,6,0.4,0.4
2026-04-27T0000,4239A,102.193042,38.531887,金昌市,长春路96号,NA,NA,43,50,8,19,93,93,111,102,NA,6,7,6,0.3,0.4
2026-04-27T0000,1262A,119.6478,29.0773,金华市,十五中,颗粒物(PM10),68,75,55,36,29,66,66,148,105,31,23,3,4,0.7,0.7
2026-04-27T0000,1263A,119.6859,29.1032,金华市,监测站,颗粒物(PM10),69,76,48,34,26,29,29,158,107,61,28,4,4,0.7,0.7
2026-04-27T0000,3659A,119.656,29.1132,金华市,气象局,颗粒物(PM10),61,65,55,34,29,56,56,140,83,33,35,4,5,0.5,0.5
2026-04-27T0000,1767A,121.1114,41.0879,锦州市,南山,细颗粒物(PM2.5),58,48,34,39,18,9,9,116,80,81,20,9,11,0.7,0.5
2026-04-27T0000,1768A,121.060361,40.842794,锦州市,开发区,颗粒物(PM10),71,79,41,35,18,2,2,120,85,98,21,12,8,0.6,0.5
2026-04-27T0000,1769A,121.1836,41.1118,锦州市,百股街道,,39,35,34,27,20,47,47,113,75,29,18,12,22,0.5,0.5
2026-04-27T0000,1770A,121.1176,41.1224,锦州市,天安街道,细颗粒物(PM2.5),82,63,34,51,18,52,52,106,85,38,15,15,12,1.0,0.4
2026-04-27T0000,1771A,121.1303,41.1385,锦州市,北湖公园,细颗粒物(PM2.5),52,40,29,36,18,49,49,108,84,37,13,13,12,0.6,0.4
2026-04-27T0000,2160A,112.8496,35.5051,晋城市,自来水公司,颗粒物(PM10),65,70,72,27,28,97,97,157,142,23,23,4,6,0.4,0.6
2026-04-27T0000,2162A,112.8509,35.4886,晋城市,市环保局,颗粒物(PM10),67,73,79,34,36,96,96,146,132,12,16,4,6,0.5,0.6
2026-04-27T0000,3620A,112.8258,35.4804,晋城市,泽州一中,颗粒物(PM10),66,72,66,36,35,105,105,150,137,20,15,4,5,0.8,0.8
2026-04-27T0000,4078A,112.8246,35.5152,晋城市,前书院路,颗粒物(PM10),70,78,73,41,29,83,83,153,129,22,24,7,9,0.5,0.7
2026-04-27T0000,4079A,112.8864,35.4773,晋城市,祥云街666号,"颗粒物(PM10),细颗粒物(PM2.5)",60,64,68,40,35,88,88,145,132,20,16,7,8,0.6,0.7
2026-04-27T0000,2174A,112.6992,37.6984,晋中市,榆次区政府,颗粒物(PM10),62,66,94,26,37,77,77,125,109,33,32,6,9,0.8,1
2026-04-27T0000,2865A,112.7195,37.683,晋中市,榆次三中,颗粒物(PM10),60,63,94,23,30,78,78,137,117,28,23,6,9,0.4,0.6
2026-04-27T0000,4080A,112.7375,37.7215,晋中市,广安街188号,颗粒物(PM10),62,66,96,32,29,79,79,129,112,27,25,4,8,0.3,0.4
2026-04-27T0000,4200A,112.7478,37.6954,晋中市,迎宾街26号,颗粒物(PM10),70,78,92,28,33,77,77,138,118,34,24,5,8,0.3,0.5
2026-04-27T0000,2439A,112.2012,31.048,荆门市,竹园小学,细颗粒物(PM2.5),66,67,72,43,43,98,98,137,112,14,11,1,5,0.5,0.5
2026-04-27T0000,2440A,112.1968,30.9892,荆门市,掇刀,细颗粒物(PM2.5),70,63,74,45,45,100,100,137,113,14,12,11,11,0.5,0.6
2026-04-27T0000,3012A,112.1849,31.0361,荆门市,西山林语,细颗粒物(PM2.5),58,55,69,39,40,86,86,132,102,12,10,7,7,0.6,0.6
2026-04-27T0000,3547A,112.1631,31.0134,荆门市,龙泉中学南校,颗粒物(PM10),53,54,48,35,37,95,95,137,118,14,12,7,6,0.6,0.6
2026-04-27T0000,4124A,112.2213,31.0654,荆门市,新台西路6号,细颗粒物(PM2.5),82,79,68,51,45,54,54,139,98,28,17,12,10,0.8,0.8
2026-04-27T0000,1844A,112.2493,30.3198,荆州市,市图书馆,细颗粒物(PM2.5),66,62,52,43,37,92,92,126,110,12,22,10,9,0.6,0.6
2026-04-27T0000,1845A,112.2009,30.3543,荆州市,市委党校,细颗粒物(PM2.5),62,58,57,41,40,70,70,102,88,22,20,9,9,0.6,0.6
2026-04-27T0000,3194A,112.2749,30.3124,荆州市,管委会,"颗粒物(PM10),细颗粒物(PM2.5)",60,63,54,40,41,87,87,116,102,15,20,14,11,0.6,0.6
2026-04-27T0000,4268A,112.1722,30.3366,荆州市,学苑路85号,细颗粒物(PM2.5),64,54,56,42,42,88,88,129,102,15,17,6,7,0.7,0.8
2026-04-27T0000,2343A,117.2114,29.2931,景德镇市,老干部活动中心,细颗粒物(PM2.5),64,46,36,42,32,30,30,118,78,25,13,3,5,0.7,0.6
2026-04-27T0000,2344A,117.1893,29.2789,景德镇市,兽医站,颗粒物(PM10),58,61,44,25,27,39,39,131,90,23,15,5,4,0.6,0.6
2026-04-27T0000,2346A,117.246,29.2958,景德镇市,陶研所,颗粒物(PM10),51,51,34,26,25,30,30,124,80,21,14,4,6,0.8,0.8
2026-04-27T0000,4289A,117.154766,29.256967,景德镇市,青少年活动中心,颗粒物(PM10),75,85,51,41,32,32,32,118,65,33,24,14,16,/,/
2026-04-27T0000,1803A,115.9873,29.6816,九江市,十里,细颗粒物(PM2.5),74,74,47,47,27,16,16,143,92,71,32,7,7,1.2,0.9
2026-04-27T0000,1804A,115.9583,29.7047,九江市,茅山头,细颗粒物(PM2.5),84,65,36,52,27,24,24,141,96,55,30,3,4,0.8,0.6
2026-04-27T0000,1805A,115.9877,29.7295,九江市,西园,细颗粒物(PM2.5),64,52,39,42,27,22,22,142,105,104,45,7,6,0.8,0.7
2026-04-27T0000,1808A,115.9112,29.6038,九江市,综合工业园,,48,48,42,22,21,84,84,135,104,37,33,9,9,0.5,0.6
2026-04-27T0000,3190A,116.0254,29.6995,九江市,外国语学校,细颗粒物(PM2.5),68,60,32,44,23,13,13,142,119,96,31,11,12,1.1,0.8
2026-04-27T0000,4253A,116.010205,29.659402,九江市,莲花大道8号,,43,43,35,23,20,73,73,134,115,16,10,5,6,0.5,0.6
2026-04-27T0000,4240A,98.495752,39.733935,酒泉市,玉门东路5号,,44,44,42,27,21,63,63,96,NA,20,12,6,6,0.2,0.2
2026-04-27T0000,4241A,98.5099,39.7506,酒泉市,北大街108号,颗粒物(PM10),51,51,41,24,19,54,54,96,84,22,10,7,7,0.4,0.2
2026-04-27T0000,2698A,76.0071,39.466,喀什地区,巡警大队,细颗粒物(PM2.5),220,304,126,170,49,3,3,122,92,90,15,6,4,1.3,0.2
2026-04-27T0000,2699A,75.9756,39.4693,喀什地区,吾办,细颗粒物(PM2.5),234,319,125,184,44,22,22,117,89,59,11,5,4,0.9,0.2
2026-04-27T0000,4027A,75.9485,39.4688,喀什地区,老干局,颗粒物(PM10),153,255,112,90,29,36,36,117,94,53,9,4,3,0.8,0.3
2026-04-27T0000,1824A,114.3389,34.778,开封市,肿瘤医院,细颗粒物(PM2.5),88,80,59,54,37,110,110,147,127,10,13,8,7,0.9,0.8
2026-04-27T0000,1826A,114.2884,34.7966,开封市,世纪星幼儿园,细颗粒物(PM2.5),96,74,63,58,37,108,108,146,125,10,12,8,8,0.8,0.8
2026-04-27T0000,3147A,114.3434,34.8101,开封市,龙亭公园,细颗粒物(PM2.5),96,82,60,58,34,102,102,149,124,16,17,8,8,0.7,0.6
2026-04-27T0000,3210A,114.3645,34.7955,开封市,汴京公园,颗粒物(PM10),82,94,62,50,35,101,101,146,122,12,13,4,5,0.8,0.6
2026-04-27T0000,3473A,114.2485,34.8306,开封市,技师学院,颗粒物(PM10),86,100,76,51,39,100,100,153,117,15,15,4,5,1.0,0.7
2026-04-27T0000,3592A,114.4518,34.7503,开封市,祥符区生态环境局,细颗粒物(PM2.5),100,96,61,60,36,92,92,139,NA,19,18,15,8,1.2,0.7
2026-04-27T0000,1951A,84.886,45.6029,克拉玛依市,长征新村,细颗粒物(PM2.5),70,NA,15,45,13,54,54,116,103,35,11,7,6,0.7,0.4
2026-04-27T0000,1952A,84.8894,45.5827,克拉玛依市,南林小区,,22,22,18,3,1,62,62,105,98,20,10,2,2,0.2,0.1
2026-04-27T0000,1954A,84.896,44.3328,克拉玛依市,独山子区,,30,29,26,7,5,93,93,128,123,11,8,6,6,0.4,0.5
2026-04-27T0000,1955A,85.6888,46.0909,克拉玛依市,乌尔禾区商贸楼,,44,44,25,8,8,78,78,112,101,16,10,3,3,0.1,0
2026-04-27T0000,3612A,85.1045,45.6895,克拉玛依市,白碱滩区新站,,40,40,48,13,14,74,74,126,112,25,11,7,7,0.2,0.2
2026-04-27T0000,2697A,76.1457,39.7143,克孜勒苏柯尔克孜自治州,市人民政府,颗粒物(PM10),116,161,76,47,23,64,64,125,104,35,8,5,7,0.2,0.1
2026-04-27T0000,3665A,76.1654,39.7157,克孜勒苏柯尔克孜自治州,克州文化中心,颗粒物(PM10),117,163,79,54,26,77,77,123,110,34,6,3,3,0.2,0.2
2026-04-27T0000,1450A,102.8203,24.889,昆明市,呈贡新区,,43,32,30,30,25,86,86,144,113,19,11,6,4,0.6,0.4
2026-04-27T0000,1452A,102.7253,25.0904,昆明市,龙泉镇,,26,26,37,14,28,23,23,128,85,36,13,4,5,0.7,0.7
2026-04-27T0000,1453A,102.7267,25.0378,昆明市,东风东路,细颗粒物(PM2.5),52,NA,35,36,26,61,61,134,102,44,17,2,2,0.7,0.6
2026-04-27T0000,1454A,102.6744,25.0671,昆明市,金鼎山,,27,24,42,18,27,86,86,132,104,17,12,3,2,0.8,0.8
2026-04-27T0000,1455A,102.6643,25.0401,昆明市,碧鸡广场,,38,38,35,17,27,71,71,127,93,31,16,5,6,0.7,0.6
2026-04-27T0000,3179A,102.7491,25.012,昆明市,官渡区博物馆,,47,29,36,17,25,7,7,132,75,93,21,3,4,1.0,0.8
2026-04-27T0000,3375A,102.8016,24.8336,昆明市,青年创业园,颗粒物(PM10),54,55,34,16,23,45,45,138,106,45,9,5,4,1.0,0.6
2026-04-27T0000,3550A,102.8,24.9787,昆明市,昆明学院,,35,35,36,15,23,72,72,134,101,30,15,4,4,0.6,0.5
2026-04-27T0000,3551A,102.5969,24.6738,昆明市,晋宁区生态环境分局,,42,42,37,26,28,126,126,136,130,5,6,3,3,0.6,0.5
2026-04-27T0000,3552A,102.6673,24.9861,昆明市,云天化总部,,39,39,46,16,24,51,51,129,96,43,12,3,4,0.8,0.7
2026-04-27T0000,1456A,91.132,29.6515,拉萨市,八廓街,,33,29,33,16,12,104,104,119,111,5,6,5,5,0.5,0.5
2026-04-27T0000,1457A,91.1221,29.6748,拉萨市,市环保局,,35,35,33,11,12,99,99,115,106,10,10,5,5,0.3,0.3
2026-04-27T0000,1458A,91.0874,29.6476,拉萨市,区监测站,,31,18,28,11,10,99,99,114,108,12,12,5,5,0.3,0.3
2026-04-27T0000,1459A,91.1774,29.6541,拉萨市,西藏大学,,38,38,30,11,11,99,99,114,106,9,11,4,6,0.3,0.3
2026-04-27T0000,1460A,90.9798,29.6586,拉萨市,区辐射站,,32,23,34,10,14,100,100,101,98,10,16,5,6,0.3,0.3
2026-04-27T0000,1461A,91.0831,29.6292,拉萨市,拉萨火车站,,33,NA,32,18,16,104,104,115,110,11,9,4,4,0.3,0.3
2026-04-27T0000,2520A,109.2203,23.7252,来宾市,来宾技工学校,,50,47,64,35,42,74,74,128,103,12,21,29,17,0.9,0.8
2026-04-27T0000,3535A,109.1781,23.7293,来宾市,兴宾区政府,细颗粒物(PM2.5),80,78,67,50,39,64,64,140,107,26,18,7,9,0.7,0.6
2026-04-27T0000,4002A,109.2312,23.7428,来宾市,中南小学,,49,37,62,34,45,84,84,140,111,12,30,8,10,0.6,0.6
2026-04-27T0000,1479A,103.8309,36.0467,兰州市,铁路设计院,颗粒物(PM10),69,76,72,22,24,105,105,138,113,11,35,9,10,0.3,0.5
2026-04-27T0000,3241A,103.7439,36.0841,兰州市,百合公园,颗粒物(PM10),53,54,73,28,28,102,102,157,112,9,38,4,10,0.1,0.5
2026-04-27T0000,3242A,103.9613,35.9985,兰州市,和平,颗粒物(PM10),68,74,64,26,23,110,110,138,122,6,9,12,11,0.2,0.3
2026-04-27T0000,4236A,103.629272,36.093822,兰州市,庄浪东路808号,细颗粒物(PM2.5),92,65,71,56,25,99,99,159,113,12,16,12,16,0.3,0.4
2026-04-27T0000,4237A,103.7251,36.104344,兰州市,安宁西路88号,颗粒物(PM10),58,61,91,18,28,108,108,166,122,10,27,8,16,0.2,0.3
2026-04-27T0000,4238A,103.846982,36.067567,兰州市,北滨河东路1号,颗粒物(PM10),61,65,79,21,24,108,108,137,117,9,37,15,14,0.4,0.5
2026-04-27T0000,1067A,116.6712,39.5109,廊坊市,药材公司,颗粒物(PM10),57,59,71,17,30,43,43,100,74,26,14,2,2,0.5,0.5
2026-04-27T0000,1068A,116.7215,39.5592,廊坊市,开发区,,42,42,70,26,31,33,33,102,69,31,13,3,4,0.4,0.4
2026-04-27T0000,1070A,116.7246,39.5273,廊坊市,北华航天学院,颗粒物(PM10),52,52,66,14,27,45,45,100,74,26,15,5,4,0.4,0.4
2026-04-27T0000,2919A,116.7022,39.5454,廊坊市,河北工业大学,,43,43,67,16,26,56,56,103,80,25,16,4,3,0.5,0.4
2026-04-27T0000,2536A,103.7629,29.5844,乐山市,牛耳桥,细颗粒物(PM2.5),145,144,112,109,89,67,67,151,111,23,31,9,8,1.0,0.9
2026-04-27T0000,2537A,103.7501,29.6002,乐山市,市第三水厂,细颗粒物(PM2.5),94,87,102,57,76,72,72,144,107,21,29,7,8,0.8,0.9
2026-04-27T0000,2538A,103.7571,29.5664,乐山市,市监测站,细颗粒物(PM2.5),139,137,110,102,77,66,66,140,109,17,25,9,8,1.1,1.1
2026-04-27T0000,3361A,103.7313,29.563,乐山市,理工大学,细颗粒物(PM2.5),111,100,96,72,76,67,67,155,122,20,27,8,9,0.8,1.1
2026-04-27T0000,2599A,100.2497,26.8802,丽江市,丽江古城,,40,27,31,16,16,128,128,125,125,6,9,5,5,0.7,0.7
2026-04-27T0000,2600A,100.2203,26.8906,丽江市,市中心,,41,18,20,10,14,129,129,128,128,7,9,7,6,0.6,0.6
2026-04-27T0000,1267A,119.9141,28.4513,丽水市,监测站大楼,,43,43,38,22,20,87,87,132,111,16,15,4,5,0.4,0.4
2026-04-27T0000,1268A,119.93,28.4589,丽水市,莲都小学,,46,46,39,21,19,82,82,136,118,22,16,/,/,/,/
2026-04-27T0000,1269A,119.8794,28.4232,丽水市,余庄前,,41,41,35,22,20,31,31,117,72,20,12,4,4,0.4,0.3
2026-04-27T0000,1173A,119.1759,34.5885,连云港市,市环境监测站,颗粒物(PM10),53,53,46,34,28,112,112,161,132,20,17,13,11,0.6,0.6
2026-04-27T0000,3000A,119.3577,34.6971,连云港市,德源药业,颗粒物(PM10),51,51,53,27,26,108,108,165,148,26,19,7,8,0.8,0.7
2026-04-27T0000,3007A,119.178,34.8442,连云港市,新城一中,颗粒物(PM10),54,55,52,28,29,128,128,165,135,16,18,8,7,0.8,0.8
2026-04-27T0000,3008A,119.3607,34.7519,连云港市,胡沟管理处,,50,19,22,14,17,160,160,169,161,16,17,11,10,0.5,0.5
2026-04-27T0000,3009A,119.1478,34.5913,连云港市,矿山设计院,,48,48,48,27,24,110,110,159,132,22,16,12,8,0.8,0.7
2026-04-27T0000,3434A,119.2414,34.6539,连云港市,工贸学校,,50,44,47,25,26,160,160,166,160,11,12,8,8,0.6,0.5
2026-04-27T0000,3664A,119.4171,34.734,连云港市,连云街道,臭氧1小时(O3_1h),53,41,49,22,25,162,162,167,163,10,18,9,10,0.6,0.5
2026-04-27T0000,2573A,102.2629,27.8981,凉山彝族自治州,西昌市政府,,42,36,33,29,30,96,96,140,126,10,11,7,8,0.7,0.6
2026-04-27T0000,2574A,102.2686,27.885,凉山彝族自治州,凉山州政府,,48,41,38,33,29,73,73,124,108,18,12,8,7,0.8,0.6
2026-04-27T0000,4229A,102.2342,27.8859,凉山彝族自治州,凯乐南路30号,,34,34,37,22,28,79,79,120,104,18,16,6,6,0.7,0.7
2026-04-27T0000,2212A,123.1978,41.2036,辽阳市,宏伟区,,31,31,35,17,22,58,58,109,92,16,12,5,6,0.5,0.5
2026-04-27T0000,2213A,123.1684,41.2497,辽阳市,新华园,颗粒物(PM10),63,68,42,40,25,23,23,113,83,46,17,8,9,0.7,0.5
2026-04-27T0000,2214A,123.2355,41.2663,辽阳市,滨河路,,33,33,34,21,26,45,45,104,84,32,15,6,7,0.4,0.4
2026-04-27T0000,4083A,123.153,41.2874,辽阳市,铁西路150号,,48,46,38,33,25,51,51,105,88,28,14,7,8,0.6,0.5
2026-04-27T0000,2227A,125.1359,42.8845,辽源市,环保局,,41,41,28,26,17,27,27,111,68,32,13,8,7,0.6,0.4
2026-04-27T0000,4085A,125.0998,42.9134,辽源市,安宁大街333号,,43,43,29,30,16,39,39,112,73,21,12,5,5,0.6,0.4
2026-04-27T0000,1625A,115.9789,36.4372,聊城市,区政府,细颗粒物(PM2.5),86,97,66,53,35,72,72,124,100,18,13,10,9,1.0,0.8
2026-04-27T0000,3200A,115.9772,36.4986,聊城市,监控中心,细颗粒物(PM2.5),94,101,68,57,33,70,70,132,100,16,12,11,10,0.6,0.5
2026-04-27T0000,3513A,116.0443,36.436,聊城市,九州社区,细颗粒物(PM2.5),96,113,74,58,36,77,77,133,106,27,18,12,10,0.6,0.5
2026-04-27T0000,4018A,116.0564,36.4609,聊城市,星美广场,颗粒物(PM10),97,115,74,55,35,68,68,124,95,21,16,10,8,0.6,0.5
2026-04-27T0000,4113A,116.0091,36.4495,聊城市,利民路,细颗粒物(PM2.5),98,76,53,59,38,78,78,135,107,21,14,12,11,0.6,0.5
2026-04-27T0000,2632A,94.3683,29.6373,林芝市,林芝监测站,,34,9,9,3,5,107,107,104,104,3,4,3,3,0.5,0.5
2026-04-27T0000,2633A,94.3616,29.6634,林芝市,林芝人民医院,,36,8,11,8,4,113,113,111,111,4,5,3,4,0.6,0.6
2026-04-27T0000,2603A,100.0779,23.8981,临沧市,市环保局,,45,NA,52,31,42,99,99,143,130,8,7,2,5,0.6,0.6
2026-04-27T0000,2604A,100.0894,23.882,临沧市,市气象局,,40,32,57,28,42,112,112,142,133,7,8,3,7,0.8,0.7
2026-04-27T0000,1733A,111.5552,36.0791,临汾市,临钢医院,颗粒物(PM10),105,133,92,36,29,51,51,148,113,32,18,11,10,0.9,0.8
2026-04-27T0000,1734A,111.4984,36.0734,临汾市,技工学校,颗粒物(PM10),93,109,89,38,38,74,74,148,118,23,21,12,12,0.7,0.8
2026-04-27T0000,1736A,111.5017,36.0857,临汾市,市委,颗粒物(PM10),89,104,90,28,31,79,79,159,128,23,20,10,12,0.9,1.1
2026-04-27T0000,3018A,111.5048,36.1015,临汾市,唐尧大酒店,颗粒物(PM10),95,112,102,27,32,76,76,156,123,22,21,9,11,0.8,1
2026-04-27T0000,4244A,111.4879,36.053,临汾市,启星学校,颗粒物(PM10),85,98,85,39,33,80,80,151,120,29,25,13,11,1.1,1
2026-04-27T0000,4271A,103.2464,35.6123,临夏回族自治州,滨河东路1号,颗粒物(PM10),67,73,100,22,34,89,89,129,116,12,22,11,12,0.2,0.3
2026-04-27T0000,4310A,103.207136,35.599807,临夏回族自治州,新华街21号,颗粒物(PM10),79,90,80,26,28,71,71,103,89,7,11,8,9,0.3,0.4
2026-04-27T0000,1618A,118.3429,35.0532,临沂市,沂河小区,,48,48,69,20,36,91,91,149,124,26,22,13,21,0.3,0.4
2026-04-27T0000,1619A,118.2962,35.0568,临沂市,鲁南制药厂,,41,41,66,17,37,107,107,153,130,19,24,19,19,0.3,0.4
2026-04-27T0000,1620A,118.2793,34.9976,临沂市,新光毛纺厂,颗粒物(PM10),55,56,68,28,43,93,93,150,122,22,25,17,21,0.3,0.4
2026-04-27T0000,1621A,118.3955,35.0889,临沂市,河东保险公司,,41,41,74,22,44,112,112,164,136,15,27,18,22,0.3,0.4
2026-04-27T0000,3370A,118.3563,35.0215,临沂市,十里堡居委,,46,46,69,32,38,96,96,160,124,23,26,16,23,0.6,0.6
2026-04-27T0000,3496A,118.359,35.1067,临沂市,南坊新区,,39,39,67,16,41,105,105,146,126,19,26,12,20,0.2,0.3
2026-04-27T0000,3860A,118.3915,35.0297,临沂市,皇山花园小区,颗粒物(PM10),55,56,66,27,42,88,88,162,124,30,32,26,27,0.5,0.6
2026-04-27T0000,1870A,109.4854,24.3898,柳州市,柳东小学,NA,NA,49,56,40,40,NA,NA,148,135,12,20,7,14,0.8,0.8
2026-04-27T0000,1871A,109.4109,24.3304,柳州市,环保监测站,细颗粒物(PM2.5),56,50,62,38,40,96,96,137,116,15,26,6,7,0.9,0.9
2026-04-27T0000,1872A,109.3886,24.3408,柳州市,河西水厂,细颗粒物(PM2.5),66,57,81,43,47,101,101,153,128,15,27,12,14,0.8,0.8
2026-04-27T0000,1873A,109.4263,24.2951,柳州市,市四中,细颗粒物(PM2.5),60,47,65,40,41,90,90,135,112,16,24,8,10,0.6,0.6
2026-04-27T0000,1874A,109.396,24.3658,柳州市,市九中,细颗粒物(PM2.5),70,62,72,45,45,97,97,141,117,12,21,6,9,0.7,0.8
2026-04-27T0000,1875A,109.4912,24.3164,柳州市,古亭山,细颗粒物(PM2.5),68,52,51,44,35,94,94,142,121,18,30,6,6,0.8,0.7
2026-04-27T0000,3402A,109.5422,24.3994,柳州市,市二中,细颗粒物(PM2.5),64,52,56,42,42,87,87,145,119,18,25,11,15,0.5,0.4
2026-04-27T0000,2307A,116.5078,31.7369,六安市,监测大楼,,48,36,27,33,19,89,89,127,113,10,12,5,5,0.5,0.4
2026-04-27T0000,2308A,116.4738,31.7642,六安市,皖西学院,,46,44,35,32,17,87,87,138,120,10,9,6,5,0.5,0.4
2026-04-27T0000,2309A,116.4997,31.7904,六安市,朝阳厂,,43,32,24,30,17,90,90,128,114,12,10,7,6,0.4,0.3
2026-04-27T0000,2310A,116.5566,31.7885,六安市,开发区,细颗粒物(PM2.5),52,36,20,36,18,88,88,142,122,17,22,9,6,0.7,0.4
2026-04-27T0000,2577A,104.8293,26.592,六盘水市,黄土坡,,35,9,36,3,26,112,112,106,100,6,10,6,6,0.4,0.4
2026-04-27T0000,2579A,104.8481,26.5898,六盘水市,民中,,34,15,31,6,27,108,108,103,98,8,11,3,4,0.5,0.6
2026-04-27T0000,2580A,104.9541,26.5506,六盘水市,双水,,32,9,33,9,24,100,100,95,95,8,7,5,4,0.4,0.3
2026-04-27T0000,4151A,104.8899,26.5685,六盘水市,钟山大道中段564号,,30,8,41,3,24,96,96,93,90,9,7,2,2,0.7,0.7
2026-04-27T0000,2336A,117.022,25.1031,龙岩市,龙岩市监测站,,33,33,32,21,17,49,49,108,80,20,12,7,6,0.5,0.5
2026-04-27T0000,2337A,117.0257,25.0662,龙岩市,闽西职业技术学院,,41,41,37,24,19,70,70,102,84,17,9,9,8,0.6,0.7
2026-04-27T0000,2338A,117.0195,25.0306,龙岩市,龙岩学院,,38,38,33,20,16,74,74,107,83,9,6,4,4,/,/
2026-04-27T0000,2885A,104.9344,33.3827,陇南市,滨江中学,,40,40,66,17,34,116,116,130,118,4,9,8,9,0.5,0.6
2026-04-27T0000,3247A,104.9551,33.3709,陇南市,市总工会,,43,43,59,11,32,114,114,130,119,5,9,8,8,0.5,0.6
2026-04-27T0000,2488A,111.9984,27.7346,娄底市,市监测站,细颗粒物(PM2.5),106,96,63,66,39,8,8,121,77,68,25,9,9,1.0,0.6
2026-04-27T0000,2491A,111.9888,27.7035,娄底市,市政府,细颗粒物(PM2.5),112,87,55,73,39,21,21,129,71,25,15,4,4,0.6,0.4
2026-04-27T0000,4127A,111.9812,27.7591,娄底市,涟钢职大,细颗粒物(PM2.5),136,142,59,99,34,7,7,133,80,46,19,9,12,1.0,0.9
2026-04-27T0000,4128A,112.0303,27.7457,娄底市,娄底体校,细颗粒物(PM2.5),101,85,61,61,40,21,21,118,64,16,11,4,6,0.4,0.4
2026-04-27T0000,1894A,105.4427,28.9063,泸州市,小市上码头,细颗粒物(PM2.5),56,53,50,38,34,58,58,118,89,12,15,9,9,0.7,0.7
2026-04-27T0000,1895A,105.4241,28.8573,泸州市,兰田宪桥,颗粒物(PM10),81,93,82,50,44,62,62,126,92,11,18,10,9,0.7,0.7
2026-04-27T0000,1896A,105.4378,28.8833,泸州市,市环监站,细颗粒物(PM2.5),62,65,55,41,34,55,55,122,89,13,15,9,10,0.9,0.8
2026-04-27T0000,4272A,105.3689,28.7783,泸州市,纳溪中医医院,细颗粒物(PM2.5),74,73,61,47,38,67,67,135,100,9,14,5,4,0.6,0.7
2026-04-27T0000,2183A,111.1447,37.5212,吕梁市,环保局,颗粒物(PM10),60,63,77,24,29,35,35,125,72,44,27,4,6,0.4,0.5
2026-04-27T0000,2185A,111.1285,37.5338,吕梁市,自来水公司,颗粒物(PM10),102,123,93,33,31,24,24,121,77,38,25,6,5,0.4,0.4
2026-04-27T0000,2867A,111.1225,37.5093,吕梁市,马茂庄小学,颗粒物(PM10),68,74,84,20,16,17,17,125,68,61,32,2,4,0.3,0.3
2026-04-27T0000,1812A,112.3934,34.6517,洛阳市,市委党校,颗粒物(PM10),72,80,58,42,33,114,114,134,132,17,15,12,9,0.9,0.6
2026-04-27T0000,1815A,112.494,34.6883,洛阳市,河南林校,颗粒物(PM10),76,86,67,36,31,116,116,143,138,18,22,14,12,0.8,0.6
2026-04-27T0000,1816A,112.3843,34.623,洛阳市,开发区管委会,细颗粒物(PM2.5),86,89,60,53,35,122,122,142,139,11,10,16,12,0.8,0.6
2026-04-27T0000,1817A,112.4263,34.6249,洛阳市,市委新办公区,细颗粒物(PM2.5),90,89,65,55,38,117,117,140,135,16,15,14,11,0.9,0.6
2026-04-27T0000,3340A,112.6005,34.6323,洛阳市,伊滨,细颗粒物(PM2.5),84,80,67,52,35,104,104,136,123,18,22,11,12,0.5,0.4
2026-04-27T0000,3341A,112.495,34.6338,洛阳市,中移产业园,细颗粒物(PM2.5),80,82,60,50,35,110,110,139,132,13,14,14,12,0.9,0.7
2026-04-27T0000,3593A,112.5736,34.8993,洛阳市,吉利监测站,颗粒物(PM10),80,91,68,46,30,103,103,145,137,19,15,12,10,0.7,0.5
2026-04-27T0000,3635A,112.3678,34.6623,洛阳市,河科大西苑校区,细颗粒物(PM2.5),90,93,58,55,34,120,120,141,139,14,17,13,11,0.6,0.5
2026-04-27T0000,3636A,112.4387,34.678,洛阳市,英才小学,颗粒物(PM10),92,108,74,46,39,109,109,135,131,12,16,11,9,0.8,0.6
2026-04-27T0000,4214A,112.460027,34.694929,洛阳市,春都路1号院,颗粒物(PM10),76,86,69,44,34,111,111,138,133,14,19,11,10,0.5,0.5
2026-04-27T0000,2399A,114.051,33.5721,漯河市,三五一五工厂,颗粒物(PM10),59,62,54,33,30,76,76,136,108,26,20,6,6,0.6,0.5
2026-04-27T0000,2400A,114.0055,33.5698,漯河市,漯河大学,细颗粒物(PM2.5),56,52,44,38,31,80,80,136,114,21,15,6,8,0.6,0.5
2026-04-27T0000,2401A,114.0134,33.5826,漯河市,市水利局,细颗粒物(PM2.5),72,75,52,46,32,69,69,134,110,24,13,5,6,0.7,0.6
2026-04-27T0000,2402A,114.0261,33.5697,漯河市,市广电局,细颗粒物(PM2.5),64,59,49,42,33,87,87,140,118,24,19,6,6,0.6,0.5
2026-04-27T0000,3478A,113.9691,33.568,漯河市,市图书馆,颗粒物(PM10),61,65,53,35,30,87,87,127,109,17,17,8,9,1.0,0.8
2026-04-27T0000,4250A,114.089259,33.588274,漯河市,韶山路11号,颗粒物(PM10),68,75,57,42,32,63,63,130,93,32,20,7,7,0.6,0.5
2026-04-27T0000,1798A,118.5084,31.6838,马鞍山市,湖东路四小,颗粒物(PM10),53,53,52,28,25,98,98,152,122,25,21,18,10,0.5,0.6
2026-04-27T0000,1799A,118.5019,31.6449,马鞍山市,开发区,颗粒物(PM10),74,83,65,31,29,69,69,151,117,40,28,19,10,0.6,0.6
2026-04-27T0000,3633A,118.4914,31.681,马鞍山市,雨山,颗粒物(PM10),53,53,51,26,24,100,100,153,130,28,21,26,15,0.7,0.6
2026-04-27T0000,4191A,118.527362,31.722269,马鞍山市,慈湖高新区,颗粒物(PM10),73,82,61,30,27,96,96,146,122,36,29,16,11,0.5,0.5
2026-04-27T0000,1686A,111.0285,21.469,茂名市,电白南海,,36,36,38,9,20,99,99,120,110,7,13,5,7,0.8,0.9
2026-04-27T0000,1687A,110.9294,21.6533,茂名市,茂石化七小,,34,34,39,16,24,85,85,104,94,12,12,6,8,0.6,0.7
2026-04-27T0000,1688A,110.9108,21.6688,茂名市,健康路,,30,27,31,15,22,93,93,112,101,10,12,4,11,0.6,0.6
2026-04-27T0000,1689A,110.8592,21.6826,茂名市,高岭,,36,36,51,14,24,96,96,113,102,7,12,5,8,/,/
2026-04-27T0000,3450A,111.0101,21.5165,茂名市,电白水东,,30,14,27,11,21,94,94,108,102,6,12,2,5,/,/
2026-04-27T0000,2540A,103.8414,30.0871,眉山市,气象局,,50,50,84,13,42,83,83,139,107,11,35,7,9,0.6,0.8
2026-04-27T0000,3148A,103.829,30.0563,眉山市,区人社局,颗粒物(PM10),51,51,82,15,45,90,90,136,108,14,39,10,16,0.7,0.8
2026-04-27T0000,4148A,103.8836,30.0695,眉山市,眉职院,NA,NA,NA,126,16,48,81,81,133,107,13,29,8,10,0.7,0.9
2026-04-27T0000,1690A,116.1248,24.3307,梅州市,梅江月梅,颗粒物(PM10),61,65,34,22,17,18,18,101,67,35,15,/,/,/,/
2026-04-27T0000,1691A,116.0798,24.2719,梅州市,梅县新城,,48,48,35,23,18,28,28,96,56,30,18,8,8,0.5,0.6
2026-04-27T0000,3315A,116.1234,24.2994,梅州市,梅龙,颗粒物(PM10),56,58,34,25,16,15,15,105,63,41,13,6,6,0.6,0.7
2026-04-27T0000,1878A,104.7775,31.4741,绵阳市,富乐山,细颗粒物(PM2.5),60,56,63,40,41,24,24,69,52,14,18,7,7,0.7,0.7
2026-04-27T0000,1880A,104.6698,31.4668,绵阳市,高新区自来水公司,颗粒物(PM10),73,81,80,44,44,23,23,89,64,49,30,6,7,0.5,0.5
2026-04-27T0000,3491A,104.6899,31.5324,绵阳市,西科大附属小学,颗粒物(PM10),75,85,84,43,45,4,4,80,50,53,32,5,4,0.7,0.7
2026-04-27T0000,3492A,104.5647,31.5343,绵阳市,安州区旅游局,细颗粒物(PM2.5),84,75,77,52,43,32,32,100,77,25,20,4,4,0.5,0.5
2026-04-27T0000,4146A,104.7092,31.4972,绵阳市,科技城新区公安局,颗粒物(PM10),68,75,85,42,45,20,20,81,58,51,27,5,6,0.7,0.7
2026-04-27T0000,4226A,104.765114,31.453094,绵阳市,绵阳市气象局,颗粒物(PM10),62,66,75,39,42,36,36,67,60,30,30,8,8,0.5,0.4
2026-04-27T0000,1784A,129.61,44.561,牡丹江市,环保大楼,,17,17,20,9,14,50,50,98,74,12,11,1,3,0.2,0.2
2026-04-27T0000,1787A,129.6364,44.6075,牡丹江市,机车工厂,颗粒物(PM10),53,54,37,26,20,36,36,92,58,28,14,6,7,0.3,0.3
2026-04-27T0000,1788A,129.6386,44.5462,牡丹江市,第一中学,,33,33,24,7,13,50,50,97,62,5,11,3,3,0.3,0.3
2026-04-27T0000,4287A,129.5992,44.5964,牡丹江市,东晓云街98号,,43,43,36,22,14,53,53,94,67,9,11,4,4,0.2,0.3
2026-04-27T0000,2531A,105.0703,29.61,内江市,市监测站,,46,35,62,32,51,75,75,112,84,6,13,9,11,0.6,0.8
2026-04-27T0000,2533A,105.0657,29.5807,内江市,内江二中,,43,33,62,30,48,75,75,109,79,9,16,7,9,0.4,0.4
2026-04-27T0000,2534A,105.0407,29.5828,内江市,内江日报社,,45,NA,58,31,54,74,74,107,79,9,19,11,13,0.5,0.6
2026-04-27T0000,4147A,105.0433,29.6105,内江市,玉峰路西段888号,,45,35,59,31,51,73,73,110,81,9,15,5,7,0.4,0.6
2026-04-27T0000,2628A,92.0653,31.4846,那曲市,那曲监测站,,25,25,35,16,19,76,76,94,87,19,14,12,8,0.6,0.7
2026-04-27T0000,4243A,92.0515,31.4787,那曲市,那曲市委宣传部,NA,NA,24,26,6,14,90,90,104,97,NA,NA,10,8,0.7,0.7
2026-04-27T0000,1291A,115.8887,28.7006,南昌市,省林业公司,"颗粒物(PM10),细颗粒物(PM2.5)",70,78,50,45,30,31,31,138,94,58,47,6,6,0.7,0.5
2026-04-27T0000,1292A,115.813,28.7443,南昌市,林科所,,49,44,32,27,21,8,8,149,94,97,30,9,10,0.4,0.3
2026-04-27T0000,1294A,115.8518,28.687,南昌市,建工学校,颗粒物(PM10),90,105,54,47,31,30,30,137,85,58,35,7,8,1.1,0.8
2026-04-27T0000,1295A,115.8926,28.6425,南昌市,象湖,细颗粒物(PM2.5),105,104,52,65,35,2,2,133,69,91,41,9,10,1.6,1.1
2026-04-27T0000,3046A,115.9084,28.6062,南昌市,机电学校,颗粒物(PM10),77,87,56,44,31,9,9,147,79,84,37,6,8,0.8,0.6
2026-04-27T0000,3690A,115.9718,28.7032,南昌市,外国语学校,颗粒物(PM10),56,58,43,31,27,25,25,136,86,36,25,9,11,0.8,0.7
2026-04-27T0000,4106A,115.7923,28.6873,南昌市,工业二路,细颗粒物(PM2.5),74,70,51,47,26,18,18,138,72,67,38,6,7,0.7,0.6
2026-04-27T0000,4192A,115.931587,28.686774,南昌市,南京东路235号,细颗粒物(PM2.5),111,96,60,72,37,6,6,143,76,73,30,8,9,1.5,0.9
2026-04-27T0000,1906A,106.0791,30.8022,南充市,南充市委,,48,48,62,29,39,27,27,51,43,16,22,7,7,0.2,0.4
2026-04-27T0000,1907A,106.1038,30.8215,南充市,南充炼油厂,细颗粒物(PM2.5),52,51,67,36,43,38,38,56,52,11,17,4,6,0.3,0.3
2026-04-27T0000,4227A,106.108336,30.788436,南充市,梨树横街98号,NA,NA,60,69,42,48,36,36,52,47,NA,20,5,6,0.3,0.4
2026-04-27T0000,4304A,106.1172,30.843,南充市,清泉寺北路188号,细颗粒物(PM2.5),60,55,63,40,46,43,43,67,52,8,12,6,7,0.5,0.6
2026-04-27T0000,4305A,106.067,30.7616,南充市,同庆路1号,颗粒物(PM10),51,51,68,32,38,36,36,54,48,16,25,6,7,0.4,0.5
2026-04-27T0000,1151A,118.8033,32.1085,南京市,迈皋桥,,46,46,39,29,20,126,126,182,157,12,16,12,15,0.2,0.3
2026-04-27T0000,1152A,118.7487,32.057,南京市,草场门,颗粒物(PM10),53,53,48,34,25,117,117,159,133,30,26,6,8,0.5,0.6
2026-04-27T0000,1154A,118.770105,32.004342,南京市,中华门,,48,48,49,27,22,117,117,174,143,23,20,9,12,0.5,0.5
2026-04-27T0000,1155A,118.8059,32.0329,南京市,瑞金路,细颗粒物(PM2.5),54,48,49,37,27,118,118,172,123,27,26,8,8,1.9,1
2026-04-27T0000,1156A,118.7946,32.0774,南京市,玄武湖,,46,46,45,22,18,127,127,159,135,16,17,5,6,0.5,0.5
2026-04-27T0000,1157A,118.6415,32.0964,南京市,浦口,颗粒物(PM10),54,55,50,25,17,77,77,148,116,36,21,5,8,0.8,0.8
2026-04-27T0000,1158A,118.730129,32.000956,南京市,奥体中心,颗粒物(PM10),56,58,51,27,21,106,106,143,115,26,31,9,11,0.3,0.4
2026-04-27T0000,1159A,118.9072,32.1047,南京市,仙林大学城,颗粒物(PM10),63,68,54,33,25,128,128,178,148,28,25,10,10,0.7,0.6
2026-04-27T0000,3422A,118.8443,31.919,南京市,江宁彩虹桥,,48,48,53,32,22,123,123,163,140,21,26,4,4,0.4,0.5
2026-04-27T0000,3427A,118.8497,32.3599,南京市,六合雄州,颗粒物(PM10),59,62,54,27,25,72,72,171,118,48,49,5,5,0.7,0.8
2026-04-27T0000,4086A,118.7641,32.0841,南京市,新模范马路66号,颗粒物(PM10),51,51,50,28,19,144,144,169,149,19,19,4,4,0.5,0.6
2026-04-27T0000,4249A,118.8707617,31.34017673,南京市,汶溪路181号,,43,32,40,26,19,136,136,146,125,18,19,8,7,0.6,0.6
2026-04-27T0000,4312A,119.019,31.6512,南京市,中山西路1号,"颗粒物(PM10),细颗粒物(PM2.5)",56,58,41,38,20,101,101,135,120,28,22,4,4,0.6,0.6
2026-04-27T0000,1401A,108.3098,22.788,南宁市,二十一中,,45,45,44,21,36,78,78,108,92,13,18,2,2,0.7,0.6
2026-04-27T0000,1402A,108.3135,22.8529,南宁市,北湖,,35,32,50,24,42,83,83,109,94,12,24,5,5,0.8,0.7
2026-04-27T0000,1403A,108.3205,22.8222,南宁市,市监测站,,28,24,46,19,35,86,86,115,99,10,15,5,5,0.8,0.6
2026-04-27T0000,1404A,108.3828,22.8038,南宁市,大自然花园,,35,29,42,24,33,82,82,106,96,11,16,5,6,0.6,0.5
2026-04-27T0000,1406A,108.2397,22.8462,南宁市,区农职院,颗粒物(PM10),81,93,52,19,33,74,74,103,85,8,17,4,7,0.7,0.6
2026-04-27T0000,1407A,108.3285,22.7356,南宁市,英华嘉园,,35,35,48,22,37,71,71,110,90,23,21,6,6,0.8,0.6
2026-04-27T0000,3401A,108.4829,22.762,南宁市,红星社区,,46,39,46,32,37,81,81,109,95,10,20,6,5,0.6,0.6
2026-04-27T0000,4132A,108.2927,23.1477,南宁市,起凤路9号,"颗粒物(PM10),细颗粒物(PM2.5)",60,63,59,40,46,84,84,119,95,9,16,5,6,0.8,0.7
2026-04-27T0000,4221A,108.2177,22.7774,南宁市,乐贤路16号,,34,34,50,21,36,65,65,104,77,22,31,7,6,0.7,0.6
2026-04-27T0000,2332A,118.1682,26.6371,南平市,南平市监测站,,34,34,34,21,20,32,32,110,65,26,13,4,6,0.4,0.4
2026-04-27T0000,2334A,118.1757,26.6276,南平市,南平七中,,30,23,33,21,17,41,41,109,73,19,10,2,2,0.4,0.4
2026-04-27T0000,1168A,120.9056,31.9669,南通市,狼山街道,,47,47,45,25,22,70,70,187,140,43,31,5,8,0.4,0.6
2026-04-27T0000,1170A,120.8635,32.0231,南通市,城中,颗粒物(PM10),58,61,58,32,21,94,94,188,144,30,32,7,7,0.5,0.6
2026-04-27T0000,1171A,120.9376,31.9301,南通市,星湖花园,颗粒物(PM10),53,53,47,33,24,81,81,203,148,39,25,6,7,0.5,0.5
2026-04-27T0000,1172A,120.8053,32.046,南通市,紫琅学院,,50,50,48,32,21,95,95,208,155,48,43,8,9,0.8,1
2026-04-27T0000,3291A,121.0631,32.0644,南通市,通州监测站,颗粒物(PM10),56,58,59,23,21,121,121,185,140,8,18,4,5,0.5,0.5
2026-04-27T0000,3432A,120.9348,31.9874,南通市,环境教育馆,,36,36,52,25,24,96,96,197,145,23,36,5,8,0.5,0.7
2026-04-27T0000,4091A,120.8692,31.9885,南通市,洪江路,颗粒物(PM10),53,53,50,34,26,78,78,172,132,42,41,6,9,0.9,1
2026-04-27T0000,2404A,112.5338,33.0086,南阳市,瓦房庄,细颗粒物(PM2.5),84,71,61,52,42,78,78,119,102,23,16,5,5,0.6,0.5
2026-04-27T0000,2405A,112.5002,32.9734,南阳市,汉画馆,细颗粒物(PM2.5),80,87,71,50,41,57,57,118,92,18,16,6,7,0.7,0.6
2026-04-27T0000,2406A,112.5778,33.0144,南阳市,气象站,细颗粒物(PM2.5),92,80,66,56,42,72,72,130,106,20,14,6,7,0.5,0.4
2026-04-27T0000,2407A,112.548,32.9687,南阳市,理工学院,细颗粒物(PM2.5),103,79,65,63,48,69,69,123,104,22,15,6,8,0.5,0.5
2026-04-27T0000,4008A,112.5233,32.9921,南阳市,卧龙区政府,细颗粒物(PM2.5),104,103,81,64,48,70,70,114,96,18,14,7,7,0.7,0.6
2026-04-27T0000,1234A,121.8352,29.9111,宁波市,区环保大楼,颗粒物(PM10),60,64,53,32,23,91,91,161,114,30,32,6,8,0.3,0.3
2026-04-27T0000,1235A,121.5595,29.8208,宁波市,万里学院,颗粒物(PM10),52,52,54,30,25,108,108,189,145,26,22,7,5,0.4,0.4
2026-04-27T0000,1236A,121.713,29.9564,宁波市,龙赛医院,颗粒物(PM10),55,57,66,23,27,125,125,171,128,19,30,7,8,0.4,0.5
2026-04-27T0000,1240A,121.5855,29.8635,宁波市,太古小学,颗粒物(PM10),57,59,54,29,25,114,114,177,141,19,21,5,5,0.4,0.5
2026-04-27T0000,1241A,121.5239,29.8673,宁波市,市环境监测中心,颗粒物(PM10),53,53,49,34,30,110,110,195,146,23,21,9,8,0.5,0.5
2026-04-27T0000,2871A,121.6156,29.9015,宁波市,万里国际学校,颗粒物(PM10),55,56,50,30,27,133,133,182,NA,16,21,6,6,0.4,0.5
2026-04-27T0000,3710A,121.5593,29.8976,宁波市,白沙活动中心,,49,49,60,27,29,119,119,199,151,23,20,8,7,0.3,0.3
2026-04-27T0000,4095A,121.8962,29.7529,宁波市,中科路88号,颗粒物(PM10),53,54,37,31,20,45,45,146,112,37,13,7,9,0.5,0.4
2026-04-27T0000,2341A,119.5387,26.6611,宁德市,宁德市监测站,,32,NA,42,22,21,56,56,138,108,15,15,7,8,0.6,0.5
2026-04-27T0000,3209A,119.5231,26.6562,宁德市,宁德一中,,38,32,36,26,22,62,62,135,104,11,12,7,8,0.5,0.5
2026-04-27T0000,2618A,98.859,25.8541,怒江傈僳族自治州,州监测站,,32,27,35,22,27,74,74,111,97,9,8,6,6,0.3,0.4
2026-04-27T0000,2619A,98.8607,25.8168,怒江傈僳族自治州,泸水一中,,40,29,30,28,28,53,53,110,92,19,13,5,5,0.7,0.6
2026-04-27T0000,1888A,101.6891,26.571,攀枝花市,弄弄坪,,38,38,49,18,28,106,106,151,122,12,19,7,31,0.5,1.4
2026-04-27T0000,1889A,101.577,26.5914,攀枝花市,河门口,,41,41,54,21,33,105,105,154,135,15,20,8,20,0,0.3
2026-04-27T0000,1891A,101.7365,26.4986,攀枝花市,仁和,,32,32,54,22,41,90,90,140,116,13,18,4,11,0.4,0.5
2026-04-27T0000,2835A,101.7222,26.567,攀枝花市,四十中小,,37,30,36,18,25,117,117,147,134,9,12,6,26,0.6,0.8
2026-04-27T0000,1604A,122.0303,41.1489,盘锦市,开发区,,35,27,26,24,22,63,63,115,95,24,11,7,7,0.4,0.4
2026-04-27T0000,1605A,122.0486,41.0883,盘锦市,兴隆台,细颗粒物(PM2.5),52,43,32,36,25,44,44,117,82,50,18,10,9,0.6,0.5
2026-04-27T0000,1606A,121.8297,41.1026,盘锦市,新生街道,,25,25,24,16,15,52,52,124,88,33,17,5,5,0.5,0.4
2026-04-27T0000,1832A,113.3257,33.7423,平顶山市,新华旅馆,颗粒物(PM10),68,74,66,37,41,81,81,123,94,17,16,7,5,0.6,0.5
2026-04-27T0000,1833A,113.2917,33.737,平顶山市,规划设计院,细颗粒物(PM2.5),68,70,67,44,43,70,70,124,93,27,16,8,7,0.8,0.6
2026-04-27T0000,1834A,113.182,33.7738,平顶山市,平顶山工学院,细颗粒物(PM2.5),70,72,55,45,41,62,62,123,98,21,11,10,9,0.7,0.6
2026-04-27T0000,3594A,112.8736,33.9068,平顶山市,石龙区,细颗粒物(PM2.5),109,108,70,69,45,45,45,121,94,36,19,8,8,0.6,0.6
2026-04-27T0000,4116A,113.284,33.7139,平顶山市,姚电大道23号,"颗粒物(PM10),细颗粒物(PM2.5)",72,80,76,46,43,68,68,129,96,28,20,10,8,0.7,0.5
2026-04-27T0000,2656A,106.6633,35.5338,平凉市,聚贤嘉苑,颗粒物(PM10),58,60,71,20,32,56,56,132,96,30,24,6,6,0.4,0.4
2026-04-27T0000,2657A,106.7021,35.5307,平凉市,博物馆,颗粒物(PM10),59,62,68,20,31,68,68,146,110,27,20,9,9,0.5,0.5
2026-04-27T0000,2348A,113.8384,27.6436,萍乡市,中医院,细颗粒物(PM2.5),92,63,54,56,32,19,19,125,63,42,24,7,9,0.8,0.7
2026-04-27T0000,2350A,113.8677,27.6438,萍乡市,市环保局,细颗粒物(PM2.5),109,108,59,69,32,15,15,131,73,44,29,18,19,1.1,1
2026-04-27T0000,2351A,113.8663,27.6202,萍乡市,安源区政府,细颗粒物(PM2.5),82,70,55,51,33,39,39,119,78,24,20,6,9,0.5,0.7
2026-04-27T0000,4107A,113.8686,27.6668,萍乡市,联洪村委会,细颗粒物(PM2.5),107,108,61,67,30,12,12,128,65,54,27,8,8,0.5,0.5
2026-04-27T0000,2319A,119.0142,25.4324,莆田市,荔城区仓后路,颗粒物(PM10),61,65,45,37,24,50,50,131,85,22,9,/,/,/,/
2026-04-27T0000,2320A,119.0016,25.4553,莆田市,莆田市监测站,,38,37,37,26,20,61,61,138,94,10,10,3,3,0.5,0.5
2026-04-27T0000,2321A,119.112,25.4561,莆田市,涵江区六中,,50,39,41,35,21,56,56,132,93,28,14,/,/,0.5,0.5
2026-04-27T0000,2322A,119.1014,25.3215,莆田市,秀屿区政府,颗粒物(PM10),56,58,46,36,27,77,77,136,99,20,14,4,5,0.7,0.6
2026-04-27T0000,2392A,115.0312,35.7636,濮阳市,环保局,细颗粒物(PM2.5),76,62,53,48,29,80,80,136,114,17,14,5,5,0.8,0.7
2026-04-27T0000,3021A,115,35.7667,濮阳市,濮水河管理处,细颗粒物(PM2.5),92,95,63,56,31,76,76,132,111,21,16,5,5,0.9,0.8
2026-04-27T0000,4118A,115.0552,35.7816,濮阳市,中原东路68号,颗粒物(PM10),88,102,68,47,29,73,73,138,113,15,11,4,5,0.8,0.7
2026-04-27T0000,4216A,115.0923632,35.76857718,濮阳市,任丘路479号,细颗粒物(PM2.5),82,92,63,51,29,78,78,133,109,18,18,4,4,0.9,0.8
2026-04-27T0000,2601A,100.9801,22.7634,普洱市,市环保局,颗粒物(PM10),56,58,69,29,41,89,89,130,115,11,8,4,5,0.8,0.8
2026-04-27T0000,2602A,100.9763,22.8237,普洱市,普洱第二中学,,50,50,64,22,42,94,94,133,116,10,10,6,6,1.0,1
2026-04-27T0000,3345A,131.0413,45.7795,七台河市,中波台,,35,35,23,21,14,58,58,100,87,28,12,5,4,0.3,0.2
2026-04-27T0000,3637A,131.0136,45.7688,七台河市,人民广场,,46,46,28,18,14,72,72,102,86,22,16,10,10,0.6,0.6
2026-04-27T0000,3684A,130.8639,45.8144,七台河市,新建矿广场,颗粒物(PM10),56,58,24,29,13,55,55,89,72,12,13,7,8,0.4,0.4
2026-04-27T0000,1779A,123.9307,47.3641,齐齐哈尔市,安居小区,,26,26,22,12,6,52,52,79,61,7,5,5,5,0.3,0.2
2026-04-27T0000,1780A,123.9497,47.3389,齐齐哈尔市,中心广场,,25,25,20,15,6,66,66,79,NA,6,6,8,7,0.3,0.3
2026-04-27T0000,1781A,123.9483,47.3229,齐齐哈尔市,农牧车辆厂,,27,27,24,9,6,67,67,83,71,6,7,5,4,0.3,0.4
2026-04-27T0000,1783A,123.9442,47.2994,齐齐哈尔市,市环境监测站,,22,22,26,11,7,65,65,83,69,8,10,3,3,0.3,0.2
2026-04-27T0000,3662A,123.6341,47.2079,齐齐哈尔市,富区青少年活动中心,,31,31,28,12,7,42,42,80,58,15,8,3,3,0.3,0.3
2026-04-27T0000,2591A,107.9765,26.5724,黔东南苗族侗族自治州,市环境监测站,颗粒物(PM10),53,53,43,31,28,49,49,109,87,22,15,2,3,0.4,0.4
2026-04-27T0000,2881A,107.8909,26.531,黔东南苗族侗族自治州,凯里学院,,48,48,35,32,26,92,92,117,113,9,8,2,3,0.5,0.4
2026-04-27T0000,2593A,107.5223,26.2371,黔南布依族苗族自治州,小围寨,细颗粒物(PM2.5),52,44,29,36,23,92,92,91,79,6,9,6,5,0.4,0.3
2026-04-27T0000,3538A,107.5175,26.2977,黔南布依族苗族自治州,沙坝,,35,34,35,24,23,67,67,77,65,6,9,4,4,0.7,0.6
2026-04-27T0000,2589A,104.9022,25.0943,黔西南布依族苗族自治州,场坝街,细颗粒物(PM2.5),52,48,29,36,26,79,79,94,91,3,4,6,6,0.5,0.4
2026-04-27T0000,2590A,104.8812,25.0994,黔西南布依族苗族自治州,坪东大道,颗粒物(PM10),58,61,34,34,25,80,80,92,89,4,5,3,4,0.5,0.4
2026-04-27T0000,2502A,108.6238,21.9667,钦州市,市环保站,,39,39,46,11,22,69,69,96,86,21,21,4,4,0.8,0.8
2026-04-27T0000,2503A,108.655,21.9481,钦州市,沙埠小学,颗粒物(PM10),52,52,53,19,30,60,60,94,82,25,27,6,5,0.5,0.5
2026-04-27T0000,2504A,108.5989,21.7435,钦州市,港区一小,,48,48,47,25,26,83,83,106,100,17,21,7,5,1.6,0.9
2026-04-27T0000,3404A,108.5959,21.9634,钦州市,北职校,,27,26,44,13,27,84,84,103,94,10,19,1,3,0.5,0.6
2026-04-27T0000,1046A,119.5247,39.9346,秦皇岛市,建设大厦,,35,35,62,8,15,89,89,104,94,18,11,5,7,0.2,0.3
2026-04-27T0000,3132A,119.5979,39.938,秦皇岛市,文明里,,34,34,54,11,15,85,85,101,95,21,18,8,10,0.3,0.4
2026-04-27T0000,4066A,119.7458,39.9952,秦皇岛市,南园路157号,,28,20,46,12,18,87,87,96,86,23,23,7,8,0.2,0.3
2026-04-27T0000,4067A,119.5131,39.8858,秦皇岛市,翠岛大街1号,,32,28,42,14,17,101,101,102,102,17,17,8,8,0.3,0.3
2026-04-27T0000,4198A,119.509013,39.825305,秦皇岛市,北戴河轮滑馆,,27,27,46,12,15,85,85,101,98,23,18,8,9,0.2,0.3
2026-04-27T0000,1310A,120.404,36.0625,青岛市,市南区东部子站,颗粒物(PM10),51,51,47,24,23,144,144,154,151,10,13,7,7,0.5,0.5
2026-04-27T0000,1311A,120.362344,36.10282,青岛市,四方区子站,臭氧1小时(O3_1h),58,46,50,29,28,166,166,184,178,14,18,7,8,0.7,0.7
2026-04-27T0000,1312A,120.294373,36.054183,青岛市,市南区西部子站,颗粒物(PM10),53,53,45,23,21,146,146,151,150,21,25,5,5,0.8,0.7
2026-04-27T0000,1313A,120.4581,36.0858,青岛市,崂山区子站,颗粒物(PM10),51,51,44,22,20,157,157,164,164,9,13,9,9,0.5,0.5
2026-04-27T0000,1315A,120.3945,36.3083,青岛市,城阳区子站,臭氧1小时(O3_1h),77,56,55,30,25,181,181,187,186,11,15,8,8,0.7,0.7
2026-04-27T0000,3642A,120.3454,36.0735,青岛市,市北区南部,臭氧1小时(O3_1h),64,39,40,20,21,171,171,181,178,8,11,7,5,0.7,0.7
2026-04-27T0000,3643A,120.3897,36.18,青岛市,李沧区北部,,50,46,52,29,27,158,158,158,158,13,17,10,11,0.6,0.6
2026-04-27T0000,4110A,120.5222,36.4089,青岛市,盟旺路653号,细颗粒物(PM2.5),70,72,44,45,24,149,149,195,178,10,10,5,5,0.8,0.7
2026-04-27T0000,4290A,120.196923,35.954556,青岛市,珠江路669号,臭氧1小时(O3_1h),68,53,58,24,25,174,174,171,171,11,17,5,6,0.8,0.7
2026-04-27T0000,4291A,120.0424,35.8656,青岛市,黄岛区人民政府广场,颗粒物(PM10),55,56,55,26,26,162,162,168,168,14,19,9,9,0.7,0.6
2026-04-27T0000,1703A,113.0218,23.7086,清远市,凤城街办,细颗粒物(PM2.5),74,72,55,47,39,149,149,203,177,30,25,/,/,/,/
2026-04-27T0000,3025A,113.0479,23.6343,清远市,技师学院,细颗粒物(PM2.5),109,122,66,69,41,96,96,233,177,51,37,14,8,0.9,0.8
2026-04-27T0000,3318A,112.9898,23.7403,清远市,清新太和,臭氧1小时(O3_1h),95,63,55,40,36,196,196,238,228,20,22,10,9,0.6,0.6
2026-04-27T0000,3455A,113.076,23.72,清远市,清城东城,细颗粒物(PM2.5),70,76,57,45,36,126,126,220,185,23,23,/,/,/,/
2026-04-27T0000,2661A,107.6325,35.7357,庆阳市,庆阳五中,颗粒物(PM10),64,69,65,12,20,100,100,125,109,7,12,4,4,0.2,0.3
2026-04-27T0000,2662A,107.6361,35.7067,庆阳市,市环保局,颗粒物(PM10),60,64,66,16,20,107,107,137,117,9,15,7,7,0.4,0.4
2026-04-27T0000,1916A,103.7897,25.5036,曲靖市,环境监测站,,42,36,36,29,26,94,94,142,113,11,11,7,7,0.7,0.7
2026-04-27T0000,1917A,103.8013,25.5357,曲靖市,烟厂办公区,,38,38,34,25,24,91,91,140,108,8,9,9,8,0.7,0.7
2026-04-27T0000,3376A,103.7926,25.4651,曲靖市,南苑二区,,36,26,29,25,24,100,100,134,114,7,8,3,4,0.8,0.7
2026-04-27T0000,3377A,103.7442,25.5259,曲靖市,曲靖师范学院,,40,40,33,27,25,95,95,145,106,9,14,3,3,0.5,0.5
2026-04-27T0000,1264A,118.8694,28.94,衢州市,环保大楼,颗粒物(PM10),53,54,46,26,24,72,72,130,85,15,22,/,/,/,/
2026-04-27T0000,1266A,118.8622,28.9809,衢州市,衢州学院,颗粒物(PM10),66,72,41,37,32,41,41,119,70,31,29,10,7,0.5,0.5
2026-04-27T0000,4097A,118.9646,28.9832,衢州市,衢州三中,颗粒物(PM10),55,57,45,28,23,39,39,131,87,46,27,8,9,0.4,0.4
2026-04-27T0000,1611A,118.5818,24.9116,泉州市,涂山街,细颗粒物(PM2.5),56,45,46,38,28,60,60,127,94,24,23,4,5,0.6,0.5
2026-04-27T0000,1612A,118.597,24.8976,泉州市,津头埔,细颗粒物(PM2.5),60,47,48,40,28,74,74,139,108,28,20,3,4,0.6,0.5
2026-04-27T0000,1613A,118.6669,24.9422,泉州市,万安,颗粒物(PM10),60,63,45,34,24,18,18,122,83,60,21,4,4,0.8,0.6
2026-04-27T0000,4105A,118.6355,24.9148,泉州市,霞新路6号,颗粒物(PM10),52,52,41,30,24,39,39,122,82,20,19,/,/,0.6,0.5
2026-04-27T0000,2626A,88.8873,29.2723,日喀则市,日喀则监测站,,34,23,30,15,13,108,108,116,112,3,5,8,8,0.4,0.4
2026-04-27T0000,3726A,88.8775,29.2425,日喀则市,林业技术推广中心,颗粒物(PM10),52,52,36,18,15,101,101,114,112,7,5,10,10,0.5,0.4
2026-04-27T0000,1659A,119.4711,35.421,日照市,监测站,"颗粒物(PM10),细颗粒物(PM2.5)",60,63,67,40,31,95,95,170,147,49,40,10,12,0.6,0.8
2026-04-27T0000,1660A,119.523,35.4216,日照市,市政府广场,颗粒物(PM10),68,75,74,38,33,101,101,169,148,40,36,14,13,0.8,1
2026-04-27T0000,1661A,119.5511,35.4113,日照市,港务局,颗粒物(PM10),88,102,85,40,35,83,83,172,148,63,38,9,9,0.7,0.8
2026-04-27T0000,3507A,119.5326,35.4627,日照市,职业技术学院,颗粒物(PM10),68,75,72,30,32,109,109,179,160,31,33,8,12,0.7,0.9
2026-04-27T0000,3604A,119.3267,35.1043,日照市,岚山环保分局,,48,48,69,23,28,127,127,166,152,23,29,10,12,0.7,0.7
2026-04-27T0000,1835A,111.1922,34.7752,三门峡市,市政府,颗粒物(PM10),63,68,55,39,27,124,124,128,118,14,14,12,12,0.6,0.6
2026-04-27T0000,1836A,111.1588,34.794,三门峡市,开发区,颗粒物(PM10),83,96,58,48,28,130,130,129,123,13,11,12,14,0.7,0.6
2026-04-27T0000,3039A,111.1911,34.7829,三门峡市,三门峡市第一小学,"颗粒物(PM10),细颗粒物(PM2.5)",66,72,62,43,28,132,132,136,129,14,13,14,16,0.9,0.8
2026-04-27T0000,3598A,111.1031,34.719,三门峡市,富达温泉假日酒店,颗粒物(PM10),81,93,71,45,30,134,134,131,118,11,16,15,18,0.4,0.4
2026-04-27T0000,2324A,117.621,26.2626,三明市,三钢,,38,36,34,26,21,38,38,115,72,23,17,5,7,0.5,1.1
2026-04-27T0000,2325A,117.6352,26.2714,三明市,三明二中,,36,36,34,19,19,39,39,112,71,18,15,3,3,0.6,0.8
2026-04-27T0000,2326A,117.6028,26.2377,三明市,三元区政府,,50,50,42,27,25,26,26,116,67,33,15,8,7,0.8,0.7
2026-04-27T0000,1877A,109.4962,18.2682,三亚市,河西子站,,18,16,21,12,14,49,49,100,71,6,5,4,4,0.5,0.6
2026-04-27T0000,3540A,109.7348,18.3443,三亚市,君悦子站,,20,16,20,14,20,52,52,96,67,7,9,4,4,0.5,0.6
2026-04-27T0000,4135A,109.1714,18.3739,三亚市,城东小学站,NA,NA,36,26,20,14,NA,NA,101,74,19,10,/,/,/,/
2026-04-27T0000,2624A,91.7592,29.234,山南市,山南监测站,,33,8,17,3,8,103,103,114,111,2,5,8,8,0.3,0.3
2026-04-27T0000,2625A,91.7701,29.2436,山南市,山南人民医院,,32,10,19,3,8,102,102,114,110,2,4,9,9,0.2,0.2
2026-04-27T0000,1674A,116.6795,23.3666,汕头市,金平子站,,39,30,36,25,25,123,123,151,142,14,16,5,6,0.7,0.8
2026-04-27T0000,1675A,116.7248,23.3632,汕头市,龙湖子站,,42,31,31,29,22,117,117,149,142,11,10,6,7,/,/
2026-04-27T0000,1676A,116.7257,23.2774,汕头市,濠江子站,,48,40,36,33,23,83,83,139,121,17,16,7,8,/,/
2026-04-27T0000,1677A,116.7518,23.4712,汕头市,澄海子站,,40,35,38,28,23,126,126,155,150,16,14,7,8,0.7,0.7
2026-04-27T0000,1678A,116.6088,23.2539,汕头市,潮阳子站,,43,30,33,30,26,125,125,147,138,11,11,6,7,0.6,0.7
2026-04-27T0000,3444A,116.4539,23.2684,汕头市,潮南峡山,细颗粒物(PM2.5),54,54,44,37,28,92,92,155,138,15,12,7,7,0.8,0.8
2026-04-27T0000,3624A,116.4069,23.2533,汕头市,潮南子站,颗粒物(PM10),53,54,53,35,30,95,95,143,124,16,14,6,7,/,/
2026-04-27T0000,1693A,115.3653,22.7751,汕尾市,市环保局,,37,28,32,16,21,118,118,141,133,6,8,5,5,0.7,0.8
2026-04-27T0000,1695A,115.362,22.7926,汕尾市,新城中学,,30,NA,32,21,21,85,85,146,133,10,8,6,6,0.7,0.7
2026-04-27T0000,2645A,109.9155,33.8714,商洛市,监测站,,42,42,50,19,27,64,64,136,99,10,12,6,8,0.5,0.5
2026-04-27T0000,3045A,109.9647,33.8486,商洛市,商州区中学,,47,47,54,24,26,26,26,129,79,41,19,6,7,0.4,0.4
