timepoint,stationcode,longitude,latitude,area,positionname,primarypollutant,aqi,pm10,pm10_24h,pm2_5,pm2_5_24h,o3,o3_24h,o3_8h,o3_8h_24h,no2,no2_24h,so2,so2_24h,co,co_24h
2026-04-27T1900,2568A,102.2503,31.8896,阿坝藏族羌族自治州,马师校,NA,NA,12,18,9,6,60,60,74,74,NA,5,7,6,0.4,0.3
2026-04-27T1900,3994A,102.2174,31.9016,阿坝藏族羌族自治州,马尔康中学西区,,22,17,16,8,6,69,69,73,73,6,6,5,4,0.4,0.3
2026-04-27T1900,2695A,80.2899,41.1684,阿克苏地区,电视台,细颗粒物(PM2.5),140,112,163,104,62,111,111,109,109,5,27,3,3,0.2,0.5
2026-04-27T1900,2696A,80.2592,41.1541,阿克苏地区,艺术中心,颗粒物(PM10),90,105,153,45,69,103,103,107,107,19,38,4,4,0.3,0.7
2026-04-27T1900,2205A,105.699,38.8409,阿拉善盟,蒙二幼,颗粒物(PM10),123,178,295,57,79,119,119,104,104,7,3,10,8,0.5,0.4
2026-04-27T1900,2206A,105.7198,38.8508,阿拉善盟,环保局新楼,颗粒物(PM10),125,185,272,36,59,116,116,99,99,5,4,9,8,0.6,0.6
2026-04-27T1900,2708A,88.1266,47.8515,阿勒泰地区,市站,,38,12,14,3,2,120,120,117,117,7,5,4,4,0.3,0.3
2026-04-27T1900,4166A,88.1198,47.7931,阿勒泰地区,阿勒泰路33号,,38,15,17,3,2,120,120,114,114,4,7,7,7,0.2,0.2
2026-04-27T1900,2630A,80.1171,32.4999,阿里地区,阿里监测站,,34,9,14,3,2,106,106,115,115,2,5,6,6,0.3,0.4
2026-04-27T1900,3192A,80.0906,32.5029,阿里地区,阿里藏医院,,37,6,11,3,3,118,118,126,126,1,3,7,8,0.3,0.3
2026-04-27T1900,2644A,109.0088,32.6974,安康市,汉滨区检察院,,46,46,52,18,27,85,85,78,78,13,14,6,13,0.5,0.4
2026-04-27T1900,4054A,109.0324,32.6913,安康市,市邮政管理局,颗粒物(PM10),55,56,62,24,32,92,92,81,81,13,17,4,23,0.7,0.6
2026-04-27T1900,2291A,117.0806,30.5181,安庆市,环科院,颗粒物(PM10),69,76,51,35,26,85,85,102,102,46,36,8,8,0.6,0.5
2026-04-27T1900,2292A,117.0331,30.5118,安庆市,马山宾馆,颗粒物(PM10),65,71,48,37,27,93,93,102,102,35,37,7,7,0.7,0.5
2026-04-27T1900,2294A,116.9897,30.6146,安庆市,安庆大学,细颗粒物(PM2.5),60,61,51,40,25,97,97,110,110,8,19,6,7,0.5,0.4
2026-04-27T1900,3173A,117.0598,30.5351,安庆市,市人大,颗粒物(PM10),72,80,54,42,27,115,115,120,120,18,24,6,9,0.6,0.5
2026-04-27T1900,3123A,105.9408,26.2431,安顺市,凤凰山,,25,17,28,12,21,79,79,97,84,10,8,6,7,0.8,0.7
2026-04-27T1900,3124A,105.9443,26.2567,安顺市,金钟山,,23,18,27,14,21,71,71,88,75,7,6,5,6,0.8,0.7
2026-04-27T1900,3125A,105.8983,26.248,安顺市,娄家坡,,29,22,26,20,23,75,75,93,80,10,6,13,6,1.0,0.9
2026-04-27T1900,1819A,114.3552,36.1017,安阳市,红庙街,颗粒物(PM10),129,195,126,35,47,115,115,116,116,13,17,3,4,0.2,0.3
2026-04-27T1900,1820A,114.361,36.0681,安阳市,银杏小区,颗粒物(PM10),137,215,139,31,52,120,120,122,122,12,16,5,6,0.2,0.5
2026-04-27T1900,3141A,114.3921,36.0879,安阳市,信访局,颗粒物(PM10),127,188,116,27,49,119,119,122,122,8,12,2,3,0.3,0.6
2026-04-27T1900,3669A,114.4706,36.0634,安阳市,左辅环卫站,颗粒物(PM10),131,199,143,41,50,98,98,113,113,15,14,3,2,0.4,0.5
2026-04-27T1900,4117A,114.2918,36.0769,安阳市,钢三路198号,颗粒物(PM10),127,190,113,42,50,113,113,114,114,12,15,2,3,0.4,0.6
2026-04-27T1900,1748A,123.0441,41.1201,鞍山市,深沟寺,,27,23,28,6,12,84,84,88,87,13,19,10,10,0.5,0.6
2026-04-27T1900,1749A,123.011,41.0931,鞍山市,太阳城,,29,16,21,6,12,91,91,91,90,8,12,7,8,0.4,0.5
2026-04-27T1900,1750A,123.0483,41.1445,鞍山市,太平,,29,26,40,9,17,90,90,92,90,12,22,8,8,0.7,0.8
2026-04-27T1900,1751A,122.964,41.0968,鞍山市,铁西三道街,,31,31,35,8,17,87,87,82,77,13,24,7,13,0.6,1.2
2026-04-27T1900,1753A,123.0219,41.0822,鞍山市,明达新区,,28,22,27,3,12,89,89,90,88,11,14,7,7,0.5,0.6
2026-04-27T1900,4201A,122.944647,41.082639,鞍山市,兴盛南路290号,,31,31,55,8,18,85,85,89,83,21,37,12,11,1.1,1
2026-04-27T1900,2195A,107.4206,40.7609,巴彦淖尔市,附二中,,44,44,244,15,69,100,100,103,103,15,5,16,12,0.4,0.4
2026-04-27T1900,2196A,107.37,40.7372,巴彦淖尔市,市环保大楼,,44,44,205,15,50,110,110,110,110,8,5,8,7,0.3,0.3
2026-04-27T1900,1956A,86.1476,41.7529,巴音郭楞蒙古自治州,孔雀公园,颗粒物(PM10),61,65,140,29,47,113,113,110,110,2,13,3,3,0.2,0.3
2026-04-27T1900,1957A,86.1971,41.7166,巴音郭楞蒙古自治州,棉纺厂,NA,NA,76,170,NA,68,124,124,118,118,2,12,/,/,/,/
2026-04-27T1900,1958A,86.236,41.7172,巴音郭楞蒙古自治州,经济开发区,NA,NA,NA,138,24,75,113,113,106,106,4,5,8,8,0.3,0.3
2026-04-27T1900,3181A,106.776805,31.852614,巴中市,市五中,,48,48,60,25,35,13,13,18,18,31,26,9,9,0.9,0.9
2026-04-27T1900,3183A,106.7419,31.8654,巴中市,圣泉水务公司,,36,36,38,20,24,26,26,39,29,18,16,9,10,0.8,0.7
2026-04-27T1900,3616A,106.7617,31.8343,巴中市,市中心医院,,43,43,56,25,36,18,18,25,24,26,22,10,10,0.8,0.8
2026-04-27T1900,2235A,122.7909,45.608,白城市,洮北区环保局,NA,NA,NA,36,NA,14,102,102,102,102,NA,17,NA,5,0.4,0.1
2026-04-27T1900,2236A,122.8741,45.5725,白城市,市环保局,,30,19,24,12,10,93,93,94,94,14,16,7,5,0.4,0.3
2026-04-27T1900,2231A,126.4219,41.9172,白山市,喜丰,,31,31,30,3,9,90,90,94,94,12,15,7,7,0.8,0.9
2026-04-27T1900,2232A,126.4082,41.9416,白山市,环保局,,30,16,24,3,11,96,96,96,96,6,13,9,9,0.6,0.7
2026-04-27T1900,2647A,104.1727,36.5448,白银市,第三小学,,41,41,55,18,18,88,88,91,91,6,7,4,8,0.3,0.4
2026-04-27T1900,2648A,104.1467,36.5482,白银市,动力公司,,38,38,48,15,17,93,93,98,98,5,7,4,9,0.3,0.3
2026-04-27T1900,2512A,106.6102,23.901,百色市,市监测站,,41,41,59,28,45,98,98,106,106,12,14,11,13,0.8,0.9
2026-04-27T1900,2513A,106.6524,23.8842,百色市,市中心血站,,47,47,61,26,53,110,110,109,109,12,14,13,14,0.8,0.9
2026-04-27T1900,4133A,106.6273,23.8798,百色市,龙景西路,,40,NA,90,28,55,115,115,116,116,13,16,17,16,0.6,0.7
2026-04-27T1900,2270A,117.396,32.9389,蚌埠市,工人疗养院,颗粒物(PM10),80,91,65,47,31,114,114,127,127,17,18,6,6,0.6,0.5
2026-04-27T1900,2271A,117.3606,32.9428,蚌埠市,百货大楼,颗粒物(PM10),80,92,59,43,28,104,104,120,120,14,13,7,7,0.6,0.5
2026-04-27T1900,2273A,117.4183,32.8909,蚌埠市,蚌埠学院,颗粒物(PM10),70,78,57,41,28,123,123,128,128,9,13,6,6,0.6,0.6
2026-04-27T1900,2274A,117.3534,32.9672,蚌埠市,淮上区政府,颗粒物(PM10),80,92,62,45,29,113,113,131,131,16,19,6,6,0.5,0.4
2026-04-27T1900,2275A,117.3143,32.8977,蚌埠市,高新区,颗粒物(PM10),68,75,60,35,31,104,104,114,114,6,9,8,9,0.5,0.5
2026-04-27T1900,3715A,117.3091,32.9314,蚌埠市,蚌埠田家炳中学,颗粒物(PM10),75,84,67,36,31,109,109,119,119,15,17,8,9,0.4,0.4
2026-04-27T1900,1585A,109.8761,40.6533,包头市,市环境监测站,,38,31,199,26,47,106,106,109,109,8,6,5,6,0.3,0.3
2026-04-27T1900,1587A,109.9992,40.5843,包头市,包头八中,,31,26,254,12,49,97,97,102,102,9,5,6,7,0.3,0.4
2026-04-27T1900,1589A,109.8641,40.6288,包头市,惠龙物流,,32,19,171,6,32,100,100,103,103,7,5,5,5,0.4,0.3
2026-04-27T1900,1590A,110.0376,40.5546,包头市,东河鸿龙湾,,36,36,174,3,50,101,101,107,107,9,8,11,11,0.4,0.4
2026-04-27T1900,3283A,109.9154,40.5684,包头市,滨河大厦,,41,41,209,13,45,100,100,105,105,6,7,9,9,0.4,0.4
2026-04-27T1900,3419A,109.9449,40.6259,包头市,包头市委党校,,32,27,228,3,47,101,101,104,104,5,5,5,6,0.3,0.1
2026-04-27T1900,3683A,109.8332,40.6577,包头市,昆区政府,,33,26,187,6,32,105,105,106,106,9,7,2,2,0.4,0.4
2026-04-27T1900,1931A,107.0802,34.3129,宝鸡市,竹园沟,,48,48,58,9,15,74,74,94,94,12,11,8,8,0.4,0.4
2026-04-27T1900,1933A,107.1429,34.3549,宝鸡市,监测站,颗粒物(PM10),68,75,69,15,26,103,103,104,104,14,17,6,6,0.3,0.3
2026-04-27T1900,1934A,107.1172,34.3759,宝鸡市,技工学校,颗粒物(PM10),57,59,60,15,25,112,112,104,104,8,11,4,5,0.3,0.5
2026-04-27T1900,1936A,107.2025,34.3518,宝鸡市,文理学院,颗粒物(PM10),65,70,68,15,25,109,109,104,104,15,17,6,6,0.3,0.4
2026-04-27T1900,1937A,107.2396,34.3626,宝鸡市,三迪小学,颗粒物(PM10),68,75,72,25,29,96,96,102,102,24,22,6,7,0.4,0.5
2026-04-27T1900,4155A,107.1721,34.3558,宝鸡市,滨河北路,,49,49,66,21,30,106,106,99,99,13,15,7,10,0.4,0.6
2026-04-27T1900,4308A,107.3898,34.3601,宝鸡市,陈仓区北开路21号,颗粒物(PM10),73,82,74,22,28,93,93,99,99,27,17,8,9,0.4,0.4
2026-04-27T1900,1051A,115.4803,38.8568,保定市,游泳馆,,42,42,49,14,16,112,112,107,107,9,13,3,3,0.1,0.1
2026-04-27T1900,1052A,115.509,38.8895,保定市,华电二区,,36,34,46,10,11,114,114,108,108,11,15,3,3,0.1,0.2
2026-04-27T1900,1053A,115.4588,38.9037,保定市,接待中心,,40,40,50,14,13,95,95,92,92,11,13,3,3,0.0,0.1
2026-04-27T1900,1054A,115.4484,38.8344,保定市,地表水厂,,47,47,75,20,15,110,110,106,106,13,17,1,3,0,0.1
2026-04-27T1900,3581A,115.3136,38.9511,保定市,满城区生态环境分局,,34,29,70,7,12,107,107,110,110,5,11,3,2,0.1,0.2
2026-04-27T1900,3582A,115.4709,38.7628,保定市,清苑区第二中学,颗粒物(PM10),58,61,76,26,20,105,105,108,108,6,16,3,4,0.3,0.3
2026-04-27T1900,3583A,115.6231,39.0223,保定市,徐水物探局,,42,42,59,11,14,100,100,106,106,13,19,1,2,0.4,0.4
2026-04-27T1900,4004A,115.4199,38.8665,保定市,双鹰农机,,42,30,54,29,17,113,113,110,110,5,12,3,2,0,0.1
2026-04-27T1900,4034A,115.515,38.8589,保定市,植保所站,颗粒物(PM10),53,54,60,18,11,112,112,109,109,10,13,3,3,0.3,0.2
2026-04-27T1900,2594A,99.1589,25.1137,保山市,市环境监测站,,36,29,35,19,27,115,115,114,114,7,8,6,6,0.4,0.4
2026-04-27T1900,2595A,99.1616,25.1381,保山市,市环保局,,36,35,35,25,32,115,115,114,114,4,6,7,7,0.4,0.5
2026-04-27T1900,1867A,109.1435,21.4085,北海市,海滩公园,,22,13,35,13,17,70,70,76,76,13,7,7,6,0.9,0.8
2026-04-27T1900,1868A,109.0983,21.466,北海市,新市环保局,,20,20,19,8,11,62,62,79,77,17,7,3,5,0.8,0.6
2026-04-27T1900,1869A,109.1775,21.5232,北海市,北海工业园,,20,16,20,10,12,61,61,76,76,12,6,8,7,0.8,0.8
2026-04-27T1900,3400A,109.1844,21.4396,北海市,龙潭自来水厂,NA,NA,NA,22,5,9,62,62,66,66,NA,4,6,7,NA,0.9
2026-04-27T1900,1001A,116.3611,39.8786,北京市,万寿西宫,,30,16,37,3,10,93,93,94,94,9,18,2,3,0.2,0.3
2026-04-27T1900,1003A,116.4174,39.9289,北京市,东四,NA,NA,NA,41,NA,13,NA,NA,116,NA,NA,16,NA,2,NA,0.2
2026-04-27T1900,1004A,116.4073,39.8858,北京市,天坛,,29,19,35,3,10,90,90,91,91,13,21,3,4,0,0
2026-04-27T1900,1005A,116.4622,39.9364,北京市,农展馆,,30,18,38,3,8,93,93,94,94,7,19,3,4,0.2,0.4
2026-04-27T1900,1006A,116.3399,39.9293,北京市,官园,,27,16,36,3,10,85,85,87,87,11,19,1,2,0.0,0.1
2026-04-27T1900,1007A,116.2879,39.9613,北京市,海淀万柳,,25,15,39,3,10,77,77,79,79,16,23,3,4,0.2,0.3
2026-04-27T1900,1008A,116.6635,40.1349,北京市,顺义新城,,30,18,41,10,11,93,93,94,94,6,14,1,2,0.3,0.5
2026-04-27T1900,1009A,116.6275,40.327,北京市,怀柔镇,,30,12,31,3,9,95,95,92,92,2,13,4,4,0.2,0.3
2026-04-27T1900,1010A,116.2295,40.217,北京市,昌平镇,,30,11,40,3,11,93,93,93,93,10,15,2,3,0.1,0.2
2026-04-27T1900,1011A,116.3968,39.982,北京市,奥体中心,,27,15,35,3,11,85,85,85,85,11,21,3,4,0.1,0.2
2026-04-27T1900,3418A,116.8336,40.4095,北京市,密云新城,,27,9,31,3,10,86,86,88,88,5,12,3,4,0.1,0.2
2026-04-27T1900,3671A,116.0879,39.9725,北京市,门头沟三家店,,28,12,43,3,13,89,89,88,88,5,13,2,2,0.1,0.2
2026-04-27T1900,3672A,116.1507,39.8246,北京市,丰台云岗,,30,14,42,3,9,95,95,97,97,10,16,3,2,0.1,0.3
2026-04-27T1900,3674A,115.9578,39.7602,北京市,房山燕山,,28,12,44,3,12,88,88,87,87,3,10,3,3,0.2,0.2
2026-04-27T1900,3675A,116.4669,39.7734,北京市,大兴旧宫,,30,13,35,3,9,93,93,95,95,12,22,3,3,0.2,0.4
2026-04-27T1900,3694A,115.9859,40.4562,北京市,延庆石河营,,30,6,37,3,14,96,96,93,93,6,10,1,2,0.3,0.4
2026-04-27T1900,3695A,116.6151,40.3052,北京市,怀柔新城,,30,9,30,3,12,93,93,93,93,9,14,3,4,0.2,0.3
2026-04-27T1900,3696A,116.2542,39.8764,北京市,丰台小屯,,27,14,36,3,11,85,85,86,86,7,16,2,2,0.1,0.2
2026-04-27T1900,3697A,116.8399,40.3843,北京市,密云镇,,28,10,32,3,9,88,88,91,91,10,16,5,6,0.2,0.3
2026-04-27T1900,4057A,115.9423,40.4431,北京市,延庆百泉,,30,7,42,3,14,94,94,94,94,8,9,1,1,0.3,0.4
2026-04-27T1900,4058A,116.6598,39.9164,北京市,通州新华,,30,25,48,3,12,95,95,90,90,11,28,3,4,0.3,0.4
2026-04-27T1900,4182A,116.1942,39.9158,北京市,石景山八角,,28,15,45,3,11,88,88,86,86,11,18,2,3,0.1,0.2
2026-04-27T1900,4194A,117.078628,40.151726,北京市,平谷新城,,28,17,37,3,11,89,89,89,89,5,5,1,2,0.2,0.3
2026-04-27T1900,1761A,123.8274146,41.31234549,本溪市,大峪,,31,8,20,3,10,97,97,97,96,3,18,6,7,0.3,0.4
2026-04-27T1900,1763A,123.7169,41.3094,本溪市,彩屯,,30,26,36,3,18,94,94,98,96,7,22,9,10,0.4,0.6
2026-04-27T1900,1764A,123.7672166,41.28649327,本溪市,东明,,33,33,39,3,11,94,94,94,93,9,27,4,5,0.4,0.6
2026-04-27T1900,1765A,123.799345,41.266614,本溪市,新立屯,,32,15,27,3,7,100,100,102,101,4,22,8,8,0.4,0.5
2026-04-27T1900,1766A,123.829144,41.336777,本溪市,威宁,,30,18,30,3,11,95,95,98,97,7,21,7,7,0.4,0.6
2026-04-27T1900,2587A,105.287,27.3133,毕节市,八中,,27,17,30,10,18,84,84,84,84,5,10,7,8,0.5,0.7
2026-04-27T1900,2588A,105.3079,27.2987,毕节市,师专,,26,NA,24,13,16,82,82,79,79,6,10,10,10,0.4,0.5
2026-04-27T1900,4263A,105.3688,27.3598,毕节市,工业大道,,29,NA,16,11,12,92,92,89,89,4,8,10,10,/,/
2026-04-27T1900,1629A,117.9961,37.3604,滨州市,第二水厂,颗粒物(PM10),67,73,89,11,38,104,104,111,111,15,18,7,8,0.5,0.7
2026-04-27T1900,1630A,117.9789,37.3931,滨州市,北中新校,颗粒物(PM10),53,53,86,8,29,108,108,115,115,21,23,11,11,0.3,0.4
2026-04-27T1900,3514A,117.9379,37.3959,滨州市,中海酒店,,46,46,73,8,28,114,114,120,120,21,24,9,9,0.2,0.4
2026-04-27T1900,3515A,117.9381509,37.35547456,滨州市,开发区一中,颗粒物(PM10),63,68,94,7,42,101,101,109,109,16,23,10,12,0.6,0.8
2026-04-27T1900,3516A,118.0914,37.6938,滨州市,金海六路,,46,46,64,26,27,116,116,118,118,12,18,8,8,0.6,0.7
2026-04-27T1900,4028A,117.9955,37.3752,滨州市,滨州市西街道办事处,颗粒物(PM10),56,58,85,13,33,110,110,116,116,14,17,5,6,0.4,0.5
2026-04-27T1900,2311A,115.8071,33.8399,亳州市,污水处理厂,细颗粒物(PM2.5),88,94,58,54,35,128,128,128,128,8,14,7,8,0.2,0.2
2026-04-27T1900,2312A,115.7789,33.8519,亳州市,三国揽胜宫,颗粒物(PM10),79,90,64,45,34,133,133,126,126,9,13,6,7,0.3,0.3
2026-04-27T1900,3332A,115.7631,33.803,亳州市,亳州学院,颗粒物(PM10),93,110,61,53,34,135,135,128,128,7,10,7,8,0.3,0.3
2026-04-27T1900,2693A,82.0482,44.8553,博尔塔拉蒙古自治州,市党校,,45,26,33,3,7,142,142,137,137,5,7,3,2,0.1,0.2
2026-04-27T1900,2694A,82.0805,44.8966,博尔塔拉蒙古自治州,市环保局,,42,27,32,3,7,134,134,128,128,6,16,4,3,0.3,0.4
2026-04-27T1900,1071A,116.8733,38.2922,沧州市,沧县城建局,颗粒物(PM10),86,100,56,42,16,101,101,109,109,24,28,3,4,0.5,0.5
2026-04-27T1900,1072A,116.8462,38.3189,沧州市,电视转播站,颗粒物(PM10),73,82,52,19,16,110,110,116,116,18,27,3,6,0.3,0.3
2026-04-27T1900,1073A,116.8588,38.3161,沧州市,市环保局,颗粒物(PM10),80,91,61,38,16,107,107,115,115,18,29,6,6,0.3,0.5
2026-04-27T1900,3324A,116.8011,38.294,沧州市,河北水利电力学院,颗粒物(PM10),60,63,50,27,20,103,103,105,105,15,25,6,7,0.3,0.3
2026-04-27T1900,2622A,97.1813,31.1289,昌都市,昌都监测站,,30,14,20,3,4,94,94,97,97,10,7,11,11,1.0,0.8
2026-04-27T1900,3719A,97.1707,31.1428,昌都市,昌都会议中心,,32,11,8,3,4,100,100,100,100,4,4,6,6,0.4,0.4
2026-04-27T1900,2692A,87.2722,44.0298,昌吉回族自治州,新区政务中心,,43,NA,17,11,10,135,135,130,130,10,17,8,6,0.3,0.4
2026-04-27T1900,3613A,87.3069,44.0093,昌吉回族自治州,亚心广场,,48,NA,26,11,10,152,152,142,142,5,20,8,7,0.3,0.5
2026-04-27T1900,4164A,87.2057,43.9289,昌吉回族自治州,财政所,,44,19,24,3,6,139,139,133,133,8,12,8,8,0.2,0.3
2026-04-27T1900,1120A,125.2874,43.9024,长春市,客车厂,,25,22,29,9,15,77,77,83,83,17,31,6,7,0.3,0.4
2026-04-27T1900,1121A,125.2943,43.8508,长春市,邮电学院,,28,23,26,9,15,87,87,90,90,10,20,6,6,0.5,0.5
2026-04-27T1900,1122A,125.3648,43.8745,长春市,劳动公园,,25,24,33,12,16,78,78,88,88,19,27,6,7,0.5,0.6
2026-04-27T1900,1123A,125.3233,43.8781,长春市,园林处,,27,18,30,11,17,85,85,89,89,12,22,6,7,0.3,0.4
2026-04-27T1900,1124A,125.4604,43.7904,长春市,净月潭,,27,16,16,10,10,86,86,92,92,8,9,5,8,0.3,0.3
2026-04-27T1900,1126A,125.38,43.8422,长春市,经开区环卫处,,26,23,33,11,15,83,83,89,89,14,33,4,5,0.3,0.5
2026-04-27T1900,1127A,125.234,43.7761,长春市,高新区管委会,,26,18,28,8,15,81,81,84,84,12,26,7,8,0.2,0.3
2026-04-27T1900,1128A,125.1695,43.83,长春市,岱山公园,,24,20,31,8,15,74,74,90,89,27,36,4,4,0.3,0.3
2026-04-27T1900,4281A,125.334645,43.916281,长春市,北亚泰大街1068号,,26,22,34,13,19,83,83,88,88,14,28,5,5,0.4,0.4
2026-04-27T1900,1335A,113.082,28.2421,长沙市,经开区环保局,细颗粒物(PM2.5),68,57,74,44,40,86,86,122,120,20,30,3,8,0.6,0.6
2026-04-27T1900,1336A,112.8873,28.2202,长沙市,高开区环保局,细颗粒物(PM2.5),76,NA,74,48,43,90,90,113,110,16,34,6,8,0.6,0.6
2026-04-27T1900,1337A,113.0785,28.2012,长沙市,马坡岭,细颗粒物(PM2.5),72,48,80,46,45,86,86,134,130,17,35,7,8,0.9,0.8
2026-04-27T1900,1338A,112.9448,28.1894,长沙市,湖南师范大学,细颗粒物(PM2.5),60,62,68,40,37,90,90,125,122,14,23,6,8,0.8,0.7
2026-04-27T1900,1339A,113.0177,28.1322,长沙市,雨花区环保局,细颗粒物(PM2.5),76,53,64,48,37,86,86,131,127,15,19,4,7,0.8,0.7
2026-04-27T1900,1340A,112.9795,28.2593,长沙市,伍家岭,细颗粒物(PM2.5),84,73,102,52,52,66,66,105,101,21,39,4,6,0.6,0.7
2026-04-27T1900,1341A,113.002,28.1944,长沙市,火车新站,细颗粒物(PM2.5),80,62,83,50,35,75,75,134,122,23,40,4,6,0.7,0.6
2026-04-27T1900,1342A,112.9846,28.1177,长沙市,天心区环保局,细颗粒物(PM2.5),78,54,66,49,36,99,99,134,131,17,27,5,8,0.8,0.6
2026-04-27T1900,1343A,112.8906,28.1307,长沙市,湖南中医药大学,细颗粒物(PM2.5),74,48,78,47,45,90,90,128,124,16,42,5,8,0.8,0.8
2026-04-27T1900,1727A,113.1146,36.1547,长治市,清华站,NA,NA,NA,87,NA,29,NA,NA,118,118,18,18,8,10,0.3,0.6
2026-04-27T1900,1730A,113.0887,36.2126,长治市,审计局,颗粒物(PM10),77,87,92,37,28,115,115,116,116,13,17,12,11,0.4,0.5
2026-04-27T1900,1731A,113.0845,36.1856,长治市,长治八中,颗粒物(PM10),89,104,114,28,30,106,106,113,112,15,26,11,11,0.5,0.5
2026-04-27T1900,2845A,113.1561,36.1912,长治市,德盛苑,颗粒物(PM10),68,75,87,21,28,118,118,123,123,11,13,8,10,0.3,0.6
2026-04-27T1900,3568A,113.0603,36.0464,长治市,向阳小学,颗粒物(PM10),129,194,128,41,28,116,116,121,121,30,25,8,10,0.5,0.8
2026-04-27T1900,3569A,112.8788,36.315,长治市,屯留一中,颗粒物(PM10),83,96,104,18,32,111,111,116,116,12,26,8,10,0.1,0.9
2026-04-27T1900,4189A,113.113092,36.199482,长治市,英华南巷50号,颗粒物(PM10),88,102,107,44,27,112,112,118,118,11,14,7,9,0.3,0.6
2026-04-27T1900,4190A,113.23666,36.33435,长治市,学府街1号,颗粒物(PM10),100,120,101,47,22,132,132,114,114,11,17,7,11,0.8,0.9
2026-04-27T1900,1854A,111.696,28.9725,常德市,市二中,,30,30,37,18,23,96,96,86,86,6,7,8,8,0.9,0.9
2026-04-27T1900,3138A,111.7152,29.0288,常德市,武陵区永安,,31,28,40,18,22,99,99,92,92,9,11,5,6,0.5,0.6
2026-04-27T1900,3139A,111.6891,28.9881,常德市,鼎城区玉霞,,32,27,38,17,23,101,101,90,90,4,9,8,9,0.7,0.7
2026-04-27T1900,3140A,111.6651,29.0526,常德市,武陵区长庚,,32,26,39,15,23,101,101,89,89,4,7,8,9,0.7,0.7
2026-04-27T1900,1196A,119.9524,31.7586,常州市,市监测站,颗粒物(PM10),64,69,90,26,39,109,109,169,160,27,29,9,8,0.9,0.8
2026-04-27T1900,1200A,119.9351,31.703,常州市,武进监测站,颗粒物(PM10),56,58,80,26,37,106,106,159,151,25,24,13,7,0.8,0.6
2026-04-27T1900,3002A,119.9701,31.813,常州市,行政中心,颗粒物(PM10),63,67,76,26,39,106,106,157,151,24,31,8,9,0.4,0.4
2026-04-27T1900,3003A,120.0434,31.7726,常州市,经开区,颗粒物(PM10),60,64,95,23,41,120,120,175,169,16,31,4,6,0.8,0.8
2026-04-27T1900,3010A,119.8919,31.7892,常州市,钟楼,颗粒物(PM10),56,58,73,32,38,115,115,178,170,36,28,11,10,0.5,0.5
2026-04-27T1900,3429A,119.8595,31.706,常州市,武进经发区,颗粒物(PM10),61,65,76,30,42,110,110,173,166,26,30,11,13,0.9,0.7
2026-04-27T1900,3430A,119.5812,31.7256,常州市,金坛城区,颗粒物(PM10),58,60,62,32,35,108,108,150,145,19,17,14,13,1.1,0.9
2026-04-27T1900,4089A,119.9551,31.863,常州市,崇义南街5-H号,颗粒物(PM10),79,90,84,32,41,111,111,170,164,23,30,10,9,0.8,0.8
2026-04-27T1900,2220A,120.4318,41.588,朝阳市,西梁,,29,20,31,7,15,92,92,97,97,14,21,9,13,0.2,0.3
2026-04-27T1900,2221A,120.452,41.565,朝阳市,河畔小区,,31,19,25,8,11,98,98,98,98,13,15,7,10,0.3,0.3
2026-04-27T1900,2222A,120.4176,41.5648,朝阳市,八里堡,,32,32,37,19,18,97,97,98,98,15,23,7,11,0.6,0.6
2026-04-27T1900,3026A,116.6179,23.6608,潮州市,市政府,颗粒物(PM10),53,53,50,29,29,106,106,146,143,11,10,3,4,0.6,0.6
2026-04-27T1900,4036A,116.646,23.676,潮州市,金山,,40,40,44,27,26,111,111,134,134,7,9,3,3,0.4,0.4
2026-04-27T1900,2473A,113.0116,25.8228,郴州市,市职中,细颗粒物(PM2.5),56,48,50,38,36,123,123,136,132,13,24,6,6,0.8,0.7
2026-04-27T1900,2475A,113.0381,25.8074,郴州市,市审计局,细颗粒物(PM2.5),62,45,51,41,35,98,98,115,110,18,27,3,4,/,/
2026-04-27T1900,2476A,113.0348,25.7757,郴州市,市环保局,"颗粒物(PM10),细颗粒物(PM2.5)",52,52,49,36,33,115,115,124,117,12,20,6,6,0.7,0.6
2026-04-27T1900,4252A,113.0138,25.8011,郴州市,好美居路49号,细颗粒物(PM2.5),60,48,56,40,27,121,121,137,131,13,37,8,8,/,/
2026-04-27T1900,1431A,103.9727,30.7242,成都市,金泉两河,,36,36,61,13,42,89,89,86,86,19,20,3,4,0.3,0.4
2026-04-27T1900,1432A,104.1423,30.6765,成都市,十里店,颗粒物(PM10),55,57,70,20,41,92,92,93,93,18,21,4,5,0.5,0.6
2026-04-27T1900,1433A,104.0594,30.5765,成都市,三瓦窑,颗粒物(PM10),61,65,65,26,41,60,60,67,67,40,26,3,4,0.8,0.8
2026-04-27T1900,1434A,104.1122,30.6306,成都市,沙河铺,,45,45,62,18,38,84,84,72,72,24,28,3,3,0.5,0.6
2026-04-27T1900,2880A,104.0219,30.6561,成都市,大石西路,,46,46,67,19,43,91,91,80,80,17,19,4,4,0.5,0.6
2026-04-27T1900,3136A,104.2724,30.559,成都市,龙泉驿区区政府,,46,46,47,14,35,100,100,72,72,14,14,7,8,0.5,0.6
2026-04-27T1900,3357A,104.0028,30.6891,成都市,金博路,,31,31,58,19,40,46,46,72,68,37,26,5,6,0.7,0.7
2026-04-27T1900,3359A,104.056,30.5228,成都市,华阳,,41,41,54,23,38,54,54,64,64,30,22,4,5,0.8,0.7
2026-04-27T1900,3488A,104.387954,30.746684,成都市,青石路225号,NA,NA,58,55,18,36,69,69,87,87,28,22,5,6,NA,0.8
2026-04-27T1900,3489A,104.0788,30.4054,成都市,科学城,,32,NA,46,22,33,92,92,72,72,12,14,4,6,0.7,0.6
2026-04-27T1900,4011A,103.8505,30.6946,成都市,光华大道三段,,32,31,66,12,40,101,101,90,90,8,10,4,6,0.4,0.5
2026-04-27T1900,4144A,104.3257,30.6406,成都市,八角井街185号,,44,44,60,12,34,99,99,71,71,8,17,6,6,0.5,0.6
2026-04-27T1900,4224A,104.2433276,30.53529463,成都市,鲸龙路1057号,,31,26,53,8,36,98,98,72,72,17,20,6,7,0.6,0.6
2026-04-27T1900,1062A,117.9531,40.908,承德市,铁路,,28,12,32,3,13,89,89,83,83,5,11,1,3,0.2,0.3
2026-04-27T1900,1063A,117.9397,40.9763,承德市,中国银行,,26,6,32,3,14,81,81,78,78,8,10,3,2,0.3,0.3
2026-04-27T1900,4073A,117.9462,40.95,承德市,杏林街1号,,29,NA,28,12,16,91,91,84,84,6,9,1,2,0.3,0.3
2026-04-27T1900,4274A,117.7994,40.9605,承德市,滨河大街98号,,30,9,21,9,14,94,94,88,88,4,7,2,3,0.2,0.3
2026-04-27T1900,2314A,117.4698,30.6617,池州市,池州学院,颗粒物(PM10),65,70,51,37,27,129,129,131,131,22,25,6,6,0.5,0.9
2026-04-27T1900,3237A,117.4918,30.6617,池州市,展览馆,颗粒物(PM10),73,82,55,36,26,85,85,127,123,34,26,4,4,0.7,0.8
2026-04-27T1900,3333A,117.5626,30.695,池州市,第八中学,颗粒物(PM10),73,82,55,40,28,93,93,122,122,45,30,7,6,0.3,0.4
2026-04-27T1900,3334A,117.5037,30.6242,池州市,第十二中学,颗粒物(PM10),83,96,57,51,29,75,75,122,121,63,37,8,6,0.9,1
2026-04-27T1900,1744A,118.9229,42.2816,赤峰市,松山一中,,23,6,19,3,11,72,72,82,81,20,20,7,14,0.6,0.6
2026-04-27T1900,1745A,118.9588,42.2733,赤峰市,哈达街,,22,6,26,3,13,69,69,74,74,10,17,9,20,0.6,0.7
2026-04-27T1900,1746A,118.8792,42.2551,赤峰市,天义路,NA,NA,NA,14,15,12,71,71,84,79,NA,19,5,14,0.4,0.5
2026-04-27T1900,3058A,119.2656,42.0356,赤峰市,银河街,,26,11,19,6,13,82,82,95,88,9,10,6,8,0.8,0.7
2026-04-27T1900,3286A,118.9359,42.3146,赤峰市,桥北物流园区,,21,19,24,10,12,66,66,84,81,11,10,4,8,0.7,0.6
2026-04-27T1900,2521A,107.3473,22.4137,崇左市,市环保局江州分局,,28,24,39,12,27,88,88,105,105,6,8,5,5,0.8,0.7
2026-04-27T1900,4256A,107.375,22.3736,崇左市,石景林东路7号,NA,NA,NA,32,NA,26,NA,NA,111,111,NA,10,NA,2,NA,0.6
2026-04-27T1900,3207A,118.31131,32.3033,滁州市,市政府原办公楼,NA,NA,54,49,41,40,100,100,113,112,NA,22,NA,8,0.5,0.6
2026-04-27T1900,3331A,118.3268,32.2633,滁州市,图书馆,颗粒物(PM10),55,57,52,27,26,103,103,123,121,14,24,10,11,0.6,0.7
2026-04-27T1900,4101A,118.3196,32.3335,滁州市,银山路666号,颗粒物(PM10),59,62,59,29,20,96,96,119,115,13,28,7,8,0.4,0.4
2026-04-27T1900,4102A,118.3426,32.2979,滁州市,黄山路555号,颗粒物(PM10),66,72,73,33,36,109,109,128,126,11,27,7,8,0.6,0.7
2026-04-27T1900,2606A,101.5379,25.0492,楚雄彝族自治州,市经济开发区,,31,24,38,19,26,98,98,127,121,10,9,2,2,0.5,0.4
2026-04-27T1900,4153A,101.5536,25.0343,楚雄彝族自治州,团结路562号,,34,16,33,13,26,107,107,133,126,6,6,4,4,0.4,0.4
2026-04-27T1900,2549A,107.5087,31.2186,达州市,市环境监测站,颗粒物(PM10),60,64,69,30,39,28,28,40,38,39,38,10,8,0.5,0.6
2026-04-27T1900,2550A,107.4988,31.2132,达州市,凤凰小区,颗粒物(PM10),56,58,72,29,41,39,39,49,48,32,36,10,7,0.4,0.4
2026-04-27T1900,2551A,107.5081,31.1987,达州市,达县机关宾馆,颗粒物(PM10),63,68,74,28,49,22,22,37,37,44,42,8,6,0.5,0.6
2026-04-27T1900,2552A,107.4644,31.2124,达州市,市政中心,颗粒物(PM10),65,71,74,25,40,37,37,54,54,37,36,8,7,0.5,0.6
2026-04-27T1900,2614A,100.2168,25.5818,大理白族自治州,大理市环境监测站,NA,NA,NA,30,NA,26,88,88,112,105,NA,10,4,4,0.7,0.6
2026-04-27T1900,2615A,100.1542,25.7055,大理白族自治州,大理古城,,33,28,31,23,25,91,91,118,113,18,7,4,3,0.8,0.7
2026-04-27T1900,1109A,121.6119,38.974,大连市,甘井子,,29,21,54,10,28,92,92,89,89,17,18,9,10,0.7,0.6
2026-04-27T1900,1110A,121.565,38.9509,大连市,周水子,,30,30,52,15,27,91,91,87,87,17,20,7,6,0.5,0.7
2026-04-27T1900,1111A,121.5637,38.8849,大连市,星海三站,,30,26,42,20,24,95,95,90,90,15,14,5,5,0.5,0.5
2026-04-27T1900,1112A,121.6301,38.9117,大连市,青泥洼桥,,29,23,50,12,27,92,92,88,88,17,16,5,5,0.7,0.7
2026-04-27T1900,1113A,121.6248,38.8643,大连市,傅家庄,,27,24,42,12,23,85,85,87,84,15,10,8,9,0.6,0.6
2026-04-27T1900,1114A,121.5117,38.8636,大连市,七贤岭,,31,20,48,11,22,97,97,92,92,11,12,5,6,0.6,0.7
2026-04-27T1900,1116A,121.7507,39.1339,大连市,金州,,28,21,47,12,25,88,88,86,86,16,13,8,6,0.5,0.5
2026-04-27T1900,1117A,121.7811,39.0495,大连市,开发区,,29,29,48,13,23,88,88,93,93,24,18,8,7,0.5,0.5
2026-04-27T1900,1118A,121.9762,39.0631,大连市,双D港,,27,23,37,14,23,85,85,93,92,19,13,5,5,0.4,0.5
2026-04-27T1900,4082A,121.2548,38.8188,大连市,旅顺,,26,26,47,12,24,83,83,89,88,18,12,7,8,0.5,0.5
2026-04-27T1900,1789A,124.8085,46.0381,大庆市,大同区,,29,22,25,12,15,92,92,100,100,7,11,1,2,0.5,0.6
2026-04-27T1900,1790A,125.1166,46.5255,大庆市,龙凤区,,32,32,28,13,11,82,82,85,85,10,12,5,5,0.2,0.2
2026-04-27T1900,1791A,124.8894,46.4007,大庆市,红岗区,,25,21,29,15,14,77,77,84,84,11,15,8,8,0.4,0.5
2026-04-27T1900,1792A,125.1391,46.578,大庆市,萨尔图区,,27,26,18,16,10,86,86,87,87,8,9,7,7,0.4,0.4
2026-04-27T1900,1793A,124.9026,46.6217,大庆市,让胡路区,,25,25,27,12,10,76,76,84,84,10,10,1,2,0.4,0.3
2026-04-27T1900,3481A,125.127,46.6277,大庆市,萨区政府监测点,NA,NA,19,18,NA,9,87,87,90,90,6,4,8,8,0.3,0.3
2026-04-27T1900,1723A,113.2926,40.0759,大同市,云冈宾馆,,30,25,117,11,39,93,93,97,97,8,8,4,5,0.5,0.4
2026-04-27T1900,1724A,113.3437,40.0921,大同市,大同大学,NA,NA,NA,63,NA,21,NA,NA,96,96,NA,11,4,3,0.3,0.4
2026-04-27T1900,1725A,113.2637,40.129,大同市,安家小村,,30,19,149,10,23,95,95,99,99,9,8,7,8,0.3,0.3
2026-04-27T1900,3282A,113.3399,40.0586,大同市,大同市卫生学校,NA,NA,22,153,12,21,100,100,104,104,NA,11,5,5,0.1,0.3
2026-04-27T1900,3565A,113.1371,40.1122,大同市,云冈站,,30,9,151,3,22,93,93,96,96,5,11,4,5,0.3,0.3
2026-04-27T1900,3566A,113.1186,40.2556,大同市,图书馆,,28,15,152,6,25,87,87,91,91,7,6,5,5,0.4,0.4
2026-04-27T1900,3567A,113.5931,40.0459,大同市,区一中,,32,11,133,7,16,102,102,106,106,6,13,3,2,0.2,0.3
2026-04-27T1900,4199A,113.2798248,40.09972476,大同市,魏都大道141号,,28,23,159,14,25,88,88,94,94,11,11,7,7,0.6,0.4
2026-04-27T1900,2269A,124.1068,50.4091,大兴安岭地区,科技局,NA,NA,26,20,3,7,NA,NA,93,93,4,3,6,6,0.2,0.3
2026-04-27T1900,3663A,124.117,50.4279,大兴安岭地区,红旗社区,,29,9,8,3,7,91,91,103,101,3,4,6,7,0.3,0.3
2026-04-27T1900,1600A,124.33,40.0625,丹东市,江湾东路,,30,15,30,6,17,94,94,99,99,8,14,3,4,0.3,0.5
2026-04-27T1900,1601A,124.4242,40.1513,丹东市,临江后街,,27,12,26,6,15,84,84,91,89,7,11,4,5,0.3,0.4
2026-04-27T1900,1602A,124.3935,40.1461,丹东市,元宝山,,26,16,26,3,15,81,81,83,83,7,12,5,5,0.4,0.5
2026-04-27T1900,1603A,124.3634,40.1093,丹东市,民主桥,,27,22,33,7,18,86,86,89,89,10,15,5,7,0.4,0.5
2026-04-27T1900,3541A,109.5726195,19.51688767,儋州市,第一中学子站,,24,24,16,13,8,63,63,65,65,7,6,4,5,0.6,0.6
2026-04-27T1900,3542A,109.5567,19.5187,儋州市,东坡学校子站,,23,19,18,11,8,73,73,72,72,6,5,3,4,0.6,0.6
2026-04-27T1900,2616A,98.5611,24.4273,德宏傣族景颇族自治州,德宏州监测站,细颗粒物(PM2.5),60,NA,53,40,57,86,86,76,76,10,14,6,7,0.9,1.3
2026-04-27T1900,3677A,98.5887,24.4366,德宏傣族景颇族自治州,芒市人民政府综合楼,颗粒物(PM10),75,85,89,41,57,100,100,86,86,12,17,3,3,1.5,1.5
2026-04-27T1900,1901A,104.424,31.1209,德阳市,东山公园,,32,32,57,10,52,81,81,58,58,19,19,4,5,0.4,0.6
2026-04-27T1900,1902A,104.3827,31.1318,德阳市,西小区,,43,43,75,13,52,71,71,58,58,18,28,4,5,0.5,0.8
2026-04-27T1900,1904A,104.3553,31.1091,德阳市,耐火材料厂,颗粒物(PM10),53,53,73,14,60,78,78,68,68,23,33,2,4,0.4,0.6
2026-04-27T1900,4145A,104.4144,31.1495,德阳市,市林业局,,40,40,64,13,50,84,84,62,62,21,33,3,4,0.4,0.5
2026-04-27T1900,1622A,116.3034,37.4675,德州市,儿童乐园,颗粒物(PM10),58,61,82,3,23,117,117,118,118,12,18,5,9,0.4,0.5
2026-04-27T1900,1624A,116.2992,37.4449,德州市,监理站,颗粒物(PM10),58,61,78,3,21,123,123,120,120,9,16,6,12,0.3,0.4
2026-04-27T1900,3066A,116.2722,37.438,德州市,九衢泉纯净水厂,颗粒物(PM10),51,51,72,3,22,130,130,122,122,12,20,8,10,0.5,0.7
2026-04-27T1900,3371A,116.3693,37.44,德州市,开发区人民医院,颗粒物(PM10),58,61,87,8,29,107,107,113,113,24,23,8,15,0.5,0.6
2026-04-27T1900,3511A,116.5687,37.3331,德州市,陵城艺术中心,颗粒物(PM10),60,63,76,3,26,103,103,107,107,12,18,12,11,0.4,0.5
2026-04-27T1900,4292A,116.352738,37.420875,德州市,新河东路,,48,48,77,3,22,115,115,115,115,13,18,7,11,0.5,0.7
2026-04-27T1900,2621A,99.7054,27.8319,迪庆藏族自治州,迪庆州站,,38,22,20,7,10,120,120,124,124,13,11,7,7,0.4,0.4
2026-04-27T1900,3180A,99.7122,27.8129,迪庆藏族自治州,质量技术监督局,,40,15,15,3,10,126,126,133,131,11,11,8,8,0.5,0.5
2026-04-27T1900,4257A,104.6092,35.5962,定西市,将台街,,41,41,54,18,18,120,120,116,116,5,6,2,4,0.0,0.1
2026-04-27T1900,4309A,104.6159,35.5701,定西市,正龙路62号,,40,40,52,18,17,101,101,105,89,7,8,2,3,0.2,0.2
2026-04-27T1900,4071A,114.9883,38.5232,定州市,交通局,,45,45,83,18,27,97,97,107,106,14,16,6,8,0.3,0.4
2026-04-27T1900,4072A,115.0045,38.5136,定州市,第五中学,颗粒物(PM10),60,64,98,18,23,86,86,102,102,16,15,2,3,0.4,0.4
2026-04-27T1900,1390A,113.7943,23.0132,东莞市,东城石井,,39,39,39,18,23,121,121,181,178,39,27,6,5,0.7,0.7
2026-04-27T1900,1391A,113.7384,22.9659,东莞市,南城西平,,35,35,40,13,22,110,110,162,159,32,26,7,7,0.5,0.5
2026-04-27T1900,3319A,113.7283,23.041,东莞市,万江金泰,,42,42,44,20,23,118,118,176,174,31,22,7,7,0.9,0.8
2026-04-27T1900,4129A,113.8666,23.1062,东莞市,裕兴路,颗粒物(PM10),52,52,58,20,29,151,151,191,191,30,26,7,8,0.7,0.8
2026-04-27T1900,4130A,114.0076,22.9739,东莞市,教育路1号,,49,49,46,19,22,132,132,174,171,31,24,7,8,0.6,0.6
2026-04-27T1900,4131A,113.7981,22.8124,东莞市,长怡路1号,,33,28,47,10,22,105,105,133,130,28,30,7,7,0.6,0.7
2026-04-27T1900,1666A,118.6612,37.4313,东营市,市环保局,,39,39,76,20,27,113,113,123,122,14,15,6,8,0.4,0.3
2026-04-27T1900,3036A,118.6903,37.4337,东营市,开发区管委会,,43,43,83,22,33,116,116,124,123,16,19,5,7,0.4,0.4
2026-04-27T1900,3365A,118.5721,37.5654,东营市,垦利区民丰路,,35,29,65,19,29,111,111,123,122,12,15,8,10,0.7,0.6
2026-04-27T1900,3498A,118.5063,37.8606,东营市,河口城区,,37,27,60,3,21,118,118,132,132,11,14,6,8,0.9,1
2026-04-27T1900,3646A,118.4979,37.4623,东营市,胜利站,颗粒物(PM10),55,56,69,32,36,108,108,115,115,16,15,5,6,0.7,0.7
2026-04-27T1900,3734A,118.5753,37.4405,东营市,理想之城,颗粒物(PM10),63,68,86,36,42,92,92,102,101,22,21,5,6,0.5,0.5
2026-04-27T1900,1591A,110.0024,39.8127,鄂尔多斯市,综合楼,,32,27,228,12,59,102,102,104,104,13,9,6,7,0.3,0.3
2026-04-27T1900,1592A,109.9485,39.8259,鄂尔多斯市,巴音孟克林场办事处,,39,39,203,14,39,108,108,109,109,8,8,5,5,0.3,0.2
2026-04-27T1900,1593A,109.7734,39.5987,鄂尔多斯市,康泽苑,,35,31,85,11,37,110,110,113,113,5,6,8,8,0.3,0.3
2026-04-27T1900,1594A,109.8121,39.5987,鄂尔多斯市,华泰汽车城,,34,24,182,13,32,106,106,110,110,8,8,9,9,0.3,0.3
2026-04-27T1900,1595A,109.9734,39.7884,鄂尔多斯市,奥林花园,NA,NA,29,329,11,34,NA,NA,110,110,7,11,3,4,0.2,0.2
2026-04-27T1900,2436A,114.894,30.3989,鄂州市,市政府,颗粒物(PM10),55,56,63,29,34,51,51,98,72,45,27,9,13,0.6,0.6
2026-04-27T1900,2437A,114.8986,30.3714,鄂州市,赵家坝,颗粒物(PM10),54,55,58,25,32,69,69,93,82,16,10,13,17,0.8,0.8
2026-04-27T1900,3654A,114.8093,30.4091,鄂州市,精准医疗中心,,47,47,70,25,41,71,71,73,73,16,33,10,21,0.7,1.6
2026-04-27T1900,2454A,109.4978,30.2979,恩施土家族苗族自治州,湖北民院,,28,26,36,19,26,60,60,56,56,16,12,8,8,0.6,0.5
2026-04-27T1900,3549A,109.5061,30.3771,恩施土家族苗族自治州,龙凤新区,,22,22,34,13,20,24,24,39,38,10,9,7,7,0.5,0.5
2026-04-27T1900,2499A,108.3411,21.6159,防城港市,沙万,,20,15,30,6,12,63,63,77,76,24,22,5,6,0.8,0.8
2026-04-27T1900,2500A,108.3515,21.7733,防城港市,防城档案局,,21,16,19,9,15,66,66,85,82,8,6,6,7,0.8,0.8
2026-04-27T1900,2501A,108.3506,21.6414,防城港市,大海花园,,25,16,22,6,14,79,79,77,77,13,19,8,9,0.7,0.9
2026-04-27T1900,1371A,113.1293,23.0065,佛山市,湾梁,,39,39,39,14,27,103,103,124,124,22,20,/,/,/,/
2026-04-27T1900,1372A,113.1082,23.0477,佛山市,华材职中,,41,41,41,18,31,104,104,121,121,24,20,4,4,0.5,0.5
2026-04-27T1900,1373A,113.1439,23.045,佛山市,南海气象局,,39,39,39,19,28,108,108,124,124,26,22,/,/,/,/
2026-04-27T1900,1374A,113.2879,22.8094,佛山市,顺德苏岗,,32,18,30,13,21,100,100,115,114,15,13,/,/,0.6,0.6
2026-04-27T1900,1376A,112.8384,22.8678,佛山市,高明孔堂,,32,32,32,13,22,95,95,108,108,13,12,/,/,/,/
2026-04-27T1900,1377A,112.8835,23.1584,佛山市,三水监测站,,36,36,47,16,33,94,94,113,113,31,35,3,3,0.5,0.6
2026-04-27T1900,1378A,112.8668,23.185,佛山市,三水云东海,,45,45,57,17,29,104,104,128,127,28,24,/,/,/,/
2026-04-27T1900,3625A,113.2568,22.7629,佛山市,容桂街道办,,36,36,31,16,20,89,89,112,111,25,18,/,/,/,/
2026-04-27T1900,1282A,119.2681,26.0506,福州市,师大,颗粒物(PM10),63,68,50,24,26,134,134,149,149,19,15,5,5,0.5,0.5
2026-04-27T1900,1283A,119.2983,26.1028,福州市,五四北路,颗粒物(PM10),65,70,45,26,25,138,138,150,150,22,18,6,5,0.4,0.4
2026-04-27T1900,1284A,119.2648,26.0769,福州市,杨桥西路,颗粒物(PM10),58,60,47,25,24,140,140,153,153,19,16,6,5,/,/
2026-04-27T1900,3048A,119.5799,26.0937,福州市,九龙,,37,35,33,16,17,116,116,129,128,8,10,5,5,0.3,0.3
2026-04-27T1900,3526A,119.5188,25.9666,福州市,吴航,,43,43,41,20,21,113,113,133,132,20,18,6,6,0.4,0.4
2026-04-27T1900,4104A,119.3106,26.0648,福州市,路通桥巷6号,,46,46,47,21,29,132,132,148,148,23,17,/,/,/,/
2026-04-27T1900,1755A,123.7974,41.8494,抚顺市,望花区,,30,20,42,3,19,96,96,93,93,11,24,7,9,0.4,0.5
2026-04-27T1900,1756A,123.9161,41.8827,抚顺市,顺城区,,28,18,30,8,15,87,87,92,92,19,29,9,10,0.5,0.5
2026-04-27T1900,1757A,124.0437,41.8615,抚顺市,东洲区,,29,19,21,3,9,92,92,93,93,12,14,7,9,0.4,0.5
2026-04-27T1900,1758A,123.9246,41.8638,抚顺市,新抚区,,30,17,31,6,16,93,93,99,99,16,25,7,8,0.4,0.5
2026-04-27T1900,1759A,124.0972,41.8961,抚顺市,大伙房水库,,30,13,23,3,10,93,93,97,96,12,17,8,8,0.3,0.4
2026-04-27T1900,1760A,123.708,41.8386,抚顺市,沈抚新城,,29,20,36,6,16,91,91,92,92,14,29,8,10,0.4,0.6
2026-04-27T1900,2377A,116.3544,27.9833,抚州市,市站,颗粒物(PM10),53,53,49,30,26,98,98,112,112,8,12,6,6,0.7,0.7
2026-04-27T1900,2378A,116.3562,27.9631,抚州市,血防站,,45,45,46,26,27,101,101,114,114,13,14,7,10,0.9,0.9
2026-04-27T1900,2379A,116.3561,28.0007,抚州市,采茶剧团,颗粒物(PM10),53,53,50,27,26,106,106,118,118,7,12,7,10,0.6,0.7
2026-04-27T1900,2380A,116.3854,27.9648,抚州市,医学分院,,47,47,52,26,22,111,111,121,121,9,14,6,11,0.9,0.9
2026-04-27T1900,2207A,121.6095,41.9978,阜新市,工业园区,,34,34,41,12,15,84,84,96,95,15,28,6,11,0.3,0.4
2026-04-27T1900,2208A,121.6567,42.0188,阜新市,长青街,NA,NA,19,31,14,14,NA,NA,102,102,13,26,4,12,0.5,0.6
2026-04-27T1900,2209A,121.6672,42.07,阜新市,农业园区,,29,29,26,15,8,87,87,98,97,14,15,5,10,0.4,0.4
2026-04-27T1900,2211A,121.6343,42.0455,阜新市,玉龙新城,,27,26,36,12,14,84,84,98,96,16,33,7,11,0.5,0.6
2026-04-27T1900,2301A,115.8276,32.8929,阜阳市,市监测站,,36,36,58,16,29,104,104,105,105,4,18,6,7,0.3,0.4
2026-04-27T1900,2303A,115.8551,32.8606,阜阳市,开发区,,32,31,71,10,30,102,102,93,90,10,21,5,6,0.4,0.5
2026-04-27T1900,2875A,115.783962,32.889217,阜阳市,阜阳职业技术学院,,40,40,59,20,27,104,104,107,107,6,12,8,8,0.5,0.5
2026-04-27T1900,3468A,115.79,32.8614,阜阳市,市规划展馆,,44,44,70,11,32,109,109,106,106,3,11,7,9,0.5,0.6
2026-04-27T1900,3469A,115.835101,32.918568,阜阳市,枣园社区,颗粒物(PM10),62,66,63,28,34,92,92,104,104,16,20,6,7,0.3,0.4
2026-04-27T1900,2669A,102.9097,34.9841,甘南藏族自治州,州政府,,30,19,40,11,15,94,94,97,90,5,4,3,4,0.3,0.2
2026-04-27T1900,3380A,102.8915,34.9618,甘南藏族自治州,甘肃民族师范学院,,32,20,44,9,14,101,101,110,104,9,5,1,2,0.4,0.4
2026-04-27T1900,2570A,101.96,30.048,甘孜藏族自治州,水桥子,,31,NA,10,3,8,99,99,100,100,7,8,6,6,0.2,0.2
2026-04-27T1900,3065A,101.9534,29.9976,甘孜藏族自治州,州环保局,,30,9,13,3,9,96,96,104,103,20,13,5,4,0.5,0.5
2026-04-27T1900,2363A,114.9368,25.8663,赣州市,地委,颗粒物(PM10),53,53,59,26,27,132,132,154,154,19,28,2,3,1.3,1.1
2026-04-27T1900,2364A,114.946,25.8483,赣州市,气象台,NA,NA,NA,54,NA,31,130,130,152,152,16,27,7,8,0.2,0.7
2026-04-27T1900,2365A,114.932,25.8332,赣州市,市图书馆,颗粒物(PM10),58,60,57,35,33,126,126,143,143,16,31,4,5,1.0,0.9
2026-04-27T1900,2366A,114.8905,25.8472,赣州市,华坚鞋城,细颗粒物(PM2.5),58,59,64,39,35,118,118,144,144,20,36,8,9,0.3,0.3
2026-04-27T1900,3109A,115.0094,25.8614,赣州市,赣县区卫计委,颗粒物(PM10),51,51,56,29,24,118,118,134,134,18,23,4,5,0.6,0.6
2026-04-27T1900,2684A,106.2753,36.0057,固原市,监测站,颗粒物(PM10),78,89,85,23,22,110,110,112,112,8,11,6,7,0.3,0.3
2026-04-27T1900,2685A,106.2384,36.0189,固原市,新区,颗粒物(PM10),75,84,84,19,16,108,108,110,110,11,10,5,6,0.4,0.5
2026-04-27T1900,2544A,106.6307,30.4577,广安市,市委,,46,NA,36,32,34,52,52,58,58,15,8,7,7,0.5,0.4
2026-04-27T1900,2545A,106.6266,30.4662,广安市,友谊中学,,33,24,36,23,29,53,53,58,58,11,7,7,7,0.6,0.5
2026-04-27T1900,2547A,106.6386,30.4551,广安市,广电花园,,40,NA,35,28,35,46,46,48,48,22,12,6,6,0.6,0.5
2026-04-27T1900,2902A,106.6347,30.4868,广安市,北辰小学,,45,31,40,31,35,52,52,57,57,9,8,9,8,0.5,0.4
2026-04-27T1900,2524A,105.8211,32.4444,广元市,老城,颗粒物(PM10),70,77,66,8,30,82,82,47,47,18,29,2,3,0.5,0.8
2026-04-27T1900,2526A,105.8629,32.429,广元市,监测站,颗粒物(PM10),61,65,61,13,31,58,58,23,23,29,31,4,7,0.7,0.8
2026-04-27T1900,3617A,105.8047,32.4167,广元市,经开区,,38,38,64,13,36,81,81,57,57,18,32,3,8,0.5,0.8
2026-04-27T1900,1345A,113.2346,23.1423,广州市,广雅中学,,34,33,37,15,21,108,108,118,118,23,25,2,3,0.9,0.9
2026-04-27T1900,1346A,113.2611,23.105,广州市,市五中,,39,31,37,18,26,124,124,140,140,21,25,3,4,/,/
2026-04-27T1900,1348A,113.3477,23.0916,广州市,广东商学院,,34,30,39,19,29,106,106,134,134,22,29,4,6,0.8,0.9
2026-04-27T1900,1349A,113.4332,23.105,广州市,市八十六中,,30,24,32,11,19,93,93,136,136,26,36,6,8,/,/
2026-04-27T1900,1350A,113.3506,22.9488,广州市,番禺中学,,32,27,34,12,19,101,101,122,121,15,20,5,6,0.5,0.6
2026-04-27T1900,1351A,113.2147,23.3918,广州市,花都师范,,38,35,58,21,32,121,121,147,147,25,43,6,6,0.8,0.9
2026-04-27T1900,1352A,113.2599,23.1329,广州市,市监测站,,35,31,29,14,21,110,110,123,123,12,17,2,3,/,/
2026-04-27T1900,1353A,113.5618,23.3119,广州市,九龙镇镇龙,,45,45,70,22,38,127,127,193,193,38,37,7,7,0.4,0.6
2026-04-27T1900,1354A,113.2764,23.1544,广州市,麓湖,,37,30,36,16,24,116,116,129,129,14,19,5,6,0.6,0.7
2026-04-27T1900,2846A,113.3209,23.1323,广州市,体育西,,34,34,42,15,22,103,103,130,130,23,29,5,6,0.7,0.7
2026-04-27T1900,3298A,113.5718,23.5493,广州市,从化街口,臭氧1小时(O3_1h),87,68,59,40,33,189,189,174,174,20,25,8,7,0.7,0.7
2026-04-27T1900,3299A,113.3463,23.369,广州市,白云竹料,,35,35,75,17,42,103,103,160,160,31,43,4,4,0.7,0.8
2026-04-27T1900,3300A,113.2981,23.2365,广州市,白云嘉禾,,37,37,48,17,29,112,112,144,144,25,34,6,7,/,/
2026-04-27T1900,3301A,113.4256,23.1716,广州市,黄埔科学城,,33,28,50,14,34,104,104,151,150,21,32,6,7,0.6,0.7
2026-04-27T1900,3302A,113.3942,23.0485,广州市,番禺大学城,,35,27,40,10,23,112,112,141,139,20,27,7,8,0.4,0.5
2026-04-27T1900,3303A,113.4923,22.8169,广州市,南沙黄阁,NA,NA,30,35,14,18,82,82,118,113,NA,14,6,7,/,/
2026-04-27T1900,3304A,113.534,22.7893,广州市,南沙街,,30,30,25,7,13,86,86,117,113,18,21,6,6,0.5,0.6
2026-04-27T1900,3443A,113.2905,23.5541,广州市,花都梯面,,50,48,55,26,33,158,158,167,167,28,27,9,8,/,/
2026-04-27T1900,3445A,113.786,23.7479,广州市,从化良口,,43,41,37,30,23,110,110,116,116,20,15,6,5,/,/
2026-04-27T1900,3446A,113.805,23.2614,广州市,增城荔城,,49,49,54,25,31,153,153,183,183,16,27,6,7,0.7,0.7
2026-04-27T1900,2506A,109.604387,23.066791,贵港市,江南子站,颗粒物(PM10),53,53,49,16,30,60,60,60,60,18,19,18,12,0.8,0.8
2026-04-27T1900,2508A,109.5669,23.1065,贵港市,荷城子站,,25,24,35,17,26,63,63,61,61,15,19,14,9,0.6,0.7
2026-04-27T1900,3405A,109.5886,23.1172,贵港市,新世纪学校,,21,19,35,14,29,66,66,61,61,20,22,/,/,0.8,0.8
2026-04-27T1900,4260A,109.5933,23.095,贵港市,中山路155-3号,,28,28,43,14,27,66,66,63,63,15,16,/,/,0.4,0.7
2026-04-27T1900,1439A,106.6863,26.6035,贵阳市,马鞍山,NA,NA,NA,23,NA,18,NA,NA,89,54,NA,10,NA,4,NA,NA
2026-04-27T1900,1441A,106.6241,26.6266,贵阳市,鉴湖路,,36,36,35,14,17,78,78,93,82,12,12,6,6,0.7,0.7
2026-04-27T1900,1442A,106.7468,26.6344,贵阳市,燕子冲,,36,36,33,9,16,59,59,80,72,15,12,6,5,0.9,0.9
2026-04-27T1900,1443A,106.6556,26.4362,贵阳市,碧云窝,,44,44,38,14,18,60,60,85,82,18,9,6,5,/,/
2026-04-27T1900,1445A,106.6963,26.6063,贵阳市,红边门,,29,27,29,20,21,75,75,79,79,15,15,7,6,/,/
2026-04-27T1900,1446A,106.7162383,26.56964667,贵阳市,新华路,,36,36,34,21,19,76,76,84,84,19,15,8,10,0.7,0.5
2026-04-27T1900,1447A,106.6742,26.542,贵阳市,太慈桥,,24,24,28,13,19,66,66,70,70,15,11,3,4,/,/
2026-04-27T1900,4230A,106.688212,26.56952,贵阳市,花果园大街66号,,29,NA,18,20,18,76,76,77,75,12,11,4,3,/,/
2026-04-27T1900,4231A,106.687268,26.516892,贵阳市,漓江路57号,,30,NA,23,21,20,72,72,70,70,14,13,5,5,0.5,0.4
2026-04-27T1900,1864A,110.3091,25.2705,桂林市,龙隐路小学,,23,23,52,12,39,51,51,63,63,10,16,3,8,0.6,0.6
2026-04-27T1900,1865A,110.2849361,25.22909545,桂林市,八中,,26,26,48,8,25,60,60,61,61,16,19,3,6,0.7,0.7
2026-04-27T1900,3531A,110.296,25.1254,桂林市,旅游学院,,24,24,48,13,40,71,71,72,72,5,13,6,8,0.6,0.7
2026-04-27T1900,4222A,110.1835,25.2444,桂林市,环湖路276号,,22,17,42,15,35,68,68,72,72,7,19,4,7,0.4,0.5
2026-04-27T1900,4301A,110.2803,25.2773,桂林市,信义路13号,,28,20,64,19,42,55,55,NA,NA,20,22,4,14,0.9,0.8
2026-04-27T1900,2674A,100.2262,34.4854,果洛藏族自治州,玛沁县大武镇,,31,20,24,7,11,98,98,102,100,2,2,13,16,0.3,0.4
2026-04-27T1900,1130A,126.5557,45.8109,哈尔滨市,松北商大,,26,22,20,11,12,83,83,88,88,7,19,4,5,0.5,0.5
2026-04-27T1900,1132A,126.6162,45.719,哈尔滨市,南岗学府路,,25,21,25,3,7,80,80,79,79,9,11,1,2,0.1,0.3
2026-04-27T1900,1133A,126.6894,45.7733,哈尔滨市,太平宏伟公园,,40,40,22,18,9,77,77,86,85,20,14,5,5,0.3,0.2
2026-04-27T1900,1134A,126.6361,45.7672,哈尔滨市,道外承德广场,,48,48,32,16,7,79,79,83,83,15,13,6,6,0.3,0.3
2026-04-27T1900,1136A,126.644,45.7261,哈尔滨市,动力和平路,,27,NA,17,18,8,86,86,86,86,11,14,5,6,0.2,0.2
2026-04-27T1900,1137A,126.5933,45.7479,哈尔滨市,道里建国路,细颗粒物(PM2.5),52,NA,20,36,13,85,85,86,86,9,13,1,2,0.2,0.7
2026-04-27T1900,1138A,126.6127,45.6119,哈尔滨市,平房东轻厂,,25,20,29,14,15,79,79,88,87,20,33,8,10,0.4,0.5
2026-04-27T1900,1139A,126.5875,45.9827,哈尔滨市,呼兰师专,,28,28,19,14,7,73,73,80,80,14,17,9,10,0.1,0.1
2026-04-27T1900,1140A,126.6299,45.6799,哈尔滨市,省农科院,,28,23,23,12,10,87,87,88,88,8,11,5,5,0.3,0.4
2026-04-27T1900,4282A,126.6769,45.7379,哈尔滨市,华山路1号,,27,12,13,3,7,84,84,93,92,9,6,3,3,0.3,0.3
2026-04-27T1900,4283A,126.9717,45.5356,哈尔滨市,解放大街52号,,44,44,49,11,11,78,78,90,89,22,24,2,4,0.6,0.6
2026-04-27T1900,2688A,93.5124,42.8176,哈密市,地区监测站,,35,12,28,6,11,112,112,114,114,7,6,11,13,0.1,0
2026-04-27T1900,2689A,93.5014,42.8312,哈密市,哈密师范学校,,36,NA,29,8,13,115,115,118,118,8,8,11,12,0.1,0.1
2026-04-27T1900,2671A,100.9016,36.9464,海北藏族自治州,海晏县西海镇,,37,22,28,13,17,117,117,117,117,1,2,5,8,0.4,0.4
2026-04-27T1900,3867A,102.074,36.5056,海东市,平安区公安局北苑,,41,41,58,20,21,111,111,116,116,11,8,14,12,0.5,0.5
2026-04-27T1900,4163A,102.0984,36.5119,海东市,滨河路,,37,37,43,22,22,80,80,94,94,26,17,16,11,0.7,0.7
2026-04-27T1900,1410A,110.3189,20.0596,海口市,海南大学,,16,14,22,8,13,51,51,72,71,4,5,5,5,0.4,0.4
2026-04-27T1900,1411A,110.2827,20.0051,海口市,秀英海南医院,NA,NA,NA,18,8,12,35,35,65,62,23,8,NA,7,0.3,0.3
2026-04-27T1900,1412A,110.3391,19.9979,海口市,海南师范大学,,17,17,22,9,13,47,47,65,64,6,6,6,5,0.4,0.4
2026-04-27T1900,1413A,110.3303,20.0359,海口市,龙华路环保局宿舍,,19,17,23,13,13,47,47,69,67,10,7,/,/,0.7,0.7
2026-04-27T1900,3539A,110.5111,19.9737,海口市,桂林洋子站,NA,NA,12,22,8,12,50,50,57,56,NA,6,/,/,/,/
2026-04-27T1900,4134A,110.1952,20.0451,海口市,长滨二路9号,,15,11,20,9,13,46,46,70,68,6,4,/,/,/,/
2026-04-27T1900,2673A,100.6158,36.2985,海南藏族自治州,共和县恰卜恰镇,,37,33,44,23,23,118,118,116,116,6,6,9,10,0.3,0.3
2026-04-27T1900,2676A,97.373,37.376,海西蒙古族藏族自治州,德令哈市,,50,NA,19,24,9,157,157,148,148,3,3,14,16,0.4,0.4
2026-04-27T1900,1049A,114.492,36.5712,邯郸市,矿院,颗粒物(PM10),67,73,112,31,58,118,118,125,125,4,12,3,4,0.2,0.4
2026-04-27T1900,1050A,114.4839,36.6136,邯郸市,丛台公园,颗粒物(PM10),58,60,108,21,54,117,117,123,123,7,13,1,3,0.2,0.4
2026-04-27T1900,3458A,114.7893,36.5592,邯郸市,香泉濮院小区,颗粒物(PM10),70,78,135,17,58,97,97,117,117,10,14,3,2,0.1,0.4
2026-04-27T1900,3580A,114.1998,36.4439,邯郸市,峰峰矿区临水派出所,颗粒物(PM10),113,152,98,43,44,119,119,130,130,17,20,2,7,0.5,0.7
2026-04-27T1900,4068A,114.5209,36.7697,邯郸市,建安街268号,颗粒物(PM10),63,67,107,14,50,83,83,104,103,22,25,2,2,0.2,0.4
2026-04-27T1900,4069A,114.5488,36.6177,邯郸市,丛台东路558号,颗粒物(PM10),65,71,109,15,46,109,109,118,118,7,18,1,2,0.1,0.4
2026-04-27T1900,2635A,107.0155,33.0707,汉中市,市监测站,细颗粒物(PM2.5),70,76,50,45,32,42,42,67,67,20,13,5,5,0.8,0.6
2026-04-27T1900,2636A,107.0083,33.114,汉中市,鑫源开发区,颗粒物(PM10),61,65,44,33,30,57,57,67,67,25,16,7,7,0.8,0.7
2026-04-27T1900,2637A,107.0072,33.0323,汉中市,南郑大河坎水厂,颗粒物(PM10),60,64,46,38,28,31,31,66,66,20,13,4,4,0.5,0.4
2026-04-27T1900,1223A,120.2073,30.2111,杭州市,滨江,颗粒物(PM10),79,90,75,40,42,172,172,157,157,30,27,9,9,0.8,0.8
2026-04-27T1900,1224A,120.0625,30.2737,杭州市,西溪,颗粒物(PM10),52,52,69,26,44,95,95,137,132,10,19,5,6,1.0,0.8
2026-04-27T1900,1226A,120.3417,30.315,杭州市,下沙,颗粒物(PM10),89,104,98,53,47,161,161,149,149,31,39,10,9,0.8,0.8
2026-04-27T1900,1227A,120.1252,30.2465,杭州市,卧龙桥,,45,45,60,25,39,54,54,150,142,46,25,8,8,0.5,0.5
2026-04-27T1900,1228A,120.1902,30.2691,杭州市,浙江农大,颗粒物(PM10),67,73,67,37,42,137,137,148,148,43,40,10,9,0.5,0.5
2026-04-27T1900,1230A,120.1195,30.3121,杭州市,和睦小学,,50,50,67,23,46,135,135,150,150,28,30,7,8,0.6,0.6
2026-04-27T1900,1231A,120.3076,30.4146,杭州市,临平镇,NA,NA,110,73,48,40,181,181,173,173,34,34,8,7,NA,0.6
2026-04-27T1900,1232A,120.2753,30.1839,杭州市,城厢镇,细颗粒物(PM2.5),102,108,72,62,46,142,142,137,137,45,30,13,9,0.7,0.6
2026-04-27T1900,1233A,120.0883,30.1808,杭州市,云栖,,43,43,84,20,39,86,86,138,135,18,28,7,7,0.6,0.7
2026-04-27T1900,3557A,119.9463,30.0496,杭州市,镇二中,颗粒物(PM10),61,65,58,35,36,90,90,136,133,50,29,6,6,0.5,0.6
2026-04-27T1900,3558A,119.7184,30.2367,杭州市,市府大楼,颗粒物(PM10),52,52,47,33,32,130,130,128,128,18,19,8,8,0.6,0.6
2026-04-27T1900,3656A,120.1554,30.2863,杭州市,消防大队,颗粒物(PM10),66,72,87,36,46,119,119,137,137,25,24,6,6,0.6,0.6
2026-04-27T1900,1270A,117.1957,31.7845,合肥市,明珠广场,颗粒物(PM10),51,51,57,20,30,83,83,124,NA,26,31,8,8,0.6,0.6
2026-04-27T1900,1271A,117.307,31.8765,合肥市,三里街,颗粒物(PM10),58,61,61,30,28,75,75,89,87,30,39,6,7,0.5,0.5
2026-04-27T1900,1272A,117.2587,31.8703,合肥市,琥珀山庄,颗粒物(PM10),62,66,59,29,27,86,86,97,94,28,26,8,8,0.8,0.8
2026-04-27T1900,1275A,117.2593,31.9376,合肥市,庐阳区,NA,NA,53,58,32,27,85,85,98,96,17,22,6,6,NA,0.7
2026-04-27T1900,1276A,117.345251,31.861615,合肥市,瑶海区,NA,NA,NA,63,NA,27,84,84,88,86,NA,31,NA,8,0.5,0.6
2026-04-27T1900,1277A,117.3033,31.7967,合肥市,包河区,颗粒物(PM10),60,63,60,24,27,60,60,88,78,46,32,11,11,0.6,0.6
2026-04-27T1900,1278A,117.278,31.7392,合肥市,滨湖新区,颗粒物(PM10),56,58,54,22,26,61,61,91,80,47,18,7,7,0.5,0.6
2026-04-27T1900,1279A,117.1324,31.8395,合肥市,高新区,,39,39,55,20,27,104,104,96,96,11,20,6,7,0.5,0.5
2026-04-27T1900,3464A,117.3802,31.9148,合肥市,高教基地,颗粒物(PM10),65,70,59,27,26,72,72,89,81,29,24,9,9,0.5,0.5
2026-04-27T1900,4098A,117.2518,31.8404,合肥市,中国科学技术大学,颗粒物(PM10),53,53,56,23,26,93,93,102,100,19,20,8,8,0.7,0.7
2026-04-27T1900,3614A,79.9241,37.0878,和田地区,地区环保局,颗粒物(PM10),109,141,164,39,35,109,109,99,99,4,8,1,2,0.2,0.2
2026-04-27T1900,3615A,79.9132,37.1137,和田地区,市环保局,颗粒物(PM10),102,123,135,56,41,110,110,101,101,2,7,1,2,0.1,0.3
2026-04-27T1900,2517A,108.0496,24.6957,河池市,市环保站,,36,34,46,25,30,87,87,86,86,7,9,9,6,0.7,0.8
2026-04-27T1900,4302A,108.0901,24.6945,河池市,上任中路54号,,38,32,47,26,29,88,88,89,89,5,20,11,8,0.9,0.9
2026-04-27T1900,1697A,114.6962,23.7538,河源市,东埔,,46,46,44,27,25,113,113,126,124,13,15,6,8,0.6,0.5
2026-04-27T1900,1698A,114.6895,23.7232,河源市,老城,颗粒物(PM10),54,55,51,33,29,110,110,120,120,12,13,6,8,0.5,0.5
2026-04-27T1900,3374A,115.5562,35.089,菏泽市,定陶老年大学,颗粒物(PM10),106,134,118,7,53,114,114,122,122,12,15,6,6,0.2,0.5
2026-04-27T1900,4114A,115.4239,35.2593,菏泽市,黄河路600号,颗粒物(PM10),116,160,134,8,61,115,115,119,119,9,12,1,3,0.3,0.5
2026-04-27T1900,4115A,115.5025,35.2727,菏泽市,菏泽市人社局,颗粒物(PM10),91,107,111,7,59,116,116,119,119,8,12,7,8,0.2,0.4
2026-04-27T1900,4184A,115.479691,35.244011,菏泽市,永昌路1号,颗粒物(PM10),103,127,128,8,60,128,128,132,132,9,11,5,7,0.2,0.3
2026-04-27T1900,4193A,115.471542,35.280012,菏泽市,长城路999号,颗粒物(PM10),111,147,122,12,59,120,120,124,124,11,12,9,11,0.3,0.5
2026-04-27T1900,2514A,111.5264,24.4178,贺州市,环保小区,细颗粒物(PM2.5),90,86,66,55,51,60,60,82,61,24,23,7,9,0.7,0.6
2026-04-27T1900,2515A,111.561,24.4074,贺州市,政协大楼,细颗粒物(PM2.5),52,48,59,36,51,65,65,86,78,23,25,10,14,0.7,0.6
2026-04-27T1900,3534A,111.4744,24.455,贺州市,西湾,颗粒物(PM10),76,86,77,47,47,46,46,64,58,25,24,9,11,0.7,0.7
2026-04-27T1900,2385A,114.17,35.9019,鹤壁市,市监测站,颗粒物(PM10),114,154,107,66,61,120,120,120,120,8,12,5,6,0.4,0.7
2026-04-27T1900,2386A,114.2953,35.7512,鹤壁市,市交警支队,颗粒物(PM10),137,216,127,44,48,111,111,112,112,7,10,NA,8,NA,0.7
2026-04-27T1900,2387A,114.2877,35.7302,鹤壁市,迎宾馆,颗粒物(PM10),142,228,149,47,51,117,117,118,118,10,12,4,6,0.3,0.6
2026-04-27T1900,3474A,114.2616,35.6824,鹤壁市,大新区,颗粒物(PM10),137,215,130,42,60,115,115,114,114,8,10,5,7,0.4,0.7
2026-04-27T1900,3596A,114.1573,35.9607,鹤壁市,南山宾馆,颗粒物(PM10),142,228,131,45,57,111,111,115,115,8,13,6,9,0.4,0.8
2026-04-27T1900,2244A,130.2537,47.3416,鹤岗市,哈啤分公司,,25,25,21,13,8,72,72,76,76,9,7,10,10,0.3,0.3
2026-04-27T1900,2245A,130.2683,47.3087,鹤岗市,斯达机电,,24,24,18,15,8,74,74,81,80,10,6,10,10,0.4,0.4
2026-04-27T1900,2246A,130.3114,47.3388,鹤岗市,东山纸板厂,,43,43,38,13,8,70,70,82,80,11,8,7,8,0.5,0.4
2026-04-27T1900,2263A,127.4832,50.2524,黑河市,交通局,,28,28,19,18,17,71,71,81,81,56,15,6,8,0.3,0.2
2026-04-27T1900,2264A,127.5146,50.2339,黑河市,环保局,,37,37,17,19,9,81,81,83,83,20,8,9,7,0.3,0.2
2026-04-27T1900,1074A,115.6839,37.754,衡水市,电机北厂,,50,50,78,22,30,111,111,112,112,11,20,3,5,0.2,0.3
2026-04-27T1900,1075A,115.6303,37.7318,衡水市,市监测站,,49,49,78,16,27,110,110,108,108,14,21,2,5,0.2,0.4
2026-04-27T1900,3188A,115.6684,37.7216,衡水市,市城管局,,48,47,79,33,31,113,113,118,118,12,15,3,3,0.2,0.3
2026-04-27T1900,3459A,115.599,37.5491,衡水市,地表水厂,颗粒物(PM10),53,53,74,11,26,97,97,110,110,15,15,3,5,0.2,0.3
2026-04-27T1900,2457A,112.6209,26.9268,衡阳市,衡阳化工总厂,细颗粒物(PM2.5),66,70,78,43,44,92,92,100,100,11,21,6,8,0.7,0.7
2026-04-27T1900,2458A,112.621,26.8957,衡阳市,珠晖区环保局,"颗粒物(PM10),细颗粒物(PM2.5)",58,60,72,39,41,88,88,101,101,15,25,9,11,0.9,0.9
2026-04-27T1900,2459A,112.628,26.8654,衡阳市,市委党校,细颗粒物(PM2.5),62,61,70,41,47,88,88,105,105,16,17,10,11,0.9,0.8
2026-04-27T1900,2460A,112.6007,26.8977,衡阳市,市监测站,NA,NA,NA,80,41,42,81,81,92,92,17,27,8,9,1.0,1
2026-04-27T1900,2461A,112.5658,26.9013,衡阳市,真空机电公司,细颗粒物(PM2.5),78,53,68,49,46,96,96,107,106,21,32,8,11,0.9,0.9
2026-04-27T1900,3399A,112.6703,26.8817,衡阳市,师范学院,细颗粒物(PM2.5),62,63,65,41,38,94,94,108,108,14,15,8,9,0.8,0.7
2026-04-27T1900,3038A,103.3757,23.3679,红河哈尼族彝族自治州,州图书馆,,47,47,33,32,26,103,103,109,106,8,6,4,4,0.5,0.4
2026-04-27T1900,4154A,103.401,23.3561,红河哈尼族彝族自治州,蒙自市朝阳路,细颗粒物(PM2.5),52,NA,24,36,26,105,105,110,108,5,3,5,4,0.5,0.4
2026-04-27T1900,1090A,111.6506,40.7517,呼和浩特市,呼市一监,,30,27,69,7,39,94,94,99,99,6,5,5,5,0.3,0.3
2026-04-27T1900,1094A,111.7516,40.8369,呼和浩特市,如意水处理厂,,29,27,168,3,34,91,91,98,98,6,3,6,6,0.2,0.2
2026-04-27T1900,1095A,111.727798,40.806187,呼和浩特市,二十九中,,27,24,220,7,39,85,85,92,91,5,3,7,8,0.3,0.4
2026-04-27T1900,1097A,111.717,40.7617,呼和浩特市,化肥厂生活区,细颗粒物(PM2.5),92,NA,163,56,56,94,94,97,97,5,5,6,6,0.2,0.2
2026-04-27T1900,3699A,111.6519,40.8389,呼和浩特市,海东办,,29,29,79,6,33,90,90,95,95,4,6,4,4,0.2,0.2
2026-04-27T1900,4275A,111.591512,40.827312,呼和浩特市,成吉思汗西街8号,,27,22,84,3,28,86,86,93,92,8,5,4,4,0.4,0.3
2026-04-27T1900,4276A,111.6597,40.8077,呼和浩特市,公园东路75号,,31,31,78,17,47,86,86,91,91,8,7,4,4,0.2,0.2
2026-04-27T1900,4277A,111.5427,40.7846,呼和浩特市,金海路35号,,26,21,224,18,35,83,83,89,89,8,7,4,4,0.3,0.3
2026-04-27T1900,3061A,119.7511,49.1576,呼伦贝尔市,国华电力东,,32,32,29,12,12,92,92,95,94,10,12,5,5,0.3,0.3
2026-04-27T1900,4279A,119.7569,49.2222,呼伦贝尔市,伊敏大街东7号,,38,38,28,15,11,88,88,93,93,12,13,5,5,0.5,0.5
2026-04-27T1900,1250A,120.075,30.867,湖州市,城西水厂,颗粒物(PM10),59,62,65,33,41,159,159,174,174,29,30,7,8,0.6,0.5
2026-04-27T1900,2873A,120.083,30.8929,湖州市,仁皇山新区,颗粒物(PM10),65,70,64,41,43,152,152,171,171,43,35,6,7,0.7,0.6
2026-04-27T1900,2907A,120.1846,30.8592,湖州市,吴兴区站,臭氧1小时(O3_1h),75,60,70,28,40,180,180,188,188,21,29,7,8,0.5,0.5
2026-04-27T1900,3562A,120.4146,30.8538,湖州市,南浔区站,颗粒物(PM10),51,51,71,28,44,135,135,164,161,19,24,7,8,0.7,0.7
2026-04-27T1900,1607A,120.904878,40.721091,葫芦岛市,龙港区,,39,39,43,14,19,81,81,94,93,23,42,15,26,0.6,0.9
2026-04-27T1900,1608A,120.8382,40.7521,葫芦岛市,化工街,,29,29,47,16,26,80,80,85,85,21,45,12,26,0.4,0.5
2026-04-27T1900,1609A,120.8339,40.7078,葫芦岛市,新区,,26,24,39,10,22,83,83,87,86,20,47,10,19,0.5,0.7
2026-04-27T1900,1610A,120.8697,40.7679,葫芦岛市,东城区,,26,26,40,16,25,76,76,86,85,28,45,9,17,0.5,0.7
2026-04-27T1900,2483A,109.9297,27.5383,怀化市,河西地税局,,15,12,31,10,25,40,40,35,35,7,10,6,6,/,/
2026-04-27T1900,2484A,109.9783,27.5342,怀化市,市四医院,,23,23,37,11,30,35,35,46,32,8,7,4,5,0.5,0.4
2026-04-27T1900,2485A,109.9971,27.5579,怀化市,监测楼,NA,NA,NA,34,NA,25,NA,NA,104,NA,NA,5,NA,5,NA,0.6
2026-04-27T1900,1210A,119.0566,33.5991,淮安市,钵池山,细颗粒物(PM2.5),70,75,75,45,54,135,135,154,154,15,25,10,12,0.8,0.9
2026-04-27T1900,1211A,119.0083,33.578,淮安市,北京南路,颗粒物(PM10),74,83,73,46,50,106,106,140,138,28,27,9,12,0.6,0.7
2026-04-27T1900,1212A,118.9938,33.6083,淮安市,市监测站,NA,NA,83,71,52,53,123,123,162,161,NA,23,8,11,NA,1.1
2026-04-27T1900,1213A,119.135,33.5038,淮安市,楚州区监测站,细颗粒物(PM2.5),80,81,84,50,56,124,124,152,150,26,34,7,9,0.8,0.7
2026-04-27T1900,3426A,118.8757,33.2897,淮安市,新华书店,颗粒物(PM10),68,74,79,31,37,129,129,145,145,12,22,8,11,0.9,0.8
2026-04-27T1900,4092A,119.119691,33.550006,淮安市,枚皋中路89号,颗粒物(PM10),77,87,74,45,53,115,115,153,151,21,24,8,10,0.9,0.9
2026-04-27T1900,4206A,119.028838,33.631911,淮安市,承德北路606号,颗粒物(PM10),72,80,86,44,48,120,120,145,145,22,24,8,11,0.8,0.7
2026-04-27T1900,2282A,116.8005,33.9749,淮北市,监测站,颗粒物(PM10),78,89,66,36,36,138,138,142,142,13,20,7,8,0.4,0.5
2026-04-27T1900,2283A,116.8094,33.9008,淮北市,烈山区政府,颗粒物(PM10),85,98,72,35,33,143,143,143,143,9,16,7,10,0.4,0.5
2026-04-27T1900,4017A,116.7926,33.9534,淮北市,市博物馆,颗粒物(PM10),74,83,65,34,33,143,143,144,144,10,16,5,8,0.5,0.6
2026-04-27T1900,4100A,116.8322,33.9884,淮北市,杜集区第一实验学校,颗粒物(PM10),109,143,82,32,32,136,136,141,141,11,15,8,9,0.6,0.6
2026-04-27T1900,2277A,116.8304,32.7726,淮南市,潘集区政府,,32,25,60,9,32,102,102,101,101,11,22,6,9,0.3,0.5
2026-04-27T1900,2279A,116.8569,32.5949,淮南市,谢家集区政府,颗粒物(PM10),53,54,52,31,32,94,94,101,101,12,18,9,10,0.3,0.3
2026-04-27T1900,2280A,116.8279,32.6333,淮南市,八公山区政府,,48,48,59,32,30,89,89,99,97,10,12,8,8,0.4,0.4
2026-04-27T1900,2894A,117.0561,32.6536,淮南市,经济技术开发区消防队,细颗粒物(PM2.5),70,57,51,45,32,81,81,98,94,14,17,9,9,0.6,0.5
2026-04-27T1900,3329A,117.011,32.5891,淮南市,山南新区,颗粒物(PM10),76,86,63,38,28,80,80,105,104,22,18,10,10,0.6,0.5
2026-04-27T1900,4209A,117.003137,32.644456,淮南市,国庆中路369号,颗粒物(PM10),85,99,58,40,31,80,80,94,92,15,14,10,11,0.4,0.4
2026-04-27T1900,2446A,114.9021,30.474,黄冈市,职工中心,,48,41,46,33,38,63,63,84,72,12,13,7,11,0.9,0.8
2026-04-27T1900,2929A,114.8858,30.4519,黄冈市,红卫路,细颗粒物(PM2.5),60,41,45,40,38,78,78,92,89,14,13,6,9,0.2,0.2
2026-04-27T1900,3398A,114.9134,30.4446,黄冈市,市林业局,细颗粒物(PM2.5),58,47,60,39,40,82,82,95,93,16,16,4,5,0.7,0.6
2026-04-27T1900,2672A,102.02,35.5101,黄南藏族自治州,同仁县隆务镇,,37,35,42,18,17,116,116,117,117,4,2,10,10,0.4,0.3
2026-04-27T1900,2295A,118.2905,29.6965,黄山市,延安路89号,细颗粒物(PM2.5),82,84,43,51,26,82,82,120,118,18,12,6,5,0.3,0.2
2026-04-27T1900,2297A,118.1369,30.2755,黄山市,黄山区政府5号楼,"颗粒物(PM10),细颗粒物(PM2.5)",64,69,48,42,28,64,64,93,92,13,7,3,3,0.5,0.4
2026-04-27T1900,4210A,118.335445,29.720283,黄山市,滨江东路7-2号,颗粒物(PM10),89,104,54,44,25,42,42,118,110,36,11,/,/,/,/
2026-04-27T1900,2423A,115.0547,30.2332,黄石市,沈家营,颗粒物(PM10),62,66,74,34,38,98,98,92,92,12,28,3,5,0.4,0.8
2026-04-27T1900,2426A,114.899,30.211,黄石市,铁山,,43,43,66,22,39,99,99,94,94,8,24,8,13,0.4,0.2
2026-04-27T1900,2427A,115.0259,30.2108,黄石市,团城山,颗粒物(PM10),62,66,70,32,39,72,72,69,69,13,26,6,10,0.6,1.1
2026-04-27T1900,3149A,115.0174,30.1591,黄石市,笔架山北路,NA,NA,64,82,30,34,98,98,92,92,11,18,8,13,NA,1.1
2026-04-27T1900,4185A,115.078022,30.21118,黄石市,磁湖东路29号,颗粒物(PM10),60,64,79,31,40,91,91,75,75,17,36,4,6,0.5,0.9
2026-04-27T1900,1392A,114.4181,23.0528,惠州市,河南岸金山湖子站,,38,33,40,15,21,120,120,141,141,15,17,7,8,0.5,0.6
2026-04-27T1900,1393A,114.4055,23.0824,惠州市,下埔横江三路子站,,41,41,46,15,23,122,122,149,148,15,14,6,7,0.6,0.7
2026-04-27T1900,1395A,114.4645,22.7832,惠州市,惠阳区承修路船湖子站,,37,36,37,15,20,116,116,123,123,12,11,6,6,0.5,0.5
2026-04-27T1900,1396A,114.5316,22.7423,惠州市,大亚湾管委会子站,NA,NA,35,33,15,16,125,125,130,130,NA,10,4,5,0.4,0.4
2026-04-27T1900,3314A,114.4334,22.8134,惠州市,惠阳秋长,,41,41,38,12,19,115,115,127,126,22,14,/,/,/,/
2026-04-27T1900,3452A,114.6521,22.7755,惠州市,大亚湾霞涌,,40,28,30,13,19,127,127,133,133,7,10,/,/,/,/
2026-04-27T1900,4300A,114.4089,23.1147,惠州市,文华一路1号,,39,35,40,16,23,124,124,150,149,15,15,/,/,/,/
2026-04-27T1900,2240A,130.9618,45.2926,鸡西市,环保局,,26,16,29,11,13,81,81,87,87,6,11,6,7,0.2,0.3
2026-04-27T1900,2243A,130.9294,45.2959,鸡西市,第一中学,,25,19,27,3,15,79,79,84,83,5,7,6,6,0.2,0.3
2026-04-27T1900,3707A,131.0069,45.2988,鸡西市,欧美日汽修厂,NA,NA,NA,42,15,17,70,70,80,79,10,16,7,8,0.4,0.4
2026-04-27T1900,2367A,114.9753,27.0803,吉安市,红声器材厂,细颗粒物(PM2.5),84,67,70,52,38,154,154,142,142,18,17,9,9,0.5,0.3
2026-04-27T1900,2369A,114.9903,27.1313,吉安市,市环境监测站,"颗粒物(PM10),臭氧1小时(O3_1h)",60,63,69,39,39,168,168,148,148,16,25,14,14,/,/
2026-04-27T1900,2370A,115.009527,27.096792,吉安市,青原区法院,细颗粒物(PM2.5),76,77,72,48,40,147,147,135,135,15,27,8,9,0.4,0.4
2026-04-27T1900,1772A,126.54,43.8622,吉林市,哈达湾,,28,22,29,9,14,89,89,96,96,11,12,6,12,0.2,0.3
2026-04-27T1900,1773A,126.5843,43.8358,吉林市,东局子,NA,NA,19,25,9,13,NA,NA,92,92,NA,18,4,4,0.8,0.8
2026-04-27T1900,1774A,126.5051,43.8243,吉林市,电力学院,,30,24,26,11,16,95,95,102,102,11,12,7,8,0.6,0.6
2026-04-27T1900,1775A,126.6133,43.8971,吉林市,江北,,27,24,28,12,14,86,86,96,96,12,13,9,10,0.7,0.7
2026-04-27T1900,1776A,126.5549,43.8304,吉林市,江南公园,NA,NA,NA,28,NA,16,85,85,90,90,13,19,6,9,0.5,0.6
2026-04-27T1900,2868A,126.4737,43.953,吉林市,九站,,46,46,44,21,23,65,65,90,88,32,29,50,27,0.3,0.3
2026-04-27T1900,1299A,116.9866,36.6118,济南市,科干所,颗粒物(PM10),62,66,106,3,42,112,112,122,122,14,26,5,8,0.4,0.8
2026-04-27T1900,1300A,116.9379,36.6652,济南市,农科所,颗粒物(PM10),55,56,108,3,49,107,107,122,120,14,25,5,8,0.2,0.4
2026-04-27T1900,1301A,117.1265,36.6736,济南市,开发区,颗粒物(PM10),60,63,107,3,53,110,110,122,122,15,24,4,8,0.3,0.6
2026-04-27T1900,1303A,117.0616,36.6865,济南市,省种子仓库,颗粒物(PM10),84,97,136,3,53,107,107,121,121,16,21,5,9,0.3,0.7
2026-04-27T1900,1304A,116.9495185,36.644937,济南市,机床二厂,颗粒物(PM10),73,81,127,22,60,113,113,124,124,16,26,4,8,0.3,0.6
2026-04-27T1900,1305A,117.0496,36.6629,济南市,市监测站,颗粒物(PM10),69,76,115,6,51,102,102,117,117,18,27,5,7,0.5,0.8
2026-04-27T1900,1306A,116.7674,36.5458,济南市,长清党校,颗粒物(PM10),62,66,115,3,46,123,123,124,124,12,21,4,6,0.4,0.7
2026-04-27T1900,1961A,117.5323,36.6865,济南市,东山小学,颗粒物(PM10),70,78,127,3,45,117,117,127,127,10,23,4,6,0.2,0.5
2026-04-27T1900,3059A,117.7181,36.205,济南市,泰兴公司,颗粒物(PM10),72,80,89,9,35,126,126,128,128,16,26,9,11,0.3,0.6
2026-04-27T1900,3064A,117.6861,36.2172,济南市,莱芜战役纪念馆,颗粒物(PM10),75,85,89,8,31,129,129,128,128,11,21,5,8,0.2,0.3
2026-04-27T1900,3494A,117.1673,36.9782,济南市,济阳区政府,颗粒物(PM10),70,78,98,3,46,94,94,108,107,23,21,5,9,0.4,0.6
2026-04-27T1900,3495A,117.1168,36.6299,济南市,锦屏中学,颗粒物(PM10),60,63,105,3,54,115,115,123,123,13,21,5,8,0.4,0.5
2026-04-27T1900,4108A,117.7107,36.2385,济南市,山财大街5号,NA,NA,90,94,8,35,NA,NA,127,127,14,26,5,8,0.6,0.9
2026-04-27T1900,4109A,116.9744,36.6889,济南市,无影山路12号,颗粒物(PM10),56,58,103,3,53,101,101,117,117,17,25,3,7,0.3,0.6
2026-04-27T1900,1653A,116.6229,35.4288,济宁市,火炬城,颗粒物(PM10),82,94,87,3,32,103,103,116,116,10,14,4,5,0.3,0.6
2026-04-27T1900,3500A,116.5808,35.3703,济宁市,北湖一中,颗粒物(PM10),73,82,82,3,32,114,114,128,128,11,16,8,11,0.2,0.5
2026-04-27T1900,3501A,116.8251,35.5592,济宁市,服务中心,颗粒物(PM10),98,117,86,14,39,106,106,120,120,15,20,1,4,0.3,0.6
2026-04-27T1900,3678A,116.5907,35.4054,济宁市,市第七中学,颗粒物(PM10),113,153,101,3,36,106,106,124,123,17,19,6,8,NA,0.4
2026-04-27T1900,4111A,116.6075,35.4566,济宁市,任和路,颗粒物(PM10),79,90,99,3,31,110,110,125,124,9,17,7,7,0.3,0.6
2026-04-27T1900,4112A,116.5648,35.3921,济宁市,文体南路1号,颗粒物(PM10),70,77,90,3,33,112,112,124,124,10,16,3,6,0.4,0.6
2026-04-27T1900,4122A,112.6071,35.1015,济源市,市委党校,颗粒物(PM10),119,168,130,46,46,131,131,137,137,8,12,9,12,0.5,0.7
2026-04-27T1900,4123A,112.596,35.0702,济源市,沁园中路1号,颗粒物(PM10),113,152,90,51,40,131,131,140,140,10,16,6,8,0.6,0.9
2026-04-27T1900,2255A,130.2749,46.8028,佳木斯市,佳纺,细颗粒物(PM2.5),111,79,24,72,15,68,68,76,76,18,11,4,3,0.5,0.3
2026-04-27T1900,2257A,130.3258,46.7975,佳木斯市,环保局,,21,21,19,11,12,59,59,76,75,21,12,3,3,0.3,0.2
2026-04-27T1900,4285A,130.363,46.806,佳木斯市,顺和街,NA,NA,NA,20,12,12,70,70,75,75,14,10,2,2,0.3,0.3
2026-04-27T1900,4286A,130.3952,46.8268,佳木斯市,长安路196号,,27,27,18,11,10,69,69,77,77,12,9,2,2,0.3,0.3
2026-04-27T1900,1252A,120.7439,30.778,嘉兴市,清河小学,细颗粒物(PM2.5),86,90,64,53,32,170,170,182,182,37,26,10,8,0.6,0.5
2026-04-27T1900,1253A,120.7261,30.7477,嘉兴市,嘉兴学院,臭氧1小时(O3_1h),88,91,70,51,36,190,190,194,194,41,29,11,8,0.7,0.6
2026-04-27T1900,2872A,120.7845,30.7524,嘉兴市,南湖区残联,臭氧1小时(O3_1h),85,74,58,49,38,188,188,217,217,37,27,10,8,0.8,0.6
2026-04-27T1900,3407A,120.6915,30.7741,嘉兴市,秀洲住建,臭氧1小时(O3_1h),100,96,63,51,34,200,200,202,202,34,30,10,9,0.5,0.5
2026-04-27T1900,1945A,98.291,39.7705,嘉峪关市,气象局,,41,14,38,10,12,129,129,124,124,7,9,10,10,0.6,0.6
2026-04-27T1900,2884A,98.2672,39.7978,嘉峪关市,酒钢宾馆,NA,NA,14,50,12,15,134,134,124,124,NA,9,13,16,0.6,0.6
2026-04-27T1900,3248A,98.2644,39.7723,嘉峪关市,雄关区,,41,40,51,10,11,130,130,124,124,9,12,8,8,0.3,0.4
2026-04-27T1900,1383A,113.1063,22.6058,江门市,北街,,29,20,36,12,19,92,92,107,105,14,13,/,/,/,/
2026-04-27T1900,1384A,113.073,22.5835,江门市,西区,,32,25,33,12,18,101,101,111,111,15,14,/,/,/,/
2026-04-27T1900,1385A,113.0218,22.531,江门市,圭峰西,,30,25,31,11,19,93,93,108,107,13,13,/,/,/,/
2026-04-27T1900,1386A,113.0826,22.5947,江门市,东湖,,31,23,29,12,19,97,97,109,108,14,12,5,7,0.5,0.5
2026-04-27T1900,3311A,113.1077,22.5647,江门市,江海富民,,35,35,51,12,21,102,102,115,114,17,16,/,/,0.4,0.4
2026-04-27T1900,3449A,113.0496,22.4669,江门市,新会银湖,NA,NA,NA,37,11,18,88,88,105,103,21,19,NA,8,0.4,0.4
2026-04-27T1900,3335A,113.3137,35.2643,焦作市,马村街道办,颗粒物(PM10),125,185,89,42,40,113,113,123,123,7,11,9,11,0.3,0.6
2026-04-27T1900,3336A,113.2464,35.2374,焦作市,焦作技师学院,颗粒物(PM10),134,208,96,38,42,113,113,128,128,10,15,10,12,0.7,1
2026-04-27T1900,3477A,113.1656,35.2536,焦作市,中站许衡医院,颗粒物(PM10),110,144,76,37,38,118,118,131,131,12,13,12,12,0.6,1.1
2026-04-27T1900,3981A,113.2456,35.18,焦作市,原李万街道办,NA,NA,NA,81,NA,40,NA,NA,133,133,11,10,5,10,NA,0.6
2026-04-27T1900,4264A,113.234,35.219,焦作市,新安路1731号,颗粒物(PM10),139,219,94,34,42,125,125,136,136,11,11,11,13,0.3,0.6
2026-04-27T1900,4295A,113.2722,35.2121,焦作市,人民路3066号,颗粒物(PM10),143,230,101,45,41,117,117,126,126,11,15,6,8,0.4,0.6
2026-04-27T1900,1708A,116.3701,23.5345,揭阳市,新兴,,41,41,62,15,35,92,92,134,132,15,28,6,14,0.7,0.9
2026-04-27T1900,1709A,116.3261,23.5442,揭阳市,西马,,49,49,66,15,37,100,100,150,149,12,24,5,10,0.8,1.1
2026-04-27T1900,1710A,116.361,23.5627,揭阳市,东兴,,30,28,58,17,46,93,93,139,138,12,20,5,11,/,/
2026-04-27T1900,1711A,116.4151,23.5295,揭阳市,渔湖,颗粒物(PM10),66,72,63,13,36,100,100,139,138,15,31,2,8,/,/
2026-04-27T1900,3320A,116.4028,23.5699,揭阳市,曲溪,颗粒物(PM10),66,72,56,15,35,102,102,145,144,10,22,11,20,0.7,0.9
2026-04-27T1900,1944A,102.1691,38.5166,金昌市,天庆家园,颗粒物(PM10),123,178,227,56,57,106,106,113,113,3,5,5,8,0.3,0.3
2026-04-27T1900,4022A,102.1648,38.5369,金昌市,金川区人防中心,颗粒物(PM10),129,195,254,60,71,103,103,110,110,7,7,7,7,0.3,0.4
2026-04-27T1900,4239A,102.193042,38.531887,金昌市,长春路96号,颗粒物(PM10),135,210,267,50,65,99,99,106,106,3,4,7,7,0.3,0.3
2026-04-27T1900,1262A,119.6478,29.0773,金华市,十五中,颗粒物(PM10),60,63,65,31,32,109,109,149,145,36,27,1,3,0.6,0.7
2026-04-27T1900,1263A,119.6859,29.1032,金华市,监测站,颗粒物(PM10),53,54,62,24,30,134,134,165,162,29,35,4,4,0.6,0.7
2026-04-27T1900,3659A,119.656,29.1132,金华市,气象局,颗粒物(PM10),60,64,66,21,32,104,104,145,140,29,37,4,4,0.3,0.4
2026-04-27T1900,1767A,121.1114,41.0879,锦州市,南山,,34,34,34,11,22,99,99,102,102,15,31,8,11,0.5,0.5
2026-04-27T1900,1768A,121.060361,40.842794,锦州市,开发区,,32,32,39,19,22,89,89,99,98,18,33,9,12,0.6,0.5
2026-04-27T1900,1769A,121.1836,41.1118,锦州市,百股街道,,30,27,35,13,23,95,95,100,100,13,29,6,17,0.5,0.5
2026-04-27T1900,1770A,121.1176,41.1224,锦州市,天安街道,,33,33,38,12,24,94,94,95,95,13,27,4,14,0.4,0.6
2026-04-27T1900,1771A,121.1303,41.1385,锦州市,北湖公园,,30,26,36,14,22,96,96,100,100,10,22,6,14,0.4,0.5
2026-04-27T1900,2160A,112.8496,35.5051,晋城市,自来水公司,颗粒物(PM10),76,86,92,43,24,176,176,137,137,14,17,8,6,0.7,0.7
2026-04-27T1900,2162A,112.8509,35.4886,晋城市,市环保局,细颗粒物(PM2.5),110,99,100,70,36,158,158,137,137,12,13,10,8,0.8,0.8
2026-04-27T1900,3620A,112.8258,35.4804,晋城市,泽州一中,细颗粒物(PM2.5),101,117,96,61,37,165,165,133,133,14,17,9,7,1.0,1
2026-04-27T1900,4078A,112.8246,35.5152,晋城市,前书院路,细颗粒物(PM2.5),88,101,96,54,32,168,168,131,131,13,22,13,10,0.7,0.8
2026-04-27T1900,4079A,112.8864,35.4773,晋城市,祥云街666号,细颗粒物(PM2.5),115,111,91,76,37,NA,NA,126,126,11,14,12,9,NA,0.7
2026-04-27T1900,2174A,112.6992,37.6984,晋中市,榆次区政府,颗粒物(PM10),63,68,159,20,41,110,110,108,108,16,22,4,5,0.5,0.6
2026-04-27T1900,2865A,112.7195,37.683,晋中市,榆次三中,细颗粒物(PM2.5),108,NA,166,68,31,118,118,116,116,6,16,5,5,0.2,0.4
2026-04-27T1900,4080A,112.7375,37.7215,晋中市,广安街188号,,45,45,122,14,24,113,113,111,111,8,17,3,4,0.1,0.2
2026-04-27T1900,4200A,112.7478,37.6954,晋中市,迎宾街26号,颗粒物(PM10),56,58,150,15,33,122,122,120,120,8,16,4,5,0.3,0.3
2026-04-27T1900,2439A,112.2012,31.048,荆门市,竹园小学,,28,28,64,17,42,76,76,64,64,12,16,8,5,0.5,0.6
2026-04-27T1900,2440A,112.1968,30.9892,荆门市,掇刀,,32,29,66,22,42,85,85,67,67,11,17,13,17,0.7,0.7
2026-04-27T1900,3012A,112.1849,31.0361,荆门市,西山林语,,28,24,67,19,38,72,72,58,58,11,14,6,8,0.5,0.6
2026-04-27T1900,3547A,112.1631,31.0134,荆门市,龙泉中学南校,,25,NA,56,16,35,80,80,70,70,13,14,60,10,0.5,0.7
2026-04-27T1900,4124A,112.2213,31.0654,荆门市,新台西路6号,,30,30,68,19,43,64,64,60,60,15,19,7,10,0.7,0.8
2026-04-27T1900,1844A,112.2493,30.3198,荆州市,市图书馆,,45,31,46,31,32,81,81,74,74,15,13,6,7,0.6,0.6
2026-04-27T1900,1845A,112.2009,30.3543,荆州市,市委党校,,36,36,44,25,29,69,69,66,66,14,14,7,8,0.5,0.5
2026-04-27T1900,3194A,112.2749,30.3124,荆州市,管委会,,30,23,44,21,30,73,73,69,65,18,15,8,9,0.5,0.5
2026-04-27T1900,4268A,112.1722,30.3366,荆州市,学苑路85号,,41,41,42,25,31,93,93,78,76,6,10,8,6,0.4,0.6
2026-04-27T1900,2343A,117.2114,29.2931,景德镇市,老干部活动中心,颗粒物(PM10),56,58,45,37,34,95,95,119,119,14,11,5,5,0.6,0.6
2026-04-27T1900,2344A,117.1893,29.2789,景德镇市,兽医站,颗粒物(PM10),53,53,52,32,27,105,105,136,135,18,13,4,4,0.5,0.5
2026-04-27T1900,2346A,117.246,29.2958,景德镇市,陶研所,细颗粒物(PM2.5),54,54,44,37,31,91,91,129,126,22,15,7,5,0.8,0.8
2026-04-27T1900,4289A,117.154766,29.256967,景德镇市,青少年活动中心,细颗粒物(PM2.5),66,65,60,43,36,97,97,121,121,20,24,12,19,/,/
2026-04-27T1900,1803A,115.9873,29.6816,九江市,十里,NA,NA,73,65,35,36,87,87,119,116,NA,39,9,9,NA,1
2026-04-27T1900,1804A,115.9583,29.7047,九江市,茅山头,颗粒物(PM10),69,76,63,38,41,7,7,112,101,112,43,4,4,0.7,0.8
2026-04-27T1900,1805A,115.9877,29.7295,九江市,西园,颗粒物(PM10),63,67,60,37,38,29,29,89,79,105,66,8,9,0.8,0.8
2026-04-27T1900,1808A,115.9112,29.6038,九江市,综合工业园,颗粒物(PM10),67,73,55,36,28,89,89,113,111,52,39,13,10,0.6,0.6
2026-04-27T1900,3190A,116.0254,29.6995,九江市,外国语学校,颗粒物(PM10),62,66,54,40,33,34,34,89,80,79,46,15,14,1.0,0.9
2026-04-27T1900,4253A,116.010205,29.659402,九江市,莲花大道8号,细颗粒物(PM2.5),52,50,51,36,31,77,77,101,99,25,18,9,7,0.7,0.6
2026-04-27T1900,4240A,98.495752,39.733935,酒泉市,玉门东路5号,颗粒物(PM10),60,63,73,15,18,109,109,104,104,9,12,6,7,0.1,0.2
2026-04-27T1900,4241A,98.5099,39.7506,酒泉市,北大街108号,NA,NA,NA,60,19,20,NA,NA,103,103,NA,12,NA,8,NA,0.3
2026-04-27T1900,2698A,76.0071,39.466,喀什地区,巡警大队,颗粒物(PM10),128,191,281,64,106,109,109,99,99,3,30,4,5,0.1,0.4
2026-04-27T1900,2699A,75.9756,39.4693,喀什地区,吾办,颗粒物(PM10),137,216,271,73,109,103,103,95,95,8,28,4,5,0.1,0.3
2026-04-27T1900,4027A,75.9485,39.4688,喀什地区,老干局,颗粒物(PM10),130,197,254,61,79,106,106,96,96,4,21,3,3,0.2,0.3
2026-04-27T1900,1824A,114.3389,34.778,开封市,肿瘤医院,颗粒物(PM10),125,183,102,43,57,134,134,138,138,14,13,11,8,0.8,0.9
2026-04-27T1900,1826A,114.2884,34.7966,开封市,世纪星幼儿园,颗粒物(PM10),123,179,96,44,51,124,124,129,129,12,11,8,8,0.7,0.8
2026-04-27T1900,3147A,114.3434,34.8101,开封市,龙亭公园,颗粒物(PM10),133,205,95,42,53,122,122,133,133,21,18,9,9,0.6,0.7
2026-04-27T1900,3210A,114.3645,34.7955,开封市,汴京公园,颗粒物(PM10),128,191,109,36,54,122,122,132,130,14,13,4,5,0.6,0.8
2026-04-27T1900,3473A,114.2485,34.8306,开封市,技师学院,颗粒物(PM10),127,190,115,55,57,125,125,132,132,14,15,4,5,0.6,0.9
2026-04-27T1900,3592A,114.4518,34.7503,开封市,祥符区生态环境局,颗粒物(PM10),117,163,93,45,61,116,116,124,124,20,15,8,11,0.5,0.8
2026-04-27T1900,1951A,84.886,45.6029,克拉玛依市,长征新村,,42,NA,22,18,20,134,134,125,125,4,13,7,6,0.3,0.4
2026-04-27T1900,1952A,84.8894,45.5827,克拉玛依市,南林小区,,39,9,25,3,3,122,122,114,114,2,12,2,2,0.2,0.2
2026-04-27T1900,1954A,84.896,44.3328,克拉玛依市,独山子区,,43,19,16,8,4,136,136,131,131,6,9,5,6,0.4,0.4
2026-04-27T1900,1955A,85.6888,46.0909,克拉玛依市,乌尔禾区商贸楼,NA,NA,NA,28,14,9,NA,NA,118,118,8,12,4,3,NA,0
2026-04-27T1900,3612A,85.1045,45.6895,克拉玛依市,白碱滩区新站,,46,25,34,16,20,146,146,135,135,2,12,9,8,0.2,0.2
2026-04-27T1900,2697A,76.1457,39.7143,克孜勒苏柯尔克孜自治州,市人民政府,颗粒物(PM10),135,209,190,93,64,104,104,101,101,2,18,4,7,0.1,0.1
2026-04-27T1900,3665A,76.1654,39.7157,克孜勒苏柯尔克孜自治州,克州文化中心,颗粒物(PM10),164,278,186,124,66,103,103,102,102,2,12,3,4,0.2,0.3
2026-04-27T1900,1450A,102.8203,24.889,昆明市,呈贡新区,,38,29,32,24,25,119,119,141,138,10,11,4,5,0.4,0.5
2026-04-27T1900,1452A,102.7253,25.0904,昆明市,龙泉镇,颗粒物(PM10),51,51,38,30,28,102,102,123,121,10,18,5,5,0.6,0.7
2026-04-27T1900,1453A,102.7267,25.0378,昆明市,东风东路,,35,35,34,21,29,101,101,134,129,19,19,2,3,0.6,0.6
2026-04-27T1900,1454A,102.6744,25.0671,昆明市,金鼎山,颗粒物(PM10),58,60,41,28,27,103,103,124,123,14,15,2,2,0.7,0.8
2026-04-27T1900,1455A,102.6643,25.0401,昆明市,碧鸡广场,NA,NA,NA,34,32,26,96,96,120,117,NA,18,6,6,0.6,0.7
2026-04-27T1900,3179A,102.7491,25.012,昆明市,官渡区博物馆,NA,NA,34,35,21,24,104,104,132,130,15,25,NA,3,0.7,0.8
2026-04-27T1900,3375A,102.8016,24.8336,昆明市,青年创业园,,35,31,36,19,24,112,112,136,132,8,10,4,5,0.8,0.8
2026-04-27T1900,3550A,102.8,24.9787,昆明市,昆明学院,,42,42,35,27,23,98,98,133,129,18,16,4,4,0.6,0.5
2026-04-27T1900,3551A,102.5969,24.6738,昆明市,晋宁区生态环境分局,,43,37,33,30,28,107,107,126,125,8,6,3,3,0.6,0.5
2026-04-27T1900,3552A,102.6673,24.9861,昆明市,云天化总部,,47,47,49,28,25,99,99,129,124,11,16,4,4,0.7,0.7
2026-04-27T1900,1456A,91.132,29.6515,拉萨市,八廓街,,31,20,22,8,11,99,99,114,114,7,6,5,5,0.4,0.5
2026-04-27T1900,1457A,91.1221,29.6748,拉萨市,市环保局,NA,NA,NA,20,20,9,NA,NA,105,105,20,12,5,5,0.3,0.3
2026-04-27T1900,1458A,91.0874,29.6476,拉萨市,区监测站,,30,14,13,3,8,95,95,111,111,14,13,5,5,0.3,0.3
2026-04-27T1900,1459A,91.1774,29.6541,拉萨市,西藏大学,,31,15,19,7,12,97,97,107,107,12,11,4,4,0.3,0.3
2026-04-27T1900,1460A,90.9798,29.6586,拉萨市,区辐射站,,29,27,18,6,10,91,91,101,101,15,14,5,5,0.3,0.3
2026-04-27T1900,1461A,91.0831,29.6292,拉萨市,拉萨火车站,,50,50,20,27,12,98,98,111,111,13,13,4,4,0.3,0.4
2026-04-27T1900,2520A,109.2203,23.7252,来宾市,来宾技工学校,,26,26,45,11,27,75,75,69,69,6,12,4,9,0.7,0.9
2026-04-27T1900,3535A,109.1781,23.7293,来宾市,兴宾区政府,,28,25,59,11,31,87,87,71,71,3,13,9,9,0.6,0.7
2026-04-27T1900,4002A,109.2312,23.7428,来宾市,中南小学,,26,17,39,13,35,82,82,75,75,7,16,5,9,0.5,0.7
2026-04-27T1900,1479A,103.8309,36.0467,兰州市,铁路设计院,NA,NA,NA,63,NA,20,NA,NA,131,NA,NA,14,NA,7,NA,0.4
2026-04-27T1900,3241A,103.7439,36.0841,兰州市,百合公园,,33,28,55,18,21,104,104,107,107,10,13,2,5,0.1,0.2
2026-04-27T1900,3242A,103.9613,35.9985,兰州市,和平,,35,30,46,8,19,110,110,116,116,7,6,7,8,0.3,0.2
2026-04-27T1900,4236A,103.629272,36.093822,兰州市,庄浪东路808号,,46,46,65,23,29,114,114,115,115,10,9,6,7,0.3,0.3
2026-04-27T1900,4237A,103.7251,36.104344,兰州市,安宁西路88号,,45,45,63,19,21,114,114,118,118,12,10,6,7,0.3,0.2
2026-04-27T1900,4238A,103.846982,36.067567,兰州市,北滨河东路1号,,39,39,53,20,19,103,103,110,110,14,13,8,10,0.5,0.5
2026-04-27T1900,1067A,116.6712,39.5109,廊坊市,药材公司,颗粒物(PM10),52,52,60,7,14,94,94,96,96,6,20,3,2,0.3,0.4
2026-04-27T1900,1068A,116.7215,39.5592,廊坊市,开发区,,30,14,52,8,18,96,96,100,100,2,22,2,3,0.3,0.4
2026-04-27T1900,1070A,116.7246,39.5273,廊坊市,北华航天学院,,29,24,45,10,15,91,91,96,96,8,23,1,4,0.2,0.3
2026-04-27T1900,2919A,116.7022,39.5454,廊坊市,河北工业大学,,30,24,54,8,13,93,93,99,99,8,23,1,3,0.3,0.4
2026-04-27T1900,2536A,103.7629,29.5844,乐山市,牛耳桥,,32,25,58,11,42,101,101,88,88,16,19,4,5,0.5,0.6
2026-04-27T1900,2537A,103.7501,29.6002,乐山市,市第三水厂,,30,25,53,11,37,94,94,81,81,16,20,3,5,0.5,0.7
2026-04-27T1900,2538A,103.7571,29.5664,乐山市,市监测站,,30,26,60,9,41,95,95,80,80,9,14,3,4,0.5,0.7
2026-04-27T1900,3361A,103.7313,29.563,乐山市,理工大学,,32,29,50,9,36,101,101,89,89,12,16,3,5,0.4,0.6
2026-04-27T1900,2599A,100.2497,26.8802,丽江市,丽江古城,NA,NA,NA,33,NA,16,99,99,115,110,NA,10,8,7,NA,0.7
2026-04-27T1900,2600A,100.2203,26.8906,丽江市,市中心,,33,NA,23,20,17,104,104,124,120,18,11,7,7,0.7,0.7
2026-04-27T1900,1267A,119.9141,28.4513,丽水市,监测站大楼,颗粒物(PM10),55,56,42,32,22,79,79,140,134,25,17,5,7,0.6,0.4
2026-04-27T1900,1268A,119.93,28.4589,丽水市,莲都小学,颗粒物(PM10),51,51,43,21,20,81,81,137,132,32,18,/,/,/,/
2026-04-27T1900,1269A,119.8794,28.4232,丽水市,余庄前,,40,40,38,18,20,75,75,132,126,6,12,4,4,0.3,0.3
2026-04-27T1900,1173A,119.1759,34.5885,连云港市,市环境监测站,细颗粒物(PM2.5),101,114,74,61,51,161,161,166,166,21,21,10,13,0.7,0.7
2026-04-27T1900,3000A,119.3577,34.6971,连云港市,德源药业,颗粒物(PM10),104,129,84,58,47,158,158,167,167,16,21,8,9,0.9,0.9
2026-04-27T1900,3007A,119.178,34.8442,连云港市,新城一中,颗粒物(PM10),86,100,76,50,44,151,151,165,165,19,22,6,9,0.9,0.9
2026-04-27T1900,3008A,119.3607,34.7519,连云港市,胡沟管理处,细颗粒物(PM2.5),96,68,34,58,30,150,150,155,155,28,23,10,12,0.6,0.6
2026-04-27T1900,3009A,119.1478,34.5913,连云港市,矿山设计院,颗粒物(PM10),102,124,81,58,48,164,164,163,163,21,21,8,10,0.9,0.8
2026-04-27T1900,3434A,119.2414,34.6539,连云港市,工贸学校,细颗粒物(PM2.5),105,127,74,65,46,147,147,164,164,24,17,7,10,0.7,0.7
2026-04-27T1900,3664A,119.4171,34.734,连云港市,连云街道,颗粒物(PM10),91,107,72,53,40,147,147,146,143,20,28,9,11,0.7,0.6
2026-04-27T1900,2573A,102.2629,27.8981,凉山彝族自治州,西昌市政府,,34,13,22,3,11,107,107,114,114,8,7,6,6,0.5,0.6
2026-04-27T1900,2574A,102.2686,27.885,凉山彝族自治州,凉山州政府,,30,14,21,3,12,94,94,100,100,8,9,5,5,0.5,0.6
2026-04-27T1900,4229A,102.2342,27.8859,凉山彝族自治州,凯乐南路30号,,30,12,20,3,11,96,96,105,105,13,12,2,4,0.5,0.6
2026-04-27T1900,2212A,123.1978,41.2036,辽阳市,宏伟区,,37,37,40,3,13,94,94,94,94,10,14,6,6,0.4,0.5
2026-04-27T1900,2213A,123.1684,41.2497,辽阳市,新华园,,30,22,46,3,19,94,94,94,94,12,24,9,11,0.4,0.7
2026-04-27T1900,2214A,123.2355,41.2663,辽阳市,滨河路,,27,23,36,3,17,84,84,86,86,17,26,6,8,0.3,0.7
2026-04-27T1900,4083A,123.153,41.2874,辽阳市,铁西路150号,,29,21,48,3,21,90,90,87,87,9,23,9,9,0.4,0.8
2026-04-27T1900,2227A,125.1359,42.8845,辽源市,环保局,,29,28,29,3,13,92,92,96,95,10,20,8,7,0.4,0.4
2026-04-27T1900,4085A,125.0998,42.9134,辽源市,安宁大街333号,,29,24,34,7,14,92,92,96,96,8,16,4,5,0.4,0.4
2026-04-27T1900,1625A,115.9789,36.4372,聊城市,区政府,颗粒物(PM10),65,70,101,3,39,118,118,120,120,14,15,6,8,0.2,0.7
2026-04-27T1900,3200A,115.9772,36.4986,聊城市,监控中心,颗粒物(PM10),73,81,109,3,44,115,115,122,122,12,14,9,9,0.3,0.5
2026-04-27T1900,3513A,116.0443,36.436,聊城市,九州社区,颗粒物(PM10),66,72,107,3,43,118,118,126,126,19,21,7,9,0.3,0.5
2026-04-27T1900,4018A,116.0564,36.4609,聊城市,星美广场,颗粒物(PM10),74,83,106,3,42,104,104,112,112,22,17,5,8,0.2,0.5
2026-04-27T1900,4113A,116.0091,36.4495,聊城市,利民路,颗粒物(PM10),53,53,85,3,43,122,122,126,126,15,15,9,11,0.3,0.5
2026-04-27T1900,2632A,94.3683,29.6373,林芝市,林芝监测站,,34,15,10,8,5,108,108,109,109,6,4,3,3,0.5,0.5
2026-04-27T1900,2633A,94.3616,29.6634,林芝市,林芝人民医院,,37,11,12,9,8,118,118,118,118,4,5,4,4,0.7,0.6
2026-04-27T1900,2603A,100.0779,23.8981,临沧市,市环保局,,46,43,45,32,40,100,100,103,103,8,8,3,3,0.7,0.7
2026-04-27T1900,2604A,100.0894,23.882,临沧市,市气象局,,48,41,46,33,39,104,104,107,107,9,9,4,4,0.7,0.9
2026-04-27T1900,1733A,111.5552,36.0791,临汾市,临钢医院,颗粒物(PM10),255,388,168,70,35,72,72,100,99,20,18,11,10,0.7,0.7
2026-04-27T1900,1734A,111.4984,36.0734,临汾市,技工学校,颗粒物(PM10),125,185,157,36,43,93,93,100,100,15,19,7,11,0.2,0.6
2026-04-27T1900,1736A,111.5017,36.0857,临汾市,市委,颗粒物(PM10),114,154,157,39,40,89,89,102,100,19,17,8,11,0.5,0.9
2026-04-27T1900,3018A,111.5048,36.1015,临汾市,唐尧大酒店,颗粒物(PM10),122,175,156,29,38,89,89,102,102,21,18,7,10,0.5,0.8
2026-04-27T1900,4244A,111.4879,36.053,临汾市,启星学校,颗粒物(PM10),145,237,148,41,39,86,86,98,98,22,23,7,10,0.5,0.8
2026-04-27T1900,4271A,103.2464,35.6123,临夏回族自治州,滨河东路1号,,31,26,82,10,28,98,98,96,96,12,18,8,10,0.3,0.3
2026-04-27T1900,4310A,103.207136,35.599807,临夏回族自治州,新华街21号,,25,20,61,15,20,78,78,77,77,3,7,7,8,0.2,0.3
2026-04-27T1900,1618A,118.3429,35.0532,临沂市,沂河小区,颗粒物(PM10),115,158,84,37,35,138,138,158,155,22,27,9,19,0.4,0.5
2026-04-27T1900,1619A,118.2962,35.0568,临沂市,鲁南制药厂,颗粒物(PM10),129,193,87,33,35,140,140,157,157,17,27,11,22,0.3,0.4
2026-04-27T1900,1620A,118.2793,34.9976,临沂市,新光毛纺厂,颗粒物(PM10),125,185,87,31,38,134,134,153,153,15,27,10,24,0.4,0.4
2026-04-27T1900,1621A,118.3955,35.0889,临沂市,河东保险公司,颗粒物(PM10),107,136,81,33,38,142,142,162,161,19,26,10,19,0.4,0.5
2026-04-27T1900,3370A,118.3563,35.0215,临沂市,十里堡居委,颗粒物(PM10),127,188,86,37,40,143,143,160,160,19,28,9,20,0.6,0.7
2026-04-27T1900,3496A,118.359,35.1067,临沂市,南坊新区,颗粒物(PM10),110,144,86,33,37,135,135,152,152,16,25,10,18,0.3,0.4
2026-04-27T1900,3860A,118.3915,35.0297,临沂市,皇山花园小区,颗粒物(PM10),122,175,84,36,39,137,137,158,158,20,31,9,21,0.6,0.7
2026-04-27T1900,1870A,109.4854,24.3898,柳州市,柳东小学,,30,18,36,10,29,94,94,89,89,6,9,4,5,0.7,0.8
2026-04-27T1900,1871A,109.4109,24.3304,柳州市,环保监测站,,36,36,41,10,29,83,83,83,83,12,14,4,5,0.8,0.9
2026-04-27T1900,1872A,109.3886,24.3408,柳州市,河西水厂,,30,20,46,10,33,94,94,89,89,6,10,10,11,0.7,0.8
2026-04-27T1900,1873A,109.4263,24.2951,柳州市,市四中,,25,24,51,12,31,80,80,77,77,11,14,6,7,0.5,0.6
2026-04-27T1900,1874A,109.396,24.3658,柳州市,市九中,,26,NA,46,11,33,82,82,82,82,10,12,4,5,0.6,0.7
2026-04-27T1900,1875A,109.4912,24.3164,柳州市,古亭山,,29,29,36,10,28,84,84,81,81,10,13,5,5,0.7,0.8
2026-04-27T1900,3402A,109.5422,24.3994,柳州市,市二中,,26,17,37,12,29,81,81,81,81,7,11,8,9,0.4,0.5
2026-04-27T1900,2307A,116.5078,31.7369,六安市,监测大楼,颗粒物(PM10),61,65,43,37,31,65,65,88,85,30,15,5,5,0.5,0.4
2026-04-27T1900,2308A,116.4738,31.7642,六安市,皖西学院,颗粒物(PM10),60,64,48,38,31,70,70,84,82,16,12,6,6,0.4,0.5
2026-04-27T1900,2309A,116.4997,31.7904,六安市,朝阳厂,,44,44,41,30,31,82,82,87,86,15,15,7,6,0.3,0.4
2026-04-27T1900,2310A,116.5566,31.7885,六安市,开发区,,43,43,38,17,28,88,88,101,97,25,20,6,7,0.5,0.5
2026-04-27T1900,2577A,104.8293,26.592,六盘水市,黄土坡,,25,11,14,6,14,80,80,87,84,10,11,6,6,0.4,0.5
2026-04-27T1900,2579A,104.8481,26.5898,六盘水市,民中,,25,11,15,3,12,79,79,87,84,10,11,3,4,0.5,0.6
2026-04-27T1900,2580A,104.9541,26.5506,六盘水市,双水,,26,6,10,3,9,82,82,90,80,5,9,3,3,0.2,0.3
2026-04-27T1900,4151A,104.8899,26.5685,六盘水市,钟山大道中段564号,,24,14,16,3,10,75,75,81,72,6,9,2,3,0.6,0.7
2026-04-27T1900,2336A,117.022,25.1031,龙岩市,龙岩市监测站,,35,29,42,23,23,110,110,126,126,13,15,8,8,0.5,0.5
2026-04-27T1900,2337A,117.0257,25.0662,龙岩市,闽西职业技术学院,,45,45,47,23,24,109,109,120,120,9,11,11,8,0.6,0.6
2026-04-27T1900,2338A,117.0195,25.0306,龙岩市,龙岩学院,颗粒物(PM10),54,55,44,24,22,103,103,122,122,8,8,6,5,/,/
2026-04-27T1900,2885A,104.9344,33.3827,陇南市,滨江中学,,45,45,48,20,18,81,81,93,90,14,8,8,8,0.6,0.5
2026-04-27T1900,3247A,104.9551,33.3709,陇南市,市总工会,,40,40,42,23,17,78,78,89,89,17,8,8,8,0.6,0.5
2026-04-27T1900,2488A,111.9984,27.7346,娄底市,市监测站,,50,43,72,35,50,96,96,86,86,8,25,5,9,0.7,0.8
2026-04-27T1900,2491A,111.9888,27.7035,娄底市,市政府,细颗粒物(PM2.5),52,43,69,36,56,115,115,97,97,6,17,3,5,0.5,0.5
2026-04-27T1900,4127A,111.9812,27.7591,娄底市,涟钢职大,NA,NA,48,69,38,46,97,97,89,89,NA,25,2,12,NA,0.6
2026-04-27T1900,4128A,112.0303,27.7457,娄底市,娄底体校,细颗粒物(PM2.5),52,46,73,36,49,94,94,86,86,6,14,4,6,0.5,0.4
2026-04-27T1900,1894A,105.4427,28.9063,泸州市,小市上码头,,25,25,37,15,25,66,66,64,64,16,12,8,8,0.6,0.6
2026-04-27T1900,1895A,105.4241,28.8573,泸州市,兰田宪桥,,37,37,58,24,35,73,73,70,70,9,9,8,8,0.7,0.7
2026-04-27T1900,1896A,105.4378,28.8833,泸州市,市环监站,,33,33,44,17,26,70,70,70,70,16,12,8,8,0.8,0.8
2026-04-27T1900,4272A,105.3689,28.7783,泸州市,纳溪中医医院,,39,NA,47,27,34,75,75,76,76,16,11,4,4,0.6,0.6
2026-04-27T1900,2183A,111.1447,37.5212,吕梁市,环保局,,35,32,226,11,54,109,109,110,110,6,20,3,3,0.4,0.4
2026-04-27T1900,2185A,111.1285,37.5338,吕梁市,自来水公司,,35,34,233,24,57,102,102,106,106,9,16,2,3,0.3,0.3
2026-04-27T1900,2867A,111.1225,37.5093,吕梁市,马茂庄小学,,48,48,243,13,37,112,112,112,112,6,22,1,2,0.2,0.2
2026-04-27T1900,1812A,112.3934,34.6517,洛阳市,市委党校,细颗粒物(PM2.5),88,94,81,54,41,149,149,156,155,21,17,12,11,0.9,0.8
2026-04-27T1900,1815A,112.494,34.6883,洛阳市,河南林校,颗粒物(PM10),84,97,89,48,39,149,149,162,162,18,17,14,14,0.9,0.8
2026-04-27T1900,1816A,112.3843,34.623,洛阳市,开发区管委会,颗粒物(PM10),88,103,86,52,43,159,159,164,164,12,11,14,14,0.8,0.7
2026-04-27T1900,1817A,112.4263,34.6249,洛阳市,市委新办公区,颗粒物(PM10),87,101,83,52,48,152,152,160,160,19,16,13,12,0.8,0.8
2026-04-27T1900,3340A,112.6005,34.6323,洛阳市,伊滨,颗粒物(PM10),94,111,82,50,42,138,138,128,NA,21,20,11,11,0.5,0.5
2026-04-27T1900,3341A,112.495,34.6338,洛阳市,中移产业园,细颗粒物(PM2.5),94,96,84,57,45,143,143,158,158,15,14,13,12,0.8,0.8
2026-04-27T1900,3593A,112.5736,34.8993,洛阳市,吉利监测站,颗粒物(PM10),115,159,92,52,38,134,134,149,149,15,15,12,12,0.7,0.6
2026-04-27T1900,3635A,112.3678,34.6623,洛阳市,河科大西苑校区,细颗粒物(PM2.5),101,105,91,61,45,160,160,162,162,18,14,13,12,0.5,0.4
2026-04-27T1900,3636A,112.4387,34.678,洛阳市,英才小学,颗粒物(PM10),96,114,104,52,47,147,147,155,155,13,12,11,10,0.8,0.7
2026-04-27T1900,4214A,112.460027,34.694929,洛阳市,春都路1号院,颗粒物(PM10),95,113,94,57,43,146,146,159,159,15,13,12,12,0.7,0.6
2026-04-27T1900,2399A,114.051,33.5721,漯河市,三五一五工厂,细颗粒物(PM2.5),90,86,74,55,49,124,124,133,133,14,19,6,7,0.6,0.6
2026-04-27T1900,2400A,114.0055,33.5698,漯河市,漯河大学,细颗粒物(PM2.5),96,103,71,58,49,128,128,136,136,9,15,8,8,0.6,0.6
2026-04-27T1900,2401A,114.0134,33.5826,漯河市,市水利局,细颗粒物(PM2.5),100,114,84,60,51,121,121,130,130,10,14,7,6,0.7,0.7
2026-04-27T1900,2402A,114.0261,33.5697,漯河市,市广电局,颗粒物(PM10),100,120,79,55,50,131,131,137,137,14,18,6,7,0.6,0.6
2026-04-27T1900,3478A,113.9691,33.568,漯河市,市图书馆,细颗粒物(PM2.5),101,82,82,61,47,121,121,131,131,11,15,8,8,1.0,1
2026-04-27T1900,4250A,114.089259,33.588274,漯河市,韶山路11号,颗粒物(PM10),86,100,89,50,49,112,112,122,122,14,22,7,8,0.6,0.6
2026-04-27T1900,1798A,118.5084,31.6838,马鞍山市,湖东路四小,颗粒物(PM10),73,82,67,34,35,82,82,111,108,35,24,21,11,1.1,0.8
2026-04-27T1900,1799A,118.5019,31.6449,马鞍山市,开发区,颗粒物(PM10),75,85,74,28,30,83,83,106,99,27,30,9,12,0.5,0.7
2026-04-27T1900,3633A,118.4914,31.681,马鞍山市,雨山,颗粒物(PM10),65,71,64,32,32,94,94,112,110,30,24,15,14,0.9,0.8
2026-04-27T1900,4191A,118.527362,31.722269,马鞍山市,慈湖高新区,颗粒物(PM10),76,86,80,38,36,79,79,109,100,44,32,14,13,0.9,0.9
2026-04-27T1900,1686A,111.0285,21.469,茂名市,电白南海,,22,14,28,3,9,68,68,90,76,10,8,5,5,0.8,0.9
2026-04-27T1900,1687A,110.9294,21.6533,茂名市,茂石化七小,,20,14,31,6,17,62,62,66,65,12,12,6,6,0.7,0.6
2026-04-27T1900,1688A,110.9108,21.6688,茂名市,健康路,,22,NA,20,6,16,68,68,75,69,11,11,5,5,0.6,0.6
2026-04-27T1900,1689A,110.8592,21.6826,茂名市,高岭,,23,17,34,9,15,71,71,82,71,12,10,5,6,/,/
2026-04-27T1900,3450A,111.0101,21.5165,茂名市,电白水东,NA,NA,NA,19,NA,10,NA,NA,107,NA,NA,7,NA,2,NA,NA
2026-04-27T1900,2540A,103.8414,30.0871,眉山市,气象局,颗粒物(PM10),55,57,57,15,22,91,91,82,82,17,22,6,7,0.6,0.7
2026-04-27T1900,3148A,103.829,30.0563,眉山市,区人社局,,38,38,56,13,28,90,90,78,78,22,25,8,10,0.7,0.7
2026-04-27T1900,4148A,103.8836,30.0695,眉山市,眉职院,,30,30,46,9,21,91,91,78,78,16,17,7,8,0.7,0.8
2026-04-27T1900,1690A,116.1248,24.3307,梅州市,梅江月梅,颗粒物(PM10),55,56,52,27,23,105,105,112,112,10,23,/,/,/,/
2026-04-27T1900,1691A,116.0798,24.2719,梅州市,梅县新城,颗粒物(PM10),60,64,50,36,24,98,98,121,121,25,22,9,9,0.7,0.6
2026-04-27T1900,3315A,116.1234,24.2994,梅州市,梅龙,颗粒物(PM10),56,58,50,22,24,105,105,119,119,18,23,7,7,0.7,0.7
2026-04-27T1900,1878A,104.7775,31.4741,绵阳市,富乐山,,49,49,60,14,39,51,51,27,27,21,22,8,7,0.6,0.8
2026-04-27T1900,1880A,104.6698,31.4668,绵阳市,高新区自来水公司,,25,25,71,9,40,79,79,37,37,19,35,6,6,0.3,0.6
2026-04-27T1900,3491A,104.6899,31.5324,绵阳市,西科大附属小学,,29,29,68,12,35,76,76,49,49,19,36,4,4,0.3,0.6
2026-04-27T1900,3492A,104.5647,31.5343,绵阳市,安州区旅游局,,37,37,64,9,37,96,96,58,58,10,24,9,8,0.3,0.5
2026-04-27T1900,4146A,104.7092,31.4972,绵阳市,科技城新区公安局,,40,40,72,8,34,80,80,48,48,15,31,5,5,0.4,0.8
2026-04-27T1900,4226A,104.765114,31.453094,绵阳市,绵阳市气象局,,33,33,66,10,39,71,71,36,36,23,33,9,9,0.3,0.6
2026-04-27T1900,1784A,129.61,44.561,牡丹江市,环保大楼,,28,27,20,14,11,87,87,90,90,9,10,2,2,0.2,0.2
2026-04-27T1900,1787A,129.6364,44.6075,牡丹江市,机车工厂,,26,25,42,18,21,81,81,87,87,8,17,7,5,0.2,0.2
2026-04-27T1900,1788A,129.6386,44.5462,牡丹江市,第一中学,,34,34,26,13,9,83,83,88,88,8,9,4,3,0.3,0.3
2026-04-27T1900,4287A,129.5992,44.5964,牡丹江市,东晓云街98号,,31,31,35,12,16,85,85,90,90,6,9,4,4,0.4,0.3
2026-04-27T1900,2531A,105.0703,29.61,内江市,市监测站,颗粒物(PM10),54,55,52,29,38,86,86,80,80,13,11,9,9,0.7,0.7
2026-04-27T1900,2533A,105.0657,29.5807,内江市,内江二中,,48,48,51,26,38,83,83,73,73,16,14,6,7,0.4,0.4
2026-04-27T1900,2534A,105.0407,29.5828,内江市,内江日报社,,46,46,42,22,40,92,92,76,76,10,12,11,11,0.5,0.5
2026-04-27T1900,4147A,105.0433,29.6105,内江市,玉峰路西段888号,颗粒物(PM10),54,55,43,27,37,90,90,81,81,12,12,5,6,0.5,0.5
2026-04-27T1900,2628A,92.0653,31.4846,那曲市,那曲监测站,,28,27,26,15,21,88,88,86,86,10,11,7,8,0.5,0.6
2026-04-27T1900,4243A,92.0515,31.4787,那曲市,那曲市委宣传部,,32,17,20,9,14,101,101,98,98,7,9,9,9,0.5,0.5
2026-04-27T1900,1291A,115.8887,28.7006,南昌市,省林业公司,,48,48,64,28,36,114,114,138,138,27,47,7,7,0.4,0.6
2026-04-27T1900,1292A,115.813,28.7443,南昌市,林科所,颗粒物(PM10),58,61,46,32,26,104,104,149,149,31,33,11,12,0.3,0.4
2026-04-27T1900,1294A,115.8518,28.687,南昌市,建工学校,颗粒物(PM10),58,60,67,31,36,108,108,134,134,18,35,8,8,0.7,0.8
2026-04-27T1900,1295A,115.8926,28.6425,南昌市,象湖,颗粒物(PM10),55,56,67,31,43,110,110,132,132,16,43,11,10,0.8,1.1
2026-04-27T1900,3046A,115.9084,28.6062,南昌市,机电学校,颗粒物(PM10),68,75,72,39,38,114,114,139,139,15,38,7,8,0.5,0.7
2026-04-27T1900,3690A,115.9718,28.7032,南昌市,外国语学校,颗粒物(PM10),55,56,58,28,31,103,103,127,127,16,25,11,11,0.7,0.8
2026-04-27T1900,4106A,115.7923,28.6873,南昌市,工业二路,颗粒物(PM10),60,63,68,29,34,109,109,138,138,13,41,7,7,0.5,0.7
2026-04-27T1900,4192A,115.931587,28.686774,南昌市,南京东路235号,NA,NA,66,78,NA,45,117,117,141,141,22,39,8,9,0.5,1
2026-04-27T1900,1906A,106.0791,30.8022,南充市,南充市委,,45,45,48,31,34,29,29,52,52,19,14,7,7,0.3,0.3
2026-04-27T1900,1907A,106.1038,30.8215,南充市,南充炼油厂,,47,47,49,31,35,35,35,52,52,19,11,4,5,0.3,0.3
2026-04-27T1900,4227A,106.108336,30.788436,南充市,梨树横街98号,,50,50,54,33,38,31,31,55,55,23,11,6,6,0.4,0.3
2026-04-27T1900,4304A,106.1172,30.843,南充市,清泉寺北路188号,颗粒物(PM10),51,51,53,31,36,36,36,54,54,14,9,6,6,0.6,0.5
2026-04-27T1900,4305A,106.067,30.7616,南充市,同庆路1号,,45,45,47,30,33,34,34,51,51,22,16,6,6,0.5,0.4
2026-04-27T1900,1151A,118.8033,32.1085,南京市,迈皋桥,颗粒物(PM10),63,68,54,23,30,93,93,145,137,29,18,8,14,0.3,0.3
2026-04-27T1900,1152A,118.7487,32.057,南京市,草场门,颗粒物(PM10),63,68,63,28,36,89,89,132,124,35,29,9,8,0.6,0.7
2026-04-27T1900,1154A,118.770105,32.004342,南京市,中华门,颗粒物(PM10),60,63,61,29,30,82,82,134,129,30,24,9,11,0.6,0.5
2026-04-27T1900,1155A,118.8059,32.0329,南京市,瑞金路,颗粒物(PM10),72,80,68,30,35,82,82,135,130,39,27,8,10,0.8,1.5
2026-04-27T1900,1156A,118.7946,32.0774,南京市,玄武湖,颗粒物(PM10),62,66,57,23,28,90,90,125,122,28,20,6,7,0.4,0.5
2026-04-27T1900,1157A,118.6415,32.0964,南京市,浦口,颗粒物(PM10),70,77,58,27,26,80,80,119,117,23,22,6,8,0.6,0.7
2026-04-27T1900,1158A,118.730129,32.000956,南京市,奥体中心,颗粒物(PM10),66,72,66,25,29,54,54,111,107,50,30,11,13,0.4,0.5
2026-04-27T1900,1159A,118.9072,32.1047,南京市,仙林大学城,颗粒物(PM10),74,83,67,22,30,97,97,144,137,36,27,11,13,0.7,0.8
2026-04-27T1900,3422A,118.8443,31.919,南京市,江宁彩虹桥,颗粒物(PM10),81,93,68,26,31,100,100,136,131,34,24,9,7,0.8,0.7
2026-04-27T1900,3427A,118.8497,32.3599,南京市,六合雄州,颗粒物(PM10),58,61,64,24,30,89,89,137,130,29,39,4,5,0.9,0.9
2026-04-27T1900,4086A,118.7641,32.0841,南京市,新模范马路66号,颗粒物(PM10),67,73,65,22,28,77,77,136,128,48,26,4,5,0.6,0.7
2026-04-27T1900,4249A,118.8707617,31.34017673,南京市,汶溪路181号,,50,50,54,27,30,102,102,144,141,33,21,7,7,0.7,0.6
2026-04-27T1900,4312A,119.019,31.6512,南京市,中山西路1号,颗粒物(PM10),60,63,59,24,33,88,88,120,115,29,24,4,4,0.9,0.7
2026-04-27T1900,1401A,108.3098,22.788,南宁市,二十一中,,25,18,31,3,16,80,80,79,79,9,10,3,2,0.3,0.5
2026-04-27T1900,1402A,108.3135,22.8529,南宁市,北湖,,25,7,23,7,20,80,80,80,80,7,9,2,3,0.6,0.7
2026-04-27T1900,1403A,108.3205,22.8222,南宁市,市监测站,,27,16,23,3,15,85,85,84,84,5,7,1,3,0.5,0.6
2026-04-27T1900,1404A,108.3828,22.8038,南宁市,大自然花园,,27,10,24,3,19,84,84,78,78,6,8,5,5,0.4,0.5
2026-04-27T1900,1406A,108.2397,22.8462,南宁市,区农职院,,29,29,28,6,15,71,71,75,75,6,8,1,2,0.4,0.5
2026-04-27T1900,1407A,108.3285,22.7356,南宁市,英华嘉园,,27,10,28,3,17,84,84,84,84,8,12,3,5,0.5,0.6
2026-04-27T1900,3401A,108.4829,22.762,南宁市,红星社区,,27,15,30,3,20,84,84,81,81,6,9,4,5,0.5,0.6
2026-04-27T1900,4132A,108.2927,23.1477,南宁市,起凤路9号,NA,NA,12,36,7,25,82,82,81,81,NA,8,4,5,0.6,0.7
2026-04-27T1900,4221A,108.2177,22.7774,南宁市,乐贤路16号,,24,12,26,3,18,76,76,80,80,8,15,4,5,0.4,0.6
2026-04-27T1900,2332A,118.1682,26.6371,南平市,南平市监测站,细颗粒物(PM2.5),106,115,48,66,25,80,80,120,117,23,14,4,6,0.9,0.4
2026-04-27T1900,2334A,118.1757,26.6276,南平市,南平七中,,49,49,40,31,22,72,72,115,112,31,13,3,3,0.6,0.4
2026-04-27T1900,1168A,120.9056,31.9669,南通市,狼山街道,颗粒物(PM10),65,71,57,36,31,129,129,187,185,36,34,5,6,0.6,0.5
2026-04-27T1900,1170A,120.8635,32.0231,南通市,城中,颗粒物(PM10),109,142,80,55,30,119,119,190,188,82,33,10,7,0.9,0.6
2026-04-27T1900,1171A,120.9376,31.9301,南通市,星湖花园,颗粒物(PM10),81,93,64,47,33,145,145,198,198,38,29,7,7,0.8,0.5
2026-04-27T1900,1172A,120.8053,32.046,南通市,紫琅学院,NA,NA,133,67,50,31,16,16,200,184,NA,50,12,8,1.1,0.8
2026-04-27T1900,3291A,121.0631,32.0644,南通市,通州监测站,颗粒物(PM10),88,102,71,45,29,150,150,202,202,32,20,4,6,1.1,0.6
2026-04-27T1900,3432A,120.9348,31.9874,南通市,环境教育馆,颗粒物(PM10),75,85,68,42,31,169,169,206,206,34,36,7,7,0.7,0.6
2026-04-27T1900,4091A,120.8692,31.9885,南通市,洪江路,颗粒物(PM10),100,119,67,55,37,73,73,181,172,117,39,9,8,1.2,1
2026-04-27T1900,2404A,112.5338,33.0086,南阳市,瓦房庄,,39,39,66,17,43,104,104,105,105,11,15,4,5,0.4,0.5
2026-04-27T1900,2405A,112.5002,32.9734,南阳市,汉画馆,,40,40,78,18,44,87,87,102,102,16,14,6,7,0.4,0.6
2026-04-27T1900,2406A,112.5778,33.0144,南阳市,气象站,,38,38,74,19,43,106,106,115,115,12,11,4,7,0.3,0.4
2026-04-27T1900,2407A,112.548,32.9687,南阳市,理工学院,,35,35,70,21,48,96,96,105,105,9,12,5,7,0.4,0.5
2026-04-27T1900,4008A,112.5233,32.9921,南阳市,卧龙区政府,,30,26,74,19,46,96,96,103,103,11,13,6,7,0.5,0.7
2026-04-27T1900,1234A,121.8352,29.9111,宁波市,区环保大楼,颗粒物(PM10),60,64,60,20,25,100,100,128,128,41,40,6,8,0.3,0.4
2026-04-27T1900,1235A,121.5595,29.8208,宁波市,万里学院,颗粒物(PM10),55,56,49,23,25,148,148,156,156,16,19,5,5,0.4,0.4
2026-04-27T1900,1236A,121.713,29.9564,宁波市,龙赛医院,颗粒物(PM10),61,65,62,26,25,125,125,137,135,32,30,7,8,0.5,0.5
2026-04-27T1900,1240A,121.5855,29.8635,宁波市,太古小学,颗粒物(PM10),54,55,50,23,24,142,142,147,147,12,16,4,5,0.6,0.5
2026-04-27T1900,1241A,121.5239,29.8673,宁波市,市环境监测中心,颗粒物(PM10),53,53,50,24,30,142,142,150,150,15,18,7,8,0.5,0.5
2026-04-27T1900,2871A,121.6156,29.9015,宁波市,万里国际学校,颗粒物(PM10),53,54,45,33,26,152,152,160,160,18,15,5,6,0.5,0.5
2026-04-27T1900,3710A,121.5593,29.8976,宁波市,白沙活动中心,,47,44,44,23,25,148,148,158,158,16,18,6,7,0.3,0.3
2026-04-27T1900,4095A,121.8962,29.7529,宁波市,中科路88号,,41,31,40,9,21,130,130,142,142,8,15,7,7,0.4,0.4
2026-04-27T1900,2341A,119.5387,26.6611,宁德市,宁德市监测站,,45,45,39,24,23,118,118,142,142,21,17,8,9,0.5,0.7
2026-04-27T1900,3209A,119.5231,26.6562,宁德市,宁德一中,颗粒物(PM10),66,72,51,34,26,107,107,139,139,19,12,8,8,0.5,0.7
2026-04-27T1900,2618A,98.859,25.8541,怒江傈僳族自治州,州监测站,细颗粒物(PM2.5),56,44,35,38,26,66,66,52,52,14,12,6,6,0.4,0.4
2026-04-27T1900,2619A,98.8607,25.8168,怒江傈僳族自治州,泸水一中,细颗粒物(PM2.5),54,NA,34,37,27,59,59,46,46,27,20,5,5,0.9,0.7
2026-04-27T1900,1888A,101.6891,26.571,攀枝花市,弄弄坪,,40,34,47,24,25,126,126,132,132,9,19,6,23,0.5,1.2
2026-04-27T1900,1889A,101.577,26.5914,攀枝花市,河门口,颗粒物(PM10),51,51,47,26,26,119,119,146,144,17,17,7,18,0.5,0.4
2026-04-27T1900,1891A,101.7365,26.4986,攀枝花市,仁和,NA,NA,39,35,28,26,120,120,126,126,NA,13,NA,6,NA,0.4
2026-04-27T1900,2835A,101.7222,26.567,攀枝花市,四十中小,,41,38,37,25,23,129,129,133,133,8,15,6,14,0.7,0.8
2026-04-27T1900,1604A,122.0303,41.1489,盘锦市,开发区,,28,19,32,13,24,87,87,95,95,12,20,7,9,0.4,0.5
2026-04-27T1900,1605A,122.0486,41.0883,盘锦市,兴隆台,NA,NA,NA,38,NA,28,NA,NA,100,NA,25,31,7,12,0.5,0.7
2026-04-27T1900,1606A,121.8297,41.1026,盘锦市,新生街道,,30,18,25,3,15,96,96,101,101,16,30,4,6,0.3,0.5
2026-04-27T1900,1832A,113.3257,33.7423,平顶山市,新华旅馆,NA,NA,102,96,54,53,120,120,128,128,NA,15,NA,8,0.7,0.7
2026-04-27T1900,1833A,113.2917,33.737,平顶山市,规划设计院,细颗粒物(PM2.5),92,95,97,56,56,114,114,126,126,16,19,8,10,0.7,0.8
2026-04-27T1900,1834A,113.182,33.7738,平顶山市,平顶山工学院,NA,NA,76,84,42,52,120,120,135,135,11,14,NA,9,0.6,0.7
2026-04-27T1900,3594A,112.8736,33.9068,平顶山市,石龙区,细颗粒物(PM2.5),107,128,89,67,54,118,118,133,133,18,20,10,10,0.7,0.7
2026-04-27T1900,4116A,113.284,33.7139,平顶山市,姚电大道23号,细颗粒物(PM2.5),72,72,113,46,57,111,111,130,130,15,22,6,10,0.5,0.7
2026-04-27T1900,2656A,106.6633,35.5338,平凉市,聚贤嘉苑,颗粒物(PM10),65,71,84,15,20,104,104,103,103,12,16,2,6,0.4,0.3
2026-04-27T1900,2657A,106.7021,35.5307,平凉市,博物馆,颗粒物(PM10),55,56,80,21,24,117,117,112,112,8,13,8,9,0.4,0.4
2026-04-27T1900,2348A,113.8384,27.6436,萍乡市,中医院,细颗粒物(PM2.5),54,44,62,37,43,121,121,122,122,17,29,5,10,0.5,0.7
2026-04-27T1900,2350A,113.8677,27.6438,萍乡市,市环保局,颗粒物(PM10),56,58,71,32,42,119,119,126,126,18,31,16,22,0.7,0.9
2026-04-27T1900,2351A,113.8663,27.6202,萍乡市,安源区政府,细颗粒物(PM2.5),60,47,65,40,40,95,95,113,112,23,24,5,11,0.5,0.9
2026-04-27T1900,4107A,113.8686,27.6668,萍乡市,联洪村委会,,49,49,75,29,41,111,111,49,NA,16,30,6,9,0.5,0.5
2026-04-27T1900,2319A,119.0142,25.4324,莆田市,荔城区仓后路,颗粒物(PM10),65,71,54,38,31,120,120,162,161,19,11,/,/,/,/
2026-04-27T1900,2320A,119.0016,25.4553,莆田市,莆田市监测站,NA,NA,60,43,47,27,133,133,171,171,17,12,5,4,NA,0.5
2026-04-27T1900,2321A,119.112,25.4561,莆田市,涵江区六中,颗粒物(PM10),58,61,48,23,28,131,131,151,151,13,19,/,/,0.5,0.6
2026-04-27T1900,2322A,119.1014,25.3215,莆田市,秀屿区政府,,43,36,49,12,32,135,135,147,147,10,14,4,5,0.5,0.6
2026-04-27T1900,2392A,115.0312,35.7636,濮阳市,环保局,颗粒物(PM10),99,118,105,21,48,112,112,119,119,22,18,5,6,0.4,0.7
2026-04-27T1900,3021A,115,35.7667,濮阳市,濮水河管理处,颗粒物(PM10),90,106,102,28,47,118,118,122,121,13,18,4,5,0.5,0.8
2026-04-27T1900,4118A,115.0552,35.7816,濮阳市,中原东路68号,颗粒物(PM10),98,116,136,24,50,110,110,120,120,13,12,3,5,0.5,0.7
2026-04-27T1900,4216A,115.0923632,35.76857718,濮阳市,任丘路479号,颗粒物(PM10),92,108,121,25,47,106,106,114,114,19,20,4,5,0.5,0.8
2026-04-27T1900,2601A,100.9801,22.7634,普洱市,市环保局,,45,45,52,21,26,115,115,122,122,10,10,6,5,0.7,0.8
2026-04-27T1900,2602A,100.9763,22.8237,普洱市,普洱第二中学,,37,32,45,16,26,117,117,122,122,6,14,6,6,0.8,1
2026-04-27T1900,3345A,131.0413,45.7795,七台河市,中波台,,27,13,26,10,15,84,84,82,82,7,14,3,4,0.2,0.2
2026-04-27T1900,3637A,131.0136,45.7688,七台河市,人民广场,,30,14,30,12,14,95,95,90,90,9,15,9,10,0.5,0.6
2026-04-27T1900,3684A,130.8639,45.8144,七台河市,新建矿广场,,29,29,43,16,16,66,66,71,71,12,13,8,9,0.5,0.4
2026-04-27T1900,1779A,123.9307,47.3641,齐齐哈尔市,安居小区,,30,30,26,8,7,82,82,89,89,10,5,6,5,0.3,0.3
2026-04-27T1900,1780A,123.9497,47.3389,齐齐哈尔市,中心广场,,29,29,24,12,9,82,82,89,88,11,7,7,8,0.3,0.3
2026-04-27T1900,1781A,123.9483,47.3229,齐齐哈尔市,农牧车辆厂,,29,24,25,8,8,91,91,94,94,7,6,4,4,0.4,0.3
2026-04-27T1900,1783A,123.9442,47.2994,齐齐哈尔市,市环境监测站,,28,23,24,8,8,87,87,92,92,9,8,3,3,0.2,0.3
2026-04-27T1900,3662A,123.6341,47.2079,齐齐哈尔市,富区青少年活动中心,,35,35,27,8,8,85,85,93,92,7,8,2,2,0.2,0.3
2026-04-27T1900,2591A,107.9765,26.5724,黔东南苗族侗族自治州,市环境监测站,,28,20,47,19,33,70,70,77,77,15,13,2,2,0.5,0.4
2026-04-27T1900,2881A,107.8909,26.531,黔东南苗族侗族自治州,凯里学院,,26,NA,41,18,32,82,82,87,87,9,7,1,2,0.6,0.5
2026-04-27T1900,2593A,107.5223,26.2371,黔南布依族苗族自治州,小围寨,,29,NA,32,20,27,73,73,82,74,6,5,6,6,0.4,0.4
2026-04-27T1900,3538A,107.5175,26.2977,黔南布依族苗族自治州,沙坝,,35,NA,35,24,25,71,71,64,60,6,5,4,4,0.8,0.7
2026-04-27T1900,2589A,104.9022,25.0943,黔西南布依族苗族自治州,场坝街,,49,43,35,34,30,95,95,107,107,14,5,7,5,0.5,0.5
2026-04-27T1900,2590A,104.8812,25.0994,黔西南布依族苗族自治州,坪东大道,,48,48,41,31,31,98,98,105,105,12,6,6,3,0.5,0.4
2026-04-27T1900,2502A,108.6238,21.9667,钦州市,市环保站,,22,12,14,6,8,69,69,95,86,15,9,3,4,0.8,0.7
2026-04-27T1900,2503A,108.655,21.9481,钦州市,沙埠小学,,24,24,20,7,13,73,73,94,85,10,11,1,3,0.3,0.4
2026-04-27T1900,2504A,108.5989,21.7435,钦州市,港区一小,,23,NA,27,16,17,55,55,83,78,26,17,10,8,0.7,0.9
2026-04-27T1900,3404A,108.5959,21.9634,钦州市,北职校,,26,NA,15,13,10,82,82,98,90,9,8,1,2,0.5,0.5
2026-04-27T1900,1046A,119.5247,39.9346,秦皇岛市,建设大厦,,34,34,35,18,12,79,79,97,95,24,19,5,6,0.4,0.4
2026-04-27T1900,3132A,119.5979,39.938,秦皇岛市,文明里,颗粒物(PM10),52,52,36,17,13,75,75,97,95,28,19,10,9,0.3,0.3
2026-04-27T1900,4066A,119.7458,39.9952,秦皇岛市,南园路157号,,38,36,29,26,12,63,63,90,86,35,26,7,8,0.5,0.4
2026-04-27T1900,4067A,119.5131,39.8858,秦皇岛市,翠岛大街1号,,25,25,31,10,12,77,77,96,93,26,18,8,8,0.3,0.3
2026-04-27T1900,4198A,119.509013,39.825305,秦皇岛市,北戴河轮滑馆,,35,35,29,8,12,84,84,99,97,23,20,8,9,0.3,0.3
2026-04-27T1900,1310A,120.404,36.0625,青岛市,市南区东部子站,颗粒物(PM10),90,105,83,10,30,118,118,129,129,30,19,6,7,0.4,0.5
2026-04-27T1900,1311A,120.362344,36.10282,青岛市,四方区子站,颗粒物(PM10),79,90,83,8,33,124,124,145,143,15,20,6,8,0.6,0.8
2026-04-27T1900,1312A,120.294373,36.054183,青岛市,市南区西部子站,颗粒物(PM10),90,105,80,10,27,125,125,131,131,20,25,4,5,0.3,0.7
2026-04-27T1900,1313A,120.4581,36.0858,青岛市,崂山区子站,颗粒物(PM10),79,90,81,7,26,122,122,141,139,10,14,9,10,0.5,0.6
2026-04-27T1900,1315A,120.3945,36.3083,青岛市,城阳区子站,颗粒物(PM10),88,102,91,21,35,127,127,136,134,13,17,7,10,0.7,0.8
2026-04-27T1900,3642A,120.3454,36.0735,青岛市,市北区南部,颗粒物(PM10),93,109,57,8,27,126,126,141,139,12,14,7,7,0.6,0.8
2026-04-27T1900,3643A,120.3897,36.18,青岛市,李沧区北部,颗粒物(PM10),96,114,99,12,34,113,113,122,118,15,19,9,11,0.5,0.7
2026-04-27T1900,4110A,120.5222,36.4089,青岛市,盟旺路653号,颗粒物(PM10),100,119,78,34,36,135,135,143,139,12,13,6,6,0.8,1
2026-04-27T1900,4290A,120.196923,35.954556,青岛市,珠江路669号,颗粒物(PM10),98,117,88,9,35,112,112,137,129,30,21,6,7,0.6,0.8
2026-04-27T1900,4291A,120.0424,35.8656,青岛市,黄岛区人民政府广场,颗粒物(PM10),98,117,85,7,36,123,123,124,123,18,23,9,10,0.6,0.7
2026-04-27T1900,1703A,113.0218,23.7086,清远市,凤城街办,颗粒物(PM10),51,51,67,28,45,128,128,129,129,43,35,/,/,/,/
2026-04-27T1900,3025A,113.0479,23.6343,清远市,技师学院,,45,42,77,23,45,143,143,149,149,32,41,5,8,0.7,0.8
2026-04-27T1900,3318A,112.9898,23.7403,清远市,清新太和,,42,42,67,24,43,111,111,152,152,31,27,8,10,0.7,0.6
2026-04-27T1900,3455A,113.076,23.72,清远市,清城东城,颗粒物(PM10),55,57,70,36,43,162,162,159,159,29,28,/,/,/,/
2026-04-27T1900,2661A,107.6325,35.7357,庆阳市,庆阳五中,颗粒物(PM10),114,155,131,35,25,100,100,103,103,11,8,3,3,0.2,0.2
2026-04-27T1900,2662A,107.6361,35.7067,庆阳市,市环保局,颗粒物(PM10),110,145,120,34,23,106,106,105,105,13,10,4,6,0.4,0.4
2026-04-27T1900,1916A,103.7897,25.5036,曲靖市,环境监测站,,47,47,35,19,25,134,134,143,143,9,11,6,7,0.7,0.7
2026-04-27T1900,1917A,103.8013,25.5357,曲靖市,烟厂办公区,,43,43,35,18,23,127,127,134,134,9,10,8,9,0.7,0.7
2026-04-27T1900,3376A,103.7926,25.4651,曲靖市,南苑二区,NA,NA,24,30,20,24,132,132,134,134,7,9,4,4,NA,0.8
2026-04-27T1900,3377A,103.7442,25.5259,曲靖市,曲靖师范学院,,46,46,34,20,25,131,131,140,140,10,14,2,4,0.5,0.5
2026-04-27T1900,1264A,118.8694,28.94,衢州市,环保大楼,颗粒物(PM10),62,66,55,32,29,118,118,141,141,24,21,/,/,/,/
2026-04-27T1900,1266A,118.8622,28.9809,衢州市,衢州学院,颗粒物(PM10),57,59,54,24,29,109,109,132,131,12,29,6,7,0.4,0.5
2026-04-27T1900,4097A,118.9646,28.9832,衢州市,衢州三中,颗粒物(PM10),58,61,55,25,28,152,152,144,144,20,30,8,9,0.3,0.4
2026-04-27T1900,1611A,118.5818,24.9116,泉州市,涂山街,颗粒物(PM10),75,85,59,46,44,132,132,157,156,32,24,8,5,0.7,0.5
2026-04-27T1900,1612A,118.597,24.8976,泉州市,津头埔,颗粒物(PM10),76,86,56,42,37,148,148,173,172,26,23,7,5,0.6,0.6
2026-04-27T1900,1613A,118.6669,24.9422,泉州市,万安,颗粒物(PM10),64,69,60,36,36,132,132,153,153,19,28,6,5,0.7,0.7
2026-04-27T1900,4105A,118.6355,24.9148,泉州市,霞新路6号,NA,NA,63,53,39,35,124,124,149,149,NA,18,/,/,NA,0.6
2026-04-27T1900,2626A,88.8873,29.2723,日喀则市,日喀则监测站,颗粒物(PM10),80,91,29,14,10,112,112,121,120,6,5,8,7,0.4,0.4
2026-04-27T1900,3726A,88.8775,29.2425,日喀则市,林业技术推广中心,,47,47,42,3,7,114,114,118,118,4,5,6,14,0.3,0.4
2026-04-27T1900,1659A,119.4711,35.421,日照市,监测站,颗粒物(PM10),106,134,86,9,43,128,128,151,148,19,39,10,13,0.6,0.8
2026-04-27T1900,1660A,119.523,35.4216,日照市,市政府广场,颗粒物(PM10),96,114,88,10,42,130,130,141,140,14,35,8,12,0.7,1
2026-04-27T1900,1661A,119.5511,35.4113,日照市,港务局,颗粒物(PM10),107,136,112,9,50,135,135,134,134,14,49,7,11,0.6,0.9
2026-04-27T1900,3507A,119.5326,35.4627,日照市,职业技术学院,颗粒物(PM10),108,139,94,10,41,136,136,157,155,20,34,9,11,0.7,0.9
2026-04-27T1900,3604A,119.3267,35.1043,日照市,岚山环保分局,颗粒物(PM10),112,149,85,19,43,124,124,145,145,27,37,17,19,1.3,1.1
2026-04-27T1900,1835A,111.1922,34.7752,三门峡市,市政府,颗粒物(PM10),141,225,91,42,38,108,108,124,124,13,15,9,12,0.4,0.7
2026-04-27T1900,1836A,111.1588,34.794,三门峡市,开发区,颗粒物(PM10),112,151,93,36,39,104,104,123,123,12,12,9,13,0.3,0.7
2026-04-27T1900,3039A,111.1911,34.7829,三门峡市,三门峡市第一小学,颗粒物(PM10),159,267,112,45,40,105,105,126,126,19,15,12,16,0.6,0.9
2026-04-27T1900,3598A,111.1031,34.719,三门峡市,富达温泉假日酒店,颗粒物(PM10),142,228,119,29,40,107,107,126,126,16,14,12,17,0.3,0.5
2026-04-27T1900,2324A,117.621,26.2626,三明市,三钢,颗粒物(PM10),58,60,49,30,30,99,99,127,127,25,24,7,14,0.8,1.7
2026-04-27T1900,2325A,117.6352,26.2714,三明市,三明二中,细颗粒物(PM2.5),60,62,46,40,25,98,98,123,123,22,22,2,7,0.8,1.3
2026-04-27T1900,2326A,117.6028,26.2377,三明市,三元区政府,"颗粒物(PM10),细颗粒物(PM2.5)",58,60,51,39,31,83,83,126,124,37,19,6,9,0.7,0.9
2026-04-27T1900,1877A,109.4962,18.2682,三亚市,河西子站,,22,22,16,11,11,44,44,52,47,4,4,4,4,0.4,0.5
2026-04-27T1900,3540A,109.7348,18.3443,三亚市,君悦子站,,16,NA,16,11,16,40,40,56,52,6,9,4,4,0.5,0.5
2026-04-27T1900,4135A,109.1714,18.3739,三亚市,城东小学站,,20,20,26,7,14,40,40,52,47,5,10,/,/,/,/
2026-04-27T1900,2624A,91.7592,29.234,山南市,山南监测站,,34,NA,13,15,4,108,108,107,107,8,4,6,7,0.3,0.3
2026-04-27T1900,2625A,91.7701,29.2436,山南市,山南人民医院,,36,24,12,6,5,113,113,112,112,5,3,8,7,0.2,0.2
2026-04-27T1900,1674A,116.6795,23.3666,汕头市,金平子站,,48,41,38,14,25,153,153,145,145,11,16,4,5,0.8,0.8
2026-04-27T1900,1675A,116.7248,23.3632,汕头市,龙湖子站,,48,48,33,17,22,139,139,134,134,10,8,6,6,/,/
2026-04-27T1900,1676A,116.7257,23.2774,汕头市,濠江子站,NA,NA,NA,38,NA,22,135,135,123,123,NA,14,NA,8,/,/
2026-04-27T1900,1677A,116.7518,23.4712,汕头市,澄海子站,,43,43,50,16,28,135,135,132,132,16,17,8,8,0.7,0.7
2026-04-27T1900,1678A,116.6088,23.2539,汕头市,潮阳子站,NA,NA,NA,36,NA,26,139,139,137,137,8,10,7,7,NA,0.7
2026-04-27T1900,3444A,116.4539,23.2684,汕头市,潮南峡山,,35,28,43,16,29,112,112,123,123,9,11,6,7,0.7,0.8
2026-04-27T1900,3624A,116.4069,23.2533,汕头市,潮南子站,,49,49,52,26,30,106,106,119,119,9,13,6,7,/,/
2026-04-27T1900,1693A,115.3653,22.7751,汕尾市,市环保局,,43,43,31,13,18,129,129,129,129,6,7,5,5,0.7,0.7
2026-04-27T1900,1695A,115.362,22.7926,汕尾市,新城中学,,41,32,29,14,19,130,130,133,133,7,7,6,7,0.6,0.6
2026-04-27T1900,2645A,109.9155,33.8714,商洛市,监测站,,45,45,41,15,19,114,114,116,116,7,9,6,8,0.4,0.5
2026-04-27T1900,3045A,109.9647,33.8486,商洛市,商州区中学,,45,45,53,8,20,112,112,118,118,5,18,5,6,0.2,0.3
2026-04-27T1900,2408A,115.6701,34.4283,商丘市,环境监测站,颗粒物(PM10),134,206,100,27,44,127,127,134,134,7,13,3,5,0.3,0.5
2026-04-27T1900,2409A,115.6458,34.4047,商丘市,粮食局,颗粒物(PM10),124,180,81,35,40,119,119,127,127,NA,9,6,7,NA,0.5
2026-04-27T1900,3171A,115.6069,34.4465,商丘市,梁园区档案局,颗粒物(PM10),130,198,90,27,42,127,127,132,132,9,14,6,6,0.3,0.5
2026-04-27T1900,4119A,115.6701,34.3767,商丘市,北海东路185号,颗粒物(PM10),75,85,77,37,40,129,129,137,137,8,13,6,7,0.4,0.6
2026-04-27T1900,4120A,115.6172,34.3704,商丘市,中山大街3号,颗粒物(PM10),85,98,86,32,38,127,127,133,133,6,15,9,9,0.2,0.4
2026-04-27T1900,1141A,121.401,31.2382,上海市,普陀,颗粒物(PM10),78,89,60,43,31,180,180,186,186,34,26,8,7,0.6,0.5
2026-04-27T1900,1142A,121.4774,31.2043,上海市,十五厂,颗粒物(PM10),77,87,61,39,32,159,159,184,184,48,30,8,7,0.8,0.6
2026-04-27T1900,1143A,121.4673,31.3011,上海市,虹口,颗粒物(PM10),78,88,56,47,31,150,150,165,165,42,27,6,6,0.7,0.5
2026-04-27T1900,1147A,121.4253,31.226,上海市,静安监测站,细颗粒物(PM2.5),78,86,55,49,32,165,165,184,184,53,31,11,10,0.9,0.7
2026-04-27T1900,1148A,121.7029,31.1905,上海市,浦东川沙,颗粒物(PM10),69,76,55,36,29,171,171,186,186,39,35,9,9,0.6,0.5
2026-04-27T1900,1149A,121.5339,31.229,上海市,浦东新区监测站,颗粒物(PM10),65,71,53,40,31,171,171,179,179,30,26,8,7,0.6,0.5
2026-04-27T1900,1150A,121.5776,31.2038,上海市,浦东张江,臭氧1小时(O3_1h),83,68,53,39,30,186,186,200,200,30,26,8,7,0.3,0.2
2026-04-27T1900,3265A,121.4242,31.3303,上海市,宝山庙行,颗粒物(PM10),80,92,60,48,31,106,106,171,169,75,26,8,8,0.5,0.3
2026-04-27T1900,3266A,121.8789,31.4662,上海市,崇明上实东滩,,50,50,40,28,24,149,149,148,148,28,25,7,8,0.2,0.2
