timepoint,stationcode,longitude,latitude,area,positionname,primarypollutant,aqi,pm10,pm10_24h,pm2_5,pm2_5_24h,o3,o3_24h,o3_8h,o3_8h_24h,no2,no2_24h,so2,so2_24h,co,co_24h
2025-11-02T2100,2566A,102.1879,31.914,阿坝藏族羌族自治州,州农科所,,,,,,,,,,,,,,,,
2025-11-02T2100,2568A,102.2502,31.8896,阿坝藏族羌族自治州,马师校,,29,,13,20,14,7,,44,36,16,8,8,8,0.7,0.6
2025-11-02T2100,3994A,102.2165,31.9024,阿坝藏族羌族自治州,马尔康中学西区,,26,26,11,18,10,19,,66,50,14,9,5,5,0.6,0.5
2025-11-02T2100,2695A,80.292,41.1694,阿克苏地区,电视台,颗粒物(PM10),146,242,151,77,49,20,,82,78,70,36,9,6,1.5,0.6
2025-11-02T2100,2696A,80.2613,41.1551,阿克苏地区,艺术中心,颗粒物(PM10),104,158,143,54,52,18,,85,79,74,40,4,4,0.9,0.8
2025-11-02T2100,2204A,105.6467,38.8363,阿拉善盟,西城区西花园,,,,,,,,,,,,,,,,
2025-11-02T2100,2205A,105.6985,38.8411,阿拉善盟,蒙二幼,,48,48,26,18,11,90,,111,107,12,10,9,10,0.6,0.6
2025-11-02T2100,2206A,105.724,38.8516,阿拉善盟,环保局新楼,,31,29,19,14,10,99,,102,102,6,6,9,10,0.5,0.5
2025-11-02T2100,2708A,88.1264,47.8517,阿勒泰地区,市站,,44,44,25,8,5,20,,63,55,46,20,3,4,0.4,0.3
2025-11-02T2100,2630A,80.1161,32.5,阿里地区,阿里监测站,,24,,3,3,3,75,,97,96,18,14,9,7,0.4,0.3
2025-11-02T2100,3192A,80.0903,32.5028,阿里地区,阿里藏医院,,28,15,13,3,6,88,,104,104,9,11,11,9,0.4,0.4
2025-11-02T2100,2642A,109.0318,32.6537,安康市,香溪洞,,,,,,,,,,,,,,,,
2025-11-02T2100,2644A,109.0072,32.6975,安康市,汉滨区检察院,,43,43,32,23,20,12,,41,39,19,14,2,2,0.6,0.5
2025-11-02T2100,4054A,109.0325,32.6913,安康市,市邮政管理局,颗粒物(PM10),53,55,37,24,21,5,,40,36,37,17,6,6,0.9,0.6
2025-11-02T2100,2291A,117.0809,30.5177,安庆市,环科院,细颗粒物(PM2.5),95,92,54,71,37,104,,116,116,20,33,6,5,0.7,0.5
2025-11-02T2100,2292A,117.0331,30.5119,安庆市,马山宾馆,细颗粒物(PM2.5),90,85,52,67,35,104,,112,112,24,40,6,5,0.6,0.5
2025-11-02T2100,2294A,116.9896,30.6145,安庆市,安庆大学,细颗粒物(PM2.5),99,98,57,74,36,138,,122,122,17,25,8,6,0.7,0.5
2025-11-02T2100,3173A,117.0598,30.5351,安庆市,市人大,细颗粒物(PM2.5),84,84,56,62,37,95,,113,110,27,35,6,6,0.7,0.5
2025-11-02T2100,3122A,105.9606,26.2611,安顺市,伍家关,,,,24,13,16,66,,80,79,8,6,9,8,0.3,0.2
2025-11-02T2100,3123A,105.9408,26.2431,安顺市,凤凰山,,19,16,23,12,18,60,,71,70,8,7,11,10,0.3,0.3
2025-11-02T2100,3124A,105.9439,26.2564,安顺市,金钟山,,20,17,23,11,17,61,,75,74,7,6,10,9,0.3,0.3
2025-11-02T2100,3125A,105.8983,26.2481,安顺市,娄家坡,,18,16,24,9,18,56,,68,66,10,9,11,15,0.4,0.5
2025-11-02T2100,1818A,114.4839,36.0621,安阳市,棉研所,,,,,,,,,,,,,,,,
2025-11-02T2100,1819A,114.3551,36.1017,安阳市,红庙街,颗粒物(PM10),60,70,64,24,30,20,,61,50,51,39,2,3,0.5,0.6
2025-11-02T2100,1820A,114.361,36.0681,安阳市,银杏小区,颗粒物(PM10),61,72,61,31,31,6,,64,50,66,40,3,4,0.5,0.5
2025-11-02T2100,3141A,114.3922,36.0878,安阳市,信访局,颗粒物(PM10),57,64,59,28,33,11,,66,52,58,40,4,4,0.2,0.3
2025-11-02T2100,3669A,114.4705,36.0637,安阳市,左辅环卫站,颗粒物(PM10),91,131,91,40,39,5,,64,43,73,48,3,3,0.5,0.5
2025-11-02T2100,3703A,114.2917,36.0949,安阳市,安钢职工学校,颗粒物(PM10),59,68,63,35,34,5,,63,48,55,38,2,6,0.6,0.6
2025-11-02T2100,1748A,123.044,41.1196,鞍山市,深沟寺,颗粒物(PM10),53,56,44,26,10,27,,55,45,33,14,10,9,0.6,0.5
2025-11-02T2100,1749A,123.011,41.0931,鞍山市,太阳城,,42,42,49,22,13,27,,56,49,27,17,11,18,0.4,0.8
2025-11-02T2100,1750A,123.0485,41.1442,鞍山市,太平,颗粒物(PM10),68,85,60,35,13,20,,55,43,38,14,18,13,0.7,0.6
2025-11-02T2100,1751A,122.9642,41.0971,鞍山市,铁西三道街,颗粒物(PM10),57,63,45,29,9,27,,56,46,30,12,18,12,0.5,0.6
2025-11-02T2100,1753A,123.022,41.0821,鞍山市,明达新区,,47,47,45,20,10,22,,55,46,26,12,12,15,0.4,0.9
2025-11-02T2100,1754A,123.1289,41.0228,鞍山市,千山,,,,30,,11,,,58,,,7,,4,,0.2
2025-11-02T2100,4201A,122.9446,41.0826,鞍山市,兴盛南路290号,颗粒物(PM10),54,58,48,30,11,29,,56,48,34,16,21,15,0.4,0.4
2025-11-02T2100,2195A,107.4212,40.761,巴彦淖尔市,附二中,细颗粒物(PM2.5),95,117,67,71,36,16,,76,62,66,35,10,13,1.2,0.7
2025-11-02T2100,2196A,107.37,40.7372,巴彦淖尔市,市环保大楼,细颗粒物(PM2.5),134,133,63,102,29,54,,83,76,39,31,14,13,0.9,0.6
2025-11-02T2100,1956A,86.1472,41.7538,巴音郭楞蒙古自治州,孔雀公园,颗粒物(PM10),121,192,135,54,39,41,,80,80,54,60,8,8,0.8,0.7
2025-11-02T2100,1957A,86.1972,41.7166,巴音郭楞蒙古自治州,棉纺厂,颗粒物(PM10),114,178,157,45,30,47,,87,85,41,37,7,6,0.5,0.5
2025-11-02T2100,1958A,86.2357,41.7173,巴音郭楞蒙古自治州,经济开发区,颗粒物(PM10),104,157,139,28,28,34,,79,77,46,30,6,7,0.6,0.6
2025-11-02T2100,2914A,106.7677,31.8794,巴中市,苏山坪,,,,,,,,,,,,,,,,
2025-11-02T2100,3181A,106.7768,31.8526,巴中市,市五中,,50,46,35,35,26,11,,51,44,21,12,8,7,0.7,0.6
2025-11-02T2100,3183A,106.7418,31.8654,巴中市,圣泉水务公司,细颗粒物(PM2.5),64,63,31,46,26,2,,48,40,34,13,8,8,0.9,0.7
2025-11-02T2100,3616A,106.7616,31.8344,巴中市,市中心医院,,49,49,31,25,23,6,,47,39,28,15,10,10,0.8,0.7
2025-11-02T2100,2235A,122.7911,45.6077,白城市,洮北区环保局,细颗粒物(PM2.5),60,49,23,43,12,26,,50,34,26,9,8,6,0.5,0.3
2025-11-02T2100,2236A,122.8738,45.5725,白城市,市环保局,,46,41,15,32,12,6,,53,31,38,8,6,4,0.4,0.2
2025-11-02T2100,2231A,126.4219,41.9171,白山市,喜丰,,26,26,30,10,14,43,,49,47,11,11,4,5,0.6,0.7
2025-11-02T2100,2232A,126.4077,41.9419,白山市,环保局,,15,10,18,10,19,44,,51,48,6,7,5,5,0.4,0.6
2025-11-02T2100,2647A,104.1724,36.5446,白银市,第三小学,颗粒物(PM10),71,91,78,42,40,56,,92,86,42,33,16,31,0.5,0.7
2025-11-02T2100,2648A,104.1465,36.5482,白银市,动力公司,颗粒物(PM10),64,78,62,40,33,53,,102,93,39,25,16,18,0.6,0.6
2025-11-02T2100,2512A,106.6103,23.9011,百色市,市监测站,,26,19,15,18,9,27,,44,34,16,9,9,7,0.6,0.5
2025-11-02T2100,2513A,106.6538,23.8859,百色市,市中心血站,,16,14,17,11,11,24,,40,32,22,17,6,5,0.6,0.6
2025-11-02T2100,3406A,106.6085,23.8798,百色市,祈福高中,,19,19,16,11,9,21,,42,29,18,13,5,4,0.6,0.6
2025-11-02T2100,2270A,117.396,32.939,蚌埠市,工人疗养院,细颗粒物(PM2.5),85,114,132,63,83,56,,94,87,35,36,7,7,0.5,0.6
2025-11-02T2100,2271A,117.3605,32.9427,蚌埠市,百货大楼,颗粒物(PM10),79,107,110,57,73,51,,89,80,40,33,8,9,0.6,0.6
2025-11-02T2100,2273A,117.4185,32.8911,蚌埠市,蚌埠学院,颗粒物(PM10),69,88,106,40,73,35,,89,74,61,40,6,7,0.4,0.6
2025-11-02T2100,2274A,117.3533,32.9673,蚌埠市,淮上区政府,细颗粒物(PM2.5),114,132,124,86,88,34,,91,80,58,38,7,10,0.6,0.6
2025-11-02T2100,2275A,117.3145,32.8977,蚌埠市,高新区,颗粒物(PM10),57,63,95,29,66,77,,91,79,22,37,6,8,0.3,0.6
2025-11-02T2100,3715A,117.3092,32.9314,蚌埠市,蚌埠田家炳中学,细颗粒物(PM2.5),77,92,115,56,75,71,,94,90,23,30,5,13,0.5,0.6
2025-11-02T2100,1585A,109.8756,40.6532,包头市,市环境监测站,颗粒物(PM10),59,67,33,28,11,3,,59,40,75,37,13,11,0.9,0.5
2025-11-02T2100,1587A,109.9991,40.5842,包头市,包头八中,颗粒物(PM10),64,78,45,32,22,28,,60,46,56,44,70,21,0.6,0.9
2025-11-02T2100,1588A,109.8538,40.6821,包头市,青山宾馆,颗粒物(PM10),51,52,25,31,14,5,,62,43,79,39,13,14,0.9,0.8
2025-11-02T2100,1589A,109.8642,40.6288,包头市,惠龙物流,颗粒物(PM10),55,60,26,26,13,6,,63,48,72,33,13,12,0.7,0.7
2025-11-02T2100,1590A,110.0377,40.5546,包头市,东河鸿龙湾,颗粒物(PM10),73,95,33,43,16,6,,62,43,90,49,25,14,0.7,0.8
2025-11-02T2100,3283A,109.9154,40.5685,包头市,滨河大厦,,42,42,25,15,10,8,,64,48,64,39,9,10,0.4,0.5
2025-11-02T2100,3419A,109.9447,40.6261,包头市,包头市委党校,颗粒物(PM10),69,88,31,31,14,3,,66,46,81,45,16,13,0.9,0.8
2025-11-02T2100,3683A,109.8331,40.6576,包头市,昆区政府,,40,40,23,22,14,27,,60,52,53,30,20,14,0.6,0.7
2025-11-02T2100,1930A,107.185,34.3063,宝鸡市,庙沟村,,,,,,,,,,,,,,,,
2025-11-02T2100,1931A,107.0708,34.3017,宝鸡市,竹园沟,颗粒物(PM10),51,51,32,33,21,28,,63,59,29,20,7,8,0.4,0.3
2025-11-02T2100,1932A,107.1906,34.3672,宝鸡市,三陆医院,细颗粒物(PM2.5),107,110,69,80,48,34,,63,60,62,41,7,9,0.7,0.6
2025-11-02T2100,1933A,107.1431,34.3547,宝鸡市,监测站,细颗粒物(PM2.5),74,88,50,54,35,14,,58,53,44,27,5,6,0.6,0.5
2025-11-02T2100,1934A,107.1186,34.3739,宝鸡市,技工学校,细颗粒物(PM2.5),105,97,63,79,39,21,,64,60,51,28,6,7,0.8,0.6
2025-11-02T2100,1936A,107.2058,34.3497,宝鸡市,文理学院,颗粒物(PM10),74,98,54,53,37,14,,68,63,62,32,6,8,0.8,0.5
2025-11-02T2100,1937A,107.2386,34.3622,宝鸡市,三迪小学,细颗粒物(PM2.5),99,110,72,74,47,35,,66,63,68,44,7,9,0.8,0.7
2025-11-02T2100,4308A,107.3898,34.3601,宝鸡市,陈仓区北开路21号,细颗粒物(PM2.5),102,129,91,76,57,47,,68,67,45,36,8,40,0.7,0.6
2025-11-02T2100,1051A,115.493,38.8632,保定市,游泳馆,颗粒物(PM10),74,98,46,51,16,8,,54,41,63,36,3,3,0.1,0.1
2025-11-02T2100,1052A,115.5213,38.8959,保定市,华电二区,细颗粒物(PM2.5),55,53,30,39,22,11,,56,46,55,27,1,2,0.2,0.1
2025-11-02T2100,1053A,115.4713,38.9108,保定市,接待中心,颗粒物(PM10),54,58,35,37,14,23,,56,50,44,26,4,4,0.1,0
2025-11-02T2100,1054A,115.4612,38.8416,保定市,地表水厂,颗粒物(PM10),51,51,45,21,14,24,,54,47,51,36,8,8,0.4,0.1
2025-11-02T2100,3581A,115.31981,38.95208,保定市,满城区生态环境分局,颗粒物(PM10),65,80,47,36,13,20,,58,46,46,35,1,2,0.2,0.1
2025-11-02T2100,3582A,115.47694,38.76408,保定市,清苑区第二中学,颗粒物(PM10),71,91,48,24,16,11,,59,45,72,26,11,3,0.6,0.3
2025-11-02T2100,3583A,115.62909,39.02311,保定市,徐水物探局,颗粒物(PM10),68,85,41,44,16,21,,52,42,46,28,6,4,0.5,0.4
2025-11-02T2100,4004A,115.4202,38.8656,保定市,双鹰农机,颗粒物(PM10),55,60,41,19,16,34,,61,53,39,28,2,2,0.5,0.4
2025-11-02T2100,4034A,115.5150,38.8590,保定市,植保所站,,,122,50,42,26,,,52,51,71,35,3,2,0.4,0.6
2025-11-02T2100,2594A,99.1678,25.1081,保山市,市环境监测站,,17,17,16,8,12,20,,34,31,16,9,9,8,0.5,0.5
2025-11-02T2100,2595A,99.1711,25.1328,保山市,市环保局,,32,25,20,22,14,25,,34,34,11,8,6,6,0.7,0.6
2025-11-02T2100,1866A,109.2262,21.588,北海市,牛尾岭水库,,45,,29,31,28,42,,46,45,11,13,2,2,0.7,0.7
2025-11-02T2100,1867A,109.1436,21.4086,北海市,海滩公园,,46,45,37,32,26,48,,58,57,13,11,6,7,0.7,0.7
2025-11-02T2100,1868A,109.0981,21.4661,北海市,新市环保局,,49,35,33,34,29,51,,62,61,14,11,4,5,0.6,0.6
2025-11-02T2100,1869A,109.1778,21.5233,北海市,北海工业园,,,37,39,32,28,,,57,57,14,12,5,5,0.6,0.6
2025-11-02T2100,3400A,109.1911,21.4415,北海市,龙潭自来水厂,细颗粒物(PM2.5),53,39,36,37,30,48,,58,57,11,9,2,2,0.6,0.6
2025-11-02T2100,1001A,116.3621,39.8784,北京市,万寿西宫,,35,35,10,14,4,26,,60,47,43,17,2,2,0.5,0.4
2025-11-02T2100,1002A,116.2202,40.2915,北京市,定陵,,,,,,,,,,,,,,,,
2025-11-02T2100,1003A,116.4174,39.9289,北京市,东四,,40,40,10,15,4,25,,60,49,39,15,2,2,0.5,0.3
2025-11-02T2100,1004A,116.4072,39.8863,北京市,天坛,,30,30,8,14,3,17,,59,44,38,18,3,2,0.4,0.2
2025-11-02T2100,1005A,116.462,39.9365,北京市,农展馆,,35,35,10,18,3,28,,63,52,34,19,3,3,0.5,0.3
2025-11-02T2100,1006A,116.3392,39.9295,北京市,官园,,37,37,12,19,5,33,,56,48,31,15,2,2,0.4,0.3
2025-11-02T2100,1007A,116.2878,39.9611,北京市,海淀万柳,颗粒物(PM10),51,51,18,24,6,15,,49,36,51,32,3,3,0.4,0.3
2025-11-02T2100,1008A,116.6636,40.135,北京市,顺义新城,颗粒物(PM10),67,84,14,21,4,11,,64,46,56,15,3,3,0.5,0.3
2025-11-02T2100,1009A,116.6275,40.3275,北京市,怀柔镇,,22,22,10,12,4,37,,58,50,18,13,4,3,0.5,0.3
2025-11-02T2100,1010A,116.2296,40.217,北京市,昌平镇,,26,26,10,12,4,34,,59,47,25,13,4,4,0.3,0.2
2025-11-02T2100,1011A,116.3966,39.9821,北京市,奥体中心,,32,32,9,14,3,28,,52,45,41,21,4,4,0.3,0.1
2025-11-02T2100,3281A,115.9718,40.4529,北京市,延庆夏都,,27,27,12,10,4,43,,64,56,26,15,2,2,0.3,0.2
2025-11-02T2100,3418A,116.8336,40.4095,北京市,密云新城,,38,38,7,14,3,9,,64,48,37,9,2,1,0.5,0.3
2025-11-02T2100,3671A,116.088,39.9726,北京市,门头沟三家店,颗粒物(PM10),62,74,20,23,6,4,,49,31,46,22,1,2,0.5,0.3
2025-11-02T2100,3672A,116.1541,39.8204,北京市,丰台云岗,颗粒物(PM10),63,75,21,26,7,2,,51,35,59,24,2,2,0.5,0.3
2025-11-02T2100,3673A,116.6804,39.9081,北京市,通州东关,,45,45,9,20,3,22,,65,47,51,21,3,3,0.4,0.2
2025-11-02T2100,3674A,115.9577,39.7603,北京市,房山燕山,,30,30,17,13,6,30,,42,37,21,18,3,3,0.2,0.2
2025-11-02T2100,3675A,116.4672,39.7733,北京市,大兴旧宫,,37,37,9,14,3,12,,59,42,28,14,2,2,0.5,0.4
2025-11-02T2100,3694A,115.986,40.4563,北京市,延庆石河营,,26,26,10,9,4,43,,63,57,21,9,2,2,0.3,0.3
2025-11-02T2100,3695A,116.6151,40.3053,北京市,怀柔新城,,16,15,7,11,4,50,,63,58,12,12,3,3,0.1,0.1
2025-11-02T2100,3696A,116.2545,39.8768,北京市,丰台小屯,颗粒物(PM10),55,60,14,24,5,5,,52,32,52,21,3,3,0.5,0.4
2025-11-02T2100,3697A,116.84,40.3844,北京市,密云镇,颗粒物(PM10),61,71,14,22,4,2,,66,40,53,16,6,5,0.7,0.3
2025-11-02T2100,4182A,116.1942,39.9158,北京市,八角北路9号,颗粒物(PM10),64,78,23,21,5,3,,47,30,66,30,3,3,0.3,0.1
2025-11-02T2100,4194A,117.0790,40.1518,北京市,洳河巡河路,,34,34,8,14,3,41,,64,57,26,10,4,3,0.4,0.2
2025-11-02T2100,1761A,123.8275,41.3064,本溪市,大峪,,37,37,36,15,6,37,,52,48,13,9,8,8,0.3,0.1
2025-11-02T2100,1762A,123.7567,41.3325,本溪市,溪湖,,32,32,53,17,10,43,,51,50,15,16,14,14,0.7,0.6
2025-11-02T2100,1763A,123.7169,41.3094,本溪市,彩屯,,50,50,56,29,13,13,,48,36,33,13,6,7,0.9,0.7
2025-11-02T2100,1764A,123.7669,41.2864,本溪市,东明,细颗粒物(PM2.5),57,42,63,40,10,34,,54,51,25,12,9,9,0.8,0.6
2025-11-02T2100,1765A,123.7992,41.2664,本溪市,新立屯,,24,24,62,15,10,32,,52,48,19,11,6,6,0.3,0.2
2025-11-02T2100,1766A,123.8142,41.3472,本溪市,威宁,,43,43,66,27,11,12,,52,41,40,13,4,5,0.5,0.3
2025-11-02T2100,2587A,105.2864,27.3125,毕节市,八中,,18,13,19,12,15,33,,52,44,14,7,7,7,0.6,0.5
2025-11-02T2100,2588A,105.31,27.2944,毕节市,师专,,15,12,17,7,10,47,,55,52,9,8,8,8,0.6,0.5
2025-11-02T2100,4263A,105.3688,27.3598,毕节市,工业大道,,15,8,16,7,13,48,,59,58,9,8,8,8,0.6,0.6
2025-11-02T2100,1629A,118.0018,37.3617,滨州市,第二水厂,细颗粒物(PM2.5),80,78,36,59,19,28,,74,64,43,23,20,13,0.1,0.1
2025-11-02T2100,1630A,117.9776,37.393,滨州市,北中新校,"颗粒物(PM10),细颗粒物(PM2.5)",52,53,33,36,16,34,,73,62,35,26,19,7,0.3,0.3
2025-11-02T2100,3514A,117.9378,37.3956,滨州市,中海酒店,细颗粒物(PM2.5),58,46,35,41,22,43,,75,66,48,53,21,7,0.5,0.5
2025-11-02T2100,3515A,117.9378,37.3553,滨州市,开发区一中,细颗粒物(PM2.5),67,73,40,48,18,42,,86,76,32,24,13,8,0.4,0.4
2025-11-02T2100,3516A,118.0917,37.694,滨州市,金海六路,,29,29,22,7,6,33,,84,66,42,20,7,10,0.2,0.1
2025-11-02T2100,4028A,117.9956,37.3753,滨州市,滨州市西街道办事处,细颗粒物(PM2.5),58,56,33,41,22,45,,79,71,28,22,35,11,0.3,0.3
2025-11-02T2100,2311A,115.8072,33.8399,亳州市,污水处理厂,颗粒物(PM10),69,87,102,45,65,42,,78,65,48,58,13,12,0.5,0.7
2025-11-02T2100,2312A,115.7789,33.8518,亳州市,三国揽胜宫,颗粒物(PM10),80,109,112,53,64,40,,78,66,46,52,6,7,0.5,0.7
2025-11-02T2100,3332A,115.7633,33.8034,亳州市,亳州学院,颗粒物(PM10),64,78,100,33,63,60,,87,79,26,34,9,10,0.6,0.7
2025-11-02T2100,2693A,82.0485,44.8556,博尔塔拉蒙古自治州,市党校,颗粒物(PM10),56,61,44,25,21,24,,71,59,46,11,4,3,0.6,0.4
2025-11-02T2100,2694A,82.0806,44.8969,博尔塔拉蒙古自治州,市环保局,颗粒物(PM10),57,64,117,13,14,29,,66,57,50,18,4,4,0.4,0.3
2025-11-02T2100,1071A,116.8842,38.2991,沧州市,沧县城建局,颗粒物(PM10),53,55,30,31,17,15,,66,51,62,22,5,3,0.5,0.3
2025-11-02T2100,1072A,116.8584,38.3254,沧州市,电视转播站,,39,39,28,14,11,40,,67,59,36,26,5,3,0.6,0.5
2025-11-02T2100,1073A,116.8709,38.3228,沧州市,市环保局,,48,48,32,30,22,24,,66,53,48,24,5,4,0.4,0.2
2025-11-02T2100,3324A,116.8136,38.3004,沧州市,河北水利电力学院,,48,48,21,25,10,30,,66,56,49,21,5,4,0.6,0.2
2025-11-02T2100,2622A,97.1806,31.1273,昌都市,昌都监测站,,27,11,11,9,6,86,,82,82,7,6,4,3,0.3,0.3
2025-11-02T2100,3719A,97.1714,31.1406,昌都市,昌都会议中心,,27,13,9,9,6,84,,84,84,6,4,4,4,0.1,0.1
2025-11-02T2100,2690A,88.1236,43.8886,昌吉回族自治州,天山天池,,,,,,,,,,,,,,,,
2025-11-02T2100,2692A,87.2717,44.0297,昌吉回族自治州,新区政务中心,颗粒物(PM10),60,70,78,23,26,6,,71,64,72,34,5,7,0.7,0.5
2025-11-02T2100,3613A,87.3095,44.0142,昌吉回族自治州,亚心广场,,,83,96,27,26,32,,73,70,,25,7,9,0.7,0.5
2025-11-02T2100,1120A,125.2863,43.9027,长春市,客车厂,细颗粒物(PM2.5),67,54,29,48,25,11,,38,29,41,16,16,7,0.5,0.3
2025-11-02T2100,1121A,125.2841,43.8463,长春市,邮电学院,细颗粒物(PM2.5),69,58,43,50,32,11,,49,41,42,14,6,6,0.6,0.4
2025-11-02T2100,1122A,125.3716,43.8772,长春市,劳动公园,细颗粒物(PM2.5),57,59,38,40,20,21,,42,37,32,14,9,8,0.8,0.6
2025-11-02T2100,1123A,125.3297,43.8805,长春市,园林处,,50,40,31,35,23,18,,40,35,32,16,5,5,0.5,0.3
2025-11-02T2100,1124A,125.4605,43.79,长春市,净月潭,,,,43,,39,34,,44,42,38,13,5,6,1.1,0.5
2025-11-02T2100,1125A,125.7194,43.515,长春市,甩湾子,,,,40,,23,25,,51,46,24,17,4,4,0.6,0.4
2025-11-02T2100,1126A,125.3863,43.8447,长春市,经开区环卫处,细颗粒物(PM2.5),74,75,38,54,24,8,,38,28,43,18,8,9,0.6,0.4
2025-11-02T2100,1127A,125.245,43.7783,长春市,高新区管委会,细颗粒物(PM2.5),52,,36,36,24,21,,80,76,30,17,6,6,0.4,0.5
2025-11-02T2100,1128A,125.1761,43.8325,长春市,岱山公园,细颗粒物(PM2.5),69,53,40,50,28,10,,56,42,32,15,6,6,0.4,0.4
2025-11-02T2100,4281A,125.3346,43.9164,长春市,北亚泰大街1068号,,50,50,31,30,24,8,,38,29,45,16,7,6,0.5,0.3
2025-11-02T2100,1335A,113.0833,28.2325,长沙市,经开区环保局,,49,49,57,25,42,31,,47,42,33,34,5,5,0.4,0.5
2025-11-02T2100,1336A,112.8872,28.2189,长沙市,高开区环保局,细颗粒物(PM2.5),57,61,57,40,45,7,,46,28,50,37,6,6,0.5,0.5
2025-11-02T2100,1337A,113.0792,28.2053,长沙市,马坡岭,,49,49,57,22,36,32,,50,40,33,36,5,5,0.4,0.6
2025-11-02T2100,1338A,112.9394,28.19,长沙市,湖南师范大学,颗粒物(PM10),53,56,49,18,30,26,,60,47,26,30,4,4,0.4,0.4
2025-11-02T2100,1339A,113.0178,28.1322,长沙市,雨花区环保局,颗粒物(PM10),54,57,57,27,49,29,,59,49,34,37,7,7,0.7,0.8
2025-11-02T2100,1340A,112.9792,28.2597,长沙市,伍家岭,颗粒物(PM10),54,57,61,26,46,7,,54,41,53,34,4,4,0.3,0.4
2025-11-02T2100,1341A,113.0014,28.1944,长沙市,火车新站,,48,48,58,31,45,38,,61,51,31,38,9,9,0.6,0.7
2025-11-02T2100,1342A,112.9844,28.1178,长沙市,天心区环保局,,43,43,59,21,36,27,,62,53,41,40,5,5,0.6,0.6
2025-11-02T2100,1343A,112.8908,28.1308,长沙市,湖南中医药大学,颗粒物(PM10),55,59,47,27,29,2,,50,32,46,30,5,5,0.8,0.7
2025-11-02T2100,1344A,112.9581,28.3611,长沙市,沙坪,,,,,,,,,,,,,,,,
2025-11-02T2100,1727A,113.1147,36.1547,长治市,清华站,细颗粒物(PM2.5),73,54,49,53,29,76,,99,99,23,36,14,13,0.7,0.7
2025-11-02T2100,1730A,113.0886,36.2125,长治市,审计局,细颗粒物(PM2.5),79,,41,58,31,80,,94,94,20,38,11,12,0.6,0.6
2025-11-02T2100,1731A,113.0844,36.1856,长治市,长治八中,细颗粒物(PM2.5),63,68,70,45,35,73,,93,93,19,32,13,11,0.6,0.7
2025-11-02T2100,2845A,113.1569,36.1911,长治市,德盛苑,细颗粒物(PM2.5),85,,46,63,30,77,,100,99,18,27,9,10,0.6,0.8
2025-11-02T2100,3568A,113.06,36.0464,长治市,向阳小学,细颗粒物(PM2.5),77,84,70,56,41,68,,102,100,35,35,9,12,0.5,0.7
2025-11-02T2100,3569A,112.8792,36.3144,长治市,屯留一中,颗粒物(PM10),55,59,46,30,24,66,,89,88,20,26,11,13,0.7,0.6
2025-11-02T2100,4189A,113.1131,36.19948,长治市,英华南巷50号,细颗粒物(PM2.5),70,66,63,51,33,75,,103,102,22,32,9,9,0.7,0.8
2025-11-02T2100,4190A,113.2367,36.3344,长治市,学府街1号,,42,42,51,12,25,23,,87,71,50,36,13,10,0.7,0.8
2025-11-02T2100,1854A,111.6975,28.9703,常德市,市二中,细颗粒物(PM2.5),59,42,28,42,20,34,,67,63,25,12,5,5,0.7,0.5
2025-11-02T2100,1857A,111.7158,29.1456,常德市,白鹤山,,,,,,,,,,,,,,,,
2025-11-02T2100,3138A,111.7153,29.0289,常德市,武陵区永安,细颗粒物(PM2.5),75,61,30,55,18,52,,56,55,22,10,4,4,0.6,0.4
2025-11-02T2100,3139A,111.6892,28.9881,常德市,鼎城区玉霞,细颗粒物(PM2.5),60,58,32,43,18,41,,57,53,21,14,5,5,0.5,0.3
2025-11-02T2100,3140A,111.6625,29.0531,常德市,武陵区长庚,细颗粒物(PM2.5),80,66,31,59,19,60,,52,52,17,11,3,3,0.4,0.2
2025-11-02T2100,1196A,119.9633,31.762,常州市,市监测站,,26,25,113,18,77,69,,115,101,17,29,9,11,0.5,0.9
2025-11-02T2100,1200A,119.9468,31.7069,常州市,武进监测站,,28,28,104,16,56,62,,119,104,23,27,7,9,0.4,0.7
2025-11-02T2100,1201A,119.9255,31.9087,常州市,安家,,47,47,133,22,72,64,,106,95,11,36,8,12,0.6,1
2025-11-02T2100,3002A,119.9805,31.8174,常州市,行政中心,颗粒物(PM10),58,65,113,20,76,65,,113,101,19,28,5,8,0.4,0.7
2025-11-02T2100,3003A,120.0522,31.7748,常州市,经开区,,32,32,120,16,70,56,,116,99,31,27,8,10,0.6,0.9
2025-11-02T2100,3010A,119.9025,31.7964,常州市,钟楼,,37,37,109,25,78,72,,113,101,18,34,8,11,0.6,1
2025-11-02T2100,3429A,119.8598,31.7066,常州市,武进经发区,,28,28,97,12,59,67,,112,97,24,32,8,10,0.6,0.9
2025-11-02T2100,3430A,119.5826,31.7245,常州市,金坛城区,颗粒物(PM10),54,58,78,31,57,58,,117,102,26,24,6,8,0.4,0.7
2025-11-02T2100,2220A,120.4318,41.5881,朝阳市,西梁,,,82,23,,6,5,,69,54,62,16,7,5,1.1,0.4
2025-11-02T2100,2221A,120.4521,41.5646,朝阳市,河畔小区,,38,29,23,26,7,40,,68,63,26,12,5,5,0.6,0.3
2025-11-02T2100,2222A,120.4176,41.5648,朝阳市,八里堡,,35,35,23,16,8,33,,70,61,35,12,7,6,0.6,0.4
2025-11-02T2100,2223A,120.3806,41.5969,朝阳市,农业园区,,39,39,21,24,10,6,,74,52,64,13,7,6,0.6,0.4
2025-11-02T2100,1705A,116.6367,23.6719,潮州市,西园路,,,,,,,,,,,,,,,,
2025-11-02T2100,3026A,116.6183,23.6608,潮州市,市政府,颗粒物(PM10),51,51,39,25,19,99,,98,95,10,8,4,4,0.5,0.4
2025-11-02T2100,4036A,116.6461,23.6761,潮州市,金山,,36,36,35,23,23,86,,92,89,14,9,4,3,0.5,0.5
2025-11-02T2100,2472A,113.0073,25.9061,郴州市,马头岭,,,,,,,,,,,,,,,,
2025-11-02T2100,2473A,113.0116,25.8226,郴州市,市职中,,32,28,40,22,35,50,,43,43,9,16,3,4,0.5,0.7
2025-11-02T2100,2475A,113.0383,25.8071,郴州市,市审计局,,32,28,42,22,33,52,,53,53,10,13,1,5,0.2,0.3
2025-11-02T2100,2476A,113.0348,25.7759,郴州市,市环保局,,34,34,49,18,34,47,,48,48,11,16,2,9,0.3,0.4
2025-11-02T2100,4252A,113.0138,25.8011,郴州市,好美居路49号,,28,,40,19,33,60,,53,53,13,17,2,5,0.5,0.6
2025-11-02T2100,1431A,103.9728,30.7236,成都市,金泉两河,,44,44,28,27,15,21,,33,31,29,26,3,7,0.6,0.5
2025-11-02T2100,1432A,104.176,30.6872,成都市,十里店,细颗粒物(PM2.5),67,53,39,48,30,43,,46,46,22,28,3,3,0.4,0.4
2025-11-02T2100,1433A,104.079,30.5706,成都市,三瓦窑,颗粒物(PM10),59,67,43,25,19,28,,46,44,32,26,4,4,0.6,0.6
2025-11-02T2100,1434A,104.1114,30.63,成都市,沙河铺,细颗粒物(PM2.5),55,46,43,39,36,14,,40,38,36,32,4,4,0.5,0.4
2025-11-02T2100,1437A,104.0786,30.6531,成都市,君平街,细颗粒物(PM2.5),63,52,38,45,25,24,,33,33,26,23,4,4,0.5,0.5
2025-11-02T2100,1438A,103.613,31.0283,成都市,灵岩寺,,,,,,,,,,,,,,,,
2025-11-02T2100,2880A,104.0239,30.65639,成都市,大石西路,细颗粒物(PM2.5),57,42,30,40,26,31,,41,41,33,30,4,4,0.6,0.6
2025-11-02T2100,3136A,104.2725,30.5589,成都市,龙泉驿区区政府,,24,24,16,12,11,26,,48,39,20,16,5,6,0.5,0.4
2025-11-02T2100,3357A,104.0106,30.6931,成都市,金博路,,45,34,28,31,19,32,,37,37,24,24,6,6,0.5,0.5
2025-11-02T2100,3359A,104.0578,30.5225,成都市,华阳,细颗粒物(PM2.5),55,44,28,39,26,34,,49,47,29,21,5,5,0.4,0.3
2025-11-02T2100,3488A,104.3880,30.7467,成都市,青石路225号,,49,,31,34,19,28,,48,46,22,23,4,4,0.6,0.6
2025-11-02T2100,3489A,104.0789,30.4072,成都市,科学城,细颗粒物(PM2.5),53,45,25,37,20,29,,52,50,26,16,6,5,0.5,0.4
2025-11-02T2100,4011A,103.8506,30.6947,成都市,光华大道三段,细颗粒物(PM2.5),74,71,42,54,24,31,,51,50,28,20,1,1,0.7,0.6
2025-11-02T2100,4224A,104.2433,30.5353,成都市,鲸龙路1057号,,,,26,,20,,,42,,,24,,5,,0.5
2025-11-02T2100,1062A,117.9531,40.9081,承德市,铁路,,39,34,23,27,9,20,,64,44,32,16,2,2,0.5,0.2
2025-11-02T2100,1063A,117.9392,40.9763,承德市,中国银行,颗粒物(PM10),53,56,23,26,5,9,,65,45,39,15,2,2,0.6,0.3
2025-11-02T2100,1064A,117.9503,40.928,承德市,开发区,颗粒物(PM10),51,51,35,29,15,12,,64,46,41,16,4,3,0.3,0.1
2025-11-02T2100,1066A,117.9268,41.0026,承德市,离宫,,,,,,,,,,,,,,,,
2025-11-02T2100,4274A,117.7994,40.9605,承德市,滨河大街98号,,37,37,14,17,9,13,,64,45,36,9,3,3,0.4,0.3
2025-11-02T2100,2314A,117.47,30.6618,池州市,池州学院,细颗粒物(PM2.5),92,102,55,68,36,90,,107,105,30,23,8,8,0.9,1
2025-11-02T2100,3237A,117.4918,30.6617,池州市,展览馆,细颗粒物(PM2.5),74,86,54,54,33,79,,108,104,26,22,6,8,0.9,1.1
2025-11-02T2100,3333A,117.5627,30.695,池州市,第八中学,细颗粒物(PM2.5),83,100,58,61,35,101,,111,111,23,23,8,9,0.9,0.9
2025-11-02T2100,3334A,117.5038,30.6243,池州市,第十二中学,细颗粒物(PM2.5),79,93,54,58,33,89,,113,106,33,29,7,7,1.1,1.2
2025-11-02T2100,1744A,118.9233,42.2816,赤峰市,松山一中,颗粒物(PM10),51,52,15,32,6,7,,70,50,68,21,22,6,1.6,0.4
2025-11-02T2100,1745A,118.9576,42.2728,赤峰市,哈达街,,38,38,15,14,8,24,,62,49,42,18,12,8,0.7,0.4
2025-11-02T2100,1746A,118.8788,42.2554,赤峰市,天义路,细颗粒物(PM2.5),59,,11,42,8,14,,67,49,52,17,16,9,1.0,0.6
2025-11-02T2100,3058A,119.2658,42.0353,赤峰市,银河街,细颗粒物(PM2.5),68,71,22,49,12,37,,72,57,31,10,40,14,0.6,0.2
2025-11-02T2100,3286A,118.9359,42.3147,赤峰市,桥北物流园区,颗粒物(PM10),53,56,16,34,10,15,,65,40,49,22,14,11,0.6,0.3
2025-11-02T2100,2521A,107.3476,22.4136,崇左市,市环保局江州分局,,20,12,16,10,10,63,,53,53,3,5,1,2,0.6,0.6
2025-11-02T2100,4256A,107.3750,22.3736,崇左市,石景林东路7号,,17,,14,10,10,54,,50,50,7,7,6,6,0.6,0.6
2025-11-02T2100,2298A,118.3093,32.3153,滁州市,老年大学,细颗粒物(PM2.5),77,85,68,56,52,76,,111,103,23,25,10,11,0.3,0.4
2025-11-02T2100,2299A,118.3244,32.2786,滁州市,人大宾馆,颗粒物(PM10),65,80,69,41,43,74,,106,100,27,25,5,6,0.4,0.4
2025-11-02T2100,3207A,118.3118,32.3038,滁州市,市政府原办公楼,细颗粒物(PM2.5),75,80,74,55,50,73,,108,100,33,28,6,7,0.5,0.6
2025-11-02T2100,3331A,118.3267,32.2634,滁州市,图书馆,颗粒物(PM10),61,72,70,41,38,81,,113,106,24,26,7,8,0.4,0.4
2025-11-02T2100,2605A,101.5482,25.0441,楚雄彝族自治州,州环境监测站,,8,6,7,3,5,14,,28,13,14,5,8,8,0.8,0.7
2025-11-02T2100,2606A,101.538,25.0492,楚雄彝族自治州,市经济开发区,,10,10,11,7,8,16,,28,15,15,8,9,7,0.9,0.8
2025-11-02T2100,2548A,107.5277,31.2827,达州市,达州职业技术学院,,,,,,,,,,,,,,,,
2025-11-02T2100,2549A,107.5086,31.2186,达州市,市环境监测站,颗粒物(PM10),52,53,47,31,31,1,,28,22,38,26,6,6,0.7,0.6
2025-11-02T2100,2550A,107.4988,31.2132,达州市,凤凰小区,颗粒物(PM10),60,70,50,39,32,3,,29,23,42,25,5,6,0.8,0.6
2025-11-02T2100,2551A,107.5082,31.1986,达州市,达县机关宾馆,"颗粒物(PM10),细颗粒物(PM2.5)",58,66,44,41,26,2,,23,18,36,25,5,7,0.6,0.5
2025-11-02T2100,2552A,107.4644,31.2124,达州市,市政中心,颗粒物(PM10),66,81,63,36,31,2,,29,22,44,25,6,5,0.7,0.6
2025-11-02T2100,2614A,100.1542,25.7054,大理白族自治州,大理市环境监测站,,11,6,12,6,12,33,,42,37,12,8,5,5,0.5,0.5
2025-11-02T2100,2615A,100.2171,25.5811,大理白族自治州,大理古城,,10,,13,7,12,25,,36,32,12,9,6,6,0.5,0.5
2025-11-02T2100,1109A,121.612,38.9741,大连市,甘井子,,29,29,34,8,3,58,,69,66,21,14,6,7,0.4,0.4
2025-11-02T2100,1110A,121.565,38.9511,大连市,周水子,,22,22,27,7,3,62,,77,74,25,10,9,4,0.3,0.2
2025-11-02T2100,1111A,121.5637,38.8845,大连市,星海三站,,22,22,26,8,4,54,,67,63,12,6,8,6,0.3,0.2
2025-11-02T2100,1112A,121.6302,38.9117,大连市,青泥洼桥,,24,24,18,7,3,59,,66,65,17,10,10,9,0.0,0
2025-11-02T2100,1113A,121.6251,38.8638,大连市,傅家庄,,21,21,24,6,3,55,,64,64,16,9,8,7,0.4,0.3
2025-11-02T2100,1114A,121.5213,38.8661,大连市,七贤岭,,24,24,29,7,4,64,,72,69,14,9,8,6,0.4,0.3
2025-11-02T2100,1115A,121.2529,38.8061,大连市,旅顺,,21,15,15,7,4,67,,74,73,11,11,7,7,0.3,0.2
2025-11-02T2100,1116A,121.7485,39.1311,大连市,金州,,29,29,24,9,5,60,,69,66,16,10,11,8,0.2,0.2
2025-11-02T2100,1117A,121.7811,39.0496,大连市,开发区,,23,23,28,7,4,61,,65,62,10,7,6,5,0.2,0.2
2025-11-02T2100,1118A,121.9762,39.0631,大连市,双D港,,28,28,35,12,4,61,,74,70,11,6,8,8,0.2,0.1
2025-11-02T2100,1789A,124.81117,46.03138,大庆市,大同区,,,210,36,,5,57,,60,60,31,11,16,9,1.0,0.5
2025-11-02T2100,1790A,125.129,46.533,大庆市,龙凤区,颗粒物(PM10),70,90,38,37,19,14,,39,26,46,14,9,5,0.7,0.4
2025-11-02T2100,1791A,124.902,46.408,大庆市,红岗区,,,199,44,,17,49,,42,37,32,11,8,5,0.9,0.7
2025-11-02T2100,1792A,125.153,46.586,大庆市,萨尔图区,颗粒物(PM10),58,65,29,34,10,11,,40,26,46,15,12,11,0.6,0.3
2025-11-02T2100,1793A,124.9042,46.6215,大庆市,让胡路区,细颗粒物(PM2.5),70,62,33,51,23,25,,42,32,34,10,7,6,0.6,0.3
2025-11-02T2100,3481A,125.141,46.634,大庆市,萨区政府监测点,颗粒物(PM10),52,53,23,22,5,20,,43,32,27,6,8,8,0.7,0.5
2025-11-02T2100,1721A,113.3819,40.1097,大同市,果树场,颗粒物(PM10),115,179,36,34,16,10,,56,38,49,26,11,14,0.7,0.5
2025-11-02T2100,1723A,113.2994,40.0758,大同市,云冈宾馆,颗粒物(PM10),77,104,40,45,17,10,,59,48,67,25,10,10,1.4,1
2025-11-02T2100,1724A,113.3444,40.0917,大同市,大同大学,颗粒物(PM10),61,71,29,33,15,16,,62,50,58,32,14,14,0.6,0.6
2025-11-02T2100,1725A,113.2661,40.1269,大同市,安家小村,,49,49,43,20,18,28,,56,49,43,23,11,12,0.4,0.7
2025-11-02T2100,1726A,113.2711,40.0844,大同市,教育学院,颗粒物(PM10),94,137,43,69,21,3,,55,43,70,28,14,13,1.2,0.8
2025-11-02T2100,3282A,113.3397,40.0597,大同市,大同市卫生学校,颗粒物(PM10),74,98,33,48,17,2,,54,42,64,24,14,12,0.8,0.7
2025-11-02T2100,3565A,113.1367,40.1122,大同市,云冈站,颗粒物(PM10),65,80,43,33,18,4,,59,42,44,25,11,15,0.5,0.6
2025-11-02T2100,3566A,113.1186,40.2556,大同市,图书馆,颗粒物(PM10),84,117,40,33,16,15,,62,44,32,22,7,17,0.6,0.6
2025-11-02T2100,3567A,113.5931,40.0461,大同市,区一中,,46,46,29,17,13,38,,66,57,19,18,11,11,0.6,0.5
2025-11-02T2100,4199A,113.2798,40.0997,大同市,魏都大道141号,细颗粒物(PM2.5),110,150,45,83,24,9,,60,47,67,27,13,11,1.4,0.9
2025-11-02T2100,2269A,124.1069,50.4097,大兴安岭地区,科技局,,33,33,16,22,13,24,,50,42,14,4,5,4,0.4,0.2
2025-11-02T2100,3663A,124.1164,50.4278,大兴安岭地区,红旗社区,,39,39,8,25,6,17,,51,35,23,6,13,4,0.6,0.3
2025-11-02T2100,1600A,124.3303,40.0625,丹东市,江湾东路,,30,30,40,11,9,39,,54,51,16,10,7,6,0.6,0.5
2025-11-02T2100,1601A,124.4256,40.1503,丹东市,临江后街,,26,26,39,9,7,42,,54,49,9,8,5,5,0.6,0.6
2025-11-02T2100,1602A,124.3933,40.1461,丹东市,元宝山,,24,24,35,11,8,42,,52,48,9,8,8,7,0.6,0.5
2025-11-02T2100,1603A,124.3633,40.1092,丹东市,民主桥,,30,30,47,10,6,38,,54,48,19,12,5,6,1.2,1
2025-11-02T2100,3541A,109.5726,19.5167,儋州市,第一中学子站,,48,48,40,31,24,98,,90,90,9,9,7,6,0.4,0.4
2025-11-02T2100,3542A,109.5567,19.5187,儋州市,东坡学校子站,,48,48,35,29,23,115,,104,104,11,10,4,2,0.4,0.4
2025-11-02T2100,2616A,98.5842,24.428,德宏傣族景颇族自治州,德宏州监测站,,26,26,25,16,16,12,,21,21,20,17,7,8,0.9,0.7
2025-11-02T2100,3677A,98.5881,24.4368,德宏傣族景颇族自治州,芒市人民政府综合楼,,26,26,29,17,16,10,,19,19,12,14,6,6,0.7,0.6
2025-11-02T2100,1901A,104.4239,31.1208,德阳市,东山公园,,30,27,19,21,15,44,,50,48,10,11,1,2,0.7,0.7
2025-11-02T2100,1902A,104.3826,31.1317,德阳市,西小区,,45,45,42,29,22,22,,49,45,34,22,1,2,0.9,0.8
2025-11-02T2100,1904A,104.3553,31.1091,德阳市,耐火材料厂,,50,50,39,27,24,17,,47,43,39,27,1,2,0.7,0.6
2025-11-02T2100,3639A,104.4019,31.1244,德阳市,市教育局,,36,35,30,25,20,10,,47,40,38,20,4,4,0.6,0.5
2025-11-02T2100,1622A,116.3032,37.4674,德州市,儿童乐园,颗粒物(PM10),54,58,44,22,16,9,,69,49,68,35,9,10,0.6,0.5
2025-11-02T2100,1624A,116.2991,37.4451,德州市,监理站,,39,39,30,14,12,23,,78,61,69,41,12,13,0.7,0.5
2025-11-02T2100,3066A,116.2721,37.4379,德州市,九衢泉纯净水厂,颗粒物(PM10),51,51,45,22,13,24,,69,54,53,36,10,12,0.6,0.5
2025-11-02T2100,3371A,116.3728,37.4403,德州市,开发区人民医院,,36,36,34,9,14,13,,58,41,66,40,11,13,0.7,0.6
2025-11-02T2100,3511A,116.5652,37.3319,德州市,陵城艺术中心,细颗粒物(PM2.5),77,88,47,56,25,0,,50,28,76,41,14,11,0.9,0.6
2025-11-02T2100,4292A,116.3525,37.4209,德州市,新河东路,,41,41,35,19,13,8,,67,49,81,44,8,9,0.6,0.6
2025-11-02T2100,2621A,99.7056,27.8317,迪庆藏族自治州,迪庆州站,,29,27,17,20,13,33,,47,42,16,9,7,6,0.9,0.6
2025-11-02T2100,3180A,99.7136,27.8094,迪庆藏族自治州,质量技术监督局,,22,22,13,12,8,25,,51,42,21,9,7,7,0.8,0.5
2025-11-02T2100,4257A,104.6092,35.5962,定西市,将台街,颗粒物(PM10),55,59,63,28,35,14,,95,75,69,30,50,14,0.7,0.6
2025-11-02T2100,4309A,104.6159,35.5701,定西市,正龙路62号,,48,48,58,25,34,63,,94,90,13,13,5,6,0.3,0.4
2025-11-02T2100,1389A,113.7547,23.0494,东莞市,莞城梨川,,34,34,34,21,22,62,,88,72,14,17,6,6,0.5,0.6
2025-11-02T2100,1390A,113.7944,23.0128,东莞市,东城石井,,31,31,33,19,21,55,,87,74,19,15,7,9,0.6,0.6
2025-11-02T2100,1391A,113.7383,22.9658,东莞市,南城西平,,35,35,36,18,22,52,,89,75,25,26,7,7,0.7,0.7
2025-11-02T2100,3319A,113.7338,23.0381,东莞市,万江金泰,,36,36,36,22,22,35,,49,43,12,13,6,6,0.6,0.6
2025-11-02T2100,3626A,113.7533,23.0202,东莞市,南城元岭,,30,30,34,20,22,66,,93,79,10,13,6,7,0.5,0.5
2025-11-02T2100,3627A,113.7875,23.0457,东莞市,东城主山,,34,34,38,19,25,66,,92,76,14,17,5,6,0.6,0.7
2025-11-02T2100,1666A,118.6614,37.4309,东营市,市环保局,,18,14,28,3,9,57,,74,71,24,19,5,6,0.5,0.5
2025-11-02T2100,3036A,118.6904,37.4338,东营市,开发区管委会,,26,26,32,3,11,64,,76,73,18,18,5,6,0.5,0.5
2025-11-02T2100,3365A,118.5719,37.565,东营市,垦利区民丰路,,19,19,27,3,8,34,,75,65,38,19,6,6,0.3,0.3
2025-11-02T2100,3498A,118.5055,37.8612,东营市,河口城区,,19,17,23,7,4,60,,80,74,23,17,5,6,0.2,0.2
2025-11-02T2100,3646A,118.4978,37.4623,东营市,胜利站,,24,24,39,7,9,50,,72,66,35,29,7,8,0.4,0.4
2025-11-02T2100,3734A,118.35,37.26,东营市,理想之城,,28,19,32,7,12,23,,73,56,56,29,1,3,0.5,0.4
2025-11-02T2100,1591A,110.0023,39.8129,鄂尔多斯市,综合楼,颗粒物(PM10),51,51,29,19,7,34,,79,72,44,23,13,10,0.6,0.4
2025-11-02T2100,1592A,109.9486,39.8261,鄂尔多斯市,巴音孟克林场办事处,,29,29,33,14,14,74,,87,86,29,28,9,9,0.5,0.7
2025-11-02T2100,1593A,109.7736,39.5986,鄂尔多斯市,康泽苑,,39,39,28,19,14,5,,86,72,70,23,5,7,0.5,0.3
2025-11-02T2100,1594A,109.8119,39.5989,鄂尔多斯市,华泰汽车城,颗粒物(PM10),51,51,32,14,13,3,,80,63,63,27,5,5,0.8,0.4
2025-11-02T2100,1595A,109.9734,39.7884,鄂尔多斯市,奥林花园,颗粒物(PM10),68,85,38,19,9,1,,81,56,93,42,7,7,0.6,0.5
2025-11-02T2100,2436A,114.8938,30.3994,鄂州市,市政府,细颗粒物(PM2.5),114,125,89,86,60,24,,89,75,56,39,10,13,1.6,0.9
2025-11-02T2100,2437A,114.8989,30.3714,鄂州市,赵家坝,细颗粒物(PM2.5),109,117,79,82,56,6,,82,63,61,26,9,10,1.5,1.3
2025-11-02T2100,3654A,114.8094,30.4089,鄂州市,精准医疗中心,细颗粒物(PM2.5),119,108,88,90,67,45,,91,82,54,42,7,8,1.5,1.1
2025-11-02T2100,2454A,109.4978,30.2981,恩施土家族苗族自治州,湖北民院,颗粒物(PM10),54,57,38,33,27,14,,50,43,25,14,7,6,0.9,0.7
2025-11-02T2100,2455A,109.4707,30.2798,恩施土家族苗族自治州,州电力总公司,细颗粒物(PM2.5),58,59,37,41,28,5,,43,37,30,16,6,5,0.5,0.4
2025-11-02T2100,3549A,109.5061,30.3772,恩施土家族苗族自治州,龙凤新区,颗粒物(PM10),53,55,31,31,21,11,,36,30,16,10,6,6,0.6,0.5
2025-11-02T2100,2499A,108.3411,21.6158,防城港市,沙万,,32,31,24,22,18,53,,57,56,6,6,4,4,0.4,0.4
2025-11-02T2100,2500A,108.3514,21.7731,防城港市,防城档案局,,34,34,30,16,14,51,,51,51,7,8,6,6,0.5,0.6
2025-11-02T2100,2501A,108.3506,21.6414,防城港市,大海花园,,35,31,25,24,18,56,,60,59,7,6,4,4,0.4,0.5
2025-11-02T2100,1371A,113.1294,23.0067,佛山市,湾梁,,44,44,39,30,26,50,,74,65,32,30,10,9,0.8,0.8
2025-11-02T2100,1372A,113.1083,23.0478,佛山市,华材职中,,41,41,39,20,25,58,,78,72,20,24,10,8,0.5,0.6
2025-11-02T2100,1373A,113.144,23.0453,佛山市,南海气象局,,48,48,40,21,23,53,,76,68,25,25,10,9,0.7,0.7
2025-11-02T2100,1374A,113.2881,22.8094,佛山市,顺德苏岗,,45,45,42,22,22,53,,90,78,21,26,9,9,0.5,0.6
2025-11-02T2100,1376A,112.8383,22.8678,佛山市,高明孔堂,,42,42,45,19,26,66,,87,80,22,24,6,7,0.5,0.6
2025-11-02T2100,1377A,112.8836,23.1588,佛山市,三水监测站,颗粒物(PM10),51,51,41,18,22,52,,63,58,30,30,7,8,0.7,0.8
2025-11-02T2100,1378A,112.867,23.185,佛山市,三水云东海,,50,50,44,25,27,40,,66,57,22,24,6,6,0.7,0.8
2025-11-02T2100,3625A,113.2544,22.7642,佛山市,容桂街道办,,41,41,38,24,25,50,,86,76,23,28,7,7,0.5,0.6
2025-11-02T2100,1280A,119.3903,26.0543,福州市,鼓山,,41,31,42,24,21,131,,132,132,8,9,2,2,0.6,0.6
2025-11-02T2100,1282A,119.2681,26.0504,福州市,师大,细颗粒物(PM2.5),57,55,41,40,28,117,,125,122,16,15,8,7,0.5,0.5
2025-11-02T2100,1283A,119.2984,26.1028,福州市,五四北路,,50,50,42,35,27,116,,116,116,15,14,6,5,0.4,0.5
2025-11-02T2100,1284A,119.2648,26.0768,福州市,杨桥西路,细颗粒物(PM2.5),53,50,39,37,27,118,,123,122,11,12,6,5,0.4,0.4
2025-11-02T2100,1285A,119.317,26.0746,福州市,紫阳,细颗粒物(PM2.5),54,54,47,38,27,118,,120,119,11,14,8,8,0.5,0.5
2025-11-02T2100,3048A,119.5799,26.0936,福州市,九龙,,45,41,40,20,27,144,,136,136,10,11,4,5,0.4,0.5
2025-11-02T2100,3526A,119.5189,25.9664,福州市,吴航,,47,40,49,21,30,148,,134,134,8,12,6,6,0.5,0.6
2025-11-02T2100,1755A,123.7977,41.8491,抚顺市,望花区,,33,32,42,23,9,27,,48,41,22,10,7,8,0.6,0.5
2025-11-02T2100,1756A,123.9161,41.8822,抚顺市,顺城区,细颗粒物(PM2.5),57,55,36,40,10,7,,50,35,46,14,8,6,0.9,0.4
2025-11-02T2100,1757A,124.0436,41.8611,抚顺市,东洲区,,29,25,31,20,9,19,,50,41,27,9,4,5,0.6,0.4
2025-11-02T2100,1758A,123.9247,41.8642,抚顺市,新抚区,,,32,34,23,7,,,49,45,33,9,7,7,0.7,0.5
2025-11-02T2100,1759A,124.0972,41.8961,抚顺市,大伙房水库,,28,19,27,19,9,16,,47,38,35,13,9,9,0.9,0.8
2025-11-02T2100,1760A,123.7086,41.8391,抚顺市,沈抚新城,细颗粒物(PM2.5),73,,50,53,12,7,,53,42,46,11,6,6,0.6,0.3
2025-11-02T2100,2376A,116.2127,28.0814,抚州市,桐源党溪,,,,,,,,,,,,,,,,
2025-11-02T2100,2377A,116.3544,27.9831,抚州市,市站,细颗粒物(PM2.5),100,107,61,75,38,55,,96,90,25,23,7,9,0.7,0.6
2025-11-02T2100,2378A,116.3565,27.963,抚州市,血防站,"颗粒物(PM10),细颗粒物(PM2.5)",73,96,60,53,36,68,,103,99,27,28,5,5,1.2,1
2025-11-02T2100,2379A,116.3564,28.0007,抚州市,采茶剧团,细颗粒物(PM2.5),90,102,60,67,38,52,,100,94,24,19,5,8,1.1,0.9
2025-11-02T2100,2380A,116.385,27.9647,抚州市,医学分院,细颗粒物(PM2.5),85,111,65,63,34,68,,103,99,27,27,7,7,1.3,1.2
2025-11-02T2100,2207A,121.6094,41.998,阜新市,工业园区,,,,52,98,12,8,,64,46,62,14,19,7,1.0,0.4
2025-11-02T2100,2208A,121.6697,42.0279,阜新市,长青街,细颗粒物(PM2.5),108,96,27,81,8,2,,59,40,55,10,15,7,1.1,0.3
2025-11-02T2100,2209A,121.6673,42.0705,阜新市,农业园区,,18,18,30,12,3,42,,59,54,10,5,9,3,0.5,0.3
2025-11-02T2100,2210A,121.6717,42.0224,阜新市,东苑,颗粒物(PM10),83,116,51,50,11,7,,64,42,56,13,16,6,1.0,0.4
2025-11-02T2100,2211A,121.6506,42.0498,阜新市,玉龙新城,颗粒物(PM10),64,77,42,45,11,8,,63,38,50,14,8,6,0.9,0.4
2025-11-02T2100,2301A,115.8277,32.8929,阜阳市,市监测站,细颗粒物(PM2.5),90,119,90,67,58,47,,114,90,46,30,6,6,0.4,0.5
2025-11-02T2100,2303A,115.8554,32.8605,阜阳市,开发区,颗粒物(PM10),97,144,110,71,64,33,,119,88,55,31,8,9,0.3,0.4
2025-11-02T2100,2875A,115.784,32.8892,阜阳市,阜阳职业技术学院,细颗粒物(PM2.5),78,84,78,57,53,52,,118,98,37,23,6,7,0.3,0.4
2025-11-02T2100,3468A,115.7901,32.8613,阜阳市,市规划展馆,颗粒物(PM10),77,103,88,40,55,47,,135,110,40,23,6,7,0.5,0.6
2025-11-02T2100,3469A,115.836,32.9183,阜阳市,枣园社区,颗粒物(PM10),82,113,88,53,54,41,,114,88,51,32,10,9,0.6,0.6
2025-11-02T2100,2669A,102.9099,34.9841,甘南藏族自治州,州政府,,40,,23,28,23,64,,88,77,14,10,5,6,0.4,0.3
2025-11-02T2100,3380A,102.8914,34.9617,甘南藏族自治州,甘肃民族师范学院,颗粒物(PM10),104,157,24,46,15,5,,83,60,61,16,7,5,0.7,0.4
2025-11-02T2100,2570A,101.9603,30.0475,甘孜藏族自治州,水桥子,,9,,6,3,5,28,,41,38,18,25,7,8,0.4,0.4
2025-11-02T2100,3065A,101.9533,29.9972,甘孜藏族自治州,州环保局,,11,7,5,6,4,22,,54,48,22,20,5,5,0.3,0.3
2025-11-02T2100,3414A,115.8347,28.932,赣江新区,桑海产业园,颗粒物(PM10),71,92,56,45,29,26,,107,92,71,31,10,10,0.8,0.5
2025-11-02T2100,2362A,114.9017,25.9149,赣州市,通天岩,,48,45,35,33,22,47,,87,74,9,6,14,16,0.8,0.8
2025-11-02T2100,2363A,114.9367,25.8664,赣州市,地委,颗粒物(PM10),54,57,45,28,26,66,,71,71,15,15,6,7,0.6,0.7
2025-11-02T2100,2364A,114.9461,25.8481,赣州市,气象台,颗粒物(PM10),55,60,50,26,23,72,,77,76,13,14,6,7,0.6,0.7
2025-11-02T2100,2365A,114.9322,25.8333,赣州市,市图书馆,,49,49,41,34,29,70,,76,75,14,13,4,6,0.5,0.6
2025-11-02T2100,2366A,114.8905,25.8471,赣州市,华坚鞋城,,46,46,42,30,26,68,,64,64,15,16,6,7,0.3,0.5
2025-11-02T2100,3109A,115.0093,25.8613,赣州市,赣县区卫计委,颗粒物(PM10),52,54,39,18,28,70,,82,79,8,12,7,7,0.6,0.6
2025-11-02T2100,2683A,106.2319,36.1417,固原市,马园,,,,,,,,,,,,,,,,
2025-11-02T2100,2684A,106.2792,36.0022,固原市,监测站,颗粒物(PM10),57,64,73,27,29,49,,95,84,42,30,6,7,0.6,0.8
2025-11-02T2100,2685A,106.2375,36.0211,固原市,新区,,38,38,68,24,31,69,,98,94,22,34,4,4,0.4,0.6
2025-11-02T2100,3522A,106.2177,35.9959,固原市,原州区十五小,,48,48,67,24,29,76,,97,95,17,23,6,7,0.4,0.7
2025-11-02T2100,2543A,106.6308,30.5278,广安市,小平旧居,,,,,,,,,,,,,,,,
2025-11-02T2100,2544A,106.6303,30.4576,广安市,市委,,39,38,34,27,25,41,,64,62,22,13,3,3,0.6,0.6
2025-11-02T2100,2545A,106.6271,30.4663,广安市,友谊中学,,40,35,33,28,23,38,,67,64,22,11,6,5,0.8,0.7
2025-11-02T2100,2547A,106.6388,30.4551,广安市,广电花园,,32,,25,22,23,50,,60,59,13,11,1,1,0.5,0.4
2025-11-02T2100,2902A,106.6351,30.4865,广安市,北辰小学,,35,35,33,23,24,38,,62,60,17,9,10,10,0.8,0.6
2025-11-02T2100,2523A,105.8945,32.4535,广元市,黑石坡,,,,,,,,,,,,,,,,
2025-11-02T2100,2524A,105.821,32.4444,广元市,老城,,23,,27,16,24,31,,50,48,22,21,4,8,0.7,0.8
2025-11-02T2100,2526A,105.8628,32.4287,广元市,监测站,,43,,19,30,16,25,,49,46,17,17,4,6,0.7,0.8
2025-11-02T2100,3617A,105.8047,32.4166,广元市,经开区,,24,24,37,15,25,31,,41,41,21,20,3,11,0.5,0.7
2025-11-02T2100,1345A,113.2347,23.1423,广州市,广雅中学,颗粒物(PM10),52,54,40,31,26,58,,67,64,20,27,8,7,0.4,0.6
2025-11-02T2100,1346A,113.2612,23.105,广州市,市五中,,41,41,37,27,25,67,,84,79,24,27,10,8,0.6,0.7
2025-11-02T2100,1348A,113.3478,23.0916,广州市,广东商学院,,42,42,37,26,26,62,,76,71,16,21,6,6,0.1,0.2
2025-11-02T2100,1349A,113.4332,23.1047,广州市,市八十六中,,45,40,34,31,23,49,,68,60,23,25,6,7,0.5,0.2
2025-11-02T2100,1350A,113.3505,22.9483,广州市,番禺中学,,49,49,40,25,26,52,,84,74,22,21,6,7,0.5,0.5
2025-11-02T2100,1351A,113.2146,23.3916,广州市,花都师范,,38,38,38,20,23,70,,67,67,14,19,10,8,0.6,0.7
2025-11-02T2100,1352A,113.2597,23.1331,广州市,市监测站,颗粒物(PM10),51,51,40,27,24,57,,78,72,24,25,10,8,0.6,0.6
2025-11-02T2100,1353A,113.5618,23.312,广州市,九龙镇镇龙,,34,34,43,19,27,48,,56,53,16,18,6,6,0.5,0.6
2025-11-02T2100,1354A,113.2765,23.1544,广州市,麓湖,,49,49,36,26,24,52,,69,65,22,25,11,9,0.4,0.4
2025-11-02T2100,1355A,113.443,23.3035,广州市,帽峰山森林公园,,,,,,,,,,,,,,,,
2025-11-02T2100,2846A,113.3221,23.1322,广州市,体育西,,45,44,38,31,27,63,,73,69,15,21,9,8,0.8,0.8
2025-11-02T2100,3298A,113.5717,23.5491,广州市,从化街口,,26,26,33,17,24,64,,64,62,11,15,8,9,0.4,0.5
2025-11-02T2100,3299A,113.3472,23.3692,广州市,白云竹料,,42,42,33,26,23,70,,72,71,12,14,9,9,0.5,0.6
2025-11-02T2100,3300A,113.2981,23.237,广州市,白云嘉禾,,50,50,44,28,27,56,,72,69,24,26,9,8,0.5,0.6
2025-11-02T2100,3301A,113.4256,23.1716,广州市,黄埔科学城,,40,40,36,25,25,71,,80,77,10,15,4,5,0.5,0.6
2025-11-02T2100,3302A,113.3942,23.0483,广州市,番禺大学城,,48,48,42,27,25,59,,80,75,20,21,7,8,0.5,0.6
2025-11-02T2100,3303A,113.4922,22.8168,广州市,南沙黄阁,,43,43,50,22,27,57,,103,84,21,34,14,10,0.4,0.5
2025-11-02T2100,3304A,113.5342,22.7896,广州市,南沙街,,46,46,46,23,27,51,,102,84,21,30,8,12,0.7,0.7
2025-11-02T2100,3443A,113.2902,23.5544,广州市,花都梯面,,26,26,30,18,22,71,,67,64,9,11,8,8,0.4,0.5
2025-11-02T2100,3445A,113.7858,23.7478,广州市,从化良口,,25,22,24,15,18,80,,69,69,10,10,7,6,0.4,0.6
2025-11-02T2100,3446A,113.8051,23.2614,广州市,增城荔城,,30,30,29,21,22,61,,71,65,10,10,8,8,0.5,0.5
2025-11-02T2100,2505A,109.568,23.1478,贵港市,德智高中,,,,,,,,,,,,,,,,
2025-11-02T2100,2506A,109.6047,23.0666,贵港市,江南子站,,36,36,21,25,20,54,,59,59,11,8,3,4,0.6,0.7
2025-11-02T2100,2508A,109.5669,23.1065,贵港市,荷城子站,,35,31,23,24,15,52,,56,56,11,10,2,2,0.6,0.6
2025-11-02T2100,3405A,109.5886,23.1172,贵港市,新世纪学校,,39,36,27,27,20,54,,61,61,8,6,1,1,0.5,0.5
2025-11-02T2100,4260A,109.5933,23.0951,贵港市,中山路155-3号,,34,34,26,22,17,57,,62,62,10,8,2,3,0.8,0.8
2025-11-02T2100,1439A,106.6899,26.5998,贵阳市,马鞍山,,18,17,15,12,8,29,,61,49,13,8,4,4,0.3,0.2
2025-11-02T2100,1441A,106.6243,26.6266,贵阳市,鉴湖路,,14,14,26,3,7,39,,60,51,13,8,3,4,0.3,0.4
2025-11-02T2100,1442A,106.7487,26.6343,贵阳市,燕子冲,,18,12,16,12,16,40,,68,54,11,9,4,5,0.4,0.4
2025-11-02T2100,1443A,106.6555,26.4365,贵阳市,碧云窝,,31,31,31,14,12,37,,63,56,20,13,6,6,0.3,0.2
2025-11-02T2100,1445A,106.7109,26.6027,贵阳市,红边门,,15,7,18,3,9,45,,66,53,14,11,2,4,0.4,0.3
2025-11-02T2100,1446A,106.7164,26.5699,贵阳市,新华路,,19,19,20,12,17,45,,66,58,14,11,5,6,0.4,0.3
2025-11-02T2100,1447A,106.674,26.5424,贵阳市,太慈桥,,14,14,19,9,10,39,,65,53,17,12,1,3,0.5,0.5
2025-11-02T2100,1552A,106.805,26.3003,贵阳市,桐木岭,,19,19,30,12,16,60,,76,72,1,2,24,25,0.5,0.5
2025-11-02T2100,4230A,106.6882,26.5695,贵阳市,花果园大街66号,,20,14,15,14,15,42,,66,51,17,11,1,2,0.5,0.3
2025-11-02T2100,4231A,106.6873,26.5169,贵阳市,漓江路57号,,18,,15,12,13,40,,63,54,14,9,8,8,0.4,0.3
2025-11-02T2100,1862A,110.4144,25.3167,桂林市,电子科大尧山校区,,,,,,,,,,,,,,,,
2025-11-02T2100,1864A,110.3089,25.2708,桂林市,龙隐路小学,,20,,29,14,19,64,,74,72,7,9,4,6,0.1,0.2
2025-11-02T2100,1865A,110.2869,25.2178,桂林市,八中,,21,18,28,10,18,67,,77,75,9,11,6,7,0.3,0.3
2025-11-02T2100,3531A,110.296,25.1253,桂林市,旅游学院,,21,7,24,7,18,65,,80,75,8,9,3,5,0.1,0.2
2025-11-02T2100,4222A,110.1835,25.2444,桂林市,环湖路276号,,28,,31,19,23,63,,76,69,14,11,11,11,0.2,0.3
2025-11-02T2100,4301A,110.2803,25.2773,桂林市,信义路13号,,21,13,29,7,15,65,,77,75,10,9,5,7,0.4,0.5
2025-11-02T2100,2674A,100.2561,34.4714,果洛藏族自治州,玛沁县大武镇,颗粒物(PM10),54,57,35,15,10,37,,91,79,28,5,16,14,0.4,0.3
2025-11-02T2100,1129A,126.5422,45.755,哈尔滨市,岭北,,,,,,,,,,,,,,,,
2025-11-02T2100,1130A,126.561,45.8167,哈尔滨市,松北商大,细颗粒物(PM2.5),53,,16,37,16,24,,30,23,14,12,6,6,0.5,0.5
2025-11-02T2100,1131A,126.979,45.5419,哈尔滨市,阿城会宁,,22,21,22,15,20,19,,28,22,20,17,6,7,0.4,0.5
2025-11-02T2100,1132A,126.599,45.7222,哈尔滨市,南岗学府路,,32,32,26,16,9,17,,34,26,26,15,10,10,0.5,0.4
2025-11-02T2100,1133A,126.689,45.7733,哈尔滨市,太平宏伟公园,,21,21,17,14,15,30,,31,29,13,10,9,9,0.5,0.5
2025-11-02T2100,1134A,126.635,45.7667,哈尔滨市,道外承德广场,,38,38,37,13,13,32,,37,31,16,10,8,8,0.1,0.5
2025-11-02T2100,1135A,126.685,45.7319,哈尔滨市,香坊红旗大街,,46,46,24,18,10,24,,37,30,22,10,4,3,0.6,0.5
2025-11-02T2100,1136A,126.6411,45.7258,哈尔滨市,动力和平路,,33,33,21,18,11,19,,34,25,22,11,3,3,0.5,0.4
2025-11-02T2100,1137A,126.593,45.7478,哈尔滨市,道里建国路,,23,23,17,16,16,25,,32,25,16,11,6,6,0.3,0.1
2025-11-02T2100,1138A,126.615,45.61,哈尔滨市,平房东轻厂,,23,22,15,16,20,9,,30,20,34,19,12,10,0.3,0.3
2025-11-02T2100,1139A,126.595,45.9855,哈尔滨市,呼兰师专,,29,22,11,20,14,13,,29,20,23,11,9,8,0.4,0.4
2025-11-02T2100,1140A,126.6206,45.6842,哈尔滨市,省农科院,细颗粒物(PM2.5),54,,28,38,22,12,,38,24,46,16,8,7,0.6,0.5
2025-11-02T2100,2688A,93.5128,42.8172,哈密市,地区监测站,颗粒物(PM10),68,85,107,29,40,49,,88,83,55,40,10,10,0.7,0.3
2025-11-02T2100,2689A,93.4961,42.8328,哈密市,哈密师范学校,颗粒物(PM10),65,80,83,29,36,37,,82,74,55,44,4,6,0.9,0.8
2025-11-02T2100,2671A,100.9048,36.9639,海北藏族自治州,海晏县西海镇,,28,27,39,19,28,52,,104,92,18,10,9,16,0.3,0.5
2025-11-02T2100,3867A,102.0738,36.5056,海东市,平安区公安北苑,细颗粒物(PM2.5),59,52,61,42,41,59,,97,87,16,19,9,13,0.8,0.7
2025-11-02T2100,1409A,110.576,19.9507,海口市,东寨港,,,,,,,,,,,,,,,,
2025-11-02T2100,1410A,110.3232,20.0574,海口市,海南大学,,45,44,46,28,28,142,,154,154,9,10,6,6,0.5,0.5
2025-11-02T2100,1411A,110.283,20.0053,海口市,秀英海南医院,,,,40,,23,,,94,,,9,,7,,0.5
2025-11-02T2100,1412A,110.338,19.9969,海口市,海南师范大学,,45,45,42,24,27,137,,152,152,9,11,6,6,0.5,0.6
2025-11-02T2100,1413A,110.33,20.0356,海口市,龙华路环保局宿舍,,45,45,42,26,28,140,,153,153,10,11,7,8,0.3,0.3
2025-11-02T2100,3539A,110.5111,19.9736,海口市,桂林洋子站,,41,41,46,20,26,124,,144,144,7,9,6,7,0.4,0.4
2025-11-02T2100,2673A,100.6188,36.2866,海南藏族自治州,共和县恰卜恰镇,,40,40,48,15,29,61,,112,101,27,15,11,13,0.6,0.6
2025-11-02T2100,2676A,97.3731,37.3753,海西蒙古族藏族自治州,德令哈市,,38,28,19,26,14,84,,96,96,8,6,14,15,0.6,0.5
2025-11-02T2100,1048A,114.5302,36.6116,邯郸市,东污水处理厂,细颗粒物(PM2.5),63,57,39,45,32,21,,65,44,49,38,5,4,0.5,0.5
2025-11-02T2100,1049A,114.4918,36.5713,邯郸市,矿院,细颗粒物(PM2.5),62,52,35,44,32,8,,65,46,73,46,6,6,0.4,0.5
2025-11-02T2100,1050A,114.484,36.6133,邯郸市,丛台公园,,49,43,35,34,26,32,,67,55,45,38,4,5,0.4,0.4
2025-11-02T2100,3458A,114.7895,36.5593,邯郸市,香泉濮院小区,细颗粒物(PM2.5),62,50,57,44,36,9,,63,46,70,41,12,8,0.6,0.5
2025-11-02T2100,3579A,114.50634,36.77178,邯郸市,永年区实验高中,颗粒物(PM10),53,55,49,15,19,11,,70,47,70,40,3,4,0.5,0.5
2025-11-02T2100,3580A,114.20016,36.44293,邯郸市,峰峰矿区临水派出所,,49,38,32,34,24,44,,73,63,43,31,9,10,0.1,0.5
2025-11-02T2100,2634A,106.9893,33.1842,汉中市,汉川机床厂子校,,,,,,,,,,,,,,,,
2025-11-02T2100,2635A,107.0154,33.0706,汉中市,市监测站,颗粒物(PM10),63,75,51,36,34,8,,49,42,38,17,4,4,0.9,0.8
2025-11-02T2100,2636A,107.0089,33.1138,汉中市,鑫源开发区,颗粒物(PM10),66,82,52,41,32,3,,47,42,45,20,4,4,0.7,0.6
2025-11-02T2100,2637A,107.007,33.0323,汉中市,南郑大河坎水厂,颗粒物(PM10),62,73,49,32,32,4,,43,36,28,16,5,5,0.8,0.7
2025-11-02T2100,1223A,120.2072,30.2111,杭州市,滨江,颗粒物(PM10),84,117,91,58,46,106,,132,131,36,40,8,8,1.0,0.9
2025-11-02T2100,1224A,120.0633,30.2747,杭州市,西溪,细颗粒物(PM2.5),88,120,73,65,45,66,,128,121,32,31,8,8,1.1,0.8
2025-11-02T2100,1226A,120.3417,30.3150,杭州市,下沙,细颗粒物(PM2.5),77,89,81,56,52,60,,126,114,60,53,6,6,0.5,0.6
2025-11-02T2100,1227A,120.1269,30.2456,杭州市,卧龙桥,细颗粒物(PM2.5),77,98,71,56,47,49,,126,107,28,21,9,10,1.0,0.8
2025-11-02T2100,1228A,120.1903,30.2692,杭州市,浙江农大,细颗粒物(PM2.5),114,125,87,86,58,82,,127,123,54,44,8,8,1.1,1
2025-11-02T2100,1230A,120.1197,30.3119,杭州市,和睦小学,细颗粒物(PM2.5),90,114,76,67,50,109,,134,133,39,42,10,9,1.1,1
2025-11-02T2100,1231A,120.3019,30.4183,杭州市,临平镇,细颗粒物(PM2.5),115,133,103,87,69,72,,137,128,46,43,9,8,0.8,0.7
2025-11-02T2100,1232A,120.2753,30.1839,杭州市,城厢镇,细颗粒物(PM2.5),100,95,75,75,56,95,,133,129,46,49,8,8,0.9,0.8
2025-11-02T2100,1233A,120.0883,30.1808,杭州市,云栖,细颗粒物(PM2.5),92,118,76,68,48,93,,134,126,30,24,7,7,1.0,0.8
2025-11-02T2100,3557A,119.9464,30.0494,杭州市,镇二中,细颗粒物(PM2.5),95,127,68,71,43,132,,127,127,24,28,8,6,1.0,0.8
2025-11-02T2100,3558A,119.7183,30.2367,杭州市,市府大楼,细颗粒物(PM2.5),100,108,64,75,43,127,,132,132,21,20,11,10,0.8,0.6
2025-11-02T2100,3656A,120.1556,30.2864,杭州市,消防大队,细颗粒物(PM2.5),135,131,84,103,61,94,,132,129,47,38,10,9,0.9,0.7
2025-11-02T2100,1270A,117.1959,31.7848,合肥市,明珠广场,细颗粒物(PM2.5),77,90,74,56,42,72,,106,100,42,46,7,7,0.6,0.6
2025-11-02T2100,1271A,117.3072,31.8764,合肥市,三里街,细颗粒物(PM2.5),83,92,73,61,44,77,,97,94,32,45,6,6,0.7,0.7
2025-11-02T2100,1272A,117.2588,31.8707,合肥市,琥珀山庄,颗粒物(PM10),68,85,74,46,44,94,,114,111,26,34,7,6,0.6,0.8
2025-11-02T2100,1273A,117.1604,31.9052,合肥市,董铺水库,,,,,,,,,,,,,,,,
2025-11-02T2100,1274A,117.25,31.8571,合肥市,长江中路,细颗粒物(PM2.5),90,97,80,67,50,92,,113,110,25,33,6,6,0.6,0.7
2025-11-02T2100,1275A,117.266,31.9436,合肥市,庐阳区,细颗粒物(PM2.5),94,107,76,70,42,68,,105,98,47,39,7,8,0.9,0.8
2025-11-02T2100,1276A,117.3453,31.8616,合肥市,瑶海区,"颗粒物(PM10),细颗粒物(PM2.5)",68,85,77,49,42,87,,106,102,31,48,9,9,0.5,0.6
2025-11-02T2100,1277A,117.3027,31.7964,合肥市,包河区,细颗粒物(PM2.5),79,88,73,58,45,45,,93,76,76,60,7,9,0.7,0.7
2025-11-02T2100,1278A,117.2776,31.7385,合肥市,滨湖新区,细颗粒物(PM2.5),79,88,76,58,49,98,,116,115,19,50,5,6,0.7,0.7
2025-11-02T2100,1279A,117.1318,31.8403,合肥市,高新区,细颗粒物(PM2.5),82,83,65,60,42,89,,107,104,26,26,6,6,0.7,0.6
2025-11-02T2100,3464A,117.3803,31.9147,合肥市,高教基地,颗粒物(PM10),70,90,69,48,37,88,,107,102,22,34,8,8,0.6,0.6
2025-11-02T2100,3614A,79.924,37.0877,和田地区,地区环保局,颗粒物(PM10),84,117,147,48,53,51,,94,91,43,19,5,5,0.7,0.6
2025-11-02T2100,3615A,79.9131,37.113,和田地区,市环保局,颗粒物(PM10),93,135,162,25,47,46,,96,91,47,36,5,5,1.1,0.6
2025-11-02T2100,2516A,108.2011,24.715,河池市,东仁乐园,,,,,,,,,,,,,,,,
2025-11-02T2100,2517A,108.0497,24.6947,河池市,市环保站,,15,,18,9,15,45,,53,48,8,9,7,7,0.4,0.4
2025-11-02T2100,2518A,108.0983,24.6989,河池市,市疾控中心,,14,,18,7,16,43,,54,48,14,12,4,5,0.5,0.5
2025-11-02T2100,1696A,114.6778,23.7569,河源市,源西,,,,,,,,,,,,,,,,
2025-11-02T2100,1697A,114.6944,23.7586,河源市,东埔,,35,32,32,24,24,51,,64,61,20,15,6,6,0.6,0.6
2025-11-02T2100,1698A,114.6892,23.7233,河源市,老城,,34,34,36,20,22,53,,65,63,16,14,6,6,0.6,0.7
2025-11-02T2100,1718A,115.4208,35.2464,菏泽市,气象局,颗粒物(PM10),62,74,100,33,64,34,,70,65,43,43,6,5,0.4,0.6
2025-11-02T2100,3374A,115.5564,35.0891,菏泽市,定陶老年大学,颗粒物(PM10),69,88,98,34,63,13,,69,54,63,49,8,9,0.5,0.6
2025-11-02T2100,4184A,115.4797,35.24401,菏泽市,永昌路1号,颗粒物(PM10),68,85,105,44,70,21,,68,59,62,47,14,8,0.5,0.6
2025-11-02T2100,4193A,115.4715,35.2800,菏泽市,长城路999号,颗粒物(PM10),62,73,103,25,62,21,,63,55,61,53,15,13,0.5,0.8
2025-11-02T2100,2514A,111.5264,24.4172,贺州市,环保小区,,32,,36,22,30,64,,65,64,10,13,4,5,0.3,0.5
2025-11-02T2100,2515A,111.5608,24.4078,贺州市,政协大楼,,22,21,35,15,27,56,,58,56,10,12,4,4,0.5,0.6
2025-11-02T2100,3534A,111.4744,24.4553,贺州市,西湾,,33,30,34,23,25,58,,61,60,7,12,4,4,0.5,0.6
2025-11-02T2100,2385A,114.17,35.9019,鹤壁市,市监测站,颗粒物(PM10),53,56,53,27,33,7,,64,46,52,37,7,6,0.6,0.7
2025-11-02T2100,2386A,114.2956,35.7511,鹤壁市,市交警支队,颗粒物(PM10),67,83,65,28,31,0,,55,32,67,45,5,5,1.0,0.7
2025-11-02T2100,2387A,114.2878,35.7306,鹤壁市,迎宾馆,颗粒物(PM10),68,85,73,42,34,0,,57,34,76,48,7,5,0.8,0.7
2025-11-02T2100,3474A,114.2617,35.6822,鹤壁市,大新区,颗粒物(PM10),58,66,55,26,26,2,,57,39,54,36,4,6,0.5,0.6
2025-11-02T2100,3596A,114.1572,35.9603,鹤壁市,南山宾馆,"颗粒物(PM10),细颗粒物(PM2.5)",59,68,65,42,37,30,,67,56,43,35,13,7,0.5,0.8
2025-11-02T2100,2244A,130.2537,47.3416,鹤岗市,哈啤分公司,,30,30,25,17,17,56,,59,53,4,7,11,12,0.4,0.5
2025-11-02T2100,2245A,130.2684,47.3086,鹤岗市,斯达机电,,40,,26,28,20,56,,60,54,6,9,11,13,0.6,0.6
2025-11-02T2100,2246A,130.3114,47.3388,鹤岗市,东山纸板厂,,33,,33,23,22,61,,62,58,5,13,11,13,0.5,0.6
2025-11-02T2100,2247A,130.1097,47.3382,鹤岗市,五号水库,,,,,,,,,,,,,,,,
2025-11-02T2100,2263A,127.4833,50.2524,黑河市,交通局,,39,38,15,27,14,12,,49,26,40,16,9,7,0.8,0.5
2025-11-02T2100,2264A,127.5144,50.2341,黑河市,环保局,,36,,18,25,17,19,,44,31,30,14,49,9,0.4,0.3
2025-11-02T2100,2265A,127.5291,50.2472,黑河市,大黑河岛,,,,,,,,,,,,,,,,
2025-11-02T2100,1074A,115.6838,37.7541,衡水市,电机北厂,颗粒物(PM10),55,59,40,31,19,11,,55,44,53,33,4,5,0.4,0.3
2025-11-02T2100,1075A,115.6303,37.7316,衡水市,市监测站,,38,38,30,19,13,30,,56,45,44,29,7,7,0.4,0.3
2025-11-02T2100,3188A,115.6683,37.7217,衡水市,市城管局,颗粒物(PM10),52,53,37,31,19,20,,60,46,58,34,8,8,0.5,0.4
2025-11-02T2100,3459A,115.5989,37.5491,衡水市,地表水厂,颗粒物(PM10),64,77,40,17,16,1,,60,34,72,38,7,5,0.4,0.3
2025-11-02T2100,2456A,112.5003,26.9167,衡阳市,原169医院,,,,,,,,,,,,,,,,
2025-11-02T2100,2457A,112.6194,26.9258,衡阳市,衡阳化工总厂,,40,40,41,25,34,39,,53,48,20,19,7,8,0.8,0.8
2025-11-02T2100,2458A,112.6211,26.8956,衡阳市,珠晖区环保局,,33,31,42,23,30,44,,56,53,18,20,9,11,1.2,1.2
2025-11-02T2100,2459A,112.6197,26.8733,衡阳市,市委党校,,29,29,42,19,25,38,,58,52,19,16,4,5,1.2,0.8
2025-11-02T2100,2460A,112.6006,26.8919,衡阳市,市监测站,,37,37,44,25,31,44,,58,52,18,17,5,6,0.9,0.9
2025-11-02T2100,2461A,112.5664,26.9056,衡阳市,真空机电公司,,30,30,38,19,25,40,,54,52,16,15,6,8,0.9,0.9
2025-11-02T2100,3399A,112.6703,26.882,衡阳市,师范学院,,36,36,49,25,30,38,,62,54,23,18,11,9,1.0,0.9
2025-11-02T2100,2608A,103.3772,23.3993,红河哈尼族彝族自治州,污水处理厂,,33,23,12,23,11,22,,32,31,14,8,4,4,0.4,0.4
2025-11-02T2100,2609A,103.3861,23.35,红河哈尼族彝族自治州,监测站,,17,17,12,9,7,22,,30,28,11,7,6,6,0.4,0.4
2025-11-02T2100,3038A,103.3758,23.368,红河哈尼族彝族自治州,州图书馆,,35,,7,24,12,22,,32,30,11,7,3,3,0.5,0.5
2025-11-02T2100,1090A,111.6507,40.7517,呼和浩特市,呼市一监,颗粒物(PM10),64,78,25,30,12,4,,73,58,69,23,6,6,0.9,0.6
2025-11-02T2100,1091A,111.6572,40.8033,呼和浩特市,小召,颗粒物(PM10),53,56,25,27,11,16,,67,56,70,33,9,7,0.8,0.5
2025-11-02T2100,1094A,111.7516,40.8369,呼和浩特市,如意水处理厂,颗粒物(PM10),51,51,21,18,7,6,,69,52,66,31,11,10,0.4,0.3
2025-11-02T2100,1095A,111.7276,40.8062,呼和浩特市,二十九中,颗粒物(PM10),56,61,24,25,10,9,,75,61,64,25,10,9,0.7,0.5
2025-11-02T2100,1096A,111.5512,40.7866,呼和浩特市,工大金川校区,颗粒物(PM10),52,54,31,10,8,5,,61,46,63,29,7,7,0.3,0.2
2025-11-02T2100,1097A,111.717,40.7612,呼和浩特市,化肥厂生活区,颗粒物(PM10),58,65,30,29,15,7,,75,57,73,31,7,6,0.7,0.4
2025-11-02T2100,3698A,111.5968,40.8178,呼和浩特市,红旗小学,颗粒物(PM10),54,58,23,25,9,14,,67,53,63,27,6,6,0.6,0.3
2025-11-02T2100,3699A,111.6518,40.8389,呼和浩特市,海东办,颗粒物(PM10),52,53,23,21,9,3,,70,53,71,35,6,7,0.3,0.1
2025-11-02T2100,3061A,119.7512,49.1577,呼伦贝尔市,国华电力东,,30,30,22,11,12,39,,50,48,17,9,7,8,0.2,0.2
2025-11-02T2100,4279A,119.7569,49.2222,呼伦贝尔市,伊敏大街东7号,,28,28,20,11,15,40,,50,48,14,8,6,6,0.9,0.4
2025-11-02T2100,1250A,120.0751,30.8669,湖州市,城西水厂,,44,44,80,28,54,97,,146,142,26,46,8,10,0.6,0.7
2025-11-02T2100,2873A,120.0830,30.8929,湖州市,仁皇山新区,,30,30,89,18,63,88,,143,138,24,40,8,9,0.4,0.8
2025-11-02T2100,2907A,120.1844,30.8596,湖州市,吴兴区站,,41,41,104,15,40,66,,129,124,31,47,8,9,0.6,1
2025-11-02T2100,3562A,120.4148,30.8538,湖州市,南浔区站,,25,25,117,16,78,70,,133,120,35,43,10,11,0.5,1
2025-11-02T2100,1607A,120.9049,40.7211,葫芦岛市,龙港区,,42,42,38,16,8,21,,69,58,47,18,13,13,0.5,0.4
2025-11-02T2100,1608A,120.8392,40.7514,葫芦岛市,化工街,颗粒物(PM10),59,68,29,22,6,11,,66,46,62,22,13,8,0.5,0.2
2025-11-02T2100,1609A,120.8341,40.7073,葫芦岛市,新区,,34,34,28,21,9,26,,66,52,42,17,6,7,0.6,0.5
2025-11-02T2100,1610A,120.8695,40.7677,葫芦岛市,东城区,,48,48,26,30,10,7,,68,43,75,26,17,8,0.8,0.6
2025-11-02T2100,2482A,109.5981,27.5721,怀化市,林科所,,,,,,,,,,,,,,,,
2025-11-02T2100,2483A,109.9453,27.5444,怀化市,河西地税局,,20,20,20,12,13,31,,64,54,20,13,3,4,0.3,0.3
2025-11-02T2100,2484A,109.9781,27.5342,怀化市,市四医院,,28,28,24,19,16,39,,66,59,11,7,12,9,0.2,0.2
2025-11-02T2100,2485A,109.9972,27.5578,怀化市,监测楼,,22,22,22,14,14,37,,66,59,13,8,6,4,0.1,0.1
2025-11-02T2100,2486A,110.0394,27.583,怀化市,市委党校,,39,,20,27,16,31,,61,53,14,10,11,9,0.1,0
2025-11-02T2100,1210A,119.036,33.5981,淮安市,钵池山,,42,29,104,29,94,54,,68,64,25,34,8,9,0.2,0.7
2025-11-02T2100,1211A,119.007,33.575,淮安市,北京南路,,39,39,102,22,85,55,,68,65,14,33,7,9,0.5,1
2025-11-02T2100,1212A,118.989,33.6067,淮安市,市监测站,,34,34,100,12,83,59,,76,72,24,34,6,7,0.7,1.1
2025-11-02T2100,1213A,119.135,33.5039,淮安市,楚州区监测站,,39,39,104,13,81,51,,76,70,29,40,8,10,0.2,0.6
2025-11-02T2100,3426A,118.8755,33.2894,淮安市,新华书店,,47,47,101,9,57,42,,74,65,29,35,8,13,0.4,0.8
2025-11-02T2100,4206A,119.0288,33.6319,淮安市,承德北路606号,颗粒物(PM10),63,75,112,42,95,40,,70,62,39,35,8,8,0.8,0.8
2025-11-02T2100,2282A,116.8004,33.975,淮北市,监测站,颗粒物(PM10),65,80,93,37,54,35,,74,65,38,37,9,10,0.7,0.8
2025-11-02T2100,2283A,116.8091,33.9007,淮北市,烈山区政府,颗粒物(PM10),62,74,92,29,64,50,,80,76,28,42,8,9,0.4,0.6
2025-11-02T2100,3330A,116.8873,33.9836,淮北市,杜集区检察院,细颗粒物(PM2.5),75,93,100,55,69,58,,78,74,24,40,5,5,0.3,0.5
2025-11-02T2100,4017A,116.7923,33.9535,淮北市,市博物馆,颗粒物(PM10),64,78,93,36,57,50,,78,74,30,35,7,9,0.3,0.5
2025-11-02T2100,2277A,116.8305,32.7727,淮南市,潘集区政府,细颗粒物(PM2.5),94,110,105,70,71,59,,100,82,23,25,6,6,0.5,0.6
2025-11-02T2100,2279A,116.8569,32.5951,淮南市,谢家集区政府,颗粒物(PM10),62,73,76,39,46,70,,101,91,27,29,8,9,0.5,0.5
2025-11-02T2100,2280A,116.8281,32.633,淮南市,八公山区政府,细颗粒物(PM2.5),84,97,83,62,51,71,,101,89,22,19,12,9,0.5,0.5
2025-11-02T2100,2281A,116.6325,32.6201,淮南市,焦岗湖风景区管理处,,,,,,,,,,,,,,,,
2025-11-02T2100,2894A,117.0566,32.6531,淮南市,经济技术开发区消防队,细颗粒物(PM2.5),70,88,80,51,50,56,,90,78,37,32,10,12,0.3,0.4
2025-11-02T2100,3329A,117.0108,32.5893,淮南市,山南新区,颗粒物(PM10),64,78,91,32,49,88,,103,98,24,30,4,6,0.2,0.4
2025-11-02T2100,4209A,117.0031,32.6445,淮南市,国庆中路369号,颗粒物(PM10),61,71,78,36,51,77,,101,92,26,29,13,15,0.5,0.6
2025-11-02T2100,2446A,114.9028,30.4742,黄冈市,职工中心,细颗粒物(PM2.5),102,96,69,76,54,35,,94,82,52,28,8,8,1.1,1
2025-11-02T2100,2929A,114.8858,30.4519,黄冈市,红卫路,细颗粒物(PM2.5),97,90,66,72,48,38,,93,83,44,25,6,6,1.1,0.8
2025-11-02T2100,3398A,114.9136,30.4445,黄冈市,市林业局,细颗粒物(PM2.5),84,105,76,62,48,29,,90,81,64,34,4,4,1.1,0.9
2025-11-02T2100,2672A,102.0199,35.5102,黄南藏族自治州,同仁县隆务镇,,50,50,56,20,27,63,,90,84,8,5,11,11,0.5,0.4
2025-11-02T2100,2295A,118.2903,29.6963,黄山市,延安路89号,细颗粒物(PM2.5),58,56,43,41,26,107,,110,109,9,12,5,4,0.5,0.5
2025-11-02T2100,2297A,118.1371,30.2756,黄山市,黄山区政府5号楼,颗粒物(PM10),57,64,34,34,22,39,,97,83,9,7,5,5,0.6,0.4
2025-11-02T2100,4210A,118.3354,29.7203,黄山市,滨江东路7-2号,细颗粒物(PM2.5),62,64,47,44,31,86,,102,95,13,13,5,4,0.5,0.5
2025-11-02T2100,2423A,115.0601,30.2313,黄石市,沈家营,"颗粒物(PM10),细颗粒物(PM2.5)",58,65,81,41,45,63,,94,81,8,23,7,9,0.5,0.7
2025-11-02T2100,2426A,114.8988,30.2019,黄石市,铁山,细颗粒物(PM2.5),58,62,54,41,38,56,,88,78,15,12,8,7,0.4,0.4
2025-11-02T2100,2427A,115.0307,30.2092,黄石市,团城山,颗粒物(PM10),60,69,79,41,47,81,,102,100,16,30,8,8,0.8,1
2025-11-02T2100,3149A,115.0235,30.1578,黄石市,笔架山北路,颗粒物(PM10),72,93,105,45,50,67,,85,84,15,19,8,8,0.6,0.9
2025-11-02T2100,4185A,115.0780,30.21118,黄石市,磁湖东路29号,细颗粒物(PM2.5),77,83,78,56,50,61,,95,90,27,30,9,10,0.8,0.9
2025-11-02T2100,1392A,114.4183,23.0528,惠州市,河南岸金山湖子站,,43,43,35,24,23,60,,82,75,21,20,13,11,0.7,0.7
2025-11-02T2100,1393A,114.4053,23.0822,惠州市,下埔横江三路子站,,48,48,36,30,23,78,,91,91,12,10,8,7,0.6,0.6
2025-11-02T2100,1394A,114.4103,23.1142,惠州市,江北云山西路子站,,43,43,34,27,23,68,,89,82,15,13,8,7,0.5,0.5
2025-11-02T2100,1395A,114.4645,22.7833,惠州市,惠阳区承修路船湖子站,,48,48,41,28,26,55,,92,83,19,17,10,10,0.8,0.8
2025-11-02T2100,1396A,114.5317,22.7422,惠州市,大亚湾管委会子站,,42,42,38,26,25,58,,88,80,13,14,11,11,0.6,0.6
2025-11-02T2100,3314A,114.4338,22.8134,惠州市,惠阳秋长,,44,44,40,24,26,70,,98,90,11,14,11,12,0.4,0.5
2025-11-02T2100,3452A,114.6517,22.775,惠州市,大亚湾霞涌,,41,41,35,28,23,56,,77,71,12,12,8,8,0.6,0.7
2025-11-02T2100,2240A,130.9762,45.3001,鸡西市,环保局,细颗粒物(PM2.5),97,85,106,72,71,35,,57,51,11,29,6,10,0.6,0.8
2025-11-02T2100,2243A,130.9429,45.3039,鸡西市,第一中学,细颗粒物(PM2.5),65,49,87,47,63,35,,58,53,7,26,6,9,0.6,0.7
2025-11-02T2100,3707A,131.0207,45.3073,鸡西市,欧美日汽修厂,细颗粒物(PM2.5),65,47,134,47,87,42,,66,61,11,26,7,14,0.5,0.8
2025-11-02T2100,3709A,130.9967,45.3106,鸡西市,市政设施管理处,颗粒物(PM10),86,121,111,33,74,38,,70,62,15,29,8,12,0.1,0.4
2025-11-02T2100,2367A,114.9754,27.0803,吉安市,红声器材厂,颗粒物(PM10),57,64,52,31,26,43,,74,70,31,25,9,12,0.7,0.8
2025-11-02T2100,2368A,114.9658,27.0999,吉安市,市森林工业局,颗粒物(PM10),57,63,49,37,30,33,,68,66,39,28,10,12,0.5,0.6
2025-11-02T2100,2369A,114.99,27.1312,吉安市,市环境监测站,细颗粒物(PM2.5),64,46,49,46,37,50,,70,70,26,24,14,13,0.6,0.6
2025-11-02T2100,2370A,115.0093,27.0968,吉安市,青原区法院,细颗粒物(PM2.5),67,72,54,48,34,4,,69,56,50,26,10,13,0.8,0.7
2025-11-02T2100,1772A,126.54,43.8622,吉林市,哈达湾,,32,32,39,17,27,34,,37,33,11,11,10,7,0.2,0.2
2025-11-02T2100,1773A,126.5844,43.8358,吉林市,东局子,,22,22,27,14,25,34,,35,32,13,11,9,7,0.5,0.5
2025-11-02T2100,1774A,126.5052,43.8245,吉林市,电力学院,,33,33,37,21,32,30,,37,31,12,10,6,6,0.5,0.5
2025-11-02T2100,1775A,126.6133,43.8972,吉林市,江北,,37,37,38,19,27,29,,33,30,18,13,6,7,0.3,0.3
2025-11-02T2100,1776A,126.555,43.8306,吉林市,江南公园,,28,28,33,19,29,31,,33,31,11,10,5,9,0.4,0.5
2025-11-02T2100,1778A,126.7061,43.7133,吉林市,丰满,,20,17,29,14,30,50,,54,52,6,8,7,7,0.8,0.9
2025-11-02T2100,2868A,126.4739,43.953,吉林市,九站,,34,34,37,22,31,25,,38,28,22,17,3,11,0.4,0.4
2025-11-02T2100,1299A,116.9862,36.6114,济南市,科干所,,36,36,39,12,18,47,,66,59,28,30,8,9,0.4,0.5
2025-11-02T2100,1300A,116.9376,36.665,济南市,农科所,颗粒物(PM10),55,59,62,27,22,14,,60,46,55,41,7,9,0.9,0.8
2025-11-02T2100,1301A,117.1265,36.6734,济南市,开发区,颗粒物(PM10),52,54,50,22,24,14,,68,54,61,38,4,5,0.6,0.6
2025-11-02T2100,1303A,117.0624,36.6868,济南市,省种子仓库,颗粒物(PM10),56,61,60,27,24,23,,68,55,54,41,6,8,0.6,0.6
2025-11-02T2100,1304A,116.9489,36.6447,济南市,机床二厂,,42,42,64,15,29,26,,62,48,50,40,8,10,0.3,0.4
2025-11-02T2100,1305A,117.0495,36.663,济南市,市监测站,,46,46,49,15,21,25,,66,52,46,37,3,4,0.8,0.8
2025-11-02T2100,1306A,116.7675,36.5484,济南市,长清党校,,29,29,49,12,22,45,,66,53,35,38,7,8,0.5,0.5
2025-11-02T2100,1616A,117.6795,36.229,济南市,技术学院,,44,44,47,29,28,28,,71,62,52,36,10,11,0.6,0.6
2025-11-02T2100,1961A,117.532,36.6868,济南市,东山小学,颗粒物(PM10),52,54,48,27,22,19,,72,50,45,39,9,10,0.7,0.5
2025-11-02T2100,3059A,117.7161,36.2049,济南市,泰兴公司,颗粒物(PM10),52,53,55,17,29,2,,70,45,70,38,9,14,0.5,0.6
2025-11-02T2100,3064A,117.6867,36.2171,济南市,莱芜战役纪念馆,颗粒物(PM10),56,61,53,30,33,27,,75,64,55,37,10,11,0.3,0.3
2025-11-02T2100,3494A,117.1673,36.9782,济南市,济阳区政府,颗粒物(PM10),51,51,54,22,24,57,,69,65,26,34,8,9,0.5,0.5
2025-11-02T2100,3495A,117.1171,36.63,济南市,锦屏中学,,27,27,35,12,16,34,,72,57,27,26,3,4,0.6,0.7
2025-11-02T2100,3682A,116.9814,36.6819,济南市,济南四建,颗粒物(PM10),52,53,59,20,26,15,,59,45,56,40,6,8,0.8,0.8
2025-11-02T2100,1653A,116.6251,35.4302,济宁市,火炬城,颗粒物(PM10),85,120,89,44,58,3,,67,52,72,45,4,6,0.6,0.6
2025-11-02T2100,1655A,116.5491,35.4042,济宁市,电化厂,颗粒物(PM10),69,88,96,36,54,16,,68,55,63,41,3,5,0.3,0.5
2025-11-02T2100,3500A,116.5814,35.3707,济宁市,北湖一中,细颗粒物(PM2.5),57,42,69,40,60,15,,68,57,62,38,5,6,0.3,0.5
2025-11-02T2100,3501A,116.8249,35.5593,济宁市,服务中心,颗粒物(PM10),51,51,86,29,41,12,,69,56,53,32,8,8,0.5,0.6
2025-11-02T2100,3678A,116.5907,35.4054,济宁市,市第七中学,颗粒物(PM10),57,63,65,39,51,16,,71,59,61,39,6,9,0.8,0.7
2025-11-02T2100,2255A,130.2751,46.8028,佳木斯市,佳纺,细颗粒物(PM2.5),107,104,67,80,48,29,,51,44,16,18,5,5,0.5,0.6
2025-11-02T2100,2256A,130.3995,46.8307,佳木斯市,发电厂,细颗粒物(PM2.5),133,,61,101,49,26,,48,40,14,16,6,7,0.5,0.5
2025-11-02T2100,2257A,130.3258,46.7975,佳木斯市,环保局,细颗粒物(PM2.5),124,,57,94,51,21,,48,38,14,15,4,5,0.3,0.5
2025-11-02T2100,2258A,130.3648,46.8032,佳木斯市,十一中,细颗粒物(PM2.5),113,,54,85,50,24,,53,47,14,15,8,9,0.4,0.5
2025-11-02T2100,2259A,130.3794,46.7588,佳木斯市,四丰,,,,,,,,,,,,,,,,
2025-11-02T2100,1252A,120.7436,30.778,嘉兴市,清河小学,,28,26,100,19,85,69,,135,120,29,48,8,9,0.4,0.8
2025-11-02T2100,1253A,120.726,30.7478,嘉兴市,嘉兴学院,,28,28,88,15,71,73,,129,119,27,56,6,7,0.7,1
2025-11-02T2100,2872A,120.7846,30.7525,嘉兴市,南湖区残联,,33,33,82,20,73,71,,137,122,29,44,7,8,0.7,1
2025-11-02T2100,3407A,120.6916,30.7739,嘉兴市,秀洲住建,,35,35,99,20,80,70,,134,119,31,51,11,10,0.5,0.9
2025-11-02T2100,1945A,98.2908,39.7711,嘉峪关市,气象局,颗粒物(PM10),68,85,66,24,19,44,,95,81,50,24,2,11,0.9,0.9
2025-11-02T2100,2884A,98.2672,39.7978,嘉峪关市,酒钢宾馆,颗粒物(PM10),71,92,65,24,25,67,,91,85,20,17,14,35,0.5,0.7
2025-11-02T2100,3248A,98.2643,39.7724,嘉峪关市,雄关区,颗粒物(PM10),63,75,60,26,25,48,,92,82,45,27,9,10,1.6,0.8
2025-11-02T2100,1383A,113.1064,22.6058,江门市,北街,,46,46,46,26,29,52,,103,93,27,31,7,7,0.6,0.6
2025-11-02T2100,1384A,113.0731,22.5835,江门市,西区,颗粒物(PM10),53,55,47,26,29,47,,101,90,30,30,7,7,0.4,0.4
2025-11-02T2100,1385A,113.0219,22.5311,江门市,圭峰西,,39,39,42,25,28,50,,105,95,26,27,7,7,0.5,0.5
2025-11-02T2100,1386A,113.0828,22.5947,江门市,东湖,,46,46,45,28,29,44,,96,85,26,29,7,8,0.4,0.5
2025-11-02T2100,3311A,113.1075,22.5647,江门市,江海富民,,48,48,50,19,21,50,,103,94,30,32,10,10,0.7,0.7
2025-11-02T2100,3449A,113.05,22.4667,江门市,新会银湖,,49,49,49,25,32,42,,97,89,29,30,7,8,0.6,0.7
2025-11-02T2100,1830A,113.1992,35.2590,焦作市,影视城,,,,39,,21,,,72,,,24,,12,,0.4
2025-11-02T2100,3335A,113.3137,35.2641,焦作市,马村街道办,颗粒物(PM10),57,64,60,19,21,23,,66,51,48,26,5,7,0.3,0.2
2025-11-02T2100,3336A,113.2465,35.2373,焦作市,焦作技师学院,颗粒物(PM10),51,51,46,19,18,31,,65,56,34,24,6,8,0.3,0.4
2025-11-02T2100,3477A,113.1656,35.2539,焦作市,中站许衡医院,,50,50,55,33,29,40,,68,60,31,17,6,9,0.3,0.4
2025-11-02T2100,3981A,113.2449,35.1803,焦作市,原李万街道办,颗粒物(PM10),61,71,59,17,19,22,,67,55,36,28,10,13,0.6,0.7
2025-11-02T2100,4264A,113.2340,35.2190,焦作市,新安路1731号,颗粒物(PM10),57,63,53,23,22,30,,68,57,38,22,7,10,0.7,0.8
2025-11-02T2100,4295A,113.2722,35.2121,焦作市,人民路3066号,颗粒物(PM10),56,61,58,13,18,26,,67,54,48,37,8,10,0.5,0.6
2025-11-02T2100,1708A,116.3701,23.5345,揭阳市,新兴,,46,44,41,32,24,58,,109,94,22,17,19,11,0.7,0.6
2025-11-02T2100,1709A,116.3264,23.5443,揭阳市,西马,,45,39,46,31,27,63,,104,89,14,18,4,7,0.7,0.7
2025-11-02T2100,1710A,116.3611,23.5626,揭阳市,东兴,,49,48,43,34,22,44,,95,78,28,19,6,8,0.6,0.5
2025-11-02T2100,1711A,116.4151,23.5294,揭阳市,渔湖,细颗粒物(PM2.5),54,56,46,38,22,45,,118,98,35,20,13,8,0.8,0.6
2025-11-02T2100,3320A,116.403,23.5699,揭阳市,曲溪,细颗粒物(PM2.5),62,64,41,44,26,63,,111,93,18,17,4,5,0.6,0.5
2025-11-02T2100,1944A,102.1692,38.5167,金昌市,天庆家园,细颗粒物(PM2.5),166,227,125,126,54,16,,91,71,60,31,10,29,1.2,0.9
2025-11-02T2100,4022A,102.1647,38.5371,金昌市,金川区人防中心,颗粒物(PM10),62,73,90,36,40,26,,84,70,46,25,4,17,0.9,0.9
2025-11-02T2100,4239A,102.1930,38.5319,金昌市,长春路96号,颗粒物(PM10),79,108,95,54,41,21,,91,76,57,29,7,27,1.1,0.9
2025-11-02T2100,1262A,119.647,29.077,金华市,十五中,颗粒物(PM10),64,78,62,42,39,99,,135,131,27,27,6,6,0.7,0.8
2025-11-02T2100,1263A,119.686,29.1029,金华市,监测站,,,,56,,33,,,56,,,24,,3,,0.5
2025-11-02T2100,3659A,119.656,29.1131,金华市,气象局,颗粒物(PM10),63,75,65,43,39,71,,111,106,51,36,5,5,0.7,0.7
2025-11-02T2100,1767A,121.1115,41.0879,锦州市,南山,,45,,22,31,6,38,,72,61,30,14,10,8,0.7,0.4
2025-11-02T2100,1768A,121.0604,40.8428,锦州市,开发区,颗粒物(PM10),51,51,42,22,14,13,,66,49,56,22,10,15,0.6,0.6
2025-11-02T2100,1769A,121.1836,41.1119,锦州市,百股街道,颗粒物(PM10),51,51,29,34,6,6,,69,53,56,9,27,10,1.2,0.5
2025-11-02T2100,1770A,121.1178,41.1222,锦州市,天安街道,颗粒物(PM10),60,69,29,42,11,13,,73,55,53,11,10,8,0.9,0.5
2025-11-02T2100,1771A,121.1303,41.1386,锦州市,北湖公园,细颗粒物(PM2.5),60,59,30,43,10,32,,70,55,33,12,9,7,0.7,0.4
2025-11-02T2100,2160A,112.85,35.5051,晋城市,自来水公司,,,60,66,17,27,52,,80,74,,34,9,10,,0.8
2025-11-02T2100,2161A,112.8318,35.4936,晋城市,白云商贸,颗粒物(PM10),60,69,70,9,14,49,,78,72,26,28,4,4,0.2,0.5
2025-11-02T2100,2162A,112.8508,35.4887,晋城市,市环保局,颗粒物(PM10),51,51,66,14,24,53,,81,75,19,27,7,7,0.5,0.8
2025-11-02T2100,2163A,112.8676,35.4897,晋城市,技术学院,,45,45,59,14,22,49,,73,68,26,31,7,8,0.5,0.8
2025-11-02T2100,2165A,112.8453,35.546,晋城市,白马寺,,44,44,48,29,31,64,,96,90,20,20,9,15,0.6,1.1
2025-11-02T2100,3620A,112.8271,35.4828,晋城市,泽州一中,颗粒物(PM10),51,52,67,14,24,56,,85,79,26,28,4,5,0.4,0.7
2025-11-02T2100,2173A,112.7249,37.7067,晋中市,南都小区,颗粒物(PM10),64,78,53,36,23,14,,76,54,66,40,9,8,0.4,0.4
2025-11-02T2100,2174A,112.6991,37.6982,晋中市,榆次区政府,细颗粒物(PM2.5),63,68,51,45,24,14,,70,56,68,41,9,9,0.8,0.7
2025-11-02T2100,2865A,112.7195,37.6828,晋中市,榆次三中,颗粒物(PM10),62,73,54,24,18,26,,70,60,44,37,11,12,0.1,0.1
2025-11-02T2100,4200A,112.7478,37.6954,晋中市,迎宾街26号,颗粒物(PM10),57,63,45,24,19,33,,74,62,43,32,8,9,0.5,0.5
2025-11-02T2100,2439A,112.2014,31.0481,荆门市,竹园小学,"颗粒物(PM10),细颗粒物(PM2.5)",64,77,72,46,51,95,,74,74,26,26,2,2,0.7,0.5
2025-11-02T2100,2440A,112.1969,30.9891,荆门市,掇刀,细颗粒物(PM2.5),65,73,71,47,55,110,,82,82,19,22,1,1,0.6,0.5
2025-11-02T2100,2441A,112.2213,31.0386,荆门市,石化一小,颗粒物(PM10),73,95,87,44,51,87,,68,68,31,25,6,5,0.5,0.1
2025-11-02T2100,3012A,112.1849,31.0362,荆门市,西山林语,"颗粒物(PM10),细颗粒物(PM2.5)",64,78,62,46,43,118,,83,83,17,21,8,5,0.7,0.6
2025-11-02T2100,3547A,112.1632,31.0138,荆门市,龙泉中学南校,细颗粒物(PM2.5),73,87,57,53,34,109,,85,85,21,25,9,7,0.8,0.6
2025-11-02T2100,1844A,112.2494,30.3197,荆州市,市图书馆,细颗粒物(PM2.5),64,57,52,46,42,56,,74,72,28,24,6,6,0.8,0.8
2025-11-02T2100,1845A,112.2008,30.3544,荆州市,市委党校,"颗粒物(PM10),细颗粒物(PM2.5)",58,65,55,41,39,53,,68,67,26,22,9,8,0.8,0.8
2025-11-02T2100,3194A,112.2747,30.3122,荆州市,管委会,细颗粒物(PM2.5),67,69,56,48,45,32,,7,,33,26,6,7,0.7,0.7
2025-11-02T2100,4268A,112.1722,30.3366,荆州市,学苑路85号,细颗粒物(PM2.5),77,64,48,56,51,54,,80,78,23,19,3,2,0.6,0.6
2025-11-02T2100,2342A,117.3102,29.3867,景德镇市,王港中学,,,,,,,,,,,,,,,,
2025-11-02T2100,2343A,117.2117,29.2933,景德镇市,老干部活动中心,颗粒物(PM10),54,57,49,31,33,43,,92,72,29,16,5,5,0.8,0.7
2025-11-02T2100,2344A,117.1894,29.2789,景德镇市,兽医站,颗粒物(PM10),61,72,50,33,27,55,,100,89,21,21,7,8,0.6,0.7
2025-11-02T2100,2346A,117.2461,29.2956,景德镇市,陶研所,细颗粒物(PM2.5),55,48,44,39,36,31,,95,76,18,14,7,7,0.8,0.8
2025-11-02T2100,4289A,117.1542,29.2566,景德镇市,青少年活动中心,"颗粒物(PM10),细颗粒物(PM2.5)",57,64,46,40,31,31,,97,80,36,21,5,8,0.5,0.5
2025-11-02T2100,1803A,115.9872,29.6815,九江市,十里,颗粒物(PM10),57,63,64,39,43,95,,113,107,26,40,6,6,0.7,0.9
2025-11-02T2100,1804A,115.9584,29.7046,九江市,茅山头,细颗粒物(PM2.5),69,59,57,50,39,77,,97,93,28,37,5,8,0.7,0.7
2025-11-02T2100,1805A,115.9877,29.7295,九江市,西园,颗粒物(PM10),57,64,62,37,38,75,,107,95,55,52,7,9,0.6,0.8
2025-11-02T2100,1808A,115.9114,29.6038,九江市,综合工业园,"颗粒物(PM10),细颗粒物(PM2.5)",53,56,60,37,39,18,,109,81,98,46,5,6,0.5,0.6
2025-11-02T2100,1809A,116.0721,29.7535,九江市,石化总厂,细颗粒物(PM2.5),65,73,83,47,55,73,,95,86,34,43,4,10,0.6,0.8
2025-11-02T2100,1810A,115.9773,29.5698,九江市,庐山气象台,,,,,,,,,,,,,,,,
2025-11-02T2100,3190A,116.0254,29.6994,九江市,外国语学校,细颗粒物(PM2.5),62,67,67,44,40,83,,102,98,35,50,8,9,0.7,0.9
2025-11-02T2100,4253A,116.0102,29.6594,九江市,莲花大道8号,颗粒物(PM10),54,57,56,33,38,83,,96,93,16,14,9,8,0.5,0.6
2025-11-02T2100,4240A,98.4958,39.7339,酒泉市,玉门东路5号,颗粒物(PM10),107,163,82,39,21,15,,94,80,74,21,11,12,0.8,0.4
2025-11-02T2100,4241A,98.5099,39.7506,酒泉市,北大街108号,颗粒物(PM10),109,168,84,35,20,19,,92,79,68,21,8,10,1.2,0.4
2025-11-02T2100,2698A,76.0072,39.4467,喀什地区,巡警大队,"颗粒物(PM10),细颗粒物(PM2.5)",93,135,241,69,93,61,,96,96,53,54,7,8,0.7,1.3
2025-11-02T2100,2699A,75.9755,39.4694,喀什地区,吾办,颗粒物(PM10),104,158,199,62,83,38,,87,85,51,47,5,6,0.7,1.2
2025-11-02T2100,4027A,75.9483,39.4689,喀什地区,老干局,颗粒物(PM10),96,142,199,63,64,42,,94,92,63,52,3,3,0.9,1.3
2025-11-02T2100,1824A,114.3389,34.7781,开封市,肿瘤医院,颗粒物(PM10),64,78,88,32,46,30,,64,61,55,55,10,11,0.6,0.7
2025-11-02T2100,1826A,114.2885,34.7965,开封市,世纪星幼儿园,颗粒物(PM10),58,66,80,27,53,29,,57,54,53,48,10,10,0.5,0.7
2025-11-02T2100,3147A,114.3438,34.8106,开封市,龙亭公园,,,61,86,18,50,,,59,59,52,54,9,10,0.8,0.9
2025-11-02T2100,3210A,114.3644,34.7964,开封市,汴京公园,颗粒物(PM10),69,87,93,34,51,16,,55,49,66,58,9,10,0.5,0.7
2025-11-02T2100,3473A,114.2485,34.8306,开封市,技师学院,细颗粒物(PM2.5),52,51,75,36,48,18,,58,48,66,49,11,12,0.5,0.7
2025-11-02T2100,3592A,114.4644,34.7556,开封市,祥符区生态环境局,颗粒物(PM10),75,100,115,36,56,14,,64,54,69,63,10,11,0.5,0.7
2025-11-02T2100,1951A,84.895,45.6094,克拉玛依市,长征新村,,20,20,20,6,6,50,,69,62,17,7,2,2,0.2,0.1
2025-11-02T2100,1952A,84.8988,45.5893,克拉玛依市,南林小区,,37,37,26,7,4,48,,66,60,17,8,3,3,0.2,0.1
2025-11-02T2100,1954A,84.905,44.3396,克拉玛依市,独山子区,颗粒物(PM10),79,108,99,33,17,49,,66,64,28,13,8,5,0.6,0.3
2025-11-02T2100,1955A,85.6979,46.098,克拉玛依市,乌尔禾区商贸楼,,28,28,26,3,5,45,,79,73,24,8,5,5,0.2,0.1
2025-11-02T2100,3612A,85.1045,45.6899,克拉玛依市,白碱滩区新站,,27,27,41,9,7,56,,80,72,15,6,5,5,0.3,0.2
2025-11-02T2100,2697A,76.1454,39.7142,克孜勒苏柯尔克孜自治州,市人民政府,颗粒物(PM10),102,154,143,54,51,18,,105,97,98,19,7,12,0.4,0.2
2025-11-02T2100,3665A,76.1658,39.7157,克孜勒苏柯尔克孜自治州,克州文化中心,颗粒物(PM10),105,160,138,53,51,62,,102,100,46,16,10,13,1.2,0.5
2025-11-02T2100,1450A,102.8204,24.8886,昆明市,呈贡新区,,16,12,14,11,15,26,,35,34,18,13,2,4,1.0,0.8
2025-11-02T2100,1451A,102.6251,24.9608,昆明市,西山森林公园,,,,,,,,,,,,,,,,
2025-11-02T2100,1452A,102.7252,25.0902,昆明市,龙泉镇,,15,15,12,3,5,32,,27,27,10,11,2,2,0.5,0.5
2025-11-02T2100,1453A,102.7266,25.0375,昆明市,东风东路,,10,6,15,6,11,32,,28,28,11,14,1,1,0.6,0.6
2025-11-02T2100,1454A,102.6742,25.0669,昆明市,金鼎山,,12,8,21,8,9,32,,29,29,9,12,3,2,0.4,0.5
2025-11-02T2100,1455A,102.6644,25.0401,昆明市,碧鸡广场,,12,,15,8,12,26,,25,25,17,18,8,8,0.6,0.6
2025-11-02T2100,3179A,102.7494,25.0119,昆明市,官渡区博物馆,,12,,13,8,11,24,,22,22,22,22,2,2,0.7,0.6
2025-11-02T2100,3375A,102.8017,24.8336,昆明市,青年创业园,,10,6,10,3,6,31,,33,33,10,9,1,1,0.7,0.6
2025-11-02T2100,3550A,102.7997,24.9786,昆明市,昆明学院,,11,6,16,3,11,24,,21,21,21,20,8,8,0.7,0.6
2025-11-02T2100,3551A,102.5967,24.6736,昆明市,晋宁区生态环境分局,,14,14,15,3,5,42,,41,41,11,9,3,2,0.4,0.5
2025-11-02T2100,3552A,102.6678,24.9856,昆明市,云天化总部,,10,6,15,3,9,31,,25,25,16,20,4,4,0.7,0.7
2025-11-02T2100,1456A,91.1319,29.6514,拉萨市,八廓街,,21,,8,10,7,67,,95,90,18,10,6,6,0.4,0.2
2025-11-02T2100,1457A,91.1221,29.6747,拉萨市,市环保局,,50,50,10,29,8,18,,97,81,37,10,9,7,1.0,0.2
2025-11-02T2100,1458A,91.0874,29.6475,拉萨市,区监测站,,21,13,6,7,5,47,,92,83,42,14,5,4,0.4,0.2
2025-11-02T2100,1459A,91.1774,29.6541,拉萨市,西藏大学,,23,23,7,12,6,59,,90,85,30,13,5,5,0.4,0.2
2025-11-02T2100,1460A,90.9798,29.6588,拉萨市,区辐射站,,30,27,10,14,7,27,,78,67,60,18,8,5,0.8,0.4
2025-11-02T2100,1461A,91.0834,29.6292,拉萨市,拉萨火车站,,20,13,10,8,8,63,,90,85,27,12,6,5,0.6,0.3
2025-11-02T2100,2520A,109.2203,23.7256,来宾市,来宾技工学校,,20,11,38,11,27,61,,64,64,7,9,8,10,0.3,0.5
2025-11-02T2100,3535A,109.1781,23.7297,来宾市,兴宾区政府,,29,24,35,20,26,50,,57,57,8,8,8,8,0.4,0.4
2025-11-02T2100,4002A,109.2416,23.7461,来宾市,中南小学,,18,17,35,3,22,55,,60,60,9,10,6,7,0.7,0.8
2025-11-02T2100,1477A,104.1373,35.9454,兰州市,榆中兰大校区,,,,,,,,,,,,,,,,
2025-11-02T2100,1479A,103.831,36.0464,兰州市,铁路设计院,,,,,,,,,,,,,,,,
2025-11-02T2100,3241A,103.7439,36.0842,兰州市,百合公园,细颗粒物(PM2.5),78,100,75,57,42,3,,81,63,93,57,7,8,1.4,1.1
2025-11-02T2100,3242A,103.9611,35.998,兰州市,和平,颗粒物(PM10),64,77,79,42,40,80,,97,93,20,29,6,9,0.5,0.7
2025-11-02T2100,4236A,103.6293,36.0938,兰州市,庄浪东路808号,颗粒物(PM10),70,90,86,50,47,11,,114,86,102,68,10,16,0.8,0.8
2025-11-02T2100,4237A,103.7251,36.1043,兰州市,安宁西路88号,"颗粒物(PM10),细颗粒物(PM2.5)",87,123,101,64,52,5,,100,79,110,70,9,8,1.2,0.8
2025-11-02T2100,4238A,103.8470,36.0676,兰州市,北滨河东路1号,细颗粒物(PM2.5),84,111,88,62,44,4,,86,68,101,66,10,13,1.1,0.9
2025-11-02T2100,3245A,103.6633,36.533,兰州新区,新区管委会,颗粒物(PM10),62,73,63,40,32,61,,106,97,23,14,13,11,0.4,0.4
2025-11-02T2100,3246A,103.6975,36.4789,兰州新区,舟曲中学,,40,40,58,18,28,62,,108,98,39,24,7,8,0.4,0.5
2025-11-02T2100,1067A,116.6708,39.5111,廊坊市,药材公司,颗粒物(PM10),58,66,19,28,7,21,,64,51,54,20,3,2,0.4,0.3
2025-11-02T2100,1068A,116.7214,39.5589,廊坊市,开发区,颗粒物(PM10),54,58,20,30,8,25,,66,54,48,20,2,2,0.5,0.2
2025-11-02T2100,1070A,116.7244,39.5269,廊坊市,北华航天学院,颗粒物(PM10),59,67,20,17,4,28,,66,54,49,19,4,3,0.4,0.2
2025-11-02T2100,2919A,116.7022,39.5453,廊坊市,河北工业大学,颗粒物(PM10),53,55,16,25,7,31,,64,55,42,16,3,2,0.4,0.2
2025-11-02T2100,2535A,103.7723,29.5462,乐山市,花湖湾,,,,,,,,,,,,,,,,
2025-11-02T2100,2536A,103.7627,29.5844,乐山市,牛耳桥,,20,17,20,14,17,26,,48,46,22,18,7,7,0.6,0.6
2025-11-02T2100,2537A,103.7508,29.6006,乐山市,市第三水厂,,19,17,20,13,16,33,,46,46,19,16,6,5,0.6,0.6
2025-11-02T2100,2538A,103.7571,29.5664,乐山市,市监测站,,23,17,23,16,18,30,,45,44,16,12,6,6,0.6,0.6
2025-11-02T2100,3361A,103.7311,29.5628,乐山市,理工大学,,19,15,22,13,17,15,,50,45,15,11,6,6,0.6,0.5
2025-11-02T2100,2598A,100.2143,26.8576,丽江市,西南郊,,12,12,14,6,6,35,,42,41,6,6,6,6,1.0,0.9
2025-11-02T2100,2599A,100.2497,26.8802,丽江市,丽江古城,,18,18,20,11,12,33,,41,40,10,11,8,9,0.6,0.6
2025-11-02T2100,2600A,100.2203,26.8906,丽江市,市中心,,18,14,13,12,10,34,,41,40,12,11,10,10,0.6,0.5
2025-11-02T2100,1267A,119.914,28.4514,丽水市,监测站大楼,颗粒物(PM10),58,66,48,36,27,50,,104,97,31,21,5,5,0.6,0.5
2025-11-02T2100,1268A,119.93,28.4586,丽水市,莲都小学,颗粒物(PM10),57,63,48,33,26,67,,108,104,31,21,4,4,0.5,0.5
2025-11-02T2100,1269A,119.879,28.4231,丽水市,余庄前,细颗粒物(PM2.5),52,52,42,36,29,33,,90,79,18,15,2,3,0.5,0.5
2025-11-02T2100,1173A,119.176,34.5885,连云港市,市环境监测站,,46,46,104,14,65,44,,67,65,29,33,7,10,0.6,0.8
2025-11-02T2100,3000A,119.3581,34.6972,连云港市,德源药业,颗粒物(PM10),57,63,97,19,59,5,,59,45,52,40,5,6,0.2,0.6
2025-11-02T2100,3007A,119.178,34.844,连云港市,新城一中,,50,50,97,11,56,3,,66,53,82,33,7,11,0.8,1.2
2025-11-02T2100,3008A,119.3608,34.7519,连云港市,胡沟管理处,,24,24,76,3,45,72,,70,69,13,29,11,13,0.2,0.6
2025-11-02T2100,3009A,119.1478,34.5911,连云港市,矿山设计院,,44,44,108,14,62,44,,71,66,23,28,4,6,0.5,0.7
2025-11-02T2100,3434A,119.2413,34.6539,连云港市,工贸学校,,21,20,75,6,52,67,,70,70,12,20,8,10,0.5,0.9
2025-11-02T2100,3664A,119.4172,34.7341,连云港市,连云街道,,20,16,59,3,36,64,,71,69,25,26,4,6,0.1,0.6
2025-11-02T2100,2571A,102.3431,27.8099,凉山彝族自治州,青龙寺,,,,,,,,,,,,,,,,
2025-11-02T2100,2572A,102.2721,27.8415,凉山彝族自治州,邛海宾馆,,11,7,9,3,6,34,,46,42,6,6,9,10,0.6,0.6
2025-11-02T2100,2573A,102.2625,27.898,凉山彝族自治州,西昌市政府,,38,,10,26,10,25,,39,36,19,9,6,6,0.6,0.4
2025-11-02T2100,2574A,102.2685,27.8851,凉山彝族自治州,凉山州政府,,20,,9,14,13,33,,43,41,11,6,8,8,0.9,0.8
2025-11-02T2100,4229A,102.2342,27.8859,凉山彝族自治州,凯乐南路30号,,29,26,13,20,9,12,,42,35,38,19,6,6,1.0,0.8
2025-11-02T2100,2212A,123.2,41.1953,辽阳市,宏伟区,颗粒物(PM10),60,70,66,20,10,30,,54,46,24,9,12,6,0.5,0.3
2025-11-02T2100,2213A,123.1683,41.2495,辽阳市,新华园,,42,42,61,25,10,32,,52,45,22,9,33,4,0.6,0.4
2025-11-02T2100,2214A,123.2354,41.2639,辽阳市,滨河路,颗粒物(PM10),56,62,72,31,14,26,,53,40,26,11,9,5,0.5,0.3
2025-11-02T2100,2215A,123.149,41.2991,辽阳市,铁西工业园,颗粒物(PM10),63,75,60,37,15,7,,50,31,44,14,22,5,0.8,0.4
2025-11-02T2100,2227A,125.1358,42.8845,辽源市,环保局,颗粒物(PM10),59,68,51,23,9,15,,44,33,20,10,3,10,0.9,0.3
2025-11-02T2100,3239A,125.0764,42.9078,辽源市,银鹰制药,,34,34,24,22,17,22,,53,44,18,7,4,3,0.6,0.4
2025-11-02T2100,1625A,115.9848,36.4372,聊城市,区政府,,47,47,60,20,33,29,,66,56,50,44,9,14,0.5,0.7
2025-11-02T2100,2878A,116.0072,36.4343,聊城市,聊大东校,颗粒物(PM10),52,53,70,22,39,25,,67,55,55,45,6,12,0.6,0.7
2025-11-02T2100,3200A,115.9819,36.4978,聊城市,监控中心,颗粒物(PM10),58,66,69,34,39,39,,67,52,75,44,19,14,0.7,0.8
2025-11-02T2100,3513A,116.0445,36.4361,聊城市,九州社区,颗粒物(PM10),56,62,72,24,37,17,,67,49,57,39,1,6,0.5,0.6
2025-11-02T2100,4018A,116.0567,36.4608,聊城市,星美广场,颗粒物(PM10),58,65,83,24,38,18,,66,46,55,46,3,11,0.4,0.6
2025-11-02T2100,2632A,94.3681,29.6376,林芝市,林芝监测站,,16,16,7,11,5,18,,62,53,22,7,6,5,0.5,0.4
2025-11-02T2100,2633A,94.3616,29.6616,林芝市,林芝人民医院,,22,22,9,13,5,23,,55,48,15,7,7,6,0.7,0.5
2025-11-02T2100,2603A,100.0781,23.8982,临沧市,市环保局,细颗粒物(PM2.5),57,,18,40,22,11,,25,20,12,7,5,4,1.0,0.8
2025-11-02T2100,2604A,100.0894,23.8822,临沧市,市气象局,,,,19,23,20,10,,26,22,12,10,,6,0.7,0.7
2025-11-02T2100,1733A,111.5531,36.0783,临汾市,临钢医院,颗粒物(PM10),108,165,91,78,42,32,,76,68,68,35,10,13,1.1,1.2
2025-11-02T2100,1734A,111.5028,36.0714,临汾市,技工学校,细颗粒物(PM2.5),89,112,85,66,47,69,,84,84,42,42,10,16,0.7,0.9
2025-11-02T2100,1736A,111.5018,36.0855,临汾市,市委,,,126,90,69,39,,,94,,37,40,10,15,0.8,1
2025-11-02T2100,3018A,111.505,36.1014,临汾市,唐尧大酒店,细颗粒物(PM2.5),87,121,86,64,37,73,,90,90,34,34,6,9,1.0,1.1
2025-11-02T2100,4244A,111.4879,36.0530,临汾市,启星学校,细颗粒物(PM2.5),98,105,87,73,51,88,,90,90,31,45,12,16,0.8,1.1
2025-11-02T2100,4271A,103.2464,35.6123,临夏回族自治州,滨河东路1号,细颗粒物(PM2.5),115,158,74,87,39,4,,69,50,48,24,7,7,1.0,0.5
2025-11-02T2100,4310A,103.2093,35.5995,临夏回族自治州,新华街21号,细颗粒物(PM2.5),83,114,54,61,34,11,,82,67,62,20,9,8,1.0,0.5
2025-11-02T2100,1618A,118.3429,35.0532,临沂市,沂河小区,颗粒物(PM10),70,90,87,50,59,29,,67,59,48,40,17,13,0.5,0.5
2025-11-02T2100,1619A,118.295,35.0583,临沂市,鲁南制药厂,颗粒物(PM10),69,88,91,40,51,37,,72,66,44,45,15,18,0.8,0.7
2025-11-02T2100,1620A,118.2794,34.9976,临沂市,新光毛纺厂,颗粒物(PM10),71,92,85,50,50,35,,68,61,52,47,10,14,0.5,0.6
2025-11-02T2100,1621A,118.3956,35.0888,临沂市,河东保险公司,颗粒物(PM10),73,95,78,52,48,13,,70,54,61,39,7,8,0.7,0.7
2025-11-02T2100,3370A,118.3564,35.0215,临沂市,十里堡居委,颗粒物(PM10),63,75,81,34,40,42,,70,64,39,45,12,14,0.7,0.6
2025-11-02T2100,3496A,118.3604,35.1084,临沂市,南坊新区,颗粒物(PM10),78,105,81,53,46,22,,73,62,59,39,9,12,0.8,0.7
2025-11-02T2100,3860A,118.3920,35.0300,临沂市,皇山花园小区,颗粒物(PM10),75,100,88,42,46,26,,70,57,54,38,10,13,0.6,0.6
2025-11-02T2100,1870A,109.4856,24.3895,柳州市,柳东小学,,38,29,39,26,29,48,,67,63,9,13,5,6,0.5,0.5
2025-11-02T2100,1871A,109.4157,24.3277,柳州市,环保监测站,,26,26,38,3,18,54,,63,62,7,11,7,8,0.5,0.6
2025-11-02T2100,1872A,109.389,24.341,柳州市,河西水厂,,32,30,44,22,28,54,,64,63,10,15,5,8,0.4,0.6
2025-11-02T2100,1873A,109.4311,24.2921,柳州市,市四中,,25,24,35,17,25,50,,59,58,9,14,8,8,0.5,0.6
2025-11-02T2100,1874A,109.4006,24.3631,柳州市,市九中,,38,38,44,22,31,43,,58,56,13,14,2,4,0.4,0.6
2025-11-02T2100,1875A,109.4958,24.3134,柳州市,古亭山,,34,34,33,14,22,57,,69,67,7,14,6,7,0.5,0.5
2025-11-02T2100,3402A,109.5422,24.3996,柳州市,市二中,,23,22,35,16,26,55,,66,64,10,15,6,8,0.5,0.6
2025-11-02T2100,2307A,116.5079,31.737,六安市,监测大楼,细颗粒物(PM2.5),93,90,56,69,38,78,,115,113,28,23,4,5,0.5,0.4
2025-11-02T2100,2308A,116.4738,31.7643,六安市,皖西学院,细颗粒物(PM2.5),104,112,63,78,38,74,,117,113,31,19,4,4,0.6,0.4
2025-11-02T2100,2309A,116.4996,31.7905,六安市,朝阳厂,细颗粒物(PM2.5),89,102,58,66,37,68,,109,105,38,25,5,5,0.6,0.4
2025-11-02T2100,2310A,116.5567,31.7886,六安市,开发区,细颗粒物(PM2.5),103,118,74,77,42,60,,105,96,36,29,2,3,0.6,0.5
2025-11-02T2100,2576A,104.8,26.5892,六盘水市,窑上,,,,21,13,12,58,,55,55,4,4,2,2,0.3,0.3
2025-11-02T2100,2577A,104.83,26.5917,六盘水市,黄土坡,,18,8,11,3,8,56,,57,57,10,9,5,4,0.5,0.5
2025-11-02T2100,2578A,104.89,26.5939,六盘水市,水钢,,20,13,18,6,12,61,,56,56,5,8,5,5,1.0,0.6
2025-11-02T2100,2579A,104.8475,26.5894,六盘水市,民中,,15,11,12,3,6,48,,48,48,13,11,3,3,0.5,0.5
2025-11-02T2100,2580A,104.9544,26.5506,六盘水市,双水,,20,12,12,3,8,62,,58,58,5,6,3,3,0.3,0.3
2025-11-02T2100,2335A,117.0189,25.1181,龙岩市,龙岩师专,,,,,,,,,,,,,,,,
2025-11-02T2100,2336A,117.0217,25.1033,龙岩市,龙岩市监测站,,32,32,27,19,18,83,,95,92,10,13,16,16,0.4,0.5
2025-11-02T2100,2337A,117.0258,25.0661,龙岩市,闽西职业技术学院,,28,25,26,17,16,89,,101,100,5,9,9,10,0.5,0.5
2025-11-02T2100,2338A,117.0196,25.0306,龙岩市,龙岩学院,,29,25,27,20,19,76,,95,91,9,12,9,8,0.4,0.5
2025-11-02T2100,2665A,105.0822,33.3261,陇南市,汉王镇固水子,,,,,,,,,,,,,,,,
2025-11-02T2100,2885A,104.9339,33.3826,陇南市,滨江中学,细颗粒物(PM2.5),59,52,45,42,23,35,,43,42,13,16,7,8,0.3,0.6
2025-11-02T2100,3247A,104.955,33.371,陇南市,市总工会,,44,44,44,18,21,49,,50,50,8,15,8,8,0.4,0.4
2025-11-02T2100,2487A,111.9589,27.8901,娄底市,电视发射台,,,,,,,,,,,,,,,,
2025-11-02T2100,2488A,111.9975,27.725,娄底市,市监测站,,50,50,39,33,25,11,,63,54,48,26,11,16,0.4,0.6
2025-11-02T2100,2489A,112.0194,27.7314,娄底市,市委党校,,48,45,37,33,25,19,,56,52,28,21,6,9,0.7,0.8
2025-11-02T2100,2490A,111.9561,27.7569,娄底市,涟钢,,48,48,40,25,25,26,,54,46,14,12,8,9,0.1,0.2
2025-11-02T2100,2491A,111.9892,27.7044,娄底市,市政府,颗粒物(PM10),56,62,33,39,25,20,,56,48,21,13,6,9,0.8,0.9
2025-11-02T2100,1893A,105.4324,28.9634,泸州市,九狮山,,,,,,,,,,,,,,,,
2025-11-02T2100,1894A,105.4427,28.9063,泸州市,小市上码头,,20,19,24,14,18,12,,30,27,33,15,8,9,0.6,0.5
2025-11-02T2100,1895A,105.4241,28.8573,泸州市,兰田宪桥,,33,25,22,23,15,13,,37,32,17,12,6,6,0.6,0.5
2025-11-02T2100,1896A,105.4379,28.8833,泸州市,市环监站,,,24,23,17,18,11,,34,31,35,21,5,5,,0.5
2025-11-02T2100,4272A,105.3689,28.7783,泸州市,纳溪中医医院,,26,26,22,18,16,12,,40,31,29,20,6,5,0.7,0.6
2025-11-02T2100,2183A,111.1406,37.5211,吕梁市,环保局,颗粒物(PM10),66,81,54,21,15,6,,65,49,69,43,3,4,0.5,0.5
2025-11-02T2100,2185A,111.1297,37.5136,吕梁市,自来水公司,颗粒物(PM10),70,90,84,26,18,24,,66,61,42,32,2,6,0.5,0.5
2025-11-02T2100,2867A,111.1283,37.51,吕梁市,马茂庄小学,,,95,64,17,13,,,58,48,70,46,2,6,0.5,0.4
2025-11-02T2100,1812A,112.3931,34.6516,洛阳市,市委党校,颗粒物(PM10),84,118,80,37,44,25,,66,57,54,44,8,9,0.5,0.7
2025-11-02T2100,1815A,112.494,34.6886,洛阳市,河南林校,颗粒物(PM10),101,151,90,34,44,15,,66,52,58,45,8,9,0.4,0.7
2025-11-02T2100,1816A,112.3844,34.623,洛阳市,开发区管委会,颗粒物(PM10),75,99,75,38,42,29,,72,63,45,33,7,8,0.5,0.6
2025-11-02T2100,1817A,112.4267,34.6258,洛阳市,市委新办公区,颗粒物(PM10),83,115,72,39,36,24,,68,56,51,33,8,9,0.3,0.4
2025-11-02T2100,3340A,112.6005,34.6326,洛阳市,伊滨,颗粒物(PM10),91,131,73,38,36,19,,62,52,46,36,7,9,0.4,0.4
2025-11-02T2100,3341A,112.4951,34.6332,洛阳市,中移产业园,颗粒物(PM10),93,135,81,36,39,17,,68,55,59,37,8,9,0.3,0.4
2025-11-02T2100,3593A,112.5736,34.8993,洛阳市,吉利监测站,颗粒物(PM10),77,103,70,21,33,32,,68,61,47,36,8,8,0.5,0.6
2025-11-02T2100,3635A,112.3677,34.662,洛阳市,河科大西苑校区,颗粒物(PM10),87,123,83,30,43,34,,70,63,46,40,9,12,0.5,0.7
2025-11-02T2100,3636A,112.4388,34.6781,洛阳市,英才小学,颗粒物(PM10),95,139,100,42,50,14,,58,47,58,55,7,11,0.6,0.8
2025-11-02T2100,4214A,112.4600,34.6949,洛阳市,春都路1号院,颗粒物(PM10),106,161,101,35,36,12,,54,44,51,43,8,9,0.6,0.8
2025-11-02T2100,2399A,114.051,33.5699,漯河市,三五一五工厂,颗粒物(PM10),107,163,111,72,58,33,,78,66,49,32,8,9,0.7,0.8
2025-11-02T2100,2400A,114.0055,33.5698,漯河市,漯河大学,,,150,108,66,54,,,81,80,48,37,7,8,0.5,0.5
2025-11-02T2100,2401A,114.0138,33.5828,漯河市,市水利局,颗粒物(PM10),101,151,110,58,54,27,,84,65,52,34,8,8,0.6,0.7
2025-11-02T2100,2402A,114.0261,33.5698,漯河市,市广电局,颗粒物(PM10),109,168,117,66,51,42,,80,69,43,33,7,7,0.6,0.6
2025-11-02T2100,3478A,113.9749,33.5664,漯河市,市图书馆,颗粒物(PM10),92,134,118,53,49,40,,74,66,40,32,5,6,0.6,0.6
2025-11-02T2100,4250A,114.0892,33.5882,漯河市,韶山路11号,颗粒物(PM10),124,197,116,80,55,8,,70,50,73,39,8,9,0.6,0.6
2025-11-02T2100,1798A,118.5092,31.6837,马鞍山市,湖东路四小,"颗粒物(PM10),细颗粒物(PM2.5)",53,56,78,37,49,91,,115,111,25,51,6,8,0.5,0.7
2025-11-02T2100,1799A,118.5024,31.6449,马鞍山市,开发区,颗粒物(PM10),57,63,84,34,45,100,,126,123,21,52,8,9,0.4,0.7
2025-11-02T2100,1802A,118.6245,31.7241,马鞍山市,濮塘,,,,,,,,,,,,,,,,
2025-11-02T2100,3633A,118.4918,31.6809,马鞍山市,雨山,颗粒物(PM10),55,60,79,32,42,96,,118,115,23,53,6,8,0.6,0.8
2025-11-02T2100,4191A,118.5274,31.72227,马鞍山市,慈湖高新区,细颗粒物(PM2.5),57,61,89,40,52,97,,119,117,22,46,4,6,0.6,0.7
2025-11-02T2100,1686A,111.0286,21.4688,茂名市,电白南海,,45,34,48,31,32,81,,108,103,12,13,11,10,0.5,0.5
2025-11-02T2100,1687A,110.9294,21.6533,茂名市,茂石化七小,细颗粒物(PM2.5),64,66,44,46,28,44,,90,80,20,14,12,13,0.9,0.8
2025-11-02T2100,1688A,110.9107,21.6687,茂名市,健康路,细颗粒物(PM2.5),55,56,43,39,30,50,,94,78,17,15,22,23,0.7,0.8
2025-11-02T2100,1689A,110.8592,21.6828,茂名市,高岭,颗粒物(PM10),59,68,60,29,29,42,,84,70,18,16,15,18,0.8,0.8
2025-11-02T2100,3450A,111.01,21.5165,茂名市,电白水东,,41,41,39,27,23,71,,102,96,14,13,11,12,0.8,0.8
2025-11-02T2100,2539A,104.0308,30.0478,眉山市,黑龙滩水库,,,,,,,,,,,,,,,,
2025-11-02T2100,2540A,103.8416,30.0874,眉山市,气象局,,47,47,35,24,18,30,,50,50,24,20,8,8,0.4,0.4
2025-11-02T2100,3137A,103.8578,30.0744,眉山市,市委党校,,29,29,22,17,13,26,,48,46,21,18,5,5,0.6,0.6
2025-11-02T2100,3148A,103.8291,30.0564,眉山市,区人社局,,37,37,34,17,15,37,,49,49,15,20,4,5,0.7,0.7
2025-11-02T2100,1690A,116.1231,24.3284,梅州市,梅江月梅,颗粒物(PM10),61,72,37,36,29,18,,80,67,46,18,6,6,0.7,0.7
2025-11-02T2100,1691A,116.0797,24.2719,梅州市,梅县新城,,45,45,37,26,24,56,,85,79,15,17,8,8,0.6,0.7
2025-11-02T2100,1692A,116.1248,24.2654,梅州市,环境监控中心,,47,47,38,32,28,34,,80,71,31,20,6,8,0.7,0.6
2025-11-02T2100,3315A,116.1233,24.2991,梅州市,梅龙,颗粒物(PM10),52,53,36,30,25,42,,76,68,24,15,7,8,0.7,0.7
2025-11-02T2100,1878A,104.7778,31.4741,绵阳市,富乐山,,26,26,29,16,21,23,,45,40,12,11,8,8,0.5,0.5
2025-11-02T2100,1880A,104.6697,31.4668,绵阳市,高新区自来水公司,,45,40,39,31,31,2,,38,34,46,26,8,8,0.7,0.5
2025-11-02T2100,1881A,104.7287,31.5075,绵阳市,三水厂,,46,44,37,32,30,1,,39,32,41,23,7,6,0.7,0.5
2025-11-02T2100,3491A,104.69,31.5322,绵阳市,西科大附属小学,,42,42,36,22,22,2,,41,34,52,30,10,10,0.7,0.6
2025-11-02T2100,3492A,104.5648,31.5343,绵阳市,安州区旅游局,,45,42,36,31,31,11,,43,37,38,26,7,7,0.7,0.6
2025-11-02T2100,4226A,104.7651,31.4531,绵阳市,绵阳市气象局,,35,32,32,24,26,13,,41,38,39,16,6,6,0.8,0.7
2025-11-02T2100,1784A,129.61,44.561,牡丹江市,环保大楼,,34,34,58,15,47,26,,26,26,9,24,5,6,0.3,0.5
2025-11-02T2100,1785A,129.6115,44.5782,牡丹江市,文化广场,,38,31,50,26,50,23,,28,26,12,23,5,8,0.3,0.5
2025-11-02T2100,1786A,129.5904,44.5963,牡丹江市,第一医院,,35,,52,24,49,29,,40,32,9,18,2,3,0.3,0.4
2025-11-02T2100,1787A,129.6364,44.6075,牡丹江市,机车工厂,,24,24,53,14,41,23,,32,31,14,22,5,10,0.3,0.5
2025-11-02T2100,1788A,129.6386,44.5462,牡丹江市,第一中学,,27,27,54,10,44,28,,28,28,8,25,3,4,0.3,0.5
2025-11-02T2100,2531A,105.0703,29.61,内江市,市监测站,,50,50,26,27,15,22,,49,46,29,13,4,4,0.7,0.4
2025-11-02T2100,2532A,105.0717,29.5947,内江市,东兴区政府,,24,24,17,11,8,18,,39,36,28,16,4,5,0.4,0.3
2025-11-02T2100,2533A,105.0653,29.5817,内江市,内江二中,,26,26,20,12,10,17,,36,34,29,17,4,4,0.8,0.6
2025-11-02T2100,2534A,105.0406,29.5822,内江市,内江日报社,,27,27,23,15,14,11,,39,36,43,20,4,4,0.6,0.4
2025-11-02T2100,2628A,92.0657,31.4846,那曲市,那曲监测站,,35,35,38,18,18,76,,100,97,20,21,9,8,0.5,0.7
2025-11-02T2100,4243A,92.0515,31.4787,那曲市,那曲市委宣传部,,26,16,18,8,10,82,,102,100,8,16,7,6,0,0.3
2025-11-02T2100,1290A,115.8931,28.6843,南昌市,省外办,细颗粒物(PM2.5),67,62,54,48,38,66,,97,88,30,27,8,9,1.1,0.9
2025-11-02T2100,1291A,115.8886,28.7003,南昌市,省林业公司,颗粒物(PM10),57,63,52,39,34,72,,110,93,35,30,6,8,1.3,1.1
2025-11-02T2100,1292A,115.8126,28.7442,南昌市,林科所,,41,41,43,24,26,90,,103,98,21,32,8,6,0.8,0.8
2025-11-02T2100,1294A,115.8518,28.687,南昌市,建工学校,颗粒物(PM10),69,88,65,40,35,78,,106,98,36,32,14,15,0.7,0.6
2025-11-02T2100,1295A,115.8921,28.6424,南昌市,象湖,颗粒物(PM10),63,75,60,39,34,70,,108,100,37,30,10,13,0.9,0.7
2025-11-02T2100,1296A,115.7423,28.7996,南昌市,武术学校,,,,,,,,,,,,,,,,
2025-11-02T2100,3046A,115.9084,28.6062,南昌市,机电学校,颗粒物(PM10),62,73,68,39,36,83,,116,110,32,30,10,11,0.6,0.5
2025-11-02T2100,3690A,115.9721,28.7031,南昌市,外国语学校,细颗粒物(PM2.5),72,77,62,52,36,57,,112,103,67,41,12,11,0.6,0.5
2025-11-02T2100,4192A,115.9316,28.68677,南昌市,南京东路235号,颗粒物(PM10),70,90,73,47,39,70,,107,100,43,37,10,10,0.8,0.7
2025-11-02T2100,1905A,106.056,30.8064,南充市,西山风景区,,,,,,,,,,,,,,,,
2025-11-02T2100,1906A,106.0789,30.8023,南充市,南充市委,,40,40,36,27,27,2,,45,40,45,21,4,4,0.6,0.5
2025-11-02T2100,1907A,106.1031,30.8217,南充市,南充炼油厂,,50,50,44,33,32,19,,47,45,30,16,6,6,0.7,0.6
2025-11-02T2100,4227A,106.1083,30.7884,南充市,梨树横街98号,,45,41,40,31,27,23,,51,49,33,18,4,4,0.5,0.4
2025-11-02T2100,4304A,106.1172,30.843,南充市,清泉寺北路188号,颗粒物(PM10),52,53,31,34,27,28,,50,50,24,14,6,6,0.4,0.4
2025-11-02T2100,4305A,106.067,30.7616,南充市,同庆路1号,,45,,33,31,27,6,,44,40,45,23,5,6,0.7,0.5
2025-11-02T2100,1151A,118.8086,32.1065,南京市,迈皋桥,颗粒物(PM10),58,66,64,34,41,56,,103,85,27,31,3,4,0.3,0.4
2025-11-02T2100,1152A,118.7538,32.0551,南京市,草场门,颗粒物(PM10),57,63,76,39,44,58,,102,88,44,51,10,12,0.5,0.6
2025-11-02T2100,1153A,118.7794,32.0745,南京市,山西路,颗粒物(PM10),64,78,81,41,45,62,,115,101,42,38,4,4,0.8,0.8
2025-11-02T2100,1154A,118.7752,32.0023,南京市,中华门,颗粒物(PM10),60,70,81,34,49,75,,122,109,39,52,4,4,0.5,0.7
2025-11-02T2100,1155A,118.8109,32.0309,南京市,瑞金路,颗粒物(PM10),58,66,69,36,45,68,,107,97,30,40,4,4,0.8,1
2025-11-02T2100,1156A,118.7997,32.0754,南京市,玄武湖,颗粒物(PM10),56,61,60,34,45,53,,101,82,22,21,4,4,0.5,0.6
2025-11-02T2100,1157A,118.6414,32.0931,南京市,浦口,颗粒物(PM10),71,91,75,37,45,77,,106,98,24,24,8,10,0.7,0.7
2025-11-02T2100,1158A,118.7356,31.9996,南京市,奥体中心,颗粒物(PM10),61,71,81,39,50,87,,122,115,39,49,6,8,0.6,0.7
2025-11-02T2100,1159A,118.9125,32.1028,南京市,仙林大学城,颗粒物(PM10),59,68,77,41,49,40,,98,82,53,42,7,9,0.6,0.7
2025-11-02T2100,3422A,118.8436,31.9198,南京市,江宁彩虹桥,颗粒物(PM10),59,67,68,36,45,87,,116,107,31,50,6,7,0.5,0.7
2025-11-02T2100,3427A,118.8554,32.3578,南京市,六合雄州,,46,38,77,32,54,61,,111,95,18,25,6,8,0.4,0.6
2025-11-02T2100,4249A,118.8708,31.3402,南京市,汶溪路181号,细颗粒物(PM2.5),63,65,63,45,44,92,,123,121,23,21,6,6,0.7,0.8
2025-11-02T2100,4312A,119.019,31.6512,南京市,中山西路1号,"颗粒物(PM10),细颗粒物(PM2.5)",62,73,72,44,47,76,,109,100,20,16,4,4,0.8,0.9
2025-11-02T2100,1401A,108.3103,22.7881,南宁市,二十一中,,28,25,26,19,17,56,,53,53,11,15,4,4,0.6,0.6
2025-11-02T2100,1402A,108.3141,22.8528,南宁市,北湖,,31,31,30,20,20,54,,47,47,14,17,6,9,0.5,0.6
2025-11-02T2100,1403A,108.3206,22.8225,南宁市,市监测站,,36,36,25,19,17,47,,45,45,19,20,6,7,0.6,0.6
2025-11-02T2100,1404A,108.3829,22.8037,南宁市,大自然花园,,26,26,28,17,17,57,,55,55,10,11,6,5,0.6,0.6
2025-11-02T2100,1405A,108.4394,22.7904,南宁市,仙葫,,,,,,,,,,,,,,,,
2025-11-02T2100,1406A,108.2397,22.8467,南宁市,区农职院,,39,39,26,18,17,47,,52,52,13,12,7,4,0.6,0.6
2025-11-02T2100,1407A,108.3275,22.735,南宁市,英华嘉园,,30,24,27,21,19,47,,52,52,12,14,2,2,0.5,0.5
2025-11-02T2100,3401A,108.4834,22.7618,南宁市,红星社区,,30,,22,21,18,68,,68,68,7,8,5,5,0.4,0.4
2025-11-02T2100,4221A,108.2177,22.7774,南宁市,乐贤路16号,,44,44,29,22,20,37,,45,44,18,14,5,8,0.4,0.4
2025-11-02T2100,2331A,118.0966,26.6761,南平市,茫荡山,,,38,28,,,98,,120,114,,,1,1,,0.3
2025-11-02T2100,2332A,118.1681,26.6369,南平市,南平市监测站,,32,30,29,22,21,44,,90,81,26,16,4,4,0.7,0.6
2025-11-02T2100,2333A,118.1825,26.6489,南平市,南平铝业有限公司,,50,50,33,28,22,45,,92,81,25,18,4,4,0.6,0.6
2025-11-02T2100,2334A,118.1756,26.6272,南平市,南平七中,,43,40,30,30,23,51,,92,83,15,16,4,5,0.5,0.5
2025-11-02T2100,1168A,120.9098,31.9663,南通市,狼山街道,,39,39,84,10,64,71,,102,92,12,33,2,4,0.4,0.9
2025-11-02T2100,1169A,120.86,32.0005,南通市,虹桥,,33,33,101,9,74,67,,100,89,11,36,3,8,0.7,1.2
2025-11-02T2100,1170A,120.87,32.02,南通市,城中,,43,43,119,11,70,63,,95,84,14,35,3,8,0.6,1.1
2025-11-02T2100,1171A,120.94,31.93,南通市,星湖花园,,39,39,113,13,70,72,,102,92,11,35,3,6,0.5,0.9
2025-11-02T2100,1172A,120.81,32.0417,南通市,紫琅学院,,41,41,117,8,76,62,,99,87,18,38,4,8,0.2,0.7
2025-11-02T2100,3291A,121.067,32.062,南通市,通州监测站,,29,29,97,12,80,74,,107,97,11,46,1,4,0.3,0.8
2025-11-02T2100,3432A,120.9348,31.9883,南通市,环境教育馆,,36,36,90,9,78,62,,105,91,22,37,3,6,0.3,0.8
2025-11-02T2100,2404A,112.5224,33.0122,南阳市,瓦房庄,细颗粒物(PM2.5),115,136,89,87,46,76,,100,97,27,23,9,7,0.7,0.6
2025-11-02T2100,2405A,112.5003,32.9735,南阳市,汉画馆,细颗粒物(PM2.5),100,132,85,75,44,74,,96,94,31,30,7,6,0.8,0.7
2025-11-02T2100,2406A,112.5573,33.027,南阳市,气象站,颗粒物(PM10),116,181,105,80,42,71,,100,96,33,29,8,7,0.7,0.6
2025-11-02T2100,2407A,112.5481,32.9689,南阳市,理工学院,颗粒物(PM10),105,160,106,64,46,,,101,101,34,32,,7,0.7,0.7
2025-11-02T2100,4008A,112.5234,32.9922,南阳市,卧龙区政府,颗粒物(PM10),99,147,94,55,34,73,,96,93,29,27,10,8,0.7,0.6
2025-11-02T2100,1234A,121.8358,29.911,宁波市,区环保大楼,,30,,97,16,60,93,,146,127,19,31,6,8,0.4,0.8
2025-11-02T2100,1235A,121.56,29.82,宁波市,万里学院,,25,22,79,9,66,78,,155,141,29,37,8,9,0.5,0.8
2025-11-02T2100,1236A,121.713,29.9572,宁波市,龙赛医院,,,13,116,3,57,99,,150,134,22,45,4,6,,0.8
2025-11-02T2100,1239A,121.633,29.7733,宁波市,钱湖水厂,,26,16,87,10,61,82,,144,133,20,29,10,8,0.5,0.9
2025-11-02T2100,1240A,121.5856,29.8635,宁波市,太古小学,,27,14,100,3,49,86,,152,137,22,43,4,5,0.5,0.9
2025-11-02T2100,1241A,121.524,29.8674,宁波市,市环境监测中心,,30,22,84,9,44,95,,151,140,16,42,10,10,0.6,1
2025-11-02T2100,2871A,121.6147,29.9017,宁波市,万里国际学校,,28,18,81,3,52,87,,150,134,22,45,5,6,0.4,0.9
2025-11-02T2100,3710A,121.5594,29.8975,宁波市,白沙活动中心,,29,29,80,7,48,83,,138,125,21,41,7,7,0.5,0.8
2025-11-02T2100,2339A,119.5001,26.6946,宁德市,金涵水库,细颗粒物(PM2.5),62,59,41,44,30,97,,90,90,14,9,5,2,0.6,0.4
2025-11-02T2100,2341A,119.5388,26.6612,宁德市,宁德市监测站,,45,40,38,30,29,142,,130,130,12,12,7,7,0.6,0.6
2025-11-02T2100,3209A,119.5231,26.6562,宁德市,宁德一中,,50,50,44,29,26,148,,133,133,9,10,7,8,0.5,0.6
2025-11-02T2100,2618A,98.8601,25.8567,怒江傈僳族自治州,州监测站,,22,22,19,15,14,18,,28,22,10,7,7,8,0.4,0.4
2025-11-02T2100,2619A,98.8546,25.8417,怒江傈僳族自治州,泸水一中,,23,18,17,16,12,6,,7,7,16,14,6,6,0.6,0.5
2025-11-02T2100,1888A,101.6891,26.571,攀枝花市,弄弄坪,,19,19,17,11,9,28,,36,31,21,19,3,4,0.7,0.6
2025-11-02T2100,1889A,101.5769,26.5928,攀枝花市,河门口,,25,18,19,17,11,16,,26,21,26,21,16,15,1.0,1.1
2025-11-02T2100,1890A,101.7169,26.585,攀枝花市,炳草岗,,17,17,21,8,10,20,,33,27,26,20,5,6,0.7,0.7
2025-11-02T2100,1891A,101.7369,26.5008,攀枝花市,仁和,,19,17,15,13,9,23,,34,30,15,13,6,6,0.8,0.7
2025-11-02T2100,2835A,101.7227,26.567,攀枝花市,四十中小,,,15,15,,8,40,,45,43,13,9,8,9,0.8,0.8
2025-11-02T2100,1604A,122.0303,41.1489,盘锦市,开发区,,43,39,46,30,8,19,,54,44,31,9,2,2,0.4,0.1
2025-11-02T2100,1605A,122.0485,41.0883,盘锦市,兴隆台,颗粒物(PM10),54,57,50,22,7,22,,57,47,35,11,7,6,0.4,0.2
2025-11-02T2100,1606A,121.8297,41.1028,盘锦市,新生街道,,49,,28,34,8,21,,60,45,29,18,6,6,0.4,0.2
2025-11-02T2100,1832A,113.3257,33.742,平顶山市,新华旅馆,颗粒物(PM10),82,113,91,52,52,48,,82,72,39,35,8,9,0.4,0.5
2025-11-02T2100,1833A,113.2919,33.737,平顶山市,规划设计院,细颗粒物(PM2.5),89,121,95,66,51,42,,82,69,47,36,6,7,0.8,0.6
2025-11-02T2100,1834A,113.182,33.774,平顶山市,平顶山工学院,,,,76,73,44,40,,85,72,43,29,7,8,0.5,0.5
2025-11-02T2100,3204A,113.3025,33.73,平顶山市,规划局,颗粒物(PM10),87,124,99,53,47,50,,88,78,37,32,8,9,0.7,0.7
2025-11-02T2100,3594A,112.8867,33.9116,平顶山市,石龙区,颗粒物(PM10),85,119,81,56,35,40,,99,78,46,34,10,9,1.2,0.7
2025-11-02T2100,2656A,106.6692,35.5461,平凉市,聚贤嘉苑,,47,47,52,31,28,76,,77,74,13,23,8,8,0.8,0.6
2025-11-02T2100,2657A,106.7021,35.5307,平凉市,博物馆,颗粒物(PM10),52,54,53,28,29,56,,89,82,29,24,11,12,0.7,0.6
2025-11-02T2100,2347A,114.0997,27.5002,萍乡市,武功山,,,,,,,,,,,,,,,,
2025-11-02T2100,2348A,113.8385,27.6434,萍乡市,中医院,颗粒物(PM10),56,62,42,26,20,18,,64,52,47,28,8,9,0.8,0.8
2025-11-02T2100,2349A,113.8493,27.6253,萍乡市,市政府车库,细颗粒物(PM2.5),58,60,42,41,26,15,,63,52,37,26,8,11,0.7,0.8
2025-11-02T2100,2350A,113.8676,27.6435,萍乡市,市环保局,颗粒物(PM10),66,81,46,44,26,20,,52,52,37,23,2,8,0.7,0.6
2025-11-02T2100,2351A,113.866,27.6198,萍乡市,安源区政府,,50,47,45,35,30,11,,59,49,34,23,9,13,0.6,0.8
2025-11-02T2100,2319A,119.0141,25.4325,莆田市,荔城区仓后路,,42,39,38,29,24,107,,128,122,10,9,5,5,0.5,0.5
2025-11-02T2100,2320A,119.0015,25.4553,莆田市,莆田市监测站,细颗粒物(PM2.5),57,,31,40,27,115,,131,127,8,8,5,5,0.5,0.5
2025-11-02T2100,2321A,119.1119,25.4561,莆田市,涵江区六中,细颗粒物(PM2.5),52,47,39,36,26,118,,134,126,8,9,4,4,0.6,0.6
2025-11-02T2100,2322A,119.1013,25.3215,莆田市,秀屿区政府,细颗粒物(PM2.5),54,45,43,38,31,115,,136,129,11,13,5,6,0.5,0.7
2025-11-02T2100,2323A,118.981,25.4792,莆田市,东圳水库,,37,33,28,21,14,118,,136,134,12,7,6,7,0.3,0.8
2025-11-02T2100,2392A,115.0312,35.7636,濮阳市,环保局,,43,43,63,25,44,25,,52,45,66,58,20,14,0.8,0.9
2025-11-02T2100,2394A,115.0574,35.7609,濮阳市,油田运输公司,颗粒物(PM10),57,64,81,29,48,23,,59,49,54,50,37,17,0.8,0.9
2025-11-02T2100,3021A,115,35.7668,濮阳市,濮水河管理处,,45,45,67,23,43,23,,56,44,43,44,10,10,0.5,1.3
2025-11-02T2100,4216A,115.0924,35.7686,濮阳市,任丘路479号,颗粒物(PM10),67,83,78,25,45,5,,52,41,72,52,21,12,0.7,0.9
2025-11-02T2100,2601A,100.98,22.7633,普洱市,市环保局,,39,,20,27,15,27,,41,37,5,4,4,4,0.5,0.5
2025-11-02T2100,2602A,100.9817,22.8322,普洱市,普洱第二中学,,22,22,17,14,13,18,,41,35,6,6,5,5,0.5,0.4
2025-11-02T2100,2262A,131.0518,45.8751,七台河市,新一中,,,,,,,,,,,,,,,,
2025-11-02T2100,3345A,131.0577,45.7879,七台河市,中波台,细颗粒物(PM2.5),88,72,57,65,50,18,,49,39,18,14,14,7,0.5,0.5
2025-11-02T2100,3637A,131.0176,45.7761,七台河市,人民广场,颗粒物(PM10),53,56,76,24,51,18,,52,42,23,18,7,9,0.7,0.7
2025-11-02T2100,3684A,130.8781,45.8222,七台河市,新建矿广场,细颗粒物(PM2.5),52,,75,36,45,14,,40,32,18,18,9,9,0.6,0.5
2025-11-02T2100,1779A,123.9305,47.3636,齐齐哈尔市,安居小区,细颗粒物(PM2.5),119,93,28,90,15,21,,48,34,49,12,10,4,0.9,0.5
2025-11-02T2100,1780A,123.9488,47.3386,齐齐哈尔市,中心广场,细颗粒物(PM2.5),134,104,25,102,11,32,,48,37,46,14,24,6,0.7,0.3
2025-11-02T2100,1781A,123.9483,47.3227,齐齐哈尔市,农牧车辆厂,颗粒物(PM10),93,136,39,52,9,26,,48,31,38,12,12,3,0.9,0.6
2025-11-02T2100,1783A,123.945,47.2988,齐齐哈尔市,市环境监测站,细颗粒物(PM2.5),118,163,42,89,14,19,,46,32,50,12,11,6,1.0,0.5
2025-11-02T2100,3662A,123.6333,47.2075,齐齐哈尔市,富区青少年活动中心,,,,35,,8,23,,45,32,57,16,12,6,1.4,0.5
2025-11-02T2100,2591A,107.9783,26.5747,黔东南苗族侗族自治州,市环境监测站,,32,24,16,22,14,33,,69,49,14,7,4,4,0.6,0.4
2025-11-02T2100,2881A,107.8908,26.5311,黔东南苗族侗族自治州,凯里学院,,26,19,11,18,13,26,,66,47,25,13,3,3,0.3,0.3
2025-11-02T2100,2593A,107.5228,26.2403,黔南布依族苗族自治州,小围寨,,12,12,10,3,6,37,,52,47,6,4,2,3,0.4,0.3
2025-11-02T2100,3538A,107.5175,26.2978,黔南布依族苗族自治州,沙坝,,14,9,13,9,11,44,,54,44,6,7,4,4,0.4,0.4
2025-11-02T2100,2589A,104.9022,25.0925,黔西南布依族苗族自治州,场坝街,,24,24,26,13,13,52,,50,50,10,9,3,9,0.3,0.3
2025-11-02T2100,2590A,104.8811,25.0992,黔西南布依族苗族自治州,坪东大道,,20,20,21,11,14,53,,55,55,7,7,2,2,0.3,0.3
2025-11-02T2100,2502A,108.6236,21.9667,钦州市,市环保站,,44,44,29,22,19,48,,53,52,14,10,3,2,0.6,0.5
2025-11-02T2100,2503A,108.6549,21.9481,钦州市,沙埠小学,,34,34,36,22,23,53,,56,56,11,13,3,4,0.4,1
2025-11-02T2100,2504A,108.5989,21.7431,钦州市,港区一小,,50,50,34,27,23,29,,47,42,34,18,10,5,0.8,0.6
2025-11-02T2100,3404A,108.5959,21.9633,钦州市,北职校,,34,34,28,22,22,53,,55,55,7,6,4,4,0.4,0.5
2025-11-02T2100,1043A,119.7493,40.0116,秦皇岛市,第一关,,35,20,13,18,15,13,,76,48,69,25,5,5,0.3,0.3
2025-11-02T2100,1044A,119.5897,39.9499,秦皇岛市,监测站,颗粒物(PM10),72,93,32,28,10,5,,74,54,70,18,8,6,1.0,0.3
2025-11-02T2100,1046A,119.5251,39.9041,秦皇岛市,建设大厦,颗粒物(PM10),61,72,24,41,15,6,,71,52,64,16,5,4,0.6,0.3
2025-11-02T2100,3132A,119.610547,39.943889,秦皇岛市,文明里,"颗粒物(PM10),细颗粒物(PM2.5)",59,68,19,42,13,6,,70,56,66,13,8,7,0.6,0.2
2025-11-02T2100,4198A,119.5090,39.8253,秦皇岛市,北戴河轮滑馆,,14,13,13,7,6,43,,68,64,20,7,4,3,0.4,0.2
2025-11-02T2100,1307A,120.6659,36.2403,青岛市,仰口,,,,,,,,,,,,,,,,
2025-11-02T2100,1310A,120.4134,36.0658,青岛市,市南区东部子站,,19,19,58,9,26,55,,75,70,23,18,7,8,0.3,0.4
2025-11-02T2100,1311A,120.3664,36.1032,青岛市,四方区子站,,22,22,44,9,32,50,,75,70,20,12,3,4,0.2,0.3
2025-11-02T2100,1312A,120.2994,36.054,青岛市,市南区西部子站,,27,27,60,3,26,63,,71,70,17,24,7,8,0.3,0.5
2025-11-02T2100,1313A,120.4581,36.0858,青岛市,崂山区子站,,20,12,53,3,23,64,,74,72,15,17,9,9,0.3,0.5
2025-11-02T2100,1315A,120.3999,36.3083,青岛市,城阳区子站,,27,27,59,15,26,66,,84,80,12,17,4,5,0.4,0.5
2025-11-02T2100,3362A,120.5014,36.4034,青岛市,即墨2号,,30,30,54,11,29,51,,74,68,24,23,4,4,0.3,0.4
2025-11-02T2100,3642A,120.3503,36.0736,青岛市,市北区南部,,18,18,68,7,25,51,,68,65,25,23,4,4,0.1,0.3
2025-11-02T2100,3643A,120.3948,36.1805,青岛市,李沧区北部,,20,19,63,14,36,53,,76,69,23,22,6,7,0.4,0.5
2025-11-02T2100,4290A,120.1969,35.9546,青岛市,珠江路669号,,17,14,53,10,28,52,,80,73,31,20,10,10,0.2,0.4
2025-11-02T2100,4291A,120.0424,35.8656,青岛市,黄岛区人民政府广场,,24,24,56,3,26,64,,81,77,16,19,5,6,0.5,0.6
2025-11-02T2100,1702A,113.0426,23.691,清远市,环保大楼,,,,,,,,,,,,,,,,
2025-11-02T2100,1703A,113.0208,23.7106,清远市,凤城街办,,25,20,26,12,17,80,,77,77,16,15,9,8,0.5,0.5
2025-11-02T2100,3025A,113.0477,23.6344,清远市,技师学院,,27,27,33,13,20,72,,65,65,18,22,7,7,0.4,0.5
2025-11-02T2100,3318A,112.9903,23.7403,清远市,清新太和,,31,25,25,12,16,97,,93,93,10,10,10,8,0.5,0.6
2025-11-02T2100,3455A,113.076,23.7198,清远市,清城东城,,32,32,30,17,19,76,,80,80,19,17,10,8,0.6,0.6
2025-11-02T2100,2661A,107.6325,35.7357,庆阳市,庆阳五中,颗粒物(PM10),61,72,63,42,27,93,,97,97,23,20,1,2,0.5,0.4
2025-11-02T2100,2662A,107.6364,35.7067,庆阳市,市环保局,细颗粒物(PM2.5),64,68,53,46,25,107,,110,110,15,15,4,5,0.5,0.4
2025-11-02T2100,1916A,103.7897,25.5035,曲靖市,环境监测站,,,,16,9,8,27,,30,27,16,14,3,4,0.6,0.6
2025-11-02T2100,1917A,103.8,25.5364,曲靖市,烟厂办公区,,11,8,13,3,7,34,,34,33,14,13,5,5,0.3,0.4
2025-11-02T2100,3376A,103.7947,25.462,曲靖市,南苑二区,,10,9,10,3,6,31,,40,32,18,13,4,4,0.7,0.7
2025-11-02T2100,3377A,103.7444,25.5261,曲靖市,曲靖师范学院,,14,14,16,6,9,30,,32,31,14,13,3,5,0.4,0.4
2025-11-02T2100,1264A,118.8692,28.9398,衢州市,环保大楼,"颗粒物(PM10),细颗粒物(PM2.5)",72,93,64,52,38,65,,114,108,47,29,5,7,0.6,0.6
2025-11-02T2100,1265A,118.8709,28.9666,衢州市,实验学校,细颗粒物(PM2.5),75,92,57,55,38,82,,116,111,33,31,9,7,0.6,0.5
2025-11-02T2100,1266A,118.8621,28.9808,衢州市,衢州学院,细颗粒物(PM2.5),75,91,58,55,35,75,,114,109,33,28,7,6,0.6,0.5
2025-11-02T2100,1611A,118.5819,24.9117,泉州市,涂山街,颗粒物(PM10),52,53,44,34,26,106,,142,134,13,10,4,4,0.4,0.4
2025-11-02T2100,1612A,118.5972,24.8978,泉州市,津头埔,颗粒物(PM10),52,54,41,35,26,103,,143,134,22,17,5,4,0.5,0.5
2025-11-02T2100,1613A,118.6663,24.9424,泉州市,万安,颗粒物(PM10),54,58,46,31,25,106,,144,134,13,10,5,4,0.6,0.6
2025-11-02T2100,1614A,118.6117,24.9604,泉州市,清源山,,,44,36,23,17,,,,,9,6,2,2,0.5,0.5
2025-11-02T2100,3529A,118.6333,24.9264,泉州市,城华南路,颗粒物(PM10),53,55,44,34,25,105,,141,131,15,11,5,4,0.5,0.4
2025-11-02T2100,2626A,88.8876,29.2718,日喀则市,日喀则监测站,,37,37,7,15,2,21,,85,78,65,8,22,14,1.0,0.5
2025-11-02T2100,3726A,88.8781,29.2426,日喀则市,林业技术推广中心,,21,7,5,3,1,67,,88,86,6,4,6,6,0.3,0.4
2025-11-02T2100,1659A,119.471,35.4209,日照市,监测站,,34,34,58,11,27,50,,72,68,24,26,6,7,0.4,0.5
2025-11-02T2100,1660A,119.523,35.4216,日照市,市政府广场,,22,17,54,3,26,68,,75,73,10,17,7,8,0.5,0.7
2025-11-02T2100,1661A,119.5587,35.4044,日照市,港务局,,21,14,57,13,36,66,,75,73,15,20,7,8,0.5,0.6
2025-11-02T2100,3507A,119.5328,35.4625,日照市,职业技术学院,,20,9,56,3,25,64,,74,72,13,19,5,6,0.5,0.7
2025-11-02T2100,3604A,119.3266,35.1044,日照市,岚山环保分局,,29,29,73,10,32,49,,70,66,29,26,14,18,1.1,1.4
2025-11-02T2100,1835A,111.1922,34.7752,三门峡市,市政府,细颗粒物(PM2.5),72,77,66,52,48,67,,106,101,26,35,11,10,0.5,0.5
2025-11-02T2100,1836A,111.1587,34.7942,三门峡市,开发区,细颗粒物(PM2.5),68,82,90,49,54,72,,108,104,33,37,10,8,0.4,0.5
2025-11-02T2100,1838A,111.143,34.7955,三门峡市,风景区,细颗粒物(PM2.5),75,70,69,55,47,72,,109,105,23,28,12,9,0.5,0.5
2025-11-02T2100,3039A,111.1911,34.7829,三门峡市,三门峡市第一小学,细颗粒物(PM2.5),60,62,73,43,49,70,,110,105,28,34,12,12,0.5,0.5
2025-11-02T2100,3598A,111.1,34.7167,三门峡市,富达温泉假日酒店,细颗粒物(PM2.5),92,105,85,68,60,64,,109,104,30,30,10,10,0.5,0.5
2025-11-02T2100,2324A,117.6211,26.2625,三明市,三钢,,49,45,36,34,27,54,,90,82,17,15,1,4,0.6,0.7
2025-11-02T2100,2325A,117.635,26.2714,三明市,三明二中,,38,32,34,26,26,60,,86,80,10,11,3,3,0.5,0.5
2025-11-02T2100,2326A,117.6028,26.2378,三明市,三元区政府,,36,36,32,23,18,65,,91,87,12,13,4,6,1.1,0.9
2025-11-02T2100,2327A,117.7275,26.3108,三明市,洋溪,,26,21,24,18,23,65,,86,82,6,10,9,11,1.1,1.2
2025-11-02T2100,1876A,109.5078,18.2489,三亚市,河东子站,,24,18,20,10,9,76,,86,86,6,6,4,4,0.4,0.5
2025-11-02T2100,1877A,109.4964,18.2681,三亚市,河西子站,,27,25,22,11,10,84,,88,88,8,5,6,6,0.4,0.4
2025-11-02T2100,3540A,109.7348,18.3443,三亚市,君悦子站,,24,24,27,14,14,69,,89,87,3,5,5,5,0.5,0.6
