timepoint,stationcode,longitude,latitude,area,positionname,primarypollutant,aqi,pm10,pm10_24h,pm2_5,pm2_5_24h,o3,o3_24h,o3_8h,o3_8h_24h,no2,no2_24h,so2,so2_24h,co,co_24h
2025-03-17T2300,2566A,102.1879,31.914,阿坝藏族羌族自治州,州农科所,,20,20,24,9,11,51,,60,56,7,12,9,9,0.1,0.1
2025-03-17T2300,2568A,102.2502,31.8896,阿坝藏族羌族自治州,马师校,,22,,16,15,13,60,,68,61,14,14,5,5,0.5,0.6
2025-03-17T2300,3994A,102.2165,31.9024,阿坝藏族羌族自治州,马尔康中学西区,,20,12,16,9,10,62,,76,71,16,10,5,5,0.4,0.4
2025-03-17T2300,2695A,80.292,41.1694,阿克苏地区,电视台,颗粒物(PM10),238,376,388,95,101,48,,105,96,50,35,5,7,0.6,0.9
2025-03-17T2300,2696A,80.2613,41.1551,阿克苏地区,艺术中心,颗粒物(PM10),253,387,396,106,97,45,,100,89,49,35,6,5,0.6,0.9
2025-03-17T2300,2204A,105.6467,38.8363,阿拉善盟,西城区西花园,,47,47,34,12,12,100,,102,102,8,11,10,10,0.8,0.9
2025-03-17T2300,2205A,105.6985,38.8411,阿拉善盟,蒙二幼,,31,28,22,8,8,99,,98,98,7,9,5,5,0.8,0.7
2025-03-17T2300,2206A,105.724,38.8516,阿拉善盟,环保局新楼,,33,20,16,7,7,103,,101,101,3,4,8,8,0.7,0.7
2025-03-17T2300,2708A,88.1264,47.8517,阿勒泰地区,市站,,29,18,14,3,7,90,,95,87,8,12,3,4,0.3,0.3
2025-03-17T2300,2630A,80.1161,32.5,阿里地区,阿里监测站,,,7,9,,7,108,,113,110,4,4,9,7,0.5,0.5
2025-03-17T2300,3192A,80.0903,32.5028,阿里地区,阿里藏医院,,35,18,9,15,5,109,,111,111,3,2,7,8,0.4,0.4
2025-03-17T2300,2642A,109.0318,32.6537,安康市,香溪洞,,45,45,39,21,17,70,,93,90,12,8,10,8,0.3,0.5
2025-03-17T2300,2644A,109.0072,32.6975,安康市,汉滨区检察院,,49,49,44,21,17,50,,83,74,15,14,6,8,0.4,0.5
2025-03-17T2300,4054A,109.0325,32.6913,安康市,市邮政管理局,颗粒物(PM10),55,60,53,31,19,28,,85,67,37,18,8,11,0.5,0.5
2025-03-17T2300,2291A,117.0809,30.5177,安庆市,环科院,,37,32,29,24,18,36,,104,84,74,30,8,8,0.5,0.4
2025-03-17T2300,2292A,117.0331,30.5119,安庆市,马山宾馆,,38,38,30,26,18,37,,104,77,71,28,6,4,0.4,0.3
2025-03-17T2300,2294A,116.9896,30.6145,安庆市,安庆大学,,42,42,30,24,16,28,,113,93,66,14,5,7,0.3,0.2
2025-03-17T2300,3173A,117.0598,30.5351,安庆市,市人大,,35,35,28,23,18,52,,107,92,46,16,8,7,0.4,0.4
2025-03-17T2300,3122A,105.9606,26.2611,安顺市,伍家关,,,,32,6,17,54,,76,62,10,12,9,8,0.3,0.3
2025-03-17T2300,3123A,105.9408,26.2431,安顺市,凤凰山,,16,14,27,3,23,49,,71,56,13,15,15,16,0.6,0.6
2025-03-17T2300,3124A,105.9439,26.2564,安顺市,金钟山,,15,14,28,3,20,46,,70,55,11,12,14,14,0.4,0.4
2025-03-17T2300,3125A,105.8983,26.2481,安顺市,娄家坡,,15,12,27,7,22,47,,68,57,10,12,10,13,0.3,0.4
2025-03-17T2300,1818A,114.4839,36.0621,安阳市,棉研所,,,,,,,,,,,,,,,,
2025-03-17T2300,1819A,114.3551,36.1017,安阳市,红庙街,颗粒物(PM10),65,80,54,15,17,67,,92,80,13,18,2,6,0.5,0.8
2025-03-17T2300,1820A,114.361,36.0681,安阳市,银杏小区,,,,49,20,19,77,,100,88,16,21,1,3,0.2,0.4
2025-03-17T2300,3141A,114.3922,36.0878,安阳市,信访局,颗粒物(PM10),61,71,48,17,20,78,,104,92,22,22,4,6,0.2,0.4
2025-03-17T2300,3669A,114.4705,36.0637,安阳市,左辅环卫站,,,87,63,18,20,86,,112,98,9,18,,,0.1,0.3
2025-03-17T2300,3703A,114.2917,36.0949,安阳市,安钢职工学校,颗粒物(PM10),63,75,63,21,25,63,,92,79,21,22,2,4,0.2,0.6
2025-03-17T2300,1748A,123.044,41.1196,鞍山市,深沟寺,细颗粒物(PM2.5),89,77,55,66,38,60,,87,78,26,20,11,12,0.8,0.7
2025-03-17T2300,1749A,123.011,41.0931,鞍山市,太阳城,细颗粒物(PM2.5),87,94,55,64,36,73,,90,83,23,18,11,12,0.7,0.7
2025-03-17T2300,1750A,123.0485,41.1442,鞍山市,太平,细颗粒物(PM2.5),94,113,87,70,44,55,,87,76,28,27,11,11,0.6,0.7
2025-03-17T2300,1751A,122.9642,41.0971,鞍山市,铁西三道街,细颗粒物(PM2.5),98,102,79,73,46,44,,84,68,52,42,55,31,2.4,1.6
2025-03-17T2300,1753A,123.022,41.0821,鞍山市,明达新区,细颗粒物(PM2.5),85,86,53,63,36,73,,88,83,20,17,8,12,0.5,0.5
2025-03-17T2300,1754A,123.1289,41.0228,鞍山市,千山,,,,42,,20,,,69,,,12,,7,,0.6
2025-03-17T2300,4201A,122.9446,41.0826,鞍山市,兴盛南路290号,细颗粒物(PM2.5),94,92,75,70,45,56,,86,80,44,41,49,22,1.8,1.2
2025-03-17T2300,2195A,107.4212,40.761,巴彦淖尔市,附二中,,46,46,43,18,16,75,,98,86,12,8,6,5,0.6,0.5
2025-03-17T2300,2196A,107.37,40.7372,巴彦淖尔市,市环保大楼,颗粒物(PM10),51,51,38,15,20,74,,102,87,13,8,6,5,0.3,0.3
2025-03-17T2300,1956A,86.1472,41.7538,巴音郭楞蒙古自治州,孔雀公园,颗粒物(PM10),196,341,256,75,56,2,,94,74,84,40,6,5,0.9,0.5
2025-03-17T2300,1957A,86.1972,41.7166,巴音郭楞蒙古自治州,棉纺厂,颗粒物(PM10),338,450,318,89,51,16,,91,73,66,34,4,3,0.7,0.4
2025-03-17T2300,1958A,86.2357,41.7173,巴音郭楞蒙古自治州,经济开发区,颗粒物(PM10),198,345,267,63,44,18,,93,77,43,17,4,4,0.4,0.2
2025-03-17T2300,2914A,106.7677,31.8794,巴中市,苏山坪,颗粒物(PM10),60,69,40,38,19,53,,79,72,15,10,6,5,0.2,0.2
2025-03-17T2300,3181A,106.7768,31.8526,巴中市,市五中,颗粒物(PM10),54,57,40,32,20,48,,80,69,20,17,5,4,0.5,0.4
2025-03-17T2300,3183A,106.7418,31.8654,巴中市,圣泉水务公司,颗粒物(PM10),55,59,37,35,19,48,,81,69,21,16,7,6,0.5,0.4
2025-03-17T2300,3616A,106.7616,31.8344,巴中市,市中心医院,颗粒物(PM10),56,61,41,33,22,53,,82,72,14,14,8,7,0.3,0.4
2025-03-17T2300,2235A,122.7911,45.6077,白城市,洮北区环保局,细颗粒物(PM2.5),83,68,93,61,80,48,,97,69,25,23,3,5,0.7,0.7
2025-03-17T2300,2236A,122.8738,45.5725,白城市,市环保局,细颗粒物(PM2.5),104,102,95,78,76,7,,98,66,62,32,6,7,0.8,0.6
2025-03-17T2300,2231A,126.4219,41.9171,白山市,喜丰,颗粒物(PM10),74,98,64,45,34,66,,94,86,16,15,9,7,1.0,1
2025-03-17T2300,2232A,126.4077,41.9419,白山市,环保局,"颗粒物(PM10),细颗粒物(PM2.5)",64,77,69,46,35,73,,95,88,17,16,6,7,0.9,0.9
2025-03-17T2300,2647A,104.1724,36.5446,白银市,第三小学,,45,45,39,12,16,84,,107,100,12,12,10,17,0.1,0.4
2025-03-17T2300,2648A,104.1465,36.5482,白银市,动力公司,,24,14,32,12,16,74,,106,98,19,12,1,4,0.4,0.6
2025-03-17T2300,2512A,106.6103,23.9011,百色市,市监测站,,38,36,39,26,22,70,,75,73,9,13,7,8,0.5,0.5
2025-03-17T2300,2513A,106.6538,23.8859,百色市,市中心血站,,43,38,38,30,22,73,,76,73,8,10,8,10,0.5,0.6
2025-03-17T2300,3406A,106.6085,23.8798,百色市,祈福高中,,35,35,44,22,20,76,,78,77,7,14,5,6,0.5,0.5
2025-03-17T2300,2270A,117.396,32.939,蚌埠市,工人疗养院,颗粒物(PM10),55,59,60,26,30,76,,110,97,30,25,4,4,0.5,0.5
2025-03-17T2300,2271A,117.3605,32.9427,蚌埠市,百货大楼,颗粒物(PM10),54,57,53,29,27,52,,104,89,56,31,5,6,0.4,0.4
2025-03-17T2300,2273A,117.4185,32.8911,蚌埠市,蚌埠学院,颗粒物(PM10),62,73,59,39,32,57,,113,92,38,31,5,5,0.3,0.3
2025-03-17T2300,2274A,117.3533,32.9673,蚌埠市,淮上区政府,颗粒物(PM10),53,56,55,36,30,75,,108,91,31,26,6,6,0.4,0.3
2025-03-17T2300,2275A,117.3145,32.8977,蚌埠市,高新区,颗粒物(PM10),56,61,57,38,32,53,,106,84,49,38,6,5,0.3,0.3
2025-03-17T2300,3715A,117.3092,32.9314,蚌埠市,蚌埠田家炳中学,,43,43,60,21,30,102,,110,100,21,36,6,9,0.4,0.4
2025-03-17T2300,1585A,109.8756,40.6532,包头市,市环境监测站,,29,10,35,3,14,90,,99,95,9,16,10,12,0.4,0.5
2025-03-17T2300,1587A,109.9991,40.5842,包头市,包头八中,,28,19,35,8,12,89,,99,95,10,14,6,11,0.3,0.5
2025-03-17T2300,1588A,109.8538,40.6821,包头市,青山宾馆,,27,14,27,7,9,84,,98,93,9,12,7,8,0.5,0.4
2025-03-17T2300,1589A,109.8642,40.6288,包头市,惠龙物流,,30,,28,20,18,94,,102,98,9,14,7,9,0.4,0.6
2025-03-17T2300,1590A,110.0377,40.5546,包头市,东河鸿龙湾,,28,16,29,3,6,89,,98,93,10,14,7,11,0.4,0.5
2025-03-17T2300,3283A,109.9154,40.5685,包头市,滨河大厦,,29,17,20,8,9,91,,100,96,6,14,9,10,0.4,0.5
2025-03-17T2300,3419A,109.9447,40.6261,包头市,包头市委党校,,28,21,40,14,17,88,,93,90,9,12,7,8,0.5,0.7
2025-03-17T2300,3683A,109.8331,40.6576,包头市,昆区政府,,28,14,28,9,13,88,,98,94,11,14,7,10,0.4,0.5
2025-03-17T2300,1930A,107.185,34.3063,宝鸡市,庙沟村,,30,17,35,11,19,94,,111,105,8,14,6,7,0.3,0.3
2025-03-17T2300,1931A,107.0708,34.3017,宝鸡市,竹园沟,,25,25,37,13,18,63,,108,90,16,15,6,7,0.5,0.5
2025-03-17T2300,1932A,107.1906,34.3672,宝鸡市,三陆医院,细颗粒物(PM2.5),98,,55,73,34,22,,103,72,54,23,5,5,0.7,0.5
2025-03-17T2300,1933A,107.1431,34.3547,宝鸡市,监测站,细颗粒物(PM2.5),57,41,49,40,30,44,,103,80,30,19,7,7,0.5,0.5
2025-03-17T2300,1934A,107.1186,34.3739,宝鸡市,技工学校,颗粒物(PM10),54,57,48,33,24,59,,107,91,18,14,6,5,0.8,0.8
2025-03-17T2300,1935A,107.3906,34.3528,宝鸡市,陈仓区环保局家属楼,细颗粒物(PM2.5),108,105,59,81,35,22,,102,68,63,31,10,22,0.6,0.5
2025-03-17T2300,1936A,107.2058,34.3497,宝鸡市,文理学院,,46,46,47,30,24,55,,106,82,29,20,6,6,0.5,0.4
2025-03-17T2300,1937A,107.2386,34.3622,宝鸡市,三迪小学,细颗粒物(PM2.5),59,47,52,42,28,35,,103,71,55,32,6,6,0.8,0.8
2025-03-17T2300,1051A,115.493,38.8632,保定市,游泳馆,,44,44,44,12,15,78,,101,94,13,6,4,8,0.4,0.4
2025-03-17T2300,1052A,115.5213,38.8959,保定市,华电二区,,44,44,40,30,19,66,,105,89,22,16,6,8,0,0.1
2025-03-17T2300,1053A,115.4713,38.9108,保定市,接待中心,,34,34,45,18,20,77,,100,91,16,20,4,4,0.0,0
2025-03-17T2300,1054A,115.4612,38.8416,保定市,地表水厂,,44,44,54,15,16,84,,102,95,16,24,3,4,0.4,0.5
2025-03-17T2300,3581A,115.31981,38.95208,保定市,满城区生态环境分局,,31,31,39,14,12,75,,105,94,17,15,4,5,0.4,0.3
2025-03-17T2300,3582A,115.47694,38.76408,保定市,清苑区第二中学,颗粒物(PM10),53,55,54,20,15,51,,101,83,42,23,8,8,0.3,0.3
2025-03-17T2300,3583A,115.62909,39.02311,保定市,徐水物探局,,28,28,40,3,9,80,,104,89,14,18,6,8,0,0
2025-03-17T2300,4004A,115.4202,38.8656,保定市,双鹰农机,,33,33,45,17,17,84,,103,95,14,18,1,3,0.5,0.5
2025-03-17T2300,4034A,115.5150,38.8590,保定市,植保所站,,49,41,44,34,24,71,,103,92,26,19,4,5,0.1,0.1
2025-03-17T2300,2594A,99.1678,25.1081,保山市,市环境监测站,细颗粒物(PM2.5),75,85,57,55,35,169,,130,130,9,7,9,6,0.7,0.5
2025-03-17T2300,2595A,99.1711,25.1328,保山市,市环保局,细颗粒物(PM2.5),83,78,62,61,37,171,,131,131,8,5,7,6,0.7,0.6
2025-03-17T2300,1866A,109.2262,21.588,北海市,牛尾岭水库,,,43,29,41,23,40,,68,58,,,6,7,0.7,0.6
2025-03-17T2300,1867A,109.1436,21.4086,北海市,海滩公园,颗粒物(PM10),52,54,38,32,23,68,,82,79,17,13,12,8,0.4,0.3
2025-03-17T2300,1868A,109.0981,21.4661,北海市,新市环保局,细颗粒物(PM2.5),62,60,40,44,30,71,,81,80,18,15,6,6,0.5,0.5
2025-03-17T2300,1869A,109.1778,21.5233,北海市,北海工业园,细颗粒物(PM2.5),64,67,42,46,27,60,,77,72,19,15,11,10,0.5,0.4
2025-03-17T2300,3400A,109.1911,21.4415,北海市,龙潭自来水厂,细颗粒物(PM2.5),74,59,39,54,36,47,,79,69,21,14,9,9,0.5,0.4
2025-03-17T2300,1001A,116.3621,39.8784,北京市,万寿西宫,,29,27,28,9,12,91,,103,98,7,24,2,2,0.1,0.2
2025-03-17T2300,1002A,116.2202,40.2915,北京市,定陵,,,,,,,,,,,,,,,,
2025-03-17T2300,1003A,116.4174,39.9289,北京市,东四,,36,36,30,9,12,87,,95,93,7,23,3,4,0.3,0.3
2025-03-17T2300,1004A,116.4072,39.8863,北京市,天坛,,29,29,29,9,12,85,,97,91,8,21,1,1,0.4,0.5
2025-03-17T2300,1005A,116.462,39.9365,北京市,农展馆,,27,27,29,9,11,83,,100,93,11,20,5,5,0.3,0.4
2025-03-17T2300,1006A,116.3392,39.9295,北京市,官园,,31,31,32,11,14,74,,84,80,9,25,7,7,0.4,0.4
2025-03-17T2300,1007A,116.2878,39.9611,北京市,海淀万柳,,26,26,32,8,12,70,,77,75,14,36,2,3,0.3,0.4
2025-03-17T2300,1008A,116.6636,40.135,北京市,顺义新城,,24,20,21,8,10,75,,88,80,2,14,4,4,0.3,0.3
2025-03-17T2300,1009A,116.6275,40.3275,北京市,怀柔镇,,26,16,15,8,9,83,,92,87,5,12,2,2,0.4,0.5
2025-03-17T2300,1010A,116.2296,40.217,北京市,昌平镇,,27,27,26,8,9,74,,86,80,7,18,3,1,0.3,0.3
2025-03-17T2300,1011A,116.3966,39.9821,北京市,奥体中心,,27,27,26,8,11,79,,90,85,6,22,3,3,0.5,0.5
2025-03-17T2300,3281A,115.9718,40.4529,北京市,延庆夏都,,27,22,18,7,9,84,,95,88,2,5,5,5,0.3,0.3
2025-03-17T2300,3418A,116.8336,40.4095,北京市,密云新城,,27,23,18,10,9,84,,91,87,3,5,3,3,0.3,0.5
2025-03-17T2300,3671A,116.088,39.9726,北京市,门头沟三家店,,35,35,59,12,13,75,,89,84,4,16,4,4,0.3,0.3
2025-03-17T2300,3672A,116.1541,39.8204,北京市,丰台云岗,,28,28,33,12,12,81,,104,95,5,18,3,3,0.3,0.3
2025-03-17T2300,3673A,116.6804,39.9081,北京市,通州东关,,27,27,34,9,12,80,,93,87,10,22,3,4,0.3,0.4
2025-03-17T2300,3674A,115.9577,39.7603,北京市,房山燕山,,31,31,24,17,13,84,,91,89,2,4,1,2,0.2,0.2
2025-03-17T2300,3675A,116.4672,39.7733,北京市,大兴旧宫,,28,28,33,9,12,73,,86,82,9,25,3,3,0.1,0.2
2025-03-17T2300,3694A,115.986,40.4563,北京市,延庆石河营,,27,19,19,7,8,85,,95,89,2,3,4,4,0.3,0.4
2025-03-17T2300,3695A,116.6151,40.3053,北京市,怀柔新城,,26,17,16,8,9,83,,93,88,3,7,4,4,0.4,0.4
2025-03-17T2300,3696A,116.2545,39.8768,北京市,丰台小屯,,29,29,35,8,12,74,,87,82,10,33,1,1,0.3,0.3
2025-03-17T2300,3697A,116.84,40.3844,北京市,密云镇,,28,19,19,8,8,88,,98,92,4,15,4,3,0.4,0.4
2025-03-17T2300,4182A,116.1942,39.9158,北京市,八角北路9号,,26,25,32,8,12,81,,92,86,8,29,1,1,0.2,0.1
2025-03-17T2300,4194A,117.0790,40.1518,北京市,洳河巡河路,,28,14,15,7,9,87,,95,91,2,5,2,2,0.2,0.2
2025-03-17T2300,1761A,123.8275,41.3064,本溪市,大峪,细颗粒物(PM2.5),78,79,73,57,50,88,,95,90,15,25,8,8,0.7,0.9
2025-03-17T2300,1762A,123.7567,41.3325,本溪市,溪湖,细颗粒物(PM2.5),103,89,81,77,53,93,,96,92,17,31,7,8,0.9,1
2025-03-17T2300,1763A,123.7169,41.3094,本溪市,彩屯,细颗粒物(PM2.5),120,112,84,91,64,87,,86,82,19,31,9,10,0.9,1.1
2025-03-17T2300,1764A,123.7669,41.2864,本溪市,东明,细颗粒物(PM2.5),80,80,76,59,50,82,,87,83,19,31,8,9,0.8,0.8
2025-03-17T2300,1765A,123.7992,41.2664,本溪市,新立屯,细颗粒物(PM2.5),88,70,60,65,50,84,,98,93,22,28,7,8,0.9,1
2025-03-17T2300,1766A,123.8142,41.3472,本溪市,威宁,细颗粒物(PM2.5),82,90,83,60,52,72,,94,86,23,22,4,4,0.8,0.9
2025-03-17T2300,2587A,105.2864,27.3125,毕节市,八中,,19,6,6,3,4,60,,68,67,8,7,7,7,0.5,0.5
2025-03-17T2300,2588A,105.31,27.2944,毕节市,师专,,18,13,5,9,4,57,,72,70,13,9,6,6,0.6,0.5
2025-03-17T2300,4263A,105.3688,27.3598,毕节市,工业大道,,20,6,3,3,2,63,,70,69,9,9,7,7,0.3,0.2
2025-03-17T2300,1629A,118.0018,37.3617,滨州市,第二水厂,,24,24,49,7,11,67,,84,80,11,6,6,6,0.2,0.3
2025-03-17T2300,1630A,117.9776,37.393,滨州市,北中新校,,31,31,51,14,13,65,,94,86,30,24,8,11,0.2,0.3
2025-03-17T2300,3514A,117.9378,37.3956,滨州市,中海酒店,颗粒物(PM10),53,56,46,19,21,48,,96,82,41,21,7,15,0.5,0.5
2025-03-17T2300,3515A,117.9378,37.3553,滨州市,开发区一中,,48,48,52,19,15,60,,94,86,36,24,10,9,0.3,0.3
2025-03-17T2300,3516A,118.0917,37.694,滨州市,金海六路,,27,27,47,9,10,41,,94,81,48,23,5,5,0.5,0.5
2025-03-17T2300,4028A,117.9956,37.3753,滨州市,滨州市西街道办事处,,32,22,45,22,19,71,,96,90,21,18,5,6,0.4,0.4
2025-03-17T2300,2311A,115.8072,33.8399,亳州市,污水处理厂,颗粒物(PM10),51,52,52,21,21,35,,104,79,45,18,19,4,0.3,0.2
2025-03-17T2300,2312A,115.7789,33.8518,亳州市,三国揽胜宫,颗粒物(PM10),60,69,56,27,21,34,,98,74,47,17,3,4,0.6,0.4
2025-03-17T2300,3332A,115.7633,33.8034,亳州市,亳州学院,颗粒物(PM10),53,55,47,22,22,60,,99,86,30,15,5,4,0.4,0.4
2025-03-17T2300,2693A,82.0485,44.8556,博尔塔拉蒙古自治州,市党校,颗粒物(PM10),58,66,43,12,18,72,,98,96,15,12,34,39,0.4,0.5
2025-03-17T2300,2694A,82.0806,44.8969,博尔塔拉蒙古自治州,市环保局,细颗粒物(PM2.5),72,64,47,52,19,39,,118,103,60,15,5,4,1.2,0.6
2025-03-17T2300,1071A,116.8842,38.2991,沧州市,沧县城建局,,47,47,52,27,22,74,,99,90,18,16,2,3,0.2,0.2
2025-03-17T2300,1072A,116.8584,38.3254,沧州市,电视转播站,,43,43,48,14,14,61,,97,84,23,16,4,4,0.4,0.4
2025-03-17T2300,1073A,116.8709,38.3228,沧州市,市环保局,,40,40,43,27,21,64,,95,82,21,15,6,7,0.3,0.3
2025-03-17T2300,3324A,116.8136,38.3004,沧州市,河北水利电力学院,,46,36,50,32,21,69,,94,85,18,19,1,2,0.2,0.2
2025-03-17T2300,2622A,97.1806,31.1273,昌都市,昌都监测站,,28,,14,13,8,87,,82,80,3,8,7,8,0.4,0.6
2025-03-17T2300,3719A,97.1714,31.1406,昌都市,昌都会议中心,,36,12,15,10,9,115,,120,119,1,4,2,2,0.1,0.2
2025-03-17T2300,2690A,88.1236,43.8886,昌吉回族自治州,天山天池,,49,49,38,18,12,84,,101,93,5,4,5,5,0.5,0.4
2025-03-17T2300,2692A,87.2717,44.0297,昌吉回族自治州,新区政务中心,颗粒物(PM10),57,64,69,28,24,94,,109,106,24,30,6,8,0.7,0.8
2025-03-17T2300,3613A,87.3095,44.0142,昌吉回族自治州,亚心广场,颗粒物(PM10),65,80,88,27,37,92,,111,110,16,25,7,8,0.5,0.8
2025-03-17T2300,1119A,125.3325,43.9166,长春市,食品厂,细颗粒物(PM2.5),77,64,84,56,65,52,,92,70,34,46,8,9,0.6,0.8
2025-03-17T2300,1120A,125.2863,43.9027,长春市,客车厂,细颗粒物(PM2.5),59,52,80,42,69,63,,87,78,24,44,6,7,0.6,0.8
2025-03-17T2300,1121A,125.2841,43.8463,长春市,邮电学院,细颗粒物(PM2.5),57,46,76,40,60,67,,97,86,18,33,7,8,0.5,0.7
2025-03-17T2300,1122A,125.3716,43.8772,长春市,劳动公园,细颗粒物(PM2.5),65,49,70,47,54,65,,96,83,17,30,7,7,1.2,1.2
2025-03-17T2300,1123A,125.3297,43.8805,长春市,园林处,细颗粒物(PM2.5),55,46,63,39,54,70,,96,83,20,33,7,8,0.4,0.5
2025-03-17T2300,1124A,125.4605,43.79,长春市,净月潭,细颗粒物(PM2.5),68,84,63,49,48,62,,97,85,20,14,11,7,0.6,0.5
2025-03-17T2300,1125A,125.7194,43.515,长春市,甩湾子,,,,,,,,,,,,,,,,
2025-03-17T2300,1126A,125.3863,43.8447,长春市,经开区环卫处,,46,37,70,32,50,68,,92,81,16,34,6,6,0.3,0.5
2025-03-17T2300,1127A,125.245,43.7783,长春市,高新区管委会,细颗粒物(PM2.5),77,75,101,56,87,45,,89,73,42,43,9,9,0.6,0.8
2025-03-17T2300,1128A,125.1761,43.8325,长春市,岱山公园,细颗粒物(PM2.5),67,62,99,48,80,27,,98,63,62,49,12,11,0.5,0.7
2025-03-17T2300,1335A,113.0833,28.2325,长沙市,经开区环保局,颗粒物(PM10),55,59,49,34,26,78,,113,103,42,20,4,6,0.4,0.3
2025-03-17T2300,1336A,112.8872,28.2189,长沙市,高开区环保局,颗粒物(PM10),56,62,50,35,27,44,,117,99,56,13,4,5,0.6,0.5
2025-03-17T2300,1337A,113.0792,28.2053,长沙市,马坡岭,颗粒物(PM10),54,57,49,34,26,71,,118,105,36,16,5,5,0.6,0.5
2025-03-17T2300,1338A,112.9394,28.19,长沙市,湖南师范大学,,46,46,47,29,25,65,,116,100,22,11,6,6,0.5,0.5
2025-03-17T2300,1339A,113.0178,28.1322,长沙市,雨花区环保局,颗粒物(PM10),53,56,49,30,26,63,,108,98,44,21,6,6,0.5,0.4
2025-03-17T2300,1340A,112.9792,28.2597,长沙市,伍家岭,颗粒物(PM10),59,68,54,35,24,54,,111,98,56,20,4,4,0.6,0.4
2025-03-17T2300,1341A,113.0014,28.1944,长沙市,火车新站,颗粒物(PM10),53,55,50,36,30,82,,114,104,34,18,6,7,0.5,0.4
2025-03-17T2300,1342A,112.9844,28.1178,长沙市,天心区环保局,颗粒物(PM10),53,56,50,32,29,49,,115,100,58,23,4,4,0.4,0.3
2025-03-17T2300,1343A,112.8908,28.1308,长沙市,湖南中医药大学,,,67,52,46,29,,,114,102,,16,,4,,0.1
2025-03-17T2300,1344A,112.9581,28.3611,长沙市,沙坪,,39,33,37,27,25,92,,113,105,9,7,7,7,0.4,0.4
2025-03-17T2300,1727A,113.1147,36.1547,长治市,清华站,,32,32,27,7,8,59,,95,83,28,17,6,6,0.7,0.7
2025-03-17T2300,1730A,113.0886,36.2125,长治市,审计局,,30,30,26,12,8,62,,100,85,28,19,8,8,0.3,0.3
2025-03-17T2300,1731A,113.0844,36.1856,长治市,长治八中,颗粒物(PM10),54,57,33,13,14,70,,101,89,22,18,8,8,0.3,0.3
2025-03-17T2300,2845A,113.1569,36.1911,长治市,德盛苑,,45,45,30,14,9,60,,100,86,27,15,13,6,0.7,0.6
2025-03-17T2300,3568A,113.06,36.0464,长治市,向阳小学,,45,45,42,21,16,80,,98,89,13,15,7,8,0.2,0.2
2025-03-17T2300,3569A,112.8792,36.3144,长治市,屯留一中,,45,45,28,16,8,47,,100,81,47,26,8,8,0.5,0.4
2025-03-17T2300,4189A,113.1131,36.19948,长治市,英华南巷50号,,39,39,31,14,12,65,,101,86,25,18,10,10,0.5,0.5
2025-03-17T2300,4190A,113.2367,36.3344,长治市,学府街1号,,50,50,37,15,13,28,,104,78,54,18,6,6,0.5,0.5
2025-03-17T2300,1854A,111.6975,28.9703,常德市,市二中,颗粒物(PM10),52,53,59,29,35,64,,109,92,17,18,4,5,0.5,0.5
2025-03-17T2300,1857A,111.7158,29.1456,常德市,白鹤山,,,,,,,,,,,,,,,,
2025-03-17T2300,3138A,111.7153,29.0289,常德市,武陵区永安,颗粒物(PM10),56,62,67,30,38,67,,110,93,13,13,2,4,0.4,0.4
2025-03-17T2300,3139A,111.6892,28.9881,常德市,鼎城区玉霞,颗粒物(PM10),53,55,61,27,35,59,,116,92,18,19,5,4,0.4,0.4
2025-03-17T2300,3140A,111.6625,29.0531,常德市,武陵区长庚,颗粒物(PM10),54,58,69,27,38,68,,113,95,8,13,3,6,0.4,0.4
2025-03-17T2300,1196A,119.9633,31.762,常州市,市监测站,颗粒物(PM10),55,59,45,30,25,69,,103,89,38,25,8,7,0.5,0.5
2025-03-17T2300,1200A,119.9468,31.7069,常州市,武进监测站,,40,40,36,26,24,75,,103,89,30,25,14,13,0.5,0.5
2025-03-17T2300,1201A,119.9255,31.9087,常州市,安家,颗粒物(PM10),51,52,43,25,25,68,,101,78,35,40,8,8,0.5,0.4
2025-03-17T2300,3002A,119.9805,31.8174,常州市,行政中心,,46,46,35,26,24,69,,97,85,33,28,3,3,0.4,0.4
2025-03-17T2300,3003A,120.0522,31.7748,常州市,经开区,,49,49,39,22,20,86,,108,100,29,25,11,10,0.5,0.5
2025-03-17T2300,3010A,119.9025,31.7964,常州市,钟楼,,48,48,43,27,24,66,,102,86,35,30,8,17,0.5,0.6
2025-03-17T2300,3429A,119.8598,31.7066,常州市,武进经发区,,47,47,43,29,25,77,,105,94,33,28,10,9,0.5,0.5
2025-03-17T2300,3430A,119.5826,31.7245,常州市,金坛城区,,44,44,36,27,22,72,,107,99,31,20,8,9,0.7,0.6
2025-03-17T2300,2220A,120.4318,41.5881,朝阳市,西梁,,25,23,55,15,30,78,,87,80,6,18,6,11,0.4,0.6
2025-03-17T2300,2221A,120.4521,41.5646,朝阳市,河畔小区,,28,19,48,13,21,87,,92,87,8,18,6,15,0.5,0.7
2025-03-17T2300,2222A,120.4176,41.5648,朝阳市,八里堡,,26,23,58,14,23,82,,88,82,4,17,6,13,0.3,0.5
2025-03-17T2300,2223A,120.3806,41.5969,朝阳市,农业园区,,28,21,56,16,23,88,,94,89,8,19,4,10,0.5,0.6
2025-03-17T2300,1705A,116.6367,23.6719,潮州市,西园路,细颗粒物(PM2.5),84,76,46,62,30,66,,75,74,21,15,6,4,0.4,0.2
2025-03-17T2300,3026A,116.6183,23.6608,潮州市,市政府,细颗粒物(PM2.5),73,63,43,53,24,63,,71,69,24,15,7,4,0.5,0.4
2025-03-17T2300,4036A,116.6461,23.6761,潮州市,金山,细颗粒物(PM2.5),78,62,40,57,26,59,,72,70,22,14,8,7,0.7,0.6
2025-03-17T2300,2472A,113.0073,25.9061,郴州市,马头岭,,39,39,53,22,24,69,,89,85,7,9,7,8,0.3,1.1
2025-03-17T2300,2473A,113.0116,25.8226,郴州市,市职中,,34,34,43,22,27,78,,99,94,16,15,5,6,0.6,0.6
2025-03-17T2300,2475A,113.0383,25.8071,郴州市,市审计局,,38,33,43,26,28,77,,99,95,19,15,2,4,0.4,0.5
2025-03-17T2300,2476A,113.0348,25.7759,郴州市,市环保局,细颗粒物(PM2.5),53,40,49,37,33,80,,90,86,13,11,4,6,0.4,0.4
2025-03-17T2300,4252A,113.0138,25.8011,郴州市,好美居路49号,,42,42,44,28,29,82,,99,96,21,14,6,7,0.5,0.4
2025-03-17T2300,1431A,103.9728,30.7236,成都市,金泉两河,,44,44,46,15,17,38,,58,55,28,22,2,2,0.5,0.5
2025-03-17T2300,1432A,104.176,30.6872,成都市,十里店,,40,40,40,27,22,42,,57,54,35,31,2,2,0.8,0.8
2025-03-17T2300,1433A,104.079,30.5706,成都市,三瓦窑,,35,35,41,14,19,50,,58,54,37,34,4,4,0.6,0.6
2025-03-17T2300,1434A,104.1114,30.63,成都市,沙河铺,,46,46,44,21,27,34,,53,50,32,27,5,5,0.6,0.7
2025-03-17T2300,1437A,104.0786,30.6531,成都市,君平街,,38,38,43,18,26,50,,61,58,34,28,6,6,0.7,0.7
2025-03-17T2300,1438A,103.613,31.0283,成都市,灵岩寺,,,,,,,,,,,,,,,,
2025-03-17T2300,2880A,104.0239,30.65639,成都市,大石西路,,43,38,43,30,25,42,,56,53,38,30,4,3,0.6,0.6
2025-03-17T2300,3136A,104.2725,30.5589,成都市,龙泉驿区区政府,,27,27,32,12,19,58,,59,52,16,21,4,4,0.5,0.5
2025-03-17T2300,3357A,104.0106,30.6931,成都市,金博路,,29,29,33,14,12,32,,51,49,36,24,6,5,0.5,0.6
2025-03-17T2300,3359A,104.0578,30.5225,成都市,华阳,,32,31,35,22,26,57,,62,58,24,26,6,5,0.8,0.7
2025-03-17T2300,3488A,104.3853,30.7453,成都市,青白江技师分院,,44,44,41,22,23,43,,66,47,32,31,6,5,0.4,0.4
2025-03-17T2300,3489A,104.0789,30.4072,成都市,科学城,,32,32,32,21,22,54,,70,66,17,17,5,5,0.5,0.5
2025-03-17T2300,4011A,103.8506,30.6947,成都市,光华大道三段,,30,30,41,17,19,61,,69,68,23,24,4,4,0.5,0.6
2025-03-17T2300,4224A,104.2433,30.5353,成都市,鲸龙路1057号,,41,41,38,23,20,53,,63,57,19,24,4,4,0.6,0.6
2025-03-17T2300,1062A,117.9531,40.9081,承德市,铁路,,25,12,25,3,11,78,,98,92,13,15,5,5,0.2,0.3
2025-03-17T2300,1063A,117.9392,40.9763,承德市,中国银行,,24,,23,3,12,76,,95,89,4,11,2,3,0.3,0.4
2025-03-17T2300,1064A,117.9503,40.928,承德市,开发区,,27,23,32,18,20,85,,102,97,8,17,4,5,0.2,0.3
2025-03-17T2300,1065A,117.8051,40.9655,承德市,文化中心,,26,25,35,15,10,83,,97,91,9,18,3,3,0.3,0.3
2025-03-17T2300,1066A,117.9268,41.0026,承德市,离宫,,30,26,29,21,19,70,,92,86,3,8,5,6,0.2,0.3
2025-03-17T2300,2314A,117.47,30.6618,池州市,池州学院,,34,34,30,22,19,66,,107,94,29,22,6,7,0.4,0.5
2025-03-17T2300,3237A,117.4918,30.6617,池州市,展览馆,,38,38,28,22,18,66,,107,93,26,21,9,7,0.5,0.5
2025-03-17T2300,3333A,117.5627,30.695,池州市,第八中学,,32,32,28,19,17,75,,108,96,20,16,6,6,0.3,0.4
2025-03-17T2300,3334A,117.5038,30.6243,池州市,第十二中学,,31,31,29,18,18,54,,111,89,32,23,6,8,0.4,0.5
2025-03-17T2300,1744A,118.9233,42.2816,赤峰市,松山一中,,28,28,64,3,7,81,,97,86,9,11,7,7,0.6,0.6
2025-03-17T2300,1745A,118.9576,42.2728,赤峰市,哈达街,,23,,50,16,13,73,,85,73,10,13,8,9,0.6,0.6
2025-03-17T2300,1746A,118.8788,42.2554,赤峰市,天义路,,20,20,51,14,13,57,,83,73,21,12,7,7,0.5,0.4
2025-03-17T2300,3058A,119.2658,42.0353,赤峰市,银河街,,33,33,69,10,16,63,,79,70,14,14,20,18,0.5,0.5
2025-03-17T2300,3286A,118.9359,42.3147,赤峰市,桥北物流园区,,23,23,31,13,14,70,,82,74,6,7,8,8,0.5,0.5
2025-03-17T2300,2521A,107.3476,22.4136,崇左市,市环保局江州分局,颗粒物(PM10),66,81,61,46,32,74,,94,87,20,17,20,11,0.7,0.6
2025-03-17T2300,4256A,107.3750,22.3736,崇左市,石景林东路7号,颗粒物(PM10),59,67,56,31,28,82,,97,93,16,14,7,8,0.5,0.4
2025-03-17T2300,2298A,118.3093,32.3153,滁州市,老年大学,,40,40,36,23,22,102,,117,113,15,17,4,4,0.4,0.4
2025-03-17T2300,2299A,118.3244,32.2786,滁州市,人大宾馆,,39,39,38,24,20,95,,113,108,16,14,8,7,0.4,0.4
2025-03-17T2300,3207A,118.3118,32.3038,滁州市,市政府原办公楼,,32,32,31,22,20,101,,116,112,12,12,4,4,0.2,0.2
2025-03-17T2300,3331A,118.3267,32.2634,滁州市,图书馆,,39,39,33,20,17,89,,116,109,24,16,6,6,0.3,0.3
2025-03-17T2300,2605A,101.5482,25.0441,楚雄彝族自治州,州环境监测站,,47,47,48,31,34,102,,124,122,10,10,8,8,0.5,0.6
2025-03-17T2300,2606A,101.538,25.0492,楚雄彝族自治州,市经济开发区,颗粒物(PM10),57,63,51,36,35,95,,121,118,15,12,7,7,0.7,0.7
2025-03-17T2300,2548A,107.5277,31.2827,达州市,达州职业技术学院,,47,47,53,27,23,10,,54,43,42,28,5,8,0.4,0.4
2025-03-17T2300,2549A,107.5086,31.2186,达州市,市环境监测站,,50,50,51,19,20,47,,62,58,20,30,7,22,0.6,0.7
2025-03-17T2300,2550A,107.4988,31.2132,达州市,凤凰小区,,41,41,51,24,26,47,,63,58,18,27,8,22,0.5,0.5
2025-03-17T2300,2551A,107.5082,31.1986,达州市,达县机关宾馆,,39,39,48,27,25,44,,59,54,19,28,4,25,0.5,0.6
2025-03-17T2300,2552A,107.4644,31.2124,达州市,市政中心,,46,46,62,22,26,48,,59,58,15,29,3,14,0.3,0.7
2025-03-17T2300,2614A,100.1542,25.7054,大理白族自治州,大理市环境监测站,,37,37,45,24,31,106,,122,108,6,6,7,7,0.6,0.6
2025-03-17T2300,2615A,100.2171,25.5811,大理白族自治州,大理古城,细颗粒物(PM2.5),53,,39,37,30,106,,116,104,5,5,7,7,0.5,0.5
2025-03-17T2300,1109A,121.612,38.9741,大连市,甘井子,,39,39,46,18,29,80,,77,77,14,30,6,7,0.5,0.7
2025-03-17T2300,1110A,121.565,38.9511,大连市,周水子,,31,31,44,19,31,88,,79,79,11,27,8,12,0.4,0.5
2025-03-17T2300,1111A,121.5637,38.8845,大连市,星海三站,,33,33,41,19,30,94,,85,85,6,16,9,10,0.6,0.8
2025-03-17T2300,1112A,121.6302,38.9117,大连市,青泥洼桥,,30,29,43,18,26,93,,84,84,4,16,9,10,0.2,0.4
2025-03-17T2300,1113A,121.6251,38.8638,大连市,傅家庄,,30,30,39,14,32,87,,82,82,14,19,8,8,0.6,0.7
2025-03-17T2300,1114A,121.5213,38.8661,大连市,七贤岭,,29,22,46,16,25,90,,86,86,7,15,7,7,0.5,0.7
2025-03-17T2300,1115A,121.2529,38.8061,大连市,旅顺,颗粒物(PM10),51,52,66,17,26,89,,92,92,10,22,8,8,0.4,0.5
2025-03-17T2300,1116A,121.7485,39.1311,大连市,金州,,44,44,40,19,32,88,,81,81,12,23,8,10,0.5,0.6
2025-03-17T2300,1117A,121.7811,39.0496,大连市,开发区,,35,35,44,22,30,84,,78,78,10,29,8,9,0.7,0.8
2025-03-17T2300,1118A,121.9762,39.0631,大连市,双D港,,45,,38,31,26,94,,91,91,13,17,9,9,0.8,0.8
2025-03-17T2300,1789A,124.81117,46.03138,大庆市,大同区,,30,,28,21,22,70,,88,79,8,9,5,4,0.6,0.6
2025-03-17T2300,1790A,125.129,46.533,大庆市,龙凤区,,25,24,27,17,18,67,,87,78,18,12,6,7,0.5,0.5
2025-03-17T2300,1791A,124.902,46.408,大庆市,红岗区,,45,,26,31,20,72,,93,83,12,17,4,6,0.4,0.5
2025-03-17T2300,1792A,125.153,46.586,大庆市,萨尔图区,,33,33,25,19,15,56,,86,76,33,11,6,6,0.5,0.3
2025-03-17T2300,1793A,124.9042,46.6215,大庆市,让胡路区,,38,,24,26,21,78,,85,80,13,13,7,7,0.2,0.3
2025-03-17T2300,3481A,125.141,46.634,大庆市,萨区政府监测点,,,31,24,,20,50,,93,82,34,6,5,5,0.7,0.5
2025-03-17T2300,1721A,113.3819,40.1097,大同市,果树场,,28,,25,19,17,73,,96,87,13,13,10,10,0.6,0.5
2025-03-17T2300,1723A,113.2994,40.0758,大同市,云冈宾馆,,30,30,30,17,11,79,,99,91,13,9,8,9,0.4,0.4
2025-03-17T2300,1724A,113.3444,40.0917,大同市,大同大学,,47,47,29,12,12,79,,96,87,7,8,16,12,0.4,0.5
2025-03-17T2300,1725A,113.2661,40.1269,大同市,安家小村,,42,42,29,11,9,72,,98,89,12,7,10,9,0.6,0.5
2025-03-17T2300,1726A,113.2711,40.0844,大同市,教育学院,,30,30,30,16,11,78,,101,92,15,12,8,8,0.5,0.4
2025-03-17T2300,3282A,113.3397,40.0597,大同市,大同市卫生学校,,26,26,31,10,11,83,,98,90,8,8,11,8,0.4,0.4
2025-03-17T2300,3565A,113.1367,40.1122,大同市,云冈站,,31,31,32,14,13,64,,97,83,23,12,13,12,0.5,0.3
2025-03-17T2300,3566A,113.1186,40.2556,大同市,图书馆,,25,18,26,14,13,78,,92,86,5,7,9,8,0.5,0.5
2025-03-17T2300,3567A,113.5931,40.0461,大同市,区一中,,29,19,33,12,13,91,,100,94,5,9,12,15,0.3,0.4
2025-03-17T2300,4199A,113.2798,40.0997,大同市,魏都大道141号,,41,41,32,12,13,83,,104,94,13,11,12,12,0.5,0.5
2025-03-17T2300,2269A,124.1069,50.4097,大兴安岭地区,科技局,,32,29,23,22,19,64,,86,75,7,5,6,6,0.5,0.4
2025-03-17T2300,3663A,124.1164,50.4278,大兴安岭地区,红旗社区,,26,22,17,18,13,50,,87,71,15,10,11,6,0.5,0.4
2025-03-17T2300,1600A,124.3303,40.0625,丹东市,江湾东路,颗粒物(PM10),53,56,68,35,50,91,,101,86,13,18,11,12,0.6,0.9
2025-03-17T2300,1601A,124.4256,40.1503,丹东市,临江后街,颗粒物(PM10),53,55,65,35,45,85,,97,81,11,17,8,11,0.5,0.7
2025-03-17T2300,1602A,124.3933,40.1461,丹东市,元宝山,,50,42,52,35,40,84,,94,86,14,15,7,8,0.8,0.8
2025-03-17T2300,1603A,124.3633,40.1092,丹东市,民主桥,,50,50,57,34,41,83,,98,84,15,20,10,9,0.6,0.6
2025-03-17T2300,3541A,109.5726,19.5167,儋州市,第一中学子站,颗粒物(PM10),51,52,31,26,15,76,,75,75,9,8,4,4,0.6,0.6
2025-03-17T2300,3542A,109.5567,19.5187,儋州市,东坡学校子站,,50,50,31,29,17,80,,79,79,9,8,5,5,0.6,0.6
2025-03-17T2300,2616A,98.5842,24.428,德宏傣族景颇族自治州,德宏州监测站,细颗粒物(PM2.5),88,107,80,65,50,54,,125,106,48,31,9,10,0.9,0.7
2025-03-17T2300,3677A,98.5881,24.4368,德宏傣族景颇族自治州,芒市人民政府综合楼,颗粒物(PM10),75,100,93,50,48,95,,130,120,15,20,10,10,0.6,0.5
2025-03-17T2300,1901A,104.4239,31.1208,德阳市,东山公园,颗粒物(PM10),56,61,53,38,32,33,,46,41,33,29,2,3,0.6,0.6
2025-03-17T2300,1902A,104.3826,31.1317,德阳市,西小区,颗粒物(PM10),63,75,67,44,40,18,,38,32,54,39,6,4,0.6,0.6
2025-03-17T2300,1904A,104.3553,31.1091,德阳市,耐火材料厂,颗粒物(PM10),61,71,62,42,37,20,,42,36,48,38,7,6,0.4,0.4
2025-03-17T2300,3639A,104.4019,31.1244,德阳市,市教育局,细颗粒物(PM2.5),62,66,52,44,38,26,,44,37,44,36,4,4,0.6,0.6
2025-03-17T2300,1622A,116.3032,37.4674,德州市,儿童乐园,颗粒物(PM10),51,51,63,9,18,77,,97,88,22,22,5,7,0.6,0.7
2025-03-17T2300,1624A,116.2991,37.4451,德州市,监理站,颗粒物(PM10),57,63,56,19,20,51,,100,90,44,20,9,12,0.6,0.6
2025-03-17T2300,3066A,116.2721,37.4379,德州市,九衢泉纯净水厂,颗粒物(PM10),62,73,59,24,20,10,,96,81,96,33,9,10,0.5,0.5
2025-03-17T2300,3371A,116.3728,37.4403,德州市,开发区人民医院,颗粒物(PM10),52,53,62,12,17,60,,99,84,36,21,4,6,0.4,0.4
2025-03-17T2300,3372A,116.3572,37.4094,德州市,太阳城中学,颗粒物(PM10),57,63,63,14,20,61,,98,87,33,22,3,6,0.3,0.4
2025-03-17T2300,3511A,116.5652,37.3319,德州市,陵城艺术中心,颗粒物(PM10),54,58,62,19,19,39,,96,78,47,26,13,13,0.6,0.5
2025-03-17T2300,2621A,99.7056,27.8317,迪庆藏族自治州,迪庆州站,,49,49,21,19,11,76,,100,92,17,9,9,8,0.7,0.4
2025-03-17T2300,3180A,99.7136,27.8094,迪庆藏族自治州,质量技术监督局,,29,25,19,18,10,91,,106,98,10,8,9,9,0.6,0.7
2025-03-17T2300,4257A,104.6092,35.5962,定西市,将台街,颗粒物(PM10),69,88,59,36,30,49,,108,98,40,26,8,8,0.5,0.6
2025-03-17T2300,4309A,104.6159,35.5701,定西市,正龙路62号,细颗粒物(PM2.5),98,90,66,73,36,56,,112,99,33,15,23,12,1.3,0.8
2025-03-17T2300,1389A,113.7547,23.0494,东莞市,莞城梨川,颗粒物(PM10),59,68,51,38,29,60,,84,76,29,16,6,5,0.6,0.6
2025-03-17T2300,1390A,113.7944,23.0128,东莞市,东城石井,颗粒物(PM10),53,56,50,29,24,54,,93,79,19,14,6,7,0.6,0.6
2025-03-17T2300,1391A,113.7383,22.9658,东莞市,南城西平,颗粒物(PM10),56,61,52,33,25,51,,93,75,37,25,5,6,0.6,0.6
2025-03-17T2300,3319A,113.7338,23.0381,东莞市,万江金泰,颗粒物(PM10),55,60,44,34,24,70,,99,90,22,9,5,3,0.6,0.7
2025-03-17T2300,3626A,113.7533,23.0202,东莞市,南城元岭,颗粒物(PM10),57,63,49,34,24,58,,89,76,24,14,6,6,0.5,0.4
2025-03-17T2300,3627A,113.7875,23.0457,东莞市,东城主山,颗粒物(PM10),57,63,51,36,25,61,,92,83,28,18,8,8,0.6,0.6
2025-03-17T2300,1666A,118.6614,37.4309,东营市,市环保局,,31,31,47,9,13,80,,97,94,19,30,3,7,0.5,0.6
2025-03-17T2300,3036A,118.6904,37.4338,东营市,开发区管委会,,26,23,54,12,19,82,,83,82,17,34,2,7,0.6,0.6
2025-03-17T2300,3365A,118.5719,37.565,东营市,垦利区民丰路,,25,24,40,9,12,78,,92,89,14,19,5,7,0.5,0.5
2025-03-17T2300,3498A,118.5055,37.8612,东营市,河口城区,,29,24,43,20,11,88,,100,95,16,22,3,4,0.5,0.5
2025-03-17T2300,3646A,118.4978,37.4623,东营市,胜利站,,32,32,51,12,15,80,,96,92,20,29,7,9,0.5,0.5
2025-03-17T2300,3734A,118.35,37.26,东营市,理想之城,,31,31,51,7,18,80,,94,90,14,30,3,7,0.3,0.4
2025-03-17T2300,1591A,110.0023,39.8129,鄂尔多斯市,综合楼,颗粒物(PM10),51,51,48,9,8,74,,94,87,22,15,8,6,0.3,0.2
2025-03-17T2300,1592A,109.9486,39.8261,鄂尔多斯市,巴音孟克林场办事处,颗粒物(PM10),59,68,43,12,10,53,,99,88,50,13,14,7,0.4,0.3
2025-03-17T2300,1593A,109.7736,39.5986,鄂尔多斯市,康泽苑,,41,41,31,12,11,79,,99,93,10,7,3,3,0.3,0.3
2025-03-17T2300,1594A,109.8119,39.5989,鄂尔多斯市,华泰汽车城,,46,46,34,17,13,77,,96,90,11,8,3,3,0.3,0.3
2025-03-17T2300,1595A,109.9734,39.7884,鄂尔多斯市,奥林花园,颗粒物(PM10),52,53,46,12,9,74,,98,92,25,12,8,7,0.3,0.3
2025-03-17T2300,2436A,114.8938,30.3994,鄂州市,市政府,,39,30,37,27,26,92,,111,106,21,20,13,8,1.1,0.8
2025-03-17T2300,2437A,114.8989,30.3714,鄂州市,赵家坝,,43,43,40,26,23,92,,115,109,14,14,6,5,0.5,0.6
2025-03-17T2300,3654A,114.8094,30.4089,鄂州市,精准医疗中心,,41,41,38,19,21,128,,172,160,10,15,5,5,0.6,0.6
2025-03-17T2300,2454A,109.4978,30.2981,恩施土家族苗族自治州,湖北民院,,46,46,30,31,21,23,,62,52,38,16,2,3,0.5,0.4
2025-03-17T2300,2455A,109.4707,30.2798,恩施土家族苗族自治州,州电力总公司,,36,36,31,24,22,17,,49,37,26,17,5,5,0.1,0.1
2025-03-17T2300,3549A,109.5061,30.3772,恩施土家族苗族自治州,龙凤新区,,50,49,28,35,19,13,,46,34,29,16,6,6,0.5,0.4
2025-03-17T2300,2499A,108.3411,21.6158,防城港市,沙万,细颗粒物(PM2.5),68,58,47,49,34,77,,82,81,18,15,8,8,1.1,1.1
2025-03-17T2300,2500A,108.3514,21.7731,防城港市,防城档案局,细颗粒物(PM2.5),72,77,79,52,34,58,,74,66,30,26,8,8,0.3,0.2
2025-03-17T2300,2501A,108.3506,21.6414,防城港市,大海花园,细颗粒物(PM2.5),67,63,53,48,32,80,,86,85,12,9,6,6,0.8,0.8
2025-03-17T2300,1371A,113.1294,23.0067,佛山市,湾梁,颗粒物(PM10),56,61,53,23,18,47,,75,68,38,27,6,6,0.6,0.5
2025-03-17T2300,1372A,113.1083,23.0478,佛山市,华材职中,颗粒物(PM10),64,78,56,30,23,49,,92,79,53,27,6,5,0.6,0.5
2025-03-17T2300,1373A,113.144,23.0453,佛山市,南海气象局,颗粒物(PM10),53,55,49,28,20,52,,83,73,38,26,4,4,0.4,0.4
2025-03-17T2300,1374A,113.2881,22.8094,佛山市,顺德苏岗,颗粒物(PM10),54,58,55,29,25,39,,69,53,38,25,6,5,0.6,0.5
2025-03-17T2300,1376A,112.8383,22.8678,佛山市,高明孔堂,颗粒物(PM10),57,64,57,34,26,41,,92,74,30,20,6,6,0.5,0.4
2025-03-17T2300,1377A,112.8836,23.1588,佛山市,三水监测站,颗粒物(PM10),57,63,55,39,27,12,,85,68,89,32,2,2,0.5,0.5
2025-03-17T2300,1378A,112.867,23.185,佛山市,三水云东海,颗粒物(PM10),55,59,46,35,31,29,,90,74,46,25,3,4,0.6,0.5
2025-03-17T2300,3625A,113.2544,22.7642,佛山市,容桂街道办,颗粒物(PM10),57,63,53,34,28,48,,84,65,43,28,6,7,0.7,0.6
2025-03-17T2300,1280A,119.3903,26.0543,福州市,鼓山,,,,38,,26,,,94,,,4,,2,,0.3
2025-03-17T2300,1282A,119.2681,26.0504,福州市,师大,,48,39,42,33,31,87,,106,102,18,12,4,3,0.3,0.3
2025-03-17T2300,1283A,119.2984,26.1028,福州市,五四北路,,46,36,40,32,30,92,,98,96,19,16,4,4,0.4,0.4
2025-03-17T2300,1284A,119.2648,26.0768,福州市,杨桥西路,,45,39,45,31,30,86,,105,101,16,12,4,4,0.3,0.3
2025-03-17T2300,1285A,119.317,26.0746,福州市,紫阳,,46,39,47,32,33,92,,101,98,19,17,4,4,0.2,0.2
2025-03-17T2300,3048A,119.5799,26.0936,福州市,九龙,,38,31,38,26,27,76,,112,99,16,9,3,7,0.3,0.3
2025-03-17T2300,3526A,119.5189,25.9664,福州市,吴航,,41,41,47,28,31,80,,114,103,12,9,3,3,0.4,0.4
2025-03-17T2300,1755A,123.7977,41.8491,抚顺市,望花区,细颗粒物(PM2.5),114,131,115,86,76,82,,100,96,22,31,8,6,0.7,0.9
2025-03-17T2300,1756A,123.9161,41.8822,抚顺市,顺城区,细颗粒物(PM2.5),90,106,93,67,59,90,,104,101,18,31,7,8,0.7,0.8
2025-03-17T2300,1757A,124.0436,41.8611,抚顺市,东洲区,细颗粒物(PM2.5),104,116,104,78,66,82,,105,96,18,15,7,6,0.6,0.8
2025-03-17T2300,1758A,123.9247,41.8642,抚顺市,新抚区,细颗粒物(PM2.5),99,114,92,74,65,94,,100,99,15,31,5,5,0.6,0.7
2025-03-17T2300,1759A,124.0972,41.8961,抚顺市,大伙房水库,细颗粒物(PM2.5),108,99,86,81,68,91,,108,99,17,18,8,8,0.6,0.7
2025-03-17T2300,1760A,123.7086,41.8391,抚顺市,沈抚新城,细颗粒物(PM2.5),110,119,94,83,74,79,,101,96,25,35,6,7,0.6,0.9
2025-03-17T2300,2376A,116.2127,28.0814,抚州市,桐源党溪,,48,48,46,21,23,30,,99,71,16,5,3,4,0.3,0.2
2025-03-17T2300,2377A,116.3544,27.9831,抚州市,市站,,37,37,42,20,22,62,,92,84,24,8,11,10,0.2,0.4
2025-03-17T2300,2378A,116.3565,27.963,抚州市,血防站,,46,46,46,26,23,66,,98,88,19,8,17,7,0.2,0.2
2025-03-17T2300,2379A,116.3564,28.0007,抚州市,采茶剧团,,33,32,40,23,21,66,,88,80,15,6,2,4,0.2,0.3
2025-03-17T2300,2380A,116.385,27.9647,抚州市,医学分院,,,40,41,18,20,59,,84,78,,2,6,6,0.5,0.6
2025-03-17T2300,2207A,121.6094,41.998,阜新市,工业园区,颗粒物(PM10),61,71,84,31,44,50,,87,69,26,28,8,16,0.6,1
2025-03-17T2300,2208A,121.6697,42.0279,阜新市,长青街,,32,24,55,22,33,66,,88,77,12,24,5,31,0.4,1.6
2025-03-17T2300,2209A,121.6673,42.0705,阜新市,农业园区,,32,,51,22,23,82,,90,80,16,19,6,26,0.2,0.6
2025-03-17T2300,2210A,121.6717,42.0224,阜新市,东苑,,33,,64,23,36,72,,88,79,14,25,5,33,0.5,1.9
2025-03-17T2300,2211A,121.6506,42.0498,阜新市,玉龙新城,,32,,53,22,30,65,,89,71,18,30,5,21,0.4,1.2
2025-03-17T2300,2301A,115.8277,32.8929,阜阳市,市监测站,,40,36,40,28,28,88,,102,93,18,16,7,6,0.4,0.4
2025-03-17T2300,2303A,115.8554,32.8605,阜阳市,开发区,颗粒物(PM10),64,77,66,42,31,64,,106,86,32,24,11,7,0.5,0.5
2025-03-17T2300,2875A,115.784,32.8892,阜阳市,阜阳职业技术学院,,48,48,45,24,26,79,,98,90,17,16,8,8,0.4,0.4
2025-03-17T2300,3468A,115.7901,32.8613,阜阳市,市规划展馆,,44,44,45,25,25,88,,107,97,19,17,7,7,0.2,0.2
2025-03-17T2300,3469A,115.836,32.9183,阜阳市,枣园社区,,42,42,45,22,24,79,,109,97,27,16,7,6,0.3,0.3
2025-03-17T2300,2669A,102.9099,34.9841,甘南藏族自治州,州政府,,42,42,43,26,24,83,,90,87,9,12,5,6,0.3,0.3
2025-03-17T2300,3380A,102.8914,34.9617,甘南藏族自治州,甘肃民族师范学院,,26,24,35,16,20,81,,102,96,23,10,10,8,0.4,0.3
2025-03-17T2300,2570A,101.9603,30.0475,甘孜藏族自治州,水桥子,,25,6,7,3,6,79,,83,83,8,7,3,3,0.4,0.4
2025-03-17T2300,3065A,101.9533,29.9972,甘孜藏族自治州,州环保局,,26,,7,6,5,83,,86,86,4,6,4,4,0.4,0.3
2025-03-17T2300,3414A,115.8347,28.932,赣江新区,桑海产业园,颗粒物(PM10),57,63,34,24,18,7,,101,74,82,22,8,7,0.3,0.2
2025-03-17T2300,2362A,114.9017,25.9149,赣州市,通天岩,,44,44,47,13,9,114,,122,120,4,4,12,11,0.3,0.4
2025-03-17T2300,2363A,114.9367,25.8664,赣州市,地委,,47,47,48,24,23,94,,97,97,8,7,2,2,0.6,0.6
2025-03-17T2300,2364A,114.9461,25.8481,赣州市,气象台,颗粒物(PM10),52,53,53,24,22,112,,113,113,13,13,8,8,0.2,0.3
2025-03-17T2300,2365A,114.9322,25.8333,赣州市,市图书馆,,36,36,44,24,24,111,,112,112,12,12,4,4,0.5,0.5
2025-03-17T2300,2366A,114.8905,25.8471,赣州市,华坚鞋城,,47,47,48,26,23,109,,110,110,11,11,7,7,0.1,0.1
2025-03-17T2300,3109A,115.0093,25.8613,赣州市,赣县区卫计委,,37,37,47,22,27,100,,102,102,2,2,4,4,0.4,0.4
2025-03-17T2300,2683A,106.2319,36.1417,固原市,马园,,49,49,50,22,22,29,,91,72,40,23,5,5,0.7,0.7
2025-03-17T2300,2684A,106.2792,36.0022,固原市,监测站,,34,34,45,11,20,71,,98,88,20,19,7,7,0.4,0.7
2025-03-17T2300,2685A,106.2375,36.0211,固原市,新区,,35,35,53,14,19,74,,98,85,15,27,7,7,0.5,0.5
2025-03-17T2300,3522A,106.2177,35.9959,固原市,原州区十五小,,39,39,39,17,18,80,,100,89,15,13,7,6,0.4,0.4
2025-03-17T2300,2543A,106.6308,30.5278,广安市,小平旧居,,,,,,,,,,,,,,,,
2025-03-17T2300,2544A,106.6303,30.4576,广安市,市委,,38,31,26,26,20,44,,56,52,19,14,8,4,0.3,0.3
2025-03-17T2300,2545A,106.6271,30.4663,广安市,友谊中学,,35,34,27,24,19,45,,53,51,19,16,9,4,0.4,0.4
2025-03-17T2300,2547A,106.6388,30.4551,广安市,广电花园,,35,24,22,24,18,36,,50,46,24,16,8,4,0.5,0.6
2025-03-17T2300,2902A,106.6351,30.4865,广安市,北辰小学,,30,30,26,20,18,44,,55,54,19,15,11,6,0.5,0.5
2025-03-17T2300,2523A,105.8945,32.4535,广元市,黑石坡,颗粒物(PM10),55,59,53,20,22,57,,65,63,4,13,7,8,0.3,0.4
2025-03-17T2300,2524A,105.821,32.4444,广元市,老城,颗粒物(PM10),57,63,53,25,19,3,,71,44,58,33,3,1,0.7,0.7
2025-03-17T2300,2526A,105.8628,32.4287,广元市,监测站,,45,45,44,27,22,43,,75,65,15,18,3,7,0.3,0.4
2025-03-17T2300,3617A,105.8047,32.4166,广元市,经开区,颗粒物(PM10),58,65,58,33,29,5,,67,48,60,38,4,9,0.5,0.6
2025-03-17T2300,1345A,113.2347,23.1423,广州市,广雅中学,颗粒物(PM10),59,67,64,37,33,50,,84,74,42,27,4,3,0.7,0.3
2025-03-17T2300,1346A,113.2612,23.105,广州市,市五中,颗粒物(PM10),56,61,54,34,32,61,,90,83,26,15,3,3,0.5,0.5
2025-03-17T2300,1348A,113.3478,23.0916,广州市,广东商学院,颗粒物(PM10),54,58,52,32,27,70,,92,86,24,19,4,4,0.4,0.3
2025-03-17T2300,1349A,113.4332,23.1047,广州市,市八十六中,颗粒物(PM10),55,59,51,33,28,48,,76,66,37,22,3,3,0.5,0.2
2025-03-17T2300,1350A,113.3505,22.9483,广州市,番禺中学,颗粒物(PM10),59,68,56,37,25,64,,89,78,37,27,4,4,0.5,0.4
2025-03-17T2300,1351A,113.2146,23.3916,广州市,花都师范,颗粒物(PM10),56,61,56,35,28,75,,95,90,24,19,7,5,0.4,0.4
2025-03-17T2300,1352A,113.2597,23.1331,广州市,市监测站,颗粒物(PM10),52,54,53,28,28,59,,88,80,37,23,5,5,0.6,0.5
2025-03-17T2300,1353A,113.5618,23.312,广州市,九龙镇镇龙,,49,49,44,31,27,39,,88,68,34,17,4,5,0.5,0.5
2025-03-17T2300,1354A,113.2765,23.1544,广州市,麓湖,,45,45,52,27,30,45,,90,67,27,20,3,3,0.6,0.5
2025-03-17T2300,1355A,113.443,23.3035,广州市,帽峰山森林公园,,39,32,38,27,33,69,,90,79,12,13,4,4,0.5,0.5
2025-03-17T2300,2846A,113.3221,23.1322,广州市,体育西,颗粒物(PM10),57,63,55,36,29,70,,93,86,25,16,4,4,0.5,0.4
2025-03-17T2300,3298A,113.5717,23.5491,广州市,从化街口,颗粒物(PM10),59,67,50,41,29,30,,103,79,44,14,7,7,0.7,0.5
2025-03-17T2300,3299A,113.3472,23.3692,广州市,白云竹料,颗粒物(PM10),67,84,52,45,30,66,,106,92,27,14,7,7,0.7,0.5
2025-03-17T2300,3300A,113.2981,23.237,广州市,白云嘉禾,颗粒物(PM10),59,68,59,33,31,28,,92,69,63,30,4,4,0.3,0.2
2025-03-17T2300,3301A,113.4256,23.1716,广州市,黄埔科学城,颗粒物(PM10),53,55,51,35,30,31,,90,68,40,16,6,7,0.6,0.5
2025-03-17T2300,3302A,113.3942,23.0483,广州市,番禺大学城,颗粒物(PM10),54,58,44,32,25,64,,91,81,35,26,4,4,0.3,0.3
2025-03-17T2300,3303A,113.4922,22.8168,广州市,南沙黄阁,颗粒物(PM10),62,73,57,37,29,46,,88,72,45,26,6,8,0.6,0.6
2025-03-17T2300,3304A,113.5342,22.7896,广州市,南沙街,颗粒物(PM10),54,57,52,35,29,57,,89,78,36,24,6,6,0.5,0.5
2025-03-17T2300,3443A,113.2902,23.5544,广州市,花都梯面,,42,42,49,26,28,33,,100,72,33,15,6,6,0.5,0.5
2025-03-17T2300,3445A,113.7858,23.7478,广州市,从化良口,,36,36,44,22,25,50,,95,76,23,10,6,7,0.4,0.3
2025-03-17T2300,3446A,113.8051,23.2614,广州市,增城荔城,颗粒物(PM10),57,64,48,39,26,46,,101,83,27,12,9,8,0.6,0.5
2025-03-17T2300,2505A,109.568,23.1478,贵港市,德智高中,,,,,,,,,,,,,,,,
2025-03-17T2300,2506A,109.6047,23.0666,贵港市,江南子站,颗粒物(PM10),53,56,64,31,33,94,,102,98,16,21,5,7,0.4,0.6
2025-03-17T2300,2507A,109.6014,23.0948,贵港市,贵城子站,颗粒物(PM10),51,51,56,32,35,92,,98,93,14,16,8,8,0.4,0.6
2025-03-17T2300,2508A,109.5669,23.1065,贵港市,荷城子站,,46,46,54,29,28,88,,92,87,11,14,10,10,0.4,0.5
2025-03-17T2300,3405A,109.5886,23.1172,贵港市,新世纪学校,颗粒物(PM10),56,61,59,30,34,86,,96,88,12,13,7,7,0.3,0.3
2025-03-17T2300,1439A,106.6899,26.5998,贵阳市,马鞍山,,22,22,31,12,20,29,,76,38,22,12,5,4,0.4,0.3
2025-03-17T2300,1441A,106.6243,26.6266,贵阳市,鉴湖路,,14,14,38,3,21,42,,71,42,12,10,6,6,0.4,0.4
2025-03-17T2300,1442A,106.7487,26.6343,贵阳市,燕子冲,,32,22,30,22,27,36,,77,42,18,11,7,6,0.3,0.3
2025-03-17T2300,1443A,106.6555,26.4365,贵阳市,碧云窝,,27,27,44,14,21,31,,76,37,21,15,9,9,0.5,0.4
2025-03-17T2300,1445A,106.7109,26.6027,贵阳市,红边门,,28,24,36,19,26,40,,77,44,25,20,8,5,0.3,0.2
2025-03-17T2300,1446A,106.7164,26.5699,贵阳市,新华路,,25,22,36,17,25,40,,78,44,16,7,10,10,0.4,0.3
2025-03-17T2300,1447A,106.674,26.5424,贵阳市,太慈桥,,18,12,34,12,22,41,,79,44,18,17,8,8,0.4,0.3
2025-03-17T2300,1552A,106.805,26.3003,贵阳市,桐木岭,,27,27,50,18,32,55,,62,54,4,4,1,1,0.2,0.2
2025-03-17T2300,4230A,106.6882,26.5695,贵阳市,花果园大街66号,,28,,28,19,28,32,,66,37,17,12,7,5,0.3,0.1
2025-03-17T2300,4231A,106.6873,26.5169,贵阳市,漓江路57号,,20,19,36,14,23,37,,75,43,22,15,10,9,0.5,0.4
2025-03-17T2300,1862A,110.4144,25.3167,桂林市,电子科大尧山校区,,,,,,,,,,,,,,,,
2025-03-17T2300,1864A,110.3089,25.2708,桂林市,龙隐路小学,,43,,39,30,31,84,,105,,8,7,9,10,0.6,0.5
2025-03-17T2300,1865A,110.2869,25.2178,桂林市,八中,,38,28,37,26,27,81,,96,88,14,14,8,9,0.3,0.3
2025-03-17T2300,3531A,110.296,25.1253,桂林市,旅游学院,,25,22,30,17,20,79,,96,90,10,9,7,7,0.6,0.6
2025-03-17T2300,4222A,110.1835,25.2444,桂林市,环湖路276号,,35,29,41,24,27,80,,91,85,8,9,12,12,0.3,0.3
2025-03-17T2300,4301A,110.2803,25.2773,桂林市,信义路13号,,30,27,35,21,26,82,,97,88,11,11,11,11,0.2,0.2
2025-03-17T2300,2674A,100.2561,34.4714,果洛藏族自治州,玛沁县大武镇,,38,38,40,18,15,99,,101,99,1,1,11,12,0.4,0.3
2025-03-17T2300,1129A,126.5422,45.755,哈尔滨市,岭北,,25,20,35,16,27,79,,94,86,11,28,16,17,1.3,1.3
2025-03-17T2300,1130A,126.561,45.8167,哈尔滨市,松北商大,,30,30,45,20,22,75,,92,82,11,27,5,6,0.6,0.6
2025-03-17T2300,1131A,126.979,45.5419,哈尔滨市,阿城会宁,颗粒物(PM10),52,54,45,26,19,67,,96,79,19,20,15,9,1.3,0.7
2025-03-17T2300,1132A,126.599,45.7222,哈尔滨市,南岗学府路,,32,32,42,11,17,74,,91,85,14,27,17,10,0.3,0.6
2025-03-17T2300,1133A,126.689,45.7733,哈尔滨市,太平宏伟公园,,27,27,43,18,26,73,,93,81,17,30,7,7,0.5,0.6
2025-03-17T2300,1134A,126.635,45.7667,哈尔滨市,道外承德广场,,38,38,45,22,23,79,,90,86,8,20,6,7,0.7,0.7
2025-03-17T2300,1135A,126.685,45.7319,哈尔滨市,香坊红旗大街,,34,34,43,18,25,75,,91,83,15,25,11,10,0.7,0.8
2025-03-17T2300,1136A,126.6411,45.7258,哈尔滨市,动力和平路,,26,23,35,18,24,78,,96,87,11,22,8,12,0.4,0.6
2025-03-17T2300,1137A,126.593,45.7478,哈尔滨市,道里建国路,,29,22,31,20,21,74,,88,80,11,24,1,8,0.4,0.6
2025-03-17T2300,1138A,126.615,45.61,哈尔滨市,平房东轻厂,,25,,37,17,25,66,,90,76,19,28,11,9,0.8,0.8
2025-03-17T2300,1139A,126.595,45.9855,哈尔滨市,呼兰师专,,26,20,36,18,22,71,,85,76,11,22,9,9,0.4,0.5
2025-03-17T2300,1140A,126.6206,45.6842,哈尔滨市,省农科院,,29,29,46,19,27,78,,91,86,12,34,14,10,0.6,0.7
2025-03-17T2300,2688A,93.5128,42.8172,哈密市,地区监测站,颗粒物(PM10),82,113,81,18,15,60,,82,76,27,27,4,4,0.3,0.3
2025-03-17T2300,2689A,93.4961,42.8328,哈密市,哈密师范学校,颗粒物(PM10),69,87,68,29,21,46,,86,72,43,38,6,6,0.8,0.7
2025-03-17T2300,2671A,100.9048,36.9639,海北藏族自治州,海晏县西海镇,颗粒物(PM10),53,56,45,25,24,107,,105,98,10,10,11,14,0.4,0.4
2025-03-17T2300,3867A,102.0738,36.5056,海东市,平安区公安北苑,颗粒物(PM10),58,65,53,22,26,88,,109,104,18,13,17,13,0.7,0.6
2025-03-17T2300,1409A,110.576,19.9507,海口市,东寨港,,48,48,35,31,14,79,,81,81,7,7,6,5,1.0,0.9
2025-03-17T2300,1410A,110.3232,20.0574,海口市,海南大学,颗粒物(PM10),52,54,41,29,19,91,,94,94,9,10,2,3,0.4,0.4
2025-03-17T2300,1411A,110.283,20.0053,海口市,秀英海南医院,,48,48,35,32,18,85,,91,90,11,10,4,5,0.4,0.3
2025-03-17T2300,1412A,110.338,19.9969,海口市,海南师范大学,,49,49,35,31,19,55,,97,78,7,7,3,4,0.4,0.4
2025-03-17T2300,1413A,110.33,20.0356,海口市,龙华路环保局宿舍,,47,47,35,30,19,87,,94,93,12,9,4,4,0.4,0.4
2025-03-17T2300,3539A,110.5111,19.9736,海口市,桂林洋子站,颗粒物(PM10),54,58,41,33,21,91,,94,94,8,9,4,4,0.4,0.3
2025-03-17T2300,2673A,100.6188,36.2866,海南藏族自治州,共和县恰卜恰镇,,42,42,40,22,28,98,,112,106,6,9,4,9,0.4,0.5
2025-03-17T2300,2676A,97.3731,37.3753,海西蒙古族藏族自治州,德令哈市,,49,46,37,34,16,96,,104,,3,5,15,13,0.4,0.5
2025-03-17T2300,1048A,114.5302,36.6116,邯郸市,东污水处理厂,颗粒物(PM10),55,59,36,12,14,68,,78,74,21,24,1,4,0.1,0.5
2025-03-17T2300,1049A,114.4918,36.5713,邯郸市,矿院,颗粒物(PM10),71,91,49,7,9,71,,83,81,14,21,2,5,0.3,0.4
2025-03-17T2300,1050A,114.484,36.6133,邯郸市,丛台公园,颗粒物(PM10),57,63,36,11,13,68,,88,85,20,20,3,4,0.3,0.5
2025-03-17T2300,3458A,114.7895,36.5593,邯郸市,香泉濮院小区,颗粒物(PM10),68,86,48,13,11,70,,94,87,17,19,2,4,0.3,0.5
2025-03-17T2300,3579A,114.50634,36.77178,邯郸市,永年区实验高中,颗粒物(PM10),64,77,57,13,10,67,,90,81,24,21,4,15,0.6,1
2025-03-17T2300,3580A,114.20016,36.44293,邯郸市,峰峰矿区临水派出所,颗粒物(PM10),55,60,39,15,10,77,,94,87,10,7,6,7,1.7,0.8
2025-03-17T2300,2634A,106.9893,33.1842,汉中市,汉川机床厂子校,,38,36,43,26,21,58,,84,72,5,7,7,10,1.1,1.1
2025-03-17T2300,2635A,107.0154,33.0706,汉中市,市监测站,细颗粒物(PM2.5),79,105,59,58,29,24,,81,63,50,27,8,7,1.0,0.8
2025-03-17T2300,2636A,107.0089,33.1138,汉中市,鑫源开发区,细颗粒物(PM2.5),98,89,62,73,38,13,,83,62,62,36,7,11,1.1,0.8
2025-03-17T2300,2637A,107.007,33.0323,汉中市,南郑大河坎水厂,"颗粒物(PM10),细颗粒物(PM2.5)",64,78,55,46,28,43,,81,63,25,22,7,7,0.9,0.8
2025-03-17T2300,1223A,120.2072,30.2111,杭州市,滨江,细颗粒物(PM2.5),63,63,32,45,19,4,,107,68,98,28,6,6,0.5,0.2
2025-03-17T2300,1224A,120.0633,30.2747,杭州市,西溪,颗粒物(PM10),73,96,64,24,19,5,,108,72,59,22,6,6,0.3,0.4
2025-03-17T2300,1226A,120.3417,30.3150,杭州市,下沙,颗粒物(PM10),66,82,35,46,18,5,,96,53,102,39,8,6,0.4,0.3
2025-03-17T2300,1227A,120.1269,30.2456,杭州市,卧龙桥,,29,29,23,18,15,39,,106,70,25,16,6,6,0.4,0.4
2025-03-17T2300,1228A,120.1903,30.2692,杭州市,浙江农大,颗粒物(PM10),56,61,33,33,18,3,,103,62,100,31,9,9,0.4,0.2
2025-03-17T2300,1230A,120.1197,30.3119,杭州市,和睦小学,颗粒物(PM10),56,62,30,34,20,5,,107,66,75,25,7,7,0.9,0.6
2025-03-17T2300,1231A,120.3019,30.4183,杭州市,临平镇,颗粒物(PM10),68,85,38,45,19,14,,107,65,86,32,6,6,0.7,0.4
2025-03-17T2300,1232A,120.2753,30.1839,杭州市,城厢镇,颗粒物(PM10),66,81,37,32,20,3,,104,68,99,31,8,7,0.6,0.4
2025-03-17T2300,1233A,120.0883,30.1808,杭州市,云栖,,27,27,22,16,13,33,,106,74,34,20,7,7,0.5,0.5
2025-03-17T2300,3557A,119.9464,30.0494,杭州市,镇二中,,36,32,24,25,16,31,,96,70,46,28,6,6,0.3,0.3
2025-03-17T2300,3558A,119.7183,30.2367,杭州市,市府大楼,,44,44,29,25,19,37,,107,80,41,23,7,8,0.5,0.4
2025-03-17T2300,3656A,120.1556,30.2864,杭州市,消防大队,细颗粒物(PM2.5),58,64,32,41,20,17,,114,72,81,30,6,6,0.7,0.5
2025-03-17T2300,1270A,117.1959,31.7848,合肥市,明珠广场,颗粒物(PM10),60,70,41,34,19,9,,102,64,86,37,4,4,0.5,0.5
2025-03-17T2300,1271A,117.3072,31.8764,合肥市,三里街,颗粒物(PM10),57,63,39,29,19,21,,99,73,81,35,5,5,0.6,0.4
2025-03-17T2300,1272A,117.2588,31.8707,合肥市,琥珀山庄,颗粒物(PM10),54,58,41,37,23,16,,100,67,81,37,2,2,1.1,0.6
2025-03-17T2300,1273A,117.1604,31.9052,合肥市,董铺水库,,31,31,31,9,10,56,,102,90,40,25,3,2,0.3,0.3
2025-03-17T2300,1274A,117.25,31.8571,合肥市,长江中路,,41,41,37,25,21,65,,103,87,46,31,8,8,0.4,0.3
2025-03-17T2300,1275A,117.266,31.9436,合肥市,庐阳区,,,44,36,17,18,59,,104,86,,24,4,4,0.3,0.3
2025-03-17T2300,1276A,117.3453,31.8616,合肥市,瑶海区,,41,41,37,20,16,64,,97,86,40,35,6,6,0.3,0.3
2025-03-17T2300,1277A,117.3027,31.7964,合肥市,包河区,,46,46,38,22,19,11,,97,63,88,42,1,2,0.5,0.5
2025-03-17T2300,1278A,117.2776,31.7385,合肥市,滨湖新区,颗粒物(PM10),60,70,40,34,24,3,,96,70,104,46,10,7,0.5,0.4
2025-03-17T2300,1279A,117.1318,31.8403,合肥市,高新区,,41,41,35,18,16,74,,103,94,25,17,2,2,0.4,0.4
2025-03-17T2300,3464A,117.3803,31.9147,合肥市,高教基地,颗粒物(PM10),53,56,40,27,18,38,,109,85,45,30,6,6,0.5,0.4
2025-03-17T2300,3614A,79.924,37.0877,和田地区,地区环保局,颗粒物(PM10),339,451,695,113,182,50,,84,78,26,21,2,3,0.4,0.4
2025-03-17T2300,3615A,79.9131,37.113,和田地区,市环保局,颗粒物(PM10),323,438,701,96,158,67,,93,87,26,29,3,2,0.5,0.8
2025-03-17T2300,2516A,108.2011,24.715,河池市,东仁乐园,,30,,43,21,23,84,,89,83,7,9,6,7,0.6,0.7
2025-03-17T2300,2517A,108.0497,24.6947,河池市,市环保站,,26,20,40,17,25,82,,88,82,5,6,9,10,0.5,0.5
2025-03-17T2300,2518A,108.0983,24.6989,河池市,市疾控中心,,26,19,35,15,24,83,,88,82,2,4,6,6,0.5,0.5
2025-03-17T2300,1696A,114.6778,23.7569,河源市,源西,,49,49,46,28,25,25,,93,63,46,15,4,5,0.6,0.5
2025-03-17T2300,1697A,114.6944,23.7586,河源市,东埔,颗粒物(PM10),53,55,48,31,26,54,,89,74,28,15,4,5,0.6,0.6
2025-03-17T2300,1698A,114.6892,23.7233,河源市,老城,,50,49,48,35,33,50,,90,69,24,14,4,5,0.6,0.5
2025-03-17T2300,1718A,115.4208,35.2464,菏泽市,气象局,颗粒物(PM10),58,66,61,27,26,79,,105,96,15,16,5,4,0.4,0.4
2025-03-17T2300,3374A,115.5564,35.0891,菏泽市,定陶老年大学,颗粒物(PM10),64,78,54,31,22,54,,80,80,31,21,4,5,0.6,0.6
2025-03-17T2300,4184A,115.4797,35.24401,菏泽市,永昌路1号,颗粒物(PM10),66,81,59,25,26,79,,106,96,22,21,8,8,0.2,0.3
2025-03-17T2300,4193A,115.4715,35.2800,菏泽市,长城路999号,颗粒物(PM10),73,95,64,25,18,64,,101,86,29,22,9,5,0.4,0.4
2025-03-17T2300,2514A,111.5264,24.4172,贺州市,环保小区,,39,39,52,23,30,81,,100,96,11,12,6,6,0.5,0.3
2025-03-17T2300,2515A,111.5608,24.4078,贺州市,政协大楼,,45,45,51,28,30,74,,92,86,13,14,6,6,0.3,0.4
2025-03-17T2300,3534A,111.4744,24.4553,贺州市,西湾,,46,46,49,28,32,74,,91,86,15,13,6,7,0.4,0.5
2025-03-17T2300,2385A,114.17,35.9019,鹤壁市,市监测站,颗粒物(PM10),62,74,46,22,13,63,,100,84,26,20,5,3,0.8,0.6
2025-03-17T2300,2386A,114.2956,35.7511,鹤壁市,市交警支队,颗粒物(PM10),57,63,44,16,15,76,,105,86,12,27,6,8,0.2,0.3
2025-03-17T2300,2387A,114.2878,35.7306,鹤壁市,迎宾馆,颗粒物(PM10),75,99,56,12,12,79,,106,90,7,17,4,3,0.3,0.4
2025-03-17T2300,3474A,114.2617,35.6822,鹤壁市,大新区,颗粒物(PM10),60,70,47,18,17,74,,102,90,19,32,4,6,0.3,0.4
2025-03-17T2300,3596A,114.1572,35.9603,鹤壁市,南山宾馆,颗粒物(PM10),62,73,42,30,24,75,,102,88,17,9,2,4,0.4,0.5
2025-03-17T2300,2244A,130.2537,47.3416,鹤岗市,哈啤分公司,,35,35,24,21,16,76,,81,74,3,4,13,14,0.3,0.4
2025-03-17T2300,2245A,130.2684,47.3086,鹤岗市,斯达机电,,38,38,27,19,16,79,,86,80,3,6,12,13,0.3,0.3
2025-03-17T2300,2246A,130.3114,47.3388,鹤岗市,东山纸板厂,颗粒物(PM10),55,60,50,26,23,55,,79,63,13,12,20,22,0.5,0.6
2025-03-17T2300,2247A,130.1097,47.3382,鹤岗市,五号水库,,,,,,,,,,,,,,,,
2025-03-17T2300,2263A,127.4833,50.2524,黑河市,交通局,,24,21,22,11,12,76,,91,74,9,9,6,7,0.5,0.5
2025-03-17T2300,2264A,127.5144,50.2341,黑河市,环保局,,38,38,34,23,20,68,,84,74,17,14,5,8,0.4,0.4
2025-03-17T2300,2265A,127.5291,50.2472,黑河市,大黑河岛,,,,,,,5,,7,6,10,11,3,2,,
2025-03-17T2300,1074A,115.6838,37.7541,衡水市,电机北厂,颗粒物(PM10),56,62,62,25,19,59,,98,85,28,16,6,7,0.4,0.4
2025-03-17T2300,1075A,115.6303,37.7316,衡水市,市监测站,,39,39,54,21,14,62,,101,92,27,18,6,7,0.3,0.4
2025-03-17T2300,3188A,115.6683,37.7217,衡水市,市城管局,颗粒物(PM10),53,55,58,30,22,42,,97,84,43,22,1,4,0.4,0.4
2025-03-17T2300,3459A,115.5989,37.5491,衡水市,地表水厂,,35,35,51,11,16,44,,104,85,52,25,7,9,0.4,0.4
2025-03-17T2300,2456A,112.5003,26.9167,衡阳市,原169医院,,29,29,35,18,17,68,,89,81,18,13,10,11,0.3,0.4
2025-03-17T2300,2457A,112.6194,26.9258,衡阳市,衡阳化工总厂,,30,30,46,16,27,91,,122,108,14,12,4,5,0.4,0.5
2025-03-17T2300,2458A,112.6211,26.8956,衡阳市,珠晖区环保局,,30,29,43,20,27,94,,120,109,12,11,6,7,0.4,0.5
2025-03-17T2300,2459A,112.6197,26.8733,衡阳市,市委党校,,32,26,44,18,25,100,,124,114,14,13,10,11,0.5,0.6
2025-03-17T2300,2460A,112.6006,26.8919,衡阳市,市监测站,,32,32,49,20,30,93,,119,108,14,14,7,8,0.5,0.6
2025-03-17T2300,2461A,112.5664,26.9056,衡阳市,真空机电公司,,31,25,45,20,25,99,,118,111,4,8,5,6,0.4,0.3
2025-03-17T2300,3399A,112.6703,26.882,衡阳市,师范学院,,34,34,46,21,30,96,,123,113,14,14,9,9,0.4,0.5
2025-03-17T2300,2608A,103.3772,23.3993,红河哈尼族彝族自治州,污水处理厂,细颗粒物(PM2.5),70,,40,51,35,69,,73,67,8,8,6,6,0.4,0.4
2025-03-17T2300,2609A,103.3861,23.35,红河哈尼族彝族自治州,监测站,细颗粒物(PM2.5),62,53,45,44,30,70,,74,68,12,11,9,8,0.6,0.5
2025-03-17T2300,3038A,103.3758,23.368,红河哈尼族彝族自治州,州图书馆,细颗粒物(PM2.5),57,40,30,40,29,62,,69,63,15,11,6,5,0.4,0.4
2025-03-17T2300,1090A,111.6507,40.7517,呼和浩特市,呼市一监,,25,9,20,8,9,80,,89,86,4,5,8,12,0.3,0.6
2025-03-17T2300,1091A,111.6572,40.8033,呼和浩特市,小召,,27,12,33,9,9,85,,100,94,14,12,2,2,0.4,0.3
2025-03-17T2300,1094A,111.7516,40.8369,呼和浩特市,如意水处理厂,,26,17,20,8,8,83,,91,88,6,7,6,6,0.2,0.2
2025-03-17T2300,1095A,111.7276,40.8062,呼和浩特市,二十九中,,29,14,26,9,8,92,,100,96,3,4,3,3,0.6,0.6
2025-03-17T2300,1096A,111.5512,40.7866,呼和浩特市,工大金川校区,,27,17,29,7,8,84,,96,92,11,8,6,6,0.5,0.5
2025-03-17T2300,1097A,111.717,40.7612,呼和浩特市,化肥厂生活区,,29,17,24,8,8,90,,99,95,9,9,6,9,0.3,0.3
2025-03-17T2300,3698A,111.5968,40.8178,呼和浩特市,红旗小学,,27,9,23,8,8,86,,106,98,14,9,4,4,0.4,0.4
2025-03-17T2300,3699A,111.6518,40.8389,呼和浩特市,海东办,,26,12,22,7,11,81,,94,92,10,8,5,6,0.4,0.5
2025-03-17T2300,2192A,119.7594,49.2261,呼伦贝尔市,区环保局,,36,29,38,25,25,86,,94,91,16,21,6,6,0.4,0.4
2025-03-17T2300,3061A,119.7512,49.1577,呼伦贝尔市,国华电力东,,41,41,38,23,19,88,,102,95,10,9,4,4,0.5,0.5
2025-03-17T2300,1250A,120.0751,30.8669,湖州市,城西水厂,,44,44,39,25,21,34,,98,51,76,53,8,8,0.2,0.3
2025-03-17T2300,2873A,120.0830,30.8929,湖州市,仁皇山新区,,46,45,33,27,20,23,,111,76,91,31,5,6,0.4,0.4
2025-03-17T2300,2907A,120.1844,30.8596,湖州市,吴兴区站,,49,43,35,25,21,5,,104,72,98,31,6,6,0.4,0.3
2025-03-17T2300,3562A,120.4148,30.8538,湖州市,南浔区站,颗粒物(PM10),52,54,36,33,22,50,,108,87,31,18,4,4,0.4,0.3
2025-03-17T2300,1607A,120.9049,40.7211,葫芦岛市,龙港区,,29,29,42,12,27,71,,79,74,13,27,11,15,0.5,0.6
2025-03-17T2300,1608A,120.8392,40.7514,葫芦岛市,化工街,,31,31,51,7,24,73,,86,78,17,35,10,18,0.4,0.5
2025-03-17T2300,1609A,120.8341,40.7073,葫芦岛市,新区,,36,36,44,12,27,79,,91,86,17,37,14,11,0.4,0.6
2025-03-17T2300,1610A,120.8695,40.7677,葫芦岛市,东城区,,28,28,43,11,27,74,,80,78,12,40,13,15,0.4,0.6
2025-03-17T2300,2482A,109.5981,27.5721,怀化市,林科所,,30,30,32,18,19,57,,90,75,7,5,5,7,0.7,0.7
2025-03-17T2300,2483A,109.9453,27.5444,怀化市,河西地税局,,39,34,45,27,30,39,,80,55,11,14,6,7,0.4,0.4
2025-03-17T2300,2484A,109.9781,27.5342,怀化市,市四医院,细颗粒物(PM2.5),52,48,47,36,27,42,,81,66,18,12,3,4,0.2,0.1
2025-03-17T2300,2485A,109.9972,27.5578,怀化市,监测楼,,41,41,42,22,25,41,,76,64,20,10,7,8,0.4,0.2
2025-03-17T2300,2486A,110.0394,27.583,怀化市,市委党校,,38,34,41,26,26,43,,75,58,14,12,1,4,0.4,0.3
2025-03-17T2300,1210A,119.036,33.5981,淮安市,钵池山,颗粒物(PM10),52,53,51,27,25,71,,103,90,22,18,9,10,0.7,0.6
2025-03-17T2300,1211A,119.007,33.575,淮安市,北京南路,颗粒物(PM10),53,56,54,26,28,73,,94,77,21,29,9,12,0.7,0.9
2025-03-17T2300,1212A,118.989,33.6067,淮安市,市监测站,,44,44,53,24,32,77,,104,87,22,28,9,10,0.5,0.5
2025-03-17T2300,1213A,119.135,33.5039,淮安市,楚州区监测站,颗粒物(PM10),51,51,55,25,25,75,,102,87,20,24,7,8,0.7,0.7
2025-03-17T2300,3426A,118.8755,33.2894,淮安市,新华书店,,49,49,45,28,26,75,,104,96,20,13,8,8,0.6,0.5
2025-03-17T2300,4206A,119.0288,33.6319,淮安市,承德北路606号,颗粒物(PM10),54,58,55,31,28,71,,101,86,26,24,8,8,0.5,0.5
2025-03-17T2300,2282A,116.8004,33.975,淮北市,监测站,,50,50,57,24,28,70,,98,91,23,21,7,7,0.8,0.7
2025-03-17T2300,2283A,116.8091,33.9007,淮北市,烈山区政府,颗粒物(PM10),62,74,63,32,33,61,,105,90,36,35,6,7,0.9,0.7
2025-03-17T2300,3330A,116.8873,33.9836,淮北市,杜集区检察院,颗粒物(PM10),69,88,72,27,33,66,,98,86,31,29,6,6,0.5,0.6
2025-03-17T2300,4017A,116.7923,33.9535,淮北市,市博物馆,颗粒物(PM10),58,65,69,26,33,71,,99,88,25,26,10,9,0.7,0.7
2025-03-17T2300,2277A,116.8305,32.7727,淮南市,潘集区政府,颗粒物(PM10),56,62,65,33,36,69,,104,91,36,28,4,4,0.3,0.4
2025-03-17T2300,2279A,116.8569,32.5951,淮南市,谢家集区政府,颗粒物(PM10),53,55,55,23,26,92,,105,97,11,15,6,6,0.3,0.4
2025-03-17T2300,2280A,116.8281,32.633,淮南市,八公山区政府,,34,34,39,13,19,100,,100,98,9,8,3,2,0.2,0.2
2025-03-17T2300,2281A,116.6325,32.6201,淮南市,焦岗湖风景区管理处,,39,39,28,16,21,60,,76,69,7,7,4,10,0.4,0.1
2025-03-17T2300,2894A,117.0566,32.6531,淮南市,经济技术开发区消防队,,44,44,51,27,24,81,,108,99,22,12,7,6,0.3,0.3
2025-03-17T2300,3329A,117.0108,32.5893,淮南市,山南新区,颗粒物(PM10),51,51,50,27,25,59,,108,86,31,15,8,6,0.6,0.5
2025-03-17T2300,4209A,117.0031,32.6445,淮南市,国庆中路369号,细颗粒物(PM2.5),68,71,52,49,32,49,,106,89,51,23,8,6,0.6,0.5
2025-03-17T2300,2446A,114.9028,30.4742,黄冈市,职工中心,,36,33,33,25,26,91,,110,105,22,20,4,5,0.4,0.5
2025-03-17T2300,2929A,114.8858,30.4519,黄冈市,红卫路,,42,42,40,24,26,88,,116,108,24,16,5,6,0.4,0.4
2025-03-17T2300,3398A,114.9136,30.4445,黄冈市,市林业局,,46,46,37,28,29,89,,110,106,19,16,8,8,0.6,0.6
2025-03-17T2300,2672A,102.0199,35.5102,黄南藏族自治州,同仁县隆务镇,细颗粒物(PM2.5),55,57,49,39,24,107,,108,108,4,4,16,14,0.4,0.3
2025-03-17T2300,2295A,118.2903,29.6963,黄山市,延安路89号,,22,,29,15,17,39,,105,76,14,7,3,4,0.2,0.1
2025-03-17T2300,2297A,118.1371,30.2756,黄山市,黄山区政府5号楼,,26,,28,18,18,59,,106,82,4,5,8,8,0.4,0.5
2025-03-17T2300,4210A,118.3354,29.7203,黄山市,滨江东路7-2号,,28,28,34,12,19,43,,103,71,10,8,4,4,0.3,0.3
2025-03-17T2300,2423A,115.0601,30.2313,黄石市,沈家营,,42,42,34,23,17,118,,122,121,13,13,7,7,0.6,0.5
2025-03-17T2300,2426A,114.8988,30.2019,黄石市,铁山,颗粒物(PM10),58,65,40,34,24,46,,115,99,43,15,4,10,0.6,0.9
2025-03-17T2300,2427A,115.0307,30.2092,黄石市,团城山,,47,47,34,21,16,105,,114,112,19,17,11,9,0.8,0.7
2025-03-17T2300,3149A,115.0235,30.1578,黄石市,笔架山北路,,50,50,28,35,18,73,,118,105,36,15,8,8,0.7,0.6
2025-03-17T2300,4185A,115.0780,30.21118,黄石市,磁湖东路29号,,48,48,37,26,22,106,,126,122,16,14,7,7,0.8,0.7
2025-03-17T2300,1392A,114.4183,23.0528,惠州市,河南岸金山湖子站,,48,48,47,27,26,55,,91,77,27,15,8,9,0.6,0.6
2025-03-17T2300,1393A,114.4053,23.0822,惠州市,下埔横江三路子站,颗粒物(PM10),55,60,49,34,28,43,,90,79,37,14,9,9,0.6,0.5
2025-03-17T2300,1394A,114.4103,23.1142,惠州市,江北云山西路子站,颗粒物(PM10),55,59,51,31,27,52,,94,83,37,14,10,10,0.5,0.5
2025-03-17T2300,1395A,114.4645,22.7833,惠州市,惠阳区承修路船湖子站,颗粒物(PM10),59,67,55,33,27,53,,80,68,27,17,11,9,0.6,0.6
2025-03-17T2300,1396A,114.5317,22.7422,惠州市,大亚湾管委会子站,颗粒物(PM10),54,57,48,33,24,62,,86,64,25,22,8,7,0.6,0.5
2025-03-17T2300,3314A,114.4338,22.8134,惠州市,惠阳秋长,颗粒物(PM10),58,66,53,40,29,54,,93,79,28,13,8,7,0.6,0.5
2025-03-17T2300,3452A,114.6517,22.775,惠州市,大亚湾霞涌,,48,48,46,29,28,65,,82,70,16,14,8,6,0.6,0.8
2025-03-17T2300,2240A,130.9762,45.3001,鸡西市,环保局,,19,18,30,8,15,60,,92,83,23,13,5,7,0.4,0.4
2025-03-17T2300,2243A,130.9429,45.3039,鸡西市,第一中学,,22,19,26,11,13,68,,92,83,16,10,7,6,0.4,0.3
2025-03-17T2300,3707A,131.0207,45.3073,鸡西市,欧美日汽修厂,"颗粒物(PM10),细颗粒物(PM2.5)",59,67,56,42,34,44,,98,80,27,18,16,12,1.0,0.6
2025-03-17T2300,3709A,130.9967,45.3106,鸡西市,市政设施管理处,,26,26,35,12,16,42,,89,75,34,20,5,5,0.3,0.3
2025-03-17T2300,2367A,114.9754,27.0803,吉安市,红声器材厂,,42,42,53,18,25,90,,118,113,20,15,11,12,0.5,0.5
2025-03-17T2300,2368A,114.9658,27.0999,吉安市,市森林工业局,,34,34,44,23,26,91,,116,110,19,14,13,12,0.2,0.2
2025-03-17T2300,2369A,114.99,27.1312,吉安市,市环境监测站,,40,38,49,28,30,92,,118,112,18,11,18,17,0.1,0.3
2025-03-17T2300,2370A,115.0093,27.0968,吉安市,青原区法院,,40,40,49,25,29,100,,129,123,19,14,10,11,0.3,0.3
2025-03-17T2300,1772A,126.54,43.8622,吉林市,哈达湾,细颗粒物(PM2.5),196,175,95,147,67,49,,95,77,44,25,26,12,1.3,0.7
2025-03-17T2300,1773A,126.5844,43.8358,吉林市,东局子,细颗粒物(PM2.5),112,118,82,84,51,55,,100,84,33,21,21,13,0.8,0.7
2025-03-17T2300,1774A,126.5052,43.8245,吉林市,电力学院,细颗粒物(PM2.5),147,143,92,112,67,47,,102,79,38,25,25,8,0.9,0.5
2025-03-17T2300,1775A,126.6133,43.8972,吉林市,江北,细颗粒物(PM2.5),118,121,87,89,60,33,,98,78,86,28,5,5,0.8,0.6
2025-03-17T2300,1776A,126.555,43.8306,吉林市,江南公园,细颗粒物(PM2.5),170,158,81,129,66,46,,98,80,43,25,20,8,1.3,0.7
2025-03-17T2300,1778A,126.7061,43.7133,吉林市,丰满,细颗粒物(PM2.5),58,42,49,41,47,91,,111,104,9,9,7,6,0.6,0.6
2025-03-17T2300,2868A,126.4739,43.953,吉林市,九站,细颗粒物(PM2.5),152,134,95,116,76,39,,96,67,44,34,15,14,1.1,0.9
2025-03-17T2300,1299A,116.9862,36.6114,济南市,科干所,,39,39,46,10,13,78,,94,90,15,13,7,7,0.4,0.4
2025-03-17T2300,1300A,116.9376,36.665,济南市,农科所,,46,46,56,7,11,63,,95,87,30,21,8,8,0.7,0.7
2025-03-17T2300,1301A,117.1265,36.6734,济南市,开发区,,42,42,46,12,16,79,,93,89,18,14,7,7,0.4,0.4
2025-03-17T2300,1303A,117.0624,36.6868,济南市,省种子仓库,,41,41,56,9,13,74,,95,89,19,14,5,5,0.6,0.5
2025-03-17T2300,1304A,116.9489,36.6447,济南市,机床二厂,颗粒物(PM10),51,51,59,10,15,75,,101,94,30,19,7,10,0.7,0.6
2025-03-17T2300,1305A,117.0495,36.663,济南市,市监测站,颗粒物(PM10),51,51,53,10,13,71,,89,84,22,16,8,8,0.4,0.4
2025-03-17T2300,1306A,116.7675,36.5484,济南市,长清党校,,42,42,52,3,19,81,,102,98,22,19,4,7,0.5,0.5
2025-03-17T2300,1616A,117.6795,36.229,济南市,技术学院,,44,44,54,14,22,75,,96,90,24,34,9,11,0.6,0.9
2025-03-17T2300,1961A,117.532,36.6868,济南市,东山小学,,49,49,48,10,11,53,,100,89,39,18,7,7,0.6,0.6
2025-03-17T2300,3059A,117.7161,36.2049,济南市,泰兴公司,,48,48,58,17,23,80,,97,92,20,36,8,9,0.7,0.9
2025-03-17T2300,3064A,117.6867,36.2171,济南市,莱芜战役纪念馆,,44,44,59,9,18,81,,97,93,23,34,6,6,0.5,0.6
2025-03-17T2300,3494A,117.1673,36.9782,济南市,济阳区政府,颗粒物(PM10),53,56,59,15,13,58,,88,80,26,21,11,11,0.3,0.2
2025-03-17T2300,3495A,117.1171,36.63,济南市,锦屏中学,,42,42,42,7,10,75,,94,90,19,14,9,9,0.3,0.3
2025-03-17T2300,3682A,116.9814,36.6819,济南市,济南四建,,46,46,51,10,16,72,,93,87,21,17,5,6,0.3,0.3
2025-03-17T2300,1653A,116.6251,35.4302,济宁市,火炬城,颗粒物(PM10),52,53,49,22,29,74,,99,90,22,19,9,12,0.5,0.5
2025-03-17T2300,1655A,116.5491,35.4042,济宁市,电化厂,颗粒物(PM10),68,85,74,19,33,81,,98,93,16,23,9,12,0.6,0.7
2025-03-17T2300,3500A,116.5814,35.3707,济宁市,北湖一中,,44,44,49,9,21,78,,97,92,22,24,9,11,0.4,0.5
2025-03-17T2300,3501A,116.8249,35.5593,济宁市,服务中心,颗粒物(PM10),56,62,64,10,21,83,,99,91,22,38,5,7,0.6,0.7
2025-03-17T2300,3678A,116.5907,35.4054,济宁市,市第七中学,颗粒物(PM10),55,59,57,14,22,80,,101,95,28,25,5,8,0.4,0.5
2025-03-17T2300,2255A,130.2751,46.8028,佳木斯市,佳纺,颗粒物(PM10),62,73,41,33,17,54,,83,51,19,20,4,5,0.5,0.4
2025-03-17T2300,2256A,130.3995,46.8307,佳木斯市,发电厂,,36,36,23,25,15,52,,93,65,10,13,2,3,0.5,0.3
2025-03-17T2300,2257A,130.3258,46.7975,佳木斯市,环保局,颗粒物(PM10),55,60,32,29,13,50,,87,56,30,23,4,3,0.4,0.3
2025-03-17T2300,2258A,130.3648,46.8032,佳木斯市,十一中,,50,50,30,25,18,63,,90,60,20,22,5,5,0.5,0.5
2025-03-17T2300,2259A,130.3794,46.7588,佳木斯市,四丰,,19,19,20,11,10,32,,80,64,33,10,1,1,0.8,0.7
2025-03-17T2300,1252A,120.7436,30.778,嘉兴市,清河小学,颗粒物(PM10),54,58,38,36,24,17,,96,66,85,31,5,5,0.9,0.7
2025-03-17T2300,1253A,120.726,30.7478,嘉兴市,嘉兴学院,颗粒物(PM10),54,58,44,34,26,3,,105,72,44,36,8,9,0.7,0.6
2025-03-17T2300,2872A,120.7846,30.7525,嘉兴市,南湖区残联,,49,49,40,32,24,47,,111,89,61,25,9,9,0.6,0.5
2025-03-17T2300,3407A,120.6916,30.7739,嘉兴市,秀洲住建,颗粒物(PM10),72,93,39,45,34,3,,114,71,91,32,6,6,0.5,0.4
2025-03-17T2300,1945A,98.2908,39.7711,嘉峪关市,气象局,,41,41,68,22,29,62,,107,96,35,23,9,13,0.3,0.4
2025-03-17T2300,2884A,98.2672,39.7978,嘉峪关市,酒钢宾馆,,34,34,82,14,27,90,,100,97,12,21,3,20,0.1,0.4
2025-03-17T2300,3248A,98.2643,39.7724,嘉峪关市,雄关区,颗粒物(PM10),52,53,65,33,30,74,,105,98,29,29,6,8,0.2,0.5
2025-03-17T2300,1383A,113.1064,22.6058,江门市,北街,颗粒物(PM10),56,62,51,37,26,54,,85,68,37,24,3,3,0.5,0.5
2025-03-17T2300,1384A,113.0731,22.5835,江门市,西区,颗粒物(PM10),61,71,55,31,19,58,,88,72,36,23,6,6,0.5,0.4
2025-03-17T2300,1385A,113.0219,22.5311,江门市,圭峰西,颗粒物(PM10),54,57,47,32,25,56,,80,65,32,24,5,5,0.4,0.3
2025-03-17T2300,1386A,113.0828,22.5947,江门市,东湖,颗粒物(PM10),56,61,47,36,27,55,,90,72,29,20,7,7,0.5,0.4
2025-03-17T2300,3311A,113.1075,22.5647,江门市,江海富民,颗粒物(PM10),57,63,47,27,22,54,,82,65,34,23,7,7,0.4,0.3
2025-03-17T2300,3449A,113.05,22.4667,江门市,新会银湖,细颗粒物(PM2.5),67,66,47,48,32,16,,79,48,70,34,1,2,0.5,0.4
2025-03-17T2300,1830A,113.1992,35.2590,焦作市,影视城,,,,44,,18,,,,,,19,,13,,0.7
2025-03-17T2300,3169A,113.2725,35.2067,焦作市,太极体育中心,颗粒物(PM10),68,86,56,24,20,73,,98,92,21,22,11,8,0.5,0.5
2025-03-17T2300,3335A,113.3137,35.2641,焦作市,马村街道办,颗粒物(PM10),56,61,50,18,16,80,,98,94,19,21,7,9,0.4,0.5
2025-03-17T2300,3336A,113.2465,35.2373,焦作市,焦作技师学院,颗粒物(PM10),56,62,49,17,16,83,,103,98,18,20,6,8,0.4,0.5
2025-03-17T2300,3477A,113.1656,35.2539,焦作市,中站许衡医院,,44,44,39,29,22,79,,105,98,27,20,7,9,0.5,0.6
2025-03-17T2300,3981A,113.2449,35.1803,焦作市,原李万街道办,颗粒物(PM10),57,63,51,19,10,83,,105,100,19,20,17,8,0.7,0.5
2025-03-17T2300,4264A,113.2340,35.2190,焦作市,新安路1731号,颗粒物(PM10),56,62,57,21,18,83,,101,95,16,19,9,8,0.4,0.5
2025-03-17T2300,1708A,116.3701,23.5345,揭阳市,新兴,细颗粒物(PM2.5),68,62,42,49,25,70,,80,72,24,18,6,7,0.7,0.7
2025-03-17T2300,1709A,116.3264,23.5443,揭阳市,西马,细颗粒物(PM2.5),79,61,46,58,33,64,,84,76,24,15,11,9,0.7,0.5
2025-03-17T2300,1710A,116.3611,23.5626,揭阳市,东兴,细颗粒物(PM2.5),79,71,53,58,26,70,,73,72,18,17,5,6,0.6,0.6
2025-03-17T2300,1711A,116.4151,23.5294,揭阳市,渔湖,细颗粒物(PM2.5),67,62,45,48,25,73,,82,74,17,12,6,10,0.6,0.5
2025-03-17T2300,3320A,116.403,23.5699,揭阳市,曲溪,细颗粒物(PM2.5),67,61,47,48,26,78,,84,78,24,21,6,7,0.4,0.4
2025-03-17T2300,1944A,102.1692,38.5167,金昌市,天庆家园,细颗粒物(PM2.5),52,40,47,36,26,76,,107,95,12,14,5,10,0.8,0.8
2025-03-17T2300,4022A,102.1647,38.5371,金昌市,金川区人防中心,颗粒物(PM10),53,56,63,23,26,70,,103,89,5,13,8,12,0.6,0.6
2025-03-17T2300,4239A,102.1930,38.5319,金昌市,长春路96号,颗粒物(PM10),66,82,67,25,21,66,,104,89,14,13,7,8,0.5,0.7
2025-03-17T2300,1262A,119.647,29.077,金华市,十五中,,40,40,35,21,20,60,,107,81,29,23,4,5,0.4,0.4
2025-03-17T2300,1263A,119.686,29.1029,金华市,监测站,,34,34,37,23,25,56,,106,78,28,23,5,5,0.4,0.3
2025-03-17T2300,3659A,119.656,29.1131,金华市,气象局,颗粒物(PM10),57,64,39,31,23,2,,108,76,85,32,6,5,0.6,0.4
2025-03-17T2300,1767A,121.1115,41.0879,锦州市,南山,,30,26,41,21,31,78,,87,86,12,27,18,36,0.5,0.6
2025-03-17T2300,1768A,121.0604,40.8428,锦州市,开发区,,42,42,45,13,26,71,,84,78,16,27,19,22,0.5,0.5
2025-03-17T2300,1769A,121.1836,41.1119,锦州市,百股街道,,24,23,53,14,35,75,,87,82,11,32,10,54,0.5,0.8
2025-03-17T2300,1770A,121.1178,41.1222,锦州市,天安街道,,26,25,41,17,29,82,,87,85,9,31,10,45,0.4,0.6
2025-03-17T2300,1771A,121.1303,41.1386,锦州市,北湖公园,,25,21,44,15,27,77,,85,82,12,29,10,22,0.4,0.6
2025-03-17T2300,2160A,112.85,35.5051,晋城市,自来水公司,,37,37,34,3,9,88,,96,92,16,17,11,8,0.4,0.5
2025-03-17T2300,2161A,112.8318,35.4936,晋城市,白云商贸,,34,34,38,3,3,96,,105,101,20,20,12,6,0.4,0.5
2025-03-17T2300,2162A,112.8508,35.4887,晋城市,市环保局,,36,36,36,9,10,89,,98,95,17,19,11,5,0.3,0.3
2025-03-17T2300,2163A,112.8676,35.4897,晋城市,技术学院,,45,45,43,3,8,85,,91,88,10,14,11,7,0.4,0.5
2025-03-17T2300,2165A,112.8453,35.546,晋城市,白马寺,,,,,,,,,,,,,,,,
2025-03-17T2300,3620A,112.8271,35.4828,晋城市,泽州一中,,36,36,34,3,7,93,,97,95,11,15,10,10,0.3,0.4
2025-03-17T2300,2173A,112.7249,37.7067,晋中市,南都小区,颗粒物(PM10),51,51,49,18,24,82,,92,91,18,19,5,21,0.4,0.6
2025-03-17T2300,2174A,112.6991,37.6982,晋中市,榆次区政府,颗粒物(PM10),51,51,50,19,20,87,,93,92,17,23,8,20,0.0,0.3
2025-03-17T2300,2865A,112.7195,37.6828,晋中市,榆次三中,,46,46,49,3,16,92,,94,94,15,24,4,11,0.1,0.4
2025-03-17T2300,4200A,112.7478,37.6954,晋中市,迎宾街26号,颗粒物(PM10),53,56,49,12,17,93,,96,94,13,21,4,12,0.3,0.6
2025-03-17T2300,2439A,112.2014,31.0481,荆门市,竹园小学,颗粒物(PM10),54,58,54,30,28,106,,121,112,14,21,5,5,0.4,0.2
2025-03-17T2300,2440A,112.1969,30.9891,荆门市,掇刀,颗粒物(PM10),57,63,60,33,31,92,,115,101,18,22,5,5,0.3,0.3
2025-03-17T2300,2441A,112.2213,31.0386,荆门市,石化一小,颗粒物(PM10),56,62,70,32,40,85,,108,96,22,37,10,9,0,0.3
2025-03-17T2300,3012A,112.1849,31.0362,荆门市,西山林语,,46,46,44,26,25,95,,117,103,16,14,5,5,0.2,0.2
2025-03-17T2300,3547A,112.1632,31.0138,荆门市,龙泉中学南校,颗粒物(PM10),56,62,54,37,30,86,,110,96,14,13,7,8,0.4,0.4
2025-03-17T2300,1844A,112.2494,30.3197,荆州市,市图书馆,,50,50,48,34,36,82,,115,97,29,27,4,5,0.4,0.5
2025-03-17T2300,1845A,112.2008,30.3544,荆州市,市委党校,颗粒物(PM10),51,52,54,35,37,76,,110,91,32,30,8,7,0.3,0.3
2025-03-17T2300,3194A,112.2747,30.3122,荆州市,管委会,颗粒物(PM10),59,68,56,37,40,84,,121,103,28,25,9,11,0.4,0.3
2025-03-17T2300,4268A,112.1722,30.3366,荆州市,学苑路85号,细颗粒物(PM2.5),58,55,49,41,36,82,,116,93,19,20,5,6,0.5,0.5
2025-03-17T2300,2342A,117.3102,29.3867,景德镇市,王港中学,,,,,,,,,,,,,,,,
2025-03-17T2300,2343A,117.2117,29.2933,景德镇市,老干部活动中心,,49,43,28,34,23,48,,106,88,48,14,20,7,0.5,0.3
2025-03-17T2300,2344A,117.1894,29.2789,景德镇市,兽医站,颗粒物(PM10),52,54,38,29,17,48,,93,81,59,16,28,6,0.6,0.4
2025-03-17T2300,2345A,117.1547,29.2617,景德镇市,台达陶瓷,,45,45,39,25,21,56,,98,83,40,25,64,48,0.6,0.6
2025-03-17T2300,2346A,117.2461,29.2956,景德镇市,陶研所,,45,41,29,31,25,51,,107,82,27,15,18,8,0.7,0.5
2025-03-17T2300,1803A,115.9872,29.6815,九江市,十里,,50,50,30,33,19,61,,104,86,40,24,3,4,0.6,0.5
2025-03-17T2300,1804A,115.9584,29.7046,九江市,茅山头,"颗粒物(PM10),细颗粒物(PM2.5)",57,63,36,40,21,56,,101,80,49,26,6,8,0.4,0.3
2025-03-17T2300,1805A,115.9877,29.7295,九江市,西园,颗粒物(PM10),51,51,29,32,17,68,,105,93,49,26,23,10,0.5,0.4
2025-03-17T2300,1808A,115.9114,29.6038,九江市,综合工业园,颗粒物(PM10),62,73,28,42,24,52,,108,85,106,38,19,9,0.6,0.5
2025-03-17T2300,1809A,116.0721,29.7535,九江市,石化总厂,细颗粒物(PM2.5),58,52,35,41,27,66,,105,88,50,31,7,8,0.6,0.5
2025-03-17T2300,1810A,115.9773,29.5698,九江市,庐山气象台,,41,41,30,25,25,105,,103,103,7,6,7,7,0.7,0.7
2025-03-17T2300,3190A,116.0254,29.6994,九江市,外国语学校,,46,46,29,30,21,59,,90,82,54,22,10,12,0.6,0.5
2025-03-17T2300,4253A,116.0102,29.6594,九江市,莲花大道8号,,49,49,37,27,23,80,,97,86,18,15,8,8,0.5,0.4
2025-03-17T2300,4240A,98.4958,39.7339,酒泉市,玉门东路5号,颗粒物(PM10),54,58,72,37,32,84,,111,102,13,12,8,11,0.6,0.5
2025-03-17T2300,4241A,98.5099,39.7506,酒泉市,北大街108号,,43,41,70,30,30,78,,96,87,12,17,8,12,0.4,0.5
2025-03-17T2300,2698A,76.0072,39.4467,喀什地区,巡警大队,颗粒物(PM10),497,597,530,159,140,44,,88,78,56,50,5,5,0.8,1.2
2025-03-17T2300,2699A,75.9755,39.4694,喀什地区,吾办,颗粒物(PM10),485,585,511,186,153,24,,90,78,70,45,6,3,1.3,1.1
2025-03-17T2300,4027A,75.9483,39.4689,喀什地区,老干局,颗粒物(PM10),500,608,558,156,133,40,,92,85,57,47,6,4,1.0,1.3
2025-03-17T2300,1824A,114.3389,34.7781,开封市,肿瘤医院,颗粒物(PM10),56,62,59,29,22,71,,93,,21,25,7,7,0.7,0.7
2025-03-17T2300,1826A,114.2885,34.7965,开封市,世纪星幼儿园,颗粒物(PM10),56,61,52,21,20,85,,108,92,22,27,9,8,0.7,0.7
2025-03-17T2300,3147A,114.3438,34.8106,开封市,龙亭公园,颗粒物(PM10),58,65,52,23,19,70,,103,88,29,28,5,5,0.6,0.5
2025-03-17T2300,3210A,114.3644,34.7964,开封市,汴京公园,颗粒物(PM10),58,65,59,22,20,68,,107,88,26,24,6,6,0.5,0.6
2025-03-17T2300,3473A,114.2485,34.8306,开封市,技师学院,,,,67,,18,,,65,,,39,,7,,0.6
2025-03-17T2300,3592A,114.4644,34.7556,开封市,祥符区生态环境局,颗粒物(PM10),73,95,67,27,24,61,,103,80,34,33,13,6,1.5,0.6
2025-03-17T2300,1951A,84.895,45.6094,克拉玛依市,长征新村,颗粒物(PM10),53,56,43,31,16,50,,94,87,47,22,7,7,0.5,0.3
2025-03-17T2300,1952A,84.8988,45.5893,克拉玛依市,南林小区,,44,44,42,19,17,50,,92,85,32,15,3,4,0.7,0.7
2025-03-17T2300,1954A,84.905,44.3396,克拉玛依市,独山子区,细颗粒物(PM2.5),83,105,55,61,28,74,,110,103,24,14,8,8,0.5,0.4
2025-03-17T2300,1955A,85.6979,46.098,克拉玛依市,乌尔禾区商贸楼,颗粒物(PM10),54,57,38,21,12,96,,99,99,10,10,5,5,0.5,0.5
2025-03-17T2300,3612A,85.1045,45.6899,克拉玛依市,白碱滩区新站,,30,30,40,11,13,78,,90,86,17,16,8,8,0.5,0.5
2025-03-17T2300,2697A,76.1454,39.7142,克孜勒苏柯尔克孜自治州,市人民政府,颗粒物(PM10),483,583,488,169,131,53,,104,96,42,12,6,4,0.6,0.5
2025-03-17T2300,3665A,76.1658,39.7157,克孜勒苏柯尔克孜自治州,克州文化中心,颗粒物(PM10),500,657,537,162,148,61,,101,95,39,17,5,4,0.7,0.4
2025-03-17T2300,1450A,102.8204,24.8886,昆明市,呈贡新区,,13,12,24,3,22,41,,59,41,16,13,5,4,0.6,0.7
2025-03-17T2300,1451A,102.6251,24.9608,昆明市,西山森林公园,,,,,,,,,,,,,,,,
2025-03-17T2300,1452A,102.7252,25.0902,昆明市,龙泉镇,,29,29,28,8,19,32,,47,39,14,17,6,6,0.6,0.6
2025-03-17T2300,1453A,102.7266,25.0375,昆明市,东风东路,,10,8,28,3,18,30,,43,37,16,24,7,6,0.5,0.6
2025-03-17T2300,1454A,102.6742,25.0669,昆明市,金鼎山,,21,21,35,8,18,31,,43,39,16,24,4,6,0.8,0.8
2025-03-17T2300,1455A,102.6644,25.0401,昆明市,碧鸡广场,,22,15,29,15,24,32,,46,42,18,26,6,5,0.5,0.5
2025-03-17T2300,3179A,102.7494,25.0119,昆明市,官渡区博物馆,,19,19,31,3,19,28,,40,33,19,24,7,7,0.6,0.7
2025-03-17T2300,3375A,102.8017,24.8336,昆明市,青年创业园,,12,11,27,7,20,36,,73,53,15,12,6,6,0.4,0.5
2025-03-17T2300,3550A,102.7997,24.9786,昆明市,昆明学院,,11,10,25,3,15,25,,45,39,21,18,4,4,0.5,0.5
2025-03-17T2300,3551A,102.5967,24.6736,昆明市,晋宁区生态环境分局,,35,34,38,24,31,46,,97,79,14,14,4,6,0.5,0.6
2025-03-17T2300,3552A,102.6678,24.9856,昆明市,云天化总部,,11,11,28,6,17,33,,54,41,22,23,5,6,0.7,0.6
2025-03-17T2300,1456A,91.1319,29.6514,拉萨市,八廓街,,28,27,17,11,7,89,,134,125,38,10,6,6,0.8,0.5
2025-03-17T2300,1457A,91.1221,29.6747,拉萨市,市环保局,,42,42,20,17,7,70,,126,114,38,14,10,8,1.1,0.6
2025-03-17T2300,1458A,91.0874,29.6475,拉萨市,区监测站,,38,38,17,11,7,113,,128,124,21,10,6,6,0.2,0.2
2025-03-17T2300,1459A,91.1774,29.6541,拉萨市,西藏大学,,29,27,18,9,8,91,,123,118,33,12,8,6,0.6,0.4
2025-03-17T2300,1460A,90.9798,29.6588,拉萨市,区辐射站,,38,38,26,16,10,92,,126,117,33,16,8,7,0.6,0.5
2025-03-17T2300,1461A,91.0834,29.6292,拉萨市,拉萨火车站,,41,23,17,7,7,129,,130,130,6,4,2,3,0.2,0.3
2025-03-17T2300,2520A,109.2203,23.7256,来宾市,来宾技工学校,颗粒物(PM10),53,56,54,31,33,74,,100,90,12,14,7,8,0.8,0.7
2025-03-17T2300,3535A,109.1781,23.7297,来宾市,兴宾区政府,细颗粒物(PM2.5),63,64,58,45,36,73,,98,90,10,10,8,8,0.6,0.6
2025-03-17T2300,4002A,109.2416,23.7461,来宾市,中南小学,颗粒物(PM10),54,57,56,33,30,74,,99,86,9,12,9,10,0.6,0.5
2025-03-17T2300,1477A,104.1373,35.9454,兰州市,榆中兰大校区,,,,,,,,,,,,,,,,
2025-03-17T2300,1479A,103.831,36.0464,兰州市,铁路设计院,,33,33,54,18,24,72,,105,92,35,48,6,17,0.5,0.9
2025-03-17T2300,3241A,103.7439,36.0842,兰州市,百合公园,,42,42,54,16,28,80,,101,97,14,30,5,12,0.6,0.8
2025-03-17T2300,3242A,103.9611,35.998,兰州市,和平,,50,50,56,26,27,63,,104,93,26,20,8,14,0.4,0.5
2025-03-17T2300,4236A,103.6293,36.0938,兰州市,庄浪东路808号,,42,42,58,25,35,66,,104,96,30,28,4,11,0.3,0.5
2025-03-17T2300,4237A,103.7251,36.1043,兰州市,安宁西路88号,,47,47,63,30,38,98,,111,110,6,24,3,13,0.3,0.5
2025-03-17T2300,4238A,103.8470,36.0676,兰州市,北滨河东路1号,,46,40,51,32,34,39,,106,91,64,42,9,18,0.6,0.7
2025-03-17T2300,3245A,103.6633,36.533,兰州新区,新区管委会,,37,37,47,21,27,84,,108,102,12,16,24,21,0.4,0.5
2025-03-17T2300,3246A,103.6975,36.4789,兰州新区,舟曲中学,,29,24,57,8,22,90,,107,99,5,19,2,17,0.3,0.5
2025-03-17T2300,1067A,116.6708,39.5111,廊坊市,药材公司,,24,22,41,11,16,75,,85,83,10,20,3,3,0.3,0.3
2025-03-17T2300,1068A,116.7214,39.5589,廊坊市,开发区,,25,21,37,11,16,79,,98,90,12,9,1,2,0.3,0.3
2025-03-17T2300,1070A,116.7244,39.5269,廊坊市,北华航天学院,,24,23,36,3,12,74,,93,86,14,22,2,4,0.2,0.3
2025-03-17T2300,2919A,116.7022,39.5453,廊坊市,河北工业大学,,25,22,35,10,16,80,,96,89,8,19,4,5,0.3,0.3
2025-03-17T2300,2535A,103.7723,29.5462,乐山市,花湖湾,,32,31,27,22,19,27,,60,47,23,16,4,4,0.4,0.3
2025-03-17T2300,2536A,103.7627,29.5844,乐山市,牛耳桥,,39,32,31,27,22,29,,55,42,30,22,8,7,0.5,0.4
2025-03-17T2300,2537A,103.7508,29.6006,乐山市,市第三水厂,,33,30,28,23,20,33,,60,46,20,17,3,3,0.5,0.5
2025-03-17T2300,2538A,103.7571,29.5664,乐山市,市监测站,,33,29,26,23,21,32,,61,48,19,14,5,5,0.7,0.6
2025-03-17T2300,3361A,103.7311,29.5628,乐山市,理工大学,,35,28,28,24,20,32,,62,50,24,24,8,8,0.3,0.3
2025-03-17T2300,2598A,100.2143,26.8576,丽江市,西南郊,,,,19,,10,,,105,,,5,,16,,1.2
2025-03-17T2300,2599A,100.2497,26.8802,丽江市,丽江古城,,27,18,19,11,13,84,,100,94,11,12,8,8,0.8,0.7
2025-03-17T2300,2600A,100.2203,26.8906,丽江市,市中心,,27,9,9,3,10,86,,98,92,9,11,6,7,0.6,0.5
2025-03-17T2300,1267A,119.914,28.4514,丽水市,监测站大楼,,29,29,33,16,17,61,,112,97,27,14,4,4,0.1,0.1
2025-03-17T2300,1268A,119.93,28.4586,丽水市,莲都小学,,26,26,34,16,20,66,,115,101,22,12,4,4,0.2,0.2
2025-03-17T2300,1269A,119.879,28.4231,丽水市,余庄前,,23,23,31,15,21,58,,114,89,18,11,4,4,0.2,0.2
2025-03-17T2300,1173A,119.176,34.5885,连云港市,市环境监测站,,46,46,55,14,24,87,,105,94,15,24,9,13,0.5,0.6
2025-03-17T2300,3000A,119.3581,34.6972,连云港市,德源药业,,44,44,56,12,25,82,,99,90,16,33,9,10,0.3,0.4
2025-03-17T2300,3007A,119.178,34.844,连云港市,新城一中,,49,49,60,20,32,47,,98,79,51,31,11,12,0.7,0.7
2025-03-17T2300,3008A,119.3608,34.7519,连云港市,胡沟管理处,,31,31,44,9,22,88,,102,96,14,28,9,13,0.6,0.7
2025-03-17T2300,3009A,119.1478,34.5911,连云港市,矿山设计院,颗粒物(PM10),51,51,58,14,26,85,,102,90,15,27,10,15,0.4,0.5
2025-03-17T2300,3434A,119.2413,34.6539,连云港市,工贸学校,,40,40,52,18,28,83,,100,91,16,22,9,12,0.4,0.5
2025-03-17T2300,3664A,119.4172,34.7341,连云港市,连云街道,,41,41,47,17,21,79,,99,87,23,18,6,9,0.5,0.6
2025-03-17T2300,2571A,102.3431,27.8099,凉山彝族自治州,青龙寺,,10,10,10,6,6,26,,50,37,5,5,5,5,0.6,0.8
2025-03-17T2300,2572A,102.2721,27.8415,凉山彝族自治州,邛海宾馆,,16,11,9,9,6,50,,57,49,10,10,14,12,0.5,0.5
2025-03-17T2300,2573A,102.2625,27.898,凉山彝族自治州,西昌市政府,,24,11,12,6,10,76,,55,55,4,9,6,6,0.3,0.5
2025-03-17T2300,2574A,102.2685,27.8851,凉山彝族自治州,凉山州政府,,21,10,12,7,9,65,,55,55,6,10,5,5,0.5,0.7
2025-03-17T2300,4229A,102.2342,27.8859,凉山彝族自治州,凯乐南路30号,,24,8,11,3,6,76,,55,55,3,11,6,7,0.2,0.4
2025-03-17T2300,2212A,123.2,41.1953,辽阳市,宏伟区,细颗粒物(PM2.5),82,69,53,60,39,80,,99,92,22,18,19,15,0.7,0.8
2025-03-17T2300,2213A,123.1683,41.2495,辽阳市,新华园,细颗粒物(PM2.5),85,75,66,63,47,69,,88,79,31,30,14,24,0.7,1
2025-03-17T2300,2214A,123.2354,41.2639,辽阳市,滨河路,细颗粒物(PM2.5),87,74,59,64,45,58,,95,83,30,21,9,16,0.7,0.7
2025-03-17T2300,2215A,123.149,41.2991,辽阳市,铁西工业园,细颗粒物(PM2.5),102,92,79,76,55,40,,88,70,39,35,10,13,0.8,1
2025-03-17T2300,2227A,125.1358,42.8845,辽源市,环保局,颗粒物(PM10),63,76,96,42,57,79,,105,94,14,17,4,4,0.8,0.9
2025-03-17T2300,3239A,125.0764,42.9078,辽源市,银鹰制药,细颗粒物(PM2.5),67,55,76,48,59,69,,110,88,20,25,6,8,0.8,0.8
2025-03-17T2300,1625A,115.9848,36.4372,聊城市,区政府,颗粒物(PM10),54,58,65,11,23,78,,97,93,20,23,7,9,0.4,0.5
2025-03-17T2300,2878A,116.0072,36.4343,聊城市,聊大东校,,,,62,,29,,,60,,,23,,11,,0.6
2025-03-17T2300,3200A,115.9819,36.4978,聊城市,监控中心,颗粒物(PM10),57,64,62,9,21,73,,94,88,18,20,11,13,0.5,0.6
2025-03-17T2300,3513A,116.0445,36.4361,聊城市,九州社区,颗粒物(PM10),58,65,66,6,22,70,,98,90,14,16,6,11,0.4,0.5
2025-03-17T2300,4018A,116.0567,36.4608,聊城市,星美广场,颗粒物(PM10),55,60,65,8,19,67,,91,83,19,17,9,12,0.4,0.4
2025-03-17T2300,2632A,94.3681,29.6376,林芝市,林芝监测站,,30,12,15,6,7,93,,97,96,4,6,4,4,0.3,0.3
2025-03-17T2300,2633A,94.3616,29.6616,林芝市,林芝人民医院,,28,8,13,3,5,88,,93,91,2,3,7,7,0.3,0.3
2025-03-17T2300,2603A,100.0781,23.8982,临沧市,市环保局,细颗粒物(PM2.5),74,74,74,54,47,106,,132,126,14,16,9,10,0.6,0.7
2025-03-17T2300,2604A,100.0894,23.8822,临沧市,市气象局,细颗粒物(PM2.5),60,62,74,43,46,107,,138,129,15,21,9,9,0.5,0.5
2025-03-17T2300,1733A,111.5531,36.0783,临汾市,临钢医院,,36,36,42,6,14,89,,101,97,5,15,3,6,0.3,0.5
2025-03-17T2300,1734A,111.5028,36.0714,临汾市,技工学校,,30,30,38,15,18,80,,96,94,13,21,5,10,0.3,0.5
2025-03-17T2300,1736A,111.5018,36.0855,临汾市,市委,颗粒物(PM10),53,56,45,3,15,80,,97,94,14,19,1,6,0.3,0.5
2025-03-17T2300,3018A,111.505,36.1014,临汾市,唐尧大酒店,颗粒物(PM10),51,52,53,3,13,72,,96,92,19,20,5,8,0.4,0.5
2025-03-17T2300,4244A,111.4879,36.0530,临汾市,启星学校,,42,42,38,18,20,84,,95,92,10,19,2,7,0.4,0.5
2025-03-17T2300,4271A,103.2464,35.6123,临夏回族自治州,滨河东路1号,颗粒物(PM10),86,122,69,14,15,18,,108,88,63,19,3,4,1.1,0.7
2025-03-17T2300,4310A,103.2093,35.5995,临夏回族自治州,新华街21号,颗粒物(PM10),55,60,63,20,17,77,,104,95,16,20,16,12,0.5,0.8
2025-03-17T2300,1618A,118.3429,35.0532,临沂市,沂河小区,颗粒物(PM10),58,66,68,15,31,79,,91,84,11,27,5,14,0.4,0.6
2025-03-17T2300,1619A,118.295,35.0583,临沂市,鲁南制药厂,颗粒物(PM10),57,63,69,16,30,83,,98,90,20,39,7,13,0.6,0.8
2025-03-17T2300,1620A,118.2794,34.9976,临沂市,新光毛纺厂,颗粒物(PM10),53,56,60,18,29,79,,94,87,19,32,6,13,0.5,0.7
2025-03-17T2300,1621A,118.3956,35.0888,临沂市,河东保险公司,颗粒物(PM10),56,61,57,11,25,81,,100,90,24,32,4,7,0.2,0.3
2025-03-17T2300,3370A,118.3564,35.0215,临沂市,十里堡居委,颗粒物(PM10),57,63,64,9,27,82,,100,91,16,34,8,15,0.4,0.6
2025-03-17T2300,3496A,118.3604,35.1084,临沂市,南坊新区,颗粒物(PM10),57,63,62,14,27,80,,97,88,15,28,5,8,0.4,0.6
2025-03-17T2300,3860A,118.3920,35.0300,临沂市,皇山花园小区,颗粒物(PM10),62,73,65,13,29,78,,98,88,16,30,4,11,0.2,0.4
2025-03-17T2300,1870A,109.4856,24.3895,柳州市,柳东小学,,46,34,48,32,30,70,,90,78,12,13,9,10,0.3,0.3
2025-03-17T2300,1871A,109.4157,24.3277,柳州市,环保监测站,,39,35,53,27,29,73,,93,82,10,11,10,10,0.4,0.4
2025-03-17T2300,1872A,109.389,24.341,柳州市,河西水厂,,42,42,52,23,29,56,,90,76,29,13,18,5,1.9,0.6
2025-03-17T2300,1873A,109.4311,24.2921,柳州市,市四中,,32,26,48,22,24,75,,98,87,11,11,8,9,0.4,0.4
2025-03-17T2300,1874A,109.4006,24.3631,柳州市,市九中,,40,28,53,28,31,68,,93,78,14,11,9,8,0.5,0.5
2025-03-17T2300,1875A,109.4958,24.3134,柳州市,古亭山,,35,35,47,24,24,72,,97,84,8,9,7,8,0.3,0.3
2025-03-17T2300,3402A,109.5422,24.3996,柳州市,市二中,,42,42,39,26,29,62,,99,84,24,14,10,10,0.3,0.3
2025-03-17T2300,2307A,116.5079,31.737,六安市,监测大楼,,36,36,32,20,17,93,,107,103,19,20,5,4,0.5,0.5
2025-03-17T2300,2308A,116.4738,31.7643,六安市,皖西学院,颗粒物(PM10),51,51,39,20,18,86,,110,100,21,18,4,4,0.4,0.3
2025-03-17T2300,2309A,116.4996,31.7905,六安市,朝阳厂,,33,33,35,19,18,88,,111,,19,16,3,3,0.5,0.5
2025-03-17T2300,2310A,116.5567,31.7886,六安市,开发区,,44,44,43,22,24,86,,110,98,23,22,4,4,0.4,0.4
2025-03-17T2300,2576A,104.8,26.5892,六盘水市,窑上,,,,20,17,16,73,,62,62,5,9,5,5,0.4,0.5
2025-03-17T2300,2577A,104.83,26.5917,六盘水市,黄土坡,,25,6,11,3,8,77,,62,62,8,14,12,10,0.4,0.5
2025-03-17T2300,2578A,104.89,26.5939,六盘水市,水钢,,19,16,14,6,8,59,,52,50,25,16,10,9,0.5,0.5
2025-03-17T2300,2579A,104.8475,26.5894,六盘水市,民中,,22,6,13,3,5,70,,54,51,10,16,7,8,0.3,0.4
2025-03-17T2300,2580A,104.9544,26.5506,六盘水市,双水,,21,12,6,3,7,67,,61,59,12,10,10,9,0.5,0.5
2025-03-17T2300,2335A,117.0189,25.1181,龙岩市,龙岩师专,,,,,,,,,,,,,,,,
2025-03-17T2300,2336A,117.0217,25.1033,龙岩市,龙岩市监测站,颗粒物(PM10),51,51,42,27,27,46,,98,82,35,14,19,8,0.5,0.4
2025-03-17T2300,2337A,117.0258,25.0661,龙岩市,闽西职业技术学院,颗粒物(PM10),54,58,44,34,24,49,,100,77,35,15,30,9,0.5,0.4
2025-03-17T2300,2338A,117.0196,25.0306,龙岩市,龙岩学院,,33,33,42,23,31,55,,97,81,10,9,3,3,0.5,0.5
2025-03-17T2300,2665A,105.0822,33.3261,陇南市,汉王镇固水子,,,,,,,,,,,,,,,,
2025-03-17T2300,2885A,104.9339,33.3826,陇南市,滨江中学,细颗粒物(PM2.5),57,62,59,40,26,40,,75,69,36,19,9,8,1.1,0.6
2025-03-17T2300,3247A,104.955,33.371,陇南市,市总工会,颗粒物(PM10),54,57,55,22,24,55,,84,80,23,11,8,8,0.6,0.6
2025-03-17T2300,2487A,111.9589,27.8901,娄底市,电视发射台,,39,32,46,27,26,56,,108,80,10,8,6,6,0.8,0.7
2025-03-17T2300,2488A,111.9975,27.725,娄底市,市监测站,,50,50,51,35,32,82,,107,97,14,15,9,9,0.6,0.6
2025-03-17T2300,2489A,112.0194,27.7314,娄底市,市委党校,细颗粒物(PM2.5),57,49,55,40,33,94,,113,105,14,14,4,4,0.7,0.6
2025-03-17T2300,2490A,111.9561,27.7569,娄底市,涟钢,细颗粒物(PM2.5),63,71,54,45,30,72,,111,98,20,10,8,6,0.7,0.7
2025-03-17T2300,2491A,111.9892,27.7044,娄底市,市政府,细颗粒物(PM2.5),58,47,52,41,33,86,,111,99,5,9,6,8,0.4,0.4
2025-03-17T2300,1893A,105.4324,28.9634,泸州市,九狮山,,,,,,,,,,,,,,,,
2025-03-17T2300,1894A,105.4427,28.9063,泸州市,小市上码头,,16,14,10,11,9,42,,66,52,24,17,5,5,0.4,0.4
2025-03-17T2300,1895A,105.4241,28.8573,泸州市,兰田宪桥,,18,13,11,12,11,36,,58,41,16,15,5,5,0.4,0.4
2025-03-17T2300,1896A,105.4379,28.8833,泸州市,市环监站,,,,,,,,,,,,,,,,
2025-03-17T2300,4272A,105.3689,28.7783,泸州市,纳溪中医医院,,20,18,14,14,9,39,,63,48,20,11,5,4,0.4,0.3
2025-03-17T2300,2183A,111.1406,37.5211,吕梁市,环保局,,37,37,57,13,16,91,,97,97,8,27,1,2,0.2,0.3
2025-03-17T2300,2185A,111.1297,37.5136,吕梁市,自来水公司,,34,34,62,15,18,83,,89,89,10,26,1,5,0.3,0.4
2025-03-17T2300,2867A,111.1283,37.51,吕梁市,马茂庄小学,颗粒物(PM10),63,76,65,6,14,84,,97,90,15,32,1,3,0.2,0.3
2025-03-17T2300,1812A,112.3931,34.6516,洛阳市,市委党校,,43,43,37,18,15,78,,97,94,20,15,5,5,0.4,0.3
2025-03-17T2300,1815A,112.494,34.6886,洛阳市,河南林校,颗粒物(PM10),57,63,48,33,19,63,,99,91,27,15,12,7,0.7,0.6
2025-03-17T2300,1816A,112.3844,34.623,洛阳市,开发区管委会,,42,42,33,23,16,87,,100,98,15,17,6,5,0.3,0.4
2025-03-17T2300,1817A,112.4267,34.6258,洛阳市,市委新办公区,,47,47,35,23,17,89,,107,104,19,16,6,5,0.3,0.3
2025-03-17T2300,3340A,112.6005,34.6326,洛阳市,伊滨,,46,46,37,30,23,89,,109,105,24,15,10,5,0.7,0.6
2025-03-17T2300,3341A,112.4951,34.6332,洛阳市,中移产业园,颗粒物(PM10),54,57,47,37,31,86,,100,97,20,16,7,7,0.3,0.2
2025-03-17T2300,3593A,112.5736,34.8993,洛阳市,吉利监测站,,26,26,33,9,14,65,,101,86,28,16,5,6,0.4,0.4
2025-03-17T2300,3635A,112.3677,34.662,洛阳市,河科大西苑校区,,48,48,39,22,17,79,,99,94,17,14,7,8,0.4,0.4
2025-03-17T2300,3636A,112.4388,34.6781,洛阳市,英才小学,颗粒物(PM10),58,65,43,28,18,62,,102,93,44,22,34,12,0.7,0.4
2025-03-17T2300,4214A,112.4600,34.6949,洛阳市,春都路1号院,颗粒物(PM10),62,73,58,27,19,72,,103,96,35,22,16,12,0.6,0.5
2025-03-17T2300,2399A,114.051,33.5699,漯河市,三五一五工厂,,37,37,47,25,23,80,,104,95,18,14,4,4,0.4,0.5
2025-03-17T2300,2400A,114.0055,33.5698,漯河市,漯河大学,,43,43,50,17,21,58,,103,89,35,20,5,6,0.3,0.3
2025-03-17T2300,2401A,114.0138,33.5828,漯河市,市水利局,,34,34,44,22,21,78,,102,94,17,12,3,4,0.5,0.5
2025-03-17T2300,2402A,114.0261,33.5698,漯河市,市广电局,,39,39,42,19,21,76,,104,94,18,13,4,5,0.3,0.3
2025-03-17T2300,3478A,113.9749,33.5664,漯河市,市图书馆,,42,42,44,23,22,70,,105,94,25,18,5,5,0.4,0.4
2025-03-17T2300,4250A,114.0892,33.5882,漯河市,韶山路11号,,41,41,48,18,22,86,,110,102,21,17,4,5,0.5,0.4
2025-03-17T2300,1798A,118.5092,31.6837,马鞍山市,湖东路四小,,39,39,35,22,18,89,,112,104,23,22,9,7,0.5,0.5
2025-03-17T2300,1799A,118.5024,31.6449,马鞍山市,开发区,,46,46,42,25,21,63,,101,79,41,40,6,5,0.6,0.5
2025-03-17T2300,1802A,118.6245,31.7241,马鞍山市,濮塘,,38,38,37,26,24,89,,117,109,20,18,14,9,0.8,0.6
2025-03-17T2300,3633A,118.4918,31.6809,马鞍山市,雨山,,43,43,39,25,21,80,,110,101,28,26,10,10,0.6,0.7
2025-03-17T2300,4191A,118.5274,31.72227,马鞍山市,慈湖高新区,颗粒物(PM10),52,53,47,30,27,42,,105,86,73,38,32,12,3.7,0.9
2025-03-17T2300,1686A,111.0286,21.4688,茂名市,电白南海,颗粒物(PM10),56,61,51,36,28,69,,90,76,11,9,13,4,0.8,0.7
2025-03-17T2300,1687A,110.9294,21.6533,茂名市,茂石化七小,颗粒物(PM10),52,53,43,31,23,75,,96,82,11,8,26,8,0.5,0.5
2025-03-17T2300,1688A,110.9107,21.6687,茂名市,健康路,颗粒物(PM10),53,56,39,27,23,70,,90,80,18,12,28,14,0.4,0.4
2025-03-17T2300,1689A,110.8592,21.6828,茂名市,高岭,颗粒物(PM10),63,75,53,36,23,55,,81,69,16,11,23,11,0.4,0.4
2025-03-17T2300,3450A,111.01,21.5165,茂名市,电白水东,颗粒物(PM10),52,53,45,27,23,67,,84,73,14,12,12,6,0.8,0.9
2025-03-17T2300,2539A,104.0308,30.0478,眉山市,黑龙滩水库,,33,33,37,21,23,48,,67,59,3,4,3,3,0.5,0.5
2025-03-17T2300,2540A,103.8416,30.0874,眉山市,气象局,,35,34,37,24,25,42,,73,64,28,19,6,6,0.5,0.4
2025-03-17T2300,3137A,103.8578,30.0744,眉山市,市委党校,,35,,28,24,23,42,,68,60,22,24,7,7,0.6,0.6
2025-03-17T2300,3148A,103.8291,30.0564,眉山市,区人社局,,43,43,38,22,22,44,,68,60,32,27,6,7,0.4,0.4
2025-03-17T2300,1690A,116.1231,24.3284,梅州市,梅江月梅,,48,48,46,25,29,42,,94,80,26,16,10,11,0.5,0.5
2025-03-17T2300,1691A,116.0797,24.2719,梅州市,梅县新城,,47,47,48,27,28,39,,92,75,38,19,6,6,0.7,0.6
2025-03-17T2300,1692A,116.1248,24.2654,梅州市,环境监控中心,,36,34,43,25,24,39,,88,72,38,22,8,8,0.5,0.4
2025-03-17T2300,3315A,116.1233,24.2991,梅州市,梅龙,,48,48,47,32,28,38,,94,78,37,17,7,7,1.0,0.8
2025-03-17T2300,1878A,104.7778,31.4741,绵阳市,富乐山,细颗粒物(PM2.5),57,61,50,40,28,27,,49,46,30,29,2,2,0.5,0.5
2025-03-17T2300,1880A,104.6697,31.4668,绵阳市,高新区自来水公司,细颗粒物(PM2.5),62,72,64,44,32,19,,46,40,42,34,3,5,0.4,0.4
2025-03-17T2300,1881A,104.7287,31.5075,绵阳市,三水厂,颗粒物(PM10),63,76,59,42,32,22,,50,44,43,34,5,6,0.6,0.6
2025-03-17T2300,3491A,104.69,31.5322,绵阳市,西科大附属小学,颗粒物(PM10),62,74,60,42,29,22,,54,47,49,32,7,7,0.6,0.6
2025-03-17T2300,3492A,104.5648,31.5343,绵阳市,安州区旅游局,"颗粒物(PM10),细颗粒物(PM2.5)",52,54,51,36,31,34,,51,47,29,22,9,10,0.4,0.4
2025-03-17T2300,4226A,104.7651,31.4531,绵阳市,绵阳市气象局,"颗粒物(PM10),细颗粒物(PM2.5)",58,66,58,41,31,28,,43,41,27,33,5,6,0.5,0.6
2025-03-17T2300,1784A,129.61,44.561,牡丹江市,环保大楼,,48,41,30,33,24,52,,84,70,24,15,7,6,0.4,0.3
2025-03-17T2300,1785A,129.6115,44.5782,牡丹江市,文化广场,,42,38,28,29,24,48,,86,77,32,14,12,10,0.5,0.3
2025-03-17T2300,1786A,129.5904,44.5963,牡丹江市,第一医院,,43,,30,30,22,63,,89,83,20,14,8,9,0.2,0.2
2025-03-17T2300,1787A,129.6364,44.6075,牡丹江市,机车工厂,颗粒物(PM10),75,99,47,33,22,46,,87,75,20,13,120,24,0.4,0.4
2025-03-17T2300,1788A,129.6386,44.5462,牡丹江市,第一中学,,43,39,26,30,20,42,,93,70,24,11,9,8,0.4,0.3
2025-03-17T2300,2531A,105.0703,29.61,内江市,市监测站,,26,26,24,17,17,47,,65,55,20,18,4,5,0.8,0.8
2025-03-17T2300,2532A,105.0717,29.5947,内江市,东兴区政府,,24,24,23,8,11,53,,62,55,14,17,4,5,0.3,0.3
2025-03-17T2300,2533A,105.0653,29.5817,内江市,内江二中,,27,27,26,14,14,49,,64,55,15,17,6,5,0.6,0.6
2025-03-17T2300,2534A,105.0406,29.5822,内江市,内江日报社,,,22,27,18,14,34,,61,49,22,17,5,6,,0.4
2025-03-17T2300,2628A,92.0657,31.4846,那曲市,那曲监测站,,28,28,38,18,24,89,,108,103,15,12,9,9,1.0,0.8
2025-03-17T2300,3128A,92.0506,31.4797,那曲市,那曲会议中心,,,,,,,,,,,,,,,,
2025-03-17T2300,1290A,115.8931,28.6843,南昌市,省外办,细颗粒物(PM2.5),52,41,35,36,28,64,,106,92,37,19,5,6,0.6,0.5
2025-03-17T2300,1291A,115.8886,28.7003,南昌市,省林业公司,颗粒物(PM10),54,58,32,34,25,34,,97,81,46,16,6,7,0.7,0.4
2025-03-17T2300,1292A,115.8126,28.7442,南昌市,林科所,,39,39,30,22,19,52,,107,80,45,23,4,5,0.6,0.5
2025-03-17T2300,1294A,115.8518,28.687,南昌市,建工学校,,,44,38,41,32,56,,106,92,,18,10,10,0.4,0.3
2025-03-17T2300,1295A,115.8921,28.6424,南昌市,象湖,,42,42,33,29,23,80,,117,103,23,10,6,6,0.4,0.3
2025-03-17T2300,1296A,115.7423,28.7996,南昌市,武术学校,,29,23,23,20,17,45,,105,73,8,8,3,2,0.4,0.3
2025-03-17T2300,3046A,115.9084,28.6062,南昌市,机电学校,,38,38,42,24,24,78,,105,94,20,17,3,4,0.4,0.4
2025-03-17T2300,3690A,115.9721,28.7031,南昌市,外国语学校,,48,41,32,33,23,80,,112,104,25,10,3,3,0.3,0.2
2025-03-17T2300,4192A,115.9316,28.68677,南昌市,南京东路235号,颗粒物(PM10),54,57,35,32,22,69,,112,98,38,20,5,4,0.3,0.3
2025-03-17T2300,1905A,106.056,30.8064,南充市,西山风景区,,30,27,27,21,20,48,,62,60,9,6,4,3,0.5,0.4
2025-03-17T2300,1906A,106.0789,30.8023,南充市,南充市委,,43,43,39,27,24,53,,61,60,16,14,4,5,0.5,0.5
2025-03-17T2300,1907A,106.1031,30.8217,南充市,南充炼油厂,,39,37,42,27,26,52,,59,58,15,13,4,5,0.3,0.3
2025-03-17T2300,1909A,106.0642,30.7636,南充市,嘉陵区环保局,颗粒物(PM10),52,54,39,27,21,53,,60,59,9,10,3,4,0.4,0.4
2025-03-17T2300,1910A,106.1087,30.8388,南充市,市环境监测站,,49,49,47,26,27,52,,58,58,20,17,7,7,0.2,0.2
2025-03-17T2300,4227A,106.1083,30.7884,南充市,梨树横街98号,,50,50,41,20,17,48,,64,63,15,13,4,5,0.3,0.3
2025-03-17T2300,1151A,118.8086,32.1065,南京市,迈皋桥,,30,30,26,17,16,67,,111,100,32,17,4,4,0.3,0.2
2025-03-17T2300,1152A,118.7538,32.0551,南京市,草场门,,39,39,34,22,17,59,,94,84,38,19,6,5,0.5,0.5
2025-03-17T2300,1153A,118.7794,32.0745,南京市,山西路,,41,41,34,14,15,67,,100,92,31,17,4,4,0.5,0.5
2025-03-17T2300,1154A,118.7752,32.0023,南京市,中华门,,34,34,32,22,17,50,,93,80,56,34,6,6,0.4,0.4
2025-03-17T2300,1155A,118.8109,32.0309,南京市,瑞金路,,41,41,35,19,17,52,,102,87,51,28,6,6,0.9,0.8
2025-03-17T2300,1156A,118.7997,32.0754,南京市,玄武湖,颗粒物(PM10),83,115,38,15,13,64,,92,84,14,15,4,4,0.5,0.5
2025-03-17T2300,1157A,118.6414,32.0931,南京市,浦口,,44,44,36,18,15,84,,115,108,22,13,6,6,0.4,0.4
2025-03-17T2300,1158A,118.7356,31.9996,南京市,奥体中心,,36,36,37,19,19,63,,102,87,43,32,10,8,0.3,0.3
2025-03-17T2300,1159A,118.9125,32.1028,南京市,仙林大学城,,44,44,38,17,17,34,,100,76,65,30,7,7,0.6,0.6
2025-03-17T2300,3422A,118.8436,31.9198,南京市,江宁彩虹桥,颗粒物(PM10),51,52,40,27,22,62,,106,90,35,26,10,7,0.9,0.6
2025-03-17T2300,3423A,119.0138,31.6494,南京市,溧水永阳,,43,31,30,30,26,83,,104,100,19,22,5,7,0.7,0.6
2025-03-17T2300,3427A,118.8554,32.3578,南京市,六合雄州,,40,40,35,10,13,77,,104,93,15,14,5,5,0.1,0.2
2025-03-17T2300,4249A,118.8708,31.3402,南京市,汶溪路181号,,46,46,33,29,23,81,,110,102,26,19,6,3,0.3,0.2
2025-03-17T2300,1401A,108.3103,22.7881,南宁市,二十一中,细颗粒物(PM2.5),75,72,52,55,31,87,,99,95,23,16,7,7,0.5,0.4
2025-03-17T2300,1402A,108.3141,22.8528,南宁市,北湖,细颗粒物(PM2.5),72,69,54,52,30,78,,92,84,20,16,13,9,0.6,0.5
2025-03-17T2300,1403A,108.3206,22.8225,南宁市,市监测站,颗粒物(PM10),64,77,53,40,28,77,,93,85,26,20,9,8,0.6,0.5
2025-03-17T2300,1404A,108.3829,22.8037,南宁市,大自然花园,细颗粒物(PM2.5),70,75,57,51,32,82,,102,95,23,14,8,8,0.7,0.6
2025-03-17T2300,1405A,108.4394,22.7904,南宁市,仙葫,细颗粒物(PM2.5),69,74,54,50,32,80,,98,91,18,14,12,11,0.5,0.5
2025-03-17T2300,1406A,108.2397,22.8467,南宁市,区农职院,"颗粒物(PM10),细颗粒物(PM2.5)",60,69,53,43,30,74,,98,90,25,16,11,11,0.7,0.6
2025-03-17T2300,1407A,108.3275,22.735,南宁市,英华嘉园,细颗粒物(PM2.5),64,71,51,46,26,94,,100,98,18,13,10,9,0.5,0.5
2025-03-17T2300,3401A,108.4834,22.7618,南宁市,红星社区,细颗粒物(PM2.5),62,67,56,44,30,82,,98,92,15,12,13,10,0.6,0.5
2025-03-17T2300,4221A,108.2177,22.7774,南宁市,乐贤路16号,颗粒物(PM10),62,74,55,42,27,77,,90,82,23,18,11,10,0.7,0.7
2025-03-17T2300,2331A,118.0966,26.6761,南平市,茫荡山,,,,,,,,,,,,,,,,
2025-03-17T2300,2332A,118.1681,26.6369,南平市,南平市监测站,,32,29,37,22,23,28,,100,72,36,17,3,4,0.7,0.6
2025-03-17T2300,2333A,118.1825,26.6489,南平市,南平铝业有限公司,,28,28,36,18,17,22,,99,70,39,16,6,5,0.7,0.6
2025-03-17T2300,2334A,118.1756,26.6272,南平市,南平七中,,29,29,38,20,22,36,,93,72,27,18,4,4,0.4,0.4
2025-03-17T2300,1168A,120.9098,31.9663,南通市,狼山街道,颗粒物(PM10),54,58,50,37,32,31,,91,66,63,40,9,8,0.8,0.5
2025-03-17T2300,1169A,120.86,32.0005,南通市,虹桥,细颗粒物(PM2.5),62,63,51,44,31,16,,92,54,86,45,9,8,0.6,0.4
2025-03-17T2300,1170A,120.87,32.02,南通市,城中,颗粒物(PM10),61,72,57,35,28,40,,94,62,69,40,11,10,0.8,0.6
2025-03-17T2300,1171A,120.94,31.93,南通市,星湖花园,颗粒物(PM10),53,55,46,34,29,50,,90,73,59,40,11,9,0.9,0.6
2025-03-17T2300,1172A,120.81,32.0417,南通市,紫琅学院,颗粒物(PM10),62,74,51,32,26,50,,101,69,51,31,10,5,1.2,0.7
2025-03-17T2300,3291A,121.067,32.062,南通市,通州监测站,颗粒物(PM10),59,68,55,36,31,55,,106,76,50,38,5,5,0.8,0.6
2025-03-17T2300,3432A,120.9348,31.9883,南通市,环境教育馆,细颗粒物(PM2.5),57,61,53,40,31,46,,97,76,52,34,9,8,0.8,0.6
2025-03-17T2300,2404A,112.5224,33.0122,南阳市,瓦房庄,颗粒物(PM10),62,73,54,32,25,24,,91,74,45,21,4,4,0.9,0.6
2025-03-17T2300,2405A,112.5003,32.9735,南阳市,汉画馆,颗粒物(PM10),52,54,47,25,24,22,,91,71,52,23,4,4,0.4,0.4
2025-03-17T2300,2406A,112.5573,33.027,南阳市,气象站,颗粒物(PM10),59,67,60,27,24,34,,93,77,40,22,4,4,0.7,0.5
2025-03-17T2300,2407A,112.5481,32.9689,南阳市,理工学院,颗粒物(PM10),59,68,54,22,25,40,,90,76,42,26,3,3,0.4,0.4
2025-03-17T2300,4008A,112.5234,32.9922,南阳市,卧龙区政府,颗粒物(PM10),57,63,51,24,23,20,,92,72,58,24,5,6,0.5,0.4
2025-03-17T2300,1234A,121.8358,29.911,宁波市,区环保大楼,细颗粒物(PM2.5),59,60,51,42,29,108,,98,98,22,28,8,8,0.4,0.5
2025-03-17T2300,1235A,121.56,29.82,宁波市,万里学院,"颗粒物(PM10),细颗粒物(PM2.5)",53,55,45,37,30,92,,98,92,24,22,6,12,0.3,0.4
2025-03-17T2300,1236A,121.713,29.9572,宁波市,龙赛医院,颗粒物(PM10),60,70,55,36,32,90,,101,82,34,27,6,7,0.5,0.5
2025-03-17T2300,1239A,121.633,29.7733,宁波市,钱湖水厂,细颗粒物(PM2.5),53,52,45,37,31,98,,104,101,18,22,6,7,0.5,0.5
2025-03-17T2300,1240A,121.5856,29.8635,宁波市,太古小学,颗粒物(PM10),55,59,49,36,26,98,,103,95,22,24,8,8,0.4,0.4
2025-03-17T2300,1241A,121.524,29.8674,宁波市,市环境监测中心,细颗粒物(PM2.5),67,67,48,48,25,81,,97,88,30,25,10,8,0.7,0.5
2025-03-17T2300,2871A,121.6147,29.9017,宁波市,万里国际学校,,49,49,41,33,25,92,,97,94,24,23,8,8,0.5,0.5
2025-03-17T2300,3710A,121.5594,29.8975,宁波市,白沙活动中心,细颗粒物(PM2.5),53,48,40,37,29,85,,104,94,33,23,7,6,0.6,0.6
2025-03-17T2300,2339A,119.5001,26.6946,宁德市,金涵水库,,,,,,,,,,,,,,,,
2025-03-17T2300,2341A,119.5388,26.6612,宁德市,宁德市监测站,,49,,40,34,35,71,,104,95,13,14,5,5,0.6,0.5
2025-03-17T2300,3209A,119.5231,26.6562,宁德市,宁德一中,,46,36,42,32,35,69,,102,93,11,12,5,5,0.6,0.3
2025-03-17T2300,2618A,98.8601,25.8567,怒江傈僳族自治州,州监测站,,32,32,24,16,16,90,,101,101,4,4,5,5,0.3,0.4
2025-03-17T2300,2619A,98.8546,25.8417,怒江傈僳族自治州,泸水一中,,26,6,27,3,17,82,,83,82,6,11,6,6,0.3,0.4
2025-03-17T2300,1888A,101.6891,26.571,攀枝花市,弄弄坪,,29,29,36,8,17,54,,52,52,13,18,6,11,0.5,0.7
2025-03-17T2300,1889A,101.5769,26.5928,攀枝花市,河门口,,25,25,50,10,26,56,,62,60,15,27,11,24,1.0,1.6
2025-03-17T2300,1890A,101.7169,26.585,攀枝花市,炳草岗,,24,24,35,8,17,57,,49,49,11,20,8,11,0.4,0.6
2025-03-17T2300,1891A,101.7369,26.5008,攀枝花市,仁和,,,10,44,9,27,,,70,,12,22,7,13,0.5,0.8
2025-03-17T2300,2835A,101.7227,26.567,攀枝花市,四十中小,,35,35,32,10,14,57,,55,55,9,13,9,11,0.5,0.8
2025-03-17T2300,1604A,122.0303,41.1489,盘锦市,开发区,,42,29,50,29,35,79,,95,82,13,23,14,15,0.7,0.8
2025-03-17T2300,1605A,122.0485,41.0883,盘锦市,兴隆台,,46,35,57,32,40,74,,90,77,18,31,8,14,0.7,1
2025-03-17T2300,1606A,121.8297,41.1028,盘锦市,新生街道,,40,28,43,28,30,31,,86,64,62,33,6,11,0.8,0.9
2025-03-17T2300,1832A,113.3257,33.742,平顶山市,新华旅馆,颗粒物(PM10),58,66,56,29,25,62,,103,88,34,18,5,4,0.3,0.3
2025-03-17T2300,1833A,113.2919,33.737,平顶山市,规划设计院,颗粒物(PM10),53,56,43,24,20,53,,103,84,39,23,6,6,0.5,0.4
2025-03-17T2300,1834A,113.182,33.774,平顶山市,平顶山工学院,,45,45,36,17,16,64,,106,98,32,14,4,4,0.5,0.4
2025-03-17T2300,3204A,113.3025,33.73,平顶山市,规划局,颗粒物(PM10),52,53,48,30,27,61,,104,89,45,28,5,5,0.7,0.5
2025-03-17T2300,3594A,112.8867,33.9116,平顶山市,石龙区,,50,50,53,12,16,103,,108,105,22,31,4,5,0.3,0.3
2025-03-17T2300,2656A,106.6692,35.5461,平凉市,聚贤嘉苑,,44,44,46,22,19,39,,104,88,51,24,12,11,0.2,0.2
2025-03-17T2300,2657A,106.7021,35.5307,平凉市,博物馆,颗粒物(PM10),59,67,46,32,24,46,,103,90,44,22,18,15,0.9,0.5
2025-03-17T2300,2347A,114.0997,27.5002,萍乡市,武功山,,31,31,44,19,28,71,,104,93,10,11,6,4,0.7,0.6
2025-03-17T2300,2348A,113.8385,27.6434,萍乡市,中医院,,33,33,60,19,33,93,,119,108,14,12,8,10,0.4,0.5
2025-03-17T2300,2349A,113.8493,27.6253,萍乡市,市政府车库,,33,33,54,19,35,90,,119,107,18,14,7,7,0.4,0.5
2025-03-17T2300,2350A,113.8676,27.6435,萍乡市,市环保局,,32,32,57,18,34,92,,120,109,18,14,4,7,0.4,0.4
2025-03-17T2300,2351A,113.866,27.6198,萍乡市,安源区政府,,34,34,58,21,32,86,,116,105,10,10,7,7,0.6,0.8
2025-03-17T2300,2319A,119.0141,25.4325,莆田市,荔城区仓后路,,47,47,49,31,31,72,,105,99,24,16,2,2,0.6,0.5
2025-03-17T2300,2320A,119.0015,25.4553,莆田市,莆田市监测站,,43,36,45,30,32,70,,105,98,10,11,3,3,0.6,0.5
2025-03-17T2300,2321A,119.1119,25.4561,莆田市,涵江区六中,,47,47,48,30,32,93,,107,104,19,17,3,3,0.4,0.5
2025-03-17T2300,2322A,119.1013,25.3215,莆田市,秀屿区政府,,43,30,42,30,34,97,,112,110,19,15,4,4,0.5,0.5
2025-03-17T2300,2323A,118.981,25.4792,莆田市,东圳水库,,,,,,,,,,,,,,,,
2025-03-17T2300,2392A,115.0312,35.7636,濮阳市,环保局,颗粒物(PM10),59,67,43,20,17,78,,98,92,21,26,4,5,0.5,0.6
2025-03-17T2300,2394A,115.0574,35.7609,濮阳市,油田运输公司,颗粒物(PM10),65,79,62,7,14,81,,106,98,16,23,3,5,0.6,0.7
2025-03-17T2300,3021A,115,35.7668,濮阳市,濮水河管理处,颗粒物(PM10),70,90,59,13,17,83,,103,98,18,27,4,5,0.5,0.6
2025-03-17T2300,4216A,115.0924,35.7686,濮阳市,任丘路479号,颗粒物(PM10),68,86,57,9,16,81,,108,98,18,26,4,6,0.3,0.4
2025-03-17T2300,2601A,100.98,22.7633,普洱市,市环保局,颗粒物(PM10),59,67,101,34,46,52,,118,88,8,11,5,6,0.7,0.8
2025-03-17T2300,2602A,100.9817,22.8322,普洱市,普洱第二中学,细颗粒物(PM2.5),70,69,105,51,54,44,,112,91,15,25,7,8,0.7,0.8
2025-03-17T2300,2262A,131.0518,45.8751,七台河市,新一中,,21,21,17,9,11,61,,97,84,16,8,11,11,1.2,1
2025-03-17T2300,3345A,131.0577,45.7879,七台河市,中波台,,25,25,31,13,17,46,,86,76,36,18,6,6,0.7,0.6
2025-03-17T2300,3637A,131.0176,45.7761,七台河市,人民广场,,44,44,44,17,26,61,,86,76,19,18,6,6,1.0,0.9
2025-03-17T2300,3684A,130.8781,45.8222,七台河市,新建矿广场,,44,44,40,20,24,43,,85,69,21,16,12,9,0.6,0.4
2025-03-17T2300,1779A,123.9305,47.3636,齐齐哈尔市,安居小区,,46,33,30,32,20,60,,91,77,22,22,5,6,0.4,0.3
2025-03-17T2300,1780A,123.9488,47.3386,齐齐哈尔市,中心广场,,46,46,33,31,17,52,,85,72,28,16,7,5,0.7,0.5
2025-03-17T2300,1781A,123.9483,47.3227,齐齐哈尔市,农牧车辆厂,,48,48,32,28,16,43,,94,76,39,19,7,6,0.5,0.4
2025-03-17T2300,1783A,123.945,47.2988,齐齐哈尔市,市环境监测站,,42,42,30,28,18,39,,88,71,35,18,4,4,0.6,0.5
2025-03-17T2300,3662A,123.6333,47.2075,齐齐哈尔市,富区青少年活动中心,细颗粒物(PM2.5),55,57,39,39,21,64,,86,72,15,13,9,7,0.6,0.5
2025-03-17T2300,2591A,107.9783,26.5747,黔东南苗族侗族自治州,市环境监测站,,29,24,34,20,24,64,,80,66,8,9,4,4,0.3,0.3
2025-03-17T2300,2881A,107.8908,26.5311,黔东南苗族侗族自治州,凯里学院,,22,,26,15,21,69,,83,70,5,6,2,2,0.4,0.5
2025-03-17T2300,2593A,107.5228,26.2403,黔南布依族苗族自治州,小围寨,,19,6,25,3,19,59,,79,70,5,6,5,4,0.5,0.5
2025-03-17T2300,3538A,107.5175,26.2978,黔南布依族苗族自治州,沙坝,,18,,32,12,22,52,,77,66,9,9,4,5,0.4,0.4
2025-03-17T2300,2589A,104.9022,25.0925,黔西南布依族苗族自治州,场坝街,,26,26,25,17,14,55,,72,52,11,11,4,4,0.3,0.3
2025-03-17T2300,2590A,104.8811,25.0992,黔西南布依族苗族自治州,坪东大道,,25,25,21,15,15,49,,68,51,12,12,3,2,0.3,0.3
2025-03-17T2300,2502A,108.6236,21.9667,钦州市,市环保站,颗粒物(PM10),69,88,71,46,33,75,,87,83,20,20,7,8,0.6,0.7
2025-03-17T2300,2503A,108.6549,21.9481,钦州市,沙埠小学,细颗粒物(PM2.5),69,83,65,50,27,67,,86,81,26,20,7,9,0.6,0.6
2025-03-17T2300,2504A,108.5989,21.7431,钦州市,港区一小,颗粒物(PM10),68,86,71,45,29,70,,80,72,27,28,10,10,0.7,0.6
2025-03-17T2300,3404A,108.5959,21.9633,钦州市,北职校,细颗粒物(PM2.5),72,80,62,52,38,71,,84,76,18,16,8,8,0.7,0.7
2025-03-17T2300,1043A,119.7493,40.0116,秦皇岛市,第一关,,45,45,41,19,20,85,,93,88,6,29,3,6,0.2,0.3
2025-03-17T2300,1044A,119.5897,39.9499,秦皇岛市,监测站,,45,45,40,25,18,84,,96,91,2,10,3,4,0.3,0.4
2025-03-17T2300,1046A,119.5251,39.9041,秦皇岛市,建设大厦,,43,43,49,20,23,82,,92,87,9,20,6,7,0.3,0.4
2025-03-17T2300,3132A,119.610547,39.943889,秦皇岛市,文明里,,41,41,40,8,17,80,,91,85,4,12,3,5,0.3,0.3
2025-03-17T2300,4198A,119.5090,39.8253,秦皇岛市,北戴河轮滑馆,,43,43,38,17,20,85,,93,90,2,16,6,8,0.3,0.4
2025-03-17T2300,1307A,120.6659,36.2403,青岛市,仰口,,39,35,34,27,17,93,,96,96,5,8,5,5,0.2,0.2
2025-03-17T2300,1310A,120.4134,36.0658,青岛市,市南区东部子站,,44,44,54,29,20,78,,93,88,13,23,10,10,0.6,0.6
2025-03-17T2300,1311A,120.3664,36.1032,青岛市,四方区子站,,41,41,47,24,21,85,,96,93,17,29,5,6,0.6,0.6
2025-03-17T2300,1312A,120.2994,36.054,青岛市,市南区西部子站,,41,41,54,17,16,82,,89,88,14,34,7,9,0.5,0.6
2025-03-17T2300,1313A,120.4581,36.0858,青岛市,崂山区子站,,34,34,43,17,16,92,,98,96,9,17,11,11,0.5,0.6
2025-03-17T2300,1315A,120.3999,36.3083,青岛市,城阳区子站,,36,36,50,20,19,88,,93,89,13,29,8,9,0.6,0.7
2025-03-17T2300,1966A,120.0405,35.8735,青岛市,黄岛区4号,,36,36,47,12,17,89,,98,94,14,24,8,9,0.5,0.6
2025-03-17T2300,3362A,120.5014,36.4034,青岛市,即墨2号,,38,36,55,26,23,89,,93,90,8,24,8,10,0.6,0.7
2025-03-17T2300,3642A,120.3503,36.0736,青岛市,市北区南部,,38,38,49,22,19,70,,77,76,13,25,7,9,0.6,0.6
2025-03-17T2300,3643A,120.3948,36.1805,青岛市,李沧区北部,,42,41,51,29,23,88,,90,88,11,26,9,9,0.6,0.7
2025-03-17T2300,4290A,120.1969,35.9546,青岛市,珠江路669号,,36,36,54,22,23,70,,86,79,31,23,8,8,0.6,0.7
2025-03-17T2300,1702A,113.0426,23.691,清远市,环保大楼,细颗粒物(PM2.5),57,52,38,40,25,55,,112,98,43,16,11,12,0.7,0.6
2025-03-17T2300,1703A,113.0208,23.7106,清远市,凤城街办,颗粒物(PM10),51,51,48,26,25,57,,98,86,36,18,10,10,0.5,0.5
2025-03-17T2300,3025A,113.0477,23.6344,清远市,技师学院,颗粒物(PM10),64,78,50,42,26,45,,106,88,47,21,9,12,0.6,0.5
2025-03-17T2300,3318A,112.9903,23.7403,清远市,清新太和,,43,43,45,24,24,88,,106,94,16,10,12,8,0.5,0.6
2025-03-17T2300,3455A,113.076,23.7198,清远市,清城东城,,50,50,51,26,26,75,,99,85,13,17,7,9,0.5,0.7
2025-03-17T2300,2661A,107.6325,35.7357,庆阳市,庆阳五中,,42,42,45,19,17,81,,100,94,10,10,2,4,0.4,0.4
2025-03-17T2300,2662A,107.6364,35.7067,庆阳市,市环保局,,43,43,46,15,18,82,,102,97,12,11,4,7,0.4,0.4
2025-03-17T2300,1916A,103.7897,25.5035,曲靖市,环境监测站,,25,25,18,9,9,33,,51,42,20,15,8,3,0.8,0.5
2025-03-17T2300,1917A,103.8,25.5364,曲靖市,烟厂办公区,,14,14,15,8,8,37,,55,43,20,12,7,4,0.8,0.5
2025-03-17T2300,3376A,103.7947,25.462,曲靖市,南苑二区,,16,15,13,11,9,33,,52,44,22,14,9,6,0.8,0.6
2025-03-17T2300,3377A,103.7444,25.5261,曲靖市,曲靖师范学院,,22,22,15,10,9,45,,55,44,12,15,4,4,0.6,0.6
2025-03-17T2300,1264A,118.8692,28.9398,衢州市,环保大楼,,48,48,39,28,24,61,,112,90,27,22,7,2,0.6,0.4
2025-03-17T2300,1265A,118.8709,28.9666,衢州市,实验学校,,39,39,36,25,24,36,,103,78,40,21,5,3,0.4,0.4
2025-03-17T2300,1266A,118.8621,28.9808,衢州市,衢州学院,,39,39,37,22,24,19,,100,69,74,36,5,4,0.5,0.5
2025-03-17T2300,1611A,118.5819,24.9117,泉州市,涂山街,,43,41,46,30,30,94,,110,108,21,16,5,4,0.5,0.5
2025-03-17T2300,1612A,118.5972,24.8978,泉州市,津头埔,,46,43,44,32,32,89,,108,105,26,19,4,4,0.6,0.6
2025-03-17T2300,1613A,118.6663,24.9424,泉州市,万安,,43,42,46,30,30,97,,117,113,13,8,5,4,0.6,0.6
2025-03-17T2300,1614A,118.6117,24.9604,泉州市,清源山,,,,,,,,,,,,,,,,
2025-03-17T2300,3529A,118.6333,24.9264,泉州市,城华南路,,50,50,52,28,31,90,,108,104,20,15,5,4,0.5,0.5
2025-03-17T2300,2626A,88.8876,29.2718,日喀则市,日喀则监测站,,38,24,21,9,6,119,,128,127,8,6,2,4,0.4,0.4
2025-03-17T2300,3726A,88.8781,29.2426,日喀则市,林业技术推广中心,,40,22,21,7,3,125,,127,127,2,2,7,7,0.3,0.3
2025-03-17T2300,1659A,119.471,35.4209,日照市,监测站,,29,29,53,9,23,91,,96,90,12,35,6,8,0.5,0.6
2025-03-17T2300,1660A,119.523,35.4216,日照市,市政府广场,,36,36,51,11,21,83,,90,85,10,24,4,5,0.4,0.7
2025-03-17T2300,1661A,119.5587,35.4044,日照市,港务局,,41,41,63,14,30,88,,95,92,10,32,8,11,0.5,0.7
2025-03-17T2300,3507A,119.5328,35.4625,日照市,职业技术学院,,44,44,53,7,18,85,,92,87,13,26,5,5,0.5,0.6
2025-03-17T2300,3604A,119.3266,35.1044,日照市,岚山环保分局,颗粒物(PM10),54,58,74,17,34,93,,98,90,12,33,6,16,0.6,1.1
2025-03-17T2300,1835A,111.1922,34.7752,三门峡市,市政府,,45,45,38,27,21,64,,119,109,46,38,6,6,0.5,0.4
2025-03-17T2300,1836A,111.1587,34.7942,三门峡市,开发区,,,,39,,17,,,114,112,32,31,11,8,0.5,0.3
2025-03-17T2300,1838A,111.143,34.7955,三门峡市,风景区,,44,44,31,24,16,79,,107,97,24,24,12,11,0.5,0.4
2025-03-17T2300,3039A,111.1911,34.7829,三门峡市,三门峡市第一小学,,48,45,43,33,21,89,,117,111,32,36,6,6,0.4,0.4
2025-03-17T2300,3598A,111.1,34.7167,三门峡市,富达温泉假日酒店,颗粒物(PM10),56,61,52,32,27,70,,112,100,41,30,12,10,0.8,0.7
2025-03-17T2300,2324A,117.6211,26.2625,三明市,三钢,,36,36,38,23,27,38,,100,73,34,17,5,5,2.2,0.7
2025-03-17T2300,2325A,117.635,26.2714,三明市,三明二中,,35,35,34,22,20,40,,96,74,27,16,2,4,0.3,0.4
2025-03-17T2300,2326A,117.6028,26.2378,三明市,三元区政府,,28,28,38,19,24,56,,107,83,15,15,5,6,0.4,0.5
2025-03-17T2300,2327A,117.7275,26.3108,三明市,洋溪,,,,,,,,,,,,,,,,
2025-03-17T2300,1876A,109.5078,18.2489,三亚市,河东子站,,22,9,12,8,6,70,,86,73,8,7,4,4,0.3,0.3
2025-03-17T2300,1877A,109.4964,18.2681,三亚市,河西子站,,,10,11,3,3,,,80,72,8,7,3,3,0.5,0.5
