timepoint,stationcode,longitude,latitude,area,positionname,primarypollutant,aqi,pm10,pm10_24h,pm2_5,pm2_5_24h,o3,o3_24h,o3_8h,o3_8h_24h,no2,no2_24h,so2,so2_24h,co,co_24h
2023-12-25T2200,2566A,102.1879,31.914,阿坝藏族羌族自治州,州农科所,,,,,16,13,13,,39,35,26,22,5,7,0.9,0.7
2023-12-25T2200,2568A,102.2502,31.8896,阿坝藏族羌族自治州,马师校,,,,17,32,17,,,58,50,32,17,3,3,0.8,0.6
2023-12-25T2200,3994A,102.2165,31.9024,阿坝藏族羌族自治州,马尔康中学西区,,49,38,19,34,14,24,,69,55,33,18,5,4,0.8,0.5
2023-12-25T2200,2695A,80.292,41.1694,阿克苏地区,电视台,颗粒物(PM10),324,439,528,85,115,30,,58,56,53,45,7,8,0.8,1.6
2023-12-25T2200,2696A,80.2613,41.1551,阿克苏地区,艺术中心,颗粒物(PM10),318,434,526,110,132,8,,52,48,69,46,8,7,1.3,1.8
2023-12-25T2200,2204A,105.6467,38.8363,阿拉善盟,西城区西花园,颗粒物(PM10),68,85,43,47,27,25,,64,45,54,23,10,10,1.2,0.9
2023-12-25T2200,2205A,105.6985,38.8411,阿拉善盟,蒙二幼,颗粒物(PM10),61,72,44,30,22,50,,63,51,33,26,9,9,0.9,0.9
2023-12-25T2200,2206A,105.724,38.8516,阿拉善盟,环保局新楼,,44,44,31,23,19,81,,82,63,10,14,6,6,0.6,0.7
2023-12-25T2200,2708A,88.1264,47.8517,阿勒泰地区,市站,,32,25,15,22,8,18,,59,28,51,28,4,6,0.6,0.5
2023-12-25T2200,2630A,80.1161,32.5,阿里地区,阿里监测站,,25,25,15,15,7,25,,80,72,50,23,24,16,1.1,0.6
2023-12-25T2200,3192A,80.0903,32.5028,阿里地区,阿里藏医院,,19,17,16,5,8,60,,85,83,18,20,11,14,0.5,0.6
2023-12-25T2200,2642A,109.0318,32.6537,安康市,香溪洞,细颗粒物(PM2.5),69,72,70,50,53,46,,62,62,28,26,6,6,0.5,0.7
2023-12-25T2200,2643A,109.0281,32.6939,安康市,安康市监测站,细颗粒物(PM2.5),102,111,93,76,66,6,,48,36,60,40,11,11,1.3,1.1
2023-12-25T2200,2644A,109.0072,32.6975,安康市,汉滨区检察院,细颗粒物(PM2.5),79,79,78,58,58,13,,54,39,48,33,7,9,0.6,0.6
2023-12-25T2200,2291A,117.0809,30.5177,安庆市,环科院,颗粒物(PM10),67,83,83,46,47,4,,68,56,100,60,10,11,0.9,0.9
2023-12-25T2200,2292A,117.0331,30.5119,安庆市,马山宾馆,细颗粒物(PM2.5),65,77,77,47,40,7,,74,62,107,60,7,8,0.7,0.7
2023-12-25T2200,2294A,116.9896,30.6145,安庆市,安庆大学,颗粒物(PM10),67,83,80,44,45,7,,84,58,86,64,8,11,0.9,1
2023-12-25T2200,3173A,117.0598,30.5351,安庆市,市人大,颗粒物(PM10),73,95,96,45,50,2,,61,40,101,70,5,8,0.9,0.9
2023-12-25T2200,3122A,105.9606,26.2611,安顺市,伍家关,,,,,,,,,,,,,,,,
2023-12-25T2200,3123A,105.9408,26.2431,安顺市,凤凰山,,,49,70,42,60,84,,106,101,,39,20,61,,0.8
2023-12-25T2200,3124A,105.9439,26.2564,安顺市,金钟山,细颗粒物(PM2.5),63,54,71,45,58,88,,103,100,17,23,22,42,0.6,0.8
2023-12-25T2200,3125A,105.8983,26.2481,安顺市,娄家坡,细颗粒物(PM2.5),67,55,74,48,63,83,,103,97,14,24,22,47,0.7,0.9
2023-12-25T2200,1818A,114.4839,36.0621,安阳市,棉研所,,,,,,,,,,,,,,,,
2023-12-25T2200,1819A,114.3551,36.1017,安阳市,红庙街,细颗粒物(PM2.5),109,110,127,82,98,18,,63,53,69,60,7,10,,1.4
2023-12-25T2200,1820A,114.361,36.0681,安阳市,银杏小区,细颗粒物(PM2.5),105,94,114,79,98,11,,58,45,88,63,3,3,1.0,1.3
2023-12-25T2200,3141A,114.3922,36.0878,安阳市,信访局,细颗粒物(PM2.5),95,103,128,71,93,11,,65,52,76,61,5,7,1.1,1.4
2023-12-25T2200,3669A,114.4705,36.0637,安阳市,左辅环卫站,细颗粒物(PM2.5),117,126,158,88,120,11,,71,52,81,62,3,3,0.9,1.1
2023-12-25T2200,3703A,114.2917,36.0949,安阳市,安钢职工学校,细颗粒物(PM2.5),130,122,131,99,101,20,,71,55,71,56,12,11,1.2,1.4
2023-12-25T2200,1748A,123.044,41.1196,鞍山市,深沟寺,,47,47,70,24,47,59,,64,62,19,39,9,13,0.9,1.4
2023-12-25T2200,1749A,123.011,41.0931,鞍山市,太阳城,,46,46,70,26,51,54,,63,61,29,42,42,21,1.0,1.4
2023-12-25T2200,1750A,123.0485,41.1442,鞍山市,太平,,41,41,79,24,62,60,,64,62,22,44,21,19,0.9,1.7
2023-12-25T2200,1751A,122.9642,41.0971,鞍山市,铁西三道街,,41,41,101,23,76,53,,55,52,28,57,12,18,1.0,2.1
2023-12-25T2200,1752A,122.9341,41.0833,鞍山市,铁西工业园区,,38,37,123,26,93,55,,63,62,22,50,14,17,1.1,2.5
2023-12-25T2200,1753A,123.022,41.0821,鞍山市,明达新区,,48,48,81,25,55,61,,65,63,20,42,12,14,0.7,1.3
2023-12-25T2200,1754A,123.1289,41.0228,鞍山市,千山,,,,,,,,,,,,,,,,
2023-12-25T2200,2195A,107.4212,40.761,巴彦淖尔市,附二中,细颗粒物(PM2.5),140,182,141,107,86,7,,30,22,74,54,23,19,1.5,1.3
2023-12-25T2200,2196A,107.37,40.7372,巴彦淖尔市,市环保大楼,细颗粒物(PM2.5),182,166,123,137,87,5,,30,22,68,50,11,11,1.7,1.3
2023-12-25T2200,1956A,86.1472,41.7538,巴音郭楞州,孔雀公园,颗粒物(PM10),276,403,486,91,100,37,,40,38,39,59,3,3,0.9,1.1
2023-12-25T2200,1957A,86.1972,41.7166,巴音郭楞州,棉纺厂,颗粒物(PM10),363,470,595,83,101,26,,41,33,54,53,2,2,0.9,1
2023-12-25T2200,1958A,86.2357,41.7173,巴音郭楞州,经济开发区,颗粒物(PM10),249,384,483,83,98,52,,54,50,33,51,3,4,0.8,0.8
2023-12-25T2200,2914A,106.7677,31.8794,巴中市,苏山坪,细颗粒物(PM2.5),77,76,71,56,51,83,,94,94,19,19,4,4,0.5,0.5
2023-12-25T2200,3182A,106.7656,31.8545,巴中市,丽阳花园,细颗粒物(PM2.5),118,115,86,89,68,5,,54,42,72,40,4,4,1.1,1
2023-12-25T2200,3183A,106.7418,31.8654,巴中市,圣泉水务公司,细颗粒物(PM2.5),109,104,70,82,55,4,,60,44,73,39,3,3,0.8,0.6
2023-12-25T2200,3616A,106.7616,31.8344,巴中市,市中心医院,细颗粒物(PM2.5),112,115,87,84,67,4,,55,42,62,37,3,3,0.8,0.8
2023-12-25T2200,2235A,122.7911,45.6077,白城市,洮北区环保局,颗粒物(PM10),56,62,37,23,18,40,,57,47,18,13,6,6,0.7,0.5
2023-12-25T2200,2236A,122.8738,45.5725,白城市,市环保局,颗粒物(PM10),52,54,40,24,15,49,,58,48,16,18,7,6,0.5,0.4
2023-12-25T2200,2231A,126.4219,41.9171,白山市,喜丰,细颗粒物(PM2.5),70,70,92,51,58,24,,54,43,54,45,22,24,1.4,1.4
2023-12-25T2200,2232A,126.4077,41.9419,白山市,环保局,细颗粒物(PM2.5),102,133,121,76,67,5,,37,18,72,59,31,28,2.3,1.8
2023-12-25T2200,2647A,104.1724,36.5446,白银市,第三小学,颗粒物(PM10),98,146,140,70,79,16,,58,36,58,55,49,201,1.6,2
2023-12-25T2200,2648A,104.1465,36.5482,白银市,动力公司,细颗粒物(PM2.5),78,84,117,57,76,22,,76,53,43,45,17,87,1.1,1.6
2023-12-25T2200,2512A,106.6103,23.9011,百色市,市监测站,颗粒物(PM10),60,69,71,40,44,54,,89,82,23,26,12,11,0.9,0.8
2023-12-25T2200,2513A,106.6538,23.8859,百色市,市中心血站,颗粒物(PM10),75,99,82,45,56,18,,89,71,67,40,14,16,1.1,1
2023-12-25T2200,3406A,106.6085,23.8798,百色市,祈福高中,颗粒物(PM10),79,108,72,48,44,14,,85,70,61,27,11,15,0.8,0.7
2023-12-25T2200,2270A,117.396,32.939,蚌埠市,工人疗养院,"颗粒物(PM10),细颗粒物(PM2.5)",69,88,94,50,56,60,,92,86,43,37,8,10,0.7,0.8
2023-12-25T2200,2271A,117.3605,32.9427,蚌埠市,百货大楼,细颗粒物(PM2.5),84,94,100,62,58,61,,84,76,39,43,6,7,0.9,0.9
2023-12-25T2200,2273A,117.4185,32.8911,蚌埠市,蚌埠学院,细颗粒物(PM2.5),80,90,101,59,59,64,,90,83,37,38,4,5,0.6,0.7
2023-12-25T2200,2274A,117.3533,32.9673,蚌埠市,淮上区政府,细颗粒物(PM2.5),83,100,105,61,66,52,,82,74,48,38,7,8,0.7,0.8
2023-12-25T2200,2275A,117.3145,32.8977,蚌埠市,高新区,细颗粒物(PM2.5),79,92,104,58,69,67,,87,80,39,46,7,7,0.6,0.7
2023-12-25T2200,3715A,117.3092,32.9314,蚌埠市,蚌埠田家炳中学,细颗粒物(PM2.5),77,90,111,56,65,69,,80,74,34,45,6,15,0.6,0.7
2023-12-25T2200,1585A,109.8756,40.6532,包头市,市环境监测站,细颗粒物(PM2.5),145,159,171,111,125,6,,17,11,85,74,21,36,2.2,2
2023-12-25T2200,1587A,109.9991,40.5842,包头市,包头八中,细颗粒物(PM2.5),208,170,177,158,135,4,,19,10,88,73,26,33,2.5,1.7
2023-12-25T2200,1588A,109.8538,40.6821,包头市,青山宾馆,细颗粒物(PM2.5),175,170,191,132,152,6,,16,11,98,83,21,35,2.6,2.6
2023-12-25T2200,1589A,109.8642,40.6288,包头市,惠龙物流,细颗粒物(PM2.5),162,163,171,123,124,4,,22,11,87,74,25,33,1.8,2
2023-12-25T2200,1590A,110.0377,40.5546,包头市,东河鸿龙湾,细颗粒物(PM2.5),200,183,146,150,108,10,,30,22,86,67,20,17,2.2,1.6
2023-12-25T2200,3283A,109.9154,40.5685,包头市,滨河大厦,细颗粒物(PM2.5),133,120,132,101,105,4,,26,14,80,64,16,17,1.4,1.4
2023-12-25T2200,3419A,109.9447,40.6261,包头市,包头市委党校,细颗粒物(PM2.5),144,151,160,110,120,10,,21,14,91,78,20,34,2.8,2.1
2023-12-25T2200,3683A,109.8331,40.6576,包头市,昆区政府,细颗粒物(PM2.5),211,178,174,161,147,4,,14,8,97,82,24,46,2.7,2.5
2023-12-25T2200,1930A,107.185,34.3063,宝鸡市,庙沟村,细颗粒物(PM2.5),172,151,146,130,124,12,,60,52,79,49,9,8,0.9,0.9
2023-12-25T2200,1931A,107.0708,34.3017,宝鸡市,竹园沟,细颗粒物(PM2.5),192,162,145,144,133,26,,58,48,50,45,4,4,1.1,1.1
2023-12-25T2200,1932A,107.1906,34.3672,宝鸡市,三陆医院,细颗粒物(PM2.5),205,175,162,155,124,16,,60,47,76,58,10,16,1.6,1.4
2023-12-25T2200,1933A,107.1431,34.3547,宝鸡市,监测站,细颗粒物(PM2.5),220,186,152,170,127,7,,49,31,75,57,5,5,1.4,1.3
2023-12-25T2200,1934A,107.1186,34.3739,宝鸡市,技工学校,细颗粒物(PM2.5),175,148,135,132,114,28,,64,54,52,47,7,8,1.2,1.1
2023-12-25T2200,1935A,107.3906,34.3528,宝鸡市,陈仓区环保局家属楼,细颗粒物(PM2.5),254,233,173,204,142,21,,68,52,96,62,12,20,2.0,1.4
2023-12-25T2200,1936A,107.2058,34.3497,宝鸡市,文理学院,细颗粒物(PM2.5),212,202,157,162,120,9,,65,49,86,59,9,11,1.5,1.2
2023-12-25T2200,1937A,107.2386,34.3622,宝鸡市,三迪小学,细颗粒物(PM2.5),210,194,155,160,115,10,,58,44,88,59,8,11,1.5,1.3
2023-12-25T2200,1051A,115.493,38.8632,保定市,游泳馆,细颗粒物(PM2.5),218,,107,168,104,5,,34,21,84,68,9,5,2.4,1.7
2023-12-25T2200,1052A,115.5213,38.8959,保定市,华电二区,细颗粒物(PM2.5),175,147,105,132,102,3,,31,19,102,74,4,8,1.3,1.2
2023-12-25T2200,1053A,115.4713,38.9108,保定市,接待中心,,,,108,,84,,,15,,,72,,5,,1.2
2023-12-25T2200,1054A,115.4612,38.8416,保定市,地表水厂,细颗粒物(PM2.5),219,175,118,169,106,16,,29,20,89,82,6,4,1.5,1.2
2023-12-25T2200,1056A,115.5086,38.8639,保定市,监测站,细颗粒物(PM2.5),215,,115,165,99,2,,28,16,112,88,10,8,1.3,0.9
2023-12-25T2200,3581A,115.31981,38.95208,保定市,满城区生态环境分局,细颗粒物(PM2.5),156,121,88,119,79,2,,32,14,107,75,4,4,1.8,1.5
2023-12-25T2200,3582A,115.47694,38.76408,保定市,清苑区第二中学,细颗粒物(PM2.5),192,161,113,144,100,24,,38,33,75,79,6,4,1.5,1.3
2023-12-25T2200,3583A,115.62909,39.02311,保定市,徐水物探局,细颗粒物(PM2.5),185,180,140,139,108,2,,19,10,88,75,5,6,1.9,1.5
2023-12-25T2200,4004A,115.4202,38.8656,保定市,双鹰农机,细颗粒物(PM2.5),209,177,113,159,92,7,,34,24,100,78,10,6,1.9,1.3
2023-12-25T2200,2594A,99.1678,25.1081,保山市,市环境监测站,,17,17,13,10,11,35,,60,50,7,10,4,4,0.6,0.6
2023-12-25T2200,2595A,99.1711,25.1328,保山市,市环保局,,20,,19,14,16,47,,64,55,2,6,6,6,0.5,0.4
2023-12-25T2200,1866A,109.2262,21.588,北海市,牛尾岭水库,,,,,,,,,,,,,,,,
2023-12-25T2200,1867A,109.1436,21.4086,北海市,海滩公园,细颗粒物(PM2.5),68,79,57,49,38,92,,96,94,22,20,18,12,0.6,0.6
2023-12-25T2200,1868A,109.0981,21.4661,北海市,新市环保局,细颗粒物(PM2.5),85,,53,63,44,97,,103,102,22,20,22,14,0.5,0.4
2023-12-25T2200,1869A,109.1778,21.5233,北海市,北海工业园,细颗粒物(PM2.5),77,79,61,56,42,71,,102,96,31,17,17,14,0.6,0.6
2023-12-25T2200,3400A,109.1911,21.4415,北海市,龙潭自来水厂,细颗粒物(PM2.5),75,81,52,55,40,60,,95,85,28,17,13,12,0.7,0.5
2023-12-25T2200,1001A,116.3621,39.8784,北京市,万寿西宫,细颗粒物(PM2.5),158,150,92,120,61,1,,29,18,127,90,2,3,1.1,0.8
2023-12-25T2200,1002A,116.2202,40.2915,北京市,定陵,"颗粒物(PM10),细颗粒物(PM2.5)",55,60,55,39,34,1,,31,7,52,34,3,3,0.6,0.7
2023-12-25T2200,1003A,116.4174,39.9289,北京市,东四,细颗粒物(PM2.5),140,149,91,107,53,1,,25,13,92,70,4,4,1.2,1.1
2023-12-25T2200,1004A,116.4072,39.8863,北京市,天坛,细颗粒物(PM2.5),130,123,77,99,56,4,,32,18,97,71,3,3,1.0,0.8
2023-12-25T2200,1005A,116.462,39.9365,北京市,农展馆,细颗粒物(PM2.5),132,139,79,100,43,,,26,18,108,72,3,3,0.9,0.6
2023-12-25T2200,1006A,116.3392,39.9295,北京市,官园,细颗粒物(PM2.5),147,145,88,112,57,4,,33,19,102,72,2,5,1.0,1.1
2023-12-25T2200,1007A,116.2878,39.9611,北京市,海淀万柳,细颗粒物(PM2.5),127,148,100,96,55,7,,30,18,104,81,1,2,1.2,1.1
2023-12-25T2200,1008A,116.6636,40.135,北京市,顺义新城,细颗粒物(PM2.5),102,122,55,76,30,8,,36,15,87,47,1,2,1.1,0.6
2023-12-25T2200,1009A,116.6275,40.3275,北京市,怀柔镇,颗粒物(PM10),63,75,42,44,23,3,,40,13,66,40,2,3,0.9,0.6
2023-12-25T2200,1010A,116.2296,40.217,北京市,昌平镇,颗粒物(PM10),64,78,66,40,30,1,,15,5,71,56,3,2,0.7,0.7
2023-12-25T2200,1011A,116.3966,39.9821,北京市,奥体中心,细颗粒物(PM2.5),118,130,75,89,39,6,,31,19,98,65,3,2,1.1,0.8
2023-12-25T2200,1012A,116.184,39.9136,北京市,古城,细颗粒物(PM2.5),127,144,101,96,60,2,,23,11,101,78,3,3,1.1,0.9
2023-12-25T2200,3281A,115.9718,40.4529,北京市,延庆夏都,细颗粒物(PM2.5),79,89,67,58,42,15,,41,26,44,39,3,4,0.8,0.8
2023-12-25T2200,3417A,117.0709,40.1465,北京市,平谷新城,细颗粒物(PM2.5),98,123,54,73,31,4,,37,17,57,40,1,2,1.2,0.7
2023-12-25T2200,3418A,116.8336,40.4095,北京市,密云新城,颗粒物(PM10),66,81,43,40,21,6,,53,22,57,32,3,2,0.7,0.4
2023-12-25T2200,3671A,116.088,39.9726,北京市,门头沟三家店,,,,,,,,,,,,,,,,
2023-12-25T2200,3672A,116.1541,39.8204,北京市,丰台云岗,细颗粒物(PM2.5),133,149,93,101,58,1,,26,12,110,77,3,4,1.0,0.7
2023-12-25T2200,3673A,116.6804,39.9081,北京市,通州东关,细颗粒物(PM2.5),152,154,77,116,48,2,,30,15,125,75,3,3,1.3,0.7
2023-12-25T2200,3674A,115.9577,39.7603,北京市,房山燕山,细颗粒物(PM2.5),112,107,66,84,45,3,,46,13,83,49,1,2,0.9,0.7
2023-12-25T2200,3675A,116.4672,39.7733,北京市,大兴旧宫,细颗粒物(PM2.5),145,152,104,111,74,3,,27,12,110,84,3,2,1.2,1
2023-12-25T2200,3694A,115.986,40.4563,北京市,延庆石河营,细颗粒物(PM2.5),79,90,65,58,42,13,,40,24,45,41,1,4,0.9,0.9
2023-12-25T2200,3695A,116.6151,40.3053,北京市,怀柔新城,"颗粒物(PM10),细颗粒物(PM2.5)",58,66,40,41,22,3,,39,12,65,37,3,3,0.6,0.4
2023-12-25T2200,3696A,116.2545,39.8768,北京市,丰台小屯,,,,107,,64,,,13,,,92,,2,,1.1
2023-12-25T2200,3697A,116.84,40.3844,北京市,密云镇,细颗粒物(PM2.5),77,100,50,56,24,3,,40,17,74,46,2,2,0.9,0.5
2023-12-25T2200,1761A,123.8275,41.3064,本溪市,大峪,,49,49,77,29,52,68,,67,67,20,49,10,9,0.7,1.5
2023-12-25T2200,1762A,123.7567,41.3325,本溪市,溪湖,"颗粒物(PM10),细颗粒物(PM2.5)",55,60,142,39,79,54,,59,57,36,50,23,20,1.6,2.4
2023-12-25T2200,1763A,123.7169,41.3094,本溪市,彩屯,细颗粒物(PM2.5),68,67,118,49,89,29,,54,44,67,60,40,25,2.7,2.5
2023-12-25T2200,1764A,123.7669,41.2864,本溪市,东明,颗粒物(PM10),52,54,73,34,60,62,,64,64,30,49,16,14,1.0,1.9
2023-12-25T2200,1765A,123.7992,41.2664,本溪市,新立屯,,46,42,48,32,40,71,,74,73,22,38,11,11,0.5,0.9
2023-12-25T2200,1766A,123.8142,41.3472,本溪市,威宁,细颗粒物(PM2.5),54,51,99,38,62,60,,61,61,25,45,6,7,0.8,1.8
2023-12-25T2200,2587A,105.2864,27.3125,毕节市,八中,细颗粒物(PM2.5),99,93,74,74,61,78,,81,81,19,26,10,12,0.7,0.9
2023-12-25T2200,2588A,105.31,27.2944,毕节市,师专,细颗粒物(PM2.5),105,93,72,79,60,76,,85,85,20,26,12,14,0.8,0.9
2023-12-25T2200,3537A,105.3631,27.3533,毕节市,长征村,细颗粒物(PM2.5),103,85,69,77,61,83,,86,86,19,24,13,12,0.8,0.8
2023-12-25T2200,1629A,118.0018,37.3617,滨州市,第二水厂,细颗粒物(PM2.5),107,119,127,80,90,5,,69,43,106,67,34,29,1.2,1.3
2023-12-25T2200,1630A,117.9776,37.393,滨州市,北中新校,细颗粒物(PM2.5),94,130,133,70,83,2,,63,29,114,83,28,25,1.1,1.1
2023-12-25T2200,3514A,117.9378,37.3956,滨州市,中海酒店,细颗粒物(PM2.5),100,105,123,75,95,13,,68,46,112,81,32,36,1.2,1.3
2023-12-25T2200,3515A,117.9378,37.3553,滨州市,开发区一中,细颗粒物(PM2.5),104,118,130,78,93,9,,63,45,97,68,38,29,1.0,1
2023-12-25T2200,3516A,118.0917,37.694,滨州市,金海六路,细颗粒物(PM2.5),107,131,151,80,114,4,,59,34,107,77,38,24,1.2,1.3
2023-12-25T2200,4028A,117.9956,37.3753,滨州市,滨州市西街道办事处,细颗粒物(PM2.5),107,129,128,80,88,4,,63,34,91,60,34,26,1.3,1.4
2023-12-25T2200,2311A,115.8072,33.8399,亳州市,污水处理厂,细颗粒物(PM2.5),102,113,130,76,86,66,,79,70,26,41,7,8,0.6,0.7
2023-12-25T2200,2312A,115.7789,33.8518,亳州市,三国揽胜宫,细颗粒物(PM2.5),90,128,144,67,78,72,,71,69,23,42,8,9,0.6,0.8
2023-12-25T2200,3332A,115.7633,33.8034,亳州市,亳州学院,细颗粒物(PM2.5),94,114,131,70,76,76,,86,84,21,32,5,9,0.4,0.5
2023-12-25T2200,2693A,82.0485,44.8556,博尔塔拉蒙古自治州,市党校,细颗粒物(PM2.5),107,130,98,80,60,16,,41,32,56,33,16,22,1.0,0.8
2023-12-25T2200,2694A,82.0806,44.8969,博尔塔拉蒙古自治州,市环保局,细颗粒物(PM2.5),82,107,91,60,51,34,,41,35,52,45,16,23,1.7,1.3
2023-12-25T2200,1071A,116.8842,38.2991,沧州市,沧县城建局,细颗粒物(PM2.5),199,175,160,149,143,34,,58,48,60,72,14,12,1.7,1.6
2023-12-25T2200,1072A,116.8584,38.3254,沧州市,电视转播站,细颗粒物(PM2.5),180,160,150,136,130,29,,61,48,69,77,18,14,1.3,1.3
2023-12-25T2200,1073A,116.8709,38.3228,沧州市,市环保局,细颗粒物(PM2.5),185,156,147,139,132,29,,57,46,58,66,12,10,1.4,1.5
2023-12-25T2200,3324A,116.8136,38.3004,沧州市,河北水利电力学院,细颗粒物(PM2.5),173,166,169,131,136,34,,57,49,54,73,18,16,1.3,1.4
2023-12-25T2200,2622A,97.1806,31.1273,昌都市,昌都监测站,,47,47,35,31,17,15,,56,49,56,33,6,6,1.1,0.8
2023-12-25T2200,3719A,97.1714,31.1406,昌都市,昌都会议中心,,18,14,17,12,15,50,,65,64,14,16,5,4,0.6,0.6
2023-12-25T2200,2690A,88.1236,43.8886,昌吉州,天山天池,,23,4,3,1,1,71,,73,71,4,4,6,6,0.3,0.3
2023-12-25T2200,2692A,87.2717,44.0297,昌吉州,新区政务中心,细颗粒物(PM2.5),257,308,164,207,113,,,26,,84,70,9,7,2.9,2
2023-12-25T2200,3613A,87.3095,44.0142,昌吉州,亚心广场,细颗粒物(PM2.5),282,305,182,232,131,10,,55,46,88,70,12,7,2.4,1.7
2023-12-25T2200,1119A,125.3325,43.9166,长春市,食品厂,颗粒物(PM10),61,71,82,33,51,40,,53,50,38,46,17,22,0.7,0.8
2023-12-25T2200,1120A,125.2863,43.9027,长春市,客车厂,颗粒物(PM10),60,69,76,34,53,43,,44,43,32,49,14,21,0.8,0.9
2023-12-25T2200,1121A,125.2841,43.8463,长春市,邮电学院,颗粒物(PM10),57,64,80,33,57,41,,50,44,37,46,18,26,0.7,0.8
2023-12-25T2200,1122A,125.3716,43.8772,长春市,劳动公园,颗粒物(PM10),58,66,71,29,47,43,,58,53,34,39,21,18,0.6,0.8
2023-12-25T2200,1123A,125.3297,43.8805,长春市,园林处,颗粒物(PM10),58,66,68,25,46,36,,59,55,46,45,21,16,0.8,0.8
2023-12-25T2200,1124A,125.4605,43.79,长春市,净月潭,,32,32,63,22,46,56,,65,63,17,20,9,8,0.4,0.4
2023-12-25T2200,1125A,125.7194,43.515,长春市,甩湾子,,,,,,,,,,,,,,,,
2023-12-25T2200,1126A,125.3863,43.8447,长春市,经开区环卫处,,50,50,77,24,49,46,,58,54,31,41,14,13,0.7,0.8
2023-12-25T2200,1127A,125.245,43.7783,长春市,高新区管委会,颗粒物(PM10),53,56,81,30,64,43,,62,57,33,38,15,10,0.7,0.8
2023-12-25T2200,1128A,125.1761,43.8325,长春市,岱山公园,细颗粒物(PM2.5),85,,75,63,53,52,,57,53,28,45,12,12,0.8,0.9
2023-12-25T2200,1335A,113.0833,28.2325,长沙市,经开区环保局,细颗粒物(PM2.5),68,84,97,49,56,9,,69,52,95,62,6,6,1.1,0.7
2023-12-25T2200,1336A,112.8872,28.2189,长沙市,高开区环保局,颗粒物(PM10),87,124,120,56,68,8,,64,46,89,62,5,5,1.7,1.5
2023-12-25T2200,1337A,113.0792,28.2053,长沙市,马坡岭,颗粒物(PM10),84,118,117,52,66,5,,56,38,87,58,7,7,0.9,0.8
2023-12-25T2200,1338A,112.9394,28.19,长沙市,湖南师范大学,颗粒物(PM10),70,89,93,50,59,28,,66,55,54,47,5,6,0.7,0.7
2023-12-25T2200,1339A,113.0178,28.1322,长沙市,雨花区环保局,颗粒物(PM10),66,82,95,47,57,35,,69,58,51,57,5,3,0.8,0.8
2023-12-25T2200,1340A,112.9792,28.2597,长沙市,伍家岭,细颗粒物(PM2.5),130,202,140,99,76,1,,53,30,81,52,7,6,1.7,1.5
2023-12-25T2200,1341A,113.0014,28.1944,长沙市,火车新站,,,102,121,,74,13,,63,,88,68,4,4,1.0,1.1
2023-12-25T2200,1342A,112.9844,28.1178,长沙市,天心区环保局,颗粒物(PM10),62,73,99,36,54,52,,74,62,38,64,6,7,0.7,0.9
2023-12-25T2200,1343A,112.8908,28.1308,长沙市,湖南中医药大学,颗粒物(PM10),88,125,116,58,64,3,,55,34,72,47,7,5,0.9,0.8
2023-12-25T2200,1344A,112.9581,28.3611,长沙市,沙坪,细颗粒物(PM2.5),52,47,58,36,40,63,,72,61,22,30,6,5,0.7,0.7
2023-12-25T2200,1727A,113.1147,36.1547,长治市,清华站,颗粒物(PM10),62,73,71,36,40,3,,45,37,72,63,17,26,1.4,1.4
2023-12-25T2200,1728A,113.1031,36.1989,长治市,监测站,细颗粒物(PM2.5),98,109,87,73,57,1,,32,15,98,74,30,27,1.6,1.4
2023-12-25T2200,1730A,113.0886,36.2125,长治市,审计局,细颗粒物(PM2.5),104,101,86,78,60,1,,31,12,94,68,50,32,1.5,1
2023-12-25T2200,1731A,113.0844,36.1856,长治市,长治八中,细颗粒物(PM2.5),92,119,89,68,42,0,,38,24,83,62,29,33,1.5,1.2
2023-12-25T2200,2845A,113.1569,36.1911,长治市,德盛苑,,38,38,52,17,33,54,,61,61,29,36,22,21,0.9,1.1
2023-12-25T2200,3568A,113.06,36.0464,长治市,向阳小学,,50,50,64,17,32,52,,68,66,43,44,46,31,0.8,1
2023-12-25T2200,3569A,112.8792,36.3144,长治市,屯留一中,细颗粒物(PM2.5),85,72,69,63,45,7,,62,48,79,67,39,24,1.2,1.4
2023-12-25T2200,3570A,113.235,36.3489,长治市,潞城四中,颗粒物(PM10),84,117,117,56,60,10,,68,33,92,58,28,26,1.9,1.7
2023-12-25T2200,1854A,111.6975,28.9703,常德市,市二中,,,,,,,,,,,,,,,,
2023-12-25T2200,1857A,111.7158,29.1456,常德市,白鹤山,颗粒物(PM10),71,92,97,44,53,66,,83,81,19,19,5,6,0.4,0.4
2023-12-25T2200,3138A,111.7153,29.0289,常德市,武陵区永安,细颗粒物(PM2.5),82,92,96,60,67,60,,78,75,30,38,8,9,0.6,0.7
2023-12-25T2200,3139A,111.6892,28.9881,常德市,鼎城区玉霞,细颗粒物(PM2.5),95,111,95,71,70,48,,80,64,41,39,9,9,0.8,0.8
2023-12-25T2200,3140A,111.6625,29.0531,常德市,武陵区长庚,细颗粒物(PM2.5),84,98,99,62,69,43,,77,73,47,38,6,7,0.8,0.7
2023-12-25T2200,1196A,119.9633,31.762,常州市,市监测站,细颗粒物(PM2.5),128,175,131,97,82,6,,70,38,113,72,12,12,1.5,1.3
2023-12-25T2200,1200A,119.9468,31.7069,常州市,武进监测站,细颗粒物(PM2.5),120,157,124,91,75,10,,74,46,96,65,15,11,1.2,1
2023-12-25T2200,1201A,119.9255,31.9087,常州市,安家,细颗粒物(PM2.5),132,154,136,100,90,5,,73,40,102,71,9,12,1.3,1.1
2023-12-25T2200,3002A,119.9805,31.8174,常州市,行政中心,细颗粒物(PM2.5),120,134,104,91,71,4,,73,42,107,65,14,12,1.5,1.1
2023-12-25T2200,3003A,120.0522,31.7748,常州市,经开区,细颗粒物(PM2.5),145,184,121,111,78,7,,81,48,114,73,16,10,2.0,1.3
2023-12-25T2200,3010A,119.9025,31.7964,常州市,钟楼,细颗粒物(PM2.5),137,167,127,104,82,5,,74,41,117,70,12,11,1.6,0.9
2023-12-25T2200,3429A,119.8598,31.7066,常州市,武进经发区,细颗粒物(PM2.5),134,158,117,102,78,11,,79,44,109,69,20,11,1.3,1.1
2023-12-25T2200,3430A,119.5826,31.7245,常州市,金坛城区,细颗粒物(PM2.5),134,128,105,102,77,37,,84,62,61,43,11,13,1.2,1
2023-12-25T2200,2220A,120.4318,41.5881,朝阳市,西梁,,46,46,72,26,48,44,,45,40,25,43,18,21,1.0,1.5
2023-12-25T2200,2221A,120.4521,41.5646,朝阳市,河畔小区,,39,39,66,22,39,36,,56,47,35,35,13,20,1.1,1.4
2023-12-25T2200,2222A,120.4176,41.5648,朝阳市,八里堡,,35,34,68,24,42,40,,47,40,27,41,15,20,1.0,1.4
2023-12-25T2200,2223A,120.3806,41.5969,朝阳市,农业园区,,49,,78,34,63,48,,54,44,20,41,18,17,1.0,1.5
2023-12-25T2200,1705A,116.6367,23.6719,潮州市,西园路,细颗粒物(PM2.5),65,63,38,47,24,71,,92,90,24,14,6,6,0.4,0.3
2023-12-25T2200,1706A,116.6447,23.6706,潮州市,档案局,颗粒物(PM10),60,70,36,38,22,51,,93,86,34,16,6,6,0.8,0.6
2023-12-25T2200,3026A,116.6183,23.6608,潮州市,市政府,颗粒物(PM10),57,63,37,35,22,76,,97,95,30,17,6,7,0.8,0.6
2023-12-25T2200,2472A,113.0073,25.9061,郴州市,马头岭,颗粒物(PM10),58,66,70,19,25,10,,19,16,55,41,5,5,1.0,1
2023-12-25T2200,2473A,113.0116,25.8226,郴州市,市职中,细颗粒物(PM2.5),69,84,62,50,43,8,,78,50,59,35,8,8,1.0,0.9
2023-12-25T2200,2474A,113.0161,25.8001,郴州市,兴隆步行街,细颗粒物(PM2.5),75,94,76,55,48,6,,80,50,69,40,6,7,0.9,0.8
2023-12-25T2200,2475A,113.0383,25.8071,郴州市,市审计局,颗粒物(PM10),59,67,63,38,39,20,,81,58,44,36,10,11,1.0,1.1
2023-12-25T2200,2476A,113.0348,25.7759,郴州市,市环保局,颗粒物(PM10),61,71,66,42,49,6,,71,46,72,43,9,10,0.8,0.6
2023-12-25T2200,1431A,103.9728,30.7236,成都市,金泉两河,细颗粒物(PM2.5),104,114,94,78,70,23,,44,43,47,48,1,2,0.9,1.2
2023-12-25T2200,1432A,104.176,30.6872,成都市,十里店,细颗粒物(PM2.5),119,104,89,90,68,32,,41,41,46,55,2,2,0.7,0.7
2023-12-25T2200,1433A,104.079,30.5706,成都市,三瓦窑,细颗粒物(PM2.5),112,121,96,84,62,40,,34,33,24,41,2,2,0.7,0.8
2023-12-25T2200,1434A,104.1114,30.63,成都市,沙河铺,细颗粒物(PM2.5),110,105,99,83,75,37,,35,34,39,57,4,3,0.8,1
2023-12-25T2200,1437A,104.0786,30.6531,成都市,君平街,细颗粒物(PM2.5),122,122,113,92,84,42,,44,44,40,56,4,5,0.8,1.1
2023-12-25T2200,1438A,103.613,31.0283,成都市,灵岩寺,细颗粒物(PM2.5),87,88,78,64,52,77,,61,60,16,22,7,12,1.4,1.4
2023-12-25T2200,2880A,104.0239,30.65639,成都市,大石西路,细颗粒物(PM2.5),115,111,99,87,76,37,,44,44,46,58,3,4,1.0,1.2
2023-12-25T2200,3136A,104.2725,30.5589,成都市,龙泉驿区区政府,细颗粒物(PM2.5),104,110,93,78,68,36,,49,46,45,39,2,2,0.7,0.7
2023-12-25T2200,3357A,104.0106,30.6931,成都市,金博路,,,,102,,76,25,,44,43,49,51,3,3,0.8,0.9
2023-12-25T2200,3359A,104.0578,30.5225,成都市,华阳,细颗粒物(PM2.5),117,117,93,88,70,28,,46,34,49,57,2,1,0.7,0.7
2023-12-25T2200,3487A,104.2394,30.5319,成都市,车城东七路,细颗粒物(PM2.5),118,124,101,89,75,19,,53,45,62,54,2,2,0.7,0.8
2023-12-25T2200,3488A,104.3853,30.7453,成都市,青白江技师分院,细颗粒物(PM2.5),119,108,79,90,66,6,,56,51,64,46,3,3,0.8,0.8
2023-12-25T2200,3489A,104.0789,30.4072,成都市,科学城,细颗粒物(PM2.5),123,120,87,93,65,33,,67,57,46,37,3,2,0.8,0.7
2023-12-25T2200,4011A,103.8506,30.6947,成都市,光华大道三段,细颗粒物(PM2.5),129,,91,98,69,17,,48,44,51,47,3,2,0.8,0.8
2023-12-25T2200,1062A,117.9531,40.9081,承德市,铁路,细颗粒物(PM2.5),84,95,84,62,50,6,,22,9,63,57,12,12,1.6,1.2
2023-12-25T2200,1063A,117.9392,40.9763,承德市,中国银行,细颗粒物(PM2.5),103,105,73,77,39,10,,37,18,54,45,7,8,1.6,1
2023-12-25T2200,1064A,117.9503,40.928,承德市,开发区,细颗粒物(PM2.5),73,84,71,53,42,5,,27,10,57,52,10,10,1.6,1.1
2023-12-25T2200,1065A,117.8051,40.9655,承德市,文化中心,细颗粒物(PM2.5),104,116,111,78,59,8,,26,16,60,56,10,12,1.9,1.4
2023-12-25T2200,1066A,117.9268,41.0026,承德市,离宫,"颗粒物(PM10),细颗粒物(PM2.5)",74,98,52,54,36,2,,31,13,50,39,3,4,1.0,0.7
2023-12-25T2200,2314A,117.47,30.6618,池州市,池州学院,细颗粒物(PM2.5),77,91,74,56,41,12,,72,57,70,33,5,7,0.7,0.9
2023-12-25T2200,3237A,117.4918,30.6617,池州市,展览馆,颗粒物(PM10),65,79,70,41,37,3,,77,45,57,39,4,6,0.7,0.9
2023-12-25T2200,3333A,117.5627,30.695,池州市,第八中学,颗粒物(PM10),61,72,75,38,42,59,,78,66,32,32,4,6,0.8,0.5
2023-12-25T2200,3334A,117.5038,30.6243,池州市,第十二中学,颗粒物(PM10),59,68,76,41,43,24,,80,49,51,41,4,6,0.7,0.9
2023-12-25T2200,1744A,118.9233,42.2816,赤峰市,松山一中,,39,39,37,19,19,28,,49,49,47,39,16,17,0.9,1.1
2023-12-25T2200,1745A,118.9576,42.2728,赤峰市,哈达街,,34,34,41,22,29,26,,50,50,50,34,14,22,1.0,1.2
2023-12-25T2200,1746A,118.8788,42.2554,赤峰市,天义路,,24,24,19,13,9,37,,72,63,44,21,8,9,0.7,0.6
2023-12-25T2200,3058A,119.2658,42.0353,赤峰市,银河街,细颗粒物(PM2.5),55,54,131,39,106,24,,48,40,45,47,29,36,1.3,2.1
2023-12-25T2200,3286A,118.9359,42.3147,赤峰市,桥北物流园区,细颗粒物(PM2.5),55,,35,39,29,45,,52,51,46,41,14,21,0.9,1
2023-12-25T2200,2521A,107.3476,22.4136,崇左市,市环保局江州分局,颗粒物(PM10),80,110,62,54,37,20,,109,88,71,32,8,8,0.9,0.5
2023-12-25T2200,2522A,107.3702,22.3707,崇左市,城南新区,细颗粒物(PM2.5),120,,53,91,39,23,,106,91,71,30,9,7,0.7,0.5
2023-12-25T2200,2298A,118.3093,32.3153,滁州市,老年大学,细颗粒物(PM2.5),110,130,100,83,64,5,,73,48,97,56,11,10,1.9,1
2023-12-25T2200,2299A,118.3244,32.2786,滁州市,人大宾馆,细颗粒物(PM2.5),104,121,102,78,71,5,,77,48,93,56,6,7,1.3,0.8
2023-12-25T2200,3207A,118.3118,32.3038,滁州市,市政府原办公楼,细颗粒物(PM2.5),88,99,90,65,59,8,,72,47,95,56,6,6,1.4,1
2023-12-25T2200,3331A,118.3267,32.2634,滁州市,图书馆,颗粒物(PM10),74,98,92,53,51,23,,82,63,82,49,7,7,1.1,0.9
2023-12-25T2200,2605A,101.5482,25.0441,楚雄州,州环境监测站,,42,31,26,29,26,54,,56,55,6,6,4,4,0.6,0.7
2023-12-25T2200,2606A,101.538,25.0492,楚雄州,市经济开发区,,46,38,31,32,27,48,,50,49,10,8,6,5,0.8,0.7
2023-12-25T2200,2548A,107.5277,31.2827,达州市,达州职业技术学院,细颗粒物(PM2.5),175,176,106,132,81,13,,47,33,57,35,9,8,1.3,0.9
2023-12-25T2200,2549A,107.5086,31.2186,达州市,市环境监测站,细颗粒物(PM2.5),122,145,106,92,78,2,,46,32,75,46,9,6,1.3,1
2023-12-25T2200,2550A,107.4988,31.2132,达州市,凤凰小区,细颗粒物(PM2.5),117,146,106,88,79,8,,48,34,77,48,11,9,1.4,1
2023-12-25T2200,2551A,107.5082,31.1986,达州市,达县机关宾馆,细颗粒物(PM2.5),135,156,114,103,79,6,,39,23,75,53,10,7,1.5,1.1
2023-12-25T2200,2552A,107.4644,31.2124,达州市,市政中心,细颗粒物(PM2.5),110,121,109,83,76,4,,44,31,91,55,8,8,1.5,1.2
2023-12-25T2200,2614A,100.1542,25.7054,大理州,大理市环境监测站,,22,15,18,15,14,55,,68,64,13,7,5,5,0.6,0.7
2023-12-25T2200,2615A,100.2171,25.5811,大理州,大理古城,,20,20,20,12,13,43,,62,59,22,14,6,6,0.7,0.8
2023-12-25T2200,1109A,121.612,38.9741,大连市,甘井子,细颗粒物(PM2.5),58,60,49,41,37,43,,48,36,44,37,15,10,0.6,0.8
2023-12-25T2200,1110A,121.565,38.9511,大连市,周水子,细颗粒物(PM2.5),54,55,53,38,35,44,,39,34,34,40,23,18,0.7,1
2023-12-25T2200,1111A,121.5637,38.8845,大连市,星海三站,细颗粒物(PM2.5),54,54,45,38,31,61,,47,44,22,29,13,23,0.7,0.9
2023-12-25T2200,1112A,121.6302,38.9117,大连市,青泥洼桥,细颗粒物(PM2.5),55,56,53,39,34,72,,51,48,22,42,14,16,0.6,0.7
2023-12-25T2200,1113A,121.6251,38.8638,大连市,傅家庄,细颗粒物(PM2.5),57,52,49,40,30,77,,64,64,19,34,11,20,0.9,1
2023-12-25T2200,1114A,121.5213,38.8661,大连市,七贤岭,,,52,42,37,29,65,,53,51,,25,15,14,0.9,1.1
2023-12-25T2200,1115A,121.2529,38.8061,大连市,旅顺,细颗粒物(PM2.5),52,46,37,36,27,77,,63,57,18,22,12,12,0.9,1
2023-12-25T2200,1116A,121.7485,39.1311,大连市,金州,细颗粒物(PM2.5),72,65,56,52,43,46,,52,34,38,34,15,10,1.0,1.1
2023-12-25T2200,1117A,121.7811,39.0496,大连市,开发区,细颗粒物(PM2.5),67,63,51,48,38,35,,44,32,59,50,18,14,0.7,0.8
2023-12-25T2200,1118A,121.9762,39.0631,大连市,双D港,细颗粒物(PM2.5),58,61,46,41,32,64,,70,51,26,24,10,10,1.0,0.9
2023-12-25T2200,1789A,124.81117,46.03138,大庆市,大同区,细颗粒物(PM2.5),72,53,67,52,56,33,,47,43,26,22,8,10,0.7,0.7
2023-12-25T2200,1790A,125.129,46.533,大庆市,龙凤区,颗粒物(PM10),70,89,63,45,40,27,,44,38,40,31,5,8,0.7,0.7
2023-12-25T2200,1791A,124.902,46.408,大庆市,红岗区,颗粒物(PM10),52,54,54,35,36,23,,53,47,48,28,5,7,0,0.6
2023-12-25T2200,1792A,125.153,46.586,大庆市,萨尔图区,细颗粒物(PM2.5),103,89,72,77,56,18,,42,33,52,36,8,9,0.7,0.6
2023-12-25T2200,1793A,124.9042,46.6215,大庆市,让胡路区,颗粒物(PM10),57,64,58,38,26,16,,31,28,48,45,5,6,0.8,0.7
2023-12-25T2200,3481A,125.141,46.634,大庆市,萨区政府监测点,细颗粒物(PM2.5),77,69,59,56,47,35,,38,34,26,33,7,10,0.8,0.8
2023-12-25T2200,1721A,113.3819,40.1097,大同市,果树场,,,,,,,,,,,,,,,,
2023-12-25T2200,1723A,113.2994,40.0758,大同市,云冈宾馆,细颗粒物(PM2.5),118,130,110,89,70,5,,35,15,81,71,31,26,1.6,1.7
2023-12-25T2200,1724A,113.3444,40.0917,大同市,大同大学,细颗粒物(PM2.5),88,105,95,65,56,23,,35,14,73,61,44,33,1.1,1.3
2023-12-25T2200,1725A,113.2661,40.1269,大同市,安家小村,细颗粒物(PM2.5),99,138,120,74,66,5,,37,21,92,71,41,31,2.6,2.3
2023-12-25T2200,1726A,113.2711,40.0844,大同市,教育学院,,,,132,,73,,,21,,,77,,26,,3.1
2023-12-25T2200,3282A,113.3397,40.0597,大同市,大同市卫生学校,细颗粒物(PM2.5),145,141,92,111,67,10,,34,20,98,72,22,30,1.9,1.2
2023-12-25T2200,3565A,113.1367,40.1122,大同市,云冈站,颗粒物(PM10),63,75,94,32,55,12,,39,19,82,64,107,55,0.8,1
2023-12-25T2200,3566A,113.1186,40.2556,大同市,图书馆,细颗粒物(PM2.5),113,116,100,85,76,27,,57,49,52,48,27,35,1.3,1.1
2023-12-25T2200,3567A,113.5931,40.0461,大同市,区一中,细颗粒物(PM2.5),201,230,117,151,69,18,,50,31,94,67,64,49,2.8,1.5
2023-12-25T2200,3676A,113.2802,40.0995,大同市,第二人民医院,细颗粒物(PM2.5),114,168,137,86,76,12,,31,20,85,73,28,28,1.6,2.6
2023-12-25T2200,2269A,124.1069,50.4097,大兴安岭地区,科技局,,36,28,24,25,18,44,,51,43,14,11,6,7,0.5,0.4
2023-12-25T2200,3663A,124.1164,50.4278,大兴安岭地区,红旗社区,,15,,13,9,9,47,,56,48,16,16,5,9,0.3,0.3
2023-12-25T2200,1600A,124.3303,40.0625,丹东市,江湾东路,细颗粒物(PM2.5),89,74,92,66,84,65,,76,67,28,44,15,27,1.4,2
2023-12-25T2200,1601A,124.4256,40.1503,丹东市,临江后街,细颗粒物(PM2.5),127,122,92,96,74,27,,84,66,72,43,15,22,2.2,1.9
2023-12-25T2200,1602A,124.3933,40.1461,丹东市,元宝山,细颗粒物(PM2.5),122,100,93,92,81,48,,72,68,46,49,20,21,1.9,1.9
2023-12-25T2200,1603A,124.3633,40.1092,丹东市,民主桥,细颗粒物(PM2.5),145,136,92,111,72,15,,73,52,76,48,13,18,2.4,1.5
2023-12-25T2200,3541A,109.5726,19.5167,儋州市,第一中学子站,,43,43,47,22,27,95,,97,96,12,14,4,6,0.7,0.7
2023-12-25T2200,3542A,109.5567,19.5187,儋州市,东坡学校子站,,49,49,48,21,27,100,,100,100,10,13,5,6,0.6,0.6
2023-12-25T2200,2616A,98.5842,24.428,德宏州,德宏州监测站,细颗粒物(PM2.5),67,,33,48,24,7,,38,32,28,21,11,11,0.6,0.5
2023-12-25T2200,3677A,98.5881,24.4368,德宏州,芒市人民政府综合楼,,31,31,31,19,19,19,,39,34,12,17,7,8,0.6,0.6
2023-12-25T2200,1901A,104.4239,31.1208,德阳市,东山公园,细颗粒物(PM2.5),99,99,80,74,59,51,,51,50,41,38,1,2,0.7,0.7
2023-12-25T2200,1902A,104.3826,31.1317,德阳市,西小区,细颗粒物(PM2.5),128,106,94,97,77,29,,44,42,46,46,3,2,0.9,1
2023-12-25T2200,1904A,104.3553,31.1091,德阳市,耐火材料厂,细颗粒物(PM2.5),124,116,99,94,73,26,,53,50,45,40,1,2,0.8,0.8
2023-12-25T2200,3639A,104.4019,31.1244,德阳市,市教育局,细颗粒物(PM2.5),104,93,80,78,64,15,,47,42,66,53,3,2,1.0,0.9
2023-12-25T2200,1622A,116.3032,37.4674,德州市,儿童乐园,细颗粒物(PM2.5),125,153,160,95,117,33,,68,57,62,64,19,16,1.2,1.2
2023-12-25T2200,1624A,116.2991,37.4451,德州市,监理站,细颗粒物(PM2.5),138,141,162,105,125,38,,72,60,67,73,18,14,1.1,1.2
2023-12-25T2200,3066A,116.2721,37.4379,德州市,九衢泉纯净水厂,细颗粒物(PM2.5),140,151,166,107,125,21,,65,48,78,78,14,14,1.2,1.3
2023-12-25T2200,3371A,116.3728,37.4403,德州市,开发区人民医院,细颗粒物(PM2.5),132,156,172,100,119,35,,66,43,51,68,11,10,1.2,1.3
2023-12-25T2200,3372A,116.3572,37.4094,德州市,太阳城中学,细颗粒物(PM2.5),165,153,166,125,132,6,,63,39,75,70,12,13,1.4,1.3
2023-12-25T2200,3511A,116.5652,37.3319,德州市,陵城艺术中心,细颗粒物(PM2.5),110,136,163,83,113,50,,63,57,35,48,11,15,0.9,1.3
2023-12-25T2200,2621A,99.7056,27.8317,迪庆州,迪庆州站,,37,37,23,20,14,51,,79,71,27,15,11,9,1.3,0.7
2023-12-25T2200,3180A,99.7136,27.8094,迪庆州,质量技术监督局,,22,22,20,13,14,59,,80,75,17,11,7,7,0.9,0.7
2023-12-25T2200,2663A,104.6241,35.5734,定西市,东关小学,,,,96,,56,8,,60,,57,34,50,22,2.1,1.3
2023-12-25T2200,2664A,104.6194,35.5934,定西市,供电公司,细颗粒物(PM2.5),143,182,94,109,60,9,,69,48,53,36,50,21,2.4,1.2
2023-12-25T2200,1389A,113.7547,23.0494,东莞市,莞城梨川,颗粒物(PM10),71,92,44,48,25,11,,100,70,89,34,10,10,1.2,0.7
2023-12-25T2200,1390A,113.7944,23.0128,东莞市,东城石井,颗粒物(PM10),57,63,42,32,22,30,,98,78,48,26,8,10,0.7,0.5
2023-12-25T2200,1391A,113.7383,22.9658,东莞市,南城西平,颗粒物(PM10),71,92,51,45,25,22,,103,80,96,49,9,9,0.7,0.6
2023-12-25T2200,3319A,113.7338,23.0381,东莞市,万江金泰,颗粒物(PM10),92,133,49,54,25,2,,84,41,92,34,11,11,1.5,0.7
2023-12-25T2200,3626A,113.7533,23.0202,东莞市,南城元岭,颗粒物(PM10),73,96,50,43,28,6,,99,64,86,34,5,6,1.3,0.7
2023-12-25T2200,3627A,113.7875,23.0457,东莞市,东城主山,细颗粒物(PM2.5),93,133,53,69,28,5,,110,,101,42,9,10,1.6,0.7
2023-12-25T2200,1666A,118.6614,37.4309,东营市,市环保局,细颗粒物(PM2.5),64,73,110,46,77,26,,73,54,58,66,31,27,0.7,1
2023-12-25T2200,3036A,118.6904,37.4338,东营市,开发区管委会,细颗粒物(PM2.5),70,80,107,51,78,30,,74,62,55,67,39,23,0.8,1
2023-12-25T2200,3365A,118.5719,37.565,东营市,垦利区民丰路,颗粒物(PM10),60,70,129,36,86,33,,67,51,61,77,29,45,0.9,1.3
2023-12-25T2200,3498A,118.5055,37.8612,东营市,河口城区,细颗粒物(PM2.5),89,107,150,66,108,24,,59,46,79,71,18,12,1.1,1.3
2023-12-25T2200,3646A,118.4978,37.4623,东营市,胜利站,细颗粒物(PM2.5),67,82,127,48,88,11,,71,38,86,87,19,27,0.8,1.1
2023-12-25T2200,3734A,118.35,37.26,东营市,理想之城,颗粒物(PM10),63,75,123,39,78,18,,64,46,74,81,27,28,0.7,1.1
2023-12-25T2200,1591A,110.0023,39.8129,鄂尔多斯市,综合楼,细颗粒物(PM2.5),77,85,81,56,50,18,,56,29,100,64,23,19,1.2,0.8
2023-12-25T2200,1592A,109.9486,39.8261,鄂尔多斯市,巴音孟克林场办事处,细颗粒物(PM2.5),52,48,63,36,42,76,,50,48,38,53,13,25,0.7,0.8
2023-12-25T2200,1593A,109.7736,39.5986,鄂尔多斯市,康泽苑,"颗粒物(PM10),细颗粒物(PM2.5)",52,53,65,36,51,61,,40,40,36,48,9,10,0.7,0.9
2023-12-25T2200,1594A,109.8119,39.5989,鄂尔多斯市,华泰汽车城,细颗粒物(PM2.5),70,63,80,51,57,18,,32,20,70,68,8,12,1.1,1.1
2023-12-25T2200,1595A,109.9734,39.7884,鄂尔多斯市,奥林花园,颗粒物(PM10),57,63,95,39,55,9,,50,24,106,70,11,12,0.9,1.2
2023-12-25T2200,2436A,114.8938,30.3994,鄂州市,市政府,细颗粒物(PM2.5),60,67,100,43,61,54,,62,60,42,52,15,15,1.0,1
2023-12-25T2200,2437A,114.8989,30.3714,鄂州市,赵家坝,颗粒物(PM10),64,78,103,33,57,51,,59,57,49,58,13,17,0.9,0.8
2023-12-25T2200,3654A,114.8094,30.4089,鄂州市,精准医疗中心,颗粒物(PM10),82,113,149,44,68,51,,66,62,46,56,34,20,2.0,1.1
2023-12-25T2200,2499A,108.3411,21.6158,防城港市,沙万,细颗粒物(PM2.5),75,76,53,55,39,62,,107,96,45,23,7,9,0.6,0.5
2023-12-25T2200,2500A,108.3514,21.7731,防城港市,防城档案局,颗粒物(PM10),142,234,91,84,44,7,,102,71,73,35,6,8,1.1,0.6
2023-12-25T2200,2501A,108.3506,21.6414,防城港市,大海花园,颗粒物(PM10),68,85,48,43,32,46,,100,86,47,23,5,8,0.8,0.6
2023-12-25T2200,1371A,113.1294,23.0067,佛山市,湾梁,颗粒物(PM10),59,68,47,30,20,5,,72,51,65,31,8,9,0.9,0.6
2023-12-25T2200,1372A,113.1083,23.0478,佛山市,华材职中,颗粒物(PM10),70,90,54,38,27,5,,68,44,92,53,5,6,1.0,0.6
2023-12-25T2200,1373A,113.144,23.0453,佛山市,南海气象局,颗粒物(PM10),57,64,45,33,26,9,,76,54,86,44,6,4,0.6,0.4
2023-12-25T2200,1374A,113.2881,22.8094,佛山市,顺德苏岗,颗粒物(PM10),51,52,34,34,20,2,,70,46,73,37,8,9,0.9,0.6
2023-12-25T2200,1376A,112.8383,22.8678,佛山市,高明孔堂,,50,50,47,30,26,36,,76,63,35,28,9,13,0.5,0.4
2023-12-25T2200,1377A,112.8836,23.1588,佛山市,三水监测站,颗粒物(PM10),71,92,56,42,33,5,,74,51,103,43,8,9,0.8,0.5
2023-12-25T2200,1378A,112.867,23.185,佛山市,三水云东海,颗粒物(PM10),63,76,39,36,23,2,,76,55,92,30,13,7,0.8,0.6
2023-12-25T2200,3625A,113.2544,22.7642,佛山市,容桂街道办,颗粒物(PM10),79,107,50,46,22,4,,70,42,108,43,8,7,1.0,0.5
2023-12-25T2200,1280A,119.3903,26.0543,福州市,鼓山,,,,,,,,,,,,,,,,
2023-12-25T2200,1282A,119.2681,26.0504,福州市,师大,颗粒物(PM10),53,55,46,23,26,83,,98,97,25,24,7,7,0.4,0.4
2023-12-25T2200,1283A,119.2984,26.1028,福州市,五四北路,颗粒物(PM10),57,63,41,31,26,52,,94,89,44,23,4,5,0.6,0.7
2023-12-25T2200,1284A,119.2648,26.0768,福州市,杨桥西路,颗粒物(PM10),55,60,49,26,26,81,,92,92,19,22,5,5,0.4,0.6
2023-12-25T2200,1285A,119.317,26.0746,福州市,紫阳,颗粒物(PM10),53,55,49,22,26,84,,94,94,26,24,7,7,0.4,0.6
2023-12-25T2200,3048A,119.5799,26.0936,福州市,九龙,,44,44,42,20,23,86,,105,101,19,17,4,5,0.4,0.5
2023-12-25T2200,3526A,119.5189,25.9664,福州市,吴航,,40,40,44,18,24,63,,104,90,21,16,4,6,0.3,0.4
2023-12-25T2200,1755A,123.7977,41.8491,抚顺市,望花区,颗粒物(PM10),51,52,117,35,87,57,,60,59,27,47,26,15,1.2,1.8
2023-12-25T2200,1756A,123.9161,41.8822,抚顺市,顺城区,细颗粒物(PM2.5),132,,138,100,109,5,,43,37,81,61,8,10,1.9,1.9
2023-12-25T2200,1757A,124.0436,41.8611,抚顺市,东洲区,细颗粒物(PM2.5),52,44,95,36,73,69,,66,66,25,38,17,16,0.9,1.5
2023-12-25T2200,1758A,123.9247,41.8642,抚顺市,新抚区,细颗粒物(PM2.5),128,,111,97,103,14,,48,38,75,60,14,13,1.3,1.7
2023-12-25T2200,1759A,124.0972,41.8961,抚顺市,大伙房水库,,48,44,95,33,68,52,,62,61,23,38,10,11,0.9,1.5
2023-12-25T2200,1760A,123.7086,41.8391,抚顺市,沈抚新城,颗粒物(PM10),55,60,147,34,90,57,,60,58,35,55,14,11,0.8,1.6
2023-12-25T2200,2376A,116.2127,28.0814,抚州市,桐源党溪,颗粒物(PM10),53,56,57,32,30,43,,87,69,22,22,3,5,0.8,0.8
2023-12-25T2200,2377A,116.3544,27.9831,抚州市,市站,"颗粒物(PM10),细颗粒物(PM2.5)",78,105,76,57,37,43,,84,72,59,42,58,14,0.9,0.8
2023-12-25T2200,2378A,116.3565,27.963,抚州市,血防站,颗粒物(PM10),84,118,86,51,36,72,,83,81,28,34,42,12,0.9,0.9
2023-12-25T2200,2379A,116.3564,28.0007,抚州市,采茶剧团,细颗粒物(PM2.5),69,86,70,50,38,60,,84,79,33,33,4,6,0.7,0.7
2023-12-25T2200,2380A,116.385,27.9647,抚州市,医学分院,颗粒物(PM10),70,89,72,47,32,75,,79,79,19,28,24,12,0.8,0.9
2023-12-25T2200,2207A,121.6094,41.998,阜新市,工业园区,细颗粒物(PM2.5),57,56,189,40,92,4,,47,33,63,47,27,27,1.3,1.9
2023-12-25T2200,2208A,121.6697,42.0279,阜新市,长青街,颗粒物(PM10),53,55,124,33,79,13,,48,36,50,45,28,26,0.9,1.4
2023-12-25T2200,2209A,121.6673,42.0705,阜新市,农业园区,,,57,92,34,65,,,57,46,33,28,31,38,,1
2023-12-25T2200,2210A,121.6717,42.0224,阜新市,东苑,,46,35,113,32,87,23,,48,41,50,49,31,27,0.8,1.5
2023-12-25T2200,2211A,121.6506,42.0498,阜新市,玉龙新城,,49,49,90,32,63,15,,50,41,58,48,22,26,1.0,1.2
2023-12-25T2200,2301A,115.8277,32.8929,阜阳市,市监测站,细颗粒物(PM2.5),118,128,116,89,76,41,,59,49,54,45,7,7,0.7,0.7
2023-12-25T2200,2303A,115.8554,32.8605,阜阳市,开发区,颗粒物(PM10),88,125,131,61,67,67,,83,79,40,41,9,9,0.5,0.6
2023-12-25T2200,2875A,115.784,32.8892,阜阳市,阜阳职业技术学院,细颗粒物(PM2.5),79,90,104,58,63,82,,80,78,25,34,5,5,0.6,0.8
2023-12-25T2200,3468A,115.7901,32.8613,阜阳市,市规划展馆,细颗粒物(PM2.5),84,99,112,62,67,68,,83,79,31,30,8,6,0.6,0.6
2023-12-25T2200,3469A,115.836,32.9183,阜阳市,枣园社区,细颗粒物(PM2.5),88,105,116,65,69,66,,82,76,39,41,4,3,0.6,0.7
2023-12-25T2200,2669A,102.9099,34.9841,甘南州,州政府,细颗粒物(PM2.5),77,62,52,56,34,16,,74,66,50,31,23,16,0.6,0.7
2023-12-25T2200,3380A,102.8914,34.9617,甘南州,甘肃民族师范学院,颗粒物(PM10),51,51,46,28,22,9,,65,57,50,34,21,20,0.6,0.8
2023-12-25T2200,2570A,101.9603,30.0475,甘孜藏族自治州,水桥子,,47,47,37,23,17,9,,55,43,51,36,9,10,0.5,0.5
2023-12-25T2200,3065A,101.9533,29.9972,甘孜藏族自治州,州环保局,,35,35,28,18,8,40,,51,40,24,22,8,8,0.5,0.3
2023-12-25T2200,3414A,115.8347,28.932,赣江新区,桑海产业园,颗粒物(PM10),75,100,79,44,34,2,,67,55,78,43,4,5,0.2,0.5
2023-12-25T2200,2362A,114.9017,25.9149,赣州市,通天岩,,,,,,,,,,,,,,,,
2023-12-25T2200,2363A,114.9367,25.8664,赣州市,地委,颗粒物(PM10),62,73,66,30,35,2,,69,56,86,35,7,10,1.2,1.1
2023-12-25T2200,2364A,114.9461,25.8481,赣州市,气象台,颗粒物(PM10),57,64,62,24,33,18,,76,62,84,51,4,10,1.3,0.9
2023-12-25T2200,2365A,114.9322,25.8333,赣州市,市图书馆,颗粒物(PM10),55,59,68,25,27,34,,81,72,54,37,12,14,0.9,0.8
2023-12-25T2200,2366A,114.8905,25.8471,赣州市,华坚鞋城,颗粒物(PM10),56,61,68,28,32,54,,70,66,31,33,12,23,1.1,1.1
2023-12-25T2200,3109A,115.0093,25.8613,赣州市,赣县区卫计委,颗粒物(PM10),59,67,63,30,34,19,,66,48,64,41,5,7,1.0,0.9
2023-12-25T2200,2683A,106.2319,36.1417,固原市,马园,细颗粒物(PM2.5),88,115,75,65,38,14,,61,42,57,44,24,7,1.1,1.1
2023-12-25T2200,2684A,106.2792,36.0022,固原市,监测站,细颗粒物(PM2.5),65,68,62,47,41,43,,82,63,36,39,9,10,0.9,1.5
2023-12-25T2200,2685A,106.2375,36.0211,固原市,新区,颗粒物(PM10),60,69,66,41,35,45,,70,61,32,39,4,4,0.7,1.2
2023-12-25T2200,3522A,106.2177,35.9959,固原市,原州区十五小,,48,48,51,28,28,69,,77,73,18,29,6,6,0.6,0.7
2023-12-25T2200,2543A,106.6308,30.5278,广安市,小平旧居,,,,,,,,,,,,,,,,
2023-12-25T2200,2544A,106.6303,30.4576,广安市,市委,细颗粒物(PM2.5),112,118,106,84,89,44,,62,52,33,27,1,8,0.9,0.9
2023-12-25T2200,2545A,106.6271,30.4663,广安市,友谊中学,细颗粒物(PM2.5),137,105,97,104,88,58,,64,60,28,30,7,7,0.9,0.9
2023-12-25T2200,2547A,106.6388,30.4551,广安市,广电花园,细颗粒物(PM2.5),124,99,93,94,88,47,,56,50,35,31,9,8,1.1,1
2023-12-25T2200,2902A,106.6351,30.4865,广安市,北辰小学,细颗粒物(PM2.5),143,,99,109,86,43,,67,62,32,23,5,5,1.1,1
2023-12-25T2200,2523A,105.8945,32.4535,广元市,黑石坡,细颗粒物(PM2.5),67,54,50,48,45,52,,71,71,34,23,6,6,0.7,0.6
2023-12-25T2200,2524A,105.821,32.4444,广元市,老城,细颗粒物(PM2.5),77,86,85,56,52,3,,29,22,69,54,1,4,0.8,0.8
2023-12-25T2200,2526A,105.8628,32.4287,广元市,监测站,细颗粒物(PM2.5),82,79,69,60,52,33,,37,37,36,41,3,4,0.6,0.8
2023-12-25T2200,3617A,105.8047,32.4166,广元市,经开区,细颗粒物(PM2.5),79,94,86,58,59,4,,38,30,66,48,4,12,1.1,1
2023-12-25T2200,1345A,113.2347,23.1423,广州市,广雅中学,颗粒物(PM10),80,110,59,46,25,4,,72,38,105,59,10,6,1.0,0.6
2023-12-25T2200,1346A,113.2612,23.105,广州市,市五中,颗粒物(PM10),66,81,47,42,26,5,,79,48,99,36,10,8,1.0,0.6
2023-12-25T2200,1348A,113.3478,23.0916,广州市,广东商学院,颗粒物(PM10),75,99,47,23,17,4,,77,38,90,37,8,7,0.7,0.3
2023-12-25T2200,1349A,113.4332,23.1047,广州市,市八十六中,颗粒物(PM10),78,106,43,49,21,7,,78,58,94,33,6,6,0.8,0.5
2023-12-25T2200,1350A,113.3505,22.9483,广州市,番禺中学,颗粒物(PM10),93,135,50,59,26,5,,78,46,99,44,4,4,1.3,0.6
2023-12-25T2200,1351A,113.2146,23.3916,广州市,花都师范,颗粒物(PM10),58,65,35,31,17,34,,90,74,58,19,9,7,0.7,0.4
2023-12-25T2200,1352A,113.2597,23.1331,广州市,市监测站,颗粒物(PM10),65,79,51,36,23,7,,80,46,97,50,8,6,0.8,0.6
2023-12-25T2200,1353A,113.5618,23.312,广州市,九龙镇镇龙,颗粒物(PM10),77,104,42,41,22,4,,75,49,73,30,6,6,0.8,0.5
2023-12-25T2200,1354A,113.2765,23.1544,广州市,麓湖,颗粒物(PM10),54,57,39,27,21,4,,80,52,82,35,6,7,0.8,0.4
2023-12-25T2200,1355A,113.443,23.3035,广州市,帽峰山森林公园,,28,27,31,17,16,87,,100,96,10,11,10,9,0.5,0.5
2023-12-25T2200,2846A,113.3221,23.1322,广州市,体育西,颗粒物(PM10),60,70,41,35,23,16,,83,62,81,23,10,9,1.0,0.6
2023-12-25T2200,3298A,113.5717,23.5491,广州市,从化街口,,45,45,41,26,24,11,,92,61,55,21,7,6,0.8,0.5
2023-12-25T2200,3299A,113.3472,23.3692,广州市,白云竹料,颗粒物(PM10),88,126,43,56,22,8,,97,66,77,31,8,7,1.5,0.8
2023-12-25T2200,3300A,113.2981,23.237,广州市,白云嘉禾,颗粒物(PM10),70,89,62,32,26,6,,79,43,98,58,10,8,0.6,0.4
2023-12-25T2200,3301A,113.4256,23.1716,广州市,黄埔科学城,颗粒物(PM10),53,55,36,27,20,7,,82,59,72,24,4,5,0.6,0.5
2023-12-25T2200,3302A,113.3942,23.0483,广州市,番禺大学城,颗粒物(PM10),54,58,37,31,18,15,,80,55,86,39,6,6,0.4,0.3
2023-12-25T2200,3303A,113.4922,22.8168,广州市,南沙黄阁,颗粒物(PM10),84,118,61,35,24,10,,79,49,85,43,5,11,1.2,0.7
2023-12-25T2200,3304A,113.5342,22.7896,广州市,南沙街,颗粒物(PM10),59,67,49,35,23,34,,89,74,66,37,4,6,0.8,0.6
2023-12-25T2200,3443A,113.2902,23.5544,广州市,花都梯面,,39,39,33,22,18,3,,91,53,73,24,6,7,0.4,0.3
2023-12-25T2200,3445A,113.7858,23.7478,广州市,从化良口,,23,23,24,12,14,56,,89,79,20,11,6,7,0.4,0.4
2023-12-25T2200,3446A,113.8051,23.2614,广州市,增城荔城,颗粒物(PM10),54,58,35,28,18,6,,89,54,60,18,6,8,0.9,0.6
2023-12-25T2200,2505A,109.568,23.1478,贵港市,德智高中,,43,43,45,30,35,112,,107,107,17,20,12,8,0.7,0.7
2023-12-25T2200,2506A,109.6047,23.0666,贵港市,江南子站,颗粒物(PM10),81,112,74,51,39,56,,108,97,50,31,14,12,1.5,1.1
2023-12-25T2200,2507A,109.6014,23.0948,贵港市,贵城子站,细颗粒物(PM2.5),80,79,54,59,43,65,,104,94,39,25,13,13,0.9,0.8
2023-12-25T2200,2508A,109.5669,23.1065,贵港市,荷城子站,细颗粒物(PM2.5),67,73,60,48,34,63,,101,92,38,20,11,12,1.3,1.1
2023-12-25T2200,3405A,109.5886,23.1172,贵港市,新世纪学校,"颗粒物(PM10),细颗粒物(PM2.5)",69,88,64,50,38,39,,106,86,54,20,6,9,1.1,0.7
2023-12-25T2200,1439A,106.6899,26.5998,贵阳市,马鞍山,细颗粒物(PM2.5),55,58,77,39,62,68,,84,79,26,31,21,15,0.8,0.9
2023-12-25T2200,1440A,106.6971,26.5694,贵阳市,市环保站,,,,101,,83,,,60,,,47,,20,,0.8
2023-12-25T2200,1441A,106.6243,26.6266,贵阳市,鉴湖路,"颗粒物(PM10),细颗粒物(PM2.5)",52,53,86,36,59,83,,99,96,24,40,10,10,0.3,0.7
2023-12-25T2200,1442A,106.7487,26.6343,贵阳市,燕子冲,颗粒物(PM10),52,53,80,34,62,78,,90,88,27,33,15,15,0.6,0.8
2023-12-25T2200,1443A,106.6555,26.4365,贵阳市,碧云窝,细颗粒物(PM2.5),67,78,98,48,64,75,,103,99,29,29,32,19,0.6,0.8
2023-12-25T2200,1444A,106.694,26.5161,贵阳市,中院村,细颗粒物(PM2.5),64,75,97,46,70,38,,77,68,55,42,35,31,0.7,1
2023-12-25T2200,1445A,106.7109,26.6027,贵阳市,红边门,"颗粒物(PM10),细颗粒物(PM2.5)",58,66,87,41,66,56,,81,77,43,42,20,26,0.8,0.9
2023-12-25T2200,1446A,106.7164,26.5699,贵阳市,新华路,细颗粒物(PM2.5),62,66,89,44,67,53,,86,81,50,40,32,17,0.8,0.8
2023-12-25T2200,1447A,106.674,26.5424,贵阳市,太慈桥,颗粒物(PM10),57,63,88,39,66,74,,88,83,29,37,22,11,0.5,0.8
2023-12-25T2200,1552A,106.805,26.3003,贵阳市,桐木岭,,,,,,,,,,,,,,,,
2023-12-25T2200,1862A,110.4144,25.3167,桂林市,电子科大尧山校区,,50,50,50,32,31,75,,101,90,12,11,16,14,0.4,0.4
2023-12-25T2200,1863A,110.2819,25.2697,桂林市,监测站,颗粒物(PM10),79,108,69,53,44,29,,99,67,70,34,10,15,1.2,0.7
2023-12-25T2200,1864A,110.3089,25.2708,桂林市,龙隐路小学,细颗粒物(PM2.5),67,70,59,48,44,67,,102,79,40,32,38,20,0.7,0.7
2023-12-25T2200,1865A,110.2869,25.2178,桂林市,八中,,,103,66,67,48,,,104,89,58,30,12,14,1.2,0.6
2023-12-25T2200,3403A,110.1764,25.2381,桂林市,创业大厦,细颗粒物(PM2.5),77,78,67,56,52,46,,100,80,50,29,13,29,0.6,0.5
2023-12-25T2200,3531A,110.296,25.1253,桂林市,旅游学院,颗粒物(PM10),100,149,63,73,43,12,,105,81,81,27,11,16,0.9,0.7
2023-12-25T2200,2674A,100.2561,34.4714,果洛藏族自治州,玛沁县大武镇,,34,34,28,18,13,51,,72,69,14,15,9,14,0.7,0.6
2023-12-25T2200,1129A,126.5422,45.755,哈尔滨市,岭北,细颗粒物(PM2.5),58,62,88,41,69,97,,114,96,34,44,16,18,1.8,1
2023-12-25T2200,1130A,126.561,45.8167,哈尔滨市,松北商大,细颗粒物(PM2.5),59,52,82,42,59,47,,46,44,33,42,9,9,0.7,0.8
2023-12-25T2200,1131A,126.979,45.5419,哈尔滨市,阿城会宁,细颗粒物(PM2.5),58,58,71,41,57,67,,71,70,19,25,12,13,0.6,0.7
2023-12-25T2200,1132A,126.599,45.7222,哈尔滨市,南岗学府路,"颗粒物(PM10),细颗粒物(PM2.5)",57,64,99,40,65,47,,42,41,32,47,10,12,0.6,0.9
2023-12-25T2200,1133A,126.689,45.7733,哈尔滨市,太平宏伟公园,"颗粒物(PM10),细颗粒物(PM2.5)",53,56,92,37,62,46,,45,43,34,47,15,16,0.7,0.8
2023-12-25T2200,1134A,126.635,45.7667,哈尔滨市,道外承德广场,颗粒物(PM10),54,58,82,37,57,40,,46,40,41,50,15,16,0.6,0.9
2023-12-25T2200,1135A,126.685,45.7319,哈尔滨市,香坊红旗大街,细颗粒物(PM2.5),60,52,89,43,76,42,,43,41,39,53,13,20,0.7,1
2023-12-25T2200,1136A,126.6411,45.7258,哈尔滨市,动力和平路,细颗粒物(PM2.5),62,56,89,44,69,31,,35,31,48,56,22,24,0.6,0.9
2023-12-25T2200,1137A,126.593,45.7478,哈尔滨市,道里建国路,细颗粒物(PM2.5),68,65,88,49,66,43,,43,38,33,44,20,21,1.2,1
2023-12-25T2200,1138A,126.615,45.61,哈尔滨市,平房东轻厂,颗粒物(PM10),54,58,81,35,58,65,,61,60,17,31,9,9,0.8,1
2023-12-25T2200,1139A,126.595,45.9855,哈尔滨市,呼兰师专,细颗粒物(PM2.5),60,61,82,43,59,47,,47,43,34,40,11,12,0.7,0.8
2023-12-25T2200,1140A,126.6206,45.6842,哈尔滨市,省农科院,细颗粒物(PM2.5),62,68,98,44,70,37,,42,41,55,57,19,19,0.7,1
2023-12-25T2200,2688A,93.5128,42.8172,哈密地区,地区监测站,颗粒物(PM10),112,174,133,45,37,47,,51,50,39,37,6,8,0.5,0.6
2023-12-25T2200,2689A,93.4961,42.8328,哈密地区,哈密师范学校,颗粒物(PM10),114,177,144,49,42,23,,48,43,63,44,10,12,0.8,0.8
2023-12-25T2200,2671A,100.9048,36.9639,海北藏族自治州,海晏县西海镇,,29,29,20,11,9,49,,75,65,10,7,12,12,0.4,0.4
2023-12-25T2200,3867A,102.0738,36.5056,海东地区,平安区公安北苑,细颗粒物(PM2.5),70,75,66,51,39,36,,50,46,38,38,39,28,1.0,1.2
2023-12-25T2200,1409A,110.576,19.9507,海口市,东寨港,,,,,,,,,,,,,,,,
2023-12-25T2200,1410A,110.3232,20.0574,海口市,海南大学,,39,39,46,18,23,110,,116,116,10,11,7,10,0.4,0.4
2023-12-25T2200,1411A,110.283,20.0053,海口市,秀英海南医院,,44,44,47,20,26,110,,113,113,16,18,8,11,0.4,0.4
2023-12-25T2200,1412A,110.338,19.9969,海口市,海南师范大学,,46,46,47,19,23,108,,112,112,13,14,7,9,0.4,0.5
2023-12-25T2200,1413A,110.33,20.0356,海口市,龙华路环保局宿舍,,42,42,45,18,24,110,,115,115,13,14,8,10,0.4,0.4
2023-12-25T2200,3539A,110.5111,19.9736,海口市,桂林洋子站,,41,41,44,18,22,105,,109,109,13,15,6,8,0.4,0.4
2023-12-25T2200,2673A,100.6188,36.2866,海南藏族自治州,共和县恰卜恰镇,颗粒物(PM10),66,82,29,24,11,11,,64,41,45,28,21,15,1.5,0.9
2023-12-25T2200,2676A,97.3731,37.3753,海西蒙古族藏族自治州,德令哈市,,46,,24,32,12,44,,77,67,18,11,13,14,0.6,0.5
2023-12-25T2200,1048A,114.5302,36.6116,邯郸市,东污水处理厂,细颗粒物(PM2.5),107,97,135,80,118,20,,61,55,59,66,2,6,1.0,1.5
2023-12-25T2200,1049A,114.4918,36.5713,邯郸市,矿院,细颗粒物(PM2.5),102,100,131,76,114,16,,56,50,69,66,2,4,0.9,1.4
2023-12-25T2200,1050A,114.484,36.6133,邯郸市,丛台公园,细颗粒物(PM2.5),108,110,117,81,96,29,,70,63,61,61,3,4,1.2,1.3
2023-12-25T2200,3458A,114.7895,36.5593,邯郸市,香泉濮院小区,细颗粒物(PM2.5),118,117,162,89,129,45,,78,70,42,63,7,10,0.9,1.3
2023-12-25T2200,3579A,114.50634,36.77178,邯郸市,永年区实验高中,细颗粒物(PM2.5),98,101,126,73,96,30,,66,62,59,76,12,13,0.8,1.5
2023-12-25T2200,3580A,114.20016,36.44293,邯郸市,峰峰矿区临水派出所,细颗粒物(PM2.5),107,94,81,80,58,39,,71,57,43,42,15,21,1.5,1.3
2023-12-25T2200,2634A,106.9893,33.1842,汉中市,汉川机床厂子校,细颗粒物(PM2.5),90,93,78,67,71,31,,76,66,30,22,4,4,1.0,1
2023-12-25T2200,2635A,107.0154,33.0706,汉中市,市监测站,细颗粒物(PM2.5),160,165,120,122,102,31,,62,57,52,45,10,10,1.7,1.6
2023-12-25T2200,2636A,107.0089,33.1138,汉中市,鑫源开发区,细颗粒物(PM2.5),170,141,112,129,97,19,,60,52,66,44,12,13,1.7,1.5
2023-12-25T2200,2637A,107.007,33.0323,汉中市,南郑大河坎水厂,细颗粒物(PM2.5),158,158,116,120,93,40,,64,57,31,33,9,9,1.3,1.2
2023-12-25T2200,1223A,120.2072,30.2111,杭州市,滨江,细颗粒物(PM2.5),104,147,106,78,54,2,,53,28,107,65,12,11,0.9,0.8
2023-12-25T2200,1224A,120.0633,30.2747,杭州市,西溪,细颗粒物(PM2.5),74,94,78,54,42,4,,72,46,59,46,7,8,1.0,0.8
2023-12-25T2200,1226A,120.3461,30.3153,杭州市,下沙,细颗粒物(PM2.5),134,170,110,102,62,3,,53,28,133,82,10,10,0.9,0.9
2023-12-25T2200,1227A,120.1269,30.2456,杭州市,卧龙桥,细颗粒物(PM2.5),79,90,75,58,46,3,,64,38,58,34,4,5,0.9,0.8
2023-12-25T2200,1228A,120.1903,30.2692,杭州市,浙江农大,细颗粒物(PM2.5),103,124,91,77,54,2,,53,30,104,65,10,10,0.8,0.7
2023-12-25T2200,1230A,120.1197,30.3119,杭州市,和睦小学,细颗粒物(PM2.5),92,123,89,68,50,5,,59,32,104,63,7,7,1.3,0.9
2023-12-25T2200,1231A,120.3019,30.4183,杭州市,临平镇,细颗粒物(PM2.5),133,166,107,101,57,4,,64,38,108,64,8,8,1.1,0.8
2023-12-25T2200,1232A,120.2697,30.1819,杭州市,城厢镇,细颗粒物(PM2.5),115,142,112,87,66,8,,58,32,99,66,7,6,0.9,0.9
2023-12-25T2200,1233A,120.0883,30.1808,杭州市,云栖,细颗粒物(PM2.5),80,105,82,59,42,7,,67,45,73,41,5,6,0.7,0.7
2023-12-25T2200,3557A,119.9464,30.0494,杭州市,镇二中,细颗粒物(PM2.5),107,106,76,80,55,4,,75,48,76,49,5,6,1.1,0.7
2023-12-25T2200,3558A,119.7183,30.2367,杭州市,市府大楼,细颗粒物(PM2.5),102,132,88,76,51,7,,78,50,64,39,5,6,1.2,0.8
2023-12-25T2200,3656A,120.1556,30.2864,杭州市,消防大队,细颗粒物(PM2.5),94,116,87,70,49,5,,62,37,112,69,11,10,1.2,0.8
2023-12-25T2200,1270A,117.1959,31.7848,合肥市,明珠广场,细颗粒物(PM2.5),79,102,100,58,53,8,,64,43,89,68,7,8,0.9,0.8
2023-12-25T2200,1271A,117.3072,31.8764,合肥市,三里街,颗粒物(PM10),98,146,120,66,56,2,,56,38,98,71,10,9,1.1,0.8
2023-12-25T2200,1272A,117.2588,31.8707,合肥市,琥珀山庄,颗粒物(PM10),80,110,97,56,53,19,,80,60,91,73,13,7,1.1,1
2023-12-25T2200,1273A,117.1604,31.9052,合肥市,董铺水库,颗粒物(PM10),82,114,92,51,40,16,,72,59,81,45,5,5,0.7,0.6
2023-12-25T2200,1274A,117.25,31.8571,合肥市,长江中路,细颗粒物(PM2.5),89,110,97,66,55,15,,74,58,88,64,11,8,1.2,1
2023-12-25T2200,1275A,117.266,31.9436,合肥市,庐阳区,颗粒物(PM10),92,134,125,63,54,5,,63,44,99,71,13,11,0.9,0.8
2023-12-25T2200,1276A,117.336,31.8586,合肥市,瑶海区,颗粒物(PM10),103,156,110,70,56,3,,68,43,93,63,5,4,1.3,0.9
2023-12-25T2200,1277A,117.3027,31.7964,合肥市,包河区,细颗粒物(PM2.5),104,144,107,78,60,11,,83,53,106,72,15,10,1.3,0.9
2023-12-25T2200,1278A,117.2776,31.7385,合肥市,滨湖新区,颗粒物(PM10),71,92,90,46,46,54,,80,76,43,48,6,5,0.7,0.3
2023-12-25T2200,1279A,117.1318,31.8403,合肥市,高新区,颗粒物(PM10),70,90,90,46,47,36,,68,58,69,63,8,9,0.9,0.9
2023-12-25T2200,3464A,117.3803,31.9147,合肥市,高教基地,颗粒物(PM10),84,117,95,57,49,20,,76,54,73,56,6,5,1.0,0.6
2023-12-25T2200,3614A,79.924,37.0877,和田地区,地区环保局,颗粒物(PM10),198,346,329,63,78,58,,89,83,36,34,17,23,1.1,1
2023-12-25T2200,3615A,79.9131,37.113,和田地区,市环保局,颗粒物(PM10),223,366,298,76,91,37,,82,76,66,52,21,27,1.5,3.1
2023-12-25T2200,2516A,108.2011,24.715,河池市,东仁乐园,,46,37,35,32,27,38,,75,67,25,18,5,6,0.5,0.4
2023-12-25T2200,2517A,108.0497,24.6947,河池市,市环保站,细颗粒物(PM2.5),73,72,50,53,37,18,,84,69,56,34,7,9,1.1,0.8
2023-12-25T2200,2518A,108.0983,24.6989,河池市,市疾控中心,细颗粒物(PM2.5),100,106,61,75,36,16,,84,65,54,39,8,9,1.0,0.7
2023-12-25T2200,1696A,114.6778,23.7569,河源市,源西,颗粒物(PM10),54,57,48,21,24,14,,79,44,66,35,5,6,0.7,0.7
2023-12-25T2200,1697A,114.6944,23.7586,河源市,东埔,颗粒物(PM10),64,77,49,41,26,4,,85,63,78,27,8,9,1.2,0.6
2023-12-25T2200,1698A,114.6892,23.7233,河源市,老城,颗粒物(PM10),71,91,50,36,28,6,,84,56,67,26,6,7,0.9,0.6
2023-12-25T2200,1718A,115.4208,35.2464,菏泽市,气象局,细颗粒物(PM2.5),138,154,140,105,85,64,,86,83,53,51,5,5,0.6,0.7
2023-12-25T2200,1719A,115.4747,35.2375,菏泽市,市政协,细颗粒物(PM2.5),120,136,143,91,90,69,,84,81,38,49,7,6,0.8,1
2023-12-25T2200,3374A,115.5564,35.0891,菏泽市,定陶老年大学,细颗粒物(PM2.5),128,144,134,97,89,64,,79,76,42,55,5,5,0.6,0.7
2023-12-25T2200,3647A,115.4702,35.2706,菏泽市,菏泽医专,细颗粒物(PM2.5),110,125,138,83,84,80,,84,84,33,48,9,6,0.8,0.9
2023-12-25T2200,2514A,111.5264,24.4172,贺州市,环保小区,细颗粒物(PM2.5),97,107,70,72,42,35,,89,68,39,33,14,12,1.2,0.8
2023-12-25T2200,2515A,111.5608,24.4078,贺州市,政协大楼,细颗粒物(PM2.5),99,123,70,74,44,17,,92,62,58,33,13,12,1.0,0.6
2023-12-25T2200,3534A,111.4744,24.4553,贺州市,西湾,细颗粒物(PM2.5),85,97,72,63,47,24,,97,73,61,35,10,10,0.8,0.6
2023-12-25T2200,2385A,114.17,35.9019,鹤壁市,市监测站,细颗粒物(PM2.5),132,189,108,100,68,1,,51,30,77,55,5,6,1.1,0.9
2023-12-25T2200,2386A,114.2956,35.7511,鹤壁市,市交警支队,细颗粒物(PM2.5),88,103,120,65,80,46,,57,48,50,64,14,10,0.7,1
2023-12-25T2200,2387A,114.2878,35.7306,鹤壁市,迎宾馆,细颗粒物(PM2.5),90,79,99,67,73,41,,57,46,52,64,13,12,0.8,1.2
2023-12-25T2200,3474A,114.2617,35.6822,鹤壁市,大新区,细颗粒物(PM2.5),94,103,112,70,80,9,,54,34,88,66,10,8,0.5,1.1
2023-12-25T2200,3596A,114.1572,35.9603,鹤壁市,南山宾馆,细颗粒物(PM2.5),135,134,85,103,62,12,,68,37,78,41,13,12,1.4,1.2
2023-12-25T2200,2244A,130.2537,47.3416,鹤岗市,哈啤分公司,细颗粒物(PM2.5),69,67,60,50,41,24,,59,35,45,27,17,16,0.7,0.5
2023-12-25T2200,2245A,130.2684,47.3086,鹤岗市,斯达机电,细颗粒物(PM2.5),60,67,58,43,37,39,,50,40,38,32,19,15,0.4,0.4
2023-12-25T2200,2246A,130.3114,47.3388,鹤岗市,东山纸板厂,细颗粒物(PM2.5),64,52,86,46,59,26,,48,20,41,47,19,19,0.5,1
2023-12-25T2200,2247A,130.1097,47.3382,鹤岗市,五号水库,,46,46,44,30,35,39,,67,49,29,20,11,11,0.7,0.8
2023-12-25T2200,2263A,127.4833,50.2524,黑河市,交通局,颗粒物(PM10),55,59,59,38,37,32,,38,22,19,25,7,10,0.6,0.7
2023-12-25T2200,2264A,127.5144,50.2341,黑河市,环保局,细颗粒物(PM2.5),69,64,70,50,51,29,,32,24,23,32,8,11,1.4,1.5
2023-12-25T2200,2265A,127.5291,50.2472,黑河市,大黑河岛,,,74,75,63,62,13,,15,11,19,24,3,4,,1.1
2023-12-25T2200,1074A,115.6838,37.7541,衡水市,电机北厂,细颗粒物(PM2.5),153,139,144,117,125,46,,70,64,39,51,10,10,1.0,1.2
2023-12-25T2200,1075A,115.6303,37.7316,衡水市,市监测站,细颗粒物(PM2.5),170,148,154,129,130,34,,66,61,56,68,10,12,1.1,1.3
2023-12-25T2200,3188A,115.6683,37.7217,衡水市,市城管局,细颗粒物(PM2.5),170,152,153,129,133,37,,67,61,52,69,13,12,1.1,1.3
2023-12-25T2200,3459A,115.5989,37.5491,衡水市,地表水厂,细颗粒物(PM2.5),186,185,155,140,142,3,,68,42,98,77,10,11,1.3,1.4
2023-12-25T2200,2456A,112.5003,26.9167,衡阳市,原169医院,细颗粒物(PM2.5),107,119,82,80,58,6,,71,56,79,41,13,14,0.9,0.5
2023-12-25T2200,2457A,112.6194,26.9258,衡阳市,衡阳化工总厂,细颗粒物(PM2.5),114,128,93,86,58,4,,76,56,83,47,10,9,1.3,1
2023-12-25T2200,2458A,112.6211,26.8956,衡阳市,珠晖区环保局,细颗粒物(PM2.5),129,163,106,98,70,7,,65,46,97,55,12,12,1.8,1.1
2023-12-25T2200,2459A,112.6197,26.8733,衡阳市,市委党校,细颗粒物(PM2.5),125,151,123,95,77,10,,78,62,77,44,5,6,1.6,1.3
2023-12-25T2200,2460A,112.6006,26.8919,衡阳市,市监测站,细颗粒物(PM2.5),158,171,123,120,83,6,,68,48,79,53,11,13,2.8,1.7
2023-12-25T2200,2461A,112.5664,26.9056,衡阳市,真空机电公司,细颗粒物(PM2.5),112,121,96,84,62,5,,69,50,96,51,10,14,2.4,1.3
2023-12-25T2200,3399A,112.6703,26.882,衡阳市,师范学院,细颗粒物(PM2.5),143,161,107,109,73,7,,76,56,60,38,9,11,1.2,0.9
2023-12-25T2200,2608A,103.3772,23.3993,红河州,污水处理厂,细颗粒物(PM2.5),109,103,77,82,64,22,,65,46,33,20,11,11,0.9,0.7
2023-12-25T2200,2609A,103.3861,23.35,红河州,监测站,细颗粒物(PM2.5),68,75,80,49,67,28,,60,48,21,22,4,20,0.9,0.8
2023-12-25T2200,3038A,103.3758,23.368,红河州,州图书馆,细颗粒物(PM2.5),80,73,78,59,63,32,,64,47,20,21,7,14,0.8,0.7
2023-12-25T2200,1090A,111.6507,40.7517,呼和浩特市,呼市一监,细颗粒物(PM2.5),232,229,112,182,85,7,,35,18,94,64,22,19,2.6,1.4
2023-12-25T2200,1091A,111.6572,40.8033,呼和浩特市,小召,细颗粒物(PM2.5),134,161,109,102,71,3,,20,11,90,76,22,17,1.3,1.2
2023-12-25T2200,1094A,111.7516,40.8369,呼和浩特市,如意水处理厂,细颗粒物(PM2.5),133,152,105,101,75,11,,38,24,87,75,14,17,1.6,1.2
2023-12-25T2200,1095A,111.7276,40.8062,呼和浩特市,二十九中,细颗粒物(PM2.5),127,130,107,96,73,6,,30,19,87,67,18,18,1.5,1.1
2023-12-25T2200,1096A,111.5512,40.7866,呼和浩特市,工大金川校区,细颗粒物(PM2.5),108,144,118,81,74,3,,22,13,95,78,16,14,1.1,1
2023-12-25T2200,1097A,111.717,40.7612,呼和浩特市,化肥厂生活区,细颗粒物(PM2.5),147,146,108,112,77,7,,31,19,92,68,19,18,1.8,1.6
2023-12-25T2200,3698A,111.5968,40.8178,呼和浩特市,红旗小学,细颗粒物(PM2.5),120,110,117,91,81,9,,25,15,77,64,16,19,1.1,1.2
2023-12-25T2200,3699A,111.6518,40.8389,呼和浩特市,海东办,细颗粒物(PM2.5),117,132,117,88,79,2,,22,12,86,76,15,17,1.1,1.1
2023-12-25T2200,2192A,119.7594,49.2261,呼伦贝尔市,区环保局,,38,,22,26,14,58,,70,58,13,11,5,5,0.3,0.3
2023-12-25T2200,3061A,119.7512,49.1577,呼伦贝尔市,国华电力东,,29,26,19,20,15,51,,72,58,17,8,4,5,0.3,0.3
2023-12-25T2200,1250A,120.0751,30.8669,湖州市,城西水厂,细颗粒物(PM2.5),119,158,108,90,62,7,,81,61,132,70,10,9,1.2,0.7
2023-12-25T2200,2873A,120.0875,30.8955,湖州市,仁皇山新区,细颗粒物(PM2.5),108,124,117,81,70,28,,82,65,75,63,9,12,0.9,0.8
2023-12-25T2200,2907A,120.1844,30.8596,湖州市,吴兴区站,细颗粒物(PM2.5),100,126,102,75,59,22,,90,75,92,61,8,10,0.7,0.6
2023-12-25T2200,3562A,120.4148,30.8538,湖州市,南浔区站,细颗粒物(PM2.5),115,124,109,87,68,35,,94,76,68,61,10,12,0.6,0.7
2023-12-25T2200,1607A,120.9092,40.7136,葫芦岛市,龙港区,颗粒物(PM10),60,69,98,31,70,13,,50,35,69,54,15,24,1.1,1.3
2023-12-25T2200,1608A,120.8392,40.7514,葫芦岛市,化工街,颗粒物(PM10),65,80,109,46,61,3,,43,22,78,51,13,19,1.2,1.5
2023-12-25T2200,1609A,120.8341,40.7073,葫芦岛市,新区,颗粒物(PM10),63,76,100,34,52,5,,46,27,84,65,10,13,1.3,1.4
2023-12-25T2200,1610A,120.8695,40.7677,葫芦岛市,东城区,颗粒物(PM10),71,92,107,40,73,11,,46,27,73,54,15,19,1.7,1.9
2023-12-25T2200,2482A,109.5981,27.5721,怀化市,林科所,,32,32,52,21,39,64,,90,87,4,4,2,5,0.7,1
2023-12-25T2200,2483A,109.9453,27.5444,怀化市,河西地税局,细颗粒物(PM2.5),62,55,48,44,41,26,,70,58,36,28,3,4,0.7,0.6
2023-12-25T2200,2484A,109.9781,27.5342,怀化市,市四医院,细颗粒物(PM2.5),83,112,58,61,43,7,,85,60,64,38,7,6,1.1,0.6
2023-12-25T2200,2485A,109.9972,27.5578,怀化市,监测楼,细颗粒物(PM2.5),94,114,61,70,51,17,,79,55,55,34,7,7,1.2,0.7
2023-12-25T2200,2486A,110.0394,27.583,怀化市,市委党校,细颗粒物(PM2.5),90,93,79,67,55,6,,77,57,57,33,13,12,0.9,0.8
2023-12-25T2200,1210A,119.036,33.5981,淮安市,钵池山,细颗粒物(PM2.5),109,105,102,82,80,20,,56,47,72,51,11,11,1.0,0.9
2023-12-25T2200,1211A,119.007,33.575,淮安市,北京南路,细颗粒物(PM2.5),103,102,115,77,75,24,,44,31,63,61,15,11,0.9,1.2
2023-12-25T2200,1212A,118.989,33.6067,淮安市,市监测站,细颗粒物(PM2.5),100,100,108,75,78,42,,58,53,50,47,15,11,0.8,1
2023-12-25T2200,1213A,119.135,33.5039,淮安市,楚州区监测站,细颗粒物(PM2.5),103,105,112,77,72,2,,56,34,90,62,9,10,0.8,0.8
2023-12-25T2200,1214A,119.0186,33.6297,淮安市,淮阴区监测站,细颗粒物(PM2.5),100,122,120,75,72,11,,60,36,79,51,13,10,1.0,1
2023-12-25T2200,3426A,118.8755,33.2894,淮安市,新华书店,细颗粒物(PM2.5),98,101,100,73,73,65,,69,61,31,45,8,8,1.0,0.7
2023-12-25T2200,2282A,116.8004,33.975,淮北市,监测站,细颗粒物(PM2.5),137,161,128,104,77,53,,71,58,47,49,11,8,0.8,1.1
2023-12-25T2200,2283A,116.8091,33.9007,淮北市,烈山区政府,细颗粒物(PM2.5),118,132,137,89,89,64,,85,79,36,50,10,9,0.8,0.7
2023-12-25T2200,3330A,116.8873,33.9836,淮北市,杜集区检察院,细颗粒物(PM2.5),117,129,130,88,82,74,,86,83,33,42,10,10,0.7,0.8
2023-12-25T2200,4017A,116.7923,33.9535,淮北市,市博物馆,细颗粒物(PM2.5),122,149,138,92,91,53,,77,69,45,53,11,10,0.8,1
2023-12-25T2200,2277A,116.8305,32.7727,淮南市,潘集区政府,细颗粒物(PM2.5),117,135,112,88,72,23,,82,62,68,42,9,11,0.6,0.6
2023-12-25T2200,2278A,117.0067,32.6524,淮南市,师范学院,细颗粒物(PM2.5),87,102,112,64,55,60,,75,68,38,46,9,9,0.6,0.9
2023-12-25T2200,2279A,116.8569,32.5951,淮南市,谢家集区政府,细颗粒物(PM2.5),93,116,100,69,57,34,,84,64,75,46,11,9,0.5,0.5
2023-12-25T2200,2280A,116.8281,32.633,淮南市,八公山区政府,颗粒物(PM10),78,105,97,55,53,56,,90,75,44,32,9,7,0.5,0.5
2023-12-25T2200,2281A,116.6325,32.6201,淮南市,焦岗湖风景区管理处,细颗粒物(PM2.5),84,93,82,62,49,26,,66,54,47,34,2,2,0.3,0.3
2023-12-25T2200,2894A,117.0566,32.6531,淮南市,经济技术开发区消防队,细颗粒物(PM2.5),87,120,113,64,63,52,,66,56,39,49,8,6,0.4,0.5
2023-12-25T2200,3329A,117.0108,32.5893,淮南市,山南新区,细颗粒物(PM2.5),89,110,107,66,62,60,,83,77,39,39,6,6,0.5,0.6
2023-12-25T2200,2446A,114.9028,30.4742,黄冈市,职工中心,细颗粒物(PM2.5),73,88,107,53,59,61,,62,56,30,36,12,13,0.5,0.6
2023-12-25T2200,2929A,114.8858,30.4519,黄冈市,红卫路,颗粒物(PM10),67,84,104,47,61,54,,64,61,37,41,12,12,0.6,0.9
2023-12-25T2200,3398A,114.9136,30.4445,黄冈市,市林业局,细颗粒物(PM2.5),68,77,93,49,60,55,,63,60,43,49,8,9,0.5,0.8
2023-12-25T2200,2672A,102.0199,35.5102,黄南藏族自治州,同仁县隆务镇,,49,49,34,13,13,52,,69,65,11,10,6,7,0.8,0.6
2023-12-25T2200,2295A,118.2903,29.6963,黄山市,延安路89号,颗粒物(PM10),55,60,50,31,25,28,,88,74,26,16,6,6,0.4,0.2
2023-12-25T2200,2296A,118.327,29.7178,黄山市,黄山东路89号,颗粒物(PM10),64,78,64,23,32,20,,76,51,34,24,5,5,0.7,0.5
2023-12-25T2200,2297A,118.1371,30.2756,黄山市,黄山区政府5号楼,颗粒物(PM10),54,58,46,37,28,27,,83,62,19,15,4,4,0.8,0.7
2023-12-25T2200,2423A,115.0601,30.2313,黄石市,沈家营,颗粒物(PM10),64,77,106,34,60,54,,56,51,42,54,5,14,0.7,0.9
2023-12-25T2200,2424A,115.0817,30.2006,黄石市,陈家湾,颗粒物(PM10),55,60,90,24,59,89,,76,76,14,44,11,15,0.5,1
2023-12-25T2200,2426A,114.8988,30.2019,黄石市,铁山,颗粒物(PM10),59,67,79,32,50,60,,79,65,38,46,8,9,0.8,1
2023-12-25T2200,2427A,115.0307,30.2092,黄石市,团城山,颗粒物(PM10),61,72,107,23,57,92,,77,77,17,55,8,15,0.5,0.8
2023-12-25T2200,3149A,115.0235,30.1578,黄石市,笔架山北路,颗粒物(PM10),61,71,101,38,63,62,,68,67,36,56,12,13,0.7,1
2023-12-25T2200,1392A,114.4183,23.0528,惠州市,河南岸金山湖子站,颗粒物(PM10),64,77,48,34,25,10,,89,49,67,26,6,8,1.1,0.7
2023-12-25T2200,1393A,114.4053,23.0822,惠州市,下埔横江三路子站,颗粒物(PM10),70,90,45,43,25,7,,88,55,75,26,9,11,1.2,0.6
2023-12-25T2200,1394A,114.4103,23.1142,惠州市,江北云山西路子站,颗粒物(PM10),69,87,43,39,21,3,,89,67,84,21,9,9,0.9,0.5
2023-12-25T2200,1395A,114.4645,22.7833,惠州市,惠阳区承修路船湖子站,颗粒物(PM10),82,114,54,56,29,7,,82,49,75,30,9,9,1.3,0.6
2023-12-25T2200,1396A,114.5317,22.7422,惠州市,大亚湾管委会子站,颗粒物(PM10),67,83,46,31,23,10,,85,52,82,32,6,8,0.7,0.6
2023-12-25T2200,3314A,114.4338,22.8134,惠州市,惠阳秋长,颗粒物(PM10),133,215,60,68,29,8,,93,62,77,21,12,10,1.3,0.6
2023-12-25T2200,3452A,114.6517,22.775,惠州市,大亚湾霞涌,颗粒物(PM10),53,55,43,16,21,61,,82,67,23,17,7,8,0.3,0.4
2023-12-25T2200,2240A,130.9762,45.3001,鸡西市,环保局,细颗粒物(PM2.5),94,111,96,70,62,22,,58,30,44,33,12,10,1.0,0.9
2023-12-25T2200,2243A,130.9429,45.3039,鸡西市,第一中学,细颗粒物(PM2.5),87,97,57,64,41,28,,69,46,45,26,15,13,0.8,0.5
2023-12-25T2200,3707A,131.0207,45.3073,鸡西市,欧美日汽修厂,细颗粒物(PM2.5),125,126,116,95,85,22,,47,21,45,51,16,32,1.3,1.7
2023-12-25T2200,3709A,130.9967,45.3106,鸡西市,市政设施管理处,细颗粒物(PM2.5),137,163,96,104,63,7,,56,20,54,46,8,6,1.3,0.9
2023-12-25T2200,2367A,114.9754,27.0803,吉安市,红声器材厂,颗粒物(PM10),70,90,76,43,34,52,,76,70,44,39,13,12,0.8,0.8
2023-12-25T2200,2368A,114.9658,27.0999,吉安市,市森林工业局,颗粒物(PM10),60,69,63,42,38,55,,76,70,39,35,19,20,0.7,0.4
2023-12-25T2200,2369A,114.99,27.1312,吉安市,市环境监测站,颗粒物(PM10),64,77,67,35,33,45,,77,69,45,40,12,12,0.7,0.8
2023-12-25T2200,2370A,115.0093,27.0968,吉安市,青原区法院,颗粒物(PM10),66,81,64,42,35,30,,71,56,60,43,12,11,0.7,0.6
2023-12-25T2200,1772A,126.54,43.8622,吉林市,哈达湾,,29,29,56,19,39,69,,72,69,15,26,10,12,0.7,0.8
2023-12-25T2200,1773A,126.5844,43.8358,吉林市,东局子,,30,28,56,21,40,66,,65,63,16,31,10,12,0.6,0.8
2023-12-25T2200,1774A,126.5052,43.8245,吉林市,电力学院,,30,29,70,21,54,65,,67,65,18,33,13,14,0.7,1.1
2023-12-25T2200,1775A,126.6133,43.8972,吉林市,江北,,32,32,59,18,39,60,,66,64,22,30,27,18,0.7,0.8
2023-12-25T2200,1776A,126.555,43.8306,吉林市,江南公园,,38,32,61,26,50,68,,69,65,11,32,12,17,0.7,0.9
2023-12-25T2200,1778A,126.7061,43.7133,吉林市,丰满,,,,,,,,,,,,,,,,
2023-12-25T2200,2868A,126.4739,43.953,吉林市,九站,,27,27,60,16,43,66,,70,67,19,31,8,9,0.8,0.9
2023-12-25T2200,1299A,116.9862,36.6114,济南市,科干所,细颗粒物(PM2.5),85,105,64,63,41,89,,82,79,24,32,14,15,0.7,0.8
2023-12-25T2200,1300A,116.9376,36.665,济南市,农科所,颗粒物(PM10),99,147,84,63,43,74,,65,57,30,54,13,14,0.8,0.9
2023-12-25T2200,1301A,117.1265,36.6734,济南市,开发区,"颗粒物(PM10),细颗粒物(PM2.5)",64,78,58,46,32,82,,57,57,22,52,11,10,0.6,0.8
2023-12-25T2200,1303A,117.0624,36.6868,济南市,省种子仓库,细颗粒物(PM2.5),79,95,77,58,41,70,,68,60,32,51,13,12,0.8,1
2023-12-25T2200,1304A,116.9489,36.6447,济南市,机床二厂,颗粒物(PM10),94,137,95,63,51,82,,69,62,27,49,20,26,0.7,0.9
2023-12-25T2200,1305A,117.0495,36.663,济南市,市监测站,细颗粒物(PM2.5),77,90,62,56,39,91,,79,79,19,48,15,13,0.4,0.6
2023-12-25T2200,1306A,116.7675,36.5484,济南市,长清党校,细颗粒物(PM2.5),98,137,100,73,66,75,,77,77,43,57,16,11,0.9,0.9
2023-12-25T2200,1616A,117.6795,36.229,济南市,技术学院,细颗粒物(PM2.5),104,112,119,78,84,7,,65,42,96,66,26,16,1.4,1.4
2023-12-25T2200,1961A,117.532,36.6868,济南市,东山小学,颗粒物(PM10),83,115,51,59,28,83,,78,78,29,43,12,10,0.5,0.5
2023-12-25T2200,3059A,117.7161,36.2049,济南市,泰兴公司,细颗粒物(PM2.5),144,171,137,110,87,7,,52,32,85,69,17,13,1.4,1.2
2023-12-25T2200,3064A,117.6867,36.2171,济南市,莱芜战役纪念馆,颗粒物(PM10),126,202,130,95,82,4,,56,35,86,64,23,16,1.3,1.2
2023-12-25T2200,3494A,117.1673,36.9782,济南市,济阳区政府,细颗粒物(PM2.5),80,103,95,59,54,6,,46,29,102,75,41,18,0.9,0.9
2023-12-25T2200,3495A,117.1171,36.63,济南市,锦屏中学,细颗粒物(PM2.5),74,81,40,54,28,89,,82,76,19,18,13,12,0.6,0.6
2023-12-25T2200,3682A,116.9814,36.6819,济南市,济南四建,细颗粒物(PM2.5),83,90,76,61,51,72,,65,60,36,53,19,21,0.7,0.9
2023-12-25T2200,1653A,116.6251,35.4302,济宁市,火炬城,细颗粒物(PM2.5),117,134,129,88,88,41,,62,51,48,54,9,9,1.0,1.1
2023-12-25T2200,1655A,116.5491,35.4042,济宁市,电化厂,细颗粒物(PM2.5),100,141,143,75,89,66,,76,69,46,60,10,11,0.7,0.9
2023-12-25T2200,3500A,116.5814,35.3707,济宁市,北湖一中,细颗粒物(PM2.5),122,123,134,92,98,55,,70,62,39,54,7,7,0.8,1
2023-12-25T2200,3501A,116.8249,35.5593,济宁市,服务中心,细颗粒物(PM2.5),123,174,146,93,82,40,,65,55,46,50,7,6,1.0,1.1
2023-12-25T2200,3678A,116.5907,35.4054,济宁市,市第七中学,细颗粒物(PM2.5),117,134,137,88,93,39,,64,53,53,56,9,9,0.9,1.1
2023-12-25T2200,2255A,130.2751,46.8028,佳木斯市,佳纺,细颗粒物(PM2.5),63,52,59,45,50,61,,60,54,19,27,7,8,0.6,0.7
2023-12-25T2200,2256A,130.3995,46.8307,佳木斯市,发电厂,细颗粒物(PM2.5),68,57,52,49,48,51,,58,47,31,32,12,11,0.7,0.7
2023-12-25T2200,2257A,130.3258,46.7975,佳木斯市,环保局,细颗粒物(PM2.5),59,50,52,42,44,47,,57,54,30,24,9,8,0.4,0.4
2023-12-25T2200,2258A,130.3648,46.8032,佳木斯市,十一中,细颗粒物(PM2.5),64,56,51,46,42,49,,54,44,27,28,5,6,0.7,0.7
2023-12-25T2200,2259A,130.3794,46.7588,佳木斯市,四丰,颗粒物(PM10),57,64,48,32,28,58,,60,59,16,15,2,1,0.7,0.7
2023-12-25T2200,1252A,120.7436,30.778,嘉兴市,清河小学,细颗粒物(PM2.5),94,123,117,70,69,6,,72,48,93,59,8,10,0.8,0.8
2023-12-25T2200,1253A,120.726,30.7478,嘉兴市,嘉兴学院,细颗粒物(PM2.5),87,102,104,64,66,7,,76,48,96,65,8,11,1.3,1
2023-12-25T2200,2872A,120.7846,30.7525,嘉兴市,南湖区残联,,,120,110,70,50,,,78,69,104,59,7,10,1.3,0.8
2023-12-25T2200,3407A,120.6916,30.7739,嘉兴市,秀洲住建,细颗粒物(PM2.5),87,98,97,64,70,3,,71,38,101,64,10,10,1.7,1.4
2023-12-25T2200,1945A,98.2908,39.7711,嘉峪关市,气象局,颗粒物(PM10),56,61,112,19,28,66,,72,70,16,33,21,27,0.1,0.4
2023-12-25T2200,2884A,98.2672,39.7978,嘉峪关市,酒钢宾馆,颗粒物(PM10),62,73,116,29,30,63,,73,73,21,31,28,41,0.4,0.6
2023-12-25T2200,3248A,98.2643,39.7724,嘉峪关市,雄关区,颗粒物(PM10),52,53,84,27,23,61,,70,68,14,30,18,20,0.4,0.4
2023-12-25T2200,1383A,113.1064,22.6058,江门市,北街,颗粒物(PM10),59,67,48,39,25,12,,69,54,89,45,6,8,0.9,0.5
2023-12-25T2200,1384A,113.0731,22.5835,江门市,西区,颗粒物(PM10),79,108,56,50,29,4,,66,40,108,49,13,12,0.9,0.5
2023-12-25T2200,1385A,113.0219,22.5311,江门市,圭峰西,细颗粒物(PM2.5),82,86,43,60,25,9,,70,57,96,35,2,3,1.3,0.5
2023-12-25T2200,1386A,113.0828,22.5947,江门市,东湖,"颗粒物(PM10),细颗粒物(PM2.5)",69,87,51,50,30,7,,70,48,94,45,10,10,1.0,0.5
2023-12-25T2200,3311A,113.1075,22.5647,江门市,江海富民,颗粒物(PM10),71,91,56,30,23,5,,65,42,117,55,14,11,1.2,0.6
2023-12-25T2200,3449A,113.05,22.4667,江门市,新会银湖,颗粒物(PM10),61,72,46,42,22,6,,70,44,61,41,7,10,0.9,0.5
2023-12-25T2200,1828A,113.227,35.2125,焦作市,市环保局,细颗粒物(PM2.5),74,92,75,54,42,6,,56,36,72,47,18,21,1.3,0.9
2023-12-25T2200,1830A,113.1992,35.2590,焦作市,影视城,,,,,,,,,,,,,,,,
2023-12-25T2200,3169A,113.2725,35.2067,焦作市,太极体育中心,细颗粒物(PM2.5),99,109,80,74,48,3,,55,33,78,50,21,25,1.6,0.9
2023-12-25T2200,3335A,113.3137,35.2641,焦作市,马村街道办,,,,77,,42,,,33,,,44,,25,,1.1
2023-12-25T2200,3336A,113.2465,35.2373,焦作市,焦作技师学院,细颗粒物(PM2.5),64,68,66,46,43,15,,60,38,62,48,13,16,0.7,0.6
2023-12-25T2200,3477A,113.1656,35.2539,焦作市,中站许衡医院,细颗粒物(PM2.5),69,61,53,50,30,38,,61,40,51,39,16,16,0.8,0.6
2023-12-25T2200,3981A,113.2449,35.1803,焦作市,原李万街道办,细颗粒物(PM2.5),94,105,75,70,47,7,,57,39,68,40,20,21,1.6,1
2023-12-25T2200,1708A,116.3701,23.5345,揭阳市,新兴,颗粒物(PM10),60,69,52,33,28,85,,96,95,30,30,12,13,0.6,0.6
2023-12-25T2200,1709A,116.3264,23.5443,揭阳市,西马,颗粒物(PM10),60,69,50,34,24,95,,100,100,21,22,10,10,0.6,0.6
2023-12-25T2200,1710A,116.3611,23.5626,揭阳市,东兴,颗粒物(PM10),64,77,56,31,25,87,,97,96,28,34,12,13,0.5,0.5
2023-12-25T2200,1711A,116.4151,23.5294,揭阳市,渔湖,颗粒物(PM10),60,70,54,35,29,76,,,,36,30,10,12,0.7,0.7
2023-12-25T2200,3320A,116.403,23.5699,揭阳市,曲溪,颗粒物(PM10),70,90,63,39,30,77,,97,94,36,37,12,9,0.5,0.5
2023-12-25T2200,1944A,102.1692,38.5167,金昌市,天庆家园,颗粒物(PM10),95,139,87,50,40,27,,54,44,52,43,71,36,0.8,1
2023-12-25T2200,3170A,102.1864,38.5253,金昌市,市委党校,颗粒物(PM10),129,207,116,56,55,43,,62,52,31,36,215,34,0.4,1
2023-12-25T2200,4022A,102.1647,38.5371,金昌市,金川区人防中心,颗粒物(PM10),113,176,97,54,40,34,,59,48,44,32,219,45,1.0,1.1
2023-12-25T2200,1262A,119.647,29.077,金华市,十五中,颗粒物(PM10),81,112,88,54,44,5,,65,40,91,60,2,3,0.7,0.7
2023-12-25T2200,1263A,119.686,29.1029,金华市,监测站,颗粒物(PM10),78,106,91,55,46,4,,61,36,91,63,5,5,0.6,0.6
2023-12-25T2200,3659A,119.656,29.1131,金华市,气象局,颗粒物(PM10),80,110,100,55,51,3,,60,36,90,64,3,4,0.8,0.8
2023-12-25T2200,1767A,121.1115,41.0879,锦州市,南山,细颗粒物(PM2.5),85,86,94,63,73,7,,47,27,75,52,21,32,1.8,1.4
2023-12-25T2200,1768A,121.0533,40.8434,锦州市,开发区,颗粒物(PM10),72,94,173,42,92,7,,36,24,83,67,22,46,1.1,1.4
2023-12-25T2200,1769A,121.1836,41.1119,锦州市,百股街道,细颗粒物(PM2.5),77,86,90,56,63,7,,50,33,76,49,22,19,1.7,1.4
2023-12-25T2200,1770A,121.1178,41.1222,锦州市,天安街道,细颗粒物(PM2.5),94,105,83,70,88,6,,44,26,74,49,20,30,2.4,1.6
2023-12-25T2200,1771A,121.1303,41.1386,锦州市,北湖公园,细颗粒物(PM2.5),95,81,74,71,59,7,,22,21,77,50,20,25,1.9,1.5
2023-12-25T2200,2160A,112.85,35.5051,晋城市,自来水公司,颗粒物(PM10),86,121,79,39,38,5,,66,46,70,47,10,16,1.7,1.8
2023-12-25T2200,2161A,112.8318,35.4936,晋城市,白云商贸,颗粒物(PM10),68,85,82,34,31,6,,62,38,70,48,10,14,1.3,1.7
2023-12-25T2200,2162A,112.8508,35.4887,晋城市,市环保局,颗粒物(PM10),81,111,86,44,37,7,,65,46,70,48,15,17,1.5,1.7
2023-12-25T2200,2163A,112.8676,35.4897,晋城市,技术学院,颗粒物(PM10),105,159,87,68,40,11,,58,37,82,56,24,21,1.7,1.8
2023-12-25T2200,2165A,112.8453,35.546,晋城市,白马寺,,,,,,,,,,,,,,,,
2023-12-25T2200,3620A,112.8271,35.4828,晋城市,泽州一中,颗粒物(PM10),63,76,65,29,28,16,,64,46,60,41,12,15,1.1,1.5
2023-12-25T2200,2171A,112.7532,37.6945,晋中市,锦纶小区,颗粒物(PM10),78,105,105,56,53,6,,58,,81,61,27,21,1.3,1.2
2023-12-25T2200,2173A,112.7249,37.7067,晋中市,南都小区,细颗粒物(PM2.5),115,144,101,87,56,2,,60,34,89,61,22,23,1.5,1.1
2023-12-25T2200,2174A,112.6991,37.6982,晋中市,榆次区政府,细颗粒物(PM2.5),135,175,106,103,59,5,,60,34,92,64,26,22,2.1,1.4
2023-12-25T2200,2865A,112.7195,37.6828,晋中市,榆次三中,颗粒物(PM10),95,139,106,63,53,4,,60,39,79,61,36,26,1.3,1.2
2023-12-25T2200,2439A,112.2014,31.0481,荆门市,竹园小学,细颗粒物(PM2.5),108,128,145,81,105,43,,72,61,56,44,16,13,0.9,0.8
2023-12-25T2200,2440A,112.1969,30.9891,荆门市,掇刀,细颗粒物(PM2.5),122,133,143,92,107,16,,75,50,85,60,12,12,1.0,1
2023-12-25T2200,2441A,112.2213,31.0386,荆门市,石化一小,细颗粒物(PM2.5),119,119,153,90,104,34,,76,63,75,57,23,19,1.0,0.8
2023-12-25T2200,3012A,112.1849,31.0362,荆门市,西山林语,细颗粒物(PM2.5),93,98,121,69,92,68,,81,76,29,30,14,11,0.4,0.7
2023-12-25T2200,3547A,112.1632,31.0138,荆门市,龙泉中学南校,细颗粒物(PM2.5),109,117,137,82,101,69,,82,78,25,30,16,12,0.4,0.5
2023-12-25T2200,1844A,112.2494,30.3197,荆州市,市图书馆,细颗粒物(PM2.5),88,95,121,65,99,30,,87,72,68,44,11,11,0.9,0.9
2023-12-25T2200,1845A,112.2008,30.3544,荆州市,市委党校,细颗粒物(PM2.5),93,98,120,69,103,25,,83,69,74,42,10,10,0.8,0.9
2023-12-25T2200,3194A,112.2747,30.3122,荆州市,管委会,细颗粒物(PM2.5),108,93,109,81,97,36,,91,73,56,46,12,13,0.9,1
2023-12-25T2200,3548A,112.1655,30.3364,荆州市,学苑路,细颗粒物(PM2.5),94,90,107,70,103,46,,77,70,31,27,7,9,0.8,0.9
2023-12-25T2200,2342A,117.3102,29.3867,景德镇市,王港中学,,,,,,,,,,,,,,,,
2023-12-25T2200,2343A,117.2117,29.2933,景德镇市,老干部活动中心,细颗粒物(PM2.5),82,62,57,60,46,5,,73,56,52,30,3,4,0.7,0.5
2023-12-25T2200,2344A,117.1894,29.2789,景德镇市,兽医站,颗粒物(PM10),75,99,63,47,31,12,,71,53,57,33,6,7,0.9,0.7
2023-12-25T2200,2345A,117.1547,29.2617,景德镇市,台达陶瓷,颗粒物(PM10),76,101,73,49,33,4,,78,42,66,41,5,8,1.1,0.7
2023-12-25T2200,2346A,117.2461,29.2956,景德镇市,陶研所,颗粒物(PM10),60,70,54,32,25,2,,69,50,52,30,5,8,0.8,0.7
2023-12-25T2200,1803A,115.9872,29.6815,九江市,十里,"颗粒物(PM10),细颗粒物(PM2.5)",77,103,76,56,37,9,,40,27,72,54,8,9,1.1,1
2023-12-25T2200,1804A,115.9584,29.7046,九江市,茅山头,颗粒物(PM10),83,116,91,59,48,0,,44,31,86,67,12,13,1.1,0.9
2023-12-25T2200,1805A,115.9877,29.7295,九江市,西园,细颗粒物(PM2.5),108,116,89,81,55,25,,52,48,71,62,23,10,1.4,0.9
2023-12-25T2200,1806A,116.0172,29.6547,九江市,五七二七厂,颗粒物(PM10),53,56,59,28,30,67,,78,76,20,22,10,13,0.5,0.6
2023-12-25T2200,1808A,115.9114,29.6038,九江市,综合工业园,细颗粒物(PM2.5),68,75,75,49,51,9,,46,28,96,61,11,12,1.1,0.9
2023-12-25T2200,1809A,116.0721,29.7535,九江市,石化总厂,细颗粒物(PM2.5),97,129,100,72,51,17,,72,57,85,56,21,13,1.6,0.9
2023-12-25T2200,1810A,115.9773,29.5698,九江市,庐山气象台,,28,8,35,2,18,87,,73,73,2,10,6,9,0.5,0.6
2023-12-25T2200,3190A,116.0254,29.6994,九江市,外国语学校,细颗粒物(PM2.5),105,106,72,79,46,33,,56,48,62,62,43,14,1.5,1
2023-12-25T2200,2658A,98.5061,39.7443,酒泉市,仓门街子站,颗粒物(PM10),130,210,150,71,41,17,,36,,,35,15,24,1.5,1
2023-12-25T2200,2659A,98.4989,39.7256,酒泉市,油田生活基地,颗粒物(PM10),98,146,149,54,43,9,,58,48,65,40,18,20,0.8,0.8
2023-12-25T2200,2698A,76.0072,39.4467,喀什地区,巡警大队,颗粒物(PM10),303,422,488,143,153,21,,53,53,105,71,12,9,2.9,3.8
2023-12-25T2200,2699A,75.9755,39.4694,喀什地区,吾办,颗粒物(PM10),266,396,464,133,163,,,59,59,100,69,6,4,2.5,2.8
2023-12-25T2200,4027A,75.9483,39.4689,喀什地区,老干局,颗粒物(PM10),363,470,533,173,213,18,,54,53,113,58,8,7,5.0,4.4
2023-12-25T2200,1824A,114.3389,34.7781,开封市,肿瘤医院,细颗粒物(PM2.5),155,145,103,118,68,46,,45,45,37,50,4,5,0.7,1.1
2023-12-25T2200,1826A,114.2885,34.7965,开封市,世纪星幼儿园,细颗粒物(PM2.5),156,128,88,119,56,58,,56,56,31,50,5,5,0.8,0.7
2023-12-25T2200,3147A,114.3438,34.8106,开封市,龙亭公园,细颗粒物(PM2.5),201,,96,151,66,46,,57,55,56,56,5,5,0.2,0.4
2023-12-25T2200,3210A,114.3644,34.7964,开封市,汴京公园,细颗粒物(PM2.5),172,147,106,130,72,18,,43,37,69,57,7,7,1.0,0.9
2023-12-25T2200,3473A,114.2485,34.8306,开封市,技师学院,细颗粒物(PM2.5),178,,80,134,57,75,,69,69,37,58,1,3,0.4,0.3
2023-12-25T2200,3592A,114.4644,34.7556,开封市,祥符区生态环境局,细颗粒物(PM2.5),160,194,124,122,71,6,,52,42,102,67,6,6,0.7,0.7
2023-12-25T2200,1951A,84.895,45.6094,克拉玛依市,长征新村,细颗粒物(PM2.5),115,104,108,87,82,48,,48,48,50,68,9,9,0.9,1.1
2023-12-25T2200,1952A,84.8988,45.5893,克拉玛依市,南林小区,细颗粒物(PM2.5),107,116,118,80,87,49,,51,51,34,42,1,1,0.9,1
2023-12-25T2200,1954A,84.905,44.3396,克拉玛依市,独山子区,细颗粒物(PM2.5),125,157,100,95,64,28,,63,58,75,38,4,4,1.3,0.8
2023-12-25T2200,1955A,85.6979,46.098,克拉玛依市,乌尔禾区商贸楼,细颗粒物(PM2.5),79,80,90,58,72,55,,60,60,28,47,7,8,0.7,0.8
2023-12-25T2200,3612A,85.1045,45.6899,克拉玛依市,白碱滩区新站,细颗粒物(PM2.5),120,115,108,91,85,46,,52,52,46,59,9,8,0.9,1
2023-12-25T2200,2697A,76.1454,39.7142,克孜勒苏柯尔克孜自治州,市人民政府,颗粒物(PM10),228,369,388,117,120,53,,70,70,42,27,7,6,0.2,1.1
2023-12-25T2200,3665A,76.1658,39.7157,克孜勒苏柯尔克孜自治州,克州文化中心,颗粒物(PM10),302,421,449,127,132,32,,65,64,62,36,10,9,1.4,1.8
2023-12-25T2200,1450A,102.8204,24.8886,昆明市,呈贡新区,,24,24,34,16,38,39,,41,38,21,19,5,6,0.7,0.9
2023-12-25T2200,1451A,102.6251,24.9608,昆明市,西山森林公园,,27,27,21,9,17,47,,49,48,10,11,7,5,0.7,0.8
2023-12-25T2200,1452A,102.7252,25.0902,昆明市,龙泉镇,,38,33,46,26,37,36,,38,32,22,27,9,9,0.9,1
2023-12-25T2200,1453A,102.7266,25.0375,昆明市,东风东路,,44,44,59,30,43,27,,32,28,27,30,9,8,1.0,1
2023-12-25T2200,1454A,102.6742,25.0669,昆明市,金鼎山,,41,41,46,26,34,28,,40,37,31,26,16,13,0.6,0.7
2023-12-25T2200,1455A,102.6644,25.0401,昆明市,碧鸡广场,,39,35,45,27,38,22,,38,33,35,27,11,8,0.9,1
2023-12-25T2200,3179A,102.7494,25.0119,昆明市,官渡区博物馆,,35,31,43,24,38,34,,42,39,20,23,8,8,0.5,0.5
2023-12-25T2200,3375A,102.8017,24.8336,昆明市,青年创业园,,22,19,37,15,33,47,,47,45,15,17,8,10,0.6,0.8
2023-12-25T2200,3550A,102.7997,24.9786,昆明市,昆明学院,,29,29,50,18,38,35,,41,37,23,23,11,10,0.6,0.7
2023-12-25T2200,3551A,102.5967,24.6736,昆明市,晋宁区生态环境分局,细颗粒物(PM2.5),52,51,54,36,42,26,,47,35,32,19,5,4,1.2,1.1
2023-12-25T2200,3552A,102.6678,24.9856,昆明市,云天化总部,,35,31,40,24,33,37,,44,41,17,18,6,6,0.7,0.8
2023-12-25T2200,1456A,91.1319,29.6514,拉萨市,八廓街,,,50,18,31,11,,,91,86,61,24,9,7,1.4,0.5
2023-12-25T2200,1457A,91.1221,29.6747,拉萨市,市环保局,细颗粒物(PM2.5),75,76,25,55,13,19,,90,73,56,22,12,7,2.2,1
2023-12-25T2200,1458A,91.0874,29.6475,拉萨市,区监测站,,42,33,15,17,9,14,,90,68,83,26,6,6,0.8,0.4
2023-12-25T2200,1459A,91.1774,29.6541,拉萨市,西藏大学,,37,37,17,22,10,55,,88,80,34,14,6,6,0.8,0.7
2023-12-25T2200,1460A,90.9798,29.6588,拉萨市,区辐射站,颗粒物(PM10),51,51,27,35,17,37,,78,67,58,32,10,6,1.1,0.8
2023-12-25T2200,1461A,91.0834,29.6292,拉萨市,拉萨火车站,,,39,17,21,9,,,62,,75,25,5,6,0.9,0.4
2023-12-25T2200,2520A,109.2203,23.7256,来宾市,来宾技工学校,颗粒物(PM10),96,141,71,69,50,9,,101,80,83,36,10,12,1.6,0.9
2023-12-25T2200,3535A,109.1781,23.7297,来宾市,兴宾区政府,细颗粒物(PM2.5),77,90,58,56,42,69,,108,100,28,21,12,12,0.9,0.8
2023-12-25T2200,4002A,109.2416,23.7461,来宾市,中南小学,颗粒物(PM10),85,120,68,57,45,13,,104,75,74,40,7,10,1.7,1.1
2023-12-25T2200,1476A,103.631,36.1031,兰州市,兰炼宾馆,细颗粒物(PM2.5),128,169,143,97,85,12,,38,24,104,81,25,30,2.8,2
2023-12-25T2200,1477A,104.1373,35.9454,兰州市,榆中兰大校区,,,,,,,,,,,,,,,,
2023-12-25T2200,1478A,103.8412,36.0726,兰州市,生物制品所,颗粒物(PM10),99,148,132,70,77,4,,25,18,86,74,17,19,1.5,1.9
2023-12-25T2200,1479A,103.831,36.0464,兰州市,铁路设计院,细颗粒物(PM2.5),138,170,144,105,92,4,,20,16,104,84,34,26,2.7,2.5
2023-12-25T2200,3186A,103.7158,36.1058,兰州市,教育港,颗粒物(PM10),104,157,132,77,74,4,,24,17,96,84,20,20,2.2,2.1
2023-12-25T2200,3241A,103.7439,36.0842,兰州市,百合公园,细颗粒物(PM2.5),137,169,129,104,79,4,,22,16,110,82,26,19,2.8,2.1
2023-12-25T2200,3242A,103.9611,35.998,兰州市,和平,颗粒物(PM10),68,86,127,43,70,11,,28,20,78,72,19,28,1.2,2.2
2023-12-25T2200,3245A,103.6633,36.533,兰州新区,新区管委会,细颗粒物(PM2.5),139,170,98,106,60,4,,45,32,69,44,32,30,2.0,1.3
2023-12-25T2200,3246A,103.6975,36.4789,兰州新区,舟曲中学,细颗粒物(PM2.5),109,157,125,82,65,5,,50,42,90,53,24,25,1.6,1.4
2023-12-25T2200,1067A,116.6708,39.5111,廊坊市,药材公司,细颗粒物(PM2.5),239,266,140,189,96,3,,35,18,134,95,8,5,1.9,1.3
2023-12-25T2200,1068A,116.7214,39.5589,廊坊市,开发区,细颗粒物(PM2.5),229,214,113,179,73,0,,34,15,126,92,5,6,2.1,1.3
2023-12-25T2200,1070A,116.7244,39.5269,廊坊市,北华航天学院,细颗粒物(PM2.5),236,241,116,186,76,4,,37,15,122,92,9,6,1.8,1.3
2023-12-25T2200,2919A,116.7022,39.5453,廊坊市,河北工业大学,细颗粒物(PM2.5),246,252,126,196,87,3,,32,14,119,90,9,7,1.8,1.3
2023-12-25T2200,2535A,103.7723,29.5462,乐山市,花湖湾,细颗粒物(PM2.5),179,196,157,135,106,11,,38,36,57,39,4,4,0.7,0.6
2023-12-25T2200,2536A,103.7627,29.5844,乐山市,牛耳桥,细颗粒物(PM2.5),158,148,125,120,101,28,,35,34,50,46,6,5,1.0,0.9
2023-12-25T2200,2537A,103.7508,29.6006,乐山市,市第三水厂,细颗粒物(PM2.5),168,138,125,127,101,21,,45,37,53,45,6,6,0.9,1
2023-12-25T2200,2538A,103.7571,29.5664,乐山市,市监测站,细颗粒物(PM2.5),178,174,123,134,102,11,,33,30,58,46,9,8,0.9,0.8
2023-12-25T2200,3361A,103.7311,29.5628,乐山市,理工大学,细颗粒物(PM2.5),189,193,138,142,111,8,,30,24,59,52,8,8,0.8,0.8
2023-12-25T2200,2598A,100.2143,26.8576,丽江市,西南郊,,,,,,,,,,,,,,,,
2023-12-25T2200,2599A,100.2497,26.8802,丽江市,丽江古城,,44,44,48,26,32,45,,63,56,24,20,8,9,0.7,0.7
2023-12-25T2200,2600A,100.2203,26.8906,丽江市,市中心,,16,13,28,7,13,49,,63,58,19,17,6,8,0.6,0.7
2023-12-25T2200,1267A,119.914,28.4514,丽水市,监测站大楼,颗粒物(PM10),56,62,53,32,28,13,,70,54,58,35,6,9,0.8,0.6
2023-12-25T2200,1268A,119.93,28.4586,丽水市,莲都小学,细颗粒物(PM2.5),60,48,59,43,32,52,,72,66,24,29,4,5,0.4,0.5
2023-12-25T2200,1269A,119.879,28.4231,丽水市,余庄前,,46,46,52,26,30,19,,66,51,26,25,4,5,0.4,0.4
2023-12-25T2200,1173A,119.176,34.5885,连云港市,市环境监测站,细颗粒物(PM2.5),149,144,112,114,84,33,,59,49,65,54,14,17,1.1,1.1
2023-12-25T2200,3000A,119.3581,34.6972,连云港市,德源药业,细颗粒物(PM2.5),113,119,104,85,69,52,,47,38,41,61,9,13,0.8,0.9
2023-12-25T2200,3007A,119.178,34.844,连云港市,新城一中,细颗粒物(PM2.5),127,115,93,96,78,35,,56,36,64,63,15,18,0.9,1
2023-12-25T2200,3008A,119.3608,34.7519,连云港市,胡沟管理处,细颗粒物(PM2.5),83,92,89,61,59,63,,58,57,37,48,12,16,0.7,0.9
2023-12-25T2200,3009A,119.1478,34.5911,连云港市,矿山设计院,细颗粒物(PM2.5),144,149,118,110,79,22,,55,46,65,50,10,14,0.9,0.9
2023-12-25T2200,3434A,119.2413,34.6539,连云港市,工贸学校,细颗粒物(PM2.5),124,129,110,94,76,74,,72,71,29,40,13,16,0.9,1
2023-12-25T2200,3664A,119.4172,34.7341,连云港市,连云街道,细颗粒物(PM2.5),77,91,90,56,60,71,,52,51,26,33,6,17,0.7,0.9
2023-12-25T2200,2571A,102.3431,27.8099,凉山彝族自治州,青龙寺,,38,38,33,15,13,50,,74,67,10,10,5,5,0.8,0.8
2023-12-25T2200,2572A,102.2721,27.8415,凉山彝族自治州,邛海宾馆,,43,38,34,30,28,29,,65,52,31,14,8,11,0.8,0.9
2023-12-25T2200,2573A,102.2625,27.898,凉山彝族自治州,西昌市政府,细颗粒物(PM2.5),57,54,40,40,33,22,,64,54,37,15,14,12,0.8,0.8
2023-12-25T2200,2574A,102.2685,27.8851,凉山彝族自治州,凉山州政府,细颗粒物(PM2.5),60,58,40,43,32,25,,62,53,36,14,15,9,1.0,0.8
2023-12-25T2200,2575A,102.237,27.8914,凉山彝族自治州,长安,细颗粒物(PM2.5),57,57,39,40,31,44,,59,55,25,18,16,13,0.9,0.9
2023-12-25T2200,2212A,123.2,41.1953,辽阳市,宏伟区,细颗粒物(PM2.5),53,50,99,37,93,59,,63,62,20,41,12,19,0.5,1.4
2023-12-25T2200,2213A,123.1683,41.2495,辽阳市,新华园,颗粒物(PM10),51,52,120,32,102,48,,56,54,32,52,13,21,0.8,2.1
2023-12-25T2200,2214A,123.2354,41.2639,辽阳市,滨河路,细颗粒物(PM2.5),70,,82,51,82,61,,61,61,18,44,52,18,1.0,1.5
2023-12-25T2200,2215A,123.149,41.2991,辽阳市,铁西工业园,颗粒物(PM10),51,51,193,32,190,50,,53,52,24,53,17,17,0.8,3.1
2023-12-25T2200,2227A,125.1358,42.8845,辽源市,环保局,,26,26,60,14,44,74,,69,67,11,38,10,11,0.8,1.3
2023-12-25T2200,3239A,125.0764,42.9078,辽源市,银鹰制药,,26,26,60,16,47,72,,76,75,12,32,9,15,0.8,1.1
2023-12-25T2200,1625A,115.9848,36.4372,聊城市,区政府,细颗粒物(PM2.5),119,150,145,90,93,54,,62,59,41,50,7,7,0.9,1
2023-12-25T2200,2878A,116.0072,36.4343,聊城市,聊大东校,细颗粒物(PM2.5),128,143,132,97,97,57,,67,63,38,47,7,8,0.6,0.7
2023-12-25T2200,3200A,115.9819,36.4978,聊城市,监控中心,细颗粒物(PM2.5),122,150,139,92,91,67,,69,67,27,42,4,5,0.9,0.9
2023-12-25T2200,3513A,116.0445,36.4361,聊城市,九州社区,细颗粒物(PM2.5),119,146,131,90,89,52,,67,60,40,49,5,6,0.9,1
2023-12-25T2200,4018A,116.0567,36.4608,聊城市,星美广场,细颗粒物(PM2.5),120,155,136,91,87,53,,65,58,34,42,4,3,0.8,0.8
2023-12-25T2200,2632A,94.3681,29.6376,林芝市,林芝监测站,,26,23,8,18,5,43,,74,66,27,10,7,7,0.7,0.4
2023-12-25T2200,2633A,94.3616,29.6616,林芝市,林芝人民医院,,19,17,12,13,7,56,,78,74,16,9,8,8,0.8,0.6
2023-12-25T2200,2603A,100.0781,23.8982,临沧市,市环保局,,48,37,20,33,22,22,,56,44,16,8,5,6,0.5,0.4
2023-12-25T2200,2604A,100.0894,23.8822,临沧市,市气象局,,46,32,20,32,15,25,,57,45,15,9,6,5,0.5,0.5
2023-12-25T2200,1733A,111.5531,36.0783,临汾市,临钢医院,细颗粒物(PM2.5),87,118,85,64,49,2,,55,39,61,41,7,12,1.3,1
2023-12-25T2200,1734A,111.5028,36.0714,临汾市,技工学校,细颗粒物(PM2.5),92,130,88,68,52,6,,59,40,75,52,12,15,1.3,1
2023-12-25T2200,1736A,111.5018,36.0855,临汾市,市委,颗粒物(PM10),113,176,93,67,47,7,,65,48,72,51,10,14,1.3,1
2023-12-25T2200,3018A,111.505,36.1014,临汾市,唐尧大酒店,细颗粒物(PM2.5),97,135,87,72,48,3,,56,40,66,49,9,14,1.3,1
2023-12-25T2200,3668A,111.5036,36.0414,临汾市,城南,细颗粒物(PM2.5),102,117,99,76,51,,,54,44,70,50,14,9,1.0,1.2
2023-12-25T2200,2667A,103.2069,35.5993,临夏回族自治州,环保局,颗粒物(PM10),79,108,76,45,33,1,,64,48,64,49,42,22,3.7,2.5
2023-12-25T2200,2668A,103.2417,35.6057,临夏回族自治州,建设大厦,颗粒物(PM10),97,143,81,49,33,12,,65,49,54,38,14,11,1.8,1.4
2023-12-25T2200,1618A,118.3429,35.0532,临沂市,沂河小区,细颗粒物(PM2.5),130,136,119,99,83,29,,67,52,81,68,36,21,1.0,1
2023-12-25T2200,1619A,118.295,35.0583,临沂市,鲁南制药厂,细颗粒物(PM2.5),108,117,141,81,86,33,,60,54,66,70,36,34,1.2,1.5
2023-12-25T2200,1620A,118.2794,34.9976,临沂市,新光毛纺厂,细颗粒物(PM2.5),115,132,126,87,83,23,,59,48,74,65,38,23,1.0,1
2023-12-25T2200,1621A,118.3956,35.0888,临沂市,河东保险公司,细颗粒物(PM2.5),119,112,115,90,81,30,,56,39,65,65,20,14,1.2,1.3
2023-12-25T2200,3370A,118.3564,35.0215,临沂市,十里堡居委,细颗粒物(PM2.5),138,144,117,105,79,23,,62,45,71,62,23,19,1.5,1.5
2023-12-25T2200,3496A,118.3604,35.1084,临沂市,南坊新区,细颗粒物(PM2.5),100,110,110,75,77,35,,57,49,61,66,21,16,1.2,1.3
2023-12-25T2200,3860A,118.3920,35.0300,临沂市,皇山花园小区,细颗粒物(PM2.5),118,139,118,89,73,33,,62,48,65,62,22,18,1.0,1
2023-12-25T2200,1870A,109.4856,24.3895,柳州市,柳东小学,细颗粒物(PM2.5),80,60,45,59,43,91,,108,105,25,17,17,17,0.7,0.6
2023-12-25T2200,1871A,109.4157,24.3277,柳州市,环保监测站,细颗粒物(PM2.5),87,100,71,64,49,6,,93,62,91,43,9,13,1.4,0.9
2023-12-25T2200,1872A,109.389,24.341,柳州市,河西水厂,细颗粒物(PM2.5),135,216,104,103,53,3,,88,58,93,44,19,21,1.9,1.3
2023-12-25T2200,1873A,109.4311,24.2921,柳州市,市四中,细颗粒物(PM2.5),92,126,66,68,45,11,,100,65,79,35,9,11,1.8,0.9
2023-12-25T2200,1874A,109.4006,24.3631,柳州市,市九中,细颗粒物(PM2.5),83,102,81,61,57,17,,89,55,76,46,8,10,1.1,0.9
2023-12-25T2200,1875A,109.4958,24.3134,柳州市,古亭山,,49,40,45,34,33,5,,97,62,83,28,12,13,0.9,0.8
2023-12-25T2200,3402A,109.5422,24.3996,柳州市,市二中,细颗粒物(PM2.5),60,59,50,43,36,25,,109,82,49,23,6,9,0.8,0.6
2023-12-25T2200,2307A,116.5079,31.737,六安市,监测大楼,细颗粒物(PM2.5),68,69,73,49,44,54,,87,78,36,35,5,4,0.6,0.6
2023-12-25T2200,2308A,116.4738,31.7643,六安市,皖西学院,细颗粒物(PM2.5),69,74,79,50,40,61,,90,83,35,38,5,4,0.6,0.6
2023-12-25T2200,2309A,116.4996,31.7905,六安市,朝阳厂,细颗粒物(PM2.5),70,69,69,51,44,57,,83,75,39,37,6,6,0.4,0.6
2023-12-25T2200,2310A,116.5567,31.7886,六安市,开发区,细颗粒物(PM2.5),80,107,89,59,48,40,,86,69,56,38,27,8,0.8,0.8
2023-12-25T2200,2576A,104.8,26.5892,六盘水市,窑上,,,,,,,,,,,,,,,,
2023-12-25T2200,2577A,104.83,26.5917,六盘水市,黄土坡,细颗粒物(PM2.5),72,78,58,52,42,105,,74,74,21,27,14,15,0.8,1.1
2023-12-25T2200,2578A,104.89,26.5939,六盘水市,水钢,细颗粒物(PM2.5),89,87,55,66,44,106,,88,88,17,18,9,7,0.7,0.7
2023-12-25T2200,2579A,104.8475,26.5894,六盘水市,民中,细颗粒物(PM2.5),89,69,49,66,42,101,,78,78,19,23,12,12,0.8,0.9
2023-12-25T2200,2580A,104.9544,26.5506,六盘水市,双水,细颗粒物(PM2.5),73,78,51,53,39,106,,96,96,17,17,12,10,0.7,0.7
2023-12-25T2200,2335A,117.0189,25.1181,龙岩市,龙岩师专,,,,,,,,,,,,,,,,
2023-12-25T2200,2336A,117.0217,25.1033,龙岩市,龙岩市监测站,颗粒物(PM10),54,57,30,21,16,11,,86,52,49,18,9,11,0.7,0.4
2023-12-25T2200,2337A,117.0258,25.0661,龙岩市,闽西职业技术学院,,39,39,29,16,16,15,,82,48,47,19,9,8,0.7,0.7
2023-12-25T2200,2338A,117.0196,25.0306,龙岩市,龙岩学院,,29,29,27,18,19,28,,77,56,27,13,6,5,0.4,0.4
2023-12-25T2200,2665A,105.0822,33.3261,陇南市,汉王镇固水子,,,,,,,,,,,,,,,,
2023-12-25T2200,2885A,104.9339,33.3826,陇南市,滨江中学,细颗粒物(PM2.5),128,140,92,97,52,4,,48,35,77,50,45,44,3.9,1.9
2023-12-25T2200,3247A,104.955,33.371,陇南市,市总工会,颗粒物(PM10),74,97,85,48,48,24,,56,47,54,43,6,18,1.5,1
2023-12-25T2200,2487A,111.9589,27.8901,娄底市,电视发射台,颗粒物(PM10),54,58,58,37,31,73,,92,87,13,11,7,6,1.1,1.1
2023-12-25T2200,2488A,111.9975,27.725,娄底市,市监测站,细颗粒物(PM2.5),105,116,125,79,85,22,,73,63,83,59,13,16,1.6,1.8
2023-12-25T2200,2489A,112.0194,27.7314,娄底市,市委党校,细颗粒物(PM2.5),85,99,116,63,74,44,,59,53,43,50,12,13,0.9,1.3
2023-12-25T2200,2490A,111.9561,27.7569,娄底市,涟钢,细颗粒物(PM2.5),123,164,119,93,74,6,,57,45,80,50,16,20,1.6,1.7
2023-12-25T2200,2491A,111.9892,27.7044,娄底市,市政府,细颗粒物(PM2.5),128,145,92,97,65,8,,77,54,77,41,9,8,1.9,1.1
2023-12-25T2200,1893A,105.4324,28.9634,泸州市,九狮山,细颗粒物(PM2.5),200,160,125,150,103,7,,32,26,38,34,7,7,0.7,0.6
2023-12-25T2200,1894A,105.4427,28.9063,泸州市,小市上码头,细颗粒物(PM2.5),196,192,130,147,100,15,,38,24,46,35,5,6,1.1,0.8
2023-12-25T2200,1895A,105.4241,28.8573,泸州市,兰田宪桥,细颗粒物(PM2.5),198,178,126,148,103,16,,24,22,41,35,9,6,1.1,0.9
2023-12-25T2200,1896A,105.4379,28.8833,泸州市,市环监站,细颗粒物(PM2.5),186,163,119,140,101,17,,21,17,38,37,10,10,0.9,0.8
2023-12-25T2200,3490A,105.3617,28.7703,泸州市,纳溪区环保局,细颗粒物(PM2.5),203,194,126,153,97,18,,28,26,47,39,6,6,1.0,0.7
2023-12-25T2200,2183A,111.1406,37.5211,吕梁市,环保局,颗粒物(PM10),83,116,83,44,36,2,,50,24,75,61,4,4,1.0,0.7
2023-12-25T2200,2185A,111.1297,37.5136,吕梁市,自来水公司,颗粒物(PM10),65,79,80,43,44,5,,45,21,68,56,12,10,0.9,1
2023-12-25T2200,2867A,111.1283,37.51,吕梁市,马茂庄小学,颗粒物(PM10),81,112,91,49,45,3,,48,25,77,58,4,7,1.6,1.2
2023-12-25T2200,1812A,112.3931,34.6516,洛阳市,市委党校,细颗粒物(PM2.5),119,137,80,90,48,4,,46,31,78,55,9,6,1.3,1
2023-12-25T2200,1814A,112.4657,34.6871,洛阳市,豫西宾馆,颗粒物(PM10),96,141,79,70,41,7,,53,35,83,59,16,9,1.6,1
2023-12-25T2200,1815A,112.494,34.6886,洛阳市,河南林校,细颗粒物(PM2.5),77,97,72,56,40,4,,50,33,73,54,9,9,1.1,0.8
2023-12-25T2200,1816A,112.3844,34.623,洛阳市,开发区管委会,细颗粒物(PM2.5),70,76,56,51,35,3,,49,35,72,37,3,4,1.1,0.7
2023-12-25T2200,1817A,112.4267,34.6258,洛阳市,市委新办公区,细颗粒物(PM2.5),97,112,63,72,45,6,,47,26,78,46,8,6,1.5,0.8
2023-12-25T2200,3340A,112.6005,34.6326,洛阳市,伊滨,"颗粒物(PM10),细颗粒物(PM2.5)",99,147,87,74,46,2,,44,24,62,46,2,4,1.2,0.9
2023-12-25T2200,3341A,112.4951,34.6332,洛阳市,中移产业园,细颗粒物(PM2.5),92,101,63,68,42,4,,52,31,81,44,11,7,1.7,1
2023-12-25T2200,3593A,112.5736,34.8993,洛阳市,吉利监测站,颗粒物(PM10),73,95,64,44,32,2,,53,29,61,47,4,7,0.9,0.7
2023-12-25T2200,3635A,112.3677,34.662,洛阳市,河科大西苑校区,细颗粒物(PM2.5),133,147,92,101,55,4,,50,33,70,52,10,8,1.2,1
2023-12-25T2200,3636A,112.4388,34.6781,洛阳市,英才小学,细颗粒物(PM2.5),94,119,75,70,45,5,,51,35,73,51,14,8,1.5,1
2023-12-25T2200,2399A,114.051,33.5699,漯河市,三五一五工厂,细颗粒物(PM2.5),124,134,138,94,104,46,,80,66,49,52,6,7,0.7,0.8
2023-12-25T2200,2400A,114.0055,33.5698,漯河市,漯河大学,细颗粒物(PM2.5),109,113,127,82,94,68,,92,87,41,46,7,7,0.7,0.8
2023-12-25T2200,2401A,114.0138,33.5828,漯河市,市水利局,细颗粒物(PM2.5),110,119,132,83,97,72,,91,87,24,34,8,9,0.7,0.8
2023-12-25T2200,2402A,114.0261,33.5698,漯河市,市广电局,细颗粒物(PM2.5),108,122,132,81,92,62,,86,80,34,41,4,5,0.6,0.7
2023-12-25T2200,3478A,113.9749,33.5664,漯河市,市图书馆,细颗粒物(PM2.5),120,129,136,91,103,61,,86,80,31,29,7,7,0.6,0.6
2023-12-25T2200,3479A,114.0967,33.5906,漯河市,召陵区卫健委,细颗粒物(PM2.5),112,131,148,84,100,60,,82,76,35,46,7,12,0.6,0.7
2023-12-25T2200,1798A,118.5092,31.6837,马鞍山市,湖东路四小,,,93,84,,51,48,,74,57,58,58,8,9,0.7,0.9
2023-12-25T2200,1799A,118.5024,31.6449,马鞍山市,开发区,细颗粒物(PM2.5),94,100,94,70,68,19,,76,48,81,61,9,11,0.8,1.1
2023-12-25T2200,1800A,118.5228,31.7231,马鞍山市,慈湖,细颗粒物(PM2.5),83,81,101,61,66,55,,74,70,54,54,5,9,0.9,1.3
2023-12-25T2200,1802A,118.6245,31.7241,马鞍山市,濮塘,颗粒物(PM10),61,71,81,37,44,86,,85,85,9,19,6,9,0.5,0.9
2023-12-25T2200,3633A,118.4918,31.6809,马鞍山市,雨山,颗粒物(PM10),84,118,97,59,56,32,,73,57,73,65,8,10,0.7,0.7
2023-12-25T2200,1686A,111.0286,21.4688,茂名市,电白南海,颗粒物(PM10),64,78,49,34,24,69,,100,90,29,21,13,14,0.4,0.4
2023-12-25T2200,1687A,110.9294,21.6533,茂名市,茂石化七小,颗粒物(PM10),56,61,52,36,31,68,,92,83,24,21,18,15,0.5,0.5
2023-12-25T2200,1688A,110.9107,21.6687,茂名市,健康路,颗粒物(PM10),54,58,48,27,26,71,,96,88,27,22,12,21,0.7,0.8
2023-12-25T2200,1689A,110.8592,21.6828,茂名市,高岭,颗粒物(PM10),53,56,59,36,33,65,,91,78,42,29,20,30,0.4,0.3
2023-12-25T2200,3450A,111.01,21.5165,茂名市,电白水东,,,,45,,22,,,92,88,24,18,16,10,,0.4
2023-12-25T2200,2539A,104.0308,30.0478,眉山市,黑龙滩水库,细颗粒物(PM2.5),93,113,86,69,54,38,,101,88,29,9,4,4,0.6,0.5
2023-12-25T2200,2540A,103.8416,30.0874,眉山市,气象局,细颗粒物(PM2.5),153,125,100,117,90,25,,64,55,57,46,7,7,1.0,0.9
2023-12-25T2200,3137A,103.8578,30.0744,眉山市,市委党校,细颗粒物(PM2.5),138,136,108,105,84,23,,65,55,57,45,7,7,0.7,0.7
2023-12-25T2200,3148A,103.8291,30.0564,眉山市,区人社局,细颗粒物(PM2.5),138,120,88,105,89,24,,58,50,60,52,7,8,0.8,0.9
2023-12-25T2200,1690A,116.1231,24.3284,梅州市,梅江月梅,颗粒物(PM10),51,51,33,29,20,7,,72,54,56,33,8,9,0.7,0.7
2023-12-25T2200,1691A,116.0797,24.2719,梅州市,梅县新城,颗粒物(PM10),54,58,41,31,26,4,,63,37,54,42,4,5,0.8,0.6
2023-12-25T2200,1692A,116.1248,24.2654,梅州市,环境监控中心,颗粒物(PM10),55,60,40,32,24,4,,59,40,64,39,6,8,0.6,0.5
2023-12-25T2200,3315A,116.1233,24.2991,梅州市,梅龙,颗粒物(PM10),52,53,38,28,22,11,,63,45,44,32,6,7,0.6,0.5
2023-12-25T2200,1878A,104.7778,31.4741,绵阳市,富乐山,细颗粒物(PM2.5),92,86,75,68,59,17,,68,58,65,46,6,6,0.9,0.8
2023-12-25T2200,1879A,104.7563,31.4535,绵阳市,市人大,细颗粒物(PM2.5),104,100,92,78,67,5,,59,45,85,49,8,6,1.2,1
2023-12-25T2200,1880A,104.6697,31.4668,绵阳市,高新区自来水公司,细颗粒物(PM2.5),120,126,116,91,65,6,,51,40,66,44,8,8,1.0,0.9
2023-12-25T2200,1881A,104.7287,31.5075,绵阳市,三水厂,细颗粒物(PM2.5),109,115,103,82,72,6,,59,44,75,46,6,6,1.2,1
2023-12-25T2200,3491A,104.69,31.5322,绵阳市,西科大附属小学,细颗粒物(PM2.5),122,114,96,92,69,35,,63,51,50,48,5,6,0.8,0.9
2023-12-25T2200,3492A,104.5648,31.5343,绵阳市,安州区旅游局,细颗粒物(PM2.5),148,152,106,113,72,5,,56,37,73,47,7,7,1.9,1.4
2023-12-25T2200,1784A,129.61,44.561,牡丹江市,环保大楼,细颗粒物(PM2.5),117,118,82,88,58,13,,54,25,66,49,16,13,1.4,1
2023-12-25T2200,1785A,129.6115,44.5782,牡丹江市,文化广场,细颗粒物(PM2.5),188,218,85,141,66,10,,48,23,71,51,25,17,2.1,1.2
2023-12-25T2200,1786A,129.5904,44.5963,牡丹江市,第一医院,细颗粒物(PM2.5),78,62,88,57,79,16,,41,22,56,54,15,15,1.3,1.3
2023-12-25T2200,1787A,129.6364,44.6075,牡丹江市,机车工厂,细颗粒物(PM2.5),112,108,108,84,77,9,,39,14,69,59,34,45,1.5,1.3
2023-12-25T2200,1788A,129.6386,44.5462,牡丹江市,第一中学,细颗粒物(PM2.5),82,91,87,60,62,24,,50,24,52,47,16,13,1.1,1
2023-12-25T2200,2531A,105.0703,29.61,内江市,市监测站,细颗粒物(PM2.5),150,124,88,115,92,17,,42,40,48,31,8,7,1.0,0.8
2023-12-25T2200,2532A,105.0717,29.5947,内江市,东兴区政府,细颗粒物(PM2.5),127,116,91,96,79,28,,43,43,49,38,8,7,0.9,0.8
2023-12-25T2200,2533A,105.0653,29.5817,内江市,内江二中,细颗粒物(PM2.5),137,119,95,104,85,38,,50,48,46,42,7,6,1.0,0.8
2023-12-25T2200,2534A,105.0406,29.5822,内江市,内江日报社,细颗粒物(PM2.5),132,127,95,100,84,35,,41,41,47,48,5,6,0.8,0.8
2023-12-25T2200,1290A,115.8931,28.6843,南昌市,省外办,颗粒物(PM10),93,136,129,68,68,9,,54,38,85,60,6,8,1.3,1.3
2023-12-25T2200,1291A,115.8886,28.7003,南昌市,省林业公司,颗粒物(PM10),80,110,114,56,57,3,,57,42,88,65,8,9,1.0,1
2023-12-25T2200,1292A,115.8126,28.7442,南昌市,林科所,颗粒物(PM10),74,97,86,44,45,17,,62,53,59,51,11,11,0.7,0.7
2023-12-25T2200,1294A,115.8518,28.687,南昌市,建工学校,颗粒物(PM10),99,147,113,46,53,3,,59,45,94,61,9,10,1.2,0.9
2023-12-25T2200,1295A,115.8921,28.6424,南昌市,象湖,颗粒物(PM10),102,154,117,68,65,1,,53,34,96,69,8,10,2.0,1.5
2023-12-25T2200,1296A,115.7423,28.7996,南昌市,武术学校,颗粒物(PM10),53,56,37,9,16,22,,60,45,18,17,8,8,0.4,0.3
2023-12-25T2200,1298A,115.9314,28.6842,南昌市,省站,细颗粒物(PM2.5),113,171,132,85,67,8,,60,44,87,60,12,12,1.6,1.1
2023-12-25T2200,3046A,115.9084,28.6062,南昌市,机电学校,颗粒物(PM10),96,142,140,66,65,6,,62,42,92,61,12,11,1.0,0.9
2023-12-25T2200,3690A,115.9721,28.7031,南昌市,外国语学校,颗粒物(PM10),102,154,119,62,62,11,,73,55,88,54,10,10,1.2,0.9
2023-12-25T2200,1905A,106.056,30.8064,南充市,西山风景区,细颗粒物(PM2.5),95,80,77,71,73,66,,62,62,20,27,4,6,0.7,0.7
2023-12-25T2200,1906A,106.0789,30.8023,南充市,南充市委,细颗粒物(PM2.5),85,95,93,63,61,22,,28,25,53,42,5,6,0.7,0.8
2023-12-25T2200,1907A,106.1031,30.8217,南充市,南充炼油厂,细颗粒物(PM2.5),112,110,106,84,81,40,,40,39,39,39,8,8,0.5,0.6
2023-12-25T2200,1908A,106.1064,30.7856,南充市,高坪区监测站,细颗粒物(PM2.5),109,104,111,82,76,31,,42,35,50,38,7,7,0.6,0.6
2023-12-25T2200,1909A,106.0642,30.7636,南充市,嘉陵区环保局,细颗粒物(PM2.5),94,98,104,70,71,23,,32,31,55,44,5,5,0.7,0.7
2023-12-25T2200,1910A,106.1087,30.8388,南充市,市环境监测站,细颗粒物(PM2.5),95,98,105,71,73,46,,44,44,28,34,8,9,0.6,0.6
2023-12-25T2200,1151A,118.8086,32.1065,南京市,迈皋桥,颗粒物(PM10),80,109,96,58,49,1,,50,27,85,64,5,7,1.2,0.9
2023-12-25T2200,1152A,118.7538,32.0551,南京市,草场门,细颗粒物(PM2.5),77,100,91,56,48,14,,68,47,103,78,4,8,0.9,0.7
2023-12-25T2200,1153A,118.7794,32.0745,南京市,山西路,细颗粒物(PM2.5),85,104,100,63,55,70,,69,59,35,79,10,12,0.3,0.6
2023-12-25T2200,1154A,118.7752,32.0023,南京市,中华门,细颗粒物(PM2.5),83,107,87,61,47,7,,62,44,95,74,10,13,1.1,1.1
2023-12-25T2200,1155A,118.8109,32.0309,南京市,瑞金路,细颗粒物(PM2.5),79,102,102,58,52,7,,50,33,126,89,4,8,1.2,1.1
2023-12-25T2200,1156A,118.7997,32.0754,南京市,玄武湖,细颗粒物(PM2.5),68,77,85,49,48,34,,50,44,56,64,8,10,0.9,1
2023-12-25T2200,1157A,118.6414,32.0931,南京市,浦口,颗粒物(PM10),74,97,100,53,54,45,,55,50,59,48,5,8,0.5,0.6
2023-12-25T2200,1158A,118.7356,31.9996,南京市,奥体中心,细颗粒物(PM2.5),85,115,98,63,51,8,,65,49,108,76,6,10,1.2,1
2023-12-25T2200,1159A,118.9125,32.1028,南京市,仙林大学城,"颗粒物(PM10),细颗粒物(PM2.5)",79,107,89,58,48,37,,52,45,60,68,6,7,0.8,1.1
2023-12-25T2200,3422A,118.8436,31.9198,南京市,江宁彩虹桥,"颗粒物(PM10),细颗粒物(PM2.5)",83,116,99,61,48,12,,64,45,94,73,8,9,0.9,0.8
2023-12-25T2200,3423A,119.0138,31.6494,南京市,溧水永阳,细颗粒物(PM2.5),95,102,82,71,58,24,,85,56,66,40,4,4,0.8,0.7
2023-12-25T2200,3424A,118.879,31.3302,南京市,高淳老职中,细颗粒物(PM2.5),90,96,80,67,54,50,,93,86,48,35,11,6,0.7,0.6
2023-12-25T2200,3427A,118.8554,32.3578,南京市,六合雄州,细颗粒物(PM2.5),83,107,102,61,51,4,,82,54,87,49,13,15,0.9,0.8
2023-12-25T2200,1401A,108.3103,22.7881,南宁市,二十一中,细颗粒物(PM2.5),82,66,62,60,44,78,,113,106,46,43,11,15,0.8,0.7
2023-12-25T2200,1402A,108.3141,22.8528,南宁市,北湖,细颗粒物(PM2.5),105,95,70,79,44,9,,107,87,78,39,9,12,1.0,0.8
2023-12-25T2200,1403A,108.3206,22.8225,南宁市,市监测站,细颗粒物(PM2.5),85,66,69,63,47,54,,106,93,77,60,10,13,1.0,0.8
2023-12-25T2200,1404A,108.3829,22.8037,南宁市,大自然花园,细颗粒物(PM2.5),93,71,52,69,40,56,,103,90,52,34,9,10,0.7,0.5
2023-12-25T2200,1405A,108.4394,22.7904,南宁市,仙葫,细颗粒物(PM2.5),98,97,65,73,41,42,,107,95,71,35,8,9,0.9,0.7
2023-12-25T2200,1406A,108.2397,22.8467,南宁市,区农职院,细颗粒物(PM2.5),79,104,57,58,35,16,,78,50,79,44,14,14,0.8,0.7
2023-12-25T2200,1407A,108.3275,22.735,南宁市,英华嘉园,细颗粒物(PM2.5),80,80,54,59,39,34,,100,84,81,44,9,13,0.6,0.6
2023-12-25T2200,1408A,108.2257,22.7757,南宁市,沙井镇街道办,细颗粒物(PM2.5),94,130,98,70,49,11,,91,65,91,53,13,21,0.8,0.7
2023-12-25T2200,3401A,108.4834,22.7618,南宁市,红星社区,细颗粒物(PM2.5),119,136,58,90,45,37,,94,84,57,32,8,8,0.8,0.5
2023-12-25T2200,2331A,118.0966,26.6761,南平市,茫荡山,,,,,,,,,,,,,,,,
2023-12-25T2200,2332A,118.1681,26.6369,南平市,南平市监测站,,41,41,33,28,22,13,,80,54,46,29,5,5,0.9,0.7
2023-12-25T2200,2333A,118.1825,26.6489,南平市,南平铝业有限公司,,39,39,35,23,21,7,,67,44,49,29,9,6,0.6,0.5
2023-12-25T2200,2334A,118.1756,26.6272,南平市,南平七中,,26,26,32,0,25,18,,72,55,43,23,6,6,0.6,0.5
2023-12-25T2200,1168A,120.9098,31.9663,南通市,狼山街道,细颗粒物(PM2.5),148,153,83,113,61,4,,63,33,90,46,8,10,0.9,0.6
2023-12-25T2200,1169A,120.86,32.0005,南通市,虹桥,细颗粒物(PM2.5),137,161,98,104,71,2,,70,38,104,61,12,8,1.3,1
2023-12-25T2200,1170A,120.87,32.02,南通市,城中,细颗粒物(PM2.5),133,127,90,101,64,5,,70,38,97,57,8,10,1.0,0.8
2023-12-25T2200,1171A,120.94,31.93,南通市,星湖花园,细颗粒物(PM2.5),130,142,93,99,61,1,,51,22,95,56,7,9,1.1,0.9
2023-12-25T2200,1172A,120.81,32.0417,南通市,紫琅学院,细颗粒物(PM2.5),105,146,105,79,68,2,,69,35,101,64,8,9,1.1,0.6
2023-12-25T2200,3291A,121.067,32.062,南通市,通州监测站,细颗粒物(PM2.5),147,149,112,112,76,66,,79,63,39,54,6,8,0.7,0.8
2023-12-25T2200,3432A,120.9348,31.9883,南通市,环境教育馆,细颗粒物(PM2.5),133,127,79,101,63,5,,79,40,82,46,8,10,1.1,0.8
2023-12-25T2200,2404A,112.5224,33.0122,南阳市,瓦房庄,细颗粒物(PM2.5),192,175,142,144,118,3,,67,42,98,61,7,8,1.9,1.3
2023-12-25T2200,2405A,112.5003,32.9735,南阳市,汉画馆,细颗粒物(PM2.5),183,184,143,138,109,4,,75,47,88,55,7,9,1.3,1
2023-12-25T2200,2406A,112.5573,33.027,南阳市,气象站,细颗粒物(PM2.5),206,177,146,156,115,7,,71,50,98,60,7,7,1.4,1.1
2023-12-25T2200,2407A,112.5481,32.9689,南阳市,理工学院,细颗粒物(PM2.5),159,160,135,121,100,5,,87,58,115,63,8,9,1.1,1
2023-12-25T2200,4008A,112.5234,32.9922,南阳市,卧龙区政府,细颗粒物(PM2.5),168,165,138,127,107,7,,74,47,102,66,6,8,1.5,1.2
2023-12-25T2200,1234A,121.8358,29.911,宁波市,区环保大楼,细颗粒物(PM2.5),104,122,119,78,72,9,,79,50,94,68,6,10,1.0,0.9
2023-12-25T2200,1235A,121.56,29.82,宁波市,万里学院,细颗粒物(PM2.5),128,157,120,97,72,4,,79,52,110,65,6,7,1.0,0.7
2023-12-25T2200,1236A,121.713,29.9572,宁波市,龙赛医院,细颗粒物(PM2.5),122,173,126,92,70,2,,88,57,123,71,9,9,1.2,1.1
2023-12-25T2200,1239A,121.633,29.7733,宁波市,钱湖水厂,细颗粒物(PM2.5),119,132,138,90,73,40,,78,65,53,56,9,10,0.9,0.8
2023-12-25T2200,1240A,121.5856,29.8635,宁波市,太古小学,细颗粒物(PM2.5),128,143,103,97,73,4,,80,52,119,65,10,9,1.4,1
2023-12-25T2200,1241A,121.524,29.8674,宁波市,市环境监测中心,细颗粒物(PM2.5),127,157,124,96,70,2,,83,51,110,62,12,12,1.5,1.2
2023-12-25T2200,2871A,121.6147,29.9017,宁波市,万里国际学校,细颗粒物(PM2.5),130,133,112,99,81,4,,76,46,116,67,10,10,1.4,1.2
2023-12-25T2200,3710A,121.5594,29.8975,宁波市,白沙活动中心,细颗粒物(PM2.5),142,158,109,108,73,2,,84,42,119,75,8,9,1.4,1.1
2023-12-25T2200,2339A,119.5001,26.6946,宁德市,金涵水库,,,,,,,,,,,,,,,,
2023-12-25T2200,2341A,119.5388,26.6612,宁德市,宁德市监测站,,45,41,39,31,28,65,,93,85,15,16,6,6,0.6,0.6
2023-12-25T2200,3209A,119.5231,26.6562,宁德市,宁德一中,颗粒物(PM10),51,51,42,26,23,60,,85,81,18,16,2,2,0.7,0.7
2023-12-25T2200,2618A,98.8601,25.8567,怒江州,州监测站,,38,38,27,26,18,13,,56,51,33,14,9,9,0.6,0.4
2023-12-25T2200,2619A,98.8546,25.8417,怒江州,泸水一中,,42,42,24,25,18,3,,45,36,35,19,7,7,0.7,0.4
2023-12-25T2200,1888A,101.6891,26.571,攀枝花市,弄弄坪,颗粒物(PM10),62,73,53,32,31,9,,39,33,54,33,40,40,1.5,1.2
2023-12-25T2200,1889A,101.5769,26.5928,攀枝花市,河门口,,32,32,42,22,29,32,,47,46,20,23,9,17,0.9,1.2
2023-12-25T2200,1890A,101.7169,26.585,攀枝花市,炳草岗,颗粒物(PM10),59,68,52,28,32,10,,40,34,53,34,43,57,1.1,0.9
2023-12-25T2200,1891A,101.7369,26.5008,攀枝花市,仁和,,46,44,32,32,24,22,,54,44,24,18,7,10,0.8,0.8
2023-12-25T2200,2835A,101.7227,26.567,攀枝花市,四十中小,,46,46,49,28,32,29,,47,44,41,30,74,65,1.6,1.2
2023-12-25T2200,1604A,122.0303,41.1489,盘锦市,开发区,,38,36,84,26,66,42,,52,49,41,70,12,49,1.0,1.7
2023-12-25T2200,1605A,122.0485,41.0883,盘锦市,兴隆台,,50,50,91,34,76,33,,55,50,45,61,9,35,1.3,2.1
2023-12-25T2200,1606A,121.8297,41.1028,盘锦市,新生街道,颗粒物(PM10),54,58,97,29,70,34,,52,48,44,46,11,29,1.1,1.5
2023-12-25T2200,1832A,113.3257,33.742,平顶山市,新华旅馆,细颗粒物(PM2.5),186,209,164,140,93,13,,72,56,77,53,8,10,1.1,1.1
2023-12-25T2200,1833A,113.2919,33.737,平顶山市,规划设计院,细颗粒物(PM2.5),189,193,148,142,93,18,,82,67,78,48,9,13,1.3,1.1
2023-12-25T2200,1834A,113.182,33.774,平顶山市,平顶山工学院,细颗粒物(PM2.5),144,159,128,110,78,80,,97,94,29,41,8,8,0.7,0.7
2023-12-25T2200,3204A,113.3025,33.73,平顶山市,规划局,细颗粒物(PM2.5),192,193,154,144,97,27,,75,63,61,49,9,12,0.9,0.9
2023-12-25T2200,3594A,112.8867,33.9116,平顶山市,石龙区,细颗粒物(PM2.5),206,205,145,156,86,24,,85,67,75,56,7,8,1.0,0.7
2023-12-25T2200,2656A,106.6692,35.5461,平凉市,聚贤嘉苑,细颗粒物(PM2.5),83,103,82,61,54,37,,104,94,60,53,10,10,1.1,0.9
2023-12-25T2200,2657A,106.7021,35.5307,平凉市,博物馆,细颗粒物(PM2.5),128,121,111,97,75,34,,104,90,89,67,23,15,1.8,1.4
2023-12-25T2200,2347A,114.0997,27.5002,萍乡市,武功山,细颗粒物(PM2.5),58,52,35,41,26,49,,84,71,12,9,2,2,0.5,0.3
2023-12-25T2200,2348A,113.8385,27.6434,萍乡市,中医院,细颗粒物(PM2.5),74,82,96,54,75,41,,61,54,34,33,29,17,0.9,1
2023-12-25T2200,2349A,113.8493,27.6253,萍乡市,市政府车库,细颗粒物(PM2.5),93,82,81,69,59,27,,72,64,56,31,21,15,2.1,1.7
2023-12-25T2200,2350A,113.8676,27.6435,萍乡市,市环保局,颗粒物(PM10),63,75,85,42,52,46,,72,68,38,38,24,14,0.9,1
2023-12-25T2200,2351A,113.866,27.6198,萍乡市,安源区政府,细颗粒物(PM2.5),72,82,87,52,53,42,,66,57,40,39,12,10,1.0,1.8
2023-12-25T2200,2319A,119.0141,25.4325,莆田市,荔城区仓后路,,38,38,41,14,20,86,,91,91,14,16,7,7,0.5,0.5
2023-12-25T2200,2320A,119.0015,25.4553,莆田市,莆田市监测站,,32,20,36,12,18,100,,98,98,8,14,6,8,0.4,0.5
2023-12-25T2200,2321A,119.1119,25.4561,莆田市,涵江区六中,,33,33,43,14,19,104,,109,108,10,15,7,8,0.4,0.5
2023-12-25T2200,2322A,119.1013,25.3215,莆田市,秀屿区政府,,37,37,49,17,23,99,,106,104,14,19,8,9,0.4,0.5
2023-12-25T2200,2323A,118.981,25.4792,莆田市,东圳水库,,,,,,,,,,,,,,,,
2023-12-25T2200,2392A,115.0312,35.7636,濮阳市,环保局,细颗粒物(PM2.5),108,95,96,81,69,59,,63,62,30,45,6,6,0.7,0.9
2023-12-25T2200,2394A,115.0574,35.7609,濮阳市,油田运输公司,细颗粒物(PM2.5),112,121,112,84,76,55,,65,62,38,52,8,8,0.6,0.8
2023-12-25T2200,2395A,115.0866,35.7754,濮阳市,油田物探公司,细颗粒物(PM2.5),128,128,112,97,79,41,,60,53,40,47,6,5,0.9,1
2023-12-25T2200,3021A,115,35.7668,濮阳市,濮水河管理处,细颗粒物(PM2.5),112,95,97,84,71,51,,66,62,37,49,6,6,0.7,0.8
2023-12-25T2200,2601A,100.98,22.7633,普洱市,市环保局,,45,43,32,31,32,43,,61,52,14,10,2,4,0.5,0.5
2023-12-25T2200,2602A,100.9817,22.8322,普洱市,普洱第二中学,颗粒物(PM10),51,51,33,16,12,18,,70,57,25,11,5,5,0.6,0.5
2023-12-25T2200,2262A,131.0518,45.8751,七台河市,新一中,细颗粒物(PM2.5),60,57,69,43,57,62,,73,62,26,30,15,12,0.7,0.8
2023-12-25T2200,3345A,131.0577,45.7879,七台河市,中波台,细颗粒物(PM2.5),68,66,87,49,72,42,,55,41,36,45,9,14,0.6,0.9
2023-12-25T2200,3637A,131.0176,45.7761,七台河市,人民广场,,,88,96,73,73,,,50,26,56,55,6,6,1.2,1.1
2023-12-25T2200,3684A,130.8781,45.8222,七台河市,新建矿广场,细颗粒物(PM2.5),88,80,116,65,82,12,,50,20,66,56,27,33,1.0,1
2023-12-25T2200,1779A,123.9305,47.3636,齐齐哈尔市,安居小区,,,,77,,45,23,,21,20,30,40,7,12,0.6,1
2023-12-25T2200,1780A,123.9488,47.3386,齐齐哈尔市,中心广场,细颗粒物(PM2.5),94,109,80,70,48,17,,24,20,34,41,4,6,0.9,1
2023-12-25T2200,1781A,123.9483,47.3227,齐齐哈尔市,农牧车辆厂,颗粒物(PM10),69,88,68,45,42,19,,26,22,32,42,9,11,0.9,0.9
2023-12-25T2200,1783A,123.945,47.2988,齐齐哈尔市,市环境监测站,细颗粒物(PM2.5),95,90,70,71,49,19,,32,26,34,35,5,5,0.6,0.6
2023-12-25T2200,3662A,123.6333,47.2075,齐齐哈尔市,富区青少年活动中心,细颗粒物(PM2.5),82,89,84,60,45,24,,33,27,26,28,7,14,0.9,0.9
2023-12-25T2200,2591A,107.9783,26.5747,黔东南苗族侗族自治州,市环境监测站,,43,43,45,30,32,6,,70,48,78,42,15,10,0.6,0.5
2023-12-25T2200,2881A,107.8908,26.5311,黔东南苗族侗族自治州,凯里学院,颗粒物(PM10),51,52,42,27,27,19,,83,63,52,29,6,5,0.5,0.5
2023-12-25T2200,2593A,107.5228,26.2403,黔南布依族苗族自治州,小围寨,,29,29,44,17,33,50,,93,87,24,18,13,8,0.6,0.6
2023-12-25T2200,3538A,107.5175,26.2978,黔南布依族苗族自治州,沙坝,颗粒物(PM10),53,56,48,27,35,17,,93,77,45,18,14,7,0.6,0.6
2023-12-25T2200,2589A,104.9022,25.0925,黔西南布依族苗族自治州,场坝街,细颗粒物(PM2.5),77,72,65,56,59,77,,74,74,14,23,6,9,0.6,0.7
