timepoint,stationcode,longitude,latitude,area,positionname,primarypollutant,aqi,pm10,pm10_24h,pm2_5,pm2_5_24h,o3,o3_24h,o3_8h,o3_8h_24h,no2,no2_24h,so2,so2_24h,co,co_24h
2023-03-26T20:00:00,1001A,116.3621,39.8784,北京市,万寿西宫,颗粒物(PM10),85,120,64,52,26,92,89,84,84,33,29,1,2,0.5,0.4
2023-03-26T20:00:00,1002A,116.2202,40.2915,北京市,定陵,颗粒物(PM10),62,74,33,25,15,91,69,80,80,17,8,2,1,0.3,0.2
2023-03-26T20:00:00,1003A,116.4174,39.9289,北京市,东四,颗粒物(PM10),90,130,67,61,27,96,96,89,89,24,24,2,2,0.4,0.3
2023-03-26T20:00:00,1004A,116.4072,39.8863,北京市,天坛,颗粒物(PM10),83,115,65,51,26,90,86,85,85,27,25,3,2,0.4,0.3
2023-03-26T20:00:00,1005A,116.462,39.9365,北京市,农展馆,颗粒物(PM10),90,130,66,51,23,89,89,83,83,28,29,2,2,0.4,0.2
2023-03-26T20:00:00,1006A,116.3392,39.9295,北京市,官园,颗粒物(PM10),87,123,62,54,23,99,99,89,89,24,27,1,2,0.4,0.2
2023-03-26T20:00:00,1007A,116.2878,39.9611,北京市,海淀万柳,颗粒物(PM10),93,136,61,50,19,84,80,75,75,33,38,2,2,0.6,0.4
2023-03-26T20:00:00,1008A,116.6636,40.135,北京市,顺义新城,颗粒物(PM10),74,97,46,37,15,93,72,84,83,33,18,2,2,0.3,0.2
2023-03-26T20:00:00,1009A,116.6275,40.3275,北京市,怀柔镇,颗粒物(PM10),74,98,34,39,13,80,37,74,70,55,13,1,2,0.5,0.1
2023-03-26T20:00:00,1010A,116.2296,40.217,北京市,昌平镇,颗粒物(PM10),85,120,39,44,13,101,78,86,86,18,6,1,2,0.3,0.2
2023-03-26T20:00:00,1011A,116.3966,39.9821,北京市,奥体中心,颗粒物(PM10),86,121,56,53,22,91,91,81,81,23,34,2,2,0.4,0.3
2023-03-26T20:00:00,1012A,116.184,39.9136,北京市,古城,颗粒物(PM10),89,128,71,46,24,104,97,92,92,24,29,2,1,0.5,0.3
2023-03-26T20:00:00,1015A,117.1444,39.1661,天津市,勤俭道,颗粒物(PM10),76,102,135,43,57,122,95,110,110,28,48,6,9,0.5,0.7
2023-03-26T20:00:00,1017A,117.237,39.1082,天津市,大直沽八号路,颗粒物(PM10),75,100,128,42,51,125,94,111,111,28,45,6,8,0.6,0.8
2023-03-26T20:00:00,1018A,117.202,39.0927,天津市,前进道,颗粒物(PM10),72,93,115,42,52,130,95,116,116,32,48,4,6,0.4,0.6
2023-03-26T20:00:00,1019A,117.1837,39.2133,天津市,淮河道,颗粒物(PM10),84,117,138,46,53,135,100,118,118,33,49,8,10,0.6,0.8
2023-03-26T20:00:00,1021A,117.307,39.0877,天津市,跃进路,颗粒物(PM10),71,92,124,41,52,129,92,112,112,29,45,8,10,0.5,0.8
2023-03-26T20:00:00,1023A,117.707,39.0343,天津市,第四大街,颗粒物(PM10),95,140,138,63,59,84,27,61,61,98,69,10,16,0.8,1.1
2023-03-26T20:00:00,1024A,117.457,38.8394,天津市,永明路,颗粒物(PM10),68,85,108,34,45,116,82,94,94,45,56,7,11,0.3,0.8
2023-03-26T20:00:00,1026A,117.764,39.1587,天津市,汉北路,颗粒物(PM10),86,121,125,56,52,97,34,77,74,85,61,12,14,0.9,1.3
2023-03-26T20:00:00,1027A,117.157,38.9194,天津市,团泊洼,颗粒物(PM10),73,96,125,35,53,118,76,102,102,32,51,6,9,0.6,0.9
2023-03-26T20:00:00,1029A,114.4422,38.0444,石家庄市,职工医院,细颗粒物(PM2.5),99,122,139,74,59,124,99,114,114,26,42,10,7,0.5,0.5
2023-03-26T20:00:00,1030A,114.6063,38.0266,石家庄市,高新区,颗粒物(PM10),88,125,121,57,51,124,102,114,114,19,40,5,6,0.6,0.6
2023-03-26T20:00:00,1031A,114.4898,38.1328,石家庄市,西北水源,颗粒物(PM10),94,137,134,54,48,117,101,110,110,24,50,5,4,0.7,0.7
2023-03-26T20:00:00,1032A,114.4586,38.0058,石家庄市,西南高教,细颗粒物(PM2.5),102,113,107,76,55,122,93,111,111,32,46,7,6,0.6,0.6
2023-03-26T20:00:00,1033A,114.5331,38.0178,石家庄市,世纪公园,颗粒物(PM10),92,133,110,51,48,120,90,110,110,31,41,9,8,0.6,0.5
2023-03-26T20:00:00,1034A,114.509,38.0457,石家庄市,人民会堂,颗粒物(PM10),110,169,129,51,45,123,102,115,115,23,39,10,8,0.7,0.7
2023-03-26T20:00:00,1035A,114.3524,37.8911,石家庄市,封龙山,颗粒物(PM10),93,135,78,48,30,118,110,113,113,28,16,24,23,0.9,0.5
2023-03-26T20:00:00,1037A,118.131,39.6363,唐山市,雷达站,颗粒物(PM10),94,138,101,66,40,96,78,84,84,43,54,9,9,0.8,1.3
2023-03-26T20:00:00,1038A,118.1725,39.6334,唐山市,物资局,颗粒物(PM10),97,143,104,58,43,86,47,73,70,78,64,12,12,0.8,1.3
2023-03-26T20:00:00,1040A,118.1705,39.6506,唐山市,十二中,细颗粒物(PM2.5),94,128,101,70,45,94,64,83,81,58,51,10,10,0.8,1.4
2023-03-26T20:00:00,1041A,118.1869,39.622,唐山市,小山,颗粒物(PM10),98,145,103,65,44,101,59,87,85,69,56,10,9,0.8,1.3
2023-03-26T20:00:00,1042A,119.5134,39.8207,秦皇岛市,北戴河环保局,细颗粒物(PM2.5),79,100,87,58,41,115,78,96,93,44,40,4,7,1.3,1.1
2023-03-26T20:00:00,1043A,119.7493,40.0116,秦皇岛市,第一关,细颗粒物(PM2.5),114,121,93,86,49,111,68,101,97,38,32,6,5,1.4,0.9
2023-03-26T20:00:00,1044A,119.5897,39.9499,秦皇岛市,监测站,细颗粒物(PM2.5),155,166,94,118,56,111,51,96,89,55,37,4,5,1.3,0.8
2023-03-26T20:00:00,1046A,119.5251,39.9041,秦皇岛市,建设大厦,细颗粒物(PM2.5),114,138,100,86,36,118,52,99,93,59,45,7,7,1.4,0.9
2023-03-26T20:00:00,1048A,114.5302,36.6116,邯郸市,东污水处理厂,颗粒物(PM10),104,157,122,73,54,122,101,111,111,22,33,10,12,0.6,0.7
2023-03-26T20:00:00,1049A,114.4918,36.5713,邯郸市,矿院,颗粒物(PM10),111,172,134,80,60,117,95,107,107,24,30,9,11,0.8,0.9
2023-03-26T20:00:00,1050A,114.484,36.6133,邯郸市,丛台公园,细颗粒物(PM2.5),108,160,121,81,59,118,102,108,108,18,30,8,9,0.5,0.6
2023-03-26T20:00:00,1051A,115.493,38.8632,保定市,游泳馆,细颗粒物(PM2.5),77,93,90,56,57,134,74,114,114,45,39,16,13,0.3,0.3
2023-03-26T20:00:00,1052A,115.5213,38.8959,保定市,华电二区,颗粒物(PM10),92,133,128,41,45,128,81,110,110,29,28,8,7,0.7,0.7
2023-03-26T20:00:00,1053A,115.4713,38.9108,保定市,接待中心,颗粒物(PM10),78,105,101,37,42,128,89,111,111,23,31,9,8,0.5,0.5
2023-03-26T20:00:00,1054A,115.4612,38.8416,保定市,地表水厂,,,,127,,45,118,74,102,102,36,49,,10,0.2,0.3
2023-03-26T20:00:00,1056A,115.5086,38.8639,保定市,监测站,颗粒物(PM10),89,128,125,51,53,137,91,118,118,26,37,8,10,0.2,0.3
2023-03-26T20:00:00,1057A,114.8883,40.8336,张家口市,人民公园,颗粒物(PM10),77,103,34,13,8,90,84,82,82,8,10,3,5,0.3,0.4
2023-03-26T20:00:00,1059A,114.8687,40.8042,张家口市,五金库,颗粒物(PM10),84,117,35,22,15,83,77,78,78,13,10,10,9,0.5,0.5
2023-03-26T20:00:00,1060A,114.8902,40.762,张家口市,世纪豪园,颗粒物(PM10),88,126,41,16,11,86,80,81,81,12,10,3,3,0.3,0.3
2023-03-26T20:00:00,1061A,114.8916,40.8661,张家口市,北泵房,颗粒物(PM10),77,103,35,32,14,97,90,91,91,9,11,8,11,0.2,0.3
2023-03-26T20:00:00,1062A,117.9531,40.9081,承德市,铁路,颗粒物(PM10),55,59,26,21,14,88,16,78,68,60,19,11,11,0.6,0.3
2023-03-26T20:00:00,1063A,117.9392,40.9763,承德市,中国银行,,36,36,32,15,7,87,35,81,76,30,16,8,8,0.6,0.4
2023-03-26T20:00:00,1064A,117.9503,40.928,承德市,开发区,,32,32,33,15,12,90,43,83,79,27,21,8,9,0.4,0.4
2023-03-26T20:00:00,1065A,117.8051,40.9655,承德市,文化中心,颗粒物(PM10),62,73,47,31,13,82,36,77,72,25,21,16,13,0.8,0.4
2023-03-26T20:00:00,1066A,117.9268,41.0026,承德市,离宫,,29,29,22,18,11,93,66,86,84,9,12,16,10,0.4,0.3
2023-03-26T20:00:00,1067A,116.6708,39.5111,廊坊市,药材公司,颗粒物(PM10),83,115,105,57,41,118,107,106,106,31,45,4,3,0.6,0.6
2023-03-26T20:00:00,1068A,116.7214,39.5589,廊坊市,开发区,颗粒物(PM10),86,122,102,52,40,114,104,103,103,42,53,8,7,0.6,0.6
2023-03-26T20:00:00,1070A,116.7244,39.5269,廊坊市,北华航天学院,颗粒物(PM10),84,118,106,49,41,115,107,104,104,30,42,6,6,0.5,0.5
2023-03-26T20:00:00,1071A,116.8842,38.2991,沧州市,沧县城建局,颗粒物(PM10),68,85,101,35,32,125,107,116,116,31,53,8,15,0.4,0.5
2023-03-26T20:00:00,1072A,116.8584,38.3254,沧州市,电视转播站,颗粒物(PM10),75,100,90,41,34,124,112,117,117,31,52,10,9,0.3,0.5
2023-03-26T20:00:00,1073A,116.8709,38.3228,沧州市,市环保局,颗粒物(PM10),60,69,85,40,38,123,102,114,114,37,52,5,8,0.5,0.7
2023-03-26T20:00:00,1074A,115.6838,37.7541,衡水市,电机北厂,,,88,94,28,27,127,,117,117,15,32,2,7,0.3,0.6
2023-03-26T20:00:00,1075A,115.6303,37.7316,衡水市,市监测站,,,101,87,45,28,128,,118,118,24,35,8,8,0.5,0.6
2023-03-26T20:00:00,1077A,114.4704,37.0886,邢台市,达活泉,颗粒物(PM10),114,178,148,84,65,117,89,104,104,24,26,6,4,0.7,0.6
2023-03-26T20:00:00,1078A,114.5062,37.0349,邢台市,邢师高专,颗粒物(PM10),112,174,131,77,59,116,78,100,100,36,29,8,7,0.7,0.7
2023-03-26T20:00:00,1079A,114.5237,37.0851,邢台市,路桥公司,颗粒物(PM10),106,162,127,67,53,117,85,102,102,24,27,10,7,0.6,0.7
2023-03-26T20:00:00,1080A,114.4725,37.0719,邢台市,市环保局,颗粒物(PM10),123,196,149,80,63,123,90,109,109,30,26,10,9,0.6,0.6
2023-03-26T20:00:00,1081A,112.522,37.8873,太原市,尖草坪,,44,44,77,17,33,113,75,99,99,29,38,6,9,0.4,0.6
2023-03-26T20:00:00,1083A,112.434,38.0108,太原市,上兰,,,,,,,,,,,,,,,,
2023-03-26T20:00:00,1084A,112.469,37.7124,太原市,晋源,,43,43,85,10,38,118,84,105,105,26,35,3,8,0.3,0.6
2023-03-26T20:00:00,1085A,112.5583,37.7394,太原市,小店,,35,35,100,10,41,120,80,110,106,31,40,4,10,0.5,0.7
2023-03-26T20:00:00,1086A,112.5369,37.8692,太原市,桃园,颗粒物(PM10),53,55,88,21,40,116,78,102,102,28,40,6,11,0.5,0.7
2023-03-26T20:00:00,1087A,112.57,37.8195,太原市,坞城,,50,50,87,18,39,119,85,105,105,27,34,6,12,0.6,0.8
2023-03-26T20:00:00,1088A,112.549,37.9854,太原市,南寨,颗粒物(PM10),59,67,84,15,33,116,62,96,94,36,43,5,8,0.3,0.6
2023-03-26T20:00:00,1090A,111.6507,40.7517,呼和浩特市,呼市一监,,46,46,73,6,28,99,84,91,91,9,34,6,11,0.3,0.5
2023-03-26T20:00:00,1091A,111.6572,40.8033,呼和浩特市,小召,,48,48,67,9,30,88,71,80,80,23,42,9,14,0.4,0.6
2023-03-26T20:00:00,1094A,111.7516,40.8369,呼和浩特市,如意水处理厂,,37,37,63,6,20,87,71,81,81,20,37,5,10,0.3,0.5
2023-03-26T20:00:00,1095A,111.7276,40.8062,呼和浩特市,二十九中,颗粒物(PM10),55,60,74,5,25,94,83,87,87,11,37,6,11,0.3,0.6
2023-03-26T20:00:00,1096A,111.5512,40.7866,呼和浩特市,工大金川校区,颗粒物(PM10),53,55,86,7,25,92,63,82,82,23,36,5,10,0.4,0.5
2023-03-26T20:00:00,1097A,111.717,40.7612,呼和浩特市,化肥厂生活区,,36,36,77,6,28,83,72,79,79,14,36,7,12,0.3,0.6
2023-03-26T20:00:00,1098A,123.6836,41.9339,沈阳市,森林路,,,,,,,,,,,,,,,,
2023-03-26T20:00:00,1099A,123.505,41.7406,沈阳市,浑南东路,细颗粒物(PM2.5),69,71,50,50,25,100,17,90,82,86,37,14,15,0.8,0.6
2023-03-26T20:00:00,1100A,123.4231,41.6989,沈阳市,新秀街,,48,48,49,20,17,98,53,91,86,48,36,14,10,0.4,0.5
2023-03-26T20:00:00,1102A,123.5903,41.8411,沈阳市,东陵路,,36,36,39,17,22,95,57,89,86,37,37,7,8,0.5,0.4
2023-03-26T20:00:00,1103A,123.4264,41.8467,沈阳市,陵东街,,47,46,32,25,14,100,17,94,85,93,28,12,9,0.7,0.4
2023-03-26T20:00:00,1104A,123.4114,41.7653,沈阳市,文化路,,49,49,35,29,18,100,83,92,92,26,26,9,11,0.4,0.4
2023-03-26T20:00:00,1105A,123.4678,41.7867,沈阳市,小河沿,颗粒物(PM10),51,52,38,27,18,91,60,87,84,44,30,8,10,0.6,0.6
2023-03-26T20:00:00,1106A,123.4017,41.7972,沈阳市,太原街,,42,42,40,25,20,92,81,88,88,28,32,10,10,0.5,0.5
2023-03-26T20:00:00,1108A,123.3783,41.9228,沈阳市,京沈街,,37,37,35,19,19,101,61,95,91,46,25,9,9,0.6,0.4
2023-03-26T20:00:00,1109A,121.612,38.9741,大连市,甘井子,颗粒物(PM10),99,148,68,65,30,118,87,110,106,49,31,24,12,1.3,0.7
2023-03-26T20:00:00,1110A,121.565,38.9511,大连市,周水子,细颗粒物(PM2.5),85,118,62,63,33,128,91,110,108,56,41,17,9,1.4,0.9
2023-03-26T20:00:00,1111A,121.5637,38.8845,大连市,星海三站,颗粒物(PM10),90,129,55,59,25,117,105,97,97,40,38,13,13,1.1,0.6
2023-03-26T20:00:00,1112A,121.6302,38.9117,大连市,青泥洼桥,颗粒物(PM10),90,129,61,65,29,124,106,108,108,41,41,14,11,1.3,0.7
2023-03-26T20:00:00,1113A,121.6251,38.8638,大连市,傅家庄,颗粒物(PM10),63,76,53,44,26,112,79,90,88,29,34,10,22,0.8,0.7
2023-03-26T20:00:00,1114A,121.5213,38.8661,大连市,七贤岭,细颗粒物(PM2.5),80,102,51,59,28,135,120,120,120,28,22,12,12,1.2,0.7
2023-03-26T20:00:00,1115A,121.2529,38.8061,大连市,旅顺,细颗粒物(PM2.5),88,101,47,65,28,115,83,107,104,36,21,12,11,1.2,0.7
2023-03-26T20:00:00,1116A,121.7485,39.1311,大连市,金州,颗粒物(PM10),77,104,52,45,28,114,86,102,99,29,22,9,11,1.3,0.8
2023-03-26T20:00:00,1117A,121.7811,39.0496,大连市,开发区,细颗粒物(PM2.5),83,75,48,61,31,107,97,100,100,30,33,10,13,1.3,0.9
2023-03-26T20:00:00,1118A,121.9762,39.0631,大连市,双D港,细颗粒物(PM2.5),67,73,48,48,31,134,85,112,111,30,23,8,13,1.2,1
2023-03-26T20:00:00,1119A,125.3325,43.9166,长春市,食品厂,,39,35,68,27,48,89,57,85,80,40,31,10,7,0.5,0.5
2023-03-26T20:00:00,1120A,125.2863,43.9027,长春市,客车厂,颗粒物(PM10),53,56,69,23,52,86,48,83,77,49,29,7,10,0.6,0.6
2023-03-26T20:00:00,1121A,125.2841,43.8463,长春市,邮电学院,颗粒物(PM10),51,52,69,34,50,97,68,92,88,34,29,9,10,0.5,0.5
2023-03-26T20:00:00,1122A,125.3716,43.8772,长春市,劳动公园,,46,46,63,28,41,98,57,95,89,47,27,22,13,0.7,0.6
2023-03-26T20:00:00,1123A,125.3297,43.8805,长春市,园林处,,45,44,65,31,44,93,48,88,81,55,30,19,10,0.6,0.6
2023-03-26T20:00:00,1124A,125.4605,43.79,长春市,净月潭,,38,38,61,25,36,98,61,92,88,20,18,3,4,0.4,0.5
2023-03-26T20:00:00,1125A,125.7194,43.515,长春市,甩湾子,,,,,,,,,,,,,,,,
2023-03-26T20:00:00,1126A,125.3863,43.8447,长春市,经开区环卫处,,48,48,63,30,38,96,62,93,87,36,28,8,10,0.5,0.5
2023-03-26T20:00:00,1127A,125.245,43.7783,长春市,高新区管委会,细颗粒物(PM2.5),55,53,71,39,52,96,32,93,83,53,28,8,8,0.4,0.5
2023-03-26T20:00:00,1128A,125.1761,43.8325,长春市,岱山公园,细颗粒物(PM2.5),55,54,74,39,55,93,66,90,85,27,23,6,6,0.4,0.4
2023-03-26T20:00:00,1129A,126.5422,45.755,哈尔滨市,岭北,颗粒物(PM10),66,81,78,38,54,106,78,99,96,17,21,11,15,0.4,0.4
2023-03-26T20:00:00,1130A,126.561,45.8167,哈尔滨市,松北商大,,50,50,82,34,51,108,71,100,95,24,32,6,6,0.6,0.7
2023-03-26T20:00:00,1131A,126.979,45.5419,哈尔滨市,阿城会宁,细颗粒物(PM2.5),64,61,75,46,44,96,64,92,86,27,29,15,17,0.5,0.5
2023-03-26T20:00:00,1132A,126.599,45.7222,哈尔滨市,南岗学府路,颗粒物(PM10),59,68,85,37,49,103,65,96,90,32,32,10,4,0.8,0.7
2023-03-26T20:00:00,1133A,126.689,45.7733,哈尔滨市,太平宏伟公园,颗粒物(PM10),53,55,83,36,45,104,69,98,94,32,38,10,7,0.5,0.6
2023-03-26T20:00:00,1134A,126.635,45.7667,哈尔滨市,道外承德广场,细颗粒物(PM2.5),65,58,67,47,40,103,53,96,89,49,33,10,8,0.5,0.6
2023-03-26T20:00:00,1135A,126.685,45.7319,哈尔滨市,香坊红旗大街,细颗粒物(PM2.5),84,70,75,62,47,104,62,96,91,38,33,16,16,0.7,0.6
2023-03-26T20:00:00,1136A,126.6411,45.7258,哈尔滨市,动力和平路,细颗粒物(PM2.5),69,80,76,50,49,103,66,96,90,36,39,12,11,0.5,0.6
2023-03-26T20:00:00,1137A,126.593,45.7478,哈尔滨市,道里建国路,细颗粒物(PM2.5),62,61,63,44,40,102,60,96,88,39,22,14,13,0.4,0.4
2023-03-26T20:00:00,1138A,126.615,45.61,哈尔滨市,平房东轻厂,细颗粒物(PM2.5),57,57,91,40,67,105,38,99,86,60,41,13,11,0.5,0.7
2023-03-26T20:00:00,1139A,126.595,45.9855,哈尔滨市,呼兰师专,细颗粒物(PM2.5),83,84,119,61,81,96,63,90,83,28,36,14,12,0.6,0.9
2023-03-26T20:00:00,1140A,126.6206,45.6842,哈尔滨市,省农科院,细颗粒物(PM2.5),64,72,88,46,51,109,47,102,91,45,42,23,12,0.7,0.8
2023-03-26T20:00:00,1141A,121.4,31.238,上海市,普陀,颗粒物(PM10),93,136,68,34,22,119,103,111,111,26,22,6,5,0.6,0.6
2023-03-26T20:00:00,1142A,121.478,31.2036,上海市,十五厂,颗粒物(PM10),99,148,66,39,24,105,92,99,99,36,26,9,8,0.8,0.7
2023-03-26T20:00:00,1143A,121.467,31.3008,上海市,虹口,颗粒物(PM10),82,114,68,46,26,110,85,104,103,28,19,7,7,0.6,0.7
2023-03-26T20:00:00,1144A,121.412,31.1654,上海市,徐汇上师大,颗粒物(PM10),93,136,66,40,25,105,100,98,98,29,25,8,7,0.7,0.7
2023-03-26T20:00:00,1145A,121.536,31.2659,上海市,杨浦四漂,颗粒物(PM10),95,139,69,39,25,113,98,106,106,26,21,14,9,0.7,0.6
2023-03-26T20:00:00,1147A,121.425,31.2261,上海市,静安监测站,颗粒物(PM10),99,147,65,37,23,116,85,109,108,31,26,10,9,0.7,0.7
2023-03-26T20:00:00,1148A,121.703,31.1907,上海市,浦东川沙,颗粒物(PM10),78,105,64,33,23,100,84,91,88,24,19,6,6,0.6,0.7
2023-03-26T20:00:00,1149A,121.533,31.2284,上海市,浦东新区监测站,颗粒物(PM10),88,125,66,34,23,116,100,108,108,28,21,11,8,0.8,0.7
2023-03-26T20:00:00,1150A,121.577,31.2071,上海市,浦东张江,颗粒物(PM10),77,103,64,29,21,103,65,96,90,44,22,5,4,0.7,0.6
2023-03-26T20:00:00,1151A,118.8086,32.1065,南京市,迈皋桥,颗粒物(PM10),120,189,112,44,30,119,55,108,100,65,52,6,6,0.5,0.4
2023-03-26T20:00:00,1152A,118.7538,32.0551,南京市,草场门,颗粒物(PM10),113,175,106,41,29,112,60,101,97,69,55,5,5,0.6,0.5
2023-03-26T20:00:00,1153A,118.7794,32.0745,南京市,山西路,颗粒物(PM10),120,190,112,53,35,113,54,102,96,62,41,5,5,0.4,0.4
2023-03-26T20:00:00,1154A,118.7752,32.0023,南京市,中华门,颗粒物(PM10),109,168,96,39,25,110,63,106,100,57,46,9,10,0.6,0.6
2023-03-26T20:00:00,1155A,118.8109,32.0309,南京市,瑞金路,颗粒物(PM10),113,176,95,39,29,105,71,101,96,48,40,4,4,0.7,0.6
2023-03-26T20:00:00,1156A,118.7997,32.0754,南京市,玄武湖,颗粒物(PM10),110,169,94,44,33,106,19,95,84,96,45,6,5,0.6,0.5
2023-03-26T20:00:00,1157A,118.6414,32.0931,南京市,浦口,颗粒物(PM10),107,164,107,34,29,126,94,114,114,30,28,5,5,0.5,0.5
2023-03-26T20:00:00,1158A,118.7356,31.9996,南京市,奥体中心,颗粒物(PM10),112,174,107,41,31,110,77,105,102,42,44,6,7,0.4,0.4
2023-03-26T20:00:00,1159A,118.9125,32.1028,南京市,仙林大学城,颗粒物(PM10),115,180,101,41,28,121,34,106,96,96,52,8,9,0.6,0.6
2023-03-26T20:00:00,1160A,120.561,31.2472,苏州市,上方山,颗粒物(PM10),91,131,75,41,34,101,84,90,90,26,28,8,8,0.6,0.6
2023-03-26T20:00:00,1162A,120.591,31.3019,苏州市,彩香,颗粒物(PM10),96,142,80,39,34,119,96,108,108,25,22,6,6,0.8,0.8
2023-03-26T20:00:00,1163A,120.596,31.3264,苏州市,轧钢厂,颗粒物(PM10),98,145,83,38,31,110,88,97,97,26,23,8,9,0.7,0.7
2023-03-26T20:00:00,1164A,120.613,31.2703,苏州市,吴中区,颗粒物(PM10),91,131,74,37,29,114,87,103,102,37,25,9,9,0.6,0.6
2023-03-26T20:00:00,1165A,120.543,31.2994,苏州市,苏州新区,颗粒物(PM10),89,128,77,41,34,114,95,105,105,23,25,6,6,0.7,0.7
2023-03-26T20:00:00,1166A,120.669,31.3097,苏州市,苏州工业园区,颗粒物(PM10),95,140,76,43,33,113,90,102,102,27,21,8,10,0.8,0.7
2023-03-26T20:00:00,1167A,120.641,31.3708,苏州市,相城区,颗粒物(PM10),90,130,77,39,30,111,93,104,104,22,20,8,8,0.7,0.7
2023-03-26T20:00:00,1168A,120.9098,31.9663,南通市,狼山街道,颗粒物(PM10),87,123,72,31,25,134,92,121,120,19,10,6,6,0.4,0.4
2023-03-26T20:00:00,1169A,120.86,32.0005,南通市,虹桥,颗粒物(PM10),85,119,73,38,28,129,94,117,116,24,15,6,6,0.5,0.4
2023-03-26T20:00:00,1170A,120.87,32.02,南通市,城中,颗粒物(PM10),85,119,70,36,26,131,87,118,116,31,17,10,8,0.5,0.5
2023-03-26T20:00:00,1171A,120.94,31.93,南通市,星湖花园,颗粒物(PM10),81,111,70,27,27,124,92,114,113,20,13,6,5,0.6,0.6
2023-03-26T20:00:00,1172A,120.81,32.0417,南通市,紫琅学院,颗粒物(PM10),95,139,82,31,27,114,79,103,101,29,19,8,8,0.5,0.4
2023-03-26T20:00:00,1173A,119.176,34.5885,连云港市,市环境监测站,颗粒物(PM10),68,85,74,27,23,94,70,84,83,28,38,12,10,0.5,0.5
2023-03-26T20:00:00,1177A,117.179,34.2761,徐州市,黄河新村,颗粒物(PM10),122,193,188,63,65,114,78,104,103,34,44,16,17,0.9,0.9
2023-03-26T20:00:00,1178A,117.1918,34.2384,徐州市,淮塔,颗粒物(PM10),116,182,177,58,57,124,102,114,114,28,31,14,16,0.8,0.8
2023-03-26T20:00:00,1180A,117.256,34.2153,徐州市,新城区,颗粒物(PM10),116,181,178,56,63,119,76,104,103,44,44,15,16,0.8,0.9
2023-03-26T20:00:00,1181A,117.244,34.2911,徐州市,桃园路,颗粒物(PM10),122,193,194,61,59,121,77,107,106,37,44,13,15,0.9,0.9
2023-03-26T20:00:00,1182A,117.2933,34.2778,徐州市,农科院,颗粒物(PM10),115,180,187,63,59,123,88,110,110,30,45,12,15,0.8,0.9
2023-03-26T20:00:00,1186A,119.389,32.3761,扬州市,邗江监测站,颗粒物(PM10),118,185,105,51,36,122,91,113,112,33,28,7,8,0.5,0.5
2023-03-26T20:00:00,1188A,120.269,31.4867,无锡市,雪浪,颗粒物(PM10),98,146,88,39,28,113,88,102,102,30,26,8,9,0.8,0.8
2023-03-26T20:00:00,1189A,120.275,31.6219,无锡市,黄巷,颗粒物(PM10),107,163,94,36,27,117,86,104,104,35,37,12,12,0.8,0.8
2023-03-26T20:00:00,1190A,120.294,31.56,无锡市,曹张,颗粒物(PM10),95,139,83,41,30,116,89,105,105,38,35,8,10,1.0,1
2023-03-26T20:00:00,1191A,120.242,31.5031,无锡市,漆塘,颗粒物(PM10),100,149,86,41,29,117,102,106,106,20,25,8,9,0.6,0.6
2023-03-26T20:00:00,1192A,120.3489,31.5863,无锡市,东亭,颗粒物(PM10),97,144,88,36,29,112,82,100,100,34,28,9,11,0.8,0.9
2023-03-26T20:00:00,1193A,120.354,31.5475,无锡市,旺庄,颗粒物(PM10),93,136,80,36,28,119,97,105,105,27,28,10,11,0.8,0.8
2023-03-26T20:00:00,1194A,120.245,31.5631,无锡市,荣巷,颗粒物(PM10),93,136,82,39,26,109,84,100,100,29,28,12,13,0.7,0.8
2023-03-26T20:00:00,1195A,120.299,31.6817,无锡市,堰桥,颗粒物(PM10),108,166,94,39,29,120,89,111,111,35,30,11,10,0.9,0.8
2023-03-26T20:00:00,1196A,119.9633,31.762,常州市,市监测站,颗粒物(PM10),97,144,86,45,34,114,71,103,101,46,29,6,7,0.4,0.4
2023-03-26T20:00:00,1200A,119.9468,31.7069,常州市,武进监测站,颗粒物(PM10),94,138,88,50,35,113,90,105,105,32,34,10,10,0.5,0.4
2023-03-26T20:00:00,1201A,119.9255,31.9087,常州市,安家,颗粒物(PM10),92,134,92,54,38,126,62,109,104,48,30,9,10,0.5,0.5
2023-03-26T20:00:00,1203A,119.6707,32.1875,镇江市,新区办事处,颗粒物(PM10),106,161,94,39,33,122,81,106,106,35,35,4,7,0.7,0.6
2023-03-26T20:00:00,1204A,119.4974,32.1968,镇江市,职教中心,颗粒物(PM10),110,170,89,48,35,126,79,114,111,46,30,4,6,0.6,0.6
2023-03-26T20:00:00,1205A,119.4303,32.1328,镇江市,丹徒区监测站,颗粒物(PM10),123,195,106,57,38,122,85,111,110,31,38,7,7,0.5,0.5
2023-03-26T20:00:00,1206A,119.905,32.4878,泰州市,公园路,颗粒物(PM10),95,139,88,48,37,122,91,112,111,26,22,9,11,0.5,0.3
2023-03-26T20:00:00,1207A,119.9189,32.4625,泰州市,莲花,颗粒物(PM10),94,137,87,48,35,122,95,113,113,26,20,9,13,0.6,0.5
2023-03-26T20:00:00,1209A,119.888,32.4639,泰州市,留学生创业园,颗粒物(PM10),101,151,92,39,32,116,92,107,107,28,26,9,12,0.7,0.6
2023-03-26T20:00:00,1210A,119.036,33.5981,淮安市,钵池山,颗粒物(PM10),85,119,84,56,40,103,81,95,94,36,37,11,8,0.8,0.7
2023-03-26T20:00:00,1211A,119.007,33.575,淮安市,北京南路,颗粒物(PM10),85,119,97,46,38,91,64,84,82,49,43,13,11,0.7,0.7
2023-03-26T20:00:00,1212A,118.989,33.6067,淮安市,市监测站,颗粒物(PM10),89,127,101,51,37,101,79,93,92,44,41,11,9,0.8,0.9
2023-03-26T20:00:00,1213A,119.135,33.5039,淮安市,楚州区监测站,颗粒物(PM10),92,134,98,59,42,112,84,98,98,37,37,10,9,0.6,0.5
2023-03-26T20:00:00,1214A,119.0186,33.6297,淮安市,淮阴区监测站,颗粒物(PM10),88,125,102,59,42,108,66,94,90,55,43,11,9,0.7,0.8
2023-03-26T20:00:00,1215A,120.118,33.4022,盐城市,盐城电厂,颗粒物(PM10),60,70,69,27,25,117,93,109,108,18,19,6,8,0.6,0.5
2023-03-26T20:00:00,1216A,120.156,33.3942,盐城市,市监测站,颗粒物(PM10),54,58,55,25,25,107,88,100,99,18,18,9,10,0.4,0.4
2023-03-26T20:00:00,1218A,120.2144,33.38,盐城市,开发区管委会,颗粒物(PM10),58,66,71,21,23,112,83,104,102,22,17,4,4,0.5,0.5
2023-03-26T20:00:00,1220A,118.293,33.9528,宿迁市,宿迁学院,颗粒物(PM10),103,155,144,69,45,114,82,100,97,36,46,6,7,0.5,0.4
2023-03-26T20:00:00,1221A,118.2442,33.9592,宿迁市,宿迁中学,颗粒物(PM10),95,140,149,53,49,115,87,101,100,32,42,7,8,0.4,0.5
2023-03-26T20:00:00,1223A,120.2072,30.2111,杭州市,滨江,颗粒物(PM10),82,113,73,47,30,137,74,116,114,52,38,9,10,1.0,0.9
2023-03-26T20:00:00,1224A,120.0633,30.2747,杭州市,西溪,颗粒物(PM10),90,130,77,43,27,130,70,107,105,44,35,9,9,1.0,0.9
2023-03-26T20:00:00,1226A,120.3461,30.3153,杭州市,下沙,颗粒物(PM10),96,141,93,61,41,131,71,108,106,58,42,9,10,0.7,0.7
2023-03-26T20:00:00,1227A,120.1269,30.2456,杭州市,卧龙桥,颗粒物(PM10),72,94,63,42,30,136,23,108,100,73,32,6,7,0.9,0.8
2023-03-26T20:00:00,1228A,120.1903,30.2692,杭州市,浙江农大,颗粒物(PM10),73,95,67,43,33,138,74,115,113,48,40,7,7,0.7,0.6
2023-03-26T20:00:00,1230A,120.1197,30.3119,杭州市,和睦小学,颗粒物(PM10),78,106,74,43,34,121,59,98,95,52,40,8,7,0.9,0.8
2023-03-26T20:00:00,1231A,120.3019,30.4183,杭州市,临平镇,颗粒物(PM10),88,125,82,48,33,127,83,117,113,39,35,6,7,0.8,0.7
2023-03-26T20:00:00,1232A,120.2697,30.1819,杭州市,城厢镇,颗粒物(PM10),80,109,67,42,31,122,67,105,103,59,44,7,7,0.7,0.7
2023-03-26T20:00:00,1233A,120.0883,30.1808,杭州市,云栖,颗粒物(PM10),67,84,59,24,23,134,47,106,99,40,27,4,6,0.7,0.6
2023-03-26T20:00:00,1234A,121.8358,29.911,宁波市,区环保大楼,,41,41,44,12,27,131,74,113,106,44,35,7,7,0.5,0.7
2023-03-26T20:00:00,1235A,121.56,29.82,宁波市,万里学院,,39,39,58,11,34,134,85,116,114,32,34,8,8,0.4,0.6
2023-03-26T20:00:00,1236A,121.713,29.9572,宁波市,龙赛医院,,44,44,52,8,20,125,84,116,110,35,32,6,7,0.4,0.7
2023-03-26T20:00:00,1239A,121.633,29.7733,宁波市,钱湖水厂,,28,28,45,9,28,133,76,115,112,27,28,7,8,0.4,0.6
2023-03-26T20:00:00,1240A,121.5856,29.8635,宁波市,太古小学,,41,41,57,11,27,119,73,108,104,31,37,10,10,0.6,0.8
2023-03-26T20:00:00,1241A,121.524,29.8674,宁波市,市环境监测中心,颗粒物(PM10),51,52,50,14,20,123,76,109,106,33,33,7,8,0.4,0.6
2023-03-26T20:00:00,1242A,120.634,28.0089,温州市,瓯海,细颗粒物(PM2.5),74,96,44,54,26,94,93,85,85,41,35,8,7,0.5,0.5
2023-03-26T20:00:00,1243A,120.6748,27.9939,温州市,南浦,细颗粒物(PM2.5),72,71,27,52,23,98,98,86,86,36,29,7,6,0.5,0.5
2023-03-26T20:00:00,1244A,120.76,27.9747,温州市,龙湾,颗粒物(PM10),71,92,41,44,23,105,105,85,85,36,33,7,7,0.6,0.5
2023-03-26T20:00:00,1245A,120.6709,28.0167,温州市,市站,细颗粒物(PM2.5),64,69,37,46,23,80,80,72,72,58,36,7,6,0.5,0.4
2023-03-26T20:00:00,1247A,120.6053,29.9928,绍兴市,城东开发委,颗粒物(PM10),71,91,67,37,39,132,77,114,113,38,29,8,7,0.7,0.7
2023-03-26T20:00:00,1250A,120.0751,30.8669,湖州市,城西水厂,颗粒物(PM10),77,104,80,36,36,110,66,106,101,50,39,8,14,0.6,0.5
2023-03-26T20:00:00,1252A,120.7436,30.778,嘉兴市,清河小学,颗粒物(PM10),74,98,84,25,31,102,70,94,92,44,39,8,8,0.4,0.7
2023-03-26T20:00:00,1253A,120.726,30.7478,嘉兴市,嘉兴学院,颗粒物(PM10),65,79,72,25,34,112,84,104,103,29,30,7,7,0.4,0.5
2023-03-26T20:00:00,1255A,121.273,28.6459,台州市,黄岩环保大楼,颗粒物(PM10),58,66,41,33,22,117,89,109,109,35,21,5,5,0.4,0.3
2023-03-26T20:00:00,1256A,121.419,28.6542,台州市,台州环保大楼,颗粒物(PM10),58,65,48,29,25,131,113,120,120,21,14,6,6,0.5,0.4
2023-03-26T20:00:00,1257A,121.377,28.5773,台州市,路桥田洋王,颗粒物(PM10),56,61,54,36,34,127,117,120,120,24,22,6,7,0.3,0.3
2023-03-26T20:00:00,1258A,122.122,30.0203,舟山市,定海檀枫,,41,41,51,14,25,108,94,98,98,17,23,5,5,0.2,0.4
2023-03-26T20:00:00,1259A,122.3094,29.9558,舟山市,普陀东港,颗粒物(PM10),52,54,54,18,27,114,91,96,96,18,17,6,6,0.4,0.5
2023-03-26T20:00:00,1260A,122.19,29.9944,舟山市,临城新区,颗粒物(PM10),51,51,54,18,26,114,93,100,100,21,22,5,5,0.5,0.6
2023-03-26T20:00:00,1262A,119.647,29.077,金华市,十五中,颗粒物(PM10),74,98,43,38,27,126,74,114,111,53,30,7,7,0.7,0.6
2023-03-26T20:00:00,1263A,119.686,29.1029,金华市,监测站,颗粒物(PM10),76,101,43,41,32,128,83,117,114,41,32,8,6,0.5,0.5
2023-03-26T20:00:00,1264A,118.8692,28.9398,衢州市,环保大楼,颗粒物(PM10),59,68,43,25,29,123,76,111,110,48,25,6,7,0.5,0.5
2023-03-26T20:00:00,1265A,118.8709,28.9666,衢州市,实验学校,颗粒物(PM10),58,66,36,29,24,113,63,106,104,55,27,7,7,0.5,0.5
2023-03-26T20:00:00,1266A,118.8621,28.9808,衢州市,衢州学院,颗粒物(PM10),57,64,42,25,27,124,84,109,109,35,28,7,7,0.4,0.5
2023-03-26T20:00:00,1267A,119.914,28.4514,丽水市,监测站大楼,颗粒物(PM10),55,60,31,32,19,124,61,104,102,44,20,9,8,0.6,0.3
2023-03-26T20:00:00,1268A,119.93,28.4586,丽水市,莲都小学,,49,49,32,23,20,127,76,110,109,40,21,8,7,0.4,0.4
2023-03-26T20:00:00,1269A,119.879,28.4231,丽水市,余庄前,,32,32,28,18,20,119,51,96,92,16,21,8,9,0.4,0.4
2023-03-26T20:00:00,1270A,117.1959,31.7848,合肥市,明珠广场,颗粒物(PM10),100,149,119,46,33,114,78,106,104,45,43,5,8,0.8,0.8
2023-03-26T20:00:00,1271A,117.3072,31.8764,合肥市,三里街,颗粒物(PM10),89,127,120,44,31,115,66,104,100,55,48,6,7,0.5,0.5
2023-03-26T20:00:00,1272A,117.2588,31.8707,合肥市,琥珀山庄,颗粒物(PM10),93,136,114,44,34,104,75,94,93,40,49,5,5,0.7,0.7
2023-03-26T20:00:00,1273A,117.1604,31.9052,合肥市,董铺水库,颗粒物(PM10),114,178,119,46,29,98,63,87,86,38,33,6,6,0.5,0.4
2023-03-26T20:00:00,1274A,117.25,31.8571,合肥市,长江中路,颗粒物(PM10),109,168,120,75,40,112,82,103,102,39,42,10,9,0.9,0.8
2023-03-26T20:00:00,1275A,117.266,31.9436,合肥市,庐阳区,颗粒物(PM10),112,174,132,53,34,107,63,99,95,58,41,10,9,0.6,0.6
2023-03-26T20:00:00,1276A,117.336,31.8586,合肥市,瑶海区,颗粒物(PM10),95,139,133,43,36,112,72,100,97,52,54,8,8,0.4,0.5
2023-03-26T20:00:00,1277A,117.3027,31.7964,合肥市,包河区,颗粒物(PM10),104,158,120,44,35,109,21,92,80,64,50,7,7,0.5,0.5
2023-03-26T20:00:00,1278A,117.2776,31.7385,合肥市,滨湖新区,颗粒物(PM10),98,146,123,36,30,117,74,104,103,51,57,14,14,0.4,0.4
2023-03-26T20:00:00,1279A,117.1318,31.8403,合肥市,高新区,颗粒物(PM10),104,158,125,51,33,108,79,99,99,48,41,10,8,1.0,0.8
2023-03-26T20:00:00,1280A,119.3903,26.0543,福州市,鼓山,,,,,,,,,,,,,,,,
2023-03-26T20:00:00,1282A,119.2681,26.0504,福州市,师大,,46,36,18,32,15,61,51,58,31,25,22,4,4,0.5,0.5
2023-03-26T20:00:00,1283A,119.2984,26.1028,福州市,五四北路,,26,18,13,18,12,66,66,55,31,21,21,3,2,0.5,0.5
2023-03-26T20:00:00,1284A,119.2648,26.0768,福州市,杨桥西路,,40,37,17,28,14,58,48,54,29,25,20,3,3,0.5,0.5
2023-03-26T20:00:00,1285A,119.317,26.0746,福州市,紫阳,,25,17,17,17,13,65,65,54,32,21,23,3,2,0.5,0.5
2023-03-26T20:00:00,1286A,118.1608,24.8169,厦门市,溪东,,,,,,,,,,,,,,,,
2023-03-26T20:00:00,1287A,118.1514,24.4767,厦门市,洪文,,26,24,22,18,18,60,60,59,42,24,19,3,2,0.6,0.5
2023-03-26T20:00:00,1288A,118.0661,24.4444,厦门市,鼓浪屿,,32,24,19,22,17,65,56,64,43,29,21,4,3,0.5,0.3
2023-03-26T20:00:00,1290A,115.8931,28.6843,南昌市,省外办,颗粒物(PM10),56,61,47,25,19,118,54,108,104,39,24,8,10,0.4,0.4
2023-03-26T20:00:00,1291A,115.8886,28.7003,南昌市,省林业公司,,32,27,32,22,21,119,87,110,109,20,26,4,7,0.5,0.7
2023-03-26T20:00:00,1292A,115.8126,28.7442,南昌市,林科所,,,56,31,24,15,122,85,106,105,33,21,9,10,,1
2023-03-26T20:00:00,1294A,115.8518,28.687,南昌市,建工学校,,38,38,43,13,23,137,91,109,109,23,25,8,10,0.3,0.4
2023-03-26T20:00:00,1295A,115.8921,28.6424,南昌市,象湖,,29,26,33,20,20,108,62,92,92,32,23,6,7,0.6,0.5
2023-03-26T20:00:00,1296A,115.7423,28.7996,南昌市,武术学校,,43,43,26,22,18,126,80,109,107,6,7,9,10,0.3,0.3
2023-03-26T20:00:00,1298A,115.9314,28.6842,南昌市,省站,,45,21,47,31,20,119,66,107,105,35,19,11,12,0.7,0.5
2023-03-26T20:00:00,1299A,116.9862,36.6114,济南市,科干所,颗粒物(PM10),65,80,120,24,37,121,105,112,112,23,52,6,17,0.3,0.6
2023-03-26T20:00:00,1300A,116.9376,36.665,济南市,农科所,颗粒物(PM10),70,90,127,29,34,116,42,103,98,61,49,3,11,0.7,0.8
2023-03-26T20:00:00,1301A,117.1265,36.6734,济南市,开发区,颗粒物(PM10),80,110,128,41,39,119,43,104,99,69,48,9,18,0.7,0.7
2023-03-26T20:00:00,1303A,117.0624,36.6868,济南市,省种子仓库,颗粒物(PM10),84,117,134,36,41,124,61,108,105,63,52,8,21,0.8,0.8
2023-03-26T20:00:00,1304A,116.9489,36.6447,济南市,机床二厂,颗粒物(PM10),80,110,140,34,42,120,63,108,105,46,49,6,19,0.7,0.8
2023-03-26T20:00:00,1305A,117.0495,36.663,济南市,市监测站,颗粒物(PM10),78,105,131,37,41,126,51,110,105,72,56,8,19,0.8,0.8
2023-03-26T20:00:00,1306A,116.7675,36.5484,济南市,长清党校,颗粒物(PM10),69,88,144,34,39,119,100,104,104,26,65,6,13,0.5,0.8
2023-03-26T20:00:00,1307A,120.6659,36.2403,青岛市,仰口,颗粒物(PM10),64,78,58,31,24,111,98,103,103,19,16,5,6,0.3,0.3
2023-03-26T20:00:00,1310A,120.4134,36.0658,青岛市,市南区东部子站,,46,46,68,14,27,109,102,102,102,17,37,5,7,0.4,0.6
2023-03-26T20:00:00,1311A,120.3664,36.1032,青岛市,四方区子站,颗粒物(PM10),53,56,89,12,31,97,88,91,91,25,41,6,9,0.6,0.7
2023-03-26T20:00:00,1312A,120.2994,36.054,青岛市,市南区西部子站,颗粒物(PM10),53,56,84,17,29,113,113,104,104,16,42,9,11,0.4,0.6
2023-03-26T20:00:00,1313A,120.4581,36.0858,青岛市,崂山区子站,,36,36,62,12,22,112,107,106,106,10,29,6,9,0.4,0.4
2023-03-26T20:00:00,1314A,120.1983,35.9608,青岛市,黄岛区子站,颗粒物(PM10),54,58,89,22,35,115,110,104,104,15,42,6,9,0.4,0.6
2023-03-26T20:00:00,1315A,120.3999,36.3083,青岛市,城阳区子站,颗粒物(PM10),63,75,105,24,34,117,78,100,96,36,38,6,7,0.5,0.7
2023-03-26T20:00:00,1316A,113.69031,34.76122,郑州市,烟厂,颗粒物(PM10),90,130,146,62,63,93,52,82,80,42,33,9,9,0.7,0.7
2023-03-26T20:00:00,1317A,113.65724,34.77134,郑州市,郑纺机,颗粒物(PM10),96,142,146,64,58,88,52,78,76,46,41,7,6,0.6,0.5
2023-03-26T20:00:00,1318A,113.67526,34.80246,郑州市,银行学校,细颗粒物(PM2.5),105,144,147,79,64,88,61,78,78,37,35,7,7,0.7,0.7
2023-03-26T20:00:00,1319A,113.56746,34.81334,郑州市,供水公司,颗粒物(PM10),92,133,178,60,62,89,52,80,78,38,28,8,8,0.5,0.4
2023-03-26T20:00:00,1320A,113.7329,34.7178,郑州市,经开区管委,颗粒物(PM10),91,132,136,66,66,95,58,83,81,34,38,6,5,0.6,0.6
2023-03-26T20:00:00,1321A,113.73961,34.77172,郑州市,四十七中,颗粒物(PM10),91,132,150,61,64,82,51,72,71,38,37,7,7,0.6,0.6
2023-03-26T20:00:00,1322A,113.60532,34.74838,郑州市,市监测站,颗粒物(PM10),102,154,152,68,62,92,53,80,78,40,33,9,8,0.8,0.7
2023-03-26T20:00:00,1323A,113.64164,34.7525,郑州市,河医大,"颗粒物(PM10),细颗粒物(PM2.5)",94,138,149,70,74,88,52,74,72,35,33,10,9,0.6,0.6
2023-03-26T20:00:00,1324A,113.51488,34.91089,郑州市,岗李水库,,,,,,,,,,,,,,,,
2023-03-26T20:00:00,1325A,114.3677,30.5584,武汉市,东湖梨园,颗粒物(PM10),60,70,58,32,29,137,106,122,122,31,43,8,9,0.6,0.7
2023-03-26T20:00:00,1326A,114.2529,30.558,武汉市,汉阳月湖,颗粒物(PM10),66,81,70,27,27,112,66,100,98,55,52,7,8,0.5,0.6
2023-03-26T20:00:00,1327A,114.282,30.6189,武汉市,汉口花桥,颗粒物(PM10),68,85,72,29,28,126,97,113,113,35,53,7,9,0.4,0.6
2023-03-26T20:00:00,1328A,114.3025,30.5332,武汉市,武昌紫阳,颗粒物(PM10),61,72,59,28,28,118,72,103,102,59,56,7,8,0.8,0.9
2023-03-26T20:00:00,1329A,114.3646,30.6217,武汉市,青山钢花,颗粒物(PM10),75,100,71,44,35,127,87,115,114,37,48,7,9,0.5,0.7
2023-03-26T20:00:00,1330A,114.1566,30.4825,武汉市,沌口新区,颗粒物(PM10),61,72,65,32,33,108,71,93,93,60,46,8,8,0.7,0.7
2023-03-26T20:00:00,1331A,114.3014,30.5944,武汉市,汉口江滩,颗粒物(PM10),59,67,69,24,30,129,82,110,110,43,47,8,9,0.5,0.7
2023-03-26T20:00:00,1333A,114.135,30.6319,武汉市,吴家山,颗粒物(PM10),54,58,62,32,25,117,74,101,101,48,54,6,8,0.4,0.5
2023-03-26T20:00:00,1334A,113.8454,30.2917,武汉市,沉湖七壕,颗粒物(PM10),53,56,49,23,19,122,106,112,112,16,20,12,12,0.7,0.6
2023-03-26T20:00:00,1335A,113.0833,28.2325,长沙市,经开区环保局,颗粒物(PM10),65,79,70,37,29,98,84,90,90,28,23,3,3,0.8,0.7
2023-03-26T20:00:00,1336A,112.8872,28.2189,长沙市,高开区环保局,颗粒物(PM10),60,69,76,30,30,108,91,97,97,18,21,6,7,0.4,0.4
2023-03-26T20:00:00,1337A,113.0792,28.2053,长沙市,马坡岭,颗粒物(PM10),66,81,70,34,28,101,89,96,96,29,25,7,8,0.5,0.4
2023-03-26T20:00:00,1338A,112.9394,28.19,长沙市,湖南师范大学,颗粒物(PM10),62,73,80,39,36,101,100,94,94,14,15,6,7,0.5,0.4
2023-03-26T20:00:00,1339A,113.0178,28.1322,长沙市,雨花区环保局,颗粒物(PM10),62,73,72,30,27,98,95,92,92,20,22,5,5,0.7,0.6
2023-03-26T20:00:00,1340A,112.9792,28.2597,长沙市,伍家岭,颗粒物(PM10),58,66,64,27,27,104,86,94,94,28,21,6,6,0.6,0.5
2023-03-26T20:00:00,1341A,113.0014,28.1944,长沙市,火车新站,颗粒物(PM10),57,64,64,36,29,96,96,90,90,21,22,6,7,0.4,0.3
2023-03-26T20:00:00,1342A,112.9844,28.1178,长沙市,天心区环保局,颗粒物(PM10),62,73,76,36,34,92,92,87,87,18,23,3,4,0.5,0.5
2023-03-26T20:00:00,1343A,112.8908,28.1308,长沙市,湖南中医药大学,颗粒物(PM10),62,73,76,34,34,101,90,94,94,19,21,4,5,0.6,0.5
2023-03-26T20:00:00,1344A,112.9581,28.3611,长沙市,沙坪,颗粒物(PM10),51,51,50,25,21,107,97,98,98,14,13,7,7,0.8,0.7
2023-03-26T20:00:00,1345A,113.2347,23.1423,广州市,广雅中学,,21,21,13,12,8,33,28,28,28,28,33,4,3,0.9,1
2023-03-26T20:00:00,1346A,113.2612,23.105,广州市,市五中,,18,18,11,12,7,39,25,35,34,30,28,6,5,0.9,0.9
2023-03-26T20:00:00,1348A,113.3478,23.0916,广州市,广东商学院,,18,18,11,8,6,31,28,28,28,19,26,3,3,0.8,0.9
2023-03-26T20:00:00,1349A,113.4332,23.1047,广州市,市八十六中,,22,22,12,10,6,28,18,25,24,26,24,4,4,0.8,0.8
2023-03-26T20:00:00,1350A,113.3505,22.9483,广州市,番禺中学,,17,16,12,7,6,39,26,25,24,33,34,6,6,0.9,1
2023-03-26T20:00:00,1351A,113.2146,23.3916,广州市,花都师范,,16,13,6,11,4,49,36,41,41,19,18,6,5,0.7,0.7
2023-03-26T20:00:00,1352A,113.2597,23.1331,广州市,市监测站,,19,12,9,12,9,36,21,33,31,37,33,6,5,0.7,0.7
2023-03-26T20:00:00,1353A,113.5618,23.312,广州市,九龙镇镇龙,,10,10,8,6,5,39,25,36,33,16,20,4,4,0.7,0.7
2023-03-26T20:00:00,1354A,113.2765,23.1544,广州市,麓湖,,16,16,8,9,6,39,20,33,30,32,26,4,3,0.7,0.8
2023-03-26T20:00:00,1355A,113.443,23.3035,广州市,帽峰山森林公园,,11,11,6,6,3,48,33,44,42,15,15,5,4,0.8,0.8
2023-03-26T20:00:00,1356A,114.1063,22.5545,深圳市,通心岭子站,,21,21,13,13,8,53,6,53,23,32,16,4,4,1.0,0.8
2023-03-26T20:00:00,1357A,114.117,22.5625,深圳市,洪湖,,26,26,15,12,8,62,6,59,24,36,22,7,7,0.8,0.7
2023-03-26T20:00:00,1358A,113.987,22.5417,深圳市,华侨城,,28,25,12,19,7,61,10,46,28,38,20,4,4,1.2,1
2023-03-26T20:00:00,1359A,113.9181,22.5171,深圳市,南海子站,,36,32,16,25,11,62,4,47,30,47,23,4,4,0.9,0.7
2023-03-26T20:00:00,1360A,114.2458,22.5689,深圳市,盐田,,22,21,9,11,5,67,9,65,34,44,24,5,5,0.8,0.6
2023-03-26T20:00:00,1361A,114.2283,22.7244,深圳市,龙岗,,21,21,14,9,5,46,13,46,24,26,20,2,2,0.8,0.7
2023-03-26T20:00:00,1363A,114.494,22.5422,深圳市,南澳,,12,12,7,6,2,75,24,54,43,18,10,5,5,1.0,0.8
2023-03-26T20:00:00,1364A,114.41,22.6342,深圳市,葵涌,,12,12,9,7,4,56,16,53,24,19,14,4,4,0.7,0.6
2023-03-26T20:00:00,1365A,114.297,22.5978,深圳市,梅沙,,10,8,9,5,5,69,26,54,45,13,8,4,4,1.0,0.9
2023-03-26T20:00:00,1366A,114.0678,22.738,深圳市,观澜,,17,17,15,11,7,42,19,40,29,23,21,6,6,0.9,0.8
2023-03-26T20:00:00,1367A,113.5814,22.2618,珠海市,吉大,,16,13,15,5,4,82,17,66,19,31,22,4,4,0.8,0.7
2023-03-26T20:00:00,1368A,113.4881,22.2335,珠海市,前山,,30,6,6,21,14,68,6,62,11,44,30,3,3,0.7,0.6
2023-03-26T20:00:00,1369A,113.628,22.4251,珠海市,唐家,,20,17,16,9,7,80,14,53,19,39,24,4,3,0.6,0.5
2023-03-26T20:00:00,1370A,113.299,22.2281,珠海市,斗门,,24,15,11,9,7,66,1,65,5,48,26,3,3,0.8,0.6
2023-03-26T20:00:00,1371A,113.1294,23.0067,佛山市,湾梁,,24,24,14,7,8,33,16,30,27,40,27,6,6,0.9,0.8
2023-03-26T20:00:00,1372A,113.1083,23.0478,佛山市,华材职中,,19,19,10,9,7,32,18,26,24,38,30,4,5,0.5,0.6
2023-03-26T20:00:00,1373A,113.144,23.0453,佛山市,南海气象局,,20,18,10,7,6,28,13,23,21,39,28,5,5,0.9,0.9
2023-03-26T20:00:00,1374A,113.2881,22.8094,佛山市,顺德苏岗,,18,10,3,12,6,40,15,15,15,26,25,7,7,0.9,0.9
2023-03-26T20:00:00,1376A,112.8383,22.8678,佛山市,高明孔堂,,21,21,11,7,4,26,23,21,21,31,27,7,6,0.9,0.8
2023-03-26T20:00:00,1377A,112.8836,23.1588,佛山市,三水监测站,,17,17,7,9,8,32,26,27,24,23,23,4,4,0.8,0.7
2023-03-26T20:00:00,1378A,112.867,23.185,佛山市,三水云东海,,15,12,8,10,5,34,27,28,25,22,19,5,5,0.7,0.6
2023-03-26T20:00:00,1379A,113.3769,22.5211,中山市,华柏园,,21,18,12,8,6,49,4,49,12,42,26,3,3,0.8,0.6
2023-03-26T20:00:00,1380A,113.3881,22.5497,中山市,张溪,,32,32,13,8,4,52,3,52,10,41,26,5,4,0.8,0.7
2023-03-26T20:00:00,1381A,113.4075,22.5111,中山市,紫马岭,,30,23,9,21,11,50,2,48,10,38,21,6,5,0.7,0.6
2023-03-26T20:00:00,1382A,113.4411,22.4853,中山市,长江旅游区,,,,,,,,,,,,,,,,
2023-03-26T20:00:00,1383A,113.1064,22.6058,江门市,北街,,23,21,11,14,7,41,9,16,11,46,32,6,5,0.8,0.7
2023-03-26T20:00:00,1384A,113.0731,22.5835,江门市,西区,,29,24,10,20,10,49,9,15,11,45,32,6,6,0.7,0.7
2023-03-26T20:00:00,1385A,113.0219,22.5311,江门市,圭峰西,,22,22,10,13,7,37,10,30,16,42,28,4,4,0.9,0.8
2023-03-26T20:00:00,1386A,113.0828,22.5947,江门市,东湖,,26,26,13,13,6,42,10,17,13,41,29,6,6,0.8,0.8
2023-03-26T20:00:00,1389A,113.7547,23.0494,东莞市,莞城梨川,,14,14,11,8,8,40,29,36,35,21,20,8,8,0.7,0.7
2023-03-26T20:00:00,1390A,113.7944,23.0128,东莞市,东城石井,,13,13,12,8,8,34,32,28,28,15,18,8,7,0.7,0.6
2023-03-26T20:00:00,1391A,113.7383,22.9658,东莞市,南城西平,,19,14,14,13,7,41,24,25,24,25,29,15,16,0.5,0.5
2023-03-26T20:00:00,1392A,114.4183,23.0528,惠州市,河南岸金山湖子站,,17,17,7,4,5,42,36,36,34,12,15,5,5,0.7,0.7
2023-03-26T20:00:00,1393A,114.4053,23.0822,惠州市,下埔横江三路子站,,12,10,7,4,5,46,38,42,38,13,13,4,5,0.6,0.6
2023-03-26T20:00:00,1394A,114.4103,23.1142,惠州市,江北云山西路子站,,11,10,9,5,5,42,35,40,35,12,12,5,5,0.6,0.6
2023-03-26T20:00:00,1395A,114.4645,22.7833,惠州市,惠阳区承修路船湖子站,,12,12,10,8,8,59,20,52,23,18,16,5,4,0.8,0.7
2023-03-26T20:00:00,1396A,114.5317,22.7422,惠州市,大亚湾管委会子站,,13,12,10,9,9,56,21,53,25,17,19,6,5,0.8,0.8
2023-03-26T20:00:00,1397A,112.4267,23.0706,肇庆市,睦岗子站,,14,14,10,7,5,35,34,31,31,21,22,8,7,0.7,0.7
2023-03-26T20:00:00,1398A,112.4645,23.0475,肇庆市,城中子站,,15,14,8,10,6,44,32,38,37,21,18,7,7,0.6,0.7
2023-03-26T20:00:00,1399A,112.5544,23.1522,肇庆市,坑口子站,,12,12,8,8,5,37,30,32,31,24,23,9,8,0.6,0.5
2023-03-26T20:00:00,1400A,112.4753,23.1,肇庆市,七星岩子站,,,,,,,,,,,,,,,,
2023-03-26T20:00:00,1401A,108.3103,22.7881,南宁市,二十一中,,,36,35,38,24,59,50,53,53,,15,6,6,0.8,0.8
2023-03-26T20:00:00,1402A,108.3141,22.8528,南宁市,北湖,,36,36,24,21,14,56,45,50,50,15,13,8,9,0.7,0.7
2023-03-26T20:00:00,1403A,108.3206,22.8225,南宁市,市监测站,,46,38,25,32,16,56,46,49,49,22,21,8,8,0.7,0.6
2023-03-26T20:00:00,1404A,108.3829,22.8037,南宁市,大自然花园,,36,36,22,23,13,54,48,52,51,16,16,7,7,0.7,0.6
2023-03-26T20:00:00,1405A,108.4394,22.7904,南宁市,仙葫,,35,35,20,16,12,56,49,52,52,14,12,7,7,0.6,0.5
2023-03-26T20:00:00,1406A,108.2397,22.8467,南宁市,区农职院,,36,36,31,25,12,54,44,48,47,19,17,8,8,0.6,0.7
2023-03-26T20:00:00,1407A,108.3275,22.735,南宁市,英华嘉园,,44,44,24,25,12,48,41,44,44,19,17,6,6,0.7,0.7
2023-03-26T20:00:00,1408A,108.2257,22.7757,南宁市,沙井镇街道办,,39,34,30,27,16,48,45,43,42,19,20,5,6,0.7,0.7
2023-03-26T20:00:00,1409A,110.576,19.9507,海口市,东寨港,,,20,15,4,10,31,31,22,22,,,2,2,0.4,0.3
2023-03-26T20:00:00,1410A,110.3232,20.0574,海口市,海南大学,,,9,24,,15,70,70,57,57,8,10,5,5,0.4,0.4
2023-03-26T20:00:00,1411A,110.283,20.0053,海口市,秀英海南医院,,22,22,27,8,16,44,44,37,37,7,14,4,4,0.5,0.4
2023-03-26T20:00:00,1412A,110.338,19.9969,海口市,海南师范大学,,24,24,27,8,17,67,67,58,58,7,8,4,4,0.5,0.4
2023-03-26T20:00:00,1413A,110.33,20.0356,海口市,龙华路环保局宿舍,,,17,24,8,14,66,,52,52,6,8,6,6,0.4,0.4
2023-03-26T20:00:00,1414A,106.3787,29.8279,重庆市,缙云山,,13,9,10,7,6,40,40,34,34,12,14,6,6,0.5,0.5
2023-03-26T20:00:00,1416A,106.4213,29.8253,重庆市,天生,,40,23,32,28,27,18,3,16,9,34,29,5,6,0.8,0.8
2023-03-26T20:00:00,1417A,106.6263,29.7228,重庆市,两路,,23,18,23,16,14,25,17,20,20,28,27,3,3,0.9,0.9
2023-03-26T20:00:00,1418A,106.2953,29.5983,重庆市,虎溪,,19,19,21,12,17,29,8,24,20,35,29,4,4,0.6,0.6
2023-03-26T20:00:00,1419A,106.5777,29.5102,重庆市,南坪,,39,39,40,18,18,26,5,14,12,36,26,4,4,0.6,0.6
2023-03-26T20:00:00,1420A,106.6556,29.6277,重庆市,唐家沱,,21,21,25,9,18,23,14,18,16,29,27,4,4,0.7,0.8
2023-03-26T20:00:00,1421A,106.6349,29.4906,重庆市,茶园,,35,25,26,24,20,22,10,16,16,36,28,4,4,0.6,0.7
2023-03-26T20:00:00,1422A,106.3754,29.4572,重庆市,白市驿,,22,20,23,15,19,24,12,19,18,35,31,6,6,0.7,0.8
2023-03-26T20:00:00,1425A,106.6205,29.7166,重庆市,空港,,20,16,22,14,18,31,25,27,26,21,22,5,5,0.7,0.7
2023-03-26T20:00:00,1426A,106.4782,29.4875,重庆市,新山村,,45,39,37,31,24,16,6,13,11,49,40,6,6,0.8,0.8
2023-03-26T20:00:00,1427A,106.5616,29.6453,重庆市,礼嘉,,20,17,27,14,21,23,20,19,18,29,30,5,5,1.0,1
2023-03-26T20:00:00,1428A,106.4522,29.7091,重庆市,蔡家,,26,26,32,15,21,29,9,22,16,32,26,5,5,0.8,0.8
2023-03-26T20:00:00,1429A,106.5093,29.3917,重庆市,鱼新街,,18,15,26,10,21,30,18,25,24,35,29,6,6,0.9,0.9
2023-03-26T20:00:00,1431A,103.9728,30.7236,成都市,金泉两河,,,31,40,15,21,51,35,44,44,,37,3,2,0.5,0.5
2023-03-26T20:00:00,1432A,104.176,30.6872,成都市,十里店,,30,30,40,16,18,60,34,50,50,33,33,1,2,0.6,0.5
2023-03-26T20:00:00,1433A,104.079,30.5706,成都市,三瓦窑,,41,41,39,24,16,60,34,48,48,32,32,2,1,0.7,0.6
2023-03-26T20:00:00,1434A,104.1114,30.63,成都市,沙河铺,,36,36,39,24,20,61,34,47,47,25,26,2,2,0.7,0.6
2023-03-26T20:00:00,1437A,104.0786,30.6531,成都市,君平街,,43,37,40,30,22,58,40,53,48,33,34,3,2,0.7,0.7
2023-03-26T20:00:00,1438A,103.613,31.0283,成都市,灵岩寺,,25,12,27,6,15,88,78,83,55,7,17,6,7,0.5,0.7
2023-03-26T20:00:00,1439A,106.6899,26.5998,贵阳市,马鞍山,,41,41,22,27,17,80,66,75,75,12,10,5,5,0.5,0.6
2023-03-26T20:00:00,1440A,106.6971,26.5694,贵阳市,市环保站,,44,44,22,23,20,84,71,77,77,13,12,6,6,0.5,0.5
2023-03-26T20:00:00,1441A,106.6243,26.6266,贵阳市,鉴湖路,颗粒物(PM10),52,53,32,19,15,78,65,70,70,11,10,4,4,0.2,0.3
2023-03-26T20:00:00,1442A,106.7487,26.6343,贵阳市,燕子冲,,46,46,27,29,24,75,62,69,69,13,11,4,5,0.5,0.5
2023-03-26T20:00:00,1443A,106.6555,26.4365,贵阳市,碧云窝,颗粒物(PM10),53,56,42,19,20,75,75,74,74,11,16,6,8,0.3,0.6
2023-03-26T20:00:00,1444A,106.694,26.5161,贵阳市,中院村,,35,34,33,24,19,72,67,62,56,16,14,10,10,0.3,0.6
2023-03-26T20:00:00,1445A,106.7109,26.6027,贵阳市,红边门,,48,48,29,22,18,80,67,73,73,13,12,8,8,0.5,0.6
2023-03-26T20:00:00,1446A,106.7164,26.5699,贵阳市,新华路,,41,41,26,17,18,78,67,72,72,10,10,4,6,0.6,0.6
2023-03-26T20:00:00,1447A,106.674,26.5424,贵阳市,太慈桥,,44,44,30,19,13,80,70,73,73,12,13,4,4,0.4,0.5
2023-03-26T20:00:00,1450A,102.8204,24.8886,昆明市,呈贡新区,,50,50,45,24,30,140,112,131,125,10,16,4,7,0.6,0.7
2023-03-26T20:00:00,1451A,102.6251,24.9608,昆明市,西山森林公园,,43,34,34,14,26,158,136,147,143,16,18,5,8,0.6,0.7
2023-03-26T20:00:00,1452A,102.7252,25.0902,昆明市,龙泉镇,颗粒物(PM10),52,54,50,19,34,138,116,127,125,9,24,6,7,0.2,0.4
2023-03-26T20:00:00,1453A,102.7266,25.0375,昆明市,东风东路,,34,33,46,20,34,135,106,125,121,14,20,7,8,0.6,0.7
2023-03-26T20:00:00,1454A,102.6742,25.0669,昆明市,金鼎山,,37,33,48,22,34,136,116,123,121,8,20,6,9,0.6,0.7
2023-03-26T20:00:00,1455A,102.6644,25.0401,昆明市,碧鸡广场,,39,39,53,21,33,141,117,132,128,14,27,6,8,0.7,0.7
2023-03-26T20:00:00,1456A,91.1319,29.6514,拉萨市,八廓街,,,28,20,6,7,138,,134,134,9,8,7,7,0.2,0.2
2023-03-26T20:00:00,1457A,91.1221,29.6747,拉萨市,市环保局,,40,24,17,3,7,141,125,126,126,12,13,6,5,0.4,0.3
2023-03-26T20:00:00,1458A,91.0874,29.6475,拉萨市,区监测站,,37,30,18,6,5,131,118,120,120,14,12,6,6,0.2,0.2
2023-03-26T20:00:00,1459A,91.1774,29.6541,拉萨市,西藏大学,,35,32,16,10,6,130,112,120,120,7,8,6,6,0.3,0.4
2023-03-26T20:00:00,1460A,90.9798,29.6588,拉萨市,区辐射站,,44,26,20,4,11,141,138,130,130,11,14,7,7,0.5,0.4
2023-03-26T20:00:00,1461A,91.0834,29.6292,拉萨市,拉萨火车站,,40,34,24,10,11,135,126,125,125,15,13,8,8,0.3,0.4
2023-03-26T20:00:00,1462A,108.882,34.2749,西安市,高压开关厂,颗粒物(PM10),103,156,127,73,53,91,58,72,72,53,45,8,11,0.6,0.5
2023-03-26T20:00:00,1463A,108.993,34.2629,西安市,兴庆小区,颗粒物(PM10),86,122,105,37,42,72,58,62,62,42,44,8,17,2.3,0.9
2023-03-26T20:00:00,1464A,109.06,34.2572,西安市,纺织城,颗粒物(PM10),87,123,114,44,43,76,30,57,57,58,47,6,16,0.6,0.6
2023-03-26T20:00:00,1465A,108.9356,34.2173,西安市,小寨,颗粒物(PM10),84,118,112,43,44,80,63,64,64,33,49,8,13,0.5,0.6
2023-03-26T20:00:00,1466A,108.954,34.2713,西安市,市人民体育场,颗粒物(PM10),85,120,115,51,54,77,64,64,64,40,46,8,10,0.6,0.5
2023-03-26T20:00:00,1467A,108.8922,34.2322,西安市,高新西区,颗粒物(PM10),79,107,106,51,51,91,75,71,71,30,44,8,12,0.7,0.7
2023-03-26T20:00:00,1468A,108.935,34.3474,西安市,经开区,细颗粒物(PM2.5),94,129,115,70,50,83,69,70,70,36,36,5,8,0.6,0.5
2023-03-26T20:00:00,1469A,108.906,34.1546,西安市,长安区,颗粒物(PM10),84,117,103,45,39,78,63,61,61,29,40,7,8,0.4,0.4
2023-03-26T20:00:00,1471A,109.2186,34.3731,西安市,临潼区,颗粒物(PM10),83,115,103,60,43,86,63,67,67,34,33,12,12,0.6,0.5
2023-03-26T20:00:00,1472A,108.869,34.378,西安市,草滩,颗粒物(PM10),85,119,104,39,33,73,51,63,63,45,32,9,11,0.4,0.5
2023-03-26T20:00:00,1473A,108.985,34.1978,西安市,曲江文化产业集团,颗粒物(PM10),86,121,100,45,44,76,57,63,63,40,45,6,11,0.7,0.7
2023-03-26T20:00:00,1474A,109.051,34.3213,西安市,广运潭,颗粒物(PM10),87,123,117,53,56,82,37,57,57,52,42,8,10,0.7,0.7
2023-03-26T20:00:00,1476A,103.631,36.1031,兰州市,兰炼宾馆,颗粒物(PM10),76,102,106,44,44,118,100,111,111,26,27,7,10,0.6,0.5
2023-03-26T20:00:00,1477A,104.1373,35.9454,兰州市,榆中兰大校区,,,,,,,,,,,,,,,,
2023-03-26T20:00:00,1478A,103.8412,36.0726,兰州市,生物制品所,颗粒物(PM10),71,91,102,38,43,107,98,102,102,16,25,11,12,0.5,0.5
2023-03-26T20:00:00,1479A,103.831,36.0464,兰州市,铁路设计院,颗粒物(PM10),71,91,100,45,46,112,77,104,102,47,32,7,8,0.5,0.4
2023-03-26T20:00:00,1483A,101.524,36.6867,西宁市,第五水厂,,,,,,,,,,,,,,,,
2023-03-26T20:00:00,1484A,105.9512,38.6016,银川市,贺兰山马莲口,,33,25,59,14,20,116,103,106,106,6,16,8,24,0.4,0.7
2023-03-26T20:00:00,1488A,106.2328,38.4975,银川市,贺兰山东路,颗粒物(PM10),65,79,90,21,32,108,88,104,102,31,34,8,21,0.5,0.7
2023-03-26T20:00:00,1489A,106.1358,38.5036,银川市,学院路,颗粒物(PM10),65,79,99,22,29,100,76,90,90,38,44,11,25,0.6,0.9
2023-03-26T20:00:00,1490A,87.5801,43.8303,乌鲁木齐市,监测站,颗粒物(PM10),54,58,72,28,24,108,88,86,86,28,54,14,7,0.5,0.6
2023-03-26T20:00:00,1491A,87.6046,43.768,乌鲁木齐市,收费所,颗粒物(PM10),66,81,88,18,21,89,72,77,77,79,59,6,3,1.1,0.5
2023-03-26T20:00:00,1492A,87.4754,43.9469,乌鲁木齐市,新疆农科院农场,细颗粒物(PM2.5),122,41,131,92,95,72,58,60,60,16,40,14,11,0.5,0.6
2023-03-26T20:00:00,1493A,87.5525,43.8711,乌鲁木齐市,铁路局,颗粒物(PM10),55,60,70,31,28,113,93,86,86,25,49,16,6,0.7,0.7
2023-03-26T20:00:00,1494A,87.6432,43.831,乌鲁木齐市,三十一中学,颗粒物(PM10),53,55,60,24,21,88,82,79,79,18,34,13,9,0.9,0.9
2023-03-26T20:00:00,1496A,87.7216,44.1747,乌鲁木齐市,米东区环保局,,37,22,78,9,29,116,116,98,98,3,31,10,11,0.4,0.5
2023-03-26T20:00:00,1508A,112.9433,27.8614,湘潭市,板塘,颗粒物(PM10),54,58,67,31,28,81,72,75,75,19,16,5,5,0.4,0.3
2023-03-26T20:00:00,1511A,112.9118,27.8403,湘潭市,市监测站,颗粒物(PM10),61,71,74,32,30,94,78,83,83,24,19,7,7,0.7,0.6
2023-03-26T20:00:00,1512A,112.8937,27.8728,湘潭市,江麓,颗粒物(PM10),58,65,70,30,28,95,86,89,89,16,20,6,9,0.7,0.6
2023-03-26T20:00:00,1513A,112.9227,27.8159,湘潭市,岳塘,颗粒物(PM10),61,72,74,37,34,79,70,74,74,26,21,11,12,0.6,0.5
2023-03-26T20:00:00,1514A,112.9074,27.9119,湘潭市,科大,颗粒物(PM10),58,66,72,33,31,95,82,89,89,23,23,5,5,0.7,0.7
2023-03-26T20:00:00,1515A,113.135,27.8244,株洲市,天台山庄,颗粒物(PM10),70,90,74,36,26,95,74,88,87,34,30,6,7,0.7,0.6
2023-03-26T20:00:00,1518A,113.095,27.8867,株洲市,株冶医院,,,,73,,29,88,67,81,79,29,30,3,4,0.6,0.5
2023-03-26T20:00:00,1519A,113.167,27.8667,株洲市,市四中,颗粒物(PM10),65,79,69,45,33,88,68,78,78,26,23,7,8,0.7,0.7
2023-03-26T20:00:00,1520A,113.143,27.8381,株洲市,火车站,颗粒物(PM10),69,88,75,40,28,87,63,81,80,38,30,6,6,0.9,0.7
2023-03-26T20:00:00,1524A,113.13,27.8528,株洲市,市监测站,细颗粒物(PM2.5),77,83,74,56,44,85,63,81,80,38,34,5,6,0.7,0.6
2023-03-26T20:00:00,1552A,106.805,26.3003,贵阳市,桐木岭,,,,,,,,,,,,,,,,
2023-03-26T20:00:00,1559A,113.251,27.8336,株洲市,大京风景区,颗粒物(PM10),53,56,44,33,21,90,57,80,77,22,11,8,7,0.4,0.4
2023-03-26T20:00:00,1562A,113.0048,27.9153,湘潭市,昭山,颗粒物(PM10),68,85,78,36,29,91,61,79,79,32,26,3,3,0.4,0.3
2023-03-26T20:00:00,1564A,112.4876,27.9164,湘潭市,韶山,,49,49,59,23,19,103,103,94,94,13,11,6,5,0.1,0.2
2023-03-26T20:00:00,1585A,109.8756,40.6532,包头市,市环境监测站,颗粒物(PM10),67,84,95,23,31,101,58,91,90,50,46,10,20,0.5,0.9
2023-03-26T20:00:00,1587A,109.9991,40.5842,包头市,包头八中,颗粒物(PM10),66,81,111,18,34,107,65,97,96,47,48,5,14,0.4,1.3
2023-03-26T20:00:00,1588A,109.8538,40.6821,包头市,青山宾馆,颗粒物(PM10),62,74,88,39,43,100,55,88,88,48,42,8,17,0.7,1
2023-03-26T20:00:00,1589A,109.8642,40.6288,包头市,惠龙物流,颗粒物(PM10),67,83,87,24,31,101,77,94,94,30,44,8,16,0.6,0.8
2023-03-26T20:00:00,1590A,110.0377,40.5546,包头市,东河鸿龙湾,颗粒物(PM10),63,76,92,15,31,103,74,94,94,26,37,8,14,0.6,0.9
2023-03-26T20:00:00,1591A,110.0023,39.8129,鄂尔多斯市,综合楼,颗粒物(PM10),67,83,73,12,16,93,80,89,88,20,39,7,16,0.4,0.5
2023-03-26T20:00:00,1592A,109.9486,39.8261,鄂尔多斯市,巴音孟克林场办事处,颗粒物(PM10),60,70,64,22,19,97,79,94,93,19,29,6,21,0.7,0.8
2023-03-26T20:00:00,1593A,109.7736,39.5986,鄂尔多斯市,康泽苑,颗粒物(PM10),58,66,53,9,11,90,79,87,86,10,20,8,8,0.5,0.6
2023-03-26T20:00:00,1594A,109.8119,39.5989,鄂尔多斯市,华泰汽车城,颗粒物(PM10),57,63,55,17,18,97,80,94,93,16,33,6,7,0.4,0.5
2023-03-26T20:00:00,1595A,109.9734,39.7884,鄂尔多斯市,奥林花园,颗粒物(PM10),60,70,84,14,21,99,85,96,94,16,42,6,9,0.4,0.7
2023-03-26T20:00:00,1597A,122.2703,40.7094,营口市,大庆路,颗粒物(PM10),51,51,56,26,33,105,97,98,98,21,39,9,13,0.6,1
2023-03-26T20:00:00,1598A,122.2150,40.6511,营口市,镜湖西路,颗粒物(PM10),54,57,53,26,26,127,100,109,109,30,28,10,13,0.7,1
2023-03-26T20:00:00,1599A,122.1658,40.6789,营口市,西炮台,,44,44,48,23,26,134,116,112,112,17,35,9,17,0.6,0.8
2023-03-26T20:00:00,1600A,124.3303,40.0625,丹东市,江湾东路,细颗粒物(PM2.5),84,90,53,62,29,100,86,94,93,21,14,10,11,0.7,0.6
2023-03-26T20:00:00,1601A,124.4256,40.1503,丹东市,临江后街,颗粒物(PM10),75,99,48,54,22,100,58,93,88,36,18,16,14,1.2,0.7
2023-03-26T20:00:00,1602A,124.3933,40.1461,丹东市,元宝山,颗粒物(PM10),54,57,43,31,18,88,71,86,84,22,15,14,16,0.7,0.7
2023-03-26T20:00:00,1603A,124.3633,40.1092,丹东市,民主桥,颗粒物(PM10),62,74,42,41,20,94,70,88,87,35,18,13,14,0.7,0.6
2023-03-26T20:00:00,1604A,122.0303,41.1489,盘锦市,开发区,细颗粒物(PM2.5),64,67,49,46,25,113,92,100,100,29,28,12,11,0.9,0.7
2023-03-26T20:00:00,1605A,122.0485,41.0883,盘锦市,兴隆台,颗粒物(PM10),58,65,62,37,31,104,79,95,94,37,39,12,13,0.6,0.6
2023-03-26T20:00:00,1606A,121.8297,41.1028,盘锦市,新生街道,,42,38,56,29,26,116,82,100,100,28,44,8,11,0.7,0.7
2023-03-26T20:00:00,1607A,120.9092,40.7136,葫芦岛市,龙港区,颗粒物(PM10),65,80,88,34,40,87,85,84,84,13,40,8,64,0.6,0.6
2023-03-26T20:00:00,1608A,120.8392,40.7514,葫芦岛市,化工街,颗粒物(PM10),78,105,82,51,37,114,89,104,103,29,49,8,17,1.1,0.9
2023-03-26T20:00:00,1609A,120.8341,40.7073,葫芦岛市,新区,细颗粒物(PM2.5),70,73,79,51,46,99,83,90,89,25,47,13,22,0.9,0.9
2023-03-26T20:00:00,1610A,120.8695,40.7677,葫芦岛市,东城区,细颗粒物(PM2.5),70,71,76,51,38,106,76,96,94,29,45,11,18,1.0,0.9
2023-03-26T20:00:00,1611A,118.5819,24.9117,泉州市,涂山街,,22,22,19,9,22,69,69,51,51,22,23,8,7,0.6,0.7
2023-03-26T20:00:00,1612A,118.5972,24.8978,泉州市,津头埔,,24,24,18,16,23,62,62,45,45,29,27,10,8,0.5,0.6
2023-03-26T20:00:00,1613A,118.6663,24.9424,泉州市,万安,,28,23,19,19,25,70,68,59,53,24,21,8,8,0.5,0.7
2023-03-26T20:00:00,1614A,118.6117,24.9604,泉州市,清源山,,,,,,,,,,,,,,,,
2023-03-26T20:00:00,1616A,117.6795,36.229,济南市,技术学院,颗粒物(PM10),92,134,155,56,52,142,96,129,129,42,46,12,11,1.1,1.1
2023-03-26T20:00:00,1618A,118.3429,35.0532,临沂市,沂河小区,颗粒物(PM10),139,227,146,89,55,118,89,108,108,32,38,18,15,0.5,0.5
2023-03-26T20:00:00,1619A,118.295,35.0583,临沂市,鲁南制药厂,颗粒物(PM10),145,239,155,95,52,123,93,111,111,42,46,22,20,0.5,0.5
2023-03-26T20:00:00,1620A,118.2794,34.9976,临沂市,新光毛纺厂,颗粒物(PM10),144,237,158,93,55,121,82,110,110,39,42,24,19,0.7,0.7
2023-03-26T20:00:00,1621A,118.3956,35.0888,临沂市,河东保险公司,颗粒物(PM10),122,193,141,89,63,127,94,116,116,40,44,18,16,0.8,0.9
2023-03-26T20:00:00,1622A,116.3032,37.4674,德州市,儿童乐园,颗粒物(PM10),80,110,115,41,39,132,105,120,120,28,48,5,9,0.6,0.7
2023-03-26T20:00:00,1624A,116.2991,37.4451,德州市,监理站,颗粒物(PM10),82,113,111,36,39,127,98,116,116,32,40,8,11,0.4,0.5
2023-03-26T20:00:00,1625A,115.9848,36.4372,聊城市,区政府,颗粒物(PM10),90,129,128,52,47,128,92,113,113,33,37,10,14,0.7,0.8
2023-03-26T20:00:00,1628A,118.0062,37.3803,滨州市,市环保局,颗粒物(PM10),71,91,98,38,37,131,89,120,117,29,34,7,12,0.6,0.8
2023-03-26T20:00:00,1629A,118.0018,37.3617,滨州市,第二水厂,颗粒物(PM10),68,85,99,27,33,135,95,122,120,31,36,6,8,0.4,0.6
2023-03-26T20:00:00,1630A,117.9776,37.393,滨州市,北中新校,颗粒物(PM10),64,77,98,27,35,134,87,121,118,33,34,8,13,0.3,0.5
2023-03-26T20:00:00,1631A,118.0414,36.8103,淄博市,人民公园,颗粒物(PM10),70,90,108,39,43,114,59,109,102,58,39,14,18,0.8,0.8
2023-03-26T20:00:00,1633A,117.8525,36.4847,淄博市,双山,颗粒物(PM10),82,113,124,53,47,130,70,112,109,47,47,13,18,0.5,0.6
2023-03-26T20:00:00,1634A,117.9592,36.6331,淄博市,气象站,颗粒物(PM10),100,149,127,48,42,122,62,110,106,57,51,17,21,0.6,0.6
2023-03-26T20:00:00,1635A,118.3092,36.8194,淄博市,莆田园,颗粒物(PM10),64,78,87,34,35,119,66,109,105,52,41,14,20,0.5,1.2
2023-03-26T20:00:00,1637A,117.558,34.8438,枣庄市,市中区政府,颗粒物(PM10),142,234,231,85,84,136,100,118,118,38,53,14,39,0.6,0.8
2023-03-26T20:00:00,1638A,117.2852,34.7837,枣庄市,薛城环保局,颗粒物(PM10),114,178,207,56,68,127,107,119,119,22,40,14,22,0.7,0.9
2023-03-26T20:00:00,1639A,117.5852,34.7745,枣庄市,峄城区政府,颗粒物(PM10),119,188,214,63,70,126,101,114,114,27,45,15,29,0.5,0.7
2023-03-26T20:00:00,1640A,117.7276,34.5578,枣庄市,台儿庄区环保局,颗粒物(PM10),170,290,235,90,73,132,26,108,102,104,58,13,18,0.9,0.9
2023-03-26T20:00:00,1641A,117.4518,35.0992,枣庄市,山亭区环保局,颗粒物(PM10),161,271,195,93,63,128,109,118,118,35,37,12,11,1.0,0.9
2023-03-26T20:00:00,1642A,121.2514,37.5639,烟台市,开发区,,48,48,44,24,24,104,77,83,83,34,36,7,9,0.4,0.4
2023-03-26T20:00:00,1643A,121.3719,37.5433,烟台市,轴承厂,颗粒物(PM10),62,73,56,40,23,96,74,83,83,33,31,9,9,0.8,0.6
2023-03-26T20:00:00,1644A,121.3181,37.5436,烟台市,西郊化工站,颗粒物(PM10),60,70,63,23,25,98,85,90,90,22,36,8,10,0.5,0.5
2023-03-26T20:00:00,1645A,121.4478,37.4822,烟台市,莱山环保局,,48,48,47,27,23,78,57,70,68,42,32,9,11,0.3,0.3
2023-03-26T20:00:00,1646A,121.2611,37.4967,烟台市,福山环保局,颗粒物(PM10),73,95,69,31,25,99,53,89,87,53,39,12,11,0.7,0.7
2023-03-26T20:00:00,1650A,119.1437,36.7023,潍坊市,环保局,颗粒物(PM10),54,58,61,22,23,118,86,112,108,32,20,5,5,0.6,0.5
2023-03-26T20:00:00,1653A,116.6251,35.4302,济宁市,火炬城,颗粒物(PM10),114,177,150,85,64,124,114,110,110,25,43,14,15,0.9,1
2023-03-26T20:00:00,1655A,116.5491,35.4042,济宁市,电化厂,颗粒物(PM10),117,183,162,85,71,120,102,108,108,25,40,9,12,0.8,0.8
2023-03-26T20:00:00,1656A,117.1437,36.1937,泰安市,监测站,细颗粒物(PM2.5),102,144,160,76,71,122,100,113,113,23,31,8,9,1.0,1.1
2023-03-26T20:00:00,1657A,117.0885,36.2017,泰安市,人口学校,细颗粒物(PM2.5),107,144,164,80,60,130,113,119,119,20,35,8,9,0.5,0.6
2023-03-26T20:00:00,1658A,117.1089,36.1758,泰安市,电力学校,颗粒物(PM10),92,134,159,66,64,122,101,115,115,26,45,11,13,0.8,0.9
2023-03-26T20:00:00,1659A,119.471,35.4209,日照市,监测站,颗粒物(PM10),56,61,81,23,30,89,73,75,75,38,46,4,5,0.4,0.5
2023-03-26T20:00:00,1660A,119.523,35.4216,日照市,市政府广场,颗粒物(PM10),54,58,77,20,26,91,85,82,82,18,28,4,6,0.6,0.8
2023-03-26T20:00:00,1661A,119.5587,35.4044,日照市,港务局,,48,48,74,17,27,102,90,84,84,27,46,6,9,0.5,0.7
2023-03-26T20:00:00,1662A,122.1214,37.4236,威海市,华夏技校,,39,39,47,24,21,95,91,90,86,22,22,4,3,0.3,0.3
2023-03-26T20:00:00,1663A,122.0508,37.5236,威海市,山大分校,,46,46,49,15,21,97,90,91,91,22,27,3,3,0.3,0.3
2023-03-26T20:00:00,1664A,122.1067,37.5072,威海市,市监测站,颗粒物(PM10),52,54,49,24,25,101,32,94,84,62,21,4,4,0.6,0.5
2023-03-26T20:00:00,1666A,118.6614,37.4309,东营市,市环保局,颗粒物(PM10),67,83,68,24,23,132,79,125,121,45,20,9,9,0.3,0.3
2023-03-26T20:00:00,1669A,113.5824,24.7733,韶关市,市八中,,18,18,10,12,5,53,53,45,45,12,10,9,8,0.5,0.6
2023-03-26T20:00:00,1671A,113.5917,24.7972,韶关市,园林处,,28,20,10,19,8,55,55,48,48,7,6,10,10,0.7,0.8
2023-03-26T20:00:00,1672A,113.6735,24.7791,韶关市,韶关学院,,28,19,12,19,11,49,48,44,44,13,11,9,9,0.4,0.5
2023-03-26T20:00:00,1673A,113.5971,24.6863,韶关市,曲江监测站,,22,15,13,15,6,48,43,39,39,16,13,9,10,0.6,0.7
2023-03-26T20:00:00,1674A,116.6794,23.3667,汕头市,金平子站,,14,12,11,6,11,83,44,66,60,26,21,7,5,0.7,0.7
2023-03-26T20:00:00,1675A,116.7244,23.3633,汕头市,龙湖子站,,17,14,11,6,8,86,54,75,56,20,17,4,3,0.6,0.6
2023-03-26T20:00:00,1676A,116.7258,23.2775,汕头市,濠江子站,,17,11,12,6,10,71,53,69,65,15,15,9,9,0.7,0.7
2023-03-26T20:00:00,1677A,116.7519,23.4714,汕头市,澄海子站,,15,14,11,8,12,74,48,67,61,27,24,7,6,0.6,0.6
2023-03-26T20:00:00,1678A,116.6092,23.2539,汕头市,潮阳子站,,17,12,12,6,8,74,54,70,64,14,13,6,6,0.5,0.5
2023-03-26T20:00:00,1680A,110.3539,21.2706,湛江市,湛江影剧院,,34,34,28,16,14,49,19,47,13,22,12,10,9,0.8,0.7
2023-03-26T20:00:00,1681A,110.3928,21.2228,湛江市,市环境监测站,,14,12,24,5,18,52,42,49,21,16,12,7,7,0.6,0.6
2023-03-26T20:00:00,1682A,110.4019,21.1997,湛江市,环保局宿舍,,17,17,21,11,17,53,41,49,24,15,12,5,5,0.6,0.5
2023-03-26T20:00:00,1683A,110.4111,21.2028,湛江市,霞山游泳场,,15,11,22,6,17,56,45,53,24,14,13,5,5,0.6,0.6
2023-03-26T20:00:00,1684A,110.3316,21.2679,湛江市,麻章区环保局,,40,40,26,13,13,48,11,45,4,22,13,10,10,0.8,0.7
2023-03-26T20:00:00,1685A,110.4558,21.2567,湛江市,坡头区环保局,,15,7,21,10,21,54,44,52,22,13,11,6,7,0.7,0.7
2023-03-26T20:00:00,1686A,111.0286,21.4688,茂名市,电白南海,,19,19,23,12,16,62,31,60,27,16,11,8,6,0.7,0.6
2023-03-26T20:00:00,1687A,110.9294,21.6533,茂名市,茂石化七小,,25,19,23,17,19,42,21,36,21,18,14,6,8,0.8,0.7
2023-03-26T20:00:00,1688A,110.9107,21.6687,茂名市,健康路,,17,17,28,3,11,44,24,39,23,16,12,8,10,0.9,0.8
2023-03-26T20:00:00,1689A,110.8592,21.6828,茂名市,高岭,,32,14,24,22,22,46,30,44,24,15,13,10,12,0.9,0.8
2023-03-26T20:00:00,1690A,116.1231,24.3284,梅州市,梅江月梅,,17,17,8,8,4,56,16,47,27,22,17,7,6,0.7,0.6
2023-03-26T20:00:00,1691A,116.0797,24.2719,梅州市,梅县新城,,19,18,9,13,6,51,18,46,30,22,13,5,3,0.8,0.7
2023-03-26T20:00:00,1692A,116.1248,24.2654,梅州市,环境监控中心,,13,11,7,6,3,71,15,70,26,26,15,8,7,0.7,0.6
2023-03-26T20:00:00,1693A,115.3653,22.775,汕尾市,市环保局,,16,16,12,10,11,57,34,49,43,14,12,8,8,0.9,0.9
2023-03-26T20:00:00,1694A,115.3706,22.7898,汕尾市,市政府,,11,10,12,6,12,51,35,47,39,13,15,8,8,0.8,0.7
2023-03-26T20:00:00,1695A,115.3622,22.7925,汕尾市,新城中学,,15,13,13,10,11,52,36,48,41,9,10,6,6,0.7,0.7
2023-03-26T20:00:00,1696A,114.6778,23.7569,河源市,源西,,29,13,6,20,6,40,24,35,32,23,17,5,5,0.8,0.7
2023-03-26T20:00:00,1697A,114.6944,23.7586,河源市,东埔,,22,22,10,12,6,45,28,38,36,18,13,4,4,0.8,0.8
2023-03-26T20:00:00,1698A,114.6892,23.7233,河源市,老城,,20,20,8,12,4,43,28,37,35,17,12,4,4,0.9,0.8
2023-03-26T20:00:00,1699A,111.9797,21.8593,阳江市,鸳鸯湖,,28,28,11,10,6,60,13,54,20,28,15,8,7,0.9,0.8
2023-03-26T20:00:00,1701A,111.9491,21.8658,阳江市,马南垌,,24,24,13,15,8,64,12,58,22,36,19,6,5,0.8,0.7
2023-03-26T20:00:00,1702A,113.0426,23.691,清远市,环保大楼,,13,13,4,8,4,38,38,36,36,13,10,5,4,1.2,1.1
2023-03-26T20:00:00,1703A,113.0208,23.7106,清远市,凤城街办,,13,5,5,9,3,36,34,33,33,9,6,12,9,0.7,0.6
2023-03-26T20:00:00,1705A,116.6367,23.6719,潮州市,西园路,,20,13,18,14,17,51,28,38,34,15,17,4,5,0.8,0.8
2023-03-26T20:00:00,1706A,116.6447,23.6706,潮州市,档案局,,19,14,17,13,24,54,32,40,38,14,16,6,9,0.6,0.6
2023-03-26T20:00:00,1708A,116.3701,23.5345,揭阳市,新兴,细颗粒物(PM2.5),63,32,20,45,25,56,33,39,35,28,27,6,7,0.7,0.8
2023-03-26T20:00:00,1709A,116.3264,23.5443,揭阳市,西马,,49,31,25,34,22,54,35,35,33,20,21,10,9,0.7,0.8
2023-03-26T20:00:00,1710A,116.3611,23.5626,揭阳市,东兴,细颗粒物(PM2.5),54,31,20,38,22,54,34,41,40,28,25,5,5,0.7,0.8
2023-03-26T20:00:00,1711A,116.4151,23.5294,揭阳市,渔湖,,30,30,20,20,17,51,35,45,42,25,26,6,8,0.7,0.7
2023-03-26T20:00:00,1712A,112.0392,22.9169,云浮市,新市府,,11,10,7,3,5,36,20,29,25,22,16,4,5,1.0,1
2023-03-26T20:00:00,1714A,112.0539,22.9539,云浮市,牧羊,,8,5,6,3,4,35,24,27,25,16,16,7,9,0.7,0.7
2023-03-26T20:00:00,1715A,102.575,24.3711,玉溪市,东风水库,颗粒物(PM10),53,56,44,21,34,135,116,129,127,8,12,4,5,0.6,0.7
2023-03-26T20:00:00,1718A,115.4208,35.2464,菏泽市,气象局,颗粒物(PM10),124,198,182,58,61,128,92,114,114,27,41,9,12,0.5,0.6
2023-03-26T20:00:00,1719A,115.4747,35.2375,菏泽市,市政协,颗粒物(PM10),118,185,169,61,56,132,96,121,121,27,36,10,10,0.6,0.7
2023-03-26T20:00:00,1721A,113.3819,40.1097,大同市,果树场,,,,,,,,,,,,,,,,
2023-03-26T20:00:00,1723A,113.2994,40.0758,大同市,云冈宾馆,颗粒物(PM10),61,72,66,20,25,95,47,87,80,61,40,12,15,0.5,1.1
2023-03-26T20:00:00,1724A,113.3444,40.0917,大同市,大同大学,颗粒物(PM10),59,67,70,18,26,94,68,83,83,28,31,8,18,0.6,0.7
2023-03-26T20:00:00,1725A,113.2661,40.1269,大同市,安家小村,颗粒物(PM10),58,66,82,10,30,95,74,84,84,19,36,6,12,0.3,0.9
2023-03-26T20:00:00,1726A,113.2711,40.0844,大同市,教育学院,颗粒物(PM10),58,66,87,25,34,87,52,78,77,42,45,12,17,0.6,1.1
2023-03-26T20:00:00,1727A,113.1147,36.1547,长治市,清华站,颗粒物(PM10),71,91,131,48,55,120,86,102,101,19,24,8,9,0.8,0.9
2023-03-26T20:00:00,1728A,113.1031,36.1989,长治市,监测站,颗粒物(PM10),75,100,124,51,57,110,81,94,94,23,30,5,7,0.7,0.7
2023-03-26T20:00:00,1730A,113.0886,36.2125,长治市,审计局,细颗粒物(PM2.5),77,91,121,56,62,105,78,93,93,27,31,8,10,0.9,1
2023-03-26T20:00:00,1731A,113.0844,36.1856,长治市,长治八中,颗粒物(PM10),78,106,146,42,47,110,83,95,95,17,22,6,7,0.8,0.9
2023-03-26T20:00:00,1733A,111.5531,36.0783,临汾市,临钢医院,颗粒物(PM10),95,139,185,56,74,111,56,87,87,48,36,4,6,1.1,1.1
2023-03-26T20:00:00,1734A,111.5028,36.0714,临汾市,技工学校,颗粒物(PM10),74,98,168,39,62,102,84,91,91,21,33,6,10,0.6,0.8
2023-03-26T20:00:00,1736A,111.5018,36.0855,临汾市,市委,颗粒物(PM10),74,98,173,46,61,114,85,100,100,29,34,6,10,0.8,1
2023-03-26T20:00:00,1738A,113.5758,37.8572,阳泉市,市中心,颗粒物(PM10),86,122,125,49,48,92,83,84,84,32,45,13,12,0.9,0.8
2023-03-26T20:00:00,1739A,113.4894,37.8731,阳泉市,赛鱼,颗粒物(PM10),85,119,120,39,54,102,87,94,94,26,44,10,11,0.6,0.6
2023-03-26T20:00:00,1740A,113.5819,37.8486,阳泉市,南庄,细颗粒物(PM2.5),99,132,142,74,56,95,84,89,89,28,36,12,11,0.9,0.8
2023-03-26T20:00:00,1742A,113.5614,37.8703,阳泉市,平坦,颗粒物(PM10),83,116,134,47,55,95,84,85,85,33,51,12,13,0.8,0.8
2023-03-26T20:00:00,1743A,113.5158,37.8392,阳泉市,大阳泉,颗粒物(PM10),74,98,118,50,51,103,98,97,97,26,26,10,9,0.7,0.8
2023-03-26T20:00:00,1744A,118.9233,42.2816,赤峰市,松山一中,,48,48,45,16,13,91,57,86,82,40,30,15,11,0.6,0.7
2023-03-26T20:00:00,1745A,118.9576,42.2728,赤峰市,哈达街,,47,47,39,12,15,95,74,89,88,26,22,17,14,0.6,0.5
2023-03-26T20:00:00,1746A,118.8788,42.2554,赤峰市,天义路,,29,29,29,11,12,99,78,94,92,23,21,13,12,0.5,0.5
2023-03-26T20:00:00,1748A,123.044,41.1196,鞍山市,深沟寺,颗粒物(PM10),58,66,52,37,27,104,79,92,92,26,24,18,14,0.7,0.8
2023-03-26T20:00:00,1749A,123.011,41.0931,鞍山市,太阳城,颗粒物(PM10),58,66,56,32,26,107,83,98,96,21,27,12,17,0.5,1
2023-03-26T20:00:00,1750A,123.0485,41.1442,鞍山市,太平,颗粒物(PM10),61,71,57,34,26,94,54,85,81,54,36,21,16,1.4,0.9
2023-03-26T20:00:00,1751A,122.9642,41.0971,鞍山市,铁西三道街,颗粒物(PM10),66,81,79,43,35,103,58,95,91,43,44,14,16,1.0,1.2
2023-03-26T20:00:00,1752A,122.9341,41.0833,鞍山市,铁西工业园区,颗粒物(PM10),59,68,77,40,36,105,65,97,94,34,50,17,18,0.9,1.4
2023-03-26T20:00:00,1753A,123.022,41.0821,鞍山市,明达新区,颗粒物(PM10),66,81,66,34,27,109,80,98,96,27,39,10,16,0.5,1
2023-03-26T20:00:00,1754A,123.1289,41.0228,鞍山市,千山,,,,,,,,,,,,,,,,
2023-03-26T20:00:00,1755A,123.7977,41.8491,抚顺市,望花区,细颗粒物(PM2.5),69,52,65,50,34,104,41,98,92,57,35,9,11,0.7,0.6
2023-03-26T20:00:00,1756A,123.9161,41.8822,抚顺市,顺城区,细颗粒物(PM2.5),64,72,69,46,35,100,13,94,82,74,37,7,6,0.8,0.6
2023-03-26T20:00:00,1757A,124.0436,41.8611,抚顺市,东洲区,,46,46,60,31,35,100,75,95,93,14,18,3,6,0.3,0.4
2023-03-26T20:00:00,1758A,123.9247,41.8642,抚顺市,新抚区,颗粒物(PM10),53,55,84,21,44,100,12,94,84,77,36,6,7,0.6,0.7
2023-03-26T20:00:00,1759A,124.0972,41.8961,抚顺市,大伙房水库,,43,43,48,17,26,109,87,105,103,10,13,5,6,0.2,0.3
2023-03-26T20:00:00,1760A,123.7086,41.8391,抚顺市,沈抚新城,细颗粒物(PM2.5),60,54,52,43,30,107,35,101,94,66,31,13,21,0.6,0.4
2023-03-26T20:00:00,1761A,123.8275,41.3064,本溪市,大峪,,37,37,54,16,20,89,78,85,85,18,33,6,8,0.4,0.6
2023-03-26T20:00:00,1762A,123.7567,41.3325,本溪市,溪湖,颗粒物(PM10),54,57,74,26,25,96,80,92,91,15,35,12,16,0.6,0.8
2023-03-26T20:00:00,1763A,123.7169,41.3094,本溪市,彩屯,细颗粒物(PM2.5),95,83,59,71,28,99,47,92,84,41,29,10,13,1.1,0.9
2023-03-26T20:00:00,1764A,123.7669,41.2864,本溪市,东明,细颗粒物(PM2.5),53,54,56,37,26,91,37,87,81,58,33,13,13,0.8,0.7
2023-03-26T20:00:00,1765A,123.7992,41.2664,本溪市,新立屯,颗粒物(PM10),53,56,38,29,18,89,30,84,74,56,34,8,10,0.6,0.6
2023-03-26T20:00:00,1766A,123.8142,41.3472,本溪市,威宁,,49,49,64,29,26,93,54,88,84,35,35,6,7,0.5,0.8
2023-03-26T20:00:00,1767A,121.1115,41.0879,锦州市,南山,细颗粒物(PM2.5),108,91,72,81,45,119,85,102,101,38,28,31,17,1.4,0.9
2023-03-26T20:00:00,1768A,121.0533,40.8434,锦州市,开发区,细颗粒物(PM2.5),88,108,97,65,60,106,73,93,91,45,49,15,29,1.0,1
2023-03-26T20:00:00,1769A,121.1836,41.1119,锦州市,百股街道,细颗粒物(PM2.5),83,81,70,61,35,111,81,102,100,36,31,14,13,1.2,0.9
2023-03-26T20:00:00,1770A,121.1178,41.1222,锦州市,天安街道,细颗粒物(PM2.5),117,93,74,88,39,112,89,99,97,38,34,29,20,1.5,0.8
2023-03-26T20:00:00,1771A,121.1303,41.1386,锦州市,北湖公园,细颗粒物(PM2.5),99,84,68,74,32,112,93,101,99,37,26,25,17,1.2,0.7
2023-03-26T20:00:00,1772A,126.54,43.8622,吉林市,哈达湾,颗粒物(PM10),55,60,65,32,35,113,88,106,105,24,16,6,6,0.8,0.7
2023-03-26T20:00:00,1773A,126.5844,43.8358,吉林市,东局子,细颗粒物(PM2.5),72,77,67,52,38,119,61,106,102,48,22,8,7,0.8,0.7
2023-03-26T20:00:00,1774A,126.5052,43.8245,吉林市,电力学院,,,215,78,,38,120,32,114,99,71,22,22,9,1.7,0.7
2023-03-26T20:00:00,1775A,126.6133,43.8972,吉林市,江北,颗粒物(PM10),78,105,71,56,37,116,56,106,100,48,22,12,11,1.2,0.8
2023-03-26T20:00:00,1776A,126.555,43.8306,吉林市,江南公园,细颗粒物(PM2.5),79,89,66,58,42,116,86,104,103,28,20,8,7,0.6,0.5
2023-03-26T20:00:00,1778A,126.7061,43.7133,吉林市,丰满,,,,,,,,,,,,,,,,
2023-03-26T20:00:00,1779A,123.9305,47.3636,齐齐哈尔市,安居小区,颗粒物(PM10),60,70,63,42,45,119,55,103,94,44,20,5,6,0.7,0.5
2023-03-26T20:00:00,1780A,123.9488,47.3386,齐齐哈尔市,中心广场,颗粒物(PM10),54,58,48,32,25,108,51,93,86,42,21,9,7,0.7,0.5
2023-03-26T20:00:00,1781A,123.9483,47.3227,齐齐哈尔市,农牧车辆厂,颗粒物(PM10),57,63,66,30,30,105,51,92,86,37,15,8,6,0.5,0.3
2023-03-26T20:00:00,1783A,123.945,47.2988,齐齐哈尔市,市环境监测站,颗粒物(PM10),56,62,56,31,41,110,72,96,94,17,12,5,6,0.4,0.3
2023-03-26T20:00:00,1784A,129.61,44.561,牡丹江市,环保大楼,颗粒物(PM10),54,58,46,32,32,102,86,97,94,22,22,3,4,0.4,0.5
2023-03-26T20:00:00,1785A,129.6115,44.5782,牡丹江市,文化广场,"颗粒物(PM10),细颗粒物(PM2.5)",52,53,57,36,33,95,80,91,89,27,29,4,6,0.4,0.6
2023-03-26T20:00:00,1786A,129.5904,44.5963,牡丹江市,第一医院,细颗粒物(PM2.5),57,59,53,40,34,100,75,96,93,27,18,6,3,0.5,0.5
2023-03-26T20:00:00,1787A,129.6364,44.6075,牡丹江市,机车工厂,细颗粒物(PM2.5),62,68,60,44,31,102,76,97,94,17,19,5,4,0.6,0.7
2023-03-26T20:00:00,1788A,129.6386,44.5462,牡丹江市,第一中学,细颗粒物(PM2.5),54,46,42,38,25,102,93,98,98,14,17,1,2,0.4,0.4
2023-03-26T20:00:00,1789A,124.81117,46.03138,大庆市,大同区,颗粒物(PM10),60,69,60,33,35,83,65,79,76,20,14,7,4,0.5,0.7
2023-03-26T20:00:00,1790A,125.129,46.533,大庆市,龙凤区,,45,45,50,31,24,91,50,85,78,29,22,5,4,0.8,0.7
2023-03-26T20:00:00,1791A,124.902,46.408,大庆市,红岗区,,38,38,38,26,22,94,70,91,87,19,15,5,7,0.2,0.3
2023-03-26T20:00:00,1792A,125.153,46.586,大庆市,萨尔图区,,36,36,54,22,30,94,66,86,82,23,20,5,6,0.5,0.5
2023-03-26T20:00:00,1793A,124.9042,46.6215,大庆市,让胡路区,,38,28,45,26,21,86,67,80,76,18,15,5,4,0.4,0.3
2023-03-26T20:00:00,1794A,118.3606,31.3519,芜湖市,监测站,颗粒物(PM10),92,133,88,40,33,115,74,102,100,47,49,7,8,0.7,0.8
2023-03-26T20:00:00,1795A,118.3714,31.4134,芜湖市,科创中心,颗粒物(PM10),96,142,87,40,34,112,74,100,95,42,48,7,7,0.6,0.6
2023-03-26T20:00:00,1796A,118.3673,31.3131,芜湖市,四水厂,颗粒物(PM10),97,143,97,40,32,118,86,108,106,39,45,9,9,0.5,0.6
2023-03-26T20:00:00,1798A,118.5092,31.6837,马鞍山市,湖东路四小,颗粒物(PM10),110,169,93,46,36,118,89,108,107,30,40,15,9,0.6,0.7
2023-03-26T20:00:00,1799A,118.5024,31.6449,马鞍山市,开发区,颗粒物(PM10),128,206,125,47,40,118,97,110,110,27,43,6,6,0.5,0.6
2023-03-26T20:00:00,1800A,118.5228,31.7231,马鞍山市,慈湖,颗粒物(PM10),105,160,113,42,39,117,105,109,109,22,47,6,8,0.5,0.7
2023-03-26T20:00:00,1802A,118.6245,31.7241,马鞍山市,濮塘,,,,,53,33,117,93,107,107,20,28,5,6,1.0,1.1
2023-03-26T20:00:00,1803A,115.9872,29.6815,九江市,十里,颗粒物(PM10),106,162,80,40,24,140,77,125,122,48,29,10,10,0.7,0.6
2023-03-26T20:00:00,1804A,115.9584,29.7046,九江市,茅山头,,,148,78,36,23,135,,127,127,55,26,9,12,0.6,0.6
2023-03-26T20:00:00,1805A,115.9877,29.7295,九江市,西园,颗粒物(PM10),83,115,62,46,26,131,83,118,117,46,32,10,11,0.8,0.7
2023-03-26T20:00:00,1806A,116.0172,29.6547,九江市,五七二七厂,颗粒物(PM10),93,136,67,27,22,132,89,118,117,18,15,9,10,0.4,0.4
2023-03-26T20:00:00,1808A,115.9114,29.6038,九江市,综合工业园,颗粒物(PM10),92,134,68,38,29,137,111,125,125,19,36,13,13,0.6,0.5
2023-03-26T20:00:00,1809A,116.0721,29.7535,九江市,石化总厂,颗粒物(PM10),101,152,73,45,20,133,53,113,107,69,28,8,10,0.8,0.6
2023-03-26T20:00:00,1810A,115.9773,29.5698,九江市,庐山气象台,颗粒物(PM10),85,119,57,37,26,122,110,110,110,12,10,16,9,1.4,0.7
2023-03-26T20:00:00,1812A,112.3931,34.6516,洛阳市,市委党校,颗粒物(PM10),108,165,168,46,50,86,60,76,76,33,34,11,11,0.6,0.6
2023-03-26T20:00:00,1814A,112.4657,34.6871,洛阳市,豫西宾馆,颗粒物(PM10),106,162,184,56,59,88,64,79,79,28,31,12,11,0.8,0.7
2023-03-26T20:00:00,1815A,112.494,34.6886,洛阳市,河南林校,颗粒物(PM10),105,160,167,50,58,88,60,76,76,32,34,11,9,0.7,0.7
2023-03-26T20:00:00,1816A,112.3844,34.623,洛阳市,开发区管委会,颗粒物(PM10),97,144,153,54,57,90,61,79,79,33,30,8,10,0.5,0.5
2023-03-26T20:00:00,1817A,112.4267,34.6258,洛阳市,市委新办公区,颗粒物(PM10),99,148,158,58,69,88,61,76,76,35,36,11,10,0.6,0.6
2023-03-26T20:00:00,1818A,114.4839,36.0621,安阳市,棉研所,,,,,,,,,,,,,,,,
2023-03-26T20:00:00,1819A,114.3551,36.1017,安阳市,红庙街,颗粒物(PM10),96,142,143,60,61,127,103,115,115,27,36,9,12,0.9,1
2023-03-26T20:00:00,1820A,114.361,36.0681,安阳市,银杏小区,,,124,130,61,60,114,94,104,104,,30,9,12,0.6,0.7
2023-03-26T20:00:00,1824A,114.3389,34.7781,开封市,肿瘤医院,颗粒物(PM10),82,113,145,49,57,115,65,97,95,25,31,8,9,0.4,0.5
2023-03-26T20:00:00,1826A,114.2885,34.7965,开封市,世纪星幼儿园,,,111,143,60,63,112,70,96,94,,30,7,7,,0.8
2023-03-26T20:00:00,1828A,113.227,35.2125,焦作市,市环保局,颗粒物(PM10),107,163,168,58,62,108,62,93,92,42,36,8,12,0.6,0.8
2023-03-26T20:00:00,1830A,113.1992,35.2590,焦作市,影视城,,,,,,,,,,,,,,,,
2023-03-26T20:00:00,1832A,113.3257,33.742,平顶山市,新华旅馆,颗粒物(PM10),83,115,133,51,46,83,43,66,66,45,55,6,9,0.8,0.6
2023-03-26T20:00:00,1833A,113.2919,33.737,平顶山市,规划设计院,颗粒物(PM10),93,135,132,55,50,82,49,64,64,32,35,6,8,0.7,0.5
2023-03-26T20:00:00,1834A,113.182,33.774,平顶山市,平顶山工学院,颗粒物(PM10),100,150,134,48,42,86,70,73,73,28,40,5,6,0.5,0.4
2023-03-26T20:00:00,1835A,111.1922,34.7752,三门峡市,市政府,颗粒物(PM10),97,143,146,65,61,98,58,89,85,38,33,8,10,0.8,0.7
2023-03-26T20:00:00,1836A,111.1587,34.7942,三门峡市,开发区,颗粒物(PM10),111,171,170,61,62,97,63,84,84,38,28,6,8,0.5,0.4
2023-03-26T20:00:00,1838A,111.143,34.7955,三门峡市,风景区,,,,,,,,,,,,,,,,
2023-03-26T20:00:00,1840A,111.2992,30.6981,宜昌市,白龙岗,颗粒物(PM10),68,85,103,24,29,92,76,87,87,28,29,11,7,0.6,0.6
2023-03-26T20:00:00,1841A,111.3549,30.6465,宜昌市,伍家岗,颗粒物(PM10),73,96,111,24,32,108,82,101,98,30,34,12,9,0.5,0.5
2023-03-26T20:00:00,1842A,111.2628,30.6961,宜昌市,点军区,颗粒物(PM10),78,105,103,22,27,104,97,94,94,19,21,10,7,0.6,0.6
2023-03-26T20:00:00,1843A,111.3275,30.7819,宜昌市,夷陵区,颗粒物(PM10),66,81,90,27,29,96,57,91,87,53,29,12,7,0.7,0.5
2023-03-26T20:00:00,1844A,112.2494,30.3197,荆州市,市图书馆,细颗粒物(PM2.5),59,48,87,42,35,119,93,113,112,24,29,6,8,0.5,0.5
2023-03-26T20:00:00,1845A,112.2008,30.3544,荆州市,市委党校,细颗粒物(PM2.5),54,55,86,38,35,120,85,112,110,28,29,9,9,0.6,0.6
2023-03-26T20:00:00,1847A,113.1094,29.3578,岳阳市,南湖风景区,颗粒物(PM10),54,57,59,32,24,123,97,111,111,24,23,8,8,0.7,0.7
2023-03-26T20:00:00,1848A,113.1493,29.4251,岳阳市,城陵矶,,49,49,65,23,23,113,96,105,105,33,35,8,7,0.7,0.7
2023-03-26T20:00:00,1849A,113.1497,29.3575,岳阳市,开发区,,50,50,59,31,31,119,104,110,110,27,33,8,10,0.8,0.8
2023-03-26T20:00:00,1850A,113.2621,29.4758,岳阳市,云溪区,,48,48,55,20,24,125,112,114,114,18,20,7,7,0.5,0.5
2023-03-26T20:00:00,1851A,112.9943,29.4402,岳阳市,君山区,,47,47,48,28,24,125,107,116,116,16,21,8,8,0.6,0.6
2023-03-26T20:00:00,1852A,113.2117,29.355,岳阳市,金凤水库,,38,38,55,20,20,117,97,108,108,23,18,3,4,0.3,0.4
2023-03-26T20:00:00,1854A,111.6975,28.9703,常德市,市二中,颗粒物(PM10),61,72,88,34,32,114,100,109,109,14,18,8,8,0.6,0.4
2023-03-26T20:00:00,1857A,111.7158,29.1456,常德市,白鹤山,颗粒物(PM10),58,65,84,27,32,119,94,110,110,7,5,6,6,0.3,0.3
2023-03-26T20:00:00,1858A,110.5319,29.1217,张家界市,永定新区,颗粒物(PM10),75,99,85,37,30,103,74,94,92,29,14,6,4,0.3,0.2
2023-03-26T20:00:00,1859A,110.4697,29.1242,张家界市,电业局,颗粒物(PM10),69,88,79,36,31,98,91,92,92,18,14,8,7,0.4,0.3
2023-03-26T20:00:00,1860A,110.5594,29.3547,张家界市,未央路,颗粒物(PM10),64,77,68,34,24,90,67,87,85,12,6,6,6,0.4,0.3
2023-03-26T20:00:00,1861A,110.4417,29.315,张家界市,袁家界,颗粒物(PM10),59,67,62,26,21,105,105,95,95,10,9,6,6,0.5,0.6
2023-03-26T20:00:00,1862A,110.4144,25.3167,桂林市,电子科大尧山校区,,50,50,54,27,19,81,80,80,78,13,13,3,3,0.5,0.5
2023-03-26T20:00:00,1863A,110.2819,25.2697,桂林市,监测站,细颗粒物(PM2.5),64,58,59,46,36,71,58,69,63,16,11,11,6,0.6,0.5
2023-03-26T20:00:00,1864A,110.3089,25.2708,桂林市,龙隐路小学,细颗粒物(PM2.5),58,53,55,41,29,71,63,70,68,10,8,15,8,0.6,0.5
2023-03-26T20:00:00,1865A,110.2869,25.2178,桂林市,八中,"颗粒物(PM10),细颗粒物(PM2.5)",54,58,55,38,33,69,57,68,62,16,12,7,5,0.3,0.3
2023-03-26T20:00:00,1866A,109.2262,21.588,北海市,牛尾岭水库,,19,19,14,13,10,23,15,22,19,11,10,5,6,0.7,0.7
2023-03-26T20:00:00,1867A,109.1436,21.4086,北海市,海滩公园,,28,28,20,17,11,25,14,24,21,16,12,2,2,0.6,0.6
2023-03-26T20:00:00,1868A,109.0981,21.4661,北海市,新市环保局,,35,30,20,24,14,31,19,30,28,15,11,3,3,0.7,0.7
2023-03-26T20:00:00,1869A,109.1778,21.5233,北海市,北海工业园,,32,32,20,22,15,25,14,24,21,17,13,5,6,0.7,0.7
2023-03-26T20:00:00,1870A,109.4856,24.3895,柳州市,柳东小学,细颗粒物(PM2.5),63,73,31,45,23,65,60,60,60,9,5,9,8,0.5,0.4
2023-03-26T20:00:00,1871A,109.4157,24.3277,柳州市,环保监测站,颗粒物(PM10),58,65,31,30,18,58,57,55,55,12,10,6,6,0.6,0.5
2023-03-26T20:00:00,1872A,109.389,24.341,柳州市,河西水厂,颗粒物(PM10),55,60,33,33,19,55,55,50,50,12,22,7,12,0.9,1.4
2023-03-26T20:00:00,1873A,109.4311,24.2921,柳州市,市四中,颗粒物(PM10),54,57,27,24,12,59,58,57,57,14,10,8,8,0.8,0.8
2023-03-26T20:00:00,1874A,109.4006,24.3631,柳州市,市九中,颗粒物(PM10),58,65,34,38,20,57,57,54,54,12,11,8,10,0.8,0.8
2023-03-26T20:00:00,1875A,109.4958,24.3134,柳州市,古亭山,,49,49,27,25,15,70,63,66,66,10,6,3,4,0.4,0.4
2023-03-26T20:00:00,1876A,109.5078,18.2489,三亚市,河东子站,,22,8,17,15,13,50,42,47,46,6,6,1,1,0.4,0.4
2023-03-26T20:00:00,1877A,109.4964,18.2681,三亚市,河西子站,,18,18,17,10,10,49,42,47,46,5,4,2,2,0.3,0.3
2023-03-26T20:00:00,1878A,104.7778,31.4741,绵阳市,富乐山,,20,14,22,10,13,83,61,76,76,4,8,3,4,0.4,0.4
2023-03-26T20:00:00,1879A,104.7563,31.4535,绵阳市,市人大,,28,18,26,19,15,74,44,64,63,28,23,7,8,0.7,0.7
2023-03-26T20:00:00,1880A,104.6697,31.4668,绵阳市,高新区自来水公司,,19,18,29,2,17,77,60,69,69,13,17,4,5,0.7,0.7
2023-03-26T20:00:00,1881A,104.7287,31.5075,绵阳市,三水厂,,23,23,30,11,16,79,61,71,71,19,22,3,4,0.6,0.5
2023-03-26T20:00:00,1882A,104.563,28.793,宜宾市,石马中学,,41,41,49,28,31,35,30,27,27,27,36,5,8,0.7,0.7
2023-03-26T20:00:00,1883A,104.6201,28.7728,宜宾市,市委,细颗粒物(PM2.5),62,54,58,44,40,38,23,22,22,33,33,8,12,0.7,0.7
2023-03-26T20:00:00,1884A,104.6055,28.793,宜宾市,宜宾四中,细颗粒物(PM2.5),60,52,61,43,41,34,30,24,24,33,38,5,11,0.8,0.8
2023-03-26T20:00:00,1885A,104.639,28.7562,宜宾市,市政府,细颗粒物(PM2.5),60,53,60,43,45,56,25,18,18,38,39,8,18,0.7,0.7
2023-03-26T20:00:00,1886A,104.5742,28.7199,宜宾市,黄金嘴,细颗粒物(PM2.5),54,48,53,38,38,37,34,21,21,32,39,10,10,0.6,0.6
2023-03-26T20:00:00,1888A,101.6891,26.571,攀枝花市,弄弄坪,颗粒物(PM10),52,53,35,26,19,116,70,105,100,44,19,50,19,4.9,1.2
2023-03-26T20:00:00,1889A,101.5769,26.5928,攀枝花市,河门口,,37,27,40,15,20,119,117,116,116,9,25,8,17,0.4,0.7
2023-03-26T20:00:00,1890A,101.7169,26.585,攀枝花市,炳草岗,,28,25,38,16,18,118,89,111,108,29,39,21,12,1.5,1
2023-03-26T20:00:00,1891A,101.7369,26.5008,攀枝花市,仁和,,35,35,29,18,17,120,86,115,111,20,13,9,9,0.7,0.6
2023-03-26T20:00:00,1893A,105.4324,28.9634,泸州市,九狮山,,42,36,39,29,23,40,12,29,28,31,26,8,10,0.5,0.5
2023-03-26T20:00:00,1894A,105.4427,28.9063,泸州市,小市上码头,,,48,51,30,30,36,19,26,24,36,26,8,9,,0.9
2023-03-26T20:00:00,1895A,105.4241,28.8573,泸州市,兰田宪桥,细颗粒物(PM2.5),57,61,52,40,33,29,7,22,21,37,25,5,8,0.9,0.8
2023-03-26T20:00:00,1896A,105.4379,28.8833,泸州市,市环监站,,47,47,45,31,26,34,6,18,17,52,29,5,7,1.0,0.7
2023-03-26T20:00:00,1901A,104.4239,31.1208,德阳市,东山公园,,42,41,40,29,21,97,30,60,45,39,23,4,2,0.6,0.5
2023-03-26T20:00:00,1902A,104.3826,31.1317,德阳市,西小区,,43,40,44,30,24,74,29,57,50,38,25,2,2,0.6,0.5
2023-03-26T20:00:00,1904A,104.3553,31.1091,德阳市,耐火材料厂,,35,35,41,23,24,65,34,54,52,27,23,1,2,0.6,0.6
2023-03-26T20:00:00,1905A,106.056,30.8064,南充市,西山风景区,,12,12,15,6,12,47,23,36,27,15,10,3,4,0.8,0.7
2023-03-26T20:00:00,1906A,106.0789,30.8023,南充市,南充市委,,23,14,25,16,13,44,24,32,24,24,19,8,9,0.6,0.6
2023-03-26T20:00:00,1907A,106.1031,30.8217,南充市,南充炼油厂,,19,19,27,3,11,43,25,29,27,20,16,7,10,0.5,0.5
2023-03-26T20:00:00,1908A,106.1064,30.7856,南充市,高坪区监测站,,11,10,22,3,15,38,25,28,28,21,18,7,9,0.7,0.6
2023-03-26T20:00:00,1909A,106.0642,30.7636,南充市,嘉陵区环保局,,12,9,22,5,12,39,24,22,22,24,24,7,10,0.7,0.7
2023-03-26T20:00:00,1910A,106.1087,30.8388,南充市,市环境监测站,,26,5,27,18,19,42,23,29,26,20,18,7,9,0.5,0.5
2023-03-26T20:00:00,1911A,106.9222,27.6869,遵义市,丁字口,,26,25,22,18,15,72,64,66,66,17,20,10,10,0.6,0.7
2023-03-26T20:00:00,1912A,106.9242,27.7019,遵义市,凤凰山,,34,34,28,15,14,65,59,58,58,11,13,5,4,0.5,0.6
2023-03-26T20:00:00,1913A,106.8906,27.6486,遵义市,忠庄,,38,38,37,18,18,68,63,63,63,12,16,3,3,0.4,0.5
2023-03-26T20:00:00,1914A,106.9231,27.6506,遵义市,舟水桥,,25,25,24,15,19,73,64,67,67,14,12,2,3,0.5,0.5
2023-03-26T20:00:00,1915A,106.9178,27.72,遵义市,干田坝,,25,25,22,16,16,72,65,66,66,12,16,7,8,0.4,0.4
2023-03-26T20:00:00,1916A,103.7897,25.5035,曲靖市,环境监测站,颗粒物(PM10),72,93,58,30,30,145,87,131,126,16,13,8,10,1.0,1
2023-03-26T20:00:00,1917A,103.8,25.5364,曲靖市,烟厂办公区,颗粒物(PM10),66,81,51,35,30,157,101,144,139,14,12,4,8,0.9,0.9
2023-03-26T20:00:00,1918A,108.7197,34.3956,咸阳市,气象站,细颗粒物(PM2.5),109,124,109,82,59,87,50,75,74,51,42,4,5,1.0,1
2023-03-26T20:00:00,1919A,108.673,34.3155,咸阳市,实验中学,颗粒物(PM10),81,112,118,55,54,97,68,82,82,37,33,5,8,1.0,0.9
2023-03-26T20:00:00,1920A,108.7233,34.3617,咸阳市,师范学院,细颗粒物(PM2.5),89,121,118,66,54,81,69,73,73,35,36,6,9,0.7,0.6
2023-03-26T20:00:00,1922A,109.0656,35.0994,铜川市,党校,颗粒物(PM10),96,142,108,52,35,95,54,86,79,52,31,9,8,1.1,0.9
2023-03-26T20:00:00,1923A,109.0697,35.0697,铜川市,王益区政府,颗粒物(PM10),94,137,100,65,50,95,49,87,83,44,29,10,10,0.9,0.6
2023-03-26T20:00:00,1924A,108.9344,34.9058,铜川市,新区管委会,颗粒物(PM10),86,121,108,53,50,116,78,103,102,35,23,9,9,0.6,0.6
2023-03-26T20:00:00,1926A,109.4131,36.6275,延安市,枣园,颗粒物(PM10),64,78,86,16,27,104,65,91,91,40,36,6,6,0.6,0.6
2023-03-26T20:00:00,1927A,109.4761,36.6028,延安市,延大医附院,,,67,83,39,35,118,,112,112,,40,,5,,0.7
2023-03-26T20:00:00,1929A,109.5056,36.6106,延安市,百米大道,颗粒物(PM10),67,84,98,31,37,117,57,104,102,52,44,10,9,0.7,0.7
2023-03-26T20:00:00,1930A,107.185,34.3063,宝鸡市,庙沟村,颗粒物(PM10),52,53,79,30,40,93,68,77,77,21,23,6,6,0.3,0.4
2023-03-26T20:00:00,1931A,107.0708,34.3017,宝鸡市,竹园沟,颗粒物(PM10),57,64,76,32,42,104,90,91,91,9,20,5,5,0.4,0.5
2023-03-26T20:00:00,1932A,107.1906,34.3672,宝鸡市,三陆医院,颗粒物(PM10),66,82,104,37,52,111,55,91,90,38,35,6,7,0.6,0.7
2023-03-26T20:00:00,1933A,107.1431,34.3547,宝鸡市,监测站,颗粒物(PM10),63,76,89,35,44,103,61,83,83,33,29,5,6,0.6,0.6
2023-03-26T20:00:00,1934A,107.1186,34.3739,宝鸡市,技工学校,颗粒物(PM10),60,70,93,32,43,104,67,88,88,29,26,5,8,0.5,0.5
2023-03-26T20:00:00,1935A,107.3906,34.3528,宝鸡市,陈仓区环保局家属楼,颗粒物(PM10),53,56,96,32,44,107,77,91,91,26,38,9,6,0.6,0.7
2023-03-26T20:00:00,1936A,107.2058,34.3497,宝鸡市,文理学院,颗粒物(PM10),60,70,97,33,44,107,73,88,88,28,32,8,9,0.5,0.6
2023-03-26T20:00:00,1937A,107.2386,34.3622,宝鸡市,三迪小学,颗粒物(PM10),56,61,102,31,48,101,62,87,86,36,38,9,10,0.6,0.6
2023-03-26T20:00:00,1938A,109.5293,34.5101,渭南市,农科所,颗粒物(PM10),85,119,121,44,46,84,34,68,67,34,22,9,10,0.9,0.8
2023-03-26T20:00:00,1939A,109.4974,34.4877,渭南市,日报社,颗粒物(PM10),92,134,114,46,51,82,21,66,62,75,41,13,11,0.8,0.6
2023-03-26T20:00:00,1940A,109.4636,34.493,渭南市,体育馆,颗粒物(PM10),86,122,120,49,51,82,47,68,68,50,37,11,10,0.7,0.7
2023-03-26T20:00:00,1941A,109.4259,34.5023,渭南市,高新一小,颗粒物(PM10),86,122,125,45,52,86,40,71,70,54,34,13,10,0.5,0.5
2023-03-26T20:00:00,1943A,102.1725,38.5339,金昌市,新川苑,颗粒物(PM10),66,82,120,13,23,120,99,114,114,21,17,8,11,0.4,0.4
2023-03-26T20:00:00,1944A,102.1692,38.5167,金昌市,天庆家园,颗粒物(PM10),56,62,97,25,26,115,104,111,111,14,13,10,8,0.5,0.5
2023-03-26T20:00:00,1945A,98.2908,39.7711,嘉峪关市,气象局,颗粒物(PM10),56,61,89,22,28,119,107,115,115,10,25,3,10,0.1,0.3
2023-03-26T20:00:00,1947A,106.3394,38.817,石嘴山市,沙湖旅游区,颗粒物(PM10),66,82,104,20,30,115,91,105,105,14,31,17,39,0.5,1
2023-03-26T20:00:00,1948A,106.3668,39.0145,石嘴山市,大武口朝阳西街,颗粒物(PM10),51,52,66,12,20,104,93,99,99,5,20,5,25,0.2,0.4
2023-03-26T20:00:00,1949A,106.7704,39.2282,石嘴山市,惠农南大街,颗粒物(PM10),64,78,85,20,25,99,75,97,94,28,34,9,27,0.7,0.8
2023-03-26T20:00:00,1950A,106.7099,39.1325,石嘴山市,红果子镇惠新街,颗粒物(PM10),59,68,62,19,18,98,89,95,95,13,25,7,15,0.4,0.4
2023-03-26T20:00:00,1951A,84.895,45.6094,克拉玛依市,长征新村,细颗粒物(PM2.5),60,25,19,43,7,111,105,102,102,13,16,8,6,0.2,0.2
2023-03-26T20:00:00,1952A,84.8988,45.5893,克拉玛依市,南林小区,,32,28,22,12,11,108,102,100,100,12,20,4,3,0.3,0.4
2023-03-26T20:00:00,1954A,84.905,44.3396,克拉玛依市,独山子区,,38,38,41,16,15,112,109,103,103,10,17,10,9,0.4,0.4
2023-03-26T20:00:00,1955A,85.6979,46.098,克拉玛依市,乌尔禾区商贸楼,,35,29,22,5,8,117,109,108,108,11,17,8,7,0.3,0.3
2023-03-26T20:00:00,1956A,86.1472,41.7538,巴音郭楞州,孔雀公园,颗粒物(PM10),210,357,278,83,65,98,88,93,93,9,40,3,5,0.3,0.5
2023-03-26T20:00:00,1957A,86.1972,41.7166,巴音郭楞州,棉纺厂,颗粒物(PM10),276,403,329,86,73,96,86,91,91,12,33,4,4,0.3,0.4
2023-03-26T20:00:00,1958A,86.2357,41.7173,巴音郭楞州,经济开发区,颗粒物(PM10),233,373,283,56,57,104,94,98,98,14,20,5,5,0.3,0.3
2023-03-26T20:00:00,1961A,117.532,36.6868,济南市,东山小学,颗粒物(PM10),74,98,130,37,34,122,53,113,107,59,44,6,9,0.5,0.5
2023-03-26T20:00:00,1966A,120.0405,35.8735,青岛市,黄岛区4号,颗粒物(PM10),53,56,91,17,35,106,97,92,92,24,45,7,9,0.5,0.7
2023-03-26T20:00:00,1982A,122.0693,37.2174,威海市,文登开发区,颗粒物(PM10),53,56,60,27,28,107,84,98,97,24,29,4,5,0.5,0.5
2023-03-26T20:00:00,2031A,113.1817,27.9958,株洲市,云田中学,颗粒物(PM10),60,70,63,40,29,103,87,92,92,26,23,6,7,0.5,0.4
2023-03-26T20:00:00,2054A,114.1099,32.1059,信阳市,平桥分局,颗粒物(PM10),104,158,104,59,40,98,82,92,92,28,26,12,11,0.6,0.6
2023-03-26T20:00:00,2064A,113.9956,32.1271,信阳市,南湾水厂,颗粒物(PM10),94,138,104,51,37,98,89,94,94,22,21,10,9,0.5,0.5
2023-03-26T20:00:00,2065A,114.0775,32.1195,信阳市,市酿酒公司,颗粒物(PM10),84,117,90,56,41,99,75,92,90,40,42,11,10,0.5,0.5
2023-03-26T20:00:00,2066A,114.0609,32.1399,信阳市,审计局,颗粒物(PM10),97,144,106,65,46,102,47,97,91,55,39,9,9,0.6,0.5
2023-03-26T20:00:00,2067A,114.6613,33.6128,周口市,市环境监测站,颗粒物(PM10),117,184,137,66,55,114,68,100,98,47,44,25,18,0.7,0.7
2023-03-26T20:00:00,2068A,114.6758,33.6347,周口市,周口师范,颗粒物(PM10),103,155,138,73,58,108,78,99,99,39,49,22,18,0.8,0.7
2023-03-26T20:00:00,2069A,114.6546,33.5979,周口市,市运管处,颗粒物(PM10),102,154,131,69,55,113,77,102,102,36,32,22,16,0.6,0.6
2023-03-26T20:00:00,2070A,114.6369,33.6406,周口市,川汇区环保局,颗粒物(PM10),113,176,144,73,62,103,73,93,92,38,49,20,20,0.9,1
2023-03-26T20:00:00,2075A,117.6336,24.4674,漳州市,九湖,,,,,,,,,,,,,,,,
2023-03-26T20:00:00,2160A,112.85,35.5051,晋城市,自来水公司,颗粒物(PM10),91,131,165,44,51,111,94,104,104,29,32,11,9,0.4,0.5
2023-03-26T20:00:00,2161A,112.8318,35.4936,晋城市,白云商贸,颗粒物(PM10),102,153,185,44,47,111,94,105,105,29,29,8,7,0.7,0.8
2023-03-26T20:00:00,2162A,112.8508,35.4887,晋城市,市环保局,颗粒物(PM10),95,140,180,56,55,109,93,102,102,26,31,12,10,0.7,0.8
2023-03-26T20:00:00,2163A,112.8676,35.4897,晋城市,技术学院,颗粒物(PM10),101,152,176,58,55,108,91,101,101,28,32,11,8,0.6,0.7
2023-03-26T20:00:00,2165A,112.8453,35.546,晋城市,白马寺,,,,,,,,,,,,,,,,
2023-03-26T20:00:00,2166A,112.4397,39.3522,朔州市,平朔,颗粒物(PM10),53,56,73,22,33,88,60,82,80,24,32,4,14,0.5,0.6
2023-03-26T20:00:00,2167A,112.4575,39.3617,朔州市,朔唯,颗粒物(PM10),67,83,99,25,42,94,52,88,84,37,42,4,19,0.4,0.6
2023-03-26T20:00:00,2168A,112.4258,39.3197,朔州市,区政府,颗粒物(PM10),51,52,71,14,26,89,58,82,80,24,26,3,10,0.5,0.6
2023-03-26T20:00:00,2169A,112.4072,39.3278,朔州市,市环保局,颗粒物(PM10),59,67,72,21,33,92,62,83,81,28,28,3,9,0.5,0.6
2023-03-26T20:00:00,2170A,112.4272,39.3681,朔州市,市二中,颗粒物(PM10),62,73,88,40,44,91,43,86,80,31,27,6,11,0.4,0.5
2023-03-26T20:00:00,2171A,112.7532,37.6945,晋中市,锦纶小区,颗粒物(PM10),100,149,131,56,60,129,82,113,113,43,35,11,8,0.7,0.5
2023-03-26T20:00:00,2173A,112.7249,37.7067,晋中市,南都小区,颗粒物(PM10),89,128,136,62,52,135,83,119,119,44,39,13,11,0.6,0.4
2023-03-26T20:00:00,2174A,112.6991,37.6982,晋中市,榆次区政府,颗粒物(PM10),86,121,140,45,48,123,80,109,109,39,41,10,9,0.6,0.5
2023-03-26T20:00:00,2175A,110.9956,35.0147,运城市,运城中学,颗粒物(PM10),92,134,124,52,42,88,75,83,83,25,17,17,8,1.1,0.8
2023-03-26T20:00:00,2178A,110.9686,35.0303,运城市,地区技校,颗粒物(PM10),88,125,131,40,34,109,89,101,101,19,23,10,6,0.9,0.7
2023-03-26T20:00:00,2179A,111.0414,35.1147,运城市,空港新区,颗粒物(PM10),92,133,156,46,53,102,81,98,96,22,25,12,19,0.7,0.7
2023-03-26T20:00:00,2181A,112.7383,38.4519,忻州市,开发区,,46,46,55,24,24,99,64,90,88,32,26,5,9,0.4,0.4
2023-03-26T20:00:00,2182A,112.7003,38.4928,忻州市,会展中心,颗粒物(PM10),64,78,54,34,23,90,23,83,77,62,27,6,7,0.8,0.6
2023-03-26T20:00:00,2183A,111.1406,37.5211,吕梁市,环保局,颗粒物(PM10),76,102,98,21,24,116,35,104,98,69,46,13,13,0.6,0.5
2023-03-26T20:00:00,2185A,111.1297,37.5136,吕梁市,自来水公司,颗粒物(PM10),73,95,107,22,24,115,72,103,103,35,41,10,15,0.6,0.5
2023-03-26T20:00:00,2187A,106.8174,39.6973,乌海市,市林业局,颗粒物(PM10),61,72,71,20,22,106,83,102,100,17,21,9,19,0.5,0.7
2023-03-26T20:00:00,2188A,106.7907,39.6667,乌海市,中海勃湾学校,颗粒物(PM10),57,63,70,22,23,104,97,103,102,8,27,8,20,0.3,0.6
2023-03-26T20:00:00,2191A,122.2532,43.6801,通辽市,艺术职业学校,颗粒物(PM10),62,74,42,25,16,105,68,97,94,38,19,14,8,0.7,0.6
2023-03-26T20:00:00,2192A,119.7594,49.2261,呼伦贝尔市,区环保局,,38,38,25,17,15,87,67,83,80,12,8,5,5,0.4,0.3
2023-03-26T20:00:00,2195A,107.4212,40.761,巴彦淖尔市,附二中,,46,46,81,10,23,95,65,90,87,24,24,3,9,0.5,0.6
2023-03-26T20:00:00,2196A,107.37,40.7372,巴彦淖尔市,市环保大楼,,49,49,64,13,22,100,65,95,92,24,19,3,3,0.5,0.4
2023-03-26T20:00:00,2197A,113.1306,40.9923,乌兰察布市,集宁新区,颗粒物(PM10),58,66,52,19,15,96,75,92,89,12,19,9,11,0.5,0.5
2023-03-26T20:00:00,2200A,122.0392,46.0656,兴安盟,胜华新制药厂,颗粒物(PM10),51,52,35,17,18,90,56,88,82,30,16,18,4,0.4,0.3
2023-03-26T20:00:00,2201A,121.9504,46.0741,兴安盟,科右前旗环保局,颗粒物(PM10),63,76,28,29,20,90,46,88,80,36,13,5,3,1.0,0.6
2023-03-26T20:00:00,2202A,116.1042,43.9317,锡林郭勒盟,市环保监测站,,27,27,23,3,4,88,77,84,82,5,9,6,6,0.3,0.3
2023-03-26T20:00:00,2203A,116.0781,43.9311,锡林郭勒盟,市政府,,36,36,22,2,5,89,77,85,84,10,11,8,7,0.2,0.2
2023-03-26T20:00:00,2204A,105.6467,38.8363,阿拉善盟,西城区西花园,颗粒物(PM10),51,52,66,17,20,110,93,109,106,17,12,9,10,0.6,0.6
2023-03-26T20:00:00,2205A,105.6985,38.8411,阿拉善盟,蒙二幼,,37,37,64,25,28,107,96,106,104,14,9,6,7,0.3,0.3
2023-03-26T20:00:00,2206A,105.724,38.8516,阿拉善盟,环保局新楼,,39,39,55,15,27,109,97,105,103,8,5,5,8,0.5,0.5
2023-03-26T20:00:00,2207A,121.6094,41.998,阜新市,工业园区,颗粒物(PM10),85,120,66,40,26,106,93,102,101,21,20,8,6,0.9,0.6
2023-03-26T20:00:00,2208A,121.6697,42.0279,阜新市,长青街,颗粒物(PM10),72,93,48,49,20,103,93,99,99,25,22,21,10,0.8,0.6
2023-03-26T20:00:00,2209A,121.6673,42.0705,阜新市,农业园区,细颗粒物(PM2.5),84,65,33,62,18,91,89,88,88,21,10,13,9,0.9,0.7
2023-03-26T20:00:00,2210A,121.6717,42.0224,阜新市,东苑,细颗粒物(PM2.5),87,89,59,64,27,100,87,96,95,29,30,23,13,0.8,0.7
2023-03-26T20:00:00,2211A,121.6506,42.0498,阜新市,玉龙新城,颗粒物(PM10),69,87,48,40,21,97,91,94,90,15,22,9,6,0.6,0.5
2023-03-26T20:00:00,2212A,123.2,41.1953,辽阳市,宏伟区,,32,24,44,22,27,106,83,97,96,23,26,18,17,0.6,0.7
2023-03-26T20:00:00,2213A,123.1683,41.2495,辽阳市,新华园,细颗粒物(PM2.5),65,41,55,47,35,109,69,97,95,37,33,17,33,0.9,0.9
2023-03-26T20:00:00,2214A,123.2354,41.2639,辽阳市,滨河路,,47,47,58,32,38,97,66,88,86,31,34,9,9,0.3,0.5
2023-03-26T20:00:00,2215A,123.149,41.2991,辽阳市,铁西工业园,细颗粒物(PM2.5),87,99,64,64,50,104,49,91,86,48,36,19,13,0.9,0.8
2023-03-26T20:00:00,2216A,123.8139,42.3022,铁岭市,汇工街西,颗粒物(PM10),54,58,66,37,50,104,78,100,98,28,32,9,12,0.7,0.7
2023-03-26T20:00:00,2217A,123.8649,42.2923,铁岭市,水上乐园,细颗粒物(PM2.5),55,50,59,39,30,100,47,97,91,48,27,9,5,0.8,0.6
2023-03-26T20:00:00,2218A,123.8486,42.2867,铁岭市,银州路东段,颗粒物(PM10),58,66,64,31,41,93,31,90,83,63,35,10,8,0.5,0.5
2023-03-26T20:00:00,2219A,123.7153,42.2217,铁岭市,金沙江路北,,42,42,44,21,25,94,27,90,80,71,35,14,11,0.4,0.4
2023-03-26T20:00:00,2220A,120.4318,41.5881,朝阳市,西梁,细颗粒物(PM2.5),73,47,57,53,24,101,84,92,91,19,25,27,15,1.1,1
2023-03-26T20:00:00,2221A,120.4521,41.5646,朝阳市,河畔小区,细颗粒物(PM2.5),65,68,49,47,18,104,97,98,98,15,20,26,10,0.9,0.7
2023-03-26T20:00:00,2222A,120.4176,41.5648,朝阳市,八里堡,细颗粒物(PM2.5),82,90,57,60,22,104,85,97,96,18,27,26,12,0.9,0.7
2023-03-26T20:00:00,2223A,120.3806,41.5969,朝阳市,农业园区,细颗粒物(PM2.5),79,88,53,58,18,104,65,95,90,39,26,22,10,0.9,0.6
2023-03-26T20:00:00,2225A,124.4002,43.1713,四平市,一商场,细颗粒物(PM2.5),68,76,60,49,37,100,58,96,89,46,25,14,8,0.5,0.3
2023-03-26T20:00:00,2226A,124.388,43.193,四平市,境园,颗粒物(PM10),56,62,65,32,35,102,65,99,93,28,21,8,7,0.4,0.8
2023-03-26T20:00:00,2227A,125.1358,42.8845,辽源市,环保局,,36,28,37,25,26,108,75,96,95,18,19,10,11,0.6,0.6
2023-03-26T20:00:00,2229A,125.9358,41.7173,通化市,光明,,34,34,36,6,16,90,52,87,82,35,20,10,15,0.4,0.4
2023-03-26T20:00:00,2230A,125.9446,41.7325,通化市,铁路,,47,47,40,12,18,91,55,87,82,32,21,22,12,0.5,0.3
2023-03-26T20:00:00,2231A,126.4219,41.9171,白山市,喜丰,颗粒物(PM10),60,70,63,19,23,90,62,84,82,39,28,13,16,0.9,0.8
2023-03-26T20:00:00,2232A,126.4077,41.9419,白山市,环保局,颗粒物(PM10),67,84,74,25,28,93,58,87,83,31,18,13,13,0.7,0.6
2023-03-26T20:00:00,2233A,124.8006,45.1214,松原市,江南,细颗粒物(PM2.5),58,60,66,41,44,82,38,76,70,34,23,10,8,0.5,0.5
2023-03-26T20:00:00,2234A,124.7965,45.1722,松原市,江北,,26,26,79,17,67,92,66,88,85,16,26,1,4,0.5,0.6
2023-03-26T20:00:00,2235A,122.7911,45.6077,白城市,洮北区环保局,颗粒物(PM10),53,56,51,11,29,101,85,96,94,9,13,4,6,0.3,0.3
2023-03-26T20:00:00,2236A,122.8738,45.5725,白城市,市环保局,,48,48,59,16,19,96,64,92,88,28,31,5,7,0.5,0.5
2023-03-26T20:00:00,2237A,129.47,42.8883,延边朝鲜族自治州,妇幼医院,,46,46,38,30,16,99,54,96,87,38,15,15,9,0.7,0.6
2023-03-26T20:00:00,2238A,129.5055,42.9108,延边朝鲜族自治州,延边医院,,48,48,40,24,16,96,88,92,90,18,18,9,11,0.5,0.5
2023-03-26T20:00:00,2239A,129.3964,42.8881,延边朝鲜族自治州,朝阳川镇医院,,45,45,36,30,14,97,66,96,86,13,9,8,8,0.5,0.4
2023-03-26T20:00:00,2240A,130.9762,45.3001,鸡西市,环保局,颗粒物(PM10),54,58,69,25,35,92,60,86,80,32,28,7,5,0.4,0.5
2023-03-26T20:00:00,2243A,130.9429,45.3039,鸡西市,第一中学,颗粒物(PM10),58,66,66,27,33,96,60,90,79,23,19,8,6,0.3,0.3
2023-03-26T20:00:00,2244A,130.2537,47.3416,鹤岗市,哈啤分公司,颗粒物(PM10),53,55,38,30,26,88,63,85,81,20,10,11,10,0.6,0.3
2023-03-26T20:00:00,2245A,130.2684,47.3086,鹤岗市,斯达机电,颗粒物(PM10),64,77,45,32,26,126,126,91,91,14,9,9,8,0.3,0.3
2023-03-26T20:00:00,2246A,130.3114,47.3388,鹤岗市,东山纸板厂,颗粒物(PM10),66,82,73,34,34,88,61,84,80,25,23,12,10,0.9,0.4
2023-03-26T20:00:00,2247A,130.1097,47.3382,鹤岗市,五号水库,,45,45,33,27,24,98,56,94,90,16,8,8,8,0.4,0.4
2023-03-26T20:00:00,2248A,131.1511,46.6937,双鸭山市,双合村,颗粒物(PM10),51,52,69,28,43,90,88,89,89,6,11,11,12,0.4,0.5
2023-03-26T20:00:00,2249A,131.1652,46.6191,双鸭山市,南小市,细颗粒物(PM2.5),52,51,75,36,52,93,84,91,90,9,10,4,8,0.5,0.5
2023-03-26T20:00:00,2250A,131.1524,46.6554,双鸭山市,环保局,细颗粒物(PM2.5),59,51,64,42,50,96,82,95,91,9,8,6,6,0.2,0.4
2023-03-26T20:00:00,2251A,131.12,46.5656,双鸭山市,苗圃,细颗粒物(PM2.5),68,60,62,49,50,131,125,123,123,8,9,4,4,0.2,0.2
2023-03-26T20:00:00,2252A,128.5159,47.4311,伊春市,环保局,细颗粒物(PM2.5),54,45,48,38,45,92,69,87,85,21,13,5,5,0.7,0.6
2023-03-26T20:00:00,2253A,128.9102,47.7412,伊春市,电力嘉园,细颗粒物(PM2.5),58,64,53,41,34,94,63,89,85,19,12,6,7,0.7,0.5
2023-03-26T20:00:00,2254A,129.5029,48.471,伊春市,汤旺河国家公园,细颗粒物(PM2.5),54,49,28,38,20,95,76,92,89,4,3,5,5,0,0.2
2023-03-26T20:00:00,2255A,130.2751,46.8028,佳木斯市,佳纺,颗粒物(PM10),54,58,63,34,37,86,66,85,81,20,14,6,2,0.7,0.6
2023-03-26T20:00:00,2256A,130.3995,46.8307,佳木斯市,发电厂,,38,38,47,23,32,88,76,86,85,19,15,5,4,0.5,0.5
2023-03-26T20:00:00,2257A,130.3258,46.7975,佳木斯市,环保局,,43,43,48,28,33,86,59,84,79,25,15,5,3,0.5,0.4
2023-03-26T20:00:00,2258A,130.3648,46.8032,佳木斯市,十一中,,50,46,52,35,35,85,71,82,77,27,19,5,4,0.6,0.5
2023-03-26T20:00:00,2259A,130.3794,46.7588,佳木斯市,四丰,,45,38,40,31,32,125,125,120,119,5,6,1,4,0.3,0.3
2023-03-26T20:00:00,2262A,131.0518,45.8751,七台河市,新一中,,45,45,78,27,47,101,96,97,97,8,13,7,7,0.7,0.8
2023-03-26T20:00:00,2263A,127.4833,50.2524,黑河市,交通局,,22,19,18,9,12,83,68,80,78,8,12,7,9,0.4,0.4
2023-03-26T20:00:00,2264A,127.5144,50.2341,黑河市,环保局,,30,30,19,19,13,87,78,81,80,14,15,4,8,0.4,0.4
2023-03-26T20:00:00,2265A,127.5291,50.2472,黑河市,大黑河岛,,28,13,11,8,7,96,88,89,89,2,3,3,4,0.3,0.3
2023-03-26T20:00:00,2266A,126.9785,46.6365,绥化市,人和东街,细颗粒物(PM2.5),69,73,77,50,51,111,67,104,96,27,16,5,4,0.7,0.6
2023-03-26T20:00:00,2267A,126.964,46.6528,绥化市,党政办公中心,细颗粒物(PM2.5),64,68,70,46,52,107,73,101,96,21,12,4,4,0.6,0.6
2023-03-26T20:00:00,2269A,124.1069,50.4097,大兴安岭地区,科技局,,28,17,11,14,10,99,88,97,95,6,5,11,8,0.2,0.2
2023-03-26T20:00:00,2270A,117.396,32.939,蚌埠市,工人疗养院,颗粒物(PM10),115,180,157,59,52,123,84,115,112,42,32,12,13,0.6,0.5
2023-03-26T20:00:00,2271A,117.3605,32.9427,蚌埠市,百货大楼,颗粒物(PM10),119,187,166,56,46,124,92,117,115,32,30,6,7,0.6,0.6
2023-03-26T20:00:00,2273A,117.4185,32.8911,蚌埠市,蚌埠学院,颗粒物(PM10),117,183,156,51,40,114,90,107,107,30,34,9,9,0.4,0.3
2023-03-26T20:00:00,2274A,117.3533,32.9673,蚌埠市,淮上区政府,颗粒物(PM10),115,180,162,58,43,116,84,112,100,25,30,65,12,0.6,0.5
2023-03-26T20:00:00,2275A,117.3145,32.8977,蚌埠市,高新区,颗粒物(PM10),112,173,157,61,47,121,74,110,108,48,43,9,12,0.6,0.6
2023-03-26T20:00:00,2277A,116.8305,32.7727,淮南市,潘集区政府,颗粒物(PM10),120,189,173,76,64,120,77,110,107,33,26,7,11,0.4,0.4
2023-03-26T20:00:00,2278A,117.0067,32.6524,淮南市,师范学院,颗粒物(PM10),125,200,193,64,64,104,69,92,90,45,37,14,16,0.5,0.5
2023-03-26T20:00:00,2279A,116.8569,32.5951,淮南市,谢家集区政府,颗粒物(PM10),107,163,167,59,57,105,87,98,96,28,29,14,14,0.4,0.4
2023-03-26T20:00:00,2280A,116.8281,32.633,淮南市,八公山区政府,颗粒物(PM10),107,163,162,71,50,108,73,99,96,33,28,5,9,0.5,0.4
2023-03-26T20:00:00,2281A,116.6325,32.6201,淮南市,焦岗湖风景区管理处,细颗粒物(PM2.5),110,148,155,83,74,95,19,88,81,46,30,6,6,0.5,0.3
2023-03-26T20:00:00,2282A,116.8004,33.975,淮北市,监测站,颗粒物(PM10),112,173,149,64,55,121,84,113,111,34,27,9,9,0.8,0.8
2023-03-26T20:00:00,2283A,116.8091,33.9007,淮北市,烈山区政府,颗粒物(PM10),128,205,184,64,64,126,81,109,109,34,44,8,10,0.6,0.6
2023-03-26T20:00:00,2284A,116.7856,33.9477,淮北市,职业技术学院,颗粒物(PM10),109,167,163,69,71,117,82,110,109,35,39,10,9,0.9,1
2023-03-26T20:00:00,2285A,117.8177,30.9412,铜陵市,市第四中学,颗粒物(PM10),106,162,97,38,30,104,88,94,94,27,36,4,7,0.3,0.5
2023-03-26T20:00:00,2286A,117.8059,30.9273,铜陵市,市公路局,颗粒物(PM10),89,128,93,43,31,103,88,95,95,27,34,7,10,0.5,0.7
2023-03-26T20:00:00,2287A,117.7807,30.9413,铜陵市,市新民污水厂,颗粒物(PM10),96,142,80,36,30,110,91,100,100,33,38,8,9,0.5,0.6
2023-03-26T20:00:00,2288A,117.7439,30.8792,铜陵市,市第九中学,颗粒物(PM10),97,144,106,40,33,104,104,88,88,18,44,10,13,0.3,0.6
2023-03-26T20:00:00,2289A,117.846,30.9413,铜陵市,车站新区,颗粒物(PM10),82,114,68,38,28,106,86,97,97,29,37,9,10,0.3,0.6
2023-03-26T20:00:00,2290A,117.8483,30.97,铜陵市,市职教基地,颗粒物(PM10),87,124,76,30,22,101,92,92,92,23,37,4,6,0.3,0.5
2023-03-26T20:00:00,2291A,117.0809,30.5177,安庆市,环科院,颗粒物(PM10),100,150,93,46,34,130,86,118,116,33,24,10,11,0.7,0.6
2023-03-26T20:00:00,2292A,117.0331,30.5119,安庆市,马山宾馆,颗粒物(PM10),104,157,96,52,33,129,91,117,116,29,23,10,10,0.7,0.6
2023-03-26T20:00:00,2294A,116.9896,30.6145,安庆市,安庆大学,颗粒物(PM10),104,157,90,45,29,131,104,120,120,22,25,12,11,0.8,0.7
2023-03-26T20:00:00,2295A,118.2903,29.6963,黄山市,延安路89号,细颗粒物(PM2.5),59,54,39,42,25,119,95,106,106,14,10,7,6,0.3,0.4
2023-03-26T20:00:00,2296A,118.327,29.7178,黄山市,黄山东路89号,颗粒物(PM10),52,54,36,21,21,119,87,101,101,18,12,6,5,0.5,0.5
2023-03-26T20:00:00,2297A,118.1371,30.2756,黄山市,黄山区政府5号楼,颗粒物(PM10),91,131,72,43,29,128,84,118,117,18,14,7,7,0.4,0.4
2023-03-26T20:00:00,2298A,118.3093,32.3153,滁州市,老年大学,颗粒物(PM10),109,168,112,52,42,128,76,119,114,53,32,11,10,0.6,0.5
2023-03-26T20:00:00,2299A,118.3244,32.2786,滁州市,人大宾馆,颗粒物(PM10),119,187,120,63,45,124,59,114,109,64,35,8,8,0.5,0.5
2023-03-26T20:00:00,2301A,115.8277,32.8929,阜阳市,市监测站,颗粒物(PM10),110,169,138,81,60,124,72,106,102,48,43,9,8,0.5,0.5
2023-03-26T20:00:00,2303A,115.8554,32.8605,阜阳市,开发区,颗粒物(PM10),130,209,174,65,53,127,72,114,111,45,40,10,9,0.6,0.5
2023-03-26T20:00:00,2307A,116.5079,31.737,六安市,监测大楼,颗粒物(PM10),100,149,105,63,41,110,85,100,99,30,30,11,7,0.5,0.5
2023-03-26T20:00:00,2308A,116.4738,31.7643,六安市,皖西学院,颗粒物(PM10),106,161,113,55,40,116,90,109,108,30,28,10,7,0.5,0.4
2023-03-26T20:00:00,2309A,116.4996,31.7905,六安市,朝阳厂,颗粒物(PM10),93,135,92,65,41,115,93,108,106,31,28,8,7,0.5,0.4
2023-03-26T20:00:00,2310A,116.5567,31.7886,六安市,开发区,颗粒物(PM10),113,176,129,54,43,110,73,101,98,26,33,9,9,0.5,0.4
2023-03-26T20:00:00,2311A,115.8072,33.8399,亳州市,污水处理厂,颗粒物(PM10),111,171,146,49,52,114,65,104,99,41,30,10,12,0.4,0.4
2023-03-26T20:00:00,2312A,115.7789,33.8518,亳州市,三国揽胜宫,颗粒物(PM10),103,156,147,43,47,117,79,108,106,31,29,6,7,0.5,0.4
2023-03-26T20:00:00,2314A,117.47,30.6618,池州市,池州学院,颗粒物(PM10),106,161,88,54,38,110,72,98,97,48,34,30,11,0.7,0.6
2023-03-26T20:00:00,2316A,118.7581,30.9454,宣城市,鳌峰子站,颗粒物(PM10),103,155,81,44,30,107,96,101,101,17,22,5,7,0.5,0.5
2023-03-26T20:00:00,2317A,118.7385,30.9743,宣城市,敬亭山子站,颗粒物(PM10),104,158,86,43,29,123,82,103,103,36,26,9,10,0.4,0.5
2023-03-26T20:00:00,2318A,118.7173,30.9427,宣城市,开发区子站,颗粒物(PM10),102,154,82,46,32,114,105,108,108,21,30,7,6,0.5,0.6
2023-03-26T20:00:00,2319A,119.0141,25.4325,莆田市,荔城区仓后路,,30,30,19,15,16,63,50,47,47,21,19,8,8,0.6,0.5
2023-03-26T20:00:00,2320A,119.0015,25.4553,莆田市,莆田市监测站,,23,14,16,16,19,51,49,42,42,10,20,6,6,0.6,0.7
2023-03-26T20:00:00,2321A,119.1119,25.4561,莆田市,涵江区六中,,32,25,19,22,21,78,78,60,60,13,21,7,7,0.5,0.6
2023-03-26T20:00:00,2322A,119.1013,25.3215,莆田市,秀屿区政府,,35,31,17,24,19,71,67,60,60,18,16,6,6,0.4,0.5
2023-03-26T20:00:00,2323A,118.981,25.4792,莆田市,东圳水库,,,,,,,,,,,,,,,,
2023-03-26T20:00:00,2324A,117.6211,26.2625,三明市,三钢,,16,9,11,11,12,41,37,35,34,14,12,6,7,0.6,0.6
2023-03-26T20:00:00,2325A,117.635,26.2714,三明市,三明二中,,14,2,12,8,9,46,42,37,37,15,16,3,4,0.4,0.4
2023-03-26T20:00:00,2326A,117.6028,26.2378,三明市,三元区政府,,13,12,12,4,9,45,40,36,35,13,13,4,5,0.7,0.7
2023-03-26T20:00:00,2327A,117.7275,26.3108,三明市,洋溪,,,,,,,,,,,,,,,,
2023-03-26T20:00:00,2331A,118.0966,26.6761,南平市,茫荡山,,,,,,,,,,,,,,,,
2023-03-26T20:00:00,2332A,118.1681,26.6369,南平市,南平市监测站,,19,19,9,12,6,45,33,42,41,17,12,4,2,0.8,0.7
2023-03-26T20:00:00,2333A,118.1825,26.6489,南平市,南平铝业有限公司,,20,16,10,14,5,43,29,36,35,18,12,8,4,0.8,0.7
2023-03-26T20:00:00,2334A,118.1756,26.6272,南平市,南平七中,,16,10,9,11,7,45,38,40,40,10,11,3,7,0.7,0.8
2023-03-26T20:00:00,2335A,117.0189,25.1181,龙岩市,龙岩师专,,,,,,,,,,,,,,,,
2023-03-26T20:00:00,2336A,117.0217,25.1033,龙岩市,龙岩市监测站,,14,10,12,6,10,55,13,37,24,28,19,5,7,1.0,0.7
2023-03-26T20:00:00,2337A,117.0258,25.0661,龙岩市,闽西职业技术学院,,11,11,11,7,11,41,14,38,25,20,17,7,6,0.7,0.7
2023-03-26T20:00:00,2338A,117.0196,25.0306,龙岩市,龙岩学院,,11,11,10,7,10,56,17,40,23,15,14,8,4,0.7,0.7
2023-03-26T20:00:00,2339A,119.5001,26.6946,宁德市,金涵水库,,,,,,,,,,,,,,,,
2023-03-26T20:00:00,2341A,119.5388,26.6612,宁德市,宁德市监测站,颗粒物(PM10),61,72,26,31,29,62,53,59,32,28,22,4,3,0.6,0.5
2023-03-26T20:00:00,2342A,117.3102,29.3867,景德镇市,王港中学,,31,31,23,19,15,94,46,80,77,2,3,3,4,0.7,0.8
2023-03-26T20:00:00,2343A,117.2117,29.2933,景德镇市,老干部活动中心,颗粒物(PM10),52,54,45,24,24,91,63,84,83,31,11,31,6,0.4,0.3
2023-03-26T20:00:00,2344A,117.1894,29.2789,景德镇市,兽医站,,50,34,25,35,18,99,59,94,91,44,10,36,7,0.7,0.5
2023-03-26T20:00:00,2345A,117.1547,29.2617,景德镇市,台达陶瓷,,34,34,26,15,16,90,66,84,84,31,17,60,21,0.4,0.4
2023-03-26T20:00:00,2346A,117.2461,29.2956,景德镇市,陶研所,,38,38,34,20,13,94,43,85,81,17,7,5,4,0.5,0.4
2023-03-26T20:00:00,2347A,114.0997,27.5002,萍乡市,武功山,,,,,,,,,,,,,,,,
2023-03-26T20:00:00,2348A,113.8385,27.6434,萍乡市,中医院,,49,49,45,17,25,118,75,107,106,19,13,6,8,0.5,0.5
2023-03-26T20:00:00,2349A,113.8493,27.6253,萍乡市,市政府车库,,40,40,41,21,23,112,74,101,101,27,14,15,13,1.0,0.6
2023-03-26T20:00:00,2350A,113.8676,27.6435,萍乡市,市环保局,,34,34,40,20,25,108,81,98,98,19,13,12,13,0.5,0.6
2023-03-26T20:00:00,2351A,113.866,27.6198,萍乡市,安源区政府,颗粒物(PM10),51,51,54,21,24,110,83,100,100,18,13,17,15,0.9,0.7
2023-03-26T20:00:00,2352A,115.0861,27.9317,新余市,北岗,,23,15,30,16,17,90,70,84,83,3,8,3,14,0.4,0.5
2023-03-26T20:00:00,2353A,114.9886,27.8431,新余市,飞宇,,30,30,49,12,19,99,77,94,92,15,20,4,12,0.4,0.4
2023-03-26T20:00:00,2354A,114.9231,27.8246,新余市,第二水厂,,32,32,49,16,21,103,80,98,95,16,19,7,13,0.4,0.5
2023-03-26T20:00:00,2355A,114.9308,27.8036,新余市,市气象局,,42,42,46,20,22,86,67,78,77,16,18,8,10,0.4,0.4
2023-03-26T20:00:00,2357A,116.9822,28.1136,鹰潭市,龙虎山,,31,31,35,19,25,49,24,42,40,4,6,2,4,0.8,0.7
2023-03-26T20:00:00,2358A,117.0564,28.2642,鹰潭市,新监测站,,41,41,32,26,22,63,39,52,52,20,13,1,5,0.4,0.4
2023-03-26T20:00:00,2359A,117.0311,28.2475,鹰潭市,财苑宾馆,,49,49,35,27,20,64,29,51,49,29,14,7,8,0.5,0.4
2023-03-26T20:00:00,2360A,117.0222,28.2264,鹰潭市,体育馆,,37,37,35,22,22,57,28,49,47,29,15,2,8,0.4,0.4
2023-03-26T20:00:00,2361A,117.0017,28.2131,鹰潭市,三川水表,,32,32,37,20,30,58,33,47,46,14,17,4,6,0.5,0.5
2023-03-26T20:00:00,2362A,114.9017,25.9149,赣州市,通天岩,,,,,,,,,,,,,,,,
2023-03-26T20:00:00,2363A,114.9367,25.8664,赣州市,地委,,42,42,34,26,20,78,65,74,74,13,9,5,5,0.8,0.8
2023-03-26T20:00:00,2364A,114.9461,25.8481,赣州市,气象台,,37,37,26,20,19,64,54,62,62,24,11,9,6,0.7,0.6
2023-03-26T20:00:00,2365A,114.9322,25.8333,赣州市,市图书馆,,42,41,29,29,19,77,68,73,73,18,12,14,13,0.9,0.9
2023-03-26T20:00:00,2366A,114.8905,25.8471,赣州市,华坚鞋城,,42,42,33,21,17,75,58,70,69,19,8,7,6,0.7,0.7
2023-03-26T20:00:00,2367A,114.9754,27.0803,吉安市,红声器材厂,颗粒物(PM10),55,59,58,29,25,108,83,97,97,15,20,10,13,0.8,0.6
2023-03-26T20:00:00,2368A,114.9658,27.0999,吉安市,市森林工业局,,49,49,49,32,28,108,81,97,95,20,21,22,12,0.7,0.8
2023-03-26T20:00:00,2369A,114.99,27.1312,吉安市,市环境监测站,,49,49,49,23,25,114,82,98,98,22,22,43,15,0.8,0.8
2023-03-26T20:00:00,2370A,115.0093,27.0968,吉安市,青原区法院,颗粒物(PM10),51,52,48,30,27,110,69,95,93,30,20,15,12,0.6,0.5
2023-03-26T20:00:00,2371A,114.3408,27.8064,宜春市,槟榔水业,,35,35,40,15,22,72,55,66,66,7,7,10,6,0.6,0.7
2023-03-26T20:00:00,2373A,114.3956,27.7844,宜春市,市石油公司,,49,49,45,20,23,125,92,110,110,17,16,6,6,0.6,0.7
2023-03-26T20:00:00,2374A,114.3703,27.7914,宜春市,市气象局,颗粒物(PM10),52,54,47,28,23,131,100,118,118,25,20,7,8,0.4,0.4
2023-03-26T20:00:00,2375A,114.4013,27.8074,宜春市,市广电局,,50,50,44,21,26,137,101,122,122,24,17,11,11,1.0,1
2023-03-26T20:00:00,2376A,116.2127,28.0814,抚州市,桐源党溪,,29,25,34,20,18,71,28,65,60,5,4,1,2,0.7,0.7
2023-03-26T20:00:00,2377A,116.3544,27.9831,抚州市,市站,,45,44,48,31,24,57,26,51,47,32,18,11,13,1.1,0.9
2023-03-26T20:00:00,2378A,116.3565,27.963,抚州市,血防站,,45,45,53,24,25,60,33,54,50,27,17,8,12,0.7,0.5
2023-03-26T20:00:00,2379A,116.3564,28.0007,抚州市,采茶剧团,,37,37,46,25,24,55,33,50,48,23,15,4,6,1.0,0.8
2023-03-26T20:00:00,2380A,116.385,27.9647,抚州市,医学分院,,38,38,49,19,21,52,23,47,43,29,15,4,7,0.7,0.6
2023-03-26T20:00:00,2381A,118.005,28.4572,上饶市,百草园,,35,35,22,6,11,66,65,62,62,2,3,5,4,0.8,0.7
2023-03-26T20:00:00,2382A,117.9756,28.4436,上饶市,市监测站,,42,42,24,13,13,112,110,105,105,9,14,10,10,0.5,0.5
2023-03-26T20:00:00,2383A,117.9519,28.4628,上饶市,凤凰光学,,43,43,26,15,13,112,96,103,103,11,14,9,20,0.6,0.6
2023-03-26T20:00:00,2385A,114.17,35.9019,鹤壁市,市监测站,颗粒物(PM10),99,147,158,67,72,116,91,102,102,26,35,14,13,0.7,1.1
2023-03-26T20:00:00,2386A,114.2956,35.7511,鹤壁市,市交警支队,颗粒物(PM10),102,154,137,56,53,108,77,98,98,42,39,8,11,0.4,0.5
2023-03-26T20:00:00,2387A,114.2878,35.7306,鹤壁市,迎宾馆,颗粒物(PM10),86,121,104,60,53,118,91,107,107,32,35,10,11,0.4,0.6
2023-03-26T20:00:00,2389A,113.836,35.311,新乡市,环保西院,颗粒物(PM10),96,142,149,56,53,118,75,103,103,30,30,10,11,0.6,0.7
2023-03-26T20:00:00,2390A,113.884,35.272,新乡市,开发区,颗粒物(PM10),111,171,150,61,58,121,71,105,103,36,26,13,12,0.8,0.8
2023-03-26T20:00:00,2391A,113.883,35.303,新乡市,环保东院,颗粒物(PM10),91,132,133,57,60,120,75,104,104,38,35,13,13,1.1,1.1
2023-03-26T20:00:00,2392A,115.0312,35.7636,濮阳市,环保局,颗粒物(PM10),100,149,121,65,55,126,96,110,110,28,30,9,12,0.5,0.6
2023-03-26T20:00:00,2394A,115.0574,35.7609,濮阳市,油田运输公司,颗粒物(PM10),116,182,150,75,63,128,93,113,113,33,32,9,12,0.5,0.5
2023-03-26T20:00:00,2395A,115.0866,35.7754,濮阳市,油田物探公司,细颗粒物(PM2.5),115,152,130,87,60,121,87,106,106,36,34,14,16,0.6,0.5
2023-03-26T20:00:00,2396A,113.8276,34.0159,许昌市,监测站,颗粒物(PM10),97,144,122,56,54,99,67,90,89,32,42,8,9,0.6,0.5
2023-03-26T20:00:00,2398A,113.7906,33.9953,许昌市,开发区,颗粒物(PM10),99,148,120,60,54,86,35,80,75,47,41,5,6,0.6,0.6
2023-03-26T20:00:00,2399A,114.051,33.5699,漯河市,三五一五工厂,颗粒物(PM10),118,186,139,68,50,108,80,98,98,32,43,10,12,0.7,0.7
2023-03-26T20:00:00,2400A,114.0055,33.5698,漯河市,漯河大学,颗粒物(PM10),113,176,130,60,49,102,85,96,96,30,42,14,11,0.7,0.6
2023-03-26T20:00:00,2401A,114.0138,33.5828,漯河市,市水利局,颗粒物(PM10),118,185,135,58,49,103,88,97,97,24,41,17,10,0.5,0.5
