timepoint,stationcode,longitude,latitude,area,positionname,primarypollutant,aqi,pm10,pm10_24h,pm2_5,pm2_5_24h,o3,o3_24h,o3_8h,o3_8h_24h,no2,no2_24h,so2,so2_24h,co,co_24h
2025-11-26T1200,2566A,102.1879,31.914,阿坝藏族羌族自治州,州农科所,,,,,,,,,,,,,,,,
2025-11-26T1200,2568A,102.2502,31.8896,阿坝藏族羌族自治州,马师校,,23,,28,16,17,47,47,29,29,10,21,6,5,0.5,0.5
2025-11-26T1200,3994A,102.2165,31.9024,阿坝藏族羌族自治州,马尔康中学西区,,16,6,18,3,13,51,51,38,38,7,15,5,5,0.4,0.5
2025-11-26T1200,2695A,80.292,41.1694,阿克苏地区,电视台,颗粒物(PM10),115,179,224,50,93,42,42,32,32,37,50,10,10,1.1,1.9
2025-11-26T1200,2696A,80.2613,41.1551,阿克苏地区,艺术中心,细颗粒物(PM2.5),122,189,187,92,81,20,20,38,35,70,60,6,7,1.7,1.3
2025-11-26T1200,2204A,105.6467,38.8363,阿拉善盟,西城区西花园,,,,,,,,,,,,,,,,
2025-11-26T1200,2205A,105.6985,38.8411,阿拉善盟,蒙二幼,颗粒物(PM10),418,518,274,82,53,76,76,81,75,3,7,6,6,0.9,0.8
2025-11-26T1200,2206A,105.724,38.8516,阿拉善盟,环保局新楼,颗粒物(PM10),411,511,247,107,64,73,73,77,72,3,5,8,8,0.6,0.6
2025-11-26T1200,2708A,88.1264,47.8517,阿勒泰地区,市站,,30,30,21,21,11,31,31,60,47,56,33,4,4,0.9,0.6
2025-11-26T1200,2630A,80.1161,32.5,阿里地区,阿里监测站,,22,6,3,3,3,68,68,58,55,2,11,4,7,0.2,0.3
2025-11-26T1200,3192A,80.0903,32.5028,阿里地区,阿里藏医院,,,25,11,7,5,,,52,,3,5,9,10,0.6,0.6
2025-11-26T1200,2642A,109.0318,32.6537,安康市,香溪洞,,,,,,,,,,,,,,,,
2025-11-26T1200,2644A,109.0072,32.6975,安康市,汉滨区检察院,颗粒物(PM10),53,56,54,32,26,20,20,17,13,20,18,5,6,0.8,0.6
2025-11-26T1200,4054A,109.0325,32.6913,安康市,市邮政管理局,颗粒物(PM10),63,75,65,42,37,14,14,8,7,25,28,4,4,0.8,0.8
2025-11-26T1200,2291A,117.0809,30.5177,安庆市,环科院,颗粒物(PM10),74,97,102,36,38,63,63,20,20,15,33,5,5,0.4,0.5
2025-11-26T1200,2292A,117.0331,30.5119,安庆市,马山宾馆,颗粒物(PM10),72,93,106,25,38,64,64,27,27,21,35,6,5,0.3,0.3
2025-11-26T1200,2294A,116.9896,30.6145,安庆市,安庆大学,颗粒物(PM10),79,107,97,31,35,67,67,23,23,16,29,9,7,0.4,0.5
2025-11-26T1200,3173A,117.0598,30.5351,安庆市,市人大,颗粒物(PM10),76,101,119,27,39,71,71,31,31,15,36,8,7,0.3,0.3
2025-11-26T1200,3122A,105.9606,26.2611,安顺市,伍家关,,38,34,49,26,28,91,91,39,39,18,24,32,50,0.9,1.2
2025-11-26T1200,3123A,105.9408,26.2431,安顺市,凤凰山,,,52,57,32,38,,,10,10,30,41,31,30,0.6,0.7
2025-11-26T1200,3124A,105.9439,26.2564,安顺市,金钟山,,42,42,41,25,28,95,95,54,54,19,22,31,35,0.8,0.7
2025-11-26T1200,3125A,105.8983,26.2481,安顺市,娄家坡,,35,35,42,21,28,92,92,41,41,15,23,15,24,0.5,0.6
2025-11-26T1200,1818A,114.4839,36.0621,安阳市,棉研所,,,,,,,,,,,,,,,,
2025-11-26T1200,1819A,114.3551,36.1017,安阳市,红庙街,,,102,128,16,41,,,12,12,7,33,3,4,0.3,0.5
2025-11-26T1200,1820A,114.361,36.0681,安阳市,银杏小区,颗粒物(PM10),87,123,129,25,45,73,73,20,20,16,31,3,3,0.4,0.4
2025-11-26T1200,3141A,114.3922,36.0878,安阳市,信访局,颗粒物(PM10),81,111,129,32,39,77,77,23,23,11,32,4,4,0.4,0.3
2025-11-26T1200,3669A,114.4705,36.0637,安阳市,左辅环卫站,颗粒物(PM10),103,155,158,55,45,43,43,17,17,32,30,6,3,0.8,0.6
2025-11-26T1200,3703A,114.2917,36.0949,安阳市,安钢职工学校,颗粒物(PM10),68,86,130,21,48,72,72,23,23,10,29,6,4,0.5,0.6
2025-11-26T1200,1748A,123.044,41.1196,鞍山市,深沟寺,颗粒物(PM10),51,52,53,24,29,52,52,48,48,20,25,10,10,0.7,0.8
2025-11-26T1200,1749A,123.011,41.0931,鞍山市,太阳城,,47,47,45,26,28,50,50,48,48,19,23,14,13,0.9,0.9
2025-11-26T1200,1750A,123.0485,41.1442,鞍山市,太平,颗粒物(PM10),54,58,53,25,28,60,60,55,55,18,24,12,11,0.9,0.9
2025-11-26T1200,1751A,122.9642,41.0971,鞍山市,铁西三道街,颗粒物(PM10),57,63,55,28,30,48,48,42,42,24,34,14,19,1.0,1.4
2025-11-26T1200,1753A,123.022,41.0821,鞍山市,明达新区,,45,45,42,24,26,55,55,52,52,17,21,12,14,0.6,0.7
2025-11-26T1200,1754A,123.1289,41.0228,鞍山市,千山,,,,26,,17,,,33,,,14,,3,,0.6
2025-11-26T1200,4201A,122.9446,41.0826,鞍山市,兴盛南路290号,颗粒物(PM10),56,61,62,27,35,48,48,42,42,29,40,13,14,0.7,1.1
2025-11-26T1200,2195A,107.4212,40.761,巴彦淖尔市,附二中,颗粒物(PM10),500,1156,367,212,79,51,51,67,55,3,6,4,4,,0.4
2025-11-26T1200,2196A,107.37,40.7372,巴彦淖尔市,市环保大楼,颗粒物(PM10),500,1162,407,196,78,66,66,69,68,3,6,7,7,0.3,0.3
2025-11-26T1200,1956A,86.1472,41.7538,巴音郭楞蒙古自治州,孔雀公园,颗粒物(PM10),83,116,170,38,52,49,49,10,10,37,67,10,12,0.6,1
2025-11-26T1200,1957A,86.1972,41.7166,巴音郭楞蒙古自治州,棉纺厂,颗粒物(PM10),112,174,204,36,49,42,42,19,19,44,52,8,7,0.8,1
2025-11-26T1200,1958A,86.2357,41.7173,巴音郭楞蒙古自治州,经济开发区,颗粒物(PM10),95,140,155,40,37,24,24,31,21,55,35,7,7,0.9,0.6
2025-11-26T1200,2914A,106.7677,31.8794,巴中市,苏山坪,,,,,,,,,,,,,,,,
2025-11-26T1200,3181A,106.7768,31.8526,巴中市,市五中,颗粒物(PM10),60,69,74,32,30,24,24,11,11,25,23,10,8,0.8,0.6
2025-11-26T1200,3183A,106.7418,31.8654,巴中市,圣泉水务公司,,,59,62,28,28,29,29,27,25,,21,7,8,1.1,0.8
2025-11-26T1200,3616A,106.7616,31.8344,巴中市,市中心医院,颗粒物(PM10),54,58,68,27,35,30,30,9,9,16,24,6,5,0.7,0.7
2025-11-26T1200,2235A,122.7911,45.6077,白城市,洮北区环保局,,44,44,38,13,19,47,47,31,31,8,12,10,5,0.3,0.3
2025-11-26T1200,2236A,122.8738,45.5725,白城市,市环保局,,,39,35,17,19,,,21,19,5,12,8,5,0.3,0.2
2025-11-26T1200,2231A,126.4219,41.9171,白山市,喜丰,细颗粒物(PM2.5),189,210,315,142,246,56,56,18,18,19,37,11,9,,1.4
2025-11-26T1200,2232A,126.4077,41.9419,白山市,环保局,细颗粒物(PM2.5),226,213,293,176,282,52,52,16,16,25,27,12,10,1.0,1.5
2025-11-26T1200,2647A,104.1724,36.5446,白银市,第三小学,颗粒物(PM10),139,228,124,50,46,70,70,67,67,13,36,6,23,0.4,0.8
2025-11-26T1200,2648A,104.1465,36.5482,白银市,动力公司,颗粒物(PM10),127,204,132,57,43,70,70,64,64,11,25,4,12,0.4,0.7
2025-11-26T1200,2512A,106.6103,23.9011,百色市,市监测站,,,26,36,18,19,,,19,19,6,16,6,6,0.4,0.4
2025-11-26T1200,2513A,106.6538,23.8859,百色市,市中心血站,,43,43,53,19,28,56,56,21,21,9,31,6,7,0.5,0.5
2025-11-26T1200,3406A,106.6085,23.8798,百色市,祈福高中,,26,20,52,18,21,45,45,21,21,8,20,5,5,0.4,0.5
2025-11-26T1200,2270A,117.396,32.939,蚌埠市,工人疗养院,颗粒物(PM10),89,127,104,38,29,68,68,54,54,25,23,9,6,0.4,0.2
2025-11-26T1200,2271A,117.3605,32.9427,蚌埠市,百货大楼,颗粒物(PM10),80,110,93,34,30,64,64,56,56,26,22,8,8,0.3,0.3
2025-11-26T1200,2273A,117.4185,32.8911,蚌埠市,蚌埠学院,,,124,112,43,39,60,60,37,37,25,32,,6,0.5,0.4
2025-11-26T1200,2274A,117.3533,32.9673,蚌埠市,淮上区政府,颗粒物(PM10),84,117,102,40,33,71,71,59,59,25,26,11,11,0.3,0.3
2025-11-26T1200,2275A,117.3145,32.8977,蚌埠市,高新区,颗粒物(PM10),90,129,106,53,36,65,65,43,43,20,31,12,11,0.4,0.3
2025-11-26T1200,3715A,117.3092,32.9314,蚌埠市,蚌埠田家炳中学,颗粒物(PM10),87,123,108,44,37,69,69,44,44,24,31,8,11,0.4,0.4
2025-11-26T1200,1585A,109.8756,40.6532,包头市,市环境监测站,颗粒物(PM10),500,1001,202,180,52,58,58,30,30,12,47,8,16,1.0,1.1
2025-11-26T1200,1587A,109.9991,40.5842,包头市,包头八中,颗粒物(PM10),500,1084,203,258,63,65,65,46,46,11,42,5,9,0.6,1
2025-11-26T1200,1588A,109.8538,40.6821,包头市,青山宾馆,颗粒物(PM10),500,925,179,213,61,62,62,36,36,11,42,7,13,0.5,1
2025-11-26T1200,1589A,109.8642,40.6288,包头市,惠龙物流,颗粒物(PM10),500,918,186,173,49,65,65,48,48,14,46,9,16,1.0,1.3
2025-11-26T1200,1590A,110.0377,40.5546,包头市,东河鸿龙湾,颗粒物(PM10),500,918,184,178,48,70,70,49,49,6,50,6,11,0.6,1.1
2025-11-26T1200,3283A,109.9154,40.5685,包头市,滨河大厦,颗粒物(PM10),500,1159,183,252,50,67,67,57,57,8,38,6,11,0.4,0.7
2025-11-26T1200,3419A,109.9447,40.6261,包头市,包头市委党校,颗粒物(PM10),500,1130,188,184,47,69,69,50,50,8,42,6,14,0.6,0.9
2025-11-26T1200,3683A,109.8331,40.6576,包头市,昆区政府,颗粒物(PM10),500,851,167,201,55,60,60,31,31,,54,12,20,1.0,1.3
2025-11-26T1200,1930A,107.185,34.3063,宝鸡市,庙沟村,,,,,,,,,,,,,,,,
2025-11-26T1200,1931A,107.0708,34.3017,宝鸡市,竹园沟,颗粒物(PM10),52,54,58,16,33,71,71,35,35,6,21,6,8,0.1,0.2
2025-11-26T1200,1932A,107.1906,34.3672,宝鸡市,三陆医院,,,105,79,40,43,31,31,16,16,32,38,7,7,,0.6
2025-11-26T1200,1933A,107.1431,34.3547,宝鸡市,监测站,颗粒物(PM10),64,78,74,40,45,29,29,16,16,27,30,6,5,0.4,0.4
2025-11-26T1200,1934A,107.1186,34.3739,宝鸡市,技工学校,颗粒物(PM10),73,95,77,34,38,45,45,28,28,21,29,8,7,0.5,0.5
2025-11-26T1200,1936A,107.2058,34.3497,宝鸡市,文理学院,颗粒物(PM10),59,67,73,38,44,42,42,22,22,25,34,6,6,0.5,0.5
2025-11-26T1200,1937A,107.2386,34.3622,宝鸡市,三迪小学,,,79,79,47,45,39,39,14,14,30,48,,6,,0.6
2025-11-26T1200,4308A,107.3898,34.3601,宝鸡市,陈仓区北开路21号,颗粒物(PM10),69,87,97,30,55,40,40,32,32,28,39,7,50,0.5,0.6
2025-11-26T1200,1051A,115.493,38.8632,保定市,游泳馆,细颗粒物(PM2.5),70,68,79,51,44,24,24,10,10,42,39,9,9,0.7,0.6
2025-11-26T1200,1052A,115.5213,38.8959,保定市,华电二区,颗粒物(PM10),59,67,69,38,42,22,22,10,10,53,44,6,5,0.6,0.4
2025-11-26T1200,1053A,115.4713,38.9108,保定市,接待中心,细颗粒物(PM2.5),75,71,77,55,45,19,19,8,8,52,38,4,3,0.5,0.4
2025-11-26T1200,1054A,115.4612,38.8416,保定市,地表水厂,"颗粒物(PM10),细颗粒物(PM2.5)",67,83,87,48,43,28,28,14,14,50,45,6,6,0.3,0.4
2025-11-26T1200,3581A,115.31981,38.95208,保定市,满城区生态环境分局,颗粒物(PM10),73,95,87,39,40,29,29,12,12,47,39,5,5,0.3,0.6
2025-11-26T1200,3582A,115.47694,38.76408,保定市,清苑区第二中学,颗粒物(PM10),82,114,100,39,41,23,23,10,10,43,37,11,10,0.6,0.5
2025-11-26T1200,3583A,115.62909,39.02311,保定市,徐水物探局,颗粒物(PM10),80,109,102,56,46,21,21,10,10,42,34,10,9,0.6,0.6
2025-11-26T1200,4004A,115.4202,38.8656,保定市,双鹰农机,,,,86,,43,30,30,16,16,,42,7,7,0.6,0.4
2025-11-26T1200,4034A,115.5150,38.8590,保定市,植保所站,颗粒物(PM10),62,73,91,32,48,19,19,6,6,49,45,6,6,0.6,0.5
2025-11-26T1200,2594A,99.1678,25.1081,保山市,市环境监测站,,36,36,23,14,18,67,67,32,32,10,8,10,9,0.5,0.4
2025-11-26T1200,2595A,99.1711,25.1328,保山市,市环保局,,42,42,25,21,22,69,69,40,38,10,6,6,6,0.5,0.4
2025-11-26T1200,1866A,109.2262,21.588,北海市,牛尾岭水库,,50,50,43,29,27,84,84,54,53,7,7,5,5,0.1,0.1
2025-11-26T1200,1867A,109.1436,21.4086,北海市,海滩公园,颗粒物(PM10),57,64,56,27,26,97,97,85,79,13,12,10,8,0.4,0.4
2025-11-26T1200,1868A,109.0981,21.4661,北海市,新市环保局,颗粒物(PM10),60,69,60,34,34,102,102,83,78,12,12,7,11,0.5,0.4
2025-11-26T1200,1869A,109.1778,21.5233,北海市,北海工业园,,,74,60,29,32,99,99,77,68,12,15,9,10,,0.3
2025-11-26T1200,3400A,109.1911,21.4415,北海市,龙潭自来水厂,颗粒物(PM10),58,65,58,35,31,98,98,70,68,11,12,15,12,0.4,0.3
2025-11-26T1200,1001A,116.3621,39.8784,北京市,万寿西宫,颗粒物(PM10),63,75,61,36,30,30,30,12,12,42,47,5,3,0.7,0.6
2025-11-26T1200,1002A,116.2202,40.2915,北京市,定陵,,,,,,,,,,,,,,,,
2025-11-26T1200,1003A,116.4174,39.9289,北京市,东四,颗粒物(PM10),68,85,80,39,28,30,30,14,14,36,41,6,4,0.9,0.8
2025-11-26T1200,1004A,116.4072,39.8863,北京市,天坛,颗粒物(PM10),63,75,56,34,24,28,28,12,12,42,39,5,2,0.7,0.5
2025-11-26T1200,1005A,116.462,39.9365,北京市,农展馆,颗粒物(PM10),62,73,60,33,26,31,31,11,11,29,38,7,5,0.7,0.7
2025-11-26T1200,1006A,116.3392,39.9295,北京市,官园,颗粒物(PM10),68,85,64,42,30,28,28,11,11,40,43,7,5,0.6,0.5
2025-11-26T1200,1007A,116.2878,39.9611,北京市,海淀万柳,颗粒物(PM10),65,80,62,42,33,19,19,8,8,45,42,7,4,0.6,0.5
2025-11-26T1200,1008A,116.6636,40.135,北京市,顺义新城,颗粒物(PM10),60,70,60,23,14,35,35,12,12,19,38,6,4,0.7,0.7
2025-11-26T1200,1009A,116.6275,40.3275,北京市,怀柔镇,颗粒物(PM10),52,54,41,26,22,36,36,26,24,22,23,7,5,0.4,0.4
2025-11-26T1200,1010A,116.2296,40.217,北京市,昌平镇,颗粒物(PM10),59,67,47,35,23,20,20,15,12,42,29,8,5,0.6,0.5
2025-11-26T1200,1011A,116.3966,39.9821,北京市,奥体中心,颗粒物(PM10),61,71,52,37,24,29,29,11,11,39,46,9,6,0.6,0.6
2025-11-26T1200,3281A,115.9718,40.4529,北京市,延庆夏都,颗粒物(PM10),72,94,49,49,22,17,17,9,7,33,24,4,4,0.7,0.5
2025-11-26T1200,3418A,116.8336,40.4095,北京市,密云新城,颗粒物(PM10),51,51,46,24,20,42,42,20,20,17,26,4,2,0.5,0.5
2025-11-26T1200,3671A,116.088,39.9726,北京市,门头沟三家店,颗粒物(PM10),53,55,49,17,18,30,30,19,19,28,28,2,1,0.6,0.5
2025-11-26T1200,3672A,116.1541,39.8204,北京市,丰台云岗,颗粒物(PM10),60,70,58,32,23,30,30,14,14,35,36,5,3,0.5,0.5
2025-11-26T1200,3673A,116.6804,39.9081,北京市,通州东关,颗粒物(PM10),64,78,75,35,34,24,24,8,8,41,44,7,5,0.5,0.5
2025-11-26T1200,3674A,115.9577,39.7603,北京市,房山燕山,颗粒物(PM10),60,69,51,34,25,35,35,18,18,34,26,5,4,0.5,0.5
2025-11-26T1200,3675A,116.4672,39.7733,北京市,大兴旧宫,颗粒物(PM10),68,85,68,36,26,24,24,10,10,45,40,6,4,0.7,0.6
2025-11-26T1200,3694A,115.986,40.4563,北京市,延庆石河营,颗粒物(PM10),65,79,49,37,21,15,15,5,5,37,24,4,3,0.7,0.6
2025-11-26T1200,3695A,116.6151,40.3053,北京市,怀柔新城,颗粒物(PM10),53,55,41,31,23,34,34,27,26,21,17,6,5,0.4,0.4
2025-11-26T1200,3696A,116.2545,39.8768,北京市,丰台小屯,颗粒物(PM10),66,82,62,41,30,24,24,9,9,43,46,6,3,0.6,0.4
2025-11-26T1200,3697A,116.84,40.3844,北京市,密云镇,,50,50,47,21,21,41,41,12,12,18,34,3,2,0.4,0.5
2025-11-26T1200,4182A,116.1942,39.9158,北京市,八角北路9号,颗粒物(PM10),61,71,67,32,26,26,26,8,8,34,44,2,2,0.4,0.4
2025-11-26T1200,4194A,117.0790,40.1518,北京市,洳河巡河路,颗粒物(PM10),84,117,50,22,21,39,39,14,14,22,24,7,5,0.5,0.6
2025-11-26T1200,1761A,123.8275,41.3064,本溪市,大峪,,33,33,80,15,53,63,63,30,30,16,35,10,9,0.8,1.2
2025-11-26T1200,1762A,123.7567,41.3325,本溪市,溪湖,颗粒物(PM10),52,54,86,22,55,53,53,32,32,20,36,14,11,0.8,1.1
2025-11-26T1200,1763A,123.7169,41.3094,本溪市,彩屯,,50,50,80,30,61,45,45,24,24,26,38,17,10,2.1,1.8
2025-11-26T1200,1764A,123.7669,41.2864,本溪市,东明,颗粒物(PM10),51,51,83,18,52,58,58,44,44,15,33,10,8,0.4,1
2025-11-26T1200,1765A,123.7992,41.2664,本溪市,新立屯,,43,43,60,20,43,62,62,59,59,18,33,9,7,0.4,0.6
2025-11-26T1200,1766A,123.8142,41.3472,本溪市,威宁,颗粒物(PM10),52,53,115,17,69,58,58,27,27,11,32,11,7,0.8,1.2
2025-11-26T1200,2587A,105.2864,27.3125,毕节市,八中,细颗粒物(PM2.5),87,87,88,64,72,80,80,39,39,14,17,12,11,0.6,0.7
2025-11-26T1200,2588A,105.31,27.2944,毕节市,师专,细颗粒物(PM2.5),85,83,99,63,73,74,74,28,28,18,31,11,11,0.7,0.8
2025-11-26T1200,4263A,105.3688,27.3598,毕节市,工业大道,,,,91,71,66,81,81,32,32,,24,13,14,0.8,0.8
2025-11-26T1200,1629A,118.0018,37.3617,滨州市,第二水厂,颗粒物(PM10),85,119,84,45,39,54,54,20,20,32,50,31,17,0.5,0.6
2025-11-26T1200,1630A,117.9776,37.393,滨州市,北中新校,颗粒物(PM10),78,105,70,48,35,47,47,16,16,47,58,23,13,0.5,0.6
2025-11-26T1200,3514A,117.9378,37.3956,滨州市,中海酒店,颗粒物(PM10),81,112,71,46,36,63,63,35,35,23,33,20,18,0.7,0.8
2025-11-26T1200,3515A,117.9378,37.3553,滨州市,开发区一中,,,127,95,44,45,,,10,10,25,47,22,22,0.7,0.9
2025-11-26T1200,3516A,118.0917,37.694,滨州市,金海六路,颗粒物(PM10),94,137,72,31,28,57,57,23,23,35,44,20,23,0.6,0.6
2025-11-26T1200,4028A,117.9956,37.3753,滨州市,滨州市西街道办事处,颗粒物(PM10),81,112,84,48,43,55,55,17,17,24,43,29,15,0.6,0.7
2025-11-26T1200,2311A,115.8072,33.8399,亳州市,污水处理厂,颗粒物(PM10),83,116,101,35,34,73,73,49,49,22,25,6,14,0.3,0.5
2025-11-26T1200,2312A,115.7789,33.8518,亳州市,三国揽胜宫,颗粒物(PM10),85,119,101,43,36,72,72,48,48,19,24,2,7,0.5,0.4
2025-11-26T1200,3332A,115.7633,33.8034,亳州市,亳州学院,颗粒物(PM10),75,99,96,38,34,76,76,42,42,19,30,4,8,0.4,0.3
2025-11-26T1200,2693A,82.0485,44.8556,博尔塔拉蒙古自治州,市党校,颗粒物(PM10),63,75,48,34,18,18,18,37,31,33,19,2,3,0.5,0.3
2025-11-26T1200,2694A,82.0806,44.8969,博尔塔拉蒙古自治州,市环保局,颗粒物(PM10),62,73,67,28,22,31,31,33,33,17,24,7,7,0.6,0.7
2025-11-26T1200,1071A,116.8842,38.2991,沧州市,沧县城建局,颗粒物(PM10),90,129,71,56,36,38,38,17,17,30,40,10,12,0.5,0.5
2025-11-26T1200,1072A,116.8584,38.3254,沧州市,电视转播站,细颗粒物(PM2.5),94,118,68,70,36,36,36,19,19,32,41,8,10,0.6,0.6
2025-11-26T1200,1073A,116.8709,38.3228,沧州市,市环保局,颗粒物(PM10),94,137,74,60,41,40,40,20,20,24,31,6,7,0.4,0.3
2025-11-26T1200,3324A,116.8136,38.3004,沧州市,河北水利电力学院,颗粒物(PM10),103,156,78,53,30,37,37,16,16,24,35,9,10,0.4,0.3
2025-11-26T1200,2622A,97.1806,31.1273,昌都市,昌都监测站,,20,16,36,3,22,62,62,45,45,6,23,4,6,0.5,0.9
2025-11-26T1200,3719A,97.1714,31.1406,昌都市,昌都会议中心,,22,10,21,3,11,70,70,57,56,1,6,4,3,0.2,0.4
2025-11-26T1200,2690A,88.1236,43.8886,昌吉回族自治州,天山天池,,,,,,,,,,,,,,,,
2025-11-26T1200,2692A,87.2717,44.0297,昌吉回族自治州,新区政务中心,细颗粒物(PM2.5),55,48,36,39,28,13,13,6,4,34,54,4,4,1.1,1.1
2025-11-26T1200,3613A,87.3095,44.0142,昌吉回族自治州,亚心广场,细颗粒物(PM2.5),52,51,43,36,29,23,23,15,15,31,53,7,8,0.7,0.8
2025-11-26T1200,1120A,125.2863,43.9027,长春市,客车厂,细颗粒物(PM2.5),90,109,162,67,180,56,56,49,49,24,41,11,11,0.8,1
2025-11-26T1200,1121A,125.2841,43.8463,长春市,邮电学院,颗粒物(PM10),74,98,183,53,172,58,58,46,46,24,43,16,13,0.7,0.9
2025-11-26T1200,1122A,125.3716,43.8772,长春市,劳动公园,细颗粒物(PM2.5),119,150,170,90,156,63,63,48,48,24,42,13,12,0.8,0.9
2025-11-26T1200,1123A,125.3297,43.8805,长春市,园林处,颗粒物(PM10),87,124,160,58,167,48,48,38,37,20,37,11,9,0.8,1
2025-11-26T1200,1124A,125.4605,43.79,长春市,净月潭,细颗粒物(PM2.5),102,102,160,76,144,67,67,52,52,16,24,8,7,0.7,0.7
2025-11-26T1200,1125A,125.7194,43.515,长春市,甩湾子,细颗粒物(PM2.5),132,130,195,100,215,70,70,51,51,19,23,9,6,0.4,0.7
2025-11-26T1200,1126A,125.3863,43.8447,长春市,经开区环卫处,细颗粒物(PM2.5),129,142,168,98,154,53,53,36,36,24,48,10,9,0.8,0.9
2025-11-26T1200,1127A,125.245,43.7783,长春市,高新区管委会,颗粒物(PM10),71,92,215,49,219,51,51,43,43,17,44,10,8,0.6,1.1
2025-11-26T1200,1128A,125.1761,43.8325,长春市,岱山公园,颗粒物(PM10),60,69,188,42,179,49,49,31,31,22,49,10,10,0.7,1
2025-11-26T1200,4281A,125.3346,43.9164,长春市,北亚泰大街1068号,细颗粒物(PM2.5),95,127,167,71,179,45,45,31,31,29,47,11,11,0.8,1.2
2025-11-26T1200,1335A,113.0833,28.2325,长沙市,经开区环保局,,,93,90,30,32,,,25,25,26,27,6,6,0.5,0.4
2025-11-26T1200,1336A,112.8872,28.2189,长沙市,高开区环保局,颗粒物(PM10),71,91,96,38,42,46,46,16,16,26,39,7,6,0.6,0.7
2025-11-26T1200,1337A,113.0792,28.2053,长沙市,马坡岭,颗粒物(PM10),74,98,97,33,33,63,63,20,20,25,35,7,5,0.6,0.6
2025-11-26T1200,1338A,112.9394,28.19,长沙市,湖南师范大学,颗粒物(PM10),82,113,88,36,29,51,51,19,19,33,31,6,5,0.7,0.6
2025-11-26T1200,1339A,113.0178,28.1322,长沙市,雨花区环保局,颗粒物(PM10),75,100,100,21,38,63,63,21,21,21,35,9,8,0.2,0.4
2025-11-26T1200,1340A,112.9792,28.2597,长沙市,伍家岭,颗粒物(PM10),70,90,101,25,28,57,57,20,20,32,31,6,5,0.4,0.4
2025-11-26T1200,1341A,113.0014,28.1944,长沙市,火车新站,颗粒物(PM10),77,104,101,36,34,60,60,27,27,34,39,6,6,0.5,0.4
2025-11-26T1200,1342A,112.9844,28.1178,长沙市,天心区环保局,,,95,95,29,30,75,75,34,34,18,35,,7,0.3,0.3
2025-11-26T1200,1343A,112.8908,28.1308,长沙市,湖南中医药大学,颗粒物(PM10),76,101,91,32,31,70,70,21,21,15,35,8,6,0.4,0.6
2025-11-26T1200,1344A,112.9581,28.3611,长沙市,沙坪,,,,,,,,,,,,,,,,
2025-11-26T1200,1727A,113.1147,36.1547,长治市,清华站,颗粒物(PM10),67,83,64,24,22,71,71,22,22,18,28,13,13,0.5,0.5
2025-11-26T1200,1730A,113.0886,36.2125,长治市,审计局,颗粒物(PM10),60,69,65,29,27,62,62,22,22,22,31,12,11,0.6,0.6
2025-11-26T1200,1731A,113.0844,36.1856,长治市,长治八中,颗粒物(PM10),67,84,77,47,31,63,63,23,20,17,23,13,12,0.6,0.6
2025-11-26T1200,2845A,113.1569,36.1911,长治市,德盛苑,颗粒物(PM10),58,65,52,29,21,68,68,63,57,25,19,12,11,0.6,0.4
2025-11-26T1200,3568A,113.06,36.0464,长治市,向阳小学,颗粒物(PM10),70,89,85,28,30,76,76,57,57,17,28,14,19,0.6,0.7
2025-11-26T1200,3569A,112.8792,36.3144,长治市,屯留一中,颗粒物(PM10),60,69,84,26,35,71,71,33,33,13,34,10,18,0.3,0.7
2025-11-26T1200,4189A,113.1131,36.19948,长治市,英华南巷50号,颗粒物(PM10),61,71,67,29,28,67,67,29,29,19,24,10,9,0.7,0.6
2025-11-26T1200,4190A,113.2367,36.3344,长治市,学府街1号,颗粒物(PM10),65,80,82,40,30,58,58,26,26,26,35,13,11,1.0,1.3
2025-11-26T1200,1854A,111.6975,28.9703,常德市,市二中,颗粒物(PM10),54,58,72,20,30,53,53,22,22,15,18,6,6,0.4,0.3
2025-11-26T1200,1857A,111.7158,29.1456,常德市,白鹤山,,,,,,,,,,,,,,,,
2025-11-26T1200,3138A,111.7153,29.0289,常德市,武陵区永安,颗粒物(PM10),57,63,82,30,31,67,67,28,28,8,16,8,9,0.4,0.3
2025-11-26T1200,3139A,111.6892,28.9881,常德市,鼎城区玉霞,颗粒物(PM10),55,60,69,31,31,57,57,18,18,9,21,7,7,0.6,0.6
2025-11-26T1200,3140A,111.6625,29.0531,常德市,武陵区长庚,,,63,79,27,32,63,63,25,25,,17,,5,0.3,0.2
2025-11-26T1200,1196A,119.9633,31.762,常州市,市监测站,颗粒物(PM10),70,90,72,35,27,68,68,21,21,31,48,5,3,0.5,0.7
2025-11-26T1200,1200A,119.9468,31.7069,常州市,武进监测站,颗粒物(PM10),68,86,70,38,29,71,71,25,25,26,48,16,6,0.5,0.6
2025-11-26T1200,1201A,119.9255,31.9087,常州市,安家,颗粒物(PM10),66,81,77,34,28,60,60,18,18,32,50,12,10,0.7,0.6
2025-11-26T1200,3002A,119.9805,31.8174,常州市,行政中心,颗粒物(PM10),79,108,77,37,27,58,58,20,20,37,49,9,8,0.7,0.6
2025-11-26T1200,3003A,120.0522,31.7748,常州市,经开区,颗粒物(PM10),75,99,91,32,28,65,65,20,20,28,49,12,11,1.1,0.7
2025-11-26T1200,3010A,119.9025,31.7964,常州市,钟楼,颗粒物(PM10),72,93,81,37,26,67,67,25,25,27,44,17,10,0.5,0.7
2025-11-26T1200,3429A,119.8598,31.7066,常州市,武进经发区,颗粒物(PM10),84,117,88,45,33,66,66,24,24,31,52,13,12,0.5,0.5
2025-11-26T1200,3430A,119.5826,31.7245,常州市,金坛城区,颗粒物(PM10),83,115,103,45,40,66,66,24,24,24,39,11,9,0.6,0.7
2025-11-26T1200,2220A,120.4318,41.5881,朝阳市,西梁,颗粒物(PM10),59,67,38,33,20,51,51,40,40,19,21,9,8,0.6,0.6
2025-11-26T1200,2221A,120.4521,41.5646,朝阳市,河畔小区,颗粒物(PM10),56,62,32,27,16,50,50,41,41,22,17,11,9,0.7,0.5
2025-11-26T1200,2222A,120.4176,41.5648,朝阳市,八里堡,颗粒物(PM10),54,57,38,21,22,46,46,36,36,27,27,9,10,0.4,0.4
2025-11-26T1200,2223A,120.3806,41.5969,朝阳市,农业园区,颗粒物(PM10),52,53,33,26,22,55,55,44,44,17,23,9,9,0.6,0.6
2025-11-26T1200,1705A,116.6367,23.6719,潮州市,西园路,,,,,,,,,,,,,,,,
2025-11-26T1200,3026A,116.6183,23.6608,潮州市,市政府,,,59,52,21,19,86,86,66,66,,9,6,6,0.4,0.4
2025-11-26T1200,4036A,116.6461,23.6761,潮州市,金山,颗粒物(PM10),58,66,42,22,22,95,95,64,64,7,11,4,3,0.4,0.4
2025-11-26T1200,2472A,113.0073,25.9061,郴州市,马头岭,,,,,,,,,,,,,,,,
2025-11-26T1200,2473A,113.0116,25.8226,郴州市,市职中,颗粒物(PM10),56,62,51,28,26,82,82,23,23,9,23,18,6,0.4,0.4
2025-11-26T1200,2475A,113.0383,25.8071,郴州市,市审计局,颗粒物(PM10),59,68,52,29,25,78,78,21,21,12,25,22,7,0.5,0.4
2025-11-26T1200,2476A,113.0348,25.7759,郴州市,市环保局,颗粒物(PM10),62,73,66,28,29,75,75,22,22,11,31,18,6,0.5,0.4
2025-11-26T1200,4252A,113.0138,25.8011,郴州市,好美居路49号,颗粒物(PM10),64,78,47,33,27,85,85,28,28,11,27,23,8,0.3,0.3
2025-11-26T1200,1431A,103.9728,30.7236,成都市,金泉两河,颗粒物(PM10),96,141,113,71,81,9,9,5,3,55,49,4,3,0.8,0.7
2025-11-26T1200,1432A,104.176,30.6872,成都市,十里店,细颗粒物(PM2.5),120,134,121,91,81,6,6,6,6,68,55,5,7,1.0,0.9
2025-11-26T1200,1433A,104.079,30.5706,成都市,三瓦窑,颗粒物(PM10),78,106,102,41,62,52,52,12,12,39,56,4,4,0.6,0.7
2025-11-26T1200,1434A,104.1114,30.63,成都市,沙河铺,细颗粒物(PM2.5),104,114,104,78,80,22,22,5,5,68,59,1,2,0.8,0.9
2025-11-26T1200,1437A,104.0786,30.6531,成都市,君平街,细颗粒物(PM2.5),110,130,107,83,82,19,19,8,8,62,54,5,4,0.9,0.9
2025-11-26T1200,1438A,103.613,31.0283,成都市,灵岩寺,,,,,,,,,,,,,,,,
2025-11-26T1200,2880A,104.0239,30.65639,成都市,大石西路,细颗粒物(PM2.5),83,99,86,61,70,14,14,5,5,62,51,4,3,0.8,0.8
2025-11-26T1200,3136A,104.2725,30.5589,成都市,龙泉驿区区政府,颗粒物(PM10),71,92,75,41,45,37,37,49,35,40,22,7,6,0.6,0.5
2025-11-26T1200,3357A,104.0106,30.6931,成都市,金博路,细颗粒物(PM2.5),99,112,111,74,73,6,6,2,2,69,59,5,5,1.0,0.9
2025-11-26T1200,3359A,104.0578,30.5225,成都市,华阳,,,100,85,46,58,,,8,8,58,54,5,5,0.8,0.8
2025-11-26T1200,3488A,104.3880,30.7467,成都市,青石路225号,细颗粒物(PM2.5),80,97,85,59,54,18,18,21,12,46,34,5,4,0.8,0.6
2025-11-26T1200,3489A,104.0789,30.4072,成都市,科学城,细颗粒物(PM2.5),79,89,81,58,59,17,17,6,6,61,33,6,10,0.7,0.6
2025-11-26T1200,4011A,103.8506,30.6947,成都市,光华大道三段,细颗粒物(PM2.5),122,135,118,92,85,10,10,12,8,56,47,3,3,0.8,0.8
2025-11-26T1200,4224A,104.2433,30.5353,成都市,鲸龙路1057号,颗粒物(PM10),66,82,80,47,56,41,41,18,18,42,36,7,6,0.8,0.7
2025-11-26T1200,1062A,117.9531,40.9081,承德市,铁路,,34,34,47,3,20,32,32,11,11,20,26,4,5,0.4,0.7
2025-11-26T1200,1063A,117.9392,40.9763,承德市,中国银行,,41,41,43,12,18,34,34,11,11,16,28,4,3,0.4,0.6
2025-11-26T1200,1064A,117.9503,40.928,承德市,开发区,颗粒物(PM10),52,53,47,20,23,34,34,13,13,20,29,6,6,0.4,0.5
2025-11-26T1200,1066A,117.9268,41.0026,承德市,离宫,,,,,,,,,,,,,,,,
2025-11-26T1200,4274A,117.7994,40.9605,承德市,滨河大街98号,,40,40,40,10,16,34,34,12,12,20,26,10,7,0.7,0.6
2025-11-26T1200,2314A,117.47,30.6618,池州市,池州学院,颗粒物(PM10),71,91,119,27,39,64,64,28,28,20,31,6,7,0.6,0.9
2025-11-26T1200,3237A,117.4918,30.6617,池州市,展览馆,颗粒物(PM10),70,90,110,27,37,63,63,26,26,23,29,7,7,0.6,0.8
2025-11-26T1200,3333A,117.5627,30.695,池州市,第八中学,颗粒物(PM10),67,84,131,23,41,74,74,43,43,21,32,7,7,0.6,0.7
2025-11-26T1200,3334A,117.5038,30.6243,池州市,第十二中学,颗粒物(PM10),73,96,123,27,34,59,59,21,21,22,39,7,6,0.8,1.2
2025-11-26T1200,1744A,118.9233,42.2816,赤峰市,松山一中,颗粒物(PM10),65,80,42,40,14,20,20,41,24,44,27,15,11,1.0,0.7
2025-11-26T1200,1745A,118.9576,42.2728,赤峰市,哈达街,颗粒物(PM10),64,78,35,27,14,23,23,39,29,40,20,23,13,0.9,0.5
2025-11-26T1200,1746A,118.8788,42.2554,赤峰市,天义路,,49,49,27,25,14,50,50,47,44,24,17,7,9,0.7,0.7
2025-11-26T1200,3058A,119.2658,42.0353,赤峰市,银河街,颗粒物(PM10),74,97,42,52,29,32,32,26,19,28,21,7,7,1.1,0.8
2025-11-26T1200,3286A,118.9359,42.3147,赤峰市,桥北物流园区,细颗粒物(PM2.5),79,81,32,58,21,28,28,38,24,38,23,26,19,0.7,0.5
2025-11-26T1200,2521A,107.3476,22.4136,崇左市,市环保局江州分局,颗粒物(PM10),58,66,48,25,29,69,69,29,29,15,16,6,5,0.4,0.4
2025-11-26T1200,4256A,107.3750,22.3736,崇左市,石景林东路7号,颗粒物(PM10),51,52,37,23,20,82,82,30,30,10,15,9,7,0.5,0.5
2025-11-26T1200,2298A,118.3093,32.3153,滁州市,老年大学,颗粒物(PM10),86,122,67,46,30,54,54,15,15,31,26,12,11,1.1,0.5
2025-11-26T1200,2299A,118.3244,32.2786,滁州市,人大宾馆,颗粒物(PM10),87,124,78,45,33,53,53,17,17,34,28,18,8,1.1,0.5
2025-11-26T1200,3207A,118.3118,32.3038,滁州市,市政府原办公楼,颗粒物(PM10),84,117,69,46,28,58,58,23,23,36,31,18,7,1.2,0.6
2025-11-26T1200,3331A,118.3267,32.2634,滁州市,图书馆,颗粒物(PM10),84,118,67,32,30,54,54,15,15,33,27,20,10,1.1,0.5
2025-11-26T1200,2605A,101.5482,25.0441,楚雄彝族自治州,州环境监测站,,,57,36,28,25,47,47,12,12,,27,25,12,0.8,0.7
2025-11-26T1200,2606A,101.538,25.0492,楚雄彝族自治州,市经济开发区,颗粒物(PM10),75,99,51,52,29,52,52,14,14,18,19,32,11,0.6,0.6
2025-11-26T1200,2548A,107.5277,31.2827,达州市,达州职业技术学院,,,,,,,,,,,,,,,,
2025-11-26T1200,2549A,107.5086,31.2186,达州市,市环境监测站,颗粒物(PM10),57,64,71,34,33,27,27,10,10,28,36,12,7,0.6,0.6
2025-11-26T1200,2550A,107.4988,31.2132,达州市,凤凰小区,颗粒物(PM10),63,75,78,39,34,32,32,14,14,27,38,13,7,0.4,0.5
2025-11-26T1200,2551A,107.5082,31.1986,达州市,达县机关宾馆,颗粒物(PM10),57,63,80,32,38,34,34,15,15,26,39,11,7,0.5,0.7
2025-11-26T1200,2552A,107.4644,31.2124,达州市,市政中心,颗粒物(PM10),68,86,85,39,33,21,21,9,9,34,40,13,7,0.6,0.6
2025-11-26T1200,2614A,100.1542,25.7054,大理白族自治州,大理市环境监测站,,35,25,31,24,26,49,49,54,39,12,15,6,6,0.7,0.7
2025-11-26T1200,2615A,100.2171,25.5811,大理白族自治州,大理古城,,29,29,39,20,27,63,63,40,40,8,13,8,8,0.6,0.7
2025-11-26T1200,1109A,121.612,38.9741,大连市,甘井子,,42,42,25,16,8,64,64,42,42,26,33,13,13,0.5,0.6
2025-11-26T1200,1110A,121.565,38.9511,大连市,周水子,,43,43,25,18,8,65,65,41,41,20,30,6,5,0.4,0.4
2025-11-26T1200,1111A,121.5637,38.8845,大连市,星海三站,,38,38,24,19,8,65,65,49,49,19,21,8,9,0.4,0.4
2025-11-26T1200,1112A,121.6302,38.9117,大连市,青泥洼桥,,36,36,12,16,6,68,68,54,54,19,20,12,12,0.4,0.3
2025-11-26T1200,1113A,121.6251,38.8638,大连市,傅家庄,,,38,21,16,6,67,67,57,57,16,15,10,12,,0.8
2025-11-26T1200,1114A,121.5213,38.8661,大连市,七贤岭,,,40,24,16,5,63,63,38,38,17,18,,6,,0.7
2025-11-26T1200,1115A,121.2529,38.8061,大连市,旅顺,,42,42,19,20,8,70,70,55,55,14,16,6,7,0.4,0.3
2025-11-26T1200,1116A,121.7485,39.1311,大连市,金州,,40,40,28,17,10,67,67,42,42,14,20,10,8,0.4,0.3
2025-11-26T1200,1117A,121.7811,39.0496,大连市,开发区,,36,36,27,16,8,63,63,40,40,16,30,11,10,0.4,0.3
2025-11-26T1200,1118A,121.9762,39.0631,大连市,双D港,,45,45,25,13,6,72,72,62,62,17,15,13,10,0.5,0.4
2025-11-26T1200,1789A,124.81117,46.03138,大庆市,大同区,细颗粒物(PM2.5),107,105,157,80,129,42,42,26,26,19,28,8,8,0.9,1
2025-11-26T1200,1790A,125.129,46.533,大庆市,龙凤区,细颗粒物(PM2.5),97,131,147,72,118,47,47,45,45,24,26,9,8,0.9,0.9
2025-11-26T1200,1791A,124.902,46.408,大庆市,红岗区,细颗粒物(PM2.5),94,104,129,70,103,35,35,23,23,21,30,8,7,0.5,0.7
2025-11-26T1200,1792A,125.153,46.586,大庆市,萨尔图区,细颗粒物(PM2.5),137,130,145,104,115,28,28,32,28,33,28,10,9,0.7,0.7
2025-11-26T1200,1793A,124.9042,46.6215,大庆市,让胡路区,细颗粒物(PM2.5),105,112,116,79,91,39,39,29,29,22,27,10,9,0.8,0.8
2025-11-26T1200,3481A,125.141,46.634,大庆市,萨区政府监测点,细颗粒物(PM2.5),117,138,121,88,83,34,34,37,32,26,18,15,10,0.7,0.7
2025-11-26T1200,1721A,113.3819,40.1097,大同市,果树场,颗粒物(PM10),131,212,119,29,39,73,73,52,52,14,38,9,13,0.4,0.9
2025-11-26T1200,1723A,113.2994,40.0758,大同市,云冈宾馆,颗粒物(PM10),147,243,132,21,35,66,66,46,46,8,36,4,10,0.2,0.6
2025-11-26T1200,1724A,113.3444,40.0917,大同市,大同大学,颗粒物(PM10),128,205,108,34,33,76,76,54,54,10,34,1,8,0.3,0.5
2025-11-26T1200,1725A,113.2661,40.1269,大同市,安家小村,颗粒物(PM10),167,283,121,36,31,54,54,55,55,9,26,6,12,0.3,0.5
2025-11-26T1200,1726A,113.2711,40.0844,大同市,教育学院,颗粒物(PM10),162,273,130,35,39,69,69,46,46,9,32,3,10,0.2,0.6
2025-11-26T1200,3282A,113.3397,40.0597,大同市,大同市卫生学校,颗粒物(PM10),124,197,119,25,38,69,69,45,45,12,47,3,10,0.5,0.8
2025-11-26T1200,3565A,113.1367,40.1122,大同市,云冈站,颗粒物(PM10),130,209,88,31,24,70,70,38,38,4,26,3,8,0.3,0.5
2025-11-26T1200,3566A,113.1186,40.2556,大同市,图书馆,颗粒物(PM10),117,183,102,37,35,73,73,59,59,,19,3,9,,0.6
2025-11-26T1200,3567A,113.5931,40.0461,大同市,区一中,颗粒物(PM10),128,205,118,26,34,78,78,52,52,10,31,5,21,0.4,0.7
2025-11-26T1200,4199A,113.2798,40.0997,大同市,魏都大道141号,颗粒物(PM10),176,302,133,68,41,70,70,49,49,9,37,4,9,0.5,0.9
2025-11-26T1200,2269A,124.1069,50.4097,大兴安岭地区,科技局,,27,27,24,10,17,34,34,30,30,4,10,5,5,0.3,0.3
2025-11-26T1200,3663A,124.1164,50.4278,大兴安岭地区,红旗社区,,,17,21,11,13,32,32,21,21,9,21,,6,0.4,0.4
2025-11-26T1200,1600A,124.3303,40.0625,丹东市,江湾东路,细颗粒物(PM2.5),110,107,73,83,61,46,46,18,18,21,34,12,13,1.0,1.3
2025-11-26T1200,1601A,124.4256,40.1503,丹东市,临江后街,细颗粒物(PM2.5),78,80,70,57,50,46,46,18,18,14,28,9,10,0.6,0.8
2025-11-26T1200,1602A,124.3933,40.1461,丹东市,元宝山,细颗粒物(PM2.5),74,66,61,54,53,47,47,27,22,17,17,11,9,0.8,0.7
2025-11-26T1200,1603A,124.3633,40.1092,丹东市,民主桥,细颗粒物(PM2.5),112,106,69,84,52,50,50,18,18,31,39,23,9,1.8,1.1
2025-11-26T1200,3541A,109.5726,19.5167,儋州市,第一中学子站,颗粒物(PM10),52,54,45,27,23,95,95,62,62,6,9,9,10,0.4,0.5
2025-11-26T1200,3542A,109.5567,19.5187,儋州市,东坡学校子站,,44,44,41,25,21,102,102,64,64,11,11,4,4,0.5,0.5
2025-11-26T1200,2616A,98.5842,24.428,德宏傣族景颇族自治州,德宏州监测站,细颗粒物(PM2.5),54,51,39,38,31,53,53,17,17,13,17,11,8,0.6,0.6
2025-11-26T1200,3677A,98.5881,24.4368,德宏傣族景颇族自治州,芒市人民政府综合楼,,,42,36,35,19,47,47,18,17,13,14,8,8,,0.8
2025-11-26T1200,1901A,104.4239,31.1208,德阳市,东山公园,颗粒物(PM10),71,92,96,43,63,49,49,44,44,24,26,2,2,0.8,0.8
2025-11-26T1200,1902A,104.3826,31.1317,德阳市,西小区,颗粒物(PM10),81,112,116,48,63,39,39,30,30,31,38,4,4,0.6,0.6
2025-11-26T1200,1904A,104.3553,31.1091,德阳市,耐火材料厂,颗粒物(PM10),78,106,114,49,75,50,50,20,20,31,44,2,2,0.8,0.9
2025-11-26T1200,3639A,104.4019,31.1244,德阳市,市教育局,颗粒物(PM10),71,92,98,45,66,28,28,32,30,32,42,1,2,0.7,0.8
2025-11-26T1200,1622A,116.3032,37.4674,德州市,儿童乐园,颗粒物(PM10),98,146,101,53,34,45,45,28,28,25,27,15,14,0.8,0.6
2025-11-26T1200,1624A,116.2991,37.4451,德州市,监理站,,,,85,,31,48,48,33,31,,34,,14,0.6,0.6
2025-11-26T1200,3066A,116.2721,37.4379,德州市,九衢泉纯净水厂,颗粒物(PM10),96,141,98,46,37,43,43,22,22,31,38,17,15,0.9,0.8
2025-11-26T1200,3371A,116.3728,37.4403,德州市,开发区人民医院,颗粒物(PM10),101,151,94,53,34,47,47,31,31,35,36,18,17,0.7,0.7
2025-11-26T1200,3511A,116.5652,37.3319,德州市,陵城艺术中心,颗粒物(PM10),102,153,92,51,29,45,45,30,30,39,34,16,14,0.6,0.5
2025-11-26T1200,4292A,116.3525,37.4209,德州市,新河东路,颗粒物(PM10),100,149,91,53,38,42,42,23,23,45,45,16,14,0.9,0.7
2025-11-26T1200,2621A,99.7056,27.8317,迪庆藏族自治州,迪庆州站,,,26,26,19,19,66,66,59,54,,8,7,6,,0.8
2025-11-26T1200,3180A,99.7136,27.8094,迪庆藏族自治州,质量技术监督局,,39,35,25,27,15,73,73,67,56,8,10,9,7,0.5,0.5
2025-11-26T1200,4257A,104.6092,35.5962,定西市,将台街,颗粒物(PM10),141,232,92,32,39,79,79,22,22,6,31,9,14,0.4,0.8
2025-11-26T1200,4309A,104.6159,35.5701,定西市,正龙路62号,颗粒物(PM10),158,266,103,32,41,78,78,29,29,10,20,7,7,0.2,0.8
2025-11-26T1200,1389A,113.7547,23.0494,东莞市,莞城梨川,颗粒物(PM10),64,77,56,36,26,111,111,84,81,17,20,6,6,0.5,0.5
2025-11-26T1200,1390A,113.7944,23.0128,东莞市,东城石井,颗粒物(PM10),61,72,52,31,24,112,112,80,80,17,19,10,9,0.5,0.4
2025-11-26T1200,1391A,113.7383,22.9658,东莞市,南城西平,颗粒物(PM10),60,70,54,30,23,118,118,64,64,18,44,10,10,0.6,0.6
2025-11-26T1200,3319A,113.7338,23.0381,东莞市,万江金泰,颗粒物(PM10),64,77,57,32,24,108,108,81,80,15,17,7,6,0.7,0.6
2025-11-26T1200,3626A,113.7533,23.0202,东莞市,南城元岭,颗粒物(PM10),64,78,53,34,24,119,119,88,84,18,18,9,9,0.3,0.3
2025-11-26T1200,3627A,113.7875,23.0457,东莞市,东城主山,颗粒物(PM10),69,87,59,38,29,116,116,80,80,19,22,4,6,0.4,0.3
2025-11-26T1200,1666A,118.6614,37.4309,东营市,市环保局,颗粒物(PM10),76,102,62,36,27,38,38,18,18,38,44,27,18,0.8,0.7
2025-11-26T1200,3036A,118.6904,37.4338,东营市,开发区管委会,颗粒物(PM10),84,118,69,39,28,39,39,32,32,40,39,19,12,0.5,0.4
2025-11-26T1200,3365A,118.5719,37.565,东营市,垦利区民丰路,颗粒物(PM10),81,112,61,36,23,62,62,31,31,31,42,5,8,0.9,0.8
2025-11-26T1200,3498A,118.5055,37.8612,东营市,河口城区,颗粒物(PM10),81,112,63,34,24,66,66,30,30,31,38,6,6,0.6,0.5
2025-11-26T1200,3646A,118.4978,37.4623,东营市,胜利站,颗粒物(PM10),75,100,71,31,27,59,59,19,19,41,54,16,16,0.8,0.7
2025-11-26T1200,3734A,118.35,37.26,东营市,理想之城,颗粒物(PM10),80,110,66,34,31,56,56,16,16,33,51,10,18,0.6,0.6
2025-11-26T1200,1591A,110.0023,39.8129,鄂尔多斯市,综合楼,细颗粒物(PM2.5),243,,98,193,26,71,71,78,75,6,10,6,9,0.4,0.4
2025-11-26T1200,1592A,109.9486,39.8261,鄂尔多斯市,巴音孟克林场办事处,细颗粒物(PM2.5),235,,145,185,36,72,72,78,75,4,8,5,6,0.2,0.3
2025-11-26T1200,1593A,109.7736,39.5986,鄂尔多斯市,康泽苑,细颗粒物(PM2.5),199,,140,149,33,79,79,84,82,4,8,4,6,0.2,0.3
2025-11-26T1200,1594A,109.8119,39.5989,鄂尔多斯市,华泰汽车城,细颗粒物(PM2.5),208,,138,158,35,78,78,83,81,4,9,5,7,0.2,0.2
2025-11-26T1200,1595A,109.9734,39.7884,鄂尔多斯市,奥林花园,颗粒物(PM10),500,2136,239,183,30,74,74,64,64,8,20,8,14,0.3,0.4
2025-11-26T1200,2436A,114.8938,30.3994,鄂州市,市政府,颗粒物(PM10),77,104,106,39,39,45,45,28,28,35,38,20,16,0.5,0.5
2025-11-26T1200,2437A,114.8989,30.3714,鄂州市,赵家坝,颗粒物(PM10),77,104,112,39,35,52,52,29,29,19,26,14,14,0.7,0.7
2025-11-26T1200,3654A,114.8094,30.4089,鄂州市,精准医疗中心,,,110,108,47,41,54,54,24,24,49,35,4,12,,1.3
2025-11-26T1200,2454A,109.4978,30.2981,恩施土家族苗族自治州,湖北民院,,,,56,,44,,,21,20,,13,7,6,0.7,0.6
2025-11-26T1200,2455A,109.4707,30.2798,恩施土家族苗族自治州,州电力总公司,细颗粒物(PM2.5),59,56,60,42,45,37,37,11,11,17,19,7,6,0.6,0.6
2025-11-26T1200,3549A,109.5061,30.3772,恩施土家族苗族自治州,龙凤新区,"颗粒物(PM10),细颗粒物(PM2.5)",57,63,53,40,32,56,56,18,18,19,18,7,7,0.1,0.2
2025-11-26T1200,2499A,108.3411,21.6158,防城港市,沙万,颗粒物(PM10),58,65,55,24,21,92,92,78,77,10,11,8,7,0.4,0.4
2025-11-26T1200,2500A,108.3514,21.7731,防城港市,防城档案局,,,,68,,20,,,70,64,10,15,10,8,0.4,0.4
2025-11-26T1200,2501A,108.3506,21.6414,防城港市,大海花园,颗粒物(PM10),58,65,50,25,25,98,98,88,84,11,11,7,7,0.4,0.4
2025-11-26T1200,1371A,113.1294,23.0067,佛山市,湾梁,颗粒物(PM10),68,85,56,25,19,86,86,69,69,28,25,8,8,0.4,0.4
2025-11-26T1200,1372A,113.1083,23.0478,佛山市,华材职中,颗粒物(PM10),74,97,63,38,32,84,84,66,64,28,24,8,7,0.4,0.5
2025-11-26T1200,1373A,113.144,23.0453,佛山市,南海气象局,,,,57,,19,,,69,65,,24,,8,0.5,0.5
2025-11-26T1200,1374A,113.2881,22.8094,佛山市,顺德苏岗,颗粒物(PM10),60,69,49,27,23,89,89,67,67,24,27,9,9,0.4,0.3
2025-11-26T1200,1376A,112.8383,22.8678,佛山市,高明孔堂,颗粒物(PM10),69,87,55,27,24,93,93,69,69,20,20,8,7,0.3,0.2
2025-11-26T1200,1377A,112.8836,23.1588,佛山市,三水监测站,颗粒物(PM10),71,92,63,27,27,80,80,58,58,19,29,10,9,0.5,0.5
2025-11-26T1200,1378A,112.867,23.185,佛山市,三水云东海,颗粒物(PM10),61,72,51,28,25,91,91,54,54,20,28,9,7,0.4,0.5
2025-11-26T1200,3625A,113.2544,22.7642,佛山市,容桂街道办,颗粒物(PM10),64,78,55,29,25,86,86,66,66,27,29,7,7,0.6,0.6
2025-11-26T1200,1280A,119.3903,26.0543,福州市,鼓山,,,,111,,24,,,108,,,10,,2,,0.7
2025-11-26T1200,1282A,119.2681,26.0504,福州市,师大,颗粒物(PM10),94,137,108,42,35,99,99,79,74,14,14,8,8,0.3,0.4
2025-11-26T1200,1283A,119.2984,26.1028,福州市,五四北路,颗粒物(PM10),90,130,109,44,33,102,102,79,74,16,16,6,6,0.5,0.5
2025-11-26T1200,1284A,119.2648,26.0768,福州市,杨桥西路,颗粒物(PM10),91,132,109,40,32,103,103,79,75,12,13,6,5,0.4,0.4
2025-11-26T1200,1285A,119.317,26.0746,福州市,紫阳,,,,122,38,34,99,99,77,74,16,17,8,8,,0.5
2025-11-26T1200,3048A,119.5799,26.0936,福州市,九龙,颗粒物(PM10),95,140,103,43,30,106,106,73,73,11,12,4,4,0.4,0.3
2025-11-26T1200,3526A,119.5189,25.9664,福州市,吴航,颗粒物(PM10),90,129,94,38,31,108,108,76,76,12,13,8,7,0.4,0.4
2025-11-26T1200,1755A,123.7977,41.8491,抚顺市,望花区,颗粒物(PM10),60,69,108,25,78,54,54,25,25,19,40,13,12,0.7,0.9
2025-11-26T1200,1756A,123.9161,41.8822,抚顺市,顺城区,颗粒物(PM10),58,65,126,20,89,54,54,26,26,20,40,11,8,0.9,1
2025-11-26T1200,1757A,124.0436,41.8611,抚顺市,东洲区,颗粒物(PM10),54,57,88,19,78,58,58,42,42,15,24,9,10,0.6,0.8
2025-11-26T1200,1758A,123.9247,41.8642,抚顺市,新抚区,颗粒物(PM10),56,61,127,22,94,51,51,20,20,17,39,11,9,0.9,1
2025-11-26T1200,1759A,124.0972,41.8961,抚顺市,大伙房水库,,48,48,103,21,86,70,70,56,56,15,28,14,12,0.7,0.8
2025-11-26T1200,1760A,123.7086,41.8391,抚顺市,沈抚新城,颗粒物(PM10),60,70,103,24,70,58,58,33,33,15,33,10,11,0.6,1.1
2025-11-26T1200,2376A,116.2127,28.0814,抚州市,桐源党溪,,,,,,,,,,,,,,,,
2025-11-26T1200,2377A,116.3544,27.9831,抚州市,市站,颗粒物(PM10),83,116,119,34,30,71,71,29,29,17,17,9,7,0.7,0.5
2025-11-26T1200,2378A,116.3565,27.963,抚州市,血防站,颗粒物(PM10),74,97,108,31,32,74,74,37,37,23,22,8,6,0.5,0.3
2025-11-26T1200,2379A,116.3564,28.0007,抚州市,采茶剧团,颗粒物(PM10),81,112,118,33,35,69,69,24,24,16,16,11,5,0.7,0.6
2025-11-26T1200,2380A,116.385,27.9647,抚州市,医学分院,颗粒物(PM10),83,116,126,35,32,74,74,35,35,16,21,6,5,0.9,0.8
2025-11-26T1200,2207A,121.6094,41.998,阜新市,工业园区,颗粒物(PM10),81,111,80,44,57,42,42,14,14,30,34,35,22,0.9,0.7
2025-11-26T1200,2208A,121.6697,42.0279,阜新市,长青街,颗粒物(PM10),72,94,59,47,36,45,45,14,14,36,34,40,22,1.2,0.8
2025-11-26T1200,2209A,121.6673,42.0705,阜新市,农业园区,,,126,47,,31,,,19,18,36,28,33,24,1.2,0.7
2025-11-26T1200,2210A,121.6717,42.0224,阜新市,东苑,颗粒物(PM10),73,95,66,46,33,48,48,17,17,38,38,46,32,1.3,0.9
2025-11-26T1200,2211A,121.6506,42.0498,阜新市,玉龙新城,颗粒物(PM10),72,94,70,51,38,42,42,15,15,39,35,38,16,1.1,0.8
2025-11-26T1200,2301A,115.8277,32.8929,阜阳市,市监测站,颗粒物(PM10),74,98,101,37,42,75,75,47,47,16,25,6,5,0.4,0.4
2025-11-26T1200,2303A,115.8554,32.8605,阜阳市,开发区,颗粒物(PM10),87,123,124,29,28,78,78,41,41,18,26,6,5,0.4,0.4
2025-11-26T1200,2875A,115.784,32.8892,阜阳市,阜阳职业技术学院,,,,82,,26,81,81,64,64,13,16,8,7,,0.4
2025-11-26T1200,3468A,115.7901,32.8613,阜阳市,市规划展馆,,,,111,,39,,,52,,,21,,5,,0.4
2025-11-26T1200,3469A,115.836,32.9183,阜阳市,枣园社区,颗粒物(PM10),77,104,107,30,33,78,78,45,45,18,33,4,2,0.3,0.3
2025-11-26T1200,2669A,102.9099,34.9841,甘南藏族自治州,州政府,颗粒物(PM10),55,60,75,28,33,79,79,21,21,2,36,3,7,0.2,0.8
2025-11-26T1200,3380A,102.8914,34.9617,甘南藏族自治州,甘肃民族师范学院,颗粒物(PM10),60,70,89,10,25,71,71,19,19,4,31,3,7,0.4,0.7
2025-11-26T1200,2570A,101.9603,30.0475,甘孜藏族自治州,水桥子,,22,22,25,8,7,37,37,22,22,28,26,9,8,0.6,0.5
2025-11-26T1200,3065A,101.9533,29.9972,甘孜藏族自治州,州环保局,,27,27,24,3,4,69,69,36,36,13,20,5,6,0.5,0.5
2025-11-26T1200,3414A,115.8347,28.932,赣江新区,桑海产业园,,,88,108,23,24,67,67,17,17,18,32,10,11,,0.6
2025-11-26T1200,2362A,114.9017,25.9149,赣州市,通天岩,颗粒物(PM10),62,73,65,18,21,95,95,58,58,8,6,17,17,0.8,0.9
2025-11-26T1200,2363A,114.9367,25.8664,赣州市,地委,颗粒物(PM10),61,71,73,27,29,79,79,42,42,12,18,8,7,0.4,0.4
2025-11-26T1200,2364A,114.9461,25.8481,赣州市,气象台,颗粒物(PM10),65,80,88,23,26,85,85,36,36,12,22,6,6,0.7,0.6
2025-11-26T1200,2365A,114.9322,25.8333,赣州市,市图书馆,颗粒物(PM10),68,86,87,24,27,83,83,41,41,12,20,6,6,0.6,0.6
2025-11-26T1200,2366A,114.8905,25.8471,赣州市,华坚鞋城,颗粒物(PM10),65,80,91,20,22,78,78,52,52,12,19,5,5,0.3,0.3
2025-11-26T1200,3109A,115.0093,25.8613,赣州市,赣县区卫计委,颗粒物(PM10),69,88,78,22,33,71,71,38,38,18,19,8,8,0.5,0.5
2025-11-26T1200,2683A,106.2319,36.1417,固原市,马园,,,,,,,,,,,,,,,,
2025-11-26T1200,2684A,106.2792,36.0022,固原市,监测站,颗粒物(PM10),500,845,190,87,38,74,74,71,71,6,25,4,8,0.3,0.7
2025-11-26T1200,2685A,106.2375,36.0211,固原市,新区,颗粒物(PM10),500,837,173,86,35,80,80,78,78,2,26,3,5,0.2,0.5
2025-11-26T1200,3522A,106.2177,35.9959,固原市,原州区十五小,颗粒物(PM10),500,631,139,88,29,76,76,76,76,3,13,7,8,0.3,0.4
2025-11-26T1200,2543A,106.6308,30.5278,广安市,小平旧居,,,,,,,,,,,,,,,,
2025-11-26T1200,2544A,106.6303,30.4576,广安市,市委,颗粒物(PM10),67,84,78,42,43,50,50,32,24,25,28,4,4,0.6,0.6
2025-11-26T1200,2545A,106.6271,30.4663,广安市,友谊中学,颗粒物(PM10),63,75,71,34,37,56,56,31,23,19,23,8,8,0.8,0.8
2025-11-26T1200,2547A,106.6388,30.4551,广安市,广电花园,颗粒物(PM10),58,66,70,40,37,54,54,34,25,18,21,4,3,0.6,0.6
2025-11-26T1200,2902A,106.6351,30.4865,广安市,北辰小学,,,83,74,38,35,55,55,27,25,,15,15,15,0.6,0.7
2025-11-26T1200,2523A,105.8945,32.4535,广元市,黑石坡,,,,,,,,,,,,,,,,
2025-11-26T1200,2524A,105.821,32.4444,广元市,老城,颗粒物(PM10),66,81,75,39,42,68,68,25,25,15,38,3,8,0.6,0.9
2025-11-26T1200,2526A,105.8628,32.4287,广元市,监测站,细颗粒物(PM2.5),55,44,56,39,41,66,66,16,16,15,34,3,8,0.7,1
2025-11-26T1200,3617A,105.8047,32.4166,广元市,经开区,颗粒物(PM10),62,74,95,39,49,60,60,14,14,16,38,4,14,0.5,0.9
2025-11-26T1200,1345A,113.2347,23.1423,广州市,广雅中学,颗粒物(PM10),72,93,63,34,28,89,89,68,68,27,34,8,8,0.8,0.6
2025-11-26T1200,1346A,113.2612,23.105,广州市,市五中,颗粒物(PM10),67,83,58,34,29,104,104,86,86,22,24,10,10,0.5,0.5
2025-11-26T1200,1348A,113.3478,23.0916,广州市,广东商学院,颗粒物(PM10),63,76,55,27,25,90,90,78,77,20,20,7,7,0.5,0.5
2025-11-26T1200,1349A,113.4332,23.1047,广州市,市八十六中,颗粒物(PM10),53,56,47,26,26,101,101,76,76,8,19,8,8,0.4,0.6
2025-11-26T1200,1350A,113.3505,22.9483,广州市,番禺中学,,,82,54,31,25,95,95,72,72,,24,5,5,0.3,0.2
2025-11-26T1200,1351A,113.2146,23.3916,广州市,花都师范,颗粒物(PM10),72,94,61,33,24,103,103,91,88,16,16,8,8,0.2,0.2
2025-11-26T1200,1352A,113.2597,23.1331,广州市,市监测站,颗粒物(PM10),69,87,60,31,28,101,101,76,76,21,25,8,8,0.3,0.3
2025-11-26T1200,1353A,113.5618,23.312,广州市,九龙镇镇龙,颗粒物(PM10),64,77,52,30,26,88,88,68,68,14,16,6,6,0.4,0.3
2025-11-26T1200,1354A,113.2765,23.1544,广州市,麓湖,颗粒物(PM10),64,78,52,34,28,94,94,66,66,20,28,9,8,0.7,0.5
2025-11-26T1200,1355A,113.443,23.3035,广州市,帽峰山森林公园,,,,,,,,,,,,,,,,
2025-11-26T1200,2846A,113.3221,23.1322,广州市,体育西,颗粒物(PM10),64,78,56,30,27,93,93,74,74,19,23,9,9,0.6,0.5
2025-11-26T1200,3298A,113.5717,23.5491,广州市,从化街口,颗粒物(PM10),64,78,56,31,25,96,96,82,82,9,13,7,7,0.5,0.5
2025-11-26T1200,3299A,113.3472,23.3692,广州市,白云竹料,颗粒物(PM10),69,88,59,29,25,107,107,83,83,12,17,5,6,0.5,0.5
2025-11-26T1200,3300A,113.2981,23.237,广州市,白云嘉禾,颗粒物(PM10),75,100,66,35,29,103,103,60,60,20,34,8,8,0.3,0.4
2025-11-26T1200,3301A,113.4256,23.1716,广州市,黄埔科学城,颗粒物(PM10),62,74,54,29,27,100,100,75,75,14,17,6,7,0.5,0.5
2025-11-26T1200,3302A,113.3942,23.0483,广州市,番禺大学城,颗粒物(PM10),55,60,47,27,23,105,105,77,77,13,22,11,11,0.3,0.3
2025-11-26T1200,3303A,113.4922,22.8168,广州市,南沙黄阁,颗粒物(PM10),69,87,68,32,34,116,116,79,79,25,33,14,13,0.4,0.5
2025-11-26T1200,3304A,113.5342,22.7896,广州市,南沙街,,,97,63,37,29,103,103,73,72,,27,9,8,,0.4
2025-11-26T1200,3443A,113.2902,23.5544,广州市,花都梯面,颗粒物(PM10),66,81,51,29,24,106,106,85,85,8,11,8,10,0.3,0.3
2025-11-26T1200,3445A,113.7858,23.7478,广州市,从化良口,颗粒物(PM10),59,67,44,28,21,93,93,74,74,10,12,8,8,0.6,0.5
2025-11-26T1200,3446A,113.8051,23.2614,广州市,增城荔城,颗粒物(PM10),62,74,54,31,24,104,104,92,89,9,11,7,7,0.4,0.4
2025-11-26T1200,2505A,109.568,23.1478,贵港市,德智高中,,,,,,,,,,,,,,,,
2025-11-26T1200,2506A,109.6047,23.0666,贵港市,江南子站,颗粒物(PM10),58,66,99,26,48,83,83,26,26,16,30,13,9,0.6,0.7
2025-11-26T1200,2508A,109.5669,23.1065,贵港市,荷城子站,颗粒物(PM10),60,70,67,31,26,78,78,60,56,19,17,8,6,0.6,0.5
2025-11-26T1200,3405A,109.5886,23.1172,贵港市,新世纪学校,颗粒物(PM10),68,85,72,32,30,85,85,69,61,16,10,8,5,0.4,0.4
2025-11-26T1200,4260A,109.5933,23.0951,贵港市,中山路155-3号,颗粒物(PM10),61,71,63,38,33,84,84,49,49,18,18,13,7,0.3,0.3
2025-11-26T1200,1439A,106.6899,26.5998,贵阳市,马鞍山,颗粒物(PM10),57,63,54,29,32,47,47,14,14,36,27,15,5,0.7,0.5
2025-11-26T1200,1441A,106.6243,26.6266,贵阳市,鉴湖路,颗粒物(PM10),65,80,73,31,30,50,50,33,20,69,48,13,7,0.7,0.6
2025-11-26T1200,1442A,106.7487,26.6343,贵阳市,燕子冲,,,51,51,39,41,69,69,16,16,21,27,,8,0.5,0.5
2025-11-26T1200,1443A,106.6555,26.4365,贵阳市,碧云窝,颗粒物(PM10),62,73,94,31,54,50,50,12,12,30,26,20,10,0.5,0.7
2025-11-26T1200,1445A,106.7109,26.6027,贵阳市,红边门,颗粒物(PM10),53,56,66,34,39,64,64,19,19,23,38,20,26,0,0.7
2025-11-26T1200,1446A,106.7164,26.5699,贵阳市,新华路,颗粒物(PM10),52,53,83,27,43,86,86,27,27,16,37,31,25,0.5,0.4
2025-11-26T1200,1447A,106.674,26.5424,贵阳市,太慈桥,颗粒物(PM10),54,58,66,36,43,53,53,14,14,39,34,16,7,0.5,0.5
2025-11-26T1200,1552A,106.805,26.3003,贵阳市,桐木岭,细颗粒物(PM2.5),64,70,64,46,38,89,89,62,59,8,7,27,38,0.8,0.9
2025-11-26T1200,4230A,106.6882,26.5695,贵阳市,花果园大街66号,细颗粒物(PM2.5),54,53,67,38,48,51,51,14,14,30,45,10,14,0.6,0.9
2025-11-26T1200,4231A,106.6873,26.5169,贵阳市,漓江路57号,颗粒物(PM10),52,53,76,34,51,50,50,10,10,33,42,21,23,0.6,0.8
2025-11-26T1200,1862A,110.4144,25.3167,桂林市,电子科大尧山校区,,,,,,,,,,,,,,,,
2025-11-26T1200,1864A,110.3089,25.2708,桂林市,龙隐路小学,颗粒物(PM10),54,58,48,21,20,86,86,66,66,13,13,9,8,0.5,0.4
2025-11-26T1200,1865A,110.2869,25.2178,桂林市,八中,颗粒物(PM10),53,55,50,24,23,86,86,53,53,14,17,10,9,0.4,0.3
2025-11-26T1200,3531A,110.296,25.1253,桂林市,旅游学院,颗粒物(PM10),53,56,51,24,20,93,93,40,40,14,20,8,8,0.2,0.2
2025-11-26T1200,4222A,110.1835,25.2444,桂林市,环湖路276号,颗粒物(PM10),52,53,55,24,26,84,84,55,48,12,14,10,16,0.3,0.3
2025-11-26T1200,4301A,110.2803,25.2773,桂林市,信义路13号,,,,53,20,22,80,80,61,60,10,14,9,9,,0.4
2025-11-26T1200,2674A,100.2561,34.4714,果洛藏族自治州,玛沁县大武镇,,40,40,42,7,12,93,93,75,75,1,4,9,10,0.3,0.2
2025-11-26T1200,1129A,126.5422,45.755,哈尔滨市,岭北,,,,,,,,,,,,,,,,
2025-11-26T1200,1130A,126.561,45.8167,哈尔滨市,松北商大,细颗粒物(PM2.5),282,252,255,232,175,53,53,38,38,29,37,9,8,1.1,0.9
2025-11-26T1200,1131A,126.979,45.5419,哈尔滨市,阿城会宁,细颗粒物(PM2.5),350,302,252,300,250,66,66,54,54,24,33,10,9,1.2,1.3
2025-11-26T1200,1132A,126.599,45.7222,哈尔滨市,南岗学府路,细颗粒物(PM2.5),310,310,254,260,212,50,50,27,27,27,40,10,12,1.1,1.1
2025-11-26T1200,1133A,126.689,45.7733,哈尔滨市,太平宏伟公园,细颗粒物(PM2.5),329,322,251,279,244,54,54,40,40,30,40,11,12,1.2,1.1
2025-11-26T1200,1134A,126.635,45.7667,哈尔滨市,道外承德广场,细颗粒物(PM2.5),320,340,276,270,226,51,51,32,32,34,44,11,13,0.8,0.8
2025-11-26T1200,1135A,126.685,45.7319,哈尔滨市,香坊红旗大街,细颗粒物(PM2.5),354,329,286,304,248,54,54,42,41,32,43,23,20,1.3,1.3
2025-11-26T1200,1136A,126.6411,45.7258,哈尔滨市,动力和平路,细颗粒物(PM2.5),335,308,274,285,277,43,43,30,30,37,45,14,12,1.4,1.2
2025-11-26T1200,1137A,126.593,45.7478,哈尔滨市,道里建国路,细颗粒物(PM2.5),336,,213,286,226,45,45,28,28,39,46,26,29,1.8,1.6
2025-11-26T1200,1138A,126.615,45.61,哈尔滨市,平房东轻厂,细颗粒物(PM2.5),391,383,269,341,280,54,54,39,39,24,31,10,10,1.2,1.1
2025-11-26T1200,1139A,126.595,45.9855,哈尔滨市,呼兰师专,细颗粒物(PM2.5),228,190,189,178,179,53,53,34,34,27,42,15,16,1.1,1.1
2025-11-26T1200,1140A,126.6206,45.6842,哈尔滨市,省农科院,细颗粒物(PM2.5),367,357,296,317,300,46,46,26,26,38,53,9,9,1.0,1
2025-11-26T1200,2688A,93.5128,42.8172,哈密市,地区监测站,,43,43,74,28,26,57,57,57,51,10,16,5,10,0.0,0.1
2025-11-26T1200,2689A,93.4961,42.8328,哈密市,哈密师范学校,,43,43,44,22,23,51,51,51,43,15,17,7,14,0.3,0.3
2025-11-26T1200,2671A,100.9048,36.9639,海北藏族自治州,海晏县西海镇,颗粒物(PM10),65,79,55,27,21,90,90,87,87,2,3,8,9,0.3,0.3
2025-11-26T1200,3867A,102.0738,36.5056,海东市,平安区公安北苑,,,96,62,15,32,,,33,21,4,21,8,17,0.4,0.8
2025-11-26T1200,1409A,110.576,19.9507,海口市,东寨港,,,,,,,,,,,,,,,,
2025-11-26T1200,1410A,110.3232,20.0574,海口市,海南大学,颗粒物(PM10),53,55,41,28,21,119,119,96,96,9,9,8,8,0.3,0.3
2025-11-26T1200,1411A,110.283,20.0053,海口市,秀英海南医院,颗粒物(PM10),52,54,43,27,21,116,116,93,93,10,10,10,9,0.3,0.2
2025-11-26T1200,1412A,110.338,19.9969,海口市,海南师范大学,颗粒物(PM10),56,61,43,27,20,122,122,100,100,10,10,8,8,0.4,0.3
2025-11-26T1200,1413A,110.33,20.0356,海口市,龙华路环保局宿舍,颗粒物(PM10),53,56,43,28,21,121,121,99,99,11,11,10,9,0.5,0.4
2025-11-26T1200,3539A,110.5111,19.9736,海口市,桂林洋子站,颗粒物(PM10),56,62,45,30,22,122,122,96,96,10,11,9,9,0.3,0.2
2025-11-26T1200,2673A,100.6188,36.2866,海南藏族自治州,共和县恰卜恰镇,颗粒物(PM10),61,71,100,21,31,109,109,110,110,1,13,13,12,0.3,0.4
2025-11-26T1200,2676A,97.3731,37.3753,海西蒙古族藏族自治州,德令哈市,,45,45,49,19,18,96,96,73,69,8,12,17,15,0.6,0.4
2025-11-26T1200,1048A,114.5302,36.6116,邯郸市,东污水处理厂,细颗粒物(PM2.5),104,126,100,78,52,25,25,11,11,53,35,20,7,1.2,0.6
2025-11-26T1200,1049A,114.4918,36.5713,邯郸市,矿院,细颗粒物(PM2.5),134,,90,102,60,40,40,13,13,44,35,,4,,0.5
2025-11-26T1200,1050A,114.484,36.6133,邯郸市,丛台公园,细颗粒物(PM2.5),85,95,91,63,46,29,29,13,13,47,32,13,6,1.1,0.6
2025-11-26T1200,3458A,114.7895,36.5593,邯郸市,香泉濮院小区,细颗粒物(PM2.5),132,147,121,100,52,38,38,18,18,33,23,18,9,1.3,0.5
2025-11-26T1200,3579A,114.50634,36.77178,邯郸市,永年区实验高中,颗粒物(PM10),71,92,97,47,31,29,29,13,13,46,37,13,7,1.2,0.7
2025-11-26T1200,3580A,114.20016,36.44293,邯郸市,峰峰矿区临水派出所,,42,42,57,22,33,89,89,72,72,12,21,7,8,0.5,0.6
2025-11-26T1200,2634A,106.9893,33.1842,汉中市,汉川机床厂子校,,,,,,,,,,,,,,,,
2025-11-26T1200,2635A,107.0154,33.0706,汉中市,市监测站,细颗粒物(PM2.5),85,91,81,63,58,43,43,17,17,30,31,8,6,1.0,0.9
2025-11-26T1200,2636A,107.0089,33.1138,汉中市,鑫源开发区,细颗粒物(PM2.5),79,96,84,58,55,49,49,32,32,26,34,10,8,1.2,1.1
2025-11-26T1200,2637A,107.007,33.0323,汉中市,南郑大河坎水厂,,,86,78,56,56,40,40,15,15,26,25,,9,0.9,0.8
2025-11-26T1200,1223A,120.2072,30.2111,杭州市,滨江,颗粒物(PM10),82,114,142,40,42,53,53,18,18,32,45,10,9,0.6,0.6
2025-11-26T1200,1224A,120.0633,30.2747,杭州市,西溪,颗粒物(PM10),74,98,112,38,28,50,50,16,16,29,28,10,9,0.3,0.2
2025-11-26T1200,1226A,120.3417,30.3150,杭州市,下沙,细颗粒物(PM2.5),108,129,141,81,43,42,42,18,18,56,55,11,8,0.6,0.6
2025-11-26T1200,1227A,120.1269,30.2456,杭州市,卧龙桥,颗粒物(PM10),75,100,102,37,33,58,58,20,20,24,24,10,7,0.3,0.3
2025-11-26T1200,1228A,120.1903,30.2692,杭州市,浙江农大,颗粒物(PM10),77,104,134,42,51,59,59,21,21,40,52,10,10,0.6,0.6
2025-11-26T1200,1230A,120.1197,30.3119,杭州市,和睦小学,颗粒物(PM10),79,108,122,44,39,63,63,24,24,26,35,12,10,0.6,0.7
2025-11-26T1200,1231A,120.3019,30.4183,杭州市,临平镇,颗粒物(PM10),86,122,137,40,38,48,48,16,16,41,45,9,9,0.5,0.5
2025-11-26T1200,1232A,120.2753,30.1839,杭州市,城厢镇,颗粒物(PM10),87,124,143,44,43,48,48,18,18,41,44,9,8,0.4,0.3
2025-11-26T1200,1233A,120.0883,30.1808,杭州市,云栖,,,98,101,38,39,57,57,19,19,,28,7,4,0.5,0.5
2025-11-26T1200,3557A,119.9464,30.0494,杭州市,镇二中,,,,126,,32,,,50,,,29,,6,,0.7
2025-11-26T1200,3558A,119.7183,30.2367,杭州市,市府大楼,颗粒物(PM10),88,126,145,42,45,68,68,28,28,20,23,11,10,0.5,0.5
2025-11-26T1200,3656A,120.1556,30.2864,杭州市,消防大队,,,116,134,40,39,56,56,21,21,30,36,,10,0.4,0.3
2025-11-26T1200,1270A,117.1959,31.7848,合肥市,明珠广场,颗粒物(PM10),87,124,116,44,37,49,49,37,37,30,33,10,9,0.7,0.6
2025-11-26T1200,1271A,117.3072,31.8764,合肥市,三里街,颗粒物(PM10),85,119,110,36,33,57,57,25,25,33,48,8,7,0.6,0.6
2025-11-26T1200,1272A,117.2588,31.8707,合肥市,琥珀山庄,颗粒物(PM10),90,129,110,48,43,63,63,35,35,26,35,9,7,0.5,0.5
2025-11-26T1200,1273A,117.1604,31.9052,合肥市,董铺水库,,,,,,,,,,,,,,,,
2025-11-26T1200,1274A,117.25,31.8571,合肥市,长江中路,,,134,111,47,35,59,59,33,33,28,32,,8,0.6,0.5
2025-11-26T1200,1275A,117.266,31.9436,合肥市,庐阳区,颗粒物(PM10),91,132,116,39,35,68,68,37,37,28,44,9,7,0.6,0.6
2025-11-26T1200,1276A,117.3453,31.8616,合肥市,瑶海区,颗粒物(PM10),90,129,122,42,37,59,59,28,28,34,43,8,6,0.6,0.5
2025-11-26T1200,1277A,117.3027,31.7964,合肥市,包河区,颗粒物(PM10),84,117,112,41,38,52,52,25,25,25,41,8,8,0.7,0.6
2025-11-26T1200,1278A,117.2776,31.7385,合肥市,滨湖新区,颗粒物(PM10),85,119,118,51,42,51,51,45,44,34,29,8,7,0.7,0.6
2025-11-26T1200,1279A,117.1318,31.8403,合肥市,高新区,颗粒物(PM10),86,122,114,45,34,59,59,48,48,38,35,6,6,0.7,0.6
2025-11-26T1200,3464A,117.3803,31.9147,合肥市,高教基地,颗粒物(PM10),84,117,111,36,36,70,70,36,36,26,36,10,7,0.5,0.4
2025-11-26T1200,3614A,79.924,37.0877,和田地区,地区环保局,颗粒物(PM10),172,293,171,68,58,55,55,52,51,19,30,21,11,1.3,1.6
2025-11-26T1200,3615A,79.9131,37.113,和田地区,市环保局,颗粒物(PM10),145,239,188,45,73,44,44,23,23,41,62,6,7,1.9,3.1
2025-11-26T1200,2516A,108.2011,24.715,河池市,东仁乐园,,,,,,,,,,,,,,,,
2025-11-26T1200,2517A,108.0497,24.6947,河池市,市环保站,颗粒物(PM10),55,60,38,20,22,63,63,21,21,10,22,3,3,0.4,0.5
2025-11-26T1200,2518A,108.0983,24.6989,河池市,市疾控中心,,,,46,,29,,,8,8,14,26,6,4,0.5,0.5
2025-11-26T1200,1696A,114.6778,23.7569,河源市,源西,,,,,,,,,,,,,,,,
2025-11-26T1200,1697A,114.6944,23.7586,河源市,东埔,颗粒物(PM10),68,86,69,31,31,99,99,76,74,11,14,8,8,0.4,0.4
2025-11-26T1200,1698A,114.6892,23.7233,河源市,老城,颗粒物(PM10),72,93,70,34,22,96,96,78,74,10,11,8,8,0.5,0.5
2025-11-26T1200,1718A,115.4208,35.2464,菏泽市,气象局,颗粒物(PM10),114,177,135,73,42,52,52,35,35,,26,,4,0.5,0.4
2025-11-26T1200,3374A,115.5564,35.0891,菏泽市,定陶老年大学,颗粒物(PM10),86,122,107,46,33,59,59,36,36,27,32,7,5,0.3,0.2
2025-11-26T1200,4184A,115.4797,35.24401,菏泽市,永昌路1号,颗粒物(PM10),101,152,120,58,39,45,45,32,32,32,29,6,3,0.5,0.4
2025-11-26T1200,4193A,115.4715,35.2800,菏泽市,长城路999号,颗粒物(PM10),104,158,131,56,33,51,51,37,37,30,24,6,3,0.5,0.3
2025-11-26T1200,2514A,111.5264,24.4172,贺州市,环保小区,,45,45,55,26,29,89,89,48,48,11,17,7,6,0.5,0.5
2025-11-26T1200,2515A,111.5608,24.4078,贺州市,政协大楼,颗粒物(PM10),52,53,57,20,26,82,82,43,43,9,18,8,7,0.7,0.8
2025-11-26T1200,3534A,111.4744,24.4553,贺州市,西湾,颗粒物(PM10),54,58,56,30,25,82,82,40,40,13,18,9,6,0.5,0.5
2025-11-26T1200,2385A,114.17,35.9019,鹤壁市,市监测站,,,54,99,3,40,70,70,22,22,,29,5,5,0.5,0.5
2025-11-26T1200,2386A,114.2956,35.7511,鹤壁市,市交警支队,颗粒物(PM10),78,105,141,40,44,34,34,8,8,40,41,3,4,0.7,0.6
2025-11-26T1200,2387A,114.2878,35.7306,鹤壁市,迎宾馆,颗粒物(PM10),85,120,155,24,44,39,39,9,9,40,42,13,8,0.8,0.6
2025-11-26T1200,3474A,114.2617,35.6822,鹤壁市,大新区,颗粒物(PM10),88,126,149,53,49,33,33,10,10,48,48,8,6,0.8,0.6
2025-11-26T1200,3596A,114.1572,35.9603,鹤壁市,南山宾馆,,,53,118,6,34,79,79,58,58,7,23,5,8,,0.5
2025-11-26T1200,2244A,130.2537,47.3416,鹤岗市,哈啤分公司,颗粒物(PM10),53,55,45,24,23,27,27,32,29,23,19,18,14,0.7,0.7
2025-11-26T1200,2245A,130.2684,47.3086,鹤岗市,斯达机电,,,,49,,20,36,36,33,31,15,18,15,16,,0.8
2025-11-26T1200,2246A,130.3114,47.3388,鹤岗市,东山纸板厂,颗粒物(PM10),66,81,70,6,30,35,35,24,24,18,30,17,18,0.6,1.3
2025-11-26T1200,2247A,130.1097,47.3382,鹤岗市,五号水库,,,,,,,,,,,,,,,,
2025-11-26T1200,2263A,127.4833,50.2524,黑河市,交通局,,32,32,30,11,18,34,34,31,30,19,16,4,4,0.5,0.4
2025-11-26T1200,2264A,127.5144,50.2341,黑河市,环保局,,,,26,,19,34,34,28,26,14,18,,10,0.4,0.5
2025-11-26T1200,2265A,127.5291,50.2472,黑河市,大黑河岛,,,,,,,,,,,,,,,,
2025-11-26T1200,1074A,115.6838,37.7541,衡水市,电机北厂,颗粒物(PM10),102,154,104,53,40,25,25,15,15,33,29,12,6,0.6,0.4
2025-11-26T1200,1075A,115.6303,37.7316,衡水市,市监测站,,,,81,,34,34,34,15,15,30,31,,11,,0.4
2025-11-26T1200,3188A,115.6683,37.7217,衡水市,市城管局,颗粒物(PM10),97,144,95,54,38,29,29,14,14,32,32,9,6,0.6,0.5
2025-11-26T1200,3459A,115.5989,37.5491,衡水市,地表水厂,颗粒物(PM10),94,137,89,68,41,42,42,18,18,39,41,15,9,0.6,0.4
2025-11-26T1200,2456A,112.5003,26.9167,衡阳市,原169医院,,,,,,,,,,,,,,,,
2025-11-26T1200,2457A,112.6194,26.9258,衡阳市,衡阳化工总厂,颗粒物(PM10),72,94,74,37,31,71,71,27,27,26,32,9,9,0.8,0.8
2025-11-26T1200,2458A,112.6211,26.8956,衡阳市,珠晖区环保局,,,90,69,34,28,62,62,20,20,26,32,,5,,0.9
2025-11-26T1200,2459A,112.6197,26.8733,衡阳市,市委党校,颗粒物(PM10),75,100,71,41,28,67,67,21,21,32,25,26,17,1.6,1.2
2025-11-26T1200,2460A,112.6006,26.8919,衡阳市,市监测站,颗粒物(PM10),73,96,85,39,34,66,66,29,29,27,30,12,8,0.9,0.9
2025-11-26T1200,2461A,112.5664,26.9056,衡阳市,真空机电公司,颗粒物(PM10),76,101,72,34,30,74,74,42,42,20,26,14,9,0.8,0.8
2025-11-26T1200,3399A,112.6703,26.882,衡阳市,师范学院,颗粒物(PM10),78,105,73,42,26,74,74,25,25,31,27,14,12,1.0,0.8
2025-11-26T1200,2608A,103.3772,23.3993,红河哈尼族彝族自治州,污水处理厂,,,,69,,44,,,77,,,22,,49,,0.4
2025-11-26T1200,2609A,103.3861,23.35,红河哈尼族彝族自治州,监测站,,,,61,,38,73,73,49,43,,15,56,16,,0.2
2025-11-26T1200,3038A,103.3758,23.368,红河哈尼族彝族自治州,州图书馆,细颗粒物(PM2.5),84,96,54,62,35,73,73,42,40,16,15,59,33,0.6,0.5
2025-11-26T1200,1090A,111.6507,40.7517,呼和浩特市,呼市一监,颗粒物(PM10),124,197,122,57,49,31,31,11,11,37,45,17,13,0.9,1
2025-11-26T1200,1091A,111.6572,40.8033,呼和浩特市,小召,颗粒物(PM10),134,217,108,59,37,19,19,5,5,48,59,15,15,0.9,1
2025-11-26T1200,1094A,111.7516,40.8369,呼和浩特市,如意水处理厂,颗粒物(PM10),104,157,104,54,40,19,19,4,4,44,53,14,14,1.1,1.1
2025-11-26T1200,1095A,111.7276,40.8062,呼和浩特市,二十九中,颗粒物(PM10),105,159,107,64,49,21,21,5,5,39,53,19,17,0.7,0.7
2025-11-26T1200,1096A,111.5512,40.7866,呼和浩特市,工大金川校区,颗粒物(PM10),118,185,116,63,37,14,14,5,5,53,56,18,14,0.8,0.8
2025-11-26T1200,1097A,111.717,40.7612,呼和浩特市,化肥厂生活区,颗粒物(PM10),119,188,116,56,43,27,27,8,8,38,52,,12,0.8,0.9
2025-11-26T1200,3698A,111.5968,40.8178,呼和浩特市,红旗小学,颗粒物(PM10),124,197,93,58,34,17,17,5,5,46,57,19,16,0.8,0.6
2025-11-26T1200,3699A,111.6518,40.8389,呼和浩特市,海东办,颗粒物(PM10),115,180,101,51,37,18,18,5,5,39,50,11,12,0.6,0.6
2025-11-26T1200,3061A,119.7512,49.1577,呼伦贝尔市,国华电力东,,17,17,34,11,20,46,46,46,45,9,17,9,8,0.4,0.4
2025-11-26T1200,4279A,119.7569,49.2222,呼伦贝尔市,伊敏大街东7号,,23,20,28,16,18,45,45,45,43,2,7,7,6,0.5,0.5
2025-11-26T1200,1250A,120.0751,30.8669,湖州市,城西水厂,颗粒物(PM10),84,118,133,49,40,70,70,28,28,35,47,11,11,0.5,0.6
2025-11-26T1200,2873A,120.0830,30.8929,湖州市,仁皇山新区,,,,112,,34,73,73,27,27,31,39,11,10,0.4,0.4
2025-11-26T1200,2907A,120.1844,30.8596,湖州市,吴兴区站,颗粒物(PM10),82,114,111,46,35,75,75,23,23,24,38,10,9,1.0,1.1
2025-11-26T1200,3562A,120.4148,30.8538,湖州市,南浔区站,颗粒物(PM10),85,120,113,50,37,64,64,17,17,51,56,10,8,0.6,0.5
2025-11-26T1200,1607A,120.9049,40.7211,葫芦岛市,龙港区,颗粒物(PM10),70,89,45,38,17,43,43,20,20,34,34,15,12,0.8,0.6
2025-11-26T1200,1608A,120.8392,40.7514,葫芦岛市,化工街,颗粒物(PM10),69,88,51,29,22,37,37,16,16,36,44,14,15,0.6,0.5
2025-11-26T1200,1609A,120.8341,40.7073,葫芦岛市,新区,,,103,40,50,18,32,32,13,13,48,46,,11,,0.9
2025-11-26T1200,1610A,120.8695,40.7677,葫芦岛市,东城区,颗粒物(PM10),68,85,55,31,26,41,41,19,19,38,47,11,14,1.0,1
2025-11-26T1200,2482A,109.5981,27.5721,怀化市,林科所,,,,,,,,,,,,,,,,
2025-11-26T1200,2483A,109.9453,27.5444,怀化市,河西地税局,颗粒物(PM10),62,74,55,42,27,60,60,17,17,20,16,9,6,0.4,0.3
2025-11-26T1200,2484A,109.9781,27.5342,怀化市,市四医院,颗粒物(PM10),60,70,70,39,30,66,66,19,19,14,25,11,9,0.5,0.5
2025-11-26T1200,2485A,109.9972,27.5578,怀化市,监测楼,颗粒物(PM10),63,76,63,41,29,53,53,16,16,20,20,6,3,0.1,0.1
2025-11-26T1200,2486A,110.0394,27.583,怀化市,市委党校,颗粒物(PM10),62,73,71,43,35,71,71,18,18,8,21,21,16,0.4,0.5
2025-11-26T1200,1210A,119.036,33.5981,淮安市,钵池山,颗粒物(PM10),71,92,53,35,27,59,59,30,30,29,27,12,9,0.7,0.5
2025-11-26T1200,1211A,119.007,33.575,淮安市,北京南路,颗粒物(PM10),73,95,57,30,24,57,57,24,24,28,37,12,7,0.6,0.5
2025-11-26T1200,1212A,118.989,33.6067,淮安市,市监测站,颗粒物(PM10),73,95,58,39,22,60,60,32,32,31,34,15,9,1.2,0.6
2025-11-26T1200,1213A,119.135,33.5039,淮安市,楚州区监测站,颗粒物(PM10),75,100,66,34,23,56,56,16,16,28,52,14,10,0.8,0.6
2025-11-26T1200,3426A,118.8755,33.2894,淮安市,新华书店,颗粒物(PM10),80,109,64,48,27,55,55,28,28,31,32,13,10,0.8,0.5
2025-11-26T1200,4206A,119.0288,33.6319,淮安市,承德北路606号,颗粒物(PM10),74,97,62,28,22,58,58,35,35,25,30,12,8,1.0,0.8
2025-11-26T1200,2282A,116.8004,33.975,淮北市,监测站,颗粒物(PM10),97,144,105,47,42,72,72,36,36,32,38,9,8,0.5,0.4
2025-11-26T1200,2283A,116.8091,33.9007,淮北市,烈山区政府,,,140,115,41,45,,,27,27,,44,,11,0.4,0.4
2025-11-26T1200,3330A,116.8873,33.9836,淮北市,杜集区检察院,颗粒物(PM10),92,133,102,46,40,76,76,47,47,22,26,6,6,0.3,0.3
2025-11-26T1200,4017A,116.7923,33.9535,淮北市,市博物馆,,,,105,,41,70,70,31,31,27,33,,11,0.4,0.2
2025-11-26T1200,2277A,116.8305,32.7727,淮南市,潘集区政府,颗粒物(PM10),87,123,125,52,48,64,64,30,30,28,34,10,7,0.5,0.6
2025-11-26T1200,2279A,116.8569,32.5951,淮南市,谢家集区政府,颗粒物(PM10),73,96,120,41,35,53,53,22,22,30,43,8,10,0.5,0.5
2025-11-26T1200,2280A,116.8281,32.633,淮南市,八公山区政府,颗粒物(PM10),74,98,109,42,34,53,53,26,26,27,30,6,6,0.4,0.4
2025-11-26T1200,2281A,116.6325,32.6201,淮南市,焦岗湖风景区管理处,,,,,,,,,,,,,,,,
2025-11-26T1200,2894A,117.0566,32.6531,淮南市,经济技术开发区消防队,颗粒物(PM10),74,98,114,36,42,55,55,26,26,31,42,9,9,0.3,0.3
2025-11-26T1200,3329A,117.0108,32.5893,淮南市,山南新区,颗粒物(PM10),90,130,142,41,46,59,59,31,31,28,35,5,5,0.4,0.4
2025-11-26T1200,4209A,117.0031,32.6445,淮南市,国庆中路369号,颗粒物(PM10),63,76,88,35,36,57,57,32,32,25,27,3,4,0.5,0.5
2025-11-26T1200,2446A,114.9028,30.4742,黄冈市,职工中心,颗粒物(PM10),59,68,72,31,33,65,65,41,41,21,25,8,6,0.6,0.5
2025-11-26T1200,2929A,114.8858,30.4519,黄冈市,红卫路,颗粒物(PM10),57,63,67,36,35,60,60,41,41,24,28,11,7,0.6,0.5
2025-11-26T1200,3398A,114.9136,30.4445,黄冈市,市林业局,颗粒物(PM10),71,92,87,37,30,67,67,43,43,30,24,5,4,0.5,0.7
2025-11-26T1200,2672A,102.0199,35.5102,黄南藏族自治州,同仁县隆务镇,颗粒物(PM10),66,81,63,24,20,91,91,71,71,2,5,8,10,0.3,0.3
2025-11-26T1200,2295A,118.2903,29.6963,黄山市,延安路89号,细颗粒物(PM2.5),94,98,110,70,56,62,62,25,25,15,15,4,4,0.4,0.4
2025-11-26T1200,2297A,118.1371,30.2756,黄山市,黄山区政府5号楼,颗粒物(PM10),63,76,89,20,36,72,72,30,30,6,8,6,6,0.5,0.5
2025-11-26T1200,4210A,118.3354,29.7203,黄山市,滨江东路7-2号,颗粒物(PM10),91,131,113,40,49,52,52,20,20,21,15,4,4,0.4,0.4
2025-11-26T1200,2423A,115.0601,30.2313,黄石市,沈家营,颗粒物(PM10),80,109,95,45,31,53,53,28,28,38,30,15,9,1.3,1
2025-11-26T1200,2426A,114.8988,30.2019,黄石市,铁山,颗粒物(PM10),73,96,91,35,41,71,71,30,30,40,40,22,10,1.1,0.8
2025-11-26T1200,2427A,115.0307,30.2092,黄石市,团城山,颗粒物(PM10),74,98,93,42,27,49,49,22,22,41,32,9,7,1.0,0.5
2025-11-26T1200,3149A,115.0235,30.1578,黄石市,笔架山北路,颗粒物(PM10),103,156,145,38,34,67,67,24,24,29,29,13,12,0.9,1
2025-11-26T1200,4185A,115.0780,30.21118,黄石市,磁湖东路29号,颗粒物(PM10),89,127,99,55,38,47,47,17,17,34,34,18,13,1.1,0.8
2025-11-26T1200,1392A,114.4183,23.0528,惠州市,河南岸金山湖子站,颗粒物(PM10),66,81,63,33,26,92,92,73,73,18,21,5,7,0.4,0.4
2025-11-26T1200,1393A,114.4053,23.0822,惠州市,下埔横江三路子站,颗粒物(PM10),66,81,65,31,28,105,105,84,83,8,10,8,10,0.5,0.5
2025-11-26T1200,1394A,114.4103,23.1142,惠州市,江北云山西路子站,颗粒物(PM10),69,88,65,33,28,108,108,90,89,13,14,7,8,0.5,0.5
2025-11-26T1200,1395A,114.4645,22.7833,惠州市,惠阳区承修路船湖子站,颗粒物(PM10),66,81,64,32,27,108,108,79,79,14,18,7,7,0.4,0.4
2025-11-26T1200,1396A,114.5317,22.7422,惠州市,大亚湾管委会子站,颗粒物(PM10),62,73,57,30,25,100,100,86,83,13,12,7,6,0.7,0.7
2025-11-26T1200,3314A,114.4338,22.8134,惠州市,惠阳秋长,颗粒物(PM10),65,80,64,34,26,110,110,,,10,12,13,12,0.4,0.3
2025-11-26T1200,3452A,114.6517,22.775,惠州市,大亚湾霞涌,,,,55,,22,,,,,,10,,7,,0.5
2025-11-26T1200,2240A,130.9762,45.3001,鸡西市,环保局,"颗粒物(PM10),细颗粒物(PM2.5)",68,85,61,49,37,21,21,9,9,36,35,26,13,0.8,0.9
2025-11-26T1200,2243A,130.9429,45.3039,鸡西市,第一中学,颗粒物(PM10),65,80,53,42,30,20,20,19,18,37,31,21,11,0.7,0.6
2025-11-26T1200,3707A,131.0207,45.3073,鸡西市,欧美日汽修厂,颗粒物(PM10),66,82,88,42,49,27,27,10,10,27,31,22,19,0.8,1.1
2025-11-26T1200,3709A,130.9967,45.3106,鸡西市,市政设施管理处,,,133,78,46,44,,,16,16,32,35,27,17,,1.3
2025-11-26T1200,2367A,114.9754,27.0803,吉安市,红声器材厂,颗粒物(PM10),72,93,101,28,26,70,70,29,29,18,21,10,9,0.7,0.6
2025-11-26T1200,2368A,114.9658,27.0999,吉安市,市森林工业局,颗粒物(PM10),74,97,104,32,26,62,62,28,28,18,18,9,9,0.4,0.3
2025-11-26T1200,2369A,114.99,27.1312,吉安市,市环境监测站,,,100,93,41,26,72,72,36,36,17,19,,16,0.4,0.3
2025-11-26T1200,2370A,115.0093,27.0968,吉安市,青原区法院,颗粒物(PM10),72,93,96,29,27,65,65,31,27,24,25,12,11,0.6,0.6
2025-11-26T1200,1772A,126.54,43.8622,吉林市,哈达湾,细颗粒物(PM2.5),132,110,427,100,394,48,48,37,37,15,46,10,10,1.0,1.6
2025-11-26T1200,1773A,126.5844,43.8358,吉林市,东局子,细颗粒物(PM2.5),115,102,494,87,534,50,50,28,28,13,40,9,9,1.0,1.8
2025-11-26T1200,1774A,126.5052,43.8245,吉林市,电力学院,细颗粒物(PM2.5),125,95,489,95,424,59,59,20,20,16,49,10,10,0.8,1.8
2025-11-26T1200,1775A,126.6133,43.8972,吉林市,江北,细颗粒物(PM2.5),144,141,741,110,636,51,51,28,28,17,46,6,7,0.8,1.9
2025-11-26T1200,1776A,126.555,43.8306,吉林市,江南公园,细颗粒物(PM2.5),129,98,527,98,469,62,62,40,40,13,45,7,8,0.6,1.6
2025-11-26T1200,1778A,126.7061,43.7133,吉林市,丰满,细颗粒物(PM2.5),221,,497,171,566,49,49,41,41,13,23,9,10,0.9,1.4
2025-11-26T1200,2868A,126.4739,43.953,吉林市,九站,细颗粒物(PM2.5),119,113,499,90,398,64,64,51,51,19,50,5,6,1.1,1.7
2025-11-26T1200,1299A,116.9862,36.6114,济南市,科干所,,,97,72,32,21,66,66,65,65,,15,,10,0.5,0.4
2025-11-26T1200,1300A,116.9376,36.665,济南市,农科所,颗粒物(PM10),79,107,86,39,18,57,57,58,57,26,20,12,10,0.6,0.5
2025-11-26T1200,1301A,117.1265,36.6734,济南市,开发区,颗粒物(PM10),70,90,70,27,21,73,73,68,68,15,13,7,5,0.6,0.6
2025-11-26T1200,1303A,117.0624,36.6868,济南市,省种子仓库,颗粒物(PM10),79,107,78,34,20,66,66,66,65,20,17,10,8,0.6,0.5
2025-11-26T1200,1304A,116.9489,36.6447,济南市,机床二厂,颗粒物(PM10),85,120,101,44,26,56,56,57,56,31,26,15,13,0.4,0.3
2025-11-26T1200,1305A,117.0495,36.663,济南市,市监测站,颗粒物(PM10),75,100,79,44,21,66,66,65,65,21,15,6,5,0.4,0.3
2025-11-26T1200,1306A,116.7675,36.5484,济南市,长清党校,颗粒物(PM10),89,127,83,44,22,63,63,55,55,22,19,14,11,0.7,0.6
2025-11-26T1200,1616A,117.6795,36.229,济南市,技术学院,颗粒物(PM10),90,129,81,48,34,63,63,23,23,24,46,19,19,0.8,0.9
2025-11-26T1200,1961A,117.532,36.6868,济南市,东山小学,,,,81,,22,61,61,63,63,16,17,,10,0.6,0.5
2025-11-26T1200,3059A,117.7161,36.2049,济南市,泰兴公司,颗粒物(PM10),87,124,92,46,42,71,71,25,25,20,45,15,14,0.3,0.6
2025-11-26T1200,3064A,117.6867,36.2171,济南市,莱芜战役纪念馆,颗粒物(PM10),81,112,82,47,40,61,61,34,34,25,44,25,24,1.0,1.1
2025-11-26T1200,3494A,117.1673,36.9782,济南市,济阳区政府,颗粒物(PM10),92,134,89,42,25,59,59,34,34,25,38,15,12,0.6,0.5
2025-11-26T1200,3495A,117.1171,36.63,济南市,锦屏中学,颗粒物(PM10),67,83,70,24,15,75,75,69,69,16,16,6,5,0.6,0.5
2025-11-26T1200,3682A,116.9814,36.6819,济南市,济南四建,,,139,81,,21,58,58,58,57,,18,,8,0.7,0.6
2025-11-26T1200,1653A,116.6251,35.4302,济宁市,火炬城,细颗粒物(PM2.5),83,110,87,61,45,67,67,35,35,22,30,8,7,0.1,0.1
2025-11-26T1200,1655A,116.5491,35.4042,济宁市,电化厂,颗粒物(PM10),116,181,113,68,38,66,66,47,47,28,27,7,6,0.1,0.1
2025-11-26T1200,3500A,116.5814,35.3707,济宁市,北湖一中,,,119,74,58,39,66,66,42,42,24,27,6,5,,0.4
2025-11-26T1200,3501A,116.8249,35.5593,济宁市,服务中心,颗粒物(PM10),97,144,108,45,43,56,56,31,31,27,31,8,8,0.2,0.2
2025-11-26T1200,3678A,116.5907,35.4054,济宁市,市第七中学,,,,86,,33,,,40,40,25,36,7,7,0.3,0.4
2025-11-26T1200,2255A,130.2751,46.8028,佳木斯市,佳纺,颗粒物(PM10),72,94,104,38,50,20,20,9,9,24,33,10,7,0.6,0.7
2025-11-26T1200,2256A,130.3995,46.8307,佳木斯市,发电厂,颗粒物(PM10),65,80,76,26,35,20,20,9,9,15,28,5,5,0.5,0.6
2025-11-26T1200,2257A,130.3258,46.7975,佳木斯市,环保局,颗粒物(PM10),73,96,85,49,50,18,18,8,8,24,33,8,6,0.6,0.9
2025-11-26T1200,2258A,130.3648,46.8032,佳木斯市,十一中,,,,85,,50,25,25,11,11,,35,6,10,0.6,0.7
2025-11-26T1200,2259A,130.3794,46.7588,佳木斯市,四丰,,,,,,,,,,,,,,,,
2025-11-26T1200,1252A,120.7436,30.778,嘉兴市,清河小学,颗粒物(PM10),77,103,111,34,32,66,66,22,22,29,42,7,6,0.6,0.8
2025-11-26T1200,1253A,120.726,30.7478,嘉兴市,嘉兴学院,颗粒物(PM10),76,101,104,39,33,69,69,22,22,30,46,8,7,0.4,0.5
2025-11-26T1200,2872A,120.7846,30.7525,嘉兴市,南湖区残联,,,101,106,52,36,74,74,20,20,32,46,,9,0.2,0.4
2025-11-26T1200,3407A,120.6916,30.7739,嘉兴市,秀洲住建,颗粒物(PM10),74,97,101,40,37,69,69,21,21,28,43,8,7,0.5,0.5
2025-11-26T1200,1945A,98.2908,39.7711,嘉峪关市,气象局,颗粒物(PM10),97,144,262,14,25,95,95,95,95,1,2,14,9,0.5,0.5
2025-11-26T1200,2884A,98.2672,39.7978,嘉峪关市,酒钢宾馆,颗粒物(PM10),57,63,189,9,23,93,93,90,90,2,3,10,12,0.3,0.2
2025-11-26T1200,3248A,98.2643,39.7724,嘉峪关市,雄关区,颗粒物(PM10),79,107,196,19,32,92,92,91,91,6,6,11,10,0.5,0.5
2025-11-26T1200,1383A,113.1064,22.6058,江门市,北街,颗粒物(PM10),76,101,59,33,30,101,101,70,70,25,31,8,8,0.5,0.5
2025-11-26T1200,1384A,113.0731,22.5835,江门市,西区,,,49,66,31,22,100,100,64,64,24,29,,8,0.5,0.4
2025-11-26T1200,1385A,113.0219,22.5311,江门市,圭峰西,颗粒物(PM10),71,92,54,32,25,96,96,75,75,27,24,6,6,0.4,0.4
2025-11-26T1200,1386A,113.0828,22.5947,江门市,东湖,颗粒物(PM10),66,82,54,36,26,102,102,69,69,24,27,10,10,0.4,0.4
2025-11-26T1200,3311A,113.1075,22.5647,江门市,江海富民,颗粒物(PM10),70,89,56,30,19,101,101,68,68,30,31,12,12,0.6,0.6
2025-11-26T1200,3449A,113.05,22.4667,江门市,新会银湖,,,97,61,35,29,91,91,57,57,,30,7,7,,0.3
2025-11-26T1200,1830A,113.1992,35.2590,焦作市,影视城,,,,75,,24,,,66,,,19,,16,,0.4
2025-11-26T1200,3335A,113.3137,35.2641,焦作市,马村街道办,颗粒物(PM10),58,65,97,27,36,76,76,42,42,11,19,10,11,0.5,0.5
2025-11-26T1200,3336A,113.2465,35.2373,焦作市,焦作技师学院,颗粒物(PM10),63,75,91,24,30,70,70,42,42,16,26,14,12,0.8,0.7
2025-11-26T1200,3477A,113.1656,35.2539,焦作市,中站许衡医院,颗粒物(PM10),60,69,84,27,35,73,73,52,52,14,24,8,9,0.6,0.5
2025-11-26T1200,3981A,113.2449,35.1803,焦作市,原李万街道办,颗粒物(PM10),86,121,107,39,34,41,41,31,31,30,22,10,9,0.8,0.6
2025-11-26T1200,4264A,113.2340,35.2190,焦作市,新安路1731号,颗粒物(PM10),74,98,102,40,38,66,66,47,47,22,31,16,16,0.8,0.6
2025-11-26T1200,4295A,113.2722,35.2121,焦作市,人民路3066号,,,,96,,28,65,65,39,39,13,28,11,8,0.8,0.6
2025-11-26T1200,1708A,116.3701,23.5345,揭阳市,新兴,颗粒物(PM10),57,63,54,30,28,102,102,55,55,13,24,12,13,0.4,0.5
2025-11-26T1200,1709A,116.3264,23.5443,揭阳市,西马,颗粒物(PM10),61,71,63,34,33,67,67,33,33,22,30,7,6,0.5,0.5
2025-11-26T1200,1710A,116.3611,23.5626,揭阳市,东兴,颗粒物(PM10),65,80,59,25,25,98,98,34,34,18,32,10,11,0.4,0.5
2025-11-26T1200,1711A,116.4151,23.5294,揭阳市,渔湖,颗粒物(PM10),51,51,52,26,27,104,104,65,65,12,22,11,8,0.5,0.5
2025-11-26T1200,3320A,116.403,23.5699,揭阳市,曲溪,颗粒物(PM10),53,55,55,33,29,105,105,66,66,11,23,7,8,0.4,0.4
2025-11-26T1200,1944A,102.1692,38.5167,金昌市,天庆家园,颗粒物(PM10),125,200,272,46,37,62,62,71,64,5,5,2,2,0.4,0.4
2025-11-26T1200,4022A,102.1647,38.5371,金昌市,金川区人防中心,颗粒物(PM10),135,219,308,66,44,74,74,84,77,,3,2,2,0.5,0.5
2025-11-26T1200,4239A,102.1930,38.5319,金昌市,长春路96号,颗粒物(PM10),125,199,240,43,52,64,64,75,68,4,4,4,5,0.4,0.5
2025-11-26T1200,1262A,119.647,29.077,金华市,十五中,颗粒物(PM10),102,153,167,46,42,68,68,24,24,29,42,5,4,0.4,0.4
2025-11-26T1200,1263A,119.686,29.1029,金华市,监测站,颗粒物(PM10),105,160,168,52,46,,,11,11,25,39,5,4,0.6,0.4
2025-11-26T1200,3659A,119.656,29.1131,金华市,气象局,颗粒物(PM10),106,162,161,46,40,63,63,18,18,,53,6,5,0.4,0.3
2025-11-26T1200,1767A,121.1115,41.0879,锦州市,南山,颗粒物(PM10),55,60,41,33,25,48,48,27,27,30,44,11,15,0.5,0.8
2025-11-26T1200,1768A,121.0604,40.8428,锦州市,开发区,颗粒物(PM10),76,101,60,36,22,38,38,15,15,39,46,20,22,0.8,0.8
2025-11-26T1200,1769A,121.1836,41.1119,锦州市,百股街道,颗粒物(PM10),56,61,44,24,28,47,47,23,23,28,42,14,14,0.8,0.9
2025-11-26T1200,1770A,121.1178,41.1222,锦州市,天安街道,颗粒物(PM10),53,55,46,23,24,51,51,18,18,21,38,14,14,0.8,1
2025-11-26T1200,1771A,121.1303,41.1386,锦州市,北湖公园,颗粒物(PM10),57,64,44,24,25,50,50,20,20,23,41,14,13,0.7,0.7
2025-11-26T1200,2160A,112.85,35.5051,晋城市,自来水公司,,,91,105,19,36,72,72,29,29,,29,,12,0.6,1.3
2025-11-26T1200,2161A,112.8318,35.4936,晋城市,白云商贸,,,,108,,27,70,70,24,24,14,37,3,4,,0.9
2025-11-26T1200,2162A,112.8508,35.4887,晋城市,市环保局,颗粒物(PM10),57,64,109,22,36,76,76,26,26,5,33,7,9,0.3,0.8
2025-11-26T1200,2163A,112.8676,35.4897,晋城市,技术学院,颗粒物(PM10),67,83,106,14,37,66,66,22,22,13,51,8,11,0.4,0.9
2025-11-26T1200,2165A,112.8453,35.546,晋城市,白马寺,颗粒物(PM10),58,66,77,30,33,82,82,62,62,10,18,10,13,0.3,0.8
2025-11-26T1200,3620A,112.8271,35.4828,晋城市,泽州一中,,,78,101,22,33,81,81,37,37,,33,6,7,0.4,0.8
2025-11-26T1200,2173A,112.7249,37.7067,晋中市,南都小区,颗粒物(PM10),93,135,117,52,40,40,40,15,15,46,50,41,23,1.2,1
2025-11-26T1200,2174A,112.6991,37.6982,晋中市,榆次区政府,颗粒物(PM10),103,156,126,68,51,35,35,12,12,47,51,44,23,1.1,1
2025-11-26T1200,2865A,112.7195,37.6828,晋中市,榆次三中,颗粒物(PM10),103,156,125,58,41,37,37,11,11,43,49,42,20,1.6,1.1
2025-11-26T1200,4200A,112.7478,37.6954,晋中市,迎宾街26号,颗粒物(PM10),106,161,116,63,43,39,39,17,17,43,46,42,22,1.6,0.8
2025-11-26T1200,2439A,112.2014,31.0481,荆门市,竹园小学,颗粒物(PM10),73,95,98,45,34,67,67,37,37,24,30,3,5,0.1,0.2
2025-11-26T1200,2440A,112.1969,30.9891,荆门市,掇刀,颗粒物(PM10),79,108,102,43,34,77,77,40,40,22,25,3,1,0.4,0.4
2025-11-26T1200,2441A,112.2213,31.0386,荆门市,石化一小,颗粒物(PM10),90,129,113,45,40,70,70,32,32,26,37,8,13,0.4,0.5
2025-11-26T1200,3012A,112.1849,31.0362,荆门市,西山林语,颗粒物(PM10),70,89,81,36,30,67,67,43,42,23,19,7,5,0.7,0.6
2025-11-26T1200,3547A,112.1632,31.0138,荆门市,龙泉中学南校,颗粒物(PM10),81,111,102,47,38,63,63,44,42,24,19,9,7,0.2,0.2
2025-11-26T1200,1844A,112.2494,30.3197,荆州市,市图书馆,细颗粒物(PM2.5),67,81,87,48,38,72,72,44,44,22,27,10,8,0.7,0.6
2025-11-26T1200,1845A,112.2008,30.3544,荆州市,市委党校,细颗粒物(PM2.5),72,90,88,52,36,55,55,36,34,34,31,8,6,0.6,0.6
2025-11-26T1200,3194A,112.2747,30.3122,荆州市,管委会,,,67,86,,40,74,74,42,42,18,26,10,9,0.6,0.6
2025-11-26T1200,4268A,112.1722,30.3366,荆州市,学苑路85号,颗粒物(PM10),70,90,79,50,34,65,65,39,34,33,29,1,2,0.7,0.7
2025-11-26T1200,2342A,117.3102,29.3867,景德镇市,王港中学,,,,,,,,,,,,,,,,
2025-11-26T1200,2343A,117.2117,29.2933,景德镇市,老干部活动中心,颗粒物(PM10),71,92,92,34,32,54,54,20,20,6,15,6,6,0.5,0.4
2025-11-26T1200,2344A,117.1894,29.2789,景德镇市,兽医站,颗粒物(PM10),81,111,109,25,27,60,60,22,22,14,26,7,8,0.3,0.3
2025-11-26T1200,2346A,117.2461,29.2956,景德镇市,陶研所,颗粒物(PM10),63,76,76,32,32,61,61,18,18,2,17,4,4,0.4,0.4
2025-11-26T1200,4289A,117.1542,29.2566,景德镇市,青少年活动中心,颗粒物(PM10),73,96,112,20,31,64,64,23,23,11,32,3,12,0.4,0.5
2025-11-26T1200,1803A,115.9872,29.6815,九江市,十里,颗粒物(PM10),69,88,99,23,37,70,70,21,21,29,40,7,6,0.6,0.6
2025-11-26T1200,1804A,115.9584,29.7046,九江市,茅山头,,,,99,,32,56,56,20,20,30,37,6,4,,0.6
2025-11-26T1200,1805A,115.9877,29.7295,九江市,西园,颗粒物(PM10),68,86,93,28,30,73,73,29,29,28,44,6,5,0.6,0.5
2025-11-26T1200,1808A,115.9114,29.6038,九江市,综合工业园,颗粒物(PM10),68,85,99,22,35,61,61,29,29,24,32,4,3,0.4,0.3
2025-11-26T1200,1809A,116.0721,29.7535,九江市,石化总厂,颗粒物(PM10),75,100,122,23,30,61,61,26,26,36,36,10,4,0.6,0.4
2025-11-26T1200,1810A,115.9773,29.5698,九江市,庐山气象台,,,,,,,,,,,,,,,,
2025-11-26T1200,3190A,116.0254,29.6994,九江市,外国语学校,颗粒物(PM10),69,88,95,31,31,42,42,16,16,45,38,6,5,0.8,0.7
2025-11-26T1200,4253A,116.0102,29.6594,九江市,莲花大道8号,颗粒物(PM10),71,92,96,32,27,56,56,38,38,42,22,8,5,0.5,0.4
2025-11-26T1200,4240A,98.4958,39.7339,酒泉市,玉门东路5号,颗粒物(PM10),96,141,350,14,42,80,80,85,85,6,5,8,11,0.4,0.4
2025-11-26T1200,4241A,98.5099,39.7506,酒泉市,北大街108号,颗粒物(PM10),141,232,508,22,48,88,88,82,82,1,3,6,9,0.1,0.2
2025-11-26T1200,2698A,76.0072,39.4467,喀什地区,巡警大队,颗粒物(PM10),147,244,194,77,60,12,12,41,7,59,45,8,6,1.5,1
2025-11-26T1200,2699A,75.9755,39.4694,喀什地区,吾办,颗粒物(PM10),192,334,184,132,59,12,12,32,13,74,52,17,14,2.0,1.2
2025-11-26T1200,4027A,75.9483,39.4689,喀什地区,老干局,颗粒物(PM10),232,372,180,112,49,9,9,51,23,71,31,12,4,2.6,1.2
2025-11-26T1200,1824A,114.3389,34.7781,开封市,肿瘤医院,颗粒物(PM10),99,147,145,41,42,53,53,18,18,26,35,13,10,0.7,0.5
2025-11-26T1200,1826A,114.2885,34.7965,开封市,世纪星幼儿园,,,,139,,45,57,57,17,17,20,32,14,9,0.7,0.6
2025-11-26T1200,3147A,114.3438,34.8106,开封市,龙亭公园,颗粒物(PM10),91,131,140,33,43,52,52,21,21,28,35,13,22,1.1,0.9
2025-11-26T1200,3210A,114.3644,34.7964,开封市,汴京公园,颗粒物(PM10),87,124,149,40,46,42,42,15,15,36,42,13,10,0.6,0.4
2025-11-26T1200,3473A,114.2485,34.8306,开封市,技师学院,颗粒物(PM10),74,98,131,31,41,56,56,19,19,28,37,12,10,0.9,0.7
2025-11-26T1200,3592A,114.4644,34.7556,开封市,祥符区生态环境局,颗粒物(PM10),98,145,158,57,48,45,45,22,22,45,43,11,7,0.5,0.4
2025-11-26T1200,1951A,84.895,45.6094,克拉玛依市,长征新村,,49,45,41,34,26,14,14,36,21,36,23,6,6,0.5,0.5
2025-11-26T1200,1952A,84.8988,45.5893,克拉玛依市,南林小区,,47,47,45,23,18,14,14,38,24,29,18,2,2,0.3,0.3
2025-11-26T1200,1954A,84.905,44.3396,克拉玛依市,独山子区,颗粒物(PM10),59,67,38,40,20,6,6,35,16,31,25,6,6,0.7,0.5
2025-11-26T1200,1955A,85.6979,46.098,克拉玛依市,乌尔禾区商贸楼,,30,30,36,21,22,30,30,37,30,14,14,6,6,0.3,0.4
2025-11-26T1200,3612A,85.1045,45.6899,克拉玛依市,白碱滩区新站,,28,,37,19,27,55,55,45,39,11,16,5,6,0.2,0.3
2025-11-26T1200,2697A,76.1454,39.7142,克孜勒苏柯尔克孜自治州,市人民政府,颗粒物(PM10),66,81,152,37,57,50,50,70,55,13,22,48,10,0.3,0.3
2025-11-26T1200,3665A,76.1658,39.7157,克孜勒苏柯尔克孜自治州,克州文化中心,颗粒物(PM10),82,114,150,29,51,45,45,75,58,22,22,19,9,1.0,0.8
2025-11-26T1200,1450A,102.8204,24.8886,昆明市,呈贡新区,细颗粒物(PM2.5),72,,61,52,50,74,74,15,15,24,44,10,6,0.9,0.6
2025-11-26T1200,1451A,102.6251,24.9608,昆明市,西山森林公园,,,,,,,,,,,,,,,,
2025-11-26T1200,1452A,102.7252,25.0902,昆明市,龙泉镇,,42,37,50,29,27,65,65,18,18,23,38,5,3,0.6,0.6
2025-11-26T1200,1453A,102.7266,25.0375,昆明市,东风东路,,,,63,41,30,51,51,11,11,41,41,,3,,0.5
2025-11-26T1200,1454A,102.6742,25.0669,昆明市,金鼎山,颗粒物(PM10),55,59,74,38,31,60,60,39,39,30,35,7,3,0.8,0.6
2025-11-26T1200,1455A,102.6644,25.0401,昆明市,碧鸡广场,颗粒物(PM10),65,79,58,45,32,62,62,30,30,32,41,14,5,1.1,0.5
2025-11-26T1200,3179A,102.7494,25.0119,昆明市,官渡区博物馆,颗粒物(PM10),61,72,75,40,32,46,46,11,11,53,48,6,4,0.7,0.6
2025-11-26T1200,3375A,102.8017,24.8336,昆明市,青年创业园,颗粒物(PM10),56,61,56,39,24,78,78,20,20,13,32,9,5,0.8,0.5
2025-11-26T1200,3550A,102.7997,24.9786,昆明市,昆明学院,颗粒物(PM10),70,90,82,47,37,50,50,14,14,50,45,7,3,0.7,0.5
2025-11-26T1200,3551A,102.5967,24.6736,昆明市,晋宁区生态环境分局,,45,45,59,29,37,85,85,30,30,18,30,6,3,0.8,0.6
2025-11-26T1200,3552A,102.6678,24.9856,昆明市,云天化总部,颗粒物(PM10),66,81,58,39,26,46,46,22,22,46,46,10,7,0.9,0.7
2025-11-26T1200,1456A,91.1319,29.6514,拉萨市,八廓街,,27,20,23,13,15,84,84,72,66,10,15,10,9,0.3,0.3
2025-11-26T1200,1457A,91.1221,29.6747,拉萨市,市环保局,,30,30,24,7,14,61,61,47,46,14,18,12,8,0.6,0.7
2025-11-26T1200,1458A,91.0874,29.6475,拉萨市,区监测站,,24,24,15,13,10,73,73,66,60,15,21,8,7,0.5,0.5
2025-11-26T1200,1459A,91.1774,29.6541,拉萨市,西藏大学,,25,25,19,9,9,63,63,63,55,14,16,12,7,0.0,0.2
2025-11-26T1200,1460A,90.9798,29.6588,拉萨市,区辐射站,,34,34,31,16,17,67,67,58,46,21,31,6,7,0.4,0.6
2025-11-26T1200,1461A,91.0834,29.6292,拉萨市,拉萨火车站,,38,38,23,13,11,64,64,50,47,14,17,9,7,0.6,0.6
2025-11-26T1200,2520A,109.2203,23.7256,来宾市,来宾技工学校,颗粒物(PM10),69,87,60,24,28,80,80,58,58,13,19,18,11,0.6,0.6
2025-11-26T1200,3535A,109.1781,23.7297,来宾市,兴宾区政府,,49,49,52,31,26,87,87,43,43,10,10,13,6,0.5,0.4
2025-11-26T1200,4002A,109.2416,23.7461,来宾市,中南小学,颗粒物(PM10),55,60,60,26,28,83,83,54,54,11,19,18,10,0.7,0.6
2025-11-26T1200,1477A,104.1373,35.9454,兰州市,榆中兰大校区,,,,,,,,,,,,,,,,
2025-11-26T1200,1479A,103.831,36.0464,兰州市,铁路设计院,,,,,,,,,,,,,,,,
2025-11-26T1200,3241A,103.7439,36.0842,兰州市,百合公园,,,,103,,62,56,56,12,12,22,61,14,13,,1.3
2025-11-26T1200,3242A,103.9611,35.998,兰州市,和平,颗粒物(PM10),106,161,98,43,51,62,62,34,34,17,39,9,9,0.8,1.1
2025-11-26T1200,4236A,103.6293,36.0938,兰州市,庄浪东路808号,颗粒物(PM10),103,155,106,57,59,36,36,13,13,63,72,16,14,1.3,1.2
2025-11-26T1200,4237A,103.7251,36.1043,兰州市,安宁西路88号,颗粒物(PM10),112,174,119,32,61,71,71,16,16,19,62,7,10,0.5,1.1
2025-11-26T1200,4238A,103.8470,36.0676,兰州市,北滨河东路1号,颗粒物(PM10),96,141,100,56,51,31,31,8,8,53,63,21,13,2.0,1.4
2025-11-26T1200,3245A,103.6633,36.533,兰州新区,新区管委会,颗粒物(PM10),74,97,91,40,43,72,72,62,62,11,18,12,9,0.4,0.5
2025-11-26T1200,3246A,103.6975,36.4789,兰州新区,舟曲中学,颗粒物(PM10),91,132,102,31,40,90,90,62,62,7,31,11,11,0.2,0.5
2025-11-26T1200,1067A,116.6708,39.5111,廊坊市,药材公司,"颗粒物(PM10),细颗粒物(PM2.5)",72,94,72,52,40,15,15,5,5,57,47,12,8,0.7,0.6
2025-11-26T1200,1068A,116.7214,39.5589,廊坊市,开发区,,,87,82,,40,,,2,2,,45,7,5,,0.5
2025-11-26T1200,1070A,116.7244,39.5269,廊坊市,北华航天学院,颗粒物(PM10),74,97,78,52,41,17,17,6,6,54,47,7,5,0.6,0.5
2025-11-26T1200,2919A,116.7022,39.5453,廊坊市,河北工业大学,颗粒物(PM10),77,103,79,53,40,16,16,5,5,50,42,8,8,0.6,0.5
2025-11-26T1200,2535A,103.7723,29.5462,乐山市,花湖湾,,,,,,,,,,,,,,,,
2025-11-26T1200,2536A,103.7627,29.5844,乐山市,牛耳桥,细颗粒物(PM2.5),102,91,97,76,83,27,27,10,10,28,33,7,7,0.8,0.9
2025-11-26T1200,2537A,103.7508,29.6006,乐山市,市第三水厂,细颗粒物(PM2.5),79,89,92,58,62,25,25,11,11,33,38,6,6,0.8,0.9
2025-11-26T1200,2538A,103.7571,29.5664,乐山市,市监测站,细颗粒物(PM2.5),95,88,98,71,79,30,30,9,9,27,31,7,6,0.9,1
2025-11-26T1200,3361A,103.7311,29.5628,乐山市,理工大学,细颗粒物(PM2.5),90,87,92,67,75,36,36,11,11,29,33,8,7,0.7,0.9
2025-11-26T1200,2598A,100.2143,26.8576,丽江市,西南郊,,45,45,33,21,20,11,11,32,23,3,9,2,5,0.6,0.9
2025-11-26T1200,2599A,100.2497,26.8802,丽江市,丽江古城,,45,,37,31,22,71,71,48,40,12,14,8,9,0.6,0.6
2025-11-26T1200,2600A,100.2203,26.8906,丽江市,市中心,,35,35,30,20,23,70,70,41,33,13,16,8,9,0.4,0.5
2025-11-26T1200,1267A,119.914,28.4514,丽水市,监测站大楼,,,116,98,37,31,75,75,27,27,,26,6,5,0.5,0.5
2025-11-26T1200,1268A,119.93,28.4586,丽水市,莲都小学,颗粒物(PM10),87,124,114,42,32,72,72,30,30,22,23,6,5,0.5,0.5
2025-11-26T1200,1269A,119.879,28.4231,丽水市,余庄前,颗粒物(PM10),83,116,89,48,37,82,82,23,23,25,18,5,4,0.4,0.3
2025-11-26T1200,1173A,119.176,34.5885,连云港市,市环境监测站,颗粒物(PM10),73,95,68,31,36,53,53,31,31,29,42,13,11,1.0,1
2025-11-26T1200,3000A,119.3581,34.6972,连云港市,德源药业,颗粒物(PM10),68,85,70,31,25,52,52,33,33,23,45,7,6,0.6,0.4
2025-11-26T1200,3007A,119.178,34.844,连云港市,新城一中,颗粒物(PM10),61,72,66,39,32,51,51,40,40,32,41,10,9,0.8,0.7
2025-11-26T1200,3008A,119.3608,34.7519,连云港市,胡沟管理处,颗粒物(PM10),67,83,49,34,17,57,57,55,55,21,25,11,9,0.7,0.5
2025-11-26T1200,3009A,119.1478,34.5911,连云港市,矿山设计院,颗粒物(PM10),70,90,66,27,31,56,56,36,36,16,21,7,7,0.6,0.5
2025-11-26T1200,3434A,119.2413,34.6539,连云港市,工贸学校,颗粒物(PM10),73,96,56,37,21,60,60,59,59,19,11,12,11,0.8,0.6
2025-11-26T1200,3664A,119.4172,34.7341,连云港市,连云街道,颗粒物(PM10),71,92,60,31,22,69,69,65,65,15,13,7,7,0.4,0.4
2025-11-26T1200,2571A,102.3431,27.8099,凉山彝族自治州,青龙寺,,,,,,,,,,,,,,,,
2025-11-26T1200,2572A,102.2721,27.8415,凉山彝族自治州,邛海宾馆,,31,31,30,20,22,54,54,36,36,11,11,7,8,0.8,0.7
2025-11-26T1200,2573A,102.2625,27.898,凉山彝族自治州,西昌市政府,,45,41,33,31,22,47,47,42,37,28,14,12,10,1.1,0.9
2025-11-26T1200,2574A,102.2685,27.8851,凉山彝族自治州,凉山州政府,颗粒物(PM10),52,53,42,29,28,21,21,13,13,18,15,11,11,0.8,0.8
2025-11-26T1200,4229A,102.2342,27.8859,凉山彝族自治州,凯乐南路30号,颗粒物(PM10),52,53,41,29,23,41,41,10,10,34,27,10,8,0.9,0.9
2025-11-26T1200,2212A,123.2,41.1953,辽阳市,宏伟区,,,,53,,37,53,53,48,48,13,19,7,7,0.4,0.7
2025-11-26T1200,2213A,123.1683,41.2495,辽阳市,新华园,颗粒物(PM10),62,74,66,22,39,47,47,39,39,19,28,6,5,0.4,0.7
2025-11-26T1200,2214A,123.2354,41.2639,辽阳市,滨河路,颗粒物(PM10),53,55,57,21,36,50,50,42,42,16,24,8,7,0.7,0.8
2025-11-26T1200,2215A,123.149,41.2991,辽阳市,铁西工业园,颗粒物(PM10),69,88,61,29,40,47,47,37,37,17,27,13,9,1.0,1
2025-11-26T1200,2227A,125.1358,42.8845,辽源市,环保局,颗粒物(PM10),62,73,163,30,104,65,65,37,37,12,33,5,5,0.6,1
2025-11-26T1200,3239A,125.0764,42.9078,辽源市,银鹰制药,,,,112,,91,62,62,23,23,14,38,5,6,0.6,1
2025-11-26T1200,1625A,115.9848,36.4372,聊城市,区政府,颗粒物(PM10),94,138,95,51,31,51,51,37,37,31,31,14,11,0.7,0.5
2025-11-26T1200,2878A,116.0072,36.4343,聊城市,聊大东校,细颗粒物(PM2.5),140,151,105,107,48,49,49,33,33,27,29,14,10,0.7,0.5
2025-11-26T1200,3200A,115.9819,36.4978,聊城市,监控中心,,,141,102,66,32,53,53,40,38,26,24,,11,0.9,0.7
2025-11-26T1200,3513A,116.0445,36.4361,聊城市,九州社区,颗粒物(PM10),98,146,99,53,35,57,57,41,41,23,26,5,4,0.7,0.6
2025-11-26T1200,4018A,116.0567,36.4608,聊城市,星美广场,颗粒物(PM10),95,139,102,50,32,54,54,39,39,23,22,5,4,0.5,0.4
2025-11-26T1200,2632A,94.3681,29.6376,林芝市,林芝监测站,,,12,10,6,6,,,70,55,5,4,3,3,0.3,0.2
2025-11-26T1200,2633A,94.3616,29.6616,林芝市,林芝人民医院,,19,15,14,6,6,60,60,65,54,7,4,2,2,0.4,0.3
2025-11-26T1200,2603A,100.0781,23.8982,临沧市,市环保局,,46,33,26,32,32,63,63,25,25,10,6,10,6,0.8,0.7
2025-11-26T1200,2604A,100.0894,23.8822,临沧市,市气象局,,32,32,29,20,19,65,65,27,27,11,10,13,10,0.4,0.5
2025-11-26T1200,1733A,111.5531,36.0783,临汾市,临钢医院,颗粒物(PM10),105,160,115,64,36,25,25,10,10,42,37,10,3,1.3,0.9
2025-11-26T1200,1734A,111.5028,36.0714,临汾市,技工学校,颗粒物(PM10),106,161,119,70,43,27,27,9,9,42,45,13,6,1.1,0.9
2025-11-26T1200,1736A,111.5018,36.0855,临汾市,市委,颗粒物(PM10),108,165,130,60,41,27,27,10,10,40,45,16,10,1.3,0.9
2025-11-26T1200,3018A,111.505,36.1014,临汾市,唐尧大酒店,颗粒物(PM10),97,144,130,69,42,29,29,10,10,35,39,9,4,1.2,0.9
2025-11-26T1200,4244A,111.4879,36.0530,临汾市,启星学校,颗粒物(PM10),111,171,128,68,46,27,27,6,6,52,44,17,6,1.4,1
2025-11-26T1200,4271A,103.2464,35.6123,临夏回族自治州,滨河东路1号,颗粒物(PM10),98,145,119,60,62,34,34,14,14,14,14,6,6,1.0,1.1
2025-11-26T1200,4310A,103.2093,35.5995,临夏回族自治州,新华街21号,细颗粒物(PM2.5),122,162,137,92,74,47,47,9,9,22,31,11,8,1.0,1.6
2025-11-26T1200,1618A,118.3429,35.0532,临沂市,沂河小区,颗粒物(PM10),93,136,136,56,56,53,53,,,41,41,23,23,0.6,0.6
2025-11-26T1200,1619A,118.295,35.0583,临沂市,鲁南制药厂,颗粒物(PM10),98,146,98,66,52,60,60,24,24,41,55,22,23,0.6,0.6
2025-11-26T1200,1620A,118.2794,34.9976,临沂市,新光毛纺厂,颗粒物(PM10),92,134,97,57,49,60,60,23,23,31,51,20,27,0.6,0.7
2025-11-26T1200,1621A,118.3956,35.0888,临沂市,河东保险公司,颗粒物(PM10),85,119,100,45,51,60,60,29,29,34,59,19,13,0.4,0.5
2025-11-26T1200,3370A,118.3564,35.0215,临沂市,十里堡居委,颗粒物(PM10),90,129,96,36,43,59,59,27,27,37,49,23,24,0.6,0.7
2025-11-26T1200,3496A,118.3604,35.1084,临沂市,南坊新区,颗粒物(PM10),91,132,81,56,40,59,59,29,29,43,46,23,18,0.7,0.7
2025-11-26T1200,3860A,118.3920,35.0300,临沂市,皇山花园小区,颗粒物(PM10),91,132,98,44,46,63,63,29,29,33,50,20,23,0.5,0.5
2025-11-26T1200,1870A,109.4856,24.3895,柳州市,柳东小学,细颗粒物(PM2.5),59,65,57,42,29,95,95,74,74,6,10,9,11,0.3,0.3
2025-11-26T1200,1871A,109.4157,24.3277,柳州市,环保监测站,,50,50,63,26,29,83,83,40,40,9,17,10,10,0.4,0.4
2025-11-26T1200,1872A,109.389,24.341,柳州市,河西水厂,颗粒物(PM10),63,76,82,38,40,82,82,25,25,17,26,14,12,0.5,0.4
2025-11-26T1200,1873A,109.4311,24.2921,柳州市,市四中,颗粒物(PM10),70,89,59,27,19,85,85,64,64,13,16,11,12,0.4,0.4
2025-11-26T1200,1874A,109.4006,24.3631,柳州市,市九中,细颗粒物(PM2.5),65,61,76,47,37,85,85,34,34,15,25,12,10,0.4,0.4
2025-11-26T1200,1875A,109.4958,24.3134,柳州市,古亭山,颗粒物(PM10),53,56,55,19,15,87,87,76,74,7,14,10,13,0.5,0.4
2025-11-26T1200,3402A,109.5422,24.3996,柳州市,市二中,颗粒物(PM10),54,57,51,21,23,89,89,44,44,9,19,9,9,0.6,0.5
2025-11-26T1200,2307A,116.5079,31.737,六安市,监测大楼,,,68,85,21,28,,,30,22,22,23,,4,0.3,0.3
2025-11-26T1200,2308A,116.4738,31.7643,六安市,皖西学院,颗粒物(PM10),61,71,87,19,26,65,65,36,36,22,20,3,3,0.4,0.4
2025-11-26T1200,2309A,116.4996,31.7905,六安市,朝阳厂,颗粒物(PM10),52,53,75,15,27,70,70,38,38,18,25,4,4,0.3,0.3
2025-11-26T1200,2310A,116.5567,31.7886,六安市,开发区,颗粒物(PM10),78,106,110,47,40,66,66,30,30,39,37,3,3,0.4,0.3
2025-11-26T1200,2576A,104.8,26.5892,六盘水市,窑上,颗粒物(PM10),56,61,30,34,20,75,75,50,50,22,7,11,6,0.6,0.4
2025-11-26T1200,2577A,104.83,26.5917,六盘水市,黄土坡,颗粒物(PM10),52,54,36,31,17,74,74,41,41,30,19,14,6,0.7,0.4
2025-11-26T1200,2578A,104.89,26.5939,六盘水市,水钢,细颗粒物(PM2.5),64,74,58,46,34,62,62,25,25,40,25,38,17,3.1,0.8
2025-11-26T1200,2579A,104.8475,26.5894,六盘水市,民中,,,,44,,25,,,19,18,42,31,16,12,0.9,0.7
2025-11-26T1200,2580A,104.9544,26.5506,六盘水市,双水,颗粒物(PM10),54,58,42,30,24,85,85,37,37,21,18,9,9,0.5,0.6
2025-11-26T1200,2335A,117.0189,25.1181,龙岩市,龙岩师专,,,,,,,,,,,,,,,,
2025-11-26T1200,2336A,117.0217,25.1033,龙岩市,龙岩市监测站,颗粒物(PM10),52,53,37,20,18,109,109,84,84,9,12,9,13,0.3,0.4
2025-11-26T1200,2337A,117.0258,25.0661,龙岩市,闽西职业技术学院,颗粒物(PM10),54,57,45,24,20,115,115,77,77,6,16,8,9,0.4,0.4
2025-11-26T1200,2338A,117.0196,25.0306,龙岩市,龙岩学院,颗粒物(PM10),57,64,39,22,20,114,114,74,74,8,12,8,7,0.5,0.4
2025-11-26T1200,2665A,105.0822,33.3261,陇南市,汉王镇固水子,,,,,,,,,,,,,,,,
2025-11-26T1200,2885A,104.9339,33.3826,陇南市,滨江中学,细颗粒物(PM2.5),54,54,100,38,47,38,38,13,13,14,40,8,16,0.9,2.1
2025-11-26T1200,3247A,104.955,33.371,陇南市,市总工会,"颗粒物(PM10),细颗粒物(PM2.5)",63,75,95,45,41,37,37,17,17,19,30,6,7,0.8,0.9
2025-11-26T1200,2487A,111.9589,27.8901,娄底市,电视发射台,,,,,,,,,,,,,,,,
2025-11-26T1200,2488A,111.9975,27.725,娄底市,市监测站,细颗粒物(PM2.5),94,128,79,70,40,68,68,19,19,41,33,48,25,1.9,1.1
2025-11-26T1200,2489A,112.0194,27.7314,娄底市,市委党校,细颗粒物(PM2.5),90,126,72,67,33,51,51,21,21,52,24,45,12,2.2,0.7
2025-11-26T1200,2490A,111.9561,27.7569,娄底市,涟钢,颗粒物(PM10),77,104,75,44,35,42,42,30,30,66,22,88,10,4.3,0.9
2025-11-26T1200,2491A,111.9892,27.7044,娄底市,市政府,细颗粒物(PM2.5),93,116,74,69,44,78,78,26,26,18,18,15,11,0.4,1.9
2025-11-26T1200,1893A,105.4324,28.9634,泸州市,九狮山,,,,,,,,,,,,,,,,
2025-11-26T1200,1894A,105.4427,28.9063,泸州市,小市上码头,,,,76,,48,,,11,11,44,27,,10,0.9,0.6
2025-11-26T1200,1895A,105.4241,28.8573,泸州市,兰田宪桥,细颗粒物(PM2.5),94,99,78,70,54,43,43,16,16,26,22,11,8,0.6,0.5
2025-11-26T1200,1896A,105.4379,28.8833,泸州市,市环监站,细颗粒物(PM2.5),93,98,73,69,47,25,25,20,16,47,30,10,8,0.8,0.6
2025-11-26T1200,4272A,105.3689,28.7783,泸州市,纳溪中医医院,细颗粒物(PM2.5),112,96,78,84,55,46,46,10,10,15,14,13,9,0.7,0.6
2025-11-26T1200,2183A,111.1406,37.5211,吕梁市,环保局,颗粒物(PM10),82,114,88,44,25,14,14,7,7,55,49,13,7,0.6,0.6
2025-11-26T1200,2185A,111.1297,37.5136,吕梁市,自来水公司,颗粒物(PM10),94,137,128,45,30,15,15,6,6,50,43,11,11,0.9,0.7
2025-11-26T1200,2867A,111.1283,37.51,吕梁市,马茂庄小学,,,136,112,33,29,,,4,4,53,47,13,9,0.5,0.7
2025-11-26T1200,1812A,112.3931,34.6516,洛阳市,市委党校,颗粒物(PM10),80,109,111,48,51,46,46,17,17,32,43,13,15,0.6,0.7
2025-11-26T1200,1815A,112.494,34.6886,洛阳市,河南林校,颗粒物(PM10),76,102,121,36,47,36,36,14,14,42,47,15,13,0.7,0.7
2025-11-26T1200,1816A,112.3844,34.623,洛阳市,开发区管委会,颗粒物(PM10),70,89,108,37,47,69,69,22,22,19,37,13,14,0.5,0.6
2025-11-26T1200,1817A,112.4267,34.6258,洛阳市,市委新办公区,细颗粒物(PM2.5),88,81,111,65,44,54,54,21,21,26,41,12,12,0.5,0.6
2025-11-26T1200,3340A,112.6005,34.6326,洛阳市,伊滨,颗粒物(PM10),70,90,142,37,49,43,43,15,15,24,38,12,10,0.5,0.6
2025-11-26T1200,3341A,112.4951,34.6332,洛阳市,中移产业园,颗粒物(PM10),69,88,112,41,50,48,48,22,22,34,45,11,12,0.5,0.6
2025-11-26T1200,3593A,112.5736,34.8993,洛阳市,吉利监测站,颗粒物(PM10),62,73,98,34,34,64,64,27,27,22,41,10,8,0.5,0.5
2025-11-26T1200,3635A,112.3677,34.662,洛阳市,河科大西苑校区,颗粒物(PM10),83,115,128,41,51,51,51,14,14,30,40,12,15,0.6,0.9
2025-11-26T1200,3636A,112.4388,34.6781,洛阳市,英才小学,细颗粒物(PM2.5),88,77,132,65,63,32,32,7,7,41,53,13,16,0.8,1
2025-11-26T1200,4214A,112.4600,34.6949,洛阳市,春都路1号院,颗粒物(PM10),92,133,150,47,48,28,28,7,7,45,47,14,15,0.8,0.9
2025-11-26T1200,2399A,114.051,33.5699,漯河市,三五一五工厂,颗粒物(PM10),81,112,149,40,47,64,64,34,34,12,29,10,7,0.5,0.4
2025-11-26T1200,2400A,114.0055,33.5698,漯河市,漯河大学,颗粒物(PM10),73,96,134,39,43,68,68,41,41,19,30,9,7,0.5,0.4
2025-11-26T1200,2401A,114.0138,33.5828,漯河市,市水利局,,,92,125,29,38,,,40,40,18,27,,8,0.3,0.3
2025-11-26T1200,2402A,114.0261,33.5698,漯河市,市广电局,,,,136,,40,65,65,33,33,13,30,,7,0.4,0.4
2025-11-26T1200,3478A,113.9749,33.5664,漯河市,市图书馆,颗粒物(PM10),81,112,150,42,45,58,58,43,43,16,26,8,5,0.5,0.4
2025-11-26T1200,4250A,114.0892,33.5882,漯河市,韶山路11号,颗粒物(PM10),78,105,148,43,46,60,60,31,31,18,35,10,8,0.3,0.3
2025-11-26T1200,1798A,118.5092,31.6837,马鞍山市,湖东路四小,颗粒物(PM10),97,144,105,38,40,67,67,22,22,22,41,6,5,0.6,0.7
2025-11-26T1200,1799A,118.5024,31.6449,马鞍山市,开发区,颗粒物(PM10),89,128,118,46,49,64,64,22,22,20,41,5,4,0.6,0.8
2025-11-26T1200,1802A,118.6245,31.7241,马鞍山市,濮塘,,,,,,,,,,,,,,,,
2025-11-26T1200,3633A,118.4918,31.6809,马鞍山市,雨山,颗粒物(PM10),94,138,100,45,42,70,70,23,23,20,41,8,7,0.5,0.7
2025-11-26T1200,4191A,118.5274,31.72227,马鞍山市,慈湖高新区,,,,114,,44,64,64,19,19,,41,,7,0.8,0.7
2025-11-26T1200,1686A,111.0286,21.4688,茂名市,电白南海,颗粒物(PM10),59,68,53,22,24,111,111,79,79,11,14,12,13,1.0,1
2025-11-26T1200,1687A,110.9294,21.6533,茂名市,茂石化七小,颗粒物(PM10),60,70,49,24,25,108,108,70,70,10,13,19,16,0.5,0.6
2025-11-26T1200,1688A,110.9107,21.6687,茂名市,健康路,颗粒物(PM10),56,61,48,29,25,113,113,71,71,14,17,15,15,0.3,0.5
2025-11-26T1200,1689A,110.8592,21.6828,茂名市,高岭,颗粒物(PM10),63,75,68,29,29,99,99,57,57,19,22,16,18,0.7,0.7
2025-11-26T1200,3450A,111.01,21.5165,茂名市,电白水东,颗粒物(PM10),56,61,43,27,23,103,103,80,80,11,13,10,14,0.5,0.5
2025-11-26T1200,2539A,104.0308,30.0478,眉山市,黑龙滩水库,,,,,,,,,,,,,,,,
2025-11-26T1200,2540A,103.8416,30.0874,眉山市,气象局,细颗粒物(PM2.5),125,112,102,95,75,15,15,5,5,41,36,12,12,0.8,0.8
2025-11-26T1200,3137A,103.8578,30.0744,眉山市,市委党校,细颗粒物(PM2.5),98,107,90,73,64,15,15,4,4,45,44,6,6,0.7,0.8
2025-11-26T1200,3148A,103.8291,30.0564,眉山市,区人社局,细颗粒物(PM2.5),107,118,94,80,71,14,14,5,5,42,40,7,9,1.2,1.1
2025-11-26T1200,1690A,116.1231,24.3284,梅州市,梅江月梅,颗粒物(PM10),51,52,56,27,25,100,100,52,52,10,21,6,6,0.5,0.5
2025-11-26T1200,1691A,116.0797,24.2719,梅州市,梅县新城,颗粒物(PM10),55,59,59,26,27,103,103,41,41,13,24,9,8,0.4,0.4
2025-11-26T1200,1692A,116.1248,24.2654,梅州市,环境监控中心,颗粒物(PM10),56,62,60,27,30,99,99,38,38,13,33,8,13,0.6,0.6
2025-11-26T1200,3315A,116.1233,24.2991,梅州市,梅龙,颗粒物(PM10),51,51,61,26,28,95,95,51,51,10,17,10,11,0.5,0.5
2025-11-26T1200,1878A,104.7778,31.4741,绵阳市,富乐山,细颗粒物(PM2.5),70,85,91,51,55,61,61,25,25,13,23,11,10,0.4,0.5
2025-11-26T1200,1880A,104.6697,31.4668,绵阳市,高新区自来水公司,颗粒物(PM10),64,78,125,44,68,48,48,9,9,27,41,11,10,0.5,0.7
2025-11-26T1200,1881A,104.7287,31.5075,绵阳市,三水厂,细颗粒物(PM2.5),88,101,104,65,72,52,52,10,10,19,38,13,12,0.5,0.8
2025-11-26T1200,3491A,104.69,31.5322,绵阳市,西科大附属小学,,,70,133,35,72,54,54,9,9,,40,,8,0.4,0.5
2025-11-26T1200,3492A,104.5648,31.5343,绵阳市,安州区旅游局,颗粒物(PM10),67,84,103,34,70,69,69,25,25,18,34,8,11,0.5,0.7
2025-11-26T1200,4226A,104.7651,31.4531,绵阳市,绵阳市气象局,颗粒物(PM10),63,76,99,24,56,45,45,10,10,20,37,9,7,0.5,0.7
2025-11-26T1200,1784A,129.61,44.561,牡丹江市,环保大楼,细颗粒物(PM2.5),64,50,33,46,32,24,24,11,11,38,31,13,8,0.8,0.6
2025-11-26T1200,1785A,129.6115,44.5782,牡丹江市,文化广场,颗粒物(PM10),67,83,73,40,43,21,21,14,14,48,40,15,13,1.1,0.9
2025-11-26T1200,1786A,129.5904,44.5963,牡丹江市,第一医院,细颗粒物(PM2.5),85,84,54,63,50,22,22,12,12,41,30,9,9,0.8,0.8
2025-11-26T1200,1787A,129.6364,44.6075,牡丹江市,机车工厂,颗粒物(PM10),55,59,56,32,31,23,23,12,12,34,31,14,16,0.7,0.6
2025-11-26T1200,1788A,129.6386,44.5462,牡丹江市,第一中学,,,43,26,26,24,,,9,8,33,27,,4,0.6,0.4
2025-11-26T1200,2531A,105.0703,29.61,内江市,市监测站,细颗粒物(PM2.5),77,,59,56,46,55,55,24,24,22,23,3,3,0.6,0.7
2025-11-26T1200,2532A,105.0717,29.5947,内江市,东兴区政府,细颗粒物(PM2.5),67,58,58,48,37,42,42,20,16,31,26,4,3,0.5,0.4
2025-11-26T1200,2533A,105.0653,29.5817,内江市,内江二中,细颗粒物(PM2.5),74,86,69,54,39,49,49,12,12,31,27,5,4,0.7,0.7
2025-11-26T1200,2534A,105.0406,29.5822,内江市,内江日报社,,,59,63,54,42,,,18,13,27,29,3,3,0.4,0.4
2025-11-26T1200,2628A,92.0657,31.4846,那曲市,那曲监测站,颗粒物(PM10),53,55,46,15,28,87,87,44,44,8,26,6,12,0.7,1.5
2025-11-26T1200,4243A,92.0515,31.4787,那曲市,那曲市委宣传部,,29,29,24,8,15,73,73,34,34,6,17,4,6,0.7,1
2025-11-26T1200,1290A,115.8931,28.6843,南昌市,省外办,颗粒物(PM10),66,81,85,34,32,60,60,21,21,36,39,5,4,0.8,0.8
2025-11-26T1200,1291A,115.8886,28.7003,南昌市,省林业公司,颗粒物(PM10),74,97,116,29,33,56,56,19,19,25,33,7,5,0.7,0.7
2025-11-26T1200,1292A,115.8126,28.7442,南昌市,林科所,颗粒物(PM10),80,110,96,22,21,70,70,44,44,21,22,6,4,0.3,0.3
2025-11-26T1200,1294A,115.8518,28.687,南昌市,建工学校,颗粒物(PM10),72,94,116,30,31,65,65,25,25,18,33,13,11,0.6,0.6
2025-11-26T1200,1295A,115.8921,28.6424,南昌市,象湖,颗粒物(PM10),78,105,103,34,34,55,55,20,20,31,34,12,10,0.7,0.7
2025-11-26T1200,1296A,115.7423,28.7996,南昌市,武术学校,,,,,,,,,,,,,,,,
2025-11-26T1200,3046A,115.9084,28.6062,南昌市,机电学校,颗粒物(PM10),98,145,125,39,33,64,64,21,21,33,36,18,9,1.2,0.6
2025-11-26T1200,3690A,115.9721,28.7031,南昌市,外国语学校,,,,118,,32,71,71,28,28,21,36,12,10,0.5,0.5
2025-11-26T1200,4192A,115.9316,28.68677,南昌市,南京东路235号,颗粒物(PM10),84,118,126,31,29,58,58,23,23,36,39,10,8,0.6,0.6
2025-11-26T1200,1905A,106.056,30.8064,南充市,西山风景区,,,,,,,,,,,,,,,,
2025-11-26T1200,1906A,106.0789,30.8023,南充市,南充市委,颗粒物(PM10),67,84,89,47,43,39,39,19,18,22,33,5,5,0.5,0.5
2025-11-26T1200,1907A,106.1031,30.8217,南充市,南充炼油厂,,,,96,,48,33,33,31,23,22,28,7,7,,0.5
2025-11-26T1200,4227A,106.1083,30.7884,南充市,梨树横街98号,颗粒物(PM10),64,78,90,41,43,42,42,22,22,17,28,6,7,0.4,0.5
2025-11-26T1200,4304A,106.1172,30.843,南充市,清泉寺北路188号,颗粒物(PM10),60,70,79,42,34,37,37,41,31,13,16,5,6,0.3,0.4
2025-11-26T1200,4305A,106.067,30.7616,南充市,同庆路1号,颗粒物(PM10),70,90,87,41,40,34,34,25,22,25,32,6,7,0.5,0.5
2025-11-26T1200,1151A,118.8086,32.1065,南京市,迈皋桥,颗粒物(PM10),73,96,55,31,19,60,60,31,31,24,29,4,4,0.5,0.6
2025-11-26T1200,1152A,118.7538,32.0551,南京市,草场门,颗粒物(PM10),85,119,78,34,25,62,62,27,27,26,47,6,3,0.4,0.4
2025-11-26T1200,1153A,118.7794,32.0745,南京市,山西路,颗粒物(PM10),91,132,88,36,22,64,64,35,35,34,46,4,4,0.6,0.5
2025-11-26T1200,1154A,118.7752,32.0023,南京市,中华门,颗粒物(PM10),81,112,70,36,26,60,60,23,23,23,32,4,4,0.4,0.4
2025-11-26T1200,1155A,118.8109,32.0309,南京市,瑞金路,颗粒物(PM10),84,117,67,29,26,55,55,17,17,31,51,4,4,0.3,0.4
2025-11-26T1200,1156A,118.7997,32.0754,南京市,玄武湖,,,104,60,33,19,64,64,34,34,,3,4,4,0.5,0.5
2025-11-26T1200,1157A,118.6414,32.0931,南京市,浦口,颗粒物(PM10),88,126,71,36,21,60,60,24,24,31,31,10,8,0.6,0.5
2025-11-26T1200,1158A,118.7356,31.9996,南京市,奥体中心,颗粒物(PM10),83,116,75,34,26,56,56,23,23,36,49,9,5,0.4,0.4
2025-11-26T1200,1159A,118.9125,32.1028,南京市,仙林大学城,颗粒物(PM10),82,114,76,34,22,60,60,24,24,20,38,8,6,0.5,0.6
2025-11-26T1200,3422A,118.8436,31.9198,南京市,江宁彩虹桥,颗粒物(PM10),80,110,70,34,26,66,66,24,24,32,47,8,5,0.6,0.5
2025-11-26T1200,3427A,118.8554,32.3578,南京市,六合雄州,颗粒物(PM10),74,98,74,44,25,65,65,24,24,31,39,12,9,0.5,0.4
2025-11-26T1200,4249A,118.8708,31.3402,南京市,汶溪路181号,颗粒物(PM10),78,105,104,48,47,80,80,35,35,24,38,10,6,0.5,0.5
2025-11-26T1200,4312A,119.019,31.6512,南京市,中山西路1号,颗粒物(PM10),71,92,63,37,28,58,58,20,20,31,37,8,5,0.6,0.6
2025-11-26T1200,1401A,108.3103,22.7881,南宁市,二十一中,颗粒物(PM10),71,91,55,38,33,63,63,20,20,26,33,10,14,0.4,0.4
2025-11-26T1200,1402A,108.3141,22.8528,南宁市,北湖,颗粒物(PM10),52,54,63,26,35,90,90,29,29,15,45,10,14,0.5,0.6
2025-11-26T1200,1403A,108.3206,22.8225,南宁市,市监测站,颗粒物(PM10),56,62,58,29,30,70,70,19,19,23,37,12,14,0.5,0.6
2025-11-26T1200,1404A,108.3829,22.8037,南宁市,大自然花园,,,,50,,30,,,18,17,18,27,,8,0.4,0.4
2025-11-26T1200,1405A,108.4394,22.7904,南宁市,仙葫,,,,,,,,,,,,,,,,
2025-11-26T1200,1406A,108.2397,22.8467,南宁市,区农职院,颗粒物(PM10),52,54,42,29,25,70,70,32,32,17,21,9,7,0.7,0.6
2025-11-26T1200,1407A,108.3275,22.735,南宁市,英华嘉园,颗粒物(PM10),68,85,55,44,37,53,53,26,26,32,31,12,7,0.8,0.8
2025-11-26T1200,3401A,108.4834,22.7618,南宁市,红星社区,,48,48,49,21,25,96,96,44,44,10,27,9,9,0.4,0.5
2025-11-26T1200,4221A,108.2177,22.7774,南宁市,乐贤路16号,颗粒物(PM10),58,65,60,31,31,64,64,23,23,22,31,13,7,0.5,0.5
2025-11-26T1200,2331A,118.0966,26.6761,南平市,茫荡山,,,,58,,23,,,140,,,,,1,,0.3
2025-11-26T1200,2332A,118.1681,26.6369,南平市,南平市监测站,颗粒物(PM10),53,56,46,30,30,102,102,33,33,13,28,8,6,0.5,0.5
2025-11-26T1200,2333A,118.1825,26.6489,南平市,南平铝业有限公司,颗粒物(PM10),62,73,47,32,29,100,100,30,30,16,28,15,7,0.7,0.5
2025-11-26T1200,2334A,118.1756,26.6272,南平市,南平七中,颗粒物(PM10),68,86,47,29,30,100,100,28,28,11,19,8,7,0.5,0.5
2025-11-26T1200,1168A,120.9098,31.9663,南通市,狼山街道,,,70,59,21,20,,,15,15,30,32,6,4,0.5,0.4
2025-11-26T1200,1169A,120.86,32.0005,南通市,虹桥,颗粒物(PM10),55,59,51,26,22,55,55,35,35,37,31,8,6,0.3,0.1
2025-11-26T1200,1170A,120.87,32.02,南通市,城中,颗粒物(PM10),64,77,67,22,22,51,51,32,32,39,33,9,7,0.7,0.6
2025-11-26T1200,1171A,120.94,31.93,南通市,星湖花园,,,78,59,27,23,,,14,14,34,38,8,6,,0.3
2025-11-26T1200,1172A,120.81,32.0417,南通市,紫琅学院,颗粒物(PM10),62,73,65,27,20,51,51,24,24,40,38,9,5,0.8,0.5
2025-11-26T1200,3291A,121.067,32.062,南通市,通州监测站,颗粒物(PM10),58,66,44,24,18,58,58,44,44,38,28,8,4,0.5,0.4
2025-11-26T1200,3432A,120.9348,31.9883,南通市,环境教育馆,颗粒物(PM10),60,70,66,24,27,54,54,16,16,40,40,11,7,0.4,0.4
2025-11-26T1200,2404A,112.5224,33.0122,南阳市,瓦房庄,颗粒物(PM10),65,80,86,42,35,50,50,36,30,22,22,14,10,0.7,0.5
2025-11-26T1200,2405A,112.5003,32.9735,南阳市,汉画馆,,,93,92,,33,44,44,30,26,27,27,14,9,0.7,0.5
2025-11-26T1200,2406A,112.5573,33.027,南阳市,气象站,颗粒物(PM10),74,97,99,39,31,46,46,40,32,29,26,16,12,0.8,0.6
2025-11-26T1200,2407A,112.5481,32.9689,南阳市,理工学院,颗粒物(PM10),68,85,93,42,33,51,51,36,28,18,22,11,8,0.7,0.6
2025-11-26T1200,4008A,112.5234,32.9922,南阳市,卧龙区政府,颗粒物(PM10),72,93,97,48,37,46,46,33,27,24,25,13,9,0.7,0.6
2025-11-26T1200,1234A,121.8358,29.911,宁波市,区环保大楼,颗粒物(PM10),76,101,137,31,38,73,73,26,26,58,48,18,8,1.2,0.7
2025-11-26T1200,1235A,121.56,29.82,宁波市,万里学院,颗粒物(PM10),78,106,139,40,40,68,68,23,23,36,41,8,6,0.5,0.4
2025-11-26T1200,1236A,121.713,29.9572,宁波市,龙赛医院,颗粒物(PM10),67,84,162,29,38,92,92,26,26,29,42,7,5,0.5,0.5
2025-11-26T1200,1239A,121.633,29.7733,宁波市,钱湖水厂,颗粒物(PM10),71,91,151,38,46,84,84,28,28,31,34,10,7,0.8,0.7
2025-11-26T1200,1240A,121.5856,29.8635,宁波市,太古小学,颗粒物(PM10),80,109,138,39,34,69,69,22,22,31,35,6,4,0.7,0.7
2025-11-26T1200,1241A,121.524,29.8674,宁波市,市环境监测中心,,,113,129,38,35,64,64,19,19,,40,10,8,0.6,0.6
2025-11-26T1200,2871A,121.6147,29.9017,宁波市,万里国际学校,颗粒物(PM10),76,101,130,44,40,72,72,25,25,42,45,8,5,0.6,0.6
2025-11-26T1200,3710A,121.5594,29.8975,宁波市,白沙活动中心,颗粒物(PM10),71,91,118,31,32,77,77,27,27,31,38,8,6,0.7,0.6
2025-11-26T1200,2339A,119.5001,26.6946,宁德市,金涵水库,,,,73,,31,,,68,,,11,,3,,0.4
2025-11-26T1200,2341A,119.5388,26.6612,宁德市,宁德市监测站,颗粒物(PM10),84,117,83,32,30,96,96,60,60,16,19,10,8,0.5,0.5
2025-11-26T1200,3209A,119.5231,26.6562,宁德市,宁德一中,颗粒物(PM10),89,127,84,38,29,97,97,62,62,16,14,10,9,0.4,0.4
2025-11-26T1200,2618A,98.8601,25.8567,怒江傈僳族自治州,州监测站,,19,19,25,11,17,51,51,36,36,5,9,7,7,0.3,0.3
2025-11-26T1200,2619A,98.8546,25.8417,怒江傈僳族自治州,泸水一中,,33,26,20,23,15,33,33,16,14,12,16,7,7,0.5,0.5
2025-11-26T1200,1888A,101.6891,26.571,攀枝花市,弄弄坪,细颗粒物(PM2.5),59,64,42,42,21,49,49,29,29,37,22,43,12,2.3,0.8
2025-11-26T1200,1889A,101.5769,26.5928,攀枝花市,河门口,颗粒物(PM10),53,56,43,30,23,45,45,17,17,23,20,37,21,2.0,1.2
2025-11-26T1200,1890A,101.7169,26.585,攀枝花市,炳草岗,,,71,52,35,25,,,8,6,36,33,38,17,2.0,0.8
2025-11-26T1200,1891A,101.7369,26.5008,攀枝花市,仁和,颗粒物(PM10),58,65,39,39,23,53,53,23,23,27,17,33,10,2.3,0.8
2025-11-26T1200,2835A,101.7227,26.567,攀枝花市,四十中小,颗粒物(PM10),53,56,49,30,26,37,37,14,14,33,32,33,31,1.6,0.9
2025-11-26T1200,1604A,122.0303,41.1489,盘锦市,开发区,颗粒物(PM10),59,67,32,23,16,56,56,36,36,19,23,8,4,0.6,0.5
2025-11-26T1200,1605A,122.0485,41.0883,盘锦市,兴隆台,颗粒物(PM10),60,70,39,21,18,54,54,36,36,24,34,12,9,0.5,0.5
2025-11-26T1200,1606A,121.8297,41.1028,盘锦市,新生街道,颗粒物(PM10),62,73,30,23,13,53,53,36,36,30,30,14,8,0.5,0.3
2025-11-26T1200,1832A,113.3257,33.742,平顶山市,新华旅馆,颗粒物(PM10),76,101,96,27,34,67,67,34,34,15,26,10,8,0.5,0.4
2025-11-26T1200,1833A,113.2919,33.737,平顶山市,规划设计院,,,86,92,38,38,64,64,33,22,,24,9,7,0.5,0.4
2025-11-26T1200,1834A,113.182,33.774,平顶山市,平顶山工学院,颗粒物(PM10),55,59,83,31,35,65,65,35,35,21,27,8,8,0.6,0.5
2025-11-26T1200,3204A,113.3025,33.73,平顶山市,规划局,颗粒物(PM10),68,85,94,31,35,64,64,32,29,20,28,8,7,0.5,0.5
2025-11-26T1200,3594A,112.8867,33.9116,平顶山市,石龙区,颗粒物(PM10),77,103,101,18,37,66,66,24,24,20,46,6,8,0.3,0.4
2025-11-26T1200,2656A,106.6692,35.5461,平凉市,聚贤嘉苑,颗粒物(PM10),500,684,128,70,32,78,78,81,81,5,24,5,6,,0.7
2025-11-26T1200,2657A,106.7021,35.5307,平凉市,博物馆,颗粒物(PM10),496,596,119,79,29,82,82,78,78,5,22,6,9,0.6,0.8
2025-11-26T1200,2347A,114.0997,27.5002,萍乡市,武功山,,,,,,,,,,,,,,,,
2025-11-26T1200,2348A,113.8385,27.6434,萍乡市,中医院,颗粒物(PM10),82,113,83,24,27,73,73,29,29,21,34,15,8,0.6,0.8
2025-11-26T1200,2349A,113.8493,27.6253,萍乡市,市政府车库,颗粒物(PM10),72,93,76,37,31,67,67,31,31,23,26,22,11,1.2,1
2025-11-26T1200,2350A,113.8676,27.6435,萍乡市,市环保局,颗粒物(PM10),77,104,79,36,32,76,76,32,32,16,27,22,18,0.4,0.5
2025-11-26T1200,2351A,113.866,27.6198,萍乡市,安源区政府,颗粒物(PM10),75,100,69,48,35,59,59,25,25,26,26,25,11,1.5,0.9
2025-11-26T1200,2319A,119.0141,25.4325,莆田市,荔城区仓后路,颗粒物(PM10),81,112,94,32,31,99,99,89,82,10,11,3,4,0.4,0.4
2025-11-26T1200,2320A,119.0015,25.4553,莆田市,莆田市监测站,颗粒物(PM10),76,102,80,32,32,102,102,94,86,11,11,4,4,0.4,0.4
2025-11-26T1200,2321A,119.1119,25.4561,莆田市,涵江区六中,颗粒物(PM10),78,106,92,32,29,101,101,90,85,9,10,4,4,0.4,0.4
2025-11-26T1200,2322A,119.1013,25.3215,莆田市,秀屿区政府,,,143,99,40,32,100,100,89,83,12,12,4,5,,0.3
2025-11-26T1200,2323A,118.981,25.4792,莆田市,东圳水库,,,,62,,23,,,116,,,9,,5,,0.9
2025-11-26T1200,2392A,115.0312,35.7636,濮阳市,环保局,颗粒物(PM10),99,147,108,58,33,30,30,26,23,38,27,12,8,0.7,0.4
2025-11-26T1200,2394A,115.0574,35.7609,濮阳市,油田运输公司,,,,101,,32,,,31,25,37,30,14,11,0.7,0.4
2025-11-26T1200,3021A,115,35.7668,濮阳市,濮水河管理处,细颗粒物(PM2.5),102,149,122,76,46,35,35,27,24,36,25,16,9,0.8,0.5
2025-11-26T1200,4216A,115.0924,35.7686,濮阳市,任丘路479号,颗粒物(PM10),93,136,118,50,38,42,42,24,24,35,34,12,8,0.6,0.4
2025-11-26T1200,2601A,100.98,22.7633,普洱市,市环保局,,,40,48,8,22,68,68,32,32,,10,8,6,,0.3
2025-11-26T1200,2602A,100.9817,22.8322,普洱市,普洱第二中学,,50,50,39,16,23,62,62,26,26,10,15,6,5,0.3,0.3
2025-11-26T1200,2262A,131.0518,45.8751,七台河市,新一中,,,,,,,,,,,,,,,,
2025-11-26T1200,3345A,131.0577,45.7879,七台河市,中波台,,40,40,44,12,19,41,41,23,23,12,20,9,8,0.4,0.5
2025-11-26T1200,3637A,131.0176,45.7761,七台河市,人民广场,,,67,66,20,30,42,42,18,18,20,26,,9,0.5,0.6
2025-11-26T1200,3684A,130.8781,45.8222,七台河市,新建矿广场,颗粒物(PM10),62,73,66,19,24,35,35,13,13,22,32,14,11,0.5,0.5
2025-11-26T1200,1779A,123.9305,47.3636,齐齐哈尔市,安居小区,,,61,50,35,24,,,35,28,10,14,,8,0.4,0.4
2025-11-26T1200,1780A,123.9488,47.3386,齐齐哈尔市,中心广场,颗粒物(PM10),57,64,41,36,23,46,46,38,35,15,17,6,7,0.5,0.4
2025-11-26T1200,1781A,123.9483,47.3227,齐齐哈尔市,农牧车辆厂,"颗粒物(PM10),细颗粒物(PM2.5)",59,68,48,42,22,40,40,32,27,10,11,5,6,0.5,0.5
2025-11-26T1200,1783A,123.945,47.2988,齐齐哈尔市,市环境监测站,细颗粒物(PM2.5),59,62,50,42,25,46,46,34,29,12,14,6,7,0.6,0.6
2025-11-26T1200,3662A,123.6333,47.2075,齐齐哈尔市,富区青少年活动中心,细颗粒物(PM2.5),58,60,52,41,27,38,38,27,24,13,14,5,5,0.6,0.6
2025-11-26T1200,2591A,107.9783,26.5747,黔东南苗族侗族自治州,市环境监测站,,46,46,42,30,28,68,68,24,24,15,21,8,5,0.5,0.5
2025-11-26T1200,2881A,107.8908,26.5311,黔东南苗族侗族自治州,凯里学院,,,51,41,23,25,72,72,16,16,13,16,5,4,,0.4
2025-11-26T1200,2593A,107.5228,26.2403,黔南布依族苗族自治州,小围寨,,44,44,40,22,24,68,68,34,34,10,11,13,8,0.6,0.6
2025-11-26T1200,3538A,107.5175,26.2978,黔南布依族苗族自治州,沙坝,,,,47,,27,65,65,23,23,,16,8,5,0.8,0.6
2025-11-26T1200,2589A,104.9022,25.0925,黔西南布依族苗族自治州,场坝街,,42,42,46,25,30,52,52,30,30,27,21,46,27,0.4,0.5
2025-11-26T1200,2590A,104.8811,25.0992,黔西南布依族苗族自治州,坪东大道,,40,40,42,23,29,56,56,33,33,18,22,23,7,0.5,0.5
2025-11-26T1200,2502A,108.6236,21.9667,钦州市,市环保站,颗粒物(PM10),65,80,73,34,29,94,94,66,66,15,19,6,5,0.6,0.8
2025-11-26T1200,2503A,108.6549,21.9481,钦州市,沙埠小学,颗粒物(PM10),62,74,71,29,33,103,103,59,59,11,24,7,9,0.2,0.9
2025-11-26T1200,2504A,108.5989,21.7431,钦州市,港区一小,颗粒物(PM10),68,86,70,29,25,91,91,61,61,18,27,8,8,0.7,0.8
2025-11-26T1200,3404A,108.5959,21.9633,钦州市,北职校,,,62,61,38,30,,,58,58,10,14,10,8,,0.7
2025-11-26T1200,1043A,119.7493,40.0116,秦皇岛市,第一关,,,90,48,30,27,52,52,20,20,,45,15,11,0.5,0.7
2025-11-26T1200,1044A,119.5897,39.9499,秦皇岛市,监测站,颗粒物(PM10),69,88,56,24,20,52,52,29,29,35,42,18,15,0.3,0.6
2025-11-26T1200,1046A,119.5251,39.9041,秦皇岛市,建设大厦,颗粒物(PM10),66,82,54,31,29,49,49,26,26,31,39,18,13,0.9,0.8
2025-11-26T1200,3132A,119.610547,39.943889,秦皇岛市,文明里,颗粒物(PM10),64,77,49,19,20,44,44,22,22,33,36,19,16,0.6,0.7
2025-11-26T1200,4198A,119.5090,39.8253,秦皇岛市,北戴河轮滑馆,颗粒物(PM10),64,78,44,22,17,43,43,23,23,26,29,19,11,0.6,0.9
2025-11-26T1200,1307A,120.6659,36.2403,青岛市,仰口,,,,,,,,,,,,,,,,
2025-11-26T1200,1310A,120.4134,36.0658,青岛市,市南区东部子站,颗粒物(PM10),63,75,52,31,22,60,60,48,48,26,31,14,11,0.7,0.7
