timepoint,stationcode,longitude,latitude,area,positionname,primarypollutant,aqi,pm10,pm10_24h,pm2_5,pm2_5_24h,o3,o3_24h,o3_8h,o3_8h_24h,no2,no2_24h,so2,so2_24h,co,co_24h
2025-11-26T0000,2566A,102.1879,31.914,阿坝藏族羌族自治州,州农科所,,,,,,,,,,,,,,,,
2025-11-26T0000,2568A,102.2502,31.8896,阿坝藏族羌族自治州,马师校,,33,33,32,20,18,11,11,61,19,34,17,5,5,0.5,0.5
2025-11-26T0000,3994A,102.2165,31.9024,阿坝藏族羌族自治州,马尔康中学西区,,28,19,24,19,14,25,25,68,34,24,14,5,5,0.5,0.4
2025-11-26T0000,2695A,80.292,41.1694,阿克苏地区,电视台,颗粒物(PM10),372,477,218,258,82,14,14,87,63,106,42,14,10,6.1,1.4
2025-11-26T0000,2696A,80.2613,41.1551,阿克苏地区,艺术中心,颗粒物(PM10),140,229,185,106,77,20,20,79,59,115,49,6,7,2.1,1
2025-11-26T0000,2204A,105.6467,38.8363,阿拉善盟,西城区西花园,,,,,,,,,,,,,,,,
2025-11-26T0000,2205A,105.6985,38.8411,阿拉善盟,蒙二幼,,,,81,,20,,,81,64,,10,,7,,0.9
2025-11-26T0000,2206A,105.724,38.8516,阿拉善盟,环保局新楼,颗粒物(PM10),229,370,88,108,26,74,74,87,73,6,5,8,8,0.6,0.6
2025-11-26T0000,2708A,88.1264,47.8517,阿勒泰地区,市站,,38,31,17,26,11,30,30,59,30,44,41,3,5,0.8,0.5
2025-11-26T0000,2630A,80.1161,32.5,阿里地区,阿里监测站,,15,,3,3,3,46,46,78,62,18,8,9,8,0.4,0.3
2025-11-26T0000,3192A,80.0903,32.5028,阿里地区,阿里藏医院,,19,19,12,13,7,42,42,77,67,16,8,13,11,0.8,0.7
2025-11-26T0000,2642A,109.0318,32.6537,安康市,香溪洞,,,,,,,,,,,,,,,,
2025-11-26T0000,2644A,109.0072,32.6975,安康市,汉滨区检察院,颗粒物(PM10),53,56,46,26,20,21,21,46,32,18,17,5,6,0.5,0.6
2025-11-26T0000,4054A,109.0325,32.6913,安康市,市邮政管理局,细颗粒物(PM2.5),72,77,51,52,25,9,9,46,23,34,26,4,4,0.7,0.8
2025-11-26T0000,2291A,117.0809,30.5177,安庆市,环科院,颗粒物(PM10),87,124,137,52,36,2,2,76,34,64,17,4,5,0.5,0.4
2025-11-26T0000,2292A,117.0331,30.5119,安庆市,马山宾馆,颗粒物(PM10),91,131,137,49,33,15,15,76,38,55,20,5,4,0.5,0.3
2025-11-26T0000,2294A,116.9896,30.6145,安庆市,安庆大学,颗粒物(PM10),72,93,130,35,26,31,31,84,43,21,14,6,7,0.4,0.3
2025-11-26T0000,3173A,117.0598,30.5351,安庆市,市人大,颗粒物(PM10),94,138,154,56,34,2,2,79,31,61,20,10,5,0.6,0.3
2025-11-26T0000,3122A,105.9606,26.2611,安顺市,伍家关,颗粒物(PM10),63,76,42,33,25,15,15,117,73,42,16,89,30,1.5,0.9
2025-11-26T0000,3123A,105.9408,26.2431,安顺市,凤凰山,细颗粒物(PM2.5),69,72,42,50,29,6,6,98,48,67,22,45,18,0.9,0.5
2025-11-26T0000,3124A,105.9439,26.2564,安顺市,金钟山,,50,46,38,35,26,54,54,107,85,27,13,46,22,0.8,0.6
2025-11-26T0000,3125A,105.8983,26.2481,安顺市,娄家坡,"颗粒物(PM10),细颗粒物(PM2.5)",52,53,37,36,26,32,32,98,74,38,16,26,15,0.7,0.4
2025-11-26T0000,1818A,114.4839,36.0621,安阳市,棉研所,,,,,,,,,,,,,,,,
2025-11-26T0000,1819A,114.3551,36.1017,安阳市,红庙街,颗粒物(PM10),111,172,86,52,24,21,21,55,36,41,21,3,2,0.5,0.4
2025-11-26T0000,1820A,114.361,36.0681,安阳市,银杏小区,颗粒物(PM10),103,155,85,52,27,23,23,58,36,37,19,4,2,0.4,0.3
2025-11-26T0000,3141A,114.3922,36.0878,安阳市,信访局,颗粒物(PM10),105,159,82,46,25,26,26,58,37,38,21,5,3,0.3,0.2
2025-11-26T0000,3669A,114.4705,36.0637,安阳市,左辅环卫站,颗粒物(PM10),123,195,105,62,28,22,22,60,35,32,21,2,2,0.6,0.5
2025-11-26T0000,3703A,114.2917,36.0949,安阳市,安钢职工学校,颗粒物(PM10),110,169,91,65,31,18,18,56,35,38,18,3,2,0.5,0.4
2025-11-26T0000,1748A,123.044,41.1196,鞍山市,深沟寺,颗粒物(PM10),51,52,48,33,26,38,38,46,35,24,26,10,10,0.9,0.8
2025-11-26T0000,1749A,123.011,41.0931,鞍山市,太阳城,,35,35,43,22,26,47,47,48,35,16,24,11,14,0.7,0.8
2025-11-26T0000,1750A,123.0485,41.1442,鞍山市,太平,,49,49,47,29,24,45,45,52,37,22,26,10,11,0.9,0.8
2025-11-26T0000,1751A,122.9642,41.0971,鞍山市,铁西三道街,,40,40,49,23,28,38,38,42,26,26,36,14,23,1.0,1.7
2025-11-26T0000,1753A,123.022,41.0821,鞍山市,明达新区,,32,32,36,20,23,47,47,48,40,18,22,13,14,0.6,0.6
2025-11-26T0000,1754A,123.1289,41.0228,鞍山市,千山,,,,37,,32,,,30,30,,22,,4,,0.7
2025-11-26T0000,4201A,122.9446,41.0826,鞍山市,兴盛南路290号,,45,45,54,24,33,34,34,42,19,35,39,13,15,0.8,1.2
2025-11-26T0000,2195A,107.4212,40.761,巴彦淖尔市,附二中,颗粒物(PM10),102,153,104,49,33,69,69,67,67,4,7,4,4,0.4,0.4
2025-11-26T0000,2196A,107.37,40.7372,巴彦淖尔市,市环保大楼,颗粒物(PM10),96,141,107,41,32,68,68,70,66,7,7,7,8,0.3,0.4
2025-11-26T0000,1956A,86.1472,41.7538,巴音郭楞蒙古自治州,孔雀公园,颗粒物(PM10),128,205,184,57,52,8,8,56,28,76,58,12,13,0.9,0.8
2025-11-26T0000,1957A,86.1972,41.7166,巴音郭楞蒙古自治州,棉纺厂,颗粒物(PM10),138,225,209,64,48,2,2,72,47,88,27,7,7,1.4,0.8
2025-11-26T0000,1958A,86.2357,41.7173,巴音郭楞蒙古自治州,经济开发区,颗粒物(PM10),108,165,164,32,36,30,30,65,45,38,35,5,8,0.6,0.6
2025-11-26T0000,2914A,106.7677,31.8794,巴中市,苏山坪,,,,,,,,,,,,,,,,
2025-11-26T0000,3181A,106.7768,31.8526,巴中市,市五中,颗粒物(PM10),68,85,59,37,23,16,16,61,36,25,22,8,8,0.6,0.5
2025-11-26T0000,3183A,106.7418,31.8654,巴中市,圣泉水务公司,颗粒物(PM10),60,70,48,31,19,21,21,60,28,26,21,8,8,0.8,0.7
2025-11-26T0000,3616A,106.7616,31.8344,巴中市,市中心医院,细颗粒物(PM2.5),69,85,58,50,28,1,1,63,26,37,24,4,5,0.9,0.7
2025-11-26T0000,2235A,122.7911,45.6077,白城市,洮北区环保局,,39,39,34,15,18,38,38,50,37,10,10,5,6,0.2,0.3
2025-11-26T0000,2236A,122.8738,45.5725,白城市,市环保局,,31,31,28,16,17,33,33,46,31,10,12,3,5,0.2,0.2
2025-11-26T0000,2231A,126.4219,41.9171,白山市,喜丰,细颗粒物(PM2.5),308,329,287,258,238,6,6,61,22,42,32,10,8,1.4,1.2
2025-11-26T0000,2232A,126.4077,41.9419,白山市,环保局,细颗粒物(PM2.5),339,301,275,289,269,16,16,62,22,23,24,9,10,1.4,1.4
2025-11-26T0000,2647A,104.1724,36.5446,白银市,第三小学,细颗粒物(PM2.5),90,123,127,67,74,20,20,57,33,56,52,32,57,1.3,1.7
2025-11-26T0000,2648A,104.1465,36.5482,白银市,动力公司,颗粒物(PM10),80,109,99,53,58,28,28,72,44,46,34,21,20,1.3,1.6
2025-11-26T0000,2512A,106.6103,23.9011,百色市,市监测站,,33,33,38,18,20,25,25,78,44,16,15,5,6,0.4,0.4
2025-11-26T0000,2513A,106.6538,23.8859,百色市,市中心血站,颗粒物(PM10),52,54,51,26,30,5,5,80,30,48,30,6,7,0.5,0.5
2025-11-26T0000,3406A,106.6085,23.8798,百色市,祈福高中,颗粒物(PM10),65,79,49,30,24,11,11,68,30,26,18,5,5,0.4,0.5
2025-11-26T0000,2270A,117.396,32.939,蚌埠市,工人疗养院,颗粒物(PM10),79,107,110,33,25,55,55,62,53,22,25,5,5,0.2,0.2
2025-11-26T0000,2271A,117.3605,32.9427,蚌埠市,百货大楼,颗粒物(PM10),69,88,106,34,28,42,42,65,47,31,27,5,7,0.3,0.4
2025-11-26T0000,2273A,117.4185,32.8911,蚌埠市,蚌埠学院,颗粒物(PM10),80,110,122,44,31,26,26,56,34,46,29,5,5,0.3,0.3
2025-11-26T0000,2274A,117.3533,32.9673,蚌埠市,淮上区政府,颗粒物(PM10),76,102,118,35,31,44,44,67,45,31,30,7,8,0.2,0.2
2025-11-26T0000,2275A,117.3145,32.8977,蚌埠市,高新区,颗粒物(PM10),78,105,117,41,31,42,42,59,34,31,29,13,7,0.4,0.3
2025-11-26T0000,3715A,117.3092,32.9314,蚌埠市,蚌埠田家炳中学,颗粒物(PM10),78,105,120,37,32,45,45,61,39,33,28,19,6,0.4,0.3
2025-11-26T0000,1585A,109.8756,40.6532,包头市,市环境监测站,颗粒物(PM10),91,132,83,55,27,0,0,34,5,66,46,17,18,1.5,1.1
2025-11-26T0000,1587A,109.9991,40.5842,包头市,包头八中,颗粒物(PM10),81,112,97,48,39,2,2,41,9,60,46,11,14,1.4,1.2
2025-11-26T0000,1588A,109.8538,40.6821,包头市,青山宾馆,细颗粒物(PM2.5),87,110,75,64,35,2,2,34,6,65,50,14,15,1.8,1.1
2025-11-26T0000,1589A,109.8642,40.6288,包头市,惠龙物流,颗粒物(PM10),79,108,76,49,30,2,2,43,9,67,47,16,15,1.8,1.4
2025-11-26T0000,1590A,110.0377,40.5546,包头市,东河鸿龙湾,颗粒物(PM10),96,141,81,42,30,1,1,44,12,72,52,15,12,1.5,1.2
2025-11-26T0000,3283A,109.9154,40.5685,包头市,滨河大厦,颗粒物(PM10),77,104,68,44,24,4,4,46,12,63,44,14,11,1.4,0.8
2025-11-26T0000,3419A,109.9447,40.6261,包头市,包头市委党校,颗粒物(PM10),82,114,80,37,26,3,3,42,9,64,48,15,18,1.5,1.1
2025-11-26T0000,3683A,109.8331,40.6576,包头市,昆区政府,颗粒物(PM10),89,127,77,52,31,2,2,37,8,78,52,20,20,1.7,1
2025-11-26T0000,1930A,107.185,34.3063,宝鸡市,庙沟村,,,,,,,,,,,,,,,,
2025-11-26T0000,1931A,107.0708,34.3017,宝鸡市,竹园沟,颗粒物(PM10),55,60,51,35,27,14,14,52,28,25,20,6,8,0.2,0.2
2025-11-26T0000,1932A,107.1906,34.3672,宝鸡市,三陆医院,细颗粒物(PM2.5),85,90,76,63,36,17,17,57,23,36,44,7,7,0.7,0.6
2025-11-26T0000,1933A,107.1431,34.3547,宝鸡市,监测站,细颗粒物(PM2.5),72,72,71,52,37,8,8,47,22,37,27,4,6,0.4,0.4
2025-11-26T0000,1934A,107.1186,34.3739,宝鸡市,技工学校,细颗粒物(PM2.5),65,74,69,47,29,16,16,54,26,31,30,4,6,0.5,0.5
2025-11-26T0000,1936A,107.2058,34.3497,宝鸡市,文理学院,细颗粒物(PM2.5),94,84,68,70,37,15,15,63,28,43,36,6,8,0.5,0.5
2025-11-26T0000,1937A,107.2386,34.3622,宝鸡市,三迪小学,细颗粒物(PM2.5),87,75,78,64,40,4,4,54,20,62,50,5,11,0.7,0.6
2025-11-26T0000,4308A,107.3898,34.3601,宝鸡市,陈仓区北开路21号,细颗粒物(PM2.5),110,127,85,83,44,6,6,64,30,58,38,14,16,0.6,0.5
2025-11-26T0000,1051A,115.493,38.8632,保定市,游泳馆,细颗粒物(PM2.5),84,115,48,62,25,3,3,57,23,57,22,10,6,0.7,0.5
2025-11-26T0000,1052A,115.5213,38.8959,保定市,华电二区,细颗粒物(PM2.5),72,79,38,52,23,2,2,60,29,61,27,6,4,0.5,0.2
2025-11-26T0000,1053A,115.4713,38.9108,保定市,接待中心,细颗粒物(PM2.5),92,99,48,68,22,5,5,54,30,52,22,4,3,0.4,0.2
2025-11-26T0000,1054A,115.4612,38.8416,保定市,地表水厂,颗粒物(PM10),69,87,56,46,22,10,10,62,30,60,34,6,5,0.3,0.2
2025-11-26T0000,3581A,115.31981,38.95208,保定市,满城区生态环境分局,细颗粒物(PM2.5),79,105,53,58,23,13,13,62,23,47,26,11,5,0.6,0.4
2025-11-26T0000,3582A,115.47694,38.76408,保定市,清苑区第二中学,颗粒物(PM10),84,118,59,50,22,4,4,57,20,51,23,10,9,0.6,0.3
2025-11-26T0000,3583A,115.62909,39.02311,保定市,徐水物探局,颗粒物(PM10),91,131,61,67,27,8,8,55,22,49,25,10,7,0.7,0.5
2025-11-26T0000,4004A,115.4202,38.8656,保定市,双鹰农机,细颗粒物(PM2.5),80,107,54,59,26,11,11,62,31,61,28,8,6,0.5,0.3
2025-11-26T0000,4034A,115.5150,38.8590,保定市,植保所站,细颗粒物(PM2.5),95,121,61,71,31,0,0,52,19,63,31,6,5,0.5,0.4
2025-11-26T0000,2594A,99.1678,25.1081,保山市,市环境监测站,,30,23,25,21,17,47,47,79,60,6,13,7,9,0.4,0.4
2025-11-26T0000,2595A,99.1711,25.1328,保山市,市环保局,,36,,26,25,20,56,56,82,68,4,7,6,6,0.3,0.4
2025-11-26T0000,1866A,109.2262,21.588,北海市,牛尾岭水库,,38,35,33,26,23,78,78,95,86,7,6,4,4,0.1,0.2
2025-11-26T0000,1867A,109.1436,21.4086,北海市,海滩公园,颗粒物(PM10),54,57,45,24,24,102,102,115,112,11,10,8,9,0.4,0.5
2025-11-26T0000,1868A,109.0981,21.4661,北海市,新市环保局,颗粒物(PM10),59,67,44,36,30,96,96,122,113,13,10,12,9,0.4,0.4
2025-11-26T0000,1869A,109.1778,21.5233,北海市,北海工业园,颗粒物(PM10),56,61,44,34,28,94,94,113,108,16,13,13,9,0.2,0.3
2025-11-26T0000,3400A,109.1911,21.4415,北海市,龙潭自来水厂,颗粒物(PM10),54,58,43,33,28,94,94,109,105,13,11,14,7,0.3,0.4
2025-11-26T0000,1001A,116.3621,39.8784,北京市,万寿西宫,颗粒物(PM10),61,72,35,32,17,6,6,51,23,61,29,3,2,0.7,0.4
2025-11-26T0000,1002A,116.2202,40.2915,北京市,定陵,,,,,,,,,,,,,,,,
2025-11-26T0000,1003A,116.4174,39.9289,北京市,东四,,,,43,32,12,6,6,53,27,56,24,4,3,1.0,0.6
2025-11-26T0000,1004A,116.4072,39.8863,北京市,天坛,颗粒物(PM10),55,59,31,27,11,3,3,48,22,49,22,1,2,0.5,0.3
2025-11-26T0000,1005A,116.462,39.9365,北京市,农展馆,颗粒物(PM10),62,74,31,33,12,1,1,52,28,63,23,4,4,0.9,0.5
2025-11-26T0000,1006A,116.3392,39.9295,北京市,官园,颗粒物(PM10),62,73,38,34,17,2,2,48,26,64,26,4,4,0.6,0.4
2025-11-26T0000,1007A,116.2878,39.9611,北京市,海淀万柳,颗粒物(PM10),59,67,38,35,20,1,1,45,20,59,34,4,3,0.6,0.4
2025-11-26T0000,1008A,116.6636,40.135,北京市,顺义新城,颗粒物(PM10),60,69,36,11,7,6,6,44,14,46,26,3,4,0.8,0.5
2025-11-26T0000,1009A,116.6275,40.3275,北京市,怀柔镇,,35,35,24,19,12,31,31,47,28,15,18,5,5,0.3,0.4
2025-11-26T0000,1010A,116.2296,40.217,北京市,昌平镇,,41,41,26,20,11,24,24,46,30,26,18,5,5,0.3,0.3
2025-11-26T0000,1011A,116.3966,39.9821,北京市,奥体中心,颗粒物(PM10),58,66,29,32,12,2,2,49,26,74,34,6,5,0.8,0.4
2025-11-26T0000,3281A,115.9718,40.4529,北京市,延庆夏都,,46,46,31,21,12,30,30,48,35,19,20,3,4,0.5,0.4
2025-11-26T0000,3418A,116.8336,40.4095,北京市,密云新城,颗粒物(PM10),52,54,27,24,10,19,19,51,25,22,17,2,2,0.5,0.4
2025-11-26T0000,3671A,116.088,39.9726,北京市,门头沟三家店,,50,50,39,22,12,9,9,46,15,34,25,1,1,0.5,0.5
2025-11-26T0000,3672A,116.1541,39.8204,北京市,丰台云岗,颗粒物(PM10),56,62,44,25,16,10,10,52,19,47,29,3,2,0.5,0.4
2025-11-26T0000,3673A,116.6804,39.9081,北京市,通州东关,颗粒物(PM10),69,88,38,41,15,2,2,51,20,59,24,5,4,0.5,0.4
2025-11-26T0000,3674A,115.9577,39.7603,北京市,房山燕山,颗粒物(PM10),60,69,31,36,14,14,14,51,28,32,18,4,4,0.5,0.3
2025-11-26T0000,3675A,116.4672,39.7733,北京市,大兴旧宫,颗粒物(PM10),60,69,35,27,12,4,4,51,26,51,26,3,3,0.5,0.4
2025-11-26T0000,3694A,115.986,40.4563,北京市,延庆石河营,,49,49,33,23,11,19,19,43,32,24,20,2,3,0.5,0.4
2025-11-26T0000,3695A,116.6151,40.3053,北京市,怀柔新城,,37,37,22,23,13,31,31,48,33,14,12,5,5,0.4,0.3
2025-11-26T0000,3696A,116.2545,39.8768,北京市,丰台小屯,颗粒物(PM10),73,95,35,40,17,2,2,44,12,64,33,3,3,0.6,0.4
2025-11-26T0000,3697A,116.84,40.3844,北京市,密云镇,颗粒物(PM10),52,53,31,27,12,6,6,46,21,42,25,1,1,0.5,0.4
2025-11-26T0000,4182A,116.1942,39.9158,北京市,八角北路9号,颗粒物(PM10),65,80,44,32,16,1,1,38,13,62,34,3,2,0.6,0.2
2025-11-26T0000,4194A,117.0790,40.1518,北京市,洳河巡河路,,47,47,27,22,11,24,24,47,22,21,18,4,4,0.5,0.5
2025-11-26T0000,1761A,123.8275,41.3064,本溪市,大峪,细颗粒物(PM2.5),78,87,63,57,46,3,3,63,24,52,27,8,9,1.3,1.1
2025-11-26T0000,1762A,123.7567,41.3325,本溪市,溪湖,细颗粒物(PM2.5),89,99,80,66,48,4,4,61,18,46,27,9,10,1.2,0.7
2025-11-26T0000,1763A,123.7169,41.3094,本溪市,彩屯,细颗粒物(PM2.5),85,80,67,63,48,12,12,62,17,35,27,6,8,1.1,0.9
2025-11-26T0000,1764A,123.7669,41.2864,本溪市,东明,细颗粒物(PM2.5),92,86,71,68,59,6,6,70,21,54,27,6,9,1.1,1
2025-11-26T0000,1765A,123.7992,41.2664,本溪市,新立屯,细颗粒物(PM2.5),64,60,82,46,45,17,17,65,16,40,31,6,7,0.7,0.6
2025-11-26T0000,1766A,123.8142,41.3472,本溪市,威宁,细颗粒物(PM2.5),95,121,90,71,51,4,4,61,11,38,27,6,6,1.4,1
2025-11-26T0000,2587A,105.2864,27.3125,毕节市,八中,细颗粒物(PM2.5),153,120,69,117,55,38,38,86,62,20,15,9,12,0.8,0.6
2025-11-26T0000,2588A,105.31,27.2944,毕节市,师专,细颗粒物(PM2.5),137,142,71,104,51,13,13,91,54,50,26,9,11,1.1,0.7
2025-11-26T0000,4263A,105.3688,27.3598,毕节市,工业大道,细颗粒物(PM2.5),149,153,66,114,47,19,19,92,61,43,21,14,13,1.2,0.7
2025-11-26T0000,1629A,118.0018,37.3617,滨州市,第二水厂,细颗粒物(PM2.5),79,102,36,58,16,4,4,59,26,75,26,22,11,0.7,0.3
2025-11-26T0000,1630A,117.9776,37.393,滨州市,北中新校,颗粒物(PM10),67,83,35,46,14,0,0,58,22,82,31,19,7,0.7,0.2
2025-11-26T0000,3514A,117.9378,37.3956,滨州市,中海酒店,细颗粒物(PM2.5),73,88,29,53,16,11,11,69,42,61,16,24,8,1.1,0.6
2025-11-26T0000,3515A,117.9378,37.3553,滨州市,开发区一中,细颗粒物(PM2.5),94,124,39,70,18,4,4,63,26,71,26,34,11,1.2,0.5
2025-11-26T0000,3516A,118.0917,37.694,滨州市,金海六路,颗粒物(PM10),61,71,29,34,9,22,22,66,28,46,25,54,9,0.5,0.3
2025-11-26T0000,4028A,117.9956,37.3753,滨州市,滨州市西街道办事处,细颗粒物(PM2.5),83,100,32,61,18,0,0,58,18,64,24,19,9,0.8,0.4
2025-11-26T0000,2311A,115.8072,33.8399,亳州市,污水处理厂,颗粒物(PM10),79,108,89,32,31,42,42,55,44,22,21,11,8,0.5,0.4
2025-11-26T0000,2312A,115.7789,33.8518,亳州市,三国揽胜宫,颗粒物(PM10),79,108,91,37,28,49,49,61,50,22,22,8,7,0.4,0.3
2025-11-26T0000,3332A,115.7633,33.8034,亳州市,亳州学院,颗粒物(PM10),77,104,85,33,25,37,37,65,48,32,27,9,7,0.3,0.2
2025-11-26T0000,2693A,82.0485,44.8556,博尔塔拉蒙古自治州,市党校,,19,19,44,7,16,36,36,56,44,12,20,1,3,0.1,0.3
2025-11-26T0000,2694A,82.0806,44.8969,博尔塔拉蒙古自治州,市环保局,,,90,68,31,21,11,11,45,27,29,27,,5,0.7,0.7
2025-11-26T0000,1071A,116.8842,38.2991,沧州市,沧县城建局,颗粒物(PM10),60,69,35,37,22,12,12,48,20,49,26,15,5,0.5,0.3
2025-11-26T0000,1072A,116.8584,38.3254,沧州市,电视转播站,颗粒物(PM10),64,77,36,44,18,4,4,57,29,60,26,12,4,0.6,0.5
2025-11-26T0000,1073A,116.8709,38.3228,沧州市,市环保局,细颗粒物(PM2.5),67,67,40,48,27,13,13,56,24,40,18,7,3,0.3,0.2
2025-11-26T0000,3324A,116.8136,38.3004,沧州市,河北水利电力学院,颗粒物(PM10),67,83,32,36,13,17,17,52,22,38,19,9,4,0.5,0.2
2025-11-26T0000,2622A,97.1806,31.1273,昌都市,昌都监测站,颗粒物(PM10),53,55,33,22,21,25,25,63,22,23,20,5,6,0.9,0.8
2025-11-26T0000,3719A,97.1714,31.1406,昌都市,昌都会议中心,,22,22,20,13,10,55,55,73,56,4,6,3,3,0.4,0.4
2025-11-26T0000,2690A,88.1236,43.8886,昌吉回族自治州,天山天池,,,,,,,,,,,,,,,,
2025-11-26T0000,2692A,87.2717,44.0297,昌吉回族自治州,新区政务中心,,39,28,48,27,35,3,3,29,11,70,50,5,5,2.0,1
2025-11-26T0000,3613A,87.3095,44.0142,昌吉回族自治州,亚心广场,,25,24,59,14,39,23,23,40,11,50,46,8,8,1.1,0.7
2025-11-26T0000,1120A,125.2863,43.9027,长春市,客车厂,细颗粒物(PM2.5),269,227,148,219,171,44,44,70,60,56,44,10,10,1.2,0.9
2025-11-26T0000,1121A,125.2841,43.8463,长春市,邮电学院,细颗粒物(PM2.5),273,250,164,223,138,38,38,61,49,58,44,13,13,1.2,0.8
2025-11-26T0000,1122A,125.3716,43.8772,长春市,劳动公园,细颗粒物(PM2.5),284,257,149,234,112,48,48,50,44,49,41,11,12,1.1,0.9
2025-11-26T0000,1123A,125.3297,43.8805,长春市,园林处,细颗粒物(PM2.5),256,212,134,206,127,42,42,51,46,44,37,8,8,1.2,0.8
2025-11-26T0000,1124A,125.4605,43.79,长春市,净月潭,细颗粒物(PM2.5),193,174,152,145,107,47,47,60,57,22,29,5,7,0.7,0.7
2025-11-26T0000,1125A,125.7194,43.515,长春市,甩湾子,细颗粒物(PM2.5),255,,255,205,235,43,43,67,46,21,32,5,6,0.6,0.9
2025-11-26T0000,1126A,125.3863,43.8447,长春市,经开区环卫处,细颗粒物(PM2.5),261,226,147,211,117,9,9,42,19,67,48,7,10,1.1,0.7
2025-11-26T0000,1127A,125.245,43.7783,长春市,高新区管委会,细颗粒物(PM2.5),366,334,202,316,199,51,51,67,59,65,46,8,8,1.6,1
2025-11-26T0000,1128A,125.1761,43.8325,长春市,岱山公园,细颗粒物(PM2.5),279,234,188,229,178,9,9,53,19,72,46,10,9,1.3,0.9
2025-11-26T0000,4281A,125.3346,43.9164,长春市,北亚泰大街1068号,细颗粒物(PM2.5),290,244,143,240,155,14,14,44,26,59,44,11,10,1.2,0.9
2025-11-26T0000,1335A,113.0833,28.2325,长沙市,经开区环保局,细颗粒物(PM2.5),72,89,88,52,20,9,9,82,54,62,17,4,4,0.5,0.4
2025-11-26T0000,1336A,112.8872,28.2189,长沙市,高开区环保局,细颗粒物(PM2.5),95,111,90,71,23,2,2,74,39,73,22,6,5,0.9,0.5
2025-11-26T0000,1337A,113.0792,28.2053,长沙市,马坡岭,颗粒物(PM10),78,106,91,39,20,3,3,80,43,67,23,5,5,0.8,0.5
2025-11-26T0000,1338A,112.9394,28.19,长沙市,湖南师范大学,颗粒物(PM10),61,71,87,24,20,45,45,79,61,18,14,4,5,0.5,0.5
2025-11-26T0000,1339A,113.0178,28.1322,长沙市,雨花区环保局,颗粒物(PM10),81,112,88,53,20,4,4,81,52,74,18,8,7,0.5,0.4
2025-11-26T0000,1340A,112.9792,28.2597,长沙市,伍家岭,颗粒物(PM10),98,146,94,44,19,3,3,77,44,53,25,5,5,0.6,0.2
2025-11-26T0000,1341A,113.0014,28.1944,长沙市,火车新站,颗粒物(PM10),70,89,92,39,25,21,21,82,61,62,23,5,5,0.6,0.3
2025-11-26T0000,1342A,112.9844,28.1178,长沙市,天心区环保局,颗粒物(PM10),72,94,88,35,20,38,38,84,62,44,19,6,6,0.5,0.3
2025-11-26T0000,1343A,112.8908,28.1308,长沙市,湖南中医药大学,颗粒物(PM10),69,87,91,32,23,4,4,77,31,56,25,5,6,0.5,0.7
2025-11-26T0000,1344A,112.9581,28.3611,长沙市,沙坪,,,,,,,,,,,,,,,,
2025-11-26T0000,1727A,113.1147,36.1547,长治市,清华站,颗粒物(PM10),61,71,64,24,16,46,46,76,60,29,22,13,9,0.4,0.5
2025-11-26T0000,1730A,113.0886,36.2125,长治市,审计局,颗粒物(PM10),55,60,65,19,19,56,56,70,55,20,27,11,10,0.5,0.4
2025-11-26T0000,1731A,113.0844,36.1856,长治市,长治八中,颗粒物(PM10),60,69,81,33,24,58,58,69,52,12,20,11,11,0.5,0.5
2025-11-26T0000,2845A,113.1569,36.1911,长治市,德盛苑,颗粒物(PM10),55,60,60,22,17,70,70,75,67,16,17,15,11,0.4,0.3
2025-11-26T0000,3568A,113.06,36.0464,长治市,向阳小学,颗粒物(PM10),75,100,95,31,24,60,60,74,51,26,27,22,20,0.7,0.6
2025-11-26T0000,3569A,112.8792,36.3144,长治市,屯留一中,颗粒物(PM10),75,99,74,38,19,18,18,70,35,47,29,22,14,1.0,0.5
2025-11-26T0000,4189A,113.1131,36.19948,长治市,英华南巷50号,颗粒物(PM10),54,57,68,19,22,55,55,73,55,18,20,10,8,0.4,0.5
2025-11-26T0000,4190A,113.2367,36.3344,长治市,学府街1号,颗粒物(PM10),68,85,83,28,23,9,9,73,46,59,30,9,9,1.3,1
2025-11-26T0000,1854A,111.6975,28.9703,常德市,市二中,颗粒物(PM10),71,92,87,40,31,29,29,79,64,42,15,7,7,0.3,0.3
2025-11-26T0000,1857A,111.7158,29.1456,常德市,白鹤山,,,,,,,,,,,,,,,,
2025-11-26T0000,3138A,111.7153,29.0289,常德市,武陵区永安,颗粒物(PM10),75,99,88,33,27,52,52,80,64,17,14,11,8,0.3,0.3
2025-11-26T0000,3139A,111.6892,28.9881,常德市,鼎城区玉霞,颗粒物(PM10),71,92,86,40,30,32,32,80,46,35,19,10,7,0.6,0.5
2025-11-26T0000,3140A,111.6625,29.0531,常德市,武陵区长庚,颗粒物(PM10),73,96,81,33,27,48,48,84,70,22,15,7,6,0.2,0.1
2025-11-26T0000,1196A,119.9633,31.762,常州市,市监测站,颗粒物(PM10),60,70,92,25,27,1,1,61,31,73,30,1,2,0.5,0.4
2025-11-26T0000,1200A,119.9468,31.7069,常州市,武进监测站,颗粒物(PM10),65,80,92,34,31,1,1,64,27,74,28,4,4,0.5,0.3
2025-11-26T0000,1201A,119.9255,31.9087,常州市,安家,颗粒物(PM10),60,70,100,21,27,3,3,58,14,54,35,9,9,0.5,0.4
2025-11-26T0000,3002A,119.9805,31.8174,常州市,行政中心,颗粒物(PM10),55,59,136,21,28,6,6,58,29,68,31,5,6,0.5,0.4
2025-11-26T0000,3003A,120.0522,31.7748,常州市,经开区,颗粒物(PM10),68,85,112,24,25,1,1,61,23,70,30,9,7,0.6,0.4
2025-11-26T0000,3010A,119.9025,31.7964,常州市,钟楼,颗粒物(PM10),63,76,102,23,27,14,14,56,28,54,32,9,9,0.5,0.4
2025-11-26T0000,3429A,119.8598,31.7066,常州市,武进经发区,颗粒物(PM10),70,89,137,35,31,3,3,68,23,74,32,10,10,0.4,0.3
2025-11-26T0000,3430A,119.5826,31.7245,常州市,金坛城区,,,108,126,48,29,,,68,,55,20,7,7,0.7,0.7
2025-11-26T0000,2220A,120.4318,41.5881,朝阳市,西梁,细颗粒物(PM2.5),52,40,27,36,12,12,12,56,40,43,19,8,8,0.8,0.5
2025-11-26T0000,2221A,120.4521,41.5646,朝阳市,河畔小区,,25,25,18,17,8,43,43,62,52,19,14,10,8,0.5,0.4
2025-11-26T0000,2222A,120.4176,41.5648,朝阳市,八里堡,,32,28,25,22,16,19,19,52,35,40,22,11,11,0.3,0.3
2025-11-26T0000,2223A,120.3806,41.5969,朝阳市,农业园区,,38,34,26,26,19,24,24,63,26,32,22,8,8,0.7,0.5
2025-11-26T0000,1705A,116.6367,23.6719,潮州市,西园路,,,,,,,,,,,,,,,,
2025-11-26T0000,3026A,116.6183,23.6608,潮州市,市政府,,48,48,38,18,16,74,74,98,86,5,6,6,6,0.3,0.4
2025-11-26T0000,4036A,116.6461,23.6761,潮州市,金山,,36,36,34,23,20,49,49,90,68,14,11,3,3,0.4,0.4
2025-11-26T0000,2472A,113.0073,25.9061,郴州市,马头岭,,,,,,,,,,,,,,,,
2025-11-26T0000,2473A,113.0116,25.8226,郴州市,市职中,,42,42,49,25,29,2,2,80,33,39,21,3,4,0.4,0.4
2025-11-26T0000,2475A,113.0383,25.8071,郴州市,市审计局,颗粒物(PM10),53,56,53,29,28,8,8,85,41,39,23,4,4,0.4,0.4
2025-11-26T0000,2476A,113.0348,25.7759,郴州市,市环保局,细颗粒物(PM2.5),73,94,56,53,30,0,0,86,44,57,26,4,7,0.6,0.4
2025-11-26T0000,4252A,113.0138,25.8011,郴州市,好美居路49号,颗粒物(PM10),52,54,46,30,30,4,4,90,44,48,23,5,6,0.3,0.3
2025-11-26T0000,1431A,103.9728,30.7236,成都市,金泉两河,细颗粒物(PM2.5),115,117,109,87,69,15,15,69,30,49,44,4,3,0.7,0.9
2025-11-26T0000,1432A,104.176,30.6872,成都市,十里店,细颗粒物(PM2.5),113,124,104,85,56,5,5,88,51,86,50,4,4,0.9,0.8
2025-11-26T0000,1433A,104.079,30.5706,成都市,三瓦窑,细颗粒物(PM2.5),90,110,104,67,52,1,1,101,59,87,52,4,4,0.8,0.7
2025-11-26T0000,1434A,104.1114,30.63,成都市,沙河铺,细颗粒物(PM2.5),112,107,93,84,61,34,34,80,53,59,47,2,3,0.9,0.9
2025-11-26T0000,1437A,104.0786,30.6531,成都市,君平街,细颗粒物(PM2.5),118,126,106,89,68,2,2,80,48,91,46,4,5,1.0,0.8
2025-11-26T0000,1438A,103.613,31.0283,成都市,灵岩寺,,,,,,,,,,,,,,,,
2025-11-26T0000,2880A,104.0239,30.65639,成都市,大石西路,细颗粒物(PM2.5),122,110,86,92,61,1,1,83,48,74,45,3,3,1.2,0.8
2025-11-26T0000,3136A,104.2725,30.5589,成都市,龙泉驿区区政府,细颗粒物(PM2.5),70,80,73,51,39,75,75,97,90,16,17,6,6,0.5,0.5
2025-11-26T0000,3357A,104.0106,30.6931,成都市,金博路,细颗粒物(PM2.5),119,129,108,90,67,1,1,67,29,79,55,4,5,1.1,0.9
2025-11-26T0000,3359A,104.0578,30.5225,成都市,华阳,细颗粒物(PM2.5),85,88,87,63,51,14,14,88,47,77,50,5,5,1.0,0.8
2025-11-26T0000,3488A,104.3880,30.7467,成都市,青石路225号,细颗粒物(PM2.5),79,94,80,58,40,15,15,86,59,49,31,3,4,0.6,0.5
2025-11-26T0000,3489A,104.0789,30.4072,成都市,科学城,细颗粒物(PM2.5),69,80,84,50,55,3,3,92,51,50,27,5,5,0.7,0.5
2025-11-26T0000,4011A,103.8506,30.6947,成都市,光华大道三段,细颗粒物(PM2.5),137,137,112,104,78,22,22,77,35,45,40,3,3,0.8,0.8
2025-11-26T0000,4224A,104.2433,30.5353,成都市,鲸龙路1057号,细颗粒物(PM2.5),92,93,83,68,46,21,21,100,78,65,32,6,6,0.8,0.7
2025-11-26T0000,1062A,117.9531,40.9081,承德市,铁路,,40,40,29,18,12,11,11,47,13,28,18,4,6,0.7,0.5
2025-11-26T0000,1063A,117.9392,40.9763,承德市,中国银行,颗粒物(PM10),51,52,28,20,11,2,2,51,10,39,20,3,4,0.7,0.4
2025-11-26T0000,1064A,117.9503,40.928,承德市,开发区,,50,50,35,27,18,9,9,51,13,34,20,6,7,0.6,0.4
2025-11-26T0000,1066A,117.9268,41.0026,承德市,离宫,,,,,,,,,,,,,,,,
2025-11-26T0000,4274A,117.7994,40.9605,承德市,滨河大街98号,,48,48,30,22,15,5,5,48,23,37,17,1,14,0.4,0.7
2025-11-26T0000,2314A,117.47,30.6618,池州市,池州学院,颗粒物(PM10),83,115,153,41,38,26,26,70,41,35,24,8,7,1.0,0.4
2025-11-26T0000,3237A,117.4918,30.6617,池州市,展览馆,颗粒物(PM10),78,106,144,43,36,6,6,69,32,46,24,6,7,0.6,0.4
2025-11-26T0000,3333A,117.5627,30.695,池州市,第八中学,颗粒物(PM10),96,142,169,51,39,5,5,72,45,53,28,7,7,0.7,0.5
2025-11-26T0000,3334A,117.5038,30.6243,池州市,第十二中学,颗粒物(PM10),78,105,164,32,36,9,9,69,21,46,35,7,6,1.5,0.6
2025-11-26T0000,1744A,118.9233,42.2816,赤峰市,松山一中,,34,34,29,15,11,39,39,61,44,27,19,10,10,0.8,0.6
2025-11-26T0000,1745A,118.9576,42.2728,赤峰市,哈达街,,26,26,23,10,8,41,41,58,45,18,16,12,11,0.5,0.5
2025-11-26T0000,1746A,118.8788,42.2554,赤峰市,天义路,,23,22,19,16,12,46,46,62,50,19,16,14,11,0.8,0.7
2025-11-26T0000,3058A,119.2658,42.0353,赤峰市,银河街,,45,,33,31,22,32,32,53,41,21,16,6,7,0.8,0.8
2025-11-26T0000,3286A,118.9359,42.3147,赤峰市,桥北物流园区,,24,24,19,13,13,36,36,54,39,21,19,13,10,0.5,0.4
2025-11-26T0000,2521A,107.3476,22.4136,崇左市,市环保局江州分局,颗粒物(PM10),51,52,51,31,30,18,18,78,48,27,18,4,5,0.4,0.3
2025-11-26T0000,4256A,107.3750,22.3736,崇左市,石景林东路7号,,35,35,37,19,25,21,21,84,56,24,14,7,7,0.6,0.5
2025-11-26T0000,2298A,118.3093,32.3153,滁州市,老年大学,颗粒物(PM10),54,57,93,30,28,2,2,62,28,33,16,10,10,0.4,0.3
2025-11-26T0000,2299A,118.3244,32.2786,滁州市,人大宾馆,,,76,111,32,24,16,16,65,29,35,16,,6,0.5,0.3
2025-11-26T0000,3207A,118.3118,32.3038,滁州市,市政府原办公楼,颗粒物(PM10),55,59,96,32,27,16,16,66,39,39,20,4,5,0.6,0.4
2025-11-26T0000,3331A,118.3267,32.2634,滁州市,图书馆,颗粒物(PM10),63,75,92,34,21,21,21,64,42,38,15,7,7,0.4,0.3
2025-11-26T0000,2605A,101.5482,25.0441,楚雄彝族自治州,州环境监测站,颗粒物(PM10),53,55,35,26,21,3,3,81,,50,24,12,12,0.8,0.7
2025-11-26T0000,2606A,101.538,25.0492,楚雄彝族自治州,市经济开发区,颗粒物(PM10),54,58,43,32,25,4,4,80,44,42,18,7,15,0.7,0.6
2025-11-26T0000,2548A,107.5277,31.2827,达州市,达州职业技术学院,,,,,,,,,,,,,,,,
2025-11-26T0000,2549A,107.5086,31.2186,达州市,市环境监测站,颗粒物(PM10),58,66,61,31,25,1,1,47,15,41,36,6,7,0.6,0.6
2025-11-26T0000,2550A,107.4988,31.2132,达州市,凤凰小区,颗粒物(PM10),63,75,67,39,26,4,4,53,18,46,37,5,6,0.4,0.4
2025-11-26T0000,2551A,107.5082,31.1986,达州市,达县机关宾馆,颗粒物(PM10),68,85,69,38,29,7,7,43,8,42,38,4,6,0.6,0.6
2025-11-26T0000,2552A,107.4644,31.2124,达州市,市政中心,颗粒物(PM10),68,86,76,36,25,2,2,49,14,47,38,6,7,0.6,0.6
2025-11-26T0000,2614A,100.1542,25.7054,大理白族自治州,大理市环境监测站,,40,,30,28,26,57,57,48,46,10,18,6,7,0.6,0.7
2025-11-26T0000,2615A,100.2171,25.5811,大理白族自治州,大理古城,,44,44,30,19,22,41,41,57,43,13,12,7,8,0.7,0.6
2025-11-26T0000,1109A,121.612,38.9741,大连市,甘井子,,20,20,27,6,4,40,40,57,36,36,24,15,12,0.7,0.5
2025-11-26T0000,1110A,121.565,38.9511,大连市,周水子,,19,19,27,3,5,42,42,58,33,28,19,4,3,0.5,0.3
2025-11-26T0000,1111A,121.5637,38.8845,大连市,星海三站,,20,20,26,6,5,43,43,58,39,21,17,8,7,0.5,0.3
2025-11-26T0000,1112A,121.6302,38.9117,大连市,青泥洼桥,,17,7,7,3,4,54,54,54,49,18,17,11,10,0.4,0.3
2025-11-26T0000,1113A,121.6251,38.8638,大连市,傅家庄,,18,16,21,3,3,57,57,56,55,14,13,14,10,0.9,0.7
2025-11-26T0000,1114A,121.5213,38.8661,大连市,七贤岭,,20,20,31,3,4,38,38,59,46,17,11,5,6,0.8,0.5
2025-11-26T0000,1115A,121.2529,38.8061,大连市,旅顺,,19,12,16,3,5,59,59,63,52,12,10,8,6,0.4,0.3
2025-11-26T0000,1116A,121.7485,39.1311,大连市,金州,,28,28,18,10,5,40,40,57,46,24,9,8,7,0.4,0.2
2025-11-26T0000,1117A,121.7811,39.0496,大连市,开发区,,33,24,31,6,5,6,6,52,29,65,18,11,8,0.3,0.1
2025-11-26T0000,1118A,121.9762,39.0631,大连市,双D港,,18,18,24,3,4,48,48,63,48,19,11,10,10,0.4,0.4
2025-11-26T0000,1789A,124.81117,46.03138,大庆市,大同区,细颗粒物(PM2.5),129,108,102,98,82,16,16,46,24,31,24,7,8,1.0,0.9
2025-11-26T0000,1790A,125.129,46.533,大庆市,龙凤区,细颗粒物(PM2.5),117,124,91,88,77,44,44,65,60,24,27,6,8,0.9,0.8
2025-11-26T0000,1791A,124.902,46.408,大庆市,红岗区,细颗粒物(PM2.5),95,119,79,71,62,8,8,46,15,38,27,6,7,0.6,0.6
2025-11-26T0000,1792A,125.153,46.586,大庆市,萨尔图区,细颗粒物(PM2.5),137,138,85,104,64,32,32,43,36,25,30,9,9,0.6,0.7
2025-11-26T0000,1793A,124.9042,46.6215,大庆市,让胡路区,细颗粒物(PM2.5),132,133,68,100,52,21,21,46,32,36,23,10,8,0.8,0.6
2025-11-26T0000,3481A,125.141,46.634,大庆市,萨区政府监测点,细颗粒物(PM2.5),98,108,67,73,40,38,38,49,44,17,20,9,9,0.6,0.6
2025-11-26T0000,1721A,113.3819,40.1097,大同市,果树场,颗粒物(PM10),70,90,99,32,40,24,24,62,29,48,40,13,14,1.0,1.1
2025-11-26T0000,1723A,113.2994,40.0758,大同市,云冈宾馆,颗粒物(PM10),68,86,106,30,32,14,14,47,15,50,40,10,11,0.7,0.9
2025-11-26T0000,1724A,113.3444,40.0917,大同市,大同大学,颗粒物(PM10),58,65,78,16,27,52,52,57,29,24,42,8,10,0.4,0.7
2025-11-26T0000,1725A,113.2661,40.1269,大同市,安家小村,颗粒物(PM10),54,57,83,21,30,40,40,46,34,30,34,14,15,0.5,0.9
2025-11-26T0000,1726A,113.2711,40.0844,大同市,教育学院,颗粒物(PM10),59,67,97,25,41,31,31,44,19,34,39,10,14,0.5,0.8
2025-11-26T0000,3282A,113.3397,40.0597,大同市,大同市卫生学校,颗粒物(PM10),97,143,86,56,34,4,4,52,16,73,46,12,14,1.3,0.9
2025-11-26T0000,3565A,113.1367,40.1122,大同市,云冈站,,50,50,58,18,17,12,12,61,29,40,23,7,9,0.5,0.5
2025-11-26T0000,3566A,113.1186,40.2556,大同市,图书馆,颗粒物(PM10),61,71,58,27,25,37,37,68,39,29,18,13,9,0.7,0.7
2025-11-26T0000,3567A,113.5931,40.0461,大同市,区一中,颗粒物(PM10),78,105,88,40,33,13,13,68,32,59,30,26,19,1.0,0.7
2025-11-26T0000,4199A,113.2798,40.0997,大同市,魏都大道141号,颗粒物(PM10),59,68,106,22,37,38,38,46,20,33,45,9,12,0.8,1.3
2025-11-26T0000,2269A,124.1069,50.4097,大兴安岭地区,科技局,,30,26,18,21,15,26,26,34,28,9,8,5,5,0.3,0.2
2025-11-26T0000,3663A,124.1164,50.4278,大兴安岭地区,红旗社区,,19,17,28,13,15,20,20,22,22,20,27,6,7,0.4,0.5
2025-11-26T0000,1600A,124.3303,40.0625,丹东市,江湾东路,细颗粒物(PM2.5),82,66,61,60,53,20,20,62,32,40,27,9,9,1.4,0.8
2025-11-26T0000,1601A,124.4256,40.1503,丹东市,临江后街,细颗粒物(PM2.5),73,72,80,53,54,16,16,60,31,42,22,7,7,1.0,0.8
2025-11-26T0000,1602A,124.3933,40.1461,丹东市,元宝山,细颗粒物(PM2.5),69,57,61,50,53,47,47,61,52,17,18,9,9,0.7,0.8
2025-11-26T0000,1603A,124.3633,40.1092,丹东市,民主桥,细颗粒物(PM2.5),69,66,67,50,42,35,35,60,42,38,31,7,6,1.0,0.7
2025-11-26T0000,3541A,109.5726,19.5167,儋州市,第一中学子站,,43,43,48,21,27,78,78,104,92,10,8,8,10,0.5,0.5
2025-11-26T0000,3542A,109.5567,19.5187,儋州市,东坡学校子站,,46,46,50,19,26,78,78,116,99,10,11,6,5,0.5,0.5
2025-11-26T0000,2616A,98.5842,24.428,德宏傣族景颇族自治州,德宏州监测站,,39,34,39,27,29,35,35,74,49,13,18,8,9,0.6,0.7
2025-11-26T0000,3677A,98.5881,24.4368,德宏傣族景颇族自治州,芒市人民政府综合楼,,41,41,37,20,19,33,33,68,48,11,14,7,8,0.7,0.8
2025-11-26T0000,1901A,104.4239,31.1208,德阳市,东山公园,细颗粒物(PM2.5),100,96,87,75,47,52,52,87,75,26,20,2,2,0.9,0.7
2025-11-26T0000,1902A,104.3826,31.1317,德阳市,西小区,细颗粒物(PM2.5),102,127,115,76,52,10,10,75,53,54,39,3,5,0.7,0.6
2025-11-26T0000,1904A,104.3553,31.1091,德阳市,耐火材料厂,细颗粒物(PM2.5),117,127,107,88,58,20,20,84,57,45,44,1,8,0.9,0.8
2025-11-26T0000,3639A,104.4019,31.1244,德阳市,市教育局,细颗粒物(PM2.5),93,104,87,69,50,0,0,70,38,72,39,3,2,0.8,0.7
2025-11-26T0000,1622A,116.3032,37.4674,德州市,儿童乐园,颗粒物(PM10),71,92,46,34,14,36,36,61,43,28,21,17,11,0.6,0.5
2025-11-26T0000,1624A,116.2991,37.4451,德州市,监理站,颗粒物(PM10),70,90,37,31,13,41,41,67,48,37,25,18,11,0.5,0.4
2025-11-26T0000,3066A,116.2721,37.4379,德州市,九衢泉纯净水厂,颗粒物(PM10),74,97,47,31,20,28,28,57,31,39,32,16,12,0.8,0.7
2025-11-26T0000,3371A,116.3728,37.4403,德州市,开发区人民医院,颗粒物(PM10),74,97,45,39,18,26,26,64,37,47,29,19,14,0.8,0.6
2025-11-26T0000,3511A,116.5652,37.3319,德州市,陵城艺术中心,颗粒物(PM10),69,88,45,27,12,30,30,59,36,40,27,14,13,0.4,0.5
2025-11-26T0000,4292A,116.3525,37.4209,德州市,新河东路,颗粒物(PM10),69,88,45,39,19,26,26,59,30,47,36,14,11,0.6,0.6
2025-11-26T0000,2621A,99.7056,27.8317,迪庆藏族自治州,迪庆州站,,24,,18,13,14,74,74,73,72,4,6,6,6,0.7,0.7
2025-11-26T0000,3180A,99.7136,27.8094,迪庆藏族自治州,质量技术监督局,,24,,19,13,12,76,76,75,73,4,8,7,7,0.4,0.6
2025-11-26T0000,4257A,104.6092,35.5962,定西市,将台街,颗粒物(PM10),77,103,69,48,36,4,4,72,30,51,31,18,14,0.8,0.8
2025-11-26T0000,4309A,104.6159,35.5701,定西市,正龙路62号,细颗粒物(PM2.5),90,116,74,67,35,16,16,76,49,34,19,8,8,1.1,0.8
2025-11-26T0000,1389A,113.7547,23.0494,东莞市,莞城梨川,颗粒物(PM10),52,53,45,25,25,92,92,110,92,20,16,5,6,0.5,0.5
2025-11-26T0000,1390A,113.7944,23.0128,东莞市,东城石井,,48,48,41,24,22,67,67,112,81,25,16,7,9,0.4,0.4
2025-11-26T0000,1391A,113.7383,22.9658,东莞市,南城西平,,,54,42,20,21,,,114,,84,27,8,9,0.6,0.6
2025-11-26T0000,3319A,113.7338,23.0381,东莞市,万江金泰,颗粒物(PM10),51,51,45,24,22,81,81,106,86,21,13,6,7,0.7,0.7
2025-11-26T0000,3626A,113.7533,23.0202,东莞市,南城元岭,,49,49,42,21,22,99,99,116,99,16,14,8,8,0.3,0.3
2025-11-26T0000,3627A,113.7875,23.0457,东莞市,东城主山,颗粒物(PM10),52,54,44,24,23,100,100,120,94,15,16,7,7,0.3,0.3
2025-11-26T0000,1666A,118.6614,37.4309,东营市,市环保局,颗粒物(PM10),57,63,30,39,8,6,6,59,21,60,28,22,10,0.7,0.5
2025-11-26T0000,3036A,118.6904,37.4338,东营市,开发区管委会,颗粒物(PM10),52,54,35,27,7,34,34,66,36,41,23,10,6,0.4,0.2
2025-11-26T0000,3365A,118.5719,37.565,东营市,垦利区民丰路,颗粒物(PM10),52,53,28,29,6,21,21,63,30,57,24,13,4,0.8,0.7
2025-11-26T0000,3498A,118.5055,37.8612,东营市,河口城区,颗粒物(PM10),53,56,31,29,9,13,13,70,33,58,22,9,6,0.5,0.4
2025-11-26T0000,3646A,118.4978,37.4623,东营市,胜利站,颗粒物(PM10),55,59,31,24,10,7,7,57,20,72,35,23,14,0.6,0.6
2025-11-26T0000,3734A,118.35,37.26,东营市,理想之城,颗粒物(PM10),57,63,33,39,13,1,1,54,13,73,34,30,9,0.6,0.5
2025-11-26T0000,1591A,110.0023,39.8129,鄂尔多斯市,综合楼,颗粒物(PM10),86,122,70,31,15,77,77,72,72,7,23,7,13,0.3,0.5
2025-11-26T0000,1592A,109.9486,39.8261,鄂尔多斯市,巴音孟克林场办事处,颗粒物(PM10),98,146,82,39,20,74,74,73,,7,18,5,10,0.2,0.4
2025-11-26T0000,1593A,109.7736,39.5986,鄂尔多斯市,康泽苑,颗粒物(PM10),91,132,88,36,23,83,83,83,82,6,23,4,8,0.3,0.4
2025-11-26T0000,1594A,109.8119,39.5989,鄂尔多斯市,华泰汽车城,颗粒物(PM10),92,134,97,39,22,81,81,78,78,6,27,6,10,0.2,0.3
2025-11-26T0000,1595A,109.9734,39.7884,鄂尔多斯市,奥林花园,颗粒物(PM10),108,166,93,34,18,46,46,61,58,40,30,18,11,0.3,0.5
2025-11-26T0000,2436A,114.8938,30.3994,鄂州市,市政府,颗粒物(PM10),85,119,126,40,38,20,20,57,22,48,31,11,11,0.5,0.5
2025-11-26T0000,2437A,114.8989,30.3714,鄂州市,赵家坝,颗粒物(PM10),83,116,137,41,33,18,18,67,23,29,21,10,10,0.7,0.7
2025-11-26T0000,3654A,114.8094,30.4089,鄂州市,精准医疗中心,颗粒物(PM10),87,124,123,48,36,5,5,72,40,66,17,9,5,1.6,0.8
2025-11-26T0000,2454A,109.4978,30.2981,恩施土家族苗族自治州,湖北民院,细颗粒物(PM2.5),85,73,50,63,36,26,26,81,54,14,12,6,6,0.6,0.5
2025-11-26T0000,2455A,109.4707,30.2798,恩施土家族苗族自治州,州电力总公司,细颗粒物(PM2.5),103,96,58,77,40,2,2,60,25,28,18,6,6,0.7,0.5
2025-11-26T0000,3549A,109.5061,30.3772,恩施土家族苗族自治州,龙凤新区,颗粒物(PM10),59,67,52,40,29,17,17,75,42,12,14,7,7,0.3,0.2
2025-11-26T0000,2499A,108.3411,21.6158,防城港市,沙万,,41,41,41,21,22,76,76,94,83,13,9,7,7,0.5,0.4
2025-11-26T0000,2500A,108.3514,21.7731,防城港市,防城档案局,颗粒物(PM10),53,56,53,24,18,74,74,86,76,16,12,8,8,0.4,0.4
2025-11-26T0000,2501A,108.3506,21.6414,防城港市,大海花园,,45,45,38,30,23,99,99,102,98,10,9,6,6,0.5,0.4
2025-11-26T0000,1371A,113.1294,23.0067,佛山市,湾梁,,41,41,42,24,18,72,72,99,82,28,21,7,9,0.4,0.5
2025-11-26T0000,1372A,113.1083,23.0478,佛山市,华材职中,,44,44,49,30,28,80,80,102,,21,19,5,8,0.4,0.7
2025-11-26T0000,1373A,113.144,23.0453,佛山市,南海气象局,颗粒物(PM10),52,53,44,24,20,77,77,106,86,25,20,7,9,0.5,0.5
2025-11-26T0000,1374A,113.2881,22.8094,佛山市,顺德苏岗,,50,50,39,24,23,72,72,104,78,28,22,8,10,0.3,0.4
2025-11-26T0000,1376A,112.8383,22.8678,佛山市,高明孔堂,颗粒物(PM10),53,56,47,28,27,40,40,105,75,37,19,6,8,0.3,0.3
2025-11-26T0000,1377A,112.8836,23.1588,佛山市,三水监测站,颗粒物(PM10),58,66,51,34,26,44,44,90,61,49,26,8,8,0.6,0.5
2025-11-26T0000,1378A,112.867,23.185,佛山市,三水云东海,,48,48,40,29,23,39,39,98,58,41,24,8,6,0.6,0.5
2025-11-26T0000,3625A,113.2544,22.7642,佛山市,容桂街道办,,48,48,45,27,25,70,70,106,81,30,24,6,8,0.6,0.5
2025-11-26T0000,1280A,119.3903,26.0543,福州市,鼓山,,,,53,,18,,,140,140,,9,,3,,0.7
2025-11-26T0000,1282A,119.2681,26.0504,福州市,师大,颗粒物(PM10),80,110,52,40,23,114,114,123,120,12,12,7,8,0.2,0.4
2025-11-26T0000,1283A,119.2984,26.1028,福州市,五四北路,颗粒物(PM10),83,115,54,36,25,111,111,124,122,14,17,6,5,0.5,0.4
2025-11-26T0000,1284A,119.2648,26.0768,福州市,杨桥西路,颗粒物(PM10),84,118,54,34,23,114,114,124,122,11,12,5,5,0.4,0.3
2025-11-26T0000,1285A,119.317,26.0746,福州市,紫阳,颗粒物(PM10),91,131,62,38,24,110,110,121,120,12,18,8,8,0.4,0.4
2025-11-26T0000,3048A,119.5799,26.0936,福州市,九龙,颗粒物(PM10),96,142,57,32,22,102,102,136,125,13,13,5,5,0.3,0.4
2025-11-26T0000,3526A,119.5189,25.9664,福州市,吴航,颗粒物(PM10),73,96,50,34,25,94,94,133,122,15,16,6,7,0.4,0.5
2025-11-26T0000,1755A,123.7977,41.8491,抚顺市,望花区,细颗粒物(PM2.5),127,127,80,96,52,16,16,58,21,43,29,18,10,0.9,0.7
2025-11-26T0000,1756A,123.9161,41.8822,抚顺市,顺城区,细颗粒物(PM2.5),200,194,102,150,67,9,9,61,21,52,30,8,8,1.6,0.8
2025-11-26T0000,1757A,124.0436,41.8611,抚顺市,东洲区,细颗粒物(PM2.5),123,112,83,93,72,38,38,63,34,20,23,7,11,0.7,0.8
2025-11-26T0000,1758A,123.9247,41.8642,抚顺市,新抚区,细颗粒物(PM2.5),176,171,97,133,67,4,4,57,18,49,28,7,9,1.3,0.8
2025-11-26T0000,1759A,124.0972,41.8961,抚顺市,大伙房水库,细颗粒物(PM2.5),142,128,99,108,77,17,17,76,38,52,27,11,11,0.9,0.8
2025-11-26T0000,1760A,123.7086,41.8391,抚顺市,沈抚新城,细颗粒物(PM2.5),133,127,77,101,50,16,16,60,18,35,25,8,9,0.8,0.6
2025-11-26T0000,2376A,116.2127,28.0814,抚州市,桐源党溪,,,,,,,,,,,,,,,,
2025-11-26T0000,2377A,116.3544,27.9831,抚州市,市站,颗粒物(PM10),92,133,116,35,31,28,28,88,73,35,15,7,7,0.5,0.5
2025-11-26T0000,2378A,116.3565,27.963,抚州市,血防站,颗粒物(PM10),80,109,104,33,33,17,17,88,71,53,20,4,5,0.3,0.5
2025-11-26T0000,2379A,116.3564,28.0007,抚州市,采茶剧团,颗粒物(PM10),91,132,117,40,34,19,19,90,66,44,14,4,5,0.7,0.6
2025-11-26T0000,2380A,116.385,27.9647,抚州市,医学分院,颗粒物(PM10),95,139,124,36,31,19,19,96,66,39,19,5,5,0.9,0.7
2025-11-26T0000,2207A,121.6094,41.998,阜新市,工业园区,细颗粒物(PM2.5),62,62,49,44,26,12,12,71,63,46,21,33,13,0.5,0.4
2025-11-26T0000,2208A,121.6697,42.0279,阜新市,长青街,,49,49,29,32,12,20,20,54,37,34,17,23,12,0.6,0.4
2025-11-26T0000,2209A,121.6673,42.0705,阜新市,农业园区,细颗粒物(PM2.5),55,51,26,39,15,31,31,56,43,30,14,16,9,0.5,0.3
2025-11-26T0000,2210A,121.6717,42.0224,阜新市,东苑,"颗粒物(PM10),细颗粒物(PM2.5)",53,55,36,37,14,15,15,54,38,44,19,30,13,0.8,0.5
2025-11-26T0000,2211A,121.6506,42.0498,阜新市,玉龙新城,"颗粒物(PM10),细颗粒物(PM2.5)",57,64,36,40,18,6,6,61,33,51,21,13,10,0.7,0.4
2025-11-26T0000,2301A,115.8277,32.8929,阜阳市,市监测站,颗粒物(PM10),73,96,96,40,33,44,44,66,37,22,24,4,5,0.3,0.3
2025-11-26T0000,2303A,115.8554,32.8605,阜阳市,开发区,颗粒物(PM10),85,119,117,21,20,56,56,64,56,22,22,6,5,0.3,0.4
2025-11-26T0000,2875A,115.784,32.8892,阜阳市,阜阳职业技术学院,颗粒物(PM10),66,82,80,23,22,66,66,72,66,15,18,7,8,0.4,0.3
2025-11-26T0000,3468A,115.7901,32.8613,阜阳市,市规划展馆,颗粒物(PM10),85,120,106,41,27,40,40,67,46,24,17,5,6,0.4,0.3
2025-11-26T0000,3469A,115.836,32.9183,阜阳市,枣园社区,颗粒物(PM10),76,102,104,28,24,45,45,62,45,33,28,2,3,0.2,0.3
2025-11-26T0000,2669A,102.9099,34.9841,甘南藏族自治州,州政府,颗粒物(PM10),80,109,73,37,34,7,7,68,25,53,39,9,8,1.3,0.8
2025-11-26T0000,3380A,102.8914,34.9617,甘南藏族自治州,甘肃民族师范学院,颗粒物(PM10),84,118,87,28,23,0,0,63,18,46,33,8,8,0.9,0.9
2025-11-26T0000,2570A,101.9603,30.0475,甘孜藏族自治州,水桥子,,29,29,23,10,6,20,20,77,44,37,23,8,8,0.6,0.5
2025-11-26T0000,3065A,101.9533,29.9972,甘孜藏族自治州,州环保局,,28,28,22,3,4,12,12,75,45,45,15,5,5,0.6,0.5
2025-11-26T0000,3414A,115.8347,28.932,赣江新区,桑海产业园,颗粒物(PM10),76,102,138,20,27,19,19,72,35,44,21,10,9,0.6,0.6
2025-11-26T0000,2362A,114.9017,25.9149,赣州市,通天岩,颗粒物(PM10),54,58,56,22,25,52,52,113,72,5,7,16,16,0.9,0.9
2025-11-26T0000,2363A,114.9367,25.8664,赣州市,地委,颗粒物(PM10),70,89,64,30,34,56,56,96,76,20,19,6,9,0.4,0.4
2025-11-26T0000,2364A,114.9461,25.8481,赣州市,气象台,颗粒物(PM10),76,102,75,36,30,63,63,104,82,22,20,5,9,0.6,0.7
2025-11-26T0000,2365A,114.9322,25.8333,赣州市,市图书馆,颗粒物(PM10),74,98,70,29,30,70,70,103,87,18,15,5,8,0.6,0.7
2025-11-26T0000,2366A,114.8905,25.8471,赣州市,华坚鞋城,颗粒物(PM10),72,93,73,19,27,73,73,89,80,14,17,5,7,0.3,0.4
2025-11-26T0000,3109A,115.0093,25.8613,赣州市,赣县区卫计委,颗粒物(PM10),66,82,67,36,42,21,21,111,72,39,20,7,8,0.5,0.6
2025-11-26T0000,2683A,106.2319,36.1417,固原市,马园,,,,,,,,,,,,,,,,
2025-11-26T0000,2684A,106.2792,36.0022,固原市,监测站,颗粒物(PM10),67,83,56,46,25,16,16,78,32,49,26,14,7,1.7,0.7
2025-11-26T0000,2685A,106.2375,36.0211,固原市,新区,颗粒物(PM10),63,75,58,26,23,5,5,80,21,60,29,5,5,0.7,0.5
2025-11-26T0000,3522A,106.2177,35.9959,固原市,原州区十五小,颗粒物(PM10),51,51,52,15,17,40,40,79,50,30,14,9,8,0.5,0.4
2025-11-26T0000,2543A,106.6308,30.5278,广安市,小平旧居,,,,,,,,,,,,,,,,
2025-11-26T0000,2544A,106.6303,30.4576,广安市,市委,细颗粒物(PM2.5),65,75,75,47,39,56,56,82,64,22,29,3,4,0.6,0.6
2025-11-26T0000,2545A,106.6271,30.4663,广安市,友谊中学,颗粒物(PM10),61,71,66,41,32,67,67,79,66,15,22,7,8,0.7,0.7
2025-11-26T0000,2547A,106.6388,30.4551,广安市,广电花园,颗粒物(PM10),59,67,68,41,32,44,44,74,59,19,21,2,3,0.6,0.6
2025-11-26T0000,2902A,106.6351,30.4865,广安市,北辰小学,颗粒物(PM10),63,76,72,40,30,55,55,84,74,14,15,15,13,0.7,0.6
2025-11-26T0000,2523A,105.8945,32.4535,广元市,黑石坡,,,,,,,,,,,,,,,,
2025-11-26T0000,2524A,105.821,32.4444,广元市,老城,颗粒物(PM10),62,74,62,43,31,5,5,29,13,46,41,4,5,0.7,0.7
2025-11-26T0000,2526A,105.8628,32.4287,广元市,监测站,"颗粒物(PM10),细颗粒物(PM2.5)",57,63,50,40,30,6,6,25,15,35,31,4,7,0.8,0.8
2025-11-26T0000,3617A,105.8047,32.4166,广元市,经开区,颗粒物(PM10),72,94,87,49,40,0,0,16,5,40,41,4,16,0.8,0.9
2025-11-26T0000,1345A,113.2347,23.1423,广州市,广雅中学,颗粒物(PM10),55,60,50,30,27,52,52,94,70,57,31,7,9,0.6,0.7
2025-11-26T0000,1346A,113.2612,23.105,广州市,市五中,颗粒物(PM10),51,51,45,30,28,84,84,116,94,31,23,9,12,0.5,0.6
2025-11-26T0000,1348A,113.3478,23.0916,广州市,广东商学院,颗粒物(PM10),52,53,45,28,25,72,72,108,87,29,17,6,8,0.5,0.5
2025-11-26T0000,1349A,113.4332,23.1047,广州市,市八十六中,,47,47,38,32,26,47,47,110,81,50,14,7,8,0.7,0.5
2025-11-26T0000,1350A,113.3505,22.9483,广州市,番禺中学,颗粒物(PM10),54,58,48,27,24,69,69,110,87,33,18,5,6,0.2,0.2
2025-11-26T0000,1351A,113.2146,23.3916,广州市,花都师范,颗粒物(PM10),51,52,44,24,23,95,95,107,98,16,17,6,8,0.2,0.2
2025-11-26T0000,1352A,113.2597,23.1331,广州市,市监测站,颗粒物(PM10),51,52,47,27,27,85,85,110,87,26,24,7,9,0.3,0.3
2025-11-26T0000,1353A,113.5618,23.312,广州市,九龙镇镇龙,颗粒物(PM10),52,54,42,29,25,49,49,96,83,32,13,6,7,0.4,0.4
2025-11-26T0000,1354A,113.2765,23.1544,广州市,麓湖,,46,46,42,28,27,48,48,101,62,59,26,7,10,0.5,0.6
2025-11-26T0000,1355A,113.443,23.3035,广州市,帽峰山森林公园,,,,,,,,,,,,,,,,
2025-11-26T0000,2846A,113.3221,23.1322,广州市,体育西,颗粒物(PM10),52,53,46,29,28,60,60,105,80,42,21,8,11,0.6,0.6
2025-11-26T0000,3298A,113.5717,23.5491,广州市,从化街口,,45,45,41,23,24,79,79,104,92,23,12,6,8,0.5,0.5
2025-11-26T0000,3299A,113.3472,23.3692,广州市,白云竹料,,46,46,41,24,24,78,78,109,86,23,15,4,7,0.5,0.5
2025-11-26T0000,3300A,113.2981,23.237,广州市,白云嘉禾,颗粒物(PM10),55,60,49,28,27,61,61,110,74,44,25,7,10,0.4,0.6
2025-11-26T0000,3301A,113.4256,23.1716,广州市,黄埔科学城,颗粒物(PM10),51,51,44,28,27,65,65,113,89,27,12,6,8,0.5,0.5
2025-11-26T0000,3302A,113.3942,23.0483,广州市,番禺大学城,,46,46,42,24,23,63,63,122,92,38,16,11,12,0.3,0.4
2025-11-26T0000,3303A,113.4922,22.8168,广州市,南沙黄阁,细颗粒物(PM2.5),57,61,55,40,31,73,73,116,80,37,30,12,11,0.4,0.7
2025-11-26T0000,3304A,113.5342,22.7896,广州市,南沙街,颗粒物(PM10),52,54,51,29,27,74,74,114,80,29,23,9,8,0.5,0.5
2025-11-26T0000,3443A,113.2902,23.5544,广州市,花都梯面,,46,46,37,25,23,99,99,108,102,12,11,8,9,0.3,0.4
2025-11-26T0000,3445A,113.7858,23.7478,广州市,从化良口,,42,42,38,20,22,77,77,106,93,23,12,8,9,0.5,0.6
2025-11-26T0000,3446A,113.8051,23.2614,广州市,增城荔城,,46,46,39,22,22,100,100,109,94,10,11,6,8,0.4,0.5
2025-11-26T0000,2505A,109.568,23.1478,贵港市,德智高中,,,,,,,,,,,,,,,,
2025-11-26T0000,2506A,109.6047,23.0666,贵港市,江南子站,颗粒物(PM10),62,73,47,32,26,66,66,111,100,30,10,5,6,0.5,0.5
2025-11-26T0000,2508A,109.5669,23.1065,贵港市,荷城子站,颗粒物(PM10),59,68,46,27,20,84,84,102,97,15,12,5,5,0.5,0.5
2025-11-26T0000,3405A,109.5886,23.1172,贵港市,新世纪学校,颗粒物(PM10),64,78,53,27,26,96,96,109,104,5,7,4,5,0.3,0.3
2025-11-26T0000,4260A,109.5933,23.0951,贵港市,中山路155-3号,颗粒物(PM10),54,58,42,28,26,93,93,111,106,10,8,5,5,0.2,0.3
2025-11-26T0000,1439A,106.6899,26.5998,贵阳市,马鞍山,细颗粒物(PM2.5),77,80,49,56,27,6,6,77,33,40,20,4,5,0.7,0.4
2025-11-26T0000,1441A,106.6243,26.6266,贵阳市,鉴湖路,颗粒物(PM10),63,75,64,31,24,50,50,89,50,46,33,7,5,0.7,0.5
2025-11-26T0000,1442A,106.7487,26.6343,贵阳市,燕子冲,细颗粒物(PM2.5),67,66,47,48,38,29,29,92,54,34,19,8,8,0.5,0.4
2025-11-26T0000,1443A,106.6555,26.4365,贵阳市,碧云窝,细颗粒物(PM2.5),113,127,72,85,38,3,3,77,42,40,17,12,7,0.8,0.5
2025-11-26T0000,1445A,106.7109,26.6027,贵阳市,红边门,,,73,60,48,34,28,28,91,44,40,26,29,20,,0.7
2025-11-26T0000,1446A,106.7164,26.5699,贵阳市,新华路,细颗粒物(PM2.5),73,92,75,53,36,20,20,101,31,44,29,16,25,0.3,0.3
2025-11-26T0000,1447A,106.674,26.5424,贵阳市,太慈桥,细颗粒物(PM2.5),92,92,54,68,31,5,5,92,44,46,24,5,6,0.7,0.3
2025-11-26T0000,1552A,106.805,26.3003,贵阳市,桐木岭,,41,41,69,27,42,67,67,97,70,3,7,46,34,0.9,0.9
2025-11-26T0000,4230A,106.6882,26.5695,贵阳市,花果园大街66号,细颗粒物(PM2.5),85,80,54,63,38,19,19,91,40,54,31,21,8,1.0,0.6
2025-11-26T0000,4231A,106.6873,26.5169,贵阳市,漓江路57号,细颗粒物(PM2.5),110,119,57,83,38,0,0,88,37,70,27,47,18,1.3,0.5
2025-11-26T0000,1862A,110.4144,25.3167,桂林市,电子科大尧山校区,,,,,,,,,,,,,,,,
2025-11-26T0000,1864A,110.3089,25.2708,桂林市,龙隐路小学,,45,45,50,14,22,74,74,89,81,14,11,7,8,0.4,0.4
2025-11-26T0000,1865A,110.2869,25.2178,桂林市,八中,,44,44,52,20,22,70,70,85,76,15,12,9,9,0.4,0.2
2025-11-26T0000,3531A,110.296,25.1253,桂林市,旅游学院,颗粒物(PM10),52,53,56,22,20,70,70,98,86,16,9,5,6,0.2,0.2
2025-11-26T0000,4222A,110.1835,25.2444,桂林市,环湖路276号,,48,48,57,22,26,76,76,84,76,11,9,11,9,0.3,0.3
2025-11-26T0000,4301A,110.2803,25.2773,桂林市,信义路13号,,44,44,54,16,21,76,76,86,78,12,11,8,9,0.3,0.4
2025-11-26T0000,2674A,100.2561,34.4714,果洛藏族自治州,玛沁县大武镇,,48,48,55,22,14,44,44,83,67,8,5,11,19,0.2,0.4
2025-11-26T0000,1129A,126.5422,45.755,哈尔滨市,岭北,,,,,,,,,,,,,,,,
2025-11-26T0000,1130A,126.561,45.8167,哈尔滨市,松北商大,细颗粒物(PM2.5),274,239,110,224,83,39,39,37,28,38,35,6,8,1.0,0.7
2025-11-26T0000,1131A,126.979,45.5419,哈尔滨市,阿城会宁,细颗粒物(PM2.5),328,,142,278,132,43,43,46,38,29,37,6,9,1.3,1.2
2025-11-26T0000,1132A,126.599,45.7222,哈尔滨市,南岗学府路,细颗粒物(PM2.5),308,292,119,258,94,18,18,39,32,53,32,8,13,1.2,0.8
2025-11-26T0000,1133A,126.689,45.7733,哈尔滨市,太平宏伟公园,细颗粒物(PM2.5),368,,113,318,96,40,40,33,33,40,34,8,12,1.2,0.8
2025-11-26T0000,1134A,126.635,45.7667,哈尔滨市,道外承德广场,细颗粒物(PM2.5),347,,129,297,89,30,30,41,38,55,33,9,12,0.9,0.5
2025-11-26T0000,1135A,126.685,45.7319,哈尔滨市,香坊红旗大街,细颗粒物(PM2.5),341,344,131,291,97,46,46,39,36,43,38,18,17,1.4,1
2025-11-26T0000,1136A,126.6411,45.7258,哈尔滨市,动力和平路,细颗粒物(PM2.5),420,,120,380,109,26,26,36,21,49,38,8,10,1.3,0.9
2025-11-26T0000,1137A,126.593,45.7478,哈尔滨市,道里建国路,细颗粒物(PM2.5),390,,107,340,103,36,36,36,34,52,35,25,23,2.0,1
2025-11-26T0000,1138A,126.615,45.61,哈尔滨市,平房东轻厂,细颗粒物(PM2.5),428,,144,392,131,39,39,46,39,36,40,8,13,1.3,1
2025-11-26T0000,1139A,126.595,45.9855,哈尔滨市,呼兰师专,细颗粒物(PM2.5),222,,96,172,84,21,21,42,21,51,32,28,13,1.1,0.8
2025-11-26T0000,1140A,126.6206,45.6842,哈尔滨市,省农科院,细颗粒物(PM2.5),450,,146,424,124,26,26,36,28,60,47,7,12,1.1,0.9
2025-11-26T0000,2688A,93.5128,42.8172,哈密市,地区监测站,颗粒物(PM10),129,207,103,39,39,55,55,50,48,13,28,6,10,0.1,0.3
2025-11-26T0000,2689A,93.4961,42.8328,哈密市,哈密师范学校,,,,55,,32,49,49,49,46,15,30,4,19,0.2,0.6
2025-11-26T0000,2671A,100.9048,36.9639,海北藏族自治州,海晏县西海镇,,35,35,29,21,16,57,57,81,65,6,4,7,9,0.3,0.4
2025-11-26T0000,3867A,102.0738,36.5056,海东市,平安区公安北苑,颗粒物(PM10),62,74,55,31,29,41,41,63,43,20,26,36,19,0.9,1
2025-11-26T0000,1409A,110.576,19.9507,海口市,东寨港,,,,,,,,,,,,,,,,
2025-11-26T0000,1410A,110.3232,20.0574,海口市,海南大学,,40,40,42,19,26,117,117,116,116,9,10,8,9,0.3,0.3
2025-11-26T0000,1411A,110.283,20.0053,海口市,秀英海南医院,,42,42,47,22,27,106,106,114,112,14,13,9,11,0.2,0.3
2025-11-26T0000,1412A,110.338,19.9969,海口市,海南师范大学,,41,41,46,21,26,118,118,121,120,11,11,8,9,0.3,0.4
2025-11-26T0000,1413A,110.33,20.0356,海口市,龙华路环保局宿舍,,41,41,46,21,26,116,116,117,117,11,11,9,11,0.3,0.5
2025-11-26T0000,3539A,110.5111,19.9736,海口市,桂林洋子站,,48,48,43,22,26,108,108,123,116,15,10,9,10,0.2,0.3
2025-11-26T0000,2673A,100.6188,36.2866,海南藏族自治州,共和县恰卜恰镇,颗粒物(PM10),62,73,48,28,28,19,19,90,41,35,27,11,11,0.6,0.6
2025-11-26T0000,2676A,97.3731,37.3753,海西蒙古族藏族自治州,德令哈市,,39,39,31,19,12,66,66,80,72,11,8,13,14,0.3,0.3
2025-11-26T0000,1048A,114.5302,36.6116,邯郸市,东污水处理厂,颗粒物(PM10),89,127,53,63,28,20,20,61,34,34,20,4,4,0.4,0.3
2025-11-26T0000,1049A,114.4918,36.5713,邯郸市,矿院,细颗粒物(PM2.5),113,118,50,85,35,24,24,62,38,34,21,3,3,0.4,0.3
2025-11-26T0000,1050A,114.484,36.6133,邯郸市,丛台公园,颗粒物(PM10),85,120,48,56,22,25,25,60,39,32,18,4,3,0.4,0.3
2025-11-26T0000,3458A,114.7895,36.5593,邯郸市,香泉濮院小区,颗粒物(PM10),117,184,65,61,30,29,29,62,41,25,15,8,8,0,0.3
2025-11-26T0000,3579A,114.50634,36.77178,邯郸市,永年区实验高中,颗粒物(PM10),87,123,61,54,17,25,25,61,40,40,23,6,4,0.3,0.3
2025-11-26T0000,3580A,114.20016,36.44293,邯郸市,峰峰矿区临水派出所,细颗粒物(PM2.5),67,82,45,48,25,49,49,70,57,30,18,10,6,0.7,0.5
2025-11-26T0000,2634A,106.9893,33.1842,汉中市,汉川机床厂子校,,,,,,,,,,,,,,,,
2025-11-26T0000,2635A,107.0154,33.0706,汉中市,市监测站,细颗粒物(PM2.5),112,101,69,84,44,22,22,63,31,31,32,5,7,1.0,0.7
2025-11-26T0000,2636A,107.0089,33.1138,汉中市,鑫源开发区,细颗粒物(PM2.5),83,94,69,61,42,23,23,67,36,53,29,13,7,1.3,0.8
2025-11-26T0000,2637A,107.007,33.0323,汉中市,南郑大河坎水厂,细颗粒物(PM2.5),85,85,65,63,44,29,29,58,29,20,25,8,9,0.7,0.7
2025-11-26T0000,1223A,120.2072,30.2111,杭州市,滨江,颗粒物(PM10),99,147,180,49,42,2,2,64,34,75,28,9,9,0.9,0.5
2025-11-26T0000,1224A,120.0633,30.2747,杭州市,西溪,颗粒物(PM10),75,100,135,24,31,0,0,66,33,40,19,8,9,0.3,0.2
2025-11-26T0000,1226A,120.3417,30.3150,杭州市,下沙,颗粒物(PM10),91,132,151,40,40,3,3,64,18,79,35,9,8,0.6,0.4
2025-11-26T0000,1227A,120.1269,30.2456,杭州市,卧龙桥,颗粒物(PM10),67,84,130,29,36,14,14,64,31,25,18,7,8,0.3,0.2
2025-11-26T0000,1228A,120.1903,30.2692,杭州市,浙江农大,颗粒物(PM10),106,161,148,68,47,2,2,65,28,80,38,12,9,0.8,0.5
2025-11-26T0000,1230A,120.1197,30.3119,杭州市,和睦小学,颗粒物(PM10),81,112,139,38,37,4,4,66,43,60,22,9,10,0.9,0.6
2025-11-26T0000,1231A,120.3019,30.4183,杭州市,临平镇,颗粒物(PM10),88,126,180,37,32,1,1,64,24,70,26,9,8,0.6,0.4
2025-11-26T0000,1232A,120.2753,30.1839,杭州市,城厢镇,颗粒物(PM10),100,150,153,52,43,0,0,70,27,67,28,9,8,0.5,0.2
2025-11-26T0000,1233A,120.0883,30.1808,杭州市,云栖,颗粒物(PM10),71,92,128,40,44,21,21,64,33,29,21,4,5,0.5,0.4
2025-11-26T0000,3557A,119.9464,30.0494,杭州市,镇二中,颗粒物(PM10),85,119,112,37,35,10,10,63,37,43,33,5,6,0.8,0.8
2025-11-26T0000,3558A,119.7183,30.2367,杭州市,市府大楼,颗粒物(PM10),98,146,148,48,44,19,19,70,40,24,21,9,10,0.4,0.7
2025-11-26T0000,3656A,120.1556,30.2864,杭州市,消防大队,颗粒物(PM10),87,124,149,37,38,28,28,66,41,37,23,9,10,0.3,0.3
2025-11-26T0000,1270A,117.1959,31.7848,合肥市,明珠广场,颗粒物(PM10),82,114,134,44,31,39,39,53,32,30,31,9,8,0.5,0.5
2025-11-26T0000,1271A,117.3072,31.8764,合肥市,三里街,颗粒物(PM10),81,112,125,39,28,11,11,55,24,65,37,6,6,0.6,0.5
2025-11-26T0000,1272A,117.2588,31.8707,合肥市,琥珀山庄,颗粒物(PM10),75,100,134,42,38,26,26,59,33,43,27,6,6,0.4,0.4
2025-11-26T0000,1273A,117.1604,31.9052,合肥市,董铺水库,,,,,,,,,,,,,,,,
2025-11-26T0000,1274A,117.25,31.8571,合肥市,长江中路,颗粒物(PM10),79,107,130,36,28,23,23,59,40,47,24,8,8,0.4,0.4
2025-11-26T0000,1275A,117.266,31.9436,合肥市,庐阳区,颗粒物(PM10),86,122,130,41,31,20,20,60,28,57,32,6,6,0.6,0.5
2025-11-26T0000,1276A,117.3453,31.8616,合肥市,瑶海区,颗粒物(PM10),82,114,135,39,28,24,24,54,28,57,32,5,5,0.5,0.3
2025-11-26T0000,1277A,117.3027,31.7964,合肥市,包河区,颗粒物(PM10),82,114,127,41,29,41,41,52,40,27,24,6,6,0.5,0.5
2025-11-26T0000,1278A,117.2776,31.7385,合肥市,滨湖新区,颗粒物(PM10),89,127,145,58,38,23,23,63,47,57,30,6,5,0.6,0.5
2025-11-26T0000,1279A,117.1318,31.8403,合肥市,高新区,颗粒物(PM10),85,119,129,35,28,35,35,64,40,46,31,6,5,0.6,0.6
2025-11-26T0000,3464A,117.3803,31.9147,合肥市,高教基地,颗粒物(PM10),78,105,124,41,28,14,14,61,20,45,30,5,6,0.4,0.4
2025-11-26T0000,3614A,79.924,37.0877,和田地区,地区环保局,细颗粒物(PM2.5),223,215,159,173,55,24,24,81,63,71,29,20,10,2.8,1.5
2025-11-26T0000,3615A,79.9131,37.113,和田地区,市环保局,细颗粒物(PM2.5),185,283,170,139,65,13,13,93,52,98,57,23,6,6.2,2.5
2025-11-26T0000,2516A,108.2011,24.715,河池市,东仁乐园,,,,,,,,,,,,,,,,
2025-11-26T0000,2517A,108.0497,24.6947,河池市,市环保站,,44,44,37,25,24,7,7,80,32,38,20,2,3,0.5,0.5
2025-11-26T0000,2518A,108.0983,24.6989,河池市,市疾控中心,,50,50,42,33,28,2,2,79,26,36,26,4,5,0.6,0.5
2025-11-26T0000,1696A,114.6778,23.7569,河源市,源西,,,,,,,,,,,,,,,,
2025-11-26T0000,1697A,114.6944,23.7586,河源市,东埔,颗粒物(PM10),58,66,50,33,30,88,88,108,95,15,12,8,10,0.4,0.4
2025-11-26T0000,1698A,114.6892,23.7233,河源市,老城,颗粒物(PM10),58,65,53,21,24,89,89,107,97,13,10,9,10,0.5,0.5
2025-11-26T0000,1718A,115.4208,35.2464,菏泽市,气象局,颗粒物(PM10),103,156,86,42,25,30,30,67,47,40,20,4,3,0.4,0.4
2025-11-26T0000,3374A,115.5564,35.0891,菏泽市,定陶老年大学,颗粒物(PM10),84,117,68,34,18,27,27,62,40,45,27,6,5,0.2,0.1
2025-11-26T0000,4184A,115.4797,35.24401,菏泽市,永昌路1号,颗粒物(PM10),97,143,79,45,24,35,35,53,40,34,23,4,3,0.4,0.3
2025-11-26T0000,4193A,115.4715,35.2800,菏泽市,长城路999号,颗粒物(PM10),103,156,85,38,17,43,43,62,50,28,19,3,8,0.3,0.4
2025-11-26T0000,2514A,111.5264,24.4172,贺州市,环保小区,细颗粒物(PM2.5),58,59,55,41,31,36,36,102,65,24,18,4,6,0.6,0.6
2025-11-26T0000,2515A,111.5608,24.4078,贺州市,政协大楼,颗粒物(PM10),59,67,55,34,31,10,10,92,52,41,20,7,7,1.0,0.9
2025-11-26T0000,3534A,111.4744,24.4553,贺州市,西湾,颗粒物(PM10),56,62,52,28,27,29,29,90,66,33,14,5,6,0.5,0.5
2025-11-26T0000,2385A,114.17,35.9019,鹤壁市,市监测站,颗粒物(PM10),87,124,76,38,23,26,26,59,35,36,23,6,4,0.5,0.5
2025-11-26T0000,2386A,114.2956,35.7511,鹤壁市,市交警支队,颗粒物(PM10),106,161,94,57,26,21,21,47,30,39,27,2,4,0.5,0.5
2025-11-26T0000,2387A,114.2878,35.7306,鹤壁市,迎宾馆,颗粒物(PM10),117,183,105,48,26,23,23,57,33,41,26,4,6,0.6,0.6
2025-11-26T0000,3474A,114.2617,35.6822,鹤壁市,大新区,颗粒物(PM10),117,184,100,58,31,8,8,58,23,55,30,5,4,0.5,0.5
2025-11-26T0000,3596A,114.1572,35.9603,鹤壁市,南山宾馆,颗粒物(PM10),97,144,94,43,25,28,28,61,41,31,16,7,6,0.5,0.4
2025-11-26T0000,2244A,130.2537,47.3416,鹤岗市,哈啤分公司,,50,50,36,27,18,26,26,62,26,19,14,13,13,0.8,0.6
2025-11-26T0000,2245A,130.2684,47.3086,鹤岗市,斯达机电,,43,43,33,25,16,46,46,59,44,15,14,14,14,0.9,0.8
2025-11-26T0000,2246A,130.3114,47.3388,鹤岗市,东山纸板厂,,,,60,49,25,14,14,56,13,34,24,18,16,2.6,1.2
2025-11-26T0000,2247A,130.1097,47.3382,鹤岗市,五号水库,,,,,,,,,,,,,,,,
2025-11-26T0000,2263A,127.4833,50.2524,黑河市,交通局,,25,19,25,17,17,35,35,42,32,11,16,4,4,0.3,0.5
2025-11-26T0000,2264A,127.5144,50.2341,黑河市,环保局,,26,25,32,18,21,32,32,32,32,15,23,14,13,0.4,0.5
2025-11-26T0000,2265A,127.5291,50.2472,黑河市,大黑河岛,,,,,,,,,,,,,,,,
2025-11-26T0000,1074A,115.6838,37.7541,衡水市,电机北厂,颗粒物(PM10),70,89,46,33,18,13,13,52,37,43,20,6,4,0.4,0.3
2025-11-26T0000,1075A,115.6303,37.7316,衡水市,市监测站,颗粒物(PM10),64,78,38,30,14,26,26,54,35,34,22,11,10,0.4,0.3
2025-11-26T0000,3188A,115.6683,37.7217,衡水市,市城管局,颗粒物(PM10),75,99,42,42,19,17,17,52,38,42,24,6,5,0.5,0.4
2025-11-26T0000,3459A,115.5989,37.5491,衡水市,地表水厂,颗粒物(PM10),73,95,44,46,18,4,4,58,20,55,29,8,7,0.4,0.3
2025-11-26T0000,2456A,112.5003,26.9167,衡阳市,原169医院,,,,,,,,,,,,,,,,
2025-11-26T0000,2457A,112.6194,26.9258,衡阳市,衡阳化工总厂,颗粒物(PM10),74,97,71,41,24,24,24,88,56,44,21,8,8,1.0,0.7
2025-11-26T0000,2458A,112.6211,26.8956,衡阳市,珠晖区环保局,颗粒物(PM10),65,80,63,31,27,21,21,81,49,47,25,3,4,0.9,0.8
2025-11-26T0000,2459A,112.6197,26.8733,衡阳市,市委党校,颗粒物(PM10),57,63,58,20,21,61,61,85,70,16,13,12,12,0.7,0.7
2025-11-26T0000,2460A,112.6006,26.8919,衡阳市,市监测站,颗粒物(PM10),79,108,78,50,29,9,9,86,58,58,21,9,7,1.0,0.8
2025-11-26T0000,2461A,112.5664,26.9056,衡阳市,真空机电公司,颗粒物(PM10),65,79,68,36,21,33,33,81,59,32,18,6,6,0.7,0.7
2025-11-26T0000,3399A,112.6703,26.882,衡阳市,师范学院,颗粒物(PM10),61,72,66,23,21,57,57,88,61,22,18,9,10,0.7,0.7
2025-11-26T0000,2608A,103.3772,23.3993,红河哈尼族彝族自治州,污水处理厂,细颗粒物(PM2.5),57,53,55,40,36,54,54,107,73,19,13,6,8,0.3,0.3
2025-11-26T0000,2609A,103.3861,23.35,红河哈尼族彝族自治州,监测站,细颗粒物(PM2.5),54,41,55,38,36,62,62,107,76,12,10,6,8,0.2,0.2
2025-11-26T0000,3038A,103.3758,23.368,红河哈尼族彝族自治州,州图书馆,颗粒物(PM10),53,55,39,32,28,58,58,105,74,15,10,8,8,0.4,0.4
2025-11-26T0000,1090A,111.6507,40.7517,呼和浩特市,呼市一监,颗粒物(PM10),93,136,92,62,35,4,4,33,8,54,41,10,13,1.1,0.7
2025-11-26T0000,1091A,111.6572,40.8033,呼和浩特市,小召,颗粒物(PM10),82,114,80,48,24,3,3,29,6,70,48,13,13,1.1,0.7
2025-11-26T0000,1094A,111.7516,40.8369,呼和浩特市,如意水处理厂,颗粒物(PM10),78,106,75,46,28,1,1,34,5,66,42,14,12,1.3,0.8
2025-11-26T0000,1095A,111.7276,40.8062,呼和浩特市,二十九中,颗粒物(PM10),80,109,80,54,36,2,2,36,10,59,44,16,16,0.7,0.7
2025-11-26T0000,1096A,111.5512,40.7866,呼和浩特市,工大金川校区,颗粒物(PM10),76,101,78,32,25,2,2,35,8,63,44,12,13,0.8,0.6
2025-11-26T0000,1097A,111.717,40.7612,呼和浩特市,化肥厂生活区,颗粒物(PM10),77,104,88,43,33,6,6,35,10,61,46,12,11,1.0,0.8
2025-11-26T0000,3698A,111.5968,40.8178,呼和浩特市,红旗小学,颗粒物(PM10),74,97,61,47,23,3,3,35,12,65,50,14,13,0.9,0.4
2025-11-26T0000,3699A,111.6518,40.8389,呼和浩特市,海东办,颗粒物(PM10),82,114,71,54,26,1,1,31,7,61,42,9,11,0.9,0.4
2025-11-26T0000,3061A,119.7512,49.1577,呼伦贝尔市,国华电力东,,42,42,29,23,16,44,44,54,,13,16,7,8,0.3,0.4
2025-11-26T0000,4279A,119.7569,49.2222,呼伦贝尔市,伊敏大街东7号,,33,33,27,18,14,43,43,54,42,4,7,6,6,0.4,0.5
2025-11-26T0000,1250A,120.0751,30.8669,湖州市,城西水厂,颗粒物(PM10),81,112,178,38,40,12,12,62,25,57,36,10,11,0.5,0.5
2025-11-26T0000,2873A,120.0830,30.8929,湖州市,仁皇山新区,颗粒物(PM10),77,104,156,35,34,7,7,68,43,66,28,9,10,0.4,0.3
2025-11-26T0000,2907A,120.1844,30.8596,湖州市,吴兴区站,颗粒物(PM10),83,115,126,40,35,2,2,60,34,63,26,7,9,1.1,1
2025-11-26T0000,3562A,120.4148,30.8538,湖州市,南浔区站,颗粒物(PM10),76,102,118,33,30,26,26,64,41,54,34,7,7,0.5,0.4
2025-11-26T0000,1607A,120.9049,40.7211,葫芦岛市,龙港区,,36,36,22,13,8,27,27,60,44,40,19,15,10,0.7,0.5
2025-11-26T0000,1608A,120.8392,40.7514,葫芦岛市,化工街,颗粒物(PM10),56,61,22,29,10,4,4,54,23,68,27,19,13,0.7,0.4
2025-11-26T0000,1609A,120.8341,40.7073,葫芦岛市,新区,,40,40,24,20,7,2,2,56,27,70,25,12,9,0.9,0.6
2025-11-26T0000,1610A,120.8695,40.7677,葫芦岛市,东城区,颗粒物(PM10),61,71,28,29,16,5,5,58,22,70,27,17,11,1.2,0.7
2025-11-26T0000,2482A,109.5981,27.5721,怀化市,林科所,,,,,,,,,,,,,,,,
2025-11-26T0000,2483A,109.9453,27.5444,怀化市,河西地税局,,48,48,53,28,26,12,12,79,37,17,14,3,5,0.3,0.3
2025-11-26T0000,2484A,109.9781,27.5342,怀化市,市四医院,颗粒物(PM10),63,76,64,35,26,0,0,88,52,51,16,9,10,0.5,0.5
2025-11-26T0000,2485A,109.9972,27.5578,怀化市,监测楼,颗粒物(PM10),58,66,57,35,27,5,5,80,45,28,17,2,4,0.2,0.1
2025-11-26T0000,2486A,110.0394,27.583,怀化市,市委党校,颗粒物(PM10),58,65,67,39,33,0,0,85,34,37,20,15,14,0.6,0.4
2025-11-26T0000,1210A,119.036,33.5981,淮安市,钵池山,颗粒物(PM10),56,61,73,29,33,27,27,65,42,36,17,9,9,0.5,0.4
2025-11-26T0000,1211A,119.007,33.575,淮安市,北京南路,颗粒物(PM10),57,63,82,26,28,1,1,63,24,63,26,7,7,0.5,0.4
2025-11-26T0000,1212A,118.989,33.6067,淮安市,市监测站,颗粒物(PM10),52,53,83,24,19,18,18,66,29,45,28,8,8,0.7,0.5
2025-11-26T0000,1213A,119.135,33.5039,淮安市,楚州区监测站,颗粒物(PM10),57,63,85,26,18,0,0,60,15,67,32,8,9,0.5,0.5
2025-11-26T0000,3426A,118.8755,33.2894,淮安市,新华书店,颗粒物(PM10),57,63,86,26,19,24,24,54,39,41,21,9,9,0.5,0.4
2025-11-26T0000,4206A,119.0288,33.6319,淮安市,承德北路606号,颗粒物(PM10),56,61,88,23,27,11,11,66,30,56,21,7,7,0.8,0.6
2025-11-26T0000,2282A,116.8004,33.975,淮北市,监测站,颗粒物(PM10),80,110,79,47,23,34,34,64,44,40,26,8,8,0.4,0.3
2025-11-26T0000,2283A,116.8091,33.9007,淮北市,烈山区政府,颗粒物(PM10),93,135,82,50,24,24,24,65,41,55,31,11,10,0.4,0.3
2025-11-26T0000,3330A,116.8873,33.9836,淮北市,杜集区检察院,颗粒物(PM10),82,113,85,50,26,42,42,64,46,28,22,6,4,0.3,0.3
2025-11-26T0000,4017A,116.7923,33.9535,淮北市,市博物馆,颗粒物(PM10),84,118,83,49,24,26,26,62,40,42,22,11,11,0.2,0.1
2025-11-26T0000,2277A,116.8305,32.7727,淮南市,潘集区政府,颗粒物(PM10),80,110,124,51,38,32,32,59,41,36,26,6,6,0.6,0.5
2025-11-26T0000,2279A,116.8569,32.5951,淮南市,谢家集区政府,颗粒物(PM10),93,136,111,36,22,22,22,57,36,53,26,14,9,0.6,0.5
2025-11-26T0000,2280A,116.8281,32.633,淮南市,八公山区政府,颗粒物(PM10),83,116,101,37,21,34,34,58,43,28,19,7,6,0.4,0.4
2025-11-26T0000,2281A,116.6325,32.6201,淮南市,焦岗湖风景区管理处,,,,,,,,,,,,,,,,
2025-11-26T0000,2894A,117.0566,32.6531,淮南市,经济技术开发区消防队,颗粒物(PM10),83,115,119,45,34,32,32,61,33,48,32,9,10,0.4,0.3
2025-11-26T0000,3329A,117.0108,32.5893,淮南市,山南新区,颗粒物(PM10),94,138,137,51,31,47,47,61,53,34,27,5,4,0.3,0.3
2025-11-26T0000,4209A,117.0031,32.6445,淮南市,国庆中路369号,颗粒物(PM10),65,79,90,34,31,52,52,55,50,20,22,3,3,0.5,0.5
2025-11-26T0000,2446A,114.9028,30.4742,黄冈市,职工中心,颗粒物(PM10),68,86,86,41,29,36,36,78,41,36,22,11,5,0.4,0.4
2025-11-26T0000,2929A,114.8858,30.4519,黄冈市,红卫路,颗粒物(PM10),63,75,81,41,31,20,20,74,28,46,25,10,6,0.4,0.4
2025-11-26T0000,3398A,114.9136,30.4445,黄冈市,市林业局,颗粒物(PM10),75,100,107,42,26,30,30,81,41,39,21,5,4,0.7,0.6
2025-11-26T0000,2672A,102.0199,35.5102,黄南藏族自治州,同仁县隆务镇,,46,46,55,16,22,65,65,67,62,2,7,9,11,0.3,0.4
2025-11-26T0000,2295A,118.2903,29.6963,黄山市,延安路89号,,,93,96,52,50,,,83,61,21,14,,4,0.4,0.4
2025-11-26T0000,2297A,118.1371,30.2756,黄山市,黄山区政府5号楼,颗粒物(PM10),64,77,143,35,45,24,24,75,40,6,8,5,6,0.5,0.5
2025-11-26T0000,4210A,118.3354,29.7203,黄山市,滨江东路7-2号,颗粒物(PM10),73,95,112,51,51,28,28,74,42,13,14,4,4,0.3,0.4
2025-11-26T0000,2423A,115.0601,30.2313,黄石市,沈家营,颗粒物(PM10),76,101,110,39,27,8,8,72,32,58,15,6,8,1.1,0.9
2025-11-26T0000,2426A,114.8988,30.2019,黄石市,铁山,颗粒物(PM10),65,79,107,40,45,32,32,64,33,29,22,6,6,0.6,0.8
2025-11-26T0000,2427A,115.0307,30.2092,黄石市,团城山,颗粒物(PM10),73,96,109,30,23,11,11,77,40,51,17,7,6,0.5,0.2
2025-11-26T0000,3149A,115.0235,30.1578,黄石市,笔架山北路,颗粒物(PM10),96,141,162,32,28,36,36,68,52,29,17,15,9,1.2,0.7
2025-11-26T0000,4185A,115.0780,30.21118,黄石市,磁湖东路29号,颗粒物(PM10),80,110,110,39,32,7,7,69,25,50,17,11,9,0.7,0.5
2025-11-26T0000,1392A,114.4183,23.0528,惠州市,河南岸金山湖子站,颗粒物(PM10),56,62,51,26,25,84,84,101,85,20,19,10,8,0.4,0.4
2025-11-26T0000,1393A,114.4053,23.0822,惠州市,下埔横江三路子站,颗粒物(PM10),57,64,51,30,27,94,94,115,102,12,9,11,9,0.5,0.5
2025-11-26T0000,1394A,114.4103,23.1142,惠州市,江北云山西路子站,颗粒物(PM10),58,65,50,30,27,103,103,122,108,15,12,8,8,0.5,0.5
2025-11-26T0000,1395A,114.4645,22.7833,惠州市,惠阳区承修路船湖子站,颗粒物(PM10),57,63,54,26,26,84,84,110,90,18,14,9,8,0.4,0.4
2025-11-26T0000,1396A,114.5317,22.7422,惠州市,大亚湾管委会子站,颗粒物(PM10),56,61,45,24,23,93,93,110,100,12,10,6,7,0.7,0.7
2025-11-26T0000,3314A,114.4338,22.8134,惠州市,惠阳秋长,颗粒物(PM10),56,61,56,28,25,98,98,116,104,12,11,14,12,0.3,0.3
2025-11-26T0000,3452A,114.6517,22.775,惠州市,大亚湾霞涌,颗粒物(PM10),54,57,50,23,23,91,91,106,,12,10,7,8,0.5,0.5
2025-11-26T0000,2240A,130.9762,45.3001,鸡西市,环保局,细颗粒物(PM2.5),75,85,38,55,22,4,4,41,12,40,26,13,10,1.1,0.7
2025-11-26T0000,2243A,130.9429,45.3039,鸡西市,第一中学,颗粒物(PM10),60,70,37,42,22,6,6,44,16,43,24,13,10,0.6,0.4
2025-11-26T0000,3707A,131.0207,45.3073,鸡西市,欧美日汽修厂,颗粒物(PM10),123,196,67,72,37,4,4,37,10,33,24,21,16,1.5,1
2025-11-26T0000,3709A,130.9967,45.3106,鸡西市,市政设施管理处,颗粒物(PM10),82,114,50,53,30,17,17,59,25,37,26,12,14,1.2,1
2025-11-26T0000,2367A,114.9754,27.0803,吉安市,红声器材厂,颗粒物(PM10),77,104,87,24,24,79,79,88,79,13,17,8,10,0.6,0.6
2025-11-26T0000,2368A,114.9658,27.0999,吉安市,市森林工业局,颗粒物(PM10),77,103,91,27,25,66,66,83,71,10,15,8,9,0.3,0.3
2025-11-26T0000,2369A,114.99,27.1312,吉安市,市环境监测站,颗粒物(PM10),73,96,81,25,27,75,75,82,70,10,17,15,18,0.3,0.4
2025-11-26T0000,2370A,115.0093,27.0968,吉安市,青原区法院,颗粒物(PM10),72,93,86,26,29,71,71,80,66,15,23,10,11,0.5,0.6
2025-11-26T0000,1772A,126.54,43.8622,吉林市,哈达湾,细颗粒物(PM2.5),411,404,776,366,679,27,27,73,20,40,57,8,10,1.6,2.1
2025-11-26T0000,1773A,126.5844,43.8358,吉林市,东局子,细颗粒物(PM2.5),500,,846,506,845,9,9,48,22,49,49,8,11,1.9,2.3
2025-11-26T0000,1774A,126.5052,43.8245,吉林市,电力学院,细颗粒物(PM2.5),476,516,1058,463,818,2,2,54,9,54,56,8,10,2.1,2.1
2025-11-26T0000,1775A,126.6133,43.8972,吉林市,江北,"颗粒物(PM10),细颗粒物(PM2.5)",500,635,990,546,868,17,17,39,19,39,60,5,8,1.8,2.2
2025-11-26T0000,1776A,126.555,43.8306,吉林市,江南公园,颗粒物(PM10),500,631,917,482,806,10,10,61,26,53,55,7,8,1.6,2
2025-11-26T0000,1778A,126.7061,43.7133,吉林市,丰满,细颗粒物(PM2.5),500,,975,612,1082,34,34,60,45,22,42,9,11,1.5,1.9
2025-11-26T0000,2868A,126.4739,43.953,吉林市,九站,"颗粒物(PM10),细颗粒物(PM2.5)",500,668,843,512,658,18,18,60,22,61,60,6,7,2.0,2
2025-11-26T0000,1299A,116.9862,36.6114,济南市,科干所,颗粒物(PM10),60,70,31,17,10,64,64,63,57,13,13,10,9,0.4,0.4
2025-11-26T0000,1300A,116.9376,36.665,济南市,农科所,颗粒物(PM10),69,88,38,15,7,56,56,59,44,19,18,9,9,0.4,0.4
2025-11-26T0000,1301A,117.1265,36.6734,济南市,开发区,颗粒物(PM10),58,66,33,22,11,66,66,65,57,11,13,5,4,0.5,0.5
2025-11-26T0000,1303A,117.0624,36.6868,济南市,省种子仓库,颗粒物(PM10),65,80,39,19,8,64,64,60,49,11,17,8,7,0.5,0.4
2025-11-26T0000,1304A,116.9489,36.6447,济南市,机床二厂,颗粒物(PM10),81,112,45,22,9,57,57,56,45,21,23,11,11,0.3,0.3
2025-11-26T0000,1305A,117.0495,36.663,济南市,市监测站,颗粒物(PM10),70,90,36,22,8,64,64,61,54,11,14,4,3,0.3,0.2
2025-11-26T0000,1306A,116.7675,36.5484,济南市,长清党校,颗粒物(PM10),73,95,38,20,9,57,57,60,51,18,17,10,8,0.6,0.5
2025-11-26T0000,1616A,117.6795,36.229,济南市,技术学院,颗粒物(PM10),73,95,38,39,15,2,2,63,27,68,28,32,12,1.0,0.6
2025-11-26T0000,1961A,117.532,36.6868,济南市,东山小学,颗粒物(PM10),67,83,39,20,12,59,59,70,50,18,14,12,8,0.5,0.4
2025-11-26T0000,3059A,117.7161,36.2049,济南市,泰兴公司,细颗粒物(PM2.5),73,92,47,53,19,4,4,63,21,58,25,17,8,0.7,0.2
2025-11-26T0000,3064A,117.6867,36.2171,济南市,莱芜战役纪念馆,细颗粒物(PM2.5),72,92,43,52,21,4,4,65,27,60,25,28,18,1.3,0.9
2025-11-26T0000,3494A,117.1673,36.9782,济南市,济阳区政府,颗粒物(PM10),62,73,44,17,10,9,9,58,,64,26,12,10,0.5,0.4
2025-11-26T0000,3495A,117.1171,36.63,济南市,锦屏中学,颗粒物(PM10),63,76,31,17,7,65,65,67,53,14,16,5,5,0.5,0.5
2025-11-26T0000,3682A,116.9814,36.6819,济南市,济南四建,颗粒物(PM10),62,73,33,22,11,54,54,57,46,18,18,7,7,0.6,0.6
2025-11-26T0000,1653A,116.6251,35.4302,济宁市,火炬城,细颗粒物(PM2.5),70,88,48,51,21,36,36,65,47,35,19,8,6,0.2,0
2025-11-26T0000,1655A,116.5491,35.4042,济宁市,电化厂,颗粒物(PM10),80,110,67,39,19,49,49,62,54,26,23,5,5,0.1,0
2025-11-26T0000,3500A,116.5814,35.3707,济宁市,北湖一中,颗粒物(PM10),58,65,39,39,20,40,40,62,50,29,20,6,4,0.4,0.3
2025-11-26T0000,3501A,116.8249,35.5593,济宁市,服务中心,颗粒物(PM10),90,130,66,65,20,13,13,53,31,42,24,9,7,0.2,0
2025-11-26T0000,3678A,116.5907,35.4054,济宁市,市第七中学,颗粒物(PM10),67,83,50,36,14,34,34,66,48,47,25,9,5,0.4,0.3
2025-11-26T0000,2255A,130.2751,46.8028,佳木斯市,佳纺,细颗粒物(PM2.5),137,151,86,104,43,17,17,27,13,33,37,6,8,1.2,0.7
2025-11-26T0000,2256A,130.3995,46.8307,佳木斯市,发电厂,颗粒物(PM10),97,144,56,68,21,6,6,38,10,41,26,4,4,1.0,0.5
2025-11-26T0000,2257A,130.3258,46.7975,佳木斯市,环保局,细颗粒物(PM2.5),128,147,57,97,32,8,8,30,12,40,33,8,6,1.1,0.7
2025-11-26T0000,2258A,130.3648,46.8032,佳木斯市,十一中,细颗粒物(PM2.5),108,114,42,81,26,17,17,31,12,44,33,12,9,1.3,0.7
2025-11-26T0000,2259A,130.3794,46.7588,佳木斯市,四丰,,,,,,,,,,,,,,,,
2025-11-26T0000,1252A,120.7436,30.778,嘉兴市,清河小学,颗粒物(PM10),86,122,154,39,32,5,5,62,28,68,24,4,5,0.9,0.8
2025-11-26T0000,1253A,120.726,30.7478,嘉兴市,嘉兴学院,颗粒物(PM10),86,122,121,42,31,7,7,63,32,60,31,6,8,0.7,0.3
2025-11-26T0000,2872A,120.7846,30.7525,嘉兴市,南湖区残联,颗粒物(PM10),88,126,129,41,36,13,13,68,44,66,29,9,8,0.4,0.2
2025-11-26T0000,3407A,120.6916,30.7739,嘉兴市,秀洲住建,颗粒物(PM10),73,96,136,35,36,1,1,67,25,60,31,6,7,0.6,0.4
2025-11-26T0000,1945A,98.2908,39.7711,嘉峪关市,气象局,颗粒物(PM10),181,312,178,39,21,100,100,99,99,1,4,6,4,0.6,0.6
2025-11-26T0000,2884A,98.2672,39.7978,嘉峪关市,酒钢宾馆,颗粒物(PM10),124,197,163,34,19,95,95,93,93,1,4,10,14,0.3,0.2
2025-11-26T0000,3248A,98.2643,39.7724,嘉峪关市,雄关区,颗粒物(PM10),150,249,148,40,26,93,93,95,95,8,9,9,10,0.5,0.5
2025-11-26T0000,1383A,113.1064,22.6058,江门市,北街,颗粒物(PM10),53,56,50,34,29,59,59,116,78,39,25,8,9,0.5,0.5
2025-11-26T0000,1384A,113.0731,22.5835,江门市,西区,颗粒物(PM10),51,52,60,23,21,67,67,115,83,32,24,8,9,0.4,0.5
2025-11-26T0000,1385A,113.0219,22.5311,江门市,圭峰西,,49,49,42,24,28,69,69,116,94,31,19,6,8,0.4,0.3
2025-11-26T0000,1386A,113.0828,22.5947,江门市,东湖,颗粒物(PM10),52,53,46,28,26,60,60,116,81,33,23,10,11,0.4,0.4
2025-11-26T0000,3311A,113.1075,22.5647,江门市,江海富民,颗粒物(PM10),51,51,47,16,24,60,60,118,82,37,26,12,13,0.6,0.5
2025-11-26T0000,3449A,113.05,22.4667,江门市,新会银湖,颗粒物(PM10),53,55,49,31,28,49,49,106,69,40,24,8,8,0.4,0.3
2025-11-26T0000,1830A,113.1992,35.2590,焦作市,影视城,,,,73,,17,,,73,70,,16,,13,,0.3
2025-11-26T0000,3335A,113.3137,35.2641,焦作市,马村街道办,颗粒物(PM10),74,97,89,35,27,42,42,64,46,17,12,7,7,0.4,0.4
2025-11-26T0000,3336A,113.2465,35.2373,焦作市,焦作技师学院,颗粒物(PM10),74,98,80,34,22,35,35,60,44,25,18,5,6,0.6,0.5
2025-11-26T0000,3477A,113.1656,35.2539,焦作市,中站许衡医院,颗粒物(PM10),72,94,91,32,29,57,57,61,48,14,21,7,7,0.4,0.4
2025-11-26T0000,3981A,113.2449,35.1803,焦作市,原李万街道办,颗粒物(PM10),78,105,106,36,26,12,12,58,35,29,15,6,7,0.5,0.4
2025-11-26T0000,4264A,113.2340,35.2190,焦作市,新安路1731号,颗粒物(PM10),88,125,96,45,28,24,24,61,37,39,26,9,12,0.5,0.4
2025-11-26T0000,4295A,113.2722,35.2121,焦作市,人民路3066号,颗粒物(PM10),73,96,95,29,20,2,2,56,24,57,20,4,7,0.7,0.5
2025-11-26T0000,1708A,116.3701,23.5345,揭阳市,新兴,颗粒物(PM10),55,60,42,30,26,72,72,94,82,28,17,14,11,0.5,0.4
2025-11-26T0000,1709A,116.3264,23.5443,揭阳市,西马,颗粒物(PM10),61,71,51,29,25,52,52,79,60,26,19,8,5,0.5,0.5
2025-11-26T0000,1710A,116.3611,23.5626,揭阳市,东兴,颗粒物(PM10),56,61,44,26,20,44,44,92,79,48,20,11,9,0.6,0.4
2025-11-26T0000,1711A,116.4151,23.5294,揭阳市,渔湖,颗粒物(PM10),55,59,42,29,22,72,72,88,80,28,16,8,7,0.6,0.5
2025-11-26T0000,3320A,116.403,23.5699,揭阳市,曲溪,颗粒物(PM10),59,67,43,37,25,45,45,99,82,41,16,10,4,0.6,0.4
2025-11-26T0000,1944A,102.1692,38.5167,金昌市,天庆家园,颗粒物(PM10),90,129,97,23,21,76,76,90,89,6,17,2,21,0.4,0.7
2025-11-26T0000,4022A,102.1647,38.5371,金昌市,金川区人防中心,颗粒物(PM10),98,145,103,27,30,88,88,85,85,2,11,2,17,0.6,0.6
2025-11-26T0000,4239A,102.1930,38.5319,金昌市,长春路96号,颗粒物(PM10),90,129,90,26,32,81,81,79,79,3,18,5,47,0.5,0.9
2025-11-26T0000,1262A,119.647,29.077,金华市,十五中,颗粒物(PM10),116,182,131,43,36,10,10,84,39,65,37,3,5,0.4,0.4
2025-11-26T0000,1263A,119.686,29.1029,金华市,监测站,颗粒物(PM10),124,197,123,51,40,1,1,76,27,61,37,4,4,0.4,0.3
2025-11-26T0000,3659A,119.656,29.1131,金华市,气象局,颗粒物(PM10),111,171,124,41,36,0,0,72,24,79,50,4,5,0.3,0.3
2025-11-26T0000,1767A,121.1115,41.0879,锦州市,南山,,40,40,23,26,12,7,7,64,23,62,25,11,10,1.0,0.7
2025-11-26T0000,1768A,121.0604,40.8428,锦州市,开发区,颗粒物(PM10),56,61,28,27,13,3,3,57,24,67,26,24,16,0.9,0.6
2025-11-26T0000,1769A,121.1836,41.1119,锦州市,百股街道,细颗粒物(PM2.5),79,70,27,58,17,2,2,60,21,64,22,15,13,1.5,0.7
2025-11-26T0000,1770A,121.1178,41.1222,锦州市,天安街道,颗粒物(PM10),53,56,21,31,12,3,3,63,24,57,19,16,12,1.4,0.6
2025-11-26T0000,1771A,121.1303,41.1386,锦州市,北湖公园,,48,48,24,30,13,4,4,61,23,60,22,13,11,0.9,0.6
2025-11-26T0000,2160A,112.85,35.5051,晋城市,自来水公司,,,101,91,31,22,17,17,70,42,,27,8,9,0.8,0.7
2025-11-26T0000,2161A,112.8318,35.4936,晋城市,白云商贸,颗粒物(PM10),76,101,99,24,18,5,5,60,28,55,29,4,4,0.7,0.6
2025-11-26T0000,2162A,112.8508,35.4887,晋城市,市环保局,颗粒物(PM10),77,104,99,29,22,5,5,64,32,53,24,7,6,0.5,0.6
2025-11-26T0000,2163A,112.8676,35.4897,晋城市,技术学院,颗粒物(PM10),75,100,92,31,23,5,5,60,27,71,37,7,8,0.6,0.5
2025-11-26T0000,2165A,112.8453,35.546,晋城市,白马寺,颗粒物(PM10),71,92,81,33,25,68,68,71,65,16,14,10,9,0.4,0.5
2025-11-26T0000,3620A,112.8271,35.4828,晋城市,泽州一中,颗粒物(PM10),75,99,93,34,24,22,22,66,40,44,25,5,5,0.5,0.5
2025-11-26T0000,2173A,112.7249,37.7067,晋中市,南都小区,颗粒物(PM10),71,92,102,40,31,24,24,66,27,48,38,22,20,0.9,0.9
2025-11-26T0000,2174A,112.6991,37.6982,晋中市,榆次区政府,颗粒物(PM10),80,110,115,49,38,12,12,63,23,58,39,21,20,0.8,1.2
2025-11-26T0000,2865A,112.7195,37.6828,晋中市,榆次三中,颗粒物(PM10),82,114,119,36,31,3,3,63,18,59,42,17,19,0.8,0.9
2025-11-26T0000,4200A,112.7478,37.6954,晋中市,迎宾街26号,颗粒物(PM10),75,100,111,36,33,12,12,66,22,54,37,20,19,0.7,0.7
2025-11-26T0000,2439A,112.2014,31.0481,荆门市,竹园小学,颗粒物(PM10),82,113,68,37,21,55,55,76,66,29,25,4,4,0.2,0.2
2025-11-26T0000,2440A,112.1969,30.9891,荆门市,掇刀,颗粒物(PM10),84,118,71,35,23,73,73,85,78,20,19,1,1,0.3,0.3
2025-11-26T0000,2441A,112.2213,31.0386,荆门市,石化一小,颗粒物(PM10),85,119,80,33,26,57,57,72,62,29,28,14,10,0.4,0.3
2025-11-26T0000,3012A,112.1849,31.0362,荆门市,西山林语,颗粒物(PM10),71,92,60,37,21,55,55,75,62,22,16,6,5,0.6,0.6
2025-11-26T0000,3547A,112.1632,31.0138,荆门市,龙泉中学南校,颗粒物(PM10),89,127,74,51,26,48,48,74,61,14,16,8,8,0.2,0.2
2025-11-26T0000,1844A,112.2494,30.3197,荆州市,市图书馆,颗粒物(PM10),72,93,71,45,24,46,46,83,67,38,25,16,7,0.6,0.6
2025-11-26T0000,1845A,112.2008,30.3544,荆州市,市委党校,颗粒物(PM10),79,108,72,39,25,43,43,70,58,40,29,9,5,0.5,0.5
2025-11-26T0000,3194A,112.2747,30.3122,荆州市,管委会,颗粒物(PM10),80,110,72,50,28,46,46,79,63,34,26,17,8,0.6,0.5
2025-11-26T0000,4268A,112.1722,30.3366,荆州市,学苑路85号,颗粒物(PM10),73,96,60,36,22,61,61,89,74,30,25,7,2,0.7,0.6
2025-11-26T0000,2342A,117.3102,29.3867,景德镇市,王港中学,,,,,,,,,,,,,,,,
2025-11-26T0000,2343A,117.2117,29.2933,景德镇市,老干部活动中心,颗粒物(PM10),78,106,99,32,34,7,7,68,31,32,12,6,6,0.5,0.5
2025-11-26T0000,2344A,117.1894,29.2789,景德镇市,兽医站,颗粒物(PM10),74,97,116,24,31,13,13,74,33,42,21,9,7,0.3,0.3
2025-11-26T0000,2346A,117.2461,29.2956,景德镇市,陶研所,颗粒物(PM10),61,72,83,28,37,2,2,70,27,33,13,3,4,0.4,0.4
2025-11-26T0000,4289A,117.1542,29.2566,景德镇市,青少年活动中心,颗粒物(PM10),85,120,118,39,34,4,4,69,24,51,29,6,12,0.5,0.5
2025-11-26T0000,1803A,115.9872,29.6815,九江市,十里,颗粒物(PM10),72,93,127,39,38,10,10,76,45,58,28,5,6,0.8,0.4
2025-11-26T0000,1804A,115.9584,29.7046,九江市,茅山头,颗粒物(PM10),73,95,126,35,33,11,11,65,39,62,24,4,4,0.7,0.6
2025-11-26T0000,1805A,115.9877,29.7295,九江市,西园,颗粒物(PM10),68,85,114,29,31,29,29,79,54,60,29,4,6,0.5,0.4
2025-11-26T0000,1808A,115.9114,29.6038,九江市,综合工业园,颗粒物(PM10),74,97,126,49,36,16,16,76,42,47,27,2,4,0.3,0.3
2025-11-26T0000,1809A,116.0721,29.7535,九江市,石化总厂,颗粒物(PM10),87,124,144,30,26,36,36,78,42,38,28,3,2,0.3,0.3
2025-11-26T0000,1810A,115.9773,29.5698,九江市,庐山气象台,,,,,,,,,,,,,,,,
2025-11-26T0000,3190A,116.0254,29.6994,九江市,外国语学校,颗粒物(PM10),67,83,126,32,29,26,26,66,51,39,21,9,5,0.7,0.6
2025-11-26T0000,4253A,116.0102,29.6594,九江市,莲花大道8号,颗粒物(PM10),68,85,128,21,22,51,51,71,59,16,17,6,5,0.9,0.3
2025-11-26T0000,4240A,98.4958,39.7339,酒泉市,玉门东路5号,颗粒物(PM10),500,896,218,63,27,91,91,94,94,2,7,9,9,0.2,0.3
2025-11-26T0000,4241A,98.5099,39.7506,酒泉市,北大街108号,颗粒物(PM10),500,2053,281,127,28,87,87,90,89,2,8,8,10,0.2,0.3
2025-11-26T0000,2698A,76.0072,39.4467,喀什地区,巡警大队,颗粒物(PM10),140,230,223,76,76,64,64,64,58,35,58,7,7,0.9,1.6
2025-11-26T0000,2699A,75.9755,39.4694,喀什地区,吾办,颗粒物(PM10),138,226,202,73,76,49,49,57,45,54,59,14,13,1.1,1.6
2025-11-26T0000,4027A,75.9483,39.4689,喀什地区,老干局,颗粒物(PM10),144,237,207,57,63,63,63,65,58,32,43,6,4,0.9,1.8
2025-11-26T0000,1824A,114.3389,34.7781,开封市,肿瘤医院,颗粒物(PM10),104,158,127,51,29,14,14,68,31,43,30,9,11,0.5,0.4
2025-11-26T0000,1826A,114.2885,34.7965,开封市,世纪星幼儿园,颗粒物(PM10),100,150,118,44,32,18,18,60,37,38,26,7,8,0.6,0.6
2025-11-26T0000,3147A,114.3438,34.8106,开封市,龙亭公园,颗粒物(PM10),100,149,122,46,28,21,21,62,39,41,28,8,20,0.8,0.8
2025-11-26T0000,3210A,114.3644,34.7964,开封市,汴京公园,细颗粒物(PM2.5),120,187,127,91,34,13,13,55,30,52,36,9,10,0.4,0.3
2025-11-26T0000,3473A,114.2485,34.8306,开封市,技师学院,颗粒物(PM10),90,130,109,39,28,32,32,62,47,34,29,8,8,0.7,0.6
2025-11-26T0000,3592A,114.4644,34.7556,开封市,祥符区生态环境局,颗粒物(PM10),109,167,134,43,33,18,18,60,30,50,41,7,7,0.3,0.3
2025-11-26T0000,1951A,84.895,45.6094,克拉玛依市,长征新村,,34,34,33,17,17,39,39,40,32,12,25,6,7,0.5,0.4
2025-11-26T0000,1952A,84.8988,45.5893,克拉玛依市,南林小区,,40,40,37,15,10,42,42,38,32,8,20,1,2,0.2,0.2
2025-11-26T0000,1954A,84.905,44.3396,克拉玛依市,独山子区,颗粒物(PM10),53,56,42,30,27,18,18,61,33,41,24,5,6,0.7,0.4
2025-11-26T0000,1955A,85.6979,46.098,克拉玛依市,乌尔禾区商贸楼,,37,37,37,23,16,37,37,43,36,13,20,5,7,0.4,0.4
2025-11-26T0000,3612A,85.1045,45.6899,克拉玛依市,白碱滩区新站,细颗粒物(PM2.5),57,44,30,40,21,41,41,46,43,11,20,5,6,0.4,0.3
2025-11-26T0000,2697A,76.1454,39.7142,克孜勒苏柯尔克孜自治州,市人民政府,颗粒物(PM10),112,173,173,73,67,84,84,82,67,28,26,7,9,0.3,0.4
2025-11-26T0000,3665A,76.1658,39.7157,克孜勒苏柯尔克孜自治州,克州文化中心,颗粒物(PM10),104,158,174,58,62,84,84,92,84,26,24,8,10,1.1,0.8
2025-11-26T0000,1450A,102.8204,24.8886,昆明市,呈贡新区,细颗粒物(PM2.5),102,91,42,76,36,1,1,96,43,73,29,8,6,0.6,0.5
2025-11-26T0000,1451A,102.6251,24.9608,昆明市,西山森林公园,,,,,,,,,,,,,,,,
2025-11-26T0000,1452A,102.7252,25.0902,昆明市,龙泉镇,,46,46,34,28,15,6,6,90,38,50,24,2,4,0.6,0.4
2025-11-26T0000,1453A,102.7266,25.0375,昆明市,东风东路,颗粒物(PM10),66,82,42,38,21,4,4,92,47,60,26,2,3,0.6,0.3
2025-11-26T0000,1454A,102.6742,25.0669,昆明市,金鼎山,颗粒物(PM10),65,79,51,34,20,14,14,98,45,60,24,3,4,0.7,0.5
2025-11-26T0000,1455A,102.6644,25.0401,昆明市,碧鸡广场,颗粒物(PM10),72,94,38,50,21,4,4,90,48,72,25,4,4,0.7,0.4
2025-11-26T0000,3179A,102.7494,25.0119,昆明市,官渡区博物馆,颗粒物(PM10),76,101,45,39,21,2,2,94,41,68,35,3,4,0.8,0.3
2025-11-26T0000,3375A,102.8017,24.8336,昆明市,青年创业园,颗粒物(PM10),58,66,43,22,19,1,1,98,39,51,22,3,5,0.5,0.3
2025-11-26T0000,3550A,102.7997,24.9786,昆明市,昆明学院,颗粒物(PM10),93,135,53,56,22,3,3,95,39,65,37,2,3,0.7,0.3
2025-11-26T0000,3551A,102.5967,24.6736,昆明市,晋宁区生态环境分局,细颗粒物(PM2.5),67,77,46,48,28,26,26,108,69,43,16,2,2,0.6,0.5
2025-11-26T0000,3552A,102.6678,24.9856,昆明市,云天化总部,颗粒物(PM10),64,78,38,36,17,4,4,96,45,77,30,8,6,0.7,0.5
2025-11-26T0000,1456A,91.1319,29.6514,拉萨市,八廓街,,21,20,25,8,15,67,67,92,80,22,18,6,10,0.4,0.4
2025-11-26T0000,1457A,91.1221,29.6747,拉萨市,市环保局,,19,19,28,9,15,58,58,76,68,20,20,6,9,0.8,0.7
2025-11-26T0000,1458A,91.0874,29.6475,拉萨市,区监测站,,22,14,18,7,11,70,70,88,78,26,26,4,8,0.5,0.5
2025-11-26T0000,1459A,91.1774,29.6541,拉萨市,西藏大学,,24,24,22,12,10,66,66,91,83,22,18,4,7,0.3,0.2
2025-11-26T0000,1460A,90.9798,29.6588,拉萨市,区辐射站,,41,41,27,24,14,24,24,71,48,61,30,6,8,1.0,0.5
2025-11-26T0000,1461A,91.0834,29.6292,拉萨市,拉萨火车站,,25,10,26,8,12,80,80,93,92,13,21,6,8,0.6,0.7
2025-11-26T0000,2520A,109.2203,23.7256,来宾市,来宾技工学校,颗粒物(PM10),61,71,46,34,21,29,29,99,65,33,13,6,7,0.5,0.4
2025-11-26T0000,3535A,109.1781,23.7297,来宾市,兴宾区政府,颗粒物(PM10),55,59,42,29,23,56,56,103,79,10,8,4,6,0.4,0.4
2025-11-26T0000,4002A,109.2416,23.7461,来宾市,中南小学,颗粒物(PM10),56,61,46,37,25,13,13,100,61,43,13,4,6,0.5,0.4
2025-11-26T0000,1477A,104.1373,35.9454,兰州市,榆中兰大校区,,,,,,,,,,,,,,,,
2025-11-26T0000,1479A,103.831,36.0464,兰州市,铁路设计院,,,,,,,,,,,,,,,,
2025-11-26T0000,3241A,103.7439,36.0842,兰州市,百合公园,细颗粒物(PM2.5),70,87,96,51,58,11,11,30,8,50,61,11,13,1.0,1.2
2025-11-26T0000,3242A,103.9611,35.998,兰州市,和平,颗粒物(PM10),64,77,92,45,54,28,28,46,26,41,49,8,9,1.0,1.3
2025-11-26T0000,4236A,103.6293,36.0938,兰州市,庄浪东路808号,细颗粒物(PM2.5),69,78,92,50,55,6,6,45,11,74,68,12,19,0.9,1.1
2025-11-26T0000,4237A,103.7251,36.1043,兰州市,安宁西路88号,细颗粒物(PM2.5),77,92,103,56,58,3,3,49,23,70,66,6,11,0.9,1
2025-11-26T0000,4238A,103.8470,36.0676,兰州市,北滨河东路1号,颗粒物(PM10),77,103,89,49,44,2,2,51,18,74,60,10,12,1.0,1.3
2025-11-26T0000,3245A,103.6633,36.533,兰州新区,新区管委会,颗粒物(PM10),78,106,73,53,43,31,31,71,56,24,22,9,10,0.5,0.8
2025-11-26T0000,3246A,103.6975,36.4789,兰州新区,舟曲中学,颗粒物(PM10),82,114,81,50,44,33,33,82,67,55,35,10,11,0.8,0.6
2025-11-26T0000,1067A,116.6708,39.5111,廊坊市,药材公司,细颗粒物(PM2.5),85,110,33,63,21,2,2,50,19,62,30,14,4,0.7,0.4
2025-11-26T0000,1068A,116.7214,39.5589,廊坊市,开发区,颗粒物(PM10),77,104,40,55,16,2,2,52,19,58,31,9,3,0.6,0.3
2025-11-26T0000,1070A,116.7244,39.5269,廊坊市,北华航天学院,颗粒物(PM10),80,109,39,58,18,3,3,53,18,61,31,10,3,0.6,0.3
2025-11-26T0000,2919A,116.7022,39.5453,廊坊市,河北工业大学,细颗粒物(PM2.5),74,87,37,54,18,11,11,55,27,47,25,11,5,0.5,0.3
2025-11-26T0000,2535A,103.7723,29.5462,乐山市,花湖湾,,,,,,,,,,,,,,,,
2025-11-26T0000,2536A,103.7627,29.5844,乐山市,牛耳桥,细颗粒物(PM2.5),133,119,100,101,82,1,1,52,30,44,33,8,6,1.0,1
2025-11-26T0000,2537A,103.7508,29.6006,乐山市,市第三水厂,细颗粒物(PM2.5),89,101,94,66,67,1,1,51,23,46,38,6,6,0.9,1.1
2025-11-26T0000,2538A,103.7571,29.5664,乐山市,市监测站,细颗粒物(PM2.5),119,114,106,90,78,11,11,61,45,47,29,6,6,1.1,1
2025-11-26T0000,3361A,103.7311,29.5628,乐山市,理工大学,细颗粒物(PM2.5),115,110,89,87,70,11,11,56,37,46,30,7,7,0.9,0.9
2025-11-26T0000,2598A,100.2143,26.8576,丽江市,西南郊,,35,35,21,20,12,53,53,70,66,9,7,5,6,0.9,0.8
2025-11-26T0000,2599A,100.2497,26.8802,丽江市,丽江古城,,40,40,28,24,15,63,63,68,66,13,12,10,9,0.6,0.6
2025-11-26T0000,2600A,100.2203,26.8906,丽江市,市中心,,36,28,23,25,15,66,66,70,67,12,12,10,8,0.5,0.4
2025-11-26T0000,1267A,119.914,28.4514,丽水市,监测站大楼,颗粒物(PM10),71,92,84,32,31,19,19,92,58,37,27,5,6,0.5,0.6
2025-11-26T0000,1268A,119.93,28.4586,丽水市,莲都小学,颗粒物(PM10),85,119,90,29,28,48,48,94,72,23,29,5,5,0.5,0.5
2025-11-26T0000,1269A,119.879,28.4231,丽水市,余庄前,颗粒物(PM10),70,89,81,39,42,9,9,96,41,24,19,4,4,0.3,0.4
2025-11-26T0000,1173A,119.176,34.5885,连云港市,市环境监测站,颗粒物(PM10),70,90,56,48,21,10,10,59,26,61,31,10,9,1.0,0.9
2025-11-26T0000,3000A,119.3581,34.6972,连云港市,德源药业,颗粒物(PM10),63,75,69,31,16,6,6,46,12,63,39,7,6,0.4,0.3
2025-11-26T0000,3007A,119.178,34.844,连云港市,新城一中,细颗粒物(PM2.5),65,72,84,47,19,2,2,62,25,71,27,10,9,0.7,0.6
2025-11-26T0000,3008A,119.3608,34.7519,连云港市,胡沟管理处,,46,46,50,24,12,51,51,57,41,25,22,10,9,0.5,0.4
2025-11-26T0000,3009A,119.1478,34.5911,连云港市,矿山设计院,"颗粒物(PM10),细颗粒物(PM2.5)",64,78,51,46,17,7,7,62,36,34,16,6,6,0.6,0.4
2025-11-26T0000,3434A,119.2413,34.6539,连云港市,工贸学校,颗粒物(PM10),51,51,62,23,16,58,58,61,59,10,11,11,10,0.6,0.5
2025-11-26T0000,3664A,119.4172,34.7341,连云港市,连云街道,颗粒物(PM10),55,60,66,27,16,66,66,63,63,13,16,8,7,0.4,0.4
2025-11-26T0000,2571A,102.3431,27.8099,凉山彝族自治州,青龙寺,,,,,,,,,,,,,,,,
2025-11-26T0000,2572A,102.2721,27.8415,凉山彝族自治州,邛海宾馆,,33,29,31,23,22,40,40,77,62,15,13,6,11,0.6,0.9
2025-11-26T0000,2573A,102.2625,27.898,凉山彝族自治州,西昌市政府,,32,27,40,22,26,46,46,64,54,9,15,7,11,0.8,0.9
2025-11-26T0000,2574A,102.2685,27.8851,凉山彝族自治州,凉山州政府,颗粒物(PM10),51,51,42,31,31,14,14,68,37,18,15,10,12,0.9,0.8
2025-11-26T0000,4229A,102.2342,27.8859,凉山彝族自治州,凯乐南路30号,,38,38,42,21,27,37,37,69,52,21,27,8,9,1.0,0.9
2025-11-26T0000,2212A,123.2,41.1953,辽阳市,宏伟区,细颗粒物(PM2.5),57,45,48,40,38,38,38,50,34,16,20,7,8,0.9,0.7
2025-11-26T0000,2213A,123.1683,41.2495,辽阳市,新华园,细颗粒物(PM2.5),65,68,57,47,33,21,21,50,22,30,25,5,5,1.0,0.6
2025-11-26T0000,2214A,123.2354,41.2639,辽阳市,滨河路,细颗粒物(PM2.5),69,68,54,50,32,28,28,46,23,26,23,7,7,1.0,0.6
2025-11-26T0000,2215A,123.149,41.2991,辽阳市,铁西工业园,细颗粒物(PM2.5),65,61,49,47,36,23,23,51,18,30,24,10,9,1.1,0.8
2025-11-26T0000,2227A,125.1358,42.8845,辽源市,环保局,细颗粒物(PM2.5),144,176,216,110,150,7,7,68,15,37,34,3,6,1.1,1.1
2025-11-26T0000,3239A,125.0764,42.9078,辽源市,银鹰制药,细颗粒物(PM2.5),134,126,156,102,135,5,5,57,9,43,34,5,5,1.4,1
2025-11-26T0000,1625A,115.9848,36.4372,聊城市,区政府,颗粒物(PM10),71,92,46,30,14,41,41,63,47,35,23,11,9,0.5,0.5
2025-11-26T0000,2878A,116.0072,36.4343,聊城市,聊大东校,颗粒物(PM10),75,100,55,45,24,32,32,63,43,37,20,10,9,0.5,0.4
2025-11-26T0000,3200A,115.9819,36.4978,聊城市,监控中心,颗粒物(PM10),76,102,52,29,17,48,48,66,54,26,19,10,9,0.7,0.7
2025-11-26T0000,3513A,116.0445,36.4361,聊城市,九州社区,颗粒物(PM10),70,90,55,35,16,34,34,70,47,33,13,3,3,0.6,0.5
2025-11-26T0000,4018A,116.0567,36.4608,聊城市,星美广场,颗粒物(PM10),73,96,58,28,16,34,34,64,44,29,18,5,4,0.3,0.3
2025-11-26T0000,2632A,94.3681,29.6376,林芝市,林芝监测站,,28,9,9,6,5,87,87,87,86,1,4,3,3,0.2,0.2
2025-11-26T0000,2633A,94.3616,29.6616,林芝市,林芝人民医院,,26,13,14,7,5,82,82,82,82,2,4,2,2,0.2,0.2
2025-11-26T0000,2603A,100.0781,23.8982,临沧市,市环保局,细颗粒物(PM2.5),59,,24,42,28,38,38,78,56,6,7,6,6,0.7,0.7
2025-11-26T0000,2604A,100.0894,23.8822,临沧市,市气象局,,31,31,22,21,14,35,35,82,56,10,9,10,9,0.5,0.5
2025-11-26T0000,1733A,111.5531,36.0783,临汾市,临钢医院,颗粒物(PM10),71,91,110,31,25,1,1,49,14,44,36,2,2,0.8,0.6
2025-11-26T0000,1734A,111.5028,36.0714,临汾市,技工学校,颗粒物(PM10),80,110,110,41,30,2,2,53,16,53,38,4,5,0.8,0.7
2025-11-26T0000,1736A,111.5018,36.0855,临汾市,市委,颗粒物(PM10),86,122,122,33,26,6,6,56,19,48,37,8,8,0.8,0.7
2025-11-26T0000,3018A,111.505,36.1014,临汾市,唐尧大酒店,颗粒物(PM10),86,121,116,39,26,7,7,61,26,46,34,2,3,0.8,0.7
2025-11-26T0000,4244A,111.4879,36.0530,临汾市,启星学校,颗粒物(PM10),99,148,111,47,29,1,1,59,20,58,41,5,6,1.0,0.6
2025-11-26T0000,4271A,103.2464,35.6123,临夏回族自治州,滨河东路1号,细颗粒物(PM2.5),125,153,97,95,44,3,3,51,20,19,14,6,7,1.6,0.9
2025-11-26T0000,4310A,103.2093,35.5995,临夏回族自治州,新华街21号,细颗粒物(PM2.5),163,210,120,124,63,5,5,54,18,38,29,8,8,2.4,1.4
2025-11-26T0000,1618A,118.3429,35.0532,临沂市,沂河小区,,,,,,,,,,,,,,,,
2025-11-26T0000,1619A,118.295,35.0583,临沂市,鲁南制药厂,细颗粒物(PM2.5),94,124,67,70,29,6,6,63,22,72,40,19,15,0.7,0.4
2025-11-26T0000,1620A,118.2794,34.9976,临沂市,新光毛纺厂,"颗粒物(PM10),细颗粒物(PM2.5)",104,158,65,78,29,7,7,64,23,72,37,47,15,0.8,0.5
2025-11-26T0000,1621A,118.3956,35.0888,临沂市,河东保险公司,细颗粒物(PM2.5),82,110,50,60,17,11,11,67,28,60,33,10,9,0.7,0.4
2025-11-26T0000,3370A,118.3564,35.0215,临沂市,十里堡居委,细颗粒物(PM2.5),110,168,62,83,19,7,7,64,27,72,34,42,15,0.9,0.5
2025-11-26T0000,3496A,118.3604,35.1084,临沂市,南坊新区,颗粒物(PM10),70,90,48,46,14,34,34,65,38,43,30,13,11,0.7,0.6
2025-11-26T0000,3860A,118.3920,35.0300,临沂市,皇山花园小区,细颗粒物(PM2.5),118,163,57,89,21,12,12,65,32,75,29,29,14,0.7,0.3
2025-11-26T0000,1870A,109.4856,24.3895,柳州市,柳东小学,颗粒物(PM10),54,58,45,28,24,79,79,104,95,12,7,9,9,0.3,0.3
2025-11-26T0000,1871A,109.4157,24.3277,柳州市,环保监测站,颗粒物(PM10),52,54,46,21,22,69,69,95,79,12,8,8,8,0.4,0.4
2025-11-26T0000,1872A,109.389,24.341,柳州市,河西水厂,颗粒物(PM10),76,101,56,48,26,13,13,102,72,50,19,12,14,0.5,0.9
2025-11-26T0000,1873A,109.4311,24.2921,柳州市,市四中,,49,49,45,21,18,75,75,98,77,16,13,10,11,0.4,0.4
2025-11-26T0000,1874A,109.4006,24.3631,柳州市,市九中,颗粒物(PM10),68,86,55,36,24,40,40,100,80,41,13,9,9,0.4,0.4
2025-11-26T0000,1875A,109.4958,24.3134,柳州市,古亭山,,49,49,48,14,17,68,68,98,64,17,13,10,11,0.4,0.5
2025-11-26T0000,3402A,109.5422,24.3996,柳州市,市二中,,50,50,42,28,14,54,54,102,69,28,14,8,9,0.7,0.3
2025-11-26T0000,2307A,116.5079,31.737,六安市,监测大楼,颗粒物(PM10),70,90,112,31,28,50,50,71,62,20,15,5,4,0.3,0.3
2025-11-26T0000,2308A,116.4738,31.7643,六安市,皖西学院,颗粒物(PM10),77,103,125,31,29,55,55,78,63,17,14,3,3,0.4,0.4
2025-11-26T0000,2309A,116.4996,31.7905,六安市,朝阳厂,颗粒物(PM10),64,78,99,31,27,52,52,68,52,18,19,4,5,0.3,0.3
2025-11-26T0000,2310A,116.5567,31.7886,六安市,开发区,颗粒物(PM10),85,119,133,40,35,32,32,70,43,40,20,2,2,0.3,0.2
2025-11-26T0000,2576A,104.8,26.5892,六盘水市,窑上,,22,19,33,15,17,53,53,92,63,4,5,5,6,0.4,0.4
2025-11-26T0000,2577A,104.83,26.5917,六盘水市,黄土坡,,31,31,35,20,17,38,38,85,57,22,17,4,7,0.4,0.4
2025-11-26T0000,2578A,104.89,26.5939,六盘水市,水钢,颗粒物(PM10),53,55,46,27,26,44,44,89,71,34,20,11,12,0.5,0.8
2025-11-26T0000,2579A,104.8475,26.5894,六盘水市,民中,颗粒物(PM10),53,56,37,36,21,11,11,86,49,48,22,19,9,1.0,0.5
2025-11-26T0000,2580A,104.9544,26.5506,六盘水市,双水,,30,27,39,21,23,57,57,93,76,16,18,4,8,0.4,1.3
2025-11-26T0000,2335A,117.0189,25.1181,龙岩市,龙岩师专,,,,,,,,,,,,,,,,
2025-11-26T0000,2336A,117.0217,25.1033,龙岩市,龙岩市监测站,,37,37,29,16,14,82,82,102,90,13,10,19,12,0.4,0.3
2025-11-26T0000,2337A,117.0258,25.0661,龙岩市,闽西职业技术学院,,44,44,32,20,17,49,49,108,83,26,11,10,8,0.4,0.3
2025-11-26T0000,2338A,117.0196,25.0306,龙岩市,龙岩学院,,32,32,31,21,17,69,69,104,90,16,11,8,6,0.4,0.3
2025-11-26T0000,2665A,105.0822,33.3261,陇南市,汉王镇固水子,,,,,,,,,,,,,,,,
2025-11-26T0000,2885A,104.9339,33.3826,陇南市,滨江中学,细颗粒物(PM2.5),64,69,93,46,38,5,5,42,11,43,41,11,14,2.3,1.9
2025-11-26T0000,3247A,104.955,33.371,陇南市,市总工会,颗粒物(PM10),75,99,90,44,35,6,6,52,22,46,30,5,5,1.1,0.9
2025-11-26T0000,2487A,111.9589,27.8901,娄底市,电视发射台,,,,,,,,,,,,,,,,
2025-11-26T0000,2488A,111.9975,27.725,娄底市,市监测站,颗粒物(PM10),67,84,78,45,28,23,23,91,64,52,16,18,11,0.8,0.4
2025-11-26T0000,2489A,112.0194,27.7314,娄底市,市委党校,颗粒物(PM10),66,81,80,36,26,17,17,84,64,51,16,11,8,0.7,0.4
2025-11-26T0000,2490A,111.9561,27.7569,娄底市,涟钢,颗粒物(PM10),74,97,83,51,30,34,34,84,51,17,19,5,5,0.7,0.8
2025-11-26T0000,2491A,111.9892,27.7044,娄底市,市政府,细颗粒物(PM2.5),88,98,81,65,30,18,18,83,52,27,16,10,9,0.6,2.1
2025-11-26T0000,1893A,105.4324,28.9634,泸州市,九狮山,,,,,,,,,,,,,,,,
2025-11-26T0000,1894A,105.4427,28.9063,泸州市,小市上码头,细颗粒物(PM2.5),78,94,63,57,46,31,31,84,59,41,22,9,11,0.7,0.6
2025-11-26T0000,1895A,105.4241,28.8573,泸州市,兰田宪桥,细颗粒物(PM2.5),93,98,61,69,47,15,15,73,49,34,18,7,7,0.6,0.5
2025-11-26T0000,1896A,105.4379,28.8833,泸州市,市环监站,细颗粒物(PM2.5),73,90,58,53,40,34,34,76,52,37,25,7,9,0.6,0.6
2025-11-26T0000,4272A,105.3689,28.7783,泸州市,纳溪中医医院,,,95,64,63,43,2,2,87,56,,15,7,8,0.7,0.5
2025-11-26T0000,2183A,111.1406,37.5211,吕梁市,环保局,颗粒物(PM10),68,86,98,22,21,4,4,43,12,53,42,5,7,0.6,0.4
2025-11-26T0000,2185A,111.1297,37.5136,吕梁市,自来水公司,颗粒物(PM10),103,156,136,26,25,2,2,47,12,50,41,13,9,0.7,0.6
2025-11-26T0000,2867A,111.1283,37.51,吕梁市,马茂庄小学,颗粒物(PM10),94,137,114,28,24,2,2,44,8,52,41,10,8,0.7,0.5
2025-11-26T0000,1812A,112.3931,34.6516,洛阳市,市委党校,细颗粒物(PM2.5),98,122,123,73,44,3,3,67,23,60,42,13,13,0.8,0.6
2025-11-26T0000,1815A,112.494,34.6886,洛阳市,河南林校,颗粒物(PM10),94,138,143,61,43,3,3,52,14,63,46,12,13,0.8,0.7
2025-11-26T0000,1816A,112.3844,34.623,洛阳市,开发区管委会,颗粒物(PM10),88,125,120,57,44,4,4,61,30,55,32,10,13,0.7,0.6
2025-11-26T0000,1817A,112.4267,34.6258,洛阳市,市委新办公区,颗粒物(PM10),101,151,128,65,39,4,4,57,18,53,36,11,12,0.8,0.5
2025-11-26T0000,3340A,112.6005,34.6326,洛阳市,伊滨,颗粒物(PM10),108,166,155,55,42,2,2,54,18,47,31,7,10,0.6,0.5
2025-11-26T0000,3341A,112.4951,34.6332,洛阳市,中移产业园,颗粒物(PM10),101,152,133,70,43,3,3,52,19,67,40,11,11,0.9,0.5
2025-11-26T0000,3593A,112.5736,34.8993,洛阳市,吉利监测站,颗粒物(PM10),79,107,122,39,34,8,8,66,23,56,42,6,8,0.5,0.6
2025-11-26T0000,3635A,112.3677,34.662,洛阳市,河科大西苑校区,颗粒物(PM10),99,147,140,67,43,6,6,60,22,54,32,13,15,0.8,0.8
2025-11-26T0000,3636A,112.4388,34.6781,洛阳市,英才小学,颗粒物(PM10),99,147,150,67,54,0,0,49,11,68,51,18,16,1.0,0.9
2025-11-26T0000,4214A,112.4600,34.6949,洛阳市,春都路1号院,颗粒物(PM10),105,160,166,51,45,0,0,47,11,58,44,11,14,0.8,0.7
2025-11-26T0000,2399A,114.051,33.5699,漯河市,三五一五工厂,颗粒物(PM10),108,165,166,61,42,13,13,60,36,44,26,6,7,0.4,0.3
2025-11-26T0000,2400A,114.0055,33.5698,漯河市,漯河大学,颗粒物(PM10),94,137,161,51,41,23,23,71,45,40,27,6,6,0.4,0.4
2025-11-26T0000,2401A,114.0138,33.5828,漯河市,市水利局,颗粒物(PM10),93,136,154,48,38,19,19,66,42,39,25,7,8,0.3,0.2
2025-11-26T0000,2402A,114.0261,33.5698,漯河市,市广电局,颗粒物(PM10),99,147,163,53,37,15,15,65,37,42,26,6,7,0.4,0.4
2025-11-26T0000,3478A,113.9749,33.5664,漯河市,市图书馆,颗粒物(PM10),110,169,181,53,45,21,21,61,34,39,26,6,6,0.4,0.4
2025-11-26T0000,4250A,114.0892,33.5882,漯河市,韶山路11号,颗粒物(PM10),106,161,165,57,41,17,17,57,28,42,28,8,8,0.3,0.3
2025-11-26T0000,1798A,118.5092,31.6837,马鞍山市,湖东路四小,颗粒物(PM10),84,118,140,40,32,0,0,63,26,60,33,4,12,0.6,0.9
2025-11-26T0000,1799A,118.5024,31.6449,马鞍山市,开发区,颗粒物(PM10),84,117,138,42,32,1,1,65,23,66,31,4,5,0.7,0.6
2025-11-26T0000,1802A,118.6245,31.7241,马鞍山市,濮塘,,,,,,,,,,,,,,,,
2025-11-26T0000,3633A,118.4918,31.6809,马鞍山市,雨山,颗粒物(PM10),79,108,134,48,34,1,1,69,37,66,32,6,12,0.6,0.8
2025-11-26T0000,4191A,118.5274,31.72227,马鞍山市,慈湖高新区,颗粒物(PM10),80,110,144,44,30,11,11,58,24,48,36,4,17,0.8,0.8
2025-11-26T0000,1686A,111.0286,21.4688,茂名市,电白南海,,,53,52,,24,74,74,105,88,19,14,12,12,1.0,1
2025-11-26T0000,1687A,110.9294,21.6533,茂名市,茂石化七小,,46,46,47,31,27,70,70,100,82,15,11,30,14,0.6,0.6
2025-11-26T0000,1688A,110.9107,21.6687,茂名市,健康路,颗粒物(PM10),51,51,44,29,27,75,75,106,87,18,15,14,16,0.4,0.7
2025-11-26T0000,1689A,110.8592,21.6828,茂名市,高岭,颗粒物(PM10),59,68,58,27,26,44,44,104,76,35,18,21,14,0.8,0.7
2025-11-26T0000,3450A,111.01,21.5165,茂名市,电白水东,,39,39,42,22,24,77,77,100,87,20,12,15,12,0.4,0.5
2025-11-26T0000,2539A,104.0308,30.0478,眉山市,黑龙滩水库,,,,,,,,,,,,,,,,
2025-11-26T0000,2540A,103.8416,30.0874,眉山市,气象局,细颗粒物(PM2.5),119,107,103,90,70,4,4,82,36,48,33,11,12,0.8,0.8
2025-11-26T0000,3137A,103.8578,30.0744,眉山市,市委党校,细颗粒物(PM2.5),107,105,92,80,58,1,1,75,27,56,41,6,6,1.0,0.8
2025-11-26T0000,3148A,103.8291,30.0564,眉山市,区人社局,细颗粒物(PM2.5),113,107,99,85,68,2,2,79,32,57,38,8,8,1.1,1.1
2025-11-26T0000,1690A,116.1231,24.3284,梅州市,梅江月梅,颗粒物(PM10),53,56,43,23,23,69,69,103,81,15,16,7,7,0.5,0.5
2025-11-26T0000,1691A,116.0797,24.2719,梅州市,梅县新城,颗粒物(PM10),61,71,47,28,23,18,18,105,80,50,16,7,8,0.4,0.4
2025-11-26T0000,1692A,116.1248,24.2654,梅州市,环境监控中心,颗粒物(PM10),63,75,48,39,26,7,7,99,54,62,26,47,12,0.7,0.6
2025-11-26T0000,3315A,116.1233,24.2991,梅州市,梅龙,颗粒物(PM10),56,61,50,34,26,46,46,95,66,21,16,14,11,0.5,0.4
2025-11-26T0000,1878A,104.7778,31.4741,绵阳市,富乐山,细颗粒物(PM2.5),83,99,85,61,44,30,30,67,47,18,20,10,10,0.6,0.5
2025-11-26T0000,1880A,104.6697,31.4668,绵阳市,高新区自来水公司,细颗粒物(PM2.5),110,138,126,83,58,1,1,57,30,56,40,10,10,0.8,0.8
2025-11-26T0000,1881A,104.7287,31.5075,绵阳市,三水厂,细颗粒物(PM2.5),110,123,87,83,51,1,1,49,19,49,40,12,12,0.9,0.7
2025-11-26T0000,3491A,104.69,31.5322,绵阳市,西科大附属小学,细颗粒物(PM2.5),102,139,125,76,59,2,2,56,28,49,40,8,8,0.7,0.5
2025-11-26T0000,3492A,104.5648,31.5343,绵阳市,安州区旅游局,细颗粒物(PM2.5),110,117,104,83,58,8,8,54,36,33,36,14,14,0.8,0.7
2025-11-26T0000,4226A,104.7651,31.4531,绵阳市,绵阳市气象局,细颗粒物(PM2.5),84,106,92,62,43,10,10,66,34,52,37,6,7,0.8,0.6
2025-11-26T0000,1784A,129.61,44.561,牡丹江市,环保大楼,,40,37,31,28,25,10,10,48,19,31,24,7,7,0.8,0.5
2025-11-26T0000,1785A,129.6115,44.5782,牡丹江市,文化广场,细颗粒物(PM2.5),68,57,56,49,38,12,12,49,15,36,32,10,11,0.9,0.7
2025-11-26T0000,1786A,129.5904,44.5963,牡丹江市,第一医院,细颗粒物(PM2.5),70,52,44,51,41,16,16,44,20,28,24,5,8,0.7,0.6
2025-11-26T0000,1787A,129.6364,44.6075,牡丹江市,机车工厂,颗粒物(PM10),56,62,45,35,30,8,8,48,14,34,24,6,14,0.7,0.5
2025-11-26T0000,1788A,129.6386,44.5462,牡丹江市,第一中学,,24,24,31,16,25,13,13,51,14,25,22,3,4,0.4,0.4
2025-11-26T0000,2531A,105.0703,29.61,内江市,市监测站,颗粒物(PM10),61,72,58,42,47,25,25,98,67,35,21,3,3,0.7,0.7
2025-11-26T0000,2532A,105.0717,29.5947,内江市,东兴区政府,颗粒物(PM10),63,75,62,34,45,49,49,90,74,29,25,3,4,0.4,0.5
2025-11-26T0000,2533A,105.0653,29.5817,内江市,内江二中,颗粒物(PM10),64,77,73,34,47,41,41,94,72,37,26,4,4,0.7,0.7
2025-11-26T0000,2534A,105.0406,29.5822,内江市,内江日报社,颗粒物(PM10),57,63,63,37,47,52,52,93,75,27,29,3,3,0.4,0.5
2025-11-26T0000,2628A,92.0657,31.4846,那曲市,那曲监测站,细颗粒物(PM2.5),75,83,51,55,30,14,14,88,66,75,25,22,12,4.4,1.3
2025-11-26T0000,4243A,92.0515,31.4787,那曲市,那曲市委宣传部,颗粒物(PM10),52,54,33,33,24,17,17,76,62,54,20,10,7,2.5,1.1
2025-11-26T0000,1290A,115.8931,28.6843,南昌市,省外办,颗粒物(PM10),65,79,98,29,31,49,49,69,54,28,23,4,4,0.7,0.7
2025-11-26T0000,1291A,115.8886,28.7003,南昌市,省林业公司,颗粒物(PM10),85,119,138,36,33,55,55,72,46,16,15,5,4,0.7,0.7
2025-11-26T0000,1292A,115.8126,28.7442,南昌市,林科所,颗粒物(PM10),73,95,119,24,23,70,70,76,64,4,9,4,4,0.4,0.4
2025-11-26T0000,1294A,115.8518,28.687,南昌市,建工学校,颗粒物(PM10),93,136,138,33,32,37,37,73,57,41,15,11,10,0.6,0.5
2025-11-26T0000,1295A,115.8921,28.6424,南昌市,象湖,颗粒物(PM10),78,106,112,34,35,17,17,71,55,60,16,10,9,0.7,0.6
2025-11-26T0000,1296A,115.7423,28.7996,南昌市,武术学校,,,,,,,,,,,,,,,,
2025-11-26T0000,3046A,115.9084,28.6062,南昌市,机电学校,颗粒物(PM10),84,118,143,31,31,21,21,78,54,54,18,9,9,0.5,0.4
2025-11-26T0000,3690A,115.9721,28.7031,南昌市,外国语学校,颗粒物(PM10),85,120,142,38,34,36,36,76,59,46,22,12,10,0.5,0.4
2025-11-26T0000,4192A,115.9316,28.68677,南昌市,南京东路235号,颗粒物(PM10),90,130,139,31,30,54,54,82,61,35,23,9,7,0.6,0.5
2025-11-26T0000,1905A,106.056,30.8064,南充市,西山风景区,,,,,,,,,,,,,,,,
2025-11-26T0000,1906A,106.0789,30.8023,南充市,南充市委,颗粒物(PM10),67,84,90,38,39,35,35,62,33,31,33,5,5,0.5,0.5
2025-11-26T0000,1907A,106.1031,30.8217,南充市,南充炼油厂,颗粒物(PM10),69,88,96,47,45,38,38,65,49,28,30,6,7,0.5,0.5
2025-11-26T0000,4227A,106.1083,30.7884,南充市,梨树横街98号,颗粒物(PM10),69,88,93,45,38,31,31,74,53,37,30,6,7,0.5,0.5
2025-11-26T0000,4304A,106.1172,30.843,南充市,清泉寺北路188号,颗粒物(PM10),61,71,76,25,25,53,53,79,67,16,21,5,6,0.3,0.4
2025-11-26T0000,4305A,106.067,30.7616,南充市,同庆路1号,颗粒物(PM10),72,94,89,39,37,30,30,65,31,35,31,6,7,0.5,0.5
2025-11-26T0000,1151A,118.8086,32.1065,南京市,迈皋桥,,50,50,84,19,20,8,8,64,28,41,23,4,4,0.8,0.7
2025-11-26T0000,1152A,118.7538,32.0551,南京市,草场门,颗粒物(PM10),60,70,123,31,23,4,4,54,20,72,34,3,3,0.7,0.3
2025-11-26T0000,1153A,118.7794,32.0745,南京市,山西路,颗粒物(PM10),59,68,131,12,17,1,1,62,24,71,31,4,4,0.6,0.4
2025-11-26T0000,1154A,118.7752,32.0023,南京市,中华门,颗粒物(PM10),60,70,107,27,25,7,7,59,24,49,20,4,4,0.5,0.3
2025-11-26T0000,1155A,118.8109,32.0309,南京市,瑞金路,,48,48,103,19,24,2,2,56,20,75,24,4,4,0.5,0.3
2025-11-26T0000,1156A,118.7997,32.0754,南京市,玄武湖,,48,48,94,13,18,4,4,59,21,2,11,4,4,0.6,0.4
2025-11-26T0000,1157A,118.6414,32.0931,南京市,浦口,颗粒物(PM10),56,61,118,20,22,53,53,62,52,17,20,7,8,0.5,0.5
2025-11-26T0000,1158A,118.7356,31.9996,南京市,奥体中心,颗粒物(PM10),62,74,107,29,22,2,2,62,27,71,32,4,4,0.6,0.3
2025-11-26T0000,1159A,118.9125,32.1028,南京市,仙林大学城,颗粒物(PM10),52,53,126,17,24,4,4,52,14,48,32,4,8,0.6,0.8
2025-11-26T0000,3422A,118.8436,31.9198,南京市,江宁彩虹桥,颗粒物(PM10),60,69,108,29,23,2,2,69,22,72,28,4,4,0.6,0.4
2025-11-26T0000,3427A,118.8554,32.3578,南京市,六合雄州,颗粒物(PM10),65,80,106,22,22,7,7,62,24,41,28,9,8,0.4,0.3
2025-11-26T0000,4249A,118.8708,31.3402,南京市,汶溪路181号,颗粒物(PM10),81,111,144,48,41,33,33,59,37,34,29,3,6,0.5,0.4
2025-11-26T0000,4312A,119.019,31.6512,南京市,中山西路1号,,44,44,105,28,32,2,2,59,24,50,26,3,4,0.7,0.5
2025-11-26T0000,1401A,108.3103,22.7881,南宁市,二十一中,颗粒物(PM10),58,66,37,40,20,3,3,87,58,63,17,5,6,0.7,0.4
2025-11-26T0000,1402A,108.3141,22.8528,南宁市,北湖,颗粒物(PM10),81,112,45,58,26,3,3,95,44,78,32,13,12,0.9,0.6
2025-11-26T0000,1403A,108.3206,22.8225,南宁市,市监测站,,45,45,41,29,27,44,44,78,58,38,23,15,11,0.5,0.5
2025-11-26T0000,1404A,108.3829,22.8037,南宁市,大自然花园,,46,46,35,28,22,45,45,92,60,27,16,7,7,0.4,0.4
2025-11-26T0000,1405A,108.4394,22.7904,南宁市,仙葫,,,,,,,,,,,,,,,,
2025-11-26T0000,1406A,108.2397,22.8467,南宁市,区农职院,,39,37,38,27,25,24,24,86,47,29,17,6,8,0.7,0.6
2025-11-26T0000,1407A,108.3275,22.735,南宁市,英华嘉园,细颗粒物(PM2.5),62,54,38,44,24,4,4,89,49,59,20,4,5,0.9,0.7
2025-11-26T0000,3401A,108.4834,22.7618,南宁市,红星社区,颗粒物(PM10),51,52,34,24,21,32,32,98,64,36,16,6,6,0.5,0.4
2025-11-26T0000,4221A,108.2177,22.7774,南宁市,乐贤路16号,颗粒物(PM10),65,80,51,32,32,0,0,90,36,49,24,4,5,0.6,0.4
2025-11-26T0000,2331A,118.0966,26.6761,南平市,茫荡山,,,,41,,19,,,148,145,,,,1,,0.3
2025-11-26T0000,2332A,118.1681,26.6369,南平市,南平市监测站,,46,46,37,31,25,14,14,94,46,47,27,3,4,0.5,0.5
2025-11-26T0000,2333A,118.1825,26.6489,南平市,南平铝业有限公司,,44,44,39,29,26,17,17,96,48,44,27,6,5,0.5,0.4
2025-11-26T0000,2334A,118.1756,26.6272,南平市,南平七中,,38,38,39,25,22,38,38,100,64,21,14,4,6,0.4,0.4
2025-11-26T0000,1168A,120.9098,31.9663,南通市,狼山街道,颗粒物(PM10),51,51,126,21,28,21,21,59,43,30,22,3,5,0.4,0.4
2025-11-26T0000,1169A,120.86,32.0005,南通市,虹桥,颗粒物(PM10),51,52,106,27,29,37,37,62,47,32,23,5,5,0.1,0.4
2025-11-26T0000,1170A,120.87,32.02,南通市,城中,颗粒物(PM10),55,60,140,23,31,30,30,59,41,38,24,6,6,0.5,0.5
2025-11-26T0000,1171A,120.94,31.93,南通市,星湖花园,颗粒物(PM10),51,51,132,28,32,27,27,54,47,33,34,4,6,0.3,0.2
2025-11-26T0000,1172A,120.81,32.0417,南通市,紫琅学院,颗粒物(PM10),59,68,136,29,26,5,5,63,36,56,26,4,5,0.6,0.5
2025-11-26T0000,3291A,121.067,32.062,南通市,通州监测站,,25,22,106,17,28,41,41,64,45,24,25,3,5,0.3,0.3
2025-11-26T0000,3432A,120.9348,31.9883,南通市,环境教育馆,颗粒物(PM10),58,66,124,37,28,4,4,64,38,58,23,5,6,0.4,0.3
2025-11-26T0000,2404A,112.5224,33.0122,南阳市,瓦房庄,颗粒物(PM10),80,109,93,44,30,51,51,64,58,22,24,10,8,0.5,0.4
2025-11-26T0000,2405A,112.5003,32.9735,南阳市,汉画馆,颗粒物(PM10),80,110,84,40,25,42,42,63,51,30,26,9,7,0.5,0.4
2025-11-26T0000,2406A,112.5573,33.027,南阳市,气象站,颗粒物(PM10),87,123,125,34,31,62,62,67,64,22,30,12,9,0.5,0.5
2025-11-26T0000,2407A,112.5481,32.9689,南阳市,理工学院,颗粒物(PM10),81,111,91,36,28,53,53,66,56,18,27,8,6,0.5,0.5
2025-11-26T0000,4008A,112.5234,32.9922,南阳市,卧龙区政府,颗粒物(PM10),88,125,95,42,30,41,41,58,51,30,26,10,7,0.5,0.5
2025-11-26T0000,1234A,121.8358,29.911,宁波市,区环保大楼,颗粒物(PM10),87,124,159,40,39,10,10,61,33,61,35,6,9,0.7,0.6
2025-11-26T0000,1235A,121.56,29.82,宁波市,万里学院,颗粒物(PM10),106,162,139,45,37,4,4,69,37,64,30,6,6,0.4,0.4
2025-11-26T0000,1236A,121.713,29.9572,宁波市,龙赛医院,颗粒物(PM10),109,167,172,41,31,2,2,59,34,68,30,4,5,0.5,0.4
2025-11-26T0000,1239A,121.633,29.7733,宁波市,钱湖水厂,颗粒物(PM10),106,162,162,53,38,15,15,70,42,47,25,7,7,0.8,0.6
2025-11-26T0000,1240A,121.5856,29.8635,宁波市,太古小学,颗粒物(PM10),118,186,155,57,31,0,0,70,41,66,22,4,4,0.9,0.6
2025-11-26T0000,1241A,121.524,29.8674,宁波市,市环境监测中心,颗粒物(PM10),107,163,131,49,36,0,0,63,27,62,29,8,8,0.8,0.6
2025-11-26T0000,2871A,121.6147,29.9017,宁波市,万里国际学校,颗粒物(PM10),97,143,122,48,32,6,6,71,27,65,31,5,5,0.6,0.6
2025-11-26T0000,3710A,121.5594,29.8975,宁波市,白沙活动中心,颗粒物(PM10),91,132,116,39,30,9,9,69,41,55,27,4,6,0.7,0.6
2025-11-26T0000,2339A,119.5001,26.6946,宁德市,金涵水库,,,,41,,22,,,85,73,,9,,3,,0.3
2025-11-26T0000,2341A,119.5388,26.6612,宁德市,宁德市监测站,颗粒物(PM10),79,107,52,37,22,71,71,121,107,27,19,9,8,0.7,0.5
2025-11-26T0000,3209A,119.5231,26.6562,宁德市,宁德一中,颗粒物(PM10),73,96,50,27,24,77,77,118,109,14,12,8,8,0.4,0.4
2025-11-26T0000,2618A,98.8601,25.8567,怒江傈僳族自治州,州监测站,,29,28,26,20,18,35,35,65,48,12,11,7,8,0.4,0.4
2025-11-26T0000,2619A,98.8546,25.8417,怒江傈僳族自治州,泸水一中,,18,16,26,12,16,21,21,44,28,13,16,7,7,0.5,0.5
2025-11-26T0000,1888A,101.6891,26.571,攀枝花市,弄弄坪,,44,44,53,22,28,32,32,68,48,24,24,11,31,0.6,0.9
2025-11-26T0000,1889A,101.5769,26.5928,攀枝花市,河门口,,45,45,47,23,26,18,18,69,48,28,20,17,24,0.9,1.2
2025-11-26T0000,1890A,101.7169,26.585,攀枝花市,炳草岗,颗粒物(PM10),63,76,52,30,28,17,17,69,36,41,28,20,25,0.7,0.8
2025-11-26T0000,1891A,101.7369,26.5008,攀枝花市,仁和,,32,32,52,18,35,28,28,66,45,15,17,7,11,0.6,0.9
2025-11-26T0000,2835A,101.7227,26.567,攀枝花市,四十中小,颗粒物(PM10),52,53,48,26,27,10,10,67,32,52,28,31,51,0.8,1
2025-11-26T0000,1604A,122.0303,41.1489,盘锦市,开发区,,28,28,19,18,9,20,20,58,34,37,13,6,4,0.7,0.3
2025-11-26T0000,1605A,122.0485,41.0883,盘锦市,兴隆台,颗粒物(PM10),51,52,21,25,11,10,10,52,19,53,24,12,7,0.8,0.3
2025-11-26T0000,1606A,121.8297,41.1028,盘锦市,新生街道,,33,30,14,23,5,13,13,57,32,51,26,8,8,0.5,0.2
2025-11-26T0000,1832A,113.3257,33.742,平顶山市,新华旅馆,颗粒物(PM10),72,94,128,36,34,43,43,67,44,29,26,8,8,0.3,0.5
2025-11-26T0000,1833A,113.2919,33.737,平顶山市,规划设计院,颗粒物(PM10),66,81,123,31,36,57,57,69,55,22,22,6,6,0.3,0.3
2025-11-26T0000,1834A,113.182,33.774,平顶山市,平顶山工学院,颗粒物(PM10),68,85,110,36,33,48,48,70,56,30,24,7,8,0.5,0.5
2025-11-26T0000,3204A,113.3025,33.73,平顶山市,规划局,颗粒物(PM10),64,78,133,27,35,54,54,66,52,25,25,7,7,0.4,0.5
2025-11-26T0000,3594A,112.8867,33.9116,平顶山市,石龙区,颗粒物(PM10),77,104,134,35,47,5,5,76,34,67,35,6,8,0.4,0.3
2025-11-26T0000,2656A,106.6692,35.5461,平凉市,聚贤嘉苑,颗粒物(PM10),53,55,50,29,23,31,31,71,37,34,32,5,6,0.8,0.7
2025-11-26T0000,2657A,106.7021,35.5307,平凉市,博物馆,,50,50,48,34,23,36,36,63,34,26,31,11,11,0.8,1
2025-11-26T0000,2347A,114.0997,27.5002,萍乡市,武功山,,,,,,,,,,,,,,,,
2025-11-26T0000,2348A,113.8385,27.6434,萍乡市,中医院,颗粒物(PM10),61,71,68,27,26,18,18,77,35,38,31,3,4,0.8,0.8
2025-11-26T0000,2349A,113.8493,27.6253,萍乡市,市政府车库,,,63,61,40,31,31,31,86,47,24,25,6,7,,0.8
2025-11-26T0000,2350A,113.8676,27.6435,萍乡市,市环保局,颗粒物(PM10),64,78,61,35,30,15,15,92,44,42,21,21,11,0.4,0.5
2025-11-26T0000,2351A,113.866,27.6198,萍乡市,安源区政府,"颗粒物(PM10),细颗粒物(PM2.5)",59,68,58,42,33,18,18,79,44,28,21,9,8,0.8,0.8
2025-11-26T0000,2319A,119.0141,25.4325,莆田市,荔城区仓后路,颗粒物(PM10),69,88,53,32,23,115,115,120,118,10,13,4,4,0.4,0.5
2025-11-26T0000,2320A,119.0015,25.4553,莆田市,莆田市监测站,颗粒物(PM10),62,74,38,36,21,123,123,125,124,10,9,4,5,0.4,0.4
2025-11-26T0000,2321A,119.1119,25.4561,莆田市,涵江区六中,颗粒物(PM10),73,95,50,33,22,118,118,124,122,10,11,4,4,0.4,0.5
2025-11-26T0000,2322A,119.1013,25.3215,莆田市,秀屿区政府,颗粒物(PM10),69,88,54,37,25,117,117,122,119,12,14,4,6,0.3,0.3
2025-11-26T0000,2323A,118.981,25.4792,莆田市,东圳水库,,,,32,,15,,,135,135,,7,,5,,0.8
2025-11-26T0000,2392A,115.0312,35.7636,濮阳市,环保局,颗粒物(PM10),98,146,65,43,17,28,28,44,34,31,21,9,9,0.4,0.5
2025-11-26T0000,2394A,115.0574,35.7609,濮阳市,油田运输公司,颗粒物(PM10),88,125,66,45,15,30,30,61,38,35,24,12,10,0.4,0.3
2025-11-26T0000,3021A,115,35.7668,濮阳市,濮水河管理处,颗粒物(PM10),101,151,72,54,26,32,32,58,43,28,22,9,8,0.6,0.3
2025-11-26T0000,4216A,115.0924,35.7686,濮阳市,任丘路479号,颗粒物(PM10),96,142,77,49,23,21,21,42,29,40,29,11,8,0.4,0.3
2025-11-26T0000,2601A,100.98,22.7633,普洱市,市环保局,颗粒物(PM10),55,59,45,34,22,38,38,82,57,6,9,6,6,0.3,0.3
2025-11-26T0000,2602A,100.9817,22.8322,普洱市,普洱第二中学,,46,46,36,30,21,15,15,85,51,25,12,4,5,0.3,0.2
2025-11-26T0000,2262A,131.0518,45.8751,七台河市,新一中,,,,,,,,,,,,,,,,
2025-11-26T0000,3345A,131.0577,45.7879,七台河市,中波台,,42,42,42,21,20,21,21,39,14,22,23,7,10,0.5,0.5
2025-11-26T0000,3637A,131.0176,45.7761,七台河市,人民广场,颗粒物(PM10),57,64,58,28,29,14,14,34,5,24,26,8,11,0.5,0.6
2025-11-26T0000,3684A,130.8781,45.8222,七台河市,新建矿广场,颗粒物(PM10),52,53,55,33,22,7,7,40,11,36,23,8,8,0.4,0.5
2025-11-26T0000,1779A,123.9305,47.3636,齐齐哈尔市,安居小区,,38,38,43,17,22,44,44,43,41,9,15,7,8,0.3,0.4
2025-11-26T0000,1780A,123.9488,47.3386,齐齐哈尔市,中心广场,,38,38,32,19,17,42,42,43,40,14,17,7,8,0.3,0.3
2025-11-26T0000,1781A,123.9483,47.3227,齐齐哈尔市,农牧车辆厂,,44,44,42,24,18,39,39,42,38,8,12,6,7,0.5,0.5
2025-11-26T0000,1783A,123.945,47.2988,齐齐哈尔市,市环境监测站,,38,38,36,21,18,42,42,49,43,10,14,6,8,0.5,0.6
2025-11-26T0000,3662A,123.6333,47.2075,齐齐哈尔市,富区青少年活动中心,,43,43,42,19,20,37,37,46,38,10,16,4,7,0.5,0.6
2025-11-26T0000,2591A,107.9783,26.5747,黔东南苗族侗族自治州,市环境监测站,细颗粒物(PM2.5),53,54,38,37,28,26,26,83,44,29,20,5,5,0.5,0.5
2025-11-26T0000,2881A,107.8908,26.5311,黔东南苗族侗族自治州,凯里学院,,39,39,40,24,24,28,28,87,59,24,15,4,4,0.4,0.4
2025-11-26T0000,2593A,107.5228,26.2403,黔南布依族苗族自治州,小围寨,,45,41,42,31,24,44,44,95,64,14,8,6,8,0.6,0.6
2025-11-26T0000,3538A,107.5175,26.2978,黔南布依族苗族自治州,沙坝,,49,46,43,34,27,29,29,90,48,13,16,5,6,0.7,0.6
2025-11-26T0000,2589A,104.9022,25.0925,黔西南布依族苗族自治州,场坝街,颗粒物(PM10),52,53,44,34,29,28,28,90,57,32,17,4,10,0.5,0.4
2025-11-26T0000,2590A,104.8811,25.0992,黔西南布依族苗族自治州,坪东大道,细颗粒物(PM2.5),53,47,39,37,29,25,25,85,43,32,21,3,7,0.5,0.5
2025-11-26T0000,2502A,108.6236,21.9667,钦州市,市环保站,颗粒物(PM10),68,85,52,34,22,75,75,100,85,23,15,8,5,1.9,0.9
2025-11-26T0000,2503A,108.6549,21.9481,钦州市,沙埠小学,颗粒物(PM10),70,90,48,46,22,42,42,105,82,45,14,11,7,0.6,0.4
2025-11-26T0000,2504A,108.5989,21.7431,钦州市,港区一小,颗粒物(PM10),58,65,57,27,25,82,82,94,88,33,23,8,8,0.8,0.7
2025-11-26T0000,3404A,108.5959,21.9633,钦州市,北职校,颗粒物(PM10),58,65,43,32,25,78,78,97,82,13,10,8,8,0.7,0.8
2025-11-26T0000,1043A,119.7493,40.0116,秦皇岛市,第一关,,50,46,26,35,17,8,8,58,25,58,27,12,7,0.9,0.4
2025-11-26T0000,1044A,119.5897,39.9499,秦皇岛市,监测站,颗粒物(PM10),53,55,35,24,16,12,12,57,26,59,26,16,9,1.1,0.5
2025-11-26T0000,1046A,119.5251,39.9041,秦皇岛市,建设大厦,颗粒物(PM10),53,55,32,35,21,8,8,57,23,57,25,14,7,1.0,0.4
