timepoint,stationcode,longitude,latitude,area,positionname,primarypollutant,aqi,pm10,pm10_24h,pm2_5,pm2_5_24h,o3,o3_24h,o3_8h,o3_8h_24h,no2,no2_24h,so2,so2_24h,co,co_24h
2026-04-23T1800,2568A,102.2503,31.8896,阿坝藏族羌族自治州,马师校,颗粒物(PM10),54,55,44,28,20,120,120,113,113,5,5,6,6,0.2,0.2
2026-04-23T1800,3994A,102.2174,31.9016,阿坝藏族羌族自治州,马尔康中学西区,颗粒物(PM10),73,81,51,32,22,116,116,111,111,5,5,4,4,0.2,0.2
2026-04-23T1800,2695A,80.2899,41.1684,阿克苏地区,电视台,细颗粒物(PM2.5),172,215,237,130,119,116,116,99,99,4,29,4,4,NA,1.2
2026-04-23T1800,2696A,80.2592,41.1541,阿克苏地区,艺术中心,细颗粒物(PM2.5),183,189,211,138,138,123,123,102,102,4,32,4,4,0.4,0.8
2026-04-23T1800,2205A,105.699,38.8409,阿拉善盟,蒙二幼,颗粒物(PM10),95,113,105,31,30,111,111,112,112,4,5,8,8,0.4,0.4
2026-04-23T1800,2206A,105.7198,38.8508,阿拉善盟,环保局新楼,颗粒物(PM10),96,114,108,39,31,103,103,106,106,3,4,8,8,0.5,0.5
2026-04-23T1800,2708A,88.1266,47.8515,阿勒泰地区,市站,,38,29,31,3,4,121,121,117,117,13,8,5,5,0.1,0.1
2026-04-23T1800,4166A,88.1198,47.7931,阿勒泰地区,阿勒泰路33号,,39,32,34,8,5,123,123,114,114,5,6,6,6,0.2,0.2
2026-04-23T1800,2630A,80.1171,32.4999,阿里地区,阿里监测站,NA,NA,6,14,3,3,110,110,108,108,2,8,NA,7,0.3,0.4
2026-04-23T1800,3192A,80.0906,32.5029,阿里地区,阿里藏医院,,35,6,11,3,5,110,110,107,107,2,5,6,7,0.3,0.4
2026-04-23T1800,2644A,109.0088,32.6974,安康市,汉滨区检察院,,39,12,19,6,10,124,124,88,88,6,10,6,6,0.3,0.4
2026-04-23T1800,4054A,109.0324,32.6913,安康市,市邮政管理局,,39,18,25,6,11,123,123,93,93,5,10,5,8,0.4,0.5
2026-04-23T1800,2291A,117.0806,30.5181,安庆市,环科院,,26,11,6,3,2,82,82,78,78,9,9,6,5,0.3,0.4
2026-04-23T1800,2292A,117.0331,30.5118,安庆市,马山宾馆,,25,11,7,3,4,79,79,77,77,9,10,4,4,0.2,0.3
2026-04-23T1800,2294A,116.9897,30.6146,安庆市,安庆大学,,27,6,6,3,2,84,84,78,78,6,7,3,3,0.2,0.3
2026-04-23T1800,3173A,117.0598,30.5351,安庆市,市人大,,25,10,7,3,2,77,77,77,77,8,9,3,3,0.3,0.4
2026-04-23T1800,3123A,105.9408,26.2431,安顺市,凤凰山,,37,26,17,16,12,116,116,114,114,7,7,10,8,0.5,0.5
2026-04-23T1800,3124A,105.9443,26.2567,安顺市,金钟山,,34,23,15,21,14,108,108,106,106,5,6,10,8,0.4,0.4
2026-04-23T1800,3125A,105.8983,26.248,安顺市,娄家坡,,34,27,21,23,15,108,108,108,108,5,7,8,4,0.6,0.5
2026-04-23T1800,1819A,114.3552,36.1017,安阳市,红庙街,,47,47,46,26,33,122,122,114,114,9,16,3,4,0.2,0.3
2026-04-23T1800,1820A,114.361,36.0681,安阳市,银杏小区,颗粒物(PM10),59,62,52,26,34,128,128,120,120,11,18,4,6,0.2,0.3
2026-04-23T1800,3141A,114.3921,36.0879,安阳市,信访局,,43,42,43,30,34,130,130,123,123,4,11,2,3,0.3,0.4
2026-04-23T1800,3669A,114.4706,36.0634,安阳市,左辅环卫站,,47,47,53,20,27,115,115,111,111,9,14,3,3,0.2,0.3
2026-04-23T1800,4117A,114.2918,36.0769,安阳市,钢三路198号,,49,38,49,34,36,121,121,114,114,10,14,3,3,0.4,0.4
2026-04-23T1800,1748A,123.0441,41.1201,鞍山市,深沟寺,颗粒物(PM10),68,74,48,29,18,118,118,112,112,23,21,13,11,0.7,0.7
2026-04-23T1800,1749A,123.011,41.0931,鞍山市,太阳城,颗粒物(PM10),70,77,43,30,19,112,112,110,110,22,18,10,10,0.7,0.7
2026-04-23T1800,1750A,123.0483,41.1445,鞍山市,太平,颗粒物(PM10),75,85,60,41,23,115,115,111,111,23,25,10,9,0.7,0.8
2026-04-23T1800,1751A,122.964,41.0968,鞍山市,铁西三道街,颗粒物(PM10),63,68,57,27,24,112,112,108,108,26,27,7,9,0.4,0.8
2026-04-23T1800,1753A,123.0219,41.0822,鞍山市,明达新区,颗粒物(PM10),67,73,42,30,17,116,116,111,111,20,18,11,10,0.8,0.8
2026-04-23T1800,4201A,122.944647,41.082639,鞍山市,兴盛南路290号,颗粒物(PM10),71,79,57,33,27,115,115,114,114,22,31,6,9,0.3,0.9
2026-04-23T1800,2195A,107.4206,40.7609,巴彦淖尔市,附二中,颗粒物(PM10),101,122,118,36,41,112,112,107,107,4,20,9,9,0.3,0.4
2026-04-23T1800,2196A,107.37,40.7372,巴彦淖尔市,市环保大楼,颗粒物(PM10),90,106,104,39,41,114,114,112,112,4,12,6,6,0.3,0.4
2026-04-23T1800,1956A,86.1476,41.7529,巴音郭楞蒙古自治州,孔雀公园,颗粒物(PM10),129,193,152,71,65,95,95,97,97,2,32,10,12,0.2,0.4
2026-04-23T1800,1957A,86.1971,41.7166,巴音郭楞蒙古自治州,棉纺厂,NA,NA,NA,212,NA,74,101,101,105,105,2,16,/,/,/,/
2026-04-23T1800,1958A,86.236,41.7172,巴音郭楞蒙古自治州,经济开发区,颗粒物(PM10),126,187,165,63,65,89,89,94,94,2,9,8,9,0.4,0.4
2026-04-23T1800,3181A,106.776805,31.852614,巴中市,市五中,,35,17,15,6,8,109,109,95,95,9,13,9,9,0.5,0.6
2026-04-23T1800,3183A,106.7419,31.8654,巴中市,圣泉水务公司,,35,25,17,6,6,110,110,96,96,7,18,9,9,0.6,0.7
2026-04-23T1800,3616A,106.7617,31.8343,巴中市,市中心医院,,35,16,17,8,8,110,110,95,95,6,14,10,10,0.5,0.6
2026-04-23T1800,2235A,122.7909,45.608,白城市,洮北区环保局,,41,38,47,16,26,131,131,122,122,10,33,4,6,0.2,0.4
2026-04-23T1800,2236A,122.8741,45.5725,白城市,市环保局,NA,NA,44,51,17,19,110,110,108,108,NA,46,5,6,0.0,0.2
2026-04-23T1800,2231A,126.4219,41.9172,白山市,喜丰,,36,36,56,3,20,109,109,109,109,8,19,7,9,0.9,0.8
2026-04-23T1800,2232A,126.4082,41.9416,白山市,环保局,,34,22,29,9,15,108,108,107,107,14,13,9,10,0.8,0.6
2026-04-23T1800,2647A,104.1727,36.5448,白银市,第三小学,颗粒物(PM10),85,99,101,46,43,104,104,106,106,8,20,20,14,0.3,0.5
2026-04-23T1800,2648A,104.1467,36.5482,白银市,动力公司,颗粒物(PM10),104,128,99,39,40,110,110,109,109,NA,22,16,9,0.2,0.2
2026-04-23T1800,2512A,106.6102,23.901,百色市,市监测站,NA,NA,32,22,3,9,92,92,86,86,NA,11,8,10,0.9,0.8
2026-04-23T1800,2513A,106.6524,23.8842,百色市,市中心血站,,32,31,24,9,11,101,101,88,88,13,17,10,9,0.5,0.5
2026-04-23T1800,4133A,106.6273,23.8798,百色市,龙景西路,,34,11,23,9,11,107,107,93,93,10,13,11,10,0.7,0.7
2026-04-23T1800,2270A,117.396,32.9389,蚌埠市,工人疗养院,,42,42,31,8,10,109,109,98,98,15,12,4,4,0.3,0.2
2026-04-23T1800,2271A,117.3606,32.9428,蚌埠市,百货大楼,,37,37,28,8,8,110,110,98,98,10,9,5,5,0.3,0.3
2026-04-23T1800,2273A,117.4183,32.8909,蚌埠市,蚌埠学院,,31,31,23,9,10,99,99,97,97,18,14,6,4,0.3,0.3
2026-04-23T1800,2274A,117.3534,32.9672,蚌埠市,淮上区政府,,39,39,27,6,9,116,116,108,108,12,12,4,4,0.1,0.1
2026-04-23T1800,2275A,117.3143,32.8977,蚌埠市,高新区,,34,27,24,9,9,106,106,100,100,13,9,6,6,0.3,0.3
2026-04-23T1800,3715A,117.3091,32.9314,蚌埠市,蚌埠田家炳中学,,40,40,34,11,10,114,114,101,101,12,11,5,5,0.2,0.2
2026-04-23T1800,1585A,109.8761,40.6533,包头市,市环境监测站,颗粒物(PM10),92,108,92,39,34,135,135,127,127,9,44,8,10,0.5,0.6
2026-04-23T1800,1587A,109.9992,40.5843,包头市,包头八中,颗粒物(PM10),88,103,103,42,51,124,124,122,122,10,45,7,11,0.3,0.6
2026-04-23T1800,1589A,109.8641,40.6288,包头市,惠龙物流,颗粒物(PM10),85,98,86,33,41,127,127,121,121,9,42,8,10,0.5,0.6
2026-04-23T1800,1590A,110.0376,40.5546,包头市,东河鸿龙湾,颗粒物(PM10),85,98,111,30,44,130,130,129,129,6,54,11,14,0.4,0.6
2026-04-23T1800,3283A,109.9154,40.5684,包头市,滨河大厦,细颗粒物(PM2.5),96,91,82,58,42,126,126,125,125,6,39,10,11,0.4,0.5
2026-04-23T1800,3419A,109.9449,40.6259,包头市,包头市委党校,颗粒物(PM10),93,109,75,40,26,130,130,128,128,7,37,9,12,0.4,0.5
2026-04-23T1800,3683A,109.8332,40.6577,包头市,昆区政府,颗粒物(PM10),85,99,81,46,33,125,125,117,117,15,45,6,7,0.6,0.6
2026-04-23T1800,1931A,107.0802,34.3129,宝鸡市,竹园沟,颗粒物(PM10),56,58,34,18,9,143,143,122,122,14,10,8,7,0.4,0.4
2026-04-23T1800,1933A,107.1429,34.3549,宝鸡市,监测站,颗粒物(PM10),58,61,40,20,16,143,143,120,120,12,15,7,6,0.4,0.4
2026-04-23T1800,1934A,107.1172,34.3759,宝鸡市,技工学校,颗粒物(PM10),60,64,42,19,17,143,143,118,118,14,12,4,4,0.3,0.4
2026-04-23T1800,1936A,107.2025,34.3518,宝鸡市,文理学院,颗粒物(PM10),53,53,41,21,17,146,146,122,122,14,18,6,5,0.4,0.4
2026-04-23T1800,1937A,107.2396,34.3626,宝鸡市,三迪小学,颗粒物(PM10),51,51,46,26,22,145,145,120,120,17,22,6,6,0.4,0.4
2026-04-23T1800,4155A,107.1721,34.3558,宝鸡市,滨河北路,颗粒物(PM10),53,53,43,18,18,138,138,116,116,13,17,7,7,0.4,0.5
2026-04-23T1800,4308A,107.3898,34.3601,宝鸡市,陈仓区北开路21号,颗粒物(PM10),58,61,50,28,24,134,134,111,111,15,20,8,8,0.4,0.4
2026-04-23T1800,1051A,115.4803,38.8568,保定市,游泳馆,,48,48,58,22,36,127,127,125,125,9,20,4,4,0,0.2
2026-04-23T1800,1052A,115.509,38.8895,保定市,华电二区,NA,NA,NA,51,NA,32,127,127,129,129,8,16,NA,4,0.3,0.4
2026-04-23T1800,1053A,115.4588,38.9037,保定市,接待中心,颗粒物(PM10),51,51,59,21,32,111,111,116,116,6,11,2,3,0.1,0.4
2026-04-23T1800,1054A,115.4484,38.8344,保定市,地表水厂,颗粒物(PM10),65,71,70,22,32,125,125,126,126,10,20,4,4,0.2,0.3
2026-04-23T1800,3581A,115.3136,38.9511,保定市,满城区生态环境分局,颗粒物(PM10),58,61,75,22,35,132,132,139,139,7,15,4,5,0.2,0.4
2026-04-23T1800,3582A,115.4709,38.7628,保定市,清苑区第二中学,颗粒物(PM10),54,55,67,23,29,122,122,121,121,6,23,6,6,0.2,0.4
2026-04-23T1800,3583A,115.6231,39.0223,保定市,徐水物探局,颗粒物(PM10),62,66,87,24,36,122,122,124,124,11,25,3,3,0.3,0.4
2026-04-23T1800,4004A,115.4199,38.8665,保定市,双鹰农机,颗粒物(PM10),54,55,62,16,37,129,129,131,131,9,19,2,3,0.2,0.3
2026-04-23T1800,4034A,115.515,38.8589,保定市,植保所站,颗粒物(PM10),68,74,87,21,32,129,129,128,128,9,23,3,4,0.2,0.4
2026-04-23T1800,2594A,99.1589,25.1137,保山市,市环境监测站,,49,49,50,28,31,135,135,132,132,8,10,7,6,0.4,0.4
2026-04-23T1800,2595A,99.1616,25.1381,保山市,市环保局,颗粒物(PM10),56,58,57,36,35,136,136,130,130,7,7,7,7,0.3,0.4
2026-04-23T1800,1867A,109.1435,21.4085,北海市,海滩公园,,22,22,34,14,21,48,48,40,40,12,10,7,6,0.8,0.8
2026-04-23T1800,1868A,109.0983,21.466,北海市,新市环保局,,18,18,19,9,15,52,52,43,43,11,10,3,6,0.8,0.5
2026-04-23T1800,1869A,109.1775,21.5232,北海市,北海工业园,,20,20,25,12,18,41,41,34,34,12,9,6,6,0.8,0.8
2026-04-23T1800,3400A,109.1844,21.4396,北海市,龙潭自来水厂,,18,18,27,12,16,41,41,34,34,9,11,8,9,0.9,0.9
2026-04-23T1800,1001A,116.3611,39.8786,北京市,万寿西宫,,45,37,73,17,42,142,142,129,129,12,28,5,5,0.4,0.6
2026-04-23T1800,1003A,116.4174,39.9289,北京市,东四,,47,38,88,20,48,150,150,135,135,8,24,4,5,0.5,0.7
2026-04-23T1800,1004A,116.4073,39.8858,北京市,天坛,,44,31,71,15,42,138,138,124,124,13,30,6,6,0.3,0.5
2026-04-23T1800,1005A,116.4622,39.9364,北京市,农展馆,,45,39,79,17,44,141,141,128,128,13,26,5,5,0.4,0.6
2026-04-23T1800,1006A,116.3399,39.9293,北京市,官园,,42,37,80,17,44,133,133,120,120,15,29,4,4,0.3,0.5
2026-04-23T1800,1007A,116.2879,39.9613,北京市,海淀万柳,,39,39,83,18,46,122,122,110,110,18,30,6,6,0.4,0.6
2026-04-23T1800,1008A,116.6635,40.1349,北京市,顺义新城,,47,42,81,19,40,150,150,137,137,7,19,3,4,0.5,0.7
2026-04-23T1800,1009A,116.6275,40.327,北京市,怀柔镇,,48,34,70,17,36,152,152,133,133,13,18,6,7,0.5,0.7
2026-04-23T1800,1010A,116.2295,40.217,北京市,昌平镇,,49,46,76,25,46,155,155,126,126,17,25,5,5,0.5,0.6
2026-04-23T1800,1011A,116.3968,39.982,北京市,奥体中心,,41,35,77,16,40,131,131,118,118,10,27,5,5,0.4,0.6
2026-04-23T1800,3418A,116.8336,40.4095,北京市,密云新城,,47,39,67,19,35,149,149,133,133,8,12,5,6,0.3,0.5
2026-04-23T1800,3671A,116.0879,39.9725,北京市,门头沟三家店,,50,50,80,26,43,143,143,122,122,10,24,5,4,0.4,0.5
2026-04-23T1800,3672A,116.1507,39.8246,北京市,丰台云岗,,48,48,82,26,46,145,145,128,128,14,28,5,4,0.5,0.6
2026-04-23T1800,3674A,115.9578,39.7602,北京市,房山燕山,,45,41,79,28,53,141,141,124,124,13,18,5,4,0.4,0.6
2026-04-23T1800,3675A,116.4669,39.7734,北京市,大兴旧宫,,45,30,75,13,41,143,143,133,133,11,27,2,3,0.4,0.6
2026-04-23T1800,3694A,115.9859,40.4562,北京市,延庆石河营,,48,43,80,22,47,151,151,130,130,11,15,3,2,0.5,0.4
2026-04-23T1800,3695A,116.6151,40.3052,北京市,怀柔新城,,46,35,67,15,31,147,147,129,129,14,20,5,6,0.4,0.7
2026-04-23T1800,3696A,116.2542,39.8764,北京市,丰台小屯,,40,36,82,17,40,128,128,116,116,10,23,4,4,0.4,0.6
2026-04-23T1800,3697A,116.8399,40.3843,北京市,密云镇,,49,39,68,18,26,155,155,138,138,11,16,7,8,0.4,0.6
2026-04-23T1800,4057A,115.9423,40.4431,北京市,延庆百泉,,50,49,78,24,47,158,158,132,132,12,15,2,2,0.6,0.6
2026-04-23T1800,4058A,116.6598,39.9164,北京市,通州新华,,43,26,75,11,37,137,137,127,127,14,25,5,6,0.4,0.6
2026-04-23T1800,4182A,116.1942,39.9158,北京市,石景山八角,颗粒物(PM10),60,64,90,26,45,133,133,122,122,16,31,5,3,0.4,0.5
2026-04-23T1800,4194A,117.078628,40.151726,北京市,平谷新城,,44,42,76,22,38,139,139,140,140,11,17,4,5,0.4,0.6
2026-04-23T1800,1761A,123.8274146,41.31234549,本溪市,大峪,颗粒物(PM10),52,52,42,23,14,118,118,113,113,13,17,11,8,0.8,0.8
2026-04-23T1800,1763A,123.7169,41.3094,本溪市,彩屯,,44,44,47,14,20,120,120,116,116,13,26,13,18,0.6,1.4
2026-04-23T1800,1764A,123.7672166,41.28649327,本溪市,东明,颗粒物(PM10),59,62,51,15,16,120,120,112,112,14,27,8,6,0.6,0.8
2026-04-23T1800,1765A,123.799345,41.266614,本溪市,新立屯,颗粒物(PM10),55,56,32,16,11,118,118,119,119,14,21,14,8,0.9,0.5
2026-04-23T1800,1766A,123.829144,41.336777,本溪市,威宁,颗粒物(PM10),59,62,53,17,17,124,124,120,120,12,22,11,8,0.6,0.7
2026-04-23T1800,2587A,105.287,27.3133,毕节市,八中,NA,NA,NA,23,19,13,100,100,92,92,NA,7,14,10,0.4,0.5
2026-04-23T1800,2588A,105.3079,27.2987,毕节市,师专,,32,23,26,16,14,100,100,89,89,9,8,15,12,0.3,0.4
2026-04-23T1800,4263A,105.3688,27.3598,毕节市,工业大道,,35,23,24,7,10,112,112,103,103,7,6,10,10,/,/
2026-04-23T1800,1629A,117.9961,37.3604,滨州市,第二水厂,细颗粒物(PM2.5),108,107,72,68,42,156,156,136,136,14,29,10,9,0.8,0.7
2026-04-23T1800,1630A,117.9789,37.3931,滨州市,北中新校,细颗粒物(PM2.5),150,NA,62,114,45,169,169,145,145,13,24,8,7,0.5,0.5
2026-04-23T1800,3514A,117.9379,37.3959,滨州市,中海酒店,颗粒物(PM10),70,78,59,39,32,166,166,146,146,17,26,9,10,0.6,0.6
2026-04-23T1800,3515A,117.9381509,37.35547456,滨州市,开发区一中,细颗粒物(PM2.5),90,85,73,55,46,146,146,131,131,15,30,11,12,0.8,0.8
2026-04-23T1800,3516A,118.0914,37.6938,滨州市,金海六路,细颗粒物(PM2.5),68,71,53,44,33,151,151,133,133,10,18,8,9,0.6,0.7
2026-04-23T1800,4028A,117.9955,37.3752,滨州市,滨州市西街道办事处,细颗粒物(PM2.5),102,90,67,62,41,167,167,146,146,14,23,8,8,0.6,0.5
2026-04-23T1800,2311A,115.8071,33.8399,亳州市,污水处理厂,,35,18,32,3,14,111,111,109,109,5,10,6,6,0.1,0.2
2026-04-23T1800,2312A,115.7789,33.8519,亳州市,三国揽胜宫,,33,19,32,3,13,105,105,102,102,5,9,8,8,0.2,0.2
2026-04-23T1800,3332A,115.7631,33.803,亳州市,亳州学院,,33,11,30,3,13,104,104,103,103,4,7,7,7,0.3,0.3
2026-04-23T1800,2693A,82.0482,44.8553,博尔塔拉蒙古自治州,市党校,颗粒物(PM10),55,56,62,11,11,132,132,117,117,8,7,4,3,0.2,0.2
2026-04-23T1800,2694A,82.0805,44.8966,博尔塔拉蒙古自治州,市环保局,颗粒物(PM10),58,60,67,14,12,130,130,105,105,8,17,6,4,0.4,0.4
2026-04-23T1800,1071A,116.8733,38.2922,沧州市,沧县城建局,,45,45,64,22,40,126,126,126,126,11,28,6,8,0.5,0.6
2026-04-23T1800,1072A,116.8462,38.3189,沧州市,电视转播站,NA,NA,51,63,29,38,133,133,131,131,9,22,8,12,NA,NA
2026-04-23T1800,1073A,116.8588,38.3161,沧州市,市环保局,颗粒物(PM10),56,58,70,32,36,126,126,128,128,9,25,6,10,0.6,0.7
2026-04-23T1800,3324A,116.8011,38.294,沧州市,河北水利电力学院,,50,41,59,35,38,116,116,115,115,8,23,8,11,0.2,0.3
2026-04-23T1800,2622A,97.1813,31.1289,昌都市,昌都监测站,,33,19,38,3,15,103,103,105,105,8,13,7,7,0.5,0.3
2026-04-23T1800,3719A,97.1707,31.1428,昌都市,昌都会议中心,,35,19,32,3,15,110,110,110,110,3,6,5,5,0.3,0.3
2026-04-23T1800,2692A,87.2722,44.0298,昌吉回族自治州,新区政务中心,,41,26,39,17,16,131,131,115,115,9,22,6,5,0.3,0.6
2026-04-23T1800,3613A,87.3069,44.0093,昌吉回族自治州,亚心广场,,44,41,53,18,20,140,140,126,126,4,23,7,7,0.2,0.5
2026-04-23T1800,4164A,87.2057,43.9289,昌吉回族自治州,财政所,,43,43,50,7,11,136,136,118,118,11,15,8,8,0.3,0.4
2026-04-23T1800,1120A,125.2874,43.9024,长春市,客车厂,,37,37,39,24,22,97,97,104,103,24,28,8,7,0.3,0.5
2026-04-23T1800,1121A,125.2943,43.8508,长春市,邮电学院,,32,26,34,11,18,102,102,110,110,8,19,6,7,0.3,0.4
2026-04-23T1800,1122A,125.3648,43.8745,长春市,劳动公园,,34,32,36,22,18,106,106,109,109,20,26,8,7,0.4,0.4
2026-04-23T1800,1123A,125.3233,43.8781,长春市,园林处,,34,25,38,18,17,108,108,111,111,15,17,7,7,0.3,0.4
2026-04-23T1800,1124A,125.4604,43.7904,长春市,净月潭,,35,29,24,14,16,110,110,111,111,5,9,5,5,0.3,0.3
2026-04-23T1800,1126A,125.38,43.8422,长春市,经开区环卫处,,33,27,36,14,19,103,103,108,108,16,29,6,5,0.4,0.5
2026-04-23T1800,1127A,125.234,43.7761,长春市,高新区管委会,,37,37,34,13,19,87,87,101,100,22,28,7,7,0.3,0.3
2026-04-23T1800,1128A,125.1695,43.83,长春市,岱山公园,,31,31,44,13,21,96,96,111,110,23,33,4,5,0.3,0.4
2026-04-23T1800,4281A,125.334645,43.916281,长春市,北亚泰大街1068号,NA,NA,NA,40,21,19,110,110,108,108,15,31,6,6,0.3,0.3
2026-04-23T1800,1335A,113.082,28.2421,长沙市,经开区环保局,,33,28,25,19,16,103,103,96,96,11,16,3,3,0.4,0.4
2026-04-23T1800,1336A,112.8873,28.2202,长沙市,高开区环保局,,33,31,25,19,18,105,105,101,101,7,13,6,6,0.4,0.4
2026-04-23T1800,1337A,113.0785,28.2012,长沙市,马坡岭,,34,25,25,20,19,107,107,102,102,8,15,6,6,0.7,0.7
2026-04-23T1800,1338A,112.9448,28.1894,长沙市,湖南师范大学,,32,30,24,19,18,102,102,101,101,9,12,6,6,0.5,0.5
2026-04-23T1800,1339A,113.0177,28.1322,长沙市,雨花区环保局,,35,NA,25,24,18,102,102,102,102,10,10,4,4,0.5,0.6
2026-04-23T1800,1340A,112.9795,28.2593,长沙市,伍家岭,,33,31,29,23,21,94,94,93,93,8,14,5,4,0.4,0.4
2026-04-23T1800,1341A,113.002,28.1944,长沙市,火车新站,,31,24,24,20,20,98,98,98,98,10,12,5,5,0.3,0.3
2026-04-23T1800,1342A,112.9846,28.1177,长沙市,天心区环保局,,33,30,26,20,19,104,104,103,103,12,18,5,6,0.4,0.3
2026-04-23T1800,1343A,112.8906,28.1307,长沙市,湖南中医药大学,,34,28,24,18,16,108,108,105,105,9,17,6,6,0.5,0.5
2026-04-23T1800,1727A,113.1146,36.1547,长治市,清华站,,42,32,34,19,20,134,134,131,131,12,16,9,9,0.4,0.6
2026-04-23T1800,1730A,113.0887,36.2126,长治市,审计局,NA,NA,NA,42,NA,27,132,132,128,128,NA,16,9,9,NA,0.6
2026-04-23T1800,1731A,113.0845,36.1856,长治市,长治八中,颗粒物(PM10),53,53,48,15,24,131,131,128,128,16,18,10,10,0.3,0.7
2026-04-23T1800,2845A,113.1561,36.1912,长治市,德盛苑,,45,30,35,25,21,141,141,140,140,11,14,9,9,0.4,0.6
2026-04-23T1800,3568A,113.0603,36.0464,长治市,向阳小学,颗粒物(PM10),70,78,65,19,21,135,135,131,131,24,21,12,10,0.6,0.8
2026-04-23T1800,3569A,112.8788,36.315,长治市,屯留一中,,39,36,50,12,30,124,124,125,125,17,21,7,7,0.3,0.8
2026-04-23T1800,4189A,113.113092,36.199482,长治市,英华南巷50号,,49,49,42,19,23,133,133,130,130,12,14,4,5,0.4,0.8
2026-04-23T1800,4190A,113.23666,36.33435,长治市,学府街1号,,41,34,47,10,22,130,130,124,124,6,21,1,5,0.4,0.8
2026-04-23T1800,1854A,111.696,28.9725,常德市,市二中,,35,33,18,19,10,110,110,102,102,12,13,8,8,0.6,0.7
2026-04-23T1800,3138A,111.7152,29.0288,常德市,武陵区永安,,38,31,19,3,6,119,119,105,105,10,12,6,7,0.5,0.6
2026-04-23T1800,3139A,111.6891,28.9881,常德市,鼎城区玉霞,,37,32,19,21,11,117,117,103,103,5,9,9,8,0.6,0.6
2026-04-23T1800,3140A,111.6651,29.0526,常德市,武陵区长庚,,38,32,20,26,13,118,118,103,103,6,10,9,10,0.6,0.7
2026-04-23T1800,1196A,119.9524,31.7586,常州市,市监测站,,40,40,16,11,3,100,100,101,101,16,9,5,4,0.5,0.5
2026-04-23T1800,1200A,119.9351,31.703,常州市,武进监测站,,32,32,15,11,4,99,99,98,98,22,14,6,3,0.5,0.5
2026-04-23T1800,3002A,119.9701,31.813,常州市,行政中心,,41,41,19,13,4,92,92,94,94,21,17,7,5,0.1,0.1
2026-04-23T1800,3003A,120.0434,31.7726,常州市,经开区,,38,38,22,9,4,96,96,100,100,13,9,6,2,0.4,0.4
2026-04-23T1800,3010A,119.8919,31.7892,常州市,钟楼,,33,29,13,11,4,104,104,105,105,24,17,9,7,0.1,0.1
2026-04-23T1800,3429A,119.8595,31.706,常州市,武进经发区,颗粒物(PM10),54,55,26,18,10,90,90,97,96,30,24,6,5,0.4,0.4
2026-04-23T1800,3430A,119.5812,31.7256,常州市,金坛城区,NA,NA,29,14,17,9,106,106,106,106,NA,7,NA,7,0.5,0.5
2026-04-23T1800,4089A,119.9551,31.863,常州市,崇义南街5-H号,,42,42,20,10,3,92,92,95,95,17,11,8,6,0.4,0.4
2026-04-23T1800,2220A,120.4318,41.588,朝阳市,西梁,颗粒物(PM10),57,59,50,26,18,152,152,136,136,16,21,11,8,0.7,0.4
2026-04-23T1800,2221A,120.452,41.565,朝阳市,河畔小区,颗粒物(PM10),52,52,48,28,17,160,160,143,143,13,19,11,11,0.6,0.4
2026-04-23T1800,2222A,120.4176,41.5648,朝阳市,八里堡,颗粒物(PM10),68,74,50,24,16,151,151,135,135,20,24,15,10,0.9,0.5
2026-04-23T1800,3026A,116.6179,23.6608,潮州市,市政府,NA,NA,NA,37,5,22,30,30,38,35,8,19,2,13,0.6,0.5
2026-04-23T1800,4036A,116.646,23.676,潮州市,金山,,8,6,35,3,23,23,23,34,32,6,16,2,6,0.5,0.5
2026-04-23T1800,2473A,113.0116,25.8228,郴州市,市职中,,22,22,14,10,10,67,67,63,63,11,13,5,5,0.6,0.6
2026-04-23T1800,2475A,113.0381,25.8074,郴州市,市审计局,,25,24,14,12,11,80,80,75,75,11,12,3,3,/,/
2026-04-23T1800,2476A,113.0348,25.7757,郴州市,市环保局,,28,28,22,14,13,69,69,67,67,17,13,6,7,0.4,0.5
2026-04-23T1800,4252A,113.0138,25.8011,郴州市,好美居路49号,,25,16,15,14,8,78,78,73,73,10,10,3,3,/,/
2026-04-23T1800,1431A,103.9727,30.7242,成都市,金泉两河,,43,43,44,14,27,132,132,117,117,13,22,3,4,0.4,0.5
2026-04-23T1800,1432A,104.1423,30.6765,成都市,十里店,颗粒物(PM10),58,60,47,17,29,139,139,118,118,9,23,4,5,0.5,0.6
2026-04-23T1800,1433A,104.0594,30.5765,成都市,三瓦窑,,49,49,48,16,30,132,132,113,113,9,22,3,4,0.6,0.7
2026-04-23T1800,1434A,104.1122,30.6306,成都市,沙河铺,,48,48,50,15,28,110,110,103,103,14,24,3,3,0.2,0.3
2026-04-23T1800,2880A,104.0219,30.6561,成都市,大石西路,NA,NA,53,48,18,29,110,110,104,104,12,23,4,5,NA,0.5
2026-04-23T1800,3136A,104.2724,30.559,成都市,龙泉驿区区政府,颗粒物(PM10),53,53,40,17,24,141,141,119,119,9,16,8,8,0.4,0.5
2026-04-23T1800,3357A,104.0028,30.6891,成都市,金博路,,42,42,35,14,27,123,123,114,114,19,29,5,6,0.4,0.6
2026-04-23T1800,3359A,104.056,30.5228,成都市,华阳,,41,41,46,15,26,128,128,115,115,10,19,5,5,0.4,0.3
2026-04-23T1800,3488A,104.387954,30.746684,成都市,青石路225号,颗粒物(PM10),51,51,45,17,26,133,133,125,125,14,28,5,5,0.5,0.7
2026-04-23T1800,3489A,104.0788,30.4054,成都市,科学城,,44,37,40,16,24,138,138,114,114,5,15,6,6,0.5,0.7
2026-04-23T1800,4011A,103.8505,30.6946,成都市,光华大道三段,颗粒物(PM10),62,66,45,17,24,128,128,115,115,10,14,4,5,0.5,0.5
2026-04-23T1800,4144A,104.3257,30.6406,成都市,八角井街185号,颗粒物(PM10),65,70,49,16,23,135,135,117,117,8,16,6,6,0.5,0.5
2026-04-23T1800,4224A,104.2433276,30.53529463,成都市,鲸龙路1057号,,47,46,54,3,20,150,150,127,127,11,23,7,7,0.5,0.6
2026-04-23T1800,1062A,117.9531,40.908,承德市,铁路,颗粒物(PM10),58,61,54,28,23,140,140,133,133,17,16,5,4,0.4,0.5
2026-04-23T1800,1063A,117.9397,40.9763,承德市,中国银行,,50,50,51,19,20,143,143,133,133,8,11,4,3,0.4,0.5
2026-04-23T1800,4073A,117.9462,40.95,承德市,杏林街1号,颗粒物(PM10),53,54,54,32,28,152,152,139,139,8,11,4,3,0.4,0.5
2026-04-23T1800,4274A,117.7994,40.9605,承德市,滨河大街98号,颗粒物(PM10),65,71,44,41,20,156,156,144,144,16,14,75,14,0.3,0.6
2026-04-23T1800,2314A,117.4698,30.6617,池州市,池州学院,,25,25,6,11,4,76,76,75,75,21,15,3,2,0.8,0.7
2026-04-23T1800,3237A,117.4918,30.6617,池州市,展览馆,,25,25,8,13,5,79,79,77,77,25,17,2,2,0.5,0.4
2026-04-23T1800,3333A,117.5626,30.695,池州市,第八中学,,22,14,7,11,6,70,70,75,75,24,21,3,3,0.4,0.3
2026-04-23T1800,3334A,117.5037,30.6242,池州市,第十二中学,,24,20,8,16,7,75,75,74,74,28,20,3,2,0.7,0.5
2026-04-23T1800,1744A,118.9229,42.2816,赤峰市,松山一中,,48,48,46,25,20,129,129,124,124,15,29,6,14,0.6,0.6
2026-04-23T1800,1745A,118.9588,42.2733,赤峰市,哈达街,,45,45,45,22,21,107,107,107,107,11,23,18,22,0.7,0.8
2026-04-23T1800,1746A,118.8792,42.2551,赤峰市,天义路,,44,44,38,28,19,123,123,122,122,16,26,5,17,0.5,0.5
2026-04-23T1800,3058A,119.2656,42.0356,赤峰市,银河街,,47,47,59,27,24,136,136,134,134,6,12,7,12,0.6,0.7
2026-04-23T1800,3286A,118.9359,42.3146,赤峰市,桥北物流园区,,42,40,38,29,18,115,115,118,118,18,25,3,8,0.5,0.4
2026-04-23T1800,2521A,107.3473,22.4137,崇左市,市环保局江州分局,,33,33,32,14,17,78,78,55,55,10,9,6,6,0.7,0.7
2026-04-23T1800,4256A,107.375,22.3736,崇左市,石景林东路7号,,27,26,25,15,15,86,86,59,59,10,9,4,3,0.8,0.9
2026-04-23T1800,3207A,118.31131,32.3033,滁州市,市政府原办公楼,,35,29,22,21,18,110,110,99,99,15,11,6,5,0.4,0.3
2026-04-23T1800,3331A,118.3268,32.2633,滁州市,图书馆,NA,NA,24,18,9,8,112,112,100,100,14,10,NA,9,0.3,0.2
2026-04-23T1800,4101A,118.3196,32.3335,滁州市,银山路666号,,35,35,23,12,11,108,108,100,100,15,10,7,6,0.3,0.2
2026-04-23T1800,4102A,118.3426,32.2979,滁州市,黄山路555号,,41,41,29,13,11,116,116,104,104,11,8,7,6,0.5,0.5
2026-04-23T1800,2606A,101.5379,25.0492,楚雄彝族自治州,市经济开发区,颗粒物(PM10),53,53,56,30,32,138,138,144,144,7,14,2,4,0.7,0.7
2026-04-23T1800,4153A,101.5536,25.0343,楚雄彝族自治州,团结路562号,NA,NA,NA,49,NA,30,144,144,150,150,6,11,NA,6,0.4,0.4
2026-04-23T1800,2549A,107.5087,31.2186,达州市,市环境监测站,NA,NA,NA,24,NA,4,119,119,93,93,14,22,6,6,0.3,0.3
2026-04-23T1800,2550A,107.4988,31.2132,达州市,凤凰小区,,39,39,25,14,6,116,116,95,95,16,21,6,5,0.2,0.2
2026-04-23T1800,2551A,107.5081,31.1987,达州市,达县机关宾馆,,39,39,25,6,8,120,120,94,94,23,28,5,5,0.3,0.3
2026-04-23T1800,2552A,107.4644,31.2124,达州市,市政中心,,40,37,32,12,8,126,126,102,102,12,24,6,6,0.3,0.4
2026-04-23T1800,2614A,100.2168,25.5818,大理白族自治州,大理市环境监测站,,34,32,34,21,23,107,107,110,110,12,12,4,4,0.4,0.5
2026-04-23T1800,2615A,100.1542,25.7055,大理白族自治州,大理古城,,39,39,36,18,23,116,116,117,117,5,10,4,4,0.5,0.6
2026-04-23T1800,1109A,121.6119,38.974,大连市,甘井子,,38,24,42,15,22,121,121,120,120,17,24,8,10,0.6,0.6
2026-04-23T1800,1110A,121.565,38.9509,大连市,周水子,,45,45,49,20,23,100,100,107,107,28,36,14,7,0.5,0.5
2026-04-23T1800,1111A,121.5637,38.8849,大连市,星海三站,,36,35,37,21,16,114,114,108,108,17,20,5,6,0.4,0.4
2026-04-23T1800,1112A,121.6301,38.9117,大连市,青泥洼桥,,39,27,46,14,20,124,124,124,124,12,26,5,6,0.3,0.5
2026-04-23T1800,1113A,121.6248,38.8643,大连市,傅家庄,,38,38,39,21,18,106,106,99,99,12,17,8,9,0.5,0.5
2026-04-23T1800,1114A,121.5117,38.8636,大连市,七贤岭,,35,28,32,15,16,111,111,114,114,18,13,6,7,0.4,0.5
2026-04-23T1800,1116A,121.7507,39.1339,大连市,金州,,37,37,82,18,31,111,111,114,114,26,28,8,6,0.4,0.5
2026-04-23T1800,1117A,121.7811,39.0495,大连市,开发区,,45,45,65,22,30,100,100,116,116,13,28,11,12,0.4,0.5
2026-04-23T1800,1118A,121.9762,39.0631,大连市,双D港,,45,45,44,27,18,94,94,106,106,24,18,6,7,0.5,0.6
2026-04-23T1800,4082A,121.2548,38.8188,大连市,旅顺,,33,32,60,16,32,104,104,105,105,17,21,5,9,0.4,0.5
2026-04-23T1800,1789A,124.8085,46.0381,大庆市,大同区,颗粒物(PM10),53,53,41,24,19,101,101,106,106,14,21,3,3,0.5,0.5
2026-04-23T1800,1790A,125.1166,46.5255,大庆市,龙凤区,,41,41,47,22,20,83,83,88,88,11,17,3,5,0.2,0.2
2026-04-23T1800,1791A,124.8894,46.4007,大庆市,红岗区,,29,29,37,17,22,88,88,96,96,5,15,7,9,0.4,0.5
2026-04-23T1800,1792A,125.1391,46.578,大庆市,萨尔图区,,29,NA,34,14,19,90,90,94,94,10,18,6,7,0.3,0.4
2026-04-23T1800,1793A,124.9026,46.6217,大庆市,让胡路区,,26,26,40,15,21,81,81,85,85,11,25,3,2,0.3,0.4
2026-04-23T1800,3481A,125.127,46.6277,大庆市,萨区政府监测点,NA,NA,29,28,9,14,80,80,92,92,NA,10,NA,9,NA,0.4
2026-04-23T1800,1723A,113.2926,40.0759,大同市,云冈宾馆,颗粒物(PM10),58,60,117,11,26,123,123,120,120,9,44,5,9,0.4,0.9
2026-04-23T1800,1724A,113.3437,40.0921,大同市,大同大学,,40,32,57,21,26,127,127,123,123,9,38,2,9,0.2,0.5
2026-04-23T1800,1725A,113.2637,40.129,大同市,安家小村,颗粒物(PM10),60,63,80,16,29,127,127,126,126,7,31,6,10,0.2,0.8
2026-04-23T1800,3282A,113.3399,40.0586,大同市,大同市卫生学校,颗粒物(PM10),63,67,81,25,24,134,134,130,130,9,37,4,9,0.3,0.6
2026-04-23T1800,3565A,113.1371,40.1122,大同市,云冈站,颗粒物(PM10),59,62,72,18,22,117,117,112,112,6,37,4,10,0.3,0.5
2026-04-23T1800,3566A,113.1186,40.2556,大同市,图书馆,颗粒物(PM10),59,62,61,25,20,113,113,116,116,12,16,5,6,0.7,0.8
2026-04-23T1800,3567A,113.5931,40.0459,大同市,区一中,颗粒物(PM10),67,73,64,16,22,140,140,138,138,10,19,2,3,0.7,0.8
2026-04-23T1800,4199A,113.2798248,40.09972476,大同市,魏都大道141号,NA,NA,NA,105,NA,32,123,123,118,118,NA,45,7,12,NA,1.5
2026-04-23T1800,2269A,124.1068,50.4091,大兴安岭地区,科技局,,26,26,23,12,10,76,76,77,77,3,5,6,9,0.1,0.5
2026-04-23T1800,3663A,124.117,50.4279,大兴安岭地区,红旗社区,,28,24,12,3,6,87,87,88,88,7,9,8,7,0.2,0.2
2026-04-23T1800,1600A,124.33,40.0625,丹东市,江湾东路,,39,39,37,14,13,116,116,127,127,15,11,5,6,0.3,0.4
2026-04-23T1800,1601A,124.4242,40.1513,丹东市,临江后街,,37,34,30,12,9,116,116,121,121,9,8,7,6,0.3,0.3
2026-04-23T1800,1602A,124.3935,40.1461,丹东市,元宝山,,37,37,31,14,8,118,118,118,118,12,10,7,7,0.3,0.3
2026-04-23T1800,1603A,124.3634,40.1093,丹东市,民主桥,,46,46,38,14,11,112,112,119,119,14,12,7,8,0.5,0.5
2026-04-23T1800,3541A,109.5726195,19.51688767,儋州市,第一中学子站,颗粒物(PM10),51,51,54,30,34,48,48,59,42,8,9,4,5,0.7,0.5
2026-04-23T1800,3542A,109.5567,19.5187,儋州市,东坡学校子站,,47,47,47,31,34,51,51,59,45,8,9,3,4,0.7,0.6
2026-04-23T1800,2616A,98.5611,24.4273,德宏傣族景颇族自治州,德宏州监测站,细颗粒物(PM2.5),56,41,66,38,61,116,116,125,125,11,23,5,6,0.7,0.8
2026-04-23T1800,3677A,98.5887,24.4366,德宏傣族景颇族自治州,芒市人民政府综合楼,细颗粒物(PM2.5),72,69,109,46,57,111,111,130,130,14,18,3,3,1.2,1.2
2026-04-23T1800,1901A,104.424,31.1209,德阳市,东山公园,,45,43,45,18,34,142,142,119,119,8,20,4,5,0.4,0.7
2026-04-23T1800,1902A,104.3827,31.1318,德阳市,西小区,颗粒物(PM10),55,56,61,24,35,137,137,110,110,15,28,4,4,0.6,0.7
2026-04-23T1800,1904A,104.3553,31.1091,德阳市,耐火材料厂,颗粒物(PM10),62,66,62,24,44,157,157,127,127,15,31,3,3,0.4,0.6
2026-04-23T1800,4145A,104.4144,31.1495,德阳市,市林业局,臭氧1小时(O3_1h),54,51,48,29,34,163,163,130,130,16,28,2,3,0.4,0.5
2026-04-23T1800,1622A,116.3034,37.4675,德州市,儿童乐园,颗粒物(PM10),65,70,58,20,29,132,132,121,121,10,17,6,7,0.5,0.6
2026-04-23T1800,1624A,116.2992,37.4449,德州市,监理站,颗粒物(PM10),55,56,50,18,25,130,130,119,119,9,16,9,10,0.4,0.4
2026-04-23T1800,3066A,116.2722,37.438,德州市,九衢泉纯净水厂,NA,NA,53,56,17,29,NA,NA,66,66,15,36,12,11,0.6,0.7
2026-04-23T1800,3371A,116.3693,37.44,德州市,开发区人民医院,颗粒物(PM10),58,61,57,28,32,130,130,116,116,12,28,10,10,0.7,0.7
2026-04-23T1800,3511A,116.5687,37.3331,德州市,陵城艺术中心,颗粒物(PM10),55,56,55,23,32,129,129,114,114,11,19,10,9,0.5,0.5
2026-04-23T1800,4292A,116.352738,37.420875,德州市,新河东路,颗粒物(PM10),53,53,50,16,25,128,128,116,116,8,34,8,8,0.7,0.7
2026-04-23T1800,2621A,99.7054,27.8319,迪庆藏族自治州,迪庆州站,,32,25,22,3,9,101,101,99,99,9,9,7,7,0.3,0.4
2026-04-23T1800,3180A,99.7122,27.8129,迪庆藏族自治州,质量技术监督局,,33,26,19,15,10,105,105,105,105,9,9,8,8,0.3,0.3
2026-04-23T1800,4257A,104.6092,35.5962,定西市,将台街,颗粒物(PM10),89,104,97,51,39,123,123,119,119,6,21,3,4,0.1,0.1
2026-04-23T1800,4309A,104.6159,35.5701,定西市,正龙路62号,颗粒物(PM10),93,110,96,49,41,123,123,120,120,8,11,2,3,0.3,0.3
2026-04-23T1800,4071A,114.9883,38.5232,定州市,交通局,颗粒物(PM10),70,78,72,18,35,121,121,125,125,11,19,8,10,0.3,0.5
2026-04-23T1800,4072A,115.0045,38.5136,定州市,第五中学,颗粒物(PM10),71,79,76,25,30,116,116,120,120,9,20,4,6,0.2,0.5
2026-04-23T1800,1390A,113.7943,23.0132,东莞市,东城石井,,16,8,24,3,14,10,10,24,15,31,24,5,5,0.9,0.7
2026-04-23T1800,1391A,113.7384,22.9659,东莞市,南城西平,,18,17,25,10,14,4,4,35,9,36,22,6,6,0.7,0.5
2026-04-23T1800,3319A,113.7283,23.041,东莞市,万江金泰,,16,11,23,3,15,10,10,28,14,31,25,6,6,0.8,0.7
2026-04-23T1800,4129A,113.8666,23.1062,东莞市,裕兴路,,11,8,26,3,12,12,12,30,16,21,18,5,5,0.8,0.7
2026-04-23T1800,4130A,114.0076,22.9739,东莞市,教育路1号,,13,12,29,6,15,27,27,42,19,25,20,7,6,0.6,0.6
2026-04-23T1800,4131A,113.7981,22.8124,东莞市,长怡路1号,,18,16,33,3,13,4,4,45,11,36,18,7,6,0.9,0.6
2026-04-23T1800,1666A,118.6612,37.4313,东营市,市环保局,细颗粒物(PM2.5),58,48,42,39,23,151,151,134,134,16,18,8,9,0.4,0.3
2026-04-23T1800,3036A,118.6903,37.4337,东营市,开发区管委会,颗粒物(PM10),51,51,39,23,18,137,137,130,130,26,22,8,8,0.4,0.3
2026-04-23T1800,3365A,118.5721,37.5654,东营市,垦利区民丰路,臭氧1小时(O3_1h),97,61,41,28,21,197,197,167,167,19,26,13,11,0.5,0.4
2026-04-23T1800,3498A,118.5063,37.8606,东营市,河口城区,臭氧1小时(O3_1h),72,75,38,39,15,177,177,164,164,12,12,10,9,0.9,0.8
2026-04-23T1800,3646A,118.4979,37.4623,东营市,胜利站,臭氧1小时(O3_1h),72,59,43,37,22,177,177,154,154,25,20,11,8,0.7,0.6
2026-04-23T1800,3734A,118.5753,37.4405,东营市,理想之城,颗粒物(PM10),51,51,43,33,20,154,154,147,147,23,27,9,8,0.5,0.4
2026-04-23T1800,1591A,110.0024,39.8127,鄂尔多斯市,综合楼,颗粒物(PM10),84,97,88,31,25,116,116,116,116,9,21,8,8,0.2,0.4
2026-04-23T1800,1592A,109.9485,39.8259,鄂尔多斯市,巴音孟克林场办事处,颗粒物(PM10),80,92,80,32,24,122,122,123,123,6,22,6,6,0.3,0.4
2026-04-23T1800,1593A,109.7734,39.5987,鄂尔多斯市,康泽苑,颗粒物(PM10),79,90,76,26,20,121,121,121,121,6,12,7,7,0.3,0.3
2026-04-23T1800,1594A,109.8121,39.5987,鄂尔多斯市,华泰汽车城,颗粒物(PM10),80,92,80,29,21,119,119,120,120,6,21,8,8,0.3,0.4
2026-04-23T1800,1595A,109.9734,39.7884,鄂尔多斯市,奥林花园,颗粒物(PM10),83,95,88,24,19,120,120,120,120,9,38,5,5,0.2,0.3
2026-04-23T1800,2436A,114.894,30.3989,鄂州市,市政府,,24,24,14,9,5,60,60,64,64,24,18,10,8,0.6,0.4
2026-04-23T1800,2437A,114.8986,30.3714,鄂州市,赵家坝,,23,23,19,13,7,72,72,74,74,13,9,3,5,0.6,0.4
2026-04-23T1800,3654A,114.8093,30.4091,鄂州市,精准医疗中心,,24,18,16,6,8,75,75,76,76,7,6,4,6,0.6,0.6
2026-04-23T1800,2454A,109.4978,30.2979,恩施土家族苗族自治州,湖北民院,,36,NA,14,11,8,115,115,93,93,7,9,8,8,0.3,0.4
2026-04-23T1800,3549A,109.5061,30.3771,恩施土家族苗族自治州,龙凤新区,,31,10,11,3,6,98,98,82,82,6,7,7,7,0.3,0.4
2026-04-23T1800,2499A,108.3411,21.6159,防城港市,沙万,,47,47,39,10,12,60,60,47,47,9,13,6,5,0.7,0.6
2026-04-23T1800,2500A,108.3515,21.7733,防城港市,防城档案局,,30,30,28,10,13,60,60,42,42,6,7,7,7,0.6,0.5
2026-04-23T1800,2501A,108.3506,21.6414,防城港市,大海花园,,22,16,22,15,15,63,63,48,48,8,11,8,7,0.6,0.7
2026-04-23T1800,1371A,113.1293,23.0065,佛山市,湾梁,,19,17,17,13,14,33,33,29,29,23,19,/,/,/,/
2026-04-23T1800,1372A,113.1082,23.0477,佛山市,华材职中,,17,17,21,11,14,34,34,30,30,25,22,4,4,0.5,0.4
2026-04-23T1800,1373A,113.1439,23.045,佛山市,南海气象局,,16,14,20,11,13,33,33,29,29,24,20,/,/,/,/
2026-04-23T1800,1374A,113.2879,22.8094,佛山市,顺德苏岗,,16,NA,16,8,15,22,22,24,19,32,20,/,/,0.7,0.6
2026-04-23T1800,1376A,112.8384,22.8678,佛山市,高明孔堂,,20,NA,20,14,12,35,35,33,33,30,17,/,/,/,/
2026-04-23T1800,1377A,112.8835,23.1584,佛山市,三水监测站,,14,7,14,6,12,42,42,42,42,18,18,4,5,0.5,0.5
2026-04-23T1800,1378A,112.8668,23.185,佛山市,三水云东海,,13,13,31,3,13,38,38,36,36,12,16,/,/,/,/
2026-04-23T1800,3625A,113.2568,22.7629,佛山市,容桂街道办,,20,NA,19,12,17,17,17,27,17,40,24,/,/,/,/
2026-04-23T1800,1282A,119.2681,26.0506,福州市,师大,,13,13,21,3,12,40,40,42,41,24,13,3,3,0.6,0.4
2026-04-23T1800,1283A,119.2983,26.1028,福州市,五四北路,,14,9,28,3,14,35,35,35,35,27,21,4,4,0.5,0.4
2026-04-23T1800,1284A,119.2648,26.0769,福州市,杨桥西路,,13,12,23,3,12,41,41,43,43,23,15,3,3,/,/
2026-04-23T1800,3048A,119.5799,26.0937,福州市,九龙,,22,8,27,3,20,70,70,56,56,10,18,5,5,0.4,0.4
2026-04-23T1800,3526A,119.5188,25.9666,福州市,吴航,,21,6,28,3,19,67,67,50,50,13,19,5,5,0.5,0.5
2026-04-23T1800,4104A,119.3106,26.0648,福州市,路通桥巷6号,,13,6,22,3,19,40,40,37,37,21,17,/,/,/,/
2026-04-23T1800,1755A,123.7974,41.8494,抚顺市,望花区,颗粒物(PM10),63,68,59,13,25,118,118,127,127,15,27,9,12,0.8,0.7
2026-04-23T1800,1756A,123.9161,41.8827,抚顺市,顺城区,颗粒物(PM10),53,54,40,9,21,120,120,127,127,16,29,13,11,0.6,0.6
2026-04-23T1800,1757A,124.0437,41.8615,抚顺市,东洲区,颗粒物(PM10),60,63,30,16,13,116,116,122,122,19,16,15,10,0.7,0.5
2026-04-23T1800,1758A,123.9246,41.8638,抚顺市,新抚区,颗粒物(PM10),60,64,46,13,21,117,117,129,129,20,26,13,8,0.5,0.5
2026-04-23T1800,1759A,124.0972,41.8961,抚顺市,大伙房水库,颗粒物(PM10),65,71,44,19,16,123,123,124,124,15,14,14,8,0.6,0.4
2026-04-23T1800,1760A,123.708,41.8386,抚顺市,沈抚新城,,48,48,50,9,20,117,117,128,128,14,31,9,13,0.6,1
2026-04-23T1800,2377A,116.3544,27.9833,抚州市,市站,NA,NA,NA,19,NA,13,86,86,82,82,NA,8,1,2,1.3,0.9
2026-04-23T1800,2378A,116.3562,27.9631,抚州市,血防站,,30,20,24,13,12,93,93,90,90,7,6,7,7,0.8,0.8
2026-04-23T1800,2379A,116.3561,28.0007,抚州市,采茶剧团,,29,19,20,6,12,92,92,89,89,7,7,14,14,0.8,0.8
2026-04-23T1800,2380A,116.3854,27.9648,抚州市,医学分院,,30,27,27,12,11,96,96,93,93,7,5,6,7,0.9,0.8
2026-04-23T1800,2207A,121.6095,41.9978,阜新市,工业园区,颗粒物(PM10),76,86,72,16,23,114,114,118,118,12,23,8,10,0.4,0.5
2026-04-23T1800,2208A,121.6567,42.0188,阜新市,长青街,颗粒物(PM10),53,53,57,18,22,117,117,122,122,16,25,8,12,0.5,0.6
2026-04-23T1800,2209A,121.6672,42.07,阜新市,农业园区,颗粒物(PM10),63,68,63,19,20,119,119,122,122,14,16,7,15,0.4,0.4
2026-04-23T1800,2211A,121.6343,42.0455,阜新市,玉龙新城,颗粒物(PM10),64,69,70,20,24,117,117,122,122,15,32,8,11,0.5,0.5
2026-04-23T1800,2301A,115.8276,32.8929,阜阳市,市监测站,,32,28,34,3,14,100,100,99,99,2,6,5,5,0.2,0.3
2026-04-23T1800,2303A,115.8551,32.8606,阜阳市,开发区,,30,18,33,3,12,96,96,92,92,8,11,4,4,0.3,0.4
2026-04-23T1800,2875A,115.783962,32.889217,阜阳市,阜阳职业技术学院,,31,21,26,3,12,99,99,100,100,7,8,6,6,0.2,0.3
2026-04-23T1800,3468A,115.79,32.8614,阜阳市,市规划展馆,,31,19,33,3,13,98,98,97,97,4,11,6,6,0.2,0.4
2026-04-23T1800,3469A,115.835101,32.918568,阜阳市,枣园社区,,31,28,36,3,15,99,99,98,98,8,10,6,5,0.2,0.3
2026-04-23T1800,2669A,102.9097,34.9841,甘南藏族自治州,州政府,颗粒物(PM10),65,70,74,36,42,122,122,102,102,2,11,6,4,0.2,0.3
2026-04-23T1800,3380A,102.8915,34.9618,甘南藏族自治州,甘肃民族师范学院,NA,NA,85,88,36,36,130,130,115,115,6,17,NA,2,0.2,0.2
2026-04-23T1800,2570A,101.96,30.048,甘孜藏族自治州,水桥子,,23,15,15,3,4,71,71,71,71,5,9,6,6,0.2,0.2
2026-04-23T1800,3065A,101.9534,29.9976,甘孜藏族自治州,州环保局,,25,15,16,6,7,78,78,80,80,8,10,4,5,0.3,0.3
2026-04-23T1800,2363A,114.9368,25.8663,赣州市,地委,,26,20,13,8,5,82,82,78,78,5,3,2,2,1.0,1
2026-04-23T1800,2364A,114.946,25.8483,赣州市,气象台,,22,22,17,10,7,70,70,68,68,15,7,6,5,0.8,0.8
2026-04-23T1800,2365A,114.932,25.8332,赣州市,市图书馆,,31,14,10,8,6,97,97,91,91,9,6,3,4,0.8,0.8
2026-04-23T1800,2366A,114.8905,25.8472,赣州市,华坚鞋城,,25,25,14,12,6,80,80,76,76,10,7,6,6,0.4,0.8
2026-04-23T1800,3109A,115.0094,25.8614,赣州市,赣县区卫计委,,25,14,9,3,4,77,77,65,65,6,4,3,3,1.0,1
2026-04-23T1800,2684A,106.2753,36.0057,固原市,监测站,颗粒物(PM10),90,106,90,36,35,126,126,125,125,8,18,6,7,0.3,0.4
2026-04-23T1800,2685A,106.2384,36.0189,固原市,新区,颗粒物(PM10),77,87,93,38,29,124,124,125,125,8,26,5,5,0.4,0.6
2026-04-23T1800,2544A,106.6307,30.4577,广安市,市委,,40,21,23,8,14,128,128,115,115,8,16,8,7,0.3,0.4
2026-04-23T1800,2545A,106.6266,30.4662,广安市,友谊中学,,39,18,20,6,11,123,123,109,109,6,12,8,7,0.4,0.5
2026-04-23T1800,2547A,106.6386,30.4551,广安市,广电花园,,37,23,20,8,14,116,116,108,108,15,18,7,6,0.3,0.4
2026-04-23T1800,2902A,106.6347,30.4868,广安市,北辰小学,,38,19,25,9,14,121,121,109,109,9,12,3,8,0.3,0.4
2026-04-23T1800,2524A,105.8211,32.4444,广元市,老城,,34,32,25,11,8,107,107,96,96,8,29,2,1,0.5,0.5
2026-04-23T1800,2526A,105.8629,32.429,广元市,监测站,,48,48,32,14,8,108,108,94,94,8,17,2,4,0.4,0.5
2026-04-23T1800,3617A,105.8047,32.4167,广元市,经开区,,40,40,32,17,15,103,103,91,91,8,28,4,4,0.4,0.5
2026-04-23T1800,1345A,113.2346,23.1423,广州市,广雅中学,,24,24,24,11,12,23,23,21,21,28,22,2,2,0.7,0.7
2026-04-23T1800,1346A,113.2611,23.105,广州市,市五中,,20,19,23,14,17,30,30,30,30,31,24,3,3,/,/
2026-04-23T1800,1348A,113.3477,23.0916,广州市,广东商学院,,19,19,27,9,18,21,21,21,21,33,28,4,5,0.9,0.9
2026-04-23T1800,1349A,113.4332,23.105,广州市,市八十六中,,16,15,23,8,14,20,20,18,18,32,33,5,7,/,/
2026-04-23T1800,1350A,113.3506,22.9488,广州市,番禺中学,NA,NA,16,24,7,7,20,20,23,19,40,25,5,5,NA,0.6
2026-04-23T1800,1351A,113.2147,23.3918,广州市,花都师范,,16,16,20,7,11,36,36,38,38,20,18,5,6,0.9,0.8
2026-04-23T1800,1352A,113.2599,23.1329,广州市,市监测站,NA,NA,19,19,11,11,24,24,24,24,NA,16,NA,2,/,/
2026-04-23T1800,1353A,113.5618,23.3119,广州市,九龙镇镇龙,,15,15,22,8,11,27,27,27,27,18,23,5,6,0.6,0.5
2026-04-23T1800,1354A,113.2764,23.1544,广州市,麓湖,NA,NA,16,20,8,12,24,24,25,25,NA,21,NA,4,NA,0.5
2026-04-23T1800,2846A,113.3209,23.1323,广州市,体育西,,19,19,23,11,13,27,27,25,25,25,23,4,5,0.7,0.6
2026-04-23T1800,3298A,113.5718,23.5493,广州市,从化街口,,20,20,27,12,16,27,27,30,30,17,20,7,8,0.7,0.8
2026-04-23T1800,3299A,113.3463,23.369,广州市,白云竹料,,16,16,20,9,11,29,29,34,34,18,18,3,3,0.7,0.6
2026-04-23T1800,3300A,113.2981,23.2365,广州市,白云嘉禾,,20,20,22,10,12,27,27,27,27,26,24,6,5,/,/
2026-04-23T1800,3301A,113.4256,23.1716,广州市,黄埔科学城,,17,17,25,11,14,33,33,27,27,16,20,4,5,0.8,0.7
2026-04-23T1800,3302A,113.3942,23.0485,广州市,番禺大学城,,42,42,33,8,12,30,30,29,29,28,23,5,5,0.7,0.7
2026-04-23T1800,3303A,113.4923,22.8169,广州市,南沙黄阁,,15,8,27,7,14,16,16,24,13,30,22,6,6,/,/
2026-04-23T1800,3304A,113.534,22.7893,广州市,南沙街,,20,NA,26,6,15,16,16,27,15,39,26,6,6,0.7,0.5
2026-04-23T1800,3443A,113.2905,23.5541,广州市,花都梯面,,12,10,15,7,8,37,37,35,35,17,14,8,7,/,/
2026-04-23T1800,3445A,113.786,23.7479,广州市,从化良口,,13,12,15,9,11,34,34,36,36,11,12,5,5,/,/
2026-04-23T1800,3446A,113.805,23.2614,广州市,增城荔城,NA,NA,NA,37,2,13,23,23,22,22,11,19,5,5,0.7,0.6
2026-04-23T1800,2506A,109.604387,23.066791,贵港市,江南子站,,30,29,14,21,6,52,52,63,63,10,7,8,7,0.7,0.6
2026-04-23T1800,2508A,109.5669,23.1065,贵港市,荷城子站,,36,36,11,15,6,54,54,66,66,16,11,11,9,0.8,0.7
2026-04-23T1800,3405A,109.5886,23.1172,贵港市,新世纪学校,,39,39,15,18,6,50,50,65,65,15,12,/,/,0.7,0.6
2026-04-23T1800,4260A,109.5933,23.095,贵港市,中山路155-3号,NA,NA,37,17,30,9,58,58,70,70,14,10,/,/,NA,0.5
2026-04-23T1800,1439A,106.6863,26.6035,贵阳市,马鞍山,,30,24,18,15,12,96,96,96,96,8,9,5,3,/,/
2026-04-23T1800,1441A,106.6241,26.6266,贵阳市,鉴湖路,,46,46,30,18,10,120,120,111,111,14,11,6,6,0.6,0.6
2026-04-23T1800,1442A,106.7468,26.6344,贵阳市,燕子冲,,36,36,29,25,14,104,104,96,96,9,10,3,6,0.5,0.6
2026-04-23T1800,1443A,106.6556,26.4362,贵阳市,碧云窝,,41,39,33,16,12,129,129,114,114,7,10,6,5,/,/
2026-04-23T1800,1445A,106.6963,26.6063,贵阳市,红边门,,35,29,22,21,14,110,110,101,101,12,11,1,5,/,/
2026-04-23T1800,1446A,106.7162383,26.56964667,贵阳市,新华路,,34,34,30,18,13,108,108,99,99,9,12,50,15,0.1,0.3
2026-04-23T1800,1447A,106.6742,26.542,贵阳市,太慈桥,,36,34,22,15,12,114,114,104,104,10,11,4,4,/,/
2026-04-23T1800,4230A,106.688212,26.56952,贵阳市,花果园大街66号,,36,24,12,19,13,115,115,100,100,9,10,3,3,/,/
2026-04-23T1800,4231A,106.687268,26.516892,贵阳市,漓江路57号,,37,29,18,18,13,118,118,110,110,12,13,5,5,0.6,0.6
2026-04-23T1800,1864A,110.3091,25.2705,桂林市,龙隐路小学,,29,19,8,12,6,90,90,88,88,6,7,4,4,0.3,0.4
2026-04-23T1800,1865A,110.2849361,25.22909545,桂林市,八中,,25,19,11,3,4,78,78,78,78,10,9,4,4,0.5,0.5
2026-04-23T1800,3531A,110.296,25.1254,桂林市,旅游学院,,29,18,16,3,4,91,91,93,93,6,6,6,5,0.6,0.6
2026-04-23T1800,4222A,110.1835,25.2444,桂林市,环湖路276号,,27,NA,7,15,5,85,85,86,86,5,5,4,5,0.3,0.4
2026-04-23T1800,4301A,110.2803,25.2773,桂林市,信义路13号,,27,19,10,8,5,85,85,85,85,12,9,5,5,0.6,0.6
2026-04-23T1800,2674A,100.2262,34.4854,果洛藏族自治州,玛沁县大武镇,,41,41,91,20,46,127,127,114,114,4,4,13,18,0.3,0.4
2026-04-23T1800,1130A,126.5557,45.8109,哈尔滨市,松北商大,,33,23,45,23,28,98,98,95,95,6,31,6,6,0.6,0.8
2026-04-23T1800,1132A,126.6162,45.719,哈尔滨市,南岗学府路,,35,35,61,8,28,94,94,96,96,10,39,2,3,0.6,0.9
2026-04-23T1800,1133A,126.6894,45.7733,哈尔滨市,太平宏伟公园,,35,32,70,24,36,88,88,103,103,15,40,5,7,0.3,0.6
2026-04-23T1800,1134A,126.6361,45.7672,哈尔滨市,道外承德广场,,49,49,63,21,26,87,87,88,88,18,42,7,7,0,0.6
2026-04-23T1800,1136A,126.644,45.7261,哈尔滨市,动力和平路,,34,34,60,22,29,89,89,93,93,13,43,6,7,0.3,0.6
2026-04-23T1800,1137A,126.5933,45.7479,哈尔滨市,道里建国路,,30,30,51,17,28,91,91,94,94,12,42,1,2,0.8,1.2
2026-04-23T1800,1138A,126.6127,45.6119,哈尔滨市,平房东轻厂,,29,25,48,20,28,88,88,93,93,16,39,10,14,0.4,0.6
2026-04-23T1800,1139A,126.5875,45.9827,哈尔滨市,呼兰师专,NA,NA,NA,NA,NA,NA,NA,NA,NA,NA,NA,NA,NA,NA,NA,NA
2026-04-23T1800,1140A,126.6299,45.6799,哈尔滨市,省农科院,,28,22,84,14,44,87,87,92,92,10,42,5,8,0.2,0.6
2026-04-23T1800,4282A,126.6769,45.7379,哈尔滨市,华山路1号,,39,39,75,18,37,97,97,102,102,6,40,1,9,0.3,0.5
2026-04-23T1800,4283A,126.9717,45.5356,哈尔滨市,解放大街52号,,40,40,63,18,19,88,88,99,99,18,24,2,4,0.5,0.7
2026-04-23T1800,2688A,93.5124,42.8176,哈密市,地区监测站,,40,28,54,12,29,126,126,113,113,4,18,12,11,0.2,0.3
2026-04-23T1800,2689A,93.5014,42.8312,哈密市,哈密师范学校,,40,16,64,7,26,127,127,117,117,4,22,8,9,0.0,0.2
2026-04-23T1800,2671A,100.9016,36.9464,海北藏族自治州,海晏县西海镇,NA,NA,77,80,33,41,117,117,115,115,NA,4,7,7,0.4,0.4
2026-04-23T1800,3867A,102.074,36.5056,海东市,平安区公安局北苑,细颗粒物(PM2.5),76,79,87,48,48,122,122,117,117,7,10,5,7,0.5,0.6
2026-04-23T1800,4163A,102.0984,36.5119,海东市,滨河路,颗粒物(PM10),89,104,89,46,44,105,105,100,100,11,26,5,6,0.6,0.7
2026-04-23T1800,1410A,110.3189,20.0596,海口市,海南大学,细颗粒物(PM2.5),84,75,49,52,34,45,45,58,54,14,10,6,6,0.6,0.4
2026-04-23T1800,1411A,110.2827,20.0051,海口市,秀英海南医院,细颗粒物(PM2.5),103,NA,41,63,34,40,40,56,55,NA,10,9,8,0.5,0.4
2026-04-23T1800,1412A,110.3391,19.9979,海口市,海南师范大学,细颗粒物(PM2.5),94,76,41,57,34,41,41,68,66,18,10,6,6,0.6,0.5
2026-04-23T1800,1413A,110.3303,20.0359,海口市,龙华路环保局宿舍,细颗粒物(PM2.5),78,73,39,49,33,44,44,61,57,17,11,/,/,0.9,0.7
2026-04-23T1800,3539A,110.5111,19.9737,海口市,桂林洋子站,颗粒物(PM10),65,70,46,41,30,46,46,78,77,18,10,/,/,/,/
2026-04-23T1800,4134A,110.1952,20.0451,海口市,长滨二路9号,细颗粒物(PM2.5),98,69,47,59,35,43,43,52,52,17,14,/,/,/,/
2026-04-23T1800,2673A,100.6158,36.2985,海南藏族自治州,共和县恰卜恰镇,颗粒物(PM10),71,79,102,36,60,134,134,128,128,3,10,6,8,0.3,0.3
2026-04-23T1800,2676A,97.373,37.376,海西蒙古族藏族自治州,德令哈市,颗粒物(PM10),67,73,118,28,52,147,147,141,141,2,4,16,17,0.4,0.4
2026-04-23T1800,1049A,114.492,36.5712,邯郸市,矿院,,50,50,44,27,32,120,120,112,112,6,14,4,4,0.3,0.4
2026-04-23T1800,1050A,114.4839,36.6136,邯郸市,丛台公园,,44,44,38,25,25,118,118,110,110,4,12,3,5,0.3,0.4
2026-04-23T1800,3458A,114.7893,36.5592,邯郸市,香泉濮院小区,,35,30,43,18,30,110,110,106,106,6,11,3,2,0.3,0.3
2026-04-23T1800,3580A,114.1998,36.4439,邯郸市,峰峰矿区临水派出所,NA,NA,NA,45,42,33,140,140,125,125,17,18,5,5,0.4,0.6
2026-04-23T1800,4068A,114.5209,36.7697,邯郸市,建安街268号,颗粒物(PM10),71,79,46,9,26,110,110,106,106,6,15,3,2,0.2,0.3
2026-04-23T1800,4069A,114.5488,36.6177,邯郸市,丛台东路558号,,46,46,44,20,22,116,116,105,105,3,17,1,2,0.2,0.3
2026-04-23T1800,2635A,107.0155,33.0707,汉中市,市监测站,,35,25,21,8,11,110,110,89,89,7,12,4,4,0.4,0.4
2026-04-23T1800,2636A,107.0083,33.114,汉中市,鑫源开发区,,35,31,26,7,15,112,112,90,90,7,18,5,5,0.4,0.5
2026-04-23T1800,2637A,107.0072,33.0323,汉中市,南郑大河坎水厂,,35,32,22,10,10,111,111,91,91,7,12,4,4,0.2,0.3
2026-04-23T1800,1223A,120.2073,30.2111,杭州市,滨江,,28,22,9,10,4,88,88,78,78,16,14,7,7,0.4,0.6
2026-04-23T1800,1224A,120.0625,30.2737,杭州市,西溪,,22,22,6,10,3,69,69,75,75,14,11,4,4,0.6,0.7
2026-04-23T1800,1226A,120.3417,30.315,杭州市,下沙,,31,31,13,16,5,72,72,73,73,24,13,8,8,0.6,0.7
2026-04-23T1800,1227A,120.1252,30.2465,杭州市,卧龙桥,,24,24,8,9,3,66,66,74,74,19,16,8,8,0.4,0.5
2026-04-23T1800,1228A,120.1902,30.2691,杭州市,浙江农大,,34,34,10,11,3,71,71,72,72,38,31,7,7,0.3,0.4
2026-04-23T1800,1230A,120.1195,30.3121,杭州市,和睦小学,,26,26,6,12,3,78,78,74,74,28,18,6,6,0.5,0.6
2026-04-23T1800,1231A,120.3076,30.4146,杭州市,临平镇,,29,27,9,13,5,91,91,89,89,24,17,6,6,0.4,0.5
2026-04-23T1800,1232A,120.2753,30.1839,杭州市,城厢镇,,23,21,5,11,3,72,72,71,71,28,18,5,5,0.4,0.5
2026-04-23T1800,1233A,120.0883,30.1808,杭州市,云栖,,21,18,7,6,2,66,66,69,69,20,17,6,7,0.6,0.7
2026-04-23T1800,3557A,119.9463,30.0496,杭州市,镇二中,,30,30,8,10,3,75,75,73,73,32,18,5,4,0.4,0.5
2026-04-23T1800,3558A,119.7184,30.2367,杭州市,市府大楼,,27,16,4,3,2,84,84,75,75,16,14,6,6,0.5,0.6
2026-04-23T1800,3656A,120.1554,30.2863,杭州市,消防大队,,34,34,9,13,4,74,74,72,72,20,13,4,4,0.5,0.4
2026-04-23T1800,1270A,117.1957,31.7845,合肥市,明珠广场,,25,24,9,8,2,78,78,87,86,26,14,6,6,0.5,0.5
2026-04-23T1800,1271A,117.307,31.8765,合肥市,三里街,,25,24,10,6,3,77,77,76,76,24,19,6,5,0.4,0.3
2026-04-23T1800,1272A,117.2587,31.8703,合肥市,琥珀山庄,,29,29,10,10,3,84,84,86,86,20,12,7,6,0.6,0.5
2026-04-23T1800,1275A,117.2593,31.9376,合肥市,庐阳区,,29,24,15,8,3,91,91,87,87,14,11,5,5,0.5,0.5
2026-04-23T1800,1276A,117.345251,31.861615,合肥市,瑶海区,,29,29,9,7,2,79,79,87,87,25,15,6,6,0.5,0.4
2026-04-23T1800,1277A,117.3033,31.7967,合肥市,包河区,,27,27,14,6,2,64,64,72,72,36,28,8,8,0.4,0.4
2026-04-23T1800,1278A,117.278,31.7392,合肥市,滨湖新区,NA,NA,34,9,8,2,86,86,85,85,NA,15,NA,5,0.5,0.4
2026-04-23T1800,1279A,117.1324,31.8395,合肥市,高新区,,28,24,14,3,2,88,88,82,82,8,6,5,5,0.4,0.4
2026-04-23T1800,3464A,117.3802,31.9148,合肥市,高教基地,,30,14,13,6,3,93,93,86,86,9,9,7,7,0.4,0.4
2026-04-23T1800,4098A,117.2518,31.8404,合肥市,中国科学技术大学,NA,NA,24,7,9,3,84,84,84,84,NA,10,6,5,0.5,0.5
2026-04-23T1800,3614A,79.9241,37.0878,和田地区,地区环保局,颗粒物(PM10),133,205,288,59,85,105,105,101,101,4,15,1,2,0.4,0.5
2026-04-23T1800,3615A,79.9132,37.1137,和田地区,市环保局,颗粒物(PM10),122,175,291,56,91,110,110,102,102,3,23,1,2,0.4,0.7
2026-04-23T1800,2517A,108.0496,24.6957,河池市,市环保站,,19,19,13,3,4,60,60,56,56,3,3,8,6,0.6,0.6
2026-04-23T1800,4302A,108.0901,24.6945,河池市,上任中路54号,,22,22,15,7,6,56,56,51,51,4,7,7,6,0.7,0.7
2026-04-23T1800,1697A,114.6962,23.7538,河源市,东埔,,17,6,20,3,13,52,52,50,50,9,11,5,6,0.4,0.4
2026-04-23T1800,1698A,114.6895,23.7232,河源市,老城,,16,10,26,3,15,49,49,48,48,7,13,6,6,0.5,0.5
2026-04-23T1800,3374A,115.5562,35.089,菏泽市,定陶老年大学,,38,29,38,6,20,121,121,119,119,10,10,5,5,0.1,0.3
2026-04-23T1800,4114A,115.4239,35.2593,菏泽市,黄河路600号,,37,35,46,3,18,116,116,109,109,6,10,4,4,0.3,0.4
2026-04-23T1800,4115A,115.5025,35.2727,菏泽市,菏泽市人社局,,38,30,38,8,19,119,119,112,112,7,10,5,6,0.2,0.3
2026-04-23T1800,4184A,115.479691,35.244011,菏泽市,永昌路1号,,40,36,38,8,23,128,128,120,120,8,13,4,3,0,0.3
2026-04-23T1800,4193A,115.471542,35.280012,菏泽市,长城路999号,,40,30,35,6,16,127,127,118,118,9,10,8,7,0.2,0.3
2026-04-23T1800,2514A,111.5264,24.4178,贺州市,环保小区,,27,23,10,3,4,84,84,83,83,8,7,6,5,0.4,0.3
2026-04-23T1800,2515A,111.561,24.4074,贺州市,政协大楼,,27,19,14,3,4,86,86,84,84,10,10,9,8,0.4,0.4
2026-04-23T1800,3534A,111.4744,24.455,贺州市,西湾,,23,14,10,3,3,72,72,74,74,10,8,8,8,0.5,0.5
2026-04-23T1800,2385A,114.17,35.9019,鹤壁市,市监测站,颗粒物(PM10),58,61,54,34,43,127,127,116,116,8,11,6,6,0.5,0.6
2026-04-23T1800,2386A,114.2953,35.7512,鹤壁市,市交警支队,,44,44,50,25,30,118,118,109,109,8,15,9,9,0.4,0.5
2026-04-23T1800,2387A,114.2877,35.7302,鹤壁市,迎宾馆,颗粒物(PM10),55,56,64,23,38,124,124,112,112,9,18,6,6,0.3,0.5
2026-04-23T1800,3474A,114.2616,35.6824,鹤壁市,大新区,颗粒物(PM10),54,55,49,34,39,118,118,108,108,7,17,4,4,0.4,0.5
2026-04-23T1800,3596A,114.1573,35.9607,鹤壁市,南山宾馆,颗粒物(PM10),53,54,56,36,44,125,125,115,115,14,18,8,9,0.6,0.7
2026-04-23T1800,2244A,130.2537,47.3416,鹤岗市,哈啤分公司,,22,22,16,3,4,70,70,74,73,7,6,9,9,0.3,0.3
2026-04-23T1800,2245A,130.2683,47.3087,鹤岗市,斯达机电,,23,23,16,7,5,69,69,74,73,5,3,10,10,0.3,0.3
2026-04-23T1800,2246A,130.3114,47.3388,鹤岗市,东山纸板厂,,39,39,21,9,4,68,68,75,73,10,5,6,7,0.4,0.3
2026-04-23T1800,2263A,127.4832,50.2524,黑河市,交通局,,24,21,15,9,11,74,74,77,77,11,9,5,7,0.3,0.2
2026-04-23T1800,2264A,127.5146,50.2339,黑河市,环保局,,24,20,11,11,6,76,76,78,78,10,8,7,8,0.3,0.3
2026-04-23T1800,1074A,115.6839,37.754,衡水市,电机北厂,颗粒物(PM10),65,71,50,26,21,125,125,120,120,11,16,7,7,0.3,0.3
2026-04-23T1800,1075A,115.6303,37.7318,衡水市,市监测站,颗粒物(PM10),72,80,57,25,19,118,118,115,115,14,23,8,7,0.3,0.3
2026-04-23T1800,3188A,115.6684,37.7216,衡水市,市城管局,颗粒物(PM10),69,76,51,32,26,125,125,119,119,8,21,2,4,0.3,0.3
2026-04-23T1800,3459A,115.599,37.5491,衡水市,地表水厂,颗粒物(PM10),56,58,53,22,23,117,117,115,115,11,32,4,5,0.2,0.3
2026-04-23T1800,2457A,112.6209,26.9268,衡阳市,衡阳化工总厂,,38,38,24,15,13,102,102,91,91,12,15,5,5,0.5,0.7
2026-04-23T1800,2458A,112.621,26.8957,衡阳市,珠晖区环保局,,31,31,21,11,11,98,98,88,88,12,14,7,8,0.7,0.9
2026-04-23T1800,2459A,112.628,26.8654,衡阳市,市委党校,,33,33,19,3,12,100,100,89,89,7,11,9,10,0.6,0.9
2026-04-23T1800,2460A,112.6007,26.8977,衡阳市,市监测站,,30,24,22,17,12,95,95,86,86,12,16,7,8,0.6,0.7
2026-04-23T1800,2461A,112.5658,26.9013,衡阳市,真空机电公司,,34,23,17,14,14,106,106,94,94,9,12,6,8,0.6,0.7
2026-04-23T1800,3399A,112.6703,26.8817,衡阳市,师范学院,,33,21,19,19,13,105,105,94,94,8,12,7,7,0.5,0.7
2026-04-23T1800,3038A,103.3757,23.3679,红河哈尼族彝族自治州,州图书馆,细颗粒物(PM2.5),68,67,66,44,47,108,108,113,112,8,10,4,6,0.5,0.5
2026-04-23T1800,4154A,103.401,23.3561,红河哈尼族彝族自治州,蒙自市朝阳路,细颗粒物(PM2.5),70,51,46,45,46,112,112,116,116,8,10,5,6,0.5,0.5
2026-04-23T1800,1090A,111.6506,40.7517,呼和浩特市,呼市一监,颗粒物(PM10),98,117,108,36,51,137,137,120,120,11,35,7,9,0.3,0.6
2026-04-23T1800,1094A,111.7516,40.8369,呼和浩特市,如意水处理厂,颗粒物(PM10),115,158,80,39,32,135,135,120,120,9,30,8,9,0.3,0.3
2026-04-23T1800,1095A,111.727798,40.806187,呼和浩特市,二十九中,颗粒物(PM10),94,111,92,32,41,126,126,112,112,10,28,10,12,0.3,0.5
2026-04-23T1800,1097A,111.717,40.7617,呼和浩特市,化肥厂生活区,颗粒物(PM10),94,111,113,37,48,133,133,119,119,14,36,8,10,0.3,0.5
2026-04-23T1800,3699A,111.6519,40.8389,呼和浩特市,海东办,颗粒物(PM10),103,127,89,37,35,124,124,108,108,11,42,6,7,0.2,0.3
2026-04-23T1800,4275A,111.591512,40.827312,呼和浩特市,成吉思汗西街8号,颗粒物(PM10),104,129,94,31,36,129,129,113,113,12,43,6,7,0.4,0.5
2026-04-23T1800,4276A,111.6597,40.8077,呼和浩特市,公园东路75号,颗粒物(PM10),101,122,98,36,39,125,125,110,110,12,28,6,7,0.2,0.4
2026-04-23T1800,4277A,111.5427,40.7846,呼和浩特市,金海路35号,颗粒物(PM10),102,125,94,42,37,122,122,107,107,16,39,6,8,0.4,0.5
2026-04-23T1800,3061A,119.7511,49.1576,呼伦贝尔市,国华电力东,颗粒物(PM10),68,75,27,18,14,85,85,94,93,6,8,4,4,0.3,0.3
2026-04-23T1800,4279A,119.7569,49.2222,呼伦贝尔市,伊敏大街东7号,,49,49,30,23,14,79,79,92,90,7,13,6,6,0.4,0.5
2026-04-23T1800,1250A,120.075,30.867,湖州市,城西水厂,,36,26,11,11,8,113,113,110,110,16,18,6,5,0.4,0.4
2026-04-23T1800,2873A,120.083,30.8929,湖州市,仁皇山新区,,34,27,10,11,7,106,106,104,104,17,15,5,5,0.4,0.5
2026-04-23T1800,2907A,120.1846,30.8592,湖州市,吴兴区站,,37,24,14,10,8,116,116,103,103,17,16,6,5,0.3,0.3
2026-04-23T1800,3562A,120.4146,30.8538,湖州市,南浔区站,,32,24,15,15,9,102,102,94,94,15,12,6,5,0.6,0.6
2026-04-23T1800,1607A,120.904878,40.721091,葫芦岛市,龙港区,,42,32,56,29,22,131,131,113,113,11,34,11,23,0.4,0.6
2026-04-23T1800,1608A,120.8382,40.7521,葫芦岛市,化工街,,40,39,75,28,34,120,120,114,114,16,48,15,52,0.4,0.5
2026-04-23T1800,1609A,120.8339,40.7078,葫芦岛市,新区,,40,38,55,18,27,125,125,109,109,15,52,10,14,0.4,0.6
2026-04-23T1800,1610A,120.8697,40.7679,葫芦岛市,东城区,,43,38,74,30,29,126,126,119,119,17,51,11,36,0.5,0.6
2026-04-23T1800,2483A,109.9297,27.5383,怀化市,河西地税局,,26,13,19,3,8,82,82,72,72,7,12,7,8,/,/
2026-04-23T1800,2484A,109.9783,27.5342,怀化市,市四医院,,26,18,18,8,12,82,82,75,75,6,8,3,5,0.3,0.3
2026-04-23T1800,2485A,109.9971,27.5579,怀化市,监测楼,,26,14,15,8,9,81,81,72,72,5,8,4,5,0.5,0.5
2026-04-23T1800,1210A,119.0566,33.5991,淮安市,钵池山,,36,36,33,9,12,114,114,108,108,10,14,8,8,0.3,0.3
2026-04-23T1800,1211A,119.0083,33.578,淮安市,北京南路,,35,34,30,10,13,109,109,104,104,7,10,8,7,0.2,0.2
2026-04-23T1800,1212A,118.9938,33.6083,淮安市,市监测站,,40,22,26,9,14,126,126,118,118,10,15,6,5,0.5,0.5
2026-04-23T1800,1213A,119.135,33.5038,淮安市,楚州区监测站,,34,34,29,13,13,103,103,104,104,12,10,6,6,0.4,0.3
2026-04-23T1800,3426A,118.8757,33.2897,淮安市,新华书店,,41,41,36,15,13,118,118,108,108,8,13,8,9,0.3,0.3
2026-04-23T1800,4092A,119.119691,33.550006,淮安市,枚皋中路89号,,38,38,31,12,15,118,118,110,110,11,14,7,6,0.4,0.3
2026-04-23T1800,4206A,119.028838,33.631911,淮安市,承德北路606号,,35,31,34,8,13,110,110,102,102,8,13,8,8,0.4,0.3
2026-04-23T1800,2282A,116.8005,33.9749,淮北市,监测站,,37,30,39,6,16,117,117,117,117,11,15,7,7,0.3,0.3
2026-04-23T1800,2283A,116.8094,33.9008,淮北市,烈山区政府,,36,17,35,3,12,115,115,113,113,9,10,7,7,0.2,0.2
2026-04-23T1800,4017A,116.7926,33.9534,淮北市,市博物馆,,36,28,33,7,15,114,114,115,115,9,12,7,8,0.3,0.3
2026-04-23T1800,4100A,116.8322,33.9884,淮北市,杜集区第一实验学校,,36,27,42,3,12,113,113,115,115,4,11,6,7,0.3,0.3
2026-04-23T1800,2277A,116.8304,32.7726,淮南市,潘集区政府,,33,28,19,7,10,105,105,101,101,11,15,6,6,0.3,0.3
2026-04-23T1800,2279A,116.8569,32.5949,淮南市,谢家集区政府,NA,NA,27,17,8,10,107,107,102,102,10,8,NA,7,0.2,0.2
2026-04-23T1800,2280A,116.8279,32.6333,淮南市,八公山区政府,,33,33,25,10,10,103,103,100,100,8,8,8,6,0.2,0.2
2026-04-23T1800,2894A,117.0561,32.6536,淮南市,经济技术开发区消防队,,31,25,21,6,10,98,98,90,90,6,13,6,6,0.2,0.1
2026-04-23T1800,3329A,117.011,32.5891,淮南市,山南新区,,34,17,18,8,12,108,108,107,107,10,12,7,7,0.2,0.2
2026-04-23T1800,4209A,117.003137,32.644456,淮南市,国庆中路369号,,34,34,25,8,10,101,101,92,92,7,9,5,6,0.4,0.4
2026-04-23T1800,2446A,114.9021,30.474,黄冈市,职工中心,,18,14,13,10,8,56,56,66,66,8,6,6,6,0.5,0.4
2026-04-23T1800,2929A,114.8858,30.4519,黄冈市,红卫路,,20,11,12,10,8,61,61,72,72,10,5,5,5,0.2,0.2
2026-04-23T1800,3398A,114.9134,30.4446,黄冈市,市林业局,,22,12,13,6,7,70,70,74,74,10,8,5,4,0.5,0.4
2026-04-23T1800,2672A,102.02,35.5101,黄南藏族自治州,同仁县隆务镇,颗粒物(PM10),83,96,92,41,45,132,132,120,120,1,3,10,10,0.1,0.2
2026-04-23T1800,2295A,118.2905,29.6965,黄山市,延安路89号,,16,10,9,7,4,49,49,57,57,15,9,6,4,0.4,0.3
2026-04-23T1800,2297A,118.1369,30.2755,黄山市,黄山区政府5号楼,,19,15,9,3,2,58,58,55,55,7,8,2,2,0.4,0.4
2026-04-23T1800,4210A,118.335445,29.720283,黄山市,滨江东路7-2号,,25,25,21,8,3,51,51,57,57,16,10,/,/,/,/
2026-04-23T1800,2423A,115.0547,30.2332,黄石市,沈家营,,23,22,17,6,6,73,73,79,79,8,7,3,4,0.5,0.4
2026-04-23T1800,2426A,114.899,30.211,黄石市,铁山,,32,32,24,20,10,66,66,64,64,15,10,7,7,0.6,0.6
2026-04-23T1800,2427A,115.0259,30.2108,黄石市,团城山,,24,24,21,14,9,61,61,62,62,13,7,4,5,0.8,0.6
2026-04-23T1800,3149A,115.0174,30.1591,黄石市,笔架山北路,,41,41,25,23,9,65,65,65,65,17,15,9,6,0.8,0.7
2026-04-23T1800,4185A,115.078022,30.21118,黄石市,磁湖东路29号,NA,NA,33,20,27,9,75,75,78,78,NA,14,3,3,0.5,0.3
2026-04-23T1800,1392A,114.4181,23.0528,惠州市,河南岸金山湖子站,,15,6,26,3,14,45,45,37,37,15,19,6,6,0.6,0.5
2026-04-23T1800,1393A,114.4055,23.0824,惠州市,下埔横江三路子站,,16,6,29,3,17,49,49,45,45,8,15,5,5,0.8,0.7
2026-04-23T1800,1395A,114.4645,22.7832,惠州市,惠阳区承修路船湖子站,,14,14,29,6,17,32,32,39,35,15,11,6,6,0.5,0.4
2026-04-23T1800,1396A,114.5316,22.7423,惠州市,大亚湾管委会子站,,12,12,26,6,14,27,27,43,41,19,12,4,4,0.4,0.3
2026-04-23T1800,3314A,114.4334,22.8134,惠州市,惠阳秋长,NA,NA,9,24,NA,18,35,35,38,35,15,18,/,/,/,/
2026-04-23T1800,3452A,114.6521,22.7755,惠州市,大亚湾霞涌,NA,NA,NA,19,3,12,40,40,51,50,10,11,/,/,/,/
2026-04-23T1800,4300A,114.4089,23.1147,惠州市,文华一路1号,,15,7,26,3,16,46,46,42,42,10,17,/,/,/,/
2026-04-23T1800,2240A,130.9618,45.2926,鸡西市,环保局,,21,13,13,3,7,67,67,81,80,11,5,6,7,0.2,0.2
2026-04-23T1800,2243A,130.9294,45.2959,鸡西市,第一中学,,23,6,13,3,8,73,73,79,79,5,4,6,5,0.2,0.2
2026-04-23T1800,3707A,131.0069,45.2988,鸡西市,欧美日汽修厂,,20,16,15,3,8,63,63,75,75,13,7,6,6,0.2,0.2
2026-04-23T1800,2367A,114.9753,27.0803,吉安市,红声器材厂,,31,17,21,14,7,97,97,90,90,14,10,7,6,0.5,0.3
2026-04-23T1800,2369A,114.9903,27.1313,吉安市,市环境监测站,,27,22,18,8,10,85,85,84,84,11,10,11,10,/,/
2026-04-23T1800,2370A,115.009527,27.096792,吉安市,青原区法院,,28,24,22,9,6,87,87,85,85,11,8,7,7,0.7,0.6
2026-04-23T1800,1772A,126.54,43.8622,吉林市,哈达湾,,46,42,39,32,26,128,128,115,115,15,14,12,7,0.4,0.3
2026-04-23T1800,1773A,126.5843,43.8358,吉林市,东局子,,44,44,43,23,18,113,113,108,108,20,18,9,4,0.8,0.7
2026-04-23T1800,1774A,126.5051,43.8243,吉林市,电力学院,,40,37,55,21,37,126,126,119,119,17,20,8,5,0.6,0.7
2026-04-23T1800,1775A,126.6133,43.8971,吉林市,江北,颗粒物(PM10),68,74,50,34,24,132,132,123,123,21,19,17,12,0.9,0.6
2026-04-23T1800,1776A,126.5549,43.8304,吉林市,江南公园,,43,43,37,26,24,114,114,110,110,24,15,11,7,0.6,0.6
2026-04-23T1800,2868A,126.4737,43.953,吉林市,九站,颗粒物(PM10),59,62,55,32,34,117,117,120,120,27,27,16,15,0.5,0.4
2026-04-23T1800,1299A,116.9866,36.6118,济南市,科干所,,43,41,55,8,23,136,136,126,126,11,16,6,6,0.5,0.6
2026-04-23T1800,1300A,116.9379,36.6652,济南市,农科所,,44,44,55,6,26,126,126,114,114,11,26,6,6,0.2,0.3
2026-04-23T1800,1301A,117.1265,36.6736,济南市,开发区,,44,44,54,8,27,139,139,128,128,12,17,5,6,0.4,0.5
2026-04-23T1800,1303A,117.0616,36.6865,济南市,省种子仓库,颗粒物(PM10),53,53,65,8,25,134,134,126,126,13,20,4,5,0.4,0.6
2026-04-23T1800,1304A,116.9495185,36.644937,济南市,机床二厂,颗粒物(PM10),51,51,62,15,33,129,129,122,122,15,24,5,6,0.3,0.5
2026-04-23T1800,1305A,117.0496,36.6629,济南市,市监测站,,44,44,57,10,27,130,130,122,122,13,20,4,5,0.6,0.7
2026-04-23T1800,1306A,116.7674,36.5458,济南市,长清党校,,46,46,58,12,25,130,130,123,123,8,19,5,6,0.5,0.6
2026-04-23T1800,1961A,117.5323,36.6865,济南市,东山小学,颗粒物(PM10),55,56,58,15,27,139,139,139,139,12,25,4,5,0.4,0.4
2026-04-23T1800,3059A,117.7181,36.205,济南市,泰兴公司,,48,48,60,15,29,139,139,131,131,14,29,9,19,0.3,0.5
2026-04-23T1800,3064A,117.6861,36.2172,济南市,莱芜战役纪念馆,,44,44,59,12,27,139,139,130,130,11,23,6,26,0.1,0.4
2026-04-23T1800,3494A,117.1673,36.9782,济南市,济阳区政府,颗粒物(PM10),67,73,63,18,34,117,117,117,117,15,23,7,9,0.5,0.6
2026-04-23T1800,3495A,117.1168,36.6299,济南市,锦屏中学,,40,39,45,9,26,126,126,115,115,8,11,5,5,0.3,0.4
2026-04-23T1800,4108A,117.7107,36.2385,济南市,山财大街5号,,44,39,53,18,28,140,140,133,133,8,29,6,9,0.5,0.7
2026-04-23T1800,4109A,116.9744,36.6889,济南市,无影山路12号,,41,41,50,9,31,125,125,113,113,11,25,5,5,0.3,0.4
2026-04-23T1800,1653A,116.6229,35.4288,济宁市,火炬城,,42,42,39,3,21,120,120,114,114,7,9,4,3,0.3,0.4
2026-04-23T1800,3500A,116.5808,35.3703,济宁市,北湖一中,,40,33,40,3,21,128,128,123,123,10,17,7,7,0.3,0.4
2026-04-23T1800,3501A,116.8251,35.5592,济宁市,服务中心,,43,43,42,9,25,120,120,109,109,9,15,2,3,0.4,0.6
2026-04-23T1800,3678A,116.5907,35.4054,济宁市,市第七中学,,43,33,46,3,20,136,136,128,128,10,14,5,5,0.2,0.3
2026-04-23T1800,4111A,116.6075,35.4566,济宁市,任和路,,41,34,50,8,24,131,131,121,121,8,10,7,7,0.2,0.4
2026-04-23T1800,4112A,116.5648,35.3921,济宁市,文体南路1号,NA,NA,NA,53,NA,25,130,130,120,120,6,8,4,5,NA,0.5
2026-04-23T1800,4122A,112.6071,35.1015,济源市,市委党校,颗粒物(PM10),76,86,70,22,29,130,130,118,118,13,21,7,9,0.3,0.7
2026-04-23T1800,4123A,112.596,35.0702,济源市,沁园中路1号,NA,NA,NA,54,NA,45,131,131,120,120,NA,27,3,5,NA,0.9
2026-04-23T1800,2255A,130.2749,46.8028,佳木斯市,佳纺,,23,18,17,16,7,66,66,76,74,13,6,3,3,0.3,0.2
2026-04-23T1800,2257A,130.3258,46.7975,佳木斯市,环保局,,23,7,12,3,5,72,72,78,77,8,6,2,3,0.1,0.2
2026-04-23T1800,4285A,130.363,46.806,佳木斯市,顺和街,,24,12,8,3,5,74,74,76,76,6,6,1,1,0.2,0.2
2026-04-23T1800,4286A,130.3952,46.8268,佳木斯市,长安路196号,,25,9,7,3,4,79,79,79,79,2,3,1,1,0.3,0.3
2026-04-23T1800,1252A,120.7439,30.778,嘉兴市,清河小学,,38,38,12,20,6,78,78,84,84,29,15,7,6,0.6,0.6
2026-04-23T1800,1253A,120.7261,30.7477,嘉兴市,嘉兴学院,,33,33,12,14,9,82,82,85,84,29,18,6,5,0.5,0.6
2026-04-23T1800,2872A,120.7845,30.7524,嘉兴市,南湖区残联,颗粒物(PM10),58,60,14,17,8,93,93,95,95,27,13,5,4,0.5,0.5
2026-04-23T1800,3407A,120.6915,30.7741,嘉兴市,秀洲住建,,41,41,14,13,6,86,86,93,93,28,15,6,5,0.6,0.5
2026-04-23T1800,1945A,98.291,39.7705,嘉峪关市,气象局,颗粒物(PM10),68,75,150,27,54,123,123,118,118,3,10,10,14,0.4,0.4
2026-04-23T1800,2884A,98.2672,39.7978,嘉峪关市,酒钢宾馆,颗粒物(PM10),103,127,181,25,54,120,120,118,118,4,9,13,17,0.4,0.3
2026-04-23T1800,3248A,98.2644,39.7723,嘉峪关市,雄关区,颗粒物(PM10),90,105,147,22,51,123,123,117,117,4,10,7,8,0.4,0.4
2026-04-23T1800,1383A,113.1063,22.6058,江门市,北街,,18,NA,26,8,16,29,29,29,25,35,21,/,/,/,/
2026-04-23T1800,1384A,113.073,22.5835,江门市,西区,,19,NA,29,10,16,25,25,32,24,37,23,/,/,/,/
2026-04-23T1800,1385A,113.0218,22.531,江门市,圭峰西,,13,11,23,3,15,30,30,36,30,26,17,/,/,/,/
2026-04-23T1800,1386A,113.0826,22.5947,江门市,东湖,,23,NA,26,16,17,25,25,28,23,32,18,7,7,0.6,0.4
2026-04-23T1800,3311A,113.1077,22.5647,江门市,江海富民,,18,8,33,7,16,26,26,34,23,35,22,/,/,0.6,0.3
2026-04-23T1800,3449A,113.0496,22.4669,江门市,新会银湖,,18,NA,29,3,17,22,22,20,17,36,28,7,7,0.6,0.5
2026-04-23T1800,3335A,113.3137,35.2643,焦作市,马村街道办,,44,44,50,14,27,133,133,116,116,5,11,9,10,0.1,0.4
2026-04-23T1800,3336A,113.2464,35.2374,焦作市,焦作技师学院,,41,35,46,16,28,129,129,114,114,8,14,9,10,0.5,0.8
2026-04-23T1800,3477A,113.1656,35.2536,焦作市,中站许衡医院,,42,42,43,14,29,125,125,115,115,5,14,9,11,0.4,0.8
2026-04-23T1800,3981A,113.2456,35.18,焦作市,原李万街道办,,42,30,51,19,29,134,134,112,112,7,17,10,9,0.3,0.4
2026-04-23T1800,4264A,113.234,35.219,焦作市,新安路1731号,,43,33,58,14,29,136,136,119,119,5,14,9,12,0.3,0.5
2026-04-23T1800,4295A,113.2722,35.2121,焦作市,人民路3066号,,42,42,51,14,29,118,118,100,100,10,17,6,6,0.3,0.5
2026-04-23T1800,1708A,116.3701,23.5345,揭阳市,新兴,NA,NA,18,30,3,19,30,30,40,32,13,13,5,6,NA,0.6
2026-04-23T1800,1709A,116.3261,23.5442,揭阳市,西马,,18,18,34,3,18,32,32,34,31,11,14,4,5,0.8,0.8
2026-04-23T1800,1710A,116.361,23.5627,揭阳市,东兴,,13,13,29,6,17,21,21,35,27,18,14,2,3,/,/
2026-04-23T1800,1711A,116.4151,23.5295,揭阳市,渔湖,,14,14,36,8,20,30,30,37,35,17,17,2,5,/,/
2026-04-23T1800,3320A,116.4028,23.5699,揭阳市,曲溪,,11,NA,31,7,18,18,18,35,28,21,13,9,9,0.7,0.5
2026-04-23T1800,1944A,102.1691,38.5166,金昌市,天庆家园,颗粒物(PM10),144,234,167,62,53,120,120,117,117,2,13,6,12,0.4,0.4
2026-04-23T1800,4022A,102.1648,38.5369,金昌市,金川区人防中心,颗粒物(PM10),148,244,165,64,55,118,118,114,114,4,14,6,11,0.3,0.4
2026-04-23T1800,4239A,102.193042,38.531887,金昌市,长春路96号,细颗粒物(PM2.5),149,192,158,113,75,116,116,113,113,2,12,6,39,0.4,0.4
2026-04-23T1800,1262A,119.6478,29.0773,金华市,十五中,,23,23,12,12,6,51,51,50,43,25,17,2,2,0.7,0.7
2026-04-23T1800,1263A,119.6859,29.1032,金华市,监测站,,18,16,9,8,4,55,55,52,45,34,23,3,3,0.6,0.7
2026-04-23T1800,3659A,119.656,29.1132,金华市,气象局,,17,17,10,8,4,45,45,41,36,25,19,3,3,0.4,0.5
2026-04-23T1800,1767A,121.1114,41.0879,锦州市,南山,颗粒物(PM10),63,67,58,20,32,137,137,127,127,18,30,13,11,0.5,0.5
2026-04-23T1800,1768A,121.060361,40.842794,锦州市,开发区,NA,NA,NA,101,NA,40,119,119,110,110,NA,54,7,11,0.6,0.8
2026-04-23T1800,1769A,121.1836,41.1118,锦州市,百股街道,颗粒物(PM10),70,77,55,24,33,139,139,127,127,15,35,8,13,0.5,0.8
2026-04-23T1800,1770A,121.1176,41.1224,锦州市,天安街道,颗粒物(PM10),72,80,64,25,32,134,134,122,122,16,36,10,13,0.6,0.6
2026-04-23T1800,1771A,121.1303,41.1385,锦州市,北湖公园,颗粒物(PM10),62,66,54,25,28,138,138,124,124,14,22,13,22,0.5,0.5
2026-04-23T1800,2160A,112.8496,35.5051,晋城市,自来水公司,,49,49,59,21,17,144,144,131,131,22,23,7,6,0.2,0.5
2026-04-23T1800,2162A,112.8509,35.4886,晋城市,市环保局,颗粒物(PM10),54,55,57,25,28,137,137,127,127,10,21,8,6,0.4,0.6
2026-04-23T1800,3620A,112.8258,35.4804,晋城市,泽州一中,NA,NA,NA,54,NA,27,108,108,120,120,9,16,5,5,0.5,0.9
2026-04-23T1800,4078A,112.8246,35.5152,晋城市,前书院路,,43,41,55,15,18,135,135,126,126,12,23,9,8,0.9,1.1
2026-04-23T1800,4079A,112.8864,35.4773,晋城市,祥云街666号,,48,44,50,33,27,135,135,121,121,10,21,15,10,0.5,0.7
2026-04-23T1800,2174A,112.6992,37.6984,晋中市,榆次区政府,颗粒物(PM10),72,80,103,36,51,151,151,141,141,13,24,5,10,0.5,1.1
2026-04-23T1800,2865A,112.7195,37.683,晋中市,榆次三中,颗粒物(PM10),75,85,106,29,46,153,153,145,145,7,21,6,10,0.4,1
2026-04-23T1800,4080A,112.7375,37.7215,晋中市,广安街188号,颗粒物(PM10),69,76,96,27,45,149,149,140,140,12,22,4,6,0,0.6
2026-04-23T1800,4200A,112.7478,37.6954,晋中市,迎宾街26号,颗粒物(PM10),74,83,105,29,53,156,156,145,145,10,23,5,9,0.4,0.7
2026-04-23T1800,2439A,112.2012,31.048,荆门市,竹园小学,,35,32,31,18,16,112,112,109,109,13,19,1,3,0.3,0.4
2026-04-23T1800,2440A,112.1968,30.9892,荆门市,掇刀,,37,34,30,23,18,117,117,114,114,8,10,8,8,0.4,0.5
2026-04-23T1800,3012A,112.1849,31.0361,荆门市,西山林语,,35,NA,25,24,15,112,112,106,106,8,10,6,6,0.3,0.4
2026-04-23T1800,3547A,112.1631,31.0134,荆门市,龙泉中学南校,,39,38,28,27,13,123,123,118,118,10,12,5,5,0.3,0.3
2026-04-23T1800,4124A,112.2213,31.0654,荆门市,新台西路6号,,36,36,37,21,20,114,114,110,110,6,16,7,7,0.5,0.6
2026-04-23T1800,1844A,112.2493,30.3198,荆州市,市图书馆,NA,NA,33,22,24,20,103,103,103,103,NA,19,9,7,NA,0.7
2026-04-23T1800,1845A,112.2009,30.3543,荆州市,市委党校,,30,27,30,14,19,93,93,91,91,10,18,7,7,0.4,0.4
2026-04-23T1800,3194A,112.2749,30.3124,荆州市,管委会,,33,NA,26,23,22,94,94,95,95,14,17,8,7,0.4,0.4
2026-04-23T1800,4268A,112.1722,30.3366,荆州市,学苑路85号,,43,NA,26,30,20,120,120,116,116,5,14,4,4,0.5,0.5
2026-04-23T1800,2343A,117.2114,29.2931,景德镇市,老干部活动中心,,15,10,11,10,9,41,41,50,42,14,5,12,5,0.6,0.6
2026-04-23T1800,2344A,117.1893,29.2789,景德镇市,兽医站,,28,28,17,3,5,40,40,48,48,26,9,4,4,0.5,0.5
2026-04-23T1800,2346A,117.246,29.2958,景德镇市,陶研所,,13,12,11,9,8,41,41,46,46,19,11,9,4,0.8,0.6
2026-04-23T1800,4289A,117.154766,29.256967,景德镇市,青少年活动中心,,16,16,14,11,8,45,45,48,48,18,9,10,12,/,/
2026-04-23T1800,1803A,115.9873,29.6816,九江市,十里,,42,42,33,28,19,64,64,59,59,25,22,7,6,1.0,0.9
2026-04-23T1800,1804A,115.9583,29.7047,九江市,茅山头,,39,33,29,27,22,57,57,58,58,29,16,4,4,0.8,0.7
2026-04-23T1800,1805A,115.9877,29.7295,九江市,西园,,32,32,26,21,19,64,64,62,62,32,22,5,4,0.8,0.7
2026-04-23T1800,1808A,115.9112,29.6038,九江市,综合工业园,,40,40,26,26,19,67,67,62,62,30,22,8,7,0.8,0.6
2026-04-23T1800,3190A,116.0254,29.6995,九江市,外国语学校,,40,35,28,28,20,54,54,53,53,30,21,10,9,1.0,0.9
2026-04-23T1800,4253A,116.010205,29.659402,九江市,莲花大道8号,颗粒物(PM10),53,53,31,27,20,57,57,59,59,25,13,5,3,0.7,0.6
2026-04-23T1800,4240A,98.495752,39.733935,酒泉市,玉门东路5号,颗粒物(PM10),79,90,177,31,61,109,109,103,103,3,9,6,7,0.2,0.2
2026-04-23T1800,4241A,98.5099,39.7506,酒泉市,北大街108号,NA,NA,NA,183,NA,59,NA,NA,95,95,NA,10,NA,8,NA,0.3
2026-04-23T1800,2698A,76.0071,39.466,喀什地区,巡警大队,细颗粒物(PM2.5),308,277,354,258,134,126,126,92,92,4,39,4,5,0.1,0.4
2026-04-23T1800,2699A,75.9756,39.4693,喀什地区,吾办,NA,NA,NA,359,NA,130,NA,NA,107,NA,NA,36,NA,8,NA,0.9
2026-04-23T1800,4027A,75.9485,39.4688,喀什地区,老干局,颗粒物(PM10),161,271,331,83,101,129,129,100,100,5,29,4,3,0.4,0.5
2026-04-23T1800,1824A,114.3389,34.778,开封市,肿瘤医院,,35,21,35,16,27,111,111,120,120,12,15,6,6,0.6,0.7
2026-04-23T1800,1826A,114.2884,34.7966,开封市,世纪星幼儿园,,35,23,35,19,24,111,111,116,116,8,10,6,6,0.5,0.6
2026-04-23T1800,3147A,114.3434,34.8101,开封市,龙亭公园,,37,30,35,10,23,116,116,126,125,15,17,7,7,0.3,0.4
2026-04-23T1800,3210A,114.3645,34.7955,开封市,汴京公园,,36,31,37,14,24,115,115,122,122,11,14,4,4,0.4,0.5
2026-04-23T1800,3473A,114.2485,34.8306,开封市,技师学院,,36,27,38,9,23,115,115,119,119,9,14,4,4,0.3,0.4
2026-04-23T1800,3592A,114.4518,34.7503,开封市,祥符区生态环境局,,34,16,44,16,26,108,108,116,116,14,21,7,7,0.4,0.5
2026-04-23T1800,1951A,84.886,45.6029,克拉玛依市,长征新村,,48,36,40,33,18,136,136,119,119,4,12,9,7,0.5,0.6
2026-04-23T1800,1952A,84.8894,45.5827,克拉玛依市,南林小区,,41,41,52,12,6,131,131,113,113,1,18,2,3,0.1,0.3
2026-04-23T1800,1954A,84.896,44.3328,克拉玛依市,独山子区,,46,46,41,8,9,134,134,123,123,5,11,6,6,0.4,0.4
2026-04-23T1800,1955A,85.6888,46.0909,克拉玛依市,乌尔禾区商贸楼,颗粒物(PM10),73,81,52,20,17,124,124,113,113,7,12,5,4,0.2,0.3
2026-04-23T1800,3612A,85.1045,45.6895,克拉玛依市,白碱滩区新站,颗粒物(PM10),52,52,72,23,22,145,145,124,124,4,12,12,9,0.3,0.2
2026-04-23T1800,2697A,76.1457,39.7143,克孜勒苏柯尔克孜自治州,市人民政府,颗粒物(PM10),161,272,284,106,108,126,126,105,105,4,11,4,9,0.1,0.1
2026-04-23T1800,3665A,76.1654,39.7157,克孜勒苏柯尔克孜自治州,克州文化中心,颗粒物(PM10),163,275,293,94,124,127,127,102,102,2,19,3,8,0.0,0.2
2026-04-23T1800,1450A,102.8203,24.889,昆明市,呈贡新区,细颗粒物(PM2.5),60,55,46,40,32,152,152,136,136,13,15,4,5,0.4,0.5
2026-04-23T1800,1452A,102.7253,25.0904,昆明市,龙泉镇,NA,NA,69,46,46,27,91,91,124,124,NA,14,5,5,0.7,0.6
2026-04-23T1800,1453A,102.7267,25.0378,昆明市,东风东路,颗粒物(PM10),58,60,53,38,30,152,152,140,140,18,14,3,3,0.6,0.6
2026-04-23T1800,1454A,102.6744,25.0671,昆明市,金鼎山,颗粒物(PM10),77,87,54,48,31,133,133,133,133,27,14,3,3,0.9,0.7
2026-04-23T1800,1455A,102.6643,25.0401,昆明市,碧鸡广场,细颗粒物(PM2.5),72,48,53,46,31,146,146,132,132,24,18,7,6,0.6,0.5
2026-04-23T1800,3179A,102.7491,25.012,昆明市,官渡区博物馆,颗粒物(PM10),60,63,55,38,31,143,143,138,138,20,18,4,5,0.5,0.6
2026-04-23T1800,3375A,102.8016,24.8336,昆明市,青年创业园,,50,43,59,35,35,148,148,137,137,8,12,5,6,0.5,0.6
2026-04-23T1800,3550A,102.8,24.9787,昆明市,昆明学院,颗粒物(PM10),52,52,55,29,28,141,141,137,137,22,17,5,6,0.4,0.5
2026-04-23T1800,3551A,102.5969,24.6738,昆明市,晋宁区生态环境分局,细颗粒物(PM2.5),52,50,57,36,39,145,145,139,139,9,11,6,5,0.4,0.5
2026-04-23T1800,3552A,102.6673,24.9861,昆明市,云天化总部,,50,42,53,35,28,154,154,136,136,12,17,5,5,0.7,0.6
2026-04-23T1800,1456A,91.132,29.6515,拉萨市,八廓街,,37,14,31,3,11,118,118,112,112,4,10,4,4,0.1,0.2
2026-04-23T1800,1457A,91.1221,29.6748,拉萨市,市环保局,,34,12,27,3,12,107,107,105,105,10,14,4,7,0.2,0.1
2026-04-23T1800,1458A,91.0874,29.6476,拉萨市,区监测站,,35,18,27,3,10,109,109,105,105,10,23,4,5,0.3,0.3
2026-04-23T1800,1459A,91.1774,29.6541,拉萨市,西藏大学,,34,12,29,3,10,108,108,106,106,8,14,3,4,0.2,0.3
2026-04-23T1800,1460A,90.9798,29.6586,拉萨市,区辐射站,,31,15,30,8,10,98,98,95,95,12,16,4,7,0.2,0.3
2026-04-23T1800,1461A,91.0831,29.6292,拉萨市,拉萨火车站,,35,16,29,6,12,110,110,101,101,7,18,3,4,0.2,0.3
2026-04-23T1800,2520A,109.2203,23.7252,来宾市,来宾技工学校,NA,NA,19,17,6,5,83,83,77,77,4,6,NA,8,0.4,0.5
2026-04-23T1800,3535A,109.1781,23.7293,来宾市,兴宾区政府,,28,19,17,3,3,88,88,81,81,4,3,7,8,0.5,0.5
2026-04-23T1800,4002A,109.2312,23.7428,来宾市,中南小学,,29,13,14,3,5,90,90,84,84,6,7,6,7,0.4,0.5
2026-04-23T1800,1479A,103.8309,36.0467,兰州市,铁路设计院,细颗粒物(PM2.5),129,170,119,91,61,110,110,119,119,13,49,5,8,0.6,1
2026-04-23T1800,3241A,103.7439,36.0841,兰州市,百合公园,颗粒物(PM10),125,184,104,63,47,114,114,145,145,8,36,3,7,0.1,0.4
2026-04-23T1800,3242A,103.9613,35.9985,兰州市,和平,颗粒物(PM10),146,238,100,88,57,124,124,137,137,5,14,8,9,0.3,0.4
2026-04-23T1800,4236A,103.629272,36.093822,兰州市,庄浪东路808号,细颗粒物(PM2.5),117,156,104,78,52,117,117,199,198,7,27,9,12,0.2,0.4
2026-04-23T1800,4237A,103.7251,36.104344,兰州市,安宁西路88号,颗粒物(PM10),146,239,118,92,54,126,126,154,154,7,33,8,12,0.2,0.4
2026-04-23T1800,4238A,103.846982,36.067567,兰州市,北滨河东路1号,颗粒物(PM10),122,177,109,64,48,115,115,138,138,11,46,9,10,0.4,0.7
2026-04-23T1800,1067A,116.6712,39.5109,廊坊市,药材公司,,48,48,57,25,42,137,137,132,132,7,20,2,2,0.4,0.5
2026-04-23T1800,1068A,116.7215,39.5592,廊坊市,开发区,颗粒物(PM10),53,53,65,33,45,144,144,138,138,6,23,3,4,0.3,0.4
2026-04-23T1800,1070A,116.7246,39.5273,廊坊市,北华航天学院,,48,48,61,14,33,142,142,138,138,8,25,3,4,0.3,0.4
2026-04-23T1800,2919A,116.7022,39.5454,廊坊市,河北工业大学,,50,50,58,20,38,139,139,131,131,9,23,3,4,0.2,0.4
2026-04-23T1800,2536A,103.7629,29.5844,乐山市,牛耳桥,,37,20,34,8,19,117,117,103,103,16,20,4,4,0.4,0.6
2026-04-23T1800,2537A,103.7501,29.6002,乐山市,市第三水厂,,38,28,34,7,18,121,121,103,103,14,21,4,5,0.5,0.7
2026-04-23T1800,2538A,103.7571,29.5664,乐山市,市监测站,,36,24,34,6,14,113,113,94,94,10,17,3,4,0.3,0.7
2026-04-23T1800,3361A,103.7313,29.563,乐山市,理工大学,,39,28,32,3,15,124,124,105,105,9,17,4,4,0.3,0.5
2026-04-23T1800,2599A,100.2497,26.8802,丽江市,丽江古城,NA,NA,31,22,3,6,112,112,105,105,NA,6,11,8,NA,0.7
2026-04-23T1800,2600A,100.2203,26.8906,丽江市,市中心,,37,27,15,3,6,116,116,107,107,10,10,5,5,0.4,0.5
2026-04-23T1800,1267A,119.9141,28.4513,丽水市,监测站大楼,,18,15,9,6,4,56,56,54,54,15,13,4,4,0.5,0.4
2026-04-23T1800,1268A,119.93,28.4589,丽水市,莲都小学,,18,13,10,3,4,56,56,53,53,15,13,/,/,/,/
2026-04-23T1800,1269A,119.8794,28.4232,丽水市,余庄前,,12,11,10,3,4,38,38,42,42,13,11,5,5,0.4,0.5
2026-04-23T1800,1173A,119.1759,34.5885,连云港市,市环境监测站,,36,31,36,7,14,114,114,102,102,17,28,10,13,0.6,0.7
2026-04-23T1800,3000A,119.3577,34.6971,连云港市,德源药业,,46,46,35,12,13,118,118,112,112,27,38,6,9,0.6,0.7
2026-04-23T1800,3007A,119.178,34.8442,连云港市,新城一中,,40,39,47,8,21,127,127,118,118,18,26,6,26,0.7,0.9
2026-04-23T1800,3008A,119.3607,34.7519,连云港市,胡沟管理处,,30,19,11,7,5,96,96,115,115,46,19,11,11,0.5,0.6
2026-04-23T1800,3009A,119.1478,34.5913,连云港市,矿山设计院,,38,36,37,12,14,120,120,106,106,21,28,21,24,0.7,0.8
2026-04-23T1800,3434A,119.2414,34.6539,连云港市,工贸学校,,38,34,40,14,17,121,121,114,114,14,22,7,9,0.5,0.6
2026-04-23T1800,3664A,119.4171,34.734,连云港市,连云街道,颗粒物(PM10),68,75,30,26,10,97,97,104,104,36,23,9,10,0.5,0.6
2026-04-23T1800,2573A,102.2629,27.8981,凉山彝族自治州,西昌市政府,,32,21,13,14,7,102,102,102,102,18,5,7,3,0.7,0.4
2026-04-23T1800,2574A,102.2686,27.885,凉山彝族自治州,凉山州政府,,28,27,13,14,7,89,89,89,89,18,6,7,4,0.7,0.4
2026-04-23T1800,4229A,102.2342,27.8859,凉山彝族自治州,凯乐南路30号,,30,27,15,16,7,93,93,91,91,18,10,6,3,0.6,0.5
2026-04-23T1800,2212A,123.1978,41.2036,辽阳市,宏伟区,颗粒物(PM10),68,75,53,30,16,131,131,119,119,14,14,7,7,0.4,0.5
2026-04-23T1800,2213A,123.1684,41.2497,辽阳市,新华园,颗粒物(PM10),71,79,58,35,22,130,130,119,119,25,27,15,12,0.8,0.7
2026-04-23T1800,2214A,123.2355,41.2663,辽阳市,滨河路,颗粒物(PM10),69,76,51,39,20,126,126,114,114,20,26,13,10,0.7,0.7
2026-04-23T1800,4083A,123.153,41.2874,辽阳市,铁西路150号,颗粒物(PM10),75,84,60,39,21,112,112,106,106,22,23,13,9,0.7,0.6
2026-04-23T1800,2227A,125.1359,42.8845,辽源市,环保局,,37,37,37,17,18,113,113,112,112,17,20,8,7,0.5,0.5
2026-04-23T1800,4085A,125.0998,42.9134,辽源市,安宁大街333号,,39,39,38,17,19,121,121,115,115,11,18,7,6,0.4,0.5
2026-04-23T1800,1625A,115.9789,36.4372,聊城市,区政府,,40,40,49,6,23,120,120,115,115,5,15,5,6,0.6,0.7
2026-04-23T1800,3200A,115.9772,36.4986,聊城市,监控中心,,48,48,54,10,22,129,129,124,124,6,28,7,8,0.4,0.4
2026-04-23T1800,3513A,116.0443,36.436,聊城市,九州社区,,50,46,54,35,30,130,130,129,129,11,21,5,6,0.4,0.5
2026-04-23T1800,4018A,116.0564,36.4609,聊城市,星美广场,,44,44,54,8,26,116,116,111,111,8,17,4,6,0.3,0.4
2026-04-23T1800,4113A,116.0091,36.4495,聊城市,利民路,,41,35,40,8,24,131,131,124,124,7,18,9,9,0.4,0.5
2026-04-23T1800,2632A,94.3683,29.6373,林芝市,林芝监测站,,34,24,20,16,10,107,107,98,98,5,8,2,3,0.4,0.4
2026-04-23T1800,2633A,94.3616,29.6634,林芝市,林芝人民医院,,35,27,22,3,10,110,110,99,99,3,3,4,4,0.3,0.4
2026-04-23T1800,2603A,100.0779,23.8981,临沧市,市环保局,细颗粒物(PM2.5),90,81,64,55,43,129,129,136,136,10,9,7,7,0.7,0.8
2026-04-23T1800,2604A,100.0894,23.882,临沧市,市气象局,细颗粒物(PM2.5),68,62,70,44,49,138,138,139,139,8,10,8,8,0.6,0.6
2026-04-23T1800,1733A,111.5552,36.0791,临汾市,临钢医院,颗粒物(PM10),53,54,63,29,35,150,150,134,134,12,19,10,8,0.9,1
2026-04-23T1800,1734A,111.4984,36.0734,临汾市,技工学校,NA,NA,42,60,23,42,144,144,122,122,NA,23,10,9,0.8,0.9
2026-04-23T1800,1736A,111.5017,36.0857,临汾市,市委,,47,44,62,19,33,150,150,129,129,11,18,10,8,1.0,1.1
2026-04-23T1800,3018A,111.5048,36.1015,临汾市,唐尧大酒店,颗粒物(PM10),63,67,73,12,33,148,148,134,134,12,19,10,8,0.9,1
2026-04-23T1800,4244A,111.4879,36.053,临汾市,启星学校,,44,43,58,20,35,140,140,122,122,16,26,9,7,0.8,1
2026-04-23T1800,4271A,103.2464,35.6123,临夏回族自治州,滨河东路1号,颗粒物(PM10),107,137,114,61,50,84,84,103,103,20,23,10,10,0.2,0.4
2026-04-23T1800,4310A,103.207136,35.599807,临夏回族自治州,新华街21号,颗粒物(PM10),97,115,103,51,49,87,87,83,83,6,15,8,7,0.1,0.4
2026-04-23T1800,1618A,118.3429,35.0532,临沂市,沂河小区,颗粒物(PM10),53,53,50,18,20,131,131,122,122,19,25,14,11,0.3,0.4
2026-04-23T1800,1619A,118.2962,35.0568,临沂市,鲁南制药厂,,46,46,52,20,24,142,142,134,134,15,23,14,16,0.1,0.3
2026-04-23T1800,1620A,118.2793,34.9976,临沂市,新光毛纺厂,,44,44,51,17,28,136,136,127,127,16,28,14,16,0.1,0.4
2026-04-23T1800,1621A,118.3955,35.0889,临沂市,河东保险公司,,45,41,47,15,20,144,144,132,132,19,28,12,10,0.2,0.3
2026-04-23T1800,3370A,118.3563,35.0215,临沂市,十里堡居委,,44,39,43,18,23,140,140,135,135,17,25,12,10,0.3,0.5
2026-04-23T1800,3496A,118.359,35.1067,临沂市,南坊新区,,48,48,49,17,24,136,136,128,128,19,24,14,11,0.1,0.2
2026-04-23T1800,3860A,118.3915,35.0297,临沂市,皇山花园小区,,46,46,45,13,21,145,145,140,140,19,27,11,10,0.3,0.4
2026-04-23T1800,1870A,109.4854,24.3898,柳州市,柳东小学,,21,7,11,3,3,65,65,62,62,3,4,4,4,0.6,0.7
2026-04-23T1800,1871A,109.4109,24.3304,柳州市,环保监测站,NA,NA,6,12,3,3,63,63,58,58,NA,7,4,5,0.7,0.8
2026-04-23T1800,1872A,109.3886,24.3408,柳州市,河西水厂,,23,6,10,3,4,72,72,66,66,6,8,9,11,0.5,0.6
2026-04-23T1800,1873A,109.4263,24.2951,柳州市,市四中,,20,14,12,3,2,62,62,59,59,6,6,6,7,0.4,0.5
2026-04-23T1800,1874A,109.396,24.3658,柳州市,市九中,,20,12,13,3,3,64,64,60,60,4,6,4,6,0.3,0.4
2026-04-23T1800,1875A,109.4912,24.3164,柳州市,古亭山,NA,NA,NA,10,2,3,64,64,28,NA,4,5,4,4,0.7,0.7
2026-04-23T1800,3402A,109.5422,24.3994,柳州市,市二中,,20,7,10,3,3,64,64,62,62,5,7,7,7,0.5,0.5
2026-04-23T1800,2307A,116.5078,31.7369,六安市,监测大楼,,25,13,6,7,5,77,77,76,76,12,10,3,4,0.3,0.3
2026-04-23T1800,2308A,116.4738,31.7642,六安市,皖西学院,,29,14,7,7,5,91,91,86,86,6,8,4,4,0.2,0.3
2026-04-23T1800,2309A,116.4997,31.7904,六安市,朝阳厂,,29,9,5,6,7,90,90,83,83,7,9,5,5,0.2,0.3
2026-04-23T1800,2310A,116.5566,31.7885,六安市,开发区,,30,NA,4,3,5,93,93,88,88,10,13,4,4,0.3,0.3
2026-04-23T1800,2577A,104.8293,26.592,六盘水市,黄土坡,,35,21,19,9,10,110,110,113,113,9,8,6,6,0,0
2026-04-23T1800,2579A,104.8481,26.5898,六盘水市,民中,,34,17,18,10,9,106,106,110,110,10,8,4,4,0.4,0.4
2026-04-23T1800,2580A,104.9541,26.5506,六盘水市,双水,,31,22,23,8,11,99,99,103,103,6,8,4,5,0.2,0.4
2026-04-23T1800,4151A,104.8899,26.5685,六盘水市,钟山大道中段564号,,33,22,28,14,11,104,104,104,104,6,12,2,6,0.1,0.6
2026-04-23T1800,2336A,117.022,25.1031,龙岩市,龙岩市监测站,,11,7,15,6,12,34,34,43,40,14,9,6,6,0.7,0.6
2026-04-23T1800,2337A,117.0257,25.0662,龙岩市,闽西职业技术学院,,12,7,16,3,13,38,38,40,40,7,8,6,5,0.8,0.7
2026-04-23T1800,2338A,117.0195,25.0306,龙岩市,龙岩学院,,19,19,20,3,12,37,37,39,39,9,7,4,5,/,/
2026-04-23T1800,2885A,104.9344,33.3827,陇南市,滨江中学,颗粒物(PM10),73,82,68,38,31,98,98,94,94,5,12,8,8,0.4,0.7
2026-04-23T1800,3247A,104.9551,33.3709,陇南市,市总工会,颗粒物(PM10),62,66,57,36,26,95,95,90,90,5,9,8,8,0.4,0.5
2026-04-23T1800,2488A,111.9984,27.7346,娄底市,市监测站,,30,24,25,11,15,93,93,94,94,8,16,4,8,0.4,0.5
2026-04-23T1800,2491A,111.9888,27.7035,娄底市,市政府,,32,19,22,3,14,100,100,102,102,10,10,3,4,0.3,0.4
2026-04-23T1800,4127A,111.9812,27.7591,娄底市,涟钢职大,NA,NA,23,17,NA,8,96,96,80,80,8,9,4,3,0.4,0.5
2026-04-23T1800,4128A,112.0303,27.7457,娄底市,娄底体校,,31,31,22,10,14,88,88,84,84,4,8,4,4,0.1,0.3
2026-04-23T1800,1894A,105.4427,28.9063,泸州市,小市上码头,,35,13,23,3,12,112,112,104,104,9,17,7,7,0.4,0.5
2026-04-23T1800,1895A,105.4241,28.8573,泸州市,兰田宪桥,,34,15,26,10,16,108,108,102,102,12,16,7,7,0.4,0.5
2026-04-23T1800,1896A,105.4378,28.8833,泸州市,市环监站,,36,14,24,6,12,113,113,104,104,10,18,10,9,0.6,0.8
2026-04-23T1800,4272A,105.3689,28.7783,泸州市,纳溪中医医院,,38,17,35,6,17,121,121,105,105,8,15,4,5,0.4,0.5
2026-04-23T1800,2183A,111.1447,37.5212,吕梁市,环保局,颗粒物(PM10),75,85,80,26,21,126,126,123,123,11,33,3,5,0.4,0.5
2026-04-23T1800,2185A,111.1285,37.5338,吕梁市,自来水公司,颗粒物(PM10),69,76,86,23,24,125,125,121,121,9,32,2,5,0.4,0.5
2026-04-23T1800,2867A,111.1225,37.5093,吕梁市,马茂庄小学,颗粒物(PM10),85,98,91,22,20,126,126,123,123,12,42,3,3,0.3,0.5
2026-04-23T1800,1812A,112.3934,34.6517,洛阳市,市委党校,,38,25,33,14,18,120,120,110,110,10,17,10,8,0.4,0.6
2026-04-23T1800,1815A,112.494,34.6883,洛阳市,河南林校,,39,37,44,12,17,123,123,111,111,11,25,11,11,0.5,0.6
2026-04-23T1800,1816A,112.3843,34.623,洛阳市,开发区管委会,NA,NA,NA,37,24,20,122,122,122,122,12,16,14,11,0.4,0.7
2026-04-23T1800,1817A,112.4263,34.6249,洛阳市,市委新办公区,,43,43,38,17,19,122,122,110,110,14,18,10,10,0.4,0.5
2026-04-23T1800,3340A,112.6005,34.6323,洛阳市,伊滨,,38,38,37,10,19,116,116,110,110,14,20,9,10,0.3,0.4
2026-04-23T1800,3341A,112.495,34.6338,洛阳市,中移产业园,,38,27,34,12,19,120,120,110,110,9,16,9,10,0.2,0.4
2026-04-23T1800,3593A,112.5736,34.8993,洛阳市,吉利监测站,,42,26,39,15,21,132,132,111,111,12,17,10,8,0.3,0.5
2026-04-23T1800,3635A,112.3678,34.6623,洛阳市,河科大西苑校区,,40,27,33,16,19,128,128,119,119,10,17,14,9,0.4,0.5
2026-04-23T1800,3636A,112.4387,34.678,洛阳市,英才小学,,37,27,48,18,27,117,117,113,113,12,28,8,10,0.4,0.5
2026-04-23T1800,4214A,112.460027,34.694929,洛阳市,春都路1号院,,42,42,49,19,24,131,131,120,120,12,28,10,10,0.4,0.6
2026-04-23T1800,2399A,114.051,33.5721,漯河市,三五一五工厂,,39,NA,48,27,33,106,106,109,109,13,21,4,5,0.4,0.5
2026-04-23T1800,2400A,114.0055,33.5698,漯河市,漯河大学,,42,NA,41,29,30,100,100,106,106,17,23,5,6,0.3,0.4
2026-04-23T1800,2401A,114.0134,33.5826,漯河市,市水利局,,42,29,42,29,31,101,101,109,109,9,16,4,5,0.4,0.5
2026-04-23T1800,2402A,114.0261,33.5697,漯河市,市广电局,,35,NA,40,24,31,105,105,112,111,13,20,4,5,0.3,0.4
2026-04-23T1800,3478A,113.9691,33.568,漯河市,市图书馆,,31,28,41,18,28,98,98,107,107,12,18,5,6,0.5,0.6
2026-04-23T1800,4250A,114.089259,33.588274,漯河市,韶山路11号,,32,30,48,20,32,102,102,101,101,8,26,5,7,0.3,0.4
2026-04-23T1800,1798A,118.5084,31.6838,马鞍山市,湖东路四小,,33,20,12,6,6,103,103,95,95,12,14,5,5,0.4,0.4
2026-04-23T1800,1799A,118.5019,31.6449,马鞍山市,开发区,,33,18,10,7,5,105,105,97,97,13,14,5,5,0.4,0.4
2026-04-23T1800,3633A,118.4914,31.681,马鞍山市,雨山,,33,31,11,8,6,105,105,96,96,14,16,9,10,0.4,0.4
2026-04-23T1800,4191A,118.527362,31.722269,马鞍山市,慈湖高新区,,33,14,11,3,7,104,104,95,95,11,14,5,6,0.3,0.4
2026-04-23T1800,1686A,111.0285,21.469,茂名市,电白南海,颗粒物(PM10),53,53,39,34,21,40,40,51,42,17,9,11,6,0.9,0.8
2026-04-23T1800,1687A,110.9294,21.6533,茂名市,茂石化七小,,27,27,35,17,21,57,57,42,42,15,13,7,7,0.8,0.6
2026-04-23T1800,1688A,110.9108,21.6688,茂名市,健康路,NA,NA,24,29,13,22,58,58,42,42,NA,11,10,6,0.9,0.7
2026-04-23T1800,1689A,110.8592,21.6826,茂名市,高岭,,29,29,41,13,20,53,53,42,42,12,10,26,8,/,/
2026-04-23T1800,3450A,111.0101,21.5165,茂名市,电白水东,细颗粒物(PM2.5),60,56,29,40,22,38,38,49,41,16,8,8,3,/,/
2026-04-23T1800,2540A,103.8414,30.0871,眉山市,气象局,,50,50,53,7,25,137,137,106,106,9,23,8,7,0.7,0.7
2026-04-23T1800,3148A,103.829,30.0563,眉山市,区人社局,,44,44,54,8,29,129,129,108,108,16,29,8,9,0.7,0.8
2026-04-23T1800,4148A,103.8836,30.0695,眉山市,眉职院,,44,32,53,9,22,140,140,112,112,8,20,10,9,0.8,0.8
2026-04-23T1800,1690A,116.1248,24.3307,梅州市,梅江月梅,,12,12,22,3,11,31,31,41,31,10,12,/,/,/,/
2026-04-23T1800,1691A,116.0798,24.2719,梅州市,梅县新城,,11,10,21,3,11,35,35,46,33,10,12,8,8,0.6,0.5
2026-04-23T1800,3315A,116.1234,24.2994,梅州市,梅龙,,12,6,17,3,11,36,36,46,37,8,10,6,6,0.6,0.6
2026-04-23T1800,1878A,104.7775,31.4741,绵阳市,富乐山,,43,43,39,29,28,93,93,107,107,12,20,7,7,0.6,0.7
2026-04-23T1800,1880A,104.6698,31.4668,绵阳市,高新区自来水公司,,46,46,48,24,26,124,124,110,110,16,24,7,7,0.7,0.7
2026-04-23T1800,3491A,104.6899,31.5324,绵阳市,西科大附属小学,颗粒物(PM10),53,53,49,30,28,100,100,107,107,38,24,5,5,0.5,0.4
2026-04-23T1800,3492A,104.5647,31.5343,绵阳市,安州区旅游局,颗粒物(PM10),56,58,41,24,22,132,132,108,108,17,12,6,6,0.4,0.3
2026-04-23T1800,4146A,104.7092,31.4972,绵阳市,科技城新区公安局,,44,44,52,22,26,112,112,106,106,18,22,5,7,0.6,0.6
2026-04-23T1800,4226A,104.765114,31.453094,绵阳市,绵阳市气象局,颗粒物(PM10),52,52,48,21,29,80,80,99,99,55,25,9,10,0.4,0.5
2026-04-23T1800,1784A,129.61,44.561,牡丹江市,环保大楼,颗粒物(PM10),94,111,35,39,19,82,82,108,107,16,12,4,2,0.3,0.2
2026-04-23T1800,1787A,129.6364,44.6075,牡丹江市,机车工厂,颗粒物(PM10),98,116,48,40,21,73,73,101,100,13,16,6,7,0.2,0.3
2026-04-23T1800,1788A,129.6386,44.5462,牡丹江市,第一中学,颗粒物(PM10),68,74,30,42,16,78,78,107,106,15,12,5,3,0.3,0.2
2026-04-23T1800,4287A,129.5992,44.5964,牡丹江市,东晓云街98号,颗粒物(PM10),78,89,44,28,18,76,76,106,105,8,9,4,3,0.4,0.3
2026-04-23T1800,2531A,105.0703,29.61,内江市,市监测站,,44,30,41,13,25,138,138,125,125,10,20,8,9,0.4,0.6
2026-04-23T1800,2533A,105.0657,29.5807,内江市,内江二中,,44,36,32,11,21,140,140,125,125,10,22,8,7,0.2,0.3
2026-04-23T1800,2534A,105.0407,29.5828,内江市,内江日报社,,45,31,34,15,24,141,141,125,125,11,23,9,8,0.3,0.5
2026-04-23T1800,4147A,105.0433,29.6105,内江市,玉峰路西段888号,,44,29,35,15,25,139,139,127,127,10,20,4,4,0.4,0.5
2026-04-23T1800,2628A,92.0653,31.4846,那曲市,那曲监测站,,30,20,65,7,31,94,94,93,93,6,26,3,7,0.6,1.2
2026-04-23T1800,4243A,92.0515,31.4787,那曲市,那曲市委宣传部,,32,18,42,3,20,100,100,98,98,1,14,3,6,0.4,0.8
2026-04-23T1800,1291A,115.8887,28.7006,南昌市,省林业公司,,19,NA,9,8,10,59,59,67,67,13,9,3,5,0.5,0.3
2026-04-23T1800,1292A,115.813,28.7443,南昌市,林科所,,20,NA,9,7,10,64,64,68,68,7,9,7,7,0.6,0.7
2026-04-23T1800,1294A,115.8518,28.687,南昌市,建工学校,,20,13,20,8,11,61,61,66,66,14,10,5,5,0.6,0.6
2026-04-23T1800,1295A,115.8926,28.6425,南昌市,象湖,,20,NA,10,7,12,62,62,66,66,16,14,7,8,0.7,0.7
2026-04-23T1800,3046A,115.9084,28.6062,南昌市,机电学校,,22,22,21,7,12,68,68,70,70,14,13,4,5,0.4,0.5
2026-04-23T1800,3690A,115.9718,28.7032,南昌市,外国语学校,,20,13,15,8,11,64,64,69,69,20,15,8,8,0.5,0.6
2026-04-23T1800,4106A,115.7923,28.6873,南昌市,工业二路,颗粒物(PM10),75,85,22,7,10,61,61,63,63,8,8,5,4,0.5,0.5
2026-04-23T1800,4192A,115.931587,28.686774,南昌市,南京东路235号,,22,10,20,6,10,70,70,74,74,12,10,6,5,0.5,0.5
2026-04-23T1800,1906A,106.0791,30.8022,南充市,南充市委,,37,25,24,10,13,116,116,105,105,10,20,7,7,0.2,0.4
2026-04-23T1800,1907A,106.1038,30.8215,南充市,南充炼油厂,,36,32,31,10,15,113,113,103,103,9,18,4,4,0.2,0.3
2026-04-23T1800,4227A,106.108336,30.788436,南充市,梨树横街98号,,36,25,25,8,15,115,115,103,103,7,19,6,7,0.2,0.4
2026-04-23T1800,4304A,106.1172,30.843,南充市,清泉寺北路188号,,39,19,24,3,12,122,122,106,106,6,14,6,6,0.3,0.4
2026-04-23T1800,4305A,106.067,30.7616,南充市,同庆路1号,,37,20,22,12,13,118,118,103,103,8,18,7,7,0.2,0.3
2026-04-23T1800,1151A,118.8033,32.1085,南京市,迈皋桥,,33,33,15,3,0,97,97,106,106,26,14,8,5,0.3,0.5
2026-04-23T1800,1152A,118.7487,32.057,南京市,草场门,,33,31,13,3,3,104,104,99,99,19,16,4,3,0.2,0.2
2026-04-23T1800,1154A,118.770105,32.004342,南京市,中华门,,35,31,14,3,3,111,111,104,104,14,12,9,8,0.4,0.4
2026-04-23T1800,1155A,118.8059,32.0329,南京市,瑞金路,,35,27,13,3,3,110,110,101,101,11,11,4,5,0.5,0.5
2026-04-23T1800,1156A,118.7946,32.0774,南京市,玄武湖,,28,22,15,6,1,87,87,92,92,23,9,4,4,0.3,0.3
2026-04-23T1800,1157A,118.6415,32.0964,南京市,浦口,,38,38,18,3,2,96,96,88,88,18,12,4,4,0.3,0.4
2026-04-23T1800,1158A,118.730129,32.000956,南京市,奥体中心,,31,31,15,3,2,94,94,83,83,14,14,7,7,0.2,0.2
2026-04-23T1800,1159A,118.9072,32.1047,南京市,仙林大学城,,46,46,18,6,2,91,91,97,97,27,16,11,8,0.5,0.4
2026-04-23T1800,3422A,118.8443,31.919,南京市,江宁彩虹桥,NA,NA,26,10,3,0,122,122,113,113,14,16,NA,4,0.4,0.4
2026-04-23T1800,3427A,118.8497,32.3599,南京市,六合雄州,,34,23,19,3,4,107,107,101,101,15,19,4,4,0.3,0.5
2026-04-23T1800,4086A,118.7641,32.0841,南京市,新模范马路66号,,36,36,16,8,3,96,96,102,102,21,12,4,4,0.3,0.3
2026-04-23T1800,4249A,118.8707617,31.34017673,南京市,汶溪路181号,,48,48,12,7,1,105,105,95,95,23,14,10,5,0.4,0.3
2026-04-23T1800,4312A,119.019,31.6512,南京市,中山西路1号,,32,31,9,3,1,101,101,93,93,16,13,4,4,0.5,0.4
2026-04-23T1800,1401A,108.3098,22.788,南宁市,二十一中,,29,29,16,6,9,84,84,79,79,10,10,3,3,0.4,0.5
2026-04-23T1800,1402A,108.3135,22.8529,南宁市,北湖,,28,14,17,10,11,87,87,84,84,11,11,4,7,0.5,0.6
2026-04-23T1800,1403A,108.3205,22.8222,南宁市,市监测站,,28,22,18,6,8,87,87,84,84,12,10,3,5,0.5,0.4
2026-04-23T1800,1404A,108.3828,22.8038,南宁市,大自然花园,,26,23,18,6,6,83,83,78,78,12,11,6,6,0.5,0.5
2026-04-23T1800,1406A,108.2397,22.8462,南宁市,区农职院,,26,24,19,6,9,82,82,74,74,8,6,4,4,0.5,0.5
2026-04-23T1800,1407A,108.3285,22.7356,南宁市,英华嘉园,,29,21,23,8,10,91,91,84,84,11,11,5,4,0.5,0.4
2026-04-23T1800,3401A,108.4829,22.762,南宁市,红星社区,,28,13,13,3,4,87,87,80,80,8,7,5,5,0.5,0.5
2026-04-23T1800,4132A,108.2927,23.1477,南宁市,起凤路9号,,23,16,13,9,7,71,71,74,74,9,5,3,4,0.5,0.5
2026-04-23T1800,4221A,108.2177,22.7774,南宁市,乐贤路16号,,30,30,25,11,11,91,91,34,NA,14,12,7,6,0.3,0.3
2026-04-23T1800,2332A,118.1682,26.6371,南平市,南平市监测站,NA,NA,10,12,6,7,42,42,48,47,10,8,3,3,NA,0.5
2026-04-23T1800,2334A,118.1757,26.6276,南平市,南平七中,,16,16,15,3,6,43,43,49,49,11,8,2,2,0.6,0.6
2026-04-23T1800,1168A,120.9056,31.9669,南通市,狼山街道,,30,22,15,3,2,93,93,100,100,8,8,3,3,0.3,0.3
2026-04-23T1800,1170A,120.8635,32.0231,南通市,城中,NA,NA,35,18,9,4,92,92,99,99,14,10,3,3,NA,0.2
2026-04-23T1800,1171A,120.9376,31.9301,南通市,星湖花园,,31,23,13,3,3,98,98,102,102,9,8,4,3,0.3,0.3
2026-04-23T1800,1172A,120.8053,32.046,南通市,紫琅学院,,35,26,14,3,3,110,110,112,112,10,11,4,4,0.5,0.5
2026-04-23T1800,3291A,121.0631,32.0644,南通市,通州监测站,,33,24,15,3,2,104,104,106,106,9,8,4,3,0.3,0.4
2026-04-23T1800,3432A,120.9348,31.9874,南通市,环境教育馆,,30,24,16,3,2,96,96,101,101,13,13,4,4,0.4,0.4
2026-04-23T1800,4091A,120.8692,31.9885,南通市,洪江路,,29,22,14,3,3,92,92,96,96,14,11,4,4,0.7,0.6
2026-04-23T1800,2404A,112.5338,33.0086,南阳市,瓦房庄,,38,28,42,10,19,120,120,115,115,13,15,4,4,0.4,0.5
2026-04-23T1800,2405A,112.5002,32.9734,南阳市,汉画馆,,36,30,44,12,21,114,114,112,112,11,15,6,6,0.3,0.5
2026-04-23T1800,2406A,112.5778,33.0144,南阳市,气象站,,39,22,34,3,19,123,123,119,119,8,11,5,5,0.2,0.4
2026-04-23T1800,2407A,112.548,32.9687,南阳市,理工学院,,37,30,44,10,23,118,118,117,117,8,16,6,7,0.3,0.4
2026-04-23T1800,4008A,112.5233,32.9921,南阳市,卧龙区政府,,38,NA,38,16,23,119,119,114,114,8,13,6,6,0.4,0.5
2026-04-23T1800,1234A,121.8352,29.9111,宁波市,区环保大楼,,35,35,14,10,6,95,95,96,96,27,21,7,6,0.3,0.4
2026-04-23T1800,1235A,121.5595,29.8208,宁波市,万里学院,NA,NA,NA,12,NA,6,89,89,87,87,NA,16,3,8,0.6,0.7
2026-04-23T1800,1236A,121.713,29.9564,宁波市,龙赛医院,,37,37,13,8,4,86,86,88,88,24,17,6,6,0.4,0.4
2026-04-23T1800,1240A,121.5855,29.8635,宁波市,太古小学,NA,NA,27,14,10,6,93,93,89,89,NA,18,4,3,0.4,0.5
2026-04-23T1800,1241A,121.5239,29.8673,宁波市,市环境监测中心,,28,22,15,13,8,87,87,86,86,28,22,5,6,0.1,0.3
2026-04-23T1800,2871A,121.6156,29.9015,宁波市,万里国际学校,,29,28,16,12,7,92,92,90,90,21,19,4,4,0.4,0.5
2026-04-23T1800,3710A,121.5593,29.8976,宁波市,白沙活动中心,,27,16,13,10,6,84,84,89,89,22,17,4,4,0.4,0.5
2026-04-23T1800,4095A,121.8962,29.7529,宁波市,中科路88号,,30,28,10,10,5,96,96,94,94,18,13,7,6,0.4,0.5
2026-04-23T1800,2341A,119.5387,26.6611,宁德市,宁德市监测站,,16,NA,27,3,20,50,50,35,35,20,32,7,7,0.5,0.7
2026-04-23T1800,3209A,119.5231,26.6562,宁德市,宁德一中,,16,9,36,3,19,50,50,36,36,16,17,5,5,0.5,0.6
2026-04-23T1800,2618A,98.859,25.8541,怒江傈僳族自治州,州监测站,,45,45,19,26,8,133,133,110,110,8,6,9,6,0.5,0.2
2026-04-23T1800,2619A,98.8607,25.8168,怒江傈僳族自治州,泸水一中,颗粒物(PM10),51,51,16,29,9,115,115,107,107,31,12,6,5,0.4,0.5
2026-04-23T1800,1888A,101.6891,26.571,攀枝花市,弄弄坪,,48,48,34,19,16,145,145,126,126,11,11,23,16,0.6,0.5
2026-04-23T1800,1889A,101.577,26.5914,攀枝花市,河门口,NA,NA,NA,43,31,20,139,139,127,127,NA,16,NA,16,NA,NA
2026-04-23T1800,1891A,101.7365,26.4986,攀枝花市,仁和,,38,38,41,22,25,120,120,114,114,9,13,15,10,0.3,0.4
2026-04-23T1800,2835A,101.7222,26.567,攀枝花市,四十中小,,43,29,31,17,13,136,136,118,118,11,15,27,15,0.6,0.7
2026-04-23T1800,1604A,122.0303,41.1489,盘锦市,开发区,NA,NA,NA,43,NA,21,128,128,129,129,NA,16,NA,9,0.2,0.4
2026-04-23T1800,1605A,122.0486,41.0883,盘锦市,兴隆台,,40,38,47,12,25,128,128,131,131,12,28,8,11,0.5,0.8
2026-04-23T1800,1606A,121.8297,41.1026,盘锦市,新生街道,,48,38,36,11,25,152,152,147,147,9,21,4,6,0.4,0.5
2026-04-23T1800,1832A,113.3257,33.7423,平顶山市,新华旅馆,,34,34,66,13,34,107,107,114,114,9,21,4,5,0.3,0.4
2026-04-23T1800,1833A,113.2917,33.737,平顶山市,规划设计院,,35,34,55,18,35,110,110,115,115,11,22,7,7,0.3,0.5
2026-04-23T1800,1834A,113.182,33.7738,平顶山市,平顶山工学院,,38,NA,48,23,43,119,119,117,117,7,17,8,9,0.3,0.5
2026-04-23T1800,3594A,112.8736,33.9068,平顶山市,石龙区,,39,37,54,22,33,124,124,106,106,7,27,8,10,0.4,0.7
2026-04-23T1800,4116A,113.284,33.7139,平顶山市,姚电大道23号,,36,17,55,17,30,113,113,117,117,12,23,7,6,0.3,0.4
2026-04-23T1800,2656A,106.6633,35.5338,平凉市,聚贤嘉苑,颗粒物(PM10),70,78,67,28,23,116,116,103,103,10,22,5,7,0.3,0.4
2026-04-23T1800,2657A,106.7021,35.5307,平凉市,博物馆,颗粒物(PM10),68,74,65,33,27,124,124,109,109,7,20,4,9,0.3,0.7
2026-04-23T1800,2348A,113.8384,27.6436,萍乡市,中医院,,31,24,26,14,18,98,98,94,94,12,13,4,10,0.6,0.6
2026-04-23T1800,2350A,113.8677,27.6438,萍乡市,市环保局,,32,32,26,22,22,96,96,92,92,14,15,4,10,0.7,0.8
2026-04-23T1800,2351A,113.8663,27.6202,萍乡市,安源区政府,,29,28,23,18,19,90,90,86,86,12,13,6,9,0.4,0.3
2026-04-23T1800,4107A,113.8686,27.6668,萍乡市,联洪村委会,,29,18,36,11,17,92,92,86,86,6,13,2,6,0.3,0.6
2026-04-23T1800,2319A,119.0142,25.4324,莆田市,荔城区仓后路,,12,7,42,3,30,38,38,47,46,14,12,/,/,/,/
2026-04-23T1800,2320A,119.0016,25.4553,莆田市,莆田市监测站,,11,6,40,3,27,35,35,48,46,22,13,2,2,0.6,0.5
2026-04-23T1800,2321A,119.112,25.4561,莆田市,涵江区六中,,14,6,36,3,31,42,42,46,45,17,19,/,/,0.6,0.6
2026-04-23T1800,2322A,119.1014,25.3215,莆田市,秀屿区政府,,18,6,41,3,23,56,56,61,61,11,11,3,4,0.8,0.5
2026-04-23T1800,2392A,115.0312,35.7636,濮阳市,环保局,,35,30,29,12,14,111,111,102,102,10,12,3,4,0.5,0.6
2026-04-23T1800,3021A,115,35.7667,濮阳市,濮水河管理处,,35,28,34,19,16,112,112,105,105,11,17,3,4,0.5,0.6
2026-04-23T1800,4118A,115.0552,35.7816,濮阳市,中原东路68号,,36,29,36,6,17,113,113,108,108,7,10,2,2,0.5,0.5
2026-04-23T1800,4216A,115.0923632,35.76857718,濮阳市,任丘路479号,,35,31,37,14,17,110,110,104,104,14,12,2,3,0.3,0.4
2026-04-23T1800,2601A,100.9801,22.7634,普洱市,市环保局,颗粒物(PM10),93,110,116,48,58,137,137,87,87,8,19,5,6,0.7,0.9
2026-04-23T1800,2602A,100.9763,22.8237,普洱市,普洱第二中学,细颗粒物(PM2.5),82,92,103,51,58,141,141,88,88,8,27,7,7,0.8,1
2026-04-23T1800,3345A,131.0413,45.7795,七台河市,中波台,,25,NA,8,9,7,77,77,84,83,4,8,2,3,0.1,0.1
2026-04-23T1800,3637A,131.0136,45.7688,七台河市,人民广场,NA,NA,16,19,9,7,87,87,89,89,6,10,9,10,NA,0.5
2026-04-23T1800,3684A,130.8639,45.8144,七台河市,新建矿广场,颗粒物(PM10),63,68,23,13,5,69,69,73,73,10,9,8,9,0.1,0.2
2026-04-23T1800,1779A,123.9307,47.3641,齐齐哈尔市,安居小区,,27,26,34,8,16,85,85,89,89,7,15,3,3,0.3,0.3
2026-04-23T1800,1780A,123.9497,47.3389,齐齐哈尔市,中心广场,,26,20,29,10,13,83,83,87,87,6,12,5,5,0.3,0.3
2026-04-23T1800,1781A,123.9483,47.3229,齐齐哈尔市,农牧车辆厂,,28,22,36,6,16,88,88,90,90,6,14,5,5,0.3,0.5
2026-04-23T1800,1783A,123.9442,47.2994,齐齐哈尔市,市环境监测站,,26,26,36,9,16,81,81,88,88,11,20,3,4,0.3,0.3
2026-04-23T1800,3662A,123.6341,47.2079,齐齐哈尔市,富区青少年活动中心,,31,31,50,9,28,89,89,93,93,7,18,3,5,0.3,0.4
2026-04-23T1800,2591A,107.9765,26.5724,黔东南苗族侗族自治州,市环境监测站,,28,NA,20,19,12,76,76,76,76,7,7,2,3,0.4,0.5
2026-04-23T1800,2881A,107.8909,26.531,黔东南苗族侗族自治州,凯里学院,,26,NA,11,18,12,82,82,79,79,6,8,2,3,0.3,0.4
2026-04-23T1800,2593A,107.5223,26.2371,黔南布依族苗族自治州,小围寨,,26,19,15,18,15,77,77,79,79,4,6,3,5,0.2,0.2
2026-04-23T1800,3538A,107.5175,26.2977,黔南布依族苗族自治州,沙坝,,22,22,19,12,13,67,67,76,76,4,6,3,4,0.5,0.5
2026-04-23T1800,2589A,104.9022,25.0943,黔西南布依族苗族自治州,场坝街,,40,29,29,28,24,116,116,111,111,6,8,6,7,0.4,0.4
2026-04-23T1800,2590A,104.8812,25.0994,黔西南布依族苗族自治州,坪东大道,,35,NA,29,23,26,111,111,109,109,7,9,4,6,0.3,0.4
2026-04-23T1800,2502A,108.6238,21.9667,钦州市,市环保站,,31,31,24,9,10,51,51,49,49,13,10,1,2,0.7,0.8
2026-04-23T1800,2503A,108.655,21.9481,钦州市,沙埠小学,,31,31,24,8,13,58,58,50,50,9,12,1,2,0.4,0.5
2026-04-23T1800,2504A,108.5989,21.7435,钦州市,港区一小,,28,28,34,13,19,52,52,42,42,16,14,4,4,0.6,0.6
2026-04-23T1800,3404A,108.5959,21.9634,钦州市,北职校,,32,32,24,12,12,50,50,48,48,12,10,2,2,1.5,0.6
2026-04-23T1800,1046A,119.5247,39.9346,秦皇岛市,建设大厦,细颗粒物(PM2.5),72,74,66,46,26,126,126,124,124,13,38,9,8,0.5,0.4
2026-04-23T1800,3132A,119.5979,39.938,秦皇岛市,文明里,颗粒物(PM10),60,63,66,28,21,115,115,118,118,27,41,12,10,0.4,0.4
2026-04-23T1800,4066A,119.7458,39.9952,秦皇岛市,南园路157号,颗粒物(PM10),56,58,53,25,18,116,116,108,108,31,53,9,8,0.4,0.4
2026-04-23T1800,4067A,119.5131,39.8858,秦皇岛市,翠岛大街1号,颗粒物(PM10),56,58,53,26,18,117,117,123,123,25,37,10,10,0.5,0.4
2026-04-23T1800,4198A,119.509013,39.825305,秦皇岛市,北戴河轮滑馆,颗粒物(PM10),59,62,56,24,21,117,117,114,114,23,36,8,8,0.4,0.3
2026-04-23T1800,1310A,120.404,36.0625,青岛市,市南区东部子站,颗粒物(PM10),60,63,47,36,25,157,157,129,129,31,36,7,7,0.4,0.5
2026-04-23T1800,1311A,120.362344,36.10282,青岛市,四方区子站,,49,48,42,24,21,155,155,136,136,23,29,7,7,0.6,0.6
2026-04-23T1800,1312A,120.294373,36.054183,青岛市,市南区西部子站,,44,44,44,15,23,136,136,120,120,35,53,4,5,0.6,0.6
2026-04-23T1800,1313A,120.4581,36.0858,青岛市,崂山区子站,NA,NA,NA,43,NA,20,170,170,127,127,NA,31,9,9,0.4,0.4
2026-04-23T1800,1315A,120.3945,36.3083,青岛市,城阳区子站,颗粒物(PM10),68,75,52,31,23,120,120,129,129,37,29,9,8,0.6,0.7
2026-04-23T1800,3642A,120.3454,36.0735,青岛市,市北区南部,臭氧1小时(O3_1h),59,47,41,25,21,167,167,140,140,22,31,4,5,0.5,0.5
2026-04-23T1800,3643A,120.3897,36.18,青岛市,李沧区北部,颗粒物(PM10),56,58,50,20,22,132,132,121,121,24,30,10,10,0.5,0.5
2026-04-23T1800,4110A,120.5222,36.4089,青岛市,盟旺路653号,,46,45,39,16,22,145,145,136,136,20,20,5,5,0.7,0.7
2026-04-23T1800,4290A,120.196923,35.954556,青岛市,珠江路669号,颗粒物(PM10),53,53,41,26,17,124,124,123,123,27,33,5,5,0.6,0.6
2026-04-23T1800,4291A,120.0424,35.8656,青岛市,黄岛区人民政府广场,,48,48,37,19,14,126,126,116,116,25,25,8,9,0.5,0.5
2026-04-23T1800,1703A,113.0218,23.7086,清远市,凤城街办,,17,7,12,3,7,54,54,52,52,12,13,/,/,/,/
2026-04-23T1800,3025A,113.0479,23.6343,清远市,技师学院,,14,12,11,7,6,44,44,48,48,18,14,4,4,0.6,0.5
2026-04-23T1800,3318A,112.9898,23.7403,清远市,清新太和,,15,8,10,3,5,47,47,54,54,19,10,7,7,0.5,0.4
2026-04-23T1800,3455A,113.076,23.72,清远市,清城东城,,15,8,12,3,6,45,45,50,50,10,8,/,/,/,/
2026-04-23T1800,2661A,107.6325,35.7357,庆阳市,庆阳五中,颗粒物(PM10),72,80,54,32,18,126,126,114,114,11,16,4,3,0.2,0.3
2026-04-23T1800,2662A,107.6361,35.7067,庆阳市,市环保局,,42,NA,40,28,19,132,132,121,121,11,14,5,6,0.2,0.3
2026-04-23T1800,1916A,103.7897,25.5036,曲靖市,环境监测站,颗粒物(PM10),52,52,43,23,26,136,136,122,122,13,12,6,12,0.6,0.6
2026-04-23T1800,1917A,103.8013,25.5357,曲靖市,烟厂办公区,,39,32,42,18,22,122,122,110,110,9,11,7,13,0.5,0.5
2026-04-23T1800,3376A,103.7926,25.4651,曲靖市,南苑二区,,43,NA,44,30,25,114,114,114,114,11,10,4,4,0.6,0.6
2026-04-23T1800,3377A,103.7442,25.5259,曲靖市,曲靖师范学院,,39,30,44,16,23,124,124,120,120,8,11,2,7,0.4,0.4
2026-04-23T1800,1264A,118.8694,28.94,衢州市,环保大楼,,16,8,15,6,12,51,51,44,44,20,14,/,/,/,/
2026-04-23T1800,1266A,118.8622,28.9809,衢州市,衢州学院,,17,7,13,3,10,53,53,46,46,20,17,5,5,0.5,0.6
2026-04-23T1800,4097A,118.9646,28.9832,衢州市,衢州三中,,17,10,10,7,8,54,54,50,50,19,16,7,8,0.4,0.6
2026-04-23T1800,1611A,118.5818,24.9116,泉州市,涂山街,NA,NA,6,38,3,25,34,34,81,78,NA,19,NA,5,1.0,0.7
2026-04-23T1800,1612A,118.597,24.8976,泉州市,津头埔,,11,6,40,3,23,35,35,87,84,21,17,2,4,0.7,0.5
2026-04-23T1800,1613A,118.6669,24.9422,泉州市,万安,,11,6,39,3,23,34,34,78,76,20,15,2,4,0.9,0.6
2026-04-23T1800,4105A,118.6355,24.9148,泉州市,霞新路6号,,12,6,33,3,23,33,33,79,76,23,20,/,/,0.9,0.6
2026-04-23T1800,2626A,88.8873,29.2723,日喀则市,日喀则监测站,,35,12,40,3,14,109,109,102,102,3,13,4,6,0.3,0.4
2026-04-23T1800,3726A,88.8775,29.2425,日喀则市,林业技术推广中心,,33,16,39,3,9,103,103,96,96,4,7,6,7,0.3,0.3
2026-04-23T1800,1659A,119.4711,35.421,日照市,监测站,,42,36,29,9,13,133,133,118,118,21,41,9,7,0.6,0.5
2026-04-23T1800,1660A,119.523,35.4216,日照市,市政府广场,,48,48,31,15,11,122,122,122,122,30,26,8,6,0.6,0.6
2026-04-23T1800,1661A,119.5511,35.4113,日照市,港务局,颗粒物(PM10),62,66,40,14,12,122,122,123,123,33,36,6,5,0.5,0.5
2026-04-23T1800,3507A,119.5326,35.4627,日照市,职业技术学院,NA,NA,NA,25,14,12,135,135,132,132,23,35,8,7,0.5,0.5
2026-04-23T1800,3604A,119.3267,35.1043,日照市,岚山环保分局,颗粒物(PM10),51,51,48,12,16,131,131,104,104,21,36,12,24,0.8,1.7
2026-04-23T1800,1835A,111.1922,34.7752,三门峡市,市政府,,34,22,30,10,11,106,106,111,111,10,23,8,8,0.3,0.4
2026-04-23T1800,1836A,111.1588,34.794,三门峡市,开发区,,34,12,31,3,16,108,108,112,112,10,16,9,10,0.4,0.5
2026-04-23T1800,3039A,111.1911,34.7829,三门峡市,三门峡市第一小学,,34,31,36,6,12,108,108,114,114,9,18,11,12,0.5,0.6
2026-04-23T1800,3598A,111.1031,34.719,三门峡市,富达温泉假日酒店,NA,NA,27,40,3,16,110,110,114,114,7,17,13,13,NA,0.6
2026-04-23T1800,2324A,117.621,26.2626,三明市,三钢,,17,13,15,7,10,38,38,45,44,14,15,12,9,1.7,1.6
2026-04-23T1800,2325A,117.6352,26.2714,三明市,三明二中,,32,32,15,3,7,40,40,47,47,9,9,1,3,0.7,0.8
2026-04-23T1800,2326A,117.6028,26.2377,三明市,三元区政府,,12,11,13,3,7,36,36,47,46,11,8,12,5,0.8,0.7
2026-04-23T1800,1877A,109.4962,18.2682,三亚市,河西子站,,31,31,27,15,20,62,62,68,67,3,4,4,4,0.4,0.4
2026-04-23T1800,3540A,109.7348,18.3443,三亚市,君悦子站,,26,26,28,12,19,56,56,66,63,4,5,3,3,0.6,0.6
2026-04-23T1800,4135A,109.1714,18.3739,三亚市,城东小学站,,37,37,33,14,22,60,60,67,66,4,5,/,/,/,/
2026-04-23T1800,2624A,91.7592,29.234,山南市,山南监测站,,35,16,37,3,13,112,112,107,107,3,9,4,6,0.1,0.2
2026-04-23T1800,2625A,91.7701,29.2436,山南市,山南人民医院,,36,19,38,3,11,114,114,107,107,2,6,8,8,0.2,0.2
2026-04-23T1800,1674A,116.6795,23.3666,汕头市,金平子站,,29,22,25,20,18,36,36,60,57,26,11,5,4,0.9,0.7
2026-04-23T1800,1675A,116.7248,23.3632,汕头市,龙湖子站,,30,23,25,21,18,39,39,62,58,21,5,6,5,/,/
2026-04-23T1800,1676A,116.7257,23.2774,汕头市,濠江子站,,23,18,28,16,18,34,34,61,55,19,11,8,8,/,/
2026-04-23T1800,1677A,116.7518,23.4712,汕头市,澄海子站,,15,NA,29,10,17,30,30,56,50,19,11,8,7,0.8,0.6
2026-04-23T1800,1678A,116.6088,23.2539,汕头市,潮阳子站,,26,26,26,17,19,33,33,67,58,14,4,6,6,0.7,0.5
2026-04-23T1800,3444A,116.4539,23.2684,汕头市,潮南峡山,NA,NA,29,28,19,18,38,38,60,57,NA,6,6,7,0.9,0.7
2026-04-23T1800,3624A,116.4069,23.2533,汕头市,潮南子站,NA,NA,19,31,17,19,27,27,57,47,NA,5,6,5,/,/
2026-04-23T1800,1693A,115.3653,22.7751,汕尾市,市环保局,,14,9,24,3,14,42,42,73,71,10,4,4,5,0.8,0.6
2026-04-23T1800,1695A,115.362,22.7926,汕尾市,新城中学,,12,NA,23,3,13,37,37,74,69,10,7,6,6,0.7,0.5
2026-04-23T1800,2645A,109.9155,33.8714,商洛市,监测站,,35,18,22,11,11,110,110,111,111,10,14,5,7,0.3,0.4
2026-04-23T1800,3045A,109.9647,33.8486,商洛市,商州区中学,,40,40,28,10,11,108,108,107,107,11,16,4,3,0.3,0.5
2026-04-23T1800,2408A,115.6701,34.4283,商丘市,环境监测站,,35,25,35,11,22,109,109,111,111,4,14,2,3,0.2,0.3
2026-04-23T1800,2409A,115.6458,34.4047,商丘市,粮食局,,33,24,31,17,19,105,105,106,106,10,13,3,4,0.2,0.3
2026-04-23T1800,3171A,115.6069,34.4465,商丘市,梁园区档案局,,35,24,35,14,20,111,111,113,113,7,18,4,5,0.3,0.4
2026-04-23T1800,4119A,115.6701,34.3767,商丘市,北海东路185号,,43,32,33,30,20,110,110,108,108,6,13,5,5,0.3,0.4
2026-04-23T1800,4120A,115.6172,34.3704,商丘市,中山大街3号,,33,NA,32,16,20,105,105,105,105,6,13,7,7,0.2,0.3
2026-04-23T1800,1141A,121.401,31.2382,上海市,普陀,NA,NA,30,17,12,12,104,104,103,103,20,16,7,5,NA,0.4
2026-04-23T1800,1142A,121.4774,31.2043,上海市,十五厂,,33,33,15,11,9,96,96,99,99,20,11,7,5,0.7,0.5
2026-04-23T1800,1143A,121.4673,31.3011,上海市,虹口,,34,34,15,14,8,95,95,98,98,20,11,6,4,0.7,0.5
2026-04-23T1800,1147A,121.4253,31.226,上海市,静安监测站,,34,34,17,14,9,98,98,103,103,26,17,11,8,0.9,0.6
2026-04-23T1800,1148A,121.7029,31.1905,上海市,浦东川沙,NA,NA,33,16,12,8,98,98,107,106,24,16,NA,7,0.9,0.8
2026-04-23T1800,1149A,121.5339,31.229,上海市,浦东新区监测站,,31,26,14,12,8,97,97,94,94,18,16,6,6,0.4,0.4
2026-04-23T1800,1150A,121.5776,31.2038,上海市,浦东张江,,32,24,14,10,8,102,102,104,104,20,16,6,6,0,0.1
2026-04-23T1800,3265A,121.4242,31.3303,上海市,宝山庙行,,30,30,16,10,10,93,93,96,96,25,18,10,7,0.5,0.3
2026-04-23T1800,3266A,121.8789,31.4662,上海市,崇明上实东滩,,33,23,16,9,7,105,105,106,106,6,6,6,6,0.1,0.1
2026-04-23T1800,3268A,121.316,31.2839,上海市,嘉定南翔,,30,21,14,10,10,96,96,94,94,10,9,5,4,0.4,0.5
2026-04-23T1800,3269A,121.3357,30.7455,上海市,金山新城,,38,38,16,16,11,83,83,89,89,28,16,5,4,0.6,0.5
2026-04-23T1800,3270A,121.4996,31.0741,上海市,闵行浦江,,31,24,14,13,9,99,99,98,98,20,15,6,6,0.1,0.2
2026-04-23T1800,3271A,121.2886,31.1663,上海市,青浦徐泾,,34,27,14,10,8,108,108,101,101,13,11,5,5,0.4,0.4
2026-04-23T1800,3272A,121.2193,31.0382,上海市,松江图书馆,,32,30,16,10,11,101,101,97,97,10,8,8,7,0.5,0.6
2026-04-23T1800,3273A,121.3904,31.206,上海市,长宁仙霞,,30,27,17,13,10,93,93,96,96,22,15,8,6,0.4,0.3
2026-04-23T1800,3274A,121.7964,31.0507,上海市,浦东惠南,,30,30,15,10,7,94,94,103,103,30,20,6,6,0.4,0.5
2026-04-23T1800,3544A,121.4891,30.925,上海市,奉贤南桥新城,,33,33,17,10,10,88,88,96,96,27,16,4,3,0.2,0.3
2026-04-23T1800,4183A,121.417401,31.16637,上海市,冠生园路458号,,29,29,14,12,9,92,92,93,93,20,12,10,9,0.6,0.4
2026-04-23T1800,4205A,121.541914,31.268301,上海市,宁武路151号,,33,30,15,11,9,104,104,104,104,22,19,7,6,0.3,0.3
2026-04-23T1800,2382A,117.9758,28.4439,上饶市,市监测站,,33,33,27,6,11,69,69,65,65,4,11,4,12,/,/
2026-04-23T1800,2383A,117.9521,28.4637,上饶市,凤凰光学,,20,18,20,6,9,63,63,63,63,13,13,4,7,0.5,0.6
2026-04-23T1800,3685A,117.897,28.4316,上饶市,双创科技城,,28,28,23,3,11,65,65,67,67,7,9,6,12,0.5,0.6
2026-04-23T1800,4211A,118.190438,28.444845,上饶市,裕丰大道,,23,21,27,10,15,72,72,67,67,10,13,14,21,0.6,0.7
2026-04-23T1800,1669A,113.5821,24.7733,韶关市,市八中,,17,14,8,3,4,53,53,71,68,13,12,8,6,0.4,0.4
2026-04-23T1800,1671A,113.5916,24.7973,韶关市,园林处,,17,13,9,8,5,53,53,69,66,11,10,10,7,/,/
2026-04-23T1800,1673A,113.5971,24.6864,韶关市,曲江监测站,,22,22,10,10,3,53,53,70,70,11,15,19,8,0.6,0.6
2026-04-23T1800,2809A,113.6668,24.7756,韶关市,大学路288号,,20,20,8,9,3,48,48,66,66,14,12,6,6,/,/
2026-04-23T1800,3622A,113.5556,24.8082,韶关市,碧湖山庄,,18,13,9,7,4,56,56,70,69,11,12,6,5,0.5,0.5
2026-04-23T1800,2464A,111.5277,27.2442,邵阳市,市化工厂,,30,28,23,17,12,96,96,90,90,7,13,8,8,0.7,0.7
2026-04-23T1800,2466A,111.4327,27.2276,邵阳市,市环保局,,41,41,22,20,16,99,99,94,94,6,8,8,8,0.6,0.6
2026-04-23T1800,4218A,111.446,27.2472,邵阳市,北塔二期4-26地块,NA,NA,NA,19,17,11,92,92,86,86,NA,8,7,9,NA,0.5
2026-04-23T1800,4219A,111.4739,27.2282,邵阳市,邵水西路287号,,33,25,23,20,16,105,105,98,98,9,11,9,10,0.3,0.3
