timepoint,stationcode,longitude,latitude,area,positionname,primarypollutant,aqi,pm10,pm10_24h,pm2_5,pm2_5_24h,o3,o3_24h,o3_8h,o3_8h_24h,no2,no2_24h,so2,so2_24h,co,co_24h
2026-04-23T2000,2568A,102.2503,31.8896,阿坝藏族羌族自治州,马师校,颗粒物(PM10),70,77,46,26,22,107,107,118,118,7,5,6,6,0.2,0.2
2026-04-23T2000,3994A,102.2174,31.9016,阿坝藏族羌族自治州,马尔康中学西区,颗粒物(PM10),80,92,55,29,24,107,107,116,116,5,5,4,4,0.2,0.2
2026-04-23T2000,2695A,80.2899,41.1684,阿克苏地区,电视台,细颗粒物(PM2.5),202,212,235,152,121,112,112,112,112,5,29,4,4,0.5,1.1
2026-04-23T2000,2696A,80.2592,41.1541,阿克苏地区,艺术中心,细颗粒物(PM2.5),163,183,209,124,132,117,117,117,117,6,32,3,4,0.4,0.8
2026-04-23T2000,2205A,105.699,38.8409,阿拉善盟,蒙二幼,颗粒物(PM10),98,117,107,40,31,105,105,112,112,8,5,8,8,0.4,0.4
2026-04-23T2000,2206A,105.7198,38.8508,阿拉善盟,环保局新楼,颗粒物(PM10),94,111,110,40,32,98,98,106,105,6,4,8,8,0.5,0.5
2026-04-23T2000,2708A,88.1266,47.8515,阿勒泰地区,市站,,36,31,31,9,4,113,113,119,119,17,9,5,5,0.1,0.1
2026-04-23T2000,4166A,88.1198,47.7931,阿勒泰地区,阿勒泰路33号,,39,32,33,7,5,122,122,119,119,6,6,6,6,0.2,0.2
2026-04-23T2000,2630A,80.1171,32.4999,阿里地区,阿里监测站,,35,NA,14,3,3,112,112,112,112,2,8,6,7,0.4,0.4
2026-04-23T2000,3192A,80.0906,32.5029,阿里地区,阿里藏医院,,36,6,11,3,5,114,114,113,113,1,5,6,7,0.3,0.4
2026-04-23T2000,2644A,109.0088,32.6974,安康市,汉滨区检察院,,40,40,20,14,10,69,69,100,100,25,11,6,6,0.5,0.4
2026-04-23T2000,4054A,109.0324,32.6913,安康市,市邮政管理局,,44,44,26,20,12,63,63,103,103,29,10,5,8,0.8,0.5
2026-04-23T2000,2291A,117.0806,30.5181,安庆市,环科院,,26,11,6,3,2,82,82,82,82,8,9,6,5,0.3,0.4
2026-04-23T2000,2292A,117.0331,30.5118,安庆市,马山宾馆,,23,13,7,7,4,72,72,80,80,11,10,4,4,0.2,0.3
2026-04-23T2000,2294A,116.9897,30.6146,安庆市,安庆大学,,24,8,5,3,2,76,76,81,81,6,7,3,3,0.2,0.3
2026-04-23T2000,3173A,117.0598,30.5351,安庆市,市人大,,22,13,7,6,3,68,68,80,79,12,9,3,3,0.3,0.4
2026-04-23T2000,3123A,105.9408,26.2431,安顺市,凤凰山,,45,45,19,25,13,93,93,116,114,9,7,11,8,0.5,0.5
2026-04-23T2000,3124A,105.9443,26.2567,安顺市,金钟山,,38,37,16,26,15,87,87,107,105,7,6,8,8,0.5,0.4
2026-04-23T2000,3125A,105.8983,26.248,安顺市,娄家坡,,40,39,22,28,15,88,88,109,108,6,6,11,5,0.7,0.5
2026-04-23T2000,1819A,114.3552,36.1017,安阳市,红庙街,,35,28,46,18,33,110,110,120,120,10,16,2,4,0.2,0.3
2026-04-23T2000,1820A,114.361,36.0681,安阳市,银杏小区,,42,42,52,24,34,116,116,126,126,10,17,4,6,0.2,0.3
2026-04-23T2000,3141A,114.3921,36.0879,安阳市,信访局,,37,36,44,19,33,116,116,128,128,8,11,1,3,0.3,0.4
2026-04-23T2000,3669A,114.4706,36.0634,安阳市,左辅环卫站,,41,41,53,27,26,104,104,112,112,12,14,1,3,0.2,0.3
2026-04-23T2000,4117A,114.2918,36.0769,安阳市,钢三路198号,,40,NA,48,28,36,95,95,117,117,13,14,2,3,0.4,0.4
2026-04-23T2000,1748A,123.0441,41.1201,鞍山市,深沟寺,颗粒物(PM10),73,81,51,34,19,106,106,116,116,25,21,14,12,0.7,0.7
2026-04-23T2000,1749A,123.011,41.0931,鞍山市,太阳城,颗粒物(PM10),78,88,48,37,21,104,104,113,113,24,19,12,10,0.7,0.7
2026-04-23T2000,1750A,123.0483,41.1445,鞍山市,太平,颗粒物(PM10),78,88,59,37,23,107,107,114,114,26,25,12,10,0.8,0.8
2026-04-23T2000,1751A,122.964,41.0968,鞍山市,铁西三道街,颗粒物(PM10),71,79,60,34,25,100,100,111,111,35,28,10,9,0.4,0.8
2026-04-23T2000,1753A,123.0219,41.0822,鞍山市,明达新区,颗粒物(PM10),74,83,46,36,19,103,103,114,114,26,19,13,10,0.9,0.9
2026-04-23T2000,4201A,122.944647,41.082639,鞍山市,兴盛南路290号,颗粒物(PM10),85,98,62,42,29,100,100,116,115,34,32,12,9,0.6,0.9
2026-04-23T2000,2195A,107.4206,40.7609,巴彦淖尔市,附二中,颗粒物(PM10),89,104,118,39,41,100,100,110,110,11,20,9,9,0.3,0.4
2026-04-23T2000,2196A,107.37,40.7372,巴彦淖尔市,市环保大楼,颗粒物(PM10),81,93,104,38,41,99,99,114,113,9,12,6,6,0.3,0.4
2026-04-23T2000,1956A,86.1476,41.7529,巴音郭楞蒙古自治州,孔雀公园,颗粒物(PM10),138,218,159,82,67,89,89,99,99,4,32,10,12,0.3,0.4
2026-04-23T2000,1957A,86.1971,41.7166,巴音郭楞蒙古自治州,棉纺厂,颗粒物(PM10),159,267,214,86,74,98,98,106,105,NA,16,/,/,/,/
2026-04-23T2000,1958A,86.236,41.7172,巴音郭楞蒙古自治州,经济开发区,颗粒物(PM10),127,188,166,72,65,85,85,94,93,6,9,9,9,0.4,0.4
2026-04-23T2000,3181A,106.776805,31.852614,巴中市,市五中,,23,22,16,11,8,72,72,101,101,20,13,9,9,0.5,0.6
2026-04-23T2000,3183A,106.7419,31.8654,巴中市,圣泉水务公司,颗粒物(PM10),55,57,19,20,7,48,48,102,98,43,19,9,9,0.9,0.7
2026-04-23T2000,3616A,106.7617,31.8343,巴中市,市中心医院,,29,29,18,13,9,52,52,100,97,32,15,10,10,0.7,0.6
2026-04-23T2000,2235A,122.7909,45.608,白城市,洮北区环保局,颗粒物(PM10),71,79,48,24,26,111,111,124,124,11,31,5,6,0.3,0.4
2026-04-23T2000,2236A,122.8741,45.5725,白城市,市环保局,NA,NA,75,50,25,19,89,89,108,107,NA,46,4,6,0.0,0.2
2026-04-23T2000,2231A,126.4219,41.9172,白山市,喜丰,颗粒物(PM10),60,63,56,39,20,45,45,109,102,52,21,9,9,1.2,0.8
2026-04-23T2000,2232A,126.4082,41.9416,白山市,环保局,颗粒物(PM10),55,56,31,31,17,55,55,107,98,30,15,9,9,1.0,0.6
2026-04-23T2000,2647A,104.1727,36.5448,白银市,第三小学,颗粒物(PM10),80,92,100,44,43,76,76,106,103,26,20,5,13,0.5,0.5
2026-04-23T2000,2648A,104.1467,36.5482,白银市,动力公司,颗粒物(PM10),76,86,99,45,40,84,84,110,107,18,22,6,9,0.3,0.2
2026-04-23T2000,2512A,106.6102,23.901,百色市,市监测站,,42,42,23,10,9,78,78,88,88,13,11,10,10,0.5,0.8
2026-04-23T2000,2513A,106.6524,23.8842,百色市,市中心血站,,26,26,25,7,11,69,69,92,91,14,17,9,9,0.5,0.5
2026-04-23T2000,4133A,106.6273,23.8798,百色市,龙景西路,,25,13,22,10,11,77,77,97,96,12,13,11,10,0.7,0.7
2026-04-23T2000,2270A,117.396,32.9389,蚌埠市,工人疗养院,,44,44,34,10,11,96,96,104,104,15,12,4,4,0.3,0.2
2026-04-23T2000,2271A,117.3606,32.9428,蚌埠市,百货大楼,,39,39,30,8,9,96,96,104,104,16,10,5,5,0.3,0.3
2026-04-23T2000,2273A,117.4183,32.8909,蚌埠市,蚌埠学院,,34,34,25,6,10,70,70,99,96,39,16,6,4,0.3,0.3
2026-04-23T2000,2274A,117.3534,32.9672,蚌埠市,淮上区政府,,44,44,29,6,9,99,99,111,111,20,12,4,4,0.1,0.1
2026-04-23T2000,2275A,117.3143,32.8977,蚌埠市,高新区,,44,44,27,13,9,84,84,102,101,22,10,6,6,0.4,0.3
2026-04-23T2000,3715A,117.3091,32.9314,蚌埠市,蚌埠田家炳中学,,46,46,36,10,11,97,97,106,106,15,12,4,5,0.3,0.2
2026-04-23T2000,1585A,109.8761,40.6533,包头市,市环境监测站,细颗粒物(PM2.5),106,114,95,66,38,121,121,130,130,16,43,7,10,0.4,0.6
2026-04-23T2000,1587A,109.9992,40.5843,包头市,包头八中,颗粒物(PM10),101,121,107,55,49,102,102,124,121,30,45,8,11,0.4,0.6
2026-04-23T2000,1589A,109.8641,40.6288,包头市,惠龙物流,颗粒物(PM10),93,110,90,42,42,117,117,124,124,13,41,7,9,0.5,0.6
2026-04-23T2000,1590A,110.0376,40.5546,包头市,东河鸿龙湾,颗粒物(PM10),86,100,116,44,46,106,106,131,128,20,53,12,14,0.5,0.6
2026-04-23T2000,3283A,109.9154,40.5684,包头市,滨河大厦,细颗粒物(PM2.5),86,98,86,53,43,102,102,126,123,21,38,10,11,0.4,0.5
2026-04-23T2000,3419A,109.9449,40.6259,包头市,包头市委党校,颗粒物(PM10),85,98,79,43,29,113,113,128,126,20,36,8,12,0.5,0.5
2026-04-23T2000,3683A,109.8332,40.6577,包头市,昆区政府,颗粒物(PM10),90,105,85,40,35,115,115,121,121,16,45,3,7,0.5,0.6
2026-04-23T2000,1931A,107.0802,34.3129,宝鸡市,竹园沟,,50,50,34,17,10,94,94,128,127,14,11,7,7,0.4,0.4
2026-04-23T2000,1933A,107.1429,34.3549,宝鸡市,监测站,颗粒物(PM10),60,64,41,33,18,120,120,131,131,26,15,6,6,0.5,0.4
2026-04-23T2000,1934A,107.1172,34.3759,宝鸡市,技工学校,,49,49,42,31,18,120,120,132,132,22,12,4,4,0.4,0.4
2026-04-23T2000,1936A,107.2025,34.3518,宝鸡市,文理学院,颗粒物(PM10),52,52,43,32,18,138,138,136,136,22,18,6,6,0.5,0.4
2026-04-23T2000,1937A,107.2396,34.3626,宝鸡市,三迪小学,细颗粒物(PM2.5),66,61,47,43,24,130,130,134,134,32,23,6,6,0.5,0.4
2026-04-23T2000,4155A,107.1721,34.3558,宝鸡市,滨河北路,颗粒物(PM10),75,84,47,35,19,125,125,127,127,23,16,8,7,0.5,0.5
2026-04-23T2000,4308A,107.3898,34.3601,宝鸡市,陈仓区北开路21号,颗粒物(PM10),62,66,52,39,26,126,126,125,125,21,20,8,8,0.5,0.4
2026-04-23T2000,1051A,115.4803,38.8568,保定市,游泳馆,颗粒物(PM10),52,52,54,25,34,112,112,129,129,13,19,2,4,0,0.2
2026-04-23T2000,1052A,115.509,38.8895,保定市,华电二区,NA,NA,50,49,21,30,NA,NA,135,135,12,15,3,4,NA,0.4
2026-04-23T2000,1053A,115.4588,38.9037,保定市,接待中心,颗粒物(PM10),52,52,51,32,29,99,99,117,117,11,10,1,3,0.1,0.3
2026-04-23T2000,1054A,115.4484,38.8344,保定市,地表水厂,颗粒物(PM10),90,106,68,27,30,97,97,128,127,21,20,2,4,0.2,0.3
2026-04-23T2000,3581A,115.3136,38.9511,保定市,满城区生态环境分局,颗粒物(PM10),62,66,72,25,33,99,99,140,139,12,14,3,5,0.2,0.4
2026-04-23T2000,3582A,115.4709,38.7628,保定市,清苑区第二中学,颗粒物(PM10),65,70,63,26,27,96,96,122,121,16,22,4,5,0.2,0.3
2026-04-23T2000,3583A,115.6231,39.0223,保定市,徐水物探局,颗粒物(PM10),72,80,83,30,34,99,99,126,124,17,25,2,3,0.3,0.4
2026-04-23T2000,4004A,115.4199,38.8665,保定市,双鹰农机,颗粒物(PM10),67,73,58,32,35,107,107,134,134,14,18,3,3,0.1,0.3
2026-04-23T2000,4034A,115.515,38.8589,保定市,植保所站,颗粒物(PM10),81,93,85,25,30,111,111,130,130,15,22,2,3,0.2,0.3
2026-04-23T2000,2594A,99.1589,25.1137,保山市,市环境监测站,细颗粒物(PM2.5),62,60,51,41,31,137,137,135,135,9,10,6,6,0.4,0.4
2026-04-23T2000,2595A,99.1616,25.1381,保山市,市环保局,细颗粒物(PM2.5),66,65,57,43,35,140,140,136,136,6,8,7,7,0.4,0.4
2026-04-23T2000,1867A,109.1435,21.4085,北海市,海滩公园,,19,15,30,13,20,53,53,45,45,12,11,7,6,0.8,0.8
2026-04-23T2000,1868A,109.0983,21.466,北海市,新市环保局,NA,NA,9,17,3,14,58,58,49,49,9,10,NA,6,0.7,0.6
2026-04-23T2000,1869A,109.1775,21.5232,北海市,北海工业园,,19,19,23,13,17,46,46,39,39,12,10,6,6,0.8,0.8
2026-04-23T2000,3400A,109.1844,21.4396,北海市,龙潭自来水厂,,21,21,26,14,16,39,39,38,38,10,11,10,9,1.0,0.9
2026-04-23T2000,1001A,116.3611,39.8786,北京市,万寿西宫,颗粒物(PM10),55,56,68,23,39,121,121,136,136,15,28,4,5,0.4,0.6
2026-04-23T2000,1003A,116.4174,39.9289,北京市,东四,,47,47,82,26,46,130,130,143,143,10,23,4,4,0.5,0.6
2026-04-23T2000,1004A,116.4073,39.8858,北京市,天坛,,39,39,66,18,39,115,115,131,131,15,30,5,6,0.3,0.5
2026-04-23T2000,1005A,116.4622,39.9364,北京市,农展馆,,49,49,74,22,41,122,122,138,138,15,25,4,5,0.5,0.6
2026-04-23T2000,1006A,116.3399,39.9293,北京市,官园,,47,47,74,20,40,117,117,128,128,16,28,3,4,0.3,0.4
2026-04-23T2000,1007A,116.2879,39.9613,北京市,海淀万柳,,49,49,78,21,44,100,100,116,116,22,29,5,6,0.4,0.5
2026-04-23T2000,1008A,116.6635,40.1349,北京市,顺义新城,,48,48,78,20,39,131,131,144,144,10,18,2,4,0.5,0.7
2026-04-23T2000,1009A,116.6275,40.327,北京市,怀柔镇,,40,32,65,15,34,125,125,142,142,19,18,5,7,0.5,0.7
2026-04-23T2000,1010A,116.2295,40.217,北京市,昌平镇,,46,46,74,24,45,138,138,142,142,18,25,6,5,0.5,0.6
2026-04-23T2000,1011A,116.3968,39.982,北京市,奥体中心,,45,45,72,19,38,114,114,125,125,11,27,4,5,0.4,0.6
2026-04-23T2000,3418A,116.8336,40.4095,北京市,密云新城,,39,33,64,14,34,122,122,141,141,18,12,4,6,0.3,0.5
2026-04-23T2000,3671A,116.0879,39.9725,北京市,门头沟三家店,颗粒物(PM10),56,58,77,27,41,126,126,134,134,17,24,5,4,0.5,0.5
2026-04-23T2000,3672A,116.1507,39.8246,北京市,丰台云岗,颗粒物(PM10),59,62,79,31,44,118,118,136,136,18,27,4,4,0.5,0.6
2026-04-23T2000,3674A,115.9578,39.7602,北京市,房山燕山,,48,45,75,33,52,115,115,131,131,22,18,4,4,0.4,0.6
2026-04-23T2000,3675A,116.4669,39.7734,北京市,大兴旧宫,,41,41,69,16,38,116,116,138,138,18,27,2,2,0.4,0.6
2026-04-23T2000,3694A,115.9859,40.4562,北京市,延庆石河营,颗粒物(PM10),53,53,78,26,46,145,145,141,141,12,15,2,2,0.5,0.4
2026-04-23T2000,3695A,116.6151,40.3052,北京市,怀柔新城,,38,38,64,15,29,112,112,136,136,19,19,5,6,0.4,0.7
2026-04-23T2000,3696A,116.2542,39.8764,北京市,丰台小屯,,49,49,78,19,38,103,103,122,122,16,23,4,4,0.4,0.5
2026-04-23T2000,3697A,116.8399,40.3843,北京市,密云镇,,41,32,65,13,26,131,131,146,146,15,15,6,8,0.3,0.6
2026-04-23T2000,4057A,115.9423,40.4431,北京市,延庆百泉,颗粒物(PM10),53,53,75,27,47,138,138,142,142,13,15,1,2,0.6,0.6
2026-04-23T2000,4058A,116.6598,39.9164,北京市,通州新华,,40,35,72,13,36,125,125,134,134,16,24,4,6,0.4,0.6
2026-04-23T2000,4182A,116.1942,39.9158,北京市,石景山八角,颗粒物(PM10),69,76,88,31,44,120,120,131,131,17,31,4,3,0.4,0.5
2026-04-23T2000,4194A,117.078628,40.151726,北京市,平谷新城,NA,NA,38,74,16,37,NA,NA,142,142,24,16,2,5,0.4,0.6
2026-04-23T2000,1761A,123.8274146,41.31234549,本溪市,大峪,颗粒物(PM10),76,86,46,32,16,104,104,117,117,17,18,8,8,0.7,0.8
2026-04-23T2000,1763A,123.7169,41.3094,本溪市,彩屯,颗粒物(PM10),63,68,49,38,21,122,122,125,125,14,26,11,18,0.7,1.4
2026-04-23T2000,1764A,123.7672166,41.28649327,本溪市,东明,颗粒物(PM10),78,88,55,36,18,118,118,120,120,20,28,8,6,0.9,0.8
2026-04-23T2000,1765A,123.799345,41.266614,本溪市,新立屯,颗粒物(PM10),62,66,35,23,12,18,18,119,107,76,25,9,9,0.7,0.6
2026-04-23T2000,1766A,123.829144,41.336777,本溪市,威宁,颗粒物(PM10),70,77,56,36,19,111,111,121,121,17,21,9,9,0.6,0.7
2026-04-23T2000,2587A,105.287,27.3133,毕节市,八中,,35,31,23,24,14,79,79,97,96,9,8,8,10,0.4,0.5
2026-04-23T2000,2588A,105.3079,27.2987,毕节市,师专,,28,28,26,13,15,79,79,93,92,8,8,10,12,0.4,0.4
2026-04-23T2000,4263A,105.3688,27.3598,毕节市,工业大道,,30,30,25,17,11,85,85,105,104,7,6,10,10,/,/
2026-04-23T2000,1629A,117.9961,37.3604,滨州市,第二水厂,细颗粒物(PM2.5),101,88,76,61,46,114,114,142,142,20,29,7,9,0.8,0.7
2026-04-23T2000,1630A,117.9789,37.3931,滨州市,北中新校,细颗粒物(PM2.5),113,NA,65,74,51,136,136,154,154,16,24,8,8,0.5,0.5
2026-04-23T2000,3514A,117.9379,37.3959,滨州市,中海酒店,颗粒物(PM10),68,75,63,42,35,128,128,152,152,26,26,8,10,0.7,0.6
2026-04-23T2000,3515A,117.9381509,37.35547456,滨州市,开发区一中,细颗粒物(PM2.5),96,92,76,58,50,91,91,136,134,42,31,8,12,0.9,0.8
2026-04-23T2000,3516A,118.0914,37.6938,滨州市,金海六路,细颗粒物(PM2.5),68,73,56,44,36,124,124,138,138,22,18,9,9,0.8,0.7
2026-04-23T2000,4028A,117.9955,37.3752,滨州市,滨州市西街道办事处,细颗粒物(PM2.5),74,73,71,47,44,128,128,152,152,16,23,6,8,0.6,0.6
2026-04-23T2000,2311A,115.8071,33.8399,亳州市,污水处理厂,,29,25,31,3,13,90,90,110,108,12,10,6,6,0.1,0.2
2026-04-23T2000,2312A,115.7789,33.8519,亳州市,三国揽胜宫,,30,20,31,3,12,93,93,103,102,6,9,8,8,0.2,0.2
2026-04-23T2000,3332A,115.7631,33.803,亳州市,亳州学院,,29,14,28,3,12,90,90,104,103,6,7,7,7,0.3,0.3
2026-04-23T2000,2693A,82.0482,44.8553,博尔塔拉蒙古自治州,市党校,,50,50,62,10,12,126,126,126,126,13,8,4,3,0.2,0.2
2026-04-23T2000,2694A,82.0805,44.8966,博尔塔拉蒙古自治州,市环保局,颗粒物(PM10),55,57,67,8,12,111,111,117,117,19,18,5,4,0.4,0.4
2026-04-23T2000,1071A,116.8733,38.2922,沧州市,沧县城建局,颗粒物(PM10),55,56,65,36,41,110,110,126,125,18,27,8,8,0.6,0.6
2026-04-23T2000,1072A,116.8462,38.3189,沧州市,电视转播站,NA,NA,58,64,27,39,125,125,133,133,13,22,8,12,NA,NA
2026-04-23T2000,1073A,116.8588,38.3161,沧州市,市环保局,颗粒物(PM10),69,76,72,34,36,113,113,128,127,16,25,7,10,0.7,0.7
2026-04-23T2000,3324A,116.8011,38.294,沧州市,河北水利电力学院,,50,48,61,35,39,104,104,116,116,16,22,8,11,0.3,0.4
2026-04-23T2000,2622A,97.1813,31.1289,昌都市,昌都监测站,,32,23,36,3,14,101,101,107,106,5,13,8,7,0.5,0.3
2026-04-23T2000,3719A,97.1707,31.1428,昌都市,昌都会议中心,,33,23,31,8,14,104,104,112,112,3,6,5,5,0.3,0.3
2026-04-23T2000,2692A,87.2722,44.0298,昌吉回族自治州,新区政务中心,,36,35,39,15,17,114,114,124,124,9,22,6,5,0.3,0.6
2026-04-23T2000,3613A,87.3069,44.0093,昌吉回族自治州,亚心广场,,41,41,53,13,19,120,120,135,135,8,23,7,8,0.3,0.5
2026-04-23T2000,4164A,87.2057,43.9289,昌吉回族自治州,财政所,颗粒物(PM10),53,53,50,19,11,118,118,125,125,14,15,8,8,0.4,0.4
2026-04-23T2000,1120A,125.2874,43.9024,长春市,客车厂,颗粒物(PM10),52,52,42,35,23,82,82,104,100,33,28,8,8,0.4,0.5
2026-04-23T2000,1121A,125.2943,43.8508,长春市,邮电学院,,48,44,35,33,19,88,88,110,107,22,19,7,7,0.5,0.4
2026-04-23T2000,1122A,125.3648,43.8745,长春市,劳动公园,,47,47,38,31,19,88,88,109,106,32,28,8,7,0.5,0.4
2026-04-23T2000,1123A,125.3233,43.8781,长春市,园林处,,46,44,36,32,18,92,92,111,108,24,18,9,7,0.4,0.4
2026-04-23T2000,1124A,125.4604,43.7904,长春市,净月潭,,36,27,25,16,16,113,113,113,113,7,9,5,5,0.3,0.3
2026-04-23T2000,1126A,125.38,43.8422,长春市,经开区环卫处,,44,44,38,27,19,68,68,108,103,55,31,6,5,0.5,0.5
2026-04-23T2000,1127A,125.234,43.7761,长春市,高新区管委会,,46,46,36,19,19,68,68,101,94,30,29,7,7,0.3,0.3
2026-04-23T2000,1128A,125.1695,43.83,长春市,岱山公园,,41,41,45,19,21,87,87,111,103,27,33,4,5,0.4,0.4
2026-04-23T2000,4281A,125.334645,43.916281,长春市,北亚泰大街1068号,,50,NA,39,35,20,80,80,108,105,34,30,8,6,0.4,0.3
2026-04-23T2000,1335A,113.082,28.2421,长沙市,经开区环保局,,40,35,27,28,17,87,87,99,99,20,16,3,3,0.5,0.4
2026-04-23T2000,1336A,112.8873,28.2202,长沙市,高开区环保局,,36,36,27,24,20,98,98,104,104,10,13,6,6,0.4,0.4
2026-04-23T2000,1337A,113.0785,28.2012,长沙市,马坡岭,,40,34,26,28,20,89,89,104,104,17,15,6,6,0.7,0.7
2026-04-23T2000,1338A,112.9448,28.1894,长沙市,湖南师范大学,,35,34,26,24,19,82,82,102,100,11,12,6,6,0.5,0.5
2026-04-23T2000,1339A,113.0177,28.1322,长沙市,雨花区环保局,,50,NA,26,35,20,90,90,104,103,15,11,5,4,0.6,0.6
2026-04-23T2000,1340A,112.9795,28.2593,长沙市,伍家岭,,42,41,30,29,22,76,76,94,93,19,14,4,5,0.5,0.4
2026-04-23T2000,1341A,113.002,28.1944,长沙市,火车新站,,45,38,26,31,21,84,84,99,98,19,13,5,5,0.3,0.3
2026-04-23T2000,1342A,112.9846,28.1177,长沙市,天心区环保局,,46,36,28,32,20,90,90,105,104,20,18,6,6,0.5,0.3
2026-04-23T2000,1343A,112.8906,28.1307,长沙市,湖南中医药大学,,42,36,26,29,18,97,97,107,107,13,17,6,6,0.5,0.5
2026-04-23T2000,1727A,113.1146,36.1547,长治市,清华站,,40,40,35,17,20,124,124,134,134,17,16,13,9,0.6,0.6
2026-04-23T2000,1730A,113.0887,36.2126,长治市,审计局,NA,NA,44,42,24,27,NA,NA,135,135,14,15,13,9,0.6,0.6
2026-04-23T2000,1731A,113.0845,36.1856,长治市,长治八中,颗粒物(PM10),61,65,50,24,25,121,121,130,130,22,18,14,10,0.6,0.7
2026-04-23T2000,2845A,113.1561,36.1912,长治市,德盛苑,,42,39,37,23,23,133,133,140,140,14,14,11,10,0.5,0.7
2026-04-23T2000,3568A,113.0603,36.0464,长治市,向阳小学,颗粒物(PM10),60,64,64,24,20,128,128,136,136,18,20,12,10,0.7,0.8
2026-04-23T2000,3569A,112.8788,36.315,长治市,屯留一中,,50,50,50,19,29,102,102,128,126,21,21,8,7,0.4,0.7
2026-04-23T2000,4189A,113.113092,36.199482,长治市,英华南巷50号,颗粒物(PM10),51,51,44,24,24,130,130,135,135,13,14,8,5,0.7,0.8
2026-04-23T2000,4190A,113.23666,36.33435,长治市,学府街1号,,41,41,47,14,22,130,130,131,131,6,20,5,5,0.6,0.8
2026-04-23T2000,1854A,111.696,28.9725,常德市,市二中,,45,37,20,31,12,105,105,108,108,12,12,8,8,0.7,0.7
2026-04-23T2000,3138A,111.7152,29.0288,常德市,武陵区永安,,37,37,20,15,7,106,106,111,111,12,12,6,7,0.6,0.6
2026-04-23T2000,3139A,111.6891,28.9881,常德市,鼎城区玉霞,,46,38,20,32,12,110,110,110,110,9,8,8,8,0.6,0.6
2026-04-23T2000,3140A,111.6651,29.0526,常德市,武陵区长庚,,46,33,21,32,14,112,112,110,110,8,10,9,10,0.7,0.7
2026-04-23T2000,1196A,119.9524,31.7586,常州市,市监测站,,46,46,19,13,4,83,83,101,100,21,10,6,5,0.6,0.5
2026-04-23T2000,1200A,119.9351,31.703,常州市,武进监测站,,45,45,17,17,5,74,74,98,96,31,15,7,4,0.6,0.5
2026-04-23T2000,3002A,119.9701,31.813,常州市,行政中心,NA,NA,51,22,14,5,71,71,94,92,31,17,NA,5,0.2,0.1
2026-04-23T2000,3003A,120.0434,31.7726,常州市,经开区,,40,40,24,9,5,70,70,100,98,29,10,3,2,0.4,0.4
2026-04-23T2000,3010A,119.8919,31.7892,常州市,钟楼,,34,34,15,14,5,73,73,105,103,34,18,8,8,0.1,0.1
2026-04-23T2000,3429A,119.8595,31.706,常州市,武进经发区,颗粒物(PM10),54,55,30,21,11,73,73,97,92,38,25,7,5,0.4,0.4
2026-04-23T2000,3430A,119.5812,31.7256,常州市,金坛城区,,37,37,15,21,10,83,83,106,105,17,8,8,8,0.6,0.5
2026-04-23T2000,4089A,119.9551,31.863,常州市,崇义南街5-H号,,46,46,23,12,4,82,82,95,94,22,11,6,6,0.4,0.4
2026-04-23T2000,2220A,120.4318,41.588,朝阳市,西梁,颗粒物(PM10),68,74,55,39,20,147,147,144,144,20,22,14,9,1.0,0.5
2026-04-23T2000,2221A,120.452,41.565,朝阳市,河畔小区,颗粒物(PM10),60,63,51,30,18,153,153,151,151,15,19,14,12,0.8,0.5
2026-04-23T2000,2222A,120.4176,41.5648,朝阳市,八里堡,颗粒物(PM10),68,74,53,42,18,141,141,143,143,23,25,15,11,1.0,0.5
2026-04-23T2000,3026A,116.6179,23.6608,潮州市,市政府,,11,NA,35,3,21,34,34,38,33,8,18,3,13,0.5,0.6
2026-04-23T2000,4036A,116.646,23.676,潮州市,金山,,10,6,33,3,21,30,30,34,27,4,16,2,6,0.4,0.5
2026-04-23T2000,2473A,113.0116,25.8228,郴州市,市职中,,27,27,15,18,11,20,20,64,59,19,13,5,5,0.8,0.6
2026-04-23T2000,2475A,113.0381,25.8074,郴州市,市审计局,,25,23,15,17,12,46,46,76,73,14,12,2,3,/,/
2026-04-23T2000,2476A,113.0348,25.7757,郴州市,市环保局,,27,27,24,14,14,52,52,67,66,12,13,5,7,0.5,0.5
2026-04-23T2000,4252A,113.0138,25.8011,郴州市,好美居路49号,NA,NA,100,21,23,10,41,41,74,71,NA,10,3,3,/,/
2026-04-23T2000,1431A,103.9727,30.7242,成都市,金泉两河,颗粒物(PM10),55,56,44,22,26,99,99,126,126,20,22,3,4,0.4,0.5
2026-04-23T2000,1432A,104.1423,30.6765,成都市,十里店,颗粒物(PM10),51,51,47,23,29,123,123,131,131,19,23,5,5,0.5,0.6
2026-04-23T2000,1433A,104.0594,30.5765,成都市,三瓦窑,颗粒物(PM10),72,80,48,21,29,117,117,123,123,21,22,3,4,0.8,0.7
2026-04-23T2000,1434A,104.1122,30.6306,成都市,沙河铺,,50,50,49,20,27,88,88,108,108,33,25,3,3,0.4,0.4
2026-04-23T2000,2880A,104.0219,30.6561,成都市,大石西路,NA,NA,109,50,30,29,97,97,111,111,NA,22,5,5,0.5,0.5
2026-04-23T2000,3136A,104.2724,30.559,成都市,龙泉驿区区政府,,48,48,40,22,24,99,99,123,123,14,16,8,8,0.5,0.5
2026-04-23T2000,3357A,104.0028,30.6891,成都市,金博路,颗粒物(PM10),57,59,35,22,26,101,101,121,121,30,29,6,6,0.5,0.5
2026-04-23T2000,3359A,104.056,30.5228,成都市,华阳,颗粒物(PM10),55,56,46,23,25,115,115,123,123,19,19,4,5,0.4,0.3
2026-04-23T2000,3488A,104.387954,30.746684,成都市,青石路225号,颗粒物(PM10),53,53,44,20,25,81,81,126,123,33,29,6,5,0.7,0.7
2026-04-23T2000,3489A,104.0788,30.4054,成都市,科学城,,41,41,40,21,24,130,130,126,126,12,14,6,6,0.5,0.6
2026-04-23T2000,4011A,103.8505,30.6946,成都市,光华大道三段,颗粒物(PM10),63,67,47,28,25,103,103,124,124,16,14,5,5,0.6,0.6
2026-04-23T2000,4144A,104.3257,30.6406,成都市,八角井街185号,颗粒物(PM10),58,61,49,15,23,98,98,122,122,10,15,6,6,0.5,0.5
2026-04-23T2000,4224A,104.2433276,30.53529463,成都市,鲸龙路1057号,颗粒物(PM10),58,61,55,25,18,99,99,132,132,34,23,7,7,0.6,0.6
2026-04-23T2000,1062A,117.9531,40.908,承德市,铁路,细颗粒物(PM2.5),74,76,56,47,24,150,150,141,141,18,16,5,4,0.4,0.5
2026-04-23T2000,1063A,117.9397,40.9763,承德市,中国银行,颗粒物(PM10),71,79,52,34,21,144,144,139,139,14,12,4,3,0.5,0.5
2026-04-23T2000,4073A,117.9462,40.95,承德市,杏林街1号,细颗粒物(PM2.5),68,65,55,44,29,158,158,148,148,11,11,4,3,0.4,0.5
2026-04-23T2000,4274A,117.7994,40.9605,承德市,滨河大街98号,细颗粒物(PM2.5),82,74,46,51,22,119,119,147,146,17,14,30,17,0.3,0.6
2026-04-23T2000,2314A,117.4698,30.6617,池州市,池州学院,,21,21,8,10,4,66,66,77,77,19,15,3,2,0.8,0.7
2026-04-23T2000,3237A,117.4918,30.6617,池州市,展览馆,,24,12,9,7,5,75,75,80,80,16,17,2,2,0.4,0.4
2026-04-23T2000,3333A,117.5626,30.695,池州市,第八中学,,21,11,8,8,6,65,65,77,77,17,20,3,3,0.3,0.3
2026-04-23T2000,3334A,117.5037,30.6242,池州市,第十二中学,,24,8,8,6,6,76,76,78,78,18,20,2,2,0.5,0.5
2026-04-23T2000,1744A,118.9229,42.2816,赤峰市,松山一中,颗粒物(PM10),56,58,47,24,21,121,121,125,124,18,28,6,14,0.6,0.6
2026-04-23T2000,1745A,118.9588,42.2733,赤峰市,哈达街,颗粒物(PM10),64,69,47,30,21,103,103,107,107,14,22,8,21,0.7,0.8
2026-04-23T2000,1746A,118.8792,42.2551,赤峰市,天义路,,50,50,41,34,20,119,119,122,121,16,24,5,13,0.5,0.5
2026-04-23T2000,3058A,119.2656,42.0356,赤峰市,银河街,颗粒物(PM10),61,65,63,40,25,132,132,135,135,10,12,12,13,0.7,0.7
2026-04-23T2000,3286A,118.9359,42.3146,赤峰市,桥北物流园区,颗粒物(PM10),60,64,41,28,20,104,104,118,115,24,25,4,8,0.5,0.4
2026-04-23T2000,2521A,107.3473,22.4137,崇左市,市环保局江州分局,,34,34,29,13,15,65,65,63,63,13,10,3,6,0.7,0.7
2026-04-23T2000,4256A,107.375,22.3736,崇左市,石景林东路7号,,20,17,23,9,13,62,62,66,66,11,9,4,3,0.5,0.8
2026-04-23T2000,3207A,118.31131,32.3033,滁州市,市政府原办公楼,,41,41,24,25,18,80,80,102,101,22,12,5,5,0.5,0.3
2026-04-23T2000,3331A,118.3268,32.2633,滁州市,图书馆,NA,NA,NA,19,NA,9,78,78,102,101,26,11,9,9,NA,0.2
2026-04-23T2000,4101A,118.3196,32.3335,滁州市,银山路666号,,42,42,26,12,11,86,86,103,102,17,11,6,6,0.3,0.2
2026-04-23T2000,4102A,118.3426,32.2979,滁州市,黄山路555号,颗粒物(PM10),58,60,32,17,12,79,79,106,105,29,9,7,6,0.7,0.5
2026-04-23T2000,2606A,101.5379,25.0492,楚雄彝族自治州,市经济开发区,细颗粒物(PM2.5),56,54,57,38,33,130,130,144,142,15,14,2,4,0.7,0.7
2026-04-23T2000,4153A,101.5536,25.0343,楚雄彝族自治州,团结路562号,NA,NA,47,50,42,31,146,146,150,148,6,11,4,6,NA,0.4
2026-04-23T2000,2549A,107.5087,31.2186,达州市,市环境监测站,颗粒物(PM10),66,72,27,39,6,35,35,100,96,79,24,7,6,0.9,0.3
2026-04-23T2000,2550A,107.4988,31.2132,达州市,凤凰小区,颗粒物(PM10),68,75,27,40,7,33,33,100,95,80,24,6,5,0.8,0.2
2026-04-23T2000,2551A,107.5081,31.1987,达州市,达县机关宾馆,颗粒物(PM10),65,70,29,38,9,7,7,97,89,93,31,5,5,0.7,0.3
2026-04-23T2000,2552A,107.4644,31.2124,达州市,市政中心,颗粒物(PM10),59,62,34,31,9,61,61,109,106,57,25,6,6,0.6,0.4
2026-04-23T2000,2614A,100.2168,25.5818,大理白族自治州,大理市环境监测站,,40,40,34,26,23,108,108,110,109,13,12,4,4,0.5,0.5
2026-04-23T2000,2615A,100.1542,25.7055,大理白族自治州,大理古城,,44,44,37,28,23,112,112,117,117,8,9,4,4,0.5,0.5
2026-04-23T2000,1109A,121.6119,38.974,大连市,甘井子,,34,34,38,20,21,102,102,120,116,24,24,8,9,0.7,0.6
2026-04-23T2000,1110A,121.565,38.9509,大连市,周水子,,48,48,47,29,22,70,70,107,100,45,36,8,7,0.6,0.5
2026-04-23T2000,1111A,121.5637,38.8849,大连市,星海三站,,35,35,36,22,15,98,98,109,108,22,20,5,6,0.5,0.4
2026-04-23T2000,1112A,121.6301,38.9117,大连市,青泥洼桥,,40,18,42,11,18,125,125,125,125,10,25,5,6,0.2,0.4
2026-04-23T2000,1113A,121.6248,38.8643,大连市,傅家庄,,35,27,37,12,17,111,111,102,102,10,16,8,9,0.4,0.5
2026-04-23T2000,1114A,121.5117,38.8636,大连市,七贤岭,颗粒物(PM10),55,57,32,28,16,61,61,114,105,50,16,6,7,0.6,0.5
2026-04-23T2000,1116A,121.7507,39.1339,大连市,金州,,42,42,74,20,28,80,80,114,109,44,28,11,6,0.5,0.5
2026-04-23T2000,1117A,121.7811,39.0495,大连市,开发区,NA,NA,42,63,19,28,93,93,116,113,NA,28,8,11,0.5,0.5
2026-04-23T2000,1118A,121.9762,39.0631,大连市,双D港,,33,33,41,20,17,71,71,106,99,33,19,5,7,0.6,0.6
2026-04-23T2000,4082A,121.2548,38.8188,大连市,旅顺,,35,35,55,19,29,73,73,105,100,42,22,6,9,0.4,0.5
2026-04-23T2000,1789A,124.8085,46.0381,大庆市,大同区,,45,45,44,21,19,81,81,106,101,15,21,2,4,0.5,0.5
2026-04-23T2000,1790A,125.1166,46.5255,大庆市,龙凤区,细颗粒物(PM2.5),74,NA,45,47,22,74,74,88,85,11,16,5,5,0.2,0.2
2026-04-23T2000,1791A,124.8894,46.4007,大庆市,红岗区,,37,37,37,17,22,71,71,96,90,8,14,8,9,0.5,0.5
2026-04-23T2000,1792A,125.1391,46.578,大庆市,萨尔图区,,40,40,35,21,19,79,79,94,92,11,18,6,7,0.3,0.4
2026-04-23T2000,1793A,124.9026,46.6217,大庆市,让胡路区,,35,35,40,21,21,71,71,86,84,18,25,3,2,0.3,0.4
2026-04-23T2000,3481A,125.127,46.6277,大庆市,萨区政府监测点,NA,NA,NA,28,NA,14,80,80,92,91,3,10,8,9,0.3,0.4
2026-04-23T2000,1723A,113.2926,40.0759,大同市,云冈宾馆,颗粒物(PM10),78,88,116,19,26,79,79,122,118,40,43,7,9,0.6,0.9
2026-04-23T2000,1724A,113.3437,40.0921,大同市,大同大学,颗粒物(PM10),52,52,58,28,27,89,89,125,121,33,39,3,9,0.4,0.5
2026-04-23T2000,1725A,113.2637,40.129,大同市,安家小村,颗粒物(PM10),78,89,82,30,30,84,84,126,119,34,31,10,10,0.3,0.8
2026-04-23T2000,3282A,113.3399,40.0586,大同市,大同市卫生学校,颗粒物(PM10),83,96,83,32,25,103,103,131,128,22,37,5,9,0.4,0.6
2026-04-23T2000,3565A,113.1371,40.1122,大同市,云冈站,颗粒物(PM10),78,88,75,24,23,76,76,115,111,27,37,5,10,0.3,0.5
2026-04-23T2000,3566A,113.1186,40.2556,大同市,图书馆,颗粒物(PM10),70,78,63,26,21,83,83,118,115,9,14,4,6,0.7,0.8
2026-04-23T2000,3567A,113.5931,40.0459,大同市,区一中,颗粒物(PM10),63,68,66,39,22,95,95,138,132,23,18,1,3,0.8,0.8
2026-04-23T2000,4199A,113.2798248,40.09972476,大同市,魏都大道141号,NA,NA,94,111,41,33,53,53,123,114,NA,47,8,12,0.5,1.4
2026-04-23T2000,2269A,124.1068,50.4091,大兴安岭地区,科技局,NA,NA,22,23,10,11,NA,NA,78,78,2,4,5,9,0.1,0.5
2026-04-23T2000,3663A,124.117,50.4279,大兴安岭地区,红旗社区,,26,12,12,11,6,83,83,88,88,6,9,5,7,0.2,0.2
2026-04-23T2000,1600A,124.33,40.0625,丹东市,江湾东路,颗粒物(PM10),61,65,35,30,12,90,90,127,121,31,11,6,6,0.5,0.3
2026-04-23T2000,1601A,124.4242,40.1513,丹东市,临江后街,颗粒物(PM10),67,73,32,33,10,85,85,121,116,21,8,10,7,0.7,0.3
2026-04-23T2000,1602A,124.3935,40.1461,丹东市,元宝山,,41,41,32,18,9,104,104,118,117,15,11,8,7,0.4,0.3
2026-04-23T2000,1603A,124.3634,40.1093,丹东市,民主桥,颗粒物(PM10),55,56,37,22,11,106,106,119,116,15,12,8,8,0.6,0.5
2026-04-23T2000,3541A,109.5726195,19.51688767,儋州市,第一中学子站,颗粒物(PM10),55,56,54,35,35,40,40,59,44,10,9,4,5,0.7,0.6
2026-04-23T2000,3542A,109.5567,19.5187,儋州市,东坡学校子站,颗粒物(PM10),51,51,47,35,35,41,41,59,47,11,9,2,4,0.7,0.6
2026-04-23T2000,2616A,98.5611,24.4273,德宏傣族景颇族自治州,德宏州监测站,细颗粒物(PM2.5),74,48,65,47,61,93,93,130,127,20,23,6,6,0.7,0.8
2026-04-23T2000,3677A,98.5887,24.4366,德宏傣族景颇族自治州,芒市人民政府综合楼,颗粒物(PM10),73,81,103,42,57,66,66,132,125,17,18,2,3,1.3,1.3
2026-04-23T2000,1901A,104.424,31.1209,德阳市,东山公园,颗粒物(PM10),55,56,46,33,33,145,145,136,136,15,19,5,5,0.5,0.6
2026-04-23T2000,1902A,104.3827,31.1318,德阳市,西小区,颗粒物(PM10),64,69,62,33,35,128,128,127,127,25,27,4,4,0.7,0.7
2026-04-23T2000,1904A,104.3553,31.1091,德阳市,耐火材料厂,颗粒物(PM10),69,76,64,37,43,148,148,147,147,26,31,3,3,0.4,0.6
2026-04-23T2000,4145A,104.4144,31.1495,德阳市,市林业局,颗粒物(PM10),58,61,50,35,34,129,129,146,146,37,28,3,3,0.4,0.5
2026-04-23T2000,1622A,116.3034,37.4675,德州市,儿童乐园,颗粒物(PM10),56,58,60,24,29,116,116,128,128,14,17,7,7,0.5,0.6
2026-04-23T2000,1624A,116.2992,37.4449,德州市,监理站,颗粒物(PM10),63,68,53,21,26,113,113,126,126,14,17,9,10,0.4,0.4
2026-04-23T2000,3066A,116.2722,37.438,德州市,九衢泉纯净水厂,颗粒物(PM10),58,61,58,18,29,109,109,82,82,21,37,17,11,0.6,0.7
2026-04-23T2000,3371A,116.3693,37.44,德州市,开发区人民医院,颗粒物(PM10),60,63,60,31,33,114,114,124,124,18,28,10,10,0.7,0.7
2026-04-23T2000,3511A,116.5687,37.3331,德州市,陵城艺术中心,颗粒物(PM10),53,53,57,21,32,113,113,124,124,17,19,9,9,0.5,0.5
2026-04-23T2000,4292A,116.352738,37.420875,德州市,新河东路,颗粒物(PM10),56,58,53,18,26,109,109,123,123,15,34,8,8,0.7,0.7
2026-04-23T2000,2621A,99.7054,27.8319,迪庆藏族自治州,迪庆州站,,30,25,22,9,8,95,95,101,101,12,9,7,7,0.4,0.4
2026-04-23T2000,3180A,99.7122,27.8129,迪庆藏族自治州,质量技术监督局,,31,25,19,12,10,98,98,107,107,13,9,8,8,0.4,0.3
2026-04-23T2000,4257A,104.6092,35.5962,定西市,将台街,颗粒物(PM10),85,98,97,45,40,119,119,122,122,6,21,3,4,0.1,0.1
2026-04-23T2000,4309A,104.6159,35.5701,定西市,正龙路62号,颗粒物(PM10),94,111,97,53,43,117,117,123,123,9,11,2,3,0.3,0.3
2026-04-23T2000,4071A,114.9883,38.5232,定州市,交通局,颗粒物(PM10),65,70,70,26,34,95,95,127,125,19,19,7,10,0.3,0.5
2026-04-23T2000,4072A,115.0045,38.5136,定州市,第五中学,颗粒物(PM10),75,85,76,24,30,93,93,122,120,17,20,3,6,0.3,0.4
2026-04-23T2000,1390A,113.7943,23.0132,东莞市,东城石井,,12,12,22,7,13,22,22,24,17,19,25,4,5,0.8,0.7
2026-04-23T2000,1391A,113.7384,22.9659,东莞市,南城西平,,12,12,24,7,13,15,15,35,11,24,23,5,6,0.6,0.5
2026-04-23T2000,3319A,113.7283,23.041,东莞市,万江金泰,,24,24,23,10,13,16,16,28,15,26,25,6,6,0.8,0.7
2026-04-23T2000,4129A,113.8666,23.1062,东莞市,裕兴路,,8,8,23,3,10,24,24,30,17,10,18,5,5,0.7,0.7
2026-04-23T2000,4130A,114.0076,22.9739,东莞市,教育路1号,,13,13,27,7,14,22,22,42,22,24,21,7,6,0.6,0.6
2026-04-23T2000,4131A,113.7981,22.8124,东莞市,长怡路1号,NA,NA,8,30,3,12,7,7,45,10,28,18,6,6,NA,0.6
2026-04-23T2000,1666A,118.6612,37.4313,东营市,市环保局,颗粒物(PM10),58,61,45,38,25,107,107,136,136,28,19,8,8,0.4,0.3
2026-04-23T2000,3036A,118.6903,37.4337,东营市,开发区管委会,颗粒物(PM10),60,63,41,24,20,115,115,132,132,31,23,8,8,0.5,0.3
2026-04-23T2000,3365A,118.5721,37.5654,东营市,垦利区民丰路,颗粒物(PM10),67,73,44,28,23,92,92,174,170,56,27,14,11,0.7,0.4
2026-04-23T2000,3498A,118.5063,37.8606,东营市,河口城区,细颗粒物(PM2.5),86,92,44,53,19,142,142,168,168,18,13,10,9,1.0,0.9
2026-04-23T2000,3646A,118.4979,37.4623,东营市,胜利站,细颗粒物(PM2.5),80,76,48,50,26,134,134,160,160,48,22,10,9,0.9,0.6
2026-04-23T2000,3734A,118.5753,37.4405,东营市,理想之城,NA,NA,80,46,26,22,NA,NA,155,155,32,27,NA,8,0.6,0.5
2026-04-23T2000,1591A,110.0024,39.8127,鄂尔多斯市,综合楼,颗粒物(PM10),86,100,91,30,25,104,104,116,115,19,21,8,8,0.3,0.4
2026-04-23T2000,1592A,109.9485,39.8259,鄂尔多斯市,巴音孟克林场办事处,颗粒物(PM10),78,88,82,29,24,112,112,123,121,14,21,5,6,0.3,0.4
2026-04-23T2000,1593A,109.7734,39.5987,鄂尔多斯市,康泽苑,颗粒物(PM10),75,85,78,28,20,107,107,121,119,14,12,7,7,0.4,0.3
2026-04-23T2000,1594A,109.8121,39.5987,鄂尔多斯市,华泰汽车城,颗粒物(PM10),74,83,81,30,21,105,105,120,116,16,20,6,8,0.3,0.4
2026-04-23T2000,1595A,109.9734,39.7884,鄂尔多斯市,奥林花园,颗粒物(PM10),86,100,91,28,19,95,95,120,117,25,36,5,5,0.2,0.2
2026-04-23T2000,2436A,114.894,30.3989,鄂州市,市政府,,17,17,14,6,5,41,41,64,61,32,19,8,8,0.4,0.4
2026-04-23T2000,2437A,114.8986,30.3714,鄂州市,赵家坝,,34,34,21,13,8,68,68,74,74,12,9,1,5,0.6,0.5
2026-04-23T2000,3654A,114.8093,30.4091,鄂州市,精准医疗中心,,21,19,16,6,8,66,66,76,76,5,6,4,6,0.7,0.6
2026-04-23T2000,2454A,109.4978,30.2979,恩施土家族苗族自治州,湖北民院,,42,NA,14,29,9,63,63,101,100,22,10,8,8,0.5,0.4
2026-04-23T2000,3549A,109.5061,30.3771,恩施土家族苗族自治州,龙凤新区,,16,16,11,6,7,47,47,86,84,16,7,7,7,0.4,0.4
2026-04-23T2000,2499A,108.3411,21.6159,防城港市,沙万,,39,39,39,12,11,59,59,52,52,11,13,6,5,0.7,0.6
2026-04-23T2000,2500A,108.3515,21.7733,防城港市,防城档案局,,37,37,28,13,12,54,54,48,48,8,7,7,7,0.6,0.5
2026-04-23T2000,2501A,108.3506,21.6414,防城港市,大海花园,,31,31,21,17,15,58,58,53,53,12,11,7,7,0.6,0.7
2026-04-23T2000,1371A,113.1293,23.0065,佛山市,湾梁,,18,12,15,12,14,34,34,31,31,20,20,/,/,/,/
2026-04-23T2000,1372A,113.1082,23.0477,佛山市,华材职中,,17,17,20,9,14,39,39,32,32,22,23,4,4,0.5,0.4
2026-04-23T2000,1373A,113.1439,23.045,佛山市,南海气象局,,15,15,18,10,12,29,29,30,30,25,21,/,/,/,/
2026-04-23T2000,1374A,113.2879,22.8094,佛山市,顺德苏岗,,19,17,15,13,15,17,17,24,20,30,21,/,/,0.8,0.6
2026-04-23T2000,1376A,112.8384,22.8678,佛山市,高明孔堂,,16,16,20,6,12,42,42,36,36,20,19,/,/,/,/
2026-04-23T2000,1377A,112.8835,23.1584,佛山市,三水监测站,,13,NA,12,6,11,40,40,46,46,18,18,4,5,0.5,0.5
2026-04-23T2000,1378A,112.8668,23.185,佛山市,三水云东海,,24,24,29,3,11,29,29,38,38,13,16,/,/,/,/
2026-04-23T2000,3625A,113.2568,22.7629,佛山市,容桂街道办,,25,NA,18,17,17,17,17,27,17,35,25,/,/,/,/
2026-04-23T2000,1282A,119.2681,26.0506,福州市,师大,,15,9,18,3,10,48,48,42,42,19,14,3,3,0.5,0.4
2026-04-23T2000,1283A,119.2983,26.1028,福州市,五四北路,,16,6,22,3,12,49,49,37,37,19,21,4,4,0.5,0.4
2026-04-23T2000,1284A,119.2648,26.0769,福州市,杨桥西路,,15,11,20,3,10,48,48,43,43,19,15,3,3,/,/
2026-04-23T2000,3048A,119.5799,26.0937,福州市,九龙,,22,8,24,3,18,68,68,63,63,9,18,5,5,0.4,0.4
2026-04-23T2000,3526A,119.5188,25.9666,福州市,吴航,,23,6,25,3,17,72,72,60,60,11,19,5,5,0.5,0.5
2026-04-23T2000,4104A,119.3106,26.0648,福州市,路通桥巷6号,,14,7,19,6,17,44,44,39,39,19,16,/,/,/,/
2026-04-23T2000,1755A,123.7974,41.8494,抚顺市,望花区,颗粒物(PM10),68,74,62,33,26,95,95,127,122,38,28,11,12,0.8,0.8
2026-04-23T2000,1756A,123.9161,41.8827,抚顺市,顺城区,,48,48,41,20,20,96,96,127,123,29,29,17,11,0.7,0.6
2026-04-23T2000,1757A,124.0437,41.8615,抚顺市,东洲区,颗粒物(PM10),63,67,33,20,13,89,89,122,119,24,16,13,10,0.6,0.5
2026-04-23T2000,1758A,123.9246,41.8638,抚顺市,新抚区,颗粒物(PM10),55,56,48,33,22,99,99,129,124,27,27,12,9,0.7,0.5
2026-04-23T2000,1759A,124.0972,41.8961,抚顺市,大伙房水库,颗粒物(PM10),59,62,47,34,17,95,95,124,123,25,15,12,9,0.5,0.4
2026-04-23T2000,1760A,123.708,41.8386,抚顺市,沈抚新城,颗粒物(PM10),56,58,52,29,21,118,118,128,124,24,32,10,13,0.7,1
2026-04-23T2000,2377A,116.3544,27.9833,抚州市,市站,颗粒物(PM10),57,59,24,3,12,78,78,83,83,9,8,1,1,1.3,0.9
2026-04-23T2000,2378A,116.3562,27.9631,抚州市,血防站,,28,27,24,12,12,87,87,92,92,8,6,7,7,0.8,0.8
2026-04-23T2000,2379A,116.3561,28.0007,抚州市,采茶剧团,,27,25,21,18,13,84,84,90,89,9,7,14,14,0.8,0.8
2026-04-23T2000,2380A,116.3854,27.9648,抚州市,医学分院,,28,26,28,15,12,87,87,94,93,9,6,6,7,0.8,0.8
2026-04-23T2000,2207A,121.6095,41.9978,阜新市,工业园区,颗粒物(PM10),67,73,75,30,25,109,109,118,118,19,23,11,11,0.5,0.5
2026-04-23T2000,2208A,121.6567,42.0188,阜新市,长青街,颗粒物(PM10),61,65,59,30,23,108,108,122,121,21,25,14,12,0.6,0.6
2026-04-23T2000,2209A,121.6672,42.07,阜新市,农业园区,颗粒物(PM10),65,71,66,36,22,114,114,123,123,19,17,8,15,0.5,0.5
2026-04-23T2000,2211A,121.6343,42.0455,阜新市,玉龙新城,颗粒物(PM10),67,73,72,31,25,112,112,123,122,21,31,10,11,0.6,0.6
2026-04-23T2000,2301A,115.8276,32.8929,阜阳市,市监测站,,33,33,34,8,13,84,84,99,98,10,5,5,5,0.2,0.2
2026-04-23T2000,2303A,115.8551,32.8606,阜阳市,开发区,颗粒物(PM10),51,51,34,17,12,90,90,94,94,16,11,4,4,0.4,0.4
2026-04-23T2000,2875A,115.783962,32.889217,阜阳市,阜阳职业技术学院,,35,35,27,10,11,88,88,100,99,13,8,6,6,0.3,0.3
2026-04-23T2000,3468A,115.79,32.8614,阜阳市,市规划展馆,,26,20,32,13,13,82,82,98,96,13,11,7,6,0.4,0.4
2026-04-23T2000,3469A,115.835101,32.918568,阜阳市,枣园社区,,29,29,35,6,14,83,83,98,96,14,10,5,5,0.3,0.3
2026-04-23T2000,2669A,102.9097,34.9841,甘南藏族自治州,州政府,细颗粒物(PM2.5),78,71,74,49,41,98,98,109,109,10,11,6,4,0.3,0.3
2026-04-23T2000,3380A,102.8915,34.9618,甘南藏族自治州,甘肃民族师范学院,颗粒物(PM10),77,87,87,40,36,107,107,122,122,9,16,1,2,0.3,0.2
2026-04-23T2000,2570A,101.96,30.048,甘孜藏族自治州,水桥子,,22,NA,16,12,5,70,70,75,75,4,9,6,6,0.3,0.2
2026-04-23T2000,3065A,101.9534,29.9976,甘孜藏族自治州,州环保局,,25,25,17,16,7,68,68,82,80,15,10,5,5,0.4,0.3
2026-04-23T2000,2363A,114.9368,25.8663,赣州市,地委,,27,27,14,10,5,72,72,79,79,6,3,2,2,1.0,1
2026-04-23T2000,2364A,114.946,25.8483,赣州市,气象台,,33,33,18,14,7,68,68,71,71,14,8,5,5,0.8,0.8
2026-04-23T2000,2365A,114.932,25.8332,赣州市,市图书馆,,27,26,11,13,6,86,86,92,92,12,6,3,4,0.8,0.8
2026-04-23T2000,2366A,114.8905,25.8472,赣州市,华坚鞋城,,34,34,16,14,7,66,66,78,78,12,7,6,6,0.5,0.8
2026-04-23T2000,3109A,115.0094,25.8614,赣州市,赣县区卫计委,,23,15,9,9,5,72,72,70,70,7,4,3,3,1.1,1
2026-04-23T2000,2684A,106.2753,36.0057,固原市,监测站,颗粒物(PM10),63,68,88,33,35,112,112,125,124,11,18,5,7,0.3,0.4
2026-04-23T2000,2685A,106.2384,36.0189,固原市,新区,颗粒物(PM10),60,63,90,36,30,111,111,125,122,12,25,5,5,0.5,0.6
2026-04-23T2000,2544A,106.6307,30.4577,广安市,市委,,32,31,24,13,14,101,101,121,121,18,16,8,7,0.4,0.4
2026-04-23T2000,2545A,106.6266,30.4662,广安市,友谊中学,,35,35,21,16,11,90,90,115,114,18,13,8,7,0.6,0.5
2026-04-23T2000,2547A,106.6386,30.4551,广安市,广电花园,,28,23,21,16,14,88,88,113,113,26,18,7,6,0.4,0.4
2026-04-23T2000,2902A,106.6347,30.4868,广安市,北辰小学,NA,NA,32,26,17,15,97,97,113,113,NA,13,NA,8,NA,0.4
2026-04-23T2000,2524A,105.8211,32.4444,广元市,老城,颗粒物(PM10),53,53,27,18,9,87,87,103,103,17,27,1,1,0.5,0.5
2026-04-23T2000,2526A,105.8629,32.429,广元市,监测站,,46,46,32,16,9,87,87,101,101,16,16,2,4,0.5,0.5
2026-04-23T2000,3617A,105.8047,32.4167,广元市,经开区,,37,37,33,19,15,87,87,99,99,15,26,2,4,0.4,0.5
2026-04-23T2000,1345A,113.2346,23.1423,广州市,广雅中学,,27,27,24,14,12,21,21,22,22,30,24,2,2,0.7,0.7
2026-04-23T2000,1346A,113.2611,23.105,广州市,市五中,,23,19,22,16,16,33,33,33,33,29,25,3,3,/,/
2026-04-23T2000,1348A,113.3477,23.0916,广州市,广东商学院,,24,24,26,14,17,14,14,22,21,36,29,5,5,1.0,0.9
2026-04-23T2000,1349A,113.4332,23.105,广州市,市八十六中,,16,16,22,11,13,22,22,20,20,23,33,5,6,/,/
2026-04-23T2000,1350A,113.3506,22.9488,广州市,番禺中学,,21,21,23,11,8,18,18,23,20,33,26,5,5,0.8,0.6
2026-04-23T2000,1351A,113.2147,23.3918,广州市,花都师范,,15,15,18,7,10,45,45,41,41,16,17,6,6,0.8,0.8
2026-04-23T2000,1352A,113.2599,23.1329,广州市,市监测站,,18,18,18,11,11,25,25,26,26,25,18,2,2,/,/
2026-04-23T2000,1353A,113.5618,23.3119,广州市,九龙镇镇龙,,17,17,21,9,10,24,24,27,27,18,22,6,6,0.6,0.5
2026-04-23T2000,1354A,113.2764,23.1544,广州市,麓湖,NA,NA,NA,18,NA,11,20,20,25,25,NA,21,3,4,0.8,0.5
2026-04-23T2000,2846A,113.3209,23.1323,广州市,体育西,,23,23,22,16,12,22,22,25,25,31,24,5,5,0.8,0.6
2026-04-23T2000,3298A,113.5718,23.5493,广州市,从化街口,,19,19,21,11,12,18,18,30,29,22,19,7,8,0.7,0.7
2026-04-23T2000,3299A,113.3463,23.369,广州市,白云竹料,,18,18,18,10,10,30,30,35,35,17,17,3,3,0.7,0.6
2026-04-23T2000,3300A,113.2981,23.2365,广州市,白云嘉禾,,18,18,20,10,11,24,24,28,28,32,24,6,5,/,/
2026-04-23T2000,3301A,113.4256,23.1716,广州市,黄埔科学城,,19,19,23,12,13,29,29,29,29,16,20,4,5,0.8,0.7
2026-04-23T2000,3302A,113.3942,23.0485,广州市,番禺大学城,颗粒物(PM10),59,62,35,15,12,21,21,29,28,33,24,6,5,0.7,0.7
2026-04-23T2000,3303A,113.4923,22.8169,广州市,南沙黄阁,,16,16,25,11,14,14,14,24,16,31,23,6,6,/,/
2026-04-23T2000,3304A,113.534,22.7893,广州市,南沙街,,21,15,24,12,14,16,16,27,17,42,28,6,6,0.7,0.6
2026-04-23T2000,3443A,113.2905,23.5541,广州市,花都梯面,,12,8,11,6,7,37,37,36,36,13,13,7,7,/,/
2026-04-23T2000,3445A,113.786,23.7479,广州市,从化良口,,12,8,13,3,9,37,37,36,35,10,12,5,5,/,/
2026-04-23T2000,3446A,113.805,23.2614,广州市,增城荔城,NA,NA,NA,38,4,11,28,28,25,25,10,19,5,5,0.7,0.7
2026-04-23T2000,2506A,109.604387,23.066791,贵港市,江南子站,,48,48,15,20,7,30,30,63,60,22,8,13,7,0.9,0.6
2026-04-23T2000,2508A,109.5669,23.1065,贵港市,荷城子站,,48,48,14,25,6,36,36,66,64,21,11,14,10,0.8,0.7
2026-04-23T2000,3405A,109.5886,23.1172,贵港市,新世纪学校,,39,39,17,20,8,34,34,65,62,21,12,/,/,0.7,0.6
2026-04-23T2000,4260A,109.5933,23.095,贵港市,中山路155-3号,,34,34,19,11,11,33,33,70,67,22,10,/,/,0.7,0.6
2026-04-23T2000,1439A,106.6863,26.6035,贵阳市,马鞍山,,27,27,19,16,12,59,59,99,96,11,9,4,4,/,/
2026-04-23T2000,1441A,106.6241,26.6266,贵阳市,鉴湖路,,39,39,31,25,11,97,97,115,115,16,11,5,5,0.6,0.6
2026-04-23T2000,1442A,106.7468,26.6344,贵阳市,燕子冲,,36,36,30,16,15,82,82,99,98,10,10,2,6,0.6,0.6
2026-04-23T2000,1443A,106.6556,26.4362,贵阳市,碧云窝,,39,39,34,13,12,87,87,116,116,10,10,6,5,/,/
2026-04-23T2000,1445A,106.6963,26.6063,贵阳市,红边门,NA,NA,29,22,10,13,NA,NA,106,106,14,11,1,5,/,/
2026-04-23T2000,1446A,106.7162383,26.56964667,贵阳市,新华路,,36,36,31,15,13,79,79,100,100,16,12,19,17,0.0,0.3
2026-04-23T2000,1447A,106.6742,26.542,贵阳市,太慈桥,NA,NA,NA,22,NA,12,77,77,107,106,15,11,3,4,/,/
2026-04-23T2000,4230A,106.688212,26.56952,贵阳市,花果园大街66号,,36,NA,13,25,14,79,79,104,103,16,10,3,3,/,/
2026-04-23T2000,4231A,106.687268,26.516892,贵阳市,漓江路57号,,27,27,18,12,13,81,81,112,111,17,13,5,5,0.6,0.6
2026-04-23T2000,1864A,110.3091,25.2705,桂林市,龙隐路小学,,39,NA,9,27,7,79,79,90,89,11,7,13,4,0.4,0.4
2026-04-23T2000,1865A,110.2849361,25.22909545,桂林市,八中,,21,16,12,9,4,67,67,80,78,17,10,9,4,0.5,0.5
2026-04-23T2000,3531A,110.296,25.1254,桂林市,旅游学院,,36,36,17,8,4,84,84,94,93,9,6,6,5,0.6,0.6
2026-04-23T2000,4222A,110.1835,25.2444,桂林市,环湖路276号,,25,12,8,12,6,80,80,87,86,7,5,4,5,0.4,0.4
2026-04-23T2000,4301A,110.2803,25.2773,桂林市,信义路13号,,29,NA,11,20,6,78,78,86,86,14,9,7,5,0.6,0.6
2026-04-23T2000,2674A,100.2262,34.4854,果洛藏族自治州,玛沁县大武镇,,41,39,84,19,43,131,131,125,125,2,4,13,18,0.2,0.4
2026-04-23T2000,1130A,126.5557,45.8109,哈尔滨市,松北商大,,35,27,45,24,28,82,82,96,95,11,30,6,6,0.6,0.8
2026-04-23T2000,1132A,126.6162,45.719,哈尔滨市,南岗学府路,,38,38,62,15,28,81,81,96,95,15,39,2,3,0.6,0.9
2026-04-23T2000,1133A,126.6894,45.7733,哈尔滨市,太平宏伟公园,,50,49,72,35,37,58,58,103,88,30,40,6,7,0.4,0.6
2026-04-23T2000,1134A,126.6361,45.7672,哈尔滨市,道外承德广场,颗粒物(PM10),58,61,65,29,27,66,66,88,85,24,43,6,7,0.2,0.6
2026-04-23T2000,1136A,126.644,45.7261,哈尔滨市,动力和平路,,36,34,60,25,30,74,74,94,91,19,43,5,8,0.4,0.6
2026-04-23T2000,1137A,126.5933,45.7479,哈尔滨市,道里建国路,,32,31,51,22,28,80,80,94,92,15,41,1,2,0.9,1.2
2026-04-23T2000,1138A,126.6127,45.6119,哈尔滨市,平房东轻厂,,43,43,48,28,28,65,65,94,90,31,36,10,14,0.5,0.6
2026-04-23T2000,1139A,126.5875,45.9827,哈尔滨市,呼兰师专,颗粒物(PM10),53,54,46,34,34,57,57,NA,NA,24,24,4,6,0.4,0.4
2026-04-23T2000,1140A,126.6299,45.6799,哈尔滨市,省农科院,,39,NA,79,27,44,76,76,93,91,14,41,6,8,0.3,0.6
2026-04-23T2000,4282A,126.6769,45.7379,哈尔滨市,华山路1号,,50,39,76,35,38,75,75,102,97,16,39,1,9,0.4,0.5
2026-04-23T2000,4283A,126.9717,45.5356,哈尔滨市,解放大街52号,颗粒物(PM10),61,65,62,17,19,57,57,99,91,35,24,3,4,0.6,0.7
2026-04-23T2000,2688A,93.5124,42.8176,哈密市,地区监测站,,38,27,51,18,28,121,121,121,121,7,18,13,11,0.2,0.3
2026-04-23T2000,2689A,93.5014,42.8312,哈密市,哈密师范学校,,38,29,62,17,24,120,120,124,124,10,22,7,9,0.1,0.2
2026-04-23T2000,2671A,100.9016,36.9464,海北藏族自治州,海晏县西海镇,NA,NA,88,78,51,40,NA,NA,119,119,1,4,7,7,0.3,0.4
2026-04-23T2000,3867A,102.074,36.5056,海东市,平安区公安局北苑,细颗粒物(PM2.5),82,91,88,51,48,107,107,120,119,13,10,10,7,0.5,0.6
2026-04-23T2000,4163A,102.0984,36.5119,海东市,滨河路,颗粒物(PM10),80,91,90,42,44,76,76,102,100,33,27,11,7,0.6,0.7
2026-04-23T2000,1410A,110.3189,20.0596,海口市,海南大学,细颗粒物(PM2.5),68,70,52,44,36,46,46,58,50,16,10,8,6,0.7,0.5
2026-04-23T2000,1411A,110.2827,20.0051,海口市,秀英海南医院,NA,NA,71,42,51,37,41,41,56,51,17,11,NA,8,0.6,0.4
2026-04-23T2000,1412A,110.3391,19.9979,海口市,海南师范大学,细颗粒物(PM2.5),72,78,45,46,35,44,44,68,59,16,11,7,6,0.7,0.5
2026-04-23T2000,1413A,110.3303,20.0359,海口市,龙华路环保局宿舍,颗粒物(PM10),65,70,42,41,34,46,46,61,52,18,12,/,/,1.1,0.7
2026-04-23T2000,3539A,110.5111,19.9737,海口市,桂林洋子站,颗粒物(PM10),63,68,48,41,32,43,43,78,69,14,10,/,/,/,/
2026-04-23T2000,4134A,110.1952,20.0451,海口市,长滨二路9号,细颗粒物(PM2.5),74,55,48,47,37,46,46,52,48,12,13,/,/,/,/
2026-04-23T2000,2673A,100.6158,36.2985,海南藏族自治州,共和县恰卜恰镇,颗粒物(PM10),62,66,95,32,55,118,118,131,131,6,10,7,7,0.2,0.3
2026-04-23T2000,2676A,97.373,37.376,海西蒙古族藏族自治州,德令哈市,,50,45,109,19,49,158,158,147,147,1,4,17,17,0.3,0.4
2026-04-23T2000,1049A,114.492,36.5712,邯郸市,矿院,,38,38,43,25,32,119,119,118,118,7,14,3,4,0.3,0.4
2026-04-23T2000,1050A,114.4839,36.6136,邯郸市,丛台公园,,37,36,38,20,25,118,118,117,117,5,12,2,4,0.3,0.4
2026-04-23T2000,3458A,114.7893,36.5592,邯郸市,香泉濮院小区,,48,48,44,22,29,96,96,108,108,9,11,3,2,0.3,0.3
2026-04-23T2000,3580A,114.1998,36.4439,邯郸市,峰峰矿区临水派出所,,49,49,47,28,34,128,128,135,135,16,18,3,6,0.2,0.6
2026-04-23T2000,4068A,114.5209,36.7697,邯郸市,建安街268号,,40,40,48,21,26,114,114,110,110,6,14,3,2,0.2,0.3
2026-04-23T2000,4069A,114.5488,36.6177,邯郸市,丛台东路558号,,50,50,44,18,22,99,99,110,110,16,17,2,2,0.3,0.3
2026-04-23T2000,2635A,107.0155,33.0707,汉中市,市监测站,,36,36,22,15,12,86,86,98,98,18,13,4,4,0.6,0.4
2026-04-23T2000,2636A,107.0083,33.114,汉中市,鑫源开发区,,28,28,28,13,15,84,84,100,100,19,18,5,5,0.4,0.5
2026-04-23T2000,2637A,107.0072,33.0323,汉中市,南郑大河坎水厂,,34,34,23,19,10,64,64,96,95,23,12,4,4,0.4,0.3
2026-04-23T2000,1223A,120.2073,30.2111,杭州市,滨江,,36,36,11,16,5,70,70,80,79,23,14,7,7,0.5,0.5
2026-04-23T2000,1224A,120.0625,30.2737,杭州市,西溪,,27,27,8,13,4,56,56,76,75,18,11,4,4,0.6,0.7
2026-04-23T2000,1226A,120.3417,30.315,杭州市,下沙,,41,41,15,21,7,62,62,73,71,28,14,8,8,0.6,0.7
2026-04-23T2000,1227A,120.1252,30.2465,杭州市,卧龙桥,,24,24,10,12,4,31,31,74,66,19,16,8,8,0.5,0.5
2026-04-23T2000,1228A,120.1902,30.2691,杭州市,浙江农大,,41,41,12,19,4,50,50,72,69,51,33,7,7,0.4,0.4
2026-04-23T2000,1230A,120.1195,30.3121,杭州市,和睦小学,,35,35,9,15,4,47,47,76,73,56,20,6,6,0.5,0.6
2026-04-23T2000,1231A,120.3076,30.4146,杭州市,临平镇,,37,37,12,17,6,69,69,89,86,36,18,6,6,0.4,0.5
2026-04-23T2000,1232A,120.2753,30.1839,杭州市,城厢镇,,35,35,7,17,4,64,64,72,71,30,19,6,5,0.4,0.5
2026-04-23T2000,1233A,120.0883,30.1808,杭州市,云栖,,25,25,8,11,2,41,41,69,65,22,18,7,7,0.6,0.7
2026-04-23T2000,3557A,119.9463,30.0496,杭州市,镇二中,,42,42,11,13,4,67,67,74,73,32,19,4,4,0.4,0.5
2026-04-23T2000,3558A,119.7184,30.2367,杭州市,市府大楼,,23,13,5,8,2,73,73,79,79,17,13,6,6,0.5,0.6
2026-04-23T2000,3656A,120.1554,30.2863,杭州市,消防大队,,40,40,12,19,5,68,68,74,73,24,13,5,4,0.5,0.4
2026-04-23T2000,1270A,117.1957,31.7845,合肥市,明珠广场,,44,44,12,11,3,32,32,87,79,46,16,6,6,0.5,0.5
2026-04-23T2000,1271A,117.307,31.8765,合肥市,三里街,,46,46,13,14,3,46,46,77,74,43,20,5,5,0.6,0.3
2026-04-23T2000,1272A,117.2587,31.8703,合肥市,琥珀山庄,,39,39,13,18,5,36,36,86,80,31,13,7,6,0.9,0.5
2026-04-23T2000,1275A,117.2593,31.9376,合肥市,庐阳区,,46,46,17,16,4,65,65,88,86,35,12,5,5,0.6,0.5
2026-04-23T2000,1276A,117.345251,31.861615,合肥市,瑶海区,,29,29,11,11,3,75,75,88,87,25,15,6,6,0.5,0.4
2026-04-23T2000,1277A,117.3033,31.7967,合肥市,包河区,,31,31,16,11,3,60,60,72,71,22,28,8,8,0.4,0.4
2026-04-23T2000,1278A,117.278,31.7392,合肥市,滨湖新区,NA,NA,NA,13,16,3,53,53,85,82,32,14,5,5,0.5,0.4
2026-04-23T2000,1279A,117.1324,31.8395,合肥市,高新区,,41,41,16,12,3,49,49,82,79,31,8,5,5,0.5,0.4
2026-04-23T2000,3464A,117.3802,31.9148,合肥市,高教基地,,31,31,15,9,3,57,57,86,84,22,9,7,7,0.4,0.4
2026-04-23T2000,4098A,117.2518,31.8404,合肥市,中国科学技术大学,NA,NA,34,10,13,4,65,65,85,83,21,11,5,5,NA,0.5
2026-04-23T2000,3614A,79.9241,37.0878,和田地区,地区环保局,颗粒物(PM10),161,271,285,68,83,94,94,106,106,7,15,3,2,0.4,0.5
2026-04-23T2000,3615A,79.9132,37.1137,和田地区,市环保局,颗粒物(PM10),134,207,280,66,90,100,100,110,110,3,23,1,2,0.5,0.7
2026-04-23T2000,2517A,108.0496,24.6957,河池市,市环保站,,15,10,13,9,4,48,48,56,56,1,3,8,6,0.6,0.6
2026-04-23T2000,4302A,108.0901,24.6945,河池市,上任中路54号,,14,7,15,7,6,42,42,53,53,7,7,8,7,0.7,0.7
2026-04-23T2000,1697A,114.6962,23.7538,河源市,东埔,,18,9,18,8,12,55,55,51,51,9,11,6,6,0.4,0.4
2026-04-23T2000,1698A,114.6895,23.7232,河源市,老城,,17,9,24,8,14,54,54,50,50,8,12,6,6,0.5,0.5
2026-04-23T2000,3374A,115.5562,35.089,菏泽市,定陶老年大学,,34,34,38,8,20,99,99,119,117,15,11,5,5,0.2,0.3
2026-04-23T2000,4114A,115.4239,35.2593,菏泽市,黄河路600号,,41,41,45,3,17,94,94,109,108,13,10,3,4,0.3,0.4
2026-04-23T2000,4115A,115.5025,35.2727,菏泽市,菏泽市人社局,,33,30,37,3,18,104,104,114,114,10,9,6,5,0.2,0.2
2026-04-23T2000,4184A,115.479691,35.244011,菏泽市,永昌路1号,,35,25,38,3,22,109,109,121,121,11,12,5,3,0.1,0.3
2026-04-23T2000,4193A,115.471542,35.280012,菏泽市,长城路999号,,35,34,34,3,15,112,112,120,120,10,10,8,7,0.3,0.3
2026-04-23T2000,2514A,111.5264,24.4178,贺州市,环保小区,,44,44,12,13,4,58,58,83,80,24,8,6,5,0.4,0.4
2026-04-23T2000,2515A,111.561,24.4074,贺州市,政协大楼,,20,20,14,10,5,62,62,84,82,15,10,9,9,0.4,0.4
2026-04-23T2000,3534A,111.4744,24.455,贺州市,西湾,,21,20,10,7,4,66,66,74,74,11,8,8,8,0.5,0.5
2026-04-23T2000,2385A,114.17,35.9019,鹤壁市,市监测站,颗粒物(PM10),57,59,56,34,44,117,117,126,126,9,11,5,6,0.4,0.6
2026-04-23T2000,2386A,114.2953,35.7512,鹤壁市,市交警支队,,44,44,50,26,30,100,100,114,114,9,14,5,9,0.4,0.5
2026-04-23T2000,2387A,114.2877,35.7302,鹤壁市,迎宾馆,,40,40,63,23,38,105,105,118,118,11,17,6,6,0.3,0.5
2026-04-23T2000,3474A,114.2616,35.6824,鹤壁市,大新区,,44,44,50,24,38,96,96,113,113,11,17,3,4,0.4,0.5
2026-04-23T2000,3596A,114.1573,35.9607,鹤壁市,南山宾馆,细颗粒物(PM2.5),54,46,57,37,44,114,114,124,124,17,18,8,9,0.6,0.7
2026-04-23T2000,2244A,130.2537,47.3416,鹤岗市,哈啤分公司,,32,32,17,9,4,54,54,74,69,12,6,9,9,0.3,0.3
2026-04-23T2000,2245A,130.2683,47.3087,鹤岗市,斯达机电,,29,29,16,8,6,54,54,74,69,10,4,10,10,0.3,0.3
2026-04-23T2000,2246A,130.3114,47.3388,鹤岗市,东山纸板厂,颗粒物(PM10),77,87,24,15,5,48,48,75,68,15,6,7,7,0.5,0.3
2026-04-23T2000,2263A,127.4832,50.2524,黑河市,交通局,,30,25,16,21,11,66,66,77,75,10,10,6,7,0.3,0.2
2026-04-23T2000,2264A,127.5146,50.2339,黑河市,环保局,,22,17,12,15,7,66,66,78,76,9,8,9,8,0.4,0.3
2026-04-23T2000,1074A,115.6839,37.754,衡水市,电机北厂,细颗粒物(PM2.5),64,49,51,42,23,111,111,123,123,15,16,7,7,0.3,0.3
2026-04-23T2000,1075A,115.6303,37.7318,衡水市,市监测站,颗粒物(PM10),59,62,57,28,20,108,108,117,117,16,23,6,7,0.3,0.3
2026-04-23T2000,3188A,115.6684,37.7216,衡水市,市城管局,NA,NA,65,53,42,28,NA,NA,124,124,11,21,4,4,0.3,0.3
2026-04-23T2000,3459A,115.599,37.5491,衡水市,地表水厂,颗粒物(PM10),58,61,56,25,24,91,91,118,115,22,32,4,5,0.2,0.3
2026-04-23T2000,2457A,112.6209,26.9268,衡阳市,衡阳化工总厂,,38,31,25,26,14,75,75,97,97,21,16,5,5,0.7,0.7
2026-04-23T2000,2458A,112.621,26.8957,衡阳市,珠晖区环保局,,33,33,22,22,12,64,64,93,92,36,15,8,8,0.8,1
2026-04-23T2000,2459A,112.628,26.8654,衡阳市,市委党校,,45,NA,20,31,13,83,83,96,96,14,11,10,10,0.7,0.9
2026-04-23T2000,2460A,112.6007,26.8977,衡阳市,市监测站,颗粒物(PM10),61,65,25,36,14,61,61,90,89,31,17,8,8,1.0,0.8
2026-04-23T2000,2461A,112.5658,26.9013,衡阳市,真空机电公司,,44,44,19,22,14,81,81,99,99,25,13,7,8,0.7,0.7
2026-04-23T2000,3399A,112.6703,26.8817,衡阳市,师范学院,,28,26,20,19,14,80,80,100,100,12,12,7,7,0.6,0.7
2026-04-23T2000,3038A,103.3757,23.3679,红河哈尼族彝族自治州,州图书馆,细颗粒物(PM2.5),82,69,66,51,47,104,104,114,113,7,10,5,6,0.5,0.5
2026-04-23T2000,4154A,103.401,23.3561,红河哈尼族彝族自治州,蒙自市朝阳路,细颗粒物(PM2.5),68,53,48,44,46,106,106,118,116,7,10,5,6,0.5,0.5
2026-04-23T2000,1090A,111.6506,40.7517,呼和浩特市,呼市一监,颗粒物(PM10),112,151,113,53,52,106,106,127,127,23,35,7,9,0.4,0.6
2026-04-23T2000,1094A,111.7516,40.8369,呼和浩特市,如意水处理厂,颗粒物(PM10),180,309,104,44,34,128,128,128,128,15,30,9,9,0.3,0.3
2026-04-23T2000,1095A,111.727798,40.806187,呼和浩特市,二十九中,颗粒物(PM10),102,123,97,47,42,118,118,120,120,15,28,10,12,0.4,0.5
2026-04-23T2000,1097A,111.717,40.7617,呼和浩特市,化肥厂生活区,颗粒物(PM10),105,131,118,38,49,109,109,125,125,30,36,8,10,0.3,0.5
2026-04-23T2000,3699A,111.6519,40.8389,呼和浩特市,海东办,颗粒物(PM10),108,139,95,47,36,115,115,117,117,20,42,9,7,0.4,0.4
2026-04-23T2000,4275A,111.591512,40.827312,呼和浩特市,成吉思汗西街8号,颗粒物(PM10),121,173,101,45,37,99,99,119,119,42,43,7,7,0.5,0.5
2026-04-23T2000,4276A,111.6597,40.8077,呼和浩特市,公园东路75号,颗粒物(PM10),103,127,103,45,41,121,121,118,118,17,28,6,7,0.3,0.4
2026-04-23T2000,4277A,111.5427,40.7846,呼和浩特市,金海路35号,细颗粒物(PM2.5),111,137,98,72,40,100,100,113,113,28,38,11,8,0.6,0.5
2026-04-23T2000,3061A,119.7511,49.1576,呼伦贝尔市,国华电力东,,38,38,28,16,14,94,94,94,94,6,8,4,4,0.3,0.3
2026-04-23T2000,4279A,119.7569,49.2222,呼伦贝尔市,伊敏大街东7号,NA,NA,39,31,8,14,91,91,92,90,6,12,7,6,NA,0.5
2026-04-23T2000,1250A,120.075,30.867,湖州市,城西水厂,,38,38,13,16,8,57,57,110,106,42,19,6,5,0.4,0.4
2026-04-23T2000,2873A,120.083,30.8929,湖州市,仁皇山新区,,28,28,12,11,8,75,75,104,101,21,14,5,5,0.4,0.5
2026-04-23T2000,2907A,120.1846,30.8592,湖州市,吴兴区站,,33,27,15,11,8,105,105,109,109,17,16,5,5,0.3,0.3
2026-04-23T2000,3562A,120.4146,30.8538,湖州市,南浔区站,,29,28,15,16,10,92,92,97,97,17,12,6,5,0.6,0.6
2026-04-23T2000,1607A,120.904878,40.721091,葫芦岛市,龙港区,,41,33,56,22,23,129,129,121,121,13,34,10,23,0.4,0.6
2026-04-23T2000,1608A,120.8382,40.7521,葫芦岛市,化工街,颗粒物(PM10),53,53,76,28,35,112,112,116,116,23,48,13,52,0.5,0.5
2026-04-23T2000,1609A,120.8339,40.7078,葫芦岛市,新区,,48,43,56,33,27,121,121,118,118,17,51,9,14,0.4,0.6
2026-04-23T2000,1610A,120.8697,40.7679,葫芦岛市,东城区,,49,35,74,34,30,121,121,122,122,21,51,10,36,0.5,0.6
2026-04-23T2000,2483A,109.9297,27.5383,怀化市,河西地税局,,28,20,19,19,8,35,35,76,74,27,12,7,8,/,/
2026-04-23T2000,2484A,109.9783,27.5342,怀化市,市四医院,,23,23,18,14,12,59,59,79,79,11,8,3,5,0.4,0.3
2026-04-23T2000,2485A,109.9971,27.5579,怀化市,监测楼,,28,NA,15,19,9,56,56,77,76,12,8,4,5,0.5,0.5
2026-04-23T2000,1210A,119.0566,33.5991,淮安市,钵池山,,44,44,35,18,13,87,87,110,108,23,15,8,8,0.5,0.3
2026-04-23T2000,1211A,119.0083,33.578,淮安市,北京南路,颗粒物(PM10),53,53,33,22,14,58,58,105,100,35,11,8,8,0.4,0.2
2026-04-23T2000,1212A,118.9938,33.6083,淮安市,市监测站,,44,44,28,13,14,71,71,121,117,34,16,5,6,0.8,0.5
2026-04-23T2000,1213A,119.135,33.5038,淮安市,楚州区监测站,,49,49,32,20,14,94,94,105,104,18,11,6,6,0.5,0.3
2026-04-23T2000,3426A,118.8757,33.2897,淮安市,新华书店,NA,NA,NA,38,NA,14,99,99,111,111,14,13,7,9,0.4,0.3
2026-04-23T2000,4092A,119.119691,33.550006,淮安市,枚皋中路89号,,39,39,33,20,16,84,84,110,108,16,14,6,6,0.5,0.4
2026-04-23T2000,4206A,119.028838,33.631911,淮安市,承德北路606号,颗粒物(PM10),58,61,37,16,13,69,69,105,102,37,14,8,8,0.6,0.4
2026-04-23T2000,2282A,116.8005,33.9749,淮北市,监测站,,32,31,38,9,14,101,101,117,116,17,15,7,7,0.4,0.3
2026-04-23T2000,2283A,116.8094,33.9008,淮北市,烈山区政府,,44,44,35,7,11,87,87,114,112,20,10,6,7,0.3,0.2
2026-04-23T2000,4017A,116.7926,33.9534,淮北市,市博物馆,,39,39,33,8,14,101,101,116,115,12,12,6,8,0.3,0.3
2026-04-23T2000,4100A,116.8322,33.9884,淮北市,杜集区第一实验学校,,34,34,41,3,11,96,96,116,114,9,10,6,7,0.3,0.3
2026-04-23T2000,2277A,116.8304,32.7726,淮南市,潘集区政府,,43,43,22,16,10,84,84,103,102,18,15,6,6,0.3,0.3
2026-04-23T2000,2279A,116.8569,32.5949,淮南市,谢家集区政府,NA,NA,NA,17,NA,10,94,94,104,104,NA,7,7,7,0.2,0.2
2026-04-23T2000,2280A,116.8279,32.6333,淮南市,八公山区政府,,35,35,27,9,10,89,89,102,102,9,8,7,7,0.2,0.2
2026-04-23T2000,2894A,117.0561,32.6536,淮南市,经济技术开发区消防队,,32,32,23,12,11,74,74,93,92,18,13,6,6,0.2,0.2
2026-04-23T2000,3329A,117.011,32.5891,淮南市,山南新区,,31,18,19,9,12,97,97,109,108,12,12,7,7,0.2,0.2
2026-04-23T2000,4209A,117.003137,32.644456,淮南市,国庆中路369号,,46,46,27,14,11,86,86,95,95,12,9,5,6,0.3,0.4
2026-04-23T2000,2446A,114.9021,30.474,黄冈市,职工中心,,16,12,13,6,8,49,49,66,64,12,6,6,6,0.5,0.4
2026-04-23T2000,2929A,114.8858,30.4519,黄冈市,红卫路,,18,11,11,7,8,56,56,72,70,9,6,5,5,0.2,0.2
2026-04-23T2000,3398A,114.9134,30.4446,黄冈市,市林业局,,19,14,13,7,7,60,60,74,72,11,8,4,4,0.4,0.5
2026-04-23T2000,2672A,102.02,35.5101,黄南藏族自治州,同仁县隆务镇,颗粒物(PM10),78,88,91,37,44,127,127,129,129,3,2,12,10,0.2,0.2
2026-04-23T2000,2295A,118.2905,29.6965,黄山市,延安路89号,,14,7,9,3,4,44,44,57,56,8,8,5,4,0.3,0.3
2026-04-23T2000,2297A,118.1369,30.2755,黄山市,黄山区政府5号楼,,20,8,8,3,1,63,63,61,61,6,7,3,3,0.3,0.3
2026-04-23T2000,4210A,118.335445,29.720283,黄山市,滨江东路7-2号,,33,33,22,8,4,40,40,57,55,16,11,/,/,/,/
2026-04-23T2000,2423A,115.0547,30.2332,黄石市,沈家营,,32,32,18,21,7,65,65,80,78,12,7,4,4,0.6,0.4
2026-04-23T2000,2426A,114.899,30.211,黄石市,铁山,,40,40,25,24,11,46,46,65,63,20,11,6,7,0.4,0.6
2026-04-23T2000,2427A,115.0259,30.2108,黄石市,团城山,,32,32,21,19,10,51,51,63,62,13,8,6,5,0.8,0.7
2026-04-23T2000,3149A,115.0174,30.1591,黄石市,笔架山北路,,49,49,27,20,10,48,48,66,63,20,15,8,7,0.9,0.7
2026-04-23T2000,4185A,115.078022,30.21118,黄石市,磁湖东路29号,,46,46,23,24,10,59,59,78,77,20,14,3,3,0.5,0.3
2026-04-23T2000,1392A,114.4181,23.0528,惠州市,河南岸金山湖子站,,13,6,24,3,13,40,40,39,39,16,19,6,6,0.6,0.5
2026-04-23T2000,1393A,114.4055,23.0824,惠州市,下埔横江三路子站,,14,8,28,3,16,42,42,46,45,12,15,4,5,0.8,0.7
2026-04-23T2000,1395A,114.4645,22.7832,惠州市,惠阳区承修路船湖子站,,11,9,27,3,16,33,33,39,32,13,11,5,6,0.4,0.4
2026-04-23T2000,1396A,114.5316,22.7423,惠州市,大亚湾管委会子站,,10,9,24,3,13,29,29,43,35,17,13,4,4,0.5,0.3
2026-04-23T2000,3314A,114.4334,22.8134,惠州市,惠阳秋长,NA,NA,NA,23,5,16,34,34,38,33,14,18,/,/,/,/
2026-04-23T2000,3452A,114.6521,22.7755,惠州市,大亚湾霞涌,,15,15,18,3,11,35,35,51,46,10,11,/,/,/,/
2026-04-23T2000,4300A,114.4089,23.1147,惠州市,文华一路1号,,13,8,25,3,15,39,39,44,40,13,18,/,/,/,/
2026-04-23T2000,2240A,130.9618,45.2926,鸡西市,环保局,,20,15,12,14,7,57,57,81,74,13,7,8,7,0.3,0.2
2026-04-23T2000,2243A,130.9294,45.2959,鸡西市,第一中学,,26,21,13,18,9,57,57,79,74,12,5,5,5,0.3,0.2
2026-04-23T2000,3707A,131.0069,45.2988,鸡西市,欧美日汽修厂,,28,28,16,15,8,56,56,75,70,6,7,6,6,0.3,0.2
2026-04-23T2000,2367A,114.9753,27.0803,吉安市,红声器材厂,,27,26,21,11,8,86,86,93,93,14,10,9,7,0.5,0.3
2026-04-23T2000,2369A,114.9903,27.1313,吉安市,市环境监测站,,24,22,19,10,10,75,75,85,85,11,10,26,11,/,/
2026-04-23T2000,2370A,115.009527,27.096792,吉安市,青原区法院,,28,28,21,15,7,75,75,85,85,12,8,10,7,0.7,0.6
2026-04-23T2000,1772A,126.54,43.8622,吉林市,哈达湾,细颗粒物(PM2.5),111,73,42,72,29,104,104,118,118,33,15,15,7,0.5,0.3
2026-04-23T2000,1773A,126.5843,43.8358,吉林市,东局子,"颗粒物(PM10),细颗粒物(PM2.5)",92,108,47,56,21,88,88,108,106,33,20,10,5,1.0,0.7
2026-04-23T2000,1774A,126.5051,43.8243,吉林市,电力学院,细颗粒物(PM2.5),101,99,58,61,38,94,94,121,119,38,22,11,6,1.0,0.7
2026-04-23T2000,1775A,126.6133,43.8971,吉林市,江北,细颗粒物(PM2.5),113,134,57,74,28,NA,NA,125,125,34,20,17,12,1.0,0.6
2026-04-23T2000,1776A,126.5549,43.8304,吉林市,江南公园,细颗粒物(PM2.5),102,86,40,62,27,97,97,111,110,36,17,14,8,0.9,0.6
2026-04-23T2000,2868A,126.4737,43.953,吉林市,九站,细颗粒物(PM2.5),117,116,59,78,37,84,84,120,115,45,28,18,15,0.7,0.4
2026-04-23T2000,1299A,116.9866,36.6118,济南市,科干所,,46,46,53,8,22,128,128,132,132,13,16,6,6,0.5,0.6
2026-04-23T2000,1300A,116.9379,36.6652,济南市,农科所,,39,39,54,6,25,119,119,122,122,13,25,6,6,0.2,0.3
2026-04-23T2000,1301A,117.1265,36.6736,济南市,开发区,,44,44,53,11,26,137,137,136,136,12,17,5,5,0.4,0.5
2026-04-23T2000,1303A,117.0616,36.6865,济南市,省种子仓库,,46,46,63,14,24,129,129,133,133,14,19,5,5,0.4,0.5
2026-04-23T2000,1304A,116.9495185,36.644937,济南市,机床二厂,,44,44,60,11,32,124,124,125,125,13,22,5,6,0.3,0.5
2026-04-23T2000,1305A,117.0496,36.6629,济南市,市监测站,,49,49,56,13,26,124,124,128,128,16,19,4,4,0.5,0.6
2026-04-23T2000,1306A,116.7674,36.5458,济南市,长清党校,,46,46,57,8,24,117,117,125,125,15,18,5,5,0.5,0.5
2026-04-23T2000,1961A,117.5323,36.6865,济南市,东山小学,颗粒物(PM10),51,51,58,16,27,121,121,139,138,20,24,4,5,0.3,0.4
2026-04-23T2000,3059A,117.7181,36.205,济南市,泰兴公司,,48,48,61,12,29,104,104,135,133,28,30,10,19,0.4,0.6
2026-04-23T2000,3064A,117.6861,36.2172,济南市,莱芜战役纪念馆,,39,39,59,8,28,119,119,135,135,14,23,5,26,0.1,0.4
2026-04-23T2000,3494A,117.1673,36.9782,济南市,济阳区政府,颗粒物(PM10),65,71,64,13,34,96,96,120,119,26,23,7,9,0.5,0.6
2026-04-23T2000,3495A,117.1168,36.6299,济南市,锦屏中学,,42,42,45,14,25,121,121,122,122,10,10,5,5,0.3,0.4
2026-04-23T2000,4108A,117.7107,36.2385,济南市,山财大街5号,,41,41,55,13,29,124,124,134,134,13,28,6,9,0.5,0.7
2026-04-23T2000,4109A,116.9744,36.6889,济南市,无影山路12号,,39,39,50,8,30,116,116,120,120,13,24,5,5,0.4,0.4
2026-04-23T2000,1653A,116.6229,35.4288,济宁市,火炬城,,37,37,41,8,21,103,103,117,117,10,9,3,3,0.4,0.4
2026-04-23T2000,3500A,116.5808,35.3703,济宁市,北湖一中,,35,32,40,3,21,112,112,127,127,16,17,6,7,0.3,0.4
2026-04-23T2000,3501A,116.8251,35.5592,济宁市,服务中心,颗粒物(PM10),55,56,45,13,25,104,104,114,114,15,15,2,3,0.5,0.5
2026-04-23T2000,3678A,116.5907,35.4054,济宁市,市第七中学,NA,NA,27,46,3,19,NA,NA,134,134,13,14,4,5,0.2,0.3
2026-04-23T2000,4111A,116.6075,35.4566,济宁市,任和路,,42,42,51,3,24,117,117,126,126,9,11,6,7,0.3,0.4
2026-04-23T2000,4112A,116.5648,35.3921,济宁市,文体南路1号,,43,43,53,3,24,105,105,125,125,15,9,3,5,0.5,0.5
2026-04-23T2000,4122A,112.6071,35.1015,济源市,市委党校,NA,NA,67,71,27,29,NA,NA,124,124,NA,22,6,9,0.5,0.7
2026-04-23T2000,4123A,112.596,35.0702,济源市,沁园中路1号,NA,NA,44,52,11,42,NA,NA,125,125,11,27,5,5,0.5,0.9
2026-04-23T2000,2255A,130.2749,46.8028,佳木斯市,佳纺,,39,30,17,27,8,16,16,76,64,56,8,4,3,0.5,0.2
2026-04-23T2000,2257A,130.3258,46.7975,佳木斯市,环保局,,20,NA,12,14,6,48,48,78,71,27,8,2,2,0.3,0.2
2026-04-23T2000,4285A,130.363,46.806,佳木斯市,顺和街,,19,14,8,12,5,59,59,76,73,18,6,2,1,0.3,0.2
2026-04-23T2000,4286A,130.3952,46.8268,佳木斯市,长安路196号,,19,14,7,12,5,58,58,79,75,13,4,2,1,0.3,0.3
2026-04-23T2000,1252A,120.7439,30.778,嘉兴市,清河小学,,41,41,15,17,8,75,75,84,82,27,16,6,6,0.6,0.6
2026-04-23T2000,1253A,120.7261,30.7477,嘉兴市,嘉兴学院,,34,34,14,16,9,81,81,85,85,27,18,6,5,0.5,0.6
2026-04-23T2000,2872A,120.7845,30.7524,嘉兴市,南湖区残联,颗粒物(PM10),51,51,19,19,9,84,84,96,95,26,14,5,4,0.5,0.5
2026-04-23T2000,3407A,120.6915,30.7741,嘉兴市,秀洲住建,,39,39,17,13,7,82,82,93,93,27,16,6,5,0.6,0.5
2026-04-23T2000,1945A,98.291,39.7705,嘉峪关市,气象局,颗粒物(PM10),55,56,139,23,50,124,124,120,120,3,9,7,12,0.4,0.4
2026-04-23T2000,2884A,98.2672,39.7978,嘉峪关市,酒钢宾馆,NA,NA,NA,179,NA,53,122,122,119,119,4,9,12,16,0.4,0.3
2026-04-23T2000,3248A,98.2644,39.7723,嘉峪关市,雄关区,颗粒物(PM10),68,74,138,23,48,125,125,120,120,3,10,7,8,0.4,0.4
2026-04-23T2000,1383A,113.1063,22.6058,江门市,北街,,28,24,26,19,16,27,27,29,26,35,23,/,/,/,/
2026-04-23T2000,1384A,113.073,22.5835,江门市,西区,,25,23,28,17,17,28,28,32,25,31,25,/,/,/,/
2026-04-23T2000,1385A,113.0218,22.531,江门市,圭峰西,,24,24,22,16,15,35,35,36,32,27,19,/,/,/,/
2026-04-23T2000,1386A,113.0826,22.5947,江门市,东湖,,32,26,25,22,18,25,25,28,25,26,20,7,7,0.5,0.4
2026-04-23T2000,3311A,113.1077,22.5647,江门市,江海富民,,25,17,31,17,16,28,28,34,26,33,24,/,/,0.5,0.4
2026-04-23T2000,3449A,113.0496,22.4669,江门市,新会银湖,,28,21,28,19,17,32,32,21,21,30,30,8,7,0.6,0.5
2026-04-23T2000,3335A,113.3137,35.2643,焦作市,马村街道办,,48,48,51,30,27,119,119,125,125,10,11,9,10,0.2,0.4
2026-04-23T2000,3336A,113.2464,35.2374,焦作市,焦作技师学院,细颗粒物(PM2.5),60,60,47,40,29,118,118,122,122,13,14,9,10,0.6,0.8
2026-04-23T2000,3477A,113.1656,35.2536,焦作市,中站许衡医院,颗粒物(PM10),51,51,42,35,28,73,73,121,118,36,14,9,11,0.5,0.8
2026-04-23T2000,3981A,113.2456,35.18,焦作市,原李万街道办,颗粒物(PM10),52,52,52,26,30,101,101,120,120,16,17,9,10,0.3,0.4
2026-04-23T2000,4264A,113.234,35.219,焦作市,新安路1731号,颗粒物(PM10),52,52,55,25,29,122,122,129,129,9,13,10,12,0.3,0.5
2026-04-23T2000,4295A,113.2722,35.2121,焦作市,人民路3066号,颗粒物(PM10),58,61,53,30,29,96,96,108,108,14,17,5,6,0.3,0.5
2026-04-23T2000,1708A,116.3701,23.5345,揭阳市,新兴,NA,NA,NA,30,NA,19,32,32,40,29,11,13,5,6,0.7,0.7
2026-04-23T2000,1709A,116.3261,23.5442,揭阳市,西马,,11,11,31,3,17,31,31,34,29,11,14,5,5,0.8,0.8
2026-04-23T2000,1710A,116.361,23.5627,揭阳市,东兴,,9,6,28,3,17,26,26,35,22,12,14,2,3,/,/
2026-04-23T2000,1711A,116.4151,23.5295,揭阳市,渔湖,NA,NA,NA,34,3,19,30,30,37,30,11,17,2,4,/,/
2026-04-23T2000,3320A,116.4028,23.5699,揭阳市,曲溪,,12,12,29,3,17,17,17,35,21,20,14,9,9,0.7,0.5
2026-04-23T2000,1944A,102.1691,38.5166,金昌市,天庆家园,颗粒物(PM10),175,300,180,81,56,118,118,120,120,2,13,6,12,0.3,0.4
2026-04-23T2000,4022A,102.1648,38.5369,金昌市,金川区人防中心,颗粒物(PM10),170,290,180,84,58,117,117,118,118,4,14,5,11,0.3,0.4
2026-04-23T2000,4239A,102.193042,38.531887,金昌市,长春路96号,颗粒物(PM10),150,250,167,82,79,114,114,114,114,1,12,6,39,0.4,0.4
2026-04-23T2000,1262A,119.6478,29.0773,金华市,十五中,,28,28,13,16,7,42,42,50,44,33,17,2,2,0.6,0.7
2026-04-23T2000,1263A,119.6859,29.1032,金华市,监测站,,22,20,10,10,5,41,41,52,44,44,25,3,3,0.6,0.7
2026-04-23T2000,3659A,119.656,29.1132,金华市,气象局,,22,22,11,12,4,30,30,41,35,35,20,3,3,0.4,0.5
2026-04-23T2000,1767A,121.1114,41.0879,锦州市,南山,,42,37,59,29,33,125,125,130,130,21,30,13,11,0.5,0.5
2026-04-23T2000,1768A,121.060361,40.842794,锦州市,开发区,NA,NA,85,103,39,42,NA,NA,116,116,22,50,7,11,0.4,0.8
2026-04-23T2000,1769A,121.1836,41.1118,锦州市,百股街道,,50,45,56,35,34,120,120,127,126,21,34,8,13,0.5,0.8
2026-04-23T2000,1770A,121.1176,41.1224,锦州市,天安街道,颗粒物(PM10),55,57,65,36,33,120,120,125,125,20,36,10,13,0.5,0.6
2026-04-23T2000,1771A,121.1303,41.1385,锦州市,北湖公园,,48,48,56,32,29,122,122,127,127,18,22,11,22,0.5,0.5
2026-04-23T2000,2160A,112.8496,35.5051,晋城市,自来水公司,,49,49,58,18,17,133,133,139,139,24,24,9,6,0.1,0.4
2026-04-23T2000,2162A,112.8509,35.4886,晋城市,市环保局,颗粒物(PM10),63,67,59,18,28,126,126,134,134,12,21,10,6,0.3,0.5
2026-04-23T2000,3620A,112.8258,35.4804,晋城市,泽州一中,,48,48,54,16,27,127,127,127,127,15,16,10,5,0.5,0.9
2026-04-23T2000,4078A,112.8246,35.5152,晋城市,前书院路,,42,37,56,22,19,132,132,134,134,12,23,13,8,1.3,1.1
2026-04-23T2000,4079A,112.8864,35.4773,晋城市,祥云街666号,,40,36,50,19,26,128,128,130,130,9,21,11,10,0.4,0.7
2026-04-23T2000,2174A,112.6992,37.6984,晋中市,榆次区政府,颗粒物(PM10),91,107,103,36,50,124,124,146,146,19,22,14,10,0.7,1.1
2026-04-23T2000,2865A,112.7195,37.683,晋中市,榆次三中,颗粒物(PM10),86,100,106,33,45,120,120,150,149,16,21,12,10,0.6,1
2026-04-23T2000,4080A,112.7375,37.7215,晋中市,广安街188号,颗粒物(PM10),74,83,96,33,45,124,124,145,145,20,21,12,7,0.1,0.6
2026-04-23T2000,4200A,112.7478,37.6954,晋中市,迎宾街26号,颗粒物(PM10),88,102,108,41,52,127,127,150,150,19,22,10,9,0.8,0.7
2026-04-23T2000,2439A,112.2012,31.048,荆门市,竹园小学,,38,38,32,23,18,79,79,110,107,21,19,7,3,0.4,0.4
2026-04-23T2000,2440A,112.1968,30.9892,荆门市,掇刀,,42,42,32,28,20,85,85,115,112,14,10,9,8,0.6,0.5
2026-04-23T2000,3012A,112.1849,31.0361,荆门市,西山林语,,26,24,25,12,15,82,82,108,106,12,10,6,5,0.4,0.4
2026-04-23T2000,3547A,112.1631,31.0134,荆门市,龙泉中学南校,,38,38,30,17,14,91,91,120,118,16,12,7,5,0.4,0.3
2026-04-23T2000,4124A,112.2213,31.0654,荆门市,新台西路6号,,32,32,38,14,21,76,76,110,106,16,16,7,7,0.6,0.6
2026-04-23T2000,1844A,112.2493,30.3198,荆州市,市图书馆,NA,NA,NA,22,NA,20,87,87,106,105,17,19,7,7,0.4,0.6
2026-04-23T2000,1845A,112.2009,30.3543,荆州市,市委党校,,43,33,31,30,20,76,76,93,92,15,18,8,7,0.4,0.4
2026-04-23T2000,3194A,112.2749,30.3124,荆州市,管委会,,37,37,27,22,23,74,74,97,96,19,17,7,7,0.4,0.4
2026-04-23T2000,4268A,112.1722,30.3366,荆州市,学苑路85号,,28,24,26,12,20,88,88,119,117,13,13,6,5,0.5,0.5
2026-04-23T2000,2343A,117.2114,29.2931,景德镇市,老干部活动中心,,20,16,11,14,10,42,42,50,44,9,6,4,6,0.5,0.6
2026-04-23T2000,2344A,117.1893,29.2789,景德镇市,兽医站,,30,30,18,13,6,39,39,48,48,20,10,4,4,0.6,0.5
2026-04-23T2000,2346A,117.246,29.2958,景德镇市,陶研所,,32,25,12,22,9,36,36,46,46,21,11,9,5,0.7,0.6
2026-04-23T2000,4289A,117.154766,29.256967,景德镇市,青少年活动中心,,26,20,14,18,8,42,42,49,49,16,10,12,12,/,/
2026-04-23T2000,1803A,115.9873,29.6816,九江市,十里,颗粒物(PM10),53,53,34,29,20,47,47,61,60,32,22,6,6,1.0,0.9
2026-04-23T2000,1804A,115.9583,29.7047,九江市,茅山头,,41,41,30,18,22,53,53,58,58,23,17,4,4,0.6,0.7
2026-04-23T2000,1805A,115.9877,29.7295,九江市,西园,,32,32,26,15,18,55,55,62,62,30,22,4,4,0.6,0.7
2026-04-23T2000,1808A,115.9112,29.6038,九江市,综合工业园,,34,34,27,14,19,34,34,62,58,50,24,7,7,0.8,0.7
2026-04-23T2000,3190A,116.0254,29.6995,九江市,外国语学校,,30,30,28,19,20,34,34,53,50,40,22,10,10,0.9,0.9
2026-04-23T2000,4253A,116.010205,29.659402,九江市,莲花大道8号,颗粒物(PM10),51,51,32,25,21,37,37,59,55,23,14,5,4,0.8,0.6
2026-04-23T2000,4240A,98.495752,39.733935,酒泉市,玉门东路5号,细颗粒物(PM2.5),98,78,166,59,60,107,107,105,105,3,9,6,7,0.2,0.2
2026-04-23T2000,4241A,98.5099,39.7506,酒泉市,北大街108号,NA,NA,NA,182,NA,58,NA,NA,96,NA,NA,11,NA,9,NA,0.3
2026-04-23T2000,2698A,76.0071,39.466,喀什地区,巡警大队,颗粒物(PM10),151,252,349,98,133,119,119,116,116,6,39,4,5,0.1,0.4
2026-04-23T2000,2699A,75.9756,39.4693,喀什地区,吾办,颗粒物(PM10),154,257,356,103,129,108,108,70,NA,18,38,4,8,0.5,0.9
2026-04-23T2000,4027A,75.9485,39.4688,喀什地区,老干局,颗粒物(PM10),149,247,323,91,100,109,109,118,118,9,29,3,3,0.4,0.5
2026-04-23T2000,1824A,114.3389,34.778,开封市,肿瘤医院,,29,29,34,20,26,89,89,120,115,15,15,6,6,0.6,0.7
2026-04-23T2000,1826A,114.2884,34.7966,开封市,世纪星幼儿园,,35,35,35,23,24,89,89,116,113,15,10,6,6,0.6,0.6
2026-04-23T2000,3147A,114.3434,34.8101,开封市,龙亭公园,,34,34,35,17,22,95,95,126,119,18,17,6,7,0.4,0.4
2026-04-23T2000,3210A,114.3645,34.7955,开封市,汴京公园,,36,36,37,20,23,85,85,122,117,18,14,4,4,0.4,0.5
2026-04-23T2000,3473A,114.2485,34.8306,开封市,技师学院,,32,21,38,15,22,101,101,120,118,13,13,4,4,0.3,0.4
2026-04-23T2000,3592A,114.4518,34.7503,开封市,祥符区生态环境局,,29,26,44,20,25,74,74,116,109,29,22,6,7,0.5,0.5
2026-04-23T2000,1951A,84.886,45.6029,克拉玛依市,长征新村,,41,34,40,19,18,129,129,129,129,8,12,9,7,0.5,0.6
2026-04-23T2000,1952A,84.8894,45.5827,克拉玛依市,南林小区,,48,48,52,10,6,113,113,122,122,8,19,2,3,0.1,0.3
2026-04-23T2000,1954A,84.896,44.3328,克拉玛依市,独山子区,,47,47,42,14,9,127,127,127,127,9,11,6,6,0.5,0.4
2026-04-23T2000,1955A,85.6888,46.0909,克拉玛依市,乌尔禾区商贸楼,颗粒物(PM10),63,67,54,29,18,133,133,125,125,8,12,7,4,0.2,0.3
2026-04-23T2000,3612A,85.1045,45.6895,克拉玛依市,白碱滩区新站,颗粒物(PM10),53,53,71,20,23,140,140,137,137,5,12,10,9,0.2,0.2
2026-04-23T2000,2697A,76.1457,39.7143,克孜勒苏柯尔克孜自治州,市人民政府,颗粒物(PM10),154,258,281,109,109,114,114,117,117,12,11,4,9,0.1,0.1
2026-04-23T2000,3665A,76.1654,39.7157,克孜勒苏柯尔克孜自治州,克州文化中心,颗粒物(PM10),155,260,291,96,120,126,126,116,116,2,19,4,8,0.0,0.2
2026-04-23T2000,1450A,102.8203,24.889,昆明市,呈贡新区,,45,33,46,24,32,141,141,152,152,11,15,3,5,0.2,0.5
2026-04-23T2000,1452A,102.7253,25.0904,昆明市,龙泉镇,NA,NA,54,46,45,28,NA,NA,138,138,21,15,5,5,0.7,0.6
2026-04-23T2000,1453A,102.7267,25.0378,昆明市,东风东路,,48,48,54,29,30,115,115,150,150,21,15,2,3,0.6,0.6
2026-04-23T2000,1454A,102.6744,25.0671,昆明市,金鼎山,颗粒物(PM10),55,56,55,30,32,125,125,145,145,16,14,2,3,0.6,0.7
2026-04-23T2000,1455A,102.6643,25.0401,昆明市,碧鸡广场,,48,36,53,33,32,122,122,144,144,19,18,6,6,0.5,0.5
2026-04-23T2000,3179A,102.7491,25.012,昆明市,官渡区博物馆,,46,46,57,30,31,107,107,144,144,21,19,3,4,0.6,0.6
2026-04-23T2000,3375A,102.8016,24.8336,昆明市,青年创业园,,41,NA,58,25,35,130,130,149,149,12,12,4,6,0.5,0.6
2026-04-23T2000,3550A,102.8,24.9787,昆明市,昆明学院,颗粒物(PM10),60,63,56,36,28,97,97,143,142,36,18,4,6,0.5,0.5
2026-04-23T2000,3551A,102.5969,24.6738,昆明市,晋宁区生态环境分局,颗粒物(PM10),58,60,59,28,39,140,140,144,144,8,11,4,5,0.4,0.5
2026-04-23T2000,3552A,102.6673,24.9861,昆明市,云天化总部,,45,32,52,27,28,143,143,151,151,8,17,4,5,0.5,0.6
2026-04-23T2000,1456A,91.132,29.6515,拉萨市,八廓街,,34,19,28,10,10,107,107,115,115,9,11,6,4,0.2,0.2
2026-04-23T2000,1457A,91.1221,29.6748,拉萨市,市环保局,,32,22,25,16,12,101,101,109,109,13,14,5,7,0.3,0.1
2026-04-23T2000,1458A,91.0874,29.6476,拉萨市,区监测站,,29,15,25,7,9,92,92,108,108,24,24,5,5,0.3,0.3
2026-04-23T2000,1459A,91.1774,29.6541,拉萨市,西藏大学,,32,13,26,7,9,101,101,108,108,11,14,3,4,0.3,0.3
2026-04-23T2000,1460A,90.9798,29.6586,拉萨市,区辐射站,,24,21,28,11,9,76,76,98,97,35,18,6,7,0.4,0.3
2026-04-23T2000,1461A,91.0831,29.6292,拉萨市,拉萨火车站,,32,17,27,6,11,102,102,106,106,11,19,4,4,0.2,0.3
2026-04-23T2000,2520A,109.2203,23.7252,来宾市,来宾技工学校,NA,NA,18,17,11,5,68,68,80,80,10,6,NA,8,0.4,0.5
2026-04-23T2000,3535A,109.1781,23.7293,来宾市,兴宾区政府,,24,23,17,9,4,74,74,84,84,8,3,9,8,0.5,0.5
2026-04-23T2000,4002A,109.2312,23.7428,来宾市,中南小学,,23,23,14,8,5,70,70,87,87,12,7,8,7,0.5,0.5
2026-04-23T2000,1479A,103.8309,36.0467,兰州市,铁路设计院,细颗粒物(PM2.5),118,141,122,79,62,87,87,124,123,34,49,5,8,0.7,1
2026-04-23T2000,3241A,103.7439,36.0841,兰州市,百合公园,颗粒物(PM10),95,113,108,52,48,107,107,145,140,11,35,3,7,0.1,0.4
2026-04-23T2000,3242A,103.9613,35.9985,兰州市,和平,细颗粒物(PM2.5),117,115,104,78,59,115,115,139,138,8,14,10,9,0.3,0.4
2026-04-23T2000,4236A,103.629272,36.093822,兰州市,庄浪东路808号,细颗粒物(PM2.5),98,106,107,59,54,86,86,199,166,33,28,8,12,0.3,0.4
2026-04-23T2000,4237A,103.7251,36.104344,兰州市,安宁西路88号,"颗粒物(PM10),细颗粒物(PM2.5)",104,129,123,64,56,121,121,155,153,12,33,8,12,0.2,0.4
2026-04-23T2000,4238A,103.846982,36.067567,兰州市,北滨河东路1号,颗粒物(PM10),102,124,113,56,49,86,86,138,130,36,46,8,10,0.5,0.7
2026-04-23T2000,1067A,116.6712,39.5109,廊坊市,药材公司,颗粒物(PM10),58,60,57,31,41,112,112,134,134,10,20,1,2,0.4,0.5
2026-04-23T2000,1068A,116.7215,39.5592,廊坊市,开发区,,49,49,64,25,44,122,122,141,141,9,22,3,4,0.3,0.4
2026-04-23T2000,1070A,116.7246,39.5273,廊坊市,北华航天学院,颗粒物(PM10),55,57,59,17,32,120,120,140,139,11,24,2,3,0.3,0.4
2026-04-23T2000,2919A,116.7022,39.5454,廊坊市,河北工业大学,颗粒物(PM10),60,63,58,24,37,119,119,134,134,12,22,2,4,0.3,0.4
2026-04-23T2000,2536A,103.7629,29.5844,乐山市,牛耳桥,,33,33,34,16,19,81,81,111,111,34,20,4,4,0.6,0.6
2026-04-23T2000,2537A,103.7501,29.6002,乐山市,市第三水厂,,37,37,35,12,17,93,93,112,112,30,21,5,5,0.6,0.7
2026-04-23T2000,2538A,103.7571,29.5664,乐山市,市监测站,,34,34,34,12,14,105,105,106,106,17,16,4,4,0.3,0.7
2026-04-23T2000,3361A,103.7313,29.563,乐山市,理工大学,,34,34,32,10,15,88,88,112,112,21,17,5,4,0.4,0.5
2026-04-23T2000,2599A,100.2497,26.8802,丽江市,丽江古城,,33,27,23,14,6,104,104,106,106,12,7,10,8,0.4,0.7
2026-04-23T2000,2600A,100.2203,26.8906,丽江市,市中心,,34,23,16,14,6,108,108,110,110,15,10,5,5,0.5,0.5
2026-04-23T2000,1267A,119.9141,28.4513,丽水市,监测站大楼,,21,16,8,11,3,65,65,57,57,13,12,4,4,0.5,0.4
2026-04-23T2000,1268A,119.93,28.4589,丽水市,莲都小学,,21,18,8,9,3,66,66,56,56,13,11,/,/,/,/
2026-04-23T2000,1269A,119.8794,28.4232,丽水市,余庄前,,15,15,10,8,3,38,38,43,42,10,11,4,5,0.4,0.5
2026-04-23T2000,1173A,119.1759,34.5885,连云港市,市环境监测站,,34,34,36,9,15,103,103,108,108,22,28,10,13,0.6,0.7
2026-04-23T2000,3000A,119.3577,34.6971,连云港市,德源药业,颗粒物(PM10),68,75,38,17,13,58,58,113,108,60,41,6,9,0.6,0.7
2026-04-23T2000,3007A,119.178,34.8442,连云港市,新城一中,,38,38,46,10,19,75,75,118,116,53,28,6,23,0.7,0.8
2026-04-23T2000,3008A,119.3607,34.7519,连云港市,胡沟管理处,,34,17,12,9,6,107,107,115,110,30,23,9,12,0.5,0.6
2026-04-23T2000,3009A,119.1478,34.5913,连云港市,矿山设计院,,34,34,37,12,14,101,101,113,113,24,29,20,24,0.7,0.8
2026-04-23T2000,3434A,119.2414,34.6539,连云港市,工贸学校,颗粒物(PM10),51,51,40,14,17,107,107,118,118,14,23,6,9,0.5,0.6
2026-04-23T2000,3664A,119.4171,34.734,连云港市,连云街道,,33,31,30,12,10,105,105,104,104,13,23,9,10,0.6,0.6
2026-04-23T2000,2573A,102.2629,27.8981,凉山彝族自治州,西昌市政府,,30,24,14,18,8,94,94,106,106,15,6,6,3,0.6,0.4
2026-04-23T2000,2574A,102.2686,27.885,凉山彝族自治州,凉山州政府,,29,29,14,19,8,82,82,92,92,17,7,8,4,0.7,0.5
2026-04-23T2000,4229A,102.2342,27.8859,凉山彝族自治州,凯乐南路30号,,29,29,16,16,8,80,80,94,94,19,10,6,4,0.5,0.5
2026-04-23T2000,2212A,123.1978,41.2036,辽阳市,宏伟区,颗粒物(PM10),66,72,53,36,18,107,107,119,119,20,14,10,7,0.8,0.5
2026-04-23T2000,2213A,123.1684,41.2497,辽阳市,新华园,颗粒物(PM10),65,70,61,41,24,122,122,121,121,22,28,13,13,0.7,0.7
2026-04-23T2000,2214A,123.2355,41.2663,辽阳市,滨河路,颗粒物(PM10),70,77,54,42,22,118,118,118,118,21,25,10,10,0.6,0.7
2026-04-23T2000,4083A,123.153,41.2874,辽阳市,铁西路150号,颗粒物(PM10),73,81,64,45,23,89,89,106,104,28,24,23,10,1.4,0.7
2026-04-23T2000,2227A,125.1359,42.8845,辽源市,环保局,,38,38,38,26,19,95,95,114,113,15,20,7,7,0.5,0.5
2026-04-23T2000,4085A,125.0998,42.9134,辽源市,安宁大街333号,,45,45,38,22,18,100,100,116,115,13,18,6,6,0.5,0.5
2026-04-23T2000,1625A,115.9789,36.4372,聊城市,区政府,,36,36,49,3,23,107,107,118,118,7,14,5,6,0.6,0.7
2026-04-23T2000,3200A,115.9772,36.4986,聊城市,监控中心,,45,45,54,7,22,117,117,127,127,8,27,8,8,0.3,0.4
2026-04-23T2000,3513A,116.0443,36.436,聊城市,九州社区,,48,48,54,29,31,111,111,129,127,15,20,5,6,0.4,0.5
2026-04-23T2000,4018A,116.0564,36.4609,聊城市,星美广场,,44,44,54,6,25,100,100,113,113,13,17,5,6,0.3,0.4
2026-04-23T2000,4113A,116.0091,36.4495,聊城市,利民路,,36,32,40,3,23,115,115,127,127,12,17,8,9,0.4,0.5
2026-04-23T2000,2632A,94.3683,29.6373,林芝市,林芝监测站,,28,28,18,14,10,84,84,99,99,4,8,3,3,0.5,0.4
2026-04-23T2000,2633A,94.3616,29.6634,林芝市,林芝人民医院,,35,35,21,15,9,92,92,104,104,1,3,4,4,0.4,0.4
2026-04-23T2000,2603A,100.0779,23.8981,临沧市,市环保局,NA,NA,66,63,54,44,134,134,137,136,9,9,NA,7,NA,0.8
2026-04-23T2000,2604A,100.0894,23.882,临沧市,市气象局,颗粒物(PM10),91,107,73,55,50,138,138,142,141,9,10,8,8,0.7,0.7
2026-04-23T2000,1733A,111.5552,36.0791,临汾市,临钢医院,颗粒物(PM10),55,56,63,24,34,122,122,142,142,22,19,10,8,0.7,1
2026-04-23T2000,1734A,111.4984,36.0734,临汾市,技工学校,NA,NA,57,59,31,40,117,117,134,134,NA,24,17,9,0.7,0.9
2026-04-23T2000,1736A,111.5017,36.0857,临汾市,市委,,50,50,61,16,31,125,125,140,140,20,18,15,9,0.9,1
2026-04-23T2000,3018A,111.5048,36.1015,临汾市,唐尧大酒店,颗粒物(PM10),64,69,71,27,31,123,123,137,137,20,19,13,8,0.8,1
2026-04-23T2000,4244A,111.4879,36.053,临汾市,启星学校,颗粒物(PM10),67,73,57,32,35,115,115,133,133,24,26,25,8,0.7,1
2026-04-23T2000,4271A,103.2464,35.6123,临夏回族自治州,滨河东路1号,颗粒物(PM10),130,196,123,58,52,96,96,103,102,12,23,12,10,0.3,0.4
2026-04-23T2000,4310A,103.207136,35.599807,临夏回族自治州,新华街21号,颗粒物(PM10),106,134,109,48,50,84,84,88,88,7,14,9,7,0.2,0.4
2026-04-23T2000,1618A,118.3429,35.0532,临沂市,沂河小区,颗粒物(PM10),56,58,51,21,20,107,107,127,127,25,26,15,12,0.3,0.3
2026-04-23T2000,1619A,118.2962,35.0568,临沂市,鲁南制药厂,颗粒物(PM10),56,58,53,19,24,112,112,138,137,24,24,16,16,0.2,0.3
2026-04-23T2000,1620A,118.2793,34.9976,临沂市,新光毛纺厂,,48,48,52,14,27,105,105,130,128,24,28,18,17,0.2,0.3
2026-04-23T2000,1621A,118.3955,35.0889,临沂市,河东保险公司,颗粒物(PM10),55,56,47,20,20,123,123,140,140,25,28,15,10,0.3,0.3
2026-04-23T2000,3370A,118.3563,35.0215,临沂市,十里堡居委,颗粒物(PM10),60,63,44,21,22,101,101,135,133,36,26,14,10,0.4,0.5
2026-04-23T2000,3496A,118.359,35.1067,临沂市,南坊新区,颗粒物(PM10),51,51,49,20,24,115,115,133,133,24,25,15,12,0.2,0.2
2026-04-23T2000,3860A,118.3915,35.0297,临沂市,皇山花园小区,NA,NA,NA,45,NA,20,122,122,144,144,28,27,12,10,0.4,0.4
2026-04-23T2000,1870A,109.4854,24.3898,柳州市,柳东小学,,19,7,10,3,3,60,60,64,64,6,4,4,4,0.7,0.6
2026-04-23T2000,1871A,109.4109,24.3304,柳州市,环保监测站,NA,NA,NA,12,NA,3,51,51,61,61,10,7,4,5,NA,0.8
2026-04-23T2000,1872A,109.3886,24.3408,柳州市,河西水厂,,19,13,11,11,4,59,59,69,69,10,8,9,11,0.5,0.6
2026-04-23T2000,1873A,109.4263,24.2951,柳州市,市四中,,16,11,12,7,3,49,49,61,61,13,6,6,7,0.5,0.5
2026-04-23T2000,1874A,109.396,24.3658,柳州市,市九中,,22,22,13,7,3,50,50,62,62,9,6,4,6,0.3,0.4
2026-04-23T2000,1875A,109.4912,24.3164,柳州市,古亭山,,17,6,9,3,3,52,52,62,62,9,5,4,4,0.7,0.7
2026-04-23T2000,3402A,109.5422,24.3994,柳州市,市二中,,18,NA,10,3,3,55,55,64,64,11,7,7,7,0.5,0.5
2026-04-23T2000,2307A,116.5078,31.7369,六安市,监测大楼,,19,17,7,10,6,59,59,76,74,21,10,4,4,0.3,0.3
2026-04-23T2000,2308A,116.4738,31.7642,六安市,皖西学院,,25,10,7,10,6,78,78,86,86,9,8,4,4,0.3,0.3
2026-04-23T2000,2309A,116.4997,31.7904,六安市,朝阳厂,,23,15,6,11,8,72,72,83,83,12,9,5,5,0.3,0.3
2026-04-23T2000,2310A,116.5566,31.7885,六安市,开发区,,22,NA,4,8,6,69,69,88,85,22,14,4,4,0.3,0.3
2026-04-23T2000,2577A,104.8293,26.592,六盘水市,黄土坡,,31,22,19,20,11,99,99,114,113,11,8,5,6,0.0,0
2026-04-23T2000,2579A,104.8481,26.5898,六盘水市,民中,,31,NA,18,19,10,97,97,111,110,11,8,3,4,0.4,0.4
2026-04-23T2000,2580A,104.9541,26.5506,六盘水市,双水,,30,24,23,15,11,95,95,103,102,7,8,4,5,0.2,0.4
2026-04-23T2000,4151A,104.8899,26.5685,六盘水市,钟山大道中段564号,,30,28,28,19,12,96,96,108,108,7,12,2,6,0.2,0.6
2026-04-23T2000,2336A,117.022,25.1031,龙岩市,龙岩市监测站,,12,NA,13,3,10,37,37,43,39,8,9,5,6,0.7,0.6
2026-04-23T2000,2337A,117.0257,25.0662,龙岩市,闽西职业技术学院,,11,6,15,3,11,35,35,40,39,6,8,5,6,0.8,0.7
2026-04-23T2000,2338A,117.0195,25.0306,龙岩市,龙岩学院,,11,7,19,3,11,33,33,39,36,8,7,4,5,/,/
2026-04-23T2000,2885A,104.9344,33.3827,陇南市,滨江中学,NA,NA,95,69,NA,32,82,82,94,93,5,11,8,8,0.5,0.6
2026-04-23T2000,3247A,104.9551,33.3709,陇南市,市总工会,颗粒物(PM10),63,67,58,25,26,86,86,93,93,3,8,7,8,0.5,0.5
2026-04-23T2000,2488A,111.9984,27.7346,娄底市,市监测站,,28,28,26,18,16,78,78,95,93,16,16,4,8,0.5,0.5
2026-04-23T2000,2491A,111.9888,27.7035,娄底市,市政府,,30,30,23,16,14,69,69,103,99,20,11,4,4,0.5,0.4
2026-04-23T2000,4127A,111.9812,27.7591,娄底市,涟钢职大,,48,48,18,30,9,81,81,86,86,13,9,2,3,0.6,0.5
2026-04-23T2000,4128A,112.0303,27.7457,娄底市,娄底体校,颗粒物(PM10),51,51,24,23,15,55,55,87,84,17,8,4,4,0.3,0.3
2026-04-23T2000,1894A,105.4427,28.9063,泸州市,小市上码头,,37,20,23,9,12,116,116,111,111,13,17,8,7,0.4,0.5
2026-04-23T2000,1895A,105.4241,28.8573,泸州市,兰田宪桥,,33,22,26,15,17,104,104,108,108,19,16,8,7,0.5,0.5
2026-04-23T2000,1896A,105.4378,28.8833,泸州市,市环监站,,36,19,24,9,12,113,113,112,112,17,18,10,9,0.7,0.8
2026-04-23T2000,4272A,105.3689,28.7783,泸州市,纳溪中医医院,,35,35,36,12,18,112,112,114,114,15,15,5,5,0.4,0.5
2026-04-23T2000,2183A,111.1447,37.5212,吕梁市,环保局,颗粒物(PM10),70,77,83,32,23,114,114,128,128,22,32,4,4,0.5,0.5
2026-04-23T2000,2185A,111.1285,37.5338,吕梁市,自来水公司,颗粒物(PM10),68,75,88,32,24,113,113,127,127,17,31,2,4,0.5,0.5
2026-04-23T2000,2867A,111.1225,37.5093,吕梁市,马茂庄小学,颗粒物(PM10),83,95,92,22,20,109,109,128,128,28,39,1,3,0.4,0.5
2026-04-23T2000,1812A,112.3934,34.6517,洛阳市,市委党校,NA,NA,26,32,13,17,NA,NA,118,118,12,16,7,8,0.4,0.6
2026-04-23T2000,1815A,112.494,34.6883,洛阳市,河南林校,,38,38,44,13,17,96,96,116,116,22,24,10,11,0.5,0.6
2026-04-23T2000,1816A,112.3843,34.623,洛阳市,开发区管委会,,35,NA,34,19,19,109,109,122,120,13,15,10,11,0.4,0.7
2026-04-23T2000,1817A,112.4263,34.6249,洛阳市,市委新办公区,,36,36,38,13,18,107,107,118,118,15,18,8,10,0.4,0.5
2026-04-23T2000,3340A,112.6005,34.6323,洛阳市,伊滨,,39,NA,36,27,19,100,100,115,115,16,19,9,10,0.3,0.4
2026-04-23T2000,3341A,112.495,34.6338,洛阳市,中移产业园,,38,26,33,26,18,103,103,118,118,14,15,9,10,0.2,0.4
2026-04-23T2000,3593A,112.5736,34.8993,洛阳市,吉利监测站,,50,50,40,32,21,92,92,121,121,30,18,12,8,0.5,0.5
2026-04-23T2000,3635A,112.3678,34.6623,洛阳市,河科大西苑校区,,36,27,31,19,18,114,114,125,125,12,16,9,9,0.4,0.5
2026-04-23T2000,3636A,112.4387,34.678,洛阳市,英才小学,,36,NA,46,25,26,97,97,114,114,21,27,6,10,0.4,0.5
2026-04-23T2000,4214A,112.460027,34.694929,洛阳市,春都路1号院,颗粒物(PM10),53,53,49,21,23,111,111,127,127,18,28,8,10,0.4,0.5
2026-04-23T2000,2399A,114.051,33.5721,漯河市,三五一五工厂,,33,26,47,23,33,88,88,109,107,21,20,5,5,0.4,0.5
2026-04-23T2000,2400A,114.0055,33.5698,漯河市,漯河大学,,36,NA,40,25,29,91,91,106,104,19,22,4,6,0.3,0.4
2026-04-23T2000,2401A,114.0134,33.5826,漯河市,市水利局,,30,24,41,21,30,91,91,109,107,11,15,4,5,0.4,0.5
2026-04-23T2000,2402A,114.0261,33.5697,漯河市,市广电局,,39,NA,38,27,30,92,92,112,109,16,19,4,5,0.3,0.4
2026-04-23T2000,3478A,113.9691,33.568,漯河市,市图书馆,,30,25,40,21,28,86,86,107,104,14,18,4,6,0.5,0.6
2026-04-23T2000,4250A,114.089259,33.588274,漯河市,韶山路11号,,40,37,47,28,32,76,76,101,99,19,26,5,7,0.3,0.4
2026-04-23T2000,1798A,118.5084,31.6838,马鞍山市,湖东路四小,,28,28,13,9,6,73,73,97,96,24,13,5,5,0.4,0.3
2026-04-23T2000,1799A,118.5019,31.6449,马鞍山市,开发区,,28,26,11,8,5,87,87,98,98,16,13,5,5,0.4,0.4
2026-04-23T2000,3633A,118.4914,31.681,马鞍山市,雨山,,24,18,12,9,6,74,74,98,97,20,15,9,10,0.4,0.4
2026-04-23T2000,4191A,118.527362,31.722269,马鞍山市,慈湖高新区,,20,20,12,7,6,58,58,95,93,36,13,5,5,0.3,0.3
2026-04-23T2000,1686A,111.0285,21.469,茂名市,电白南海,,41,41,40,27,22,33,33,51,39,13,9,11,6,0.9,0.8
2026-04-23T2000,1687A,110.9294,21.6533,茂名市,茂石化七小,,46,46,35,27,22,31,31,45,45,14,13,6,8,0.7,0.6
2026-04-23T2000,1688A,110.9108,21.6688,茂名市,健康路,NA,NA,34,29,24,22,30,30,47,47,16,12,5,6,NA,0.8
2026-04-23T2000,1689A,110.8592,21.6826,茂名市,高岭,,48,48,40,23,20,34,34,48,48,17,11,6,9,/,/
2026-04-23T2000,3450A,111.0101,21.5165,茂名市,电白水东,,48,44,31,33,24,25,25,49,38,16,9,6,3,/,/
2026-04-23T2000,2540A,103.8414,30.0871,眉山市,气象局,颗粒物(PM10),65,71,56,14,25,97,97,118,118,26,23,8,8,0.8,0.7
2026-04-23T2000,3148A,103.829,30.0563,眉山市,区人社局,颗粒物(PM10),70,78,56,26,29,86,86,114,114,44,30,11,9,0.9,0.8
2026-04-23T2000,4148A,103.8836,30.0695,眉山市,眉职院,,36,36,54,11,22,94,94,121,121,21,21,8,9,0.7,0.8
2026-04-23T2000,1690A,116.1248,24.3307,梅州市,梅江月梅,,10,10,18,3,9,26,26,41,30,17,12,/,/,/,/
2026-04-23T2000,1691A,116.0798,24.2719,梅州市,梅县新城,,13,6,19,3,9,39,39,46,34,10,12,8,8,0.6,0.5
2026-04-23T2000,3315A,116.1234,24.2994,梅州市,梅龙,,13,6,15,3,10,39,39,46,36,8,9,6,6,0.6,0.6
2026-04-23T2000,1878A,104.7775,31.4741,绵阳市,富乐山,,45,45,40,25,28,90,90,111,111,14,19,7,7,0.7,0.7
2026-04-23T2000,1880A,104.6698,31.4668,绵阳市,高新区自来水公司,颗粒物(PM10),52,52,48,27,26,89,89,118,118,33,24,7,7,0.8,0.7
2026-04-23T2000,3491A,104.6899,31.5324,绵阳市,西科大附属小学,颗粒物(PM10),61,65,50,33,29,77,77,112,112,44,25,5,5,0.5,0.4
2026-04-23T2000,3492A,104.5647,31.5343,绵阳市,安州区旅游局,颗粒物(PM10),70,77,43,35,22,96,96,120,120,15,12,6,6,0.4,0.3
2026-04-23T2000,4146A,104.7092,31.4972,绵阳市,科技城新区公安局,颗粒物(PM10),55,57,54,26,26,82,82,111,111,30,22,5,7,0.6,0.6
2026-04-23T2000,4226A,104.765114,31.453094,绵阳市,绵阳市气象局,颗粒物(PM10),52,52,49,22,29,98,98,106,106,17,24,9,10,0.4,0.5
2026-04-23T2000,1784A,129.61,44.561,牡丹江市,环保大楼,,46,38,35,32,21,75,75,108,101,13,12,3,2,0.2,0.2
2026-04-23T2000,1787A,129.6364,44.6075,牡丹江市,机车工厂,细颗粒物(PM2.5),80,84,53,50,24,65,65,101,93,14,16,6,7,0.2,0.2
2026-04-23T2000,1788A,129.6386,44.5462,牡丹江市,第一中学,,43,43,31,14,16,77,77,107,100,6,12,3,3,0.2,0.2
2026-04-23T2000,4287A,129.5992,44.5964,牡丹江市,东晓云街98号,,43,43,44,17,18,74,74,106,99,8,9,6,3,0.2,0.3
2026-04-23T2000,2531A,105.0703,29.61,内江市,市监测站,,41,25,40,14,25,129,129,133,133,11,19,9,9,0.5,0.6
2026-04-23T2000,2533A,105.0657,29.5807,内江市,内江二中,,48,48,33,12,21,125,125,133,133,12,22,7,7,0.2,0.3
2026-04-23T2000,2534A,105.0407,29.5828,内江市,内江日报社,,38,28,34,13,24,121,121,131,131,15,24,9,8,0.3,0.5
2026-04-23T2000,4147A,105.0433,29.6105,内江市,玉峰路西段888号,,38,34,35,16,25,121,121,133,133,18,21,4,4,0.4,0.5
2026-04-23T2000,2628A,92.0653,31.4846,那曲市,那曲监测站,,29,24,63,14,30,92,92,94,94,10,26,4,7,0.7,1.2
2026-04-23T2000,4243A,92.0515,31.4787,那曲市,那曲市委宣传部,,32,15,40,6,20,100,100,100,100,1,14,3,6,0.4,0.8
2026-04-23T2000,1291A,115.8887,28.7006,南昌市,省林业公司,,17,14,9,8,11,52,52,67,64,14,10,3,5,0.6,0.3
2026-04-23T2000,1292A,115.813,28.7443,南昌市,林科所,,19,NA,9,10,10,58,58,68,66,19,9,8,7,0.7,0.7
2026-04-23T2000,1294A,115.8518,28.687,南昌市,建工学校,NA,NA,NA,21,NA,11,57,57,66,64,15,11,NA,5,NA,0.6
2026-04-23T2000,1295A,115.8926,28.6425,南昌市,象湖,,17,NA,10,11,12,53,53,66,64,20,14,8,8,0.7,0.7
2026-04-23T2000,3046A,115.9084,28.6062,南昌市,机电学校,,21,21,21,12,12,62,62,71,70,17,13,5,5,0.5,0.5
2026-04-23T2000,3690A,115.9718,28.7032,南昌市,外国语学校,,18,18,16,12,11,53,53,69,67,28,15,8,8,0.6,0.5
2026-04-23T2000,4106A,115.7923,28.6873,南昌市,工业二路,,19,18,22,12,10,59,59,64,63,10,8,5,5,0.5,0.5
2026-04-23T2000,4192A,115.931587,28.686774,南昌市,南京东路235号,,29,29,21,10,10,62,62,74,72,14,11,7,6,0.5,0.5
2026-04-23T2000,1906A,106.0791,30.8022,南充市,南充市委,,32,32,25,18,13,74,74,108,107,38,20,8,7,0.5,0.4
2026-04-23T2000,1907A,106.1038,30.8215,南充市,南充炼油厂,,48,48,32,13,16,70,70,108,106,40,19,4,4,0.3,0.3
2026-04-23T2000,4227A,106.108336,30.788436,南充市,梨树横街98号,,46,46,27,16,15,74,74,110,108,30,20,7,7,0.4,0.4
2026-04-23T2000,4304A,106.1172,30.843,南充市,清泉寺北路188号,,32,25,25,8,12,102,102,117,117,14,14,6,6,0.4,0.4
2026-04-23T2000,4305A,106.067,30.7616,南充市,同庆路1号,,30,25,23,15,13,93,93,107,107,16,18,6,7,0.3,0.3
2026-04-23T2000,1151A,118.8033,32.1085,南京市,迈皋桥,,38,38,17,3,1,53,53,106,102,24,15,5,5,0.3,0.4
2026-04-23T2000,1152A,118.7487,32.057,南京市,草场门,,44,44,17,12,4,54,54,99,96,45,18,4,3,0.4,0.2
2026-04-23T2000,1154A,118.770105,32.004342,南京市,中华门,,36,36,17,10,4,73,73,106,106,24,13,9,8,0.5,0.4
2026-04-23T2000,1155A,118.8059,32.0329,南京市,瑞金路,,39,39,16,19,4,44,44,102,99,36,12,4,5,0.8,0.5
2026-04-23T2000,1156A,118.7946,32.0774,南京市,玄武湖,,34,34,17,13,2,34,34,94,90,40,11,4,4,0.5,0.3
2026-04-23T2000,1157A,118.6415,32.0964,南京市,浦口,,32,32,21,3,2,52,52,88,87,14,12,4,4,0.3,0.4
2026-04-23T2000,1158A,118.730129,32.000956,南京市,奥体中心,,40,40,18,6,2,63,63,86,86,29,15,7,7,0.3,0.2
2026-04-23T2000,1159A,118.9072,32.1047,南京市,仙林大学城,,48,48,22,10,3,44,44,98,93,48,18,9,8,0.6,0.4
2026-04-23T2000,3422A,118.8443,31.919,南京市,江宁彩虹桥,NA,NA,41,12,6,1,58,58,116,110,52,18,NA,4,0.4,0.4
2026-04-23T2000,3427A,118.8497,32.3599,南京市,六合雄州,,47,47,21,14,4,67,67,101,98,32,20,4,4,0.4,0.5
2026-04-23T2000,4086A,118.7641,32.0841,南京市,新模范马路66号,,44,44,19,18,5,62,62,103,101,38,14,4,4,0.5,0.3
2026-04-23T2000,4249A,118.8707617,31.34017673,南京市,汶溪路181号,,48,48,15,10,2,69,69,96,94,42,15,12,6,0.4,0.3
2026-04-23T2000,4312A,119.019,31.6512,南京市,中山西路1号,,34,34,11,3,1,48,48,96,92,30,13,3,4,0.6,0.4
2026-04-23T2000,1401A,108.3098,22.788,南宁市,二十一中,,21,NA,16,10,8,67,67,83,83,9,10,4,3,0.5,0.5
2026-04-23T2000,1402A,108.3135,22.8529,南宁市,北湖,,21,NA,17,13,11,67,67,87,87,11,11,2,7,0.5,0.6
2026-04-23T2000,1403A,108.3205,22.8222,南宁市,市监测站,,25,25,18,9,8,68,68,87,86,11,10,5,5,0.4,0.4
2026-04-23T2000,1404A,108.3828,22.8038,南宁市,大自然花园,,22,14,17,8,5,69,69,82,82,13,11,5,6,0.5,0.5
2026-04-23T2000,1406A,108.2397,22.8462,南宁市,区农职院,,23,23,19,3,8,59,59,77,77,9,6,4,4,0.5,0.5
2026-04-23T2000,1407A,108.3285,22.7356,南宁市,英华嘉园,,24,24,20,10,9,73,73,90,90,12,11,4,4,0.6,0.4
2026-04-23T2000,3401A,108.4829,22.762,南宁市,红星社区,,24,15,13,8,4,76,76,84,84,9,6,5,5,0.5,0.5
2026-04-23T2000,4132A,108.2927,23.1477,南宁市,起凤路9号,,24,24,13,16,7,63,63,75,74,8,5,4,4,0.5,0.5
2026-04-23T2000,4221A,108.2177,22.7774,南宁市,乐贤路16号,,25,25,23,10,10,59,59,84,81,22,12,7,6,0.3,0.3
2026-04-23T2000,2332A,118.1682,26.6371,南平市,南平市监测站,,16,16,11,10,6,28,28,48,45,16,8,4,3,0.6,0.5
2026-04-23T2000,2334A,118.1757,26.6276,南平市,南平七中,,13,13,13,6,5,28,28,49,46,13,8,2,2,0.6,0.6
2026-04-23T2000,1168A,120.9056,31.9669,南通市,狼山街道,,24,24,17,6,3,56,56,100,93,16,9,3,3,0.4,0.3
2026-04-23T2000,1170A,120.8635,32.0231,南通市,城中,,42,42,21,18,5,64,64,99,94,29,11,6,3,0.3,0.2
2026-04-23T2000,1171A,120.9376,31.9301,南通市,星湖花园,,26,26,15,7,3,67,67,102,98,18,9,3,3,0.3,0.3
2026-04-23T2000,1172A,120.8053,32.046,南通市,紫琅学院,,30,30,15,11,4,71,71,112,106,25,12,5,5,0.6,0.5
2026-04-23T2000,3291A,121.0631,32.0644,南通市,通州监测站,,27,27,17,8,3,84,84,106,103,16,8,3,3,0.4,0.4
2026-04-23T2000,3432A,120.9348,31.9874,南通市,环境教育馆,,34,34,17,3,2,74,74,101,97,20,13,4,4,0.4,0.4
2026-04-23T2000,4091A,120.8692,31.9885,南通市,洪江路,,32,32,17,9,4,71,71,96,93,23,12,5,4,0.7,0.6
2026-04-23T2000,2404A,112.5338,33.0086,南阳市,瓦房庄,,32,32,42,16,19,100,100,118,117,15,15,4,4,0.4,0.5
2026-04-23T2000,2405A,112.5002,32.9734,南阳市,汉画馆,,30,30,44,9,20,90,90,115,114,13,15,6,6,0.4,0.5
2026-04-23T2000,2406A,112.5778,33.0144,南阳市,气象站,,35,21,34,8,18,110,110,122,121,13,11,4,5,0.2,0.4
2026-04-23T2000,2407A,112.548,32.9687,南阳市,理工学院,,38,38,44,21,23,88,88,120,116,21,17,6,6,0.4,0.4
2026-04-23T2000,4008A,112.5233,32.9921,南阳市,卧龙区政府,,29,13,37,12,22,92,92,118,116,12,13,6,6,0.4,0.5
2026-04-23T2000,1234A,121.8352,29.9111,宁波市,区环保大楼,,45,45,16,13,6,80,80,96,95,33,21,6,6,0.3,0.4
2026-04-23T2000,1235A,121.5595,29.8208,宁波市,万里学院,,38,38,14,22,6,82,82,91,91,23,16,3,8,0.4,0.7
2026-04-23T2000,1236A,121.713,29.9564,宁波市,龙赛医院,颗粒物(PM10),54,55,16,18,5,56,56,88,84,34,18,6,6,0.5,0.4
2026-04-23T2000,1240A,121.5855,29.8635,宁波市,太古小学,,38,38,15,17,6,75,75,91,91,27,18,4,3,0.4,0.5
2026-04-23T2000,1241A,121.5239,29.8673,宁波市,市环境监测中心,,25,19,14,15,8,79,79,90,90,30,21,6,6,0.1,0.2
2026-04-23T2000,2871A,121.6156,29.9015,宁波市,万里国际学校,,37,37,17,22,8,54,54,92,88,47,19,4,4,0.5,0.5
2026-04-23T2000,3710A,121.5593,29.8976,宁波市,白沙活动中心,,26,22,13,18,6,69,69,90,89,30,17,5,4,0.4,0.5
2026-04-23T2000,4095A,121.8962,29.7529,宁波市,中科路88号,,38,38,13,13,5,84,84,95,94,22,13,6,6,0.4,0.5
2026-04-23T2000,2341A,119.5387,26.6611,宁德市,宁德市监测站,,17,NA,25,3,18,54,54,42,42,16,28,7,7,0.5,0.7
2026-04-23T2000,3209A,119.5231,26.6562,宁德市,宁德一中,,18,6,29,3,17,57,57,43,43,13,15,5,5,0.5,0.6
2026-04-23T2000,2618A,98.859,25.8541,怒江傈僳族自治州,州监测站,细颗粒物(PM2.5),68,51,21,44,11,110,110,118,118,13,6,8,6,0.5,0.3
2026-04-23T2000,2619A,98.8607,25.8168,怒江傈僳族自治州,泸水一中,细颗粒物(PM2.5),88,62,20,54,13,88,88,107,105,42,14,8,5,0.7,0.5
2026-04-23T2000,1888A,101.6891,26.571,攀枝花市,弄弄坪,颗粒物(PM10),55,57,35,23,16,116,116,132,132,15,11,16,16,0.5,0.5
2026-04-23T2000,1889A,101.577,26.5914,攀枝花市,河门口,NA,NA,NA,44,NA,20,NA,NA,138,138,NA,17,14,17,NA,NA
2026-04-23T2000,1891A,101.7365,26.4986,攀枝花市,仁和,细颗粒物(PM2.5),104,90,42,64,26,113,113,120,120,12,13,7,11,0.4,0.4
2026-04-23T2000,2835A,101.7222,26.567,攀枝花市,四十中小,,36,35,31,17,13,114,114,125,125,13,15,25,16,0.5,0.7
2026-04-23T2000,1604A,122.0303,41.1489,盘锦市,开发区,NA,NA,36,43,17,21,NA,NA,131,131,12,17,6,9,NA,0.4
2026-04-23T2000,1605A,122.0486,41.0883,盘锦市,兴隆台,,36,33,45,14,23,114,114,132,131,18,27,10,11,0.5,0.8
2026-04-23T2000,1606A,121.8297,41.1026,盘锦市,新生街道,,44,25,36,12,26,138,138,149,149,13,21,5,6,0.4,0.5
2026-04-23T2000,1832A,113.3257,33.7423,平顶山市,新华旅馆,,40,40,66,25,33,94,94,115,112,12,21,4,5,0.4,0.4
2026-04-23T2000,1833A,113.2917,33.737,平顶山市,规划设计院,颗粒物(PM10),53,54,53,27,33,94,94,116,114,16,22,6,7,0.5,0.4
2026-04-23T2000,1834A,113.182,33.7738,平顶山市,平顶山工学院,NA,NA,25,46,NA,43,98,98,120,120,11,16,8,9,0.4,0.5
2026-04-23T2000,3594A,112.8736,33.9068,平顶山市,石龙区,颗粒物(PM10),52,52,55,30,33,92,92,114,114,15,27,8,10,0.5,0.6
2026-04-23T2000,4116A,113.284,33.7139,平顶山市,姚电大道23号,,46,37,52,32,29,96,96,118,116,16,23,5,6,0.4,0.4
2026-04-23T2000,2656A,106.6633,35.5338,平凉市,聚贤嘉苑,颗粒物(PM10),68,75,69,32,24,116,116,113,113,9,22,4,7,0.3,0.4
2026-04-23T2000,2657A,106.7021,35.5307,平凉市,博物馆,颗粒物(PM10),78,89,68,26,28,122,122,121,121,8,20,4,9,0.4,0.7
2026-04-23T2000,2348A,113.8384,27.6436,萍乡市,中医院,,37,37,26,15,18,67,67,95,93,22,13,6,10,0.6,0.6
2026-04-23T2000,2350A,113.8677,27.6438,萍乡市,市环保局,,43,37,26,30,22,77,77,95,94,24,16,8,10,0.9,0.8
2026-04-23T2000,2351A,113.8663,27.6202,萍乡市,安源区政府,,44,44,24,28,19,71,71,88,87,21,14,10,9,0.4,0.4
2026-04-23T2000,4107A,113.8686,27.6668,萍乡市,联洪村委会,,30,30,35,16,17,72,72,89,88,14,13,2,6,0.3,0.5
2026-04-23T2000,2319A,119.0142,25.4324,莆田市,荔城区仓后路,,13,6,39,3,29,40,40,47,37,15,12,/,/,/,/
2026-04-23T2000,2320A,119.0016,25.4553,莆田市,莆田市监测站,,12,6,37,3,26,36,36,48,37,21,14,2,2,0.6,0.5
2026-04-23T2000,2321A,119.112,25.4561,莆田市,涵江区六中,,14,6,33,3,30,44,44,46,37,17,19,/,/,0.6,0.6
2026-04-23T2000,2322A,119.1014,25.3215,莆田市,秀屿区政府,,20,6,37,3,22,64,64,61,56,8,11,3,4,0.9,0.6
2026-04-23T2000,2392A,115.0312,35.7636,濮阳市,环保局,,35,35,30,21,15,100,100,106,106,14,12,3,4,0.5,0.6
2026-04-23T2000,3021A,115,35.7667,濮阳市,濮水河管理处,,41,41,35,14,16,97,97,108,108,17,17,3,3,0.6,0.6
2026-04-23T2000,4118A,115.0552,35.7816,濮阳市,中原东路68号,,34,32,35,15,15,106,106,111,111,10,10,2,2,0.5,0.5
2026-04-23T2000,4216A,115.0923632,35.76857718,濮阳市,任丘路479号,,38,38,37,17,17,98,98,106,106,19,12,2,2,0.4,0.4
2026-04-23T2000,2601A,100.9801,22.7634,普洱市,市环保局,细颗粒物(PM2.5),84,92,114,52,58,123,123,111,111,10,18,5,6,0.7,0.9
2026-04-23T2000,2602A,100.9763,22.8237,普洱市,普洱第二中学,细颗粒物(PM2.5),102,88,101,62,58,127,127,115,115,11,27,7,7,0.9,1
2026-04-23T2000,3345A,131.0413,45.7795,七台河市,中波台,,21,8,8,3,7,65,65,84,80,10,7,3,3,0.2,0.1
2026-04-23T2000,3637A,131.0136,45.7688,七台河市,人民广场,,23,21,19,11,7,72,72,89,86,13,10,9,10,0.5,0.5
2026-04-23T2000,3684A,130.8639,45.8144,七台河市,新建矿广场,颗粒物(PM10),51,51,29,28,6,53,53,73,68,17,10,16,9,0.2,0.2
2026-04-23T2000,1779A,123.9307,47.3641,齐齐哈尔市,安居小区,,35,35,35,12,15,78,78,90,88,8,15,3,3,0.2,0.3
2026-04-23T2000,1780A,123.9497,47.3389,齐齐哈尔市,中心广场,,26,26,30,9,14,79,79,87,87,4,12,5,5,0.3,0.3
2026-04-23T2000,1781A,123.9483,47.3229,齐齐哈尔市,农牧车辆厂,,25,24,36,6,15,78,78,91,90,5,14,4,5,0.3,0.5
2026-04-23T2000,1783A,123.9442,47.2994,齐齐哈尔市,市环境监测站,,28,28,37,16,17,70,70,88,85,10,20,3,4,0.3,0.3
2026-04-23T2000,3662A,123.6341,47.2079,齐齐哈尔市,富区青少年活动中心,,28,28,49,17,28,77,77,94,92,6,17,2,5,0.2,0.4
2026-04-23T2000,2591A,107.9765,26.5724,黔东南苗族侗族自治州,市环境监测站,,25,21,19,17,12,51,51,76,73,11,7,2,3,0.4,0.5
2026-04-23T2000,2881A,107.8909,26.531,黔东南苗族侗族自治州,凯里学院,,19,12,11,9,12,58,58,81,79,14,8,1,3,0.4,0.4
2026-04-23T2000,2593A,107.5223,26.2371,黔南布依族苗族自治州,小围寨,,22,19,15,10,15,69,69,81,81,5,6,3,5,0.2,0.2
2026-04-23T2000,3538A,107.5175,26.2977,黔南布依族苗族自治州,沙坝,,29,27,19,20,13,57,57,76,74,8,6,3,4,0.5,0.5
2026-04-23T2000,2589A,104.9022,25.0943,黔西南布依族苗族自治州,场坝街,,41,41,29,20,23,114,114,113,113,6,8,6,7,0.3,0.4
2026-04-23T2000,2590A,104.8812,25.0994,黔西南布依族苗族自治州,坪东大道,,38,38,29,17,25,110,110,109,109,7,9,3,6,0.3,0.4
2026-04-23T2000,2502A,108.6238,21.9667,钦州市,市环保站,,36,36,23,19,9,49,49,49,49,16,10,3,2,0.8,0.8
2026-04-23T2000,2503A,108.655,21.9481,钦州市,沙埠小学,,26,26,22,17,12,42,42,51,51,19,12,2,2,0.4,0.5
2026-04-23T2000,2504A,108.5989,21.7435,钦州市,港区一小,,46,46,33,17,18,50,50,46,46,19,15,4,4,0.6,0.6
2026-04-23T2000,3404A,108.5959,21.9634,钦州市,北职校,,29,29,23,16,11,47,47,49,49,18,10,2,2,0.5,0.6
2026-04-23T2000,1046A,119.5247,39.9346,秦皇岛市,建设大厦,颗粒物(PM10),61,65,67,33,27,109,109,127,127,20,38,9,8,0.5,0.4
2026-04-23T2000,3132A,119.5979,39.938,秦皇岛市,文明里,颗粒物(PM10),65,71,66,33,23,108,108,120,120,34,41,11,10,0.5,0.4
2026-04-23T2000,4066A,119.7458,39.9952,秦皇岛市,南园路157号,颗粒物(PM10),63,67,54,40,20,121,121,114,114,29,53,8,8,0.4,0.4
2026-04-23T2000,4067A,119.5131,39.8858,秦皇岛市,翠岛大街1号,颗粒物(PM10),55,56,54,33,20,117,117,125,125,27,38,11,10,0.5,0.4
2026-04-23T2000,4198A,119.509013,39.825305,秦皇岛市,北戴河轮滑馆,颗粒物(PM10),63,67,58,38,23,114,114,119,118,28,37,8,8,0.4,0.4
2026-04-23T2000,1310A,120.404,36.0625,青岛市,市南区东部子站,NA,NA,NA,49,NA,26,107,107,137,137,42,37,NA,7,NA,0.5
2026-04-23T2000,1311A,120.362344,36.10282,青岛市,四方区子站,,48,48,45,17,23,130,130,146,146,23,31,7,8,0.6,0.6
2026-04-23T2000,1312A,120.294373,36.054183,青岛市,市南区西部子站,,40,34,45,17,24,60,60,127,123,80,55,5,5,0.6,0.6
2026-04-23T2000,1313A,120.4581,36.0858,青岛市,崂山区子站,颗粒物(PM10),60,63,48,26,22,120,120,136,136,31,34,8,9,0.4,0.4
2026-04-23T2000,1315A,120.3945,36.3083,青岛市,城阳区子站,颗粒物(PM10),62,66,55,28,25,107,107,132,131,38,30,8,8,0.7,0.7
2026-04-23T2000,3642A,120.3454,36.0735,青岛市,市北区南部,,45,45,43,14,22,117,117,152,152,33,33,4,5,0.5,0.5
2026-04-23T2000,3643A,120.3897,36.18,青岛市,李沧区北部,颗粒物(PM10),63,68,54,28,24,107,107,129,129,42,32,10,10,0.7,0.5
2026-04-23T2000,4110A,120.5222,36.4089,青岛市,盟旺路653号,颗粒物(PM10),58,60,42,25,23,118,118,141,141,30,22,5,5,0.7,0.7
2026-04-23T2000,4290A,120.196923,35.954556,青岛市,珠江路669号,,44,41,42,17,18,140,140,137,137,15,33,5,5,0.5,0.6
2026-04-23T2000,4291A,120.0424,35.8656,青岛市,黄岛区人民政府广场,,41,41,39,13,14,98,98,118,116,26,26,8,9,0.5,0.5
2026-04-23T2000,1703A,113.0218,23.7086,清远市,凤城街办,,15,12,9,3,5,46,46,52,50,15,13,/,/,/,/
2026-04-23T2000,3025A,113.0479,23.6343,清远市,技师学院,,17,12,9,6,5,52,52,48,48,15,14,5,4,0.6,0.5
2026-04-23T2000,3318A,112.9898,23.7403,清远市,清新太和,,14,12,8,3,4,43,43,54,50,18,11,7,7,0.5,0.4
2026-04-23T2000,3455A,113.076,23.72,清远市,清城东城,NA,NA,10,9,3,4,50,50,50,49,NA,8,/,/,/,/
2026-04-23T2000,2661A,107.6325,35.7357,庆阳市,庆阳五中,NA,NA,92,57,31,19,96,96,117,116,NA,16,3,3,0.3,0.3
2026-04-23T2000,2662A,107.6361,35.7067,庆阳市,市环保局,,42,NA,36,29,20,121,121,124,124,16,13,5,6,0.2,0.3
2026-04-23T2000,1916A,103.7897,25.5036,曲靖市,环境监测站,,47,47,42,28,25,101,101,125,125,18,13,9,12,0.6,0.6
2026-04-23T2000,1917A,103.8013,25.5357,曲靖市,烟厂办公区,NA,NA,NA,38,NA,20,105,105,116,116,NA,11,NA,13,0.6,0.5
2026-04-23T2000,3376A,103.7926,25.4651,曲靖市,南苑二区,,38,36,40,26,24,99,99,117,117,18,10,4,4,0.7,0.6
2026-04-23T2000,3377A,103.7442,25.5259,曲靖市,曲靖师范学院,,45,45,39,28,21,107,107,125,125,13,10,4,7,0.4,0.4
2026-04-23T2000,1264A,118.8694,28.94,衢州市,环保大楼,,16,10,15,8,12,50,50,48,48,16,14,/,/,/,/
2026-04-23T2000,1266A,118.8622,28.9809,衢州市,衢州学院,,16,8,13,3,10,50,50,49,49,18,17,5,5,0.5,0.6
2026-04-23T2000,4097A,118.9646,28.9832,衢州市,衢州三中,,17,9,10,6,8,53,53,53,53,15,16,7,8,0.4,0.5
2026-04-23T2000,1611A,118.5818,24.9116,泉州市,涂山街,NA,NA,8,36,6,24,32,32,81,64,21,20,3,5,NA,0.8
2026-04-23T2000,1612A,118.597,24.8976,泉州市,津头埔,,13,6,38,3,22,40,40,87,70,15,17,2,4,0.7,0.5
2026-04-23T2000,1613A,118.6669,24.9422,泉州市,万安,,12,11,36,3,22,38,38,78,63,14,16,3,4,0.8,0.6
2026-04-23T2000,4105A,118.6355,24.9148,泉州市,霞新路6号,,12,7,31,3,22,38,38,79,63,17,21,/,/,0.8,0.6
2026-04-23T2000,2626A,88.8873,29.2723,日喀则市,日喀则监测站,,33,12,38,3,14,104,104,107,107,8,13,5,6,0.3,0.4
2026-04-23T2000,3726A,88.8775,29.2425,日喀则市,林业技术推广中心,,33,16,37,3,9,103,103,102,102,3,7,6,7,0.3,0.3
2026-04-23T2000,1659A,119.4711,35.421,日照市,监测站,,35,27,30,14,13,111,111,122,121,29,41,8,7,0.6,0.5
2026-04-23T2000,1660A,119.523,35.4216,日照市,市政府广场,颗粒物(PM10),63,68,33,21,12,73,73,122,116,67,30,12,6,0.7,0.6
2026-04-23T2000,1661A,119.5511,35.4113,日照市,港务局,颗粒物(PM10),55,56,42,15,13,78,78,123,122,67,40,9,5,0.6,0.5
2026-04-23T2000,3507A,119.5326,35.4627,日照市,职业技术学院,颗粒物(PM10),55,56,26,19,12,97,97,133,129,42,37,9,7,0.6,0.6
2026-04-23T2000,3604A,119.3267,35.1043,日照市,岚山环保分局,,38,27,48,10,16,119,119,119,119,20,36,10,24,0.7,1.7
2026-04-23T2000,1835A,111.1922,34.7752,三门峡市,市政府,,31,26,30,11,11,99,99,113,111,16,22,8,8,0.4,0.4
2026-04-23T2000,1836A,111.1588,34.794,三门峡市,开发区,,32,NA,30,22,16,102,102,116,115,14,16,10,10,0.5,0.5
2026-04-23T2000,3039A,111.1911,34.7829,三门峡市,三门峡市第一小学,,33,27,35,7,12,105,105,116,115,13,18,12,12,0.6,0.6
2026-04-23T2000,3598A,111.1031,34.719,三门峡市,富达温泉假日酒店,NA,NA,47,39,6,16,NA,NA,122,122,11,16,12,12,0.2,0.5
2026-04-23T2000,2324A,117.621,26.2626,三明市,三钢,,24,24,14,12,8,26,26,45,41,17,14,13,10,1.1,1.7
2026-04-23T2000,2325A,117.6352,26.2714,三明市,三明二中,,17,17,13,6,6,34,34,47,44,11,9,3,3,0.7,0.8
2026-04-23T2000,2326A,117.6028,26.2377,三明市,三元区政府,,20,20,12,7,6,26,26,47,41,13,8,10,5,0.8,0.7
2026-04-23T2000,1877A,109.4962,18.2682,三亚市,河西子站,,26,26,26,17,20,54,54,68,63,6,4,4,4,0.4,0.4
2026-04-23T2000,3540A,109.7348,18.3443,三亚市,君悦子站,,29,29,28,12,18,58,58,66,61,3,4,3,3,0.6,0.6
2026-04-23T2000,4135A,109.1714,18.3739,三亚市,城东小学站,,33,33,33,15,21,53,53,67,62,5,5,/,/,/,/
2026-04-23T2000,2624A,91.7592,29.234,山南市,山南监测站,,33,14,35,3,12,103,103,112,112,8,9,4,6,0.2,0.2
2026-04-23T2000,2625A,91.7701,29.2436,山南市,山南人民医院,,34,23,36,6,11,108,108,114,114,5,6,8,8,0.2,0.2
2026-04-23T2000,1674A,116.6795,23.3666,汕头市,金平子站,,28,27,25,19,18,20,20,60,45,29,13,10,5,0.9,0.7
2026-04-23T2000,1675A,116.7248,23.3632,汕头市,龙湖子站,,27,27,25,15,18,24,24,62,47,22,7,9,6,/,/
2026-04-23T2000,1676A,116.7257,23.2774,汕头市,濠江子站,,32,22,27,22,18,19,19,61,44,29,12,8,8,/,/
2026-04-23T2000,1677A,116.7518,23.4712,汕头市,澄海子站,,12,NA,27,8,17,29,29,56,42,16,12,8,7,0.8,0.6
2026-04-23T2000,1678A,116.6088,23.2539,汕头市,潮阳子站,,23,NA,25,16,18,33,33,67,50,12,5,6,6,0.7,0.5
2026-04-23T2000,3444A,116.4539,23.2684,汕头市,潮南峡山,NA,NA,NA,28,NA,19,33,33,60,47,9,6,8,7,0.7,0.7
2026-04-23T2000,3624A,116.4069,23.2533,汕头市,潮南子站,,18,16,29,12,19,24,24,57,37,16,6,5,5,/,/
2026-04-23T2000,1693A,115.3653,22.7751,汕尾市,市环保局,,12,11,23,3,14,38,38,73,63,9,5,4,5,0.8,0.7
2026-04-23T2000,1695A,115.362,22.7926,汕尾市,新城中学,NA,NA,NA,24,3,13,34,34,74,60,10,7,6,6,0.7,0.5
2026-04-23T2000,2645A,109.9155,33.8714,商洛市,监测站,,29,22,22,12,11,92,92,114,112,22,14,7,7,0.4,0.4
2026-04-23T2000,3045A,109.9647,33.8486,商洛市,商州区中学,NA,NA,33,29,NA,11,83,83,110,108,26,17,8,3,0.4,0.5
2026-04-23T2000,2408A,115.6701,34.4283,商丘市,环境监测站,NA,NA,31,36,14,21,101,101,111,110,NA,14,NA,3,0.3,0.3
2026-04-23T2000,2409A,115.6458,34.4047,商丘市,粮食局,,30,20,31,16,19,96,96,107,106,12,12,4,4,0.3,0.3
2026-04-23T2000,3171A,115.6069,34.4465,商丘市,梁园区档案局,,32,28,35,14,20,102,102,113,112,9,17,4,5,0.3,0.4
2026-04-23T2000,4119A,115.6701,34.3767,商丘市,北海东路185号,,31,16,32,11,19,97,97,108,108,11,12,5,5,0.4,0.4
2026-04-23T2000,4120A,115.6172,34.3704,商丘市,中山大街3号,,26,21,31,12,19,83,83,105,102,13,13,7,7,0.3,0.3
2026-04-23T2000,1141A,121.401,31.2382,上海市,普陀,,34,34,18,16,12,80,80,103,100,26,16,6,6,0.4,0.4
2026-04-23T2000,1142A,121.4774,31.2043,上海市,十五厂,,34,34,17,13,9,86,86,99,97,22,12,6,5,0.6,0.5
2026-04-23T2000,1143A,121.4673,31.3011,上海市,虹口,,36,36,18,16,9,68,68,98,93,32,13,5,4,0.7,0.6
2026-04-23T2000,1147A,121.4253,31.226,上海市,静安监测站,,32,32,18,13,9,87,87,103,100,25,18,8,8,0.6,0.6
2026-04-23T2000,1148A,121.7029,31.1905,上海市,浦东川沙,NA,NA,NA,17,NA,8,78,78,107,101,38,16,8,7,0.6,0.8
2026-04-23T2000,1149A,121.5339,31.229,上海市,浦东新区监测站,,34,34,16,16,9,84,84,95,94,25,16,6,6,0.5,0.4
2026-04-23T2000,1150A,121.5776,31.2038,上海市,浦东张江,,28,28,16,12,8,88,88,104,101,27,16,7,6,0.1,0.1
2026-04-23T2000,3265A,121.4242,31.3303,上海市,宝山庙行,NA,NA,38,18,14,10,68,68,96,92,NA,18,NA,7,NA,0.3
2026-04-23T2000,3266A,121.8789,31.4662,上海市,崇明上实东滩,,30,24,17,10,7,96,96,106,105,6,6,6,6,0.1,0.1
2026-04-23T2000,3268A,121.316,31.2839,上海市,嘉定南翔,,30,30,15,14,10,68,68,94,92,24,10,5,4,0.4,0.5
2026-04-23T2000,3269A,121.3357,30.7455,上海市,金山新城,,40,40,18,18,12,68,68,89,85,27,17,6,4,0.5,0.5
2026-04-23T2000,3270A,121.4996,31.0741,上海市,闵行浦江,,34,34,15,19,9,73,73,98,94,35,16,7,6,0.4,0.2
2026-04-23T2000,3271A,121.2886,31.1663,上海市,青浦徐泾,,35,35,16,14,9,65,65,101,96,39,13,6,5,0.4,0.4
2026-04-23T2000,3272A,121.2193,31.0382,上海市,松江图书馆,,39,39,18,14,10,79,79,97,96,18,8,8,7,0.6,0.5
2026-04-23T2000,3273A,121.3904,31.206,上海市,长宁仙霞,,38,38,18,20,11,70,70,96,91,33,16,6,6,0.3,0.3
2026-04-23T2000,3274A,121.7964,31.0507,上海市,浦东惠南,,28,28,16,9,8,79,79,103,96,35,21,6,6,0.5,0.5
2026-04-23T2000,3544A,121.4891,30.925,上海市,奉贤南桥新城,,37,37,19,13,10,76,76,96,93,33,17,5,3,0.4,0.2
2026-04-23T2000,4183A,121.417401,31.16637,上海市,冠生园路458号,,31,31,15,13,9,79,79,93,92,19,12,9,9,0.4,0.4
2026-04-23T2000,4205A,121.541914,31.268301,上海市,宁武路151号,,31,31,17,15,9,85,85,104,102,31,19,6,6,0.4,0.3
2026-04-23T2000,2382A,117.9758,28.4439,上饶市,市监测站,,24,24,27,9,12,60,60,67,66,7,10,4,11,/,/
2026-04-23T2000,2383A,117.9521,28.4637,上饶市,凤凰光学,,21,21,20,7,9,56,56,63,62,15,13,4,6,0.5,0.6
2026-04-23T2000,3685A,117.897,28.4316,上饶市,双创科技城,,22,22,24,7,12,60,60,67,66,11,9,6,11,0.5,0.6
2026-04-23T2000,4211A,118.190438,28.444845,上饶市,裕丰大道,,23,23,28,12,16,57,57,68,68,14,12,18,21,0.6,0.7
2026-04-23T2000,1669A,113.5821,24.7733,韶关市,市八中,,18,18,9,8,4,40,40,71,62,17,12,13,7,0.4,0.4
2026-04-23T2000,1671A,113.5916,24.7973,韶关市,园林处,,20,20,10,12,6,38,38,69,60,15,11,10,7,/,/
2026-04-23T2000,1673A,113.5971,24.6864,韶关市,曲江监测站,,21,21,11,10,4,33,33,70,62,15,15,9,9,0.6,0.6
2026-04-23T2000,2809A,113.6668,24.7756,韶关市,大学路288号,,21,21,9,11,4,40,40,66,60,14,12,4,7,/,/
