timepoint,stationcode,longitude,latitude,area,positionname,primarypollutant,aqi,pm10,pm10_24h,pm2_5,pm2_5_24h,o3,o3_24h,o3_8h,o3_8h_24h,no2,no2_24h,so2,so2_24h,co,co_24h
2025-05-13T0200,2566A,102.1879,31.914,阿坝藏族羌族自治州,州农科所,,23,18,35,10,11,72,,,,3,7,11,16,0.6,0.6
2025-05-13T0200,2568A,102.2502,31.8896,阿坝藏族羌族自治州,马师校,,36,27,22,25,16,72,,,,4,9,4,4,0.5,0.4
2025-05-13T0200,3994A,102.2165,31.9024,阿坝藏族羌族自治州,马尔康中学西区,,30,24,22,21,19,87,,,,2,6,4,4,0.4,0.4
2025-05-13T0200,2695A,80.292,41.1694,阿克苏地区,电视台,颗粒物(PM10),67,83,110,32,31,107,,,,8,20,4,6,0.4,0.4
2025-05-13T0200,2696A,80.2613,41.1551,阿克苏地区,艺术中心,颗粒物(PM10),70,89,128,30,29,99,,,,6,8,4,4,0.1,0.2
2025-05-13T0200,2204A,105.6467,38.8363,阿拉善盟,西城区西花园,细颗粒物(PM2.5),87,114,84,64,37,115,,,,8,13,5,6,0.6,0.6
2025-05-13T0200,2205A,105.6985,38.8411,阿拉善盟,蒙二幼,颗粒物(PM10),93,135,92,53,32,103,,,,6,8,8,8,0.3,0.4
2025-05-13T0200,2206A,105.724,38.8516,阿拉善盟,环保局新楼,颗粒物(PM10),91,132,82,53,32,117,,,,3,4,8,8,0.3,0.3
2025-05-13T0200,2708A,88.1264,47.8517,阿勒泰地区,市站,颗粒物(PM10),73,95,48,13,10,56,,,,4,5,1,2,0.3,0.5
2025-05-13T0200,2630A,80.1161,32.5,阿里地区,阿里监测站,,44,,6,3,5,140,,,,3,6,6,6,0.4,0.4
2025-05-13T0200,3192A,80.0903,32.5028,阿里地区,阿里藏医院,,47,13,23,3,6,150,,,,1,2,6,6,0.4,0.4
2025-05-13T0200,2642A,109.0318,32.6537,安康市,香溪洞,颗粒物(PM10),56,62,55,35,33,93,,,,11,9,10,10,0.4,0.4
2025-05-13T0200,2644A,109.0072,32.6975,安康市,汉滨区检察院,颗粒物(PM10),53,56,62,33,33,73,,,,11,12,10,19,0.5,0.5
2025-05-13T0200,4054A,109.0325,32.6913,安康市,市邮政管理局,颗粒物(PM10),55,60,66,34,36,62,,,,18,14,15,12,0.4,0.5
2025-05-13T0200,2291A,117.0809,30.5177,安庆市,环科院,,42,35,45,29,30,96,,,,26,18,4,4,0.4,0.4
2025-05-13T0200,2292A,117.0331,30.5119,安庆市,马山宾馆,,48,45,45,33,32,76,,,,27,26,7,6,0.5,0.5
2025-05-13T0200,2294A,116.9896,30.6145,安庆市,安庆大学,,48,,44,33,33,101,,,,26,18,7,6,0.2,0.2
2025-05-13T0200,3173A,117.0598,30.5351,安庆市,市人大,,40,38,57,28,28,94,,,,30,18,11,9,0.3,0.3
2025-05-13T0200,3122A,105.9606,26.2611,安顺市,伍家关,,39,16,22,11,15,124,,,,5,8,4,5,0.4,0.4
2025-05-13T0200,3123A,105.9408,26.2431,安顺市,凤凰山,,38,18,26,11,14,121,,,,4,9,7,8,0.4,0.4
2025-05-13T0200,3124A,105.9439,26.2564,安顺市,金钟山,,36,22,25,11,15,114,,,,5,7,5,6,0.2,0.2
2025-05-13T0200,3125A,105.8983,26.2481,安顺市,娄家坡,,38,27,26,16,15,121,,,,3,6,7,7,0.5,0.5
2025-05-13T0200,1818A,114.4839,36.0621,安阳市,棉研所,,,,,,,,,,,,,,,,
2025-05-13T0200,1819A,114.3551,36.1017,安阳市,红庙街,颗粒物(PM10),53,56,76,29,25,84,,,,8,11,6,8,0.4,0.6
2025-05-13T0200,1820A,114.361,36.0681,安阳市,银杏小区,颗粒物(PM10),63,75,78,44,39,85,,,,13,16,5,8,0.3,0.4
2025-05-13T0200,3141A,114.3922,36.0878,安阳市,信访局,颗粒物(PM10),71,91,94,37,28,96,,,,14,24,4,6,0.5,0.5
2025-05-13T0200,3669A,114.4705,36.0637,安阳市,左辅环卫站,颗粒物(PM10),59,68,73,35,30,97,,,,10,16,4,7,0.4,0.5
2025-05-13T0200,3703A,114.2917,36.0949,安阳市,安钢职工学校,颗粒物(PM10),69,88,90,47,31,87,,,,16,18,6,6,0.4,0.5
2025-05-13T0200,1748A,123.044,41.1196,鞍山市,深沟寺,臭氧1小时,67,64,46,42,30,173,,,,8,10,5,7,0.6,0.6
2025-05-13T0200,1749A,123.011,41.0931,鞍山市,太阳城,颗粒物(PM10),54,57,43,36,27,160,,,,7,8,8,8,0.7,0.6
2025-05-13T0200,1750A,123.0485,41.1442,鞍山市,太平,颗粒物(PM10),68,86,57,44,30,161,,,,7,11,8,9,0.6,0.7
2025-05-13T0200,1751A,122.9642,41.0971,鞍山市,铁西三道街,臭氧1小时,69,64,57,37,30,175,,,,9,15,4,5,0.6,0.6
2025-05-13T0200,1753A,123.022,41.0821,鞍山市,明达新区,臭氧1小时,75,56,43,31,23,180,,,,5,6,6,7,0.5,0.5
2025-05-13T0200,1754A,123.1289,41.0228,鞍山市,千山,,,,36,,18,,,144,,,9,,6,,0.6
2025-05-13T0200,4201A,122.9446,41.0826,鞍山市,兴盛南路290号,颗粒物(PM10),64,78,63,37,30,170,,,,9,14,6,7,0.6,0.6
2025-05-13T0200,2195A,107.4212,40.761,巴彦淖尔市,附二中,颗粒物(PM10),112,174,138,56,44,91,,,,7,11,8,8,0.3,0.4
2025-05-13T0200,2196A,107.37,40.7372,巴彦淖尔市,市环保大楼,颗粒物(PM10),120,189,134,84,54,87,,,,15,16,4,4,0.3,0.3
2025-05-13T0200,1956A,86.1472,41.7538,巴音郭楞蒙古自治州,孔雀公园,,30,21,63,17,14,95,,,,6,8,7,7,0.1,0.2
2025-05-13T0200,1957A,86.1972,41.7166,巴音郭楞蒙古自治州,棉纺厂,,41,41,94,8,10,90,,,,10,7,6,3,0.2,0.2
2025-05-13T0200,1958A,86.2357,41.7173,巴音郭楞蒙古自治州,经济开发区,,29,23,90,6,9,90,,,,5,4,9,8,0.3,0.1
2025-05-13T0200,2914A,106.7677,31.8794,巴中市,苏山坪,,39,33,46,20,26,124,,,,7,8,5,6,0.2,0.3
2025-05-13T0200,3181A,106.7768,31.8526,巴中市,市五中,"颗粒物(PM10),细颗粒物(PM2.5)",60,70,59,43,35,37,,,,32,18,6,7,0.6,0.6
2025-05-13T0200,3183A,106.7418,31.8654,巴中市,圣泉水务公司,,40,40,51,26,30,80,,,,18,20,7,8,0.4,0.4
2025-05-13T0200,3616A,106.7616,31.8344,巴中市,市中心医院,细颗粒物(PM2.5),97,96,62,72,40,20,,,,46,24,5,5,0.8,0.5
2025-05-13T0200,2235A,122.7911,45.6077,白城市,洮北区环保局,颗粒物(PM10),88,126,78,40,52,137,,,,8,16,5,7,0.4,0.6
2025-05-13T0200,2236A,122.8738,45.5725,白城市,市环保局,颗粒物(PM10),81,112,81,33,48,140,,,,5,14,3,3,0.5,0.6
2025-05-13T0200,2231A,126.4219,41.9171,白山市,喜丰,颗粒物(PM10),68,86,53,27,20,36,,,,46,22,11,9,0.7,0.7
2025-05-13T0200,2232A,126.4077,41.9419,白山市,环保局,细颗粒物(PM2.5),63,61,41,45,21,59,,,,14,16,8,11,0.7,0.7
2025-05-13T0200,2647A,104.1724,36.5446,白银市,第三小学,颗粒物(PM10),58,66,65,20,24,60,,,,22,27,18,48,0.6,0.5
2025-05-13T0200,2648A,104.1465,36.5482,白银市,动力公司,,50,50,47,20,19,64,,,,15,21,14,16,0.7,0.5
2025-05-13T0200,2512A,106.6103,23.9011,百色市,市监测站,,39,39,40,24,20,68,,,,22,16,12,10,0.7,0.6
2025-05-13T0200,2513A,106.6538,23.8859,百色市,市中心血站,颗粒物(PM10),54,57,51,25,28,77,,,,26,22,14,15,0.6,0.6
2025-05-13T0200,3406A,106.6085,23.8798,百色市,祈福高中,颗粒物(PM10),64,78,47,24,17,36,,,,48,21,9,11,0.5,0.5
2025-05-13T0200,2270A,117.396,32.939,蚌埠市,工人疗养院,颗粒物(PM10),55,60,55,26,21,120,,,,20,12,8,5,0.5,0.4
2025-05-13T0200,2271A,117.3605,32.9427,蚌埠市,百货大楼,颗粒物(PM10),55,60,53,26,21,128,,,,17,13,8,6,0.3,0.2
2025-05-13T0200,2273A,117.4185,32.8911,蚌埠市,蚌埠学院,,46,46,50,30,24,128,,,,12,17,5,5,0.5,0.6
2025-05-13T0200,2274A,117.3533,32.9673,蚌埠市,淮上区政府,颗粒物(PM10),54,58,50,33,25,141,,,,14,13,7,6,0.5,0.5
2025-05-13T0200,2275A,117.3145,32.8977,蚌埠市,高新区,颗粒物(PM10),51,51,50,31,23,124,,,,13,11,8,6,0.4,0.4
2025-05-13T0200,3715A,117.3092,32.9314,蚌埠市,蚌埠田家炳中学,颗粒物(PM10),55,59,56,34,23,120,,,,13,13,16,7,0.4,0.3
2025-05-13T0200,1585A,109.8756,40.6532,包头市,市环境监测站,,50,50,72,14,26,27,,,,48,39,8,15,0.4,0.7
2025-05-13T0200,1587A,109.9991,40.5842,包头市,包头八中,颗粒物(PM10),60,69,81,23,33,27,,,,52,36,10,14,0.5,0.7
2025-05-13T0200,1588A,109.8538,40.6821,包头市,青山宾馆,,41,41,78,22,29,32,,,,44,33,10,15,0.6,0.8
2025-05-13T0200,1589A,109.8642,40.6288,包头市,惠龙物流,颗粒物(PM10),53,56,70,22,22,31,,,,47,32,13,16,0.4,0.6
2025-05-13T0200,1590A,110.0377,40.5546,包头市,东河鸿龙湾,颗粒物(PM10),57,63,73,18,22,9,,,,61,31,16,12,0.7,0.7
2025-05-13T0200,3283A,109.9154,40.5685,包头市,滨河大厦,,49,49,57,15,18,2,,,,74,31,6,9,0.6,0.6
2025-05-13T0200,3419A,109.9447,40.6261,包头市,包头市委党校,,46,46,75,11,21,21,,,,56,31,7,15,0.4,0.7
2025-05-13T0200,3683A,109.8331,40.6576,包头市,昆区政府,,43,43,70,16,28,28,,,,50,36,9,15,0.6,0.9
2025-05-13T0200,1930A,107.185,34.3063,宝鸡市,庙沟村,,38,32,45,26,29,115,,,,7,11,8,8,0.6,0.6
2025-05-13T0200,1931A,107.0708,34.3017,宝鸡市,竹园沟,,45,45,51,28,31,116,,,,6,12,4,4,0.3,0.4
2025-05-13T0200,1932A,107.1906,34.3672,宝鸡市,三陆医院,颗粒物(PM10),105,159,72,28,28,79,,,,24,34,6,8,0.4,0.5
2025-05-13T0200,1933A,107.1431,34.3547,宝鸡市,监测站,颗粒物(PM10),51,51,60,30,28,85,,,,19,22,5,5,0.3,0.4
2025-05-13T0200,1934A,107.1186,34.3739,宝鸡市,技工学校,,40,40,61,28,34,104,,,,6,16,8,8,0.6,0.6
2025-05-13T0200,1935A,107.3906,34.3528,宝鸡市,陈仓区环保局家属楼,颗粒物(PM10),58,65,69,30,30,60,,,,27,29,8,12,0.5,0.5
2025-05-13T0200,1936A,107.2058,34.3497,宝鸡市,文理学院,颗粒物(PM10),52,53,60,31,31,97,,,,13,21,7,8,0.4,0.5
2025-05-13T0200,1937A,107.2386,34.3622,宝鸡市,三迪小学,"颗粒物(PM10),细颗粒物(PM2.5)",52,53,67,36,36,75,,,,17,26,6,13,0.4,0.4
2025-05-13T0200,1051A,115.493,38.8632,保定市,游泳馆,颗粒物(PM10),76,102,98,41,42,87,,,,16,27,4,4,0,0.2
2025-05-13T0200,1052A,115.5213,38.8959,保定市,华电二区,颗粒物(PM10),52,54,66,28,40,104,,,,10,24,2,4,0.4,0.5
2025-05-13T0200,1053A,115.4713,38.9108,保定市,接待中心,颗粒物(PM10),59,67,71,31,37,113,,,,12,25,3,6,0.2,0.3
2025-05-13T0200,1054A,115.4612,38.8416,保定市,地表水厂,颗粒物(PM10),64,78,91,23,31,105,,,,19,33,5,6,0.5,0.5
2025-05-13T0200,3581A,115.31981,38.95208,保定市,满城区生态环境分局,颗粒物(PM10),63,75,80,27,37,60,,,,24,23,7,9,0.4,0.5
2025-05-13T0200,3582A,115.47694,38.76408,保定市,清苑区第二中学,颗粒物(PM10),68,86,100,39,41,89,,,,12,22,7,9,0.3,0.4
2025-05-13T0200,3583A,115.62909,39.02311,保定市,徐水物探局,颗粒物(PM10),61,72,96,22,38,91,,,,15,27,4,3,0.5,0.6
2025-05-13T0200,4004A,115.4202,38.8656,保定市,双鹰农机,颗粒物(PM10),53,56,70,30,31,102,,,,11,25,3,3,0.3,0.4
2025-05-13T0200,4034A,115.5150,38.8590,保定市,植保所站,颗粒物(PM10),56,62,76,29,38,93,,,,13,23,3,2,0.5,0.6
2025-05-13T0200,2594A,99.1678,25.1081,保山市,市环境监测站,,38,30,43,26,32,51,,,,6,10,6,5,0.6,0.6
2025-05-13T0200,2595A,99.1711,25.1328,保山市,市环保局,,33,32,44,23,27,60,,,,4,7,6,6,0.4,0.4
2025-05-13T0200,1866A,109.2262,21.588,北海市,牛尾岭水库,,,,33,36,19,86,,,,,15,7,8,0.5,0.5
2025-05-13T0200,1867A,109.1436,21.4086,北海市,海滩公园,,43,34,42,12,17,137,,,,6,10,5,8,0.6,0.6
2025-05-13T0200,1868A,109.0981,21.4661,北海市,新市环保局,,40,33,40,14,22,126,,,,7,12,3,11,0.6,0.6
2025-05-13T0200,1869A,109.1778,21.5233,北海市,北海工业园,,40,35,41,20,25,125,,,,8,14,8,10,0.4,0.3
2025-05-13T0200,3400A,109.1911,21.4415,北海市,龙潭自来水厂,,42,29,38,24,25,133,,,,6,12,8,10,0.3,0.3
2025-05-13T0200,1001A,116.3621,39.8784,北京市,万寿西宫,细颗粒物(PM2.5),118,170,98,89,54,116,,,,34,39,4,5,1.0,0.7
2025-05-13T0200,1002A,116.2202,40.2915,北京市,定陵,,,,,,,,,,,,,,,,
2025-05-13T0200,1003A,116.4174,39.9289,北京市,东四,细颗粒物(PM2.5),128,170,113,97,63,124,,,,35,40,8,6,1.0,0.7
2025-05-13T0200,1004A,116.4072,39.8863,北京市,天坛,细颗粒物(PM2.5),109,135,92,82,52,45,,,,45,39,4,6,1.1,0.8
2025-05-13T0200,1005A,116.462,39.9365,北京市,农展馆,细颗粒物(PM2.5),128,167,89,97,58,99,,,,31,38,5,6,1.4,1
2025-05-13T0200,1006A,116.3392,39.9295,北京市,官园,颗粒物(PM10),125,199,100,94,54,96,,,,43,38,7,7,0.8,0.7
2025-05-13T0200,1007A,116.2878,39.9611,北京市,海淀万柳,细颗粒物(PM2.5),117,152,94,88,51,64,,,,47,39,6,7,0.7,0.5
2025-05-13T0200,1008A,116.6636,40.135,北京市,顺义新城,细颗粒物(PM2.5),100,134,96,75,50,148,,,,23,24,8,8,1.0,0.8
2025-05-13T0200,1009A,116.6275,40.3275,北京市,怀柔镇,细颗粒物(PM2.5),97,107,84,72,49,161,,,,13,18,5,5,0.8,0.7
2025-05-13T0200,1010A,116.2296,40.217,北京市,昌平镇,细颗粒物(PM2.5),102,114,84,76,47,119,,,,27,24,3,4,0.5,0.4
2025-05-13T0200,1011A,116.3966,39.9821,北京市,奥体中心,细颗粒物(PM2.5),139,184,97,106,49,96,,,,59,44,5,5,1.0,0.7
2025-05-13T0200,3281A,115.9718,40.4529,北京市,延庆夏都,细颗粒物(PM2.5),108,114,71,81,43,172,,,,16,19,5,4,0.8,0.7
2025-05-13T0200,3418A,116.8336,40.4095,北京市,密云新城,细颗粒物(PM2.5),84,115,80,62,44,135,,,,19,19,4,6,0.8,0.7
2025-05-13T0200,3671A,116.088,39.9726,北京市,门头沟三家店,,,,,,,,,,,,,,,,
2025-05-13T0200,3672A,116.1541,39.8204,北京市,丰台云岗,细颗粒物(PM2.5),100,148,96,75,51,106,,,,38,33,5,6,0.5,0.4
2025-05-13T0200,3673A,116.6804,39.9081,北京市,通州东关,细颗粒物(PM2.5),138,176,128,105,72,105,,,,36,35,9,13,1.0,0.8
2025-05-13T0200,3674A,115.9577,39.7603,北京市,房山燕山,颗粒物(PM10),73,96,82,50,48,118,,,,27,27,30,3,0.5,0.5
2025-05-13T0200,3675A,116.4672,39.7733,北京市,大兴旧宫,细颗粒物(PM2.5),128,174,103,97,54,49,,,,58,45,1,2,0.9,0.7
2025-05-13T0200,3694A,115.986,40.4563,北京市,延庆石河营,细颗粒物(PM2.5),109,121,73,82,44,155,,,,16,19,3,3,0.7,0.6
2025-05-13T0200,3695A,116.6151,40.3053,北京市,怀柔新城,细颗粒物(PM2.5),92,111,77,68,48,152,,,,13,16,3,4,1.0,0.8
2025-05-13T0200,3696A,116.2545,39.8768,北京市,丰台小屯,细颗粒物(PM2.5),123,157,98,93,75,87,,,,37,40,2,4,0.6,0.4
2025-05-13T0200,3697A,116.84,40.3844,北京市,密云镇,细颗粒物(PM2.5),94,127,79,70,46,123,,,,27,24,8,9,0.9,0.7
2025-05-13T0200,4182A,116.1942,39.9158,北京市,八角北路9号,细颗粒物(PM2.5),110,152,107,83,51,91,,,,49,44,2,4,0.5,0.4
2025-05-13T0200,4194A,117.0790,40.1518,北京市,洳河巡河路,细颗粒物(PM2.5),99,94,77,74,61,189,,,,14,19,8,8,0.7,0.7
2025-05-13T0200,1761A,123.8275,41.3064,本溪市,大峪,臭氧1小时,68,62,56,29,26,174,,,,6,9,8,8,0.6,0.6
2025-05-13T0200,1762A,123.7567,41.3325,本溪市,溪湖,颗粒物(PM10),63,75,63,41,33,164,,,,9,14,6,9,0.8,1
2025-05-13T0200,1763A,123.7169,41.3094,本溪市,彩屯,颗粒物(PM10),75,99,82,50,41,142,,,,31,29,22,22,2.4,2.3
2025-05-13T0200,1764A,123.7669,41.2864,本溪市,东明,臭氧1小时,67,60,62,23,22,173,,,,7,10,8,8,0.6,0.6
2025-05-13T0200,1765A,123.7992,41.2664,本溪市,新立屯,臭氧1小时,64,56,55,37,29,171,,,,7,9,7,7,0.5,0.5
2025-05-13T0200,1766A,123.8142,41.3472,本溪市,威宁,颗粒物(PM10),53,56,68,31,31,151,,,,4,9,5,6,0.6,0.7
2025-05-13T0200,2587A,105.2864,27.3125,毕节市,八中,,35,34,36,24,22,48,,,,18,13,6,8,0.5,0.5
2025-05-13T0200,2588A,105.31,27.2944,毕节市,师专,颗粒物(PM10),57,64,44,31,22,40,,,,25,16,3,6,0.6,0.5
2025-05-13T0200,4263A,105.3688,27.3598,毕节市,工业大道,,35,35,40,24,23,64,,,,15,16,8,9,0.6,0.6
2025-05-13T0200,1629A,118.0018,37.3617,滨州市,第二水厂,颗粒物(PM10),56,61,60,36,23,96,,,,24,22,11,10,0.4,0.3
2025-05-13T0200,1630A,117.9776,37.393,滨州市,北中新校,,48,48,49,19,22,112,,,,21,18,9,8,0.5,0.7
2025-05-13T0200,3514A,117.9378,37.3956,滨州市,中海酒店,颗粒物(PM10),59,68,60,34,29,145,,,,8,16,8,11,0.6,0.7
2025-05-13T0200,3515A,117.9378,37.3553,滨州市,开发区一中,颗粒物(PM10),53,56,61,24,21,127,,,,12,19,8,9,0.5,0.5
2025-05-13T0200,3516A,118.0917,37.694,滨州市,金海六路,颗粒物(PM10),51,51,62,19,20,96,,,,28,26,11,11,0.4,0.4
2025-05-13T0200,4028A,117.9956,37.3753,滨州市,滨州市西街道办事处,颗粒物(PM10),53,56,59,27,29,117,,,,17,17,9,8,0.4,0.4
2025-05-13T0200,2311A,115.8072,33.8399,亳州市,污水处理厂,,45,38,54,19,20,141,,,,10,10,4,4,0.3,0.3
2025-05-13T0200,2312A,115.7789,33.8518,亳州市,三国揽胜宫,,46,46,52,18,18,146,,,,9,8,6,5,0.4,0.4
2025-05-13T0200,3332A,115.7633,33.8034,亳州市,亳州学院,,41,38,47,18,19,129,,,,8,9,5,4,0.5,0.4
2025-05-13T0200,2693A,82.0485,44.8556,博尔塔拉蒙古自治州,市党校,,34,34,19,16,9,69,,,,12,9,7,6,0.4,0.4
2025-05-13T0200,2694A,82.0806,44.8969,博尔塔拉蒙古自治州,市环保局,,45,45,30,18,13,65,,,,17,11,1,2,1.1,0.4
2025-05-13T0200,1071A,116.8842,38.2991,沧州市,沧县城建局,颗粒物(PM10),51,52,58,18,22,116,,,,10,18,6,8,0.3,0.4
2025-05-13T0200,1072A,116.8584,38.3254,沧州市,电视转播站,颗粒物(PM10),53,55,69,29,32,115,,,,11,18,5,5,0.3,0.4
2025-05-13T0200,1073A,116.8709,38.3228,沧州市,市环保局,颗粒物(PM10),54,57,78,29,35,116,,,,10,18,2,11,0.3,0.4
2025-05-13T0200,3324A,116.8136,38.3004,沧州市,河北水利电力学院,颗粒物(PM10),53,56,73,18,28,126,,,,15,21,9,9,0.3,0.3
2025-05-13T0200,2622A,97.1806,31.1273,昌都市,昌都监测站,,34,,20,3,11,106,,,,1,6,3,3,0.3,0.5
2025-05-13T0200,3719A,97.1714,31.1406,昌都市,昌都会议中心,,35,6,31,3,20,109,,,,2,7,3,3,0.8,0.6
2025-05-13T0200,2690A,88.1236,43.8886,昌吉回族自治州,天山天池,,10,10,8,6,4,21,,,,5,5,6,6,0.6,0.6
2025-05-13T0200,2692A,87.2717,44.0297,昌吉回族自治州,新区政务中心,,30,,13,15,16,93,,,,7,5,8,9,0.3,0.3
2025-05-13T0200,3613A,87.3095,44.0142,昌吉回族自治州,亚心广场,,27,22,17,7,11,84,,,,13,10,7,8,0.2,0.2
2025-05-13T0200,1119A,125.3325,43.9166,长春市,食品厂,颗粒物(PM10),51,51,67,22,35,135,,,,8,20,7,7,0.5,0.5
2025-05-13T0200,1120A,125.2863,43.9027,长春市,客车厂,颗粒物(PM10),53,56,65,28,36,134,,,,12,21,7,8,0.4,0.5
2025-05-13T0200,1121A,125.2841,43.8463,长春市,邮电学院,,50,50,64,25,33,137,,,,11,17,8,8,0.5,0.5
2025-05-13T0200,1122A,125.3716,43.8772,长春市,劳动公园,,45,25,62,24,36,142,,,,6,14,9,9,0.5,0.6
2025-05-13T0200,1123A,125.3297,43.8805,长春市,园林处,,44,44,62,18,31,137,,,,7,14,9,9,0.5,0.6
2025-05-13T0200,1124A,125.4605,43.79,长春市,净月潭,,44,44,52,23,28,121,,,,5,15,8,8,0.5,0.5
2025-05-13T0200,1125A,125.7194,43.515,长春市,甩湾子,,,,,,,,,,,,,,,,
2025-05-13T0200,1126A,125.3863,43.8447,长春市,经开区环卫处,颗粒物(PM10),52,54,75,20,25,130,,,,8,18,8,8,0.4,0.4
2025-05-13T0200,1127A,125.245,43.7783,长春市,高新区管委会,,40,40,55,21,32,119,,,,13,15,7,8,0.4,0.4
2025-05-13T0200,1128A,125.1761,43.8325,长春市,岱山公园,细颗粒物(PM2.5),57,50,63,40,39,114,,,,19,26,7,8,0.4,0.5
2025-05-13T0200,1335A,113.0833,28.2325,长沙市,经开区环保局,,49,49,54,31,29,101,,,,22,24,9,8,0.5,0.5
2025-05-13T0200,1336A,112.8872,28.2189,长沙市,高开区环保局,颗粒物(PM10),55,59,54,38,32,112,,,,20,17,12,12,0.5,0.6
2025-05-13T0200,1337A,113.0792,28.2053,长沙市,马坡岭,"颗粒物(PM10),细颗粒物(PM2.5)",52,54,54,36,31,86,,,,24,21,7,7,0.6,0.6
2025-05-13T0200,1338A,112.9394,28.19,长沙市,湖南师范大学,细颗粒物(PM2.5),55,51,56,39,32,73,,,,29,22,6,7,0.4,0.4
2025-05-13T0200,1339A,113.0178,28.1322,长沙市,雨花区环保局,颗粒物(PM10),54,58,54,32,30,62,,,,45,29,15,9,0.8,0.9
2025-05-13T0200,1340A,112.9792,28.2597,长沙市,伍家岭,颗粒物(PM10),57,64,60,32,30,80,,,,25,28,9,6,0.5,0.5
2025-05-13T0200,1341A,113.0014,28.1944,长沙市,火车新站,"颗粒物(PM10),细颗粒物(PM2.5)",55,60,60,39,33,68,,,,39,34,15,11,0.6,0.6
2025-05-13T0200,1342A,112.9844,28.1178,长沙市,天心区环保局,细颗粒物(PM2.5),58,63,54,41,34,86,,,,31,25,13,9,0.7,0.6
2025-05-13T0200,1343A,112.8908,28.1308,长沙市,湖南中医药大学,细颗粒物(PM2.5),68,73,62,49,35,27,,,,79,34,9,8,0.6,0.6
2025-05-13T0200,1344A,112.9581,28.3611,长沙市,沙坪,细颗粒物(PM2.5),64,,36,46,34,77,,,,21,19,8,7,0.7,0.7
2025-05-13T0200,1727A,113.1147,36.1547,长治市,清华站,,,40,59,22,21,118,,,,14,23,,9,0.8,0.7
2025-05-13T0200,1730A,113.0886,36.2125,长治市,审计局,,44,44,44,19,17,129,,,,16,25,13,10,0.7,0.5
2025-05-13T0200,1731A,113.0844,36.1856,长治市,长治八中,,50,50,60,29,29,129,,,,14,25,14,11,0.9,0.7
2025-05-13T0200,2845A,113.1569,36.1911,长治市,德盛苑,,45,45,44,14,17,134,,,,10,13,9,7,0.5,0.5
2025-05-13T0200,3568A,113.06,36.0464,长治市,向阳小学,颗粒物(PM10),61,72,62,29,22,116,,,,22,19,14,10,0.5,0.4
2025-05-13T0200,3569A,112.8792,36.3144,长治市,屯留一中,细颗粒物(PM2.5),60,55,40,43,18,72,,,,22,28,10,11,0.7,0.5
2025-05-13T0200,4189A,113.1131,36.19948,长治市,英华南巷50号,颗粒物(PM10),52,53,50,22,24,124,,,,15,19,8,7,0.8,0.6
2025-05-13T0200,4190A,113.2367,36.3344,长治市,学府街1号,颗粒物(PM10),52,54,60,30,23,85,,,,38,39,5,9,0.6,0.8
2025-05-13T0200,1854A,111.6975,28.9703,常德市,市二中,细颗粒物(PM2.5),65,58,48,47,29,71,,,,22,12,8,8,0.7,0.5
2025-05-13T0200,1857A,111.7158,29.1456,常德市,白鹤山,,,,,,,,,,,,,,,,
2025-05-13T0200,3138A,111.7153,29.0289,常德市,武陵区永安,细颗粒物(PM2.5),74,60,61,54,37,82,,,,28,12,15,10,0.5,0.4
2025-05-13T0200,3139A,111.6892,28.9881,常德市,鼎城区玉霞,细颗粒物(PM2.5),64,66,51,46,30,50,,,,35,18,8,8,0.7,0.5
2025-05-13T0200,3140A,111.6625,29.0531,常德市,武陵区长庚,细颗粒物(PM2.5),59,54,53,42,31,77,,,,38,13,8,8,0.8,0.6
2025-05-13T0200,1196A,119.9633,31.762,常州市,市监测站,颗粒物(PM10),69,87,50,35,26,111,,,,25,23,13,14,0.8,0.7
2025-05-13T0200,1200A,119.9468,31.7069,常州市,武进监测站,颗粒物(PM10),55,60,46,32,23,120,,,,29,26,16,15,0.6,0.6
2025-05-13T0200,1201A,119.9255,31.9087,常州市,安家,颗粒物(PM10),60,70,56,31,29,123,,,,25,32,13,16,0.6,0.6
2025-05-13T0200,3002A,119.9805,31.8174,常州市,行政中心,颗粒物(PM10),59,68,40,36,24,115,,,,25,19,15,16,0.7,0.5
2025-05-13T0200,3003A,120.0522,31.7748,常州市,经开区,颗粒物(PM10),57,63,55,34,26,107,,,,34,26,19,11,2.2,0.8
2025-05-13T0200,3010A,119.9025,31.7964,常州市,钟楼,颗粒物(PM10),57,64,49,30,23,130,,,,23,20,9,11,0.5,0.6
2025-05-13T0200,3429A,119.8598,31.7066,常州市,武进经发区,颗粒物(PM10),65,80,51,46,29,113,,,,25,21,12,16,0.7,0.7
2025-05-13T0200,3430A,119.5826,31.7245,常州市,金坛城区,颗粒物(PM10),63,75,49,37,28,117,,,,27,19,12,13,0.9,0.6
2025-05-13T0200,2220A,120.4318,41.5881,朝阳市,西梁,细颗粒物(PM2.5),69,55,71,50,40,151,,,,14,22,11,10,0.7,0.7
2025-05-13T0200,2221A,120.4521,41.5646,朝阳市,河畔小区,细颗粒物(PM2.5),69,60,68,50,39,161,,,,11,16,12,11,0.5,0.6
2025-05-13T0200,2222A,120.4176,41.5648,朝阳市,八里堡,细颗粒物(PM2.5),62,59,82,44,40,140,,,,15,21,7,10,0.5,0.6
2025-05-13T0200,2223A,120.3806,41.5969,朝阳市,农业园区,细颗粒物(PM2.5),77,63,81,56,46,140,,,,15,18,10,12,0.6,0.9
2025-05-13T0200,1705A,116.6367,23.6719,潮州市,西园路,,32,31,31,22,17,77,,,,14,10,3,4,0.3,0.2
2025-05-13T0200,3026A,116.6183,23.6608,潮州市,市政府,细颗粒物(PM2.5),69,54,37,50,19,48,,,,40,10,35,7,0.8,0.5
2025-05-13T0200,4036A,116.6461,23.6761,潮州市,金山,,27,27,32,18,18,77,,,,12,10,6,7,0.5,0.5
2025-05-13T0200,2472A,113.0073,25.9061,郴州市,马头岭,,32,32,38,14,14,90,,,,11,15,8,9,0.2,0.3
2025-05-13T0200,2473A,113.0116,25.8226,郴州市,市职中,,33,33,39,22,28,65,,,,15,18,3,5,0.5,0.5
2025-05-13T0200,2475A,113.0383,25.8071,郴州市,市审计局,,36,29,34,14,23,114,,,,11,17,8,7,0.5,0.5
2025-05-13T0200,2476A,113.0348,25.7759,郴州市,市环保局,,,29,41,21,24,,,,,9,16,4,4,0.4,0.4
2025-05-13T0200,4252A,113.0138,25.8011,郴州市,好美居路49号,,32,22,36,22,28,98,,,,13,18,5,5,0.4,0.4
2025-05-13T0200,1431A,103.9728,30.7236,成都市,金泉两河,颗粒物(PM10),56,62,82,25,40,107,,,,7,25,2,6,0.8,0.9
2025-05-13T0200,1432A,104.176,30.6872,成都市,十里店,颗粒物(PM10),64,78,74,39,41,140,,,,6,24,4,7,0.5,0.6
2025-05-13T0200,1433A,104.079,30.5706,成都市,三瓦窑,颗粒物(PM10),60,70,81,41,49,146,,,,10,41,4,6,0.7,0.8
2025-05-13T0200,1434A,104.1114,30.63,成都市,沙河铺,颗粒物(PM10),54,58,66,34,38,131,,,,11,27,7,8,0.6,0.7
2025-05-13T0200,1437A,104.0786,30.6531,成都市,君平街,细颗粒物(PM2.5),60,61,86,43,55,108,,,,10,34,6,10,0.5,0.7
2025-05-13T0200,1438A,103.613,31.0283,成都市,灵岩寺,,,,,,,,,,,,,,,,
2025-05-13T0200,2880A,104.0239,30.65639,成都市,大石西路,细颗粒物(PM2.5),72,62,83,52,52,132,,,,13,35,4,7,0.5,0.7
2025-05-13T0200,3136A,104.2725,30.5589,成都市,龙泉驿区区政府,颗粒物(PM10),56,61,53,19,28,139,,,,18,24,5,5,0.4,0.5
2025-05-13T0200,3357A,104.0106,30.6931,成都市,金博路,细颗粒物(PM2.5),64,54,75,46,42,106,,,,11,33,7,10,0.4,0.6
2025-05-13T0200,3359A,104.0578,30.5225,成都市,华阳,细颗粒物(PM2.5),58,58,78,41,57,126,,,,13,32,6,8,0.6,0.8
2025-05-13T0200,3488A,104.3853,30.7453,成都市,青白江技师分院,细颗粒物(PM2.5),74,85,62,54,37,153,,,,10,31,5,6,0.4,0.4
2025-05-13T0200,3489A,104.0789,30.4072,成都市,科学城,颗粒物(PM10),53,56,74,30,53,154,,,,10,22,5,6,0.5,0.6
2025-05-13T0200,4011A,103.8506,30.6947,成都市,光华大道三段,细颗粒物(PM2.5),67,76,77,48,44,167,,,,10,20,4,6,0.6,0.7
2025-05-13T0200,4224A,104.2433,30.5353,成都市,鲸龙路1057号,颗粒物(PM10),55,60,65,26,39,134,,,,11,30,5,7,0.6,0.7
2025-05-13T0200,1062A,117.9531,40.9081,承德市,铁路,细颗粒物(PM2.5),59,66,55,42,25,119,,,,18,23,3,5,0.7,0.5
2025-05-13T0200,1063A,117.9392,40.9763,承德市,中国银行,细颗粒物(PM2.5),63,67,51,45,23,70,,,,24,15,1,4,0.8,0.5
2025-05-13T0200,1064A,117.9503,40.928,承德市,开发区,细颗粒物(PM2.5),60,61,52,43,26,109,,,,24,19,5,7,0.8,0.6
2025-05-13T0200,1065A,117.8051,40.9655,承德市,文化中心,颗粒物(PM10),71,92,63,44,29,96,,,,27,22,1,4,0.6,0.5
2025-05-13T0200,1066A,117.9268,41.0026,承德市,离宫,细颗粒物(PM2.5),90,81,56,67,37,79,,,,21,16,3,4,0.6,0.4
2025-05-13T0200,2314A,117.47,30.6618,池州市,池州学院,,31,31,41,21,26,97,,,,11,11,6,7,0.7,0.5
2025-05-13T0200,3237A,117.4918,30.6617,池州市,展览馆,,31,31,41,20,25,58,,,,18,11,5,7,0.8,0.5
2025-05-13T0200,3333A,117.5627,30.695,池州市,第八中学,,35,35,41,24,26,82,,,,18,13,6,7,0.5,0.4
2025-05-13T0200,3334A,117.5038,30.6243,池州市,第十二中学,,38,38,42,26,25,76,,,,16,17,6,6,1.0,0.6
2025-05-13T0200,1744A,118.9233,42.2816,赤峰市,松山一中,臭氧1小时,60,48,49,18,12,168,,,,14,28,12,10,0.8,0.6
2025-05-13T0200,1745A,118.9576,42.2728,赤峰市,哈达街,,50,44,49,24,15,157,,,,15,27,11,11,0.8,0.6
2025-05-13T0200,1746A,118.8788,42.2554,赤峰市,天义路,臭氧1小时,83,36,31,33,21,186,,,,11,15,11,9,0.8,0.5
2025-05-13T0200,3058A,119.2658,42.0353,赤峰市,银河街,颗粒物(PM10),73,96,82,51,33,144,,,,15,16,19,21,1.1,0.8
2025-05-13T0200,3286A,118.9359,42.3147,赤峰市,桥北物流园区,臭氧1小时,60,57,41,33,27,168,,,,16,30,14,10,0.8,0.5
2025-05-13T0200,2521A,107.3476,22.4136,崇左市,市环保局江州分局,,49,49,36,27,18,59,,,,24,13,6,7,0.4,0.3
2025-05-13T0200,4256A,107.3750,22.3736,崇左市,石景林东路7号,,33,33,31,20,17,73,,,,22,12,5,5,0.5,0.4
2025-05-13T0200,2298A,118.3093,32.3153,滁州市,老年大学,细颗粒物(PM2.5),57,60,52,40,31,97,,,,20,16,3,4,0.4,0.3
2025-05-13T0200,2299A,118.3244,32.2786,滁州市,人大宾馆,细颗粒物(PM2.5),63,58,55,45,36,48,,,,36,22,9,10,0.4,0.3
2025-05-13T0200,3207A,118.3118,32.3038,滁州市,市政府原办公楼,细颗粒物(PM2.5),58,54,43,41,32,91,,,,20,13,7,6,0.2,0.2
2025-05-13T0200,3331A,118.3267,32.2634,滁州市,图书馆,细颗粒物(PM2.5),63,62,53,45,35,67,,,,24,14,9,10,0.4,0.4
2025-05-13T0200,2605A,101.5482,25.0441,楚雄彝族自治州,州环境监测站,,32,21,25,19,21,101,,,,6,15,6,7,0.5,0.5
2025-05-13T0200,2606A,101.538,25.0492,楚雄彝族自治州,市经济开发区,,30,24,24,20,19,95,,,,7,14,6,7,0.6,0.6
2025-05-13T0200,2548A,107.5277,31.2827,达州市,达州职业技术学院,细颗粒物(PM2.5),85,89,75,63,44,23,,,,33,26,7,7,0.9,0.8
2025-05-13T0200,2549A,107.5086,31.2186,达州市,市环境监测站,细颗粒物(PM2.5),89,93,69,66,36,27,,,,44,34,9,6,0.6,0.4
2025-05-13T0200,2550A,107.4988,31.2132,达州市,凤凰小区,细颗粒物(PM2.5),98,92,69,73,38,29,,,,44,32,12,9,0.7,0.5
2025-05-13T0200,2551A,107.5082,31.1986,达州市,达县机关宾馆,细颗粒物(PM2.5),79,85,68,58,35,6,,,,64,40,8,7,0.5,0.4
2025-05-13T0200,2552A,107.4644,31.2124,达州市,市政中心,细颗粒物(PM2.5),94,99,73,70,36,16,,,,48,34,6,3,0.7,0.5
2025-05-13T0200,2614A,100.1542,25.7054,大理白族自治州,大理市环境监测站,,32,27,25,17,20,100,,,,6,11,6,7,0.4,0.3
2025-05-13T0200,2615A,100.2171,25.5811,大理白族自治州,大理古城,,26,19,25,18,19,82,,,,9,12,8,8,0.7,0.7
2025-05-13T0200,1109A,121.612,38.9741,大连市,甘井子,颗粒物(PM10),65,80,67,34,35,130,,,,30,27,13,11,0.6,0.5
2025-05-13T0200,1110A,121.565,38.9511,大连市,周水子,颗粒物(PM10),70,90,77,36,39,145,,,,13,22,6,7,0.7,0.5
2025-05-13T0200,1111A,121.5637,38.8845,大连市,星海三站,细颗粒物(PM2.5),74,84,61,54,42,84,,,,13,13,3,4,0.5,0.5
2025-05-13T0200,1112A,121.6302,38.9117,大连市,青泥洼桥,颗粒物(PM10),65,80,65,38,39,135,,,,8,14,6,7,0.6,0.6
2025-05-13T0200,1113A,121.6251,38.8638,大连市,傅家庄,颗粒物(PM10),67,84,63,40,39,136,,,,16,18,7,6,0.3,0.3
2025-05-13T0200,1114A,121.5213,38.8661,大连市,七贤岭,颗粒物(PM10),74,98,70,46,40,109,,,,13,17,6,6,0.6,0.6
2025-05-13T0200,1115A,121.2529,38.8061,大连市,旅顺,颗粒物(PM10),70,89,64,39,40,129,,,,15,20,5,4,0.4,0.4
2025-05-13T0200,1116A,121.7485,39.1311,大连市,金州,颗粒物(PM10),70,89,76,35,37,144,,,,12,19,5,7,0.8,0.4
2025-05-13T0200,1117A,121.7811,39.0496,大连市,开发区,颗粒物(PM10),61,72,63,34,39,136,,,,14,28,3,5,0.6,0.5
2025-05-13T0200,1118A,121.9762,39.0631,大连市,双D港,颗粒物(PM10),51,52,50,30,30,137,,,,6,10,7,8,0.4,0.4
2025-05-13T0200,1789A,124.81117,46.03138,大庆市,大同区,细颗粒物(PM2.5),67,75,83,48,50,108,,,,9,14,7,7,0.8,0.9
2025-05-13T0200,1790A,125.129,46.533,大庆市,龙凤区,细颗粒物(PM2.5),62,56,67,44,42,87,,,,13,15,6,8,0.7,0.6
2025-05-13T0200,1791A,124.902,46.408,大庆市,红岗区,细颗粒物(PM2.5),63,63,61,45,37,80,,,,13,13,8,8,0.6,0.6
2025-05-13T0200,1792A,125.153,46.586,大庆市,萨尔图区,颗粒物(PM10),63,75,80,37,45,83,,,,14,17,8,9,0.6,0.6
2025-05-13T0200,1793A,124.9042,46.6215,大庆市,让胡路区,细颗粒物(PM2.5),67,55,66,48,49,78,,,,11,15,8,8,0.5,0.5
2025-05-13T0200,3481A,125.141,46.634,大庆市,萨区政府监测点,颗粒物(PM10),59,68,74,29,38,89,,,,15,16,8,8,0.7,0.6
2025-05-13T0200,1721A,113.3819,40.1097,大同市,果树场,,,,,,,,,,,,,,,,
2025-05-13T0200,1723A,113.2994,40.0758,大同市,云冈宾馆,颗粒物(PM10),77,104,70,19,17,64,,,,22,26,14,11,0.4,0.4
2025-05-13T0200,1724A,113.3444,40.0917,大同市,大同大学,颗粒物(PM10),73,96,68,36,22,43,,,,41,27,10,7,0.5,0.5
2025-05-13T0200,1725A,113.2661,40.1269,大同市,安家小村,颗粒物(PM10),59,68,76,28,40,58,,,,31,28,8,8,1.1,0.8
2025-05-13T0200,1726A,113.2711,40.0844,大同市,教育学院,颗粒物(PM10),76,101,79,24,22,55,,,,23,28,13,9,0.3,0.7
2025-05-13T0200,3282A,113.3397,40.0597,大同市,大同市卫生学校,颗粒物(PM10),71,91,71,27,24,54,,,,22,25,8,10,0.5,0.6
2025-05-13T0200,3565A,113.1367,40.1122,大同市,云冈站,颗粒物(PM10),76,102,64,32,21,35,,,,22,17,11,9,0.5,0.4
2025-05-13T0200,3566A,113.1186,40.2556,大同市,图书馆,颗粒物(PM10),68,86,56,27,19,58,,,,11,10,6,7,0.4,0.4
2025-05-13T0200,3567A,113.5931,40.0461,大同市,区一中,颗粒物(PM10),73,95,70,36,18,37,,,,24,23,12,16,0.5,0.4
2025-05-13T0200,4199A,113.2798,40.0997,大同市,魏都大道141号,颗粒物(PM10),68,86,82,18,19,67,,,,24,26,8,8,0.4,0.9
2025-05-13T0200,2269A,124.1069,50.4097,大兴安岭地区,科技局,"颗粒物(PM10),细颗粒物(PM2.5)",70,90,109,51,58,61,,,,10,11,6,6,0.5,0.5
2025-05-13T0200,3663A,124.1164,50.4278,大兴安岭地区,红旗社区,细颗粒物(PM2.5),74,63,83,54,56,39,,,,15,16,2,3,0.6,0.6
2025-05-13T0200,1600A,124.3303,40.0625,丹东市,江湾东路,颗粒物(PM10),52,54,55,33,35,103,,,,16,13,9,8,0.7,0.7
2025-05-13T0200,1601A,124.4256,40.1503,丹东市,临江后街,颗粒物(PM10),61,72,60,40,29,73,,,,15,13,7,7,0.9,0.8
2025-05-13T0200,1602A,124.3933,40.1461,丹东市,元宝山,颗粒物(PM10),59,68,51,39,31,102,,,,18,15,8,8,0.8,0.6
2025-05-13T0200,1603A,124.3633,40.1092,丹东市,民主桥,颗粒物(PM10),70,89,66,26,29,69,,,,23,19,6,7,0.8,0.8
2025-05-13T0200,3541A,109.5726,19.5167,儋州市,第一中学子站,,31,31,38,13,20,80,,,,3,5,4,4,0.8,0.9
2025-05-13T0200,3542A,109.5567,19.5187,儋州市,东坡学校子站,,38,38,40,12,18,86,,,,4,6,6,6,0.6,0.6
2025-05-13T0200,2616A,98.5842,24.428,德宏傣族景颇族自治州,德宏州监测站,,40,40,49,25,35,25,,,,9,13,8,8,0.8,0.8
2025-05-13T0200,3677A,98.5881,24.4368,德宏傣族景颇族自治州,芒市人民政府综合楼,,48,48,65,16,33,36,,,,11,13,5,6,0.5,0.6
2025-05-13T0200,1901A,104.4239,31.1208,德阳市,东山公园,,,,81,,55,,,139,,,19,,7,,0.8
2025-05-13T0200,1902A,104.3826,31.1317,德阳市,西小区,颗粒物(PM10),66,82,95,45,66,124,,,,10,32,4,9,1.0,1.2
2025-05-13T0200,1904A,104.3553,31.1091,德阳市,耐火材料厂,颗粒物(PM10),55,59,91,38,61,126,,,,9,26,5,9,0.5,0.6
2025-05-13T0200,3639A,104.4019,31.1244,德阳市,市教育局,颗粒物(PM10),63,75,80,35,61,131,,,,9,30,5,9,0.6,0.7
2025-05-13T0200,1622A,116.3032,37.4674,德州市,儿童乐园,颗粒物(PM10),74,97,81,24,27,130,,,,12,18,8,10,0.6,0.6
2025-05-13T0200,1624A,116.2991,37.4451,德州市,监理站,颗粒物(PM10),63,75,72,22,25,129,,,,10,15,11,12,0.7,0.6
2025-05-13T0200,3066A,116.2721,37.4379,德州市,九衢泉纯净水厂,颗粒物(PM10),60,70,71,27,30,126,,,,13,19,8,10,0.5,0.5
2025-05-13T0200,3371A,116.3728,37.4403,德州市,开发区人民医院,颗粒物(PM10),59,68,80,22,25,107,,,,14,16,8,9,0.8,0.8
2025-05-13T0200,3372A,116.3572,37.4094,德州市,太阳城中学,颗粒物(PM10),57,63,80,27,29,129,,,,11,16,8,8,0.5,0.5
2025-05-13T0200,3511A,116.5652,37.3319,德州市,陵城艺术中心,颗粒物(PM10),69,88,84,24,24,134,,,,9,16,6,8,0.4,0.4
2025-05-13T0200,2621A,99.7056,27.8317,迪庆藏族自治州,迪庆州站,,36,18,23,14,15,113,,,,8,10,5,5,0.3,0.4
2025-05-13T0200,3180A,99.7136,27.8094,迪庆藏族自治州,质量技术监督局,,41,13,20,3,7,129,,,,6,10,5,4,0.5,0.5
2025-05-13T0200,4257A,104.6092,35.5962,定西市,将台街,颗粒物(PM10),68,86,77,29,24,78,,,,18,25,5,5,0.2,0.2
2025-05-13T0200,4309A,104.6159,35.5701,定西市,正龙路62号,,,55,56,29,22,94,,,,8,9,7,7,,0.3
2025-05-13T0200,1389A,113.7547,23.0494,东莞市,莞城梨川,,43,43,37,24,28,134,,,,17,24,6,7,0.6,0.6
2025-05-13T0200,1390A,113.7944,23.0128,东莞市,东城石井,,42,42,38,20,23,94,,,,22,25,5,6,0.7,0.6
2025-05-13T0200,1391A,113.7383,22.9658,东莞市,南城西平,,46,46,43,28,22,110,,,,34,37,3,5,0.5,0.5
2025-05-13T0200,3319A,113.7338,23.0381,东莞市,万江金泰,,46,36,37,21,22,147,,,,12,20,6,7,0.7,0.7
2025-05-13T0200,3626A,113.7533,23.0202,东莞市,南城元岭,,45,36,39,20,23,143,,,,19,27,7,8,0.5,0.5
2025-05-13T0200,3627A,113.7875,23.0457,东莞市,东城主山,,46,46,44,25,22,109,,,,30,27,6,6,0.4,0.3
2025-05-13T0200,1666A,118.6614,37.4309,东营市,市环保局,颗粒物(PM10),52,53,68,19,29,87,,,,26,27,6,11,0.5,0.7
2025-05-13T0200,3036A,118.6904,37.4338,东营市,开发区管委会,颗粒物(PM10),62,74,80,19,26,95,,,,28,28,7,11,0.4,0.6
2025-05-13T0200,3365A,118.5719,37.565,东营市,垦利区民丰路,颗粒物(PM10),57,63,65,17,25,129,,,,21,27,7,9,0.2,0.3
2025-05-13T0200,3498A,118.5055,37.8612,东营市,河口城区,颗粒物(PM10),57,63,68,17,25,84,,,,36,28,11,12,0.9,0.8
2025-05-13T0200,3646A,118.4978,37.4623,东营市,胜利站,颗粒物(PM10),52,54,71,17,29,122,,,,18,31,11,12,0.8,0.8
2025-05-13T0200,3734A,118.35,37.26,东营市,理想之城,,,53,68,24,32,,,,,35,36,8,12,0.6,0.8
2025-05-13T0200,1591A,110.0023,39.8129,鄂尔多斯市,综合楼,颗粒物(PM10),194,337,140,100,41,103,,,,6,18,6,8,0.1,0.2
2025-05-13T0200,1592A,109.9486,39.8261,鄂尔多斯市,巴音孟克林场办事处,颗粒物(PM10),179,307,125,97,36,101,,,,7,15,6,7,0.3,0.3
2025-05-13T0200,1593A,109.7736,39.5986,鄂尔多斯市,康泽苑,颗粒物(PM10),146,241,112,85,33,82,,,,7,11,9,8,0.1,0.2
2025-05-13T0200,1594A,109.8119,39.5989,鄂尔多斯市,华泰汽车城,细颗粒物(PM2.5),144,222,117,110,40,66,,,,15,18,4,5,0.1,0.2
2025-05-13T0200,1595A,109.9734,39.7884,鄂尔多斯市,奥林花园,颗粒物(PM10),272,400,147,117,45,104,,,,7,29,3,5,0.3,0.4
2025-05-13T0200,2436A,114.8938,30.3994,鄂州市,市政府,细颗粒物(PM2.5),60,56,57,43,37,127,,,,18,28,9,11,0.8,0.8
2025-05-13T0200,2437A,114.8989,30.3714,鄂州市,赵家坝,细颗粒物(PM2.5),55,58,49,39,28,109,,,,15,21,6,7,0.7,0.7
2025-05-13T0200,3654A,114.8094,30.4089,鄂州市,精准医疗中心,细颗粒物(PM2.5),78,85,57,57,34,90,,,,25,25,44,19,2.2,1
2025-05-13T0200,2454A,109.4978,30.2981,恩施土家族苗族自治州,湖北民院,颗粒物(PM10),51,52,45,29,23,49,,,,15,9,9,7,0.4,0.4
2025-05-13T0200,2455A,109.4707,30.2798,恩施土家族苗族自治州,州电力总公司,细颗粒物(PM2.5),55,56,41,39,25,17,,,,32,18,8,8,0.4,0.3
2025-05-13T0200,3549A,109.5061,30.3772,恩施土家族苗族自治州,龙凤新区,,40,40,39,25,22,76,,,,7,8,5,6,0.6,0.5
2025-05-13T0200,2499A,108.3411,21.6158,防城港市,沙万,,48,43,47,33,22,61,,,,22,15,18,12,0.9,0.6
2025-05-13T0200,2500A,108.3514,21.7731,防城港市,防城档案局,,43,43,57,18,22,46,,,,28,21,2,3,0.5,0.5
2025-05-13T0200,2501A,108.3506,21.6414,防城港市,大海花园,,36,36,50,16,18,80,,,,18,17,14,8,0.5,0.6
2025-05-13T0200,1371A,113.1294,23.0067,佛山市,湾梁,,39,39,53,23,25,106,,,,26,40,8,9,0.6,0.7
2025-05-13T0200,1372A,113.1083,23.0478,佛山市,华材职中,,34,31,61,23,31,107,,,,23,48,6,7,0.4,0.6
2025-05-13T0200,1373A,113.144,23.0453,佛山市,南海气象局,,38,32,52,26,25,75,,,,35,44,3,3,0.5,0.6
2025-05-13T0200,1374A,113.2881,22.8094,佛山市,顺德苏岗,,40,40,43,19,23,102,,,,19,33,6,7,0.5,0.5
2025-05-13T0200,1376A,112.8383,22.8678,佛山市,高明孔堂,,35,35,53,16,21,101,,,,16,27,5,10,0.5,0.5
2025-05-13T0200,1377A,112.8836,23.1588,佛山市,三水监测站,颗粒物(PM10),57,63,62,17,30,55,,,,55,61,5,7,0.5,0.6
2025-05-13T0200,1378A,112.867,23.185,佛山市,三水云东海,颗粒物(PM10),53,55,54,28,31,76,,,,52,49,3,4,0.6,0.6
2025-05-13T0200,3625A,113.2544,22.7642,佛山市,容桂街道办,,35,29,45,22,27,111,,,,24,43,6,8,0.7,0.7
2025-05-13T0200,1280A,119.3903,26.0543,福州市,鼓山,,,,38,,14,,,123,,,5,,1,,0.3
2025-05-13T0200,1282A,119.2681,26.0504,福州市,师大,,32,31,32,22,20,102,,,,15,17,4,4,0.3,0.3
2025-05-13T0200,1283A,119.2984,26.1028,福州市,五四北路,,33,33,29,23,20,96,,,,16,13,4,4,0.4,0.4
2025-05-13T0200,1284A,119.2648,26.0768,福州市,杨桥西路,,37,37,40,23,22,92,,,,14,12,4,4,0.3,0.4
2025-05-13T0200,1285A,119.317,26.0746,福州市,紫阳,,38,30,36,22,20,119,,,,13,14,6,6,0.4,0.4
2025-05-13T0200,3048A,119.5799,26.0936,福州市,九龙,,35,21,25,14,15,112,,,,6,8,5,4,0.3,0.3
2025-05-13T0200,3526A,119.5189,25.9664,福州市,吴航,,45,27,31,17,19,142,,,,7,11,4,5,0.2,0.3
2025-05-13T0200,1755A,123.7977,41.8491,抚顺市,望花区,细颗粒物(PM2.5),60,54,76,43,41,155,,,,21,21,35,17,0.5,0.7
2025-05-13T0200,1756A,123.9161,41.8822,抚顺市,顺城区,颗粒物(PM10),58,66,66,38,34,163,,,,11,20,27,12,1.1,0.8
2025-05-13T0200,1757A,124.0436,41.8611,抚顺市,东洲区,,49,35,54,31,29,156,,,,11,12,13,8,0.5,0.5
2025-05-13T0200,1758A,123.9247,41.8642,抚顺市,新抚区,颗粒物(PM10),60,70,77,31,29,152,,,,8,16,24,12,1.1,0.8
2025-05-13T0200,1759A,124.0972,41.8961,抚顺市,大伙房水库,臭氧1小时,57,42,48,35,31,165,,,,3,6,8,9,0.5,0.6
2025-05-13T0200,1760A,123.7086,41.8391,抚顺市,沈抚新城,臭氧1小时,60,48,78,28,31,168,,,,8,15,7,9,0.6,0.7
2025-05-13T0200,2376A,116.2127,28.0814,抚州市,桐源党溪,,40,40,35,17,19,42,,,,4,3,5,6,0.4,0.3
2025-05-13T0200,2377A,116.3544,27.9831,抚州市,市站,,35,35,35,24,20,66,,,,14,13,2,2,0.2,0.3
2025-05-13T0200,2378A,116.3565,27.963,抚州市,血防站,,47,47,40,28,21,52,,,,27,10,2,2,0.5,0.4
2025-05-13T0200,2379A,116.3564,28.0007,抚州市,采茶剧团,,42,41,36,29,20,58,,,,12,8,2,2,1.2,1.1
2025-05-13T0200,2380A,116.385,27.9647,抚州市,医学分院,,44,44,35,23,18,64,,,,14,9,7,5,1.2,1
2025-05-13T0200,2207A,121.6094,41.998,阜新市,工业园区,颗粒物(PM10),54,57,97,29,38,147,,,,11,17,15,19,0.6,0.7
2025-05-13T0200,2208A,121.6697,42.0279,阜新市,长青街,颗粒物(PM10),53,56,84,29,31,135,,,,15,21,14,19,0.6,0.7
2025-05-13T0200,2209A,121.6673,42.0705,阜新市,农业园区,颗粒物(PM10),63,75,96,41,49,150,,,,11,14,12,13,0.7,0.8
2025-05-13T0200,2210A,121.6717,42.0224,阜新市,东苑,细颗粒物(PM2.5),54,49,101,38,45,136,,,,18,19,13,19,0.6,0.7
2025-05-13T0200,2211A,121.6506,42.0498,阜新市,玉龙新城,颗粒物(PM10),60,69,84,36,38,144,,,,8,13,13,15,0.7,0.8
2025-05-13T0200,2301A,115.8277,32.8929,阜阳市,市监测站,细颗粒物(PM2.5),55,51,49,39,30,110,,,,12,12,8,8,0.2,0.1
2025-05-13T0200,2303A,115.8554,32.8605,阜阳市,开发区,颗粒物(PM10),62,73,60,27,24,115,,,,14,10,7,7,0.2,0.2
2025-05-13T0200,2875A,115.784,32.8892,阜阳市,阜阳职业技术学院,,46,40,51,20,24,147,,,,8,11,6,6,0.3,0.3
2025-05-13T0200,3468A,115.7901,32.8613,阜阳市,市规划展馆,细颗粒物(PM2.5),59,42,43,42,28,112,,,,14,8,7,8,0.3,0.2
2025-05-13T0200,3469A,115.836,32.9183,阜阳市,枣园社区,颗粒物(PM10),53,56,50,29,27,115,,,,12,10,5,5,0.3,0.2
2025-05-13T0200,2669A,102.9099,34.9841,甘南藏族自治州,州政府,颗粒物(PM10),56,61,51,26,25,44,,,,36,25,7,9,0.3,0.3
2025-05-13T0200,3380A,102.8914,34.9617,甘南藏族自治州,甘肃民族师范学院,颗粒物(PM10),65,79,58,18,21,29,,,,55,32,8,10,0.4,0.4
2025-05-13T0200,2570A,101.9603,30.0475,甘孜藏族自治州,水桥子,,44,44,31,26,13,136,,,,9,16,4,5,0.4,0.4
2025-05-13T0200,3065A,101.9533,29.9972,甘孜藏族自治州,州环保局,,42,42,32,22,10,119,,,,11,16,1,2,0.3,0.2
2025-05-13T0200,3414A,115.8347,28.932,赣江新区,桑海产业园,颗粒物(PM10),57,63,53,26,27,75,,,,41,25,2,4,0.4,0.4
2025-05-13T0200,2362A,114.9017,25.9149,赣州市,通天岩,,27,26,32,13,7,85,,,,5,5,10,10,0.3,0.3
2025-05-13T0200,2363A,114.9367,25.8664,赣州市,地委,颗粒物(PM10),55,60,42,30,24,44,,,,20,16,16,6,0.4,0.4
2025-05-13T0200,2364A,114.9461,25.8481,赣州市,气象台,颗粒物(PM10),52,54,42,25,22,50,,,,35,24,11,10,0.4,0.4
2025-05-13T0200,2365A,114.9322,25.8333,赣州市,市图书馆,,45,44,38,31,24,52,,,,28,18,7,6,0.5,0.4
2025-05-13T0200,2366A,114.8905,25.8471,赣州市,华坚鞋城,,48,48,42,32,25,41,,,,32,23,7,8,0.4,0.4
2025-05-13T0200,3109A,115.0093,25.8613,赣州市,赣县区卫计委,,38,38,37,19,24,35,,,,34,20,3,3,0.7,0.7
2025-05-13T0200,2683A,106.2319,36.1417,固原市,马园,颗粒物(PM10),74,98,72,28,21,9,,,,60,25,5,6,0.8,0.6
2025-05-13T0200,2684A,106.2792,36.0022,固原市,监测站,颗粒物(PM10),51,51,63,18,20,66,,,,16,19,7,6,0.3,0.3
2025-05-13T0200,2685A,106.2375,36.0211,固原市,新区,颗粒物(PM10),57,64,68,21,21,41,,,,30,24,6,6,0.2,0.2
2025-05-13T0200,3522A,106.2177,35.9959,固原市,原州区十五小,,47,47,62,21,23,90,,,,8,13,10,10,0.2,0.2
2025-05-13T0200,2543A,106.6308,30.5278,广安市,小平旧居,,,,,,,,,,,,,,,,
2025-05-13T0200,2544A,106.6303,30.4576,广安市,市委,细颗粒物(PM2.5),60,68,64,43,31,97,,,,10,12,6,6,0.5,0.4
2025-05-13T0200,2545A,106.6271,30.4663,广安市,友谊中学,颗粒物(PM10),57,63,56,39,30,101,,,,13,17,4,4,0.6,0.5
2025-05-13T0200,2547A,106.6388,30.4551,广安市,广电花园,细颗粒物(PM2.5),60,65,62,43,32,101,,,,17,16,7,6,0.6,0.5
2025-05-13T0200,2902A,106.6351,30.4865,广安市,北辰小学,细颗粒物(PM2.5),59,60,60,42,31,109,,,,11,12,9,8,0.6,0.5
2025-05-13T0200,2523A,105.8945,32.4535,广元市,黑石坡,细颗粒物(PM2.5),59,62,61,42,20,87,,,,16,13,4,5,0.4,0.4
2025-05-13T0200,2524A,105.821,32.4444,广元市,老城,颗粒物(PM10),60,70,56,41,24,59,,,,32,22,1,2,0.9,0.8
2025-05-13T0200,2526A,105.8628,32.4287,广元市,监测站,细颗粒物(PM2.5),69,60,48,50,28,70,,,,18,17,6,8,0.5,0.5
2025-05-13T0200,3617A,105.8047,32.4166,广元市,经开区,细颗粒物(PM2.5),70,74,73,51,46,47,,,,31,27,8,14,0.8,0.7
2025-05-13T0200,1345A,113.2347,23.1423,广州市,广雅中学,,40,40,55,24,29,87,,,,32,43,5,5,0.1,0.2
2025-05-13T0200,1346A,113.2612,23.105,广州市,市五中,,44,44,45,22,28,72,,,,35,36,4,3,0.8,0.8
2025-05-13T0200,1348A,113.3478,23.0916,广州市,广东商学院,,37,37,44,22,24,37,,,,72,44,4,5,0.6,0.5
2025-05-13T0200,1349A,113.4332,23.1047,广州市,市八十六中,"二氧化氮,颗粒物(PM10)",53,55,63,20,24,17,,,,106,60,4,4,0.6,0.6
2025-05-13T0200,1350A,113.3505,22.9483,广州市,番禺中学,,46,34,47,32,28,77,,,,42,43,7,7,0.5,0.5
2025-05-13T0200,1351A,113.2146,23.3916,广州市,花都师范,颗粒物(PM10),63,75,48,37,24,7,,,,112,42,6,5,0.6,0.5
2025-05-13T0200,1352A,113.2597,23.1331,广州市,市监测站,,40,40,49,24,26,72,,,,41,43,6,6,0.2,0.2
2025-05-13T0200,1353A,113.5618,23.312,广州市,九龙镇镇龙,颗粒物(PM10),63,76,44,34,23,8,,,,74,38,6,6,0.6,0.4
2025-05-13T0200,1354A,113.2765,23.1544,广州市,麓湖,,36,36,40,25,27,61,,,,43,38,6,6,0.6,0.6
2025-05-13T0200,1355A,113.443,23.3035,广州市,帽峰山森林公园,,44,44,24,25,20,100,,,,26,16,7,6,0.6,0.5
2025-05-13T0200,2846A,113.3221,23.1322,广州市,体育西,,40,40,43,26,23,68,,,,42,40,6,5,0.4,0.4
2025-05-13T0200,3298A,113.5717,23.5491,广州市,从化街口,颗粒物(PM10),52,53,37,32,24,30,,,,38,23,6,7,0.6,0.5
2025-05-13T0200,3299A,113.3472,23.3692,广州市,白云竹料,颗粒物(PM10),60,70,49,39,29,21,,,,65,33,3,4,0.6,0.5
2025-05-13T0200,3300A,113.2981,23.237,广州市,白云嘉禾,,42,42,47,23,26,53,,,,62,46,7,7,0.5,0.4
2025-05-13T0200,3301A,113.4256,23.1716,广州市,黄埔科学城,,49,49,37,26,22,5,,,,67,26,1,2,0.6,0.5
2025-05-13T0200,3302A,113.3942,23.0483,广州市,番禺大学城,,46,46,40,27,21,73,,,,46,46,6,5,0.3,0.3
2025-05-13T0200,3303A,113.4922,22.8168,广州市,南沙黄阁,,42,42,49,23,24,89,,,,26,32,6,9,0.6,0.6
2025-05-13T0200,3304A,113.5342,22.7896,广州市,南沙街,,44,44,43,23,18,112,,,,21,29,3,4,0.6,0.6
2025-05-13T0200,3443A,113.2902,23.5544,广州市,花都梯面,,38,38,32,25,21,19,,,,37,27,4,6,0.5,0.5
2025-05-13T0200,3445A,113.7858,23.7478,广州市,从化良口,,26,23,26,18,19,47,,,,23,10,6,7,0.3,0.3
2025-05-13T0200,3446A,113.8051,23.2614,广州市,增城荔城,,36,36,32,20,22,87,,,,20,14,9,9,0.6,0.5
2025-05-13T0200,2505A,109.568,23.1478,贵港市,德智高中,,,,,,,,,,,,,,,,
2025-05-13T0200,2506A,109.6047,23.0666,贵港市,江南子站,细颗粒物(PM2.5),64,73,73,46,36,56,,,,48,38,4,7,0.7,0.8
2025-05-13T0200,2508A,109.5669,23.1065,贵港市,荷城子站,颗粒物(PM10),54,58,41,34,25,17,,,,78,32,5,7,0.6,0.4
2025-05-13T0200,3405A,109.5886,23.1172,贵港市,新世纪学校,颗粒物(PM10),52,53,48,35,28,33,,,,44,24,1,2,1.3,1.1
2025-05-13T0200,4260A,109.5933,23.0951,贵港市,中山路155-3号,颗粒物(PM10),55,60,60,34,34,92,,,,28,32,5,6,0.4,0.6
2025-05-13T0200,1439A,106.6899,26.5998,贵阳市,马鞍山,,32,14,23,12,9,102,,,,6,11,6,4,0.5,0.6
2025-05-13T0200,1441A,106.6243,26.6266,贵阳市,鉴湖路,,29,27,34,14,11,90,,,,8,10,5,7,0.3,0.3
2025-05-13T0200,1442A,106.7487,26.6343,贵阳市,燕子冲,,34,31,33,22,21,107,,,,8,15,15,16,0.2,0.2
2025-05-13T0200,1443A,106.6555,26.4365,贵阳市,碧云窝,,33,29,34,9,14,105,,,,7,10,5,7,0.2,0.2
2025-05-13T0200,1445A,106.7109,26.6027,贵阳市,红边门,,34,27,34,12,20,106,,,,7,18,12,12,0.1,0.2
2025-05-13T0200,1446A,106.7164,26.5699,贵阳市,新华路,,31,27,37,9,12,97,,,,9,18,7,19,0.4,0.4
2025-05-13T0200,1447A,106.674,26.5424,贵阳市,太慈桥,,32,24,36,9,11,101,,,,10,15,6,6,0.2,0.2
2025-05-13T0200,1552A,106.805,26.3003,贵阳市,桐木岭,,38,36,40,17,19,121,,,,5,5,2,4,0.6,0.6
2025-05-13T0200,4230A,106.6882,26.5695,贵阳市,花果园大街66号,,34,19,30,14,17,106,,,,1,11,7,5,0.2,0.3
2025-05-13T0200,4231A,106.6873,26.5169,贵阳市,漓江路57号,,30,24,32,12,16,95,,,,11,16,13,10,0.3,0.3
2025-05-13T0200,1862A,110.4144,25.3167,桂林市,电子科大尧山校区,,,,,,,,,,,,,,,,
2025-05-13T0200,1864A,110.3089,25.2708,桂林市,龙隐路小学,,49,44,39,34,26,67,,,,18,14,24,12,0.5,0.4
2025-05-13T0200,1865A,110.2869,25.2178,桂林市,八中,颗粒物(PM10),52,54,44,33,26,51,,,,20,17,2,3,0.5,0.4
2025-05-13T0200,3531A,110.296,25.1253,桂林市,旅游学院,,42,34,31,29,20,16,,,,44,17,4,6,0.4,0.4
2025-05-13T0200,4222A,110.1835,25.2444,桂林市,环湖路276号,颗粒物(PM10),53,56,47,31,27,14,,,,57,33,13,13,0.4,0.3
2025-05-13T0200,4301A,110.2803,25.2773,桂林市,信义路13号,颗粒物(PM10),53,55,44,34,27,53,,,,23,20,30,12,0.4,0.3
2025-05-13T0200,2674A,100.2561,34.4714,果洛藏族自治州,玛沁县大武镇,,43,43,44,26,17,49,,,,2,4,18,28,0.4,0.4
2025-05-13T0200,1129A,126.5422,45.755,哈尔滨市,岭北,颗粒物(PM10),53,56,63,35,45,106,,,,21,20,25,25,1.0,1
2025-05-13T0200,1130A,126.561,45.8167,哈尔滨市,松北商大,,48,48,73,30,41,65,,,,26,20,8,10,0.8,0.8
2025-05-13T0200,1131A,126.979,45.5419,哈尔滨市,阿城会宁,,46,46,62,30,47,67,,,,22,22,7,8,0.6,0.6
2025-05-13T0200,1132A,126.599,45.7222,哈尔滨市,南岗学府路,颗粒物(PM10),63,75,74,30,36,84,,,,28,21,8,8,0.6,0.7
2025-05-13T0200,1133A,126.689,45.7733,哈尔滨市,太平宏伟公园,颗粒物(PM10),55,59,75,29,41,97,,,,21,23,7,8,0.6,0.7
2025-05-13T0200,1134A,126.635,45.7667,哈尔滨市,道外承德广场,颗粒物(PM10),60,69,90,36,44,90,,,,24,27,9,9,0.7,0.8
2025-05-13T0200,1135A,126.685,45.7319,哈尔滨市,香坊红旗大街,颗粒物(PM10),59,68,82,19,42,98,,,,23,28,13,14,0.8,0.9
2025-05-13T0200,1136A,126.6411,45.7258,哈尔滨市,动力和平路,颗粒物(PM10),57,63,72,28,42,86,,,,22,20,12,10,0.6,0.7
2025-05-13T0200,1137A,126.593,45.7478,哈尔滨市,道里建国路,颗粒物(PM10),54,57,69,28,42,89,,,,30,27,10,8,1.1,0.8
2025-05-13T0200,1138A,126.615,45.61,哈尔滨市,平房东轻厂,颗粒物(PM10),54,57,66,26,30,105,,,,13,15,10,10,0.7,0.8
2025-05-13T0200,1139A,126.595,45.9855,哈尔滨市,呼兰师专,颗粒物(PM10),55,59,72,31,48,90,,,,31,23,11,11,0.8,0.8
2025-05-13T0200,1140A,126.6206,45.6842,哈尔滨市,省农科院,颗粒物(PM10),69,87,105,33,47,63,,,,46,34,10,10,0.8,0.9
2025-05-13T0200,2688A,93.5128,42.8172,哈密市,地区监测站,颗粒物(PM10),72,94,54,13,14,84,,,,4,8,3,4,0.0,0
2025-05-13T0200,2689A,93.4961,42.8328,哈密市,哈密师范学校,颗粒物(PM10),58,65,34,7,13,100,,,,5,11,4,5,0.2,0.3
2025-05-13T0200,2671A,100.9048,36.9639,海北藏族自治州,海晏县西海镇,,39,39,34,16,14,91,,,,8,7,12,13,0.4,0.4
2025-05-13T0200,3867A,102.0738,36.5056,海东市,平安区公安北苑,颗粒物(PM10),53,56,43,14,14,82,,,,4,10,6,12,0.5,0.6
2025-05-13T0200,1409A,110.576,19.9507,海口市,东寨港,,31,31,29,19,15,67,,,,3,4,11,8,0.4,0.4
2025-05-13T0200,1410A,110.3232,20.0574,海口市,海南大学,,32,32,36,15,20,101,,,,4,7,3,4,0.3,0.4
2025-05-13T0200,1411A,110.283,20.0053,海口市,秀英海南医院,,32,29,36,16,21,102,,,,6,8,5,6,0.4,0.4
2025-05-13T0200,1412A,110.338,19.9969,海口市,海南师范大学,,32,32,37,16,20,101,,,,6,8,4,5,0.4,0.4
2025-05-13T0200,1413A,110.33,20.0356,海口市,龙华路环保局宿舍,,33,33,36,14,19,104,,,,5,7,4,5,0.3,0.3
2025-05-13T0200,3539A,110.5111,19.9736,海口市,桂林洋子站,,32,32,35,14,18,88,,,,9,7,4,4,0.3,0.3
2025-05-13T0200,2673A,100.6188,36.2866,海南藏族自治州,共和县恰卜恰镇,,44,44,45,15,16,97,,,,16,9,18,17,0.5,0.4
2025-05-13T0200,2676A,97.3731,37.3753,海西蒙古族藏族自治州,德令哈市,,39,39,64,24,19,96,,,,2,6,7,9,0.7,0.5
2025-05-13T0200,1048A,114.5302,36.6116,邯郸市,东污水处理厂,颗粒物(PM10),56,62,64,17,13,77,,,,21,29,3,5,0.3,0.6
2025-05-13T0200,1049A,114.4918,36.5713,邯郸市,矿院,颗粒物(PM10),54,57,54,24,16,72,,,,20,24,4,6,0.4,0.6
2025-05-13T0200,1050A,114.484,36.6133,邯郸市,丛台公园,颗粒物(PM10),51,51,53,29,20,84,,,,19,20,8,8,0.5,0.6
2025-05-13T0200,3458A,114.7895,36.5593,邯郸市,香泉濮院小区,颗粒物(PM10),59,67,71,12,13,97,,,,13,17,4,5,0.2,0.4
2025-05-13T0200,3579A,114.50634,36.77178,邯郸市,永年区实验高中,颗粒物(PM10),76,102,72,42,29,66,,,,26,16,14,10,1.4,0.9
2025-05-13T0200,3580A,114.20016,36.44293,邯郸市,峰峰矿区临水派出所,颗粒物(PM10),57,63,50,21,11,109,,,,19,15,8,8,0.6,0.5
2025-05-13T0200,2634A,106.9893,33.1842,汉中市,汉川机床厂子校,,50,50,52,28,47,94,,,,8,10,7,9,0.7,0.8
2025-05-13T0200,2635A,107.0154,33.0706,汉中市,市监测站,颗粒物(PM10),72,94,65,39,35,73,,,,18,14,6,9,0.6,0.6
2025-05-13T0200,2636A,107.0089,33.1138,汉中市,鑫源开发区,细颗粒物(PM2.5),93,122,65,69,38,38,,,,34,20,7,9,0.8,0.6
2025-05-13T0200,2637A,107.007,33.0323,汉中市,南郑大河坎水厂,颗粒物(PM10),60,70,57,37,32,71,,,,18,15,6,6,0.5,0.5
2025-05-13T0200,1223A,120.2072,30.2111,杭州市,滨江,,48,48,46,22,22,102,,,,28,35,7,7,0.5,0.6
2025-05-13T0200,1224A,120.0633,30.2747,杭州市,西溪,细颗粒物(PM2.5),55,53,39,39,29,14,,,,32,20,5,5,0.4,0.4
2025-05-13T0200,1226A,120.3417,30.3150,杭州市,下沙,,46,46,48,26,27,82,,,,54,38,9,9,0.4,0.4
2025-05-13T0200,1227A,120.1269,30.2456,杭州市,卧龙桥,,42,42,36,28,25,61,,,,17,15,6,7,0.5,0.5
2025-05-13T0200,1228A,120.1903,30.2692,杭州市,浙江农大,,49,49,53,26,30,83,,,,30,40,10,10,0.4,0.5
2025-05-13T0200,1230A,120.1197,30.3119,杭州市,和睦小学,,43,43,40,26,26,96,,,,21,22,9,9,0.4,0.4
2025-05-13T0200,1231A,120.3019,30.4183,杭州市,临平镇,颗粒物(PM10),53,56,54,31,28,33,,,,82,37,6,6,0.4,0.4
2025-05-13T0200,1232A,120.2753,30.1839,杭州市,城厢镇,,42,42,46,28,28,94,,,,30,34,9,9,0.2,0.3
2025-05-13T0200,1233A,120.0883,30.1808,杭州市,云栖,,44,44,37,28,21,22,,,,48,30,5,5,0.6,0.6
2025-05-13T0200,3557A,119.9464,30.0494,杭州市,镇二中,细颗粒物(PM2.5),52,41,39,36,29,33,,,,42,32,3,4,0.6,0.5
2025-05-13T0200,3558A,119.7183,30.2367,杭州市,市府大楼,,35,32,37,24,26,60,,,,26,23,8,8,0.5,0.5
2025-05-13T0200,3656A,120.1556,30.2864,杭州市,消防大队,颗粒物(PM10),52,53,44,35,29,81,,,,34,30,5,5,0.5,0.5
2025-05-13T0200,1270A,117.1959,31.7848,合肥市,明珠广场,,40,36,42,27,23,126,,,,18,19,10,9,0.4,0.4
2025-05-13T0200,1271A,117.3072,31.8764,合肥市,三里街,,46,46,49,29,26,94,,,,29,26,6,6,0.5,0.5
2025-05-13T0200,1272A,117.2588,31.8707,合肥市,琥珀山庄,,41,41,44,28,27,116,,,,18,17,5,5,0.5,0.5
2025-05-13T0200,1273A,117.1604,31.9052,合肥市,董铺水库,,42,41,46,19,19,132,,,,15,14,2,2,0.3,0.3
2025-05-13T0200,1274A,117.25,31.8571,合肥市,长江中路,,39,39,45,27,26,122,,,,18,17,7,7,0.5,0.5
2025-05-13T0200,1275A,117.266,31.9436,合肥市,庐阳区,,43,36,45,24,24,135,,,,9,13,8,8,0.4,0.4
2025-05-13T0200,1276A,117.3453,31.8616,合肥市,瑶海区,,41,41,54,22,27,93,,,,29,31,7,7,0.3,0.4
2025-05-13T0200,1277A,117.3027,31.7964,合肥市,包河区,,41,41,46,24,28,118,,,,15,15,7,7,0.5,0.5
2025-05-13T0200,1278A,117.2776,31.7385,合肥市,滨湖新区,,45,41,46,31,34,115,,,,17,18,9,9,0.6,0.6
2025-05-13T0200,1279A,117.1318,31.8403,合肥市,高新区,,42,41,42,21,21,134,,,,14,15,4,3,0.4,0.4
2025-05-13T0200,3464A,117.3803,31.9147,合肥市,高教基地,,40,34,45,28,26,114,,,,10,12,7,7,0.4,0.4
2025-05-13T0200,3614A,79.924,37.0877,和田地区,地区环保局,颗粒物(PM10),417,517,505,80,122,78,,,,4,7,1,2,0.2,0.3
2025-05-13T0200,3615A,79.9131,37.113,和田地区,市环保局,颗粒物(PM10),229,370,417,64,118,90,,,,3,7,3,2,0.2,0.3
2025-05-13T0200,2516A,108.2011,24.715,河池市,东仁乐园,,,,,,,,,,,,,,,,
2025-05-13T0200,2517A,108.0497,24.6947,河池市,市环保站,,42,42,31,28,16,55,,,,28,13,9,8,0.6,0.5
2025-05-13T0200,2518A,108.0983,24.6989,河池市,市疾控中心,颗粒物(PM10),61,72,39,30,20,47,,,,40,21,12,10,0.6,0.5
2025-05-13T0200,1696A,114.6778,23.7569,河源市,源西,,38,38,32,21,18,3,,,,67,26,4,5,0.8,0.7
2025-05-13T0200,1697A,114.6944,23.7586,河源市,东埔,,38,35,34,26,20,95,,,,18,19,6,6,0.5,0.4
2025-05-13T0200,1698A,114.6892,23.7233,河源市,老城,,40,40,32,21,18,85,,,,18,18,8,5,0.5,0.4
2025-05-13T0200,1718A,115.4208,35.2464,菏泽市,气象局,颗粒物(PM10),53,55,83,24,31,120,,,,13,13,4,4,0.3,0.3
2025-05-13T0200,3374A,115.5564,35.0891,菏泽市,定陶老年大学,颗粒物(PM10),51,51,60,14,26,124,,,,13,12,4,4,0.4,0.4
2025-05-13T0200,4184A,115.4797,35.24401,菏泽市,永昌路1号,颗粒物(PM10),51,51,69,25,36,122,,,,9,11,6,6,0.2,0.2
2025-05-13T0200,4193A,115.4715,35.2800,菏泽市,长城路999号,颗粒物(PM10),52,53,72,23,23,121,,,,13,16,7,7,0.2,0.2
2025-05-13T0200,2514A,111.5264,24.4172,贺州市,环保小区,细颗粒物(PM2.5),58,46,43,41,28,78,,,,14,17,16,9,0.8,0.8
2025-05-13T0200,2515A,111.5608,24.4078,贺州市,政协大楼,细颗粒物(PM2.5),53,38,35,37,24,76,,,,15,16,15,12,0.7,0.6
2025-05-13T0200,3534A,111.4744,24.4553,贺州市,西湾,细颗粒物(PM2.5),55,51,43,39,27,81,,,,20,22,12,10,0.5,0.5
2025-05-13T0200,2385A,114.17,35.9019,鹤壁市,市监测站,颗粒物(PM10),67,83,63,40,31,105,,,,16,17,4,5,0.8,0.7
2025-05-13T0200,2386A,114.2956,35.7511,鹤壁市,市交警支队,颗粒物(PM10),58,66,73,33,27,85,,,,19,24,3,5,0.6,0.6
2025-05-13T0200,2387A,114.2878,35.7306,鹤壁市,迎宾馆,颗粒物(PM10),66,82,85,36,32,91,,,,13,18,6,7,0.5,0.6
2025-05-13T0200,3474A,114.2617,35.6822,鹤壁市,大新区,细颗粒物(PM2.5),64,72,67,46,38,67,,,,29,29,12,13,0.5,0.5
2025-05-13T0200,3596A,114.1572,35.9603,鹤壁市,南山宾馆,颗粒物(PM10),68,86,78,48,30,103,,,,16,15,7,8,0.6,0.4
2025-05-13T0200,2244A,130.2537,47.3416,鹤岗市,哈啤分公司,细颗粒物(PM2.5),69,,59,50,56,69,,,,11,13,14,15,0.4,0.4
2025-05-13T0200,2245A,130.2684,47.3086,鹤岗市,斯达机电,细颗粒物(PM2.5),69,51,72,50,56,59,,,,19,22,13,13,0.4,0.5
2025-05-13T0200,2246A,130.3114,47.3388,鹤岗市,东山纸板厂,细颗粒物(PM2.5),70,63,103,51,56,43,,,,20,24,15,15,1.0,0.7
2025-05-13T0200,2247A,130.1097,47.3382,鹤岗市,五号水库,,,,,,,,,,,,,,,,
2025-05-13T0200,2263A,127.4833,50.2524,黑河市,交通局,,50,50,92,28,62,45,,,,9,16,7,7,0.4,0.5
2025-05-13T0200,2264A,127.5144,50.2341,黑河市,环保局,,42,42,72,25,60,44,,,,7,14,4,5,0.3,0.4
2025-05-13T0200,2265A,127.5291,50.2472,黑河市,大黑河岛,,44,44,106,27,70,52,,,,9,13,2,3,0.3,0.4
2025-05-13T0200,1074A,115.6838,37.7541,衡水市,电机北厂,颗粒物(PM10),62,74,67,41,27,117,,,,9,16,5,10,0.3,0.5
2025-05-13T0200,1075A,115.6303,37.7316,衡水市,市监测站,颗粒物(PM10),63,76,73,18,21,110,,,,10,16,5,11,0.3,0.5
2025-05-13T0200,3188A,115.6683,37.7217,衡水市,市城管局,颗粒物(PM10),62,73,69,31,27,112,,,,8,17,7,6,0.3,0.4
2025-05-13T0200,3459A,115.5989,37.5491,衡水市,地表水厂,颗粒物(PM10),61,71,79,21,25,107,,,,13,24,8,8,0.3,0.5
2025-05-13T0200,2456A,112.5003,26.9167,衡阳市,原169医院,细颗粒物(PM2.5),104,126,76,78,54,46,,,,41,28,8,9,1.2,0.8
2025-05-13T0200,2457A,112.6194,26.9258,衡阳市,衡阳化工总厂,细颗粒物(PM2.5),93,86,76,69,51,68,,,,16,18,10,11,0.7,0.6
2025-05-13T0200,2458A,112.6211,26.8956,衡阳市,珠晖区环保局,细颗粒物(PM2.5),73,68,65,53,46,80,,,,17,18,12,14,0.7,0.7
2025-05-13T0200,2459A,112.6197,26.8733,衡阳市,市委党校,细颗粒物(PM2.5),75,82,67,55,48,69,,,,14,14,10,16,0.7,0.6
2025-05-13T0200,2460A,112.6006,26.8919,衡阳市,市监测站,细颗粒物(PM2.5),90,83,69,67,52,72,,,,18,21,12,16,0.6,0.6
2025-05-13T0200,2461A,112.5664,26.9056,衡阳市,真空机电公司,细颗粒物(PM2.5),79,94,71,58,47,72,,,,23,23,6,8,0.8,0.9
2025-05-13T0200,3399A,112.6703,26.882,衡阳市,师范学院,细颗粒物(PM2.5),87,81,76,64,57,72,,,,12,15,11,13,0.8,0.8
2025-05-13T0200,2608A,103.3772,23.3993,红河哈尼族彝族自治州,污水处理厂,,36,30,24,25,18,97,,,,6,6,6,6,0.4,0.4
2025-05-13T0200,2609A,103.3861,23.35,红河哈尼族彝族自治州,监测站,,42,42,34,16,17,105,,,,6,6,7,11,0.4,0.4
2025-05-13T0200,3038A,103.3758,23.368,红河哈尼族彝族自治州,州图书馆,,42,,17,29,14,93,,,,9,7,4,9,0.2,0.2
2025-05-13T0200,1090A,111.6507,40.7517,呼和浩特市,呼市一监,,36,36,67,15,26,23,,,,36,23,8,11,0.4,0.5
2025-05-13T0200,1091A,111.6572,40.8033,呼和浩特市,小召,,39,39,61,26,20,36,,,,44,32,6,10,0.6,0.5
2025-05-13T0200,1094A,111.7516,40.8369,呼和浩特市,如意水处理厂,,41,41,61,18,27,10,,,,60,34,5,9,0.5,0.5
2025-05-13T0200,1095A,111.7276,40.8062,呼和浩特市,二十九中,,43,43,62,16,31,32,,,,35,27,4,8,0.6,0.6
2025-05-13T0200,1096A,111.5512,40.7866,呼和浩特市,工大金川校区,,46,46,56,16,20,26,,,,47,30,25,10,0.5,0.5
2025-05-13T0200,1097A,111.717,40.7612,呼和浩特市,化肥厂生活区,,50,50,72,20,29,16,,,,62,35,6,9,0.4,0.4
2025-05-13T0200,3698A,111.5968,40.8178,呼和浩特市,红旗小学,,48,48,58,16,20,14,,,,66,32,6,7,0.5,0.5
2025-05-13T0200,3699A,111.6518,40.8389,呼和浩特市,海东办,,39,39,57,22,25,36,,,,39,32,7,10,0.5,0.5
2025-05-13T0200,2192A,119.7594,49.2261,呼伦贝尔市,区环保局,,49,,66,34,60,83,,,,7,16,7,5,0.2,0.4
2025-05-13T0200,3061A,119.7512,49.1577,呼伦贝尔市,国华电力东,,28,28,63,15,46,75,,,,6,9,3,5,0.3,0.4
2025-05-13T0200,1250A,120.0751,30.8669,湖州市,城西水厂,细颗粒物(PM2.5),78,92,48,57,30,103,,,,42,35,8,8,0.6,0.5
2025-05-13T0200,2873A,120.0830,30.8929,湖州市,仁皇山新区,细颗粒物(PM2.5),80,91,51,59,31,92,,,,47,42,5,6,0.6,0.6
2025-05-13T0200,2907A,120.1844,30.8596,湖州市,吴兴区站,细颗粒物(PM2.5),75,82,47,55,30,84,,,,37,32,9,8,0.5,0.4
2025-05-13T0200,3562A,120.4148,30.8538,湖州市,南浔区站,颗粒物(PM10),51,51,46,29,28,98,,,,22,23,6,5,0.4,0.4
2025-05-13T0200,1607A,120.9049,40.7211,葫芦岛市,龙港区,颗粒物(PM10),58,66,64,40,43,135,,,,9,13,9,9,0.6,0.6
2025-05-13T0200,1608A,120.8392,40.7514,葫芦岛市,化工街,细颗粒物(PM2.5),62,70,78,44,51,126,,,,14,23,11,12,0.7,0.7
2025-05-13T0200,1609A,120.8341,40.7073,葫芦岛市,新区,细颗粒物(PM2.5),64,51,59,46,50,136,,,,11,18,7,8,0.7,0.7
2025-05-13T0200,1610A,120.8695,40.7677,葫芦岛市,东城区,细颗粒物(PM2.5),67,53,58,48,58,121,,,,15,24,5,6,0.7,0.7
2025-05-13T0200,2482A,109.5981,27.5721,怀化市,林科所,,41,41,51,26,28,75,,,,11,11,4,5,0.9,0.6
2025-05-13T0200,2483A,109.9453,27.5444,怀化市,河西地税局,,50,49,44,35,28,17,,,,13,13,5,6,0.6,0.6
2025-05-13T0200,2484A,109.9781,27.5342,怀化市,市四医院,细颗粒物(PM2.5),74,86,68,54,40,9,,,,47,21,10,6,0.5,0.3
2025-05-13T0200,2485A,109.9972,27.5578,怀化市,监测楼,细颗粒物(PM2.5),65,71,58,47,32,29,,,,35,20,9,11,0.4,0.3
2025-05-13T0200,2486A,110.0394,27.583,怀化市,市委党校,细颗粒物(PM2.5),84,74,58,62,41,20,,,,31,17,2,3,0.6,0.5
2025-05-13T0200,1210A,119.036,33.5981,淮安市,钵池山,颗粒物(PM10),51,51,45,26,25,101,,,,22,16,10,10,0.4,0.4
2025-05-13T0200,1211A,119.007,33.575,淮安市,北京南路,,46,46,47,29,25,86,,,,23,19,10,12,0.5,0.5
2025-05-13T0200,1212A,118.989,33.6067,淮安市,市监测站,细颗粒物(PM2.5),67,66,50,48,28,87,,,,32,26,24,17,1.4,0.9
2025-05-13T0200,1213A,119.135,33.5039,淮安市,楚州区监测站,颗粒物(PM10),51,51,54,26,27,74,,,,36,23,8,8,0.5,0.4
2025-05-13T0200,3426A,118.8755,33.2894,淮安市,新华书店,细颗粒物(PM2.5),53,46,44,37,25,74,,,,36,21,11,11,0.5,0.4
2025-05-13T0200,4206A,119.0288,33.6319,淮安市,承德北路606号,颗粒物(PM10),51,51,52,25,27,106,,,,21,17,12,12,0.5,0.7
2025-05-13T0200,2282A,116.8004,33.975,淮北市,监测站,颗粒物(PM10),57,63,64,39,29,115,,,,17,15,10,8,0.7,0.7
2025-05-13T0200,2283A,116.8091,33.9007,淮北市,烈山区政府,细颗粒物(PM2.5),57,51,53,40,26,99,,,,21,17,6,6,0.7,0.6
2025-05-13T0200,3330A,116.8873,33.9836,淮北市,杜集区检察院,细颗粒物(PM2.5),57,55,59,40,28,97,,,,22,15,9,9,0.7,0.6
2025-05-13T0200,4017A,116.7923,33.9535,淮北市,市博物馆,颗粒物(PM10),55,60,58,34,28,110,,,,17,16,9,7,0.6,0.6
2025-05-13T0200,2277A,116.8305,32.7727,淮南市,潘集区政府,颗粒物(PM10),52,54,54,32,26,110,,,,17,17,8,5,0.4,0.3
2025-05-13T0200,2279A,116.8569,32.5951,淮南市,谢家集区政府,,42,40,44,29,25,113,,,,16,16,5,4,0.2,0.2
2025-05-13T0200,2280A,116.8281,32.633,淮南市,八公山区政府,颗粒物(PM10),56,62,54,30,27,119,,,,13,12,6,6,0.3,0.2
2025-05-13T0200,2281A,116.6325,32.6201,淮南市,焦岗湖风景区管理处,,,,,,,,,,,,,,,,
2025-05-13T0200,2894A,117.0566,32.6531,淮南市,经济技术开发区消防队,细颗粒物(PM2.5),58,50,50,41,29,129,,,,12,12,6,6,0.3,0.3
2025-05-13T0200,3329A,117.0108,32.5893,淮南市,山南新区,颗粒物(PM10),55,59,51,31,21,138,,,,12,11,9,8,0.4,0.3
2025-05-13T0200,4209A,117.0031,32.6445,淮南市,国庆中路369号,,44,44,42,19,24,132,,,,8,8,10,9,0.4,0.4
2025-05-13T0200,2446A,114.9028,30.4742,黄冈市,职工中心,,,,,,,,,,,,,,,,
2025-05-13T0200,2929A,114.8858,30.4519,黄冈市,红卫路,,50,48,54,35,33,129,,,,4,18,9,14,0.5,0.6
2025-05-13T0200,3398A,114.9136,30.4445,黄冈市,市林业局,细颗粒物(PM2.5),54,47,55,38,33,120,,,,14,26,11,16,0.9,1
2025-05-13T0200,2672A,102.0199,35.5102,黄南藏族自治州,同仁县隆务镇,,40,40,38,11,14,92,,,,1,4,5,5,0.2,0.2
2025-05-13T0200,2295A,118.2903,29.6963,黄山市,延安路89号,,33,23,31,23,20,49,,,,12,9,6,6,0.2,0.3
2025-05-13T0200,2297A,118.1371,30.2756,黄山市,黄山区政府5号楼,,19,17,32,13,22,43,,,,5,5,4,4,0.4,0.4
2025-05-13T0200,4210A,118.3354,29.7203,黄山市,滨江东路7-2号,,36,36,37,18,20,42,,,,11,9,5,5,0.4,0.4
2025-05-13T0200,2423A,115.0601,30.2313,黄石市,沈家营,细颗粒物(PM2.5),62,70,45,44,28,71,,,,39,25,10,8,1.2,0.7
2025-05-13T0200,2426A,114.8988,30.2019,黄石市,铁山,颗粒物(PM10),57,63,46,31,20,83,,,,46,16,13,16,0.6,0.6
2025-05-13T0200,2427A,115.0307,30.2092,黄石市,团城山,细颗粒物(PM2.5),57,55,46,40,23,83,,,,29,22,13,9,0.8,0.6
2025-05-13T0200,3149A,115.0235,30.1578,黄石市,笔架山北路,颗粒物(PM10),56,61,44,31,26,102,,,,21,17,15,10,0.8,0.7
2025-05-13T0200,4185A,115.0780,30.21118,黄石市,磁湖东路29号,细颗粒物(PM2.5),68,74,56,49,35,91,,,,39,28,16,10,1.1,0.8
2025-05-13T0200,1392A,114.4183,23.0528,惠州市,河南岸金山湖子站,,37,37,36,17,21,118,,,,14,18,10,10,0.5,0.5
2025-05-13T0200,1393A,114.4053,23.0822,惠州市,下埔横江三路子站,,48,48,40,26,21,136,,,,11,18,10,10,0.5,0.4
2025-05-13T0200,1394A,114.4103,23.1142,惠州市,江北云山西路子站,,44,43,36,26,21,140,,,,14,19,11,12,0.5,0.5
2025-05-13T0200,1395A,114.4645,22.7833,惠州市,惠阳区承修路船湖子站,,45,37,38,20,20,142,,,,11,16,10,9,0.6,0.6
2025-05-13T0200,1396A,114.5317,22.7422,惠州市,大亚湾管委会子站,,,40,37,20,20,128,,,,,24,6,7,0.5,0.5
2025-05-13T0200,3314A,114.4338,22.8134,惠州市,惠阳秋长,,46,46,36,23,20,93,,,,27,17,10,10,0.4,0.3
2025-05-13T0200,3452A,114.6517,22.775,惠州市,大亚湾霞涌,,43,43,31,22,14,85,,,,22,14,10,9,0.7,0.6
2025-05-13T0200,2240A,130.9762,45.3001,鸡西市,环保局,,43,43,43,20,24,100,,,,11,12,7,7,0.5,0.5
2025-05-13T0200,2243A,130.9429,45.3039,鸡西市,第一中学,,39,39,41,24,25,112,,,,6,9,8,7,0.5,0.5
2025-05-13T0200,3707A,131.0207,45.3073,鸡西市,欧美日汽修厂,,,,,,,,,,,,33,,7,,0.7
2025-05-13T0200,3709A,130.9967,45.3106,鸡西市,市政设施管理处,颗粒物(PM10),51,51,60,31,28,64,,,,18,17,8,8,0.6,0.5
2025-05-13T0200,2367A,114.9754,27.0803,吉安市,红声器材厂,,44,44,40,26,23,78,,,,11,12,14,14,0.5,0.5
2025-05-13T0200,2368A,114.9658,27.0999,吉安市,市森林工业局,,46,46,43,31,25,79,,,,12,13,12,12,0.3,0.3
2025-05-13T0200,2369A,114.99,27.1312,吉安市,市环境监测站,,29,28,36,20,26,83,,,,6,9,15,16,0.5,0.5
2025-05-13T0200,2370A,115.0093,27.0968,吉安市,青原区法院,,42,41,40,29,24,105,,,,6,11,16,13,0.3,0.3
2025-05-13T0200,1772A,126.54,43.8622,吉林市,哈达湾,,44,32,52,18,30,138,,,,7,16,6,7,0.4,0.5
2025-05-13T0200,1773A,126.5844,43.8358,吉林市,东局子,,45,41,48,21,29,142,,,,7,19,8,7,0.4,0.5
2025-05-13T0200,1774A,126.5052,43.8245,吉林市,电力学院,,41,33,54,20,32,129,,,,7,20,6,6,0.6,0.7
2025-05-13T0200,1775A,126.6133,43.8972,吉林市,江北,,45,45,80,18,27,136,,,,6,18,7,8,0.4,0.6
2025-05-13T0200,1776A,126.555,43.8306,吉林市,江南公园,,42,38,48,22,32,133,,,,6,13,6,7,0.3,0.4
2025-05-13T0200,1778A,126.7061,43.7133,吉林市,丰满,,,,,,,,,,,,,,,,
2025-05-13T0200,2868A,126.4739,43.953,吉林市,九站,,41,36,56,21,29,131,,,,9,18,7,8,0.4,0.4
2025-05-13T0200,1299A,116.9862,36.6114,济南市,科干所,颗粒物(PM10),56,61,48,22,19,155,,,,10,13,5,5,0.1,0.1
2025-05-13T0200,1300A,116.9376,36.665,济南市,农科所,颗粒物(PM10),66,81,66,20,32,145,,,,12,15,7,8,0.2,0.3
2025-05-13T0200,1301A,117.1265,36.6734,济南市,开发区,颗粒物(PM10),57,63,49,22,18,153,,,,7,9,8,8,0.5,0.5
2025-05-13T0200,1303A,117.0624,36.6868,济南市,省种子仓库,颗粒物(PM10),69,88,85,22,16,155,,,,6,10,5,6,0.4,0.4
2025-05-13T0200,1304A,116.9489,36.6447,济南市,机床二厂,颗粒物(PM10),85,120,77,24,19,141,,,,12,16,9,10,0.4,0.4
2025-05-13T0200,1305A,117.0495,36.663,济南市,市监测站,颗粒物(PM10),67,83,52,22,21,153,,,,8,10,9,9,0.4,0.4
2025-05-13T0200,1306A,116.7675,36.5484,济南市,长清党校,颗粒物(PM10),51,51,57,17,27,143,,,,13,14,6,7,0.6,0.6
2025-05-13T0200,1616A,117.6795,36.229,济南市,技术学院,,44,34,56,22,26,138,,,,7,11,12,12,0.5,0.6
2025-05-13T0200,1961A,117.532,36.6868,济南市,东山小学,颗粒物(PM10),55,59,63,17,21,142,,,,9,9,8,8,0.3,0.3
2025-05-13T0200,3059A,117.7161,36.2049,济南市,泰兴公司,,48,48,50,22,23,137,,,,15,30,7,8,0.2,0.3
2025-05-13T0200,3064A,117.6867,36.2171,济南市,莱芜战役纪念馆,,43,39,55,14,20,137,,,,19,28,7,8,0.3,0.4
2025-05-13T0200,3494A,117.1673,36.9782,济南市,济阳区政府,颗粒物(PM10),70,90,74,17,23,156,,,,11,23,7,7,0.3,0.3
2025-05-13T0200,3495A,117.1171,36.63,济南市,锦屏中学,颗粒物(PM10),51,51,56,15,13,150,,,,9,11,7,7,0.4,0.3
2025-05-13T0200,3682A,116.9814,36.6819,济南市,济南四建,颗粒物(PM10),60,70,59,24,21,152,,,,7,11,5,6,0.4,0.4
2025-05-13T0200,1653A,116.6251,35.4302,济宁市,火炬城,,39,39,49,17,24,119,,,,7,7,8,7,0.3,0.3
2025-05-13T0200,1655A,116.5491,35.4042,济宁市,电化厂,细颗粒物(PM2.5),70,,48,51,28,104,,,,10,9,5,4,0.4,0.3
2025-05-13T0200,3500A,116.5814,35.3707,济宁市,北湖一中,,46,46,54,29,30,114,,,,10,9,7,6,0.4,0.3
2025-05-13T0200,3501A,116.8249,35.5593,济宁市,服务中心,,41,41,60,14,17,108,,,,18,14,4,3,0.2,0.3
2025-05-13T0200,3678A,116.5907,35.4054,济宁市,市第七中学,,,,65,17,16,113,,,,6,13,7,7,0.3,0.4
2025-05-13T0200,2255A,130.2751,46.8028,佳木斯市,佳纺,细颗粒物(PM2.5),87,100,106,64,72,26,,,,29,27,8,9,0.6,0.6
2025-05-13T0200,2256A,130.3995,46.8307,佳木斯市,发电厂,细颗粒物(PM2.5),102,86,83,76,71,29,,,,24,19,4,5,0.4,0.4
2025-05-13T0200,2257A,130.3258,46.7975,佳木斯市,环保局,细颗粒物(PM2.5),97,100,92,72,71,18,,,,39,34,8,8,0.6,0.6
2025-05-13T0200,2258A,130.3648,46.8032,佳木斯市,十一中,细颗粒物(PM2.5),102,104,86,76,74,19,,,,43,31,7,7,0.6,0.7
2025-05-13T0200,2259A,130.3794,46.7588,佳木斯市,四丰,细颗粒物(PM2.5),67,77,72,48,54,47,,,,22,26,1,1,0.5,0.5
2025-05-13T0200,1252A,120.7436,30.778,嘉兴市,清河小学,,44,44,51,25,28,110,,,,15,28,6,6,0.6,0.6
2025-05-13T0200,1253A,120.726,30.7478,嘉兴市,嘉兴学院,,41,41,50,25,28,117,,,,14,31,7,7,0.3,0.4
2025-05-13T0200,2872A,120.7846,30.7525,嘉兴市,南湖区残联,,41,41,47,24,28,123,,,,13,23,7,7,0.3,0.3
2025-05-13T0200,3407A,120.6916,30.7739,嘉兴市,秀洲住建,,49,49,59,24,31,115,,,,12,20,7,8,0.5,0.6
2025-05-13T0200,1945A,98.2908,39.7711,嘉峪关市,气象局,颗粒物(PM10),64,78,48,29,27,109,,,,10,10,15,19,1.0,0.5
2025-05-13T0200,2884A,98.2672,39.7978,嘉峪关市,酒钢宾馆,颗粒物(PM10),68,85,58,24,23,93,,,,13,9,44,30,0.6,0.5
2025-05-13T0200,3248A,98.2643,39.7724,嘉峪关市,雄关区,颗粒物(PM10),63,75,47,25,14,97,,,,23,14,21,14,0.8,0.4
2025-05-13T0200,1383A,113.1064,22.6058,江门市,北街,,38,38,48,21,30,94,,,,12,29,2,4,0.4,0.4
2025-05-13T0200,1384A,113.0731,22.5835,江门市,西区,,45,45,51,15,23,108,,,,17,31,8,10,0.5,0.5
2025-05-13T0200,1385A,113.0219,22.5311,江门市,圭峰西,,39,32,43,23,25,122,,,,11,23,5,6,0.4,0.5
2025-05-13T0200,1386A,113.0828,22.5947,江门市,东湖,,35,35,48,22,29,105,,,,17,38,9,11,0.6,0.6
2025-05-13T0200,3311A,113.1075,22.5647,江门市,江海富民,,39,39,46,18,26,109,,,,11,32,9,11,0.5,0.7
2025-05-13T0200,3449A,113.05,22.4667,江门市,新会银湖,,35,35,50,24,30,12,,,,65,29,1,3,0.6,0.7
2025-05-13T0200,1830A,113.1992,35.2590,焦作市,影视城,,,,30,,4,,,,,,19,,9,,0.3
2025-05-13T0200,3169A,113.2725,35.2067,焦作市,太极体育中心,颗粒物(PM10),67,83,70,39,34,63,,,,26,19,12,11,0.4,0.2
2025-05-13T0200,3335A,113.3137,35.2641,焦作市,马村街道办,颗粒物(PM10),64,78,75,29,28,67,,,,26,23,10,12,0.4,0.4
2025-05-13T0200,3336A,113.2465,35.2373,焦作市,焦作技师学院,颗粒物(PM10),58,66,65,22,27,94,,,,13,16,7,11,0.7,0.7
2025-05-13T0200,3477A,113.1656,35.2539,焦作市,中站许衡医院,颗粒物(PM10),63,75,58,42,24,88,,,,36,29,8,11,0.5,0.5
2025-05-13T0200,3981A,113.2449,35.1803,焦作市,原李万街道办,颗粒物(PM10),77,103,69,31,30,57,,,,21,16,11,13,0.3,0.3
2025-05-13T0200,4264A,113.2340,35.2190,焦作市,新安路1731号,颗粒物(PM10),59,68,66,28,30,67,,,,24,22,7,11,0.6,0.6
2025-05-13T0200,1708A,116.3701,23.5345,揭阳市,新兴,细颗粒物(PM2.5),59,,42,42,24,84,,,,27,22,19,8,0.7,0.6
2025-05-13T0200,1709A,116.3264,23.5443,揭阳市,西马,,50,44,39,35,22,112,,,,12,18,11,9,0.7,0.7
2025-05-13T0200,1710A,116.3611,23.5626,揭阳市,东兴,,43,39,43,30,22,96,,,,15,16,12,8,0.6,0.6
2025-05-13T0200,1711A,116.4151,23.5294,揭阳市,渔湖,,50,50,44,23,25,67,,,,40,25,13,9,0.7,0.6
2025-05-13T0200,3320A,116.403,23.5699,揭阳市,曲溪,,49,49,41,27,23,91,,,,24,25,6,9,0.6,0.6
2025-05-13T0200,1944A,102.1692,38.5167,金昌市,天庆家园,,41,41,62,15,16,120,,,,4,4,7,7,0.6,0.6
2025-05-13T0200,4022A,102.1647,38.5371,金昌市,金川区人防中心,颗粒物(PM10),56,61,74,14,20,121,,,,4,5,5,4,0.3,0.4
2025-05-13T0200,4239A,102.1930,38.5319,金昌市,长春路96号,颗粒物(PM10),54,58,72,17,16,118,,,,2,2,5,6,0.8,0.6
2025-05-13T0200,1262A,119.647,29.077,金华市,十五中,,38,36,42,22,25,120,,,,13,20,4,5,0.3,0.4
2025-05-13T0200,1263A,119.686,29.1029,金华市,监测站,,42,42,43,26,28,96,,,,28,21,4,4,0.3,0.3
2025-05-13T0200,3659A,119.656,29.1131,金华市,气象局,,37,37,45,23,26,115,,,,20,25,3,4,0.3,0.4
2025-05-13T0200,1767A,121.1115,41.0879,锦州市,南山,细颗粒物(PM2.5),70,,56,51,53,126,,,,12,18,6,9,0.7,0.7
2025-05-13T0200,1768A,121.0604,40.8428,锦州市,开发区,细颗粒物(PM2.5),70,76,78,51,48,130,,,,20,29,6,7,0.7,0.7
2025-05-13T0200,1769A,121.1836,41.1119,锦州市,百股街道,细颗粒物(PM2.5),67,59,58,48,44,125,,,,13,18,4,6,0.6,0.6
2025-05-13T0200,1770A,121.1178,41.1222,锦州市,天安街道,细颗粒物(PM2.5),77,67,68,56,60,130,,,,12,19,6,8,0.7,0.8
2025-05-13T0200,1771A,121.1303,41.1386,锦州市,北湖公园,细颗粒物(PM2.5),73,63,68,53,53,130,,,,13,19,7,9,0.7,0.8
2025-05-13T0200,2160A,112.85,35.5051,晋城市,自来水公司,,47,47,51,19,18,50,,,,39,34,7,10,0.7,1
2025-05-13T0200,2161A,112.8318,35.4936,晋城市,白云商贸,颗粒物(PM10),53,56,56,12,12,62,,,,34,31,6,9,0.7,0.9
2025-05-13T0200,2162A,112.8508,35.4887,晋城市,市环保局,颗粒物(PM10),58,65,62,17,19,46,,,,39,35,6,8,0.3,0.6
2025-05-13T0200,2163A,112.8676,35.4897,晋城市,技术学院,颗粒物(PM10),60,69,53,22,14,22,,,,64,38,11,9,0.8,0.9
2025-05-13T0200,2165A,112.8453,35.546,晋城市,白马寺,,46,40,32,20,17,146,,,,12,14,10,9,0.4,0.7
2025-05-13T0200,3620A,112.8271,35.4828,晋城市,泽州一中,,44,44,49,14,17,69,,,,36,30,3,4,0.5,0.7
2025-05-13T0200,2173A,112.7249,37.7067,晋中市,南都小区,颗粒物(PM10),65,79,65,24,19,63,,,,35,27,38,15,0.7,0.5
2025-05-13T0200,2174A,112.6991,37.6982,晋中市,榆次区政府,颗粒物(PM10),69,88,65,15,16,55,,,,40,28,32,17,1.3,0.7
2025-05-13T0200,2865A,112.7195,37.6828,晋中市,榆次三中,颗粒物(PM10),69,88,71,27,21,64,,,,37,26,31,14,0.6,0.4
2025-05-13T0200,4200A,112.7478,37.6954,晋中市,迎宾街26号,颗粒物(PM10),78,105,66,51,18,63,,,,37,25,35,14,0.7,0.5
2025-05-13T0200,2439A,112.2014,31.0481,荆门市,竹园小学,细颗粒物(PM2.5),72,74,79,52,46,118,,,,14,14,9,8,0.1,0.2
2025-05-13T0200,2440A,112.1969,30.9891,荆门市,掇刀,细颗粒物(PM2.5),70,74,81,51,47,117,,,,14,14,8,5,0.3,0.4
2025-05-13T0200,2441A,112.2213,31.0386,荆门市,石化一小,细颗粒物(PM2.5),82,78,76,60,48,88,,,,25,16,16,10,0.6,0.5
2025-05-13T0200,3012A,112.1849,31.0362,荆门市,西山林语,细颗粒物(PM2.5),72,65,71,52,46,106,,,,10,10,10,10,0.5,0.5
2025-05-13T0200,3547A,112.1632,31.0138,荆门市,龙泉中学南校,细颗粒物(PM2.5),77,76,79,56,49,98,,,,14,14,9,7,0.7,0.6
2025-05-13T0200,1844A,112.2494,30.3197,荆州市,市图书馆,细颗粒物(PM2.5),69,,59,50,41,122,,,,14,17,8,7,0.5,0.4
2025-05-13T0200,1845A,112.2008,30.3544,荆州市,市委党校,细颗粒物(PM2.5),79,58,60,58,42,100,,,,18,14,9,9,0.6,0.6
2025-05-13T0200,3194A,112.2747,30.3122,荆州市,管委会,细颗粒物(PM2.5),74,57,55,54,41,114,,,,14,14,110,24,0.7,0.6
2025-05-13T0200,4268A,112.1722,30.3366,荆州市,学苑路85号,细颗粒物(PM2.5),74,,55,54,43,99,,,,22,16,5,4,0.6,0.6
2025-05-13T0200,2342A,117.3102,29.3867,景德镇市,王港中学,,,,,,,,,,,,,,,,
2025-05-13T0200,2343A,117.2117,29.2933,景德镇市,老干部活动中心,,47,47,45,25,26,44,,,,35,21,7,10,0.4,0.4
2025-05-13T0200,2344A,117.1894,29.2789,景德镇市,兽医站,颗粒物(PM10),61,72,54,34,29,47,,,,30,17,4,7,0.5,0.5
2025-05-13T0200,2345A,117.1547,29.2617,景德镇市,台达陶瓷,,47,47,64,24,36,61,,,,30,29,45,39,0.6,0.7
2025-05-13T0200,2346A,117.2461,29.2956,景德镇市,陶研所,细颗粒物(PM2.5),52,40,46,36,30,41,,,,20,14,6,8,0.2,0.3
2025-05-13T0200,1803A,115.9872,29.6815,九江市,十里,细颗粒物(PM2.5),57,45,36,40,27,60,,,,27,19,1,3,0.6,0.5
2025-05-13T0200,1804A,115.9584,29.7046,九江市,茅山头,,48,48,45,32,32,61,,,,61,21,18,7,0.7,0.6
2025-05-13T0200,1805A,115.9877,29.7295,九江市,西园,,42,38,40,29,28,70,,,,67,33,7,8,0.5,0.6
2025-05-13T0200,1808A,115.9114,29.6038,九江市,综合工业园,,47,47,56,24,33,121,,,,26,22,10,11,0.5,0.6
2025-05-13T0200,1809A,116.0721,29.7535,九江市,石化总厂,细颗粒物(PM2.5),53,40,56,37,39,122,,,,10,16,8,8,0.5,0.6
2025-05-13T0200,1810A,115.9773,29.5698,九江市,庐山气象台,,39,26,42,12,23,123,,,,4,6,7,6,0.6,0.7
2025-05-13T0200,3190A,116.0254,29.6994,九江市,外国语学校,,39,34,41,24,21,41,,,,78,18,9,10,0.8,0.8
2025-05-13T0200,4253A,116.0102,29.6594,九江市,莲花大道8号,,36,33,33,22,23,115,,,,3,6,4,6,0.4,0.4
2025-05-13T0200,4240A,98.4958,39.7339,酒泉市,玉门东路5号,颗粒物(PM10),54,58,52,26,22,100,,,,1,5,7,10,0.1,0.2
2025-05-13T0200,4241A,98.5099,39.7506,酒泉市,北大街108号,颗粒物(PM10),51,51,51,20,23,97,,,,5,8,8,10,0.2,0.3
2025-05-13T0200,2698A,76.0072,39.4467,喀什地区,巡警大队,颗粒物(PM10),165,279,76,68,13,85,,,,15,9,3,3,0.2,0.2
2025-05-13T0200,2699A,75.9755,39.4694,喀什地区,吾办,颗粒物(PM10),168,286,54,68,18,90,,,,13,8,7,5,0.4,0.2
2025-05-13T0200,4027A,75.9483,39.4689,喀什地区,老干局,颗粒物(PM10),137,223,49,74,31,99,,,,11,6,3,3,0.6,0.7
2025-05-13T0200,1824A,114.3389,34.7781,开封市,肿瘤医院,颗粒物(PM10),56,62,80,26,28,106,,,,7,10,9,9,0.5,0.4
2025-05-13T0200,1826A,114.2885,34.7965,开封市,世纪星幼儿园,细颗粒物(PM2.5),60,64,90,43,46,109,,,,13,16,10,9,0.5,0.5
2025-05-13T0200,3147A,114.3438,34.8106,开封市,龙亭公园,颗粒物(PM10),52,53,86,30,39,110,,,,14,13,3,3,0.6,0.5
2025-05-13T0200,3210A,114.3644,34.7964,开封市,汴京公园,颗粒物(PM10),53,55,84,30,32,107,,,,9,13,13,13,0.7,0.6
2025-05-13T0200,3473A,114.2485,34.8306,开封市,技师学院,细颗粒物(PM2.5),59,60,84,42,35,109,,,,11,12,6,6,0.8,0.7
2025-05-13T0200,3592A,114.4644,34.7556,开封市,祥符区生态环境局,,38,32,40,26,34,116,,,,14,16,7,8,0.5,0.5
2025-05-13T0200,1951A,84.895,45.6094,克拉玛依市,长征新村,,30,10,26,6,6,93,,,,2,4,8,8,0.1,0.1
2025-05-13T0200,1952A,84.8988,45.5893,克拉玛依市,南林小区,,31,16,11,3,6,99,,,,2,2,4,5,0.1,0.1
2025-05-13T0200,1954A,84.905,44.3396,克拉玛依市,独山子区,,,20,16,,8,,,,,8,7,7,8,0.4,0.4
2025-05-13T0200,1955A,85.6979,46.098,克拉玛依市,乌尔禾区商贸楼,,29,15,16,3,7,90,,,,1,2,10,10,0.3,0.3
2025-05-13T0200,3612A,85.1045,45.6899,克拉玛依市,白碱滩区新站,,32,,23,22,19,93,,,,1,2,11,11,0.4,0.4
2025-05-13T0200,2697A,76.1454,39.7142,克孜勒苏柯尔克孜自治州,市人民政府,颗粒物(PM10),138,226,44,64,11,120,,,,7,6,2,3,0.7,0.6
2025-05-13T0200,3665A,76.1658,39.7157,克孜勒苏柯尔克孜自治州,克州文化中心,颗粒物(PM10),102,153,47,65,13,121,,,,5,3,3,5,0.2,0.1
2025-05-13T0200,1450A,102.8204,24.8886,昆明市,呈贡新区,,28,28,30,17,20,86,,,,16,18,6,7,0.5,0.5
2025-05-13T0200,1451A,102.6251,24.9608,昆明市,西山森林公园,,,,,,,,,,,,,,,,
2025-05-13T0200,1452A,102.7252,25.0902,昆明市,龙泉镇,,28,28,28,18,18,88,,,,12,15,9,10,0.4,0.4
2025-05-13T0200,1453A,102.7266,25.0375,昆明市,东风东路,,32,32,32,19,23,90,,,,13,16,8,11,0.6,0.5
2025-05-13T0200,1454A,102.6742,25.0669,昆明市,金鼎山,,33,33,32,22,20,85,,,,16,17,5,4,0.5,0.6
2025-05-13T0200,1455A,102.6644,25.0401,昆明市,碧鸡广场,,38,38,32,24,19,76,,,,20,21,10,8,0.4,0.5
2025-05-13T0200,3179A,102.7494,25.0119,昆明市,官渡区博物馆,,,,30,,17,,,115,,,11,,9,,0.5
2025-05-13T0200,3375A,102.8017,24.8336,昆明市,青年创业园,,30,30,26,16,14,80,,,,19,13,8,9,0.2,0.2
2025-05-13T0200,3550A,102.7997,24.9786,昆明市,昆明学院,,34,34,31,19,19,89,,,,11,16,5,7,0.5,0.5
2025-05-13T0200,3551A,102.5967,24.6736,昆明市,晋宁区生态环境分局,,30,14,21,12,16,93,,,,7,11,4,5,0.6,0.6
2025-05-13T0200,3552A,102.6678,24.9856,昆明市,云天化总部,,36,35,25,25,18,84,,,,14,14,7,9,0.9,0.7
2025-05-13T0200,1456A,91.1319,29.6514,拉萨市,八廓街,,41,16,18,3,8,130,,,,7,7,6,6,0.2,0.3
2025-05-13T0200,1457A,91.1221,29.6747,拉萨市,市环保局,,39,9,20,6,8,123,,,,8,9,4,4,0.4,0.4
2025-05-13T0200,1458A,91.0874,29.6475,拉萨市,区监测站,,42,19,14,18,8,132,,,,13,10,6,6,0.4,0.4
2025-05-13T0200,1459A,91.1774,29.6541,拉萨市,西藏大学,,38,11,19,6,9,121,,,,8,10,6,6,0.4,0.4
2025-05-13T0200,1460A,90.9798,29.6588,拉萨市,区辐射站,,35,12,16,8,8,110,,,,11,11,5,5,0.4,0.4
2025-05-13T0200,1461A,91.0834,29.6292,拉萨市,拉萨火车站,,41,7,13,3,7,130,,,,6,5,4,4,0.3,0.4
2025-05-13T0200,2520A,109.2203,23.7256,来宾市,来宾技工学校,细颗粒物(PM2.5),70,75,53,51,31,31,,,,51,25,9,10,0.7,0.6
2025-05-13T0200,3535A,109.1781,23.7297,来宾市,兴宾区政府,颗粒物(PM10),55,60,45,35,25,48,,,,33,20,4,8,0.5,0.4
2025-05-13T0200,4002A,109.2416,23.7461,来宾市,中南小学,细颗粒物(PM2.5),64,72,58,46,30,34,,,,40,29,10,12,0.6,0.5
2025-05-13T0200,1477A,104.1373,35.9454,兰州市,榆中兰大校区,,,,,,,,,,,,,,,,
2025-05-13T0200,1479A,103.831,36.0464,兰州市,铁路设计院,颗粒物(PM10),76,102,69,47,34,2,,,,88,67,10,14,0.8,0.7
2025-05-13T0200,3241A,103.7439,36.0842,兰州市,百合公园,颗粒物(PM10),65,79,67,33,22,6,,,,74,49,7,10,0.6,0.6
2025-05-13T0200,3242A,103.9611,35.998,兰州市,和平,颗粒物(PM10),69,88,72,30,35,91,,,,11,21,4,8,0.3,0.4
2025-05-13T0200,4236A,103.6293,36.0938,兰州市,庄浪东路808号,颗粒物(PM10),60,69,67,33,27,60,,,,36,46,8,20,0.2,0.5
2025-05-13T0200,4237A,103.7251,36.1043,兰州市,安宁西路88号,颗粒物(PM10),65,80,74,34,30,14,,,,63,40,5,10,0.3,0.5
2025-05-13T0200,4238A,103.8470,36.0676,兰州市,北滨河东路1号,颗粒物(PM10),80,110,81,34,26,1,,,,83,54,8,13,0.7,0.7
2025-05-13T0200,3245A,103.6633,36.533,兰州新区,新区管委会,颗粒物(PM10),56,62,42,29,25,53,,,,27,14,10,14,0.3,0.3
2025-05-13T0200,3246A,103.6975,36.4789,兰州新区,舟曲中学,颗粒物(PM10),67,84,52,28,17,39,,,,53,19,20,11,0.6,0.5
2025-05-13T0200,1067A,116.6708,39.5111,廊坊市,药材公司,颗粒物(PM10),69,87,94,39,51,100,,,,17,32,4,6,0.4,0.5
2025-05-13T0200,1068A,116.7214,39.5589,廊坊市,开发区,颗粒物(PM10),68,85,98,31,44,111,,,,17,38,3,4,0.3,0.4
2025-05-13T0200,1070A,116.7244,39.5269,廊坊市,北华航天学院,颗粒物(PM10),74,98,110,36,57,104,,,,17,41,5,7,0.4,0.5
2025-05-13T0200,2919A,116.7022,39.5453,廊坊市,河北工业大学,颗粒物(PM10),69,88,105,36,49,112,,,,14,36,5,7,0.3,0.5
2025-05-13T0200,2535A,103.7723,29.5462,乐山市,花湖湾,细颗粒物(PM2.5),99,98,91,74,70,128,,,,25,23,9,8,0.8,1
2025-05-13T0200,2536A,103.7627,29.5844,乐山市,牛耳桥,细颗粒物(PM2.5),93,105,107,69,87,109,,,,36,33,13,11,0.9,1
2025-05-13T0200,2537A,103.7508,29.6006,乐山市,市第三水厂,细颗粒物(PM2.5),87,92,102,64,76,113,,,,34,32,11,9,1.0,1
2025-05-13T0200,2538A,103.7571,29.5664,乐山市,市监测站,细颗粒物(PM2.5),82,93,94,60,68,130,,,,25,24,13,12,1.0,1.1
2025-05-13T0200,3361A,103.7311,29.5628,乐山市,理工大学,细颗粒物(PM2.5),97,94,89,72,68,124,,,,26,27,12,9,1.0,1
2025-05-13T0200,2598A,100.2143,26.8576,丽江市,西南郊,,,,26,,18,,,78,,,9,,5,,0.9
2025-05-13T0200,2599A,100.2497,26.8802,丽江市,丽江古城,,30,26,26,21,20,72,,,,12,14,8,9,0.6,0.6
2025-05-13T0200,2600A,100.2203,26.8906,丽江市,市中心,,32,16,20,14,18,101,,,,9,15,8,8,0.6,0.7
2025-05-13T0200,1267A,119.914,28.4514,丽水市,监测站大楼,,35,22,35,20,19,110,,,,16,16,3,3,0.1,0.1
2025-05-13T0200,1268A,119.93,28.4586,丽水市,莲都小学,,38,30,38,26,22,99,,,,21,14,4,4,0.2,0.2
2025-05-13T0200,1269A,119.879,28.4231,丽水市,余庄前,,31,28,32,18,21,98,,,,9,11,3,4,0.2,0.3
2025-05-13T0200,1173A,119.176,34.5885,连云港市,市环境监测站,,44,44,51,22,24,118,,,,17,16,8,7,0.5,0.4
2025-05-13T0200,3000A,119.3581,34.6972,连云港市,德源药业,,,,,,,,,,,,,,,,
2025-05-13T0200,3007A,119.178,34.844,连云港市,新城一中,颗粒物(PM10),53,56,59,34,30,107,,,,25,18,8,8,0.5,0.5
2025-05-13T0200,3008A,119.3608,34.7519,连云港市,胡沟管理处,,44,31,42,17,19,139,,,,13,16,9,9,0.6,0.6
2025-05-13T0200,3009A,119.1478,34.5911,连云港市,矿山设计院,,46,41,53,22,23,146,,,,12,15,8,8,0.4,0.4
2025-05-13T0200,3434A,119.2413,34.6539,连云港市,工贸学校,,45,45,48,28,27,135,,,,14,15,10,9,0.4,0.4
2025-05-13T0200,3664A,119.4172,34.7341,连云港市,连云街道,,48,48,51,23,21,150,,,,9,10,10,9,0.4,0.5
2025-05-13T0200,2571A,102.3431,27.8099,凉山彝族自治州,青龙寺,,30,25,27,7,9,93,,,,14,10,4,6,0.5,0.6
2025-05-13T0200,2572A,102.2721,27.8415,凉山彝族自治州,邛海宾馆,,30,26,41,16,21,96,,,,15,15,7,10,0.7,0.8
2025-05-13T0200,2573A,102.2625,27.898,凉山彝族自治州,西昌市政府,,30,26,36,21,24,96,,,,14,11,18,15,1.2,0.9
2025-05-13T0200,2574A,102.2685,27.8851,凉山彝族自治州,凉山州政府,,29,27,35,20,20,92,,,,17,13,14,11,1.6,1.2
2025-05-13T0200,4229A,102.2342,27.8859,凉山彝族自治州,凯乐南路30号,,36,36,47,23,26,89,,,,14,23,22,14,1.6,1.3
2025-05-13T0200,2212A,123.2,41.1953,辽阳市,宏伟区,臭氧1小时,84,48,47,33,53,187,,,,5,7,7,8,0.5,0.5
2025-05-13T0200,2213A,123.1683,41.2495,辽阳市,新华园,臭氧1小时,63,67,49,42,35,170,,,,5,8,6,7,0.6,0.5
2025-05-13T0200,2214A,123.2354,41.2639,辽阳市,滨河路,臭氧1小时,63,48,48,41,31,170,,,,10,14,7,8,0.5,0.4
2025-05-13T0200,2215A,123.149,41.2991,辽阳市,铁西工业园,细颗粒物(PM2.5),77,67,62,56,49,166,,,,4,7,6,6,0.5,0.5
2025-05-13T0200,2227A,125.1358,42.8845,辽源市,环保局,,,,44,,23,,,72,,,30,,7,,0.7
2025-05-13T0200,3239A,125.0764,42.9078,辽源市,银鹰制药,臭氧1小时,58,34,44,18,24,166,,,,12,18,3,3,0.4,0.5
2025-05-13T0200,1625A,115.9848,36.4372,聊城市,区政府,颗粒物(PM10),57,63,71,25,23,121,,,,9,12,7,7,0.7,0.6
2025-05-13T0200,2878A,116.0072,36.4343,聊城市,聊大东校,颗粒物(PM10),58,66,71,27,30,118,,,,10,13,7,8,0.2,0.3
2025-05-13T0200,3200A,115.9819,36.4978,聊城市,监控中心,颗粒物(PM10),60,70,73,22,22,124,,,,9,14,8,9,0.6,0.5
2025-05-13T0200,3513A,116.0445,36.4361,聊城市,九州社区,颗粒物(PM10),53,55,60,20,20,132,,,,10,13,6,7,0.4,0.4
2025-05-13T0200,4018A,116.0567,36.4608,聊城市,星美广场,颗粒物(PM10),54,58,58,19,17,126,,,,8,12,10,10,0.5,0.5
2025-05-13T0200,2632A,94.3681,29.6376,林芝市,林芝监测站,,29,6,13,3,8,90,,,,5,7,5,5,0.2,0.2
2025-05-13T0200,2633A,94.3616,29.6616,林芝市,林芝人民医院,,26,9,17,3,8,81,,,,2,3,6,5,0.2,0.2
2025-05-13T0200,2603A,100.0781,23.8982,临沧市,市环保局,,43,,31,30,35,36,,,,12,9,6,7,0.7,0.7
2025-05-13T0200,2604A,100.0894,23.8822,临沧市,市气象局,,42,,26,29,25,46,,,,10,11,9,8,0.7,0.6
2025-05-13T0200,1733A,111.5531,36.0783,临汾市,临钢医院,颗粒物(PM10),81,111,59,31,17,11,,,,67,29,8,7,0.9,0.8
2025-05-13T0200,1734A,111.5028,36.0714,临汾市,技工学校,颗粒物(PM10),71,92,59,36,26,52,,,,38,24,16,12,0.9,0.8
2025-05-13T0200,1736A,111.5018,36.0855,临汾市,市委,颗粒物(PM10),86,122,67,38,19,30,,,,56,29,12,12,1.0,0.8
2025-05-13T0200,3018A,111.505,36.1014,临汾市,唐尧大酒店,颗粒物(PM10),80,110,76,35,24,11,,,,63,32,6,7,0.9,0.8
2025-05-13T0200,4244A,111.4879,36.0530,临汾市,启星学校,颗粒物(PM10),65,79,63,44,24,33,,,,42,27,12,11,0.9,0.8
2025-05-13T0200,4271A,103.2464,35.6123,临夏回族自治州,滨河东路1号,细颗粒物(PM2.5),82,106,70,60,48,22,,,,37,28,8,9,0.5,0.4
2025-05-13T0200,4310A,103.2093,35.5995,临夏回族自治州,新华街21号,细颗粒物(PM2.5),140,,71,107,39,44,,,,27,25,8,10,0.5,0.5
2025-05-13T0200,1618A,118.3429,35.0532,临沂市,沂河小区,,49,48,69,34,32,110,,,,17,17,12,12,0.3,0.3
2025-05-13T0200,1619A,118.295,35.0583,临沂市,鲁南制药厂,颗粒物(PM10),51,51,63,29,30,117,,,,22,21,12,11,0.4,0.4
2025-05-13T0200,1620A,118.2794,34.9976,临沂市,新光毛纺厂,颗粒物(PM10),57,63,64,29,29,93,,,,36,24,21,15,0.3,0.3
2025-05-13T0200,1621A,118.3956,35.0888,临沂市,河东保险公司,,41,41,55,18,30,126,,,,10,14,13,10,0.3,0.3
2025-05-13T0200,3370A,118.3564,35.0215,临沂市,十里堡居委,,46,46,65,31,30,116,,,,24,25,14,9,0.4,0.5
2025-05-13T0200,3496A,118.3604,35.1084,临沂市,南坊新区,,46,46,63,19,25,114,,,,15,16,12,10,0.1,0.2
2025-05-13T0200,3860A,118.3920,35.0300,临沂市,皇山花园小区,,43,41,67,30,32,112,,,,21,24,19,14,0.4,0.5
2025-05-13T0200,1870A,109.4856,24.3895,柳州市,柳东小学,颗粒物(PM10),52,54,45,29,28,37,,,,50,22,11,14,0.6,0.5
2025-05-13T0200,1871A,109.4157,24.3277,柳州市,环保监测站,颗粒物(PM10),60,69,58,39,30,56,,,,27,27,4,8,0.7,0.8
2025-05-13T0200,1872A,109.389,24.341,柳州市,河西水厂,颗粒物(PM10),69,88,63,43,28,13,,,,70,32,8,10,0.7,0.5
2025-05-13T0200,1873A,109.4311,24.2921,柳州市,市四中,颗粒物(PM10),62,73,54,39,27,28,,,,55,33,11,12,0.7,0.7
2025-05-13T0200,1874A,109.4006,24.3631,柳州市,市九中,细颗粒物(PM2.5),69,62,61,50,28,42,,,,33,28,10,12,0.5,0.7
2025-05-13T0200,1875A,109.4958,24.3134,柳州市,古亭山,,34,32,43,16,20,23,,,,67,31,7,9,0.8,0.8
2025-05-13T0200,3402A,109.5422,24.3996,柳州市,市二中,颗粒物(PM10),57,63,48,38,32,9,,,,74,37,11,17,0.5,0.5
2025-05-13T0200,2307A,116.5079,31.737,六安市,监测大楼,,45,34,34,31,25,137,,,,10,12,4,3,0.4,0.3
2025-05-13T0200,2308A,116.4738,31.7643,六安市,皖西学院,,45,45,39,29,21,144,,,,10,11,7,5,0.3,0.2
2025-05-13T0200,2309A,116.4996,31.7905,六安市,朝阳厂,,46,35,32,32,20,136,,,,14,18,4,4,0.3,0.2
2025-05-13T0200,2310A,116.5567,31.7886,六安市,开发区,颗粒物(PM10),62,74,56,35,26,103,,,,25,19,6,6,0.4,0.4
2025-05-13T0200,2576A,104.8,26.5892,六盘水市,窑上,,25,19,34,17,18,41,,,,6,8,5,6,0.4,0.4
2025-05-13T0200,2577A,104.83,26.5917,六盘水市,黄土坡,,30,27,34,19,19,96,,,,8,16,10,10,0.5,0.5
2025-05-13T0200,2578A,104.89,26.5939,六盘水市,水钢,,32,24,37,14,18,100,,,,6,8,10,11,0.5,0.4
2025-05-13T0200,2579A,104.8475,26.5894,六盘水市,民中,,29,27,33,14,17,91,,,,7,13,9,9,0.3,0.4
2025-05-13T0200,2580A,104.9544,26.5506,六盘水市,双水,,31,29,34,8,12,97,,,,8,11,10,10,0.1,0.2
2025-05-13T0200,2335A,117.0189,25.1181,龙岩市,龙岩师专,,,,,,,,,,,,,,,,
2025-05-13T0200,2336A,117.0217,25.1033,龙岩市,龙岩市监测站,,39,39,28,27,19,57,,,,25,18,22,11,0.5,0.4
2025-05-13T0200,2337A,117.0258,25.0661,龙岩市,闽西职业技术学院,细颗粒物(PM2.5),53,53,37,37,21,91,,,,15,16,25,26,0.5,0.4
2025-05-13T0200,2338A,117.0196,25.0306,龙岩市,龙岩学院,,35,32,28,24,17,96,,,,10,12,9,9,0.4,0.4
2025-05-13T0200,2665A,105.0822,33.3261,陇南市,汉王镇固水子,,,,,,,,,,,,,,,,
2025-05-13T0200,2885A,104.9339,33.3826,陇南市,滨江中学,,36,36,68,20,34,98,,,,2,6,9,10,0.3,0.2
2025-05-13T0200,3247A,104.955,33.371,陇南市,市总工会,,39,39,61,15,30,101,,,,4,6,7,8,0.4,0.4
2025-05-13T0200,2487A,111.9589,27.8901,娄底市,电视发射台,细颗粒物(PM2.5),58,55,54,41,31,59,,,,12,6,7,9,1.2,0.6
2025-05-13T0200,2488A,111.9975,27.725,娄底市,市监测站,细颗粒物(PM2.5),112,87,64,84,45,30,,,,51,26,13,16,0.9,0.7
2025-05-13T0200,2489A,112.0194,27.7314,娄底市,市委党校,细颗粒物(PM2.5),112,95,68,84,46,50,,,,28,17,4,5,0.6,0.5
2025-05-13T0200,2490A,111.9561,27.7569,娄底市,涟钢,细颗粒物(PM2.5),103,112,64,77,40,46,,,,22,26,20,29,0.6,0.8
2025-05-13T0200,2491A,111.9892,27.7044,娄底市,市政府,细颗粒物(PM2.5),105,104,59,79,41,48,,,,16,11,8,9,0.7,0.6
2025-05-13T0200,1893A,105.4324,28.9634,泸州市,九狮山,,,,,,,,,,,,,,,,
2025-05-13T0200,1894A,105.4427,28.9063,泸州市,小市上码头,细颗粒物(PM2.5),103,115,70,77,42,85,,,,35,22,7,10,1.0,0.8
2025-05-13T0200,1895A,105.4241,28.8573,泸州市,兰田宪桥,细颗粒物(PM2.5),100,129,81,75,44,52,,,,32,23,10,11,0.6,0.6
2025-05-13T0200,1896A,105.4379,28.8833,泸州市,市环监站,细颗粒物(PM2.5),102,113,84,76,47,106,,,,26,33,12,14,0.6,0.4
2025-05-13T0200,4272A,105.3689,28.7783,泸州市,纳溪中医医院,细颗粒物(PM2.5),82,86,71,60,42,38,,,,34,35,8,9,0.6,0.5
2025-05-13T0200,2183A,111.1406,37.5211,吕梁市,环保局,,,77,97,23,24,,,,,45,40,4,4,1.0,0.5
2025-05-13T0200,2185A,111.1297,37.5136,吕梁市,自来水公司,颗粒物(PM10),118,185,94,42,26,3,,,,61,41,6,6,0.9,0.9
2025-05-13T0200,2867A,111.1283,37.51,吕梁市,马茂庄小学,颗粒物(PM10),68,86,90,32,24,24,,,,50,41,6,8,0.7,0.6
2025-05-13T0200,1812A,112.3931,34.6516,洛阳市,市委党校,"颗粒物(PM10),细颗粒物(PM2.5)",60,69,51,43,25,103,,,,15,18,12,9,0.7,0.5
2025-05-13T0200,1815A,112.494,34.6886,洛阳市,河南林校,颗粒物(PM10),58,66,53,40,30,113,,,,11,17,14,10,0.4,0.4
2025-05-13T0200,1816A,112.3844,34.623,洛阳市,开发区管委会,颗粒物(PM10),65,79,54,45,26,84,,,,24,16,12,9,0.5,0.4
2025-05-13T0200,1817A,112.4267,34.6258,洛阳市,市委新办公区,颗粒物(PM10),68,86,38,38,17,110,,,,16,15,18,14,1.0,0.4
2025-05-13T0200,3340A,112.6005,34.6326,洛阳市,伊滨,细颗粒物(PM2.5),102,80,74,76,35,62,,,,28,17,7,10,0.6,0.5
2025-05-13T0200,3341A,112.4951,34.6332,洛阳市,中移产业园,颗粒物(PM10),66,82,58,34,25,125,,,,11,14,12,8,0.6,0.4
2025-05-13T0200,3593A,112.5736,34.8993,洛阳市,吉利监测站,颗粒物(PM10),62,73,49,29,20,51,,,,33,22,9,9,0.5,0.4
2025-05-13T0200,3635A,112.3677,34.662,洛阳市,河科大西苑校区,颗粒物(PM10),65,80,55,34,23,109,,,,14,20,19,12,0.5,0.4
2025-05-13T0200,3636A,112.4388,34.6781,洛阳市,英才小学,颗粒物(PM10),62,73,56,35,27,122,,,,17,28,17,8,0.5,0.4
2025-05-13T0200,4214A,112.4600,34.6949,洛阳市,春都路1号院,颗粒物(PM10),61,72,63,33,27,124,,,,12,21,18,9,0.4,0.4
2025-05-13T0200,2399A,114.051,33.5699,漯河市,三五一五工厂,,50,50,61,31,31,96,,,,17,11,7,5,0.5,0.5
2025-05-13T0200,2400A,114.0055,33.5698,漯河市,漯河大学,颗粒物(PM10),52,53,60,27,27,122,,,,9,12,7,7,0.4,0.4
2025-05-13T0200,2401A,114.0138,33.5828,漯河市,市水利局,颗粒物(PM10),57,63,60,36,29,114,,,,11,11,7,5,0.3,0.2
2025-05-13T0200,2402A,114.0261,33.5698,漯河市,市广电局,细颗粒物(PM2.5),54,49,52,38,38,107,,,,12,8,8,5,0.5,0.4
2025-05-13T0200,3478A,113.9749,33.5664,漯河市,市图书馆,颗粒物(PM10),51,52,68,33,35,122,,,,14,14,7,5,0.2,0.2
2025-05-13T0200,4250A,114.0892,33.5882,漯河市,韶山路11号,颗粒物(PM10),52,54,63,30,29,108,,,,8,8,6,5,0.4,0.4
2025-05-13T0200,1798A,118.5092,31.6837,马鞍山市,湖东路四小,细颗粒物(PM2.5),62,58,54,44,30,67,,,,50,23,10,7,1.0,0.7
2025-05-13T0200,1799A,118.5024,31.6449,马鞍山市,开发区,细颗粒物(PM2.5),65,74,58,47,32,48,,,,56,31,16,12,1.4,0.8
2025-05-13T0200,1802A,118.6245,31.7241,马鞍山市,濮塘,细颗粒物(PM2.5),59,59,56,42,33,83,,,,24,19,13,11,1.5,1
2025-05-13T0200,3633A,118.4918,31.6809,马鞍山市,雨山,颗粒物(PM10),71,92,59,49,33,44,,,,68,30,15,10,1.1,0.7
2025-05-13T0200,4191A,118.5274,31.72227,马鞍山市,慈湖高新区,细颗粒物(PM2.5),67,70,56,48,33,65,,,,50,30,15,10,1.0,0.7
2025-05-13T0200,1686A,111.0286,21.4688,茂名市,电白南海,,42,41,42,29,24,94,,,,16,14,5,7,1.0,1
2025-05-13T0200,1687A,110.9294,21.6533,茂名市,茂石化七小,,36,36,43,14,20,105,,,,10,14,8,14,0.5,0.4
2025-05-13T0200,1688A,110.9107,21.6687,茂名市,健康路,,37,36,38,22,24,118,,,,7,12,6,13,0.8,0.8
2025-05-13T0200,1689A,110.8592,21.6828,茂名市,高岭,颗粒物(PM10),51,51,52,14,20,103,,,,14,14,11,12,0.5,1
2025-05-13T0200,3450A,111.01,21.5165,茂名市,电白水东,,34,34,35,14,16,93,,,,19,17,10,7,0.4,0.4
2025-05-13T0200,2539A,104.0308,30.0478,眉山市,黑龙滩水库,细颗粒物(PM2.5),69,85,50,50,34,138,,,,20,12,4,4,0.7,0.7
2025-05-13T0200,2540A,103.8416,30.0874,眉山市,气象局,颗粒物(PM10),61,72,94,41,53,168,,,,12,35,9,4,0.4,0.5
2025-05-13T0200,3137A,103.8578,30.0744,眉山市,市委党校,颗粒物(PM10),63,75,86,36,52,163,,,,11,37,10,12,0.3,0.5
2025-05-13T0200,3148A,103.8291,30.0564,眉山市,区人社局,臭氧1小时,72,79,65,34,44,177,,,,13,42,13,15,0.4,0.6
2025-05-13T0200,1690A,116.1231,24.3284,梅州市,梅江月梅,,48,48,28,24,18,30,,,,48,16,8,8,0.7,0.7
2025-05-13T0200,1691A,116.0797,24.2719,梅州市,梅县新城,,31,31,29,17,18,86,,,,13,16,7,7,0.7,0.7
2025-05-13T0200,1692A,116.1248,24.2654,梅州市,环境监控中心,,42,42,28,27,17,29,,,,50,25,8,11,0.7,0.6
2025-05-13T0200,3315A,116.1233,24.2991,梅州市,梅龙,颗粒物(PM10),53,56,31,19,18,19,,,,65,20,7,8,0.4,0.4
2025-05-13T0200,1878A,104.7778,31.4741,绵阳市,富乐山,颗粒物(PM10),69,88,75,46,48,84,,,,13,17,8,9,0.6,0.6
2025-05-13T0200,1880A,104.6697,31.4668,绵阳市,高新区自来水公司,颗粒物(PM10),52,54,80,19,38,117,,,,11,29,3,5,0.5,0.6
2025-05-13T0200,1881A,104.7287,31.5075,绵阳市,三水厂,颗粒物(PM10),94,137,94,49,48,111,,,,10,30,8,9,0.5,0.6
2025-05-13T0200,3491A,104.69,31.5322,绵阳市,西科大附属小学,颗粒物(PM10),54,58,81,29,43,110,,,,10,27,6,8,1.0,0.9
2025-05-13T0200,3492A,104.5648,31.5343,绵阳市,安州区旅游局,颗粒物(PM10),52,54,72,24,37,120,,,,7,16,8,9,0.3,0.4
2025-05-13T0200,4226A,104.7651,31.4531,绵阳市,绵阳市气象局,细颗粒物(PM2.5),72,84,74,52,44,105,,,,11,24,8,6,0.6,0.7
2025-05-13T0200,1784A,129.61,44.561,牡丹江市,环保大楼,,46,,28,32,20,82,,,,14,15,8,7,0.2,0.3
2025-05-13T0200,1785A,129.6115,44.5782,牡丹江市,文化广场,,35,24,32,24,24,80,,,,18,21,16,11,0.4,0.4
2025-05-13T0200,1786A,129.5904,44.5963,牡丹江市,第一医院,,42,,33,29,23,78,,,,15,16,8,6,0.4,0.4
2025-05-13T0200,1787A,129.6364,44.6075,牡丹江市,机车工厂,,33,33,43,18,17,55,,,,19,17,11,8,0.5,0.4
2025-05-13T0200,1788A,129.6386,44.5462,牡丹江市,第一中学,,31,31,29,18,14,76,,,,22,17,4,5,0.4,0.4
2025-05-13T0200,2531A,105.0703,29.61,内江市,市监测站,细颗粒物(PM2.5),226,,77,176,73,93,,,,28,20,28,19,1.4,0.8
2025-05-13T0200,2532A,105.0717,29.5947,内江市,东兴区政府,细颗粒物(PM2.5),193,152,68,145,58,102,,,,28,22,27,19,1.1,0.6
2025-05-13T0200,2533A,105.0653,29.5817,内江市,内江二中,细颗粒物(PM2.5),222,209,85,172,68,92,,,,30,23,19,11,1.4,0.7
2025-05-13T0200,2534A,105.0406,29.5822,内江市,内江日报社,细颗粒物(PM2.5),208,160,76,158,69,88,,,,36,24,19,10,1.3,0.7
2025-05-13T0200,2628A,92.0657,31.4846,那曲市,那曲监测站,,36,6,19,3,14,115,,,,7,19,8,7,0.5,0.6
2025-05-13T0200,4243A,92.0515,31.4787,那曲市,那曲市委宣传部,,41,8,11,3,6,130,,,,9,12,10,10,0.6,0.4
2025-05-13T0200,1290A,115.8931,28.6843,南昌市,省外办,细颗粒物(PM2.5),58,53,45,41,34,44,,,,69,29,10,12,0.6,0.5
2025-05-13T0200,1291A,115.8886,28.7003,南昌市,省林业公司,,49,46,46,34,30,37,,,,61,24,9,14,0.8,0.7
2025-05-13T0200,1292A,115.8126,28.7442,南昌市,林科所,颗粒物(PM10),69,88,47,34,26,9,,,,98,49,7,7,0.6,0.4
2025-05-13T0200,1294A,115.8518,28.687,南昌市,建工学校,细颗粒物(PM2.5),64,69,65,46,45,56,,,,54,30,6,10,0.6,0.5
2025-05-13T0200,1295A,115.8921,28.6424,南昌市,象湖,颗粒物(PM10),57,63,54,31,28,16,,,,89,32,12,13,0.7,0.6
2025-05-13T0200,1296A,115.7423,28.7996,南昌市,武术学校,,35,,27,24,15,29,,,,5,6,2,4,0.4,0.4
2025-05-13T0200,3046A,115.9084,28.6062,南昌市,机电学校,颗粒物(PM10),64,77,59,41,32,31,,,,65,33,7,9,0.5,0.4
2025-05-13T0200,3690A,115.9721,28.7031,南昌市,外国语学校,颗粒物(PM10),60,69,50,41,30,81,,,,33,23,26,13,0.8,0.5
2025-05-13T0200,4192A,115.9316,28.68677,南昌市,南京东路235号,颗粒物(PM10),62,74,61,39,30,68,,,,31,22,11,9,0.9,0.7
2025-05-13T0200,1905A,106.056,30.8064,南充市,西山风景区,,,,,,,,,,,,,,,,
2025-05-13T0200,1906A,106.0789,30.8023,南充市,南充市委,细颗粒物(PM2.5),82,89,72,60,43,76,,,,24,25,7,6,0.6,0.5
2025-05-13T0200,1907A,106.1031,30.8217,南充市,南充炼油厂,细颗粒物(PM2.5),103,107,74,77,48,77,,,,22,17,9,7,0.5,0.4
2025-05-13T0200,4227A,106.1083,30.7884,南充市,梨树横街98号,细颗粒物(PM2.5),105,118,78,79,44,64,,,,26,20,6,5,0.7,0.4
2025-05-13T0200,4304A,106.1172,30.843,南充市,清泉寺北路188号,细颗粒物(PM2.5),95,126,80,71,46,84,,,,22,14,8,6,0.6,0.4
2025-05-13T0200,4305A,106.067,30.7616,南充市,同庆路1号,细颗粒物(PM2.5),92,78,74,68,59,71,,,,35,26,7,5,0.7,0.5
2025-05-13T0200,1151A,118.8086,32.1065,南京市,迈皋桥,,37,37,40,24,27,62,,,,35,28,4,12,0.4,0.4
2025-05-13T0200,1152A,118.7538,32.0551,南京市,草场门,颗粒物(PM10),53,56,53,34,28,73,,,,43,32,7,7,0.7,0.7
2025-05-13T0200,1153A,118.7794,32.0745,南京市,山西路,颗粒物(PM10),54,58,58,27,26,81,,,,40,29,9,10,0.6,0.6
2025-05-13T0200,1154A,118.7752,32.0023,南京市,中华门,,42,41,46,29,24,70,,,,40,31,11,13,0.5,0.4
2025-05-13T0200,1155A,118.8109,32.0309,南京市,瑞金路,,44,44,45,29,26,15,,,,52,31,6,6,0.8,0.8
2025-05-13T0200,1156A,118.7997,32.0754,南京市,玄武湖,,45,45,48,21,20,69,,,,16,12,4,5,0.6,0.5
2025-05-13T0200,1157A,118.6414,32.0931,南京市,浦口,颗粒物(PM10),54,58,52,30,24,21,,,,38,23,5,5,0.9,0.7
2025-05-13T0200,1158A,118.7356,31.9996,南京市,奥体中心,颗粒物(PM10),55,60,53,34,26,83,,,,35,28,11,11,0.8,0.7
2025-05-13T0200,1159A,118.9125,32.1028,南京市,仙林大学城,,46,46,57,27,25,36,,,,53,30,10,13,0.5,0.6
2025-05-13T0200,3422A,118.8436,31.9198,南京市,江宁彩虹桥,颗粒物(PM10),54,58,50,29,25,29,,,,83,35,4,4,0.5,0.5
2025-05-13T0200,3427A,118.8554,32.3578,南京市,六合雄州,颗粒物(PM10),51,52,52,20,26,32,,,,85,53,8,13,0.4,0.8
2025-05-13T0200,4249A,118.8708,31.3402,南京市,汶溪路181号,,40,,31,28,26,66,,,,26,16,5,4,0.4,0.3
2025-05-13T0200,4312A,119.019,31.6512,南京市,中山西路1号,,46,39,31,32,25,45,,,,38,35,5,5,0.5,0.4
2025-05-13T0200,1401A,108.3103,22.7881,南宁市,二十一中,,38,34,46,22,23,120,,,,22,26,11,9,1.1,0.7
2025-05-13T0200,1402A,108.3141,22.8528,南宁市,北湖,颗粒物(PM10),56,61,45,25,23,136,,,,15,26,14,11,0.8,0.5
2025-05-13T0200,1403A,108.3206,22.8225,南宁市,市监测站,,42,42,45,21,23,127,,,,14,27,14,10,0.7,0.4
2025-05-13T0200,1404A,108.3829,22.8037,南宁市,大自然花园,,42,40,44,24,22,134,,,,15,23,14,8,0.4,0.3
2025-05-13T0200,1405A,108.4394,22.7904,南宁市,仙葫,,38,36,38,24,23,121,,,,13,22,10,8,0.7,0.5
2025-05-13T0200,1406A,108.2397,22.8467,南宁市,区农职院,,46,46,47,22,22,119,,,,23,24,11,11,1.0,0.8
2025-05-13T0200,1407A,108.3275,22.735,南宁市,英华嘉园,,44,44,40,15,20,113,,,,30,25,15,12,0.6,0.4
2025-05-13T0200,3401A,108.4834,22.7618,南宁市,红星社区,,44,44,39,22,18,129,,,,12,18,12,10,0.4,0.3
2025-05-13T0200,4221A,108.2177,22.7774,南宁市,乐贤路16号,颗粒物(PM10),57,64,47,29,22,54,,,,69,26,10,7,0.8,0.6
2025-05-13T0200,2331A,118.0966,26.6761,南平市,茫荡山,,,,,,,,,,,,,,,,
2025-05-13T0200,2332A,118.1681,26.6369,南平市,南平市监测站,,32,25,29,22,19,80,,,,19,15,6,5,0.5,0.5
2025-05-13T0200,2333A,118.1825,26.6489,南平市,南平铝业有限公司,,29,29,31,18,21,91,,,,19,16,7,5,0.6,0.6
2025-05-13T0200,2334A,118.1756,26.6272,南平市,南平七中,,31,26,28,20,19,98,,,,12,11,6,5,0.6,0.6
2025-05-13T0200,1168A,120.9098,31.9663,南通市,狼山街道,,47,47,44,24,27,53,,,,81,41,7,7,0.4,0.6
2025-05-13T0200,1169A,120.86,32.0005,南通市,虹桥,,40,38,48,28,28,102,,,,35,51,5,5,0.6,0.6
2025-05-13T0200,1170A,120.87,32.02,南通市,城中,颗粒物(PM10),51,52,52,23,27,104,,,,35,42,7,7,0.5,0.6
2025-05-13T0200,1171A,120.94,31.93,南通市,星湖花园,细颗粒物(PM2.5),52,47,46,36,27,87,,,,44,33,13,7,0.4,0.4
2025-05-13T0200,1172A,120.81,32.0417,南通市,紫琅学院,,41,41,49,23,24,73,,,,39,35,6,7,0.5,0.7
2025-05-13T0200,3291A,121.067,32.062,南通市,通州监测站,,41,41,48,24,25,96,,,,28,26,6,9,0.5,0.6
2025-05-13T0200,3432A,120.9348,31.9883,南通市,环境教育馆,颗粒物(PM10),51,51,57,24,26,104,,,,34,28,10,7,0.3,0.4
2025-05-13T0200,2404A,112.5224,33.0122,南阳市,瓦房庄,颗粒物(PM10),56,62,71,34,34,127,,,,12,13,7,7,0.4,0.4
2025-05-13T0200,2405A,112.5003,32.9735,南阳市,汉画馆,颗粒物(PM10),55,59,63,28,33,120,,,,17,18,7,7,0.4,0.4
2025-05-13T0200,2406A,112.5573,33.027,南阳市,气象站,颗粒物(PM10),54,57,69,31,36,128,,,,11,10,7,7,0.4,0.4
2025-05-13T0200,2407A,112.5481,32.9689,南阳市,理工学院,颗粒物(PM10),56,62,65,33,36,123,,,,11,15,6,8,0.4,0.4
2025-05-13T0200,4008A,112.5234,32.9922,南阳市,卧龙区政府,"颗粒物(PM10),细颗粒物(PM2.5)",53,56,71,37,38,124,,,,15,17,6,6,0.5,0.5
2025-05-13T0200,1234A,121.8358,29.911,宁波市,区环保大楼,,49,33,40,29,24,155,,,,5,21,9,10,0.3,0.4
2025-05-13T0200,1235A,121.56,29.82,宁波市,万里学院,,45,32,35,22,25,141,,,,14,19,5,5,0.3,0.3
2025-05-13T0200,1236A,121.713,29.9572,宁波市,龙赛医院,,46,44,52,15,19,146,,,,8,16,6,7,0.3,0.3
2025-05-13T0200,1239A,121.633,29.7733,宁波市,钱湖水厂,,45,31,32,24,21,142,,,,6,9,8,8,0.2,0.2
2025-05-13T0200,1240A,121.5856,29.8635,宁波市,太古小学,,41,37,36,13,20,131,,,,13,13,6,6,0.3,0.4
2025-05-13T0200,1241A,121.524,29.8674,宁波市,市环境监测中心,,37,37,37,20,19,118,,,,20,19,12,11,0.6,0.7
2025-05-13T0200,2871A,121.6147,29.9017,宁波市,万里国际学校,,43,39,31,15,19,136,,,,15,14,9,9,0.5,0.5
2025-05-13T0200,3710A,121.5594,29.8975,宁波市,白沙活动中心,,43,30,32,19,19,137,,,,10,14,8,8,0.4,0.5
2025-05-13T0200,2339A,119.5001,26.6946,宁德市,金涵水库,,,,,,,,,,,,,,,,
2025-05-13T0200,2341A,119.5388,26.6612,宁德市,宁德市监测站,,34,,29,21,22,106,,,,8,12,5,5,0.6,0.5
2025-05-13T0200,3209A,119.5231,26.6562,宁德市,宁德一中,,30,27,29,7,18,95,,,,6,8,3,3,0.8,0.5
2025-05-13T0200,2618A,98.8601,25.8567,怒江傈僳族自治州,州监测站,,45,44,39,31,26,61,,,,6,8,9,9,0.4,0.4
2025-05-13T0200,2619A,98.8546,25.8417,怒江傈僳族自治州,泸水一中,,40,32,38,28,28,41,,,,9,13,6,6,0.4,0.4
2025-05-13T0200,1888A,101.6891,26.571,攀枝花市,弄弄坪,,35,26,38,20,25,109,,,,9,17,4,13,0.5,0.7
2025-05-13T0200,1889A,101.5769,26.5928,攀枝花市,河门口,,36,34,37,25,23,99,,,,12,18,22,16,0.5,0.9
2025-05-13T0200,1890A,101.7169,26.585,攀枝花市,炳草岗,,34,34,40,22,25,93,,,,14,21,2,10,0.6,0.7
2025-05-13T0200,1891A,101.7369,26.5008,攀枝花市,仁和,,35,32,31,19,20,110,,,,7,13,8,10,0.4,0.5
2025-05-13T0200,2835A,101.7227,26.567,攀枝花市,四十中小,,41,27,39,20,25,130,,,,3,17,6,17,0.6,0.8
2025-05-13T0200,1604A,122.0303,41.1489,盘锦市,开发区,细颗粒物(PM2.5),64,,51,46,38,138,,,,15,16,10,10,0.5,0.4
2025-05-13T0200,1605A,122.0485,41.0883,盘锦市,兴隆台,细颗粒物(PM2.5),67,52,58,48,34,145,,,,12,18,8,10,0.6,0.5
2025-05-13T0200,1606A,121.8297,41.1028,盘锦市,新生街道,细颗粒物(PM2.5),64,47,42,46,36,154,,,,14,18,9,10,0.6,0.5
2025-05-13T0200,1832A,113.3257,33.742,平顶山市,新华旅馆,颗粒物(PM10),57,63,69,29,29,137,,,,11,11,7,6,0.4,0.4
2025-05-13T0200,1833A,113.2919,33.737,平顶山市,规划设计院,颗粒物(PM10),57,64,71,33,33,135,,,,13,13,7,5,0.4,0.4
2025-05-13T0200,1834A,113.182,33.774,平顶山市,平顶山工学院,颗粒物(PM10),55,59,60,29,29,148,,,,6,16,4,4,0.3,0.3
2025-05-13T0200,3204A,113.3025,33.73,平顶山市,规划局,颗粒物(PM10),56,61,67,25,29,136,,,,7,8,8,7,0.4,0.4
2025-05-13T0200,3594A,112.8867,33.9116,平顶山市,石龙区,颗粒物(PM10),65,79,69,35,34,142,,,,11,11,7,8,0.5,0.5
2025-05-13T0200,2656A,106.6692,35.5461,平凉市,聚贤嘉苑,,48,48,52,30,21,73,,,,30,28,10,10,0.7,0.3
2025-05-13T0200,2657A,106.7021,35.5307,平凉市,博物馆,颗粒物(PM10),52,53,58,19,19,71,,,,27,26,11,11,0.3,0.4
2025-05-13T0200,2347A,114.0997,27.5002,萍乡市,武功山,,22,16,21,15,17,70,,,,5,5,15,15,0.5,0.5
2025-05-13T0200,2348A,113.8385,27.6434,萍乡市,中医院,颗粒物(PM10),53,56,46,36,24,36,,,,28,17,10,10,0.7,0.7
2025-05-13T0200,2349A,113.8493,27.6253,萍乡市,市政府车库,,33,33,35,18,28,42,,,,18,15,6,6,0.6,0.4
2025-05-13T0200,2350A,113.8676,27.6435,萍乡市,市环保局,细颗粒物(PM2.5),69,60,47,50,30,43,,,,39,20,12,7,0.7,0.8
2025-05-13T0200,2351A,113.866,27.6198,萍乡市,安源区政府,颗粒物(PM10),51,51,40,35,21,41,,,,20,11,6,4,4.3,0.8
2025-05-13T0200,2319A,119.0141,25.4325,莆田市,荔城区仓后路,,44,27,32,18,17,138,,,,9,13,4,4,0.5,0.6
2025-05-13T0200,2320A,119.0015,25.4553,莆田市,莆田市监测站,,42,26,28,19,19,132,,,,7,9,5,5,0.5,0.6
2025-05-13T0200,2321A,119.1119,25.4561,莆田市,涵江区六中,,43,34,35,20,20,136,,,,11,18,4,5,0.4,0.5
2025-05-13T0200,2322A,119.1013,25.3215,莆田市,秀屿区政府,,46,30,32,22,22,146,,,,8,13,4,5,0.5,0.6
2025-05-13T0200,2323A,118.981,25.4792,莆田市,东圳水库,,,,,,,,,,,,,,,,
2025-05-13T0200,2392A,115.0312,35.7636,濮阳市,环保局,颗粒物(PM10),52,53,57,22,21,120,,,,10,14,7,8,0.7,0.7
2025-05-13T0200,2394A,115.0574,35.7609,濮阳市,油田运输公司,颗粒物(PM10),54,57,63,21,22,130,,,,10,15,6,8,0.6,0.6
2025-05-13T0200,3021A,115,35.7668,濮阳市,濮水河管理处,颗粒物(PM10),51,52,64,24,23,39,,,,10,14,4,7,0.5,0.6
2025-05-13T0200,4216A,115.0924,35.7686,濮阳市,任丘路479号,颗粒物(PM10),55,60,64,25,22,115,,,,12,16,6,8,0.5,0.5
2025-05-13T0200,2601A,100.98,22.7633,普洱市,市环保局,,40,28,27,28,14,80,,,,2,4,7,7,0.6,0.6
2025-05-13T0200,2602A,100.9817,22.8322,普洱市,普洱第二中学,,24,18,16,7,14,75,,,,5,7,7,7,0.6,0.6
2025-05-13T0200,2262A,131.0518,45.8751,七台河市,新一中,,48,36,38,33,27,100,,,,9,12,12,11,0.9,0.8
2025-05-13T0200,3345A,131.0577,45.7879,七台河市,中波台,,29,17,45,8,11,91,,,,12,19,7,8,0.3,0.4
2025-05-13T0200,3637A,131.0176,45.7761,七台河市,人民广场,,39,34,55,27,30,97,,,,8,19,13,13,0.7,0.7
2025-05-13T0200,3684A,130.8781,45.8222,七台河市,新建矿广场,,36,,87,25,26,69,,,,13,21,14,14,0.7,0.7
2025-05-13T0200,1779A,123.9305,47.3636,齐齐哈尔市,安居小区,颗粒物(PM10),78,106,80,55,51,71,,,,18,20,9,9,0.8,0.6
2025-05-13T0200,1780A,123.9488,47.3386,齐齐哈尔市,中心广场,颗粒物(PM10),81,112,94,56,51,77,,,,24,21,2,2,0.7,0.5
2025-05-13T0200,1781A,123.9483,47.3227,齐齐哈尔市,农牧车辆厂,细颗粒物(PM2.5),72,92,80,52,48,69,,,,19,17,8,7,0.4,0.4
2025-05-13T0200,1783A,123.945,47.2988,齐齐哈尔市,市环境监测站,细颗粒物(PM2.5),85,83,85,63,51,74,,,,16,16,6,4,0.6,0.5
2025-05-13T0200,3662A,123.6333,47.2075,齐齐哈尔市,富区青少年活动中心,细颗粒物(PM2.5),89,75,81,66,63,62,,,,14,12,5,5,0.8,0.7
2025-05-13T0200,2591A,107.9783,26.5747,黔东南苗族侗族自治州,市环境监测站,,40,22,29,14,17,125,,,,4,10,4,4,0.3,0.3
2025-05-13T0200,2881A,107.8908,26.5311,黔东南苗族侗族自治州,凯里学院,,42,27,27,18,17,132,,,,2,5,3,2,0.3,0.3
2025-05-13T0200,2593A,107.5228,26.2403,黔南布依族苗族自治州,小围寨,,35,22,21,14,10,112,,,,7,8,5,3,0.3,0.3
2025-05-13T0200,3538A,107.5175,26.2978,黔南布依族苗族自治州,沙坝,,35,24,25,14,12,112,,,,6,6,4,4,0.3,0.3
2025-05-13T0200,2589A,104.9022,25.0925,黔西南布依族苗族自治州,场坝街,,30,15,29,8,14,95,,,,4,9,4,12,0.2,0.3
2025-05-13T0200,2590A,104.8811,25.0992,黔西南布依族苗族自治州,坪东大道,,29,29,31,15,19,82,,,,7,13,3,5,0.2,0.4
2025-05-13T0200,2502A,108.6236,21.9667,钦州市,市环保站,颗粒物(PM10),51,51,45,24,19,108,,,,20,19,4,4,0.6,0.7
2025-05-13T0200,2503A,108.6549,21.9481,钦州市,沙埠小学,颗粒物(PM10),83,116,58,50,25,2,,,,95,33,11,8,0.7,1.1
2025-05-13T0200,2504A,108.5989,21.7431,钦州市,港区一小,颗粒物(PM10),67,83,61,27,22,56,,,,26,21,13,9,0.7,0.7
2025-05-13T0200,3404A,108.5959,21.9633,钦州市,北职校,颗粒物(PM10),58,65,46,26,23,81,,,,33,19,8,8,0.7,0.7
2025-05-13T0200,1043A,119.7493,40.0116,秦皇岛市,第一关,细颗粒物(PM2.5),72,89,86,52,55,106,,,,19,28,5,8,0.4,0.5
2025-05-13T0200,1044A,119.5897,39.9499,秦皇岛市,监测站,颗粒物(PM10),65,80,96,46,49,107,,,,21,33,5,6,0.4,0.6
2025-05-13T0200,1046A,119.5251,39.9041,秦皇岛市,建设大厦,颗粒物(PM10),66,82,97,40,46,112,,,,19,35,3,6,0.6,0.6
2025-05-13T0200,3132A,119.610547,39.943889,秦皇岛市,文明里,颗粒物(PM10),69,87,96,38,38,110,,,,23,28,4,6,0.3,0.4
2025-05-13T0200,4198A,119.5090,39.8253,秦皇岛市,北戴河轮滑馆,细颗粒物(PM2.5),72,73,75,52,52,113,,,,19,23,3,4,0.4,0.5
2025-05-13T0200,1307A,120.6659,36.2403,青岛市,仰口,臭氧1小时,59,41,48,19,27,167,,,,4,7,8,9,0.3,0.4
2025-05-13T0200,1310A,120.4134,36.0658,青岛市,市南区东部子站,颗粒物(PM10),57,63,64,24,28,121,,,,14,17,9,9,0.4,0.4
2025-05-13T0200,1311A,120.3664,36.1032,青岛市,四方区子站,,46,46,60,24,30,130,,,,16,21,9,9,0.7,0.8
2025-05-13T0200,1312A,120.2994,36.054,青岛市,市南区西部子站,,48,48,65,24,29,120,,,,25,29,8,9,0.7,0.8
2025-05-13T0200,1313A,120.4581,36.0858,青岛市,崂山区子站,,48,48,57,24,26,115,,,,19,18,9,9,0.4,0.4
2025-05-13T0200,1315A,120.3999,36.3083,青岛市,城阳区子站,,43,41,64,17,24,137,,,,16,25,8,9,0.5,0.6
2025-05-13T0200,1966A,120.0405,35.8735,青岛市,黄岛区4号,颗粒物(PM10),51,51,65,24,29,124,,,,24,26,22,13,1.5,0.9
2025-05-13T0200,3362A,120.5014,36.4034,青岛市,即墨2号,,47,47,74,24,28,146,,,,8,15,11,11,0.7,0.7
2025-05-13T0200,3642A,120.3503,36.0736,青岛市,市北区南部,,48,48,59,27,29,107,,,,15,14,10,11,0.4,0.5
2025-05-13T0200,3643A,120.3948,36.1805,青岛市,李沧区北部,颗粒物(PM10),51,51,69,29,34,119,,,,19,26,11,12,0.6,0.7
2025-05-13T0200,4290A,120.1969,35.9546,青岛市,珠江路669号,颗粒物(PM10),51,51,60,32,33,113,,,,13,14,9,8,0.6,0.6
2025-05-13T0200,1702A,113.0426,23.691,清远市,环保大楼,,38,38,30,21,23,90,,,,24,23,9,8,0.7,0.7
2025-05-13T0200,1703A,113.0208,23.7106,清远市,凤城街办,,36,36,35,12,23,84,,,,25,22,10,8,0.4,0.5
2025-05-13T0200,3025A,113.0477,23.6344,清远市,技师学院,颗粒物(PM10),56,62,48,33,24,15,,,,66,37,11,10,0.7,0.6
2025-05-13T0200,3318A,112.9903,23.7403,清远市,清新太和,,41,41,35,23,20,85,,,,24,17,12,10,0.5,0.5
2025-05-13T0200,3455A,113.076,23.7198,清远市,清城东城,,32,32,34,20,21,73,,,,19,15,9,9,0.4,0.3
2025-05-13T0200,2661A,107.6325,35.7357,庆阳市,庆阳五中,细颗粒物(PM2.5),64,47,52,46,21,96,,,,13,11,17,5,0.6,0.5
2025-05-13T0200,2662A,107.6364,35.7067,庆阳市,市环保局,,42,42,50,14,17,119,,,,3,10,8,9,0.4,0.5
2025-05-13T0200,1916A,103.7897,25.5035,曲靖市,环境监测站,,50,50,35,29,20,72,,,,18,15,9,6,0.5,0.5
2025-05-13T0200,1917A,103.8,25.5364,曲靖市,烟厂办公区,,48,48,37,32,19,73,,,,15,12,4,4,0.6,0.5
2025-05-13T0200,3376A,103.7947,25.462,曲靖市,南苑二区,,33,23,34,23,17,83,,,,12,11,7,7,0.6,0.6
2025-05-13T0200,3377A,103.7444,25.5261,曲靖市,曲靖师范学院,,34,34,31,18,17,85,,,,10,11,11,8,0.4,0.4
2025-05-13T0200,1264A,118.8692,28.9398,衢州市,环保大楼,颗粒物(PM10),52,53,55,34,36,7,,,,81,23,4,6,0.4,0.4
2025-05-13T0200,1265A,118.8709,28.9666,衢州市,实验学校,,42,42,47,29,32,7,,,,84,26,1,4,0.5,0.5
2025-05-13T0200,1266A,118.8621,28.9808,衢州市,衢州学院,,46,46,46,29,32,8,,,,88,39,6,7,0.5,0.5
2025-05-13T0200,1611A,118.5819,24.9117,泉州市,涂山街,,41,32,35,23,19,131,,,,7,8,5,4,0.6,0.5
2025-05-13T0200,1612A,118.5972,24.8978,泉州市,津头埔,,40,32,37,25,21,125,,,,13,15,3,2,0.6,0.6
2025-05-13T0200,1613A,118.6663,24.9424,泉州市,万安,,41,30,35,22,20,130,,,,10,9,4,4,0.6,0.6
2025-05-13T0200,1614A,118.6117,24.9604,泉州市,清源山,,,,,,,,,,,,,,,,
2025-05-13T0200,3529A,118.6333,24.9264,泉州市,城华南路,,40,30,31,21,20,127,,,,11,14,3,3,0.5,0.5
2025-05-13T0200,2626A,88.8876,29.2718,日喀则市,日喀则监测站,,40,34,16,8,7,128,,,,5,8,10,9,0.3,0.3
2025-05-13T0200,3726A,88.8781,29.2426,日喀则市,林业技术推广中心,,40,37,21,11,5,128,,,,2,3,7,7,0.4,0.4
2025-05-13T0200,1659A,119.471,35.4209,日照市,监测站,颗粒物(PM10),51,51,74,34,32,107,,,,32,28,11,12,0.6,0.7
2025-05-13T0200,1660A,119.523,35.4216,日照市,市政府广场,,39,39,60,15,26,121,,,,16,20,6,10,0.5,0.7
2025-05-13T0200,1661A,119.5587,35.4044,日照市,港务局,颗粒物(PM10),52,53,81,33,37,120,,,,34,32,10,14,0.9,1.1
2025-05-13T0200,3507A,119.5328,35.4625,日照市,职业技术学院,,44,44,70,24,28,125,,,,18,23,7,10,0.6,0.8
2025-05-13T0200,3604A,119.3266,35.1044,日照市,岚山环保分局,颗粒物(PM10),52,53,64,28,29,109,,,,29,23,6,7,0.6,0.6
2025-05-13T0200,1835A,111.1922,34.7752,三门峡市,市政府,细颗粒物(PM2.5),55,53,43,39,28,52,,,,44,29,19,10,0.7,0.6
2025-05-13T0200,1836A,111.1587,34.7942,三门峡市,开发区,颗粒物(PM10),57,63,48,36,24,66,,,,21,18,9,10,0.6,0.5
2025-05-13T0200,1838A,111.143,34.7955,三门峡市,风景区,,,,37,,16,,,,,,11,,9,,0.3
2025-05-13T0200,3039A,111.1911,34.7829,三门峡市,三门峡市第一小学,颗粒物(PM10),55,60,47,25,21,67,,,,24,22,13,11,0.6,0.5
2025-05-13T0200,3598A,111.1,34.7167,三门峡市,富达温泉假日酒店,颗粒物(PM10),62,74,56,31,23,70,,,,25,24,10,12,0.4,0.4
2025-05-13T0200,2324A,117.6211,26.2625,三明市,三钢,细颗粒物(PM2.5),58,,31,41,25,61,,,,14,18,4,7,0.6,1.1
2025-05-13T0200,2325A,117.635,26.2714,三明市,三明二中,,28,20,29,19,21,54,,,,14,15,3,6,0.5,0.8
2025-05-13T0200,2326A,117.6028,26.2378,三明市,三元区政府,细颗粒物(PM2.5),77,78,40,56,23,22,,,,39,22,16,7,1.9,1
2025-05-13T0200,2327A,117.7275,26.3108,三明市,洋溪,,,,,,,,,,,,,,,,
2025-05-13T0200,1876A,109.5078,18.2489,三亚市,河东子站,,31,24,24,11,13,97,,,,1,4,4,4,0.4,0.5
2025-05-13T0200,1877A,109.4964,18.2681,三亚市,河西子站,,31,26,25,14,10,97,,,,4,7,2,2,0.2,0.3
2025-05-13T0200,3540A,109.7348,18.3443,三亚市,君悦子站,,30,30,32,21,13,54,,,,11,7,3,2,0.1,0.2
2025-05-13T0200,2624A,91.7608,29.2313,山南市,山南监测站,,36,,20,9,10,113,,,,2,6,2,3,0.4,0.4
2025-05-13T0200,2625A,91.7706,29.2436,山南市,山南人民医院,,,,16,,9,,,94,,,6,,4,,0.2
2025-05-13T0200,1674A,116.6794,23.3667,汕头市,金平子站,,44,32,39,23,22,140,,,,10,13,5,6,0.6,0.7
2025-05-13T0200,1675A,116.7244,23.3633,汕头市,龙湖子站,,43,35,36,20,19,135,,,,6,9,5,6,0.4,0.4
2025-05-13T0200,1676A,116.7258,23.2775,汕头市,濠江子站,,42,31,37,24,22,132,,,,6,8,4,5,0.6,0.6
2025-05-13T0200,1677A,116.7519,23.4714,汕头市,澄海子站,,44,37,41,24,22,140,,,,6,12,3,5,0.7,0.7
2025-05-13T0200,1678A,116.6092,23.2539,汕头市,潮阳子站,,44,30,36,16,18,140,,,,6,11,7,8,0.6,0.6
2025-05-13T0200,3444A,116.454,23.2684,汕头市,潮南峡山,颗粒物(PM10),52,54,39,32,22,100,,,,9,9,5,6,0.6,0.5
2025-05-13T0200,3624A,116.4069,23.2533,汕头市,潮南子站,,46,46,48,28,27,118,,,,10,12,4,5,0.6,0.6
2025-05-13T0200,1693A,115.3653,22.775,汕尾市,市环保局,,43,37,31,24,20,136,,,,8,9,10,8,0.6,0.5
2025-05-13T0200,1694A,115.3706,22.7898,汕尾市,市政府,,39,,28,26,20,124,,,,10,10,6,5,0.4,0.3
2025-05-13T0200,1695A,115.3622,22.7925,汕尾市,新城中学,,40,36,33,22,19,126,,,,9,9,4,4,0.6,0.5
2025-05-13T0200,2645A,109.9154,33.8715,商洛市,监测站,颗粒物(PM10),52,54,50,28,23,54,,,,19,19,10,9,0.5,0.5
2025-05-13T0200,3045A,109.9643,33.8471,商洛市,商州区中学,颗粒物(PM10),55,60,61,37,28,46,,,,46,37,4,10,0.5,0.5
2025-05-13T0200,2408A,115.6702,34.4285,商丘市,环境监测站,颗粒物(PM10),51,52,62,27,25,128,,,,11,10,4,4,0.3,0.3
2025-05-13T0200,2409A,115.6458,34.4045,商丘市,粮食局,,48,48,61,26,27,127,,,,10,10,5,3,0.2,0.2
2025-05-13T0200,2410A,115.6293,34.3948,商丘市,睢阳区环保局,颗粒物(PM10),51,52,62,29,27,119,,,,15,13,5,6,0.4,0.3
2025-05-13T0200,3171A,115.6071,34.4465,商丘市,梁园区档案局,,47,47,62,19,26,120,,,,8,9,3,3,0.4,0.3
2025-05-13T0200,1141A,121.4,31.238,上海市,普陀,,40,39,46,28,31,108,,,,28,30,7,7,0.5,0.5
2025-05-13T0200,1142A,121.478,31.2036,上海市,十五厂,,43,43,51,23,32,115,,,,25,34,9,10,0.5,0.6
2025-05-13T0200,1143A,121.467,31.3008,上海市,虹口,,37,32,47,23,29,118,,,,16,24,8,8,0.7,0.7
2025-05-13T0200,1147A,121.425,31.2261,上海市,静安监测站,,40,40,46,21,28,117,,,,24,29,11,10,0.5,0.5
2025-05-13T0200,1148A,121.703,31.1907,上海市,浦东川沙,,39,37,47,21,33,122,,,,23,30,7,8,0.5,0.6
2025-05-13T0200,1149A,121.533,31.2284,上海市,浦东新区监测站,,40,38,45,21,28,126,,,,16,28,8,9,0.4,0.5
