timepoint,stationcode,longitude,latitude,area,positionname,primarypollutant,aqi,pm10,pm10_24h,pm2_5,pm2_5_24h,o3,o3_24h,o3_8h,o3_8h_24h,no2,no2_24h,so2,so2_24h,co,co_24h
2024-06-14T1200,2566A,102.1879,31.914,阿坝藏族羌族自治州,州农科所,,,31,23,14,9,31,,18,18,9,12,4,3,,0
2024-06-14T1200,2568A,102.2502,31.8896,阿坝藏族羌族自治州,马师校,,22,,15,11,13,70,,32,32,12,14,6,5,0.4,0.4
2024-06-14T1200,3994A,102.2165,31.9024,阿坝藏族羌族自治州,马尔康中学西区,,21,16,20,7,11,65,,36,36,6,5,7,6,0.3,0.3
2024-06-14T1200,2695A,80.292,41.1694,阿克苏地区,电视台,,34,24,44,3,11,106,,97,80,20,13,6,5,0.3,0.3
2024-06-14T1200,2696A,80.2613,41.1551,阿克苏地区,艺术中心,,36,22,39,3,14,115,,88,75,15,15,4,4,0.4,0.4
2024-06-14T1200,2204A,105.6467,38.8363,阿拉善盟,西城区西花园,颗粒物(PM10),75,99,182,21,42,126,,96,96,9,12,9,8,0.6,0.5
2024-06-14T1200,2205A,105.6985,38.8411,阿拉善盟,蒙二幼,颗粒物(PM10),81,112,173,30,45,120,,94,94,5,8,12,11,0.5,0.5
2024-06-14T1200,2206A,105.724,38.8516,阿拉善盟,环保局新楼,颗粒物(PM10),79,108,168,34,52,124,,107,107,6,6,10,10,0.4,0.4
2024-06-14T1200,2708A,88.1264,47.8517,阿勒泰地区,市站,,40,40,28,9,8,61,,45,42,12,11,6,6,0.4,0.3
2024-06-14T1200,2630A,80.1161,32.5,阿里地区,阿里监测站,臭氧1小时,92,32,20,21,14,193,,172,169,8,8,6,6,0.6,0.4
2024-06-14T1200,3192A,80.0903,32.5028,阿里地区,阿里藏医院,臭氧1小时,89,31,23,19,12,191,,178,178,6,4,6,6,0.5,0.5
2024-06-14T1200,2642A,109.0318,32.6537,安康市,香溪洞,,31,27,23,11,14,98,,64,63,4,5,7,7,0.5,0.5
2024-06-14T1200,2643A,109.0281,32.6939,安康市,安康市监测站,,34,24,31,14,16,108,,58,58,5,9,8,9,0.5,0.5
2024-06-14T1200,2644A,109.0072,32.6975,安康市,汉滨区检察院,,34,23,29,14,20,106,,54,54,5,8,8,8,0.4,0.5
2024-06-14T1200,2291A,117.0809,30.5177,安庆市,环科院,,34,29,37,20,29,107,,65,65,3,31,4,5,0.5,0.5
2024-06-14T1200,2292A,117.0331,30.5119,安庆市,马山宾馆,,32,15,29,15,18,102,,59,59,9,37,9,9,0.7,0.7
2024-06-14T1200,2294A,116.9896,30.6145,安庆市,安庆大学,,34,20,31,15,19,106,,51,51,13,19,8,8,0.5,0.5
2024-06-14T1200,3173A,117.0598,30.5351,安庆市,市人大,,34,,29,18,19,107,,63,63,7,24,6,7,0.4,0.5
2024-06-14T1200,3123A,105.9408,26.2431,安顺市,凤凰山,,33,23,18,22,14,103,,92,92,10,6,8,5,0.7,0.8
2024-06-14T1200,3124A,105.9439,26.2564,安顺市,金钟山,,,23,19,22,18,99,,81,81,8,6,8,5,,0.4
2024-06-14T1200,3125A,105.8983,26.2481,安顺市,娄家坡,,31,,28,14,13,97,,89,89,8,6,5,5,0.8,0.8
2024-06-14T1200,1819A,114.3551,36.1017,安阳市,红庙街,臭氧1小时,107,115,77,36,26,213,,126,126,10,10,5,5,0.5,0.4
2024-06-14T1200,1820A,114.361,36.0681,安阳市,银杏小区,臭氧1小时,104,116,75,32,26,207,,122,122,17,29,8,10,0.7,0.7
2024-06-14T1200,3141A,114.3922,36.0878,安阳市,信访局,臭氧1小时,104,129,89,43,24,208,,132,132,5,8,7,8,0.7,0.7
2024-06-14T1200,3669A,114.4705,36.0637,安阳市,左辅环卫站,臭氧1小时,98,100,78,39,28,198,,123,123,12,16,4,3,0.7,0.7
2024-06-14T1200,3703A,114.2917,36.0949,安阳市,安钢职工学校,臭氧1小时,101,150,80,51,31,201,,114,114,13,16,7,6,0.8,0.6
2024-06-14T1200,1748A,123.044,41.1196,鞍山市,深沟寺,,32,24,21,22,17,81,,100,90,17,9,8,8,0.6,0.4
2024-06-14T1200,1749A,123.011,41.0931,鞍山市,太阳城,,29,24,19,20,12,81,,92,86,18,9,6,6,0.9,0.7
2024-06-14T1200,1750A,123.0485,41.1442,鞍山市,太平,,30,30,21,17,14,83,,108,96,17,10,5,5,0.9,0.7
2024-06-14T1200,1751A,122.9642,41.0971,鞍山市,铁西三道街,,26,25,33,16,15,83,,105,96,17,14,3,4,0.5,0.6
2024-06-14T1200,1752A,122.9341,41.0833,鞍山市,铁西工业园区,,26,20,24,16,14,81,,93,89,10,12,4,5,0.5,0.5
2024-06-14T1200,1753A,123.022,41.0821,鞍山市,明达新区,,22,16,54,14,14,70,,109,92,17,8,6,7,0.7,0.6
2024-06-14T1200,2195A,107.4212,40.761,巴彦淖尔市,附二中,,36,25,42,19,21,114,,90,90,1,9,2,4,0.4,0.4
2024-06-14T1200,2196A,107.37,40.7372,巴彦淖尔市,市环保大楼,,35,30,46,11,18,109,,88,88,4,7,2,2,0.4,0.4
2024-06-14T1200,1956A,86.1472,41.7538,巴音郭楞蒙古自治州,孔雀公园,颗粒物(PM10),54,58,43,6,16,105,,111,98,8,7,3,2,0.3,0.2
2024-06-14T1200,1957A,86.1972,41.7166,巴音郭楞蒙古自治州,棉纺厂,,40,40,47,12,14,100,,114,104,9,8,4,3,0.3,0.2
2024-06-14T1200,1958A,86.2357,41.7173,巴音郭楞蒙古自治州,经济开发区,,33,23,41,14,16,104,,106,106,4,5,2,2,0.2,0.2
2024-06-14T1200,2914A,106.7677,31.8794,巴中市,苏山坪,细颗粒物(PM2.5),59,,29,42,22,112,,78,75,12,11,3,4,0.6,0.4
2024-06-14T1200,3182A,106.7656,31.8545,巴中市,丽阳花园,,42,40,33,29,23,118,,50,50,12,23,6,6,0.6,0.6
2024-06-14T1200,3183A,106.7418,31.8654,巴中市,圣泉水务公司,,49,47,29,34,20,121,,50,50,14,20,6,5,0.6,0.6
2024-06-14T1200,3616A,106.7616,31.8344,巴中市,市中心医院,,43,43,36,28,25,106,,37,37,8,23,5,5,0.6,0.6
2024-06-14T1200,2235A,122.7911,45.6077,白城市,洮北区环保局,,29,7,9,3,7,92,,70,70,6,9,1,2,0.0,0.1
2024-06-14T1200,2236A,122.8738,45.5725,白城市,市环保局,,28,,6,8,6,87,,67,67,6,8,3,3,0.2,0.2
2024-06-14T1200,2231A,126.4219,41.9171,白山市,喜丰,,38,26,29,17,11,120,,96,96,2,10,9,9,0.7,0.8
2024-06-14T1200,2232A,126.4077,41.9419,白山市,环保局,,40,40,37,8,12,109,,98,98,10,11,9,8,0.7,0.8
2024-06-14T1200,2647A,104.1724,36.5446,白银市,第三小学,,36,26,47,15,23,114,,80,80,13,14,14,19,0.6,0.5
2024-06-14T1200,2648A,104.1465,36.5482,白银市,动力公司,,35,30,42,15,24,111,,79,79,10,11,16,22,0.5,0.5
2024-06-14T1200,2512A,106.6103,23.9011,百色市,市监测站,,17,7,26,7,14,52,,45,45,18,11,4,7,0.7,0.7
2024-06-14T1200,2513A,106.6538,23.8859,百色市,市中心血站,,13,13,28,9,16,36,,40,38,22,15,5,6,0.7,0.7
2024-06-14T1200,3406A,106.6085,23.8798,百色市,祈福高中,,15,7,29,3,15,46,,51,51,15,11,6,8,0.7,0.7
2024-06-14T1200,2270A,117.396,32.939,蚌埠市,工人疗养院,臭氧1小时,84,56,70,27,31,187,,147,147,6,10,9,10,0.7,0.7
2024-06-14T1200,2271A,117.3605,32.9427,蚌埠市,百货大楼,臭氧1小时,80,52,65,32,36,184,,160,160,5,10,7,7,0.7,0.7
2024-06-14T1200,2273A,117.4185,32.8911,蚌埠市,蚌埠学院,臭氧1小时,68,51,66,28,36,174,,130,130,7,12,9,8,0.7,0.7
2024-06-14T1200,2274A,117.3533,32.9673,蚌埠市,淮上区政府,臭氧1小时,73,46,64,33,39,178,,150,150,3,12,6,8,0.6,0.6
2024-06-14T1200,2275A,117.3145,32.8977,蚌埠市,高新区,臭氧1小时,80,51,62,28,34,184,,153,153,2,7,10,8,0.8,0.7
2024-06-14T1200,3715A,117.3092,32.9314,蚌埠市,蚌埠田家炳中学,臭氧1小时,84,56,61,27,32,187,,160,160,3,7,11,9,0.7,0.6
2024-06-14T1200,1585A,109.8756,40.6532,包头市,市环境监测站,,34,18,25,3,7,108,,94,94,6,10,7,13,0.4,0.4
2024-06-14T1200,1587A,109.9991,40.5842,包头市,包头八中,,36,18,35,8,9,114,,95,95,8,13,11,12,0.3,0.3
2024-06-14T1200,1588A,109.8538,40.6821,包头市,青山宾馆,,34,12,17,6,7,107,,92,92,5,9,8,9,0.3,0.3
2024-06-14T1200,1589A,109.8642,40.6288,包头市,惠龙物流,,35,,21,15,8,109,,96,96,8,11,9,12,0.4,0.4
2024-06-14T1200,1590A,110.0377,40.5546,包头市,东河鸿龙湾,,35,11,32,3,10,110,,93,93,6,10,7,8,0.3,0.3
2024-06-14T1200,3283A,109.9154,40.5685,包头市,滨河大厦,,35,9,20,3,7,111,,92,92,4,9,9,11,0.4,0.4
2024-06-14T1200,3419A,109.9447,40.6261,包头市,包头市委党校,,35,14,25,3,5,110,,97,97,6,10,10,11,0.3,0.3
2024-06-14T1200,3683A,109.8331,40.6576,包头市,昆区政府,,34,8,19,3,6,107,,95,95,8,10,7,7,0.4,0.5
2024-06-14T1200,1930A,107.185,34.3063,宝鸡市,庙沟村,,41,41,30,15,10,117,,92,92,2,7,10,9,0.2,0.3
2024-06-14T1200,1931A,107.0708,34.3017,宝鸡市,竹园沟,,45,45,26,27,11,137,,106,106,6,14,8,7,0.3,0.4
2024-06-14T1200,1932A,107.1906,34.3672,宝鸡市,三陆医院,颗粒物(PM10),54,57,42,29,15,129,,70,70,11,22,7,9,0.3,0.4
2024-06-14T1200,1933A,107.1431,34.3547,宝鸡市,监测站,,48,48,35,19,16,124,,82,82,10,17,8,8,0.3,0.3
2024-06-14T1200,1934A,107.1186,34.3739,宝鸡市,技工学校,颗粒物(PM10),57,64,33,11,15,128,,93,93,8,13,8,8,0.3,0.4
2024-06-14T1200,1935A,107.3906,34.3528,宝鸡市,陈仓区环保局家属楼,,42,41,39,16,18,134,,87,87,8,16,6,15,0.4,0.6
2024-06-14T1200,1936A,107.2058,34.3497,宝鸡市,文理学院,,43,35,33,22,12,135,,82,82,7,14,8,8,0.3,0.3
2024-06-14T1200,1051A,115.493,38.8632,保定市,游泳馆,,49,49,102,21,34,149,,122,122,2,7,4,7,0.2,0.3
2024-06-14T1200,1052A,115.5213,38.8959,保定市,华电二区,,47,22,92,6,30,150,,,,4,12,2,4,0.4,0.4
2024-06-14T1200,1053A,115.4713,38.9108,保定市,接待中心,,46,26,70,25,38,146,,123,123,1,10,3,3,0.3,0.4
2024-06-14T1200,1054A,115.4612,38.8416,保定市,地表水厂,,48,22,91,18,39,153,,127,127,2,9,2,3,0.5,0.6
2024-06-14T1200,3581A,115.31981,38.95208,保定市,满城区生态环境分局,颗粒物(PM10),51,51,90,14,33,160,,132,132,2,9,2,3,0.2,0.2
2024-06-14T1200,3582A,115.47694,38.76408,保定市,清苑区第二中学,,50,28,98,12,32,159,,123,123,2,7,4,5,0.4,0.5
2024-06-14T1200,3583A,115.62909,39.02311,保定市,徐水物探局,,49,41,109,7,28,154,,128,128,2,12,3,3,0.2,0.3
2024-06-14T1200,4004A,115.4202,38.8656,保定市,双鹰农机,臭氧1小时,53,,83,34,33,162,,133,133,2,6,2,3,0.1,0.2
2024-06-14T1200,4034A,115.5150,38.8590,保定市,植保所站,细颗粒物(PM2.5),114,,89,86,40,153,,128,128,3,10,1,4,0.4,0.7
2024-06-14T1200,2594A,99.1678,25.1081,保山市,市环境监测站,,20,11,20,3,3,61,,47,47,4,6,5,5,0.4,0.4
2024-06-14T1200,2595A,99.1711,25.1328,保山市,市环保局,,21,16,18,14,9,65,,49,49,3,4,5,5,0.3,0.3
2024-06-14T1200,1867A,109.1436,21.4086,北海市,海滩公园,,40,40,44,10,7,79,,74,73,3,4,3,3,0.5,0.5
2024-06-14T1200,1868A,109.0981,21.4661,北海市,新市环保局,,31,31,27,14,7,79,,76,72,3,4,4,4,0.6,0.6
2024-06-14T1200,1869A,109.1778,21.5233,北海市,北海工业园,,,33,27,15,11,73,,74,70,,5,,4,0.6,0.6
2024-06-14T1200,3400A,109.1911,21.4415,北海市,龙潭自来水厂,,31,31,25,14,12,74,,69,68,4,4,5,5,0.5,0.5
2024-06-14T1200,1001A,116.3621,39.8784,北京市,万寿西宫,臭氧1小时,57,44,74,32,36,165,,120,120,12,14,1,2,0.8,0.7
2024-06-14T1200,1002A,116.2202,40.2915,北京市,定陵,,45,17,64,14,34,142,,70,70,18,18,3,3,0.5,0.6
2024-06-14T1200,1003A,116.4174,39.9289,北京市,东四,臭氧1小时,53,39,71,26,35,162,,114,114,15,22,4,5,0.7,0.7
2024-06-14T1200,1004A,116.4072,39.8863,北京市,天坛,,50,40,62,29,33,158,,113,113,13,18,1,2,0.7,0.7
2024-06-14T1200,1005A,116.462,39.9365,北京市,农展馆,臭氧1小时,65,39,74,25,36,172,,116,116,19,24,4,4,0.9,0.9
2024-06-14T1200,1006A,116.3392,39.9295,北京市,官园,臭氧1小时,64,43,74,20,36,171,,123,123,15,18,3,3,0.6,0.6
2024-06-14T1200,1007A,116.2878,39.9611,北京市,海淀万柳,臭氧1小时,52,31,68,19,36,161,,112,112,14,19,5,5,0.6,0.7
2024-06-14T1200,1008A,116.6636,40.135,北京市,顺义新城,,50,29,63,17,33,159,,108,108,10,12,1,3,0.7,0.7
2024-06-14T1200,1009A,116.6275,40.3275,北京市,怀柔镇,,49,35,66,22,38,155,,93,93,8,10,4,3,0.7,0.8
2024-06-14T1200,1010A,116.2296,40.217,北京市,昌平镇,,41,20,72,11,41,130,,79,79,12,20,2,2,0.4,0.6
2024-06-14T1200,1011A,116.3966,39.9821,北京市,奥体中心,,49,36,70,20,35,154,,104,104,13,21,3,3,0.6,0.8
2024-06-14T1200,1012A,116.184,39.9136,北京市,古城,,45,31,70,26,38,144,,105,105,12,21,1,2,0.6,0.6
2024-06-14T1200,3281A,115.9718,40.4529,北京市,延庆夏都,,32,17,35,6,14,100,,62,62,5,11,3,2,0.1,0.3
2024-06-14T1200,3417A,117.0709,40.1465,北京市,平谷新城,颗粒物(PM10),53,55,71,36,37,128,,81,76,2,3,1,3,0.8,0.6
2024-06-14T1200,3418A,116.8336,40.4095,北京市,密云新城,臭氧1小时,69,43,63,25,32,175,,93,93,9,9,1,3,0.6,0.6
2024-06-14T1200,3672A,116.1541,39.8204,北京市,丰台云岗,,46,34,65,32,32,132,,76,76,8,15,3,3,0.7,0.7
2024-06-14T1200,3673A,116.6804,39.9081,北京市,通州东关,,44,42,69,30,34,138,,91,91,4,13,3,3,0.8,0.8
2024-06-14T1200,3674A,115.9577,39.7603,北京市,房山燕山,,48,47,58,28,36,152,,107,107,17,10,4,3,0.6,0.6
2024-06-14T1200,3675A,116.4672,39.7733,北京市,大兴旧宫,,42,36,67,28,36,133,,94,94,7,17,1,2,0.7,0.8
2024-06-14T1200,3694A,115.986,40.4563,北京市,延庆石河营,,30,12,30,6,15,94,,55,55,6,11,3,2,0.2,0.3
2024-06-14T1200,3695A,116.6151,40.3053,北京市,怀柔新城,,46,29,67,19,38,147,,92,92,10,10,3,3,0.7,0.8
2024-06-14T1200,3696A,116.2545,39.8768,北京市,丰台小屯,,43,36,64,18,32,136,,94,94,7,13,3,2,0.7,0.7
2024-06-14T1200,3697A,116.84,40.3844,北京市,密云镇,,50,31,69,20,35,158,,83,83,9,11,3,3,0.5,0.6
2024-06-14T1200,1761A,123.8275,41.3064,本溪市,大峪,,25,23,18,12,9,77,,104,92,16,7,9,9,0.5,0.5
2024-06-14T1200,1762A,123.7567,41.3325,本溪市,溪湖,,37,37,28,23,12,58,,88,83,27,16,10,11,2.3,1.2
2024-06-14T1200,1763A,123.7169,41.3094,本溪市,彩屯,,21,21,30,14,18,63,,75,73,18,26,12,15,1.2,1.8
2024-06-14T1200,1764A,123.7669,41.2864,本溪市,东明,,24,15,21,10,9,75,,114,104,15,11,7,8,0.5,0.5
2024-06-14T1200,1765A,123.7992,41.2664,本溪市,新立屯,,25,19,16,8,7,78,,114,101,8,6,11,11,0.6,0.6
2024-06-14T1200,1766A,123.8142,41.3472,本溪市,威宁,,24,14,25,13,11,74,,84,78,18,14,7,7,0.4,0.5
2024-06-14T1200,2587A,105.2864,27.3125,毕节市,八中,,36,28,28,17,18,114,,68,68,7,12,6,6,0.4,0.4
2024-06-14T1200,2588A,105.31,27.2944,毕节市,师专,,35,26,26,17,16,109,,54,54,6,13,4,5,0.6,0.6
2024-06-14T1200,3537A,105.3631,27.3533,毕节市,长征村,,38,32,28,22,19,121,,88,88,6,9,7,6,0.5,0.5
2024-06-14T1200,1629A,118.0018,37.3617,滨州市,第二水厂,,44,44,67,22,25,86,,109,96,15,11,3,5,0.8,0.7
2024-06-14T1200,1630A,117.9776,37.393,滨州市,北中新校,颗粒物(PM10),51,51,71,19,23,74,,114,91,14,13,4,7,0.6,0.6
2024-06-14T1200,3514A,117.9378,37.3956,滨州市,中海酒店,,,44,86,29,23,,,107,63,14,11,4,5,0.4,0.2
2024-06-14T1200,3515A,117.9378,37.3553,滨州市,开发区一中,颗粒物(PM10),53,56,67,27,24,67,,106,86,14,11,9,10,0.8,0.7
2024-06-14T1200,3516A,118.0917,37.694,滨州市,金海六路,,39,39,65,9,14,70,,112,90,5,8,4,6,0.4,0.4
2024-06-14T1200,4028A,117.9956,37.3753,滨州市,滨州市西街道办事处,,41,41,73,24,25,75,,110,89,13,11,2,4,0.6,0.6
2024-06-14T1200,2311A,115.8072,33.8399,亳州市,污水处理厂,臭氧1小时,80,36,49,23,26,184,,143,143,4,10,6,5,0.5,0.5
2024-06-14T1200,2312A,115.7789,33.8518,亳州市,三国揽胜宫,臭氧1小时,92,61,50,16,20,193,,149,149,8,11,5,5,0.5,0.6
2024-06-14T1200,3332A,115.7633,33.8034,亳州市,亳州学院,臭氧1小时,78,40,51,25,25,182,,138,138,4,9,5,5,0.5,0.5
2024-06-14T1200,2693A,82.0485,44.8556,博尔塔拉蒙古自治州,市党校,,27,20,19,6,8,85,,61,61,11,10,10,9,0.3,0.4
2024-06-14T1200,2694A,82.0806,44.8969,博尔塔拉蒙古自治州,市环保局,,27,20,26,7,10,84,,58,58,15,17,9,9,0.2,0.3
2024-06-14T1200,1072A,116.8584,38.3254,沧州市,电视转播站,,,40,50,22,19,158,,120,120,6,8,,19,0.6,0.4
2024-06-14T1200,1073A,116.8709,38.3228,沧州市,市环保局,臭氧1小时,79,33,51,21,25,183,,130,130,9,13,12,8,0.6,0.4
2024-06-14T1200,3324A,116.8136,38.3004,沧州市,河北水利电力学院,臭氧1小时,95,36,56,17,27,196,,142,142,8,9,12,11,0.4,0.3
2024-06-14T1200,2622A,97.1806,31.1273,昌都市,昌都监测站,,35,6,6,3,5,110,,100,100,10,6,8,9,0.4,0.3
2024-06-14T1200,3719A,97.1714,31.1406,昌都市,昌都会议中心,,39,11,6,3,5,122,,114,114,6,6,5,5,0.3,0.3
2024-06-14T1200,2690A,88.1236,43.8886,昌吉回族自治州,天山天池,,27,7,17,7,4,85,,76,76,6,7,7,8,0.6,0.6
2024-06-14T1200,2692A,87.2717,44.0297,昌吉回族自治州,新区政务中心,,32,17,23,3,7,101,,92,91,4,6,12,9,0.3,0.3
2024-06-14T1200,3613A,87.3095,44.0142,昌吉回族自治州,亚心广场,,34,22,25,3,4,107,,100,100,9,12,8,8,0.2,0.1
2024-06-14T1200,1119A,125.3325,43.9166,长春市,食品厂,,38,17,29,8,16,121,,101,101,12,22,5,6,0.4,0.5
2024-06-14T1200,1120A,125.2863,43.9027,长春市,客车厂,,39,17,26,6,13,124,,106,106,9,16,3,3,0.3,0.4
2024-06-14T1200,1121A,125.2841,43.8463,长春市,邮电学院,,38,15,29,10,15,119,,99,99,10,19,7,7,0.4,0.4
2024-06-14T1200,1122A,125.3716,43.8772,长春市,劳动公园,,,,41,7,11,126,,107,107,8,16,4,4,0.5,0.5
2024-06-14T1200,1123A,125.3297,43.8805,长春市,园林处,,39,22,26,11,18,124,,103,103,8,16,5,6,0.4,0.5
2024-06-14T1200,1124A,125.4605,43.79,长春市,净月潭,,37,16,27,8,14,117,,101,101,6,12,5,5,0.4,0.4
2024-06-14T1200,1126A,125.3863,43.8447,长春市,经开区环卫处,,37,18,28,7,12,118,,102,102,8,17,4,4,0.4,0.5
2024-06-14T1200,1127A,125.245,43.7783,长春市,高新区管委会,,41,10,20,6,14,129,,112,112,5,13,6,7,0.6,0.6
2024-06-14T1200,1128A,125.1761,43.8325,长春市,岱山公园,,39,15,26,8,16,122,,106,106,6,13,4,5,0.4,0.4
2024-06-14T1200,1335A,113.0833,28.2325,长沙市,经开区环保局,,31,31,29,15,14,86,,39,39,7,10,5,5,0.6,0.6
2024-06-14T1200,1336A,112.8872,28.2189,长沙市,高开区环保局,,26,26,22,13,13,80,,54,54,11,10,4,4,0.6,0.7
2024-06-14T1200,1337A,113.0792,28.2053,长沙市,马坡岭,,32,32,23,18,14,97,,49,49,3,4,9,8,0.7,0.6
2024-06-14T1200,1338A,112.9394,28.19,长沙市,湖南师范大学,,27,20,25,17,15,85,,51,51,2,7,5,4,0.5,0.7
2024-06-14T1200,1339A,113.0178,28.1322,长沙市,雨花区环保局,,29,29,23,13,13,85,,48,48,2,6,2,2,0.6,0.7
2024-06-14T1200,1340A,112.9792,28.2597,长沙市,伍家岭,,33,32,27,23,15,86,,50,50,4,8,6,6,0.4,0.5
2024-06-14T1200,1341A,113.0014,28.1944,长沙市,火车新站,,40,40,31,17,13,99,,57,57,8,14,4,3,0.6,0.7
2024-06-14T1200,1342A,112.9844,28.1178,长沙市,天心区环保局,,38,38,26,9,12,77,,44,44,1,7,2,3,0.4,0.6
2024-06-14T1200,1343A,112.8908,28.1308,长沙市,湖南中医药大学,,25,13,24,13,11,80,,50,50,2,4,7,7,0.8,0.9
2024-06-14T1200,1344A,112.9581,28.3611,长沙市,沙坪,,29,19,18,11,10,91,,49,49,9,9,9,8,0.4,0.4
2024-06-14T1200,1727A,113.1147,36.1547,长治市,清华站,臭氧1小时,84,73,52,14,23,187,,127,127,10,14,13,10,0.4,0.5
2024-06-14T1200,1728A,113.1031,36.1989,长治市,监测站,臭氧1小时,105,46,60,24,24,209,,136,136,17,18,11,6,0.8,0.8
2024-06-14T1200,1730A,113.0886,36.2125,长治市,审计局,臭氧1小时,106,40,44,19,23,212,,146,146,16,17,11,4,0.5,0.4
2024-06-14T1200,1731A,113.0844,36.1856,长治市,长治八中,臭氧1小时,101,44,54,30,26,202,,140,140,12,17,7,3,0.5,0.6
2024-06-14T1200,2845A,113.1569,36.1911,长治市,德盛苑,臭氧1小时,106,46,46,24,24,211,,158,158,11,10,13,8,0.7,0.7
2024-06-14T1200,3568A,113.06,36.0464,长治市,向阳小学,臭氧1小时,103,74,61,59,36,206,,146,146,,11,5,3,0.7,0.7
2024-06-14T1200,3569A,112.8792,36.3144,长治市,屯留一中,臭氧1小时,100,45,47,34,33,200,,136,136,10,13,19,11,0.7,0.7
2024-06-14T1200,3570A,113.235,36.3489,长治市,潞城四中,臭氧1小时,111,66,76,27,35,222,,148,148,12,16,11,9,0.5,0.8
2024-06-14T1200,1854A,111.6975,28.9703,常德市,市二中,,40,38,25,28,17,104,,,,6,7,8,7,0.6,0.6
2024-06-14T1200,3138A,111.7153,29.0289,常德市,武陵区永安,,38,37,26,26,18,102,,43,43,7,8,9,6,0.4,0.4
2024-06-14T1200,3139A,111.6892,28.9881,常德市,鼎城区玉霞,,36,33,28,25,18,107,,40,40,6,7,6,7,0.5,0.5
2024-06-14T1200,3140A,111.6625,29.0531,常德市,武陵区长庚,,40,36,26,28,17,110,,44,44,7,10,17,8,0.6,0.6
2024-06-14T1200,1196A,119.9633,31.762,常州市,市监测站,臭氧1小时,111,49,56,41,44,222,,119,119,15,21,7,8,0.7,0.7
2024-06-14T1200,1200A,119.9468,31.7069,常州市,武进监测站,臭氧1小时,110,46,61,39,38,220,,127,127,6,10,10,9,0.7,0.8
2024-06-14T1200,1201A,119.9255,31.9087,常州市,安家,臭氧1小时,122,72,64,52,48,244,,124,124,19,19,10,9,1.0,0.8
2024-06-14T1200,3002A,119.9805,31.8174,常州市,行政中心,臭氧1小时,110,48,67,35,37,219,,116,116,13,18,8,10,0.6,0.6
2024-06-14T1200,3003A,120.0522,31.7748,常州市,经开区,臭氧1小时,109,,52,38,37,218,,115,115,16,21,9,7,1.0,0.7
2024-06-14T1200,3010A,119.9025,31.7964,常州市,钟楼,臭氧1小时,113,,52,38,40,226,,126,126,12,18,6,6,0.9,0.9
2024-06-14T1200,3429A,119.8598,31.7066,常州市,武进经发区,臭氧1小时,106,43,60,28,35,211,,127,127,11,13,12,9,0.4,0.4
2024-06-14T1200,3430A,119.5826,31.7245,常州市,金坛城区,臭氧1小时,100,45,42,32,31,200,,129,129,6,7,7,8,0.9,1
2024-06-14T1200,2220A,120.4318,41.5881,朝阳市,西梁,,37,36,33,14,15,116,,65,65,11,15,12,9,0.8,0.7
2024-06-14T1200,2221A,120.4521,41.5646,朝阳市,河畔小区,,41,16,43,14,17,130,,91,91,8,12,11,8,0.7,0.7
2024-06-14T1200,2222A,120.4176,41.5648,朝阳市,八里堡,,40,22,37,16,20,127,,80,80,10,15,12,8,0.9,0.8
2024-06-14T1200,2223A,120.3806,41.5969,朝阳市,农业园区,,38,20,26,17,19,121,,65,65,9,14,10,8,0.7,0.6
2024-06-14T1200,1705A,116.6367,23.6719,潮州市,西园路,,34,34,30,18,16,55,,26,26,11,15,1,1,0.5,0.5
2024-06-14T1200,3026A,116.6183,23.6608,潮州市,市政府,,42,42,37,17,15,77,,47,47,8,13,9,8,0.8,0.9
2024-06-14T1200,4036A,116.6461,23.6761,潮州市,金山,颗粒物(PM10),51,52,34,19,15,63,,24,24,15,14,8,6,0.8,0.8
2024-06-14T1200,2472A,113.0073,25.9061,郴州市,马头岭,,21,21,18,10,6,65,,40,40,4,7,18,7,0.6,0.6
2024-06-14T1200,2473A,113.0116,25.8226,郴州市,市职中,,24,15,17,8,11,76,,45,45,4,10,48,11,0.5,0.6
2024-06-14T1200,2474A,113.0161,25.8001,郴州市,兴隆步行街,,24,22,19,3,11,75,,52,52,5,7,29,13,0.6,0.6
2024-06-14T1200,2475A,113.0383,25.8071,郴州市,市审计局,,23,,16,12,10,71,,41,41,5,9,4,12,0.4,0.4
2024-06-14T1200,2476A,113.0348,25.7759,郴州市,市环保局,,22,13,18,8,11,69,,45,45,8,13,6,19,0.4,0.5
2024-06-14T1200,1431A,103.9728,30.7236,成都市,金泉两河,细颗粒物(PM2.5),84,90,59,62,43,159,,60,60,20,19,7,3,0.8,0.7
2024-06-14T1200,1432A,104.176,30.6872,成都市,十里店,臭氧1小时,92,66,57,40,34,193,,73,73,21,28,5,4,0.8,0.8
2024-06-14T1200,1433A,104.079,30.5706,成都市,三瓦窑,细颗粒物(PM2.5),83,88,64,61,45,151,,46,46,47,48,5,4,0.7,0.6
2024-06-14T1200,1434A,104.1114,30.63,成都市,沙河铺,细颗粒物(PM2.5),82,85,49,60,29,156,,54,54,26,23,4,2,0.7,0.6
2024-06-14T1200,1437A,104.0786,30.6531,成都市,君平街,臭氧1小时,93,85,60,57,42,194,,65,65,27,32,4,3,0.8,0.7
2024-06-14T1200,2880A,104.0239,30.65639,成都市,大石西路,臭氧1小时,83,73,59,46,39,186,,53,53,25,36,7,4,0.9,0.8
2024-06-14T1200,3136A,104.2725,30.5589,成都市,龙泉驿区区政府,臭氧1小时,65,66,34,44,23,172,,96,96,20,14,5,4,0.6,0.5
2024-06-14T1200,3357A,104.0106,30.6931,成都市,金博路,细颗粒物(PM2.5),72,92,56,52,38,168,,46,46,19,29,5,2,0.8,0.7
2024-06-14T1200,3359A,104.0578,30.5225,成都市,华阳,细颗粒物(PM2.5),79,78,46,58,36,144,,62,59,32,21,4,3,0.8,0.7
2024-06-14T1200,3487A,104.2394,30.5319,成都市,车城东七路,细颗粒物(PM2.5),84,88,42,62,30,157,,,,16,13,5,3,0.7,0.6
2024-06-14T1200,3488A,104.3853,30.7453,成都市,青白江技师分院,细颗粒物(PM2.5),73,,35,53,21,176,,66,66,18,26,9,7,0.8,0.7
2024-06-14T1200,3489A,104.0789,30.4072,成都市,科学城,细颗粒物(PM2.5),69,68,45,50,34,127,,61,61,27,18,6,4,0.6,0.5
2024-06-14T1200,4011A,103.8506,30.6947,成都市,光华大道三段,细颗粒物(PM2.5),73,79,58,53,37,144,,67,67,13,17,12,7,0.7,0.7
2024-06-14T1200,1062A,117.9531,40.9081,承德市,铁路,,35,10,42,3,15,111,,70,70,7,14,9,14,0.2,0.4
2024-06-14T1200,1063A,117.9392,40.9763,承德市,中国银行,,35,7,39,3,15,109,,68,68,5,13,6,11,0.2,0.3
2024-06-14T1200,1064A,117.9503,40.928,承德市,开发区,,36,23,42,9,20,114,,70,70,8,15,7,13,0.2,0.4
2024-06-14T1200,1065A,117.8051,40.9655,承德市,文化中心,,35,17,51,3,17,112,,70,70,6,19,8,27,0.2,0.4
2024-06-14T1200,1066A,117.9268,41.0026,承德市,离宫,,35,13,31,3,18,109,,60,60,2,7,3,5,0.2,0.3
2024-06-14T1200,2314A,117.47,30.6618,池州市,池州学院,,41,34,34,18,20,131,,75,75,2,9,12,7,0.9,0.8
2024-06-14T1200,3237A,117.4918,30.6617,池州市,展览馆,,39,31,30,21,18,123,,74,74,4,10,4,4,0.8,0.8
2024-06-14T1200,3333A,117.5627,30.695,池州市,第八中学,,41,30,30,22,19,131,,71,71,5,13,7,4,0.5,0.5
2024-06-14T1200,3334A,117.5038,30.6243,池州市,第十二中学,,40,34,33,17,19,126,,63,63,6,17,7,5,0.7,0.9
2024-06-14T1200,1744A,118.9233,42.2816,赤峰市,松山一中,,,38,19,15,10,89,,58,58,,23,9,11,0.4,0.1
2024-06-14T1200,1745A,118.9576,42.2728,赤峰市,哈达街,,27,15,23,8,9,85,,57,57,14,20,11,13,0.5,0.6
2024-06-14T1200,1746A,118.8788,42.2554,赤峰市,天义路,,29,11,16,3,9,92,,62,62,15,20,6,11,0.2,0.3
2024-06-14T1200,3058A,119.2658,42.0353,赤峰市,银河街,,31,20,36,9,15,98,,62,62,14,19,15,15,0.3,0.4
2024-06-14T1200,3286A,118.9359,42.3147,赤峰市,桥北物流园区,,28,,27,19,12,87,,51,51,14,25,6,7,0.6,0.7
2024-06-14T1200,2521A,107.3476,22.4136,崇左市,市环保局江州分局,,,56,40,27,19,51,,24,24,11,13,6,6,,0.3
2024-06-14T1200,2522A,107.3702,22.3707,崇左市,城南新区,细颗粒物(PM2.5),54,42,33,38,22,56,,34,30,22,12,8,5,0.8,0.6
2024-06-14T1200,2298A,118.3093,32.3153,滁州市,老年大学,臭氧1小时,118,70,64,25,41,236,,142,142,16,25,,11,0.7,0.9
2024-06-14T1200,2299A,118.3244,32.2786,滁州市,人大宾馆,臭氧1小时,112,45,60,28,45,223,,148,148,16,22,7,8,0.7,0.9
2024-06-14T1200,3207A,118.3118,32.3038,滁州市,市政府原办公楼,臭氧1小时,114,52,59,40,44,228,,148,148,13,20,8,9,0.8,1
2024-06-14T1200,3331A,118.3267,32.2634,滁州市,图书馆,臭氧1小时,108,59,63,21,44,216,,144,144,10,19,8,9,1.0,1.3
2024-06-14T1200,2605A,101.5482,25.0441,楚雄彝族自治州,州环境监测站,,15,6,5,3,2,46,,42,42,3,4,3,3,0.5,0.5
2024-06-14T1200,2606A,101.538,25.0492,楚雄彝族自治州,市经济开发区,,14,8,10,3,3,42,,38,36,4,5,4,4,0.6,0.6
2024-06-14T1200,2548A,107.5277,31.2827,达州市,达州职业技术学院,颗粒物(PM10),54,57,47,18,18,114,,23,23,21,27,12,7,0.7,0.5
2024-06-14T1200,2549A,107.5086,31.2186,达州市,市环境监测站,颗粒物(PM10),65,79,52,36,26,138,,37,37,27,35,14,9,1.4,1.1
2024-06-14T1200,2550A,107.4988,31.2132,达州市,凤凰小区,细颗粒物(PM2.5),67,75,51,48,30,135,,39,39,26,32,19,11,1.5,1
2024-06-14T1200,2551A,107.5082,31.1986,达州市,达县机关宾馆,细颗粒物(PM2.5),65,78,59,47,32,134,,41,41,31,46,9,9,0.9,0.8
2024-06-14T1200,2552A,107.4644,31.2124,达州市,市政中心,颗粒物(PM10),63,75,53,44,28,138,,44,44,32,34,26,11,1.7,1
2024-06-14T1200,2614A,100.1542,25.7054,大理白族自治州,大理市环境监测站,,18,18,11,8,8,42,,47,42,12,6,4,4,0.5,0.5
2024-06-14T1200,2615A,100.2171,25.5811,大理白族自治州,大理古城,,20,6,10,3,7,64,,45,45,5,8,7,7,0.8,0.8
2024-06-14T1200,1109A,121.612,38.9741,大连市,甘井子,,30,20,26,14,15,95,,71,71,20,18,5,6,0.6,0.5
2024-06-14T1200,1110A,121.565,38.9511,大连市,周水子,,28,19,23,13,12,87,,61,61,24,19,9,8,0.6,0.5
2024-06-14T1200,1111A,121.5637,38.8845,大连市,星海三站,,34,19,22,14,9,108,,76,76,15,9,6,6,0.6,0.5
2024-06-14T1200,1112A,121.6302,38.9117,大连市,青泥洼桥,,30,20,23,12,13,96,,79,79,18,10,7,8,0.7,0.7
2024-06-14T1200,1113A,121.6251,38.8638,大连市,傅家庄,,35,21,21,11,13,112,,82,82,12,9,6,7,0.5,0.5
2024-06-14T1200,1114A,121.5213,38.8661,大连市,七贤岭,,35,16,23,10,14,109,,74,74,13,13,5,5,0.4,0.4
2024-06-14T1200,1115A,121.2529,38.8061,大连市,旅顺,,40,17,18,12,12,128,,92,92,15,12,7,8,0.3,0.3
2024-06-14T1200,1116A,121.7485,39.1311,大连市,金州,,29,16,18,14,12,90,,78,78,16,10,8,8,0.5,0.5
2024-06-14T1200,1117A,121.7811,39.0496,大连市,开发区,,30,21,25,14,14,94,,74,74,30,15,6,6,0.5,0.4
2024-06-14T1200,1118A,121.9762,39.0631,大连市,双D港,,27,14,23,12,14,86,,73,73,16,12,6,6,0.5,0.4
2024-06-14T1200,1789A,124.81117,46.03138,大庆市,大同区,,21,,15,13,19,66,,64,63,5,7,4,5,0.3,0.3
2024-06-14T1200,1790A,125.129,46.533,大庆市,龙凤区,,,,21,12,14,53,,50,45,,13,7,7,0.1,0.4
2024-06-14T1200,1791A,124.902,46.408,大庆市,红岗区,,29,21,15,20,16,58,,58,52,6,11,5,5,0.3,0.3
2024-06-14T1200,1792A,125.153,46.586,大庆市,萨尔图区,,30,30,19,7,12,40,,48,38,14,12,6,7,0.3,0.4
2024-06-14T1200,1793A,124.9042,46.6215,大庆市,让胡路区,,21,21,28,3,8,46,,49,43,5,10,5,7,0.2,0.2
2024-06-14T1200,3481A,125.141,46.634,大庆市,萨区政府监测点,,24,24,31,3,8,39,,48,37,17,14,6,5,0.2,0.3
2024-06-14T1200,1723A,113.2994,40.0758,大同市,云冈宾馆,,38,23,26,13,11,120,,90,90,7,12,6,7,0.3,0.4
2024-06-14T1200,1724A,113.3444,40.0917,大同市,大同大学,,35,18,24,12,13,110,,72,72,5,14,7,10,0.2,0.3
2024-06-14T1200,1725A,113.2661,40.1269,大同市,安家小村,,37,14,24,6,8,116,,88,88,4,8,10,11,0.3,0.3
2024-06-14T1200,1726A,113.2711,40.0844,大同市,教育学院,,38,,26,24,13,119,,89,89,8,11,7,9,0.4,0.4
2024-06-14T1200,3282A,113.3397,40.0597,大同市,大同市卫生学校,,,18,28,13,13,120,,88,88,6,12,8,11,,0.5
2024-06-14T1200,3565A,113.1367,40.1122,大同市,云冈站,,39,12,26,3,12,122,,82,82,4,9,7,11,0.3,0.4
2024-06-14T1200,3566A,113.1186,40.2556,大同市,图书馆,,38,15,25,8,9,121,,86,86,7,13,6,10,0.4,0.6
2024-06-14T1200,3567A,113.5931,40.0461,大同市,区一中,,39,14,29,8,8,123,,94,94,7,10,4,5,0.3,0.4
2024-06-14T1200,3676A,113.2802,40.0995,大同市,第二人民医院,,37,16,24,10,10,118,,87,87,6,10,10,11,0.4,0.4
2024-06-14T1200,2269A,124.1069,50.4097,大兴安岭地区,科技局,,21,21,18,6,14,59,,46,46,5,6,6,6,0.3,0.3
2024-06-14T1200,3663A,124.1164,50.4278,大兴安岭地区,红旗社区,,20,7,6,3,5,64,,56,56,2,3,4,4,0.3,0.3
2024-06-14T1200,1600A,124.3303,40.0625,丹东市,江湾东路,,25,25,21,16,16,71,,49,49,7,11,6,9,0.4,0.5
2024-06-14T1200,1601A,124.4256,40.1503,丹东市,临江后街,,22,16,15,10,12,70,,51,51,5,9,10,9,0.5,0.6
2024-06-14T1200,1602A,124.3933,40.1461,丹东市,元宝山,,19,15,20,10,17,59,,42,42,12,14,8,8,0.4,0.5
2024-06-14T1200,1603A,124.3633,40.1092,丹东市,民主桥,,21,17,20,10,12,65,,47,47,3,10,5,6,0.4,0.5
2024-06-14T1200,3541A,109.5726,19.5167,儋州市,第一中学子站,,,10,19,,17,60,,68,65,1,3,5,5,0.4,0.4
2024-06-14T1200,3542A,109.5567,19.5187,儋州市,东坡学校子站,,19,14,16,7,8,58,,66,62,2,3,4,4,0.4,0.5
2024-06-14T1200,2616A,98.5842,24.428,德宏傣族景颇族自治州,德宏州监测站,,18,16,15,10,6,57,,32,32,8,9,5,4,0.7,0.6
2024-06-14T1200,3677A,98.5881,24.4368,德宏傣族景颇族自治州,芒市人民政府综合楼,,,18,14,13,7,57,,30,30,9,8,12,8,,0.6
2024-06-14T1200,1901A,104.4239,31.1208,德阳市,东山公园,颗粒物(PM10),52,54,44,28,24,142,,94,94,8,11,5,5,0.5,0.5
2024-06-14T1200,1902A,104.3826,31.1317,德阳市,西小区,颗粒物(PM10),51,52,46,30,28,150,,71,71,19,26,7,6,0.6,0.6
2024-06-14T1200,1904A,104.3553,31.1091,德阳市,耐火材料厂,颗粒物(PM10),63,76,54,34,28,159,,55,55,28,32,9,7,0.8,0.7
2024-06-14T1200,3639A,104.4019,31.1244,德阳市,市教育局,颗粒物(PM10),51,51,46,29,28,147,,72,72,14,24,5,4,0.6,0.6
2024-06-14T1200,1622A,116.3032,37.4674,德州市,儿童乐园,颗粒物(PM10),70,90,92,24,23,169,,127,122,8,10,12,9,0.7,0.6
2024-06-14T1200,1624A,116.2991,37.4451,德州市,监理站,臭氧1小时,93,90,95,27,28,194,,135,135,11,16,16,11,0.6,0.6
2024-06-14T1200,3066A,116.2721,37.4379,德州市,九衢泉纯净水厂,臭氧1小时,79,92,95,31,24,183,,126,126,12,14,10,7,0.6,0.6
2024-06-14T1200,3371A,116.3728,37.4403,德州市,开发区人民医院,臭氧1小时,83,100,100,29,20,186,,127,127,6,8,13,10,0.6,0.6
2024-06-14T1200,3372A,116.3572,37.4094,德州市,太阳城中学,臭氧1小时,85,92,113,29,22,188,,126,126,11,14,13,9,0.8,0.6
2024-06-14T1200,3511A,116.5652,37.3319,德州市,陵城艺术中心,,,114,117,36,20,172,,128,128,11,15,,31,0.7,0.5
2024-06-14T1200,2621A,99.7056,27.8317,迪庆藏族自治州,迪庆州站,,29,14,17,9,8,91,,53,53,9,10,10,11,0.4,0.5
2024-06-14T1200,3180A,99.7136,27.8094,迪庆藏族自治州,质量技术监督局,,27,16,17,3,7,85,,55,55,8,9,8,8,0.4,0.4
2024-06-14T1200,2663A,104.6241,35.5734,定西市,东关小学,,46,46,49,17,21,140,,69,69,5,15,8,8,0.2,0.3
2024-06-14T1200,2664A,104.6194,35.5934,定西市,供电公司,,43,32,48,14,24,135,,59,59,2,27,3,3,0.2,0.3
2024-06-14T1200,1389A,113.7547,23.0494,东莞市,莞城梨川,,24,11,27,7,12,76,,57,57,8,12,8,8,0.6,0.6
2024-06-14T1200,1390A,113.7944,23.0128,东莞市,东城石井,,28,13,26,7,13,87,,63,63,10,12,4,4,0.5,0.5
2024-06-14T1200,1391A,113.7383,22.9658,东莞市,南城西平,,24,13,22,7,11,74,,62,62,9,8,3,3,0.6,0.5
2024-06-14T1200,3319A,113.7338,23.0381,东莞市,万江金泰,,27,13,27,8,14,85,,61,61,8,10,3,6,0.6,0.6
2024-06-14T1200,3626A,113.7533,23.0202,东莞市,南城元岭,,24,10,25,7,12,76,,56,56,6,11,6,6,0.6,0.6
2024-06-14T1200,3627A,113.7875,23.0457,东莞市,东城主山,,26,12,27,8,13,83,,57,57,7,9,8,8,0.6,0.6
2024-06-14T1200,1666A,118.6614,37.4309,东营市,市环保局,,28,27,61,14,23,89,,118,94,9,17,8,10,0.2,0.3
2024-06-14T1200,3036A,118.6904,37.4338,东营市,开发区管委会,,28,23,75,12,19,89,,117,93,9,14,6,7,0.1,0.2
2024-06-14T1200,3365A,118.5719,37.565,东营市,垦利区民丰路,,34,34,59,17,21,88,,123,97,9,12,11,11,0.6,0.6
2024-06-14T1200,3498A,118.5055,37.8612,东营市,河口城区,,36,17,61,15,19,115,,128,119,5,10,5,7,0.4,0.5
2024-06-14T1200,3646A,118.4978,37.4623,东营市,胜利站,,,,66,,21,83,,123,100,12,15,8,9,,0.6
2024-06-14T1200,3734A,118.35,37.26,东营市,理想之城,,29,29,62,19,22,72,,93,78,6,12,5,11,0.5,0.5
2024-06-14T1200,1591A,110.0023,39.8129,鄂尔多斯市,综合楼,,41,34,70,7,11,130,,98,98,5,17,11,18,0.5,0.5
2024-06-14T1200,1592A,109.9486,39.8261,鄂尔多斯市,巴音孟克林场办事处,,37,24,68,3,14,117,,89,89,6,21,6,9,0.4,0.5
2024-06-14T1200,1593A,109.7736,39.5986,鄂尔多斯市,康泽苑,,41,27,57,7,18,129,,102,102,5,9,10,11,0.3,0.3
2024-06-14T1200,1594A,109.8119,39.5989,鄂尔多斯市,华泰汽车城,,38,31,54,12,21,121,,90,90,5,13,8,10,0.4,0.4
2024-06-14T1200,1595A,109.9734,39.7884,鄂尔多斯市,奥林花园,,37,31,64,14,19,118,,96,96,8,20,9,12,0.4,0.5
2024-06-14T1200,2436A,114.8938,30.3994,鄂州市,市政府,颗粒物(PM10),55,60,38,24,15,123,,64,64,11,12,6,7,0.9,0.7
2024-06-14T1200,2437A,114.8989,30.3714,鄂州市,赵家坝,,48,48,33,19,14,137,,69,69,7,15,8,11,0.7,0.6
2024-06-14T1200,3654A,114.8094,30.4089,鄂州市,精准医疗中心,,44,33,36,19,14,140,,70,70,7,18,9,16,0.5,1
2024-06-14T1200,2454A,109.4978,30.2981,恩施土家族苗族自治州,湖北民院,,39,39,32,23,23,109,,41,41,7,14,9,8,0.7,0.7
2024-06-14T1200,2455A,109.4707,30.2798,恩施土家族苗族自治州,州电力总公司,,46,46,31,21,23,106,,38,38,17,22,8,8,0.7,0.7
2024-06-14T1200,3549A,109.5061,30.3772,恩施土家族苗族自治州,龙凤新区,,31,26,27,17,18,97,,44,44,17,15,6,6,0.8,0.7
2024-06-14T1200,2499A,108.3411,21.6158,防城港市,沙万,,32,32,27,12,11,50,,42,32,7,11,8,9,0.6,0.6
2024-06-14T1200,2500A,108.3514,21.7731,防城港市,防城档案局,,22,22,24,10,11,57,,43,37,7,8,4,4,0.6,0.6
2024-06-14T1200,2501A,108.3506,21.6414,防城港市,大海花园,,23,23,28,10,8,61,,52,44,7,8,5,6,0.6,0.6
2024-06-14T1200,1371A,113.1294,23.0067,佛山市,湾梁,,19,12,24,12,12,60,,53,53,15,13,7,7,0.7,0.7
2024-06-14T1200,1372A,113.1083,23.0478,佛山市,华材职中,,20,,19,13,14,64,,53,53,16,16,5,5,0.4,0.4
2024-06-14T1200,1373A,113.144,23.0453,佛山市,南海气象局,,25,25,30,14,15,55,,44,44,19,13,6,6,0.5,0.5
2024-06-14T1200,1374A,113.2881,22.8094,佛山市,顺德苏岗,,16,,18,3,13,51,,57,56,11,9,4,4,0.5,0.5
2024-06-14T1200,1376A,112.8383,22.8678,佛山市,高明孔堂,,18,,21,9,13,55,,59,59,6,5,6,6,0.5,0.5
2024-06-14T1200,1377A,112.8836,23.1588,佛山市,三水监测站,,13,,23,9,16,41,,27,27,16,30,3,3,0.5,0.6
2024-06-14T1200,1378A,112.867,23.185,佛山市,三水云东海,,13,11,23,3,13,41,,29,29,15,22,3,4,0.5,0.5
2024-06-14T1200,3625A,113.2544,22.7642,佛山市,容桂街道办,,13,9,17,9,13,41,,58,55,26,14,6,6,0.4,0.4
2024-06-14T1200,1282A,119.2681,26.0504,福州市,师大,,37,37,18,13,10,55,,45,41,21,15,4,3,0.6,0.4
2024-06-14T1200,1283A,119.2984,26.1028,福州市,五四北路,,38,38,30,25,14,65,,47,47,22,13,3,3,0.5,0.4
2024-06-14T1200,1284A,119.2648,26.0768,福州市,杨桥西路,,23,23,18,13,13,65,,46,46,14,13,3,3,0.4,0.4
2024-06-14T1200,1285A,119.317,26.0746,福州市,紫阳,,40,40,22,16,12,46,,35,32,26,16,2,2,0.6,0.5
2024-06-14T1200,3048A,119.5799,26.0936,福州市,九龙,,28,28,15,13,8,49,,56,44,11,5,6,4,0.4,0.3
2024-06-14T1200,3526A,119.5189,25.9664,福州市,吴航,,38,38,24,22,14,63,,51,41,10,10,5,4,0.5,0.5
2024-06-14T1200,1755A,123.7977,41.8491,抚顺市,望花区,,32,24,27,12,16,102,,91,91,16,17,1,3,0.5,0.5
2024-06-14T1200,1756A,123.9161,41.8822,抚顺市,顺城区,,31,19,28,7,11,98,,94,94,24,18,7,7,0.6,0.6
2024-06-14T1200,1757A,124.0436,41.8611,抚顺市,东洲区,,29,15,30,8,12,90,,87,87,13,11,8,9,0.3,0.4
2024-06-14T1200,1758A,123.9247,41.8642,抚顺市,新抚区,,25,16,22,10,14,79,,63,63,16,15,6,7,0.6,0.7
2024-06-14T1200,1759A,124.0972,41.8961,抚顺市,大伙房水库,,24,12,22,8,12,75,,85,84,10,7,7,8,0.4,0.5
2024-06-14T1200,1760A,123.7086,41.8391,抚顺市,沈抚新城,,34,24,25,3,25,107,,86,86,15,19,8,8,0.5,0.8
2024-06-14T1200,2376A,116.2127,28.0814,抚州市,桐源党溪,,26,26,25,10,10,44,,27,27,3,5,5,5,0.3,0.3
2024-06-14T1200,2377A,116.3544,27.9831,抚州市,市站,,18,18,17,7,8,54,,32,32,6,9,3,5,0.5,0.6
2024-06-14T1200,2378A,116.3565,27.963,抚州市,血防站,,27,27,20,9,8,48,,26,26,7,12,6,3,0.7,0.8
2024-06-14T1200,2379A,116.3564,28.0007,抚州市,采茶剧团,,25,25,17,6,7,51,,24,24,3,11,2,3,0.6,0.9
2024-06-14T1200,2380A,116.385,27.9647,抚州市,医学分院,,19,19,20,8,7,53,,28,28,6,9,3,4,0.8,0.8
2024-06-14T1200,2207A,121.6094,41.998,阜新市,工业园区,,37,23,27,13,16,117,,80,80,8,17,6,7,0.5,0.5
2024-06-14T1200,2208A,121.6697,42.0279,阜新市,长青街,,35,31,38,12,17,110,,80,80,3,14,8,8,0.6,0.7
2024-06-14T1200,2209A,121.6673,42.0705,阜新市,农业园区,,32,,38,12,24,102,,76,76,11,17,7,7,0.4,0.4
2024-06-14T1200,2210A,121.6717,42.0224,阜新市,东苑,,43,43,31,12,19,110,,77,77,8,15,4,8,0.5,0.6
2024-06-14T1200,2211A,121.6506,42.0498,阜新市,玉龙新城,,33,13,29,11,16,104,,74,74,8,17,6,6,0.4,0.5
2024-06-14T1200,2301A,115.8277,32.8929,阜阳市,市监测站,臭氧1小时,63,35,49,26,27,170,,122,122,8,14,8,8,0.5,0.5
2024-06-14T1200,2303A,115.8554,32.8605,阜阳市,开发区,臭氧1小时,80,30,41,20,22,184,,126,126,10,16,5,7,0.5,0.4
2024-06-14T1200,2875A,115.784,32.8892,阜阳市,阜阳职业技术学院,臭氧1小时,70,38,49,16,21,176,,134,134,7,12,6,7,0.4,0.4
2024-06-14T1200,3468A,115.7901,32.8613,阜阳市,市规划展馆,颗粒物(PM10),66,82,52,22,31,169,,116,116,9,14,4,4,0.5,0.5
2024-06-14T1200,3469A,115.836,32.9183,阜阳市,枣园社区,颗粒物(PM10),59,67,49,22,29,164,,119,119,8,15,5,6,0.5,0.5
2024-06-14T1200,2669A,102.9099,34.9841,甘南藏族自治州,州政府,,37,18,31,9,21,118,,65,65,2,11,4,4,0.7,0.7
2024-06-14T1200,3380A,102.8914,34.9617,甘南藏族自治州,甘肃民族师范学院,,39,21,32,9,19,122,,56,56,3,14,8,8,0.6,0.6
2024-06-14T1200,2570A,101.9603,30.0475,甘孜藏族自治州,水桥子,,27,27,16,3,13,51,,36,28,23,19,4,3,0.4,0.3
2024-06-14T1200,3065A,101.9533,29.9972,甘孜藏族自治州,州环保局,,25,25,22,13,10,46,,40,31,27,23,2,2,0.3,0.3
2024-06-14T1200,3414A,115.8347,28.932,赣江新区,桑海产业园,,23,19,20,10,13,71,,37,37,16,21,11,11,0.4,0.4
2024-06-14T1200,2363A,114.9367,25.8664,赣州市,地委,,21,16,19,9,9,65,,51,51,2,8,10,8,1.1,1.1
2024-06-14T1200,2364A,114.9461,25.8481,赣州市,气象台,,23,23,20,8,11,62,,50,50,9,11,17,16,0.5,0.5
2024-06-14T1200,2365A,114.9322,25.8333,赣州市,市图书馆,,20,16,19,7,9,64,,51,51,7,9,4,8,0.8,0.8
2024-06-14T1200,2366A,114.8905,25.8471,赣州市,华坚鞋城,,20,20,25,10,11,61,,45,45,7,13,1,5,0.3,0.3
2024-06-14T1200,3109A,115.0093,25.8613,赣州市,赣县区卫计委,,39,,17,27,9,54,,31,31,12,16,7,7,0.5,0.5
2024-06-14T1200,2683A,106.2319,36.1417,固原市,马园,颗粒物(PM10),55,59,48,19,15,129,,65,65,7,25,10,7,0.4,0.4
2024-06-14T1200,2684A,106.2792,36.0022,固原市,监测站,颗粒物(PM10),52,54,43,23,17,128,,82,82,9,22,7,6,0.4,0.4
2024-06-14T1200,2685A,106.2375,36.0211,固原市,新区,颗粒物(PM10),52,53,39,16,14,129,,110,110,5,10,6,6,0.2,0.3
2024-06-14T1200,3522A,106.2177,35.9959,固原市,原州区十五小,颗粒物(PM10),57,63,43,26,19,129,,109,109,6,8,8,8,0.3,0.3
2024-06-14T1200,2544A,106.6303,30.4576,广安市,市委,,46,45,52,29,32,147,,70,70,9,21,11,9,0.6,0.6
2024-06-14T1200,2545A,106.6271,30.4663,广安市,友谊中学,,47,41,40,28,29,150,,75,75,12,23,9,8,0.6,0.7
2024-06-14T1200,2547A,106.6388,30.4551,广安市,广电花园,,45,39,47,23,29,142,,68,68,9,20,12,10,0.6,0.6
2024-06-14T1200,2902A,106.6351,30.4865,广安市,北辰小学,,50,50,47,26,29,149,,69,69,11,20,13,11,0.6,0.6
2024-06-14T1200,2523A,105.8945,32.4535,广元市,黑石坡,,,14,20,8,12,102,,54,54,8,15,,15,0.2,0.4
2024-06-14T1200,2524A,105.821,32.4444,广元市,老城,,36,13,29,6,15,114,,56,56,10,31,3,12,0.1,0.4
2024-06-14T1200,2526A,105.8628,32.4287,广元市,监测站,,38,12,22,3,14,120,,60,60,9,15,6,10,0.4,0.6
2024-06-14T1200,3617A,105.8047,32.4166,广元市,经开区,,38,30,41,11,20,119,,55,55,14,21,16,13,0.6,0.7
2024-06-14T1200,1345A,113.2347,23.1423,广州市,广雅中学,,26,24,28,18,17,71,,52,52,24,26,4,4,0.8,0.8
2024-06-14T1200,1346A,113.2612,23.105,广州市,市五中,,27,22,61,16,29,84,,59,59,14,20,4,4,0.6,0.6
2024-06-14T1200,1348A,113.3478,23.0916,广州市,广东商学院,,22,16,30,13,19,68,,52,52,16,31,3,4,0.4,0.4
2024-06-14T1200,1349A,113.4332,23.1047,广州市,市八十六中,,26,26,35,13,16,28,,16,16,32,44,3,3,0.7,0.7
2024-06-14T1200,1350A,113.3505,22.9483,广州市,番禺中学,,21,15,29,9,15,66,,62,62,13,18,5,6,0.6,0.6
2024-06-14T1200,1351A,113.2146,23.3916,广州市,花都师范,,21,21,32,10,18,56,,41,41,14,27,5,6,0.5,0.6
2024-06-14T1200,1352A,113.2597,23.1331,广州市,市监测站,,25,24,38,17,21,69,,51,51,22,24,4,4,0.4,0.4
2024-06-14T1200,1353A,113.5618,23.312,广州市,九龙镇镇龙,,,,31,,17,,,112,103,23,25,7,6,0.5,0.5
2024-06-14T1200,1354A,113.2765,23.1544,广州市,麓湖,,23,23,29,14,16,59,,50,50,11,19,2,3,0.5,0.5
2024-06-14T1200,1355A,113.443,23.3035,广州市,帽峰山森林公园,,37,15,24,9,12,116,,63,63,19,24,3,2,0.7,0.7
2024-06-14T1200,2846A,113.3221,23.1322,广州市,体育西,,25,25,33,15,19,76,,50,50,9,21,3,3,0.6,0.7
2024-06-14T1200,3298A,113.5717,23.5491,广州市,从化街口,,20,20,24,12,14,47,,41,41,12,15,6,7,0.6,0.6
2024-06-14T1200,3299A,113.3472,23.3692,广州市,白云竹料,,,34,36,21,18,66,,32,32,25,32,4,4,,0.8
2024-06-14T1200,3300A,113.2981,23.237,广州市,白云嘉禾,,41,41,36,22,19,64,,43,43,36,37,5,5,0.9,0.8
2024-06-14T1200,3301A,113.4256,23.1716,广州市,黄埔科学城,,35,35,36,22,17,49,,26,26,30,38,3,3,0.7,0.7
2024-06-14T1200,3302A,113.3942,23.0483,广州市,番禺大学城,,28,28,31,9,16,55,,39,39,14,29,6,2,0.3,1
2024-06-14T1200,3303A,113.4922,22.8168,广州市,南沙黄阁,,26,26,32,9,16,67,,52,52,15,18,5,5,0.6,0.7
2024-06-14T1200,3304A,113.5342,22.7896,广州市,南沙街,,21,18,29,9,13,66,,48,48,12,16,7,7,0.6,0.6
2024-06-14T1200,3443A,113.2902,23.5544,广州市,花都梯面,,,36,35,16,16,67,,30,30,,23,4,4,0.6,0.7
2024-06-14T1200,3445A,113.7858,23.7478,广州市,从化良口,,15,9,19,6,10,47,,42,42,4,8,4,5,0.6,0.6
2024-06-14T1200,3446A,113.8051,23.2614,广州市,增城荔城,,45,45,32,28,18,64,,,,22,20,4,4,0.6,0.5
2024-06-14T1200,2506A,109.6047,23.0666,贵港市,江南子站,,19,,36,13,17,53,,33,33,10,13,9,9,0.4,0.5
2024-06-14T1200,2507A,109.6014,23.0948,贵港市,贵城子站,,23,23,38,3,18,55,,28,28,9,14,9,9,0.5,0.6
2024-06-14T1200,2508A,109.5669,23.1065,贵港市,荷城子站,,22,22,33,3,9,61,,36,36,8,11,11,12,0.5,0.5
2024-06-14T1200,3405A,109.5886,23.1172,贵港市,新世纪学校,,22,12,31,3,15,68,,34,34,10,12,10,11,0.6,0.7
2024-06-14T1200,1439A,106.6899,26.5998,贵阳市,马鞍山,,22,22,19,7,9,51,,36,36,6,9,6,6,0.6,0.6
2024-06-14T1200,1440A,106.6971,26.5694,贵阳市,市环保站,,36,31,29,25,22,103,,70,70,17,23,7,4,0.7,0.7
2024-06-14T1200,1441A,106.6243,26.6266,贵阳市,鉴湖路,,33,24,21,9,12,105,,69,69,7,9,3,2,0.4,0.4
2024-06-14T1200,1442A,106.7487,26.6343,贵阳市,燕子冲,,,,20,,17,96,,54,54,,12,6,5,0.6,0.6
2024-06-14T1200,1443A,106.6555,26.4365,贵阳市,碧云窝,,44,44,27,22,10,95,,59,59,19,15,5,4,0.3,0.5
2024-06-14T1200,1444A,106.694,26.5161,贵阳市,中院村,,34,34,28,22,16,102,,60,60,13,22,8,6,0.6,0.6
2024-06-14T1200,1445A,106.7109,26.6027,贵阳市,红边门,,42,39,28,29,25,110,,78,78,14,17,7,6,0.6,0.6
2024-06-14T1200,1446A,106.7164,26.5699,贵阳市,新华路,,35,31,24,24,21,95,,66,66,16,15,6,4,0.6,0.4
2024-06-14T1200,1447A,106.674,26.5424,贵阳市,太慈桥,,29,27,17,19,12,91,,42,42,14,16,5,4,0.5,0.5
2024-06-14T1200,1862A,110.4144,25.3167,桂林市,电子科大尧山校区,,18,14,20,12,10,26,,16,16,5,5,5,5,0.5,0.5
2024-06-14T1200,1863A,110.2819,25.2697,桂林市,监测站,,29,20,22,20,15,16,,16,14,24,15,5,6,1.0,0.9
2024-06-14T1200,1864A,110.3089,25.2708,桂林市,龙隐路小学,,22,18,21,15,13,19,,16,16,16,13,4,4,0.8,0.7
2024-06-14T1200,1865A,110.2869,25.2178,桂林市,八中,,16,14,20,11,10,20,,12,11,18,13,4,4,0.7,0.7
2024-06-14T1200,3403A,110.1764,25.2381,桂林市,创业大厦,,12,,18,7,16,36,,16,16,17,15,7,23,0.5,0.6
2024-06-14T1200,3531A,110.296,25.1253,桂林市,旅游学院,,13,,8,9,8,10,,12,10,20,11,5,5,0.7,0.6
2024-06-14T1200,2674A,100.2561,34.4714,果洛藏族自治州,玛沁县大武镇,,39,,16,12,12,124,,85,85,7,11,8,7,0.4,0.4
2024-06-14T1200,1129A,126.5422,45.755,哈尔滨市,岭北,,29,10,19,8,15,92,,73,73,8,18,10,11,0.5,0.2
2024-06-14T1200,1130A,126.561,45.8167,哈尔滨市,松北商大,,25,19,20,3,8,78,,59,59,12,16,5,5,0.5,0.5
2024-06-14T1200,1131A,126.979,45.5419,哈尔滨市,阿城会宁,,34,19,25,3,17,106,,81,81,9,13,8,9,0.4,0.5
2024-06-14T1200,1132A,126.599,45.7222,哈尔滨市,南岗学府路,,30,21,30,8,9,95,,74,74,8,13,8,8,0.5,0.6
2024-06-14T1200,1133A,126.689,45.7733,哈尔滨市,太平宏伟公园,,,32,21,12,11,98,,74,74,,22,7,4,0.4,0.4
2024-06-14T1200,1134A,126.635,45.7667,哈尔滨市,道外承德广场,,30,20,26,12,14,95,,67,67,11,21,8,9,0.4,0.6
2024-06-14T1200,1135A,126.685,45.7319,哈尔滨市,香坊红旗大街,,31,27,20,15,18,97,,71,71,11,18,6,5,0.4,0.5
2024-06-14T1200,1136A,126.6411,45.7258,哈尔滨市,动力和平路,,33,33,25,13,8,94,,71,71,13,19,6,7,0.3,0.4
2024-06-14T1200,1137A,126.593,45.7478,哈尔滨市,道里建国路,,29,24,22,7,13,90,,67,67,9,22,10,12,0.5,1.1
2024-06-14T1200,1138A,126.615,45.61,哈尔滨市,平房东轻厂,,32,20,24,10,11,100,,74,74,4,13,7,8,0.1,0.3
2024-06-14T1200,1139A,126.595,45.9855,哈尔滨市,呼兰师专,,29,15,22,8,11,91,,74,74,7,13,6,6,0.4,0.5
2024-06-14T1200,1140A,126.6206,45.6842,哈尔滨市,省农科院,,32,28,27,8,11,101,,77,77,11,22,6,5,0.5,0.5
2024-06-14T1200,2688A,93.5128,42.8172,哈密市,地区监测站,颗粒物(PM10),62,74,45,25,18,106,,82,80,13,15,14,5,0.3,0.3
2024-06-14T1200,2689A,93.4961,42.8328,哈密市,哈密师范学校,颗粒物(PM10),55,60,44,19,14,114,,83,82,9,17,8,6,0.4,0.5
2024-06-14T1200,2671A,100.9048,36.9639,海北藏族自治州,海晏县西海镇,,44,15,13,12,13,138,,87,87,6,8,13,12,0.4,0.4
2024-06-14T1200,3867A,102.0738,36.5056,海东市,平安区公安北苑,,35,23,31,8,19,111,,54,54,12,18,15,10,0.5,0.5
2024-06-14T1200,1410A,110.3232,20.0574,海口市,海南大学,,26,20,23,11,12,81,,67,67,8,10,6,6,0.5,0.4
2024-06-14T1200,1411A,110.283,20.0053,海口市,秀英海南医院,,30,30,26,12,14,70,,57,57,6,11,6,6,0.3,0.3
2024-06-14T1200,1412A,110.338,19.9969,海口市,海南师范大学,,27,27,25,10,12,78,,57,57,4,10,7,7,0.4,0.4
2024-06-14T1200,1413A,110.33,20.0356,海口市,龙华路环保局宿舍,,26,26,24,12,12,76,,62,62,7,9,6,6,0.3,0.3
2024-06-14T1200,3539A,110.5111,19.9736,海口市,桂林洋子站,,23,16,25,10,14,72,,58,58,3,7,6,6,0.2,0.3
2024-06-14T1200,2673A,100.6188,36.2866,海南藏族自治州,共和县恰卜恰镇,,38,,18,12,9,120,,76,76,11,13,13,15,0.5,0.5
2024-06-14T1200,2676A,97.3731,37.3753,海西蒙古族藏族自治州,德令哈市,,,19,20,6,11,138,,134,128,,9,12,17,0.6,0.6
2024-06-14T1200,1048A,114.5302,36.6116,邯郸市,东污水处理厂,臭氧1小时,77,73,66,36,30,181,,131,131,8,15,4,4,0.4,0.5
2024-06-14T1200,1049A,114.4918,36.5713,邯郸市,矿院,臭氧1小时,77,71,53,29,25,181,,127,127,11,18,5,7,0.5,0.7
2024-06-14T1200,1050A,114.484,36.6133,邯郸市,丛台公园,臭氧1小时,85,70,64,24,25,188,,135,135,8,14,7,9,0.4,0.6
2024-06-14T1200,3458A,114.7895,36.5593,邯郸市,香泉濮院小区,颗粒物(PM10),90,129,76,36,27,183,,120,120,11,13,8,8,0.6,0.4
2024-06-14T1200,3579A,114.50634,36.77178,邯郸市,永年区实验高中,臭氧1小时,101,78,76,24,26,201,,141,141,4,10,4,7,0.5,0.7
2024-06-14T1200,3580A,114.20016,36.44293,邯郸市,峰峰矿区临水派出所,臭氧1小时,99,87,75,28,26,199,,149,149,5,7,4,7,0.0,0.1
2024-06-14T1200,2634A,106.9893,33.1842,汉中市,汉川机床厂子校,,44,33,23,21,14,138,,78,78,10,10,14,5,0.9,0.4
2024-06-14T1200,2635A,107.0154,33.0706,汉中市,市监测站,颗粒物(PM10),51,51,32,17,20,138,,75,75,13,11,11,8,1.0,0.7
2024-06-14T1200,2636A,107.0089,33.1138,汉中市,鑫源开发区,,48,48,29,21,18,136,,73,73,13,13,15,10,0.8,0.4
2024-06-14T1200,2637A,107.007,33.0323,汉中市,南郑大河坎水厂,,44,44,32,19,17,136,,61,61,10,12,11,8,0.9,0.6
2024-06-14T1200,1223A,120.2072,30.2111,杭州市,滨江,臭氧1小时,104,49,77,30,44,207,,97,97,17,28,5,6,0.8,0.8
2024-06-14T1200,1224A,120.0633,30.2747,杭州市,西溪,臭氧1小时,64,30,52,22,41,171,,83,83,11,18,6,6,0.7,0.7
2024-06-14T1200,1226A,120.3461,30.3153,杭州市,下沙,臭氧1小时,114,175,91,54,39,227,,101,101,34,28,7,7,0.8,0.7
2024-06-14T1200,1227A,120.1269,30.2456,杭州市,卧龙桥,,49,41,49,28,44,155,,73,73,10,15,5,5,0.7,0.8
2024-06-14T1200,1228A,120.1903,30.2692,杭州市,浙江农大,臭氧1小时,97,44,53,32,45,197,,88,88,20,25,7,7,0.8,0.7
2024-06-14T1200,1230A,120.1197,30.3119,杭州市,和睦小学,臭氧1小时,73,30,58,23,34,178,,93,93,13,22,4,5,0.7,0.7
2024-06-14T1200,1231A,120.3019,30.4183,杭州市,临平镇,臭氧1小时,112,67,65,42,38,224,,101,101,21,21,7,6,0.8,0.7
2024-06-14T1200,1232A,120.2697,30.1819,杭州市,城厢镇,,,31,68,20,54,165,,80,80,,31,6,7,0.7,0.7
2024-06-14T1200,1233A,120.0883,30.1808,杭州市,云栖,臭氧1小时,112,56,59,37,34,223,,87,87,24,19,7,7,0.8,0.8
2024-06-14T1200,3557A,119.9464,30.0494,杭州市,镇二中,臭氧1小时,73,40,55,32,39,178,,87,87,15,24,9,8,0.9,0.8
2024-06-14T1200,3558A,119.7183,30.2367,杭州市,市府大楼,臭氧1小时,72,32,50,26,36,177,,94,94,13,19,7,6,0.7,0.7
2024-06-14T1200,3656A,120.1556,30.2864,杭州市,消防大队,,49,33,68,24,45,155,,86,86,14,23,6,7,1.0,0.9
2024-06-14T1200,1270A,117.1959,31.7848,合肥市,明珠广场,臭氧1小时,52,48,50,29,30,161,,135,135,12,19,8,8,0.4,0.5
2024-06-14T1200,1271A,117.3072,31.8764,合肥市,三里街,臭氧1小时,55,46,55,24,29,164,,132,132,13,23,7,8,0.5,0.5
2024-06-14T1200,1272A,117.2588,31.8707,合肥市,琥珀山庄,臭氧1小时,72,44,50,27,26,177,,148,148,8,15,6,7,0.8,0.8
2024-06-14T1200,1273A,117.1604,31.9052,合肥市,董铺水库,颗粒物(PM10),58,66,52,34,27,154,,129,129,8,12,1,2,0.6,0.5
2024-06-14T1200,1274A,117.25,31.8571,合肥市,长江中路,臭氧1小时,74,56,56,34,33,179,,148,148,9,15,6,8,0.8,0.8
2024-06-14T1200,1275A,117.266,31.9436,合肥市,庐阳区,臭氧1小时,59,44,56,24,32,167,,140,140,8,22,10,12,0.4,0.5
2024-06-14T1200,1276A,117.336,31.8586,合肥市,瑶海区,,49,36,53,29,28,155,,123,123,9,20,10,10,0.6,0.6
2024-06-14T1200,1277A,117.3027,31.7964,合肥市,包河区,,50,36,46,27,28,160,,137,137,8,19,6,7,0.7,0.7
2024-06-14T1200,1278A,117.2776,31.7385,合肥市,滨湖新区,臭氧1小时,55,39,44,34,30,164,,138,138,8,10,8,9,0.6,0.7
2024-06-14T1200,1279A,117.1318,31.8403,合肥市,高新区,,50,36,44,24,27,160,,136,136,10,15,8,9,0.7,0.8
2024-06-14T1200,3464A,117.3803,31.9147,合肥市,高教基地,,50,45,49,20,30,158,,118,118,7,16,6,7,0.6,0.6
2024-06-14T1200,3614A,79.924,37.0877,和田地区,地区环保局,颗粒物(PM10),95,140,172,37,35,112,,108,99,7,5,8,6,0.5,0.5
2024-06-14T1200,3615A,79.9131,37.113,和田地区,市环保局,颗粒物(PM10),82,114,165,41,63,105,,89,69,19,22,8,6,0.6,0.6
2024-06-14T1200,2517A,108.0497,24.6947,河池市,市环保站,,13,7,14,3,9,41,,51,47,16,11,7,7,0.6,0.6
2024-06-14T1200,2518A,108.0983,24.6989,河池市,市疾控中心,,11,7,15,6,10,34,,49,42,18,18,5,5,0.6,0.6
2024-06-14T1200,1696A,114.6778,23.7569,河源市,源西,,,,33,9,21,46,,30,30,9,17,3,3,0.6,0.6
2024-06-14T1200,1697A,114.6944,23.7586,河源市,东埔,,,,65,11,15,49,,33,33,12,16,6,6,0.6,0.6
2024-06-14T1200,1698A,114.6892,23.7233,河源市,老城,,16,11,25,8,13,51,,34,34,6,15,5,5,0.5,0.5
2024-06-14T1200,1718A,115.4208,35.2464,菏泽市,气象局,颗粒物(PM10),58,66,84,30,30,163,,111,111,14,16,7,8,0.4,0.3
2024-06-14T1200,1719A,115.4747,35.2375,菏泽市,市政协,,,79,79,44,33,166,,112,112,10,10,,7,0.3,0.2
2024-06-14T1200,3374A,115.5564,35.0891,菏泽市,定陶老年大学,颗粒物(PM10),54,58,68,29,27,143,,109,109,11,14,8,7,0.5,0.4
2024-06-14T1200,3647A,115.4702,35.2706,菏泽市,菏泽医专,颗粒物(PM10),60,70,72,25,20,138,,101,99,11,11,6,6,0.4,0.3
2024-06-14T1200,2514A,111.5264,24.4172,贺州市,环保小区,,32,29,32,22,19,36,,27,27,18,13,5,6,0.7,0.7
2024-06-14T1200,2515A,111.5608,24.4078,贺州市,政协大楼,,,,36,,21,20,,24,23,,14,6,6,0.6,0.6
2024-06-14T1200,3534A,111.4744,24.4553,贺州市,西湾,,34,34,27,18,18,34,,24,24,18,18,8,9,0.6,0.6
2024-06-14T1200,2385A,114.17,35.9019,鹤壁市,市监测站,臭氧1小时,102,119,72,63,43,204,,121,121,21,19,12,10,1.1,0.7
2024-06-14T1200,2386A,114.2956,35.7511,鹤壁市,市交警支队,臭氧1小时,111,105,72,41,30,222,,116,116,12,17,9,7,0.7,0.5
2024-06-14T1200,2387A,114.2878,35.7306,鹤壁市,迎宾馆,臭氧1小时,113,104,73,49,33,226,,115,115,18,20,11,9,0.7,0.5
2024-06-14T1200,3474A,114.2617,35.6822,鹤壁市,大新区,臭氧1小时,106,116,81,44,29,212,,97,97,19,22,8,7,0.5,0.3
2024-06-14T1200,3596A,114.1572,35.9603,鹤壁市,南山宾馆,臭氧1小时,94,109,71,45,33,195,,133,133,9,9,8,10,0.8,0.6
2024-06-14T1200,2245A,130.2684,47.3086,鹤岗市,斯达机电,,15,12,15,3,6,47,,55,50,6,7,12,11,0.3,0.2
2024-06-14T1200,2246A,130.3114,47.3388,鹤岗市,东山纸板厂,,22,22,19,3,5,47,,56,50,6,6,16,16,0.2,0.2
2024-06-14T1200,2247A,130.1097,47.3382,鹤岗市,五号水库,,17,14,15,7,6,54,,60,56,4,6,8,9,0.2,0.2
2024-06-14T1200,2263A,127.4833,50.2524,黑河市,交通局,,,,21,,12,66,,44,44,5,7,5,6,,0.3
2024-06-14T1200,2264A,127.5144,50.2341,黑河市,环保局,,22,17,19,12,11,69,,46,46,4,6,4,4,0.3,0.3
2024-06-14T1200,2265A,127.5291,50.2472,黑河市,大黑河岛,,30,13,17,10,13,96,,69,69,7,11,6,7,0.5,0.5
2024-06-14T1200,1074A,115.6838,37.7541,衡水市,电机北厂,臭氧1小时,87,34,102,26,33,189,,119,119,5,10,5,6,0.4,0.4
2024-06-14T1200,1075A,115.6303,37.7316,衡水市,市监测站,臭氧1小时,97,52,102,16,31,197,,128,128,8,12,3,4,0.7,0.6
2024-06-14T1200,3188A,115.6683,37.7217,衡水市,市城管局,臭氧1小时,95,47,116,20,32,196,,130,130,9,13,7,6,0.4,0.4
2024-06-14T1200,3459A,115.5989,37.5491,衡水市,地表水厂,臭氧1小时,97,54,109,15,20,197,,137,137,7,13,9,10,0.3,0.3
2024-06-14T1200,2456A,112.5003,26.9167,衡阳市,原169医院,,22,22,22,9,9,50,,25,25,14,14,5,5,1.0,0.7
2024-06-14T1200,2457A,112.6194,26.9258,衡阳市,衡阳化工总厂,,21,21,23,8,9,50,,28,28,10,11,7,6,0.7,0.5
2024-06-14T1200,2458A,112.6211,26.8956,衡阳市,珠晖区环保局,,23,23,22,10,10,54,,29,29,7,9,7,6,0.8,0.7
2024-06-14T1200,2459A,112.6197,26.8733,衡阳市,市委党校,,18,17,18,9,9,55,,31,31,8,9,10,7,0.6,0.5
2024-06-14T1200,2460A,112.6006,26.8919,衡阳市,市监测站,,,30,19,17,11,55,,28,28,9,9,10,9,,0.6
2024-06-14T1200,2461A,112.5664,26.9056,衡阳市,真空机电公司,,27,27,24,9,10,47,,25,25,15,14,6,7,1.2,1
2024-06-14T1200,3399A,112.6703,26.882,衡阳市,师范学院,,,25,20,10,9,51,,30,30,8,8,11,8,,0.6
2024-06-14T1200,2608A,103.3772,23.3993,红河哈尼族彝族自治州,污水处理厂,,20,11,9,3,8,63,,35,35,4,8,8,5,0.3,0.3
2024-06-14T1200,2609A,103.3861,23.35,红河哈尼族彝族自治州,监测站,,19,8,13,6,8,59,,31,31,4,7,7,11,0.4,0.4
2024-06-14T1200,3038A,103.3758,23.368,红河哈尼族彝族自治州,州图书馆,,19,6,9,3,5,60,,32,32,4,6,4,14,0.3,0.3
2024-06-14T1200,1090A,111.6507,40.7517,呼和浩特市,呼市一监,,36,,15,15,7,115,,96,96,2,3,8,8,0.4,0.4
2024-06-14T1200,1091A,111.6572,40.8033,呼和浩特市,小召,,34,17,17,8,6,108,,92,92,9,11,4,4,0.3,0.3
2024-06-14T1200,1094A,111.7516,40.8369,呼和浩特市,如意水处理厂,,33,19,18,11,9,105,,86,86,5,9,5,4,0.3,0.3
2024-06-14T1200,1095A,111.7276,40.8062,呼和浩特市,二十九中,,35,19,18,8,6,112,,90,90,7,10,2,2,0.4,0.4
2024-06-14T1200,1096A,111.5512,40.7866,呼和浩特市,工大金川校区,,33,12,17,7,6,104,,87,87,7,10,5,5,0.3,0.3
2024-06-14T1200,1097A,111.717,40.7612,呼和浩特市,化肥厂生活区,,,,26,11,8,110,,85,85,5,10,8,9,,0.3
2024-06-14T1200,3698A,111.5968,40.8178,呼和浩特市,红旗小学,,35,14,14,8,7,112,,95,95,6,10,4,4,0.3,0.3
2024-06-14T1200,3699A,111.6518,40.8389,呼和浩特市,海东办,,35,14,14,8,7,111,,90,90,5,8,5,5,0.3,0.3
2024-06-14T1200,2192A,119.7594,49.2261,呼伦贝尔市,区环保局,,21,15,21,14,19,67,,74,64,6,9,4,4,0.4,0.4
2024-06-14T1200,3061A,119.7512,49.1577,呼伦贝尔市,国华电力东,,,16,18,9,9,62,,77,69,3,4,,4,0.3,0.4
2024-06-14T1200,1250A,120.0751,30.8669,湖州市,城西水厂,细颗粒物(PM2.5),63,62,64,45,44,166,,88,88,22,19,5,5,0.7,0.7
2024-06-14T1200,2873A,120.0875,30.8955,湖州市,仁皇山新区,细颗粒物(PM2.5),70,56,56,51,43,157,,88,88,25,21,7,7,0.8,0.8
2024-06-14T1200,2907A,120.1844,30.8596,湖州市,吴兴区站,臭氧1小时,62,52,52,42,45,169,,90,90,21,17,6,7,0.7,0.6
2024-06-14T1200,3562A,120.4148,30.8538,湖州市,南浔区站,,48,35,40,33,36,148,,82,82,15,17,3,3,0.7,0.6
2024-06-14T1200,1607A,120.9092,40.7136,葫芦岛市,龙港区,,42,42,40,11,24,88,,76,76,4,10,5,6,0.5,0.5
2024-06-14T1200,1608A,120.8392,40.7514,葫芦岛市,化工街,,29,24,30,9,12,91,,87,87,9,13,10,10,0.7,0.7
2024-06-14T1200,1609A,120.8341,40.7073,葫芦岛市,新区,,,,31,37,28,93,,,,9,13,5,5,0.5,0.6
2024-06-14T1200,1610A,120.8695,40.7677,葫芦岛市,东城区,,40,31,27,13,20,125,,109,109,4,12,6,7,0.6,0.6
2024-06-14T1200,2482A,109.5981,27.5721,怀化市,林科所,,27,10,13,3,6,84,,73,73,1,3,14,6,0.6,0.6
2024-06-14T1200,2483A,109.9453,27.5444,怀化市,河西地税局,,20,19,18,3,10,62,,42,42,3,6,9,10,0.7,0.7
2024-06-14T1200,2484A,109.9781,27.5342,怀化市,市四医院,,19,11,20,10,14,58,,36,36,3,8,5,6,0.7,0.7
2024-06-14T1200,2485A,109.9972,27.5578,怀化市,监测楼,,18,15,19,3,11,56,,37,37,2,5,8,10,0.7,0.7
2024-06-14T1200,2486A,110.0394,27.583,怀化市,市委党校,,16,6,21,3,13,51,,27,27,2,7,7,12,0.6,0.7
2024-06-14T1200,1210A,119.036,33.5981,淮安市,钵池山,臭氧1小时,112,61,65,35,39,223,,104,104,14,19,9,9,0.7,0.7
2024-06-14T1200,1211A,119.007,33.575,淮安市,北京南路,臭氧1小时,113,66,66,37,43,225,,99,99,14,17,9,9,0.9,0.8
2024-06-14T1200,1212A,118.989,33.6067,淮安市,市监测站,臭氧1小时,108,70,68,41,38,215,,99,99,20,20,11,10,1.2,0.9
2024-06-14T1200,1213A,119.135,33.5039,淮安市,楚州区监测站,臭氧1小时,110,83,90,35,37,219,,87,87,15,23,7,7,0.8,0.7
2024-06-14T1200,1214A,119.0186,33.6297,淮安市,淮阴区监测站,臭氧1小时,116,75,72,45,46,231,,109,109,16,21,9,9,0.6,0.6
2024-06-14T1200,3426A,118.8755,33.2894,淮安市,新华书店,臭氧1小时,117,70,74,30,38,234,,107,107,14,20,7,8,0.8,0.8
2024-06-14T1200,2282A,116.8004,33.975,淮北市,监测站,臭氧1小时,125,79,68,43,34,249,,167,167,10,10,10,9,0.7,0.6
2024-06-14T1200,2283A,116.8091,33.9007,淮北市,烈山区政府,臭氧1小时,121,89,88,40,32,242,,160,160,12,17,12,9,0.8,0.7
2024-06-14T1200,3330A,116.8873,33.9836,淮北市,杜集区检察院,臭氧1小时,125,67,73,33,34,249,,172,172,11,13,11,10,0.8,0.8
2024-06-14T1200,4017A,116.7923,33.9535,淮北市,市博物馆,臭氧1小时,129,79,68,47,34,258,,165,165,11,12,9,8,,0.7
2024-06-14T1200,2277A,116.8305,32.7727,淮南市,潘集区政府,臭氧1小时,79,61,63,41,33,183,,134,134,10,17,9,10,0.5,0.4
2024-06-14T1200,2278A,117.0067,32.6524,淮南市,师范学院,臭氧1小时,63,65,64,40,36,170,,137,137,11,12,12,12,0.4,0.4
2024-06-14T1200,2279A,116.8569,32.5951,淮南市,谢家集区政府,臭氧1小时,68,54,56,23,22,174,,137,137,8,18,7,11,0.4,0.4
2024-06-14T1200,2280A,116.8281,32.633,淮南市,八公山区政府,臭氧1小时,72,63,61,39,33,177,,142,142,8,14,4,7,0.6,0.5
2024-06-14T1200,2281A,116.6325,32.6201,淮南市,焦岗湖风景区管理处,颗粒物(PM10),53,55,45,22,15,103,,78,78,14,24,9,8,0.5,0.4
2024-06-14T1200,2894A,117.0566,32.6531,淮南市,经济技术开发区消防队,臭氧1小时,67,52,54,33,28,173,,138,138,11,17,7,7,0.5,0.5
2024-06-14T1200,3329A,117.0108,32.5893,淮南市,山南新区,臭氧1小时,94,73,68,51,38,195,,150,150,14,15,9,9,0.6,0.6
2024-06-14T1200,2446A,114.9028,30.4742,黄冈市,职工中心,颗粒物(PM10),52,53,38,31,21,140,,82,82,11,11,10,10,1.2,0.7
2024-06-14T1200,2929A,114.8858,30.4519,黄冈市,红卫路,颗粒物(PM10),52,53,39,32,21,151,,84,84,13,15,12,10,0.9,0.6
2024-06-14T1200,3398A,114.9136,30.4445,黄冈市,市林业局,,46,46,35,32,22,144,,78,78,12,14,8,7,0.9,0.7
2024-06-14T1200,2672A,102.0199,35.5102,黄南藏族自治州,同仁县隆务镇,,35,12,24,6,12,110,,74,74,2,2,8,15,0.6,0.6
2024-06-14T1200,2295A,118.2903,29.6963,黄山市,延安路89号,,40,32,40,8,12,126,,72,72,3,8,6,5,0.6,0.6
2024-06-14T1200,2296A,118.327,29.7178,黄山市,黄山东路89号,,40,32,27,8,10,128,,62,62,6,7,5,5,0.4,0.4
2024-06-14T1200,2297A,118.1371,30.2756,黄山市,黄山区政府5号楼,,32,18,28,13,17,100,,46,46,5,6,6,6,0.5,0.5
2024-06-14T1200,2424A,115.0817,30.2006,黄石市,陈家湾,颗粒物(PM10),56,61,40,19,16,117,,73,73,10,14,5,6,0.8,0.6
2024-06-14T1200,2426A,114.8988,30.2019,黄石市,铁山,,41,36,34,24,14,129,,69,69,14,12,16,11,0.3,0.5
2024-06-14T1200,2427A,115.0307,30.2092,黄石市,团城山,,48,48,36,20,12,69,,41,41,16,15,7,11,0.8,0.6
2024-06-14T1200,3149A,115.0235,30.1578,黄石市,笔架山北路,,45,45,44,14,11,112,,62,62,1,10,5,8,0.5,0.6
2024-06-14T1200,1392A,114.4183,23.0528,惠州市,河南岸金山湖子站,,16,14,26,11,14,48,,33,33,9,13,4,4,0.4,0.5
2024-06-14T1200,1393A,114.4053,23.0822,惠州市,下埔横江三路子站,,19,13,28,9,14,58,,41,41,9,14,5,5,0.6,0.6
2024-06-14T1200,1394A,114.4103,23.1142,惠州市,江北云山西路子站,,23,,24,16,12,56,,37,37,4,11,7,7,0.6,0.6
2024-06-14T1200,1395A,114.4645,22.7833,惠州市,惠阳区承修路船湖子站,,15,8,22,3,13,46,,48,44,13,11,2,3,0.6,0.6
2024-06-14T1200,1396A,114.5317,22.7422,惠州市,大亚湾管委会子站,,18,16,26,7,11,56,,68,57,12,13,6,6,0.7,0.7
2024-06-14T1200,3314A,114.4338,22.8134,惠州市,惠阳秋长,,17,17,26,3,11,54,,57,53,13,12,5,5,0.5,0.5
2024-06-14T1200,3452A,114.6517,22.775,惠州市,大亚湾霞涌,,26,26,21,3,9,46,,52,46,13,9,3,3,0.5,0.5
2024-06-14T1200,2240A,130.9762,45.3001,鸡西市,环保局,,23,19,16,9,7,71,,50,50,8,6,7,6,0.4,0.4
2024-06-14T1200,2243A,130.9429,45.3039,鸡西市,第一中学,,27,14,18,8,8,84,,58,58,2,3,7,8,0.3,0.3
2024-06-14T1200,3707A,131.0207,45.3073,鸡西市,欧美日汽修厂,,,17,17,14,8,74,,48,48,,7,6,5,0.5,0.5
2024-06-14T1200,3709A,130.9967,45.3106,鸡西市,市政设施管理处,,25,22,20,3,8,80,,45,45,12,11,7,7,0.4,0.3
2024-06-14T1200,2367A,114.9754,27.0803,吉安市,红声器材厂,,37,37,19,20,11,70,,44,44,14,13,9,10,0.6,0.5
2024-06-14T1200,2368A,114.9658,27.0999,吉安市,市森林工业局,,36,36,20,18,13,64,,39,39,15,13,12,11,0.7,0.6
2024-06-14T1200,2369A,114.99,27.1312,吉安市,市环境监测站,,35,35,21,21,12,69,,43,43,13,10,12,13,1.1,0.8
2024-06-14T1200,2370A,115.0093,27.0968,吉安市,青原区法院,,,32,19,17,12,59,,33,33,,15,13,12,0.6,0.4
2024-06-14T1200,1772A,126.54,43.8622,吉林市,哈达湾,,,16,25,10,15,115,,113,98,4,11,4,4,,0.6
2024-06-14T1200,1773A,126.5844,43.8358,吉林市,东局子,,35,18,22,11,15,112,,108,95,7,11,4,4,0.6,0.6
2024-06-14T1200,1774A,126.5052,43.8245,吉林市,电力学院,,,15,25,10,16,115,,108,99,7,16,,7,0.5,0.5
2024-06-14T1200,1775A,126.6133,43.8972,吉林市,江北,,34,21,30,11,16,106,,98,89,8,13,6,6,0.7,0.6
2024-06-14T1200,1776A,126.555,43.8306,吉林市,江南公园,,36,14,22,11,15,114,,109,98,7,14,3,3,0.6,0.6
2024-06-14T1200,2868A,126.4739,43.953,吉林市,九站,,39,21,33,11,15,122,,113,102,5,15,5,5,0.6,0.6
2024-06-14T1200,1299A,116.9862,36.6114,济南市,科干所,,48,48,79,27,23,142,,140,131,12,12,9,9,0.4,0.3
2024-06-14T1200,1300A,116.9376,36.665,济南市,农科所,颗粒物(PM10),51,51,93,20,21,155,,144,140,16,17,9,9,0.5,0.5
2024-06-14T1200,1301A,117.1265,36.6734,济南市,开发区,"颗粒物(PM10),臭氧1小时",77,103,101,37,26,181,,154,150,28,17,12,9,0.8,0.5
2024-06-14T1200,1303A,117.0624,36.6868,济南市,省种子仓库,颗粒物(PM10),85,119,108,41,28,174,,149,145,27,11,10,8,0.6,0.4
2024-06-14T1200,1304A,116.9489,36.6447,济南市,机床二厂,,,59,108,20,22,161,,148,143,,7,12,11,0.4,0.3
2024-06-14T1200,1305A,117.0495,36.663,济南市,市监测站,细颗粒物(PM2.5),68,66,94,49,28,170,,156,149,21,18,14,12,0.5,0.5
2024-06-14T1200,1306A,116.7675,36.5484,济南市,长清党校,臭氧1小时,68,73,116,34,28,174,,148,147,12,13,14,11,0.7,0.6
2024-06-14T1200,1616A,117.6795,36.229,济南市,技术学院,臭氧1小时,85,61,75,22,28,188,,163,163,14,20,13,12,0.9,0.7
2024-06-14T1200,1961A,117.532,36.6868,济南市,东山小学,颗粒物(PM10),70,90,112,29,27,164,,160,160,29,17,9,8,0.9,0.7
2024-06-14T1200,3059A,117.7161,36.2049,济南市,泰兴公司,臭氧1小时,73,51,71,24,26,178,,144,144,8,19,12,14,0.6,0.7
2024-06-14T1200,3064A,117.6867,36.2171,济南市,莱芜战役纪念馆,臭氧1小时,73,56,72,22,24,178,,150,150,12,15,11,12,0.8,0.7
2024-06-14T1200,3494A,117.1673,36.9782,济南市,济阳区政府,颗粒物(PM10),78,105,94,32,26,156,,122,121,23,20,17,11,0.7,0.5
2024-06-14T1200,3495A,117.1171,36.63,济南市,锦屏中学,颗粒物(PM10),59,68,84,29,23,162,,158,148,12,6,8,8,0.4,0.3
2024-06-14T1200,3682A,116.9814,36.6819,济南市,济南四建,,48,48,92,20,23,150,,140,133,11,9,9,9,0.7,0.6
2024-06-14T1200,1653A,116.6251,35.4302,济宁市,火炬城,颗粒物(PM10),53,55,69,27,31,158,,126,126,8,11,11,11,0.9,0.8
2024-06-14T1200,1655A,116.5491,35.4042,济宁市,电化厂,颗粒物(PM10),58,66,87,29,33,165,,137,137,12,15,9,9,0.7,0.6
2024-06-14T1200,3500A,116.5814,35.3707,济宁市,北湖一中,颗粒物(PM10),54,57,65,31,29,162,,132,132,11,15,8,9,0.7,0.7
2024-06-14T1200,3501A,116.8249,35.5593,济宁市,服务中心,臭氧1小时,67,59,74,35,34,173,,130,130,14,16,2,4,0.9,0.8
2024-06-14T1200,3678A,116.5907,35.4054,济宁市,市第七中学,臭氧1小时,68,57,73,27,28,174,,139,139,11,14,6,7,0.7,0.6
2024-06-14T1200,2255A,130.2751,46.8028,佳木斯市,佳纺,,15,,14,7,8,46,,48,45,6,10,3,4,0.3,0.4
2024-06-14T1200,2256A,130.3995,46.8307,佳木斯市,发电厂,,16,7,20,6,10,51,,49,49,2,7,4,6,0.4,0.6
2024-06-14T1200,2257A,130.3258,46.7975,佳木斯市,环保局,,12,9,17,3,7,37,,46,,11,15,5,6,0.4,0.3
2024-06-14T1200,2258A,130.3648,46.8032,佳木斯市,十一中,,16,6,12,3,7,50,,50,50,5,9,5,6,0.3,0.3
2024-06-14T1200,2259A,130.3794,46.7588,佳木斯市,四丰,,12,,9,8,5,37,,40,38,8,9,1,2,0.6,0.6
2024-06-14T1200,1252A,120.7436,30.778,嘉兴市,清河小学,,46,19,28,16,21,145,,85,85,21,20,6,5,0.5,0.4
2024-06-14T1200,1253A,120.726,30.7478,嘉兴市,嘉兴学院,,41,33,34,19,24,131,,79,79,19,18,4,4,0.7,0.7
2024-06-14T1200,2872A,120.7846,30.7525,嘉兴市,南湖区残联,,49,34,37,22,32,154,,88,88,16,19,7,7,0.6,0.6
2024-06-14T1200,3407A,120.6916,30.7739,嘉兴市,秀洲住建,,43,36,36,24,24,135,,78,78,17,14,6,6,0.8,0.7
2024-06-14T1200,1945A,98.2908,39.7711,嘉峪关市,气象局,,,,49,,14,136,,89,88,10,14,9,5,,0.4
2024-06-14T1200,2884A,98.2672,39.7978,嘉峪关市,酒钢宾馆,颗粒物(PM10),62,73,52,24,15,140,,103,103,7,11,12,9,0.4,0.4
2024-06-14T1200,3248A,98.2643,39.7724,嘉峪关市,雄关区,,42,42,39,14,16,132,,84,84,10,14,8,7,0.4,0.4
2024-06-14T1200,1383A,113.1064,22.6058,江门市,北街,,18,18,22,7,11,49,,55,51,11,8,2,3,0.5,0.5
2024-06-14T1200,1384A,113.0731,22.5835,江门市,西区,,14,,25,9,13,44,,54,51,18,11,6,6,0.6,0.5
2024-06-14T1200,1385A,113.0219,22.5311,江门市,圭峰西,,15,9,24,6,11,46,,48,48,10,13,3,4,0.3,0.3
2024-06-14T1200,1386A,113.0828,22.5947,江门市,东湖,,15,14,24,7,14,48,,54,52,12,10,6,6,0.4,0.4
2024-06-14T1200,3311A,113.1075,22.5647,江门市,江海富民,,20,18,30,14,14,46,,57,55,20,10,4,4,0.5,0.5
2024-06-14T1200,3449A,113.05,22.4667,江门市,新会银湖,,16,11,22,11,9,41,,52,46,10,6,4,4,0.5,0.5
2024-06-14T1200,1828A,113.227,35.2125,焦作市,市环保局,颗粒物(PM10),51,51,55,34,30,156,,110,102,17,11,7,4,0.5,0.4
2024-06-14T1200,3169A,113.2725,35.2067,焦作市,太极体育中心,颗粒物(PM10),70,89,63,32,33,160,,112,106,16,11,12,5,0.7,0.5
2024-06-14T1200,3335A,113.3137,35.2641,焦作市,马村街道办,,,56,61,21,39,164,,111,105,19,17,7,6,,0.6
2024-06-14T1200,3336A,113.2465,35.2373,焦作市,焦作技师学院,颗粒物(PM10),66,82,61,34,27,154,,110,107,20,13,4,4,0.6,0.5
2024-06-14T1200,3477A,113.1656,35.2539,焦作市,中站许衡医院,,45,41,53,26,31,142,,103,92,16,16,10,10,0.5,0.4
2024-06-14T1200,3981A,113.2449,35.1803,焦作市,原李万街道办,颗粒物(PM10),53,56,56,29,24,161,,113,105,17,11,15,8,0.7,0.5
2024-06-14T1200,1708A,116.3701,23.5345,揭阳市,新兴,,44,44,28,16,15,63,,41,41,7,13,4,5,0.6,0.6
2024-06-14T1200,1709A,116.3264,23.5443,揭阳市,西马,,39,39,33,14,14,57,,41,41,6,11,4,4,0.6,0.6
2024-06-14T1200,1710A,116.3611,23.5626,揭阳市,东兴,,45,45,32,11,11,62,,47,47,8,9,2,2,0.7,0.7
2024-06-14T1200,1711A,116.4151,23.5294,揭阳市,渔湖,,,,38,28,13,66,,41,41,9,13,4,6,0.6,0.5
2024-06-14T1200,3320A,116.403,23.5699,揭阳市,曲溪,,29,29,25,12,13,66,,41,41,10,16,3,4,0.5,0.6
2024-06-14T1200,1944A,102.1692,38.5167,金昌市,天庆家园,颗粒物(PM10),52,54,47,23,23,120,,88,88,8,11,10,12,0.4,0.6
2024-06-14T1200,3170A,102.1864,38.5253,金昌市,市委党校,颗粒物(PM10),58,65,59,24,33,110,,81,81,5,9,14,14,0.6,0.5
2024-06-14T1200,4022A,102.1647,38.5371,金昌市,金川区人防中心,颗粒物(PM10),53,56,47,19,19,128,,89,89,6,9,13,12,0.6,0.6
2024-06-14T1200,1262A,119.647,29.077,金华市,十五中,,45,28,22,20,13,143,,82,82,10,13,6,4,0.6,0.5
2024-06-14T1200,1263A,119.686,29.1029,金华市,监测站,,44,29,24,18,14,138,,77,77,9,19,6,3,0.6,0.5
2024-06-14T1200,3659A,119.656,29.1131,金华市,气象局,,45,26,24,19,14,143,,77,77,10,22,7,5,0.5,0.5
2024-06-14T1200,1767A,121.1115,41.0879,锦州市,南山,,38,23,27,21,21,120,,97,97,7,13,6,5,0.6,0.5
2024-06-14T1200,1768A,121.0533,40.8434,锦州市,开发区,,,29,27,12,14,103,,87,87,10,15,7,6,,0.7
2024-06-14T1200,1769A,121.1836,41.1119,锦州市,百股街道,,43,28,23,9,11,136,,104,104,10,14,10,8,0.8,0.7
2024-06-14T1200,1770A,121.1178,41.1222,锦州市,天安街道,,37,20,31,19,15,118,,94,94,9,14,6,4,1.0,0.8
2024-06-14T1200,1771A,121.1303,41.1386,锦州市,北湖公园,,37,28,30,19,18,116,,91,91,8,12,8,7,0.8,0.6
2024-06-14T1200,2160A,112.85,35.5051,晋城市,自来水公司,臭氧1小时,70,52,51,31,20,176,,118,118,22,18,13,9,1.1,0.9
2024-06-14T1200,2161A,112.8318,35.4936,晋城市,白云商贸,臭氧1小时,70,70,60,24,19,176,,120,120,23,18,11,10,0.9,0.8
2024-06-14T1200,2162A,112.8508,35.4887,晋城市,市环保局,臭氧1小时,65,46,50,29,21,172,,119,119,22,19,13,9,1.0,0.7
2024-06-14T1200,2163A,112.8676,35.4897,晋城市,技术学院,臭氧1小时,65,49,46,36,22,172,,116,116,22,22,13,9,1.1,0.8
2024-06-14T1200,3620A,112.8271,35.4828,晋城市,泽州一中,臭氧1小时,53,44,54,27,17,162,,120,120,22,16,12,9,1.0,0.8
2024-06-14T1200,2171A,112.7532,37.6945,晋中市,锦纶小区,臭氧1小时,104,95,63,31,18,208,,109,109,14,22,14,10,0.6,0.4
2024-06-14T1200,2173A,112.7249,37.7067,晋中市,南都小区,臭氧1小时,108,68,63,30,24,215,,102,102,15,26,13,10,0.5,0.3
2024-06-14T1200,2174A,112.6991,37.6982,晋中市,榆次区政府,臭氧1小时,100,70,70,31,25,200,,88,88,19,35,14,10,0.4,0.3
2024-06-14T1200,2865A,112.7195,37.6828,晋中市,榆次三中,臭氧1小时,108,95,65,31,19,216,,107,107,15,24,13,10,0.6,0.5
2024-06-14T1200,2439A,112.2014,31.0481,荆门市,竹园小学,臭氧1小时,90,55,39,34,21,192,,86,86,13,18,15,12,0.5,0.5
2024-06-14T1200,2440A,112.1969,30.9891,荆门市,掇刀,臭氧1小时,63,42,31,26,21,170,,100,100,10,13,10,9,0.6,0.6
2024-06-14T1200,2441A,112.2213,31.0386,荆门市,石化一小,臭氧1小时,92,39,39,28,20,193,,88,88,14,19,22,19,0.6,0.6
2024-06-14T1200,3012A,112.1849,31.0362,荆门市,西山林语,臭氧1小时,75,37,29,23,21,180,,97,97,9,12,8,7,0.6,0.6
2024-06-14T1200,3547A,112.1632,31.0138,荆门市,龙泉中学南校,臭氧1小时,53,34,37,19,21,162,,102,102,14,24,10,10,0.6,0.6
2024-06-14T1200,1844A,112.2494,30.3197,荆州市,市图书馆,臭氧1小时,62,40,25,22,20,169,,78,78,14,19,7,8,0.6,0.6
2024-06-14T1200,1845A,112.2008,30.3544,荆州市,市委党校,臭氧1小时,52,34,28,20,19,161,,80,80,16,19,6,7,0.5,0.5
2024-06-14T1200,3194A,112.2747,30.3122,荆州市,管委会,臭氧1小时,65,35,25,20,19,172,,78,78,12,17,5,5,0.6,0.6
2024-06-14T1200,3548A,112.1655,30.3364,荆州市,学苑路,臭氧1小时,64,36,31,28,23,171,,66,66,11,19,6,6,0.6,0.6
2024-06-14T1200,2343A,117.2117,29.2933,景德镇市,老干部活动中心,,24,14,22,13,16,76,,40,40,6,13,6,12,0.6,0.6
2024-06-14T1200,2344A,117.1894,29.2789,景德镇市,兽医站,,25,18,29,10,13,79,,43,43,14,16,13,14,0.7,0.5
2024-06-14T1200,2345A,117.1547,29.2617,景德镇市,台达陶瓷,,23,14,29,9,18,71,,45,45,9,18,14,20,0.4,0.4
2024-06-14T1200,2346A,117.2461,29.2956,景德镇市,陶研所,,25,10,21,6,11,78,,42,42,2,6,3,4,0.3,0.4
2024-06-14T1200,1803A,115.9872,29.6815,九江市,十里,,,,23,,13,89,,46,46,,22,12,12,,0.7
2024-06-14T1200,1804A,115.9584,29.7046,九江市,茅山头,,36,18,23,12,15,113,,49,49,15,20,13,13,0.6,0.6
2024-06-14T1200,1805A,115.9877,29.7295,九江市,西园,,34,13,16,10,12,108,,73,72,24,31,14,15,0.7,0.7
2024-06-14T1200,1806A,116.0172,29.6547,九江市,五七二七厂,,24,,12,14,11,74,,44,44,9,13,9,9,0.6,0.7
2024-06-14T1200,1808A,115.9114,29.6038,九江市,综合工业园,,30,,20,21,12,93,,43,43,10,24,9,10,0.9,0.8
2024-06-14T1200,1809A,116.0721,29.7535,九江市,石化总厂,,27,6,20,3,11,84,,52,52,5,12,13,12,0.6,0.6
2024-06-14T1200,1810A,115.9773,29.5698,九江市,庐山气象台,,26,,13,18,17,78,,73,73,3,2,25,16,1.0,0.8
2024-06-14T1200,3190A,116.0254,29.6994,九江市,外国语学校,,20,,18,8,13,61,,38,38,13,17,13,21,0.5,0.6
2024-06-14T1200,2658A,98.5061,39.7443,酒泉市,仓门街子站,颗粒物(PM10),67,83,51,8,8,126,,89,86,12,15,6,8,0.3,0.3
2024-06-14T1200,2659A,98.4989,39.7256,酒泉市,油田生活基地,,,85,53,3,8,131,,94,94,14,17,,7,0.2,0.3
2024-06-14T1200,2698A,76.0072,39.4467,喀什地区,巡警大队,颗粒物(PM10),127,204,61,45,9,111,,73,70,15,18,4,6,0.2,0.2
2024-06-14T1200,2699A,75.9755,39.4694,喀什地区,吾办,颗粒物(PM10),121,191,71,43,18,112,,69,66,12,16,3,3,0.3,0.3
2024-06-14T1200,4027A,75.9483,39.4689,喀什地区,老干局,颗粒物(PM10),128,206,98,30,11,117,,71,70,8,14,5,4,0.2,0.2
2024-06-14T1200,1824A,114.3389,34.7781,开封市,肿瘤医院,颗粒物(PM10),57,63,76,22,17,136,,69,69,15,16,6,3,0.6,0.5
2024-06-14T1200,1826A,114.2885,34.7965,开封市,世纪星幼儿园,,,78,71,50,25,166,,83,83,,12,3,2,0.5,0.8
2024-06-14T1200,3210A,114.3644,34.7964,开封市,汴京公园,颗粒物(PM10),58,65,64,30,27,165,,84,84,14,16,4,2,0.6,0.5
2024-06-14T1200,3473A,114.2485,34.8306,开封市,技师学院,臭氧1小时,62,61,68,29,28,169,,90,90,12,14,6,4,0.7,0.6
2024-06-14T1200,3592A,114.4644,34.7556,开封市,祥符区生态环境局,颗粒物(PM10),61,71,75,42,29,151,,77,77,12,21,3,3,0.7,0.6
2024-06-14T1200,1951A,84.895,45.6094,克拉玛依市,长征新村,,29,17,12,3,6,90,,84,68,7,8,9,9,0.1,0.2
2024-06-14T1200,1952A,84.8988,45.5893,克拉玛依市,南林小区,,30,19,12,14,9,93,,88,70,8,8,9,9,0.2,0.1
2024-06-14T1200,1954A,84.905,44.3396,克拉玛依市,独山子区,,35,14,13,3,6,112,,77,77,6,8,10,8,0.2,0.2
2024-06-14T1200,1955A,85.6979,46.098,克拉玛依市,乌尔禾区商贸楼,,33,7,12,3,7,104,,86,70,4,3,11,12,0.2,0.2
2024-06-14T1200,3612A,85.1045,45.6899,克拉玛依市,白碱滩区新站,,,,17,,13,95,,93,72,,5,,10,0.1,0.3
2024-06-14T1200,2697A,76.1454,39.7142,克孜勒苏柯尔克孜自治州,市人民政府,颗粒物(PM10),112,173,58,64,20,129,,112,111,4,5,7,10,0.3,0.2
2024-06-14T1200,3665A,76.1658,39.7157,克孜勒苏柯尔克孜自治州,克州文化中心,颗粒物(PM10),132,214,58,50,17,128,,115,112,4,3,10,12,0.2,0.2
2024-06-14T1200,1450A,102.8204,24.8886,昆明市,呈贡新区,,21,21,16,9,5,64,,39,39,4,9,3,5,0.5,0.4
2024-06-14T1200,1452A,102.7252,25.0902,昆明市,龙泉镇,,19,19,18,3,8,50,,22,22,11,13,8,7,0.6,0.5
2024-06-14T1200,1453A,102.7266,25.0375,昆明市,东风东路,,22,22,11,6,6,49,,28,28,13,12,4,3,0.6,0.6
2024-06-14T1200,1454A,102.6742,25.0669,昆明市,金鼎山,,24,24,15,8,6,50,,28,28,14,15,15,14,0.4,0.4
2024-06-14T1200,1455A,102.6644,25.0401,昆明市,碧鸡广场,,17,17,14,7,7,54,,28,28,13,14,4,4,0.5,0.5
2024-06-14T1200,3179A,102.7494,25.0119,昆明市,官渡区博物馆,,21,17,10,3,4,65,,34,34,7,8,9,9,0.4,0.4
2024-06-14T1200,3375A,102.8017,24.8336,昆明市,青年创业园,,20,12,10,3,4,61,,33,33,4,9,8,8,0.3,0.4
2024-06-14T1200,3550A,102.7997,24.9786,昆明市,昆明学院,,21,17,12,10,6,66,,36,36,7,10,9,8,0.5,0.6
2024-06-14T1200,3551A,102.5967,24.6736,昆明市,晋宁区生态环境分局,,24,24,18,14,6,61,,37,37,7,7,3,2,0.5,0.5
2024-06-14T1200,3552A,102.6678,24.9856,昆明市,云天化总部,,19,16,10,9,5,60,,32,30,6,8,7,6,0.7,0.6
2024-06-14T1200,1456A,91.1319,29.6514,拉萨市,八廓街,,,8,12,8,9,162,,136,136,11,14,12,9,,0.4
2024-06-14T1200,1457A,91.1221,29.6747,拉萨市,市环保局,,42,15,13,3,8,134,,127,127,14,16,8,8,0.4,0.3
2024-06-14T1200,1458A,91.0874,29.6475,拉萨市,区监测站,,42,,12,8,8,134,,129,129,12,15,8,7,0.3,0.3
2024-06-14T1200,1459A,91.1774,29.6541,拉萨市,西藏大学,,44,6,9,3,6,139,,135,135,4,6,8,5,0.3,0.4
2024-06-14T1200,1460A,90.9798,29.6588,拉萨市,区辐射站,,39,13,12,7,8,124,,129,125,12,14,7,7,0.4,0.4
2024-06-14T1200,1461A,91.0834,29.6292,拉萨市,拉萨火车站,,42,,8,7,7,134,,135,133,13,11,8,7,0.2,0.2
2024-06-14T1200,2520A,109.2203,23.7256,来宾市,来宾技工学校,,23,,26,10,17,71,,60,60,10,8,6,5,0.7,0.8
2024-06-14T1200,3535A,109.1781,23.7297,来宾市,兴宾区政府,,25,,23,3,14,78,,57,57,13,10,6,4,0.6,1.2
2024-06-14T1200,4002A,109.2416,23.7461,来宾市,中南小学,,,,28,6,14,79,,61,61,10,9,1,2,0.9,1
2024-06-14T1200,1476A,103.631,36.1031,兰州市,兰炼宾馆,,40,32,43,22,29,128,,72,72,10,22,13,13,0.4,0.4
2024-06-14T1200,1478A,103.8412,36.0726,兰州市,生物制品所,,41,40,53,24,29,130,,50,50,21,33,12,12,0.5,0.5
2024-06-14T1200,1479A,103.831,36.0464,兰州市,铁路设计院,,46,46,56,29,27,134,,46,46,30,44,12,11,0.4,0.4
2024-06-14T1200,3186A,103.7158,36.1058,兰州市,教育港,臭氧1小时,65,32,42,21,25,172,,73,73,16,22,15,15,0.6,0.4
2024-06-14T1200,3241A,103.7439,36.0842,兰州市,百合公园,颗粒物(PM10),51,52,44,23,23,153,,61,61,17,31,10,8,0.2,0.3
2024-06-14T1200,3242A,103.9611,35.998,兰州市,和平,颗粒物(PM10),53,56,52,24,26,147,,91,91,17,20,12,11,0.5,0.4
2024-06-14T1200,3245A,103.6633,36.533,兰州新区,新区管委会,,37,25,28,15,17,118,,68,68,9,13,14,12,0.5,0.4
2024-06-14T1200,3246A,103.6975,36.4789,兰州新区,舟曲中学,,40,18,41,12,23,127,,89,89,8,10,16,15,0.5,0.4
2024-06-14T1200,1067A,116.6708,39.5111,廊坊市,药材公司,,48,34,76,24,37,153,,116,116,6,13,3,3,0.7,0.6
2024-06-14T1200,1068A,116.7214,39.5589,廊坊市,开发区,,49,38,89,25,43,154,,108,108,9,19,2,3,0.6,0.7
2024-06-14T1200,1070A,116.7244,39.5269,廊坊市,北华航天学院,,46,46,96,26,40,141,,103,103,10,17,3,3,0.5,0.7
2024-06-14T1200,2919A,116.7022,39.5453,廊坊市,河北工业大学,,48,41,92,25,40,152,,111,111,8,17,3,3,0.7,0.6
2024-06-14T1200,2535A,103.7723,29.5462,乐山市,花湖湾,细颗粒物(PM2.5),60,,42,43,34,56,,38,33,28,22,5,6,0.8,0.7
2024-06-14T1200,2536A,103.7627,29.5844,乐山市,牛耳桥,颗粒物(PM10),59,67,48,41,33,83,,34,34,23,28,10,6,0.9,0.8
2024-06-14T1200,2537A,103.7508,29.6006,乐山市,市第三水厂,细颗粒物(PM2.5),64,68,47,46,34,94,,37,37,19,24,14,7,0.9,0.8
2024-06-14T1200,2538A,103.7571,29.5664,乐山市,市监测站,细颗粒物(PM2.5),58,63,50,41,32,79,,39,38,24,25,10,7,0.9,0.8
2024-06-14T1200,3361A,103.7311,29.5628,乐山市,理工大学,细颗粒物(PM2.5),68,71,49,49,33,88,,36,36,21,23,16,8,0.8,0.8
2024-06-14T1200,2599A,100.2497,26.8802,丽江市,丽江古城,,25,13,15,7,8,78,,48,48,8,10,6,6,0.4,0.5
2024-06-14T1200,2600A,100.2203,26.8906,丽江市,市中心,,27,22,9,6,6,86,,50,50,5,6,8,8,0.5,0.5
2024-06-14T1200,1267A,119.914,28.4514,丽水市,监测站大楼,,,14,17,10,15,91,,62,62,6,9,,3,0.4,0.6
2024-06-14T1200,1268A,119.93,28.4586,丽水市,莲都小学,,30,14,19,8,11,93,,61,61,4,12,3,3,0.5,0.4
2024-06-14T1200,1269A,119.879,28.4231,丽水市,余庄前,,30,16,19,10,9,96,,56,56,9,8,2,2,0.6,0.6
2024-06-14T1200,1173A,119.176,34.5885,连云港市,市环境监测站,臭氧1小时,109,105,93,53,31,218,,102,102,16,16,7,6,0.7,0.5
2024-06-14T1200,3000A,119.3581,34.6972,连云港市,德源药业,臭氧1小时,112,80,66,44,20,224,,105,105,10,14,6,5,0.7,0.5
2024-06-14T1200,3007A,119.178,34.844,连云港市,新城一中,臭氧1小时,98,74,52,36,22,198,,101,101,15,18,6,5,1.0,0.9
2024-06-14T1200,3008A,119.3608,34.7519,连云港市,胡沟管理处,臭氧1小时,98,70,70,44,24,198,,130,130,14,13,10,9,0.8,0.7
2024-06-14T1200,3009A,119.1478,34.5911,连云港市,矿山设计院,臭氧1小时,104,105,91,39,29,207,,99,99,15,16,5,4,0.6,0.5
2024-06-14T1200,3434A,119.2413,34.6539,连云港市,工贸学校,臭氧1小时,120,99,78,50,27,239,,125,125,11,10,10,9,0.9,0.7
2024-06-14T1200,3664A,119.4172,34.7341,连云港市,连云街道,臭氧1小时,97,71,74,35,24,197,,140,140,30,14,7,6,0.8,0.7
2024-06-14T1200,2571A,102.3431,27.8099,凉山彝族自治州,青龙寺,,21,21,17,14,11,57,,37,34,6,5,10,10,0.6,0.6
2024-06-14T1200,2572A,102.2721,27.8415,凉山彝族自治州,邛海宾馆,,,19,25,12,18,74,,46,44,4,8,7,10,,0.6
2024-06-14T1200,2573A,102.2625,27.898,凉山彝族自治州,西昌市政府,,28,27,29,19,19,65,,57,50,14,8,7,8,0.6,0.6
2024-06-14T1200,2574A,102.2685,27.8851,凉山彝族自治州,凉山州政府,,23,23,25,11,15,68,,62,52,10,9,9,10,0.7,0.8
2024-06-14T1200,2575A,102.237,27.8914,凉山彝族自治州,长安,,24,24,26,16,16,61,,47,38,20,12,10,11,0.7,0.8
2024-06-14T1200,2212A,123.2,41.1953,辽阳市,宏伟区,,23,16,20,3,7,72,,92,84,15,8,9,10,0.7,0.5
2024-06-14T1200,2213A,123.1683,41.2495,辽阳市,新华园,,24,16,16,10,10,74,,102,94,19,8,8,8,0.7,0.4
2024-06-14T1200,2214A,123.2354,41.2639,辽阳市,滨河路,,24,13,16,9,8,76,,100,89,21,11,8,8,0.8,0.6
2024-06-14T1200,2215A,123.149,41.2991,辽阳市,铁西工业园,,28,28,23,13,9,73,,96,86,22,8,9,9,1.1,0.8
2024-06-14T1200,2227A,125.1358,42.8845,辽源市,环保局,,40,20,18,8,10,126,,118,118,6,11,6,6,0.7,0.6
2024-06-14T1200,3239A,125.0764,42.9078,辽源市,银鹰制药,,39,18,18,15,12,123,,115,115,10,16,6,6,0.8,0.7
2024-06-14T1200,1625A,115.9848,36.4372,聊城市,区政府,,,,142,41,31,181,,,,25,17,14,9,0.7,0.5
2024-06-14T1200,2878A,116.0072,36.4343,聊城市,聊大东校,臭氧1小时,87,100,128,44,33,189,,119,119,15,18,19,10,0.5,0.5
2024-06-14T1200,3200A,115.9819,36.4978,聊城市,监控中心,颗粒物(PM10),93,135,149,48,32,178,,107,107,17,23,26,13,0.9,0.7
2024-06-14T1200,3513A,116.0445,36.4361,聊城市,九州社区,颗粒物(PM10),78,105,126,38,24,174,,107,107,19,17,15,10,0.4,0.4
2024-06-14T1200,4018A,116.0567,36.4608,聊城市,星美广场,颗粒物(PM10),76,101,124,40,24,177,,110,110,22,21,18,12,0.7,0.5
2024-06-14T1200,2632A,94.3681,29.6376,林芝市,林芝监测站,,21,,4,13,10,67,,49,49,3,5,7,7,0.5,0.5
2024-06-14T1200,2633A,94.3616,29.6616,林芝市,林芝人民医院,,21,7,8,3,5,66,,47,47,7,8,8,8,0.2,0.3
2024-06-14T1200,2603A,100.0781,23.8982,临沧市,市环保局,,,18,16,8,15,54,,22,,,8,5,5,0.3,0.4
2024-06-14T1200,2604A,100.0894,23.8822,临沧市,市气象局,,21,21,17,11,11,62,,30,30,8,8,7,7,0.5,0.5
2024-06-14T1200,1733A,111.5531,36.0783,临汾市,临钢医院,臭氧1小时,92,48,83,25,22,193,,113,113,9,14,11,7,0.8,0.6
2024-06-14T1200,1734A,111.5028,36.0714,临汾市,技工学校,臭氧1小时,101,69,70,14,24,201,,124,124,14,18,10,8,0.8,0.7
2024-06-14T1200,1736A,111.5018,36.0855,临汾市,市委,臭氧1小时,106,60,66,14,18,212,,130,130,5,9,11,7,1.1,0.9
2024-06-14T1200,3018A,111.505,36.1014,临汾市,唐尧大酒店,,,,82,,30,205,,124,124,13,15,13,10,,0.8
2024-06-14T1200,3668A,111.5036,36.0414,临汾市,城南,臭氧1小时,104,56,66,19,26,208,,121,121,4,13,10,7,0.8,0.8
2024-06-14T1200,2667A,103.2069,35.5993,临夏回族自治州,环保局,,38,26,34,15,29,119,,60,60,2,12,6,6,0.3,0.4
2024-06-14T1200,2668A,103.2417,35.6057,临夏回族自治州,建设大厦,,36,19,31,12,24,114,,64,64,5,14,8,6,0.2,0.4
2024-06-14T1200,1618A,118.3429,35.0532,临沂市,沂河小区,臭氧1小时,115,102,86,56,44,229,,138,138,20,21,15,15,0.9,0.6
2024-06-14T1200,1619A,118.295,35.0583,临沂市,鲁南制药厂,臭氧1小时,105,107,93,54,60,209,,143,135,17,13,16,15,1.1,0.8
2024-06-14T1200,1620A,118.2794,34.9976,临沂市,新光毛纺厂,臭氧1小时,114,90,93,46,48,227,,132,132,20,21,13,13,1.2,0.9
2024-06-14T1200,1621A,118.3956,35.0888,临沂市,河东保险公司,,,92,82,56,37,190,,110,99,16,18,12,10,,0.6
2024-06-14T1200,3370A,118.3564,35.0215,临沂市,十里堡居委,臭氧1小时,113,88,86,63,45,226,,117,116,12,17,10,11,1.0,0.8
2024-06-14T1200,3496A,118.3604,35.1084,临沂市,南坊新区,臭氧1小时,102,100,87,58,39,203,,126,116,20,18,14,12,1.1,0.9
2024-06-14T1200,3860A,118.3920,35.0300,临沂市,皇山花园小区,臭氧1小时,114,102,87,52,43,228,,115,111,17,21,15,15,,0.9
2024-06-14T1200,1870A,109.4856,24.3895,柳州市,柳东小学,,20,17,25,10,14,62,,40,40,11,15,6,6,0.6,0.7
2024-06-14T1200,1871A,109.4157,24.3277,柳州市,环保监测站,,19,,26,7,14,59,,43,43,16,14,7,7,0.6,0.6
2024-06-14T1200,1872A,109.389,24.341,柳州市,河西水厂,,20,9,24,7,15,63,,47,47,16,12,7,6,0.6,0.6
2024-06-14T1200,1873A,109.4311,24.2921,柳州市,市四中,,22,,26,10,13,69,,49,49,11,11,5,5,0.4,0.4
2024-06-14T1200,1874A,109.4006,24.3631,柳州市,市九中,,20,19,29,10,14,61,,40,40,21,14,8,7,0.7,0.6
2024-06-14T1200,1875A,109.4958,24.3134,柳州市,古亭山,,16,12,25,10,14,51,,48,44,18,13,6,6,0.5,0.5
2024-06-14T1200,3402A,109.5422,24.3996,柳州市,市二中,,18,13,27,3,15,56,,35,35,11,15,4,5,0.4,0.5
2024-06-14T1200,2307A,116.5079,31.737,六安市,监测大楼,,42,15,25,11,18,132,,96,96,5,10,6,6,0.4,0.5
2024-06-14T1200,2308A,116.4738,31.7643,六安市,皖西学院,,,,34,,16,143,,101,101,19,11,6,4,,0.5
2024-06-14T1200,2309A,116.4996,31.7905,六安市,朝阳厂,,50,21,26,16,18,157,,110,110,5,7,8,8,0.4,0.4
2024-06-14T1200,2310A,116.5567,31.7886,六安市,开发区,,44,,40,21,21,138,,98,98,6,11,15,14,0.6,0.7
2024-06-14T1200,2577A,104.83,26.5917,六盘水市,黄土坡,,,,23,,13,119,,98,98,6,10,9,7,,0.5
2024-06-14T1200,2578A,104.89,26.5939,六盘水市,水钢,,38,24,34,19,21,119,,88,88,8,22,15,17,0.5,1
2024-06-14T1200,2579A,104.8475,26.5894,六盘水市,民中,,38,17,23,14,15,119,,100,100,6,10,9,7,0.5,0.6
2024-06-14T1200,2580A,104.9544,26.5506,六盘水市,双水,,43,27,28,16,17,135,,93,93,4,11,8,8,0.3,0.4
2024-06-14T1200,2336A,117.0217,25.1033,龙岩市,龙岩市监测站,,19,19,20,12,13,53,,43,43,7,14,2,2,0.4,0.5
2024-06-14T1200,2337A,117.0258,25.0661,龙岩市,闽西职业技术学院,,18,18,21,6,8,56,,42,42,5,17,2,2,0.4,0.4
2024-06-14T1200,2338A,117.0196,25.0306,龙岩市,龙岩学院,,23,23,17,9,9,57,,44,44,3,5,2,2,0.4,0.4
2024-06-14T1200,2885A,104.9339,33.3826,陇南市,滨江中学,,43,43,50,18,15,125,,84,84,9,11,7,12,0.3,0.6
2024-06-14T1200,3247A,104.955,33.371,陇南市,市总工会,,40,34,36,15,11,125,,94,93,7,7,10,10,0.5,0.5
2024-06-14T1200,2487A,111.9589,27.8901,娄底市,电视发射台,,21,20,24,8,7,66,,25,25,4,4,9,6,0.6,0.6
2024-06-14T1200,2488A,111.9975,27.725,娄底市,市监测站,颗粒物(PM10),56,62,27,36,13,77,,27,27,16,16,13,6,1.3,0.8
2024-06-14T1200,2489A,112.0194,27.7314,娄底市,市委党校,,48,48,18,24,10,75,,28,28,14,10,9,8,1.0,0.7
2024-06-14T1200,2490A,111.9561,27.7569,娄底市,涟钢,,40,40,32,22,16,60,,27,27,24,18,9,8,1.1,0.8
2024-06-14T1200,2491A,111.9892,27.7044,娄底市,市政府,,,,18,22,11,75,,34,34,6,7,7,7,,0.7
2024-06-14T1200,1893A,105.4324,28.9634,泸州市,九狮山,颗粒物(PM10),51,52,44,22,25,125,,43,43,22,24,13,7,0.3,0.3
2024-06-14T1200,1894A,105.4427,28.9063,泸州市,小市上码头,细颗粒物(PM2.5),54,50,55,38,41,124,,60,60,22,25,9,10,0.6,0.5
2024-06-14T1200,1895A,105.4241,28.8573,泸州市,兰田宪桥,细颗粒物(PM2.5),63,,43,45,39,107,,43,43,20,35,7,6,0.5,0.5
2024-06-14T1200,1896A,105.4379,28.8833,泸州市,市环监站,,49,42,53,34,37,128,,65,65,15,24,8,8,0.6,0.7
2024-06-14T1200,3490A,105.3617,28.7703,泸州市,纳溪区环保局,颗粒物(PM10),56,61,50,31,32,115,,39,39,18,29,4,4,0.6,0.6
2024-06-14T1200,2183A,111.1406,37.5211,吕梁市,环保局,颗粒物(PM10),52,54,74,11,20,136,,83,83,5,26,4,4,0.3,0.4
2024-06-14T1200,2185A,111.1297,37.5136,吕梁市,自来水公司,,47,47,83,12,24,129,,80,80,7,22,5,6,0.3,0.3
2024-06-14T1200,2867A,111.1283,37.51,吕梁市,马茂庄小学,颗粒物(PM10),60,69,83,14,22,142,,82,82,9,26,5,6,0.3,0.4
2024-06-14T1200,1812A,112.3931,34.6516,洛阳市,市委党校,臭氧1小时,80,52,59,30,29,184,,114,114,14,10,4,4,0.6,0.5
2024-06-14T1200,1814A,112.4657,34.6871,洛阳市,豫西宾馆,臭氧1小时,85,67,66,31,26,188,,119,119,19,15,6,5,0.6,0.5
2024-06-14T1200,1815A,112.494,34.6886,洛阳市,河南林校,臭氧1小时,83,55,54,23,25,186,,117,117,16,13,6,6,0.5,0.4
2024-06-14T1200,1816A,112.3844,34.623,洛阳市,开发区管委会,臭氧1小时,53,43,52,18,25,162,,108,108,10,13,5,5,0.3,0.4
2024-06-14T1200,1817A,112.4267,34.6258,洛阳市,市委新办公区,臭氧1小时,70,37,48,29,30,176,,118,118,10,10,6,7,0.4,0.4
2024-06-14T1200,3340A,112.6005,34.6326,洛阳市,伊滨,臭氧1小时,80,68,63,21,27,184,,119,119,13,15,8,7,0.3,0.3
2024-06-14T1200,3341A,112.4951,34.6332,洛阳市,中移产业园,臭氧1小时,72,42,60,24,28,177,,118,118,9,9,6,6,0.5,0.6
2024-06-14T1200,3593A,112.5736,34.8993,洛阳市,吉利监测站,颗粒物(PM10),51,52,57,18,22,128,,108,104,14,13,5,2,0.2,0.2
2024-06-14T1200,3635A,112.3677,34.662,洛阳市,河科大西苑校区,臭氧1小时,74,69,66,21,23,179,,107,107,16,11,8,7,0.6,0.6
2024-06-14T1200,3636A,112.4388,34.6781,洛阳市,英才小学,臭氧1小时,69,71,64,20,20,175,,108,108,14,11,5,5,0.4,0.4
2024-06-14T1200,2399A,114.051,33.5699,漯河市,三五一五工厂,臭氧1小时,70,46,55,16,21,176,,93,93,6,19,5,7,0.6,0.6
2024-06-14T1200,2400A,114.0055,33.5698,漯河市,漯河大学,臭氧1小时,74,52,51,31,30,179,,92,92,8,19,7,9,0.5,0.4
2024-06-14T1200,2401A,114.0138,33.5828,漯河市,市水利局,臭氧1小时,74,51,49,22,22,179,,96,96,6,15,7,8,0.7,0.5
2024-06-14T1200,2402A,114.0261,33.5698,漯河市,市广电局,臭氧1小时,69,49,48,16,19,175,,92,92,4,16,4,6,0.6,0.5
2024-06-14T1200,3478A,113.9749,33.5664,漯河市,市图书馆,臭氧1小时,72,51,45,16,22,177,,88,88,2,13,4,3,0.6,0.5
2024-06-14T1200,3479A,114.0967,33.5906,漯河市,召陵区卫健委,臭氧1小时,69,49,56,24,25,175,,97,97,6,19,4,6,0.5,0.4
2024-06-14T1200,1798A,118.5092,31.6837,马鞍山市,湖东路四小,臭氧1小时,101,73,58,16,38,201,,138,138,13,14,10,11,0.9,0.9
2024-06-14T1200,1799A,118.5024,31.6449,马鞍山市,开发区,,,,50,39,27,197,,,,12,11,10,9,,0.8
2024-06-14T1200,1800A,118.5228,31.7231,马鞍山市,慈湖,臭氧1小时,104,50,57,36,43,208,,145,145,16,20,8,8,0.8,1
2024-06-14T1200,1802A,118.6245,31.7241,马鞍山市,濮塘,臭氧1小时,93,50,46,33,35,194,,127,127,10,12,6,4,1.0,1
2024-06-14T1200,3633A,118.4918,31.6809,马鞍山市,雨山,臭氧1小时,101,71,66,31,32,202,,141,141,10,12,5,7,1.1,1
2024-06-14T1200,1686A,111.0286,21.4688,茂名市,电白南海,,25,14,26,14,17,79,,,,5,5,3,4,1.0,0.7
2024-06-14T1200,1687A,110.9294,21.6533,茂名市,茂石化七小,,29,29,32,17,16,77,,54,54,8,11,7,7,0.5,0.5
2024-06-14T1200,1688A,110.9107,21.6687,茂名市,健康路,,25,24,27,12,10,80,,56,56,6,8,9,9,0.5,0.5
2024-06-14T1200,1689A,110.8592,21.6828,茂名市,高岭,,31,31,33,14,16,75,,52,52,10,12,6,8,0.5,0.5
2024-06-14T1200,3450A,111.01,21.5165,茂名市,电白水东,,25,17,20,9,10,78,,74,72,7,9,3,3,0.5,0.5
2024-06-14T1200,2539A,104.0308,30.0478,眉山市,黑龙滩水库,,48,40,36,33,24,115,,48,48,13,11,6,5,0.4,0.3
2024-06-14T1200,2540A,103.8416,30.0874,眉山市,气象局,细颗粒物(PM2.5),52,44,41,36,34,101,,51,33,35,30,17,9,0.5,0.5
2024-06-14T1200,3137A,103.8578,30.0744,眉山市,市委党校,颗粒物(PM10),57,63,48,36,28,93,,48,40,31,25,18,10,0.7,0.6
2024-06-14T1200,3148A,103.8291,30.0564,眉山市,区人社局,细颗粒物(PM2.5),58,42,39,41,29,93,,55,46,39,32,14,10,0.6,0.5
2024-06-14T1200,1690A,116.1231,24.3284,梅州市,梅江月梅,,22,14,22,12,12,68,,31,31,2,11,4,4,0.4,0.4
2024-06-14T1200,1691A,116.0797,24.2719,梅州市,梅县新城,,20,17,19,10,11,64,,25,25,2,13,4,4,0.3,0.4
2024-06-14T1200,1692A,116.1248,24.2654,梅州市,环境监控中心,,20,20,23,11,10,52,,22,22,6,16,3,5,0.5,0.6
2024-06-14T1200,3315A,116.1233,24.2991,梅州市,梅龙,,20,,16,10,11,63,,29,29,2,9,7,8,0.5,0.6
2024-06-14T1200,1878A,104.7778,31.4741,绵阳市,富乐山,,37,35,39,25,29,118,,65,65,18,11,8,8,0.5,0.5
2024-06-14T1200,1879A,104.7563,31.4535,绵阳市,市人大,颗粒物(PM10),51,51,47,20,28,107,,54,54,29,25,6,7,0.4,0.5
2024-06-14T1200,1880A,104.6697,31.4668,绵阳市,高新区自来水公司,,44,44,47,12,24,128,,64,64,15,21,6,6,0.4,0.5
2024-06-14T1200,1881A,104.7287,31.5075,绵阳市,三水厂,颗粒物(PM10),61,71,58,32,34,112,,44,44,20,28,7,6,0.4,0.5
2024-06-14T1200,3491A,104.69,31.5322,绵阳市,西科大附属小学,,41,41,45,18,24,110,,65,65,17,24,8,6,0.6,0.6
2024-06-14T1200,3492A,104.5648,31.5343,绵阳市,安州区旅游局,,41,41,39,17,24,121,,66,66,13,18,10,7,0.5,0.5
2024-06-14T1200,1784A,129.61,44.561,牡丹江市,环保大楼,,30,,17,10,11,94,,69,69,7,12,6,7,0.3,0.4
2024-06-14T1200,1785A,129.6115,44.5782,牡丹江市,文化广场,,27,22,27,14,20,85,,63,63,10,14,6,6,0.4,0.4
2024-06-14T1200,1786A,129.5904,44.5963,牡丹江市,第一医院,,27,9,13,8,14,84,,63,63,9,12,4,5,0.5,0.5
2024-06-14T1200,1787A,129.6364,44.6075,牡丹江市,机车工厂,,28,8,14,6,7,87,,57,57,5,11,3,8,0.4,0.4
2024-06-14T1200,1788A,129.6386,44.5462,牡丹江市,第一中学,,30,17,17,3,8,94,,70,70,8,14,4,4,0.4,0.4
2024-06-14T1200,2531A,105.0703,29.61,内江市,市监测站,,49,46,41,34,40,135,,56,56,22,27,13,7,0.6,0.7
2024-06-14T1200,2532A,105.0717,29.5947,内江市,东兴区政府,,,34,50,23,32,,,42,,6,15,15,10,0.8,0.9
2024-06-14T1200,2533A,105.0653,29.5817,内江市,内江二中,,43,43,47,30,36,104,,49,49,13,20,9,8,0.6,0.7
2024-06-14T1200,2534A,105.0406,29.5822,内江市,内江日报社,,38,30,44,26,38,119,,60,60,23,24,18,11,0.7,0.8
2024-06-14T1200,2628A,92.0657,31.4846,那曲市,那曲监测站,,38,11,13,3,5,119,,93,93,5,6,7,6,0.5,0.5
2024-06-14T1200,3128A,92.0506,31.4797,那曲市,那曲会议中心,,37,12,16,3,7,116,,96,96,4,5,3,3,0.3,0.4
2024-06-14T1200,1290A,115.8931,28.6843,南昌市,省外办,,30,30,22,17,16,56,,33,33,14,12,8,7,0.5,0.6
2024-06-14T1200,1291A,115.8886,28.7003,南昌市,省林业公司,,21,14,17,14,9,66,,34,34,12,14,7,6,0.4,0.4
2024-06-14T1200,1292A,115.8126,28.7442,南昌市,林科所,,18,12,14,9,9,57,,29,29,12,20,11,9,0.3,0.4
2024-06-14T1200,1294A,115.8518,28.687,南昌市,建工学校,,19,19,22,10,9,59,,36,36,8,10,5,5,0.5,0.6
2024-06-14T1200,1295A,115.8921,28.6424,南昌市,象湖,,23,22,17,16,11,53,,34,34,12,12,10,6,0.5,0.5
2024-06-14T1200,1296A,115.7423,28.7996,南昌市,武术学校,,38,,18,26,24,54,,24,24,4,3,22,20,0.6,0.6
2024-06-14T1200,1298A,115.9314,28.6842,南昌市,省站,,20,19,29,14,12,63,,34,34,13,16,9,8,0.6,0.7
2024-06-14T1200,3046A,115.9084,28.6062,南昌市,机电学校,,29,29,21,14,10,50,,27,27,9,8,12,8,0.6,0.6
2024-06-14T1200,3690A,115.9721,28.7031,南昌市,外国语学校,,20,20,22,8,12,63,,32,32,9,10,6,5,0.3,0.4
2024-06-14T1200,1905A,106.056,30.8064,南充市,西山风景区,,,40,34,23,27,124,,79,79,,6,7,5,0.6,0.6
2024-06-14T1200,1906A,106.0789,30.8023,南充市,南充市委,"颗粒物(PM10),细颗粒物(PM2.5)",54,57,50,38,33,135,,67,67,15,22,4,6,0.6,0.5
2024-06-14T1200,1907A,106.1031,30.8217,南充市,南充炼油厂,"颗粒物(PM10),细颗粒物(PM2.5)",55,60,51,39,33,161,,77,77,14,19,12,10,0.4,0.4
2024-06-14T1200,1908A,106.1064,30.7856,南充市,高坪区监测站,,49,45,49,34,30,155,,82,82,15,20,12,11,0.4,0.4
2024-06-14T1200,1909A,106.0642,30.7636,南充市,嘉陵区环保局,细颗粒物(PM2.5),55,54,47,39,33,131,,62,62,14,22,8,7,0.5,0.4
2024-06-14T1200,1910A,106.1087,30.8388,南充市,市环境监测站,细颗粒物(PM2.5),57,51,55,40,32,152,,68,68,23,30,10,9,0.6,0.7
2024-06-14T1200,1151A,118.8086,32.1065,南京市,迈皋桥,臭氧1小时,107,40,46,29,33,214,,142,142,6,11,6,6,0.5,0.6
2024-06-14T1200,1152A,118.7538,32.0551,南京市,草场门,臭氧1小时,109,53,52,31,33,217,,145,145,14,16,4,4,0.7,0.7
2024-06-14T1200,1153A,118.7794,32.0745,南京市,山西路,臭氧1小时,112,51,51,29,35,223,,152,152,9,12,3,4,0.5,0.5
2024-06-14T1200,1154A,118.7752,32.0023,南京市,中华门,臭氧1小时,89,39,46,27,31,191,,130,130,8,10,6,6,0.6,0.6
2024-06-14T1200,1155A,118.8109,32.0309,南京市,瑞金路,臭氧1小时,107,54,57,31,34,213,,139,139,6,7,6,7,0.4,0.4
2024-06-14T1200,1156A,118.7997,32.0754,南京市,玄武湖,臭氧1小时,85,46,50,28,31,188,,126,126,2,12,9,9,0.7,0.8
2024-06-14T1200,1157A,118.6414,32.0931,南京市,浦口,臭氧1小时,110,48,52,29,34,219,,143,143,12,17,6,6,1.0,1
2024-06-14T1200,1158A,118.7356,31.9996,南京市,奥体中心,臭氧1小时,110,47,51,34,36,220,,150,150,9,11,6,6,0.5,0.6
2024-06-14T1200,1159A,118.9125,32.1028,南京市,仙林大学城,臭氧1小时,111,48,50,27,32,222,,148,148,11,13,7,8,0.6,0.7
2024-06-14T1200,3422A,118.8436,31.9198,南京市,江宁彩虹桥,臭氧1小时,98,49,48,31,33,198,,134,134,8,10,4,4,0.5,0.6
2024-06-14T1200,3423A,119.0138,31.6494,南京市,溧水永阳,臭氧1小时,99,46,46,27,30,199,,142,142,10,15,4,4,0.6,0.6
2024-06-14T1200,3424A,118.879,31.3302,南京市,高淳老职中,臭氧1小时,63,53,47,33,32,170,,143,143,10,12,6,6,0.6,0.5
2024-06-14T1200,3427A,118.8554,32.3578,南京市,六合雄州,臭氧1小时,116,37,56,20,34,231,,143,143,23,27,4,4,0.7,0.8
2024-06-14T1200,1401A,108.3103,22.7881,南宁市,二十一中,,35,35,32,14,13,26,,59,40,27,12,2,2,0.9,0.8
2024-06-14T1200,1402A,108.3141,22.8528,南宁市,北湖,,37,37,36,20,19,29,,53,32,22,13,5,4,0.8,0.7
2024-06-14T1200,1403A,108.3206,22.8225,南宁市,市监测站,,29,29,33,20,15,25,,56,36,42,14,3,4,0.9,0.8
2024-06-14T1200,1404A,108.3829,22.8037,南宁市,大自然花园,,32,32,30,18,14,26,,54,36,20,11,4,4,0.8,0.6
2024-06-14T1200,1405A,108.4394,22.7904,南宁市,仙葫,,,18,26,9,14,,,39,33,5,6,5,4,1.2,0.9
2024-06-14T1200,1406A,108.2397,22.8467,南宁市,区农职院,,,38,36,22,17,,,62,62,20,18,18,7,0.7,0.7
2024-06-14T1200,1407A,108.3275,22.735,南宁市,英华嘉园,,30,30,33,17,14,22,,49,38,22,16,4,5,0.7,0.7
2024-06-14T1200,1408A,108.2257,22.7757,南宁市,沙井镇街道办,,41,41,40,22,16,20,,36,24,28,20,5,2,0.8,0.7
2024-06-14T1200,3401A,108.4834,22.7618,南宁市,红星社区,,36,36,31,18,16,22,,43,28,20,15,4,6,0.7,0.7
2024-06-14T1200,2332A,118.1681,26.6369,南平市,南平市监测站,,25,20,15,17,6,42,,17,17,12,19,4,3,1.0,0.9
2024-06-14T1200,2333A,118.1825,26.6489,南平市,南平铝业有限公司,,15,13,14,8,5,47,,20,20,10,21,4,5,0.7,0.8
2024-06-14T1200,2334A,118.1756,26.6272,南平市,南平七中,,15,14,14,10,6,46,,20,20,11,14,4,4,1.0,0.8
2024-06-14T1200,1168A,120.9098,31.9663,南通市,狼山街道,臭氧1小时,69,37,28,24,16,175,,118,118,20,12,15,11,0.8,0.6
2024-06-14T1200,1169A,120.86,32.0005,南通市,虹桥,臭氧1小时,75,39,35,21,20,180,,113,113,21,15,10,7,0.7,0.6
2024-06-14T1200,1170A,120.87,32.02,南通市,城中,,,46,41,23,24,191,,117,117,16,13,,6,0.7,0.7
2024-06-14T1200,1171A,120.94,31.93,南通市,星湖花园,臭氧1小时,54,33,23,23,16,163,,112,112,27,17,12,8,0.9,0.6
2024-06-14T1200,1172A,120.81,32.0417,南通市,紫琅学院,臭氧1小时,83,34,26,24,21,186,,118,118,25,18,9,6,0.9,0.7
2024-06-14T1200,3291A,121.067,32.062,南通市,通州监测站,,,36,33,17,12,168,,116,116,4,5,21,11,,0.6
2024-06-14T1200,3432A,120.9348,31.9883,南通市,环境教育馆,臭氧1小时,88,41,38,18,22,190,,117,117,22,22,11,8,0.9,0.6
2024-06-14T1200,2404A,112.5224,33.0122,南阳市,瓦房庄,臭氧1小时,65,43,35,27,21,172,,80,80,16,20,7,7,0.6,0.5
2024-06-14T1200,2405A,112.5003,32.9735,南阳市,汉画馆,臭氧1小时,75,55,46,30,23,180,,79,79,16,22,7,6,0.6,0.6
2024-06-14T1200,2406A,112.5573,33.027,南阳市,气象站,,50,41,37,29,20,159,,70,70,13,22,2,2,0.6,0.5
2024-06-14T1200,2407A,112.5481,32.9689,南阳市,理工学院,臭氧1小时,65,46,42,30,24,172,,76,76,18,24,7,6,0.6,0.6
2024-06-14T1200,4008A,112.5234,32.9922,南阳市,卧龙区政府,臭氧1小时,69,53,45,29,27,175,,72,72,16,26,5,5,0.7,0.7
2024-06-14T1200,1234A,121.8358,29.911,宁波市,区环保大楼,,32,8,34,8,17,101,,88,88,9,19,6,6,0.6,0.6
2024-06-14T1200,1235A,121.56,29.82,宁波市,万里学院,,37,17,28,9,20,117,,87,87,5,12,5,5,0.6,0.6
2024-06-14T1200,1236A,121.713,29.9572,宁波市,龙赛医院,,39,18,31,8,16,122,,88,88,3,12,4,5,0.5,0.5
2024-06-14T1200,1239A,121.633,29.7733,宁波市,钱湖水厂,,30,,24,12,16,96,,76,76,5,7,4,4,0.7,0.8
2024-06-14T1200,1240A,121.5856,29.8635,宁波市,太古小学,,36,12,25,10,19,113,,83,83,2,8,5,5,0.7,0.7
2024-06-14T1200,1241A,121.524,29.8674,宁波市,市环境监测中心,,41,18,31,10,19,131,,93,93,5,13,4,4,0.6,0.7
2024-06-14T1200,2871A,121.6147,29.9017,宁波市,万里国际学校,,41,14,27,12,20,130,,93,93,5,11,4,5,0.4,0.5
2024-06-14T1200,3710A,121.5594,29.8975,宁波市,白沙活动中心,,42,15,31,7,10,133,,92,92,2,9,8,8,0.5,0.5
2024-06-14T1200,2341A,119.5388,26.6612,宁德市,宁德市监测站,,27,27,17,12,10,52,,57,48,21,14,4,4,0.7,0.6
2024-06-14T1200,3209A,119.5231,26.6562,宁德市,宁德一中,,35,35,19,7,9,51,,65,52,18,9,5,4,0.8,0.7
2024-06-14T1200,2618A,98.8601,25.8567,怒江傈僳族自治州,州监测站,,17,17,20,10,13,50,,24,24,6,10,9,9,0.5,0.5
2024-06-14T1200,2619A,98.8546,25.8417,怒江傈僳族自治州,泸水一中,,17,17,17,3,8,38,,14,14,10,11,5,5,0.4,0.5
2024-06-14T1200,1888A,101.6891,26.571,攀枝花市,弄弄坪,,22,22,43,7,12,64,,52,52,17,21,16,32,0.5,0.6
2024-06-14T1200,1889A,101.5769,26.5928,攀枝花市,河门口,,23,23,29,11,15,71,,44,44,9,23,11,19,0.6,1.1
2024-06-14T1200,1890A,101.7169,26.585,攀枝花市,炳草岗,,20,17,32,14,13,64,,57,57,17,18,21,34,0.6,0.6
2024-06-14T1200,1891A,101.7369,26.5008,攀枝花市,仁和,,25,9,19,6,11,79,,43,43,8,14,7,8,0.2,0.3
2024-06-14T1200,2835A,101.7227,26.567,攀枝花市,四十中小,,25,17,26,7,14,78,,71,71,4,8,6,30,0.6,0.6
2024-06-14T1200,1604A,122.0303,41.1489,盘锦市,开发区,,28,11,23,11,16,89,,93,92,11,14,5,5,0.2,0.3
2024-06-14T1200,1605A,122.0485,41.0883,盘锦市,兴隆台,,27,,24,9,16,85,,91,91,10,17,5,5,0.3,0.4
2024-06-14T1200,1606A,121.8297,41.1028,盘锦市,新生街道,,34,10,20,10,14,107,,103,103,7,12,4,5,0.2,0.3
2024-06-14T1200,1832A,113.3257,33.742,平顶山市,新华旅馆,臭氧1小时,102,54,50,45,34,204,,124,124,9,13,11,8,0.5,0.4
2024-06-14T1200,1833A,113.2919,33.737,平顶山市,规划设计院,臭氧1小时,80,52,44,23,23,184,,110,110,10,12,10,6,0.7,0.6
2024-06-14T1200,1834A,113.182,33.774,平顶山市,平顶山工学院,臭氧1小时,89,62,24,29,23,191,,113,113,9,11,8,7,0.6,0.6
2024-06-14T1200,3204A,113.3025,33.73,平顶山市,规划局,,,,52,51,30,186,,108,108,20,19,10,6,0.5,0.4
2024-06-14T1200,3594A,112.8867,33.9116,平顶山市,石龙区,,,46,78,21,34,,,114,114,6,15,10,8,0.5,0.5
2024-06-14T1200,2656A,106.6692,35.5461,平凉市,聚贤嘉苑,颗粒物(PM10),67,84,49,19,18,133,,88,88,5,19,8,8,0.4,0.4
2024-06-14T1200,2657A,106.7021,35.5307,平凉市,博物馆,,,77,44,19,18,137,,87,87,,20,10,9,0.2,0.3
2024-06-14T1200,2347A,114.0997,27.5002,萍乡市,武功山,,13,6,4,3,3,40,,22,22,2,2,18,18,0.5,0.5
2024-06-14T1200,2348A,113.8385,27.6434,萍乡市,中医院,,27,27,19,13,14,64,,25,25,3,7,11,9,1.1,0.9
2024-06-14T1200,2349A,113.8493,27.6253,萍乡市,市政府车库,,43,,14,30,15,64,,24,24,6,8,14,13,1.0,1.1
2024-06-14T1200,2350A,113.8676,27.6435,萍乡市,市环保局,,50,,24,35,19,69,,29,29,6,8,9,9,0.8,0.7
2024-06-14T1200,2351A,113.866,27.6198,萍乡市,安源区政府,颗粒物(PM10),51,52,22,12,14,50,,20,20,7,7,16,15,0.9,0.8
2024-06-14T1200,2319A,119.0141,25.4325,莆田市,荔城区仓后路,,39,39,28,17,13,81,,44,44,8,10,6,6,0.7,0.7
2024-06-14T1200,2320A,119.0015,25.4553,莆田市,莆田市监测站,,29,29,26,12,9,79,,40,40,7,7,8,8,0.6,0.6
2024-06-14T1200,2321A,119.1119,25.4561,莆田市,涵江区六中,,40,40,25,21,10,82,,40,40,14,15,8,8,0.6,0.6
2024-06-14T1200,2322A,119.1013,25.3215,莆田市,秀屿区政府,,49,49,28,24,18,90,,43,43,10,12,8,9,0.8,0.7
2024-06-14T1200,2392A,115.0312,35.7636,濮阳市,环保局,臭氧1小时,68,76,88,29,23,174,,91,91,16,15,13,9,0.7,0.5
2024-06-14T1200,2394A,115.0574,35.7609,濮阳市,油田运输公司,"颗粒物(PM10),臭氧1小时",68,85,98,31,22,174,,90,88,23,16,12,9,0.7,0.5
2024-06-14T1200,2395A,115.0866,35.7754,濮阳市,油田物探公司,,,79,99,33,26,183,,92,92,12,11,10,8,,0.6
2024-06-14T1200,3021A,115,35.7668,濮阳市,濮水河管理处,颗粒物(PM10),56,62,85,28,25,162,,83,81,12,14,12,9,0.5,0.4
2024-06-14T1200,2601A,100.98,22.7633,普洱市,市环保局,,16,15,12,10,11,51,,38,38,4,5,7,6,0.3,0.3
2024-06-14T1200,2602A,100.9817,22.8322,普洱市,普洱第二中学,,17,,12,11,12,53,,34,34,6,7,9,8,0.4,0.4
2024-06-14T1200,2262A,131.0518,45.8751,七台河市,新一中,,,,12,,9,87,,,,5,6,2,9,0.5,0.8
2024-06-14T1200,3345A,131.0577,45.7879,七台河市,中波台,,,14,6,9,6,72,,58,57,9,11,7,8,,0.4
2024-06-14T1200,3637A,131.0176,45.7761,七台河市,人民广场,,31,31,18,19,10,78,,54,53,12,13,12,11,0.4,0.4
2024-06-14T1200,3684A,130.8781,45.8222,七台河市,新建矿广场,,24,,15,7,14,75,,48,48,10,18,7,10,0.1,0.3
2024-06-14T1200,1779A,123.9305,47.3636,齐齐哈尔市,安居小区,,18,8,17,3,8,55,,54,50,7,10,6,7,0.3,0.4
2024-06-14T1200,1780A,123.9488,47.3386,齐齐哈尔市,中心广场,,17,16,15,11,11,53,,55,51,8,10,8,8,0.2,0.3
2024-06-14T1200,1781A,123.9483,47.3227,齐齐哈尔市,农牧车辆厂,,19,12,21,10,6,58,,58,54,6,7,7,7,0.2,0.2
2024-06-14T1200,1783A,123.945,47.2988,齐齐哈尔市,市环境监测站,,17,12,15,3,10,54,,54,51,7,7,4,4,0.3,0.3
2024-06-14T1200,3662A,123.6333,47.2075,齐齐哈尔市,富区青少年活动中心,,19,8,10,3,6,58,,59,56,5,8,4,5,0.2,0.3
2024-06-14T1200,2591A,107.9783,26.5747,黔东南苗族侗族自治州,市环境监测站,,19,19,17,12,12,59,,26,26,11,10,3,3,0.4,0.4
2024-06-14T1200,2881A,107.8908,26.5311,黔东南苗族侗族自治州,凯里学院,,19,,12,10,9,60,,22,22,5,7,3,3,0.3,0.4
2024-06-14T1200,2593A,107.5228,26.2403,黔南布依族苗族自治州,小围寨,,25,,9,17,2,60,,27,27,4,7,5,4,0.5,0.5
2024-06-14T1200,3538A,107.5175,26.2978,黔南布依族苗族自治州,沙坝,,20,12,9,9,4,64,,27,27,4,9,4,3,0.4,0.5
2024-06-14T1200,2589A,104.9022,25.0925,黔西南布依族苗族自治州,场坝街,,26,9,14,9,6,82,,60,58,7,8,3,2,0.3,0.3
2024-06-14T1200,2590A,104.8811,25.0992,黔西南布依族苗族自治州,坪东大道,,27,10,12,6,7,85,,62,62,5,5,6,4,0.3,0.3
2024-06-14T1200,2502A,108.6236,21.9667,钦州市,市环保站,,36,36,28,12,8,58,,58,47,12,9,10,8,0.6,0.6
2024-06-14T1200,2503A,108.6549,21.9481,钦州市,沙埠小学,,39,39,33,14,13,68,,54,47,9,13,4,4,0.8,0.7
2024-06-14T1200,2504A,108.5989,21.7431,钦州市,港区一小,,34,34,35,6,9,67,,63,52,7,9,7,7,0.5,0.5
2024-06-14T1200,3404A,108.5959,21.9633,钦州市,北职校,,36,36,31,14,12,62,,55,46,11,10,10,9,0.6,0.6
2024-06-14T1200,1042A,119.5134,39.8207,秦皇岛市,北戴河环保局,,44,44,42,10,12,140,,128,120,3,6,3,3,0.3,0.4
2024-06-14T1200,1043A,119.7493,40.0116,秦皇岛市,第一关,,,44,45,7,18,134,,104,104,,16,3,4,0.3,0.3
2024-06-14T1200,1044A,119.5897,39.9499,秦皇岛市,监测站,,49,49,50,18,18,134,,108,104,8,10,3,2,0.4,0.4
2024-06-14T1200,1046A,119.5251,39.9041,秦皇岛市,建设大厦,,40,37,37,9,15,125,,107,101,11,11,3,2,0.2,0.2
2024-06-14T1200,3132A,119.610547,39.943889,秦皇岛市,文明里,颗粒物(PM10),53,56,48,30,23,133,,110,103,12,9,2,2,0.4,0.4
2024-06-14T1200,1307A,120.6659,36.2403,青岛市,仰口,,21,17,22,12,13,67,,69,69,6,5,4,4,0.2,0.2
2024-06-14T1200,1310A,120.4134,36.0658,青岛市,市南区东部子站,,20,12,10,3,8,64,,68,64,4,5,6,7,0.3,0.3
2024-06-14T1200,1311A,120.3664,36.1032,青岛市,四方区子站,,20,9,14,7,9,62,,76,68,15,10,8,9,0.4,0.4
2024-06-14T1200,1312A,120.2994,36.054,青岛市,市南区西部子站,,22,7,12,3,6,68,,72,66,7,11,6,6,0.4,0.4
2024-06-14T1200,1313A,120.4581,36.0858,青岛市,崂山区子站,,22,19,13,7,6,69,,72,66,7,9,8,8,0.4,0.4
2024-06-14T1200,1314A,120.1983,35.9608,青岛市,黄岛区子站,,22,22,12,10,7,70,,72,72,10,8,6,6,0.4,0.4
2024-06-14T1200,1315A,120.3999,36.3083,青岛市,城阳区子站,,21,9,21,7,10,65,,75,73,15,12,7,7,0.5,0.5
2024-06-14T1200,1966A,120.0405,35.8735,青岛市,黄岛区4号,,25,24,12,3,3,78,,81,78,10,12,7,8,0.4,0.5
2024-06-14T1200,3362A,120.5014,36.4034,青岛市,即墨2号,,25,22,30,13,12,77,,82,82,11,12,6,6,0.4,0.4
2024-06-14T1200,3642A,120.3503,36.0736,青岛市,市北区南部,,22,13,13,3,5,68,,77,73,9,7,6,6,0.3,0.3
2024-06-14T1200,3643A,120.3948,36.1805,青岛市,李沧区北部,,17,12,11,3,11,52,,64,60,22,15,9,9,0.4,0.4
2024-06-14T1200,1702A,113.0426,23.691,清远市,环保大楼,,28,28,21,10,11,66,,36,36,15,13,4,4,0.6,0.6
2024-06-14T1200,1703A,113.0208,23.7106,清远市,凤城街办,,27,27,18,13,11,68,,30,30,12,12,2,2,0.4,0.5
2024-06-14T1200,3025A,113.0477,23.6344,清远市,技师学院,,26,23,25,10,13,82,,42,42,10,14,4,4,0.5,0.6
2024-06-14T1200,3318A,112.9903,23.7403,清远市,清新太和,颗粒物(PM10),52,53,25,23,13,77,,33,33,18,16,5,5,0.6,0.5
2024-06-14T1200,3455A,113.076,23.7198,清远市,清城东城,,47,47,26,32,14,70,,34,34,9,11,5,5,0.5,0.4
2024-06-14T1200,2661A,107.6325,35.7357,庆阳市,庆阳五中,颗粒物(PM10),57,64,44,19,15,137,,102,102,7,10,4,3,0.2,0.2
2024-06-14T1200,2662A,107.6364,35.7067,庆阳市,市环保局,,,,40,15,12,137,,102,102,9,9,6,5,0.3,0.4
2024-06-14T1200,1916A,103.7897,25.5035,曲靖市,环境监测站,,,,13,,5,74,,59,59,11,8,4,3,,0.7
2024-06-14T1200,1917A,103.8,25.5364,曲靖市,烟厂办公区,,24,24,14,16,6,75,,62,62,12,7,4,4,0.6,0.4
2024-06-14T1200,3376A,103.7947,25.462,曲靖市,南苑二区,,32,32,11,10,6,82,,65,65,10,8,4,4,0.8,0.6
2024-06-14T1200,3377A,103.7444,25.5261,曲靖市,曲靖师范学院,,26,,15,15,6,82,,61,61,8,16,5,9,0.6,0.6
2024-06-14T1200,1264A,118.8692,28.9398,衢州市,环保大楼,,36,17,20,11,13,114,,54,54,13,19,4,4,1.0,0.5
2024-06-14T1200,1265A,118.8709,28.9666,衢州市,实验学校,,37,16,24,11,14,117,,53,53,9,21,10,5,0.7,0.3
2024-06-14T1200,1266A,118.8621,28.9808,衢州市,衢州学院,,43,28,22,16,14,137,,54,54,12,25,13,4,1.2,0.5
2024-06-14T1200,1611A,118.5819,24.9117,泉州市,涂山街,,41,41,31,24,17,70,,35,35,19,24,4,4,0.5,0.5
2024-06-14T1200,1612A,118.5972,24.8978,泉州市,津头埔,,36,36,29,18,18,73,,38,38,20,23,2,2,0.6,0.6
2024-06-14T1200,1613A,118.6663,24.9424,泉州市,万安,,40,40,28,23,13,79,,35,35,16,17,2,2,0.6,0.5
2024-06-14T1200,3529A,118.6333,24.9264,泉州市,城华南路,,32,32,27,12,14,73,,37,37,18,22,3,3,0.4,0.4
2024-06-14T1200,2626A,88.8876,29.2718,日喀则市,日喀则监测站,,36,10,11,3,5,113,,102,98,7,8,6,6,0.6,0.6
2024-06-14T1200,3726A,88.8781,29.2426,日喀则市,林业技术推广中心,,38,33,14,3,4,121,,106,106,6,7,4,4,0.6,0.5
2024-06-14T1200,1659A,119.471,35.4209,日照市,监测站,,48,48,33,33,15,120,,79,79,20,27,10,10,0.5,0.4
2024-06-14T1200,1660A,119.523,35.4216,日照市,市政府广场,,44,44,27,24,9,100,,74,74,9,13,10,10,0.6,0.5
2024-06-14T1200,1661A,119.5587,35.4044,日照市,港务局,,39,39,24,18,5,113,,85,85,7,9,8,7,0.5,0.4
2024-06-14T1200,3507A,119.5328,35.4625,日照市,职业技术学院,颗粒物(PM10),52,53,26,34,11,113,,80,80,11,12,8,8,0.7,0.5
2024-06-14T1200,3604A,119.3266,35.1044,日照市,岚山环保分局,,,,53,,17,161,,85,85,26,18,10,8,0.8,0.6
2024-06-14T1200,1835A,111.1922,34.7752,三门峡市,市政府,,42,40,44,18,17,132,,92,92,22,23,18,12,0.5,0.4
2024-06-14T1200,1836A,111.1587,34.7942,三门峡市,开发区,,46,40,48,26,28,146,,109,109,12,13,13,11,0.6,0.6
2024-06-14T1200,3039A,111.1911,34.7829,三门峡市,三门峡市第一小学,,49,49,53,19,16,141,,105,105,21,18,12,10,0.5,0.5
2024-06-14T1200,3598A,111.1,34.7167,三门峡市,富达温泉假日酒店,,50,50,53,20,19,132,,103,102,17,19,23,16,0.4,0.4
2024-06-14T1200,2324A,117.6211,26.2625,三明市,三钢,,,35,18,24,13,52,,19,19,14,20,,7,1.0,0.9
2024-06-14T1200,2325A,117.635,26.2714,三明市,三明二中,,39,39,16,15,7,54,,20,20,11,18,8,6,0.8,0.9
2024-06-14T1200,2326A,117.6028,26.2378,三明市,三元区政府,,40,,19,28,11,52,,20,20,12,20,4,3,0.6,0.7
2024-06-14T1200,1876A,109.5078,18.2489,三亚市,河东子站,,27,22,20,10,9,86,,81,79,8,5,3,3,0.4,0.3
2024-06-14T1200,1877A,109.4964,18.2681,三亚市,河西子站,,26,23,18,10,9,81,,76,74,5,4,1,2,0.3,0.3
2024-06-14T1200,3540A,109.7348,18.3443,三亚市,君悦子站,,43,43,25,8,10,77,,73,73,6,8,3,2,0.2,0.2
2024-06-14T1200,2624A,91.7608,29.2313,山南市,山南监测站,,34,,9,3,4,106,,91,90,4,5,5,5,0.3,0.3
2024-06-14T1200,2625A,91.7706,29.2436,山南市,山南人民医院,,32,13,15,3,5,100,,99,95,9,8,6,6,0.4,0.4
2024-06-14T1200,1674A,116.6794,23.3667,汕头市,金平子站,,43,43,22,10,12,74,,59,59,6,9,2,2,0.6,0.7
2024-06-14T1200,1675A,116.7244,23.3633,汕头市,龙湖子站,,23,20,25,13,13,72,,59,59,9,9,5,5,0.7,0.7
2024-06-14T1200,1676A,116.7258,23.2775,汕头市,濠江子站,,42,42,27,13,13,85,,64,64,6,7,4,4,0.7,0.7
2024-06-14T1200,1677A,116.7519,23.4714,汕头市,澄海子站,,21,17,25,12,12,66,,54,54,8,10,4,4,0.7,0.7
2024-06-14T1200,1678A,116.6092,23.2539,汕头市,潮阳子站,,23,22,21,16,13,68,,62,62,2,3,4,4,0.5,0.5
2024-06-14T1200,3444A,116.454,23.2684,汕头市,潮南峡山,,20,18,23,13,11,62,,54,54,5,6,5,4,0.7,0.7
2024-06-14T1200,3624A,116.4069,23.2533,汕头市,潮南子站,,23,23,26,11,13,64,,59,59,2,3,6,6,0.6,0.7
2024-06-14T1200,1693A,115.3653,22.775,汕尾市,市环保局,,30,30,27,12,10,67,,59,58,2,3,4,4,0.6,0.6
2024-06-14T1200,1694A,115.3706,22.7898,汕尾市,市政府,,33,33,24,15,11,68,,61,60,2,3,6,6,0.6,0.5
2024-06-14T1200,2645A,109.9154,33.8715,商洛市,监测站,,49,27,41,15,18,155,,80,80,5,13,4,6,0.4,0.4
2024-06-14T1200,3045A,109.9643,33.8471,商洛市,商州区中学,,50,35,49,14,18,159,,78,78,5,19,7,10,0.4,0.5
2024-06-14T1200,2408A,115.6702,34.4285,商丘市,环境监测站,臭氧1小时,58,43,58,20,24,166,,136,136,5,9,9,9,0.4,0.4
2024-06-14T1200,2409A,115.6458,34.4045,商丘市,粮食局,,,45,58,18,21,,,,,4,8,4,5,0.3,0.3
2024-06-14T1200,2410A,115.6293,34.3948,商丘市,睢阳区环保局,臭氧1小时,58,52,71,19,22,166,,128,128,8,11,4,6,0.4,0.4
2024-06-14T1200,3171A,115.6071,34.4465,商丘市,梁园区档案局,臭氧1小时,58,51,63,21,31,166,,134,134,7,12,7,8,0.6,0.5
2024-06-14T1200,1141A,121.4,31.238,上海市,普陀,,44,,35,23,35,140,,92,92,18,26,5,5,0.5,0.5
2024-06-14T1200,1142A,121.478,31.2036,上海市,十五厂,,48,,32,32,39,151,,96,96,16,21,7,7,0.7,0.6
2024-06-14T1200,1143A,121.467,31.3008,上海市,虹口,,48,,31,33,35,132,,94,94,24,23,10,10,0.6,0.5
2024-06-14T1200,1144A,121.412,31.1654,上海市,徐汇上师大,,46,,36,32,41,139,,93,93,20,23,8,8,0.6,0.6
2024-06-14T1200,1145A,121.536,31.2659,上海市,杨浦四漂,,44,,35,27,36,139,,91,91,20,27,7,7,0.8,0.7
2024-06-14T1200,1147A,121.425,31.2261,上海市,静安监测站,,46,,35,30,41,145,,93,93,18,23,8,8,0.6,0.6
2024-06-14T1200,1148A,121.703,31.1907,上海市,浦东川沙,,46,,23,25,28,145,,99,99,13,22,6,6,0.6,0.6
2024-06-14T1200,1149A,121.533,31.2284,上海市,浦东新区监测站,,43,,27,22,30,136,,93,93,22,26,7,8,0.6,0.6
2024-06-14T1200,1150A,121.577,31.2071,上海市,浦东张江,,46,,34,24,34,146,,99,99,17,23,5,5,0.8,0.8
2024-06-14T1200,3265A,121.4316,31.3322,上海市,宝山庙行,,45,,32,31,37,141,,99,99,10,11,7,7,0.7,0.6
2024-06-14T1200,3266A,121.8791,31.4662,上海市,崇明上实东滩,,43,12,13,11,12,136,,110,110,8,15,8,9,0.6,0.6
2024-06-14T1200,3268A,121.3162,31.2838,上海市,嘉定南翔,,40,,34,27,37,125,,82,82,23,26,6,6,0.7,0.7
2024-06-14T1200,3269A,121.3359,30.7456,上海市,金山新城,,43,,27,23,25,135,,93,93,11,16,7,6,0.6,0.5
2024-06-14T1200,3270A,121.4996,31.0739,上海市,闵行浦江,,43,,30,27,37,136,,86,86,12,19,5,5,0.7,0.7
2024-06-14T1200,3271A,121.2886,31.1663,上海市,青浦徐泾,,46,,54,28,39,145,,92,92,16,22,6,7,0.5,0.5
2024-06-14T1200,3272A,121.2186,31.0378,上海市,松江图书馆,,43,,35,29,40,137,,94,94,18,21,7,6,0.7,0.7
2024-06-14T1200,3273A,121.3902,31.2059,上海市,长宁仙霞,,42,,34,24,34,133,,87,87,20,22,8,8,0.8,0.8
2024-06-14T1200,3274A,121.7965,31.0507,上海市,浦东惠南,,45,,24,26,28,141,,99,99,12,15,7,6,0.7,0.6
2024-06-14T1200,3544A,121.4891,30.925,上海市,奉贤南桥新城,,43,,26,23,34,137,,96,96,15,20,6,5,0.6,0.6
2024-06-14T1200,2381A,118.005,28.4572,上饶市,百草园,,18,16,23,3,10,55,,20,20,4,8,5,7,0.6,0.7
2024-06-14T1200,2382A,117.9756,28.4436,上饶市,市监测站,,,27,28,15,13,78,,27,27,4,8,,12,0.5,0.6
2024-06-14T1200,2383A,117.9519,28.4628,上饶市,凤凰光学,,32,,23,22,12,81,,32,32,3,12,5,13,0.6,0.7
2024-06-14T1200,3413A,118.1953,28.4401,上饶市,广丰区教体局,,23,8,17,3,8,71,,36,36,2,4,4,5,0.4,0.6
2024-06-14T1200,3685A,117.897,28.4315,上饶市,双创科技城,,28,28,25,11,13,82,,36,36,5,14,4,23,0.6,0.7
2024-06-14T1200,1669A,113.5824,24.7733,韶关市,市八中,,42,42,21,17,11,93,,61,61,9,9,14,16,0.6,0.7
2024-06-14T1200,1671A,113.5917,24.7972,韶关市,园林处,,26,21,20,18,13,68,,37,37,9,9,8,10,0.5,0.6
2024-06-14T1200,1672A,113.6735,24.7791,韶关市,韶关学院,,28,23,24,15,15,87,,45,45,5,9,10,11,0.4,0.5
2024-06-14T1200,1673A,113.5971,24.6863,韶关市,曲江监测站,,,33,19,22,11,89,,56,56,,9,7,7,0.5,0.4
2024-06-14T1200,3622A,113.5556,24.8082,韶关市,碧湖山庄,,33,30,22,19,13,104,,56,56,7,8,8,9,0.4,0.4
2024-06-14T1200,2462A,111.5239,27.3033,邵阳市,市水土所,,26,26,21,12,10,69,,29,29,3,3,4,4,0.4,0.4
2024-06-14T1200,2463A,111.4733,27.2317,邵阳市,市一中,,23,20,24,9,12,73,,42,42,2,7,8,8,0.5,0.5
2024-06-14T1200,2464A,111.5283,27.2442,邵阳市,市化工厂,,32,32,22,19,14,72,,43,43,4,7,8,7,0.5,0.6
2024-06-14T1200,2465A,111.4503,27.2537,邵阳市,市罐头厂,,,38,24,,15,62,,36,36,,7,8,6,,0.3
2024-06-14T1200,2466A,111.4328,27.2272,邵阳市,市环保局,,26,26,22,16,14,70,,40,40,5,6,8,9,0.4,0.4
2024-06-14T1200,1247A,120.6053,29.9928,绍兴市,城东开发委,,48,34,46,25,30,151,,90,90,9,16,5,6,0.8,0.8
2024-06-14T1200,2921A,120.5483,30.0003,绍兴市,树下王站,,44,29,49,22,36,139,,75,75,3,16,4,4,0.7,0.7
2024-06-14T1200,3408A,120.5683,29.9361,绍兴市,绍兴中专,,47,30,48,18,31,148,,78,78,3,20,7,8,0.6,0.6
