timepoint,stationcode,longitude,latitude,area,positionname,primarypollutant,aqi,pm10,pm10_24h,pm2_5,pm2_5_24h,o3,o3_24h,o3_8h,o3_8h_24h,no2,no2_24h,so2,so2_24h,co,co_24h
2023-05-23T00:00:00,1001A,116.3621,39.8784,北京市,万寿西宫,,46,46,34,14,12,105,59,98,83,24,18,3,3,0.3,0.2
2023-05-23T00:00:00,1002A,116.2202,40.2915,北京市,定陵,,22,22,23,9,11,107,70,99,83,6,5,3,3,0.2,0.2
2023-05-23T00:00:00,1003A,116.4174,39.9289,北京市,东四,颗粒物(PM10),54,58,45,18,14,121,78,116,108,28,17,1,2,0.4,0.3
2023-05-23T00:00:00,1004A,116.4072,39.8863,北京市,天坛,,47,47,37,13,13,115,55,108,96,27,22,3,2,0.3,0.2
2023-05-23T00:00:00,1005A,116.462,39.9365,北京市,农展馆,颗粒物(PM10),53,56,37,19,11,113,51,107,96,41,19,2,3,0.4,0.2
2023-05-23T00:00:00,1006A,116.3392,39.9295,北京市,官园,颗粒物(PM10),51,52,35,19,15,106,49,98,88,40,21,5,5,0.2,0.2
2023-05-23T00:00:00,1007A,116.2878,39.9611,北京市,海淀万柳,颗粒物(PM10),53,55,33,20,13,110,28,104,87,57,18,3,3,0.3,0.2
2023-05-23T00:00:00,1008A,116.6636,40.135,北京市,顺义新城,,48,48,39,13,21,109,77,102,83,17,17,1,2,0.2,0.2
2023-05-23T00:00:00,1009A,116.6275,40.3275,北京市,怀柔镇,,36,36,38,11,11,101,65,98,82,10,10,3,3,0.2,0.2
2023-05-23T00:00:00,1010A,116.2296,40.217,北京市,昌平镇,,28,28,24,13,9,99,66,90,75,3,4,3,3,0.2,0.2
2023-05-23T00:00:00,1011A,116.3966,39.9821,北京市,奥体中心,,50,50,35,19,17,102,52,96,86,47,30,3,3,0.3,0.2
2023-05-23T00:00:00,1012A,116.184,39.9136,北京市,古城,颗粒物(PM10),60,69,38,20,12,114,36,104,84,50,17,3,3,0.3,0.1
2023-05-23T00:00:00,1015A,117.1444,39.1661,天津市,勤俭道,颗粒物(PM10),71,91,72,25,27,144,84,134,114,37,30,9,8,0.6,0.4
2023-05-23T00:00:00,1017A,117.237,39.1082,天津市,大直沽八号路,颗粒物(PM10),60,70,71,18,24,147,90,136,119,26,32,4,4,0.5,0.4
2023-05-23T00:00:00,1018A,117.202,39.0927,天津市,前进道,颗粒物(PM10),57,63,66,16,24,133,79,127,110,33,34,6,6,0.5,0.4
2023-05-23T00:00:00,1019A,117.1837,39.2133,天津市,淮河道,颗粒物(PM10),70,90,75,21,23,153,89,144,121,37,31,7,7,0.6,0.4
2023-05-23T00:00:00,1021A,117.307,39.0877,天津市,跃进路,颗粒物(PM10),60,69,77,18,25,159,84,143,121,30,29,7,7,0.6,0.5
2023-05-23T00:00:00,1023A,117.707,39.0343,天津市,第四大街,,39,39,70,9,18,150,61,130,96,56,42,4,5,0.4,0.5
2023-05-23T00:00:00,1024A,117.457,38.8394,天津市,永明路,颗粒物(PM10),62,73,65,22,24,149,72,135,118,42,36,8,8,0.5,0.5
2023-05-23T00:00:00,1026A,117.764,39.1587,天津市,汉北路,,35,35,73,9,26,151,47,135,102,59,33,6,6,0.5,0.7
2023-05-23T00:00:00,1027A,117.157,38.9194,天津市,团泊洼,颗粒物(PM10),62,74,66,20,24,165,57,148,120,40,34,4,4,0.5,0.4
2023-05-23T00:00:00,1029A,114.4422,38.0444,石家庄市,职工医院,,42,42,53,12,18,137,80,123,112,24,19,4,6,0.0,0.1
2023-05-23T00:00:00,1030A,114.6063,38.0266,石家庄市,高新区,颗粒物(PM10),55,60,48,22,15,133,71,121,104,35,18,7,7,0.1,0.1
2023-05-23T00:00:00,1031A,114.4898,38.1328,石家庄市,西北水源,颗粒物(PM10),54,57,54,29,16,137,88,124,113,27,20,6,6,0.4,0.4
2023-05-23T00:00:00,1032A,114.4586,38.0058,石家庄市,西南高教,,47,47,46,26,23,148,94,132,115,20,14,3,4,0.3,0.3
2023-05-23T00:00:00,1033A,114.5331,38.0178,石家庄市,世纪公园,,36,36,37,21,14,127,73,118,98,28,23,8,8,0.1,0.2
2023-05-23T00:00:00,1034A,114.509,38.0457,石家庄市,人民会堂,,49,49,46,12,7,136,92,121,110,23,21,4,5,0.4,0.4
2023-05-23T00:00:00,1035A,114.3524,37.8911,石家庄市,封龙山,,41,41,43,19,14,130,130,126,126,2,4,3,3,0.3,0.3
2023-05-23T00:00:00,1037A,118.131,39.6363,唐山市,雷达站,,34,34,71,12,20,131,47,117,82,36,36,2,2,0.6,0.5
2023-05-23T00:00:00,1038A,118.1725,39.6334,唐山市,物资局,,46,46,78,14,23,122,60,112,80,31,35,7,5,0.7,0.5
2023-05-23T00:00:00,1040A,118.1705,39.6506,唐山市,十二中,,40,40,69,25,29,126,48,113,79,39,35,4,3,0.6,0.4
2023-05-23T00:00:00,1041A,118.1869,39.622,唐山市,小山,,36,36,71,8,16,129,77,114,86,15,28,7,4,0.8,0.5
2023-05-23T00:00:00,1042A,119.5134,39.8207,秦皇岛市,北戴河环保局,,38,38,105,12,26,151,67,114,84,23,23,4,5,0.8,0.8
2023-05-23T00:00:00,1043A,119.7493,40.0116,秦皇岛市,第一关,,45,45,82,25,30,154,9,109,72,69,45,2,3,0.3,0.4
2023-05-23T00:00:00,1044A,119.5897,39.9499,秦皇岛市,监测站,,40,40,82,21,23,132,6,103,65,76,35,4,4,0.4,0.4
2023-05-23T00:00:00,1046A,119.5251,39.9041,秦皇岛市,建设大厦,颗粒物(PM10),67,84,109,35,35,140,0,108,64,80,30,5,4,0.5,0.4
2023-05-23T00:00:00,1048A,114.5302,36.6116,邯郸市,东污水处理厂,颗粒物(PM10),55,60,41,9,7,107,52,102,85,42,25,4,7,0.2,0.8
2023-05-23T00:00:00,1049A,114.4918,36.5713,邯郸市,矿院,,42,42,37,14,12,119,37,113,88,48,24,5,6,0.3,0.4
2023-05-23T00:00:00,1050A,114.484,36.6133,邯郸市,丛台公园,,48,48,39,18,12,120,66,112,96,36,20,8,11,0.6,1
2023-05-23T00:00:00,1051A,115.493,38.8632,保定市,游泳馆,颗粒物(PM10),57,64,47,18,12,138,62,129,100,33,21,4,3,0.1,0.1
2023-05-23T00:00:00,1052A,115.5213,38.8959,保定市,华电二区,颗粒物(PM10),71,92,56,18,15,128,66,118,100,24,20,5,5,0.4,0.3
2023-05-23T00:00:00,1053A,115.4713,38.9108,保定市,接待中心,颗粒物(PM10),51,51,53,13,23,124,71,116,95,16,18,8,7,0.3,0.4
2023-05-23T00:00:00,1054A,115.4612,38.8416,保定市,地表水厂,颗粒物(PM10),77,104,67,27,18,123,15,114,74,75,30,12,9,0.4,0.4
2023-05-23T00:00:00,1056A,115.5086,38.8639,保定市,监测站,颗粒物(PM10),64,77,56,29,17,135,61,124,101,34,21,9,6,0.1,0.1
2023-05-23T00:00:00,1057A,114.8883,40.8336,张家口市,人民公园,,46,46,23,7,3,108,66,104,88,7,4,3,2,0.3,0.3
2023-05-23T00:00:00,1059A,114.8687,40.8042,张家口市,五金库,,38,38,19,9,6,101,72,98,91,4,8,1,1,0.2,0.4
2023-05-23T00:00:00,1060A,114.8902,40.762,张家口市,世纪豪园,,24,22,22,15,11,105,74,102,86,6,7,2,2,0.2,0.2
2023-05-23T00:00:00,1061A,114.8916,40.8661,张家口市,北泵房,,33,33,22,5,8,103,66,99,86,9,5,8,8,0.3,0.3
2023-05-23T00:00:00,1062A,117.9531,40.9081,承德市,铁路,,18,18,26,10,7,97,40,94,65,11,11,8,8,0.3,0.2
2023-05-23T00:00:00,1063A,117.9392,40.9763,承德市,中国银行,,32,32,33,16,10,95,14,90,54,37,16,7,7,0.4,0.3
2023-05-23T00:00:00,1064A,117.9503,40.928,承德市,开发区,,28,28,29,17,14,103,29,99,66,27,14,5,6,0.3,0.3
2023-05-23T00:00:00,1065A,117.8051,40.9655,承德市,文化中心,颗粒物(PM10),52,53,40,16,10,89,7,85,46,52,21,6,7,0.3,0.3
2023-05-23T00:00:00,1066A,117.9268,41.0026,承德市,离宫,,16,14,22,11,13,95,24,92,58,31,12,4,4,0.2,0.2
2023-05-23T00:00:00,1067A,116.6708,39.5111,廊坊市,药材公司,颗粒物(PM10),57,63,57,21,12,130,60,122,100,40,31,2,2,0.3,0.3
2023-05-23T00:00:00,1068A,116.7214,39.5589,廊坊市,开发区,颗粒物(PM10),53,55,45,18,24,137,60,129,109,47,32,5,5,0.4,0.4
2023-05-23T00:00:00,1070A,116.7244,39.5269,廊坊市,北华航天学院,颗粒物(PM10),56,62,67,16,14,135,48,128,106,51,31,2,3,0.4,0.4
2023-05-23T00:00:00,1071A,116.8842,38.2991,沧州市,沧县城建局,颗粒物(PM10),52,53,62,22,18,145,103,137,120,26,34,6,9,0.1,0.2
2023-05-23T00:00:00,1072A,116.8584,38.3254,沧州市,电视转播站,,50,50,55,12,14,147,103,139,128,22,25,4,7,0.2,0.3
2023-05-23T00:00:00,1073A,116.8709,38.3228,沧州市,市环保局,颗粒物(PM10),51,51,55,26,27,145,112,138,130,27,30,8,10,0.2,0.2
2023-05-23T00:00:00,1074A,115.6838,37.7541,衡水市,电机北厂,,44,44,56,2,10,154,111,139,130,11,14,2,3,0.2,0.3
2023-05-23T00:00:00,1075A,115.6303,37.7316,衡水市,市监测站,,44,44,55,10,15,148,98,134,124,18,15,4,3,0.4,0.4
2023-05-23T00:00:00,1077A,114.4704,37.0886,邢台市,达活泉,颗粒物(PM10),58,66,40,14,8,126,30,116,88,65,21,7,5,0.3,0.4
2023-05-23T00:00:00,1078A,114.5062,37.0349,邢台市,邢师高专,颗粒物(PM10),61,72,41,19,12,116,15,107,68,59,24,4,4,0.3,0.3
2023-05-23T00:00:00,1079A,114.5237,37.0851,邢台市,路桥公司,颗粒物(PM10),52,53,39,18,9,127,43,115,91,56,21,15,6,1.1,0.2
2023-05-23T00:00:00,1080A,114.4725,37.0719,邢台市,市环保局,颗粒物(PM10),54,57,39,17,11,130,44,121,95,50,15,7,7,0.3,0.3
2023-05-23T00:00:00,1081A,112.522,37.8873,太原市,尖草坪,颗粒物(PM10),61,71,49,18,18,131,49,124,83,58,35,6,8,0.4,0.5
2023-05-23T00:00:00,1083A,112.434,38.0108,太原市,上兰,,44,44,40,20,17,128,89,118,111,12,12,7,7,0.4,0.3
2023-05-23T00:00:00,1084A,112.469,37.7124,太原市,晋源,颗粒物(PM10),66,82,70,38,36,142,33,128,102,85,38,10,12,0.7,0.7
2023-05-23T00:00:00,1085A,112.5583,37.7394,太原市,小店,颗粒物(PM10),85,119,65,55,34,132,10,124,85,100,41,14,12,0.7,0.6
2023-05-23T00:00:00,1086A,112.5369,37.8692,太原市,桃园,颗粒物(PM10),57,63,48,22,25,130,9,126,84,106,37,9,10,0.6,0.6
2023-05-23T00:00:00,1087A,112.57,37.8195,太原市,坞城,细颗粒物(PM2.5),109,120,67,82,32,132,5,129,91,107,35,10,10,0.9,0.6
2023-05-23T00:00:00,1088A,112.549,37.9854,太原市,南寨,颗粒物(PM10),61,72,51,17,16,129,9,125,78,66,27,5,6,0.5,0.4
2023-05-23T00:00:00,1090A,111.6507,40.7517,呼和浩特市,呼市一监,"颗粒物(PM10),细颗粒物(PM2.5)",65,80,36,47,17,125,35,118,93,54,21,8,6,0.5,0.4
2023-05-23T00:00:00,1091A,111.6572,40.8033,呼和浩特市,小召,颗粒物(PM10),51,51,26,26,18,114,39,108,86,50,20,8,7,0.4,0.3
2023-05-23T00:00:00,1094A,111.7516,40.8369,呼和浩特市,如意水处理厂,颗粒物(PM10),52,53,30,16,12,114,25,110,83,64,20,8,7,0.4,0.3
2023-05-23T00:00:00,1095A,111.7276,40.8062,呼和浩特市,二十九中,颗粒物(PM10),56,62,28,28,15,120,20,114,91,63,19,7,6,0.4,0.3
2023-05-23T00:00:00,1096A,111.5512,40.7866,呼和浩特市,工大金川校区,,32,32,29,16,13,118,41,112,95,54,19,5,6,0.3,0.3
2023-05-23T00:00:00,1097A,111.717,40.7612,呼和浩特市,化肥厂生活区,颗粒物(PM10),70,90,42,28,13,113,25,105,83,60,21,9,7,0.4,0.3
2023-05-23T00:00:00,1098A,123.6836,41.9339,沈阳市,森林路,,,,45,,20,100,,97,75,,24,,8,,0.8
2023-05-23T00:00:00,1099A,123.505,41.7406,沈阳市,浑南东路,颗粒物(PM10),62,74,75,26,24,128,2,105,42,83,47,24,17,0.8,0.8
2023-05-23T00:00:00,1100A,123.4231,41.6989,沈阳市,新秀街,颗粒物(PM10),66,81,83,23,18,130,9,108,46,78,45,52,23,0.9,0.8
2023-05-23T00:00:00,1102A,123.5903,41.8411,沈阳市,东陵路,颗粒物(PM10),59,67,58,21,21,119,15,99,58,72,37,10,11,1.0,0.9
2023-05-23T00:00:00,1103A,123.4264,41.8467,沈阳市,陵东街,颗粒物(PM10),65,80,83,26,23,129,21,104,42,71,46,14,14,0.9,0.8
2023-05-23T00:00:00,1104A,123.4114,41.7653,沈阳市,文化路,颗粒物(PM10),64,77,83,30,30,133,28,112,57,58,40,34,21,0.8,0.9
2023-05-23T00:00:00,1105A,123.4678,41.7867,沈阳市,小河沿,颗粒物(PM10),57,64,74,22,22,125,18,102,52,83,51,22,15,0.8,0.8
2023-05-23T00:00:00,1106A,123.4017,41.7972,沈阳市,太原街,颗粒物(PM10),58,65,81,23,25,128,33,108,53,64,50,31,21,0.6,0.7
2023-05-23T00:00:00,1108A,123.3783,41.9228,沈阳市,京沈街,颗粒物(PM10),60,70,78,29,29,131,10,111,63,89,40,16,16,0.8,0.8
2023-05-23T00:00:00,1109A,121.612,38.9741,大连市,甘井子,,34,34,135,8,32,154,102,140,112,15,22,4,7,0.2,0.5
2023-05-23T00:00:00,1110A,121.565,38.9511,大连市,周水子,,49,49,136,12,41,174,92,144,110,29,26,3,4,0.6,0.9
2023-05-23T00:00:00,1111A,121.5637,38.8845,大连市,星海三站,,36,28,103,8,30,166,115,147,128,9,15,3,6,0.4,0.6
2023-05-23T00:00:00,1112A,121.6302,38.9117,大连市,青泥洼桥,,32,20,111,10,37,159,101,140,113,15,20,5,8,0.4,0.6
2023-05-23T00:00:00,1113A,121.6251,38.8638,大连市,傅家庄,颗粒物(PM10),51,51,124,17,45,175,117,158,131,10,16,6,9,0.6,0.8
2023-05-23T00:00:00,1114A,121.5213,38.8661,大连市,七贤岭,颗粒物(PM10),51,52,117,11,35,185,124,159,143,6,10,5,7,0.3,0.5
2023-05-23T00:00:00,1115A,121.2529,38.8061,大连市,旅顺,,35,16,99,7,39,175,111,149,115,11,18,7,10,0.4,0.7
2023-05-23T00:00:00,1116A,121.7485,39.1311,大连市,金州,,38,38,134,10,40,160,97,143,114,17,22,9,10,0.6,0.9
2023-05-23T00:00:00,1117A,121.7811,39.0496,大连市,开发区,颗粒物(PM10),62,73,147,8,38,162,103,138,114,16,25,4,6,0.4,0.7
2023-05-23T00:00:00,1118A,121.9762,39.0631,大连市,双D港,,35,17,103,10,32,153,110,135,128,15,21,6,8,0.3,0.4
2023-05-23T00:00:00,1119A,125.3325,43.9166,长春市,食品厂,颗粒物(PM10),60,70,51,25,14,98,17,95,54,68,34,7,7,0.6,0.4
2023-05-23T00:00:00,1120A,125.2863,43.9027,长春市,客车厂,颗粒物(PM10),74,98,46,37,15,108,13,98,56,79,33,4,4,0.8,0.4
2023-05-23T00:00:00,1121A,125.2841,43.8463,长春市,邮电学院,颗粒物(PM10),60,69,42,34,34,99,19,94,52,56,25,5,5,0.5,0.4
2023-05-23T00:00:00,1122A,125.3716,43.8772,长春市,劳动公园,,42,42,44,21,19,108,32,100,61,49,28,6,6,0.5,0.4
2023-05-23T00:00:00,1123A,125.3297,43.8805,长春市,园林处,颗粒物(PM10),58,66,42,31,18,98,24,92,56,64,30,6,6,0.4,0.3
2023-05-23T00:00:00,1124A,125.4605,43.79,长春市,净月潭,,20,20,22,12,10,104,53,96,71,14,9,4,4,0.2,0.2
2023-05-23T00:00:00,1125A,125.7194,43.515,长春市,甩湾子,,,,,,,,,,,,,,,,
2023-05-23T00:00:00,1126A,125.3863,43.8447,长春市,经开区环卫处,颗粒物(PM10),70,89,43,42,20,105,5,96,49,73,32,7,6,0.7,0.5
2023-05-23T00:00:00,1127A,125.245,43.7783,长春市,高新区管委会,,36,36,46,24,19,111,12,102,56,61,25,5,5,0.5,0.4
2023-05-23T00:00:00,1128A,125.1761,43.8325,长春市,岱山公园,颗粒物(PM10),68,85,46,21,17,110,16,99,52,75,34,5,5,0.3,0.3
2023-05-23T00:00:00,1129A,126.5422,45.755,哈尔滨市,岭北,,37,37,24,18,12,114,48,105,82,39,13,8,9,0.3,0.2
2023-05-23T00:00:00,1130A,126.561,45.8167,哈尔滨市,松北商大,,43,43,23,8,10,107,5,100,48,61,26,5,5,0.7,0.5
2023-05-23T00:00:00,1131A,126.979,45.5419,哈尔滨市,阿城会宁,颗粒物(PM10),69,88,39,21,20,105,7,95,45,53,28,8,8,0.4,0.6
2023-05-23T00:00:00,1132A,126.599,45.7222,哈尔滨市,南岗学府路,颗粒物(PM10),76,102,33,39,15,107,6,100,53,82,24,5,5,1.4,0.6
2023-05-23T00:00:00,1133A,126.689,45.7733,哈尔滨市,太平宏伟公园,颗粒物(PM10),69,88,42,18,19,105,6,97,48,83,24,5,5,1.3,0.4
2023-05-23T00:00:00,1134A,126.635,45.7667,哈尔滨市,道外承德广场,细颗粒物(PM2.5),54,55,27,38,20,109,5,102,52,99,31,7,6,1.1,0.6
2023-05-23T00:00:00,1135A,126.685,45.7319,哈尔滨市,香坊红旗大街,颗粒物(PM10),104,158,40,45,20,115,10,106,60,97,29,18,11,1.4,0.6
2023-05-23T00:00:00,1136A,126.6411,45.7258,哈尔滨市,动力和平路,,30,30,27,19,18,112,46,104,69,57,28,7,8,0.5,0.4
2023-05-23T00:00:00,1137A,126.593,45.7478,哈尔滨市,道里建国路,颗粒物(PM10),66,82,26,41,31,112,3,104,45,94,33,10,6,1.0,0.5
2023-05-23T00:00:00,1138A,126.615,45.61,哈尔滨市,平房东轻厂,,40,30,36,28,26,108,19,97,43,80,31,8,6,0.7,0.5
2023-05-23T00:00:00,1139A,126.595,45.9855,哈尔滨市,呼兰师专,,,,11,16,13,111,52,103,80,36,17,10,9,0.4,0.4
2023-05-23T00:00:00,1140A,126.6206,45.6842,哈尔滨市,省农科院,"二氧化氮,颗粒物(PM10)",51,52,27,28,20,118,5,110,55,101,33,13,10,0.7,0.5
2023-05-23T00:00:00,1141A,121.4,31.238,上海市,普陀,,,134,110,,29,100,15,87,56,66,27,6,5,0.8,0.6
2023-05-23T00:00:00,1142A,121.478,31.2036,上海市,十五厂,颗粒物(PM10),95,139,115,54,42,103,40,89,68,51,26,8,7,0.5,0.4
2023-05-23T00:00:00,1143A,121.467,31.3008,上海市,虹口,颗粒物(PM10),87,124,104,51,41,104,21,85,53,51,24,10,9,0.5,0.4
2023-05-23T00:00:00,1144A,121.412,31.1654,上海市,徐汇上师大,颗粒物(PM10),108,166,101,48,36,89,20,76,45,48,25,7,7,1.1,0.8
2023-05-23T00:00:00,1145A,121.536,31.2659,上海市,杨浦四漂,颗粒物(PM10),81,112,105,48,39,99,38,86,61,46,26,8,7,0.7,0.6
2023-05-23T00:00:00,1147A,121.425,31.2261,上海市,静安监测站,颗粒物(PM10),101,152,102,42,34,101,29,85,61,51,24,6,5,0.8,0.6
2023-05-23T00:00:00,1148A,121.703,31.1907,上海市,浦东川沙,颗粒物(PM10),75,99,92,23,34,105,75,91,72,27,17,6,5,0.4,0.5
2023-05-23T00:00:00,1149A,121.533,31.2284,上海市,浦东新区监测站,颗粒物(PM10),90,130,99,38,32,108,59,97,73,35,21,7,6,0.4,0.4
2023-05-23T00:00:00,1150A,121.577,31.2071,上海市,浦东张江,颗粒物(PM10),95,139,101,43,38,117,50,102,70,42,22,5,5,0.5,0.5
2023-05-23T00:00:00,1151A,118.8086,32.1065,南京市,迈皋桥,颗粒物(PM10),98,145,232,46,77,116,18,88,61,40,18,4,4,0.4,0.4
2023-05-23T00:00:00,1152A,118.7538,32.0551,南京市,草场门,颗粒物(PM10),120,190,266,66,86,110,27,90,67,43,19,1,3,0.7,0.6
2023-05-23T00:00:00,1153A,118.7794,32.0745,南京市,山西路,颗粒物(PM10),123,195,273,68,89,111,26,90,70,41,16,4,4,0.5,0.3
2023-05-23T00:00:00,1154A,118.7752,32.0023,南京市,中华门,颗粒物(PM10),111,171,249,63,83,110,23,89,64,54,20,3,4,0.8,0.6
2023-05-23T00:00:00,1155A,118.8109,32.0309,南京市,瑞金路,颗粒物(PM10),126,201,262,61,80,110,40,84,68,32,20,4,3,0.7,0.6
2023-05-23T00:00:00,1156A,118.7997,32.0754,南京市,玄武湖,颗粒物(PM10),118,185,257,56,78,109,32,84,69,32,14,5,6,0.9,0.7
2023-05-23T00:00:00,1157A,118.6414,32.0931,南京市,浦口,颗粒物(PM10),82,114,276,36,81,119,52,89,64,17,13,6,6,0.3,0.3
2023-05-23T00:00:00,1158A,118.7356,31.9996,南京市,奥体中心,颗粒物(PM10),114,178,266,58,81,112,39,90,69,39,18,4,4,0.6,0.5
2023-05-23T00:00:00,1159A,118.9125,32.1028,南京市,仙林大学城,颗粒物(PM10),97,144,238,53,81,108,11,91,63,68,26,7,8,0.7,0.6
2023-05-23T00:00:00,1160A,120.561,31.2472,苏州市,上方山,颗粒物(PM10),157,263,116,76,36,75,32,66,39,15,15,6,6,0.5,0.4
2023-05-23T00:00:00,1162A,120.591,31.3019,苏州市,彩香,颗粒物(PM10),182,314,127,104,46,97,43,80,54,23,13,7,5,0.8,0.7
2023-05-23T00:00:00,1163A,120.596,31.3264,苏州市,轧钢厂,颗粒物(PM10),188,325,131,98,41,98,42,81,51,24,17,6,5,0.8,0.7
2023-05-23T00:00:00,1164A,120.613,31.2703,苏州市,吴中区,颗粒物(PM10),181,312,127,102,43,92,50,80,61,21,18,8,7,0.8,0.6
2023-05-23T00:00:00,1165A,120.543,31.2994,苏州市,苏州新区,颗粒物(PM10),180,309,125,111,49,95,53,77,56,12,11,5,5,0.8,0.7
2023-05-23T00:00:00,1166A,120.669,31.3097,苏州市,苏州工业园区,颗粒物(PM10),180,310,123,106,46,86,42,78,51,20,12,9,8,0.6,0.5
2023-05-23T00:00:00,1167A,120.641,31.3708,苏州市,相城区,颗粒物(PM10),159,268,104,101,41,97,42,79,57,24,13,9,7,0.9,0.6
2023-05-23T00:00:00,1168A,120.9098,31.9663,南通市,狼山街道,颗粒物(PM10),73,96,101,31,37,101,52,91,56,16,12,6,6,0.5,0.4
2023-05-23T00:00:00,1169A,120.86,32.0005,南通市,虹桥,颗粒物(PM10),86,121,110,44,43,104,69,88,67,23,17,8,7,0.5,0.4
2023-05-23T00:00:00,1170A,120.87,32.02,南通市,城中,颗粒物(PM10),92,133,112,46,42,95,54,82,64,23,9,7,6,0.3,0.3
2023-05-23T00:00:00,1171A,120.94,31.93,南通市,星湖花园,颗粒物(PM10),75,100,102,36,37,91,53,83,62,21,13,4,4,0.5,0.4
2023-05-23T00:00:00,1172A,120.81,32.0417,南通市,紫琅学院,颗粒物(PM10),91,132,120,41,41,96,55,82,54,30,17,8,7,0.6,0.5
2023-05-23T00:00:00,1173A,119.176,34.5885,连云港市,市环境监测站,颗粒物(PM10),106,161,190,36,50,166,61,141,109,37,16,7,8,0.4,0.4
2023-05-23T00:00:00,1177A,117.179,34.2761,徐州市,黄河新村,颗粒物(PM10),59,68,95,28,37,142,86,131,109,22,19,8,9,0.5,0.5
2023-05-23T00:00:00,1178A,117.1918,34.2384,徐州市,淮塔,颗粒物(PM10),57,64,90,22,36,157,111,146,132,13,13,10,10,0.5,0.5
2023-05-23T00:00:00,1180A,117.256,34.2153,徐州市,新城区,颗粒物(PM10),61,71,96,25,30,149,78,140,113,31,18,6,7,0.6,0.7
2023-05-23T00:00:00,1181A,117.244,34.2911,徐州市,桃园路,颗粒物(PM10),65,80,98,34,35,138,82,129,105,30,19,8,10,0.5,0.6
2023-05-23T00:00:00,1182A,117.2933,34.2778,徐州市,农科院,颗粒物(PM10),57,63,93,27,30,146,79,139,116,29,22,7,9,0.5,0.6
2023-05-23T00:00:00,1186A,119.389,32.3761,扬州市,邗江监测站,颗粒物(PM10),93,136,218,39,60,129,59,120,97,36,17,9,10,0.6,0.6
2023-05-23T00:00:00,1188A,120.269,31.4867,无锡市,雪浪,颗粒物(PM10),183,315,157,107,58,91,59,79,65,14,15,9,8,0.8,0.6
2023-05-23T00:00:00,1189A,120.275,31.6219,无锡市,黄巷,颗粒物(PM10),174,298,160,112,62,96,43,80,46,34,24,4,4,1.0,0.8
2023-05-23T00:00:00,1190A,120.294,31.56,无锡市,曹张,颗粒物(PM10),177,304,152,95,55,88,40,73,47,28,17,5,4,0.8,0.5
2023-05-23T00:00:00,1191A,120.242,31.5031,无锡市,漆塘,颗粒物(PM10),180,310,157,117,63,86,55,76,60,17,14,6,5,0.6,0.5
2023-05-23T00:00:00,1192A,120.3489,31.5863,无锡市,东亭,颗粒物(PM10),168,285,147,95,51,94,57,79,51,18,16,9,9,1.1,0.8
2023-05-23T00:00:00,1193A,120.354,31.5475,无锡市,旺庄,颗粒物(PM10),172,293,145,107,51,89,45,74,49,30,22,7,6,0.9,0.6
2023-05-23T00:00:00,1194A,120.245,31.5631,无锡市,荣巷,颗粒物(PM10),161,271,146,114,63,89,42,78,51,23,17,8,7,0.7,0.5
2023-05-23T00:00:00,1195A,120.299,31.6817,无锡市,堰桥,颗粒物(PM10),174,298,148,102,58,97,27,80,48,47,19,7,5,1.0,0.6
2023-05-23T00:00:00,1196A,119.9633,31.762,常州市,市监测站,颗粒物(PM10),175,299,168,102,70,103,43,88,60,29,20,6,6,0.7,0.4
2023-05-23T00:00:00,1200A,119.9468,31.7069,常州市,武进监测站,颗粒物(PM10),184,318,172,104,71,105,50,89,63,16,13,9,12,0.7,0.5
2023-05-23T00:00:00,1201A,119.9255,31.9087,常州市,安家,颗粒物(PM10),177,304,187,93,73,96,15,85,49,41,18,5,6,0.7,0.5
2023-05-23T00:00:00,1203A,119.6707,32.1875,镇江市,新区办事处,颗粒物(PM10),96,142,169,45,52,106,9,92,60,59,22,1,2,0.4,0.4
2023-05-23T00:00:00,1204A,119.4974,32.1968,镇江市,职教中心,颗粒物(PM10),102,153,181,51,53,117,31,107,81,47,16,6,4,0.7,0.5
2023-05-23T00:00:00,1205A,119.4303,32.1328,镇江市,丹徒区监测站,颗粒物(PM10),100,149,192,52,58,118,45,106,83,35,14,3,2,0.5,0.4
2023-05-23T00:00:00,1206A,119.905,32.4878,泰州市,公园路,颗粒物(PM10),76,102,154,44,55,112,34,103,73,36,13,7,8,0.6,0.4
2023-05-23T00:00:00,1207A,119.9189,32.4625,泰州市,莲花,颗粒物(PM10),92,134,156,53,57,116,44,107,83,33,13,8,9,0.6,0.5
2023-05-23T00:00:00,1209A,119.888,32.4639,泰州市,留学生创业园,颗粒物(PM10),94,138,155,54,43,114,10,103,65,52,16,7,8,0.5,0.3
2023-05-23T00:00:00,1210A,119.036,33.5981,淮安市,钵池山,颗粒物(PM10),108,166,198,54,62,134,65,119,100,28,14,7,6,0.9,0.8
2023-05-23T00:00:00,1211A,119.007,33.575,淮安市,北京南路,颗粒物(PM10),114,178,214,48,62,133,0,120,82,107,27,10,8,0.8,0.6
2023-05-23T00:00:00,1212A,118.989,33.6067,淮安市,市监测站,颗粒物(PM10),109,168,216,51,60,146,8,130,75,80,29,7,7,0.8,0.7
2023-05-23T00:00:00,1213A,119.135,33.5039,淮安市,楚州区监测站,颗粒物(PM10),138,225,241,63,82,133,8,124,82,85,25,8,9,0.6,0.6
2023-05-23T00:00:00,1214A,119.0186,33.6297,淮安市,淮阴区监测站,颗粒物(PM10),129,207,213,59,59,139,2,124,85,98,25,8,8,0.7,0.5
2023-05-23T00:00:00,1215A,120.118,33.4022,盐城市,盐城电厂,颗粒物(PM10),130,210,227,44,45,136,48,123,102,32,10,7,7,0.4,0.4
2023-05-23T00:00:00,1216A,120.156,33.3942,盐城市,市监测站,颗粒物(PM10),117,183,207,39,40,127,57,114,91,29,12,11,12,0.5,0.3
2023-05-23T00:00:00,1218A,120.2144,33.38,盐城市,开发区管委会,颗粒物(PM10),100,149,183,34,30,125,44,112,84,35,13,6,6,0.4,0.3
2023-05-23T00:00:00,1220A,118.293,33.9528,宿迁市,宿迁学院,颗粒物(PM10),104,157,183,61,62,175,115,150,128,24,15,10,11,0.6,0.6
2023-05-23T00:00:00,1221A,118.2442,33.9592,宿迁市,宿迁中学,颗粒物(PM10),106,161,173,67,61,191,128,162,146,19,14,6,7,0.5,0.5
2023-05-23T00:00:00,1223A,120.2072,30.2111,杭州市,滨江,颗粒物(PM10),130,210,82,56,27,86,71,73,73,13,14,7,7,0.5,0.5
2023-05-23T00:00:00,1224A,120.0633,30.2747,杭州市,西溪,颗粒物(PM10),78,105,61,21,13,77,26,65,59,23,17,7,8,0.6,0.6
2023-05-23T00:00:00,1226A,120.3461,30.3153,杭州市,下沙,颗粒物(PM10),106,162,84,51,31,80,33,74,52,40,22,5,5,0.5,0.5
2023-05-23T00:00:00,1227A,120.1269,30.2456,杭州市,卧龙桥,颗粒物(PM10),82,113,54,42,25,84,34,70,54,18,15,10,10,0.5,0.5
2023-05-23T00:00:00,1228A,120.1903,30.2692,杭州市,浙江农大,颗粒物(PM10),102,153,63,53,27,78,57,64,64,18,17,6,6,0.3,0.3
2023-05-23T00:00:00,1230A,120.1197,30.3119,杭州市,和睦小学,颗粒物(PM10),113,176,69,50,24,74,50,67,64,25,19,5,4,0.5,0.5
2023-05-23T00:00:00,1231A,120.3019,30.4183,杭州市,临平镇,颗粒物(PM10),124,198,104,49,30,97,51,79,67,20,14,4,4,0.5,0.5
2023-05-23T00:00:00,1232A,120.2697,30.1819,杭州市,城厢镇,颗粒物(PM10),117,184,74,47,22,92,67,74,70,18,18,4,3,0.3,0.4
2023-05-23T00:00:00,1233A,120.0883,30.1808,杭州市,云栖,颗粒物(PM10),71,91,47,44,26,86,19,72,35,12,13,6,6,0.4,0.5
2023-05-23T00:00:00,1234A,121.8358,29.911,宁波市,区环保大楼,颗粒物(PM10),104,157,67,57,25,100,46,91,71,29,26,4,4,0.7,0.5
2023-05-23T00:00:00,1235A,121.56,29.82,宁波市,万里学院,颗粒物(PM10),113,176,66,59,26,114,56,101,80,25,14,5,3,0.8,0.7
2023-05-23T00:00:00,1236A,121.713,29.9572,宁波市,龙赛医院,颗粒物(PM10),107,163,69,55,26,106,,93,74,27,25,7,8,0.5,0.2
2023-05-23T00:00:00,1239A,121.633,29.7733,宁波市,钱湖水厂,颗粒物(PM10),119,188,63,62,23,79,24,65,45,26,15,4,4,0.7,0.5
2023-05-23T00:00:00,1240A,121.5856,29.8635,宁波市,太古小学,颗粒物(PM10),107,163,65,65,30,111,50,96,75,25,16,6,6,0.7,0.7
2023-05-23T00:00:00,1241A,121.524,29.8674,宁波市,市环境监测中心,颗粒物(PM10),111,171,64,51,21,108,47,94,71,26,14,5,3,0.5,0.4
2023-05-23T00:00:00,1242A,120.634,28.0089,温州市,瓯海,,21,20,31,7,18,110,67,80,66,17,28,6,6,0.5,0.7
2023-05-23T00:00:00,1243A,120.6748,27.9939,温州市,南浦,,22,17,32,7,20,126,69,96,82,12,19,4,4,0.2,0.5
2023-05-23T00:00:00,1244A,120.76,27.9747,温州市,龙湾,,30,10,35,4,17,118,94,95,95,6,27,6,6,0.4,0.7
2023-05-23T00:00:00,1245A,120.6709,28.0167,温州市,市站,,20,15,30,9,23,119,64,86,75,20,30,5,5,0.4,0.7
2023-05-23T00:00:00,1247A,120.6053,29.9928,绍兴市,城东开发委,颗粒物(PM10),102,153,94,51,32,89,52,82,64,20,19,5,5,0.8,0.8
2023-05-23T00:00:00,1250A,120.0751,30.8669,湖州市,城西水厂,颗粒物(PM10),109,167,107,54,30,93,48,76,52,23,22,8,5,0.4,0.5
2023-05-23T00:00:00,1252A,120.7436,30.778,嘉兴市,清河小学,颗粒物(PM10),134,217,113,65,37,83,35,76,54,28,18,5,5,0.6,0.5
2023-05-23T00:00:00,1253A,120.726,30.7478,嘉兴市,嘉兴学院,颗粒物(PM10),124,198,104,63,27,90,36,81,61,29,18,5,4,0.5,0.4
2023-05-23T00:00:00,1255A,121.273,28.6459,台州市,黄岩环保大楼,颗粒物(PM10),85,119,47,40,30,94,73,81,76,13,16,5,5,0.4,0.5
2023-05-23T00:00:00,1256A,121.419,28.6542,台州市,台州环保大楼,颗粒物(PM10),79,107,45,27,22,104,75,95,87,6,9,4,4,0.4,0.4
2023-05-23T00:00:00,1257A,121.377,28.5773,台州市,路桥田洋王,颗粒物(PM10),75,100,35,12,17,98,76,84,78,13,15,5,6,0.2,0.4
2023-05-23T00:00:00,1258A,122.122,30.0203,舟山市,定海檀枫,颗粒物(PM10),120,189,85,52,23,91,52,81,67,18,9,6,5,0.5,0.4
2023-05-23T00:00:00,1259A,122.3094,29.9558,舟山市,普陀东港,颗粒物(PM10),121,191,83,27,12,96,57,92,78,12,6,6,5,0.4,0.3
2023-05-23T00:00:00,1260A,122.19,29.9944,舟山市,临城新区,颗粒物(PM10),120,189,82,53,24,108,61,98,80,14,9,5,5,0.4,0.3
2023-05-23T00:00:00,1262A,119.647,29.077,金华市,十五中,颗粒物(PM10),86,122,45,40,25,78,51,71,60,20,18,5,5,0.4,0.5
2023-05-23T00:00:00,1263A,119.686,29.1029,金华市,监测站,颗粒物(PM10),84,118,50,38,20,77,51,68,56,17,17,4,4,0.4,0.6
2023-05-23T00:00:00,1264A,118.8692,28.9398,衢州市,环保大楼,,44,44,26,24,19,66,55,63,60,13,15,6,6,0.4,0.5
2023-05-23T00:00:00,1265A,118.8709,28.9666,衢州市,实验学校,,48,48,23,16,14,69,55,65,61,12,13,7,7,0.3,0.4
2023-05-23T00:00:00,1266A,118.8621,28.9808,衢州市,衢州学院,,47,47,21,21,14,72,44,68,61,19,15,6,6,0.3,0.4
2023-05-23T00:00:00,1267A,119.914,28.4514,丽水市,监测站大楼,颗粒物(PM10),76,101,32,6,10,88,71,82,79,10,16,4,4,0.3,0.5
2023-05-23T00:00:00,1268A,119.93,28.4586,丽水市,莲都小学,颗粒物(PM10),74,98,36,7,11,92,72,86,83,11,16,4,4,0.2,0.4
2023-05-23T00:00:00,1269A,119.879,28.4231,丽水市,余庄前,颗粒物(PM10),53,56,32,22,17,84,31,71,55,13,16,4,4,0.3,0.6
2023-05-23T00:00:00,1270A,117.1959,31.7848,合肥市,明珠广场,颗粒物(PM10),78,105,170,41,63,99,34,83,60,35,20,5,5,0.6,0.5
2023-05-23T00:00:00,1271A,117.3072,31.8764,合肥市,三里街,颗粒物(PM10),87,124,197,41,70,108,54,93,79,31,20,5,5,0.7,0.6
2023-05-23T00:00:00,1272A,117.2588,31.8707,合肥市,琥珀山庄,颗粒物(PM10),85,119,185,46,63,111,53,98,80,30,16,4,4,0.6,0.5
2023-05-23T00:00:00,1273A,117.1604,31.9052,合肥市,董铺水库,颗粒物(PM10),78,105,174,39,59,97,40,91,73,19,11,2,3,0.4,0.3
2023-05-23T00:00:00,1274A,117.25,31.8571,合肥市,长江中路,颗粒物(PM10),86,122,184,54,70,106,50,94,77,27,13,9,9,0.7,0.6
2023-05-23T00:00:00,1275A,117.266,31.9436,合肥市,庐阳区,颗粒物(PM10),69,88,142,44,63,103,47,91,76,25,17,4,4,0.5,0.4
2023-05-23T00:00:00,1276A,117.336,31.8586,合肥市,瑶海区,颗粒物(PM10),87,124,210,43,63,104,57,93,80,31,19,7,7,0.6,0.5
2023-05-23T00:00:00,1277A,117.3027,31.7964,合肥市,包河区,颗粒物(PM10),87,124,202,46,75,95,4,86,51,66,27,5,5,0.5,0.5
2023-05-23T00:00:00,1278A,117.2776,31.7385,合肥市,滨湖新区,颗粒物(PM10),84,117,198,44,77,97,31,85,62,48,24,6,5,0.5,0.4
2023-05-23T00:00:00,1279A,117.1318,31.8403,合肥市,高新区,颗粒物(PM10),78,105,166,46,70,98,55,90,75,26,18,7,7,0.5,0.5
2023-05-23T00:00:00,1280A,119.3903,26.0543,福州市,鼓山,,,,14,,17,,,,,,8,,3,,
2023-05-23T00:00:00,1282A,119.2681,26.0504,福州市,师大,,29,0,25,0,15,92,92,78,78,4,13,4,4,0.3,0.4
2023-05-23T00:00:00,1283A,119.2984,26.1028,福州市,五四北路,,,,27,0,16,93,93,78,78,7,16,2,3,0.3,0.4
2023-05-23T00:00:00,1284A,119.2648,26.0768,福州市,杨桥西路,,28,4,28,0,20,88,88,74,74,8,16,3,4,0.4,0.5
2023-05-23T00:00:00,1285A,119.317,26.0746,福州市,紫阳,,26,0,23,0,16,81,81,67,66,7,14,2,2,0.3,0.4
2023-05-23T00:00:00,1286A,118.1608,24.8169,厦门市,溪东,,,,31,,13,,,,,,8,,6,,
2023-05-23T00:00:00,1287A,118.1514,24.4767,厦门市,洪文,,19,19,21,3,12,75,48,58,54,10,7,1,2,0.2,0.2
2023-05-23T00:00:00,1288A,118.0661,24.4444,厦门市,鼓浪屿,,34,34,24,14,14,72,44,57,53,21,13,2,2,0.3,0.3
2023-05-23T00:00:00,1290A,115.8931,28.6843,南昌市,省外办,,48,48,55,22,22,108,53,90,72,16,10,6,5,0.4,0.4
2023-05-23T00:00:00,1291A,115.8886,28.7003,南昌市,省林业公司,,31,31,40,17,22,105,51,86,68,20,15,4,4,0.4,0.3
2023-05-23T00:00:00,1292A,115.8126,28.7442,南昌市,林科所,,41,41,31,22,14,99,68,85,76,14,12,6,6,0.6,0.6
2023-05-23T00:00:00,1294A,115.8518,28.687,南昌市,建工学校,,45,45,59,17,19,105,61,86,75,12,8,6,6,0.4,0.4
2023-05-23T00:00:00,1295A,115.8921,28.6424,南昌市,象湖,,38,34,50,26,21,104,51,88,73,27,16,4,4,0.4,0.3
2023-05-23T00:00:00,1296A,115.7423,28.7996,南昌市,武术学校,,44,44,30,11,16,94,63,82,74,5,6,6,10,0.2,0.1
2023-05-23T00:00:00,1298A,115.9314,28.6842,南昌市,省站,颗粒物(PM10),51,51,76,21,24,103,57,85,69,13,12,8,6,0.6,0.6
2023-05-23T00:00:00,1299A,116.9862,36.6114,济南市,科干所,颗粒物(PM10),64,78,63,24,18,150,14,140,103,94,30,8,10,0.4,0.4
2023-05-23T00:00:00,1300A,116.9376,36.665,济南市,农科所,颗粒物(PM10),66,81,62,20,14,146,22,136,100,100,36,3,4,0.4,0.3
2023-05-23T00:00:00,1301A,117.1265,36.6734,济南市,开发区,颗粒物(PM10),61,71,64,17,16,147,36,137,96,90,33,5,5,0.5,0.5
2023-05-23T00:00:00,1303A,117.0624,36.6868,济南市,省种子仓库,颗粒物(PM10),60,70,62,22,20,153,29,142,102,73,23,2,4,0.4,0.3
2023-05-23T00:00:00,1304A,116.9489,36.6447,济南市,机床二厂,颗粒物(PM10),84,117,73,27,16,151,28,142,98,80,38,4,6,0.5,0.4
2023-05-23T00:00:00,1305A,117.0495,36.663,济南市,市监测站,颗粒物(PM10),59,68,61,24,19,159,35,146,109,87,32,8,10,0.4,0.3
2023-05-23T00:00:00,1306A,116.7675,36.5484,济南市,长清党校,颗粒物(PM10),51,51,56,15,17,156,62,142,114,48,22,7,8,0.5,0.5
2023-05-23T00:00:00,1307A,120.6659,36.2403,青岛市,仰口,,33,27,140,22,36,122,104,115,113,6,11,4,5,0.2,0.2
2023-05-23T00:00:00,1310A,120.4134,36.0658,青岛市,市南区东部子站,颗粒物(PM10),75,100,177,27,42,145,21,130,80,97,36,9,8,0.7,0.5
2023-05-23T00:00:00,1311A,120.3664,36.1032,青岛市,四方区子站,颗粒物(PM10),76,102,161,31,53,131,14,122,61,107,47,11,9,0.6,0.5
2023-05-23T00:00:00,1312A,120.2994,36.054,青岛市,市南区西部子站,颗粒物(PM10),56,61,158,15,38,130,62,125,99,58,29,13,7,0.5,0.5
2023-05-23T00:00:00,1313A,120.4581,36.0858,青岛市,崂山区子站,颗粒物(PM10),79,107,171,36,37,138,37,127,88,66,24,8,9,0.5,0.4
2023-05-23T00:00:00,1314A,120.1983,35.9608,青岛市,黄岛区子站,细颗粒物(PM2.5),55,39,146,39,49,148,102,132,113,19,27,6,7,0.3,0.3
2023-05-23T00:00:00,1315A,120.3999,36.3083,青岛市,城阳区子站,颗粒物(PM10),73,95,138,24,23,145,43,128,84,60,24,5,7,0.6,0.4
2023-05-23T00:00:00,1316A,113.69031,34.76122,郑州市,烟厂,颗粒物(PM10),57,63,46,20,16,144,15,132,94,86,22,6,6,0.7,0.4
2023-05-23T00:00:00,1317A,113.65724,34.77134,郑州市,郑纺机,颗粒物(PM10),61,72,46,29,18,138,6,128,79,98,25,5,5,1.0,0.4
2023-05-23T00:00:00,1318A,113.67526,34.80246,郑州市,银行学校,颗粒物(PM10),55,60,38,23,14,127,20,116,84,75,15,6,6,1.0,0.6
2023-05-23T00:00:00,1319A,113.56746,34.81334,郑州市,供水公司,颗粒物(PM10),65,79,49,26,18,132,10,122,84,83,21,7,8,0.6,0.3
2023-05-23T00:00:00,1320A,113.7329,34.7178,郑州市,经开区管委,颗粒物(PM10),57,63,46,28,22,138,6,130,92,88,21,2,2,0.7,0.5
2023-05-23T00:00:00,1321A,113.73961,34.77172,郑州市,四十七中,颗粒物(PM10),56,61,45,28,17,144,23,134,103,99,22,6,7,0.4,0.2
2023-05-23T00:00:00,1322A,113.60532,34.74838,郑州市,市监测站,颗粒物(PM10),72,93,45,23,19,142,4,131,83,87,23,1,3,0.6,0.4
2023-05-23T00:00:00,1323A,113.64164,34.7525,郑州市,河医大,颗粒物(PM10),62,74,54,14,14,127,4,114,62,89,28,6,6,0.7,0.4
2023-05-23T00:00:00,1324A,113.51488,34.91089,郑州市,岗李水库,,22,22,41,12,12,129,23,117,70,10,12,5,6,0.4,0.5
2023-05-23T00:00:00,1325A,114.3677,30.5584,武汉市,东湖梨园,,50,50,57,22,27,102,78,97,88,22,13,6,6,0.2,0.2
2023-05-23T00:00:00,1326A,114.2529,30.558,武汉市,汉阳月湖,颗粒物(PM10),56,61,57,22,24,114,46,106,82,27,16,6,6,0.5,0.4
2023-05-23T00:00:00,1327A,114.282,30.6189,武汉市,汉口花桥,颗粒物(PM10),54,57,69,22,30,113,68,105,90,31,15,7,7,0.6,0.6
2023-05-23T00:00:00,1328A,114.3025,30.5332,武汉市,武昌紫阳,颗粒物(PM10),53,55,56,23,22,109,67,101,88,32,15,5,5,0.4,0.4
2023-05-23T00:00:00,1329A,114.3646,30.6217,武汉市,青山钢花,颗粒物(PM10),56,62,63,31,32,111,49,101,77,42,17,7,7,0.6,0.5
2023-05-23T00:00:00,1330A,114.1566,30.4825,武汉市,沌口新区,颗粒物(PM10),57,64,53,36,20,92,83,87,80,39,17,6,8,0.5,0.4
2023-05-23T00:00:00,1331A,114.3014,30.5944,武汉市,汉口江滩,颗粒物(PM10),56,62,57,26,20,113,77,105,91,25,15,6,6,0.4,0.3
2023-05-23T00:00:00,1333A,114.135,30.6319,武汉市,吴家山,,45,45,54,27,24,98,42,92,74,41,17,6,6,0.7,0.6
2023-05-23T00:00:00,1334A,113.8454,30.2917,武汉市,沉湖七壕,,45,45,48,18,18,117,75,110,95,11,8,5,5,0.4,0.4
2023-05-23T00:00:00,1335A,113.0833,28.2325,长沙市,经开区环保局,颗粒物(PM10),63,76,42,20,10,82,75,78,77,15,10,3,2,0.5,0.4
2023-05-23T00:00:00,1336A,112.8872,28.2189,长沙市,高开区环保局,颗粒物(PM10),57,64,37,26,13,88,71,83,82,16,8,7,6,0.3,0.2
2023-05-23T00:00:00,1337A,113.0792,28.2053,长沙市,马坡岭,颗粒物(PM10),60,69,36,28,10,82,72,77,77,15,9,3,3,0.4,0.3
2023-05-23T00:00:00,1338A,112.9394,28.19,长沙市,湖南师范大学,颗粒物(PM10),60,70,43,37,24,82,63,78,76,20,7,4,2,0.5,0.4
2023-05-23T00:00:00,1339A,113.0178,28.1322,长沙市,雨花区环保局,颗粒物(PM10),58,66,34,24,16,81,81,78,78,15,10,6,5,0.4,0.3
2023-05-23T00:00:00,1340A,112.9792,28.2597,长沙市,伍家岭,颗粒物(PM10),59,68,38,23,13,82,47,74,69,37,13,1,3,0.3,0.3
2023-05-23T00:00:00,1341A,113.0014,28.1944,长沙市,火车新站,颗粒物(PM10),60,70,38,27,16,79,64,76,76,24,8,7,6,0.5,0.4
2023-05-23T00:00:00,1342A,112.9844,28.1178,长沙市,天心区环保局,,,,41,28,14,91,88,87,87,9,5,3,2,0.5,0.4
2023-05-23T00:00:00,1343A,112.8908,28.1308,长沙市,湖南中医药大学,颗粒物(PM10),58,66,44,31,22,95,51,90,84,30,9,4,3,0.6,0.4
2023-05-23T00:00:00,1344A,112.9581,28.3611,长沙市,沙坪,颗粒物(PM10),55,59,44,29,21,90,74,83,82,7,6,5,4,0.3,0.2
2023-05-23T00:00:00,1345A,113.2347,23.1423,广州市,广雅中学,,31,31,36,16,20,145,23,116,60,35,19,4,3,1.0,0.9
2023-05-23T00:00:00,1346A,113.2612,23.105,广州市,市五中,,35,35,37,22,20,144,30,115,57,26,15,4,4,0.6,0.4
2023-05-23T00:00:00,1348A,113.3478,23.0916,广州市,广东商学院,,40,40,43,21,19,135,37,106,46,23,19,2,3,0.7,0.6
2023-05-23T00:00:00,1349A,113.4332,23.1047,广州市,市八十六中,,40,40,41,18,18,144,43,107,41,16,21,2,3,0.8,0.8
2023-05-23T00:00:00,1350A,113.3505,22.9483,广州市,番禺中学,,27,27,34,17,18,168,46,118,51,19,14,5,5,0.7,0.7
2023-05-23T00:00:00,1351A,113.2146,23.3916,广州市,花都师范,,22,22,40,11,21,168,53,128,73,14,16,7,5,0.8,0.8
2023-05-23T00:00:00,1352A,113.2597,23.1331,广州市,市监测站,颗粒物(PM10),52,53,39,29,21,158,29,126,64,37,21,6,5,0.7,0.6
2023-05-23T00:00:00,1353A,113.5618,23.312,广州市,九龙镇镇龙,,41,41,43,22,23,160,37,132,84,17,23,5,5,0.8,0.5
2023-05-23T00:00:00,1354A,113.2765,23.1544,广州市,麓湖,,34,34,35,16,18,158,22,127,58,31,18,5,4,0.6,0.5
2023-05-23T00:00:00,1355A,113.443,23.3035,广州市,帽峰山森林公园,,31,31,32,13,16,153,48,131,87,10,13,2,2,1.3,0.5
2023-05-23T00:00:00,1356A,114.1063,22.5545,深圳市,通心岭子站,,23,23,20,10,10,75,40,62,45,8,8,3,3,0.6,0.6
2023-05-23T00:00:00,1357A,114.117,22.5625,深圳市,洪湖,,30,30,27,9,12,80,48,67,51,8,13,4,5,0.5,0.5
2023-05-23T00:00:00,1358A,113.987,22.5417,深圳市,华侨城,,29,29,24,5,9,65,36,60,35,15,15,5,6,0.6,0.6
2023-05-23T00:00:00,1359A,113.9181,22.5171,深圳市,南海子站,,26,26,29,8,10,56,39,52,42,16,16,4,4,0.5,0.5
2023-05-23T00:00:00,1360A,114.2458,22.5689,深圳市,盐田,,28,28,23,15,15,87,30,72,41,14,12,4,4,0.5,0.5
2023-05-23T00:00:00,1361A,114.2283,22.7244,深圳市,龙岗,,22,22,27,12,13,109,45,89,53,18,17,3,3,0.4,0.5
2023-05-23T00:00:00,1363A,114.494,22.5422,深圳市,南澳,,20,20,18,8,8,74,46,66,51,7,7,3,3,0.5,0.6
2023-05-23T00:00:00,1364A,114.41,22.6342,深圳市,葵涌,,19,19,19,8,8,81,37,67,39,6,6,6,6,0.5,0.6
2023-05-23T00:00:00,1365A,114.297,22.5978,深圳市,梅沙,,32,32,31,11,17,96,14,68,28,24,20,4,4,0.5,0.6
2023-05-23T00:00:00,1366A,114.0678,22.738,深圳市,观澜,,28,28,36,8,14,105,25,84,32,28,20,6,5,0.4,0.5
2023-05-23T00:00:00,1367A,113.5814,22.2618,珠海市,吉大,,21,21,19,8,11,74,52,60,50,3,5,6,7,0.2,0.2
2023-05-23T00:00:00,1368A,113.4881,22.2335,珠海市,前山,,16,16,21,7,9,74,45,64,48,8,8,4,4,0.2,0.2
2023-05-23T00:00:00,1369A,113.628,22.4251,珠海市,唐家,,,15,16,6,9,70,40,61,46,6,3,5,4,,0.2
2023-05-23T00:00:00,1370A,113.299,22.2281,珠海市,斗门,,22,22,26,10,15,71,39,64,41,10,9,8,6,0.4,0.4
2023-05-23T00:00:00,1371A,113.1294,23.0067,佛山市,湾梁,,31,31,33,16,16,147,40,123,79,22,11,5,5,0.6,0.5
2023-05-23T00:00:00,1372A,113.1083,23.0478,佛山市,华材职中,,27,27,30,15,16,141,53,124,82,21,15,8,8,0.7,0.6
2023-05-23T00:00:00,1373A,113.144,23.0453,佛山市,南海气象局,,29,29,36,20,18,114,38,100,65,22,16,5,4,0.5,0.5
2023-05-23T00:00:00,1374A,113.2881,22.8094,佛山市,顺德苏岗,,21,21,24,12,15,119,32,95,55,8,9,4,4,0.4,0.5
2023-05-23T00:00:00,1376A,112.8383,22.8678,佛山市,高明孔堂,,22,21,32,15,17,89,42,81,57,17,9,4,4,0.8,0.7
2023-05-23T00:00:00,1377A,112.8836,23.1588,佛山市,三水监测站,,23,22,38,16,23,136,48,108,67,18,22,5,5,0.6,0.6
2023-05-23T00:00:00,1378A,112.867,23.185,佛山市,三水云东海,,27,27,34,10,19,130,50,98,54,15,17,9,6,0.6,0.6
2023-05-23T00:00:00,1379A,113.3769,22.5211,中山市,华柏园,,,26,30,14,14,92,,83,59,2,3,7,6,0.3,0.3
2023-05-23T00:00:00,1380A,113.3881,22.5497,中山市,张溪,,27,27,29,13,14,97,47,86,59,6,5,4,4,0.4,0.4
2023-05-23T00:00:00,1381A,113.4075,22.5111,中山市,紫马岭,,28,28,33,15,14,91,48,83,58,5,5,4,4,0.3,0.3
2023-05-23T00:00:00,1382A,113.4411,22.4853,中山市,长江旅游区,,28,28,26,13,13,104,45,89,58,6,5,9,8,0.3,0.3
2023-05-23T00:00:00,1383A,113.1064,22.6058,江门市,北街,,27,27,29,10,12,99,41,81,50,7,8,5,5,0.2,0.3
2023-05-23T00:00:00,1384A,113.0731,22.5835,江门市,西区,,33,33,32,14,16,102,43,84,51,9,12,7,7,0.3,0.4
2023-05-23T00:00:00,1385A,113.0219,22.5311,江门市,圭峰西,,34,34,32,14,14,85,31,73,42,13,10,4,4,0.4,0.4
2023-05-23T00:00:00,1386A,113.0828,22.5947,江门市,东湖,,24,24,32,10,17,100,43,85,53,8,10,5,5,0.4,0.4
2023-05-23T00:00:00,1389A,113.7547,23.0494,东莞市,莞城梨川,,36,36,31,10,13,154,46,122,65,11,13,7,7,0.6,0.6
2023-05-23T00:00:00,1390A,113.7944,23.0128,东莞市,东城石井,,24,24,27,10,13,149,49,121,65,12,11,8,8,0.6,0.6
2023-05-23T00:00:00,1391A,113.7383,22.9658,东莞市,南城西平,,27,27,30,12,14,134,42,105,56,11,12,11,13,0.7,0.7
2023-05-23T00:00:00,1392A,114.4183,23.0528,惠州市,河南岸金山湖子站,,,34,37,24,14,143,,121,95,20,13,3,3,0.5,0.5
2023-05-23T00:00:00,1393A,114.4053,23.0822,惠州市,下埔横江三路子站,,31,31,31,16,14,152,32,130,80,18,11,5,4,0.6,0.6
2023-05-23T00:00:00,1394A,114.4103,23.1142,惠州市,江北云山西路子站,,40,40,34,16,15,158,30,137,85,18,9,7,6,0.6,0.5
2023-05-23T00:00:00,1395A,114.4645,22.7833,惠州市,惠阳区承修路船湖子站,,46,46,32,22,12,111,33,92,49,14,12,4,4,0.3,0.4
2023-05-23T00:00:00,1396A,114.5317,22.7422,惠州市,大亚湾管委会子站,,26,26,24,10,10,100,32,84,50,18,14,10,11,0.5,0.5
2023-05-23T00:00:00,1397A,112.4267,23.0706,肇庆市,睦岗子站,,28,28,45,11,21,110,46,102,82,20,14,8,8,0.3,0.3
2023-05-23T00:00:00,1398A,112.4645,23.0475,肇庆市,城中子站,,33,33,37,22,22,109,42,102,72,23,16,11,15,0.5,0.4
2023-05-23T00:00:00,1399A,112.5544,23.1522,肇庆市,坑口子站,,20,20,38,11,25,124,41,109,77,30,17,12,9,0.5,0.4
2023-05-23T00:00:00,1400A,112.4753,23.1,肇庆市,七星岩子站,,22,20,37,15,20,109,40,99,75,20,13,9,9,0.6,0.5
2023-05-23T00:00:00,1401A,108.3103,22.7881,南宁市,二十一中,,23,20,53,16,28,138,73,132,104,10,10,6,5,0.6,0.7
2023-05-23T00:00:00,1402A,108.3141,22.8528,南宁市,北湖,,31,31,50,16,29,160,70,142,102,9,8,6,6,0.7,0.5
2023-05-23T00:00:00,1403A,108.3206,22.8225,南宁市,市监测站,,26,18,52,18,33,142,71,130,98,12,15,7,7,0.7,0.7
2023-05-23T00:00:00,1404A,108.3829,22.8037,南宁市,大自然花园,,30,30,48,19,29,125,67,116,93,10,10,6,5,0.9,0.8
2023-05-23T00:00:00,1405A,108.4394,22.7904,南宁市,仙葫,,32,18,50,22,29,130,66,115,94,14,10,7,6,0.3,0.4
2023-05-23T00:00:00,1406A,108.2397,22.8467,南宁市,区农职院,,43,43,56,20,35,170,67,149,108,12,12,10,7,0.8,0.8
2023-05-23T00:00:00,1407A,108.3275,22.735,南宁市,英华嘉园,,25,16,50,17,31,123,64,115,97,11,13,8,7,0.6,0.5
2023-05-23T00:00:00,1408A,108.2257,22.7757,南宁市,沙井镇街道办,,31,31,55,18,29,139,65,129,97,14,18,5,5,0.8,0.8
2023-05-23T00:00:00,1409A,110.576,19.9507,海口市,东寨港,,,,,,,,,,,,,,,,
2023-05-23T00:00:00,1410A,110.3232,20.0574,海口市,海南大学,,46,46,37,25,19,116,50,104,68,8,8,6,6,0.4,0.4
2023-05-23T00:00:00,1411A,110.283,20.0053,海口市,秀英海南医院,,,,35,,20,108,27,99,49,31,17,4,4,0.5,0.5
2023-05-23T00:00:00,1412A,110.338,19.9969,海口市,海南师范大学,,40,40,36,26,21,90,44,82,51,7,9,6,5,0.2,0.3
2023-05-23T00:00:00,1413A,110.33,20.0356,海口市,龙华路环保局宿舍,,38,38,38,24,20,119,51,102,62,6,10,6,6,0.4,0.4
2023-05-23T00:00:00,1414A,106.3787,29.8279,重庆市,缙云山,,20,20,14,5,7,89,45,83,58,14,11,7,8,0.1,0
2023-05-23T00:00:00,1416A,106.4213,29.8253,重庆市,天生,,30,22,25,21,18,91,27,80,54,22,14,6,7,0.6,0.6
2023-05-23T00:00:00,1417A,106.6263,29.7228,重庆市,两路,,20,20,19,8,10,83,38,66,41,18,19,6,6,0.6,0.6
2023-05-23T00:00:00,1418A,106.2953,29.5983,重庆市,虎溪,,25,25,23,7,3,107,36,95,64,32,17,5,6,0.5,0.4
2023-05-23T00:00:00,1419A,106.5777,29.5102,重庆市,南坪,,28,28,26,17,15,91,23,74,43,37,24,6,6,0.5,0.4
2023-05-23T00:00:00,1420A,106.6556,29.6277,重庆市,唐家沱,,35,25,23,24,16,78,38,70,52,26,27,8,7,0.7,0.6
2023-05-23T00:00:00,1421A,106.6349,29.4906,重庆市,茶园,,36,36,27,19,14,88,32,75,42,34,27,5,5,0.6,0.5
2023-05-23T00:00:00,1422A,106.3754,29.4572,重庆市,白市驿,,23,23,17,12,13,89,32,79,55,38,20,8,8,0.6,0.4
2023-05-23T00:00:00,1425A,106.6205,29.7166,重庆市,空港,,18,18,19,12,15,87,43,68,50,17,17,6,7,0.7,0.6
2023-05-23T00:00:00,1426A,106.4782,29.4875,重庆市,新山村,,38,38,30,21,14,96,22,80,46,45,28,8,7,0.7,0.5
2023-05-23T00:00:00,1427A,106.5616,29.6453,重庆市,礼嘉,,27,27,21,16,12,101,28,76,45,39,25,13,8,1.0,0.7
2023-05-23T00:00:00,1428A,106.4522,29.7091,重庆市,蔡家,,25,25,30,9,14,90,46,78,55,15,17,6,6,0.4,0.3
2023-05-23T00:00:00,1429A,106.5093,29.3917,重庆市,鱼新街,,32,32,22,9,12,121,28,91,60,43,21,6,6,0.8,0.6
2023-05-23T00:00:00,1431A,103.9728,30.7236,成都市,金泉两河,细颗粒物(PM2.5),74,71,51,54,22,90,28,68,58,23,19,2,2,0.4,0.3
2023-05-23T00:00:00,1432A,104.176,30.6872,成都市,十里店,,48,48,46,20,24,78,57,65,62,22,24,4,2,0.5,0.5
2023-05-23T00:00:00,1433A,104.079,30.5706,成都市,三瓦窑,颗粒物(PM10),55,60,50,28,26,66,32,60,46,35,35,2,3,0.3,0.4
2023-05-23T00:00:00,1434A,104.1114,30.63,成都市,沙河铺,,49,49,45,27,19,78,51,58,55,20,20,4,2,0.4,0.4
2023-05-23T00:00:00,1437A,104.0786,30.6531,成都市,君平街,细颗粒物(PM2.5),77,57,46,56,31,89,49,78,72,27,26,3,2,0.5,0.5
2023-05-23T00:00:00,1438A,103.613,31.0283,成都市,灵岩寺,,36,36,28,21,14,66,52,59,59,12,10,1,2,0.4,0.4
2023-05-23T00:00:00,1439A,106.6899,26.5998,贵阳市,马鞍山,,32,29,23,22,17,71,65,66,64,8,10,5,5,0.3,0.3
2023-05-23T00:00:00,1440A,106.6971,26.5694,贵阳市,市环保站,,40,27,26,28,20,79,69,70,69,10,12,5,4,0.2,0.2
2023-05-23T00:00:00,1441A,106.6243,26.6266,贵阳市,鉴湖路,,39,39,28,22,14,80,66,73,70,10,8,5,4,0.5,0.5
2023-05-23T00:00:00,1442A,106.7487,26.6343,贵阳市,燕子冲,,45,39,32,31,26,75,69,69,68,8,14,5,5,0.4,0.5
2023-05-23T00:00:00,1443A,106.6555,26.4365,贵阳市,碧云窝,,48,48,36,29,16,81,65,71,67,11,11,5,5,0.4,0.5
2023-05-23T00:00:00,1444A,106.694,26.5161,贵阳市,中院村,,46,46,37,29,19,76,58,65,60,19,13,6,6,0.5,0.4
2023-05-23T00:00:00,1445A,106.7109,26.6027,贵阳市,红边门,,41,41,29,22,19,75,66,71,70,8,8,4,4,0.4,0.5
2023-05-23T00:00:00,1446A,106.7164,26.5699,贵阳市,新华路,,42,39,31,29,19,75,66,67,66,10,11,5,4,0.1,0.3
2023-05-23T00:00:00,1447A,106.674,26.5424,贵阳市,太慈桥,,39,39,33,17,13,81,68,71,69,10,10,5,4,0.4,0.4
2023-05-23T00:00:00,1450A,102.8204,24.8886,昆明市,呈贡新区,颗粒物(PM10),54,58,35,26,19,169,102,164,139,33,12,8,7,0.8,0.4
2023-05-23T00:00:00,1451A,102.6251,24.9608,昆明市,西山森林公园,,44,30,29,14,14,162,139,157,149,11,11,9,9,0.8,0.9
2023-05-23T00:00:00,1452A,102.7252,25.0902,昆明市,龙泉镇,,43,43,43,23,18,151,109,142,125,25,36,9,10,0.6,0.5
2023-05-23T00:00:00,1453A,102.7266,25.0375,昆明市,东风东路,,48,48,36,26,17,150,87,150,117,33,16,11,10,0.5,0.6
2023-05-23T00:00:00,1454A,102.6742,25.0669,昆明市,金鼎山,,42,38,33,20,17,167,133,152,140,13,13,5,6,0.6,0.5
2023-05-23T00:00:00,1455A,102.6644,25.0401,昆明市,碧鸡广场,,46,40,38,32,19,160,127,149,135,15,16,11,8,0.5,0.5
2023-05-23T00:00:00,1456A,91.1319,29.6514,拉萨市,八廓街,,37,26,17,7,6,166,118,148,144,16,8,6,6,0.4,0.4
2023-05-23T00:00:00,1457A,91.1221,29.6747,拉萨市,市环保局,,40,21,14,10,8,166,127,148,141,15,15,4,5,0.2,0.5
2023-05-23T00:00:00,1458A,91.0874,29.6475,拉萨市,区监测站,,39,19,13,7,6,161,123,145,140,16,15,6,6,0.3,0.3
2023-05-23T00:00:00,1459A,91.1774,29.6541,拉萨市,西藏大学,,42,22,13,7,6,172,133,155,154,9,8,7,7,0.2,0.2
2023-05-23T00:00:00,1460A,90.9798,29.6588,拉萨市,区辐射站,,31,17,17,10,8,156,99,145,142,31,15,8,8,0.2,0.1
2023-05-23T00:00:00,1461A,91.0834,29.6292,拉萨市,拉萨火车站,,44,14,10,0,7,159,140,147,147,6,9,6,7,0.3,0.4
2023-05-23T00:00:00,1462A,108.882,34.2749,西安市,高压开关厂,颗粒物(PM10),52,54,31,19,10,134,19,121,87,78,28,7,7,0.3,0.1
2023-05-23T00:00:00,1463A,108.993,34.2629,西安市,兴庆小区,,34,34,28,10,12,134,66,122,104,21,18,5,6,0.3,0.4
2023-05-23T00:00:00,1464A,109.06,34.2572,西安市,纺织城,颗粒物(PM10),70,90,37,10,8,135,4,118,63,67,30,5,5,0.4,0.3
2023-05-23T00:00:00,1465A,108.9356,34.2173,西安市,小寨,,35,35,29,3,6,133,65,118,98,23,14,7,8,0.5,0.4
2023-05-23T00:00:00,1466A,108.954,34.2713,西安市,市人民体育场,,39,39,31,11,8,130,50,121,102,39,15,6,7,0.4,0.3
2023-05-23T00:00:00,1467A,108.8922,34.2322,西安市,高新西区,颗粒物(PM10),52,53,30,15,11,134,43,122,102,53,15,6,7,0.5,0.4
2023-05-23T00:00:00,1468A,108.935,34.3474,西安市,经开区,,42,42,32,9,8,134,65,118,94,30,18,3,4,0.2,0.1
2023-05-23T00:00:00,1469A,108.906,34.1546,西安市,长安区,,44,44,35,6,9,132,35,118,88,36,17,6,7,0.3,0.2
2023-05-23T00:00:00,1471A,109.2186,34.3731,西安市,临潼区,,31,29,30,12,14,142,98,130,121,20,15,10,10,0.5,0.5
2023-05-23T00:00:00,1472A,108.869,34.378,西安市,草滩,颗粒物(PM10),60,69,34,20,16,118,7,109,73,86,24,8,7,0.0,0
2023-05-23T00:00:00,1473A,108.985,34.1978,西安市,曲江文化产业集团,,38,38,32,10,8,142,48,127,94,39,19,4,5,0.3,0.3
2023-05-23T00:00:00,1474A,109.051,34.3213,西安市,广运潭,,38,38,30,11,9,136,45,123,100,39,17,6,6,0.3,0.3
2023-05-23T00:00:00,1476A,103.631,36.1031,兰州市,兰炼宾馆,,48,44,56,33,37,134,94,121,112,18,23,5,6,0.3,0.6
2023-05-23T00:00:00,1477A,104.1373,35.9454,兰州市,榆中兰大校区,,,,,,,,,,,,,,,,
2023-05-23T00:00:00,1478A,103.8412,36.0726,兰州市,生物制品所,,36,36,51,19,24,133,100,123,112,16,22,7,11,0.4,1
2023-05-23T00:00:00,1479A,103.831,36.0464,兰州市,铁路设计院,,33,33,45,17,23,132,94,124,114,20,22,6,7,0.5,0.8
2023-05-23T00:00:00,1483A,101.524,36.6867,西宁市,第五水厂,,,,,,,,,,,,,,,,
2023-05-23T00:00:00,1484A,105.9512,38.6016,银川市,贺兰山马莲口,,39,25,34,14,13,151,123,138,134,8,10,11,13,0.5,0.5
2023-05-23T00:00:00,1488A,106.2328,38.4975,银川市,贺兰山东路,,45,45,37,20,17,172,72,147,122,45,21,20,16,0.3,0.3
2023-05-23T00:00:00,1489A,106.1358,38.5036,银川市,学院路,,31,31,45,17,20,155,83,137,113,39,25,15,17,0.5,0.5
2023-05-23T00:00:00,1490A,87.5801,43.8303,乌鲁木齐市,监测站,,20,10,67,8,14,130,63,105,84,31,25,6,7,0.6,0.5
2023-05-23T00:00:00,1491A,87.6046,43.768,乌鲁木齐市,收费所,,17,14,71,11,17,124,53,101,79,29,23,7,7,0.3,0.3
2023-05-23T00:00:00,1492A,87.4754,43.9469,乌鲁木齐市,新疆农科院农场,,,,52,19,28,125,57,108,76,41,34,7,9,1.0,1
2023-05-23T00:00:00,1493A,87.5525,43.8711,乌鲁木齐市,铁路局,,20,6,53,2,16,147,62,110,83,20,21,6,7,0.6,0.6
2023-05-23T00:00:00,1494A,87.6432,43.831,乌鲁木齐市,三十一中学,,26,6,65,5,12,130,82,107,98,22,16,10,11,0.4,0.4
2023-05-23T00:00:00,1496A,87.7216,44.1747,乌鲁木齐市,米东区环保局,,25,8,84,12,22,136,77,126,104,20,13,4,5,0.2,0.3
2023-05-23T00:00:00,1508A,112.9433,27.8614,湘潭市,板塘,,50,50,35,29,15,74,27,69,43,27,12,4,3,0.4,0.2
2023-05-23T00:00:00,1511A,112.9118,27.8403,湘潭市,市监测站,颗粒物(PM10),58,66,38,31,11,82,39,79,52,30,17,3,2,0.7,0.5
2023-05-23T00:00:00,1512A,112.8937,27.8728,湘潭市,江麓,颗粒物(PM10),52,54,38,34,16,74,36,72,45,19,22,4,3,0.3,0.1
2023-05-23T00:00:00,1513A,112.9227,27.8159,湘潭市,岳塘,颗粒物(PM10),52,53,48,23,9,80,31,77,45,25,13,7,7,0.2,0.1
2023-05-23T00:00:00,1514A,112.9074,27.9119,湘潭市,科大,颗粒物(PM10),55,60,40,21,9,80,17,75,36,34,13,3,3,0.7,0.5
2023-05-23T00:00:00,1515A,113.135,27.8244,株洲市,天台山庄,颗粒物(PM10),67,84,41,28,10,78,62,74,60,15,10,6,9,0.5,0.5
2023-05-23T00:00:00,1518A,113.095,27.8867,株洲市,株冶医院,颗粒物(PM10),57,63,37,32,17,72,67,69,58,12,12,3,4,0.6,0.5
2023-05-23T00:00:00,1519A,113.167,27.8667,株洲市,市四中,,,,24,31,16,78,38,74,49,25,10,6,5,0.4,0.1
2023-05-23T00:00:00,1520A,113.143,27.8381,株洲市,火车站,颗粒物(PM10),57,63,34,31,11,76,55,73,60,20,13,4,3,0.6,0.5
2023-05-23T00:00:00,1524A,113.13,27.8528,株洲市,市监测站,颗粒物(PM10),57,63,34,31,26,77,56,73,56,18,12,3,6,0.6,0.6
2023-05-23T00:00:00,1552A,106.805,26.3003,贵阳市,桐木岭,,38,32,30,26,33,83,51,78,61,8,8,1,1,0.3,0.3
2023-05-23T00:00:00,1559A,113.251,27.8336,株洲市,大京风景区,,46,46,22,18,9,71,37,67,41,8,7,2,2,0.5,0.4
2023-05-23T00:00:00,1562A,113.0048,27.9153,湘潭市,昭山,颗粒物(PM10),63,75,44,42,21,81,9,77,26,45,18,2,2,0.4,0.3
2023-05-23T00:00:00,1564A,112.4876,27.9164,湘潭市,韶山,颗粒物(PM10),51,52,36,11,10,107,61,102,83,2,5,4,4,0.5,0.5
2023-05-23T00:00:00,1585A,109.8756,40.6532,包头市,市环境监测站,,50,50,29,14,11,141,30,126,89,71,22,11,12,0.5,0.5
2023-05-23T00:00:00,1587A,109.9991,40.5842,包头市,包头八中,,41,41,29,20,13,133,83,124,108,31,23,23,14,0.6,0.5
2023-05-23T00:00:00,1588A,109.8538,40.6821,包头市,青山宾馆,,45,45,23,20,13,143,42,128,93,63,21,10,10,0.5,0.5
2023-05-23T00:00:00,1589A,109.8642,40.6288,包头市,惠龙物流,,49,49,26,16,8,140,50,130,103,58,20,22,10,0.5,0.4
2023-05-23T00:00:00,1590A,110.0377,40.5546,包头市,东河鸿龙湾,,48,48,31,27,23,135,72,125,97,33,21,20,16,0.5,0.5
2023-05-23T00:00:00,1591A,110.0023,39.8129,鄂尔多斯市,综合楼,,39,39,53,12,9,121,89,112,91,23,28,7,24,0.4,0.5
2023-05-23T00:00:00,1592A,109.9486,39.8261,鄂尔多斯市,巴音孟克林场办事处,,32,27,44,9,15,134,100,125,107,18,29,6,13,0.6,0.7
2023-05-23T00:00:00,1593A,109.7736,39.5986,鄂尔多斯市,康泽苑,颗粒物(PM10),59,68,40,12,16,141,52,130,101,39,17,8,8,0.3,0.3
2023-05-23T00:00:00,1594A,109.8119,39.5989,鄂尔多斯市,华泰汽车城,颗粒物(PM10),60,70,35,9,11,134,43,122,86,41,23,8,9,0.5,0.4
2023-05-23T00:00:00,1595A,109.9734,39.7884,鄂尔多斯市,奥林花园,,34,34,54,14,13,126,64,115,87,37,26,6,14,0.4,0.5
2023-05-23T00:00:00,1597A,122.2703,40.7094,营口市,大庆路,颗粒物(PM10),54,57,121,16,33,145,91,119,100,19,19,4,6,0.6,0.5
2023-05-23T00:00:00,1598A,122.2150,40.6511,营口市,镜湖西路,颗粒物(PM10),53,55,138,14,28,138,107,123,111,14,16,7,9,0.4,0.4
2023-05-23T00:00:00,1599A,122.1658,40.6789,营口市,西炮台,颗粒物(PM10),64,77,135,21,35,125,104,114,114,13,20,4,5,0.5,0.4
2023-05-23T00:00:00,1600A,124.3303,40.0625,丹东市,江湾东路,,,,62,16,18,110,80,98,86,14,16,7,7,0.5,0.5
2023-05-23T00:00:00,1601A,124.4256,40.1503,丹东市,临江后街,颗粒物(PM10),54,58,79,17,18,104,84,99,88,10,14,5,5,0.5,0.4
2023-05-23T00:00:00,1602A,124.3933,40.1461,丹东市,元宝山,,27,27,60,8,14,92,76,85,83,13,14,8,8,0.1,0.1
2023-05-23T00:00:00,1603A,124.3633,40.1092,丹东市,民主桥,,30,30,56,9,11,101,84,93,81,14,17,7,6,0.5,0.4
2023-05-23T00:00:00,1604A,122.0303,41.1489,盘锦市,开发区,,39,36,82,27,41,130,82,117,102,24,32,9,33,0.6,0.6
2023-05-23T00:00:00,1605A,122.0485,41.0883,盘锦市,兴隆台,,43,43,89,23,23,131,72,112,97,35,35,7,14,0.6,0.6
2023-05-23T00:00:00,1606A,121.8297,41.1028,盘锦市,新生街道,,38,38,83,18,18,126,50,118,98,38,29,39,32,0.6,0.6
2023-05-23T00:00:00,1607A,120.9092,40.7136,葫芦岛市,龙港区,,37,37,92,19,32,136,43,119,100,50,28,9,14,0.5,0.5
2023-05-23T00:00:00,1608A,120.8392,40.7514,葫芦岛市,化工街,颗粒物(PM10),69,88,97,36,28,127,7,115,69,83,47,9,9,0.6,0.5
2023-05-23T00:00:00,1609A,120.8341,40.7073,葫芦岛市,新区,,45,45,91,21,33,130,10,111,78,88,37,11,14,0.5,0.5
2023-05-23T00:00:00,1610A,120.8695,40.7677,葫芦岛市,东城区,颗粒物(PM10),64,77,98,27,27,105,7,98,59,75,41,20,15,0.7,0.6
2023-05-23T00:00:00,1611A,118.5819,24.9117,泉州市,涂山街,,30,12,37,4,16,97,93,68,59,6,21,6,9,0.6,0.7
2023-05-23T00:00:00,1612A,118.5972,24.8978,泉州市,津头埔,,,,35,5,17,98,98,64,56,10,27,6,8,0.5,0.5
2023-05-23T00:00:00,1613A,118.6663,24.9424,泉州市,万安,,33,7,34,4,15,104,104,72,66,2,13,7,8,0.6,0.6
2023-05-23T00:00:00,1614A,118.6117,24.9604,泉州市,清源山,,,,31,,16,,,,,,17,,5,,
2023-05-23T00:00:00,1616A,117.6795,36.229,济南市,技术学院,颗粒物(PM10),65,80,81,33,28,171,42,156,130,76,29,9,10,0.7,0.6
2023-05-23T00:00:00,1618A,118.3429,35.0532,临沂市,沂河小区,颗粒物(PM10),108,166,128,62,53,156,100,149,136,29,20,17,11,0.4,0.3
2023-05-23T00:00:00,1619A,118.295,35.0583,临沂市,鲁南制药厂,颗粒物(PM10),109,168,130,56,42,167,111,160,144,29,19,18,13,0.3,0.2
2023-05-23T00:00:00,1620A,118.2794,34.9976,临沂市,新光毛纺厂,颗粒物(PM10),111,171,119,49,38,154,104,146,134,28,19,12,8,0.4,0.4
2023-05-23T00:00:00,1621A,118.3956,35.0888,临沂市,河东保险公司,颗粒物(PM10),97,144,115,43,45,158,118,153,139,17,18,18,11,0.3,0.3
2023-05-23T00:00:00,1622A,116.3032,37.4674,德州市,儿童乐园,,46,46,58,14,19,149,108,137,121,15,15,4,8,0.4,0.6
2023-05-23T00:00:00,1624A,116.2991,37.4451,德州市,监理站,颗粒物(PM10),53,55,61,19,14,147,71,135,114,41,24,2,5,0.4,0.5
2023-05-23T00:00:00,1625A,115.9848,36.4372,聊城市,区政府,颗粒物(PM10),53,56,53,20,18,142,15,134,89,72,19,6,8,0.7,0.4
2023-05-23T00:00:00,1628A,118.0062,37.3803,滨州市,市环保局,颗粒物(PM10),64,78,114,29,35,145,77,136,108,29,18,6,15,0.7,0.7
2023-05-23T00:00:00,1629A,118.0018,37.3617,滨州市,第二水厂,颗粒物(PM10),60,70,117,39,29,153,85,144,112,30,26,4,13,0.7,0.7
2023-05-23T00:00:00,1630A,117.9776,37.393,滨州市,北中新校,颗粒物(PM10),58,66,94,31,29,143,64,134,100,36,25,16,12,0.9,0.5
2023-05-23T00:00:00,1631A,118.0414,36.8103,淄博市,人民公园,颗粒物(PM10),80,110,99,41,32,174,29,161,122,89,29,19,14,0.6,0.5
2023-05-23T00:00:00,1633A,117.8525,36.4847,淄博市,双山,颗粒物(PM10),52,53,83,25,30,169,77,153,126,32,24,11,6,0.4,0.3
2023-05-23T00:00:00,1634A,117.9592,36.6331,淄博市,气象站,,,112,110,,42,162,45,157,119,56,31,20,8,0.5,0.3
2023-05-23T00:00:00,1635A,118.3092,36.8194,淄博市,莆田园,细颗粒物(PM2.5),83,110,114,61,48,170,76,161,118,47,37,36,18,1.6,0.6
2023-05-23T00:00:00,1637A,117.558,34.8438,枣庄市,市中区政府,颗粒物(PM10),84,117,97,36,34,174,55,156,120,54,23,8,9,0.5,0.5
2023-05-23T00:00:00,1638A,117.2852,34.7837,枣庄市,薛城环保局,颗粒物(PM10),64,78,87,36,30,154,59,148,117,40,23,9,8,0.5,0.4
2023-05-23T00:00:00,1639A,117.5852,34.7745,枣庄市,峄城区政府,颗粒物(PM10),75,100,93,27,34,166,70,149,123,39,22,16,12,0.3,0.3
2023-05-23T00:00:00,1640A,117.7276,34.5578,枣庄市,台儿庄区环保局,颗粒物(PM10),71,92,94,27,27,165,69,149,114,38,24,11,11,0.7,0.5
2023-05-23T00:00:00,1641A,117.4518,35.0992,枣庄市,山亭区环保局,颗粒物(PM10),51,51,70,27,28,166,97,153,136,18,15,7,8,0.2,0.2
2023-05-23T00:00:00,1642A,121.2514,37.5639,烟台市,开发区,颗粒物(PM10),52,53,114,22,31,170,107,141,125,31,28,8,10,0.5,0.6
2023-05-23T00:00:00,1643A,121.3719,37.5433,烟台市,轴承厂,颗粒物(PM10),52,53,118,21,31,160,119,147,131,18,19,4,6,0.5,0.6
2023-05-23T00:00:00,1644A,121.3181,37.5436,烟台市,西郊化工站,颗粒物(PM10),62,73,128,22,34,164,102,142,121,29,26,5,6,0.4,0.4
2023-05-23T00:00:00,1645A,121.4478,37.4822,烟台市,莱山环保局,颗粒物(PM10),62,73,116,22,46,146,117,141,138,15,12,8,7,0.4,0.4
2023-05-23T00:00:00,1646A,121.2611,37.4967,烟台市,福山环保局,颗粒物(PM10),53,56,113,22,51,155,103,145,113,25,25,6,7,0.4,0.4
2023-05-23T00:00:00,1650A,119.1437,36.7023,潍坊市,环保局,颗粒物(PM10),54,58,103,24,32,143,44,136,92,55,27,8,11,0.5,0.5
2023-05-23T00:00:00,1653A,116.6251,35.4302,济宁市,火炬城,颗粒物(PM10),58,66,46,22,14,150,90,136,117,26,11,18,12,0.7,0.6
2023-05-23T00:00:00,1655A,116.5491,35.4042,济宁市,电化厂,颗粒物(PM10),64,77,56,36,16,146,78,138,113,32,13,13,8,0.5,0.4
2023-05-23T00:00:00,1656A,117.1437,36.1937,泰安市,监测站,,34,34,61,16,22,141,87,132,112,14,20,4,5,0.5,0.5
2023-05-23T00:00:00,1657A,117.0885,36.2017,泰安市,人口学校,,46,46,59,25,23,142,78,132,109,20,16,5,5,0.4,0.3
2023-05-23T00:00:00,1658A,117.1089,36.1758,泰安市,电力学校,,39,39,58,26,23,148,67,140,111,25,20,8,9,0.5,0.3
2023-05-23T00:00:00,1659A,119.471,35.4209,日照市,监测站,颗粒物(PM10),86,122,138,32,41,151,2,143,88,100,32,5,5,0.4,0.3
2023-05-23T00:00:00,1660A,119.523,35.4216,日照市,市政府广场,颗粒物(PM10),87,124,144,38,36,152,45,138,99,62,21,8,6,0.7,0.4
2023-05-23T00:00:00,1661A,119.5587,35.4044,日照市,港务局,颗粒物(PM10),100,149,165,33,40,155,50,141,97,70,28,8,7,0.8,0.4
2023-05-23T00:00:00,1662A,122.1214,37.4236,威海市,华夏技校,,,53,111,,36,154,125,138,136,18,17,6,5,0.3,0.3
2023-05-23T00:00:00,1663A,122.0508,37.5236,威海市,山大分校,颗粒物(PM10),62,73,143,17,29,149,126,124,124,17,30,7,8,0.3,0.4
2023-05-23T00:00:00,1664A,122.1067,37.5072,威海市,市监测站,颗粒物(PM10),51,51,140,20,33,149,114,130,125,16,23,8,10,0.4,0.5
2023-05-23T00:00:00,1666A,118.6614,37.4309,东营市,市环保局,颗粒物(PM10),59,68,108,22,29,149,67,144,117,44,28,10,13,0.3,0.3
2023-05-23T00:00:00,1669A,113.5824,24.7733,韶关市,市八中,,19,13,30,4,12,70,58,63,63,5,10,6,6,0.5,0.5
2023-05-23T00:00:00,1671A,113.5917,24.7972,韶关市,园林处,,,8,27,8,14,71,,67,67,2,7,8,8,0.5,0.4
2023-05-23T00:00:00,1672A,113.6735,24.7791,韶关市,韶关学院,,17,16,33,9,17,71,54,63,61,10,14,8,18,0.4,0.6
2023-05-23T00:00:00,1673A,113.5971,24.6863,韶关市,曲江监测站,,20,10,31,2,14,75,63,67,67,6,10,9,10,0.4,0.5
2023-05-23T00:00:00,1674A,116.6794,23.3667,汕头市,金平子站,,32,17,17,9,9,102,102,77,77,9,9,4,4,0.6,0.6
2023-05-23T00:00:00,1675A,116.7244,23.3633,汕头市,龙湖子站,,32,13,20,6,10,102,100,83,83,11,8,3,3,0.5,0.4
2023-05-23T00:00:00,1676A,116.7258,23.2775,汕头市,濠江子站,,32,12,23,8,12,101,101,73,73,8,9,7,9,0.6,0.6
2023-05-23T00:00:00,1677A,116.7519,23.4714,汕头市,澄海子站,,39,39,24,13,10,103,80,86,84,17,11,4,5,0.6,0.6
2023-05-23T00:00:00,1678A,116.6092,23.2539,汕头市,潮阳子站,,35,13,22,6,10,109,109,82,82,5,5,9,8,0.6,0.6
2023-05-23T00:00:00,1680A,110.3539,21.2706,湛江市,湛江影剧院,,34,34,44,12,21,126,43,109,66,6,10,6,8,0.5,0.6
2023-05-23T00:00:00,1681A,110.3928,21.2228,湛江市,市环境监测站,,32,32,39,17,22,105,28,96,62,20,11,6,7,0.4,0.4
2023-05-23T00:00:00,1682A,110.4019,21.1997,湛江市,环保局宿舍,,31,31,39,16,21,107,40,95,66,10,10,5,5,0.5,0.4
2023-05-23T00:00:00,1683A,110.4111,21.2028,湛江市,霞山游泳场,,33,33,37,18,22,91,27,88,63,19,10,6,7,0.5,0.6
2023-05-23T00:00:00,1684A,110.3316,21.2679,湛江市,麻章区环保局,,36,36,46,16,25,153,37,119,71,10,12,3,5,0.6,0.6
2023-05-23T00:00:00,1685A,110.4558,21.2567,湛江市,坡头区环保局,,28,28,35,15,20,96,48,92,67,6,7,6,6,0.4,0.5
2023-05-23T00:00:00,1686A,111.0286,21.4688,茂名市,电白南海,,32,31,32,22,18,64,58,59,54,3,4,4,4,0.5,0.5
2023-05-23T00:00:00,1687A,110.9294,21.6533,茂名市,茂石化七小,,30,30,35,13,19,91,51,79,59,6,6,7,8,0.3,0.4
2023-05-23T00:00:00,1688A,110.9107,21.6687,茂名市,健康路,,24,24,32,8,12,96,53,82,61,5,5,3,3,0.5,0.5
2023-05-23T00:00:00,1689A,110.8592,21.6828,茂名市,高岭,,29,29,41,17,22,120,57,103,66,5,6,3,4,0.4,0.4
2023-05-23T00:00:00,1690A,116.1231,24.3284,梅州市,梅江月梅,,17,16,27,5,13,96,54,79,61,15,14,2,2,0.7,0.6
2023-05-23T00:00:00,1691A,116.0797,24.2719,梅州市,梅县新城,,20,19,26,10,15,93,63,80,65,6,13,5,6,0.6,0.5
2023-05-23T00:00:00,1692A,116.1248,24.2654,梅州市,环境监控中心,,19,16,27,11,16,102,59,86,74,12,12,3,4,0.6,0.5
2023-05-23T00:00:00,1693A,115.3653,22.775,汕尾市,市环保局,,,,21,,11,68,38,63,53,,2,6,6,0.4,0.5
2023-05-23T00:00:00,1694A,115.3706,22.7898,汕尾市,市政府,,13,9,16,9,11,73,38,67,55,6,5,4,4,0.2,0.2
2023-05-23T00:00:00,1695A,115.3622,22.7925,汕尾市,新城中学,,21,21,20,8,8,80,44,71,58,6,4,6,6,0.5,0.5
2023-05-23T00:00:00,1696A,114.6778,23.7569,河源市,源西,,24,24,44,3,15,123,55,98,72,9,13,4,4,0.8,0.7
2023-05-23T00:00:00,1697A,114.6944,23.7586,河源市,东埔,,16,15,31,9,18,121,51,100,75,8,13,5,5,0.6,0.5
2023-05-23T00:00:00,1698A,114.6892,23.7233,河源市,老城,,22,22,43,9,17,122,51,101,74,7,11,4,4,0.7,0.6
2023-05-23T00:00:00,1699A,111.9797,21.8593,阳江市,鸳鸯湖,,20,20,27,10,11,59,50,58,48,2,2,7,7,0.5,0.5
2023-05-23T00:00:00,1701A,111.9491,21.8658,阳江市,马南垌,,25,25,32,11,14,63,48,58,51,2,3,4,4,0.4,0.5
2023-05-23T00:00:00,1702A,113.0426,23.691,清远市,环保大楼,,17,12,30,5,17,135,52,103,65,2,6,4,5,0.5,0.5
2023-05-23T00:00:00,1703A,113.0208,23.7106,清远市,凤城街办,,18,14,35,6,19,126,56,91,57,2,8,6,4,0.4,0.4
2023-05-23T00:00:00,1705A,116.6367,23.6719,潮州市,西园路,,22,22,32,6,11,83,68,74,73,11,11,4,6,0.4,0.3
2023-05-23T00:00:00,1706A,116.6447,23.6706,潮州市,档案局,,25,22,32,16,15,97,78,89,84,6,7,6,9,0.5,0.5
2023-05-23T00:00:00,1708A,116.3701,23.5345,揭阳市,新兴,,25,17,28,10,13,103,80,81,81,12,7,6,6,0.5,0.5
2023-05-23T00:00:00,1709A,116.3264,23.5443,揭阳市,西马,,25,16,27,13,12,99,78,76,76,11,11,5,6,0.6,0.6
2023-05-23T00:00:00,1710A,116.3611,23.5626,揭阳市,东兴,,23,13,28,11,11,92,71,81,80,16,9,4,3,0.6,0.6
2023-05-23T00:00:00,1711A,116.4151,23.5294,揭阳市,渔湖,,25,8,31,5,18,97,77,77,77,12,9,6,5,0.7,0.4
2023-05-23T00:00:00,1712A,112.0392,22.9169,云浮市,新市府,,23,23,36,16,21,92,58,78,62,15,7,4,3,0.7,0.7
2023-05-23T00:00:00,1714A,112.0539,22.9539,云浮市,牧羊,,22,22,42,15,21,102,61,78,54,14,16,13,17,0.5,0.5
2023-05-23T00:00:00,1715A,102.575,24.3711,玉溪市,东风水库,颗粒物(PM10),61,71,43,41,21,141,120,137,132,12,14,10,10,0.7,0.8
2023-05-23T00:00:00,1718A,115.4208,35.2464,菏泽市,气象局,颗粒物(PM10),65,80,51,22,16,143,35,134,89,83,25,8,7,0.5,0.5
2023-05-23T00:00:00,1719A,115.4747,35.2375,菏泽市,市政协,颗粒物(PM10),79,107,54,38,21,140,24,130,88,69,18,5,6,0.5,0.3
2023-05-23T00:00:00,1721A,113.3819,40.1097,大同市,果树场,颗粒物(PM10),58,65,26,23,11,115,7,112,77,49,11,7,9,0.7,0.6
2023-05-23T00:00:00,1723A,113.2994,40.0758,大同市,云冈宾馆,颗粒物(PM10),54,58,33,14,9,121,34,116,88,45,15,7,11,0.6,0.5
2023-05-23T00:00:00,1724A,113.3444,40.0917,大同市,大同大学,颗粒物(PM10),61,71,32,18,15,114,38,107,80,36,15,11,13,0.4,0.4
2023-05-23T00:00:00,1725A,113.2661,40.1269,大同市,安家小村,细颗粒物(PM2.5),118,71,28,89,36,122,35,115,92,45,10,7,9,0.3,0.4
2023-05-23T00:00:00,1726A,113.2711,40.0844,大同市,教育学院,颗粒物(PM10),54,58,28,23,10,112,48,108,88,42,15,23,11,3.2,0.6
2023-05-23T00:00:00,1727A,113.1147,36.1547,长治市,清华站,,35,32,27,14,14,153,110,139,127,10,14,11,11,0.7,0.6
2023-05-23T00:00:00,1728A,113.1031,36.1989,长治市,监测站,,38,38,33,17,14,139,92,130,119,18,16,10,10,0.8,0.6
2023-05-23T00:00:00,1730A,113.0886,36.2125,长治市,审计局,,35,30,29,17,14,139,109,131,123,12,16,11,11,0.5,0.4
2023-05-23T00:00:00,1731A,113.0844,36.1856,长治市,长治八中,,48,48,34,18,13,145,110,135,124,12,15,7,8,0.5,0.4
2023-05-23T00:00:00,1733A,111.5531,36.0783,临汾市,临钢医院,颗粒物(PM10),60,69,44,33,32,148,13,134,102,70,24,3,7,0.7,0.8
2023-05-23T00:00:00,1734A,111.5028,36.0714,临汾市,技工学校,颗粒物(PM10),54,57,48,29,32,158,71,140,118,27,18,15,14,0.9,1
2023-05-23T00:00:00,1736A,111.5018,36.0855,临汾市,市委,颗粒物(PM10),61,72,55,32,29,158,56,141,119,43,21,9,13,1.0,1.1
2023-05-23T00:00:00,1738A,113.5758,37.8572,阳泉市,市中心,颗粒物(PM10),63,75,45,18,16,132,1,128,80,98,30,12,10,0.7,0.6
2023-05-23T00:00:00,1739A,113.4894,37.8731,阳泉市,赛鱼,颗粒物(PM10),60,69,47,20,20,133,3,128,81,88,28,8,8,0.6,0.6
2023-05-23T00:00:00,1740A,113.5819,37.8486,阳泉市,南庄,颗粒物(PM10),56,61,46,25,23,136,10,132,91,95,27,12,12,0.8,0.6
2023-05-23T00:00:00,1742A,113.5614,37.8703,阳泉市,平坦,颗粒物(PM10),57,64,50,10,16,127,7,121,81,106,32,12,11,0.5,0.6
2023-05-23T00:00:00,1743A,113.5158,37.8392,阳泉市,大阳泉,,38,24,33,16,21,137,120,132,127,17,21,11,11,0.6,0.7
2023-05-23T00:00:00,1744A,118.9233,42.2816,赤峰市,松山一中,,23,20,54,5,5,91,72,89,78,22,24,10,11,0.4,0.4
2023-05-23T00:00:00,1745A,118.9576,42.2728,赤峰市,哈达街,,25,25,43,7,8,96,70,93,83,14,17,13,13,0.3,0.3
2023-05-23T00:00:00,1746A,118.8788,42.2554,赤峰市,天义路,,29,18,21,20,9,96,69,92,74,16,18,12,12,0.4,0.4
2023-05-23T00:00:00,1748A,123.044,41.1196,鞍山市,深沟寺,颗粒物(PM10),60,69,79,23,27,128,85,115,82,11,15,11,10,0.6,0.6
2023-05-23T00:00:00,1749A,123.011,41.0931,鞍山市,太阳城,,45,45,68,16,22,126,76,111,74,19,21,11,10,0.9,0.9
2023-05-23T00:00:00,1750A,123.0485,41.1442,鞍山市,太平,颗粒物(PM10),59,67,81,27,29,117,75,107,73,21,27,17,14,0.9,0.8
2023-05-23T00:00:00,1751A,122.9642,41.0971,鞍山市,铁西三道街,颗粒物(PM10),66,81,107,29,34,132,52,112,65,47,36,15,10,1.6,1
2023-05-23T00:00:00,1752A,122.9341,41.0833,鞍山市,铁西工业园区,颗粒物(PM10),59,67,97,30,35,129,64,112,68,34,30,16,13,1.5,0.9
2023-05-23T00:00:00,1753A,123.022,41.0821,鞍山市,明达新区,颗粒物(PM10),52,53,81,21,24,131,80,114,83,17,21,11,10,0.6,0.6
2023-05-23T00:00:00,1754A,123.1289,41.0228,鞍山市,千山,,,,80,,18,131,,111,76,,12,,8,,0.7
2023-05-23T00:00:00,1755A,123.7977,41.8491,抚顺市,望花区,细颗粒物(PM2.5),63,73,68,45,32,140,27,121,67,56,38,8,10,1.3,0.7
2023-05-23T00:00:00,1756A,123.9161,41.8822,抚顺市,顺城区,颗粒物(PM10),59,67,56,29,21,129,5,108,43,61,39,5,6,0.5,0.5
2023-05-23T00:00:00,1757A,124.0436,41.8611,抚顺市,东洲区,,45,45,33,23,15,145,54,134,92,25,15,12,12,0.4,0.4
2023-05-23T00:00:00,1758A,123.9247,41.8642,抚顺市,新抚区,细颗粒物(PM2.5),82,86,63,60,21,133,5,112,44,56,36,8,9,0.5,0.5
2023-05-23T00:00:00,1759A,124.0972,41.8961,抚顺市,大伙房水库,,29,25,30,20,15,150,41,133,90,32,15,4,5,0.4,0.2
2023-05-23T00:00:00,1760A,123.7086,41.8391,抚顺市,沈抚新城,颗粒物(PM10),64,78,69,26,31,134,29,120,49,57,43,15,15,1.3,1.1
2023-05-23T00:00:00,1761A,123.8275,41.3064,本溪市,大峪,,50,50,51,18,18,113,50,102,76,25,24,7,10,0.8,1.1
2023-05-23T00:00:00,1762A,123.7567,41.3325,本溪市,溪湖,颗粒物(PM10),72,93,103,35,31,127,19,112,66,51,33,14,21,2.0,1.6
2023-05-23T00:00:00,1763A,123.7169,41.3094,本溪市,彩屯,颗粒物(PM10),66,82,85,33,37,130,15,112,62,55,34,14,22,2.4,1.6
2023-05-23T00:00:00,1764A,123.7669,41.2864,本溪市,东明,颗粒物(PM10),51,52,71,27,28,126,32,109,70,50,45,9,23,0.7,1.5
2023-05-23T00:00:00,1765A,123.7992,41.2664,本溪市,新立屯,,33,33,54,16,24,114,23,97,54,56,41,7,16,0.7,1.7
2023-05-23T00:00:00,1766A,123.8142,41.3472,本溪市,威宁,,35,35,49,15,18,121,37,103,61,28,26,5,11,0.3,0.7
2023-05-23T00:00:00,1767A,121.1115,41.0879,锦州市,南山,细颗粒物(PM2.5),80,86,78,59,43,116,17,110,68,52,21,49,22,0.7,0.5
2023-05-23T00:00:00,1768A,121.0533,40.8434,锦州市,开发区,颗粒物(PM10),89,127,134,34,45,114,5,108,62,93,44,20,31,0.4,0.5
2023-05-23T00:00:00,1769A,121.1836,41.1119,锦州市,百股街道,颗粒物(PM10),58,66,87,34,28,117,45,111,75,30,21,59,25,0.8,0.6
2023-05-23T00:00:00,1770A,121.1178,41.1222,锦州市,天安街道,颗粒物(PM10),76,102,78,37,26,109,32,105,70,47,24,16,14,0.7,0.5
2023-05-23T00:00:00,1771A,121.1303,41.1386,锦州市,北湖公园,颗粒物(PM10),60,70,64,26,27,114,45,110,82,40,20,33,18,0.6,0.5
2023-05-23T00:00:00,1772A,126.54,43.8622,吉林市,哈达湾,,34,34,27,18,13,111,54,105,71,22,17,3,4,0.6,0.5
2023-05-23T00:00:00,1773A,126.5844,43.8358,吉林市,东局子,,23,23,26,10,12,109,64,101,65,13,18,5,5,0.5,0.6
2023-05-23T00:00:00,1774A,126.5052,43.8245,吉林市,电力学院,,47,47,43,24,19,121,12,110,46,33,21,7,7,0.7,0.6
2023-05-23T00:00:00,1775A,126.6133,43.8972,吉林市,江北,颗粒物(PM10),53,56,33,26,15,116,32,106,68,50,19,6,7,0.5,0.5
2023-05-23T00:00:00,1776A,126.555,43.8306,吉林市,江南公园,,21,21,25,11,15,108,64,103,72,12,19,5,5,0.6,0.6
2023-05-23T00:00:00,1778A,126.7061,43.7133,吉林市,丰满,,19,16,19,9,10,112,60,112,82,5,5,5,5,0.3,0.3
2023-05-23T00:00:00,1779A,123.9305,47.3636,齐齐哈尔市,安居小区,颗粒物(PM10),52,53,38,22,13,105,74,97,68,24,22,4,4,0.5,0.4
2023-05-23T00:00:00,1780A,123.9488,47.3386,齐齐哈尔市,中心广场,,34,34,26,11,7,98,78,92,75,17,19,8,6,0.2,0.3
2023-05-23T00:00:00,1781A,123.9483,47.3227,齐齐哈尔市,农牧车辆厂,颗粒物(PM10),53,56,34,16,11,106,80,98,76,18,19,7,6,0.3,0.3
2023-05-23T00:00:00,1783A,123.945,47.2988,齐齐哈尔市,市环境监测站,,34,34,27,19,14,107,73,101,86,20,15,8,7,0.5,0.5
2023-05-23T00:00:00,1784A,129.61,44.561,牡丹江市,环保大楼,,37,37,26,14,14,92,53,88,65,12,13,4,4,0.3,0.3
2023-05-23T00:00:00,1785A,129.6115,44.5782,牡丹江市,文化广场,,40,31,25,28,20,88,37,85,64,30,16,4,4,0.5,0.3
2023-05-23T00:00:00,1786A,129.5904,44.5963,牡丹江市,第一医院,,46,41,28,32,19,100,50,94,68,16,13,2,3,0.3,0.3
2023-05-23T00:00:00,1787A,129.6364,44.6075,牡丹江市,机车工厂,,36,36,33,21,15,95,32,92,66,20,10,4,5,0.4,0.4
2023-05-23T00:00:00,1788A,129.6386,44.5462,牡丹江市,第一中学,,31,31,21,16,13,100,48,94,71,11,8,2,2,0.3,0.3
2023-05-23T00:00:00,1789A,124.81117,46.03138,大庆市,大同区,,27,27,32,15,14,97,71,94,87,15,9,4,4,0.3,0.3
2023-05-23T00:00:00,1790A,125.129,46.533,大庆市,龙凤区,,41,41,28,20,16,105,56,102,68,32,23,4,3,0.5,0.3
2023-05-23T00:00:00,1791A,124.902,46.408,大庆市,红岗区,,,,25,,9,101,,98,98,,12,,3,,0.3
2023-05-23T00:00:00,1792A,125.153,46.586,大庆市,萨尔图区,,33,33,26,21,11,88,69,84,66,27,24,6,4,0.3,0.3
2023-05-23T00:00:00,1793A,124.9042,46.6215,大庆市,让胡路区,,,,,,,,,,,,,,,,
2023-05-23T00:00:00,1794A,118.3606,31.3519,芜湖市,监测站,颗粒物(PM10),128,205,261,76,95,95,49,73,61,40,27,7,8,0.6,0.6
2023-05-23T00:00:00,1795A,118.3714,31.4134,芜湖市,科创中心,颗粒物(PM10),144,237,268,81,99,91,47,74,60,32,22,5,6,0.7,0.6
2023-05-23T00:00:00,1796A,118.3673,31.3131,芜湖市,四水厂,颗粒物(PM10),140,229,277,72,92,95,61,74,64,28,24,10,9,0.6,0.6
2023-05-23T00:00:00,1798A,118.5092,31.6837,马鞍山市,湖东路四小,颗粒物(PM10),117,184,262,80,96,90,56,76,61,26,23,8,8,0.6,0.7
2023-05-23T00:00:00,1799A,118.5024,31.6449,马鞍山市,开发区,颗粒物(PM10),129,207,296,68,92,87,47,75,49,30,24,6,8,0.4,0.6
2023-05-23T00:00:00,1800A,118.5228,31.7231,马鞍山市,慈湖,颗粒物(PM10),124,198,281,77,90,94,47,83,55,31,25,10,10,0.9,0.9
2023-05-23T00:00:00,1802A,118.6245,31.7241,马鞍山市,濮塘,"颗粒物(PM10),细颗粒物(PM2.5)",112,174,242,84,112,99,36,86,58,20,14,6,6,1.2,1.1
2023-05-23T00:00:00,1803A,115.9872,29.6815,九江市,十里,颗粒物(PM10),88,126,73,40,28,107,77,93,70,17,14,11,10,0.3,0.4
2023-05-23T00:00:00,1804A,115.9584,29.7046,九江市,茅山头,颗粒物(PM10),95,139,70,40,32,104,83,91,68,14,16,8,8,0.4,0.4
2023-05-23T00:00:00,1805A,115.9877,29.7295,九江市,西园,,,,,,,,,,,,,,,,
2023-05-23T00:00:00,1806A,116.0172,29.6547,九江市,五七二七厂,颗粒物(PM10),74,98,70,31,24,105,55,92,64,4,10,7,6,0.4,0.4
2023-05-23T00:00:00,1808A,115.9114,29.6038,九江市,综合工业园,细颗粒物(PM2.5),73,81,65,53,30,104,79,90,63,15,21,9,8,0.6,0.6
2023-05-23T00:00:00,1809A,116.0721,29.7535,九江市,石化总厂,颗粒物(PM10),104,158,90,43,30,100,70,91,75,16,12,7,6,0.5,0.5
2023-05-23T00:00:00,1810A,115.9773,29.5698,九江市,庐山气象台,,36,36,19,25,12,112,109,103,94,4,5,7,7,0.8,0.9
2023-05-23T00:00:00,1812A,112.3931,34.6516,洛阳市,市委党校,,48,48,35,25,19,112,67,106,94,20,8,2,2,0.5,0.5
2023-05-23T00:00:00,1814A,112.4657,34.6871,洛阳市,豫西宾馆,颗粒物(PM10),60,69,43,31,19,121,52,114,95,39,13,3,2,0.7,0.5
2023-05-23T00:00:00,1815A,112.494,34.6886,洛阳市,河南林校,,47,47,34,23,20,121,71,113,98,22,13,8,8,0.4,0.4
2023-05-23T00:00:00,1816A,112.3844,34.623,洛阳市,开发区管委会,,42,40,34,29,17,123,51,113,91,24,9,3,3,0.2,0.1
2023-05-23T00:00:00,1817A,112.4267,34.6258,洛阳市,市委新办公区,,47,47,33,29,19,121,56,113,97,31,12,6,6,0.4,0.3
2023-05-23T00:00:00,1818A,114.4839,36.0621,安阳市,棉研所,颗粒物(PM10),65,80,55,16,16,131,23,118,81,71,21,41,11,0.5,0.5
2023-05-23T00:00:00,1819A,114.3551,36.1017,安阳市,红庙街,颗粒物(PM10),64,77,59,26,16,121,38,114,89,46,15,6,7,0.9,0.9
2023-05-23T00:00:00,1820A,114.361,36.0681,安阳市,银杏小区,颗粒物(PM10),60,70,55,24,25,127,51,120,94,44,13,12,12,0.7,0.5
2023-05-23T00:00:00,1824A,114.3389,34.7781,开封市,肿瘤医院,,,,51,48,20,136,4,130,85,78,15,6,6,0.9,0.7
2023-05-23T00:00:00,1826A,114.2885,34.7965,开封市,世纪星幼儿园,颗粒物(PM10),61,71,42,18,17,128,17,122,81,45,14,4,5,0.8,0.5
2023-05-23T00:00:00,1828A,113.227,35.2125,焦作市,市环保局,,44,44,44,10,11,137,76,128,109,27,16,5,7,0.5,0.5
2023-05-23T00:00:00,1830A,113.1992,35.2590,焦作市,影视城,,37,35,28,12,15,139,117,126,121,7,9,11,11,0.7,0.8
2023-05-23T00:00:00,1832A,113.3257,33.742,平顶山市,新华旅馆,颗粒物(PM10),57,63,44,25,17,132,46,122,95,56,14,10,5,0.6,0.4
2023-05-23T00:00:00,1833A,113.2919,33.737,平顶山市,规划设计院,颗粒物(PM10),59,68,43,24,15,127,30,119,86,72,15,11,7,0.3,0.2
2023-05-23T00:00:00,1834A,113.182,33.774,平顶山市,平顶山工学院,颗粒物(PM10),54,58,39,17,12,128,75,121,108,25,10,14,6,0.3,0.3
2023-05-23T00:00:00,1835A,111.1922,34.7752,三门峡市,市政府,,38,38,31,15,14,128,43,119,88,34,16,7,10,0.4,0.4
2023-05-23T00:00:00,1836A,111.1587,34.7942,三门峡市,开发区,,41,41,30,16,13,130,57,118,99,21,12,6,7,0.6,0.6
2023-05-23T00:00:00,1838A,111.143,34.7955,三门峡市,风景区,,31,31,27,15,13,140,71,126,109,16,13,8,11,0.4,0.4
2023-05-23T00:00:00,1840A,111.2992,30.6981,宜昌市,白龙岗,,14,14,16,5,4,76,18,67,45,23,19,7,7,0.5,0.5
2023-05-23T00:00:00,1841A,111.3549,30.6465,宜昌市,伍家岗,,16,15,21,9,9,74,24,67,45,32,23,5,6,0.5,0.6
2023-05-23T00:00:00,1842A,111.2628,30.6961,宜昌市,点军区,,29,29,19,7,7,78,13,68,43,21,15,6,6,0.5,0.5
2023-05-23T00:00:00,1843A,111.3275,30.7819,宜昌市,夷陵区,,19,19,17,9,4,78,28,72,53,17,13,5,6,0.5,0.5
2023-05-23T00:00:00,1844A,112.2494,30.3197,荆州市,市图书馆,,20,15,28,14,15,110,53,103,89,40,14,6,6,0.5,0.5
2023-05-23T00:00:00,1845A,112.2008,30.3544,荆州市,市委党校,,28,27,30,19,14,111,64,102,85,20,13,6,6,0.5,0.4
2023-05-23T00:00:00,1847A,113.1094,29.3578,岳阳市,南湖风景区,颗粒物(PM10),56,62,53,28,23,101,75,91,66,15,13,6,7,0.5,0.3
2023-05-23T00:00:00,1848A,113.1493,29.4251,岳阳市,城陵矶,颗粒物(PM10),57,64,52,22,20,98,74,86,55,24,30,6,6,0.5,0.5
2023-05-23T00:00:00,1849A,113.1497,29.3575,岳阳市,开发区,颗粒物(PM10),57,63,47,28,22,99,32,88,63,35,16,7,7,0.7,0.6
2023-05-23T00:00:00,1850A,113.2621,29.4758,岳阳市,云溪区,颗粒物(PM10),53,56,48,26,20,100,46,91,69,14,11,8,7,0.6,0.5
2023-05-23T00:00:00,1851A,112.9943,29.4402,岳阳市,君山区,,40,40,47,24,25,112,76,106,90,16,14,7,6,0.5,0.5
2023-05-23T00:00:00,1852A,113.2117,29.355,岳阳市,金凤水库,颗粒物(PM10),51,52,45,26,19,93,40,84,58,13,9,1,5,0.7,0.6
2023-05-23T00:00:00,1854A,111.6975,28.9703,常德市,市二中,,27,24,34,15,15,116,85,115,107,12,6,6,5,0.3,0.2
2023-05-23T00:00:00,1857A,111.7158,29.1456,常德市,白鹤山,,29,29,30,15,13,112,70,105,93,5,3,2,3,0.3,0.3
2023-05-23T00:00:00,1858A,110.5319,29.1217,张家界市,永定新区,,32,32,22,14,11,92,36,89,64,16,10,3,3,0.1,0.1
2023-05-23T00:00:00,1859A,110.4697,29.1242,张家界市,电业局,,33,33,27,21,16,93,56,88,79,14,7,4,4,0.2,0.2
2023-05-23T00:00:00,1860A,110.5594,29.3547,张家界市,未央路,,27,27,22,14,13,93,25,87,56,10,7,3,3,0.1,0.1
2023-05-23T00:00:00,1861A,110.4417,29.315,张家界市,袁家界,,29,29,15,15,8,78,42,71,55,4,6,7,7,0.6,0.6
2023-05-23T00:00:00,1862A,110.4144,25.3167,桂林市,电子科大尧山校区,,30,25,19,12,14,108,93,98,94,6,6,4,4,0.6,0.7
2023-05-23T00:00:00,1863A,110.2819,25.2697,桂林市,监测站,,50,50,42,13,16,118,79,83,74,4,5,5,5,1.0,0.7
2023-05-23T00:00:00,1864A,110.3089,25.2708,桂林市,龙隐路小学,,25,19,20,8,15,97,79,80,79,5,7,5,6,0.5,0.6
2023-05-23T00:00:00,1865A,110.2869,25.2178,桂林市,八中,,24,14,19,4,10,105,76,78,76,5,7,3,4,0.3,0.3
2023-05-23T00:00:00,1866A,109.2262,21.588,北海市,牛尾岭水库,,40,40,45,22,24,98,59,94,86,9,9,6,8,0.4,0.5
2023-05-23T00:00:00,1867A,109.1436,21.4086,北海市,海滩公园,,41,41,53,17,22,121,105,119,115,5,5,3,3,0.4,0.5
2023-05-23T00:00:00,1868A,109.0981,21.4661,北海市,新市环保局,,36,36,40,24,21,112,101,104,104,4,4,1,1,0.6,0.6
2023-05-23T00:00:00,1869A,109.1778,21.5233,北海市,北海工业园,,40,40,44,24,24,111,100,102,102,4,5,4,4,0.6,0.6
2023-05-23T00:00:00,1870A,109.4856,24.3895,柳州市,柳东小学,,16,14,33,7,20,91,50,86,58,6,7,6,6,0.4,0.5
2023-05-23T00:00:00,1871A,109.4157,24.3277,柳州市,环保监测站,,35,35,38,15,26,99,36,84,54,11,10,4,4,0.5,0.5
2023-05-23T00:00:00,1872A,109.389,24.341,柳州市,河西水厂,,32,27,38,22,25,89,9,72,18,48,23,29,11,2.6,1.3
2023-05-23T00:00:00,1873A,109.4311,24.2921,柳州市,市四中,,18,11,30,12,25,100,52,79,58,6,8,8,7,0.6,0.7
2023-05-23T00:00:00,1874A,109.4006,24.3631,柳州市,市九中,,15,13,38,5,19,96,46,85,52,12,10,10,8,0.4,0.5
2023-05-23T00:00:00,1875A,109.4958,24.3134,柳州市,古亭山,,15,14,32,7,21,94,48,74,56,4,8,4,2,0.3,0.4
2023-05-23T00:00:00,1876A,109.5078,18.2489,三亚市,河东子站,,30,30,32,20,18,79,71,71,71,6,3,2,2,0.6,0.4
2023-05-23T00:00:00,1877A,109.4964,18.2681,三亚市,河西子站,,36,36,31,21,17,76,71,71,71,6,6,3,3,0.4,0.4
2023-05-23T00:00:00,1878A,104.7778,31.4741,绵阳市,富乐山,颗粒物(PM10),56,61,37,35,24,131,68,118,104,24,14,3,3,0.4,0.3
2023-05-23T00:00:00,1879A,104.7563,31.4535,绵阳市,市人大,细颗粒物(PM2.5),59,61,37,42,24,123,69,110,98,23,18,7,6,0.5,0.4
2023-05-23T00:00:00,1880A,104.6697,31.4668,绵阳市,高新区自来水公司,颗粒物(PM10),59,67,45,34,28,126,68,113,101,23,14,6,5,0.4,0.3
2023-05-23T00:00:00,1881A,104.7287,31.5075,绵阳市,三水厂,颗粒物(PM10),57,63,40,35,24,125,69,112,100,27,16,4,4,0.4,0.4
2023-05-23T00:00:00,1882A,104.563,28.793,宜宾市,石马中学,,32,32,23,19,14,116,64,108,95,21,12,3,3,0.3,0.3
2023-05-23T00:00:00,1883A,104.6201,28.7728,宜宾市,市委,,33,33,25,16,13,113,73,100,89,23,16,7,7,0.4,0.4
2023-05-23T00:00:00,1884A,104.6055,28.793,宜宾市,宜宾四中,,34,34,28,21,14,113,69,102,88,27,18,8,7,0.2,0.3
2023-05-23T00:00:00,1885A,104.639,28.7562,宜宾市,市政府,,33,33,25,20,14,122,69,108,96,31,16,6,6,0.4,0.4
2023-05-23T00:00:00,1886A,104.5742,28.7199,宜宾市,黄金嘴,,29,29,24,15,12,118,59,105,93,27,14,7,6,0.3,0.3
2023-05-23T00:00:00,1888A,101.6891,26.571,攀枝花市,弄弄坪,颗粒物(PM10),58,65,43,27,18,156,103,148,122,23,16,48,22,2.6,1
2023-05-23T00:00:00,1889A,101.5769,26.5928,攀枝花市,河门口,,40,35,33,13,13,144,126,142,136,11,14,8,10,0.5,0.7
2023-05-23T00:00:00,1890A,101.7169,26.585,攀枝花市,炳草岗,,38,31,37,18,15,162,120,152,134,11,21,12,10,1.2,1.1
2023-05-23T00:00:00,1891A,101.7369,26.5008,攀枝花市,仁和,,43,43,30,21,16,149,116,144,132,8,11,6,7,0.6,0.6
2023-05-23T00:00:00,1893A,105.4324,28.9634,泸州市,九狮山,,42,42,27,27,16,117,58,98,68,22,15,8,5,0.2,0.1
2023-05-23T00:00:00,1894A,105.4427,28.9063,泸州市,小市上码头,,46,46,24,27,14,115,82,105,98,14,10,16,8,0.6,0.5
2023-05-23T00:00:00,1895A,105.4241,28.8573,泸州市,兰田宪桥,,50,50,24,28,13,111,74,105,96,15,7,9,9,0.7,0.6
2023-05-23T00:00:00,1896A,105.4379,28.8833,泸州市,市环监站,,43,43,20,17,9,106,80,96,89,22,19,20,6,0.5,0.5
2023-05-23T00:00:00,1901A,104.4239,31.1208,德阳市,东山公园,颗粒物(PM10),59,68,38,35,23,108,34,90,75,53,20,2,2,0.6,0.4
2023-05-23T00:00:00,1902A,104.3826,31.1317,德阳市,西小区,颗粒物(PM10),68,86,55,43,27,105,51,92,73,31,22,1,2,0.3,0.2
2023-05-23T00:00:00,1904A,104.3553,31.1091,德阳市,耐火材料厂,颗粒物(PM10),61,71,44,41,27,113,53,98,78,26,17,1,2,0.4,0.3
2023-05-23T00:00:00,1905A,106.056,30.8064,南充市,西山风景区,,21,18,11,10,7,113,66,101,83,9,7,4,4,0.3,0.2
2023-05-23T00:00:00,1906A,106.0789,30.8023,南充市,南充市委,,28,20,20,19,11,112,66,101,82,10,11,8,8,0.3,0.3
2023-05-23T00:00:00,1907A,106.1031,30.8217,南充市,南充炼油厂,,20,18,24,9,7,113,64,101,81,12,12,8,9,0.5,0.4
2023-05-23T00:00:00,1908A,106.1064,30.7856,南充市,高坪区监测站,,20,15,18,1,9,110,61,100,78,16,14,8,8,0.3,0.3
2023-05-23T00:00:00,1909A,106.0642,30.7636,南充市,嘉陵区环保局,,23,21,18,9,8,123,71,109,86,13,13,9,7,0.4,0.3
2023-05-23T00:00:00,1910A,106.1087,30.8388,南充市,市环境监测站,,28,24,22,19,14,114,64,101,80,12,15,7,8,0.4,0.4
2023-05-23T00:00:00,1911A,106.9222,27.6869,遵义市,丁字口,,19,19,24,13,11,69,53,64,56,13,13,7,6,0.6,0.6
2023-05-23T00:00:00,1912A,106.9242,27.7019,遵义市,凤凰山,,33,19,18,23,15,79,60,73,64,12,11,8,6,0.3,0.3
2023-05-23T00:00:00,1913A,106.8906,27.6486,遵义市,忠庄,,25,22,16,17,14,79,56,73,61,10,10,3,2,0.2,0.2
2023-05-23T00:00:00,1914A,106.9231,27.6506,遵义市,舟水桥,,26,18,13,18,19,76,56,69,63,8,11,3,2,0.4,0.4
2023-05-23T00:00:00,1915A,106.9178,27.72,遵义市,干田坝,,23,23,24,13,17,79,58,72,61,11,9,7,6,0.5,0.4
2023-05-23T00:00:00,1916A,103.7897,25.5035,曲靖市,环境监测站,,44,44,38,26,12,170,94,161,129,12,14,2,5,0.5,0.4
2023-05-23T00:00:00,1917A,103.8,25.5364,曲靖市,烟厂办公区,,44,44,45,19,16,186,78,174,134,17,19,7,12,0.5,0.4
2023-05-23T00:00:00,1918A,108.7197,34.3956,咸阳市,气象站,二氧化氮,52,50,38,19,13,130,4,114,72,104,31,7,6,0.4,0.2
2023-05-23T00:00:00,1919A,108.673,34.3155,咸阳市,实验中学,颗粒物(PM10),54,58,39,13,13,130,29,118,89,53,19,4,5,0.5,0.5
2023-05-23T00:00:00,1920A,108.7233,34.3617,咸阳市,师范学院,颗粒物(PM10),60,69,49,26,14,130,18,112,81,76,24,6,7,0.7,0.5
2023-05-23T00:00:00,1922A,109.0656,35.0994,铜川市,党校,颗粒物(PM10),54,57,45,12,15,129,9,108,65,59,28,10,11,0.6,0.6
2023-05-23T00:00:00,1923A,109.0697,35.0697,铜川市,王益区政府,,42,42,33,10,11,125,21,113,78,36,18,6,7,0.4,0.4
2023-05-23T00:00:00,1924A,108.9344,34.9058,铜川市,新区管委会,颗粒物(PM10),57,63,36,12,13,133,62,123,95,17,16,7,7,0.3,0.3
2023-05-23T00:00:00,1926A,109.4131,36.6275,延安市,枣园,,50,50,32,10,11,156,9,132,78,62,23,5,6,0.3,0.3
2023-05-23T00:00:00,1927A,109.4761,36.6028,延安市,延大医附院,颗粒物(PM10),53,56,34,17,13,144,6,122,70,73,25,4,5,0.5,0.4
2023-05-23T00:00:00,1929A,109.5056,36.6106,延安市,百米大道,颗粒物(PM10),55,60,38,21,14,141,13,120,74,66,27,7,7,0.6,0.4
2023-05-23T00:00:00,1930A,107.185,34.3063,宝鸡市,庙沟村,,28,28,25,10,7,128,72,114,105,21,6,7,7,0.2,0.1
2023-05-23T00:00:00,1931A,107.0708,34.3017,宝鸡市,竹园沟,,26,26,24,8,9,134,63,116,93,25,16,5,7,0.4,0.4
2023-05-23T00:00:00,1932A,107.1906,34.3672,宝鸡市,三陆医院,颗粒物(PM10),52,53,36,19,14,138,52,123,95,31,21,10,8,0.5,0.4
2023-05-23T00:00:00,1933A,107.1431,34.3547,宝鸡市,监测站,,38,38,32,15,11,132,65,120,94,24,15,6,7,0.2,0.2
2023-05-23T00:00:00,1934A,107.1186,34.3739,宝鸡市,技工学校,,43,43,32,17,11,131,62,119,96,16,12,5,6,0.3,0.3
2023-05-23T00:00:00,1935A,107.3906,34.3528,宝鸡市,陈仓区环保局家属楼,颗粒物(PM10),53,55,36,23,18,127,15,112,78,60,19,7,6,0.5,0.5
2023-05-23T00:00:00,1936A,107.2058,34.3497,宝鸡市,文理学院,颗粒物(PM10),53,55,33,25,9,135,45,124,94,34,15,8,6,0.5,0.4
2023-05-23T00:00:00,1937A,107.2386,34.3622,宝鸡市,三迪小学,颗粒物(PM10),55,60,35,27,19,130,53,120,91,33,19,8,6,0.4,0.3
2023-05-23T00:00:00,1938A,109.5293,34.5101,渭南市,农科所,,28,24,29,19,16,128,52,113,83,20,18,7,8,0.4,0.4
2023-05-23T00:00:00,1939A,109.4974,34.4877,渭南市,日报社,,31,31,29,21,14,134,20,118,74,49,28,5,5,0.4,0.4
2023-05-23T00:00:00,1940A,109.4636,34.493,渭南市,体育馆,,29,29,32,18,16,136,46,120,77,38,23,6,7,0.3,0.3
2023-05-23T00:00:00,1941A,109.4259,34.5023,渭南市,高新一小,,47,47,36,12,10,137,35,122,81,46,22,4,4,0.3,0.3
2023-05-23T00:00:00,1943A,102.1725,38.5339,金昌市,新川苑,颗粒物(PM10),98,145,76,29,22,124,93,114,106,12,16,7,37,0.6,0.7
2023-05-23T00:00:00,1944A,102.1692,38.5167,金昌市,天庆家园,颗粒物(PM10),80,110,67,39,28,129,99,122,114,9,15,8,29,0.5,0.6
2023-05-23T00:00:00,1945A,98.2908,39.7711,嘉峪关市,气象局,颗粒物(PM10),63,75,186,31,54,126,113,120,116,4,14,4,5,0.3,0.4
2023-05-23T00:00:00,1947A,106.3394,38.817,石嘴山市,沙湖旅游区,颗粒物(PM10),69,88,61,25,23,199,110,165,153,19,12,10,14,0.4,0.5
2023-05-23T00:00:00,1948A,106.3668,39.0145,石嘴山市,大武口朝阳西街,,,72,56,,28,169,61,149,133,59,25,16,23,0.5,0.4
2023-05-23T00:00:00,1949A,106.7704,39.2282,石嘴山市,惠农南大街,颗粒物(PM10),53,56,57,21,36,135,21,130,97,65,27,13,19,0.4,0.5
2023-05-23T00:00:00,1950A,106.7099,39.1325,石嘴山市,红果子镇惠新街,颗粒物(PM10),61,72,60,27,29,147,97,135,116,30,20,38,20,0.4,0.4
2023-05-23T00:00:00,1951A,84.895,45.6094,克拉玛依市,长征新村,,29,17,11,5,6,108,90,103,98,1,4,7,7,0.1,0.1
2023-05-23T00:00:00,1952A,84.8988,45.5893,克拉玛依市,南林小区,,29,4,12,15,7,111,91,105,99,5,10,3,3,0.2,0.2
2023-05-23T00:00:00,1954A,84.905,44.3396,克拉玛依市,独山子区,,31,9,17,8,8,116,99,110,109,7,9,7,7,0.3,0.3
2023-05-23T00:00:00,1955A,85.6979,46.098,克拉玛依市,乌尔禾区商贸楼,,15,15,17,6,8,113,40,104,80,9,4,10,9,0.2,0.2
2023-05-23T00:00:00,1956A,86.1472,41.7538,巴音郭楞州,孔雀公园,颗粒物(PM10),58,66,112,10,34,106,43,94,80,49,31,5,4,0.3,0.3
2023-05-23T00:00:00,1957A,86.1972,41.7166,巴音郭楞州,棉纺厂,,44,44,127,11,38,105,46,98,85,51,27,4,3,0.3,0.3
2023-05-23T00:00:00,1958A,86.2357,41.7173,巴音郭楞州,经济开发区,,37,37,114,3,31,120,90,115,109,15,15,2,2,0.2,0.3
2023-05-23T00:00:00,1961A,117.532,36.6868,济南市,东山小学,颗粒物(PM10),55,59,77,15,18,150,81,144,113,44,31,6,6,0.3,0.4
2023-05-23T00:00:00,1966A,120.0405,35.8735,青岛市,黄岛区4号,颗粒物(PM10),67,83,159,24,42,141,73,132,103,43,22,7,7,0.6,0.5
2023-05-23T00:00:00,1982A,122.0693,37.2174,威海市,文登开发区,颗粒物(PM10),54,58,133,17,26,144,110,131,128,13,15,6,6,0.4,0.4
2023-05-23T00:00:00,2031A,113.1817,27.9958,株洲市,云田中学,颗粒物(PM10),57,64,30,25,9,80,64,74,66,16,12,4,3,0.5,0.4
2023-05-23T00:00:00,2054A,114.1099,32.1059,信阳市,平桥分局,,47,47,41,28,19,125,44,114,85,26,17,6,7,0.4,0.5
2023-05-23T00:00:00,2064A,113.9956,32.1271,信阳市,南湾水厂,,23,23,43,12,14,125,60,120,108,7,6,6,6,0.4,0.4
2023-05-23T00:00:00,2065A,114.0775,32.1195,信阳市,市酿酒公司,,39,36,38,27,20,130,35,117,83,36,14,7,8,0.5,0.4
2023-05-23T00:00:00,2066A,114.0609,32.1399,信阳市,审计局,,38,37,48,26,21,130,40,119,84,36,17,8,8,0.6,0.5
2023-05-23T00:00:00,2067A,114.6613,33.6128,周口市,市环境监测站,,43,22,43,30,25,134,42,128,100,20,10,5,5,0.5,0.4
2023-05-23T00:00:00,2068A,114.6758,33.6347,周口市,周口师范,颗粒物(PM10),51,51,45,19,18,129,54,121,99,37,17,4,5,0.5,0.5
2023-05-23T00:00:00,2069A,114.6546,33.5979,周口市,市运管处,颗粒物(PM10),53,56,49,24,17,135,58,128,103,45,15,10,8,0.5,0.5
2023-05-23T00:00:00,2070A,114.6369,33.6406,周口市,川汇区环保局,,49,49,44,17,18,133,77,126,103,23,15,9,9,0.5,0.4
2023-05-23T00:00:00,2075A,117.6336,24.4674,漳州市,九湖,,,,36,,18,,,,,,12,,4,,
2023-05-23T00:00:00,2160A,112.85,35.5051,晋城市,自来水公司,,42,42,30,14,9,135,28,122,103,44,18,7,5,0.2,0.1
2023-05-23T00:00:00,2161A,112.8318,35.4936,晋城市,白云商贸,颗粒物(PM10),53,55,47,14,8,129,34,118,95,36,15,5,5,0.7,0.6
2023-05-23T00:00:00,2162A,112.8508,35.4887,晋城市,市环保局,,49,49,34,19,12,133,28,120,101,50,16,9,8,0.6,0.5
2023-05-23T00:00:00,2163A,112.8676,35.4897,晋城市,技术学院,,48,48,40,14,12,128,53,117,100,39,14,6,7,0.5,0.5
2023-05-23T00:00:00,2165A,112.8453,35.546,晋城市,白马寺,,33,33,31,12,14,122,99,111,110,19,14,7,6,0.6,0.7
2023-05-23T00:00:00,2166A,112.4397,39.3522,朔州市,平朔,颗粒物(PM10),97,144,62,36,18,111,11,97,73,67,28,9,9,0.6,0.5
2023-05-23T00:00:00,2167A,112.4575,39.3617,朔州市,朔唯,颗粒物(PM10),103,156,71,34,19,114,22,98,74,68,35,8,9,0.4,0.3
2023-05-23T00:00:00,2168A,112.4258,39.3197,朔州市,区政府,颗粒物(PM10),65,79,65,31,20,116,48,106,89,28,24,8,12,0.4,0.4
2023-05-23T00:00:00,2169A,112.4072,39.3278,朔州市,市环保局,颗粒物(PM10),56,62,63,28,32,107,68,97,85,19,24,5,12,0.4,0.5
2023-05-23T00:00:00,2170A,112.4272,39.3681,朔州市,市二中,颗粒物(PM10),112,173,81,44,26,115,10,102,72,68,32,7,10,0.5,0.4
2023-05-23T00:00:00,2171A,112.7532,37.6945,晋中市,锦纶小区,颗粒物(PM10),54,58,55,15,22,145,59,140,109,36,27,10,12,0.3,0.4
2023-05-23T00:00:00,2173A,112.7249,37.7067,晋中市,南都小区,颗粒物(PM10),60,69,57,32,24,142,62,138,105,33,25,12,12,0.6,0.7
2023-05-23T00:00:00,2174A,112.6991,37.6982,晋中市,榆次区政府,颗粒物(PM10),63,75,55,31,22,140,55,134,104,45,28,14,12,0.6,0.6
2023-05-23T00:00:00,2175A,110.9956,35.0147,运城市,运城中学,,45,45,26,18,13,127,77,120,102,13,8,6,6,0.5,0.5
2023-05-23T00:00:00,2178A,110.9686,35.0303,运城市,地区技校,颗粒物(PM10),52,54,34,19,11,128,31,120,91,46,11,4,4,0.7,0.4
2023-05-23T00:00:00,2179A,111.0414,35.1147,运城市,空港新区,颗粒物(PM10),56,61,33,22,19,130,58,122,87,23,14,7,8,0.5,0.5
2023-05-23T00:00:00,2181A,112.7383,38.4519,忻州市,开发区,,41,41,34,16,8,141,64,133,100,31,23,36,12,0.5,0.4
2023-05-23T00:00:00,2182A,112.7003,38.4928,忻州市,会展中心,,41,41,39,16,12,118,26,110,73,52,28,12,7,0.5,0.4
2023-05-23T00:00:00,2183A,111.1406,37.5211,吕梁市,环保局,颗粒物(PM10),61,71,51,13,13,118,6,94,60,74,35,8,8,0.4,0.4
2023-05-23T00:00:00,2185A,111.1297,37.5136,吕梁市,自来水公司,颗粒物(PM10),51,51,44,11,12,117,25,96,76,50,26,5,6,0.4,0.4
2023-05-23T00:00:00,2187A,106.8174,39.6973,乌海市,市林业局,颗粒物(PM10),59,68,56,22,20,148,80,132,118,26,14,24,12,0.6,0.6
2023-05-23T00:00:00,2188A,106.7907,39.6667,乌海市,中海勃湾学校,颗粒物(PM10),58,66,51,17,18,148,48,135,109,59,17,22,16,0.4,0.4
2023-05-23T00:00:00,2191A,122.2532,43.6801,通辽市,艺术职业学校,颗粒物(PM10),61,71,59,30,21,107,4,104,53,74,23,6,6,0.6,0.4
2023-05-23T00:00:00,2192A,119.7594,49.2261,呼伦贝尔市,区环保局,,32,28,28,22,16,102,66,100,85,13,14,5,5,0.4,0.4
2023-05-23T00:00:00,2195A,107.4212,40.761,巴彦淖尔市,附二中,颗粒物(PM10),51,52,46,11,11,125,92,116,106,20,15,4,6,0.4,0.4
2023-05-23T00:00:00,2196A,107.37,40.7372,巴彦淖尔市,市环保大楼,颗粒物(PM10),53,55,50,25,24,128,102,118,109,18,15,54,10,0.4,0.4
2023-05-23T00:00:00,2197A,113.1306,40.9923,乌兰察布市,集宁新区,,31,31,27,17,15,115,71,110,93,16,8,15,12,0.5,0.4
2023-05-23T00:00:00,2200A,122.0392,46.0656,兴安盟,胜华新制药厂,,43,43,33,15,14,105,58,99,80,22,18,2,2,0.3,0.3
2023-05-23T00:00:00,2201A,121.9504,46.0741,兴安盟,科右前旗环保局,,41,41,31,26,18,103,36,99,75,24,13,4,3,0.6,0.5
2023-05-23T00:00:00,2202A,116.1042,43.9317,锡林郭勒盟,市环保监测站,,20,20,25,9,6,97,28,94,62,24,11,6,6,0.2,0.2
2023-05-23T00:00:00,2203A,116.0781,43.9311,锡林郭勒盟,市政府,,39,23,26,27,15,95,36,92,59,29,18,8,7,0.2,0.2
2023-05-23T00:00:00,2204A,105.6467,38.8363,阿拉善盟,西城区西花园,,39,36,46,15,21,133,124,128,128,12,13,11,10,0.4,0.5
2023-05-23T00:00:00,2205A,105.6985,38.8411,阿拉善盟,蒙二幼,,42,42,35,25,20,137,127,132,132,11,10,10,7,0.2,0.2
2023-05-23T00:00:00,2206A,105.724,38.8516,阿拉善盟,环保局新楼,,41,27,32,18,20,137,131,130,130,8,8,12,10,0.4,0.4
2023-05-23T00:00:00,2207A,121.6094,41.998,阜新市,工业园区,颗粒物(PM10),76,102,76,39,26,106,6,104,52,60,29,8,7,0.9,0.7
2023-05-23T00:00:00,2208A,121.6697,42.0279,阜新市,长青街,,,,62,,23,104,,78,,,26,,8,,1.7
2023-05-23T00:00:00,2209A,121.6673,42.0705,阜新市,农业园区,细颗粒物(PM2.5),54,38,63,38,36,101,41,97,69,21,16,17,20,1.0,0.7
2023-05-23T00:00:00,2210A,121.6717,42.0224,阜新市,东苑,颗粒物(PM10),72,94,72,42,23,103,6,100,56,62,29,21,13,4.5,1.7
2023-05-23T00:00:00,2211A,121.6506,42.0498,阜新市,玉龙新城,颗粒物(PM10),54,58,58,25,24,109,5,104,48,46,24,6,6,1.1,0.6
2023-05-23T00:00:00,2212A,123.2,41.1953,辽阳市,宏伟区,,47,47,55,16,21,115,62,96,63,27,27,17,14,0.9,0.8
2023-05-23T00:00:00,2213A,123.1683,41.2495,辽阳市,新华园,,47,47,70,29,29,109,42,92,50,42,32,22,18,1.0,0.8
2023-05-23T00:00:00,2214A,123.2354,41.2639,辽阳市,滨河路,,38,36,64,26,37,116,57,101,62,28,30,7,10,0.6,0.7
2023-05-23T00:00:00,2215A,123.149,41.2991,辽阳市,铁西工业园,颗粒物(PM10),64,78,89,33,34,129,43,106,60,49,36,18,15,1.6,0.8
2023-05-23T00:00:00,2216A,123.8139,42.3022,铁岭市,汇工街西,细颗粒物(PM2.5),87,46,54,64,30,120,35,106,74,46,26,25,12,0.6,0.5
2023-05-23T00:00:00,2217A,123.8649,42.2923,铁岭市,水上乐园,,35,35,36,22,16,116,43,106,82,37,21,7,6,0.4,0.4
2023-05-23T00:00:00,2218A,123.8486,42.2867,铁岭市,银州路东段,颗粒物(PM10),62,73,43,42,33,106,35,92,73,52,24,9,8,0.4,0.4
2023-05-23T00:00:00,2219A,123.7153,42.2217,铁岭市,金沙江路北,,49,34,37,34,29,112,20,99,58,62,35,9,9,0.5,0.5
2023-05-23T00:00:00,2220A,120.4318,41.5881,朝阳市,西梁,颗粒物(PM10),52,53,51,25,17,104,4,100,47,57,31,10,11,0.9,0.8
2023-05-23T00:00:00,2221A,120.4521,41.5646,朝阳市,河畔小区,,37,37,52,21,19,108,21,104,73,40,20,8,10,0.6,0.6
2023-05-23T00:00:00,2222A,120.4176,41.5648,朝阳市,八里堡,颗粒物(PM10),64,77,61,31,21,111,6,107,51,62,34,6,9,1.0,0.9
2023-05-23T00:00:00,2223A,120.3806,41.5969,朝阳市,农业园区,细颗粒物(PM2.5),64,55,51,46,16,108,28,105,58,39,24,3,5,0.4,0.5
2023-05-23T00:00:00,2225A,124.4002,43.1713,四平市,一商场,颗粒物(PM10),51,52,45,20,17,113,17,105,77,70,25,7,7,0.5,0.3
2023-05-23T00:00:00,2226A,124.388,43.193,四平市,境园,,38,38,33,8,17,112,18,105,67,41,18,7,8,0.2,0.2
2023-05-23T00:00:00,2227A,125.1358,42.8845,辽源市,环保局,,33,33,27,20,18,119,15,112,66,47,26,6,7,0.6,0.5
2023-05-23T00:00:00,2229A,125.9358,41.7173,通化市,光明,,12,12,48,8,19,97,32,92,62,15,18,8,13,0.2,0.6
2023-05-23T00:00:00,2230A,125.9446,41.7325,通化市,铁路,,19,19,54,8,25,97,30,88,54,17,23,10,21,0.3,0.9
2023-05-23T00:00:00,2231A,126.4219,41.9171,白山市,喜丰,颗粒物(PM10),56,62,54,16,13,97,16,90,45,27,20,10,12,0.4,0.4
2023-05-23T00:00:00,2232A,126.4077,41.9419,白山市,环保局,,41,41,47,10,12,93,15,85,43,20,16,10,10,0.4,0.5
2023-05-23T00:00:00,2233A,124.8006,45.1214,松原市,江南,细颗粒物(PM2.5),117,106,36,88,19,114,3,110,54,60,22,9,6,1.2,0.4
2023-05-23T00:00:00,2234A,124.7965,45.1722,松原市,江北,,25,25,22,17,12,109,33,106,76,19,13,2,4,0.5,0.4
2023-05-23T00:00:00,2235A,122.7911,45.6077,白城市,洮北区环保局,,41,41,24,20,14,111,36,108,76,49,21,5,5,0.1,0.1
2023-05-23T00:00:00,2236A,122.8738,45.5725,白城市,市环保局,,39,38,45,16,14,104,6,100,59,78,32,6,5,0.4,0.3
2023-05-23T00:00:00,2237A,129.47,42.8883,延边朝鲜族自治州,妇幼医院,,37,37,29,14,12,94,45,89,69,25,13,8,8,0.5,0.5
2023-05-23T00:00:00,2238A,129.5055,42.9108,延边朝鲜族自治州,延边医院,,19,19,36,9,10,99,60,91,75,17,12,7,6,0.4,0.4
2023-05-23T00:00:00,2239A,129.3964,42.8881,延边朝鲜族自治州,朝阳川镇医院,,19,19,25,10,8,102,38,94,66,17,7,6,7,0.4,0.4
2023-05-23T00:00:00,2240A,130.9762,45.3001,鸡西市,环保局,颗粒物(PM10),66,82,30,38,20,84,9,79,28,49,21,6,5,0.7,0.5
2023-05-23T00:00:00,2243A,130.9429,45.3039,鸡西市,第一中学,,40,40,22,22,11,90,31,83,46,24,11,9,5,0.4,0.2
2023-05-23T00:00:00,2244A,130.2537,47.3416,鹤岗市,哈啤分公司,,33,22,20,23,12,87,39,82,58,18,10,10,11,0.3,0.3
2023-05-23T00:00:00,2245A,130.2684,47.3086,鹤岗市,斯达机电,,44,44,23,19,11,86,44,81,62,16,10,9,8,0.3,0.3
2023-05-23T00:00:00,2246A,130.3114,47.3388,鹤岗市,东山纸板厂,颗粒物(PM10),82,113,33,21,13,87,12,78,43,28,17,10,9,0.8,0.6
2023-05-23T00:00:00,2247A,130.1097,47.3382,鹤岗市,五号水库,,27,27,15,14,9,96,41,87,59,11,7,6,7,0.3,0.3
2023-05-23T00:00:00,2248A,131.1511,46.6937,双鸭山市,双合村,颗粒物(PM10),65,80,24,34,11,86,50,83,56,19,10,27,12,1.3,0.4
2023-05-23T00:00:00,2249A,131.1652,46.6191,双鸭山市,南小市,,18,14,19,9,9,82,56,80,62,5,7,4,4,0,0.1
2023-05-23T00:00:00,2250A,131.1524,46.6554,双鸭山市,环保局,,22,18,22,9,10,84,69,80,63,4,10,8,8,0.3,0.4
2023-05-23T00:00:00,2251A,131.12,46.5656,双鸭山市,苗圃,,21,21,15,5,8,95,64,90,72,5,5,2,3,0.3,0.2
2023-05-23T00:00:00,2252A,128.5159,47.4311,伊春市,环保局,,21,21,15,11,9,92,50,87,59,6,9,3,5,0.3,0.4
2023-05-23T00:00:00,2253A,128.9102,47.7412,伊春市,电力嘉园,,29,29,22,18,12,99,24,94,55,21,8,5,5,0.6,0.6
2023-05-23T00:00:00,2254A,129.5029,48.471,伊春市,汤旺河国家公园,,23,19,16,16,15,96,19,89,57,2,2,4,4,0.5,0.5
2023-05-23T00:00:00,2255A,130.2751,46.8028,佳木斯市,佳纺,,34,34,25,16,11,92,59,87,57,11,14,4,4,0.3,0.3
2023-05-23T00:00:00,2256A,130.3995,46.8307,佳木斯市,发电厂,,34,34,17,17,9,95,50,89,56,18,13,6,7,0.4,0.4
2023-05-23T00:00:00,2257A,130.3258,46.7975,佳木斯市,环保局,,36,36,22,19,17,85,31,80,61,38,17,5,4,0.5,0.5
2023-05-23T00:00:00,2258A,130.3648,46.8032,佳木斯市,十一中,,28,28,21,18,17,81,49,76,54,27,18,6,7,0.4,0.4
2023-05-23T00:00:00,2259A,130.3794,46.7588,佳木斯市,四丰,,,22,16,,8,134,97,125,104,5,6,1,1,0.5,0.5
2023-05-23T00:00:00,2262A,131.0518,45.8751,七台河市,新一中,,29,21,16,20,15,96,47,91,58,10,8,10,9,0.7,0.6
2023-05-23T00:00:00,2263A,127.4833,50.2524,黑河市,交通局,,32,32,20,18,10,83,39,78,41,14,17,5,4,0.5,0.5
2023-05-23T00:00:00,2264A,127.5144,50.2341,黑河市,环保局,,48,48,27,23,12,93,25,90,46,30,17,5,5,0.5,0.4
2023-05-23T00:00:00,2265A,127.5291,50.2472,黑河市,大黑河岛,,19,19,19,13,10,106,44,99,66,5,4,8,12,0.3,0.3
2023-05-23T00:00:00,2266A,126.9785,46.6365,绥化市,人和东街,细颗粒物(PM2.5),67,26,30,48,24,109,66,105,71,18,14,9,8,0.5,0.5
2023-05-23T00:00:00,2267A,126.964,46.6528,绥化市,党政办公中心,,30,25,21,21,21,120,77,115,101,20,10,6,6,0.4,0.4
2023-05-23T00:00:00,2269A,124.1069,50.4097,大兴安岭地区,科技局,,22,21,10,15,10,101,46,99,70,7,5,7,7,0.4,0.3
2023-05-23T00:00:00,2270A,117.396,32.939,蚌埠市,工人疗养院,颗粒物(PM10),75,100,145,49,57,129,73,121,109,30,13,9,6,0.5,0.5
2023-05-23T00:00:00,2271A,117.3605,32.9427,蚌埠市,百货大楼,颗粒物(PM10),74,98,151,40,60,132,96,124,114,17,12,3,3,0.4,0.4
2023-05-23T00:00:00,2273A,117.4185,32.8911,蚌埠市,蚌埠学院,颗粒物(PM10),80,110,158,45,64,124,63,114,95,27,13,5,5,0.4,0.4
2023-05-23T00:00:00,2274A,117.3533,32.9673,蚌埠市,淮上区政府,颗粒物(PM10),78,105,149,42,60,130,72,119,96,27,14,5,6,0.4,0.3
2023-05-23T00:00:00,2275A,117.3145,32.8977,蚌埠市,高新区,颗粒物(PM10),81,112,147,58,61,127,62,118,96,26,15,7,5,0.3,0.3
2023-05-23T00:00:00,2277A,116.8305,32.7727,淮南市,潘集区政府,细颗粒物(PM2.5),85,100,101,63,50,117,74,110,100,22,11,10,6,0.2,0.2
2023-05-23T00:00:00,2278A,117.0067,32.6524,淮南市,师范学院,颗粒物(PM10),87,124,142,53,59,120,66,108,94,28,14,9,5,0.3,0.2
2023-05-23T00:00:00,2279A,116.8569,32.5951,淮南市,谢家集区政府,颗粒物(PM10),73,96,106,32,45,120,56,113,102,43,16,4,5,0.2,0.2
2023-05-23T00:00:00,2280A,116.8281,32.633,淮南市,八公山区政府,颗粒物(PM10),64,78,111,32,44,111,94,108,106,11,12,6,7,0.2,0.2
2023-05-23T00:00:00,2281A,116.6325,32.6201,淮南市,焦岗湖风景区管理处,"颗粒物(PM10),细颗粒物(PM2.5)",57,63,80,40,45,104,82,97,90,12,14,9,9,0.1,0.1
2023-05-23T00:00:00,2282A,116.8004,33.975,淮北市,监测站,颗粒物(PM10),51,52,99,22,32,142,108,130,119,10,11,6,4,0.5,0.5
2023-05-23T00:00:00,2283A,116.8091,33.9007,淮北市,烈山区政府,颗粒物(PM10),77,103,68,37,30,151,47,136,109,55,18,10,6,0.7,0.6
2023-05-23T00:00:00,2284A,116.7856,33.9477,淮北市,职业技术学院,颗粒物(PM10),66,82,77,38,33,155,85,140,121,22,13,19,7,0.7,0.7
2023-05-23T00:00:00,2285A,117.8177,30.9412,铜陵市,市第四中学,颗粒物(PM10),146,242,217,93,83,99,37,78,58,32,19,16,5,0.4,0.4
2023-05-23T00:00:00,2286A,117.8059,30.9273,铜陵市,市公路局,颗粒物(PM10),137,223,222,95,96,107,41,85,61,25,17,9,7,1.1,0.7
2023-05-23T00:00:00,2287A,117.7807,30.9413,铜陵市,市新民污水厂,颗粒物(PM10),157,264,242,80,73,107,32,82,61,35,20,8,8,0.4,0.4
2023-05-23T00:00:00,2288A,117.7439,30.8792,铜陵市,市第九中学,颗粒物(PM10),158,265,242,91,95,108,35,79,48,19,17,4,4,0.4,0.3
2023-05-23T00:00:00,2289A,117.846,30.9413,铜陵市,车站新区,颗粒物(PM10),131,211,220,79,85,101,26,84,53,21,12,6,4,0.6,0.3
2023-05-23T00:00:00,2290A,117.8483,30.97,铜陵市,市职教基地,颗粒物(PM10),132,214,216,88,92,98,38,80,56,31,12,2,2,0.2,0.1
2023-05-23T00:00:00,2291A,117.0809,30.5177,安庆市,环科院,颗粒物(PM10),136,222,169,86,71,114,64,88,77,13,8,8,7,0.5,0.5
2023-05-23T00:00:00,2292A,117.0331,30.5119,安庆市,马山宾馆,颗粒物(PM10),135,220,167,80,65,113,61,88,81,21,16,9,8,0.6,0.6
2023-05-23T00:00:00,2294A,116.9896,30.6145,安庆市,安庆大学,颗粒物(PM10),93,136,148,53,55,112,20,88,63,32,10,8,8,0.4,0.4
2023-05-23T00:00:00,2295A,118.2903,29.6963,黄山市,延安路89号,细颗粒物(PM2.5),77,86,42,56,23,85,49,79,61,9,7,4,5,0.2,0.2
2023-05-23T00:00:00,2296A,118.327,29.7178,黄山市,黄山东路89号,颗粒物(PM10),58,65,35,33,18,83,46,78,58,6,7,4,4,0.3,0.4
2023-05-23T00:00:00,2297A,118.1371,30.2756,黄山市,黄山区政府5号楼,颗粒物(PM10),73,96,80,34,36,118,13,97,38,10,10,6,6,0.5,0.5
2023-05-23T00:00:00,2298A,118.3093,32.3153,滁州市,老年大学,颗粒物(PM10),60,69,242,35,84,119,60,111,92,13,15,7,7,0.2,0.2
2023-05-23T00:00:00,2299A,118.3244,32.2786,滁州市,人大宾馆,颗粒物(PM10),69,88,278,43,116,119,73,112,91,13,10,5,6,0.4,0.3
2023-05-23T00:00:00,2301A,115.8277,32.8929,阜阳市,市监测站,颗粒物(PM10),62,73,52,26,24,116,86,107,96,19,15,6,6,0.3,0.3
2023-05-23T00:00:00,2303A,115.8554,32.8605,阜阳市,开发区,颗粒物(PM10),62,74,61,35,23,118,71,111,89,24,16,7,7,0.4,0.4
2023-05-23T00:00:00,2307A,116.5079,31.737,六安市,监测大楼,颗粒物(PM10),71,91,114,37,51,81,72,76,73,6,9,3,3,0.3,0.2
2023-05-23T00:00:00,2308A,116.4738,31.7643,六安市,皖西学院,颗粒物(PM10),69,88,116,33,46,86,53,80,70,14,12,3,3,0.3,0.3
2023-05-23T00:00:00,2309A,116.4996,31.7905,六安市,朝阳厂,颗粒物(PM10),65,80,103,45,52,118,52,93,81,13,10,4,4,0.6,0.5
2023-05-23T00:00:00,2310A,116.5567,31.7886,六安市,开发区,颗粒物(PM10),79,108,140,42,58,105,61,88,76,13,16,3,6,0.5,0.4
2023-05-23T00:00:00,2311A,115.8072,33.8399,亳州市,污水处理厂,颗粒物(PM10),57,64,49,23,17,136,37,123,88,40,13,5,5,0.4,0.3
2023-05-23T00:00:00,2312A,115.7789,33.8518,亳州市,三国揽胜宫,颗粒物(PM10),56,61,55,24,18,136,70,125,104,27,11,5,5,0.4,0.4
2023-05-23T00:00:00,2314A,117.47,30.6618,池州市,池州学院,颗粒物(PM10),159,268,211,99,77,110,48,93,65,21,12,5,5,0.5,0.5
2023-05-23T00:00:00,2316A,118.7581,30.9454,宣城市,鳌峰子站,颗粒物(PM10),133,215,189,71,72,88,50,74,66,12,13,6,6,0.5,0.5
2023-05-23T00:00:00,2317A,118.7385,30.9743,宣城市,敬亭山子站,颗粒物(PM10),140,230,196,76,73,107,32,73,61,23,17,6,5,0.5,0.5
2023-05-23T00:00:00,2318A,118.7173,30.9427,宣城市,开发区子站,颗粒物(PM10),137,224,188,65,68,95,39,69,52,16,14,6,6,0.5,0.5
2023-05-23T00:00:00,2319A,119.0141,25.4325,莆田市,荔城区仓后路,,,,42,0,20,63,,49,48,6,18,6,7,0.6,0.6
2023-05-23T00:00:00,2320A,119.0015,25.4553,莆田市,莆田市监测站,,29,29,37,0,19,90,90,54,54,5,11,5,7,0.7,0.7
2023-05-23T00:00:00,2321A,119.1119,25.4561,莆田市,涵江区六中,,31,25,33,0,9,98,98,64,64,7,15,6,7,0.6,0.5
2023-05-23T00:00:00,2322A,119.1013,25.3215,莆田市,秀屿区政府,,32,15,30,0,18,102,102,66,66,1,12,6,8,0.7,0.8
2023-05-23T00:00:00,2323A,118.981,25.4792,莆田市,东圳水库,,,,28,,16,,,,,,9,,2,,
2023-05-23T00:00:00,2324A,117.6211,26.2625,三明市,三钢,,32,21,20,22,17,67,53,63,56,12,17,11,13,0.5,1.1
2023-05-23T00:00:00,2325A,117.635,26.2714,三明市,三明二中,,18,12,15,8,14,72,55,65,56,15,19,9,6,0.9,1
2023-05-23T00:00:00,2326A,117.6028,26.2378,三明市,三元区政府,,,34,18,,6,70,52,63,57,14,13,9,7,0.6,0.6
2023-05-23T00:00:00,2327A,117.7275,26.3108,三明市,洋溪,,,,13,,20,,,,,,19,,6,,
2023-05-23T00:00:00,2331A,118.0966,26.6761,南平市,茫荡山,,,,,,,,,,,,,,,,
2023-05-23T00:00:00,2332A,118.1681,26.6369,南平市,南平市监测站,,19,11,9,3,7,89,58,82,67,6,8,3,3,0.6,0.7
2023-05-23T00:00:00,2333A,118.1825,26.6489,南平市,南平铝业有限公司,,17,13,11,3,5,90,54,83,67,9,9,5,6,0.9,0.9
2023-05-23T00:00:00,2334A,118.1756,26.6272,南平市,南平七中,,17,17,11,4,6,92,52,85,64,7,7,4,4,0.5,0.5
2023-05-23T00:00:00,2335A,117.0189,25.1181,龙岩市,龙岩师专,,,,29,,15,,,,,,8,,2,,
2023-05-23T00:00:00,2336A,117.0217,25.1033,龙岩市,龙岩市监测站,,17,17,22,8,12,72,48,62,58,10,10,6,6,0.5,0.4
2023-05-23T00:00:00,2337A,117.0258,25.0661,龙岩市,闽西职业技术学院,,16,9,23,8,12,71,51,62,56,10,13,5,6,0.5,0.3
2023-05-23T00:00:00,2338A,117.0196,25.0306,龙岩市,龙岩学院,,17,17,23,7,10,72,25,58,46,11,6,2,3,0.4,0.3
2023-05-23T00:00:00,2339A,119.5001,26.6946,宁德市,金涵水库,,,,28,,6,,,,,,9,,2,,
2023-05-23T00:00:00,2341A,119.5388,26.6612,宁德市,宁德市监测站,,30,10,29,7,13,96,96,88,88,4,10,6,7,0.3,0.5
2023-05-23T00:00:00,2342A,117.3102,29.3867,景德镇市,王港中学,颗粒物(PM10),56,61,37,26,18,112,65,101,86,8,6,16,15,0.4,0.4
2023-05-23T00:00:00,2343A,117.2117,29.2933,景德镇市,老干部活动中心,颗粒物(PM10),79,107,77,37,25,89,66,79,78,5,8,3,4,0.3,0.3
2023-05-23T00:00:00,2344A,117.1894,29.2789,景德镇市,兽医站,颗粒物(PM10),74,97,49,36,19,96,70,91,84,9,9,5,7,0.5,0.5
2023-05-23T00:00:00,2345A,117.1547,29.2617,景德镇市,台达陶瓷,颗粒物(PM10),70,89,54,37,20,84,64,78,76,6,11,3,8,0.5,0.4
2023-05-23T00:00:00,2346A,117.2461,29.2956,景德镇市,陶研所,颗粒物(PM10),64,78,53,30,17,86,50,80,70,8,7,6,6,0.4,0.4
2023-05-23T00:00:00,2347A,114.0997,27.5002,萍乡市,武功山,,13,2,4,4,4,77,40,67,48,8,8,6,9,0.6,0.4
2023-05-23T00:00:00,2348A,113.8385,27.6434,萍乡市,中医院,,22,22,12,11,10,55,43,50,44,2,5,6,8,0.5,0.6
2023-05-23T00:00:00,2349A,113.8493,27.6253,萍乡市,市政府车库,,22,22,16,14,10,54,46,51,42,2,7,9,12,0.3,0.4
2023-05-23T00:00:00,2350A,113.8676,27.6435,萍乡市,市环保局,,24,24,15,9,9,62,41,51,38,6,11,9,11,0.4,0.5
2023-05-23T00:00:00,2351A,113.866,27.6198,萍乡市,安源区政府,,32,32,22,7,7,55,43,52,43,7,10,8,9,0.3,0.3
2023-05-23T00:00:00,2352A,115.0861,27.9317,新余市,北岗,,27,27,23,10,11,60,37,54,44,11,12,6,7,0.6,0.6
2023-05-23T00:00:00,2353A,114.9886,27.8431,新余市,飞宇,,34,34,30,14,13,79,26,64,46,24,14,5,5,0.4,0.5
2023-05-23T00:00:00,2354A,114.9231,27.8246,新余市,第二水厂,,24,24,22,6,9,77,36,64,46,14,11,5,6,0.4,0.4
2023-05-23T00:00:00,2355A,114.9308,27.8036,新余市,市气象局,,20,20,20,10,12,84,42,62,46,9,8,7,6,0.5,0.7
2023-05-23T00:00:00,2357A,116.9822,28.1136,鹰潭市,龙虎山,颗粒物(PM10),82,113,117,39,41,99,40,73,54,2,4,2,2,0.7,0.7
2023-05-23T00:00:00,2358A,117.0564,28.2642,鹰潭市,新监测站,颗粒物(PM10),82,113,101,34,35,101,42,82,66,6,2,11,11,0.4,0.4
2023-05-23T00:00:00,2359A,117.0311,28.2475,鹰潭市,财苑宾馆,颗粒物(PM10),79,107,118,26,32,99,48,79,70,10,5,5,6,0.3,0.3
2023-05-23T00:00:00,2360A,117.0222,28.2264,鹰潭市,体育馆,颗粒物(PM10),86,121,110,25,34,95,46,77,66,6,4,2,5,0.2,0.3
2023-05-23T00:00:00,2361A,117.0017,28.2131,鹰潭市,三川水表,颗粒物(PM10),92,134,128,40,42,94,50,73,63,2,8,2,3,0.8,0.6
2023-05-23T00:00:00,2362A,114.9017,25.9149,赣州市,通天岩,,,,,,,,,,,,,,,,
2023-05-23T00:00:00,2363A,114.9367,25.8664,赣州市,地委,,33,33,21,20,16,81,62,72,66,5,5,5,7,1.2,1.2
2023-05-23T00:00:00,2364A,114.9461,25.8481,赣州市,气象台,,26,26,20,12,11,84,71,76,71,3,6,5,5,0.6,0.7
2023-05-23T00:00:00,2365A,114.9322,25.8333,赣州市,市图书馆,,38,38,22,16,11,75,60,67,63,6,8,5,6,1.2,1.2
2023-05-23T00:00:00,2366A,114.8905,25.8471,赣州市,华坚鞋城,,32,32,28,19,12,67,61,62,59,3,5,6,7,1.1,1.1
2023-05-23T00:00:00,2367A,114.9754,27.0803,吉安市,红声器材厂,,36,36,29,18,15,80,52,73,61,8,9,10,10,0.5,0.5
2023-05-23T00:00:00,2368A,114.9658,27.0999,吉安市,市森林工业局,,27,27,24,14,14,73,48,69,56,6,7,5,6,0.4,0.6
2023-05-23T00:00:00,2369A,114.99,27.1312,吉安市,市环境监测站,,24,24,24,13,12,76,47,71,56,11,11,8,9,0.4,0.5
2023-05-23T00:00:00,2370A,115.0093,27.0968,吉安市,青原区法院,,31,31,28,17,17,79,55,74,60,10,12,11,11,0.6,0.7
2023-05-23T00:00:00,2371A,114.3408,27.8064,宜春市,槟榔水业,,21,21,17,13,9,46,37,43,35,7,9,10,36,1.0,0.5
2023-05-23T00:00:00,2373A,114.3956,27.7844,宜春市,市石油公司,,20,20,19,8,9,53,34,51,37,20,16,5,4,1.2,0.7
2023-05-23T00:00:00,2374A,114.3703,27.7914,宜春市,市气象局,,22,22,20,14,11,54,26,48,32,24,17,6,6,1.0,0.7
2023-05-23T00:00:00,2375A,114.4013,27.8074,宜春市,市广电局,,22,20,19,15,9,54,40,49,38,16,15,3,2,1.0,0.7
2023-05-23T00:00:00,2376A,116.2127,28.0814,抚州市,桐源党溪,颗粒物(PM10),82,113,75,35,26,126,112,120,116,3,2,3,3,0.6,0.7
2023-05-23T00:00:00,2377A,116.3544,27.9831,抚州市,市站,颗粒物(PM10),86,122,92,44,33,96,87,94,93,6,6,6,5,0.6,0.8
2023-05-23T00:00:00,2378A,116.3565,27.963,抚州市,血防站,颗粒物(PM10),87,124,94,43,30,96,87,93,92,4,5,5,5,0.4,0.6
2023-05-23T00:00:00,2379A,116.3564,28.0007,抚州市,采茶剧团,颗粒物(PM10),83,116,85,45,33,88,78,86,84,8,7,4,4,0.6,0.7
2023-05-23T00:00:00,2380A,116.385,27.9647,抚州市,医学分院,颗粒物(PM10),79,107,87,38,31,98,91,94,93,9,8,5,5,0.4,0.5
2023-05-23T00:00:00,2381A,118.005,28.4572,上饶市,百草园,,38,38,58,16,22,63,47,50,44,3,3,1,3,0.0,0
2023-05-23T00:00:00,2382A,117.9756,28.4436,上饶市,市监测站,,39,39,73,16,26,67,52,58,48,8,14,8,17,0.6,0.6
2023-05-23T00:00:00,2383A,117.9519,28.4628,上饶市,凤凰光学,,34,34,66,15,24,68,64,59,51,5,13,5,18,0.6,0.7
2023-05-23T00:00:00,2385A,114.17,35.9019,鹤壁市,市监测站,颗粒物(PM10),54,57,51,16,17,137,84,127,103,22,20,3,4,0.5,0.4
2023-05-23T00:00:00,2386A,114.2956,35.7511,鹤壁市,市交警支队,,46,46,46,10,9,132,33,122,89,56,25,4,4,1.1,0.5
2023-05-23T00:00:00,2387A,114.2878,35.7306,鹤壁市,迎宾馆,,44,44,38,17,14,136,21,127,99,62,23,9,8,1.0,0.8
2023-05-23T00:00:00,2389A,113.836,35.311,新乡市,环保西院,颗粒物(PM10),59,67,44,41,28,134,27,123,86,44,17,5,5,0.6,0.5
2023-05-23T00:00:00,2390A,113.884,35.272,新乡市,开发区,颗粒物(PM10),63,76,43,27,17,137,32,124,92,45,15,2,3,0.9,0.6
2023-05-23T00:00:00,2391A,113.883,35.303,新乡市,环保东院,颗粒物(PM10),56,62,42,22,21,140,18,127,93,65,21,4,6,1.0,0.4
2023-05-23T00:00:00,2392A,115.0312,35.7636,濮阳市,环保局,颗粒物(PM10),54,57,47,25,19,140,76,123,102,36,21,5,7,0.4,0.5
2023-05-23T00:00:00,2394A,115.0574,35.7609,濮阳市,油田运输公司,颗粒物(PM10),65,79,58,28,21,141,54,125,96,51,23,6,7,0.4,0.4
2023-05-23T00:00:00,2395A,115.0866,35.7754,濮阳市,油田物探公司,颗粒物(PM10),61,72,53,30,21,141,42,127,102,59,21,3,5,0.7,0.4
2023-05-23T00:00:00,2396A,113.8276,34.0159,许昌市,监测站,颗粒物(PM10),55,60,49,24,20,145,44,135,103,47,18,5,10,0.8,0.6
2023-05-23T00:00:00,2398A,113.7906,33.9953,许昌市,开发区,颗粒物(PM10),62,73,44,27,17,151,2,139,90,102,26,4,5,0.5,0.4
2023-05-23T00:00:00,2399A,114.051,33.5699,漯河市,三五一五工厂,颗粒物(PM10),56,61,45,22,17,140,32,131,85,62,17,8,10,0.5,0.4
2023-05-23T00:00:00,2400A,114.0055,33.5698,漯河市,漯河大学,颗粒物(PM10),62,73,43,37,18,142,28,135,99,66,15,8,8,0.5,0.3
2023-05-23T00:00:00,2401A,114.0138,33.5828,漯河市,市水利局,颗粒物(PM10),53,56,39,24,17,136,52,128,100,38,13,9,10,0.5,0.3
2023-05-23T00:00:00,2402A,114.0261,33.5698,漯河市,市广电局,,,112,42,,24,142,14,134,96,74,13,16,10,0.5,0.4
2023-05-23T00:00:00,2404A,112.5224,33.0122,南阳市,瓦房庄,颗粒物(PM10),54,58,38,20,16,108,39,101,75,45,21,7,6,0.6,0.6
2023-05-23T00:00:00,2405A,112.5003,32.9735,南阳市,汉画馆,,36,36,32,19,16,109,45,104,76,23,16,2,2,0.5,0.6
2023-05-23T00:00:00,2406A,112.5573,33.027,南阳市,气象站,颗粒物(PM10),51,51,27,21,13,102,29,96,71,49,19,5,5,0.5,0.3
2023-05-23T00:00:00,2407A,112.5481,32.9689,南阳市,理工学院,,41,41,33,22,15,113,58,106,83,21,16,4,4,0.4,0.5
2023-05-23T00:00:00,2408A,115.6702,34.4285,商丘市,环境监测站,颗粒物(PM10),53,56,48,24,20,135,44,126,98,38,13,8,8,0.5,0.4
2023-05-23T00:00:00,2409A,115.6458,34.4045,商丘市,粮食局,颗粒物(PM10),61,71,48,24,21,140,9,134,96,63,11,6,6,0.5,0.3
2023-05-23T00:00:00,2410A,115.6293,34.3948,商丘市,睢阳区环保局,颗粒物(PM10),69,87,52,45,17,141,2,135,86,80,18,5,5,0.5,0.4
2023-05-23T00:00:00,2420A,114.0189,32.9656,驻马店市,市一纸厂,颗粒物(PM10),60,69,40,25,17,131,14,121,80,49,11,2,3,0.5,0.2
2023-05-23T00:00:00,2421A,114.0114,33.015,驻马店市,市彩印厂,颗粒物(PM10),54,58,43,24,21,131,33,122,88,35,10,5,6,0.5,0.3
2023-05-23T00:00:00,2422A,113.9976,32.9771,驻马店市,天方二分厂,颗粒物(PM10),52,53,37,28,24,133,45,120,90,24,8,6,6,0.5,0.4
2023-05-23T00:00:00,2423A,115.0601,30.2313,黄石市,沈家营,颗粒物(PM10),68,86,54,39,23,89,48,75,60,13,12,6,6,0.4,0.3
2023-05-23T00:00:00,2424A,115.0817,30.2006,黄石市,陈家湾,颗粒物(PM10),65,80,53,35,23,98,40,80,62,13,8,4,4,0.8,0.6
2023-05-23T00:00:00,2426A,114.8988,30.2019,黄石市,铁山,颗粒物(PM10),80,109,67,50,28,93,31,80,62,31,11,5,4,0.7,0.7
