timepoint,stationcode,longitude,latitude,area,positionname,primarypollutant,aqi,pm10,pm10_24h,pm2_5,pm2_5_24h,o3,o3_24h,o3_8h,o3_8h_24h,no2,no2_24h,so2,so2_24h,co,co_24h
2025-10-15T0000,2566A,102.1879,31.914,阿坝藏族羌族自治州,州农科所,,,,,,,,,,,,,,,,
2025-10-15T0000,2568A,102.2502,31.8896,阿坝藏族羌族自治州,马师校,,28,24,14,19,14,28,,46,36,10,9,5,5,0.5,0.5
2025-10-15T0000,3994A,102.2165,31.9024,阿坝藏族羌族自治州,马尔康中学西区,,18,18,22,8,13,41,,63,54,3,4,5,5,0.6,0.6
2025-10-15T0000,2695A,80.292,41.1694,阿克苏地区,电视台,颗粒物(PM10),80,109,70,37,25,80,,103,89,12,16,6,6,0.3,0.4
2025-10-15T0000,2696A,80.2613,41.1551,阿克苏地区,艺术中心,颗粒物(PM10),76,102,63,37,28,87,,100,90,11,19,4,4,0.3,0.4
2025-10-15T0000,2204A,105.6467,38.8363,阿拉善盟,西城区西花园,,,,,,,,,,,,,,,,
2025-10-15T0000,2205A,105.6985,38.8411,阿拉善盟,蒙二幼,颗粒物(PM10),56,61,33,26,14,43,,86,56,17,12,8,9,0.8,0.7
2025-10-15T0000,2206A,105.724,38.8516,阿拉善盟,环保局新楼,,44,44,26,24,13,58,,95,64,11,9,9,8,0.7,0.5
2025-10-15T0000,2708A,88.1264,47.8517,阿勒泰地区,市站,颗粒物(PM10),51,52,26,3,8,77,,73,39,4,15,3,3,0.6,0.6
2025-10-15T0000,2630A,80.1161,32.5,阿里地区,阿里监测站,,23,6,3,3,3,27,,88,73,46,18,9,6,0.7,0.4
2025-10-15T0000,3192A,80.0903,32.5028,阿里地区,阿里藏医院,,30,6,16,3,6,96,,97,97,3,11,7,8,0.1,0.3
2025-10-15T0000,2642A,109.0318,32.6537,安康市,香溪洞,,,,,,,,,,,,,,,,
2025-10-15T0000,2644A,109.0072,32.6975,安康市,汉滨区检察院,,15,15,14,7,6,16,,49,33,12,9,5,5,0.7,0.7
2025-10-15T0000,4054A,109.0325,32.6913,安康市,市邮政管理局,,12,12,13,3,3,19,,47,36,17,10,5,5,0.7,0.7
2025-10-15T0000,2291A,117.0809,30.5177,安庆市,环科院,,43,39,26,30,18,23,,36,30,20,16,6,6,0.8,0.6
2025-10-15T0000,2292A,117.0331,30.5119,安庆市,马山宾馆,细颗粒物(PM2.5),52,43,23,36,20,26,,40,34,22,19,6,6,1.0,0.7
2025-10-15T0000,2294A,116.9896,30.6145,安庆市,安庆大学,,40,40,22,27,15,27,,39,32,19,17,4,4,0.6,0.5
2025-10-15T0000,3173A,117.0598,30.5351,安庆市,市人大,,49,45,26,34,18,26,,39,32,17,15,6,6,0.9,0.6
2025-10-15T0000,3122A,105.9606,26.2611,安顺市,伍家关,,,,43,15,20,41,,68,47,2,4,5,6,0.4,0.4
2025-10-15T0000,3123A,105.9408,26.2431,安顺市,凤凰山,,14,14,31,3,23,43,,69,48,3,8,5,6,0.5,0.7
2025-10-15T0000,3124A,105.9439,26.2564,安顺市,金钟山,,16,16,34,7,23,45,,75,53,2,6,8,11,0.6,0.7
2025-10-15T0000,3125A,105.8983,26.2481,安顺市,娄家坡,,14,10,24,3,21,42,,66,48,2,7,8,10,0.4,0.6
2025-10-15T0000,1818A,114.4839,36.0621,安阳市,棉研所,,,,,,,,,,,,,,,,
2025-10-15T0000,1819A,114.3551,36.1017,安阳市,红庙街,细颗粒物(PM2.5),53,48,39,37,24,29,,108,72,22,17,1,2,0.5,0.4
2025-10-15T0000,1820A,114.361,36.0681,安阳市,银杏小区,细颗粒物(PM2.5),53,49,39,37,26,33,,114,75,29,19,2,3,0.4,0.3
2025-10-15T0000,3141A,114.3922,36.0878,安阳市,信访局,,46,43,38,32,26,45,,114,80,15,20,2,3,0.5,0.5
2025-10-15T0000,3669A,114.4705,36.0637,安阳市,左辅环卫站,颗粒物(PM10),55,60,46,36,22,26,,112,65,43,23,3,2,0.5,0.5
2025-10-15T0000,3703A,114.2917,36.0949,安阳市,安钢职工学校,细颗粒物(PM2.5),59,62,45,42,28,38,,112,78,18,16,1,2,0.7,0.5
2025-10-15T0000,1748A,123.044,41.1196,鞍山市,深沟寺,细颗粒物(PM2.5),153,176,94,117,63,1,,82,40,60,32,6,8,1.3,1.3
2025-10-15T0000,1749A,123.011,41.0931,鞍山市,太阳城,细颗粒物(PM2.5),152,152,82,116,56,8,,82,44,44,24,9,10,1.3,1.2
2025-10-15T0000,1750A,123.0485,41.1442,鞍山市,太平,细颗粒物(PM2.5),196,240,124,147,72,7,,75,43,70,35,13,14,1.3,1.6
2025-10-15T0000,1751A,122.9642,41.0971,鞍山市,铁西三道街,细颗粒物(PM2.5),245,306,126,195,71,4,,79,48,80,42,99,16,5.2,1.9
2025-10-15T0000,1753A,123.022,41.0821,鞍山市,明达新区,细颗粒物(PM2.5),153,164,92,117,63,11,,83,46,40,25,11,12,1.4,2
2025-10-15T0000,1754A,123.1289,41.0228,鞍山市,千山,,,,51,,41,,,80,31,,12,,4,,1.1
2025-10-15T0000,4201A,122.9446,41.0826,鞍山市,兴盛南路290号,细颗粒物(PM2.5),216,260,119,166,69,7,,80,45,76,50,29,16,2.7,1.7
2025-10-15T0000,2195A,107.4212,40.761,巴彦淖尔市,附二中,细颗粒物(PM2.5),103,140,69,77,38,54,,94,72,29,19,16,10,0.8,0.6
2025-10-15T0000,2196A,107.37,40.7372,巴彦淖尔市,市环保大楼,细颗粒物(PM2.5),88,121,74,65,37,51,,86,64,26,20,14,11,0.8,0.7
2025-10-15T0000,1956A,86.1472,41.7538,巴音郭楞蒙古自治州,孔雀公园,颗粒物(PM10),51,51,41,6,13,63,,96,80,24,16,8,7,0.3,0.2
2025-10-15T0000,1957A,86.1972,41.7166,巴音郭楞蒙古自治州,棉纺厂,,40,40,43,10,10,80,,104,90,9,7,4,5,0.3,0.3
2025-10-15T0000,1958A,86.2357,41.7173,巴音郭楞蒙古自治州,经济开发区,,27,23,32,3,5,84,,98,90,2,3,5,6,0.3,0.3
2025-10-15T0000,2914A,106.7677,31.8794,巴中市,苏山坪,,,,,,,,,,,,,,,,
2025-10-15T0000,3181A,106.7768,31.8526,巴中市,市五中,,10,10,17,6,8,9,,27,16,8,10,7,8,0.8,0.9
2025-10-15T0000,3183A,106.7418,31.8654,巴中市,圣泉水务公司,,9,8,12,6,8,6,,22,11,16,14,7,7,0.8,0.8
2025-10-15T0000,3616A,106.7616,31.8344,巴中市,市中心医院,,11,11,16,7,8,4,,25,12,20,16,9,9,0.9,0.8
2025-10-15T0000,2235A,122.7911,45.6077,白城市,洮北区环保局,,21,21,29,12,12,30,,40,36,13,14,2,3,0.3,0.3
2025-10-15T0000,2236A,122.8738,45.5725,白城市,市环保局,,25,22,22,17,15,35,,43,41,9,9,4,4,0.4,0.4
2025-10-15T0000,2231A,126.4219,41.9171,白山市,喜丰,颗粒物(PM10),81,112,79,33,20,7,,77,24,48,29,6,9,0.8,0.8
2025-10-15T0000,2232A,126.4077,41.9419,白山市,环保局,,48,45,41,33,20,25,,71,34,22,21,6,8,0.7,0.7
2025-10-15T0000,2647A,104.1724,36.5446,白银市,第三小学,,36,36,49,18,23,35,,68,54,34,26,12,27,0.8,0.9
2025-10-15T0000,2648A,104.1465,36.5482,白银市,动力公司,颗粒物(PM10),56,62,40,22,31,13,,77,60,51,23,9,14,0.5,0.8
2025-10-15T0000,2512A,106.6103,23.9011,百色市,市监测站,,26,26,29,10,17,23,,51,38,12,13,9,9,0.4,0.6
2025-10-15T0000,2513A,106.6538,23.8859,百色市,市中心血站,,28,28,30,12,19,21,,52,38,17,19,7,7,0.8,0.7
2025-10-15T0000,3406A,106.6085,23.8798,百色市,祈福高中,,38,38,38,15,20,18,,43,33,19,19,6,6,0.5,0.6
2025-10-15T0000,2270A,117.396,32.939,蚌埠市,工人疗养院,,49,49,48,29,28,66,,68,62,8,11,5,6,0.6,0.5
2025-10-15T0000,2271A,117.3605,32.9427,蚌埠市,百货大楼,,44,44,39,27,28,61,,66,58,13,14,7,7,0.6,0.6
2025-10-15T0000,2273A,117.4185,32.8911,蚌埠市,蚌埠学院,,50,41,36,35,28,45,,63,56,26,14,5,5,0.6,0.5
2025-10-15T0000,2274A,117.3533,32.9673,蚌埠市,淮上区政府,颗粒物(PM10),52,53,43,29,30,70,,71,66,10,15,6,6,0.5,0.5
2025-10-15T0000,2275A,117.3145,32.8977,蚌埠市,高新区,细颗粒物(PM2.5),58,46,41,41,32,49,,64,56,26,19,7,7,0.6,0.6
2025-10-15T0000,3715A,117.3092,32.9314,蚌埠市,蚌埠田家炳中学,颗粒物(PM10),51,51,49,24,25,65,,65,60,12,15,2,4,0.6,0.5
2025-10-15T0000,1585A,109.8756,40.6532,包头市,市环境监测站,,21,17,52,3,25,67,,69,49,14,42,10,12,0.2,0.6
2025-10-15T0000,1587A,109.9991,40.5842,包头市,包头八中,,25,19,59,3,37,77,,78,70,13,37,6,13,0.4,0.8
2025-10-15T0000,1588A,109.8538,40.6821,包头市,青山宾馆,,24,17,47,3,35,75,,73,53,15,44,12,11,0.4,0.8
2025-10-15T0000,1589A,109.8642,40.6288,包头市,惠龙物流,,21,18,47,7,27,67,,75,65,19,33,11,11,0.5,0.8
2025-10-15T0000,1590A,110.0377,40.5546,包头市,东河鸿龙湾,,24,,47,7,29,75,,82,69,11,38,8,13,0.5,0.7
2025-10-15T0000,3283A,109.9154,40.5685,包头市,滨河大厦,,23,6,42,3,26,72,,84,76,11,26,13,10,0.4,0.6
2025-10-15T0000,3419A,109.9447,40.6261,包头市,包头市委党校,,25,17,53,6,28,80,,80,73,11,33,21,16,0.5,0.9
2025-10-15T0000,3683A,109.8331,40.6576,包头市,昆区政府,,22,17,52,3,38,69,,73,62,16,34,11,13,0.3,0.7
2025-10-15T0000,1930A,107.185,34.3063,宝鸡市,庙沟村,,,,,,,,,,,,,,,,
2025-10-15T0000,1931A,107.0708,34.3017,宝鸡市,竹园沟,,20,,38,7,27,61,,50,42,7,15,8,8,0.2,0.5
2025-10-15T0000,1932A,107.1906,34.3672,宝鸡市,三陆医院,,19,18,45,8,33,21,,60,41,38,28,6,6,0.7,0.8
2025-10-15T0000,1933A,107.1431,34.3547,宝鸡市,监测站,,15,,44,10,34,33,,58,47,22,23,4,7,0.7,0.7
2025-10-15T0000,1934A,107.1186,34.3739,宝鸡市,技工学校,,14,11,41,6,35,44,,57,48,11,22,5,6,0.8,0.8
2025-10-15T0000,1936A,107.2058,34.3497,宝鸡市,文理学院,,18,13,43,12,34,37,,57,47,22,26,5,5,0.7,0.8
2025-10-15T0000,1937A,107.2386,34.3622,宝鸡市,三迪小学,,19,,46,13,46,42,,57,48,17,27,5,5,0.8,0.9
2025-10-15T0000,4308A,107.3898,34.3601,宝鸡市,陈仓区北开路21号,,15,,49,9,33,48,,54,47,13,24,6,6,0.7,0.7
2025-10-15T0000,1051A,115.493,38.8632,保定市,游泳馆,颗粒物(PM10),60,69,60,41,34,21,,112,50,74,37,5,6,0.4,0.4
2025-10-15T0000,1052A,115.5213,38.8959,保定市,华电二区,细颗粒物(PM2.5),62,68,49,44,32,36,,113,68,51,28,4,6,0.8,0.6
2025-10-15T0000,1053A,115.4713,38.9108,保定市,接待中心,颗粒物(PM10),66,81,55,42,33,3,,94,54,64,28,2,4,0.8,0.5
2025-10-15T0000,1054A,115.4612,38.8416,保定市,地表水厂,颗粒物(PM10),70,90,66,38,27,4,,107,55,87,39,8,10,0.4,0.2
2025-10-15T0000,3581A,115.31981,38.95208,保定市,满城区生态环境分局,颗粒物(PM10),52,53,61,29,33,10,,112,55,54,32,1,3,0.3,0.3
2025-10-15T0000,3582A,115.47694,38.76408,保定市,清苑区第二中学,颗粒物(PM10),61,72,61,38,26,36,,114,56,56,33,2,3,0.5,0.4
2025-10-15T0000,3583A,115.62909,39.02311,保定市,徐水物探局,细颗粒物(PM2.5),60,64,43,43,34,4,,106,68,65,32,5,6,0.5,0.5
2025-10-15T0000,4004A,115.4202,38.8656,保定市,双鹰农机,颗粒物(PM10),60,69,58,36,35,24,,112,68,51,36,5,6,0.4,0.3
2025-10-15T0000,4034A,115.5150,38.8590,保定市,植保所站,颗粒物(PM10),68,86,68,44,35,8,,106,48,81,30,8,4,0.5,0.5
2025-10-15T0000,2594A,99.1678,25.1081,保山市,市环境监测站,,26,26,16,18,16,40,,67,51,5,7,6,6,0.4,0.4
2025-10-15T0000,2595A,99.1711,25.1328,保山市,市环保局,,22,16,19,15,10,47,,70,60,3,5,6,6,0.4,0.5
2025-10-15T0000,1866A,109.2262,21.588,北海市,牛尾岭水库,,11,11,12,6,6,27,,52,39,9,6,10,4,0.7,0.8
2025-10-15T0000,1867A,109.1436,21.4086,北海市,海滩公园,,16,16,18,3,4,42,,58,46,5,5,5,5,0.3,0.4
2025-10-15T0000,1868A,109.0981,21.4661,北海市,新市环保局,,14,14,14,7,6,40,,54,43,7,8,6,5,0.4,0.4
2025-10-15T0000,1869A,109.1778,21.5233,北海市,北海工业园,,22,22,22,10,10,32,,52,40,7,8,4,8,0.2,0.2
2025-10-15T0000,3400A,109.1911,21.4415,北海市,龙潭自来水厂,,12,12,16,7,11,37,,54,43,6,6,6,5,0.5,0.5
2025-10-15T0000,1001A,116.3621,39.8784,北京市,万寿西宫,颗粒物(PM10),52,53,46,26,28,17,,93,65,66,39,2,3,1.0,0.7
2025-10-15T0000,1002A,116.2202,40.2915,北京市,定陵,,,,,,,,,,,,,,,,
2025-10-15T0000,1003A,116.4174,39.9289,北京市,东四,颗粒物(PM10),54,58,54,30,28,23,,101,77,71,40,3,3,0.8,0.8
2025-10-15T0000,1004A,116.4072,39.8863,北京市,天坛,,34,34,37,18,22,3,,82,44,35,27,2,3,0.8,0.8
2025-10-15T0000,1005A,116.462,39.9365,北京市,农展馆,,46,46,46,20,25,1,,84,56,79,37,3,4,0.8,0.7
2025-10-15T0000,1006A,116.3392,39.9295,北京市,官园,颗粒物(PM10),54,58,50,26,27,27,,102,80,60,35,5,5,0.7,0.6
2025-10-15T0000,1007A,116.2878,39.9611,北京市,海淀万柳,,48,48,44,23,24,6,,80,55,66,32,3,4,0.6,0.6
2025-10-15T0000,1008A,116.6636,40.135,北京市,顺义新城,颗粒物(PM10),66,82,58,36,25,32,,78,52,45,37,5,4,0.5,0.5
2025-10-15T0000,1009A,116.6275,40.3275,北京市,怀柔镇,,48,45,55,33,37,41,,74,45,14,22,2,3,0.6,0.7
2025-10-15T0000,1010A,116.2296,40.217,北京市,昌平镇,,44,44,53,24,30,3,,84,49,53,25,2,3,0.7,0.7
2025-10-15T0000,1011A,116.3966,39.9821,北京市,奥体中心,,49,49,43,26,24,13,,92,66,75,36,4,4,0.7,0.5
2025-10-15T0000,3281A,115.9718,40.4529,北京市,延庆夏都,,50,50,45,28,26,46,,91,75,28,20,1,1,0.6,0.6
2025-10-15T0000,3418A,116.8336,40.4095,北京市,密云新城,,40,40,41,18,23,18,,87,38,18,21,1,1,0.5,0.5
2025-10-15T0000,3671A,116.088,39.9726,北京市,门头沟三家店,颗粒物(PM10),56,62,46,26,24,12,,86,44,30,26,3,3,0.6,0.6
2025-10-15T0000,3672A,116.1541,39.8204,北京市,丰台云岗,颗粒物(PM10),58,65,46,30,24,34,,94,62,42,27,4,4,0.5,0.5
2025-10-15T0000,3673A,116.6804,39.9081,北京市,通州东关,颗粒物(PM10),75,100,62,47,30,2,,87,44,82,51,3,3,0.4,0.4
2025-10-15T0000,3674A,115.9577,39.7603,北京市,房山燕山,,33,33,41,21,26,42,,84,68,11,15,1,2,0.5,0.6
2025-10-15T0000,3675A,116.4672,39.7733,北京市,大兴旧宫,颗粒物(PM10),59,68,38,34,20,46,,100,63,32,30,4,4,0.6,0.6
2025-10-15T0000,3694A,115.986,40.4563,北京市,延庆石河营,颗粒物(PM10),51,51,49,34,27,28,,91,66,18,17,3,3,0.6,0.6
2025-10-15T0000,3695A,116.6151,40.3053,北京市,怀柔新城,,36,36,47,24,34,40,,71,48,14,20,5,5,0.5,0.6
2025-10-15T0000,3696A,116.2545,39.8768,北京市,丰台小屯,,50,50,48,21,26,6,,86,52,57,32,2,3,0.7,0.7
2025-10-15T0000,3697A,116.84,40.3844,北京市,密云镇,,38,38,46,19,26,34,,88,52,17,24,5,5,0.5,0.6
2025-10-15T0000,4182A,116.1942,39.9158,北京市,八角北路9号,颗粒物(PM10),63,75,52,28,26,1,,96,62,79,36,1,2,0.7,0.5
2025-10-15T0000,4194A,117.0790,40.1518,北京市,洳河巡河路,,46,46,42,24,24,62,,95,71,13,17,2,3,0.4,0.5
2025-10-15T0000,1761A,123.8275,41.3064,本溪市,大峪,颗粒物(PM10),64,78,74,40,36,4,,92,41,31,27,8,11,1.4,1.5
2025-10-15T0000,1762A,123.7567,41.3325,本溪市,溪湖,颗粒物(PM10),102,153,107,70,47,8,,96,46,38,35,7,10,1.5,1.7
2025-10-15T0000,1763A,123.7169,41.3094,本溪市,彩屯,细颗粒物(PM2.5),98,131,103,73,64,5,,87,28,38,39,7,12,1.4,2
2025-10-15T0000,1764A,123.7669,41.2864,本溪市,东明,颗粒物(PM10),67,84,77,42,39,1,,90,39,49,37,8,12,1.5,1.8
2025-10-15T0000,1765A,123.7992,41.2664,本溪市,新立屯,,50,48,69,35,39,15,,70,10,36,43,7,12,1.2,1.9
2025-10-15T0000,1766A,123.8142,41.3472,本溪市,威宁,细颗粒物(PM2.5),82,80,69,60,45,1,,75,20,31,33,7,9,1.5,1.3
2025-10-15T0000,2587A,105.2864,27.3125,毕节市,八中,,29,26,34,20,30,42,,72,62,8,8,8,9,0.5,0.6
2025-10-15T0000,2588A,105.31,27.2944,毕节市,师专,,23,22,37,16,27,44,,64,52,9,12,8,10,0.5,0.7
2025-10-15T0000,4263A,105.3688,27.3598,毕节市,工业大道,,20,20,30,14,24,44,,76,65,10,8,8,9,0.6,0.7
2025-10-15T0000,1629A,118.0018,37.3617,滨州市,第二水厂,"颗粒物(PM10),细颗粒物(PM2.5)",57,63,58,40,31,89,,131,95,20,30,8,9,0.4,0.4
2025-10-15T0000,1630A,117.9776,37.393,滨州市,北中新校,颗粒物(PM10),57,63,48,31,24,114,,139,102,21,27,12,11,0.5,0.7
2025-10-15T0000,3514A,117.9378,37.3956,滨州市,中海酒店,颗粒物(PM10),54,58,43,36,26,111,,136,106,16,27,5,7,0.7,0.6
2025-10-15T0000,3515A,117.9378,37.3553,滨州市,开发区一中,细颗粒物(PM2.5),70,68,57,51,28,104,,144,115,23,30,7,11,0.8,0.8
2025-10-15T0000,3516A,118.0917,37.694,滨州市,金海六路,细颗粒物(PM2.5),67,80,59,48,26,73,,134,97,38,35,2,14,0.7,0.6
2025-10-15T0000,4028A,117.9956,37.3753,滨州市,滨州市西街道办事处,细颗粒物(PM2.5),58,48,47,41,32,102,,131,104,24,29,8,8,0.9,1
2025-10-15T0000,2311A,115.8072,33.8399,亳州市,污水处理厂,细颗粒物(PM2.5),62,51,33,44,27,9,,61,26,36,18,19,8,0.6,0.4
2025-10-15T0000,2312A,115.7789,33.8518,亳州市,三国揽胜宫,细颗粒物(PM2.5),63,54,34,45,26,7,,64,34,35,11,7,5,0.9,0.8
2025-10-15T0000,3332A,115.7633,33.8034,亳州市,亳州学院,细颗粒物(PM2.5),54,47,33,38,25,28,,65,46,23,13,6,5,0.7,0.5
2025-10-15T0000,2693A,82.0485,44.8556,博尔塔拉蒙古自治州,市党校,,39,33,31,27,27,61,,63,62,7,9,2,3,0.2,0.3
2025-10-15T0000,2694A,82.0806,44.8969,博尔塔拉蒙古自治州,市环保局,,34,34,50,16,17,54,,59,58,13,13,7,8,0.3,0.3
2025-10-15T0000,1071A,116.8842,38.2991,沧州市,沧县城建局,细颗粒物(PM2.5),74,84,54,54,32,55,,125,79,33,41,4,5,0.5,0.4
2025-10-15T0000,1072A,116.8584,38.3254,沧州市,电视转播站,细颗粒物(PM2.5),67,80,45,48,26,68,,121,84,27,27,1,2,0.5,0.4
2025-10-15T0000,1073A,116.8709,38.3228,沧州市,市环保局,细颗粒物(PM2.5),80,85,51,59,38,61,,118,86,31,29,3,4,0.4,0.3
2025-10-15T0000,3324A,116.8136,38.3004,沧州市,河北水利电力学院,颗粒物(PM10),57,63,43,38,23,80,,118,90,29,41,7,6,0.5,0.4
2025-10-15T0000,2622A,97.1806,31.1273,昌都市,昌都监测站,,20,20,11,12,8,49,,83,63,12,8,2,2,0.3,0.3
2025-10-15T0000,3719A,97.1714,31.1406,昌都市,昌都会议中心,,20,18,12,6,6,61,,92,76,6,4,4,3,0.1,0.2
2025-10-15T0000,2690A,88.1236,43.8886,昌吉回族自治州,天山天池,,,,,,,,,,,,,,,,
2025-10-15T0000,2692A,87.2717,44.0297,昌吉回族自治州,新区政务中心,,19,17,9,3,6,58,,69,57,10,10,4,4,0.5,0.4
2025-10-15T0000,3613A,87.3095,44.0142,昌吉回族自治州,亚心广场,,21,14,10,7,3,65,,78,67,9,8,6,6,0.3,0.3
2025-10-15T0000,1120A,125.2863,43.9027,长春市,客车厂,,33,27,113,23,106,35,,44,37,22,33,5,7,0.3,0.5
2025-10-15T0000,1121A,125.2841,43.8463,长春市,邮电学院,,40,33,131,28,105,38,,51,41,19,29,6,6,0.3,0.6
2025-10-15T0000,1122A,125.3716,43.8772,长春市,劳动公园,,36,36,200,21,102,33,,49,32,22,36,8,9,0.6,0.6
2025-10-15T0000,1123A,125.3297,43.8805,长春市,园林处,,38,32,120,26,104,33,,45,36,25,34,2,4,0.3,0.6
2025-10-15T0000,1124A,125.4605,43.79,长春市,净月潭,,26,26,136,15,106,31,,58,43,13,22,5,6,0.2,0.5
2025-10-15T0000,1125A,125.7194,43.515,长春市,甩湾子,,39,39,156,24,141,21,,75,43,16,23,4,5,0.3,0.7
2025-10-15T0000,1126A,125.3863,43.8447,长春市,经开区环卫处,,30,30,131,21,101,28,,46,33,21,34,5,6,0.3,0.6
2025-10-15T0000,1127A,125.245,43.7783,长春市,高新区管委会,,32,26,127,22,106,40,,52,40,16,32,5,6,0.3,0.6
2025-10-15T0000,1128A,125.1761,43.8325,长春市,岱山公园,,32,24,119,22,96,26,,42,30,36,41,5,6,0.3,0.6
2025-10-15T0000,4281A,125.3346,43.9164,长春市,北亚泰大街1068号,,33,31,113,23,102,30,,40,32,20,33,8,10,0.5,0.7
2025-10-15T0000,1335A,113.0833,28.2325,长沙市,经开区环保局,细颗粒物(PM2.5),62,46,61,44,57,22,,33,28,24,20,5,5,0.6,0.6
2025-10-15T0000,1336A,112.8872,28.2189,长沙市,高开区环保局,细颗粒物(PM2.5),84,73,57,62,54,27,,40,36,18,15,5,5,0.5,0.5
2025-10-15T0000,1337A,113.0792,28.2053,长沙市,马坡岭,细颗粒物(PM2.5),60,49,61,43,51,24,,38,32,25,22,6,6,0.7,0.7
2025-10-15T0000,1338A,112.9394,28.19,长沙市,湖南师范大学,细颗粒物(PM2.5),62,50,53,44,39,26,,47,43,22,15,3,4,0.8,0.8
2025-10-15T0000,1339A,113.0178,28.1322,长沙市,雨花区环保局,细颗粒物(PM2.5),85,,56,63,59,18,,38,33,32,20,6,6,0.8,0.8
2025-10-15T0000,1340A,112.9792,28.2597,长沙市,伍家岭,细颗粒物(PM2.5),63,46,57,45,46,36,,43,42,16,16,4,4,0.6,0.6
2025-10-15T0000,1341A,113.0014,28.1944,长沙市,火车新站,细颗粒物(PM2.5),55,43,58,39,46,31,,44,42,20,16,8,8,0.9,0.8
2025-10-15T0000,1342A,112.9844,28.1178,长沙市,天心区环保局,细颗粒物(PM2.5),58,48,55,41,40,20,,45,40,31,18,4,4,0.5,0.5
2025-10-15T0000,1343A,112.8908,28.1308,长沙市,湖南中医药大学,细颗粒物(PM2.5),53,46,46,37,32,35,,37,34,16,16,4,4,0.8,0.8
2025-10-15T0000,1344A,112.9581,28.3611,长沙市,沙坪,,,,,,,,,,,,,,,,
2025-10-15T0000,1727A,113.1147,36.1547,长治市,清华站,,,52,39,27,25,49,,110,76,29,26,9,10,,1.2
2025-10-15T0000,1730A,113.0886,36.2125,长治市,审计局,细颗粒物(PM2.5),55,,31,39,36,85,,122,100,14,27,6,7,0.8,0.9
2025-10-15T0000,1731A,113.0844,36.1856,长治市,长治八中,细颗粒物(PM2.5),73,78,46,53,35,58,,111,67,20,24,7,7,1.1,1.1
2025-10-15T0000,2845A,113.1569,36.1911,长治市,德盛苑,颗粒物(PM10),51,52,38,34,29,63,,112,81,17,16,6,6,1.1,1.3
2025-10-15T0000,3568A,113.06,36.0464,长治市,向阳小学,细颗粒物(PM2.5),84,96,62,62,32,43,,108,65,41,27,8,8,1.0,1
2025-10-15T0000,3569A,112.8792,36.3144,长治市,屯留一中,细颗粒物(PM2.5),53,46,46,37,30,93,,126,99,11,21,11,13,1.1,0.8
2025-10-15T0000,4189A,113.1131,36.19948,长治市,英华南巷50号,,49,40,44,34,33,67,,104,74,18,25,5,6,1.1,1.3
2025-10-15T0000,4190A,113.2367,36.3344,长治市,学府街1号,细颗粒物(PM2.5),58,45,47,41,28,88,,109,102,13,23,10,9,1.0,2.1
2025-10-15T0000,1854A,111.6975,28.9703,常德市,市二中,,32,29,25,22,19,39,,88,74,14,9,7,7,0.7,0.7
2025-10-15T0000,1857A,111.7158,29.1456,常德市,白鹤山,,,,,,,,,,,,,,,,
2025-10-15T0000,3138A,111.7153,29.0289,常德市,武陵区永安,,42,38,25,29,17,62,,88,78,15,10,5,4,0.8,0.7
2025-10-15T0000,3139A,111.6892,28.9881,常德市,鼎城区玉霞,,39,32,26,27,18,42,,89,72,18,13,4,4,0.8,0.8
2025-10-15T0000,3140A,111.6625,29.0531,常德市,武陵区长庚,,38,34,24,26,17,50,,86,77,16,11,3,3,0.5,0.5
2025-10-15T0000,1196A,119.9633,31.762,常州市,市监测站,,48,48,25,20,15,29,,44,32,26,21,8,8,0.8,0.7
2025-10-15T0000,1200A,119.9468,31.7069,常州市,武进监测站,,37,37,29,16,12,33,,39,35,24,22,9,8,0.9,0.8
2025-10-15T0000,1201A,119.9255,31.9087,常州市,安家,,36,36,28,13,9,34,,46,40,24,24,8,8,0.6,0.7
2025-10-15T0000,3002A,119.9805,31.8174,常州市,行政中心,,25,25,23,12,14,28,,46,39,30,23,1,1,0.8,0.8
2025-10-15T0000,3003A,120.0522,31.7748,常州市,经开区,,43,43,23,18,12,16,,44,28,43,21,9,8,1.1,1.1
2025-10-15T0000,3010A,119.9025,31.7964,常州市,钟楼,,42,42,24,14,11,40,,51,44,23,22,8,7,0.8,0.8
2025-10-15T0000,3429A,119.8598,31.7066,常州市,武进经发区,,41,41,31,21,14,28,,38,25,31,28,9,9,1.2,1
2025-10-15T0000,3430A,119.5826,31.7245,常州市,金坛城区,,29,28,19,20,11,31,,44,39,22,17,8,8,0.9,0.9
2025-10-15T0000,2220A,120.4318,41.5881,朝阳市,西梁,细颗粒物(PM2.5),55,48,53,39,46,77,,98,86,18,30,9,12,0.7,1
2025-10-15T0000,2221A,120.4521,41.5646,朝阳市,河畔小区,颗粒物(PM10),64,77,65,37,41,78,,109,93,20,25,15,12,0.7,0.7
2025-10-15T0000,2222A,120.4176,41.5648,朝阳市,八里堡,颗粒物(PM10),64,77,72,37,41,80,,107,93,19,30,10,13,0.6,0.7
2025-10-15T0000,2223A,120.3806,41.5969,朝阳市,农业园区,细颗粒物(PM2.5),60,52,61,43,49,70,,104,85,19,26,8,8,0.6,0.7
2025-10-15T0000,1705A,116.6367,23.6719,潮州市,西园路,,,,,,,,,,,,,,,,
2025-10-15T0000,3026A,116.6183,23.6608,潮州市,市政府,,29,29,25,12,10,39,,71,40,13,9,15,6,1.0,0.9
2025-10-15T0000,4036A,116.6461,23.6761,潮州市,金山,,24,24,23,10,8,15,,75,30,12,7,6,6,0.7,0.6
2025-10-15T0000,2472A,113.0073,25.9061,郴州市,马头岭,,,,,,,,,,,,,,,,
2025-10-15T0000,2473A,113.0116,25.8226,郴州市,市职中,细颗粒物(PM2.5),80,62,49,59,41,42,,53,51,13,12,3,3,0.8,0.7
2025-10-15T0000,2475A,113.0383,25.8071,郴州市,市审计局,细颗粒物(PM2.5),70,61,48,51,38,46,,58,56,8,7,7,6,0.9,0.8
2025-10-15T0000,2476A,113.0348,25.7759,郴州市,市环保局,细颗粒物(PM2.5),69,67,52,50,36,50,,60,58,12,11,3,2,0.9,0.8
2025-10-15T0000,4252A,113.0138,25.8011,郴州市,好美居路49号,细颗粒物(PM2.5),63,56,43,45,31,52,,63,60,15,13,6,5,0.7,0.7
2025-10-15T0000,1431A,103.9728,30.7236,成都市,金泉两河,细颗粒物(PM2.5),63,,38,45,20,54,,108,72,15,20,3,4,0.8,0.7
2025-10-15T0000,1432A,104.176,30.6872,成都市,十里店,细颗粒物(PM2.5),59,64,34,42,18,43,,104,74,20,17,4,4,0.6,0.5
2025-10-15T0000,1433A,104.079,30.5706,成都市,三瓦窑,细颗粒物(PM2.5),80,,35,59,25,54,,110,83,22,20,4,5,0.7,0.6
2025-10-15T0000,1434A,104.1114,30.63,成都市,沙河铺,细颗粒物(PM2.5),89,,33,66,24,37,,92,66,31,23,4,4,0.6,0.6
2025-10-15T0000,1437A,104.0786,30.6531,成都市,君平街,细颗粒物(PM2.5),53,53,37,37,22,47,,94,75,14,17,4,5,0.6,0.6
2025-10-15T0000,1438A,103.613,31.0283,成都市,灵岩寺,,,,,,,,,,,,,,,,
2025-10-15T0000,2880A,104.0239,30.65639,成都市,大石西路,细颗粒物(PM2.5),63,,29,45,24,49,,101,76,20,22,2,3,0.6,0.6
2025-10-15T0000,3136A,104.2725,30.5589,成都市,龙泉驿区区政府,,42,29,16,29,9,54,,100,80,14,11,6,5,0.5,0.5
2025-10-15T0000,3357A,104.0106,30.6931,成都市,金博路,细颗粒物(PM2.5),58,47,28,41,15,50,,108,80,19,21,6,8,0.6,0.6
2025-10-15T0000,3359A,104.0578,30.5225,成都市,华阳,细颗粒物(PM2.5),52,41,26,36,20,60,,102,82,19,14,5,5,0.6,0.6
2025-10-15T0000,3488A,104.3880,30.7467,成都市,青石路225号,细颗粒物(PM2.5),55,52,39,39,21,18,,85,56,35,22,4,5,0.6,0.5
2025-10-15T0000,3489A,104.0789,30.4072,成都市,科学城,细颗粒物(PM2.5),53,50,24,37,18,46,,96,80,21,12,5,5,0.7,0.6
2025-10-15T0000,4011A,103.8506,30.6947,成都市,光华大道三段,细颗粒物(PM2.5),62,50,38,44,25,64,,110,75,14,19,1,1,0.7,0.7
2025-10-15T0000,4224A,104.2433,30.5353,成都市,鲸龙路1057号,细颗粒物(PM2.5),54,50,24,38,17,52,,98,78,23,17,5,4,0.7,0.6
2025-10-15T0000,1062A,117.9531,40.9081,承德市,铁路,,36,36,39,11,16,27,,80,56,27,23,2,3,0.3,0.5
2025-10-15T0000,1063A,117.9392,40.9763,承德市,中国银行,,34,34,42,23,15,6,,90,38,20,16,1,3,0.6,0.6
2025-10-15T0000,1064A,117.9503,40.928,承德市,开发区,颗粒物(PM10),52,54,50,20,21,12,,95,60,37,21,2,3,0.4,0.6
2025-10-15T0000,1066A,117.9268,41.0026,承德市,离宫,,,,,,,,,,,,,,,,
2025-10-15T0000,4274A,117.7994,40.9605,承德市,滨河大街98号,,35,35,34,14,18,15,,72,36,18,15,3,3,0.3,0.6
2025-10-15T0000,2314A,117.47,30.6618,池州市,池州学院,,44,44,35,28,24,14,,19,16,31,31,7,7,1.1,0.9
2025-10-15T0000,3237A,117.4918,30.6617,池州市,展览馆,,40,40,37,24,23,13,,18,14,29,30,6,6,1.1,0.9
2025-10-15T0000,3333A,117.5627,30.695,池州市,第八中学,,44,44,36,26,22,13,,25,21,26,26,6,6,1.5,1
2025-10-15T0000,3334A,117.5038,30.6243,池州市,第十二中学,,36,35,33,25,22,14,,25,24,25,27,4,4,1.5,1.1
2025-10-15T0000,1744A,118.9233,42.2816,赤峰市,松山一中,颗粒物(PM10),54,57,58,25,29,51,,83,69,15,33,6,8,0.5,0.6
2025-10-15T0000,1745A,118.9576,42.2728,赤峰市,哈达街,颗粒物(PM10),51,52,66,27,29,56,,85,72,17,34,10,24,0.5,0.8
2025-10-15T0000,1746A,118.8788,42.2554,赤峰市,天义路,细颗粒物(PM2.5),55,52,52,39,35,27,,81,63,43,31,38,13,0.7,0.5
2025-10-15T0000,3058A,119.2658,42.0353,赤峰市,银河街,颗粒物(PM10),59,68,68,31,29,37,,71,55,18,19,18,13,0.4,0.5
2025-10-15T0000,3286A,118.9359,42.3147,赤峰市,桥北物流园区,,38,37,56,26,35,53,,89,67,12,28,7,8,0.5,0.6
2025-10-15T0000,2521A,107.3476,22.4136,崇左市,市环保局江州分局,,21,21,19,6,8,21,,45,31,9,8,1,2,0.5,0.5
2025-10-15T0000,4256A,107.3750,22.3736,崇左市,石景林东路7号,,10,8,16,3,8,31,,51,39,8,9,7,7,0.6,0.6
2025-10-15T0000,2298A,118.3093,32.3153,滁州市,老年大学,,36,36,26,23,22,54,,57,53,6,7,5,4,0.3,0.3
2025-10-15T0000,2299A,118.3244,32.2786,滁州市,人大宾馆,,38,,18,26,19,52,,56,53,7,8,4,4,0.5,0.5
2025-10-15T0000,3207A,118.3118,32.3038,滁州市,市政府原办公楼,,46,,25,32,25,46,,56,51,14,10,5,5,0.4,0.4
2025-10-15T0000,3331A,118.3267,32.2634,滁州市,图书馆,,35,24,17,24,17,47,,57,53,7,9,7,7,0.4,0.5
2025-10-15T0000,2605A,101.5482,25.0441,楚雄彝族自治州,州环境监测站,,39,39,20,21,13,1,,45,19,21,12,13,8,0.7,0.6
2025-10-15T0000,2606A,101.538,25.0492,楚雄彝族自治州,市经济开发区,,28,28,19,19,13,0,,47,23,22,13,13,7,0.7,0.7
2025-10-15T0000,2548A,107.5277,31.2827,达州市,达州职业技术学院,,,,,,,,,,,,,,,,
2025-10-15T0000,2549A,107.5086,31.2186,达州市,市环境监测站,,21,21,23,3,4,4,,9,4,20,23,6,6,0.7,0.8
2025-10-15T0000,2550A,107.4988,31.2132,达州市,凤凰小区,,12,12,23,3,7,5,,11,6,20,23,6,5,0.6,0.7
2025-10-15T0000,2551A,107.5082,31.1986,达州市,达县机关宾馆,,10,7,20,3,5,3,,8,4,20,24,5,5,0.6,0.7
2025-10-15T0000,2552A,107.4644,31.2124,达州市,市政中心,,18,18,33,3,3,2,,8,4,22,22,5,6,0.6,0.6
2025-10-15T0000,2614A,100.1542,25.7054,大理白族自治州,大理市环境监测站,,21,14,14,13,12,65,,65,64,6,10,5,5,0.6,0.6
2025-10-15T0000,2615A,100.2171,25.5811,大理白族自治州,大理古城,,20,16,14,14,9,44,,69,48,12,10,6,6,0.7,0.7
2025-10-15T0000,1109A,121.612,38.9741,大连市,甘井子,颗粒物(PM10),75,99,48,50,22,39,,87,62,52,28,8,8,1.1,0.9
2025-10-15T0000,1110A,121.565,38.9511,大连市,周水子,,50,50,43,23,18,25,,84,38,35,39,11,10,0.6,0.5
2025-10-15T0000,1111A,121.5637,38.8845,大连市,星海三站,,41,41,35,25,17,11,,97,37,19,14,3,4,0.8,0.5
2025-10-15T0000,1112A,121.6302,38.9117,大连市,青泥洼桥,颗粒物(PM10),57,64,33,34,16,16,,85,46,40,20,8,8,0.7,0.5
2025-10-15T0000,1113A,121.6251,38.8638,大连市,傅家庄,,33,26,25,23,11,76,,95,91,15,10,11,11,0.5,0.5
2025-10-15T0000,1114A,121.5213,38.8661,大连市,七贤岭,,26,26,27,12,11,18,,90,40,14,15,3,4,0.6,0.6
2025-10-15T0000,1115A,121.2529,38.8061,大连市,旅顺,颗粒物(PM10),59,68,39,30,18,58,,95,77,21,15,8,8,0.6,0.4
2025-10-15T0000,1116A,121.7485,39.1311,大连市,金州,,47,47,44,28,16,74,,66,30,21,18,9,9,0.4,0.4
2025-10-15T0000,1117A,121.7811,39.0496,大连市,开发区,颗粒物(PM10),51,52,39,33,18,22,,81,47,49,33,4,5,0.5,0.4
2025-10-15T0000,1118A,121.9762,39.0631,大连市,双D港,,29,29,16,16,8,56,,92,59,22,10,8,8,0.7,0.6
2025-10-15T0000,1789A,124.81117,46.03138,大庆市,大同区,,45,45,30,19,14,37,,54,44,14,12,12,9,0.4,0.4
2025-10-15T0000,1790A,125.129,46.533,大庆市,龙凤区,,33,33,33,10,15,44,,50,45,8,12,9,10,0.6,0.6
2025-10-15T0000,1791A,124.902,46.408,大庆市,红岗区,,28,28,28,12,17,42,,54,45,15,15,4,5,0.4,0.4
2025-10-15T0000,1792A,125.153,46.586,大庆市,萨尔图区,,32,32,27,10,10,50,,55,50,9,11,11,10,0.4,0.4
2025-10-15T0000,1793A,124.9042,46.6215,大庆市,让胡路区,,29,27,27,20,18,34,,53,39,20,12,7,6,0.2,0.3
2025-10-15T0000,3481A,125.141,46.634,大庆市,萨区政府监测点,,27,27,25,3,2,46,,55,48,7,7,8,8,0.6,0.6
2025-10-15T0000,1721A,113.3819,40.1097,大同市,果树场,,33,33,46,20,30,30,,86,38,37,31,6,7,0.5,0.6
2025-10-15T0000,1723A,113.2994,40.0758,大同市,云冈宾馆,,50,50,53,24,26,46,,87,58,34,31,5,8,0.9,1
2025-10-15T0000,1724A,113.3444,40.0917,大同市,大同大学,,40,38,47,28,25,70,,100,64,26,33,7,9,0.5,0.5
2025-10-15T0000,1725A,113.2661,40.1269,大同市,安家小村,,49,49,63,25,27,53,,89,55,30,34,5,7,0.6,1.2
2025-10-15T0000,1726A,113.2711,40.0844,大同市,教育学院,颗粒物(PM10),59,68,65,20,30,28,,93,57,49,35,6,11,0.6,1.3
2025-10-15T0000,3282A,113.3397,40.0597,大同市,大同市卫生学校,,48,48,54,26,26,65,,90,61,27,37,5,7,0.8,0.8
2025-10-15T0000,3565A,113.1367,40.1122,大同市,云冈站,颗粒物(PM10),73,96,57,45,26,3,,89,42,49,29,8,9,0.6,0.6
2025-10-15T0000,3566A,113.1186,40.2556,大同市,图书馆,颗粒物(PM10),66,81,54,27,25,29,,91,49,26,19,6,9,0.6,0.5
2025-10-15T0000,3567A,113.5931,40.0461,大同市,区一中,,35,35,43,21,21,46,,101,65,22,19,4,8,0.6,0.5
2025-10-15T0000,4199A,113.2798,40.0997,大同市,魏都大道141号,颗粒物(PM10),53,56,64,32,32,30,,93,53,55,40,5,7,0.7,1.3
2025-10-15T0000,2269A,124.1069,50.4097,大兴安岭地区,科技局,,18,18,18,12,13,31,,50,34,4,5,4,4,0.2,0.2
2025-10-15T0000,3663A,124.1164,50.4278,大兴安岭地区,红旗社区,,17,17,11,11,7,8,,53,20,23,10,4,4,0.5,0.4
2025-10-15T0000,1600A,124.3303,40.0625,丹东市,江湾东路,颗粒物(PM10),55,60,34,38,23,1,,48,13,36,26,12,8,1.7,0.9
2025-10-15T0000,1601A,124.4256,40.1503,丹东市,临江后街,,38,38,38,16,15,9,,46,9,17,25,8,9,0.7,0.8
2025-10-15T0000,1602A,124.3933,40.1461,丹东市,元宝山,,35,35,25,19,12,9,,49,23,19,20,8,8,0.7,0.7
2025-10-15T0000,1603A,124.3633,40.1092,丹东市,民主桥,,,40,34,17,16,,,42,,39,29,6,5,0.7,0.7
2025-10-15T0000,3541A,109.5726,19.5167,儋州市,第一中学子站,,9,8,10,3,3,28,,34,28,1,2,3,3,0.4,0.4
2025-10-15T0000,3542A,109.5567,19.5187,儋州市,东坡学校子站,,12,12,9,3,4,30,,38,30,4,4,4,4,0.2,0.2
2025-10-15T0000,2616A,98.5842,24.428,德宏傣族景颇族自治州,德宏州监测站,,41,41,29,22,19,24,,85,56,18,14,7,10,0.6,0.8
2025-10-15T0000,3677A,98.5881,24.4368,德宏傣族景颇族自治州,芒市人民政府综合楼,,38,38,33,19,17,30,,85,59,14,11,8,9,0.7,0.6
2025-10-15T0000,1901A,104.4239,31.1208,德阳市,东山公园,,43,35,25,30,23,20,,84,60,36,14,2,3,0.8,0.7
2025-10-15T0000,1902A,104.3826,31.1317,德阳市,西小区,,46,45,43,32,27,46,,83,64,16,22,3,3,0.5,0.6
2025-10-15T0000,1904A,104.3553,31.1091,德阳市,耐火材料厂,,46,46,42,32,24,56,,92,73,13,25,2,3,0.8,0.9
2025-10-15T0000,3639A,104.4019,31.1244,德阳市,市教育局,,38,38,36,26,23,44,,85,61,15,20,3,3,0.8,0.8
2025-10-15T0000,1622A,116.3032,37.4674,德州市,儿童乐园,颗粒物(PM10),67,83,61,44,29,88,,139,104,42,33,13,12,0.7,0.6
2025-10-15T0000,1624A,116.2991,37.4451,德州市,监理站,颗粒物(PM10),53,56,52,31,27,115,,140,110,32,42,19,15,0.6,0.6
2025-10-15T0000,3066A,116.2721,37.4379,德州市,九衢泉纯净水厂,颗粒物(PM10),60,70,53,39,27,115,,126,97,31,45,21,13,0.6,0.6
2025-10-15T0000,3371A,116.3728,37.4403,德州市,开发区人民医院,颗粒物(PM10),56,61,49,31,23,111,,132,103,36,44,18,14,0.6,0.5
2025-10-15T0000,3511A,116.5652,37.3319,德州市,陵城艺术中心,细颗粒物(PM2.5),62,68,61,44,30,102,,139,111,22,28,14,11,0.8,0.7
2025-10-15T0000,4292A,116.3525,37.4209,德州市,新河东路,颗粒物(PM10),58,66,49,36,26,64,,127,82,60,47,12,10,0.8,0.7
2025-10-15T0000,2621A,99.7056,27.8317,迪庆藏族自治州,迪庆州站,,32,32,21,16,11,62,,98,85,12,7,6,6,0.7,0.5
2025-10-15T0000,3180A,99.7136,27.8094,迪庆藏族自治州,质量技术监督局,,28,,22,19,13,68,,102,86,13,11,8,8,0.4,0.5
2025-10-15T0000,4257A,104.6092,35.5962,定西市,将台街,,47,47,44,30,23,6,,67,56,53,28,8,8,0.5,0.5
2025-10-15T0000,4309A,104.6159,35.5701,定西市,正龙路62号,颗粒物(PM10),55,59,47,27,24,42,,72,70,16,12,4,5,0.2,0.3
2025-10-15T0000,1389A,113.7547,23.0494,东莞市,莞城梨川,,22,22,24,12,14,14,,113,43,23,19,6,8,0.5,0.5
2025-10-15T0000,1390A,113.7944,23.0128,东莞市,东城石井,,23,23,20,8,9,6,,103,30,23,19,6,6,0.4,0.4
2025-10-15T0000,1391A,113.7383,22.9658,东莞市,南城西平,,31,31,19,9,10,4,,96,34,39,24,5,5,0.4,0.4
2025-10-15T0000,3319A,113.7338,23.0381,东莞市,万江金泰,,21,21,23,9,14,14,,111,40,24,20,7,7,0.6,0.6
2025-10-15T0000,3626A,113.7533,23.0202,东莞市,南城元岭,,37,37,24,14,10,4,,112,39,40,22,5,6,0.5,0.5
2025-10-15T0000,3627A,113.7875,23.0457,东莞市,东城主山,,20,20,24,9,11,12,,118,42,28,23,2,4,0.4,0.5
2025-10-15T0000,1666A,118.6614,37.4309,东营市,市环保局,,27,22,46,12,23,84,,131,116,15,27,5,13,0.4,0.7
2025-10-15T0000,3036A,118.6904,37.4338,东营市,开发区管委会,,,30,59,17,35,84,,134,125,,29,,12,0.4,0.7
2025-10-15T0000,3365A,118.5719,37.565,东营市,垦利区民丰路,,46,46,54,27,24,73,,130,95,27,33,3,5,0.4,0.6
2025-10-15T0000,3498A,118.5055,37.8612,东营市,河口城区,,46,39,58,32,28,106,,152,131,19,28,7,10,0.6,0.7
2025-10-15T0000,3646A,118.4978,37.4623,东营市,胜利站,,41,41,54,19,27,95,,132,109,23,39,7,12,0.6,0.8
2025-10-15T0000,3734A,118.35,37.26,东营市,理想之城,,46,46,56,29,31,54,,120,75,42,41,2,5,0.7,0.7
2025-10-15T0000,1591A,110.0023,39.8129,鄂尔多斯市,综合楼,,30,14,36,3,19,94,,84,73,10,25,8,9,0.5,0.7
2025-10-15T0000,1592A,109.9486,39.8261,鄂尔多斯市,巴音孟克林场办事处,,27,12,46,9,29,84,,84,76,22,27,14,14,0.3,0.8
2025-10-15T0000,1593A,109.7736,39.5986,鄂尔多斯市,康泽苑,,27,12,39,3,21,84,,86,74,6,23,6,7,0.2,0.4
2025-10-15T0000,1594A,109.8119,39.5989,鄂尔多斯市,华泰汽车城,,23,7,36,7,22,71,,81,71,11,25,6,6,0.3,0.6
2025-10-15T0000,1595A,109.9734,39.7884,鄂尔多斯市,奥林花园,,29,7,42,7,21,90,,85,70,8,24,6,7,0.2,0.4
2025-10-15T0000,2436A,114.8938,30.3994,鄂州市,市政府,颗粒物(PM10),61,71,30,41,20,14,,48,36,30,19,14,7,0.9,0.8
2025-10-15T0000,2437A,114.8989,30.3714,鄂州市,赵家坝,颗粒物(PM10),62,73,36,34,16,12,,49,34,22,17,9,8,1.0,0.9
2025-10-15T0000,3654A,114.8094,30.4089,鄂州市,精准医疗中心,细颗粒物(PM2.5),65,70,31,47,20,13,,31,26,42,19,6,7,0.9,0.9
2025-10-15T0000,2454A,109.4978,30.2981,恩施土家族苗族自治州,湖北民院,,14,14,12,3,5,12,,26,16,4,4,6,6,1.0,0.9
2025-10-15T0000,2455A,109.4707,30.2798,恩施土家族苗族自治州,州电力总公司,,10,10,7,7,4,10,,23,14,12,10,6,6,0.9,0.9
2025-10-15T0000,3549A,109.5061,30.3772,恩施土家族苗族自治州,龙凤新区,,13,13,7,7,5,6,,18,10,4,5,6,6,0.6,0.8
2025-10-15T0000,2499A,108.3411,21.6158,防城港市,沙万,,24,24,35,13,14,31,,37,31,11,14,6,5,0.4,0.5
2025-10-15T0000,2500A,108.3514,21.7731,防城港市,防城档案局,,29,29,26,10,9,8,,44,22,19,12,5,4,0.5,0.5
2025-10-15T0000,2501A,108.3506,21.6414,防城港市,大海花园,,22,22,21,9,11,39,,56,40,8,12,5,8,0.5,0.6
2025-10-15T0000,1371A,113.1294,23.0067,佛山市,湾梁,,22,19,22,9,15,8,,92,42,43,34,6,7,0.5,0.5
2025-10-15T0000,1372A,113.1083,23.0478,佛山市,华材职中,,41,41,27,20,15,6,,109,62,54,30,8,6,0.5,0.5
2025-10-15T0000,1373A,113.144,23.0453,佛山市,南海气象局,,26,26,25,12,10,10,,98,47,30,23,7,7,0.7,0.7
2025-10-15T0000,1374A,113.2881,22.8094,佛山市,顺德苏岗,,23,23,22,3,7,9,,62,32,27,23,6,7,0.4,0.5
2025-10-15T0000,1376A,112.8383,22.8678,佛山市,高明孔堂,,29,29,35,14,14,20,,107,48,11,21,3,3,0.4,0.4
2025-10-15T0000,1377A,112.8836,23.1588,佛山市,三水监测站,颗粒物(PM10),53,56,29,28,25,1,,85,26,57,32,9,8,0.6,0.5
2025-10-15T0000,1378A,112.867,23.185,佛山市,三水云东海,,42,40,36,29,17,0,,74,28,52,31,5,4,0.8,0.8
2025-10-15T0000,3625A,113.2544,22.7642,佛山市,容桂街道办,,12,6,13,3,9,17,,60,34,24,25,5,5,0.6,0.6
2025-10-15T0000,1280A,119.3903,26.0543,福州市,鼓山,,,,25,,15,,,88,68,,9,,2,,0.3
2025-10-15T0000,1282A,119.2681,26.0504,福州市,师大,,26,26,33,15,20,30,,103,51,20,14,5,6,0.4,0.5
2025-10-15T0000,1283A,119.2984,26.1028,福州市,五四北路,,15,,28,9,19,48,,93,60,7,12,4,4,0.3,0.5
2025-10-15T0000,1284A,119.2648,26.0768,福州市,杨桥西路,,16,9,29,8,19,51,,102,59,6,11,3,4,0.3,0.5
2025-10-15T0000,1285A,119.317,26.0746,福州市,紫阳,,16,6,33,6,20,49,,91,53,5,14,5,5,0.2,0.4
2025-10-15T0000,3048A,119.5799,26.0936,福州市,九龙,,20,20,20,7,12,36,,82,58,7,7,3,4,0.3,0.3
2025-10-15T0000,3526A,119.5189,25.9664,福州市,吴航,,18,18,25,9,15,37,,89,60,12,7,4,5,0.4,0.5
2025-10-15T0000,1755A,123.7977,41.8491,抚顺市,望花区,细颗粒物(PM2.5),102,87,93,76,61,9,,95,53,47,39,8,12,1.0,1.2
2025-10-15T0000,1756A,123.9161,41.8822,抚顺市,顺城区,细颗粒物(PM2.5),92,113,82,68,53,0,,93,33,60,43,8,11,1.1,1.1
2025-10-15T0000,1757A,124.0436,41.8611,抚顺市,东洲区,细颗粒物(PM2.5),108,90,78,81,60,7,,104,64,42,32,7,10,1.3,1.3
2025-10-15T0000,1758A,123.9247,41.8642,抚顺市,新抚区,细颗粒物(PM2.5),90,103,85,67,53,0,,95,33,38,35,7,10,1.3,1.3
2025-10-15T0000,1759A,124.0972,41.8961,抚顺市,大伙房水库,细颗粒物(PM2.5),94,75,62,70,51,18,,105,68,46,28,9,12,1.1,1
2025-10-15T0000,1760A,123.7086,41.8391,抚顺市,沈抚新城,颗粒物(PM10),92,134,97,62,60,23,,96,54,44,42,8,15,0.9,1.5
2025-10-15T0000,2376A,116.2127,28.0814,抚州市,桐源党溪,,,,,,,,,,,,,,,,
2025-10-15T0000,2377A,116.3544,27.9831,抚州市,市站,,41,41,50,23,30,70,,81,77,9,9,4,5,1.5,1.4
2025-10-15T0000,2378A,116.3565,27.963,抚州市,血防站,,48,48,50,25,32,67,,75,70,9,10,7,8,0.7,0.7
2025-10-15T0000,2379A,116.3564,28.0007,抚州市,采茶剧团,,42,42,51,25,29,66,,78,72,7,8,6,7,0.9,1
2025-10-15T0000,2380A,116.385,27.9647,抚州市,医学分院,,48,48,56,24,31,70,,82,76,5,6,4,7,1.0,1.1
2025-10-15T0000,2207A,121.6094,41.998,阜新市,工业园区,,48,48,97,19,50,42,,93,68,26,38,11,15,0.4,1
2025-10-15T0000,2208A,121.6697,42.0279,阜新市,长青街,,36,36,82,19,46,45,,87,62,20,37,10,17,0.3,1.2
2025-10-15T0000,2209A,121.6673,42.0705,阜新市,农业园区,,32,32,74,17,39,55,,105,78,11,13,3,8,0.4,1
2025-10-15T0000,2210A,121.6717,42.0224,阜新市,东苑,颗粒物(PM10),51,51,110,22,50,47,,83,58,17,39,8,20,0.3,1.4
2025-10-15T0000,2211A,121.6506,42.0498,阜新市,玉龙新城,,42,42,83,11,30,51,,99,72,18,33,8,13,0.3,1.5
2025-10-15T0000,2301A,115.8277,32.8929,阜阳市,市监测站,,38,38,44,21,26,36,,57,43,25,22,4,4,0.5,0.5
2025-10-15T0000,2303A,115.8554,32.8605,阜阳市,开发区,颗粒物(PM10),61,71,56,27,29,22,,53,42,33,20,7,7,0.6,0.5
2025-10-15T0000,2875A,115.784,32.8892,阜阳市,阜阳职业技术学院,,44,44,42,30,20,41,,54,47,19,18,6,5,0.5,0.4
2025-10-15T0000,3468A,115.7901,32.8613,阜阳市,市规划展馆,颗粒物(PM10),52,54,49,28,28,50,,58,50,22,21,6,4,0.6,0.4
2025-10-15T0000,3469A,115.836,32.9183,阜阳市,枣园社区,,39,38,41,27,28,45,,59,46,21,20,7,7,0.5,0.4
2025-10-15T0000,2669A,102.9099,34.9841,甘南藏族自治州,州政府,,38,36,29,26,23,15,,62,40,28,22,4,5,0.5,0.3
2025-10-15T0000,3380A,102.8914,34.9617,甘南藏族自治州,甘肃民族师范学院,颗粒物(PM10),69,88,27,24,15,2,,69,41,48,24,6,5,0.5,0.3
2025-10-15T0000,2570A,101.9603,30.0475,甘孜藏族自治州,水桥子,,15,10,10,3,4,10,,70,40,30,15,7,7,0.5,0.5
2025-10-15T0000,3065A,101.9533,29.9972,甘孜藏族自治州,州环保局,,20,20,13,7,5,12,,72,39,33,13,5,5,0.5,0.5
2025-10-15T0000,3414A,115.8347,28.932,赣江新区,桑海产业园,细颗粒物(PM2.5),65,56,58,47,40,48,,81,69,19,17,7,6,0.7,0.7
2025-10-15T0000,2362A,114.9017,25.9149,赣州市,通天岩,,29,29,21,16,9,29,,63,42,12,7,16,16,1.1,0.7
2025-10-15T0000,2363A,114.9367,25.8664,赣州市,地委,,42,42,25,25,11,31,,58,46,9,9,5,6,0.9,0.7
2025-10-15T0000,2364A,114.9461,25.8481,赣州市,气象台,,39,39,41,23,11,36,,66,50,9,10,5,6,1.0,0.6
2025-10-15T0000,2365A,114.9322,25.8333,赣州市,市图书馆,,38,35,22,26,15,32,,66,49,9,9,4,5,1.0,0.6
2025-10-15T0000,2366A,114.8905,25.8471,赣州市,华坚鞋城,,30,30,21,19,10,34,,59,47,10,11,4,5,1.1,0.7
2025-10-15T0000,3109A,115.0093,25.8613,赣州市,赣县区卫计委,,45,,22,31,18,26,,58,44,7,6,7,7,0.9,0.5
2025-10-15T0000,2683A,106.2319,36.1417,固原市,马园,,,,,,,,,,,,,,,,
2025-10-15T0000,2684A,106.2792,36.0022,固原市,监测站,,30,,18,21,14,28,,65,57,34,14,5,5,0.5,0.5
2025-10-15T0000,2685A,106.2375,36.0211,固原市,新区,,19,14,17,3,12,58,,65,60,10,11,4,4,0.4,0.7
2025-10-15T0000,3522A,106.2177,35.9959,固原市,原州区十五小,,23,9,18,6,11,71,,66,66,10,14,8,7,0.3,0.5
2025-10-15T0000,2543A,106.6308,30.5278,广安市,小平旧居,,,,,,,,,,,,,,,,
2025-10-15T0000,2544A,106.6303,30.4576,广安市,市委,,15,13,23,10,16,23,,35,29,8,13,4,4,0.7,0.8
2025-10-15T0000,2545A,106.6271,30.4663,广安市,友谊中学,,19,14,27,13,14,29,,38,34,8,13,9,9,1.0,1
2025-10-15T0000,2547A,106.6388,30.4551,广安市,广电花园,,18,,19,12,12,22,,34,27,9,13,7,7,0.7,0.7
2025-10-15T0000,2902A,106.6351,30.4865,广安市,北辰小学,,12,9,22,8,12,26,,34,31,7,11,8,8,0.8,0.9
2025-10-15T0000,2523A,105.8945,32.4535,广元市,黑石坡,,,,,,,,,,,,,,,,
2025-10-15T0000,2524A,105.821,32.4444,广元市,老城,,10,10,13,3,12,29,,15,15,14,29,6,10,0.8,1
2025-10-15T0000,2526A,105.8628,32.4287,广元市,监测站,,15,15,12,6,10,27,,16,16,13,22,4,4,0.9,1
2025-10-15T0000,3617A,105.8047,32.4166,广元市,经开区,,11,6,21,3,12,34,,15,15,9,28,2,3,0.8,1
2025-10-15T0000,1345A,113.2347,23.1423,广州市,广雅中学,,24,24,26,9,11,8,,116,62,35,26,5,5,0.2,0.3
2025-10-15T0000,1346A,113.2612,23.105,广州市,市五中,,20,18,23,7,11,10,,137,69,40,29,7,7,0.1,0.2
2025-10-15T0000,1348A,113.3478,23.0916,广州市,广东商学院,,22,20,26,8,8,4,,131,57,43,28,4,4,0.2,0.2
2025-10-15T0000,1349A,113.4332,23.1047,广州市,市八十六中,,23,16,20,9,11,1,,118,44,45,36,6,7,0.4,0.4
2025-10-15T0000,1350A,113.3505,22.9483,广州市,番禺中学,,23,23,26,10,13,10,,114,46,31,21,6,8,0.6,0.7
2025-10-15T0000,1351A,113.2146,23.3916,广州市,花都师范,颗粒物(PM10),55,60,30,24,14,48,,106,86,41,29,10,6,0.7,0.6
2025-10-15T0000,1352A,113.2597,23.1331,广州市,市监测站,,17,17,24,6,10,12,,125,65,29,22,7,6,0.5,0.5
2025-10-15T0000,1353A,113.5618,23.312,广州市,九龙镇镇龙,,50,50,22,25,10,0,,90,50,41,19,5,5,0.5,0.4
2025-10-15T0000,1354A,113.2765,23.1544,广州市,麓湖,,18,15,23,11,13,2,,118,77,35,23,4,5,0.4,0.4
2025-10-15T0000,1355A,113.443,23.3035,广州市,帽峰山森林公园,,,,,,,,,,,,,,,,
2025-10-15T0000,2846A,113.3221,23.1322,广州市,体育西,,22,22,25,12,13,3,,127,62,41,27,4,5,0.4,0.5
2025-10-15T0000,3298A,113.5717,23.5491,广州市,从化街口,,19,19,20,10,10,2,,46,23,31,16,6,6,0.6,0.6
2025-10-15T0000,3299A,113.3472,23.3692,广州市,白云竹料,,24,24,24,12,12,8,,95,62,45,22,6,5,0.5,0.4
2025-10-15T0000,3300A,113.2981,23.237,广州市,白云嘉禾,,28,28,27,13,12,0,,116,58,45,27,6,6,0.5,0.5
2025-10-15T0000,3301A,113.4256,23.1716,广州市,黄埔科学城,,34,34,25,16,12,0,,124,48,41,25,4,4,0.7,0.6
2025-10-15T0000,3302A,113.3942,23.0483,广州市,番禺大学城,,20,20,29,11,13,9,,123,54,37,27,5,6,0.5,0.6
2025-10-15T0000,3303A,113.4922,22.8168,广州市,南沙黄阁,,23,18,27,10,13,4,,86,33,46,26,7,7,0.7,0.4
2025-10-15T0000,3304A,113.5342,22.7896,广州市,南沙街,,24,24,24,8,11,0,,85,27,36,21,6,5,0.4,0.5
2025-10-15T0000,3443A,113.2902,23.5544,广州市,花都梯面,,23,23,16,14,8,3,,48,16,24,17,5,5,0.5,0.5
2025-10-15T0000,3445A,113.7858,23.7478,广州市,从化良口,,16,16,14,6,6,21,,31,22,16,11,5,5,0.4,0.4
2025-10-15T0000,3446A,113.8051,23.2614,广州市,增城荔城,,30,30,21,16,11,5,,89,47,31,15,6,6,0.5,0.4
2025-10-15T0000,2505A,109.568,23.1478,贵港市,德智高中,,,,,,,,,,,,,,,,
2025-10-15T0000,2506A,109.6047,23.0666,贵港市,江南子站,,22,22,32,14,22,19,,70,45,19,16,5,6,0.6,0.7
2025-10-15T0000,2508A,109.5669,23.1065,贵港市,荷城子站,,12,12,24,3,11,22,,65,42,15,16,3,6,0.4,0.5
2025-10-15T0000,3405A,109.5886,23.1172,贵港市,新世纪学校,,15,14,29,10,15,22,,69,45,13,15,1,3,0.4,0.5
2025-10-15T0000,4260A,109.5933,23.0951,贵港市,中山路155-3号,,20,18,31,14,19,28,,74,50,12,13,3,7,0.3,0.4
2025-10-15T0000,1439A,106.6899,26.5998,贵阳市,马鞍山,,10,,21,3,20,32,,57,37,7,8,4,3,0.2,0.4
2025-10-15T0000,1441A,106.6243,26.6266,贵阳市,鉴湖路,,12,12,35,3,17,33,,59,36,4,8,7,7,0.3,0.5
2025-10-15T0000,1442A,106.7487,26.6343,贵阳市,燕子冲,,13,,22,9,24,38,,68,41,6,10,6,5,0.2,0.4
2025-10-15T0000,1443A,106.6555,26.4365,贵阳市,碧云窝,,22,22,34,3,14,37,,64,40,4,8,7,6,0.1,0.4
2025-10-15T0000,1445A,106.7109,26.6027,贵阳市,红边门,,11,9,28,7,21,33,,66,34,4,9,3,3,0.1,0.3
2025-10-15T0000,1446A,106.7164,26.5699,贵阳市,新华路,,14,12,27,3,15,42,,68,42,7,12,3,7,0.3,0.5
2025-10-15T0000,1447A,106.674,26.5424,贵阳市,太慈桥,,9,6,28,3,13,28,,53,32,7,12,2,3,0.0,0.3
2025-10-15T0000,1552A,106.805,26.3003,贵阳市,桐木岭,,17,17,25,9,13,43,,66,43,1,2,2,3,0.8,0.8
2025-10-15T0000,4230A,106.6882,26.5695,贵阳市,花果园大街66号,,10,,19,3,20,31,,59,34,5,10,1,2,0.1,0.3
2025-10-15T0000,4231A,106.6873,26.5169,贵阳市,漓江路57号,,10,6,26,3,18,30,,63,34,6,9,6,7,0.5,0.8
2025-10-15T0000,1862A,110.4144,25.3167,桂林市,电子科大尧山校区,,,,,,,,,,,,,,,,
2025-10-15T0000,1864A,110.3089,25.2708,桂林市,龙隐路小学,,41,41,37,28,27,45,,64,56,11,11,5,5,0.6,0.6
2025-10-15T0000,1865A,110.2869,25.2178,桂林市,八中,,39,39,40,27,27,50,,68,60,10,12,7,7,0.9,0.9
2025-10-15T0000,3531A,110.296,25.1253,桂林市,旅游学院,,42,34,34,29,30,50,,72,60,9,10,5,4,0.8,0.9
2025-10-15T0000,4222A,110.1835,25.2444,桂林市,环湖路276号,,39,36,33,27,28,54,,67,62,11,11,6,6,0.6,0.6
2025-10-15T0000,4301A,110.2803,25.2773,桂林市,信义路13号,,46,37,40,32,27,56,,69,62,8,10,6,6,0.9,1
2025-10-15T0000,2674A,100.2561,34.4714,果洛藏族自治州,玛沁县大武镇,,40,40,34,21,15,46,,81,70,10,5,18,14,0.5,0.4
2025-10-15T0000,1129A,126.5422,45.755,哈尔滨市,岭北,,,,,,,,,,,,,,,,
2025-10-15T0000,1130A,126.561,45.8167,哈尔滨市,松北商大,细颗粒物(PM2.5),104,109,55,78,27,32,,51,35,29,22,8,5,0.8,0.5
2025-10-15T0000,1131A,126.979,45.5419,哈尔滨市,阿城会宁,颗粒物(PM10),70,90,66,50,33,35,,47,24,21,28,8,9,0.5,0.5
2025-10-15T0000,1132A,126.599,45.7222,哈尔滨市,南岗学府路,颗粒物(PM10),52,54,50,24,23,38,,44,41,15,22,8,9,0.4,0.4
2025-10-15T0000,1133A,126.689,45.7733,哈尔滨市,太平宏伟公园,,49,49,55,29,29,42,,53,41,12,21,9,9,0.5,0.5
2025-10-15T0000,1134A,126.635,45.7667,哈尔滨市,道外承德广场,颗粒物(PM10),56,61,61,28,27,38,,48,40,16,23,9,9,0.6,0.6
2025-10-15T0000,1135A,126.685,45.7319,哈尔滨市,香坊红旗大街,颗粒物(PM10),59,68,58,35,28,38,,49,37,20,28,11,12,0.5,0.6
2025-10-15T0000,1136A,126.6411,45.7258,哈尔滨市,动力和平路,颗粒物(PM10),51,52,42,32,27,43,,57,48,15,21,6,6,0.4,0.5
2025-10-15T0000,1137A,126.593,45.7478,哈尔滨市,道里建国路,颗粒物(PM10),53,55,43,26,27,37,,56,46,19,19,10,9,0.3,0.3
2025-10-15T0000,1138A,126.615,45.61,哈尔滨市,平房东轻厂,颗粒物(PM10),59,67,52,33,27,32,,45,35,25,30,12,11,0.7,0.6
2025-10-15T0000,1139A,126.595,45.9855,哈尔滨市,呼兰师专,细颗粒物(PM2.5),55,54,57,39,38,30,,57,37,21,23,6,7,0.4,0.4
2025-10-15T0000,1140A,126.6206,45.6842,哈尔滨市,省农科院,细颗粒物(PM2.5),55,58,52,39,28,36,,50,36,22,30,7,5,0.5,0.6
2025-10-15T0000,2688A,93.5128,42.8172,哈密市,地区监测站,,,30,36,9,15,,,89,,12,13,7,7,0.1,0.1
2025-10-15T0000,2689A,93.4961,42.8328,哈密市,哈密师范学校,,23,23,37,8,15,61,,91,67,14,15,10,10,0.2,0.3
2025-10-15T0000,2671A,100.9048,36.9639,海北藏族自治州,海晏县西海镇,,18,13,16,12,13,47,,98,75,12,6,8,10,0.3,0.3
2025-10-15T0000,3867A,102.0738,36.5056,海东市,平安区公安北苑,,33,33,40,20,21,37,,56,51,5,23,10,17,0.6,0.9
2025-10-15T0000,1409A,110.576,19.9507,海口市,东寨港,,,,,,,,,,,,,,,,
2025-10-15T0000,1410A,110.3232,20.0574,海口市,海南大学,,16,16,12,3,5,26,,42,34,4,3,4,4,0.2,0.2
2025-10-15T0000,1411A,110.283,20.0053,海口市,秀英海南医院,,15,15,11,3,3,23,,42,32,6,6,5,5,0.4,0.3
2025-10-15T0000,1412A,110.338,19.9969,海口市,海南师范大学,,,18,12,6,5,,,42,,6,6,4,4,0.4,0.3
2025-10-15T0000,1413A,110.33,20.0356,海口市,龙华路环保局宿舍,,13,13,9,6,5,23,,40,31,6,5,6,6,0.1,0.1
2025-10-15T0000,3539A,110.5111,19.9736,海口市,桂林洋子站,,19,19,14,6,5,22,,39,28,4,5,5,5,0.2,0.2
2025-10-15T0000,2673A,100.6188,36.2866,海南藏族自治州,共和县恰卜恰镇,,27,27,30,6,10,42,,101,72,29,14,10,13,0.6,0.5
2025-10-15T0000,2676A,97.3731,37.3753,海西蒙古族藏族自治州,德令哈市,,32,26,30,22,12,75,,108,96,9,8,21,20,0.4,0.5
2025-10-15T0000,1048A,114.5302,36.6116,邯郸市,东污水处理厂,细颗粒物(PM2.5),64,,34,46,38,62,,110,83,16,23,7,8,0.5,0.5
2025-10-15T0000,1049A,114.4918,36.5713,邯郸市,矿院,细颗粒物(PM2.5),62,,32,44,34,47,,115,82,27,23,4,5,0.4,0.4
2025-10-15T0000,1050A,114.484,36.6133,邯郸市,丛台公园,,45,44,33,31,25,63,,119,92,25,22,4,5,0.4,0.5
2025-10-15T0000,3458A,114.7895,36.5593,邯郸市,香泉濮院小区,细颗粒物(PM2.5),55,,40,39,27,63,,109,84,15,14,4,4,0.5,0.4
2025-10-15T0000,3579A,114.50634,36.77178,邯郸市,永年区实验高中,,42,42,44,21,21,69,,111,88,17,25,1,2,0.6,0.4
2025-10-15T0000,3580A,114.20016,36.44293,邯郸市,峰峰矿区临水派出所,,35,33,37,24,23,94,,131,104,10,13,6,7,0.5,0.7
2025-10-15T0000,2634A,106.9893,33.1842,汉中市,汉川机床厂子校,,,,,,,,,,,,,,,,
2025-10-15T0000,2635A,107.0154,33.0706,汉中市,市监测站,,10,7,15,3,6,32,,40,39,11,8,4,4,0.7,0.7
2025-10-15T0000,2636A,107.0089,33.1138,汉中市,鑫源开发区,,11,,13,3,8,34,,39,38,14,11,4,4,0.8,0.7
2025-10-15T0000,2637A,107.007,33.0323,汉中市,南郑大河坎水厂,,8,7,16,3,8,25,,34,29,13,9,6,7,0.7,0.7
2025-10-15T0000,1223A,120.2072,30.2111,杭州市,滨江,颗粒物(PM10),51,51,36,26,20,12,,48,37,38,36,8,8,1.0,1.2
2025-10-15T0000,1224A,120.0633,30.2747,杭州市,西溪,,42,39,24,29,22,12,,38,26,38,39,6,6,0.9,1
2025-10-15T0000,1226A,120.3417,30.3150,杭州市,下沙,,40,39,29,28,19,9,,46,30,34,29,8,8,0.8,1
2025-10-15T0000,1227A,120.1269,30.2456,杭州市,卧龙桥,细颗粒物(PM2.5),52,48,33,36,22,11,,42,31,31,31,9,8,1.0,1.1
2025-10-15T0000,1228A,120.1903,30.2692,杭州市,浙江农大,颗粒物(PM10),54,57,39,32,24,8,,43,30,37,34,6,7,1.0,1
2025-10-15T0000,1230A,120.1197,30.3119,杭州市,和睦小学,,39,39,27,22,18,13,,40,27,35,35,12,12,1.1,1.1
2025-10-15T0000,1231A,120.3019,30.4183,杭州市,临平镇,颗粒物(PM10),52,53,36,31,21,9,,52,34,37,30,6,6,0.8,1
2025-10-15T0000,1232A,120.2753,30.1839,杭州市,城厢镇,细颗粒物(PM2.5),58,,35,41,29,16,,48,36,32,34,6,5,0.9,1.1
2025-10-15T0000,1233A,120.0883,30.1808,杭州市,云栖,细颗粒物(PM2.5),52,39,27,36,24,8,,43,30,34,31,6,6,1.1,1.2
2025-10-15T0000,3557A,119.9464,30.0494,杭州市,镇二中,,42,42,31,26,21,21,,32,28,26,29,5,5,1.1,1.2
2025-10-15T0000,3558A,119.7183,30.2367,杭州市,市府大楼,,32,26,22,22,19,38,,43,43,16,22,8,8,0.7,0.8
2025-10-15T0000,3656A,120.1556,30.2864,杭州市,消防大队,,40,36,30,28,20,12,,46,33,40,36,9,8,1.2,1.2
2025-10-15T0000,1270A,117.1959,31.7848,合肥市,明珠广场,,36,36,34,19,25,19,,35,25,31,25,4,4,0.7,0.7
2025-10-15T0000,1271A,117.3072,31.8764,合肥市,三里街,,31,31,29,14,17,8,,37,25,34,21,4,4,0.7,0.7
2025-10-15T0000,1272A,117.2588,31.8707,合肥市,琥珀山庄,,29,27,32,20,22,32,,44,35,21,19,8,8,0.6,0.6
2025-10-15T0000,1273A,117.1604,31.9052,合肥市,董铺水库,,,,,,,,,,,,,,,,
2025-10-15T0000,1274A,117.25,31.8571,合肥市,长江中路,,34,34,39,18,23,31,,46,37,18,17,4,4,0.7,0.7
2025-10-15T0000,1275A,117.266,31.9436,合肥市,庐阳区,,34,34,36,17,19,28,,42,27,24,22,6,6,0.7,0.8
2025-10-15T0000,1276A,117.3453,31.8616,合肥市,瑶海区,,29,27,33,20,20,21,,43,27,31,25,8,8,0.6,0.5
2025-10-15T0000,1277A,117.3027,31.7964,合肥市,包河区,,36,36,33,19,20,7,,31,15,46,33,8,8,0.7,0.7
2025-10-15T0000,1278A,117.2776,31.7385,合肥市,滨湖新区,,28,27,28,19,23,39,,40,34,12,20,4,5,0.8,0.7
2025-10-15T0000,1279A,117.1318,31.8403,合肥市,高新区,,36,36,39,24,29,28,,40,29,23,20,5,5,0.8,0.8
2025-10-15T0000,3464A,117.3803,31.9147,合肥市,高教基地,,44,44,34,18,18,25,,40,23,19,17,6,6,0.5,0.5
2025-10-15T0000,3614A,79.924,37.0877,和田地区,地区环保局,颗粒物(PM10),60,70,131,17,24,70,,104,87,21,13,3,2,0.3,0.3
2025-10-15T0000,3615A,79.9131,37.113,和田地区,市环保局,颗粒物(PM10),101,151,121,38,25,12,,110,68,77,30,5,3,0.8,0.3
2025-10-15T0000,2516A,108.2011,24.715,河池市,东仁乐园,,,,,,,,,,,,,,,,
2025-10-15T0000,2517A,108.0497,24.6947,河池市,市环保站,,,,17,,10,,,41,18,14,11,6,7,0.7,0.7
2025-10-15T0000,2518A,108.0983,24.6989,河池市,市疾控中心,,24,24,19,11,12,3,,28,12,21,18,8,9,0.7,0.7
2025-10-15T0000,1696A,114.6778,23.7569,河源市,源西,,,,,,,,,,,,,,,,
2025-10-15T0000,1697A,114.6944,23.7586,河源市,东埔,,19,19,18,10,10,2,,53,22,32,15,5,5,0.6,0.6
2025-10-15T0000,1698A,114.6892,23.7233,河源市,老城,,,28,19,7,10,,,52,,21,10,7,6,0.5,0.5
2025-10-15T0000,1718A,115.4208,35.2464,菏泽市,气象局,细颗粒物(PM2.5),62,72,57,44,37,17,,80,45,45,26,2,4,1.0,0.6
2025-10-15T0000,3374A,115.5564,35.0891,菏泽市,定陶老年大学,,44,44,40,17,25,8,,75,39,32,20,5,6,0.7,0.5
2025-10-15T0000,4184A,115.4797,35.24401,菏泽市,永昌路1号,颗粒物(PM10),52,53,43,31,33,7,,80,45,56,26,3,5,0.6,0.2
2025-10-15T0000,4193A,115.4715,35.2800,菏泽市,长城路999号,"颗粒物(PM10),细颗粒物(PM2.5)",57,63,54,40,34,3,,76,35,46,31,6,8,0.8,0.5
2025-10-15T0000,2514A,111.5264,24.4172,贺州市,环保小区,,48,46,37,33,26,55,,97,76,11,9,14,14,0.9,0.9
2025-10-15T0000,2515A,111.5608,24.4078,贺州市,政协大楼,颗粒物(PM10),51,52,36,26,24,47,,87,66,11,10,8,8,1.2,1.1
2025-10-15T0000,3534A,111.4744,24.4553,贺州市,西湾,,49,35,35,34,26,42,,83,64,10,10,12,12,1.0,0.9
2025-10-15T0000,2385A,114.17,35.9019,鹤壁市,市监测站,细颗粒物(PM2.5),98,90,41,73,25,40,,112,78,23,16,6,7,0.6,0.6
2025-10-15T0000,2386A,114.2956,35.7511,鹤壁市,市交警支队,颗粒物(PM10),57,64,53,36,29,2,,98,60,54,26,5,5,0.7,0.6
2025-10-15T0000,2387A,114.2878,35.7306,鹤壁市,迎宾馆,细颗粒物(PM2.5),63,72,54,45,29,10,,103,66,56,21,4,4,0.6,0.5
2025-10-15T0000,3474A,114.2617,35.6822,鹤壁市,大新区,细颗粒物(PM2.5),64,46,37,46,34,11,,96,57,25,22,3,3,0.5,0.5
2025-10-15T0000,3596A,114.1572,35.9603,鹤壁市,南山宾馆,细颗粒物(PM2.5),53,48,44,37,30,48,,116,84,18,11,3,4,0.6,0.7
2025-10-15T0000,2244A,130.2537,47.3416,鹤岗市,哈啤分公司,,22,22,22,7,10,63,,71,55,2,4,10,10,0.4,0.4
2025-10-15T0000,2245A,130.2684,47.3086,鹤岗市,斯达机电,,35,,23,24,13,56,,72,49,6,9,10,11,0.5,0.4
2025-10-15T0000,2246A,130.3114,47.3388,鹤岗市,东山纸板厂,颗粒物(PM10),71,92,58,23,16,30,,74,22,21,13,12,12,0.9,0.5
2025-10-15T0000,2247A,130.1097,47.3382,鹤岗市,五号水库,,,,,,,,,,,,,,,,
2025-10-15T0000,2263A,127.4833,50.2524,黑河市,交通局,,25,18,24,17,15,36,,55,37,10,14,4,4,0.3,0.4
2025-10-15T0000,2264A,127.5144,50.2341,黑河市,环保局,,30,30,19,17,12,19,,54,34,27,13,8,5,0.5,0.4
2025-10-15T0000,2265A,127.5291,50.2472,黑河市,大黑河岛,,,,,,,,,,,,,,,,
2025-10-15T0000,1074A,115.6838,37.7541,衡水市,电机北厂,颗粒物(PM10),65,80,47,44,28,27,,115,69,63,26,8,10,0.6,0.5
2025-10-15T0000,1075A,115.6303,37.7316,衡水市,市监测站,颗粒物(PM10),62,73,49,29,26,51,,110,73,48,28,6,6,0.6,0.4
2025-10-15T0000,3188A,115.6683,37.7217,衡水市,市城管局,颗粒物(PM10),54,57,48,29,25,54,,116,75,55,30,9,8,0.5,0.4
2025-10-15T0000,3459A,115.5989,37.5491,衡水市,地表水厂,颗粒物(PM10),61,72,58,31,26,0,,112,35,84,51,15,7,0.5,0.4
2025-10-15T0000,2456A,112.5003,26.9167,衡阳市,原169医院,,,,,,,,,,,,,,,,
2025-10-15T0000,2457A,112.6194,26.9258,衡阳市,衡阳化工总厂,细颗粒物(PM2.5),60,50,51,43,41,48,,55,50,11,12,6,7,1.1,1
2025-10-15T0000,2458A,112.6211,26.8956,衡阳市,珠晖区环保局,细颗粒物(PM2.5),60,51,49,43,35,39,,50,44,19,18,9,8,1.2,1.2
2025-10-15T0000,2459A,112.6197,26.8733,衡阳市,市委党校,细颗粒物(PM2.5),55,57,47,39,30,48,,55,51,9,10,8,8,0.9,0.8
2025-10-15T0000,2460A,112.6006,26.8919,衡阳市,市监测站,细颗粒物(PM2.5),57,49,50,40,35,48,,53,50,11,12,4,4,1.3,1.1
2025-10-15T0000,2461A,112.5664,26.9056,衡阳市,真空机电公司,细颗粒物(PM2.5),72,,49,52,38,43,,54,49,12,10,6,5,1.3,1.1
2025-10-15T0000,3399A,112.6703,26.882,衡阳市,师范学院,颗粒物(PM10),56,61,49,39,33,41,,60,51,16,13,7,7,1.0,1
2025-10-15T0000,2608A,103.3772,23.3993,红河哈尼族彝族自治州,污水处理厂,,15,12,34,10,19,38,,57,36,6,10,9,22,0.2,0.3
2025-10-15T0000,2609A,103.3861,23.35,红河哈尼族彝族自治州,监测站,,16,16,29,6,16,40,,52,34,2,7,11,14,0.2,0.4
2025-10-15T0000,3038A,103.3758,23.368,红河哈尼族彝族自治州,州图书馆,,29,,20,20,26,42,,61,36,4,7,2,10,0.2,0.3
2025-10-15T0000,1090A,111.6507,40.7517,呼和浩特市,呼市一监,,36,36,62,15,34,51,,98,49,43,39,8,8,0.4,0.5
2025-10-15T0000,1091A,111.6572,40.8033,呼和浩特市,小召,,34,34,64,17,42,57,,91,49,38,46,7,9,0.5,0.7
2025-10-15T0000,1094A,111.7516,40.8369,呼和浩特市,如意水处理厂,,45,45,66,18,34,43,,92,32,52,51,10,11,0.6,0.6
2025-10-15T0000,1095A,111.7276,40.8062,呼和浩特市,二十九中,颗粒物(PM10),65,79,68,22,34,49,,99,44,41,42,9,10,0.5,0.6
2025-10-15T0000,1096A,111.5512,40.7866,呼和浩特市,工大金川校区,颗粒物(PM10),57,63,77,6,38,72,,82,32,18,52,5,8,0.2,0.4
2025-10-15T0000,1097A,111.717,40.7612,呼和浩特市,化肥厂生活区,,50,50,65,22,35,42,,94,34,54,51,6,7,0.5,0.6
2025-10-15T0000,3698A,111.5968,40.8178,呼和浩特市,红旗小学,,23,12,74,8,36,71,,88,30,21,49,7,9,0.3,0.5
2025-10-15T0000,3699A,111.6518,40.8389,呼和浩特市,海东办,,22,19,67,10,34,68,,98,39,27,46,6,8,0.5,0.8
2025-10-15T0000,2192A,119.7594,49.2261,呼伦贝尔市,区环保局,,32,25,32,22,18,40,,56,41,8,16,4,5,0.4,0.5
2025-10-15T0000,3061A,119.7512,49.1577,呼伦贝尔市,国华电力东,,,38,22,21,12,,,60,,18,13,7,8,0.4,0.5
2025-10-15T0000,1250A,120.0751,30.8669,湖州市,城西水厂,细颗粒物(PM2.5),54,54,36,38,26,18,,45,29,42,35,7,8,0.6,0.7
2025-10-15T0000,2873A,120.0830,30.8929,湖州市,仁皇山新区,细颗粒物(PM2.5),55,48,35,39,29,6,,40,20,38,28,6,6,0.6,0.8
2025-10-15T0000,2907A,120.1844,30.8596,湖州市,吴兴区站,,42,34,30,29,22,0,,30,15,46,29,6,6,0.9,1
2025-10-15T0000,3562A,120.4148,30.8538,湖州市,南浔区站,,38,26,28,26,23,8,,46,21,41,27,7,8,0.8,0.8
2025-10-15T0000,1607A,120.9049,40.7211,葫芦岛市,龙港区,细颗粒物(PM2.5),122,164,124,92,92,2,,77,35,71,50,10,34,1.0,1.6
2025-10-15T0000,1608A,120.8392,40.7514,葫芦岛市,化工街,细颗粒物(PM2.5),107,141,136,80,75,47,,75,41,44,51,11,25,0.7,1.3
2025-10-15T0000,1609A,120.8341,40.7073,葫芦岛市,新区,细颗粒物(PM2.5),104,88,95,78,78,36,,95,52,53,50,12,15,1.0,1.5
2025-10-15T0000,1610A,120.8695,40.7677,葫芦岛市,东城区,细颗粒物(PM2.5),102,91,96,76,82,45,,82,47,54,49,10,24,1.0,1.5
2025-10-15T0000,2482A,109.5981,27.5721,怀化市,林科所,,,,,,,,,,,,,,,,
2025-10-15T0000,2483A,109.9453,27.5444,怀化市,河西地税局,,35,26,22,24,14,36,,43,38,13,9,2,2,0.5,0.5
2025-10-15T0000,2484A,109.9781,27.5342,怀化市,市四医院,,39,39,30,23,16,38,,51,46,11,6,13,8,0.4,0.3
2025-10-15T0000,2485A,109.9972,27.5578,怀化市,监测楼,,40,37,25,28,15,24,,48,40,15,8,10,4,0.4,0.3
2025-10-15T0000,2486A,110.0394,27.583,怀化市,市委党校,,46,46,24,21,14,22,,51,35,17,10,30,12,0.7,0.5
2025-10-15T0000,1210A,119.036,33.5981,淮安市,钵池山,,33,,38,23,27,47,,72,48,17,24,6,7,0.6,0.9
2025-10-15T0000,1211A,119.007,33.575,淮安市,北京南路,,33,24,42,23,29,47,,75,59,21,25,8,9,0.5,0.8
2025-10-15T0000,1212A,118.989,33.6067,淮安市,市监测站,,28,27,42,19,27,42,,75,51,28,28,5,6,0.8,1
2025-10-15T0000,1213A,119.135,33.5039,淮安市,楚州区监测站,,25,20,45,17,26,58,,91,71,18,25,9,9,0.5,0.8
2025-10-15T0000,3426A,118.8755,33.2894,淮安市,新华书店,,50,50,48,19,21,27,,65,43,36,24,8,8,0.6,0.6
2025-10-15T0000,4206A,119.0288,33.6319,淮安市,承德北路606号,,38,34,46,26,31,27,,74,49,39,24,7,8,0.5,0.7
2025-10-15T0000,2282A,116.8004,33.975,淮北市,监测站,颗粒物(PM10),52,53,47,26,23,29,,82,56,27,21,8,8,0.9,0.8
2025-10-15T0000,2283A,116.8091,33.9007,淮北市,烈山区政府,颗粒物(PM10),57,64,41,32,30,36,,86,57,27,20,8,8,0.7,0.7
2025-10-15T0000,3330A,116.8873,33.9836,淮北市,杜集区检察院,细颗粒物(PM2.5),57,57,51,40,33,27,,96,58,25,16,2,3,0.6,0.5
2025-10-15T0000,4017A,116.7923,33.9535,淮北市,市博物馆,颗粒物(PM10),55,59,43,32,25,34,,87,52,31,24,9,9,0.8,0.6
2025-10-15T0000,2277A,116.8305,32.7727,淮南市,潘集区政府,细颗粒物(PM2.5),54,50,45,38,40,26,,58,43,21,11,6,6,0.6,0.5
2025-10-15T0000,2279A,116.8569,32.5951,淮南市,谢家集区政府,,42,42,42,22,24,37,,52,41,13,14,8,7,0.5,0.5
2025-10-15T0000,2280A,116.8281,32.633,淮南市,八公山区政府,颗粒物(PM10),58,65,50,36,29,38,,55,45,16,13,6,7,0.6,0.5
2025-10-15T0000,2281A,116.6325,32.6201,淮南市,焦岗湖风景区管理处,,,,,,,,,,,,,,,,
2025-10-15T0000,2894A,117.0566,32.6531,淮南市,经济技术开发区消防队,,44,44,39,21,26,38,,52,40,17,18,8,9,0.4,0.3
2025-10-15T0000,3329A,117.0108,32.5893,淮南市,山南新区,颗粒物(PM10),53,55,47,20,24,45,,58,49,17,17,4,4,0.3,0.3
2025-10-15T0000,4209A,117.0031,32.6445,淮南市,国庆中路369号,颗粒物(PM10),55,59,56,31,31,39,,51,43,17,17,8,8,0.6,0.6
2025-10-15T0000,2446A,114.9028,30.4742,黄冈市,职工中心,细颗粒物(PM2.5),68,60,33,49,22,26,,46,41,16,15,6,6,0.7,0.6
2025-10-15T0000,2929A,114.8858,30.4519,黄冈市,红卫路,细颗粒物(PM2.5),62,63,32,44,20,29,,52,44,18,16,4,4,0.8,0.6
2025-10-15T0000,3398A,114.9136,30.4445,黄冈市,市林业局,细颗粒物(PM2.5),65,60,31,47,19,26,,50,42,14,14,3,4,0.7,0.5
2025-10-15T0000,2672A,102.0199,35.5102,黄南藏族自治州,同仁县隆务镇,,21,21,29,7,9,41,,76,58,4,6,10,10,0.3,0.3
2025-10-15T0000,2295A,118.2903,29.6963,黄山市,延安路89号,,31,31,24,14,10,27,,52,42,17,14,5,5,1.0,1
2025-10-15T0000,2297A,118.1371,30.2756,黄山市,黄山区政府5号楼,,35,32,27,24,17,6,,24,17,17,17,4,4,0.8,1
2025-10-15T0000,4210A,118.3354,29.7203,黄山市,滨江东路7-2号,,33,33,28,14,8,21,,43,36,20,15,3,3,1.0,1
2025-10-15T0000,2423A,115.0601,30.2313,黄石市,沈家营,颗粒物(PM10),63,75,45,42,26,20,,54,35,14,14,10,10,0.6,0.8
2025-10-15T0000,2426A,114.8988,30.2019,黄石市,铁山,细颗粒物(PM2.5),73,56,43,53,27,21,,26,22,2,11,4,4,1.0,1
2025-10-15T0000,2427A,115.0307,30.2092,黄石市,团城山,颗粒物(PM10),62,74,43,40,22,25,,57,34,20,15,15,15,1.0,1
2025-10-15T0000,3149A,115.0235,30.1578,黄石市,笔架山北路,细颗粒物(PM2.5),62,,25,44,18,27,,77,51,14,11,8,8,0.4,0.6
2025-10-15T0000,4185A,115.0780,30.21118,黄石市,磁湖东路29号,细颗粒物(PM2.5),77,74,50,56,32,20,,46,32,27,17,11,10,0.9,0.9
2025-10-15T0000,1392A,114.4183,23.0528,惠州市,河南岸金山湖子站,,12,12,17,3,8,17,,58,31,16,12,8,9,0.5,0.5
2025-10-15T0000,1393A,114.4053,23.0822,惠州市,下埔横江三路子站,,11,11,19,6,9,23,,59,34,10,9,5,6,0.5,0.4
2025-10-15T0000,1394A,114.4103,23.1142,惠州市,江北云山西路子站,,8,8,19,3,9,25,,68,39,12,14,6,7,0.5,0.5
2025-10-15T0000,1395A,114.4645,22.7833,惠州市,惠阳区承修路船湖子站,,18,18,18,8,8,41,,49,36,11,12,8,8,0.5,0.5
2025-10-15T0000,1396A,114.5317,22.7422,惠州市,大亚湾管委会子站,,23,23,13,10,5,44,,54,43,18,15,10,10,0.5,0.5
2025-10-15T0000,3314A,114.4338,22.8134,惠州市,惠阳秋长,,19,19,13,10,7,13,,54,34,28,10,11,11,0.6,0.5
2025-10-15T0000,3452A,114.6517,22.775,惠州市,大亚湾霞涌,,9,,17,6,9,26,,60,42,13,9,6,6,0.7,0.6
2025-10-15T0000,2240A,130.9762,45.3001,鸡西市,环保局,细颗粒物(PM2.5),82,102,83,60,35,2,,42,15,39,30,9,9,0.8,0.7
2025-10-15T0000,2243A,130.9429,45.3039,鸡西市,第一中学,细颗粒物(PM2.5),63,68,63,45,31,1,,41,16,39,29,8,9,0.8,0.6
2025-10-15T0000,3707A,131.0207,45.3073,鸡西市,欧美日汽修厂,颗粒物(PM10),78,106,109,55,48,1,,42,7,34,28,11,12,1.0,0.9
2025-10-15T0000,3709A,130.9967,45.3106,鸡西市,市政设施管理处,颗粒物(PM10),67,84,69,37,33,1,,44,8,39,34,10,10,0.6,0.7
2025-10-15T0000,2367A,114.9754,27.0803,吉安市,红声器材厂,颗粒物(PM10),63,75,67,42,42,31,,48,42,19,15,14,12,1.0,1.1
2025-10-15T0000,2368A,114.9658,27.0999,吉安市,市森林工业局,细颗粒物(PM2.5),63,65,64,45,45,27,,46,39,20,17,12,11,0.9,0.9
2025-10-15T0000,2369A,114.99,27.1312,吉安市,市环境监测站,颗粒物(PM10),58,66,66,39,43,29,,47,40,13,13,21,16,0.9,1
2025-10-15T0000,2370A,115.0093,27.0968,吉安市,青原区法院,颗粒物(PM10),60,69,64,42,45,28,,44,40,22,19,18,11,1.2,1.3
2025-10-15T0000,1772A,126.54,43.8622,吉林市,哈达湾,细颗粒物(PM2.5),59,57,262,42,190,8,,44,19,29,39,8,16,0.4,1
2025-10-15T0000,1773A,126.5844,43.8358,吉林市,东局子,细颗粒物(PM2.5),57,54,290,40,350,7,,52,19,25,35,6,10,0.7,1.4
2025-10-15T0000,1774A,126.5052,43.8245,吉林市,电力学院,细颗粒物(PM2.5),69,64,317,50,218,2,,48,16,28,37,17,19,0.9,1.2
2025-10-15T0000,1775A,126.6133,43.8972,吉林市,江北,细颗粒物(PM2.5),57,60,392,40,297,8,,51,20,16,29,4,6,0.7,1.2
2025-10-15T0000,1776A,126.555,43.8306,吉林市,江南公园,细颗粒物(PM2.5),64,54,306,46,235,9,,50,21,30,38,6,10,0.7,1.2
2025-10-15T0000,1778A,126.7061,43.7133,吉林市,丰满,细颗粒物(PM2.5),69,,200,50,225,33,,103,43,21,30,8,10,0.6,1.2
2025-10-15T0000,2868A,126.4739,43.953,吉林市,九站,细颗粒物(PM2.5),64,56,346,46,218,15,,41,21,21,37,14,23,0.5,1.1
2025-10-15T0000,1299A,116.9862,36.6114,济南市,科干所,,41,41,47,24,29,78,,139,93,22,27,8,9,0.5,0.5
2025-10-15T0000,1300A,116.9376,36.665,济南市,农科所,颗粒物(PM10),80,110,65,56,32,3,,131,58,70,40,8,8,1.5,0.9
2025-10-15T0000,1301A,117.1265,36.6734,济南市,开发区,颗粒物(PM10),57,63,56,34,34,36,,142,59,58,43,4,5,0.8,0.7
2025-10-15T0000,1303A,117.0624,36.6868,济南市,省种子仓库,颗粒物(PM10),64,78,78,36,36,33,,145,62,55,48,6,9,1.1,1
2025-10-15T0000,1304A,116.9489,36.6447,济南市,机床二厂,细颗粒物(PM2.5),89,100,77,66,45,13,,138,64,73,47,8,10,1.3,1
2025-10-15T0000,1305A,117.0495,36.663,济南市,市监测站,,37,37,60,24,36,72,,147,77,27,42,3,5,1.0,1.1
2025-10-15T0000,1306A,116.7675,36.5484,济南市,长清党校,颗粒物(PM10),63,76,49,44,24,94,,134,107,27,28,8,8,0.8,0.7
2025-10-15T0000,1616A,117.6795,36.229,济南市,技术学院,,49,41,32,34,22,48,,102,67,36,28,10,9,0.6,0.6
2025-10-15T0000,1961A,117.532,36.6868,济南市,东山小学,颗粒物(PM10),56,61,54,32,26,39,,138,89,39,34,7,9,0.6,0.5
2025-10-15T0000,3059A,117.7161,36.2049,济南市,泰兴公司,,,,37,,20,,,99,39,,28,,9,,0.2
2025-10-15T0000,3064A,117.6867,36.2171,济南市,莱芜战役纪念馆,细颗粒物(PM2.5),54,53,40,38,23,32,,100,58,48,30,7,7,0.5,0.5
2025-10-15T0000,3494A,117.1673,36.9782,济南市,济阳区政府,细颗粒物(PM2.5),77,93,68,56,32,69,,143,114,32,40,12,13,0.7,0.6
2025-10-15T0000,3495A,117.1171,36.63,济南市,锦屏中学,,27,27,40,17,20,48,,131,78,16,19,5,7,0.7,0.6
2025-10-15T0000,3682A,116.9814,36.6819,济南市,济南四建,颗粒物(PM10),81,112,70,54,38,4,,140,60,83,48,6,8,1.4,1
2025-10-15T0000,1653A,116.6251,35.4302,济宁市,火炬城,细颗粒物(PM2.5),55,54,44,39,28,39,,108,65,25,19,8,7,0.3,0.4
2025-10-15T0000,1655A,116.5491,35.4042,济宁市,电化厂,颗粒物(PM10),59,67,53,41,33,39,,112,62,32,29,3,3,0.4,0.4
2025-10-15T0000,3500A,116.5814,35.3707,济宁市,北湖一中,,49,42,36,34,29,43,,98,66,23,18,2,2,0.4,0.4
2025-10-15T0000,3501A,116.8249,35.5593,济宁市,服务中心,细颗粒物(PM2.5),55,47,40,39,19,33,,102,66,26,24,6,7,0.4,0.4
2025-10-15T0000,3678A,116.5907,35.4054,济宁市,市第七中学,,50,50,50,31,22,40,,103,63,26,21,10,9,0.4,0.5
2025-10-15T0000,2255A,130.2751,46.8028,佳木斯市,佳纺,颗粒物(PM10),89,127,68,50,22,3,,42,5,37,24,4,5,0.6,0.4
2025-10-15T0000,2256A,130.3995,46.8307,佳木斯市,发电厂,颗粒物(PM10),78,105,65,44,18,1,,47,4,47,31,8,9,0.7,0.6
2025-10-15T0000,2257A,130.3258,46.7975,佳木斯市,环保局,颗粒物(PM10),66,81,40,42,15,7,,44,11,47,25,9,5,0.5,0.5
2025-10-15T0000,2258A,130.3648,46.8032,佳木斯市,十一中,细颗粒物(PM2.5),73,87,43,53,21,4,,44,9,48,24,9,8,0.7,0.5
2025-10-15T0000,2259A,130.3794,46.7588,佳木斯市,四丰,,,,,,,,,,,,,,,,
2025-10-15T0000,1252A,120.7436,30.778,嘉兴市,清河小学,,25,25,29,11,14,25,,40,24,24,29,6,6,1.0,1.2
2025-10-15T0000,1253A,120.726,30.7478,嘉兴市,嘉兴学院,,23,23,26,15,20,29,,43,25,18,25,4,4,0.8,1.1
2025-10-15T0000,2872A,120.7846,30.7525,嘉兴市,南湖区残联,,25,17,22,17,19,39,,52,30,15,24,6,6,0.8,1.2
2025-10-15T0000,3407A,120.6916,30.7739,嘉兴市,秀洲住建,,18,17,25,12,18,24,,43,24,17,22,6,7,0.9,1.1
2025-10-15T0000,1945A,98.2908,39.7711,嘉峪关市,气象局,颗粒物(PM10),65,80,75,31,23,54,,107,84,37,18,12,13,0.4,0.5
2025-10-15T0000,2884A,98.2672,39.7978,嘉峪关市,酒钢宾馆,颗粒物(PM10),63,75,86,29,28,77,,100,85,19,18,17,32,0.7,0.9
2025-10-15T0000,3248A,98.2643,39.7724,嘉峪关市,雄关区,颗粒物(PM10),59,67,65,31,23,57,,99,79,37,24,15,22,0.2,0.5
2025-10-15T0000,1383A,113.1064,22.6058,江门市,北街,,15,15,24,6,11,22,,60,32,16,21,4,5,0.4,0.4
2025-10-15T0000,1384A,113.0731,22.5835,江门市,西区,,24,24,20,10,10,22,,62,33,19,19,4,4,0.4,0.5
2025-10-15T0000,1385A,113.0219,22.5311,江门市,圭峰西,,14,14,20,6,10,20,,68,36,21,15,6,5,0.4,0.4
2025-10-15T0000,1386A,113.0828,22.5947,江门市,东湖,,13,13,18,7,11,23,,56,33,16,19,2,3,0.5,0.5
2025-10-15T0000,3311A,113.1075,22.5647,江门市,江海富民,,,,33,,12,,,64,35,,24,,7,,0.5
2025-10-15T0000,3449A,113.05,22.4667,江门市,新会银湖,,32,32,22,10,11,6,,51,27,17,15,3,3,0.4,0.5
2025-10-15T0000,1830A,113.1992,35.2590,焦作市,影视城,,,,43,,26,,,112,103,,20,,11,,0.7
2025-10-15T0000,3335A,113.3137,35.2641,焦作市,马村街道办,颗粒物(PM10),53,56,61,32,35,59,,116,92,18,17,4,5,0.3,0.6
2025-10-15T0000,3336A,113.2465,35.2373,焦作市,焦作技师学院,颗粒物(PM10),52,53,58,27,40,63,,118,95,20,18,9,10,0.5,0.8
2025-10-15T0000,3477A,113.1656,35.2539,焦作市,中站许衡医院,细颗粒物(PM2.5),57,52,59,40,44,76,,120,100,17,18,6,7,0.5,0.7
2025-10-15T0000,3981A,113.2449,35.1803,焦作市,原李万街道办,颗粒物(PM10),64,78,76,29,44,68,,121,93,15,21,7,8,0.5,0.8
2025-10-15T0000,4264A,113.2340,35.2190,焦作市,新安路1731号,颗粒物(PM10),58,65,65,35,44,70,,126,105,20,18,6,7,0.5,0.8
2025-10-15T0000,4295A,113.2722,35.2121,焦作市,人民路3066号,,47,47,63,21,30,66,,125,100,16,22,5,7,0.5,0.9
2025-10-15T0000,1708A,116.3701,23.5345,揭阳市,新兴,,21,21,28,13,14,24,,80,43,18,16,5,7,0.6,0.7
2025-10-15T0000,1709A,116.3264,23.5443,揭阳市,西马,,26,23,29,18,14,12,,85,50,21,12,4,4,0.7,0.7
2025-10-15T0000,1710A,116.3611,23.5626,揭阳市,东兴,,25,25,26,11,13,18,,79,40,19,14,9,8,0.9,0.7
2025-10-15T0000,1711A,116.4151,23.5294,揭阳市,渔湖,,25,25,30,12,12,17,,79,45,20,17,5,6,0.8,0.9
2025-10-15T0000,3320A,116.403,23.5699,揭阳市,曲溪,,25,25,27,15,12,15,,83,48,19,13,4,5,0.7,0.7
2025-10-15T0000,1944A,102.1692,38.5167,金昌市,天庆家园,,44,44,51,21,18,76,,90,66,10,14,4,8,0.7,0.8
2025-10-15T0000,4022A,102.1647,38.5371,金昌市,金川区人防中心,颗粒物(PM10),52,53,48,18,16,76,,82,70,7,10,6,8,0.5,0.4
2025-10-15T0000,4239A,102.1930,38.5319,金昌市,长春路96号,颗粒物(PM10),53,55,50,20,17,69,,82,63,14,12,9,16,0.3,0.4
2025-10-15T0000,1262A,119.647,29.077,金华市,十五中,细颗粒物(PM2.5),68,58,36,49,29,45,,71,63,27,34,2,2,1.2,1.4
2025-10-15T0000,1263A,119.686,29.1029,金华市,监测站,颗粒物(PM10),56,62,40,38,24,41,,70,62,38,43,5,5,1.1,1.3
2025-10-15T0000,3659A,119.656,29.1131,金华市,气象局,细颗粒物(PM2.5),55,51,32,39,23,36,,62,53,36,38,4,5,1.1,1.2
2025-10-15T0000,1767A,121.1115,41.0879,锦州市,南山,细颗粒物(PM2.5),105,111,83,79,86,62,,80,70,32,36,12,14,1.1,1.2
2025-10-15T0000,1768A,121.0604,40.8428,锦州市,开发区,细颗粒物(PM2.5),114,106,106,86,96,71,,89,75,32,44,10,13,0.8,1.3
2025-10-15T0000,1769A,121.1836,41.1119,锦州市,百股街道,细颗粒物(PM2.5),100,118,97,75,75,69,,90,78,35,38,12,16,1.0,1.2
2025-10-15T0000,1770A,121.1178,41.1222,锦州市,天安街道,细颗粒物(PM2.5),100,128,100,75,89,47,,80,65,41,44,17,16,1.6,1.4
2025-10-15T0000,1771A,121.1303,41.1386,锦州市,北湖公园,细颗粒物(PM2.5),97,141,107,72,85,47,,78,61,33,33,14,11,1.4,1.1
2025-10-15T0000,2160A,112.85,35.5051,晋城市,自来水公司,细颗粒物(PM2.5),58,53,70,41,45,94,,114,110,15,20,4,5,0.7,1.7
2025-10-15T0000,2161A,112.8318,35.4936,晋城市,白云商贸,颗粒物(PM10),65,80,80,29,33,97,,115,112,11,18,3,3,0.7,1.5
2025-10-15T0000,2162A,112.8508,35.4887,晋城市,市环保局,颗粒物(PM10),64,77,66,36,38,91,,112,106,7,18,4,5,0.5,1.5
2025-10-15T0000,2163A,112.8676,35.4897,晋城市,技术学院,颗粒物(PM10),56,62,64,34,39,78,,103,98,15,17,5,5,0.7,1.5
2025-10-15T0000,2165A,112.8453,35.546,晋城市,白马寺,细颗粒物(PM2.5),77,64,48,56,38,99,,123,117,8,13,7,7,0.6,1.7
2025-10-15T0000,3620A,112.8271,35.4828,晋城市,泽州一中,颗粒物(PM10),65,79,72,41,44,99,,120,116,10,16,3,3,0.6,1.5
2025-10-15T0000,2173A,112.7249,37.7067,晋中市,南都小区,,43,43,50,28,27,87,,118,97,17,24,8,9,0.8,0.7
2025-10-15T0000,2174A,112.6991,37.6982,晋中市,榆次区政府,,44,44,51,28,33,86,,111,93,19,24,9,10,1.0,0.9
2025-10-15T0000,2865A,112.7195,37.6828,晋中市,榆次三中,,46,46,47,14,22,91,,128,103,15,19,11,11,1.1,0.9
2025-10-15T0000,4200A,112.7478,37.6954,晋中市,迎宾街26号,,48,48,43,19,21,92,,121,101,20,18,8,8,1.0,0.7
2025-10-15T0000,2439A,112.2014,31.0481,荆门市,竹园小学,,31,31,32,21,22,48,,63,48,16,17,1,1,0.3,0.3
2025-10-15T0000,2440A,112.1969,30.9891,荆门市,掇刀,,39,38,31,27,23,74,,69,69,11,11,1,1,0.6,0.6
2025-10-15T0000,2441A,112.2213,31.0386,荆门市,石化一小,,43,43,32,26,25,51,,57,46,18,17,1,4,1.2,1.1
2025-10-15T0000,3012A,112.1849,31.0362,荆门市,西山林语,,29,24,26,20,18,73,,69,69,9,9,5,3,0.9,0.9
2025-10-15T0000,3547A,112.1632,31.0138,荆门市,龙泉中学南校,,23,19,20,12,14,71,,66,66,16,14,7,6,0.2,0.2
2025-10-15T0000,1844A,112.2494,30.3197,荆州市,市图书馆,,38,38,27,21,18,47,,101,77,19,19,5,6,0.7,0.7
2025-10-15T0000,1845A,112.2008,30.3544,荆州市,市委党校,,46,32,30,32,20,43,,95,71,20,16,8,9,0.7,0.7
2025-10-15T0000,3194A,112.2747,30.3122,荆州市,管委会,,48,,27,33,22,32,,99,70,34,20,9,9,0.8,0.8
2025-10-15T0000,4268A,112.1722,30.3366,荆州市,学苑路85号,,49,,25,34,29,53,,101,76,15,13,10,6,0.8,0.7
2025-10-15T0000,2342A,117.3102,29.3867,景德镇市,王港中学,,,,,,,,,,,,,,,,
2025-10-15T0000,2343A,117.2117,29.2933,景德镇市,老干部活动中心,细颗粒物(PM2.5),83,79,46,61,43,27,,78,55,15,8,7,8,0.8,1.3
2025-10-15T0000,2344A,117.1894,29.2789,景德镇市,兽医站,细颗粒物(PM2.5),73,91,62,53,38,26,,92,61,25,19,13,14,1.2,1.2
2025-10-15T0000,2346A,117.2461,29.2956,景德镇市,陶研所,细颗粒物(PM2.5),105,93,61,79,48,8,,80,48,58,26,31,16,2.7,1.5
2025-10-15T0000,4289A,117.1542,29.2566,景德镇市,青少年活动中心,细颗粒物(PM2.5),89,86,59,66,43,27,,91,61,26,21,10,15,1.1,1.1
2025-10-15T0000,1803A,115.9872,29.6815,九江市,十里,细颗粒物(PM2.5),62,56,45,44,31,29,,79,65,26,19,5,6,1.1,0.9
2025-10-15T0000,1804A,115.9584,29.7046,九江市,茅山头,细颗粒物(PM2.5),64,61,44,46,34,28,,76,60,19,16,4,4,1.0,0.9
2025-10-15T0000,1805A,115.9877,29.7295,九江市,西园,细颗粒物(PM2.5),52,47,35,36,25,32,,82,65,31,26,5,5,1.1,0.9
2025-10-15T0000,1808A,115.9114,29.6038,九江市,综合工业园,细颗粒物(PM2.5),68,53,47,49,30,24,,73,63,32,23,6,6,1.0,0.8
2025-10-15T0000,1809A,116.0721,29.7535,九江市,石化总厂,细颗粒物(PM2.5),64,52,40,46,31,28,,75,58,27,21,3,3,0.9,0.8
2025-10-15T0000,1810A,115.9773,29.5698,九江市,庐山气象台,,,,,,,,,,,,,,,,
2025-10-15T0000,3190A,116.0254,29.6994,九江市,外国语学校,细颗粒物(PM2.5),62,47,41,44,32,24,,68,52,26,23,6,7,0.9,0.8
2025-10-15T0000,4253A,116.0102,29.6594,九江市,莲花大道8号,细颗粒物(PM2.5),80,,57,59,31,25,,65,55,14,13,7,6,1.0,0.8
2025-10-15T0000,4240A,98.4958,39.7339,酒泉市,玉门东路5号,颗粒物(PM10),80,110,73,37,22,42,,96,64,34,18,32,16,0.6,0.4
2025-10-15T0000,4241A,98.5099,39.7506,酒泉市,北大街108号,颗粒物(PM10),74,97,74,37,19,49,,96,66,23,15,36,16,0.6,0.5
2025-10-15T0000,2698A,76.0072,39.4467,喀什地区,巡警大队,颗粒物(PM10),208,355,202,108,93,4,,112,69,90,55,10,8,1.4,0.8
2025-10-15T0000,2699A,75.9755,39.4694,喀什地区,吾办,颗粒物(PM10),216,361,186,142,67,2,,99,62,89,46,10,10,1.3,0.8
2025-10-15T0000,4027A,75.9483,39.4689,喀什地区,老干局,颗粒物(PM10),149,247,144,74,41,2,,105,70,91,41,4,3,1.2,0.6
2025-10-15T0000,1824A,114.3389,34.7781,开封市,肿瘤医院,,43,41,39,30,25,39,,102,66,26,24,7,6,0.7,0.7
2025-10-15T0000,1826A,114.2885,34.7965,开封市,世纪星幼儿园,,45,39,34,31,25,39,,106,70,23,17,6,6,0.8,0.7
2025-10-15T0000,3147A,114.3438,34.8106,开封市,龙亭公园,,47,47,38,28,22,31,,97,62,24,19,8,8,0.9,0.7
2025-10-15T0000,3210A,114.3644,34.7964,开封市,汴京公园,颗粒物(PM10),59,67,48,34,26,27,,99,62,26,20,7,7,0.7,0.5
2025-10-15T0000,3473A,114.2485,34.8306,开封市,技师学院,细颗粒物(PM2.5),54,47,33,38,27,44,,103,73,21,15,9,9,0.9,0.8
2025-10-15T0000,3592A,114.4644,34.7556,开封市,祥符区生态环境局,颗粒物(PM10),51,51,40,29,21,15,,90,46,44,28,4,5,0.7,0.7
2025-10-15T0000,1951A,84.895,45.6094,克拉玛依市,长征新村,,20,,13,6,7,63,,67,51,5,7,2,2,0.1,0.2
2025-10-15T0000,1952A,84.8988,45.5893,克拉玛依市,南林小区,,18,8,14,8,7,56,,65,50,7,8,4,4,0.2,0.2
2025-10-15T0000,1954A,84.905,44.3396,克拉玛依市,独山子区,,17,14,18,11,9,54,,74,56,6,5,4,5,0.2,0.3
2025-10-15T0000,1955A,85.6979,46.098,克拉玛依市,乌尔禾区商贸楼,,24,24,23,14,6,56,,63,53,7,11,4,4,0.2,0.1
2025-10-15T0000,3612A,85.1045,45.6899,克拉玛依市,白碱滩区新站,,25,25,25,7,7,58,,70,56,9,7,4,5,0.3,0.3
2025-10-15T0000,2697A,76.1454,39.7142,克孜勒苏柯尔克孜自治州,市人民政府,颗粒物(PM10),80,110,62,41,23,50,,118,96,38,11,15,11,0.4,0.2
2025-10-15T0000,3665A,76.1658,39.7157,克孜勒苏柯尔克孜自治州,克州文化中心,颗粒物(PM10),73,96,62,31,22,64,,114,93,35,11,16,14,0.3,0.2
2025-10-15T0000,1450A,102.8204,24.8886,昆明市,呈贡新区,细颗粒物(PM2.5),99,,25,74,30,46,,75,56,25,20,4,5,0.5,0.3
2025-10-15T0000,1451A,102.6251,24.9608,昆明市,西山森林公园,,,,,,,,,,,,,,,,
2025-10-15T0000,1452A,102.7252,25.0902,昆明市,龙泉镇,颗粒物(PM10),68,85,26,24,15,44,,68,,21,13,3,3,0.3,0.4
2025-10-15T0000,1453A,102.7266,25.0375,昆明市,东风东路,,36,36,29,18,17,64,,73,63,14,14,5,5,0.4,0.4
2025-10-15T0000,1454A,102.6742,25.0669,昆明市,金鼎山,,23,23,26,16,16,55,,66,52,13,13,3,3,0.4,0.4
2025-10-15T0000,1455A,102.6644,25.0401,昆明市,碧鸡广场,,41,41,30,26,19,43,,63,45,24,16,8,8,0.4,0.4
2025-10-15T0000,3179A,102.7494,25.0119,昆明市,官渡区博物馆,,28,28,25,14,19,54,,72,57,16,14,3,3,0.4,0.4
2025-10-15T0000,3375A,102.8017,24.8336,昆明市,青年创业园,,36,36,28,21,19,59,,74,65,10,10,2,3,0.4,0.4
2025-10-15T0000,3550A,102.7997,24.9786,昆明市,昆明学院,,48,48,32,30,21,41,,68,49,24,19,10,8,0.5,0.4
2025-10-15T0000,3551A,102.5967,24.6736,昆明市,晋宁区生态环境分局,,42,41,27,29,18,40,,71,50,20,17,8,7,0.5,0.5
2025-10-15T0000,3552A,102.6678,24.9856,昆明市,云天化总部,,35,33,24,24,18,57,,68,57,14,10,6,5,0.5,0.5
2025-10-15T0000,1456A,91.1319,29.6514,拉萨市,八廓街,,20,18,16,11,10,63,,106,84,17,17,5,7,0.2,0.2
2025-10-15T0000,1457A,91.1221,29.6747,拉萨市,市环保局,,29,25,17,20,9,22,,107,78,29,16,8,9,0.7,0.4
2025-10-15T0000,1458A,91.0874,29.6475,拉萨市,区监测站,,34,21,14,10,8,17,,102,71,68,33,4,5,0.5,0.3
2025-10-15T0000,1459A,91.1774,29.6541,拉萨市,西藏大学,,25,25,17,11,8,67,,105,88,24,20,6,9,0.2,0.3
2025-10-15T0000,1460A,90.9798,29.6588,拉萨市,区辐射站,,35,35,22,14,9,35,,91,65,43,28,7,8,0.4,0.4
2025-10-15T0000,1461A,91.0834,29.6292,拉萨市,拉萨火车站,,26,19,18,11,8,34,,101,79,52,20,5,6,0.3,0.3
2025-10-15T0000,2520A,109.2203,23.7256,来宾市,来宾技工学校,,16,13,23,11,16,26,,70,51,13,8,11,8,0.6,0.6
2025-10-15T0000,3535A,109.1781,23.7297,来宾市,兴宾区政府,,13,13,22,3,11,31,,72,53,7,7,6,7,0.5,0.5
2025-10-15T0000,4002A,109.2416,23.7461,来宾市,中南小学,,8,8,22,3,12,21,,65,46,16,9,6,5,0.4,0.5
2025-10-15T0000,1477A,104.1373,35.9454,兰州市,榆中兰大校区,,,,,,,,,,,,,,,,
2025-10-15T0000,1479A,103.831,36.0464,兰州市,铁路设计院,,,,,,,,,,,,,,,,
2025-10-15T0000,3241A,103.7439,36.0842,兰州市,百合公园,颗粒物(PM10),54,57,60,16,28,4,,54,28,50,42,9,8,0.7,0.8
2025-10-15T0000,3242A,103.9611,35.998,兰州市,和平,,41,41,40,14,17,13,,55,42,34,20,2,4,0.4,0.5
2025-10-15T0000,4236A,103.6293,36.0938,兰州市,庄浪东路808号,,40,40,56,28,35,24,,60,35,39,51,7,12,0.3,0.7
2025-10-15T0000,4237A,103.7251,36.1043,兰州市,安宁西路88号,,,53,65,32,40,,,71,55,52,39,5,9,0.5,0.6
2025-10-15T0000,4238A,103.8470,36.0676,兰州市,北滨河东路1号,,49,49,54,20,30,1,,46,32,63,50,6,9,0.6,0.9
2025-10-15T0000,3245A,103.6633,36.533,兰州新区,新区管委会,,42,42,47,27,32,23,,86,53,24,22,10,12,0.5,0.5
2025-10-15T0000,3246A,103.6975,36.4789,兰州新区,舟曲中学,,36,36,48,18,26,45,,87,72,34,29,11,13,0.3,0.4
2025-10-15T0000,1067A,116.6708,39.5111,廊坊市,药材公司,细颗粒物(PM2.5),70,71,51,51,28,67,,113,87,35,30,11,8,0.6,0.5
2025-10-15T0000,1068A,116.7214,39.5589,廊坊市,开发区,颗粒物(PM10),64,77,51,36,21,46,,113,71,35,25,2,2,0.4,0.4
2025-10-15T0000,1070A,116.7244,39.5269,廊坊市,北华航天学院,细颗粒物(PM2.5),67,74,53,48,24,59,,118,76,39,29,9,8,0.5,0.4
2025-10-15T0000,2919A,116.7022,39.5453,廊坊市,河北工业大学,细颗粒物(PM2.5),67,65,43,48,25,80,,122,96,31,26,8,4,0.5,0.4
2025-10-15T0000,2535A,103.7723,29.5462,乐山市,花湖湾,,,,,,,,,,,,,,,,
2025-10-15T0000,2536A,103.7627,29.5844,乐山市,牛耳桥,细颗粒物(PM2.5),53,37,26,37,21,53,,90,73,22,18,7,8,0.9,0.8
2025-10-15T0000,2537A,103.7508,29.6006,乐山市,市第三水厂,细颗粒物(PM2.5),52,37,28,36,21,58,,87,73,18,18,6,7,0.7,0.7
2025-10-15T0000,2538A,103.7571,29.5664,乐山市,市监测站,,41,41,26,28,16,57,,83,74,13,12,8,9,1.1,1
2025-10-15T0000,3361A,103.7311,29.5628,乐山市,理工大学,,40,31,24,28,19,64,,90,79,13,12,10,11,1.0,0.9
2025-10-15T0000,2598A,100.2143,26.8576,丽江市,西南郊,,28,28,17,16,7,44,,76,61,14,7,6,8,1.0,1
2025-10-15T0000,2599A,100.2497,26.8802,丽江市,丽江古城,,,24,18,,6,53,,79,65,10,11,9,9,0.5,0.4
2025-10-15T0000,2600A,100.2203,26.8906,丽江市,市中心,,22,,12,15,8,55,,86,66,12,11,9,9,0.4,0.5
2025-10-15T0000,1267A,119.914,28.4514,丽水市,监测站大楼,,26,26,20,9,13,61,,86,74,13,12,4,4,0.5,0.5
2025-10-15T0000,1268A,119.93,28.4586,丽水市,莲都小学,,21,18,20,10,11,65,,84,75,13,11,4,4,0.5,0.4
2025-10-15T0000,1269A,119.879,28.4231,丽水市,余庄前,,17,11,22,3,16,54,,84,54,6,14,5,5,0.4,0.5
2025-10-15T0000,1173A,119.176,34.5885,连云港市,市环境监测站,,32,24,40,22,21,34,,100,71,32,24,6,9,0.8,0.8
2025-10-15T0000,3000A,119.3581,34.6972,连云港市,德源药业,,22,22,38,9,20,9,,94,54,43,28,7,9,0.5,0.8
2025-10-15T0000,3007A,119.178,34.844,连云港市,新城一中,,32,28,40,6,17,13,,114,66,63,27,4,7,0.6,0.8
2025-10-15T0000,3008A,119.3608,34.7519,连云港市,胡沟管理处,,22,9,29,3,14,47,,114,69,44,22,11,9,0.6,0.9
2025-10-15T0000,3009A,119.1478,34.5911,连云港市,矿山设计院,,31,31,40,14,24,36,,111,71,17,17,5,8,0.7,0.8
2025-10-15T0000,3434A,119.2413,34.6539,连云港市,工贸学校,,24,7,30,3,15,74,,110,85,6,20,7,10,0.6,0.9
2025-10-15T0000,3664A,119.4172,34.7341,连云港市,连云街道,,23,6,28,3,13,72,,107,72,5,18,1,3,0.4,0.6
2025-10-15T0000,2571A,102.3431,27.8099,凉山彝族自治州,青龙寺,,,,,,,,,,,,,,,,
2025-10-15T0000,2572A,102.2721,27.8415,凉山彝族自治州,邛海宾馆,,16,16,24,9,13,47,,76,62,11,9,10,13,0.5,0.7
2025-10-15T0000,2573A,102.2625,27.898,凉山彝族自治州,西昌市政府,,19,19,24,10,18,51,,70,59,6,14,8,13,0.3,0.5
2025-10-15T0000,2574A,102.2685,27.8851,凉山彝族自治州,凉山州政府,,25,25,27,15,18,46,,71,57,8,14,8,11,0.5,0.7
2025-10-15T0000,4229A,102.2342,27.8859,凉山彝族自治州,凯乐南路30号,,26,26,29,13,17,40,,81,66,16,17,6,10,0.4,0.6
2025-10-15T0000,2212A,123.2,41.1953,辽阳市,宏伟区,细颗粒物(PM2.5),90,118,86,67,49,0,,78,38,39,27,5,9,1.4,1.4
2025-10-15T0000,2213A,123.1683,41.2495,辽阳市,新华园,细颗粒物(PM2.5),166,146,101,126,74,3,,83,51,77,37,17,14,1.2,1.5
2025-10-15T0000,2214A,123.2354,41.2639,辽阳市,滨河路,细颗粒物(PM2.5),137,187,129,104,57,0,,84,23,66,42,10,10,1.3,1.5
2025-10-15T0000,2215A,123.149,41.2991,辽阳市,铁西工业园,细颗粒物(PM2.5),110,158,119,83,56,0,,72,18,54,36,5,8,1.2,1.7
2025-10-15T0000,2227A,125.1358,42.8845,辽源市,环保局,颗粒物(PM10),63,76,111,22,61,33,,122,56,21,30,6,7,0.5,0.7
2025-10-15T0000,3239A,125.0764,42.9078,辽源市,银鹰制药,,50,50,101,30,76,11,,115,49,37,29,5,8,0.5,0.8
2025-10-15T0000,1625A,115.9848,36.4372,聊城市,区政府,颗粒物(PM10),56,62,45,39,25,44,,110,61,32,28,9,9,0.6,0.7
2025-10-15T0000,2878A,116.0072,36.4343,聊城市,聊大东校,颗粒物(PM10),58,66,46,38,29,60,,117,75,30,26,7,9,0.6,0.6
2025-10-15T0000,3200A,115.9819,36.4978,聊城市,监控中心,"颗粒物(PM10),细颗粒物(PM2.5)",64,78,52,46,27,16,,116,50,77,41,10,10,0.6,0.7
2025-10-15T0000,3513A,116.0445,36.4361,聊城市,九州社区,颗粒物(PM10),59,68,49,33,25,57,,119,79,23,23,5,5,0.5,0.5
2025-10-15T0000,4018A,116.0567,36.4608,聊城市,星美广场,颗粒物(PM10),61,72,57,39,27,43,,102,61,23,29,6,7,0.6,0.7
2025-10-15T0000,2632A,94.3681,29.6376,林芝市,林芝监测站,,15,10,11,6,6,48,,88,74,6,4,4,4,0.2,0.2
2025-10-15T0000,2633A,94.3616,29.6616,林芝市,林芝人民医院,,13,11,14,6,6,41,,84,66,5,4,6,6,0.3,0.2
2025-10-15T0000,2603A,100.0781,23.8982,临沧市,市环保局,,33,,17,23,11,13,,43,24,5,5,7,6,0.6,0.6
2025-10-15T0000,2604A,100.0894,23.8822,临沧市,市气象局,,20,18,15,14,18,15,,45,28,8,7,7,6,0.6,0.5
2025-10-15T0000,1733A,111.5531,36.0783,临汾市,临钢医院,,49,49,69,25,31,55,,92,50,22,21,6,10,0.9,1.1
2025-10-15T0000,1734A,111.5028,36.0714,临汾市,技工学校,,46,35,57,32,38,56,,94,47,22,27,6,8,0.8,1
2025-10-15T0000,1736A,111.5018,36.0855,临汾市,市委,颗粒物(PM10),58,65,69,23,33,56,,97,50,24,27,5,8,0.8,1
2025-10-15T0000,3018A,111.505,36.1014,临汾市,唐尧大酒店,,46,46,71,20,32,46,,93,44,30,26,4,5,0.9,1.1
2025-10-15T0000,4244A,111.4879,36.0530,临汾市,启星学校,,31,31,55,16,34,68,,102,50,11,28,6,7,0.9,1
2025-10-15T0000,4271A,103.2464,35.6123,临夏回族自治州,滨河东路1号,颗粒物(PM10),91,132,72,50,33,7,,28,13,22,25,10,10,0.7,0.6
2025-10-15T0000,4310A,103.2093,35.5995,临夏回族自治州,新华街21号,细颗粒物(PM2.5),69,70,62,50,39,4,,49,30,38,27,6,7,0.8,0.7
2025-10-15T0000,1618A,118.3429,35.0532,临沂市,沂河小区,,44,44,43,26,23,50,,96,73,30,30,7,9,0.4,0.5
2025-10-15T0000,1619A,118.295,35.0583,临沂市,鲁南制药厂,,39,39,42,21,22,73,,104,87,24,32,8,10,0.6,0.8
2025-10-15T0000,1620A,118.2794,34.9976,临沂市,新光毛纺厂,,46,46,48,28,26,61,,100,67,35,46,9,10,0.5,0.5
2025-10-15T0000,1621A,118.3956,35.0888,临沂市,河东保险公司,颗粒物(PM10),52,53,41,24,18,21,,96,63,54,31,6,7,0.5,0.5
2025-10-15T0000,3370A,118.3564,35.0215,临沂市,十里堡居委,,36,36,37,22,16,54,,104,81,37,34,8,9,0.5,0.5
2025-10-15T0000,3496A,118.3604,35.1084,临沂市,南坊新区,颗粒物(PM10),51,51,39,24,21,35,,102,78,47,31,9,10,0.6,0.6
2025-10-15T0000,3860A,118.3920,35.0300,临沂市,皇山花园小区,颗粒物(PM10),54,58,38,29,19,36,,101,67,43,27,10,11,0.8,0.7
2025-10-15T0000,1870A,109.4856,24.3895,柳州市,柳东小学,,33,29,22,23,17,50,,74,54,8,8,5,4,0.8,0.7
2025-10-15T0000,1871A,109.4157,24.3277,柳州市,环保监测站,,22,22,24,7,11,56,,76,52,5,8,7,7,0.8,0.7
2025-10-15T0000,1872A,109.389,24.341,柳州市,河西水厂,,29,29,26,19,17,51,,78,51,10,8,5,5,0.7,0.6
2025-10-15T0000,1873A,109.4311,24.2921,柳州市,市四中,,26,26,24,16,14,48,,74,52,12,12,8,8,0.6,0.4
2025-10-15T0000,1874A,109.4006,24.3631,柳州市,市九中,,32,26,31,22,18,49,,72,42,8,9,3,3,0.7,0.6
2025-10-15T0000,1875A,109.4958,24.3134,柳州市,古亭山,,30,30,25,19,17,22,,78,42,25,10,6,7,0.6,0.5
2025-10-15T0000,3402A,109.5422,24.3996,柳州市,市二中,,33,32,24,23,19,48,,72,48,14,10,7,6,0.8,0.7
2025-10-15T0000,2307A,116.5079,31.737,六安市,监测大楼,细颗粒物(PM2.5),53,,28,37,32,15,,29,21,18,14,1,2,0.6,0.5
2025-10-15T0000,2308A,116.4738,31.7643,六安市,皖西学院,细颗粒物(PM2.5),62,48,33,44,35,17,,34,26,24,14,3,2,0.6,0.5
2025-10-15T0000,2309A,116.4996,31.7905,六安市,朝阳厂,,43,40,28,30,30,16,,27,20,25,19,3,3,0.6,0.5
2025-10-15T0000,2310A,116.5567,31.7886,六安市,开发区,,42,42,39,26,23,12,,29,21,17,14,2,2,0.5,0.5
2025-10-15T0000,2576A,104.8,26.5892,六盘水市,窑上,,42,42,34,18,20,45,,71,60,6,5,2,2,0.4,0.4
2025-10-15T0000,2577A,104.83,26.5917,六盘水市,黄土坡,,23,17,19,16,14,51,,73,63,5,9,2,3,0.4,0.5
2025-10-15T0000,2578A,104.89,26.5939,六盘水市,水钢,,34,34,21,22,13,54,,75,68,3,4,3,3,0.4,0.4
2025-10-15T0000,2579A,104.8475,26.5894,六盘水市,民中,,21,21,19,14,13,49,,72,62,5,8,2,2,0.4,0.4
2025-10-15T0000,2580A,104.9544,26.5506,六盘水市,双水,,17,17,21,10,12,50,,73,65,4,6,3,3,0.3,0.3
2025-10-15T0000,2335A,117.0189,25.1181,龙岩市,龙岩师专,,,,,,,,,,,,,,,,
2025-10-15T0000,2336A,117.0217,25.1033,龙岩市,龙岩市监测站,,13,11,18,9,14,38,,67,42,8,11,6,8,0.4,0.4
2025-10-15T0000,2337A,117.0258,25.0661,龙岩市,闽西职业技术学院,,20,18,23,14,13,28,,64,38,9,11,8,10,0.4,0.4
2025-10-15T0000,2338A,117.0196,25.0306,龙岩市,龙岩学院,,20,20,19,13,11,27,,65,27,12,11,12,9,0.5,0.4
2025-10-15T0000,2665A,105.0822,33.3261,陇南市,汉王镇固水子,,,,,,,,,,,,,,,,
2025-10-15T0000,2885A,104.9339,33.3826,陇南市,滨江中学,,27,27,38,9,18,34,,65,,13,13,6,7,0.6,0.6
2025-10-15T0000,3247A,104.955,33.371,陇南市,市总工会,,31,31,35,9,13,36,,70,50,8,9,7,7,0.8,0.7
2025-10-15T0000,2487A,111.9589,27.8901,娄底市,电视发射台,,,,,,,,,,,,,,,,
2025-10-15T0000,2488A,111.9975,27.725,娄底市,市监测站,,20,16,23,9,16,61,,50,49,12,12,7,7,0.5,0.7
2025-10-15T0000,2489A,112.0194,27.7314,娄底市,市委党校,,18,15,19,12,15,53,,52,52,9,10,7,5,0.3,0.4
2025-10-15T0000,2490A,111.9561,27.7569,娄底市,涟钢,,40,40,24,19,16,30,,36,33,13,14,5,5,0.4,0.5
2025-10-15T0000,2491A,111.9892,27.7044,娄底市,市政府,,18,14,18,3,17,57,,52,52,5,7,7,6,0.8,0.9
2025-10-15T0000,1893A,105.4324,28.9634,泸州市,九狮山,,,,,,,,,,,,,,,,
2025-10-15T0000,1894A,105.4427,28.9063,泸州市,小市上码头,,26,26,21,14,11,30,,68,55,18,17,7,8,0.8,0.8
2025-10-15T0000,1895A,105.4241,28.8573,泸州市,兰田宪桥,,35,35,29,14,11,18,,54,38,17,12,5,6,0.6,0.6
2025-10-15T0000,1896A,105.4379,28.8833,泸州市,市环监站,,32,32,21,19,13,31,,58,49,27,18,8,8,0.7,0.6
2025-10-15T0000,4272A,105.3689,28.7783,泸州市,纳溪中医医院,,39,39,23,19,15,5,,67,41,34,16,5,5,0.8,0.8
2025-10-15T0000,2183A,111.1406,37.5211,吕梁市,环保局,颗粒物(PM10),76,101,64,33,26,2,,70,28,73,41,6,6,0.6,0.9
2025-10-15T0000,2185A,111.1297,37.5136,吕梁市,自来水公司,颗粒物(PM10),75,100,56,43,24,3,,67,36,67,32,3,3,1.0,0.7
2025-10-15T0000,2867A,111.1283,37.51,吕梁市,马茂庄小学,颗粒物(PM10),93,136,71,42,28,2,,61,37,73,41,5,5,1.1,0.8
2025-10-15T0000,1812A,112.3931,34.6516,洛阳市,市委党校,细颗粒物(PM2.5),73,68,50,53,42,51,,114,93,31,25,6,6,0.8,0.9
2025-10-15T0000,1815A,112.494,34.6886,洛阳市,河南林校,细颗粒物(PM2.5),90,,61,67,51,53,,112,87,33,31,8,8,0.6,0.8
2025-10-15T0000,1816A,112.3844,34.623,洛阳市,开发区管委会,细颗粒物(PM2.5),72,63,57,52,46,58,,116,97,22,16,6,8,0.8,0.9
2025-10-15T0000,1817A,112.4267,34.6258,洛阳市,市委新办公区,细颗粒物(PM2.5),65,73,61,47,41,52,,104,86,21,20,7,8,0.7,0.9
2025-10-15T0000,3340A,112.6005,34.6326,洛阳市,伊滨,细颗粒物(PM2.5),92,68,58,68,50,22,,111,74,46,26,4,6,0.6,0.8
2025-10-15T0000,3341A,112.4951,34.6332,洛阳市,中移产业园,细颗粒物(PM2.5),79,80,66,58,43,49,,112,90,30,25,7,6,0.7,0.9
2025-10-15T0000,3593A,112.5736,34.8993,洛阳市,吉利监测站,细颗粒物(PM2.5),57,52,53,40,35,51,,119,97,27,20,6,7,0.5,0.7
2025-10-15T0000,3635A,112.3677,34.662,洛阳市,河科大西苑校区,颗粒物(PM10),79,107,69,56,34,54,,116,96,37,25,8,8,0.9,1
2025-10-15T0000,3636A,112.4388,34.6781,洛阳市,英才小学,细颗粒物(PM2.5),75,97,86,55,52,59,,111,91,25,27,7,7,0.8,1
2025-10-15T0000,4214A,112.4600,34.6949,洛阳市,春都路1号院,细颗粒物(PM2.5),67,55,59,48,41,52,,100,78,24,25,6,6,0.7,0.9
2025-10-15T0000,2399A,114.051,33.5699,漯河市,三五一五工厂,,50,50,34,24,20,48,,102,68,19,23,7,7,0.6,0.5
2025-10-15T0000,2400A,114.0055,33.5698,漯河市,漯河大学,,36,36,39,24,25,54,,103,73,18,22,5,5,0.5,0.6
2025-10-15T0000,2401A,114.0138,33.5828,漯河市,市水利局,,44,44,37,29,26,49,,103,73,18,19,7,7,0.7,0.7
2025-10-15T0000,2402A,114.0261,33.5698,漯河市,市广电局,,39,39,38,27,24,53,,105,73,19,23,6,6,0.5,0.5
2025-10-15T0000,3478A,113.9749,33.5664,漯河市,市图书馆,,42,42,37,29,17,53,,96,71,15,20,3,3,0.5,0.6
2025-10-15T0000,4250A,114.0892,33.5882,漯河市,韶山路11号,颗粒物(PM10),51,51,36,28,21,28,,93,55,31,21,5,7,0.6,0.4
2025-10-15T0000,1798A,118.5092,31.6837,马鞍山市,湖东路四小,,32,,21,22,12,32,,37,34,14,21,4,5,0.6,0.8
2025-10-15T0000,1799A,118.5024,31.6449,马鞍山市,开发区,,25,21,20,17,10,34,,39,33,16,22,5,6,0.7,0.9
2025-10-15T0000,1802A,118.6245,31.7241,马鞍山市,濮塘,,,,,,,,,,,,,,,,
2025-10-15T0000,3633A,118.4918,31.6809,马鞍山市,雨山,,23,,19,16,10,32,,38,34,18,25,6,9,0.6,0.9
2025-10-15T0000,4191A,118.5274,31.72227,马鞍山市,慈湖高新区,,37,37,22,17,11,34,,35,34,16,25,5,5,0.4,0.6
2025-10-15T0000,1686A,111.0286,21.4688,茂名市,电白南海,,32,,19,22,10,32,,54,38,7,8,5,6,0.7,0.7
2025-10-15T0000,1687A,110.9294,21.6533,茂名市,茂石化七小,,14,14,18,9,8,22,,50,30,7,7,8,7,0.4,0.5
2025-10-15T0000,1688A,110.9107,21.6687,茂名市,健康路,,12,12,16,3,8,26,,56,36,9,9,6,7,0.4,0.7
2025-10-15T0000,1689A,110.8592,21.6828,茂名市,高岭,,19,19,26,3,2,24,,55,33,14,13,8,10,0.6,0.6
2025-10-15T0000,3450A,111.01,21.5165,茂名市,电白水东,,10,9,11,7,5,23,,53,34,12,9,10,7,0.5,0.5
2025-10-15T0000,2539A,104.0308,30.0478,眉山市,黑龙滩水库,,,,,,,,,,,,,,,,
2025-10-15T0000,2540A,103.8416,30.0874,眉山市,气象局,,49,41,31,34,15,48,,102,78,17,14,8,8,0.5,0.4
2025-10-15T0000,3137A,103.8578,30.0744,眉山市,市委党校,,36,36,23,22,11,45,,92,72,20,13,7,8,0.5,0.5
2025-10-15T0000,3148A,103.8291,30.0564,眉山市,区人社局,,38,38,33,17,12,63,,98,79,12,13,4,5,1.1,1
2025-10-15T0000,1690A,116.1231,24.3284,梅州市,梅江月梅,,25,25,21,13,11,7,,51,24,18,12,11,10,0.8,0.8
2025-10-15T0000,1691A,116.0797,24.2719,梅州市,梅县新城,,27,27,22,6,12,0,,59,28,18,10,6,7,0.6,0.5
2025-10-15T0000,1692A,116.1248,24.2654,梅州市,环境监控中心,,20,,21,14,14,14,,56,27,18,13,17,8,0.5,0.5
2025-10-15T0000,3315A,116.1233,24.2991,梅州市,梅龙,,14,14,18,8,15,18,,57,33,11,10,10,9,0.6,0.6
2025-10-15T0000,1878A,104.7778,31.4741,绵阳市,富乐山,,19,19,27,12,20,25,,60,38,10,9,6,7,0.9,0.8
2025-10-15T0000,1880A,104.6697,31.4668,绵阳市,高新区自来水公司,,35,29,37,24,23,17,,55,40,23,18,7,8,0.8,0.8
2025-10-15T0000,1881A,104.7287,31.5075,绵阳市,三水厂,,40,,30,28,27,16,,65,45,25,15,5,5,0.7,0.7
2025-10-15T0000,3491A,104.69,31.5322,绵阳市,西科大附属小学,,36,36,37,22,22,20,,71,50,27,20,9,9,0.9,0.8
2025-10-15T0000,3492A,104.5648,31.5343,绵阳市,安州区旅游局,,39,,23,27,27,38,,67,57,11,17,9,9,0.8,0.8
2025-10-15T0000,4226A,104.7651,31.4531,绵阳市,绵阳市气象局,,13,11,24,9,17,24,,64,46,10,11,7,7,0.7,0.6
2025-10-15T0000,1784A,129.61,44.561,牡丹江市,环保大楼,颗粒物(PM10),52,54,43,27,21,27,,46,35,19,18,11,13,0.3,0.3
2025-10-15T0000,1785A,129.6115,44.5782,牡丹江市,文化广场,细颗粒物(PM2.5),67,53,48,48,27,24,,40,28,23,23,10,12,0.3,0.3
2025-10-15T0000,1786A,129.5904,44.5963,牡丹江市,第一医院,细颗粒物(PM2.5),63,52,46,45,34,33,,40,35,18,21,6,7,0.3,0.3
2025-10-15T0000,1787A,129.6364,44.6075,牡丹江市,机车工厂,颗粒物(PM10),51,52,55,34,28,24,,39,27,18,18,6,8,0.3,0.3
2025-10-15T0000,1788A,129.6386,44.5462,牡丹江市,第一中学,,50,50,35,35,21,25,,48,32,17,16,4,5,0.3,0.3
2025-10-15T0000,2531A,105.0703,29.61,内江市,市监测站,,36,36,21,17,15,34,,63,48,12,13,1,2,0.9,0.9
2025-10-15T0000,2532A,105.0717,29.5947,内江市,东兴区政府,,22,22,13,13,8,39,,64,54,14,16,8,7,0.4,0.4
2025-10-15T0000,2533A,105.0653,29.5817,内江市,内江二中,细颗粒物(PM2.5),72,,19,52,33,37,,63,51,15,15,2,2,0.7,0.7
2025-10-15T0000,2534A,105.0406,29.5822,内江市,内江日报社,,37,37,21,25,16,31,,67,55,26,21,4,4,0.6,0.6
2025-10-15T0000,2628A,92.0657,31.4846,那曲市,那曲监测站,细颗粒物(PM2.5),95,117,52,71,27,5,,95,52,61,27,14,7,2.0,0.9
2025-10-15T0000,4243A,92.0515,31.4787,那曲市,那曲市委宣传部,颗粒物(PM10),55,59,29,28,13,15,,99,68,43,19,1,3,1.1,0.8
2025-10-15T0000,1290A,115.8931,28.6843,南昌市,省外办,细颗粒物(PM2.5),67,54,50,48,37,62,,104,86,16,20,6,4,1.4,1.2
2025-10-15T0000,1291A,115.8886,28.7003,南昌市,省林业公司,细颗粒物(PM2.5),70,53,45,51,32,50,,83,71,18,15,2,2,0.9,0.8
2025-10-15T0000,1292A,115.8126,28.7442,南昌市,林科所,细颗粒物(PM2.5),52,39,39,36,30,54,,73,62,18,19,7,7,0.8,0.8
2025-10-15T0000,1294A,115.8518,28.687,南昌市,建工学校,细颗粒物(PM2.5),64,52,57,46,35,50,,82,70,23,18,9,8,0.7,0.6
2025-10-15T0000,1295A,115.8921,28.6424,南昌市,象湖,细颗粒物(PM2.5),52,44,51,36,32,55,,85,75,19,17,9,8,0.9,0.8
2025-10-15T0000,1296A,115.7423,28.7996,南昌市,武术学校,,,,,,,,,,,,,,,,
2025-10-15T0000,3046A,115.9084,28.6062,南昌市,机电学校,颗粒物(PM10),53,55,58,36,36,63,,92,81,15,14,7,6,0.8,0.8
2025-10-15T0000,3690A,115.9721,28.7031,南昌市,外国语学校,颗粒物(PM10),54,58,53,28,33,53,,83,73,23,22,10,8,0.9,0.7
2025-10-15T0000,4192A,115.9316,28.68677,南昌市,南京东路235号,细颗粒物(PM2.5),69,68,61,50,35,53,,86,75,24,22,3,3,1.3,1.2
2025-10-15T0000,1905A,106.056,30.8064,南充市,西山风景区,,,,,,,,,,,,,,,,
2025-10-15T0000,1906A,106.0789,30.8023,南充市,南充市委,,26,26,31,17,19,19,,46,30,12,16,4,4,0.6,0.6
2025-10-15T0000,1907A,106.1031,30.8217,南充市,南充炼油厂,,30,30,37,17,24,18,,47,32,10,12,6,6,0.6,0.5
2025-10-15T0000,4227A,106.1083,30.7884,南充市,梨树横街98号,,21,21,29,9,21,29,,53,38,6,11,4,5,0.5,0.5
2025-10-15T0000,4304A,106.1172,30.843,南充市,清泉寺北路188号,,25,25,26,16,19,24,,53,40,9,12,5,6,0.6,0.5
2025-10-15T0000,4305A,106.067,30.7616,南充市,同庆路1号,,24,24,24,14,16,21,,53,36,14,14,6,7,0.6,0.5
2025-10-15T0000,1151A,118.8086,32.1065,南京市,迈皋桥,,24,24,14,12,11,31,,36,33,13,11,3,4,0.5,0.6
2025-10-15T0000,1152A,118.7538,32.0551,南京市,草场门,,24,24,14,12,8,36,,36,33,17,22,2,2,0.5,0.6
2025-10-15T0000,1153A,118.7794,32.0745,南京市,山西路,,22,22,16,12,6,35,,41,,21,20,3,8,0.6,0.7
2025-10-15T0000,1154A,118.7752,32.0023,南京市,中华门,,22,22,14,12,9,28,,32,29,12,16,4,4,0.5,0.6
2025-10-15T0000,1155A,118.8109,32.0309,南京市,瑞金路,,25,22,11,17,8,31,,39,36,14,10,6,6,0.4,0.5
2025-10-15T0000,1156A,118.7997,32.0754,南京市,玄武湖,,20,16,17,14,7,25,,33,22,12,14,8,4,0.4,0.5
2025-10-15T0000,1157A,118.6414,32.0931,南京市,浦口,,20,20,13,12,6,21,,38,34,21,15,6,6,0.5,0.6
2025-10-15T0000,1158A,118.7356,31.9996,南京市,奥体中心,,32,22,14,22,9,40,,47,44,16,16,6,6,0.3,0.4
2025-10-15T0000,1159A,118.9125,32.1028,南京市,仙林大学城,,19,19,15,9,5,38,,40,37,13,18,8,8,0.6,0.7
2025-10-15T0000,3422A,118.8436,31.9198,南京市,江宁彩虹桥,,28,28,26,12,10,39,,37,37,11,20,4,4,0.7,0.8
2025-10-15T0000,3427A,118.8554,32.3578,南京市,六合雄州,,39,39,23,24,12,40,,54,44,7,8,6,6,0.4,0.4
2025-10-15T0000,4249A,118.8708,31.3402,南京市,汶溪路181号,,29,29,24,15,22,29,,42,38,18,22,4,4,0.6,0.7
2025-10-15T0000,4312A,119.019,31.6512,南京市,中山西路1号,,22,22,17,11,10,27,,34,30,24,27,4,4,0.6,0.8
2025-10-15T0000,1401A,108.3103,22.7881,南宁市,二十一中,,7,,15,3,7,11,,32,21,14,12,4,5,0.6,0.6
2025-10-15T0000,1402A,108.3141,22.8528,南宁市,北湖,,13,13,18,9,12,24,,47,30,16,14,8,5,0.5,0.5
2025-10-15T0000,1403A,108.3206,22.8225,南宁市,市监测站,,15,12,16,10,12,22,,42,28,14,12,4,4,0.3,0.4
2025-10-15T0000,1404A,108.3829,22.8037,南宁市,大自然花园,,13,13,17,7,9,12,,48,31,16,9,5,5,0.8,0.8
2025-10-15T0000,1405A,108.4394,22.7904,南宁市,仙葫,,,,,,,,,,,,,,,,
2025-10-15T0000,1406A,108.2397,22.8467,南宁市,区农职院,,15,14,24,10,14,12,,37,23,21,20,2,6,0.4,0.5
2025-10-15T0000,1407A,108.3275,22.735,南宁市,英华嘉园,,13,13,18,8,12,17,,39,27,16,12,1,2,0.4,0.4
2025-10-15T0000,3401A,108.4834,22.7618,南宁市,红星社区,,13,13,18,3,8,7,,43,25,23,13,3,3,0.3,0.3
2025-10-15T0000,4221A,108.2177,22.7774,南宁市,乐贤路16号,,18,18,22,8,10,0,,42,18,34,19,6,6,0.3,0.3
2025-10-15T0000,2331A,118.0966,26.6761,南平市,茫荡山,,,,10,,3,,,67,54,,,,2,,0.3
2025-10-15T0000,2332A,118.1681,26.6369,南平市,南平市监测站,,13,13,11,7,11,3,,73,28,25,10,2,2,0.5,0.5
2025-10-15T0000,2333A,118.1825,26.6489,南平市,南平铝业有限公司,,16,16,12,7,8,6,,72,34,25,9,4,3,0.6,0.6
2025-10-15T0000,2334A,118.1756,26.6272,南平市,南平七中,,12,12,14,7,8,10,,74,33,17,8,3,5,0.6,0.6
2025-10-15T0000,1168A,120.9098,31.9663,南通市,狼山街道,,23,16,11,16,8,26,,44,40,17,14,3,3,0.5,0.5
2025-10-15T0000,1169A,120.86,32.0005,南通市,虹桥,,14,14,10,7,7,44,,56,52,12,11,3,3,0.7,0.7
2025-10-15T0000,1170A,120.87,32.02,南通市,城中,,18,18,16,10,8,41,,52,48,16,15,4,4,0.1,0.1
2025-10-15T0000,1171A,120.94,31.93,南通市,星湖花园,,24,24,12,10,11,31,,51,46,20,17,4,3,0.8,0.7
2025-10-15T0000,1172A,120.81,32.0417,南通市,紫琅学院,,17,17,12,8,6,37,,48,42,15,14,3,3,0.8,0.9
2025-10-15T0000,3291A,121.067,32.062,南通市,通州监测站,,17,,5,9,7,52,,65,56,7,9,2,2,0.5,0.5
2025-10-15T0000,3432A,120.9348,31.9883,南通市,环境教育馆,,22,22,17,10,7,37,,50,45,16,14,4,4,0.3,0.3
2025-10-15T0000,2404A,112.5224,33.0122,南阳市,瓦房庄,,43,43,38,25,18,60,,92,74,9,14,7,8,0.7,0.8
2025-10-15T0000,2405A,112.5003,32.9735,南阳市,汉画馆,,39,39,33,26,19,57,,85,70,12,18,7,8,0.7,0.7
2025-10-15T0000,2406A,112.5573,33.027,南阳市,气象站,,45,45,28,27,15,61,,94,76,13,15,7,8,0.8,0.8
2025-10-15T0000,2407A,112.5481,32.9689,南阳市,理工学院,,42,42,35,14,8,60,,86,70,11,18,8,9,0.7,0.8
2025-10-15T0000,4008A,112.5234,32.9922,南阳市,卧龙区政府,颗粒物(PM10),54,57,29,34,18,64,,90,77,11,14,7,7,0.7,0.8
2025-10-15T0000,1234A,121.8358,29.911,宁波市,区环保大楼,"颗粒物(PM10),细颗粒物(PM2.5)",60,69,78,43,46,29,,64,40,34,41,6,8,1.2,1.4
2025-10-15T0000,1235A,121.56,29.82,宁波市,万里学院,细颗粒物(PM2.5),72,54,57,52,56,48,,51,49,24,34,8,7,1.1,1.3
2025-10-15T0000,1236A,121.713,29.9572,宁波市,龙赛医院,颗粒物(PM10),60,69,70,33,33,29,,60,47,31,39,7,8,1.0,1.2
2025-10-15T0000,1239A,121.633,29.7733,宁波市,钱湖水厂,细颗粒物(PM2.5),83,71,68,61,53,17,,50,42,38,35,7,6,1.1,1.3
2025-10-15T0000,1240A,121.5856,29.8635,宁波市,太古小学,颗粒物(PM10),62,74,69,3,23,36,,51,48,24,30,4,3,1.2,1.3
2025-10-15T0000,1241A,121.524,29.8674,宁波市,市环境监测中心,颗粒物(PM10),54,57,58,34,30,32,,45,43,30,32,10,8,1.2,1.3
2025-10-15T0000,2871A,121.6147,29.9017,宁波市,万里国际学校,细颗粒物(PM2.5),58,62,56,41,36,24,,49,44,37,38,6,5,1.3,1.4
2025-10-15T0000,3710A,121.5594,29.8975,宁波市,白沙活动中心,颗粒物(PM10),53,56,52,35,31,32,,52,45,33,35,5,5,1.0,1.1
2025-10-15T0000,2339A,119.5001,26.6946,宁德市,金涵水库,,,,17,,13,,,64,27,,2,,2,,0.5
2025-10-15T0000,2341A,119.5388,26.6612,宁德市,宁德市监测站,,16,,21,11,15,27,,94,50,14,11,3,4,0.4,0.5
2025-10-15T0000,3209A,119.5231,26.6562,宁德市,宁德一中,,23,,24,16,17,33,,98,52,7,8,4,5,0.3,0.4
2025-10-15T0000,2618A,98.8601,25.8567,怒江傈僳族自治州,州监测站,,34,34,24,17,14,26,,54,38,10,8,7,6,0.4,0.4
2025-10-15T0000,2619A,98.8546,25.8417,怒江傈僳族自治州,泸水一中,,14,14,18,9,9,10,,38,21,12,11,5,5,0.6,0.6
2025-10-15T0000,1888A,101.6891,26.571,攀枝花市,弄弄坪,,41,41,39,11,15,9,,77,43,38,24,6,12,1.0,1.1
2025-10-15T0000,1889A,101.5769,26.5928,攀枝花市,河门口,,33,33,27,19,16,19,,79,46,18,12,14,13,0.9,0.9
2025-10-15T0000,1890A,101.7169,26.585,攀枝花市,炳草岗,颗粒物(PM10),54,57,43,21,18,3,,80,40,46,24,11,14,0.9,1
2025-10-15T0000,1891A,101.7369,26.5008,攀枝花市,仁和,,20,20,24,13,15,19,,68,37,15,13,9,14,0.7,0.9
2025-10-15T0000,2835A,101.7227,26.567,攀枝花市,四十中小,,32,32,33,17,17,15,,80,54,37,19,16,27,1.1,1.3
2025-10-15T0000,1604A,122.0303,41.1489,盘锦市,开发区,细颗粒物(PM2.5),104,109,79,78,72,72,,79,73,25,43,36,15,0.6,1.2
2025-10-15T0000,1605A,122.0485,41.0883,盘锦市,兴隆台,细颗粒物(PM2.5),115,130,79,87,68,72,,77,71,27,47,9,11,0.7,1.3
2025-10-15T0000,1606A,121.8297,41.1028,盘锦市,新生街道,细颗粒物(PM2.5),98,99,66,73,60,49,,58,49,31,49,7,10,0.6,0.9
2025-10-15T0000,1832A,113.3257,33.742,平顶山市,新华旅馆,,46,46,59,22,27,44,,85,64,21,25,6,8,0.4,0.7
2025-10-15T0000,1833A,113.2919,33.737,平顶山市,规划设计院,,46,46,66,29,46,53,,82,60,16,26,6,7,0.6,0.9
2025-10-15T0000,1834A,113.182,33.774,平顶山市,平顶山工学院,,35,34,54,24,40,65,,100,77,14,21,7,7,0.6,0.8
2025-10-15T0000,3204A,113.3025,33.73,平顶山市,规划局,,44,44,60,30,40,56,,90,70,14,22,10,11,0.6,0.9
2025-10-15T0000,3594A,112.8867,33.9116,平顶山市,石龙区,细颗粒物(PM2.5),77,71,58,56,46,50,,105,76,25,18,8,8,0.7,0.9
2025-10-15T0000,2656A,106.6692,35.5461,平凉市,聚贤嘉苑,,39,39,40,17,23,21,,56,46,36,20,16,17,0.5,0.7
2025-10-15T0000,2657A,106.7021,35.5307,平凉市,博物馆,,34,34,46,23,25,25,,59,50,36,21,8,9,0.7,0.8
2025-10-15T0000,2347A,114.0997,27.5002,萍乡市,武功山,,,,,,,,,,,,,,,,
2025-10-15T0000,2348A,113.8385,27.6434,萍乡市,中医院,,,90,76,66,59,,,35,,,26,7,7,1.2,1.1
2025-10-15T0000,2349A,113.8493,27.6253,萍乡市,市政府车库,细颗粒物(PM2.5),78,70,57,57,49,12,,45,30,32,22,16,15,1.1,0.9
2025-10-15T0000,2350A,113.8676,27.6435,萍乡市,市环保局,细颗粒物(PM2.5),64,64,54,46,45,4,,46,26,46,30,2,3,0.8,0.7
2025-10-15T0000,2351A,113.866,27.6198,萍乡市,安源区政府,细颗粒物(PM2.5),108,,58,81,69,16,,44,34,26,20,12,11,1.0,0.8
2025-10-15T0000,2319A,119.0141,25.4325,莆田市,荔城区仓后路,,25,25,37,14,24,36,,92,46,10,11,7,8,0.7,0.7
2025-10-15T0000,2320A,119.0015,25.4553,莆田市,莆田市监测站,,25,25,30,14,20,23,,86,36,9,9,6,6,0.6,0.8
2025-10-15T0000,2321A,119.1119,25.4561,莆田市,涵江区六中,,19,18,37,13,24,47,,97,52,7,13,5,6,0.6,0.7
2025-10-15T0000,2322A,119.1013,25.3215,莆田市,秀屿区政府,,25,25,33,16,19,39,,110,61,18,12,6,8,0.5,0.6
2025-10-15T0000,2323A,118.981,25.4792,莆田市,东圳水库,,,,21,,16,,,85,48,,5,,5,,0.8
2025-10-15T0000,2392A,115.0312,35.7636,濮阳市,环保局,细颗粒物(PM2.5),77,64,37,56,30,6,,79,38,55,25,8,7,1.5,0.9
2025-10-15T0000,2394A,115.0574,35.7609,濮阳市,油田运输公司,细颗粒物(PM2.5),69,86,53,50,29,11,,86,35,53,31,8,8,1.5,1
2025-10-15T0000,3021A,115,35.7668,濮阳市,濮水河管理处,,48,48,39,29,24,7,,80,22,19,18,7,7,0.7,0.6
2025-10-15T0000,4216A,115.0924,35.7686,濮阳市,任丘路479号,颗粒物(PM10),70,90,53,47,32,2,,88,38,41,22,7,7,1.2,0.7
2025-10-15T0000,2601A,100.98,22.7633,普洱市,市环保局,,48,38,31,33,15,31,,66,52,5,5,15,10,0.5,0.5
2025-10-15T0000,2602A,100.9817,22.8322,普洱市,普洱第二中学,,37,37,29,16,15,24,,58,42,4,8,6,6,0.4,0.4
2025-10-15T0000,2262A,131.0518,45.8751,七台河市,新一中,,,,,,,,,,,,,,,,
2025-10-15T0000,3345A,131.0577,45.7879,七台河市,中波台,颗粒物(PM10),57,63,70,27,25,7,,35,14,42,38,10,10,0.6,0.6
2025-10-15T0000,3637A,131.0176,45.7761,七台河市,人民广场,颗粒物(PM10),65,80,74,28,32,18,,44,19,34,32,9,11,0.5,0.6
2025-10-15T0000,3684A,130.8781,45.8222,七台河市,新建矿广场,颗粒物(PM10),56,61,64,26,28,2,,33,9,37,28,13,12,0.6,0.6
2025-10-15T0000,1779A,123.9305,47.3636,齐齐哈尔市,安居小区,,20,20,31,3,9,38,,48,37,12,13,3,4,0.3,0.3
2025-10-15T0000,1780A,123.9488,47.3386,齐齐哈尔市,中心广场,,28,28,26,3,6,40,,50,39,14,15,3,7,0.1,0.2
2025-10-15T0000,1781A,123.9483,47.3227,齐齐哈尔市,农牧车辆厂,,22,22,32,13,6,40,,46,36,9,14,3,5,0.4,0.4
2025-10-15T0000,1783A,123.945,47.2988,齐齐哈尔市,市环境监测站,,25,25,32,8,9,37,,47,31,12,16,6,12,0.3,0.3
2025-10-15T0000,3662A,123.6333,47.2075,齐齐哈尔市,富区青少年活动中心,,20,20,31,14,13,35,,44,34,9,9,7,6,0.4,0.3
2025-10-15T0000,2591A,107.9783,26.5747,黔东南苗族侗族自治州,市环境监测站,,40,35,34,28,27,16,,38,21,8,9,4,4,0.8,0.8
2025-10-15T0000,2881A,107.8908,26.5311,黔东南苗族侗族自治州,凯里学院,,46,46,39,24,23,14,,34,18,12,13,4,3,0.8,0.8
2025-10-15T0000,2593A,107.5228,26.2403,黔南布依族苗族自治州,小围寨,,10,6,19,3,14,30,,33,29,4,7,3,2,0.4,0.6
2025-10-15T0000,3538A,107.5175,26.2978,黔南布依族苗族自治州,沙坝,,9,9,20,3,14,16,,27,18,4,5,4,4,0.3,0.5
2025-10-15T0000,2589A,104.9022,25.0925,黔西南布依族苗族自治州,场坝街,,24,24,23,8,14,34,,61,45,6,5,3,4,0.4,0.4
2025-10-15T0000,2590A,104.8811,25.0992,黔西南布依族苗族自治州,坪东大道,,22,,30,15,17,32,,57,42,6,6,2,1,0.4,0.5
2025-10-15T0000,2502A,108.6236,21.9667,钦州市,市环保站,,27,27,17,3,6,26,,55,33,12,12,3,3,0.5,0.5
2025-10-15T0000,2503A,108.6549,21.9481,钦州市,沙埠小学,,28,28,24,9,11,22,,57,33,11,10,2,3,0.4,0.4
2025-10-15T0000,2504A,108.5989,21.7431,钦州市,港区一小,,32,32,31,10,11,32,,49,32,12,16,4,7,0.4,0.5
2025-10-15T0000,3404A,108.5959,21.9633,钦州市,北职校,,24,24,21,8,9,7,,55,28,16,10,4,4,0.6,0.6
2025-10-15T0000,1043A,119.7493,40.0116,秦皇岛市,第一关,细颗粒物(PM2.5),79,74,75,58,42,15,,105,37,68,66,5,9,0.6,0.7
2025-10-15T0000,1044A,119.5897,39.9499,秦皇岛市,监测站,颗粒物(PM10),68,86,62,37,23,2,,116,59,73,42,8,9,1.0,0.9
2025-10-15T0000,1046A,119.5251,39.9041,秦皇岛市,建设大厦,颗粒物(PM10),70,90,71,36,21,2,,116,58,59,33,4,8,1.0,0.9
2025-10-15T0000,3132A,119.610547,39.943889,秦皇岛市,文明里,颗粒物(PM10),65,80,61,35,21,0,,110,61,89,38,10,10,0.8,0.6
2025-10-15T0000,4198A,119.5090,39.8253,秦皇岛市,北戴河轮滑馆,"颗粒物(PM10),细颗粒物(PM2.5)",54,58,72,38,37,24,,104,70,47,33,5,6,0.6,1
2025-10-15T0000,1307A,120.6659,36.2403,青岛市,仰口,,,,,,,,,,,,,,,,
2025-10-15T0000,1310A,120.4134,36.0658,青岛市,市南区东部子站,,27,12,27,3,11,84,,85,82,2,39,6,7,0.2,0.4
2025-10-15T0000,1311A,120.3664,36.1032,青岛市,四方区子站,,27,12,37,7,18,86,,92,83,2,15,1,3,0.2,0.4
2025-10-15T0000,1312A,120.2994,36.054,青岛市,市南区西部子站,,26,12,32,3,14,83,,88,81,8,20,6,9,0.4,0.6
2025-10-15T0000,1313A,120.4581,36.0858,青岛市,崂山区子站,,29,9,21,3,7,91,,93,92,3,11,8,9,0.2,0.3
2025-10-15T0000,1315A,120.3999,36.3083,青岛市,城阳区子站,,20,19,43,10,21,63,,92,42,14,29,4,5,0.4,0.7
2025-10-15T0000,3362A,120.5014,36.4034,青岛市,即墨2号,,20,19,31,9,20,61,,89,78,10,18,4,5,0.3,0.4
2025-10-15T0000,3642A,120.3503,36.0736,青岛市,市北区南部,,26,19,35,3,14,83,,87,83,6,18,2,8,0.3,0.5
2025-10-15T0000,3643A,120.3948,36.1805,青岛市,李沧区北部,,24,14,39,7,23,76,,83,63,8,26,6,7,0.3,0.5
2025-10-15T0000,4290A,120.1969,35.9546,青岛市,珠江路669号,,30,9,33,7,18,96,,95,87,7,29,8,11,0.3,0.4
2025-10-15T0000,4291A,120.0424,35.8656,青岛市,黄岛区人民政府广场,,31,22,26,3,10,99,,102,92,3,16,5,7,0.4,0.7
2025-10-15T0000,1702A,113.0426,23.691,清远市,环保大楼,,,,,,,,,,,,,,,,
2025-10-15T0000,1703A,113.0208,23.7106,清远市,凤城街办,,37,37,17,12,9,54,,77,56,28,15,26,11,0.6,0.6
2025-10-15T0000,3025A,113.0477,23.6344,清远市,技师学院,,44,44,23,19,11,42,,73,44,27,20,17,13,0.5,0.5
2025-10-15T0000,3318A,112.9903,23.7403,清远市,清新太和,,31,31,17,18,9,30,,82,56,27,14,11,6,0.5,0.4
2025-10-15T0000,3455A,113.076,23.7198,清远市,清城东城,,28,28,15,10,8,9,,73,45,37,12,6,7,0.9,0.8
2025-10-15T0000,2661A,107.6325,35.7357,庆阳市,庆阳五中,,17,17,26,11,14,50,,64,54,5,10,8,8,0.4,0.5
2025-10-15T0000,2662A,107.6364,35.7067,庆阳市,市环保局,,16,16,22,8,12,51,,70,60,9,11,4,4,0.5,0.5
2025-10-15T0000,1916A,103.7897,25.5035,曲靖市,环境监测站,,31,31,29,16,14,34,,78,55,13,10,4,4,0.3,0.3
2025-10-15T0000,1917A,103.8,25.5364,曲靖市,烟厂办公区,,21,21,26,3,14,40,,75,59,9,9,4,4,0.5,0.5
2025-10-15T0000,3376A,103.7947,25.462,曲靖市,南苑二区,,,21,27,15,15,,,62,53,10,8,3,4,0.5,0.4
2025-10-15T0000,3377A,103.7444,25.5261,曲靖市,曲靖师范学院,,26,26,25,15,17,45,,75,64,6,8,2,3,0.4,0.4
2025-10-15T0000,1264A,118.8692,28.9398,衢州市,环保大楼,细颗粒物(PM2.5),59,65,26,42,16,51,,93,73,17,12,5,5,1.0,0.7
2025-10-15T0000,1265A,118.8709,28.9666,衢州市,实验学校,细颗粒物(PM2.5),57,49,22,40,18,53,,94,74,17,11,3,5,1.1,0.8
2025-10-15T0000,1266A,118.8621,28.9808,衢州市,衢州学院,细颗粒物(PM2.5),53,49,25,37,17,48,,92,70,18,12,5,5,0.9,0.6
2025-10-15T0000,1611A,118.5819,24.9117,泉州市,涂山街,,36,36,45,21,26,30,,119,54,14,18,2,5,0.5,0.6
2025-10-15T0000,1612A,118.5972,24.8978,泉州市,津头埔,,35,35,44,22,26,33,,122,56,17,20,3,6,0.5,0.5
2025-10-15T0000,1613A,118.6663,24.9424,泉州市,万安,,33,33,42,20,26,34,,111,52,15,19,3,3,0.5,0.6
2025-10-15T0000,1614A,118.6117,24.9604,泉州市,清源山,,,,34,,20,,,115,82,,10,,3,,0.6
2025-10-15T0000,3529A,118.6333,24.9264,泉州市,城华南路,,28,26,35,19,25,28,,109,50,22,18,3,4,0.5,0.5
2025-10-15T0000,2626A,88.8876,29.2718,日喀则市,日喀则监测站,,44,44,18,14,5,32,,102,73,35,16,14,13,0.3,0.2
2025-10-15T0000,3726A,88.8781,29.2426,日喀则市,林业技术推广中心,,20,16,13,8,3,64,,102,88,5,4,6,6,0.4,0.3
2025-10-15T0000,1659A,119.471,35.4209,日照市,监测站,,24,24,30,12,16,32,,105,41,36,30,7,8,0.5,0.8
2025-10-15T0000,1660A,119.523,35.4216,日照市,市政府广场,,30,7,20,3,10,94,,107,95,4,11,6,8,0.5,0.8
2025-10-15T0000,1661A,119.5587,35.4044,日照市,港务局,,30,14,23,14,19,95,,108,100,5,9,4,6,0.4,0.6
2025-10-15T0000,3507A,119.5328,35.4625,日照市,职业技术学院,,26,12,27,7,13,81,,107,85,8,12,4,6,0.6,0.8
2025-10-15T0000,3604A,119.3266,35.1044,日照市,岚山环保分局,,26,9,35,3,12,82,,106,90,13,25,10,15,0.5,1.3
2025-10-15T0000,1835A,111.1922,34.7752,三门峡市,市政府,细颗粒物(PM2.5),53,44,43,37,26,93,,96,96,15,19,7,7,0.7,0.7
2025-10-15T0000,1836A,111.1587,34.7942,三门峡市,开发区,细颗粒物(PM2.5),65,67,57,47,39,86,,86,86,20,19,4,6,0.7,0.7
2025-10-15T0000,1838A,111.143,34.7955,三门峡市,风景区,,,,40,,26,,,93,93,,10,,6,,0.8
2025-10-15T0000,3039A,111.1911,34.7829,三门峡市,三门峡市第一小学,,50,43,50,35,27,93,,93,93,10,11,6,8,0.8,0.8
2025-10-15T0000,3598A,111.1,34.7167,三门峡市,富达温泉假日酒店,细颗粒物(PM2.5),70,61,41,51,30,81,,91,91,21,15,8,8,1.1,1
2025-10-15T0000,2324A,117.6211,26.2625,三明市,三钢,,29,22,16,20,11,12,,77,34,23,13,4,3,0.9,0.7
2025-10-15T0000,2325A,117.635,26.2714,三明市,三明二中,,22,16,15,15,10,14,,74,36,16,10,3,2,0.3,0.5
2025-10-15T0000,2326A,117.6028,26.2378,三明市,三元区政府,,22,22,13,7,8,18,,82,37,20,13,1,2,0.6,0.6
2025-10-15T0000,2327A,117.7275,26.3108,三明市,洋溪,,,,6,,42,,,77,37,,15,,6,,1.3
2025-10-15T0000,1876A,109.5078,18.2489,三亚市,河东子站,,36,36,26,7,6,26,,41,30,6,6,2,3,0.6,0.6
2025-10-15T0000,1877A,109.4964,18.2681,三亚市,河西子站,,13,13,11,3,2,32,,51,36,7,7,5,6,0.4,0.4
2025-10-15T0000,3540A,109.7348,18.3443,三亚市,君悦子站,,18,18,13,3,3,20,,51,30,10,6,3,3,0.4,0.4
2025-10-15T0000,2624A,91.7608,29.2313,山南市,山南监测站,,17,16,10,3,5,54,,99,86,23,8,6,6,0.3,0.2
2025-10-15T0000,2625A,91.7706,29.2436,山南市,山南人民医院,,25,17,17,8,9,78,,99,92,3,4,4,4,0.2,0.3
2025-10-15T0000,1674A,116.6794,23.3667,汕头市,金平子站,,19,,22,13,10,50,,60,46,8,15,3,5,0.5,0.5
2025-10-15T0000,1675A,116.7244,23.3633,汕头市,龙湖子站,,22,22,18,3,7,41,,51,43,11,10,7,8,0.5,0.4
2025-10-15T0000,1676A,116.7258,23.2775,汕头市,濠江子站,,22,15,20,15,9,39,,44,41,7,8,6,6,0.5,0.5
2025-10-15T0000,1677A,116.7519,23.4714,汕头市,澄海子站,,21,21,23,8,10,42,,54,44,8,11,4,7,0.6,0.6
2025-10-15T0000,1678A,116.6092,23.2539,汕头市,潮阳子站,,16,16,23,6,9,30,,65,41,13,13,5,6,0.6,0.8
2025-10-15T0000,3444A,116.454,23.2684,汕头市,潮南峡山,,22,22,18,12,12,29,,65,33,10,9,7,9,0.8,0.9
2025-10-15T0000,3624A,116.4069,23.2533,汕头市,潮南子站,,32,32,34,22,17,23,,71,34,11,11,6,7,0.7,0.6
2025-10-15T0000,1693A,115.3653,22.775,汕尾市,市环保局,,33,33,18,7,7,38,,60,55,12,7,4,4,0.6,0.6
2025-10-15T0000,1694A,115.3706,22.7898,汕尾市,市政府,,44,44,16,14,8,37,,55,51,14,9,6,6,0.5,0.5
2025-10-15T0000,1695A,115.3622,22.7925,汕尾市,新城中学,,,46,15,15,8,,,52,46,14,9,6,6,0.7,0.6
2025-10-15T0000,2645A,109.9154,33.8715,商洛市,监测站,,24,18,18,11,10,75,,62,62,7,15,4,12,0.6,0.6
2025-10-15T0000,3045A,109.9643,33.8471,商洛市,商州区中学,,28,,23,19,13,62,,55,54,15,16,9,12,0.6,0.6
2025-10-15T0000,2408A,115.6702,34.4285,商丘市,环境监测站,,43,43,28,26,22,2,,69,35,52,23,2,2,0.5,0.4
2025-10-15T0000,2409A,115.6458,34.4045,商丘市,粮食局,,42,42,26,23,13,19,,65,38,37,19,2,2,0.5,0.5
2025-10-15T0000,2410A,115.6293,34.3948,商丘市,睢阳区环保局,颗粒物(PM10),53,56,28,32,20,22,,65,,35,22,3,3,0.5,0.5
2025-10-15T0000,3171A,115.6071,34.4465,商丘市,梁园区档案局,,45,42,25,31,22,5,,69,37,54,26,4,3,0.6,0.5
2025-10-15T0000,1141A,121.4,31.238,上海市,普陀,,16,10,27,9,26,49,,60,58,23,28,5,5,0.5,0.9
