timepoint,stationcode,longitude,latitude,area,positionname,primarypollutant,aqi,pm10,pm10_24h,pm2_5,pm2_5_24h,o3,o3_24h,o3_8h,o3_8h_24h,no2,no2_24h,so2,so2_24h,co,co_24h
2023-09-23T14:00:00,1001A,116.3621,39.8784,北京市,万寿西宫,,35,35,33,16,13,98,98,48,48,13,39,7,3,0.7,0.4
2023-09-23T14:00:00,1002A,116.2202,40.2915,北京市,定陵,,43,43,26,16,6,70,64,33,33,14,8,3,3,0.6,0.3
2023-09-23T14:00:00,1003A,116.4174,39.9289,北京市,东四,,32,32,32,14,13,102,102,52,52,10,32,4,3,0.5,0.4
2023-09-23T14:00:00,1004A,116.4072,39.8863,北京市,天坛,,32,28,26,14,12,100,100,55,55,12,29,5,3,0.7,0.5
2023-09-23T14:00:00,1005A,116.462,39.9365,北京市,农展馆,,28,26,33,9,11,89,89,46,46,8,36,3,3,0.4,0.4
2023-09-23T14:00:00,1006A,116.3392,39.9295,北京市,官园,,41,41,33,18,13,109,109,55,55,10,29,6,3,0.7,0.4
2023-09-23T14:00:00,1007A,116.2878,39.9611,北京市,海淀万柳,,38,38,31,15,10,98,98,50,50,16,38,3,3,0.7,0.4
2023-09-23T14:00:00,1008A,116.6636,40.135,北京市,顺义新城,,30,27,28,12,9,94,94,53,53,11,27,6,4,0.4,0.4
2023-09-23T14:00:00,1009A,116.6275,40.3275,北京市,怀柔镇,,32,26,15,12,7,100,100,54,54,10,11,6,3,0.6,0.3
2023-09-23T14:00:00,1010A,116.2296,40.217,北京市,昌平镇,,42,42,24,16,9,82,82,54,54,21,17,3,3,0.5,0.3
2023-09-23T14:00:00,1011A,116.3966,39.9821,北京市,奥体中心,,39,39,29,16,11,81,81,40,40,19,32,3,2,0.7,0.4
2023-09-23T14:00:00,1012A,116.184,39.9136,北京市,古城,,32,32,28,12,10,93,83,41,41,14,32,2,3,0.7,0.6
2023-09-23T14:00:00,1015A,117.1444,39.1661,天津市,勤俭道,,29,24,33,9,11,118,92,60,60,12,36,10,11,0.5,0.5
2023-09-23T14:00:00,1017A,117.237,39.1082,天津市,大直沽八号路,,33,33,32,11,10,113,94,62,62,17,49,6,6,0.4,0.5
2023-09-23T14:00:00,1018A,117.202,39.0927,天津市,前进道,,39,39,30,12,9,115,97,62,62,13,37,7,7,0.4,0.5
2023-09-23T14:00:00,1019A,117.1837,39.2133,天津市,淮河道,,31,26,32,10,13,120,97,62,62,13,37,11,9,0.4,0.5
2023-09-23T14:00:00,1021A,117.307,39.0877,天津市,跃进路,,34,34,39,13,11,118,99,60,60,14,45,8,9,0.5,0.6
2023-09-23T14:00:00,1023A,117.707,39.0343,天津市,第四大街,,30,30,22,10,7,117,90,65,65,12,25,8,6,0.5,0.5
2023-09-23T14:00:00,1024A,117.457,38.8394,天津市,永明路,,33,29,21,11,6,116,104,78,78,8,18,8,9,0.4,0.5
2023-09-23T14:00:00,1026A,117.764,39.1587,天津市,汉北路,,30,28,22,10,8,122,94,76,54,9,18,8,8,0.5,0.5
2023-09-23T14:00:00,1027A,117.157,38.9194,天津市,团泊洼,,30,26,18,12,7,104,96,61,61,13,35,7,5,0.6,0.7
2023-09-23T14:00:00,1029A,114.4422,38.0444,石家庄市,职工医院,,35,28,47,21,28,185,111,60,59,8,29,3,3,0.3,0.5
2023-09-23T14:00:00,1030A,114.6063,38.0266,石家庄市,高新区,,36,28,58,10,28,179,114,62,62,6,30,2,3,0.3,0.5
2023-09-23T14:00:00,1031A,114.4898,38.1328,石家庄市,西北水源,,35,18,50,19,31,166,111,62,62,9,36,2,2,0.3,0.4
2023-09-23T14:00:00,1032A,114.4586,38.0058,石家庄市,西南高教,,35,28,46,3,20,189,109,65,61,8,25,2,3,0.3,0.4
2023-09-23T14:00:00,1033A,114.5331,38.0178,石家庄市,世纪公园,,34,33,51,15,24,170,106,67,67,11,26,3,4,0.3,0.5
2023-09-23T14:00:00,1034A,114.509,38.0457,石家庄市,人民会堂,,36,18,48,7,20,180,114,63,63,10,32,4,4,0.3,0.4
2023-09-23T14:00:00,1035A,114.3524,37.8911,石家庄市,封龙山,,45,45,50,12,21,182,99,92,86,15,17,2,3,0.6,0.7
2023-09-23T14:00:00,1037A,118.131,39.6363,唐山市,雷达站,,29,20,41,6,14,104,92,59,59,6,25,4,7,0.6,0.8
2023-09-23T14:00:00,1038A,118.1725,39.6334,唐山市,物资局,,29,27,58,16,20,102,91,54,54,6,36,6,9,0.5,0.7
2023-09-23T14:00:00,1040A,118.1705,39.6506,唐山市,十二中,,28,25,50,7,16,97,88,54,54,6,36,3,7,0.4,0.6
2023-09-23T14:00:00,1041A,118.1869,39.622,唐山市,小山,,27,27,54,1,10,96,85,49,49,5,33,1,6,0.4,0.7
2023-09-23T14:00:00,1042A,119.5134,39.8207,秦皇岛市,北戴河环保局,,31,31,19,6,7,94,93,75,75,15,20,6,3,0.2,0.1
2023-09-23T14:00:00,1043A,119.7493,40.0116,秦皇岛市,第一关,,29,8,16,5,18,93,91,71,71,10,38,9,9,0.2,0.2
2023-09-23T14:00:00,1044A,119.5897,39.9499,秦皇岛市,监测站,,26,12,25,5,12,88,82,62,62,8,23,8,8,0.3,0.3
2023-09-23T14:00:00,1046A,119.5251,39.9041,秦皇岛市,建设大厦,,27,14,27,5,12,88,86,57,57,5,27,2,6,0.2,0.1
2023-09-23T14:00:00,1048A,114.5302,36.6116,邯郸市,东污水处理厂,,25,16,45,17,28,133,75,53,53,14,40,7,8,0.4,0.5
2023-09-23T14:00:00,1049A,114.4918,36.5713,邯郸市,矿院,,34,34,41,13,23,136,78,68,60,18,39,4,4,0.4,0.5
2023-09-23T14:00:00,1050A,114.484,36.6133,邯郸市,丛台公园,,25,18,40,14,26,140,78,62,62,13,33,8,9,0.2,0.3
2023-09-23T14:00:00,1051A,115.493,38.8632,保定市,游泳馆,,37,27,41,17,12,139,117,65,65,13,28,8,8,0.5,0.4
2023-09-23T14:00:00,1052A,115.5213,38.8959,保定市,华电二区,,36,25,37,9,13,134,114,56,56,9,29,8,5,0.3,0.3
2023-09-23T14:00:00,1053A,115.4713,38.9108,保定市,接待中心,,,,,,,,,,,,,,,,
2023-09-23T14:00:00,1054A,115.4612,38.8416,保定市,地表水厂,,36,33,50,15,15,134,115,64,64,12,28,11,10,0.1,0.1
2023-09-23T14:00:00,1056A,115.5086,38.8639,保定市,监测站,,37,19,40,9,17,144,117,61,61,8,27,8,6,0.2,0.3
2023-09-23T14:00:00,1057A,114.8883,40.8336,张家口市,人民公园,,37,28,14,2,3,118,118,76,76,8,9,7,5,0.3,0.2
2023-09-23T14:00:00,1059A,114.8687,40.8042,张家口市,五金库,,37,32,21,5,6,118,118,74,74,9,14,3,2,0.4,0.4
2023-09-23T14:00:00,1060A,114.8902,40.762,张家口市,世纪豪园,,35,15,22,10,6,110,110,73,73,7,17,6,2,0.2,0.2
2023-09-23T14:00:00,1061A,114.8916,40.8661,张家口市,北泵房,,40,16,12,2,6,126,126,80,80,5,6,7,6,0.3,0.2
2023-09-23T14:00:00,1062A,117.9531,40.9081,承德市,铁路,,26,3,13,3,6,82,82,38,38,12,21,7,6,0.3,0.3
2023-09-23T14:00:00,1063A,117.9392,40.9763,承德市,中国银行,,28,6,21,3,6,88,88,40,40,6,20,6,5,0.3,0.3
2023-09-23T14:00:00,1064A,117.9503,40.928,承德市,开发区,,29,10,23,8,13,91,91,42,42,9,21,4,4,0.2,0.3
2023-09-23T14:00:00,1065A,117.8051,40.9655,承德市,文化中心,,28,2,25,3,7,89,89,41,41,8,30,6,5,0.2,0.3
2023-09-23T14:00:00,1066A,117.9268,41.0026,承德市,离宫,,29,6,16,4,13,91,91,43,43,2,13,2,1,0.3,0.2
2023-09-23T14:00:00,1067A,116.6708,39.5111,廊坊市,药材公司,,32,12,29,8,11,100,100,56,56,12,37,4,3,0.5,0.4
2023-09-23T14:00:00,1068A,116.7214,39.5589,廊坊市,开发区,,34,18,26,3,14,106,106,60,60,10,34,4,2,0.5,0.4
2023-09-23T14:00:00,1070A,116.7244,39.5269,廊坊市,北华航天学院,,33,27,36,7,10,105,105,61,61,10,35,7,5,0.5,0.4
2023-09-23T14:00:00,1071A,116.8842,38.2991,沧州市,沧县城建局,,31,29,35,8,13,148,97,63,59,12,33,4,6,0.1,0.2
2023-09-23T14:00:00,1072A,116.8584,38.3254,沧州市,电视转播站,,31,27,36,9,10,140,97,66,61,6,25,9,6,0.3,0.4
2023-09-23T14:00:00,1073A,116.8709,38.3228,沧州市,市环保局,,31,27,38,14,17,146,99,65,63,3,23,4,5,0.1,0.2
2023-09-23T14:00:00,1074A,115.6838,37.7541,衡水市,电机北厂,,,27,44,8,19,174,100,71,71,2,19,,5,,0.2
2023-09-23T14:00:00,1075A,115.6303,37.7316,衡水市,市监测站,,35,26,40,15,12,174,109,90,82,8,19,4,8,0.3,0.4
2023-09-23T14:00:00,1077A,114.4704,37.0886,邢台市,达活泉,,30,18,56,11,20,187,96,73,73,5,25,4,5,0.3,0.6
2023-09-23T14:00:00,1078A,114.5062,37.0349,邢台市,邢师高专,,27,17,57,3,14,184,85,63,63,8,31,7,7,0.2,0.5
2023-09-23T14:00:00,1079A,114.5237,37.0851,邢台市,路桥公司,,30,25,51,7,21,197,96,67,67,7,32,8,6,0.3,0.7
2023-09-23T14:00:00,1080A,114.4725,37.0719,邢台市,市环保局,,30,20,51,7,18,192,95,73,72,2,21,8,7,0.3,0.6
2023-09-23T14:00:00,1081A,112.522,37.8873,太原市,尖草坪,颗粒物(PM10),55,59,55,36,29,148,121,131,114,16,20,4,7,0.6,0.7
2023-09-23T14:00:00,1083A,112.434,38.0108,太原市,上兰,,,,,,,,,,,,,,,,
2023-09-23T14:00:00,1084A,112.469,37.7124,太原市,晋源,颗粒物(PM10),53,56,71,35,35,156,102,134,92,22,24,1,6,0.6,0.8
2023-09-23T14:00:00,1085A,112.5583,37.7394,太原市,小店,颗粒物(PM10),54,58,69,31,29,147,101,124,92,22,25,3,8,0.6,0.8
2023-09-23T14:00:00,1086A,112.5369,37.8692,太原市,桃园,颗粒物(PM10),55,59,54,28,25,151,113,151,108,18,18,4,7,0.6,0.7
2023-09-23T14:00:00,1087A,112.57,37.8195,太原市,坞城,颗粒物(PM10),51,52,54,28,25,168,116,165,111,19,19,6,10,0.6,0.7
2023-09-23T14:00:00,1088A,112.549,37.9854,太原市,南寨,,47,47,54,30,26,150,109,137,96,22,23,7,9,0.6,0.6
2023-09-23T14:00:00,1090A,111.6507,40.7517,呼和浩特市,呼市一监,,,,39,35,17,137,134,88,88,16,23,9,7,0.7,0.6
2023-09-23T14:00:00,1091A,111.6572,40.8033,呼和浩特市,小召,颗粒物(PM10),60,70,31,34,16,135,135,92,92,23,22,9,7,0.8,0.6
2023-09-23T14:00:00,1094A,111.7516,40.8369,呼和浩特市,如意水处理厂,颗粒物(PM10),63,75,37,32,13,152,152,99,99,14,23,11,9,0.7,0.5
2023-09-23T14:00:00,1095A,111.7276,40.8062,呼和浩特市,二十九中,颗粒物(PM10),55,59,34,37,18,147,147,96,96,17,25,8,8,0.7,0.6
2023-09-23T14:00:00,1096A,111.5512,40.7866,呼和浩特市,工大金川校区,颗粒物(PM10),53,56,38,32,16,146,146,82,82,13,26,7,6,0.6,0.5
2023-09-23T14:00:00,1097A,111.717,40.7612,呼和浩特市,化肥厂生活区,颗粒物(PM10),73,95,61,34,16,156,150,101,101,21,21,9,9,0.6,0.5
2023-09-23T14:00:00,1098A,123.6836,41.9339,沈阳市,森林路,,,,,,,,,,,,,,,,
2023-09-23T14:00:00,1099A,123.505,41.7406,沈阳市,浑南东路,,29,21,39,13,20,92,92,44,44,7,28,8,9,0.4,0.8
2023-09-23T14:00:00,1100A,123.4231,41.6989,沈阳市,新秀街,,26,16,40,11,17,83,83,42,42,15,33,6,7,0.5,0.8
2023-09-23T14:00:00,1102A,123.5903,41.8411,沈阳市,东陵路,,29,3,27,9,18,90,90,46,46,8,19,6,7,0.4,0.6
2023-09-23T14:00:00,1103A,123.4264,41.8467,沈阳市,陵东街,,25,21,27,9,13,79,77,43,43,18,23,7,7,0.5,0.6
2023-09-23T14:00:00,1104A,123.4114,41.7653,沈阳市,文化路,,29,13,36,6,19,90,90,44,44,13,34,7,9,0.4,0.8
2023-09-23T14:00:00,1105A,123.4678,41.7867,沈阳市,小河沿,,28,16,35,6,17,89,89,45,45,16,33,7,9,0.5,0.7
2023-09-23T14:00:00,1106A,123.4017,41.7972,沈阳市,太原街,,31,31,38,6,16,88,88,47,47,17,35,8,10,0.4,0.7
2023-09-23T14:00:00,1108A,123.3783,41.9228,沈阳市,京沈街,,25,18,24,9,15,78,78,45,45,18,30,11,13,0.5,0.5
2023-09-23T14:00:00,1109A,121.612,38.9741,大连市,甘井子,,37,17,35,8,20,169,117,76,76,14,20,6,7,0.5,0.6
2023-09-23T14:00:00,1110A,121.565,38.9511,大连市,周水子,,36,15,32,8,19,166,113,67,67,13,25,4,6,0.5,0.8
2023-09-23T14:00:00,1111A,121.5637,38.8845,大连市,星海三站,,36,20,33,8,20,178,114,72,72,10,18,8,9,0.4,0.5
2023-09-23T14:00:00,1112A,121.6302,38.9117,大连市,青泥洼桥,,35,15,36,8,19,165,112,70,70,12,24,6,8,0.3,0.5
2023-09-23T14:00:00,1113A,121.6251,38.8638,大连市,傅家庄,,,18,31,,18,178,117,89,89,9,19,4,7,,0.4
2023-09-23T14:00:00,1114A,121.5213,38.8661,大连市,七贤岭,,38,27,35,8,18,185,120,79,79,9,14,6,7,0.6,0.7
2023-09-23T14:00:00,1115A,121.2529,38.8061,大连市,旅顺,,39,15,22,11,16,197,122,85,85,14,12,7,7,0.7,0.9
2023-09-23T14:00:00,1116A,121.7485,39.1311,大连市,金州,,35,10,37,5,20,177,110,73,73,9,19,8,9,0.4,0.6
2023-09-23T14:00:00,1117A,121.7811,39.0496,大连市,开发区,,32,18,30,6,17,174,101,87,87,12,17,6,4,0.4,0.6
2023-09-23T14:00:00,1118A,121.9762,39.0631,大连市,双D港,,39,18,28,8,19,187,123,92,92,10,16,6,8,0.3,0.5
2023-09-23T14:00:00,1119A,125.3325,43.9166,长春市,食品厂,,22,18,42,7,16,70,70,44,44,12,38,6,7,0.2,0.4
2023-09-23T14:00:00,1120A,125.2863,43.9027,长春市,客车厂,,24,24,41,5,16,68,68,42,42,14,32,7,7,0.3,0.5
2023-09-23T14:00:00,1121A,125.2841,43.8463,长春市,邮电学院,,22,14,26,6,12,70,69,40,40,10,26,5,5,0.2,0.3
2023-09-23T14:00:00,1122A,125.3716,43.8772,长春市,劳动公园,,21,19,36,6,10,70,66,41,41,13,33,5,5,0.3,0.5
2023-09-23T14:00:00,1123A,125.3297,43.8805,长春市,园林处,,21,19,27,3,8,72,66,41,41,14,29,8,8,0.3,0.4
2023-09-23T14:00:00,1124A,125.4605,43.79,长春市,净月潭,,24,10,11,1,3,81,75,52,52,4,8,6,6,0.3,0.3
2023-09-23T14:00:00,1125A,125.7194,43.515,长春市,甩湾子,,,,,,,,,,,,,,,,
2023-09-23T14:00:00,1126A,125.3863,43.8447,长春市,经开区环卫处,,22,16,46,4,12,69,69,40,40,9,28,5,5,0.2,0.4
2023-09-23T14:00:00,1127A,125.245,43.7783,长春市,高新区管委会,,23,17,37,6,15,71,71,42,42,12,29,7,8,0.3,0.4
2023-09-23T14:00:00,1128A,125.1761,43.8325,长春市,岱山公园,,21,16,43,7,14,70,66,39,39,15,39,4,6,0.4,0.6
2023-09-23T14:00:00,1129A,126.5422,45.755,哈尔滨市,岭北,,26,9,20,4,10,83,83,56,56,4,15,10,9,0.2,0.7
2023-09-23T14:00:00,1130A,126.561,45.8167,哈尔滨市,松北商大,,24,13,22,5,6,74,74,48,48,6,26,6,6,0.5,0.6
2023-09-23T14:00:00,1131A,126.979,45.5419,哈尔滨市,阿城会宁,,26,13,35,5,17,82,82,51,51,6,18,5,6,0.5,0.6
2023-09-23T14:00:00,1132A,126.599,45.7222,哈尔滨市,南岗学府路,,25,21,30,2,8,77,77,46,46,4,29,3,13,0.5,0.7
2023-09-23T14:00:00,1133A,126.689,45.7733,哈尔滨市,太平宏伟公园,,27,27,53,8,17,78,78,44,44,6,27,2,3,0.4,0.7
2023-09-23T14:00:00,1134A,126.635,45.7667,哈尔滨市,道外承德广场,,24,11,23,3,8,76,76,45,45,10,33,4,5,0.5,0.6
2023-09-23T14:00:00,1135A,126.685,45.7319,哈尔滨市,香坊红旗大街,,26,22,34,5,14,82,82,48,48,8,36,9,8,0.4,0.5
2023-09-23T14:00:00,1136A,126.6411,45.7258,哈尔滨市,动力和平路,,24,10,27,14,6,76,76,42,42,8,34,4,6,0.4,0.6
2023-09-23T14:00:00,1137A,126.593,45.7478,哈尔滨市,道里建国路,,32,32,34,12,9,76,76,49,49,12,33,8,8,0.3,0.4
2023-09-23T14:00:00,1138A,126.615,45.61,哈尔滨市,平房东轻厂,,27,27,26,12,7,80,80,49,49,4,31,7,9,0.1,0.2
2023-09-23T14:00:00,1139A,126.595,45.9855,哈尔滨市,呼兰师专,,24,16,17,10,6,74,74,54,54,6,20,5,5,0.5,0.6
2023-09-23T14:00:00,1140A,126.6206,45.6842,哈尔滨市,省农科院,,25,18,32,8,7,79,79,47,47,5,32,7,10,0.5,0.7
2023-09-23T14:00:00,1141A,121.4,31.238,上海市,普陀,,25,14,13,9,9,83,78,70,70,23,26,4,4,0.6,0.6
2023-09-23T14:00:00,1142A,121.478,31.2036,上海市,十五厂,,29,13,15,8,11,90,90,74,72,23,38,8,8,0.6,0.6
2023-09-23T14:00:00,1143A,121.467,31.3008,上海市,虹口,,23,16,15,10,8,78,71,70,70,34,34,8,7,0.5,0.5
2023-09-23T14:00:00,1144A,121.412,31.1654,上海市,徐汇上师大,,28,9,14,8,13,88,88,73,73,16,30,6,6,0.6,0.7
2023-09-23T14:00:00,1145A,121.536,31.2659,上海市,杨浦四漂,,24,16,14,9,8,90,57,64,64,47,33,7,7,0.6,0.6
2023-09-23T14:00:00,1147A,121.425,31.2261,上海市,静安监测站,,29,12,14,7,10,91,91,78,78,21,29,3,3,0.4,0.4
2023-09-23T14:00:00,1148A,121.703,31.1907,上海市,浦东川沙,,28,11,12,10,8,98,87,83,83,20,24,5,5,0.5,0.5
2023-09-23T14:00:00,1149A,121.533,31.2284,上海市,浦东新区监测站,,25,9,13,3,8,84,78,66,66,19,31,6,6,0.5,0.5
2023-09-23T14:00:00,1150A,121.577,31.2071,上海市,浦东张江,,26,10,13,3,10,88,82,70,70,18,29,5,5,0.5,0.5
2023-09-23T14:00:00,1151A,118.8086,32.1065,南京市,迈皋桥,,25,9,18,2,7,77,77,51,51,8,23,3,4,0.1,0.3
2023-09-23T14:00:00,1152A,118.7538,32.0551,南京市,草场门,,,7,16,7,9,80,62,49,49,,29,1,2,0.3,0.5
2023-09-23T14:00:00,1153A,118.7794,32.0745,南京市,山西路,,25,9,20,2,8,83,78,54,54,9,17,4,4,0.3,0.4
2023-09-23T14:00:00,1154A,118.7752,32.0023,南京市,中华门,,21,9,17,2,7,70,67,43,43,12,27,4,4,0.7,0.9
2023-09-23T14:00:00,1155A,118.8109,32.0309,南京市,瑞金路,,17,12,19,5,6,71,53,40,40,16,23,5,5,0.3,0.4
2023-09-23T14:00:00,1156A,118.7997,32.0754,南京市,玄武湖,,22,22,25,5,8,69,64,44,44,13,21,3,4,0.5,0.6
2023-09-23T14:00:00,1157A,118.6414,32.0931,南京市,浦口,,25,6,22,4,10,80,80,60,60,15,25,2,4,0.2,0.6
2023-09-23T14:00:00,1158A,118.7356,31.9996,南京市,奥体中心,,24,21,21,5,9,80,76,49,49,16,27,5,7,0.3,0.5
2023-09-23T14:00:00,1159A,118.9125,32.1028,南京市,仙林大学城,,26,2,14,5,7,87,81,55,55,9,19,7,8,0.5,0.6
2023-09-23T14:00:00,1160A,120.561,31.2472,苏州市,上方山,,21,15,18,6,9,69,66,57,57,16,22,4,4,0.5,0.5
2023-09-23T14:00:00,1162A,120.591,31.3019,苏州市,彩香,,24,12,15,8,10,80,74,68,68,15,17,6,6,0.6,0.7
2023-09-23T14:00:00,1163A,120.596,31.3264,苏州市,轧钢厂,,25,13,14,7,8,78,78,72,72,13,17,8,8,0.5,0.5
2023-09-23T14:00:00,1164A,120.613,31.2703,苏州市,吴中区,,24,11,15,5,8,76,76,68,68,21,24,8,8,0.5,0.6
2023-09-23T14:00:00,1165A,120.543,31.2994,苏州市,苏州新区,,,12,15,6,9,79,79,71,71,23,32,,6,0.5,0.5
2023-09-23T14:00:00,1166A,120.669,31.3097,苏州市,苏州工业园区,,25,11,14,8,9,80,80,71,71,19,23,6,7,0.5,0.6
2023-09-23T14:00:00,1167A,120.641,31.3708,苏州市,相城区,,23,11,12,7,7,77,73,73,73,20,19,8,8,0.5,0.5
2023-09-23T14:00:00,1168A,120.9098,31.9663,南通市,狼山街道,,32,15,13,5,3,102,102,69,69,10,20,6,6,0.2,0.3
2023-09-23T14:00:00,1169A,120.86,32.0005,南通市,虹桥,,30,16,17,8,8,97,96,74,74,14,20,6,6,0.6,0.5
2023-09-23T14:00:00,1170A,120.87,32.02,南通市,城中,,30,16,14,4,5,93,93,68,68,10,21,7,7,0.5,0.4
2023-09-23T14:00:00,1171A,120.94,31.93,南通市,星湖花园,,30,12,12,6,5,98,93,66,66,9,17,6,6,0.6,0.5
2023-09-23T14:00:00,1172A,120.81,32.0417,南通市,紫琅学院,,31,13,11,1,2,98,98,66,66,10,27,6,7,0.5,0.5
2023-09-23T14:00:00,1173A,119.176,34.5885,连云港市,市环境监测站,,36,36,38,22,18,149,81,92,65,27,27,11,11,0.5,0.6
2023-09-23T14:00:00,1177A,117.179,34.2761,徐州市,黄河新村,细颗粒物(PM2.5),83,105,42,61,22,122,75,68,67,54,31,11,8,0.9,0.5
2023-09-23T14:00:00,1178A,117.1918,34.2384,徐州市,淮塔,细颗粒物(PM2.5),92,132,50,68,24,132,72,72,72,47,27,14,11,0.9,0.5
2023-09-23T14:00:00,1180A,117.256,34.2153,徐州市,新城区,颗粒物(PM10),78,105,48,56,22,123,88,75,75,46,35,10,8,1.0,0.5
2023-09-23T14:00:00,1181A,117.244,34.2911,徐州市,桃园路,细颗粒物(PM2.5),93,114,51,69,28,127,74,74,61,53,31,10,9,0.9,0.5
2023-09-23T14:00:00,1182A,117.2933,34.2778,徐州市,农科院,细颗粒物(PM2.5),90,97,41,67,25,122,79,67,67,49,37,12,9,1.0,0.5
2023-09-23T14:00:00,1186A,119.389,32.3761,扬州市,邗江监测站,,30,22,35,6,14,94,94,66,66,14,31,6,10,0.3,0.5
2023-09-23T14:00:00,1188A,120.269,31.4867,无锡市,雪浪,,24,5,14,5,8,80,76,60,60,19,27,4,4,0.4,0.5
2023-09-23T14:00:00,1189A,120.275,31.6219,无锡市,黄巷,,18,9,15,2,7,69,57,45,45,35,42,6,6,0.6,0.7
2023-09-23T14:00:00,1190A,120.294,31.56,无锡市,曹张,,20,11,18,7,10,69,64,61,52,24,31,8,8,0.7,0.8
2023-09-23T14:00:00,1191A,120.242,31.5031,无锡市,漆塘,,25,17,13,2,9,84,77,62,62,22,27,6,6,0.5,0.7
2023-09-23T14:00:00,1192A,120.3489,31.5863,无锡市,东亭,,18,9,16,5,10,66,57,56,48,30,32,4,4,0.7,0.9
2023-09-23T14:00:00,1193A,120.354,31.5475,无锡市,旺庄,,24,7,15,5,9,74,74,60,60,25,32,5,5,0.6,0.7
2023-09-23T14:00:00,1194A,120.245,31.5631,无锡市,荣巷,,21,9,13,5,8,68,65,54,54,21,18,9,9,0.5,0.6
2023-09-23T14:00:00,1195A,120.299,31.6817,无锡市,堰桥,,19,9,15,9,9,76,58,54,54,23,22,6,7,0.5,0.6
2023-09-23T14:00:00,1196A,119.9633,31.762,常州市,市监测站,,40,40,20,21,12,85,38,57,57,56,33,9,8,0.9,0.6
2023-09-23T14:00:00,1200A,119.9468,31.7069,常州市,武进监测站,,25,25,24,9,8,85,57,61,61,26,24,8,8,0.7,0.7
2023-09-23T14:00:00,1201A,119.9255,31.9087,常州市,安家,,29,27,20,20,13,87,55,63,63,31,29,8,8,0.7,0.7
2023-09-23T14:00:00,1203A,119.6707,32.1875,镇江市,新区办事处,,29,17,25,8,14,91,91,57,57,13,28,4,5,0.7,0.7
2023-09-23T14:00:00,1204A,119.4974,32.1968,镇江市,职教中心,,32,32,28,18,17,89,70,60,60,27,28,3,4,0.7,0.6
2023-09-23T14:00:00,1205A,119.4303,32.1328,镇江市,丹徒区监测站,,35,32,26,24,15,88,66,53,53,27,29,2,2,0.6,0.5
2023-09-23T14:00:00,1206A,119.905,32.4878,泰州市,公园路,,30,17,23,9,13,96,93,70,70,11,15,6,6,0.4,0.5
2023-09-23T14:00:00,1207A,119.9189,32.4625,泰州市,莲花,,31,12,21,5,10,98,98,74,74,8,13,4,5,0.5,0.5
2023-09-23T14:00:00,1209A,119.888,32.4639,泰州市,留学生创业园,,32,15,24,7,11,101,101,77,77,10,16,6,7,0.5,0.5
2023-09-23T14:00:00,1210A,119.036,33.5981,淮安市,钵池山,,39,27,22,17,16,124,124,83,83,11,23,8,7,0.8,0.7
2023-09-23T14:00:00,1211A,119.007,33.575,淮安市,北京南路,,39,36,23,15,11,123,123,87,87,13,19,6,5,0.6,0.5
2023-09-23T14:00:00,1212A,118.989,33.6067,淮安市,市监测站,,41,31,26,9,9,129,129,94,94,12,23,9,8,0.8,0.6
2023-09-23T14:00:00,1213A,119.135,33.5039,淮安市,楚州区监测站,,35,22,18,13,11,111,111,88,88,9,19,6,6,0.6,0.5
2023-09-23T14:00:00,1214A,119.0186,33.6297,淮安市,淮阴区监测站,,40,29,29,12,15,127,127,87,87,11,30,10,8,0.7,0.6
2023-09-23T14:00:00,1215A,120.118,33.4022,盐城市,盐城电厂,,37,17,25,12,12,116,116,86,86,4,15,6,7,0.3,0.3
2023-09-23T14:00:00,1216A,120.156,33.3942,盐城市,市监测站,,42,9,17,8,9,133,133,93,93,5,19,4,6,0.2,0.3
2023-09-23T14:00:00,1218A,120.2144,33.38,盐城市,开发区管委会,,35,15,17,5,8,112,112,82,74,8,17,7,9,0.2,0.2
2023-09-23T14:00:00,1220A,118.293,33.9528,宿迁市,宿迁学院,细颗粒物(PM2.5),52,46,28,36,18,124,107,86,86,23,26,16,8,0.8,0.5
2023-09-23T14:00:00,1221A,118.2442,33.9592,宿迁市,宿迁中学,,45,44,27,31,16,116,103,83,83,22,21,17,8,0.7,0.6
2023-09-23T14:00:00,1223A,120.2072,30.2111,杭州市,滨江,,18,5,16,4,8,66,56,55,55,25,22,6,6,0.6,0.6
2023-09-23T14:00:00,1224A,120.0633,30.2747,杭州市,西溪,,18,12,14,7,10,58,57,52,52,21,18,4,3,0.6,0.5
2023-09-23T14:00:00,1226A,120.3461,30.3153,杭州市,下沙,,19,14,19,7,9,59,59,50,50,27,34,3,3,0.5,0.6
2023-09-23T14:00:00,1227A,120.1269,30.2456,杭州市,卧龙桥,,19,9,17,6,11,64,60,56,56,22,18,3,2,0.6,0.6
2023-09-23T14:00:00,1228A,120.1903,30.2692,杭州市,浙江农大,,16,8,12,5,10,60,49,50,50,28,23,7,6,0.5,0.6
2023-09-23T14:00:00,1230A,120.1197,30.3119,杭州市,和睦小学,,20,8,12,7,10,68,63,59,59,22,21,7,7,0.8,0.8
2023-09-23T14:00:00,1231A,120.3019,30.4183,杭州市,临平镇,,21,11,17,9,9,67,67,60,60,16,18,4,4,0.5,0.6
2023-09-23T14:00:00,1232A,120.2697,30.1819,杭州市,城厢镇,,17,5,17,4,13,67,53,54,54,24,20,6,6,0.6,0.6
2023-09-23T14:00:00,1233A,120.0883,30.1808,杭州市,云栖,,18,10,18,2,6,68,57,58,58,19,13,6,5,0.6,0.6
2023-09-23T14:00:00,1234A,121.8358,29.911,宁波市,区环保大楼,,34,15,15,8,10,107,107,79,79,17,32,6,6,0.5,0.6
2023-09-23T14:00:00,1235A,121.56,29.82,宁波市,万里学院,,35,12,21,4,12,110,110,69,69,18,32,8,7,0.4,0.5
2023-09-23T14:00:00,1236A,121.713,29.9572,宁波市,龙赛医院,,35,26,20,6,6,112,112,85,85,14,23,8,9,0.5,0.5
2023-09-23T14:00:00,1239A,121.633,29.7733,宁波市,钱湖水厂,,34,13,23,5,10,107,107,60,60,9,25,6,6,0.6,0.7
2023-09-23T14:00:00,1240A,121.5856,29.8635,宁波市,太古小学,,32,13,19,7,12,102,102,68,68,15,28,7,7,0.7,0.8
2023-09-23T14:00:00,1241A,121.524,29.8674,宁波市,市环境监测中心,,39,11,22,6,9,124,124,76,76,7,18,9,8,0.3,0.4
2023-09-23T14:00:00,1242A,120.634,28.0089,温州市,瓯海,,29,16,30,12,18,114,91,64,64,11,20,5,6,0.5,0.6
2023-09-23T14:00:00,1243A,120.6748,27.9939,温州市,南浦,颗粒物(PM10),51,51,20,16,11,139,93,69,69,7,10,5,5,0.4,0.5
2023-09-23T14:00:00,1244A,120.76,27.9747,温州市,龙湾,,27,10,28,11,14,145,85,68,57,17,19,4,4,0.4,0.4
2023-09-23T14:00:00,1245A,120.6709,28.0167,温州市,市站,,27,21,28,8,16,133,84,62,61,11,16,5,6,0.5,0.6
2023-09-23T14:00:00,1247A,120.6053,29.9928,绍兴市,城东开发委,,25,10,19,6,13,84,80,60,60,10,21,6,6,0.6,0.8
2023-09-23T14:00:00,1250A,120.0751,30.8669,湖州市,城西水厂,,30,9,12,6,9,95,95,80,80,13,17,2,2,0.4,0.4
2023-09-23T14:00:00,1252A,120.7436,30.778,嘉兴市,清河小学,,21,12,15,6,8,70,66,64,64,26,26,4,4,0.8,0.8
2023-09-23T14:00:00,1253A,120.726,30.7478,嘉兴市,嘉兴学院,,20,14,14,10,11,70,62,62,62,23,22,4,4,0.5,0.5
2023-09-23T14:00:00,1255A,121.273,28.6459,台州市,黄岩环保大楼,,27,27,22,14,13,100,73,56,47,13,11,4,5,0.5,0.5
2023-09-23T14:00:00,1256A,121.419,28.6542,台州市,台州环保大楼,,25,21,20,12,10,107,78,73,61,8,7,6,5,0.4,0.4
2023-09-23T14:00:00,1257A,121.377,28.5773,台州市,路桥田洋王,,29,29,21,13,12,110,71,70,57,11,11,5,5,0.4,0.4
2023-09-23T14:00:00,1258A,122.122,30.0203,舟山市,定海檀枫,,35,19,14,6,6,112,112,94,94,7,9,6,6,0.5,0.4
2023-09-23T14:00:00,1259A,122.3094,29.9558,舟山市,普陀东港,,38,18,13,7,4,120,120,101,101,5,7,6,5,0.5,0.5
2023-09-23T14:00:00,1260A,122.19,29.9944,舟山市,临城新区,,39,17,13,6,5,122,122,100,100,7,8,6,6,0.3,0.3
2023-09-23T14:00:00,1262A,119.647,29.077,金华市,十五中,,25,19,25,10,13,78,78,42,42,20,25,4,3,0.5,0.6
2023-09-23T14:00:00,1263A,119.686,29.1029,金华市,监测站,,23,21,22,11,13,73,73,39,39,16,25,4,4,0.6,0.6
2023-09-23T14:00:00,1264A,118.8692,28.9398,衢州市,环保大楼,,28,28,27,17,16,60,55,38,35,15,16,4,4,0.5,0.5
2023-09-23T14:00:00,1265A,118.8709,28.9666,衢州市,实验学校,,27,27,24,18,14,69,66,39,39,12,16,6,5,0.5,0.5
2023-09-23T14:00:00,1266A,118.8621,28.9808,衢州市,衢州学院,,25,24,23,17,16,69,69,42,42,12,16,4,4,0.4,0.5
2023-09-23T14:00:00,1267A,119.914,28.4514,丽水市,监测站大楼,,25,21,26,13,12,78,78,50,50,8,16,5,8,0.5,0.6
2023-09-23T14:00:00,1268A,119.93,28.4586,丽水市,莲都小学,,23,21,24,12,12,83,72,46,46,8,15,5,5,0.4,0.5
2023-09-23T14:00:00,1269A,119.879,28.4231,丽水市,余庄前,,25,18,34,10,15,86,78,48,48,12,15,5,6,0.5,0.5
2023-09-23T14:00:00,1270A,117.1959,31.7848,合肥市,明珠广场,,25,19,27,17,14,73,62,50,36,22,27,6,6,0.6,0.7
2023-09-23T14:00:00,1271A,117.3072,31.8764,合肥市,三里街,,29,29,26,19,15,67,46,46,41,24,25,5,5,0.5,0.4
2023-09-23T14:00:00,1272A,117.2588,31.8707,合肥市,琥珀山庄,,25,24,24,17,11,75,56,56,54,22,20,5,5,0.7,0.6
2023-09-23T14:00:00,1273A,117.1604,31.9052,合肥市,董铺水库,,19,14,21,5,7,81,60,63,63,18,15,4,5,0.5,0.4
2023-09-23T14:00:00,1274A,117.25,31.8571,合肥市,长江中路,细颗粒物(PM2.5),52,44,33,36,18,75,53,55,46,20,20,7,7,0.9,0.7
2023-09-23T14:00:00,1275A,117.266,31.9436,合肥市,庐阳区,,28,22,27,19,14,70,57,60,57,18,18,5,4,0.5,0.5
2023-09-23T14:00:00,1276A,117.336,31.8586,合肥市,瑶海区,,27,27,29,13,12,72,52,52,38,22,21,5,5,0.7,0.6
2023-09-23T14:00:00,1277A,117.3027,31.7964,合肥市,包河区,,20,19,25,14,15,61,40,27,27,36,42,5,6,0.6,0.7
2023-09-23T14:00:00,1278A,117.2776,31.7385,合肥市,滨湖新区,,21,14,23,9,13,80,66,56,48,14,20,5,3,0.3,0.4
2023-09-23T14:00:00,1279A,117.1318,31.8403,合肥市,高新区,,26,19,24,18,16,77,62,60,54,20,21,5,5,0.6,0.6
2023-09-23T14:00:00,1280A,119.3903,26.0543,福州市,鼓山,,,,,,,,,,,,,,,,
2023-09-23T14:00:00,1282A,119.2681,26.0504,福州市,师大,,25,9,23,5,7,78,78,67,67,2,5,4,4,0.2,0.1
2023-09-23T14:00:00,1283A,119.2984,26.1028,福州市,五四北路,,23,7,20,2,5,77,72,65,65,4,5,2,3,0.2,0.1
2023-09-23T14:00:00,1284A,119.2648,26.0768,福州市,杨桥西路,,23,12,21,3,5,77,72,64,64,4,6,3,3,0.3,0.3
2023-09-23T14:00:00,1285A,119.317,26.0746,福州市,紫阳,,22,12,18,4,5,72,68,62,62,3,4,4,4,0.2,0.2
2023-09-23T14:00:00,1286A,118.1608,24.8169,厦门市,溪东,,,,,,,,,,,,,,,,
2023-09-23T14:00:00,1287A,118.1514,24.4767,厦门市,洪文,,33,33,23,11,9,82,78,56,56,5,5,2,2,0.1,0.1
2023-09-23T14:00:00,1288A,118.0661,24.4444,厦门市,鼓浪屿,,25,25,17,11,8,78,78,54,54,10,11,2,2,0.3,0.3
2023-09-23T14:00:00,1290A,115.8931,28.6843,南昌市,省外办,,29,29,36,17,18,57,34,27,22,16,17,3,3,0.8,0.8
2023-09-23T14:00:00,1291A,115.8886,28.7003,南昌市,省林业公司,,20,14,27,14,19,66,40,31,26,13,20,4,4,0.8,0.8
2023-09-23T14:00:00,1292A,115.8126,28.7442,南昌市,林科所,,17,17,17,7,11,71,45,37,30,18,13,6,6,0.9,1.1
2023-09-23T14:00:00,1294A,115.8518,28.687,南昌市,建工学校,,32,24,34,22,19,61,43,35,28,14,14,7,7,0.8,0.7
2023-09-23T14:00:00,1295A,115.8921,28.6424,南昌市,象湖,,23,22,26,16,18,63,38,31,26,13,13,5,5,0.6,0.6
2023-09-23T14:00:00,1296A,115.7423,28.7996,南昌市,武术学校,,20,17,17,14,10,66,44,38,30,15,10,9,10,0.7,0.6
2023-09-23T14:00:00,1298A,115.9314,28.6842,南昌市,省站,,15,13,28,10,16,62,37,32,25,15,14,6,6,0.8,0.8
2023-09-23T14:00:00,1299A,116.9862,36.6114,济南市,科干所,,46,46,48,22,23,171,124,107,93,18,25,10,10,0.4,0.5
2023-09-23T14:00:00,1300A,116.9376,36.665,济南市,农科所,,44,44,47,15,18,158,124,92,92,21,36,9,10,0.4,0.5
2023-09-23T14:00:00,1301A,117.1265,36.6734,济南市,开发区,,39,39,49,12,18,159,118,84,84,16,39,8,9,0.5,0.6
2023-09-23T14:00:00,1303A,117.0624,36.6868,济南市,省种子仓库,,40,36,51,12,21,174,125,87,87,14,36,5,8,0.3,0.5
2023-09-23T14:00:00,1304A,116.9489,36.6447,济南市,机床二厂,,39,34,52,12,18,165,124,90,90,21,38,8,11,0.4,0.7
2023-09-23T14:00:00,1305A,117.0495,36.663,济南市,市监测站,,42,42,52,17,19,170,125,97,92,25,40,3,6,0.3,0.5
2023-09-23T14:00:00,1306A,116.7675,36.5484,济南市,长清党校,,42,37,49,20,24,162,133,96,96,16,29,8,6,0.3,0.4
2023-09-23T14:00:00,1307A,120.6659,36.2403,青岛市,仰口,,29,24,32,19,20,124,91,124,67,9,13,4,5,0.5,0.4
2023-09-23T14:00:00,1310A,120.4134,36.0658,青岛市,市南区东部子站,,38,29,35,14,14,168,119,101,84,9,26,7,6,0.6,0.6
2023-09-23T14:00:00,1311A,120.3664,36.1032,青岛市,四方区子站,,48,48,40,19,13,161,102,112,67,34,36,23,8,0.7,0.6
2023-09-23T14:00:00,1312A,120.2994,36.054,青岛市,市南区西部子站,,44,44,47,20,15,161,110,109,76,18,26,7,7,0.5,0.4
2023-09-23T14:00:00,1313A,120.4581,36.0858,青岛市,崂山区子站,,40,27,33,17,15,178,127,120,92,8,25,8,9,0.4,0.4
2023-09-23T14:00:00,1314A,120.1983,35.9608,青岛市,黄岛区子站,,34,34,45,17,16,149,101,59,49,26,43,7,8,0.6,0.5
2023-09-23T14:00:00,1315A,120.3999,36.3083,青岛市,城阳区子站,,39,27,42,10,17,169,124,139,84,12,27,6,7,0.6,0.6
2023-09-23T14:00:00,1316A,113.69031,34.76122,郑州市,烟厂,,32,32,54,18,22,146,98,78,48,15,32,4,6,0.4,0.5
2023-09-23T14:00:00,1317A,113.65724,34.77134,郑州市,郑纺机,,39,39,55,18,23,148,100,80,52,17,34,4,6,0.6,0.6
2023-09-23T14:00:00,1318A,113.67526,34.80246,郑州市,银行学校,,32,29,49,17,22,145,101,73,51,13,34,6,7,0.4,0.5
2023-09-23T14:00:00,1319A,113.56746,34.81334,郑州市,供水公司,,29,29,58,20,25,146,92,85,46,26,45,6,6,0.3,0.4
2023-09-23T14:00:00,1320A,113.7329,34.7178,郑州市,经开区管委,,,,61,,26,142,90,62,46,16,32,6,7,0.3,0.4
2023-09-23T14:00:00,1321A,113.73961,34.77172,郑州市,四十七中,,,34,51,24,28,138,93,66,46,,34,5,6,0.5,0.5
2023-09-23T14:00:00,1322A,113.60532,34.74838,郑州市,市监测站,,39,39,56,18,23,144,100,93,53,16,31,5,7,0.3,0.4
2023-09-23T14:00:00,1323A,113.64164,34.7525,郑州市,河医大,,41,41,56,22,19,139,89,79,46,18,33,6,8,0.6,0.7
2023-09-23T14:00:00,1324A,113.51488,34.91089,郑州市,岗李水库,,,,,,,,,,,,,,,,
2023-09-23T14:00:00,1325A,114.3677,30.5584,武汉市,东湖梨园,,15,13,16,0,7,80,47,43,42,18,17,8,8,0.6,0.5
2023-09-23T14:00:00,1326A,114.2529,30.558,武汉市,汉阳月湖,,21,21,25,12,12,66,37,30,30,24,27,6,6,0.7,0.8
2023-09-23T14:00:00,1327A,114.282,30.6189,武汉市,汉口花桥,,21,21,30,12,18,66,34,37,34,23,28,6,6,0.7,0.8
2023-09-23T14:00:00,1328A,114.3025,30.5332,武汉市,武昌紫阳,,18,18,20,8,10,84,42,42,36,14,17,5,6,0.8,0.6
2023-09-23T14:00:00,1329A,114.3646,30.6217,武汉市,青山钢花,,25,24,24,17,20,72,29,32,30,27,27,6,6,0.8,0.7
2023-09-23T14:00:00,1330A,114.1566,30.4825,武汉市,沌口新区,,22,15,26,15,15,71,41,35,32,24,32,7,8,0.8,0.7
2023-09-23T14:00:00,1331A,114.3014,30.5944,武汉市,汉口江滩,,15,11,15,10,16,56,40,41,41,16,17,7,6,0.8,0.6
2023-09-23T14:00:00,1333A,114.135,30.6319,武汉市,吴家山,,18,18,28,10,17,73,43,55,39,20,23,9,10,0.9,0.8
2023-09-23T14:00:00,1334A,113.8454,30.2917,武汉市,沉湖七壕,,15,10,21,5,11,67,48,48,36,14,18,2,2,0.9,0.8
2023-09-23T14:00:00,1335A,113.0833,28.2325,长沙市,经开区环保局,,19,17,17,13,13,49,45,39,34,15,19,4,4,0.4,0.4
2023-09-23T14:00:00,1336A,112.8872,28.2189,长沙市,高开区环保局,,23,19,18,16,14,60,50,44,44,9,8,5,5,0.6,0.5
2023-09-23T14:00:00,1337A,113.0792,28.2053,长沙市,马坡岭,,28,17,21,19,17,52,52,45,37,17,20,5,5,0.6,0.5
2023-09-23T14:00:00,1338A,112.9394,28.19,长沙市,湖南师范大学,,28,23,19,19,16,56,56,49,41,12,10,4,4,0.6,0.6
2023-09-23T14:00:00,1339A,113.0178,28.1322,长沙市,雨花区环保局,,24,24,18,12,11,49,48,40,35,19,14,6,6,0.8,0.6
2023-09-23T14:00:00,1340A,112.9792,28.2597,长沙市,伍家岭,,21,21,18,12,14,53,48,47,38,13,13,3,3,0.5,0.5
2023-09-23T14:00:00,1341A,113.0014,28.1944,长沙市,火车新站,,25,23,25,17,14,56,56,48,40,14,14,6,6,0.6,0.5
2023-09-23T14:00:00,1342A,112.9844,28.1178,长沙市,天心区环保局,,28,26,17,19,12,46,44,40,34,19,13,3,3,0.7,0.5
2023-09-23T14:00:00,1343A,112.8908,28.1308,长沙市,湖南中医药大学,,30,30,25,20,16,53,52,49,40,12,9,2,2,0.8,0.6
2023-09-23T14:00:00,1344A,112.9581,28.3611,长沙市,沙坪,,13,6,29,9,9,43,32,40,28,8,8,6,6,0.4,0.3
2023-09-23T14:00:00,1345A,113.2347,23.1423,广州市,广雅中学,臭氧1小时,103,49,47,32,29,206,206,103,103,17,34,4,4,0.7,0.7
2023-09-23T14:00:00,1346A,113.2612,23.105,广州市,市五中,臭氧1小时,113,54,49,32,33,226,226,103,103,15,33,8,7,0.7,0.7
2023-09-23T14:00:00,1348A,113.3478,23.0916,广州市,广东商学院,臭氧1小时,102,56,56,26,31,204,204,84,84,56,55,5,4,0.7,0.7
2023-09-23T14:00:00,1349A,113.4332,23.1047,广州市,市八十六中,臭氧1小时,108,61,64,39,35,215,215,99,99,23,54,5,5,1.1,1.1
2023-09-23T14:00:00,1350A,113.3505,22.9483,广州市,番禺中学,臭氧1小时,105,50,53,22,33,220,210,104,104,16,48,7,7,0.7,0.8
2023-09-23T14:00:00,1351A,113.2146,23.3916,广州市,花都师范,臭氧1小时,88,52,59,32,35,190,190,102,102,16,43,6,8,0.6,0.9
2023-09-23T14:00:00,1352A,113.2597,23.1331,广州市,市监测站,臭氧1小时,107,68,48,41,32,213,213,103,103,22,36,5,5,0.7,0.7
2023-09-23T14:00:00,1353A,113.5618,23.312,广州市,九龙镇镇龙,,47,47,51,28,30,150,119,77,77,9,32,4,4,0.4,0.5
2023-09-23T14:00:00,1354A,113.2765,23.1544,广州市,麓湖,臭氧1小时,111,52,44,32,29,222,222,101,101,16,29,7,7,0.7,0.7
2023-09-23T14:00:00,1355A,113.443,23.3035,广州市,帽峰山森林公园,,48,29,36,24,26,169,153,91,91,10,21,6,8,0.5,0.6
2023-09-23T14:00:00,1356A,114.1063,22.5545,深圳市,通心岭子站,,26,16,25,9,16,132,83,64,55,9,22,2,2,0.6,0.6
2023-09-23T14:00:00,1357A,114.117,22.5625,深圳市,洪湖,,27,12,35,6,11,134,84,56,51,6,29,6,6,0.5,0.7
2023-09-23T14:00:00,1358A,113.987,22.5417,深圳市,华侨城,,29,18,30,16,22,117,92,53,53,10,21,7,7,0.7,0.8
2023-09-23T14:00:00,1359A,113.9181,22.5171,深圳市,南海子站,,29,18,36,7,20,117,91,83,57,8,22,5,5,0.7,0.8
2023-09-23T14:00:00,1360A,114.2458,22.5689,深圳市,盐田,,29,22,24,12,14,126,92,64,64,9,23,6,5,0.5,0.5
2023-09-23T14:00:00,1361A,114.2283,22.7244,深圳市,龙岗,,35,26,33,12,18,112,112,72,72,9,20,6,6,0.5,0.7
2023-09-23T14:00:00,1363A,114.494,22.5422,深圳市,南澳,,22,10,20,6,12,117,68,64,64,6,9,7,6,0.5,0.5
2023-09-23T14:00:00,1364A,114.41,22.6342,深圳市,葵涌,,26,21,25,9,12,107,83,55,55,11,12,5,5,0.6,0.6
2023-09-23T14:00:00,1365A,114.297,22.5978,深圳市,梅沙,,27,21,22,13,13,109,86,67,60,5,8,7,6,0.6,0.7
2023-09-23T14:00:00,1366A,114.0678,22.738,深圳市,观澜,,47,46,47,21,23,168,150,88,88,9,37,8,8,0.8,1
2023-09-23T14:00:00,1367A,113.5814,22.2618,珠海市,吉大,,32,21,18,13,12,133,101,96,74,13,15,6,6,0.4,0.5
2023-09-23T14:00:00,1368A,113.4881,22.2335,珠海市,前山,,30,19,23,8,12,108,95,75,68,14,17,9,9,0.4,0.4
2023-09-23T14:00:00,1369A,113.628,22.4251,珠海市,唐家,,40,25,27,13,15,147,126,73,73,10,18,6,6,0.4,0.5
2023-09-23T14:00:00,1370A,113.299,22.2281,珠海市,斗门,,39,19,23,12,16,155,124,88,75,9,12,7,8,0.4,0.5
2023-09-23T14:00:00,1371A,113.1294,23.0067,佛山市,湾梁,臭氧1小时,108,34,42,22,25,216,216,114,114,14,36,7,7,0.7,0.8
2023-09-23T14:00:00,1372A,113.1083,23.0478,佛山市,华材职中,臭氧1小时,97,34,40,24,28,197,197,103,103,14,29,4,5,0.5,0.6
2023-09-23T14:00:00,1373A,113.144,23.0453,佛山市,南海气象局,臭氧1小时,77,42,44,24,27,181,181,91,91,17,32,8,8,0.5,0.5
2023-09-23T14:00:00,1374A,113.2881,22.8094,佛山市,顺德苏岗,臭氧1小时,101,38,46,27,35,226,202,90,90,13,45,8,8,0.7,0.8
2023-09-23T14:00:00,1376A,112.8383,22.8678,佛山市,高明孔堂,臭氧1小时,113,60,43,28,25,233,226,140,140,17,20,6,6,0.6,0.7
2023-09-23T14:00:00,1377A,112.8836,23.1588,佛山市,三水监测站,臭氧1小时,113,53,56,34,32,226,226,90,90,24,48,4,5,0.6,0.7
2023-09-23T14:00:00,1378A,112.867,23.185,佛山市,三水云东海,臭氧1小时,114,37,51,27,40,228,228,91,91,15,31,4,4,0.6,0.6
2023-09-23T14:00:00,1379A,113.3769,22.5211,中山市,华柏园,,47,42,37,16,26,220,150,71,71,13,23,6,6,0.4,0.4
2023-09-23T14:00:00,1380A,113.3881,22.5497,中山市,张溪,,50,43,52,17,25,223,158,73,73,14,27,4,4,0.5,0.5
2023-09-23T14:00:00,1381A,113.4075,22.5111,中山市,紫马岭,,47,32,32,20,24,179,148,71,71,9,18,6,6,0.4,0.4
2023-09-23T14:00:00,1382A,113.4411,22.4853,中山市,长江旅游区,,,,,,,,,,,,,,,,
2023-09-23T14:00:00,1383A,113.1064,22.6058,江门市,北街,臭氧1小时,59,39,47,18,39,260,167,108,108,12,28,6,6,0.4,0.6
2023-09-23T14:00:00,1384A,113.0731,22.5835,江门市,西区,臭氧1小时,64,40,47,21,26,263,171,106,106,12,34,5,6,0.4,0.6
2023-09-23T14:00:00,1385A,113.0219,22.5311,江门市,圭峰西,颗粒物(PM10),54,57,37,21,24,227,162,106,106,13,16,4,4,0.6,0.7
2023-09-23T14:00:00,1386A,113.0828,22.5947,江门市,东湖,臭氧1小时,59,35,51,24,27,255,167,109,109,9,22,7,8,0.5,0.7
2023-09-23T14:00:00,1389A,113.7547,23.0494,东莞市,莞城梨川,,48,40,55,17,31,165,153,109,109,10,26,5,6,0.7,0.8
2023-09-23T14:00:00,1390A,113.7944,23.0128,东莞市,东城石井,臭氧1小时,57,37,44,26,27,166,165,104,104,9,22,3,3,0.7,0.7
2023-09-23T14:00:00,1391A,113.7383,22.9658,东莞市,南城西平,臭氧1小时,59,43,50,26,29,167,167,92,92,13,38,5,5,0.5,0.6
2023-09-23T14:00:00,1392A,114.4183,23.0528,惠州市,河南岸金山湖子站,,34,26,40,16,24,131,108,74,67,6,16,4,5,0.4,0.5
2023-09-23T14:00:00,1393A,114.4053,23.0822,惠州市,下埔横江三路子站,,34,26,40,15,25,121,108,78,74,5,13,6,6,0.5,0.6
2023-09-23T14:00:00,1394A,114.4103,23.1142,惠州市,江北云山西路子站,,34,24,38,17,24,119,107,81,76,2,12,7,8,0.5,0.6
2023-09-23T14:00:00,1395A,114.4645,22.7833,惠州市,惠阳区承修路船湖子站,,29,22,36,11,19,114,92,60,53,7,14,4,5,0.5,0.6
2023-09-23T14:00:00,1396A,114.5317,22.7422,惠州市,大亚湾管委会子站,,,19,33,10,16,124,92,61,61,,24,6,7,0.6,0.7
2023-09-23T14:00:00,1397A,112.4267,23.0706,肇庆市,睦岗子站,臭氧1小时,106,52,57,43,34,212,212,114,109,18,29,8,8,0.5,0.5
2023-09-23T14:00:00,1398A,112.4645,23.0475,肇庆市,城中子站,臭氧1小时,101,47,60,36,38,202,202,108,102,24,41,8,11,0.6,0.6
2023-09-23T14:00:00,1399A,112.5544,23.1522,肇庆市,坑口子站,臭氧1小时,103,56,49,35,33,205,205,103,103,23,21,9,7,0.5,0.5
2023-09-23T14:00:00,1400A,112.4753,23.1,肇庆市,七星岩子站,,,,,,,,,,,,,,,,
2023-09-23T14:00:00,1401A,108.3103,22.7881,南宁市,二十一中,,42,42,28,16,15,128,128,78,78,6,14,4,7,0.6,0.8
2023-09-23T14:00:00,1402A,108.3141,22.8528,南宁市,北湖,,45,33,28,16,16,141,141,83,83,7,12,4,6,0.4,0.5
2023-09-23T14:00:00,1403A,108.3206,22.8225,南宁市,市监测站,,43,24,28,18,16,137,137,83,83,12,19,8,10,0.6,0.7
2023-09-23T14:00:00,1404A,108.3829,22.8037,南宁市,大自然花园,,35,24,25,14,14,113,110,62,62,6,14,6,7,0.5,0.7
2023-09-23T14:00:00,1405A,108.4394,22.7904,南宁市,仙葫,,31,22,27,10,14,99,99,61,61,8,19,6,7,0.3,0.4
2023-09-23T14:00:00,1406A,108.2397,22.8467,南宁市,区农职院,,41,33,37,21,17,138,130,78,78,11,26,7,10,0.8,0.8
2023-09-23T14:00:00,1407A,108.3275,22.735,南宁市,英华嘉园,,35,35,32,17,17,106,106,64,64,8,21,6,8,0.5,0.7
2023-09-23T14:00:00,1408A,108.2257,22.7757,南宁市,沙井镇街道办,,38,28,48,19,20,127,121,66,66,6,29,4,8,0.6,0.7
2023-09-23T14:00:00,1409A,110.576,19.9507,海口市,东寨港,,,,,,,,,,,,,,,,
2023-09-23T14:00:00,1410A,110.3232,20.0574,海口市,海南大学,,,,13,12,7,67,45,57,55,17,10,6,6,0.5,0.3
2023-09-23T14:00:00,1411A,110.283,20.0053,海口市,秀英海南医院,,15,10,17,10,10,68,46,44,44,15,19,6,7,0.4,0.4
2023-09-23T14:00:00,1412A,110.338,19.9969,海口市,海南师范大学,,15,10,14,9,8,78,45,53,52,17,8,4,5,0.4,0.3
2023-09-23T14:00:00,1413A,110.33,20.0356,海口市,龙华路环保局宿舍,,,,,,,,,,,,,,,,
2023-09-23T14:00:00,1414A,106.3787,29.8279,重庆市,缙云山,,10,7,7,3,4,62,31,35,29,7,8,6,7,0.3,0.3
2023-09-23T14:00:00,1416A,106.4213,29.8253,重庆市,天生,,14,14,12,9,10,31,15,24,14,21,24,5,5,1.0,0.9
2023-09-23T14:00:00,1417A,106.6263,29.7228,重庆市,两路,,13,11,10,6,7,30,11,28,13,25,21,8,8,0.9,0.8
2023-09-23T14:00:00,1418A,106.2953,29.5983,重庆市,虎溪,,13,8,11,5,6,38,13,32,18,25,19,5,5,0.8,0.7
2023-09-23T14:00:00,1419A,106.5777,29.5102,重庆市,南坪,,,20,19,8,13,41,11,20,12,,28,6,6,0.6,0.7
2023-09-23T14:00:00,1420A,106.6556,29.6277,重庆市,唐家沱,,9,8,11,5,9,41,22,29,15,17,17,5,4,0.7,0.6
2023-09-23T14:00:00,1421A,106.6349,29.4906,重庆市,茶园,,15,7,12,5,8,43,21,41,24,29,23,4,4,0.9,0.8
2023-09-23T14:00:00,1422A,106.3754,29.4572,重庆市,白市驿,,19,14,14,13,12,55,10,26,11,30,25,6,6,0.8,0.7
2023-09-23T14:00:00,1425A,106.6205,29.7166,重庆市,空港,,18,18,14,6,8,41,23,37,22,21,17,6,6,0.7,0.7
2023-09-23T14:00:00,1426A,106.4782,29.4875,重庆市,新山村,,20,18,18,11,10,31,8,23,9,39,34,10,6,0.9,0.8
2023-09-23T14:00:00,1427A,106.5616,29.6453,重庆市,礼嘉,,10,6,10,6,8,38,20,34,17,20,20,6,6,0.9,0.9
2023-09-23T14:00:00,1428A,106.4522,29.7091,重庆市,蔡家,,19,14,19,13,9,34,23,29,19,22,24,6,6,0.9,0.8
2023-09-23T14:00:00,1429A,106.5093,29.3917,重庆市,鱼新街,,16,7,13,6,10,40,17,30,18,32,27,5,5,1.0,1
2023-09-23T14:00:00,1431A,103.9728,30.7236,成都市,金泉两河,,16,15,20,1,10,78,50,38,26,12,15,2,2,0.4,0.5
2023-09-23T14:00:00,1432A,104.176,30.6872,成都市,十里店,,14,5,18,2,10,100,43,28,28,9,14,3,2,0.4,0.4
2023-09-23T14:00:00,1433A,104.079,30.5706,成都市,三瓦窑,,15,15,15,1,6,95,43,30,30,8,16,2,2,0.5,0.5
2023-09-23T14:00:00,1434A,104.1114,30.63,成都市,沙河铺,,22,22,28,3,13,90,40,28,28,8,13,3,2,0.5,0.5
2023-09-23T14:00:00,1437A,104.0786,30.6531,成都市,君平街,,14,13,25,3,14,101,44,31,29,15,19,1,2,0.5,0.4
2023-09-23T14:00:00,1438A,103.613,31.0283,成都市,灵岩寺,,28,26,9,19,6,84,28,60,42,15,8,6,6,0.9,0.8
2023-09-23T14:00:00,1439A,106.6899,26.5998,贵阳市,马鞍山,,24,14,17,9,9,77,76,64,64,7,8,4,5,0.4,0.5
2023-09-23T14:00:00,1440A,106.6971,26.5694,贵阳市,市环保站,,24,22,22,14,16,79,76,66,66,13,16,3,3,0.2,0.2
2023-09-23T14:00:00,1441A,106.6243,26.6266,贵阳市,鉴湖路,,22,17,20,7,9,68,68,60,56,4,6,4,3,0.3,0.3
2023-09-23T14:00:00,1442A,106.7487,26.6343,贵阳市,燕子冲,,24,14,17,14,12,74,74,58,58,7,11,5,5,0.6,0.6
2023-09-23T14:00:00,1443A,106.6555,26.4365,贵阳市,碧云窝,,22,14,22,9,10,70,68,58,58,5,6,5,4,0.3,0.2
2023-09-23T14:00:00,1444A,106.694,26.5161,贵阳市,中院村,,24,24,27,9,13,58,54,45,45,9,15,7,7,0.2,0.3
2023-09-23T14:00:00,1445A,106.7109,26.6027,贵阳市,红边门,,28,27,26,19,19,70,67,55,55,13,16,4,4,0.3,0.4
2023-09-23T14:00:00,1446A,106.7164,26.5699,贵阳市,新华路,,23,17,17,12,14,74,72,60,60,8,10,5,6,0.4,0.5
2023-09-23T14:00:00,1447A,106.674,26.5424,贵阳市,太慈桥,,22,9,12,2,7,72,69,62,60,7,7,4,5,0.3,0.3
2023-09-23T14:00:00,1450A,102.8204,24.8886,昆明市,呈贡新区,,21,5,18,9,10,71,65,43,43,11,18,5,8,0.5,0.6
2023-09-23T14:00:00,1451A,102.6251,24.9608,昆明市,西山森林公园,,19,11,9,3,9,72,59,43,43,7,8,5,9,0.5,0.5
2023-09-23T14:00:00,1452A,102.7252,25.0902,昆明市,龙泉镇,,20,1,23,5,10,62,62,33,33,8,23,8,8,0.5,0.6
2023-09-23T14:00:00,1453A,102.7266,25.0375,昆明市,东风东路,,22,14,15,7,8,68,68,38,38,9,15,7,8,0.5,0.6
2023-09-23T14:00:00,1454A,102.6742,25.0669,昆明市,金鼎山,,20,17,20,8,8,64,64,38,38,7,17,10,12,0.3,0.4
2023-09-23T14:00:00,1455A,102.6644,25.0401,昆明市,碧鸡广场,,19,10,17,8,9,63,60,36,36,6,20,6,8,0.4,0.5
2023-09-23T14:00:00,1456A,91.1319,29.6514,拉萨市,八廓街,,25,14,13,14,8,90,77,65,59,9,14,7,7,0.3,0.3
2023-09-23T14:00:00,1457A,91.1221,29.6747,拉萨市,市环保局,,25,8,12,5,6,92,77,67,56,7,12,7,7,0.2,0.2
2023-09-23T14:00:00,1458A,91.0874,29.6475,拉萨市,区监测站,,23,9,10,5,6,77,71,59,54,7,11,9,9,0.2,0.2
2023-09-23T14:00:00,1459A,91.1774,29.6541,拉萨市,西藏大学,,24,8,11,5,7,86,75,58,56,5,10,7,7,0.2,0.3
2023-09-23T14:00:00,1460A,90.9798,29.6588,拉萨市,区辐射站,,22,13,14,5,7,81,68,67,56,11,12,10,10,0.3,0.3
2023-09-23T14:00:00,1461A,91.0834,29.6292,拉萨市,拉萨火车站,,23,10,11,5,6,80,73,64,58,4,8,7,6,0.2,0.2
2023-09-23T14:00:00,1462A,108.882,34.2749,西安市,高压开关厂,,39,39,38,26,18,110,86,100,94,23,22,7,8,0.5,0.6
2023-09-23T14:00:00,1463A,108.993,34.2629,西安市,兴庆小区,,28,28,27,15,14,103,74,99,89,22,19,6,7,0.4,0.5
2023-09-23T14:00:00,1464A,109.06,34.2572,西安市,纺织城,,34,34,31,20,12,103,71,96,88,30,22,5,6,0.7,0.6
2023-09-23T14:00:00,1465A,108.9356,34.2173,西安市,小寨,,33,33,33,17,13,96,78,95,85,22,21,6,7,0.5,0.5
2023-09-23T14:00:00,1466A,108.954,34.2713,西安市,市人民体育场,,36,30,30,25,16,98,71,96,86,24,20,7,8,0.5,0.5
2023-09-23T14:00:00,1467A,108.8922,34.2322,西安市,高新西区,,29,29,32,18,18,104,78,97,90,23,23,6,7,0.6,0.6
2023-09-23T14:00:00,1468A,108.935,34.3474,西安市,经开区,,35,35,35,22,16,107,80,92,91,16,16,4,4,0.4,0.4
2023-09-23T14:00:00,1469A,108.906,34.1546,西安市,长安区,,32,32,36,19,19,96,78,88,85,22,24,6,8,0.6,0.6
2023-09-23T14:00:00,1471A,109.2186,34.3731,西安市,临潼区,,28,22,40,19,20,98,79,92,92,20,19,6,6,0.5,0.6
2023-09-23T14:00:00,1472A,108.869,34.378,西安市,草滩,,,,,,,,,,,,,,,,
2023-09-23T14:00:00,1473A,108.985,34.1978,西安市,曲江文化产业集团,,33,33,30,18,14,97,78,94,79,23,20,5,6,0.5,0.5
2023-09-23T14:00:00,1474A,109.051,34.3213,西安市,广运潭,,36,36,33,18,16,99,66,92,82,20,22,8,8,0.5,0.5
2023-09-23T14:00:00,1476A,103.631,36.1031,兰州市,兰炼宾馆,颗粒物(PM10),101,151,59,57,31,109,109,51,51,10,30,7,3,0.4,0.5
2023-09-23T14:00:00,1477A,104.1373,35.9454,兰州市,榆中兰大校区,,,,,,,,,,,,,,,,
2023-09-23T14:00:00,1478A,103.8412,36.0726,兰州市,生物制品所,颗粒物(PM10),109,168,59,63,34,96,96,45,45,12,34,6,6,0.5,0.7
2023-09-23T14:00:00,1479A,103.831,36.0464,兰州市,铁路设计院,颗粒物(PM10),96,142,52,54,29,101,101,46,46,16,39,8,8,0.4,0.6
2023-09-23T14:00:00,1483A,101.524,36.6867,西宁市,第五水厂,,,,,,,,,,,,,,,,
2023-09-23T14:00:00,1484A,105.9512,38.6016,银川市,贺兰山马莲口,,25,8,19,11,14,126,77,93,74,11,12,3,9,0.4,0.4
2023-09-23T14:00:00,1488A,106.2328,38.4975,银川市,贺兰山东路,,29,18,37,20,24,97,67,83,71,25,31,6,9,0.7,0.7
2023-09-23T14:00:00,1489A,106.1358,38.5036,银川市,学院路,,43,27,44,30,27,107,74,71,60,13,32,6,10,0.5,0.6
2023-09-23T14:00:00,1490A,87.5801,43.8303,乌鲁木齐市,监测站,,21,8,24,6,12,107,66,44,42,13,34,5,5,0.4,0.5
2023-09-23T14:00:00,1491A,87.6046,43.768,乌鲁木齐市,收费所,,,15,25,,18,114,62,42,40,20,33,3,3,0.5,0.4
2023-09-23T14:00:00,1492A,87.4754,43.9469,乌鲁木齐市,新疆农科院农场,,,,51,3,10,96,74,43,43,10,34,1,2,0.6,0.7
2023-09-23T14:00:00,1493A,87.5525,43.8711,乌鲁木齐市,铁路局,,21,11,28,0,12,102,67,43,41,10,34,4,5,0.4,0.6
2023-09-23T14:00:00,1494A,87.6432,43.831,乌鲁木齐市,三十一中学,,20,9,30,7,11,105,61,57,55,10,23,4,5,0.2,0.4
2023-09-23T14:00:00,1496A,87.7216,44.1747,乌鲁木齐市,米东区环保局,,25,13,34,3,11,99,80,61,61,2,16,8,9,0.2,0.3
2023-09-23T14:00:00,1508A,112.9433,27.8614,湘潭市,板塘,,32,32,24,13,16,49,41,32,28,18,15,7,7,0.6,0.5
2023-09-23T14:00:00,1511A,112.9118,27.8403,湘潭市,市监测站,,29,22,21,20,15,56,56,40,38,15,13,4,4,0.6,0.5
2023-09-23T14:00:00,1512A,112.8937,27.8728,湘潭市,江麓,,30,30,24,19,13,59,54,47,41,16,13,7,7,0.6,0.6
2023-09-23T14:00:00,1513A,112.9227,27.8159,湘潭市,岳塘,,40,40,25,20,16,57,52,40,36,19,14,9,9,0.5,0.4
2023-09-23T14:00:00,1514A,112.9074,27.9119,湘潭市,科大,,,,,,,,,,,,,,,,
2023-09-23T14:00:00,1515A,113.135,27.8244,株洲市,天台山庄,,27,27,34,18,19,56,46,27,27,20,21,5,5,0.7,0.7
2023-09-23T14:00:00,1518A,113.095,27.8867,株洲市,株冶医院,,21,21,33,13,19,43,43,25,25,18,24,8,5,0.8,0.7
2023-09-23T14:00:00,1519A,113.167,27.8667,株洲市,市四中,,22,22,32,15,19,57,57,30,30,16,21,4,4,0.7,0.6
2023-09-23T14:00:00,1520A,113.143,27.8381,株洲市,火车站,,29,29,31,17,19,58,58,30,30,20,20,5,4,0.8,0.6
2023-09-23T14:00:00,1524A,113.13,27.8528,株洲市,市监测站,,27,27,39,18,19,55,53,28,28,18,21,8,7,0.6,0.6
2023-09-23T14:00:00,1552A,106.805,26.3003,贵阳市,桐木岭,,,,,,,,,,,,,,,,
2023-09-23T14:00:00,1559A,113.251,27.8336,株洲市,大京风景区,,16,16,27,11,18,47,47,25,25,8,13,4,4,0.6,0.5
2023-09-23T14:00:00,1562A,113.0048,27.9153,湘潭市,昭山,,31,31,29,14,14,53,47,38,32,14,14,5,5,0.7,0.6
2023-09-23T14:00:00,1564A,112.4876,27.9164,湘潭市,韶山,,21,21,18,7,10,60,53,51,46,12,11,5,5,0.5,0.4
2023-09-23T14:00:00,1585A,109.8756,40.6532,包头市,市环境监测站,,40,37,42,15,16,132,128,84,84,12,32,9,20,0.7,0.7
2023-09-23T14:00:00,1587A,109.9991,40.5842,包头市,包头八中,,46,46,55,20,21,138,129,85,85,16,28,15,28,0.8,0.8
2023-09-23T14:00:00,1588A,109.8538,40.6821,包头市,青山宾馆,,41,38,39,18,19,134,131,89,89,8,28,10,20,0.8,0.9
2023-09-23T14:00:00,1589A,109.8642,40.6288,包头市,惠龙物流,,43,40,43,14,15,141,136,91,91,12,26,11,18,0.7,0.6
2023-09-23T14:00:00,1590A,110.0377,40.5546,包头市,东河鸿龙湾,,40,36,47,21,14,142,128,81,81,11,23,14,21,0.7,0.6
2023-09-23T14:00:00,1591A,110.0023,39.8129,鄂尔多斯市,综合楼,颗粒物(PM10),58,66,69,27,22,120,108,79,79,20,32,8,12,0.7,0.7
2023-09-23T14:00:00,1592A,109.9486,39.8261,鄂尔多斯市,巴音孟克林场办事处,颗粒物(PM10),54,58,61,29,24,125,116,88,88,15,29,10,13,0.7,0.7
2023-09-23T14:00:00,1593A,109.7736,39.5986,鄂尔多斯市,康泽苑,颗粒物(PM10),52,53,51,30,23,118,112,90,90,18,29,7,9,0.9,0.8
2023-09-23T14:00:00,1594A,109.8119,39.5989,鄂尔多斯市,华泰汽车城,,48,48,53,31,25,108,105,82,82,15,30,8,10,0.7,0.6
2023-09-23T14:00:00,1595A,109.9734,39.7884,鄂尔多斯市,奥林花园,颗粒物(PM10),54,58,67,27,23,115,107,78,78,13,32,8,10,0.8,0.9
2023-09-23T14:00:00,1597A,122.2703,40.7094,营口市,大庆路,,29,27,37,14,18,92,92,51,51,10,16,5,5,0.5,0.7
2023-09-23T14:00:00,1598A,122.2150,40.6511,营口市,镜湖西路,,28,22,33,8,16,88,88,46,46,13,21,6,7,0.3,0.5
2023-09-23T14:00:00,1599A,122.1658,40.6789,营口市,西炮台,,,103,74,12,11,97,97,77,77,13,16,6,7,,0.4
2023-09-23T14:00:00,1600A,124.3303,40.0625,丹东市,江湾东路,,30,14,21,11,14,110,96,80,72,7,15,8,8,0.5,0.6
2023-09-23T14:00:00,1601A,124.4256,40.1503,丹东市,临江后街,,29,12,18,5,10,108,92,72,72,5,14,6,6,0.5,0.6
2023-09-23T14:00:00,1602A,124.3933,40.1461,丹东市,元宝山,,25,14,18,11,15,94,80,65,59,14,14,9,9,0.5,0.6
2023-09-23T14:00:00,1603A,124.3633,40.1092,丹东市,民主桥,,28,19,22,11,14,105,89,82,67,6,18,5,5,0.5,0.6
2023-09-23T14:00:00,1604A,122.0303,41.1489,盘锦市,开发区,,30,12,16,3,10,94,94,65,65,18,25,4,4,0.5,0.5
2023-09-23T14:00:00,1605A,122.0485,41.0883,盘锦市,兴隆台,,29,19,18,6,9,92,92,63,63,17,24,8,9,0.3,0.4
2023-09-23T14:00:00,1606A,121.8297,41.1028,盘锦市,新生街道,,29,14,13,6,8,92,92,63,63,11,22,6,5,0.3,0.3
2023-09-23T14:00:00,1607A,120.9092,40.7136,葫芦岛市,龙港区,,43,40,42,5,17,95,95,68,68,23,39,129,50,0.3,0.7
2023-09-23T14:00:00,1608A,120.8392,40.7514,葫芦岛市,化工街,,29,14,34,5,9,92,92,62,62,11,32,7,12,0.2,0.3
2023-09-23T14:00:00,1609A,120.8341,40.7073,葫芦岛市,新区,,28,16,29,4,11,90,89,60,60,14,31,16,11,0.4,0.6
2023-09-23T14:00:00,1610A,120.8695,40.7677,葫芦岛市,东城区,,30,30,26,6,10,95,95,69,69,15,34,10,17,0.3,0.5
2023-09-23T14:00:00,1611A,118.5819,24.9117,泉州市,涂山街,,29,28,22,1,5,105,92,66,66,8,10,6,5,0.5,0.5
2023-09-23T14:00:00,1612A,118.5972,24.8978,泉州市,津头埔,,28,26,19,8,8,94,88,64,64,10,10,5,4,0.4,0.4
2023-09-23T14:00:00,1613A,118.6663,24.9424,泉州市,万安,,29,29,26,8,8,94,91,67,67,7,10,3,3,0.5,0.5
2023-09-23T14:00:00,1614A,118.6117,24.9604,泉州市,清源山,,,,,,,,,,,,,,,,
2023-09-23T14:00:00,1616A,117.6795,36.229,济南市,技术学院,,35,17,48,9,22,164,111,91,91,7,28,6,9,0.4,0.7
2023-09-23T14:00:00,1618A,118.3429,35.0532,临沂市,沂河小区,,34,34,54,15,22,148,106,92,82,14,26,7,7,0.3,0.5
2023-09-23T14:00:00,1619A,118.295,35.0583,临沂市,鲁南制药厂,,37,34,50,16,20,154,118,95,94,9,25,4,8,0.5,0.6
2023-09-23T14:00:00,1620A,118.2794,34.9976,临沂市,新光毛纺厂,,36,34,45,19,23,140,113,91,91,15,42,7,13,0.6,0.7
2023-09-23T14:00:00,1621A,118.3956,35.0888,临沂市,河东保险公司,,36,31,49,18,28,131,113,74,74,9,32,4,4,0.5,0.7
2023-09-23T14:00:00,1622A,116.3032,37.4674,德州市,儿童乐园,,35,31,39,9,12,170,112,105,82,4,17,8,10,0.4,0.5
2023-09-23T14:00:00,1624A,116.2991,37.4451,德州市,监理站,,35,20,30,2,9,167,112,113,83,3,17,10,12,0.4,0.5
2023-09-23T14:00:00,1625A,115.9848,36.4372,聊城市,区政府,颗粒物(PM10),51,51,58,28,30,159,135,87,86,13,27,9,7,0.6,0.6
2023-09-23T14:00:00,1628A,118.0062,37.3803,滨州市,市环保局,,35,13,27,5,10,159,110,78,77,12,22,6,9,0.3,0.4
2023-09-23T14:00:00,1629A,118.0018,37.3617,滨州市,第二水厂,,36,17,27,6,10,168,115,89,84,11,21,8,10,0.6,0.6
2023-09-23T14:00:00,1630A,117.9776,37.393,滨州市,北中新校,,36,24,32,3,11,158,113,79,79,10,20,5,8,0.4,0.5
2023-09-23T14:00:00,1631A,118.0414,36.8103,淄博市,人民公园,,40,36,38,27,22,181,127,108,88,10,23,7,13,0.4,0.4
2023-09-23T14:00:00,1633A,117.8525,36.4847,淄博市,双山,,,,54,,22,178,115,80,80,14,31,,6,0.3,0.6
2023-09-23T14:00:00,1634A,117.9592,36.6331,淄博市,气象站,,44,44,50,22,24,164,124,108,84,2,23,4,9,0.2,0.6
2023-09-23T14:00:00,1635A,118.3092,36.8194,淄博市,莆田园,,42,41,43,29,22,201,127,89,85,11,30,4,13,0.6,0.6
2023-09-23T14:00:00,1637A,117.558,34.8438,枣庄市,市中区政府,,48,48,69,27,34,170,126,90,90,20,37,7,13,0.4,0.5
2023-09-23T14:00:00,1638A,117.2852,34.7837,枣庄市,薛城环保局,颗粒物(PM10),61,71,53,35,25,135,113,76,76,23,35,10,9,0.7,0.6
2023-09-23T14:00:00,1639A,117.5852,34.7745,枣庄市,峄城区政府,颗粒物(PM10),53,56,51,19,17,162,118,99,99,20,26,7,10,0.6,0.5
2023-09-23T14:00:00,1640A,117.7276,34.5578,枣庄市,台儿庄区环保局,颗粒物(PM10),57,63,44,36,23,141,108,73,63,30,28,8,8,0.8,0.6
2023-09-23T14:00:00,1641A,117.4518,35.0992,枣庄市,山亭区环保局,,45,36,38,17,22,177,144,108,108,13,22,6,7,0.6,0.6
2023-09-23T14:00:00,1642A,121.2514,37.5639,烟台市,开发区,,35,19,29,7,13,194,109,92,89,4,6,3,5,0.6,0.7
2023-09-23T14:00:00,1643A,121.3719,37.5433,烟台市,轴承厂,,35,17,36,13,20,192,112,94,94,4,12,3,5,0.3,0.4
2023-09-23T14:00:00,1644A,121.3181,37.5436,烟台市,西郊化工站,,37,12,30,9,18,181,116,93,92,4,12,6,6,0.6,0.7
2023-09-23T14:00:00,1645A,121.4478,37.4822,烟台市,莱山环保局,,,14,27,8,14,194,112,99,99,,6,6,7,0.5,0.6
2023-09-23T14:00:00,1646A,121.2611,37.4967,烟台市,福山环保局,,35,24,35,12,6,174,109,89,86,10,15,3,2,0.2,0.3
2023-09-23T14:00:00,1650A,119.1437,36.7023,潍坊市,环保局,,,,,,,,,,,,,,,,
2023-09-23T14:00:00,1653A,116.6251,35.4302,济宁市,火炬城,颗粒物(PM10),55,60,51,22,17,154,87,58,53,36,37,15,13,0.6,0.5
2023-09-23T14:00:00,1655A,116.5491,35.4042,济宁市,电化厂,颗粒物(PM10),53,55,55,17,17,154,83,60,49,36,34,9,8,0.6,0.6
2023-09-23T14:00:00,1656A,117.1437,36.1937,泰安市,监测站,,40,34,48,18,25,170,125,104,104,5,17,10,10,0.6,0.7
2023-09-23T14:00:00,1657A,117.0885,36.2017,泰安市,人口学校,,39,24,38,17,19,163,124,117,110,8,14,10,10,0.5,0.6
2023-09-23T14:00:00,1658A,117.1089,36.1758,泰安市,电力学校,,42,34,50,20,25,167,132,105,105,4,17,10,10,0.4,0.5
2023-09-23T14:00:00,1659A,119.471,35.4209,日照市,监测站,,38,29,31,13,15,142,120,89,89,15,45,8,8,0.7,0.8
2023-09-23T14:00:00,1660A,119.523,35.4216,日照市,市政府广场,,41,34,32,7,12,148,130,98,98,13,32,6,6,0.5,0.6
2023-09-23T14:00:00,1661A,119.5587,35.4044,日照市,港务局,,,41,40,16,17,165,130,99,99,16,43,,9,0.5,0.6
2023-09-23T14:00:00,1662A,122.1214,37.4236,威海市,华夏技校,,39,12,24,7,13,195,123,109,109,8,10,3,4,0.3,0.6
2023-09-23T14:00:00,1663A,122.0508,37.5236,威海市,山大分校,,40,20,27,7,13,209,128,113,113,3,5,3,4,0.3,0.4
2023-09-23T14:00:00,1664A,122.1067,37.5072,威海市,市监测站,,40,15,29,7,11,193,125,110,110,7,10,6,7,0.5,0.6
2023-09-23T14:00:00,1666A,118.6614,37.4309,东营市,市环保局,,36,9,18,0,6,187,114,103,96,1,5,5,6,0.3,0.3
2023-09-23T14:00:00,1669A,113.5824,24.7733,韶关市,市八中,,39,39,34,20,18,86,84,62,62,4,12,10,13,0.6,0.6
2023-09-23T14:00:00,1671A,113.5917,24.7972,韶关市,园林处,,28,24,30,18,26,90,87,63,63,2,8,7,11,0.7,0.7
2023-09-23T14:00:00,1672A,113.6735,24.7791,韶关市,韶关学院,,29,28,32,20,25,84,84,50,50,3,12,6,10,0.6,0.6
2023-09-23T14:00:00,1673A,113.5971,24.6863,韶关市,曲江监测站,,35,31,36,24,20,104,101,64,64,2,14,7,9,0.6,0.7
2023-09-23T14:00:00,1674A,116.6794,23.3667,汕头市,金平子站,,28,14,22,5,10,131,87,56,56,9,13,5,7,0.7,0.7
2023-09-23T14:00:00,1675A,116.7244,23.3633,汕头市,龙湖子站,,30,24,21,5,9,149,94,59,59,8,12,7,8,0.5,0.5
2023-09-23T14:00:00,1676A,116.7258,23.2775,汕头市,濠江子站,,32,32,21,4,4,151,98,62,62,7,10,8,9,0.5,0.5
2023-09-23T14:00:00,1677A,116.7519,23.4714,汕头市,澄海子站,,,32,26,5,12,148,82,54,54,8,14,8,11,,0.6
2023-09-23T14:00:00,1678A,116.6092,23.2539,汕头市,潮阳子站,,,38,26,17,8,150,70,57,57,,7,,10,0.4,0.4
2023-09-23T14:00:00,1680A,110.3539,21.2706,湛江市,湛江影剧院,,28,21,22,12,8,114,88,76,76,4,10,7,8,0.5,0.5
2023-09-23T14:00:00,1681A,110.3928,21.2228,湛江市,市环境监测站,,28,20,17,11,11,102,88,76,76,4,9,7,7,0.6,0.5
2023-09-23T14:00:00,1682A,110.4019,21.1997,湛江市,环保局宿舍,,29,20,16,15,10,106,92,81,81,4,9,5,5,0.5,0.5
2023-09-23T14:00:00,1683A,110.4111,21.2028,湛江市,霞山游泳场,,26,18,19,12,7,110,82,72,72,3,11,6,6,0.5,0.5
2023-09-23T14:00:00,1684A,110.3316,21.2679,湛江市,麻章区环保局,,28,19,26,13,13,120,89,68,68,5,14,6,7,0.5,0.5
2023-09-23T14:00:00,1685A,110.4558,21.2567,湛江市,坡头区环保局,,29,18,19,13,10,107,92,78,78,4,8,6,7,0.4,0.4
2023-09-23T14:00:00,1686A,111.0286,21.4688,茂名市,电白南海,,28,24,25,17,16,96,88,74,74,6,10,7,8,0.6,0.6
2023-09-23T14:00:00,1687A,110.9294,21.6533,茂名市,茂石化七小,,25,22,30,14,15,149,80,70,70,4,10,5,8,0.5,0.6
2023-09-23T14:00:00,1688A,110.9107,21.6687,茂名市,健康路,,28,19,23,9,11,164,89,74,74,5,11,3,7,0.5,0.6
2023-09-23T14:00:00,1689A,110.8592,21.6828,茂名市,高岭,,32,22,34,22,22,149,84,67,67,8,17,8,10,0.7,0.8
2023-09-23T14:00:00,1690A,116.1231,24.3284,梅州市,梅江月梅,,22,12,30,7,16,141,69,54,54,4,15,3,5,0.6,0.7
2023-09-23T14:00:00,1691A,116.0797,24.2719,梅州市,梅县新城,,22,15,26,8,17,147,70,84,60,4,13,6,6,0.5,0.7
2023-09-23T14:00:00,1692A,116.1248,24.2654,梅州市,环境监控中心,,21,15,29,6,17,136,65,86,60,3,15,7,8,0.4,0.5
2023-09-23T14:00:00,1693A,115.3653,22.775,汕尾市,市环保局,,28,26,25,11,15,134,89,85,62,5,6,12,12,0.5,0.5
2023-09-23T14:00:00,1694A,115.3706,22.7898,汕尾市,市政府,,31,23,28,9,15,140,98,82,65,4,7,7,6,0.4,0.4
2023-09-23T14:00:00,1695A,115.3622,22.7925,汕尾市,新城中学,,33,33,29,15,20,121,84,75,58,5,8,8,8,0.5,0.5
2023-09-23T14:00:00,1696A,114.6778,23.7569,河源市,源西,,,28,36,23,24,111,,47,47,5,23,4,5,0.7,0.8
2023-09-23T14:00:00,1697A,114.6944,23.7586,河源市,东埔,,35,23,37,24,20,106,106,58,58,5,18,5,6,0.6,0.7
2023-09-23T14:00:00,1698A,114.6892,23.7233,河源市,老城,,38,30,34,26,18,114,114,60,60,6,19,4,5,0.7,0.7
2023-09-23T14:00:00,1699A,111.9797,21.8593,阳江市,鸳鸯湖,,33,33,23,20,14,118,90,74,74,4,9,7,7,0.6,0.7
2023-09-23T14:00:00,1701A,111.9491,21.8658,阳江市,马南垌,,26,22,26,14,16,115,82,73,73,2,8,5,6,0.4,0.5
2023-09-23T14:00:00,1702A,113.0426,23.691,清远市,环保大楼,,46,25,35,24,23,145,145,87,87,4,13,8,9,0.7,0.7
2023-09-23T14:00:00,1703A,113.0208,23.7106,清远市,凤城街办,,43,35,39,29,25,135,135,85,78,6,13,8,8,0.5,0.6
2023-09-23T14:00:00,1705A,116.6367,23.6719,潮州市,西园路,,20,19,24,6,18,141,62,49,49,5,9,7,5,0.3,0.2
2023-09-23T14:00:00,1706A,116.6447,23.6706,潮州市,档案局,,21,19,23,5,11,151,67,53,53,4,9,9,7,0.4,0.4
2023-09-23T14:00:00,1708A,116.3701,23.5345,揭阳市,新兴,,32,32,33,15,18,165,85,60,60,4,11,8,11,0.4,0.5
2023-09-23T14:00:00,1709A,116.3264,23.5443,揭阳市,西马,,30,29,35,12,14,174,94,65,65,4,10,7,8,0.6,0.7
2023-09-23T14:00:00,1710A,116.3611,23.5626,揭阳市,东兴,,29,21,35,10,15,155,92,60,60,7,14,6,8,0.6,0.6
2023-09-23T14:00:00,1711A,116.4151,23.5294,揭阳市,渔湖,,27,24,33,0,19,168,84,60,60,5,14,6,8,0.4,0.6
2023-09-23T14:00:00,1712A,112.0392,22.9169,云浮市,新市府,,48,48,39,26,30,145,114,80,80,4,7,6,6,0.9,0.9
2023-09-23T14:00:00,1714A,112.0539,22.9539,云浮市,牧羊,颗粒物(PM10),52,54,49,30,29,148,144,98,77,14,21,12,9,0.5,0.5
2023-09-23T14:00:00,1715A,102.575,24.3711,玉溪市,东风水库,,19,9,22,8,11,60,60,31,31,6,12,4,6,0.7,0.8
2023-09-23T14:00:00,1718A,115.4208,35.2464,菏泽市,气象局,,41,16,49,9,20,149,130,80,74,13,35,2,6,0.3,0.5
2023-09-23T14:00:00,1719A,115.4747,35.2375,菏泽市,市政协,,39,19,45,7,20,148,123,90,90,10,26,4,8,0.4,0.6
2023-09-23T14:00:00,1721A,113.3819,40.1097,大同市,果树场,,,,,,,,,,,,,,,,
2023-09-23T14:00:00,1723A,113.2994,40.0758,大同市,云冈宾馆,,38,33,28,10,11,120,120,104,99,12,17,8,10,0.6,0.6
2023-09-23T14:00:00,1724A,113.3444,40.0917,大同市,大同大学,,39,26,26,17,12,122,122,105,105,11,14,8,7,0.1,0.1
2023-09-23T14:00:00,1725A,113.2661,40.1269,大同市,安家小村,,39,36,30,6,9,125,123,112,106,8,11,12,12,0.2,0.2
2023-09-23T14:00:00,1726A,113.2711,40.0844,大同市,教育学院,,39,39,31,14,11,117,116,110,101,14,18,7,8,0.4,0.4
2023-09-23T14:00:00,1727A,113.1147,36.1547,长治市,清华站,,38,22,29,7,11,124,119,111,111,8,15,6,7,0.4,0.6
2023-09-23T14:00:00,1728A,113.1031,36.1989,长治市,监测站,,36,25,27,19,14,125,113,116,114,18,18,8,8,0.9,0.7
2023-09-23T14:00:00,1730A,113.0886,36.2125,长治市,审计局,,36,30,25,22,12,123,113,115,114,13,12,10,9,0.7,0.5
2023-09-23T14:00:00,1731A,113.0844,36.1856,长治市,长治八中,,,,31,,13,128,122,118,118,,16,,12,0.4,0.5
2023-09-23T14:00:00,1733A,111.5531,36.0783,临汾市,临钢医院,,36,36,58,17,23,138,102,92,76,23,26,9,11,0.5,0.6
2023-09-23T14:00:00,1734A,111.5028,36.0714,临汾市,技工学校,,37,27,47,11,27,144,118,104,89,14,26,9,12,0.6,0.8
2023-09-23T14:00:00,1736A,111.5018,36.0855,临汾市,市委,,36,24,53,15,24,144,115,110,86,15,27,9,11,0.6,0.8
2023-09-23T14:00:00,1738A,113.5758,37.8572,阳泉市,市中心,,30,17,53,13,26,176,94,92,76,11,28,6,12,0.5,0.8
2023-09-23T14:00:00,1739A,113.4894,37.8731,阳泉市,赛鱼,,30,30,59,13,27,173,93,112,80,12,24,8,10,0.3,0.6
2023-09-23T14:00:00,1740A,113.5819,37.8486,阳泉市,南庄,,30,28,72,10,26,170,96,89,79,12,27,6,10,0.4,0.7
2023-09-23T14:00:00,1742A,113.5614,37.8703,阳泉市,平坦,,30,27,60,6,24,166,94,104,78,13,24,5,10,0.5,0.7
2023-09-23T14:00:00,1743A,113.5158,37.8392,阳泉市,大阳泉,,31,13,48,16,34,173,97,106,81,11,21,6,9,0.3,0.6
2023-09-23T14:00:00,1744A,118.9233,42.2816,赤峰市,松山一中,,29,26,27,14,12,90,90,35,35,17,34,10,16,0.3,0.4
2023-09-23T14:00:00,1745A,118.9576,42.2728,赤峰市,哈达街,,40,40,24,19,11,92,92,34,34,11,33,15,21,0.4,0.4
2023-09-23T14:00:00,1746A,118.8788,42.2554,赤峰市,天义路,,33,9,20,7,10,104,104,44,44,7,28,10,15,0.3,0.4
2023-09-23T14:00:00,1748A,123.044,41.1196,鞍山市,深沟寺,,41,41,50,19,35,96,96,36,36,15,26,7,5,0.9,1
2023-09-23T14:00:00,1749A,123.011,41.0931,鞍山市,太阳城,,36,32,50,25,32,96,96,39,39,15,24,10,9,0.8,0.9
2023-09-23T14:00:00,1750A,123.0485,41.1442,鞍山市,太平,,31,28,78,18,44,98,98,38,38,17,35,12,13,0.7,0.9
2023-09-23T14:00:00,1751A,122.9642,41.0971,鞍山市,铁西三道街,,40,40,105,25,61,91,91,30,30,20,45,14,36,1.0,2.8
2023-09-23T14:00:00,1752A,122.9341,41.0833,鞍山市,铁西工业园区,颗粒物(PM10),54,57,77,29,47,78,78,30,30,38,40,29,30,1.8,2.3
2023-09-23T14:00:00,1753A,123.022,41.0821,鞍山市,明达新区,,46,46,48,29,34,91,91,36,36,18,33,7,9,0.7,0.8
2023-09-23T14:00:00,1754A,123.1289,41.0228,鞍山市,千山,,,,,,,,,,,,,,,,
2023-09-23T14:00:00,1755A,123.7977,41.8491,抚顺市,望花区,,29,14,31,5,18,90,90,50,50,6,20,6,8,0.4,0.6
2023-09-23T14:00:00,1756A,123.9161,41.8822,抚顺市,顺城区,,27,4,29,4,18,84,84,47,47,7,17,6,6,0.4,0.5
2023-09-23T14:00:00,1757A,124.0436,41.8611,抚顺市,东洲区,,29,6,22,4,16,90,90,56,56,5,14,6,6,0.4,0.6
2023-09-23T14:00:00,1758A,123.9247,41.8642,抚顺市,新抚区,,27,27,25,4,16,85,85,48,48,6,13,6,6,0.2,0.4
2023-09-23T14:00:00,1759A,124.0972,41.8961,抚顺市,大伙房水库,,30,28,22,4,16,95,95,57,57,2,11,6,6,0.4,0.6
2023-09-23T14:00:00,1760A,123.7086,41.8391,抚顺市,沈抚新城,,29,15,24,6,16,90,90,47,47,5,17,7,8,0.3,0.6
2023-09-23T14:00:00,1761A,123.8275,41.3064,本溪市,大峪,,25,8,31,8,18,82,78,45,45,11,20,6,6,0.5,0.8
2023-09-23T14:00:00,1762A,123.7567,41.3325,本溪市,溪湖,,27,14,34,4,16,86,84,48,48,4,19,9,9,0.4,0.7
2023-09-23T14:00:00,1763A,123.7169,41.3094,本溪市,彩屯,,24,9,42,8,25,81,74,44,44,16,29,7,9,0.6,0.9
2023-09-23T14:00:00,1764A,123.7669,41.2864,本溪市,东明,,,29,36,12,22,88,82,54,54,,27,,8,0.5,0.9
2023-09-23T14:00:00,1765A,123.7992,41.2664,本溪市,新立屯,,,21,24,14,16,85,80,49,49,,23,9,8,,0.8
2023-09-23T14:00:00,1766A,123.8142,41.3472,本溪市,威宁,,22,12,35,4,22,78,69,35,35,10,24,6,6,0.2,0.5
2023-09-23T14:00:00,1767A,121.1115,41.0879,锦州市,南山,,29,16,26,5,14,92,91,60,60,14,24,6,8,0.4,0.6
2023-09-23T14:00:00,1768A,121.0533,40.8434,锦州市,开发区,,31,31,31,7,17,90,90,57,57,9,29,10,18,0.5,0.7
2023-09-23T14:00:00,1769A,121.1836,41.1119,锦州市,百股街道,,30,18,28,2,17,93,93,63,63,9,22,9,13,0.4,0.7
2023-09-23T14:00:00,1770A,121.1178,41.1222,锦州市,天安街道,,27,15,25,8,15,87,86,58,58,11,26,8,11,0.4,0.7
2023-09-23T14:00:00,1771A,121.1303,41.1386,锦州市,北湖公园,,28,10,21,2,10,90,88,59,59,7,16,8,9,0.5,0.6
2023-09-23T14:00:00,1772A,126.54,43.8622,吉林市,哈达湾,,36,21,31,8,12,114,114,62,62,14,24,8,10,0.5,0.6
2023-09-23T14:00:00,1773A,126.5844,43.8358,吉林市,东局子,,30,19,24,8,11,93,93,55,55,13,23,7,7,0.3,0.4
2023-09-23T14:00:00,1774A,126.5052,43.8245,吉林市,电力学院,,35,27,29,8,10,112,112,62,62,18,21,9,11,0.6,0.6
2023-09-23T14:00:00,1775A,126.6133,43.8972,吉林市,江北,,33,16,30,5,12,105,105,63,63,10,22,10,9,0.4,0.6
2023-09-23T14:00:00,1776A,126.555,43.8306,吉林市,江南公园,,31,21,29,16,13,99,99,55,55,15,26,7,7,0.5,0.6
2023-09-23T14:00:00,1778A,126.7061,43.7133,吉林市,丰满,,,,,,,,,,,,,,,,
2023-09-23T14:00:00,1779A,123.9305,47.3636,齐齐哈尔市,安居小区,,40,40,29,18,15,74,74,46,46,10,16,6,6,0.3,0.3
2023-09-23T14:00:00,1780A,123.9488,47.3386,齐齐哈尔市,中心广场,,22,21,20,14,11,69,69,45,43,8,17,1,3,0.1,0.3
2023-09-23T14:00:00,1781A,123.9483,47.3227,齐齐哈尔市,农牧车辆厂,,29,29,32,10,8,70,70,44,38,6,15,5,6,0.2,0.4
2023-09-23T14:00:00,1783A,123.945,47.2988,齐齐哈尔市,市环境监测站,,23,22,30,7,13,73,73,43,39,3,14,4,7,0.1,0.2
2023-09-23T14:00:00,1784A,129.61,44.561,牡丹江市,环保大楼,,22,9,24,10,15,80,70,46,46,5,14,4,5,0.3,0.4
2023-09-23T14:00:00,1785A,129.6115,44.5782,牡丹江市,文化广场,,21,14,22,6,16,73,66,43,43,7,16,3,4,0.2,0.3
2023-09-23T14:00:00,1786A,129.5904,44.5963,牡丹江市,第一医院,,23,13,22,16,16,75,66,44,44,5,14,5,5,0.2,0.3
2023-09-23T14:00:00,1787A,129.6364,44.6075,牡丹江市,机车工厂,,22,10,36,5,16,77,69,43,43,4,11,4,5,0.3,0.6
2023-09-23T14:00:00,1788A,129.6386,44.5462,牡丹江市,第一中学,,23,21,23,8,17,80,71,46,46,4,10,5,5,0.3,0.3
2023-09-23T14:00:00,1789A,124.81117,46.03138,大庆市,大同区,,23,18,24,1,11,73,73,54,54,9,14,6,6,0.4,0.4
2023-09-23T14:00:00,1790A,125.129,46.533,大庆市,龙凤区,,32,32,27,9,13,71,64,46,46,15,22,5,5,0.3,0.4
2023-09-23T14:00:00,1791A,124.902,46.408,大庆市,红岗区,,28,28,18,8,10,77,77,55,55,6,15,5,5,0.3,0.4
2023-09-23T14:00:00,1792A,125.153,46.586,大庆市,萨尔图区,,22,18,28,6,9,70,70,50,50,9,24,7,7,0.2,0.3
2023-09-23T14:00:00,1793A,124.9042,46.6215,大庆市,让胡路区,,23,11,21,6,13,72,71,54,54,6,20,4,4,0.2,0.4
2023-09-23T14:00:00,1794A,118.3606,31.3519,芜湖市,监测站,,24,15,12,8,8,83,74,74,74,12,12,6,6,0.6,0.6
2023-09-23T14:00:00,1795A,118.3714,31.4134,芜湖市,科创中心,,25,12,14,8,7,87,80,80,80,18,21,5,5,0.4,0.5
2023-09-23T14:00:00,1796A,118.3673,31.3131,芜湖市,四水厂,,24,18,14,7,7,85,76,76,76,14,12,4,4,0.6,0.6
2023-09-23T14:00:00,1798A,118.5092,31.6837,马鞍山市,湖东路四小,,22,16,14,5,7,82,68,66,66,21,19,6,6,0.4,0.5
2023-09-23T14:00:00,1799A,118.5024,31.6449,马鞍山市,开发区,,22,13,19,6,9,87,68,70,70,19,16,8,7,0.6,0.7
2023-09-23T14:00:00,1800A,118.5228,31.7231,马鞍山市,慈湖,,21,18,17,10,13,85,67,63,63,19,20,5,9,0.6,0.6
2023-09-23T14:00:00,1802A,118.6245,31.7241,马鞍山市,濮塘,,21,8,11,3,11,84,66,66,66,9,8,4,2,0.8,0.8
2023-09-23T14:00:00,1803A,115.9872,29.6815,九江市,十里,,20,20,20,10,13,66,53,45,36,13,14,7,7,0.7,0.9
2023-09-23T14:00:00,1804A,115.9584,29.7046,九江市,茅山头,,18,15,17,12,14,69,55,44,35,18,18,8,10,0.9,0.9
2023-09-23T14:00:00,1805A,115.9877,29.7295,九江市,西园,,23,21,18,16,17,75,67,48,45,16,17,7,7,0.8,0.8
2023-09-23T14:00:00,1806A,116.0172,29.6547,九江市,五七二七厂,,20,18,15,14,14,62,47,42,36,11,11,8,8,0.7,0.8
2023-09-23T14:00:00,1808A,115.9114,29.6038,九江市,综合工业园,,,18,18,11,12,72,51,48,34,22,20,9,9,,0.8
2023-09-23T14:00:00,1809A,116.0721,29.7535,九江市,石化总厂,,,14,19,8,13,70,63,48,46,,14,8,8,0.7,0.8
2023-09-23T14:00:00,1810A,115.9773,29.5698,九江市,庐山气象台,,22,18,11,9,6,75,68,69,65,2,3,11,9,1.0,1
2023-09-23T14:00:00,1812A,112.3931,34.6516,洛阳市,市委党校,,33,16,58,8,32,174,104,76,76,4,27,4,8,0.3,0.5
2023-09-23T14:00:00,1814A,112.4657,34.6871,洛阳市,豫西宾馆,,,,20,9,30,168,96,65,65,5,27,1,4,,0.6
2023-09-23T14:00:00,1815A,112.494,34.6886,洛阳市,河南林校,,30,17,57,10,28,173,93,60,60,4,17,4,5,0.3,0.5
2023-09-23T14:00:00,1816A,112.3844,34.623,洛阳市,开发区管委会,,32,18,52,9,27,178,100,78,78,9,25,3,3,0.1,0.3
2023-09-23T14:00:00,1817A,112.4267,34.6258,洛阳市,市委新办公区,,33,16,55,9,30,179,103,80,80,5,25,2,4,0.8,0.9
2023-09-23T14:00:00,1818A,114.4839,36.0621,安阳市,棉研所,,,,,,,,,,,,,,,,
2023-09-23T14:00:00,1819A,114.3551,36.1017,安阳市,红庙街,颗粒物(PM10),58,65,57,36,24,139,92,58,58,22,29,13,11,0.8,0.5
2023-09-23T14:00:00,1820A,114.361,36.0681,安阳市,银杏小区,,,56,53,,14,136,100,64,64,17,30,14,11,0.8,0.4
2023-09-23T14:00:00,1824A,114.3389,34.7781,开封市,肿瘤医院,颗粒物(PM10),53,56,72,34,35,146,84,47,47,20,37,8,12,0.5,0.6
2023-09-23T14:00:00,1826A,114.2885,34.7965,开封市,世纪星幼儿园,,49,49,55,26,23,158,89,53,53,25,39,10,13,0.7,0.8
2023-09-23T14:00:00,1828A,113.227,35.2125,焦作市,市环保局,,43,43,53,29,22,169,125,90,90,15,24,10,15,0.6,0.6
2023-09-23T14:00:00,1830A,113.1992,35.2590,焦作市,影视城,,,,,,,,,,,,,,,,
2023-09-23T14:00:00,1832A,113.3257,33.742,平顶山市,新华旅馆,,31,24,42,10,24,150,97,78,78,12,19,3,5,0.3,0.6
2023-09-23T14:00:00,1833A,113.2919,33.737,平顶山市,规划设计院,,29,12,30,7,20,140,92,77,70,9,14,6,9,0.3,0.4
2023-09-23T14:00:00,1834A,113.182,33.774,平顶山市,平顶山工学院,,31,8,32,0,14,155,98,90,75,12,18,4,5,0.4,0.5
2023-09-23T14:00:00,1835A,111.1922,34.7752,三门峡市,市政府,,30,8,38,10,21,143,94,84,82,8,19,6,9,0.4,0.6
2023-09-23T14:00:00,1836A,111.1587,34.7942,三门峡市,开发区,,30,10,44,14,25,143,94,90,82,12,23,6,9,0.3,0.5
2023-09-23T14:00:00,1838A,111.143,34.7955,三门峡市,风景区,,,,,,,,,,,,,,,,
2023-09-23T14:00:00,1840A,111.2992,30.6981,宜昌市,白龙岗,,18,17,20,2,6,88,55,57,52,17,18,5,5,0.6,0.5
2023-09-23T14:00:00,1841A,111.3549,30.6465,宜昌市,伍家岗,,14,2,12,5,7,87,43,52,45,19,21,4,4,0.5,0.4
2023-09-23T14:00:00,1842A,111.2628,30.6961,宜昌市,点军区,,19,2,20,0,5,88,60,53,52,8,10,7,7,0.6,0.6
2023-09-23T14:00:00,1843A,111.3275,30.7819,宜昌市,夷陵区,,17,17,18,5,7,84,28,48,35,23,16,5,5,0.4,0.4
2023-09-23T14:00:00,1844A,112.2494,30.3197,荆州市,市图书馆,,15,8,25,7,15,114,46,89,48,11,12,5,5,0.7,0.6
2023-09-23T14:00:00,1845A,112.2008,30.3544,荆州市,市委党校,,15,12,25,9,17,116,48,88,52,11,11,5,5,0.6,0.6
2023-09-23T14:00:00,1847A,113.1094,29.3578,岳阳市,南湖风景区,,36,36,25,19,19,56,52,38,38,19,13,8,6,0.9,0.8
2023-09-23T14:00:00,1848A,113.1493,29.4251,岳阳市,城陵矶,,22,17,22,15,15,47,45,31,31,17,18,7,6,1.1,1.1
2023-09-23T14:00:00,1849A,113.1497,29.3575,岳阳市,开发区,,32,31,36,22,24,50,49,29,29,14,15,7,8,1.0,0.9
2023-09-23T14:00:00,1850A,113.2621,29.4758,岳阳市,云溪区,,25,24,24,17,14,47,47,31,28,12,15,7,7,0.7,0.7
2023-09-23T14:00:00,1851A,112.9943,29.4402,岳阳市,君山区,,25,18,16,17,20,72,51,51,42,14,14,8,8,0.8,0.6
2023-09-23T14:00:00,1852A,113.2117,29.355,岳阳市,金凤水库,,23,23,26,16,17,68,68,48,48,7,10,3,3,0.7,0.7
2023-09-23T14:00:00,1854A,111.6975,28.9703,常德市,市二中,,19,9,18,7,13,80,60,70,60,9,12,5,5,0.6,0.6
2023-09-23T14:00:00,1857A,111.7158,29.1456,常德市,白鹤山,,16,7,10,5,5,83,51,83,56,2,3,3,4,0.5,0.4
2023-09-23T14:00:00,1858A,110.5319,29.1217,张家界市,永定新区,,22,19,22,5,13,77,68,72,67,8,12,5,5,0.4,0.4
2023-09-23T14:00:00,1859A,110.4697,29.1242,张家界市,电业局,,22,11,19,5,15,79,69,74,64,8,13,5,4,0.4,0.4
2023-09-23T14:00:00,1860A,110.5594,29.3547,张家界市,未央路,,19,12,22,6,13,71,59,65,54,6,6,3,3,0.4,0.4
2023-09-23T14:00:00,1861A,110.4417,29.315,张家界市,袁家界,,,2,7,,5,91,77,88,80,3,4,8,8,0.6,0.6
2023-09-23T14:00:00,1862A,110.4144,25.3167,桂林市,电子科大尧山校区,,23,22,26,15,16,75,72,64,59,4,6,2,2,0.6,0.6
2023-09-23T14:00:00,1863A,110.2819,25.2697,桂林市,监测站,,32,32,26,20,14,99,99,69,69,5,9,6,9,0.6,0.7
2023-09-23T14:00:00,1864A,110.3089,25.2708,桂林市,龙隐路小学,,31,30,24,16,14,98,98,64,64,6,7,6,9,0.6,0.6
2023-09-23T14:00:00,1865A,110.2869,25.2178,桂林市,八中,,30,30,25,15,17,95,90,64,64,6,10,4,6,0.7,0.7
2023-09-23T14:00:00,1866A,109.2262,21.588,北海市,牛尾岭水库,,30,25,22,17,12,93,93,51,51,6,12,5,6,0.5,0.5
2023-09-23T14:00:00,1867A,109.1436,21.4086,北海市,海滩公园,,32,22,19,17,8,105,102,60,60,4,7,5,4,0.7,0.6
2023-09-23T14:00:00,1868A,109.0981,21.4661,北海市,新市环保局,,37,28,20,19,14,117,117,67,67,6,11,5,5,0.5,0.6
2023-09-23T14:00:00,1869A,109.1778,21.5233,北海市,北海工业园,,37,28,30,17,15,118,118,63,63,5,14,6,8,0.6,0.6
2023-09-23T14:00:00,1870A,109.4856,24.3895,柳州市,柳东小学,,41,32,22,21,17,131,131,77,77,6,8,9,8,0.5,0.5
2023-09-23T14:00:00,1871A,109.4157,24.3277,柳州市,环保监测站,,43,43,30,28,17,132,132,71,71,10,10,6,6,0.5,0.5
2023-09-23T14:00:00,1872A,109.389,24.341,柳州市,河西水厂,,48,43,28,26,18,152,152,75,75,13,10,6,6,0.8,0.8
2023-09-23T14:00:00,1873A,109.4311,24.2921,柳州市,市四中,,40,40,30,18,18,132,123,70,70,10,14,8,9,0.7,0.8
2023-09-23T14:00:00,1874A,109.4006,24.3631,柳州市,市九中,,45,45,33,24,19,141,141,73,73,12,12,7,6,0.6,0.6
2023-09-23T14:00:00,1875A,109.4958,24.3134,柳州市,古亭山,,48,48,29,24,19,140,140,74,74,9,12,7,13,0.4,0.5
2023-09-23T14:00:00,1876A,109.5078,18.2489,三亚市,河东子站,,24,11,17,4,7,87,75,52,52,5,8,3,3,0.2,0.3
2023-09-23T14:00:00,1877A,109.4964,18.2681,三亚市,河西子站,,25,12,15,6,7,82,78,48,48,5,8,3,2,0.3,0.3
2023-09-23T14:00:00,1878A,104.7778,31.4741,绵阳市,富乐山,,26,14,15,1,9,83,83,57,57,6,8,4,4,0.5,0.6
2023-09-23T14:00:00,1879A,104.7563,31.4535,绵阳市,市人大,,25,12,14,0,12,78,78,52,52,8,14,12,12,0.6,0.5
2023-09-23T14:00:00,1880A,104.6697,31.4668,绵阳市,高新区自来水公司,,25,14,13,7,10,80,80,55,55,7,20,7,7,0.5,0.6
2023-09-23T14:00:00,1881A,104.7287,31.5075,绵阳市,三水厂,,26,11,20,6,12,82,82,55,55,5,19,7,7,0.4,0.5
2023-09-23T14:00:00,1882A,104.563,28.793,宜宾市,石马中学,,,,,,,,,,,,,,,,
2023-09-23T14:00:00,1883A,104.6201,28.7728,宜宾市,市委,,32,32,17,20,9,65,54,60,39,16,19,7,7,0.6,0.5
2023-09-23T14:00:00,1884A,104.6055,28.793,宜宾市,宜宾四中,,37,37,20,23,14,71,48,62,41,21,17,4,4,0.6,0.6
2023-09-23T14:00:00,1885A,104.639,28.7562,宜宾市,市政府,,35,35,19,23,14,67,60,62,45,16,18,9,8,0.5,0.5
2023-09-23T14:00:00,1886A,104.5742,28.7199,宜宾市,黄金嘴,,36,36,17,24,11,70,56,61,46,15,18,7,8,0.5,0.5
2023-09-23T14:00:00,1888A,101.6891,26.571,攀枝花市,弄弄坪,,22,17,39,9,15,76,70,37,37,7,23,9,14,0.6,1.7
2023-09-23T14:00:00,1889A,101.5769,26.5928,攀枝花市,河门口,,31,16,33,9,15,97,97,46,46,10,21,14,13,1.0,1.1
2023-09-23T14:00:00,1890A,101.7169,26.585,攀枝花市,炳草岗,,22,20,48,8,15,82,70,38,38,12,29,14,17,0.8,1.3
2023-09-23T14:00:00,1891A,101.7369,26.5008,攀枝花市,仁和,,20,4,16,6,11,64,62,41,41,5,13,4,4,0.3,0.4
2023-09-23T14:00:00,1893A,105.4324,28.9634,泸州市,九狮山,,14,14,15,8,12,43,22,24,16,14,15,5,5,0.4,0.4
2023-09-23T14:00:00,1894A,105.4427,28.9063,泸州市,小市上码头,,21,21,19,12,8,71,38,42,28,12,13,6,6,0.4,0.5
2023-09-23T14:00:00,1895A,105.4241,28.8573,泸州市,兰田宪桥,,23,23,23,15,11,64,29,40,27,10,11,11,8,0.5,0.6
2023-09-23T14:00:00,1896A,105.4379,28.8833,泸州市,市环监站,,22,22,18,12,5,54,23,35,21,21,19,4,3,0.6,0.5
2023-09-23T14:00:00,1901A,104.4239,31.1208,德阳市,东山公园,,26,26,28,5,8,75,75,42,42,4,15,1,2,0.4,0.4
2023-09-23T14:00:00,1902A,104.3826,31.1317,德阳市,西小区,,24,24,30,5,10,72,72,46,46,3,14,3,5,0.4,0.5
2023-09-23T14:00:00,1904A,104.3553,31.1091,德阳市,耐火材料厂,,22,20,28,6,9,70,70,45,45,3,12,3,4,0.4,0.5
2023-09-23T14:00:00,1905A,106.056,30.8064,南充市,西山风景区,,11,2,7,1,3,53,33,31,31,6,5,2,2,0.4,0.4
2023-09-23T14:00:00,1906A,106.0789,30.8023,南充市,南充市委,,32,1,13,22,15,62,40,31,31,10,11,2,2,0.4,0.4
2023-09-23T14:00:00,1907A,106.1031,30.8217,南充市,南充炼油厂,,17,17,32,5,6,61,39,30,30,10,10,2,3,0.2,0.2
2023-09-23T14:00:00,1908A,106.1064,30.7856,南充市,高坪区监测站,,12,8,12,8,7,63,37,30,28,7,6,2,2,0.2,0.2
2023-09-23T14:00:00,1909A,106.0642,30.7636,南充市,嘉陵区环保局,,14,14,15,7,7,62,30,24,23,16,13,1,1,0.3,0.2
2023-09-23T14:00:00,1910A,106.1087,30.8388,南充市,市环境监测站,,18,5,14,12,11,54,39,30,30,9,9,3,3,0.2,0.3
2023-09-23T14:00:00,1911A,106.9222,27.6869,遵义市,丁字口,,29,25,18,20,9,52,38,43,28,14,12,6,4,0.8,0.5
2023-09-23T14:00:00,1912A,106.9242,27.7019,遵义市,凤凰山,,26,21,12,18,13,53,35,39,20,11,8,8,6,0.7,0.6
2023-09-23T14:00:00,1913A,106.8906,27.6486,遵义市,忠庄,,26,26,19,14,11,49,40,36,22,11,8,2,2,0.6,0.7
2023-09-23T14:00:00,1914A,106.9231,27.6506,遵义市,舟水桥,,22,22,14,15,9,54,32,38,26,13,6,2,1,0.5,0.2
2023-09-23T14:00:00,1915A,106.9178,27.72,遵义市,干田坝,,19,19,17,11,10,54,37,36,24,9,9,7,5,0.8,0.6
2023-09-23T14:00:00,1916A,103.7897,25.5035,曲靖市,环境监测站,,23,19,23,5,9,71,71,40,40,5,14,2,4,0.4,0.2
2023-09-23T14:00:00,1917A,103.8,25.5364,曲靖市,烟厂办公区,,24,14,20,7,10,74,74,41,41,5,12,4,6,0.4,0.6
2023-09-23T14:00:00,1918A,108.7197,34.3956,咸阳市,气象站,,,,,,,,,,,,,,,,
2023-09-23T14:00:00,1919A,108.673,34.3155,咸阳市,实验中学,,43,43,48,21,25,114,78,96,94,17,19,3,4,0.6,0.6
2023-09-23T14:00:00,1920A,108.7233,34.3617,咸阳市,师范学院,,48,48,38,19,16,111,75,93,91,13,18,4,4,0.4,0.5
2023-09-23T14:00:00,1922A,109.0656,35.0994,铜川市,党校,,30,21,29,18,21,115,94,113,98,17,21,7,7,0.5,0.6
2023-09-23T14:00:00,1923A,109.0697,35.0697,铜川市,王益区政府,,29,24,27,13,17,115,92,107,100,8,10,2,2,0.5,0.6
2023-09-23T14:00:00,1924A,108.9344,34.9058,铜川市,新区管委会,,31,31,37,19,20,122,81,115,94,26,21,3,3,0.5,0.5
2023-09-23T14:00:00,1926A,109.4131,36.6275,延安市,枣园,,31,16,33,10,13,116,99,55,55,10,33,7,7,0.4,0.5
2023-09-23T14:00:00,1927A,109.4761,36.6028,延安市,延大医附院,,32,20,39,8,14,108,100,54,54,12,36,6,5,0.3,0.6
2023-09-23T14:00:00,1929A,109.5056,36.6106,延安市,百米大道,,31,29,51,10,15,101,97,55,55,19,41,9,10,0.6,0.9
2023-09-23T14:00:00,1930A,107.185,34.3063,宝鸡市,庙沟村,,27,21,28,15,18,98,85,82,82,14,20,8,8,0.4,0.5
2023-09-23T14:00:00,1931A,107.0708,34.3017,宝鸡市,竹园沟,,35,35,32,16,24,115,106,95,95,13,14,6,6,0.5,0.6
2023-09-23T14:00:00,1932A,107.1906,34.3672,宝鸡市,三陆医院,,33,33,43,17,26,96,91,83,83,22,29,7,7,0.6,0.6
2023-09-23T14:00:00,1933A,107.1431,34.3547,宝鸡市,监测站,,36,36,41,18,25,101,92,84,84,27,29,6,7,0.6,0.6
2023-09-23T14:00:00,1934A,107.1186,34.3739,宝鸡市,技工学校,,40,31,38,28,30,99,94,84,84,23,25,6,6,0.6,0.6
2023-09-23T14:00:00,1935A,107.3906,34.3528,宝鸡市,陈仓区环保局家属楼,,33,33,43,23,28,100,86,78,78,24,26,7,8,0.5,0.6
2023-09-23T14:00:00,1936A,107.2058,34.3497,宝鸡市,文理学院,,33,33,42,22,24,104,97,88,88,18,27,8,7,0.5,0.6
2023-09-23T14:00:00,1937A,107.2386,34.3622,宝鸡市,三迪小学,,38,38,42,23,28,91,87,79,79,24,27,6,6,0.5,0.6
2023-09-23T14:00:00,1938A,109.5293,34.5101,渭南市,农科所,,32,31,42,22,25,116,60,103,90,29,22,4,5,0.5,0.6
2023-09-23T14:00:00,1939A,109.4974,34.4877,渭南市,日报社,,38,24,45,26,30,118,55,105,95,40,36,5,6,0.4,0.5
2023-09-23T14:00:00,1940A,109.4636,34.493,渭南市,体育馆,,29,27,42,20,23,119,50,109,96,45,36,3,5,0.5,0.6
2023-09-23T14:00:00,1941A,109.4259,34.5023,渭南市,高新一小,,39,39,48,17,26,118,69,106,96,28,23,6,7,0.5,0.5
2023-09-23T14:00:00,1944A,102.1692,38.5167,金昌市,天庆家园,,35,25,164,5,35,118,111,105,103,9,9,5,10,0.3,0.3
2023-09-23T14:00:00,1945A,98.2908,39.7711,嘉峪关市,气象局,,34,27,72,14,20,107,107,75,75,3,23,2,14,0,0.3
2023-09-23T14:00:00,1947A,106.3394,38.817,石嘴山市,沙湖旅游区,,46,15,33,32,17,110,86,79,79,11,18,14,14,0.7,0.6
2023-09-23T14:00:00,1948A,106.3668,39.0145,石嘴山市,大武口朝阳西街,,35,16,39,24,26,106,66,74,74,16,32,1,11,0.6,0.5
2023-09-23T14:00:00,1949A,106.7704,39.2282,石嘴山市,惠农南大街,,38,38,35,12,15,105,91,64,64,16,24,5,9,0.5,0.5
2023-09-23T14:00:00,1950A,106.7099,39.1325,石嘴山市,红果子镇惠新街,,30,28,33,15,17,112,96,70,70,12,27,16,14,0.3,0.3
2023-09-23T14:00:00,1951A,84.895,45.6094,克拉玛依市,长征新村,,25,14,12,2,6,78,78,76,56,2,10,9,9,0.2,0.3
2023-09-23T14:00:00,1952A,84.8988,45.5893,克拉玛依市,南林小区,,35,11,10,24,11,81,75,78,60,6,11,5,5,0.1,0.1
2023-09-23T14:00:00,1954A,84.905,44.3396,克拉玛依市,独山子区,,27,11,11,14,9,122,84,90,78,4,8,4,6,0.5,0.6
2023-09-23T14:00:00,1955A,85.6979,46.098,克拉玛依市,乌尔禾区商贸楼,,23,4,17,1,5,84,72,54,44,2,6,7,7,0.3,0.4
2023-09-23T14:00:00,1956A,86.1472,41.7538,巴音郭楞州,孔雀公园,,23,17,31,6,12,98,73,92,85,19,16,7,8,0.3,0.3
2023-09-23T14:00:00,1957A,86.1972,41.7166,巴音郭楞州,棉纺厂,,22,14,35,9,17,96,68,78,74,15,18,5,6,0.2,0.2
2023-09-23T14:00:00,1958A,86.2357,41.7173,巴音郭楞州,经济开发区,,25,6,31,4,11,104,78,89,85,15,14,7,8,0.2,0.2
2023-09-23T14:00:00,1961A,117.532,36.6868,济南市,东山小学,,45,44,53,15,19,197,141,93,93,13,36,7,9,0.5,0.6
2023-09-23T14:00:00,1966A,120.0405,35.8735,青岛市,黄岛区4号,,46,46,39,19,16,147,121,80,80,17,29,6,7,0.6,0.5
2023-09-23T14:00:00,1982A,122.0693,37.2174,威海市,文登开发区,,43,19,35,7,13,182,136,106,103,5,11,7,8,0.5,0.6
2023-09-23T14:00:00,2031A,113.1817,27.9958,株洲市,云田中学,,22,17,30,15,19,65,65,32,32,10,19,6,6,0.7,0.7
2023-09-23T14:00:00,2054A,114.1099,32.1059,信阳市,平桥分局,,24,21,25,6,12,87,75,76,76,6,10,2,2,0.5,0.7
2023-09-23T14:00:00,2064A,113.9956,32.1271,信阳市,南湾水厂,,24,19,26,3,11,83,76,76,76,9,12,3,3,0.4,0.6
2023-09-23T14:00:00,2065A,114.0775,32.1195,信阳市,市酿酒公司,,24,17,24,5,11,82,76,76,76,10,13,2,2,0.6,0.8
2023-09-23T14:00:00,2066A,114.0609,32.1399,信阳市,审计局,,26,12,24,3,10,88,82,83,83,8,11,3,3,0.6,0.8
2023-09-23T14:00:00,2067A,114.6613,33.6128,周口市,市环境监测站,,40,40,42,15,20,130,85,80,80,23,20,6,7,0.3,0.4
2023-09-23T14:00:00,2068A,114.6758,33.6347,周口市,周口师范,,30,30,38,5,20,131,82,73,73,18,16,3,5,0.5,0.6
2023-09-23T14:00:00,2069A,114.6546,33.5979,周口市,市运管处,,31,31,38,14,20,135,95,89,89,12,12,8,9,0.2,0.3
2023-09-23T14:00:00,2070A,114.6369,33.6406,周口市,川汇区环保局,,27,23,36,11,20,130,86,76,76,20,21,7,9,0.3,0.4
2023-09-23T14:00:00,2075A,117.6336,24.4674,漳州市,九湖,,,,,,,,,,,,,,,,
2023-09-23T14:00:00,2160A,112.85,35.5051,晋城市,自来水公司,,39,26,45,2,13,162,123,104,104,12,25,6,8,0.4,0.6
2023-09-23T14:00:00,2161A,112.8318,35.4936,晋城市,白云商贸,,40,21,42,2,14,166,127,98,98,11,25,6,7,0.6,0.8
2023-09-23T14:00:00,2162A,112.8508,35.4887,晋城市,市环保局,,47,47,63,5,20,167,126,100,100,14,32,6,8,0.6,0.7
2023-09-23T14:00:00,2163A,112.8676,35.4897,晋城市,技术学院,,40,34,47,5,17,167,128,109,109,18,37,8,10,0.7,0.8
2023-09-23T14:00:00,2165A,112.8453,35.546,晋城市,白马寺,,,,,,,,,,,,,,,,
2023-09-23T14:00:00,2166A,112.4397,39.3522,朔州市,平朔,,40,37,41,15,20,145,125,116,112,7,18,6,6,0.6,0.6
2023-09-23T14:00:00,2167A,112.4575,39.3617,朔州市,朔唯,,38,38,61,18,24,132,118,101,100,5,21,5,10,0.5,0.6
2023-09-23T14:00:00,2168A,112.4258,39.3197,朔州市,区政府,,45,45,48,14,22,137,119,131,107,8,15,4,12,0.5,0.6
2023-09-23T14:00:00,2169A,112.4072,39.3278,朔州市,市环保局,,,35,49,10,18,155,,143,124,6,14,5,10,0.5,0.6
2023-09-23T14:00:00,2170A,112.4272,39.3681,朔州市,市二中,,47,47,50,6,18,133,124,113,109,8,18,7,7,0.5,0.6
2023-09-23T14:00:00,2171A,112.7532,37.6945,晋中市,锦纶小区,,46,46,61,22,21,168,117,146,105,18,19,8,10,0.4,0.5
2023-09-23T14:00:00,2173A,112.7249,37.7067,晋中市,南都小区,颗粒物(PM10),51,52,60,25,29,163,118,138,102,18,20,7,9,0.4,0.4
2023-09-23T14:00:00,2174A,112.6991,37.6982,晋中市,榆次区政府,,45,45,56,29,28,162,119,139,103,18,20,7,10,0.6,0.7
2023-09-23T14:00:00,2175A,110.9956,35.0147,运城市,运城中学,,,,,,,,,,,,,,,,
2023-09-23T14:00:00,2178A,110.9686,35.0303,运城市,地区技校,,39,39,42,4,17,146,105,114,95,5,11,4,6,0.6,0.8
2023-09-23T14:00:00,2179A,111.0414,35.1147,运城市,空港新区,,40,40,44,15,23,155,100,130,99,9,12,5,6,0.4,0.5
2023-09-23T14:00:00,2181A,112.7383,38.4519,忻州市,开发区,,34,34,44,13,25,123,107,86,85,11,23,8,11,0.5,0.6
2023-09-23T14:00:00,2182A,112.7003,38.4928,忻州市,会展中心,,35,15,42,24,24,126,103,103,83,10,20,8,11,0.5,0.6
2023-09-23T14:00:00,2183A,111.1406,37.5211,吕梁市,环保局,,35,35,60,24,25,132,103,114,112,19,38,4,5,0.7,0.8
2023-09-23T14:00:00,2185A,111.1297,37.5136,吕梁市,自来水公司,,38,37,60,26,28,141,111,119,118,18,38,6,7,0.7,0.9
2023-09-23T14:00:00,2187A,106.8174,39.6973,乌海市,市林业局,,35,35,46,24,18,114,86,80,69,19,23,14,21,0.8,0.8
2023-09-23T14:00:00,2188A,106.7907,39.6667,乌海市,中海勃湾学校,颗粒物(PM10),61,71,44,18,19,110,84,76,75,21,19,11,19,0.5,0.5
2023-09-23T14:00:00,2191A,122.2532,43.6801,通辽市,艺术职业学校,,28,16,35,4,12,88,88,55,55,10,24,4,6,0.3,0.4
2023-09-23T14:00:00,2192A,119.7594,49.2261,呼伦贝尔市,区环保局,,28,26,30,19,22,80,80,62,54,6,14,5,5,0.3,0.3
2023-09-23T14:00:00,2195A,107.4212,40.761,巴彦淖尔市,附二中,颗粒物(PM10),72,94,57,14,19,129,105,88,88,5,14,3,4,0.5,0.6
2023-09-23T14:00:00,2196A,107.37,40.7372,巴彦淖尔市,市环保大楼,颗粒物(PM10),61,71,48,19,20,122,104,92,92,3,6,2,4,0.5,0.6
2023-09-23T14:00:00,2197A,113.1306,40.9923,乌兰察布市,集宁新区,,47,47,32,17,15,142,139,100,100,11,28,14,13,0.4,0.3
2023-09-23T14:00:00,2200A,122.0392,46.0656,兴安盟,胜华新制药厂,,25,12,27,15,20,77,77,42,42,4,18,5,4,0.4,0.4
2023-09-23T14:00:00,2201A,121.9504,46.0741,兴安盟,科右前旗环保局,,27,12,25,7,17,84,84,45,45,3,16,2,3,0.3,0.4
2023-09-23T14:00:00,2202A,116.1042,43.9317,锡林郭勒盟,市环保监测站,,38,11,14,7,5,119,119,87,87,3,7,11,11,0.3,0.2
2023-09-23T14:00:00,2203A,116.0781,43.9311,锡林郭勒盟,市政府,,38,15,19,3,4,120,120,82,82,6,14,12,12,0.2,0.2
2023-09-23T14:00:00,2204A,105.6467,38.8363,阿拉善盟,西城区西花园,,38,24,31,26,20,118,99,105,87,8,10,10,10,0.8,0.7
2023-09-23T14:00:00,2205A,105.6985,38.8411,阿拉善盟,蒙二幼,,33,24,30,17,17,118,104,108,93,7,9,10,10,0.6,0.6
2023-09-23T14:00:00,2206A,105.724,38.8516,阿拉善盟,环保局新楼,,33,32,28,19,16,117,105,115,97,6,7,8,8,0.6,0.6
2023-09-23T14:00:00,2207A,121.6094,41.998,阜新市,工业园区,,27,24,33,7,10,84,84,51,51,12,23,13,9,0.5,0.8
2023-09-23T14:00:00,2208A,121.6697,42.0279,阜新市,长青街,,26,17,27,3,12,83,83,51,51,10,20,13,10,0.3,1.2
2023-09-23T14:00:00,2209A,121.6673,42.0705,阜新市,农业园区,,26,13,21,2,12,81,81,64,64,9,13,9,9,0.4,1.5
2023-09-23T14:00:00,2210A,121.6717,42.0224,阜新市,东苑,,26,20,31,0,8,83,83,52,52,4,16,16,15,0.4,1.4
2023-09-23T14:00:00,2211A,121.6506,42.0498,阜新市,玉龙新城,,25,12,32,2,7,78,78,48,48,8,24,9,7,0.3,1.3
2023-09-23T14:00:00,2212A,123.2,41.1953,辽阳市,宏伟区,,26,17,44,18,24,83,80,29,29,20,34,19,14,0.6,0.7
2023-09-23T14:00:00,2213A,123.1683,41.2495,辽阳市,新华园,,,54,46,16,31,74,74,28,28,16,31,14,18,,0.7
2023-09-23T14:00:00,2214A,123.2354,41.2639,辽阳市,滨河路,,29,18,40,20,32,73,73,32,32,15,24,15,15,0.7,0.8
2023-09-23T14:00:00,2215A,123.149,41.2991,辽阳市,铁西工业园,,27,27,33,17,21,86,84,34,34,16,25,11,10,0.6,0.7
2023-09-23T14:00:00,2216A,123.8139,42.3022,铁岭市,汇工街西,,27,14,24,12,15,86,86,45,45,5,21,4,18,0.3,0.5
2023-09-23T14:00:00,2217A,123.8649,42.2923,铁岭市,水上乐园,,27,15,24,2,12,86,86,43,43,8,24,6,7,0.4,0.5
2023-09-23T14:00:00,2218A,123.8486,42.2867,铁岭市,银州路东段,,24,11,24,9,15,76,76,37,37,11,25,4,4,0.3,0.6
2023-09-23T14:00:00,2219A,123.7153,42.2217,铁岭市,金沙江路北,,26,10,21,6,13,82,82,40,40,7,21,2,4,0.4,0.5
2023-09-23T14:00:00,2220A,120.4318,41.5881,朝阳市,西梁,,28,6,29,4,11,88,88,47,47,4,22,8,10,0.3,0.5
2023-09-23T14:00:00,2221A,120.4521,41.5646,朝阳市,河畔小区,,28,10,21,4,9,87,87,49,49,4,21,7,9,0.3,0.5
2023-09-23T14:00:00,2222A,120.4176,41.5648,朝阳市,八里堡,,27,12,35,7,12,84,84,45,45,6,26,7,9,0.4,0.7
2023-09-23T14:00:00,2223A,120.3806,41.5969,朝阳市,农业园区,,29,13,28,9,10,90,90,46,46,5,25,8,8,0.5,0.6
2023-09-23T14:00:00,2225A,124.4002,43.1713,四平市,一商场,,23,23,31,4,11,73,71,50,50,7,23,2,4,0.1,0.2
2023-09-23T14:00:00,2226A,124.388,43.193,四平市,境园,,25,7,27,6,13,81,78,52,52,4,15,5,5,0.3,0.3
2023-09-23T14:00:00,2227A,125.1358,42.8845,辽源市,环保局,,25,10,26,5,14,79,79,44,44,8,15,4,5,0.5,0.8
2023-09-23T14:00:00,2229A,125.9358,41.7173,通化市,光明,,24,10,37,7,21,76,76,37,37,17,31,26,36,0.6,1.1
2023-09-23T14:00:00,2230A,125.9446,41.7325,通化市,铁路,,,,34,,20,83,77,38,38,25,25,38,28,0.7,0.9
2023-09-23T14:00:00,2231A,126.4219,41.9171,白山市,喜丰,,38,38,42,6,15,53,52,35,35,15,18,8,7,0.4,0.5
2023-09-23T14:00:00,2232A,126.4077,41.9419,白山市,环保局,,25,8,28,3,8,78,78,51,51,12,17,9,8,0.3,0.4
2023-09-23T14:00:00,2233A,124.8006,45.1214,松原市,江南,,26,13,31,6,12,81,81,51,51,5,21,5,6,0.3,0.4
2023-09-23T14:00:00,2234A,124.7965,45.1722,松原市,江北,,25,5,15,3,8,80,80,58,58,3,11,3,3,0.0,0.3
2023-09-23T14:00:00,2235A,122.7911,45.6077,白城市,洮北区环保局,,29,16,30,6,10,92,92,61,61,3,10,6,6,0.3,0.3
2023-09-23T14:00:00,2236A,122.8738,45.5725,白城市,市环保局,,27,15,30,3,7,85,85,56,56,4,18,7,6,0.2,0.2
2023-09-23T14:00:00,2237A,129.47,42.8883,延边朝鲜族自治州,妇幼医院,,25,8,23,5,10,86,80,53,53,7,13,6,6,0.4,0.5
2023-09-23T14:00:00,2238A,129.5055,42.9108,延边朝鲜族自治州,延边医院,,25,24,37,8,14,88,79,87,53,13,18,6,6,0.5,0.6
2023-09-23T14:00:00,2239A,129.3964,42.8881,延边朝鲜族自治州,朝阳川镇医院,,27,4,17,2,9,88,86,60,60,4,9,6,7,0.4,0.5
2023-09-23T14:00:00,2240A,130.9762,45.3001,鸡西市,环保局,,14,11,22,3,8,48,42,34,34,7,14,4,4,0.3,0.4
2023-09-23T14:00:00,2243A,130.9429,45.3039,鸡西市,第一中学,,19,4,15,0,7,64,60,45,45,4,9,6,6,0.2,0.2
2023-09-23T14:00:00,2244A,130.2537,47.3416,鹤岗市,哈啤分公司,,24,6,15,5,12,74,74,58,58,5,8,9,10,0.2,0.2
2023-09-23T14:00:00,2245A,130.2684,47.3086,鹤岗市,斯达机电,,23,7,19,3,10,73,73,57,57,6,9,6,7,0.1,0.2
2023-09-23T14:00:00,2246A,130.3114,47.3388,鹤岗市,东山纸板厂,,25,19,43,6,16,79,79,55,55,4,13,9,9,0.3,0.6
2023-09-23T14:00:00,2247A,130.1097,47.3382,鹤岗市,五号水库,,25,5,11,11,13,78,78,64,64,3,6,10,9,0.4,0.4
2023-09-23T14:00:00,2248A,131.1511,46.6937,双鸭山市,双合村,,24,10,23,3,4,74,74,58,58,2,9,6,10,0,0.4
2023-09-23T14:00:00,2249A,131.1652,46.6191,双鸭山市,南小市,,22,19,20,4,7,68,68,48,48,6,7,7,5,0.2,0.2
2023-09-23T14:00:00,2250A,131.1524,46.6554,双鸭山市,环保局,,22,9,24,5,13,69,69,51,51,9,18,7,9,0.2,0.3
2023-09-23T14:00:00,2251A,131.12,46.5656,双鸭山市,苗圃,,32,5,15,5,10,104,102,81,81,4,3,2,2,0.3,0.2
2023-09-23T14:00:00,2252A,128.5159,47.4311,伊春市,环保局,,22,14,16,9,8,69,69,42,42,7,10,3,5,0.3,0.4
2023-09-23T14:00:00,2253A,128.9102,47.7412,伊春市,电力嘉园,,24,13,18,8,8,76,76,46,46,5,8,5,5,0.6,0.6
2023-09-23T14:00:00,2254A,129.5029,48.471,伊春市,汤旺河国家公园,,23,20,18,10,10,71,71,45,45,4,4,13,12,0.2,0.2
2023-09-23T14:00:00,2255A,130.2751,46.8028,佳木斯市,佳纺,,,7,23,3,7,67,66,53,53,3,17,,2,0.4,0.4
2023-09-23T14:00:00,2256A,130.3995,46.8307,佳木斯市,发电厂,,24,24,16,6,6,68,68,55,55,6,10,3,3,0.5,0.5
2023-09-23T14:00:00,2257A,130.3258,46.7975,佳木斯市,环保局,,23,19,19,5,7,71,71,54,54,4,15,2,3,0.4,0.4
2023-09-23T14:00:00,2258A,130.3648,46.8032,佳木斯市,十一中,,22,20,23,4,8,70,70,54,54,7,18,3,3,0.4,0.4
2023-09-23T14:00:00,2259A,130.3794,46.7588,佳木斯市,四丰,,26,7,10,2,4,82,82,65,65,3,6,1,1,0.1,0.1
2023-09-23T14:00:00,2262A,131.0518,45.8751,七台河市,新一中,,,4,9,,5,77,72,56,56,2,8,7,7,0.4,0.3
2023-09-23T14:00:00,2263A,127.4833,50.2524,黑河市,交通局,,22,17,17,6,10,70,70,40,40,16,19,3,3,0.5,0.5
2023-09-23T14:00:00,2264A,127.5144,50.2341,黑河市,环保局,,26,9,28,7,12,82,82,44,44,6,21,2,4,0.3,0.5
2023-09-23T14:00:00,2265A,127.5291,50.2472,黑河市,大黑河岛,,,29,17,17,18,,,,,1,2,3,3,0.5,0.4
2023-09-23T14:00:00,2266A,126.9785,46.6365,绥化市,人和东街,,23,13,20,4,7,76,73,58,58,12,15,2,3,0.2,0.2
2023-09-23T14:00:00,2267A,126.964,46.6528,绥化市,党政办公中心,,22,13,20,4,8,70,68,56,56,12,16,5,5,0.2,0.3
2023-09-23T14:00:00,2269A,124.1069,50.4097,大兴安岭地区,科技局,,25,9,17,4,11,78,77,53,53,2,6,4,4,0.0,0.1
2023-09-23T14:00:00,2270A,117.396,32.939,蚌埠市,工人疗养院,,27,27,34,9,12,120,86,77,77,11,16,4,4,0.4,0.4
2023-09-23T14:00:00,2271A,117.3605,32.9427,蚌埠市,百货大楼,,30,30,34,12,11,118,90,78,78,12,15,5,4,0.3,0.3
2023-09-23T14:00:00,2273A,117.4185,32.8911,蚌埠市,蚌埠学院,,28,14,29,8,14,117,89,60,60,14,30,5,10,0.2,0.3
2023-09-23T14:00:00,2274A,117.3533,32.9673,蚌埠市,淮上区政府,,34,34,28,17,16,120,90,79,79,18,22,5,5,0.4,0.3
2023-09-23T14:00:00,2275A,117.3145,32.8977,蚌埠市,高新区,,30,17,26,4,12,113,95,84,84,10,16,4,5,0.3,0.4
2023-09-23T14:00:00,2277A,116.8305,32.7727,淮南市,潘集区政府,,26,15,31,10,16,90,81,66,66,8,14,6,7,0.2,0.3
2023-09-23T14:00:00,2278A,117.0067,32.6524,淮南市,师范学院,,25,2,30,2,15,86,80,59,59,12,19,6,8,0.2,0.1
2023-09-23T14:00:00,2279A,116.8569,32.5951,淮南市,谢家集区政府,,23,6,17,4,7,90,71,68,68,15,19,5,8,0.1,0.2
2023-09-23T14:00:00,2280A,116.8281,32.633,淮南市,八公山区政府,,25,16,32,8,15,82,78,65,65,8,14,8,9,0.2,0.2
2023-09-23T14:00:00,2281A,116.6325,32.6201,淮南市,焦岗湖风景区管理处,,23,13,24,2,11,84,72,60,60,4,13,1,3,0.1,0.3
2023-09-23T14:00:00,2282A,116.8004,33.975,淮北市,监测站,,,28,31,24,17,124,100,82,82,28,20,,6,0.7,0.5
2023-09-23T14:00:00,2283A,116.8091,33.9007,淮北市,烈山区政府,,40,31,31,19,18,133,127,99,99,12,14,8,6,0.6,0.4
2023-09-23T14:00:00,2285A,117.8177,30.9412,铜陵市,市第四中学,,18,10,10,6,10,59,56,54,54,11,10,3,3,0.5,0.5
2023-09-23T14:00:00,2286A,117.8059,30.9273,铜陵市,市公路局,,17,17,18,4,10,62,3,54,33,14,13,6,6,0.6,0.6
2023-09-23T14:00:00,2287A,117.7807,30.9413,铜陵市,市新民污水厂,细颗粒物(PM2.5),68,17,22,49,9,70,66,63,63,12,12,4,4,0.4,0.4
2023-09-23T14:00:00,2288A,117.7439,30.8792,铜陵市,市第九中学,,24,24,24,5,9,65,62,58,58,15,14,3,3,0.8,0.8
2023-09-23T14:00:00,2289A,117.846,30.9413,铜陵市,车站新区,,20,12,16,14,14,62,58,56,56,14,11,2,2,0.4,0.4
2023-09-23T14:00:00,2290A,117.8483,30.97,铜陵市,市职教基地,,20,10,13,5,5,66,61,59,59,11,10,3,3,0.5,0.6
2023-09-23T14:00:00,2291A,117.0809,30.5177,安庆市,环科院,,20,13,15,5,11,63,63,49,49,14,14,6,6,0.6,0.8
2023-09-23T14:00:00,2292A,117.0331,30.5119,安庆市,马山宾馆,,20,12,16,5,10,65,63,53,48,13,14,4,4,0.7,0.8
2023-09-23T14:00:00,2294A,116.9896,30.6145,安庆市,安庆大学,,22,10,11,5,10,71,68,55,55,12,13,5,5,0.5,0.6
2023-09-23T14:00:00,2295A,118.2903,29.6963,黄山市,延安路89号,,20,20,24,6,5,57,56,39,38,4,7,4,4,0.4,0.4
2023-09-23T14:00:00,2296A,118.327,29.7178,黄山市,黄山东路89号,,20,20,14,6,4,52,52,36,36,6,7,4,4,0.6,0.6
2023-09-23T14:00:00,2297A,118.1371,30.2756,黄山市,黄山区政府5号楼,,22,22,22,8,5,47,38,34,34,11,8,6,6,0.7,0.7
2023-09-23T14:00:00,2298A,118.3093,32.3153,滁州市,老年大学,,24,22,25,11,11,93,76,58,58,18,26,7,8,0.3,0.4
2023-09-23T14:00:00,2299A,118.3244,32.2786,滁州市,人大宾馆,,25,19,24,14,11,89,79,64,64,13,21,6,7,0.3,0.4
2023-09-23T14:00:00,2301A,115.8277,32.8929,阜阳市,市监测站,,28,4,24,3,12,107,87,76,76,7,11,6,7,0.3,0.4
2023-09-23T14:00:00,2303A,115.8554,32.8605,阜阳市,开发区,,29,9,29,7,23,113,91,66,66,11,16,6,8,0.3,0.4
2023-09-23T14:00:00,2307A,116.5079,31.737,六安市,监测大楼,,,,18,5,5,66,66,54,54,13,14,,3,0.5,0.6
2023-09-23T14:00:00,2308A,116.4738,31.7643,六安市,皖西学院,,22,13,17,2,7,74,69,59,59,14,13,6,6,0.4,0.5
2023-09-23T14:00:00,2309A,116.4996,31.7905,六安市,朝阳厂,,21,3,12,8,6,82,67,57,57,12,14,6,6,0.5,0.5
2023-09-23T14:00:00,2310A,116.5567,31.7886,六安市,开发区,,20,12,22,8,11,73,61,54,54,9,11,4,5,0.3,0.4
2023-09-23T14:00:00,2311A,115.8072,33.8399,亳州市,污水处理厂,,33,33,37,22,21,146,79,61,61,16,18,8,11,0.5,0.4
2023-09-23T14:00:00,2312A,115.7789,33.8518,亳州市,三国揽胜宫,,36,36,32,15,16,139,80,61,61,16,20,6,8,0.5,0.4
2023-09-23T14:00:00,2314A,117.47,30.6618,池州市,池州学院,,18,7,13,5,10,69,56,56,56,10,8,4,4,0.6,0.6
2023-09-23T14:00:00,2316A,118.7581,30.9454,宣城市,鳌峰子站,,23,10,12,6,8,72,71,69,64,14,15,4,4,0.4,0.5
2023-09-23T14:00:00,2317A,118.7385,30.9743,宣城市,敬亭山子站,,18,4,14,5,9,57,55,50,45,17,22,5,5,1.0,0.6
2023-09-23T14:00:00,2318A,118.7173,30.9427,宣城市,开发区子站,,21,12,12,4,9,70,66,66,61,18,20,6,5,0.4,0.5
2023-09-23T14:00:00,2319A,119.0141,25.4325,莆田市,荔城区仓后路,,24,19,19,7,6,74,74,59,59,5,7,7,7,0.5,0.5
2023-09-23T14:00:00,2320A,119.0015,25.4553,莆田市,莆田市监测站,,26,26,19,4,3,75,74,62,62,3,4,6,6,0.4,0.5
2023-09-23T14:00:00,2321A,119.1119,25.4561,莆田市,涵江区六中,,24,15,20,3,4,75,75,66,66,2,4,6,6,0.5,0.5
2023-09-23T14:00:00,2322A,119.1013,25.3215,莆田市,秀屿区政府,,26,26,23,9,6,80,80,65,65,3,5,6,6,0.6,0.7
2023-09-23T14:00:00,2323A,118.981,25.4792,莆田市,东圳水库,,,,,,,,,,,,,,,,
2023-09-23T14:00:00,2324A,117.6211,26.2625,三明市,三钢,,30,15,28,21,19,114,73,51,51,2,14,7,8,0.2,0.3
2023-09-23T14:00:00,2325A,117.635,26.2714,三明市,三明二中,,24,17,23,8,14,113,74,51,51,8,18,4,4,0.6,0.8
2023-09-23T14:00:00,2326A,117.6028,26.2378,三明市,三元区政府,,42,42,32,3,13,108,74,50,50,5,13,8,8,0.5,0.7
2023-09-23T14:00:00,2327A,117.7275,26.3108,三明市,洋溪,,,,,,,,,,,,,,,,
2023-09-23T14:00:00,2331A,118.0966,26.6761,南平市,茫荡山,,,,,,,,,,,,,,,,
2023-09-23T14:00:00,2332A,118.1681,26.6369,南平市,南平市监测站,,,26,16,19,8,85,75,50,50,3,7,,6,0.4,0.5
2023-09-23T14:00:00,2333A,118.1825,26.6489,南平市,南平铝业有限公司,,21,15,18,10,10,83,67,46,46,5,11,4,7,0.5,0.6
2023-09-23T14:00:00,2334A,118.1756,26.6272,南平市,南平七中,,24,9,17,8,7,86,76,54,54,2,6,5,6,0.4,0.5
2023-09-23T14:00:00,2335A,117.0189,25.1181,龙岩市,龙岩师专,,,,,,,,,,,,,,,,
2023-09-23T14:00:00,2336A,117.0217,25.1033,龙岩市,龙岩市监测站,,,34,31,13,16,120,79,59,59,5,13,4,4,,0.5
2023-09-23T14:00:00,2337A,117.0258,25.0661,龙岩市,闽西职业技术学院,,27,15,28,8,14,122,86,58,58,2,13,6,7,0.2,0.4
2023-09-23T14:00:00,2338A,117.0196,25.0306,龙岩市,龙岩学院,,29,19,28,5,13,129,90,56,56,4,10,4,4,0.4,0.5
2023-09-23T14:00:00,2339A,119.5001,26.6946,宁德市,金涵水库,,,,,,,,,,,,,,,,
2023-09-23T14:00:00,2341A,119.5388,26.6612,宁德市,宁德市监测站,,28,19,21,7,10,92,89,65,65,6,12,5,6,0.4,0.5
2023-09-23T14:00:00,2342A,117.3102,29.3867,景德镇市,王港中学,,14,5,12,7,6,43,43,26,26,4,3,4,4,0.3,0.3
2023-09-23T14:00:00,2343A,117.2117,29.2933,景德镇市,老干部活动中心,,15,11,15,8,9,48,48,29,29,6,7,3,4,0.3,0.3
2023-09-23T14:00:00,2344A,117.1894,29.2789,景德镇市,兽医站,,15,8,14,4,14,48,48,30,30,6,7,6,6,0.5,0.4
2023-09-23T14:00:00,2345A,117.1547,29.2617,景德镇市,台达陶瓷,,22,22,15,10,7,49,49,33,33,10,10,8,6,0.4,0.4
2023-09-23T14:00:00,2346A,117.2461,29.2956,景德镇市,陶研所,,20,20,25,9,6,42,42,24,24,5,5,5,4,0.3,0.4
2023-09-23T14:00:00,2347A,114.0997,27.5002,萍乡市,武功山,,12,5,10,3,8,51,38,28,27,6,7,9,9,0.5,0.6
2023-09-23T14:00:00,2348A,113.8385,27.6434,萍乡市,中医院,,43,34,42,30,31,70,70,40,40,11,19,17,16,0.7,0.8
2023-09-23T14:00:00,2349A,113.8493,27.6253,萍乡市,市政府车库,,48,48,43,27,27,60,60,36,36,11,19,17,20,1.1,0.6
2023-09-23T14:00:00,2350A,113.8676,27.6435,萍乡市,市环保局,细颗粒物(PM2.5),75,60,41,55,26,67,67,37,37,9,17,13,15,0.6,0.7
2023-09-23T14:00:00,2351A,113.866,27.6198,萍乡市,安源区政府,,41,41,41,28,27,65,65,35,35,14,21,13,15,1.0,0.8
2023-09-23T14:00:00,2352A,115.0861,27.9317,新余市,北岗,,46,41,30,32,21,49,32,25,22,22,15,21,18,0.9,0.7
2023-09-23T14:00:00,2353A,114.9886,27.8431,新余市,飞宇,颗粒物(PM10),52,53,50,27,27,51,38,29,28,21,19,11,18,0.6,0.5
2023-09-23T14:00:00,2354A,114.9231,27.8246,新余市,第二水厂,,50,50,52,25,26,48,42,34,33,20,19,8,10,0.5,0.5
2023-09-23T14:00:00,2355A,114.9308,27.8036,新余市,市气象局,,48,48,46,32,32,50,45,33,32,31,28,9,14,0.8,0.9
2023-09-23T14:00:00,2357A,116.9822,28.1136,鹰潭市,龙虎山,,,27,35,,20,84,84,43,43,3,8,4,7,0.4,0.3
2023-09-23T14:00:00,2358A,117.0564,28.2642,鹰潭市,新监测站,,49,49,34,30,19,102,102,55,55,4,7,19,5,0.6,0.5
2023-09-23T14:00:00,2359A,117.0311,28.2475,鹰潭市,财苑宾馆,颗粒物(PM10),52,54,35,26,18,106,106,58,58,7,9,23,8,0.5,0.5
2023-09-23T14:00:00,2360A,117.0222,28.2264,鹰潭市,体育馆,,41,41,36,27,22,109,109,59,59,6,10,21,11,0.6,0.4
2023-09-23T14:00:00,2361A,117.0017,28.2131,鹰潭市,三川水表,,45,45,39,28,21,108,108,53,53,7,14,12,9,0.7,0.7
2023-09-23T14:00:00,2362A,114.9017,25.9149,赣州市,通天岩,,,,,,,,,,,,,,,,
2023-09-23T14:00:00,2363A,114.9367,25.8664,赣州市,地委,,25,23,32,17,22,90,78,54,54,4,5,9,9,0.9,1
2023-09-23T14:00:00,2364A,114.9461,25.8481,赣州市,气象台,,43,26,32,30,23,98,88,56,56,7,11,13,10,0.7,0.7
2023-09-23T14:00:00,2365A,114.9322,25.8333,赣州市,市图书馆,颗粒物(PM10),59,68,50,24,27,92,86,54,54,8,10,7,14,1.2,1.3
2023-09-23T14:00:00,2366A,114.8905,25.8471,赣州市,华坚鞋城,,27,26,32,16,22,93,86,65,65,7,7,11,8,1.2,1.2
2023-09-23T14:00:00,2367A,114.9754,27.0803,吉安市,红声器材厂,,39,39,46,25,28,69,68,48,48,9,14,19,23,1.0,1
2023-09-23T14:00:00,2368A,114.9658,27.0999,吉安市,市森林工业局,,38,38,45,22,27,71,71,47,47,8,15,8,10,0.8,0.6
2023-09-23T14:00:00,2369A,114.99,27.1312,吉安市,市环境监测站,,35,35,41,18,24,65,65,44,44,10,16,7,9,0.7,0.7
2023-09-23T14:00:00,2370A,115.0093,27.0968,吉安市,青原区法院,,41,41,40,20,26,65,62,45,45,13,16,10,11,1.1,1
2023-09-23T14:00:00,2371A,114.3408,27.8064,宜春市,槟榔水业,,23,23,31,12,18,50,49,35,35,13,17,3,5,0.4,0.4
2023-09-23T14:00:00,2373A,114.3956,27.7844,宜春市,市石油公司,,34,34,43,20,25,68,68,50,50,11,19,6,17,0.8,0.9
2023-09-23T14:00:00,2374A,114.3703,27.7914,宜春市,市气象局,颗粒物(PM10),61,72,54,22,28,66,66,48,48,11,18,4,13,0.9,0.9
2023-09-23T14:00:00,2375A,114.4013,27.8074,宜春市,市广电局,,39,39,41,19,25,66,66,48,48,11,18,8,15,0.9,0.9
2023-09-23T14:00:00,2376A,116.2127,28.0814,抚州市,桐源党溪,,35,35,28,23,16,62,46,30,27,3,3,3,2,0.9,0.9
2023-09-23T14:00:00,2377A,116.3544,27.9831,抚州市,市站,,,43,40,25,19,65,63,44,36,11,11,,3,0.6,0.7
2023-09-23T14:00:00,2378A,116.3565,27.963,抚州市,血防站,,50,50,37,22,17,64,58,40,33,5,4,5,2,0.7,0.7
2023-09-23T14:00:00,2379A,116.3564,28.0007,抚州市,采茶剧团,,40,40,31,26,19,64,55,37,29,7,8,5,3,0.9,0.9
2023-09-23T14:00:00,2380A,116.385,27.9647,抚州市,医学分院,,38,38,28,23,16,63,54,42,42,11,7,9,5,0.9,0.5
2023-09-23T14:00:00,2381A,118.005,28.4572,上饶市,百草园,,27,13,24,2,15,86,86,49,45,5,8,3,3,1.1,1.1
2023-09-23T14:00:00,2382A,117.9756,28.4436,上饶市,市监测站,,33,23,27,8,14,104,104,60,60,4,7,5,6,0.5,0.5
2023-09-23T14:00:00,2383A,117.9519,28.4628,上饶市,凤凰光学,,35,21,29,10,16,111,111,58,58,3,7,5,6,0.5,0.5
2023-09-23T14:00:00,2385A,114.17,35.9019,鹤壁市,市监测站,,,,,,,,,,,,,,,,
2023-09-23T14:00:00,2386A,114.2956,35.7511,鹤壁市,市交警支队,颗粒物(PM10),65,80,65,41,29,144,94,50,50,35,47,15,8,1.2,0.7
2023-09-23T14:00:00,2387A,114.2878,35.7306,鹤壁市,迎宾馆,细颗粒物(PM2.5),82,71,62,60,34,146,94,50,50,39,53,18,13,1.3,0.8
2023-09-23T14:00:00,2389A,113.836,35.311,新乡市,环保西院,,48,48,48,23,21,135,116,80,80,19,36,10,12,0.6,0.6
2023-09-23T14:00:00,2390A,113.884,35.272,新乡市,开发区,,42,42,44,22,20,138,116,76,76,14,33,9,10,0.8,0.8
2023-09-23T14:00:00,2391A,113.883,35.303,新乡市,环保东院,颗粒物(PM10),53,56,60,32,29,132,109,67,67,21,46,10,11,0.8,0.8
2023-09-23T14:00:00,2392A,115.0312,35.7636,濮阳市,环保局,细颗粒物(PM2.5),63,57,45,45,30,142,82,53,53,35,38,12,25,0.5,0.4
2023-09-23T14:00:00,2394A,115.0574,35.7609,濮阳市,油田运输公司,细颗粒物(PM2.5),58,64,65,41,33,149,107,55,55,26,37,9,25,0.3,0.3
2023-09-23T14:00:00,2395A,115.0866,35.7754,濮阳市,油田物探公司,细颗粒物(PM2.5),82,81,71,60,43,150,87,46,46,33,44,10,26,0.4,0.4
2023-09-23T14:00:00,2396A,113.8276,34.0159,许昌市,监测站,,30,17,33,6,17,140,96,86,86,17,25,5,6,0.2,0.4
2023-09-23T14:00:00,2398A,113.7906,33.9953,许昌市,开发区,,31,16,35,5,23,139,97,88,88,8,20,3,4,0.4,0.5
2023-09-23T14:00:00,2399A,114.051,33.5699,漯河市,三五一五工厂,,30,7,31,5,16,128,96,82,82,9,12,9,10,0.3,0.5
2023-09-23T14:00:00,2400A,114.0055,33.5698,漯河市,漯河大学,,32,11,29,6,19,128,100,81,81,5,11,1,4,0.2,0.5
2023-09-23T14:00:00,2401A,114.0138,33.5828,漯河市,市水利局,,32,5,29,12,20,128,100,84,84,5,7,6,7,0.2,0.3
2023-09-23T14:00:00,2402A,114.0261,33.5698,漯河市,市广电局,,30,7,30,10,17,123,96,81,81,12,12,2,4,0.3,0.5
2023-09-23T14:00:00,2404A,112.5224,33.0122,南阳市,瓦房庄,,26,16,22,10,14,137,81,91,84,10,10,4,4,0.3,0.4
2023-09-23T14:00:00,2405A,112.5003,32.9735,南阳市,汉画馆,,27,15,20,8,12,142,84,96,90,7,8,4,4,0.4,0.5
2023-09-23T14:00:00,2406A,112.5573,33.027,南阳市,气象站,,26,10,16,7,9,144,82,92,85,8,8,6,7,0.4,0.5
2023-09-23T14:00:00,2407A,112.5481,32.9689,南阳市,理工学院,,26,16,19,14,14,142,82,95,89,7,8,3,2,0.3,0.4
2023-09-23T14:00:00,2408A,115.6702,34.4285,商丘市,环境监测站,,34,4,53,6,25,132,107,57,57,7,26,5,6,0.3,0.6
2023-09-23T14:00:00,2409A,115.6458,34.4045,商丘市,粮食局,,31,16,44,13,24,130,98,60,55,8,22,6,7,0.6,0.7
2023-09-23T14:00:00,2410A,115.6293,34.3948,商丘市,睢阳区环保局,,34,16,45,11,23,134,108,63,63,8,24,7,10,0.2,0.3
2023-09-23T14:00:00,2420A,114.0189,32.9656,驻马店市,市一纸厂,,25,17,25,6,16,107,78,78,78,7,9,6,6,0.4,0.3
2023-09-23T14:00:00,2421A,114.0114,33.015,驻马店市,市彩印厂,,26,8,20,15,18,111,83,84,84,7,7,5,6,0.2,0.3
2023-09-23T14:00:00,2422A,113.9976,32.9771,驻马店市,天方二分厂,,24,8,17,15,20,107,75,79,78,9,7,5,5,0.1,0.1
2023-09-23T14:00:00,2423A,115.0601,30.2313,黄石市,沈家营,,22,22,29,5,10,68,61,37,36,6,10,5,5,0.5,0.5
2023-09-23T14:00:00,2424A,115.0817,30.2006,黄石市,陈家湾,,20,12,33,4,14,63,63,37,37,1,7,6,6,0.4,0.5
2023-09-23T14:00:00,2426A,114.8988,30.2019,黄石市,铁山,,20,11,22,10,14,64,64,43,36,11,20,6,7,0.6,0.7
2023-09-23T14:00:00,2427A,115.0307,30.2092,黄石市,团城山,,24,21,29,0,8,74,74,55,41,4,12,5,7,0.3,0.4
2023-09-23T14:00:00,2428A,111.0419,32.395,十堰市,武当山,,25,2,10,3,7,102,77,88,78,8,8,8,8,0.6,0.6
2023-09-23T14:00:00,2429A,110.78,32.6494,十堰市,滨河新村,,25,13,27,7,17,99,79,76,76,9,20,6,6,0.5,0.5
2023-09-23T14:00:00,2430A,110.7258,32.6389,十堰市,刘家沟,,25,8,19,3,12,92,80,75,75,3,4,7,6,0.7,0.7
2023-09-23T14:00:00,2431A,110.8839,32.5714,十堰市,铁二处,,28,7,20,10,12,106,88,86,85,4,5,6,6,0.4,0.5
2023-09-23T14:00:00,2432A,112.155,32.0197,襄阳市,襄城运动路,,24,10,19,11,14,125,76,94,70,11,14,7,8,0.4,0.5
2023-09-23T14:00:00,2433A,112.1392,32.0564,襄阳市,樊城新华路,,24,2,22,11,16,122,76,90,70,12,15,7,8,0.4,0.4
2023-09-23T14:00:00,2434A,112.1825,32.1142,襄阳市,高新管委会,,25,8,16,12,18,123,80,91,74,10,12,6,7,0.5,0.6
2023-09-23T14:00:00,2435A,112.2106,32.0903,襄阳市,襄州航空路,,25,7,17,14,12,128,80,94,74,12,15,8,8,0.5,0.5
2023-09-23T14:00:00,2436A,114.8938,30.3994,鄂州市,市政府,,17,17,17,6,6,64,32,40,34,14,11,2,1,0.9,0.7
2023-09-23T14:00:00,2437A,114.8989,30.3714,鄂州市,赵家坝,,26,26,18,11,7,60,34,38,32,17,15,4,4,0.6,0.5
2023-09-23T14:00:00,2439A,112.2014,31.0481,荆门市,竹园小学,,19,9,21,5,13,126,60,101,69,12,12,7,8,0.6,0.6
2023-09-23T14:00:00,2440A,112.1969,30.9891,荆门市,掇刀,,,10,18,10,14,115,53,94,62,11,10,8,7,,0.4
2023-09-23T14:00:00,2441A,112.2213,31.0386,荆门市,石化一小,,,14,22,14,18,125,58,101,69,,13,5,4,0.5,0.3
2023-09-23T14:00:00,2443A,113.9153,30.9285,孝感市,文化路,,16,2,12,2,10,89,49,55,44,10,10,8,8,0.7,0.7
2023-09-23T14:00:00,2444A,113.942,30.9075,孝感市,东城区,,15,8,15,2,8,94,46,57,48,10,8,6,7,0.7,0.7
2023-09-23T14:00:00,2446A,114.9028,30.4742,黄冈市,职工中心,,18,18,19,8,10,74,41,38,36,1,2,8,8,0.9,0.8
2023-09-23T14:00:00,2447A,114.3175,29.8142,咸宁市,森林公园,,15,14,20,9,12,54,47,33,32,6,11,7,6,0.8,0.8
2023-09-23T14:00:00,2448A,114.3107,29.8454,咸宁市,市发改委,,28,22,30,19,22,65,59,53,43,4,7,5,6,0.8,0.8
2023-09-23T14:00:00,2449A,114.2936,29.8566,咸宁市,咸安区政府,,22,19,28,15,19,60,60,50,42,8,12,6,6,0.7,0.7
2023-09-23T14:00:00,2451A,113.3583,31.7275,随州市,市委党校,,23,13,16,9,12,92,72,62,58,3,7,6,6,0.4,0.5
2023-09-23T14:00:00,2452A,113.3833,31.6908,随州市,市林业局,,22,4,11,6,10,92,70,68,58,6,7,4,4,0.3,0.4
2023-09-23T14:00:00,2453A,113.3983,31.7308,随州市,市立交桥水厂,,21,5,14,5,11,89,67,56,56,8,9,8,8,0.5,0.5
2023-09-23T14:00:00,2454A,109.4978,30.2981,恩施土家族苗族自治州,湖北民院,,20,20,24,12,12,46,34,40,30,11,10,9,9,1.0,1
2023-09-23T14:00:00,2455A,109.4707,30.2798,恩施土家族苗族自治州,州电力总公司,,,6,11,6,8,29,25,29,24,19,18,,8,0.7,0.7
2023-09-23T14:00:00,2456A,112.5003,26.9167,衡阳市,原169医院,,35,35,29,16,16,68,44,32,31,18,17,10,9,0.7,0.6
2023-09-23T14:00:00,2457A,112.6194,26.9258,衡阳市,衡阳化工总厂,颗粒物(PM10),52,54,33,25,18,82,57,40,28,11,12,6,7,0.9,0.7
2023-09-23T14:00:00,2458A,112.6211,26.8956,衡阳市,珠晖区环保局,,31,31,29,17,18,78,53,39,26,10,12,5,5,0.9,0.8
2023-09-23T14:00:00,2459A,112.6197,26.8733,衡阳市,市委党校,,29,28,28,20,20,86,56,43,30,13,12,7,7,1.0,0.8
2023-09-23T14:00:00,2460A,112.6006,26.8919,衡阳市,市监测站,,45,42,30,31,24,85,60,42,30,13,13,6,7,0.9,0.7
2023-09-23T14:00:00,2461A,112.5664,26.9056,衡阳市,真空机电公司,,40,40,28,20,15,80,49,38,30,13,12,5,7,0.9,0.7
2023-09-23T14:00:00,2462A,111.5239,27.3033,邵阳市,市水土所,,29,24,26,20,24,85,85,46,46,5,7,17,8,0.4,0.4
2023-09-23T14:00:00,2463A,111.4733,27.2317,邵阳市,市一中,,48,48,37,27,24,96,96,57,57,9,11,11,9,0.6,0.5
2023-09-23T14:00:00,2464A,111.5283,27.2442,邵阳市,市化工厂,颗粒物(PM10),51,51,31,25,21,93,93,57,57,9,10,11,12,0.4,0.4
2023-09-23T14:00:00,2465A,111.4503,27.2537,邵阳市,市罐头厂,,49,49,34,28,26,97,97,55,55,10,11,10,8,0.6,0.6
2023-09-23T14:00:00,2466A,111.4328,27.2272,邵阳市,市环保局,,46,46,35,29,27,94,94,53,53,8,8,12,8,0.6,0.5
2023-09-23T14:00:00,2467A,112.4067,28.6428,益阳市,甘溪港,,23,23,27,6,7,64,47,40,38,7,11,2,3,0.7,0.7
2023-09-23T14:00:00,2468A,112.3458,28.5808,益阳市,市环保局,,26,21,15,18,16,72,51,60,43,12,11,1,3,0.8,0.8
2023-09-23T14:00:00,2469A,112.3437,28.5531,益阳市,市特殊教育学校,,31,31,29,21,21,69,52,53,44,8,13,3,5,0.7,0.6
2023-09-23T14:00:00,2470A,112.3347,28.6047,益阳市,资阳区政务中心,,32,20,21,22,16,69,54,54,46,7,7,2,5,0.9,0.8
2023-09-23T14:00:00,2471A,112.3744,28.5819,益阳市,赫山环保分局,,,23,23,19,16,71,48,65,44,,8,6,8,0.8,0.7
2023-09-23T14:00:00,2472A,113.0073,25.9061,郴州市,马头岭,,35,35,43,12,22,72,54,50,30,21,16,6,8,0.8,0.8
2023-09-23T14:00:00,2473A,113.0116,25.8226,郴州市,市职中,,36,25,39,25,30,72,72,55,36,12,15,5,5,0.7,0.7
2023-09-23T14:00:00,2474A,113.0161,25.8001,郴州市,兴隆步行街,,38,36,47,26,28,72,72,58,34,15,17,5,4,0.7,0.7
2023-09-23T14:00:00,2475A,113.0383,25.8071,郴州市,市审计局,,,60,43,22,31,70,66,53,27,,17,17,7,0.4,0.6
2023-09-23T14:00:00,2476A,113.0348,25.7759,郴州市,市环保局,,38,35,48,26,36,82,82,48,37,14,15,12,7,0.8,0.5
2023-09-23T14:00:00,2477A,111.6217,26.2081,永州市,零陵南津渡,,29,23,36,18,29,92,92,65,57,5,9,8,9,0.5,0.6
2023-09-23T14:00:00,2478A,111.6156,26.4214,永州市,市环境监测站,,43,34,43,30,31,101,101,56,56,6,8,8,7,0.6,0.5
2023-09-23T14:00:00,2479A,111.6236,26.2331,永州市,零陵区环保局,,33,31,42,23,31,99,99,60,57,10,12,6,7,0.6,0.6
2023-09-23T14:00:00,2480A,111.5992,26.4364,永州市,永州市环保局,,42,34,39,29,31,92,92,54,54,10,10,6,8,0.6,0.6
2023-09-23T14:00:00,2481A,111.5989,26.4519,永州市,冷水滩区环保局,,40,35,41,28,33,95,95,57,57,8,10,4,5,0.5,0.5
2023-09-23T14:00:00,2482A,109.5981,27.5721,怀化市,林科所,,22,22,15,10,8,62,51,55,45,4,4,8,8,0.5,0.4
2023-09-23T14:00:00,2483A,109.9453,27.5444,怀化市,河西地税局,,30,30,20,17,13,62,49,59,44,6,6,1,1,0.5,0.6
2023-09-23T14:00:00,2484A,109.9781,27.5342,怀化市,市四医院,,35,35,23,19,16,61,48,50,42,5,4,2,2,0.6,0.5
2023-09-23T14:00:00,2485A,109.9972,27.5578,怀化市,监测楼,,31,31,25,12,13,68,51,52,46,5,5,5,6,0.6,0.5
2023-09-23T14:00:00,2486A,110.0394,27.583,怀化市,市委党校,,26,26,23,15,14,60,51,48,40,5,6,4,3,0.5,0.4
2023-09-23T14:00:00,2487A,111.9589,27.8901,娄底市,电视发射台,,18,18,21,2,5,47,39,27,27,3,3,4,4,0.5,0.5
2023-09-23T14:00:00,2488A,111.9975,27.725,娄底市,市监测站,,28,28,18,16,11,74,59,52,52,9,9,3,3,0.3,0.3
2023-09-23T14:00:00,2489A,112.0194,27.7314,娄底市,市委党校,,32,32,19,18,11,64,62,46,46,5,5,3,3,0.5,0.5
2023-09-23T14:00:00,2490A,111.9561,27.7569,娄底市,涟钢,,28,18,18,19,12,67,55,44,43,13,12,7,5,0.8,0.7
2023-09-23T14:00:00,2491A,111.9892,27.7044,娄底市,市政府,,21,20,16,14,12,69,66,56,56,6,7,8,6,0.5,0.4
2023-09-23T14:00:00,2492A,109.6414,28.2558,湘西州,跃进水库,,11,0,11,3,8,40,33,37,37,9,2,6,5,0.7,0.7
2023-09-23T14:00:00,2493A,109.7325,28.3169,湘西州,州政府,,15,6,16,9,11,76,48,50,50,10,9,6,6,0.5,0.5
2023-09-23T14:00:00,2494A,109.6958,28.2675,湘西州,吉首市计生局,,20,14,14,14,10,74,44,60,50,11,9,6,5,0.6,0.5
2023-09-23T14:00:00,2495A,111.3014,23.4832,梧州市,市逸夫小学,,47,35,38,28,24,149,148,88,88,5,14,6,9,0.6,0.6
