timepoint,stationcode,longitude,latitude,area,positionname,primarypollutant,aqi,pm10,pm10_24h,pm2_5,pm2_5_24h,o3,o3_24h,o3_8h,o3_8h_24h,no2,no2_24h,so2,so2_24h,co,co_24h
2024-08-30T1100,2566A,102.1879,31.914,阿坝藏族羌族自治州,州农科所,,26,26,18,7,8,55,,45,41,14,7,8,6,0,0
2024-08-30T1100,2568A,102.2502,31.8896,阿坝藏族羌族自治州,马师校,,16,15,16,3,11,51,,40,35,9,7,4,4,0.4,0.4
2024-08-30T1100,3994A,102.2165,31.9024,阿坝藏族羌族自治州,马尔康中学西区,,20,7,18,3,12,64,,45,41,10,9,4,5,0.4,0.4
2024-08-30T1100,2695A,80.292,41.1694,阿克苏地区,电视台,,35,32,24,24,18,50,,71,50,26,16,2,4,0.7,0.5
2024-08-30T1100,2696A,80.2613,41.1551,阿克苏地区,艺术中心,,35,35,21,18,12,40,,72,45,27,16,4,4,0.7,0.5
2024-08-30T1100,2204A,105.6467,38.8363,阿拉善盟,西城区西花园,颗粒物(PM10),70,90,49,23,19,150,,138,128,17,15,10,11,1.2,1.1
2024-08-30T1100,2205A,105.6985,38.8411,阿拉善盟,蒙二幼,,45,38,37,22,22,141,,123,121,10,9,11,11,0.7,0.7
2024-08-30T1100,2206A,105.724,38.8516,阿拉善盟,环保局新楼,,46,34,35,21,20,146,,133,130,9,8,12,12,0.7,0.6
2024-08-30T1100,2708A,88.1264,47.8517,阿勒泰地区,市站,,,15,27,7,8,45,,56,48,,10,,7,0.7,0.6
2024-08-30T1100,2630A,80.1161,32.5,阿里地区,阿里监测站,,17,6,7,3,3,54,,48,46,9,8,7,6,0.4,0.3
2024-08-30T1100,3192A,80.0903,32.5028,阿里地区,阿里藏医院,,19,7,8,3,1,59,,51,50,4,5,8,8,0.3,0.3
2024-08-30T1100,2642A,109.0318,32.6537,安康市,香溪洞,颗粒物(PM10),51,51,42,15,15,89,,99,93,41,10,6,6,0.4,0.4
2024-08-30T1100,2643A,109.0281,32.6939,安康市,安康市监测站,,33,24,27,15,11,103,,90,90,3,5,6,8,0.6,0.6
2024-08-30T1100,2644A,109.0072,32.6975,安康市,汉滨区检察院,,33,25,27,19,14,104,,81,81,5,6,9,9,0.6,0.6
2024-08-30T1100,2291A,117.0809,30.5177,安庆市,环科院,,39,35,32,27,21,113,,72,68,11,10,8,7,0.7,0.7
2024-08-30T1100,2292A,117.0331,30.5119,安庆市,马山宾馆,,41,41,32,27,21,109,,72,72,19,11,9,9,0.7,0.6
2024-08-30T1100,2294A,116.9896,30.6145,安庆市,安庆大学,,41,41,31,24,20,97,,56,56,9,8,9,8,0.7,0.6
2024-08-30T1100,3173A,117.0598,30.5351,安庆市,市人大,,36,34,28,23,21,113,,70,70,10,9,9,8,0.9,0.9
2024-08-30T1100,3122A,105.9606,26.2611,安顺市,伍家关,,,,,,,,,,,,,,,,
2024-08-30T1100,3123A,105.9408,26.2431,安顺市,凤凰山,,22,20,26,14,17,69,,61,61,3,4,8,9,0.5,0.5
2024-08-30T1100,3124A,105.9439,26.2564,安顺市,金钟山,,,24,25,16,17,69,,61,61,,3,,7,0.3,0.4
2024-08-30T1100,3125A,105.8983,26.2481,安顺市,娄家坡,,23,20,23,16,18,64,,58,58,3,3,3,4,0.6,0.6
2024-08-30T1100,1818A,114.4839,36.0621,安阳市,棉研所,,,,,,,,,,,,,,,,
2024-08-30T1100,1819A,114.3551,36.1017,安阳市,红庙街,,48,36,54,24,27,152,,96,96,1,6,5,6,0.4,0.5
2024-08-30T1100,1820A,114.361,36.0681,安阳市,银杏小区,,,60,54,,31,150,,86,86,,7,5,4,0.7,0.4
2024-08-30T1100,3141A,114.3922,36.0878,安阳市,信访局,颗粒物(PM10),51,52,55,22,32,160,,90,90,2,8,5,5,0.5,0.6
2024-08-30T1100,3669A,114.4705,36.0637,安阳市,左辅环卫站,颗粒物(PM10),56,62,61,26,37,161,,84,84,8,9,9,8,0.7,0.7
2024-08-30T1100,3703A,114.2917,36.0949,安阳市,安钢职工学校,颗粒物(PM10),56,62,54,17,36,143,,79,79,2,10,9,8,0.5,0.6
2024-08-30T1100,1748A,123.044,41.1196,鞍山市,深沟寺,臭氧1小时,59,43,37,24,19,167,,110,110,11,13,6,6,1.1,1
2024-08-30T1100,1749A,123.011,41.0931,鞍山市,太阳城,臭氧1小时,57,42,35,27,20,165,,116,116,11,12,7,6,1.0,0.9
2024-08-30T1100,1750A,123.0485,41.1442,鞍山市,太平,臭氧1小时,58,57,47,34,25,166,,116,116,14,19,8,9,1.1,1.1
2024-08-30T1100,1751A,122.9642,41.0971,鞍山市,铁西三道街,"颗粒物(PM10),臭氧1小时",57,63,55,32,26,165,,117,117,14,20,6,8,1.1,1
2024-08-30T1100,1752A,122.9341,41.0833,鞍山市,铁西工业园区,臭氧1小时,53,54,57,28,25,162,,105,105,11,16,10,10,1.1,1
2024-08-30T1100,1753A,123.022,41.0821,鞍山市,明达新区,,50,50,40,26,20,153,,116,116,9,10,6,6,1.0,0.8
2024-08-30T1100,1754A,123.1289,41.0228,鞍山市,千山,,,,,,,,,,,,,,,,
2024-08-30T1100,2195A,107.4212,40.761,巴彦淖尔市,附二中,颗粒物(PM10),62,74,60,29,31,131,,84,80,9,11,6,9,0.9,0.7
2024-08-30T1100,2196A,107.37,40.7372,巴彦淖尔市,市环保大楼,颗粒物(PM10),63,76,62,8,19,135,,94,90,7,9,5,5,1.0,0.8
2024-08-30T1100,1956A,86.1472,41.7538,巴音郭楞蒙古自治州,孔雀公园,颗粒物(PM10),55,59,61,29,18,77,,92,86,17,8,4,5,0.2,0.2
2024-08-30T1100,1957A,86.1972,41.7166,巴音郭楞蒙古自治州,棉纺厂,颗粒物(PM10),55,60,59,16,20,88,,95,92,13,10,4,5,0.2,0.2
2024-08-30T1100,1958A,86.2357,41.7173,巴音郭楞蒙古自治州,经济开发区,颗粒物(PM10),55,60,56,14,17,91,,99,97,10,5,6,6,0.2,0.2
2024-08-30T1100,2914A,106.7677,31.8794,巴中市,苏山坪,,27,19,25,13,17,86,,72,72,5,8,6,5,0.5,0.5
2024-08-30T1100,3182A,106.7656,31.8545,巴中市,丽阳花园,,27,18,31,13,24,84,,49,49,9,14,6,4,0.5,0.6
2024-08-30T1100,3183A,106.7418,31.8654,巴中市,圣泉水务公司,,28,15,30,11,23,88,,38,38,7,13,8,4,0.6,0.7
2024-08-30T1100,3616A,106.7616,31.8344,巴中市,市中心医院,,26,23,34,15,25,83,,49,49,8,14,3,3,0.6,0.7
2024-08-30T1100,2235A,122.7911,45.6077,白城市,洮北区环保局,,27,,20,13,7,85,,70,70,9,9,4,4,0.5,0.5
2024-08-30T1100,2236A,122.8738,45.5725,白城市,市环保局,,27,12,25,3,6,85,,67,67,6,9,6,5,0.2,0.2
2024-08-30T1100,2231A,126.4219,41.9171,白山市,喜丰,,35,35,51,16,15,95,,27,27,4,14,9,11,0.7,0.8
2024-08-30T1100,2232A,126.4077,41.9419,白山市,环保局,,29,29,36,15,15,76,,22,22,19,16,10,9,0.8,0.8
2024-08-30T1100,2647A,104.1724,36.5446,白银市,第三小学,,33,33,38,18,20,71,,60,60,11,14,9,20,0.6,0.7
2024-08-30T1100,2648A,104.1465,36.5482,白银市,动力公司,,23,17,28,12,18,73,,55,55,14,16,9,15,0.5,0.5
2024-08-30T1100,2512A,106.6103,23.9011,百色市,市监测站,颗粒物(PM10),57,64,45,31,23,45,,18,18,19,18,20,15,0.9,0.7
2024-08-30T1100,2513A,106.6538,23.8859,百色市,市中心血站,颗粒物(PM10),56,62,51,34,27,48,,18,18,20,20,29,15,0.9,0.8
2024-08-30T1100,3406A,106.6085,23.8798,百色市,祈福高中,,50,50,52,25,21,52,,21,21,16,19,22,11,1.0,0.9
2024-08-30T1100,2270A,117.396,32.939,蚌埠市,工人疗养院,,41,41,33,10,9,93,,39,39,13,12,8,8,0.4,0.3
2024-08-30T1100,2271A,117.3605,32.9427,蚌埠市,百货大楼,,40,40,32,16,11,104,,40,40,6,9,8,6,0.4,0.4
2024-08-30T1100,2273A,117.4185,32.8911,蚌埠市,蚌埠学院,,36,27,24,11,11,114,,46,46,6,21,6,9,0.5,0.4
2024-08-30T1100,2274A,117.3533,32.9673,蚌埠市,淮上区政府,,34,34,28,16,14,105,,47,47,5,8,8,7,0.8,0.7
2024-08-30T1100,2275A,117.3145,32.8977,蚌埠市,高新区,,34,31,24,14,12,107,,51,51,4,16,6,8,0.7,0.6
2024-08-30T1100,3715A,117.3092,32.9314,蚌埠市,蚌埠田家炳中学,,,41,28,17,13,108,,48,48,1,6,,5,0.5,0.4
2024-08-30T1100,1585A,109.8756,40.6532,包头市,市环境监测站,细颗粒物(PM2.5),74,75,53,54,28,115,,56,56,24,38,41,17,1.1,1
2024-08-30T1100,1587A,109.9991,40.5842,包头市,包头八中,,,,54,,29,106,,46,46,,31,19,18,,1.1
2024-08-30T1100,1588A,109.8538,40.6821,包头市,青山宾馆,颗粒物(PM10),52,54,50,31,30,114,,50,50,34,35,53,13,1.9,1
2024-08-30T1100,1589A,109.8642,40.6288,包头市,惠龙物流,颗粒物(PM10),58,66,53,36,25,129,,63,63,18,31,24,17,0.9,0.9
2024-08-30T1100,1590A,110.0377,40.5546,包头市,东河鸿龙湾,,,,50,,23,,,132,,,24,,12,,1.1
2024-08-30T1100,3283A,109.9154,40.5685,包头市,滨河大厦,颗粒物(PM10),51,52,50,28,25,124,,45,45,19,39,13,12,0.7,0.8
2024-08-30T1100,3419A,109.9447,40.6261,包头市,包头市委党校,颗粒物(PM10),64,78,52,45,27,104,,58,58,28,36,17,12,0.8,1
2024-08-30T1100,3683A,109.8331,40.6576,包头市,昆区政府,颗粒物(PM10),60,70,51,31,29,121,,63,63,26,33,33,14,1.5,1.2
2024-08-30T1100,1930A,107.185,34.3063,宝鸡市,庙沟村,颗粒物(PM10),59,67,50,32,26,72,,63,59,19,17,8,8,0.6,0.6
2024-08-30T1100,1931A,107.0708,34.3017,宝鸡市,竹园沟,颗粒物(PM10),53,55,42,35,28,57,,36,35,25,15,9,9,0.7,0.7
2024-08-30T1100,1932A,107.1906,34.3672,宝鸡市,三陆医院,,49,49,56,30,34,70,,42,40,28,27,12,13,0.8,0.7
2024-08-30T1100,1933A,107.1431,34.3547,宝鸡市,监测站,颗粒物(PM10),56,62,69,38,30,70,,46,41,29,23,10,9,0.6,0.6
2024-08-30T1100,1934A,107.1186,34.3739,宝鸡市,技工学校,颗粒物(PM10),52,53,53,30,32,66,,53,46,29,19,11,10,0.8,0.7
2024-08-30T1100,1935A,107.3906,34.3528,宝鸡市,陈仓区环保局家属楼,,50,50,47,31,25,73,,42,42,26,25,11,10,0.6,0.6
2024-08-30T1100,1936A,107.2058,34.3497,宝鸡市,文理学院,颗粒物(PM10),52,54,51,34,24,72,,46,46,26,21,12,11,0.7,0.6
2024-08-30T1100,1937A,107.2386,34.3622,宝鸡市,三迪小学,细颗粒物(PM2.5),59,57,53,42,30,80,,49,48,20,20,12,10,0.7,0.7
2024-08-30T1100,1051A,115.493,38.8632,保定市,游泳馆,臭氧1小时,62,70,51,35,29,169,,103,103,17,16,2,2,0.4,0.3
2024-08-30T1100,1052A,115.5213,38.8959,保定市,华电二区,颗粒物(PM10),62,73,47,37,26,143,,83,83,11,12,3,3,0.5,0.3
2024-08-30T1100,1053A,115.4713,38.9108,保定市,接待中心,颗粒物(PM10),52,53,49,34,34,143,,83,83,10,10,3,2,0.7,0.6
2024-08-30T1100,1054A,115.4612,38.8416,保定市,地表水厂,臭氧1小时,69,55,58,34,28,175,,95,95,8,14,3,3,0.5,0.5
2024-08-30T1100,3581A,115.31981,38.95208,保定市,满城区生态环境分局,颗粒物(PM10),56,61,61,29,28,160,,77,77,13,16,4,3,0.6,0.5
2024-08-30T1100,3582A,115.47694,38.76408,保定市,清苑区第二中学,臭氧1小时,62,55,56,36,30,169,,92,92,6,12,4,4,0.6,0.6
2024-08-30T1100,3583A,115.62909,39.02311,保定市,徐水物探局,,49,49,54,27,29,149,,66,66,8,23,5,5,0.6,0.7
2024-08-30T1100,4004A,115.4202,38.8656,保定市,双鹰农机,颗粒物(PM10),55,60,58,33,31,163,,78,78,16,17,6,4,0.4,0.3
2024-08-30T1100,4034A,115.5150,38.8590,保定市,植保所站,颗粒物(PM10),59,67,51,39,31,159,,89,89,12,15,6,5,0.5,0.5
2024-08-30T1100,2594A,99.1678,25.1081,保山市,市环境监测站,,38,38,30,22,16,46,,24,22,14,9,8,6,0.4,0.3
2024-08-30T1100,2595A,99.1711,25.1328,保山市,市环保局,,39,39,32,10,12,47,,36,32,16,6,5,3,0.5,0.4
2024-08-30T1100,1866A,109.2262,21.588,北海市,牛尾岭水库,,,,,,,,,,,,,,,,
2024-08-30T1100,1867A,109.1436,21.4086,北海市,海滩公园,,26,12,21,12,9,82,,48,48,5,9,4,4,0.5,0.5
2024-08-30T1100,1868A,109.0981,21.4661,北海市,新市环保局,,28,26,19,19,14,62,,40,40,10,10,3,5,0.8,0.7
2024-08-30T1100,1869A,109.1778,21.5233,北海市,北海工业园,,29,,22,20,15,90,,39,39,9,11,7,9,0.8,0.7
2024-08-30T1100,3400A,109.1911,21.4415,北海市,龙潭自来水厂,,,16,20,,16,76,,41,41,4,7,4,5,0.6,0.6
2024-08-30T1100,1001A,116.3621,39.8784,北京市,万寿西宫,,46,37,51,18,29,147,,74,74,15,21,3,2,0.7,0.7
2024-08-30T1100,1002A,116.2202,40.2915,北京市,定陵,,36,36,35,19,19,82,,50,50,20,13,3,2,0.5,0.3
2024-08-30T1100,1003A,116.4174,39.9289,北京市,东四,,46,39,52,23,31,145,,75,75,15,21,4,4,0.6,0.5
2024-08-30T1100,1004A,116.4072,39.8863,北京市,天坛,,46,37,43,24,29,146,,61,61,16,19,1,3,0.6,0.6
2024-08-30T1100,1005A,116.462,39.9365,北京市,农展馆,,42,42,54,22,30,129,,52,52,16,21,3,3,0.6,0.5
2024-08-30T1100,1006A,116.3392,39.9295,北京市,官园,,46,36,51,14,27,145,,84,84,13,18,4,4,0.6,0.6
2024-08-30T1100,1007A,116.2878,39.9611,北京市,海淀万柳,,46,46,48,27,26,130,,54,54,17,26,3,2,0.6,0.6
2024-08-30T1100,1008A,116.6636,40.135,北京市,顺义新城,,43,29,48,20,27,136,,62,62,8,20,1,2,0.5,0.5
2024-08-30T1100,1009A,116.6275,40.3275,北京市,怀柔镇,,39,34,38,18,24,123,,76,76,9,13,6,6,0.7,0.7
2024-08-30T1100,1010A,116.2296,40.217,北京市,昌平镇,,45,45,39,24,21,88,,62,61,23,13,4,4,0.5,0.5
2024-08-30T1100,1011A,116.3966,39.9821,北京市,奥体中心,,38,35,47,18,26,120,,76,76,17,24,1,1,0.6,0.5
2024-08-30T1100,1012A,116.184,39.9136,北京市,古城,,40,37,49,20,24,128,,64,64,22,28,2,2,0.5,0.5
2024-08-30T1100,3281A,115.9718,40.4529,北京市,延庆夏都,,46,45,40,32,25,96,,37,37,12,13,1,3,0.5,0.5
2024-08-30T1100,3417A,117.0709,40.1465,北京市,平谷新城,颗粒物(PM10),64,78,59,34,27,131,,71,71,2,3,3,3,0.8,0.6
2024-08-30T1100,3418A,116.8336,40.4095,北京市,密云新城,,42,36,39,23,24,134,,88,88,4,9,1,2,0.6,0.5
2024-08-30T1100,3671A,116.088,39.9726,北京市,门头沟三家店,,30,29,37,17,20,93,,41,41,8,11,2,2,0.5,0.5
2024-08-30T1100,3672A,116.1541,39.8204,北京市,丰台云岗,,45,43,44,23,24,144,,51,51,16,23,2,2,0.5,0.4
2024-08-30T1100,3673A,116.6804,39.9081,北京市,通州东关,颗粒物(PM10),58,66,64,39,34,156,,45,45,17,28,1,1,0.7,0.6
2024-08-30T1100,3674A,115.9577,39.7603,北京市,房山燕山,,47,44,36,19,21,149,,63,63,14,10,3,3,0.5,0.4
2024-08-30T1100,3675A,116.4672,39.7733,北京市,大兴旧宫,,47,47,50,26,33,124,,38,38,24,19,3,2,0.7,0.7
2024-08-30T1100,3694A,115.986,40.4563,北京市,延庆石河营,,40,40,37,26,24,86,,28,28,11,13,1,3,0.5,0.4
2024-08-30T1100,3695A,116.6151,40.3053,北京市,怀柔新城,,39,34,38,20,24,124,,89,89,7,8,3,3,0.6,0.5
2024-08-30T1100,3696A,116.2545,39.8768,北京市,丰台小屯,,43,41,50,18,25,135,,57,57,14,30,3,3,0.6,0.6
2024-08-30T1100,3697A,116.84,40.3844,北京市,密云镇,,40,23,43,18,24,126,,59,59,5,20,1,2,0.7,0.6
2024-08-30T1100,1761A,123.8275,41.3064,本溪市,大峪,,37,29,37,14,17,117,,36,36,14,19,11,8,1.4,0.8
2024-08-30T1100,1762A,123.7567,41.3325,本溪市,溪湖,,41,39,55,14,19,131,,38,38,11,22,9,5,1.1,1.1
2024-08-30T1100,1763A,123.7169,41.3094,本溪市,彩屯,,38,24,32,14,24,121,,39,39,15,23,12,10,1.1,1.3
2024-08-30T1100,1764A,123.7669,41.2864,本溪市,东明,,39,30,44,14,18,124,,45,45,15,31,7,6,1.0,0.9
2024-08-30T1100,1765A,123.7992,41.2664,本溪市,新立屯,,38,22,27,8,11,120,,53,53,9,31,5,4,0.7,0.5
2024-08-30T1100,1766A,123.8142,41.3472,本溪市,威宁,,36,32,42,19,21,115,,35,35,19,20,13,9,1.8,1
2024-08-30T1100,2587A,105.2864,27.3125,毕节市,八中,细颗粒物(PM2.5),52,51,36,36,28,56,,51,42,13,12,8,10,0.6,0.5
2024-08-30T1100,2588A,105.31,27.2944,毕节市,师专,颗粒物(PM10),52,53,44,30,26,62,,59,50,18,13,25,14,0.5,0.5
2024-08-30T1100,3537A,105.3631,27.3533,毕节市,长征村,,,64,44,,37,71,,64,53,,8,10,10,,0.6
2024-08-30T1100,1629A,118.0018,37.3617,滨州市,第二水厂,,50,44,51,24,33,160,,67,67,5,24,4,8,0.7,0.8
2024-08-30T1100,1630A,117.9776,37.393,滨州市,北中新校,臭氧1小时,65,58,57,34,32,172,,72,72,11,24,16,10,0.9,0.8
2024-08-30T1100,3514A,117.9378,37.3956,滨州市,中海酒店,臭氧1小时,63,53,53,31,32,170,,96,96,18,19,14,12,0.8,0.8
2024-08-30T1100,3515A,117.9378,37.3553,滨州市,开发区一中,臭氧1小时,54,44,56,31,32,163,,81,81,10,21,7,13,0.6,0.8
2024-08-30T1100,3516A,118.0917,37.694,滨州市,金海六路,颗粒物(PM10),58,66,46,36,17,152,,66,66,8,22,6,9,0.7,0.7
2024-08-30T1100,4028A,117.9956,37.3753,滨州市,滨州市西街道办事处,臭氧1小时,63,51,56,34,38,170,,78,78,5,23,6,9,0.7,0.9
2024-08-30T1100,2311A,115.8072,33.8399,亳州市,污水处理厂,,34,22,30,12,22,107,,58,58,7,13,12,23,0.4,0.5
2024-08-30T1100,2312A,115.7789,33.8518,亳州市,三国揽胜宫,,,,33,14,21,110,,57,57,,9,,16,0.5,0.5
2024-08-30T1100,3332A,115.7633,33.8034,亳州市,亳州学院,,34,17,24,15,12,108,,75,75,5,9,18,9,0.4,0.5
2024-08-30T1100,2693A,82.0485,44.8556,博尔塔拉蒙古自治州,市党校,,20,20,23,7,9,32,,32,31,12,10,4,4,0.6,0.4
2024-08-30T1100,2694A,82.0806,44.8969,博尔塔拉蒙古自治州,市环保局,,36,36,34,13,12,23,,30,24,17,15,5,5,0.6,0.5
2024-08-30T1100,1071A,116.8842,38.2991,沧州市,沧县城建局,,50,50,41,22,25,146,,97,97,10,16,4,5,0.7,0.6
2024-08-30T1100,1072A,116.8584,38.3254,沧州市,电视转播站,细颗粒物(PM2.5),55,41,40,39,29,153,,98,98,9,17,4,5,0.6,0.6
2024-08-30T1100,1073A,116.8709,38.3228,沧州市,市环保局,,45,45,43,28,25,143,,96,96,9,14,5,5,0.5,0.5
2024-08-30T1100,3324A,116.8136,38.3004,沧州市,河北水利电力学院,颗粒物(PM10),54,58,49,35,29,156,,104,104,10,20,5,6,0.6,0.5
2024-08-30T1100,2622A,97.1806,31.1273,昌都市,昌都监测站,,23,18,13,9,6,73,,62,58,14,7,6,6,0.5,0.4
2024-08-30T1100,3719A,97.1714,31.1406,昌都市,昌都会议中心,,27,14,13,8,8,84,,68,65,11,5,7,6,0.6,0.5
2024-08-30T1100,2690A,88.1236,43.8886,昌吉回族自治州,天山天池,,20,7,17,3,7,61,,60,60,4,6,4,6,0.5,0.5
2024-08-30T1100,2692A,87.2717,44.0297,昌吉回族自治州,新区政务中心,,16,16,29,3,10,32,,38,30,24,14,10,11,0.7,0.7
2024-08-30T1100,3613A,87.3095,44.0142,昌吉回族自治州,亚心广场,,17,17,27,3,8,50,,54,45,28,21,4,4,0.4,0.3
2024-08-30T1100,1119A,125.3325,43.9166,长春市,食品厂,,50,50,44,26,21,122,,118,118,17,34,3,5,0.9,0.7
2024-08-30T1100,1120A,125.2863,43.9027,长春市,客车厂,,43,43,43,26,20,124,,118,118,15,32,6,8,0.9,0.8
2024-08-30T1100,1121A,125.2841,43.8463,长春市,邮电学院,颗粒物(PM10),53,56,38,22,16,123,,121,121,16,24,6,7,0.8,0.6
2024-08-30T1100,1122A,125.3716,43.8772,长春市,劳动公园,颗粒物(PM10),54,58,44,26,15,135,,124,124,14,21,7,8,0.9,0.7
2024-08-30T1100,1123A,125.3297,43.8805,长春市,园林处,颗粒物(PM10),51,52,36,21,14,125,,126,126,16,22,4,5,0.7,0.6
2024-08-30T1100,1124A,125.4605,43.79,长春市,净月潭,,45,40,25,20,13,142,,87,87,6,6,8,7,0.8,0.6
2024-08-30T1100,1125A,125.7194,43.515,长春市,甩湾子,,,,,,,,,,,,,,,,
2024-08-30T1100,1126A,125.3863,43.8447,长春市,经开区环卫处,,,58,41,22,14,131,,103,103,,31,6,7,,0.7
2024-08-30T1100,1127A,125.245,43.7783,长春市,高新区管委会,颗粒物(PM10),54,58,35,28,18,134,,108,108,10,23,4,4,0.9,0.7
2024-08-30T1100,1128A,125.1761,43.8325,长春市,岱山公园,颗粒物(PM10),52,53,46,26,17,114,,110,110,14,39,3,4,0.8,0.6
2024-08-30T1100,1335A,113.0833,28.2325,长沙市,经开区环保局,,39,39,42,16,28,107,,64,64,15,17,2,2,0.6,0.6
2024-08-30T1100,1336A,112.8872,28.2189,长沙市,高开区环保局,颗粒物(PM10),52,54,41,30,26,108,,63,63,12,12,3,4,0.9,0.8
2024-08-30T1100,1337A,113.0792,28.2053,长沙市,马坡岭,,35,26,41,22,35,110,,60,60,9,15,4,3,0.6,0.7
2024-08-30T1100,1338A,112.9394,28.19,长沙市,湖南师范大学,颗粒物(PM10),53,56,49,26,36,117,,65,65,10,11,4,5,0.7,0.7
2024-08-30T1100,1339A,113.0178,28.1322,长沙市,雨花区环保局,,,24,40,21,20,103,,60,60,9,14,,5,0.5,0.6
2024-08-30T1100,1340A,112.9792,28.2597,长沙市,伍家岭,,47,47,41,27,24,115,,68,68,9,10,2,2,0.8,0.7
2024-08-30T1100,1341A,113.0014,28.1944,长沙市,火车新站,,44,44,40,27,26,110,,70,70,10,10,4,4,0.6,0.6
2024-08-30T1100,1342A,112.9844,28.1178,长沙市,天心区环保局,,32,,49,19,32,100,,43,43,12,17,3,2,0.1,0.2
2024-08-30T1100,1343A,112.8908,28.1308,长沙市,湖南中医药大学,"颗粒物(PM10),细颗粒物(PM2.5)",55,59,42,39,41,113,,59,59,15,12,5,5,0.8,0.8
2024-08-30T1100,1344A,112.9581,28.3611,长沙市,沙坪,细颗粒物(PM2.5),53,,29,37,22,103,,62,62,8,8,7,7,0.6,0.6
2024-08-30T1100,1727A,113.1147,36.1547,长治市,清华站,,43,36,25,19,16,136,,104,104,8,7,7,6,0.7,0.6
2024-08-30T1100,1728A,113.1031,36.1989,长治市,监测站,,,39,29,19,16,134,,97,90,,13,,8,,1
2024-08-30T1100,1730A,113.0886,36.2125,长治市,审计局,,41,36,28,24,17,131,,93,92,12,11,7,5,0.8,0.6
2024-08-30T1100,1731A,113.0844,36.1856,长治市,长治八中,,45,45,34,29,17,130,,100,99,12,11,6,5,0.8,0.6
2024-08-30T1100,2845A,113.1569,36.1911,长治市,德盛苑,,,40,26,24,15,141,,113,113,,7,9,8,0.8,0.7
2024-08-30T1100,3568A,113.06,36.0464,长治市,向阳小学,颗粒物(PM10),51,51,50,24,31,135,,108,108,11,9,7,8,0.6,0.5
2024-08-30T1100,3569A,112.8792,36.3144,长治市,屯留一中,细颗粒物(PM2.5),70,57,44,51,28,127,,76,72,20,11,20,10,1.1,0.9
2024-08-30T1100,3570A,113.235,36.3489,长治市,潞城四中,细颗粒物(PM2.5),62,49,33,44,22,138,,88,88,13,10,6,7,1.0,0.6
2024-08-30T1100,1854A,111.6975,28.9703,常德市,市二中,,35,28,40,24,30,84,,43,43,11,11,7,7,0.7,0.7
2024-08-30T1100,1857A,111.7158,29.1456,常德市,白鹤山,,,,,,,,,,,,,,,,
2024-08-30T1100,3138A,111.7153,29.0289,常德市,武陵区永安,,49,46,45,34,30,88,,71,64,13,10,8,10,0.9,0.7
2024-08-30T1100,3139A,111.6892,28.9881,常德市,鼎城区玉霞,颗粒物(PM10),54,58,45,36,33,83,,35,35,14,14,8,7,0.8,0.8
2024-08-30T1100,3140A,111.6625,29.0531,常德市,武陵区长庚,细颗粒物(PM2.5),58,57,47,41,37,82,,57,53,15,12,8,12,0.8,0.7
2024-08-30T1100,1196A,119.9633,31.762,常州市,市监测站,,40,36,30,16,14,128,,58,58,13,15,6,6,0.6,0.5
2024-08-30T1100,1200A,119.9468,31.7069,常州市,武进监测站,,36,26,27,14,14,115,,57,57,5,11,8,9,0.7,0.8
2024-08-30T1100,1201A,119.9255,31.9087,常州市,安家,,,36,25,20,16,124,,37,37,,17,5,5,,0.6
2024-08-30T1100,3002A,119.9805,31.8174,常州市,行政中心,,39,34,24,26,16,124,,53,53,13,19,8,8,0.7,0.4
2024-08-30T1100,3003A,120.0522,31.7748,常州市,经开区,,42,42,30,21,12,129,,53,53,14,16,9,9,0.8,0.7
2024-08-30T1100,3010A,119.9025,31.7964,常州市,钟楼,,35,34,25,17,13,109,,49,49,16,16,6,7,0.8,0.7
2024-08-30T1100,3429A,119.8598,31.7066,常州市,武进经发区,,39,32,28,18,13,124,,52,52,14,20,11,10,0.4,0.4
2024-08-30T1100,3430A,119.5826,31.7245,常州市,金坛城区,,38,28,25,16,13,121,,58,58,9,15,8,9,0.8,0.7
2024-08-30T1100,2220A,120.4318,41.5881,朝阳市,西梁,,48,48,35,21,22,108,,76,76,19,10,13,9,0.9,0.9
2024-08-30T1100,2221A,120.4521,41.5646,朝阳市,河畔小区,颗粒物(PM10),54,58,36,20,20,120,,94,89,10,5,10,8,1.0,0.9
2024-08-30T1100,2222A,120.4176,41.5648,朝阳市,八里堡,,,63,40,23,22,,,73,73,25,13,11,7,1.0,1
2024-08-30T1100,2223A,120.3806,41.5969,朝阳市,农业园区,颗粒物(PM10),52,53,38,22,27,98,,63,63,11,11,9,7,0.8,0.9
2024-08-30T1100,1705A,116.6367,23.6719,潮州市,西园路,,48,48,30,3,21,78,,34,34,8,9,4,3,0.4,0.5
2024-08-30T1100,3026A,116.6183,23.6608,潮州市,市政府,,39,39,36,18,18,87,,51,51,6,8,6,6,0.7,0.8
2024-08-30T1100,4036A,116.6461,23.6761,潮州市,金山,,43,43,30,27,19,82,,39,39,8,8,6,5,0.6,0.7
2024-08-30T1100,2472A,113.0073,25.9061,郴州市,马头岭,,38,38,39,17,16,91,,44,44,9,10,11,11,0.6,0.7
2024-08-30T1100,2473A,113.0116,25.8226,郴州市,市职中,,48,41,35,33,30,99,,58,58,10,15,11,6,0.7,0.7
2024-08-30T1100,2474A,113.0161,25.8001,郴州市,兴隆步行街,,48,42,42,33,27,108,,60,60,9,12,17,9,0.7,0.7
2024-08-30T1100,2475A,113.0383,25.8071,郴州市,市审计局,细颗粒物(PM2.5),54,45,37,38,30,103,,53,53,8,17,21,8,0.7,0.7
2024-08-30T1100,2476A,113.0348,25.7759,郴州市,市环保局,细颗粒物(PM2.5),58,52,42,41,33,100,,38,38,14,23,33,8,0.9,0.7
2024-08-30T1100,1431A,103.9728,30.7236,成都市,金泉两河,,40,40,31,25,18,77,,58,58,6,6,3,3,0.5,0.5
2024-08-30T1100,1432A,104.176,30.6872,成都市,十里店,,41,41,31,28,20,68,,44,44,7,4,3,3,0.7,0.6
2024-08-30T1100,1433A,104.079,30.5706,成都市,三瓦窑,,42,36,33,29,23,84,,57,57,14,15,5,3,0.4,0.4
2024-08-30T1100,1434A,104.1114,30.63,成都市,沙河铺,,41,41,36,25,19,83,,55,55,17,16,8,6,0.6,0.5
2024-08-30T1100,1437A,104.0786,30.6531,成都市,君平街,,42,42,31,28,17,84,,56,56,12,12,6,6,0.8,0.7
2024-08-30T1100,1438A,103.613,31.0283,成都市,灵岩寺,,,,,,,,,,,,,,,,
2024-08-30T1100,2880A,104.0239,30.65639,成都市,大石西路,,24,14,33,3,16,75,,52,52,13,12,6,6,0.5,0.5
2024-08-30T1100,3136A,104.2725,30.5589,成都市,龙泉驿区区政府,,36,36,33,22,19,72,,50,50,20,14,8,6,0.5,0.4
2024-08-30T1100,3357A,104.0106,30.6931,成都市,金博路,,26,26,30,3,14,70,,47,47,1,2,3,2,0.6,0.6
2024-08-30T1100,3359A,104.0578,30.5225,成都市,华阳,,41,41,36,17,15,69,,48,48,18,13,5,3,0.9,0.9
2024-08-30T1100,3487A,104.2394,30.5319,成都市,车城东七路,,48,48,42,22,4,73,,50,50,18,15,7,3,0.7,0.6
2024-08-30T1100,3488A,104.3853,30.7453,成都市,青白江技师分院,,,,28,51,21,,,43,38,14,13,12,2,,0.8
2024-08-30T1100,3489A,104.0789,30.4072,成都市,科学城,,40,40,38,26,27,93,,54,53,13,11,6,4,0.6,0.6
2024-08-30T1100,4011A,103.8506,30.6947,成都市,光华大道三段,,48,39,30,33,14,87,,66,66,9,8,3,4,0.6,0.7
2024-08-30T1100,1062A,117.9531,40.9081,承德市,铁路,,40,40,38,14,17,89,,35,35,26,24,10,9,0.5,0.5
2024-08-30T1100,1063A,117.9392,40.9763,承德市,中国银行,,41,41,36,25,17,110,,36,36,19,20,5,5,0.6,0.6
2024-08-30T1100,1064A,117.9503,40.928,承德市,开发区,,43,43,36,13,14,106,,36,36,22,20,7,8,0.6,0.6
2024-08-30T1100,1065A,117.8051,40.9655,承德市,文化中心,颗粒物(PM10),56,62,48,35,20,111,,42,42,27,24,79,15,1.0,0.6
2024-08-30T1100,1066A,117.9268,41.0026,承德市,离宫,,45,45,33,11,17,94,,31,31,13,10,3,3,0.5,0.4
2024-08-30T1100,2314A,117.47,30.6618,池州市,池州学院,,44,44,38,26,24,102,,56,56,22,15,10,6,0.9,0.8
2024-08-30T1100,3237A,117.4918,30.6617,池州市,展览馆,,,52,36,24,20,102,,44,44,,12,,5,1.0,0.8
2024-08-30T1100,3333A,117.5627,30.695,池州市,第八中学,,41,35,34,23,18,129,,56,56,11,13,4,4,0.8,0.7
2024-08-30T1100,3334A,117.5038,30.6243,池州市,第十二中学,,36,32,31,20,20,115,,42,42,8,18,4,4,0.8,1
2024-08-30T1100,1744A,118.9233,42.2816,赤峰市,松山一中,,,26,23,3,9,86,,86,75,10,20,10,10,,0.6
2024-08-30T1100,1745A,118.9576,42.2728,赤峰市,哈达街,,25,22,25,12,13,78,,83,74,15,16,9,9,0.2,0.4
2024-08-30T1100,1746A,118.8788,42.2554,赤峰市,天义路,,28,12,20,3,15,87,,85,76,11,16,7,9,0.2,0.3
2024-08-30T1100,3058A,119.2658,42.0353,赤峰市,银河街,,33,33,41,13,21,80,,47,47,9,14,14,16,0.3,0.5
2024-08-30T1100,3286A,118.9359,42.3147,赤峰市,桥北物流园区,,30,,31,21,15,89,,61,61,10,27,6,12,0.4,0.6
2024-08-30T1100,2521A,107.3476,22.4136,崇左市,市环保局江州分局,,26,24,29,18,17,53,,28,28,5,7,6,6,0.8,0.7
2024-08-30T1100,2522A,107.3702,22.3707,崇左市,城南新区,,,24,23,18,16,56,,33,33,,8,,5,0.7,0.8
2024-08-30T1100,2298A,118.3093,32.3153,滁州市,老年大学,,46,36,27,19,14,146,,66,66,13,10,10,7,0.4,0.3
2024-08-30T1100,2299A,118.3244,32.2786,滁州市,人大宾馆,,45,38,28,14,16,142,,62,62,9,12,8,6,0.5,0.4
2024-08-30T1100,3207A,118.3118,32.3038,滁州市,市政府原办公楼,,45,36,24,20,16,144,,62,62,10,10,8,7,0.5,0.4
2024-08-30T1100,3331A,118.3267,32.2634,滁州市,图书馆,,44,42,28,13,15,140,,60,60,9,8,6,5,0.3,0.2
2024-08-30T1100,2605A,101.5482,25.0441,楚雄彝族自治州,州环境监测站,,,,,,,,,,,,,,,,
2024-08-30T1100,2606A,101.538,25.0492,楚雄彝族自治州,市经济开发区,,20,20,26,8,11,52,,21,21,6,13,6,6,0.5,0.5
2024-08-30T1100,2548A,107.5277,31.2827,达州市,达州职业技术学院,,,25,31,6,13,,,40,40,3,11,5,6,0.6,0.7
2024-08-30T1100,2549A,107.5086,31.2186,达州市,市环境监测站,,30,25,28,7,8,94,,55,55,17,25,6,7,0.5,0.5
2024-08-30T1100,2550A,107.4988,31.2132,达州市,凤凰小区,,34,24,18,9,10,106,,72,72,10,17,6,6,0.4,0.4
2024-08-30T1100,2551A,107.5082,31.1986,达州市,达县机关宾馆,,32,24,24,3,8,102,,60,60,16,26,4,5,0.3,0.4
2024-08-30T1100,2552A,107.4644,31.2124,达州市,市政中心,,36,36,27,7,8,106,,82,82,12,15,4,4,0.3,0.3
2024-08-30T1100,2614A,100.1542,25.7054,大理白族自治州,大理市环境监测站,,50,50,28,16,14,73,,57,53,7,7,4,4,0.5,0.5
2024-08-30T1100,2615A,100.2171,25.5811,大理白族自治州,大理古城,,26,23,24,18,15,73,,54,50,8,13,7,8,0.2,0.4
2024-08-30T1100,1109A,121.612,38.9741,大连市,甘井子,,,30,28,17,18,168,,101,101,14,21,7,6,,0.2
2024-08-30T1100,1110A,121.565,38.9511,大连市,周水子,,48,31,24,24,15,152,,96,96,13,25,7,5,0.8,0.8
2024-08-30T1100,1111A,121.5637,38.8845,大连市,星海三站,,44,27,24,18,14,140,,99,99,10,12,8,7,0.5,0.5
2024-08-30T1100,1112A,121.6302,38.9117,大连市,青泥洼桥,,46,28,28,18,16,147,,106,106,9,12,9,9,0.7,0.5
2024-08-30T1100,1113A,121.6251,38.8638,大连市,傅家庄,,50,,22,22,16,158,,126,126,9,10,8,9,0.6,0.6
2024-08-30T1100,1114A,121.5213,38.8661,大连市,七贤岭,,45,21,25,16,15,144,,83,83,14,14,8,7,0.5,0.5
2024-08-30T1100,1115A,121.2529,38.8061,大连市,旅顺,,44,39,21,18,15,139,,107,107,21,20,8,6,0.6,0.5
2024-08-30T1100,1116A,121.7485,39.1311,大连市,金州,,45,31,27,20,16,144,,91,91,12,16,8,7,0.8,0.4
2024-08-30T1100,1117A,121.7811,39.0496,大连市,开发区,,48,34,36,23,18,152,,93,93,18,22,11,9,0.7,0.5
2024-08-30T1100,1118A,121.9762,39.0631,大连市,双D港,臭氧1小时,52,25,23,16,15,161,,103,103,17,17,8,7,0.7,0.6
2024-08-30T1100,1789A,124.81117,46.03138,大庆市,大同区,,23,,17,14,15,73,,51,51,3,5,8,8,0.3,0.4
2024-08-30T1100,1790A,125.129,46.533,大庆市,龙凤区,,,20,29,11,14,70,,70,67,10,8,3,3,,0.3
2024-08-30T1100,1791A,124.902,46.408,大庆市,红岗区,,22,22,25,12,14,67,,63,60,6,9,9,10,0.3,0.4
2024-08-30T1100,1792A,125.153,46.586,大庆市,萨尔图区,,20,,17,8,8,61,,67,61,11,8,6,6,0.3,0.3
2024-08-30T1100,1793A,124.9042,46.6215,大庆市,让胡路区,,20,14,22,6,10,64,,56,51,6,11,5,6,0.3,0.3
2024-08-30T1100,3481A,125.141,46.634,大庆市,萨区政府监测点,,20,20,19,13,6,54,,64,56,26,7,7,5,0.3,0.2
2024-08-30T1100,1721A,113.3819,40.1097,大同市,果树场,,,,,,,,,,,,,,,,
2024-08-30T1100,1723A,113.2994,40.0758,大同市,云冈宾馆,,47,47,62,16,25,123,,51,51,24,35,18,12,0.8,0.7
2024-08-30T1100,1724A,113.3444,40.0917,大同市,大同大学,颗粒物(PM10),55,60,46,22,21,119,,68,68,24,24,18,15,0.9,0.6
2024-08-30T1100,1725A,113.2661,40.1269,大同市,安家小村,颗粒物(PM10),51,51,58,15,19,138,,50,50,12,27,17,15,0.6,0.6
2024-08-30T1100,1726A,113.2711,40.0844,大同市,教育学院,颗粒物(PM10),55,59,71,22,27,123,,38,38,26,44,23,19,0.8,0.8
2024-08-30T1100,3282A,113.3397,40.0597,大同市,大同市卫生学校,,,56,56,27,25,111,,60,60,,33,17,13,,0.8
2024-08-30T1100,3565A,113.1367,40.1122,大同市,云冈站,颗粒物(PM10),53,56,66,22,22,150,,40,40,11,30,18,15,0.7,0.5
2024-08-30T1100,3566A,113.1186,40.2556,大同市,图书馆,,45,42,43,24,23,141,,46,46,15,16,21,12,0.6,0.4
2024-08-30T1100,3567A,113.5931,40.0461,大同市,区一中,,45,45,42,20,16,119,,54,54,20,17,41,18,0.7,0.7
2024-08-30T1100,3676A,113.2802,40.0995,大同市,第二人民医院,,48,48,70,21,29,131,,40,40,17,37,20,15,0.7,0.7
2024-08-30T1100,2269A,124.1069,50.4097,大兴安岭地区,科技局,,21,,10,13,12,67,,34,34,3,4,6,5,0.2,0.2
2024-08-30T1100,3663A,124.1164,50.4278,大兴安岭地区,红旗社区,,20,6,9,3,9,64,,27,27,2,8,6,6,0.3,0.3
2024-08-30T1100,1600A,124.3303,40.0625,丹东市,江湾东路,,44,44,42,21,20,81,,27,27,8,14,8,4,0.9,0.9
2024-08-30T1100,1601A,124.4256,40.1503,丹东市,临江后街,,43,43,42,23,27,103,,37,37,4,11,9,7,0.7,0.7
2024-08-30T1100,1602A,124.3933,40.1461,丹东市,元宝山,,34,34,30,17,14,84,,26,26,11,12,5,2,0.8,0.7
2024-08-30T1100,1603A,124.3633,40.1092,丹东市,民主桥,,40,40,33,18,17,90,,28,28,9,20,7,4,0.7,0.7
2024-08-30T1100,3541A,109.5726,19.5167,儋州市,第一中学子站,,27,27,22,16,12,72,,45,45,4,7,6,6,0.4,0.4
2024-08-30T1100,3542A,109.5567,19.5187,儋州市,东坡学校子站,,23,23,19,15,13,73,,44,44,3,5,6,6,0.5,0.5
2024-08-30T1100,2616A,98.5842,24.428,德宏傣族景颇族自治州,德宏州监测站,,38,38,31,21,17,34,,13,13,12,11,15,13,0.7,0.7
2024-08-30T1100,3677A,98.5881,24.4368,德宏傣族景颇族自治州,芒市人民政府综合楼,,,29,29,23,18,32,,14,14,14,13,,10,,0.7
2024-08-30T1100,1901A,104.4239,31.1208,德阳市,东山公园,,24,24,18,14,12,57,,41,36,11,12,5,5,0.6,0.6
2024-08-30T1100,1902A,104.3826,31.1317,德阳市,西小区,,29,29,24,16,15,59,,36,36,13,13,6,6,0.6,0.6
2024-08-30T1100,1904A,104.3553,31.1091,德阳市,耐火材料厂,,31,31,23,13,14,61,,39,39,8,10,6,6,0.5,0.5
2024-08-30T1100,3639A,104.4019,31.1244,德阳市,市教育局,,32,32,25,17,13,58,,41,39,10,12,4,6,0.6,0.6
2024-08-30T1100,1622A,116.3032,37.4674,德州市,儿童乐园,细颗粒物(PM2.5),55,58,51,39,34,160,,106,106,6,12,11,10,0.6,0.7
2024-08-30T1100,1624A,116.2991,37.4451,德州市,监理站,,,53,51,34,37,163,,108,108,8,16,,9,0.7,0.8
2024-08-30T1100,3066A,116.2721,37.4379,德州市,九衢泉纯净水厂,颗粒物(PM10),53,56,61,31,34,155,,91,91,8,22,10,8,0.7,0.8
2024-08-30T1100,3371A,116.3728,37.4403,德州市,开发区人民医院,,,61,55,24,29,154,,78,78,,22,,9,0.8,0.8
2024-08-30T1100,3372A,116.3572,37.4094,德州市,太阳城中学,,50,48,47,27,29,158,,78,78,8,24,11,11,0.8,0.8
2024-08-30T1100,3511A,116.5652,37.3319,德州市,陵城艺术中心,颗粒物(PM10),52,53,50,24,25,154,,96,96,12,20,12,11,0.4,0.5
2024-08-30T1100,2621A,99.7056,27.8317,迪庆藏族自治州,迪庆州站,,41,41,31,27,17,81,,48,46,16,10,10,9,0.5,0.4
2024-08-30T1100,3180A,99.7136,27.8094,迪庆藏族自治州,质量技术监督局,,42,42,28,8,13,79,,63,55,17,12,8,10,0.6,0.5
2024-08-30T1100,2663A,104.6241,35.5734,定西市,东关小学,,26,26,26,14,18,62,,62,61,5,6,3,3,0.3,0.4
2024-08-30T1100,2664A,104.6194,35.5934,定西市,供电公司,,32,26,31,22,24,65,,65,63,2,5,6,6,0.3,0.2
2024-08-30T1100,1389A,113.7547,23.0494,东莞市,莞城梨川,,43,34,28,30,13,107,,51,51,12,17,4,4,0.7,0.7
2024-08-30T1100,1390A,113.7944,23.0128,东莞市,东城石井,,39,32,31,22,19,122,,57,57,14,18,4,5,0.6,0.7
2024-08-30T1100,1391A,113.7383,22.9658,东莞市,南城西平,,39,34,35,27,21,106,,40,40,14,29,7,7,0.7,0.8
2024-08-30T1100,3319A,113.7338,23.0381,东莞市,万江金泰,,38,36,28,26,19,108,,52,52,14,18,6,6,0.8,0.8
2024-08-30T1100,3626A,113.7533,23.0202,东莞市,南城元岭,,41,41,32,28,20,108,,53,53,12,14,6,7,0.8,0.8
2024-08-30T1100,3627A,113.7875,23.0457,东莞市,东城主山,,38,38,30,24,18,114,,55,55,11,16,7,7,0.7,0.7
2024-08-30T1100,1666A,118.6614,37.4309,东营市,市环保局,臭氧1小时,108,66,36,41,18,215,,112,112,17,17,19,9,0.6,0.4
2024-08-30T1100,3036A,118.6904,37.4338,东营市,开发区管委会,臭氧1小时,108,84,41,36,18,216,,104,104,19,17,16,8,0.6,0.4
2024-08-30T1100,3365A,118.5719,37.565,东营市,垦利区民丰路,臭氧1小时,112,75,39,53,20,223,,116,116,14,13,9,5,1.7,1.4
2024-08-30T1100,3498A,118.5055,37.8612,东营市,河口城区,颗粒物(PM10),59,68,31,39,17,163,,80,80,9,9,8,6,1.0,0.8
2024-08-30T1100,3646A,118.4978,37.4623,东营市,胜利站,,,,30,51,21,181,,82,82,30,26,,12,0.9,0.9
2024-08-30T1100,3734A,118.35,37.26,东营市,理想之城,臭氧1小时,75,61,37,39,23,180,,88,88,14,20,14,8,0.6,0.5
2024-08-30T1100,1591A,110.0023,39.8129,鄂尔多斯市,综合楼,,,53,54,22,17,122,,81,81,,20,15,11,,0.8
2024-08-30T1100,1592A,109.9486,39.8261,鄂尔多斯市,巴音孟克林场办事处,颗粒物(PM10),53,56,49,19,19,74,,74,66,48,21,12,10,0.8,0.8
2024-08-30T1100,1593A,109.7736,39.5986,鄂尔多斯市,康泽苑,颗粒物(PM10),52,53,41,19,15,113,,47,47,17,16,12,8,1.0,0.7
2024-08-30T1100,1594A,109.8119,39.5989,鄂尔多斯市,华泰汽车城,颗粒物(PM10),51,51,41,29,22,98,,36,36,20,20,16,10,0.7,0.6
2024-08-30T1100,1595A,109.9734,39.7884,鄂尔多斯市,奥林花园,,41,39,48,17,17,131,,53,53,12,25,9,6,0.7,0.8
2024-08-30T1100,2436A,114.8938,30.3994,鄂州市,市政府,,42,39,41,17,19,134,,92,92,16,17,14,10,0.9,1
2024-08-30T1100,2437A,114.8989,30.3714,鄂州市,赵家坝,,,,42,,18,121,,51,51,21,19,,9,0.7,0.9
2024-08-30T1100,3654A,114.8094,30.4089,鄂州市,精准医疗中心,颗粒物(PM10),57,64,37,16,16,113,,54,54,22,20,13,8,0.8,0.7
2024-08-30T1100,2454A,109.4978,30.2981,恩施土家族苗族自治州,湖北民院,,33,33,21,12,12,97,,68,68,20,14,8,8,0.7,0.6
2024-08-30T1100,2455A,109.4707,30.2798,恩施土家族苗族自治州,州电力总公司,,29,25,17,18,13,91,,61,61,13,14,8,8,0.6,0.7
2024-08-30T1100,3549A,109.5061,30.3772,恩施土家族苗族自治州,龙凤新区,,30,,15,21,10,89,,64,64,12,10,7,6,0.7,0.7
2024-08-30T1100,2499A,108.3411,21.6158,防城港市,沙万,,34,34,25,16,13,66,,36,36,17,16,13,9,0.9,0.6
2024-08-30T1100,2500A,108.3514,21.7731,防城港市,防城档案局,,33,33,44,18,16,62,,21,21,9,18,8,7,0.5,0.6
2024-08-30T1100,2501A,108.3506,21.6414,防城港市,大海花园,,33,33,23,14,10,57,,34,34,22,15,14,7,1.1,0.5
2024-08-30T1100,1371A,113.1294,23.0067,佛山市,湾梁,,34,34,23,19,19,89,,31,31,27,30,8,7,0.8,0.8
2024-08-30T1100,1372A,113.1083,23.0478,佛山市,华材职中,,41,41,28,15,19,66,,20,20,37,35,6,6,0.5,0.5
2024-08-30T1100,1373A,113.144,23.0453,佛山市,南海气象局,,45,45,27,13,14,81,,22,22,19,22,6,5,0.6,0.6
2024-08-30T1100,1374A,113.2881,22.8094,佛山市,顺德苏岗,,39,39,26,27,19,95,,33,33,19,23,8,7,0.7,0.8
2024-08-30T1100,1376A,112.8383,22.8678,佛山市,高明孔堂,,44,44,32,29,18,98,,41,41,33,16,7,5,0.8,0.7
2024-08-30T1100,1377A,112.8836,23.1588,佛山市,三水监测站,,42,41,28,29,22,84,,49,49,27,25,5,4,0.5,0.4
2024-08-30T1100,1378A,112.867,23.185,佛山市,三水云东海,,,,29,,26,71,,25,25,29,22,110,13,,0.7
2024-08-30T1100,3625A,113.2544,22.7642,佛山市,容桂街道办,,36,36,24,19,20,101,,38,38,25,27,7,6,0.7,0.8
2024-08-30T1100,1280A,119.3903,26.0543,福州市,鼓山,,,,,,,,,,,,,,,,
2024-08-30T1100,1282A,119.2681,26.0504,福州市,师大,,34,31,38,18,22,108,,56,56,4,10,4,4,0.3,0.4
2024-08-30T1100,1283A,119.2984,26.1028,福州市,五四北路,,,,,16,27,108,,58,58,2,11,3,3,0.5,0.5
2024-08-30T1100,1284A,119.2648,26.0768,福州市,杨桥西路,,34,22,37,16,25,107,,57,57,3,10,3,3,0.5,0.6
2024-08-30T1100,1285A,119.317,26.0746,福州市,紫阳,,,,,,,,,,,,,,,,
2024-08-30T1100,3048A,119.5799,26.0936,福州市,九龙,,37,37,25,20,16,114,,60,60,4,4,6,5,0.5,0.4
2024-08-30T1100,3526A,119.5189,25.9664,福州市,吴航,,34,25,38,18,22,108,,48,48,3,8,5,5,0.8,0.8
2024-08-30T1100,1755A,123.7977,41.8491,抚顺市,望花区,臭氧1小时,53,40,51,25,23,162,,79,79,13,20,17,18,1.0,1
2024-08-30T1100,1756A,123.9161,41.8822,抚顺市,顺城区,臭氧1小时,57,43,52,20,23,165,,63,63,14,31,8,6,0.8,0.9
2024-08-30T1100,1757A,124.0436,41.8611,抚顺市,东洲区,,49,49,40,21,21,138,,65,65,10,14,8,8,0.8,0.8
2024-08-30T1100,1758A,123.9247,41.8642,抚顺市,新抚区,,,25,46,22,22,158,,57,57,13,22,11,10,,0.7
2024-08-30T1100,1759A,124.0972,41.8961,抚顺市,大伙房水库,,46,37,34,25,24,146,,62,62,6,10,6,5,0.9,0.8
2024-08-30T1100,1760A,123.7086,41.8391,抚顺市,沈抚新城,臭氧1小时,65,45,44,26,24,172,,84,84,11,22,12,10,0.7,0.6
2024-08-30T1100,2376A,116.2127,28.0814,抚州市,桐源党溪,,42,42,34,27,19,112,,47,47,3,7,22,8,1.3,1.2
2024-08-30T1100,2377A,116.3544,27.9831,抚州市,市站,,41,41,31,27,20,102,,64,64,5,6,9,8,1.0,0.8
2024-08-30T1100,2378A,116.3565,27.963,抚州市,血防站,颗粒物(PM10),52,54,32,32,19,103,,40,40,12,11,17,5,1.0,0.9
2024-08-30T1100,2379A,116.3564,28.0007,抚州市,采茶剧团,,40,40,31,25,19,103,,52,52,5,7,8,6,0.8,0.7
2024-08-30T1100,2380A,116.385,27.9647,抚州市,医学分院,,45,45,33,22,18,92,,52,52,5,7,4,4,0.7,0.7
2024-08-30T1100,2207A,121.6094,41.998,阜新市,工业园区,,35,35,43,21,25,112,,113,113,10,15,6,8,1.0,1
2024-08-30T1100,2208A,121.6697,42.0279,阜新市,长青街,,47,47,48,19,25,111,,119,119,9,13,6,11,0.9,0.8
2024-08-30T1100,2209A,121.6673,42.0705,阜新市,农业园区,,45,45,41,27,29,101,,110,108,9,13,5,6,0.9,0.9
2024-08-30T1100,2210A,121.6717,42.0224,阜新市,东苑,,48,48,42,18,29,113,,119,117,8,12,7,13,1.1,1
2024-08-30T1100,2211A,121.6506,42.0498,阜新市,玉龙新城,,36,26,40,21,22,113,,113,113,6,11,7,8,1.0,0.8
2024-08-30T1100,2301A,115.8277,32.8929,阜阳市,市监测站,,36,30,23,18,15,113,,59,59,5,8,7,7,0.5,0.5
2024-08-30T1100,2303A,115.8554,32.8605,阜阳市,开发区,,40,40,36,16,19,113,,52,52,19,21,6,8,0.5,0.4
2024-08-30T1100,2875A,115.784,32.8892,阜阳市,阜阳职业技术学院,,37,34,25,15,15,118,,63,63,8,9,8,7,0.5,0.4
2024-08-30T1100,3468A,115.7901,32.8613,阜阳市,市规划展馆,颗粒物(PM10),53,55,31,19,21,115,,67,67,9,10,6,7,0.7,0.4
2024-08-30T1100,3469A,115.836,32.9183,阜阳市,枣园社区,颗粒物(PM10),53,55,36,14,23,103,,48,48,7,16,5,5,0.5,0.5
2024-08-30T1100,2669A,102.9099,34.9841,甘南藏族自治州,州政府,,27,23,46,11,20,85,,40,40,2,15,8,8,0.5,0.6
2024-08-30T1100,3380A,102.8914,34.9617,甘南藏族自治州,甘肃民族师范学院,,29,15,39,14,21,91,,33,33,3,16,4,4,0.5,0.5
2024-08-30T1100,2570A,101.9603,30.0475,甘孜藏族自治州,水桥子,,33,33,28,18,19,80,,27,27,20,17,5,4,0.4,0.4
2024-08-30T1100,3065A,101.9533,29.9972,甘孜藏族自治州,州环保局,,36,36,29,10,10,69,,41,27,18,20,2,2,0.4,0.3
2024-08-30T1100,3414A,115.8347,28.932,赣江新区,桑海产业园,,36,31,22,18,11,115,,41,41,13,19,12,9,0.4,0.4
2024-08-30T1100,2362A,114.9017,25.9149,赣州市,通天岩,,,,,,,,,,,,,,,,
2024-08-30T1100,2363A,114.9367,25.8664,赣州市,地委,,43,43,30,29,20,103,,63,63,11,8,7,5,1.3,1.3
2024-08-30T1100,2364A,114.9461,25.8481,赣州市,气象台,,43,43,34,28,21,97,,64,59,13,9,5,4,0.7,0.7
2024-08-30T1100,2365A,114.9322,25.8333,赣州市,市图书馆,,40,40,31,27,21,109,,74,68,12,8,5,5,0.7,0.7
2024-08-30T1100,2366A,114.8905,25.8471,赣州市,华坚鞋城,,40,37,31,28,18,99,,68,64,7,6,1,2,0.5,0.5
2024-08-30T1100,3109A,115.0093,25.8613,赣州市,赣县区卫计委,,39,39,29,23,19,103,,50,50,11,12,5,6,0.7,0.7
2024-08-30T1100,2683A,106.2319,36.1417,固原市,马园,,28,8,62,8,16,88,,59,59,11,17,5,5,0.7,0.8
2024-08-30T1100,2684A,106.2792,36.0022,固原市,监测站,,28,16,32,14,22,88,,57,57,6,10,4,4,0.3,0.4
2024-08-30T1100,2685A,106.2375,36.0211,固原市,新区,,27,17,32,11,17,85,,48,48,4,11,7,7,0.4,0.5
2024-08-30T1100,3522A,106.2177,35.9959,固原市,原州区十五小,,29,16,26,12,18,92,,66,66,6,10,9,9,0.6,0.7
2024-08-30T1100,2543A,106.6308,30.5278,广安市,小平旧居,,,,,,,,,,,,,,,,
2024-08-30T1100,2544A,106.6303,30.4576,广安市,市委,,39,27,40,17,32,124,,80,80,11,12,4,4,0.5,0.5
2024-08-30T1100,2545A,106.6271,30.4663,广安市,友谊中学,,39,21,39,21,30,122,,82,82,10,13,6,5,0.5,0.6
2024-08-30T1100,2547A,106.6388,30.4551,广安市,广电花园,,40,30,44,19,32,125,,80,80,10,12,3,3,0.5,0.6
2024-08-30T1100,2902A,106.6351,30.4865,广安市,北辰小学,,39,34,49,17,30,123,,81,81,8,11,6,6,0.4,0.5
2024-08-30T1100,2523A,105.8945,32.4535,广元市,黑石坡,,36,,23,25,20,14,,10,7,18,11,9,7,0.8,0.6
2024-08-30T1100,2524A,105.821,32.4444,广元市,老城,,37,37,26,16,12,23,,28,22,29,21,1,5,1.0,1
2024-08-30T1100,2526A,105.8628,32.4287,广元市,监测站,,30,30,21,8,10,46,,28,28,17,17,6,8,0.7,0.8
2024-08-30T1100,3617A,105.8047,32.4166,广元市,经开区,,38,38,32,20,22,20,,10,10,32,21,5,8,0.8,0.8
2024-08-30T1100,1345A,113.2347,23.1423,广州市,广雅中学,,30,28,22,20,14,95,,48,48,20,31,5,5,0.8,0.7
2024-08-30T1100,1346A,113.2612,23.105,广州市,市五中,,39,36,23,27,15,106,,59,59,18,19,3,3,0.7,0.7
2024-08-30T1100,1348A,113.3478,23.0916,广州市,广东商学院,,40,39,24,28,16,82,,31,31,29,29,4,4,0.7,0.7
2024-08-30T1100,1349A,113.4332,23.1047,广州市,市八十六中,,30,29,24,20,15,93,,39,39,17,32,3,3,0.7,0.7
2024-08-30T1100,1350A,113.3505,22.9483,广州市,番禺中学,,33,32,26,16,16,103,,39,39,16,28,5,5,0.7,0.8
2024-08-30T1100,1351A,113.2146,23.3916,广州市,花都师范,,30,30,22,17,13,83,,43,43,20,24,4,4,0.8,0.7
2024-08-30T1100,1352A,113.2597,23.1331,广州市,市监测站,,30,30,21,18,14,92,,42,42,17,28,4,4,0.8,0.8
2024-08-30T1100,1353A,113.5618,23.312,广州市,九龙镇镇龙,,34,34,19,17,10,82,,47,47,10,12,6,6,0.6,0.6
2024-08-30T1100,1354A,113.2765,23.1544,广州市,麓湖,,30,30,24,19,14,90,,30,30,19,30,4,4,0.7,0.7
2024-08-30T1100,1355A,113.443,23.3035,广州市,帽峰山森林公园,,26,20,14,13,7,83,,41,41,8,7,4,4,0.4,0.5
2024-08-30T1100,2846A,113.3221,23.1322,广州市,体育西,,,35,21,25,15,81,,41,41,,17,4,4,0.8,0.8
2024-08-30T1100,3298A,113.5717,23.5491,广州市,从化街口,,25,20,20,17,11,68,,26,26,8,14,3,3,0.6,0.6
2024-08-30T1100,3299A,113.3472,23.3692,广州市,白云竹料,,30,30,23,12,13,73,,31,31,12,17,4,4,0.6,0.7
2024-08-30T1100,3300A,113.2981,23.237,广州市,白云嘉禾,,29,28,27,15,14,90,,34,34,17,33,4,4,0.8,0.8
2024-08-30T1100,3301A,113.4256,23.1716,广州市,黄埔科学城,,30,26,23,19,14,94,,42,42,15,19,4,3,0.7,0.7
2024-08-30T1100,3302A,113.3942,23.0483,广州市,番禺大学城,,28,28,24,18,15,78,,26,26,24,30,9,7,0.7,0.7
2024-08-30T1100,3303A,113.4922,22.8168,广州市,南沙黄阁,,,43,34,19,27,116,,34,34,,33,,5,0.7,0.8
2024-08-30T1100,3304A,113.5342,22.7896,广州市,南沙街,,35,28,32,19,22,111,,35,35,16,23,5,4,0.8,0.8
2024-08-30T1100,3443A,113.2902,23.5544,广州市,花都梯面,,,,20,,12,69,,26,26,7,15,,5,,0.7
2024-08-30T1100,3445A,113.7858,23.7478,广州市,从化良口,,26,23,20,18,15,54,,34,34,4,7,6,6,0.7,0.8
2024-08-30T1100,3446A,113.8051,23.2614,广州市,增城荔城,,30,29,20,21,13,85,,50,50,7,9,4,4,0.6,0.6
2024-08-30T1100,2505A,109.568,23.1478,贵港市,德智高中,,,,,,,,,,,,,,,,
2024-08-30T1100,2506A,109.6047,23.0666,贵港市,江南子站,,46,46,48,31,20,83,,30,30,14,17,10,8,0.8,0.7
2024-08-30T1100,2507A,109.6014,23.0948,贵港市,贵城子站,颗粒物(PM10),51,51,42,34,20,69,,33,33,14,17,9,8,0.8,0.7
2024-08-30T1100,2508A,109.5669,23.1065,贵港市,荷城子站,颗粒物(PM10),56,61,39,29,15,77,,34,34,15,15,12,10,0.7,0.6
2024-08-30T1100,3405A,109.5886,23.1172,贵港市,新世纪学校,颗粒物(PM10),58,66,43,29,18,70,,31,31,16,15,10,9,0.8,0.7
2024-08-30T1100,1439A,106.6899,26.5998,贵阳市,马鞍山,,27,27,24,17,11,56,,58,55,14,11,6,7,0.6,0.5
2024-08-30T1100,1440A,106.6971,26.5694,贵阳市,市环保站,,39,29,31,27,26,49,,54,48,21,14,4,4,0.3,0.3
2024-08-30T1100,1441A,106.6243,26.6266,贵阳市,鉴湖路,,,19,28,17,17,63,,46,46,7,9,6,5,,0.4
2024-08-30T1100,1442A,106.7487,26.6343,贵阳市,燕子冲,,35,31,23,24,22,56,,62,58,14,8,7,9,0.7,0.6
2024-08-30T1100,1443A,106.6555,26.4365,贵阳市,碧云窝,,27,27,29,14,12,64,,54,53,6,6,5,5,0.4,0.4
2024-08-30T1100,1444A,106.694,26.5161,贵阳市,中院村,,34,34,31,22,18,55,,51,44,13,12,7,6,0.5,0.4
2024-08-30T1100,1445A,106.7109,26.6027,贵阳市,红边门,,49,36,32,34,29,41,,54,48,23,15,5,4,0.7,0.5
2024-08-30T1100,1446A,106.7164,26.5699,贵阳市,新华路,,39,29,27,27,20,40,,35,35,20,13,5,4,0.7,0.4
2024-08-30T1100,1447A,106.674,26.5424,贵阳市,太慈桥,,22,14,19,12,14,70,,52,47,9,12,5,5,0.5,0.5
2024-08-30T1100,1552A,106.805,26.3003,贵阳市,桐木岭,,,,,,,,,,,,,,,,
2024-08-30T1100,1862A,110.4144,25.3167,桂林市,电子科大尧山校区,,30,29,33,21,21,93,,78,78,7,6,6,11,0.7,0.7
2024-08-30T1100,1863A,110.2819,25.2697,桂林市,监测站,,36,35,35,25,23,79,,61,61,7,8,11,11,0.5,0.6
2024-08-30T1100,1864A,110.3089,25.2708,桂林市,龙隐路小学,,38,38,31,23,22,99,,75,75,6,6,20,14,0.5,0.5
2024-08-30T1100,1865A,110.2869,25.2178,桂林市,八中,,46,46,30,20,21,96,,76,76,7,8,11,11,0.6,0.5
2024-08-30T1100,3403A,110.1764,25.2381,桂林市,创业大厦,,35,29,32,24,26,85,,72,72,7,7,7,10,0.5,0.4
2024-08-30T1100,3531A,110.296,25.1253,桂林市,旅游学院,,29,19,23,17,19,92,,64,64,4,7,9,8,0.6,0.5
2024-08-30T1100,2674A,100.2561,34.4714,果洛藏族自治州,玛沁县大武镇,,33,13,18,3,12,103,,72,67,4,5,6,6,0.4,0.4
2024-08-30T1100,1129A,126.5422,45.755,哈尔滨市,岭北,,30,19,39,17,21,93,,79,79,14,22,15,13,0.5,0.9
2024-08-30T1100,1130A,126.561,45.8167,哈尔滨市,松北商大,,49,49,37,12,12,74,,55,55,12,21,8,8,0.6,0.6
2024-08-30T1100,1131A,126.979,45.5419,哈尔滨市,阿城会宁,,,65,38,28,17,91,,49,49,,15,,8,0.8,0.7
2024-08-30T1100,1132A,126.599,45.7222,哈尔滨市,南岗学府路,,49,49,58,12,16,83,,69,69,16,27,7,8,0.5,0.5
2024-08-30T1100,1133A,126.689,45.7733,哈尔滨市,太平宏伟公园,,,59,50,15,14,68,,56,56,19,24,6,8,,0.6
2024-08-30T1100,1134A,126.635,45.7667,哈尔滨市,道外承德广场,,48,48,56,13,18,60,,59,59,32,33,12,13,0.5,0.5
2024-08-30T1100,1135A,126.685,45.7319,哈尔滨市,香坊红旗大街,,34,34,63,21,24,74,,58,58,23,41,8,10,0.8,0.8
2024-08-30T1100,1136A,126.6411,45.7258,哈尔滨市,动力和平路,,,86,62,,20,76,,58,58,20,36,6,7,0.6,0.6
2024-08-30T1100,1137A,126.593,45.7478,哈尔滨市,道里建国路,颗粒物(PM10),63,75,51,17,19,76,,69,69,16,25,12,10,0.5,0.8
2024-08-30T1100,1138A,126.615,45.61,哈尔滨市,平房东轻厂,颗粒物(PM10),56,61,38,15,13,66,,55,55,22,16,5,6,0.5,0.4
2024-08-30T1100,1139A,126.595,45.9855,哈尔滨市,呼兰师专,,47,47,38,17,15,76,,61,61,13,19,10,10,0.7,0.6
2024-08-30T1100,1140A,126.6206,45.6842,哈尔滨市,省农科院,颗粒物(PM10),53,55,88,16,26,69,,44,44,20,52,11,11,0.4,0.4
2024-08-30T1100,2688A,93.5128,42.8172,哈密市,地区监测站,颗粒物(PM10),159,267,93,45,22,66,,103,90,24,14,3,3,0.5,0.2
2024-08-30T1100,2689A,93.4961,42.8328,哈密市,哈密师范学校,颗粒物(PM10),118,186,76,50,22,68,,102,91,20,18,4,5,0.9,0.6
2024-08-30T1100,2671A,100.9048,36.9639,海北藏族自治州,海晏县西海镇,,35,19,18,8,14,110,,102,95,8,7,16,15,0.6,0.5
2024-08-30T1100,3867A,102.0738,36.5056,海东市,平安区公安北苑,,43,40,34,30,25,72,,50,39,20,17,14,14,0.7,0.7
2024-08-30T1100,1409A,110.576,19.9507,海口市,东寨港,,,,,,,,,,,,,,,,
2024-08-30T1100,1410A,110.3232,20.0574,海口市,海南大学,,31,18,21,12,13,98,,79,79,10,10,6,6,0.5,0.5
2024-08-30T1100,1411A,110.283,20.0053,海口市,秀英海南医院,,,,21,15,14,87,,64,64,11,12,,7,0.4,0.4
2024-08-30T1100,1412A,110.338,19.9969,海口市,海南师范大学,,28,16,21,12,14,87,,72,72,6,8,5,6,0.4,0.5
2024-08-30T1100,1413A,110.33,20.0356,海口市,龙华路环保局宿舍,,28,18,18,8,10,87,,74,74,9,8,4,5,0.3,0.3
2024-08-30T1100,3539A,110.5111,19.9736,海口市,桂林洋子站,,25,16,20,7,12,78,,53,53,7,8,5,5,0.4,0.5
2024-08-30T1100,2673A,100.6188,36.2866,海南藏族自治州,共和县恰卜恰镇,,33,26,24,22,13,104,,89,85,6,8,13,12,0.5,0.5
2024-08-30T1100,2676A,97.3731,37.3753,海西蒙古族藏族自治州,德令哈市,,29,28,32,12,11,92,,107,98,8,8,8,9,0.5,0.5
2024-08-30T1100,1048A,114.5302,36.6116,邯郸市,东污水处理厂,颗粒物(PM10),54,58,53,31,28,143,,68,68,6,11,4,3,1.2,0.7
2024-08-30T1100,1049A,114.4918,36.5713,邯郸市,矿院,颗粒物(PM10),53,56,47,29,28,153,,70,70,2,7,6,3,1.3,0.7
2024-08-30T1100,1050A,114.484,36.6133,邯郸市,丛台公园,,45,45,41,25,24,140,,75,75,7,9,7,4,1.1,0.6
2024-08-30T1100,3458A,114.7895,36.5593,邯郸市,香泉濮院小区,颗粒物(PM10),54,57,50,26,24,142,,94,94,5,5,2,2,0.5,0.5
2024-08-30T1100,3579A,114.50634,36.77178,邯郸市,永年区实验高中,,42,40,59,22,28,132,,62,62,8,10,4,3,1.9,1.2
2024-08-30T1100,3580A,114.20016,36.44293,邯郸市,峰峰矿区临水派出所,,43,,31,10,21,136,,104,102,2,7,8,7,0.7,0.8
2024-08-30T1100,2634A,106.9893,33.1842,汉中市,汉川机床厂子校,,26,20,24,12,12,83,,58,58,5,7,4,4,0.7,0.7
2024-08-30T1100,2635A,107.0154,33.0706,汉中市,市监测站,,30,30,37,17,21,75,,62,62,8,8,8,8,0.7,0.7
2024-08-30T1100,2636A,107.0089,33.1138,汉中市,鑫源开发区,,26,26,33,13,19,79,,57,57,6,9,9,9,0.6,0.6
2024-08-30T1100,2637A,107.007,33.0323,汉中市,南郑大河坎水厂,,23,21,40,16,27,71,,31,31,8,9,8,8,0.7,0.7
2024-08-30T1100,1223A,120.2072,30.2111,杭州市,滨江,,41,41,30,19,15,129,,55,55,13,18,4,4,0.6,0.7
2024-08-30T1100,1224A,120.0633,30.2747,杭州市,西溪,,45,29,27,22,16,143,,47,47,16,17,6,6,0.7,0.6
2024-08-30T1100,1226A,120.3461,30.3153,杭州市,下沙,臭氧1小时,52,44,33,20,15,161,,72,72,15,27,8,7,0.6,0.6
2024-08-30T1100,1227A,120.1269,30.2456,杭州市,卧龙桥,,49,,24,33,17,155,,54,54,18,16,6,5,0.6,0.6
2024-08-30T1100,1228A,120.1903,30.2692,杭州市,浙江农大,,38,24,26,12,16,119,,58,58,14,23,8,9,0.5,0.6
2024-08-30T1100,1230A,120.1197,30.3119,杭州市,和睦小学,,48,29,24,18,14,153,,74,74,13,18,7,7,0.7,0.7
2024-08-30T1100,1231A,120.3019,30.4183,杭州市,临平镇,,47,34,33,16,14,150,,66,66,7,16,5,4,0.6,0.6
2024-08-30T1100,1232A,120.2697,30.1819,杭州市,城厢镇,颗粒物(PM10),54,57,28,30,17,148,,57,57,20,16,6,5,0.5,0.8
2024-08-30T1100,1233A,120.0883,30.1808,杭州市,云栖,,44,28,18,15,12,138,,45,45,18,18,6,6,0.7,0.6
2024-08-30T1100,3557A,119.9464,30.0494,杭州市,镇二中,,39,22,22,16,16,122,,32,32,10,22,8,7,0.7,0.7
2024-08-30T1100,3558A,119.7183,30.2367,杭州市,市府大楼,,41,19,28,18,20,130,,54,54,9,16,6,6,0.6,0.6
2024-08-30T1100,3656A,120.1556,30.2864,杭州市,消防大队,,42,30,28,19,18,134,,64,64,8,19,8,8,0.9,0.9
2024-08-30T1100,1270A,117.1959,31.7848,合肥市,明珠广场,,42,39,23,22,17,133,,54,54,14,20,8,7,0.5,0.5
2024-08-30T1100,1271A,117.3072,31.8764,合肥市,三里街,,,,23,,11,115,,42,42,,11,,6,0.6,0.5
2024-08-30T1100,1272A,117.2588,31.8707,合肥市,琥珀山庄,,40,39,22,18,15,127,,56,56,11,10,8,6,0.6,0.5
2024-08-30T1100,1273A,117.1604,31.9052,合肥市,董铺水库,,44,44,27,24,13,120,,49,49,12,9,4,2,0.5,0.3
2024-08-30T1100,1274A,117.25,31.8571,合肥市,长江中路,,41,41,29,18,17,123,,54,54,10,9,9,8,0.8,0.7
2024-08-30T1100,1275A,117.266,31.9436,合肥市,庐阳区,,44,34,26,17,10,140,,58,58,12,15,6,4,0.5,0.4
2024-08-30T1100,1276A,117.336,31.8586,合肥市,瑶海区,,48,48,27,21,13,118,,49,49,22,13,12,10,0.7,0.5
2024-08-30T1100,1277A,117.3027,31.7964,合肥市,包河区,,43,41,32,24,17,135,,46,46,12,26,7,4,0.5,0.4
2024-08-30T1100,1278A,117.2776,31.7385,合肥市,滨湖新区,,39,31,26,19,14,122,,59,59,8,17,8,6,0.4,0.4
2024-08-30T1100,1279A,117.1318,31.8403,合肥市,高新区,,41,41,28,20,16,121,,51,51,15,16,7,6,0.8,0.7
2024-08-30T1100,3464A,117.3803,31.9147,合肥市,高教基地,,40,36,20,14,14,126,,44,44,7,7,12,10,0.5,0.4
2024-08-30T1100,3614A,79.924,37.0877,和田地区,地区环保局,颗粒物(PM10),160,270,789,60,160,62,,73,68,6,6,8,7,0.5,0.5
2024-08-30T1100,3615A,79.9131,37.113,和田地区,市环保局,颗粒物(PM10),144,238,738,47,121,63,,78,69,9,7,7,7,0.4,0.4
2024-08-30T1100,2516A,108.2011,24.715,河池市,东仁乐园,,,,28,,17,,,57,,,9,,4,,0.8
2024-08-30T1100,2517A,108.0497,24.6947,河池市,市环保站,,33,33,24,15,14,26,,33,25,12,9,10,11,0.6,0.5
2024-08-30T1100,2518A,108.0983,24.6989,河池市,市疾控中心,,26,20,23,18,15,19,,35,26,19,11,8,9,0.6,0.6
2024-08-30T1100,1696A,114.6778,23.7569,河源市,源西,,32,25,28,22,22,77,,27,27,6,14,4,4,0.6,0.7
2024-08-30T1100,1697A,114.6944,23.7586,河源市,东埔,,41,41,20,14,15,78,,32,32,10,14,2,3,0.7,0.7
2024-08-30T1100,1698A,114.6892,23.7233,河源市,老城,,25,,23,17,11,75,,34,34,5,11,4,6,0.7,0.7
2024-08-30T1100,1718A,115.4208,35.2464,菏泽市,气象局,,50,50,48,18,25,144,,104,104,4,11,5,5,0.2,0.3
2024-08-30T1100,1719A,115.4747,35.2375,菏泽市,市政协,,43,39,41,22,25,135,,109,109,3,9,7,6,0.3,0.3
2024-08-30T1100,3374A,115.5564,35.0891,菏泽市,定陶老年大学,,,31,36,7,15,124,,81,81,3,11,6,6,,0.4
2024-08-30T1100,3647A,115.4702,35.2706,菏泽市,菏泽医专,,44,36,44,12,18,140,,115,115,4,15,4,7,0.4,0.4
2024-08-30T1100,2514A,111.5264,24.4172,贺州市,环保小区,,46,46,41,17,19,69,,38,38,15,15,8,8,0.8,0.8
2024-08-30T1100,2515A,111.5608,24.4078,贺州市,政协大楼,,,,37,,21,69,,34,34,14,18,,8,0.8,0.7
2024-08-30T1100,3534A,111.4744,24.4553,贺州市,西湾,,36,36,28,21,18,84,,40,40,10,13,8,7,0.8,0.7
2024-08-30T1100,2385A,114.17,35.9019,鹤壁市,市监测站,,,37,45,22,24,143,,84,84,,9,7,4,0.5,0.5
2024-08-30T1100,2386A,114.2956,35.7511,鹤壁市,市交警支队,颗粒物(PM10),58,65,58,37,32,164,,92,92,14,19,8,10,0.8,0.8
2024-08-30T1100,2387A,114.2878,35.7306,鹤壁市,迎宾馆,臭氧1小时,60,68,61,38,32,168,,90,90,13,19,8,5,0.8,0.8
2024-08-30T1100,3474A,114.2617,35.6822,鹤壁市,大新区,,,70,60,,18,163,,79,79,18,25,10,7,0.6,0.6
2024-08-30T1100,3596A,114.1572,35.9603,鹤壁市,南山宾馆,,44,21,32,14,20,139,,102,102,2,6,4,5,0.5,0.6
2024-08-30T1100,2244A,130.2537,47.3416,鹤岗市,哈啤分公司,,22,22,25,12,13,65,,54,53,16,11,14,13,0.5,0.5
2024-08-30T1100,2245A,130.2684,47.3086,鹤岗市,斯达机电,,24,11,24,3,10,74,,56,56,10,11,14,14,0.3,0.3
2024-08-30T1100,2246A,130.3114,47.3388,鹤岗市,东山纸板厂,,23,7,22,7,14,72,,53,52,8,14,15,16,0.1,0.2
2024-08-30T1100,2247A,130.1097,47.3382,鹤岗市,五号水库,,24,6,10,3,5,74,,56,55,5,6,13,12,0.2,0.3
2024-08-30T1100,2263A,127.4833,50.2524,黑河市,交通局,,34,34,24,6,13,56,,38,37,10,9,6,5,0.3,0.4
2024-08-30T1100,2264A,127.5144,50.2341,黑河市,环保局,,20,20,20,12,12,61,,51,48,12,8,13,3,0.3,0.4
2024-08-30T1100,2265A,127.5291,50.2472,黑河市,大黑河岛,,,34,16,11,14,,,,,,,,,,
2024-08-30T1100,1074A,115.6838,37.7541,衡水市,电机北厂,颗粒物(PM10),60,69,54,30,27,153,,95,95,6,17,8,7,0.7,0.5
2024-08-30T1100,1075A,115.6303,37.7316,衡水市,市监测站,细颗粒物(PM2.5),62,65,51,44,27,146,,87,87,11,16,8,7,0.7,0.5
2024-08-30T1100,3188A,115.6683,37.7217,衡水市,市城管局,细颗粒物(PM2.5),57,54,49,40,26,151,,85,85,7,14,7,7,0.6,0.4
2024-08-30T1100,3459A,115.5989,37.5491,衡水市,地表水厂,颗粒物(PM10),62,74,58,41,28,151,,64,64,9,23,5,4,0.7,0.5
2024-08-30T1100,2456A,112.5003,26.9167,衡阳市,原169医院,,38,38,29,19,19,107,,46,46,9,16,10,7,0.6,0.7
2024-08-30T1100,2457A,112.6194,26.9258,衡阳市,衡阳化工总厂,,,60,38,,,104,,50,50,8,10,8,8,0.8,0.8
2024-08-30T1100,2458A,112.6211,26.8956,衡阳市,珠晖区环保局,,,36,37,,,105,,52,52,8,16,8,7,0.9,0.9
2024-08-30T1100,2459A,112.6197,26.8733,衡阳市,市委党校,颗粒物(PM10),54,57,37,21,20,107,,60,60,8,12,7,6,0.9,0.9
2024-08-30T1100,2460A,112.6006,26.8919,衡阳市,市监测站,,,47,35,33,23,108,,59,59,,11,,8,1.0,0.9
2024-08-30T1100,2461A,112.5664,26.9056,衡阳市,真空机电公司,,34,32,33,17,18,108,,40,40,7,13,7,8,0.9,0.9
2024-08-30T1100,3399A,112.6703,26.882,衡阳市,师范学院,,,52,33,16,16,101,,53,53,10,11,,8,0.8,0.8
2024-08-30T1100,2608A,103.3772,23.3993,红河哈尼族彝族自治州,污水处理厂,,19,,22,13,20,47,,24,24,5,10,16,17,0.4,0.4
2024-08-30T1100,2609A,103.3861,23.35,红河哈尼族彝族自治州,监测站,,15,12,17,6,12,48,,23,23,4,7,19,15,0.4,0.4
2024-08-30T1100,3038A,103.3758,23.368,红河哈尼族彝族自治州,州图书馆,,19,19,24,11,13,47,,26,26,4,7,15,16,0.4,0.4
2024-08-30T1100,1090A,111.6507,40.7517,呼和浩特市,呼市一监,,48,48,45,18,25,146,,80,80,11,20,13,11,0.8,0.7
2024-08-30T1100,1091A,111.6572,40.8033,呼和浩特市,小召,,45,41,42,18,25,141,,71,71,16,28,8,8,0.8,0.8
2024-08-30T1100,1094A,111.7516,40.8369,呼和浩特市,如意水处理厂,,42,37,46,17,22,133,,68,68,11,27,8,8,0.8,0.7
2024-08-30T1100,1095A,111.7276,40.8062,呼和浩特市,二十九中,,44,44,45,22,25,138,,70,70,14,29,6,6,0.8,0.8
2024-08-30T1100,1096A,111.5512,40.7866,呼和浩特市,工大金川校区,颗粒物(PM10),52,53,50,21,24,126,,57,57,23,37,6,4,0.8,0.7
2024-08-30T1100,1097A,111.717,40.7612,呼和浩特市,化肥厂生活区,,47,47,60,21,26,140,,81,81,11,21,11,9,0.8,0.6
2024-08-30T1100,3698A,111.5968,40.8178,呼和浩特市,红旗小学,,44,44,46,19,23,137,,68,68,18,32,7,6,0.7,0.6
2024-08-30T1100,3699A,111.6518,40.8389,呼和浩特市,海东办,,46,46,48,18,26,134,,63,63,15,35,7,7,0.6,0.6
2024-08-30T1100,2192A,119.7594,49.2261,呼伦贝尔市,区环保局,,33,23,25,23,16,72,,51,51,12,14,3,4,0.3,0.3
2024-08-30T1100,3061A,119.7512,49.1577,呼伦贝尔市,国华电力东,,29,29,20,11,13,78,,47,47,4,6,4,3,0.3,0.2
2024-08-30T1100,1250A,120.0751,30.8669,湖州市,城西水厂,,42,29,20,16,13,132,,68,68,12,12,5,4,0.3,0.3
2024-08-30T1100,2873A,120.0875,30.8955,湖州市,仁皇山新区,,40,29,19,18,12,128,,59,59,10,11,6,6,0.6,0.6
2024-08-30T1100,2907A,120.1844,30.8596,湖州市,吴兴区站,,37,22,20,16,13,118,,57,57,9,9,7,7,0.5,0.4
2024-08-30T1100,3562A,120.4148,30.8538,湖州市,南浔区站,,33,17,21,9,14,104,,55,55,7,12,4,4,0.5,0.5
2024-08-30T1100,1607A,120.9092,40.7136,葫芦岛市,龙港区,臭氧1小时,62,25,39,21,37,169,,130,130,25,11,43,12,0.7,0.8
2024-08-30T1100,1608A,120.8392,40.7514,葫芦岛市,化工街,,45,44,44,17,24,143,,84,84,16,20,12,9,0.6,0.8
2024-08-30T1100,1609A,120.8341,40.7073,葫芦岛市,新区,,47,40,38,18,33,148,,109,109,23,15,19,11,0.7,0.8
2024-08-30T1100,1610A,120.8695,40.7677,葫芦岛市,东城区,颗粒物(PM10),53,56,42,14,44,145,,80,80,16,22,18,13,0.6,0.7
2024-08-30T1100,2482A,109.5981,27.5721,怀化市,林科所,,30,30,21,19,12,80,,67,67,13,11,13,14,0.6,0.4
2024-08-30T1100,2483A,109.9453,27.5444,怀化市,河西地税局,,,34,29,,18,95,,69,69,,11,6,3,0.7,0.7
2024-08-30T1100,2484A,109.9781,27.5342,怀化市,市四医院,,48,48,32,25,19,88,,60,60,9,9,10,12,0.8,0.8
2024-08-30T1100,2485A,109.9972,27.5578,怀化市,监测楼,,32,32,32,12,17,90,,54,54,6,9,4,9,0.8,0.8
2024-08-30T1100,2486A,110.0394,27.583,怀化市,市委党校,,28,,43,17,18,87,,52,52,5,10,8,21,0.6,0.6
2024-08-30T1100,1210A,119.036,33.5981,淮安市,钵池山,,34,34,22,14,14,98,,51,51,20,21,8,7,0.8,0.8
2024-08-30T1100,1211A,119.007,33.575,淮安市,北京南路,,36,36,27,16,16,94,,56,56,15,11,6,5,0.6,0.6
2024-08-30T1100,1212A,118.989,33.6067,淮安市,市监测站,,34,34,25,19,18,97,,40,40,14,15,7,6,0.7,0.7
2024-08-30T1100,1213A,119.135,33.5039,淮安市,楚州区监测站,,49,49,30,18,13,89,,59,59,18,15,6,5,0.6,0.5
2024-08-30T1100,1214A,119.0186,33.6297,淮安市,淮阴区监测站,,31,24,28,14,16,98,,48,48,13,23,4,4,0.6,0.6
2024-08-30T1100,3426A,118.8755,33.2894,淮安市,新华书店,,36,36,24,17,15,92,,50,50,17,15,8,7,0.6,0.6
2024-08-30T1100,2282A,116.8004,33.975,淮北市,监测站,,34,26,30,15,15,106,,69,68,3,9,7,6,0.6,0.7
2024-08-30T1100,2283A,116.8091,33.9007,淮北市,烈山区政府,,35,35,29,20,17,110,,73,73,6,7,9,7,0.5,0.5
2024-08-30T1100,3330A,116.8873,33.9836,淮北市,杜集区检察院,,33,28,30,10,18,104,,71,71,3,9,3,3,0.3,0.4
2024-08-30T1100,4017A,116.7923,33.9535,淮北市,市博物馆,,35,31,28,16,15,111,,75,75,7,8,5,4,0.6,0.7
2024-08-30T1100,2277A,116.8305,32.7727,淮南市,潘集区政府,,36,35,28,21,18,114,,39,39,13,15,9,6,0.8,0.5
2024-08-30T1100,2278A,117.0067,32.6524,淮南市,师范学院,颗粒物(PM10),51,51,37,11,18,125,,58,58,8,9,6,8,0.5,0.5
2024-08-30T1100,2279A,116.8569,32.5951,淮南市,谢家集区政府,,35,27,27,20,19,112,,54,54,8,11,8,18,0.5,0.5
2024-08-30T1100,2280A,116.8281,32.633,淮南市,八公山区政府,,49,49,35,22,18,112,,47,47,10,12,7,6,0.4,0.4
2024-08-30T1100,2281A,116.6325,32.6201,淮南市,焦岗湖风景区管理处,,37,37,23,11,7,66,,29,29,9,12,6,6,0.1,0
2024-08-30T1100,2894A,117.0566,32.6531,淮南市,经济技术开发区消防队,,40,32,23,17,8,127,,56,56,7,12,5,6,0.5,0.4
2024-08-30T1100,3329A,117.0108,32.5893,淮南市,山南新区,,49,49,38,15,18,119,,67,67,8,12,5,6,0.6,0.8
2024-08-30T1100,2446A,114.9028,30.4742,黄冈市,职工中心,,36,29,31,18,20,113,,62,62,5,7,7,8,0.6,0.7
2024-08-30T1100,2929A,114.8858,30.4519,黄冈市,红卫路,,43,38,29,26,22,136,,69,69,12,10,8,8,0.8,0.6
2024-08-30T1100,3398A,114.9136,30.4445,黄冈市,市林业局,,44,38,38,24,20,138,,69,69,12,9,7,8,0.7,0.5
2024-08-30T1100,2672A,102.0199,35.5102,黄南藏族自治州,同仁县隆务镇,,,,25,16,10,69,,45,45,,3,9,8,0.5,0.5
2024-08-30T1100,2295A,118.2903,29.6963,黄山市,延安路89号,,38,38,42,17,16,112,,38,38,4,6,5,5,0.4,0.5
2024-08-30T1100,2296A,118.327,29.7178,黄山市,黄山东路89号,,31,24,25,7,10,97,,39,39,5,6,4,4,0.5,0.5
2024-08-30T1100,2297A,118.1371,30.2756,黄山市,黄山区政府5号楼,,30,17,19,10,10,94,,31,31,5,6,6,6,0.3,0.4
2024-08-30T1100,2423A,115.0601,30.2313,黄石市,沈家营,颗粒物(PM10),55,59,56,24,21,128,,48,48,20,21,15,8,1.0,0.7
2024-08-30T1100,2424A,115.0817,30.2006,黄石市,陈家湾,颗粒物(PM10),62,73,59,21,24,106,,39,39,22,18,13,8,0.9,0.6
2024-08-30T1100,2426A,114.8988,30.2019,黄石市,铁山,,47,45,47,26,26,148,,49,49,10,14,11,11,0.6,0.6
2024-08-30T1100,2427A,115.0307,30.2092,黄石市,团城山,颗粒物(PM10),54,57,50,31,22,119,,47,47,27,19,19,9,1.2,0.6
2024-08-30T1100,3149A,115.0235,30.1578,黄石市,笔架山北路,颗粒物(PM10),60,69,50,16,18,134,,49,49,9,17,10,9,0.9,0.8
2024-08-30T1100,1392A,114.4183,23.0528,惠州市,河南岸金山湖子站,,26,22,28,16,18,81,,44,44,4,8,4,4,0.6,0.7
2024-08-30T1100,1393A,114.4053,23.0822,惠州市,下埔横江三路子站,,30,30,31,20,18,87,,47,47,7,9,4,4,0.7,0.7
2024-08-30T1100,1394A,114.4103,23.1142,惠州市,江北云山西路子站,,26,20,28,15,13,81,,44,44,2,8,4,4,0.8,0.8
2024-08-30T1100,1395A,114.4645,22.7833,惠州市,惠阳区承修路船湖子站,,30,30,36,20,26,72,,46,46,14,17,4,5,0.5,0.6
2024-08-30T1100,1396A,114.5317,22.7422,惠州市,大亚湾管委会子站,,,20,34,13,24,96,,88,83,7,14,,7,0.4,0.4
2024-08-30T1100,3314A,114.4338,22.8134,惠州市,惠阳秋长,,30,19,29,15,23,95,,58,58,10,15,5,6,0.6,0.6
2024-08-30T1100,3452A,114.6517,22.775,惠州市,大亚湾霞涌,,34,34,31,10,18,91,,68,67,5,8,3,4,0.4,0.5
2024-08-30T1100,2240A,130.9762,45.3001,鸡西市,环保局,,32,32,35,9,13,50,,32,32,6,12,5,5,0.2,0.2
2024-08-30T1100,2243A,130.9429,45.3039,鸡西市,第一中学,,30,30,32,13,10,64,,43,43,3,12,5,5,0.2,0.3
2024-08-30T1100,3707A,131.0207,45.3073,鸡西市,欧美日汽修厂,,,21,26,10,15,56,,24,24,,12,4,5,0.2,0.2
2024-08-30T1100,3709A,130.9967,45.3106,鸡西市,市政设施管理处,,37,37,40,10,11,62,,31,31,8,11,6,6,0.3,0.4
2024-08-30T1100,2367A,114.9754,27.0803,吉安市,红声器材厂,,,,33,35,21,64,,41,39,14,15,11,13,,0.6
2024-08-30T1100,2368A,114.9658,27.0999,吉安市,市森林工业局,,44,44,34,26,23,72,,48,48,23,18,10,12,0.7,0.6
2024-08-30T1100,2369A,114.99,27.1312,吉安市,市环境监测站,,43,43,36,27,19,61,,51,49,18,13,11,15,0.8,0.7
2024-08-30T1100,2370A,115.0093,27.0968,吉安市,青原区法院,,48,47,36,33,23,69,,46,40,15,17,9,11,0.8,0.8
2024-08-30T1100,1772A,126.54,43.8622,吉林市,哈达湾,,35,25,22,13,13,112,,68,68,6,17,5,5,0.7,0.6
2024-08-30T1100,1773A,126.5844,43.8358,吉林市,东局子,,37,32,22,16,11,116,,68,68,8,13,5,5,0.6,0.6
2024-08-30T1100,1774A,126.5052,43.8245,吉林市,电力学院,,,,22,15,15,113,,58,58,6,16,4,4,0.7,0.7
2024-08-30T1100,1775A,126.6133,43.8972,吉林市,江北,,38,38,35,13,14,112,,64,64,9,15,7,7,0.8,0.7
2024-08-30T1100,1776A,126.555,43.8306,吉林市,江南公园,,37,31,23,20,16,117,,69,69,7,15,5,5,0.7,0.7
2024-08-30T1100,1778A,126.7061,43.7133,吉林市,丰满,,,,,,,,,,,,,,,,
2024-08-30T1100,2868A,126.4739,43.953,吉林市,九站,,43,43,44,14,15,131,,70,70,6,24,6,8,0.8,0.7
2024-08-30T1100,1299A,116.9862,36.6114,济南市,科干所,,47,34,44,22,24,149,,156,154,10,15,8,7,0.7,0.7
2024-08-30T1100,1300A,116.9376,36.665,济南市,农科所,,44,37,41,17,23,140,,102,102,16,26,9,7,0.4,0.6
2024-08-30T1100,1301A,117.1265,36.6734,济南市,开发区,,47,29,49,22,26,150,,139,139,8,24,9,8,0.5,0.6
2024-08-30T1100,1303A,117.0624,36.6868,济南市,省种子仓库,,49,29,48,14,22,155,,124,124,8,29,7,6,0.5,0.6
2024-08-30T1100,1304A,116.9489,36.6447,济南市,机床二厂,,48,37,43,12,16,153,,114,114,13,23,10,8,0.6,0.6
2024-08-30T1100,1305A,117.0495,36.663,济南市,市监测站,,49,27,44,15,23,156,,147,147,9,22,10,9,0.5,0.6
2024-08-30T1100,1306A,116.7675,36.5484,济南市,长清党校,,49,34,38,22,25,156,,125,125,10,18,9,8,0.8,0.8
2024-08-30T1100,1616A,117.6795,36.229,济南市,技术学院,颗粒物(PM10),57,63,49,34,27,160,,64,64,16,29,22,15,1.8,1.5
2024-08-30T1100,1961A,117.532,36.6868,济南市,东山小学,,50,39,50,17,24,160,,131,131,12,23,7,6,0.7,0.8
2024-08-30T1100,3059A,117.7161,36.2049,济南市,泰兴公司,臭氧1小时,54,41,48,24,25,163,,57,57,9,37,14,12,0.8,1.1
2024-08-30T1100,3064A,117.6867,36.2171,济南市,莱芜战役纪念馆,颗粒物(PM10),51,51,49,27,23,155,,63,63,10,31,14,11,0.9,1.1
2024-08-30T1100,3494A,117.1673,36.9782,济南市,济阳区政府,,50,42,63,17,29,159,,76,76,11,30,14,12,0.6,0.8
2024-08-30T1100,3495A,117.1171,36.63,济南市,锦屏中学,,48,24,33,15,18,153,,150,150,12,15,6,5,0.5,0.6
2024-08-30T1100,3682A,116.9814,36.6819,济南市,济南四建,,31,31,43,17,23,94,,100,100,13,21,8,7,0.7,0.7
2024-08-30T1100,1653A,116.6251,35.4302,济宁市,火炬城,,47,33,44,14,24,149,,79,79,7,21,10,10,0.8,0.9
2024-08-30T1100,1655A,116.5491,35.4042,济宁市,电化厂,,48,39,44,19,27,153,,92,92,9,24,9,10,0.7,0.7
2024-08-30T1100,3500A,116.5814,35.3707,济宁市,北湖一中,,48,39,41,22,22,152,,95,95,11,19,5,6,0.5,0.7
2024-08-30T1100,3501A,116.8249,35.5593,济宁市,服务中心,,45,36,47,15,22,144,,80,80,9,22,6,6,0.6,0.6
2024-08-30T1100,3678A,116.5907,35.4054,济宁市,市第七中学,,48,47,45,17,26,152,,72,72,9,27,7,7,0.7,0.8
2024-08-30T1100,2255A,130.2751,46.8028,佳木斯市,佳纺,,25,23,22,8,11,79,,54,54,16,13,9,8,0.6,0.6
2024-08-30T1100,2256A,130.3995,46.8307,佳木斯市,发电厂,,28,28,27,9,12,78,,63,63,11,11,6,5,0.5,0.6
2024-08-30T1100,2257A,130.3258,46.7975,佳木斯市,环保局,,25,18,24,10,10,79,,61,61,16,12,8,8,0.7,0.6
2024-08-30T1100,2258A,130.3648,46.8032,佳木斯市,十一中,,,,23,,12,74,,,,,15,8,7,0.5,0.5
2024-08-30T1100,2259A,130.3794,46.7588,佳木斯市,四丰,,,13,17,11,10,70,,53,53,,,,1,0.5,0.5
2024-08-30T1100,1252A,120.7436,30.778,嘉兴市,清河小学,,39,20,18,9,9,122,,78,78,11,12,4,4,0.8,0.8
2024-08-30T1100,1253A,120.726,30.7478,嘉兴市,嘉兴学院,,37,18,18,8,9,117,,70,70,11,15,2,2,0.4,0.5
2024-08-30T1100,2872A,120.7846,30.7525,嘉兴市,南湖区残联,,37,16,21,3,11,117,,77,77,6,10,4,4,0.5,0.5
2024-08-30T1100,3407A,120.6916,30.7739,嘉兴市,秀洲住建,,37,16,18,10,10,116,,62,62,6,12,4,4,0.5,0.6
2024-08-30T1100,1945A,98.2908,39.7711,嘉峪关市,气象局,颗粒物(PM10),92,134,62,36,18,69,,79,74,21,7,79,11,2.4,0.5
2024-08-30T1100,2884A,98.2672,39.7978,嘉峪关市,酒钢宾馆,颗粒物(PM10),71,92,65,27,19,90,,101,94,29,13,118,19,1.6,0.6
2024-08-30T1100,3248A,98.2643,39.7724,嘉峪关市,雄关区,颗粒物(PM10),71,92,56,28,18,81,,69,65,36,18,32,9,1.5,0.5
2024-08-30T1100,1383A,113.1064,22.6058,江门市,北街,,46,46,28,24,25,93,,41,41,37,27,5,4,0.8,0.7
2024-08-30T1100,1384A,113.0731,22.5835,江门市,西区,,44,44,28,20,17,119,,39,39,29,24,7,6,0.7,0.6
2024-08-30T1100,1385A,113.0219,22.5311,江门市,圭峰西,细颗粒物(PM2.5),54,,27,38,24,109,,43,43,30,19,3,3,1.0,0.9
2024-08-30T1100,1386A,113.0828,22.5947,江门市,东湖,,44,44,33,20,18,112,,42,42,27,21,6,6,0.6,0.5
2024-08-30T1100,3311A,113.1075,22.5647,江门市,江海富民,细颗粒物(PM2.5),64,73,43,46,32,111,,49,49,35,28,8,6,0.7,0.6
2024-08-30T1100,3449A,113.05,22.4667,江门市,新会银湖,,49,36,31,34,27,114,,30,30,23,23,5,4,0.7,0.6
2024-08-30T1100,1828A,113.227,35.2125,焦作市,市环保局,颗粒物(PM10),51,51,47,35,32,156,,79,79,16,22,8,3,0.7,0.7
2024-08-30T1100,1830A,113.1992,35.2590,焦作市,影视城,,,,,,,,,,,,,,,,
2024-08-30T1100,3169A,113.2725,35.2067,焦作市,太极体育中心,颗粒物(PM10),53,55,54,25,33,151,,67,67,7,19,4,3,0.6,0.7
2024-08-30T1100,3335A,113.3137,35.2641,焦作市,马村街道办,,49,42,48,22,34,154,,82,82,10,16,7,3,0.5,0.5
2024-08-30T1100,3336A,113.2465,35.2373,焦作市,焦作技师学院,,46,46,46,31,32,141,,101,101,9,13,8,5,0.5,0.5
2024-08-30T1100,3477A,113.1656,35.2539,焦作市,中站许衡医院,,42,25,43,21,26,133,,91,91,10,23,10,6,0.6,0.6
2024-08-30T1100,3981A,113.2449,35.1803,焦作市,原李万街道办,,,43,54,19,32,149,,64,64,8,20,6,6,,1
2024-08-30T1100,1708A,116.3701,23.5345,揭阳市,新兴,颗粒物(PM10),55,60,43,26,25,101,,42,42,15,17,7,5,0.7,0.8
2024-08-30T1100,1709A,116.3264,23.5443,揭阳市,西马,,50,50,39,22,20,108,,45,45,7,13,6,5,0.8,0.8
2024-08-30T1100,1710A,116.3611,23.5626,揭阳市,东兴,颗粒物(PM10),55,60,45,22,20,98,,39,39,8,19,6,5,0.8,1
2024-08-30T1100,1711A,116.4151,23.5294,揭阳市,渔湖,颗粒物(PM10),52,54,45,31,21,91,,43,43,10,18,5,6,0.5,0.7
2024-08-30T1100,3320A,116.403,23.5699,揭阳市,曲溪,,46,46,37,29,23,95,,51,51,14,20,5,5,0.6,0.7
2024-08-30T1100,1944A,102.1692,38.5167,金昌市,天庆家园,颗粒物(PM10),59,67,44,37,26,95,,92,86,12,15,10,21,0.5,0.8
2024-08-30T1100,3170A,102.1864,38.5253,金昌市,市委党校,颗粒物(PM10),66,81,52,34,23,94,,112,100,9,10,5,9,0.8,0.8
2024-08-30T1100,4022A,102.1647,38.5371,金昌市,金川区人防中心,颗粒物(PM10),55,59,40,35,23,91,,101,92,10,11,9,10,0.9,0.7
2024-08-30T1100,1262A,119.647,29.077,金华市,十五中,,43,19,23,13,13,136,,84,84,9,14,2,2,0.5,0.5
2024-08-30T1100,1263A,119.686,29.1029,金华市,监测站,,42,22,24,14,15,132,,78,78,9,18,3,3,0.6,0.5
2024-08-30T1100,3659A,119.656,29.1131,金华市,气象局,,43,22,22,9,12,136,,79,79,9,20,4,4,0.5,0.5
2024-08-30T1100,1767A,121.1115,41.0879,锦州市,南山,颗粒物(PM10),51,52,41,27,34,148,,93,93,20,17,13,8,1.0,0.9
2024-08-30T1100,1768A,121.0533,40.8434,锦州市,开发区,,,68,55,22,36,141,,98,87,,25,11,13,0.5,0.8
2024-08-30T1100,1769A,121.1836,41.1119,锦州市,百股街道,,44,44,41,24,25,126,,90,81,13,17,8,8,1.1,1.1
2024-08-30T1100,1770A,121.1178,41.1222,锦州市,天安街道,,,12,48,,33,116,,87,84,,15,11,12,1.4,1.4
2024-08-30T1100,1771A,121.1303,41.1386,锦州市,北湖公园,颗粒物(PM10),52,54,50,18,42,128,,83,75,9,15,7,8,1.0,1.1
2024-08-30T1100,2160A,112.85,35.5051,晋城市,自来水公司,,47,43,51,27,27,149,,84,84,16,20,8,8,0.8,0.7
2024-08-30T1100,2161A,112.8318,35.4936,晋城市,白云商贸,颗粒物(PM10),60,69,58,22,26,146,,74,74,16,21,9,9,0.9,0.8
2024-08-30T1100,2162A,112.8508,35.4887,晋城市,市环保局,颗粒物(PM10),65,79,55,27,28,142,,65,65,18,22,9,9,0.8,0.7
2024-08-30T1100,2163A,112.8676,35.4897,晋城市,技术学院,,43,41,40,22,26,137,,74,74,17,22,9,9,0.8,0.8
2024-08-30T1100,2165A,112.8453,35.546,晋城市,白马寺,,,,,,,,,,,,,,,,
2024-08-30T1100,3620A,112.8271,35.4828,晋城市,泽州一中,,42,37,40,17,24,132,,67,67,16,20,10,9,1.0,0.9
2024-08-30T1100,2171A,112.7532,37.6945,晋中市,锦纶小区,颗粒物(PM10),64,78,48,39,19,149,,70,70,17,20,12,11,1.4,0.7
2024-08-30T1100,2173A,112.7249,37.7067,晋中市,南都小区,颗粒物(PM10),61,72,48,27,24,150,,76,76,21,24,14,8,1.1,0.6
2024-08-30T1100,2174A,112.6991,37.6982,晋中市,榆次区政府,颗粒物(PM10),64,78,52,34,22,144,,65,65,20,22,20,11,1.0,0.6
2024-08-30T1100,2865A,112.7195,37.6828,晋中市,榆次三中,颗粒物(PM10),58,66,49,31,17,156,,66,66,14,19,16,9,1.3,0.7
2024-08-30T1100,2439A,112.2014,31.0481,荆门市,竹园小学,,43,43,47,22,26,125,,90,90,10,14,10,11,0.7,0.8
2024-08-30T1100,2440A,112.1969,30.9891,荆门市,掇刀,,46,37,41,27,27,145,,111,111,12,14,6,6,0.6,0.7
2024-08-30T1100,2441A,112.2213,31.0386,荆门市,石化一小,,43,40,49,29,30,136,,89,89,11,14,16,15,0.7,0.7
2024-08-30T1100,3012A,112.1849,31.0362,荆门市,西山林语,,41,41,42,17,27,125,,114,111,9,11,8,9,0.7,0.8
2024-08-30T1100,3547A,112.1632,31.0138,荆门市,龙泉中学南校,,44,44,41,23,23,125,,85,85,9,14,8,9,0.5,0.6
2024-08-30T1100,1844A,112.2494,30.3197,荆州市,市图书馆,,39,37,35,26,25,124,,88,88,12,19,8,7,0.8,0.8
2024-08-30T1100,1845A,112.2008,30.3544,荆州市,市委党校,,39,39,39,16,24,123,,73,73,9,15,8,8,0.9,0.9
2024-08-30T1100,3194A,112.2747,30.3122,荆州市,管委会,细颗粒物(PM2.5),54,,36,38,28,124,,79,79,17,18,11,7,0.7,0.7
2024-08-30T1100,3548A,112.1655,30.3364,荆州市,学苑路,,,56,43,31,31,140,,74,74,,18,,6,0.9,0.9
2024-08-30T1100,2342A,117.3102,29.3867,景德镇市,王港中学,,,,,,,,,,,,,,,,
2024-08-30T1100,2343A,117.2117,29.2933,景德镇市,老干部活动中心,,39,30,26,27,16,117,,32,32,11,12,12,7,0.7,0.6
2024-08-30T1100,2344A,117.1894,29.2789,景德镇市,兽医站,,42,42,30,22,14,110,,33,33,10,10,7,7,0.7,0.6
2024-08-30T1100,2345A,117.1547,29.2617,景德镇市,台达陶瓷,,35,35,30,24,18,104,,33,33,11,18,14,12,0.5,0.5
2024-08-30T1100,2346A,117.2461,29.2956,景德镇市,陶研所,,38,38,30,20,11,108,,31,31,12,12,17,10,0.4,0.4
2024-08-30T1100,1803A,115.9872,29.6815,九江市,十里,,44,44,39,20,23,121,,57,57,17,20,11,11,0.9,0.9
2024-08-30T1100,1804A,115.9584,29.7046,九江市,茅山头,,40,28,33,28,24,127,,63,63,15,22,12,10,0.8,0.8
2024-08-30T1100,1805A,115.9877,29.7295,九江市,西园,,49,49,32,25,19,115,,58,58,19,25,11,9,0.7,0.7
2024-08-30T1100,1806A,116.0172,29.6547,九江市,五七二七厂,,,,27,,18,115,,63,63,,13,,8,0.8,0.7
2024-08-30T1100,1808A,115.9114,29.6038,九江市,综合工业园,,45,40,38,31,25,133,,51,51,17,25,15,9,1.0,1
2024-08-30T1100,1809A,116.0721,29.7535,九江市,石化总厂,,50,50,48,30,26,123,,52,52,23,28,13,13,0.9,0.9
2024-08-30T1100,1810A,115.9773,29.5698,九江市,庐山气象台,,38,,18,26,15,96,,97,93,4,3,6,13,1.4,0.9
2024-08-30T1100,3190A,116.0254,29.6994,九江市,外国语学校,,40,39,35,20,24,126,,61,61,16,27,10,12,1.0,1.1
2024-08-30T1100,2658A,98.5061,39.7443,酒泉市,仓门街子站,颗粒物(PM10),245,381,91,40,16,110,,56,56,7,17,12,34,0.4,0.4
2024-08-30T1100,2659A,98.4989,39.7256,酒泉市,油田生活基地,颗粒物(PM10),186,322,81,22,10,116,,54,54,11,22,14,15,0.5,0.4
2024-08-30T1100,2698A,76.0072,39.4467,喀什地区,巡警大队,颗粒物(PM10),59,68,72,3,17,70,,76,74,25,14,4,3,0.5,0.4
2024-08-30T1100,2699A,75.9755,39.4694,喀什地区,吾办,颗粒物(PM10),55,59,69,9,31,78,,74,73,14,12,3,3,0.6,0.6
2024-08-30T1100,4027A,75.9483,39.4689,喀什地区,老干局,,37,37,67,3,20,76,,73,72,15,9,3,3,0.4,0.4
2024-08-30T1100,1824A,114.3389,34.7781,开封市,肿瘤医院,,39,28,53,11,19,122,,73,73,8,20,4,4,0.5,0.5
2024-08-30T1100,1826A,114.2885,34.7965,开封市,世纪星幼儿园,,,43,50,,32,125,,76,76,9,20,6,5,0.6,0.6
2024-08-30T1100,3147A,114.3438,34.8106,开封市,龙亭公园,,46,46,47,19,23,128,,84,84,7,15,5,4,0.7,0.7
2024-08-30T1100,3210A,114.3644,34.7964,开封市,汴京公园,颗粒物(PM10),51,51,49,21,29,122,,80,80,14,15,6,5,0.6,0.6
2024-08-30T1100,3473A,114.2485,34.8306,开封市,技师学院,,,,30,14,21,128,,98,98,6,20,5,4,0.6,0.7
2024-08-30T1100,3592A,114.4644,34.7556,开封市,祥符区生态环境局,,39,31,48,21,30,123,,64,64,5,38,5,8,0.5,0.6
2024-08-30T1100,1951A,84.895,45.6094,克拉玛依市,长征新村,,23,23,15,3,6,40,,67,48,20,6,6,6,0.3,0.2
2024-08-30T1100,1952A,84.8988,45.5893,克拉玛依市,南林小区,,,33,16,6,7,29,,66,53,33,10,10,9,,0.2
2024-08-30T1100,1954A,84.905,44.3396,克拉玛依市,独山子区,,22,22,16,6,7,66,,67,47,16,8,6,6,0.3,0.3
2024-08-30T1100,1955A,85.6979,46.098,克拉玛依市,乌尔禾区商贸楼,,29,,28,20,7,56,,57,42,7,5,6,7,0.2,0.2
2024-08-30T1100,3612A,85.1045,45.6899,克拉玛依市,白碱滩区新站,,41,41,30,8,5,43,,52,45,24,8,9,8,0.4,0.4
2024-08-30T1100,2697A,76.1454,39.7142,克孜勒苏柯尔克孜自治州,市人民政府,,40,40,58,11,31,92,,96,96,16,6,4,3,0.2,0.3
2024-08-30T1100,3665A,76.1658,39.7157,克孜勒苏柯尔克孜自治州,克州文化中心,,,,64,,32,105,,102,102,7,4,26,10,0.3,0.4
2024-08-30T1100,1450A,102.8204,24.8886,昆明市,呈贡新区,,26,26,23,12,12,61,,40,37,11,16,11,8,0.7,0.5
2024-08-30T1100,1451A,102.6251,24.9608,昆明市,西山森林公园,,,,,,,,,,,,,,,,
2024-08-30T1100,1452A,102.7252,25.0902,昆明市,龙泉镇,,19,19,34,10,18,48,,18,18,18,29,8,7,0.8,0.8
2024-08-30T1100,1453A,102.7266,25.0375,昆明市,东风东路,,18,18,26,9,16,53,,32,30,15,19,7,7,0.6,0.6
2024-08-30T1100,1454A,102.6742,25.0669,昆明市,金鼎山,,23,22,42,16,20,45,,26,26,22,24,7,7,0.7,0.6
2024-08-30T1100,1455A,102.6644,25.0401,昆明市,碧鸡广场,,33,33,30,16,14,42,,30,27,19,18,9,6,0.7,0.6
2024-08-30T1100,3179A,102.7494,25.0119,昆明市,官渡区博物馆,,19,18,28,12,13,60,,37,37,12,14,10,9,0.6,0.5
2024-08-30T1100,3375A,102.8017,24.8336,昆明市,青年创业园,,24,24,39,10,12,65,,22,22,7,19,8,6,0.5,0.5
2024-08-30T1100,3550A,102.7997,24.9786,昆明市,昆明学院,,40,40,29,24,16,46,,32,27,23,21,15,9,0.7,0.5
2024-08-30T1100,3551A,102.5967,24.6736,昆明市,晋宁区生态环境分局,,20,14,23,3,12,64,,35,35,6,10,5,5,0.3,0.4
2024-08-30T1100,3552A,102.6678,24.9856,昆明市,云天化总部,,22,22,21,14,14,58,,31,28,11,15,12,9,0.8,0.5
2024-08-30T1100,1456A,91.1319,29.6514,拉萨市,八廓街,,,14,11,7,9,98,,91,86,,11,,7,0.2,0.2
2024-08-30T1100,1457A,91.1221,29.6747,拉萨市,市环保局,,29,20,14,7,7,90,,77,73,17,16,8,8,0.3,0.2
2024-08-30T1100,1458A,91.0874,29.6475,拉萨市,区监测站,,30,11,10,6,6,94,,75,75,12,17,8,8,0.2,0.2
2024-08-30T1100,1459A,91.1774,29.6541,拉萨市,西藏大学,,31,6,13,3,6,98,,88,80,4,6,9,6,0.3,0.3
2024-08-30T1100,1460A,90.9798,29.6588,拉萨市,区辐射站,,30,19,14,12,8,94,,96,82,17,15,8,8,0.2,0.2
2024-08-30T1100,1461A,91.0834,29.6292,拉萨市,拉萨火车站,,27,15,9,9,7,86,,89,78,16,12,5,5,0.2,0.2
2024-08-30T1100,2520A,109.2203,23.7256,来宾市,来宾技工学校,细颗粒物(PM2.5),52,46,26,36,15,46,,23,20,19,13,16,12,0.9,0.7
2024-08-30T1100,3535A,109.1781,23.7297,来宾市,兴宾区政府,,26,26,17,12,9,43,,24,22,9,8,9,7,0.9,0.8
2024-08-30T1100,4002A,109.2416,23.7461,来宾市,中南小学,,42,42,25,17,16,56,,26,22,14,12,8,9,0.9,0.7
2024-08-30T1100,1476A,103.631,36.1031,兰州市,兰炼宾馆,,30,30,33,13,21,69,,51,50,11,10,4,4,0.4,0.4
2024-08-30T1100,1477A,104.1373,35.9454,兰州市,榆中兰大校区,,,,,,,,,,,,,,,,
2024-08-30T1100,1478A,103.8412,36.0726,兰州市,生物制品所,,26,21,30,18,20,63,,52,49,13,15,8,8,0.5,0.5
2024-08-30T1100,1479A,103.831,36.0464,兰州市,铁路设计院,,33,33,35,19,23,54,,46,46,27,22,6,9,0.5,0.6
2024-08-30T1100,3186A,103.7158,36.1058,兰州市,教育港,,39,39,42,26,28,64,,49,49,11,10,6,6,0.4,0.4
2024-08-30T1100,3241A,103.7439,36.0842,兰州市,百合公园,,23,23,30,9,15,64,,58,55,12,12,5,7,0.4,0.4
2024-08-30T1100,3242A,103.9611,35.998,兰州市,和平,,32,32,33,14,16,70,,58,58,7,9,8,8,0.5,0.5
2024-08-30T1100,3245A,103.6633,36.533,兰州新区,新区管委会,,28,26,40,19,21,80,,56,56,6,10,8,14,0.5,0.6
2024-08-30T1100,3246A,103.6975,36.4789,兰州新区,舟曲中学,,29,29,38,16,20,88,,63,63,5,10,8,20,0.5,0.6
2024-08-30T1100,1067A,116.6708,39.5111,廊坊市,药材公司,颗粒物(PM10),63,76,66,32,31,154,,78,78,15,18,3,5,0.6,0.5
2024-08-30T1100,1068A,116.7214,39.5589,廊坊市,开发区,颗粒物(PM10),62,73,54,36,32,157,,69,69,15,15,2,2,0.7,0.6
2024-08-30T1100,1070A,116.7244,39.5269,廊坊市,北华航天学院,颗粒物(PM10),59,68,68,31,28,166,,97,97,9,13,2,4,0.7,0.6
2024-08-30T1100,2919A,116.7022,39.5453,廊坊市,河北工业大学,颗粒物(PM10),60,70,62,39,33,157,,93,93,12,13,3,6,0.6,0.5
2024-08-30T1100,2535A,103.7723,29.5462,乐山市,花湖湾,,48,,33,33,34,92,,74,72,14,15,7,5,0.4,0.5
2024-08-30T1100,2536A,103.7627,29.5844,乐山市,牛耳桥,,43,40,43,30,34,94,,76,73,19,16,4,3,0.7,0.7
2024-08-30T1100,2537A,103.7508,29.6006,乐山市,市第三水厂,,48,43,43,33,30,104,,81,80,14,14,5,3,0.5,0.5
2024-08-30T1100,2538A,103.7571,29.5664,乐山市,市监测站,,49,42,46,34,35,98,,81,80,18,13,6,5,0.5,0.4
2024-08-30T1100,3361A,103.7311,29.5628,乐山市,理工大学,,,,45,,36,110,,80,80,11,12,8,5,0.5,0.6
2024-08-30T1100,2598A,100.2143,26.8576,丽江市,西南郊,,,,,,,,,,,,,,,,
2024-08-30T1100,2599A,100.2497,26.8802,丽江市,丽江古城,,,20,30,17,20,70,,51,51,,13,,9,0.6,0.6
2024-08-30T1100,2600A,100.2203,26.8906,丽江市,市中心,,37,37,25,16,19,77,,56,56,7,11,9,9,0.7,0.6
2024-08-30T1100,1267A,119.914,28.4514,丽水市,监测站大楼,,,22,22,15,12,115,,72,70,9,10,,2,0.3,0.4
2024-08-30T1100,1268A,119.93,28.4586,丽水市,莲都小学,,35,32,24,18,13,112,,70,70,7,9,4,4,0.5,0.5
2024-08-30T1100,1269A,119.879,28.4231,丽水市,余庄前,,37,35,21,20,12,118,,47,47,10,11,4,4,0.5,0.5
2024-08-30T1100,1173A,119.176,34.5885,连云港市,市环境监测站,,38,31,27,12,14,120,,80,80,18,15,7,7,0.4,0.4
2024-08-30T1100,3000A,119.3581,34.6972,连云港市,德源药业,,37,14,31,3,13,116,,58,58,13,23,6,5,0.3,0.4
2024-08-30T1100,3007A,119.178,34.844,连云港市,新城一中,,40,30,32,17,17,127,,80,80,11,20,4,3,0.6,0.7
2024-08-30T1100,3008A,119.3608,34.7519,连云港市,胡沟管理处,,31,31,27,14,13,95,,67,67,19,31,10,10,0.6,0.6
2024-08-30T1100,3009A,119.1478,34.5911,连云港市,矿山设计院,,37,24,28,9,14,117,,66,66,16,16,9,8,0.6,0.6
2024-08-30T1100,3434A,119.2413,34.6539,连云港市,工贸学校,,38,17,21,13,14,121,,91,91,9,8,6,7,0.7,0.7
2024-08-30T1100,3664A,119.4172,34.7341,连云港市,连云街道,,44,44,21,20,12,75,,77,75,69,19,10,5,0.6,0.5
2024-08-30T1100,2571A,102.3431,27.8099,凉山彝族自治州,青龙寺,颗粒物(PM10),58,65,34,31,21,86,,52,51,12,7,16,7,0.8,0.4
2024-08-30T1100,2572A,102.2721,27.8415,凉山彝族自治州,邛海宾馆,,46,39,34,32,24,78,,52,52,20,14,12,10,0.9,0.6
2024-08-30T1100,2573A,102.2625,27.898,凉山彝族自治州,西昌市政府,细颗粒物(PM2.5),58,44,33,41,25,69,,60,54,19,9,2,5,1.0,0.7
2024-08-30T1100,2574A,102.2685,27.8851,凉山彝族自治州,凉山州政府,颗粒物(PM10),53,55,39,29,24,80,,65,60,22,12,14,9,1.1,0.7
2024-08-30T1100,2575A,102.237,27.8914,凉山彝族自治州,长安,,45,36,39,31,24,78,,60,57,24,14,16,13,0.9,0.7
2024-08-30T1100,2212A,123.2,41.1953,辽阳市,宏伟区,臭氧1小时,58,50,36,24,17,166,,99,99,10,16,10,10,1.0,0.9
2024-08-30T1100,2213A,123.1683,41.2495,辽阳市,新华园,颗粒物(PM10),54,58,39,23,19,153,,90,90,15,22,13,11,1.4,1
2024-08-30T1100,2214A,123.2354,41.2639,辽阳市,滨河路,臭氧1小时,63,39,35,20,17,170,,92,92,11,15,11,10,1.0,0.7
2024-08-30T1100,2215A,123.149,41.2991,辽阳市,铁西工业园,,,63,43,22,18,150,,90,90,,26,16,12,,1
2024-08-30T1100,2227A,125.1358,42.8845,辽源市,环保局,,42,23,25,15,12,132,,72,72,3,12,7,6,0.8,0.7
2024-08-30T1100,3239A,125.0764,42.9078,辽源市,银鹰制药,,44,36,24,18,14,139,,80,80,8,20,4,4,0.9,0.7
2024-08-30T1100,1625A,115.9848,36.4372,聊城市,区政府,,44,44,48,25,26,140,,95,95,11,15,11,17,0.5,0.6
2024-08-30T1100,2878A,116.0072,36.4343,聊城市,聊大东校,,50,44,49,35,34,148,,98,98,8,14,12,12,0.5,0.6
2024-08-30T1100,3200A,115.9819,36.4978,聊城市,监控中心,,45,42,47,22,26,143,,99,99,9,16,9,13,0.3,0.4
2024-08-30T1100,3513A,116.0445,36.4361,聊城市,九州社区,,46,46,56,18,30,142,,86,86,8,15,3,9,0.5,0.6
2024-08-30T1100,4018A,116.0567,36.4608,聊城市,星美广场,,45,34,48,18,26,141,,93,93,6,12,2,10,0.4,0.5
2024-08-30T1100,2632A,94.3681,29.6376,林芝市,林芝监测站,,16,14,9,8,7,49,,37,33,6,5,10,9,0.4,0.4
2024-08-30T1100,2633A,94.3616,29.6616,林芝市,林芝人民医院,,16,10,13,8,7,49,,36,31,7,6,7,7,0.3,0.3
2024-08-30T1100,2603A,100.0781,23.8982,临沧市,市环保局,,17,14,15,10,13,52,,17,17,10,9,8,6,0.3,0.2
2024-08-30T1100,2604A,100.0894,23.8822,临沧市,市气象局,,22,22,14,14,9,50,,17,17,10,9,7,6,0.4,0.3
2024-08-30T1100,1733A,111.5531,36.0783,临汾市,临钢医院,颗粒物(PM10),56,62,51,23,20,119,,61,61,10,14,4,5,0.7,0.7
2024-08-30T1100,1734A,111.5028,36.0714,临汾市,技工学校,,46,46,52,21,22,123,,60,60,11,20,5,6,0.8,0.8
2024-08-30T1100,1736A,111.5018,36.0855,临汾市,市委,,44,44,47,19,16,133,,63,63,7,16,5,6,0.9,0.9
2024-08-30T1100,3018A,111.505,36.1014,临汾市,唐尧大酒店,颗粒物(PM10),60,70,71,18,19,123,,59,59,8,16,4,5,1.0,1
2024-08-30T1100,3668A,111.5036,36.0414,临汾市,城南,,48,48,51,17,20,129,,58,58,6,17,4,5,0.9,0.9
2024-08-30T1100,2667A,103.2069,35.5993,临夏回族自治州,环保局,,35,25,30,24,24,59,,42,42,4,8,7,8,0.5,0.5
2024-08-30T1100,2668A,103.2417,35.6057,临夏回族自治州,建设大厦,,30,30,37,14,17,67,,50,48,3,12,7,7,0.4,0.5
2024-08-30T1100,1618A,118.3429,35.0532,临沂市,沂河小区,臭氧1小时,63,46,38,24,23,170,,92,92,12,16,10,14,0.5,0.5
2024-08-30T1100,1619A,118.295,35.0583,临沂市,鲁南制药厂,臭氧1小时,78,34,36,16,22,182,,95,95,12,22,6,16,0.5,0.5
2024-08-30T1100,1620A,118.2794,34.9976,临沂市,新光毛纺厂,,50,29,32,18,22,159,,79,79,17,23,9,13,0.6,0.6
2024-08-30T1100,1621A,118.3956,35.0888,临沂市,河东保险公司,臭氧1小时,78,39,35,26,27,182,,103,103,13,22,11,11,0.8,0.7
2024-08-30T1100,3370A,118.3564,35.0215,临沂市,十里堡居委,臭氧1小时,57,31,28,22,21,165,,91,91,9,13,12,15,0.7,0.7
2024-08-30T1100,3496A,118.3604,35.1084,临沂市,南坊新区,臭氧1小时,75,48,36,27,16,180,,98,98,18,18,11,12,0.7,0.7
2024-08-30T1100,3860A,118.3920,35.0300,临沂市,皇山花园小区,,50,41,37,25,26,160,,86,86,17,20,12,15,0.5,0.6
2024-08-30T1100,1870A,109.4856,24.3895,柳州市,柳东小学,,38,38,30,24,21,94,,45,45,15,16,12,10,0.8,0.7
2024-08-30T1100,1871A,109.4157,24.3277,柳州市,环保监测站,颗粒物(PM10),51,51,31,26,21,88,,58,58,7,11,10,9,0.8,0.8
2024-08-30T1100,1872A,109.389,24.341,柳州市,河西水厂,,40,39,37,28,21,87,,57,57,6,10,9,8,1.3,1.1
2024-08-30T1100,1873A,109.4311,24.2921,柳州市,市四中,,36,36,33,16,21,93,,59,59,12,13,8,7,0.8,0.8
2024-08-30T1100,1874A,109.4006,24.3631,柳州市,市九中,,42,42,38,23,19,94,,55,55,9,9,8,7,0.6,0.6
2024-08-30T1100,1875A,109.4958,24.3134,柳州市,古亭山,,,,31,,19,82,,36,36,,20,,10,1.0,1
2024-08-30T1100,3402A,109.5422,24.3996,柳州市,市二中,,44,44,34,28,22,95,,43,43,12,15,13,11,0.7,0.6
2024-08-30T1100,2307A,116.5079,31.737,六安市,监测大楼,,33,32,19,14,15,103,,44,44,6,8,6,5,0.5,0.5
2024-08-30T1100,2308A,116.4738,31.7643,六安市,皖西学院,,37,37,29,16,14,110,,36,36,7,9,4,4,0.3,0.3
2024-08-30T1100,2309A,116.4996,31.7905,六安市,朝阳厂,,34,32,20,18,13,106,,42,42,4,8,3,1,0.3,0.3
2024-08-30T1100,2310A,116.5567,31.7886,六安市,开发区,,35,35,22,20,15,101,,42,42,5,8,5,3,0.4,0.4
2024-08-30T1100,2576A,104.8,26.5892,六盘水市,窑上,,,,,,,,,,,,,,,,
2024-08-30T1100,2577A,104.83,26.5917,六盘水市,黄土坡,,,38,23,29,18,65,,54,52,,9,,8,0.5,0.4
2024-08-30T1100,2578A,104.89,26.5939,六盘水市,水钢,,25,23,33,16,17,78,,54,54,6,9,7,8,0.4,0.4
2024-08-30T1100,2579A,104.8475,26.5894,六盘水市,民中,,26,26,24,14,13,72,,57,56,9,9,8,8,0.4,0.4
2024-08-30T1100,2580A,104.9544,26.5506,六盘水市,双水,,25,9,24,7,12,78,,60,60,5,6,6,6,0.3,0.3
2024-08-30T1100,2335A,117.0189,25.1181,龙岩市,龙岩师专,,,,,,,,,,,,,,,,
2024-08-30T1100,2336A,117.0217,25.1033,龙岩市,龙岩市监测站,,44,44,31,21,23,98,,59,59,10,14,5,9,0.4,0.5
2024-08-30T1100,2337A,117.0258,25.0661,龙岩市,闽西职业技术学院,,44,44,37,25,23,106,,45,45,7,19,5,8,0.5,0.6
2024-08-30T1100,2338A,117.0196,25.0306,龙岩市,龙岩学院,,42,42,34,24,18,95,,28,28,9,18,3,2,0.6,0.6
2024-08-30T1100,2665A,105.0822,33.3261,陇南市,汉王镇固水子,,,,,,,,,,,,,,,,
2024-08-30T1100,2885A,104.9339,33.3826,陇南市,滨江中学,,36,36,34,18,13,69,,55,55,10,8,8,6,0.5,0.4
2024-08-30T1100,3247A,104.955,33.371,陇南市,市总工会,,40,40,26,6,7,69,,58,55,8,6,11,7,0.3,0.3
2024-08-30T1100,2487A,111.9589,27.8901,娄底市,电视发射台,,27,23,25,13,13,84,,45,45,5,5,7,7,0.7,0.7
2024-08-30T1100,2488A,111.9975,27.725,娄底市,市监测站,颗粒物(PM10),63,75,31,42,23,93,,58,54,19,12,20,9,1.4,0.7
2024-08-30T1100,2489A,112.0194,27.7314,娄底市,市委党校,,50,50,28,27,20,91,,48,48,18,7,10,6,0.8,0.4
2024-08-30T1100,2490A,111.9561,27.7569,娄底市,涟钢,,46,46,35,28,22,79,,38,38,22,14,14,11,2.1,0.8
2024-08-30T1100,2491A,111.9892,27.7044,娄底市,市政府,,,,26,,21,100,,35,35,,10,8,6,1.2,0.7
2024-08-30T1100,1893A,105.4324,28.9634,泸州市,九狮山,细颗粒物(PM2.5),65,57,34,47,25,118,,64,64,2,2,7,6,0.8,0.4
2024-08-30T1100,1894A,105.4427,28.9063,泸州市,小市上码头,颗粒物(PM10),53,56,40,33,21,117,,74,74,14,13,9,7,0.6,0.4
2024-08-30T1100,1895A,105.4241,28.8573,泸州市,兰田宪桥,细颗粒物(PM2.5),60,52,36,43,26,125,,69,69,11,14,10,8,0.6,0.4
2024-08-30T1100,1896A,105.4379,28.8833,泸州市,市环监站,,,53,37,,28,137,,77,77,12,12,,8,,0.5
2024-08-30T1100,3490A,105.3617,28.7703,泸州市,纳溪区环保局,细颗粒物(PM2.5),55,54,47,39,36,119,,59,59,14,22,7,7,0.5,0.4
2024-08-30T1100,2183A,111.1406,37.5211,吕梁市,环保局,,50,50,50,11,22,97,,42,42,11,23,6,6,0.7,0.8
2024-08-30T1100,2185A,111.1297,37.5136,吕梁市,自来水公司,,45,45,72,12,24,103,,28,28,11,26,4,4,0.6,0.8
2024-08-30T1100,2867A,111.1283,37.51,吕梁市,马茂庄小学,颗粒物(PM10),52,53,58,21,17,98,,42,42,16,29,6,6,0.8,0.8
2024-08-30T1100,1812A,112.3931,34.6516,洛阳市,市委党校,颗粒物(PM10),53,55,57,32,38,144,,75,75,10,19,12,7,0.8,0.8
2024-08-30T1100,1814A,112.4657,34.6871,洛阳市,豫西宾馆,颗粒物(PM10),54,58,58,35,34,147,,70,70,4,14,10,6,0.7,0.6
2024-08-30T1100,1815A,112.494,34.6886,洛阳市,河南林校,,48,48,45,23,29,147,,66,66,11,19,8,4,0.8,0.7
2024-08-30T1100,1816A,112.3844,34.623,洛阳市,开发区管委会,,44,37,46,19,31,138,,76,76,8,14,10,3,0.5,0.5
2024-08-30T1100,1817A,112.4267,34.6258,洛阳市,市委新办公区,细颗粒物(PM2.5),55,,45,39,41,147,,68,68,6,12,8,4,0.7,0.7
2024-08-30T1100,3340A,112.6005,34.6326,洛阳市,伊滨,颗粒物(PM10),57,64,60,35,40,144,,51,51,6,16,8,6,0.5,0.5
2024-08-30T1100,3341A,112.4951,34.6332,洛阳市,中移产业园,细颗粒物(PM2.5),59,61,60,42,39,154,,65,65,14,28,7,4,2.7,1.8
2024-08-30T1100,3593A,112.5736,34.8993,洛阳市,吉利监测站,,48,48,53,21,37,148,,77,77,5,17,6,4,0.8,0.8
2024-08-30T1100,3635A,112.3677,34.662,洛阳市,河科大西苑校区,,49,49,49,28,27,152,,72,72,8,17,11,6,0.7,0.8
2024-08-30T1100,3636A,112.4388,34.6781,洛阳市,英才小学,颗粒物(PM10),52,54,55,35,36,150,,71,71,3,11,8,5,0.7,0.6
2024-08-30T1100,2399A,114.051,33.5699,漯河市,三五一五工厂,,39,34,34,18,21,123,,82,82,5,13,7,9,0.6,0.6
2024-08-30T1100,2400A,114.0055,33.5698,漯河市,漯河大学,,40,32,35,12,21,125,,88,88,4,9,3,5,0.6,0.6
2024-08-30T1100,2401A,114.0138,33.5828,漯河市,市水利局,,39,29,31,14,17,124,,88,88,3,8,8,9,0.8,0.8
2024-08-30T1100,2402A,114.0261,33.5698,漯河市,市广电局,,40,24,29,8,14,126,,86,86,3,10,5,7,0.5,0.5
2024-08-30T1100,3478A,113.9749,33.5664,漯河市,市图书馆,,41,21,37,14,22,131,,72,72,2,10,6,7,0.5,0.6
2024-08-30T1100,3479A,114.0967,33.5906,漯河市,召陵区卫健委,,39,33,44,26,25,122,,67,67,4,19,4,6,0.4,0.5
2024-08-30T1100,1798A,118.5092,31.6837,马鞍山市,湖东路四小,,41,40,29,10,12,129,,60,60,9,13,5,5,0.7,0.7
2024-08-30T1100,1799A,118.5024,31.6449,马鞍山市,开发区,,40,40,34,19,14,123,,53,53,10,15,5,5,1.0,0.9
2024-08-30T1100,1800A,118.5228,31.7231,马鞍山市,慈湖,,42,28,28,14,15,134,,57,57,9,10,7,7,0.7,0.7
2024-08-30T1100,1802A,118.6245,31.7241,马鞍山市,濮塘,,37,22,20,12,15,117,,50,50,11,14,6,6,0.6,0.6
2024-08-30T1100,3633A,118.4918,31.6809,马鞍山市,雨山,,40,29,25,14,12,127,,53,53,7,9,7,6,0.8,0.8
2024-08-30T1100,1686A,111.0286,21.4688,茂名市,电白南海,,31,27,26,14,17,99,,49,49,7,12,9,10,0.6,0.7
2024-08-30T1100,1687A,110.9294,21.6533,茂名市,茂石化七小,,42,36,21,29,19,87,,43,43,8,10,12,12,0.6,0.6
2024-08-30T1100,1688A,110.9107,21.6687,茂名市,健康路,,30,19,18,12,10,94,,46,46,7,10,14,16,0.6,0.7
2024-08-30T1100,1689A,110.8592,21.6828,茂名市,高岭,,32,22,25,22,14,83,,37,37,9,15,20,23,1.0,0.9
2024-08-30T1100,3450A,111.01,21.5165,茂名市,电白水东,,28,24,20,17,14,89,,49,49,6,12,6,8,0.5,0.6
2024-08-30T1100,2539A,104.0308,30.0478,眉山市,黑龙滩水库,,45,45,38,19,26,88,,37,37,5,10,5,5,0.5,0.5
2024-08-30T1100,2540A,103.8416,30.0874,眉山市,气象局,,33,31,38,17,25,103,,48,48,18,19,10,9,0.6,0.6
2024-08-30T1100,3137A,103.8578,30.0744,眉山市,市委党校,,41,41,42,22,22,110,,57,57,16,16,11,12,0.5,0.5
2024-08-30T1100,3148A,103.8291,30.0564,眉山市,区人社局,,37,37,33,22,20,110,,54,54,21,19,13,9,0.7,0.6
2024-08-30T1100,1690A,116.1231,24.3284,梅州市,梅江月梅,,35,27,28,24,17,88,,40,40,2,10,6,6,0.5,0.5
2024-08-30T1100,1691A,116.0797,24.2719,梅州市,梅县新城,,41,41,25,25,14,100,,43,43,5,13,4,4,0.6,0.6
2024-08-30T1100,1692A,116.1248,24.2654,梅州市,环境监控中心,,36,36,28,20,14,81,,46,46,11,14,4,7,0.4,0.4
2024-08-30T1100,3315A,116.1233,24.2991,梅州市,梅龙,,31,24,19,20,16,99,,54,54,4,9,8,8,0.6,0.6
2024-08-30T1100,1878A,104.7778,31.4741,绵阳市,富乐山,,25,25,20,15,18,52,,42,40,9,9,3,3,0.6,0.5
2024-08-30T1100,1879A,104.7563,31.4535,绵阳市,市人大,,30,30,23,17,17,41,,39,33,23,15,11,8,0.6,0.5
2024-08-30T1100,1880A,104.6697,31.4668,绵阳市,高新区自来水公司,,36,36,26,17,12,22,,25,20,24,14,2,2,0.9,0.8
2024-08-30T1100,1881A,104.7287,31.5075,绵阳市,三水厂,,40,40,24,15,15,15,,19,13,25,15,5,5,0.8,0.6
2024-08-30T1100,3491A,104.69,31.5322,绵阳市,西科大附属小学,,40,40,26,11,14,24,,20,17,22,17,4,4,0.8,0.7
2024-08-30T1100,3492A,104.5648,31.5343,绵阳市,安州区旅游局,,25,20,19,17,18,47,,29,26,13,12,7,7,0.7,0.6
2024-08-30T1100,1784A,129.61,44.561,牡丹江市,环保大楼,,21,16,20,11,11,66,,40,40,4,12,7,7,0.3,0.4
2024-08-30T1100,1785A,129.6115,44.5782,牡丹江市,文化广场,,20,15,31,7,18,63,,41,41,6,18,8,8,0.4,0.5
2024-08-30T1100,1786A,129.5904,44.5963,牡丹江市,第一医院,,,,22,16,15,68,,47,47,6,13,,6,0.4,0.5
2024-08-30T1100,1787A,129.6364,44.6075,牡丹江市,机车工厂,,21,14,29,3,12,65,,32,32,6,12,6,5,0.4,0.4
2024-08-30T1100,1788A,129.6386,44.5462,牡丹江市,第一中学,,33,33,31,3,12,64,,28,28,4,14,5,6,0.4,0.4
2024-08-30T1100,2531A,105.0703,29.61,内江市,市监测站,细颗粒物(PM2.5),55,,28,39,33,118,,74,72,20,12,7,6,0.4,0.4
2024-08-30T1100,2532A,105.0717,29.5947,内江市,东兴区政府,,50,,30,35,28,109,,75,71,18,14,10,10,0.7,0.6
2024-08-30T1100,2533A,105.0653,29.5817,内江市,内江二中,细颗粒物(PM2.5),67,,34,48,35,113,,73,71,16,13,9,8,0.7,0.6
2024-08-30T1100,2534A,105.0406,29.5822,内江市,内江日报社,细颗粒物(PM2.5),59,48,38,42,33,121,,74,74,21,16,7,7,0.6,0.5
2024-08-30T1100,2628A,92.0657,31.4846,那曲市,那曲监测站,,46,46,38,19,14,74,,45,45,6,8,6,7,0.6,0.7
2024-08-30T1100,3128A,92.0506,31.4797,那曲市,那曲会议中心,,39,39,29,14,12,91,,52,52,10,12,4,4,0.5,0.5
2024-08-30T1100,1290A,115.8931,28.6843,南昌市,省外办,,44,44,29,27,17,132,,68,68,14,17,10,8,0.6,0.5
2024-08-30T1100,1291A,115.8886,28.7003,南昌市,省林业公司,,45,36,29,19,14,144,,60,60,13,20,7,6,0.8,0.7
2024-08-30T1100,1292A,115.8126,28.7442,南昌市,林科所,,45,27,18,14,10,143,,64,64,12,15,8,6,1.1,0.8
2024-08-30T1100,1294A,115.8518,28.687,南昌市,建工学校,,46,23,21,3,8,147,,81,81,6,11,9,8,0.8,0.6
2024-08-30T1100,1295A,115.8921,28.6424,南昌市,象湖,,47,37,22,27,14,150,,83,83,18,16,7,4,1.0,1
2024-08-30T1100,1296A,115.7423,28.7996,南昌市,武术学校,,32,21,21,9,15,101,,35,35,5,6,3,2,0.8,0.7
2024-08-30T1100,1298A,115.9314,28.6842,南昌市,省站,,41,36,31,22,18,129,,74,74,17,14,8,7,0.9,0.8
2024-08-30T1100,3046A,115.9084,28.6062,南昌市,机电学校,颗粒物(PM10),52,54,41,19,15,127,,54,54,14,28,9,7,1.1,1
2024-08-30T1100,3690A,115.9721,28.7031,南昌市,外国语学校,,42,38,27,17,11,134,,74,74,14,16,6,5,0.7,0.6
2024-08-30T1100,1905A,106.056,30.8064,南充市,西山风景区,,48,37,32,33,31,107,,54,54,10,9,2,2,0.8,0.8
2024-08-30T1100,1906A,106.0789,30.8023,南充市,南充市委,细颗粒物(PM2.5),53,54,45,37,33,117,,60,60,12,12,8,8,0.6,0.5
2024-08-30T1100,1907A,106.1031,30.8217,南充市,南充炼油厂,,,49,49,35,34,119,,61,61,10,9,,7,0.6,0.5
2024-08-30T1100,1908A,106.1064,30.7856,南充市,高坪区监测站,细颗粒物(PM2.5),54,50,46,38,33,114,,60,60,17,13,7,7,0.6,0.5
2024-08-30T1100,1909A,106.0642,30.7636,南充市,嘉陵区环保局,细颗粒物(PM2.5),55,54,44,39,30,126,,59,59,16,14,6,5,0.5,0.5
2024-08-30T1100,1910A,106.1087,30.8388,南充市,市环境监测站,颗粒物(PM10),55,59,52,33,32,118,,59,59,13,12,8,7,0.5,0.4
2024-08-30T1100,1151A,118.8086,32.1065,南京市,迈皋桥,,34,26,21,12,12,108,,50,50,10,18,4,4,0.2,0.2
2024-08-30T1100,1152A,118.7538,32.0551,南京市,草场门,,,,22,,9,,,43,42,,15,,5,,0.3
2024-08-30T1100,1153A,118.7794,32.0745,南京市,山西路,,40,24,28,14,12,127,,55,55,2,13,4,4,0.4,0.4
2024-08-30T1100,1154A,118.7752,32.0023,南京市,中华门,,34,31,21,17,10,106,,45,45,12,14,4,4,0.4,0.3
2024-08-30T1100,1155A,118.8109,32.0309,南京市,瑞金路,,39,36,22,19,11,124,,56,56,6,8,5,4,0.4,0.4
2024-08-30T1100,1156A,118.7997,32.0754,南京市,玄武湖,,40,40,28,9,8,122,,56,56,1,11,5,5,0.6,0.6
2024-08-30T1100,1157A,118.6414,32.0931,南京市,浦口,,41,41,26,15,12,122,,48,48,10,12,7,7,0.5,0.4
2024-08-30T1100,1158A,118.7356,31.9996,南京市,奥体中心,,41,29,25,19,16,129,,56,56,11,14,4,4,0.4,0.3
2024-08-30T1100,1159A,118.9125,32.1028,南京市,仙林大学城,,40,29,23,22,17,125,,56,56,6,12,7,7,0.5,0.5
2024-08-30T1100,3422A,118.8436,31.9198,南京市,江宁彩虹桥,,,34,28,34,14,114,,47,47,,9,,4,0.5,0.4
2024-08-30T1100,3423A,119.0138,31.6494,南京市,溧水永阳,,34,14,19,12,13,107,,55,55,10,13,4,4,0.4,0.5
2024-08-30T1100,3424A,118.879,31.3302,南京市,高淳老职中,,36,26,24,14,16,114,,72,72,7,11,4,6,0.2,0.2
2024-08-30T1100,3427A,118.8554,32.3578,南京市,六合雄州,,35,27,25,21,13,109,,45,45,14,11,4,4,0.5,0.4
2024-08-30T1100,1401A,108.3103,22.7881,南宁市,二十一中,,29,26,32,20,19,65,,26,26,15,23,4,7,0.7,0.7
2024-08-30T1100,1402A,108.3141,22.8528,南宁市,北湖,,39,39,32,25,23,51,,28,28,21,21,4,5,0.8,0.8
2024-08-30T1100,1403A,108.3206,22.8225,南宁市,市监测站,,36,36,33,21,23,45,,28,26,25,25,5,6,0.8,0.7
2024-08-30T1100,1404A,108.3829,22.8037,南宁市,大自然花园,,35,35,22,19,17,48,,18,18,15,19,4,5,0.7,0.6
2024-08-30T1100,1405A,108.4394,22.7904,南宁市,仙葫,,31,31,23,21,13,52,,22,22,10,18,7,7,0.6,0.6
2024-08-30T1100,1406A,108.2397,22.8467,南宁市,区农职院,颗粒物(PM10),55,59,30,34,21,35,,24,24,25,18,13,13,0.7,0.6
2024-08-30T1100,1407A,108.3275,22.735,南宁市,英华嘉园,,,40,32,31,20,57,,15,15,,27,7,7,0.6,0.6
2024-08-30T1100,1408A,108.2257,22.7757,南宁市,沙井镇街道办,,,58,32,28,19,46,,15,15,25,24,,7,0.8,0.6
2024-08-30T1100,3401A,108.4834,22.7618,南宁市,红星社区,,29,,22,20,15,60,,20,20,10,15,6,5,0.7,0.7
2024-08-30T1100,2331A,118.0966,26.6761,南平市,茫荡山,,,,,,,,,,,,,,,,
2024-08-30T1100,2332A,118.1681,26.6369,南平市,南平市监测站,,30,25,23,14,13,96,,48,48,5,8,4,4,0.6,0.7
2024-08-30T1100,2333A,118.1825,26.6489,南平市,南平铝业有限公司,,31,20,24,18,13,97,,53,53,5,7,6,6,0.6,0.6
2024-08-30T1100,2334A,118.1756,26.6272,南平市,南平七中,,35,35,26,18,13,86,,39,39,6,6,4,4,0.5,0.5
2024-08-30T1100,1168A,120.9098,31.9663,南通市,狼山街道,,34,19,13,11,6,106,,60,60,8,5,8,6,0.8,0.5
2024-08-30T1100,1169A,120.86,32.0005,南通市,虹桥,,31,24,18,16,7,98,,69,69,4,5,6,5,0.5,0.3
2024-08-30T1100,1170A,120.87,32.02,南通市,城中,,31,23,21,10,5,97,,65,65,6,11,6,5,0.9,0.8
2024-08-30T1100,1171A,120.94,31.93,南通市,星湖花园,,35,19,11,11,2,110,,65,65,10,9,7,4,1.1,0.8
2024-08-30T1100,1172A,120.81,32.0417,南通市,紫琅学院,,30,20,13,3,5,93,,53,53,6,12,8,6,0.8,0.7
2024-08-30T1100,3291A,121.067,32.062,南通市,通州监测站,,30,24,17,7,5,93,,70,70,5,5,4,3,0.8,0.6
2024-08-30T1100,3432A,120.9348,31.9883,南通市,环境教育馆,,33,22,20,6,5,105,,58,58,3,7,5,4,0.6,0.5
2024-08-30T1100,2404A,112.5224,33.0122,南阳市,瓦房庄,,36,36,43,14,23,103,,72,72,7,11,4,5,0.5,0.6
2024-08-30T1100,2405A,112.5003,32.9735,南阳市,汉画馆,,37,37,45,23,28,102,,70,70,9,14,5,5,0.6,0.6
2024-08-30T1100,2406A,112.5573,33.027,南阳市,气象站,,38,38,48,14,22,103,,68,68,5,11,5,6,0.5,0.6
2024-08-30T1100,2407A,112.5481,32.9689,南阳市,理工学院,,32,30,41,16,20,102,,69,69,8,15,4,4,0.3,0.4
2024-08-30T1100,4008A,112.5234,32.9922,南阳市,卧龙区政府,,32,32,45,21,24,100,,72,70,9,12,5,5,0.7,0.7
2024-08-30T1100,1234A,121.8358,29.911,宁波市,区环保大楼,,37,26,23,9,11,117,,60,60,26,22,13,9,0.7,0.6
2024-08-30T1100,1235A,121.56,29.82,宁波市,万里学院,,32,28,24,11,11,100,,41,41,20,22,10,10,0.8,0.7
2024-08-30T1100,1236A,121.713,29.9572,宁波市,龙赛医院,臭氧1小时,60,30,23,13,11,168,,58,58,22,23,9,8,0.7,0.6
2024-08-30T1100,1239A,121.633,29.7733,宁波市,钱湖水厂,,36,17,14,9,8,115,,46,46,10,14,8,8,0.5,0.6
2024-08-30T1100,1240A,121.5856,29.8635,宁波市,太古小学,,31,24,17,12,9,97,,41,41,19,23,6,6,0.8,0.8
2024-08-30T1100,1241A,121.524,29.8674,宁波市,市环境监测中心,,34,23,21,10,8,108,,41,41,15,21,5,5,0.6,0.6
2024-08-30T1100,2871A,121.6147,29.9017,宁波市,万里国际学校,,,,18,,11,,,79,,,24,,7,,0.5
2024-08-30T1100,3710A,121.5594,29.8975,宁波市,白沙活动中心,,37,33,24,9,8,116,,55,55,16,20,8,8,0.5,0.4
2024-08-30T1100,2339A,119.5001,26.6946,宁德市,金涵水库,,,,,,,,,,,,,,,,
2024-08-30T1100,2341A,119.5388,26.6612,宁德市,宁德市监测站,,43,43,29,24,20,112,,59,59,11,10,7,6,0.7,0.8
2024-08-30T1100,3209A,119.5231,26.6562,宁德市,宁德一中,,46,46,32,27,18,112,,60,60,10,7,6,5,0.9,0.9
2024-08-30T1100,2618A,98.8601,25.8567,怒江傈僳族自治州,州监测站,,24,24,26,16,19,44,,25,25,13,14,6,6,0.4,0.4
2024-08-30T1100,2619A,98.8546,25.8417,怒江傈僳族自治州,泸水一中,,23,,23,16,14,42,,19,19,12,16,5,6,0.5,0.5
2024-08-30T1100,1888A,101.6891,26.571,攀枝花市,弄弄坪,颗粒物(PM10),75,99,59,38,30,38,,41,36,60,24,44,18,3.4,1.2
2024-08-30T1100,1889A,101.5769,26.5928,攀枝花市,河门口,颗粒物(PM10),51,52,38,24,24,45,,26,26,24,21,9,7,0.9,0.7
2024-08-30T1100,1890A,101.7169,26.585,攀枝花市,炳草岗,颗粒物(PM10),72,93,66,50,38,37,,24,23,56,36,29,17,2.1,1.1
2024-08-30T1100,1891A,101.7369,26.5008,攀枝花市,仁和,,40,40,39,21,24,46,,37,35,24,14,7,9,0.9,0.7
2024-08-30T1100,2835A,101.7227,26.567,攀枝花市,四十中小,颗粒物(PM10),61,72,62,39,37,58,,30,28,39,32,39,28,2.1,1.3
2024-08-30T1100,1604A,122.0303,41.1489,盘锦市,开发区,臭氧1小时,65,48,31,23,22,172,,136,136,9,10,5,5,1.0,0.8
2024-08-30T1100,1605A,122.0485,41.0883,盘锦市,兴隆台,,49,33,30,25,17,156,,124,124,11,19,6,6,1.0,0.8
2024-08-30T1100,1606A,121.8297,41.1028,盘锦市,新生街道,,,49,30,22,16,187,,132,132,12,7,,6,1.0,0.9
2024-08-30T1100,1832A,113.3257,33.742,平顶山市,新华旅馆,颗粒物(PM10),53,55,55,23,23,116,,56,56,8,21,6,6,0.7,0.6
2024-08-30T1100,1833A,113.2919,33.737,平顶山市,规划设计院,,37,37,37,19,23,113,,57,57,10,23,7,8,0.6,0.6
2024-08-30T1100,1834A,113.182,33.774,平顶山市,平顶山工学院,,36,35,36,14,17,114,,46,46,6,21,7,8,0.8,0.8
2024-08-30T1100,3204A,113.3025,33.73,平顶山市,规划局,,41,41,50,26,24,107,,53,53,10,21,3,4,0.5,0.5
2024-08-30T1100,3594A,112.8867,33.9116,平顶山市,石龙区,,,54,89,24,28,,,19,19,19,38,9,8,0.5,0.6
2024-08-30T1100,2656A,106.6692,35.5461,平凉市,聚贤嘉苑,颗粒物(PM10),65,80,49,26,23,89,,102,95,19,19,8,9,0.5,0.5
2024-08-30T1100,2657A,106.7021,35.5307,平凉市,博物馆,颗粒物(PM10),53,56,54,21,21,87,,116,103,27,22,11,10,0.6,0.6
2024-08-30T1100,2347A,114.0997,27.5002,萍乡市,武功山,,27,6,8,3,3,85,,34,34,3,4,9,9,0.4,0.4
2024-08-30T1100,2348A,113.8385,27.6434,萍乡市,中医院,,36,29,25,18,18,114,,40,40,7,11,10,10,1.0,0.9
2024-08-30T1100,2349A,113.8493,27.6253,萍乡市,市政府车库,,43,36,24,30,16,106,,41,41,12,9,16,11,1.8,0.9
2024-08-30T1100,2350A,113.8676,27.6435,萍乡市,市环保局,,46,46,29,26,19,102,,39,39,10,11,20,12,2.4,0.9
2024-08-30T1100,2351A,113.866,27.6198,萍乡市,安源区政府,,42,42,35,18,9,99,,35,35,15,12,20,14,1.6,0.8
2024-08-30T1100,2319A,119.0141,25.4325,莆田市,荔城区仓后路,,33,33,48,18,32,104,,61,61,9,12,7,7,0.7,0.8
2024-08-30T1100,2320A,119.0015,25.4553,莆田市,莆田市监测站,,37,37,39,14,25,94,,61,61,6,7,6,6,0.6,0.6
2024-08-30T1100,2321A,119.1119,25.4561,莆田市,涵江区六中,,39,35,35,18,27,123,,90,86,7,8,6,6,0.6,0.6
2024-08-30T1100,2322A,119.1013,25.3215,莆田市,秀屿区政府,,36,30,35,16,36,115,,79,79,7,9,6,6,0.7,0.7
2024-08-30T1100,2323A,118.981,25.4792,莆田市,东圳水库,,,,,,,,,,,,,,,,
2024-08-30T1100,2392A,115.0312,35.7636,濮阳市,环保局,,40,35,40,18,26,126,,97,97,7,12,7,7,0.5,0.5
2024-08-30T1100,2394A,115.0574,35.7609,濮阳市,油田运输公司,,42,30,40,22,27,133,,95,95,7,14,4,3,0.4,0.5
2024-08-30T1100,2395A,115.0866,35.7754,濮阳市,油田物探公司,,43,31,44,22,32,137,,92,92,5,12,7,6,0.5,0.5
2024-08-30T1100,3021A,115,35.7668,濮阳市,濮水河管理处,,39,31,42,20,31,123,,82,82,8,13,5,4,0.4,0.5
2024-08-30T1100,2601A,100.98,22.7633,普洱市,市环保局,,27,27,25,11,12,45,,16,16,9,7,3,3,0.5,0.5
2024-08-30T1100,2602A,100.9817,22.8322,普洱市,普洱第二中学,,25,25,21,8,9,43,,13,13,6,7,6,6,0.6,0.6
2024-08-30T1100,2262A,131.0518,45.8751,七台河市,新一中,,37,18,23,8,12,118,,58,58,11,13,10,10,1.0,1.1
2024-08-30T1100,3345A,131.0577,45.7879,七台河市,中波台,,,,28,,6,,,,,,21,,12,,0.4
2024-08-30T1100,3637A,131.0176,45.7761,七台河市,人民广场,,22,18,23,13,10,69,,49,49,7,10,9,9,0.3,0.4
2024-08-30T1100,3684A,130.8781,45.8222,七台河市,新建矿广场,颗粒物(PM10),54,58,50,10,16,68,,37,37,15,21,13,11,0.5,0.5
2024-08-30T1100,1779A,123.9305,47.3636,齐齐哈尔市,安居小区,,23,16,16,3,7,71,,52,52,4,7,11,11,0.3,0.4
2024-08-30T1100,1780A,123.9488,47.3386,齐齐哈尔市,中心广场,,21,15,11,13,5,67,,50,50,6,10,2,2,0.3,0.3
2024-08-30T1100,1781A,123.9483,47.3227,齐齐哈尔市,农牧车辆厂,,,,20,,5,59,,52,49,6,8,8,8,,0.1
2024-08-30T1100,1783A,123.945,47.2988,齐齐哈尔市,市环境监测站,,21,15,13,3,8,65,,47,47,5,8,7,7,0.3,0.3
2024-08-30T1100,3662A,123.6333,47.2075,齐齐哈尔市,富区青少年活动中心,,22,13,10,3,3,70,,47,47,6,8,2,3,0.5,0.5
2024-08-30T1100,2591A,107.9783,26.5747,黔东南苗族侗族自治州,市环境监测站,,36,29,24,25,19,61,,73,67,14,11,3,3,0.6,0.6
2024-08-30T1100,2881A,107.8908,26.5311,黔东南苗族侗族自治州,凯里学院,,29,29,19,17,16,72,,73,68,9,8,2,2,0.6,0.5
2024-08-30T1100,2593A,107.5228,26.2403,黔南布依族苗族自治州,小围寨,,,19,24,12,18,62,,25,25,,9,,4,0.6,0.6
2024-08-30T1100,3538A,107.5175,26.2978,黔南布依族苗族自治州,沙坝,,20,19,31,14,21,60,,30,30,4,8,4,4,0.5,0.6
2024-08-30T1100,2589A,104.9022,25.0925,黔西南布依族苗族自治州,场坝街,,20,20,23,14,15,52,,49,48,4,6,1,3,0.4,0.4
2024-08-30T1100,2590A,104.8811,25.0992,黔西南布依族苗族自治州,坪东大道,,29,27,25,20,14,46,,44,44,5,7,5,7,0.2,0.2
2024-08-30T1100,2502A,108.6236,21.9667,钦州市,市环保站,,25,24,24,12,9,78,,32,32,11,15,8,9,0.7,1.2
2024-08-30T1100,2503A,108.6549,21.9481,钦州市,沙埠小学,,43,43,27,18,13,78,,24,24,10,16,6,5,0.6,0.8
2024-08-30T1100,2504A,108.5989,21.7431,钦州市,港区一小,,44,44,33,24,15,80,,27,27,20,28,8,7,1.0,0.8
2024-08-30T1100,3404A,108.5959,21.9633,钦州市,北职校,,38,38,26,17,16,81,,32,32,12,12,8,5,0.9,1
2024-08-30T1100,1042A,119.5134,39.8207,秦皇岛市,北戴河环保局,颗粒物(PM10),61,71,63,29,22,165,,113,113,13,13,5,4,1.0,0.9
2024-08-30T1100,1043A,119.7493,40.0116,秦皇岛市,第一关,,50,50,63,28,42,153,,101,101,9,28,2,4,0.6,0.8
2024-08-30T1100,1044A,119.5897,39.9499,秦皇岛市,监测站,臭氧1小时,58,47,54,34,35,166,,131,131,12,13,5,4,1.0,1
2024-08-30T1100,1046A,119.5251,39.9041,秦皇岛市,建设大厦,臭氧1小时,68,65,60,20,25,174,,130,130,8,11,12,9,1.0,0.9
2024-08-30T1100,3132A,119.610547,39.943889,秦皇岛市,文明里,臭氧1小时,55,49,60,23,30,164,,130,130,18,16,8,6,1.0,1
2024-08-30T1100,1307A,120.6659,36.2403,青岛市,仰口,,48,27,26,18,18,153,,126,126,7,7,8,6,0.3,0.2
2024-08-30T1100,1310A,120.4134,36.0658,青岛市,市南区东部子站,颗粒物(PM10),51,51,32,14,7,160,,80,79,28,22,20,9,1.5,0.6
2024-08-30T1100,1311A,120.3664,36.1032,青岛市,四方区子站,臭氧1小时,57,48,34,22,16,165,,78,78,24,28,22,12,1.1,0.8
2024-08-30T1100,1312A,120.2994,36.054,青岛市,市南区西部子站,颗粒物(PM10),52,53,40,20,13,154,,54,53,23,26,13,10,1.3,0.8
2024-08-30T1100,1313A,120.4581,36.0858,青岛市,崂山区子站,颗粒物(PM10),52,53,34,17,9,145,,75,75,30,21,17,10,1.5,0.6
2024-08-30T1100,1314A,120.1983,35.9608,青岛市,黄岛区子站,,48,24,26,17,17,152,,101,101,18,23,9,10,0.6,0.8
2024-08-30T1100,1315A,120.3999,36.3083,青岛市,城阳区子站,臭氧1小时,64,58,32,17,13,171,,88,88,22,22,11,8,1.0,0.6
2024-08-30T1100,1966A,120.0405,35.8735,青岛市,黄岛区4号,,47,39,34,17,14,148,,74,74,24,24,15,10,1.3,0.8
2024-08-30T1100,3362A,120.5014,36.4034,青岛市,即墨2号,臭氧1小时,92,53,41,21,21,193,,97,97,18,25,11,8,0.8,0.6
2024-08-30T1100,3642A,120.3503,36.0736,青岛市,市北区南部,颗粒物(PM10),51,51,32,22,14,152,,74,74,33,28,12,10,1.0,0.7
2024-08-30T1100,3643A,120.3948,36.1805,青岛市,李沧区北部,臭氧1小时,54,41,30,29,17,163,,89,89,23,25,13,9,0.9,0.7
2024-08-30T1100,1702A,113.0426,23.691,清远市,环保大楼,,23,21,18,16,12,71,,58,54,10,9,6,8,0.9,0.9
2024-08-30T1100,1703A,113.0208,23.7106,清远市,凤城街办,,22,22,21,13,14,66,,48,46,8,11,6,6,0.6,0.6
2024-08-30T1100,3025A,113.0477,23.6344,清远市,技师学院,,26,26,24,15,14,72,,34,34,11,15,4,4,0.4,0.5
2024-08-30T1100,3318A,112.9903,23.7403,清远市,清新太和,,25,24,22,17,12,79,,45,45,3,3,4,4,0.7,0.7
2024-08-30T1100,3455A,113.076,23.7198,清远市,清城东城,,23,20,23,13,14,72,,45,42,3,6,6,6,0.7,0.6
2024-08-30T1100,2661A,107.6325,35.7357,庆阳市,庆阳五中,,,,35,20,18,98,,112,103,7,8,,6,0.6,0.6
2024-08-30T1100,2662A,107.6364,35.7067,庆阳市,市环保局,,32,32,32,14,20,96,,110,100,6,8,5,5,0.5,0.5
2024-08-30T1100,1916A,103.7897,25.5035,曲靖市,环境监测站,,,51,39,22,17,37,,41,36,,18,,7,1.0,0.8
2024-08-30T1100,1917A,103.8,25.5364,曲靖市,烟厂办公区,,,,,,,,,,,,,,,,
2024-08-30T1100,3376A,103.7947,25.462,曲靖市,南苑二区,颗粒物(PM10),54,58,34,22,16,48,,44,40,20,12,25,13,0.8,0.6
2024-08-30T1100,3377A,103.7444,25.5261,曲靖市,曲靖师范学院,,33,33,32,22,20,52,,40,39,16,15,11,14,0.7,0.6
2024-08-30T1100,1264A,118.8692,28.9398,衢州市,环保大楼,,44,30,36,20,24,140,,68,68,13,24,2,3,0.6,0.9
2024-08-30T1100,1265A,118.8709,28.9666,衢州市,实验学校,,42,24,36,14,23,133,,65,65,9,22,5,7,0.5,0.8
2024-08-30T1100,1266A,118.8621,28.9808,衢州市,衢州学院,,40,29,36,18,22,127,,63,63,12,22,4,4,0.5,0.7
2024-08-30T1100,1611A,118.5819,24.9117,泉州市,涂山街,,42,42,37,18,37,115,,79,79,9,12,1,2,0.5,0.6
2024-08-30T1100,1612A,118.5972,24.8978,泉州市,津头埔,,33,30,32,21,35,103,,72,72,15,13,2,2,0.8,0.8
2024-08-30T1100,1613A,118.6663,24.9424,泉州市,万安,,39,34,33,16,32,124,,75,75,6,7,3,2,0.5,0.6
2024-08-30T1100,1614A,118.6117,24.9604,泉州市,清源山,,,,,,,,,,,,,,,,
2024-08-30T1100,3529A,118.6333,24.9264,泉州市,城华南路,,34,32,35,16,29,108,,73,73,9,7,2,2,0.6,0.5
2024-08-30T1100,2626A,88.8876,29.2718,日喀则市,日喀则监测站,,29,13,9,3,4,91,,99,88,11,7,5,5,0.4,0.4
2024-08-30T1100,3726A,88.8781,29.2426,日喀则市,林业技术推广中心,,32,12,5,6,4,101,,92,86,7,6,8,8,0.4,0.4
2024-08-30T1100,1659A,119.471,35.4209,日照市,监测站,,45,27,28,18,17,144,,53,53,12,27,11,10,0.7,0.7
2024-08-30T1100,1660A,119.523,35.4216,日照市,市政府广场,,,31,27,17,14,146,,65,65,14,28,,11,0.8,0.7
2024-08-30T1100,1661A,119.5587,35.4044,日照市,港务局,,48,39,35,23,23,152,,56,56,12,30,14,13,0.7,0.8
2024-08-30T1100,3507A,119.5328,35.4625,日照市,职业技术学院,,47,34,31,17,16,148,,71,71,20,31,11,10,0.7,0.8
2024-08-30T1100,3604A,119.3266,35.1044,日照市,岚山环保分局,,,34,39,10,16,130,,64,64,,24,,12,0.6,0.7
2024-08-30T1100,1835A,111.1922,34.7752,三门峡市,市政府,,50,50,47,29,28,131,,104,104,10,14,14,12,0.7,0.7
2024-08-30T1100,1836A,111.1587,34.7942,三门峡市,开发区,,,62,64,33,37,133,,109,107,,14,,12,0.7,0.7
2024-08-30T1100,1838A,111.143,34.7955,三门峡市,风景区,,,,,,,,,,,,,,,,
2024-08-30T1100,3039A,111.1911,34.7829,三门峡市,三门峡市第一小学,细颗粒物(PM2.5),58,64,48,41,47,129,,107,107,12,13,14,9,0.7,0.7
2024-08-30T1100,3598A,111.1,34.7167,三门峡市,富达温泉假日酒店,颗粒物(PM10),55,59,46,30,33,135,,95,95,14,10,12,10,1.0,0.9
2024-08-30T1100,2324A,117.6211,26.2625,三明市,三钢,,46,46,37,29,28,86,,25,25,10,14,12,10,1.2,1
2024-08-30T1100,2325A,117.635,26.2714,三明市,三明二中,颗粒物(PM10),52,54,34,29,21,88,,29,29,11,13,7,5,0.9,0.7
2024-08-30T1100,2326A,117.6028,26.2378,三明市,三元区政府,,45,41,43,31,27,91,,25,25,10,14,4,5,0.8,0.7
2024-08-30T1100,2327A,117.7275,26.3108,三明市,洋溪,,,,,,,,,,,,,,,,
2024-08-30T1100,1876A,109.5078,18.2489,三亚市,河东子站,,25,17,20,7,9,80,,72,70,6,6,3,3,0.3,0.3
2024-08-30T1100,1877A,109.4964,18.2681,三亚市,河西子站,,24,24,17,6,8,75,,69,66,5,7,3,3,0.2,0.2
2024-08-30T1100,3540A,109.7348,18.3443,三亚市,君悦子站,,25,21,24,7,10,80,,53,48,8,10,1,1,0.3,0.2
2024-08-30T1100,2624A,91.7608,29.2313,山南市,山南监测站,,30,15,10,10,5,93,,88,80,10,6,8,8,0.3,0.3
2024-08-30T1100,2625A,91.7706,29.2436,山南市,山南人民医院,,26,18,18,8,9,81,,93,80,19,10,8,7,0.5,0.4
2024-08-30T1100,1674A,116.6794,23.3667,汕头市,金平子站,,26,26,29,11,21,67,,51,51,4,8,4,4,0.4,0.5
2024-08-30T1100,1675A,116.7244,23.3633,汕头市,龙湖子站,,24,16,30,8,22,74,,54,54,5,9,6,6,0.5,0.6
2024-08-30T1100,1676A,116.7258,23.2775,汕头市,濠江子站,,30,30,29,7,32,64,,53,46,5,12,4,5,0.5,0.6
2024-08-30T1100,1677A,116.7519,23.4714,汕头市,澄海子站,,29,23,31,13,26,92,,81,78,3,7,4,4,0.8,0.9
2024-08-30T1100,1678A,116.6092,23.2539,汕头市,潮阳子站,,27,,32,13,24,85,,67,67,2,5,6,7,0.3,0.5
2024-08-30T1100,3444A,116.454,23.2684,汕头市,潮南峡山,,30,22,45,18,31,94,,67,67,4,8,5,6,0.8,1
2024-08-30T1100,3624A,116.4069,23.2533,汕头市,潮南子站,,42,42,51,21,30,101,,64,64,8,13,4,5,0.8,0.9
2024-08-30T1100,1693A,115.3653,22.775,汕尾市,市环保局,,29,24,29,17,27,90,,65,65,5,8,6,6,0.7,0.7
2024-08-30T1100,1694A,115.3706,22.7898,汕尾市,市政府,,26,18,30,13,25,81,,58,58,6,9,7,7,0.6,0.6
2024-08-30T1100,1695A,115.3622,22.7925,汕尾市,新城中学,,33,33,35,15,23,85,,62,62,4,7,5,6,0.7,0.7
2024-08-30T1100,2645A,109.9154,33.8715,商洛市,监测站,,34,34,32,16,15,86,,53,53,16,15,7,6,0.8,0.7
2024-08-30T1100,3045A,109.9643,33.8471,商洛市,商州区中学,,49,49,33,22,16,63,,40,40,23,16,9,7,0.9,0.8
2024-08-30T1100,2408A,115.6702,34.4285,商丘市,环境监测站,,40,16,38,12,17,125,,90,90,6,17,4,4,0.5,0.6
2024-08-30T1100,2409A,115.6458,34.4045,商丘市,粮食局,,43,24,32,16,18,137,,108,108,6,11,8,7,0.3,0.4
2024-08-30T1100,2410A,115.6293,34.3948,商丘市,睢阳区环保局,,38,25,44,7,20,120,,78,78,5,18,8,9,0.4,0.4
2024-08-30T1100,3171A,115.6071,34.4465,商丘市,梁园区档案局,,43,,25,9,21,137,,98,98,3,19,7,7,0.4,0.5
2024-08-30T1100,1141A,121.4,31.238,上海市,普陀,,30,28,24,13,10,93,,46,46,20,22,7,7,0.6,0.5
2024-08-30T1100,1142A,121.478,31.2036,上海市,十五厂,,30,26,25,21,17,90,,55,55,18,19,10,9,0.7,0.5
2024-08-30T1100,1143A,121.467,31.3008,上海市,虹口,,28,28,23,17,13,86,,45,45,23,22,11,9,0.9,0.7
2024-08-30T1100,1144A,121.412,31.1654,上海市,徐汇上师大,,30,26,28,10,12,93,,54,54,22,21,6,6,0.8,0.6
2024-08-30T1100,1145A,121.536,31.2659,上海市,杨浦四漂,,29,28,24,17,12,91,,48,48,20,20,10,8,0.9,0.7
2024-08-30T1100,1147A,121.425,31.2261,上海市,静安监测站,,30,23,24,14,12,95,,54,54,16,19,8,7,0.8,0.7
2024-08-30T1100,1148A,121.703,31.1907,上海市,浦东川沙,,31,31,26,16,12,91,,55,55,24,19,9,6,0.9,0.6
2024-08-30T1100,1149A,121.533,31.2284,上海市,浦东新区监测站,,27,25,22,12,13,84,,46,46,23,22,7,6,0.7,0.5
2024-08-30T1100,1150A,121.577,31.2071,上海市,浦东张江,,30,26,22,21,16,79,,46,46,23,19,6,5,1.0,0.8
2024-08-30T1100,3265A,121.4316,31.3322,上海市,宝山庙行,,29,29,27,19,13,81,,45,45,28,23,13,7,1.0,0.5
2024-08-30T1100,3266A,121.8791,31.4662,上海市,崇明上实东滩,,30,15,20,9,12,95,,68,68,6,6,8,7,0.6,0.6
2024-08-30T1100,3268A,121.3162,31.2838,上海市,嘉定南翔,,28,18,20,15,10,89,,52,52,18,20,8,7,0.8,0.6
2024-08-30T1100,3269A,121.3359,30.7456,上海市,金山新城,,35,18,18,14,12,109,,73,73,7,11,5,4,0.6,0.6
2024-08-30T1100,3270A,121.4996,31.0739,上海市,闵行浦江,,33,21,19,20,15,104,,61,61,19,15,7,6,0.7,0.7
