timepoint,stationcode,longitude,latitude,area,positionname,primarypollutant,aqi,pm10,pm10_24h,pm2_5,pm2_5_24h,o3,o3_24h,o3_8h,o3_8h_24h,no2,no2_24h,so2,so2_24h,co,co_24h
2024-08-30T2200,2566A,102.1879,31.914,阿坝藏族羌族自治州,州农科所,,21,16,20,9,7,65,,86,83,13,11,7,7,0,0
2024-08-30T2200,2568A,102.2502,31.8896,阿坝藏族羌族自治州,马师校,,24,19,13,12,9,75,,104,100,12,8,4,4,0.4,0.4
2024-08-30T2200,3994A,102.2165,31.9024,阿坝藏族羌族自治州,马尔康中学西区,,30,,15,21,10,77,,102,98,9,9,4,5,0.4,0.4
2024-08-30T2200,2695A,80.292,41.1694,阿克苏地区,电视台,颗粒物(PM10),70,89,32,32,18,55,,107,100,36,17,1,3,0.7,0.5
2024-08-30T2200,2696A,80.2613,41.1551,阿克苏地区,艺术中心,,40,40,26,23,15,35,,103,97,33,14,5,4,0.9,0.4
2024-08-30T2200,2204A,105.6467,38.8363,阿拉善盟,西城区西花园,,42,34,55,11,21,134,,144,144,10,12,6,8,1.1,1.1
2024-08-30T2200,2205A,105.6985,38.8411,阿拉善盟,蒙二幼,,37,30,41,16,21,116,,137,125,6,7,9,10,0.7,0.7
2024-08-30T2200,2206A,105.724,38.8516,阿拉善盟,环保局新楼,,39,24,30,13,18,124,,147,135,6,7,10,11,0.5,0.6
2024-08-30T2200,2708A,88.1264,47.8517,阿勒泰地区,市站,,26,18,18,7,8,81,,82,82,7,8,7,7,0.3,0.5
2024-08-30T2200,2630A,80.1161,32.5,阿里地区,阿里监测站,,24,6,3,3,2,76,,82,82,6,7,6,6,0.3,0.3
2024-08-30T2200,3192A,80.0903,32.5028,阿里地区,阿里藏医院,,25,6,6,3,0,78,,80,80,3,5,7,8,0.3,0.3
2024-08-30T2200,2642A,109.0318,32.6537,安康市,香溪洞,颗粒物(PM10),74,98,54,15,16,100,,99,96,4,14,6,6,0.4,0.4
2024-08-30T2200,2643A,109.0281,32.6939,安康市,安康市监测站,,29,28,25,16,13,92,,106,100,5,5,6,8,0.6,0.6
2024-08-30T2200,2644A,109.0072,32.6975,安康市,汉滨区检察院,,31,27,26,14,16,97,,108,106,6,6,7,9,0.7,0.6
2024-08-30T2200,2291A,117.0809,30.5177,安庆市,环科院,,40,35,33,28,23,104,,145,137,18,13,7,7,0.7,0.7
2024-08-30T2200,2292A,117.0331,30.5119,安庆市,马山宾馆,,39,36,32,27,22,95,,139,128,25,16,8,9,0.6,0.6
2024-08-30T2200,2294A,116.9896,30.6145,安庆市,安庆大学,,33,33,33,21,21,82,,119,110,13,9,8,9,0.6,0.6
2024-08-30T2200,3173A,117.0598,30.5351,安庆市,市人大,,35,35,34,24,25,75,,152,133,16,11,7,9,0.9,0.9
2024-08-30T2200,3122A,105.9606,26.2611,安顺市,伍家关,,,,,,,,,,,,,,,,
2024-08-30T2200,3123A,105.9408,26.2431,安顺市,凤凰山,,25,22,22,17,16,66,,83,79,5,4,8,9,0.6,0.5
2024-08-30T2200,3124A,105.9439,26.2564,安顺市,金钟山,,29,24,26,20,17,68,,83,80,4,3,6,6,0.4,0.4
2024-08-30T2200,3125A,105.8983,26.2481,安顺市,娄家坡,,22,19,19,13,14,68,,85,82,4,3,4,4,0.7,0.6
2024-08-30T2200,1818A,114.4839,36.0621,安阳市,棉研所,,,,,,,,,,,,,,,,
2024-08-30T2200,1819A,114.3551,36.1017,安阳市,红庙街,,42,42,54,25,30,123,,189,175,5,6,3,6,0.4,0.5
2024-08-30T2200,1820A,114.361,36.0681,安阳市,银杏小区,,,38,56,,,113,,185,168,2,6,2,4,0.6,0.6
2024-08-30T2200,3141A,114.3922,36.0878,安阳市,信访局,,50,50,56,24,33,119,,192,174,1,7,4,5,0.5,0.6
2024-08-30T2200,3669A,114.4705,36.0637,安阳市,左辅环卫站,,46,46,62,24,35,82,,174,151,17,10,4,7,0.6,0.7
2024-08-30T2200,3703A,114.2917,36.0949,安阳市,安钢职工学校,颗粒物(PM10),59,67,55,39,34,111,,170,161,13,10,5,7,0.5,0.6
2024-08-30T2200,1748A,123.044,41.1196,鞍山市,深沟寺,,28,28,41,15,22,53,,157,103,18,14,5,6,0.5,1
2024-08-30T2200,1749A,123.011,41.0931,鞍山市,太阳城,,24,24,37,12,23,64,,163,115,15,12,5,6,0.4,0.9
2024-08-30T2200,1750A,123.0485,41.1442,鞍山市,太平,,,29,51,14,30,,,160,126,27,17,8,9,0.5,1
2024-08-30T2200,1751A,122.9642,41.0971,鞍山市,铁西三道街,,24,24,58,9,30,69,,164,105,14,22,6,10,0.5,1.2
2024-08-30T2200,1752A,122.9341,41.0833,鞍山市,铁西工业园区,,42,42,54,19,27,42,,163,110,44,17,33,12,1.7,1.1
2024-08-30T2200,1753A,123.022,41.0821,鞍山市,明达新区,,26,26,42,13,23,55,,152,106,16,11,4,5,0.4,0.8
2024-08-30T2200,1754A,123.1289,41.0228,鞍山市,千山,,,,,,,,,,,,,,,,
2024-08-30T2200,2195A,107.4212,40.761,巴彦淖尔市,附二中,颗粒物(PM10),53,56,66,27,32,110,,144,131,11,10,2,8,0.6,0.7
2024-08-30T2200,2196A,107.37,40.7372,巴彦淖尔市,市环保大楼,颗粒物(PM10),52,54,68,30,21,117,,143,130,6,8,4,4,0.7,0.8
2024-08-30T2200,1956A,86.1472,41.7538,巴音郭楞蒙古自治州,孔雀公园,颗粒物(PM10),56,62,53,18,18,83,,92,85,18,11,8,5,0.2,0.2
2024-08-30T2200,1957A,86.1972,41.7166,巴音郭楞蒙古自治州,棉纺厂,颗粒物(PM10),54,57,51,35,17,80,,95,83,23,12,4,5,0.3,0.2
2024-08-30T2200,1958A,86.2357,41.7173,巴音郭楞蒙古自治州,经济开发区,,50,50,47,24,17,91,,99,90,6,6,5,6,0.2,0.2
2024-08-30T2200,2914A,106.7677,31.8794,巴中市,苏山坪,,42,14,20,11,14,134,,128,128,5,6,4,5,0.6,0.5
2024-08-30T2200,3182A,106.7656,31.8545,巴中市,丽阳花园,,40,40,27,26,21,80,,120,112,15,13,5,5,0.7,0.6
2024-08-30T2200,3183A,106.7418,31.8654,巴中市,圣泉水务公司,,38,37,25,26,19,62,,118,107,25,12,5,5,0.7,0.7
2024-08-30T2200,3616A,106.7616,31.8344,巴中市,市中心医院,,45,39,30,31,22,71,,124,116,19,12,4,3,0.8,0.7
2024-08-30T2200,2235A,122.7911,45.6077,白城市,洮北区环保局,,34,34,16,16,9,58,,86,68,15,10,6,4,0.3,0.4
2024-08-30T2200,2236A,122.8738,45.5725,白城市,市环保局,,43,43,25,8,4,14,,85,61,42,11,7,6,0.2,0.2
2024-08-30T2200,2231A,126.4219,41.9171,白山市,喜丰,,23,20,49,13,16,72,,110,99,9,11,9,10,0.7,0.8
2024-08-30T2200,2232A,126.4077,41.9419,白山市,环保局,,28,28,32,12,15,67,,102,91,6,13,8,9,0.6,0.8
2024-08-30T2200,2647A,104.1724,36.5446,白银市,第三小学,,40,40,35,18,18,67,,84,79,11,13,28,17,0.6,0.7
2024-08-30T2200,2648A,104.1465,36.5482,白银市,动力公司,颗粒物(PM10),82,113,31,19,16,67,,86,80,12,14,23,11,0.5,0.6
2024-08-30T2200,2512A,106.6103,23.9011,百色市,市监测站,,50,50,46,24,23,43,,99,86,18,17,7,15,0.8,0.8
2024-08-30T2200,2513A,106.6538,23.8859,百色市,市中心血站,颗粒物(PM10),55,59,53,28,27,47,,94,85,24,20,5,16,0.8,0.8
2024-08-30T2200,3406A,106.6085,23.8798,百色市,祈福高中,颗粒物(PM10),52,54,51,34,22,56,,100,90,29,18,5,12,0.9,0.9
2024-08-30T2200,2270A,117.396,32.939,蚌埠市,工人疗养院,,27,27,36,8,12,70,,129,107,6,12,8,8,0.3,0.3
2024-08-30T2200,2271A,117.3605,32.9427,蚌埠市,百货大楼,,32,32,38,12,14,63,,139,115,9,10,5,7,0.4,0.4
2024-08-30T2200,2273A,117.4185,32.8911,蚌埠市,蚌埠学院,,25,22,29,11,13,80,,134,113,9,20,7,9,0.5,0.4
2024-08-30T2200,2274A,117.3533,32.9673,蚌埠市,淮上区政府,,29,29,32,13,16,79,,143,121,3,8,6,7,0.6,0.7
2024-08-30T2200,2275A,117.3145,32.8977,蚌埠市,高新区,,26,17,28,15,15,81,,135,117,9,18,6,8,0.7,0.7
2024-08-30T2200,3715A,117.3092,32.9314,蚌埠市,蚌埠田家炳中学,,34,34,34,17,15,58,,142,116,18,7,4,5,0.5,0.4
2024-08-30T2200,1585A,109.8756,40.6532,包头市,市环境监测站,,47,47,55,20,28,62,,153,120,70,40,15,18,0.8,0.9
2024-08-30T2200,1587A,109.9991,40.5842,包头市,包头八中,颗粒物(PM10),51,52,56,19,27,78,,149,130,43,30,28,21,0.7,1.1
2024-08-30T2200,1588A,109.8538,40.6821,包头市,青山宾馆,,40,40,53,19,26,42,,157,122,78,35,9,14,0.9,1
2024-08-30T2200,1589A,109.8642,40.6288,包头市,惠龙物流,,46,46,51,22,24,84,,155,133,38,30,23,18,0.7,0.9
2024-08-30T2200,1590A,110.0377,40.5546,包头市,东河鸿龙湾,颗粒物(PM10),53,55,55,22,30,52,,151,118,39,29,10,15,0.7,1.1
2024-08-30T2200,3283A,109.9154,40.5685,包头市,滨河大厦,,47,47,51,29,25,65,,156,128,44,39,10,12,0.6,0.8
2024-08-30T2200,3419A,109.9447,40.6261,包头市,包头市委党校,,40,40,53,22,26,92,,152,132,42,34,25,14,0.8,1
2024-08-30T2200,3683A,109.8331,40.6576,包头市,昆区政府,,35,35,49,14,28,102,,152,134,34,32,16,15,1.0,1.2
2024-08-30T2200,1930A,107.185,34.3063,宝鸡市,庙沟村,,46,46,52,27,28,98,,117,109,8,18,7,7,0.5,0.6
2024-08-30T2200,1931A,107.0708,34.3017,宝鸡市,竹园沟,,43,42,45,30,31,50,,118,99,16,16,8,8,0.7,0.7
2024-08-30T2200,1932A,107.1906,34.3672,宝鸡市,三陆医院,颗粒物(PM10),55,60,61,34,38,70,,148,133,32,28,9,12,0.8,0.8
2024-08-30T2200,1933A,107.1431,34.3547,宝鸡市,监测站,颗粒物(PM10),59,68,65,36,35,38,,136,114,36,25,8,8,0.7,0.6
2024-08-30T2200,1934A,107.1186,34.3739,宝鸡市,技工学校,细颗粒物(PM2.5),64,60,57,46,37,77,,154,141,21,20,9,10,0.8,0.8
2024-08-30T2200,1935A,107.3906,34.3528,宝鸡市,陈仓区环保局家属楼,颗粒物(PM10),53,55,52,30,28,69,,159,140,27,25,8,9,0.7,0.6
2024-08-30T2200,1936A,107.2058,34.3497,宝鸡市,文理学院,颗粒物(PM10),56,62,57,30,30,70,,147,131,27,23,9,11,0.7,0.7
2024-08-30T2200,1937A,107.2386,34.3622,宝鸡市,三迪小学,颗粒物(PM10),58,66,60,40,40,70,,155,135,25,21,8,10,0.8,0.7
2024-08-30T2200,1051A,115.493,38.8632,保定市,游泳馆,颗粒物(PM10),72,93,61,44,33,73,,206,166,36,18,3,2,0.6,0.4
2024-08-30T2200,1052A,115.5213,38.8959,保定市,华电二区,颗粒物(PM10),59,68,59,38,32,94,,210,176,28,14,6,3,0.6,0.5
2024-08-30T2200,1053A,115.4713,38.9108,保定市,接待中心,颗粒物(PM10),63,75,60,39,40,83,,207,174,36,13,2,2,1.0,0.7
2024-08-30T2200,1054A,115.4612,38.8416,保定市,地表水厂,颗粒物(PM10),69,87,69,35,32,93,,194,152,36,16,3,3,0.7,0.6
2024-08-30T2200,3581A,115.31981,38.95208,保定市,满城区生态环境分局,颗粒物(PM10),65,80,70,39,33,95,,160,160,26,18,2,3,0.8,0.6
2024-08-30T2200,3582A,115.47694,38.76408,保定市,清苑区第二中学,颗粒物(PM10),71,91,60,45,33,96,,186,150,39,13,3,4,0.8,0.6
2024-08-30T2200,3583A,115.62909,39.02311,保定市,徐水物探局,颗粒物(PM10),73,96,65,48,35,75,,208,188,39,24,3,5,0.8,0.7
2024-08-30T2200,4004A,115.4202,38.8656,保定市,双鹰农机,颗粒物(PM10),64,77,64,40,36,92,,215,172,34,20,2,4,0.8,0.4
2024-08-30T2200,4034A,115.5150,38.8590,保定市,植保所站,颗粒物(PM10),66,81,61,37,35,93,,230,189,39,17,5,5,0.5,0.5
2024-08-30T2200,2594A,99.1678,25.1081,保山市,市环境监测站,,42,42,33,22,15,62,,97,88,7,9,6,6,0.4,0.3
2024-08-30T2200,2595A,99.1711,25.1328,保山市,市环保局,,39,39,32,17,12,78,,104,97,4,6,4,3,0.4,0.4
2024-08-30T2200,1866A,109.2262,21.588,北海市,牛尾岭水库,,,,,,,,,,,,,,,,
2024-08-30T2200,1867A,109.1436,21.4086,北海市,海滩公园,,43,31,26,17,14,136,,138,138,4,8,4,4,0.6,0.5
2024-08-30T2200,1868A,109.0981,21.4661,北海市,新市环保局,,39,33,26,27,20,119,,127,126,11,11,4,5,0.8,0.7
2024-08-30T2200,1869A,109.1778,21.5233,北海市,北海工业园,细颗粒物(PM2.5),55,58,29,39,22,85,,111,104,17,12,4,8,1.1,0.9
2024-08-30T2200,3400A,109.1911,21.4415,北海市,龙潭自来水厂,,39,31,25,27,21,109,,114,114,9,8,5,5,0.7,0.6
2024-08-30T2200,1001A,116.3621,39.8784,北京市,万寿西宫,颗粒物(PM10),62,74,54,35,30,128,,217,194,27,23,3,2,1.0,0.8
2024-08-30T2200,1002A,116.2202,40.2915,北京市,定陵,,41,41,40,24,21,88,,171,148,5,12,7,5,0.9,0.5
2024-08-30T2200,1003A,116.4174,39.9289,北京市,东四,颗粒物(PM10),66,81,54,43,32,149,,219,207,27,23,3,4,0.7,0.6
2024-08-30T2200,1004A,116.4072,39.8863,北京市,天坛,颗粒物(PM10),56,61,47,36,31,72,,204,166,25,20,3,2,0.8,0.6
2024-08-30T2200,1005A,116.462,39.9365,北京市,农展馆,颗粒物(PM10),65,80,55,44,31,127,,193,180,30,24,3,3,0.8,0.6
2024-08-30T2200,1006A,116.3392,39.9295,北京市,官园,细颗粒物(PM2.5),60,67,55,43,30,148,,218,206,19,20,4,4,0.7,0.6
2024-08-30T2200,1007A,116.2878,39.9611,北京市,海淀万柳,颗粒物(PM10),61,72,53,36,28,120,,187,170,29,29,2,3,0.8,0.6
2024-08-30T2200,1008A,116.6636,40.135,北京市,顺义新城,颗粒物(PM10),58,65,47,39,27,131,,152,147,21,18,1,1,0.6,0.5
2024-08-30T2200,1009A,116.6275,40.3275,北京市,怀柔镇,颗粒物(PM10),51,51,38,33,24,106,,152,142,16,11,6,6,0.8,0.7
2024-08-30T2200,1010A,116.2296,40.217,北京市,昌平镇,颗粒物(PM10),54,58,46,31,25,106,,156,141,18,16,3,4,0.6,0.5
2024-08-30T2200,1011A,116.3966,39.9821,北京市,奥体中心,颗粒物(PM10),60,70,49,35,27,114,,174,168,19,25,1,1,0.9,0.6
2024-08-30T2200,1012A,116.184,39.9136,北京市,古城,颗粒物(PM10),73,95,54,35,25,49,,187,156,75,32,2,2,0.8,0.6
2024-08-30T2200,3281A,115.9718,40.4529,北京市,延庆夏都,,50,50,41,27,26,140,,201,172,13,13,3,2,0.6,0.5
2024-08-30T2200,3417A,117.0709,40.1465,北京市,平谷新城,颗粒物(PM10),71,91,63,50,29,125,,154,150,5,2,3,3,0.9,0.7
2024-08-30T2200,3418A,116.8336,40.4095,北京市,密云新城,,47,47,38,23,23,66,,124,116,11,8,1,2,0.6,0.5
2024-08-30T2200,3671A,116.088,39.9726,北京市,门头沟三家店,细颗粒物(PM2.5),62,65,44,44,26,54,,158,126,28,14,2,2,0.6,0.5
2024-08-30T2200,3672A,116.1541,39.8204,北京市,丰台云岗,颗粒物(PM10),59,67,51,33,28,142,,204,184,19,22,3,2,0.5,0.4
2024-08-30T2200,3673A,116.6804,39.9081,北京市,通州东关,颗粒物(PM10),63,76,67,41,37,119,,216,199,38,32,3,2,0.7,0.6
2024-08-30T2200,3674A,115.9577,39.7603,北京市,房山燕山,,50,50,42,33,24,89,,160,121,11,13,3,3,0.4,0.5
2024-08-30T2200,3675A,116.4672,39.7733,北京市,大兴旧宫,颗粒物(PM10),55,59,52,34,34,79,,200,168,15,20,3,3,0.8,0.7
2024-08-30T2200,3694A,115.986,40.4563,北京市,延庆石河营,,42,42,38,28,25,121,,154,151,7,11,3,2,0.5,0.5
2024-08-30T2200,3695A,116.6151,40.3053,北京市,怀柔新城,,49,49,40,32,25,94,,148,130,10,7,3,3,0.6,0.5
2024-08-30T2200,3696A,116.2545,39.8768,北京市,丰台小屯,颗粒物(PM10),62,74,54,42,28,91,,178,151,47,32,3,3,0.7,0.6
2024-08-30T2200,3697A,116.84,40.3844,北京市,密云镇,颗粒物(PM10),55,60,39,28,24,109,,129,129,18,18,2,2,0.6,0.6
2024-08-30T2200,1761A,123.8275,41.3064,本溪市,大峪,,24,20,42,3,21,76,,170,140,8,21,8,9,0.6,1
2024-08-30T2200,1762A,123.7567,41.3325,本溪市,溪湖,,26,26,50,7,20,80,,167,136,9,20,5,5,0.6,1.2
2024-08-30T2200,1763A,123.7169,41.3094,本溪市,彩屯,,25,17,35,11,25,78,,155,123,12,22,8,9,0.7,1.3
2024-08-30T2200,1764A,123.7669,41.2864,本溪市,东明,,32,32,48,15,20,76,,174,142,19,29,7,7,0.6,0.9
2024-08-30T2200,1765A,123.7992,41.2664,本溪市,新立屯,,24,20,34,7,13,74,,174,141,10,23,4,5,0.5,0.8
2024-08-30T2200,1766A,123.8142,41.3472,本溪市,威宁,,19,13,48,13,23,53,,158,124,21,19,8,9,0.8,1.1
2024-08-30T2200,2587A,105.2864,27.3125,毕节市,八中,,48,38,39,33,30,60,,95,84,14,12,6,9,0.7,0.6
2024-08-30T2200,2588A,105.31,27.2944,毕节市,师专,,36,36,44,20,25,50,,96,84,24,14,7,13,0.6,0.5
2024-08-30T2200,3537A,105.3631,27.3533,毕节市,长征村,颗粒物(PM10),55,60,50,38,37,75,,108,98,9,9,7,9,0.5,0.5
2024-08-30T2200,1629A,118.0018,37.3617,滨州市,第二水厂,颗粒物(PM10),52,53,53,27,32,85,,167,135,19,23,2,6,0.8,0.8
2024-08-30T2200,1630A,117.9776,37.393,滨州市,北中新校,颗粒物(PM10),52,53,56,24,30,87,,168,143,25,19,4,8,0.8,0.8
2024-08-30T2200,3514A,117.9378,37.3956,滨州市,中海酒店,,48,48,53,24,29,84,,170,139,30,18,3,8,0.7,0.8
2024-08-30T2200,3515A,117.9378,37.3553,滨州市,开发区一中,,48,48,57,24,32,119,,171,146,17,20,5,10,0.7,0.7
2024-08-30T2200,3516A,118.0917,37.694,滨州市,金海六路,颗粒物(PM10),64,78,60,41,26,60,,162,129,27,20,3,8,0.8,0.8
2024-08-30T2200,4028A,117.9956,37.3753,滨州市,滨州市西街道办事处,"颗粒物(PM10),细颗粒物(PM2.5)",52,53,56,36,37,113,,177,154,13,20,3,7,0.9,0.8
2024-08-30T2200,2311A,115.8072,33.8399,亳州市,污水处理厂,,34,34,30,21,23,65,,113,95,14,13,37,24,0.5,0.5
2024-08-30T2200,2312A,115.7789,33.8518,亳州市,三国揽胜宫,,35,35,36,20,21,78,,115,100,7,10,32,17,0.5,0.5
2024-08-30T2200,3332A,115.7633,33.8034,亳州市,亳州学院,,28,28,22,13,13,88,,116,108,10,9,10,11,0.4,0.5
2024-08-30T2200,2693A,82.0485,44.8556,博尔塔拉蒙古自治州,市党校,,23,17,23,15,11,72,,97,95,28,9,5,4,0.4,0.4
2024-08-30T2200,2694A,82.0806,44.8969,博尔塔拉蒙古自治州,市环保局,,,,30,,12,52,,95,90,29,14,4,5,0.7,0.5
2024-08-30T2200,1071A,116.8842,38.2991,沧州市,沧县城建局,颗粒物(PM10),68,86,47,40,28,95,,162,143,34,16,5,5,0.9,0.7
2024-08-30T2200,1072A,116.8584,38.3254,沧州市,电视转播站,细颗粒物(PM2.5),64,68,47,46,35,109,,165,153,28,16,3,4,0.8,0.6
2024-08-30T2200,1073A,116.8709,38.3228,沧州市,市环保局,细颗粒物(PM2.5),67,80,50,48,30,96,,156,142,32,14,4,6,0.7,0.5
2024-08-30T2200,3324A,116.8136,38.3004,沧州市,河北水利电力学院,颗粒物(PM10),71,92,58,40,34,61,,168,145,67,21,3,6,0.8,0.6
2024-08-30T2200,2622A,97.1806,31.1273,昌都市,昌都监测站,,32,14,12,9,7,102,,110,110,6,7,5,6,0.4,0.4
2024-08-30T2200,3719A,97.1714,31.1406,昌都市,昌都会议中心,,38,,13,26,9,105,,112,111,2,5,7,6,0.5,0.5
2024-08-30T2200,2690A,88.1236,43.8886,昌吉回族自治州,天山天池,,9,6,7,3,2,28,,69,52,3,4,6,5,0.4,0.5
2024-08-30T2200,2692A,87.2717,44.0297,昌吉回族自治州,新区政务中心,,22,19,17,13,7,52,,94,90,44,14,10,11,0.8,0.6
2024-08-30T2200,3613A,87.3095,44.0142,昌吉回族自治州,亚心广场,,39,39,17,14,6,32,,97,90,59,21,3,4,0.6,0.3
2024-08-30T2200,1119A,125.3325,43.9166,长春市,食品厂,,50,50,42,23,22,24,,119,50,48,33,4,4,0.6,0.7
2024-08-30T2200,1120A,125.2863,43.9027,长春市,客车厂,,37,37,43,15,20,30,,118,53,45,31,7,7,0.5,0.7
2024-08-30T2200,1121A,125.2841,43.8463,长春市,邮电学院,,34,34,35,21,19,23,,121,59,48,24,6,7,0.5,0.6
2024-08-30T2200,1122A,125.3716,43.8772,长春市,劳动公园,,33,33,38,13,16,43,,124,70,37,20,8,7,0.7,0.7
2024-08-30T2200,1123A,125.3297,43.8805,长春市,园林处,,28,28,34,13,16,30,,126,59,40,22,3,4,0.5,0.5
2024-08-30T2200,1124A,125.4605,43.79,长春市,净月潭,,15,15,25,9,14,19,,111,60,18,8,7,7,0.4,0.5
2024-08-30T2200,1125A,125.7194,43.515,长春市,甩湾子,,,,,,,,,,,,,,,,
2024-08-30T2200,1126A,125.3863,43.8447,长春市,经开区环卫处,,30,30,33,14,16,21,,107,63,31,23,6,6,0.6,0.6
2024-08-30T2200,1127A,125.245,43.7783,长春市,高新区管委会,,33,33,35,21,19,16,,113,53,42,22,3,3,0.6,0.6
2024-08-30T2200,1128A,125.1761,43.8325,长春市,岱山公园,颗粒物(PM10),60,69,40,11,19,19,,112,51,52,34,2,3,0.4,0.6
2024-08-30T2200,1335A,113.0833,28.2325,长沙市,经开区环保局,,37,37,43,18,27,96,,145,139,24,16,1,1,0.6,0.6
2024-08-30T2200,1336A,112.8872,28.2189,长沙市,高开区环保局,,37,37,45,20,28,111,,141,134,12,12,3,4,0.9,0.8
2024-08-30T2200,1337A,113.0792,28.2053,长沙市,马坡岭,,48,48,44,18,32,80,,142,134,19,13,2,3,0.6,0.6
2024-08-30T2200,1338A,112.9394,28.19,长沙市,湖南师范大学,,29,25,51,20,31,88,,141,126,22,11,4,4,0.8,0.7
2024-08-30T2200,1339A,113.0178,28.1322,长沙市,雨花区环保局,,45,45,43,28,26,89,,141,135,24,13,5,5,0.5,0.6
2024-08-30T2200,1340A,112.9792,28.2597,长沙市,伍家岭,颗粒物(PM10),57,64,45,19,26,92,,148,131,22,11,2,2,0.9,0.8
2024-08-30T2200,1341A,113.0014,28.1944,长沙市,火车新站,,48,48,45,27,28,100,,140,134,20,11,3,4,0.6,0.6
2024-08-30T2200,1342A,112.9844,28.1178,长沙市,天心区环保局,,,,50,,32,,,133,133,,16,,3,,0.1
2024-08-30T2200,1343A,112.8908,28.1308,长沙市,湖南中医药大学,颗粒物(PM10),54,57,48,35,42,39,,152,123,57,14,5,5,0.9,0.8
2024-08-30T2200,1344A,112.9581,28.3611,长沙市,沙坪,,38,,27,26,24,97,,148,126,9,9,6,7,0.6,0.6
2024-08-30T2200,1727A,113.1147,36.1547,长治市,清华站,,39,30,28,19,19,124,,160,142,6,7,6,6,0.5,0.6
2024-08-30T2200,1728A,113.1031,36.1989,长治市,监测站,,40,37,34,22,20,127,,178,147,9,14,8,8,0.6,0.8
2024-08-30T2200,1730A,113.0886,36.2125,长治市,审计局,,38,34,30,19,19,121,,163,142,9,11,5,6,0.5,0.6
2024-08-30T2200,1731A,113.0844,36.1856,长治市,长治八中,,38,37,38,18,20,121,,165,145,8,10,5,5,0.6,0.7
2024-08-30T2200,2845A,113.1569,36.1911,长治市,德盛苑,,38,38,32,22,19,105,,158,130,20,8,7,8,0.7,0.8
2024-08-30T2200,3568A,113.06,36.0464,长治市,向阳小学,细颗粒物(PM2.5),58,57,54,41,35,112,,157,144,13,10,7,7,0.5,0.5
2024-08-30T2200,3569A,112.8792,36.3144,长治市,屯留一中,,43,41,49,22,33,137,,169,157,8,12,8,11,0.7,0.9
2024-08-30T2200,3570A,113.235,36.3489,长治市,潞城四中,,34,29,37,11,24,106,,152,134,12,11,7,6,0.7,0.7
2024-08-30T2200,1854A,111.6975,28.9703,常德市,市二中,,38,30,37,26,28,83,,126,114,14,12,6,7,0.7,0.7
2024-08-30T2200,1857A,111.7158,29.1456,常德市,白鹤山,,,,,,,,,,,,,,,,
2024-08-30T2200,3138A,111.7153,29.0289,常德市,武陵区永安,,44,44,44,25,29,89,,126,116,13,11,7,10,0.7,0.7
2024-08-30T2200,3139A,111.6892,28.9881,常德市,鼎城区玉霞,,43,42,40,30,29,74,,126,114,17,14,6,7,0.8,0.8
2024-08-30T2200,3140A,111.6625,29.0531,常德市,武陵区长庚,,36,34,43,25,34,103,,130,125,11,12,7,12,0.7,0.7
2024-08-30T2200,1196A,119.9633,31.762,常州市,市监测站,,46,46,40,28,21,73,,198,166,30,18,9,6,0.6,0.6
2024-08-30T2200,1200A,119.9468,31.7069,常州市,武进监测站,,47,47,33,28,20,95,,184,168,21,13,9,8,1.2,0.9
2024-08-30T2200,1201A,119.9255,31.9087,常州市,安家,,36,32,34,25,23,39,,168,115,40,22,7,6,0.7,0.8
2024-08-30T2200,3002A,119.9805,31.8174,常州市,行政中心,,35,35,33,24,23,60,,176,138,32,21,9,8,0.5,0.5
2024-08-30T2200,3003A,120.0522,31.7748,常州市,经开区,,43,43,40,25,19,47,,192,151,39,20,12,10,0.8,0.8
2024-08-30T2200,3010A,119.9025,31.7964,常州市,钟楼,,46,46,35,19,19,72,,166,139,25,18,9,7,0.7,0.7
2024-08-30T2200,3429A,119.8598,31.7066,常州市,武进经发区,颗粒物(PM10),57,64,40,37,20,44,,181,156,77,24,11,10,0.8,0.5
2024-08-30T2200,3430A,119.5826,31.7245,常州市,金坛城区,,38,38,30,20,16,75,,170,152,24,16,7,10,0.8,0.8
2024-08-30T2200,2220A,120.4318,41.5881,朝阳市,西梁,,39,39,35,15,21,27,,96,69,32,13,9,9,0.5,0.8
2024-08-30T2200,2221A,120.4521,41.5646,朝阳市,河畔小区,,35,35,35,6,18,48,,102,79,14,7,7,7,0.5,0.8
2024-08-30T2200,2222A,120.4176,41.5648,朝阳市,八里堡,,47,47,45,16,22,24,,99,71,40,16,7,8,0.7,0.9
2024-08-30T2200,2223A,120.3806,41.5969,朝阳市,农业园区,,25,25,34,8,22,44,,89,69,12,11,5,6,0.4,0.7
2024-08-30T2200,1705A,116.6367,23.6719,潮州市,西园路,,32,32,27,7,7,19,,77,49,20,9,5,4,0.5,0.4
2024-08-30T2200,3026A,116.6183,23.6608,潮州市,市政府,,24,24,31,12,14,28,,86,53,10,7,5,5,0.8,0.7
2024-08-30T2200,4036A,116.6461,23.6761,潮州市,金山,,26,26,25,12,16,19,,88,56,20,7,8,6,0.7,0.6
2024-08-30T2200,2472A,113.0073,25.9061,郴州市,马头岭,,49,49,42,25,18,50,,114,96,9,11,9,11,0.5,0.7
2024-08-30T2200,2473A,113.0116,25.8226,郴州市,市职中,细颗粒物(PM2.5),62,58,40,44,34,43,,123,97,24,15,5,7,0.8,0.7
2024-08-30T2200,2474A,113.0161,25.8001,郴州市,兴隆步行街,,,71,46,,29,58,,126,107,21,12,8,10,0.8,0.7
2024-08-30T2200,2475A,113.0383,25.8071,郴州市,市审计局,细颗粒物(PM2.5),62,54,39,44,35,41,,124,96,22,16,3,8,0.7,0.7
2024-08-30T2200,2476A,113.0348,25.7759,郴州市,市环保局,细颗粒物(PM2.5),74,55,47,54,36,34,,128,99,30,25,5,10,0.7,0.7
2024-08-30T2200,1431A,103.9728,30.7236,成都市,金泉两河,,46,46,32,21,19,65,,106,100,9,7,6,4,0.5,0.5
2024-08-30T2200,1432A,104.176,30.6872,成都市,十里店,颗粒物(PM10),52,53,35,22,21,48,,112,105,12,6,3,3,0.7,0.6
2024-08-30T2200,1433A,104.079,30.5706,成都市,三瓦窑,细颗粒物(PM2.5),52,44,36,36,23,75,,141,135,19,16,3,3,0.5,0.4
2024-08-30T2200,1434A,104.1114,30.63,成都市,沙河铺,,48,48,40,19,19,65,,130,125,23,17,6,7,0.6,0.6
2024-08-30T2200,1437A,104.0786,30.6531,成都市,君平街,,36,36,33,17,18,61,,132,125,18,14,6,6,0.8,0.8
2024-08-30T2200,1438A,103.613,31.0283,成都市,灵岩寺,,,,,,,,,,,,,,,,
2024-08-30T2200,2880A,104.0239,30.65639,成都市,大石西路,,41,41,36,26,19,67,,116,112,13,14,7,7,0.5,0.5
2024-08-30T2200,3136A,104.2725,30.5589,成都市,龙泉驿区区政府,,46,46,36,31,23,66,,127,122,20,16,6,6,0.5,0.5
2024-08-30T2200,3357A,104.0106,30.6931,成都市,金博路,,29,29,31,16,15,61,,101,98,5,3,4,2,0.6,0.6
2024-08-30T2200,3359A,104.0578,30.5225,成都市,华阳,,44,44,39,19,17,68,,129,124,16,15,2,3,1.0,0.9
2024-08-30T2200,3487A,104.2394,30.5319,成都市,车城东七路,颗粒物(PM10),57,63,48,19,12,64,,130,125,23,16,4,4,0.8,0.7
2024-08-30T2200,3488A,104.3853,30.7453,成都市,青白江技师分院,,42,37,33,29,26,59,,121,110,22,15,4,3,0.7,0.7
2024-08-30T2200,3489A,104.0789,30.4072,成都市,科学城,,,69,45,50,32,,,161,161,14,12,3,4,0.5,0.6
2024-08-30T2200,4011A,103.8506,30.6947,成都市,光华大道三段,细颗粒物(PM2.5),53,53,34,37,17,73,,119,112,12,9,5,4,0.7,0.7
2024-08-30T2200,1062A,117.9531,40.9081,承德市,铁路,,38,38,42,12,21,36,,136,98,32,23,8,12,0.4,0.5
2024-08-30T2200,1063A,117.9392,40.9763,承德市,中国银行,,35,35,37,8,16,37,,141,100,19,18,4,6,0.4,0.5
2024-08-30T2200,1064A,117.9503,40.928,承德市,开发区,,35,33,38,24,16,42,,141,104,27,20,5,9,0.3,0.6
2024-08-30T2200,1065A,117.8051,40.9655,承德市,文化中心,,38,38,49,8,22,32,,146,112,29,22,8,14,0.4,0.5
2024-08-30T2200,1066A,117.9268,41.0026,承德市,离宫,,29,29,36,17,18,35,,117,71,8,11,2,3,0.3,0.4
2024-08-30T2200,2314A,117.47,30.6618,池州市,池州学院,,36,36,36,24,23,102,,147,139,11,13,6,6,0.9,0.8
2024-08-30T2200,3237A,117.4918,30.6617,池州市,展览馆,,43,43,37,24,20,62,,138,113,15,11,4,4,0.7,0.8
2024-08-30T2200,3333A,117.5627,30.695,池州市,第八中学,,42,42,36,27,20,87,,142,124,15,14,4,4,0.6,0.7
2024-08-30T2200,3334A,117.5038,30.6243,池州市,第十二中学,,33,31,33,23,22,82,,143,120,19,19,4,4,1.2,1
2024-08-30T2200,1744A,118.9233,42.2816,赤峰市,松山一中,颗粒物(PM10),52,54,26,9,7,21,,89,65,47,21,8,9,0.6,0.5
2024-08-30T2200,1745A,118.9576,42.2728,赤峰市,哈达街,,32,32,23,13,11,18,,83,63,31,17,9,9,0.4,0.3
2024-08-30T2200,1746A,118.8788,42.2554,赤峰市,天义路,,29,29,20,18,12,36,,89,65,29,17,7,8,0.4,0.3
2024-08-30T2200,3058A,119.2658,42.0353,赤峰市,银河街,,25,25,36,17,16,52,,82,69,16,14,29,15,0.3,0.4
2024-08-30T2200,3286A,118.9359,42.3147,赤峰市,桥北物流园区,,34,34,29,8,13,29,,91,61,45,27,8,9,0.5,0.5
2024-08-30T2200,2521A,107.3476,22.4136,崇左市,市环保局江州分局,,44,44,32,19,19,45,,102,92,11,6,6,6,0.8,0.7
2024-08-30T2200,2522A,107.3702,22.3707,崇左市,城南新区,,30,30,27,16,18,59,,106,95,12,7,4,5,0.5,0.7
2024-08-30T2200,2298A,118.3093,32.3153,滁州市,老年大学,,34,34,33,20,19,95,,165,138,11,11,7,8,0.4,0.4
2024-08-30T2200,2299A,118.3244,32.2786,滁州市,人大宾馆,,40,40,36,24,21,96,,173,144,10,14,5,6,0.5,0.5
2024-08-30T2200,3207A,118.3118,32.3038,滁州市,市政府原办公楼,,34,34,33,23,21,95,,164,134,11,12,6,7,0.6,0.5
2024-08-30T2200,3331A,118.3267,32.2634,滁州市,图书馆,,40,38,36,28,21,94,,172,146,8,10,4,5,0.3,0.2
2024-08-30T2200,2605A,101.5482,25.0441,楚雄彝族自治州,州环境监测站,,,,,,,,,,,,,,,,
2024-08-30T2200,2606A,101.538,25.0492,楚雄彝族自治州,市经济开发区,颗粒物(PM10),54,58,30,18,12,70,,80,79,8,13,5,6,0.5,0.5
2024-08-30T2200,2548A,107.5277,31.2827,达州市,达州职业技术学院,颗粒物(PM10),55,60,34,29,14,49,,109,100,16,10,7,6,0.9,0.7
2024-08-30T2200,2549A,107.5086,31.2186,达州市,市环境监测站,,40,40,29,22,9,67,,116,106,30,24,7,7,0.7,0.6
2024-08-30T2200,2550A,107.4988,31.2132,达州市,凤凰小区,,42,41,23,29,11,73,,126,119,30,18,7,8,0.7,0.5
2024-08-30T2200,2551A,107.5082,31.1986,达州市,达县机关宾馆,颗粒物(PM10),54,58,29,24,10,18,,121,98,80,30,6,5,0.6,0.4
2024-08-30T2200,2552A,107.4644,31.2124,达州市,市政中心,细颗粒物(PM2.5),62,61,31,44,11,64,,122,109,37,17,7,6,0.7,0.4
2024-08-30T2200,2614A,100.1542,25.7054,大理白族自治州,大理市环境监测站,,36,36,33,11,13,84,,88,87,6,8,4,4,0.5,0.5
2024-08-30T2200,2615A,100.2171,25.5811,大理白族自治州,大理古城,,,30,24,20,13,,,99,95,10,10,7,7,0.6,0.4
2024-08-30T2200,1109A,121.612,38.9741,大连市,甘井子,,,,31,,22,,,176,,,21,,6,,0.3
2024-08-30T2200,1110A,121.565,38.9511,大连市,周水子,细颗粒物(PM2.5),82,,33,60,29,176,,180,180,29,23,6,6,1.0,0.9
2024-08-30T2200,1111A,121.5637,38.8845,大连市,星海三站,臭氧1小时,90,73,35,62,25,192,,187,187,10,12,8,7,0.8,0.6
2024-08-30T2200,1112A,121.6302,38.9117,大连市,青泥洼桥,细颗粒物(PM2.5),92,74,42,68,29,178,,178,178,25,14,10,9,1.0,0.7
2024-08-30T2200,1113A,121.6251,38.8638,大连市,傅家庄,细颗粒物(PM2.5),92,,27,68,27,181,,196,196,17,10,9,9,1.0,0.7
2024-08-30T2200,1114A,121.5213,38.8661,大连市,七贤岭,臭氧1小时,93,80,36,63,27,194,,187,187,13,14,7,7,0.7,0.6
2024-08-30T2200,1115A,121.2529,38.8061,大连市,旅顺,臭氧1小时,88,72,40,41,23,190,,200,200,13,19,7,7,0.8,0.6
2024-08-30T2200,1116A,121.7485,39.1311,大连市,金州,细颗粒物(PM2.5),74,57,35,54,27,116,,184,171,12,14,7,8,1.4,0.9
2024-08-30T2200,1117A,121.7811,39.0496,大连市,开发区,臭氧1小时,93,76,46,60,29,194,,187,187,10,20,9,11,0.9,0.6
2024-08-30T2200,1118A,121.9762,39.0631,大连市,双D港,臭氧1小时,95,,33,61,24,196,,185,185,12,17,7,7,0.9,0.6
2024-08-30T2200,1789A,124.81117,46.03138,大庆市,大同区,,20,14,14,14,13,44,,84,73,16,6,8,8,0.3,0.3
2024-08-30T2200,1790A,125.129,46.533,大庆市,龙凤区,,26,26,21,11,11,58,,83,74,12,8,3,3,0.4,0.3
2024-08-30T2200,1791A,124.902,46.408,大庆市,红岗区,,20,17,21,14,13,41,,85,73,20,9,8,10,0.3,0.3
2024-08-30T2200,1792A,125.153,46.586,大庆市,萨尔图区,,18,12,14,10,6,56,,71,65,16,9,6,6,0.3,0.2
2024-08-30T2200,1793A,124.9042,46.6215,大庆市,让胡路区,,35,35,18,17,10,47,,81,75,19,8,6,6,0.4,0.3
2024-08-30T2200,3481A,125.141,46.634,大庆市,萨区政府监测点,,15,12,15,6,6,45,,76,70,16,8,5,5,0.2,0.2
2024-08-30T2200,1721A,113.3819,40.1097,大同市,果树场,,,,,,,,,,,,,,,,
2024-08-30T2200,1723A,113.2994,40.0758,大同市,云冈宾馆,,47,47,58,25,24,90,,168,140,28,32,8,10,0.6,0.7
2024-08-30T2200,1724A,113.3444,40.0917,大同市,大同大学,,39,39,43,15,19,91,,159,134,26,22,10,13,0.4,0.6
2024-08-30T2200,1725A,113.2661,40.1269,大同市,安家小村,颗粒物(PM10),51,52,52,20,17,93,,169,142,27,27,14,12,0.5,0.6
2024-08-30T2200,1726A,113.2711,40.0844,大同市,教育学院,,50,50,63,18,24,98,,165,138,27,40,12,17,0.6,0.8
2024-08-30T2200,3282A,113.3397,40.0597,大同市,大同市卫生学校,,41,41,55,21,25,96,,163,137,25,32,8,12,0.6,0.8
2024-08-30T2200,3565A,113.1367,40.1122,大同市,云冈站,,46,46,59,31,22,45,,170,145,35,28,11,14,0.5,0.6
2024-08-30T2200,3566A,113.1186,40.2556,大同市,图书馆,,36,36,35,18,20,56,,144,110,15,14,8,10,0.2,0.4
2024-08-30T2200,3567A,113.5931,40.0461,大同市,区一中,,,,47,8,15,120,,145,126,8,17,13,19,0.6,0.6
2024-08-30T2200,3676A,113.2802,40.0995,大同市,第二人民医院,,37,37,61,19,26,99,,170,143,24,35,12,13,0.5,0.7
2024-08-30T2200,2269A,124.1069,50.4097,大兴安岭地区,科技局,,42,,12,29,18,50,,70,61,4,3,4,5,0.3,0.2
2024-08-30T2200,3663A,124.1164,50.4278,大兴安岭地区,红旗社区,,15,6,8,3,7,48,,62,53,2,6,6,6,0.3,0.3
2024-08-30T2200,1600A,124.3303,40.0625,丹东市,江湾东路,,35,35,46,17,22,82,,103,97,14,13,3,5,0.7,0.9
2024-08-30T2200,1601A,124.4256,40.1503,丹东市,临江后街,,40,40,37,22,19,64,,119,108,18,8,6,6,0.7,0.6
2024-08-30T2200,1602A,124.3933,40.1461,丹东市,元宝山,,32,32,33,17,16,40,,100,91,27,13,2,3,0.8,0.8
2024-08-30T2200,1603A,124.3633,40.1092,丹东市,民主桥,,33,33,37,17,18,68,,109,102,22,17,2,4,0.7,0.7
2024-08-30T2200,3541A,109.5726,19.5167,儋州市,第一中学子站,,18,10,20,3,11,55,,78,70,8,6,6,6,0.4,0.4
2024-08-30T2200,3542A,109.5567,19.5187,儋州市,东坡学校子站,,20,11,20,3,13,63,,79,72,3,5,7,6,0.4,0.5
2024-08-30T2200,2616A,98.5842,24.428,德宏傣族景颇族自治州,德宏州监测站,,33,33,30,17,16,49,,89,80,9,10,6,9,0.6,0.6
2024-08-30T2200,3677A,98.5881,24.4368,德宏傣族景颇族自治州,芒市人民政府综合楼,,35,35,27,22,17,41,,82,73,10,12,5,7,0.6,0.7
2024-08-30T2200,1901A,104.4239,31.1208,德阳市,东山公园,,32,32,24,21,14,67,,91,88,13,13,4,6,0.7,0.6
2024-08-30T2200,1902A,104.3826,31.1317,德阳市,西小区,,42,36,28,29,18,58,,84,80,17,15,4,6,0.7,0.6
2024-08-30T2200,1904A,104.3553,31.1091,德阳市,耐火材料厂,,38,36,29,26,17,59,,85,81,12,12,5,6,0.6,0.6
2024-08-30T2200,3639A,104.4019,31.1244,德阳市,市教育局,,38,38,29,24,16,61,,86,84,16,13,3,6,0.7,0.6
2024-08-30T2200,1622A,116.3032,37.4674,德州市,儿童乐园,,46,46,55,24,38,115,,177,160,14,11,8,10,0.7,0.7
2024-08-30T2200,1624A,116.2991,37.4451,德州市,监理站,,,39,56,22,41,,,182,175,16,16,7,9,0.7,0.8
2024-08-30T2200,3066A,116.2721,37.4379,德州市,九衢泉纯净水厂,颗粒物(PM10),57,63,64,31,36,100,,169,144,23,20,9,9,0.8,0.8
2024-08-30T2200,3371A,116.3728,37.4403,德州市,开发区人民医院,,48,48,60,19,31,100,,175,152,27,19,8,8,0.8,0.8
2024-08-30T2200,3372A,116.3572,37.4094,德州市,太阳城中学,颗粒物(PM10),84,117,56,44,32,67,,177,142,43,25,9,10,0.8,0.8
2024-08-30T2200,3511A,116.5652,37.3319,德州市,陵城艺术中心,颗粒物(PM10),54,58,50,24,25,90,,157,137,31,18,7,10,0.4,0.5
2024-08-30T2200,2621A,99.7056,27.8317,迪庆藏族自治州,迪庆州站,,32,32,33,17,18,82,,100,90,15,12,8,9,0.5,0.5
2024-08-30T2200,3180A,99.7136,27.8094,迪庆藏族自治州,质量技术监督局,,26,25,29,18,14,72,,93,83,20,13,11,9,0.7,0.6
2024-08-30T2200,2663A,104.6241,35.5734,定西市,东关小学,,36,32,25,25,19,66,,76,74,5,5,3,3,0.3,0.3
2024-08-30T2200,2664A,104.6194,35.5934,定西市,供电公司,,40,32,29,28,23,70,,80,78,3,4,6,6,0.2,0.2
2024-08-30T2200,1389A,113.7547,23.0494,东莞市,莞城梨川,,24,24,26,15,16,37,,119,91,26,16,4,4,0.7,0.7
2024-08-30T2200,1390A,113.7944,23.0128,东莞市,东城石井,,25,24,29,17,18,17,,132,91,32,19,4,5,0.6,0.7
2024-08-30T2200,1391A,113.7383,22.9658,东莞市,南城西平,,,44,32,33,23,14,,126,90,,27,6,7,,0.8
2024-08-30T2200,3319A,113.7338,23.0381,东莞市,万江金泰,,22,22,28,13,19,43,,127,95,22,17,2,6,0.7,0.8
2024-08-30T2200,3626A,113.7533,23.0202,东莞市,南城元岭,,25,25,31,14,20,25,,124,86,34,16,7,7,0.7,0.8
2024-08-30T2200,3627A,113.7875,23.0457,东莞市,东城主山,,26,26,28,16,17,33,,127,95,32,14,7,7,0.7,0.7
2024-08-30T2200,1666A,118.6614,37.4309,东营市,市环保局,臭氧1小时,103,70,50,51,27,205,,205,187,9,18,6,10,0.5,0.4
2024-08-30T2200,3036A,118.6904,37.4338,东营市,开发区管委会,臭氧1小时,105,62,53,39,27,209,,205,193,9,18,4,8,0.5,0.4
2024-08-30T2200,3365A,118.5719,37.565,东营市,垦利区民丰路,臭氧1小时,70,56,50,41,29,176,,197,183,6,12,6,7,0.5,1.4
2024-08-30T2200,3498A,118.5055,37.8612,东营市,河口城区,,,70,49,51,29,,,152,146,8,9,6,7,1.0,0.9
2024-08-30T2200,3646A,118.4978,37.4623,东营市,胜利站,"细颗粒物(PM2.5),臭氧1小时",55,,38,39,26,164,,180,154,16,28,8,11,0.9,0.9
2024-08-30T2200,3734A,118.35,37.26,东营市,理想之城,臭氧1小时,68,61,47,44,30,174,,181,159,13,21,4,9,0.6,0.5
2024-08-30T2200,1591A,110.0023,39.8129,鄂尔多斯市,综合楼,,,53,50,17,16,,,161,161,20,18,14,11,0.7,0.7
2024-08-30T2200,1592A,109.9486,39.8261,鄂尔多斯市,巴音孟克林场办事处,颗粒物(PM10),56,61,50,22,18,124,,151,147,24,21,13,9,0.8,0.8
2024-08-30T2200,1593A,109.7736,39.5986,鄂尔多斯市,康泽苑,,48,48,49,17,16,109,,154,153,21,19,8,9,0.8,0.8
2024-08-30T2200,1594A,109.8119,39.5989,鄂尔多斯市,华泰汽车城,,37,31,46,19,23,116,,142,142,13,22,10,11,0.5,0.6
2024-08-30T2200,1595A,109.9734,39.7884,鄂尔多斯市,奥林花园,颗粒物(PM10),56,61,50,24,18,101,,147,138,34,25,9,6,0.8,0.7
2024-08-30T2200,2436A,114.8938,30.3994,鄂州市,市政府,,45,45,43,24,20,69,,155,134,36,18,10,11,0.9,1
2024-08-30T2200,2437A,114.8989,30.3714,鄂州市,赵家坝,细颗粒物(PM2.5),54,54,45,38,21,25,,163,135,62,19,8,10,1.0,0.9
2024-08-30T2200,3654A,114.8094,30.4089,鄂州市,精准医疗中心,,40,40,39,22,17,52,,157,133,52,21,7,9,0.7,0.7
2024-08-30T2200,2454A,109.4978,30.2981,恩施土家族苗族自治州,湖北民院,细颗粒物(PM2.5),68,,22,49,15,62,,120,104,27,16,10,8,0.8,0.7
2024-08-30T2200,2455A,109.4707,30.2798,恩施土家族苗族自治州,州电力总公司,,38,29,17,26,13,66,,108,95,20,15,8,8,0.7,0.6
2024-08-30T2200,3549A,109.5061,30.3772,恩施土家族苗族自治州,龙凤新区,,31,31,17,6,12,63,,118,100,11,10,7,6,0.8,0.7
2024-08-30T2200,2499A,108.3411,21.6158,防城港市,沙万,,39,39,36,24,18,76,,118,104,31,22,10,12,0.5,0.7
2024-08-30T2200,2500A,108.3514,21.7731,防城港市,防城档案局,,39,35,51,27,22,106,,112,112,10,17,9,8,0.8,0.6
2024-08-30T2200,2501A,108.3506,21.6414,防城港市,大海花园,,36,36,32,20,13,99,,131,120,15,19,6,9,0.5,0.7
2024-08-30T2200,1371A,113.1294,23.0067,佛山市,湾梁,,31,31,29,18,19,84,,174,160,26,31,7,7,0.8,0.8
2024-08-30T2200,1372A,113.1083,23.0478,佛山市,华材职中,,28,27,32,19,19,83,,179,163,25,34,6,6,0.4,0.5
2024-08-30T2200,1373A,113.144,23.0453,佛山市,南海气象局,,37,37,31,22,16,66,,150,136,26,24,6,5,0.6,0.6
2024-08-30T2200,1374A,113.2881,22.8094,佛山市,顺德苏岗,,32,32,31,12,22,48,,164,138,26,23,7,7,0.6,0.7
2024-08-30T2200,1376A,112.8383,22.8678,佛山市,高明孔堂,,32,30,35,17,20,100,,198,182,9,18,4,5,0.6,0.7
2024-08-30T2200,1377A,112.8836,23.1588,佛山市,三水监测站,,29,24,32,20,26,82,,165,143,51,29,4,5,0.4,0.4
2024-08-30T2200,1378A,112.867,23.185,佛山市,三水云东海,,25,24,29,17,27,80,,131,102,27,24,8,12,0.6,0.7
2024-08-30T2200,3625A,113.2544,22.7642,佛山市,容桂街道办,,20,19,28,14,21,48,,161,134,30,27,6,6,0.6,0.7
2024-08-30T2200,1280A,119.3903,26.0543,福州市,鼓山,,,,,,,,,,,,,,,,
2024-08-30T2200,1282A,119.2681,26.0504,福州市,师大,,49,49,41,34,24,77,,125,116,19,10,4,4,0.6,0.4
2024-08-30T2200,1283A,119.2984,26.1028,福州市,五四北路,,,,,35,27,103,,133,126,9,9,3,3,0.6,0.6
2024-08-30T2200,1284A,119.2648,26.0768,福州市,杨桥西路,,48,41,38,33,26,100,,130,125,11,9,4,3,0.8,0.6
2024-08-30T2200,1285A,119.317,26.0746,福州市,紫阳,,,,,,,,,,,,,,,,
2024-08-30T2200,3048A,119.5799,26.0936,福州市,九龙,,29,22,29,20,20,68,,121,109,3,4,5,5,0.4,0.4
2024-08-30T2200,3526A,119.5189,25.9664,福州市,吴航,,39,39,39,23,24,72,,130,110,7,7,5,5,0.9,0.9
2024-08-30T2200,1755A,123.7977,41.8491,抚顺市,望花区,,19,19,47,11,23,48,,165,106,19,16,12,21,0.6,1
2024-08-30T2200,1756A,123.9161,41.8822,抚顺市,顺城区,颗粒物(PM10),51,52,51,22,23,15,,176,104,50,27,3,6,0.6,0.8
2024-08-30T2200,1757A,124.0436,41.8611,抚顺市,东洲区,,20,20,43,3,22,64,,160,112,6,12,5,8,0.4,0.8
2024-08-30T2200,1758A,123.9247,41.8642,抚顺市,新抚区,,22,22,47,7,23,26,,173,108,32,20,7,10,0.5,0.7
2024-08-30T2200,1759A,124.0972,41.8961,抚顺市,大伙房水库,,24,16,42,8,28,76,,167,118,5,10,4,6,0.4,0.8
2024-08-30T2200,1760A,123.7086,41.8391,抚顺市,沈抚新城,,16,14,41,9,24,33,,168,105,32,18,6,9,0.3,0.6
2024-08-30T2200,2376A,116.2127,28.0814,抚州市,桐源党溪,颗粒物(PM10),53,56,44,31,25,20,,118,76,16,8,6,10,1.1,1.2
2024-08-30T2200,2377A,116.3544,27.9831,抚州市,市站,,46,43,39,32,25,70,,108,93,9,7,5,8,0.9,0.9
2024-08-30T2200,2378A,116.3565,27.963,抚州市,血防站,,47,47,40,32,25,62,,108,87,15,12,4,4,1.0,1
2024-08-30T2200,2379A,116.3564,28.0007,抚州市,采茶剧团,颗粒物(PM10),54,58,39,36,24,56,,114,88,13,8,4,7,1.3,0.8
2024-08-30T2200,2380A,116.385,27.9647,抚州市,医学分院,,49,49,44,31,27,46,,114,90,17,9,4,5,0.7,0.7
2024-08-30T2200,2207A,121.6094,41.998,阜新市,工业园区,颗粒物(PM10),57,63,44,11,23,4,,117,62,50,20,5,7,0.7,0.9
2024-08-30T2200,2208A,121.6697,42.0279,阜新市,长青街,,47,47,46,17,22,17,,119,68,39,14,7,8,0.8,0.8
2024-08-30T2200,2209A,121.6673,42.0705,阜新市,农业园区,,22,10,35,3,26,68,,110,76,9,11,5,5,0.6,0.8
2024-08-30T2200,2210A,121.6717,42.0224,阜新市,东苑,,48,48,42,11,25,20,,119,70,40,13,10,11,0.8,0.9
2024-08-30T2200,2211A,121.6506,42.0498,阜新市,玉龙新城,,34,34,41,12,21,7,,113,57,43,16,6,7,0.7,0.9
2024-08-30T2200,2301A,115.8277,32.8929,阜阳市,市监测站,,41,41,28,26,15,83,,128,111,15,9,15,7,0.7,0.5
2024-08-30T2200,2303A,115.8554,32.8605,阜阳市,开发区,,37,37,38,22,21,96,,128,112,21,21,5,8,0.5,0.5
2024-08-30T2200,2875A,115.784,32.8892,阜阳市,阜阳职业技术学院,,39,39,29,16,16,99,,128,116,12,10,10,7,0.5,0.4
2024-08-30T2200,3468A,115.7901,32.8613,阜阳市,市规划展馆,,36,36,32,19,19,98,,128,120,15,10,6,7,0.6,0.5
2024-08-30T2200,3469A,115.836,32.9183,阜阳市,枣园社区,,33,33,36,23,23,60,,121,104,31,18,5,5,0.6,0.5
2024-08-30T2200,2669A,102.9099,34.9841,甘南藏族自治州,州政府,,41,41,36,27,19,80,,115,106,10,13,8,8,0.6,0.5
2024-08-30T2200,3380A,102.8914,34.9617,甘南藏族自治州,甘肃民族师范学院,,,,38,,18,67,,121,111,,17,,4,,0.5
2024-08-30T2200,2570A,101.9603,30.0475,甘孜藏族自治州,水桥子,,34,21,26,19,18,106,,113,110,6,16,4,4,0.4,0.4
2024-08-30T2200,3065A,101.9533,29.9972,甘孜藏族自治州,州环保局,,30,19,29,3,10,95,,114,110,12,21,2,2,0.4,0.3
2024-08-30T2200,3414A,115.8347,28.932,赣江新区,桑海产业园,颗粒物(PM10),56,61,30,30,17,67,,143,127,44,20,10,11,0.5,0.4
2024-08-30T2200,2362A,114.9017,25.9149,赣州市,通天岩,,,,,,,,,,,,,,,,
2024-08-30T2200,2363A,114.9367,25.8664,赣州市,地委,,48,48,34,25,23,39,,119,86,29,11,3,6,0.9,1.1
2024-08-30T2200,2364A,114.9461,25.8481,赣州市,气象台,,37,37,34,24,23,44,,110,86,23,10,2,4,0.6,0.7
2024-08-30T2200,2365A,114.9322,25.8333,赣州市,市图书馆,,37,37,30,17,20,45,,117,92,28,9,5,5,0.6,0.6
2024-08-30T2200,2366A,114.8905,25.8471,赣州市,华坚鞋城,,39,38,31,27,20,55,,114,94,12,6,1,2,0.5,0.5
2024-08-30T2200,3109A,115.0093,25.8613,赣州市,赣县区卫计委,,46,46,30,21,19,21,,110,77,31,12,5,5,0.7,0.7
2024-08-30T2200,2683A,106.2319,36.1417,固原市,马园,颗粒物(PM10),51,52,55,17,16,61,,96,83,22,15,5,5,0.8,0.8
2024-08-30T2200,2684A,106.2792,36.0022,固原市,监测站,,36,36,30,20,21,76,,100,91,8,9,4,4,0.3,0.4
2024-08-30T2200,2685A,106.2375,36.0211,固原市,新区,,29,29,29,15,16,75,,98,90,6,10,7,7,0.5,0.5
2024-08-30T2200,3522A,106.2177,35.9959,固原市,原州区十五小,,28,28,25,16,17,78,,106,96,11,10,9,9,0.7,0.7
2024-08-30T2200,2543A,106.6308,30.5278,广安市,小平旧居,,,,,,,,,,,,,,,,
2024-08-30T2200,2544A,106.6303,30.4576,广安市,市委,,34,34,37,19,30,100,,149,137,12,11,4,4,0.5,0.5
2024-08-30T2200,2545A,106.6271,30.4663,广安市,友谊中学,,30,28,35,17,29,96,,148,134,17,13,5,5,0.5,0.6
2024-08-30T2200,2547A,106.6388,30.4551,广安市,广电花园,,30,26,40,17,30,96,,148,138,16,12,3,3,0.5,0.6
2024-08-30T2200,2902A,106.6351,30.4865,广安市,北辰小学,,34,34,44,21,27,97,,150,136,15,10,7,7,0.5,0.5
2024-08-30T2200,2523A,105.8945,32.4535,广元市,黑石坡,,29,29,20,19,20,35,,46,39,14,12,13,11,0.6,0.7
2024-08-30T2200,2524A,105.821,32.4444,广元市,老城,,28,28,26,17,10,18,,52,36,35,26,4,3,0.7,0.9
2024-08-30T2200,2526A,105.8628,32.4287,广元市,监测站,,30,30,21,14,9,27,,69,60,25,17,6,6,0.9,0.7
2024-08-30T2200,3617A,105.8047,32.4166,广元市,经开区,,46,46,36,26,22,13,,68,52,30,25,5,8,0.9,0.8
2024-08-30T2200,1345A,113.2347,23.1423,广州市,广雅中学,,30,30,27,20,18,68,,173,151,36,30,6,5,0.7,0.7
2024-08-30T2200,1346A,113.2612,23.105,广州市,市五中,,30,28,29,21,23,72,,185,161,28,20,3,3,0.7,0.7
2024-08-30T2200,1348A,113.3478,23.0916,广州市,广东商学院,,28,25,30,19,22,63,,161,135,34,35,5,4,0.6,0.7
2024-08-30T2200,1349A,113.4332,23.1047,广州市,市八十六中,,35,35,30,17,19,33,,148,114,62,38,5,4,0.6,0.7
2024-08-30T2200,1350A,113.3505,22.9483,广州市,番禺中学,,24,24,31,15,19,55,,168,139,34,30,4,4,0.7,0.8
2024-08-30T2200,1351A,113.2146,23.3916,广州市,花都师范,,34,34,24,20,16,89,,139,124,32,25,4,4,0.8,0.7
2024-08-30T2200,1352A,113.2597,23.1331,广州市,市监测站,,28,28,28,18,18,65,,161,140,29,28,5,4,0.8,0.8
2024-08-30T2200,1353A,113.5618,23.312,广州市,九龙镇镇龙,,34,34,26,20,15,47,,96,78,41,15,6,6,0.7,0.6
2024-08-30T2200,1354A,113.2765,23.1544,广州市,麓湖,,34,34,29,20,18,66,,157,137,38,31,5,4,0.6,0.7
2024-08-30T2200,1355A,113.443,23.3035,广州市,帽峰山森林公园,,27,27,18,13,10,84,,124,114,22,9,6,4,0.5,0.4
2024-08-30T2200,2846A,113.3221,23.1322,广州市,体育西,,33,33,31,18,21,63,,161,137,28,19,6,5,0.6,0.7
2024-08-30T2200,3298A,113.5717,23.5491,广州市,从化街口,,34,34,22,16,15,60,,84,74,22,13,2,3,0.6,0.5
2024-08-30T2200,3299A,113.3472,23.3692,广州市,白云竹料,,46,46,30,29,15,62,,113,100,46,19,6,4,0.7,0.6
2024-08-30T2200,3300A,113.2981,23.237,广州市,白云嘉禾,,44,44,32,26,17,70,,136,116,46,33,6,5,0.8,0.8
2024-08-30T2200,3301A,113.4256,23.1716,广州市,黄埔科学城,,44,44,29,24,18,45,,134,109,58,25,8,4,0.8,0.7
2024-08-30T2200,3302A,113.3942,23.0483,广州市,番禺大学城,,26,26,25,13,17,66,,164,136,24,31,8,8,0.5,0.6
2024-08-30T2200,3303A,113.4922,22.8168,广州市,南沙黄阁,,23,20,35,10,24,33,,170,130,46,33,5,5,0.8,0.9
2024-08-30T2200,3304A,113.5342,22.7896,广州市,南沙街,,26,26,32,12,20,37,,161,123,30,24,4,5,0.7,0.8
2024-08-30T2200,3443A,113.2902,23.5544,广州市,花都梯面,,46,45,22,32,14,72,,93,79,32,17,5,4,0.7,0.6
2024-08-30T2200,3445A,113.7858,23.7478,广州市,从化良口,,25,23,22,17,16,44,,59,55,11,7,5,6,0.7,0.7
2024-08-30T2200,3446A,113.8051,23.2614,广州市,增城荔城,,26,26,25,13,16,58,,103,86,15,10,5,4,0.6,0.6
2024-08-30T2200,2505A,109.568,23.1478,贵港市,德智高中,,,,,,,,,,,,,,,,
2024-08-30T2200,2506A,109.6047,23.0666,贵港市,江南子站,,41,41,51,28,22,91,,133,121,16,17,8,9,0.7,0.7
2024-08-30T2200,2507A,109.6014,23.0948,贵港市,贵城子站,颗粒物(PM10),51,51,46,30,22,76,,127,115,18,16,8,8,0.7,0.8
2024-08-30T2200,2508A,109.5669,23.1065,贵港市,荷城子站,,44,44,41,22,17,82,,130,119,15,16,10,11,0.6,0.6
2024-08-30T2200,3405A,109.5886,23.1172,贵港市,新世纪学校,,48,48,45,30,20,77,,125,114,15,15,9,10,0.7,0.7
2024-08-30T2200,1439A,106.6899,26.5998,贵阳市,马鞍山,,25,12,21,3,10,77,,91,87,8,10,6,6,0.4,0.5
2024-08-30T2200,1440A,106.6971,26.5694,贵阳市,市环保站,颗粒物(PM10),58,66,32,18,24,63,,90,82,18,14,3,4,0.2,0.3
2024-08-30T2200,1441A,106.6243,26.6266,贵阳市,鉴湖路,,24,24,26,12,16,68,,90,87,8,8,5,5,0.4,0.4
2024-08-30T2200,1442A,106.7487,26.6343,贵阳市,燕子冲,,23,14,20,14,19,72,,94,90,9,8,6,7,0.6,0.6
2024-08-30T2200,1443A,106.6555,26.4365,贵阳市,碧云窝,,22,22,27,14,11,66,,84,81,8,6,4,5,0.4,0.4
2024-08-30T2200,1444A,106.694,26.5161,贵阳市,中院村,,22,22,28,14,16,59,,84,76,12,12,6,7,0.5,0.4
2024-08-30T2200,1445A,106.7109,26.6027,贵阳市,红边门,,25,17,29,17,26,68,,88,82,15,15,4,4,0.5,0.6
2024-08-30T2200,1446A,106.7164,26.5699,贵阳市,新华路,,24,12,24,9,18,74,,93,89,10,11,4,4,0.3,0.6
2024-08-30T2200,1447A,106.674,26.5424,贵阳市,太慈桥,,21,12,14,9,13,65,,93,86,10,9,4,5,0.5,0.5
2024-08-30T2200,1552A,106.805,26.3003,贵阳市,桐木岭,,,,,,,,,,,,,,,,
2024-08-30T2200,1862A,110.4144,25.3167,桂林市,电子科大尧山校区,颗粒物(PM10),62,74,36,29,23,48,,104,88,10,7,9,11,0.6,0.7
2024-08-30T2200,1863A,110.2819,25.2697,桂林市,监测站,,41,41,37,23,24,60,,94,87,10,8,11,12,0.6,0.5
2024-08-30T2200,1864A,110.3089,25.2708,桂林市,龙隐路小学,,35,35,33,22,22,64,,110,98,12,7,10,13,0.5,0.5
2024-08-30T2200,1865A,110.2869,25.2178,桂林市,八中,,39,39,32,27,22,56,,105,93,12,7,9,11,0.5,0.5
2024-08-30T2200,3403A,110.1764,25.2381,桂林市,创业大厦,,,,31,,27,64,,98,92,14,7,,13,0.4,0.4
2024-08-30T2200,3531A,110.296,25.1253,桂林市,旅游学院,,35,24,22,24,19,55,,104,89,10,8,5,8,0.6,0.5
2024-08-30T2200,2674A,100.2561,34.4714,果洛藏族自治州,玛沁县大武镇,,34,34,22,14,11,64,,116,92,6,6,6,6,0.5,0.4
2024-08-30T2200,1129A,126.5422,45.755,哈尔滨市,岭北,,26,10,29,6,18,81,,96,81,12,19,6,12,0.3,0.6
2024-08-30T2200,1130A,126.561,45.8167,哈尔滨市,松北商大,,17,17,27,3,11,42,,70,52,28,21,8,8,0.4,0.5
2024-08-30T2200,1131A,126.979,45.5419,哈尔滨市,阿城会宁,,30,23,29,21,19,36,,77,52,25,18,8,8,0.7,0.8
2024-08-30T2200,1132A,126.599,45.7222,哈尔滨市,南岗学府路,,26,26,45,8,13,66,,79,74,19,26,7,8,0.4,0.5
2024-08-30T2200,1133A,126.689,45.7733,哈尔滨市,太平宏伟公园,,21,14,37,6,13,65,,69,66,14,23,3,6,0.4,0.5
2024-08-30T2200,1134A,126.635,45.7667,哈尔滨市,道外承德广场,,28,28,41,3,13,60,,74,69,25,28,12,12,0.4,0.5
2024-08-30T2200,1135A,126.685,45.7319,哈尔滨市,香坊红旗大街,,28,27,46,19,21,72,,79,76,14,33,6,9,0.6,0.7
2024-08-30T2200,1136A,126.6411,45.7258,哈尔滨市,动力和平路,,22,9,49,3,12,69,,76,72,17,33,6,7,0.4,0.5
2024-08-30T2200,1137A,126.593,45.7478,哈尔滨市,道里建国路,,20,13,39,3,16,61,,78,67,17,24,8,11,0.3,0.6
2024-08-30T2200,1138A,126.615,45.61,哈尔滨市,平房东轻厂,,19,18,31,8,11,30,,67,51,37,21,5,5,0.4,0.5
2024-08-30T2200,1139A,126.595,45.9855,哈尔滨市,呼兰师专,,18,18,27,3,10,48,,72,59,16,16,10,10,0.4,0.6
2024-08-30T2200,1140A,126.6206,45.6842,哈尔滨市,省农科院,,28,26,52,19,18,22,,72,66,47,38,14,12,0.2,0.3
2024-08-30T2200,2688A,93.5128,42.8172,哈密市,地区监测站,颗粒物(PM10),86,121,195,25,36,99,,103,102,7,15,3,4,0.2,0.2
2024-08-30T2200,2689A,93.4961,42.8328,哈密市,哈密师范学校,,,93,138,,41,90,,104,103,17,14,5,5,0.5,0.6
2024-08-30T2200,2671A,100.9048,36.9639,海北藏族自治州,海晏县西海镇,颗粒物(PM10),52,53,21,31,15,130,,131,131,16,8,20,15,0.8,0.5
2024-08-30T2200,3867A,102.0738,36.5056,海东市,平安区公安北苑,颗粒物(PM10),51,51,42,26,31,100,,142,134,20,18,11,11,0.8,0.7
2024-08-30T2200,1409A,110.576,19.9507,海口市,东寨港,,,,,,,,,,,,,,,,
2024-08-30T2200,1410A,110.3232,20.0574,海口市,海南大学,,31,31,20,17,12,72,,101,91,12,9,6,6,0.5,0.5
2024-08-30T2200,1411A,110.283,20.0053,海口市,秀英海南医院,,32,31,24,22,14,59,,96,82,16,11,4,6,0.4,0.4
2024-08-30T2200,1412A,110.338,19.9969,海口市,海南师范大学,,28,28,19,19,13,63,,99,86,10,7,5,6,0.5,0.5
2024-08-30T2200,1413A,110.33,20.0356,海口市,龙华路环保局宿舍,,26,26,18,18,10,67,,98,88,10,8,4,4,0.4,0.3
2024-08-30T2200,3539A,110.5111,19.9736,海口市,桂林洋子站,,30,30,20,21,12,39,,92,77,14,8,5,5,0.5,0.5
2024-08-30T2200,2673A,100.6188,36.2866,海南藏族自治州,共和县恰卜恰镇,颗粒物(PM10),54,57,25,13,13,106,,122,115,20,10,17,12,0.5,0.6
2024-08-30T2200,2676A,97.3731,37.3753,海西蒙古族藏族自治州,德令哈市,颗粒物(PM10),77,103,33,26,12,68,,128,118,19,8,10,9,0.6,0.5
2024-08-30T2200,1048A,114.5302,36.6116,邯郸市,东污水处理厂,,48,48,52,19,29,98,,142,122,11,11,2,3,0.4,0.7
2024-08-30T2200,1049A,114.4918,36.5713,邯郸市,矿院,,36,36,49,12,28,100,,152,132,5,8,2,3,0.5,0.7
2024-08-30T2200,1050A,114.484,36.6133,邯郸市,丛台公园,,33,32,43,19,25,105,,143,128,9,9,3,5,0.4,0.6
2024-08-30T2200,3458A,114.7895,36.5593,邯郸市,香泉濮院小区,颗粒物(PM10),60,69,52,18,24,100,,142,131,12,6,1,2,0.7,0.5
2024-08-30T2200,3579A,114.50634,36.77178,邯郸市,永年区实验高中,颗粒物(PM10),52,54,64,19,29,114,,179,150,12,11,2,3,0.9,1.3
2024-08-30T2200,3580A,114.20016,36.44293,邯郸市,峰峰矿区临水派出所,,40,34,28,25,20,126,,169,162,10,6,3,6,0.5,0.7
2024-08-30T2200,2634A,106.9893,33.1842,汉中市,汉川机床厂子校,,26,26,24,16,14,54,,94,82,9,7,4,4,0.8,0.7
2024-08-30T2200,2635A,107.0154,33.0706,汉中市,市监测站,,42,42,37,22,22,57,,101,89,14,8,8,8,0.7,0.7
2024-08-30T2200,2636A,107.0089,33.1138,汉中市,鑫源开发区,,37,37,32,14,18,62,,102,89,12,8,9,9,0.6,0.6
2024-08-30T2200,2637A,107.007,33.0323,汉中市,南郑大河坎水厂,颗粒物(PM10),61,71,40,28,24,43,,93,78,9,8,8,8,0.8,0.7
2024-08-30T2200,1223A,120.2072,30.2111,杭州市,滨江,,40,40,34,21,17,69,,152,118,26,17,5,5,0.7,0.6
2024-08-30T2200,1224A,120.0633,30.2747,杭州市,西溪,,29,,26,20,20,62,,160,116,23,18,6,6,0.7,0.7
2024-08-30T2200,1226A,120.3461,30.3153,杭州市,下沙,,34,34,34,17,16,82,,141,103,31,23,8,8,0.6,0.6
2024-08-30T2200,1227A,120.1269,30.2456,杭州市,卧龙桥,,25,25,26,16,20,38,,177,115,26,17,6,5,0.6,0.6
2024-08-30T2200,1228A,120.1903,30.2692,杭州市,浙江农大,,31,31,27,15,16,69,,142,101,31,23,9,9,0.6,0.5
2024-08-30T2200,1230A,120.1197,30.3119,杭州市,和睦小学,,29,29,27,19,17,86,,172,126,25,18,7,7,0.7,0.6
2024-08-30T2200,1231A,120.3019,30.4183,杭州市,临平镇,,32,32,32,10,14,91,,145,116,16,14,5,5,0.7,0.6
2024-08-30T2200,1232A,120.2697,30.1819,杭州市,城厢镇,,43,43,38,27,22,74,,160,119,32,19,7,6,0.5,0.6
2024-08-30T2200,1233A,120.0883,30.1808,杭州市,云栖,,21,21,24,11,14,23,,180,108,35,19,6,6,0.6,0.6
2024-08-30T2200,3557A,119.9464,30.0494,杭州市,镇二中,颗粒物(PM10),51,51,32,33,22,75,,163,148,36,22,8,8,0.7,0.7
2024-08-30T2200,3558A,119.7183,30.2367,杭州市,市府大楼,,50,47,32,35,24,105,,188,177,21,16,6,6,0.6,0.6
2024-08-30T2200,3656A,120.1556,30.2864,杭州市,消防大队,,28,28,32,18,20,81,,159,118,22,16,8,8,0.9,0.9
2024-08-30T2200,1270A,117.1959,31.7848,合肥市,明珠广场,,45,41,30,31,21,78,,152,125,36,22,6,7,0.7,0.5
2024-08-30T2200,1271A,117.3072,31.8764,合肥市,三里街,,39,39,33,22,15,80,,143,127,26,15,5,6,0.6,0.5
2024-08-30T2200,1272A,117.2588,31.8707,合肥市,琥珀山庄,,48,39,31,33,22,40,,155,126,25,13,6,6,0.9,0.6
2024-08-30T2200,1273A,117.1604,31.9052,合肥市,董铺水库,,29,17,34,14,19,90,,156,142,14,11,2,3,0.4,0.4
2024-08-30T2200,1274A,117.25,31.8571,合肥市,长江中路,,48,39,35,33,21,57,,157,130,24,13,7,8,1.0,0.8
2024-08-30T2200,1275A,117.266,31.9436,合肥市,庐阳区,,48,48,33,24,15,53,,154,126,52,19,4,5,0.7,0.5
2024-08-30T2200,1276A,117.336,31.8586,合肥市,瑶海区,,44,44,33,24,17,90,,139,124,29,18,10,10,0.7,0.6
2024-08-30T2200,1277A,117.3027,31.7964,合肥市,包河区,颗粒物(PM10),52,53,38,29,20,31,,142,120,76,29,5,6,0.6,0.5
2024-08-30T2200,1278A,117.2776,31.7385,合肥市,滨湖新区,,34,34,28,17,16,63,,140,123,41,14,6,6,0.5,0.4
2024-08-30T2200,1279A,117.1318,31.8403,合肥市,高新区,,36,34,35,25,21,100,,158,140,16,18,6,6,0.8,0.7
2024-08-30T2200,3464A,117.3803,31.9147,合肥市,高教基地,,45,45,25,30,17,66,,126,104,30,10,10,10,0.5,0.5
2024-08-30T2200,3614A,79.924,37.0877,和田地区,地区环保局,颗粒物(PM10),153,255,412,61,87,70,,97,94,18,6,7,7,0.6,0.5
2024-08-30T2200,3615A,79.9131,37.113,和田地区,市环保局,颗粒物(PM10),128,205,392,62,81,65,,94,91,24,6,8,7,0.6,0.4
2024-08-30T2200,2516A,108.2011,24.715,河池市,东仁乐园,,35,35,28,20,17,28,,51,51,8,9,4,4,0.6,0.7
2024-08-30T2200,2517A,108.0497,24.6947,河池市,市环保站,,29,26,23,20,14,45,,78,70,13,10,8,10,0.7,0.6
2024-08-30T2200,2518A,108.0983,24.6989,河池市,市疾控中心,,35,34,23,24,16,32,,71,64,21,13,8,8,0.7,0.6
2024-08-30T2200,1696A,114.6778,23.7569,河源市,源西,,23,,29,16,21,47,,80,64,10,13,4,4,0.6,0.6
2024-08-30T2200,1697A,114.6944,23.7586,河源市,东埔,,36,36,21,20,16,49,,77,65,11,13,2,3,0.7,0.7
2024-08-30T2200,1698A,114.6892,23.7233,河源市,老城,,23,23,24,7,12,46,,78,66,13,10,4,5,0.6,0.7
2024-08-30T2200,1718A,115.4208,35.2464,菏泽市,气象局,颗粒物(PM10),54,57,43,18,21,98,,142,130,18,12,3,5,0.3,0.3
2024-08-30T2200,1719A,115.4747,35.2375,菏泽市,市政协,,47,47,38,24,22,105,,136,125,13,8,4,6,0.2,0.3
2024-08-30T2200,3374A,115.5564,35.0891,菏泽市,定陶老年大学,,44,44,34,14,14,85,,123,111,18,10,4,5,0.5,0.4
2024-08-30T2200,3647A,115.4702,35.2706,菏泽市,菏泽医专,,47,47,37,14,15,100,,138,125,21,11,2,5,0.4,0.4
2024-08-30T2200,2514A,111.5264,24.4172,贺州市,环保小区,,29,27,36,20,17,81,,113,106,13,14,6,7,0.8,0.8
2024-08-30T2200,2515A,111.5608,24.4078,贺州市,政协大楼,颗粒物(PM10),51,51,33,26,19,65,,117,110,27,17,11,6,0.6,0.7
2024-08-30T2200,3534A,111.4744,24.4553,贺州市,西湾,,38,37,32,26,18,63,,122,102,11,13,8,7,0.7,0.7
2024-08-30T2200,2385A,114.17,35.9019,鹤壁市,市监测站,,41,41,44,28,26,108,,170,156,11,9,6,5,0.6,0.5
2024-08-30T2200,2386A,114.2956,35.7511,鹤壁市,市交警支队,颗粒物(PM10),54,58,62,21,34,111,,184,160,14,18,9,10,0.6,0.7
2024-08-30T2200,2387A,114.2878,35.7306,鹤壁市,迎宾馆,,43,43,63,28,34,117,,188,163,14,18,4,5,0.7,0.8
2024-08-30T2200,3474A,114.2617,35.6822,鹤壁市,大新区,,,44,63,,,96,,181,151,17,25,4,7,0.4,0.6
2024-08-30T2200,3596A,114.1572,35.9603,鹤壁市,南山宾馆,,34,32,28,23,19,108,,158,147,11,5,3,5,0.6,0.6
2024-08-30T2200,2244A,130.2537,47.3416,鹤岗市,哈啤分公司,,18,18,20,9,14,55,,78,68,1,8,13,13,0.4,0.5
2024-08-30T2200,2245A,130.2684,47.3086,鹤岗市,斯达机电,,18,15,18,7,9,56,,78,68,6,10,13,14,0.2,0.3
2024-08-30T2200,2246A,130.3114,47.3388,鹤岗市,东山纸板厂,,18,9,15,3,13,55,,80,70,3,11,15,16,0.4,0.2
2024-08-30T2200,2247A,130.1097,47.3382,鹤岗市,五号水库,,19,6,7,3,4,59,,80,70,4,5,12,12,0.2,0.3
2024-08-30T2200,2263A,127.4833,50.2524,黑河市,交通局,,15,14,23,10,11,45,,55,47,5,8,5,6,0.3,0.3
2024-08-30T2200,2264A,127.5144,50.2341,黑河市,环保局,,19,15,21,13,13,54,,64,56,4,6,3,5,0.3,0.3
2024-08-30T2200,2265A,127.5291,50.2472,黑河市,大黑河岛,,,,24,7,13,,,,,,,,,,
2024-08-30T2200,1074A,115.6838,37.7541,衡水市,电机北厂,颗粒物(PM10),57,64,62,30,36,114,,195,184,23,17,4,6,0.6,0.6
2024-08-30T2200,1075A,115.6303,37.7316,衡水市,市监测站,颗粒物(PM10),55,59,60,30,33,142,,194,188,14,15,5,7,0.6,0.7
2024-08-30T2200,3188A,115.6683,37.7217,衡水市,市城管局,颗粒物(PM10),56,61,59,36,34,124,,202,188,20,14,5,7,0.5,0.7
2024-08-30T2200,3459A,115.5989,37.5491,衡水市,地表水厂,颗粒物(PM10),65,80,67,28,35,45,,193,146,46,23,3,4,0.6,0.7
2024-08-30T2200,2456A,112.5003,26.9167,衡阳市,原169医院,颗粒物(PM10),55,59,35,32,22,63,,144,124,36,17,7,7,0.9,0.7
2024-08-30T2200,2457A,112.6194,26.9258,衡阳市,衡阳化工总厂,,,48,41,,,82,,145,135,18,9,7,7,0.8,0.8
2024-08-30T2200,2458A,112.6211,26.8956,衡阳市,珠晖区环保局,,,72,39,,,62,,144,130,43,16,8,7,1.0,0.9
2024-08-30T2200,2459A,112.6197,26.8733,衡阳市,市委党校,,40,40,39,27,21,113,,141,135,11,10,6,6,0.9,0.9
2024-08-30T2200,2460A,112.6006,26.8919,衡阳市,市监测站,细颗粒物(PM2.5),54,44,35,38,25,108,,154,147,18,11,7,7,1.0,0.9
2024-08-30T2200,2461A,112.5664,26.9056,衡阳市,真空机电公司,,46,46,37,28,20,104,,156,145,19,13,6,7,1.1,1
2024-08-30T2200,3399A,112.6703,26.882,衡阳市,师范学院,颗粒物(PM10),55,59,36,30,19,76,,133,120,20,12,7,8,1.0,0.8
2024-08-30T2200,2608A,103.3772,23.3993,红河哈尼族彝族自治州,污水处理厂,,29,22,20,20,16,22,,49,40,14,10,20,14,0.5,0.4
2024-08-30T2200,2609A,103.3861,23.35,红河哈尼族彝族自治州,监测站,,32,32,18,21,11,14,,47,34,11,8,7,11,0.5,0.4
2024-08-30T2200,3038A,103.3758,23.368,红河哈尼族彝族自治州,州图书馆,,31,31,24,11,10,24,,49,41,12,8,6,13,0.4,0.4
2024-08-30T2200,1090A,111.6507,40.7517,呼和浩特市,呼市一监,,41,41,42,19,22,104,,151,135,14,18,10,11,0.6,0.7
2024-08-30T2200,1091A,111.6572,40.8033,呼和浩特市,小召,,31,31,35,12,21,70,,140,123,39,26,8,7,0.5,0.7
2024-08-30T2200,1094A,111.7516,40.8369,呼和浩特市,如意水处理厂,,23,23,38,6,18,66,,132,110,37,26,7,7,0.6,0.6
2024-08-30T2200,1095A,111.7276,40.8062,呼和浩特市,二十九中,,40,40,43,13,21,64,,137,120,43,29,6,5,0.5,0.7
2024-08-30T2200,1096A,111.5512,40.7866,呼和浩特市,工大金川校区,颗粒物(PM10),55,59,51,15,22,56,,146,117,46,37,3,3,0.6,0.7
2024-08-30T2200,1097A,111.717,40.7612,呼和浩特市,化肥厂生活区,,37,37,49,12,22,93,,141,124,18,18,10,9,0.5,0.6
2024-08-30T2200,3698A,111.5968,40.8178,呼和浩特市,红旗小学,,36,36,41,12,20,78,,151,124,32,29,5,5,0.6,0.6
2024-08-30T2200,3699A,111.6518,40.8389,呼和浩特市,海东办,,28,24,41,10,21,89,,145,125,24,31,4,6,0.6,0.5
2024-08-30T2200,2192A,119.7594,49.2261,呼伦贝尔市,区环保局,,50,50,26,23,15,22,,79,59,47,15,6,3,0.3,0.3
2024-08-30T2200,3061A,119.7512,49.1577,呼伦贝尔市,国华电力东,,33,33,24,19,15,37,,85,72,15,7,4,4,0.2,0.2
2024-08-30T2200,1250A,120.0751,30.8669,湖州市,城西水厂,,38,35,27,26,17,89,,156,143,28,14,5,4,0.5,0.4
2024-08-30T2200,2873A,120.0875,30.8955,湖州市,仁皇山新区,,32,32,25,20,16,99,,148,128,22,14,6,6,0.7,0.6
2024-08-30T2200,2907A,120.1844,30.8596,湖州市,吴兴区站,,28,28,24,17,16,70,,136,122,22,12,7,7,0.5,0.5
2024-08-30T2200,3562A,120.4148,30.8538,湖州市,南浔区站,,29,24,24,14,16,92,,135,126,15,12,5,5,0.5,0.5
2024-08-30T2200,1607A,120.9092,40.7136,葫芦岛市,龙港区,,37,37,42,15,32,27,,139,68,57,21,14,17,0.5,0.6
2024-08-30T2200,1608A,120.8392,40.7514,葫芦岛市,化工街,颗粒物(PM10),58,66,45,24,21,8,,121,76,53,22,14,10,0.5,0.6
2024-08-30T2200,1609A,120.8341,40.7073,葫芦岛市,新区,,37,37,38,15,29,28,,130,80,62,20,22,12,0.5,0.6
2024-08-30T2200,1610A,120.8695,40.7677,葫芦岛市,东城区,,18,15,37,8,36,52,,120,79,35,24,13,14,0.3,0.5
2024-08-30T2200,2482A,109.5981,27.5721,怀化市,林科所,,22,22,22,9,12,60,,99,90,12,11,12,16,0.3,0.4
2024-08-30T2200,2483A,109.9453,27.5444,怀化市,河西地税局,,40,39,29,28,20,43,,115,94,13,11,2,4,0.7,0.7
2024-08-30T2200,2484A,109.9781,27.5342,怀化市,市四医院,,40,30,30,28,22,56,,118,98,14,9,9,12,0.8,0.8
2024-08-30T2200,2485A,109.9972,27.5578,怀化市,监测楼,,36,36,33,25,18,51,,115,96,17,10,2,8,0.8,0.8
2024-08-30T2200,2486A,110.0394,27.583,怀化市,市委党校,颗粒物(PM10),55,59,43,30,19,39,,108,90,24,11,21,21,0.7,0.6
2024-08-30T2200,1210A,119.036,33.5981,淮安市,钵池山,,36,36,25,18,16,55,,111,88,30,22,7,7,0.7,0.8
2024-08-30T2200,1211A,119.007,33.575,淮安市,北京南路,,34,34,29,16,17,42,,108,88,25,13,5,5,0.5,0.6
2024-08-30T2200,1212A,118.989,33.6067,淮安市,市监测站,,34,34,28,19,20,62,,111,95,19,16,6,6,0.7,0.7
2024-08-30T2200,1213A,119.135,33.5039,淮安市,楚州区监测站,,34,34,36,18,15,51,,106,84,26,18,5,5,0.5,0.6
2024-08-30T2200,1214A,119.0186,33.6297,淮安市,淮阴区监测站,,41,41,32,18,17,52,,106,80,36,27,4,4,0.6,0.6
2024-08-30T2200,3426A,118.8755,33.2894,淮安市,新华书店,,26,22,28,18,18,59,,112,91,19,16,10,7,0.6,0.6
2024-08-30T2200,2282A,116.8004,33.975,淮北市,监测站,,48,48,32,19,17,71,,133,115,12,8,5,6,0.7,0.7
2024-08-30T2200,2283A,116.8091,33.9007,淮北市,烈山区政府,,33,33,33,16,18,75,,146,123,10,9,6,7,0.6,0.5
2024-08-30T2200,3330A,116.8873,33.9836,淮北市,杜集区检察院,,29,29,28,17,18,88,,129,118,7,8,1,2,0.4,0.4
2024-08-30T2200,4017A,116.7923,33.9535,淮北市,市博物馆,颗粒物(PM10),54,57,29,19,17,84,,138,124,12,9,4,4,0.8,0.7
2024-08-30T2200,2277A,116.8305,32.7727,淮南市,潘集区政府,,48,48,33,23,19,86,,130,120,14,13,6,6,0.6,0.6
2024-08-30T2200,2278A,117.0067,32.6524,淮南市,师范学院,,43,43,43,12,18,95,,142,126,10,10,7,7,0.6,0.6
2024-08-30T2200,2279A,116.8569,32.5951,淮南市,谢家集区政府,,49,49,30,27,20,91,,137,125,16,11,7,8,0.6,0.5
2024-08-30T2200,2280A,116.8281,32.633,淮南市,八公山区政府,颗粒物(PM10),53,55,41,26,20,82,,141,123,21,14,7,7,0.5,0.4
2024-08-30T2200,2281A,116.6325,32.6201,淮南市,焦岗湖风景区管理处,,44,44,28,28,10,48,,80,73,17,12,5,6,0.2,0.1
2024-08-30T2200,2894A,117.0566,32.6531,淮南市,经济技术开发区消防队,,28,28,26,13,8,75,,134,118,21,12,7,6,0.7,0.5
2024-08-30T2200,3329A,117.0108,32.5893,淮南市,山南新区,颗粒物(PM10),57,63,42,23,18,90,,134,122,18,12,7,6,0.9,0.7
2024-08-30T2200,2446A,114.9028,30.4742,黄冈市,职工中心,,43,43,35,29,22,122,,150,144,12,10,8,8,0.8,0.7
2024-08-30T2200,2929A,114.8858,30.4519,黄冈市,红卫路,,40,34,30,28,23,109,,156,143,17,12,8,8,0.7,0.6
2024-08-30T2200,3398A,114.9136,30.4445,黄冈市,市林业局,,41,41,36,22,20,107,,171,163,20,9,7,7,0.6,0.5
2024-08-30T2200,2672A,102.0199,35.5102,黄南藏族自治州,同仁县隆务镇,,37,37,27,14,9,79,,106,101,2,2,9,9,0.5,0.5
2024-08-30T2200,2295A,118.2903,29.6963,黄山市,延安路89号,,41,41,44,7,13,25,,108,69,8,6,5,5,0.5,0.4
2024-08-30T2200,2296A,118.327,29.7178,黄山市,黄山东路89号,,35,35,26,8,9,23,,104,68,9,7,4,4,0.6,0.5
2024-08-30T2200,2297A,118.1371,30.2756,黄山市,黄山区政府5号楼,,17,17,18,3,8,50,,102,86,6,5,6,6,0.4,0.3
2024-08-30T2200,2423A,115.0601,30.2313,黄石市,沈家营,颗粒物(PM10),58,65,59,28,23,101,,164,151,27,21,6,9,0.7,0.7
2024-08-30T2200,2424A,115.0817,30.2006,黄石市,陈家湾,颗粒物(PM10),54,58,61,26,26,103,,154,141,7,17,7,8,0.6,0.6
2024-08-30T2200,2426A,114.8988,30.2019,黄石市,铁山,,43,43,51,23,27,125,,174,162,3,13,9,11,0.6,0.7
2024-08-30T2200,2427A,115.0307,30.2092,黄石市,团城山,颗粒物(PM10),51,51,53,29,24,111,,169,156,18,19,9,10,0.7,0.7
2024-08-30T2200,3149A,115.0235,30.1578,黄石市,笔架山北路,颗粒物(PM10),51,51,50,21,19,111,,151,147,26,18,9,9,0.8,0.8
2024-08-30T2200,1392A,114.4183,23.0528,惠州市,河南岸金山湖子站,,13,10,24,3,16,39,,91,73,9,6,4,4,0.5,0.6
2024-08-30T2200,1393A,114.4053,23.0822,惠州市,下埔横江三路子站,,15,10,25,8,16,48,,94,76,7,7,4,4,0.5,0.6
2024-08-30T2200,1394A,114.4103,23.1142,惠州市,江北云山西路子站,,15,11,23,9,12,47,,90,75,2,5,5,4,0.6,0.7
2024-08-30T2200,1395A,114.4645,22.7833,惠州市,惠阳区承修路船湖子站,,13,9,27,6,19,39,,79,61,14,15,5,5,0.4,0.5
2024-08-30T2200,1396A,114.5317,22.7422,惠州市,大亚湾管委会子站,,14,14,25,3,16,43,,98,71,17,12,6,7,0.4,0.4
2024-08-30T2200,3314A,114.4338,22.8134,惠州市,惠阳秋长,,13,9,23,3,18,41,,107,76,16,13,5,6,0.4,0.6
2024-08-30T2200,3452A,114.6517,22.775,惠州市,大亚湾霞涌,,,,26,,12,,,102,81,6,8,3,4,0.5,0.5
2024-08-30T2200,2240A,130.9762,45.3001,鸡西市,环保局,,25,12,35,6,13,77,,75,75,2,10,5,5,0.1,0.2
2024-08-30T2200,2243A,130.9429,45.3039,鸡西市,第一中学,,30,10,29,6,11,94,,95,94,2,8,4,5,0.1,0.2
2024-08-30T2200,3707A,131.0207,45.3073,鸡西市,欧美日汽修厂,,25,23,25,3,17,78,,82,80,8,11,4,5,0.3,0.2
2024-08-30T2200,3709A,130.9967,45.3106,鸡西市,市政设施管理处,,28,18,43,3,12,89,,91,90,7,11,5,6,0.3,0.4
2024-08-30T2200,2367A,114.9754,27.0803,吉安市,红声器材厂,,50,48,39,35,24,61,,126,113,25,16,20,13,0.7,0.6
2024-08-30T2200,2368A,114.9658,27.0999,吉安市,市森林工业局,颗粒物(PM10),52,53,38,33,25,70,,126,114,26,19,18,12,0.7,0.7
2024-08-30T2200,2369A,114.99,27.1312,吉安市,市环境监测站,,42,42,37,26,22,72,,128,118,12,13,38,15,0.7,0.7
2024-08-30T2200,2370A,115.0093,27.0968,吉安市,青原区法院,颗粒物(PM10),51,51,41,35,27,56,,123,104,20,18,20,13,0.7,0.8
2024-08-30T2200,1772A,126.54,43.8622,吉林市,哈达湾,,23,23,27,7,14,62,,106,71,14,16,5,5,0.5,0.6
2024-08-30T2200,1773A,126.5844,43.8358,吉林市,东局子,,26,26,26,17,14,55,,111,69,21,15,4,5,0.5,0.6
2024-08-30T2200,1774A,126.5052,43.8245,吉林市,电力学院,,23,,17,16,16,46,,108,66,12,14,3,4,0.6,0.7
2024-08-30T2200,1775A,126.6133,43.8972,吉林市,江北,,26,26,39,13,16,33,,103,52,22,16,7,7,0.7,0.7
2024-08-30T2200,1776A,126.555,43.8306,吉林市,江南公园,,20,19,24,10,17,61,,112,69,15,14,4,4,0.6,0.8
2024-08-30T2200,1778A,126.7061,43.7133,吉林市,丰满,,,,,,,,,,,,,,,,
2024-08-30T2200,2868A,126.4739,43.953,吉林市,九站,,17,17,39,10,15,50,,119,62,16,21,6,8,0.5,0.7
2024-08-30T2200,1299A,116.9862,36.6114,济南市,科干所,颗粒物(PM10),58,66,43,39,24,72,,160,142,34,13,5,6,0.9,0.7
2024-08-30T2200,1300A,116.9376,36.665,济南市,农科所,,46,46,42,29,24,95,,155,134,30,24,6,7,0.6,0.5
2024-08-30T2200,1301A,117.1265,36.6734,济南市,开发区,颗粒物(PM10),75,100,43,34,25,81,,164,144,46,20,7,8,0.7,0.6
2024-08-30T2200,1303A,117.0624,36.6868,济南市,省种子仓库,颗粒物(PM10),74,97,45,27,21,97,,175,163,59,25,6,6,0.7,0.6
2024-08-30T2200,1304A,116.9489,36.6447,济南市,机床二厂,颗粒物(PM10),53,56,46,22,16,109,,170,152,30,23,8,8,0.7,0.6
2024-08-30T2200,1305A,117.0495,36.663,济南市,市监测站,颗粒物(PM10),53,56,41,29,23,102,,172,159,42,18,8,9,0.8,0.6
2024-08-30T2200,1306A,116.7675,36.5484,济南市,长清党校,,46,46,40,27,26,112,,182,167,23,18,7,8,0.8,0.8
2024-08-30T2200,1616A,117.6795,36.229,济南市,技术学院,颗粒物(PM10),51,51,51,29,30,93,,169,149,26,29,10,14,1.1,1.2
2024-08-30T2200,1961A,117.532,36.6868,济南市,东山小学,,49,49,43,27,21,79,,181,160,31,21,5,6,0.7,0.7
2024-08-30T2200,3059A,117.7161,36.2049,济南市,泰兴公司,颗粒物(PM10),53,56,51,29,29,39,,164,138,72,35,10,12,0.9,1
2024-08-30T2200,3064A,117.6867,36.2171,济南市,莱芜战役纪念馆,颗粒物(PM10),52,53,53,31,27,75,,157,141,39,31,7,11,0.8,1
2024-08-30T2200,3494A,117.1673,36.9782,济南市,济阳区政府,颗粒物(PM10),58,66,62,29,27,100,,170,149,41,31,17,12,0.7,0.7
2024-08-30T2200,3495A,117.1171,36.63,济南市,锦屏中学,,42,42,34,24,19,100,,166,144,16,13,5,5,0.6,0.6
2024-08-30T2200,3682A,116.9814,36.6819,济南市,济南四建,颗粒物(PM10),56,61,42,29,24,128,,156,152,21,19,7,7,0.8,0.7
2024-08-30T2200,1653A,116.6251,35.4302,济宁市,火炬城,,40,40,43,24,23,122,,161,149,16,20,8,10,0.8,0.8
2024-08-30T2200,1655A,116.5491,35.4042,济宁市,电化厂,,41,41,43,24,26,126,,164,154,16,21,8,10,0.9,0.7
2024-08-30T2200,3500A,116.5814,35.3707,济宁市,北湖一中,,41,41,39,19,20,101,,163,148,22,16,4,6,0.6,0.5
2024-08-30T2200,3501A,116.8249,35.5593,济宁市,服务中心,,39,39,48,19,23,119,,166,156,15,20,5,6,0.5,0.6
2024-08-30T2200,3678A,116.5907,35.4054,济宁市,市第七中学,,,34,47,24,26,,,160,154,25,30,5,7,0.7,0.8
2024-08-30T2200,2255A,130.2751,46.8028,佳木斯市,佳纺,,19,13,23,7,10,58,,88,59,6,15,7,7,0.5,0.6
2024-08-30T2200,2256A,130.3995,46.8307,佳木斯市,发电厂,,21,10,24,6,11,66,,89,73,3,10,4,6,0.5,0.5
2024-08-30T2200,2257A,130.3258,46.7975,佳木斯市,环保局,,20,8,21,3,10,62,,87,68,5,14,8,8,0.5,0.6
2024-08-30T2200,2258A,130.3648,46.8032,佳木斯市,十一中,,23,15,20,10,13,71,,96,77,8,16,7,7,0.4,0.5
2024-08-30T2200,2259A,130.3794,46.7588,佳木斯市,四丰,,,13,16,6,9,59,,83,64,,,1,1,0.4,0.5
2024-08-30T2200,1252A,120.7436,30.778,嘉兴市,清河小学,,32,32,22,14,11,96,,139,134,18,12,4,3,1.0,0.8
2024-08-30T2200,1253A,120.726,30.7478,嘉兴市,嘉兴学院,,31,20,21,14,11,99,,136,128,14,14,2,2,0.5,0.5
2024-08-30T2200,2872A,120.7846,30.7525,嘉兴市,南湖区残联,,31,26,22,16,12,97,,147,142,16,10,4,4,0.7,0.5
2024-08-30T2200,3407A,120.6916,30.7739,嘉兴市,秀洲住建,,,26,22,14,12,104,,135,126,11,12,,4,0.6,0.6
2024-08-30T2200,1945A,98.2908,39.7711,嘉峪关市,气象局,颗粒物(PM10),84,117,134,31,29,69,,103,91,16,12,63,35,1.7,1.2
2024-08-30T2200,2884A,98.2672,39.7978,嘉峪关市,酒钢宾馆,颗粒物(PM10),76,102,136,36,31,83,,119,112,24,16,45,40,0.3,0.6
2024-08-30T2200,3248A,98.2643,39.7724,嘉峪关市,雄关区,颗粒物(PM10),75,100,105,33,27,87,,109,104,16,22,16,20,0.2,0.6
2024-08-30T2200,1383A,113.1064,22.6058,江门市,北街,,22,22,35,13,24,58,,166,124,19,26,4,4,0.6,0.7
2024-08-30T2200,1384A,113.0731,22.5835,江门市,西区,,26,26,33,17,19,65,,181,130,17,25,6,6,0.5,0.6
2024-08-30T2200,1385A,113.0219,22.5311,江门市,圭峰西,,22,21,35,15,27,64,,168,122,16,21,2,3,0.8,0.9
2024-08-30T2200,1386A,113.0828,22.5947,江门市,东湖,,20,20,35,12,18,63,,172,130,16,21,5,5,0.4,0.5
2024-08-30T2200,3311A,113.1075,22.5647,江门市,江海富民,,37,37,52,22,37,66,,180,131,19,27,6,6,0.5,0.6
2024-08-30T2200,3449A,113.05,22.4667,江门市,新会银湖,,23,18,34,16,25,60,,158,118,12,19,4,4,0.5,0.6
2024-08-30T2200,1828A,113.227,35.2125,焦作市,市环保局,颗粒物(PM10),51,51,44,32,30,112,,146,140,30,22,13,3,0.7,0.7
2024-08-30T2200,1830A,113.1992,35.2590,焦作市,影视城,,,,,,,,,,,,,,,,
2024-08-30T2200,3169A,113.2725,35.2067,焦作市,太极体育中心,颗粒物(PM10),67,84,56,36,32,112,,148,143,20,18,12,4,0.7,0.7
2024-08-30T2200,3335A,113.3137,35.2641,焦作市,马村街道办,颗粒物(PM10),52,54,45,30,29,98,,149,134,20,16,1,2,0.8,0.5
2024-08-30T2200,3336A,113.2465,35.2373,焦作市,焦作技师学院,颗粒物(PM10),54,58,42,31,29,91,,139,127,20,12,4,4,0.6,0.5
2024-08-30T2200,3477A,113.1656,35.2539,焦作市,中站许衡医院,,,41,36,26,25,,,138,133,10,19,6,5,0.4,0.5
2024-08-30T2200,3981A,113.2449,35.1803,焦作市,原李万街道办,细颗粒物(PM2.5),55,54,50,39,30,118,,148,141,19,20,42,7,0.5,0.8
2024-08-30T2200,1708A,116.3701,23.5345,揭阳市,新兴,,20,17,34,14,20,28,,108,63,12,16,4,5,0.5,0.7
2024-08-30T2200,1709A,116.3264,23.5443,揭阳市,西马,,16,16,34,9,15,34,,117,71,4,11,4,5,0.6,0.7
2024-08-30T2200,1710A,116.3611,23.5626,揭阳市,东兴,,30,30,40,13,16,31,,106,68,9,17,4,5,0.8,0.9
2024-08-30T2200,1711A,116.4151,23.5294,揭阳市,渔湖,,28,28,35,16,16,29,,99,57,14,17,4,6,0.5,0.6
2024-08-30T2200,3320A,116.403,23.5699,揭阳市,曲溪,,26,26,32,18,20,24,,104,63,16,18,3,5,0.7,0.6
2024-08-30T2200,1944A,102.1692,38.5167,金昌市,天庆家园,颗粒物(PM10),500,1010,135,148,47,135,,126,126,4,14,8,21,0.6,0.8
2024-08-30T2200,3170A,102.1864,38.5253,金昌市,市委党校,颗粒物(PM10),500,849,149,151,44,136,,131,131,5,9,9,9,0.8,0.8
2024-08-30T2200,4022A,102.1647,38.5371,金昌市,金川区人防中心,细颗粒物(PM2.5),280,245,96,230,47,126,,122,122,5,10,10,10,0.9,0.8
2024-08-30T2200,1262A,119.647,29.077,金华市,十五中,,36,36,25,20,15,113,,174,155,19,14,3,2,0.6,0.5
2024-08-30T2200,1263A,119.686,29.1029,金华市,监测站,,44,44,28,25,17,99,,179,154,25,18,4,3,0.6,0.6
2024-08-30T2200,3659A,119.656,29.1131,金华市,气象局,,40,40,28,25,15,106,,169,144,20,20,5,5,0.6,0.5
2024-08-30T2200,1767A,121.1115,41.0879,锦州市,南山,,26,26,37,11,30,61,,118,84,23,18,11,8,0.5,0.8
2024-08-30T2200,1768A,121.0533,40.8434,锦州市,开发区,,35,35,52,13,32,53,,131,89,32,23,12,13,0.5,0.7
2024-08-30T2200,1769A,121.1836,41.1119,锦州市,百股街道,,25,25,40,3,22,36,,106,68,24,19,13,8,0.7,1
2024-08-30T2200,1770A,121.1178,41.1222,锦州市,天安街道,,23,23,43,12,33,65,,106,81,15,14,15,12,0.8,1.2
2024-08-30T2200,1771A,121.1303,41.1386,锦州市,北湖公园,,24,24,44,8,33,68,,109,83,11,13,10,8,0.5,0.9
2024-08-30T2200,2160A,112.85,35.5051,晋城市,自来水公司,,44,44,52,22,26,137,,145,143,16,20,8,8,0.7,0.7
2024-08-30T2200,2161A,112.8318,35.4936,晋城市,白云商贸,颗粒物(PM10),51,52,48,24,23,126,,144,138,21,19,8,9,0.8,0.8
2024-08-30T2200,2162A,112.8508,35.4887,晋城市,市环保局,颗粒物(PM10),57,64,53,22,27,119,,139,135,21,23,9,9,0.8,0.7
2024-08-30T2200,2163A,112.8676,35.4897,晋城市,技术学院,,48,48,40,24,26,113,,136,134,27,22,9,9,0.8,0.8
2024-08-30T2200,2165A,112.8453,35.546,晋城市,白马寺,,,,,,,,,,,,,,,,
2024-08-30T2200,3620A,112.8271,35.4828,晋城市,泽州一中,,,40,45,24,24,,,135,131,28,20,9,9,0.9,0.9
2024-08-30T2200,2171A,112.7532,37.6945,晋中市,锦纶小区,,47,39,46,9,20,150,,180,164,10,15,10,10,0.4,0.6
2024-08-30T2200,2173A,112.7249,37.7067,晋中市,南都小区,,43,39,48,26,27,136,,179,160,15,21,6,8,0.5,0.6
2024-08-30T2200,2174A,112.6991,37.6982,晋中市,榆次区政府,,44,44,50,21,24,136,,178,160,17,19,9,11,0.3,0.6
2024-08-30T2200,2865A,112.7195,37.6828,晋中市,榆次三中,,45,36,46,14,17,141,,177,159,10,16,8,9,0.5,0.8
2024-08-30T2200,2439A,112.2014,31.0481,荆门市,竹园小学,,49,49,44,32,25,109,,147,132,17,15,12,10,0.8,0.8
2024-08-30T2200,2440A,112.1969,30.9891,荆门市,掇刀,,,,37,,25,,,149,139,,14,,5,,0.7
2024-08-30T2200,2441A,112.2213,31.0386,荆门市,石化一小,颗粒物(PM10),52,53,45,29,32,117,,154,134,13,14,18,15,0.7,0.7
2024-08-30T2200,3012A,112.1849,31.0362,荆门市,西山林语,,48,48,36,33,25,109,,148,133,13,11,9,8,0.8,0.8
2024-08-30T2200,3547A,112.1632,31.0138,荆门市,龙泉中学南校,,45,38,37,31,22,114,,142,134,11,14,10,10,0.6,0.6
2024-08-30T2200,1844A,112.2494,30.3197,荆州市,市图书馆,,40,,37,28,26,102,,142,123,15,20,9,8,1.2,0.9
2024-08-30T2200,1845A,112.2008,30.3544,荆州市,市委党校,,35,34,40,24,26,96,,146,124,16,16,9,8,1.0,0.9
2024-08-30T2200,3194A,112.2747,30.3122,荆州市,管委会,,42,39,37,29,31,99,,138,120,15,19,6,7,0.8,0.7
2024-08-30T2200,3548A,112.1655,30.3364,荆州市,学苑路,,42,38,43,29,33,80,,156,126,24,19,7,11,0.9,0.9
2024-08-30T2200,2342A,117.3102,29.3867,景德镇市,王港中学,,,,,,,,,,,,,,,,
2024-08-30T2200,2343A,117.2117,29.2933,景德镇市,老干部活动中心,颗粒物(PM10),53,56,35,34,23,31,,119,84,23,13,11,8,0.8,0.6
2024-08-30T2200,2344A,117.1894,29.2789,景德镇市,兽医站,颗粒物(PM10),51,52,37,33,20,40,,112,87,20,10,7,7,1.0,0.7
2024-08-30T2200,2345A,117.1547,29.2617,景德镇市,台达陶瓷,,46,46,38,32,24,37,,100,77,29,19,28,18,0.6,0.5
2024-08-30T2200,2346A,117.2461,29.2956,景德镇市,陶研所,细颗粒物(PM2.5),52,50,38,36,19,36,,121,85,15,13,6,12,0.5,0.5
2024-08-30T2200,1803A,115.9872,29.6815,九江市,十里,,46,43,39,32,26,83,,147,130,19,20,11,10,0.9,0.9
2024-08-30T2200,1804A,115.9584,29.7046,九江市,茅山头,颗粒物(PM10),52,53,35,34,27,90,,160,145,21,21,10,10,0.8,0.8
2024-08-30T2200,1805A,115.9877,29.7295,九江市,西园,,45,36,36,31,23,127,,151,144,12,23,9,11,0.7,0.8
2024-08-30T2200,1806A,116.0172,29.6547,九江市,五七二七厂,,26,24,29,18,21,76,,126,114,10,13,6,8,0.6,0.7
2024-08-30T2200,1808A,115.9114,29.6038,九江市,综合工业园,,33,33,35,22,24,82,,160,133,16,19,4,8,0.8,0.9
2024-08-30T2200,1809A,116.0721,29.7535,九江市,石化总厂,细颗粒物(PM2.5),57,54,48,40,28,55,,146,122,40,29,9,13,0.9,0.9
2024-08-30T2200,1810A,115.9773,29.5698,九江市,庐山气象台,,43,32,22,19,18,137,,132,132,3,3,7,11,0.7,0.9
2024-08-30T2200,3190A,116.0254,29.6994,九江市,外国语学校,细颗粒物(PM2.5),54,56,37,38,26,93,,152,139,20,25,13,12,1.0,1
2024-08-30T2200,2658A,98.5061,39.7443,酒泉市,仓门街子站,颗粒物(PM10),65,80,176,21,22,98,,113,106,4,15,8,29,0.3,0.4
2024-08-30T2200,2659A,98.4989,39.7256,酒泉市,油田生活基地,,,,163,,18,,,122,115,5,20,8,15,0.3,0.4
2024-08-30T2200,2698A,76.0072,39.4467,喀什地区,巡警大队,细颗粒物(PM2.5),65,63,36,47,6,59,,103,99,48,17,4,3,0.6,0.4
2024-08-30T2200,2699A,75.9755,39.4694,喀什地区,吾办,颗粒物(PM10),51,52,35,15,12,69,,107,103,39,14,3,3,0.7,0.5
2024-08-30T2200,4027A,75.9483,39.4689,喀什地区,老干局,颗粒物(PM10),52,53,30,3,4,74,,104,101,21,11,2,3,0.4,0.3
2024-08-30T2200,1824A,114.3389,34.7781,开封市,肿瘤医院,颗粒物(PM10),59,67,55,22,19,77,,131,110,21,18,3,4,0.5,0.5
2024-08-30T2200,1826A,114.2885,34.7965,开封市,世纪星幼儿园,颗粒物(PM10),75,99,50,23,28,92,,132,114,16,18,3,5,0.6,0.6
2024-08-30T2200,3147A,114.3438,34.8106,开封市,龙亭公园,颗粒物(PM10),53,55,45,20,20,83,,133,116,21,14,4,4,0.8,0.7
2024-08-30T2200,3210A,114.3644,34.7964,开封市,汴京公园,颗粒物(PM10),70,90,53,31,27,65,,134,110,31,16,6,5,0.7,0.6
2024-08-30T2200,3473A,114.2485,34.8306,开封市,技师学院,颗粒物(PM10),54,58,31,22,18,109,,138,125,11,12,3,3,0.7,0.6
2024-08-30T2200,3592A,114.4644,34.7556,开封市,祥符区生态环境局,颗粒物(PM10),54,58,48,33,29,28,,126,88,55,34,4,8,0.6,0.6
2024-08-30T2200,1951A,84.895,45.6094,克拉玛依市,长征新村,,29,19,13,3,6,90,,90,90,5,6,6,6,0.2,0.2
2024-08-30T2200,1952A,84.8988,45.5893,克拉玛依市,南林小区,,29,14,12,8,7,90,,92,92,9,7,10,10,0.3,0.2
2024-08-30T2200,1954A,84.905,44.3396,克拉玛依市,独山子区,,25,25,14,10,6,80,,132,126,14,10,7,7,0.2,0.3
2024-08-30T2200,1955A,85.6979,46.098,克拉玛依市,乌尔禾区商贸楼,,47,47,21,6,7,81,,90,87,8,7,5,7,0.2,0.3
2024-08-30T2200,3612A,85.1045,45.6899,克拉玛依市,白碱滩区新站,,32,22,29,3,5,102,,100,100,2,7,8,8,0.2,0.3
2024-08-30T2200,2697A,76.1454,39.7142,克孜勒苏柯尔克孜自治州,市人民政府,颗粒物(PM10),59,67,29,27,13,66,,124,119,50,9,2,3,0.5,0.3
2024-08-30T2200,3665A,76.1658,39.7157,克孜勒苏柯尔克孜自治州,克州文化中心,颗粒物(PM10),64,78,26,19,14,96,,129,126,30,5,5,12,0.5,0.3
2024-08-30T2200,1450A,102.8204,24.8886,昆明市,呈贡新区,,46,45,31,32,16,26,,96,80,47,19,3,8,0.7,0.7
2024-08-30T2200,1451A,102.6251,24.9608,昆明市,西山森林公园,,,,,,,,,,,,,,,,
2024-08-30T2200,1452A,102.7252,25.0902,昆明市,龙泉镇,,,44,33,24,19,,,107,106,34,29,6,7,0.9,0.8
2024-08-30T2200,1453A,102.7266,25.0375,昆明市,东风东路,,38,38,30,17,15,64,,101,97,22,21,4,7,0.6,0.6
2024-08-30T2200,1454A,102.6742,25.0669,昆明市,金鼎山,,24,24,41,16,20,68,,109,104,19,26,2,6,0.6,0.7
2024-08-30T2200,1455A,102.6644,25.0401,昆明市,碧鸡广场,,44,44,33,30,17,45,,106,97,27,21,3,7,0.7,0.7
2024-08-30T2200,3179A,102.7494,25.0119,昆明市,官渡区博物馆,,21,,28,13,12,65,,106,100,19,16,6,9,0.4,0.5
2024-08-30T2200,3375A,102.8017,24.8336,昆明市,青年创业园,,34,34,44,22,16,7,,102,77,46,22,3,6,0.7,0.6
2024-08-30T2200,3550A,102.7997,24.9786,昆明市,昆明学院,,42,42,33,26,19,41,,98,85,42,25,6,9,0.6,0.6
2024-08-30T2200,3551A,102.5967,24.6736,昆明市,晋宁区生态环境分局,,49,49,23,22,11,52,,94,83,17,10,4,5,0.5,0.4
2024-08-30T2200,3552A,102.6678,24.9856,昆明市,云天化总部,,36,36,26,24,16,18,,108,91,44,19,5,9,0.6,0.6
2024-08-30T2200,1456A,91.1319,29.6514,拉萨市,八廓街,,25,25,12,6,8,74,,132,121,29,12,7,7,0.3,0.2
2024-08-30T2200,1457A,91.1221,29.6747,拉萨市,市环保局,,20,16,13,11,7,61,,132,114,30,16,8,8,0.4,0.2
2024-08-30T2200,1458A,91.0874,29.6475,拉萨市,区监测站,,30,19,10,8,7,47,,124,106,60,19,8,8,0.5,0.2
2024-08-30T2200,1459A,91.1774,29.6541,拉萨市,西藏大学,,29,18,9,8,7,92,,127,121,18,6,7,6,0.3,0.2
2024-08-30T2200,1460A,90.9798,29.6588,拉萨市,区辐射站,,26,15,13,3,7,82,,119,109,15,13,8,8,0.2,0.2
2024-08-30T2200,1461A,91.0834,29.6292,拉萨市,拉萨火车站,,23,,9,12,7,72,,120,110,27,13,5,5,0.2,0.2
2024-08-30T2200,2520A,109.2203,23.7256,来宾市,来宾技工学校,,40,40,34,23,21,67,,102,96,13,13,6,12,0.8,0.7
2024-08-30T2200,3535A,109.1781,23.7297,来宾市,兴宾区政府,,,29,24,24,13,52,,100,93,13,9,5,8,,0.8
2024-08-30T2200,4002A,109.2416,23.7461,来宾市,中南小学,,36,36,33,16,15,65,,111,98,16,13,4,9,0.8,0.8
2024-08-30T2200,1476A,103.631,36.1031,兰州市,兰炼宾馆,,47,47,32,25,19,73,,134,116,5,10,3,4,0.4,0.4
2024-08-30T2200,1477A,104.1373,35.9454,兰州市,榆中兰大校区,,,,,,,,,,,,,,,,
2024-08-30T2200,1478A,103.8412,36.0726,兰州市,生物制品所,颗粒物(PM10),56,62,30,31,19,68,,102,90,12,15,7,8,0.5,0.5
2024-08-30T2200,1479A,103.831,36.0464,兰州市,铁路设计院,,46,46,34,25,21,64,,95,85,15,20,4,7,0.5,0.5
2024-08-30T2200,3186A,103.7158,36.1058,兰州市,教育港,颗粒物(PM10),60,69,43,33,26,69,,117,103,6,11,5,6,0.4,0.4
2024-08-30T2200,3241A,103.7439,36.0842,兰州市,百合公园,颗粒物(PM10),56,62,30,24,14,73,,117,104,10,11,5,7,0.3,0.4
2024-08-30T2200,3242A,103.9611,35.998,兰州市,和平,颗粒物(PM10),52,53,32,17,14,72,,96,90,7,8,7,8,0.5,0.5
2024-08-30T2200,3245A,103.6633,36.533,兰州新区,新区管委会,,39,39,37,21,17,73,,120,108,7,10,8,12,0.5,0.6
2024-08-30T2200,3246A,103.6975,36.4789,兰州新区,舟曲中学,,37,37,34,14,17,71,,120,107,11,9,33,16,0.6,0.6
2024-08-30T2200,1067A,116.6708,39.5111,廊坊市,药材公司,颗粒物(PM10),74,97,74,39,35,124,,197,174,28,19,2,5,0.7,0.6
2024-08-30T2200,1068A,116.7214,39.5589,廊坊市,开发区,细颗粒物(PM2.5),58,64,63,41,37,130,,194,172,27,17,1,2,0.6,0.6
2024-08-30T2200,1070A,116.7244,39.5269,廊坊市,北华航天学院,颗粒物(PM10),63,76,77,39,33,129,,203,180,24,16,1,3,0.6,0.6
2024-08-30T2200,2919A,116.7022,39.5453,廊坊市,河北工业大学,颗粒物(PM10),62,74,70,35,37,148,,203,194,20,15,2,6,0.6,0.6
2024-08-30T2200,2535A,103.7723,29.5462,乐山市,花湖湾,颗粒物(PM10),62,73,36,41,32,125,,162,158,17,14,5,6,0.6,0.4
2024-08-30T2200,2536A,103.7627,29.5844,乐山市,牛耳桥,颗粒物(PM10),55,60,41,37,32,136,,163,162,18,16,3,3,0.8,0.7
2024-08-30T2200,2537A,103.7508,29.6006,乐山市,市第三水厂,颗粒物(PM10),54,58,41,34,27,142,,175,173,16,14,3,3,0.6,0.5
2024-08-30T2200,2538A,103.7571,29.5664,乐山市,市监测站,颗粒物(PM10),51,52,40,31,28,145,,168,168,14,13,5,4,0.7,0.5
2024-08-30T2200,3361A,103.7311,29.5628,乐山市,理工大学,细颗粒物(PM2.5),59,62,46,42,33,146,,178,176,16,12,5,6,0.7,0.6
2024-08-30T2200,2598A,100.2143,26.8576,丽江市,西南郊,,,,,,,,,,,,,,,,
2024-08-30T2200,2599A,100.2497,26.8802,丽江市,丽江古城,,26,25,31,18,21,76,,103,98,12,13,9,9,0.7,0.6
2024-08-30T2200,2600A,100.2203,26.8906,丽江市,市中心,,26,,26,15,19,83,,106,101,6,9,9,9,0.7,0.7
2024-08-30T2200,1267A,119.914,28.4514,丽水市,监测站大楼,,30,12,17,8,11,94,,132,102,8,10,2,2,0.5,0.4
2024-08-30T2200,1268A,119.93,28.4586,丽水市,莲都小学,,29,12,18,6,10,91,,127,108,8,9,4,4,0.5,0.5
2024-08-30T2200,1269A,119.879,28.4231,丽水市,余庄前,,29,9,14,9,9,91,,117,87,9,13,4,4,0.4,0.5
2024-08-30T2200,1173A,119.176,34.5885,连云港市,市环境监测站,,44,44,27,19,14,83,,138,117,23,16,6,7,0.5,0.4
2024-08-30T2200,3000A,119.3581,34.6972,连云港市,德源药业,颗粒物(PM10),80,110,40,29,15,44,,152,120,56,27,12,6,0.5,0.4
2024-08-30T2200,3007A,119.178,34.844,连云港市,新城一中,,26,22,28,12,16,83,,149,132,23,18,3,3,0.6,0.7
2024-08-30T2200,3008A,119.3608,34.7519,连云港市,胡沟管理处,,35,22,28,9,13,109,,152,141,10,25,9,10,0.6,0.6
2024-08-30T2200,3009A,119.1478,34.5911,连云港市,矿山设计院,,36,36,27,12,14,76,,125,103,20,18,8,8,0.7,0.6
2024-08-30T2200,3434A,119.2413,34.6539,连云港市,工贸学校,,34,20,19,15,14,107,,143,119,9,8,7,7,0.7,0.7
2024-08-30T2200,3664A,119.4172,34.7341,连云港市,连云街道,,44,33,30,16,14,138,,170,161,8,23,4,6,0.6,0.5
2024-08-30T2200,2571A,102.3431,27.8099,凉山彝族自治州,青龙寺,,50,50,40,28,25,58,,119,97,6,8,4,7,0.4,0.5
2024-08-30T2200,2572A,102.2721,27.8415,凉山彝族自治州,邛海宾馆,,33,32,35,23,26,76,,130,114,11,12,8,10,0.6,0.6
2024-08-30T2200,2573A,102.2625,27.898,凉山彝族自治州,西昌市政府,,32,32,35,17,25,71,,123,110,5,9,2,2,0.6,0.7
2024-08-30T2200,2574A,102.2685,27.8851,凉山彝族自治州,凉山州政府,,32,30,39,22,25,82,,138,122,7,11,5,9,0.7,0.7
2024-08-30T2200,2575A,102.237,27.8914,凉山彝族自治州,长安,,47,47,39,28,25,74,,136,117,8,14,6,11,0.6,0.7
2024-08-30T2200,2212A,123.2,41.1953,辽阳市,宏伟区,,26,26,39,18,21,43,,160,112,25,16,28,10,0.6,0.9
2024-08-30T2200,2213A,123.1683,41.2495,辽阳市,新华园,,27,27,41,18,22,53,,141,100,20,23,19,10,0.6,1
2024-08-30T2200,2214A,123.2354,41.2639,辽阳市,滨河路,,30,30,37,16,20,49,,164,108,20,15,13,10,0.4,0.7
2024-08-30T2200,2215A,123.149,41.2991,辽阳市,铁西工业园,,34,34,46,18,21,37,,149,95,20,19,14,11,0.6,1
2024-08-30T2200,2227A,125.1358,42.8845,辽源市,环保局,,31,31,30,11,16,28,,136,72,21,11,6,7,0.6,0.8
2024-08-30T2200,3239A,125.0764,42.9078,辽源市,银鹰制药,,28,28,27,13,17,18,,136,59,23,20,2,2,0.7,0.8
2024-08-30T2200,1625A,115.9848,36.4372,聊城市,区政府,,48,48,45,23,24,130,,155,149,15,14,34,17,0.6,0.5
2024-08-30T2200,2878A,116.0072,36.4343,聊城市,聊大东校,,44,44,45,27,31,123,,163,153,19,14,33,13,0.6,0.6
2024-08-30T2200,3200A,115.9819,36.4978,聊城市,监控中心,,43,41,45,24,24,135,,163,154,15,15,28,13,0.4,0.4
2024-08-30T2200,3513A,116.0445,36.4361,聊城市,九州社区,颗粒物(PM10),51,51,52,27,28,96,,153,135,20,14,12,9,0.5,0.5
2024-08-30T2200,4018A,116.0567,36.4608,聊城市,星美广场,颗粒物(PM10),54,57,44,25,23,108,,153,136,18,11,4,8,0.5,0.5
2024-08-30T2200,2632A,94.3681,29.6376,林芝市,林芝监测站,,,15,9,11,7,,,110,110,2,4,9,9,0.3,0.3
2024-08-30T2200,2633A,94.3616,29.6616,林芝市,林芝人民医院,,35,35,14,23,9,81,,111,109,5,6,7,7,0.2,0.3
2024-08-30T2200,2603A,100.0781,23.8982,临沧市,市环保局,,43,32,18,30,14,43,,72,66,11,9,5,6,0.3,0.2
2024-08-30T2200,2604A,100.0894,23.8822,临沧市,市气象局,,20,20,15,14,11,44,,71,66,9,9,4,6,0.3,0.3
2024-08-30T2200,1733A,111.5531,36.0783,临汾市,临钢医院,,48,48,51,24,21,80,,160,146,24,14,4,5,0.6,0.7
2024-08-30T2200,1734A,111.5028,36.0714,临汾市,技工学校,颗粒物(PM10),55,59,54,21,20,88,,158,143,26,20,6,6,0.8,0.8
2024-08-30T2200,1736A,111.5018,36.0855,临汾市,市委,颗粒物(PM10),56,62,46,25,18,90,,169,153,25,16,5,5,0.9,0.9
2024-08-30T2200,3018A,111.505,36.1014,临汾市,唐尧大酒店,颗粒物(PM10),70,90,74,20,20,73,,153,135,30,17,4,4,1.1,1
2024-08-30T2200,3668A,111.5036,36.0414,临汾市,城南,颗粒物(PM10),63,75,52,23,19,54,,170,139,36,18,5,5,0.9,0.9
2024-08-30T2200,2667A,103.2069,35.5993,临夏回族自治州,环保局,,37,37,29,20,21,55,,98,91,22,10,8,8,0.5,0.4
2024-08-30T2200,2668A,103.2417,35.6057,临夏回族自治州,建设大厦,,,,36,,16,,,115,110,14,10,7,7,0.4,0.4
2024-08-30T2200,1618A,118.3429,35.0532,临沂市,沂河小区,,44,44,42,23,25,102,,193,170,21,18,11,14,0.4,0.5
2024-08-30T2200,1619A,118.295,35.0583,临沂市,鲁南制药厂,,44,44,44,20,24,116,,204,180,24,23,7,16,0.4,0.5
2024-08-30T2200,1620A,118.2794,34.9976,临沂市,新光毛纺厂,,36,36,36,15,21,99,,177,159,37,24,7,13,0.6,0.6
2024-08-30T2200,1621A,118.3956,35.0888,临沂市,河东保险公司,,44,44,41,24,28,57,,214,166,62,25,8,11,0.7,0.7
2024-08-30T2200,3370A,118.3564,35.0215,临沂市,十里堡居委,颗粒物(PM10),52,53,32,19,23,92,,192,163,17,14,13,15,0.6,0.7
2024-08-30T2200,3496A,118.3604,35.1084,临沂市,南坊新区,,39,39,45,14,21,103,,229,196,22,19,10,12,0.6,0.7
2024-08-30T2200,3860A,118.3920,35.0300,临沂市,皇山花园小区,,34,34,39,20,26,78,,184,163,27,20,9,13,0.6,0.5
2024-08-30T2200,1870A,109.4856,24.3895,柳州市,柳东小学,,24,18,32,15,22,76,,111,100,9,16,6,10,0.7,0.7
2024-08-30T2200,1871A,109.4157,24.3277,柳州市,环保监测站,,32,32,32,21,21,59,,112,98,26,12,7,9,1.0,0.9
2024-08-30T2200,1872A,109.389,24.341,柳州市,河西水厂,,30,29,36,21,20,70,,115,100,17,12,6,7,1.5,1.3
2024-08-30T2200,1873A,109.4311,24.2921,柳州市,市四中,,30,24,31,21,19,83,,117,108,14,13,6,6,0.9,0.8
2024-08-30T2200,1874A,109.4006,24.3631,柳州市,市九中,,38,38,39,23,20,77,,120,106,14,11,6,7,0.8,0.6
2024-08-30T2200,1875A,109.4958,24.3134,柳州市,古亭山,,23,22,27,16,18,62,,102,97,18,18,6,9,1.1,1
2024-08-30T2200,3402A,109.5422,24.3996,柳州市,市二中,,,,35,16,21,,,79,71,13,15,6,10,0.8,0.7
2024-08-30T2200,2307A,116.5079,31.737,六安市,监测大楼,,28,26,23,19,17,84,,110,99,16,10,5,5,0.6,0.5
2024-08-30T2200,2308A,116.4738,31.7643,六安市,皖西学院,,38,38,35,21,16,60,,118,99,17,12,4,4,0.4,0.3
2024-08-30T2200,2309A,116.4996,31.7905,六安市,朝阳厂,,37,37,25,14,15,62,,117,91,20,11,1,2,0.5,0.3
2024-08-30T2200,2310A,116.5567,31.7886,六安市,开发区,,35,31,26,24,18,76,,110,95,11,9,3,4,0.4,0.4
2024-08-30T2200,2576A,104.8,26.5892,六盘水市,窑上,,,,,,,,,,,,,,,,
2024-08-30T2200,2577A,104.83,26.5917,六盘水市,黄土坡,,23,23,22,14,18,70,,89,85,11,9,5,7,0.4,0.4
2024-08-30T2200,2578A,104.89,26.5939,六盘水市,水钢,,24,23,29,14,14,75,,88,86,10,9,7,7,0.5,0.4
2024-08-30T2200,2579A,104.8475,26.5894,六盘水市,民中,,24,11,21,7,11,76,,89,86,8,8,7,7,0.4,0.4
2024-08-30T2200,2580A,104.9544,26.5506,六盘水市,双水,,25,22,21,8,10,80,,86,85,9,6,6,6,0.4,0.3
2024-08-30T2200,2335A,117.0189,25.1181,龙岩市,龙岩师专,,,,,,,,,,,,,,,,
2024-08-30T2200,2336A,117.0217,25.1033,龙岩市,龙岩市监测站,,30,,32,21,24,56,,118,87,35,14,10,9,0.5,0.5
2024-08-30T2200,2337A,117.0258,25.0661,龙岩市,闽西职业技术学院,,44,44,40,19,24,46,,114,75,26,17,25,11,0.5,0.5
2024-08-30T2200,2338A,117.0196,25.0306,龙岩市,龙岩学院,,28,28,34,18,19,55,,101,74,9,15,1,2,0.5,0.6
2024-08-30T2200,2665A,105.0822,33.3261,陇南市,汉王镇固水子,,,,,,,,,,,,,,,,
2024-08-30T2200,2885A,104.9339,33.3826,陇南市,滨江中学,,50,50,37,21,14,81,,83,82,8,8,5,6,0.5,0.4
2024-08-30T2200,3247A,104.955,33.371,陇南市,市总工会,,35,35,29,10,8,88,,87,86,4,5,7,7,0.3,0.3
2024-08-30T2200,2487A,111.9589,27.8901,娄底市,电视发射台,,36,36,31,19,17,59,,119,97,5,5,6,7,0.7,0.7
2024-08-30T2200,2488A,111.9975,27.725,娄底市,市监测站,,43,32,36,30,23,83,,116,108,9,12,4,9,0.5,0.7
2024-08-30T2200,2489A,112.0194,27.7314,娄底市,市委党校,,46,43,30,32,22,77,,107,101,6,8,5,6,0.4,0.4
2024-08-30T2200,2490A,111.9561,27.7569,娄底市,涟钢,"颗粒物(PM10),细颗粒物(PM2.5)",65,79,40,47,26,44,,89,73,34,20,14,12,1.2,1.1
2024-08-30T2200,2491A,111.9892,27.7044,娄底市,市政府,细颗粒物(PM2.5),54,,28,38,24,65,,117,102,15,11,6,7,0.6,0.7
2024-08-30T2200,1893A,105.4324,28.9634,泸州市,九狮山,,49,39,37,34,28,87,,127,116,2,2,5,6,0.5,0.5
2024-08-30T2200,1894A,105.4427,28.9063,泸州市,小市上码头,,37,37,40,20,22,91,,127,120,12,13,7,7,0.4,0.4
2024-08-30T2200,1895A,105.4241,28.8573,泸州市,兰田宪桥,,34,34,38,21,26,87,,124,117,14,13,8,8,0.4,0.4
2024-08-30T2200,1896A,105.4379,28.8833,泸州市,市环监站,,32,29,35,22,28,92,,121,114,10,11,7,8,0.4,0.5
2024-08-30T2200,3490A,105.3617,28.7703,泸州市,纳溪区环保局,,43,41,46,30,35,82,,130,121,22,19,5,6,0.4,0.4
2024-08-30T2200,2183A,111.1406,37.5211,吕梁市,环保局,颗粒物(PM10),70,89,50,46,24,90,,145,134,31,21,4,4,0.9,0.7
2024-08-30T2200,2185A,111.1297,37.5136,吕梁市,自来水公司,颗粒物(PM10),54,57,68,28,24,125,,150,145,27,26,3,4,0.9,0.8
2024-08-30T2200,2867A,111.1283,37.51,吕梁市,马茂庄小学,颗粒物(PM10),79,107,56,37,23,79,,153,136,44,29,12,6,0.8,0.8
2024-08-30T2200,1812A,112.3931,34.6516,洛阳市,市委党校,,35,30,54,19,35,112,,146,127,8,18,5,8,0.6,0.8
2024-08-30T2200,1814A,112.4657,34.6871,洛阳市,豫西宾馆,,42,42,55,22,32,88,,146,124,8,13,4,6,0.5,0.6
2024-08-30T2200,1815A,112.494,34.6886,洛阳市,河南林校,,41,41,44,26,29,79,,148,120,16,17,4,5,0.6,0.7
2024-08-30T2200,1816A,112.3844,34.623,洛阳市,开发区管委会,,35,26,41,17,29,109,,145,126,6,14,1,4,0.4,0.5
2024-08-30T2200,1817A,112.4267,34.6258,洛阳市,市委新办公区,,37,26,41,21,39,118,,142,124,1,10,3,5,0.5,0.6
2024-08-30T2200,3340A,112.6005,34.6326,洛阳市,伊滨,,39,36,58,27,37,62,,136,106,21,16,6,6,0.4,0.5
2024-08-30T2200,3341A,112.4951,34.6332,洛阳市,中移产业园,颗粒物(PM10),52,53,62,27,37,71,,148,111,23,27,2,4,0.8,1.8
2024-08-30T2200,3593A,112.5736,34.8993,洛阳市,吉利监测站,颗粒物(PM10),65,80,50,38,33,74,,148,134,34,17,6,4,0.7,0.8
2024-08-30T2200,3635A,112.3677,34.662,洛阳市,河科大西苑校区,,37,25,43,12,25,117,,154,135,3,16,5,7,0.6,0.7
2024-08-30T2200,3636A,112.4388,34.6781,洛阳市,英才小学,,33,27,51,23,34,94,,147,122,5,10,2,5,0.5,0.6
2024-08-30T2200,2399A,114.051,33.5699,漯河市,三五一五工厂,,36,34,36,25,21,87,,129,118,13,12,6,8,0.7,0.6
2024-08-30T2200,2400A,114.0055,33.5698,漯河市,漯河大学,,44,44,36,24,21,95,,132,124,9,8,3,4,0.7,0.6
2024-08-30T2200,2401A,114.0138,33.5828,漯河市,市水利局,,36,36,33,17,18,88,,128,120,10,7,8,9,0.9,0.8
2024-08-30T2200,2402A,114.0261,33.5698,漯河市,市广电局,,29,29,29,16,15,89,,132,123,10,9,5,6,0.6,0.5
2024-08-30T2200,3478A,113.9749,33.5664,漯河市,市图书馆,细颗粒物(PM2.5),64,65,39,46,25,71,,137,122,20,10,6,7,0.8,0.6
2024-08-30T2200,3479A,114.0967,33.5906,漯河市,召陵区卫健委,颗粒物(PM10),54,58,45,29,26,78,,132,119,14,15,4,5,0.6,0.5
2024-08-30T2200,1798A,118.5092,31.6837,马鞍山市,湖东路四小,,49,45,32,34,15,99,,142,124,23,14,5,5,0.8,0.7
2024-08-30T2200,1799A,118.5024,31.6449,马鞍山市,开发区,颗粒物(PM10),64,77,36,31,16,41,,138,105,53,18,5,5,0.9,0.9
2024-08-30T2200,1800A,118.5228,31.7231,马鞍山市,慈湖,,43,40,31,30,20,121,,146,135,12,12,6,7,0.8,0.7
2024-08-30T2200,1802A,118.6245,31.7241,马鞍山市,濮塘,,35,25,21,23,16,110,,124,115,17,14,6,6,0.7,0.6
2024-08-30T2200,3633A,118.4918,31.6809,马鞍山市,雨山,,36,36,27,20,14,103,,140,124,15,10,6,7,0.9,0.8
2024-08-30T2200,1686A,111.0286,21.4688,茂名市,电白南海,,32,27,29,22,18,97,,135,129,12,11,8,10,0.7,0.7
2024-08-30T2200,1687A,110.9294,21.6533,茂名市,茂石化七小,,35,,26,24,21,91,,117,114,10,9,5,10,0.5,0.5
2024-08-30T2200,1688A,110.9107,21.6687,茂名市,健康路,,31,27,24,7,12,98,,126,121,9,9,10,15,0.6,0.6
2024-08-30T2200,1689A,110.8592,21.6828,茂名市,高岭,,,,26,12,15,92,,124,119,12,12,12,20,0.7,0.8
2024-08-30T2200,3450A,111.01,21.5165,茂名市,电白水东,,31,17,21,12,16,98,,121,119,7,9,5,7,0.5,0.5
2024-08-30T2200,2539A,104.0308,30.0478,眉山市,黑龙滩水库,细颗粒物(PM2.5),69,,37,50,22,118,,146,146,5,9,5,5,0.6,0.5
2024-08-30T2200,2540A,103.8416,30.0874,眉山市,气象局,颗粒物(PM10),57,64,40,36,26,118,,174,163,19,19,9,9,0.6,0.6
2024-08-30T2200,3137A,103.8578,30.0744,眉山市,市委党校,细颗粒物(PM2.5),55,46,41,39,22,134,,178,171,12,16,8,12,0.5,0.5
2024-08-30T2200,3148A,103.8291,30.0564,眉山市,区人社局,细颗粒物(PM2.5),55,43,33,39,21,114,,176,167,20,20,7,9,0.7,0.6
2024-08-30T2200,1690A,116.1231,24.3284,梅州市,梅江月梅,,25,23,27,11,17,78,,84,75,4,8,8,6,0.4,0.5
2024-08-30T2200,1691A,116.0797,24.2719,梅州市,梅县新城,,39,39,29,14,16,72,,100,70,16,12,6,4,0.5,0.6
2024-08-30T2200,1692A,116.1248,24.2654,梅州市,环境监控中心,,23,20,29,11,16,72,,86,72,12,11,6,7,0.3,0.4
2024-08-30T2200,3315A,116.1233,24.2991,梅州市,梅龙,,,24,22,15,18,,,91,75,10,8,9,8,0.5,0.6
2024-08-30T2200,1878A,104.7778,31.4741,绵阳市,富乐山,,39,36,25,27,19,58,,78,70,13,10,3,3,0.6,0.6
2024-08-30T2200,1879A,104.7563,31.4535,绵阳市,市人大,,38,38,27,25,18,38,,70,58,29,18,9,8,0.6,0.5
2024-08-30T2200,1880A,104.6697,31.4668,绵阳市,高新区自来水公司,,41,41,31,22,14,44,,66,58,27,19,3,2,0.9,0.8
2024-08-30T2200,1881A,104.7287,31.5075,绵阳市,三水厂,,39,39,32,26,18,24,,63,47,38,22,5,5,0.7,0.6
2024-08-30T2200,3491A,104.69,31.5322,绵阳市,西科大附属小学,颗粒物(PM10),52,53,33,25,17,33,,62,54,40,24,6,4,0.8,0.7
2024-08-30T2200,3492A,104.5648,31.5343,绵阳市,安州区旅游局,,47,47,24,31,21,56,,72,69,20,15,6,7,0.7,0.6
2024-08-30T2200,1784A,129.61,44.561,牡丹江市,环保大楼,,28,,20,19,12,74,,100,99,10,10,6,7,0.4,0.4
2024-08-30T2200,1785A,129.6115,44.5782,牡丹江市,文化广场,,29,26,27,20,18,69,,92,91,13,14,8,8,0.3,0.4
2024-08-30T2200,1786A,129.5904,44.5963,牡丹江市,第一医院,,25,,25,6,16,78,,90,,9,11,8,6,0.1,0.4
2024-08-30T2200,1787A,129.6364,44.6075,牡丹江市,机车工厂,,23,21,28,16,13,71,,94,92,11,13,5,5,0.3,0.4
2024-08-30T2200,1788A,129.6386,44.5462,牡丹江市,第一中学,,29,29,27,10,14,80,,104,102,10,12,6,6,0.3,0.4
2024-08-30T2200,2531A,105.0703,29.61,内江市,市监测站,细颗粒物(PM2.5),85,74,38,63,44,112,,164,153,20,14,7,6,0.6,0.4
2024-08-30T2200,2532A,105.0717,29.5947,内江市,东兴区政府,细颗粒物(PM2.5),85,87,40,63,38,109,,157,149,23,16,11,10,0.8,0.7
2024-08-30T2200,2533A,105.0653,29.5817,内江市,内江二中,细颗粒物(PM2.5),73,,40,53,45,117,,151,146,17,15,7,7,0.8,0.7
2024-08-30T2200,2534A,105.0406,29.5822,内江市,内江日报社,细颗粒物(PM2.5),68,57,45,49,42,118,,168,161,26,18,8,7,0.7,0.6
2024-08-30T2200,2628A,92.0657,31.4846,那曲市,那曲监测站,颗粒物(PM10),77,104,38,37,14,45,,103,95,28,9,8,7,1.4,0.7
2024-08-30T2200,3128A,92.0506,31.4797,那曲市,那曲会议中心,颗粒物(PM10),52,53,26,20,11,84,,119,114,22,13,5,4,0.5,0.5
2024-08-30T2200,1290A,115.8931,28.6843,南昌市,省外办,,49,45,36,34,23,106,,163,142,15,18,9,8,0.6,0.5
2024-08-30T2200,1291A,115.8886,28.7003,南昌市,省林业公司,颗粒物(PM10),59,68,41,27,20,102,,170,148,24,22,5,6,0.8,0.8
2024-08-30T2200,1292A,115.8126,28.7442,南昌市,林科所,,39,39,27,27,15,113,,168,148,14,15,7,7,1.2,1
2024-08-30T2200,1294A,115.8518,28.687,南昌市,建工学校,,48,48,29,15,11,111,,160,140,12,12,8,8,0.7,0.6
2024-08-30T2200,1295A,115.8921,28.6424,南昌市,象湖,,50,50,29,32,18,103,,167,133,23,19,4,4,0.8,0.9
2024-08-30T2200,1296A,115.7423,28.7996,南昌市,武术学校,细颗粒物(PM2.5),52,48,28,36,19,29,,94,65,12,6,2,2,0.9,0.8
2024-08-30T2200,1298A,115.9314,28.6842,南昌市,省站,细颗粒物(PM2.5),52,48,38,36,25,102,,166,145,14,16,6,7,0.9,0.8
2024-08-30T2200,3046A,115.9084,28.6062,南昌市,机电学校,颗粒物(PM10),64,77,45,39,20,87,,147,125,24,26,7,7,1.1,1
2024-08-30T2200,3690A,115.9721,28.7031,南昌市,外国语学校,,44,44,38,21,16,117,,167,155,11,17,4,5,0.7,0.7
2024-08-30T2200,1905A,106.056,30.8064,南充市,西山风景区,细颗粒物(PM2.5),59,,32,42,33,96,,131,124,11,10,2,2,0.9,0.8
2024-08-30T2200,1906A,106.0789,30.8023,南充市,南充市委,细颗粒物(PM2.5),69,70,46,50,34,92,,137,126,17,12,8,8,0.7,0.5
2024-08-30T2200,1907A,106.1031,30.8217,南充市,南充炼油厂,细颗粒物(PM2.5),75,72,49,55,35,91,,137,129,16,11,8,7,0.7,0.6
2024-08-30T2200,1908A,106.1064,30.7856,南充市,高坪区监测站,细颗粒物(PM2.5),59,60,46,42,34,97,,134,128,17,14,8,7,0.6,0.6
2024-08-30T2200,1909A,106.0642,30.7636,南充市,嘉陵区环保局,颗粒物(PM10),58,66,45,39,31,90,,136,124,20,16,6,5,0.6,0.5
2024-08-30T2200,1910A,106.1087,30.8388,南充市,市环境监测站,细颗粒物(PM2.5),72,67,53,52,34,95,,135,127,15,13,8,7,0.6,0.5
2024-08-30T2200,1151A,118.8086,32.1065,南京市,迈皋桥,,41,41,26,22,16,94,,142,134,36,18,4,4,0.5,0.3
2024-08-30T2200,1152A,118.7538,32.0551,南京市,草场门,,,,25,,10,,,55,,,16,,5,,0.3
2024-08-30T2200,1153A,118.7794,32.0745,南京市,山西路,,48,48,30,27,15,122,,146,143,12,8,5,4,0.6,0.4
2024-08-30T2200,1154A,118.7752,32.0023,南京市,中华门,,41,41,26,24,14,112,,120,119,20,15,4,4,0.5,0.4
2024-08-30T2200,1155A,118.8109,32.0309,南京市,瑞金路,,41,41,31,27,16,128,,136,130,9,8,4,4,0.6,0.4
2024-08-30T2200,1156A,118.7997,32.0754,南京市,玄武湖,,47,47,32,21,11,123,,139,136,19,10,6,5,0.8,0.6
2024-08-30T2200,1157A,118.6414,32.0931,南京市,浦口,,42,42,32,24,16,79,,153,135,14,14,7,7,0.6,0.5
2024-08-30T2200,1158A,118.7356,31.9996,南京市,奥体中心,颗粒物(PM10),51,51,29,34,20,130,,146,141,20,14,4,4,0.5,0.4
2024-08-30T2200,1159A,118.9125,32.1028,南京市,仙林大学城,颗粒物(PM10),53,56,31,31,21,98,,150,144,27,12,8,7,0.8,0.6
2024-08-30T2200,3422A,118.8436,31.9198,南京市,江宁彩虹桥,颗粒物(PM10),51,52,32,24,18,116,,138,132,17,10,4,4,0.6,0.5
2024-08-30T2200,3423A,119.0138,31.6494,南京市,溧水永阳,,44,44,23,15,14,131,,137,137,13,13,3,4,0.6,0.5
2024-08-30T2200,3424A,118.879,31.3302,南京市,高淳老职中,,38,,23,26,16,101,,147,141,14,11,5,6,0.2,0.2
2024-08-30T2200,3427A,118.8554,32.3578,南京市,六合雄州,,38,38,31,14,17,66,,140,112,16,12,3,4,0.5,0.5
2024-08-30T2200,1401A,108.3103,22.7881,南宁市,二十一中,,23,19,31,14,19,71,,120,106,19,18,4,6,0.8,0.7
2024-08-30T2200,1402A,108.3141,22.8528,南宁市,北湖,颗粒物(PM10),54,58,38,28,25,13,,127,105,72,23,6,5,1.0,0.8
2024-08-30T2200,1403A,108.3206,22.8225,南宁市,市监测站,,30,30,32,19,22,48,,114,94,58,27,4,6,0.8,0.7
2024-08-30T2200,1404A,108.3829,22.8037,南宁市,大自然花园,,30,30,26,16,16,61,,106,92,29,18,4,4,0.7,0.7
2024-08-30T2200,1405A,108.4394,22.7904,南宁市,仙葫,,43,43,28,24,16,56,,105,95,28,15,8,7,0.7,0.6
2024-08-30T2200,1406A,108.2397,22.8467,南宁市,区农职院,颗粒物(PM10),51,52,42,26,26,34,,137,117,31,18,9,13,0.7,0.7
2024-08-30T2200,1407A,108.3275,22.735,南宁市,英华嘉园,颗粒物(PM10),54,58,35,31,23,3,,108,83,70,25,7,7,0.9,0.6
2024-08-30T2200,1408A,108.2257,22.7757,南宁市,沙井镇街道办,颗粒物(PM10),64,78,42,22,21,14,,123,93,56,25,4,7,0.6,0.6
2024-08-30T2200,3401A,108.4834,22.7618,南宁市,红星社区,,50,50,26,24,19,42,,108,89,28,13,5,5,0.8,0.7
2024-08-30T2200,2331A,118.0966,26.6761,南平市,茫荡山,,,,,,,,,,,,,,,,
2024-08-30T2200,2332A,118.1681,26.6369,南平市,南平市监测站,,25,25,23,6,11,38,,98,73,18,9,5,5,0.8,0.7
2024-08-30T2200,2333A,118.1825,26.6489,南平市,南平铝业有限公司,,43,43,25,14,13,21,,96,68,31,10,8,6,0.7,0.6
2024-08-30T2200,2334A,118.1756,26.6272,南平市,南平七中,,30,30,28,8,12,37,,88,63,12,9,4,5,0.5,0.5
2024-08-30T2200,1168A,120.9098,31.9663,南通市,狼山街道,,28,9,14,6,8,89,,107,95,5,6,6,6,0.6,0.6
2024-08-30T2200,1169A,120.86,32.0005,南通市,虹桥,,26,17,19,8,9,82,,100,91,4,6,5,5,0.4,0.4
2024-08-30T2200,1170A,120.87,32.02,南通市,城中,,27,21,23,8,7,84,,99,92,10,11,5,5,0.8,0.8
2024-08-30T2200,1171A,120.94,31.93,南通市,星湖花园,,27,18,14,3,4,85,,110,94,11,10,5,5,0.8,0.9
2024-08-30T2200,1172A,120.81,32.0417,南通市,紫琅学院,,25,13,14,3,6,80,,95,88,11,11,6,6,0.8,0.7
2024-08-30T2200,3291A,121.067,32.062,南通市,通州监测站,,,14,18,3,6,,,97,97,6,6,3,3,,0.7
2024-08-30T2200,3432A,120.9348,31.9883,南通市,环境教育馆,,28,24,21,8,6,88,,106,95,6,7,4,4,0.5,0.5
2024-08-30T2200,2404A,112.5224,33.0122,南阳市,瓦房庄,,31,31,37,19,20,88,,126,119,15,11,5,5,0.6,0.6
2024-08-30T2200,2405A,112.5003,32.9735,南阳市,汉画馆,,41,41,42,22,25,72,,122,108,25,14,6,5,0.6,0.6
2024-08-30T2200,2406A,112.5573,33.027,南阳市,气象站,,41,41,40,17,20,81,,124,115,19,11,6,6,0.6,0.6
2024-08-30T2200,2407A,112.5481,32.9689,南阳市,理工学院,,31,31,37,12,17,82,,122,112,20,15,4,4,0.3,0.3
2024-08-30T2200,4008A,112.5234,32.9922,南阳市,卧龙区政府,,34,34,39,13,21,82,,125,116,17,12,5,5,0.7,0.7
2024-08-30T2200,1234A,121.8358,29.911,宁波市,区环保大楼,,31,26,29,12,15,97,,136,122,11,20,8,9,0.6,0.6
2024-08-30T2200,1235A,121.56,29.82,宁波市,万里学院,,,26,29,,14,,,156,129,,22,,10,,0.7
2024-08-30T2200,1236A,121.713,29.9572,宁波市,龙赛医院,,32,24,27,10,11,102,,136,121,13,22,6,8,0.6,0.6
2024-08-30T2200,1239A,121.633,29.7733,宁波市,钱湖水厂,,31,27,20,14,11,98,,168,145,9,13,7,8,0.5,0.6
2024-08-30T2200,1240A,121.5856,29.8635,宁波市,太古小学,,34,25,23,15,13,108,,137,111,11,22,6,6,0.7,0.8
2024-08-30T2200,1241A,121.524,29.8674,宁波市,市环境监测中心,,38,30,24,18,10,119,,143,122,12,21,4,5,0.6,0.6
2024-08-30T2200,2871A,121.6147,29.9017,宁波市,万里国际学校,,,,31,16,14,120,,130,123,9,23,6,8,0.3,0.4
2024-08-30T2200,3710A,121.5594,29.8975,宁波市,白沙活动中心,,37,19,26,17,11,118,,137,118,12,20,7,9,0.4,0.5
2024-08-30T2200,2339A,119.5001,26.6946,宁德市,金涵水库,,,,,,,,,,,,,,,,
2024-08-30T2200,2341A,119.5388,26.6612,宁德市,宁德市监测站,,31,31,34,20,22,95,,139,127,13,10,5,6,0.6,0.8
2024-08-30T2200,3209A,119.5231,26.6562,宁德市,宁德一中,,34,34,37,22,23,93,,140,128,7,7,5,6,0.7,0.9
2024-08-30T2200,2618A,98.8601,25.8567,怒江傈僳族自治州,州监测站,,42,42,29,28,21,46,,93,83,20,14,6,6,0.6,0.4
2024-08-30T2200,2619A,98.8546,25.8417,怒江傈僳族自治州,泸水一中,,32,30,25,22,16,40,,85,75,22,15,5,5,0.6,0.5
2024-08-30T2200,1888A,101.6891,26.571,攀枝花市,弄弄坪,颗粒物(PM10),51,51,61,31,29,66,,141,130,22,26,20,25,0.5,1.1
2024-08-30T2200,1889A,101.5769,26.5928,攀枝花市,河门口,颗粒物(PM10),53,55,47,33,26,80,,155,142,24,24,21,16,0.9,1
2024-08-30T2200,1890A,101.7169,26.585,攀枝花市,炳草岗,,46,42,66,32,37,70,,163,148,28,37,16,23,0.5,1.1
2024-08-30T2200,1891A,101.7369,26.5008,攀枝花市,仁和,,43,43,40,27,24,48,,129,111,19,17,6,12,0.7,0.9
2024-08-30T2200,2835A,101.7227,26.567,攀枝花市,四十中小,颗粒物(PM10),53,55,63,35,36,56,,157,135,33,30,18,30,0.8,1.3
2024-08-30T2200,1604A,122.0303,41.1489,盘锦市,开发区,,23,19,34,16,20,69,,167,102,15,10,6,6,0.4,0.8
2024-08-30T2200,1605A,122.0485,41.0883,盘锦市,兴隆台,,26,15,34,13,20,81,,161,107,13,16,7,6,0.4,0.8
2024-08-30T2200,1606A,121.8297,41.1028,盘锦市,新生街道,,14,8,35,8,17,44,,176,86,26,9,5,6,0.4,0.8
2024-08-30T2200,1832A,113.3257,33.742,平顶山市,新华旅馆,颗粒物(PM10),68,86,58,31,24,53,,136,115,45,22,4,6,0.7,0.7
2024-08-30T2200,1833A,113.2919,33.737,平顶山市,规划设计院,,40,36,37,28,23,98,,135,124,18,21,7,7,0.7,0.6
2024-08-30T2200,1834A,113.182,33.774,平顶山市,平顶山工学院,,32,30,34,14,15,101,,125,118,16,18,7,7,0.9,0.8
2024-08-30T2200,3204A,113.3025,33.73,平顶山市,规划局,颗粒物(PM10),53,56,51,34,27,91,,130,118,18,22,3,4,0.6,0.6
2024-08-30T2200,3594A,112.8867,33.9116,平顶山市,石龙区,,,85,83,26,25,,,21,,28,35,8,8,0.5,0.5
2024-08-30T2200,2656A,106.6692,35.5461,平凉市,聚贤嘉苑,,43,43,48,21,23,107,,102,101,25,18,7,7,0.5,0.5
2024-08-30T2200,2657A,106.7021,35.5307,平凉市,博物馆,,50,50,53,20,21,120,,116,106,24,21,9,9,0.7,0.6
2024-08-30T2200,2347A,114.0997,27.5002,萍乡市,武功山,,13,13,10,3,3,37,,93,74,5,4,9,10,0.4,0.4
2024-08-30T2200,2348A,113.8385,27.6434,萍乡市,中医院,,50,50,32,31,21,58,,137,116,19,11,8,8,1.0,1
2024-08-30T2200,2349A,113.8493,27.6253,萍乡市,市政府车库,颗粒物(PM10),63,76,36,33,20,60,,126,110,15,9,13,10,0.9,1
2024-08-30T2200,2350A,113.8676,27.6435,萍乡市,市环保局,,49,49,37,32,23,38,,134,111,38,12,11,11,0.9,1.1
2024-08-30T2200,2351A,113.866,27.6198,萍乡市,安源区政府,颗粒物(PM10),56,62,33,31,14,60,,129,112,18,12,18,15,0.7,0.9
2024-08-30T2200,2319A,119.0141,25.4325,莆田市,荔城区仓后路,,46,44,46,32,29,55,,107,84,18,14,8,7,0.7,0.7
2024-08-30T2200,2320A,119.0015,25.4553,莆田市,莆田市监测站,,33,33,40,22,25,51,,116,94,10,8,6,6,0.6,0.6
2024-08-30T2200,2321A,119.1119,25.4561,莆田市,涵江区六中,,32,32,36,19,24,70,,119,91,14,9,6,6,0.5,0.6
2024-08-30T2200,2322A,119.1013,25.3215,莆田市,秀屿区政府,,45,,35,31,31,79,,112,92,10,9,6,6,0.6,0.7
2024-08-30T2200,2323A,118.981,25.4792,莆田市,东圳水库,,,,,,,,,,,,,,,,
2024-08-30T2200,2392A,115.0312,35.7636,濮阳市,环保局,,40,38,37,28,24,102,,136,124,17,11,6,6,0.5,0.5
2024-08-30T2200,2394A,115.0574,35.7609,濮阳市,油田运输公司,,43,43,36,24,24,101,,142,128,16,12,2,3,0.5,0.5
2024-08-30T2200,2395A,115.0866,35.7754,濮阳市,油田物探公司,,40,38,39,28,28,111,,144,133,15,11,6,6,0.5,0.5
2024-08-30T2200,3021A,115,35.7668,濮阳市,濮水河管理处,,38,32,38,26,28,71,,134,109,19,12,3,4,0.5,0.4
2024-08-30T2200,2601A,100.98,22.7633,普洱市,市环保局,,,,26,,11,,,53,49,5,6,3,3,0.5,0.5
2024-08-30T2200,2602A,100.9817,22.8322,普洱市,普洱第二中学,,28,24,23,19,10,16,,59,44,9,7,6,6,0.8,0.7
2024-08-30T2200,2262A,131.0518,45.8751,七台河市,新一中,,32,12,22,7,12,101,,113,105,6,11,9,10,1.1,1.1
2024-08-30T2200,3345A,131.0577,45.7879,七台河市,中波台,,21,10,11,7,5,67,,76,72,14,17,8,31,0.5,0.6
2024-08-30T2200,3637A,131.0176,45.7761,七台河市,人民广场,,23,18,20,15,12,72,,82,74,12,12,8,8,0.4,0.4
2024-08-30T2200,3684A,130.8781,45.8222,七台河市,新建矿广场,,23,,51,16,18,68,,78,73,12,19,7,11,0.3,0.5
2024-08-30T2200,1779A,123.9305,47.3636,齐齐哈尔市,安居小区,,21,21,17,8,7,47,,79,57,12,9,11,11,0.4,0.4
2024-08-30T2200,1780A,123.9488,47.3386,齐齐哈尔市,中心广场,,23,19,15,16,7,46,,75,51,16,13,2,2,0.3,0.3
2024-08-30T2200,1781A,123.9483,47.3227,齐齐哈尔市,农牧车辆厂,,22,22,21,6,4,50,,72,51,9,12,8,8,0.2,0.2
2024-08-30T2200,1783A,123.945,47.2988,齐齐哈尔市,市环境监测站,,20,20,15,12,8,42,,75,58,15,10,8,7,0.3,0.3
2024-08-30T2200,3662A,123.6333,47.2075,齐齐哈尔市,富区青少年活动中心,颗粒物(PM10),69,87,23,14,4,53,,77,61,12,10,3,3,0.6,0.5
2024-08-30T2200,2591A,107.9783,26.5747,黔东南苗族侗族自治州,市环境监测站,,32,30,26,22,21,36,,73,64,27,12,3,3,0.7,0.6
2024-08-30T2200,2881A,107.8908,26.5311,黔东南苗族侗族自治州,凯里学院,,28,24,22,19,18,43,,88,78,10,9,2,2,0.5,0.6
2024-08-30T2200,2593A,107.5228,26.2403,黔南布依族苗族自治州,小围寨,,22,22,19,14,14,51,,71,68,6,8,4,4,0.5,0.6
2024-08-30T2200,3538A,107.5175,26.2978,黔南布依族苗族自治州,沙坝,,22,22,23,14,14,48,,67,65,6,9,4,4,0.5,0.6
2024-08-30T2200,2589A,104.9022,25.0925,黔西南布依族苗族自治州,场坝街,,,,24,0,16,,,69,67,14,6,4,3,0.3,0.4
2024-08-30T2200,2590A,104.8811,25.0992,黔西南布依族苗族自治州,坪东大道,,36,36,27,20,17,21,,68,61,24,6,6,6,0.4,0.2
2024-08-30T2200,2502A,108.6236,21.9667,钦州市,市环保站,,48,48,34,27,14,83,,110,103,21,15,6,8,0.8,1.1
2024-08-30T2200,2503A,108.6549,21.9481,钦州市,沙埠小学,,43,43,38,23,20,82,,112,106,17,15,4,5,0.7,0.8
2024-08-30T2200,2504A,108.5989,21.7431,钦州市,港区一小,颗粒物(PM10),51,52,40,19,21,72,,136,113,29,25,7,7,0.8,0.9
2024-08-30T2200,3404A,108.5959,21.9633,钦州市,北职校,颗粒物(PM10),59,68,32,31,21,63,,119,103,26,13,6,5,0.8,1
2024-08-30T2200,1042A,119.5134,39.8207,秦皇岛市,北戴河环保局,臭氧1小时,89,62,68,14,22,191,,202,202,9,14,2,4,0.7,0.9
2024-08-30T2200,1043A,119.7493,40.0116,秦皇岛市,第一关,细颗粒物(PM2.5),63,69,69,45,49,97,,110,,56,34,1,4,0.5,0.8
2024-08-30T2200,1044A,119.5897,39.9499,秦皇岛市,监测站,"颗粒物(PM10),细颗粒物(PM2.5)",58,65,58,41,37,104,,193,180,47,17,3,4,0.9,1
2024-08-30T2200,1046A,119.5251,39.9041,秦皇岛市,建设大厦,颗粒物(PM10),68,85,67,27,23,87,,199,187,57,13,4,8,0.8,0.9
2024-08-30T2200,3132A,119.610547,39.943889,秦皇岛市,文明里,颗粒物(PM10),66,82,64,37,32,126,,204,196,38,16,3,5,0.8,1
2024-08-30T2200,1307A,120.6659,36.2403,青岛市,仰口,,49,42,33,34,24,146,,198,181,7,9,7,8,0.2,0.3
2024-08-30T2200,1310A,120.4134,36.0658,青岛市,市南区东部子站,颗粒物(PM10),52,53,37,24,11,85,,206,168,47,28,8,11,0.9,0.8
2024-08-30T2200,1311A,120.3664,36.1032,青岛市,四方区子站,颗粒物(PM10),59,68,40,36,21,88,,198,168,54,33,12,14,1.3,1
2024-08-30T2200,1312A,120.2994,36.054,青岛市,市南区西部子站,颗粒物(PM10),74,97,54,34,19,63,,196,138,58,39,13,12,1.1,1.1
2024-08-30T2200,1313A,120.4581,36.0858,青岛市,崂山区子站,,44,44,34,24,13,118,,206,181,28,25,9,11,0.9,0.9
2024-08-30T2200,1314A,120.1983,35.9608,青岛市,黄岛区子站,颗粒物(PM10),52,53,32,32,21,137,,191,174,35,27,13,12,1.1,0.9
2024-08-30T2200,1315A,120.3999,36.3083,青岛市,城阳区子站,,46,46,41,24,19,121,,182,156,19,21,8,8,0.8,0.7
2024-08-30T2200,1966A,120.0405,35.8735,青岛市,黄岛区4号,,46,46,41,19,18,135,,193,180,23,27,9,11,0.8,0.9
2024-08-30T2200,3362A,120.5014,36.4034,青岛市,即墨2号,颗粒物(PM10),54,57,50,32,26,146,,192,168,13,22,7,8,0.7,0.7
2024-08-30T2200,3642A,120.3503,36.0736,青岛市,市北区南部,细颗粒物(PM2.5),55,53,40,39,19,48,,182,146,82,34,12,11,1.1,0.9
2024-08-30T2200,3643A,120.3948,36.1805,青岛市,李沧区北部,颗粒物(PM10),57,63,39,36,24,120,,204,172,39,29,10,10,1.1,0.8
2024-08-30T2200,1702A,113.0426,23.691,清远市,环保大楼,,38,38,22,17,15,67,,126,112,23,10,6,7,0.9,0.8
2024-08-30T2200,1703A,113.0208,23.7106,清远市,凤城街办,,,44,23,35,16,,,119,111,24,8,108,10,0.5,0.6
2024-08-30T2200,3025A,113.0477,23.6344,清远市,技师学院,,38,38,27,22,16,72,,136,120,23,17,5,4,0.4,0.4
2024-08-30T2200,3318A,112.9903,23.7403,清远市,清新太和,,38,38,24,14,14,66,,110,96,5,3,3,4,0.7,0.7
2024-08-30T2200,3455A,113.076,23.7198,清远市,清城东城,,29,27,26,20,18,56,,116,101,15,6,6,6,0.6,0.6
2024-08-30T2200,2661A,107.6325,35.7357,庆阳市,庆阳五中,,37,30,34,17,17,117,,117,117,7,7,5,6,0.6,0.6
2024-08-30T2200,2662A,107.6364,35.7067,庆阳市,市环保局,,36,33,31,13,13,115,,116,116,8,7,5,5,0.5,0.5
2024-08-30T2200,1916A,103.7897,25.5035,曲靖市,环境监测站,,33,33,37,14,18,80,,90,90,17,18,7,8,0.6,0.7
2024-08-30T2200,1917A,103.8,25.5364,曲靖市,烟厂办公区,,,,,,,,,,,,,,,,
2024-08-30T2200,3376A,103.7947,25.462,曲靖市,南苑二区,,28,20,34,10,17,88,,98,98,14,14,15,15,0.6,0.6
2024-08-30T2200,3377A,103.7444,25.5261,曲靖市,曲靖师范学院,,34,25,32,11,23,106,,102,102,11,17,8,14,0.6,0.7
2024-08-30T2200,1264A,118.8692,28.9398,衢州市,环保大楼,,26,26,29,17,20,73,,128,96,15,17,2,2,0.5,0.6
2024-08-30T2200,1265A,118.8709,28.9666,衢州市,实验学校,,29,29,30,14,18,77,,127,95,15,15,4,4,0.6,0.6
2024-08-30T2200,1266A,118.8621,28.9808,衢州市,衢州学院,,29,29,30,16,18,66,,127,94,23,18,3,3,0.5,0.5
2024-08-30T2200,1611A,118.5819,24.9117,泉州市,涂山街,,38,38,37,20,31,57,,122,89,26,13,1,2,0.6,0.5
2024-08-30T2200,1612A,118.5972,24.8978,泉州市,津头埔,,,,32,24,28,52,,110,80,22,13,3,3,,0.8
2024-08-30T2200,1613A,118.6663,24.9424,泉州市,万安,,30,30,33,20,26,75,,111,86,10,9,2,3,0.6,0.6
2024-08-30T2200,1614A,118.6117,24.9604,泉州市,清源山,,,,,,,,,,,,,,,,
2024-08-30T2200,3529A,118.6333,24.9264,泉州市,城华南路,,26,26,31,18,24,44,,105,75,14,9,2,2,0.5,0.5
2024-08-30T2200,2626A,88.8876,29.2718,日喀则市,日喀则监测站,,24,13,10,3,3,76,,100,94,14,9,6,5,0.4,0.4
2024-08-30T2200,3726A,88.8781,29.2426,日喀则市,林业技术推广中心,,22,16,6,8,5,70,,108,97,9,6,8,8,0.5,0.4
2024-08-30T2200,1659A,119.471,35.4209,日照市,监测站,颗粒物(PM10),51,51,33,27,20,74,,163,150,39,28,10,10,0.8,0.8
2024-08-30T2200,1660A,119.523,35.4216,日照市,市政府广场,颗粒物(PM10),52,53,33,29,19,105,,173,163,39,32,13,12,0.8,0.8
2024-08-30T2200,1661A,119.5587,35.4044,日照市,港务局,"颗粒物(PM10),细颗粒物(PM2.5)",54,58,53,38,27,119,,175,156,29,34,15,15,0.9,0.9
2024-08-30T2200,3507A,119.5328,35.4625,日照市,职业技术学院,,46,46,39,27,20,78,,170,145,38,32,10,11,0.9,0.8
2024-08-30T2200,3604A,119.3266,35.1044,日照市,岚山环保分局,,36,36,42,15,18,93,,177,163,25,23,9,13,0.5,0.8
2024-08-30T2200,1835A,111.1922,34.7752,三门峡市,市政府,,46,46,42,20,26,59,,124,99,42,14,8,11,0.7,0.7
2024-08-30T2200,1836A,111.1587,34.7942,三门峡市,开发区,,40,40,52,24,30,77,,132,108,31,13,7,10,0.7,0.7
2024-08-30T2200,1838A,111.143,34.7955,三门峡市,风景区,,,,,,,,,,,,,,,,
2024-08-30T2200,3039A,111.1911,34.7829,三门峡市,三门峡市第一小学,,40,40,44,8,38,75,,123,102,33,12,10,10,0.6,0.7
2024-08-30T2200,3598A,111.1,34.7167,三门峡市,富达温泉假日酒店,,39,39,43,17,28,99,,134,107,9,10,9,10,0.9,0.9
2024-08-30T2200,2324A,117.6211,26.2625,三明市,三钢,,28,28,36,19,26,34,,98,73,17,14,5,10,0.5,0.9
2024-08-30T2200,2325A,117.635,26.2714,三明市,三明二中,,,20,34,14,20,,,101,75,19,14,2,5,,0.6
2024-08-30T2200,2326A,117.6028,26.2378,三明市,三元区政府,,38,38,44,15,22,19,,101,64,30,17,2,4,0.6,0.6
2024-08-30T2200,2327A,117.7275,26.3108,三明市,洋溪,,,,,,,,,,,,,,,,
2024-08-30T2200,1876A,109.5078,18.2489,三亚市,河东子站,,18,14,18,8,8,57,,82,70,5,5,4,3,0.3,0.3
2024-08-30T2200,1877A,109.4964,18.2681,三亚市,河西子站,,16,13,16,6,7,51,,79,65,9,6,3,3,0.2,0.2
2024-08-30T2200,3540A,109.7348,18.3443,三亚市,君悦子站,,20,16,20,3,7,61,,83,65,7,9,3,1,0.3,0.2
2024-08-30T2200,2624A,91.7608,29.2313,山南市,山南监测站,,35,12,9,7,6,112,,131,127,4,6,7,7,0.3,0.3
2024-08-30T2200,2625A,91.7706,29.2436,山南市,山南人民医院,,33,22,14,11,6,104,,132,126,11,10,7,7,0.3,0.4
2024-08-30T2200,1674A,116.6794,23.3667,汕头市,金平子站,,12,,20,8,13,27,,53,35,11,7,4,4,0.3,0.4
2024-08-30T2200,1675A,116.7244,23.3633,汕头市,龙湖子站,,,10,20,6,10,,,55,40,12,8,6,6,0.5,0.5
2024-08-30T2200,1676A,116.7258,23.2775,汕头市,濠江子站,,15,,20,10,17,31,,54,43,14,10,5,5,0.5,0.6
2024-08-30T2200,1677A,116.7519,23.4714,汕头市,澄海子站,,16,,21,11,16,38,,81,51,12,6,4,4,0.7,0.8
2024-08-30T2200,1678A,116.6092,23.2539,汕头市,潮阳子站,细颗粒物(PM2.5),59,,20,42,24,36,,68,52,8,4,6,6,0.3,0.4
2024-08-30T2200,3444A,116.454,23.2684,汕头市,潮南峡山,,14,14,24,6,16,34,,78,49,9,6,7,5,1.0,0.9
2024-08-30T2200,3624A,116.4069,23.2533,汕头市,潮南子站,,12,11,28,3,15,37,,82,49,7,10,4,5,0.5,0.8
2024-08-30T2200,1693A,115.3653,22.775,汕尾市,市环保局,,13,7,22,7,18,40,,74,43,6,8,6,6,0.6,0.7
2024-08-30T2200,1694A,115.3706,22.7898,汕尾市,市政府,,18,18,21,3,13,39,,70,44,9,9,7,6,0.5,0.6
