timepoint,stationcode,longitude,latitude,area,positionname,primarypollutant,aqi,pm10,pm10_24h,pm2_5,pm2_5_24h,o3,o3_24h,o3_8h,o3_8h_24h,no2,no2_24h,so2,so2_24h,co,co_24h
2024-05-18T1000,2566A,102.1879,31.914,阿坝藏族羌族自治州,州农科所,颗粒物(PM10),68,86,30,18,9,36,,30,30,10,14,2,2,0.0,0
2024-05-18T1000,2568A,102.2502,31.8896,阿坝藏族羌族自治州,马师校,,,16,20,13,16,79,,63,63,,11,4,3,0.4,0.3
2024-05-18T1000,3994A,102.2165,31.9024,阿坝藏族羌族自治州,马尔康中学西区,,25,23,28,14,17,78,,69,69,5,8,4,3,0.3,0.3
2024-05-18T1000,2695A,80.292,41.1694,阿克苏地区,电视台,颗粒物(PM10),145,239,242,63,68,21,,62,52,36,21,7,4,0.7,0.3
2024-05-18T1000,2696A,80.2613,41.1551,阿克苏地区,艺术中心,颗粒物(PM10),135,220,229,83,80,11,,26,26,57,38,9,4,0.8,0.6
2024-05-18T1000,2204A,105.6467,38.8363,阿拉善盟,西城区西花园,颗粒物(PM10),318,434,120,128,35,112,,137,132,12,10,10,9,0.7,0.8
2024-05-18T1000,2205A,105.6985,38.8411,阿拉善盟,蒙二幼,颗粒物(PM10),164,278,121,118,42,108,,136,132,11,8,10,9,0.6,0.5
2024-05-18T1000,2206A,105.724,38.8516,阿拉善盟,环保局新楼,颗粒物(PM10),500,662,139,146,46,117,,148,144,10,6,10,9,0.6,0.5
2024-05-18T1000,2708A,88.1264,47.8517,阿勒泰地区,市站,,23,23,30,11,9,67,,49,49,11,9,6,5,0.3,0.3
2024-05-18T1000,2630A,80.1161,32.5,阿里地区,阿里监测站,,35,35,17,14,7,82,,83,76,18,12,9,8,0.4,0.4
2024-05-18T1000,3192A,80.0903,32.5028,阿里地区,阿里藏医院,颗粒物(PM10),51,52,15,12,6,70,,93,86,28,7,12,7,0.6,0.4
2024-05-18T1000,2642A,109.0318,32.6537,安康市,香溪洞,细颗粒物(PM2.5),74,85,65,54,43,67,,57,55,10,8,9,8,0.8,0.6
2024-05-18T1000,2643A,109.0281,32.6939,安康市,安康市监测站,细颗粒物(PM2.5),84,93,78,62,54,56,,44,43,19,14,16,11,0.9,0.7
2024-05-18T1000,2644A,109.0072,32.6975,安康市,汉滨区检察院,,,80,60,,41,,,39,35,,10,,9,,0.5
2024-05-18T1000,2291A,117.0809,30.5177,安庆市,环科院,颗粒物(PM10),54,58,73,33,39,144,,43,43,12,40,7,6,0.5,0.6
2024-05-18T1000,2292A,117.0331,30.5119,安庆市,马山宾馆,颗粒物(PM10),58,65,71,31,39,136,,77,77,21,39,9,9,0.5,0.6
2024-05-18T1000,2294A,116.9896,30.6145,安庆市,安庆大学,颗粒物(PM10),60,69,75,35,40,152,,59,59,22,25,14,10,0.4,0.4
2024-05-18T1000,3173A,117.0598,30.5351,安庆市,市人大,颗粒物(PM10),57,64,72,28,38,141,,72,72,21,33,14,8,0.5,0.6
2024-05-18T1000,3122A,105.9606,26.2611,安顺市,伍家关,,,,,,,,,,,,,,,,
2024-05-18T1000,3123A,105.9408,26.2431,安顺市,凤凰山,,21,6,10,3,6,66,,65,65,7,5,5,5,0.8,0.8
2024-05-18T1000,3124A,105.9439,26.2564,安顺市,金钟山,,21,6,11,3,8,66,,65,65,5,5,4,5,0.6,0.6
2024-05-18T1000,3125A,105.8983,26.2481,安顺市,娄家坡,,19,8,14,6,8,60,,59,59,10,5,8,7,0.6,0.5
2024-05-18T1000,1818A,114.4839,36.0621,安阳市,棉研所,,,,,,,,,,,,,,,,
2024-05-18T1000,1819A,114.3551,36.1017,安阳市,红庙街,颗粒物(PM10),91,132,145,46,49,159,,63,63,12,29,19,11,0.9,1.1
2024-05-18T1000,1820A,114.361,36.0681,安阳市,银杏小区,颗粒物(PM10),90,130,122,48,60,169,,67,67,4,25,21,10,1.2,1.1
2024-05-18T1000,3141A,114.3922,36.0878,安阳市,信访局,颗粒物(PM10),98,146,143,47,49,153,,55,55,19,41,19,8,1.1,1.1
2024-05-18T1000,3669A,114.4705,36.0637,安阳市,左辅环卫站,颗粒物(PM10),82,113,119,44,47,128,,46,46,29,41,14,10,1.0,1.1
2024-05-18T1000,3703A,114.2917,36.0949,安阳市,安钢职工学校,颗粒物(PM10),111,172,148,45,54,157,,49,49,29,38,27,9,2.1,1.2
2024-05-18T1000,1748A,123.044,41.1196,鞍山市,深沟寺,,38,34,53,12,25,119,,135,126,6,7,7,9,0.6,0.6
2024-05-18T1000,1749A,123.011,41.0931,鞍山市,太阳城,,,34,44,16,19,,,122,121,7,11,,9,0.7,0.7
2024-05-18T1000,1750A,123.0485,41.1442,鞍山市,太平,颗粒物(PM10),53,56,66,17,32,121,,141,130,13,12,5,7,0.5,0.6
2024-05-18T1000,1751A,122.9642,41.0971,鞍山市,铁西三道街,,48,48,64,19,28,139,,146,140,13,14,4,6,0.6,0.6
2024-05-18T1000,1752A,122.9341,41.0833,鞍山市,铁西工业园区,,45,45,73,19,26,137,,121,120,6,16,7,7,0.5,0.5
2024-05-18T1000,1753A,123.022,41.0821,鞍山市,明达新区,,43,43,49,21,24,132,,133,128,7,10,9,10,0.7,0.7
2024-05-18T1000,1754A,123.1289,41.0228,鞍山市,千山,,,,,,,,,,,,,,,,
2024-05-18T1000,2195A,107.4212,40.761,巴彦淖尔市,附二中,颗粒物(PM10),104,158,187,46,58,71,,56,52,32,23,21,5,0.6,0.4
2024-05-18T1000,2196A,107.37,40.7372,巴彦淖尔市,市环保大楼,颗粒物(PM10),113,175,190,44,52,68,,48,47,29,19,33,5,0.9,0.4
2024-05-18T1000,1956A,86.1472,41.7538,巴音郭楞蒙古自治州,孔雀公园,颗粒物(PM10),108,165,230,43,76,90,,99,98,13,19,7,7,0.3,0.3
2024-05-18T1000,1957A,86.1972,41.7166,巴音郭楞蒙古自治州,棉纺厂,颗粒物(PM10),130,210,272,50,87,73,,69,69,12,22,4,4,0.3,0.3
2024-05-18T1000,1958A,86.2357,41.7173,巴音郭楞蒙古自治州,经济开发区,颗粒物(PM10),132,213,260,44,79,82,,87,87,11,14,8,9,0.5,0.3
2024-05-18T1000,2914A,106.7677,31.8794,巴中市,苏山坪,细颗粒物(PM2.5),77,87,64,56,41,68,,109,100,25,12,3,4,0.7,0.5
2024-05-18T1000,3182A,106.7656,31.8545,巴中市,丽阳花园,细颗粒物(PM2.5),82,84,67,60,46,47,,42,42,37,23,6,6,0.9,0.6
2024-05-18T1000,3183A,106.7418,31.8654,巴中市,圣泉水务公司,细颗粒物(PM2.5),57,61,62,40,43,52,,56,56,31,24,4,4,0.5,0.5
2024-05-18T1000,3616A,106.7616,31.8344,巴中市,市中心医院,细颗粒物(PM2.5),84,88,66,62,44,39,,26,26,34,24,6,6,0.8,0.6
2024-05-18T1000,2235A,122.7911,45.6077,白城市,洮北区环保局,,29,27,49,12,16,90,,78,78,8,10,6,8,0.4,0.4
2024-05-18T1000,2236A,122.8738,45.5725,白城市,市环保局,,,,41,16,18,95,,93,93,6,10,4,7,0.3,0.4
2024-05-18T1000,2231A,126.4219,41.9171,白山市,喜丰,颗粒物(PM10),57,64,52,19,17,163,,71,71,9,24,13,12,1.0,1.2
2024-05-18T1000,2232A,126.4077,41.9419,白山市,环保局,颗粒物(PM10),52,54,63,27,23,150,,65,65,8,27,12,11,0.8,0.9
2024-05-18T1000,2647A,104.1724,36.5446,白银市,第三小学,颗粒物(PM10),62,74,88,29,34,105,,110,110,25,19,107,45,0.5,0.5
2024-05-18T1000,2648A,104.1465,36.5482,白银市,动力公司,颗粒物(PM10),63,75,78,29,32,121,,103,102,20,16,133,47,0.6,0.6
2024-05-18T1000,2512A,106.6103,23.9011,百色市,市监测站,颗粒物(PM10),59,67,60,35,37,48,,43,41,16,14,13,11,0.9,0.9
2024-05-18T1000,2513A,106.6538,23.8859,百色市,市中心血站,细颗粒物(PM2.5),64,71,61,46,41,37,,41,34,24,18,13,10,0.9,0.7
2024-05-18T1000,3406A,106.6085,23.8798,百色市,祈福高中,颗粒物(PM10),59,67,63,30,37,37,,44,40,23,18,14,12,1.0,0.9
2024-05-18T1000,2270A,117.396,32.939,蚌埠市,工人疗养院,颗粒物(PM10),70,90,82,41,37,162,,122,122,15,10,12,12,0.6,0.5
2024-05-18T1000,2271A,117.3605,32.9427,蚌埠市,百货大楼,颗粒物(PM10),70,90,90,44,47,170,,123,123,13,12,10,10,0.6,0.6
2024-05-18T1000,2273A,117.4185,32.8911,蚌埠市,蚌埠学院,,,,57,48,39,165,,101,101,11,14,15,8,0.7,0.6
2024-05-18T1000,2274A,117.3533,32.9673,蚌埠市,淮上区政府,颗粒物(PM10),73,95,84,41,44,166,,121,121,11,8,10,10,0.6,0.5
2024-05-18T1000,2275A,117.3145,32.8977,蚌埠市,高新区,颗粒物(PM10),79,107,91,42,48,171,,110,110,11,10,10,13,0.6,0.6
2024-05-18T1000,3715A,117.3092,32.9314,蚌埠市,蚌埠田家炳中学,颗粒物(PM10),69,87,92,41,50,167,,110,110,11,10,10,16,0.6,0.6
2024-05-18T1000,1585A,109.8756,40.6532,包头市,市环境监测站,颗粒物(PM10),117,184,144,50,49,78,,24,24,40,62,38,19,0.5,0.7
2024-05-18T1000,1587A,109.9991,40.5842,包头市,包头八中,颗粒物(PM10),134,217,177,100,76,71,,24,24,44,60,38,24,0.7,0.8
2024-05-18T1000,1588A,109.8538,40.6821,包头市,青山宾馆,颗粒物(PM10),95,139,120,57,58,69,,18,18,46,53,39,19,0.6,0.7
2024-05-18T1000,1589A,109.8642,40.6288,包头市,惠龙物流,颗粒物(PM10),114,177,143,69,55,85,,28,28,36,58,22,22,0.6,0.8
2024-05-18T1000,1590A,110.0377,40.5546,包头市,东河鸿龙湾,颗粒物(PM10),122,193,157,48,42,72,,23,23,39,47,19,16,0.6,0.7
2024-05-18T1000,3283A,109.9154,40.5685,包头市,滨河大厦,颗粒物(PM10),116,181,135,68,53,78,,27,27,34,51,21,18,0.6,0.6
2024-05-18T1000,3419A,109.9447,40.6261,包头市,包头市委党校,颗粒物(PM10),144,238,148,56,45,84,,32,32,40,57,36,26,0.7,0.7
2024-05-18T1000,3683A,109.8331,40.6576,包头市,昆区政府,颗粒物(PM10),108,166,137,51,59,84,,23,23,37,61,26,21,0.4,0.7
2024-05-18T1000,1930A,107.185,34.3063,宝鸡市,庙沟村,,40,40,45,21,21,72,,100,91,13,8,9,9,0.6,0.5
2024-05-18T1000,1931A,107.0708,34.3017,宝鸡市,竹园沟,,45,45,42,25,24,88,,71,69,19,14,6,6,0.6,0.5
2024-05-18T1000,1932A,107.1906,34.3672,宝鸡市,三陆医院,颗粒物(PM10),64,78,70,26,30,58,,42,41,42,34,9,11,0.8,0.7
2024-05-18T1000,1933A,107.1431,34.3547,宝鸡市,监测站,颗粒物(PM10),58,65,56,27,25,69,,52,52,32,27,10,8,0.6,0.5
2024-05-18T1000,1934A,107.1186,34.3739,宝鸡市,技工学校,颗粒物(PM10),66,82,59,33,29,70,,55,55,30,21,9,9,0.7,0.5
2024-05-18T1000,1935A,107.3906,34.3528,宝鸡市,陈仓区环保局家属楼,细颗粒物(PM2.5),54,54,66,38,36,84,,51,51,27,35,41,31,0.6,0.5
2024-05-18T1000,1936A,107.2058,34.3497,宝鸡市,文理学院,颗粒物(PM10),52,54,59,24,29,78,,61,61,27,21,8,8,0.5,0.4
2024-05-18T1000,1937A,107.2386,34.3622,宝鸡市,三迪小学,颗粒物(PM10),61,72,65,28,31,73,,52,52,31,28,8,8,0.6,0.6
2024-05-18T1000,1051A,115.493,38.8632,保定市,游泳馆,颗粒物(PM10),96,142,132,55,45,168,,108,108,11,17,9,6,0.5,0.3
2024-05-18T1000,1052A,115.5213,38.8959,保定市,华电二区,颗粒物(PM10),81,111,84,48,36,142,,80,80,21,24,6,5,0.5,0.4
2024-05-18T1000,1053A,115.4713,38.9108,保定市,接待中心,颗粒物(PM10),68,86,76,46,34,154,,92,92,15,23,7,4,0.7,0.6
2024-05-18T1000,1054A,115.4612,38.8416,保定市,地表水厂,细颗粒物(PM2.5),85,107,88,63,54,164,,112,112,16,18,8,5,0.7,0.5
2024-05-18T1000,3581A,115.31981,38.95208,保定市,满城区生态环境分局,颗粒物(PM10),82,114,116,48,43,156,,90,90,13,29,8,4,0.6,0.4
2024-05-18T1000,3582A,115.47694,38.76408,保定市,清苑区第二中学,细颗粒物(PM2.5),78,90,94,57,42,157,,99,99,26,25,11,6,0.6,0.5
2024-05-18T1000,3583A,115.62909,39.02311,保定市,徐水物探局,细颗粒物(PM2.5),104,136,109,78,43,162,,92,92,20,23,12,9,0.6,0.3
2024-05-18T1000,4004A,115.4202,38.8656,保定市,双鹰农机,颗粒物(PM10),74,97,98,48,45,171,,110,110,17,32,12,8,0.3,0.2
2024-05-18T1000,4034A,115.5150,38.8590,保定市,植保所站,颗粒物(PM10),78,106,100,55,45,160,,100,100,22,27,10,6,0.7,0.5
2024-05-18T1000,2594A,99.1678,25.1081,保山市,市环境监测站,,36,26,36,25,19,63,,37,37,15,9,4,4,0.7,0.6
2024-05-18T1000,2595A,99.1711,25.1328,保山市,市环保局,,38,38,42,10,15,63,,40,40,13,7,5,4,0.7,0.6
2024-05-18T1000,1866A,109.2262,21.588,北海市,牛尾岭水库,,,,,,,,,,,,,,,,
2024-05-18T1000,1867A,109.1436,21.4086,北海市,海滩公园,,35,35,41,7,12,82,,80,80,4,5,7,7,0.5,0.6
2024-05-18T1000,1868A,109.0981,21.4661,北海市,新市环保局,,32,32,39,12,14,80,,82,81,8,6,5,5,0.6,0.6
2024-05-18T1000,1869A,109.1778,21.5233,北海市,北海工业园,,44,44,44,17,18,77,,74,74,7,6,9,7,0.6,0.6
2024-05-18T1000,3400A,109.1911,21.4415,北海市,龙潭自来水厂,,,36,39,15,18,75,,78,78,8,6,,6,0.5,0.5
2024-05-18T1000,1001A,116.3621,39.8784,北京市,万寿西宫,臭氧1小时,83,92,89,48,40,186,,139,139,20,23,7,5,1.1,0.8
2024-05-18T1000,1002A,116.2202,40.2915,北京市,定陵,"颗粒物(PM10),臭氧1小时",72,93,78,39,31,177,,104,104,12,14,5,3,0.9,0.7
2024-05-18T1000,1003A,116.4174,39.9289,北京市,东四,细颗粒物(PM2.5),80,106,99,59,44,155,,119,119,31,28,8,6,1.0,0.7
2024-05-18T1000,1004A,116.4072,39.8863,北京市,天坛,颗粒物(PM10),68,86,88,48,41,169,,114,114,21,24,8,6,1.1,0.8
2024-05-18T1000,1005A,116.462,39.9365,北京市,农展馆,"颗粒物(PM10),细颗粒物(PM2.5)",75,100,92,55,41,145,,98,98,25,26,7,5,1.1,0.8
2024-05-18T1000,1006A,116.3392,39.9295,北京市,官园,颗粒物(PM10),73,96,98,38,39,166,,129,129,24,23,9,6,0.9,0.6
2024-05-18T1000,1007A,116.2878,39.9611,北京市,海淀万柳,颗粒物(PM10),74,98,110,47,34,169,,101,101,28,31,12,9,0.9,0.6
2024-05-18T1000,1008A,116.6636,40.135,北京市,顺义新城,臭氧1小时,67,64,97,30,44,173,,94,94,12,21,7,5,0.8,0.8
2024-05-18T1000,1009A,116.6275,40.3275,北京市,怀柔镇,臭氧1小时,75,68,82,34,36,180,,123,123,9,13,8,7,0.9,0.9
2024-05-18T1000,1010A,116.2296,40.217,北京市,昌平镇,颗粒物(PM10),67,84,84,41,33,155,,111,111,20,22,6,4,0.8,0.7
2024-05-18T1000,1011A,116.3966,39.9821,北京市,奥体中心,颗粒物(PM10),64,78,88,41,38,151,,114,114,27,27,6,4,1.0,0.8
2024-05-18T1000,1012A,116.184,39.9136,北京市,古城,细颗粒物(PM2.5),88,121,102,65,40,136,,84,84,33,34,6,5,1.2,0.9
2024-05-18T1000,3281A,115.9718,40.4529,北京市,延庆夏都,臭氧1小时,78,77,75,43,32,182,,145,143,13,15,5,3,0.6,0.5
2024-05-18T1000,3417A,117.0709,40.1465,北京市,平谷新城,颗粒物(PM10),74,98,87,48,40,139,,107,107,18,14,2,5,0.8,0.8
2024-05-18T1000,3418A,116.8336,40.4095,北京市,密云新城,臭氧1小时,77,64,84,33,38,181,,106,106,9,15,5,4,0.8,0.7
2024-05-18T1000,3671A,116.088,39.9726,北京市,门头沟三家店,,,,,,,,,,,,,,,,
2024-05-18T1000,3672A,116.1541,39.8204,北京市,丰台云岗,颗粒物(PM10),71,91,95,37,39,151,,83,83,25,28,5,2,1.1,0.7
2024-05-18T1000,3673A,116.6804,39.9081,北京市,通州东关,颗粒物(PM10),75,100,104,50,44,158,,101,101,12,23,10,5,1.3,0.8
2024-05-18T1000,3674A,115.9577,39.7603,北京市,房山燕山,颗粒物(PM10),87,123,104,45,39,143,,90,90,30,26,7,3,0.8,0.5
2024-05-18T1000,3675A,116.4672,39.7733,北京市,大兴旧宫,颗粒物(PM10),67,84,84,46,40,163,,119,119,19,18,6,3,1.3,0.8
2024-05-18T1000,3694A,115.986,40.4563,北京市,延庆石河营,臭氧1小时,73,78,71,44,32,178,,133,132,11,15,3,2,0.6,0.5
2024-05-18T1000,3695A,116.6151,40.3053,北京市,怀柔新城,臭氧1小时,59,66,82,34,37,167,,118,118,12,15,3,3,0.9,0.8
2024-05-18T1000,3696A,116.2545,39.8768,北京市,丰台小屯,颗粒物(PM10),71,92,90,44,40,151,,95,95,24,25,6,4,0.9,0.7
2024-05-18T1000,3697A,116.84,40.3844,北京市,密云镇,臭氧1小时,62,71,82,41,38,169,,82,82,12,23,4,3,0.7,0.7
2024-05-18T1000,1761A,123.8275,41.3064,本溪市,大峪,,46,39,64,19,21,147,,151,144,7,9,10,11,0.6,0.6
2024-05-18T1000,1762A,123.7567,41.3325,本溪市,溪湖,,42,42,71,16,25,129,,149,138,11,15,12,15,0.6,0.9
2024-05-18T1000,1763A,123.7169,41.3094,本溪市,彩屯,,46,46,68,30,46,111,,127,118,25,29,18,19,1.6,1.9
2024-05-18T1000,1764A,123.7669,41.2864,本溪市,东明,,43,43,60,18,22,134,,157,146,9,11,10,12,0.6,0.6
2024-05-18T1000,1765A,123.7992,41.2664,本溪市,新立屯,,43,33,48,27,24,136,,158,147,6,9,11,13,0.9,0.9
2024-05-18T1000,1766A,123.8142,41.3472,本溪市,威宁,颗粒物(PM10),52,53,61,19,22,130,,126,123,15,16,8,8,0.5,0.5
2024-05-18T1000,2587A,105.2864,27.3125,毕节市,八中,,25,20,31,17,24,76,,87,87,11,11,4,5,0.6,0.6
2024-05-18T1000,2588A,105.31,27.2944,毕节市,师专,,25,23,31,16,23,77,,90,90,12,12,6,7,0.5,0.5
2024-05-18T1000,3537A,105.3631,27.3533,毕节市,长征村,,30,19,42,14,30,96,,105,105,9,8,6,7,0.5,0.5
2024-05-18T1000,1629A,118.0018,37.3617,滨州市,第二水厂,细颗粒物(PM2.5),104,153,103,78,55,203,,77,77,42,32,16,10,1.5,1.2
2024-05-18T1000,1630A,117.9776,37.393,滨州市,北中新校,颗粒物(PM10),111,171,108,78,53,185,,72,72,64,37,18,11,1.6,1.2
2024-05-18T1000,3514A,117.9378,37.3956,滨州市,中海酒店,臭氧1小时,120,171,99,83,53,239,,76,76,53,33,24,15,1.3,1
2024-05-18T1000,3515A,117.9378,37.3553,滨州市,开发区一中,颗粒物(PM10),106,161,112,73,51,180,,73,73,40,27,22,18,1.2,0.9
2024-05-18T1000,3516A,118.0917,37.694,滨州市,金海六路,颗粒物(PM10),87,124,106,56,47,170,,63,63,14,24,24,15,0.8,0.7
2024-05-18T1000,4028A,117.9956,37.3753,滨州市,滨州市西街道办事处,细颗粒物(PM2.5),122,158,103,92,60,200,,71,71,47,32,16,13,1.6,1.2
2024-05-18T1000,2311A,115.8072,33.8399,亳州市,污水处理厂,细颗粒物(PM2.5),82,98,68,60,38,141,,136,134,8,5,18,13,0.6,0.5
2024-05-18T1000,2312A,115.7789,33.8518,亳州市,三国揽胜宫,细颗粒物(PM2.5),63,74,75,45,38,149,,139,138,6,4,20,15,0.5,0.5
2024-05-18T1000,3332A,115.7633,33.8034,亳州市,亳州学院,颗粒物(PM10),60,69,68,39,34,143,,123,123,5,6,18,15,0.6,0.5
2024-05-18T1000,2693A,82.0485,44.8556,博尔塔拉蒙古自治州,市党校,,49,49,44,26,17,37,,30,24,11,10,6,7,0.3,0.3
2024-05-18T1000,2694A,82.0806,44.8969,博尔塔拉蒙古自治州,市环保局,,39,39,43,8,14,49,,35,32,24,16,12,9,0.5,0.4
2024-05-18T1000,1071A,116.8842,38.2991,沧州市,沧县城建局,颗粒物(PM10),67,84,87,38,42,144,,93,93,28,25,8,8,0.8,0.8
2024-05-18T1000,1072A,116.8584,38.3254,沧州市,电视转播站,颗粒物(PM10),68,86,87,48,47,117,,72,72,24,22,12,8,0.5,0.5
2024-05-18T1000,1073A,116.8709,38.3228,沧州市,市环保局,颗粒物(PM10),112,173,98,19,27,135,,85,85,26,24,10,9,0.5,0.6
2024-05-18T1000,3324A,116.8136,38.3004,沧州市,河北水利电力学院,颗粒物(PM10),73,95,82,43,42,148,,96,96,28,22,10,11,0.5,0.6
2024-05-18T1000,2622A,97.1806,31.1273,昌都市,昌都监测站,,33,12,7,9,5,104,,96,95,6,6,7,7,0.3,0.3
2024-05-18T1000,3719A,97.1714,31.1406,昌都市,昌都会议中心,,,,0,,4,,,,,,7,,8,,0.3
2024-05-18T1000,2690A,88.1236,43.8886,昌吉回族自治州,天山天池,,50,50,62,13,15,64,,42,42,5,5,6,6,0.5,0.5
2024-05-18T1000,2692A,87.2717,44.0297,昌吉回族自治州,新区政务中心,颗粒物(PM10),57,64,81,22,33,42,,50,42,23,14,12,8,0.5,0.3
2024-05-18T1000,3613A,87.3095,44.0142,昌吉回族自治州,亚心广场,颗粒物(PM10),58,66,89,19,21,64,,54,53,26,17,12,9,0.4,0.4
2024-05-18T1000,1119A,125.3325,43.9166,长春市,食品厂,,38,38,63,25,24,72,,132,114,27,23,8,9,0.2,0.4
2024-05-18T1000,1120A,125.2863,43.9027,长春市,客车厂,,39,39,60,14,22,82,,130,116,14,18,5,7,0.3,0.5
2024-05-18T1000,1121A,125.2841,43.8463,长春市,邮电学院,颗粒物(PM10),54,58,64,10,18,76,,135,122,16,17,8,10,0.2,0.5
2024-05-18T1000,1122A,125.3716,43.8772,长春市,劳动公园,,33,33,56,11,17,79,,142,129,19,16,5,7,0.4,0.5
2024-05-18T1000,1123A,125.3297,43.8805,长春市,园林处,,36,36,51,18,26,76,,132,117,20,19,7,9,0.2,0.4
2024-05-18T1000,1124A,125.4605,43.79,长春市,净月潭,颗粒物(PM10),53,56,55,18,19,80,,121,116,13,13,8,9,0.4,0.5
2024-05-18T1000,1125A,125.7194,43.515,长春市,甩湾子,,,,,,,,,,,,,,,,
2024-05-18T1000,1126A,125.3863,43.8447,长春市,经开区环卫处,,38,38,55,14,18,77,,131,122,18,19,6,8,0.4,0.6
2024-05-18T1000,1127A,125.245,43.7783,长春市,高新区管委会,颗粒物(PM10),57,63,51,18,19,83,,129,121,19,17,7,8,0.4,0.5
2024-05-18T1000,1128A,125.1761,43.8325,长春市,岱山公园,颗粒物(PM10),56,62,58,18,28,74,,125,115,22,23,6,8,0.3,0.4
2024-05-18T1000,1335A,113.0833,28.2325,长沙市,经开区环保局,细颗粒物(PM2.5),52,52,63,36,44,121,,99,99,8,8,9,9,0.5,0.5
2024-05-18T1000,1336A,112.8872,28.2189,长沙市,高开区环保局,颗粒物(PM10),51,51,63,34,38,123,,114,110,12,11,8,7,0.7,0.7
2024-05-18T1000,1337A,113.0792,28.2053,长沙市,马坡岭,细颗粒物(PM2.5),58,50,60,41,41,117,,89,89,7,7,10,10,0.6,0.6
2024-05-18T1000,1338A,112.9394,28.19,长沙市,湖南师范大学,"颗粒物(PM10),细颗粒物(PM2.5)",55,60,65,39,41,121,,104,102,9,8,3,3,0.8,0.8
2024-05-18T1000,1339A,113.0178,28.1322,长沙市,雨花区环保局,,50,49,62,35,37,126,,102,102,9,9,10,9,0.6,0.5
2024-05-18T1000,1340A,112.9792,28.2597,长沙市,伍家岭,颗粒物(PM10),51,52,64,33,33,125,,103,101,12,11,10,8,0.6,0.5
2024-05-18T1000,1341A,113.0014,28.1944,长沙市,火车新站,颗粒物(PM10),52,53,63,34,38,132,,103,103,13,13,7,7,0.9,0.9
2024-05-18T1000,1342A,112.9844,28.1178,长沙市,天心区环保局,颗粒物(PM10),55,60,67,37,42,117,,101,101,24,22,8,6,0.8,0.6
2024-05-18T1000,1343A,112.8908,28.1308,长沙市,湖南中医药大学,细颗粒物(PM2.5),55,53,63,39,40,123,,89,89,11,12,9,8,0.9,0.9
2024-05-18T1000,1344A,112.9581,28.3611,长沙市,沙坪,,47,47,58,32,34,124,,79,78,13,13,9,8,0.6,0.6
2024-05-18T1000,1727A,113.1147,36.1547,长治市,清华站,颗粒物(PM10),78,106,80,46,33,122,,92,82,38,23,15,12,0.9,0.7
2024-05-18T1000,1728A,113.1031,36.1989,长治市,监测站,颗粒物(PM10),67,84,81,41,34,131,,82,79,39,30,6,6,0.9,1.1
2024-05-18T1000,1730A,113.0886,36.2125,长治市,审计局,颗粒物(PM10),72,94,81,39,33,127,,95,88,30,22,17,16,0.7,0.9
2024-05-18T1000,1731A,113.0844,36.1856,长治市,长治八中,,,107,96,34,30,,,86,72,,32,,10,,1
2024-05-18T1000,2845A,113.1569,36.1911,长治市,德盛苑,颗粒物(PM10),77,104,75,41,32,138,,139,125,34,15,10,9,1.6,1.1
2024-05-18T1000,3568A,113.06,36.0464,长治市,向阳小学,"颗粒物(PM10),细颗粒物(PM2.5)",70,89,89,51,45,166,,135,130,15,16,16,15,0.7,0.6
2024-05-18T1000,3569A,112.8792,36.3144,长治市,屯留一中,颗粒物(PM10),69,87,77,44,34,162,,77,77,27,24,24,12,1.0,0.7
2024-05-18T1000,3570A,113.235,36.3489,长治市,潞城四中,颗粒物(PM10),94,137,102,69,47,168,,83,83,27,34,8,7,1.1,0.8
2024-05-18T1000,1854A,111.6975,28.9703,常德市,市二中,,43,43,46,30,29,109,,85,85,7,9,8,8,0.6,0.5
2024-05-18T1000,1857A,111.7158,29.1456,常德市,白鹤山,,,,,,,,,,,,,,,,
2024-05-18T1000,3138A,111.7153,29.0289,常德市,武陵区永安,,45,34,47,31,28,116,,88,88,10,8,8,8,0.4,0.4
2024-05-18T1000,3139A,111.6892,28.9881,常德市,鼎城区玉霞,,,46,51,27,28,112,,72,72,8,9,,7,0.5,0.4
2024-05-18T1000,3140A,111.6625,29.0531,常德市,武陵区长庚,,39,34,51,27,30,116,,94,94,6,7,8,9,0.6,0.5
2024-05-18T1000,1196A,119.9633,31.762,常州市,市监测站,颗粒物(PM10),67,83,65,39,28,129,,66,66,38,28,14,9,1.2,0.5
2024-05-18T1000,1200A,119.9468,31.7069,常州市,武进监测站,颗粒物(PM10),54,58,45,30,22,140,,75,75,21,20,7,8,0.6,0.5
2024-05-18T1000,1201A,119.9255,31.9087,常州市,安家,颗粒物(PM10),68,86,58,40,28,114,,52,52,47,29,11,8,1.0,0.6
2024-05-18T1000,3002A,119.9805,31.8174,常州市,行政中心,颗粒物(PM10),59,68,56,35,24,126,,56,56,33,27,17,13,0.6,0.4
2024-05-18T1000,3003A,120.0522,31.7748,常州市,经开区,颗粒物(PM10),67,84,60,30,24,127,,52,52,38,32,10,10,0.6,0.6
2024-05-18T1000,3010A,119.9025,31.7964,常州市,钟楼,颗粒物(PM10),67,84,53,38,24,122,,75,75,35,22,10,9,0.7,0.5
2024-05-18T1000,3429A,119.8598,31.7066,常州市,武进经发区,颗粒物(PM10),64,78,58,34,25,132,,73,73,23,23,14,10,0.6,0.5
2024-05-18T1000,3430A,119.5826,31.7245,常州市,金坛城区,颗粒物(PM10),52,54,43,35,20,134,,74,74,17,15,15,10,1.2,0.7
2024-05-18T1000,2220A,120.4318,41.5881,朝阳市,西梁,,43,36,32,26,25,136,,160,152,16,12,18,16,0.8,0.7
2024-05-18T1000,2221A,120.4521,41.5646,朝阳市,河畔小区,细颗粒物(PM2.5),68,69,63,49,49,150,,174,164,16,12,15,13,0.7,0.7
2024-05-18T1000,2222A,120.4176,41.5648,朝阳市,八里堡,颗粒物(PM10),59,67,66,22,28,142,,155,150,18,15,16,14,0.9,0.9
2024-05-18T1000,2223A,120.3806,41.5969,朝阳市,农业园区,颗粒物(PM10),69,88,93,32,39,134,,130,128,18,16,14,13,0.8,0.8
2024-05-18T1000,1705A,116.6367,23.6719,潮州市,西园路,颗粒物(PM10),52,53,55,33,29,76,,69,66,23,20,16,6,0.5,0.4
2024-05-18T1000,3026A,116.6183,23.6608,潮州市,市政府,,,80,61,37,27,89,,78,71,31,23,24,14,,0.5
2024-05-18T1000,4036A,116.6461,23.6761,潮州市,金山,颗粒物(PM10),57,63,56,37,32,75,,65,64,20,19,15,11,0.6,0.5
2024-05-18T1000,2472A,113.0073,25.9061,郴州市,马头岭,,41,41,43,15,18,98,,67,67,7,10,5,4,0.7,0.7
2024-05-18T1000,2473A,113.0116,25.8226,郴州市,市职中,,48,42,42,33,35,106,,66,66,11,15,7,6,0.6,0.8
2024-05-18T1000,2474A,113.0161,25.8001,郴州市,兴隆步行街,,44,44,54,26,33,113,,77,77,11,15,6,6,0.6,0.7
2024-05-18T1000,2475A,113.0383,25.8071,郴州市,市审计局,,46,42,43,32,36,123,,74,74,9,15,7,6,0.6,0.7
2024-05-18T1000,2476A,113.0348,25.7759,郴州市,市环保局,,41,41,51,25,41,118,,66,66,9,22,11,6,0.6,0.7
2024-05-18T1000,1431A,103.9728,30.7236,成都市,金泉两河,颗粒物(PM10),58,66,92,37,62,8,,17,9,45,33,3,5,0.6,0.5
2024-05-18T1000,1432A,104.176,30.6872,成都市,十里店,细颗粒物(PM2.5),82,80,100,60,62,74,,47,42,35,31,6,6,0.7,0.7
2024-05-18T1000,1433A,104.079,30.5706,成都市,三瓦窑,颗粒物(PM10),60,70,97,37,68,25,,25,21,49,44,7,7,0.7,0.7
2024-05-18T1000,1434A,104.1114,30.63,成都市,沙河铺,颗粒物(PM10),52,54,87,35,60,38,,37,30,43,34,6,6,0.7,0.8
2024-05-18T1000,1437A,104.0786,30.6531,成都市,君平街,颗粒物(PM10),61,72,101,42,66,14,,34,26,55,33,9,8,0.8,0.8
2024-05-18T1000,1438A,103.613,31.0283,成都市,灵岩寺,,,,,,,,,,,,,,,,
2024-05-18T1000,2880A,104.0239,30.65639,成都市,大石西路,颗粒物(PM10),58,65,95,18,62,6,,29,19,64,39,8,7,0.7,0.7
2024-05-18T1000,3136A,104.2725,30.5589,成都市,龙泉驿区区政府,,36,36,58,19,39,72,,63,60,20,15,6,5,0.6,0.6
2024-05-18T1000,3357A,104.0106,30.6931,成都市,金博路,细颗粒物(PM2.5),87,110,97,64,64,11,,28,15,46,29,4,5,0.8,0.7
2024-05-18T1000,3359A,104.0578,30.5225,成都市,华阳,颗粒物(PM10),57,63,75,39,54,45,,44,43,30,24,11,5,0.6,0.7
2024-05-18T1000,3487A,104.2394,30.5319,成都市,车城东七路,,28,28,80,18,55,72,,62,61,18,17,7,5,0.5,0.6
2024-05-18T1000,3488A,104.3853,30.7453,成都市,青白江技师分院,,37,37,64,22,42,69,,58,50,20,26,6,6,0.7,0.8
2024-05-18T1000,3489A,104.0789,30.4072,成都市,科学城,,33,33,74,21,52,63,,54,54,21,23,8,6,0.7,0.8
2024-05-18T1000,4011A,103.8506,30.6947,成都市,光华大道三段,细颗粒物(PM2.5),92,93,99,68,65,62,,22,22,27,30,1,4,0.9,0.9
2024-05-18T1000,1062A,117.9531,40.9081,承德市,铁路,颗粒物(PM10),61,72,64,32,27,145,,96,96,25,23,12,11,0.7,0.6
2024-05-18T1000,1063A,117.9392,40.9763,承德市,中国银行,颗粒物(PM10),56,62,64,14,26,158,,82,82,14,18,12,11,0.7,0.6
2024-05-18T1000,1064A,117.9503,40.928,承德市,开发区,颗粒物(PM10),61,72,65,29,26,143,,91,91,27,22,10,10,0.8,0.7
2024-05-18T1000,1065A,117.8051,40.9655,承德市,文化中心,颗粒物(PM10),76,101,73,27,31,177,,94,94,20,25,13,17,0.7,0.6
2024-05-18T1000,1066A,117.9268,41.0026,承德市,离宫,臭氧1小时,57,45,57,23,25,165,,98,98,10,14,5,5,0.6,0.5
2024-05-18T1000,2314A,117.47,30.6618,池州市,池州学院,颗粒物(PM10),52,53,61,32,33,127,,90,90,21,15,6,6,0.8,0.6
2024-05-18T1000,3237A,117.4918,30.6617,池州市,展览馆,颗粒物(PM10),54,58,60,37,28,131,,73,73,15,13,7,5,0.7,0.7
2024-05-18T1000,3333A,117.5627,30.695,池州市,第八中学,细颗粒物(PM2.5),67,66,62,48,38,136,,82,82,17,12,6,4,0.5,0.6
2024-05-18T1000,3334A,117.5038,30.6243,池州市,第十二中学,颗粒物(PM10),56,62,64,32,33,141,,76,76,16,20,11,6,0.7,0.9
2024-05-18T1000,1744A,118.9233,42.2816,赤峰市,松山一中,颗粒物(PM10),71,92,83,8,15,79,,121,101,18,20,10,11,0.3,0.5
2024-05-18T1000,1745A,118.9576,42.2728,赤峰市,哈达街,颗粒物(PM10),62,74,51,17,17,78,,117,100,21,25,10,12,0.4,0.5
2024-05-18T1000,1746A,118.8788,42.2554,赤峰市,天义路,,42,42,43,29,15,82,,124,105,17,19,6,8,0.3,0.4
2024-05-18T1000,3058A,119.2658,42.0353,赤峰市,银河街,颗粒物(PM10),108,166,93,39,41,84,,111,96,11,18,10,16,0.2,0.6
2024-05-18T1000,3286A,118.9359,42.3147,赤峰市,桥北物流园区,颗粒物(PM10),62,73,50,33,24,87,,119,104,11,21,5,6,0.4,0.5
2024-05-18T1000,2521A,107.3476,22.4136,崇左市,市环保局江州分局,颗粒物(PM10),55,60,40,26,20,58,,55,50,13,9,9,9,0.8,0.6
2024-05-18T1000,2522A,107.3702,22.3707,崇左市,城南新区,,46,46,36,23,18,50,,50,45,18,10,8,7,0.6,0.5
2024-05-18T1000,2298A,118.3093,32.3153,滁州市,老年大学,颗粒物(PM10),66,81,66,41,34,164,,99,99,31,20,26,13,1.0,0.8
2024-05-18T1000,2299A,118.3244,32.2786,滁州市,人大宾馆,细颗粒物(PM2.5),67,79,66,48,46,159,,90,90,34,26,26,13,1.1,0.9
2024-05-18T1000,3207A,118.3118,32.3038,滁州市,市政府原办公楼,细颗粒物(PM2.5),68,77,65,49,38,157,,97,97,34,23,26,13,1.1,0.9
2024-05-18T1000,3331A,118.3267,32.2634,滁州市,图书馆,颗粒物(PM10),69,87,67,46,36,153,,102,102,34,22,28,15,1.1,0.9
2024-05-18T1000,2605A,101.5482,25.0441,楚雄彝族自治州,州环境监测站,,34,31,21,20,15,106,,82,82,5,6,6,6,0.6,0.5
2024-05-18T1000,2606A,101.538,25.0492,楚雄彝族自治州,市经济开发区,,32,24,18,17,17,101,,,,8,6,5,4,0.7,0.5
2024-05-18T1000,2548A,107.5277,31.2827,达州市,达州职业技术学院,细颗粒物(PM2.5),97,97,60,72,36,60,,24,24,31,33,14,7,0.7,0.6
2024-05-18T1000,2549A,107.5086,31.2186,达州市,市环境监测站,细颗粒物(PM2.5),79,105,76,58,37,33,,26,25,57,41,14,8,0.8,0.7
2024-05-18T1000,2550A,107.4988,31.2132,达州市,凤凰小区,细颗粒物(PM2.5),83,107,75,61,40,44,,35,35,47,34,23,10,1.1,0.7
2024-05-18T1000,2551A,107.5082,31.1986,达州市,达县机关宾馆,颗粒物(PM10),70,90,77,50,42,42,,37,37,46,46,12,6,0.7,0.6
2024-05-18T1000,2552A,107.4644,31.2124,达州市,市政中心,细颗粒物(PM2.5),85,105,72,63,38,30,,29,29,57,42,34,12,1.8,0.9
2024-05-18T1000,2614A,100.1542,25.7054,大理白族自治州,大理市环境监测站,,42,42,28,15,15,65,,73,69,11,11,6,6,0.6,0.5
2024-05-18T1000,2615A,100.2171,25.5811,大理白族自治州,大理古城,,35,27,24,24,18,77,,72,72,15,12,9,8,0.8,0.8
2024-05-18T1000,1109A,121.612,38.9741,大连市,甘井子,,39,39,64,13,22,93,,90,90,22,25,9,9,0.4,0.5
2024-05-18T1000,1110A,121.565,38.9511,大连市,周水子,,39,39,58,17,23,88,,89,89,21,20,5,9,0.6,0.6
2024-05-18T1000,1111A,121.5637,38.8845,大连市,星海三站,,43,43,56,18,24,116,,103,101,10,11,7,7,0.5,0.6
2024-05-18T1000,1112A,121.6302,38.9117,大连市,青泥洼桥,,30,30,61,14,22,75,,91,88,12,18,8,8,0.8,0.7
2024-05-18T1000,1113A,121.6251,38.8638,大连市,傅家庄,,30,26,49,10,20,95,,108,104,13,14,9,9,0.4,0.5
2024-05-18T1000,1114A,121.5213,38.8661,大连市,七贤岭,,46,46,61,15,23,104,,102,102,16,17,9,9,0.4,0.4
2024-05-18T1000,1115A,121.2529,38.8061,大连市,旅顺,,45,45,51,17,20,128,,114,114,14,15,10,10,0.3,0.4
2024-05-18T1000,1116A,121.7485,39.1311,大连市,金州,,31,29,54,16,23,97,,97,96,9,10,8,8,0.5,0.6
2024-05-18T1000,1117A,121.7811,39.0496,大连市,开发区,,39,39,60,13,22,98,,95,95,15,19,7,7,0.5,0.6
2024-05-18T1000,1118A,121.9762,39.0631,大连市,双D港,,28,14,35,9,14,89,,102,97,14,11,8,8,0.5,0.6
2024-05-18T1000,1789A,124.81117,46.03138,大庆市,大同区,,,,63,,30,98,,89,89,,8,,9,0.3,0.5
2024-05-18T1000,1790A,125.129,46.533,大庆市,龙凤区,,36,36,49,21,28,96,,83,83,8,14,5,7,0.2,0.4
2024-05-18T1000,1791A,124.902,46.408,大庆市,红岗区,,32,30,47,13,18,102,,88,88,4,9,7,8,0.3,0.4
2024-05-18T1000,1792A,125.153,46.586,大庆市,萨尔图区,,26,25,49,15,18,83,,74,74,9,13,8,9,0.2,0.2
2024-05-18T1000,1793A,124.9042,46.6215,大庆市,让胡路区,,33,33,48,16,22,92,,81,81,5,8,4,6,0.2,0.3
2024-05-18T1000,3481A,125.141,46.634,大庆市,萨区政府监测点,,29,29,54,7,19,91,,77,77,7,10,7,9,0.4,0.3
2024-05-18T1000,1721A,113.3819,40.1097,大同市,果树场,,,,,,,,,,,,,,,,
2024-05-18T1000,1723A,113.2994,40.0758,大同市,云冈宾馆,颗粒物(PM10),69,88,79,44,34,124,,38,38,33,45,12,9,0.9,0.9
2024-05-18T1000,1724A,113.3444,40.0917,大同市,大同大学,颗粒物(PM10),64,78,79,34,31,134,,87,87,26,24,17,17,0.6,0.5
2024-05-18T1000,1725A,113.2661,40.1269,大同市,安家小村,,,107,72,46,32,,,90,90,34,23,15,13,0.5,0.3
2024-05-18T1000,1726A,113.2711,40.0844,大同市,教育学院,细颗粒物(PM2.5),95,112,99,71,39,122,,35,35,39,54,14,11,0.6,0.7
2024-05-18T1000,3282A,113.3397,40.0597,大同市,大同市卫生学校,颗粒物(PM10),61,72,66,33,23,134,,64,64,24,38,13,11,0.8,0.7
2024-05-18T1000,3565A,113.1367,40.1122,大同市,云冈站,颗粒物(PM10),88,126,91,50,45,114,,38,38,32,29,18,20,0.6,0.4
2024-05-18T1000,3566A,113.1186,40.2556,大同市,图书馆,颗粒物(PM10),96,142,99,68,36,100,,38,38,24,17,22,13,0.7,0.6
2024-05-18T1000,3567A,113.5931,40.0461,大同市,区一中,颗粒物(PM10),63,76,53,23,22,165,,118,118,18,20,9,7,0.5,0.4
2024-05-18T1000,3676A,113.2802,40.0995,大同市,第二人民医院,颗粒物(PM10),78,105,84,27,31,121,,71,71,30,36,14,13,0.6,0.5
2024-05-18T1000,2269A,124.1069,50.4097,大兴安岭地区,科技局,,25,,24,16,20,80,,85,82,3,5,1,2,0.1,0.2
2024-05-18T1000,3663A,124.1164,50.4278,大兴安岭地区,红旗社区,,26,,11,3,9,82,,87,84,3,6,6,7,0.4,0.4
2024-05-18T1000,1600A,124.3303,40.0625,丹东市,江湾东路,,39,39,57,16,21,107,,73,73,8,13,8,13,0.5,0.6
2024-05-18T1000,1601A,124.4256,40.1503,丹东市,临江后街,,35,30,36,13,13,112,,71,71,8,10,10,10,0.4,0.5
2024-05-18T1000,1602A,124.3933,40.1461,丹东市,元宝山,,32,32,35,14,12,100,,76,75,11,12,12,11,0.5,0.5
2024-05-18T1000,1603A,124.3633,40.1092,丹东市,民主桥,,,41,45,16,18,,,68,64,7,10,12,14,0.3,0.4
2024-05-18T1000,3541A,109.5726,19.5167,儋州市,第一中学子站,,,17,17,12,11,,,40,,2,4,3,4,0.6,0.5
2024-05-18T1000,3542A,109.5567,19.5187,儋州市,东坡学校子站,,26,26,21,8,9,50,,42,41,2,3,5,5,0.6,0.6
2024-05-18T1000,2616A,98.5842,24.428,德宏傣族景颇族自治州,德宏州监测站,细颗粒物(PM2.5),54,50,38,38,26,35,,23,23,12,14,2,3,0.9,0.9
2024-05-18T1000,3677A,98.5881,24.4368,德宏傣族景颇族自治州,芒市人民政府综合楼,,44,44,45,22,24,24,,17,17,12,11,5,4,0.8,0.7
2024-05-18T1000,1901A,104.4239,31.1208,德阳市,东山公园,颗粒物(PM10),69,88,80,31,38,45,,71,56,32,18,6,6,0.8,0.6
2024-05-18T1000,1902A,104.3826,31.1317,德阳市,西小区,颗粒物(PM10),80,110,84,58,49,36,,51,41,52,30,8,5,0.9,0.7
2024-05-18T1000,1904A,104.3553,31.1091,德阳市,耐火材料厂,颗粒物(PM10),80,110,90,53,49,40,,45,36,46,33,10,7,0.8,0.7
2024-05-18T1000,3639A,104.4019,31.1244,德阳市,市教育局,颗粒物(PM10),77,103,78,46,41,40,,59,48,42,24,7,6,0.8,0.7
2024-05-18T1000,1622A,116.3032,37.4674,德州市,儿童乐园,臭氧1小时,109,110,104,41,49,218,,129,129,16,30,12,12,0.9,1
2024-05-18T1000,1624A,116.2991,37.4451,德州市,监理站,臭氧1小时,114,102,103,44,54,227,,117,117,11,32,16,16,0.7,0.8
2024-05-18T1000,3066A,116.2721,37.4379,德州市,九衢泉纯净水厂,臭氧1小时,106,105,107,46,48,212,,89,89,16,45,11,9,0.7,0.8
2024-05-18T1000,3371A,116.3728,37.4403,德州市,开发区人民医院,臭氧1小时,103,110,100,41,44,206,,110,110,6,36,13,13,0.6,0.7
2024-05-18T1000,3372A,116.3572,37.4094,德州市,太阳城中学,臭氧1小时,98,95,94,41,45,198,,83,83,16,39,13,11,0.9,0.8
2024-05-18T1000,3511A,116.5652,37.3319,德州市,陵城艺术中心,颗粒物(PM10),75,100,100,34,48,179,,109,109,8,17,19,11,0.7,0.7
2024-05-18T1000,2621A,99.7056,27.8317,迪庆藏族自治州,迪庆州站,,47,47,25,30,14,83,,60,57,24,14,9,9,0.7,0.5
2024-05-18T1000,3180A,99.7136,27.8094,迪庆藏族自治州,质量技术监督局,,42,42,24,15,9,79,,74,65,21,12,8,7,0.6,0.4
2024-05-18T1000,2663A,104.6241,35.5734,定西市,东关小学,颗粒物(PM10),57,63,95,25,27,121,,79,79,13,16,5,5,0.3,0.3
2024-05-18T1000,2664A,104.6194,35.5934,定西市,供电公司,,40,40,67,19,30,119,,,,7,4,118,20,0.5,0.2
2024-05-18T1000,1389A,113.7547,23.0494,东莞市,莞城梨川,,35,31,66,17,33,112,,70,70,19,32,9,9,0.8,0.9
2024-05-18T1000,1390A,113.7944,23.0128,东莞市,东城石井,,37,30,60,18,33,118,,77,77,15,29,8,8,0.7,0.7
2024-05-18T1000,1391A,113.7383,22.9658,东莞市,南城西平,,41,41,75,25,39,102,,51,51,20,47,10,7,0.7,0.8
2024-05-18T1000,3319A,113.7338,23.0381,东莞市,万江金泰,,34,34,68,21,36,102,,63,63,16,31,8,9,0.7,0.8
2024-05-18T1000,3626A,113.7533,23.0202,东莞市,南城元岭,,38,31,71,17,36,120,,78,78,13,37,10,10,0.8,0.9
2024-05-18T1000,3627A,113.7875,23.0457,东莞市,东城主山,,37,27,62,18,34,117,,75,75,13,29,8,9,0.6,0.7
2024-05-18T1000,1666A,118.6614,37.4309,东营市,市环保局,细颗粒物(PM2.5),73,90,86,53,54,149,,72,72,24,26,16,14,0.6,0.5
2024-05-18T1000,3036A,118.6904,37.4338,东营市,开发区管委会,颗粒物(PM10),75,99,98,53,48,160,,82,82,25,27,13,13,0.8,0.7
2024-05-18T1000,3365A,118.5719,37.565,东营市,垦利区民丰路,,,119,97,56,43,,,60,57,27,26,,13,1.2,1
2024-05-18T1000,3498A,118.5055,37.8612,东营市,河口城区,臭氧1小时,93,112,90,63,48,194,,106,106,20,17,12,8,0.9,0.6
2024-05-18T1000,3646A,118.4978,37.4623,东营市,胜利站,细颗粒物(PM2.5),77,102,77,56,45,165,,76,76,35,30,11,11,1.3,1
2024-05-18T1000,3734A,118.35,37.26,东营市,理想之城,"颗粒物(PM10),细颗粒物(PM2.5)",85,119,97,63,49,153,,70,70,26,29,22,14,1.0,0.8
2024-05-18T1000,1591A,110.0023,39.8129,鄂尔多斯市,综合楼,颗粒物(PM10),118,185,202,48,61,103,,96,96,33,33,12,9,0.4,0.4
2024-05-18T1000,1592A,109.9486,39.8261,鄂尔多斯市,巴音孟克林场办事处,颗粒物(PM10),95,139,190,56,72,106,,95,95,26,29,11,10,0.5,0.6
2024-05-18T1000,1593A,109.7736,39.5986,鄂尔多斯市,康泽苑,颗粒物(PM10),102,153,160,73,75,92,,54,54,35,26,8,6,0.4,0.4
2024-05-18T1000,1594A,109.8119,39.5989,鄂尔多斯市,华泰汽车城,颗粒物(PM10),87,124,160,48,71,89,,28,28,28,41,10,7,0.4,0.5
2024-05-18T1000,1595A,109.9734,39.7884,鄂尔多斯市,奥林花园,颗粒物(PM10),111,171,187,63,72,92,,56,56,27,39,13,8,0.5,0.5
2024-05-18T1000,2436A,114.8938,30.3994,鄂州市,市政府,细颗粒物(PM2.5),57,59,69,40,36,149,,96,96,11,17,14,13,0.6,0.8
2024-05-18T1000,2437A,114.8989,30.3714,鄂州市,赵家坝,细颗粒物(PM2.5),65,71,74,47,37,140,,85,85,4,11,13,10,0.8,0.7
2024-05-18T1000,3654A,114.8094,30.4089,鄂州市,精准医疗中心,颗粒物(PM10),57,64,86,29,35,134,,97,97,17,20,9,11,0.7,0.6
2024-05-18T1000,2454A,109.4978,30.2981,恩施土家族苗族自治州,湖北民院,,46,46,49,31,33,48,,52,48,18,13,8,8,0.6,0.5
2024-05-18T1000,2455A,109.4707,30.2798,恩施土家族苗族自治州,州电力总公司,颗粒物(PM10),67,84,57,35,36,29,,23,21,29,24,9,9,0.7,0.6
2024-05-18T1000,3549A,109.5061,30.3772,恩施土家族苗族自治州,龙凤新区,,45,35,49,31,30,41,,52,44,17,13,6,6,0.7,0.7
2024-05-18T1000,2499A,108.3411,21.6158,防城港市,沙万,,20,20,46,14,19,41,,60,54,31,16,12,11,1.3,0.8
2024-05-18T1000,2500A,108.3514,21.7731,防城港市,防城档案局,,19,10,41,6,17,59,,56,54,10,14,3,6,0.5,0.8
2024-05-18T1000,2501A,108.3506,21.6414,防城港市,大海花园,,20,14,42,3,15,62,,63,62,12,12,5,7,0.5,0.6
2024-05-18T1000,1371A,113.1294,23.0067,佛山市,湾梁,,46,46,74,24,28,109,,60,60,21,38,6,6,0.4,0.5
2024-05-18T1000,1372A,113.1083,23.0478,佛山市,华材职中,,39,39,68,23,35,106,,50,50,23,42,4,4,0.5,0.6
2024-05-18T1000,1373A,113.144,23.0453,佛山市,南海气象局,,47,47,62,26,34,102,,41,41,31,41,6,5,0.5,0.6
2024-05-18T1000,1374A,113.2881,22.8094,佛山市,顺德苏岗,,46,46,61,29,31,78,,40,40,34,38,8,7,0.7,0.6
2024-05-18T1000,1376A,112.8383,22.8678,佛山市,高明孔堂,颗粒物(PM10),53,56,68,32,40,94,,54,54,39,34,9,9,0.6,0.6
2024-05-18T1000,1377A,112.8836,23.1588,佛山市,三水监测站,,48,48,72,24,37,72,,72,72,37,36,8,9,0.6,0.6
2024-05-18T1000,1378A,112.867,23.185,佛山市,三水云东海,,46,42,58,32,38,73,,72,72,34,31,6,5,0.6,0.7
2024-05-18T1000,3625A,113.2544,22.7642,佛山市,容桂街道办,颗粒物(PM10),56,61,64,34,29,84,,60,58,42,36,8,6,0.6,0.5
2024-05-18T1000,1280A,119.3903,26.0543,福州市,鼓山,,,,,,,,,,,,,,,,
2024-05-18T1000,1282A,119.2681,26.0504,福州市,师大,,40,40,41,11,14,106,,68,68,2,7,4,4,0.5,0.5
2024-05-18T1000,1283A,119.2984,26.1028,福州市,五四北路,,,,,17,15,103,,70,70,9,12,3,4,0.5,0.4
2024-05-18T1000,1284A,119.2648,26.0768,福州市,杨桥西路,,41,41,40,15,16,107,,60,60,7,13,4,4,0.5,0.4
2024-05-18T1000,1285A,119.317,26.0746,福州市,紫阳,,44,44,42,15,16,97,,70,70,9,10,3,4,0.5,0.4
2024-05-18T1000,3048A,119.5799,26.0936,福州市,九龙,,43,43,33,11,9,103,,82,82,2,4,5,5,0.4,0.3
2024-05-18T1000,3526A,119.5189,25.9664,福州市,吴航,,39,39,40,19,17,89,,39,39,12,13,6,4,0.6,0.5
2024-05-18T1000,1755A,123.7977,41.8491,抚顺市,望花区,颗粒物(PM10),55,60,62,30,29,160,,150,149,12,14,9,16,0.7,0.6
2024-05-18T1000,1756A,123.9161,41.8822,抚顺市,顺城区,颗粒物(PM10),53,56,58,22,24,152,,148,146,13,14,8,10,0.6,0.6
2024-05-18T1000,1757A,124.0436,41.8611,抚顺市,东洲区,,45,34,42,29,27,144,,144,140,6,10,8,10,0.4,0.4
2024-05-18T1000,1758A,123.9247,41.8642,抚顺市,新抚区,颗粒物(PM10),57,63,53,12,18,151,,126,126,10,14,8,10,0.5,0.6
2024-05-18T1000,1759A,124.0972,41.8961,抚顺市,大伙房水库,,48,32,47,24,22,153,,155,150,6,7,7,8,0.4,0.3
2024-05-18T1000,1760A,123.7086,41.8391,抚顺市,沈抚新城,颗粒物(PM10),75,99,61,26,24,149,,148,145,11,13,8,9,0.7,0.6
2024-05-18T1000,2376A,116.2127,28.0814,抚州市,桐源党溪,,46,46,44,27,24,111,,61,61,7,9,8,6,0.5,0.4
2024-05-18T1000,2377A,116.3544,27.9831,抚州市,市站,,50,50,46,26,25,114,,73,73,12,13,6,5,0.8,0.7
2024-05-18T1000,2378A,116.3565,27.963,抚州市,血防站,,43,43,47,27,26,123,,70,70,15,15,5,3,0.7,0.7
2024-05-18T1000,2379A,116.3564,28.0007,抚州市,采茶剧团,颗粒物(PM10),51,52,47,29,28,110,,70,70,13,12,7,3,0.9,0.9
2024-05-18T1000,2380A,116.385,27.9647,抚州市,医学分院,颗粒物(PM10),51,52,52,22,23,117,,63,63,13,16,4,4,0.9,0.9
2024-05-18T1000,2207A,121.6094,41.998,阜新市,工业园区,颗粒物(PM10),56,61,89,24,25,148,,141,136,16,16,15,14,0.9,0.7
2024-05-18T1000,2208A,121.6697,42.0279,阜新市,长青街,,48,48,64,30,28,146,,145,139,18,16,17,13,0.6,0.6
2024-05-18T1000,2209A,121.6673,42.0705,阜新市,农业园区,颗粒物(PM10),58,66,93,39,30,134,,127,127,15,15,5,8,0.7,0.6
2024-05-18T1000,2210A,121.6717,42.0224,阜新市,东苑,,,65,77,31,26,142,,144,137,20,18,,13,1.1,1
2024-05-18T1000,2211A,121.6506,42.0498,阜新市,玉龙新城,,44,44,76,29,21,134,,130,126,16,14,18,14,0.6,0.6
2024-05-18T1000,2301A,115.8277,32.8929,阜阳市,市监测站,颗粒物(PM10),60,69,74,39,39,150,,148,139,13,13,8,7,0.5,0.6
2024-05-18T1000,2303A,115.8554,32.8605,阜阳市,开发区,颗粒物(PM10),60,69,82,27,34,148,,140,136,6,9,7,7,0.5,0.5
2024-05-18T1000,2875A,115.784,32.8892,阜阳市,阜阳职业技术学院,颗粒物(PM10),58,65,75,35,34,159,,154,147,10,11,8,7,0.4,0.4
2024-05-18T1000,3468A,115.7901,32.8613,阜阳市,市规划展馆,颗粒物(PM10),70,89,85,39,41,152,,150,142,9,11,6,6,0.5,0.5
2024-05-18T1000,3469A,115.836,32.9183,阜阳市,枣园社区,颗粒物(PM10),70,89,75,36,40,149,,146,137,12,15,7,6,0.5,0.4
2024-05-18T1000,2669A,102.9099,34.9841,甘南藏族自治州,州政府,颗粒物(PM10),56,61,73,29,30,77,,44,44,15,19,9,8,0.4,0.4
2024-05-18T1000,3380A,102.8914,34.9617,甘南藏族自治州,甘肃民族师范学院,颗粒物(PM10),61,72,94,25,27,58,,29,29,26,30,9,8,0.4,0.3
2024-05-18T1000,2570A,101.9603,30.0475,甘孜藏族自治州,水桥子,,25,17,11,10,7,29,,45,45,50,27,3,3,0.4,0.3
2024-05-18T1000,3065A,101.9533,29.9972,甘孜藏族自治州,州环保局,,27,17,10,3,5,27,,54,50,53,23,2,2,0.3,0.2
2024-05-18T1000,3414A,115.8347,28.932,赣江新区,桑海产业园,颗粒物(PM10),62,73,72,35,34,109,,48,48,22,44,12,11,0.7,0.6
2024-05-18T1000,2362A,114.9017,25.9149,赣州市,通天岩,,,,,,,,,,,,,,,,
2024-05-18T1000,2363A,114.9367,25.8664,赣州市,地委,细颗粒物(PM2.5),54,,54,38,32,139,,70,70,8,17,16,15,0.7,0.6
2024-05-18T1000,2364A,114.9461,25.8481,赣州市,气象台,颗粒物(PM10),53,56,52,33,31,135,,70,70,15,15,12,9,0.8,0.6
2024-05-18T1000,2365A,114.9322,25.8333,赣州市,市图书馆,细颗粒物(PM2.5),53,51,52,37,30,130,,74,74,18,20,6,7,1.0,0.8
2024-05-18T1000,2366A,114.8905,25.8471,赣州市,华坚鞋城,,,69,64,38,35,,,62,62,20,22,,16,,0.6
2024-05-18T1000,3109A,115.0093,25.8613,赣州市,赣县区卫计委,细颗粒物(PM2.5),59,57,49,42,31,131,,71,71,17,20,6,5,0.7,0.6
2024-05-18T1000,2683A,106.2319,36.1417,固原市,马园,,42,42,69,28,25,134,,66,66,12,31,5,6,0.4,0.3
2024-05-18T1000,2684A,106.2792,36.0022,固原市,监测站,颗粒物(PM10),56,62,59,28,22,118,,84,84,22,22,4,4,0.3,0.3
2024-05-18T1000,2685A,106.2375,36.0211,固原市,新区,,49,49,59,15,19,133,,90,87,11,19,2,4,0.3,0.3
2024-05-18T1000,3522A,106.2177,35.9959,固原市,原州区十五小,,,,59,,25,125,,134,124,,10,3,6,0.2,0.1
2024-05-18T1000,2543A,106.6308,30.5278,广安市,小平旧居,,,,,,,,,,,,,,,,
2024-05-18T1000,2544A,106.6303,30.4576,广安市,市委,,48,38,69,33,35,88,,73,73,20,23,8,10,0.6,0.6
2024-05-18T1000,2545A,106.6271,30.4663,广安市,友谊中学,细颗粒物(PM2.5),58,,53,41,34,92,,82,82,25,22,8,8,0.7,0.6
2024-05-18T1000,2547A,106.6388,30.4551,广安市,广电花园,,46,45,60,32,36,77,,69,69,24,20,8,10,0.8,0.7
2024-05-18T1000,2902A,106.6351,30.4865,广安市,北辰小学,颗粒物(PM10),53,56,64,33,35,80,,73,73,25,18,9,10,0.6,0.6
2024-05-18T1000,2523A,105.8945,32.4535,广元市,黑石坡,,46,46,43,27,26,86,,96,90,18,12,10,8,0.5,0.4
2024-05-18T1000,2524A,105.821,32.4444,广元市,老城,颗粒物(PM10),70,90,70,47,35,60,,42,42,37,37,6,2,0.9,0.7
2024-05-18T1000,2526A,105.8628,32.4287,广元市,监测站,细颗粒物(PM2.5),84,76,57,62,43,66,,70,65,35,15,11,7,0.8,0.5
2024-05-18T1000,3617A,105.8047,32.4166,广元市,经开区,细颗粒物(PM2.5),115,118,81,87,55,64,,70,65,34,19,26,8,1.0,0.6
2024-05-18T1000,1345A,113.2347,23.1423,广州市,广雅中学,,35,31,63,18,36,112,,66,66,25,45,5,13,0.6,0.7
2024-05-18T1000,1346A,113.2612,23.105,广州市,市五中,,42,32,61,19,35,132,,84,84,12,31,5,6,0.5,0.6
2024-05-18T1000,1348A,113.3478,23.0916,广州市,广东商学院,,35,35,64,20,38,107,,66,66,26,47,5,6,0.6,0.7
2024-05-18T1000,1349A,113.4332,23.1047,广州市,市八十六中,,34,34,70,20,36,105,,54,54,29,55,6,7,0.7,0.9
2024-05-18T1000,1350A,113.3505,22.9483,广州市,番禺中学,,41,41,66,22,38,104,,57,54,29,43,7,7,0.5,0.6
2024-05-18T1000,1351A,113.2146,23.3916,广州市,花都师范,,35,35,67,21,34,85,,98,89,20,26,6,8,0.4,0.5
2024-05-18T1000,1352A,113.2597,23.1331,广州市,市监测站,,36,32,61,21,33,115,,69,69,20,41,5,5,0.5,0.6
2024-05-18T1000,1353A,113.5618,23.312,广州市,九龙镇镇龙,,32,27,62,20,37,102,,60,60,11,20,6,6,0.5,0.6
2024-05-18T1000,1354A,113.2765,23.1544,广州市,麓湖,,37,33,59,20,36,116,,56,56,18,42,6,6,0.6,0.7
2024-05-18T1000,1355A,113.443,23.3035,广州市,帽峰山森林公园,,28,26,48,19,30,78,,52,52,18,22,5,6,0.4,0.5
2024-05-18T1000,2846A,113.3221,23.1322,广州市,体育西,,38,28,64,18,37,119,,81,81,16,34,5,6,0.5,0.6
2024-05-18T1000,3298A,113.5717,23.5491,广州市,从化街口,,32,14,52,10,32,100,,68,68,13,22,6,6,0.6,0.7
2024-05-18T1000,3299A,113.3472,23.3692,广州市,白云竹料,,29,28,67,20,39,86,,74,74,18,25,4,6,0.5,0.6
2024-05-18T1000,3300A,113.2981,23.237,广州市,白云嘉禾,,37,37,73,20,37,91,,62,62,31,43,6,6,0.7,0.8
2024-05-18T1000,3301A,113.4256,23.1716,广州市,黄埔科学城,,34,30,69,17,39,108,,65,65,14,30,3,4,0.7,0.8
2024-05-18T1000,3302A,113.3942,23.0483,广州市,番禺大学城,,43,43,73,18,32,107,,53,53,25,49,7,8,0.5,0.6
2024-05-18T1000,3303A,113.4922,22.8168,广州市,南沙黄阁,颗粒物(PM10),59,68,62,36,31,69,,40,40,41,44,10,7,0.8,0.7
2024-05-18T1000,3304A,113.5342,22.7896,广州市,南沙街,细颗粒物(PM2.5),55,53,59,39,32,73,,42,42,41,34,11,8,0.7,0.7
2024-05-18T1000,3443A,113.2902,23.5544,广州市,花都梯面,,35,17,57,13,35,110,,71,71,7,25,4,6,0.5,0.6
2024-05-18T1000,3445A,113.7858,23.7478,广州市,从化良口,,35,14,29,9,17,110,,92,92,8,9,5,5,0.5,0.6
2024-05-18T1000,3446A,113.8051,23.2614,广州市,增城荔城,,31,31,46,21,25,89,,69,69,12,18,6,5,0.6,0.7
2024-05-18T1000,2505A,109.568,23.1478,贵港市,德智高中,,,,,,,,,,,,,,,,
2024-05-18T1000,2506A,109.6047,23.0666,贵港市,江南子站,细颗粒物(PM2.5),67,63,75,48,45,67,,92,85,25,19,9,11,0.8,0.7
2024-05-18T1000,2507A,109.6014,23.0948,贵港市,贵城子站,细颗粒物(PM2.5),68,68,72,49,46,74,,91,88,17,16,9,12,0.7,0.7
2024-05-18T1000,2508A,109.5669,23.1065,贵港市,荷城子站,细颗粒物(PM2.5),58,61,68,41,38,77,,94,90,16,15,10,14,0.5,0.5
2024-05-18T1000,3405A,109.5886,23.1172,贵港市,新世纪学校,细颗粒物(PM2.5),59,61,73,42,42,79,,94,90,16,15,10,14,0.9,0.8
2024-05-18T1000,1439A,106.6899,26.5998,贵阳市,马鞍山,,18,7,19,3,10,55,,43,43,13,15,2,3,0.7,0.7
2024-05-18T1000,1440A,106.6971,26.5694,贵阳市,市环保站,,18,,21,3,18,56,,49,49,22,19,3,4,0.6,0.6
2024-05-18T1000,1441A,106.6243,26.6266,贵阳市,鉴湖路,,20,6,18,3,11,62,,61,61,13,11,2,3,0.5,0.5
2024-05-18T1000,1442A,106.7487,26.6343,贵阳市,燕子冲,,19,,21,7,19,60,,47,47,9,15,9,6,0.4,0.6
2024-05-18T1000,1443A,106.6555,26.4365,贵阳市,碧云窝,,18,7,18,3,7,55,,53,53,17,10,4,6,0.7,0.6
2024-05-18T1000,1444A,106.694,26.5161,贵阳市,中院村,,,6,22,3,11,54,,49,49,17,16,6,8,,0.7
2024-05-18T1000,1445A,106.7109,26.6027,贵阳市,红边门,,19,9,25,9,21,59,,47,47,18,24,3,4,0.7,0.7
2024-05-18T1000,1446A,106.7164,26.5699,贵阳市,新华路,,17,,22,3,16,54,,50,50,16,17,2,4,0.6,0.5
2024-05-18T1000,1447A,106.674,26.5424,贵阳市,太慈桥,,17,6,20,3,10,52,,46,46,17,15,3,5,0.5,0.4
2024-05-18T1000,1552A,106.805,26.3003,贵阳市,桐木岭,,,,,,,,,,,,,,,,
2024-05-18T1000,1862A,110.4144,25.3167,桂林市,电子科大尧山校区,,48,42,55,33,39,62,,87,75,5,8,6,11,0.6,0.6
2024-05-18T1000,1863A,110.2819,25.2697,桂林市,监测站,颗粒物(PM10),63,76,68,42,56,61,,114,99,35,20,13,8,1.0,0.8
2024-05-18T1000,1864A,110.3089,25.2708,桂林市,龙隐路小学,细颗粒物(PM2.5),62,62,62,44,44,76,,113,102,21,16,17,8,0.9,0.9
2024-05-18T1000,1865A,110.2869,25.2178,桂林市,八中,细颗粒物(PM2.5),63,62,63,45,45,65,,112,104,26,20,13,8,0.9,0.9
2024-05-18T1000,3403A,110.1764,25.2381,桂林市,创业大厦,细颗粒物(PM2.5),83,63,61,61,51,85,,128,111,22,17,34,29,0.9,0.8
2024-05-18T1000,3531A,110.296,25.1253,桂林市,旅游学院,细颗粒物(PM2.5),62,,48,44,42,76,,112,107,10,13,7,8,0.6,0.7
2024-05-18T1000,2674A,100.2561,34.4714,果洛藏族自治州,玛沁县大武镇,,33,,11,7,13,103,,80,80,13,12,9,12,0.4,0.4
2024-05-18T1000,1129A,126.5422,45.755,哈尔滨市,岭北,,32,27,49,20,20,100,,104,91,8,16,10,12,0.5,0.6
2024-05-18T1000,1130A,126.561,45.8167,哈尔滨市,松北商大,,40,40,43,15,18,92,,86,74,8,16,4,6,0.3,0.5
2024-05-18T1000,1131A,126.979,45.5419,哈尔滨市,阿城会宁,,36,25,46,25,20,66,,78,76,21,13,8,10,0.5,0.6
2024-05-18T1000,1132A,126.599,45.7222,哈尔滨市,南岗学府路,,39,39,54,17,19,100,,106,92,8,16,4,6,0.4,0.5
2024-05-18T1000,1133A,126.689,45.7733,哈尔滨市,太平宏伟公园,颗粒物(PM10),51,51,67,21,24,100,,108,94,11,18,6,8,0.3,0.5
2024-05-18T1000,1134A,126.635,45.7667,哈尔滨市,道外承德广场,,41,41,56,28,39,97,,106,92,14,20,7,8,0.4,0.5
2024-05-18T1000,1135A,126.685,45.7319,哈尔滨市,香坊红旗大街,,40,39,32,28,26,97,,106,94,8,18,7,11,0.4,0.5
2024-05-18T1000,1136A,126.6411,45.7258,哈尔滨市,动力和平路,,46,46,76,21,31,94,,104,90,12,18,6,8,0.5,0.5
2024-05-18T1000,1137A,126.593,45.7478,哈尔滨市,道里建国路,,46,33,54,32,26,92,,100,87,14,19,7,10,0.2,0.4
2024-05-18T1000,1138A,126.615,45.61,哈尔滨市,平房东轻厂,颗粒物(PM10),65,79,88,21,33,94,,97,87,9,17,6,8,0.3,0.4
2024-05-18T1000,1139A,126.595,45.9855,哈尔滨市,呼兰师专,,34,34,52,15,25,97,,87,81,8,15,7,8,0.3,0.4
2024-05-18T1000,1140A,126.6206,45.6842,哈尔滨市,省农科院,,46,46,63,32,29,101,,104,94,7,18,7,9,0.3,0.4
2024-05-18T1000,2688A,93.5128,42.8172,哈密市,地区监测站,颗粒物(PM10),106,161,396,47,144,87,,88,86,5,12,3,3,0.4,0.3
2024-05-18T1000,2689A,93.4961,42.8328,哈密市,哈密师范学校,颗粒物(PM10),82,113,327,29,114,82,,87,85,6,11,4,6,0.3,0.3
2024-05-18T1000,2671A,100.9048,36.9639,海北藏族自治州,海晏县西海镇,,41,37,87,20,28,129,,142,139,9,9,14,13,0.4,0.4
2024-05-18T1000,3867A,102.0738,36.5056,海东市,平安区公安北苑,颗粒物(PM10),70,89,98,40,38,123,,110,110,15,17,12,10,0.6,0.5
2024-05-18T1000,1409A,110.576,19.9507,海口市,东寨港,,,,,,,,,,,,,,,,
2024-05-18T1000,1410A,110.3232,20.0574,海口市,海南大学,,30,30,30,15,11,69,,64,63,5,6,5,5,0.5,0.4
2024-05-18T1000,1411A,110.283,20.0053,海口市,秀英海南医院,,29,29,26,14,11,64,,48,48,8,10,4,4,0.3,0.3
2024-05-18T1000,1412A,110.338,19.9969,海口市,海南师范大学,,36,36,25,10,12,68,,54,53,3,4,6,6,0.4,0.4
2024-05-18T1000,1413A,110.33,20.0356,海口市,龙华路环保局宿舍,,32,32,27,13,12,61,,59,57,10,6,7,6,0.3,0.3
2024-05-18T1000,3539A,110.5111,19.9736,海口市,桂林洋子站,,21,14,25,6,9,67,,49,49,2,4,5,6,0.3,0.3
2024-05-18T1000,2673A,100.6188,36.2866,海南藏族自治州,共和县恰卜恰镇,,42,21,47,9,30,133,,137,134,7,11,12,10,0.5,0.5
2024-05-18T1000,2676A,97.3731,37.3753,海西蒙古族藏族自治州,德令哈市,,29,29,30,12,18,90,,93,92,22,12,5,6,0.9,0.6
2024-05-18T1000,1048A,114.5302,36.6116,邯郸市,东污水处理厂,细颗粒物(PM2.5),73,86,87,53,47,123,,33,33,29,48,15,10,1.0,0.6
2024-05-18T1000,1049A,114.4918,36.5713,邯郸市,矿院,颗粒物(PM10),99,148,88,39,41,142,,38,38,32,37,14,10,1.2,0.9
2024-05-18T1000,1050A,114.484,36.6133,邯郸市,丛台公园,颗粒物(PM10),67,83,97,47,42,140,,39,39,21,40,14,10,0.8,0.8
2024-05-18T1000,3458A,114.7895,36.5593,邯郸市,香泉濮院小区,颗粒物(PM10),92,134,106,41,39,177,,85,85,17,23,11,9,0.6,0.5
2024-05-18T1000,3579A,114.50634,36.77178,邯郸市,永年区实验高中,颗粒物(PM10),79,107,112,52,51,141,,40,40,25,40,16,12,0.6,0.5
2024-05-18T1000,3580A,114.20016,36.44293,邯郸市,峰峰矿区临水派出所,颗粒物(PM10),73,96,97,40,35,161,,127,117,12,12,25,18,1.7,1.2
2024-05-18T1000,2634A,106.9893,33.1842,汉中市,汉川机床厂子校,颗粒物(PM10),53,55,60,29,40,84,,67,66,12,13,7,7,0.8,0.8
2024-05-18T1000,2635A,107.0154,33.0706,汉中市,市监测站,细颗粒物(PM2.5),94,94,84,70,55,101,,68,68,21,15,17,12,1.1,0.9
2024-05-18T1000,2636A,107.0089,33.1138,汉中市,鑫源开发区,"颗粒物(PM10),细颗粒物(PM2.5)",62,73,83,44,51,77,,55,55,20,20,11,11,0.8,0.8
2024-05-18T1000,2637A,107.007,33.0323,汉中市,南郑大河坎水厂,细颗粒物(PM2.5),107,112,87,80,66,67,,41,40,20,14,15,10,1.1,0.8
2024-05-18T1000,1223A,120.2072,30.2111,杭州市,滨江,颗粒物(PM10),51,51,51,20,22,134,,87,87,20,20,5,5,0.6,0.6
2024-05-18T1000,1224A,120.0633,30.2747,杭州市,西溪,颗粒物(PM10),69,88,71,42,38,111,,36,36,29,23,6,6,0.8,0.7
2024-05-18T1000,1226A,120.3461,30.3153,杭州市,下沙,颗粒物(PM10),52,53,53,26,27,138,,64,64,18,41,9,9,0.5,0.5
2024-05-18T1000,1227A,120.1269,30.2456,杭州市,卧龙桥,"颗粒物(PM10),细颗粒物(PM2.5)",52,54,44,36,31,119,,51,51,26,20,5,5,0.7,0.6
2024-05-18T1000,1228A,120.1903,30.2692,杭州市,浙江农大,,49,49,50,31,28,129,,74,74,26,28,7,7,0.5,0.4
2024-05-18T1000,1230A,120.1197,30.3119,杭州市,和睦小学,"颗粒物(PM10),细颗粒物(PM2.5)",53,55,52,37,34,132,,72,72,30,29,5,5,0.7,0.6
2024-05-18T1000,1231A,120.3019,30.4183,杭州市,临平镇,颗粒物(PM10),51,52,57,25,26,133,,62,62,20,31,6,6,0.5,0.5
2024-05-18T1000,1232A,120.2697,30.1819,杭州市,城厢镇,颗粒物(PM10),54,57,53,30,34,121,,85,85,24,24,7,6,0.5,0.5
2024-05-18T1000,1233A,120.0883,30.1808,杭州市,云栖,颗粒物(PM10),52,54,49,35,28,115,,39,39,40,34,8,7,0.7,0.6
2024-05-18T1000,3557A,119.9464,30.0494,杭州市,镇二中,,48,44,51,33,37,122,,50,50,25,47,9,8,0.8,0.8
2024-05-18T1000,3558A,119.7183,30.2367,杭州市,市府大楼,颗粒物(PM10),52,54,53,34,30,108,,56,56,31,23,6,6,0.7,0.6
2024-05-18T1000,3656A,120.1556,30.2864,杭州市,消防大队,颗粒物(PM10),61,71,59,41,34,110,,63,63,31,33,7,7,0.8,0.6
2024-05-18T1000,1270A,117.1959,31.7848,合肥市,明珠广场,细颗粒物(PM2.5),73,92,84,53,46,147,,100,100,30,30,10,9,0.8,0.8
2024-05-18T1000,1271A,117.3072,31.8764,合肥市,三里街,颗粒物(PM10),69,88,86,41,42,146,,101,101,27,33,8,8,0.5,0.5
2024-05-18T1000,1272A,117.2588,31.8707,合肥市,琥珀山庄,颗粒物(PM10),68,85,79,39,35,162,,102,102,19,19,11,10,0.6,0.6
2024-05-18T1000,1273A,117.1604,31.9052,合肥市,董铺水库,细颗粒物(PM2.5),83,111,80,61,40,180,,116,116,18,17,2,2,0.6,0.5
2024-05-18T1000,1274A,117.25,31.8571,合肥市,长江中路,细颗粒物(PM2.5),72,92,86,52,47,142,,108,108,28,21,8,7,0.8,0.7
2024-05-18T1000,1275A,117.266,31.9436,合肥市,庐阳区,颗粒物(PM10),75,100,87,48,45,155,,85,85,20,24,6,5,0.5,0.4
2024-05-18T1000,1276A,117.336,31.8586,合肥市,瑶海区,颗粒物(PM10),67,83,84,42,49,140,,103,103,24,24,9,8,0.7,0.7
2024-05-18T1000,1277A,117.3027,31.7964,合肥市,包河区,颗粒物(PM10),63,75,76,41,42,151,,92,92,14,25,10,9,0.5,0.5
2024-05-18T1000,1278A,117.2776,31.7385,合肥市,滨湖新区,颗粒物(PM10),64,78,75,44,43,146,,119,119,14,13,9,8,0.6,0.5
2024-05-18T1000,1279A,117.1318,31.8403,合肥市,高新区,颗粒物(PM10),74,97,81,51,43,163,,115,115,24,23,9,8,0.9,0.8
2024-05-18T1000,3464A,117.3803,31.9147,合肥市,高教基地,颗粒物(PM10),63,75,76,35,45,140,,110,110,15,14,6,6,0.5,0.5
2024-05-18T1000,3614A,79.924,37.0877,和田地区,地区环保局,细颗粒物(PM2.5),186,307,254,140,76,54,,76,69,16,11,31,8,0.7,0.6
2024-05-18T1000,3615A,79.9131,37.113,和田地区,市环保局,颗粒物(PM10),158,265,231,76,66,38,,73,66,36,19,30,7,0.7,0.5
2024-05-18T1000,2516A,108.2011,24.715,河池市,东仁乐园,,44,44,55,19,23,8,,8,8,6,9,3,3,0.9,0.8
2024-05-18T1000,2517A,108.0497,24.6947,河池市,市环保站,,33,25,39,23,28,79,,72,72,18,17,7,8,0.6,0.6
2024-05-18T1000,2518A,108.0983,24.6989,河池市,市疾控中心,,33,26,40,23,28,72,,66,66,25,21,7,8,0.6,0.6
2024-05-18T1000,1696A,114.6778,23.7569,河源市,源西,,,,,,,,,,,,,,,,
2024-05-18T1000,1697A,114.6944,23.7586,河源市,东埔,,36,36,53,20,28,96,,64,64,14,21,6,7,0.6,0.7
2024-05-18T1000,1698A,114.6892,23.7233,河源市,老城,,30,25,45,16,24,95,,50,50,8,16,5,6,0.5,0.6
2024-05-18T1000,1718A,115.4208,35.2464,菏泽市,气象局,,,,114,,45,147,,104,104,16,24,7,8,0.4,0.6
2024-05-18T1000,1719A,115.4747,35.2375,菏泽市,市政协,,,,76,53,53,149,,104,104,10,21,8,8,0.3,0.4
2024-05-18T1000,3374A,115.5564,35.0891,菏泽市,定陶老年大学,颗粒物(PM10),70,90,91,29,33,141,,102,102,12,18,6,7,0.8,0.9
2024-05-18T1000,3647A,115.4702,35.2706,菏泽市,菏泽医专,颗粒物(PM10),78,106,104,42,36,129,,87,87,13,21,6,7,0.5,0.4
2024-05-18T1000,2514A,111.5264,24.4172,贺州市,环保小区,,30,,53,16,33,94,,82,82,12,17,8,8,0.6,0.6
2024-05-18T1000,2515A,111.5608,24.4078,贺州市,政协大楼,,31,31,54,18,30,94,,80,80,10,18,8,8,0.4,0.5
2024-05-18T1000,3534A,111.4744,24.4553,贺州市,西湾,,32,,55,22,36,81,,68,68,20,23,6,6,0.5,0.6
2024-05-18T1000,2385A,114.17,35.9019,鹤壁市,市监测站,颗粒物(PM10),90,130,102,61,50,163,,81,81,19,21,17,17,1.5,0.8
2024-05-18T1000,2386A,114.2956,35.7511,鹤壁市,市交警支队,颗粒物(PM10),90,130,103,58,45,156,,64,64,27,42,41,15,2.0,0.8
2024-05-18T1000,2387A,114.2878,35.7306,鹤壁市,迎宾馆,颗粒物(PM10),94,137,95,60,51,164,,79,79,24,30,46,18,2.0,0.9
2024-05-18T1000,3474A,114.2617,35.6822,鹤壁市,大新区,细颗粒物(PM2.5),123,161,99,93,47,153,,75,75,32,29,32,13,2.1,1
2024-05-18T1000,3596A,114.1572,35.9603,鹤壁市,南山宾馆,细颗粒物(PM2.5),83,114,105,61,46,179,,136,136,20,20,20,15,2.2,1.1
2024-05-18T1000,2244A,130.2537,47.3416,鹤岗市,哈啤分公司,,29,29,23,11,10,83,,84,84,4,8,12,13,0.6,0.7
2024-05-18T1000,2245A,130.2684,47.3086,鹤岗市,斯达机电,,35,35,29,11,13,81,,84,83,8,14,10,15,0.3,0.4
2024-05-18T1000,2246A,130.3114,47.3388,鹤岗市,东山纸板厂,颗粒物(PM10),59,68,33,12,15,86,,85,85,4,10,15,17,0.3,0.5
2024-05-18T1000,2247A,130.1097,47.3382,鹤岗市,五号水库,,30,26,24,9,7,95,,93,93,4,6,12,12,0.2,0.2
2024-05-18T1000,2263A,127.4833,50.2524,黑河市,交通局,,30,,32,21,21,72,,68,68,10,14,6,7,0.2,0.3
2024-05-18T1000,2264A,127.5144,50.2341,黑河市,环保局,,25,20,33,15,21,79,,71,71,6,10,3,4,0.3,0.4
2024-05-18T1000,2265A,127.5291,50.2472,黑河市,大黑河岛,,36,,27,25,21,86,,73,73,5,14,6,6,0.3,0.6
2024-05-18T1000,1074A,115.6838,37.7541,衡水市,电机北厂,臭氧1小时,102,87,91,37,47,204,,97,97,11,29,7,7,0.5,0.5
2024-05-18T1000,1075A,115.6303,37.7316,衡水市,市监测站,臭氧1小时,103,88,91,41,40,206,,113,113,20,30,9,8,0.7,0.7
2024-05-18T1000,3188A,115.6683,37.7217,衡水市,市城管局,臭氧1小时,102,88,88,,50,204,,105,105,16,28,7,5,0.6,0.5
2024-05-18T1000,3459A,115.5989,37.5491,衡水市,地表水厂,臭氧1小时,102,103,102,36,38,204,,69,69,13,49,7,10,0.5,0.5
2024-05-18T1000,2456A,112.5003,26.9167,衡阳市,原169医院,,47,47,47,29,34,80,,66,64,11,9,9,7,0.8,0.7
2024-05-18T1000,2457A,112.6194,26.9258,衡阳市,衡阳化工总厂,细颗粒物(PM2.5),62,68,57,44,37,88,,95,90,10,8,10,16,0.6,0.7
2024-05-18T1000,2458A,112.6211,26.8956,衡阳市,珠晖区环保局,颗粒物(PM10),54,57,54,34,34,101,,102,99,11,9,9,17,0.7,0.8
2024-05-18T1000,2459A,112.6197,26.8733,衡阳市,市委党校,,45,45,61,29,35,108,,93,93,10,11,5,17,0.6,0.7
2024-05-18T1000,2460A,112.6006,26.8919,衡阳市,市监测站,细颗粒物(PM2.5),58,51,52,41,39,103,,100,99,11,10,9,16,0.6,0.8
2024-05-18T1000,2461A,112.5664,26.9056,衡阳市,真空机电公司,颗粒物(PM10),57,64,52,34,33,75,,80,74,31,14,20,15,1.9,1
2024-05-18T1000,3399A,112.6703,26.882,衡阳市,师范学院,细颗粒物(PM2.5),59,54,51,42,37,92,,86,83,11,10,9,11,0.7,0.6
2024-05-18T1000,2608A,103.3772,23.3993,红河哈尼族彝族自治州,污水处理厂,,25,23,28,15,18,78,,70,70,7,6,7,7,0.5,0.5
2024-05-18T1000,2609A,103.3861,23.35,红河哈尼族彝族自治州,监测站,,25,12,22,7,11,77,,72,72,8,7,7,7,0.5,0.5
2024-05-18T1000,3038A,103.3758,23.368,红河哈尼族彝族自治州,州图书馆,,23,20,24,10,16,72,,67,67,7,6,4,4,0.4,0.4
2024-05-18T1000,1090A,111.6507,40.7517,呼和浩特市,呼市一监,颗粒物(PM10),119,188,125,75,40,77,,,,33,16,15,10,0.6,0.4
2024-05-18T1000,1091A,111.6572,40.8033,呼和浩特市,小召,颗粒物(PM10),119,188,136,58,48,70,,42,42,40,46,16,10,0.6,0.5
2024-05-18T1000,1094A,111.7516,40.8369,呼和浩特市,如意水处理厂,颗粒物(PM10),113,176,138,46,36,72,,33,33,38,44,15,8,0.6,0.4
2024-05-18T1000,1095A,111.7276,40.8062,呼和浩特市,二十九中,颗粒物(PM10),116,182,138,73,51,71,,38,38,39,43,11,6,0.6,0.5
2024-05-18T1000,1096A,111.5512,40.7866,呼和浩特市,工大金川校区,颗粒物(PM10),116,181,136,75,53,69,,27,27,43,49,18,8,0.6,0.4
2024-05-18T1000,1097A,111.717,40.7612,呼和浩特市,化肥厂生活区,颗粒物(PM10),123,196,163,75,62,71,,36,36,40,44,16,8,0.6,0.4
2024-05-18T1000,3698A,111.5968,40.8178,呼和浩特市,红旗小学,颗粒物(PM10),125,200,156,78,69,69,,28,28,48,54,15,6,0.7,0.5
2024-05-18T1000,3699A,111.6518,40.8389,呼和浩特市,海东办,颗粒物(PM10),117,183,158,,76,67,,19,19,42,51,17,8,0.6,0.5
2024-05-18T1000,2192A,119.7594,49.2261,呼伦贝尔市,区环保局,,28,28,37,19,25,83,,81,81,8,8,5,5,0.3,0.3
2024-05-18T1000,3061A,119.7512,49.1577,呼伦贝尔市,国华电力东,,27,19,36,12,19,85,,84,83,4,5,4,4,0.2,0.3
2024-05-18T1000,1250A,120.0751,30.8669,湖州市,城西水厂,颗粒物(PM10),67,84,58,47,31,114,,55,55,37,32,7,6,0.8,0.7
2024-05-18T1000,2873A,120.0875,30.8955,湖州市,仁皇山新区,细颗粒物(PM2.5),69,76,54,50,30,121,,56,56,36,32,9,6,0.8,0.7
2024-05-18T1000,2907A,120.1844,30.8596,湖州市,吴兴区站,颗粒物(PM10),61,72,51,43,25,128,,66,66,26,24,8,6,0.7,0.5
2024-05-18T1000,3562A,120.4148,30.8538,湖州市,南浔区站,颗粒物(PM10),52,53,55,33,27,114,,71,71,21,22,7,7,0.5,0.5
2024-05-18T1000,1607A,120.9092,40.7136,葫芦岛市,龙港区,颗粒物(PM10),58,65,62,30,28,122,,123,119,6,10,7,8,0.7,0.8
2024-05-18T1000,1608A,120.8392,40.7514,葫芦岛市,化工街,颗粒物(PM10),57,63,71,24,25,129,,117,117,13,18,12,12,1.2,1.3
2024-05-18T1000,1609A,120.8341,40.7073,葫芦岛市,新区,颗粒物(PM10),53,55,55,36,30,132,,127,127,8,11,8,9,0.7,0.7
2024-05-18T1000,1610A,120.8695,40.7677,葫芦岛市,东城区,,46,43,50,32,30,134,,120,120,9,15,7,7,0.8,0.8
2024-05-18T1000,2482A,109.5981,27.5721,怀化市,林科所,,31,31,38,20,21,84,,91,89,6,7,6,7,0.9,0.8
2024-05-18T1000,2483A,109.9453,27.5444,怀化市,河西地税局,,26,25,36,13,25,83,,78,77,8,8,6,7,0.6,0.6
2024-05-18T1000,2484A,109.9781,27.5342,怀化市,市四医院,,32,25,41,22,28,79,,77,76,16,14,4,5,0.8,0.7
2024-05-18T1000,2485A,109.9972,27.5578,怀化市,监测楼,,41,41,43,25,26,76,,69,67,11,11,8,8,0.7,0.7
2024-05-18T1000,2486A,110.0394,27.583,怀化市,市委党校,,36,31,40,25,26,74,,58,58,12,12,5,6,0.8,0.7
2024-05-18T1000,1210A,119.036,33.5981,淮安市,钵池山,"颗粒物(PM10),细颗粒物(PM2.5)",62,73,65,44,38,143,,104,103,27,22,12,10,0.9,0.8
2024-05-18T1000,1211A,119.007,33.575,淮安市,北京南路,"颗粒物(PM10),细颗粒物(PM2.5)",63,75,72,45,39,146,,106,104,28,22,12,10,0.7,0.6
2024-05-18T1000,1212A,118.989,33.6067,淮安市,市监测站,细颗粒物(PM2.5),73,92,68,53,39,139,,113,109,31,23,11,9,1.1,0.8
2024-05-18T1000,1213A,119.135,33.5039,淮安市,楚州区监测站,颗粒物(PM10),72,93,80,47,46,140,,60,60,32,40,12,11,1.0,0.8
2024-05-18T1000,1214A,119.0186,33.6297,淮安市,淮阴区监测站,颗粒物(PM10),67,83,72,46,42,147,,120,117,33,24,12,10,0.6,0.6
2024-05-18T1000,3426A,118.8755,33.2894,淮安市,新华书店,颗粒物(PM10),62,74,65,33,35,156,,107,107,23,21,11,8,0.8,0.7
2024-05-18T1000,2282A,116.8004,33.975,淮北市,监测站,,,96,93,,84,154,,123,123,11,13,10,8,0.7,0.6
2024-05-18T1000,2283A,116.8091,33.9007,淮北市,烈山区政府,颗粒物(PM10),74,98,102,33,38,139,,113,113,11,13,9,7,0.7,0.6
2024-05-18T1000,3330A,116.8873,33.9836,淮北市,杜集区检察院,"颗粒物(PM10),细颗粒物(PM2.5)",67,83,87,48,47,162,,135,135,9,13,8,7,0.7,0.7
2024-05-18T1000,4017A,116.7923,33.9535,淮北市,市博物馆,颗粒物(PM10),68,85,82,46,42,160,,124,124,10,10,8,8,0.8,0.7
2024-05-18T1000,2277A,116.8305,32.7727,淮南市,潘集区政府,细颗粒物(PM2.5),69,85,97,50,46,169,,102,102,13,17,8,9,0.4,0.4
2024-05-18T1000,2278A,117.0067,32.6524,淮南市,师范学院,颗粒物(PM10),67,84,86,43,47,165,,112,112,10,10,11,11,0.4,0.4
2024-05-18T1000,2279A,116.8569,32.5951,淮南市,谢家集区政府,颗粒物(PM10),59,68,80,31,29,163,,108,108,14,18,7,8,0.4,0.3
2024-05-18T1000,2280A,116.8281,32.633,淮南市,八公山区政府,细颗粒物(PM2.5),73,85,88,53,45,141,,101,101,11,13,6,6,0.6,0.5
2024-05-18T1000,2281A,116.6325,32.6201,淮南市,焦岗湖风景区管理处,颗粒物(PM10),59,68,70,32,18,105,,67,67,15,19,6,3,0.2,0.2
2024-05-18T1000,2894A,117.0566,32.6531,淮南市,经济技术开发区消防队,颗粒物(PM10),66,81,76,40,40,166,,97,97,12,16,6,6,0.4,0.4
2024-05-18T1000,3329A,117.0108,32.5893,淮南市,山南新区,细颗粒物(PM2.5),78,98,102,57,55,171,,113,113,15,14,7,7,0.5,0.4
2024-05-18T1000,2446A,114.9028,30.4742,黄冈市,职工中心,细颗粒物(PM2.5),79,100,87,58,48,128,,84,84,2,4,14,9,0.8,0.6
2024-05-18T1000,2929A,114.8858,30.4519,黄冈市,红卫路,颗粒物(PM10),67,84,77,46,42,126,,96,92,14,9,20,13,0.7,0.5
2024-05-18T1000,3398A,114.9136,30.4445,黄冈市,市林业局,细颗粒物(PM2.5),80,76,75,59,44,140,,101,98,12,9,16,6,0.4,0.4
2024-05-18T1000,2672A,102.0199,35.5102,黄南藏族自治州,同仁县隆务镇,,37,31,70,23,31,117,,114,112,1,3,9,9,0.7,0.6
2024-05-18T1000,2295A,118.2903,29.6963,黄山市,延安路89号,颗粒物(PM10),58,66,59,24,21,94,,48,48,14,10,6,5,0.6,0.5
2024-05-18T1000,2296A,118.327,29.7178,黄山市,黄山东路89号,颗粒物(PM10),51,51,46,24,23,126,,48,48,9,12,7,6,0.4,0.4
2024-05-18T1000,2297A,118.1371,30.2756,黄山市,黄山区政府5号楼,,35,35,46,21,28,95,,42,42,7,9,5,5,0.5,0.5
2024-05-18T1000,2423A,115.0601,30.2313,黄石市,沈家营,颗粒物(PM10),75,99,84,50,45,146,,82,82,28,25,37,25,0.8,0.7
2024-05-18T1000,2424A,115.0817,30.2006,黄石市,陈家湾,细颗粒物(PM2.5),78,103,80,57,42,141,,87,87,37,22,27,10,1.0,0.8
2024-05-18T1000,2426A,114.8988,30.2019,黄石市,铁山,颗粒物(PM10),60,70,65,37,36,159,,97,97,5,13,10,12,0.6,0.7
2024-05-18T1000,2427A,115.0307,30.2092,黄石市,团城山,颗粒物(PM10),85,119,91,55,40,133,,81,81,33,20,32,17,0.9,0.7
2024-05-18T1000,3149A,115.0235,30.1578,黄石市,笔架山北路,颗粒物(PM10),81,111,73,47,38,154,,96,96,18,14,21,15,1.1,0.8
2024-05-18T1000,1392A,114.4183,23.0528,惠州市,河南岸金山湖子站,,32,27,55,20,29,100,,58,58,14,20,6,6,0.5,0.5
2024-05-18T1000,1393A,114.4053,23.0822,惠州市,下埔横江三路子站,,36,34,54,25,29,98,,72,72,13,18,6,7,0.6,0.6
2024-05-18T1000,1394A,114.4103,23.1142,惠州市,江北云山西路子站,,31,31,53,21,27,95,,68,68,14,18,6,7,0.6,0.6
2024-05-18T1000,1395A,114.4645,22.7833,惠州市,惠阳区承修路船湖子站,颗粒物(PM10),51,51,44,28,23,65,,50,49,24,21,5,5,0.6,0.5
2024-05-18T1000,1396A,114.5317,22.7422,惠州市,大亚湾管委会子站,颗粒物(PM10),53,55,48,30,20,59,,50,48,26,27,5,5,0.7,0.6
2024-05-18T1000,3314A,114.4338,22.8134,惠州市,惠阳秋长,,46,46,53,23,24,102,,70,70,15,22,6,6,0.7,0.7
2024-05-18T1000,3452A,114.6517,22.775,惠州市,大亚湾霞涌,,37,37,33,25,18,63,,63,63,14,13,5,6,0.4,0.3
2024-05-18T1000,2240A,130.9762,45.3001,鸡西市,环保局,颗粒物(PM10),70,89,38,28,16,101,,87,87,14,13,7,6,0.7,0.6
2024-05-18T1000,2243A,130.9429,45.3039,鸡西市,第一中学,颗粒物(PM10),69,87,29,34,34,127,,104,104,8,5,8,8,0.5,0.3
2024-05-18T1000,3707A,131.0207,45.3073,鸡西市,欧美日汽修厂,颗粒物(PM10),92,134,58,39,25,105,,73,73,15,22,7,6,0.6,0.4
2024-05-18T1000,3709A,130.9967,45.3106,鸡西市,市政设施管理处,颗粒物(PM10),75,100,58,28,24,120,,78,78,14,21,8,8,0.6,0.5
2024-05-18T1000,2367A,114.9754,27.0803,吉安市,红声器材厂,颗粒物(PM10),60,70,56,42,28,115,,68,68,24,21,17,12,0.4,0.4
2024-05-18T1000,2368A,114.9658,27.0999,吉安市,市森林工业局,细颗粒物(PM2.5),57,57,53,40,33,111,,83,83,22,18,19,16,0.5,0.4
2024-05-18T1000,2369A,114.99,27.1312,吉安市,市环境监测站,,,59,50,34,28,133,,107,107,18,15,40,18,,0.7
2024-05-18T1000,2370A,115.0093,27.0968,吉安市,青原区法院,颗粒物(PM10),58,65,53,36,32,107,,64,64,26,26,26,14,0.6,0.5
2024-05-18T1000,1772A,126.54,43.8622,吉林市,哈达湾,颗粒物(PM10),65,79,39,32,17,128,,150,149,20,14,11,7,0.8,0.6
2024-05-18T1000,1773A,126.5844,43.8358,吉林市,东局子,颗粒物(PM10),70,89,44,33,18,134,,141,141,23,20,7,6,0.8,0.6
2024-05-18T1000,1774A,126.5052,43.8245,吉林市,电力学院,颗粒物(PM10),60,70,43,24,18,136,,142,142,18,18,11,9,0.8,0.6
2024-05-18T1000,1775A,126.6133,43.8972,吉林市,江北,颗粒物(PM10),61,71,43,33,19,110,,138,135,24,15,10,9,0.7,0.6
2024-05-18T1000,1776A,126.555,43.8306,吉林市,江南公园,颗粒物(PM10),55,59,39,31,20,128,,143,143,25,15,8,6,0.8,0.6
2024-05-18T1000,1778A,126.7061,43.7133,吉林市,丰满,,,,,,,,,,,,,,,,
2024-05-18T1000,2868A,126.4739,43.953,吉林市,九站,颗粒物(PM10),59,67,50,30,23,90,,144,136,28,16,26,8,0.7,0.6
2024-05-18T1000,1299A,116.9862,36.6114,济南市,科干所,颗粒物(PM10),85,119,104,44,43,178,,98,98,9,28,11,10,0.9,1.1
2024-05-18T1000,1300A,116.9376,36.665,济南市,农科所,颗粒物(PM10),78,105,108,34,41,173,,54,54,17,48,8,7,0.7,0.8
2024-05-18T1000,1301A,117.1265,36.6734,济南市,开发区,臭氧1小时,106,115,109,46,43,211,,109,109,25,39,11,10,0.9,0.9
2024-05-18T1000,1303A,117.0624,36.6868,济南市,省种子仓库,臭氧1小时,102,110,126,39,40,203,,71,71,19,55,8,7,0.6,0.7
2024-05-18T1000,1304A,116.9489,36.6447,济南市,机床二厂,颗粒物(PM10),81,112,134,42,48,97,,34,34,13,47,14,11,0.7,0.8
2024-05-18T1000,1305A,117.0495,36.663,济南市,市监测站,臭氧1小时,102,120,104,44,41,203,,111,111,36,45,12,12,0.7,0.7
2024-05-18T1000,1306A,116.7675,36.5484,济南市,长清党校,颗粒物(PM10),72,93,94,46,44,171,,117,117,12,23,12,10,0.8,0.8
2024-05-18T1000,1616A,117.6795,36.229,济南市,技术学院,颗粒物(PM10),79,107,98,48,45,172,,102,102,18,27,17,14,1.0,1
2024-05-18T1000,1961A,117.532,36.6868,济南市,东山小学,臭氧1小时,83,88,105,37,42,186,,112,112,11,25,11,8,0.6,0.6
2024-05-18T1000,3059A,117.7161,36.2049,济南市,泰兴公司,颗粒物(PM10),73,95,95,39,42,162,,72,72,17,39,14,11,0.8,0.7
2024-05-18T1000,3064A,117.6867,36.2171,济南市,莱芜战役纪念馆,,,,97,,41,,,147,,,27,,11,,0.7
2024-05-18T1000,3494A,117.1673,36.9782,济南市,济阳区政府,,,134,115,49,48,,,71,59,29,32,15,14,1.0,0.9
2024-05-18T1000,3495A,117.1171,36.63,济南市,锦屏中学,臭氧1小时,95,100,90,34,37,196,,128,128,12,14,10,9,0.5,0.5
2024-05-18T1000,3682A,116.9814,36.6819,济南市,济南四建,臭氧1小时,74,92,115,39,48,179,,50,50,19,61,12,10,0.8,1
2024-05-18T1000,1653A,116.6251,35.4302,济宁市,火炬城,颗粒物(PM10),69,88,88,41,37,137,,89,89,8,11,10,11,0.8,0.8
2024-05-18T1000,1655A,116.5491,35.4042,济宁市,电化厂,颗粒物(PM10),78,106,118,46,37,144,,104,104,6,15,9,8,0.9,0.9
2024-05-18T1000,3500A,116.5814,35.3707,济宁市,北湖一中,颗粒物(PM10),70,90,92,39,31,137,,102,102,8,11,12,11,0.4,0.5
2024-05-18T1000,3501A,116.8249,35.5593,济宁市,服务中心,颗粒物(PM10),66,81,88,41,35,139,,88,88,14,18,4,4,0.8,0.8
2024-05-18T1000,3678A,116.5907,35.4054,济宁市,市第七中学,颗粒物(PM10),88,125,100,36,36,153,,103,103,9,12,9,8,0.6,0.6
2024-05-18T1000,2255A,130.2751,46.8028,佳木斯市,佳纺,颗粒物(PM10),56,61,39,15,14,86,,112,105,6,5,4,4,0.4,0.4
2024-05-18T1000,2256A,130.3995,46.8307,佳木斯市,发电厂,,43,40,32,30,16,89,,117,110,5,7,6,6,0.3,0.3
2024-05-18T1000,2257A,130.3258,46.7975,佳木斯市,环保局,,37,37,30,23,14,87,,113,107,5,6,4,5,0.5,0.4
2024-05-18T1000,2258A,130.3648,46.8032,佳木斯市,十一中,细颗粒物(PM2.5),52,48,35,36,26,90,,115,110,8,10,5,6,0.5,0.5
2024-05-18T1000,2259A,130.3794,46.7588,佳木斯市,四丰,,28,,19,3,9,87,,117,112,6,5,12,2,0.6,0.5
2024-05-18T1000,1252A,120.7436,30.778,嘉兴市,清河小学,,42,32,45,10,16,133,,79,79,13,23,6,5,0.7,0.7
2024-05-18T1000,1253A,120.726,30.7478,嘉兴市,嘉兴学院,,40,40,44,17,20,120,,75,75,14,21,7,6,0.4,0.5
2024-05-18T1000,2872A,120.7846,30.7525,嘉兴市,南湖区残联,,50,50,51,17,23,148,,94,94,8,13,8,7,0.5,0.5
2024-05-18T1000,3407A,120.6916,30.7739,嘉兴市,秀洲住建,,43,43,44,20,19,128,,80,80,14,21,6,6,0.6,0.6
2024-05-18T1000,1945A,98.2908,39.7711,嘉峪关市,气象局,颗粒物(PM10),119,188,347,78,151,88,,90,90,20,11,19,9,0.5,0.4
2024-05-18T1000,2884A,98.2672,39.7978,嘉峪关市,酒钢宾馆,颗粒物(PM10),123,195,345,83,189,100,,94,94,13,7,20,10,0.4,0.4
2024-05-18T1000,3248A,98.2643,39.7724,嘉峪关市,雄关区,颗粒物(PM10),95,140,280,38,92,94,,92,92,11,9,9,7,0.5,0.5
2024-05-18T1000,1383A,113.1064,22.6058,江门市,北街,,38,38,48,20,25,97,,48,48,25,27,5,5,0.6,0.6
2024-05-18T1000,1384A,113.0731,22.5835,江门市,西区,,50,50,50,17,23,94,,53,53,23,23,7,7,0.5,0.5
2024-05-18T1000,1385A,113.0219,22.5311,江门市,圭峰西,颗粒物(PM10),51,51,43,30,22,91,,58,58,23,17,6,5,0.7,0.6
2024-05-18T1000,1386A,113.0828,22.5947,江门市,东湖,,41,41,52,23,27,90,,52,52,23,22,7,7,0.5,0.5
2024-05-18T1000,3311A,113.1075,22.5647,江门市,江海富民,颗粒物(PM10),58,66,67,23,23,92,,50,50,23,22,6,6,0.5,0.5
2024-05-18T1000,3449A,113.05,22.4667,江门市,新会银湖,,44,44,43,24,22,90,,51,51,16,21,7,6,0.6,0.6
2024-05-18T1000,1828A,113.227,35.2125,焦作市,市环保局,臭氧1小时,80,78,85,43,38,184,,120,120,14,17,10,7,0.7,0.6
2024-05-18T1000,1830A,113.1992,35.2590,焦作市,影视城,,,,,,,,,,,,,,,,
2024-05-18T1000,3169A,113.2725,35.2067,焦作市,太极体育中心,颗粒物(PM10),69,87,91,47,35,167,,127,125,21,14,22,14,0.5,0.4
2024-05-18T1000,3335A,113.3137,35.2641,焦作市,马村街道办,臭氧1小时,73,92,95,41,38,178,,136,136,13,14,23,10,0.6,0.7
2024-05-18T1000,3336A,113.2465,35.2373,焦作市,焦作技师学院,颗粒物(PM10),79,108,95,39,36,171,,134,134,15,14,10,5,0.6,0.6
2024-05-18T1000,3477A,113.1656,35.2539,焦作市,中站许衡医院,臭氧1小时,73,69,75,48,33,178,,151,148,15,16,15,12,0.8,0.6
2024-05-18T1000,3981A,113.2449,35.1803,焦作市,原李万街道办,颗粒物(PM10),83,116,81,41,35,165,,112,112,18,20,20,16,0.5,0.5
2024-05-18T1000,1708A,116.3701,23.5345,揭阳市,新兴,,50,50,47,22,24,114,,94,94,20,21,8,10,0.7,0.6
2024-05-18T1000,1709A,116.3264,23.5443,揭阳市,西马,颗粒物(PM10),54,58,54,26,25,99,,94,86,22,15,10,10,0.8,0.7
2024-05-18T1000,1710A,116.3611,23.5626,揭阳市,东兴,,,,57,,24,,,78,77,22,19,15,11,0.6,0.6
2024-05-18T1000,1711A,116.4151,23.5294,揭阳市,渔湖,颗粒物(PM10),68,85,55,32,25,96,,86,85,20,16,10,11,0.6,0.7
2024-05-18T1000,3320A,116.403,23.5699,揭阳市,曲溪,颗粒物(PM10),59,67,52,28,24,106,,89,85,20,21,8,11,0.6,0.6
2024-05-18T1000,1944A,102.1692,38.5167,金昌市,天庆家园,颗粒物(PM10),157,263,315,116,117,119,,130,130,15,8,7,10,0.8,0.6
2024-05-18T1000,3170A,102.1864,38.5253,金昌市,市委党校,颗粒物(PM10),181,311,384,111,123,129,,126,126,6,5,3,10,0.6,0.5
2024-05-18T1000,4022A,102.1647,38.5371,金昌市,金川区人防中心,细颗粒物(PM2.5),219,305,373,169,126,127,,124,124,8,6,11,11,0.4,0.4
2024-05-18T1000,1262A,119.647,29.077,金华市,十五中,,36,36,45,18,24,115,,89,89,12,17,4,5,0.4,0.5
2024-05-18T1000,1263A,119.686,29.1029,金华市,监测站,,,47,50,20,25,105,,71,69,15,23,,4,0.3,0.4
2024-05-18T1000,3659A,119.656,29.1131,金华市,气象局,,38,38,46,18,23,119,,68,68,13,32,5,6,0.1,0.3
2024-05-18T1000,1767A,121.1115,41.0879,锦州市,南山,细颗粒物(PM2.5),69,54,61,50,43,153,,130,130,13,17,13,13,0.7,0.6
2024-05-18T1000,1768A,121.0533,40.8434,锦州市,开发区,"颗粒物(PM10),细颗粒物(PM2.5)",60,70,75,43,42,127,,117,115,16,28,8,9,0.5,0.6
2024-05-18T1000,1769A,121.1836,41.1119,锦州市,百股街道,颗粒物(PM10),51,52,50,27,30,142,,135,130,17,18,10,11,0.6,0.7
2024-05-18T1000,1770A,121.1178,41.1222,锦州市,天安街道,颗粒物(PM10),54,57,64,36,34,146,,126,126,15,17,14,14,1.0,0.9
2024-05-18T1000,1771A,121.1303,41.1386,锦州市,北湖公园,细颗粒物(PM2.5),72,69,64,52,42,136,,125,122,17,19,14,14,0.9,0.8
2024-05-18T1000,2160A,112.85,35.5051,晋城市,自来水公司,颗粒物(PM10),75,100,86,41,32,164,,95,95,25,25,12,11,1.3,1
2024-05-18T1000,2161A,112.8318,35.4936,晋城市,白云商贸,臭氧1小时,69,84,74,39,29,175,,109,109,24,24,13,11,1.1,0.9
2024-05-18T1000,2162A,112.8508,35.4887,晋城市,市环保局,颗粒物(PM10),82,114,103,41,33,164,,83,83,26,29,11,12,1.0,0.9
2024-05-18T1000,2163A,112.8676,35.4897,晋城市,技术学院,颗粒物(PM10),68,86,76,34,31,153,,76,76,34,32,11,12,1.3,1.1
2024-05-18T1000,2165A,112.8453,35.546,晋城市,白马寺,,,,,,,,,,,,,,,,
2024-05-18T1000,3620A,112.8271,35.4828,晋城市,泽州一中,颗粒物(PM10),84,117,83,39,29,167,,114,114,30,24,12,11,1.5,1
2024-05-18T1000,2171A,112.7532,37.6945,晋中市,锦纶小区,颗粒物(PM10),79,107,73,34,23,163,,98,98,27,23,23,14,0.7,0.4
2024-05-18T1000,2173A,112.7249,37.7067,晋中市,南都小区,颗粒物(PM10),72,94,71,26,28,166,,104,104,23,25,20,12,0.8,0.5
2024-05-18T1000,2174A,112.6991,37.6982,晋中市,榆次区政府,颗粒物(PM10),76,102,69,30,25,163,,101,101,25,25,22,12,0.8,0.4
2024-05-18T1000,2865A,112.7195,37.6828,晋中市,榆次三中,颗粒物(PM10),87,124,78,46,27,168,,100,100,23,23,22,13,1.0,0.6
2024-05-18T1000,2439A,112.2014,31.0481,荆门市,竹园小学,细颗粒物(PM2.5),65,65,77,47,45,104,,96,90,15,15,10,11,0.6,0.6
2024-05-18T1000,2440A,112.1969,30.9891,荆门市,掇刀,细颗粒物(PM2.5),73,79,83,53,52,106,,95,91,16,17,14,13,0.7,0.6
2024-05-18T1000,2441A,112.2213,31.0386,荆门市,石化一小,细颗粒物(PM2.5),70,73,85,51,45,110,,92,91,19,17,12,17,0.7,0.7
2024-05-18T1000,3012A,112.1849,31.0362,荆门市,西山林语,细颗粒物(PM2.5),65,75,78,47,46,105,,91,86,14,14,15,15,0.6,0.5
2024-05-18T1000,3547A,112.1632,31.0138,荆门市,龙泉中学南校,颗粒物(PM10),58,65,79,35,41,104,,86,82,17,18,9,10,0.6,0.6
2024-05-18T1000,1844A,112.2494,30.3197,荆州市,市图书馆,细颗粒物(PM2.5),58,48,59,41,42,104,,88,86,16,17,9,8,0.6,0.6
2024-05-18T1000,1845A,112.2008,30.3544,荆州市,市委党校,,49,49,56,30,40,102,,92,89,14,15,10,10,0.7,0.6
2024-05-18T1000,3194A,112.2747,30.3122,荆州市,管委会,细颗粒物(PM2.5),59,53,58,42,38,104,,86,86,15,15,8,6,0.6,0.6
2024-05-18T1000,3548A,112.1655,30.3364,荆州市,学苑路,细颗粒物(PM2.5),55,42,46,39,41,110,,85,85,11,13,6,7,0.6,0.6
2024-05-18T1000,2342A,117.3102,29.3867,景德镇市,王港中学,,,,,,,,,,,,,,,,
2024-05-18T1000,2343A,117.2117,29.2933,景德镇市,老干部活动中心,,49,43,48,34,32,96,,59,59,13,31,8,10,0.3,0.4
2024-05-18T1000,2344A,117.1894,29.2789,景德镇市,兽医站,颗粒物(PM10),51,52,52,29,28,106,,64,64,16,13,8,10,0.5,0.5
2024-05-18T1000,2345A,117.1547,29.2617,景德镇市,台达陶瓷,,50,50,54,31,29,103,,62,62,15,24,10,15,0.3,0.4
2024-05-18T1000,2346A,117.2461,29.2956,景德镇市,陶研所,,40,40,46,23,25,117,,49,49,6,9,4,5,0.3,0.3
2024-05-18T1000,1803A,115.9872,29.6815,九江市,十里,颗粒物(PM10),54,58,63,34,38,130,,78,78,19,25,14,12,0.7,0.7
2024-05-18T1000,1804A,115.9584,29.7046,九江市,茅山头,细颗粒物(PM2.5),59,50,64,42,36,128,,69,69,17,37,10,9,0.6,0.7
2024-05-18T1000,1805A,115.9877,29.7295,九江市,西园,颗粒物(PM10),54,58,71,32,36,88,,41,41,38,36,24,27,0.7,0.7
2024-05-18T1000,1806A,116.0172,29.6547,九江市,五七二七厂,,47,47,51,29,30,138,,114,112,14,12,12,14,0.8,0.7
2024-05-18T1000,1808A,115.9114,29.6038,九江市,综合工业园,颗粒物(PM10),61,72,69,34,38,120,,90,90,22,25,8,9,1.0,0.9
2024-05-18T1000,1809A,116.0721,29.7535,九江市,石化总厂,颗粒物(PM10),53,55,68,32,40,116,,97,94,17,19,20,17,0.7,0.7
2024-05-18T1000,1810A,115.9773,29.5698,九江市,庐山气象台,,46,46,50,27,30,123,,141,135,5,4,9,15,0.8,0.7
2024-05-18T1000,3190A,116.0254,29.6994,九江市,外国语学校,颗粒物(PM10),52,53,64,33,40,122,,80,80,26,25,8,26,0.7,0.7
2024-05-18T1000,2658A,98.5061,39.7443,酒泉市,仓门街子站,颗粒物(PM10),120,190,420,35,114,92,,68,68,5,12,,11,0.3,0.3
2024-05-18T1000,2659A,98.4989,39.7256,酒泉市,油田生活基地,颗粒物(PM10),122,193,452,45,150,94,,72,72,8,12,2,3,0.2,0.3
2024-05-18T1000,2698A,76.0072,39.4467,喀什地区,巡警大队,颗粒物(PM10),81,112,170,17,26,48,,84,73,34,20,5,3,0.4,0.3
2024-05-18T1000,2699A,75.9755,39.4694,喀什地区,吾办,颗粒物(PM10),83,116,159,31,70,51,,82,69,27,17,6,5,0.6,0.5
2024-05-18T1000,4027A,75.9483,39.4689,喀什地区,老干局,颗粒物(PM10),65,79,180,13,36,60,,72,60,13,19,6,5,0.4,0.4
2024-05-18T1000,1824A,114.3389,34.7781,开封市,肿瘤医院,颗粒物(PM10),79,108,105,36,35,139,,91,91,14,24,3,5,0.5,0.6
2024-05-18T1000,1826A,114.2885,34.7965,开封市,世纪星幼儿园,,,105,102,33,56,136,,89,89,,16,2,4,0.5,0.5
2024-05-18T1000,3147A,114.3438,34.8106,开封市,龙亭公园,,,107,110,36,51,,,88,88,13,21,,7,0.7,0.7
2024-05-18T1000,3210A,114.3644,34.7964,开封市,汴京公园,颗粒物(PM10),76,102,100,45,49,140,,95,95,20,20,4,6,0.6,0.6
2024-05-18T1000,3473A,114.2485,34.8306,开封市,技师学院,颗粒物(PM10),79,108,96,42,46,145,,104,104,19,21,9,9,0.7,0.7
2024-05-18T1000,3592A,114.4644,34.7556,开封市,祥符区生态环境局,颗粒物(PM10),74,97,116,42,45,138,,90,90,10,32,7,7,0.5,0.6
2024-05-18T1000,1951A,84.895,45.6094,克拉玛依市,长征新村,,34,34,25,3,6,63,,71,70,9,6,8,8,0.2,0.2
2024-05-18T1000,1952A,84.8988,45.5893,克拉玛依市,南林小区,,26,26,28,11,14,68,,70,70,10,8,7,7,0.3,0.3
2024-05-18T1000,1954A,84.905,44.3396,克拉玛依市,独山子区,,50,50,45,16,26,81,,72,72,11,12,8,8,0.4,0.3
2024-05-18T1000,1955A,85.6979,46.098,克拉玛依市,乌尔禾区商贸楼,,24,21,20,3,7,74,,53,53,7,5,10,9,0.2,0.2
2024-05-18T1000,3612A,85.1045,45.6899,克拉玛依市,白碱滩区新站,,25,22,32,13,14,79,,76,76,5,5,8,8,0.2,0.2
2024-05-18T1000,2697A,76.1454,39.7142,克孜勒苏柯尔克孜自治州,市人民政府,颗粒物(PM10),53,56,127,22,47,95,,106,105,7,8,7,8,0.5,0.5
2024-05-18T1000,3665A,76.1658,39.7157,克孜勒苏柯尔克孜自治州,克州文化中心,颗粒物(PM10),55,60,123,23,46,97,,114,110,4,5,8,8,0.3,0.4
2024-05-18T1000,1450A,102.8204,24.8886,昆明市,呈贡新区,,30,21,29,21,21,86,,72,71,6,9,5,5,0.6,0.6
2024-05-18T1000,1451A,102.6251,24.9608,昆明市,西山森林公园,,,,,,,,,,,,,,,,
2024-05-18T1000,1452A,102.7252,25.0902,昆明市,龙泉镇,,30,26,28,21,17,85,,57,57,13,18,8,8,0.6,0.6
2024-05-18T1000,1453A,102.7266,25.0375,昆明市,东风东路,,30,30,32,21,20,84,,72,72,13,13,8,7,0.7,0.6
2024-05-18T1000,1454A,102.6742,25.0669,昆明市,金鼎山,,38,,30,26,23,87,,74,74,15,14,7,7,0.7,0.6
2024-05-18T1000,1455A,102.6644,25.0401,昆明市,碧鸡广场,,31,31,30,17,21,84,,69,68,12,14,6,5,0.6,0.6
2024-05-18T1000,3179A,102.7494,25.0119,昆明市,官渡区博物馆,,31,24,27,20,17,99,,83,83,11,10,11,9,0.6,0.6
2024-05-18T1000,3375A,102.8017,24.8336,昆明市,青年创业园,,32,29,26,22,22,98,,76,76,6,9,8,9,0.5,0.6
2024-05-18T1000,3550A,102.7997,24.9786,昆明市,昆明学院,,33,29,29,23,22,100,,77,77,9,11,8,8,0.6,0.6
2024-05-18T1000,3551A,102.5967,24.6736,昆明市,晋宁区生态环境分局,,35,,23,24,21,104,,74,74,4,8,2,2,0.7,0.8
2024-05-18T1000,3552A,102.6678,24.9856,昆明市,云天化总部,,35,30,25,24,18,100,,87,87,8,6,11,10,0.7,0.7
2024-05-18T1000,1456A,91.1319,29.6514,拉萨市,八廓街,,36,36,26,25,17,100,,119,110,8,5,5,7,0.6,0.4
2024-05-18T1000,1457A,91.1221,29.6747,拉萨市,市环保局,,47,47,27,22,15,92,,109,101,19,14,6,6,0.3,0.3
2024-05-18T1000,1458A,91.0874,29.6475,拉萨市,区监测站,,34,34,24,21,15,100,,112,106,16,12,5,5,0.1,0.2
2024-05-18T1000,1459A,91.1774,29.6541,拉萨市,西藏大学,,38,38,27,20,16,104,,114,108,7,5,4,4,0.3,0.3
2024-05-18T1000,1460A,90.9798,29.6588,拉萨市,区辐射站,,39,39,28,21,15,89,,97,91,24,14,18,7,0.4,0.4
2024-05-18T1000,1461A,91.0834,29.6292,拉萨市,拉萨火车站,,34,34,22,20,14,104,,123,113,11,6,6,6,0.1,0.1
2024-05-18T1000,2520A,109.2203,23.7256,来宾市,来宾技工学校,颗粒物(PM10),54,58,55,35,34,89,,77,77,15,14,4,5,0.7,0.7
2024-05-18T1000,3535A,109.1781,23.7297,来宾市,兴宾区政府,细颗粒物(PM2.5),57,47,51,40,33,84,,75,75,20,14,3,5,0.7,0.7
2024-05-18T1000,4002A,109.2416,23.7461,来宾市,中南小学,细颗粒物(PM2.5),52,48,54,36,32,79,,74,74,23,19,2,3,0.7,0.7
2024-05-18T1000,1476A,103.631,36.1031,兰州市,兰炼宾馆,颗粒物(PM10),64,78,83,31,42,91,,76,76,45,42,8,13,0.5,0.5
2024-05-18T1000,1477A,104.1373,35.9454,兰州市,榆中兰大校区,,,,,,,,,,,,,,,,
2024-05-18T1000,1478A,103.8412,36.0726,兰州市,生物制品所,颗粒物(PM10),60,69,78,39,43,98,,91,85,34,33,12,15,0.2,0.3
2024-05-18T1000,1479A,103.831,36.0464,兰州市,铁路设计院,,,98,74,28,34,82,,55,55,,53,7,13,0.6,0.5
2024-05-18T1000,3186A,103.7158,36.1058,兰州市,教育港,颗粒物(PM10),63,76,91,34,39,90,,51,51,38,37,9,12,0.4,0.5
2024-05-18T1000,3241A,103.7439,36.0842,兰州市,百合公园,颗粒物(PM10),59,68,71,29,33,74,,35,35,38,45,5,9,0.4,0.3
2024-05-18T1000,3242A,103.9611,35.998,兰州市,和平,颗粒物(PM10),60,69,86,31,32,116,,110,109,16,17,11,11,0.4,0.3
2024-05-18T1000,3245A,103.6633,36.533,兰州新区,新区管委会,颗粒物(PM10),56,61,69,35,32,124,,117,113,12,10,36,25,0.4,0.5
2024-05-18T1000,3246A,103.6975,36.4789,兰州新区,舟曲中学,颗粒物(PM10),60,70,89,23,40,140,,117,117,12,12,44,18,0.6,0.5
2024-05-18T1000,1067A,116.6708,39.5111,廊坊市,药材公司,,,,89,,44,,,146,,,12,,7,,0.6
2024-05-18T1000,1068A,116.7214,39.5589,廊坊市,开发区,颗粒物(PM10),89,128,101,54,43,151,,105,105,21,27,13,7,1.6,0.8
2024-05-18T1000,1070A,116.7244,39.5269,廊坊市,北华航天学院,颗粒物(PM10),95,139,107,70,49,142,,106,106,17,21,10,7,1.5,0.9
2024-05-18T1000,2919A,116.7022,39.5453,廊坊市,河北工业大学,颗粒物(PM10),84,118,100,61,44,145,,109,109,21,24,10,6,1.5,0.9
2024-05-18T1000,2535A,103.7723,29.5462,乐山市,花湖湾,,29,27,41,20,36,44,,43,37,18,28,14,5,0.7,0.8
2024-05-18T1000,2536A,103.7627,29.5844,乐山市,牛耳桥,,32,32,59,18,38,49,,46,41,26,35,25,10,0.6,0.7
2024-05-18T1000,2537A,103.7508,29.6006,乐山市,市第三水厂,,33,33,53,22,37,53,,48,42,24,33,15,9,0.5,0.6
2024-05-18T1000,2538A,103.7571,29.5664,乐山市,市监测站,,29,26,55,20,37,64,,57,55,14,28,22,12,0.6,0.9
2024-05-18T1000,3361A,103.7311,29.5628,乐山市,理工大学,,28,28,54,19,38,59,,57,54,16,28,28,12,0.6,0.7
2024-05-18T1000,2598A,100.2143,26.8576,丽江市,西南郊,,,,,,,,,,,,,,,,
2024-05-18T1000,2599A,100.2497,26.8802,丽江市,丽江古城,颗粒物(PM10),76,102,32,20,16,117,,104,104,9,10,6,6,0.5,0.5
2024-05-18T1000,2600A,100.2203,26.8906,丽江市,市中心,,37,16,16,8,9,116,,107,107,10,9,9,8,0.6,0.6
2024-05-18T1000,1267A,119.914,28.4514,丽水市,监测站大楼,,43,43,33,26,20,104,,70,69,12,13,4,3,0.5,0.4
2024-05-18T1000,1268A,119.93,28.4586,丽水市,莲都小学,,49,45,36,34,19,103,,51,51,12,16,4,4,0.4,0.3
2024-05-18T1000,1269A,119.879,28.4231,丽水市,余庄前,,36,36,27,18,12,104,,43,43,13,10,4,4,0.5,0.4
2024-05-18T1000,1173A,119.176,34.5885,连云港市,市环境监测站,细颗粒物(PM2.5),83,88,75,61,41,133,,110,108,25,18,11,10,0.5,0.4
2024-05-18T1000,3000A,119.3581,34.6972,连云港市,德源药业,,,,68,53,36,128,,121,116,29,17,13,10,0.8,0.6
2024-05-18T1000,3007A,119.178,34.844,连云港市,新城一中,臭氧1小时,70,69,70,43,36,176,,137,137,21,16,13,9,1.0,0.8
2024-05-18T1000,3008A,119.3608,34.7519,连云港市,胡沟管理处,臭氧1小时,59,63,66,36,28,167,,163,160,14,9,11,10,0.6,0.5
2024-05-18T1000,3009A,119.1478,34.5911,连云港市,矿山设计院,颗粒物(PM10),75,100,78,48,38,130,,111,110,27,18,12,9,0.9,0.8
2024-05-18T1000,3434A,119.2413,34.6539,连云港市,工贸学校,,,89,80,46,38,165,,164,162,,12,12,10,,0.7
2024-05-18T1000,3664A,119.4172,34.7341,连云港市,连云街道,细颗粒物(PM2.5),82,112,78,60,35,113,,178,167,76,13,10,7,0.7,0.6
2024-05-18T1000,2571A,102.3431,27.8099,凉山彝族自治州,青龙寺,,24,12,12,8,10,75,,60,56,10,7,10,7,0.6,0.5
2024-05-18T1000,2572A,102.2721,27.8415,凉山彝族自治州,邛海宾馆,,21,15,11,3,8,65,,75,70,18,9,12,10,0.6,0.6
2024-05-18T1000,2573A,102.2625,27.898,凉山彝族自治州,西昌市政府,,22,14,13,9,9,70,,61,56,14,8,16,12,0.6,0.5
2024-05-18T1000,2574A,102.2685,27.8851,凉山彝族自治州,凉山州政府,,22,17,14,10,9,69,,63,59,16,10,11,9,0.6,0.5
2024-05-18T1000,2575A,102.237,27.8914,凉山彝族自治州,长安,,20,17,18,9,8,62,,62,56,26,15,12,11,0.6,0.6
2024-05-18T1000,2212A,123.2,41.1953,辽阳市,宏伟区,,39,27,41,14,22,123,,142,132,7,9,10,11,0.6,0.6
2024-05-18T1000,2213A,123.1683,41.2495,辽阳市,新华园,,43,34,46,16,22,135,,151,142,9,14,10,12,0.6,0.6
2024-05-18T1000,2214A,123.2354,41.2639,辽阳市,滨河路,,46,46,49,6,18,124,,147,137,8,10,8,10,0.4,0.5
2024-05-18T1000,2215A,123.149,41.2991,辽阳市,铁西工业园,,41,32,54,20,22,130,,147,138,10,14,10,12,0.7,0.7
2024-05-18T1000,2227A,125.1358,42.8845,辽源市,环保局,臭氧1小时,75,41,32,21,18,180,,158,158,9,12,8,8,0.7,0.6
2024-05-18T1000,3239A,125.0764,42.9078,辽源市,银鹰制药,臭氧1小时,67,48,42,24,19,173,,150,150,11,20,8,11,0.8,0.7
2024-05-18T1000,1625A,115.9848,36.4372,聊城市,区政府,颗粒物(PM10),95,139,109,58,43,169,,99,99,24,35,16,12,1.2,1.2
2024-05-18T1000,2878A,116.0072,36.4343,聊城市,聊大东校,颗粒物(PM10),86,121,105,53,54,177,,102,102,19,38,8,10,0.8,0.8
2024-05-18T1000,3200A,115.9819,36.4978,聊城市,监控中心,颗粒物(PM10),97,143,119,31,35,182,,85,85,25,58,13,13,0.9,0.8
2024-05-18T1000,3513A,116.0445,36.4361,聊城市,九州社区,颗粒物(PM10),84,118,121,42,42,152,,80,80,15,34,9,10,0.7,0.7
2024-05-18T1000,4018A,116.0567,36.4608,聊城市,星美广场,颗粒物(PM10),96,141,126,56,54,163,,104,104,17,29,11,12,0.9,0.8
2024-05-18T1000,2632A,94.3681,29.6376,林芝市,林芝监测站,,21,,9,13,10,66,,57,55,3,4,6,6,0.5,0.6
2024-05-18T1000,2633A,94.3616,29.6616,林芝市,林芝人民医院,,20,13,8,7,9,64,,56,52,6,6,7,7,0.3,0.3
2024-05-18T1000,2603A,100.0781,23.8982,临沧市,市环保局,,42,42,39,25,26,45,,31,30,15,11,7,7,0.6,0.5
2024-05-18T1000,2604A,100.0894,23.8822,临沧市,市气象局,细颗粒物(PM2.5),54,49,39,38,32,43,,36,34,19,13,10,8,0.8,0.7
2024-05-18T1000,1733A,111.5531,36.0783,临汾市,临钢医院,颗粒物(PM10),87,124,103,35,44,125,,58,58,28,29,9,7,0.9,0.8
2024-05-18T1000,1734A,111.5028,36.0714,临汾市,技工学校,颗粒物(PM10),82,114,122,46,43,155,,81,81,25,34,10,10,0.9,0.8
2024-05-18T1000,1736A,111.5018,36.0855,临汾市,市委,颗粒物(PM10),81,112,120,48,40,151,,87,87,24,31,14,14,1.0,0.9
2024-05-18T1000,3018A,111.505,36.1014,临汾市,唐尧大酒店,颗粒物(PM10),94,138,127,50,40,132,,78,78,22,27,11,10,0.8,0.7
2024-05-18T1000,3668A,111.5036,36.0414,临汾市,城南,细颗粒物(PM2.5),92,122,119,68,56,161,,59,59,19,32,13,12,0.9,0.8
2024-05-18T1000,2667A,103.2069,35.5993,临夏回族自治州,环保局,颗粒物(PM10),90,129,130,59,45,41,,52,47,37,23,6,5,0.8,0.5
2024-05-18T1000,2668A,103.2417,35.6057,临夏回族自治州,建设大厦,颗粒物(PM10),65,79,111,42,45,53,,52,50,31,25,10,11,0.6,0.5
2024-05-18T1000,1618A,118.3429,35.0532,临沂市,沂河小区,颗粒物(PM10),98,146,94,55,52,152,,116,116,32,20,22,15,0.7,0.5
2024-05-18T1000,1619A,118.295,35.0583,临沂市,鲁南制药厂,,,66,59,44,42,,,122,120,14,15,16,14,0.6,0.6
2024-05-18T1000,1620A,118.2794,34.9976,临沂市,新光毛纺厂,颗粒物(PM10),71,92,83,46,40,164,,118,118,16,16,16,13,0.8,0.7
2024-05-18T1000,1621A,118.3956,35.0888,临沂市,河东保险公司,颗粒物(PM10),75,100,80,52,35,146,,113,112,25,15,18,12,0.7,0.4
2024-05-18T1000,3370A,118.3564,35.0215,临沂市,十里堡居委,颗粒物(PM10),63,75,68,41,42,156,,120,120,25,16,16,11,0.9,0.7
2024-05-18T1000,3496A,118.3604,35.1084,临沂市,南坊新区,颗粒物(PM10),71,92,88,48,37,156,,119,119,30,20,19,13,1.0,0.8
2024-05-18T1000,3860A,118.3920,35.0300,临沂市,皇山花园小区,颗粒物(PM10),75,100,88,54,40,162,,121,121,30,23,20,15,1.1,0.8
2024-05-18T1000,1870A,109.4856,24.3895,柳州市,柳东小学,,42,42,48,26,33,72,,113,98,13,16,5,7,0.7,0.6
2024-05-18T1000,1871A,109.4157,24.3277,柳州市,环保监测站,颗粒物(PM10),53,56,50,26,33,78,,119,105,14,14,7,8,0.8,0.7
2024-05-18T1000,1872A,109.389,24.341,柳州市,河西水厂,,46,44,50,32,32,79,,113,100,11,16,7,8,0.8,0.8
2024-05-18T1000,1873A,109.4311,24.2921,柳州市,市四中,细颗粒物(PM2.5),54,48,52,38,35,67,,122,108,29,16,7,7,0.7,0.7
2024-05-18T1000,1874A,109.4006,24.3631,柳州市,市九中,颗粒物(PM10),52,54,62,18,34,65,,109,92,14,18,6,8,0.7,0.7
2024-05-18T1000,1875A,109.4958,24.3134,柳州市,古亭山,,49,47,55,34,35,70,,115,100,14,19,8,9,0.6,0.6
2024-05-18T1000,3402A,109.5422,24.3996,柳州市,市二中,,48,47,54,33,33,79,,111,95,15,18,8,9,0.6,0.6
2024-05-18T1000,2307A,116.5079,31.737,六安市,监测大楼,颗粒物(PM10),53,55,54,30,35,155,,120,120,20,13,8,6,0.5,0.5
2024-05-18T1000,2308A,116.4738,31.7643,六安市,皖西学院,臭氧1小时,68,56,63,31,33,174,,138,138,12,13,5,4,0.5,0.6
2024-05-18T1000,2309A,116.4996,31.7905,六安市,朝阳厂,颗粒物(PM10),57,63,61,28,32,156,,118,115,11,10,8,7,0.4,0.4
2024-05-18T1000,2310A,116.5567,31.7886,六安市,开发区,颗粒物(PM10),55,59,75,36,42,155,,106,106,13,16,10,10,0.6,0.6
2024-05-18T1000,2576A,104.8,26.5892,六盘水市,窑上,,,,,,,,,,,,,,,,
2024-05-18T1000,2577A,104.83,26.5917,六盘水市,黄土坡,,20,,16,14,15,51,,61,53,16,14,6,7,0.5,0.6
2024-05-18T1000,2578A,104.89,26.5939,六盘水市,水钢,,20,13,19,10,13,63,,70,66,11,10,9,9,0.4,0.5
2024-05-18T1000,2579A,104.8475,26.5894,六盘水市,民中,,15,10,14,9,11,48,,62,54,21,14,6,7,0.8,0.8
2024-05-18T1000,2580A,104.9544,26.5506,六盘水市,双水,,16,,9,8,7,50,,69,62,20,7,7,7,0.6,0.4
2024-05-18T1000,2335A,117.0189,25.1181,龙岩市,龙岩师专,,,,,,,,,,,,,,,,
2024-05-18T1000,2336A,117.0217,25.1033,龙岩市,龙岩市监测站,"颗粒物(PM10),细颗粒物(PM2.5)",54,58,47,38,30,114,,69,69,18,18,16,10,0.5,0.4
2024-05-18T1000,2337A,117.0258,25.0661,龙岩市,闽西职业技术学院,细颗粒物(PM2.5),59,52,53,42,31,105,,82,80,20,20,14,14,0.7,0.6
2024-05-18T1000,2338A,117.0196,25.0306,龙岩市,龙岩学院,颗粒物(PM10),55,60,39,37,25,111,,94,92,24,11,14,5,0.9,0.4
2024-05-18T1000,2665A,105.0822,33.3261,陇南市,汉王镇固水子,,,,,,,,,,,,,,,,
2024-05-18T1000,2885A,104.9339,33.3826,陇南市,滨江中学,颗粒物(PM10),66,82,65,20,24,131,,111,108,6,4,7,6,0.6,0.5
2024-05-18T1000,3247A,104.955,33.371,陇南市,市总工会,,,,52,24,22,,,110,107,,7,,7,0.5,0.7
2024-05-18T1000,2487A,111.9589,27.8901,娄底市,电视发射台,细颗粒物(PM2.5),60,60,55,43,34,73,,52,52,25,10,19,8,2.1,1
2024-05-18T1000,2488A,111.9975,27.725,娄底市,市监测站,颗粒物(PM10),53,55,58,34,38,98,,94,91,6,6,7,7,0.7,0.7
2024-05-18T1000,2489A,112.0194,27.7314,娄底市,市委党校,,,,55,,41,,,108,,,9,,9,,0.7
2024-05-18T1000,2490A,111.9561,27.7569,娄底市,涟钢,细颗粒物(PM2.5),54,53,59,38,38,78,,80,74,27,24,15,14,0.9,0.7
2024-05-18T1000,2491A,111.9892,27.7044,娄底市,市政府,细颗粒物(PM2.5),52,46,60,36,39,107,,103,100,6,7,11,10,0.5,0.5
2024-05-18T1000,1893A,105.4324,28.9634,泸州市,九狮山,,35,35,58,11,32,54,,49,48,17,14,6,5,0.4,0.4
2024-05-18T1000,1894A,105.4427,28.9063,泸州市,小市上码头,,48,44,62,33,38,70,,65,64,14,19,9,13,0.3,0.4
2024-05-18T1000,1895A,105.4241,28.8573,泸州市,兰田宪桥,,42,40,64,29,39,75,,56,56,12,22,5,7,0.3,0.4
2024-05-18T1000,1896A,105.4379,28.8833,泸州市,市环监站,细颗粒物(PM2.5),52,43,62,36,45,71,,66,66,13,21,6,9,0.4,0.5
2024-05-18T1000,3490A,105.3617,28.7703,泸州市,纳溪区环保局,,35,35,53,17,30,68,,60,60,23,26,2,3,0.3,0.4
2024-05-18T1000,2183A,111.1406,37.5211,吕梁市,环保局,,,139,152,50,47,,,27,17,27,39,,6,0.4,0.4
2024-05-18T1000,2185A,111.1297,37.5136,吕梁市,自来水公司,颗粒物(PM10),89,127,129,55,49,85,,41,41,24,27,9,6,0.4,0.4
2024-05-18T1000,2867A,111.1283,37.51,吕梁市,马茂庄小学,颗粒物(PM10),95,140,144,46,47,84,,33,33,31,40,9,5,0.4,0.4
2024-05-18T1000,1812A,112.3931,34.6516,洛阳市,市委党校,颗粒物(PM10),79,107,78,56,44,146,,87,87,20,18,12,6,0.9,0.7
2024-05-18T1000,1814A,112.4657,34.6871,洛阳市,豫西宾馆,颗粒物(PM10),90,129,91,48,34,139,,81,81,30,20,13,8,0.9,0.7
2024-05-18T1000,1815A,112.494,34.6886,洛阳市,河南林校,颗粒物(PM10),75,99,75,45,38,146,,84,84,27,24,13,8,0.7,0.5
2024-05-18T1000,1816A,112.3844,34.623,洛阳市,开发区管委会,颗粒物(PM10),68,86,73,45,35,141,,82,82,13,12,10,4,0.6,0.4
2024-05-18T1000,1817A,112.4267,34.6258,洛阳市,市委新办公区,细颗粒物(PM2.5),69,69,67,50,40,146,,88,88,14,14,11,8,0.5,0.4
2024-05-18T1000,3340A,112.6005,34.6326,洛阳市,伊滨,颗粒物(PM10),78,105,78,53,35,143,,68,68,20,23,14,7,0.7,0.5
2024-05-18T1000,3341A,112.4951,34.6332,洛阳市,中移产业园,颗粒物(PM10),73,95,71,42,34,152,,82,82,14,18,12,7,0.9,0.8
2024-05-18T1000,3593A,112.5736,34.8993,洛阳市,吉利监测站,颗粒物(PM10),75,100,82,41,34,164,,89,89,20,22,10,6,0.4,0.3
2024-05-18T1000,3635A,112.3677,34.662,洛阳市,河科大西苑校区,颗粒物(PM10),83,115,87,48,36,162,,75,75,10,20,18,10,0.9,0.7
2024-05-18T1000,3636A,112.4388,34.6781,洛阳市,英才小学,颗粒物(PM10),88,126,87,53,34,140,,78,78,30,22,14,9,1.0,0.7
2024-05-18T1000,2399A,114.051,33.5699,漯河市,三五一五工厂,颗粒物(PM10),64,78,93,37,36,140,,119,116,9,14,7,7,0.5,0.6
2024-05-18T1000,2400A,114.0055,33.5698,漯河市,漯河大学,颗粒物(PM10),65,79,79,41,43,134,,120,119,10,16,9,10,0.5,0.5
2024-05-18T1000,2401A,114.0138,33.5828,漯河市,市水利局,颗粒物(PM10),57,63,77,39,40,137,,123,122,8,11,8,8,0.6,0.6
2024-05-18T1000,2402A,114.0261,33.5698,漯河市,市广电局,颗粒物(PM10),58,66,77,39,40,138,,130,128,6,10,6,5,0.6,0.6
2024-05-18T1000,3478A,113.9749,33.5664,漯河市,市图书馆,颗粒物(PM10),59,68,79,40,44,139,,126,126,2,10,9,8,0.5,0.6
2024-05-18T1000,3479A,114.0967,33.5906,漯河市,召陵区卫健委,颗粒物(PM10),64,78,83,44,51,144,,112,109,6,13,6,6,0.6,0.6
2024-05-18T1000,1798A,118.5092,31.6837,马鞍山市,湖东路四小,颗粒物(PM10),66,82,71,29,31,144,,114,114,22,20,7,8,0.8,0.8
2024-05-18T1000,1799A,118.5024,31.6449,马鞍山市,开发区,颗粒物(PM10),67,84,86,41,40,138,,78,78,22,35,9,10,0.8,0.8
2024-05-18T1000,1800A,118.5228,31.7231,马鞍山市,慈湖,细颗粒物(PM2.5),59,62,58,42,42,139,,115,111,30,31,6,7,0.8,0.8
2024-05-18T1000,1802A,118.6245,31.7241,马鞍山市,濮塘,细颗粒物(PM2.5),68,61,58,49,39,143,,129,123,19,15,7,7,0.8,0.8
2024-05-18T1000,3633A,118.4918,31.6809,马鞍山市,雨山,颗粒物(PM10),62,73,65,36,36,145,,112,112,23,20,10,10,0.8,0.8
2024-05-18T1000,1686A,111.0286,21.4688,茂名市,电白南海,,46,46,42,17,17,83,,89,85,10,8,10,8,0.5,0.5
2024-05-18T1000,1687A,110.9294,21.6533,茂名市,茂石化七小,,46,46,38,22,18,79,,73,72,12,11,13,9,0.6,0.5
2024-05-18T1000,1688A,110.9107,21.6687,茂名市,健康路,,41,41,36,22,13,73,,72,71,11,8,13,10,0.7,0.6
2024-05-18T1000,1689A,110.8592,21.6828,茂名市,高岭,,41,41,39,19,18,63,,80,78,27,11,17,11,0.7,0.6
2024-05-18T1000,3450A,111.01,21.5165,茂名市,电白水东,,34,34,35,12,16,82,,83,81,16,14,9,8,0.4,0.4
2024-05-18T1000,2539A,104.0308,30.0478,眉山市,黑龙滩水库,,40,40,59,26,38,68,,39,39,12,16,12,6,0.3,0.5
2024-05-18T1000,2540A,103.8416,30.0874,眉山市,气象局,颗粒物(PM10),54,58,63,29,49,41,,56,46,44,34,18,12,0.5,0.6
2024-05-18T1000,3137A,103.8578,30.0744,眉山市,市委党校,颗粒物(PM10),56,61,73,24,41,38,,54,45,45,37,18,14,0.5,0.5
2024-05-18T1000,3148A,103.8291,30.0564,眉山市,区人社局,,32,32,63,22,44,43,,60,52,43,41,18,16,0.4,0.5
2024-05-18T1000,1690A,116.1231,24.3284,梅州市,梅江月梅,细颗粒物(PM2.5),57,56,54,40,28,81,,41,41,25,25,10,5,0.6,0.5
2024-05-18T1000,1691A,116.0797,24.2719,梅州市,梅县新城,细颗粒物(PM2.5),70,64,47,51,29,54,,39,39,30,25,5,5,0.7,0.5
2024-05-18T1000,1692A,116.1248,24.2654,梅州市,环境监控中心,,,85,50,58,28,,,62,61,43,26,9,5,0.7,0.6
2024-05-18T1000,3315A,116.1233,24.2991,梅州市,梅龙,细颗粒物(PM2.5),54,51,48,38,27,88,,86,86,17,15,14,13,0.8,0.7
2024-05-18T1000,1878A,104.7778,31.4741,绵阳市,富乐山,细颗粒物(PM2.5),75,82,58,55,38,69,,76,67,28,16,11,9,0.8,0.7
2024-05-18T1000,1879A,104.7563,31.4535,绵阳市,市人大,细颗粒物(PM2.5),94,112,69,70,38,31,,61,47,60,27,7,9,1.0,0.7
2024-05-18T1000,1880A,104.6697,31.4668,绵阳市,高新区自来水公司,细颗粒物(PM2.5),103,137,102,77,54,33,,41,34,62,32,11,11,1.1,0.8
2024-05-18T1000,1881A,104.7287,31.5075,绵阳市,三水厂,细颗粒物(PM2.5),117,124,80,88,52,22,,23,19,64,39,6,7,0.9,0.6
2024-05-18T1000,3491A,104.69,31.5322,绵阳市,西科大附属小学,细颗粒物(PM2.5),90,108,89,67,50,42,,33,33,47,42,8,7,0.8,0.6
2024-05-18T1000,3492A,104.5648,31.5343,绵阳市,安州区旅游局,细颗粒物(PM2.5),108,103,91,81,67,90,,68,68,28,25,10,11,0.8,0.8
2024-05-18T1000,1784A,129.61,44.561,牡丹江市,环保大楼,颗粒物(PM10),55,59,28,25,14,92,,84,84,26,15,7,6,0.5,0.3
2024-05-18T1000,1785A,129.6115,44.5782,牡丹江市,文化广场,颗粒物(PM10),61,71,35,26,19,92,,77,77,32,20,7,7,0.5,0.3
2024-05-18T1000,1786A,129.5904,44.5963,牡丹江市,第一医院,颗粒物(PM10),52,53,36,23,20,114,,64,64,19,23,6,5,0.4,0.3
2024-05-18T1000,1787A,129.6364,44.6075,牡丹江市,机车工厂,颗粒物(PM10),69,87,43,10,13,99,,57,57,25,20,8,6,0.5,0.4
2024-05-18T1000,1788A,129.6386,44.5462,牡丹江市,第一中学,细颗粒物(PM2.5),52,51,34,36,14,103,,87,87,19,18,7,6,0.5,0.3
2024-05-18T1000,2531A,105.0703,29.61,内江市,市监测站,,46,32,49,32,46,76,,71,71,16,29,9,9,0.5,0.6
2024-05-18T1000,2532A,105.0717,29.5947,内江市,东兴区政府,,42,42,55,22,34,82,,70,70,10,25,12,12,0.6,0.7
2024-05-18T1000,2533A,105.0653,29.5817,内江市,内江二中,,39,38,54,27,37,73,,60,60,11,27,10,10,0.5,0.6
2024-05-18T1000,2534A,105.0406,29.5822,内江市,内江日报社,,45,38,50,31,43,82,,69,69,12,31,13,12,0.5,0.6
2024-05-18T1000,2628A,92.0657,31.4846,那曲市,那曲监测站,细颗粒物(PM2.5),93,112,52,69,26,80,,62,61,20,10,14,6,1.0,0.7
2024-05-18T1000,3128A,92.0506,31.4797,那曲市,那曲会议中心,颗粒物(PM10),122,194,91,84,34,74,,63,56,30,9,7,3,0.8,0.5
2024-05-18T1000,1290A,115.8931,28.6843,南昌市,省外办,细颗粒物(PM2.5),58,63,71,41,39,114,,76,76,18,22,13,12,0.4,0.5
2024-05-18T1000,1291A,115.8886,28.7003,南昌市,省林业公司,细颗粒物(PM2.5),58,58,65,41,36,109,,74,74,27,29,13,12,0.6,0.6
2024-05-18T1000,1292A,115.8126,28.7442,南昌市,林科所,颗粒物(PM10),58,66,58,36,32,129,,53,53,20,52,14,12,0.3,0.4
2024-05-18T1000,1294A,115.8518,28.687,南昌市,建工学校,颗粒物(PM10),62,74,71,33,36,111,,71,71,19,27,12,13,0.6,0.6
2024-05-18T1000,1295A,115.8921,28.6424,南昌市,象湖,颗粒物(PM10),59,68,71,34,35,116,,87,87,20,27,11,11,0.7,0.6
2024-05-18T1000,1296A,115.7423,28.7996,南昌市,武术学校,细颗粒物(PM2.5),73,,29,53,26,122,,41,41,11,5,15,12,0.4,0.4
2024-05-18T1000,1298A,115.9314,28.6842,南昌市,省站,颗粒物(PM10),62,73,73,34,36,120,,83,83,20,16,14,14,0.6,0.7
2024-05-18T1000,3046A,115.9084,28.6062,南昌市,机电学校,,,65,73,,43,116,,84,84,13,19,18,16,0.6,0.6
2024-05-18T1000,3690A,115.9721,28.7031,南昌市,外国语学校,颗粒物(PM10),58,65,66,38,37,124,,82,82,15,23,9,8,0.3,0.3
2024-05-18T1000,1905A,106.056,30.8064,南充市,西山风景区,细颗粒物(PM2.5),85,81,65,63,44,42,,41,41,17,18,4,4,0.7,0.6
2024-05-18T1000,1906A,106.0789,30.8023,南充市,南充市委,细颗粒物(PM2.5),102,118,83,76,46,65,,43,43,30,32,11,7,0.5,0.4
2024-05-18T1000,1907A,106.1031,30.8217,南充市,南充炼油厂,细颗粒物(PM2.5),88,100,92,65,53,68,,44,44,28,33,12,8,0.6,0.6
2024-05-18T1000,1908A,106.1064,30.7856,南充市,高坪区监测站,,,119,90,65,47,55,,37,37,33,42,14,8,,0.1
2024-05-18T1000,1909A,106.0642,30.7636,南充市,嘉陵区环保局,细颗粒物(PM2.5),104,82,77,78,48,39,,27,27,31,37,4,5,0.5,0.4
2024-05-18T1000,1910A,106.1087,30.8388,南充市,市环境监测站,细颗粒物(PM2.5),74,85,87,54,46,60,,39,39,35,34,11,8,0.7,0.6
2024-05-18T1000,1151A,118.8086,32.1065,南京市,迈皋桥,颗粒物(PM10),54,58,50,36,28,152,,82,82,26,28,8,6,1.0,0.8
2024-05-18T1000,1152A,118.7538,32.0551,南京市,草场门,颗粒物(PM10),62,73,60,34,32,158,,115,115,25,26,7,6,0.7,0.6
2024-05-18T1000,1153A,118.7794,32.0745,南京市,山西路,细颗粒物(PM2.5),64,70,62,46,28,149,,128,124,24,18,4,4,0.6,0.5
2024-05-18T1000,1154A,118.7752,32.0023,南京市,中华门,颗粒物(PM10),58,66,58,36,32,153,,113,113,25,20,10,10,0.8,0.4
2024-05-18T1000,1155A,118.8109,32.0309,南京市,瑞金路,颗粒物(PM10),65,80,63,36,31,144,,95,95,16,18,12,9,0.5,0.4
2024-05-18T1000,1156A,118.7997,32.0754,南京市,玄武湖,颗粒物(PM10),62,74,61,33,27,139,,124,119,18,10,12,10,0.3,0.3
2024-05-18T1000,1157A,118.6414,32.0931,南京市,浦口,,,73,60,35,28,,,111,104,34,22,11,8,,0.7
2024-05-18T1000,1158A,118.7356,31.9996,南京市,奥体中心,,,,62,,30,,,161,,,24,,10,,0.5
2024-05-18T1000,1159A,118.9125,32.1028,南京市,仙林大学城,颗粒物(PM10),57,63,56,24,21,153,,109,101,25,22,13,11,0.7,0.6
2024-05-18T1000,3422A,118.8436,31.9198,南京市,江宁彩虹桥,细颗粒物(PM2.5),64,66,61,46,31,146,,98,98,23,18,5,4,0.8,0.7
2024-05-18T1000,3423A,119.0138,31.6494,南京市,溧水永阳,颗粒物(PM10),51,51,55,32,31,160,,83,83,14,22,8,8,0.7,0.6
2024-05-18T1000,3424A,118.879,31.3302,南京市,高淳老职中,颗粒物(PM10),63,75,56,34,36,148,,94,94,16,18,9,8,0.5,0.4
2024-05-18T1000,3427A,118.8554,32.3578,南京市,六合雄州,,49,45,52,34,38,153,,86,80,31,31,10,8,1.0,0.8
2024-05-18T1000,1401A,108.3103,22.7881,南宁市,二十一中,,49,44,50,34,26,46,,66,59,18,15,4,6,0.6,0.6
2024-05-18T1000,1402A,108.3141,22.8528,南宁市,北湖,"颗粒物(PM10),细颗粒物(PM2.5)",64,77,59,46,34,40,,58,49,26,17,5,5,0.9,0.8
2024-05-18T1000,1403A,108.3206,22.8225,南宁市,市监测站,,,56,52,31,28,,,60,56,,19,,7,,0.7
2024-05-18T1000,1404A,108.3829,22.8037,南宁市,大自然花园,细颗粒物(PM2.5),59,57,53,42,32,45,,62,55,18,17,5,6,0.6,0.5
2024-05-18T1000,1405A,108.4394,22.7904,南宁市,仙葫,颗粒物(PM10),58,65,56,37,31,52,,65,59,20,20,5,6,0.9,0.9
2024-05-18T1000,1406A,108.2397,22.8467,南宁市,区农职院,,43,36,56,30,30,48,,63,57,20,21,4,5,0.5,0.6
2024-05-18T1000,1407A,108.3275,22.735,南宁市,英华嘉园,细颗粒物(PM2.5),65,66,52,47,33,40,,59,51,19,18,6,7,0.7,0.6
2024-05-18T1000,1408A,108.2257,22.7757,南宁市,沙井镇街道办,,40,36,68,28,27,38,,47,45,23,27,4,5,0.6,0.6
2024-05-18T1000,3401A,108.4834,22.7618,南宁市,红星社区,颗粒物(PM10),57,64,60,37,34,55,,67,61,14,18,8,9,0.7,0.6
2024-05-18T1000,2331A,118.0966,26.6761,南平市,茫荡山,,,,,,,,,,,,,,,,
2024-05-18T1000,2332A,118.1681,26.6369,南平市,南平市监测站,,33,25,35,19,22,104,,62,62,10,16,5,5,0.6,0.6
2024-05-18T1000,2333A,118.1825,26.6489,南平市,南平铝业有限公司,,39,39,36,15,25,99,,57,57,11,18,5,6,0.6,0.6
2024-05-18T1000,2334A,118.1756,26.6272,南平市,南平七中,,41,41,33,14,23,103,,69,69,9,13,4,4,0.7,0.7
2024-05-18T1000,1168A,120.9098,31.9663,南通市,狼山街道,,41,41,39,7,13,81,,48,48,31,29,13,11,0.5,0.4
2024-05-18T1000,1169A,120.86,32.0005,南通市,虹桥,,42,42,47,12,17,84,,56,56,35,33,8,8,0.5,0.5
2024-05-18T1000,1170A,120.87,32.02,南通市,城中,颗粒物(PM10),51,52,52,16,19,77,,50,50,36,33,8,7,0.6,0.6
2024-05-18T1000,1171A,120.94,31.93,南通市,星湖花园,,46,46,39,10,13,80,,52,52,34,33,11,10,0.6,0.5
2024-05-18T1000,1172A,120.81,32.0417,南通市,紫琅学院,,42,42,45,11,19,82,,59,59,54,46,13,12,0.5,0.5
2024-05-18T1000,3291A,121.067,32.062,南通市,通州监测站,,44,44,47,7,10,95,,60,60,15,22,13,10,0.8,0.5
2024-05-18T1000,3432A,120.9348,31.9883,南通市,环境教育馆,,39,39,45,6,16,83,,45,45,34,35,12,9,0.6,0.5
2024-05-18T1000,2404A,112.5224,33.0122,南阳市,瓦房庄,细颗粒物(PM2.5),57,58,60,40,30,124,,119,117,15,16,5,6,0.6,0.5
2024-05-18T1000,2405A,112.5003,32.9735,南阳市,汉画馆,细颗粒物(PM2.5),62,66,72,44,37,122,,113,108,15,18,6,5,0.6,0.5
2024-05-18T1000,2406A,112.5573,33.027,南阳市,气象站,细颗粒物(PM2.5),58,57,62,41,31,126,,126,120,14,16,5,5,0.4,0.4
2024-05-18T1000,2407A,112.5481,32.9689,南阳市,理工学院,细颗粒物(PM2.5),64,62,65,46,33,124,,113,112,9,18,5,6,0.7,0.6
2024-05-18T1000,4008A,112.5234,32.9922,南阳市,卧龙区政府,细颗粒物(PM2.5),60,60,63,43,37,124,,120,116,13,16,6,6,0.8,0.7
2024-05-18T1000,1234A,121.8358,29.911,宁波市,区环保大楼,,33,33,35,12,9,96,,84,83,8,11,5,5,0.6,0.5
2024-05-18T1000,1235A,121.56,29.82,宁波市,万里学院,,33,33,30,19,25,104,,84,84,5,10,4,4,0.6,0.5
2024-05-18T1000,1236A,121.713,29.9572,宁波市,龙赛医院,,,40,38,8,8,,,82,80,8,11,6,5,0.4,0.4
2024-05-18T1000,1239A,121.633,29.7733,宁波市,钱湖水厂,,33,,22,23,17,99,,80,80,7,5,4,4,0.5,0.4
2024-05-18T1000,1240A,121.5856,29.8635,宁波市,太古小学,,31,18,20,11,12,99,,81,81,6,12,5,5,0.6,0.5
2024-05-18T1000,1241A,121.524,29.8674,宁波市,市环境监测中心,,33,33,27,10,12,104,,86,86,11,15,9,9,0.5,0.5
2024-05-18T1000,2871A,121.6147,29.9017,宁波市,万里国际学校,,35,28,29,19,14,111,,91,91,5,10,4,3,0.4,0.3
2024-05-18T1000,3710A,121.5594,29.8975,宁波市,白沙活动中心,,35,35,34,9,9,102,,86,86,8,11,9,9,0.5,0.4
2024-05-18T1000,2339A,119.5001,26.6946,宁德市,金涵水库,,,,,,,,,,,,,,,,
2024-05-18T1000,2341A,119.5388,26.6612,宁德市,宁德市监测站,,47,47,31,15,16,90,,53,53,10,10,8,7,0.3,0.3
2024-05-18T1000,3209A,119.5231,26.6562,宁德市,宁德一中,,48,48,36,14,12,83,,,,13,9,7,7,0.4,0.3
2024-05-18T1000,2618A,98.8601,25.8567,怒江傈僳族自治州,州监测站,,32,32,34,20,22,23,,26,24,14,8,8,8,0.4,0.4
2024-05-18T1000,2619A,98.8546,25.8417,怒江傈僳族自治州,泸水一中,,36,36,32,23,24,9,,11,10,16,14,6,6,0.3,0.4
2024-05-18T1000,1888A,101.6891,26.571,攀枝花市,弄弄坪,,35,35,55,11,28,96,,77,77,15,27,33,36,0.6,1.2
2024-05-18T1000,1889A,101.5769,26.5928,攀枝花市,河门口,,36,36,51,16,28,87,,49,49,26,31,38,25,1.6,1.1
2024-05-18T1000,1890A,101.7169,26.585,攀枝花市,炳草岗,,39,39,56,12,26,90,,77,77,23,32,43,36,0.6,0.9
2024-05-18T1000,1891A,101.7369,26.5008,攀枝花市,仁和,,35,31,41,21,28,109,,56,56,13,21,45,16,0.7,0.6
2024-05-18T1000,2835A,101.7227,26.567,攀枝花市,四十中小,,34,24,43,14,27,106,,97,97,10,27,26,26,0.7,1.2
2024-05-18T1000,1604A,122.0303,41.1489,盘锦市,开发区,细颗粒物(PM2.5),68,58,57,49,36,145,,128,128,17,18,6,7,0.4,0.4
2024-05-18T1000,1605A,122.0485,41.0883,盘锦市,兴隆台,细颗粒物(PM2.5),72,60,55,52,36,158,,127,127,23,25,10,9,0.7,0.6
2024-05-18T1000,1606A,121.8297,41.1028,盘锦市,新生街道,颗粒物(PM10),61,72,54,34,28,144,,134,129,10,14,6,7,0.5,0.6
2024-05-18T1000,1832A,113.3257,33.742,平顶山市,新华旅馆,颗粒物(PM10),57,63,74,39,41,147,,154,146,8,11,8,8,0.5,0.4
2024-05-18T1000,1833A,113.2919,33.737,平顶山市,规划设计院,,,55,62,37,34,,,139,133,9,10,,7,0.7,0.7
2024-05-18T1000,1834A,113.182,33.774,平顶山市,平顶山工学院,细颗粒物(PM2.5),58,57,59,41,35,135,,140,132,6,6,6,5,0.6,0.5
2024-05-18T1000,3204A,113.3025,33.73,平顶山市,规划局,细颗粒物(PM2.5),55,56,53,39,33,134,,142,134,8,9,6,6,0.6,0.5
2024-05-18T1000,3594A,112.8867,33.9116,平顶山市,石龙区,颗粒物(PM10),60,70,72,38,30,145,,121,117,6,13,7,6,0.3,0.3
2024-05-18T1000,2656A,106.6692,35.5461,平凉市,聚贤嘉苑,颗粒物(PM10),56,61,64,18,22,110,,77,77,22,26,8,9,0.4,0.3
2024-05-18T1000,2657A,106.7021,35.5307,平凉市,博物馆,颗粒物(PM10),58,66,76,28,24,99,,84,84,36,27,7,8,0.7,0.7
2024-05-18T1000,2347A,114.0997,27.5002,萍乡市,武功山,,27,23,33,12,13,85,,60,60,6,6,9,8,0.4,0.4
2024-05-18T1000,2348A,113.8385,27.6434,萍乡市,中医院,颗粒物(PM10),60,69,48,36,27,96,,71,69,19,9,10,6,1.0,0.6
2024-05-18T1000,2349A,113.8493,27.6253,萍乡市,市政府车库,细颗粒物(PM2.5),59,,41,42,33,100,,58,58,16,10,13,10,0.8,0.6
2024-05-18T1000,2350A,113.8676,27.6435,萍乡市,市环保局,,,,49,,33,89,,64,59,22,11,,8,0.8,0.5
2024-05-18T1000,2351A,113.866,27.6198,萍乡市,安源区政府,颗粒物(PM10),54,58,48,30,22,100,,58,57,11,7,13,12,0.6,0.4
2024-05-18T1000,2319A,119.0141,25.4325,莆田市,荔城区仓后路,,47,47,42,16,16,111,,66,66,8,12,5,5,0.6,0.6
2024-05-18T1000,2320A,119.0015,25.4553,莆田市,莆田市监测站,,47,47,32,20,13,110,,64,64,4,6,7,7,0.6,0.6
2024-05-18T1000,2321A,119.1119,25.4561,莆田市,涵江区六中,,,51,39,11,14,112,,61,61,7,17,8,8,,0.8
2024-05-18T1000,2322A,119.1013,25.3215,莆田市,秀屿区政府,颗粒物(PM10),60,69,44,19,28,114,,59,59,11,15,8,9,0.9,0.8
2024-05-18T1000,2323A,118.981,25.4792,莆田市,东圳水库,,,,,,,,,,,,,,,,
2024-05-18T1000,2392A,115.0312,35.7636,濮阳市,环保局,细颗粒物(PM2.5),75,95,98,55,44,137,,86,86,18,35,12,18,0.6,0.8
2024-05-18T1000,2394A,115.0574,35.7609,濮阳市,油田运输公司,颗粒物(PM10),79,107,114,57,44,141,,82,82,14,35,16,20,0.4,0.6
2024-05-18T1000,2395A,115.0866,35.7754,濮阳市,油田物探公司,颗粒物(PM10),87,124,123,51,47,133,,75,75,18,37,11,15,0.6,0.7
2024-05-18T1000,3021A,115,35.7668,濮阳市,濮水河管理处,颗粒物(PM10),79,107,92,54,45,132,,70,70,15,28,13,12,0.6,0.8
2024-05-18T1000,2601A,100.98,22.7633,普洱市,市环保局,,29,24,27,20,20,58,,33,33,8,9,9,10,0.4,0.5
2024-05-18T1000,2602A,100.9817,22.8322,普洱市,普洱第二中学,,28,28,32,3,10,55,,31,31,11,10,9,9,0.6,0.6
2024-05-18T1000,2262A,131.0518,45.8751,七台河市,新一中,,40,38,29,21,14,125,,111,111,9,12,10,9,0.9,0.8
2024-05-18T1000,3345A,131.0577,45.7879,七台河市,中波台,颗粒物(PM10),63,75,34,17,9,117,,114,114,19,18,8,7,0.4,0.5
2024-05-18T1000,3637A,131.0176,45.7761,七台河市,人民广场,颗粒物(PM10),60,69,36,29,20,109,,107,107,18,18,12,10,0.5,0.4
2024-05-18T1000,3684A,130.8781,45.8222,七台河市,新建矿广场,颗粒物(PM10),62,73,41,28,17,111,,98,98,19,20,9,10,0.5,0.5
2024-05-18T1000,1779A,123.9305,47.3636,齐齐哈尔市,安居小区,,28,14,46,7,22,88,,82,82,5,11,1,5,0.2,0.4
2024-05-18T1000,1780A,123.9488,47.3386,齐齐哈尔市,中心广场,,32,32,59,18,21,88,,85,85,5,12,6,8,0.3,0.4
2024-05-18T1000,1781A,123.9483,47.3227,齐齐哈尔市,农牧车辆厂,,34,34,49,8,11,88,,84,84,5,9,6,8,0.3,0.4
2024-05-18T1000,1783A,123.945,47.2988,齐齐哈尔市,市环境监测站,,33,33,53,3,21,88,,85,85,5,9,4,6,0.2,0.3
2024-05-18T1000,3662A,123.6333,47.2075,齐齐哈尔市,富区青少年活动中心,,31,31,48,12,13,89,,83,83,9,11,6,7,0.3,0.4
2024-05-18T1000,2591A,107.9783,26.5747,黔东南苗族侗族自治州,市环境监测站,,20,18,29,14,20,46,,72,64,30,16,3,2,0.7,0.6
2024-05-18T1000,2881A,107.8908,26.5311,黔东南苗族侗族自治州,凯里学院,,26,14,28,10,18,83,,87,85,6,7,2,2,0.5,0.5
2024-05-18T1000,2593A,107.5228,26.2403,黔南布依族苗族自治州,小围寨,,21,6,17,3,12,66,,64,64,10,6,3,4,0.7,0.7
2024-05-18T1000,3538A,107.5175,26.2978,黔南布依族苗族自治州,沙坝,,28,9,18,3,12,88,,71,71,11,6,4,3,0.5,0.5
2024-05-18T1000,2589A,104.9022,25.0925,黔西南布依族苗族自治州,场坝街,,15,11,14,8,8,47,,53,51,10,16,3,3,0.4,0.4
2024-05-18T1000,2590A,104.8811,25.0992,黔西南布依族苗族自治州,坪东大道,,15,14,15,3,8,48,,50,49,6,10,2,2,0.3,0.2
2024-05-18T1000,2502A,108.6236,21.9667,钦州市,市环保站,,28,27,44,19,16,39,,54,47,16,11,6,7,0.7,0.6
2024-05-18T1000,2503A,108.6549,21.9481,钦州市,沙埠小学,,37,37,55,16,22,43,,48,43,17,16,7,7,1.2,0.8
2024-05-18T1000,2504A,108.5989,21.7431,钦州市,港区一小,,23,23,52,11,19,69,,75,73,11,13,6,8,0.6,0.7
2024-05-18T1000,3404A,108.5959,21.9633,钦州市,北职校,,39,39,46,23,21,39,,52,46,15,11,8,9,0.6,0.7
2024-05-18T1000,1042A,119.5134,39.8207,秦皇岛市,北戴河环保局,,,,74,,34,127,,126,124,18,25,,4,,0.4
2024-05-18T1000,1043A,119.7493,40.0116,秦皇岛市,第一关,颗粒物(PM10),65,79,85,39,51,136,,67,67,17,64,5,6,0.4,0.5
2024-05-18T1000,1044A,119.5897,39.9499,秦皇岛市,监测站,细颗粒物(PM2.5),74,85,94,54,54,140,,98,98,22,43,4,5,0.4,0.5
2024-05-18T1000,1046A,119.5251,39.9041,秦皇岛市,建设大厦,颗粒物(PM10),67,84,87,35,42,133,,79,79,16,46,2,3,0.3,0.4
2024-05-18T1000,3132A,119.610547,39.943889,秦皇岛市,文明里,颗粒物(PM10),72,94,104,38,43,137,,94,94,21,42,4,5,0.4,0.5
2024-05-18T1000,1307A,120.6659,36.2403,青岛市,仰口,颗粒物(PM10),57,63,64,36,34,128,,116,116,13,15,6,6,0.6,0.6
2024-05-18T1000,1310A,120.4134,36.0658,青岛市,市南区东部子站,颗粒物(PM10),52,53,58,14,26,107,,128,116,12,15,8,8,0.5,0.6
2024-05-18T1000,1311A,120.3664,36.1032,青岛市,四方区子站,颗粒物(PM10),56,61,62,27,35,124,,143,132,20,22,6,6,0.6,0.6
2024-05-18T1000,1312A,120.2994,36.054,青岛市,市南区西部子站,,41,41,51,17,26,111,,136,122,16,20,7,8,0.5,0.6
2024-05-18T1000,1313A,120.4581,36.0858,青岛市,崂山区子站,,41,41,57,19,26,115,,137,125,16,18,9,9,0.4,0.5
2024-05-18T1000,1314A,120.1983,35.9608,青岛市,黄岛区子站,颗粒物(PM10),53,56,60,27,36,115,,138,126,14,18,7,8,0.6,0.7
2024-05-18T1000,1315A,120.3999,36.3083,青岛市,城阳区子站,颗粒物(PM10),68,85,70,29,29,143,,138,138,26,23,10,10,0.8,0.7
2024-05-18T1000,1966A,120.0405,35.8735,青岛市,黄岛区4号,颗粒物(PM10),56,61,62,29,29,114,,149,136,17,17,9,9,0.7,0.7
2024-05-18T1000,3362A,120.5014,36.4034,青岛市,即墨2号,臭氧1小时,69,84,74,33,30,175,,145,145,16,14,10,8,0.8,0.7
2024-05-18T1000,3642A,120.3503,36.0736,青岛市,市北区南部,,48,48,58,19,24,119,,138,127,15,18,7,9,0.7,0.7
2024-05-18T1000,3643A,120.3948,36.1805,青岛市,李沧区北部,颗粒物(PM10),60,70,70,34,33,118,,123,117,22,24,12,11,0.6,0.7
2024-05-18T1000,1702A,113.0426,23.691,清远市,环保大楼,,29,27,42,20,25,84,,93,92,16,18,6,6,0.5,0.5
2024-05-18T1000,1703A,113.0208,23.7106,清远市,凤城街办,,33,31,48,21,27,103,,106,104,17,22,5,7,0.5,0.5
2024-05-18T1000,3025A,113.0477,23.6344,清远市,技师学院,,31,27,54,17,27,99,,87,87,12,20,7,6,0.3,0.4
2024-05-18T1000,3318A,112.9903,23.7403,清远市,清新太和,,35,34,51,24,29,97,,122,105,24,21,6,7,0.6,0.5
2024-05-18T1000,3455A,113.076,23.7198,清远市,清城东城,,42,30,40,29,29,80,,92,90,20,18,7,6,0.5,0.5
2024-05-18T1000,2661A,107.6325,35.7357,庆阳市,庆阳五中,颗粒物(PM10),60,70,80,30,31,147,,140,140,13,15,8,9,0.4,0.4
2024-05-18T1000,2662A,107.6364,35.7067,庆阳市,市环保局,颗粒物(PM10),61,72,75,25,24,145,,146,146,10,11,10,10,0.4,0.3
2024-05-18T1000,1916A,103.7897,25.5035,曲靖市,环境监测站,,29,28,26,20,15,74,,53,53,10,12,5,4,0.6,0.7
2024-05-18T1000,1917A,103.8,25.5364,曲靖市,烟厂办公区,,,,26,,15,72,,60,59,,11,4,4,,0.7
