timepoint,stationcode,longitude,latitude,area,positionname,primarypollutant,aqi,pm10,pm10_24h,pm2_5,pm2_5_24h,o3,o3_24h,o3_8h,o3_8h_24h,no2,no2_24h,so2,so2_24h,co,co_24h
2024-05-18T1600,2566A,102.1879,31.914,阿坝藏族羌族自治州,州农科所,颗粒物(PM10),52,54,27,3,8,40,,37,37,15,13,3,2,0.0,0
2024-05-18T1600,2568A,102.2502,31.8896,阿坝藏族羌族自治州,马师校,,38,38,21,17,16,105,,92,92,5,10,4,4,0.3,0.3
2024-05-18T1600,3994A,102.2165,31.9024,阿坝藏族羌族自治州,马尔康中学西区,,31,20,27,16,16,98,,87,87,4,7,3,3,0.3,0.3
2024-05-18T1600,2695A,80.292,41.1694,阿克苏地区,电视台,颗粒物(PM10),179,308,253,80,72,107,,66,66,7,21,6,5,0.2,0.3
2024-05-18T1600,2696A,80.2613,41.1551,阿克苏地区,艺术中心,颗粒物(PM10),206,354,258,95,85,105,,60,60,7,39,3,4,0.3,0.6
2024-05-18T1600,2204A,105.6467,38.8363,阿拉善盟,西城区西花园,颗粒物(PM10),115,180,141,38,40,157,,142,142,7,10,9,9,0.7,0.7
2024-05-18T1600,2205A,105.6985,38.8411,阿拉善盟,蒙二幼,颗粒物(PM10),86,122,142,51,46,151,,139,139,9,8,10,9,0.5,0.5
2024-05-18T1600,2206A,105.724,38.8516,阿拉善盟,环保局新楼,颗粒物(PM10),95,140,147,48,47,153,,148,147,6,6,9,9,0.5,0.5
2024-05-18T1600,2708A,88.1264,47.8517,阿勒泰地区,市站,,46,,30,32,11,101,,78,78,6,10,5,5,0.3,0.3
2024-05-18T1600,2630A,80.1161,32.5,阿里地区,阿里监测站,,42,10,18,7,7,133,,110,110,3,12,7,8,0.4,0.4
2024-05-18T1600,3192A,80.0903,32.5028,阿里地区,阿里藏医院,,42,10,16,3,6,134,,109,109,2,7,6,7,0.4,0.5
2024-05-18T1600,2642A,109.0318,32.6537,安康市,香溪洞,颗粒物(PM10),69,87,70,46,48,137,,102,102,8,9,8,8,0.7,0.7
2024-05-18T1600,2643A,109.0281,32.6939,安康市,安康市监测站,细颗粒物(PM2.5),63,58,83,45,58,140,,104,104,8,15,11,12,0.6,0.7
2024-05-18T1600,2644A,109.0072,32.6975,安康市,汉滨区检察院,颗粒物(PM10),56,61,67,36,44,145,,102,102,7,11,8,8,0.5,0.5
2024-05-18T1600,2291A,117.0809,30.5177,安庆市,环科院,臭氧1小时,74,54,69,34,40,179,,160,160,21,40,5,6,0.4,0.6
2024-05-18T1600,2292A,117.0331,30.5119,安庆市,马山宾馆,臭氧1小时,92,61,69,30,40,193,,172,172,8,37,11,9,0.5,0.6
2024-05-18T1600,2294A,116.9896,30.6145,安庆市,安庆大学,臭氧1小时,104,64,71,36,41,208,,175,175,12,25,20,11,0.3,0.4
2024-05-18T1600,3173A,117.0598,30.5351,安庆市,市人大,臭氧1小时,89,61,69,30,38,191,,168,168,9,32,6,8,0.5,0.6
2024-05-18T1600,3123A,105.9408,26.2431,安顺市,凤凰山,,23,7,10,3,6,73,,66,66,7,6,5,5,0.9,0.8
2024-05-18T1600,3124A,105.9439,26.2564,安顺市,金钟山,,22,9,11,3,8,68,,67,66,7,5,4,5,0.6,0.6
2024-05-18T1600,3125A,105.8983,26.2481,安顺市,娄家坡,,21,11,11,8,8,66,,62,62,7,6,7,8,0.6,0.6
2024-05-18T1600,1819A,114.3551,36.1017,安阳市,红庙街,臭氧1小时,124,125,145,56,52,247,,198,198,9,30,6,12,0.6,1
2024-05-18T1600,1820A,114.361,36.0681,安阳市,银杏小区,臭氧1小时,120,119,122,66,59,240,,199,199,2,24,8,11,0.7,1
2024-05-18T1600,3141A,114.3922,36.0878,安阳市,信访局,臭氧1小时,119,137,148,66,54,238,,193,193,9,41,5,8,0.7,1.1
2024-05-18T1600,3669A,114.4705,36.0637,安阳市,左辅环卫站,颗粒物(PM10),81,111,119,52,52,184,,165,165,9,42,7,10,0.9,1
2024-05-18T1600,3703A,114.2917,36.0949,安阳市,安钢职工学校,臭氧1小时,120,122,151,51,57,239,,190,190,13,37,9,10,0.7,1.1
2024-05-18T1600,1748A,123.044,41.1196,鞍山市,深沟寺,,33,28,46,9,21,104,,135,114,5,6,8,8,0.5,0.6
2024-05-18T1600,1749A,123.011,41.0931,鞍山市,太阳城,,37,37,44,12,18,114,,135,134,8,10,7,8,0.6,0.7
2024-05-18T1600,1750A,123.0485,41.1442,鞍山市,太平,,40,40,60,16,28,110,,141,118,10,12,6,6,0.5,0.5
2024-05-18T1600,1751A,122.9642,41.0971,鞍山市,铁西三道街,,39,33,57,14,25,124,,146,139,12,13,5,5,0.5,0.6
2024-05-18T1600,1752A,122.9341,41.0833,鞍山市,铁西工业园区,,39,33,66,14,24,124,,132,132,7,16,6,7,0.5,0.5
2024-05-18T1600,1753A,123.022,41.0821,鞍山市,明达新区,,38,38,47,18,24,110,,133,128,9,9,11,10,0.6,0.7
2024-05-18T1600,2195A,107.4212,40.761,巴彦淖尔市,附二中,颗粒物(PM10),120,189,170,62,57,154,,120,120,13,27,7,8,0.4,0.5
2024-05-18T1600,2196A,107.37,40.7372,巴彦淖尔市,市环保大楼,颗粒物(PM10),123,195,175,46,54,141,,112,112,12,21,8,8,0.4,0.4
2024-05-18T1600,1956A,86.1472,41.7538,巴音郭楞蒙古自治州,孔雀公园,颗粒物(PM10),199,348,225,98,70,98,,101,98,8,18,7,7,0.2,0.3
2024-05-18T1600,1957A,86.1972,41.7166,巴音郭楞蒙古自治州,棉纺厂,颗粒物(PM10),190,329,259,86,75,87,,83,83,2,20,3,4,0.2,0.3
2024-05-18T1600,1958A,86.2357,41.7173,巴音郭楞蒙古自治州,经济开发区,颗粒物(PM10),155,259,250,82,72,103,,98,98,2,13,8,9,0.2,0.3
2024-05-18T1600,2914A,106.7677,31.8794,巴中市,苏山坪,细颗粒物(PM2.5),104,122,75,78,48,91,,109,84,18,15,4,4,0.8,0.6
2024-05-18T1600,3182A,106.7656,31.8545,巴中市,丽阳花园,细颗粒物(PM2.5),118,117,79,89,55,100,,81,81,18,26,6,6,0.8,0.7
2024-05-18T1600,3183A,106.7418,31.8654,巴中市,圣泉水务公司,细颗粒物(PM2.5),119,116,71,90,50,99,,77,77,15,26,4,4,0.7,0.5
2024-05-18T1600,3616A,106.7616,31.8344,巴中市,市中心医院,细颗粒物(PM2.5),103,101,75,77,52,105,,77,77,16,28,7,6,0.7,0.6
2024-05-18T1600,2235A,122.7911,45.6077,白城市,洮北区环保局,,31,24,41,7,14,99,,96,96,9,10,6,7,0.3,0.4
2024-05-18T1600,2236A,122.8738,45.5725,白城市,市环保局,,32,24,40,13,18,102,,98,98,7,9,3,6,0.3,0.4
2024-05-18T1600,2231A,126.4219,41.9171,白山市,喜丰,颗粒物(PM10),54,58,60,15,20,160,,163,163,7,24,13,12,1.1,1.2
2024-05-18T1600,2232A,126.4077,41.9419,白山市,环保局,颗粒物(PM10),53,55,64,26,26,146,,150,150,7,26,9,11,0.8,0.9
2024-05-18T1600,2647A,104.1724,36.5446,白银市,第三小学,颗粒物(PM10),133,215,84,69,35,134,,127,127,11,18,37,53,0.4,0.5
2024-05-18T1600,2648A,104.1465,36.5482,白银市,动力公司,颗粒物(PM10),115,179,72,56,33,139,,133,133,8,16,23,39,0.5,0.6
2024-05-18T1600,2512A,106.6103,23.9011,百色市,市监测站,颗粒物(PM10),53,56,61,33,35,101,,78,78,8,13,7,12,0.7,0.9
2024-05-18T1600,2513A,106.6538,23.8859,百色市,市中心血站,颗粒物(PM10),57,63,63,38,39,91,,66,66,10,17,5,11,0.6,0.7
2024-05-18T1600,3406A,106.6085,23.8798,百色市,祈福高中,颗粒物(PM10),60,69,68,34,36,103,,72,72,6,16,10,13,0.7,0.9
2024-05-18T1600,2270A,117.396,32.939,蚌埠市,工人疗养院,臭氧1小时,93,66,80,29,38,194,,185,185,6,10,8,12,0.5,0.5
2024-05-18T1600,2271A,117.3605,32.9427,蚌埠市,百货大楼,臭氧1小时,89,76,90,32,47,191,,187,187,9,12,5,10,0.5,0.6
2024-05-18T1600,2273A,117.4185,32.8911,蚌埠市,蚌埠学院,臭氧1小时,85,75,61,35,41,188,,183,183,18,15,6,8,0.7,0.6
2024-05-18T1600,2274A,117.3533,32.9673,蚌埠市,淮上区政府,臭氧1小时,89,68,83,37,45,191,,186,186,1,8,6,11,0.4,0.6
2024-05-18T1600,2275A,117.3145,32.8977,蚌埠市,高新区,臭氧1小时,89,63,93,36,49,191,,190,190,2,10,6,14,0.5,0.7
2024-05-18T1600,3715A,117.3092,32.9314,蚌埠市,蚌埠田家炳中学,臭氧1小时,90,65,89,31,46,192,,189,189,2,9,6,16,0.5,0.6
2024-05-18T1600,1585A,109.8756,40.6532,包头市,市环境监测站,颗粒物(PM10),99,148,148,40,53,157,,124,124,18,62,11,17,0.5,0.7
2024-05-18T1600,1587A,109.9991,40.5842,包头市,包头八中,颗粒物(PM10),115,180,184,84,80,150,,121,121,12,60,9,24,0.4,0.8
2024-05-18T1600,1588A,109.8538,40.6821,包头市,青山宾馆,细颗粒物(PM2.5),119,167,124,90,63,155,,122,122,15,52,13,17,0.4,0.6
2024-05-18T1600,1589A,109.8642,40.6288,包头市,惠龙物流,颗粒物(PM10),92,133,147,54,58,162,,132,132,16,57,13,20,0.6,0.7
2024-05-18T1600,1590A,110.0377,40.5546,包头市,东河鸿龙湾,颗粒物(PM10),111,172,151,41,43,160,,128,128,7,46,8,16,0.5,0.7
2024-05-18T1600,3283A,109.9154,40.5685,包头市,滨河大厦,颗粒物(PM10),99,147,138,52,55,159,,128,128,8,51,12,18,0.5,0.6
2024-05-18T1600,3419A,109.9447,40.6261,包头市,包头市委党校,,,246,162,,45,146,,129,129,16,58,13,25,0.4,0.7
2024-05-18T1600,3683A,109.8331,40.6576,包头市,昆区政府,颗粒物(PM10),106,161,141,43,58,154,,129,129,22,61,13,18,0.5,0.6
2024-05-18T1600,1930A,107.185,34.3063,宝鸡市,庙沟村,,46,46,44,24,21,116,,105,105,9,9,9,9,0.6,0.5
2024-05-18T1600,1931A,107.0708,34.3017,宝鸡市,竹园沟,臭氧1小时,58,51,42,25,24,166,,135,135,12,15,7,6,0.5,0.5
2024-05-18T1600,1932A,107.1906,34.3672,宝鸡市,三陆医院,颗粒物(PM10),58,65,70,28,28,153,,118,118,29,36,7,11,0.5,0.7
2024-05-18T1600,1933A,107.1431,34.3547,宝鸡市,监测站,颗粒物(PM10),53,55,56,23,25,155,,124,124,17,28,8,9,0.4,0.5
2024-05-18T1600,1934A,107.1186,34.3739,宝鸡市,技工学校,臭氧1小时,68,59,59,27,30,174,,129,129,16,22,7,9,0.5,0.5
2024-05-18T1600,1935A,107.3906,34.3528,宝鸡市,陈仓区环保局家属楼,臭氧1小时,72,41,59,24,36,177,,128,128,13,35,8,29,0.5,0.5
2024-05-18T1600,1936A,107.2058,34.3497,宝鸡市,文理学院,"细颗粒物(PM2.5),臭氧1小时",52,52,58,36,31,161,,128,128,10,22,7,8,0.3,0.4
2024-05-18T1600,1937A,107.2386,34.3622,宝鸡市,三迪小学,颗粒物(PM10),54,58,62,32,30,152,,122,122,15,29,8,9,0.5,0.6
2024-05-18T1600,1051A,115.493,38.8632,保定市,游泳馆,臭氧1小时,120,117,135,46,48,240,,213,213,3,17,6,6,0.4,0.4
2024-05-18T1600,1052A,115.5213,38.8959,保定市,华电二区,臭氧1小时,120,72,87,31,37,239,,194,194,13,24,4,5,0.4,0.4
2024-05-18T1600,1053A,115.4713,38.9108,保定市,接待中心,臭氧1小时,122,119,80,34,34,243,,208,208,8,23,3,4,0.6,0.6
2024-05-18T1600,1054A,115.4612,38.8416,保定市,地表水厂,臭氧1小时,121,87,95,71,59,241,,214,214,8,19,4,6,0.7,0.6
2024-05-18T1600,3581A,115.31981,38.95208,保定市,满城区生态环境分局,臭氧1小时,119,97,115,39,45,237,,204,204,6,28,5,5,0.5,0.4
2024-05-18T1600,3582A,115.47694,38.76408,保定市,清苑区第二中学,臭氧1小时,123,76,96,50,47,246,,205,205,5,25,4,6,0.6,0.6
2024-05-18T1600,3583A,115.62909,39.02311,保定市,徐水物探局,臭氧1小时,132,112,115,41,47,264,,212,212,12,23,8,9,0.5,0.4
2024-05-18T1600,4004A,115.4202,38.8656,保定市,双鹰农机,臭氧1小时,124,112,101,40,46,248,,223,223,15,33,10,8,0.3,0.2
2024-05-18T1600,4034A,115.5150,38.8590,保定市,植保所站,臭氧1小时,127,101,103,52,48,253,,212,212,17,28,6,6,0.6,0.5
2024-05-18T1600,2594A,99.1678,25.1081,保山市,市环境监测站,,35,33,35,24,21,109,,90,90,7,9,4,4,0.6,0.6
2024-05-18T1600,2595A,99.1711,25.1328,保山市,市环保局,,36,35,40,15,14,114,,93,93,5,7,4,4,0.6,0.6
2024-05-18T1600,1867A,109.1436,21.4086,北海市,海滩公园,,26,26,36,7,9,74,,80,78,4,4,7,7,0.5,0.5
2024-05-18T1600,1868A,109.0981,21.4661,北海市,新市环保局,,25,25,35,9,12,75,,82,78,5,6,5,5,0.6,0.6
2024-05-18T1600,1869A,109.1778,21.5233,北海市,北海工业园,,25,25,40,10,15,66,,74,71,5,6,7,7,0.6,0.6
2024-05-18T1600,3400A,109.1911,21.4415,北海市,龙潭自来水厂,,25,25,34,13,14,70,,78,72,5,6,4,5,0.5,0.5
2024-05-18T1600,1001A,116.3621,39.8784,北京市,万寿西宫,臭氧1小时,141,84,90,43,43,282,,234,234,16,23,5,5,1.1,0.9
2024-05-18T1600,1002A,116.2202,40.2915,北京市,定陵,臭氧1小时,143,86,84,38,35,285,,232,232,13,13,6,3,1.1,0.8
2024-05-18T1600,1003A,116.4174,39.9289,北京市,东四,臭氧1小时,132,90,99,41,47,264,,214,214,18,27,6,7,1.0,0.8
2024-05-18T1600,1004A,116.4072,39.8863,北京市,天坛,臭氧1小时,133,83,84,41,41,265,,218,218,16,23,7,6,1.1,0.9
2024-05-18T1600,1005A,116.462,39.9365,北京市,农展馆,臭氧1小时,114,90,92,43,44,227,,188,188,16,26,3,5,1.0,0.9
2024-05-18T1600,1006A,116.3392,39.9295,北京市,官园,臭氧1小时,135,83,97,36,40,269,,221,221,17,22,7,7,0.9,0.7
2024-05-18T1600,1007A,116.2878,39.9611,北京市,海淀万柳,臭氧1小时,132,75,96,31,36,263,,215,215,17,31,10,9,0.9,0.7
2024-05-18T1600,1008A,116.6636,40.135,北京市,顺义新城,臭氧1小时,122,71,97,30,46,243,,207,207,12,21,6,6,0.9,0.9
2024-05-18T1600,1009A,116.6275,40.3275,北京市,怀柔镇,臭氧1小时,131,87,82,41,39,261,,218,218,9,13,8,7,1.1,0.9
2024-05-18T1600,1010A,116.2296,40.217,北京市,昌平镇,臭氧1小时,119,80,89,35,37,237,,196,196,16,22,6,4,1.1,0.8
2024-05-18T1600,1011A,116.3966,39.9821,北京市,奥体中心,臭氧1小时,117,65,89,30,40,234,,195,195,17,26,3,4,1.1,0.9
2024-05-18T1600,1012A,116.184,39.9136,北京市,古城,臭氧1小时,117,76,103,28,42,233,,194,194,14,33,6,5,1.1,1
2024-05-18T1600,3281A,115.9718,40.4529,北京市,延庆夏都,臭氧1小时,146,92,84,44,38,291,,228,228,15,14,6,4,0.9,0.6
2024-05-18T1600,3417A,117.0709,40.1465,北京市,平谷新城,臭氧1小时,134,87,88,44,42,267,,204,204,9,15,6,4,0.9,0.8
2024-05-18T1600,3418A,116.8336,40.4095,北京市,密云新城,臭氧1小时,125,68,82,29,38,249,,216,216,10,15,7,5,,0.8
2024-05-18T1600,3672A,116.1541,39.8204,北京市,丰台云岗,臭氧1小时,117,74,94,33,40,234,,196,196,13,28,4,3,0.9,0.9
2024-05-18T1600,3673A,116.6804,39.9081,北京市,通州东关,臭氧1小时,122,95,106,45,48,244,,203,203,6,22,4,5,0.9,1
2024-05-18T1600,3674A,115.9577,39.7603,北京市,房山燕山,臭氧1小时,114,90,103,31,41,228,,190,190,13,25,4,3,0.7,0.6
2024-05-18T1600,3675A,116.4672,39.7733,北京市,大兴旧宫,臭氧1小时,132,88,84,51,42,264,,209,209,16,19,4,3,1.2,1
2024-05-18T1600,3694A,115.986,40.4563,北京市,延庆石河营,臭氧1小时,144,86,79,44,38,287,,225,225,14,14,3,2,1.0,0.6
2024-05-18T1600,3695A,116.6151,40.3053,北京市,怀柔新城,臭氧1小时,124,79,82,36,39,247,,207,207,13,15,4,3,1.1,0.9
2024-05-18T1600,3696A,116.2545,39.8768,北京市,丰台小屯,臭氧1小时,119,65,90,27,42,238,,202,202,10,24,5,4,0.8,0.8
2024-05-18T1600,3697A,116.84,40.3844,北京市,密云镇,臭氧1小时,123,71,84,33,40,245,,206,206,9,23,5,3,0.7,0.7
2024-05-18T1600,1761A,123.8275,41.3064,本溪市,大峪,,45,45,57,20,22,122,,151,142,8,8,10,10,0.6,0.6
2024-05-18T1600,1762A,123.7567,41.3325,本溪市,溪湖,,42,42,67,21,25,110,,149,124,16,15,15,14,1.3,0.9
2024-05-18T1600,1763A,123.7169,41.3094,本溪市,彩屯,,40,38,67,28,46,93,,127,104,26,29,20,20,1.5,2
2024-05-18T1600,1764A,123.7669,41.2864,本溪市,东明,,36,32,52,16,22,113,,157,126,9,10,10,11,0.6,0.6
2024-05-18T1600,1765A,123.7992,41.2664,本溪市,新立屯,,36,28,43,24,24,113,,158,132,7,7,12,12,0.9,0.9
2024-05-18T1600,1766A,123.8142,41.3472,本溪市,威宁,,44,44,54,17,22,111,,130,129,16,16,7,7,0.5,0.5
2024-05-18T1600,2587A,105.2864,27.3125,毕节市,八中,,30,19,26,14,20,94,,87,82,6,10,4,5,0.5,0.5
2024-05-18T1600,2588A,105.31,27.2944,毕节市,师专,,26,20,27,14,20,83,,90,79,10,10,6,7,0.5,0.5
2024-05-18T1600,3537A,105.3631,27.3533,毕节市,长征村,,35,24,33,18,24,109,,105,95,6,8,6,7,0.5,0.5
2024-05-18T1600,1629A,118.0018,37.3617,滨州市,第二水厂,臭氧1小时,121,95,110,46,56,241,,226,226,12,32,12,10,0.9,1.2
2024-05-18T1600,1630A,117.9776,37.393,滨州市,北中新校,臭氧1小时,110,97,115,36,54,219,,217,217,11,37,13,11,0.9,1.2
2024-05-18T1600,3514A,117.9378,37.3956,滨州市,中海酒店,臭氧1小时,104,92,103,39,53,207,,216,216,8,33,18,15,0.8,1
2024-05-18T1600,3515A,117.9378,37.3553,滨州市,开发区一中,臭氧1小时,105,102,118,36,55,209,,201,201,5,27,18,18,0.7,1
2024-05-18T1600,3516A,118.0917,37.694,滨州市,金海六路,臭氧1小时,139,100,118,36,54,278,,242,242,25,25,13,17,0.9,0.8
2024-05-18T1600,4028A,117.9956,37.3753,滨州市,滨州市西街道办事处,臭氧1小时,113,102,110,51,65,225,,219,219,11,32,14,13,0.9,1.2
2024-05-18T1600,2311A,115.8072,33.8399,亳州市,污水处理厂,臭氧1小时,62,49,68,23,36,169,,161,161,1,5,9,14,0.4,0.5
2024-05-18T1600,2312A,115.7789,33.8518,亳州市,三国揽胜宫,臭氧1小时,72,58,72,29,39,177,,165,165,2,4,11,16,0.3,0.5
2024-05-18T1600,3332A,115.7633,33.8034,亳州市,亳州学院,臭氧1小时,64,49,64,24,33,171,,160,160,2,6,10,17,0.4,0.5
2024-05-18T1600,2693A,82.0485,44.8556,博尔塔拉蒙古自治州,市党校,,40,33,38,12,16,125,,85,85,8,10,7,6,0.3,0.3
2024-05-18T1600,2694A,82.0806,44.8969,博尔塔拉蒙古自治州,市环保局,,38,36,34,10,12,120,,88,88,5,16,10,10,0.2,0.4
2024-05-18T1600,1071A,116.8842,38.2991,沧州市,沧县城建局,臭氧1小时,127,96,91,35,43,253,,208,208,13,26,7,8,0.7,0.8
2024-05-18T1600,1072A,116.8584,38.3254,沧州市,电视转播站,臭氧1小时,121,92,93,44,50,242,,186,186,11,23,2,7,0.6,0.6
2024-05-18T1600,1073A,116.8709,38.3228,沧州市,市环保局,臭氧1小时,121,103,101,28,29,241,,195,195,13,24,9,9,0.5,0.7
2024-05-18T1600,3324A,116.8136,38.3004,沧州市,河北水利电力学院,臭氧1小时,121,92,88,39,44,241,,205,205,11,23,10,10,0.3,0.6
2024-05-18T1600,2622A,97.1806,31.1273,昌都市,昌都监测站,,40,39,15,26,11,125,,115,115,5,5,6,7,0.4,0.3
2024-05-18T1600,3719A,97.1714,31.1406,昌都市,昌都会议中心,,45,41,13,23,11,142,,127,127,4,5,7,7,0.3,0.3
2024-05-18T1600,2690A,88.1236,43.8886,昌吉回族自治州,天山天池,颗粒物(PM10),53,56,62,14,15,116,,86,86,11,6,11,7,0.8,0.6
2024-05-18T1600,2692A,87.2717,44.0297,昌吉回族自治州,新区政务中心,,48,48,73,17,30,110,,74,74,7,15,13,9,0.5,0.4
2024-05-18T1600,3613A,87.3095,44.0142,昌吉回族自治州,亚心广场,颗粒物(PM10),54,58,80,19,20,120,,88,88,11,18,13,10,0.6,0.4
2024-05-18T1600,1119A,125.3325,43.9166,长春市,食品厂,,46,46,61,25,25,96,,132,86,14,22,7,9,0.2,0.4
2024-05-18T1600,1120A,125.2863,43.9027,长春市,客车厂,,37,37,57,19,23,92,,130,86,15,18,5,7,0.3,0.5
2024-05-18T1600,1121A,125.2841,43.8463,长春市,邮电学院,,38,38,62,21,19,91,,135,86,15,18,7,9,0.2,0.4
2024-05-18T1600,1122A,125.3716,43.8772,长春市,劳动公园,,40,40,54,18,18,97,,142,91,18,18,5,7,0.3,0.5
2024-05-18T1600,1123A,125.3297,43.8805,长春市,园林处,,32,30,50,22,26,94,,132,88,16,19,6,8,0.2,0.4
2024-05-18T1600,1124A,125.4605,43.79,长春市,净月潭,,35,35,57,18,19,98,,121,96,7,14,8,9,0.3,0.4
2024-05-18T1600,1126A,125.3863,43.8447,长春市,经开区环卫处,,35,35,53,18,19,99,,131,92,15,20,6,7,0.3,0.5
2024-05-18T1600,1127A,125.245,43.7783,长春市,高新区管委会,,33,33,51,22,19,81,,129,88,21,18,6,8,0.3,0.4
2024-05-18T1600,1128A,125.1761,43.8325,长春市,岱山公园,,40,40,54,22,26,91,,125,86,18,24,6,8,0.4,0.4
2024-05-18T1600,1335A,113.0833,28.2325,长沙市,经开区环保局,臭氧1小时,75,47,55,32,40,180,,158,158,4,7,6,8,0.4,0.5
2024-05-18T1600,1336A,112.8872,28.2189,长沙市,高开区环保局,臭氧1小时,79,52,57,33,36,183,,161,161,9,10,7,7,0.7,0.7
2024-05-18T1600,1337A,113.0792,28.2053,长沙市,马坡岭,臭氧1小时,58,45,53,33,40,166,,148,148,3,7,8,9,0.5,0.5
2024-05-18T1600,1338A,112.9394,28.19,长沙市,湖南师范大学,臭氧1小时,69,53,60,31,40,175,,161,161,5,7,3,3,0.7,0.8
2024-05-18T1600,1339A,113.0178,28.1322,长沙市,雨花区环保局,臭氧1小时,64,48,56,32,36,171,,156,156,5,9,6,8,0.4,0.5
2024-05-18T1600,1340A,112.9792,28.2597,长沙市,伍家岭,臭氧1小时,67,51,59,31,34,173,,157,157,11,11,6,8,0.4,0.5
2024-05-18T1600,1341A,113.0014,28.1944,长沙市,火车新站,臭氧1小时,70,49,56,34,36,176,,158,158,10,13,4,6,0.7,0.9
2024-05-18T1600,1342A,112.9844,28.1178,长沙市,天心区环保局,臭氧1小时,52,44,62,25,39,161,,154,154,24,22,3,5,0.5,0.6
2024-05-18T1600,1343A,112.8908,28.1308,长沙市,湖南中医药大学,臭氧1小时,68,51,58,32,39,174,,156,156,10,12,6,8,0.8,0.9
2024-05-18T1600,1344A,112.9581,28.3611,长沙市,沙坪,臭氧1小时,75,44,54,37,33,180,,158,158,11,13,8,8,0.5,0.6
2024-05-18T1600,1727A,113.1147,36.1547,长治市,清华站,臭氧1小时,69,64,80,27,34,175,,166,166,9,24,9,12,0.4,0.7
2024-05-18T1600,1728A,113.1031,36.1989,长治市,监测站,臭氧1小时,65,58,80,27,34,172,,168,168,13,30,4,6,0.6,1.1
2024-05-18T1600,1730A,113.0886,36.2125,长治市,审计局,臭氧1小时,78,60,78,22,32,182,,169,169,8,22,13,16,0.4,0.9
2024-05-18T1600,1731A,113.0844,36.1856,长治市,长治八中,臭氧1小时,74,72,95,22,33,179,,173,173,13,33,8,10,0.7,1
2024-05-18T1600,2845A,113.1569,36.1911,长治市,德盛苑,臭氧1小时,70,52,76,19,33,176,,173,173,5,15,5,8,0.5,1.1
2024-05-18T1600,3568A,113.06,36.0464,长治市,向阳小学,臭氧1小时,101,90,86,53,46,201,,184,184,9,16,15,15,0.6,0.7
2024-05-18T1600,3569A,112.8792,36.3144,长治市,屯留一中,臭氧1小时,106,49,75,29,35,212,,186,186,9,24,10,12,0.6,0.7
2024-05-18T1600,3570A,113.235,36.3489,长治市,潞城四中,臭氧1小时,80,80,104,29,46,184,,192,192,5,33,7,7,0.4,0.9
2024-05-18T1600,1854A,111.6975,28.9703,常德市,市二中,,46,,39,32,28,134,,122,122,9,9,9,8,0.6,0.5
2024-05-18T1600,3138A,111.7153,29.0289,常德市,武陵区永安,细颗粒物(PM2.5),52,42,43,36,29,146,,131,131,8,8,8,8,0.5,0.4
2024-05-18T1600,3139A,111.6892,28.9881,常德市,鼎城区玉霞,,49,39,44,34,28,136,,129,129,7,9,7,7,0.6,0.5
2024-05-18T1600,3140A,111.6625,29.0531,常德市,武陵区长庚,,43,34,44,27,29,137,,128,128,5,7,8,8,0.6,0.5
2024-05-18T1600,1196A,119.9633,31.762,常州市,市监测站,臭氧1小时,127,59,70,30,31,254,,207,207,14,30,9,9,0.5,0.6
2024-05-18T1600,1200A,119.9468,31.7069,常州市,武进监测站,臭氧1小时,125,46,49,24,24,249,,205,205,8,20,7,8,0.5,0.5
2024-05-18T1600,1201A,119.9255,31.9087,常州市,安家,臭氧1小时,128,47,61,31,30,256,,188,188,13,31,8,8,0.5,0.7
2024-05-18T1600,3002A,119.9805,31.8174,常州市,行政中心,臭氧1小时,129,58,61,32,27,257,,199,199,15,29,13,14,0.2,0.4
2024-05-18T1600,3003A,120.0522,31.7748,常州市,经开区,臭氧1小时,128,58,66,32,27,256,,197,197,17,34,9,10,0.7,0.6
2024-05-18T1600,3010A,119.9025,31.7964,常州市,钟楼,臭氧1小时,130,59,59,31,27,259,,206,206,15,24,8,9,0.6,0.6
2024-05-18T1600,3429A,119.8598,31.7066,常州市,武进经发区,臭氧1小时,120,51,63,28,29,240,,196,196,11,24,9,10,0.5,0.5
2024-05-18T1600,3430A,119.5826,31.7245,常州市,金坛城区,臭氧1小时,117,49,47,29,25,234,,188,188,8,16,9,10,0.6,0.7
2024-05-18T1600,2220A,120.4318,41.5881,朝阳市,西梁,,42,25,31,20,24,133,,160,124,8,11,12,15,0.5,0.6
2024-05-18T1600,2221A,120.4521,41.5646,朝阳市,河畔小区,颗粒物(PM10),55,60,63,25,51,144,,174,136,8,11,9,12,0.5,0.6
2024-05-18T1600,2222A,120.4176,41.5648,朝阳市,八里堡,颗粒物(PM10),67,84,69,14,25,138,,155,128,9,14,9,13,0.6,0.8
2024-05-18T1600,2223A,120.3806,41.5969,朝阳市,农业园区,颗粒物(PM10),62,74,75,18,35,141,,130,128,6,14,9,12,0.5,0.7
2024-05-18T1600,1705A,116.6367,23.6719,潮州市,西园路,细颗粒物(PM2.5),69,69,59,50,33,153,,129,129,24,21,9,8,0.5,0.4
2024-05-18T1600,3026A,116.6183,23.6608,潮州市,市政府,细颗粒物(PM2.5),67,71,65,48,31,155,,132,132,28,25,15,15,0.8,0.5
2024-05-18T1600,4036A,116.6461,23.6761,潮州市,金山,细颗粒物(PM2.5),73,58,59,53,38,151,,128,128,24,20,14,12,0.6,0.5
2024-05-18T1600,2472A,113.0073,25.9061,郴州市,马头岭,,36,36,41,20,17,84,,97,97,4,9,3,3,0.6,0.7
2024-05-18T1600,2473A,113.0116,25.8226,郴州市,市职中,,33,30,42,23,35,100,,114,114,9,14,6,6,0.7,0.8
2024-05-18T1600,2474A,113.0161,25.8001,郴州市,兴隆步行街,,48,40,51,33,33,104,,114,114,9,14,6,7,0.7,0.7
2024-05-18T1600,2475A,113.0383,25.8071,郴州市,市审计局,,38,28,40,26,38,109,,120,120,8,13,4,9,0.5,0.7
2024-05-18T1600,2476A,113.0348,25.7759,郴州市,市环保局,,44,44,50,22,40,108,,114,114,8,20,4,8,0.6,0.7
2024-05-18T1600,1431A,103.9728,30.7236,成都市,金泉两河,,49,49,80,23,55,151,,85,85,6,31,1,4,0.2,0.5
2024-05-18T1600,1432A,104.176,30.6872,成都市,十里店,细颗粒物(PM2.5),68,79,95,49,60,154,,110,110,10,27,4,6,0.5,0.7
2024-05-18T1600,1433A,104.079,30.5706,成都市,三瓦窑,细颗粒物(PM2.5),64,64,91,46,65,151,,91,91,9,39,2,6,0.5,0.7
2024-05-18T1600,1434A,104.1114,30.63,成都市,沙河铺,颗粒物(PM10),51,51,83,30,58,142,,86,86,11,33,5,6,0.5,0.7
2024-05-18T1600,1437A,104.0786,30.6531,成都市,君平街,臭氧1小时,53,38,89,17,59,162,,99,99,4,30,5,8,0.5,0.7
2024-05-18T1600,2880A,104.0239,30.65639,成都市,大石西路,臭氧1小时,52,41,83,30,54,161,,97,97,7,35,4,7,0.4,0.6
2024-05-18T1600,3136A,104.2725,30.5589,成都市,龙泉驿区区政府,,46,36,56,27,38,146,,113,113,3,16,4,5,0.5,0.6
2024-05-18T1600,3357A,104.0106,30.6931,成都市,金博路,,50,41,85,19,54,159,,92,92,5,26,1,4,0.4,0.7
2024-05-18T1600,3359A,104.0578,30.5225,成都市,华阳,颗粒物(PM10),53,56,73,29,52,144,,93,93,8,25,3,6,0.5,0.6
2024-05-18T1600,3487A,104.2394,30.5319,成都市,车城东七路,,45,33,71,21,49,142,,113,113,6,18,2,5,0.5,0.6
2024-05-18T1600,3488A,104.3853,30.7453,成都市,青白江技师分院,,49,44,62,34,43,152,,107,107,6,26,4,6,0.7,0.8
2024-05-18T1600,3489A,104.0789,30.4072,成都市,科学城,,47,39,66,23,46,150,,108,108,7,24,3,6,0.7,0.8
2024-05-18T1600,4011A,103.8506,30.6947,成都市,光华大道三段,,49,46,86,20,55,154,,101,101,9,28,3,3,0.6,0.9
2024-05-18T1600,1062A,117.9531,40.9081,承德市,铁路,臭氧1小时,103,62,64,28,28,206,,180,180,11,23,10,10,0.4,0.6
2024-05-18T1600,1063A,117.9392,40.9763,承德市,中国银行,臭氧1小时,104,60,65,22,29,207,,182,182,7,17,10,10,0.4,0.6
2024-05-18T1600,1064A,117.9503,40.928,承德市,开发区,臭氧1小时,106,68,64,26,28,212,,184,184,12,22,9,9,0.6,0.7
2024-05-18T1600,1065A,117.8051,40.9655,承德市,文化中心,臭氧1小时,110,67,76,29,30,220,,197,197,8,24,10,10,0.4,0.5
2024-05-18T1600,1066A,117.9268,41.0026,承德市,离宫,臭氧1小时,103,47,59,17,26,205,,185,185,5,13,5,4,0.4,0.5
2024-05-18T1600,2314A,117.47,30.6618,池州市,池州学院,臭氧1小时,108,62,61,39,35,215,,170,170,13,14,8,6,0.5,0.7
2024-05-18T1600,3237A,117.4918,30.6617,池州市,展览馆,臭氧1小时,105,63,59,35,30,210,,164,164,8,13,6,5,0.5,0.7
2024-05-18T1600,3333A,117.5627,30.695,池州市,第八中学,臭氧1小时,103,51,62,,40,206,,175,175,7,13,5,5,0.6,0.6
2024-05-18T1600,3334A,117.5038,30.6243,池州市,第十二中学,臭氧1小时,111,68,64,34,34,222,,176,176,11,20,8,7,0.5,0.9
2024-05-18T1600,1744A,118.9233,42.2816,赤峰市,松山一中,颗粒物(PM10),56,61,82,13,14,86,,121,83,20,20,9,11,0.3,0.4
2024-05-18T1600,1745A,118.9576,42.2728,赤峰市,哈达街,颗粒物(PM10),53,56,55,9,17,89,,117,83,20,24,9,11,0.3,0.5
2024-05-18T1600,1746A,118.8788,42.2554,赤峰市,天义路,,42,42,41,16,15,91,,124,87,17,19,6,8,0.3,0.4
2024-05-18T1600,3058A,119.2658,42.0353,赤峰市,银河街,,,,120,40,34,110,,111,96,12,17,10,14,0.2,0.6
2024-05-18T1600,3286A,118.9359,42.3147,赤峰市,桥北物流园区,颗粒物(PM10),57,63,56,11,23,96,,119,92,12,20,3,5,0.4,0.5
2024-05-18T1600,2521A,107.3476,22.4136,崇左市,市环保局江州分局,,46,44,43,32,22,97,,76,76,5,10,8,9,0.6,0.6
2024-05-18T1600,2522A,107.3702,22.3707,崇左市,城南新区,,40,38,39,28,20,95,,75,75,5,11,6,7,0.5,0.5
2024-05-18T1600,2298A,118.3093,32.3153,滁州市,老年大学,臭氧1小时,125,59,66,32,34,249,,209,209,13,21,12,14,0.8,0.8
2024-05-18T1600,2299A,118.3244,32.2786,滁州市,人大宾馆,臭氧1小时,123,58,66,33,44,246,,207,207,13,27,10,14,0.8,0.9
2024-05-18T1600,3207A,118.3118,32.3038,滁州市,市政府原办公楼,臭氧1小时,123,66,66,34,39,245,,202,202,9,24,10,14,0.8,0.9
2024-05-18T1600,3331A,118.3267,32.2634,滁州市,图书馆,臭氧1小时,118,62,69,27,37,236,,199,199,10,23,12,16,0.8,0.9
2024-05-18T1600,2605A,101.5482,25.0441,楚雄彝族自治州,州环境监测站,,40,29,21,18,16,128,,119,119,4,6,8,7,0.5,0.5
2024-05-18T1600,2606A,101.538,25.0492,楚雄彝族自治州,市经济开发区,,39,,19,23,17,124,,120,120,6,6,4,4,0.5,0.5
2024-05-18T1600,2548A,107.5277,31.2827,达州市,达州职业技术学院,颗粒物(PM10),63,75,64,39,41,106,,90,90,41,37,19,9,1.5,0.7
2024-05-18T1600,2549A,107.5086,31.2186,达州市,市环境监测站,颗粒物(PM10),64,78,86,39,44,119,,72,72,34,46,11,11,0.7,0.9
2024-05-18T1600,2550A,107.4988,31.2132,达州市,凤凰小区,颗粒物(PM10),63,75,86,39,47,122,,79,79,25,40,11,14,0.6,0.9
2024-05-18T1600,2551A,107.5082,31.1986,达州市,达县机关宾馆,颗粒物(PM10),73,95,87,48,48,108,,70,70,48,54,12,8,0.7,0.7
2024-05-18T1600,2552A,107.4644,31.2124,达州市,市政中心,颗粒物(PM10),60,70,84,41,46,121,,63,63,27,50,11,21,0.6,1.3
2024-05-18T1600,2614A,100.1542,25.7054,大理白族自治州,大理市环境监测站,颗粒物(PM10),63,75,34,16,16,105,,93,93,17,12,6,6,0.4,0.5
2024-05-18T1600,2615A,100.2171,25.5811,大理白族自治州,大理古城,,40,28,25,11,19,126,,107,107,6,10,9,8,0.7,0.7
2024-05-18T1600,1109A,121.612,38.9741,大连市,甘井子,,36,36,56,16,19,94,,95,95,19,24,8,9,0.4,0.5
2024-05-18T1600,1110A,121.565,38.9511,大连市,周水子,,39,39,52,20,20,93,,90,90,13,19,10,9,0.5,0.6
2024-05-18T1600,1111A,121.5637,38.8845,大连市,星海三站,,33,29,51,15,22,104,,107,106,9,10,6,7,0.5,0.6
2024-05-18T1600,1112A,121.6302,38.9117,大连市,青泥洼桥,,34,34,53,19,20,63,,91,80,8,17,7,8,0.8,0.7
2024-05-18T1600,1113A,121.6251,38.8638,大连市,傅家庄,,30,24,43,12,18,95,,108,97,10,14,8,8,0.4,0.5
2024-05-18T1600,1114A,121.5213,38.8661,大连市,七贤岭,,35,35,58,15,21,105,,108,108,14,17,8,8,0.4,0.4
2024-05-18T1600,1115A,121.2529,38.8061,大连市,旅顺,,37,29,43,15,17,116,,123,123,10,14,8,9,0.3,0.3
2024-05-18T1600,1116A,121.7485,39.1311,大连市,金州,,30,22,45,21,20,91,,100,100,6,9,8,8,0.5,0.6
2024-05-18T1600,1117A,121.7811,39.0496,大连市,开发区,,33,33,53,14,20,99,,98,98,10,17,7,7,0.5,0.5
2024-05-18T1600,1118A,121.9762,39.0631,大连市,双D港,,29,24,29,18,13,92,,102,93,11,11,9,8,0.5,0.5
2024-05-18T1600,1789A,124.81117,46.03138,大庆市,大同区,,32,19,48,18,28,102,,101,101,1,6,6,8,0.3,0.4
2024-05-18T1600,1790A,125.129,46.533,大庆市,龙凤区,,31,20,39,12,26,97,,95,95,6,12,5,6,0.2,0.3
2024-05-18T1600,1791A,124.902,46.408,大庆市,红岗区,,32,19,35,14,16,102,,102,102,4,7,6,7,0.3,0.4
2024-05-18T1600,1792A,125.153,46.586,大庆市,萨尔图区,,27,20,36,9,15,85,,84,84,8,12,7,8,0.4,0.3
2024-05-18T1600,1793A,124.9042,46.6215,大庆市,让胡路区,,29,21,38,14,19,92,,90,90,3,6,5,5,0.2,0.3
2024-05-18T1600,3481A,125.141,46.634,大庆市,萨区政府监测点,,29,17,41,3,16,92,,91,91,5,8,7,8,0.2,0.2
2024-05-18T1600,1723A,113.2994,40.0758,大同市,云冈宾馆,颗粒物(PM10),102,153,99,47,41,178,,156,156,18,47,8,9,0.6,0.9
2024-05-18T1600,1724A,113.3444,40.0917,大同市,大同大学,颗粒物(PM10),88,125,94,63,42,179,,162,162,12,25,15,17,0.4,0.5
2024-05-18T1600,1725A,113.2661,40.1269,大同市,安家小村,颗粒物(PM10),120,189,89,59,40,171,,160,160,,25,11,13,0.1,0.3
2024-05-18T1600,1726A,113.2711,40.0844,大同市,教育学院,颗粒物(PM10),120,190,121,42,45,183,,159,159,21,56,9,11,0.3,0.7
2024-05-18T1600,3282A,113.3397,40.0597,大同市,大同市卫生学校,颗粒物(PM10),104,158,84,44,32,175,,159,159,13,36,10,11,0.6,0.8
2024-05-18T1600,3565A,113.1367,40.1122,大同市,云冈站,颗粒物(PM10),97,143,119,48,61,156,,140,140,5,31,7,21,0.3,0.4
2024-05-18T1600,3566A,113.1186,40.2556,大同市,图书馆,颗粒物(PM10),105,160,143,77,54,139,,120,120,9,18,10,13,0.5,0.6
2024-05-18T1600,3567A,113.5931,40.0461,大同市,区一中,颗粒物(PM10),111,172,76,50,24,182,,179,179,12,21,6,6,0.3,0.4
2024-05-18T1600,3676A,113.2802,40.0995,大同市,第二人民医院,颗粒物(PM10),110,170,102,36,37,177,,156,156,13,38,11,13,0.3,0.5
2024-05-18T1600,2269A,124.1069,50.4097,大兴安岭地区,科技局,,27,,21,17,18,84,,85,81,2,4,1,2,0.1,0.2
2024-05-18T1600,3663A,124.1164,50.4278,大兴安岭地区,红旗社区,,27,6,8,3,7,86,,87,83,2,4,6,7,0.4,0.4
2024-05-18T1600,1600A,124.3303,40.0625,丹东市,江湾东路,,33,33,50,11,19,94,,103,103,7,12,8,13,0.4,0.6
2024-05-18T1600,1601A,124.4256,40.1503,丹东市,临江后街,,30,25,33,8,12,95,,108,108,4,9,9,9,0.4,0.5
2024-05-18T1600,1602A,124.3933,40.1461,丹东市,元宝山,,27,25,32,8,12,85,,97,97,8,11,10,10,0.4,0.4
2024-05-18T1600,1603A,124.3633,40.1092,丹东市,民主桥,,,40,43,11,16,85,,92,92,5,9,10,14,,0.4
2024-05-18T1600,3541A,109.5726,19.5167,儋州市,第一中学子站,,21,7,13,6,9,65,,61,61,2,4,3,4,0.7,0.6
2024-05-18T1600,3542A,109.5567,19.5187,儋州市,东坡学校子站,,,,19,11,8,70,,62,62,1,4,5,5,,0.6
2024-05-18T1600,2616A,98.5842,24.428,德宏傣族景颇族自治州,德宏州监测站,细颗粒物(PM2.5),58,48,43,41,30,123,,63,63,10,14,8,3,0.8,0.9
2024-05-18T1600,3677A,98.5881,24.4368,德宏傣族景颇族自治州,芒市人民政府综合楼,颗粒物(PM10),54,58,47,29,25,113,,56,56,10,11,6,4,0.7,0.7
2024-05-18T1600,1901A,104.4239,31.1208,德阳市,东山公园,,42,42,73,27,36,132,,97,97,8,18,2,5,0.5,0.6
2024-05-18T1600,1902A,104.3826,31.1317,德阳市,西小区,,43,42,81,28,47,135,,96,96,8,29,2,5,0.6,0.7
2024-05-18T1600,1904A,104.3553,31.1091,德阳市,耐火材料厂,,47,37,82,30,45,150,,104,104,8,30,3,6,0.4,0.6
2024-05-18T1600,3639A,104.4019,31.1244,德阳市,市教育局,,48,46,75,33,40,130,,93,93,5,23,3,5,0.5,0.7
2024-05-18T1600,1622A,116.3032,37.4674,德州市,儿童乐园,臭氧1小时,110,75,107,22,48,219,,225,225,12,30,9,11,0.7,0.9
2024-05-18T1600,1624A,116.2991,37.4451,德州市,监理站,臭氧1小时,102,80,106,24,53,204,,223,223,7,32,14,15,0.5,0.7
2024-05-18T1600,3066A,116.2721,37.4379,德州市,九衢泉纯净水厂,臭氧1小时,88,66,106,22,46,190,,208,208,12,44,8,8,0.4,0.7
2024-05-18T1600,3371A,116.3728,37.4403,德州市,开发区人民医院,臭氧1小时,108,68,99,24,42,215,,210,210,4,35,11,12,0.5,0.7
2024-05-18T1600,3372A,116.3572,37.4094,德州市,太阳城中学,臭氧1小时,103,70,93,29,46,206,,208,208,6,39,9,11,0.6,0.8
2024-05-18T1600,3511A,116.5652,37.3319,德州市,陵城艺术中心,臭氧1小时,111,80,99,29,45,222,,190,190,4,15,8,11,0.5,0.7
2024-05-18T1600,2621A,99.7056,27.8317,迪庆藏族自治州,迪庆州站,,39,27,25,10,14,124,,108,108,8,13,8,9,0.3,0.4
2024-05-18T1600,3180A,99.7136,27.8094,迪庆藏族自治州,质量技术监督局,,39,34,24,11,9,122,,105,105,8,12,7,7,0.3,0.4
2024-05-18T1600,2663A,104.6241,35.5734,定西市,东关小学,颗粒物(PM10),52,53,90,20,26,160,,140,140,6,16,4,4,0.2,0.3
2024-05-18T1600,2664A,104.6194,35.5934,定西市,供电公司,,47,46,47,15,18,150,,141,141,6,4,2,17,0.3,0.4
2024-05-18T1600,1389A,113.7547,23.0494,东莞市,莞城梨川,,40,27,59,14,30,127,,132,132,16,29,8,9,0.8,0.9
2024-05-18T1600,1390A,113.7944,23.0128,东莞市,东城石井,,41,26,53,17,31,129,,142,142,18,27,8,8,0.7,0.7
2024-05-18T1600,1391A,113.7383,22.9658,东莞市,南城西平,,41,32,68,17,37,130,,138,138,20,46,10,8,0.6,0.8
2024-05-18T1600,3319A,113.7338,23.0381,东莞市,万江金泰,,39,29,59,16,33,123,,126,126,14,28,8,8,0.6,0.7
2024-05-18T1600,3626A,113.7533,23.0202,东莞市,南城元岭,,,32,61,16,32,125,,139,139,,35,9,10,0.7,0.9
2024-05-18T1600,3627A,113.7875,23.0457,东莞市,东城主山,,40,28,54,16,32,126,,136,136,14,27,8,9,0.5,0.7
2024-05-18T1600,1666A,118.6614,37.4309,东营市,市环保局,臭氧1小时,108,85,89,41,55,215,,194,194,16,26,15,14,0.3,0.5
2024-05-18T1600,3036A,118.6904,37.4338,东营市,开发区管委会,臭氧1小时,119,106,101,41,52,237,,208,208,17,26,15,13,0.6,0.7
2024-05-18T1600,3365A,118.5719,37.565,东营市,垦利区民丰路,,,,102,,47,240,,211,211,15,27,15,12,0.8,1
2024-05-18T1600,3498A,118.5055,37.8612,东营市,河口城区,臭氧1小时,132,114,98,59,55,264,,233,233,13,17,8,8,0.7,0.7
2024-05-18T1600,3646A,118.4978,37.4623,东营市,胜利站,臭氧1小时,128,83,82,41,47,255,,210,210,18,30,13,11,0.8,1.1
2024-05-18T1600,3734A,118.35,37.26,东营市,理想之城,臭氧1小时,121,97,104,41,52,241,,203,203,19,28,17,15,0.7,0.9
2024-05-18T1600,1591A,110.0023,39.8129,鄂尔多斯市,综合楼,颗粒物(PM10),103,156,196,36,61,169,,146,146,14,34,8,10,0.3,0.4
2024-05-18T1600,1592A,109.9486,39.8261,鄂尔多斯市,巴音孟克林场办事处,颗粒物(PM10),98,146,175,48,68,152,,137,137,10,30,7,10,0.4,0.6
2024-05-18T1600,1593A,109.7736,39.5986,鄂尔多斯市,康泽苑,颗粒物(PM10),86,122,143,51,69,170,,142,142,10,27,7,6,0.3,0.4
2024-05-18T1600,1594A,109.8119,39.5989,鄂尔多斯市,华泰汽车城,细颗粒物(PM2.5),110,127,144,83,61,160,,131,131,10,42,8,8,0.4,0.5
2024-05-18T1600,1595A,109.9734,39.7884,鄂尔多斯市,奥林花园,颗粒物(PM10),89,127,176,29,71,155,,132,132,10,40,8,9,0.4,0.6
2024-05-18T1600,2436A,114.8938,30.3994,鄂州市,市政府,臭氧1小时,104,65,71,30,38,208,,180,180,7,18,11,14,0.7,0.8
2024-05-18T1600,2437A,114.8989,30.3714,鄂州市,赵家坝,臭氧1小时,98,64,73,32,40,198,,174,174,2,10,10,11,0.7,0.8
2024-05-18T1600,3654A,114.8094,30.4089,鄂州市,精准医疗中心,臭氧1小时,77,49,81,25,37,181,,172,172,11,22,10,11,0.6,0.7
2024-05-18T1600,2454A,109.4978,30.2981,恩施土家族苗族自治州,湖北民院,细颗粒物(PM2.5),65,61,50,47,38,71,,61,61,25,18,8,8,0.6,0.6
2024-05-18T1600,2455A,109.4707,30.2798,恩施土家族苗族自治州,州电力总公司,细颗粒物(PM2.5),57,,56,40,38,64,,48,48,28,28,9,9,0.7,0.6
2024-05-18T1600,3549A,109.5061,30.3772,恩施土家族苗族自治州,龙凤新区,细颗粒物(PM2.5),55,55,46,39,32,30,,53,53,23,15,6,6,0.9,0.7
2024-05-18T1600,2499A,108.3411,21.6158,防城港市,沙万,,20,20,38,12,16,64,,60,59,17,16,11,10,0.5,0.7
2024-05-18T1600,2500A,108.3514,21.7731,防城港市,防城档案局,,23,23,31,10,13,66,,62,62,14,13,5,5,0.8,0.8
2024-05-18T1600,2501A,108.3506,21.6414,防城港市,大海花园,,24,24,35,7,9,76,,68,68,9,13,6,7,0.7,0.6
2024-05-18T1600,1371A,113.1294,23.0067,佛山市,湾梁,臭氧1小时,80,58,70,25,28,184,,141,141,26,39,7,7,0.5,0.5
2024-05-18T1600,1372A,113.1083,23.0478,佛山市,华材职中,,48,48,65,25,34,98,,117,117,53,45,3,4,0.5,0.6
2024-05-18T1600,1373A,113.144,23.0453,佛山市,南海气象局,颗粒物(PM10),56,61,59,29,33,122,,124,124,35,42,5,5,0.6,0.6
2024-05-18T1600,1374A,113.2881,22.8094,佛山市,顺德苏岗,臭氧1小时,97,52,61,34,33,197,,153,153,28,40,6,7,0.6,0.7
2024-05-18T1600,1376A,112.8383,22.8678,佛山市,高明孔堂,颗粒物(PM10),53,56,71,26,40,114,,119,119,41,39,10,10,0.6,0.6
2024-05-18T1600,1377A,112.8836,23.1588,佛山市,三水监测站,,29,27,64,20,33,90,,97,97,27,35,7,8,0.6,0.6
2024-05-18T1600,1378A,112.867,23.185,佛山市,三水云东海,,35,26,50,24,35,76,,98,96,22,30,3,5,0.6,0.7
2024-05-18T1600,3625A,113.2544,22.7642,佛山市,容桂街道办,臭氧1小时,104,61,64,31,30,208,,159,159,34,37,6,7,0.5,0.6
2024-05-18T1600,1282A,119.2681,26.0504,福州市,师大,,43,43,40,12,16,97,,113,113,1,6,3,4,0.4,0.5
2024-05-18T1600,1283A,119.2984,26.1028,福州市,五四北路,,,,,12,16,110,,121,121,4,11,3,4,0.3,0.5
2024-05-18T1600,1284A,119.2648,26.0768,福州市,杨桥西路,,42,42,41,14,18,104,,117,117,6,12,3,4,0.4,0.4
2024-05-18T1600,1285A,119.317,26.0746,福州市,紫阳,,42,42,41,10,16,95,,108,108,3,8,3,3,0.3,0.4
2024-05-18T1600,3048A,119.5799,26.0936,福州市,九龙,,32,32,30,7,10,83,,94,94,2,4,4,5,0.2,0.3
2024-05-18T1600,3526A,119.5189,25.9664,福州市,吴航,,26,25,37,9,16,82,,86,86,2,12,3,4,0.4,0.5
2024-05-18T1600,1755A,123.7977,41.8491,抚顺市,望花区,臭氧1小时,70,55,59,31,28,176,,172,172,12,13,8,16,0.6,0.6
2024-05-18T1600,1756A,123.9161,41.8822,抚顺市,顺城区,臭氧1小时,68,64,59,28,26,174,,167,167,16,14,11,10,0.6,0.6
2024-05-18T1600,1757A,124.0436,41.8611,抚顺市,东洲区,臭氧1小时,57,49,42,35,30,165,,158,158,11,10,10,10,0.6,0.4
2024-05-18T1600,1758A,123.9247,41.8642,抚顺市,新抚区,臭氧1小时,65,64,56,18,18,172,,167,167,11,14,9,10,0.6,0.6
2024-05-18T1600,1759A,124.0972,41.8961,抚顺市,大伙房水库,臭氧1小时,68,55,51,30,25,174,,168,168,11,7,9,8,0.6,0.4
2024-05-18T1600,1760A,123.7086,41.8391,抚顺市,沈抚新城,颗粒物(PM10),82,113,70,33,25,162,,163,163,16,13,8,9,0.6,0.6
2024-05-18T1600,2376A,116.2127,28.0814,抚州市,桐源党溪,颗粒物(PM10),54,57,45,23,25,156,,140,140,5,9,11,8,0.4,0.5
2024-05-18T1600,2377A,116.3544,27.9831,抚州市,市站,,46,46,47,21,26,142,,131,131,7,13,4,5,0.6,0.7
2024-05-18T1600,2378A,116.3565,27.963,抚州市,血防站,,47,44,49,27,27,150,,142,142,5,16,2,4,0.7,0.7
2024-05-18T1600,2379A,116.3564,28.0007,抚州市,采茶剧团,,45,41,49,20,28,142,,128,128,3,12,4,4,0.8,0.9
2024-05-18T1600,2380A,116.385,27.9647,抚州市,医学分院,,48,41,51,18,23,151,,134,134,8,16,3,4,0.7,0.9
2024-05-18T1600,2207A,121.6094,41.998,阜新市,工业园区,颗粒物(PM10),120,189,95,23,25,152,,144,144,13,16,15,13,0.6,0.7
2024-05-18T1600,2208A,121.6697,42.0279,阜新市,长青街,颗粒物(PM10),59,67,59,20,28,140,,145,140,12,16,13,13,0.4,0.6
2024-05-18T1600,2209A,121.6673,42.0705,阜新市,农业园区,颗粒物(PM10),125,199,106,17,28,129,,130,130,10,14,7,7,0.4,0.6
2024-05-18T1600,2210A,121.6717,42.0224,阜新市,东苑,颗粒物(PM10),101,151,83,20,26,141,,144,141,13,17,,14,0.5,0.9
2024-05-18T1600,2211A,121.6506,42.0498,阜新市,玉龙新城,颗粒物(PM10),118,186,85,29,23,132,,130,129,11,14,8,13,0.4,0.5
2024-05-18T1600,2301A,115.8277,32.8929,阜阳市,市监测站,臭氧1小时,70,69,67,32,38,176,,162,162,18,14,7,7,0.4,0.5
2024-05-18T1600,2303A,115.8554,32.8605,阜阳市,开发区,臭氧1小时,84,70,78,25,33,187,,167,167,5,8,5,6,0.3,0.5
2024-05-18T1600,2875A,115.784,32.8892,阜阳市,阜阳职业技术学院,臭氧1小时,89,59,70,23,33,191,,174,174,9,11,7,7,0.4,0.4
2024-05-18T1600,3468A,115.7901,32.8613,阜阳市,市规划展馆,臭氧1小时,89,64,76,29,41,191,,172,172,7,11,5,6,0.4,0.5
2024-05-18T1600,3469A,115.836,32.9183,阜阳市,枣园社区,臭氧1小时,83,73,70,34,39,186,,167,167,16,15,6,6,0.2,0.4
2024-05-18T1600,2669A,102.9099,34.9841,甘南藏族自治州,州政府,,43,25,58,14,27,136,,106,106,3,19,7,8,0.3,0.4
2024-05-18T1600,3380A,102.8914,34.9617,甘南藏族自治州,甘肃民族师范学院,,42,18,75,15,24,133,,102,102,4,29,7,8,0.3,0.3
2024-05-18T1600,2570A,101.9603,30.0475,甘孜藏族自治州,水桥子,,33,20,12,10,7,103,,71,71,10,28,3,3,0.3,0.3
2024-05-18T1600,3065A,101.9533,29.9972,甘孜藏族自治州,州环保局,,37,14,11,3,5,116,,75,75,10,24,2,2,0.3,0.3
2024-05-18T1600,3414A,115.8347,28.932,赣江新区,桑海产业园,臭氧1小时,102,73,74,37,35,203,,156,156,16,44,12,11,0.7,0.6
2024-05-18T1600,2363A,114.9367,25.8664,赣州市,地委,,43,40,54,30,35,134,,142,142,11,18,14,15,0.6,0.6
2024-05-18T1600,2364A,114.9461,25.8481,赣州市,气象台,,45,37,53,24,33,142,,147,147,7,16,11,9,0.6,0.7
2024-05-18T1600,2365A,114.9322,25.8333,赣州市,市图书馆,,42,31,52,22,31,132,,141,141,9,18,5,7,0.9,0.9
2024-05-18T1600,2366A,114.8905,25.8471,赣州市,华坚鞋城,,,44,63,26,34,147,,152,152,,22,13,15,0.2,0.5
2024-05-18T1600,3109A,115.0093,25.8613,赣州市,赣县区卫计委,,42,42,49,27,32,128,,138,138,11,20,6,5,0.5,0.6
2024-05-18T1600,2683A,106.2319,36.1417,固原市,马园,,50,39,64,17,25,159,,146,146,10,30,5,6,0.3,0.3
2024-05-18T1600,2684A,106.2792,36.0022,固原市,监测站,,50,27,54,20,24,157,,141,141,8,22,4,4,0.2,0.3
2024-05-18T1600,2685A,106.2375,36.0211,固原市,新区,,49,40,53,10,18,154,,147,147,10,19,3,3,0.2,0.3
2024-05-18T1600,3522A,106.2177,35.9959,固原市,原州区十五小,,50,43,57,15,24,160,,141,141,5,10,3,6,0.3,0.1
2024-05-18T1600,2544A,106.6303,30.4576,广安市,市委,细颗粒物(PM2.5),62,52,66,44,38,92,,106,105,11,23,8,9,0.5,0.6
2024-05-18T1600,2545A,106.6271,30.4663,广安市,友谊中学,,,49,53,31,36,91,,108,107,,24,4,7,0.7,0.6
2024-05-18T1600,2547A,106.6388,30.4551,广安市,广电花园,细颗粒物(PM2.5),52,45,58,36,39,88,,98,98,14,20,8,9,0.7,0.7
2024-05-18T1600,2902A,106.6351,30.4865,广安市,北辰小学,细颗粒物(PM2.5),53,50,61,37,36,106,,104,104,8,18,9,9,0.6,0.6
2024-05-18T1600,2523A,105.8945,32.4535,广元市,黑石坡,细颗粒物(PM2.5),74,78,54,54,35,97,,96,89,17,16,9,10,0.6,0.5
2024-05-18T1600,2524A,105.821,32.4444,广元市,老城,细颗粒物(PM2.5),115,112,86,87,49,106,,85,85,14,40,6,9,0.9,0.8
2024-05-18T1600,2526A,105.8628,32.4287,广元市,监测站,细颗粒物(PM2.5),113,114,73,85,56,111,,94,94,10,18,8,11,0.7,0.7
2024-05-18T1600,3617A,105.8047,32.4166,广元市,经开区,细颗粒物(PM2.5),137,139,96,104,66,104,,90,90,15,21,13,11,0.9,0.7
2024-05-18T1600,1345A,113.2347,23.1423,广州市,广雅中学,,37,37,55,18,33,117,,120,120,35,44,5,13,0.6,0.7
2024-05-18T1600,1346A,113.2612,23.105,广州市,市五中,,50,37,55,22,33,157,,152,152,19,29,6,6,0.6,0.6
2024-05-18T1600,1348A,113.3478,23.0916,广州市,广东商学院,,45,41,60,25,36,142,,137,137,29,47,5,6,0.6,0.7
2024-05-18T1600,1349A,113.4332,23.1047,广州市,市八十六中,,40,39,62,20,34,127,,132,132,25,52,5,6,0.7,0.8
2024-05-18T1600,1350A,113.3505,22.9483,广州市,番禺中学,臭氧1小时,62,46,65,23,38,169,,144,144,30,44,6,7,0.5,0.6
2024-05-18T1600,1351A,113.2146,23.3916,广州市,花都师范,,27,23,52,15,28,84,,100,100,20,23,5,7,0.4,0.5
2024-05-18T1600,1352A,113.2597,23.1331,广州市,市监测站,,40,32,54,20,31,125,,124,124,25,38,5,5,0.5,0.6
2024-05-18T1600,1353A,113.5618,23.312,广州市,九龙镇镇龙,,34,16,52,11,33,106,,108,108,13,18,6,6,0.4,0.5
2024-05-18T1600,1354A,113.2765,23.1544,广州市,麓湖,,,34,52,20,33,121,,129,129,22,40,5,6,,0.7
2024-05-18T1600,1355A,113.443,23.3035,广州市,帽峰山森林公园,,36,13,40,10,26,115,,103,103,11,20,5,6,0.4,0.5
2024-05-18T1600,2846A,113.3221,23.1322,广州市,体育西,,36,34,56,19,34,114,,132,132,22,33,4,5,0.6,0.6
2024-05-18T1600,3298A,113.5717,23.5491,广州市,从化街口,,26,14,42,10,27,82,,93,93,11,21,5,6,0.6,0.7
2024-05-18T1600,3299A,113.3472,23.3692,广州市,白云竹料,,27,26,54,17,34,86,,100,100,20,23,4,5,0.5,0.5
2024-05-18T1600,3300A,113.2981,23.237,广州市,白云嘉禾,,36,33,63,18,33,113,,102,102,26,41,5,6,0.7,0.8
2024-05-18T1600,3301A,113.4256,23.1716,广州市,黄埔科学城,,37,37,57,20,32,103,,124,124,23,27,4,4,0.6,0.7
2024-05-18T1600,3302A,113.3942,23.0483,广州市,番禺大学城,,44,44,70,22,32,130,,136,136,32,49,8,8,0.5,0.6
2024-05-18T1600,3303A,113.4922,22.8168,广州市,南沙黄阁,臭氧1小时,72,65,66,36,34,177,,144,144,36,45,7,7,0.7,0.8
2024-05-18T1600,3304A,113.5342,22.7896,广州市,南沙街,臭氧1小时,77,60,61,28,35,181,,145,145,23,37,7,8,0.6,0.7
2024-05-18T1600,3443A,113.2902,23.5544,广州市,花都梯面,,28,17,43,14,29,88,,103,103,9,21,4,6,0.5,0.5
2024-05-18T1600,3445A,113.7858,23.7478,广州市,从化良口,,23,12,23,8,14,73,,97,91,6,9,5,5,0.5,0.6
2024-05-18T1600,3446A,113.8051,23.2614,广州市,增城荔城,,30,23,42,14,24,95,,98,98,10,16,5,5,0.6,0.7
2024-05-18T1600,2506A,109.6047,23.0666,贵港市,江南子站,细颗粒物(PM2.5),83,,78,61,54,68,,92,74,26,22,9,11,1.0,0.8
2024-05-18T1600,2507A,109.6014,23.0948,贵港市,贵城子站,细颗粒物(PM2.5),82,83,76,60,54,75,,91,78,19,17,7,10,0.6,0.7
2024-05-18T1600,2508A,109.5669,23.1065,贵港市,荷城子站,细颗粒物(PM2.5),62,48,68,44,43,74,,94,79,18,16,9,12,0.5,0.5
2024-05-18T1600,3405A,109.5886,23.1172,贵港市,新世纪学校,细颗粒物(PM2.5),60,56,72,43,45,77,,94,82,17,16,9,12,0.9,0.9
2024-05-18T1600,1439A,106.6899,26.5998,贵阳市,马鞍山,,19,7,14,3,6,60,,51,51,14,14,2,3,0.7,0.7
2024-05-18T1600,1440A,106.6971,26.5694,贵阳市,市环保站,,18,,15,11,12,55,,55,55,28,21,3,4,0.7,0.6
2024-05-18T1600,1441A,106.6243,26.6266,贵阳市,鉴湖路,,18,,12,9,7,56,,62,58,18,12,2,3,0.5,0.5
2024-05-18T1600,1442A,106.7487,26.6343,贵阳市,燕子冲,,19,14,15,7,14,60,,61,61,14,14,9,7,0.4,0.5
2024-05-18T1600,1443A,106.6555,26.4365,贵阳市,碧云窝,,21,19,14,3,4,66,,58,58,11,12,4,5,0.6,0.6
2024-05-18T1600,1444A,106.694,26.5161,贵阳市,中院村,,18,7,17,7,8,55,,53,48,17,18,6,7,0.6,0.7
2024-05-18T1600,1445A,106.7109,26.6027,贵阳市,红边门,,18,9,18,9,16,56,,57,57,24,23,3,4,0.8,0.7
2024-05-18T1600,1446A,106.7164,26.5699,贵阳市,新华路,,20,6,16,3,11,61,,58,58,18,17,3,4,0.6,0.5
2024-05-18T1600,1447A,106.674,26.5424,贵阳市,太慈桥,,17,17,15,7,7,49,,50,48,21,17,4,5,0.5,0.5
2024-05-18T1600,1862A,110.4144,25.3167,桂林市,电子科大尧山校区,,29,24,45,20,34,82,,87,77,7,7,5,6,0.6,0.6
2024-05-18T1600,1863A,110.2819,25.2697,桂林市,监测站,细颗粒物(PM2.5),65,,63,47,56,96,,114,83,18,22,4,7,0.8,0.9
2024-05-18T1600,1864A,110.3089,25.2708,桂林市,龙隐路小学,细颗粒物(PM2.5),58,,59,41,45,92,,113,86,15,16,5,8,0.9,0.9
2024-05-18T1600,1865A,110.2869,25.2178,桂林市,八中,,42,34,59,29,45,93,,112,83,22,21,5,7,0.8,0.9
2024-05-18T1600,3403A,110.1764,25.2381,桂林市,创业大厦,细颗粒物(PM2.5),52,36,57,36,51,94,,128,87,19,18,7,28,0.7,0.8
2024-05-18T1600,2674A,100.2561,34.4714,果洛藏族自治州,玛沁县大武镇,,43,20,10,11,11,137,,115,115,16,12,12,12,0.4,0.4
2024-05-18T1600,1129A,126.5422,45.755,哈尔滨市,岭北,,34,18,44,9,19,106,,106,106,7,15,9,12,0.3,0.5
2024-05-18T1600,1130A,126.561,45.8167,哈尔滨市,松北商大,,37,37,41,10,16,100,,98,98,6,15,4,5,0.3,0.5
2024-05-18T1600,1131A,126.979,45.5419,哈尔滨市,阿城会宁,颗粒物(PM10),52,53,46,12,20,100,,99,99,10,13,13,10,0.9,0.6
2024-05-18T1600,1132A,126.599,45.7222,哈尔滨市,南岗学府路,,34,28,52,3,17,108,,106,106,7,15,4,5,0.4,0.5
2024-05-18T1600,1133A,126.689,45.7733,哈尔滨市,太平宏伟公园,,34,30,61,12,22,107,,108,106,7,17,7,8,0.4,0.5
2024-05-18T1600,1134A,126.635,45.7667,哈尔滨市,道外承德广场,,42,,53,29,39,108,,106,106,7,18,5,7,0.4,0.5
2024-05-18T1600,1135A,126.685,45.7319,哈尔滨市,香坊红旗大街,,34,19,32,12,24,107,,106,106,5,16,6,10,0.3,0.5
2024-05-18T1600,1136A,126.6411,45.7258,哈尔滨市,动力和平路,,47,47,71,7,26,107,,104,104,9,17,5,7,0.4,0.5
2024-05-18T1600,1137A,126.593,45.7478,哈尔滨市,道里建国路,,33,32,50,10,25,105,,101,101,8,18,6,9,0.1,0.3
2024-05-18T1600,1138A,126.615,45.61,哈尔滨市,平房东轻厂,,39,38,91,27,31,104,,105,105,6,14,6,7,0.2,0.4
2024-05-18T1600,1139A,126.595,45.9855,哈尔滨市,呼兰师专,,31,25,46,14,22,97,,97,97,7,14,6,8,0.2,0.4
2024-05-18T1600,1140A,126.6206,45.6842,哈尔滨市,省农科院,,35,26,59,22,28,111,,110,110,5,17,8,9,0.3,0.4
2024-05-18T1600,2688A,93.5128,42.8172,哈密市,地区监测站,细颗粒物(PM2.5),84,110,227,62,81,114,,98,98,4,10,3,3,0.3,0.3
2024-05-18T1600,2689A,93.4961,42.8328,哈密市,哈密师范学校,颗粒物(PM10),73,95,179,37,60,110,,93,93,2,8,9,5,0.2,0.3
2024-05-18T1600,2671A,100.9048,36.9639,海北藏族自治州,海晏县西海镇,,43,39,65,24,26,136,,142,134,7,8,7,12,0.4,0.4
2024-05-18T1600,3867A,102.0738,36.5056,海东市,平安区公安北苑,颗粒物(PM10),69,87,98,36,42,125,,127,127,11,16,6,9,0.4,0.4
2024-05-18T1600,1410A,110.3232,20.0574,海口市,海南大学,,24,16,24,7,10,74,,70,70,4,6,5,5,0.4,0.4
2024-05-18T1600,1411A,110.283,20.0053,海口市,秀英海南医院,,22,20,22,6,10,68,,68,68,6,10,4,4,0.3,0.3
2024-05-18T1600,1412A,110.338,19.9969,海口市,海南师范大学,,23,14,20,6,10,71,,70,70,1,4,6,6,0.4,0.4
2024-05-18T1600,1413A,110.33,20.0356,海口市,龙华路环保局宿舍,,23,17,22,7,10,71,,67,67,4,6,6,6,0.2,0.3
2024-05-18T1600,3539A,110.5111,19.9736,海口市,桂林洋子站,,23,7,20,3,7,72,,68,68,2,4,6,6,0.3,0.3
2024-05-18T1600,2673A,100.6188,36.2866,海南藏族自治州,共和县恰卜恰镇,,46,34,37,18,21,146,,140,140,8,10,8,10,0.5,0.5
2024-05-18T1600,2676A,97.3731,37.3753,海西蒙古族藏族自治州,德令哈市,颗粒物(PM10),170,289,48,62,20,122,,104,104,10,13,7,5,0.6,0.6
2024-05-18T1600,1048A,114.5302,36.6116,邯郸市,东污水处理厂,臭氧1小时,108,72,84,66,50,216,,178,178,10,50,11,10,0.5,0.6
2024-05-18T1600,1049A,114.4918,36.5713,邯郸市,矿院,臭氧1小时,114,,104,53,44,227,,184,184,8,37,12,10,0.8,0.9
2024-05-18T1600,1050A,114.484,36.6133,邯郸市,丛台公园,臭氧1小时,106,82,99,53,44,212,,183,183,6,41,11,11,0.5,0.8
2024-05-18T1600,3458A,114.7895,36.5593,邯郸市,香泉濮院小区,臭氧1小时,115,109,109,49,41,229,,208,208,5,23,12,9,0.3,0.5
2024-05-18T1600,3579A,114.50634,36.77178,邯郸市,永年区实验高中,臭氧1小时,124,100,116,43,51,248,,199,199,8,40,14,12,0.3,0.5
2024-05-18T1600,3580A,114.20016,36.44293,邯郸市,峰峰矿区临水派出所,臭氧1小时,111,95,98,42,36,221,,194,194,5,11,12,18,0.7,1.2
2024-05-18T1600,2634A,106.9893,33.1842,汉中市,汉川机床厂子校,颗粒物(PM10),57,64,65,39,44,157,,124,124,8,14,7,6,0.7,0.8
2024-05-18T1600,2635A,107.0154,33.0706,汉中市,市监测站,细颗粒物(PM2.5),60,60,86,43,58,157,,129,129,11,16,9,12,0.6,0.8
2024-05-18T1600,2636A,107.0089,33.1138,汉中市,鑫源开发区,颗粒物(PM10),52,53,77,32,53,151,,124,124,5,19,9,10,0.6,0.7
2024-05-18T1600,2637A,107.007,33.0323,汉中市,南郑大河坎水厂,颗粒物(PM10),51,52,90,35,70,126,,99,99,6,14,8,10,0.5,0.8
2024-05-18T1600,1223A,120.2072,30.2111,杭州市,滨江,臭氧1小时,120,63,55,28,24,240,,201,201,14,21,7,5,0.6,0.6
2024-05-18T1600,1224A,120.0633,30.2747,杭州市,西溪,臭氧1小时,116,67,75,34,39,232,,176,176,12,23,8,6,0.6,0.7
2024-05-18T1600,1226A,120.3461,30.3153,杭州市,下沙,臭氧1小时,104,57,58,34,31,208,,182,182,13,42,8,9,0.5,0.5
2024-05-18T1600,1227A,120.1269,30.2456,杭州市,卧龙桥,臭氧1小时,121,52,48,34,32,241,,189,189,12,21,6,5,0.6,0.6
2024-05-18T1600,1228A,120.1903,30.2692,杭州市,浙江农大,臭氧1小时,107,54,53,29,30,214,,179,179,20,30,9,8,0.4,0.4
2024-05-18T1600,1230A,120.1197,30.3119,杭州市,和睦小学,臭氧1小时,107,51,56,36,37,213,,185,185,31,30,6,6,0.4,0.6
2024-05-18T1600,1231A,120.3019,30.4183,杭州市,临平镇,臭氧1小时,103,53,61,25,29,206,,177,177,11,31,6,6,0.5,0.5
2024-05-18T1600,1232A,120.2697,30.1819,杭州市,城厢镇,臭氧1小时,105,69,57,42,36,210,,180,180,17,23,8,7,0.5,0.5
2024-05-18T1600,1233A,120.0883,30.1808,杭州市,云栖,臭氧1小时,120,58,49,32,29,239,,181,181,26,34,9,7,0.6,0.6
2024-05-18T1600,3557A,119.9464,30.0494,杭州市,镇二中,臭氧1小时,105,43,52,28,38,210,,167,167,15,45,8,8,0.6,0.8
2024-05-18T1600,3558A,119.7183,30.2367,杭州市,市府大楼,臭氧1小时,117,53,55,30,32,233,,168,168,14,23,6,6,0.5,0.7
2024-05-18T1600,3656A,120.1556,30.2864,杭州市,消防大队,臭氧1小时,101,58,64,35,36,202,,167,167,13,33,8,7,0.6,0.7
2024-05-18T1600,1270A,117.1959,31.7848,合肥市,明珠广场,臭氧1小时,79,68,85,34,48,183,,175,175,14,30,8,9,0.6,0.8
2024-05-18T1600,1271A,117.3072,31.8764,合肥市,三里街,臭氧1小时,75,66,84,24,42,180,,168,168,16,31,8,8,0.4,0.5
2024-05-18T1600,1272A,117.2588,31.8707,合肥市,琥珀山庄,臭氧1小时,80,58,77,22,35,184,,174,174,8,18,10,10,0.4,0.6
2024-05-18T1600,1273A,117.1604,31.9052,合肥市,董铺水库,臭氧1小时,69,66,81,27,41,175,,186,186,5,17,2,2,0.3,0.5
2024-05-18T1600,1274A,117.25,31.8571,合肥市,长江中路,臭氧1小时,62,58,85,34,47,169,,161,161,12,21,6,7,0.5,0.7
2024-05-18T1600,1275A,117.266,31.9436,合肥市,庐阳区,臭氧1小时,78,61,87,34,46,182,,173,173,8,23,4,5,0.3,0.4
2024-05-18T1600,1276A,117.336,31.8586,合肥市,瑶海区,臭氧1小时,75,56,82,20,48,180,,164,164,8,24,8,8,0.5,0.7
2024-05-18T1600,1277A,117.3027,31.7964,合肥市,包河区,臭氧1小时,78,51,75,24,41,182,,169,169,8,25,9,9,0.4,0.5
2024-05-18T1600,1278A,117.2776,31.7385,合肥市,滨湖新区,臭氧1小时,85,51,75,34,44,188,,172,172,5,13,8,8,0.5,0.6
2024-05-18T1600,1279A,117.1318,31.8403,合肥市,高新区,臭氧1小时,59,58,80,26,43,167,,172,172,10,22,8,8,0.6,0.8
2024-05-18T1600,3464A,117.3803,31.9147,合肥市,高教基地,臭氧1小时,95,63,75,29,44,196,,170,170,7,14,8,6,0.5,0.5
2024-05-18T1600,3614A,79.924,37.0877,和田地区,地区环保局,颗粒物(PM10),140,230,244,91,79,116,,91,91,2,10,5,8,0.5,0.6
2024-05-18T1600,3615A,79.9131,37.113,和田地区,市环保局,颗粒物(PM10),129,208,215,77,66,110,,83,83,,20,5,8,0.4,0.5
2024-05-18T1600,2516A,108.2011,24.715,河池市,东仁乐园,,22,16,42,15,19,7,,10,10,5,8,3,3,0.9,0.8
2024-05-18T1600,2517A,108.0497,24.6947,河池市,市环保站,,25,15,33,12,23,80,,82,81,17,16,7,8,0.6,0.6
2024-05-18T1600,1697A,114.6944,23.7586,河源市,东埔,,27,27,45,17,27,83,,99,99,12,20,6,7,0.6,0.7
2024-05-18T1600,1698A,114.6892,23.7233,河源市,老城,,28,22,39,14,22,87,,95,95,8,16,5,5,0.5,0.6
2024-05-18T1600,1718A,115.4208,35.2464,菏泽市,气象局,臭氧1小时,80,91,113,35,44,184,,169,169,8,22,5,8,0.3,0.5
2024-05-18T1600,1719A,115.4747,35.2375,菏泽市,市政协,臭氧1小时,78,81,81,36,49,182,,170,170,11,20,5,7,0.3,0.4
2024-05-18T1600,3374A,115.5564,35.0891,菏泽市,定陶老年大学,臭氧1小时,64,68,89,22,33,171,,158,158,8,17,4,6,0.7,0.9
2024-05-18T1600,3647A,115.4702,35.2706,菏泽市,菏泽医专,"颗粒物(PM10),臭氧1小时",63,75,104,35,37,170,,149,149,5,20,4,7,0.3,0.4
2024-05-18T1600,2514A,111.5264,24.4172,贺州市,环保小区,,25,,43,15,28,77,,91,86,12,16,8,8,0.5,0.6
2024-05-18T1600,2515A,111.5608,24.4078,贺州市,政协大楼,,25,14,45,11,26,79,,88,88,9,16,8,7,0.4,0.5
2024-05-18T1600,3534A,111.4744,24.4553,贺州市,西湾,,25,18,47,17,34,60,,78,70,27,25,6,6,0.5,0.6
2024-05-18T1600,2385A,114.17,35.9019,鹤壁市,市监测站,臭氧1小时,108,103,108,62,54,216,,213,213,10,21,5,16,0.8,0.8
2024-05-18T1600,2386A,114.2956,35.7511,鹤壁市,市交警支队,臭氧1小时,112,88,110,61,51,224,,200,200,8,42,11,17,0.5,0.8
2024-05-18T1600,2387A,114.2878,35.7306,鹤壁市,迎宾馆,臭氧1小时,114,97,104,56,56,227,,205,205,8,30,17,20,0.6,1
2024-05-18T1600,3474A,114.2617,35.6822,鹤壁市,大新区,臭氧1小时,104,101,106,57,55,208,,183,183,14,29,10,14,0.8,1
2024-05-18T1600,3596A,114.1572,35.9603,鹤壁市,南山宾馆,臭氧1小时,100,100,110,62,50,200,,209,209,14,19,13,15,0.9,1
2024-05-18T1600,2244A,130.2537,47.3416,鹤岗市,哈啤分公司,,28,19,27,16,11,89,,93,93,3,8,12,13,0.6,0.7
2024-05-18T1600,2245A,130.2684,47.3086,鹤岗市,斯达机电,,42,42,39,17,15,87,,93,93,8,13,10,13,0.3,0.4
2024-05-18T1600,2246A,130.3114,47.3388,鹤岗市,东山纸板厂,颗粒物(PM10),66,82,56,21,17,91,,96,96,4,10,14,16,0.3,0.4
2024-05-18T1600,2247A,130.1097,47.3382,鹤岗市,五号水库,,38,38,33,13,9,100,,104,104,4,6,10,12,0.2,0.2
2024-05-18T1600,2263A,127.4833,50.2524,黑河市,交通局,,27,27,28,13,21,78,,74,74,8,12,5,7,0.1,0.3
2024-05-18T1600,2264A,127.5144,50.2341,黑河市,环保局,,27,18,28,7,19,86,,83,83,5,9,3,4,0.2,0.4
2024-05-18T1600,2265A,127.5291,50.2472,黑河市,大黑河岛,,27,,26,9,18,85,,81,81,6,11,9,6,0.2,0.5
2024-05-18T1600,1074A,115.6838,37.7541,衡水市,电机北厂,臭氧1小时,110,64,90,35,48,220,,212,212,6,28,5,7,0.3,0.5
2024-05-18T1600,1075A,115.6303,37.7316,衡水市,市监测站,臭氧1小时,114,75,90,21,41,228,,217,217,9,29,7,8,0.6,0.7
2024-05-18T1600,3188A,115.6683,37.7217,衡水市,市城管局,臭氧1小时,110,59,85,34,50,220,,211,211,13,28,5,5,0.4,0.5
2024-05-18T1600,3459A,115.5989,37.5491,衡水市,地表水厂,臭氧1小时,112,89,103,28,38,224,,210,210,7,49,5,10,0.3,0.5
2024-05-18T1600,2456A,112.5003,26.9167,衡阳市,原169医院,,42,42,43,27,32,89,,98,98,8,9,3,7,0.7,0.7
2024-05-18T1600,2457A,112.6194,26.9258,衡阳市,衡阳化工总厂,,45,39,54,31,36,134,,128,128,7,7,8,15,0.5,0.6
2024-05-18T1600,2458A,112.6211,26.8956,衡阳市,珠晖区环保局,,49,49,51,29,33,136,,130,130,8,8,10,16,0.7,0.7
2024-05-18T1600,2459A,112.6197,26.8733,衡阳市,市委党校,,,,58,26,33,132,,128,128,10,11,10,17,0.7,0.7
2024-05-18T1600,2460A,112.6006,26.8919,衡阳市,市监测站,,42,38,47,26,36,132,,132,132,9,10,10,15,0.6,0.7
2024-05-18T1600,2461A,112.5664,26.9056,衡阳市,真空机电公司,,47,47,50,29,32,120,,114,114,7,14,10,15,0.7,1
2024-05-18T1600,3399A,112.6703,26.882,衡阳市,师范学院,,43,38,47,27,35,135,,128,128,9,10,9,10,0.6,0.6
2024-05-18T1600,2608A,103.3772,23.3993,红河哈尼族彝族自治州,污水处理厂,,33,33,29,14,18,99,,91,91,6,6,7,7,0.4,0.5
2024-05-18T1600,2609A,103.3861,23.35,红河哈尼族彝族自治州,监测站,,33,18,22,18,12,103,,91,91,7,7,8,7,0.4,0.5
2024-05-18T1600,3038A,103.3758,23.368,红河哈尼族彝族自治州,州图书馆,,30,29,25,18,16,93,,84,84,4,6,4,4,0.4,0.4
2024-05-18T1600,1090A,111.6507,40.7517,呼和浩特市,呼市一监,臭氧1小时,99,129,162,44,63,199,,134,134,16,30,12,11,0.5,0.5
2024-05-18T1600,1091A,111.6572,40.8033,呼和浩特市,小召,颗粒物(PM10),92,134,156,42,58,174,,118,118,31,50,12,12,0.4,0.5
2024-05-18T1600,1094A,111.7516,40.8369,呼和浩特市,如意水处理厂,颗粒物(PM10),98,145,160,39,42,174,,115,115,22,47,12,9,0.4,0.5
2024-05-18T1600,1095A,111.7276,40.8062,呼和浩特市,二十九中,颗粒物(PM10),98,145,162,53,62,189,,123,123,19,46,9,6,0.5,0.5
2024-05-18T1600,1096A,111.5512,40.7866,呼和浩特市,工大金川校区,颗粒物(PM10),100,150,158,62,63,184,,124,124,20,51,11,10,0.4,0.5
2024-05-18T1600,1097A,111.717,40.7612,呼和浩特市,化肥厂生活区,颗粒物(PM10),101,151,180,51,68,188,,122,122,19,44,15,10,0.4,0.5
2024-05-18T1600,3698A,111.5968,40.8178,呼和浩特市,红旗小学,细颗粒物(PM2.5),105,156,175,79,81,187,,130,130,27,57,9,8,0.4,0.5
2024-05-18T1600,3699A,111.6518,40.8389,呼和浩特市,海东办,颗粒物(PM10),107,163,180,61,85,186,,122,122,17,53,9,9,0.4,0.5
2024-05-18T1600,2192A,119.7594,49.2261,呼伦贝尔市,区环保局,,29,16,35,9,23,91,,86,86,7,7,6,5,0.2,0.3
2024-05-18T1600,3061A,119.7512,49.1577,呼伦贝尔市,国华电力东,,30,17,31,3,17,93,,88,88,3,4,4,4,0.2,0.2
2024-05-18T1600,1250A,120.0751,30.8669,湖州市,城西水厂,臭氧1小时,103,34,61,17,33,206,,179,179,12,32,4,6,0.6,0.7
2024-05-18T1600,2873A,120.0875,30.8955,湖州市,仁皇山新区,臭氧1小时,102,34,57,19,33,204,,181,181,16,32,6,7,0.7,0.7
2024-05-18T1600,2907A,120.1844,30.8596,湖州市,吴兴区站,臭氧1小时,95,33,54,17,28,196,,178,178,6,24,5,7,0.5,0.6
2024-05-18T1600,3562A,120.4148,30.8538,湖州市,南浔区站,臭氧1小时,72,39,53,17,26,177,,162,162,10,22,6,7,0.4,0.5
2024-05-18T1600,1607A,120.9092,40.7136,葫芦岛市,龙港区,,45,36,57,18,27,144,,132,132,6,8,8,8,0.7,0.7
2024-05-18T1600,1608A,120.8392,40.7514,葫芦岛市,化工街,颗粒物(PM10),54,58,66,19,25,156,,140,140,12,17,12,12,1.3,1.3
2024-05-18T1600,1609A,120.8341,40.7073,葫芦岛市,新区,,46,42,51,25,29,147,,138,138,9,10,8,8,0.6,0.7
2024-05-18T1600,1610A,120.8695,40.7677,葫芦岛市,东城区,臭氧1小时,58,39,47,26,29,166,,147,147,7,13,7,7,0.8,0.8
2024-05-18T1600,2482A,109.5981,27.5721,怀化市,林科所,,25,23,29,12,18,78,,91,84,6,6,4,5,0.8,0.8
2024-05-18T1600,2483A,109.9453,27.5444,怀化市,河西地税局,,24,23,30,13,19,74,,83,80,27,10,5,6,0.6,0.6
2024-05-18T1600,2484A,109.9781,27.5342,怀化市,市四医院,,25,16,33,15,25,78,,83,82,14,14,3,4,0.8,0.7
2024-05-18T1600,2485A,109.9972,27.5578,怀化市,监测楼,,25,24,36,17,23,72,,75,75,13,11,5,7,0.7,0.7
2024-05-18T1600,2486A,110.0394,27.583,怀化市,市委党校,,21,,31,14,22,67,,70,70,11,11,6,5,0.7,0.7
2024-05-18T1600,1210A,119.036,33.5981,淮安市,钵池山,臭氧1小时,110,61,63,30,38,219,,180,180,11,22,10,11,0.8,0.8
2024-05-18T1600,1211A,119.007,33.575,淮安市,北京南路,臭氧1小时,115,61,72,29,40,229,,196,196,12,22,10,10,0.6,0.6
2024-05-18T1600,1212A,118.989,33.6067,淮安市,市监测站,臭氧1小时,107,80,69,44,40,214,,190,190,17,23,9,9,0.7,0.7
2024-05-18T1600,1213A,119.135,33.5039,淮安市,楚州区监测站,臭氧1小时,112,61,79,30,46,224,,184,184,15,40,9,11,0.8,0.8
2024-05-18T1600,1214A,119.0186,33.6297,淮安市,淮阴区监测站,臭氧1小时,109,61,71,33,42,217,,190,190,16,24,8,9,0.5,0.5
2024-05-18T1600,3426A,118.8755,33.2894,淮安市,新华书店,臭氧1小时,113,65,66,37,36,226,,191,191,16,21,7,8,0.6,0.6
2024-05-18T1600,2282A,116.8004,33.975,淮北市,监测站,细颗粒物(PM2.5),98,,90,73,97,176,,164,164,1,12,6,8,0.5,0.6
2024-05-18T1600,2283A,116.8091,33.9007,淮北市,烈山区政府,臭氧1小时,69,68,97,36,37,175,,159,159,2,13,5,7,0.5,0.6
2024-05-18T1600,3330A,116.8873,33.9836,淮北市,杜集区检察院,,,62,83,,47,183,,177,177,5,13,5,7,0.5,0.6
2024-05-18T1600,4017A,116.7923,33.9535,淮北市,市博物馆,臭氧1小时,73,60,79,32,42,178,,168,168,2,10,6,8,0.5,0.7
2024-05-18T1600,2277A,116.8305,32.7727,淮南市,潘集区政府,臭氧1小时,103,75,92,33,46,205,,186,186,8,17,6,8,0.3,0.4
2024-05-18T1600,2278A,117.0067,32.6524,淮南市,师范学院,臭氧1小时,88,72,86,31,46,190,,181,181,4,10,10,11,0.3,0.4
2024-05-18T1600,2279A,116.8569,32.5951,淮南市,谢家集区政府,臭氧1小时,85,76,80,23,29,188,,182,182,16,19,6,8,0.3,0.3
2024-05-18T1600,2280A,116.8281,32.633,淮南市,八公山区政府,臭氧1小时,72,69,86,31,45,177,,162,162,6,13,5,6,0.4,0.5
2024-05-18T1600,2281A,116.6325,32.6201,淮南市,焦岗湖风景区管理处,颗粒物(PM10),56,62,69,25,21,153,,124,124,9,17,4,3,0.1,0.2
2024-05-18T1600,2894A,117.0566,32.6531,淮南市,经济技术开发区消防队,臭氧1小时,85,45,73,24,42,188,,180,180,9,16,5,6,0.4,0.5
2024-05-18T1600,3329A,117.0108,32.5893,淮南市,山南新区,臭氧1小时,102,84,105,45,59,204,,191,191,8,15,6,7,0.4,0.5
2024-05-18T1600,2446A,114.9028,30.4742,黄冈市,职工中心,臭氧1小时,84,69,87,36,50,187,,163,163,10,5,8,10,0.6,0.6
2024-05-18T1600,2929A,114.8858,30.4519,黄冈市,红卫路,臭氧1小时,89,66,77,36,44,191,,165,165,1,9,13,14,0.5,0.6
2024-05-18T1600,3398A,114.9136,30.4445,黄冈市,市林业局,臭氧1小时,103,61,76,36,46,205,,177,177,2,8,6,7,0.4,0.4
2024-05-18T1600,2672A,102.0199,35.5102,黄南藏族自治州,同仁县隆务镇,颗粒物(PM10),54,57,55,22,27,133,,123,123,2,2,9,9,0.7,0.6
2024-05-18T1600,2295A,118.2903,29.6963,黄山市,延安路89号,臭氧1小时,60,53,60,22,22,168,,145,145,3,10,6,5,0.4,0.5
2024-05-18T1600,2296A,118.327,29.7178,黄山市,黄山东路89号,,49,44,47,24,22,154,,145,145,4,12,6,6,0.3,0.4
2024-05-18T1600,2297A,118.1371,30.2756,黄山市,黄山区政府5号楼,,50,34,43,22,28,158,,133,133,6,9,5,5,0.4,0.5
2024-05-18T1600,2423A,115.0601,30.2313,黄石市,沈家营,臭氧1小时,89,62,86,33,48,191,,184,184,10,25,20,27,0.6,0.8
2024-05-18T1600,2424A,115.0817,30.2006,黄石市,陈家湾,臭氧1小时,99,68,82,36,45,199,,175,175,15,22,7,17,0.7,0.9
2024-05-18T1600,2426A,114.8988,30.2019,黄石市,铁山,臭氧1小时,75,43,64,33,37,180,,171,171,3,12,12,13,0.6,0.7
2024-05-18T1600,2427A,115.0307,30.2092,黄石市,团城山,臭氧1小时,99,68,96,28,43,199,,173,173,9,21,10,17,0.6,0.7
2024-05-18T1600,3149A,115.0235,30.1578,黄石市,笔架山北路,臭氧1小时,95,46,75,26,40,196,,176,176,3,14,11,16,0.6,0.8
2024-05-18T1600,1392A,114.4183,23.0528,惠州市,河南岸金山湖子站,,31,25,49,18,27,97,,100,100,8,20,6,6,0.5,0.5
2024-05-18T1600,1393A,114.4053,23.0822,惠州市,下埔横江三路子站,,35,26,47,17,28,110,,110,110,10,17,8,7,0.6,0.6
2024-05-18T1600,1394A,114.4103,23.1142,惠州市,江北云山西路子站,,35,22,47,12,24,111,,108,108,6,17,6,7,0.6,0.6
2024-05-18T1600,1395A,114.4645,22.7833,惠州市,惠阳区承修路船湖子站,,33,27,43,15,23,104,,94,94,17,22,4,5,0.6,0.6
2024-05-18T1600,1396A,114.5317,22.7422,惠州市,大亚湾管委会子站,,46,37,45,20,21,145,,106,106,13,26,6,5,0.6,0.6
2024-05-18T1600,3314A,114.4338,22.8134,惠州市,惠阳秋长,,40,31,51,14,24,128,,120,120,8,21,5,6,0.6,0.7
2024-05-18T1600,3452A,114.6517,22.775,惠州市,大亚湾霞涌,,33,21,30,16,21,105,,94,94,7,13,5,5,0.3,0.4
2024-05-18T1600,2240A,130.9762,45.3001,鸡西市,环保局,颗粒物(PM10),56,62,54,17,20,84,,94,92,7,15,6,6,0.6,0.7
2024-05-18T1600,2243A,130.9429,45.3039,鸡西市,第一中学,,42,32,41,29,29,98,,115,112,3,6,7,8,0.2,0.3
2024-05-18T1600,3707A,131.0207,45.3073,鸡西市,欧美日汽修厂,颗粒物(PM10),54,57,75,24,29,82,,96,95,14,23,6,7,0.4,0.5
2024-05-18T1600,3709A,130.9967,45.3106,鸡西市,市政设施管理处,颗粒物(PM10),60,69,73,15,25,89,,106,104,11,23,8,8,0.4,0.5
2024-05-18T1600,2367A,114.9754,27.0803,吉安市,红声器材厂,,50,44,57,22,30,159,,146,146,12,21,9,12,0.4,0.4
2024-05-18T1600,2368A,114.9658,27.0999,吉安市,市森林工业局,,50,43,54,27,34,158,,142,142,10,18,14,16,0.6,0.5
2024-05-18T1600,2369A,114.99,27.1312,吉安市,市环境监测站,,50,41,51,20,28,160,,157,157,10,16,14,18,0.8,0.7
2024-05-18T1600,2370A,115.0093,27.0968,吉安市,青原区法院,,49,44,54,18,33,154,,140,140,16,27,11,15,0.5,0.5
2024-05-18T1600,1772A,126.54,43.8622,吉林市,哈达湾,颗粒物(PM10),51,51,47,19,20,105,,150,109,15,16,19,9,0.7,0.6
2024-05-18T1600,1773A,126.5844,43.8358,吉林市,东局子,,43,43,49,17,20,112,,141,111,11,20,4,6,0.4,0.6
2024-05-18T1600,1774A,126.5052,43.8245,吉林市,电力学院,,47,47,49,22,20,108,,142,109,13,20,15,11,0.6,0.7
2024-05-18T1600,1775A,126.6133,43.8972,吉林市,江北,,37,37,46,15,22,111,,138,106,7,15,7,9,0.4,0.6
2024-05-18T1600,1776A,126.555,43.8306,吉林市,江南公园,,44,44,44,20,21,100,,143,102,20,18,17,8,0.7,0.6
2024-05-18T1600,2868A,126.4739,43.953,吉林市,九站,,46,46,53,22,24,104,,144,98,14,18,10,11,0.5,0.6
2024-05-18T1600,1299A,116.9862,36.6114,济南市,科干所,臭氧1小时,100,83,101,34,42,200,,185,185,7,27,9,9,0.8,1
2024-05-18T1600,1300A,116.9376,36.665,济南市,农科所,臭氧1小时,107,71,105,32,42,214,,190,190,14,48,9,7,0.6,0.8
2024-05-18T1600,1301A,117.1265,36.6734,济南市,开发区,臭氧1小时,134,95,109,42,44,268,,228,228,22,40,10,10,0.7,0.9
2024-05-18T1600,1303A,117.0624,36.6868,济南市,省种子仓库,臭氧1小时,128,105,128,31,41,256,,225,225,25,58,6,6,0.5,0.7
2024-05-18T1600,1304A,116.9489,36.6447,济南市,机床二厂,颗粒物(PM10),68,85,129,29,44,133,,110,110,10,47,11,11,0.6,0.8
2024-05-18T1600,1305A,117.0495,36.663,济南市,市监测站,臭氧1小时,134,93,102,39,42,267,,213,213,27,45,11,11,0.5,0.7
2024-05-18T1600,1306A,116.7675,36.5484,济南市,长清党校,臭氧1小时,109,76,88,49,42,218,,186,186,9,23,8,9,0.7,0.8
2024-05-18T1600,1616A,117.6795,36.229,济南市,技术学院,臭氧1小时,89,68,99,31,46,191,,184,184,9,26,10,14,0.5,1
2024-05-18T1600,1961A,117.532,36.6868,济南市,东山小学,臭氧1小时,108,81,104,32,41,215,,186,186,10,24,7,8,0.4,0.6
2024-05-18T1600,3059A,117.7161,36.2049,济南市,泰兴公司,臭氧1小时,82,58,94,31,43,185,,179,179,12,39,9,11,0.7,0.7
2024-05-18T1600,3494A,117.1673,36.9782,济南市,济阳区政府,,,107,122,37,48,,,71,,18,34,13,14,0.7,0.9
2024-05-18T1600,3495A,117.1171,36.63,济南市,锦屏中学,臭氧1小时,131,90,90,22,35,262,,212,212,15,15,9,8,0.4,0.5
2024-05-18T1600,3682A,116.9814,36.6819,济南市,济南四建,,,75,110,46,47,,,188,188,41,62,14,10,0.8,1
2024-05-18T1600,1653A,116.6251,35.4302,济宁市,火炬城,,,82,88,58,38,182,,162,162,,12,8,11,0.7,0.8
2024-05-18T1600,1655A,116.5491,35.4042,济宁市,电化厂,臭氧1小时,73,94,114,29,37,178,,166,166,2,15,6,8,0.8,0.9
2024-05-18T1600,3500A,116.5814,35.3707,济宁市,北湖一中,臭氧1小时,74,84,89,31,32,179,,163,163,3,10,9,11,0.3,0.4
2024-05-18T1600,3501A,116.8249,35.5593,济宁市,服务中心,臭氧1小时,78,69,86,24,34,182,,167,167,7,18,2,4,0.6,0.8
2024-05-18T1600,3678A,116.5907,35.4054,济宁市,市第七中学,臭氧1小时,89,98,100,27,35,191,,177,177,2,12,5,8,0.5,0.6
2024-05-18T1600,2255A,130.2751,46.8028,佳木斯市,佳纺,颗粒物(PM10),57,64,51,36,19,101,,112,101,5,6,3,4,0.3,0.4
2024-05-18T1600,2256A,130.3995,46.8307,佳木斯市,发电厂,颗粒物(PM10),72,93,47,33,22,103,,117,103,5,7,6,6,0.2,0.3
2024-05-18T1600,2257A,130.3258,46.7975,佳木斯市,环保局,颗粒物(PM10),52,53,39,20,16,103,,113,102,4,6,4,5,0.4,0.4
2024-05-18T1600,2258A,130.3648,46.8032,佳木斯市,十一中,颗粒物(PM10),57,64,47,15,26,104,,115,105,7,10,5,6,0.4,0.5
2024-05-18T1600,2259A,130.3794,46.7588,佳木斯市,四丰,,33,19,20,12,10,105,,117,104,4,5,1,2,0.5,0.5
2024-05-18T1600,1252A,120.7436,30.778,嘉兴市,清河小学,,50,37,41,12,13,157,,149,149,11,22,4,5,0.6,0.7
2024-05-18T1600,1253A,120.726,30.7478,嘉兴市,嘉兴学院,,45,36,40,13,17,144,,146,146,13,19,7,6,0.4,0.5
2024-05-18T1600,2872A,120.7846,30.7525,嘉兴市,南湖区残联,臭氧1小时,52,49,47,16,19,161,,152,152,8,12,7,7,0.5,0.5
2024-05-18T1600,3407A,120.6916,30.7739,嘉兴市,秀洲住建,,50,38,41,17,18,160,,160,160,13,20,7,6,0.5,0.6
2024-05-18T1600,1945A,98.2908,39.7711,嘉峪关市,气象局,颗粒物(PM10),184,317,281,134,124,116,,100,100,5,13,2,12,0.3,0.5
2024-05-18T1600,2884A,98.2672,39.7978,嘉峪关市,酒钢宾馆,细颗粒物(PM2.5),203,329,279,153,152,116,,103,103,6,9,23,18,0.5,0.4
2024-05-18T1600,3248A,98.2643,39.7724,嘉峪关市,雄关区,颗粒物(PM10),142,234,231,81,77,109,,100,100,7,11,12,11,0.4,0.6
2024-05-18T1600,1383A,113.1064,22.6058,江门市,北街,,45,44,51,15,28,141,,154,154,22,30,4,6,0.6,0.6
2024-05-18T1600,1384A,113.0731,22.5835,江门市,西区,,47,36,52,21,23,150,,152,152,18,26,7,7,0.5,0.5
2024-05-18T1600,1385A,113.0219,22.5311,江门市,圭峰西,,47,45,45,17,25,150,,147,147,17,20,5,5,0.7,0.7
2024-05-18T1600,1386A,113.0828,22.5947,江门市,东湖,,45,38,57,16,31,142,,148,148,20,25,7,7,0.5,0.5
2024-05-18T1600,3311A,113.1075,22.5647,江门市,江海富民,颗粒物(PM10),57,63,69,28,25,146,,147,147,20,25,5,6,0.5,0.6
2024-05-18T1600,3449A,113.05,22.4667,江门市,新会银湖,,36,32,45,20,24,115,,128,128,15,24,6,6,0.6,0.6
2024-05-18T1600,1828A,113.227,35.2125,焦作市,市环保局,臭氧1小时,116,79,89,57,43,232,,210,210,9,16,5,7,0.5,0.6
2024-05-18T1600,3169A,113.2725,35.2067,焦作市,太极体育中心,臭氧1小时,116,81,96,36,38,231,,208,208,6,14,6,15,0.2,0.4
2024-05-18T1600,3335A,113.3137,35.2641,焦作市,马村街道办,臭氧1小时,108,72,95,36,42,216,,206,206,5,14,8,10,0.5,0.7
2024-05-18T1600,3336A,113.2465,35.2373,焦作市,焦作技师学院,臭氧1小时,106,71,94,34,37,211,,196,196,7,14,4,6,0.4,0.6
2024-05-18T1600,3477A,113.1656,35.2539,焦作市,中站许衡医院,臭氧1小时,102,75,75,26,34,204,,200,200,6,13,8,11,0.4,0.5
2024-05-18T1600,3981A,113.2449,35.1803,焦作市,原李万街道办,臭氧1小时,103,91,86,51,39,205,,187,187,14,20,12,17,0.4,0.5
2024-05-18T1600,1708A,116.3701,23.5345,揭阳市,新兴,细颗粒物(PM2.5),59,63,49,42,29,125,,120,120,43,24,8,9,0.7,0.7
2024-05-18T1600,1709A,116.3264,23.5443,揭阳市,西马,细颗粒物(PM2.5),62,72,58,44,33,136,,107,107,27,19,8,9,0.9,0.8
2024-05-18T1600,1710A,116.3611,23.5626,揭阳市,东兴,细颗粒物(PM2.5),62,67,63,44,29,145,,124,124,29,22,9,11,0.8,0.7
2024-05-18T1600,1711A,116.4151,23.5294,揭阳市,渔湖,颗粒物(PM10),54,57,58,34,24,141,,113,113,23,18,11,10,0.7,0.7
2024-05-18T1600,3320A,116.403,23.5699,揭阳市,曲溪,颗粒物(PM10),51,52,50,30,23,138,,119,119,28,22,13,10,0.7,0.6
2024-05-18T1600,1944A,102.1692,38.5167,金昌市,天庆家园,颗粒物(PM10),156,262,323,94,129,142,,138,138,6,7,6,7,0.4,0.6
2024-05-18T1600,3170A,102.1864,38.5253,金昌市,市委党校,颗粒物(PM10),190,330,412,123,135,137,,133,133,2,4,4,8,0.6,0.5
2024-05-18T1600,4022A,102.1647,38.5371,金昌市,金川区人防中心,颗粒物(PM10),191,331,389,114,140,134,,132,132,4,5,8,9,0.5,0.4
2024-05-18T1600,1262A,119.647,29.077,金华市,十五中,臭氧1小时,70,35,45,19,23,176,,152,152,7,16,4,5,0.4,0.5
2024-05-18T1600,1263A,119.686,29.1029,金华市,监测站,臭氧1小时,64,36,49,18,24,171,,147,147,6,24,3,4,0.3,0.4
2024-05-18T1600,3659A,119.656,29.1131,金华市,气象局,臭氧1小时,83,40,46,20,24,186,,160,160,10,32,5,6,0.1,0.2
2024-05-18T1600,1767A,121.1115,41.0879,锦州市,南山,臭氧1小时,80,63,58,46,44,184,,168,168,9,15,7,12,0.5,0.6
2024-05-18T1600,1768A,121.0533,40.8434,锦州市,开发区,,46,43,65,25,39,145,,139,139,18,25,9,9,0.5,0.6
2024-05-18T1600,1769A,121.1836,41.1119,锦州市,百股街道,臭氧1小时,72,45,48,24,27,177,,163,163,14,17,9,11,0.6,0.7
2024-05-18T1600,1770A,121.1178,41.1222,锦州市,天安街道,臭氧1小时,67,60,60,26,32,173,,161,161,12,15,8,13,0.8,0.9
2024-05-18T1600,1771A,121.1303,41.1386,锦州市,北湖公园,臭氧1小时,55,46,63,36,43,164,,152,152,12,17,8,13,0.8,0.8
2024-05-18T1600,2160A,112.85,35.5051,晋城市,自来水公司,臭氧1小时,98,65,89,12,31,198,,183,183,10,24,8,10,0.5,0.9
2024-05-18T1600,2161A,112.8318,35.4936,晋城市,白云商贸,臭氧1小时,94,78,77,17,30,195,,185,185,10,23,9,10,0.5,0.8
2024-05-18T1600,2162A,112.8508,35.4887,晋城市,市环保局,臭氧1小时,93,97,104,22,33,194,,183,183,9,28,10,11,0.4,0.8
2024-05-18T1600,2163A,112.8676,35.4897,晋城市,技术学院,臭氧1小时,88,69,78,17,31,190,,177,177,11,31,10,11,0.6,1
2024-05-18T1600,3620A,112.8271,35.4828,晋城市,泽州一中,臭氧1小时,78,79,87,17,28,182,,176,176,13,23,9,11,0.5,0.9
2024-05-18T1600,2171A,112.7532,37.6945,晋中市,锦纶小区,臭氧1小时,106,100,85,34,28,211,,199,199,14,24,14,15,0.3,0.5
2024-05-18T1600,2173A,112.7249,37.7067,晋中市,南都小区,臭氧1小时,108,97,83,25,31,215,,205,205,12,26,12,13,0.3,0.5
2024-05-18T1600,2174A,112.6991,37.6982,晋中市,榆次区政府,臭氧1小时,107,92,81,31,30,214,,202,202,13,26,14,13,0.3,0.4
2024-05-18T1600,2865A,112.7195,37.6828,晋中市,榆次三中,臭氧1小时,109,100,90,39,33,217,,206,206,11,23,13,14,0.5,0.7
2024-05-18T1600,2439A,112.2014,31.0481,荆门市,竹园小学,,47,47,69,28,45,150,,131,131,10,15,8,11,0.6,0.6
2024-05-18T1600,2440A,112.1969,30.9891,荆门市,掇刀,细颗粒物(PM2.5),55,46,76,39,50,153,,133,133,10,16,11,13,0.6,0.6
2024-05-18T1600,2441A,112.2213,31.0386,荆门市,石化一小,颗粒物(PM10),52,54,78,35,46,155,,137,137,10,17,5,15,0.6,0.7
2024-05-18T1600,3012A,112.1849,31.0362,荆门市,西山林语,颗粒物(PM10),51,51,65,31,45,152,,132,132,11,14,14,15,0.6,0.5
2024-05-18T1600,3547A,112.1632,31.0138,荆门市,龙泉中学南校,臭氧1小时,53,53,72,30,39,162,,134,134,11,17,8,10,0.6,0.6
2024-05-18T1600,1844A,112.2494,30.3197,荆州市,市图书馆,臭氧1小时,53,38,51,26,38,162,,135,135,11,17,8,8,0.6,0.6
2024-05-18T1600,1845A,112.2008,30.3544,荆州市,市委党校,,50,35,50,32,38,159,,133,133,11,15,10,10,0.6,0.6
2024-05-18T1600,3194A,112.2747,30.3122,荆州市,管委会,,50,34,52,30,36,160,,135,135,9,15,5,6,0.6,0.6
2024-05-18T1600,3548A,112.1655,30.3364,荆州市,学苑路,臭氧1小时,55,,42,33,40,164,,138,138,8,13,7,7,0.6,0.6
2024-05-18T1600,2343A,117.2117,29.2933,景德镇市,老干部活动中心,,42,38,47,23,32,134,,115,115,19,26,6,10,0.3,0.4
2024-05-18T1600,2344A,117.1894,29.2789,景德镇市,兽医站,细颗粒物(PM2.5),62,51,52,44,31,162,,147,147,4,12,10,10,0.4,0.5
2024-05-18T1600,2345A,117.1547,29.2617,景德镇市,台达陶瓷,颗粒物(PM10),53,55,53,28,30,153,,135,135,13,23,13,14,0.4,0.4
2024-05-18T1600,2346A,117.2461,29.2956,景德镇市,陶研所,,43,35,45,17,25,137,,121,121,30,12,4,5,0.2,0.3
2024-05-18T1600,1803A,115.9872,29.6815,九江市,十里,颗粒物(PM10),54,58,60,31,37,152,,148,148,12,24,13,14,0.6,0.7
2024-05-18T1600,1804A,115.9584,29.7046,九江市,茅山头,臭氧1小时,68,55,64,40,37,174,,154,154,14,38,10,10,0.6,0.7
2024-05-18T1600,1805A,115.9877,29.7295,九江市,西园,,48,48,65,24,35,149,,124,124,8,38,23,27,0.7,0.7
2024-05-18T1600,1806A,116.0172,29.6547,九江市,五七二七厂,,48,48,48,32,31,139,,138,138,33,20,11,13,0.7,0.7
2024-05-18T1600,1808A,115.9114,29.6038,九江市,综合工业园,,50,50,65,21,36,134,,135,135,35,28,7,9,0.7,0.9
2024-05-18T1600,1809A,116.0721,29.7535,九江市,石化总厂,,48,44,64,25,40,153,,144,144,16,19,13,17,0.6,0.7
2024-05-18T1600,1810A,115.9773,29.5698,九江市,庐山气象台,,46,37,50,26,30,145,,141,138,4,5,6,15,0.9,0.7
2024-05-18T1600,3190A,116.0254,29.6994,九江市,外国语学校,颗粒物(PM10),51,51,61,29,40,150,,142,142,14,24,4,25,0.6,0.7
2024-05-18T1600,2658A,98.5061,39.7443,酒泉市,仓门街子站,颗粒物(PM10),173,295,327,78,94,110,,100,100,3,11,2,9,0.3,0.3
2024-05-18T1600,2659A,98.4989,39.7256,酒泉市,油田生活基地,颗粒物(PM10),179,307,352,118,122,115,,104,104,2,11,2,3,0.2,0.3
2024-05-18T1600,2698A,76.0072,39.4467,喀什地区,巡警大队,颗粒物(PM10),164,278,174,70,29,110,,84,79,7,20,3,3,0.2,0.3
2024-05-18T1600,4027A,75.9483,39.4689,喀什地区,老干局,颗粒物(PM10),171,292,176,82,37,110,,82,82,6,18,5,5,0.4,0.4
2024-05-18T1600,1824A,114.3389,34.7781,开封市,肿瘤医院,臭氧1小时,77,98,105,23,34,181,,169,169,6,22,1,3,0.4,0.6
2024-05-18T1600,1826A,114.2885,34.7965,开封市,世纪星幼儿园,臭氧1小时,72,80,97,26,53,177,,170,170,5,14,2,3,0.3,0.5
2024-05-18T1600,3147A,114.3438,34.8106,开封市,龙亭公园,臭氧1小时,78,91,100,25,47,182,,179,179,3,20,3,6,0.4,0.7
2024-05-18T1600,3210A,114.3644,34.7964,开封市,汴京公园,臭氧1小时,77,56,95,29,49,181,,171,171,6,18,3,5,0.5,0.6
2024-05-18T1600,3473A,114.2485,34.8306,开封市,技师学院,臭氧1小时,78,95,97,41,47,182,,181,181,8,19,6,8,0.5,0.7
2024-05-18T1600,3592A,114.4644,34.7556,开封市,祥符区生态环境局,颗粒物(PM10),69,88,110,33,44,172,,160,160,8,30,6,7,0.5,0.6
2024-05-18T1600,1951A,84.895,45.6094,克拉玛依市,长征新村,,37,37,30,3,6,100,,84,84,3,6,9,8,0.1,0.2
2024-05-18T1600,1952A,84.8988,45.5893,克拉玛依市,南林小区,,33,32,30,17,16,105,,88,88,3,8,7,7,0.4,0.3
2024-05-18T1600,1954A,84.905,44.3396,克拉玛依市,独山子区,细颗粒物(PM2.5),65,61,46,47,29,122,,95,95,13,12,8,8,0.3,0.3
2024-05-18T1600,1955A,85.6979,46.098,克拉玛依市,乌尔禾区商贸楼,,34,17,19,10,8,108,,91,91,2,5,10,9,0.1,0.2
2024-05-18T1600,3612A,85.1045,45.6899,克拉玛依市,白碱滩区新站,,34,26,33,15,15,107,,92,92,3,5,8,8,0.2,0.2
2024-05-18T1600,2697A,76.1454,39.7142,克孜勒苏柯尔克孜自治州,市人民政府,颗粒物(PM10),155,260,128,105,50,114,,106,102,2,8,7,8,0.5,0.5
2024-05-18T1600,3665A,76.1658,39.7157,克孜勒苏柯尔克孜自治州,克州文化中心,颗粒物(PM10),157,263,128,110,46,115,,114,104,2,5,9,9,0.4,0.4
2024-05-18T1600,1450A,102.8204,24.8886,昆明市,呈贡新区,,38,24,28,15,21,121,,103,103,7,9,5,5,0.5,0.6
2024-05-18T1600,1452A,102.7252,25.0902,昆明市,龙泉镇,,41,13,27,10,16,129,,107,107,7,17,7,8,0.5,0.6
2024-05-18T1600,1453A,102.7266,25.0375,昆明市,东风东路,,39,24,31,18,20,123,,104,104,10,12,5,6,0.4,0.5
2024-05-18T1600,1454A,102.6742,25.0669,昆明市,金鼎山,,39,25,29,13,20,124,,106,106,12,13,5,7,0.5,0.6
2024-05-18T1600,1455A,102.6644,25.0401,昆明市,碧鸡广场,,39,14,30,13,22,124,,104,104,10,14,3,5,0.4,0.6
2024-05-18T1600,3179A,102.7494,25.0119,昆明市,官渡区博物馆,,42,26,27,16,17,134,,118,118,9,10,8,10,0.4,0.6
2024-05-18T1600,3375A,102.8017,24.8336,昆明市,青年创业园,,40,18,27,18,22,127,,111,111,6,9,8,9,0.5,0.6
2024-05-18T1600,3550A,102.7997,24.9786,昆明市,昆明学院,,43,19,30,13,22,137,,117,117,8,11,8,8,0.5,0.6
2024-05-18T1600,3551A,102.5967,24.6736,昆明市,晋宁区生态环境分局,,38,,23,22,21,119,,112,112,4,8,1,2,0.6,0.8
2024-05-18T1600,3552A,102.6678,24.9856,昆明市,云天化总部,,44,16,26,10,18,140,,118,118,4,6,9,10,0.6,0.7
2024-05-18T1600,1456A,91.1319,29.6514,拉萨市,八廓街,,49,34,32,20,20,154,,130,130,1,4,7,6,0.4,0.4
2024-05-18T1600,1457A,91.1221,29.6747,拉萨市,市环保局,,46,45,35,24,19,146,,124,124,12,14,7,6,0.3,0.3
2024-05-18T1600,1458A,91.0874,29.6475,拉萨市,区监测站,,46,31,30,19,18,146,,123,123,6,12,5,5,0.1,0.1
2024-05-18T1600,1459A,91.1774,29.6541,拉萨市,西藏大学,,48,33,32,16,18,151,,130,130,3,5,4,4,0.2,0.2
2024-05-18T1600,1460A,90.9798,29.6588,拉萨市,区辐射站,,45,34,34,18,19,141,,116,116,4,14,6,8,0.3,0.3
2024-05-18T1600,1461A,91.0834,29.6292,拉萨市,拉萨火车站,,46,31,28,12,18,147,,124,124,4,6,6,6,0.1,0.1
2024-05-18T1600,2520A,109.2203,23.7256,来宾市,来宾技工学校,,25,,52,17,34,73,,82,77,13,15,3,4,0.7,0.7
2024-05-18T1600,3535A,109.1781,23.7297,来宾市,兴宾区政府,,36,29,50,25,35,76,,79,77,13,15,3,4,0.7,0.7
2024-05-18T1600,4002A,109.2416,23.7461,来宾市,中南小学,,23,9,49,8,32,72,,82,78,15,20,1,2,0.7,0.7
2024-05-18T1600,1476A,103.631,36.1031,兰州市,兰炼宾馆,颗粒物(PM10),64,77,74,33,36,146,,121,121,27,41,10,8,0.5,0.4
2024-05-18T1600,1478A,103.8412,36.0726,兰州市,生物制品所,,45,45,68,30,38,144,,119,119,23,31,11,11,0.1,0.2
2024-05-18T1600,1479A,103.831,36.0464,兰州市,铁路设计院,,47,47,62,25,32,131,,123,123,46,50,6,9,0.4,0.5
2024-05-18T1600,3186A,103.7158,36.1058,兰州市,教育港,颗粒物(PM10),75,99,79,32,36,147,,114,114,27,39,10,8,0.4,0.4
2024-05-18T1600,3241A,103.7439,36.0842,兰州市,百合公园,,50,50,63,29,32,131,,96,96,25,45,2,5,0.4,0.3
2024-05-18T1600,3242A,103.9611,35.998,兰州市,和平,颗粒物(PM10),53,56,70,25,29,149,,131,131,8,16,9,9,0.4,0.3
2024-05-18T1600,3245A,103.6633,36.533,兰州新区,新区管委会,颗粒物(PM10),105,160,93,58,43,150,,134,134,6,10,20,25,0.4,0.5
2024-05-18T1600,3246A,103.6975,36.4789,兰州新区,舟曲中学,颗粒物(PM10),128,205,106,66,38,150,,140,140,11,12,22,21,0.5,0.5
2024-05-18T1600,1068A,116.7214,39.5589,廊坊市,开发区,臭氧1小时,132,127,107,62,47,264,,212,212,20,28,10,8,1.3,1
2024-05-18T1600,1070A,116.7244,39.5269,廊坊市,北华航天学院,臭氧1小时,137,119,112,58,54,274,,209,209,14,22,9,8,1.2,1
2024-05-18T1600,2919A,116.7022,39.5453,廊坊市,河北工业大学,臭氧1小时,133,138,106,56,48,265,,210,210,20,25,7,6,1.2,1
2024-05-18T1600,2535A,103.7723,29.5462,乐山市,花湖湾,,45,,28,19,28,144,,92,92,4,20,4,7,0.5,0.7
2024-05-18T1600,2536A,103.7627,29.5844,乐山市,牛耳桥,,46,35,44,15,27,146,,100,100,9,27,5,10,0.4,0.6
2024-05-18T1600,2537A,103.7508,29.6006,乐山市,市第三水厂,,45,27,41,15,27,143,,99,99,6,26,4,8,0.3,0.6
2024-05-18T1600,2538A,103.7571,29.5664,乐山市,市监测站,,46,28,41,28,30,147,,104,104,5,20,7,13,0.6,0.8
2024-05-18T1600,3361A,103.7311,29.5628,乐山市,理工大学,,48,29,39,20,27,153,,107,107,4,21,8,13,0.4,0.6
2024-05-18T1600,2599A,100.2497,26.8802,丽江市,丽江古城,,42,42,40,17,16,121,,118,118,11,10,6,6,0.5,0.5
2024-05-18T1600,2600A,100.2203,26.8906,丽江市,市中心,,40,23,17,10,8,128,,122,122,10,9,9,8,0.5,0.5
2024-05-18T1600,1267A,119.914,28.4514,丽水市,监测站大楼,臭氧1小时,55,42,35,32,24,164,,137,137,7,13,3,3,0.5,0.5
2024-05-18T1600,1268A,119.93,28.4586,丽水市,莲都小学,臭氧1小时,55,48,39,22,22,164,,137,137,5,16,4,4,0.4,0.3
2024-05-18T1600,1173A,119.176,34.5885,连云港市,市环境监测站,臭氧1小时,100,70,75,41,45,200,,176,176,11,19,9,10,0.3,0.4
2024-05-18T1600,3000A,119.3581,34.6972,连云港市,德源药业,臭氧1小时,102,63,68,39,39,203,,171,171,6,18,8,10,0.6,0.6
2024-05-18T1600,3007A,119.178,34.844,连云港市,新城一中,臭氧1小时,108,78,71,40,39,216,,209,209,20,18,9,10,0.9,0.9
2024-05-18T1600,3008A,119.3608,34.7519,连云港市,胡沟管理处,臭氧1小时,93,73,66,31,29,194,,188,188,8,10,10,10,0.6,0.6
2024-05-18T1600,3009A,119.1478,34.5911,连云港市,矿山设计院,臭氧1小时,99,78,80,34,40,199,,178,178,11,19,7,10,0.9,0.9
2024-05-18T1600,3434A,119.2413,34.6539,连云港市,工贸学校,臭氧1小时,104,66,79,30,37,208,,194,194,8,12,11,11,0.9,0.7
2024-05-18T1600,3664A,119.4172,34.7341,连云港市,连云街道,臭氧1小时,72,73,85,33,39,177,,178,167,28,21,7,8,0.7,0.6
2024-05-18T1600,2571A,102.3431,27.8099,凉山彝族自治州,青龙寺,,39,13,10,8,8,124,,103,103,4,6,7,7,0.5,0.5
2024-05-18T1600,2572A,102.2721,27.8415,凉山彝族自治州,邛海宾馆,,41,21,9,9,6,131,,102,102,9,9,8,10,0.5,0.5
2024-05-18T1600,2573A,102.2625,27.898,凉山彝族自治州,西昌市政府,,37,24,10,17,7,116,,97,97,10,7,12,11,0.5,0.5
2024-05-18T1600,2574A,102.2685,27.8851,凉山彝族自治州,凉山州政府,,37,22,11,11,7,117,,96,96,11,9,8,9,0.5,0.5
2024-05-18T1600,2575A,102.237,27.8914,凉山彝族自治州,长安,,37,22,15,11,7,118,,97,97,13,13,8,11,0.5,0.6
2024-05-18T1600,2212A,123.2,41.1953,辽阳市,宏伟区,,34,16,35,10,20,108,,142,119,6,8,10,10,0.6,0.6
2024-05-18T1600,2213A,123.1683,41.2495,辽阳市,新华园,,38,24,40,13,21,120,,151,131,7,11,11,12,0.6,0.6
2024-05-18T1600,2214A,123.2354,41.2639,辽阳市,滨河路,,35,29,43,3,16,110,,147,121,7,9,8,9,0.4,0.5
2024-05-18T1600,2215A,123.149,41.2991,辽阳市,铁西工业园,,42,42,45,14,21,116,,147,129,16,13,10,12,0.9,0.8
2024-05-18T1600,2227A,125.1358,42.8845,辽源市,环保局,,43,43,37,23,21,109,,167,157,18,14,7,8,0.6,0.7
2024-05-18T1600,3239A,125.0764,42.9078,辽源市,银鹰制药,,48,48,47,23,22,105,,159,148,15,21,6,11,0.6,0.7
2024-05-18T1600,1625A,115.9848,36.4372,聊城市,区政府,臭氧1小时,107,96,110,38,45,213,,186,186,11,35,10,11,0.9,1.2
2024-05-18T1600,2878A,116.0072,36.4343,聊城市,聊大东校,臭氧1小时,117,102,108,52,52,233,,204,204,25,38,11,10,1.1,0.9
2024-05-18T1600,3200A,115.9819,36.4978,聊城市,监控中心,臭氧1小时,115,128,126,31,36,229,,202,202,11,58,10,12,0.6,0.8
2024-05-18T1600,3513A,116.0445,36.4361,聊城市,九州社区,臭氧1小时,114,104,125,33,44,228,,192,192,14,33,6,9,0.6,0.7
2024-05-18T1600,4018A,116.0567,36.4608,聊城市,星美广场,臭氧1小时,111,105,127,33,53,221,,196,196,9,28,6,10,0.7,0.8
2024-05-18T1600,2632A,94.3681,29.6376,林芝市,林芝监测站,,43,34,13,21,12,135,,102,102,1,4,6,6,0.4,0.5
2024-05-18T1600,2633A,94.3616,29.6616,林芝市,林芝人民医院,,43,35,13,19,12,137,,103,103,4,6,7,7,0.4,0.4
2024-05-18T1600,2603A,100.0781,23.8982,临沧市,市环保局,细颗粒物(PM2.5),59,,38,42,25,119,,83,83,7,11,6,7,0.4,0.5
2024-05-18T1600,2604A,100.0894,23.8822,临沧市,市气象局,,45,44,39,31,33,120,,85,85,8,13,6,8,0.6,0.7
2024-05-18T1600,1733A,111.5531,36.0783,临汾市,临钢医院,臭氧1小时,105,103,104,28,38,209,,171,171,6,27,7,7,0.7,0.8
2024-05-18T1600,1734A,111.5028,36.0714,临汾市,技工学校,臭氧1小时,112,87,122,35,42,223,,196,196,11,34,7,9,0.8,0.8
2024-05-18T1600,1736A,111.5018,36.0855,临汾市,市委,臭氧1小时,113,60,119,37,42,225,,200,200,12,31,12,14,0.7,0.8
2024-05-18T1600,3018A,111.505,36.1014,临汾市,唐尧大酒店,臭氧1小时,95,106,128,36,42,196,,174,174,10,27,7,9,0.5,0.7
2024-05-18T1600,3668A,111.5036,36.0414,临汾市,城南,臭氧1小时,114,86,121,54,57,227,,196,196,8,32,10,11,0.6,0.7
2024-05-18T1600,2667A,103.2069,35.5993,临夏回族自治州,环保局,颗粒物(PM10),58,65,116,24,42,156,,102,102,2,23,7,6,0.3,0.5
2024-05-18T1600,2668A,103.2417,35.6057,临夏回族自治州,建设大厦,颗粒物(PM10),54,58,95,22,43,158,,106,106,8,24,13,11,0.3,0.5
2024-05-18T1600,1618A,118.3429,35.0532,临沂市,沂河小区,颗粒物(PM10),54,58,89,30,46,160,,175,175,13,19,8,14,0.4,0.5
2024-05-18T1600,1619A,118.295,35.0583,临沂市,鲁南制药厂,臭氧1小时,75,75,65,32,40,180,,194,194,7,14,7,14,0.4,0.6
2024-05-18T1600,1620A,118.2794,34.9976,临沂市,新光毛纺厂,"颗粒物(PM10),臭氧1小时",63,75,79,25,39,170,,182,182,4,15,6,13,0.5,0.7
2024-05-18T1600,1621A,118.3956,35.0888,临沂市,河东保险公司,臭氧1小时,63,61,76,26,34,170,,170,170,6,15,7,12,0.3,0.4
2024-05-18T1600,3370A,118.3564,35.0215,临沂市,十里堡居委,臭氧1小时,60,41,60,27,40,168,,180,180,15,16,6,11,0.5,0.7
2024-05-18T1600,3496A,118.3604,35.1084,临沂市,南坊新区,臭氧1小时,60,51,80,29,36,168,,179,179,12,19,8,13,0.5,0.8
2024-05-18T1600,3860A,118.3920,35.0300,临沂市,皇山花园小区,臭氧1小时,64,56,80,29,39,171,,180,180,13,22,9,15,0.6,0.8
2024-05-18T1600,1870A,109.4856,24.3895,柳州市,柳东小学,,25,19,41,16,30,78,,113,77,12,14,5,6,0.6,0.6
2024-05-18T1600,1871A,109.4157,24.3277,柳州市,环保监测站,,24,20,44,16,31,76,,119,77,12,14,7,8,0.7,0.8
2024-05-18T1600,1872A,109.389,24.341,柳州市,河西水厂,,24,16,43,9,30,76,,113,77,10,16,6,8,0.8,0.8
2024-05-18T1600,1873A,109.4311,24.2921,柳州市,市四中,,26,23,43,18,32,70,,122,70,19,18,5,6,0.7,0.7
2024-05-18T1600,1874A,109.4006,24.3631,柳州市,市九中,,26,18,53,11,33,81,,109,76,10,17,6,8,0.6,0.7
2024-05-18T1600,1875A,109.4958,24.3134,柳州市,古亭山,,22,22,43,14,31,68,,115,71,22,19,8,8,0.6,0.6
2024-05-18T1600,3402A,109.5422,24.3996,柳州市,市二中,,26,20,46,10,29,81,,111,77,14,17,8,8,0.5,0.6
2024-05-18T1600,2307A,116.5079,31.737,六安市,监测大楼,臭氧1小时,89,52,54,29,35,191,,175,175,6,13,6,6,0.4,0.5
2024-05-18T1600,2308A,116.4738,31.7643,六安市,皖西学院,臭氧1小时,93,66,63,28,33,194,,185,185,10,13,4,4,0.6,0.6
2024-05-18T1600,2309A,116.4996,31.7905,六安市,朝阳厂,臭氧1小时,70,49,60,26,33,176,,168,168,4,10,6,7,0.3,0.4
2024-05-18T1600,2310A,116.5567,31.7886,六安市,开发区,臭氧1小时,77,64,75,32,42,181,,171,171,9,16,9,11,0.5,0.6
2024-05-18T1600,2577A,104.83,26.5917,六盘水市,黄土坡,,27,23,15,11,13,86,,71,71,6,13,8,7,0.4,0.5
2024-05-18T1600,2578A,104.89,26.5939,六盘水市,水钢,,27,26,20,8,11,86,,70,69,6,10,10,9,1.0,0.5
2024-05-18T1600,2579A,104.8475,26.5894,六盘水市,民中,,27,12,12,3,9,84,,69,69,6,11,6,6,0.6,0.7
2024-05-18T1600,2580A,104.9544,26.5506,六盘水市,双水,,31,12,12,7,9,97,,71,71,4,8,7,8,0.4,0.5
2024-05-18T1600,2336A,117.0217,25.1033,龙岩市,龙岩市监测站,,50,47,46,35,32,156,,152,152,15,19,11,11,0.4,0.5
2024-05-18T1600,2337A,117.0258,25.0661,龙岩市,闽西职业技术学院,颗粒物(PM10),55,59,56,36,34,133,,135,135,20,21,16,15,0.6,0.6
2024-05-18T1600,2338A,117.0196,25.0306,龙岩市,龙岩学院,细颗粒物(PM2.5),83,70,43,61,29,136,,146,146,13,12,11,7,0.5,0.5
2024-05-18T1600,2885A,104.9339,33.3826,陇南市,滨江中学,颗粒物(PM10),64,78,65,26,24,162,,142,142,2,4,5,6,0.4,0.5
2024-05-18T1600,3247A,104.955,33.371,陇南市,市总工会,颗粒物(PM10),60,70,54,13,22,143,,133,133,4,7,6,7,0.3,0.6
2024-05-18T1600,2487A,111.9589,27.8901,娄底市,电视发射台,细颗粒物(PM2.5),59,55,55,42,38,103,,101,101,8,11,8,9,0.9,1.1
2024-05-18T1600,2488A,111.9975,27.725,娄底市,市监测站,,43,43,53,27,37,130,,116,116,6,6,6,7,0.7,0.7
2024-05-18T1600,2489A,112.0194,27.7314,娄底市,市委党校,,,19,48,,39,130,,96,,8,8,7,10,0.4,0.7
2024-05-18T1600,2490A,111.9561,27.7569,娄底市,涟钢,细颗粒物(PM2.5),64,49,57,46,40,122,,98,98,20,25,15,14,0.6,0.8
2024-05-18T1600,2491A,111.9892,27.7044,娄底市,市政府,,44,36,57,28,38,139,,128,128,6,7,9,11,0.5,0.5
2024-05-18T1600,1893A,105.4324,28.9634,泸州市,九狮山,,39,39,54,15,31,73,,69,69,8,14,5,5,0.3,0.4
2024-05-18T1600,1894A,105.4427,28.9063,泸州市,小市上码头,,30,26,57,19,35,93,,79,79,6,17,7,10,0.3,0.4
2024-05-18T1600,1895A,105.4241,28.8573,泸州市,兰田宪桥,,33,29,61,23,38,92,,85,85,6,20,4,7,0.3,0.4
2024-05-18T1600,1896A,105.4379,28.8833,泸州市,市环监站,,29,24,58,19,44,90,,83,83,5,18,5,8,0.3,0.5
2024-05-18T1600,3490A,105.3617,28.7703,泸州市,纳溪区环保局,,31,28,47,19,28,99,,81,81,13,26,1,2,0.3,0.4
2024-05-18T1600,2183A,111.1406,37.5211,吕梁市,环保局,臭氧1小时,80,82,149,33,48,184,,176,176,8,42,5,5,0.4,0.5
2024-05-18T1600,2185A,111.1297,37.5136,吕梁市,自来水公司,臭氧1小时,68,72,128,45,52,174,,143,143,8,27,6,6,0.4,0.4
2024-05-18T1600,2867A,111.1283,37.51,吕梁市,马茂庄小学,臭氧1小时,82,89,142,56,51,185,,149,149,9,41,4,5,0.3,0.4
2024-05-18T1600,1812A,112.3931,34.6516,洛阳市,市委党校,臭氧1小时,109,68,85,48,47,217,,189,189,7,18,6,8,0.6,0.7
2024-05-18T1600,1814A,112.4657,34.6871,洛阳市,豫西宾馆,臭氧1小时,110,84,100,33,38,220,,196,196,4,20,7,9,0.6,0.7
2024-05-18T1600,1815A,112.494,34.6886,洛阳市,河南林校,臭氧1小时,108,68,81,37,39,216,,190,190,10,23,8,9,0.4,0.6
2024-05-18T1600,1816A,112.3844,34.623,洛阳市,开发区管委会,臭氧1小时,82,78,81,32,39,185,,179,179,4,13,4,6,0.2,0.5
2024-05-18T1600,1817A,112.4267,34.6258,洛阳市,市委新办公区,臭氧1小时,82,77,74,36,43,185,,183,183,5,15,6,9,0.2,0.4
2024-05-18T1600,3340A,112.6005,34.6326,洛阳市,伊滨,臭氧1小时,64,60,87,24,39,171,,178,178,5,24,6,8,0.2,0.6
2024-05-18T1600,3341A,112.4951,34.6332,洛阳市,中移产业园,臭氧1小时,83,75,79,33,36,186,,186,186,6,18,6,9,0.6,0.8
2024-05-18T1600,3593A,112.5736,34.8993,洛阳市,吉利监测站,,,,91,,38,231,,200,200,14,23,3,6,0.2,0.4
2024-05-18T1600,3635A,112.3677,34.662,洛阳市,河科大西苑校区,臭氧1小时,110,85,94,36,38,219,,192,192,2,21,7,12,0.6,0.8
2024-05-18T1600,3636A,112.4388,34.6781,洛阳市,英才小学,臭氧1小时,103,78,95,27,37,205,,187,187,6,23,7,10,0.5,0.8
2024-05-18T1600,2399A,114.051,33.5699,漯河市,三五一五工厂,臭氧1小时,85,63,84,30,36,188,,164,164,6,14,6,7,0.5,0.5
2024-05-18T1600,2400A,114.0055,33.5698,漯河市,漯河大学,臭氧1小时,85,63,76,41,42,188,,159,159,10,16,9,9,0.4,0.5
2024-05-18T1600,2401A,114.0138,33.5828,漯河市,市水利局,臭氧1小时,90,66,74,29,40,192,,163,163,4,11,7,8,0.5,0.6
2024-05-18T1600,2402A,114.0261,33.5698,漯河市,市广电局,,,,75,28,39,190,,164,164,6,9,,5,0.5,0.6
2024-05-18T1600,3478A,113.9749,33.5664,漯河市,市图书馆,臭氧1小时,83,64,76,41,42,186,,158,158,2,9,6,8,0.4,0.5
2024-05-18T1600,3479A,114.0967,33.5906,漯河市,召陵区卫健委,臭氧1小时,80,66,80,22,42,184,,163,163,5,13,5,6,0.5,0.6
2024-05-18T1600,1798A,118.5092,31.6837,马鞍山市,湖东路四小,臭氧1小时,88,53,70,17,31,190,,172,172,8,19,6,8,0.6,0.8
2024-05-18T1600,1799A,118.5024,31.6449,马鞍山市,开发区,臭氧1小时,82,44,84,25,39,185,,168,168,10,33,8,10,0.6,0.8
2024-05-18T1600,1800A,118.5228,31.7231,马鞍山市,慈湖,臭氧1小时,74,41,57,35,43,179,,166,166,15,28,4,7,0.5,0.7
2024-05-18T1600,1802A,118.6245,31.7241,马鞍山市,濮塘,臭氧1小时,90,46,53,38,37,192,,167,167,8,14,6,6,0.6,0.7
2024-05-18T1600,3633A,118.4918,31.6809,马鞍山市,雨山,臭氧1小时,85,50,64,29,36,188,,171,171,6,19,9,10,0.6,0.8
2024-05-18T1600,1686A,111.0286,21.4688,茂名市,电白南海,,41,41,40,14,16,83,,89,86,7,7,7,8,0.5,0.5
2024-05-18T1600,1687A,110.9294,21.6533,茂名市,茂石化七小,,27,27,37,9,18,76,,86,86,7,11,6,9,0.5,0.5
2024-05-18T1600,1688A,110.9107,21.6687,茂名市,健康路,,29,29,35,7,13,71,,82,82,6,8,8,10,0.5,0.6
2024-05-18T1600,1689A,110.8592,21.6828,茂名市,高岭,,48,48,39,14,17,71,,82,81,8,12,8,11,0.6,0.6
2024-05-18T1600,3450A,111.01,21.5165,茂名市,电白水东,,31,31,32,17,16,78,,83,82,12,13,5,8,0.4,0.4
2024-05-18T1600,2539A,104.0308,30.0478,眉山市,黑龙滩水库,,43,36,56,15,35,136,,114,114,10,16,4,6,0.4,0.4
2024-05-18T1600,2540A,103.8416,30.0874,眉山市,气象局,"颗粒物(PM10),臭氧1小时",72,94,58,41,41,177,,100,100,15,33,9,15,0.5,0.5
2024-05-18T1600,3137A,103.8578,30.0744,眉山市,市委党校,颗粒物(PM10),70,90,66,36,34,167,,97,97,17,36,9,16,0.3,0.4
2024-05-18T1600,3148A,103.8291,30.0564,眉山市,区人社局,"颗粒物(PM10),臭氧1小时",63,76,53,31,35,170,,101,101,23,37,10,17,0.4,0.5
2024-05-18T1600,1690A,116.1231,24.3284,梅州市,梅江月梅,,43,43,52,27,31,131,,109,109,13,26,4,5,0.6,0.6
2024-05-18T1600,1691A,116.0797,24.2719,梅州市,梅县新城,,48,36,45,33,31,133,,101,101,8,25,4,5,0.5,0.5
2024-05-18T1600,1692A,116.1248,24.2654,梅州市,环境监控中心,,40,40,49,26,31,123,,102,102,13,28,4,5,0.5,0.6
2024-05-18T1600,3315A,116.1233,24.2991,梅州市,梅龙,,46,46,49,25,29,123,,111,111,7,16,8,13,0.8,0.7
2024-05-18T1600,1878A,104.7778,31.4741,绵阳市,富乐山,细颗粒物(PM2.5),53,53,63,37,43,115,,82,82,11,19,9,9,0.7,0.7
2024-05-18T1600,1879A,104.7563,31.4535,绵阳市,市人大,颗粒物(PM10),51,52,74,28,41,101,,72,72,14,30,4,8,0.7,0.8
2024-05-18T1600,1880A,104.6697,31.4668,绵阳市,高新区自来水公司,细颗粒物(PM2.5),82,,108,60,56,119,,85,85,13,33,9,10,0.8,0.9
2024-05-18T1600,1881A,104.7287,31.5075,绵阳市,三水厂,细颗粒物(PM2.5),58,56,83,41,56,112,,70,70,14,42,5,7,0.6,0.7
2024-05-18T1600,3491A,104.69,31.5322,绵阳市,西科大附属小学,细颗粒物(PM2.5),74,77,91,54,54,102,,78,78,19,43,6,6,0.6,0.7
2024-05-18T1600,3492A,104.5648,31.5343,绵阳市,安州区旅游局,细颗粒物(PM2.5),70,,88,51,67,112,,97,97,15,26,10,10,0.7,0.9
2024-05-18T1600,1784A,129.61,44.561,牡丹江市,环保大楼,,37,37,38,15,17,99,,106,106,12,17,5,6,0.3,0.4
2024-05-18T1600,1785A,129.6115,44.5782,牡丹江市,文化广场,,41,41,46,24,24,99,,101,101,13,22,5,7,0.3,0.4
2024-05-18T1600,1786A,129.5904,44.5963,牡丹江市,第一医院,,46,36,43,32,23,102,,107,107,10,24,5,5,0.2,0.4
2024-05-18T1600,1787A,129.6364,44.6075,牡丹江市,机车工厂,,47,47,49,27,17,100,,102,102,7,22,4,7,0.2,0.4
2024-05-18T1600,1788A,129.6386,44.5462,牡丹江市,第一中学,颗粒物(PM10),51,52,45,28,19,106,,114,114,11,19,6,6,0.3,0.3
2024-05-18T1600,2531A,105.0703,29.61,内江市,市监测站,,35,,49,24,45,109,,88,88,6,28,7,9,0.4,0.6
2024-05-18T1600,2532A,105.0717,29.5947,内江市,东兴区政府,,35,24,54,14,33,109,,91,91,5,24,10,12,0.5,0.7
2024-05-18T1600,2533A,105.0653,29.5817,内江市,内江二中,,33,22,52,15,38,104,,85,85,6,26,8,10,0.4,0.6
2024-05-18T1600,2534A,105.0406,29.5822,内江市,内江日报社,,36,21,48,12,42,115,,93,93,8,31,10,12,0.4,0.6
2024-05-18T1600,2628A,92.0657,31.4846,那曲市,那曲监测站,,45,36,59,20,31,142,,120,120,4,9,4,6,0.3,0.7
2024-05-18T1600,3128A,92.0506,31.4797,那曲市,那曲会议中心,颗粒物(PM10),57,63,97,24,38,144,,117,117,2,10,2,3,0.2,0.5
2024-05-18T1600,1290A,115.8931,28.6843,南昌市,省外办,颗粒物(PM10),56,61,69,34,39,162,,142,142,16,22,8,12,0.4,0.5
2024-05-18T1600,1291A,115.8886,28.7003,南昌市,省林业公司,臭氧1小时,63,46,62,29,34,170,,147,147,10,29,7,11,0.5,0.6
2024-05-18T1600,1292A,115.8126,28.7442,南昌市,林科所,臭氧1小时,77,41,55,24,31,181,,157,157,8,52,8,11,0.3,0.3
2024-05-18T1600,1294A,115.8518,28.687,南昌市,建工学校,臭氧1小时,68,56,67,21,35,174,,149,149,7,27,7,11,0.5,0.6
2024-05-18T1600,1295A,115.8921,28.6424,南昌市,象湖,臭氧1小时,69,50,68,32,34,175,,160,160,15,26,6,10,0.6,0.7
2024-05-18T1600,1296A,115.7423,28.7996,南昌市,武术学校,臭氧1小时,58,,27,33,27,166,,149,149,4,5,14,12,0.3,0.4
2024-05-18T1600,1298A,115.9314,28.6842,南昌市,省站,臭氧1小时,65,46,69,27,35,172,,154,154,8,18,10,13,0.6,0.7
2024-05-18T1600,3046A,115.9084,28.6062,南昌市,机电学校,臭氧1小时,59,55,71,34,40,167,,150,150,2,19,10,15,0.6,0.6
2024-05-18T1600,3690A,115.9721,28.7031,南昌市,外国语学校,臭氧1小时,57,51,66,28,35,165,,155,155,5,22,5,8,0.2,0.3
2024-05-18T1600,1905A,106.056,30.8064,南充市,西山风景区,,49,47,68,34,48,91,,51,51,5,17,2,4,0.5,0.6
2024-05-18T1600,1906A,106.0789,30.8023,南充市,南充市委,,48,48,85,32,50,101,,78,78,14,31,5,7,0.2,0.4
2024-05-18T1600,1907A,106.1031,30.8217,南充市,南充炼油厂,,50,48,90,35,57,119,,90,90,16,34,6,8,0.4,0.6
2024-05-18T1600,1908A,106.1064,30.7856,南充市,高坪区监测站,细颗粒物(PM2.5),52,47,94,36,51,105,,84,84,20,42,6,8,0.2,0.2
2024-05-18T1600,1909A,106.0642,30.7636,南充市,嘉陵区环保局,,45,33,76,31,54,85,,57,57,16,38,4,4,0.2,0.4
2024-05-18T1600,1910A,106.1087,30.8388,南充市,市环境监测站,,47,47,85,31,49,100,,78,78,12,35,6,8,0.4,0.6
2024-05-18T1600,1151A,118.8086,32.1065,南京市,迈皋桥,臭氧1小时,98,38,49,22,28,198,,183,183,6,27,5,6,0.6,0.7
2024-05-18T1600,1152A,118.7538,32.0551,南京市,草场门,臭氧1小时,105,48,57,29,31,210,,188,188,10,24,3,4,0.4,0.5
2024-05-18T1600,1153A,118.7794,32.0745,南京市,山西路,臭氧1小时,101,46,59,29,31,202,,178,178,7,17,4,4,0.4,0.4
2024-05-18T1600,1154A,118.7752,32.0023,南京市,中华门,臭氧1小时,108,41,55,22,31,215,,186,186,7,19,8,9,0.6,0.5
2024-05-18T1600,1155A,118.8109,32.0309,南京市,瑞金路,臭氧1小时,101,53,61,27,31,201,,178,178,2,16,9,9,0.3,0.4
2024-05-18T1600,1156A,118.7997,32.0754,南京市,玄武湖,臭氧1小时,88,47,60,29,29,190,,169,169,3,9,8,9,0.2,0.2
2024-05-18T1600,1157A,118.6414,32.0931,南京市,浦口,臭氧1小时,93,47,61,25,31,194,,180,180,10,22,6,7,0.3,0.6
2024-05-18T1600,1159A,118.9125,32.1028,南京市,仙林大学城,臭氧1小时,106,48,54,19,21,212,,179,179,8,21,10,11,0.5,0.6
2024-05-18T1600,3422A,118.8436,31.9198,南京市,江宁彩虹桥,臭氧1小时,104,65,56,31,32,207,,188,188,4,18,4,5,0.6,0.6
2024-05-18T1600,3423A,119.0138,31.6494,南京市,溧水永阳,臭氧1小时,109,58,55,29,32,218,,183,183,12,22,6,8,0.5,0.6
2024-05-18T1600,3424A,118.879,31.3302,南京市,高淳老职中,臭氧1小时,105,45,59,33,37,210,,170,170,9,18,6,8,0.4,0.5
2024-05-18T1600,3427A,118.8554,32.3578,南京市,六合雄州,臭氧1小时,100,31,53,22,37,200,,190,190,12,29,4,7,0.6,0.7
2024-05-18T1600,1401A,108.3103,22.7881,南宁市,二十一中,,29,23,50,20,28,66,,66,48,10,16,3,6,0.6,0.6
2024-05-18T1600,1402A,108.3141,22.8528,南宁市,北湖,,43,43,63,28,38,28,,58,32,28,22,4,5,0.8,0.8
2024-05-18T1600,1403A,108.3206,22.8225,南宁市,市监测站,,28,20,51,19,29,50,,60,36,15,23,5,6,0.7,0.8
2024-05-18T1600,1404A,108.3829,22.8037,南宁市,大自然花园,,30,22,52,21,34,54,,62,44,11,20,5,5,0.5,0.6
2024-05-18T1600,1405A,108.4394,22.7904,南宁市,仙葫,,39,39,56,24,34,50,,65,44,18,23,4,5,0.8,0.9
2024-05-18T1600,1406A,108.2397,22.8467,南宁市,区农职院,,48,48,59,33,36,19,,63,30,38,27,4,5,0.7,0.6
2024-05-18T1600,1407A,108.3275,22.735,南宁市,英华嘉园,,28,28,51,18,35,56,,59,42,17,19,6,7,0.6,0.6
2024-05-18T1600,1408A,108.2257,22.7757,南宁市,沙井镇街道办,,24,24,64,15,28,56,,47,38,15,30,3,5,0.5,0.6
2024-05-18T1600,3401A,108.4834,22.7618,南宁市,红星社区,,35,33,60,24,36,51,,67,46,14,21,7,9,0.6,0.7
2024-05-18T1600,2332A,118.1681,26.6369,南平市,南平市监测站,,45,38,36,22,24,142,,129,129,7,16,5,5,0.4,0.6
2024-05-18T1600,2333A,118.1825,26.6489,南平市,南平铝业有限公司,,43,39,40,20,27,136,,122,122,7,18,5,7,0.5,0.7
2024-05-18T1600,2334A,118.1756,26.6272,南平市,南平七中,,45,41,36,24,25,143,,128,128,5,13,4,5,0.6,0.7
2024-05-18T1600,1168A,120.9098,31.9663,南通市,狼山街道,臭氧1小时,106,40,37,13,12,211,,148,148,7,28,11,10,0.5,0.5
2024-05-18T1600,1169A,120.86,32.0005,南通市,虹桥,臭氧1小时,103,40,44,15,14,205,,146,146,9,30,6,8,0.4,0.5
2024-05-18T1600,1170A,120.87,32.02,南通市,城中,臭氧1小时,89,45,49,15,16,191,,135,135,11,31,6,7,0.6,0.6
2024-05-18T1600,1171A,120.94,31.93,南通市,星湖花园,臭氧1小时,105,42,39,13,12,210,,147,147,13,32,9,9,0.5,0.5
2024-05-18T1600,1172A,120.81,32.0417,南通市,紫琅学院,臭氧1小时,83,32,42,15,18,186,,128,128,35,48,10,12,0.5,0.5
2024-05-18T1600,3291A,121.067,32.062,南通市,通州监测站,臭氧1小时,60,46,45,3,8,168,,137,137,4,18,10,10,0.5,0.5
2024-05-18T1600,3432A,120.9348,31.9883,南通市,环境教育馆,臭氧1小时,102,39,43,14,13,204,,147,147,12,33,9,10,0.5,0.5
2024-05-18T1600,2404A,112.5224,33.0122,南阳市,瓦房庄,,43,42,57,27,29,137,,139,139,31,16,5,5,0.5,0.5
2024-05-18T1600,2405A,112.5003,32.9735,南阳市,汉画馆,颗粒物(PM10),54,58,69,30,37,158,,142,142,10,17,4,5,0.5,0.5
2024-05-18T1600,2406A,112.5573,33.027,南阳市,气象站,臭氧1小时,53,37,57,19,30,162,,147,147,9,15,3,4,0.3,0.4
2024-05-18T1600,2407A,112.5481,32.9689,南阳市,理工学院,,50,49,61,33,33,157,,144,144,13,16,4,5,0.6,0.6
2024-05-18T1600,4008A,112.5234,32.9922,南阳市,卧龙区政府,,50,44,58,28,35,159,,144,144,10,15,5,5,0.7,0.7
2024-05-18T1600,1234A,121.8358,29.911,宁波市,区环保大楼,,36,36,34,12,10,100,,100,100,6,9,5,5,0.5,0.5
2024-05-18T1600,1235A,121.56,29.82,宁波市,万里学院,,,48,34,,30,112,,111,111,12,11,4,4,0.3,0.5
2024-05-18T1600,1236A,121.713,29.9572,宁波市,龙赛医院,,38,38,41,9,8,102,,107,107,5,10,4,5,0.4,0.4
2024-05-18T1600,1239A,121.633,29.7733,宁波市,钱湖水厂,,36,28,25,25,20,107,,106,106,4,6,4,4,0.4,0.4
2024-05-18T1600,1240A,121.5856,29.8635,宁波市,太古小学,,34,24,21,18,14,106,,106,106,5,11,5,5,0.5,0.6
2024-05-18T1600,1241A,121.524,29.8674,宁波市,市环境监测中心,,36,28,29,14,13,114,,114,114,8,14,8,9,0.5,0.5
2024-05-18T1600,2871A,121.6147,29.9017,宁波市,万里国际学校,,37,31,31,17,16,116,,117,117,6,9,3,3,0.3,0.3
2024-05-18T1600,3710A,121.5594,29.8975,宁波市,白沙活动中心,,35,32,34,12,10,112,,112,112,5,10,8,9,0.4,0.4
2024-05-18T1600,2341A,119.5388,26.6612,宁德市,宁德市监测站,,41,41,32,16,17,85,,100,100,5,9,7,7,0.2,0.3
2024-05-18T1600,3209A,119.5231,26.6562,宁德市,宁德一中,细颗粒物(PM2.5),82,,43,60,33,93,,108,106,4,7,7,7,0.5,0.4
2024-05-18T1600,2618A,98.8601,25.8567,怒江傈僳族自治州,州监测站,,28,24,34,19,23,84,,47,47,4,9,8,8,0.4,0.4
2024-05-18T1600,2619A,98.8546,25.8417,怒江傈僳族自治州,泸水一中,,40,40,33,26,22,60,,33,33,19,14,6,6,0.3,0.3
2024-05-18T1600,1888A,101.6891,26.571,攀枝花市,弄弄坪,臭氧1小时,54,39,50,23,25,163,,132,132,10,25,20,37,0.7,1.1
2024-05-18T1600,1889A,101.5769,26.5928,攀枝花市,河门口,,50,34,49,17,25,158,,123,123,11,29,13,23,0.6,1
2024-05-18T1600,1890A,101.7169,26.585,攀枝花市,炳草岗,臭氧1小时,74,41,53,15,25,179,,137,137,10,30,29,34,0.6,0.8
2024-05-18T1600,1891A,101.7369,26.5008,攀枝花市,仁和,臭氧1小时,52,30,39,19,26,161,,132,132,9,21,20,17,0.4,0.6
2024-05-18T1600,2835A,101.7227,26.567,攀枝花市,四十中小,臭氧1小时,74,32,41,19,24,179,,140,140,10,25,29,24,0.8,1.1
2024-05-18T1600,1604A,122.0303,41.1489,盘锦市,开发区,臭氧1小时,74,53,52,33,37,179,,162,162,12,17,5,6,0.4,0.4
2024-05-18T1600,1605A,122.0485,41.0883,盘锦市,兴隆台,臭氧1小时,60,54,52,36,38,168,,160,160,17,24,7,8,0.6,0.6
2024-05-18T1600,1606A,121.8297,41.1028,盘锦市,新生街道,颗粒物(PM10),66,82,56,24,30,167,,152,152,14,15,6,6,0.6,0.6
2024-05-18T1600,1832A,113.3257,33.742,平顶山市,新华旅馆,臭氧1小时,78,55,71,24,39,182,,165,165,9,10,6,7,0.3,0.4
2024-05-18T1600,1833A,113.2919,33.737,平顶山市,规划设计院,,,49,61,28,34,168,,160,160,7,10,4,7,,0.6
2024-05-18T1600,1834A,113.182,33.774,平顶山市,平顶山工学院,臭氧1小时,53,45,57,31,34,162,,149,149,3,6,4,5,0.5,0.5
2024-05-18T1600,3204A,113.3025,33.73,平顶山市,规划局,臭氧1小时,63,73,58,27,32,170,,152,152,5,9,4,5,0.5,0.5
2024-05-18T1600,3594A,112.8867,33.9116,平顶山市,石龙区,臭氧1小时,75,54,74,27,32,180,,156,156,4,12,6,6,0.3,0.3
2024-05-18T1600,2656A,106.6692,35.5461,平凉市,聚贤嘉苑,,49,43,60,16,23,154,,136,136,6,28,8,9,0.2,0.3
2024-05-18T1600,2657A,106.7021,35.5307,平凉市,博物馆,,50,49,70,16,26,160,,138,138,5,28,12,11,0.4,0.7
2024-05-18T1600,2347A,114.0997,27.5002,萍乡市,武功山,,37,26,32,19,13,118,,107,107,6,6,9,8,0.5,0.4
2024-05-18T1600,2348A,113.8385,27.6434,萍乡市,中医院,,47,37,47,29,28,150,,142,142,8,10,7,6,0.7,0.7
2024-05-18T1600,2349A,113.8493,27.6253,萍乡市,市政府车库,,48,42,40,33,35,151,,140,140,8,11,15,11,1.0,0.7
2024-05-18T1600,2350A,113.8676,27.6435,萍乡市,市环保局,细颗粒物(PM2.5),57,41,51,40,37,142,,134,134,6,13,8,9,0.5,0.6
2024-05-18T1600,2351A,113.866,27.6198,萍乡市,安源区政府,,50,50,49,21,23,153,,143,143,9,8,16,13,0.8,0.5
2024-05-18T1600,2319A,119.0141,25.4325,莆田市,荔城区仓后路,,46,46,40,16,17,95,,116,116,9,12,6,5,0.7,0.7
2024-05-18T1600,2320A,119.0015,25.4553,莆田市,莆田市监测站,,,50,35,19,16,102,,118,118,,6,,7,0.7,0.6
2024-05-18T1600,2321A,119.1119,25.4561,莆田市,涵江区六中,,44,44,40,14,15,95,,114,114,8,16,8,8,0.8,0.8
2024-05-18T1600,2322A,119.1013,25.3215,莆田市,秀屿区政府,,46,46,43,6,27,79,,103,103,2,13,7,9,0.6,0.8
2024-05-18T1600,2392A,115.0312,35.7636,濮阳市,环保局,臭氧1小时,72,80,98,32,46,177,,157,157,6,34,9,17,0.3,0.8
2024-05-18T1600,2394A,115.0574,35.7609,濮阳市,油田运输公司,臭氧1小时,83,79,114,31,46,186,,167,167,11,34,10,19,0.3,0.6
2024-05-18T1600,2395A,115.0866,35.7754,濮阳市,油田物探公司,臭氧1小时,85,93,121,30,48,188,,164,164,5,36,8,14,0.4,0.7
2024-05-18T1600,3021A,115,35.7668,濮阳市,濮水河管理处,臭氧1小时,62,71,93,36,47,169,,150,150,4,28,9,11,0.5,0.8
2024-05-18T1600,2601A,100.98,22.7633,普洱市,市环保局,,31,,24,19,21,98,,76,76,6,8,9,10,0.4,0.4
2024-05-18T1600,2602A,100.9817,22.8322,普洱市,普洱第二中学,,31,18,30,10,10,98,,75,75,7,10,9,9,0.5,0.6
2024-05-18T1600,2262A,131.0518,45.8751,七台河市,新一中,,41,33,35,16,16,129,,124,123,5,12,8,9,0.6,0.8
2024-05-18T1600,3345A,131.0577,45.7879,七台河市,中波台,颗粒物(PM10),75,100,52,31,12,122,,116,114,12,18,6,7,0.5,0.5
2024-05-18T1600,3637A,131.0176,45.7761,七台河市,人民广场,颗粒物(PM10),60,70,53,29,24,113,,110,107,11,19,10,10,0.3,0.4
2024-05-18T1600,3684A,130.8781,45.8222,七台河市,新建矿广场,颗粒物(PM10),62,73,54,19,19,117,,109,109,13,20,8,9,0.5,0.5
2024-05-18T1600,1779A,123.9305,47.3636,齐齐哈尔市,安居小区,,29,16,31,8,18,90,,89,89,4,9,1,4,0.2,0.3
2024-05-18T1600,1780A,123.9488,47.3386,齐齐哈尔市,中心广场,,27,,38,14,14,86,,88,87,8,10,6,7,0.3,0.3
2024-05-18T1600,1781A,123.9483,47.3227,齐齐哈尔市,农牧车辆厂,,28,24,39,3,8,89,,89,89,5,7,7,7,0.3,0.3
2024-05-18T1600,1783A,123.945,47.2988,齐齐哈尔市,市环境监测站,,28,21,37,12,19,88,,89,89,5,7,4,5,0.2,0.2
2024-05-18T1600,3662A,123.6333,47.2075,齐齐哈尔市,富区青少年活动中心,,30,19,28,3,10,94,,90,90,8,10,5,7,0.3,0.4
2024-05-18T1600,2591A,107.9783,26.5747,黔东南苗族侗族自治州,市环境监测站,,24,13,21,11,16,74,,72,57,14,16,2,2,0.6,0.6
2024-05-18T1600,2881A,107.8908,26.5311,黔东南苗族侗族自治州,凯里学院,,29,11,21,9,14,91,,90,90,8,6,2,2,0.5,0.5
2024-05-18T1600,2593A,107.5228,26.2403,黔南布依族苗族自治州,小围寨,,26,,10,3,7,81,,77,77,8,6,6,4,0.7,0.7
2024-05-18T1600,3538A,107.5175,26.2978,黔南布依族苗族自治州,沙坝,,26,6,11,3,8,83,,86,86,6,7,3,3,0.6,0.5
2024-05-18T1600,2589A,104.9022,25.0925,黔西南布依族苗族自治州,场坝街,,23,14,14,3,8,73,,60,60,8,12,3,3,0.3,0.4
2024-05-18T1600,2590A,104.8811,25.0992,黔西南布依族苗族自治州,坪东大道,,24,14,14,7,8,75,,58,58,6,10,2,2,0.2,0.3
2024-05-18T1600,2502A,108.6236,21.9667,钦州市,市环保站,,19,14,35,3,14,60,,57,57,9,11,4,6,0.6,0.6
2024-05-18T1600,2503A,108.6549,21.9481,钦州市,沙埠小学,,20,16,46,9,19,64,,59,59,8,16,5,6,1.1,0.9
2024-05-18T1600,2504A,108.5989,21.7431,钦州市,港区一小,,35,35,42,13,16,71,,75,73,17,13,8,7,0.8,0.7
2024-05-18T1600,3404A,108.5959,21.9633,钦州市,北职校,,20,,37,8,19,62,,56,56,7,11,6,8,0.6,0.7
2024-05-18T1600,1042A,119.5134,39.8207,秦皇岛市,北戴河环保局,颗粒物(PM10),58,66,72,24,32,144,,134,134,16,23,3,4,0.3,0.4
2024-05-18T1600,1043A,119.7493,40.0116,秦皇岛市,第一关,臭氧1小时,65,70,80,38,49,172,,150,150,13,60,6,6,0.3,0.4
2024-05-18T1600,1044A,119.5897,39.9499,秦皇岛市,监测站,颗粒物(PM10),60,70,89,38,53,155,,147,147,23,41,4,4,0.3,0.5
2024-05-18T1600,1046A,119.5251,39.9041,秦皇岛市,建设大厦,颗粒物(PM10),56,61,83,28,40,157,,142,142,10,44,1,2,0.2,0.3
2024-05-18T1600,3132A,119.610547,39.943889,秦皇岛市,文明里,颗粒物(PM10),78,105,103,25,40,149,,142,142,19,39,3,4,0.3,0.5
2024-05-18T1600,1307A,120.6659,36.2403,青岛市,仰口,,43,41,59,19,33,137,,127,127,8,14,5,5,0.5,0.6
2024-05-18T1600,1310A,120.4134,36.0658,青岛市,市南区东部子站,,30,6,48,3,21,96,,128,100,7,11,6,7,0.5,0.5
2024-05-18T1600,1311A,120.3664,36.1032,青岛市,四方区子站,,35,29,53,12,28,110,,143,119,14,18,4,6,0.5,0.6
2024-05-18T1600,1312A,120.2994,36.054,青岛市,市南区西部子站,,27,9,42,7,18,84,,136,102,25,16,6,7,0.4,0.5
2024-05-18T1600,1313A,120.4581,36.0858,青岛市,崂山区子站,,33,19,47,3,19,105,,137,108,10,15,7,9,0.4,0.5
2024-05-18T1600,1314A,120.1983,35.9608,青岛市,黄岛区子站,,29,27,51,12,29,91,,138,108,8,15,6,7,0.5,0.6
2024-05-18T1600,1315A,120.3999,36.3083,青岛市,城阳区子站,颗粒物(PM10),53,56,63,22,27,148,,150,150,20,22,9,10,0.6,0.7
2024-05-18T1600,1966A,120.0405,35.8735,青岛市,黄岛区4号,,30,24,54,7,25,96,,149,117,5,13,8,8,0.5,0.7
2024-05-18T1600,3362A,120.5014,36.4034,青岛市,即墨2号,臭氧1小时,104,66,69,27,29,207,,188,188,10,13,8,8,0.7,0.7
2024-05-18T1600,3642A,120.3503,36.0736,青岛市,市北区南部,,32,27,51,7,19,102,,138,110,13,16,7,8,0.5,0.7
2024-05-18T1600,3643A,120.3948,36.1805,青岛市,李沧区北部,,38,29,60,14,28,120,,123,123,19,22,8,10,0.5,0.6
2024-05-18T1600,1702A,113.0426,23.691,清远市,环保大楼,,28,22,30,19,21,79,,93,85,16,16,5,6,0.4,0.5
2024-05-18T1600,1703A,113.0208,23.7106,清远市,凤城街办,,,,35,24,22,92,,106,96,15,20,,5,0.4,0.5
2024-05-18T1600,3025A,113.0477,23.6344,清远市,技师学院,,30,30,38,19,21,74,,101,95,20,18,6,6,0.4,0.4
2024-05-18T1600,3318A,112.9903,23.7403,清远市,清新太和,,27,27,40,17,24,80,,122,87,19,20,7,6,0.5,0.5
2024-05-18T1600,3455A,113.076,23.7198,清远市,清城东城,,29,29,30,20,24,78,,96,87,18,17,6,6,0.5,0.5
2024-05-18T1600,2661A,107.6325,35.7357,庆阳市,庆阳五中,臭氧1小时,65,47,69,19,28,172,,157,157,8,14,5,8,0.3,0.4
2024-05-18T1600,2662A,107.6364,35.7067,庆阳市,市环保局,臭氧1小时,59,37,67,14,22,167,,154,154,5,10,6,9,0.3,0.3
2024-05-18T1600,1916A,103.7897,25.5035,曲靖市,环境监测站,,41,29,25,9,14,131,,108,108,8,11,2,4,0.5,0.6
2024-05-18T1600,1917A,103.8,25.5364,曲靖市,烟厂办公区,,42,19,24,15,14,133,,111,111,6,9,4,4,0.5,0.7
2024-05-18T1600,3376A,103.7947,25.462,曲靖市,南苑二区,,44,19,23,16,15,140,,115,115,8,12,4,6,0.4,0.6
2024-05-18T1600,3377A,103.7444,25.5261,曲靖市,曲靖师范学院,,41,27,21,12,15,130,,107,107,7,12,12,7,0.4,0.6
2024-05-18T1600,1264A,118.8692,28.9398,衢州市,环保大楼,臭氧1小时,80,29,53,17,32,184,,165,165,8,29,6,6,0.4,0.5
2024-05-18T1600,1265A,118.8709,28.9666,衢州市,实验学校,臭氧1小时,72,28,59,16,33,177,,154,154,7,33,5,5,0.4,0.5
2024-05-18T1600,1266A,118.8621,28.9808,衢州市,衢州学院,臭氧1小时,60,25,55,15,33,168,,151,151,7,38,8,8,0.4,0.5
2024-05-18T1600,1611A,118.5819,24.9117,泉州市,涂山街,,38,38,55,13,21,96,,116,116,8,15,2,3,0.4,0.5
2024-05-18T1600,1612A,118.5972,24.8978,泉州市,津头埔,,34,34,50,13,21,96,,125,125,12,19,2,3,0.4,0.5
2024-05-18T1600,1613A,118.6663,24.9424,泉州市,万安,,43,43,47,15,21,125,,148,148,7,16,2,3,0.4,0.4
2024-05-18T1600,3529A,118.6333,24.9264,泉州市,城华南路,,39,34,45,17,18,122,,143,143,12,18,4,4,0.3,0.4
2024-05-18T1600,2626A,88.8876,29.2718,日喀则市,日喀则监测站,,45,31,31,16,18,144,,127,127,4,8,5,5,0.4,0.4
2024-05-18T1600,3726A,88.8781,29.2426,日喀则市,林业技术推广中心,,46,40,38,14,18,146,,124,124,5,9,6,6,0.4,0.4
2024-05-18T1600,1659A,119.471,35.4209,日照市,监测站,颗粒物(PM10),53,56,75,22,37,155,,151,151,27,44,12,13,0.7,0.9
2024-05-18T1600,1660A,119.523,35.4216,日照市,市政府广场,颗粒物(PM10),51,51,76,29,34,147,,155,155,21,37,10,12,0.6,0.7
2024-05-18T1600,1661A,119.5587,35.4044,日照市,港务局,,48,48,76,19,29,129,,136,136,9,23,6,9,0.6,0.7
2024-05-18T1600,3507A,119.5328,35.4625,日照市,职业技术学院,颗粒物(PM10),51,51,77,17,33,129,,142,142,17,26,9,10,0.6,0.7
2024-05-18T1600,3604A,119.3266,35.1044,日照市,岚山环保分局,颗粒物(PM10),67,83,79,27,37,169,,170,170,14,19,9,10,0.6,0.7
2024-05-18T1600,1835A,111.1922,34.7752,三门峡市,市政府,颗粒物(PM10),58,66,74,28,29,154,,164,164,6,22,7,11,0.4,0.6
2024-05-18T1600,1836A,111.1587,34.7942,三门峡市,开发区,臭氧1小时,72,61,78,28,35,177,,189,189,12,17,9,13,0.4,0.5
2024-05-18T1600,3039A,111.1911,34.7829,三门峡市,三门峡市第一小学,颗粒物(PM10),71,92,82,36,30,161,,173,173,14,19,8,12,0.4,0.5
2024-05-18T1600,3598A,111.1,34.7167,三门峡市,富达温泉假日酒店,颗粒物(PM10),60,70,97,9,33,159,,169,169,12,29,10,11,0.4,0.9
2024-05-18T1600,2324A,117.6211,26.2625,三明市,三钢,,49,41,42,15,18,156,,157,157,8,10,7,10,0.4,0.6
2024-05-18T1600,2325A,117.635,26.2714,三明市,三明二中,,50,33,43,22,30,158,,146,146,7,19,8,9,0.6,0.9
2024-05-18T1600,2326A,117.6028,26.2378,三明市,三元区政府,,49,39,54,23,34,155,,146,146,13,26,10,10,0.6,0.9
2024-05-18T1600,1876A,109.5078,18.2489,三亚市,河东子站,,19,8,13,3,7,60,,71,71,7,6,5,4,0.3,0.4
2024-05-18T1600,1877A,109.4964,18.2681,三亚市,河西子站,,21,10,12,3,6,66,,71,71,5,6,2,2,0.2,0.3
2024-05-18T1600,3540A,109.7348,18.3443,三亚市,君悦子站,,22,16,19,3,6,68,,67,67,4,7,2,2,0.3,0.3
2024-05-18T1600,2624A,91.7608,29.2313,山南市,山南监测站,,47,43,32,22,17,148,,118,118,4,8,8,8,0.2,0.2
2024-05-18T1600,2625A,91.7706,29.2436,山南市,山南人民医院,,47,42,39,21,20,148,,114,114,6,12,7,7,0.4,0.4
2024-05-18T1600,1674A,116.6794,23.3667,汕头市,金平子站,颗粒物(PM10),54,58,43,30,27,140,,122,122,27,17,5,4,0.6,0.5
2024-05-18T1600,1675A,116.7244,23.3633,汕头市,龙湖子站,颗粒物(PM10),51,52,35,23,14,139,,122,122,20,13,7,7,0.8,0.6
2024-05-18T1600,1676A,116.7258,23.2775,汕头市,濠江子站,,40,38,36,24,20,125,,108,108,9,12,6,6,0.7,0.7
2024-05-18T1600,1677A,116.7519,23.4714,汕头市,澄海子站,,,59,46,29,22,,,104,,22,17,9,9,0.9,0.7
2024-05-18T1600,1678A,116.6092,23.2539,汕头市,潮阳子站,,41,41,36,21,16,128,,108,108,16,13,6,4,0.7,0.7
2024-05-18T1600,3444A,116.454,23.2684,汕头市,潮南峡山,颗粒物(PM10),51,51,43,28,18,130,,102,102,18,12,6,5,1.0,0.8
2024-05-18T1600,3624A,116.4069,23.2533,汕头市,潮南子站,颗粒物(PM10),64,78,79,31,23,118,,103,103,33,13,10,8,1.0,0.7
2024-05-18T1600,1693A,115.3653,22.775,汕尾市,市环保局,,40,25,27,16,15,127,,103,103,7,13,10,10,0.5,0.5
