timepoint,stationcode,longitude,latitude,area,positionname,primarypollutant,aqi,pm10,pm10_24h,pm2_5,pm2_5_24h,o3,o3_24h,o3_8h,o3_8h_24h,no2,no2_24h,so2,so2_24h,co,co_24h
2025-02-15T2300,2566A,102.1879,31.914,阿坝藏族羌族自治州,州农科所,,28,28,34,15,13,66,,92,85,6,10,8,9,0,0
2025-02-15T2300,2568A,102.2502,31.8896,阿坝藏族羌族自治州,马师校,,31,31,28,14,13,67,,116,101,15,8,5,5,0.5,0.5
2025-02-15T2300,3994A,102.2165,31.9024,阿坝藏族羌族自治州,马尔康中学西区,,25,23,22,13,10,79,,117,106,12,7,6,6,0.6,0.6
2025-02-15T2300,2695A,80.292,41.1694,阿克苏地区,电视台,颗粒物(PM10),288,411,419,107,90,7,,84,70,86,32,7,3,1.1,0.9
2025-02-15T2300,2696A,80.2613,41.1551,阿克苏地区,艺术中心,颗粒物(PM10),307,425,460,110,102,18,,85,75,72,34,10,7,,1.2
2025-02-15T2300,2204A,105.6467,38.8363,阿拉善盟,西城区西花园,颗粒物(PM10),61,71,84,26,30,94,,104,97,8,10,12,13,0.6,0.6
2025-02-15T2300,2205A,105.6985,38.8411,阿拉善盟,蒙二幼,颗粒物(PM10),59,68,87,20,23,90,,97,90,6,9,5,5,0.8,0.8
2025-02-15T2300,2206A,105.724,38.8516,阿拉善盟,环保局新楼,颗粒物(PM10),63,75,72,23,21,96,,99,94,4,4,6,6,1.0,1
2025-02-15T2300,2708A,88.1264,47.8517,阿勒泰地区,市站,,22,18,17,15,11,45,,64,51,27,22,3,6,0.5,0.5
2025-02-15T2300,2630A,80.1161,32.5,阿里地区,阿里监测站,,28,8,5,8,6,89,,84,84,2,2,9,7,0.5,0.5
2025-02-15T2300,3192A,80.0903,32.5028,阿里地区,阿里藏医院,,30,11,14,3,2,96,,96,95,1,2,5,4,0.4,0.5
2025-02-15T2300,2642A,109.0318,32.6537,安康市,香溪洞,,29,29,41,20,25,80,,96,94,8,9,13,11,0.5,0.6
2025-02-15T2300,2644A,109.0072,32.6975,安康市,汉滨区检察院,,38,38,45,15,24,53,,84,72,14,17,5,20,0.5,0.6
2025-02-15T2300,4054A,109.0325,32.6913,安康市,市邮政管理局,"颗粒物(PM10),细颗粒物(PM2.5)",55,59,55,39,31,28,,78,52,39,27,7,13,0.7,0.6
2025-02-15T2300,2291A,117.0809,30.5177,安庆市,环科院,细颗粒物(PM2.5),108,110,90,81,75,6,,44,31,58,35,6,6,1.0,0.9
2025-02-15T2300,2292A,117.0331,30.5119,安庆市,马山宾馆,细颗粒物(PM2.5),120,110,85,91,78,2,,42,28,66,37,7,7,1.1,0.9
2025-02-15T2300,2294A,116.9896,30.6145,安庆市,安庆大学,细颗粒物(PM2.5),127,123,90,96,72,18,,48,36,50,30,7,7,1.2,0.9
2025-02-15T2300,3173A,117.0598,30.5351,安庆市,市人大,细颗粒物(PM2.5),120,119,90,91,77,4,,45,33,60,34,6,6,1.1,0.8
2025-02-15T2300,3123A,105.9408,26.2431,安顺市,凤凰山,细颗粒物(PM2.5),65,53,26,47,23,46,,62,54,15,15,20,22,0.6,0.6
2025-02-15T2300,3124A,105.9439,26.2564,安顺市,金钟山,细颗粒物(PM2.5),62,,21,44,22,50,,63,56,11,11,17,21,0.7,0.6
2025-02-15T2300,3125A,105.8983,26.2481,安顺市,娄家坡,细颗粒物(PM2.5),62,48,24,44,25,45,,61,53,18,13,24,21,0.7,0.6
2025-02-15T2300,1819A,114.3551,36.1017,安阳市,红庙街,颗粒物(PM10),73,95,84,27,47,51,,87,63,32,36,43,14,2.6,1.1
2025-02-15T2300,1820A,114.361,36.0681,安阳市,银杏小区,颗粒物(PM10),74,98,75,22,47,70,,92,72,11,29,9,10,0.9,0.7
2025-02-15T2300,3141A,114.3922,36.0878,安阳市,信访局,颗粒物(PM10),73,96,78,30,44,63,,101,77,29,33,28,11,1.6,1
2025-02-15T2300,3669A,114.4705,36.0637,安阳市,左辅环卫站,颗粒物(PM10),78,106,101,28,57,56,,96,71,32,33,12,8,0.8,0.8
2025-02-15T2300,3703A,114.2917,36.0949,安阳市,安钢职工学校,颗粒物(PM10),78,106,95,21,54,74,,92,74,13,33,10,9,1.4,1
2025-02-15T2300,1748A,123.044,41.1196,鞍山市,深沟寺,细颗粒物(PM2.5),125,116,96,95,70,67,,91,80,25,18,8,12,1.1,0.9
2025-02-15T2300,1749A,123.011,41.0931,鞍山市,太阳城,细颗粒物(PM2.5),128,126,99,97,66,72,,92,78,25,19,8,9,0.9,0.8
2025-02-15T2300,1750A,123.0485,41.1442,鞍山市,太平,细颗粒物(PM2.5),137,141,106,104,70,39,,94,80,56,24,4,8,2.0,1.2
2025-02-15T2300,1751A,122.9642,41.0971,鞍山市,铁西三道街,细颗粒物(PM2.5),195,184,119,146,78,12,,91,52,86,54,15,47,1.8,1
2025-02-15T2300,1753A,123.022,41.0821,鞍山市,明达新区,细颗粒物(PM2.5),120,114,94,91,69,73,,99,87,24,19,7,9,0.9,0.8
2025-02-15T2300,4201A,122.9446,41.0826,鞍山市,兴盛南路290号,细颗粒物(PM2.5),243,235,119,193,80,7,,86,57,90,40,15,14,2.6,1.3
2025-02-15T2300,2195A,107.4212,40.761,巴彦淖尔市,附二中,颗粒物(PM10),72,93,92,32,30,54,,85,71,28,11,8,3,0.6,0.4
2025-02-15T2300,2196A,107.37,40.7372,巴彦淖尔市,市环保大楼,颗粒物(PM10),80,109,86,34,24,20,,96,74,56,9,6,4,0.6,0.3
2025-02-15T2300,1956A,86.1472,41.7538,巴音郭楞蒙古自治州,孔雀公园,颗粒物(PM10),190,330,360,56,59,52,,73,65,21,37,11,6,0.6,0.6
2025-02-15T2300,1957A,86.1972,41.7166,巴音郭楞蒙古自治州,棉纺厂,颗粒物(PM10),330,444,439,57,57,41,,75,65,28,34,4,4,0.5,0.6
2025-02-15T2300,1958A,86.2357,41.7173,巴音郭楞蒙古自治州,经济开发区,颗粒物(PM10),156,262,339,36,43,54,,79,70,19,15,4,4,0.3,0.3
2025-02-15T2300,2914A,106.7677,31.8794,巴中市,苏山坪,细颗粒物(PM2.5),83,85,46,61,33,50,,70,65,19,18,5,5,0.5,0.5
2025-02-15T2300,3181A,106.7768,31.8526,巴中市,市五中,细颗粒物(PM2.5),87,82,46,64,36,22,,64,47,24,21,5,4,0.8,0.8
2025-02-15T2300,3183A,106.7418,31.8654,巴中市,圣泉水务公司,细颗粒物(PM2.5),74,72,44,54,34,3,,73,45,49,26,6,5,0.9,0.8
2025-02-15T2300,3616A,106.7616,31.8344,巴中市,市中心医院,细颗粒物(PM2.5),73,73,48,53,35,9,,69,51,42,20,5,5,1.1,1
2025-02-15T2300,2235A,122.7911,45.6077,白城市,洮北区环保局,,46,,51,32,40,64,,84,79,13,18,4,6,0.2,0.4
2025-02-15T2300,2236A,122.8738,45.5725,白城市,市环保局,,35,,57,24,43,74,,85,82,12,20,6,8,0.4,0.5
2025-02-15T2300,2231A,126.4219,41.9171,白山市,喜丰,颗粒物(PM10),69,88,82,45,40,99,,113,108,20,32,15,18,0.7,0.8
2025-02-15T2300,2232A,126.4077,41.9419,白山市,环保局,细颗粒物(PM2.5),85,96,76,63,44,65,,111,96,44,40,12,17,1.2,1
2025-02-15T2300,2647A,104.1724,36.5446,白银市,第三小学,颗粒物(PM10),90,130,66,36,25,62,,96,91,27,20,30,66,0.4,0.7
2025-02-15T2300,2648A,104.1465,36.5482,白银市,动力公司,颗粒物(PM10),88,126,55,27,21,92,,98,95,10,16,7,32,0.5,0.6
2025-02-15T2300,2512A,106.6103,23.9011,百色市,市监测站,,32,32,36,18,22,14,,28,22,20,17,8,7,0.9,0.9
2025-02-15T2300,2513A,106.6538,23.8859,百色市,市中心血站,,38,35,37,26,25,20,,27,25,20,16,9,10,0.9,0.9
2025-02-15T2300,3406A,106.6085,23.8798,百色市,祈福高中,,39,39,40,16,23,19,,29,21,15,17,5,6,0.9,1
2025-02-15T2300,2270A,117.396,32.939,蚌埠市,工人疗养院,细颗粒物(PM2.5),117,133,121,88,84,57,,105,88,53,37,6,7,0.8,0.9
2025-02-15T2300,2271A,117.3605,32.9427,蚌埠市,百货大楼,细颗粒物(PM2.5),107,133,120,80,82,62,,103,87,46,34,9,8,0.8,0.9
2025-02-15T2300,2273A,117.4185,32.8911,蚌埠市,蚌埠学院,细颗粒物(PM2.5),130,158,122,99,84,33,,105,82,75,40,8,8,0.8,0.7
2025-02-15T2300,2274A,117.3533,32.9673,蚌埠市,淮上区政府,细颗粒物(PM2.5),113,132,124,85,87,69,,102,85,44,36,10,11,0.9,1
2025-02-15T2300,2275A,117.3145,32.8977,蚌埠市,高新区,细颗粒物(PM2.5),128,151,120,97,88,31,,104,74,69,42,10,10,0.8,0.8
2025-02-15T2300,3715A,117.3092,32.9314,蚌埠市,蚌埠田家炳中学,细颗粒物(PM2.5),110,138,127,83,87,29,,99,68,86,49,27,12,0.7,0.8
2025-02-15T2300,1585A,109.8756,40.6532,包头市,市环境监测站,,24,21,141,3,47,76,,83,79,10,38,8,15,0.4,0.9
2025-02-15T2300,1587A,109.9991,40.5842,包头市,包头八中,,26,26,135,14,42,68,,79,72,16,33,7,15,0.3,0.7
2025-02-15T2300,1588A,109.8538,40.6821,包头市,青山宾馆,,22,22,124,6,40,68,,81,75,14,38,6,11,0.4,0.8
2025-02-15T2300,1589A,109.8642,40.6288,包头市,惠龙物流,,25,16,124,14,46,79,,86,80,10,34,5,14,0.4,0.8
2025-02-15T2300,1590A,110.0377,40.5546,包头市,东河鸿龙湾,,26,26,125,7,27,69,,86,77,19,28,10,13,0.5,0.7
2025-02-15T2300,3283A,109.9154,40.5685,包头市,滨河大厦,,25,15,97,9,31,77,,86,78,8,20,8,12,0.5,0.9
2025-02-15T2300,3419A,109.9447,40.6261,包头市,包头市委党校,,24,24,123,3,31,74,,82,77,10,31,5,13,0.6,1
2025-02-15T2300,3683A,109.8331,40.6576,包头市,昆区政府,,22,22,130,10,38,68,,81,75,15,37,9,17,0.5,1.1
2025-02-15T2300,1930A,107.185,34.3063,宝鸡市,庙沟村,,43,43,37,20,13,83,,99,93,10,10,6,6,0.5,0.6
2025-02-15T2300,1931A,107.0708,34.3017,宝鸡市,竹园沟,,43,43,43,25,24,50,,95,76,21,17,6,6,0.3,0.3
2025-02-15T2300,1932A,107.1906,34.3672,宝鸡市,三陆医院,细颗粒物(PM2.5),77,74,62,56,33,13,,85,53,63,30,7,5,0.7,0.5
2025-02-15T2300,1933A,107.1431,34.3547,宝鸡市,监测站,颗粒物(PM10),55,59,57,33,28,35,,87,67,33,20,7,7,0.5,0.5
2025-02-15T2300,1934A,107.1186,34.3739,宝鸡市,技工学校,颗粒物(PM10),64,77,58,38,29,41,,87,66,28,18,6,6,0.6,0.6
2025-02-15T2300,1935A,107.3906,34.3528,宝鸡市,陈仓区环保局家属楼,"颗粒物(PM10),细颗粒物(PM2.5)",70,90,70,51,39,23,,86,64,58,31,7,34,0.6,0.6
2025-02-15T2300,1936A,107.2058,34.3497,宝鸡市,文理学院,颗粒物(PM10),63,75,57,30,31,25,,88,57,51,29,6,7,0.6,0.5
2025-02-15T2300,1937A,107.2386,34.3622,宝鸡市,三迪小学,细颗粒物(PM2.5),80,,63,59,33,13,,75,42,66,35,7,6,0.8,0.6
2025-02-15T2300,1051A,115.493,38.8632,保定市,游泳馆,颗粒物(PM10),56,61,88,26,59,78,,88,72,15,45,8,14,0.1,0.6
2025-02-15T2300,1052A,115.5213,38.8959,保定市,华电二区,颗粒物(PM10),58,65,80,37,55,82,,91,75,10,34,9,14,0,0.5
2025-02-15T2300,1053A,115.4713,38.9108,保定市,接待中心,颗粒物(PM10),71,91,96,22,51,74,,85,70,15,35,7,10,0.4,0.7
2025-02-15T2300,1054A,115.4612,38.8416,保定市,地表水厂,颗粒物(PM10),67,84,117,19,62,82,,90,75,15,43,3,8,0.4,0.8
2025-02-15T2300,3581A,115.31981,38.95208,保定市,满城区生态环境分局,颗粒物(PM10),64,78,98,14,38,93,,98,89,7,30,8,11,0.3,0.6
2025-02-15T2300,3582A,115.47694,38.76408,保定市,清苑区第二中学,颗粒物(PM10),73,95,111,28,49,61,,88,69,30,42,9,12,0.4,0.7
2025-02-15T2300,3583A,115.62909,39.02311,保定市,徐水物探局,颗粒物(PM10),64,77,102,14,55,86,,91,82,14,46,7,12,0.3,0.5
2025-02-15T2300,4004A,115.4202,38.8656,保定市,双鹰农机,颗粒物(PM10),58,65,97,14,45,85,,90,76,4,34,4,9,0.4,0.7
2025-02-15T2300,4034A,115.5150,38.8590,保定市,植保所站,颗粒物(PM10),62,73,101,30,55,83,,88,72,11,39,6,9,0.4,0.7
2025-02-15T2300,2594A,99.1678,25.1081,保山市,市环境监测站,颗粒物(PM10),51,52,44,32,27,87,,102,96,7,9,6,6,0.3,0.3
2025-02-15T2300,2595A,99.1711,25.1328,保山市,市环保局,,49,49,45,33,28,98,,106,101,4,7,8,7,0.4,0.4
2025-02-15T2300,1867A,109.1436,21.4086,北海市,海滩公园,细颗粒物(PM2.5),59,50,37,42,30,16,,78,32,18,13,6,6,0.9,0.7
2025-02-15T2300,1868A,109.0981,21.4661,北海市,新市环保局,,49,34,32,34,31,20,,73,23,18,15,5,6,0.8,0.7
2025-02-15T2300,1869A,109.1778,21.5233,北海市,北海工业园,细颗粒物(PM2.5),62,62,52,44,44,20,,71,19,18,17,7,7,1.1,1
2025-02-15T2300,3400A,109.1911,21.4415,北海市,龙潭自来水厂,细颗粒物(PM2.5),79,59,38,58,40,14,,68,24,18,13,6,6,1.0,0.8
2025-02-15T2300,1001A,116.3621,39.8784,北京市,万寿西宫,颗粒物(PM10),72,94,122,24,56,73,,83,75,14,51,2,6,0.2,0.6
2025-02-15T2300,1003A,116.4174,39.9289,北京市,东四,颗粒物(PM10),70,89,122,19,52,64,,82,73,13,37,2,6,0.2,0.5
2025-02-15T2300,1004A,116.4072,39.8863,北京市,天坛,颗粒物(PM10),74,97,119,20,51,77,,90,83,12,37,3,5,0.3,0.6
2025-02-15T2300,1005A,116.462,39.9365,北京市,农展馆,颗粒物(PM10),65,80,120,19,54,80,,95,84,12,45,4,7,0.3,0.7
2025-02-15T2300,1006A,116.3392,39.9295,北京市,官园,颗粒物(PM10),76,101,121,23,48,65,,82,76,10,35,5,6,0.3,0.6
2025-02-15T2300,1007A,116.2878,39.9611,北京市,海淀万柳,颗粒物(PM10),69,87,101,20,41,62,,67,,16,43,3,5,0.5,0.7
2025-02-15T2300,1008A,116.6636,40.135,北京市,顺义新城,颗粒物(PM10),63,75,100,17,42,74,,84,71,5,35,3,6,0.2,0.5
2025-02-15T2300,1009A,116.6275,40.3275,北京市,怀柔镇,颗粒物(PM10),62,73,83,17,36,82,,87,82,3,20,1,3,0.4,0.6
2025-02-15T2300,1010A,116.2296,40.217,北京市,昌平镇,颗粒物(PM10),71,91,110,21,36,70,,76,71,4,24,3,2,0.3,0.5
2025-02-15T2300,1011A,116.3966,39.9821,北京市,奥体中心,颗粒物(PM10),67,84,113,28,50,72,,86,77,13,41,3,7,0.3,0.5
2025-02-15T2300,3281A,115.9718,40.4529,北京市,延庆夏都,颗粒物(PM10),59,67,86,16,33,76,,84,80,4,20,4,6,0.4,0.6
2025-02-15T2300,3418A,116.8336,40.4095,北京市,密云新城,颗粒物(PM10),59,68,81,17,36,76,,80,78,6,22,3,4,0.3,0.5
2025-02-15T2300,3671A,116.088,39.9726,北京市,门头沟三家店,颗粒物(PM10),63,75,97,23,38,74,,85,76,5,18,4,4,0.2,0.3
2025-02-15T2300,3672A,116.1541,39.8204,北京市,丰台云岗,颗粒物(PM10),57,63,96,18,44,82,,84,84,5,36,3,5,0.2,0.5
2025-02-15T2300,3673A,116.6804,39.9081,北京市,通州东关,颗粒物(PM10),73,96,159,48,65,66,,77,69,16,57,5,9,0.0,0.6
2025-02-15T2300,3674A,115.9577,39.7603,北京市,房山燕山,颗粒物(PM10),56,61,84,17,41,80,,79,78,3,26,3,3,0.2,0.4
2025-02-15T2300,3675A,116.4672,39.7733,北京市,大兴旧宫,颗粒物(PM10),70,90,121,17,54,65,,76,65,10,39,3,2,0.2,0.6
2025-02-15T2300,3694A,115.986,40.4563,北京市,延庆石河营,颗粒物(PM10),57,63,83,16,34,79,,87,83,5,22,3,5,0.4,0.8
2025-02-15T2300,3695A,116.6151,40.3053,北京市,怀柔新城,颗粒物(PM10),62,73,84,19,37,82,,89,85,2,14,3,5,0.1,0.3
2025-02-15T2300,3696A,116.2545,39.8768,北京市,丰台小屯,颗粒物(PM10),66,82,115,21,46,73,,82,74,6,44,1,3,0.2,0.5
2025-02-15T2300,3697A,116.84,40.3844,北京市,密云镇,颗粒物(PM10),62,73,88,17,36,81,,81,76,8,35,5,6,0.2,0.5
2025-02-15T2300,4182A,116.1942,39.9158,北京市,八角北路9号,颗粒物(PM10),70,90,119,19,38,73,,84,78,4,31,1,3,0.0,0.3
2025-02-15T2300,4194A,117.0790,40.1518,北京市,洳河巡河路,颗粒物(PM10),57,64,88,25,50,65,,76,69,9,20,3,2,0.3,0.6
2025-02-15T2300,1761A,123.8275,41.3064,本溪市,大峪,细颗粒物(PM2.5),99,97,94,74,61,87,,104,98,20,21,8,10,1.0,1
2025-02-15T2300,1762A,123.7567,41.3325,本溪市,溪湖,细颗粒物(PM2.5),124,128,112,94,76,70,,94,86,50,36,17,15,1.8,1.3
2025-02-15T2300,1763A,123.7169,41.3094,本溪市,彩屯,细颗粒物(PM2.5),130,148,149,99,92,70,,78,75,28,40,9,21,1.3,3.2
2025-02-15T2300,1764A,123.7669,41.2864,本溪市,东明,细颗粒物(PM2.5),128,,91,97,73,63,,92,89,44,27,12,14,1.0,0.8
2025-02-15T2300,1765A,123.7992,41.2664,本溪市,新立屯,细颗粒物(PM2.5),107,80,79,80,66,96,,122,119,39,23,6,8,0.8,0.8
2025-02-15T2300,1766A,123.8142,41.3472,本溪市,威宁,细颗粒物(PM2.5),122,104,104,92,69,42,,100,74,38,28,3,6,1.2,0.9
2025-02-15T2300,2587A,105.2864,27.3125,毕节市,八中,,45,43,32,31,24,41,,69,60,18,9,9,9,0.9,0.7
2025-02-15T2300,2588A,105.31,27.2944,毕节市,师专,,43,38,34,30,27,70,,71,71,10,10,8,8,0.6,0.6
2025-02-15T2300,4263A,105.3688,27.3598,毕节市,工业大道,,49,43,34,34,26,53,,70,66,15,11,9,9,0.7,0.6
2025-02-15T2300,1629A,118.0018,37.3617,滨州市,第二水厂,细颗粒物(PM2.5),89,124,111,66,59,34,,96,77,58,47,16,19,0.9,0.8
2025-02-15T2300,1630A,117.9776,37.393,滨州市,北中新校,细颗粒物(PM2.5),100,139,110,75,58,34,,97,72,68,42,16,17,0.9,0.7
2025-02-15T2300,3514A,117.9378,37.3956,滨州市,中海酒店,颗粒物(PM10),113,175,111,78,62,18,,101,70,93,37,18,18,1.3,0.9
2025-02-15T2300,3515A,117.9378,37.3553,滨州市,开发区一中,细颗粒物(PM2.5),138,193,126,105,61,21,,99,75,86,48,29,21,0.7,0.6
2025-02-15T2300,3516A,118.0917,37.694,滨州市,金海六路,细颗粒物(PM2.5),160,203,131,122,70,28,,88,55,68,58,20,17,1.4,1.2
2025-02-15T2300,4028A,117.9956,37.3753,滨州市,滨州市西街道办事处,细颗粒物(PM2.5),134,146,112,102,71,17,,99,65,64,39,12,15,1.4,0.8
2025-02-15T2300,2311A,115.8072,33.8399,亳州市,污水处理厂,颗粒物(PM10),71,91,95,50,54,75,,86,81,21,21,8,11,0.6,0.7
2025-02-15T2300,2312A,115.7789,33.8518,亳州市,三国揽胜宫,颗粒物(PM10),85,120,115,60,59,76,,92,86,23,22,7,10,0.5,0.5
2025-02-15T2300,3332A,115.7633,33.8034,亳州市,亳州学院,细颗粒物(PM2.5),84,116,108,62,59,66,,87,78,24,22,6,11,0.5,0.5
2025-02-15T2300,2693A,82.0485,44.8556,博尔塔拉蒙古自治州,市党校,细颗粒物(PM2.5),90,76,65,67,53,92,,102,102,18,16,9,10,0.8,0.9
2025-02-15T2300,2694A,82.0806,44.8969,博尔塔拉蒙古自治州,市环保局,细颗粒物(PM2.5),75,98,84,55,49,70,,80,79,32,29,6,6,1.2,1.2
2025-02-15T2300,1071A,116.8842,38.2991,沧州市,沧县城建局,细颗粒物(PM2.5),127,146,135,96,81,8,,75,44,96,48,13,11,0.9,0.8
2025-02-15T2300,1072A,116.8584,38.3254,沧州市,电视转播站,细颗粒物(PM2.5),125,168,127,95,77,2,,77,43,92,47,11,13,1.2,0.8
2025-02-15T2300,1073A,116.8709,38.3228,沧州市,市环保局,细颗粒物(PM2.5),125,154,127,95,78,3,,76,40,86,44,13,13,1.3,0.9
2025-02-15T2300,3324A,116.8136,38.3004,沧州市,河北水利电力学院,颗粒物(PM10),92,134,142,56,71,10,,74,46,82,48,14,16,0.7,0.7
2025-02-15T2300,2622A,97.1806,31.1273,昌都市,昌都监测站,,41,41,24,24,11,44,,86,70,21,8,5,5,0.9,0.6
2025-02-15T2300,3719A,97.1714,31.1406,昌都市,昌都会议中心,,26,25,23,12,12,82,,106,95,4,2,6,6,0.4,0.4
2025-02-15T2300,2690A,88.1236,43.8886,昌吉回族自治州,天山天池,,30,8,11,6,6,95,,104,92,2,2,6,6,0.4,0.4
2025-02-15T2300,2692A,87.2717,44.0297,昌吉回族自治州,新区政务中心,细颗粒物(PM2.5),163,155,163,124,116,73,,79,79,23,28,3,3,1.3,1.2
2025-02-15T2300,3613A,87.3095,44.0142,昌吉回族自治州,亚心广场,细颗粒物(PM2.5),201,168,168,151,147,81,,80,80,10,11,4,5,1.4,1.2
2025-02-15T2300,1119A,125.3325,43.9166,长春市,食品厂,细颗粒物(PM2.5),75,64,88,55,57,77,,84,68,18,32,8,13,0.5,0.7
2025-02-15T2300,1120A,125.2863,43.9027,长春市,客车厂,细颗粒物(PM2.5),82,,81,60,64,78,,82,65,18,30,6,14,0.4,0.6
2025-02-15T2300,1121A,125.2841,43.8463,长春市,邮电学院,细颗粒物(PM2.5),78,64,81,57,54,83,,88,73,19,25,8,14,0.6,0.8
2025-02-15T2300,1122A,125.3716,43.8772,长春市,劳动公园,细颗粒物(PM2.5),67,67,80,48,49,85,,95,80,19,33,8,12,0.9,1
2025-02-15T2300,1123A,125.3297,43.8805,长春市,园林处,细颗粒物(PM2.5),73,60,80,53,53,77,,89,71,19,22,10,15,0.6,0.8
2025-02-15T2300,1124A,125.4605,43.79,长春市,净月潭,细颗粒物(PM2.5),65,64,76,47,46,71,,100,75,16,14,9,10,0.5,0.7
2025-02-15T2300,1126A,125.3863,43.8447,长春市,经开区环卫处,细颗粒物(PM2.5),65,65,78,47,47,77,,89,69,18,29,9,13,0.8,0.9
2025-02-15T2300,1127A,125.245,43.7783,长春市,高新区管委会,细颗粒物(PM2.5),72,53,71,52,50,71,,90,70,19,31,8,11,0.4,0.7
2025-02-15T2300,1128A,125.1761,43.8325,长春市,岱山公园,细颗粒物(PM2.5),73,63,74,53,54,76,,90,73,18,29,6,10,0.6,0.7
2025-02-15T2300,1335A,113.0833,28.2325,长沙市,经开区环保局,细颗粒物(PM2.5),83,81,59,61,44,10,,67,44,55,28,3,2,0.9,0.7
2025-02-15T2300,1336A,112.8872,28.2189,长沙市,高开区环保局,细颗粒物(PM2.5),83,70,56,61,42,36,,76,65,30,13,4,4,0.9,0.5
2025-02-15T2300,1337A,113.0792,28.2053,长沙市,马坡岭,细颗粒物(PM2.5),73,78,59,53,45,5,,73,49,56,27,3,3,0.8,0.6
2025-02-15T2300,1338A,112.9394,28.19,长沙市,湖南师范大学,细颗粒物(PM2.5),65,62,59,47,40,22,,67,50,23,14,3,2,0.9,0.8
2025-02-15T2300,1339A,113.0178,28.1322,长沙市,雨花区环保局,细颗粒物(PM2.5),90,82,60,67,46,8,,68,50,63,26,6,4,0.8,0.6
2025-02-15T2300,1340A,112.9792,28.2597,长沙市,伍家岭,细颗粒物(PM2.5),103,119,65,77,47,1,,67,45,45,19,5,3,1.0,0.7
2025-02-15T2300,1341A,113.0014,28.1944,长沙市,火车新站,细颗粒物(PM2.5),98,96,62,73,49,7,,72,48,64,26,3,2,1.1,0.8
2025-02-15T2300,1342A,112.9844,28.1178,长沙市,天心区环保局,细颗粒物(PM2.5),74,74,55,54,46,21,,70,53,48,26,3,3,1.0,0.8
2025-02-15T2300,1343A,112.8908,28.1308,长沙市,湖南中医药大学,细颗粒物(PM2.5),73,73,57,53,43,5,,73,51,46,17,3,3,0.9,0.7
2025-02-15T2300,1344A,112.9581,28.3611,长沙市,沙坪,细颗粒物(PM2.5),62,56,56,44,43,23,,66,49,26,16,8,7,1.1,0.9
2025-02-15T2300,1727A,113.1147,36.1547,长治市,清华站,颗粒物(PM10),57,63,53,24,24,52,,87,75,24,24,12,12,0.7,0.8
2025-02-15T2300,1730A,113.0886,36.2125,长治市,审计局,颗粒物(PM10),51,52,60,27,30,61,,89,75,21,24,12,12,0.5,0.7
2025-02-15T2300,1731A,113.0844,36.1856,长治市,长治八中,颗粒物(PM10),60,69,73,32,35,58,,83,71,19,23,12,12,0.5,0.7
2025-02-15T2300,2845A,113.1569,36.1911,长治市,德盛苑,颗粒物(PM10),55,60,55,27,25,70,,89,80,20,20,8,9,0.6,0.7
2025-02-15T2300,3568A,113.06,36.0464,长治市,向阳小学,颗粒物(PM10),68,86,72,27,30,65,,89,78,23,20,18,20,0.5,0.7
2025-02-15T2300,3569A,112.8792,36.3144,长治市,屯留一中,颗粒物(PM10),52,54,56,30,42,36,,90,65,50,34,14,13,0.6,0.7
2025-02-15T2300,4189A,113.1131,36.19948,长治市,英华南巷50号,颗粒物(PM10),57,64,65,31,30,60,,99,84,29,27,14,14,0.5,0.7
2025-02-15T2300,4190A,113.2367,36.3344,长治市,学府街1号,颗粒物(PM10),73,96,83,39,41,52,,91,68,26,29,19,15,0.9,1
2025-02-15T2300,1854A,111.6975,28.9703,常德市,市二中,"颗粒物(PM10),细颗粒物(PM2.5)",65,79,55,47,29,34,,62,54,35,19,13,4,0.5,0.4
2025-02-15T2300,3138A,111.7153,29.0289,常德市,武陵区永安,颗粒物(PM10),58,65,49,38,31,48,,74,68,29,16,2,2,0.5,0.5
2025-02-15T2300,3139A,111.6892,28.9881,常德市,鼎城区玉霞,,,,47,32,29,35,,65,50,25,16,3,3,0.6,0.5
2025-02-15T2300,3140A,111.6625,29.0531,常德市,武陵区长庚,"颗粒物(PM10),细颗粒物(PM2.5)",57,63,49,40,30,37,,65,58,29,14,1,2,0.5,0.4
2025-02-15T2300,1196A,119.9633,31.762,常州市,市监测站,细颗粒物(PM2.5),166,199,119,126,79,7,,70,41,61,53,10,9,1.3,0.9
2025-02-15T2300,1200A,119.9468,31.7069,常州市,武进监测站,细颗粒物(PM2.5),147,152,98,112,72,7,,68,42,47,40,7,7,1.2,0.8
2025-02-15T2300,1201A,119.9255,31.9087,常州市,安家,细颗粒物(PM2.5),160,179,111,122,79,4,,69,40,59,49,13,9,1.3,0.9
2025-02-15T2300,3002A,119.9805,31.8174,常州市,行政中心,细颗粒物(PM2.5),163,165,99,124,76,12,,68,46,42,41,16,16,1.2,0.8
2025-02-15T2300,3003A,120.0522,31.7748,常州市,经开区,细颗粒物(PM2.5),160,166,105,122,74,16,,78,55,48,43,8,8,1.1,0.6
2025-02-15T2300,3010A,119.9025,31.7964,常州市,钟楼,细颗粒物(PM2.5),170,168,109,129,82,6,,72,44,52,42,8,9,1.4,1
2025-02-15T2300,3429A,119.8598,31.7066,常州市,武进经发区,细颗粒物(PM2.5),176,162,107,133,85,7,,70,44,54,44,9,7,1.4,0.8
2025-02-15T2300,3430A,119.5826,31.7245,常州市,金坛城区,细颗粒物(PM2.5),166,152,107,126,87,12,,64,38,39,31,7,8,1.3,0.9
2025-02-15T2300,2220A,120.4318,41.5881,朝阳市,西梁,颗粒物(PM10),58,66,86,18,38,83,,87,80,3,28,7,14,0.2,0.8
2025-02-15T2300,2221A,120.4521,41.5646,朝阳市,河畔小区,颗粒物(PM10),72,94,87,12,42,74,,80,75,5,26,3,10,0.3,0.9
2025-02-15T2300,2222A,120.4176,41.5648,朝阳市,八里堡,颗粒物(PM10),69,88,90,11,42,77,,81,74,5,28,5,10,0.4,1
2025-02-15T2300,2223A,120.3806,41.5969,朝阳市,农业园区,颗粒物(PM10),64,78,83,36,46,73,,84,75,8,28,5,12,0.4,0.9
2025-02-15T2300,1705A,116.6367,23.6719,潮州市,西园路,细颗粒物(PM2.5),98,,52,73,54,85,,128,110,18,18,6,6,0.3,0.4
2025-02-15T2300,3026A,116.6183,23.6608,潮州市,市政府,细颗粒物(PM2.5),90,,52,67,44,77,,125,105,19,19,6,6,0.8,0.8
2025-02-15T2300,4036A,116.6461,23.6761,潮州市,金山,细颗粒物(PM2.5),107,,42,80,47,,,126,,20,15,8,7,0.6,0.6
2025-02-15T2300,2472A,113.0073,25.9061,郴州市,马头岭,,22,22,73,12,46,39,,52,45,17,19,8,8,0.7,0.8
2025-02-15T2300,2473A,113.0116,25.8226,郴州市,市职中,,33,26,72,23,63,29,,38,35,15,19,3,4,0.8,0.9
2025-02-15T2300,2475A,113.0383,25.8071,郴州市,市审计局,,35,27,81,24,68,33,,40,39,16,18,4,4,1.0,1
2025-02-15T2300,2476A,113.0348,25.7759,郴州市,市环保局,,42,33,87,29,79,27,,35,31,20,19,8,8,0.9,1
2025-02-15T2300,4252A,113.0138,25.8011,郴州市,好美居路49号,,40,,85,28,75,34,,44,40,19,22,5,6,0.9,1
2025-02-15T2300,1431A,103.9728,30.7236,成都市,金泉两河,颗粒物(PM10),76,102,41,38,21,34,,73,64,36,25,2,2,0.6,0.5
2025-02-15T2300,1432A,104.176,30.6872,成都市,十里店,细颗粒物(PM2.5),63,61,39,45,22,31,,78,63,35,22,2,2,0.6,0.5
2025-02-15T2300,1433A,104.079,30.5706,成都市,三瓦窑,,,57,42,50,25,,,76,67,24,32,3,4,0.7,0.7
2025-02-15T2300,1434A,104.1114,30.63,成都市,沙河铺,细颗粒物(PM2.5),82,71,45,60,31,10,,70,51,45,29,4,4,0.7,0.5
2025-02-15T2300,1437A,104.0786,30.6531,成都市,君平街,细颗粒物(PM2.5),63,70,41,45,27,34,,74,62,40,27,5,4,0.7,0.6
2025-02-15T2300,2880A,104.0239,30.65639,成都市,大石西路,细颗粒物(PM2.5),62,69,43,44,25,33,,72,61,45,32,4,4,0.7,0.6
2025-02-15T2300,3136A,104.2725,30.5589,成都市,龙泉驿区区政府,细颗粒物(PM2.5),52,41,38,36,26,39,,76,66,28,25,4,4,0.6,0.6
2025-02-15T2300,3357A,104.0106,30.6931,成都市,金博路,颗粒物(PM10),53,55,32,34,17,32,,68,59,35,27,1,1,0.5,0.5
2025-02-15T2300,3359A,104.0578,30.5225,成都市,华阳,细颗粒物(PM2.5),64,58,44,46,36,24,,68,53,43,28,7,7,0.6,0.6
2025-02-15T2300,3488A,104.3853,30.7453,成都市,青白江技师分院,细颗粒物(PM2.5),52,50,39,36,26,45,,84,73,24,21,3,3,0.7,0.6
2025-02-15T2300,3489A,104.0789,30.4072,成都市,科学城,细颗粒物(PM2.5),54,48,45,38,35,34,,77,64,40,26,5,5,0.6,0.5
2025-02-15T2300,4011A,103.8506,30.6947,成都市,光华大道三段,,33,33,33,20,16,51,,73,66,26,24,4,4,0.5,0.4
2025-02-15T2300,4224A,104.2433,30.5353,成都市,鲸龙路1057号,细颗粒物(PM2.5),59,65,50,42,33,10,,78,61,57,24,1,1,0.7,0.6
2025-02-15T2300,1062A,117.9531,40.9081,承德市,铁路,颗粒物(PM10),58,65,73,19,28,75,,67,67,7,29,6,11,0.2,0.7
2025-02-15T2300,1063A,117.9392,40.9763,承德市,中国银行,颗粒物(PM10),65,80,95,15,29,60,,72,69,10,23,3,5,0.3,0.7
2025-02-15T2300,1064A,117.9503,40.928,承德市,开发区,颗粒物(PM10),60,69,81,26,37,78,,84,83,8,28,5,9,0.3,0.7
2025-02-15T2300,1065A,117.8051,40.9655,承德市,文化中心,,,182,95,,26,46,,83,75,26,26,7,9,0.3,0.7
2025-02-15T2300,1066A,117.9268,41.0026,承德市,离宫,颗粒物(PM10),60,70,80,32,34,72,,80,78,5,19,5,7,0.3,0.5
2025-02-15T2300,2314A,117.47,30.6618,池州市,池州学院,细颗粒物(PM2.5),74,58,69,54,68,25,,48,40,24,26,5,9,0.7,0.9
2025-02-15T2300,3237A,117.4918,30.6617,池州市,展览馆,细颗粒物(PM2.5),89,76,95,66,81,34,,51,43,20,26,5,7,0.7,1
2025-02-15T2300,3333A,117.5627,30.695,池州市,第八中学,细颗粒物(PM2.5),80,73,82,59,70,30,,54,43,17,27,4,8,0.7,0.9
2025-02-15T2300,3334A,117.5038,30.6243,池州市,第十二中学,细颗粒物(PM2.5),75,66,76,55,69,22,,53,40,19,28,3,4,1.0,0.9
2025-02-15T2300,1744A,118.9233,42.2816,赤峰市,松山一中,,34,34,89,7,25,61,,72,65,8,30,8,10,0.4,0.7
2025-02-15T2300,1745A,118.9576,42.2728,赤峰市,哈达街,,23,23,82,12,21,68,,77,70,9,27,8,9,0.6,0.8
2025-02-15T2300,1746A,118.8788,42.2554,赤峰市,天义路,,30,30,88,9,26,54,,65,58,10,22,8,9,0.2,0.4
2025-02-15T2300,3058A,119.2658,42.0353,赤峰市,银河街,,46,46,74,8,33,57,,66,59,11,21,14,17,0.4,0.7
2025-02-15T2300,3286A,118.9359,42.3147,赤峰市,桥北物流园区,,26,26,69,15,28,60,,71,64,12,30,4,8,0.4,0.6
2025-02-15T2300,2521A,107.3476,22.4136,崇左市,市环保局江州分局,,20,20,65,14,42,16,,29,18,12,19,4,4,0.8,1
2025-02-15T2300,4256A,107.3750,22.3736,崇左市,石景林东路7号,,25,17,50,17,41,17,,36,22,16,20,4,4,0.7,0.9
2025-02-15T2300,2298A,118.3093,32.3153,滁州市,老年大学,细颗粒物(PM2.5),110,102,100,83,79,48,,100,84,37,40,5,6,0.7,0.8
2025-02-15T2300,2299A,118.3244,32.2786,滁州市,人大宾馆,细颗粒物(PM2.5),119,110,104,90,84,58,,97,79,49,50,8,9,0.9,1
2025-02-15T2300,3207A,118.3118,32.3038,滁州市,市政府原办公楼,细颗粒物(PM2.5),103,87,89,77,78,76,,95,86,28,46,6,7,0.5,0.7
2025-02-15T2300,3331A,118.3267,32.2634,滁州市,图书馆,细颗粒物(PM2.5),112,115,104,84,77,56,,96,82,38,41,6,8,0.8,0.9
2025-02-15T2300,2605A,101.5482,25.0441,楚雄彝族自治州,州环境监测站,细颗粒物(PM2.5),78,59,42,57,33,36,,117,104,51,12,7,6,0.8,0.6
2025-02-15T2300,2606A,101.538,25.0492,楚雄彝族自治州,市经济开发区,细颗粒物(PM2.5),69,78,45,50,34,40,,113,100,52,14,8,7,0.8,0.5
2025-02-15T2300,2548A,107.5277,31.2827,达州市,达州职业技术学院,"颗粒物(PM10),细颗粒物(PM2.5)",59,67,50,42,32,0,,46,26,30,19,5,6,0.6,0.6
2025-02-15T2300,2549A,107.5086,31.2186,达州市,市环境监测站,细颗粒物(PM2.5),58,60,47,41,28,5,,54,38,49,32,5,5,1.0,0.7
2025-02-15T2300,2550A,107.4988,31.2132,达州市,凤凰小区,细颗粒物(PM2.5),62,58,46,44,29,6,,52,36,52,30,7,7,1.0,0.8
2025-02-15T2300,2551A,107.5082,31.1986,达州市,达县机关宾馆,颗粒物(PM10),52,53,44,29,27,3,,48,34,43,30,6,5,0.7,0.6
2025-02-15T2300,2552A,107.4644,31.2124,达州市,市政中心,,,100,56,51,27,,,51,,56,33,4,4,1.4,0.8
2025-02-15T2300,2614A,100.1542,25.7054,大理白族自治州,大理市环境监测站,,43,33,28,30,24,94,,91,91,5,6,6,6,0.5,0.6
2025-02-15T2300,2615A,100.2171,25.5811,大理白族自治州,大理古城,,39,33,27,27,21,97,,93,93,6,7,6,6,0.6,0.6
2025-02-15T2300,1109A,121.612,38.9741,大连市,甘井子,细颗粒物(PM2.5),142,143,115,108,82,46,,104,87,64,44,9,11,1.2,1.1
2025-02-15T2300,1110A,121.565,38.9511,大连市,周水子,细颗粒物(PM2.5),186,156,113,140,94,30,,108,84,76,38,7,12,1.5,1.3
2025-02-15T2300,1111A,121.5637,38.8845,大连市,星海三站,细颗粒物(PM2.5),77,91,108,56,77,66,,93,86,37,31,26,11,1.2,1.2
2025-02-15T2300,1112A,121.6302,38.9117,大连市,青泥洼桥,细颗粒物(PM2.5),93,108,107,69,77,61,,102,89,40,33,14,16,1.0,1
2025-02-15T2300,1113A,121.6251,38.8638,大连市,傅家庄,细颗粒物(PM2.5),112,115,111,84,81,86,,87,85,26,30,15,12,0.9,0.7
2025-02-15T2300,1114A,121.5213,38.8661,大连市,七贤岭,颗粒物(PM10),78,105,110,53,69,76,,112,102,22,26,11,11,0.9,0.9
2025-02-15T2300,1115A,121.2529,38.8061,大连市,旅顺,细颗粒物(PM2.5),85,102,111,63,80,61,,108,90,42,35,9,9,1.0,1
2025-02-15T2300,1117A,121.7811,39.0496,大连市,开发区,细颗粒物(PM2.5),165,149,131,125,98,13,,76,34,66,55,14,13,1.5,1.4
2025-02-15T2300,1118A,121.9762,39.0631,大连市,双D港,细颗粒物(PM2.5),128,109,83,97,74,36,,80,51,35,32,7,8,1.4,1.2
2025-02-15T2300,1789A,124.81117,46.03138,大庆市,大同区,,29,28,87,20,68,73,,83,79,10,22,4,9,0.5,0.9
2025-02-15T2300,1790A,125.129,46.533,大庆市,龙凤区,,46,38,55,32,39,75,,87,80,16,20,7,10,0.4,0.5
2025-02-15T2300,1791A,124.902,46.408,大庆市,红岗区,,29,28,59,20,44,76,,82,79,9,20,6,10,0.4,0.6
2025-02-15T2300,1792A,125.153,46.586,大庆市,萨尔图区,,32,24,51,22,35,66,,91,82,25,19,6,9,0.2,0.3
2025-02-15T2300,1793A,124.9042,46.6215,大庆市,让胡路区,,49,,45,34,39,72,,84,77,10,15,7,10,0.3,0.5
2025-02-15T2300,3481A,125.141,46.634,大庆市,萨区政府监测点,,32,32,44,19,30,71,,87,80,14,13,5,8,0.4,0.4
2025-02-15T2300,1723A,113.2994,40.0758,大同市,云冈宾馆,颗粒物(PM10),51,51,119,10,23,63,,90,80,11,22,9,16,0.9,0.7
2025-02-15T2300,1724A,113.3444,40.0917,大同市,大同大学,,48,48,102,11,28,48,,92,74,26,23,18,19,0.5,0.5
2025-02-15T2300,1725A,113.2661,40.1269,大同市,安家小村,,45,45,115,9,24,57,,93,81,16,16,9,13,0.5,0.5
2025-02-15T2300,1726A,113.2711,40.0844,大同市,教育学院,,42,42,115,10,26,66,,92,80,12,27,6,15,0.5,0.5
2025-02-15T2300,3282A,113.3397,40.0597,大同市,大同市卫生学校,,50,50,114,13,29,62,,86,75,13,27,9,13,0.4,0.5
2025-02-15T2300,3565A,113.1367,40.1122,大同市,云冈站,颗粒物(PM10),69,88,112,22,31,46,,90,62,26,27,16,21,0.5,0.5
2025-02-15T2300,3566A,113.1186,40.2556,大同市,图书馆,颗粒物(PM10),59,67,111,18,31,54,,86,69,15,15,13,13,0.8,0.5
2025-02-15T2300,3567A,113.5931,40.0461,大同市,区一中,,41,41,123,12,23,72,,89,80,8,28,11,28,0.3,0.6
2025-02-15T2300,4199A,113.2798,40.0997,大同市,魏都大道141号,,48,48,115,17,28,60,,83,74,12,26,12,20,0.6,0.5
2025-02-15T2300,2269A,124.1069,50.4097,大兴安岭地区,科技局,,30,29,25,21,18,59,,74,67,10,7,10,10,0.3,0.3
2025-02-15T2300,3663A,124.1164,50.4278,大兴安岭地区,红旗社区,,40,36,32,28,21,41,,72,55,22,26,16,11,0.6,0.4
2025-02-15T2300,1600A,124.3303,40.0625,丹东市,江湾东路,细颗粒物(PM2.5),65,68,109,47,75,87,,92,89,12,23,9,17,0.7,1.8
2025-02-15T2300,1601A,124.4256,40.1503,丹东市,临江后街,细颗粒物(PM2.5),100,97,95,75,66,73,,94,85,24,22,10,12,1.4,1.3
2025-02-15T2300,1602A,124.3933,40.1461,丹东市,元宝山,细颗粒物(PM2.5),70,66,92,51,62,84,,90,87,20,24,8,10,0.6,1
2025-02-15T2300,1603A,124.3633,40.1092,丹东市,民主桥,细颗粒物(PM2.5),75,78,110,55,75,79,,86,81,16,33,11,8,1.3,1.5
2025-02-15T2300,3541A,109.5726,19.5167,儋州市,第一中学子站,,26,26,20,16,6,43,,67,62,7,4,2,2,0.8,0.9
2025-02-15T2300,3542A,109.5567,19.5187,儋州市,东坡学校子站,,27,27,12,17,6,45,,79,71,9,5,2,5,0.6,0.6
2025-02-15T2300,2616A,98.5842,24.428,德宏傣族景颇族自治州,德宏州监测站,细颗粒物(PM2.5),74,61,69,54,53,61,,111,97,27,26,8,12,0.9,0.7
2025-02-15T2300,3677A,98.5881,24.4368,德宏傣族景颇族自治州,芒市人民政府综合楼,颗粒物(PM10),69,88,84,47,51,79,,117,106,14,15,8,8,0.6,0.6
2025-02-15T2300,1901A,104.4239,31.1208,德阳市,东山公园,细颗粒物(PM2.5),60,53,44,43,33,32,,77,66,42,24,3,3,0.8,0.7
2025-02-15T2300,1902A,104.3826,31.1317,德阳市,西小区,细颗粒物(PM2.5),70,66,55,51,39,30,,71,56,42,35,4,4,0.7,0.7
2025-02-15T2300,1904A,104.3553,31.1091,德阳市,耐火材料厂,细颗粒物(PM2.5),72,68,55,52,38,35,,74,57,32,31,4,4,0.8,0.8
2025-02-15T2300,3639A,104.4019,31.1244,德阳市,市教育局,细颗粒物(PM2.5),60,59,47,43,34,26,,75,58,50,32,4,4,0.8,0.7
2025-02-15T2300,1622A,116.3032,37.4674,德州市,儿童乐园,颗粒物(PM10),109,168,126,80,60,11,,91,60,80,33,13,13,2.1,1
2025-02-15T2300,1624A,116.2991,37.4451,德州市,监理站,细颗粒物(PM2.5),122,190,124,92,58,13,,91,56,91,43,24,21,1.8,1
2025-02-15T2300,3066A,116.2721,37.4379,德州市,九衢泉纯净水厂,"颗粒物(PM10),细颗粒物(PM2.5)",117,183,121,88,60,10,,90,58,96,41,31,16,1.5,1
2025-02-15T2300,3371A,116.3728,37.4403,德州市,开发区人民医院,颗粒物(PM10),90,129,114,56,52,9,,85,56,100,37,17,16,1.1,0.8
2025-02-15T2300,3372A,116.3572,37.4094,德州市,太阳城中学,颗粒物(PM10),86,122,118,56,59,36,,93,74,72,38,14,16,0.7,0.6
2025-02-15T2300,3511A,116.5652,37.3319,德州市,陵城艺术中心,颗粒物(PM10),76,102,118,39,56,49,,84,60,40,38,17,15,0.8,0.9
2025-02-15T2300,2621A,99.7056,27.8317,迪庆藏族自治州,迪庆州站,,31,31,32,16,18,88,,92,90,8,9,8,8,0.6,0.5
2025-02-15T2300,3180A,99.7136,27.8094,迪庆藏族自治州,质量技术监督局,,26,17,24,9,17,82,,86,84,6,9,8,8,0.5,0.6
2025-02-15T2300,2663A,104.6241,35.5734,定西市,东关小学,颗粒物(PM10),83,115,78,34,34,66,,104,96,18,17,24,16,1.1,1
2025-02-15T2300,4257A,104.6092,35.5962,定西市,将台街,颗粒物(PM10),66,81,67,36,31,42,,94,81,36,29,16,20,0.4,0.9
2025-02-15T2300,1389A,113.7547,23.0494,东莞市,莞城梨川,细颗粒物(PM2.5),70,84,50,51,32,37,,92,81,48,34,7,6,0.7,0.5
2025-02-15T2300,1390A,113.7944,23.0128,东莞市,东城石井,细颗粒物(PM2.5),60,64,44,43,32,24,,89,76,46,29,7,7,0.6,0.5
2025-02-15T2300,1391A,113.7383,22.9658,东莞市,南城西平,,46,46,37,31,27,47,,91,78,41,36,6,5,0.5,0.5
2025-02-15T2300,3319A,113.7338,23.0381,东莞市,万江金泰,,,80,46,46,28,38,,100,87,,29,6,3,0.7,0.5
2025-02-15T2300,3626A,113.7533,23.0202,东莞市,南城元岭,细颗粒物(PM2.5),65,76,45,47,30,36,,90,80,46,27,8,8,0.8,0.8
2025-02-15T2300,3627A,113.7875,23.0457,东莞市,东城主山,细颗粒物(PM2.5),65,73,46,47,29,37,,92,80,39,29,6,5,0.6,0.4
2025-02-15T2300,1666A,118.6614,37.4309,东营市,市环保局,细颗粒物(PM2.5),92,132,123,68,69,60,,100,70,47,50,11,16,0.5,0.6
2025-02-15T2300,3036A,118.6904,37.4338,东营市,开发区管委会,细颗粒物(PM2.5),100,144,133,75,74,58,,99,76,52,57,11,16,0.8,0.9
2025-02-15T2300,3365A,118.5719,37.565,东营市,垦利区民丰路,颗粒物(PM10),114,178,142,80,74,22,,93,53,73,52,12,22,0.9,1
2025-02-15T2300,3498A,118.5055,37.8612,东营市,河口城区,颗粒物(PM10),136,222,145,100,67,46,,108,82,44,36,13,14,0.9,0.9
2025-02-15T2300,3646A,118.4978,37.4623,东营市,胜利站,细颗粒物(PM2.5),125,181,138,95,75,21,,95,50,81,60,14,22,1.1,1
2025-02-15T2300,3734A,118.35,37.26,东营市,理想之城,细颗粒物(PM2.5),125,178,133,95,74,6,,103,49,108,70,19,21,1.0,1
2025-02-15T2300,1591A,110.0023,39.8129,鄂尔多斯市,综合楼,颗粒物(PM10),52,53,103,14,20,67,,90,78,20,11,7,7,0.3,0.3
2025-02-15T2300,1592A,109.9486,39.8261,鄂尔多斯市,巴音孟克林场办事处,颗粒物(PM10),53,56,99,17,23,67,,92,80,19,9,7,7,0.3,0.2
2025-02-15T2300,1593A,109.7736,39.5986,鄂尔多斯市,康泽苑,颗粒物(PM10),56,61,119,17,27,74,,94,86,10,6,5,5,0.3,0.3
2025-02-15T2300,1594A,109.8119,39.5989,鄂尔多斯市,华泰汽车城,颗粒物(PM10),58,66,116,22,29,72,,92,83,14,8,4,4,0.4,0.3
2025-02-15T2300,1595A,109.9734,39.7884,鄂尔多斯市,奥林花园,颗粒物(PM10),51,51,109,12,20,70,,88,81,16,16,6,16,0.4,0.4
2025-02-15T2300,2436A,114.8938,30.3994,鄂州市,市政府,细颗粒物(PM2.5),90,89,84,67,70,51,,79,74,35,27,9,9,1.4,1.3
2025-02-15T2300,2437A,114.8989,30.3714,鄂州市,赵家坝,细颗粒物(PM2.5),88,101,84,65,68,60,,77,74,21,20,2,2,0.9,1
2025-02-15T2300,3654A,114.8094,30.4089,鄂州市,精准医疗中心,细颗粒物(PM2.5),88,95,78,65,66,53,,142,,35,23,3,5,0.7,0.8
2025-02-15T2300,2454A,109.4978,30.2981,恩施土家族苗族自治州,湖北民院,细颗粒物(PM2.5),58,55,32,41,28,31,,69,56,24,20,3,3,0.2,0.2
2025-02-15T2300,2455A,109.4707,30.2798,恩施土家族苗族自治州,州电力总公司,细颗粒物(PM2.5),68,62,38,49,31,12,,59,44,35,20,3,2,1.1,0.9
2025-02-15T2300,3549A,109.5061,30.3772,恩施土家族苗族自治州,龙凤新区,,38,36,28,26,20,18,,57,41,10,9,6,6,0.6,0.5
2025-02-15T2300,2499A,108.3411,21.6158,防城港市,沙万,,32,23,30,22,24,29,,55,28,10,15,7,9,0.7,0.7
2025-02-15T2300,2500A,108.3514,21.7731,防城港市,防城档案局,,23,21,26,16,20,24,,48,26,11,14,4,4,0.7,0.8
2025-02-15T2300,2501A,108.3506,21.6414,防城港市,大海花园,,38,26,27,26,31,35,,77,37,11,13,4,4,0.8,0.8
2025-02-15T2300,1371A,113.1294,23.0067,佛山市,湾梁,颗粒物(PM10),70,90,52,34,22,12,,70,54,77,39,6,7,0.7,0.5
2025-02-15T2300,1372A,113.1083,23.0478,佛山市,华材职中,细颗粒物(PM2.5),84,73,48,62,31,16,,80,59,77,39,8,8,0.9,0.7
2025-02-15T2300,1373A,113.144,23.0453,佛山市,南海气象局,颗粒物(PM10),58,65,40,33,27,7,,68,51,74,39,8,8,0.7,0.4
2025-02-15T2300,1374A,113.2881,22.8094,佛山市,顺德苏岗,细颗粒物(PM2.5),55,57,42,39,27,16,,79,63,56,31,5,5,0.8,0.7
2025-02-15T2300,1376A,112.8383,22.8678,佛山市,高明孔堂,颗粒物(PM10),60,70,31,40,22,21,,74,62,59,19,6,4,0.8,0.7
2025-02-15T2300,1377A,112.8836,23.1588,佛山市,三水监测站,细颗粒物(PM2.5),68,83,46,49,32,4,,58,41,81,45,2,3,0.9,0.7
2025-02-15T2300,1378A,112.867,23.185,佛山市,三水云东海,细颗粒物(PM2.5),62,63,45,44,32,2,,59,32,62,44,3,3,0.8,0.7
2025-02-15T2300,3625A,113.2544,22.7642,佛山市,容桂街道办,细颗粒物(PM2.5),55,51,32,39,26,27,,83,68,57,32,7,7,0.8,0.7
2025-02-15T2300,1282A,119.2681,26.0504,福州市,师大,细颗粒物(PM2.5),78,59,44,57,34,50,,84,68,26,27,6,4,0.6,0.6
2025-02-15T2300,1283A,119.2984,26.1028,福州市,五四北路,细颗粒物(PM2.5),83,67,48,61,39,38,,72,58,36,35,6,5,0.8,0.7
2025-02-15T2300,1284A,119.2648,26.0768,福州市,杨桥西路,细颗粒物(PM2.5),70,60,45,51,33,49,,83,68,28,28,6,5,0.6,0.5
2025-02-15T2300,1285A,119.317,26.0746,福州市,紫阳,细颗粒物(PM2.5),93,73,70,69,58,14,,60,44,60,41,7,6,0.9,0.7
2025-02-15T2300,3048A,119.5799,26.0936,福州市,九龙,细颗粒物(PM2.5),74,54,44,54,41,22,,64,50,28,24,4,4,0.9,0.7
2025-02-15T2300,3526A,119.5189,25.9664,福州市,吴航,细颗粒物(PM2.5),58,56,50,41,36,16,,64,51,34,34,4,5,0.7,0.7
2025-02-15T2300,1755A,123.7977,41.8491,抚顺市,望花区,细颗粒物(PM2.5),166,144,124,126,92,23,,98,66,57,48,10,13,1.6,1.4
2025-02-15T2300,1756A,123.9161,41.8822,抚顺市,顺城区,细颗粒物(PM2.5),147,156,126,112,86,10,,94,60,77,55,8,10,2.0,1.5
2025-02-15T2300,1757A,124.0436,41.8611,抚顺市,东洲区,细颗粒物(PM2.5),122,132,97,92,65,72,,106,94,21,21,6,9,1.1,1
2025-02-15T2300,1758A,123.9247,41.8642,抚顺市,新抚区,细颗粒物(PM2.5),179,188,129,135,90,9,,101,61,89,66,5,7,1.4,1.2
2025-02-15T2300,1759A,124.0972,41.8961,抚顺市,大伙房水库,细颗粒物(PM2.5),109,106,92,82,69,78,,103,94,16,20,6,8,0.9,0.9
2025-02-15T2300,1760A,123.7086,41.8391,抚顺市,沈抚新城,细颗粒物(PM2.5),155,136,117,118,82,40,,96,68,60,35,9,9,1.8,1.3
2025-02-15T2300,2376A,116.2127,28.0814,抚州市,桐源党溪,,39,39,47,20,30,15,,56,33,3,3,1,1,0.6,0.6
2025-02-15T2300,2377A,116.3544,27.9831,抚州市,市站,,36,36,39,23,27,53,,70,67,18,15,7,6,0.7,0.9
2025-02-15T2300,2378A,116.3565,27.963,抚州市,血防站,颗粒物(PM10),54,57,46,29,29,42,,71,65,28,13,8,10,1.0,1.2
2025-02-15T2300,2379A,116.3564,28.0007,抚州市,采茶剧团,,42,42,37,24,28,41,,60,57,16,7,5,5,1.4,1.5
2025-02-15T2300,2380A,116.385,27.9647,抚州市,医学分院,,45,45,39,23,25,47,,58,56,12,11,4,4,0.6,0.8
2025-02-15T2300,2207A,121.6094,41.998,阜新市,工业园区,颗粒物(PM10),75,100,145,6,90,84,,82,70,11,39,3,15,0.2,1
2025-02-15T2300,2208A,121.6697,42.0279,阜新市,长青街,,48,48,123,14,80,79,,76,68,8,38,5,15,0.2,0.9
2025-02-15T2300,2209A,121.6673,42.0705,阜新市,农业园区,颗粒物(PM10),54,57,127,3,74,79,,82,76,3,30,8,20,0.5,1
2025-02-15T2300,2210A,121.6717,42.0224,阜新市,东苑,颗粒物(PM10),51,51,125,3,77,76,,70,64,10,44,4,22,0.2,0.9
2025-02-15T2300,2211A,121.6506,42.0498,阜新市,玉龙新城,颗粒物(PM10),61,72,141,16,84,80,,78,61,9,46,6,17,0.2,1
2025-02-15T2300,2301A,115.8277,32.8929,阜阳市,市监测站,细颗粒物(PM2.5),90,85,109,67,79,70,,88,65,28,26,9,9,0.5,0.6
2025-02-15T2300,2303A,115.8554,32.8605,阜阳市,开发区,细颗粒物(PM2.5),107,140,133,80,70,50,,93,67,41,33,12,8,0.7,0.7
2025-02-15T2300,2875A,115.784,32.8892,阜阳市,阜阳职业技术学院,细颗粒物(PM2.5),78,97,110,57,74,70,,85,75,24,22,10,9,0.4,0.6
2025-02-15T2300,3468A,115.7901,32.8613,阜阳市,市规划展馆,颗粒物(PM10),84,118,116,54,75,85,,96,87,21,21,11,9,0.8,0.8
2025-02-15T2300,3469A,115.836,32.9183,阜阳市,枣园社区,颗粒物(PM10),80,109,115,58,72,58,,96,66,43,29,7,6,0.6,0.7
2025-02-15T2300,2669A,102.9099,34.9841,甘南藏族自治州,州政府,颗粒物(PM10),58,66,49,31,22,38,,80,69,32,23,14,12,0.8,0.7
2025-02-15T2300,3380A,102.8914,34.9617,甘南藏族自治州,甘肃民族师范学院,颗粒物(PM10),55,59,52,25,17,18,,86,67,54,26,5,6,0.6,0.4
2025-02-15T2300,2570A,101.9603,30.0475,甘孜藏族自治州,水桥子,,18,13,11,10,6,56,,75,70,15,11,3,3,0.4,0.3
2025-02-15T2300,3065A,101.9533,29.9972,甘孜藏族自治州,州环保局,,21,21,14,7,6,65,,79,74,11,8,4,4,0.4,0.3
2025-02-15T2300,3414A,115.8347,28.932,赣江新区,桑海产业园,,29,29,32,20,26,2,,35,12,30,17,6,6,0.8,0.6
2025-02-15T2300,2362A,114.9017,25.9149,赣州市,通天岩,颗粒物(PM10),58,65,69,16,18,36,,56,45,10,11,8,9,0.9,0.9
2025-02-15T2300,2363A,114.9367,25.8664,赣州市,地委,细颗粒物(PM2.5),72,72,76,52,54,38,,66,46,12,14,5,6,1.1,1.1
2025-02-15T2300,2364A,114.9461,25.8481,赣州市,气象台,"颗粒物(PM10),细颗粒物(PM2.5)",65,79,87,47,49,46,,78,54,19,21,8,9,0.9,1
2025-02-15T2300,2365A,114.9322,25.8333,赣州市,市图书馆,细颗粒物(PM2.5),74,61,76,54,56,45,,77,50,16,18,4,4,1.0,1
2025-02-15T2300,2366A,114.8905,25.8471,赣州市,华坚鞋城,细颗粒物(PM2.5),64,69,76,46,52,40,,70,47,10,13,5,6,0,0.6
2025-02-15T2300,3109A,115.0093,25.8613,赣州市,赣县区卫计委,细颗粒物(PM2.5),62,49,63,44,51,32,,49,42,17,22,3,4,0.5,0.6
2025-02-15T2300,2683A,106.2319,36.1417,固原市,马园,颗粒物(PM10),94,138,80,54,30,12,,73,49,62,39,13,7,0.6,0.7
2025-02-15T2300,2684A,106.2792,36.0022,固原市,监测站,颗粒物(PM10),87,123,69,54,25,38,,87,70,44,23,17,9,1.4,0.9
2025-02-15T2300,2685A,106.2375,36.0211,固原市,新区,颗粒物(PM10),89,128,63,57,26,62,,46,,32,34,7,6,0.6,0.7
2025-02-15T2300,3522A,106.2177,35.9959,固原市,原州区十五小,颗粒物(PM10),86,121,56,42,17,59,,88,77,31,13,11,8,0.9,0.5
2025-02-15T2300,2544A,106.6303,30.4576,广安市,市委,细颗粒物(PM2.5),78,84,47,57,37,11,,64,47,51,21,4,4,1.1,0.8
2025-02-15T2300,2545A,106.6271,30.4663,广安市,友谊中学,细颗粒物(PM2.5),83,76,49,61,40,6,,62,44,60,25,2,2,1.0,0.6
2025-02-15T2300,2547A,106.6388,30.4551,广安市,广电花园,细颗粒物(PM2.5),80,76,43,59,37,4,,61,43,53,22,3,3,1.0,0.5
2025-02-15T2300,2902A,106.6351,30.4865,广安市,北辰小学,细颗粒物(PM2.5),65,63,49,47,35,13,,65,50,42,22,4,4,1.1,0.9
2025-02-15T2300,2523A,105.8945,32.4535,广元市,黑石坡,,,,60,,29,10,,63,46,4,6,8,10,,0.5
2025-02-15T2300,2524A,105.821,32.4444,广元市,老城,颗粒物(PM10),57,64,55,29,26,1,,62,43,64,34,1,2,0.8,0.8
2025-02-15T2300,2526A,105.8628,32.4287,广元市,监测站,颗粒物(PM10),58,65,49,40,32,46,,72,68,17,18,3,5,0.4,0.4
2025-02-15T2300,3617A,105.8047,32.4166,广元市,经开区,细颗粒物(PM2.5),65,64,59,47,41,11,,58,43,50,33,2,5,0.6,0.7
2025-02-15T2300,1345A,113.2347,23.1423,广州市,广雅中学,颗粒物(PM10),53,55,36,33,24,11,,64,47,66,35,4,4,0.7,0.6
2025-02-15T2300,1346A,113.2612,23.105,广州市,市五中,细颗粒物(PM2.5),59,,48,42,32,10,,68,52,73,36,3,2,0.8,0.7
2025-02-15T2300,1348A,113.3478,23.0916,广州市,广东商学院,细颗粒物(PM2.5),65,76,37,47,31,6,,69,49,69,36,4,4,1.0,0.8
2025-02-15T2300,1349A,113.4332,23.1047,广州市,市八十六中,颗粒物(PM10),57,64,39,35,24,4,,62,43,82,47,3,2,0.8,0.6
2025-02-15T2300,1350A,113.3505,22.9483,广州市,番禺中学,,40,40,30,25,25,42,,82,69,42,29,4,4,0.8,0.7
2025-02-15T2300,1351A,113.2146,23.3916,广州市,花都师范,细颗粒物(PM2.5),69,79,49,50,33,2,,48,34,66,40,4,5,1.0,0.8
2025-02-15T2300,1352A,113.2597,23.1331,广州市,市监测站,,46,46,31,29,20,12,,67,52,67,33,5,5,0.9,0.7
2025-02-15T2300,1353A,113.5618,23.312,广州市,九龙镇镇龙,颗粒物(PM10),54,57,56,37,39,11,,58,43,54,45,4,8,0.7,0.7
2025-02-15T2300,1354A,113.2765,23.1544,广州市,麓湖,,45,45,28,26,20,10,,70,49,59,31,2,2,0.7,0.6
2025-02-15T2300,1355A,113.443,23.3035,广州市,帽峰山森林公园,,28,28,37,13,16,43,,59,52,18,44,4,6,0.7,0.7
2025-02-15T2300,2846A,113.3221,23.1322,广州市,体育西,细颗粒物(PM2.5),59,63,42,42,31,13,,67,51,75,47,4,4,0.7,0.6
2025-02-15T2300,3298A,113.5717,23.5491,广州市,从化街口,细颗粒物(PM2.5),80,76,65,59,49,11,,65,51,41,33,8,8,1.0,0.8
2025-02-15T2300,3299A,113.3472,23.3692,广州市,白云竹料,细颗粒物(PM2.5),102,123,60,76,38,10,,64,40,59,47,6,7,1.1,0.8
2025-02-15T2300,3300A,113.2981,23.237,广州市,白云嘉禾,颗粒物(PM10),57,63,46,38,31,10,,63,46,65,48,4,5,0.8,0.7
2025-02-15T2300,3301A,113.4256,23.1716,广州市,黄埔科学城,细颗粒物(PM2.5),55,58,47,39,32,30,,64,50,34,40,6,7,0.6,0.6
2025-02-15T2300,3302A,113.3942,23.0483,广州市,番禺大学城,颗粒物(PM10),72,94,60,32,21,7,,52,38,76,38,8,8,1.0,0.8
2025-02-15T2300,3303A,113.4922,22.8168,广州市,南沙黄阁,,28,28,30,12,22,47,,80,74,29,28,4,4,0.7,0.7
2025-02-15T2300,3304A,113.5342,22.7896,广州市,南沙街,,25,25,27,13,18,48,,81,72,28,31,4,5,0.7,0.7
2025-02-15T2300,3443A,113.2902,23.5544,广州市,花都梯面,,40,40,55,23,32,5,,53,44,42,42,5,5,0.7,0.7
2025-02-15T2300,3445A,113.7858,23.7478,广州市,从化良口,,33,25,29,23,26,28,,82,64,17,16,6,6,0.5,0.6
2025-02-15T2300,3446A,113.8051,23.2614,广州市,增城荔城,细颗粒物(PM2.5),68,68,64,49,46,30,,74,65,28,27,5,5,0.7,0.7
2025-02-15T2300,2506A,109.6047,23.0666,贵港市,江南子站,细颗粒物(PM2.5),57,44,88,40,78,28,,35,33,19,28,7,8,0.4,0.7
2025-02-15T2300,2507A,109.6014,23.0948,贵港市,贵城子站,,46,45,81,32,57,26,,31,29,17,27,7,7,0.9,1.2
2025-02-15T2300,2508A,109.5669,23.1065,贵港市,荷城子站,,39,34,65,27,56,26,,33,31,14,20,9,10,0.7,1
2025-02-15T2300,3405A,109.5886,23.1172,贵港市,新世纪学校,,49,39,74,34,61,29,,35,34,15,22,16,9,0.6,0.9
2025-02-15T2300,1439A,106.6899,26.5998,贵阳市,马鞍山,颗粒物(PM10),51,51,29,27,13,48,,59,50,10,11,6,5,0.4,0.4
2025-02-15T2300,1441A,106.6243,26.6266,贵阳市,鉴湖路,细颗粒物(PM2.5),62,61,35,44,19,50,,60,52,13,12,16,11,0.5,0.5
2025-02-15T2300,1442A,106.7487,26.6343,贵阳市,燕子冲,,39,39,16,27,17,54,,59,55,11,12,10,8,0.5,0.5
2025-02-15T2300,1443A,106.6555,26.4365,贵阳市,碧云窝,颗粒物(PM10),56,61,35,31,19,43,,50,47,19,20,16,13,0.6,0.6
2025-02-15T2300,1445A,106.7109,26.6027,贵阳市,红边门,"颗粒物(PM10),细颗粒物(PM2.5)",52,53,30,36,22,53,,57,51,14,14,15,11,0.6,0.6
2025-02-15T2300,1446A,106.7164,26.5699,贵阳市,新华路,,46,46,31,24,15,49,,56,50,14,13,14,12,0.7,0.6
2025-02-15T2300,1447A,106.674,26.5424,贵阳市,太慈桥,,42,39,20,29,17,51,,56,52,15,16,9,8,0.4,0.4
2025-02-15T2300,4230A,106.6882,26.5695,贵阳市,花果园大街66号,细颗粒物(PM2.5),58,41,20,41,24,45,,47,44,14,15,10,8,0.4,0.3
2025-02-15T2300,4231A,106.6873,26.5169,贵阳市,漓江路57号,细颗粒物(PM2.5),55,56,27,39,20,44,,53,49,22,20,16,12,0.6,0.6
2025-02-15T2300,1862A,110.4144,25.3167,桂林市,电子科大尧山校区,,26,,32,18,33,47,,51,50,7,10,4,4,0.9,1
2025-02-15T2300,1864A,110.3089,25.2708,桂林市,龙隐路小学,,23,19,45,16,48,42,,51,48,19,16,9,11,0.8,1
2025-02-15T2300,1865A,110.2869,25.2178,桂林市,八中,,29,,47,20,46,36,,44,40,18,18,9,8,0.9,1
2025-02-15T2300,3531A,110.296,25.1253,桂林市,旅游学院,,25,,47,17,52,36,,45,41,16,21,6,6,0.9,1
2025-02-15T2300,4222A,110.1835,25.2444,桂林市,环湖路276号,,20,,43,14,43,46,,48,48,12,15,6,6,0.8,0.9
2025-02-15T2300,2674A,100.2561,34.4714,果洛藏族自治州,玛沁县大武镇,,37,37,37,18,16,97,,104,99,2,2,14,15,0.3,0.4
2025-02-15T2300,1129A,126.5422,45.755,哈尔滨市,岭北,细颗粒物(PM2.5),73,,86,53,69,67,,105,85,31,41,7,16,0.8,1
2025-02-15T2300,1130A,126.561,45.8167,哈尔滨市,松北商大,细颗粒物(PM2.5),57,53,91,40,71,66,,99,82,21,38,4,6,0.6,0.9
2025-02-15T2300,1131A,126.979,45.5419,哈尔滨市,阿城会宁,细颗粒物(PM2.5),159,144,89,121,66,70,,103,84,32,29,1,11,1.2,0.9
2025-02-15T2300,1132A,126.599,45.7222,哈尔滨市,南岗学府路,颗粒物(PM10),81,111,112,54,68,68,,102,88,27,37,6,11,0.7,1
2025-02-15T2300,1133A,126.689,45.7733,哈尔滨市,太平宏伟公园,细颗粒物(PM2.5),90,101,110,67,71,61,,99,84,28,39,7,7,0.7,0.8
2025-02-15T2300,1134A,126.635,45.7667,哈尔滨市,道外承德广场,细颗粒物(PM2.5),92,132,122,68,79,55,,87,75,30,38,12,12,1.2,1.3
2025-02-15T2300,1135A,126.685,45.7319,哈尔滨市,香坊红旗大街,细颗粒物(PM2.5),102,92,121,76,85,61,,95,84,30,40,19,25,0.9,1.2
2025-02-15T2300,1136A,126.6411,45.7258,哈尔滨市,动力和平路,细颗粒物(PM2.5),83,103,103,61,74,57,,98,80,31,37,10,16,0.9,1.1
2025-02-15T2300,1137A,126.593,45.7478,哈尔滨市,道里建国路,细颗粒物(PM2.5),73,73,100,53,77,59,,90,75,26,40,9,23,0.7,1.2
2025-02-15T2300,1138A,126.615,45.61,哈尔滨市,平房东轻厂,细颗粒物(PM2.5),85,90,82,63,59,58,,97,71,28,26,3,7,0.7,0.7
2025-02-15T2300,1139A,126.595,45.9855,哈尔滨市,呼兰师专,细颗粒物(PM2.5),72,70,94,52,82,58,,92,77,24,35,7,11,0.9,1
2025-02-15T2300,1140A,126.6206,45.6842,哈尔滨市,省农科院,细颗粒物(PM2.5),98,118,111,73,79,64,,98,79,25,36,11,17,0.8,1
2025-02-15T2300,2688A,93.5128,42.8172,哈密市,地区监测站,颗粒物(PM10),61,72,85,33,25,44,,78,64,42,23,12,7,0.6,0.4
2025-02-15T2300,2689A,93.4961,42.8328,哈密市,哈密师范学校,颗粒物(PM10),58,65,62,26,22,39,,75,63,47,28,7,6,0.9,0.8
2025-02-15T2300,2671A,100.9048,36.9639,海北藏族自治州,海晏县西海镇,,25,25,34,13,17,78,,104,98,4,5,8,10,0.4,0.5
2025-02-15T2300,3867A,102.0738,36.5056,海东市,平安区公安北苑,,47,47,53,30,29,77,,97,86,14,13,5,5,0.5,0.5
2025-02-15T2300,1409A,110.576,19.9507,海口市,东寨港,,19,15,12,6,11,59,,66,64,4,4,1,2,0.5,0.5
2025-02-15T2300,1410A,110.3232,20.0574,海口市,海南大学,,30,30,23,14,14,54,,74,69,20,13,5,6,0.4,0.5
2025-02-15T2300,1411A,110.283,20.0053,海口市,秀英海南医院,,34,34,16,12,12,58,,72,68,13,13,4,4,0.4,0.4
2025-02-15T2300,1412A,110.338,19.9969,海口市,海南师范大学,,35,35,21,13,13,61,,75,71,10,10,5,6,0.5,0.5
2025-02-15T2300,1413A,110.33,20.0356,海口市,龙华路环保局宿舍,,34,34,19,13,14,61,,72,69,8,10,5,6,0.3,0.4
2025-02-15T2300,3539A,110.5111,19.9736,海口市,桂林洋子站,,24,24,15,12,9,60,,73,70,5,4,5,5,0.3,0.4
2025-02-15T2300,2673A,100.6188,36.2866,海南藏族自治州,共和县恰卜恰镇,,41,41,33,3,12,76,,115,109,25,13,8,9,0.5,0.5
2025-02-15T2300,2676A,97.3731,37.3753,海西蒙古族藏族自治州,德令哈市,,44,44,41,30,16,86,,108,104,25,7,17,17,0.8,0.5
2025-02-15T2300,1048A,114.5302,36.6116,邯郸市,东污水处理厂,颗粒物(PM10),55,60,66,29,36,59,,83,72,21,31,15,14,1.0,1.1
2025-02-15T2300,1049A,114.4918,36.5713,邯郸市,矿院,颗粒物(PM10),54,57,77,14,49,63,,80,67,13,41,9,12,0.7,1.1
2025-02-15T2300,1050A,114.484,36.6133,邯郸市,丛台公园,,,79,64,19,39,,,80,72,22,34,20,20,0.8,1.1
2025-02-15T2300,3458A,114.7895,36.5593,邯郸市,香泉濮院小区,颗粒物(PM10),82,114,91,40,48,34,,89,68,53,35,12,15,0.7,0.9
2025-02-15T2300,3579A,114.50634,36.77178,邯郸市,永年区实验高中,颗粒物(PM10),78,106,88,37,37,43,,80,42,42,50,9,28,0.7,1.6
2025-02-15T2300,3580A,114.20016,36.44293,邯郸市,峰峰矿区临水派出所,颗粒物(PM10),61,71,58,23,23,63,,92,85,26,15,11,14,0.4,0.6
2025-02-15T2300,2634A,106.9893,33.1842,汉中市,汉川机床厂子校,,43,34,41,30,29,64,,87,,4,7,6,7,1.0,1.1
2025-02-15T2300,2635A,107.0154,33.0706,汉中市,市监测站,细颗粒物(PM2.5),74,83,60,54,41,45,,85,62,28,31,6,7,1.3,1.3
2025-02-15T2300,2636A,107.0089,33.1138,汉中市,鑫源开发区,细颗粒物(PM2.5),105,102,59,79,44,17,,86,66,65,33,8,7,1.5,1
2025-02-15T2300,2637A,107.007,33.0323,汉中市,南郑大河坎水厂,"颗粒物(PM10),细颗粒物(PM2.5)",64,78,53,46,33,49,,86,65,23,23,8,8,0.8,0.8
2025-02-15T2300,1223A,120.2072,30.2111,杭州市,滨江,细颗粒物(PM2.5),68,57,76,49,64,3,,19,9,56,56,6,6,1.0,0.8
2025-02-15T2300,1224A,120.0633,30.2747,杭州市,西溪,颗粒物(PM10),56,62,88,33,54,2,,18,8,35,41,6,6,0.8,0.7
2025-02-15T2300,1226A,120.3461,30.3153,杭州市,下沙,细颗粒物(PM2.5),83,,68,61,71,1,,19,12,76,65,8,8,1.0,1
2025-02-15T2300,1227A,120.1269,30.2456,杭州市,卧龙桥,颗粒物(PM10),51,51,78,35,55,8,,27,12,32,43,5,5,0.9,0.8
2025-02-15T2300,1228A,120.1903,30.2692,杭州市,浙江农大,细颗粒物(PM2.5),63,50,81,45,65,1,,14,5,56,58,7,6,0.8,0.8
2025-02-15T2300,1230A,120.1197,30.3119,杭州市,和睦小学,细颗粒物(PM2.5),64,71,87,46,62,2,,15,9,53,54,6,7,1.0,0.9
2025-02-15T2300,1231A,120.3019,30.4183,杭州市,临平镇,细颗粒物(PM2.5),117,88,93,88,87,2,,26,18,58,50,5,6,1.0,0.9
2025-02-15T2300,1232A,120.2697,30.1819,杭州市,城厢镇,细颗粒物(PM2.5),87,76,98,64,71,3,,13,8,60,62,6,6,1.0,1
2025-02-15T2300,1233A,120.0883,30.1808,杭州市,云栖,细颗粒物(PM2.5),62,58,82,44,63,5,,17,9,40,45,6,6,0.8,0.8
2025-02-15T2300,3557A,119.9464,30.0494,杭州市,镇二中,细颗粒物(PM2.5),54,48,62,38,51,4,,20,14,43,47,5,6,1.3,1.1
2025-02-15T2300,3558A,119.7183,30.2367,杭州市,市府大楼,细颗粒物(PM2.5),58,62,83,41,62,6,,24,10,38,36,7,7,1.2,0.9
2025-02-15T2300,3656A,120.1556,30.2864,杭州市,消防大队,细颗粒物(PM2.5),80,66,88,59,72,6,,21,12,47,52,6,6,1.1,0.9
2025-02-15T2300,1270A,117.1959,31.7848,合肥市,明珠广场,细颗粒物(PM2.5),92,92,95,68,72,31,,87,67,51,38,7,8,0.8,0.9
2025-02-15T2300,1271A,117.3072,31.8764,合肥市,三里街,细颗粒物(PM2.5),85,105,107,63,73,13,,77,54,76,49,5,6,0.7,0.7
2025-02-15T2300,1272A,117.2588,31.8707,合肥市,琥珀山庄,细颗粒物(PM2.5),97,100,100,72,76,19,,84,62,81,46,7,8,1.1,0.9
2025-02-15T2300,1273A,117.1604,31.9052,合肥市,董铺水库,"颗粒物(PM10),细颗粒物(PM2.5)",73,95,94,53,56,48,,97,78,37,28,3,3,0.6,0.6
2025-02-15T2300,1274A,117.25,31.8571,合肥市,长江中路,细颗粒物(PM2.5),95,95,102,71,76,38,,92,73,56,40,7,8,1.0,1
2025-02-15T2300,1275A,117.266,31.9436,合肥市,庐阳区,细颗粒物(PM2.5),89,102,105,66,69,54,,110,88,46,44,4,4,0.7,0.7
2025-02-15T2300,1276A,117.336,31.8586,合肥市,瑶海区,细颗粒物(PM2.5),92,97,106,68,72,27,,68,44,57,53,6,7,0.9,1
2025-02-15T2300,1277A,117.3027,31.7964,合肥市,包河区,细颗粒物(PM2.5),94,95,97,70,73,48,,88,79,33,33,4,5,0.8,0.8
2025-02-15T2300,1278A,117.2776,31.7385,合肥市,滨湖新区,细颗粒物(PM2.5),77,100,97,56,58,28,,84,72,41,34,4,4,0.5,0.6
2025-02-15T2300,1279A,117.1318,31.8403,合肥市,高新区,细颗粒物(PM2.5),92,92,92,68,67,56,,101,84,36,34,2,4,0.7,0.7
2025-02-15T2300,3464A,117.3803,31.9147,合肥市,高教基地,细颗粒物(PM2.5),88,94,104,65,75,45,,85,72,43,44,6,7,0.5,0.7
2025-02-15T2300,3614A,79.924,37.0877,和田地区,地区环保局,颗粒物(PM10),500,679,724,160,154,48,,78,70,5,2,9,5,1.4,0.5
2025-02-15T2300,3615A,79.9131,37.113,和田地区,市环保局,颗粒物(PM10),500,628,694,113,120,32,,78,66,39,14,3,2,1.4,1.2
2025-02-15T2300,2516A,108.2011,24.715,河池市,东仁乐园,,25,20,17,17,9,28,,34,34,18,10,6,6,0.9,0.9
2025-02-15T2300,2517A,108.0497,24.6947,河池市,市环保站,,33,26,16,23,10,35,,46,40,9,9,12,8,0.6,0.6
2025-02-15T2300,2518A,108.0983,24.6989,河池市,市疾控中心,细颗粒物(PM2.5),67,,16,48,12,14,,43,36,23,10,6,6,0.7,0.6
2025-02-15T2300,1696A,114.6778,23.7569,河源市,源西,细颗粒物(PM2.5),69,57,38,50,42,4,,73,45,51,25,5,5,0.9,0.7
2025-02-15T2300,1697A,114.6944,23.7586,河源市,东埔,细颗粒物(PM2.5),82,68,37,60,42,5,,77,54,61,26,3,3,1.0,0.8
2025-02-15T2300,1698A,114.6892,23.7233,河源市,老城,细颗粒物(PM2.5),59,45,41,42,46,7,,80,60,42,15,3,4,0.8,0.8
2025-02-15T2300,1718A,115.4208,35.2464,菏泽市,气象局,颗粒物(PM10),91,131,125,66,66,48,,87,69,48,34,8,8,0.6,0.6
2025-02-15T2300,3374A,115.5564,35.0891,菏泽市,定陶老年大学,细颗粒物(PM2.5),100,117,106,75,59,65,,97,81,29,28,8,8,0.8,0.7
2025-02-15T2300,4184A,115.4797,35.24401,菏泽市,永昌路1号,细颗粒物(PM2.5),80,105,101,59,61,59,,92,80,39,34,10,11,0.6,0.8
2025-02-15T2300,4193A,115.4715,35.2800,菏泽市,长城路999号,颗粒物(PM10),82,113,109,47,54,58,,90,78,44,35,11,12,0.9,1
2025-02-15T2300,2514A,111.5264,24.4172,贺州市,环保小区,细颗粒物(PM2.5),65,52,78,47,74,45,,61,50,12,16,6,7,1.1,1.1
2025-02-15T2300,2515A,111.5608,24.4078,贺州市,政协大楼,细颗粒物(PM2.5),75,56,84,55,76,39,,51,44,13,17,7,7,1.0,1.1
2025-02-15T2300,3534A,111.4744,24.4553,贺州市,西湾,细颗粒物(PM2.5),69,62,88,50,77,42,,52,47,11,15,6,7,1.0,1
2025-02-15T2300,2385A,114.17,35.9019,鹤壁市,市监测站,颗粒物(PM10),65,79,75,33,31,73,,99,72,25,35,4,3,0.4,0.5
2025-02-15T2300,2386A,114.2956,35.7511,鹤壁市,市交警支队,颗粒物(PM10),59,68,89,14,42,62,,87,68,28,49,3,3,0.2,0.6
2025-02-15T2300,2387A,114.2878,35.7306,鹤壁市,迎宾馆,颗粒物(PM10),66,81,100,25,38,74,,91,75,15,42,5,5,0.6,0.8
2025-02-15T2300,3474A,114.2617,35.6822,鹤壁市,大新区,颗粒物(PM10),61,72,85,20,45,56,,81,65,32,54,5,7,0.4,0.6
2025-02-15T2300,3596A,114.1572,35.9603,鹤壁市,南山宾馆,颗粒物(PM10),63,76,53,28,34,85,,102,91,10,14,12,12,0.1,0.2
2025-02-15T2300,2244A,130.2537,47.3416,鹤岗市,哈啤分公司,,25,,34,17,28,62,,70,64,3,11,13,15,0.3,0.5
2025-02-15T2300,2245A,130.2684,47.3086,鹤岗市,斯达机电,,22,22,34,15,25,64,,72,64,2,12,14,16,0.2,0.3
2025-02-15T2300,2246A,130.3114,47.3388,鹤岗市,东山纸板厂,,32,26,70,22,38,61,,66,62,8,21,12,13,1.0,1.8
2025-02-15T2300,2247A,130.1097,47.3382,鹤岗市,五号水库,,26,17,22,7,17,82,,93,87,5,9,9,9,0.4,0.5
2025-02-15T2300,2263A,127.4833,50.2524,黑河市,交通局,,43,32,42,30,26,64,,54,47,16,26,6,8,0.5,0.6
2025-02-15T2300,2264A,127.5144,50.2341,黑河市,环保局,,46,43,56,32,34,63,,54,46,16,28,5,8,0.4,0.7
2025-02-15T2300,1074A,115.6838,37.7541,衡水市,电机北厂,细颗粒物(PM2.5),108,151,116,81,61,4,,86,54,71,36,10,15,0.8,0.7
2025-02-15T2300,1075A,115.6303,37.7316,衡水市,市监测站,细颗粒物(PM2.5),83,114,110,61,61,20,,85,61,61,37,8,16,0.7,0.7
2025-02-15T2300,3188A,115.6683,37.7217,衡水市,市城管局,细颗粒物(PM2.5),93,130,119,69,63,21,,82,52,55,41,13,19,1.2,0.7
2025-02-15T2300,3459A,115.5989,37.5491,衡水市,地表水厂,颗粒物(PM10),76,102,119,38,72,24,,87,36,66,55,13,17,0.5,0.7
2025-02-15T2300,2456A,112.5003,26.9167,衡阳市,原169医院,,35,35,41,22,37,9,,42,22,40,16,10,8,0.7,0.6
2025-02-15T2300,2457A,112.6194,26.9258,衡阳市,衡阳化工总厂,,33,,40,23,39,27,,54,38,24,17,2,2,0.8,0.8
2025-02-15T2300,2458A,112.6211,26.8956,衡阳市,珠晖区环保局,,33,,41,23,42,24,,52,37,27,19,4,4,0.8,0.8
2025-02-15T2300,2459A,112.6197,26.8733,衡阳市,市委党校,,32,,40,22,38,15,,55,36,37,22,7,8,0.9,0.9
2025-02-15T2300,2460A,112.6006,26.8919,衡阳市,市监测站,,35,31,52,24,42,30,,57,40,23,17,6,7,0.9,0.9
2025-02-15T2300,2461A,112.5664,26.9056,衡阳市,真空机电公司,,43,32,54,30,48,22,,55,34,35,21,5,4,0.8,0.7
2025-02-15T2300,3399A,112.6703,26.882,衡阳市,师范学院,,23,18,42,16,43,30,,55,41,19,17,6,6,0.9,0.9
2025-02-15T2300,2608A,103.3772,23.3993,红河哈尼族彝族自治州,污水处理厂,细颗粒物(PM2.5),68,,47,49,39,89,,103,98,7,7,6,7,0.6,0.6
2025-02-15T2300,2609A,103.3861,23.35,红河哈尼族彝族自治州,监测站,细颗粒物(PM2.5),64,60,45,46,33,92,,109,101,8,7,8,8,0.7,0.6
2025-02-15T2300,3038A,103.3758,23.368,红河哈尼族彝族自治州,州图书馆,细颗粒物(PM2.5),63,54,38,45,33,87,,102,95,8,7,6,6,0.7,0.5
2025-02-15T2300,1090A,111.6507,40.7517,呼和浩特市,呼市一监,,24,22,128,6,49,75,,84,81,7,24,5,8,0.3,0.6
2025-02-15T2300,1091A,111.6572,40.8033,呼和浩特市,小召,,24,24,126,6,45,76,,82,82,13,31,6,7,0.3,0.6
2025-02-15T2300,1094A,111.7516,40.8369,呼和浩特市,如意水处理厂,,24,17,113,3,38,74,,76,76,6,34,7,10,0.2,0.6
2025-02-15T2300,1095A,111.7276,40.8062,呼和浩特市,二十九中,,22,20,119,7,45,70,,77,76,8,29,3,6,0.3,0.6
2025-02-15T2300,1096A,111.5512,40.7866,呼和浩特市,工大金川校区,,25,25,123,3,46,77,,79,79,8,32,5,9,0.3,0.6
2025-02-15T2300,1097A,111.717,40.7612,呼和浩特市,化肥厂生活区,,23,18,124,6,43,72,,81,79,13,27,6,8,0.2,0.5
2025-02-15T2300,3698A,111.5968,40.8178,呼和浩特市,红旗小学,,24,19,123,6,43,76,,86,85,9,35,5,9,0.4,0.7
2025-02-15T2300,3699A,111.6518,40.8389,呼和浩特市,海东办,,23,14,116,6,41,71,,78,78,10,34,4,7,0.6,0.8
2025-02-15T2300,2192A,119.7594,49.2261,呼伦贝尔市,区环保局,,35,30,32,24,22,74,,83,81,13,14,7,15,0.4,0.5
2025-02-15T2300,3061A,119.7512,49.1577,呼伦贝尔市,国华电力东,,28,28,30,17,17,83,,89,87,4,6,5,7,0.4,0.4
2025-02-15T2300,1250A,120.0751,30.8669,湖州市,城西水厂,细颗粒物(PM2.5),138,122,104,105,87,11,,29,21,42,48,6,7,1.2,0.7
2025-02-15T2300,2873A,120.0875,30.8955,湖州市,仁皇山新区,细颗粒物(PM2.5),125,104,96,95,82,16,,26,18,39,43,6,6,1.3,0.9
2025-02-15T2300,2907A,120.1844,30.8596,湖州市,吴兴区站,细颗粒物(PM2.5),137,122,105,104,74,6,,31,23,43,41,5,5,1.1,0.7
2025-02-15T2300,3562A,120.4148,30.8538,湖州市,南浔区站,细颗粒物(PM2.5),142,126,97,108,76,14,,31,22,46,44,8,8,0.9,0.6
2025-02-15T2300,1607A,120.9092,40.7136,葫芦岛市,龙港区,颗粒物(PM10),122,194,121,74,93,39,,66,45,52,46,13,14,1.1,1.1
2025-02-15T2300,1608A,120.8392,40.7514,葫芦岛市,化工街,颗粒物(PM10),137,224,148,27,87,51,,55,37,32,62,10,15,0.4,1
2025-02-15T2300,1609A,120.8341,40.7073,葫芦岛市,新区,颗粒物(PM10),107,163,110,40,89,52,,65,48,39,52,18,14,0.7,1
2025-02-15T2300,1610A,120.8695,40.7677,葫芦岛市,东城区,颗粒物(PM10),112,174,147,24,117,62,,52,35,12,64,10,16,0.1,0.9
2025-02-15T2300,2482A,109.5981,27.5721,怀化市,林科所,,25,25,21,10,15,19,,57,47,20,11,5,5,1.3,1.1
2025-02-15T2300,2483A,109.9453,27.5444,怀化市,河西地税局,颗粒物(PM10),51,51,36,34,28,5,,52,34,29,18,6,5,0.7,0.6
2025-02-15T2300,2484A,109.9781,27.5342,怀化市,市四医院,颗粒物(PM10),53,56,40,34,28,11,,58,41,34,19,4,2,0.9,0.8
2025-02-15T2300,2485A,109.9972,27.5578,怀化市,监测楼,"颗粒物(PM10),细颗粒物(PM2.5)",53,56,35,37,26,14,,56,,31,21,9,6,0.8,0.7
2025-02-15T2300,2486A,110.0394,27.583,怀化市,市委党校,,43,41,31,30,26,26,,60,50,21,16,7,8,0.6,0.6
2025-02-15T2300,1210A,119.036,33.5981,淮安市,钵池山,细颗粒物(PM2.5),129,127,108,98,80,52,,105,88,57,43,10,11,1.1,1
2025-02-15T2300,1211A,119.007,33.575,淮安市,北京南路,细颗粒物(PM2.5),125,139,105,95,78,17,,93,72,94,50,11,12,0.9,0.9
2025-02-15T2300,1212A,118.989,33.6067,淮安市,市监测站,细颗粒物(PM2.5),117,117,109,88,85,66,,107,94,54,45,9,11,0.9,1
2025-02-15T2300,1213A,119.135,33.5039,淮安市,楚州区监测站,细颗粒物(PM2.5),218,,109,168,93,62,,104,84,40,47,8,9,0.9,0.9
2025-02-15T2300,3426A,118.8755,33.2894,淮安市,新华书店,细颗粒物(PM2.5),124,129,111,94,84,41,,104,84,69,46,10,10,0.8,0.9
2025-02-15T2300,4206A,119.0288,33.6319,淮安市,承德北路606号,细颗粒物(PM2.5),112,124,123,84,80,68,,99,86,44,47,10,10,0.8,0.9
2025-02-15T2300,2282A,116.8004,33.975,淮北市,监测站,细颗粒物(PM2.5),102,140,128,76,77,58,,95,76,37,33,10,10,0.8,0.9
2025-02-15T2300,2283A,116.8091,33.9007,淮北市,烈山区政府,细颗粒物(PM2.5),137,154,121,104,78,42,,98,70,56,38,8,8,0.9,0.9
2025-02-15T2300,3330A,116.8873,33.9836,淮北市,杜集区检察院,细颗粒物(PM2.5),118,140,120,89,78,52,,104,84,40,30,8,7,1.1,0.9
2025-02-15T2300,4017A,116.7923,33.9535,淮北市,市博物馆,细颗粒物(PM2.5),118,149,130,89,82,56,,98,78,42,35,12,11,1.0,1
2025-02-15T2300,2277A,116.8305,32.7727,淮南市,潘集区政府,细颗粒物(PM2.5),162,164,127,123,91,64,,104,95,42,33,7,7,0.7,0.7
2025-02-15T2300,2279A,116.8569,32.5951,淮南市,谢家集区政府,细颗粒物(PM2.5),109,126,117,82,81,80,,103,94,31,34,9,8,0.7,0.7
2025-02-15T2300,2280A,116.8281,32.633,淮南市,八公山区政府,细颗粒物(PM2.5),93,105,109,69,76,104,,112,111,10,20,9,8,0.6,0.7
2025-02-15T2300,2281A,116.6325,32.6201,淮南市,焦岗湖风景区管理处,细颗粒物(PM2.5),94,112,91,70,61,34,,65,57,16,14,9,9,0.4,0.4
2025-02-15T2300,2894A,117.0566,32.6531,淮南市,经济技术开发区消防队,细颗粒物(PM2.5),107,125,112,80,77,86,,107,100,25,27,8,8,0.7,0.8
2025-02-15T2300,3329A,117.0108,32.5893,淮南市,山南新区,细颗粒物(PM2.5),124,135,120,94,84,86,,105,94,18,27,9,8,0.7,0.8
2025-02-15T2300,4209A,117.0031,32.6445,淮南市,国庆中路369号,细颗粒物(PM2.5),113,129,120,85,76,75,,101,88,35,36,9,8,0.8,0.8
2025-02-15T2300,2446A,114.9028,30.4742,黄冈市,职工中心,细颗粒物(PM2.5),74,81,86,54,63,71,,82,79,22,26,3,5,0.5,0.8
2025-02-15T2300,2929A,114.8858,30.4519,黄冈市,红卫路,细颗粒物(PM2.5),78,86,85,57,63,64,,86,81,30,26,6,7,0.6,0.8
2025-02-15T2300,3398A,114.9136,30.4445,黄冈市,市林业局,细颗粒物(PM2.5),78,83,82,57,61,68,,84,82,21,24,9,10,0.7,0.9
2025-02-15T2300,2672A,102.0199,35.5102,黄南藏族自治州,同仁县隆务镇,颗粒物(PM10),58,66,51,29,24,75,,87,82,2,3,18,17,0.4,0.4
2025-02-15T2300,2295A,118.2903,29.6963,黄山市,延安路89号,,16,16,45,3,44,27,,33,29,11,11,4,4,0.6,0.6
2025-02-15T2300,2297A,118.1371,30.2756,黄山市,黄山区政府5号楼,,38,38,48,23,33,16,,35,25,13,12,7,8,0.5,0.5
2025-02-15T2300,4210A,118.3354,29.7203,黄山市,滨江东路7-2号,,29,29,60,18,50,24,,33,30,14,14,4,4,0.6,0.7
2025-02-15T2300,2423A,115.0601,30.2313,黄石市,沈家营,细颗粒物(PM2.5),75,95,86,55,55,45,,87,69,31,26,7,8,0.8,0.8
2025-02-15T2300,2426A,114.8988,30.2019,黄石市,铁山,细颗粒物(PM2.5),122,113,75,92,65,37,,83,60,24,22,10,12,0.5,0.8
2025-02-15T2300,2427A,115.0307,30.2092,黄石市,团城山,细颗粒物(PM2.5),85,95,81,63,57,56,,78,74,24,22,7,8,0.7,0.8
2025-02-15T2300,3149A,115.0235,30.1578,黄石市,笔架山北路,细颗粒物(PM2.5),92,80,71,68,60,45,,84,78,30,20,15,11,1.1,1
2025-02-15T2300,4185A,115.0780,30.21118,黄石市,磁湖东路29号,细颗粒物(PM2.5),103,115,91,77,66,22,,88,70,45,21,6,9,1.2,1.1
2025-02-15T2300,1392A,114.4183,23.0528,惠州市,河南岸金山湖子站,细颗粒物(PM2.5),63,66,40,45,34,49,,107,93,39,24,8,7,1.0,0.8
2025-02-15T2300,1393A,114.4053,23.0822,惠州市,下埔横江三路子站,细颗粒物(PM2.5),60,60,43,43,34,31,,116,101,56,22,7,7,1.1,0.7
2025-02-15T2300,1394A,114.4103,23.1142,惠州市,江北云山西路子站,细颗粒物(PM2.5),59,63,41,42,33,58,,118,109,33,18,8,7,1.1,1
2025-02-15T2300,1395A,114.4645,22.7833,惠州市,惠阳区承修路船湖子站,,44,44,32,26,21,47,,109,84,33,16,9,9,0.7,0.7
2025-02-15T2300,1396A,114.5317,22.7422,惠州市,大亚湾管委会子站,,28,28,25,19,18,63,,104,87,22,15,7,6,0.7,0.8
2025-02-15T2300,3314A,114.4338,22.8134,惠州市,惠阳秋长,颗粒物(PM10),51,51,41,27,26,43,,126,105,49,19,6,5,0.9,0.7
2025-02-15T2300,3452A,114.6517,22.775,惠州市,大亚湾霞涌,,35,27,24,24,12,29,,95,76,26,13,8,8,0.6,0.6
2025-02-15T2300,2240A,130.9762,45.3001,鸡西市,环保局,,45,45,45,28,28,56,,79,70,26,27,13,12,0.5,0.5
2025-02-15T2300,2243A,130.9429,45.3039,鸡西市,第一中学,,43,43,33,28,23,53,,77,72,30,20,12,7,0.4,0.3
2025-02-15T2300,3707A,131.0207,45.3073,鸡西市,欧美日汽修厂,细颗粒物(PM2.5),65,78,55,47,35,53,,91,77,25,23,19,11,0.9,0.6
2025-02-15T2300,3709A,130.9967,45.3106,鸡西市,市政设施管理处,细颗粒物(PM2.5),54,54,44,38,30,43,,80,69,31,27,18,11,0.8,0.5
2025-02-15T2300,2367A,114.9754,27.0803,吉安市,红声器材厂,,36,34,68,25,48,34,,39,37,21,29,15,15,1.1,0.9
2025-02-15T2300,2368A,114.9658,27.0999,吉安市,市森林工业局,,39,36,63,27,48,32,,42,40,32,38,7,10,0.8,0.7
2025-02-15T2300,2369A,114.99,27.1312,吉安市,市环境监测站,,43,,62,30,47,29,,40,37,26,34,12,15,1.0,0.7
2025-02-15T2300,2370A,115.0093,27.0968,吉安市,青原区法院,,46,36,67,32,52,36,,39,37,26,34,17,15,1.0,0.8
2025-02-15T2300,1772A,126.54,43.8622,吉林市,哈达湾,细颗粒物(PM2.5),74,86,70,54,45,82,,118,95,16,20,8,11,0.8,0.8
2025-02-15T2300,1773A,126.5844,43.8358,吉林市,东局子,"颗粒物(PM10),细颗粒物(PM2.5)",72,94,79,52,40,81,,117,94,15,20,7,9,0.7,0.8
2025-02-15T2300,1774A,126.5052,43.8245,吉林市,电力学院,细颗粒物(PM2.5),79,85,77,58,53,87,,120,98,14,26,4,7,0.6,0.9
2025-02-15T2300,1775A,126.6133,43.8972,吉林市,江北,细颗粒物(PM2.5),84,106,78,62,45,77,,112,90,18,26,8,11,0.8,0.9
2025-02-15T2300,1776A,126.555,43.8306,吉林市,江南公园,细颗粒物(PM2.5),80,85,78,59,53,79,,113,90,17,19,4,7,1.3,0.7
2025-02-15T2300,2868A,126.4739,43.953,吉林市,九站,细颗粒物(PM2.5),89,95,87,66,53,71,,116,88,22,37,6,19,0.7,0.8
2025-02-15T2300,1299A,116.9862,36.6114,济南市,科干所,颗粒物(PM10),71,92,89,51,44,109,,116,114,21,21,14,11,0.6,0.5
2025-02-15T2300,1300A,116.9376,36.665,济南市,农科所,颗粒物(PM10),81,112,103,59,49,67,,102,80,42,29,16,13,1.0,0.8
2025-02-15T2300,1301A,117.1265,36.6734,济南市,开发区,细颗粒物(PM2.5),80,93,84,59,49,97,,107,100,24,19,14,11,1.0,0.9
2025-02-15T2300,1303A,117.0624,36.6868,济南市,省种子仓库,细颗粒物(PM2.5),94,117,99,70,49,58,,105,78,54,27,20,9,1.1,0.7
2025-02-15T2300,1304A,116.9489,36.6447,济南市,机床二厂,细颗粒物(PM2.5),95,112,105,71,56,76,,101,83,42,31,28,20,1.1,0.9
2025-02-15T2300,1305A,117.0495,36.663,济南市,市监测站,细颗粒物(PM2.5),74,95,93,54,49,98,,104,98,25,23,15,12,0.6,0.5
2025-02-15T2300,1306A,116.7675,36.5484,济南市,长清党校,细颗粒物(PM2.5),89,100,107,66,59,78,,116,103,47,27,13,11,0.8,0.7
2025-02-15T2300,1616A,117.6795,36.229,济南市,技术学院,细颗粒物(PM2.5),132,139,123,100,81,57,,106,95,57,55,19,22,1.3,1.2
2025-02-15T2300,1961A,117.532,36.6868,济南市,东山小学,细颗粒物(PM2.5),83,107,98,61,49,93,,107,97,29,24,11,11,0.8,0.7
2025-02-15T2300,3059A,117.7161,36.2049,济南市,泰兴公司,细颗粒物(PM2.5),153,168,132,117,80,9,,101,64,100,63,19,17,1.5,1.3
2025-02-15T2300,3064A,117.6867,36.2171,济南市,莱芜战役纪念馆,细颗粒物(PM2.5),119,153,131,90,78,56,,105,93,62,57,14,16,1.1,1.1
2025-02-15T2300,3494A,117.1673,36.9782,济南市,济阳区政府,细颗粒物(PM2.5),110,139,109,83,54,68,,87,76,35,31,20,16,0.9,0.7
2025-02-15T2300,3495A,117.1171,36.63,济南市,锦屏中学,细颗粒物(PM2.5),77,93,83,56,46,101,,110,102,20,17,13,10,0.9,0.8
2025-02-15T2300,3682A,116.9814,36.6819,济南市,济南四建,,,110,93,66,50,69,,98,76,,23,24,13,0.8,0.4
2025-02-15T2300,1653A,116.6251,35.4302,济宁市,火炬城,颗粒物(PM10),88,126,114,46,62,68,,105,88,32,31,16,16,0.9,0.9
2025-02-15T2300,1655A,116.5491,35.4042,济宁市,电化厂,细颗粒物(PM2.5),128,165,141,97,85,37,,94,70,54,31,20,17,1.1,0.9
2025-02-15T2300,3500A,116.5814,35.3707,济宁市,北湖一中,细颗粒物(PM2.5),107,104,111,80,74,57,,99,84,56,45,19,16,0.9,0.8
2025-02-15T2300,3501A,116.8249,35.5593,济宁市,服务中心,细颗粒物(PM2.5),122,165,139,92,80,23,,98,72,75,38,20,13,1.1,0.9
2025-02-15T2300,3678A,116.5907,35.4054,济宁市,市第七中学,细颗粒物(PM2.5),85,105,107,63,74,74,,102,91,32,31,9,9,0.7,0.7
2025-02-15T2300,2255A,130.2751,46.8028,佳木斯市,佳纺,,21,17,49,14,38,66,,72,66,6,29,4,7,0.3,0.6
2025-02-15T2300,2256A,130.3995,46.8307,佳木斯市,发电厂,,22,15,40,13,33,69,,76,70,3,23,5,7,0.2,0.3
2025-02-15T2300,2257A,130.3258,46.7975,佳木斯市,环保局,,,26,51,24,35,59,,64,60,,29,5,10,0.2,0.5
2025-02-15T2300,2258A,130.3648,46.8032,佳木斯市,十一中,,23,19,43,16,37,60,,64,60,8,33,5,8,0.2,0.4
2025-02-15T2300,2259A,130.3794,46.7588,佳木斯市,四丰,,20,,42,14,25,58,,71,62,12,16,1,1,0.3,0.5
2025-02-15T2300,1252A,120.7436,30.778,嘉兴市,清河小学,细颗粒物(PM2.5),85,91,66,63,44,15,,38,30,46,39,4,4,0.8,0.5
2025-02-15T2300,1253A,120.726,30.7478,嘉兴市,嘉兴学院,细颗粒物(PM2.5),109,103,77,82,57,3,,41,28,55,36,6,6,0.9,0.7
2025-02-15T2300,2872A,120.7846,30.7525,嘉兴市,南湖区残联,细颗粒物(PM2.5),117,95,63,88,61,16,,44,34,46,35,7,7,0.9,0.7
2025-02-15T2300,3407A,120.6916,30.7739,嘉兴市,秀洲住建,,,,55,74,51,5,,39,27,52,39,,5,,0.8
2025-02-15T2300,1945A,98.2908,39.7711,嘉峪关市,气象局,颗粒物(PM10),175,300,206,58,44,54,,87,74,25,9,4,5,0.4,0.4
2025-02-15T2300,2884A,98.2672,39.7978,嘉峪关市,酒钢宾馆,颗粒物(PM10),165,280,215,58,44,77,,86,78,4,7,6,12,0.3,0.6
2025-02-15T2300,3248A,98.2643,39.7724,嘉峪关市,雄关区,颗粒物(PM10),149,247,180,53,42,62,,86,75,23,14,9,8,0.4,0.5
2025-02-15T2300,1383A,113.1064,22.6058,江门市,北街,,29,,25,20,19,58,,84,78,20,16,3,2,0.7,0.6
2025-02-15T2300,1384A,113.0731,22.5835,江门市,西区,,44,44,27,22,19,60,,86,81,27,21,6,5,0.7,0.6
2025-02-15T2300,1385A,113.0219,22.5311,江门市,圭峰西,,29,29,28,16,20,65,,86,82,20,16,6,5,0.8,0.8
2025-02-15T2300,1386A,113.0828,22.5947,江门市,东湖,,36,36,27,23,19,63,,89,81,19,15,8,6,0.6,0.5
2025-02-15T2300,3311A,113.1075,22.5647,江门市,江海富民,,43,38,39,30,25,64,,91,85,20,16,6,5,0.4,0.4
2025-02-15T2300,3449A,113.05,22.4667,江门市,新会银湖,,33,33,25,19,23,47,,85,78,23,15,6,6,0.7,0.7
2025-02-15T2300,3169A,113.2725,35.2067,焦作市,太极体育中心,颗粒物(PM10),57,63,74,18,22,84,,98,93,14,22,10,14,0.6,0.9
2025-02-15T2300,3335A,113.3137,35.2641,焦作市,马村街道办,颗粒物(PM10),59,67,68,26,34,86,,96,92,13,19,8,13,0.5,0.8
2025-02-15T2300,3336A,113.2465,35.2373,焦作市,焦作技师学院,颗粒物(PM10),62,74,75,24,31,82,,95,90,14,24,7,11,0.7,1.1
2025-02-15T2300,3477A,113.1656,35.2539,焦作市,中站许衡医院,颗粒物(PM10),69,88,69,29,33,90,,95,92,12,18,9,13,0.5,1
2025-02-15T2300,3981A,113.2449,35.1803,焦作市,原李万街道办,颗粒物(PM10),64,77,79,17,30,76,,101,92,21,26,12,15,0.7,0.8
2025-02-15T2300,4264A,113.2340,35.2190,焦作市,新安路1731号,颗粒物(PM10),73,95,80,27,36,88,,99,94,15,24,8,14,0.3,0.7
2025-02-15T2300,1708A,116.3701,23.5345,揭阳市,新兴,细颗粒物(PM2.5),99,,65,74,53,57,,116,88,32,29,10,8,1.4,0.9
2025-02-15T2300,1709A,116.3264,23.5443,揭阳市,西马,细颗粒物(PM2.5),73,59,58,53,41,65,,136,101,31,26,17,10,1.4,0.8
2025-02-15T2300,1710A,116.3611,23.5626,揭阳市,东兴,细颗粒物(PM2.5),109,94,72,82,58,48,,129,90,35,25,11,8,1.3,1.1
2025-02-15T2300,1711A,116.4151,23.5294,揭阳市,渔湖,颗粒物(PM10),54,57,59,28,35,61,,125,99,30,26,8,8,0.8,0.8
2025-02-15T2300,3320A,116.403,23.5699,揭阳市,曲溪,颗粒物(PM10),61,71,64,38,44,64,,137,105,35,32,11,13,0.7,0.7
2025-02-15T2300,1944A,102.1692,38.5167,金昌市,天庆家园,颗粒物(PM10),108,165,104,68,31,62,,96,84,24,11,36,16,1.1,0.8
2025-02-15T2300,4022A,102.1647,38.5371,金昌市,金川区人防中心,颗粒物(PM10),118,185,127,66,31,60,,93,85,17,6,18,8,0.7,0.6
2025-02-15T2300,4239A,102.1930,38.5319,金昌市,长春路96号,颗粒物(PM10),104,157,101,48,32,69,,93,87,14,9,31,17,0.6,0.6
2025-02-15T2300,1262A,119.647,29.077,金华市,十五中,细颗粒物(PM2.5),97,88,115,72,89,12,,14,6,56,53,4,4,1.0,0.9
2025-02-15T2300,1263A,119.686,29.1029,金华市,监测站,细颗粒物(PM2.5),85,75,115,63,88,14,,8,5,52,60,4,5,0.8,0.8
2025-02-15T2300,3659A,119.656,29.1131,金华市,气象局,细颗粒物(PM2.5),84,82,119,62,91,11,,6,4,49,53,4,4,0.7,0.8
2025-02-15T2300,1767A,121.1115,41.0879,锦州市,南山,细颗粒物(PM2.5),110,149,108,83,104,47,,64,38,46,66,12,18,0.9,1.1
2025-02-15T2300,1768A,121.0533,40.8434,锦州市,开发区,细颗粒物(PM2.5),130,196,121,99,101,35,,62,40,49,58,42,16,1.4,1.1
2025-02-15T2300,1769A,121.1836,41.1119,锦州市,百股街道,细颗粒物(PM2.5),175,158,119,132,106,20,,61,34,67,60,22,16,1.4,1.3
2025-02-15T2300,1770A,121.1178,41.1222,锦州市,天安街道,颗粒物(PM10),103,155,134,21,114,60,,50,28,15,59,6,14,0.9,1.6
2025-02-15T2300,1771A,121.1303,41.1386,锦州市,北湖公园,颗粒物(PM10),84,118,123,26,107,62,,53,31,14,69,8,16,0.4,1.2
2025-02-15T2300,2160A,112.85,35.5051,晋城市,自来水公司,颗粒物(PM10),58,65,65,24,28,80,,94,87,19,22,10,15,0.5,0.8
2025-02-15T2300,2161A,112.8318,35.4936,晋城市,白云商贸,颗粒物(PM10),53,55,77,12,21,71,,98,88,30,24,7,11,0.8,1
2025-02-15T2300,2162A,112.8508,35.4887,晋城市,市环保局,颗粒物(PM10),64,77,78,19,28,75,,92,85,21,23,11,13,0.5,0.8
2025-02-15T2300,2163A,112.8676,35.4897,晋城市,技术学院,颗粒物(PM10),59,68,70,17,26,87,,98,90,13,23,8,13,0.4,0.8
2025-02-15T2300,3620A,112.8271,35.4828,晋城市,泽州一中,颗粒物(PM10),56,61,68,17,26,78,,94,87,20,19,6,10,0.6,0.9
2025-02-15T2300,2173A,112.7249,37.7067,晋中市,南都小区,颗粒物(PM10),165,279,128,30,44,87,,92,89,13,40,2,23,0.0,0.6
2025-02-15T2300,2174A,112.6991,37.6982,晋中市,榆次区政府,颗粒物(PM10),151,251,133,24,39,86,,94,92,9,34,1,20,0,0.4
2025-02-15T2300,2865A,112.7195,37.6828,晋中市,榆次三中,颗粒物(PM10),172,293,146,31,37,88,,95,93,4,32,3,21,0.4,0.9
2025-02-15T2300,4200A,112.7478,37.6954,晋中市,迎宾街26号,颗粒物(PM10),159,268,137,34,38,89,,94,92,7,36,3,20,0.5,1
2025-02-15T2300,2439A,112.2014,31.0481,荆门市,竹园小学,"颗粒物(PM10),细颗粒物(PM2.5)",67,84,99,48,59,65,,94,84,15,18,5,5,0.7,0.7
2025-02-15T2300,2440A,112.1969,30.9891,荆门市,掇刀,细颗粒物(PM2.5),89,113,108,66,66,34,,92,74,40,23,9,10,0.7,0.6
2025-02-15T2300,2441A,112.2213,31.0386,荆门市,石化一小,细颗粒物(PM2.5),74,91,106,54,63,62,,93,78,22,25,6,8,0.7,0.7
2025-02-15T2300,3012A,112.1849,31.0362,荆门市,西山林语,细颗粒物(PM2.5),67,74,87,48,55,73,,95,85,14,18,5,3,0.3,0.4
2025-02-15T2300,3547A,112.1632,31.0138,荆门市,龙泉中学南校,细颗粒物(PM2.5),87,97,101,64,63,52,,90,75,20,18,9,8,0.9,0.9
2025-02-15T2300,1844A,112.2494,30.3197,荆州市,市图书馆,细颗粒物(PM2.5),83,69,86,61,80,45,,64,62,33,25,5,6,0.7,0.7
2025-02-15T2300,1845A,112.2008,30.3544,荆州市,市委党校,细颗粒物(PM2.5),85,80,95,63,77,31,,58,51,46,29,6,6,0.7,0.7
2025-02-15T2300,3194A,112.2747,30.3122,荆州市,管委会,细颗粒物(PM2.5),90,89,100,67,82,32,,68,63,49,27,7,8,0.7,0.7
2025-02-15T2300,4268A,112.1722,30.3366,荆州市,学苑路85号,细颗粒物(PM2.5),82,77,84,60,69,22,,67,57,55,29,10,9,0.7,0.7
2025-02-15T2300,2343A,117.2117,29.2933,景德镇市,老干部活动中心,细颗粒物(PM2.5),77,65,40,56,42,48,,49,44,13,15,4,5,0.8,0.7
2025-02-15T2300,2344A,117.1894,29.2789,景德镇市,兽医站,细颗粒物(PM2.5),59,61,46,42,27,54,,50,43,10,17,3,5,0.9,0.8
2025-02-15T2300,2345A,117.1547,29.2617,景德镇市,台达陶瓷,细颗粒物(PM2.5),59,56,45,42,32,47,,47,41,24,27,12,18,0.7,1.4
2025-02-15T2300,2346A,117.2461,29.2956,景德镇市,陶研所,,,64,41,,46,41,,40,34,23,25,4,4,0.4,0.4
2025-02-15T2300,1803A,115.9872,29.6815,九江市,十里,细颗粒物(PM2.5),77,86,65,56,42,8,,69,45,52,29,8,7,1.2,0.9
2025-02-15T2300,1804A,115.9584,29.7046,九江市,茅山头,颗粒物(PM10),55,60,60,35,42,8,,71,44,61,29,8,10,0.7,0.9
2025-02-15T2300,1805A,115.9877,29.7295,九江市,西园,细颗粒物(PM2.5),64,71,63,46,45,23,,74,51,52,31,10,11,1.3,1.3
2025-02-15T2300,1808A,115.9114,29.6038,九江市,综合工业园,颗粒物(PM10),51,51,56,32,48,25,,75,49,44,40,4,7,0.8,1
2025-02-15T2300,1809A,116.0721,29.7535,九江市,石化总厂,细颗粒物(PM2.5),60,50,67,43,60,32,,67,57,37,36,11,13,1.0,1.1
2025-02-15T2300,1810A,115.9773,29.5698,九江市,庐山气象台,,35,31,38,24,33,92,,88,88,3,7,7,9,0.7,0.9
2025-02-15T2300,3190A,116.0254,29.6994,九江市,外国语学校,细颗粒物(PM2.5),72,68,62,52,46,23,,76,55,64,37,6,6,1.0,1
2025-02-15T2300,4253A,116.0102,29.6594,九江市,莲花大道8号,细颗粒物(PM2.5),52,51,78,36,58,43,,68,52,7,15,6,8,0.7,1.1
2025-02-15T2300,2658A,98.5061,39.7443,酒泉市,仓门街子站,颗粒物(PM10),165,280,215,45,40,62,,87,78,7,5,8,10,0.2,0.3
2025-02-15T2300,4240A,98.4958,39.7339,酒泉市,玉门东路5号,颗粒物(PM10),168,285,220,54,45,59,,83,75,6,6,6,8,0.4,0.4
2025-02-15T2300,2698A,76.0072,39.4467,喀什地区,巡警大队,颗粒物(PM10),457,557,558,123,131,54,,73,73,43,47,8,8,1.1,2
2025-02-15T2300,2699A,75.9755,39.4694,喀什地区,吾办,颗粒物(PM10),447,547,547,122,136,48,,69,67,44,48,7,8,1.0,1.7
2025-02-15T2300,4027A,75.9483,39.4689,喀什地区,老干局,颗粒物(PM10),472,572,576,87,103,52,,76,76,42,45,7,7,1.2,2.4
2025-02-15T2300,1824A,114.3389,34.7781,开封市,肿瘤医院,颗粒物(PM10),69,87,92,34,44,72,,96,84,21,28,7,8,0.9,0.9
2025-02-15T2300,1826A,114.2885,34.7965,开封市,世纪星幼儿园,颗粒物(PM10),64,78,87,34,50,66,,80,72,28,37,7,6,0.7,0.8
2025-02-15T2300,3147A,114.3438,34.8106,开封市,龙亭公园,颗粒物(PM10),68,86,92,32,44,73,,92,86,26,32,6,6,0.9,0.9
2025-02-15T2300,3210A,114.3644,34.7964,开封市,汴京公园,颗粒物(PM10),59,67,98,26,45,79,,99,90,29,41,7,7,0.3,0.5
2025-02-15T2300,3473A,114.2485,34.8306,开封市,技师学院,颗粒物(PM10),62,73,87,34,40,67,,93,86,32,36,7,7,0.7,0.7
2025-02-15T2300,3592A,114.4644,34.7556,开封市,祥符区生态环境局,颗粒物(PM10),73,95,110,38,59,56,,90,74,35,35,5,6,0.7,0.8
2025-02-15T2300,1951A,84.895,45.6094,克拉玛依市,长征新村,细颗粒物(PM2.5),84,90,90,62,60,90,,101,101,29,32,7,7,0.8,0.8
2025-02-15T2300,1952A,84.8988,45.5893,克拉玛依市,南林小区,细颗粒物(PM2.5),100,103,89,75,69,69,,99,97,31,24,3,3,1.1,0.9
2025-02-15T2300,1954A,84.905,44.3396,克拉玛依市,独山子区,细颗粒物(PM2.5),124,,72,94,74,83,,105,97,32,32,5,5,1.0,1
2025-02-15T2300,1955A,85.6979,46.098,克拉玛依市,乌尔禾区商贸楼,细颗粒物(PM2.5),88,84,90,65,76,68,,101,97,50,50,8,7,1.2,1.5
2025-02-15T2300,3612A,85.1045,45.6899,克拉玛依市,白碱滩区新站,细颗粒物(PM2.5),108,123,97,81,63,54,,88,86,56,33,6,6,1.3,1.2
2025-02-15T2300,2697A,76.1454,39.7142,克孜勒苏柯尔克孜自治州,市人民政府,颗粒物(PM10),420,520,556,121,143,59,,92,87,34,16,5,5,0.8,0.7
2025-02-15T2300,3665A,76.1658,39.7157,克孜勒苏柯尔克孜自治州,克州文化中心,颗粒物(PM10),452,552,568,118,116,63,,86,83,33,18,11,10,0.8,0.6
2025-02-15T2300,1450A,102.8204,24.8886,昆明市,呈贡新区,细颗粒物(PM2.5),84,75,57,62,44,72,,107,93,35,15,13,7,0.9,0.6
2025-02-15T2300,1452A,102.7252,25.0902,昆明市,龙泉镇,细颗粒物(PM2.5),69,72,49,50,36,3,,112,67,84,29,7,8,0.9,0.5
2025-02-15T2300,1453A,102.7266,25.0375,昆明市,东风东路,细颗粒物(PM2.5),77,77,58,56,41,64,,103,84,35,21,8,12,0.7,0.7
2025-02-15T2300,1454A,102.6742,25.0669,昆明市,金鼎山,细颗粒物(PM2.5),94,96,51,70,36,15,,105,79,73,21,10,12,1.0,0.6
2025-02-15T2300,1455A,102.6644,25.0401,昆明市,碧鸡广场,细颗粒物(PM2.5),102,102,55,76,41,12,,107,74,80,24,8,11,1.0,0.6
2025-02-15T2300,3179A,102.7494,25.0119,昆明市,官渡区博物馆,细颗粒物(PM2.5),69,63,50,50,36,64,,110,93,36,20,9,11,0.7,0.6
2025-02-15T2300,3375A,102.8017,24.8336,昆明市,青年创业园,细颗粒物(PM2.5),72,76,54,52,39,73,,118,103,32,10,16,8,0.8,0.6
2025-02-15T2300,3550A,102.7997,24.9786,昆明市,昆明学院,细颗粒物(PM2.5),80,85,57,59,39,81,,114,104,29,14,6,7,0.6,0.5
2025-02-15T2300,3551A,102.5967,24.6736,昆明市,晋宁区生态环境分局,细颗粒物(PM2.5),100,118,56,75,41,65,,116,98,26,9,7,6,0.7,0.4
2025-02-15T2300,3552A,102.6678,24.9856,昆明市,云天化总部,细颗粒物(PM2.5),65,63,51,47,36,79,,120,110,22,11,8,11,0.5,0.4
2025-02-15T2300,1456A,91.1319,29.6514,拉萨市,八廓街,,32,32,28,14,11,94,,100,94,7,9,7,6,0.4,0.4
2025-02-15T2300,1457A,91.1221,29.6747,拉萨市,市环保局,颗粒物(PM10),51,51,29,16,11,81,,92,79,16,17,5,5,0.5,0.5
2025-02-15T2300,1458A,91.0874,29.6475,拉萨市,区监测站,,40,40,26,9,8,92,,96,90,8,14,6,6,0.4,0.5
2025-02-15T2300,1459A,91.1774,29.6541,拉萨市,西藏大学,,33,33,31,11,8,89,,95,90,8,9,6,5,0.4,0.4
2025-02-15T2300,1460A,90.9798,29.6588,拉萨市,区辐射站,,35,35,35,7,14,100,,105,103,9,20,7,7,0.6,0.7
2025-02-15T2300,1461A,91.0834,29.6292,拉萨市,拉萨火车站,,31,31,27,8,10,87,,101,96,14,11,4,4,0.2,0.3
2025-02-15T2300,2520A,109.2203,23.7256,来宾市,来宾技工学校,,32,25,40,22,34,48,,54,50,11,14,6,6,0.9,1.1
2025-02-15T2300,3535A,109.1781,23.7297,来宾市,兴宾区政府,,30,30,52,21,42,37,,48,44,15,14,6,6,0.8,0.9
2025-02-15T2300,4002A,109.2416,23.7461,来宾市,中南小学,,36,28,42,25,32,41,,47,42,10,14,6,6,0.8,1
2025-02-15T2300,1479A,103.831,36.0464,兰州市,铁路设计院,颗粒物(PM10),69,88,71,47,43,66,,82,78,40,54,7,14,0.6,1.1
2025-02-15T2300,3241A,103.7439,36.0842,兰州市,百合公园,颗粒物(PM10),60,69,61,30,32,76,,80,78,15,38,3,10,0.4,0.7
2025-02-15T2300,3242A,103.9611,35.998,兰州市,和平,颗粒物(PM10),74,97,77,36,34,54,,91,81,35,32,13,18,0.6,0.9
2025-02-15T2300,4236A,103.6293,36.0938,兰州市,庄浪东路808号,颗粒物(PM10),69,88,66,43,35,40,,89,72,53,36,7,20,0.7,0.7
2025-02-15T2300,4237A,103.7251,36.1043,兰州市,安宁西路88号,颗粒物(PM10),70,89,67,40,34,82,,97,95,19,35,17,21,0.4,0.6
2025-02-15T2300,4238A,103.8470,36.0676,兰州市,北滨河东路1号,"颗粒物(PM10),细颗粒物(PM2.5)",68,86,63,49,37,54,,87,78,50,49,10,14,0.6,0.8
2025-02-15T2300,3245A,103.6633,36.533,兰州新区,新区管委会,颗粒物(PM10),80,109,55,40,28,65,,97,91,14,11,15,16,0.4,0.3
2025-02-15T2300,3246A,103.6975,36.4789,兰州新区,舟曲中学,颗粒物(PM10),92,134,56,34,23,81,,91,88,7,15,2,12,0.1,0.3
2025-02-15T2300,1067A,116.6708,39.5111,廊坊市,药材公司,颗粒物(PM10),81,112,157,28,87,60,,68,60,24,57,4,11,0.4,1
2025-02-15T2300,1068A,116.7214,39.5589,廊坊市,开发区,颗粒物(PM10),82,113,145,31,86,49,,66,49,32,56,4,8,0.4,0.8
2025-02-15T2300,1070A,116.7244,39.5269,廊坊市,北华航天学院,颗粒物(PM10),83,116,152,20,80,59,,69,53,24,60,5,11,0.3,0.9
2025-02-15T2300,2919A,116.7022,39.5453,廊坊市,河北工业大学,颗粒物(PM10),79,107,143,27,82,57,,69,58,25,59,6,12,0.3,0.8
2025-02-15T2300,2535A,103.7723,29.5462,乐山市,花湖湾,细颗粒物(PM2.5),75,67,62,55,47,54,,92,81,22,17,5,6,0.6,0.5
2025-02-15T2300,2536A,103.7627,29.5844,乐山市,牛耳桥,细颗粒物(PM2.5),77,72,66,56,48,47,,82,68,27,24,6,6,0.6,0.5
2025-02-15T2300,2537A,103.7508,29.6006,乐山市,市第三水厂,细颗粒物(PM2.5),74,74,62,54,42,56,,86,73,15,26,4,4,0.6,0.5
2025-02-15T2300,2538A,103.7571,29.5664,乐山市,市监测站,细颗粒物(PM2.5),57,62,58,40,36,51,,81,70,19,19,6,5,0.8,0.7
2025-02-15T2300,3361A,103.7311,29.5628,乐山市,理工大学,细颗粒物(PM2.5),73,65,59,53,43,55,,90,78,20,18,5,5,0.6,0.5
2025-02-15T2300,2599A,100.2497,26.8802,丽江市,丽江古城,,33,24,18,23,16,62,,86,79,19,9,8,8,0.7,0.6
2025-02-15T2300,2600A,100.2203,26.8906,丽江市,市中心,,,24,14,24,11,65,,83,78,,9,10,10,0.6,0.6
2025-02-15T2300,1267A,119.914,28.4514,丽水市,监测站大楼,细颗粒物(PM2.5),58,,40,41,38,26,,56,32,22,22,3,4,0.9,0.5
2025-02-15T2300,1268A,119.93,28.4586,丽水市,莲都小学,细颗粒物(PM2.5),53,47,46,37,30,27,,58,34,24,27,5,5,0.8,0.5
2025-02-15T2300,1269A,119.879,28.4231,丽水市,余庄前,细颗粒物(PM2.5),59,51,45,42,32,22,,55,24,20,21,4,4,0.9,0.7
2025-02-15T2300,1173A,119.176,34.5885,连云港市,市环境监测站,细颗粒物(PM2.5),92,110,102,68,70,77,,108,99,23,28,10,9,0.6,0.6
2025-02-15T2300,3000A,119.3581,34.6972,连云港市,德源药业,细颗粒物(PM2.5),85,105,105,63,71,24,,102,76,67,46,6,7,0.6,0.7
2025-02-15T2300,3007A,119.178,34.844,连云港市,新城一中,细颗粒物(PM2.5),108,104,105,81,86,62,,103,89,37,39,10,11,0.8,0.8
2025-02-15T2300,3008A,119.3608,34.7519,连云港市,胡沟管理处,细颗粒物(PM2.5),79,80,82,58,61,47,,105,89,67,35,7,7,0.8,0.9
2025-02-15T2300,3009A,119.1478,34.5911,连云港市,矿山设计院,细颗粒物(PM2.5),94,127,111,70,69,83,,112,102,25,31,7,6,0.9,1
2025-02-15T2300,3434A,119.2413,34.6539,连云港市,工贸学校,细颗粒物(PM2.5),92,99,111,68,80,86,,109,102,22,31,10,11,0.7,0.7
2025-02-15T2300,3664A,119.4172,34.7341,连云港市,连云街道,细颗粒物(PM2.5),77,85,102,56,70,112,,110,110,16,28,8,12,0.5,0.7
2025-02-15T2300,2571A,102.3431,27.8099,凉山彝族自治州,青龙寺,,37,37,29,9,7,51,,97,85,24,8,3,4,0.8,0.9
2025-02-15T2300,2572A,102.2721,27.8415,凉山彝族自治州,邛海宾馆,,35,35,31,19,15,72,,95,88,13,8,6,6,0.5,0.6
2025-02-15T2300,2573A,102.2625,27.898,凉山彝族自治州,西昌市政府,,32,29,26,22,19,71,,90,85,8,10,5,8,0.4,0.6
2025-02-15T2300,2574A,102.2685,27.8851,凉山彝族自治州,凉山州政府,,32,32,25,21,18,66,,94,87,14,11,5,8,0.4,0.5
2025-02-15T2300,2575A,102.237,27.8914,凉山彝族自治州,长安,,34,34,25,20,16,77,,97,92,11,11,10,12,0.6,0.6
2025-02-15T2300,2212A,123.2,41.1953,辽阳市,宏伟区,细颗粒物(PM2.5),109,,73,82,66,100,,106,105,14,12,14,13,0.5,0.5
2025-02-15T2300,2213A,123.1683,41.2495,辽阳市,新华园,细颗粒物(PM2.5),127,101,82,96,70,61,,86,80,33,21,8,10,1.3,1.1
2025-02-15T2300,2214A,123.2354,41.2639,辽阳市,滨河路,细颗粒物(PM2.5),115,,76,87,73,92,,96,96,20,18,10,13,1.0,1
2025-02-15T2300,2215A,123.149,41.2991,辽阳市,铁西工业园,细颗粒物(PM2.5),125,106,90,95,71,18,,92,78,72,23,5,7,1.0,0.8
2025-02-15T2300,2227A,125.1358,42.8845,辽源市,环保局,细颗粒物(PM2.5),83,99,81,61,45,69,,118,91,18,30,11,13,1.1,1.3
2025-02-15T2300,3239A,125.0764,42.9078,辽源市,银鹰制药,细颗粒物(PM2.5),130,110,84,99,62,64,,122,83,19,33,10,11,1.2,1.2
2025-02-15T2300,1625A,115.9848,36.4372,聊城市,区政府,细颗粒物(PM2.5),97,132,116,72,64,20,,94,64,77,40,19,20,1.5,1.1
2025-02-15T2300,2878A,116.0072,36.4343,聊城市,聊大东校,细颗粒物(PM2.5),104,136,123,78,72,49,,99,84,49,34,14,17,1.0,0.8
2025-02-15T2300,3200A,115.9819,36.4978,聊城市,监控中心,细颗粒物(PM2.5),85,118,121,63,68,34,,91,61,71,43,18,19,0.9,1
2025-02-15T2300,3513A,116.0445,36.4361,聊城市,九州社区,细颗粒物(PM2.5),125,138,113,95,69,51,,104,88,51,34,19,18,0.9,0.8
2025-02-15T2300,4018A,116.0567,36.4608,聊城市,星美广场,细颗粒物(PM2.5),99,120,119,74,68,64,,96,83,33,32,20,21,1.1,1
2025-02-15T2300,2632A,94.3681,29.6376,林芝市,林芝监测站,,35,16,10,11,7,111,,110,110,2,2,6,6,0.5,0.5
2025-02-15T2300,2633A,94.3616,29.6616,林芝市,林芝人民医院,,34,23,14,10,7,106,,106,106,1,2,6,6,0.5,0.4
2025-02-15T2300,2603A,100.0781,23.8982,临沧市,市环保局,细颗粒物(PM2.5),105,,62,79,47,70,,118,102,18,14,10,9,0.7,0.6
2025-02-15T2300,2604A,100.0894,23.8822,临沧市,市气象局,细颗粒物(PM2.5),68,57,56,49,44,82,,114,102,11,14,13,9,0.5,0.5
2025-02-15T2300,1733A,111.5531,36.0783,临汾市,临钢医院,颗粒物(PM10),87,123,106,36,49,17,,76,64,48,36,4,8,0.8,1.4
2025-02-15T2300,1734A,111.5028,36.0714,临汾市,技工学校,颗粒物(PM10),59,68,102,27,63,35,,74,58,37,41,6,13,0.6,1.3
2025-02-15T2300,1736A,111.5018,36.0855,临汾市,市委,颗粒物(PM10),76,102,115,45,57,23,,84,74,55,45,4,11,0.7,1.3
2025-02-15T2300,3018A,111.505,36.1014,临汾市,唐尧大酒店,颗粒物(PM10),77,104,110,24,56,16,,78,64,61,43,4,12,0.7,1.3
2025-02-15T2300,4244A,111.4879,36.0530,临汾市,启星学校,颗粒物(PM10),65,80,98,42,64,23,,77,62,46,40,6,9,0.7,1.2
2025-02-15T2300,2667A,103.2069,35.5993,临夏回族自治州,环保局,细颗粒物(PM2.5),107,160,97,80,20,28,,76,65,33,19,7,10,1.7,1.1
2025-02-15T2300,2668A,103.2417,35.6057,临夏回族自治州,建设大厦,颗粒物(PM10),87,124,68,30,22,15,,90,60,46,16,3,3,1.8,1
2025-02-15T2300,1618A,118.3429,35.0532,临沂市,沂河小区,细颗粒物(PM2.5),115,149,122,87,86,42,,105,85,65,40,28,23,1.2,0.9
2025-02-15T2300,1619A,118.295,35.0583,临沂市,鲁南制药厂,细颗粒物(PM2.5),112,146,128,84,89,55,,109,88,57,45,27,22,1.0,0.9
2025-02-15T2300,1620A,118.2794,34.9976,临沂市,新光毛纺厂,细颗粒物(PM2.5),114,144,119,86,87,42,,109,84,68,51,32,23,1.1,1
2025-02-15T2300,1621A,118.3956,35.0888,临沂市,河东保险公司,细颗粒物(PM2.5),104,127,115,78,80,78,,118,106,46,46,16,16,1.0,0.9
2025-02-15T2300,3370A,118.3564,35.0215,临沂市,十里堡居委,细颗粒物(PM2.5),132,149,123,100,86,37,,108,85,60,45,48,28,1.0,0.8
2025-02-15T2300,3496A,118.3604,35.1084,临沂市,南坊新区,细颗粒物(PM2.5),107,129,117,80,80,87,,114,104,37,41,14,15,0.8,0.8
2025-02-15T2300,3860A,118.3920,35.0300,临沂市,皇山花园小区,细颗粒物(PM2.5),112,134,119,84,79,57,,112,96,52,51,23,21,1.0,1
2025-02-15T2300,1870A,109.4856,24.3895,柳州市,柳东小学,,22,22,21,15,26,33,,40,36,13,13,9,10,0.7,0.8
2025-02-15T2300,1871A,109.4157,24.3277,柳州市,环保监测站,,26,22,27,18,25,40,,41,40,13,17,9,11,0.6,0.9
2025-02-15T2300,1872A,109.389,24.341,柳州市,河西水厂,,26,20,27,18,18,33,,38,36,19,13,6,5,1.5,1.1
2025-02-15T2300,1873A,109.4311,24.2921,柳州市,市四中,,19,17,23,13,21,39,,44,41,12,15,8,9,0.5,0.8
2025-02-15T2300,1874A,109.4006,24.3631,柳州市,市九中,,,,29,,26,,,41,,,19,,13,,1.5
2025-02-15T2300,1875A,109.4958,24.3134,柳州市,古亭山,,25,,18,17,18,32,,42,35,10,9,7,7,0.6,0.7
2025-02-15T2300,3402A,109.5422,24.3996,柳州市,市二中,,38,,20,26,18,18,,31,28,13,13,9,9,0.9,0.8
2025-02-15T2300,2307A,116.5079,31.737,六安市,监测大楼,细颗粒物(PM2.5),88,80,78,65,60,75,,108,93,35,28,8,6,0.7,0.8
2025-02-15T2300,2308A,116.4738,31.7643,六安市,皖西学院,细颗粒物(PM2.5),93,103,85,69,59,19,,108,84,83,32,5,5,1.0,0.8
2025-02-15T2300,2309A,116.4996,31.7905,六安市,朝阳厂,细颗粒物(PM2.5),90,93,78,67,59,47,,106,87,68,32,6,4,1.1,0.8
2025-02-15T2300,2310A,116.5567,31.7886,六安市,开发区,细颗粒物(PM2.5),90,117,97,67,63,32,,100,60,57,34,4,5,0.7,0.7
2025-02-15T2300,2577A,104.83,26.5917,六盘水市,黄土坡,细颗粒物(PM2.5),59,55,42,42,29,42,,56,50,21,16,13,12,0.7,0.7
2025-02-15T2300,2578A,104.89,26.5939,六盘水市,水钢,细颗粒物(PM2.5),73,56,55,53,41,46,,51,51,16,21,9,11,0.5,0.6
2025-02-15T2300,2579A,104.8475,26.5894,六盘水市,民中,细颗粒物(PM2.5),58,54,36,41,28,38,,53,46,22,17,12,11,0.7,0.6
2025-02-15T2300,2580A,104.9544,26.5506,六盘水市,双水,细颗粒物(PM2.5),54,,33,38,25,48,,63,51,15,12,12,10,0.6,0.6
2025-02-15T2300,2336A,117.0217,25.1033,龙岩市,龙岩市监测站,,40,32,29,28,22,46,,81,65,18,19,10,6,0.7,0.7
2025-02-15T2300,2337A,117.0258,25.0661,龙岩市,闽西职业技术学院,,50,50,34,21,21,20,,80,54,34,16,6,3,0.6,0.6
2025-02-15T2300,2338A,117.0196,25.0306,龙岩市,龙岩学院,,35,31,26,24,20,35,,84,67,16,9,1,3,0.5,0.5
2025-02-15T2300,2885A,104.9339,33.3826,陇南市,滨江中学,颗粒物(PM10),55,60,59,29,30,57,,73,71,22,22,9,23,1.1,1.1
2025-02-15T2300,3247A,104.955,33.371,陇南市,市总工会,,41,41,60,25,29,65,,75,74,13,18,6,12,0.8,0.9
2025-02-15T2300,2487A,111.9589,27.8901,娄底市,电视发射台,,26,26,29,18,25,20,,58,44,9,12,5,5,0.6,0.7
2025-02-15T2300,2488A,111.9975,27.725,娄底市,市监测站,细颗粒物(PM2.5),64,56,46,46,36,36,,61,55,19,19,12,10,0.9,1.2
2025-02-15T2300,2489A,112.0194,27.7314,娄底市,市委党校,,46,44,48,32,37,42,,62,57,18,24,3,4,0.6,0.9
2025-02-15T2300,2490A,111.9561,27.7569,娄底市,涟钢,颗粒物(PM10),53,55,46,33,35,14,,62,50,41,16,12,11,0.7,0.7
2025-02-15T2300,2491A,111.9892,27.7044,娄底市,市政府,细颗粒物(PM2.5),58,47,47,41,40,36,,59,53,22,18,8,7,0.4,0.7
2025-02-15T2300,1894A,105.4427,28.9063,泸州市,小市上码头,细颗粒物(PM2.5),87,102,71,64,43,30,,75,65,44,25,5,6,0.6,0.5
2025-02-15T2300,1895A,105.4241,28.8573,泸州市,兰田宪桥,颗粒物(PM10),57,64,62,39,40,24,,66,54,42,21,3,3,0.8,0.6
2025-02-15T2300,1896A,105.4379,28.8833,泸州市,市环监站,细颗粒物(PM2.5),68,79,68,49,40,23,,64,55,47,22,5,6,0.6,0.4
2025-02-15T2300,3490A,105.3617,28.7703,泸州市,纳溪区环保局,颗粒物(PM10),65,80,66,42,44,3,,67,50,42,18,6,6,1.0,0.7
2025-02-15T2300,2183A,111.1406,37.5211,吕梁市,环保局,颗粒物(PM10),108,165,112,34,25,82,,81,79,5,32,2,6,0.2,0.5
2025-02-15T2300,2185A,111.1297,37.5136,吕梁市,自来水公司,颗粒物(PM10),103,156,106,26,28,84,,86,84,6,27,1,7,0.3,0.5
2025-02-15T2300,2867A,111.1283,37.51,吕梁市,马茂庄小学,颗粒物(PM10),112,174,111,23,26,88,,83,79,6,32,2,9,0.0,0.3
2025-02-15T2300,1812A,112.3931,34.6516,洛阳市,市委党校,颗粒物(PM10),65,79,82,33,37,52,,88,77,38,28,6,8,0.5,0.5
2025-02-15T2300,1815A,112.494,34.6886,洛阳市,河南林校,细颗粒物(PM2.5),70,77,85,51,53,65,,95,82,34,36,4,6,0.6,0.7
2025-02-15T2300,1816A,112.3844,34.623,洛阳市,开发区管委会,颗粒物(PM10),61,72,85,39,50,87,,95,90,17,22,6,7,0.5,0.6
2025-02-15T2300,1817A,112.4267,34.6258,洛阳市,市委新办公区,颗粒物(PM10),62,74,82,36,46,93,,99,95,18,23,5,6,0.5,0.6
2025-02-15T2300,3340A,112.6005,34.6326,洛阳市,伊滨,细颗粒物(PM2.5),67,76,88,48,53,76,,98,92,21,17,5,6,0.7,0.7
2025-02-15T2300,3341A,112.4951,34.6332,洛阳市,中移产业园,颗粒物(PM10),60,70,72,40,43,75,,98,92,35,32,8,7,0.5,0.5
2025-02-15T2300,3593A,112.5736,34.8993,洛阳市,吉利监测站,颗粒物(PM10),61,72,67,29,41,32,,100,88,58,26,7,7,0.5,0.5
2025-02-15T2300,3635A,112.3677,34.662,洛阳市,河科大西苑校区,颗粒物(PM10),68,85,87,43,46,50,,95,82,39,22,15,11,0.6,0.7
2025-02-15T2300,3636A,112.4388,34.6781,洛阳市,英才小学,颗粒物(PM10),61,72,88,40,46,71,,96,88,32,34,6,8,0.4,0.5
2025-02-15T2300,4214A,112.4600,34.6949,洛阳市,春都路1号院,颗粒物(PM10),71,92,102,43,46,66,,93,84,40,38,8,10,0.5,0.8
2025-02-15T2300,2399A,114.051,33.5699,漯河市,三五一五工厂,细颗粒物(PM2.5),85,93,98,63,62,74,,96,90,20,18,5,6,0.5,0.5
2025-02-15T2300,2400A,114.0055,33.5698,漯河市,漯河大学,细颗粒物(PM2.5),83,101,99,61,57,60,,96,86,29,22,6,7,0.4,0.4
2025-02-15T2300,2401A,114.0138,33.5828,漯河市,市水利局,细颗粒物(PM2.5),73,90,95,53,54,75,,96,89,19,17,4,6,0.4,0.5
2025-02-15T2300,2402A,114.0261,33.5698,漯河市,市广电局,细颗粒物(PM2.5),78,93,96,57,57,75,,99,93,20,18,6,7,0.5,0.5
2025-02-15T2300,3478A,113.9749,33.5664,漯河市,市图书馆,细颗粒物(PM2.5),89,101,106,66,61,71,,96,88,18,16,5,5,0.6,0.6
2025-02-15T2300,4250A,114.0892,33.5882,漯河市,韶山路11号,细颗粒物(PM2.5),85,108,108,63,62,72,,91,83,18,17,7,8,0.5,0.5
2025-02-15T2300,1798A,118.5092,31.6837,马鞍山市,湖东路四小,细颗粒物(PM2.5),112,142,117,84,79,20,,71,53,57,46,13,11,1.2,1
2025-02-15T2300,1799A,118.5024,31.6449,马鞍山市,开发区,细颗粒物(PM2.5),132,136,114,100,92,6,,72,42,69,47,9,7,1.1,0.7
2025-02-15T2300,1802A,118.6245,31.7241,马鞍山市,濮塘,细颗粒物(PM2.5),144,131,110,110,90,18,,80,59,74,52,6,9,1.4,1
2025-02-15T2300,3633A,118.4918,31.6809,马鞍山市,雨山,细颗粒物(PM2.5),125,138,124,95,91,16,,69,43,56,43,8,8,1.1,0.9
2025-02-15T2300,4191A,118.5274,31.72227,马鞍山市,慈湖高新区,细颗粒物(PM2.5),132,123,119,100,96,22,,65,44,56,49,11,11,1.0,0.9
2025-02-15T2300,1686A,111.0286,21.4688,茂名市,电白南海,,24,24,26,14,12,74,,80,78,8,10,3,3,0.7,0.7
2025-02-15T2300,1687A,110.9294,21.6533,茂名市,茂石化七小,,42,39,27,29,19,48,,78,71,16,10,1,1,0.6,0.6
2025-02-15T2300,1688A,110.9107,21.6687,茂名市,健康路,,41,41,24,27,19,44,,78,69,16,9,3,2,0.9,0.8
2025-02-15T2300,1689A,110.8592,21.6828,茂名市,高岭,,39,39,35,24,16,39,,71,63,19,13,3,17,0.8,0.8
2025-02-15T2300,3450A,111.01,21.5165,茂名市,电白水东,,29,29,20,9,11,73,,79,78,7,5,8,3,0.6,0.6
2025-02-15T2300,2539A,104.0308,30.0478,眉山市,黑龙滩水库,细颗粒物(PM2.5),64,55,44,46,36,57,,84,73,6,6,3,3,0.5,0.5
2025-02-15T2300,2540A,103.8416,30.0874,眉山市,气象局,细颗粒物(PM2.5),73,77,62,53,43,35,,88,72,32,22,5,6,0.5,0.5
2025-02-15T2300,3137A,103.8578,30.0744,眉山市,市委党校,细颗粒物(PM2.5),64,56,50,46,34,43,,83,69,27,25,6,7,0.5,0.5
2025-02-15T2300,3148A,103.8291,30.0564,眉山市,区人社局,细颗粒物(PM2.5),62,,44,44,37,43,,83,68,31,24,6,8,0.6,0.5
2025-02-15T2300,1690A,116.1231,24.3284,梅州市,梅江月梅,,41,41,29,21,25,26,,92,66,37,19,9,8,0.7,0.6
2025-02-15T2300,1691A,116.0797,24.2719,梅州市,梅县新城,,38,33,34,26,27,24,,90,59,37,22,5,5,0.6,0.6
2025-02-15T2300,1692A,116.1248,24.2654,梅州市,环境监控中心,,33,,32,23,29,57,,82,63,16,24,7,8,0.5,0.6
2025-02-15T2300,3315A,116.1233,24.2991,梅州市,梅龙,,48,48,37,27,27,18,,92,54,48,28,6,8,1.1,0.8
2025-02-15T2300,1878A,104.7778,31.4741,绵阳市,富乐山,,49,45,46,34,34,32,,69,56,34,23,2,2,0.8,0.7
2025-02-15T2300,1880A,104.6697,31.4668,绵阳市,高新区自来水公司,细颗粒物(PM2.5),64,74,63,46,35,14,,67,51,46,27,3,3,0.7,0.5
2025-02-15T2300,1881A,104.7287,31.5075,绵阳市,三水厂,细颗粒物(PM2.5),63,68,60,45,40,7,,74,50,62,33,7,6,1.1,0.9
2025-02-15T2300,3491A,104.69,31.5322,绵阳市,西科大附属小学,细颗粒物(PM2.5),59,62,61,42,36,16,,67,53,56,35,6,6,0.9,0.9
2025-02-15T2300,3492A,104.5648,31.5343,绵阳市,安州区旅游局,细颗粒物(PM2.5),70,76,58,51,41,15,,68,50,41,28,7,9,0.9,0.7
2025-02-15T2300,4226A,104.7651,31.4531,绵阳市,绵阳市气象局,细颗粒物(PM2.5),62,70,60,44,35,24,,65,52,47,25,6,5,0.7,0.6
2025-02-15T2300,1784A,129.61,44.561,牡丹江市,环保大楼,细颗粒物(PM2.5),80,83,86,59,50,40,,54,26,39,47,14,13,0.9,1
2025-02-15T2300,1785A,129.6115,44.5782,牡丹江市,文化广场,颗粒物(PM10),90,129,103,63,57,33,,56,24,46,53,17,17,1.1,1.3
2025-02-15T2300,1786A,129.5904,44.5963,牡丹江市,第一医院,细颗粒物(PM2.5),104,92,74,78,58,45,,58,45,34,37,12,14,1.3,1
2025-02-15T2300,1787A,129.6364,44.6075,牡丹江市,机车工厂,细颗粒物(PM2.5),87,110,103,64,56,18,,58,32,39,38,12,15,1.1,1
2025-02-15T2300,1788A,129.6386,44.5462,牡丹江市,第一中学,颗粒物(PM10),67,84,58,47,37,35,,66,28,46,41,13,12,1.3,1
2025-02-15T2300,2531A,105.0703,29.61,内江市,市监测站,细颗粒物(PM2.5),70,,36,51,44,26,,62,47,34,28,6,6,0.7,0.7
2025-02-15T2300,2532A,105.0717,29.5947,内江市,东兴区政府,细颗粒物(PM2.5),55,51,39,39,33,28,,67,54,41,26,5,5,0.8,0.7
2025-02-15T2300,2533A,105.0653,29.5817,内江市,内江二中,颗粒物(PM10),61,72,48,42,37,38,,71,59,28,23,7,7,0.8,0.8
2025-02-15T2300,2534A,105.0406,29.5822,内江市,内江日报社,细颗粒物(PM2.5),59,45,49,42,41,34,,67,51,38,30,8,8,0.6,0.6
2025-02-15T2300,2628A,92.0657,31.4846,那曲市,那曲监测站,"颗粒物(PM10),细颗粒物(PM2.5)",53,55,31,37,17,53,,81,72,20,12,11,9,1.0,0.8
2025-02-15T2300,3128A,92.0506,31.4797,那曲市,那曲会议中心,颗粒物(PM10),53,56,26,34,10,61,,100,93,25,5,8,3,1.2,0.5
2025-02-15T2300,1290A,115.8931,28.6843,南昌市,省外办,细颗粒物(PM2.5),52,36,38,36,36,33,,52,37,24,22,4,4,0.5,0.4
2025-02-15T2300,1291A,115.8886,28.7003,南昌市,省林业公司,细颗粒物(PM2.5),52,,31,36,32,23,,42,25,24,22,6,6,0.4,0.4
2025-02-15T2300,1292A,115.8126,28.7442,南昌市,林科所,,35,27,28,24,25,13,,41,16,38,26,5,5,0.8,0.7
2025-02-15T2300,1294A,115.8518,28.687,南昌市,建工学校,细颗粒物(PM2.5),55,,30,39,31,18,,48,26,36,28,7,7,0.9,0.8
2025-02-15T2300,1295A,115.8921,28.6424,南昌市,象湖,细颗粒物(PM2.5),52,,26,36,30,16,,55,26,36,26,6,5,0.9,0.8
2025-02-15T2300,1296A,115.7423,28.7996,南昌市,武术学校,,26,,19,18,14,19,,51,21,12,13,3,3,0.6,0.6
2025-02-15T2300,3046A,115.9084,28.6062,南昌市,机电学校,细颗粒物(PM2.5),55,53,36,39,31,18,,50,24,28,24,6,6,0.9,0.8
2025-02-15T2300,3690A,115.9721,28.7031,南昌市,外国语学校,,43,36,39,30,30,20,,43,22,32,25,2,2,0.4,0.5
2025-02-15T2300,4192A,115.9316,28.68677,南昌市,南京东路235号,细颗粒物(PM2.5),52,42,35,36,35,27,,52,23,34,27,5,4,0.9,0.7
2025-02-15T2300,1905A,106.056,30.8064,南充市,西山风景区,,49,35,30,34,28,61,,63,62,5,9,3,3,0.6,0.6
2025-02-15T2300,1906A,106.0789,30.8023,南充市,南充市委,细颗粒物(PM2.5),58,54,43,41,34,7,,59,40,42,24,3,3,0.9,0.7
2025-02-15T2300,1907A,106.1031,30.8217,南充市,南充炼油厂,细颗粒物(PM2.5),64,53,46,46,37,19,,54,42,36,24,3,4,0.9,0.8
2025-02-15T2300,1909A,106.0642,30.7636,南充市,嘉陵区环保局,细颗粒物(PM2.5),55,58,50,39,32,2,,53,33,55,26,4,4,1.1,0.9
2025-02-15T2300,1910A,106.1087,30.8388,南充市,市环境监测站,细颗粒物(PM2.5),60,57,48,43,37,12,,50,35,47,28,6,6,0.7,0.6
2025-02-15T2300,4227A,106.1083,30.7884,南充市,梨树横街98号,细颗粒物(PM2.5),65,57,46,47,34,3,,55,42,59,27,6,5,1.3,0.8
2025-02-15T2300,1151A,118.8086,32.1065,南京市,迈皋桥,细颗粒物(PM2.5),104,110,93,78,63,21,,88,63,66,40,4,4,0.9,0.7
2025-02-15T2300,1152A,118.7538,32.0551,南京市,草场门,细颗粒物(PM2.5),100,105,93,75,68,12,,75,54,76,42,8,7,0.9,0.8
2025-02-15T2300,1153A,118.7794,32.0745,南京市,山西路,细颗粒物(PM2.5),117,132,107,88,74,37,,93,74,50,31,5,4,0.7,0.7
2025-02-15T2300,1154A,118.7752,32.0023,南京市,中华门,细颗粒物(PM2.5),110,112,97,83,69,41,,78,64,42,38,3,4,0.7,0.7
2025-02-15T2300,1155A,118.8109,32.0309,南京市,瑞金路,细颗粒物(PM2.5),113,122,102,85,71,22,,78,58,61,41,6,7,0.9,0.8
2025-02-15T2300,1156A,118.7997,32.0754,南京市,玄武湖,细颗粒物(PM2.5),117,123,98,88,69,28,,87,66,43,32,8,8,0.8,0.7
2025-02-15T2300,1157A,118.6414,32.0931,南京市,浦口,细颗粒物(PM2.5),100,125,103,75,65,56,,81,66,26,39,6,7,0.7,0.6
2025-02-15T2300,1158A,118.7356,31.9996,南京市,奥体中心,细颗粒物(PM2.5),119,126,106,90,72,31,,81,61,59,46,8,7,0.9,0.7
2025-02-15T2300,1159A,118.9125,32.1028,南京市,仙林大学城,细颗粒物(PM2.5),117,119,95,88,71,36,,79,62,51,43,9,10,1.1,0.9
2025-02-15T2300,3422A,118.8436,31.9198,南京市,江宁彩虹桥,细颗粒物(PM2.5),125,136,109,95,66,16,,79,52,44,35,4,6,1.0,0.9
2025-02-15T2300,3423A,119.0138,31.6494,南京市,溧水永阳,细颗粒物(PM2.5),138,105,92,105,91,22,,50,40,34,37,4,5,1.1,0.9
2025-02-15T2300,3427A,118.8554,32.3578,南京市,六合雄州,颗粒物(PM10),88,125,100,62,56,39,,92,77,40,42,4,6,0.9,0.8
2025-02-15T2300,4249A,118.8708,31.3402,南京市,汶溪路181号,细颗粒物(PM2.5),112,110,108,84,96,28,,35,33,24,23,3,4,1.3,1
2025-02-15T2300,1401A,108.3103,22.7881,南宁市,二十一中,,41,41,50,22,40,11,,39,13,28,25,6,6,0.8,1
2025-02-15T2300,1402A,108.3141,22.8528,南宁市,北湖,,31,31,58,19,49,12,,31,13,27,28,6,11,0.8,1.1
2025-02-15T2300,1403A,108.3206,22.8225,南宁市,市监测站,,35,29,54,24,50,9,,33,12,28,25,11,10,1.0,1.2
2025-02-15T2300,1404A,108.3829,22.8037,南宁市,大自然花园,,29,,49,20,47,12,,36,16,22,20,5,5,0.7,1.3
2025-02-15T2300,1405A,108.4394,22.7904,南宁市,仙葫,,25,25,52,14,43,3,,26,20,24,17,2,2,0.7,0.8
2025-02-15T2300,1406A,108.2397,22.8467,南宁市,区农职院,,33,33,56,10,37,15,,27,13,16,22,6,6,0.7,1
2025-02-15T2300,1407A,108.3275,22.735,南宁市,英华嘉园,,,24,44,18,36,,,34,11,27,21,6,6,0.7,0.7
2025-02-15T2300,3401A,108.4834,22.7618,南宁市,红星社区,,26,25,61,18,48,18,,31,28,15,16,8,8,0.8,1
2025-02-15T2300,4221A,108.2177,22.7774,南宁市,乐贤路16号,,34,34,39,20,31,13,,33,15,19,25,4,4,0.8,0.9
2025-02-15T2300,2332A,118.1681,26.6369,南平市,南平市监测站,细颗粒物(PM2.5),64,60,45,46,33,24,,60,39,17,17,5,6,0.8,0.7
2025-02-15T2300,2333A,118.1825,26.6489,南平市,南平铝业有限公司,细颗粒物(PM2.5),73,,34,53,34,27,,63,41,16,20,4,6,0.9,0.8
2025-02-15T2300,2334A,118.1756,26.6272,南平市,南平七中,细颗粒物(PM2.5),64,51,35,46,29,19,,68,34,17,15,4,6,0.8,0.7
2025-02-15T2300,1168A,120.9098,31.9663,南通市,狼山街道,细颗粒物(PM2.5),140,117,76,107,60,3,,32,18,58,45,8,6,1.0,0.7
2025-02-15T2300,1169A,120.86,32.0005,南通市,虹桥,细颗粒物(PM2.5),173,158,83,131,64,0,,32,16,105,45,9,5,0.6,0.3
2025-02-15T2300,1170A,120.87,32.02,南通市,城中,细颗粒物(PM2.5),162,179,95,123,63,5,,38,23,86,52,8,6,1.2,0.6
2025-02-15T2300,1171A,120.94,31.93,南通市,星湖花园,细颗粒物(PM2.5),124,122,71,94,55,0,,31,14,62,48,6,6,0.9,0.5
2025-02-15T2300,1172A,120.81,32.0417,南通市,紫琅学院,细颗粒物(PM2.5),145,154,86,111,63,2,,48,27,75,42,3,2,1.5,0.9
2025-02-15T2300,3291A,121.067,32.062,南通市,通州监测站,细颗粒物(PM2.5),125,117,74,95,54,6,,52,28,50,29,4,4,1.2,0.7
2025-02-15T2300,3432A,120.9348,31.9883,南通市,环境教育馆,细颗粒物(PM2.5),158,132,82,120,68,4,,38,25,54,36,5,5,1.0,0.6
2025-02-15T2300,2404A,112.5224,33.0122,南阳市,瓦房庄,细颗粒物(PM2.5),150,168,122,115,80,5,,74,53,72,33,9,9,1.4,0.7
2025-02-15T2300,2405A,112.5003,32.9735,南阳市,汉画馆,细颗粒物(PM2.5),147,173,117,112,66,4,,74,51,72,36,10,9,1.0,0.7
2025-02-15T2300,2406A,112.5573,33.027,南阳市,气象站,细颗粒物(PM2.5),132,162,132,100,74,11,,76,61,70,31,7,7,0.9,0.7
2025-02-15T2300,2407A,112.5481,32.9689,南阳市,理工学院,细颗粒物(PM2.5),118,135,105,89,68,8,,76,59,76,32,7,7,1.2,0.7
2025-02-15T2300,4008A,112.5234,32.9922,南阳市,卧龙区政府,细颗粒物(PM2.5),139,165,118,106,70,3,,70,48,77,37,7,7,1.3,0.7
2025-02-15T2300,1234A,121.8358,29.911,宁波市,区环保大楼,细颗粒物(PM2.5),104,93,56,78,37,4,,65,5,59,44,6,7,1.0,0.7
2025-02-15T2300,1235A,121.56,29.82,宁波市,万里学院,细颗粒物(PM2.5),90,86,58,67,37,11,,56,3,47,38,6,6,1.0,0.7
2025-02-15T2300,1236A,121.713,29.9572,宁波市,龙赛医院,细颗粒物(PM2.5),105,,58,79,43,14,,47,5,42,43,5,5,0.8,0.6
2025-02-15T2300,1239A,121.633,29.7733,宁波市,钱湖水厂,细颗粒物(PM2.5),89,67,40,66,29,13,,66,5,51,36,5,5,1.1,0.8
2025-02-15T2300,1240A,121.5856,29.8635,宁波市,太古小学,细颗粒物(PM2.5),83,79,49,61,35,20,,68,9,44,41,7,7,0.8,0.6
2025-02-15T2300,1241A,121.524,29.8674,宁波市,市环境监测中心,细颗粒物(PM2.5),97,119,76,72,42,14,,63,5,54,48,5,6,0.8,0.7
2025-02-15T2300,2871A,121.6147,29.9017,宁波市,万里国际学校,颗粒物(PM10),72,94,50,42,29,14,,71,6,41,39,6,6,1.1,0.8
2025-02-15T2300,3710A,121.5594,29.8975,宁波市,白沙活动中心,细颗粒物(PM2.5),74,81,47,54,31,21,,63,10,39,36,5,5,0.7,0.5
2025-02-15T2300,2341A,119.5388,26.6612,宁德市,宁德市监测站,细颗粒物(PM2.5),73,54,51,53,45,29,,53,32,17,14,6,5,0.9,0.8
2025-02-15T2300,3209A,119.5231,26.6562,宁德市,宁德一中,细颗粒物(PM2.5),65,,43,47,44,30,,61,43,32,20,6,5,0.8,0.7
2025-02-15T2300,2618A,98.8601,25.8567,怒江傈僳族自治州,州监测站,,41,41,23,28,15,65,,72,64,8,8,5,5,0.4,0.3
2025-02-15T2300,2619A,98.8546,25.8417,怒江傈僳族自治州,泸水一中,细颗粒物(PM2.5),58,46,20,41,15,12,,62,39,31,14,6,6,0.8,0.4
2025-02-15T2300,1888A,101.6891,26.571,攀枝花市,弄弄坪,,33,33,43,23,25,60,,82,72,21,25,9,22,0.5,1.6
2025-02-15T2300,1889A,101.5769,26.5928,攀枝花市,河门口,,34,34,31,20,20,56,,96,84,25,16,8,10,0.5,0.6
2025-02-15T2300,1890A,101.7169,26.585,攀枝花市,炳草岗,,41,41,37,22,22,38,,90,75,38,29,6,10,0.7,1.1
2025-02-15T2300,1891A,101.7369,26.5008,攀枝花市,仁和,,46,46,29,25,22,34,,97,75,30,17,6,7,0.6,0.6
2025-02-15T2300,2835A,101.7227,26.567,攀枝花市,四十中小,,42,42,44,26,27,40,,88,78,42,32,10,20,1.0,1.6
2025-02-15T2300,1604A,122.0303,41.1489,盘锦市,开发区,细颗粒物(PM2.5),180,138,96,136,85,48,,81,69,46,29,9,10,1.6,1
2025-02-15T2300,1605A,122.0485,41.0883,盘锦市,兴隆台,细颗粒物(PM2.5),155,124,93,118,83,60,,75,64,41,31,6,8,1.2,1
2025-02-15T2300,1606A,121.8297,41.1028,盘锦市,新生街道,细颗粒物(PM2.5),150,123,82,115,86,9,,78,58,94,35,10,11,1.4,1.1
2025-02-15T2300,1832A,113.3257,33.742,平顶山市,新华旅馆,颗粒物(PM10),69,88,113,46,55,71,,98,89,25,23,4,5,0.3,0.4
2025-02-15T2300,1833A,113.2919,33.737,平顶山市,规划设计院,颗粒物(PM10),74,98,110,50,55,53,,96,81,35,29,7,6,0.3,0.4
2025-02-15T2300,1834A,113.182,33.774,平顶山市,平顶山工学院,颗粒物(PM10),66,81,93,39,48,77,,101,93,23,19,8,6,0.7,0.6
2025-02-15T2300,3204A,113.3025,33.73,平顶山市,规划局,颗粒物(PM10),74,97,105,50,61,54,,96,81,41,27,6,5,0.5,0.2
2025-02-15T2300,3594A,112.8867,33.9116,平顶山市,石龙区,颗粒物(PM10),55,59,84,26,34,86,,92,86,19,29,6,7,0.3,0.5
2025-02-15T2300,2656A,106.6692,35.5461,平凉市,聚贤嘉苑,颗粒物(PM10),73,96,60,32,21,32,,99,74,53,25,10,8,0.6,0.3
2025-02-15T2300,2657A,106.7021,35.5307,平凉市,博物馆,颗粒物(PM10),79,107,68,40,25,28,,94,69,56,26,16,12,0.8,0.5
2025-02-15T2300,2347A,114.0997,27.5002,萍乡市,武功山,,30,,33,21,34,42,,43,43,7,11,6,6,0.6,0.8
2025-02-15T2300,2348A,113.8385,27.6434,萍乡市,中医院,,46,46,59,31,42,35,,43,42,27,27,8,8,1.2,1.2
2025-02-15T2300,2349A,113.8493,27.6253,萍乡市,市政府车库,,48,,51,33,49,34,,45,43,16,19,7,7,0.9,0.9
2025-02-15T2300,2350A,113.8676,27.6435,萍乡市,市环保局,,45,42,56,31,46,37,,41,41,26,27,9,10,1.2,1.2
2025-02-15T2300,2351A,113.866,27.6198,萍乡市,安源区政府,,48,39,58,33,41,32,,43,42,18,22,9,10,0.9,0.9
2025-02-15T2300,2319A,119.0141,25.4325,莆田市,荔城区仓后路,细颗粒物(PM2.5),58,46,47,41,37,64,,92,80,21,19,4,5,0.7,0.7
2025-02-15T2300,2320A,119.0015,25.4553,莆田市,莆田市监测站,细颗粒物(PM2.5),60,55,33,43,23,48,,96,77,17,14,4,4,0.6,0.5
2025-02-15T2300,2321A,119.1119,25.4561,莆田市,涵江区六中,细颗粒物(PM2.5),63,48,48,45,38,56,,89,79,27,24,3,4,0.6,0.6
2025-02-15T2300,2322A,119.1013,25.3215,莆田市,秀屿区政府,细颗粒物(PM2.5),83,,39,61,40,56,,90,79,17,17,4,4,0.7,0.6
2025-02-15T2300,2392A,115.0312,35.7636,濮阳市,环保局,颗粒物(PM10),69,88,87,32,45,40,,86,75,42,25,6,6,0.7,0.7
2025-02-15T2300,2394A,115.0574,35.7609,濮阳市,油田运输公司,颗粒物(PM10),75,99,96,32,49,41,,82,68,40,29,7,6,0.8,0.9
2025-02-15T2300,3021A,115,35.7668,濮阳市,濮水河管理处,颗粒物(PM10),77,103,103,32,49,43,,82,65,34,28,6,7,0.8,0.8
2025-02-15T2300,4216A,115.0924,35.7686,濮阳市,任丘路479号,颗粒物(PM10),72,93,101,31,54,51,,91,77,38,30,7,8,0.6,0.7
2025-02-15T2300,2601A,100.98,22.7633,普洱市,市环保局,颗粒物(PM10),66,82,80,40,38,67,,120,98,12,11,6,6,0.6,0.6
2025-02-15T2300,2602A,100.9817,22.8322,普洱市,普洱第二中学,颗粒物(PM10),71,91,76,40,39,50,,110,87,26,24,6,5,0.8,0.7
2025-02-15T2300,2262A,131.0518,45.8751,七台河市,新一中,,25,17,28,11,20,78,,96,87,11,14,12,13,0.7,0.7
2025-02-15T2300,3637A,131.0176,45.7761,七台河市,人民广场,细颗粒物(PM2.5),53,49,56,37,36,64,,78,72,23,30,10,10,0.4,0.4
2025-02-15T2300,3684A,130.8781,45.8222,七台河市,新建矿广场,细颗粒物(PM2.5),52,,41,36,33,45,,83,68,34,30,16,10,0.2,0.3
2025-02-15T2300,1779A,123.9305,47.3636,齐齐哈尔市,安居小区,,33,32,31,23,19,69,,82,78,16,15,8,15,0.4,0.4
2025-02-15T2300,1780A,123.9488,47.3386,齐齐哈尔市,中心广场,,28,,28,19,17,76,,78,77,12,15,9,9,0.4,0.5
2025-02-15T2300,1781A,123.9483,47.3227,齐齐哈尔市,农牧车辆厂,,25,19,25,10,14,78,,84,82,11,14,8,9,0.3,0.3
2025-02-15T2300,1783A,123.945,47.2988,齐齐哈尔市,市环境监测站,,25,23,29,17,18,76,,84,81,12,13,5,7,0.3,0.3
2025-02-15T2300,3662A,123.6333,47.2075,齐齐哈尔市,富区青少年活动中心,,23,23,33,16,15,66,,83,76,12,13,6,8,0.5,0.5
2025-02-15T2300,2591A,107.9783,26.5747,黔东南苗族侗族自治州,市环境监测站,,40,33,24,28,21,25,,41,35,18,15,5,4,0.7,0.6
2025-02-15T2300,2881A,107.8908,26.5311,黔东南苗族侗族自治州,凯里学院,,,22,14,,16,20,,40,34,22,14,4,3,1.0,0.8
2025-02-15T2300,2593A,107.5228,26.2403,黔南布依族苗族自治州,小围寨,,25,19,15,17,11,24,,39,32,11,10,6,6,0.8,0.8
2025-02-15T2300,3538A,107.5175,26.2978,黔南布依族苗族自治州,沙坝,,27,27,18,17,12,32,,42,36,6,6,6,6,0.7,0.8
2025-02-15T2300,2589A,104.9022,25.0925,黔西南布依族苗族自治州,场坝街,细颗粒物(PM2.5),73,69,32,53,20,24,,31,29,14,13,22,5,0.4,0.5
2025-02-15T2300,2590A,104.8811,25.0992,黔西南布依族苗族自治州,坪东大道,细颗粒物(PM2.5),54,42,28,38,22,19,,28,26,15,14,8,5,0.3,0.3
2025-02-15T2300,2502A,108.6236,21.9667,钦州市,市环保站,,34,34,41,19,30,26,,36,25,17,25,7,7,0.9,1
2025-02-15T2300,2503A,108.6549,21.9481,钦州市,沙埠小学,,32,32,37,20,27,22,,52,28,21,21,5,6,1.0,1
2025-02-15T2300,2504A,108.5989,21.7431,钦州市,港区一小,,38,36,35,26,24,19,,58,21,29,32,8,11,1.0,0.9
2025-02-15T2300,3404A,108.5959,21.9633,钦州市,北职校,,42,30,36,29,35,27,,29,29,16,23,6,6,0.9,1
2025-02-15T2300,1043A,119.7493,40.0116,秦皇岛市,第一关,颗粒物(PM10),86,121,150,55,94,20,,46,23,69,78,7,18,0.8,1.5
2025-02-15T2300,1044A,119.5897,39.9499,秦皇岛市,监测站,细颗粒物(PM2.5),152,206,151,116,88,4,,52,27,96,74,16,17,1.8,1.7
2025-02-15T2300,1046A,119.5251,39.9041,秦皇岛市,建设大厦,细颗粒物(PM2.5),133,199,155,101,78,5,,70,42,108,66,15,20,1.7,1.6
2025-02-15T2300,3132A,119.610547,39.943889,秦皇岛市,文明里,颗粒物(PM10),142,234,168,99,72,3,,36,18,97,75,13,16,1.5,1.4
2025-02-15T2300,4198A,119.5090,39.8253,秦皇岛市,北戴河轮滑馆,颗粒物(PM10),114,178,148,73,77,43,,48,42,46,59,14,15,1.1,1.1
2025-02-15T2300,1307A,120.6659,36.2403,青岛市,仰口,细颗粒物(PM2.5),89,107,90,66,67,120,,132,127,18,19,9,6,0.9,0.8
2025-02-15T2300,1310A,120.4134,36.0658,青岛市,市南区东部子站,细颗粒物(PM2.5),132,153,119,100,74,69,,69,66,39,37,9,10,0.8,0.8
2025-02-15T2300,1311A,120.3664,36.1032,青岛市,四方区子站,细颗粒物(PM2.5),140,144,115,107,86,64,,80,74,46,40,6,8,1.0,1.2
2025-02-15T2300,1312A,120.2994,36.054,青岛市,市南区西部子站,细颗粒物(PM2.5),119,129,114,90,73,68,,67,60,53,58,7,9,0.9,1.2
2025-02-15T2300,1313A,120.4581,36.0858,青岛市,崂山区子站,细颗粒物(PM2.5),138,151,108,105,69,66,,74,72,40,36,9,10,0.9,0.9
2025-02-15T2300,1315A,120.3999,36.3083,青岛市,城阳区子站,细颗粒物(PM2.5),110,141,117,83,65,60,,94,77,61,50,10,12,1.0,1.1
2025-02-15T2300,1966A,120.0405,35.8735,青岛市,黄岛区4号,细颗粒物(PM2.5),138,151,123,105,88,52,,74,70,66,57,12,12,1.4,1.4
2025-02-15T2300,3362A,120.5014,36.4034,青岛市,即墨2号,细颗粒物(PM2.5),144,148,129,110,91,76,,105,89,42,37,14,14,1.1,1.2
2025-02-15T2300,3642A,120.3503,36.0736,青岛市,市北区南部,细颗粒物(PM2.5),122,145,119,92,73,63,,62,60,31,34,6,8,1.0,1.1
2025-02-15T2300,3643A,120.3948,36.1805,青岛市,李沧区北部,细颗粒物(PM2.5),144,141,116,110,87,66,,83,67,47,44,13,15,1.2,1.3
2025-02-15T2300,1702A,113.0426,23.691,清远市,环保大楼,颗粒物(PM10),75,100,86,37,39,23,,50,41,31,30,4,5,1.0,0.9
2025-02-15T2300,1703A,113.0208,23.7106,清远市,凤城街办,细颗粒物(PM2.5),70,72,64,51,45,6,,51,34,58,37,7,7,0.9,0.8
2025-02-15T2300,3025A,113.0477,23.6344,清远市,技师学院,颗粒物(PM10),65,79,61,45,37,24,,57,46,37,35,9,8,0.9,0.8
2025-02-15T2300,3318A,112.9903,23.7403,清远市,清新太和,颗粒物(PM10),60,69,63,42,39,26,,57,45,33,30,7,8,0.9,0.8
2025-02-15T2300,3455A,113.076,23.7198,清远市,清城东城,颗粒物(PM10),63,75,77,38,43,22,,54,43,27,30,6,6,1.0,1
2025-02-15T2300,2661A,107.6325,35.7357,庆阳市,庆阳五中,颗粒物(PM10),64,78,54,25,21,85,,80,80,6,9,2,3,0.3,0.4
2025-02-15T2300,2662A,107.6364,35.7067,庆阳市,市环保局,颗粒物(PM10),64,77,55,21,19,85,,83,82,7,8,2,4,0.3,0.3
2025-02-15T2300,1916A,103.7897,25.5035,曲靖市,环境监测站,细颗粒物(PM2.5),69,77,53,50,32,53,,112,90,34,26,10,6,0.7,0.6
2025-02-15T2300,1917A,103.8,25.5364,曲靖市,烟厂办公区,颗粒物(PM10),68,86,53,46,33,35,,108,86,49,27,3,5,0.7,0.5
2025-02-15T2300,3376A,103.7947,25.462,曲靖市,南苑二区,细颗粒物(PM2.5),59,58,47,42,32,80,,112,102,15,14,5,4,0.6,0.5
2025-02-15T2300,3377A,103.7444,25.5261,曲靖市,曲靖师范学院,细颗粒物(PM2.5),80,88,53,59,40,61,,112,92,30,22,9,17,0.6,0.6
2025-02-15T2300,1264A,118.8692,28.9398,衢州市,环保大楼,,26,22,92,18,70,16,,10,10,14,34,4,4,0.7,0.8
2025-02-15T2300,1265A,118.8709,28.9666,衢州市,实验学校,,16,15,76,11,65,23,,19,19,17,24,3,3,0.8,0.9
