timepoint,stationcode,longitude,latitude,area,positionname,primarypollutant,aqi,pm10,pm10_24h,pm2_5,pm2_5_24h,o3,o3_24h,o3_8h,o3_8h_24h,no2,no2_24h,so2,so2_24h,co,co_24h
2023-09-11T14:00:00,1001A,116.3621,39.8784,北京市,万寿西宫,,36,13,55,9,38,115,115,70,70,8,18,3,3,0.6,0.8
2023-09-11T14:00:00,1002A,116.2202,40.2915,北京市,定陵,,23,5,31,4,26,80,71,42,42,6,11,3,3,0.4,0.6
2023-09-11T14:00:00,1003A,116.4174,39.9289,北京市,东四,,36,16,44,9,32,116,115,74,74,12,21,3,3,0.5,0.6
2023-09-11T14:00:00,1004A,116.4072,39.8863,北京市,天坛,,33,13,37,9,31,107,105,65,65,12,17,3,3,0.5,0.6
2023-09-11T14:00:00,1005A,116.462,39.9365,北京市,农展馆,,35,16,42,12,29,111,110,76,66,7,16,3,3,0.5,0.6
2023-09-11T14:00:00,1006A,116.3392,39.9295,北京市,官园,,36,17,49,9,36,120,114,72,72,13,20,3,3,0.4,0.5
2023-09-11T14:00:00,1007A,116.2878,39.9611,北京市,海淀万柳,,34,16,39,10,30,107,107,60,60,16,24,3,3,0.4,0.5
2023-09-11T14:00:00,1008A,116.6636,40.135,北京市,顺义新城,,35,16,41,11,29,117,111,72,72,6,15,3,3,0.4,0.5
2023-09-11T14:00:00,1009A,116.6275,40.3275,北京市,怀柔镇,,29,10,38,6,29,118,92,70,70,7,17,1,2,0.4,0.5
2023-09-11T14:00:00,1010A,116.2296,40.217,北京市,昌平镇,,29,8,42,5,31,100,90,49,49,7,18,3,3,0.3,0.6
2023-09-11T14:00:00,1011A,116.3966,39.9821,北京市,奥体中心,,,20,34,11,27,93,,66,46,22,31,3,3,0.3,0.5
2023-09-11T14:00:00,1012A,116.184,39.9136,北京市,古城,,34,13,39,13,35,110,107,65,65,14,17,3,3,0.7,0.8
2023-09-11T14:00:00,1015A,117.1444,39.1661,天津市,勤俭道,,50,41,75,33,55,160,160,91,91,8,32,6,7,0.9,1.1
2023-09-11T14:00:00,1017A,117.237,39.1082,天津市,大直沽八号路,臭氧1小时,64,57,63,41,44,171,171,111,111,14,32,4,5,0.8,0.9
2023-09-11T14:00:00,1018A,117.202,39.0927,天津市,前进道,臭氧1小时,63,48,62,29,43,170,170,106,106,15,30,6,6,0.8,0.9
2023-09-11T14:00:00,1019A,117.1837,39.2133,天津市,淮河道,颗粒物(PM10),56,62,69,34,51,156,156,89,89,9,39,5,6,0.8,1
2023-09-11T14:00:00,1021A,117.307,39.0877,天津市,跃进路,臭氧1小时,65,48,55,34,40,172,172,104,104,14,35,6,7,0.8,1
2023-09-11T14:00:00,1023A,117.707,39.0343,天津市,第四大街,细颗粒物(PM2.5),55,38,57,39,46,152,152,87,87,15,39,4,4,0.8,0.9
2023-09-11T14:00:00,1024A,117.457,38.8394,天津市,永明路,,47,36,58,27,40,150,150,99,99,6,34,6,8,0.8,1.1
2023-09-11T14:00:00,1026A,117.764,39.1587,天津市,汉北路,细颗粒物(PM2.5),60,62,53,43,34,154,154,81,81,13,27,9,7,0.8,0.9
2023-09-11T14:00:00,1027A,117.157,38.9194,天津市,团泊洼,,43,30,62,24,46,136,136,92,92,9,31,2,2,0.9,1.1
2023-09-11T14:00:00,1029A,114.4422,38.0444,石家庄市,职工医院,细颗粒物(PM2.5),70,72,61,51,41,125,125,75,75,22,33,4,4,0.8,0.6
2023-09-11T14:00:00,1030A,114.6063,38.0266,石家庄市,高新区,细颗粒物(PM2.5),87,69,57,64,45,138,138,72,72,11,32,1,2,0.9,0.9
2023-09-11T14:00:00,1031A,114.4898,38.1328,石家庄市,西北水源,细颗粒物(PM2.5),80,90,65,59,42,122,122,52,52,22,35,2,2,0.8,0.6
2023-09-11T14:00:00,1032A,114.4586,38.0058,石家庄市,西南高教,细颗粒物(PM2.5),75,58,47,55,40,113,112,63,63,20,26,2,3,0.9,0.8
2023-09-11T14:00:00,1033A,114.5331,38.0178,石家庄市,世纪公园,细颗粒物(PM2.5),64,56,68,46,34,122,122,68,68,19,29,2,2,1.0,0.8
2023-09-11T14:00:00,1034A,114.509,38.0457,石家庄市,人民会堂,细颗粒物(PM2.5),70,64,59,51,49,134,134,79,79,18,32,4,5,0.7,0.6
2023-09-11T14:00:00,1035A,114.3524,37.8911,石家庄市,封龙山,细颗粒物(PM2.5),52,46,24,36,14,102,83,99,64,15,10,5,5,1.0,0.9
2023-09-11T14:00:00,1037A,118.131,39.6363,唐山市,雷达站,,45,42,56,30,33,144,144,88,88,10,34,2,2,0.5,0.6
2023-09-11T14:00:00,1038A,118.1725,39.6334,唐山市,物资局,,42,39,56,20,32,134,134,92,92,8,27,4,6,0.5,0.9
2023-09-11T14:00:00,1040A,118.1705,39.6506,唐山市,十二中,,43,32,45,24,31,136,136,92,92,9,27,2,3,0.6,0.8
2023-09-11T14:00:00,1041A,118.1869,39.622,唐山市,小山,,42,38,58,10,26,134,134,94,94,4,24,2,4,0.6,0.8
2023-09-11T14:00:00,1042A,119.5134,39.8207,秦皇岛市,北戴河环保局,颗粒物(PM10),53,55,49,20,25,153,153,98,98,18,32,11,12,0.4,0.6
2023-09-11T14:00:00,1043A,119.7493,40.0116,秦皇岛市,第一关,,46,44,47,17,28,145,145,88,88,15,49,10,11,0.6,0.9
2023-09-11T14:00:00,1044A,119.5897,39.9499,秦皇岛市,监测站,,44,44,49,24,27,133,133,96,96,13,25,9,9,0.7,1.1
2023-09-11T14:00:00,1046A,119.5251,39.9041,秦皇岛市,建设大厦,,43,42,53,19,28,137,137,95,95,8,26,4,7,0.5,0.9
2023-09-11T14:00:00,1048A,114.5302,36.6116,邯郸市,东污水处理厂,细颗粒物(PM2.5),77,63,63,56,60,132,132,76,76,9,27,7,7,0.8,0.7
2023-09-11T14:00:00,1049A,114.4918,36.5713,邯郸市,矿院,细颗粒物(PM2.5),70,48,56,51,57,132,132,67,67,15,34,2,7,0.9,0.8
2023-09-11T14:00:00,1050A,114.484,36.6133,邯郸市,丛台公园,细颗粒物(PM2.5),70,67,69,51,49,129,129,74,74,9,18,8,7,0.7,0.6
2023-09-11T14:00:00,1051A,115.493,38.8632,保定市,游泳馆,细颗粒物(PM2.5),63,48,42,45,35,151,151,87,87,17,24,7,8,0.6,0.5
2023-09-11T14:00:00,1052A,115.5213,38.8959,保定市,华电二区,,42,42,38,20,28,126,126,72,72,6,14,5,4,0.5,0.5
2023-09-11T14:00:00,1053A,115.4713,38.9108,保定市,接待中心,,38,38,42,12,19,132,113,66,66,7,12,6,6,0.7,0.7
2023-09-11T14:00:00,1054A,115.4612,38.8416,保定市,地表水厂,细颗粒物(PM2.5),59,58,51,42,31,142,142,83,83,57,30,9,9,1.0,0.7
2023-09-11T14:00:00,1056A,115.5086,38.8639,保定市,监测站,,,39,37,18,32,146,146,87,87,13,19,,6,0.8,0.6
2023-09-11T14:00:00,1057A,114.8883,40.8336,张家口市,人民公园,,30,10,18,2,3,140,95,64,64,4,11,2,3,0.2,0.3
2023-09-11T14:00:00,1059A,114.8687,40.8042,张家口市,五金库,,29,13,25,2,9,138,90,58,58,4,12,2,2,0.2,0.5
2023-09-11T14:00:00,1060A,114.8902,40.762,张家口市,世纪豪园,,30,6,22,3,12,138,96,64,64,5,14,3,4,0.1,0.3
2023-09-11T14:00:00,1061A,114.8916,40.8661,张家口市,北泵房,,,19,20,2,7,148,96,70,70,,9,6,7,0.2,0.3
2023-09-11T14:00:00,1062A,117.9531,40.9081,承德市,铁路,,25,2,20,3,9,102,78,56,56,10,25,8,9,0.1,0.4
2023-09-11T14:00:00,1063A,117.9392,40.9763,承德市,中国银行,,24,9,22,2,9,112,76,66,66,7,18,8,9,0.2,0.6
2023-09-11T14:00:00,1064A,117.9503,40.928,承德市,开发区,,28,21,22,7,12,106,87,62,62,9,21,5,6,0.2,0.5
2023-09-11T14:00:00,1065A,117.8051,40.9655,承德市,文化中心,,28,13,19,3,8,114,88,66,66,9,15,6,6,0.2,0.4
2023-09-11T14:00:00,1066A,117.9268,41.0026,承德市,离宫,,29,24,22,20,12,105,57,49,49,4,7,2,2,0.2,0.4
2023-09-11T14:00:00,1067A,116.6708,39.5111,廊坊市,药材公司,,47,47,52,24,40,139,139,83,83,11,19,2,2,0.5,0.6
2023-09-11T14:00:00,1068A,116.7214,39.5589,廊坊市,开发区,,50,43,54,35,39,147,147,91,91,16,21,1,1,0.5,0.6
2023-09-11T14:00:00,1070A,116.7244,39.5269,廊坊市,北华航天学院,,46,44,57,21,34,147,147,91,91,12,20,3,4,0.5,0.6
2023-09-11T14:00:00,1071A,116.8842,38.2991,沧州市,沧县城建局,细颗粒物(PM2.5),62,49,64,44,41,134,134,83,83,10,36,5,5,1.0,0.8
2023-09-11T14:00:00,1072A,116.8584,38.3254,沧州市,电视转播站,细颗粒物(PM2.5),64,56,63,46,45,130,127,82,82,9,32,8,7,0.9,0.8
2023-09-11T14:00:00,1073A,116.8709,38.3228,沧州市,市环保局,细颗粒物(PM2.5),65,61,70,47,43,129,128,80,80,10,36,6,5,0.7,0.6
2023-09-11T14:00:00,1074A,115.6838,37.7541,衡水市,电机北厂,细颗粒物(PM2.5),72,78,65,52,47,136,133,79,79,10,21,6,6,0.7,0.7
2023-09-11T14:00:00,1075A,115.6303,37.7316,衡水市,市监测站,细颗粒物(PM2.5),75,74,61,55,47,140,140,82,82,16,22,4,3,0.6,0.6
2023-09-11T14:00:00,1077A,114.4704,37.0886,邢台市,达活泉,细颗粒物(PM2.5),77,98,72,56,42,138,138,78,78,21,14,17,9,2.2,1
2023-09-11T14:00:00,1078A,114.5062,37.0349,邢台市,邢师高专,细颗粒物(PM2.5),77,94,66,56,41,116,115,46,46,25,26,16,7,2.0,0.9
2023-09-11T14:00:00,1079A,114.5237,37.0851,邢台市,路桥公司,细颗粒物(PM2.5),88,96,66,65,46,126,126,60,60,30,22,17,6,2.1,0.9
2023-09-11T14:00:00,1080A,114.4725,37.0719,邢台市,市环保局,细颗粒物(PM2.5),95,81,60,71,54,130,130,64,64,20,14,17,14,1.9,1.1
2023-09-11T14:00:00,1081A,112.522,37.8873,太原市,尖草坪,颗粒物(PM10),75,99,46,54,25,172,120,62,62,37,34,14,7,1.5,0.9
2023-09-11T14:00:00,1083A,112.434,38.0108,太原市,上兰,,,,,,,,,,,,,,,,
2023-09-11T14:00:00,1084A,112.469,37.7124,太原市,晋源,细颗粒物(PM2.5),110,93,52,83,31,176,176,65,65,37,36,22,7,2.0,1
2023-09-11T14:00:00,1085A,112.5583,37.7394,太原市,小店,细颗粒物(PM2.5),87,116,52,64,26,173,173,70,70,29,42,17,6,1.7,0.9
2023-09-11T14:00:00,1086A,112.5369,37.8692,太原市,桃园,颗粒物(PM10),72,94,43,48,23,163,114,63,63,40,36,13,6,1.5,0.9
2023-09-11T14:00:00,1087A,112.57,37.8195,太原市,坞城,颗粒物(PM10),70,89,45,45,24,172,135,71,71,31,37,15,10,1.3,1
2023-09-11T14:00:00,1088A,112.549,37.9854,太原市,南寨,颗粒物(PM10),53,56,51,26,21,139,84,46,46,29,29,8,6,0.8,0.8
2023-09-11T14:00:00,1090A,111.6507,40.7517,呼和浩特市,呼市一监,,28,17,23,3,10,159,87,61,61,6,19,5,8,0.3,0.5
2023-09-11T14:00:00,1091A,111.6572,40.8033,呼和浩特市,小召,,27,12,28,3,9,155,86,72,60,7,20,5,6,0.4,0.5
2023-09-11T14:00:00,1094A,111.7516,40.8369,呼和浩特市,如意水处理厂,,29,8,22,3,9,156,91,60,60,10,23,7,8,0.3,0.4
2023-09-11T14:00:00,1095A,111.7276,40.8062,呼和浩特市,二十九中,,30,11,28,4,11,160,94,62,62,7,22,7,9,0.4,0.6
2023-09-11T14:00:00,1096A,111.5512,40.7866,呼和浩特市,工大金川校区,,27,15,31,4,10,167,84,60,60,8,25,4,4,0.3,0.4
2023-09-11T14:00:00,1097A,111.717,40.7612,呼和浩特市,化肥厂生活区,,31,10,29,3,11,148,98,71,71,7,21,6,8,0.4,0.5
2023-09-11T14:00:00,1098A,123.6836,41.9339,沈阳市,森林路,,,,,,,,,,,,,,,,
2023-09-11T14:00:00,1099A,123.505,41.7406,沈阳市,浑南东路,,46,46,50,22,20,142,140,94,94,9,39,8,21,0.9,1.2
2023-09-11T14:00:00,1100A,123.4231,41.6989,沈阳市,新秀街,,47,47,59,15,17,132,131,93,93,14,36,10,57,0.8,0.9
2023-09-11T14:00:00,1102A,123.5903,41.8411,沈阳市,东陵路,,47,42,52,19,18,152,149,96,96,9,34,9,13,0.7,1.1
2023-09-11T14:00:00,1103A,123.4264,41.8467,沈阳市,陵东街,,40,33,32,22,17,154,126,99,99,9,26,6,20,0.8,0.9
2023-09-11T14:00:00,1104A,123.4114,41.7653,沈阳市,文化路,,44,42,46,28,20,153,139,104,104,9,25,7,46,0.8,0.9
2023-09-11T14:00:00,1105A,123.4678,41.7867,沈阳市,小河沿,,44,44,42,21,19,143,131,93,93,16,36,7,26,0.8,1
2023-09-11T14:00:00,1106A,123.4017,41.7972,沈阳市,太原街,,42,31,39,21,19,151,133,103,103,11,23,8,35,0.7,0.8
2023-09-11T14:00:00,1108A,123.3783,41.9228,沈阳市,京沈街,颗粒物(PM10),63,76,49,31,21,186,124,104,104,19,35,9,24,0.8,1
2023-09-11T14:00:00,1109A,121.612,38.9741,大连市,甘井子,,44,44,47,25,28,137,137,101,101,13,19,4,4,0.5,0.3
2023-09-11T14:00:00,1110A,121.565,38.9511,大连市,周水子,,49,39,38,34,30,138,138,99,99,15,29,5,5,0.8,0.6
2023-09-11T14:00:00,1111A,121.5637,38.8845,大连市,星海三站,,45,38,42,31,31,138,138,99,99,10,15,8,8,0.5,0.5
2023-09-11T14:00:00,1112A,121.6302,38.9117,大连市,青泥洼桥,细颗粒物(PM2.5),54,48,32,38,26,131,126,99,99,10,12,6,6,0.8,0.7
2023-09-11T14:00:00,1113A,121.6251,38.8638,大连市,傅家庄,臭氧1小时,58,39,30,39,28,166,166,121,121,8,12,7,8,0.7,0.6
2023-09-11T14:00:00,1114A,121.5213,38.8661,大连市,七贤岭,,49,46,35,34,28,145,145,104,104,9,13,7,6,0.7,0.6
2023-09-11T14:00:00,1115A,121.2529,38.8061,大连市,旅顺,,46,32,31,25,24,145,145,99,99,17,24,6,6,0.9,0.7
2023-09-11T14:00:00,1116A,121.7485,39.1311,大连市,金州,,46,25,34,22,28,147,147,106,106,11,18,10,6,0.4,0.4
2023-09-11T14:00:00,1117A,121.7811,39.0496,大连市,开发区,,44,36,36,28,28,139,139,97,97,13,20,8,8,0.7,0.6
2023-09-11T14:00:00,1118A,121.9762,39.0631,大连市,双D港,,48,43,27,33,20,146,146,105,105,13,15,7,6,0.6,0.5
2023-09-11T14:00:00,1119A,125.3325,43.9166,长春市,食品厂,,47,47,49,25,21,115,103,79,79,20,25,5,6,0.8,0.7
2023-09-11T14:00:00,1120A,125.2863,43.9027,长春市,客车厂,,42,42,49,18,21,110,102,82,82,13,22,6,7,0.8,0.7
2023-09-11T14:00:00,1121A,125.2841,43.8463,长春市,邮电学院,,47,47,45,20,21,111,111,82,82,10,15,5,5,0.6,0.6
2023-09-11T14:00:00,1122A,125.3716,43.8772,长春市,劳动公园,,45,45,46,20,18,113,113,83,83,12,20,4,5,0.7,0.6
2023-09-11T14:00:00,1123A,125.3297,43.8805,长春市,园林处,,47,47,44,19,18,114,110,86,86,11,19,6,7,0.7,0.6
2023-09-11T14:00:00,1124A,125.4605,43.79,长春市,净月潭,,41,41,29,18,15,113,112,82,82,8,7,7,6,0.7,0.5
2023-09-11T14:00:00,1125A,125.7194,43.515,长春市,甩湾子,,,,,,,,,,,,,,,,
2023-09-11T14:00:00,1126A,125.3863,43.8447,长春市,经开区环卫处,,43,43,43,19,17,107,107,73,73,10,20,5,5,0.7,0.6
2023-09-11T14:00:00,1127A,125.245,43.7783,长春市,高新区管委会,,38,38,41,20,19,110,110,83,83,8,19,6,6,0.7,0.6
2023-09-11T14:00:00,1128A,125.1761,43.8325,长春市,岱山公园,,34,34,65,21,21,109,103,83,83,8,32,3,4,0.7,0.7
2023-09-11T14:00:00,1129A,126.5422,45.755,哈尔滨市,岭北,,41,41,37,21,19,130,118,95,95,9,11,11,12,0.8,0.7
2023-09-11T14:00:00,1130A,126.561,45.8167,哈尔滨市,松北商大,,43,43,36,18,17,114,97,80,80,8,12,7,7,0.8,0.6
2023-09-11T14:00:00,1131A,126.979,45.5419,哈尔滨市,阿城会宁,颗粒物(PM10),51,52,39,18,18,128,119,89,89,9,10,9,6,0.8,0.7
2023-09-11T14:00:00,1132A,126.599,45.7222,哈尔滨市,南岗学府路,颗粒物(PM10),56,62,51,15,18,119,108,78,78,6,18,7,8,0.7,0.8
2023-09-11T14:00:00,1133A,126.689,45.7733,哈尔滨市,太平宏伟公园,颗粒物(PM10),76,102,54,18,18,111,97,76,76,16,19,6,5,0.6,0.5
2023-09-11T14:00:00,1134A,126.635,45.7667,哈尔滨市,道外承德广场,颗粒物(PM10),52,54,44,26,18,117,102,79,79,20,20,6,7,0.6,0.4
2023-09-11T14:00:00,1135A,126.685,45.7319,哈尔滨市,香坊红旗大街,颗粒物(PM10),62,73,50,20,21,114,105,80,80,22,24,9,11,0.8,0.7
2023-09-11T14:00:00,1136A,126.6411,45.7258,哈尔滨市,动力和平路,,,68,48,,,115,108,76,76,16,21,10,10,0.7,0.6
2023-09-11T14:00:00,1137A,126.593,45.7478,哈尔滨市,道里建国路,颗粒物(PM10),56,62,48,22,20,117,105,85,85,17,21,7,9,0.6,1.5
2023-09-11T14:00:00,1138A,126.615,45.61,哈尔滨市,平房东轻厂,,45,45,44,20,15,121,114,86,86,6,8,7,7,0.5,0.3
2023-09-11T14:00:00,1139A,126.595,45.9855,哈尔滨市,呼兰师专,,34,34,54,18,24,111,97,74,74,13,26,7,7,0.8,0.8
2023-09-11T14:00:00,1140A,126.6206,45.6842,哈尔滨市,省农科院,颗粒物(PM10),57,64,57,16,17,126,119,89,89,14,29,8,8,0.7,0.6
2023-09-11T14:00:00,1141A,121.4,31.238,上海市,普陀,臭氧1小时,65,46,37,18,12,183,172,114,114,14,17,4,5,0.6,0.6
2023-09-11T14:00:00,1142A,121.478,31.2036,上海市,十五厂,,49,49,39,22,17,166,142,108,108,20,23,7,7,0.6,0.5
2023-09-11T14:00:00,1143A,121.467,31.3008,上海市,虹口,,46,44,33,20,13,158,145,110,110,19,20,6,7,0.5,0.5
2023-09-11T14:00:00,1144A,121.412,31.1654,上海市,徐汇上师大,臭氧1小时,54,41,37,21,15,171,163,106,106,15,23,7,7,0.6,0.6
2023-09-11T14:00:00,1145A,121.536,31.2659,上海市,杨浦四漂,颗粒物(PM10),54,58,42,21,15,158,112,103,103,36,26,6,6,0.6,0.6
2023-09-11T14:00:00,1147A,121.425,31.2261,上海市,静安监测站,臭氧1小时,68,44,36,20,15,188,174,118,118,17,22,3,3,0.8,0.7
2023-09-11T14:00:00,1148A,121.703,31.1907,上海市,浦东川沙,,39,37,34,16,12,138,124,96,96,18,15,6,6,0.4,0.6
2023-09-11T14:00:00,1149A,121.533,31.2284,上海市,浦东新区监测站,,47,37,33,18,12,152,149,103,103,9,15,6,6,0.4,0.4
2023-09-11T14:00:00,1150A,121.577,31.2071,上海市,浦东张江,,45,39,34,9,13,141,141,101,101,12,16,5,5,0.6,0.6
2023-09-11T14:00:00,1151A,118.8086,32.1065,南京市,迈皋桥,臭氧1小时,124,52,48,34,25,248,248,124,124,14,30,6,6,0.5,0.5
2023-09-11T14:00:00,1152A,118.7538,32.0551,南京市,草场门,臭氧1小时,103,62,53,22,25,211,205,125,125,17,30,4,5,0.7,0.7
2023-09-11T14:00:00,1153A,118.7794,32.0745,南京市,山西路,臭氧1小时,116,58,58,27,26,232,232,134,134,11,24,4,6,0.4,0.5
2023-09-11T14:00:00,1154A,118.7752,32.0023,南京市,中华门,臭氧1小时,78,48,51,27,25,197,182,121,121,10,23,4,4,0.8,0.8
2023-09-11T14:00:00,1155A,118.8109,32.0309,南京市,瑞金路,臭氧1小时,101,51,52,29,23,202,202,130,130,11,19,4,5,0.3,0.4
2023-09-11T14:00:00,1156A,118.7997,32.0754,南京市,玄武湖,臭氧1小时,105,46,51,29,25,210,210,118,118,13,28,7,8,0.7,0.7
2023-09-11T14:00:00,1157A,118.6414,32.0931,南京市,浦口,臭氧1小时,131,55,53,32,29,262,262,138,138,19,28,7,7,0.5,0.5
2023-09-11T14:00:00,1158A,118.7356,31.9996,南京市,奥体中心,臭氧1小时,99,53,55,27,29,208,199,130,130,14,24,6,8,0.5,0.5
2023-09-11T14:00:00,1159A,118.9125,32.1028,南京市,仙林大学城,,,,55,,27,246,246,131,131,13,29,10,11,0.6,0.8
2023-09-11T14:00:00,1160A,120.561,31.2472,苏州市,上方山,臭氧1小时,68,38,36,23,19,188,174,97,97,7,15,8,8,0.5,0.5
2023-09-11T14:00:00,1162A,120.591,31.3019,苏州市,彩香,臭氧1小时,95,39,37,24,19,206,196,116,116,6,12,8,8,0.6,0.6
2023-09-11T14:00:00,1163A,120.596,31.3264,苏州市,轧钢厂,臭氧1小时,102,43,39,19,17,211,204,121,121,6,11,10,10,0.6,0.6
2023-09-11T14:00:00,1164A,120.613,31.2703,苏州市,吴中区,臭氧1小时,99,40,41,20,18,204,199,112,112,4,14,8,9,0.6,0.5
2023-09-11T14:00:00,1165A,120.543,31.2994,苏州市,苏州新区,臭氧1小时,103,30,36,18,17,222,205,123,123,6,16,8,8,0.6,0.7
2023-09-11T14:00:00,1166A,120.669,31.3097,苏州市,苏州工业园区,臭氧1小时,106,40,37,25,19,211,211,116,116,14,19,9,9,0.6,0.6
2023-09-11T14:00:00,1167A,120.641,31.3708,苏州市,相城区,臭氧1小时,109,57,37,24,18,217,217,107,107,15,25,12,11,0.5,0.5
2023-09-11T14:00:00,1168A,120.9098,31.9663,南通市,狼山街道,臭氧1小时,72,42,30,15,10,223,177,110,110,22,22,10,9,0.5,0.4
2023-09-11T14:00:00,1169A,120.86,32.0005,南通市,虹桥,臭氧1小时,62,34,32,20,18,209,169,109,109,36,24,8,7,0.6,0.5
2023-09-11T14:00:00,1170A,120.87,32.02,南通市,城中,,50,35,26,21,13,184,158,102,102,25,15,9,8,0.6,0.5
2023-09-11T14:00:00,1171A,120.94,31.93,南通市,星湖花园,臭氧1小时,73,40,28,21,11,218,178,112,112,8,14,8,7,0.8,0.6
2023-09-11T14:00:00,1172A,120.81,32.0417,南通市,紫琅学院,臭氧1小时,75,40,34,12,12,182,180,106,106,32,29,8,7,0.5,0.5
2023-09-11T14:00:00,1173A,119.176,34.5885,连云港市,市环境监测站,,41,41,26,14,11,123,119,96,96,17,11,9,8,0.3,0.3
2023-09-11T14:00:00,1177A,117.179,34.2761,徐州市,黄河新村,臭氧1小时,58,58,73,35,38,193,166,135,124,11,20,6,6,0.5,0.6
2023-09-11T14:00:00,1178A,117.1918,34.2384,徐州市,淮塔,臭氧1小时,64,64,70,36,41,201,171,128,128,13,20,11,10,0.4,0.5
2023-09-11T14:00:00,1180A,117.256,34.2153,徐州市,新城区,臭氧1小时,60,54,66,26,36,192,168,136,114,16,28,7,7,0.4,0.5
2023-09-11T14:00:00,1181A,117.244,34.2911,徐州市,桃园路,臭氧1小时,57,56,70,24,36,193,165,118,116,8,19,10,10,0.6,0.6
2023-09-11T14:00:00,1182A,117.2933,34.2778,徐州市,农科院,臭氧1小时,53,36,60,34,37,189,162,117,98,15,31,10,9,0.2,0.4
2023-09-11T14:00:00,1186A,119.389,32.3761,扬州市,邗江监测站,臭氧1小时,110,63,52,35,23,220,220,135,135,18,21,7,8,0.7,0.6
2023-09-11T14:00:00,1188A,120.269,31.4867,无锡市,雪浪,臭氧1小时,110,48,44,22,17,219,219,123,113,16,21,7,6,0.5,0.5
2023-09-11T14:00:00,1189A,120.275,31.6219,无锡市,黄巷,臭氧1小时,90,39,42,22,19,217,192,102,102,16,34,8,8,0.7,0.8
2023-09-11T14:00:00,1190A,120.294,31.56,无锡市,曹张,臭氧1小时,102,41,39,19,18,204,204,116,107,15,25,10,11,0.6,0.6
2023-09-11T14:00:00,1191A,120.242,31.5031,无锡市,漆塘,臭氧1小时,107,48,37,22,19,214,214,119,113,17,23,7,7,0.6,0.6
2023-09-11T14:00:00,1192A,120.3489,31.5863,无锡市,东亭,臭氧1小时,88,39,42,22,21,214,190,106,102,12,24,5,5,0.7,0.8
2023-09-11T14:00:00,1193A,120.354,31.5475,无锡市,旺庄,臭氧1小时,103,39,42,22,20,222,205,106,106,10,24,10,11,0.7,0.7
2023-09-11T14:00:00,1194A,120.245,31.5631,无锡市,荣巷,臭氧1小时,106,44,37,22,18,211,211,114,114,13,20,10,11,0.5,0.6
2023-09-11T14:00:00,1195A,120.299,31.6817,无锡市,堰桥,臭氧1小时,89,41,39,17,16,214,191,108,108,6,16,7,6,0.5,0.7
2023-09-11T14:00:00,1196A,119.9633,31.762,常州市,市监测站,臭氧1小时,112,65,52,25,24,243,224,126,126,16,30,9,10,0.6,0.6
2023-09-11T14:00:00,1200A,119.9468,31.7069,常州市,武进监测站,臭氧1小时,120,54,51,28,21,239,239,138,138,10,20,4,4,0.6,1
2023-09-11T14:00:00,1201A,119.9255,31.9087,常州市,安家,臭氧1小时,124,53,49,32,26,247,247,120,120,18,29,9,8,0.8,0.7
2023-09-11T14:00:00,1203A,119.6707,32.1875,镇江市,新区办事处,臭氧1小时,111,45,46,23,27,238,222,120,120,17,27,6,5,0.8,0.9
2023-09-11T14:00:00,1204A,119.4974,32.1968,镇江市,职教中心,臭氧1小时,125,49,54,28,31,253,249,154,154,9,33,4,5,0.7,0.9
2023-09-11T14:00:00,1205A,119.4303,32.1328,镇江市,丹徒区监测站,臭氧1小时,129,59,55,27,38,258,258,129,129,13,26,,3,0.8,0.8
2023-09-11T14:00:00,1206A,119.905,32.4878,泰州市,公园路,臭氧1小时,101,51,38,27,22,204,202,131,131,12,14,9,8,0.9,0.8
2023-09-11T14:00:00,1207A,119.9189,32.4625,泰州市,莲花,,,49,38,27,20,194,192,133,133,,13,7,6,,0.6
2023-09-11T14:00:00,1209A,119.888,32.4639,泰州市,留学生创业园,臭氧1小时,94,44,38,23,20,198,195,130,130,16,17,9,8,0.6,0.6
2023-09-11T14:00:00,1210A,119.036,33.5981,淮安市,钵池山,,36,17,30,13,20,136,114,83,83,6,18,6,6,0.6,0.6
2023-09-11T14:00:00,1211A,119.007,33.575,淮安市,北京南路,,38,24,32,14,18,142,120,93,93,9,24,8,8,0.5,0.6
2023-09-11T14:00:00,1212A,118.989,33.6067,淮安市,市监测站,,38,22,37,14,16,144,121,99,99,10,24,7,7,0.4,0.5
2023-09-11T14:00:00,1213A,119.135,33.5039,淮安市,楚州区监测站,,34,17,31,12,18,132,107,88,88,6,18,8,8,0.5,0.6
2023-09-11T14:00:00,1214A,119.0186,33.6297,淮安市,淮阴区监测站,,37,29,39,17,21,132,118,84,84,10,25,7,8,0.5,0.7
2023-09-11T14:00:00,1215A,120.118,33.4022,盐城市,盐城电厂,,33,14,25,7,10,131,105,98,98,1,10,6,6,0.3,0.3
2023-09-11T14:00:00,1216A,120.156,33.3942,盐城市,市监测站,,36,15,23,8,12,146,114,107,107,3,15,5,5,0,0.1
2023-09-11T14:00:00,1218A,120.2144,33.38,盐城市,开发区管委会,,33,10,18,4,9,132,104,100,100,4,10,8,8,0.4,0.4
2023-09-11T14:00:00,1220A,118.293,33.9528,宿迁市,宿迁学院,,39,21,43,10,27,171,123,84,84,9,32,9,10,0.4,0.6
2023-09-11T14:00:00,1221A,118.2442,33.9592,宿迁市,宿迁中学,,38,29,43,12,27,151,120,81,81,12,23,7,8,0.5,0.6
2023-09-11T14:00:00,1223A,120.2072,30.2111,杭州市,滨江,臭氧1小时,104,41,61,22,32,207,207,132,132,7,22,7,8,0.7,0.8
2023-09-11T14:00:00,1224A,120.0633,30.2747,杭州市,西溪,臭氧1小时,99,46,56,33,32,199,199,125,125,8,19,4,4,0.7,0.7
2023-09-11T14:00:00,1226A,120.3461,30.3153,杭州市,下沙,臭氧1小时,132,84,54,59,30,264,264,155,155,18,28,6,5,0.7,0.7
2023-09-11T14:00:00,1227A,120.1269,30.2456,杭州市,卧龙桥,臭氧1小时,98,37,43,19,30,198,198,120,120,8,19,5,5,0.5,0.7
2023-09-11T14:00:00,1228A,120.1903,30.2692,杭州市,浙江农大,臭氧1小时,54,32,43,24,29,190,163,114,114,13,25,8,9,0.5,0.7
2023-09-11T14:00:00,1230A,120.1197,30.3119,杭州市,和睦小学,臭氧1小时,99,44,49,33,31,210,199,142,142,14,26,8,9,0.6,0.6
2023-09-11T14:00:00,1231A,120.3019,30.4183,杭州市,临平镇,臭氧1小时,125,56,56,36,29,249,249,142,142,15,20,6,5,0.6,0.6
2023-09-11T14:00:00,1232A,120.2697,30.1819,杭州市,城厢镇,臭氧1小时,75,38,61,21,41,194,180,127,127,11,27,8,8,0.4,0.6
2023-09-11T14:00:00,1233A,120.0883,30.1808,杭州市,云栖,臭氧1小时,107,46,49,25,28,213,213,121,121,10,20,7,6,0.7,0.7
2023-09-11T14:00:00,1234A,121.8358,29.911,宁波市,区环保大楼,,36,23,18,13,10,122,113,89,89,9,10,4,4,0.5,0.5
2023-09-11T14:00:00,1235A,121.56,29.82,宁波市,万里学院,,42,29,29,13,14,158,133,97,97,9,16,5,6,0.5,0.4
2023-09-11T14:00:00,1236A,121.713,29.9572,宁波市,龙赛医院,,49,37,33,16,12,178,154,102,102,24,17,16,9,0.9,0.5
2023-09-11T14:00:00,1239A,121.633,29.7733,宁波市,钱湖水厂,,37,21,18,15,11,132,116,85,85,2,4,6,5,0.5,0.5
2023-09-11T14:00:00,1240A,121.5856,29.8635,宁波市,太古小学,,43,28,25,15,12,159,136,98,98,12,17,6,6,0.6,0.6
2023-09-11T14:00:00,1241A,121.524,29.8674,宁波市,市环境监测中心,,49,28,28,15,11,199,155,99,99,8,13,8,9,0.5,0.5
2023-09-11T14:00:00,1242A,120.634,28.0089,温州市,瓯海,,50,35,45,22,23,160,160,101,101,15,28,7,8,0.5,0.6
2023-09-11T14:00:00,1243A,120.6748,27.9939,温州市,南浦,臭氧1小时,53,34,48,21,24,162,162,107,107,14,23,6,6,0.4,0.5
2023-09-11T14:00:00,1244A,120.76,27.9747,温州市,龙湾,,,31,43,16,18,145,,86,86,11,26,8,7,0.5,0.5
2023-09-11T14:00:00,1245A,120.6709,28.0167,温州市,市站,颗粒物(PM10),55,59,48,22,23,156,150,94,94,18,24,6,6,0.4,0.5
2023-09-11T14:00:00,1247A,120.6053,29.9928,绍兴市,城东开发委,,49,29,50,18,32,173,154,109,109,9,19,7,7,0.6,0.7
2023-09-11T14:00:00,1250A,120.0751,30.8669,湖州市,城西水厂,臭氧1小时,116,51,58,26,34,232,232,135,135,19,27,4,4,0.5,0.5
2023-09-11T14:00:00,1252A,120.7436,30.778,嘉兴市,清河小学,臭氧1小时,108,54,42,29,20,216,216,134,134,20,27,8,7,0.6,0.6
2023-09-11T14:00:00,1253A,120.726,30.7478,嘉兴市,嘉兴学院,臭氧1小时,87,51,40,36,27,189,189,131,131,8,16,6,6,0.5,0.5
2023-09-11T14:00:00,1255A,121.273,28.6459,台州市,黄岩环保大楼,,39,22,32,14,17,141,124,84,84,8,11,6,6,0.5,0.5
2023-09-11T14:00:00,1256A,121.419,28.6542,台州市,台州环保大楼,,33,33,35,20,19,121,97,82,82,7,12,6,6,0.3,0.4
2023-09-11T14:00:00,1257A,121.377,28.5773,台州市,路桥田洋王,,32,29,35,16,17,127,101,87,87,4,12,6,6,0.4,0.5
2023-09-11T14:00:00,1258A,122.122,30.0203,舟山市,定海檀枫,,28,19,16,8,6,116,89,72,72,7,10,6,6,0.3,0.3
2023-09-11T14:00:00,1259A,122.3094,29.9558,舟山市,普陀东港,,28,19,19,9,7,119,87,74,74,7,9,5,5,0.3,0.4
2023-09-11T14:00:00,1260A,122.19,29.9944,舟山市,临城新区,,31,16,16,9,7,116,98,75,75,5,9,8,8,0.3,0.4
2023-09-11T14:00:00,1262A,119.647,29.077,金华市,十五中,臭氧1小时,55,19,37,1,16,183,164,125,125,8,26,3,4,0.3,0.4
2023-09-11T14:00:00,1263A,119.686,29.1029,金华市,监测站,臭氧1小时,57,29,55,16,31,181,165,116,116,8,35,4,5,0.4,0.5
2023-09-11T14:00:00,1264A,118.8692,28.9398,衢州市,环保大楼,,50,27,49,17,32,179,158,114,114,7,25,3,5,0.4,0.5
2023-09-11T14:00:00,1265A,118.8709,28.9666,衢州市,实验学校,臭氧1小时,54,24,50,20,30,184,163,118,118,8,26,6,7,0.6,0.7
2023-09-11T14:00:00,1266A,118.8621,28.9808,衢州市,衢州学院,臭氧1小时,55,27,53,16,32,181,164,115,115,11,31,4,6,0.5,0.6
2023-09-11T14:00:00,1267A,119.914,28.4514,丽水市,监测站大楼,,40,30,36,23,19,143,126,93,93,5,16,6,7,0.4,0.4
2023-09-11T14:00:00,1268A,119.93,28.4586,丽水市,莲都小学,,40,38,33,17,14,153,126,94,94,6,16,5,5,0.4,0.4
2023-09-11T14:00:00,1269A,119.879,28.4231,丽水市,余庄前,,46,24,30,13,18,172,145,100,100,7,14,6,6,0.4,0.4
2023-09-11T14:00:00,1270A,117.1959,31.7848,合肥市,明珠广场,臭氧1小时,108,70,68,34,37,222,216,141,141,20,33,8,9,0.8,0.8
2023-09-11T14:00:00,1271A,117.3072,31.8764,合肥市,三里街,臭氧1小时,90,56,61,31,37,192,192,132,132,15,26,7,7,0.6,0.6
2023-09-11T14:00:00,1272A,117.2588,31.8707,合肥市,琥珀山庄,臭氧1小时,102,61,59,34,33,210,204,145,145,14,24,6,6,0.9,0.9
2023-09-11T14:00:00,1273A,117.1604,31.9052,合肥市,董铺水库,臭氧1小时,107,58,60,29,30,214,214,148,148,12,20,6,6,0.6,0.5
2023-09-11T14:00:00,1274A,117.25,31.8571,合肥市,长江中路,臭氧1小时,102,66,69,39,37,206,204,140,140,13,23,10,9,,0.7
2023-09-11T14:00:00,1275A,117.266,31.9436,合肥市,庐阳区,臭氧1小时,95,51,63,29,36,196,196,140,140,15,25,7,7,0.7,0.6
2023-09-11T14:00:00,1276A,117.336,31.8586,合肥市,瑶海区,臭氧1小时,92,61,70,33,33,193,193,138,138,11,19,7,6,0.7,0.7
2023-09-11T14:00:00,1277A,117.3027,31.7964,合肥市,包河区,臭氧1小时,101,63,69,34,37,202,201,122,122,21,47,10,9,0.6,0.6
2023-09-11T14:00:00,1278A,117.2776,31.7385,合肥市,滨湖新区,臭氧1小时,105,75,66,44,35,229,210,148,148,13,23,11,11,0.5,0.5
2023-09-11T14:00:00,1279A,117.1318,31.8403,合肥市,高新区,臭氧1小时,107,61,65,39,38,215,213,139,139,18,30,9,8,0.8,0.8
2023-09-11T14:00:00,1280A,119.3903,26.0543,福州市,鼓山,,,,,,,,,,,,,,,,
2023-09-11T14:00:00,1282A,119.2681,26.0504,福州市,师大,,45,25,38,9,16,160,142,93,93,4,11,4,4,0.3,0.4
2023-09-11T14:00:00,1283A,119.2984,26.1028,福州市,五四北路,臭氧1小时,64,38,39,19,18,171,171,100,100,18,16,4,3,0.5,0.5
2023-09-11T14:00:00,1284A,119.2648,26.0768,福州市,杨桥西路,,48,36,43,12,16,164,152,94,94,6,12,3,4,0.4,0.4
2023-09-11T14:00:00,1285A,119.317,26.0746,福州市,紫阳,,50,37,41,11,17,166,158,102,102,8,14,4,4,0.4,0.4
2023-09-11T14:00:00,1286A,118.1608,24.8169,厦门市,溪东,,,,,,,,,,,,,,,,
2023-09-11T14:00:00,1287A,118.1514,24.4767,厦门市,洪文,,35,26,27,7,8,110,110,74,74,6,11,2,2,0.3,0.3
2023-09-11T14:00:00,1288A,118.0661,24.4444,厦门市,鼓浪屿,,29,21,28,11,15,99,90,64,64,20,25,4,6,0.3,0.3
2023-09-11T14:00:00,1290A,115.8931,28.6843,南昌市,省外办,,35,33,53,19,28,163,110,73,73,4,24,4,5,0.4,0.6
2023-09-11T14:00:00,1291A,115.8886,28.7003,南昌市,省林业公司,,37,24,67,17,28,158,117,70,70,1,34,6,9,0.7,0.9
2023-09-11T14:00:00,1292A,115.8126,28.7442,南昌市,林科所,,41,19,36,12,18,201,131,79,79,2,22,8,8,0.7,0.6
2023-09-11T14:00:00,1294A,115.8518,28.687,南昌市,建工学校,,42,20,50,14,17,186,134,83,83,4,33,7,9,0.5,0.7
2023-09-11T14:00:00,1295A,115.8921,28.6424,南昌市,象湖,,35,14,39,9,24,191,111,77,77,6,27,6,9,0.5,0.6
2023-09-11T14:00:00,1296A,115.7423,28.7996,南昌市,武术学校,,41,18,20,9,16,214,129,76,76,7,9,10,10,0.2,0.2
2023-09-11T14:00:00,1298A,115.9314,28.6842,南昌市,省站,,38,38,52,12,22,165,115,80,80,1,17,6,8,0.7,0.7
2023-09-11T14:00:00,1299A,116.9862,36.6114,济南市,科干所,臭氧1小时,82,73,64,44,45,209,185,126,126,16,25,8,6,0.6,0.7
2023-09-11T14:00:00,1300A,116.9376,36.665,济南市,农科所,,,,60,,36,182,162,100,100,12,30,,6,,0.6
2023-09-11T14:00:00,1301A,117.1265,36.6734,济南市,开发区,臭氧1小时,70,66,56,37,36,182,176,116,116,17,40,7,6,0.7,0.8
2023-09-11T14:00:00,1303A,117.0624,36.6868,济南市,省种子仓库,臭氧1小时,88,75,66,41,40,190,190,115,115,15,33,7,7,0.5,0.6
2023-09-11T14:00:00,1304A,116.9489,36.6447,济南市,机床二厂,臭氧1小时,83,61,75,34,39,196,186,116,116,13,35,6,6,0.6,0.7
2023-09-11T14:00:00,1305A,117.0495,36.663,济南市,市监测站,臭氧1小时,89,68,63,46,42,195,191,121,121,18,44,5,4,0.6,0.8
2023-09-11T14:00:00,1306A,116.7675,36.5484,济南市,长清党校,细颗粒物(PM2.5),83,88,68,61,50,193,182,123,123,16,28,4,4,0.6,0.6
2023-09-11T14:00:00,1307A,120.6659,36.2403,青岛市,仰口,,26,19,16,14,15,85,83,69,69,9,7,6,6,0.6,0.4
2023-09-11T14:00:00,1310A,120.4134,36.0658,青岛市,市南区东部子站,,40,36,16,19,9,128,128,98,98,9,6,11,6,0.8,0.3
2023-09-11T14:00:00,1311A,120.3664,36.1032,青岛市,四方区子站,,40,34,18,17,9,128,128,95,94,16,14,10,6,0.9,0.5
2023-09-11T14:00:00,1312A,120.2994,36.054,青岛市,市南区西部子站,,44,41,17,27,7,139,139,94,91,18,15,12,5,1.3,0.5
2023-09-11T14:00:00,1313A,120.4581,36.0858,青岛市,崂山区子站,,,,,,,,,,,,,,,,
2023-09-11T14:00:00,1314A,120.1983,35.9608,青岛市,黄岛区子站,,47,36,16,20,8,150,150,106,106,17,12,14,7,1.3,0.6
2023-09-11T14:00:00,1315A,120.3999,36.3083,青岛市,城阳区子站,,50,48,29,22,12,159,159,94,94,22,22,7,6,0.8,0.6
2023-09-11T14:00:00,1316A,113.69031,34.76122,郑州市,烟厂,颗粒物(PM10),54,57,55,32,33,178,141,106,97,15,20,4,3,0.7,0.7
2023-09-11T14:00:00,1317A,113.65724,34.77134,郑州市,郑纺机,颗粒物(PM10),60,70,55,34,32,180,138,95,95,14,20,3,3,0.9,0.8
2023-09-11T14:00:00,1318A,113.67526,34.80246,郑州市,银行学校,颗粒物(PM10),53,55,51,36,31,177,138,121,94,16,19,8,5,0.7,0.7
2023-09-11T14:00:00,1319A,113.56746,34.81334,郑州市,供水公司,颗粒物(PM10),55,59,64,35,34,162,127,84,84,17,25,4,4,0.7,0.7
2023-09-11T14:00:00,1320A,113.7329,34.7178,郑州市,经开区管委,颗粒物(PM10),61,72,65,35,35,168,137,99,86,15,21,5,4,0.8,0.8
2023-09-11T14:00:00,1321A,113.73961,34.77172,郑州市,四十七中,颗粒物(PM10),55,60,55,38,37,164,136,90,85,15,17,5,4,0.7,0.7
2023-09-11T14:00:00,1322A,113.60532,34.74838,郑州市,市监测站,颗粒物(PM10),58,65,68,36,38,169,129,77,77,10,19,7,6,0.7,0.7
2023-09-11T14:00:00,1323A,113.64164,34.7525,郑州市,河医大,颗粒物(PM10),59,68,59,31,34,163,130,86,86,12,19,7,6,0.8,0.8
2023-09-11T14:00:00,1324A,113.51488,34.91089,郑州市,岗李水库,,,,,,,,,,,,,,,,
2023-09-11T14:00:00,1325A,114.3677,30.5584,武汉市,东湖梨园,臭氧1小时,101,58,42,22,24,201,201,130,130,18,17,12,10,1.3,1.1
2023-09-11T14:00:00,1326A,114.2529,30.558,武汉市,汉阳月湖,臭氧1小时,78,59,44,36,26,182,182,109,109,23,24,9,9,1.0,0.9
2023-09-11T14:00:00,1327A,114.282,30.6189,武汉市,汉口花桥,"细颗粒物(PM2.5),臭氧1小时",59,66,51,42,32,202,167,107,107,16,21,7,6,0.9,0.8
2023-09-11T14:00:00,1328A,114.3025,30.5332,武汉市,武昌紫阳,臭氧1小时,109,53,44,32,25,218,218,128,128,18,22,9,9,1.0,0.9
2023-09-11T14:00:00,1329A,114.3646,30.6217,武汉市,青山钢花,臭氧1小时,72,62,51,39,36,241,177,111,111,13,22,12,10,0.9,0.9
2023-09-11T14:00:00,1330A,114.1566,30.4825,武汉市,沌口新区,臭氧1小时,65,57,47,39,33,173,172,115,115,24,23,9,9,0.9,0.8
2023-09-11T14:00:00,1331A,114.3014,30.5944,武汉市,汉口江滩,臭氧1小时,77,53,44,35,27,193,181,117,117,11,15,10,7,0.9,0.8
2023-09-11T14:00:00,1333A,114.135,30.6319,武汉市,吴家山,,49,48,47,34,29,202,113,86,86,12,19,8,8,0.8,0.8
2023-09-11T14:00:00,1334A,113.8454,30.2917,武汉市,沉湖七壕,颗粒物(PM10),53,56,45,30,20,142,114,83,83,18,17,4,3,0.9,0.8
2023-09-11T14:00:00,1335A,113.0833,28.2325,长沙市,经开区环保局,,34,20,36,9,19,136,107,77,77,4,18,6,9,0.3,0.4
2023-09-11T14:00:00,1336A,112.8872,28.2189,长沙市,高开区环保局,,36,17,30,19,21,170,115,74,74,3,10,6,8,0.4,0.5
2023-09-11T14:00:00,1337A,113.0792,28.2053,长沙市,马坡岭,,38,20,42,15,21,145,121,82,82,3,15,6,7,0.7,0.7
2023-09-11T14:00:00,1338A,112.9394,28.19,长沙市,湖南师范大学,,38,19,33,11,22,166,120,78,78,2,10,5,6,0.5,0.7
2023-09-11T14:00:00,1339A,113.0178,28.1322,长沙市,雨花区环保局,,35,15,28,17,21,156,109,75,75,2,13,7,8,0.7,0.7
2023-09-11T14:00:00,1340A,112.9792,28.2597,长沙市,伍家岭,,39,11,44,15,23,179,122,81,81,8,21,4,5,0.3,0.4
2023-09-11T14:00:00,1341A,113.0014,28.1944,长沙市,火车新站,,35,24,36,14,20,156,109,74,74,7,15,6,7,0.6,0.7
2023-09-11T14:00:00,1342A,112.9844,28.1178,长沙市,天心区环保局,,35,7,25,12,17,154,109,71,71,4,14,4,5,0.4,0.5
2023-09-11T14:00:00,1343A,112.8908,28.1308,长沙市,湖南中医药大学,,38,19,40,16,21,164,120,79,79,2,16,3,5,0.7,0.8
2023-09-11T14:00:00,1344A,112.9581,28.3611,长沙市,沙坪,,,36,36,17,20,159,135,75,75,,8,,7,0.4,0.5
2023-09-11T14:00:00,1345A,113.2347,23.1423,广州市,广雅中学,,33,23,18,17,10,103,103,36,36,19,28,9,8,0.9,1
2023-09-11T14:00:00,1346A,113.2612,23.105,广州市,市五中,,31,22,20,13,12,99,99,37,37,15,25,7,7,0.6,0.6
2023-09-11T14:00:00,1348A,113.3478,23.0916,广州市,广东商学院,,39,31,24,15,13,122,122,45,45,21,34,7,5,0.5,0.7
2023-09-11T14:00:00,1349A,113.4332,23.1047,广州市,市八十六中,,,,,,,,,,,,,,,,
2023-09-11T14:00:00,1350A,113.3505,22.9483,广州市,番禺中学,,20,14,15,6,6,63,61,30,30,20,29,5,5,0.6,0.7
2023-09-11T14:00:00,1351A,113.2146,23.3916,广州市,花都师范,,,,,,,,,,,,,,,,
2023-09-11T14:00:00,1352A,113.2597,23.1331,广州市,市监测站,,33,8,17,6,9,105,105,36,36,21,29,9,8,0.6,0.6
2023-09-11T14:00:00,1353A,113.5618,23.312,广州市,九龙镇镇龙,,29,24,20,13,10,93,90,40,40,9,18,7,7,0.3,0.4
2023-09-11T14:00:00,1354A,113.2765,23.1544,广州市,麓湖,,34,23,17,13,9,108,108,36,36,17,25,8,6,0.8,0.8
2023-09-11T14:00:00,1355A,113.443,23.3035,广州市,帽峰山森林公园,,30,18,12,14,8,94,94,41,41,12,17,6,6,0.2,0.2
2023-09-11T14:00:00,1356A,114.1063,22.5545,深圳市,通心岭子站,,,,,,,,,,,,,,,,
2023-09-11T14:00:00,1357A,114.117,22.5625,深圳市,洪湖,,16,7,7,11,2,32,25,19,19,26,26,5,5,0.3,0.3
2023-09-11T14:00:00,1358A,113.987,22.5417,深圳市,华侨城,,13,7,10,1,3,47,41,25,25,8,13,6,6,0.6,0.7
2023-09-11T14:00:00,1359A,113.9181,22.5171,深圳市,南海子站,,20,20,13,1,3,43,43,27,27,8,16,4,4,0.5,0.5
2023-09-11T14:00:00,1360A,114.2458,22.5689,深圳市,盐田,,16,16,11,11,2,46,42,36,36,29,27,5,5,0.5,0.4
2023-09-11T14:00:00,1361A,114.2283,22.7244,深圳市,龙岗,,18,6,9,4,4,56,56,32,32,5,12,8,8,0.7,0.8
2023-09-11T14:00:00,1363A,114.494,22.5422,深圳市,南澳,,18,10,15,2,1,58,56,44,44,5,7,4,5,0.7,0.6
2023-09-11T14:00:00,1364A,114.41,22.6342,深圳市,葵涌,,,,,,,,,,,,,,,,
2023-09-11T14:00:00,1365A,114.297,22.5978,深圳市,梅沙,,20,15,10,12,3,64,64,37,37,5,7,5,5,0.6,0.5
2023-09-11T14:00:00,1366A,114.0678,22.738,深圳市,观澜,,15,8,14,4,5,57,47,31,31,13,18,6,6,0.6,0.6
2023-09-11T14:00:00,1367A,113.5814,22.2618,珠海市,吉大,,16,9,8,11,5,43,43,30,30,14,15,4,4,0.4,0.3
2023-09-11T14:00:00,1368A,113.4881,22.2335,珠海市,前山,,11,8,5,3,4,31,26,20,20,21,16,8,8,0.4,0.4
2023-09-11T14:00:00,1369A,113.628,22.4251,珠海市,唐家,,13,13,10,9,5,43,33,21,21,16,15,5,5,0.4,0.4
2023-09-11T14:00:00,1370A,113.299,22.2281,珠海市,斗门,,10,6,5,2,2,38,31,38,34,9,8,4,5,0.4,0.5
2023-09-11T14:00:00,1371A,113.1294,23.0067,佛山市,湾梁,,20,12,11,9,8,62,62,24,24,15,25,6,6,0.5,0.6
2023-09-11T14:00:00,1372A,113.1083,23.0478,佛山市,华材职中,,20,17,13,8,6,64,64,24,24,14,24,6,6,0.3,0.3
2023-09-11T14:00:00,1373A,113.144,23.0453,佛山市,南海气象局,,27,27,19,10,7,49,49,19,19,17,24,7,7,0.4,0.5
2023-09-11T14:00:00,1374A,113.2881,22.8094,佛山市,顺德苏岗,,,9,13,5,6,32,32,17,17,,22,,6,0.5,0.6
2023-09-11T14:00:00,1376A,112.8383,22.8678,佛山市,高明孔堂,,33,32,14,8,3,104,104,34,34,18,19,5,5,0.6,0.6
2023-09-11T14:00:00,1377A,112.8836,23.1588,佛山市,三水监测站,,,,17,18,9,73,73,26,26,21,29,3,4,0.5,0.6
2023-09-11T14:00:00,1378A,112.867,23.185,佛山市,三水云东海,,25,12,19,9,8,79,79,27,27,20,28,4,4,0.4,0.5
2023-09-11T14:00:00,1379A,113.3769,22.5211,中山市,华柏园,,11,3,10,4,5,34,34,16,16,8,14,4,4,0.3,0.3
2023-09-11T14:00:00,1380A,113.3881,22.5497,中山市,张溪,,12,0,13,4,8,38,38,16,16,8,16,4,4,0.4,0.3
2023-09-11T14:00:00,1381A,113.4075,22.5111,中山市,紫马岭,,,,9,2,4,39,39,20,20,4,10,5,5,0.3,0.3
2023-09-11T14:00:00,1382A,113.4411,22.4853,中山市,长江旅游区,,,,,,,,,,,,,,,,
2023-09-11T14:00:00,1383A,113.1064,22.6058,江门市,北街,,15,15,17,5,8,55,31,26,26,14,20,5,5,0.3,0.4
2023-09-11T14:00:00,1384A,113.0731,22.5835,江门市,西区,,13,1,12,9,5,61,37,29,29,9,20,5,5,0.5,0.6
2023-09-11T14:00:00,1385A,113.0219,22.5311,江门市,圭峰西,,13,9,12,2,4,56,39,29,29,8,16,3,3,0.5,0.6
2023-09-11T14:00:00,1386A,113.0828,22.5947,江门市,东湖,,19,8,15,13,6,65,34,31,31,10,16,5,5,0.4,0.5
2023-09-11T14:00:00,1389A,113.7547,23.0494,东莞市,莞城梨川,,34,22,19,13,11,108,108,49,49,15,21,6,6,0.6,0.7
2023-09-11T14:00:00,1390A,113.7944,23.0128,东莞市,东城石井,,30,20,19,13,10,94,94,41,41,13,19,2,2,0.6,0.6
2023-09-11T14:00:00,1391A,113.7383,22.9658,东莞市,南城西平,,30,30,18,16,9,83,83,35,35,21,23,6,8,0.5,0.5
2023-09-11T14:00:00,1392A,114.4183,23.0528,惠州市,河南岸金山湖子站,,19,10,16,5,10,79,60,38,38,6,10,4,5,0.4,0.4
2023-09-11T14:00:00,1393A,114.4053,23.0822,惠州市,下埔横江三路子站,,20,12,18,6,9,77,62,38,38,4,9,7,9,0.4,0.5
2023-09-11T14:00:00,1394A,114.4103,23.1142,惠州市,江北云山西路子站,,20,11,17,6,8,81,64,36,36,2,7,6,7,0.4,0.5
2023-09-11T14:00:00,1395A,114.4645,22.7833,惠州市,惠阳区承修路船湖子站,,20,12,13,7,6,72,61,36,36,10,16,4,4,0.6,0.7
2023-09-11T14:00:00,1396A,114.5317,22.7422,惠州市,大亚湾管委会子站,,18,17,18,10,8,67,57,34,34,14,23,4,5,0.6,0.6
2023-09-11T14:00:00,1397A,112.4267,23.0706,肇庆市,睦岗子站,,27,27,18,16,10,64,64,25,25,23,22,6,5,0.4,0.4
2023-09-11T14:00:00,1398A,112.4645,23.0475,肇庆市,城中子站,,30,19,17,11,10,95,95,35,35,16,26,5,6,0.5,0.5
2023-09-11T14:00:00,1399A,112.5544,23.1522,肇庆市,坑口子站,,24,24,21,12,13,62,62,24,24,29,31,6,6,0.4,0.4
2023-09-11T14:00:00,1400A,112.4753,23.1,肇庆市,七星岩子站,,,,,,,,,,,,,,,,
2023-09-11T14:00:00,1401A,108.3103,22.7881,南宁市,二十一中,,23,23,22,8,12,77,49,33,33,11,24,4,6,0.7,0.8
2023-09-11T14:00:00,1402A,108.3141,22.8528,南宁市,北湖,,,,33,6,9,80,43,37,37,12,16,3,11,0.6,0.5
2023-09-11T14:00:00,1403A,108.3206,22.8225,南宁市,市监测站,,14,11,20,7,12,75,44,38,31,14,25,6,9,0.6,0.6
2023-09-11T14:00:00,1404A,108.3829,22.8037,南宁市,大自然花园,,13,12,16,8,8,68,40,30,30,10,17,5,6,0.6,0.6
2023-09-11T14:00:00,1405A,108.4394,22.7904,南宁市,仙葫,,15,4,14,6,6,63,45,31,31,10,20,5,5,0.6,0.6
2023-09-11T14:00:00,1406A,108.2397,22.8467,南宁市,区农职院,,17,17,22,5,10,81,48,38,38,15,16,6,7,0.7,0.7
2023-09-11T14:00:00,1407A,108.3275,22.735,南宁市,英华嘉园,,16,16,24,10,10,78,33,26,26,22,24,5,6,0.6,0.6
2023-09-11T14:00:00,1408A,108.2257,22.7757,南宁市,沙井镇街道办,,20,16,20,6,9,84,61,38,38,11,19,4,6,0.7,0.7
2023-09-11T14:00:00,1409A,110.576,19.9507,海口市,东寨港,,,,,,,,,,,,,,,,
2023-09-11T14:00:00,1410A,110.3232,20.0574,海口市,海南大学,,26,26,15,11,7,60,60,35,33,16,13,6,6,0.4,0.4
2023-09-11T14:00:00,1411A,110.283,20.0053,海口市,秀英海南医院,,30,30,18,7,7,60,60,27,27,13,26,6,6,0.4,0.4
2023-09-11T14:00:00,1412A,110.338,19.9969,海口市,海南师范大学,,22,22,19,9,7,66,66,32,32,9,14,7,7,0.4,0.4
2023-09-11T14:00:00,1413A,110.33,20.0356,海口市,龙华路环保局宿舍,,28,28,17,10,7,57,57,31,29,17,13,7,7,0.5,0.5
2023-09-11T14:00:00,1414A,106.3787,29.8279,重庆市,缙云山,细颗粒物(PM2.5),83,86,46,61,30,193,113,102,88,21,14,19,15,0.7,0.5
2023-09-11T14:00:00,1416A,106.4213,29.8253,重庆市,天生,细颗粒物(PM2.5),102,101,66,76,47,171,107,63,63,16,24,9,8,1.0,0.8
2023-09-11T14:00:00,1417A,106.6263,29.7228,重庆市,两路,细颗粒物(PM2.5),70,52,42,51,34,215,119,76,59,19,35,8,8,0.9,0.9
2023-09-11T14:00:00,1418A,106.2953,29.5983,重庆市,虎溪,细颗粒物(PM2.5),83,84,51,61,38,157,157,81,81,16,16,8,7,0.8,0.7
2023-09-11T14:00:00,1419A,106.5777,29.5102,重庆市,南坪,细颗粒物(PM2.5),63,66,51,45,32,163,163,92,92,19,24,13,10,0.8,0.7
2023-09-11T14:00:00,1420A,106.6556,29.6277,重庆市,唐家沱,细颗粒物(PM2.5),63,56,52,45,30,215,151,71,71,12,29,10,9,0.8,0.7
2023-09-11T14:00:00,1421A,106.6349,29.4906,重庆市,茶园,臭氧1小时,102,76,49,45,29,204,204,104,104,24,31,11,8,1.1,0.9
2023-09-11T14:00:00,1422A,106.3754,29.4572,重庆市,白市驿,臭氧1小时,59,46,59,23,30,167,167,90,81,13,22,9,10,0.9,0.8
2023-09-11T14:00:00,1425A,106.6205,29.7166,重庆市,空港,颗粒物(PM10),70,89,52,50,30,228,136,98,82,15,27,9,9,1.0,0.9
2023-09-11T14:00:00,1426A,106.4782,29.4875,重庆市,新山村,臭氧1小时,52,49,46,30,27,162,161,77,72,23,31,9,11,0.8,0.7
2023-09-11T14:00:00,1427A,106.5616,29.6453,重庆市,礼嘉,细颗粒物(PM2.5),62,59,58,44,31,219,153,85,85,11,33,15,13,0.9,0.8
2023-09-11T14:00:00,1428A,106.4522,29.7091,重庆市,蔡家,细颗粒物(PM2.5),74,81,66,54,40,169,138,80,80,19,25,13,8,1.3,1
2023-09-11T14:00:00,1429A,106.5093,29.3917,重庆市,鱼新街,,,46,42,27,28,156,156,75,75,,28,,14,0.9,1
2023-09-11T14:00:00,1431A,103.9728,30.7236,成都市,金泉两河,,21,10,18,1,10,114,67,71,64,10,9,1,1,0.3,0.4
2023-09-11T14:00:00,1432A,104.176,30.6872,成都市,十里店,,27,6,20,2,11,182,84,77,74,2,13,3,3,0.3,0.5
2023-09-11T14:00:00,1433A,104.079,30.5706,成都市,三瓦窑,,24,4,25,2,12,159,74,75,70,5,16,2,2,0.3,0.5
2023-09-11T14:00:00,1434A,104.1114,30.63,成都市,沙河铺,,,,28,19,16,179,70,67,66,7,12,3,3,0.4,0.5
2023-09-11T14:00:00,1437A,104.0786,30.6531,成都市,君平街,,26,8,21,1,14,179,81,76,74,7,11,3,4,0.3,0.4
2023-09-11T14:00:00,1438A,103.613,31.0283,成都市,灵岩寺,,16,6,13,3,7,73,51,73,50,5,9,6,10,0.7,0.8
2023-09-11T14:00:00,1439A,106.6899,26.5998,贵阳市,马鞍山,,36,14,19,7,10,114,114,58,58,7,13,3,4,0.4,0.5
2023-09-11T14:00:00,1440A,106.6971,26.5694,贵阳市,市环保站,,35,17,30,12,21,111,111,62,62,11,29,2,4,0.2,0.3
2023-09-11T14:00:00,1441A,106.6243,26.6266,贵阳市,鉴湖路,,36,22,24,5,11,114,114,67,64,8,17,4,4,0.4,0.4
2023-09-11T14:00:00,1442A,106.7487,26.6343,贵阳市,燕子冲,,30,17,22,9,15,96,95,53,53,6,14,5,6,0.6,0.6
2023-09-11T14:00:00,1443A,106.6555,26.4365,贵阳市,碧云窝,,25,19,38,5,20,99,80,50,50,4,15,3,3,0.3,0.4
2023-09-11T14:00:00,1444A,106.694,26.5161,贵阳市,中院村,,27,27,43,7,20,83,82,45,45,10,29,6,8,0.2,0.4
2023-09-11T14:00:00,1445A,106.7109,26.6027,贵阳市,红边门,,31,24,30,12,20,99,98,57,57,8,22,4,5,0.5,0.5
2023-09-11T14:00:00,1446A,106.7164,26.5699,贵阳市,新华路,,33,14,31,9,18,104,104,60,60,5,24,4,8,0.3,0.5
2023-09-11T14:00:00,1447A,106.674,26.5424,贵阳市,太慈桥,,31,17,20,5,11,99,99,54,54,6,22,3,4,0.3,0.5
2023-09-11T14:00:00,1450A,102.8204,24.8886,昆明市,呈贡新区,,30,15,28,7,13,109,95,58,54,5,20,6,6,0.4,0.6
2023-09-11T14:00:00,1451A,102.6251,24.9608,昆明市,西山森林公园,,37,15,13,14,11,143,116,82,81,6,7,8,8,0.7,0.6
2023-09-11T14:00:00,1452A,102.7252,25.0902,昆明市,龙泉镇,,37,7,24,13,12,125,118,56,56,10,26,10,9,0.5,0.6
2023-09-11T14:00:00,1453A,102.7266,25.0375,昆明市,东风东路,,38,25,28,16,15,133,119,60,60,9,28,8,8,0.5,0.6
2023-09-11T14:00:00,1454A,102.6742,25.0669,昆明市,金鼎山,,39,31,28,15,13,129,123,64,64,9,20,10,10,0.4,0.4
2023-09-11T14:00:00,1455A,102.6644,25.0401,昆明市,碧鸡广场,,38,16,21,18,13,124,120,69,69,8,19,9,7,0.5,0.5
2023-09-11T14:00:00,1456A,91.1319,29.6514,拉萨市,八廓街,,33,11,10,6,7,103,103,79,74,10,12,6,7,0.4,0.4
2023-09-11T14:00:00,1457A,91.1221,29.6747,拉萨市,市环保局,,28,14,10,7,6,89,89,70,59,12,12,6,6,0.2,0.2
2023-09-11T14:00:00,1458A,91.0874,29.6475,拉萨市,区监测站,,28,12,8,9,6,87,87,74,63,10,12,9,9,0.3,0.2
2023-09-11T14:00:00,1459A,91.1774,29.6541,拉萨市,西藏大学,,29,8,8,5,5,91,91,72,66,6,6,10,10,0.3,0.3
2023-09-11T14:00:00,1460A,90.9798,29.6588,拉萨市,区辐射站,,23,12,15,5,6,74,72,71,44,16,18,10,10,0.1,0.1
2023-09-11T14:00:00,1461A,91.0834,29.6292,拉萨市,拉萨火车站,,27,10,13,10,6,85,85,76,64,10,8,6,6,0.3,0.1
2023-09-11T14:00:00,1462A,108.882,34.2749,西安市,高压开关厂,,31,12,54,7,23,202,99,47,47,14,42,8,8,0.6,0.8
2023-09-11T14:00:00,1463A,108.993,34.2629,西安市,兴庆小区,,28,10,40,11,19,191,87,76,46,13,26,5,7,0.6,0.7
2023-09-11T14:00:00,1464A,109.06,34.2572,西安市,纺织城,,27,10,46,3,18,190,84,36,36,22,38,4,5,0.6,0.7
2023-09-11T14:00:00,1465A,108.9356,34.2173,西安市,小寨,,29,29,38,6,16,188,89,79,44,15,29,6,6,0.5,0.6
2023-09-11T14:00:00,1466A,108.954,34.2713,西安市,市人民体育场,,25,7,46,13,23,189,78,88,38,10,28,6,7,0.5,0.6
2023-09-11T14:00:00,1467A,108.8922,34.2322,西安市,高新西区,,29,23,36,14,20,190,90,102,52,11,23,5,7,0.6,0.7
2023-09-11T14:00:00,1468A,108.935,34.3474,西安市,经开区,,27,10,46,5,24,184,84,39,39,12,36,3,3,0.4,0.6
2023-09-11T14:00:00,1469A,108.906,34.1546,西安市,长安区,,33,6,41,9,19,186,105,54,54,8,26,6,8,0.4,0.5
2023-09-11T14:00:00,1471A,109.2186,34.3731,西安市,临潼区,,30,5,53,14,26,182,96,44,40,12,30,5,9,0.4,0.6
2023-09-11T14:00:00,1472A,108.869,34.378,西安市,草滩,,38,38,57,6,19,175,88,49,49,21,36,12,11,0.3,0.5
2023-09-11T14:00:00,1473A,108.985,34.1978,西安市,曲江文化产业集团,,29,10,42,8,17,191,91,60,47,15,32,4,7,0.6,0.7
2023-09-11T14:00:00,1474A,109.051,34.3213,西安市,广运潭,,27,11,43,12,20,189,86,50,36,14,34,6,8,0.5,0.6
2023-09-11T14:00:00,1476A,103.631,36.1031,兰州市,兰炼宾馆,,32,24,42,17,24,167,100,95,84,12,22,13,7,0.3,0.4
2023-09-11T14:00:00,1477A,104.1373,35.9454,兰州市,榆中兰大校区,,,,,,,,,,,,,,,,
2023-09-11T14:00:00,1478A,103.8412,36.0726,兰州市,生物制品所,,40,40,44,27,29,120,106,80,80,15,23,9,6,0.5,0.5
2023-09-11T14:00:00,1479A,103.831,36.0464,兰州市,铁路设计院,,34,34,42,20,26,136,104,95,76,16,38,8,8,0.5,0.6
2023-09-11T14:00:00,1483A,101.524,36.6867,西宁市,第五水厂,,,,,,,,,,,,,,,,
2023-09-11T14:00:00,1484A,105.9512,38.6016,银川市,贺兰山马莲口,,50,50,37,23,16,161,133,111,96,14,12,20,7,0.4,0.3
2023-09-11T14:00:00,1488A,106.2328,38.4975,银川市,贺兰山东路,颗粒物(PM10),59,68,70,30,32,184,144,94,83,19,36,19,13,0.6,0.7
2023-09-11T14:00:00,1489A,106.1358,38.5036,银川市,学院路,颗粒物(PM10),66,82,79,35,34,162,132,69,69,12,50,18,12,0.6,0.7
2023-09-11T14:00:00,1490A,87.5801,43.8303,乌鲁木齐市,监测站,颗粒物(PM10),51,52,63,20,16,126,77,36,36,37,50,9,5,0.6,0.6
2023-09-11T14:00:00,1491A,87.6046,43.768,乌鲁木齐市,收费所,,45,45,58,16,19,128,73,41,41,46,42,5,4,0.5,0.3
2023-09-11T14:00:00,1492A,87.4754,43.9469,乌鲁木齐市,新疆农科院农场,颗粒物(PM10),65,79,116,30,25,103,46,14,14,48,53,7,6,0.8,0.7
2023-09-11T14:00:00,1493A,87.5525,43.8711,乌鲁木齐市,铁路局,颗粒物(PM10),60,70,76,20,21,124,100,41,41,30,48,6,5,0.5,0.6
2023-09-11T14:00:00,1494A,87.6432,43.831,乌鲁木齐市,三十一中学,颗粒物(PM10),55,60,63,19,15,122,100,49,49,26,34,9,6,0.4,0.4
2023-09-11T14:00:00,1496A,87.7216,44.1747,乌鲁木齐市,米东区环保局,,44,44,55,19,20,118,86,53,34,17,19,14,11,0.5,0.3
2023-09-11T14:00:00,1508A,112.9433,27.8614,湘潭市,板塘,,30,17,42,9,22,140,94,63,63,5,17,8,10,0.6,0.6
2023-09-11T14:00:00,1511A,112.9118,27.8403,湘潭市,市监测站,,30,15,30,13,18,130,93,61,61,3,13,5,8,0.4,0.6
2023-09-11T14:00:00,1512A,112.8937,27.8728,湘潭市,江麓,,30,20,42,13,20,142,96,65,65,6,19,8,15,0.4,0.5
2023-09-11T14:00:00,1513A,112.9227,27.8159,湘潭市,岳塘,,31,17,43,14,22,131,97,64,64,2,9,8,10,0.2,0.4
2023-09-11T14:00:00,1514A,112.9074,27.9119,湘潭市,科大,,30,14,41,12,19,145,96,63,63,2,13,5,8,0.5,0.5
2023-09-11T14:00:00,1515A,113.135,27.8244,株洲市,天台山庄,,30,5,31,14,19,137,93,67,67,6,12,5,7,0.5,0.6
2023-09-11T14:00:00,1518A,113.095,27.8867,株洲市,株冶医院,,,15,38,8,21,134,95,62,62,5,18,,6,0.5,0.6
2023-09-11T14:00:00,1519A,113.167,27.8667,株洲市,市四中,,30,15,37,12,20,136,95,68,68,4,11,8,11,0.4,0.5
2023-09-11T14:00:00,1520A,113.143,27.8381,株洲市,火车站,,29,14,37,9,20,135,92,66,66,3,10,6,8,0.5,0.7
2023-09-11T14:00:00,1524A,113.13,27.8528,株洲市,市监测站,,31,16,33,15,21,139,99,72,72,4,9,1,3,0.6,0.7
2023-09-11T14:00:00,1552A,106.805,26.3003,贵阳市,桐木岭,,,,,,,,,,,,,,,,
2023-09-11T14:00:00,1559A,113.251,27.8336,株洲市,大京风景区,,31,21,31,18,23,136,98,63,63,1,4,6,6,0.5,0.5
2023-09-11T14:00:00,1562A,113.0048,27.9153,湘潭市,昭山,,33,22,41,13,22,144,103,63,63,4,23,5,7,0.3,0.5
2023-09-11T14:00:00,1564A,112.4876,27.9164,湘潭市,韶山,,28,17,37,10,16,100,87,61,61,5,10,8,8,0.4,0.5
2023-09-11T14:00:00,1585A,109.8756,40.6532,包头市,市环境监测站,,29,13,29,9,14,190,90,74,62,8,22,8,11,0.3,0.6
2023-09-11T14:00:00,1587A,109.9991,40.5842,包头市,包头八中,,43,43,39,2,8,162,100,85,66,8,23,12,18,0.5,0.8
2023-09-11T14:00:00,1588A,109.8538,40.6821,包头市,青山宾馆,,29,18,29,2,5,201,91,68,68,5,19,6,11,0.5,0.7
2023-09-11T14:00:00,1589A,109.8642,40.6288,包头市,惠龙物流,,30,18,30,7,14,182,94,83,67,9,21,7,12,0.4,0.6
2023-09-11T14:00:00,1590A,110.0377,40.5546,包头市,东河鸿龙湾,,30,25,30,3,14,154,95,90,66,7,16,9,13,0.4,0.7
2023-09-11T14:00:00,1591A,110.0023,39.8129,鄂尔多斯市,综合楼,,39,39,66,5,17,136,107,86,68,17,37,14,30,0.6,0.7
2023-09-11T14:00:00,1592A,109.9486,39.8261,鄂尔多斯市,巴音孟克林场办事处,,41,41,56,17,21,142,105,98,70,16,32,14,12,0.6,0.5
2023-09-11T14:00:00,1593A,109.7736,39.5986,鄂尔多斯市,康泽苑,,,34,42,12,17,130,108,73,66,10,27,,5,0.4,0.5
2023-09-11T14:00:00,1594A,109.8119,39.5989,鄂尔多斯市,华泰汽车城,,35,34,44,17,21,126,109,70,70,9,34,11,8,0.5,0.6
2023-09-11T14:00:00,1595A,109.9734,39.7884,鄂尔多斯市,奥林花园,,36,36,58,14,19,140,107,86,73,10,36,14,11,0.7,0.7
2023-09-11T14:00:00,1597A,122.2703,40.7094,营口市,大庆路,,42,27,41,19,26,132,132,100,100,10,18,6,8,0.9,0.9
2023-09-11T14:00:00,1598A,122.2150,40.6511,营口市,镜湖西路,,43,25,37,11,18,137,137,111,111,9,16,8,9,0.6,0.6
2023-09-11T14:00:00,1599A,122.1658,40.6789,营口市,西炮台,,43,36,45,19,22,137,137,111,111,14,9,7,8,0.7,0.8
2023-09-11T14:00:00,1600A,124.3303,40.0625,丹东市,江湾东路,,37,18,30,12,19,118,118,87,87,5,12,6,7,0.5,0.8
2023-09-11T14:00:00,1601A,124.4256,40.1503,丹东市,临江后街,,35,16,25,7,14,109,109,88,88,4,10,6,7,0.5,0.6
2023-09-11T14:00:00,1602A,124.3933,40.1461,丹东市,元宝山,,,107,31,18,20,99,,77,77,8,13,8,8,0.6,0.9
2023-09-11T14:00:00,1603A,124.3633,40.1092,丹东市,民主桥,,35,21,32,12,17,112,112,93,93,4,15,4,6,0.4,0.8
2023-09-11T14:00:00,1604A,122.0303,41.1489,盘锦市,开发区,,46,30,33,19,23,147,147,120,120,8,22,4,7,1.0,1.1
2023-09-11T14:00:00,1605A,122.0485,41.0883,盘锦市,兴隆台,,47,29,37,20,24,149,149,117,117,8,22,6,8,1.0,0.9
2023-09-11T14:00:00,1606A,121.8297,41.1028,盘锦市,新生街道,,48,30,28,20,16,152,152,126,126,14,18,8,7,0.8,0.6
2023-09-11T14:00:00,1607A,120.9092,40.7136,葫芦岛市,龙港区,,,51,35,24,23,164,164,116,116,12,11,9,10,,0.6
2023-09-11T14:00:00,1608A,120.8392,40.7514,葫芦岛市,化工街,,44,19,32,17,21,138,138,98,98,3,15,9,9,0.4,0.5
2023-09-11T14:00:00,1609A,120.8341,40.7073,葫芦岛市,新区,,50,34,33,27,27,158,158,94,94,7,13,6,6,1.3,1.1
2023-09-11T14:00:00,1610A,120.8695,40.7677,葫芦岛市,东城区,,49,40,36,15,20,155,155,97,97,11,27,10,10,0.9,0.8
2023-09-11T14:00:00,1611A,118.5819,24.9117,泉州市,涂山街,臭氧1小时,93,52,35,19,14,194,194,116,116,13,14,6,6,0.6,0.5
2023-09-11T14:00:00,1612A,118.5972,24.8978,泉州市,津头埔,臭氧1小时,73,50,31,22,16,181,178,114,114,15,17,6,6,0.6,0.6
2023-09-11T14:00:00,1613A,118.6663,24.9424,泉州市,万安,颗粒物(PM10),57,63,35,21,14,187,162,119,119,9,15,3,2,0.6,0.5
2023-09-11T14:00:00,1614A,118.6117,24.9604,泉州市,清源山,,,,,,,,,,,,,,,,
2023-09-11T14:00:00,1616A,117.6795,36.229,济南市,技术学院,臭氧1小时,83,75,75,36,40,186,186,94,94,14,42,11,9,1.1,1.3
2023-09-11T14:00:00,1618A,118.3429,35.0532,临沂市,沂河小区,臭氧1小时,94,70,57,35,30,195,195,122,122,12,21,8,15,0.4,0.3
2023-09-11T14:00:00,1619A,118.295,35.0583,临沂市,鲁南制药厂,臭氧1小时,100,61,57,26,24,200,200,124,124,8,20,8,13,0.4,0.4
2023-09-11T14:00:00,1620A,118.2794,34.9976,临沂市,新光毛纺厂,臭氧1小时,69,56,51,30,28,175,175,107,107,12,24,9,14,0.6,0.6
2023-09-11T14:00:00,1621A,118.3956,35.0888,临沂市,河东保险公司,臭氧1小时,83,61,51,28,29,186,186,108,108,9,28,6,7,0.5,0.5
2023-09-11T14:00:00,1622A,116.3032,37.4674,德州市,儿童乐园,细颗粒物(PM2.5),67,61,60,48,37,163,163,118,118,2,22,10,9,0.9,0.8
2023-09-11T14:00:00,1624A,116.2991,37.4451,德州市,监理站,细颗粒物(PM2.5),70,66,56,51,38,165,165,122,122,9,17,11,12,0.7,0.6
2023-09-11T14:00:00,1625A,115.9848,36.4372,聊城市,区政府,臭氧1小时,63,57,66,35,50,170,170,108,108,4,17,4,5,0.5,0.6
2023-09-11T14:00:00,1628A,118.0062,37.3803,滨州市,市环保局,细颗粒物(PM2.5),67,63,108,48,74,162,159,116,116,10,23,8,14,0.5,0.9
2023-09-11T14:00:00,1629A,118.0018,37.3617,滨州市,第二水厂,,,68,107,48,86,161,158,110,110,12,30,6,5,,1.1
2023-09-11T14:00:00,1630A,117.9776,37.393,滨州市,北中新校,细颗粒物(PM2.5),63,66,108,45,71,158,150,112,112,13,35,6,10,0.7,1
2023-09-11T14:00:00,1631A,118.0414,36.8103,淄博市,人民公园,细颗粒物(PM2.5),94,119,102,70,68,169,167,102,102,26,34,17,11,0.8,0.9
2023-09-11T14:00:00,1633A,117.8525,36.4847,淄博市,双山,细颗粒物(PM2.5),62,68,62,44,42,162,162,106,106,13,26,4,4,0.6,0.7
2023-09-11T14:00:00,1634A,117.9592,36.6331,淄博市,气象站,臭氧1小时,60,62,75,39,52,191,168,111,111,5,25,7,11,0.4,0.7
2023-09-11T14:00:00,1635A,118.3092,36.8194,淄博市,莆田园,臭氧1小时,99,92,112,58,72,199,199,133,133,18,37,14,15,0.7,1.9
2023-09-11T14:00:00,1637A,117.558,34.8438,枣庄市,市中区政府,臭氧1小时,64,58,90,36,50,177,171,125,125,18,34,9,12,0.4,0.5
2023-09-11T14:00:00,1638A,117.2852,34.7837,枣庄市,薛城环保局,臭氧1小时,60,66,74,35,42,182,168,148,148,16,28,7,9,0.5,0.7
2023-09-11T14:00:00,1639A,117.5852,34.7745,枣庄市,峄城区政府,臭氧1小时,62,58,82,29,45,173,169,111,111,12,27,6,7,0.5,0.7
2023-09-11T14:00:00,1640A,117.7276,34.5578,枣庄市,台儿庄区环保局,,45,41,77,19,49,163,141,98,98,11,24,9,8,0.6,0.7
2023-09-11T14:00:00,1641A,117.4518,35.0992,枣庄市,山亭区环保局,臭氧1小时,65,51,54,34,37,172,172,135,135,13,18,10,9,0.2,0.5
2023-09-11T14:00:00,1642A,121.2514,37.5639,烟台市,开发区,,44,31,25,17,11,140,140,95,95,9,12,4,4,0.7,0.6
2023-09-11T14:00:00,1643A,121.3719,37.5433,烟台市,轴承厂,,40,31,26,20,15,137,126,97,97,5,11,7,7,0.4,0.3
2023-09-11T14:00:00,1644A,121.3181,37.5436,烟台市,西郊化工站,,40,27,22,16,15,131,128,103,103,9,8,4,2,0.6,0.5
2023-09-11T14:00:00,1645A,121.4478,37.4822,烟台市,莱山环保局,,42,24,16,18,9,135,132,101,101,2,5,6,6,0.4,0.4
2023-09-11T14:00:00,1646A,121.2611,37.4967,烟台市,福山环保局,,39,31,27,9,7,124,124,85,85,9,17,7,8,0.8,0.7
2023-09-11T14:00:00,1650A,119.1437,36.7023,潍坊市,环保局,臭氧1小时,102,80,81,59,61,204,204,137,115,18,26,15,10,1.0,1.1
2023-09-11T14:00:00,1653A,116.6251,35.4302,济宁市,火炬城,臭氧1小时,58,33,71,22,32,171,166,113,113,13,28,7,9,0.6,0.7
2023-09-11T14:00:00,1655A,116.5491,35.4042,济宁市,电化厂,颗粒物(PM10),64,77,74,27,34,190,163,133,133,13,22,7,7,0.7,0.7
2023-09-11T14:00:00,1656A,117.1437,36.1937,泰安市,监测站,臭氧1小时,90,90,78,56,52,192,192,111,111,15,18,12,10,0.7,0.8
2023-09-11T14:00:00,1657A,117.0885,36.2017,泰安市,人口学校,臭氧1小时,78,73,59,38,37,182,182,122,122,17,14,10,8,0.6,0.6
2023-09-11T14:00:00,1658A,117.1089,36.1758,泰安市,电力学校,臭氧1小时,78,75,81,48,50,182,182,105,105,9,22,12,10,0.6,0.6
2023-09-11T14:00:00,1659A,119.471,35.4209,日照市,监测站,,48,44,31,23,18,151,151,83,83,18,31,10,7,1.1,0.8
2023-09-11T14:00:00,1660A,119.523,35.4216,日照市,市政府广场,颗粒物(PM10),54,58,31,22,13,141,141,87,87,28,27,16,7,1.4,0.7
2023-09-11T14:00:00,1661A,119.5587,35.4044,日照市,港务局,,45,31,29,18,14,166,141,92,85,13,24,12,10,0.8,0.7
2023-09-11T14:00:00,1662A,122.1214,37.4236,威海市,华夏技校,,42,27,16,12,9,132,132,109,109,15,7,8,4,0.3,0.2
2023-09-11T14:00:00,1663A,122.0508,37.5236,威海市,山大分校,,43,32,16,10,8,143,137,110,110,4,5,9,9,0.4,0.4
2023-09-11T14:00:00,1664A,122.1067,37.5072,威海市,市监测站,,39,29,17,20,17,136,122,105,103,13,5,7,5,0.5,0.4
2023-09-11T14:00:00,1666A,118.6614,37.4309,东营市,市环保局,臭氧1小时,105,85,79,70,65,209,209,130,130,15,21,14,14,0.6,0.7
2023-09-11T14:00:00,1669A,113.5824,24.7733,韶关市,市八中,,28,28,24,11,6,99,83,44,44,6,10,14,14,0.5,0.4
2023-09-11T14:00:00,1671A,113.5917,24.7972,韶关市,园林处,,30,22,17,8,9,102,93,41,41,4,7,13,14,0.9,0.6
2023-09-11T14:00:00,1672A,113.6735,24.7791,韶关市,韶关学院,,23,17,24,8,12,80,73,34,34,5,10,10,8,0.7,0.6
2023-09-11T14:00:00,1673A,113.5971,24.6863,韶关市,曲江监测站,,22,9,29,8,8,80,68,40,40,1,13,8,9,0.5,0.7
2023-09-11T14:00:00,1674A,116.6794,23.3667,汕头市,金平子站,,29,9,24,4,14,115,92,108,88,11,17,6,6,0.6,0.7
2023-09-11T14:00:00,1675A,116.7244,23.3633,汕头市,龙湖子站,,36,15,24,25,12,145,113,122,113,6,14,5,6,0.5,0.6
2023-09-11T14:00:00,1676A,116.7258,23.2775,汕头市,濠江子站,,35,30,27,8,16,141,110,108,102,5,13,7,8,0.5,0.6
2023-09-11T14:00:00,1677A,116.7519,23.4714,汕头市,澄海子站,,30,18,30,11,16,126,94,114,91,7,16,7,8,0.4,0.5
2023-09-11T14:00:00,1678A,116.6092,23.2539,汕头市,潮阳子站,,25,3,25,6,12,126,80,104,78,2,9,8,9,0.3,0.4
2023-09-11T14:00:00,1680A,110.3539,21.2706,湛江市,湛江影剧院,,18,8,13,8,7,63,55,44,39,5,12,10,9,0.4,0.5
2023-09-11T14:00:00,1681A,110.3928,21.2228,湛江市,市环境监测站,,17,11,18,6,6,61,54,41,39,5,11,6,7,0.4,0.6
2023-09-11T14:00:00,1682A,110.4019,21.1997,湛江市,环保局宿舍,,17,6,12,7,7,68,54,38,38,5,14,3,5,0.6,0.6
2023-09-11T14:00:00,1683A,110.4111,21.2028,湛江市,霞山游泳场,,,8,9,3,6,69,57,46,41,,11,,6,0.4,0.5
2023-09-11T14:00:00,1684A,110.3316,21.2679,湛江市,麻章区环保局,,16,11,14,7,8,66,49,39,37,6,13,11,7,0.5,0.6
2023-09-11T14:00:00,1685A,110.4558,21.2567,湛江市,坡头区环保局,,19,6,9,4,4,72,58,50,46,12,7,6,5,0.3,0.3
2023-09-11T14:00:00,1686A,111.0286,21.4688,茂名市,电白南海,,15,12,14,9,8,76,47,50,48,5,5,8,8,0.7,0.6
2023-09-11T14:00:00,1687A,110.9294,21.6533,茂名市,茂石化七小,,,7,7,9,7,62,33,40,39,,7,,8,0.6,0.6
2023-09-11T14:00:00,1688A,110.9107,21.6687,茂名市,健康路,,,,,,,,,,,,,,,,
2023-09-11T14:00:00,1689A,110.8592,21.6828,茂名市,高岭,,,,,,,,,,,,,,,,
2023-09-11T14:00:00,1690A,116.1231,24.3284,梅州市,梅江月梅,,21,18,23,9,10,98,66,58,58,5,13,2,2,0.6,0.7
2023-09-11T14:00:00,1691A,116.0797,24.2719,梅州市,梅县新城,,27,22,24,12,14,84,84,58,58,6,16,6,6,0.6,0.7
2023-09-11T14:00:00,1692A,116.1248,24.2654,梅州市,环境监控中心,,30,22,25,14,13,96,95,62,62,7,14,7,7,0.5,0.5
2023-09-11T14:00:00,1693A,115.3653,22.775,汕尾市,市环保局,,22,3,14,4,9,100,70,54,54,5,7,8,9,0.5,0.5
2023-09-11T14:00:00,1694A,115.3706,22.7898,汕尾市,市政府,,23,1,16,3,10,103,72,56,56,6,9,6,6,0.4,0.4
2023-09-11T14:00:00,1695A,115.3622,22.7925,汕尾市,新城中学,,,,21,6,10,90,62,49,49,7,9,8,8,0.4,0.4
2023-09-11T14:00:00,1696A,114.6778,23.7569,河源市,源西,,,39,22,5,12,61,48,36,36,,19,4,4,0.6,0.7
2023-09-11T14:00:00,1697A,114.6944,23.7586,河源市,东埔,,26,26,24,4,13,58,42,37,37,5,12,5,5,0.6,0.7
2023-09-11T14:00:00,1698A,114.6892,23.7233,河源市,老城,,25,25,24,4,8,61,44,36,36,6,13,4,5,0.5,0.6
2023-09-11T14:00:00,1699A,111.9797,21.8593,阳江市,鸳鸯湖,,14,0,10,5,3,48,42,29,29,4,7,5,5,0.6,0.6
2023-09-11T14:00:00,1701A,111.9491,21.8658,阳江市,马南垌,,13,7,10,5,6,49,39,31,31,6,7,5,5,0.5,0.4
2023-09-11T14:00:00,1702A,113.0426,23.691,清远市,环保大楼,,18,9,14,6,7,78,56,30,30,7,16,7,8,0.5,0.5
2023-09-11T14:00:00,1703A,113.0208,23.7106,清远市,凤城街办,,18,18,18,8,10,66,56,29,29,6,13,7,6,0.4,0.4
2023-09-11T14:00:00,1705A,116.6367,23.6719,潮州市,西园路,,36,36,35,16,18,116,100,83,83,6,11,4,5,0.3,0.4
2023-09-11T14:00:00,1706A,116.6447,23.6706,潮州市,档案局,,34,34,33,9,14,122,106,82,82,5,13,6,8,0.5,0.5
2023-09-11T14:00:00,1708A,116.3701,23.5345,揭阳市,新兴,,27,17,42,18,21,113,86,79,68,6,17,7,11,0.7,0.9
2023-09-11T14:00:00,1709A,116.3264,23.5443,揭阳市,西马,,32,32,48,17,20,109,91,71,65,8,18,6,7,0.7,0.9
2023-09-11T14:00:00,1710A,116.3611,23.5626,揭阳市,东兴,,32,29,52,15,21,122,101,76,76,9,21,4,8,0.9,1
2023-09-11T14:00:00,1711A,116.4151,23.5294,揭阳市,渔湖,,30,19,44,6,18,131,96,85,70,6,18,5,6,0.6,0.8
2023-09-11T14:00:00,1712A,112.0392,22.9169,云浮市,新市府,,25,25,16,12,7,53,46,24,24,14,10,5,5,0.8,0.8
2023-09-11T14:00:00,1714A,112.0539,22.9539,云浮市,牧羊,,27,27,18,11,7,48,42,22,22,18,15,6,6,0.4,0.3
2023-09-11T14:00:00,1715A,102.575,24.3711,玉溪市,东风水库,,30,8,25,9,14,96,96,48,48,6,16,6,8,0.7,1.2
2023-09-11T14:00:00,1718A,115.4208,35.2464,菏泽市,气象局,颗粒物(PM10),62,73,81,42,47,205,164,130,130,15,24,4,6,0.5,0.6
2023-09-11T14:00:00,1719A,115.4747,35.2375,菏泽市,市政协,细颗粒物(PM2.5),83,100,79,61,55,204,160,131,131,14,20,8,9,0.6,0.6
2023-09-11T14:00:00,1721A,113.3819,40.1097,大同市,果树场,,,,,,,,,,,,,,,,
2023-09-11T14:00:00,1723A,113.2994,40.0758,大同市,云冈宾馆,,32,16,30,8,14,149,101,77,57,7,22,8,12,0.4,1
2023-09-11T14:00:00,1724A,113.3444,40.0917,大同市,大同大学,,31,18,34,10,16,150,98,76,60,8,22,9,19,0.5,0.6
2023-09-11T14:00:00,1725A,113.2661,40.1269,大同市,安家小村,,31,15,31,7,12,147,97,75,65,4,14,10,13,0.3,0.6
2023-09-11T14:00:00,1726A,113.2711,40.0844,大同市,教育学院,,32,15,40,10,18,150,100,84,59,9,24,6,10,0.5,1
2023-09-11T14:00:00,1727A,113.1147,36.1547,长治市,清华站,细颗粒物(PM2.5),89,92,47,66,44,130,130,106,91,14,15,11,9,1.1,0.9
2023-09-11T14:00:00,1728A,113.1031,36.1989,长治市,监测站,细颗粒物(PM2.5),77,68,45,56,43,136,133,112,89,19,20,8,6,1.4,1.1
2023-09-11T14:00:00,1730A,113.0886,36.2125,长治市,审计局,细颗粒物(PM2.5),79,54,42,58,46,126,117,98,82,11,14,9,7,1.1,0.8
2023-09-11T14:00:00,1731A,113.0844,36.1856,长治市,长治八中,细颗粒物(PM2.5),72,66,49,52,36,128,115,99,82,14,16,11,10,1.0,0.8
2023-09-11T14:00:00,1733A,111.5531,36.0783,临汾市,临钢医院,颗粒物(PM10),65,80,66,45,34,180,88,49,45,23,25,16,11,1.7,1.3
2023-09-11T14:00:00,1734A,111.5028,36.0714,临汾市,技工学校,细颗粒物(PM2.5),80,75,71,59,42,178,98,56,56,19,24,16,13,1.5,1.2
2023-09-11T14:00:00,1736A,111.5018,36.0855,临汾市,市委,颗粒物(PM10),67,83,74,39,38,162,88,54,54,20,25,11,14,1.5,1.3
2023-09-11T14:00:00,1738A,113.5758,37.8572,阳泉市,市中心,颗粒物(PM10),51,51,37,25,26,151,141,80,69,18,22,24,21,1.3,1.2
2023-09-11T14:00:00,1739A,113.4894,37.8731,阳泉市,赛鱼,,45,34,40,22,26,144,143,76,76,15,30,14,11,1.0,1
2023-09-11T14:00:00,1740A,113.5819,37.8486,阳泉市,南庄,颗粒物(PM10),70,90,62,29,27,152,140,82,68,19,24,20,25,1.2,1.2
2023-09-11T14:00:00,1742A,113.5614,37.8703,阳泉市,平坦,颗粒物(PM10),57,63,47,27,30,151,140,82,80,20,22,21,11,1.1,0.9
2023-09-11T14:00:00,1743A,113.5158,37.8392,阳泉市,大阳泉,,49,30,28,34,28,140,140,80,80,16,23,12,9,1.0,1
2023-09-11T14:00:00,1744A,118.9233,42.2816,赤峰市,松山一中,,28,11,19,6,8,123,87,102,76,9,17,9,10,0.2,0.5
2023-09-11T14:00:00,1745A,118.9576,42.2728,赤峰市,哈达街,,28,18,19,3,8,130,88,97,75,9,15,13,14,0.2,0.4
2023-09-11T14:00:00,1746A,118.8788,42.2554,赤峰市,天义路,,28,5,8,2,9,140,89,110,75,14,14,8,10,0.1,0.3
2023-09-11T14:00:00,1748A,123.044,41.1196,鞍山市,深沟寺,,46,38,26,28,14,147,147,121,121,11,14,6,5,0.8,0.8
2023-09-11T14:00:00,1749A,123.011,41.0931,鞍山市,太阳城,颗粒物(PM10),51,51,31,28,15,142,142,117,117,11,14,8,8,1.0,1
2023-09-11T14:00:00,1750A,123.0485,41.1442,鞍山市,太平,颗粒物(PM10),62,74,38,39,17,143,143,125,125,14,17,8,8,0.9,0.8
2023-09-11T14:00:00,1751A,122.9642,41.0971,鞍山市,铁西三道街,颗粒物(PM10),65,79,55,32,19,140,140,106,106,13,29,8,9,1.1,1.2
2023-09-11T14:00:00,1752A,122.9341,41.0833,鞍山市,铁西工业园区,颗粒物(PM10),56,61,52,37,22,138,137,112,112,11,27,11,10,1.3,1.3
2023-09-11T14:00:00,1753A,123.022,41.0821,鞍山市,明达新区,,43,35,28,24,13,136,136,114,114,9,15,6,5,0.8,0.7
2023-09-11T14:00:00,1754A,123.1289,41.0228,鞍山市,千山,,,,,,,,,,,,,,,,
2023-09-11T14:00:00,1755A,123.7977,41.8491,抚顺市,望花区,,49,49,56,18,17,150,150,93,93,16,43,9,11,0.7,1
2023-09-11T14:00:00,1756A,123.9161,41.8822,抚顺市,顺城区,颗粒物(PM10),52,54,43,25,20,150,150,83,83,12,26,11,10,1.0,1
2023-09-11T14:00:00,1757A,124.0436,41.8611,抚顺市,东洲区,,49,45,33,23,16,154,154,100,100,10,14,9,8,0.8,0.7
2023-09-11T14:00:00,1758A,123.9247,41.8642,抚顺市,新抚区,,47,43,39,21,17,148,148,84,84,10,24,10,11,1.0,0.9
2023-09-11T14:00:00,1759A,124.0972,41.8961,抚顺市,大伙房水库,,48,47,29,22,13,151,151,96,96,7,10,10,8,0.8,0.7
2023-09-11T14:00:00,1760A,123.7086,41.8391,抚顺市,沈抚新城,,47,44,44,23,23,149,149,98,98,7,25,10,13,0.7,1
2023-09-11T14:00:00,1761A,123.8275,41.3064,本溪市,大峪,,46,46,42,25,14,117,117,73,73,10,26,7,6,0.8,0.6
2023-09-11T14:00:00,1762A,123.7567,41.3325,本溪市,溪湖,,40,36,52,13,17,127,127,75,75,5,29,11,11,0.7,1.2
2023-09-11T14:00:00,1763A,123.7169,41.3094,本溪市,彩屯,,38,28,56,18,31,121,121,69,69,7,38,9,11,0.7,1.9
2023-09-11T14:00:00,1764A,123.7669,41.2864,本溪市,东明,颗粒物(PM10),54,58,44,20,19,118,106,94,94,31,36,21,8,1.7,0.8
2023-09-11T14:00:00,1765A,123.7992,41.2664,本溪市,新立屯,,33,26,27,14,13,111,105,87,87,12,34,8,8,0.6,0.6
2023-09-11T14:00:00,1766A,123.8142,41.3472,本溪市,威宁,,34,32,47,17,18,107,107,64,64,11,26,7,6,0.8,0.9
2023-09-11T14:00:00,1767A,121.1115,41.0879,锦州市,南山,,36,31,35,10,31,132,113,90,90,8,22,7,10,0.6,0.8
2023-09-11T14:00:00,1768A,121.0533,40.8434,锦州市,开发区,,50,50,48,25,26,156,156,102,102,19,21,14,18,1.1,0.9
2023-09-11T14:00:00,1769A,121.1836,41.1119,锦州市,百股街道,,38,26,34,12,23,137,120,92,92,4,17,8,11,0.6,0.8
2023-09-11T14:00:00,1770A,121.1178,41.1222,锦州市,天安街道,,35,23,39,14,23,135,111,88,88,8,18,10,15,0.7,0.8
2023-09-11T14:00:00,1771A,121.1303,41.1386,锦州市,北湖公园,,40,40,44,8,27,139,114,90,90,2,12,10,15,0.8,0.8
2023-09-11T14:00:00,1772A,126.54,43.8622,吉林市,哈达湾,,33,28,30,16,15,104,104,68,68,7,15,6,6,0.6,0.7
2023-09-11T14:00:00,1773A,126.5844,43.8358,吉林市,东局子,,34,34,24,19,14,96,96,66,66,13,13,6,6,0.6,0.8
2023-09-11T14:00:00,1774A,126.5052,43.8245,吉林市,电力学院,,35,35,35,15,18,98,98,60,60,10,19,9,9,0.7,0.7
2023-09-11T14:00:00,1775A,126.6133,43.8972,吉林市,江北,,44,44,37,19,17,98,98,71,71,12,15,8,8,0.9,0.8
2023-09-11T14:00:00,1776A,126.555,43.8306,吉林市,江南公园,,32,28,29,16,18,101,101,64,64,8,16,6,6,0.7,0.7
2023-09-11T14:00:00,1778A,126.7061,43.7133,吉林市,丰满,,,,,,,,,,,,,,,,
2023-09-11T14:00:00,1779A,123.9305,47.3636,齐齐哈尔市,安居小区,,,18,27,7,15,83,32,79,35,,13,5,5,0.3,0.3
2023-09-11T14:00:00,1780A,123.9488,47.3386,齐齐哈尔市,中心广场,,20,20,25,12,12,80,29,75,37,5,11,2,2,0.4,0.4
2023-09-11T14:00:00,1781A,123.9483,47.3227,齐齐哈尔市,农牧车辆厂,,17,17,25,2,6,89,28,76,39,8,9,6,6,0.3,0.3
2023-09-11T14:00:00,1783A,123.945,47.2988,齐齐哈尔市,市环境监测站,,19,10,18,13,10,89,28,76,40,7,8,3,3,0.3,0.2
2023-09-11T14:00:00,1784A,129.61,44.561,牡丹江市,环保大楼,,26,17,23,13,11,81,81,64,64,7,18,5,5,0.5,0.6
2023-09-11T14:00:00,1785A,129.6115,44.5782,牡丹江市,文化广场,,25,24,28,6,16,79,79,54,54,9,18,7,7,0.4,0.5
2023-09-11T14:00:00,1786A,129.5904,44.5963,牡丹江市,第一医院,,25,20,25,15,15,77,77,51,51,7,15,5,5,0.4,0.5
2023-09-11T14:00:00,1787A,129.6364,44.6075,牡丹江市,机车工厂,,24,24,33,10,8,74,73,46,46,10,14,2,2,0.5,0.6
2023-09-11T14:00:00,1788A,129.6386,44.5462,牡丹江市,第一中学,,26,24,22,5,7,83,83,50,50,6,15,5,5,0.4,0.5
2023-09-11T14:00:00,1789A,124.81117,46.03138,大庆市,大同区,,28,28,34,19,21,94,81,80,80,9,13,6,7,0.5,0.5
2023-09-11T14:00:00,1790A,125.129,46.533,大庆市,龙凤区,,37,37,32,18,11,88,80,76,76,11,14,4,4,0.6,0.5
2023-09-11T14:00:00,1791A,124.902,46.408,大庆市,红岗区,,44,44,27,23,14,98,80,84,84,10,10,4,4,0.3,0.5
2023-09-11T14:00:00,1792A,125.153,46.586,大庆市,萨尔图区,,,51,34,,18,94,75,84,84,14,13,,8,0.3,0.2
2023-09-11T14:00:00,1793A,124.9042,46.6215,大庆市,让胡路区,,,,,,,,,,,,,,,,
2023-09-11T14:00:00,1794A,118.3606,31.3519,芜湖市,监测站,臭氧1小时,102,46,51,26,35,207,204,134,134,8,17,7,8,0.6,0.7
2023-09-11T14:00:00,1795A,118.3714,31.4134,芜湖市,科创中心,臭氧1小时,102,45,59,29,36,203,203,138,138,18,32,7,10,0.5,0.8
2023-09-11T14:00:00,1796A,118.3673,31.3131,芜湖市,四水厂,臭氧1小时,106,71,57,33,35,211,211,142,142,11,17,6,6,0.7,0.7
2023-09-11T14:00:00,1798A,118.5092,31.6837,马鞍山市,湖东路四小,臭氧1小时,101,39,48,24,35,201,201,142,129,11,19,6,8,0.4,0.6
2023-09-11T14:00:00,1799A,118.5024,31.6449,马鞍山市,开发区,臭氧1小时,103,52,56,28,33,208,206,134,134,13,19,8,9,0.8,0.9
2023-09-11T14:00:00,1800A,118.5228,31.7231,马鞍山市,慈湖,臭氧1小时,103,59,55,30,36,205,205,133,133,12,20,10,14,0.8,0.8
2023-09-11T14:00:00,1802A,118.6245,31.7241,马鞍山市,濮塘,臭氧1小时,87,47,42,29,33,189,189,127,119,4,11,4,4,0.7,0.9
2023-09-11T14:00:00,1803A,115.9872,29.6815,九江市,十里,细颗粒物(PM2.5),52,37,54,36,40,170,130,99,99,7,23,9,11,0.6,0.8
2023-09-11T14:00:00,1804A,115.9584,29.7046,九江市,茅山头,臭氧1小时,74,46,52,32,36,195,179,110,110,16,29,11,10,0.7,0.8
2023-09-11T14:00:00,1805A,115.9877,29.7295,九江市,西园,,47,42,54,20,34,159,150,103,103,9,28,10,12,0.6,0.7
2023-09-11T14:00:00,1806A,116.0172,29.6547,九江市,五七二七厂,,,21,32,23,22,149,126,103,103,,11,10,10,0.5,0.5
2023-09-11T14:00:00,1808A,115.9114,29.6038,九江市,综合工业园,,40,40,61,22,36,181,122,98,98,35,36,12,13,0.6,0.9
2023-09-11T14:00:00,1809A,116.0721,29.7535,九江市,石化总厂,,49,49,58,22,35,151,148,93,93,6,23,11,12,0.7,0.8
2023-09-11T14:00:00,1810A,115.9773,29.5698,九江市,庐山气象台,,44,44,26,22,18,137,123,120,117,4,4,14,9,0.7,0.6
2023-09-11T14:00:00,1812A,112.3931,34.6516,洛阳市,市委党校,细颗粒物(PM2.5),80,59,64,59,64,101,80,60,60,8,22,6,4,0.6,0.6
2023-09-11T14:00:00,1814A,112.4657,34.6871,洛阳市,豫西宾馆,细颗粒物(PM2.5),75,75,53,55,57,98,84,52,52,10,26,3,3,0.9,1
2023-09-11T14:00:00,1815A,112.494,34.6886,洛阳市,河南林校,细颗粒物(PM2.5),55,55,57,39,40,100,83,50,50,14,25,6,5,0.8,0.8
2023-09-11T14:00:00,1816A,112.3844,34.623,洛阳市,开发区管委会,细颗粒物(PM2.5),59,61,72,42,44,101,85,59,59,10,18,2,3,0.5,0.5
2023-09-11T14:00:00,1817A,112.4267,34.6258,洛阳市,市委新办公区,细颗粒物(PM2.5),78,66,76,57,68,99,98,61,61,3,13,3,2,0.6,0.7
2023-09-11T14:00:00,1818A,114.4839,36.0621,安阳市,棉研所,,,,,,,,,,,,,,,,
2023-09-11T14:00:00,1819A,114.3551,36.1017,安阳市,红庙街,细颗粒物(PM2.5),64,74,59,46,42,134,134,108,108,18,20,6,5,1.1,0.9
2023-09-11T14:00:00,1820A,114.361,36.0681,安阳市,银杏小区,,,67,55,,,138,138,89,89,14,16,8,7,0.9,0.8
2023-09-11T14:00:00,1824A,114.3389,34.7781,开封市,肿瘤医院,颗粒物(PM10),58,65,53,37,35,164,146,93,93,9,11,4,5,0.7,0.7
2023-09-11T14:00:00,1826A,114.2885,34.7965,开封市,世纪星幼儿园,,,52,51,,,162,136,96,81,15,17,6,6,0.8,0.8
2023-09-11T14:00:00,1828A,113.227,35.2125,焦作市,市环保局,细颗粒物(PM2.5),99,69,55,74,49,164,68,86,44,22,20,11,9,1.6,0.7
2023-09-11T14:00:00,1830A,113.1992,35.2590,焦作市,影视城,,,,,,,,,,,,,,,,
2023-09-11T14:00:00,1832A,113.3257,33.742,平顶山市,新华旅馆,细颗粒物(PM2.5),60,59,55,43,38,140,125,108,102,11,18,5,5,0.6,0.6
2023-09-11T14:00:00,1833A,113.2919,33.737,平顶山市,规划设计院,细颗粒物(PM2.5),58,56,44,41,36,140,123,98,98,10,16,8,7,0.8,0.8
2023-09-11T14:00:00,1834A,113.182,33.774,平顶山市,平顶山工学院,颗粒物(PM10),56,61,52,39,34,144,112,74,74,11,16,5,9,0.9,0.8
2023-09-11T14:00:00,1835A,111.1922,34.7752,三门峡市,市政府,细颗粒物(PM2.5),62,66,43,44,33,130,63,74,49,18,12,11,4,0.9,0.9
2023-09-11T14:00:00,1836A,111.1587,34.7942,三门峡市,开发区,颗粒物(PM10),67,84,71,42,38,135,65,66,58,10,14,8,6,0.7,0.7
2023-09-11T14:00:00,1838A,111.143,34.7955,三门峡市,风景区,,,,,,,,,,,,,,,,
2023-09-11T14:00:00,1840A,111.2992,30.6981,宜昌市,白龙岗,,34,34,26,19,13,140,74,68,68,24,18,5,5,0.8,0.6
2023-09-11T14:00:00,1841A,111.3549,30.6465,宜昌市,伍家岗,,39,19,19,27,18,150,74,55,55,18,17,4,4,0.7,0.5
2023-09-11T14:00:00,1842A,111.2628,30.6961,宜昌市,点军区,,26,19,29,14,10,156,82,74,74,17,12,7,7,0.5,0.4
2023-09-11T14:00:00,1843A,111.3275,30.7819,宜昌市,夷陵区,,31,31,20,12,15,159,82,44,44,14,17,4,4,0.6,0.5
2023-09-11T14:00:00,1844A,112.2494,30.3197,荆州市,市图书馆,,47,47,29,28,25,155,86,97,86,8,10,9,10,0.8,0.7
2023-09-11T14:00:00,1845A,112.2008,30.3544,荆州市,市委党校,细颗粒物(PM2.5),52,41,36,36,26,142,84,83,82,7,10,9,10,0.7,0.6
2023-09-11T14:00:00,1847A,113.1094,29.3578,岳阳市,南湖风景区,,42,35,40,29,29,134,122,82,82,4,14,9,9,0.4,0.5
2023-09-11T14:00:00,1848A,113.1493,29.4251,岳阳市,城陵矶,细颗粒物(PM2.5),52,48,50,36,32,137,126,75,75,11,22,9,9,0.8,0.8
2023-09-11T14:00:00,1849A,113.1497,29.3575,岳阳市,开发区,,36,31,41,25,29,131,115,83,83,11,15,8,9,0.4,0.5
2023-09-11T14:00:00,1850A,113.2621,29.4758,岳阳市,云溪区,细颗粒物(PM2.5),55,52,40,39,31,145,137,90,90,17,19,12,10,0.8,0.6
2023-09-11T14:00:00,1851A,112.9943,29.4402,岳阳市,君山区,,,,55,25,38,134,134,80,80,8,21,10,10,0.6,0.7
2023-09-11T14:00:00,1852A,113.2117,29.355,岳阳市,金凤水库,,48,34,37,18,27,152,152,95,95,7,11,5,4,1.0,0.8
2023-09-11T14:00:00,1854A,111.6975,28.9703,常德市,市二中,细颗粒物(PM2.5),53,54,51,37,38,135,120,77,77,6,8,5,6,0.7,0.7
2023-09-11T14:00:00,1857A,111.7158,29.1456,常德市,白鹤山,,38,38,33,11,10,119,94,74,70,3,5,5,7,0.7,0.6
2023-09-11T14:00:00,1858A,110.5319,29.1217,张家界市,永定新区,,50,48,46,35,35,123,112,90,90,5,12,5,6,0.4,0.4
2023-09-11T14:00:00,1859A,110.4697,29.1242,张家界市,电业局,,46,40,42,32,32,127,106,99,91,4,10,3,4,0.5,0.5
2023-09-11T14:00:00,1860A,110.5594,29.3547,张家界市,未央路,颗粒物(PM10),51,51,38,35,27,115,106,67,67,4,10,4,3,0.5,0.4
2023-09-11T14:00:00,1861A,110.4417,29.315,张家界市,袁家界,,39,35,34,27,29,114,95,89,89,4,6,8,8,0.4,0.4
2023-09-11T14:00:00,1862A,110.4144,25.3167,桂林市,电子科大尧山校区,,36,36,16,8,6,63,63,39,39,6,5,4,4,0.6,0.5
2023-09-11T14:00:00,1863A,110.2819,25.2697,桂林市,监测站,,25,23,19,14,9,78,78,45,45,8,10,7,8,0.6,0.6
2023-09-11T14:00:00,1864A,110.3089,25.2708,桂林市,龙隐路小学,,24,17,20,9,8,76,76,45,45,6,10,6,7,0.5,0.6
2023-09-11T14:00:00,1865A,110.2869,25.2178,桂林市,八中,,22,10,14,6,5,69,68,41,41,5,11,3,4,0.7,0.7
2023-09-11T14:00:00,1866A,109.2262,21.588,北海市,牛尾岭水库,,,,7,,2,68,,61,54,,7,,4,,0.5
2023-09-11T14:00:00,1867A,109.1436,21.4086,北海市,海滩公园,,38,38,21,2,3,103,73,78,77,4,6,3,3,0.5,0.6
2023-09-11T14:00:00,1868A,109.0981,21.4661,北海市,新市环保局,,23,10,15,5,6,101,72,76,72,4,6,3,4,0.5,0.6
2023-09-11T14:00:00,1869A,109.1778,21.5233,北海市,北海工业园,,25,11,10,7,7,91,78,76,71,5,7,4,4,0.5,0.5
2023-09-11T14:00:00,1870A,109.4856,24.3895,柳州市,柳东小学,,22,9,9,15,8,77,56,50,50,4,6,6,7,0.2,0.3
2023-09-11T14:00:00,1871A,109.4157,24.3277,柳州市,环保监测站,,17,9,8,10,5,69,53,44,44,4,7,4,4,0.4,0.5
2023-09-11T14:00:00,1872A,109.389,24.341,柳州市,河西水厂,,17,5,16,3,6,70,52,44,44,2,4,5,5,0.6,0.6
2023-09-11T14:00:00,1873A,109.4311,24.2921,柳州市,市四中,,17,9,13,2,6,68,53,51,43,8,10,8,9,0.5,0.5
2023-09-11T14:00:00,1874A,109.4006,24.3631,柳州市,市九中,,18,9,14,6,6,72,57,47,47,3,6,6,6,0.3,0.4
2023-09-11T14:00:00,1875A,109.4958,24.3134,柳州市,古亭山,,16,6,9,5,4,72,51,43,43,4,8,8,9,0.5,0.5
2023-09-11T14:00:00,1876A,109.5078,18.2489,三亚市,河东子站,,20,6,19,4,9,62,62,33,33,4,10,3,3,0.4,0.5
2023-09-11T14:00:00,1877A,109.4964,18.2681,三亚市,河西子站,,18,5,17,4,8,57,57,31,31,2,9,1,1,0.4,0.5
2023-09-11T14:00:00,1878A,104.7778,31.4741,绵阳市,富乐山,,22,10,22,6,16,112,70,82,80,4,11,4,4,0.5,0.6
2023-09-11T14:00:00,1879A,104.7563,31.4535,绵阳市,市人大,,20,12,25,7,17,113,64,74,70,10,22,10,7,0.4,0.6
2023-09-11T14:00:00,1880A,104.6697,31.4668,绵阳市,高新区自来水公司,,22,13,29,6,16,136,70,80,76,11,19,6,7,0.4,0.5
2023-09-11T14:00:00,1881A,104.7287,31.5075,绵阳市,三水厂,,,,,,,,,,,,,,,,
2023-09-11T14:00:00,1882A,104.563,28.793,宜宾市,石马中学,,,,,,,,,,,,,,,,
2023-09-11T14:00:00,1883A,104.6201,28.7728,宜宾市,市委,,30,30,45,21,31,132,56,82,44,16,19,8,9,0.6,0.7
2023-09-11T14:00:00,1884A,104.6055,28.793,宜宾市,宜宾四中,,33,27,45,23,33,137,56,93,44,14,18,8,12,0.5,0.6
2023-09-11T14:00:00,1885A,104.639,28.7562,宜宾市,市政府,,30,29,41,21,30,153,61,98,52,12,17,8,9,0.6,0.6
2023-09-11T14:00:00,1886A,104.5742,28.7199,宜宾市,黄金嘴,,33,32,50,23,33,152,63,54,50,12,17,7,9,0.5,0.6
2023-09-11T14:00:00,1888A,101.6891,26.571,攀枝花市,弄弄坪,,43,43,48,26,21,102,102,34,34,14,20,28,15,0.9,1
2023-09-11T14:00:00,1889A,101.5769,26.5928,攀枝花市,河门口,颗粒物(PM10),57,64,46,38,26,130,130,44,44,24,35,50,38,2.4,2.8
2023-09-11T14:00:00,1890A,101.7169,26.585,攀枝花市,炳草岗,,49,49,54,26,22,117,117,41,41,12,28,44,32,0.9,1
2023-09-11T14:00:00,1891A,101.7369,26.5008,攀枝花市,仁和,细颗粒物(PM2.5),58,64,36,41,22,126,124,50,50,16,15,39,14,0.8,0.5
2023-09-11T14:00:00,1893A,105.4324,28.9634,泸州市,九狮山,,47,47,44,27,31,124,117,67,64,18,17,6,5,0.4,0.5
2023-09-11T14:00:00,1894A,105.4427,28.9063,泸州市,小市上码头,细颗粒物(PM2.5),68,64,63,49,47,153,153,97,91,9,13,6,8,0.6,0.6
2023-09-11T14:00:00,1895A,105.4241,28.8573,泸州市,兰田宪桥,细颗粒物(PM2.5),72,59,69,52,55,160,160,86,86,8,12,8,10,0.4,0.5
2023-09-11T14:00:00,1896A,105.4379,28.8833,泸州市,市环监站,细颗粒物(PM2.5),58,53,63,41,40,136,136,86,78,11,14,4,6,0.7,0.7
2023-09-11T14:00:00,1901A,104.4239,31.1208,德阳市,东山公园,,25,18,35,7,16,138,80,82,82,4,12,3,2,0.4,0.5
2023-09-11T14:00:00,1902A,104.3826,31.1317,德阳市,西小区,,24,24,33,7,18,131,74,76,76,5,12,3,2,0.4,0.5
2023-09-11T14:00:00,1904A,104.3553,31.1091,德阳市,耐火材料厂,,22,13,33,5,17,131,69,75,75,13,11,3,3,0.4,0.6
2023-09-11T14:00:00,1905A,106.056,30.8064,南充市,西山风景区,,22,2,33,5,28,135,69,70,54,2,6,2,2,0.3,0.5
2023-09-11T14:00:00,1906A,106.0789,30.8023,南充市,南充市委,,22,1,38,15,30,166,66,54,54,9,16,5,6,0.3,0.5
2023-09-11T14:00:00,1907A,106.1031,30.8217,南充市,南充炼油厂,,22,19,46,1,25,143,68,55,55,5,13,5,6,0.4,0.5
2023-09-11T14:00:00,1908A,106.1064,30.7856,南充市,高坪区监测站,,22,4,43,5,31,153,68,56,56,7,16,6,6,0.0,0.2
2023-09-11T14:00:00,1909A,106.0642,30.7636,南充市,嘉陵区环保局,,21,1,36,5,27,169,65,49,49,10,18,4,5,0.2,0.3
2023-09-11T14:00:00,1910A,106.1087,30.8388,南充市,市环境监测站,,21,10,37,10,31,136,66,56,56,8,15,6,8,0.2,0.4
2023-09-11T14:00:00,1911A,106.9222,27.6869,遵义市,丁字口,,25,23,23,14,15,95,80,57,57,25,24,5,5,0.7,0.8
2023-09-11T14:00:00,1912A,106.9242,27.7019,遵义市,凤凰山,,32,23,29,19,22,112,102,69,69,4,12,7,7,0.4,0.5
2023-09-11T14:00:00,1913A,106.8906,27.6486,遵义市,忠庄,,31,29,36,13,18,105,98,60,60,5,13,3,2,0.4,0.5
2023-09-11T14:00:00,1914A,106.9231,27.6506,遵义市,舟水桥,,34,20,34,13,18,111,106,64,64,4,13,2,2,0.3,0.5
2023-09-11T14:00:00,1915A,106.9178,27.72,遵义市,干田坝,,31,21,21,11,15,106,98,61,61,6,16,6,5,0.4,0.5
2023-09-11T14:00:00,1916A,103.7897,25.5035,曲靖市,环境监测站,,30,22,29,10,15,94,94,59,59,7,13,2,6,0.4,0.5
2023-09-11T14:00:00,1917A,103.8,25.5364,曲靖市,烟厂办公区,,33,16,24,11,14,103,103,64,54,5,13,4,6,0.5,0.6
2023-09-11T14:00:00,1918A,108.7197,34.3956,咸阳市,气象站,,,,,,,,,,,,,,,,
2023-09-11T14:00:00,1919A,108.673,34.3155,咸阳市,实验中学,,25,20,51,7,28,160,77,58,43,10,27,6,7,0.4,0.5
2023-09-11T14:00:00,1920A,108.7233,34.3617,咸阳市,师范学院,,22,12,49,6,29,170,70,54,40,20,39,5,6,0.5,0.6
2023-09-11T14:00:00,1922A,109.0656,35.0994,铜川市,党校,,17,17,46,11,23,179,54,28,28,17,27,12,12,0.6,0.8
2023-09-11T14:00:00,1923A,109.0697,35.0697,铜川市,王益区政府,,21,17,40,12,22,177,66,36,36,10,25,6,6,0.5,0.7
2023-09-11T14:00:00,1924A,108.9344,34.9058,铜川市,新区管委会,,20,19,40,13,20,177,63,65,43,8,19,5,7,0.4,0.6
2023-09-11T14:00:00,1926A,109.4131,36.6275,延安市,枣园,,30,16,31,13,14,156,96,26,26,21,24,6,6,0.5,0.5
2023-09-11T14:00:00,1927A,109.4761,36.6028,延安市,延大医附院,,30,24,31,13,11,153,94,28,28,22,27,4,5,0.4,0.4
2023-09-11T14:00:00,1929A,109.5056,36.6106,延安市,百米大道,,31,21,34,10,13,142,99,29,29,25,33,7,7,0.7,0.9
2023-09-11T14:00:00,1930A,107.185,34.3063,宝鸡市,庙沟村,,,10,17,5,7,115,59,55,55,,13,8,8,0.1,0.1
2023-09-11T14:00:00,1931A,107.0708,34.3017,宝鸡市,竹园沟,,24,12,14,6,6,141,74,66,66,13,15,5,5,0.4,0.6
2023-09-11T14:00:00,1932A,107.1906,34.3672,宝鸡市,三陆医院,,25,13,25,6,10,134,78,58,58,14,25,6,7,0.3,0.5
2023-09-11T14:00:00,1933A,107.1431,34.3547,宝鸡市,监测站,,23,17,23,8,10,138,72,58,58,13,26,7,7,0.2,0.4
2023-09-11T14:00:00,1934A,107.1186,34.3739,宝鸡市,技工学校,,26,12,22,8,14,138,81,63,63,6,19,5,5,0.4,0.6
2023-09-11T14:00:00,1935A,107.3906,34.3528,宝鸡市,陈仓区环保局家属楼,,29,14,30,9,11,119,90,64,64,10,30,6,7,0.3,0.5
2023-09-11T14:00:00,1936A,107.2058,34.3497,宝鸡市,文理学院,,26,17,25,5,9,141,82,66,66,11,22,6,6,0.4,0.5
2023-09-11T14:00:00,1937A,107.2386,34.3622,宝鸡市,三迪小学,,27,13,22,8,8,132,85,59,59,10,23,4,5,0.4,0.5
2023-09-11T14:00:00,1938A,109.5293,34.5101,渭南市,农科所,细颗粒物(PM2.5),64,68,44,46,26,165,59,64,24,26,28,4,4,0.6,0.5
2023-09-11T14:00:00,1939A,109.4974,34.4877,渭南市,日报社,细颗粒物(PM2.5),77,34,47,56,32,182,55,47,24,29,34,5,5,0.6,0.5
2023-09-11T14:00:00,1940A,109.4636,34.493,渭南市,体育馆,,35,34,50,24,29,188,62,48,22,30,45,3,3,0.6,0.6
2023-09-11T14:00:00,1941A,109.4259,34.5023,渭南市,高新一小,,39,39,66,17,32,190,55,50,19,32,38,5,5,0.5,0.6
2023-09-11T14:00:00,1943A,102.1725,38.5339,金昌市,新川苑,,,,,,,,,,,,,,,,
2023-09-11T14:00:00,1944A,102.1692,38.5167,金昌市,天庆家园,,40,11,24,5,6,127,125,104,100,9,16,10,7,0.5,0.5
2023-09-11T14:00:00,1945A,98.2908,39.7711,嘉峪关市,气象局,,44,44,49,12,13,127,127,68,68,8,30,4,5,0.1,0.2
2023-09-11T14:00:00,1947A,106.3394,38.817,石嘴山市,沙湖旅游区,颗粒物(PM10),67,84,74,20,14,202,122,82,82,8,20,25,12,0.8,0.7
2023-09-11T14:00:00,1948A,106.3668,39.0145,石嘴山市,大武口朝阳西街,颗粒物(PM10),84,117,90,33,22,173,114,105,84,20,23,29,8,0.5,0.4
2023-09-11T14:00:00,1949A,106.7704,39.2282,石嘴山市,惠农南大街,颗粒物(PM10),56,61,106,26,31,195,102,95,64,23,30,20,30,0.7,1.1
2023-09-11T14:00:00,1950A,106.7099,39.1325,石嘴山市,红果子镇惠新街,颗粒物(PM10),58,66,87,10,24,199,111,92,60,10,27,31,31,0.3,0.9
2023-09-11T14:00:00,1951A,84.895,45.6094,克拉玛依市,长征新村,,36,36,39,10,8,111,94,74,68,11,19,11,10,0.2,0.3
2023-09-11T14:00:00,1952A,84.8988,45.5893,克拉玛依市,南林小区,,40,40,40,10,15,109,88,51,51,16,33,6,6,0.4,0.6
2023-09-11T14:00:00,1954A,84.905,44.3396,克拉玛依市,独山子区,,,14,29,5,17,152,122,104,104,12,12,,11,0.5,0.5
2023-09-11T14:00:00,1955A,85.6979,46.098,克拉玛依市,乌尔禾区商贸楼,,35,33,37,6,12,111,111,50,50,2,16,8,8,0.4,0.6
2023-09-11T14:00:00,1956A,86.1472,41.7538,巴音郭楞州,孔雀公园,颗粒物(PM10),65,79,67,20,17,116,98,80,52,13,35,9,12,0.3,0.5
2023-09-11T14:00:00,1957A,86.1972,41.7166,巴音郭楞州,棉纺厂,颗粒物(PM10),63,75,72,17,22,114,107,70,62,8,29,8,8,0.3,0.4
2023-09-11T14:00:00,1958A,86.2357,41.7173,巴音郭楞州,经济开发区,,49,49,82,12,24,119,111,88,84,4,12,8,9,0.2,0.3
2023-09-11T14:00:00,1961A,117.532,36.6868,济南市,东山小学,臭氧1小时,90,78,76,42,47,192,192,136,136,16,28,7,6,0.7,0.8
2023-09-11T14:00:00,1966A,120.0405,35.8735,青岛市,黄岛区4号,,46,31,26,19,12,145,145,90,90,14,19,13,7,1.2,0.6
2023-09-11T14:00:00,1982A,122.0693,37.2174,威海市,文登开发区,,37,19,24,9,10,118,116,90,90,7,13,6,6,0.4,0.4
2023-09-11T14:00:00,2031A,113.1817,27.9958,株洲市,云田中学,,35,17,34,16,17,143,109,78,78,4,8,6,8,0.6,0.7
2023-09-11T14:00:00,2054A,114.1099,32.1059,信阳市,平桥分局,细颗粒物(PM2.5),58,50,30,41,22,112,112,81,81,12,10,3,3,0.8,0.7
2023-09-11T14:00:00,2064A,113.9956,32.1271,信阳市,南湾水厂,颗粒物(PM10),51,51,38,35,19,109,83,67,67,7,9,3,3,0.8,0.7
2023-09-11T14:00:00,2065A,114.0775,32.1195,信阳市,市酿酒公司,,50,50,30,29,20,112,112,84,84,13,12,2,3,0.9,0.8
2023-09-11T14:00:00,2066A,114.0609,32.1399,信阳市,审计局,颗粒物(PM10),51,52,36,33,18,113,94,84,84,16,11,4,4,1.0,0.8
2023-09-11T14:00:00,2067A,114.6613,33.6128,周口市,市环境监测站,臭氧1小时,72,41,49,25,28,179,177,143,143,10,17,5,7,0.5,0.6
2023-09-11T14:00:00,2068A,114.6758,33.6347,周口市,周口师范,臭氧1小时,64,42,46,19,27,172,171,132,132,6,14,4,6,0.5,0.7
2023-09-11T14:00:00,2069A,114.6546,33.5979,周口市,市运管处,臭氧1小时,64,48,47,23,26,174,171,138,138,11,18,8,10,0.6,0.7
2023-09-11T14:00:00,2070A,114.6369,33.6406,周口市,川汇区环保局,臭氧1小时,55,42,43,29,27,166,164,129,129,6,13,6,8,0.6,0.7
2023-09-11T14:00:00,2075A,117.6336,24.4674,漳州市,九湖,,,,,,,,,,,,,,,,
2023-09-11T14:00:00,2160A,112.85,35.5051,晋城市,自来水公司,颗粒物(PM10),55,59,72,36,38,165,93,142,82,22,19,7,8,1.1,1.1
2023-09-11T14:00:00,2161A,112.8318,35.4936,晋城市,白云商贸,颗粒物(PM10),58,66,62,34,35,159,90,119,82,22,21,8,9,1.2,1.1
2023-09-11T14:00:00,2162A,112.8508,35.4887,晋城市,市环保局,颗粒物(PM10),58,65,73,39,41,155,85,122,77,23,22,8,8,1.2,1.1
2023-09-11T14:00:00,2163A,112.8676,35.4897,晋城市,技术学院,颗粒物(PM10),56,61,62,39,34,155,87,133,67,26,23,7,8,1.1,1.1
2023-09-11T14:00:00,2165A,112.8453,35.546,晋城市,白马寺,,,,,,,,,,,,,,,,
2023-09-11T14:00:00,2166A,112.4397,39.3522,朔州市,平朔,,44,44,46,20,19,146,100,79,57,18,26,17,10,0.5,0.5
2023-09-11T14:00:00,2167A,112.4575,39.3617,朔州市,朔唯,颗粒物(PM10),54,58,62,12,20,139,91,78,51,17,28,16,11,0.7,0.6
2023-09-11T14:00:00,2168A,112.4258,39.3197,朔州市,区政府,,44,44,42,21,16,138,96,86,60,15,20,14,11,0.6,0.6
2023-09-11T14:00:00,2169A,112.4072,39.3278,朔州市,市环保局,,47,47,48,15,17,145,117,88,65,14,20,16,12,0.6,0.6
2023-09-11T14:00:00,2170A,112.4272,39.3681,朔州市,市二中,,42,42,52,15,21,142,107,68,56,17,27,17,12,0.6,0.6
2023-09-11T14:00:00,2171A,112.7532,37.6945,晋中市,锦纶小区,颗粒物(PM10),62,73,45,27,14,161,151,63,63,21,29,14,10,1.0,0.7
2023-09-11T14:00:00,2173A,112.7249,37.7067,晋中市,南都小区,颗粒物(PM10),58,66,44,30,22,156,147,62,62,22,33,13,9,0.9,0.7
2023-09-11T14:00:00,2174A,112.6991,37.6982,晋中市,榆次区政府,颗粒物(PM10),56,61,43,33,17,156,153,63,63,22,36,16,12,1.0,0.9
2023-09-11T14:00:00,2175A,110.9956,35.0147,运城市,运城中学,细颗粒物(PM2.5),73,62,51,53,32,139,69,98,53,11,11,5,4,1.1,1
2023-09-11T14:00:00,2178A,110.9686,35.0303,运城市,地区技校,细颗粒物(PM2.5),64,67,45,46,37,135,62,86,40,12,14,6,4,0.9,0.8
2023-09-11T14:00:00,2179A,111.0414,35.1147,运城市,空港新区,细颗粒物(PM2.5),80,80,57,59,43,145,73,61,49,16,18,5,4,1.4,1
2023-09-11T14:00:00,2181A,112.7383,38.4519,忻州市,开发区,细颗粒物(PM2.5),65,68,52,47,36,123,65,34,34,27,34,22,19,0.9,0.9
2023-09-11T14:00:00,2182A,112.7003,38.4928,忻州市,会展中心,细颗粒物(PM2.5),63,56,48,45,36,123,78,42,42,22,32,15,15,0.6,0.7
2023-09-11T14:00:00,2183A,111.1406,37.5211,吕梁市,环保局,颗粒物(PM10),53,56,53,23,17,129,90,32,32,11,36,2,3,0.7,0.6
2023-09-11T14:00:00,2185A,111.1297,37.5136,吕梁市,自来水公司,,,60,54,,20,128,90,34,34,,31,5,6,,0.6
2023-09-11T14:00:00,2187A,106.8174,39.6973,乌海市,市林业局,,32,32,76,13,29,189,99,56,56,7,24,8,13,0.5,0.9
2023-09-11T14:00:00,2188A,106.7907,39.6667,乌海市,中海勃湾学校,,32,30,62,7,26,195,102,70,63,9,21,9,16,0.2,0.5
2023-09-11T14:00:00,2191A,122.2532,43.6801,通辽市,艺术职业学校,,34,34,37,0,14,126,84,103,73,8,13,5,6,0.2,0.4
2023-09-11T14:00:00,2192A,119.7594,49.2261,呼伦贝尔市,区环保局,,25,15,23,17,20,64,56,50,50,10,11,5,4,0.3,0.3
2023-09-11T14:00:00,2195A,107.4212,40.761,巴彦淖尔市,附二中,,32,21,64,5,19,145,101,68,68,5,14,7,6,0.3,0.4
2023-09-11T14:00:00,2196A,107.37,40.7372,巴彦淖尔市,市环保大楼,,33,33,66,8,21,139,101,79,71,5,10,6,6,0.4,0.4
2023-09-11T14:00:00,2197A,113.1306,40.9923,乌兰察布市,集宁新区,,30,23,28,9,15,156,93,74,68,6,13,12,11,0.4,0.5
2023-09-11T14:00:00,2200A,122.0392,46.0656,兴安盟,胜华新制药厂,,22,14,28,8,16,103,68,74,53,6,9,2,3,0.3,0.4
2023-09-11T14:00:00,2201A,121.9504,46.0741,兴安盟,科右前旗环保局,,23,16,25,12,16,107,72,71,57,3,6,3,4,0.3,0.4
2023-09-11T14:00:00,2202A,116.1042,43.9317,锡林郭勒盟,市环保监测站,,23,9,17,5,6,131,72,68,62,3,4,9,10,0.2,0.2
2023-09-11T14:00:00,2203A,116.0781,43.9311,锡林郭勒盟,市政府,,26,26,20,9,8,139,78,74,69,3,6,10,11,0.2,0.2
2023-09-11T14:00:00,2204A,105.6467,38.8363,阿拉善盟,西城区西花园,,40,40,52,19,21,134,106,93,86,7,16,8,8,0.4,0.5
2023-09-11T14:00:00,2205A,105.6985,38.8411,阿拉善盟,蒙二幼,颗粒物(PM10),53,56,55,14,17,133,108,101,95,5,11,7,8,0.3,0.4
2023-09-11T14:00:00,2206A,105.724,38.8516,阿拉善盟,环保局新楼,,42,42,44,12,17,123,104,105,96,4,8,6,6,0.5,0.5
2023-09-11T14:00:00,2207A,121.6094,41.998,阜新市,工业园区,,32,32,40,7,21,141,80,75,75,6,15,4,11,0.8,1.1
2023-09-11T14:00:00,2208A,121.6697,42.0279,阜新市,长青街,,25,25,42,3,25,135,78,82,74,7,17,5,16,0.2,0.6
2023-09-11T14:00:00,2209A,121.6673,42.0705,阜新市,农业园区,,29,29,37,4,27,141,77,86,76,9,15,7,12,0.4,0.8
2023-09-11T14:00:00,2210A,121.6717,42.0224,阜新市,东苑,,39,39,41,0,20,135,79,89,74,3,12,4,15,0.4,0.7
2023-09-11T14:00:00,2211A,121.6506,42.0498,阜新市,玉龙新城,,37,37,43,3,21,137,78,73,72,10,16,5,10,0.3,0.6
2023-09-11T14:00:00,2212A,123.2,41.1953,辽阳市,宏伟区,,46,37,23,20,9,146,146,114,114,11,11,10,8,0.8,0.5
2023-09-11T14:00:00,2213A,123.1683,41.2495,辽阳市,新华园,,41,40,33,28,12,130,130,96,96,11,21,8,9,0.8,0.6
2023-09-11T14:00:00,2214A,123.2354,41.2639,辽阳市,滨河路,,44,41,22,16,11,138,138,102,102,8,10,10,12,0.8,0.6
2023-09-11T14:00:00,2215A,123.149,41.2991,辽阳市,铁西工业园,,45,45,48,18,18,162,144,104,104,18,27,15,10,1.1,0.8
2023-09-11T14:00:00,2216A,123.8139,42.3022,铁岭市,汇工街西,颗粒物(PM10),54,57,52,25,20,157,143,105,105,10,28,11,16,0.7,0.9
2023-09-11T14:00:00,2217A,123.8649,42.2923,铁岭市,水上乐园,,50,50,50,22,21,158,149,104,104,13,26,4,6,0.8,0.9
2023-09-11T14:00:00,2218A,123.8486,42.2867,铁岭市,银州路东段,颗粒物(PM10),55,60,52,22,18,140,136,99,99,17,35,5,6,0.9,1
2023-09-11T14:00:00,2219A,123.7153,42.2217,铁岭市,金沙江路北,颗粒物(PM10),54,58,45,22,17,152,131,99,99,12,31,9,13,0.9,1.1
2023-09-11T14:00:00,2220A,120.4318,41.5881,朝阳市,西梁,,27,15,28,2,17,122,86,74,74,8,11,10,11,0.4,0.7
2023-09-11T14:00:00,2221A,120.4521,41.5646,朝阳市,河畔小区,,27,14,27,3,13,126,85,81,78,7,9,9,10,0.3,0.6
2023-09-11T14:00:00,2222A,120.4176,41.5648,朝阳市,八里堡,,28,28,32,5,17,122,87,76,76,8,15,8,8,0.4,0.8
2023-09-11T14:00:00,2223A,120.3806,41.5969,朝阳市,农业园区,,25,18,24,8,16,113,80,75,74,8,13,6,7,0.4,0.8
2023-09-11T14:00:00,2225A,124.4002,43.1713,四平市,一商场,,45,45,47,29,20,113,112,93,93,12,21,7,12,0.7,0.6
2023-09-11T14:00:00,2226A,124.388,43.193,四平市,境园,颗粒物(PM10),51,51,46,30,22,120,116,93,93,8,19,3,7,0.7,0.6
2023-09-11T14:00:00,2227A,125.1358,42.8845,辽源市,环保局,,43,27,25,14,12,137,137,86,86,3,15,8,8,0.8,0.7
2023-09-11T14:00:00,2229A,125.9358,41.7173,通化市,光明,,32,17,30,15,16,102,102,65,65,4,13,7,9,0.5,0.7
2023-09-11T14:00:00,2230A,125.9446,41.7325,通化市,铁路,,32,14,27,11,16,102,102,57,57,2,13,6,7,0.6,0.7
2023-09-11T14:00:00,2231A,126.4219,41.9171,白山市,喜丰,,34,34,45,14,18,99,92,48,48,8,15,6,7,0.6,0.7
2023-09-11T14:00:00,2232A,126.4077,41.9419,白山市,环保局,,30,22,38,18,18,95,93,52,52,1,16,8,7,0.6,0.7
2023-09-11T14:00:00,2233A,124.8006,45.1214,松原市,江南,颗粒物(PM10),54,57,43,15,19,113,80,85,85,7,17,7,14,0.4,0.5
2023-09-11T14:00:00,2234A,124.7965,45.1722,松原市,江北,,35,35,29,15,17,113,81,93,91,6,12,4,5,0.4,0.5
2023-09-11T14:00:00,2235A,122.7911,45.6077,白城市,洮北区环保局,,25,18,27,5,8,106,79,88,75,8,10,6,5,0.2,0.2
2023-09-11T14:00:00,2236A,122.8738,45.5725,白城市,市环保局,,28,14,28,2,10,110,88,83,83,5,9,7,8,0.1,0.2
2023-09-11T14:00:00,2237A,129.47,42.8883,延边朝鲜族自治州,妇幼医院,,25,24,32,9,12,81,79,55,55,6,12,8,8,0.5,0.5
2023-09-11T14:00:00,2238A,129.5055,42.9108,延边朝鲜族自治州,延边医院,,26,19,29,12,14,88,83,60,58,9,13,6,6,0.6,0.6
2023-09-11T14:00:00,2239A,129.3964,42.8881,延边朝鲜族自治州,朝阳川镇医院,,26,17,24,8,11,90,83,53,53,4,9,6,6,0.5,0.6
2023-09-11T14:00:00,2240A,130.9762,45.3001,鸡西市,环保局,,28,28,26,15,9,52,52,19,19,9,16,5,5,0.3,0.3
2023-09-11T14:00:00,2243A,130.9429,45.3039,鸡西市,第一中学,,25,24,25,17,10,60,60,26,26,6,15,6,6,0.5,0.2
2023-09-11T14:00:00,2244A,130.2537,47.3416,鹤岗市,哈啤分公司,,,24,27,11,12,74,34,38,24,,9,12,11,0.3,0.3
2023-09-11T14:00:00,2245A,130.2684,47.3086,鹤岗市,斯达机电,,21,21,29,4,12,71,35,40,23,6,12,8,9,0.4,0.4
2023-09-11T14:00:00,2246A,130.3114,47.3388,鹤岗市,东山纸板厂,,42,42,46,7,13,66,31,32,22,11,17,11,12,0.4,0.4
2023-09-11T14:00:00,2247A,130.1097,47.3382,鹤岗市,五号水库,,34,34,20,22,11,82,40,33,31,11,9,11,11,0.3,0.3
2023-09-11T14:00:00,2248A,131.1511,46.6937,双鸭山市,双合村,,20,20,25,13,9,79,60,38,29,5,9,11,8,0.2,0.2
2023-09-11T14:00:00,2249A,131.1652,46.6191,双鸭山市,南小市,,23,22,20,16,9,66,58,44,30,5,8,6,6,0.1,0.1
2023-09-11T14:00:00,2250A,131.1524,46.6554,双鸭山市,环保局,,14,9,22,7,8,61,42,32,23,5,11,8,8,0.4,0.3
2023-09-11T14:00:00,2251A,131.12,46.5656,双鸭山市,苗圃,,26,5,9,4,9,90,83,62,62,4,4,4,3,0.5,0.4
2023-09-11T14:00:00,2252A,128.5159,47.4311,伊春市,环保局,,23,10,24,16,13,71,62,41,41,15,11,4,7,0.4,0.5
2023-09-11T14:00:00,2253A,128.9102,47.7412,伊春市,电力嘉园,,24,19,23,5,10,74,74,46,46,6,11,5,8,0.6,0.8
2023-09-11T14:00:00,2254A,129.5029,48.471,伊春市,汤旺河国家公园,,29,29,20,20,13,84,68,51,51,2,2,15,13,0.4,0.3
2023-09-11T14:00:00,2255A,130.2751,46.8028,佳木斯市,佳纺,,32,32,39,16,17,70,61,25,25,5,18,6,4,0.4,0.5
2023-09-11T14:00:00,2256A,130.3995,46.8307,佳木斯市,发电厂,,20,20,35,13,12,82,55,31,31,9,9,1,1,0.5,0.4
2023-09-11T14:00:00,2257A,130.3258,46.7975,佳木斯市,环保局,,41,41,33,19,17,56,56,19,19,8,26,3,8,0.5,0.7
2023-09-11T14:00:00,2258A,130.3648,46.8032,佳木斯市,十一中,,27,27,39,14,16,77,54,25,25,8,20,4,5,0.5,0.6
2023-09-11T14:00:00,2259A,130.3794,46.7588,佳木斯市,四丰,,25,18,28,11,13,98,80,34,34,2,18,1,1,0.3,0.3
2023-09-11T14:00:00,2262A,131.0518,45.8751,七台河市,新一中,,25,25,21,16,11,64,64,47,47,6,6,8,8,0.8,0.8
2023-09-11T14:00:00,2263A,127.4833,50.2524,黑河市,交通局,,17,17,14,9,8,62,23,31,25,11,10,4,6,0.6,0.5
2023-09-11T14:00:00,2264A,127.5144,50.2341,黑河市,环保局,,25,25,22,9,6,61,26,36,27,8,8,3,3,0.5,0.4
2023-09-11T14:00:00,2265A,127.5291,50.2472,黑河市,大黑河岛,,,40,16,24,11,,,,,2,2,2,2,0.4,0.4
2023-09-11T14:00:00,2266A,126.9785,46.6365,绥化市,人和东街,,34,34,29,15,12,121,108,81,81,11,10,4,4,0.5,0.4
2023-09-11T14:00:00,2267A,126.964,46.6528,绥化市,党政办公中心,,34,30,32,15,16,117,108,80,80,8,9,6,8,0.5,0.4
2023-09-11T14:00:00,2269A,124.1069,50.4097,大兴安岭地区,科技局,,19,9,12,13,10,56,56,44,44,4,5,3,3,0.4,0.4
2023-09-11T14:00:00,2270A,117.396,32.939,蚌埠市,工人疗养院,,49,34,61,17,26,159,155,115,115,4,18,5,5,0.4,0.5
2023-09-11T14:00:00,2271A,117.3605,32.9427,蚌埠市,百货大楼,,49,39,64,16,28,162,156,120,120,5,17,6,7,0.3,0.4
2023-09-11T14:00:00,2273A,117.4185,32.8911,蚌埠市,蚌埠学院,,46,39,62,18,33,155,147,100,100,15,40,10,14,0.4,0.5
2023-09-11T14:00:00,2274A,117.3533,32.9673,蚌埠市,淮上区政府,,47,44,57,22,34,158,148,115,115,5,17,5,6,0.4,0.4
2023-09-11T14:00:00,2275A,117.3145,32.8977,蚌埠市,高新区,臭氧1小时,58,27,52,21,28,168,166,123,121,12,28,8,11,0.5,0.6
2023-09-11T14:00:00,2277A,116.8305,32.7727,淮南市,潘集区政府,臭氧1小时,92,48,68,21,39,193,193,129,129,11,18,8,9,0.3,0.4
2023-09-11T14:00:00,2278A,117.0067,32.6524,淮南市,师范学院,臭氧1小时,79,48,66,21,28,187,183,144,144,11,17,8,9,0.4,0.5
2023-09-11T14:00:00,2279A,116.8569,32.5951,淮南市,谢家集区政府,臭氧1小时,101,39,59,8,21,207,201,148,148,12,21,8,10,0.2,0.4
2023-09-11T14:00:00,2280A,116.8281,32.633,淮南市,八公山区政府,臭氧1小时,89,54,68,26,38,199,191,144,144,10,16,8,9,0.4,0.5
2023-09-11T14:00:00,2281A,116.6325,32.6201,淮南市,焦岗湖风景区管理处,臭氧1小时,85,47,52,23,32,195,188,136,136,8,19,2,1,0.4,0.5
2023-09-11T14:00:00,2282A,116.8004,33.975,淮北市,监测站,,46,18,50,11,20,187,145,136,130,7,14,5,2,0.4,0.4
2023-09-11T14:00:00,2283A,116.8091,33.9007,淮北市,烈山区政府,,50,44,64,27,35,195,157,141,141,6,15,7,7,0.3,0.5
2023-09-11T14:00:00,2285A,117.8177,30.9412,铜陵市,市第四中学,臭氧1小时,85,63,62,46,41,188,188,115,115,15,28,6,5,0.7,0.5
2023-09-11T14:00:00,2286A,117.8059,30.9273,铜陵市,市公路局,臭氧1小时,110,68,62,43,40,220,220,116,116,19,25,10,9,0.8,0.6
2023-09-11T14:00:00,2287A,117.7807,30.9413,铜陵市,市新民污水厂,臭氧1小时,114,85,78,41,34,228,228,115,115,19,25,25,18,1.0,0.6
2023-09-11T14:00:00,2288A,117.7439,30.8792,铜陵市,市第九中学,臭氧1小时,111,68,78,36,40,222,222,99,99,29,37,12,9,0.8,0.7
2023-09-11T14:00:00,2289A,117.846,30.9413,铜陵市,车站新区,臭氧1小时,109,65,65,37,43,217,217,116,116,14,25,12,9,0.8,0.7
2023-09-11T14:00:00,2290A,117.8483,30.97,铜陵市,市职教基地,臭氧1小时,103,69,61,42,34,206,206,110,110,12,19,9,6,0.7,0.6
2023-09-11T14:00:00,2291A,117.0809,30.5177,安庆市,环科院,,50,24,48,20,36,177,157,130,130,9,17,6,7,0.6,0.7
2023-09-11T14:00:00,2292A,117.0331,30.5119,安庆市,马山宾馆,臭氧1小时,87,52,58,28,38,191,189,148,148,15,15,5,5,0.7,0.7
2023-09-11T14:00:00,2294A,116.9896,30.6145,安庆市,安庆大学,臭氧1小时,90,48,46,32,37,195,192,139,139,11,11,9,6,0.6,0.6
2023-09-11T14:00:00,2295A,118.2903,29.6963,黄山市,延安路89号,,,27,38,9,12,160,145,102,102,,10,6,5,0.3,0.4
2023-09-11T14:00:00,2296A,118.327,29.7178,黄山市,黄山东路89号,,45,28,36,12,18,152,143,94,94,5,11,6,5,0.4,0.5
2023-09-11T14:00:00,2297A,118.1371,30.2756,黄山市,黄山区政府5号楼,,38,27,53,10,32,125,120,78,78,5,10,6,6,0.4,0.5
2023-09-11T14:00:00,2298A,118.3093,32.3153,滁州市,老年大学,臭氧1小时,103,49,48,35,24,218,205,129,129,15,18,10,10,0.5,0.4
2023-09-11T14:00:00,2299A,118.3244,32.2786,滁州市,人大宾馆,臭氧1小时,108,52,48,37,32,232,215,130,130,19,22,10,10,0.5,0.5
2023-09-11T14:00:00,2301A,115.8277,32.8929,阜阳市,市监测站,,50,32,50,25,40,162,160,126,126,9,17,6,8,0.5,0.6
2023-09-11T14:00:00,2303A,115.8554,32.8605,阜阳市,开发区,,46,44,64,30,50,157,146,112,112,15,22,8,9,0.5,0.6
2023-09-11T14:00:00,2307A,116.5079,31.737,六安市,监测大楼,臭氧1小时,83,49,62,31,39,186,186,116,116,13,16,10,6,0.7,0.8
2023-09-11T14:00:00,2308A,116.4738,31.7643,六安市,皖西学院,臭氧1小时,85,67,69,28,30,198,188,122,122,14,17,11,9,0.7,0.7
2023-09-11T14:00:00,2309A,116.4996,31.7905,六安市,朝阳厂,臭氧1小时,97,54,64,37,46,197,197,134,134,12,15,12,9,0.8,0.8
2023-09-11T14:00:00,2310A,116.5567,31.7886,六安市,开发区,臭氧1小时,84,68,78,34,41,187,187,116,116,14,20,11,8,0.8,0.7
2023-09-11T14:00:00,2311A,115.8072,33.8399,亳州市,污水处理厂,臭氧1小时,52,46,66,25,42,202,161,122,122,4,16,12,16,0.6,0.7
2023-09-11T14:00:00,2312A,115.7789,33.8518,亳州市,三国揽胜宫,,49,48,56,30,41,198,155,127,127,8,17,12,13,0.6,0.8
2023-09-11T14:00:00,2314A,117.47,30.6618,池州市,池州学院,臭氧1小时,82,48,65,32,45,204,185,133,133,8,21,6,7,0.7,0.8
2023-09-11T14:00:00,2316A,118.7581,30.9454,宣城市,鳌峰子站,,44,43,58,27,34,145,138,99,99,10,16,5,5,0.5,0.6
2023-09-11T14:00:00,2317A,118.7385,30.9743,宣城市,敬亭山子站,,50,50,56,28,36,145,142,99,99,12,18,6,8,0.5,0.7
2023-09-11T14:00:00,2318A,118.7173,30.9427,宣城市,开发区子站,颗粒物(PM10),51,52,55,29,36,147,144,98,98,9,17,5,7,0.5,0.5
2023-09-11T14:00:00,2319A,119.0141,25.4325,莆田市,荔城区仓后路,臭氧1小时,58,58,32,32,15,166,166,93,93,9,12,8,8,0.8,0.8
2023-09-11T14:00:00,2320A,119.0015,25.4553,莆田市,莆田市监测站,,50,48,29,27,10,160,160,91,91,8,7,8,8,0.7,0.7
2023-09-11T14:00:00,2321A,119.1119,25.4561,莆田市,涵江区六中,,44,32,34,10,18,140,140,86,86,5,15,8,8,0.7,0.8
2023-09-11T14:00:00,2322A,119.1013,25.3215,莆田市,秀屿区政府,,46,46,30,23,14,139,139,95,95,7,10,9,10,0.6,0.6
2023-09-11T14:00:00,2323A,118.981,25.4792,莆田市,东圳水库,,,,,,,,,,,,,,,,
2023-09-11T14:00:00,2324A,117.6211,26.2625,三明市,三钢,,36,33,35,25,21,123,105,64,64,5,18,8,8,0.5,0.7
2023-09-11T14:00:00,2325A,117.635,26.2714,三明市,三明二中,,33,30,34,23,24,121,101,65,65,9,21,6,8,0.6,0.9
2023-09-11T14:00:00,2326A,117.6028,26.2378,三明市,三元区政府,,36,27,37,15,22,123,114,61,61,8,23,10,10,0.8,1.1
2023-09-11T14:00:00,2327A,117.7275,26.3108,三明市,洋溪,,,,,,,,,,,,,,,,
2023-09-11T14:00:00,2331A,118.0966,26.6761,南平市,茫荡山,,,,,,,,,,,,,,,,
2023-09-11T14:00:00,2332A,118.1681,26.6369,南平市,南平市监测站,,37,33,33,24,20,118,117,79,79,8,14,7,5,0.7,0.7
2023-09-11T14:00:00,2333A,118.1825,26.6489,南平市,南平铝业有限公司,,36,30,34,20,24,116,114,78,78,7,16,7,6,0.6,0.6
2023-09-11T14:00:00,2334A,118.1756,26.6272,南平市,南平七中,,39,39,32,27,20,124,119,75,75,4,11,6,5,0.6,0.7
2023-09-11T14:00:00,2335A,117.0189,25.1181,龙岩市,龙岩师专,,,,,,,,,,,,,,,,
2023-09-11T14:00:00,2336A,117.0217,25.1033,龙岩市,龙岩市监测站,,40,40,27,18,18,118,81,58,58,8,15,4,6,0.4,0.5
2023-09-11T14:00:00,2337A,117.0258,25.0661,龙岩市,闽西职业技术学院,,,38,38,12,16,115,72,51,51,4,18,5,13,,0.4
2023-09-11T14:00:00,2338A,117.0196,25.0306,龙岩市,龙岩学院,,25,25,25,13,15,109,72,54,54,3,6,3,8,0.4,0.4
2023-09-11T14:00:00,2339A,119.5001,26.6946,宁德市,金涵水库,,,,,,,,,,,,,,,,
2023-09-11T14:00:00,2341A,119.5388,26.6612,宁德市,宁德市监测站,,45,38,26,18,14,141,141,90,90,9,10,11,5,1.0,0.6
2023-09-11T14:00:00,2342A,117.3102,29.3867,景德镇市,王港中学,,36,22,24,18,18,135,113,74,74,2,6,5,4,0.1,0.2
2023-09-11T14:00:00,2343A,117.2117,29.2933,景德镇市,老干部活动中心,,44,42,44,16,20,175,140,83,83,7,16,5,4,0.3,0.3
2023-09-11T14:00:00,2344A,117.1894,29.2789,景德镇市,兽医站,,45,42,42,31,26,166,141,88,88,11,16,17,10,0.4,0.4
2023-09-11T14:00:00,2345A,117.1547,29.2617,景德镇市,台达陶瓷,,49,49,45,33,26,154,133,89,89,15,24,21,32,0.5,0.5
2023-09-11T14:00:00,2346A,117.2461,29.2956,景德镇市,陶研所,,37,22,51,24,23,172,118,79,79,5,15,5,4,0.3,0.3
2023-09-11T14:00:00,2347A,114.0997,27.5002,萍乡市,武功山,,20,1,6,1,5,71,62,45,45,3,4,8,8,0.3,0.3
2023-09-11T14:00:00,2348A,113.8385,27.6434,萍乡市,中医院,,36,20,28,14,19,123,114,70,70,5,13,10,13,0.6,0.6
2023-09-11T14:00:00,2349A,113.8493,27.6253,萍乡市,市政府车库,,33,20,31,10,18,125,105,64,64,4,13,11,15,0.4,0.4
2023-09-11T14:00:00,2350A,113.8676,27.6435,萍乡市,市环保局,,,36,32,26,20,113,102,81,81,3,14,5,14,,0.5
2023-09-11T14:00:00,2351A,113.866,27.6198,萍乡市,安源区政府,,36,17,31,14,18,130,113,72,72,5,12,10,15,0.4,0.5
2023-09-11T14:00:00,2352A,115.0861,27.9317,新余市,北岗,,24,12,24,5,19,105,76,48,48,4,10,10,10,0.4,0.6
2023-09-11T14:00:00,2353A,114.9886,27.8431,新余市,飞宇,,26,26,37,8,17,99,70,50,50,5,11,7,8,0.3,0.4
2023-09-11T14:00:00,2354A,114.9231,27.8246,新余市,第二水厂,,24,24,36,9,15,105,74,53,53,12,16,7,7,0.7,0.5
2023-09-11T14:00:00,2355A,114.9308,27.8036,新余市,市气象局,,24,20,35,11,21,107,75,52,52,9,19,10,12,0.6,0.9
2023-09-11T14:00:00,2357A,116.9822,28.1136,鹰潭市,龙虎山,,21,16,20,14,17,130,67,57,57,1,2,3,4,0.3,0.3
2023-09-11T14:00:00,2358A,117.0564,28.2642,鹰潭市,新监测站,,33,21,43,12,25,146,104,75,75,1,13,3,7,0.2,0.6
2023-09-11T14:00:00,2359A,117.0311,28.2475,鹰潭市,财苑宾馆,,32,26,40,10,23,142,100,81,81,2,13,3,7,0.3,0.4
2023-09-11T14:00:00,2360A,117.0222,28.2264,鹰潭市,体育馆,,30,24,42,12,20,139,95,80,80,1,9,2,5,0.4,0.4
2023-09-11T14:00:00,2361A,117.0017,28.2131,鹰潭市,三川水表,,29,19,35,9,19,140,91,74,74,1,3,2,3,0.4,0.5
2023-09-11T14:00:00,2362A,114.9017,25.9149,赣州市,通天岩,,,,,,,,,,,,,,,,
2023-09-11T14:00:00,2363A,114.9367,25.8664,赣州市,地委,,20,19,15,4,8,71,62,47,47,4,5,11,12,0.8,0.9
2023-09-11T14:00:00,2364A,114.9461,25.8481,赣州市,气象台,,20,8,13,7,10,76,62,46,46,3,6,5,5,0.6,0.6
2023-09-11T14:00:00,2365A,114.9322,25.8333,赣州市,市图书馆,,18,15,16,2,7,65,55,42,42,6,7,4,8,0.8,0.8
2023-09-11T14:00:00,2366A,114.8905,25.8471,赣州市,华坚鞋城,,21,16,18,9,11,84,65,48,48,2,5,5,7,0.7,0.6
2023-09-11T14:00:00,2367A,114.9754,27.0803,吉安市,红声器材厂,,26,26,27,12,12,90,68,56,56,4,7,16,8,0.4,0.6
2023-09-11T14:00:00,2368A,114.9658,27.0999,吉安市,市森林工业局,,36,36,27,21,16,93,70,57,57,2,5,8,12,0.3,0.4
2023-09-11T14:00:00,2369A,114.99,27.1312,吉安市,市环境监测站,,29,29,25,4,10,94,69,56,56,4,6,6,9,0.6,0.6
2023-09-11T14:00:00,2370A,115.0093,27.0968,吉安市,青原区法院,,22,21,24,8,13,93,69,55,55,5,9,12,16,0.5,0.6
2023-09-11T14:00:00,2371A,114.3408,27.8064,宜春市,槟榔水业,,21,16,25,2,12,85,66,54,44,11,15,2,2,0.7,0.8
2023-09-11T14:00:00,2373A,114.3956,27.7844,宜春市,市石油公司,,24,20,28,9,15,94,74,52,52,5,10,2,3,0.6,0.6
2023-09-11T14:00:00,2374A,114.3703,27.7914,宜春市,市气象局,,24,16,28,6,16,95,75,57,54,5,11,4,4,0.5,0.6
2023-09-11T14:00:00,2375A,114.4013,27.8074,宜春市,市广电局,,25,18,30,8,16,102,78,62,58,5,9,9,9,0.6,0.7
2023-09-11T14:00:00,2376A,116.2127,28.0814,抚州市,桐源党溪,,21,13,32,8,17,92,66,50,50,2,9,3,2,0.5,0.6
2023-09-11T14:00:00,2377A,116.3544,27.9831,抚州市,市站,,27,26,43,13,25,107,84,65,65,5,13,1,3,0.2,0.6
2023-09-11T14:00:00,2378A,116.3565,27.963,抚州市,血防站,,26,26,40,12,25,105,76,62,62,2,10,2,4,0.6,0.7
2023-09-11T14:00:00,2379A,116.3564,28.0007,抚州市,采茶剧团,,30,24,41,10,23,110,93,67,67,2,10,7,7,0.7,0.8
2023-09-11T14:00:00,2380A,116.385,27.9647,抚州市,医学分院,,28,20,38,12,20,105,88,64,64,5,13,5,10,0.6,0.6
2023-09-11T14:00:00,2381A,118.005,28.4572,上饶市,百草园,,44,44,53,15,27,144,132,139,137,5,9,6,10,0.8,0.9
2023-09-11T14:00:00,2382A,117.9756,28.4436,上饶市,市监测站,,49,42,48,22,28,174,155,112,112,5,15,7,18,0.5,0.5
2023-09-11T14:00:00,2383A,117.9519,28.4628,上饶市,凤凰光学,颗粒物(PM10),51,52,51,27,28,162,157,106,106,2,21,4,18,0.4,0.5
2023-09-11T14:00:00,2385A,114.17,35.9019,鹤壁市,市监测站,颗粒物(PM10),66,81,71,46,54,142,127,70,70,17,30,8,6,0.7,0.8
2023-09-11T14:00:00,2386A,114.2956,35.7511,鹤壁市,市交警支队,细颗粒物(PM2.5),84,67,62,62,46,134,134,90,90,17,30,6,5,0.7,0.9
2023-09-11T14:00:00,2387A,114.2878,35.7306,鹤壁市,迎宾馆,细颗粒物(PM2.5),70,67,57,51,50,137,136,94,94,17,28,7,8,0.8,1.2
2023-09-11T14:00:00,2389A,113.836,35.311,新乡市,环保西院,细颗粒物(PM2.5),79,58,56,58,43,146,115,76,76,10,20,9,7,0.9,0.9
2023-09-11T14:00:00,2390A,113.884,35.272,新乡市,开发区,细颗粒物(PM2.5),73,44,39,53,38,146,116,79,79,10,16,6,4,0.9,0.8
2023-09-11T14:00:00,2391A,113.883,35.303,新乡市,环保东院,细颗粒物(PM2.5),72,71,60,52,38,144,114,80,80,14,22,7,6,0.8,0.9
2023-09-11T14:00:00,2392A,115.0312,35.7636,濮阳市,环保局,细颗粒物(PM2.5),57,34,60,40,55,148,148,115,115,9,15,6,11,0.6,0.8
2023-09-11T14:00:00,2394A,115.0574,35.7609,濮阳市,油田运输公司,细颗粒物(PM2.5),59,65,89,42,60,151,147,106,106,10,16,9,13,0.6,0.8
2023-09-11T14:00:00,2395A,115.0866,35.7754,濮阳市,油田物探公司,颗粒物(PM10),58,65,86,30,52,156,153,107,107,9,16,6,10,0.6,0.7
2023-09-11T14:00:00,2396A,113.8276,34.0159,许昌市,监测站,颗粒物(PM10),56,62,58,28,44,153,153,101,101,16,24,6,6,0.7,0.7
2023-09-11T14:00:00,2398A,113.7906,33.9953,许昌市,开发区,细颗粒物(PM2.5),62,69,60,44,42,147,141,88,88,16,23,18,5,0.8,0.8
2023-09-11T14:00:00,2399A,114.051,33.5699,漯河市,三五一五工厂,臭氧1小时,60,56,54,34,34,170,168,119,119,6,14,10,9,0.6,0.7
2023-09-11T14:00:00,2400A,114.0055,33.5698,漯河市,漯河大学,臭氧1小时,65,53,47,33,40,174,172,126,126,10,16,9,8,0.6,0.6
2023-09-11T14:00:00,2401A,114.0138,33.5828,漯河市,市水利局,臭氧1小时,65,61,58,38,45,174,172,120,120,7,15,10,10,0.6,0.7
2023-09-11T14:00:00,2402A,114.0261,33.5698,漯河市,市广电局,臭氧1小时,69,61,54,35,40,176,175,127,127,8,14,6,6,0.7,0.8
2023-09-11T14:00:00,2404A,112.5224,33.0122,南阳市,瓦房庄,细颗粒物(PM2.5),53,52,35,37,24,123,123,109,96,10,9,7,5,0.6,0.6
2023-09-11T14:00:00,2405A,112.5003,32.9735,南阳市,汉画馆,"颗粒物(PM10),细颗粒物(PM2.5)",52,53,34,36,23,126,126,118,106,12,11,8,7,0.8,0.7
2023-09-11T14:00:00,2406A,112.5573,33.027,南阳市,气象站,,46,44,31,32,22,121,121,96,85,9,10,7,7,0.8,0.8
2023-09-11T14:00:00,2407A,112.5481,32.9689,南阳市,理工学院,细颗粒物(PM2.5),64,54,31,46,27,128,128,115,99,9,9,9,7,0.6,0.5
2023-09-11T14:00:00,2408A,115.6702,34.4285,商丘市,环境监测站,臭氧1小时,63,54,69,26,38,185,170,110,110,7,22,10,8,0.5,0.6
2023-09-11T14:00:00,2409A,115.6458,34.4045,商丘市,粮食局,细颗粒物(PM2.5),57,56,68,40,41,175,158,124,124,7,17,11,8,0.5,0.5
2023-09-11T14:00:00,2410A,115.6293,34.3948,商丘市,睢阳区环保局,臭氧1小时,62,60,81,37,38,189,169,121,121,8,19,13,10,0.5,0.5
2023-09-11T14:00:00,2420A,114.0189,32.9656,驻马店市,市一纸厂,,50,50,32,25,19,146,146,112,112,8,12,7,6,0.4,0.4
2023-09-11T14:00:00,2421A,114.0114,33.015,驻马店市,市彩印厂,颗粒物(PM10),53,56,33,30,23,141,140,103,103,10,11,9,8,0.4,0.4
2023-09-11T14:00:00,2422A,113.9976,32.9771,驻马店市,天方二分厂,,50,50,33,32,29,146,146,108,108,7,9,6,5,0.3,0.3
2023-09-11T14:00:00,2423A,115.0601,30.2313,黄石市,沈家营,臭氧1小时,103,80,78,35,37,229,205,136,136,16,22,12,12,0.8,0.8
2023-09-11T14:00:00,2424A,115.0817,30.2006,黄石市,陈家湾,臭氧1小时,75,73,65,37,34,222,180,135,135,18,10,10,10,0.7,0.6
2023-09-11T14:00:00,2426A,114.8988,30.2019,黄石市,铁山,臭氧1小时,87,35,49,32,31,220,189,137,137,8,15,16,13,0.8,0.8
2023-09-11T14:00:00,2427A,115.0307,30.2092,黄石市,团城山,臭氧1小时,101,69,63,33,27,217,202,145,145,12,12,11,9,0.5,0.5
2023-09-11T14:00:00,2428A,111.0419,32.395,十堰市,武当山,,24,20,24,6,17,112,76,83,83,5,6,7,7,0.8,0.8
2023-09-11T14:00:00,2429A,110.78,32.6494,十堰市,滨河新村,,49,49,38,33,25,120,103,102,98,19,11,6,7,0.8,0.6
2023-09-11T14:00:00,2430A,110.7258,32.6389,十堰市,刘家沟,细颗粒物(PM2.5),52,46,33,36,23,119,92,98,87,15,6,6,7,0.9,0.8
2023-09-11T14:00:00,2431A,110.8839,32.5714,十堰市,铁二处,,45,34,34,31,24,150,118,104,101,9,7,5,7,0.7,0.8
2023-09-11T14:00:00,2432A,112.155,32.0197,襄阳市,襄城运动路,,50,41,41,35,27,130,73,74,70,17,16,7,8,0.8,0.7
2023-09-11T14:00:00,2433A,112.1392,32.0564,襄阳市,樊城新华路,细颗粒物(PM2.5),62,49,49,44,30,133,80,79,71,15,14,7,7,0.7,0.6
2023-09-11T14:00:00,2434A,112.1825,32.1142,襄阳市,高新管委会,细颗粒物(PM2.5),64,40,38,46,35,139,71,81,69,15,12,7,7,0.9,0.8
2023-09-11T14:00:00,2435A,112.2106,32.0903,襄阳市,襄州航空路,细颗粒物(PM2.5),57,41,34,40,27,131,70,78,72,17,14,6,6,0.8,0.8
2023-09-11T14:00:00,2436A,114.8938,30.3994,鄂州市,市政府,臭氧1小时,89,65,54,34,33,216,191,125,125,8,15,6,6,1.0,0.8
2023-09-11T14:00:00,2437A,114.8989,30.3714,鄂州市,赵家坝,臭氧1小时,85,66,59,38,33,214,188,122,122,11,20,8,6,0.9,0.8
2023-09-11T14:00:00,2439A,112.2014,31.0481,荆门市,竹园小学,,34,21,36,8,21,136,106,73,73,8,14,9,11,0.6,0.6
2023-09-11T14:00:00,2440A,112.1969,30.9891,荆门市,掇刀,,33,15,33,17,26,138,105,82,73,6,13,5,8,0.6,0.6
2023-09-11T14:00:00,2441A,112.2213,31.0386,荆门市,石化一小,,34,15,38,16,27,135,107,77,77,6,11,6,10,0.5,0.5
2023-09-11T14:00:00,2443A,113.9153,30.9285,孝感市,文化路,,46,23,33,32,28,164,100,74,74,8,11,7,7,0.6,0.6
2023-09-11T14:00:00,2444A,113.942,30.9075,孝感市,东城区,,40,40,40,27,23,153,98,72,72,9,12,6,8,0.6,0.6
2023-09-11T14:00:00,2446A,114.9028,30.4742,黄冈市,职工中心,臭氧1小时,97,63,50,39,31,226,197,128,128,2,4,15,11,0.9,0.8
2023-09-11T14:00:00,2447A,114.3175,29.8142,咸宁市,森林公园,,39,27,34,18,20,131,124,96,96,5,6,6,6,0.8,0.8
2023-09-11T14:00:00,2448A,114.3107,29.8454,咸宁市,市发改委,,44,23,31,9,29,140,140,106,106,2,8,11,10,0.5,0.5
2023-09-11T14:00:00,2449A,114.2936,29.8566,咸宁市,咸安区政府,,47,38,37,24,29,148,148,110,110,7,11,13,12,0.6,0.6
2023-09-11T14:00:00,2451A,113.3583,31.7275,随州市,市委党校,,43,35,32,30,23,125,81,85,67,4,5,7,7,0.8,0.7
2023-09-11T14:00:00,2452A,113.3833,31.6908,随州市,市林业局,,30,22,28,21,23,137,91,91,73,9,10,4,4,0.8,0.8
2023-09-11T14:00:00,2453A,113.3983,31.7308,随州市,市立交桥水厂,,38,30,30,26,23,111,70,68,62,6,8,8,8,0.9,0.9
2023-09-11T14:00:00,2454A,109.4978,30.2981,恩施土家族苗族自治州,湖北民院,,45,45,29,26,27,86,86,53,41,8,7,10,10,1.0,0.9
2023-09-11T14:00:00,2455A,109.4707,30.2798,恩施土家族苗族自治州,州电力总公司,细颗粒物(PM2.5),52,45,26,36,24,77,77,47,40,14,12,9,8,0.7,0.6
2023-09-11T14:00:00,2456A,112.5003,26.9167,衡阳市,原169医院,,25,14,32,14,19,105,78,55,55,6,16,8,13,0.6,0.7
2023-09-11T14:00:00,2457A,112.6194,26.9258,衡阳市,衡阳化工总厂,,29,21,29,10,15,104,90,62,62,3,7,6,7,0.5,0.6
2023-09-11T14:00:00,2458A,112.6211,26.8956,衡阳市,珠晖区环保局,,,24,26,,18,102,97,61,61,5,8,6,8,0.5,0.6
2023-09-11T14:00:00,2459A,112.6197,26.8733,衡阳市,市委党校,,,,,,,,,,,,,,,,
2023-09-11T14:00:00,2460A,112.6006,26.8919,衡阳市,市监测站,,31,22,24,12,16,104,99,65,65,6,9,7,10,0.5,0.6
2023-09-11T14:00:00,2461A,112.5664,26.9056,衡阳市,真空机电公司,,,23,30,,17,109,95,59,59,3,11,5,15,0.6,1
