timepoint,stationcode,longitude,latitude,area,positionname,primarypollutant,aqi,pm10,pm10_24h,pm2_5,pm2_5_24h,o3,o3_24h,o3_8h,o3_8h_24h,no2,no2_24h,so2,so2_24h,co,co_24h
2023-10-15T01:00:00,1001A,116.3621,39.8784,北京市,万寿西宫,,44,44,21,18,9,97,7,7,7,59,32,3,3,0.5,0.4
2023-10-15T01:00:00,1002A,116.2202,40.2915,北京市,定陵,,12,12,7,6,4,65,21,21,21,10,13,3,3,0.1,0.1
2023-10-15T01:00:00,1003A,116.4174,39.9289,北京市,东四,,46,46,23,18,10,95,3,3,3,67,33,1,2,0.5,0.3
2023-10-15T01:00:00,1004A,116.4072,39.8863,北京市,天坛,,35,35,18,17,9,96,2,2,2,46,28,3,2,0.5,0.4
2023-10-15T01:00:00,1005A,116.462,39.9365,北京市,农展馆,,49,49,20,18,8,88,0,0,0,72,39,2,2,0.7,0.4
2023-10-15T01:00:00,1006A,116.3392,39.9295,北京市,官园,,44,44,24,14,8,97,12,12,12,57,33,1,1,0.4,0.3
2023-10-15T01:00:00,1007A,116.2878,39.9611,北京市,海淀万柳,,42,42,22,13,7,90,6,6,6,59,39,3,3,0.6,0.5
2023-10-15T01:00:00,1008A,116.6636,40.135,北京市,顺义新城,,41,41,18,18,8,87,0,0,0,50,33,3,3,0.4,0.2
2023-10-15T01:00:00,1009A,116.6275,40.3275,北京市,怀柔镇,,14,14,10,8,7,85,43,43,43,7,19,3,3,0.3,0.3
2023-10-15T01:00:00,1010A,116.2296,40.217,北京市,昌平镇,,20,20,12,7,5,80,42,42,42,7,5,3,2,0.2,0.2
2023-10-15T01:00:00,1011A,116.3966,39.9821,北京市,奥体中心,,41,41,19,15,8,78,1,1,1,78,42,1,3,0.6,0.4
2023-10-15T01:00:00,1012A,116.184,39.9136,北京市,古城,,33,33,18,12,6,95,25,25,25,35,19,3,3,0.4,0.3
2023-10-15T01:00:00,1015A,117.1444,39.1661,天津市,勤俭道,,,,,,,,,,,,,,,,
2023-10-15T01:00:00,1017A,117.237,39.1082,天津市,大直沽八号路,颗粒物(PM10),98,146,37,72,16,97,28,28,28,79,49,7,3,0.5,0.4
2023-10-15T01:00:00,1018A,117.202,39.0927,天津市,前进道,细颗粒物(PM2.5),102,138,35,76,16,97,6,6,6,100,53,11,6,0.6,0.3
2023-10-15T01:00:00,1019A,117.1837,39.2133,天津市,淮河道,颗粒物(PM10),81,112,37,51,15,107,22,22,22,76,52,10,5,0.5,0.4
2023-10-15T01:00:00,1021A,117.307,39.0877,天津市,跃进路,颗粒物(PM10),80,109,38,51,14,102,2,2,2,84,46,8,6,0.7,0.5
2023-10-15T01:00:00,1023A,117.707,39.0343,天津市,第四大街,颗粒物(PM10),57,63,32,26,14,87,40,40,40,63,56,9,6,0.4,0.5
2023-10-15T01:00:00,1024A,117.457,38.8394,天津市,永明路,颗粒物(PM10),54,58,40,30,20,96,16,16,16,80,53,6,6,0.3,0.4
2023-10-15T01:00:00,1026A,117.764,39.1587,天津市,汉北路,颗粒物(PM10),54,58,30,22,12,91,2,2,2,89,54,7,8,0.4,0.2
2023-10-15T01:00:00,1027A,117.157,38.9194,天津市,团泊洼,细颗粒物(PM2.5),95,133,53,71,25,93,71,71,71,54,44,5,5,0.7,0.6
2023-10-15T01:00:00,1029A,114.4422,38.0444,石家庄市,职工医院,细颗粒物(PM2.5),75,89,99,55,62,150,42,42,42,58,38,5,8,0.9,0.9
2023-10-15T01:00:00,1030A,114.6063,38.0266,石家庄市,高新区,"颗粒物(PM10),细颗粒物(PM2.5)",90,130,106,67,59,129,72,72,72,45,34,4,5,0.9,0.8
2023-10-15T01:00:00,1031A,114.4898,38.1328,石家庄市,西北水源,细颗粒物(PM2.5),78,91,101,57,55,128,29,29,29,67,50,1,3,0.6,0.7
2023-10-15T01:00:00,1032A,114.4586,38.0058,石家庄市,西南高教,细颗粒物(PM2.5),79,101,113,58,68,137,58,58,58,40,30,5,6,1.0,0.8
2023-10-15T01:00:00,1033A,114.5331,38.0178,石家庄市,世纪公园,细颗粒物(PM2.5),104,104,99,78,64,121,80,80,80,32,28,4,7,1.0,0.9
2023-10-15T01:00:00,1034A,114.509,38.0457,石家庄市,人民会堂,细颗粒物(PM2.5),92,89,90,68,74,156,58,58,58,49,31,7,8,0.8,0.8
2023-10-15T01:00:00,1035A,114.3524,37.8911,石家庄市,封龙山,,44,44,123,12,62,178,80,80,80,17,23,8,10,0.3,0.9
2023-10-15T01:00:00,1037A,118.131,39.6363,唐山市,雷达站,细颗粒物(PM2.5),63,60,47,45,25,94,10,10,10,51,33,2,4,0.3,0.4
2023-10-15T01:00:00,1038A,118.1725,39.6334,唐山市,物资局,,50,50,39,24,23,95,34,34,34,42,39,4,8,0.4,0.5
2023-10-15T01:00:00,1040A,118.1705,39.6506,唐山市,十二中,,46,46,41,27,22,91,26,26,26,53,45,3,5,0.3,0.5
2023-10-15T01:00:00,1041A,118.1869,39.622,唐山市,小山,,40,40,37,16,15,92,43,43,43,23,26,1,5,0.5,0.5
2023-10-15T01:00:00,1042A,119.5134,39.8207,秦皇岛市,北戴河环保局,,26,26,21,11,8,97,36,36,36,50,29,12,6,0.3,0.3
2023-10-15T01:00:00,1043A,119.7493,40.0116,秦皇岛市,第一关,,32,19,22,21,18,107,22,22,22,63,53,10,9,0.3,0.3
2023-10-15T01:00:00,1044A,119.5897,39.9499,秦皇岛市,监测站,,41,41,32,25,21,103,33,33,33,46,41,12,9,0.6,0.4
2023-10-15T01:00:00,1046A,119.5251,39.9041,秦皇岛市,建设大厦,,37,37,32,23,19,96,38,38,38,30,32,8,3,0.4,0.3
2023-10-15T01:00:00,1048A,114.5302,36.6116,邯郸市,东污水处理厂,细颗粒物(PM2.5),100,107,110,75,100,190,3,3,3,98,48,28,11,0.7,1
2023-10-15T01:00:00,1049A,114.4918,36.5713,邯郸市,矿院,细颗粒物(PM2.5),107,92,112,80,96,192,0,0,0,111,52,6,20,0.7,1
2023-10-15T01:00:00,1050A,114.484,36.6133,邯郸市,丛台公园,细颗粒物(PM2.5),104,121,118,78,91,194,6,6,6,90,40,10,12,0.9,1
2023-10-15T01:00:00,1051A,115.493,38.8632,保定市,游泳馆,细颗粒物(PM2.5),63,64,52,45,29,100,34,34,34,59,43,7,5,0.6,0.6
2023-10-15T01:00:00,1052A,115.5213,38.8959,保定市,华电二区,颗粒物(PM10),53,56,41,36,25,94,48,48,48,31,27,4,4,0.3,0.2
2023-10-15T01:00:00,1053A,115.4713,38.9108,保定市,接待中心,,46,46,49,32,23,95,56,56,56,30,30,8,6,0.3,0.3
2023-10-15T01:00:00,1054A,115.4612,38.8416,保定市,地表水厂,颗粒物(PM10),66,81,61,36,29,91,6,6,6,78,49,7,5,0.5,0.5
2023-10-15T01:00:00,1056A,115.5086,38.8639,保定市,监测站,细颗粒物(PM2.5),69,68,49,50,28,100,38,38,38,51,39,9,6,0.6,0.5
2023-10-15T01:00:00,1057A,114.8883,40.8336,张家口市,人民公园,,24,24,18,2,4,82,46,46,46,11,11,3,2,0.3,0.3
2023-10-15T01:00:00,1059A,114.8687,40.8042,张家口市,五金库,,18,18,29,4,10,83,51,51,51,13,23,2,3,0.3,0.4
2023-10-15T01:00:00,1060A,114.8902,40.762,张家口市,世纪豪园,,20,20,26,3,6,82,51,51,51,11,18,1,2,0.2,0.3
2023-10-15T01:00:00,1061A,114.8916,40.8661,张家口市,北泵房,,18,18,17,9,8,88,47,47,47,9,9,6,6,0.1,0.1
2023-10-15T01:00:00,1062A,117.9531,40.9081,承德市,铁路,,19,19,24,10,8,81,10,10,10,31,31,6,10,0.5,0.4
2023-10-15T01:00:00,1063A,117.9392,40.9763,承德市,中国银行,,33,33,25,4,9,81,1,1,1,40,28,6,8,0.5,0.4
2023-10-15T01:00:00,1064A,117.9503,40.928,承德市,开发区,,32,30,32,22,15,88,3,3,3,44,30,6,9,0.4,0.4
2023-10-15T01:00:00,1065A,117.8051,40.9655,承德市,文化中心,,34,34,29,2,9,86,2,2,2,47,35,2,8,0.2,0.4
2023-10-15T01:00:00,1066A,117.9268,41.0026,承德市,离宫,,29,29,15,15,12,81,1,1,1,14,8,3,5,0.3,0.3
2023-10-15T01:00:00,1067A,116.6708,39.5111,廊坊市,药材公司,颗粒物(PM10),65,80,29,38,12,94,9,9,9,79,39,8,4,0.4,0.4
2023-10-15T01:00:00,1068A,116.7214,39.5589,廊坊市,开发区,,46,46,28,25,13,96,21,21,21,35,33,1,1,0.3,0.4
2023-10-15T01:00:00,1070A,116.7244,39.5269,廊坊市,北华航天学院,颗粒物(PM10),61,72,33,29,11,97,6,6,6,60,40,9,6,0.4,0.4
2023-10-15T01:00:00,1071A,116.8842,38.2991,沧州市,沧县城建局,颗粒物(PM10),83,116,65,59,36,112,39,39,39,86,58,9,7,0.5,0.5
2023-10-15T01:00:00,1072A,116.8584,38.3254,沧州市,电视转播站,细颗粒物(PM2.5),89,102,65,66,37,106,38,38,38,67,47,8,8,0.6,0.6
2023-10-15T01:00:00,1073A,116.8709,38.3228,沧州市,市环保局,细颗粒物(PM2.5),75,96,68,55,42,111,61,61,61,56,44,10,7,0.5,0.5
2023-10-15T01:00:00,1074A,115.6838,37.7541,衡水市,电机北厂,细颗粒物(PM2.5),100,114,128,75,79,180,141,141,141,21,35,6,6,0.6,0.6
2023-10-15T01:00:00,1075A,115.6303,37.7316,衡水市,市监测站,细颗粒物(PM2.5),94,114,105,70,66,171,95,95,95,44,41,6,6,0.6,0.7
2023-10-15T01:00:00,1077A,114.4704,37.0886,邢台市,达活泉,细颗粒物(PM2.5),114,127,134,86,92,180,36,36,36,64,31,10,12,1.0,0.9
2023-10-15T01:00:00,1078A,114.5062,37.0349,邢台市,邢师高专,细颗粒物(PM2.5),112,122,126,84,89,174,17,17,17,82,45,6,9,1.0,0.9
2023-10-15T01:00:00,1079A,114.5237,37.0851,邢台市,路桥公司,细颗粒物(PM2.5),133,132,136,101,100,180,23,23,23,80,35,11,10,1.2,0.8
2023-10-15T01:00:00,1080A,114.4725,37.0719,邢台市,市环保局,细颗粒物(PM2.5),115,112,122,87,97,185,49,49,49,55,29,5,7,1.0,1
2023-10-15T01:00:00,1081A,112.522,37.8873,太原市,尖草坪,颗粒物(PM10),59,68,75,30,27,104,7,7,7,73,63,6,11,0.8,0.8
2023-10-15T01:00:00,1083A,112.434,38.0108,太原市,上兰,,,,,,,,,,,,,,,,
2023-10-15T01:00:00,1084A,112.469,37.7124,太原市,晋源,细颗粒物(PM2.5),89,56,59,66,23,113,13,13,13,82,49,4,6,0.7,0.6
2023-10-15T01:00:00,1085A,112.5583,37.7394,太原市,小店,颗粒物(PM10),97,144,80,57,26,109,4,4,4,86,57,15,12,0.8,0.6
2023-10-15T01:00:00,1086A,112.5369,37.8692,太原市,桃园,颗粒物(PM10),65,79,74,40,27,102,8,8,8,74,67,6,12,1.1,0.9
2023-10-15T01:00:00,1087A,112.57,37.8195,太原市,坞城,颗粒物(PM10),61,72,71,29,27,108,4,4,4,79,64,7,13,0.6,0.8
2023-10-15T01:00:00,1088A,112.549,37.9854,太原市,南寨,颗粒物(PM10),79,108,86,22,26,90,5,5,5,66,57,12,18,0.6,1
2023-10-15T01:00:00,1090A,111.6507,40.7517,呼和浩特市,呼市一监,细颗粒物(PM2.5),103,,69,77,38,90,5,5,5,69,48,8,13,0.9,0.7
2023-10-15T01:00:00,1091A,111.6572,40.8033,呼和浩特市,小召,细颗粒物(PM2.5),82,102,69,60,29,73,4,4,4,80,57,9,12,1.1,1
2023-10-15T01:00:00,1094A,111.7516,40.8369,呼和浩特市,如意水处理厂,颗粒物(PM10),71,91,63,42,26,83,3,3,3,74,52,13,14,0.7,0.6
2023-10-15T01:00:00,1095A,111.7276,40.8062,呼和浩特市,二十九中,细颗粒物(PM2.5),90,96,62,67,32,83,6,6,6,77,54,8,13,0.7,0.7
2023-10-15T01:00:00,1096A,111.5512,40.7866,呼和浩特市,工大金川校区,颗粒物(PM10),62,74,59,38,21,73,3,3,3,64,47,8,9,0.8,0.6
2023-10-15T01:00:00,1097A,111.717,40.7612,呼和浩特市,化肥厂生活区,细颗粒物(PM2.5),95,133,68,71,30,89,8,8,8,52,39,9,12,0.7,0.6
2023-10-15T01:00:00,1098A,123.6836,41.9339,沈阳市,森林路,,,,,,,,,,,,,,,,
2023-10-15T01:00:00,1099A,123.505,41.7406,沈阳市,浑南东路,颗粒物(PM10),63,76,51,39,32,86,2,2,2,53,43,17,13,1.0,0.9
2023-10-15T01:00:00,1100A,123.4231,41.6989,沈阳市,新秀街,"颗粒物(PM10),细颗粒物(PM2.5)",65,79,55,47,37,88,18,18,18,52,56,75,25,1.5,1.1
2023-10-15T01:00:00,1102A,123.5903,41.8411,沈阳市,东陵路,细颗粒物(PM2.5),62,67,49,44,36,93,6,6,6,48,35,12,10,1.0,0.8
2023-10-15T01:00:00,1103A,123.4264,41.8467,沈阳市,陵东街,颗粒物(PM10),66,82,47,40,30,105,36,36,36,46,37,13,7,1.5,1
2023-10-15T01:00:00,1104A,123.4114,41.7653,沈阳市,文化路,细颗粒物(PM2.5),77,85,57,56,42,98,28,28,28,47,46,39,14,1.6,1.1
2023-10-15T01:00:00,1105A,123.4678,41.7867,沈阳市,小河沿,颗粒物(PM10),63,75,49,43,35,91,27,27,27,46,41,27,10,1.5,0.9
2023-10-15T01:00:00,1106A,123.4017,41.7972,沈阳市,太原街,细颗粒物(PM2.5),73,77,53,53,36,95,27,27,27,54,48,24,8,1.5,1
2023-10-15T01:00:00,1108A,123.3783,41.9228,沈阳市,京沈街,细颗粒物(PM2.5),83,57,50,61,40,114,52,52,52,43,42,12,10,1.1,0.9
2023-10-15T01:00:00,1109A,121.612,38.9741,大连市,甘井子,,25,21,36,13,22,113,77,77,77,18,21,5,5,0.7,0.7
2023-10-15T01:00:00,1110A,121.565,38.9511,大连市,周水子,,26,26,30,15,20,120,63,63,63,24,29,8,9,0.8,0.9
2023-10-15T01:00:00,1111A,121.5637,38.8845,大连市,星海三站,,29,29,29,15,18,124,84,84,84,11,13,8,10,0.7,0.6
2023-10-15T01:00:00,1112A,121.6302,38.9117,大连市,青泥洼桥,,29,29,33,16,22,109,70,70,70,20,26,7,7,0.8,0.7
2023-10-15T01:00:00,1113A,121.6251,38.8638,大连市,傅家庄,,30,22,28,14,18,125,93,93,93,13,16,8,7,0.5,0.4
2023-10-15T01:00:00,1114A,121.5213,38.8661,大连市,七贤岭,,27,27,25,13,17,134,76,76,76,18,15,6,6,0.7,0.5
2023-10-15T01:00:00,1115A,121.2529,38.8061,大连市,旅顺,,22,18,21,12,15,121,70,70,70,18,18,6,7,0.6,0.4
2023-10-15T01:00:00,1116A,121.7485,39.1311,大连市,金州,,30,30,37,18,26,122,88,88,88,16,18,8,9,0.6,0.6
2023-10-15T01:00:00,1117A,121.7811,39.0496,大连市,开发区,颗粒物(PM10),53,56,40,33,30,115,51,51,51,38,29,6,8,0.7,0.6
2023-10-15T01:00:00,1118A,121.9762,39.0631,大连市,双D港,,28,23,31,13,24,129,87,87,87,21,18,8,7,0.6,0.7
2023-10-15T01:00:00,1119A,125.3325,43.9166,长春市,食品厂,细颗粒物(PM2.5),62,52,54,44,35,115,77,77,77,29,46,7,6,0.7,0.8
2023-10-15T01:00:00,1120A,125.2863,43.9027,长春市,客车厂,细颗粒物(PM2.5),68,57,57,49,39,117,75,75,75,26,42,8,7,0.7,0.8
2023-10-15T01:00:00,1121A,125.2841,43.8463,长春市,邮电学院,细颗粒物(PM2.5),57,50,52,40,32,126,82,82,82,24,36,7,6,0.6,0.6
2023-10-15T01:00:00,1122A,125.3716,43.8772,长春市,劳动公园,颗粒物(PM10),52,53,55,29,24,116,88,88,88,19,37,7,6,0.7,0.7
2023-10-15T01:00:00,1123A,125.3297,43.8805,长春市,园林处,细颗粒物(PM2.5),59,42,52,42,34,122,84,84,84,20,39,10,8,0.6,0.7
2023-10-15T01:00:00,1124A,125.4605,43.79,长春市,净月潭,,40,39,28,28,18,121,60,60,60,13,13,7,7,0.5,0.5
2023-10-15T01:00:00,1125A,125.7194,43.515,长春市,甩湾子,,,,,,,,,,,,,,,,
2023-10-15T01:00:00,1126A,125.3863,43.8447,长春市,经开区环卫处,细颗粒物(PM2.5),54,55,64,38,33,119,74,74,74,23,39,6,6,0.6,0.6
2023-10-15T01:00:00,1127A,125.245,43.7783,长春市,高新区管委会,颗粒物(PM10),51,51,40,27,23,122,68,68,68,23,33,7,6,0.6,0.7
2023-10-15T01:00:00,1128A,125.1761,43.8325,长春市,岱山公园,颗粒物(PM10),55,59,56,36,30,127,54,54,54,42,45,7,6,0.8,0.8
2023-10-15T01:00:00,1129A,126.5422,45.755,哈尔滨市,岭北,,45,43,59,31,45,146,101,101,101,11,13,11,13,0.6,0.6
2023-10-15T01:00:00,1130A,126.561,45.8167,哈尔滨市,松北商大,,43,43,62,23,34,124,89,89,89,15,22,7,8,0.6,0.7
2023-10-15T01:00:00,1131A,126.979,45.5419,哈尔滨市,阿城会宁,细颗粒物(PM2.5),75,68,74,55,50,135,59,59,59,19,20,8,7,0.8,0.8
2023-10-15T01:00:00,1132A,126.599,45.7222,哈尔滨市,南岗学府路,颗粒物(PM10),55,60,74,34,39,130,74,74,74,24,22,8,7,0.6,0.7
2023-10-15T01:00:00,1133A,126.689,45.7733,哈尔滨市,太平宏伟公园,颗粒物(PM10),52,53,71,24,35,130,87,87,87,23,26,5,5,0.6,0.7
2023-10-15T01:00:00,1134A,126.635,45.7667,哈尔滨市,道外承德广场,颗粒物(PM10),53,55,70,33,41,125,81,81,81,30,34,8,7,0.6,0.7
2023-10-15T01:00:00,1135A,126.685,45.7319,哈尔滨市,香坊红旗大街,细颗粒物(PM2.5),54,52,70,38,47,129,70,70,70,35,36,4,4,0.5,0.6
2023-10-15T01:00:00,1136A,126.6411,45.7258,哈尔滨市,动力和平路,颗粒物(PM10),55,59,75,28,37,126,69,69,69,29,29,12,11,0.6,0.7
2023-10-15T01:00:00,1137A,126.593,45.7478,哈尔滨市,道里建国路,颗粒物(PM10),53,56,71,31,39,128,73,73,73,32,31,4,4,0.5,0.7
2023-10-15T01:00:00,1138A,126.615,45.61,哈尔滨市,平房东轻厂,颗粒物(PM10),58,66,64,29,31,135,70,70,70,16,18,8,8,0.5,0.6
2023-10-15T01:00:00,1139A,126.595,45.9855,哈尔滨市,呼兰师专,,48,48,65,27,39,134,93,93,93,16,20,6,6,0.7,0.8
2023-10-15T01:00:00,1140A,126.6206,45.6842,哈尔滨市,省农科院,颗粒物(PM10),63,76,82,30,33,136,64,64,64,34,33,13,12,0.6,0.7
2023-10-15T01:00:00,1141A,121.4,31.238,上海市,普陀,细颗粒物(PM2.5),88,82,72,65,51,150,42,42,42,58,53,5,6,1.0,1
2023-10-15T01:00:00,1142A,121.478,31.2036,上海市,十五厂,细颗粒物(PM2.5),74,80,60,54,39,157,77,77,77,50,52,6,7,0.9,0.9
2023-10-15T01:00:00,1143A,121.467,31.3008,上海市,虹口,细颗粒物(PM2.5),89,95,63,66,53,156,47,47,47,61,56,8,9,0.9,0.9
2023-10-15T01:00:00,1144A,121.412,31.1654,上海市,徐汇上师大,细颗粒物(PM2.5),99,98,62,74,59,151,61,61,61,50,52,8,9,0.9,1
2023-10-15T01:00:00,1145A,121.536,31.2659,上海市,杨浦四漂,细颗粒物(PM2.5),85,79,60,63,57,171,107,107,107,32,45,9,10,0.9,1
2023-10-15T01:00:00,1147A,121.425,31.2261,上海市,静安监测站,细颗粒物(PM2.5),93,88,60,69,56,161,54,54,54,67,60,5,6,0.9,0.9
2023-10-15T01:00:00,1148A,121.703,31.1907,上海市,浦东川沙,细颗粒物(PM2.5),98,101,65,73,56,154,26,26,26,79,52,7,8,0.9,1
2023-10-15T01:00:00,1149A,121.533,31.2284,上海市,浦东新区监测站,细颗粒物(PM2.5),67,76,58,48,48,157,108,108,108,30,40,8,10,0.9,1
2023-10-15T01:00:00,1150A,121.577,31.2071,上海市,浦东张江,细颗粒物(PM2.5),83,96,64,61,51,138,56,56,56,54,52,6,6,1.2,1.2
2023-10-15T01:00:00,1151A,118.8086,32.1065,南京市,迈皋桥,颗粒物(PM10),61,71,64,39,30,174,87,87,87,25,30,10,4,0.5,0.5
2023-10-15T01:00:00,1152A,118.7538,32.0551,南京市,草场门,细颗粒物(PM2.5),62,68,62,44,35,171,69,69,69,49,40,12,4,0.9,0.8
2023-10-15T01:00:00,1153A,118.7794,32.0745,南京市,山西路,细颗粒物(PM2.5),70,80,72,51,38,179,86,86,86,30,31,11,6,0.6,0.6
2023-10-15T01:00:00,1154A,118.7752,32.0023,南京市,中华门,细颗粒物(PM2.5),70,88,73,51,36,177,24,24,24,82,46,16,6,1.4,0.9
2023-10-15T01:00:00,1155A,118.8109,32.0309,南京市,瑞金路,颗粒物(PM10),67,83,70,46,33,164,9,9,9,89,44,13,10,0.9,0.5
2023-10-15T01:00:00,1156A,118.7997,32.0754,南京市,玄武湖,颗粒物(PM10),58,66,55,40,32,163,81,81,81,24,28,14,6,0.9,0.8
2023-10-15T01:00:00,1157A,118.6414,32.0931,南京市,浦口,颗粒物(PM10),52,54,57,35,29,171,106,106,106,19,23,8,5,0.6,0.6
2023-10-15T01:00:00,1158A,118.7356,31.9996,南京市,奥体中心,细颗粒物(PM2.5),70,84,71,51,38,174,37,37,37,74,45,20,9,0.6,0.4
2023-10-15T01:00:00,1159A,118.9125,32.1028,南京市,仙林大学城,细颗粒物(PM2.5),67,70,71,48,37,175,40,40,40,68,44,5,3,0.9,0.8
2023-10-15T01:00:00,1160A,120.561,31.2472,苏州市,上方山,细颗粒物(PM2.5),59,61,52,42,30,141,64,64,64,16,19,4,5,0.7,0.7
2023-10-15T01:00:00,1162A,120.591,31.3019,苏州市,彩香,细颗粒物(PM2.5),64,72,57,46,36,161,84,84,84,29,33,7,9,0.9,0.9
2023-10-15T01:00:00,1163A,120.596,31.3264,苏州市,轧钢厂,细颗粒物(PM2.5),70,78,70,51,41,163,60,60,60,25,29,9,10,0.9,0.9
2023-10-15T01:00:00,1164A,120.613,31.2703,苏州市,吴中区,颗粒物(PM10),63,76,66,43,39,165,84,84,84,32,38,8,10,0.8,0.8
2023-10-15T01:00:00,1165A,120.543,31.2994,苏州市,苏州新区,细颗粒物(PM2.5),70,63,54,51,33,169,110,110,110,19,23,8,10,0.8,0.9
2023-10-15T01:00:00,1166A,120.669,31.3097,苏州市,苏州工业园区,细颗粒物(PM2.5),70,78,59,51,39,165,69,69,69,47,40,8,9,0.9,0.9
2023-10-15T01:00:00,1167A,120.641,31.3708,苏州市,相城区,细颗粒物(PM2.5),62,67,56,44,39,169,106,106,106,31,42,10,12,0.9,1
2023-10-15T01:00:00,1168A,120.9098,31.9663,南通市,狼山街道,细颗粒物(PM2.5),87,91,70,64,44,197,62,62,62,43,49,8,9,0.7,0.8
2023-10-15T01:00:00,1169A,120.86,32.0005,南通市,虹桥,细颗粒物(PM2.5),97,96,100,72,63,183,98,98,98,38,64,9,11,0.8,0.9
2023-10-15T01:00:00,1170A,120.87,32.02,南通市,城中,细颗粒物(PM2.5),94,93,83,70,61,168,87,87,87,35,55,10,11,0.6,0.9
2023-10-15T01:00:00,1171A,120.94,31.93,南通市,星湖花园,细颗粒物(PM2.5),104,123,88,78,55,163,62,62,62,52,65,10,11,0.9,1
2023-10-15T01:00:00,1172A,120.81,32.0417,南通市,紫琅学院,细颗粒物(PM2.5),88,88,95,65,55,176,95,95,95,31,51,8,11,0.6,0.8
2023-10-15T01:00:00,1173A,119.176,34.5885,连云港市,市环境监测站,细颗粒物(PM2.5),144,158,101,110,69,148,16,16,16,84,40,9,14,0.8,0.8
2023-10-15T01:00:00,1177A,117.179,34.2761,徐州市,黄河新村,细颗粒物(PM2.5),122,139,127,92,83,173,1,1,1,79,53,8,9,1.0,0.7
2023-10-15T01:00:00,1178A,117.1918,34.2384,徐州市,淮塔,细颗粒物(PM2.5),63,63,94,45,62,182,63,63,63,27,29,7,9,0.6,0.7
2023-10-15T01:00:00,1180A,117.256,34.2153,徐州市,新城区,细颗粒物(PM2.5),77,93,129,56,75,179,23,23,23,78,69,8,9,0.7,0.8
2023-10-15T01:00:00,1181A,117.244,34.2911,徐州市,桃园路,细颗粒物(PM2.5),89,119,119,66,69,186,4,4,4,84,54,8,9,1.2,0.9
2023-10-15T01:00:00,1182A,117.2933,34.2778,徐州市,农科院,细颗粒物(PM2.5),90,100,108,67,68,178,5,5,5,84,60,8,9,1.0,0.8
2023-10-15T01:00:00,1186A,119.389,32.3761,扬州市,邗江监测站,细颗粒物(PM2.5),69,83,85,50,38,172,71,71,71,36,50,8,8,0.6,0.5
2023-10-15T01:00:00,1188A,120.269,31.4867,无锡市,雪浪,细颗粒物(PM2.5),62,66,63,44,39,156,124,124,124,13,18,11,9,0.8,0.9
2023-10-15T01:00:00,1189A,120.275,31.6219,无锡市,黄巷,颗粒物(PM10),73,96,89,51,46,148,34,34,34,92,50,14,10,0.9,0.9
2023-10-15T01:00:00,1190A,120.294,31.56,无锡市,曹张,细颗粒物(PM2.5),64,71,59,46,44,152,6,6,6,102,55,8,9,1.1,1.1
2023-10-15T01:00:00,1191A,120.242,31.5031,无锡市,漆塘,细颗粒物(PM2.5),58,48,62,41,41,165,57,57,57,20,25,6,11,1.0,1.1
2023-10-15T01:00:00,1192A,120.3489,31.5863,无锡市,东亭,细颗粒物(PM2.5),70,78,70,51,43,171,80,80,80,43,34,8,7,1.0,1.1
2023-10-15T01:00:00,1193A,120.354,31.5475,无锡市,旺庄,"颗粒物(PM10),细颗粒物(PM2.5)",62,73,71,44,41,158,87,87,87,50,48,8,8,0.9,1
2023-10-15T01:00:00,1194A,120.245,31.5631,无锡市,荣巷,细颗粒物(PM2.5),62,56,60,44,42,165,77,77,77,17,22,9,11,0.9,1.1
2023-10-15T01:00:00,1195A,120.299,31.6817,无锡市,堰桥,细颗粒物(PM2.5),94,95,89,70,48,154,31,31,31,68,57,14,13,1.0,1.2
2023-10-15T01:00:00,1196A,119.9633,31.762,常州市,市监测站,细颗粒物(PM2.5),100,139,94,75,54,174,71,71,71,40,41,9,10,1.0,0.8
2023-10-15T01:00:00,1200A,119.9468,31.7069,常州市,武进监测站,颗粒物(PM10),84,117,89,60,47,178,76,76,76,26,34,15,11,1.1,0.9
2023-10-15T01:00:00,1201A,119.9255,31.9087,常州市,安家,细颗粒物(PM2.5),104,132,96,78,58,181,49,49,49,43,40,12,11,0.9,0.9
2023-10-15T01:00:00,1203A,119.6707,32.1875,镇江市,新区办事处,细颗粒物(PM2.5),102,98,78,76,50,198,71,71,71,30,43,5,8,0.7,0.8
2023-10-15T01:00:00,1204A,119.4974,32.1968,镇江市,职教中心,细颗粒物(PM2.5),74,66,65,54,40,216,99,99,99,17,27,6,6,0.7,0.6
2023-10-15T01:00:00,1205A,119.4303,32.1328,镇江市,丹徒区监测站,细颗粒物(PM2.5),92,91,70,68,40,193,68,68,68,36,30,4,6,0.5,0.6
2023-10-15T01:00:00,1206A,119.905,32.4878,泰州市,公园路,细颗粒物(PM2.5),58,48,63,41,40,184,55,55,55,29,40,6,8,0.6,0.6
2023-10-15T01:00:00,1207A,119.9189,32.4625,泰州市,莲花,,49,49,73,29,40,185,83,83,83,21,42,5,8,0.5,0.6
2023-10-15T01:00:00,1209A,119.888,32.4639,泰州市,留学生创业园,细颗粒物(PM2.5),67,77,79,48,43,185,29,29,29,55,45,7,9,0.7,0.7
2023-10-15T01:00:00,1210A,119.036,33.5981,淮安市,钵池山,细颗粒物(PM2.5),54,31,66,38,50,166,95,95,95,17,21,9,10,0.7,0.9
2023-10-15T01:00:00,1211A,119.007,33.575,淮安市,北京南路,细颗粒物(PM2.5),57,31,77,40,53,170,85,85,85,26,32,6,8,0.5,0.8
2023-10-15T01:00:00,1212A,118.989,33.6067,淮安市,市监测站,细颗粒物(PM2.5),62,58,82,44,49,178,70,70,70,42,34,21,12,2.1,0.9
2023-10-15T01:00:00,1213A,119.135,33.5039,淮安市,楚州区监测站,细颗粒物(PM2.5),52,27,82,36,58,162,85,85,85,21,39,5,7,0.6,0.7
2023-10-15T01:00:00,1214A,119.0186,33.6297,淮安市,淮阴区监测站,细颗粒物(PM2.5),67,58,93,48,53,175,74,74,74,36,31,26,14,1.1,0.8
2023-10-15T01:00:00,1215A,120.118,33.4022,盐城市,盐城电厂,颗粒物(PM10),51,51,80,34,43,179,83,83,83,18,24,7,11,0.5,0.6
2023-10-15T01:00:00,1216A,120.156,33.3942,盐城市,市监测站,,48,45,66,33,47,191,102,102,102,14,22,6,11,0.5,0.6
2023-10-15T01:00:00,1218A,120.2144,33.38,盐城市,开发区管委会,颗粒物(PM10),56,61,73,33,38,185,84,84,84,19,21,9,11,0.5,0.6
2023-10-15T01:00:00,1220A,118.293,33.9528,宿迁市,宿迁学院,细颗粒物(PM2.5),92,117,117,68,74,183,43,43,43,54,44,9,11,0.8,0.6
2023-10-15T01:00:00,1221A,118.2442,33.9592,宿迁市,宿迁中学,细颗粒物(PM2.5),100,112,120,75,84,180,27,27,27,55,44,7,9,0.9,0.9
2023-10-15T01:00:00,1223A,120.2072,30.2111,杭州市,滨江,颗粒物(PM10),52,54,45,28,27,148,43,43,43,49,33,6,6,0.7,0.6
2023-10-15T01:00:00,1224A,120.0633,30.2747,杭州市,西溪,,43,36,30,30,23,140,7,7,7,50,30,4,5,0.7,0.6
2023-10-15T01:00:00,1226A,120.3461,30.3153,杭州市,下沙,颗粒物(PM10),55,59,43,37,24,146,45,45,45,49,41,6,7,0.7,0.7
2023-10-15T01:00:00,1227A,120.1269,30.2456,杭州市,卧龙桥,,35,35,31,23,22,141,21,21,21,16,20,7,7,0.7,0.7
2023-10-15T01:00:00,1228A,120.1903,30.2692,杭州市,浙江农大,细颗粒物(PM2.5),58,54,36,41,26,127,18,18,18,57,30,6,6,0.8,0.7
2023-10-15T01:00:00,1230A,120.1197,30.3119,杭州市,和睦小学,细颗粒物(PM2.5),58,55,40,41,29,132,5,5,5,66,41,8,8,0.8,0.7
2023-10-15T01:00:00,1231A,120.3019,30.4183,杭州市,临平镇,颗粒物(PM10),66,81,52,40,26,147,8,8,8,90,43,6,6,0.8,0.7
2023-10-15T01:00:00,1232A,120.2697,30.1819,杭州市,城厢镇,细颗粒物(PM2.5),60,61,41,43,29,139,46,46,46,41,28,7,7,0.7,0.6
2023-10-15T01:00:00,1233A,120.0883,30.1808,杭州市,云栖,,37,37,39,21,20,133,37,37,37,17,17,6,7,0.6,0.6
2023-10-15T01:00:00,1234A,121.8358,29.911,宁波市,区环保大楼,,46,44,34,32,27,140,70,70,70,35,44,5,7,0.7,0.7
2023-10-15T01:00:00,1235A,121.56,29.82,宁波市,万里学院,颗粒物(PM10),51,51,44,31,26,149,38,38,38,48,42,9,10,0.8,0.8
2023-10-15T01:00:00,1236A,121.713,29.9572,宁波市,龙赛医院,颗粒物(PM10),75,100,62,40,23,134,10,10,10,68,42,6,6,1.0,0.8
2023-10-15T01:00:00,1239A,121.633,29.7733,宁波市,钱湖水厂,颗粒物(PM10),59,67,48,36,28,125,43,43,43,28,37,6,7,0.5,0.5
2023-10-15T01:00:00,1240A,121.5856,29.8635,宁波市,太古小学,颗粒物(PM10),59,67,48,36,28,140,38,38,38,44,33,8,9,0.9,0.9
2023-10-15T01:00:00,1241A,121.524,29.8674,宁波市,市环境监测中心,,48,48,45,32,26,146,32,32,32,44,39,8,10,0.7,0.7
2023-10-15T01:00:00,1242A,120.634,28.0089,温州市,瓯海,细颗粒物(PM2.5),62,67,55,44,34,131,25,25,25,59,35,8,7,0.7,0.6
2023-10-15T01:00:00,1243A,120.6748,27.9939,温州市,南浦,细颗粒物(PM2.5),62,67,53,44,35,140,32,32,32,59,30,6,6,0.6,0.5
2023-10-15T01:00:00,1244A,120.76,27.9747,温州市,龙湾,颗粒物(PM10),56,62,53,36,29,148,19,19,19,82,39,4,6,0.7,0.6
2023-10-15T01:00:00,1245A,120.6709,28.0167,温州市,市站,颗粒物(PM10),60,70,58,40,36,127,30,30,30,59,36,7,7,0.8,0.6
2023-10-15T01:00:00,1247A,120.6053,29.9928,绍兴市,城东开发委,,44,44,42,28,27,124,48,48,48,31,28,7,8,0.8,0.8
2023-10-15T01:00:00,1250A,120.0751,30.8669,湖州市,城西水厂,"颗粒物(PM10),细颗粒物(PM2.5)",60,70,53,43,38,132,20,20,20,73,61,4,6,0.6,0.7
2023-10-15T01:00:00,1252A,120.7436,30.778,嘉兴市,清河小学,颗粒物(PM10),61,72,51,34,26,148,46,46,46,63,45,6,6,0.9,0.9
2023-10-15T01:00:00,1253A,120.726,30.7478,嘉兴市,嘉兴学院,颗粒物(PM10),64,78,48,30,27,154,32,32,32,72,47,7,6,0.7,0.7
2023-10-15T01:00:00,1255A,121.273,28.6459,台州市,黄岩环保大楼,,41,41,35,27,23,131,72,72,72,15,20,6,7,0.5,0.5
2023-10-15T01:00:00,1256A,121.419,28.6542,台州市,台州环保大楼,颗粒物(PM10),51,52,37,23,16,130,55,55,55,30,16,5,5,0.6,0.5
2023-10-15T01:00:00,1257A,121.377,28.5773,台州市,路桥田洋王,,,,,,,,,,,,,,,,
2023-10-15T01:00:00,1258A,122.122,30.0203,舟山市,定海檀枫,,42,41,30,29,18,164,72,72,72,14,15,6,7,0.6,0.6
2023-10-15T01:00:00,1259A,122.3094,29.9558,舟山市,普陀东港,颗粒物(PM10),52,54,33,32,18,184,98,98,98,16,12,6,6,0.5,0.5
2023-10-15T01:00:00,1260A,122.19,29.9944,舟山市,临城新区,,35,35,32,23,21,188,60,60,60,16,16,4,5,0.6,0.6
2023-10-15T01:00:00,1262A,119.647,29.077,金华市,十五中,,45,37,54,31,34,125,30,30,30,40,35,4,5,0.6,0.6
2023-10-15T01:00:00,1263A,119.686,29.1029,金华市,监测站,,44,44,48,27,28,121,45,45,45,28,35,5,6,0.7,0.7
2023-10-15T01:00:00,1264A,118.8692,28.9398,衢州市,环保大楼,细颗粒物(PM2.5),77,84,56,56,38,103,19,19,19,35,32,11,6,0.7,0.6
2023-10-15T01:00:00,1265A,118.8709,28.9666,衢州市,实验学校,颗粒物(PM10),56,61,53,34,32,105,5,5,5,56,33,9,5,0.5,0.5
2023-10-15T01:00:00,1266A,118.8621,28.9808,衢州市,衢州学院,颗粒物(PM10),54,58,50,33,33,106,2,2,2,54,37,4,5,0.6,0.6
2023-10-15T01:00:00,1267A,119.914,28.4514,丽水市,监测站大楼,,40,40,47,21,28,120,55,55,55,23,23,5,7,0.5,0.6
2023-10-15T01:00:00,1268A,119.93,28.4586,丽水市,莲都小学,,42,42,50,23,29,129,59,59,59,17,22,5,6,0.4,0.4
2023-10-15T01:00:00,1269A,119.879,28.4231,丽水市,余庄前,,43,37,41,30,29,114,11,11,11,16,18,5,6,0.4,0.5
2023-10-15T01:00:00,1270A,117.1959,31.7848,合肥市,明珠广场,"颗粒物(PM10),细颗粒物(PM2.5)",58,66,65,41,34,147,68,68,68,32,48,8,8,0.6,0.7
2023-10-15T01:00:00,1271A,117.3072,31.8764,合肥市,三里街,细颗粒物(PM2.5),79,102,79,58,43,150,2,2,2,109,56,5,5,1.1,0.8
2023-10-15T01:00:00,1272A,117.2588,31.8707,合肥市,琥珀山庄,细颗粒物(PM2.5),73,83,70,53,40,159,24,24,24,68,45,5,5,1.1,0.9
2023-10-15T01:00:00,1273A,117.1604,31.9052,合肥市,董铺水库,,,,,,,,,,,,,,,,
2023-10-15T01:00:00,1274A,117.25,31.8571,合肥市,长江中路,细颗粒物(PM2.5),72,78,72,52,44,150,49,49,49,64,41,8,8,0.6,0.6
2023-10-15T01:00:00,1275A,117.266,31.9436,合肥市,庐阳区,颗粒物(PM10),60,70,66,39,39,157,57,57,57,52,27,6,5,0.6,0.6
2023-10-15T01:00:00,1276A,117.336,31.8586,合肥市,瑶海区,颗粒物(PM10),101,151,90,55,42,144,3,3,3,118,61,9,6,0.8,0.7
2023-10-15T01:00:00,1277A,117.3027,31.7964,合肥市,包河区,颗粒物(PM10),73,95,72,51,38,153,2,2,2,103,61,2,2,0.7,0.6
2023-10-15T01:00:00,1278A,117.2776,31.7385,合肥市,滨湖新区,颗粒物(PM10),69,88,66,44,34,144,10,10,10,86,57,7,7,0.4,0.4
2023-10-15T01:00:00,1279A,117.1318,31.8403,合肥市,高新区,细颗粒物(PM2.5),65,70,61,47,38,150,88,88,88,31,33,8,8,0.6,0.6
2023-10-15T01:00:00,1280A,119.3903,26.0543,福州市,鼓山,,,,,,,,,,,,,,,,
2023-10-15T01:00:00,1282A,119.2681,26.0504,福州市,师大,,43,36,28,30,21,127,85,85,85,11,9,5,5,0.5,0.5
2023-10-15T01:00:00,1283A,119.2984,26.1028,福州市,五四北路,,46,32,28,32,21,115,94,94,94,12,12,4,3,0.5,0.5
2023-10-15T01:00:00,1284A,119.2648,26.0768,福州市,杨桥西路,,42,38,29,29,18,126,92,92,92,11,10,4,3,0.6,0.5
2023-10-15T01:00:00,1285A,119.317,26.0746,福州市,紫阳,细颗粒物(PM2.5),52,41,30,36,22,117,95,95,95,8,9,4,4,0.5,0.5
2023-10-15T01:00:00,1286A,118.1608,24.8169,厦门市,溪东,,,,,,,,,,,,,,,,
2023-10-15T01:00:00,1287A,118.1514,24.4767,厦门市,洪文,细颗粒物(PM2.5),53,53,40,37,23,125,76,76,76,7,10,2,3,0.4,0.4
2023-10-15T01:00:00,1288A,118.0661,24.4444,厦门市,鼓浪屿,,50,50,33,33,21,122,76,76,76,5,6,2,3,0.6,0.5
2023-10-15T01:00:00,1290A,115.8931,28.6843,南昌市,省外办,细颗粒物(PM2.5),117,130,89,88,52,140,55,55,55,40,22,16,5,0.9,0.8
2023-10-15T01:00:00,1291A,115.8886,28.7003,南昌市,省林业公司,细颗粒物(PM2.5),107,122,83,80,53,150,70,70,70,48,29,23,7,0.9,0.7
2023-10-15T01:00:00,1292A,115.8126,28.7442,南昌市,林科所,细颗粒物(PM2.5),83,92,67,61,40,152,26,26,26,69,32,11,9,0.6,0.6
2023-10-15T01:00:00,1294A,115.8518,28.687,南昌市,建工学校,细颗粒物(PM2.5),99,134,86,74,49,137,56,56,56,46,30,18,8,0.6,0.6
2023-10-15T01:00:00,1295A,115.8921,28.6424,南昌市,象湖,细颗粒物(PM2.5),108,119,73,81,49,146,33,33,33,60,23,16,7,1.0,0.8
2023-10-15T01:00:00,1296A,115.7423,28.7996,南昌市,武术学校,,25,25,26,7,14,128,10,10,10,6,8,4,4,0.4,0.5
2023-10-15T01:00:00,1298A,115.9314,28.6842,南昌市,省站,细颗粒物(PM2.5),113,118,81,85,53,152,45,45,45,45,20,19,9,0.8,0.6
2023-10-15T01:00:00,1299A,116.9862,36.6114,济南市,科干所,颗粒物(PM10),82,114,99,54,51,126,98,98,98,48,55,8,6,0.7,0.7
2023-10-15T01:00:00,1300A,116.9376,36.665,济南市,农科所,颗粒物(PM10),78,105,98,49,48,115,23,23,23,74,64,4,5,0.7,0.8
2023-10-15T01:00:00,1301A,117.1265,36.6734,济南市,开发区,颗粒物(PM10),75,100,91,51,45,113,61,61,61,64,63,7,7,0.7,0.7
2023-10-15T01:00:00,1303A,117.0624,36.6868,济南市,省种子仓库,细颗粒物(PM2.5),79,105,101,58,50,133,18,18,18,86,72,4,4,0.9,0.8
2023-10-15T01:00:00,1304A,116.9489,36.6447,济南市,机床二厂,细颗粒物(PM2.5),85,115,119,63,61,129,48,48,48,52,62,4,5,0.5,0.6
2023-10-15T01:00:00,1305A,117.0495,36.663,济南市,市监测站,颗粒物(PM10),75,100,99,54,51,134,13,13,13,108,84,7,7,0.9,0.8
2023-10-15T01:00:00,1306A,116.7675,36.5484,济南市,长清党校,细颗粒物(PM2.5),92,110,110,68,65,142,42,42,42,81,50,5,6,0.7,0.6
2023-10-15T01:00:00,1307A,120.6659,36.2403,青岛市,仰口,,31,7,30,12,15,119,98,98,98,5,10,3,5,0.3,0.4
2023-10-15T01:00:00,1310A,120.4134,36.0658,青岛市,市南区东部子站,颗粒物(PM10),56,61,67,24,32,136,36,36,36,75,38,7,9,0.7,0.6
2023-10-15T01:00:00,1311A,120.3664,36.1032,青岛市,四方区子站,颗粒物(PM10),62,73,58,31,30,136,17,17,17,91,41,6,7,0.7,0.6
2023-10-15T01:00:00,1312A,120.2994,36.054,青岛市,市南区西部子站,颗粒物(PM10),56,61,59,22,28,128,33,33,33,75,33,9,8,0.5,0.6
2023-10-15T01:00:00,1313A,120.4581,36.0858,青岛市,崂山区子站,,28,27,54,12,28,136,88,88,88,20,27,6,8,0.5,0.6
2023-10-15T01:00:00,1314A,120.1983,35.9608,青岛市,黄岛区子站,,44,44,60,24,32,128,71,71,71,39,40,8,8,0.6,0.6
2023-10-15T01:00:00,1315A,120.3999,36.3083,青岛市,城阳区子站,颗粒物(PM10),51,51,63,22,27,132,23,23,23,62,49,6,8,0.8,0.7
2023-10-15T01:00:00,1316A,113.69031,34.76122,郑州市,烟厂,颗粒物(PM10),62,74,58,26,25,150,50,50,50,55,37,9,8,0.6,0.6
2023-10-15T01:00:00,1317A,113.65724,34.77134,郑州市,郑纺机,颗粒物(PM10),61,72,60,18,24,148,45,45,45,57,45,8,8,0.8,0.8
2023-10-15T01:00:00,1318A,113.67526,34.80246,郑州市,银行学校,颗粒物(PM10),60,70,54,12,13,152,63,63,63,40,35,10,9,0.5,0.7
2023-10-15T01:00:00,1319A,113.56746,34.81334,郑州市,供水公司,颗粒物(PM10),64,77,54,30,26,152,53,53,53,49,36,9,10,0.7,0.7
2023-10-15T01:00:00,1320A,113.7329,34.7178,郑州市,经开区管委,颗粒物(PM10),70,89,58,27,27,151,21,21,21,75,38,8,8,0.6,0.5
2023-10-15T01:00:00,1321A,113.73961,34.77172,郑州市,四十七中,颗粒物(PM10),60,70,51,11,19,153,56,56,56,53,38,9,8,0.7,0.7
2023-10-15T01:00:00,1322A,113.60532,34.74838,郑州市,市监测站,颗粒物(PM10),64,77,69,30,31,141,45,45,45,54,45,9,10,0.5,0.5
2023-10-15T01:00:00,1323A,113.64164,34.7525,郑州市,河医大,颗粒物(PM10),59,67,59,19,26,147,49,49,49,42,33,10,11,0.7,0.7
2023-10-15T01:00:00,1324A,113.51488,34.91089,郑州市,岗李水库,,,,,,,,,,,,,,,,
2023-10-15T01:00:00,1325A,114.3677,30.5584,武汉市,东湖梨园,细颗粒物(PM2.5),70,64,58,51,48,168,31,31,31,71,39,9,10,0.8,0.6
2023-10-15T01:00:00,1326A,114.2529,30.558,武汉市,汉阳月湖,细颗粒物(PM2.5),83,88,77,61,54,142,8,8,8,89,57,7,8,1.0,0.7
2023-10-15T01:00:00,1327A,114.282,30.6189,武汉市,汉口花桥,细颗粒物(PM2.5),85,98,80,63,55,154,24,24,24,85,63,8,9,1.1,0.9
2023-10-15T01:00:00,1328A,114.3025,30.5332,武汉市,武昌紫阳,颗粒物(PM10),61,72,65,42,35,165,12,12,12,98,50,11,12,0.8,0.8
2023-10-15T01:00:00,1329A,114.3646,30.6217,武汉市,青山钢花,细颗粒物(PM2.5),122,118,86,92,65,162,6,6,6,98,90,11,9,1.2,0.9
2023-10-15T01:00:00,1330A,114.1566,30.4825,武汉市,沌口新区,细颗粒物(PM2.5),90,90,78,67,47,155,14,14,14,111,58,10,10,0.7,0.6
2023-10-15T01:00:00,1331A,114.3014,30.5944,武汉市,汉口江滩,"颗粒物(PM10),细颗粒物(PM2.5)",72,93,77,52,39,162,24,24,24,86,50,8,8,0.7,0.6
2023-10-15T01:00:00,1333A,114.135,30.6319,武汉市,吴家山,细颗粒物(PM2.5),98,87,76,73,56,165,29,29,29,76,50,9,9,0.7,0.6
2023-10-15T01:00:00,1334A,113.8454,30.2917,武汉市,沉湖七壕,细颗粒物(PM2.5),58,64,54,41,36,164,35,35,35,35,21,4,5,0.8,0.8
2023-10-15T01:00:00,1335A,113.0833,28.2325,长沙市,经开区环保局,细颗粒物(PM2.5),100,114,73,75,45,141,2,2,2,90,30,23,8,0.8,0.5
2023-10-15T01:00:00,1336A,112.8872,28.2189,长沙市,高开区环保局,颗粒物(PM10),75,99,59,54,41,142,2,2,2,78,27,7,6,1.1,0.7
2023-10-15T01:00:00,1337A,113.0792,28.2053,长沙市,马坡岭,细颗粒物(PM2.5),117,144,81,88,47,157,5,5,5,72,32,7,8,0.9,0.6
2023-10-15T01:00:00,1338A,112.9394,28.19,长沙市,湖南师范大学,,39,39,54,24,31,144,86,86,86,12,18,6,6,0.5,0.6
2023-10-15T01:00:00,1339A,113.0178,28.1322,长沙市,雨花区环保局,颗粒物(PM10),80,110,64,52,42,144,4,4,4,100,32,6,6,1.2,0.8
2023-10-15T01:00:00,1340A,112.9792,28.2597,长沙市,伍家岭,细颗粒物(PM2.5),120,133,72,91,54,144,0,0,0,55,32,5,7,0.9,0.8
2023-10-15T01:00:00,1341A,113.0014,28.1944,长沙市,火车新站,细颗粒物(PM2.5),119,147,71,90,46,150,4,4,4,92,30,6,6,2.0,0.9
2023-10-15T01:00:00,1342A,112.9844,28.1178,长沙市,天心区环保局,颗粒物(PM10),63,75,53,33,27,142,19,19,19,88,29,5,5,0.5,0.5
2023-10-15T01:00:00,1343A,112.8908,28.1308,长沙市,湖南中医药大学,颗粒物(PM10),65,79,67,44,47,153,0,0,0,58,28,5,5,0.9,0.8
2023-10-15T01:00:00,1344A,112.9581,28.3611,长沙市,沙坪,,40,23,44,28,31,104,44,44,44,8,8,7,8,0.3,0.4
2023-10-15T01:00:00,1345A,113.2347,23.1423,广州市,广雅中学,细颗粒物(PM2.5),69,67,64,50,38,140,57,57,57,38,35,5,6,1.0,0.9
2023-10-15T01:00:00,1346A,113.2612,23.105,广州市,市五中,细颗粒物(PM2.5),67,64,53,48,37,152,64,64,64,35,24,8,7,0.8,0.8
2023-10-15T01:00:00,1348A,113.3478,23.0916,广州市,广东商学院,细颗粒物(PM2.5),54,52,48,38,32,136,71,71,71,21,19,5,4,0.7,0.7
2023-10-15T01:00:00,1349A,113.4332,23.1047,广州市,市八十六中,细颗粒物(PM2.5),60,62,49,43,32,132,49,49,49,42,23,6,5,0.7,0.6
2023-10-15T01:00:00,1350A,113.3505,22.9483,广州市,番禺中学,细颗粒物(PM2.5),65,61,47,47,32,151,60,60,60,37,25,5,5,0.8,0.7
2023-10-15T01:00:00,1351A,113.2146,23.3916,广州市,花都师范,细颗粒物(PM2.5),54,54,51,38,36,132,80,80,80,16,17,8,8,0.7,0.7
2023-10-15T01:00:00,1352A,113.2597,23.1331,广州市,市监测站,细颗粒物(PM2.5),75,85,58,55,38,148,43,43,43,55,31,5,5,0.8,0.7
2023-10-15T01:00:00,1353A,113.5618,23.312,广州市,九龙镇镇龙,细颗粒物(PM2.5),60,61,47,43,33,118,60,60,60,21,16,5,5,0.8,0.7
2023-10-15T01:00:00,1354A,113.2765,23.1544,广州市,麓湖,细颗粒物(PM2.5),57,56,49,40,34,145,52,52,52,32,23,7,8,0.7,0.6
2023-10-15T01:00:00,1355A,113.443,23.3035,广州市,帽峰山森林公园,细颗粒物(PM2.5),57,44,38,40,34,129,68,68,68,14,12,7,7,0.5,0.4
2023-10-15T01:00:00,1356A,114.1063,22.5545,深圳市,通心岭子站,,37,37,39,24,23,147,37,37,37,37,22,3,3,0.8,0.8
2023-10-15T01:00:00,1357A,114.117,22.5625,深圳市,洪湖,颗粒物(PM10),61,72,48,28,23,131,34,34,34,44,34,7,7,0.6,0.5
2023-10-15T01:00:00,1358A,113.987,22.5417,深圳市,华侨城,,39,39,36,25,22,147,18,18,18,52,22,8,9,1.2,1.1
2023-10-15T01:00:00,1359A,113.9181,22.5171,深圳市,南海子站,颗粒物(PM10),52,53,48,34,25,141,40,40,40,45,25,5,5,0.8,0.7
2023-10-15T01:00:00,1360A,114.2458,22.5689,深圳市,盐田,,29,29,34,17,18,133,39,39,39,45,18,5,5,0.8,0.7
2023-10-15T01:00:00,1361A,114.2283,22.7244,深圳市,龙岗,颗粒物(PM10),53,55,39,34,25,120,52,52,52,28,19,8,8,0.8,0.7
2023-10-15T01:00:00,1363A,114.494,22.5422,深圳市,南澳,,26,26,22,15,13,125,50,50,50,10,11,4,5,0.8,0.8
2023-10-15T01:00:00,1364A,114.41,22.6342,深圳市,葵涌,,25,13,45,17,18,116,35,35,35,21,14,6,7,0.7,0.7
2023-10-15T01:00:00,1365A,114.297,22.5978,深圳市,梅沙,,43,43,32,26,18,114,54,54,54,14,10,7,7,0.8,0.7
2023-10-15T01:00:00,1366A,114.0678,22.738,深圳市,观澜,颗粒物(PM10),62,73,53,32,27,136,63,63,63,26,27,10,9,0.8,1
2023-10-15T01:00:00,1367A,113.5814,22.2618,珠海市,吉大,,43,43,44,27,27,202,118,118,118,16,18,6,6,0.5,0.5
2023-10-15T01:00:00,1368A,113.4881,22.2335,珠海市,前山,颗粒物(PM10),54,57,41,30,23,180,68,68,68,35,22,7,7,0.6,0.5
2023-10-15T01:00:00,1369A,113.628,22.4251,珠海市,唐家,,49,49,39,32,29,193,63,63,63,25,18,6,6,0.6,0.5
2023-10-15T01:00:00,1370A,113.299,22.2281,珠海市,斗门,颗粒物(PM10),61,71,42,39,26,173,75,75,75,26,25,8,8,0.7,0.6
2023-10-15T01:00:00,1371A,113.1294,23.0067,佛山市,湾梁,,50,48,43,35,30,167,72,72,72,26,22,9,10,0.8,0.8
2023-10-15T01:00:00,1372A,113.1083,23.0478,佛山市,华材职中,细颗粒物(PM2.5),63,63,48,45,33,154,47,47,47,50,27,7,8,0.7,0.6
2023-10-15T01:00:00,1373A,113.144,23.0453,佛山市,南海气象局,细颗粒物(PM2.5),54,56,50,38,32,150,55,55,55,35,27,6,7,0.6,0.6
2023-10-15T01:00:00,1374A,113.2881,22.8094,佛山市,顺德苏岗,颗粒物(PM10),58,65,42,34,27,161,66,66,66,25,21,9,8,0.8,0.7
2023-10-15T01:00:00,1376A,112.8383,22.8678,佛山市,高明孔堂,细颗粒物(PM2.5),57,50,51,40,34,167,57,57,57,32,21,13,9,0.8,0.7
2023-10-15T01:00:00,1377A,112.8836,23.1588,佛山市,三水监测站,细颗粒物(PM2.5),62,46,52,44,38,160,73,73,73,22,21,6,6,0.7,0.7
2023-10-15T01:00:00,1378A,112.867,23.185,佛山市,三水云东海,细颗粒物(PM2.5),57,48,45,40,36,155,49,49,49,26,19,5,5,0.8,0.7
2023-10-15T01:00:00,1379A,113.3769,22.5211,中山市,华柏园,细颗粒物(PM2.5),67,59,43,48,30,167,64,64,64,31,25,5,5,0.7,0.5
2023-10-15T01:00:00,1380A,113.3881,22.5497,中山市,张溪,细颗粒物(PM2.5),74,62,49,54,30,168,60,60,60,30,25,4,5,0.9,0.8
2023-10-15T01:00:00,1381A,113.4075,22.5111,中山市,紫马岭,细颗粒物(PM2.5),69,59,44,50,31,167,57,57,57,28,25,5,5,0.7,0.6
2023-10-15T01:00:00,1382A,113.4411,22.4853,中山市,长江旅游区,,,,,,,,,,,,,,,,
2023-10-15T01:00:00,1383A,113.1064,22.6058,江门市,北街,细颗粒物(PM2.5),69,54,51,50,36,204,63,63,63,37,30,8,8,0.8,0.7
2023-10-15T01:00:00,1384A,113.0731,22.5835,江门市,西区,细颗粒物(PM2.5),62,72,57,44,31,208,75,75,75,28,30,7,7,0.6,0.6
2023-10-15T01:00:00,1385A,113.0219,22.5311,江门市,圭峰西,细颗粒物(PM2.5),57,51,48,40,34,212,71,71,71,32,28,6,6,0.8,0.7
2023-10-15T01:00:00,1386A,113.0828,22.5947,江门市,东湖,细颗粒物(PM2.5),59,64,54,42,29,217,67,67,67,29,25,7,7,0.9,0.7
2023-10-15T01:00:00,1389A,113.7547,23.0494,东莞市,莞城梨川,,48,46,42,33,29,124,65,65,65,24,20,8,8,0.8,0.7
2023-10-15T01:00:00,1390A,113.7944,23.0128,东莞市,东城石井,颗粒物(PM10),52,54,57,33,29,140,48,48,48,16,12,5,5,0.8,0.7
2023-10-15T01:00:00,1391A,113.7383,22.9658,东莞市,南城西平,,50,50,42,34,27,130,41,41,41,47,31,4,4,0.9,0.7
2023-10-15T01:00:00,1392A,114.4183,23.0528,惠州市,河南岸金山湖子站,颗粒物(PM10),52,54,43,35,28,110,82,82,82,12,12,7,8,0.6,0.6
2023-10-15T01:00:00,1393A,114.4053,23.0822,惠州市,下埔横江三路子站,"颗粒物(PM10),细颗粒物(PM2.5)",54,58,44,38,29,116,82,82,82,15,16,11,9,0.7,0.6
2023-10-15T01:00:00,1394A,114.4103,23.1142,惠州市,江北云山西路子站,细颗粒物(PM2.5),57,54,40,40,29,135,88,88,88,11,11,9,9,0.6,0.5
2023-10-15T01:00:00,1395A,114.4645,22.7833,惠州市,惠阳区承修路船湖子站,颗粒物(PM10),62,73,39,39,23,93,34,34,34,20,13,6,5,1.0,0.8
2023-10-15T01:00:00,1396A,114.5317,22.7422,惠州市,大亚湾管委会子站,,35,35,28,19,18,83,26,26,26,33,19,6,6,0.7,0.7
2023-10-15T01:00:00,1397A,112.4267,23.0706,肇庆市,睦岗子站,颗粒物(PM10),52,53,44,34,30,131,52,52,52,34,34,8,7,0.6,0.6
2023-10-15T01:00:00,1398A,112.4645,23.0475,肇庆市,城中子站,细颗粒物(PM2.5),54,54,40,38,30,132,63,63,63,26,31,8,7,0.7,0.7
2023-10-15T01:00:00,1399A,112.5544,23.1522,肇庆市,坑口子站,,49,40,37,34,30,129,61,61,61,23,18,6,4,0.6,0.6
2023-10-15T01:00:00,1400A,112.4753,23.1,肇庆市,七星岩子站,,,,,,,,,,,,,,,,
2023-10-15T01:00:00,1401A,108.3103,22.7881,南宁市,二十一中,,25,25,45,14,32,103,39,39,39,24,19,6,8,0.8,0.8
2023-10-15T01:00:00,1402A,108.3141,22.8528,南宁市,北湖,,37,37,47,15,33,103,31,31,31,25,19,16,12,0.7,0.7
2023-10-15T01:00:00,1403A,108.3206,22.8225,南宁市,市监测站,,26,19,48,18,35,104,36,36,36,31,28,13,15,0.9,0.9
2023-10-15T01:00:00,1404A,108.3829,22.8037,南宁市,大自然花园,,30,30,41,15,28,94,37,37,37,23,19,15,10,0.7,0.7
2023-10-15T01:00:00,1405A,108.4394,22.7904,南宁市,仙葫,,,,,,,,,,,,,,,,
2023-10-15T01:00:00,1406A,108.2397,22.8467,南宁市,区农职院,,20,20,50,9,27,96,48,48,48,14,18,6,8,0.6,0.7
2023-10-15T01:00:00,1407A,108.3275,22.735,南宁市,英华嘉园,,20,14,49,14,32,94,20,20,20,38,26,7,8,0.7,0.7
2023-10-15T01:00:00,1408A,108.2257,22.7757,南宁市,沙井镇街道办,,35,35,57,18,33,92,21,21,21,33,25,20,13,0.7,0.7
2023-10-15T01:00:00,1409A,110.576,19.9507,海口市,东寨港,,,,,,,,,,,,,,,,
2023-10-15T01:00:00,1410A,110.3232,20.0574,海口市,海南大学,,44,35,32,28,24,140,140,140,140,8,9,7,7,0.5,0.5
2023-10-15T01:00:00,1411A,110.283,20.0053,海口市,秀英海南医院,,43,38,33,30,23,132,124,124,124,10,9,8,8,0.5,0.5
2023-10-15T01:00:00,1412A,110.338,19.9969,海口市,海南师范大学,,40,35,33,28,23,133,128,128,128,12,10,7,7,0.5,0.5
2023-10-15T01:00:00,1413A,110.33,20.0356,海口市,龙华路环保局宿舍,,42,34,34,29,22,130,129,129,129,9,11,9,9,0.4,0.4
2023-10-15T01:00:00,1414A,106.3787,29.8279,重庆市,缙云山,,30,30,26,9,14,116,92,92,92,7,10,6,6,0.2,0.2
2023-10-15T01:00:00,1416A,106.4213,29.8253,重庆市,天生,细颗粒物(PM2.5),57,48,44,40,33,129,6,6,6,48,31,5,5,0.9,0.9
2023-10-15T01:00:00,1417A,106.6263,29.7228,重庆市,两路,,45,25,35,31,26,122,25,25,25,54,42,6,6,0.9,0.9
2023-10-15T01:00:00,1418A,106.2953,29.5983,重庆市,虎溪,细颗粒物(PM2.5),53,50,40,37,26,121,3,3,3,61,33,5,5,0.7,0.6
2023-10-15T01:00:00,1419A,106.5777,29.5102,重庆市,南坪,细颗粒物(PM2.5),53,48,47,37,30,123,50,50,50,70,26,7,7,0.9,0.7
2023-10-15T01:00:00,1420A,106.6556,29.6277,重庆市,唐家沱,颗粒物(PM10),54,57,47,31,27,119,20,20,20,40,37,6,6,0.9,0.9
2023-10-15T01:00:00,1421A,106.6349,29.4906,重庆市,茶园,,46,46,42,29,24,118,16,16,16,66,38,5,5,1.0,0.8
2023-10-15T01:00:00,1422A,106.3754,29.4572,重庆市,白市驿,,50,50,36,32,29,124,66,66,66,29,21,6,7,0.8,0.7
2023-10-15T01:00:00,1425A,106.6205,29.7166,重庆市,空港,,48,48,48,29,29,140,69,69,69,33,42,5,5,0.8,0.8
2023-10-15T01:00:00,1426A,106.4782,29.4875,重庆市,新山村,细颗粒物(PM2.5),64,58,55,46,36,122,5,5,5,90,45,7,8,1.8,0.9
2023-10-15T01:00:00,1427A,106.5616,29.6453,重庆市,礼嘉,颗粒物(PM10),61,72,44,40,28,125,5,5,5,83,42,8,8,1.1,1
2023-10-15T01:00:00,1428A,106.4522,29.7091,重庆市,蔡家,,48,48,45,31,28,113,11,11,11,45,28,6,7,0.7,0.7
2023-10-15T01:00:00,1429A,106.5093,29.3917,重庆市,鱼新街,细颗粒物(PM2.5),63,59,43,45,33,139,4,4,4,72,45,9,9,1.0,0.9
2023-10-15T01:00:00,1431A,103.9728,30.7236,成都市,金泉两河,,35,26,34,24,19,136,44,44,44,20,19,1,2,0.5,0.6
2023-10-15T01:00:00,1432A,104.176,30.6872,成都市,十里店,,31,31,36,14,20,146,43,43,43,31,31,3,2,0.6,0.7
2023-10-15T01:00:00,1433A,104.079,30.5706,成都市,三瓦窑,,28,28,41,12,21,117,61,61,61,19,30,2,3,0.5,0.6
2023-10-15T01:00:00,1434A,104.1114,30.63,成都市,沙河铺,,49,49,41,30,26,130,36,36,36,26,25,1,2,0.7,0.7
2023-10-15T01:00:00,1437A,104.0786,30.6531,成都市,君平街,,49,47,35,34,25,134,56,56,56,35,36,4,5,0.7,0.7
2023-10-15T01:00:00,1438A,103.613,31.0283,成都市,灵岩寺,,47,47,22,28,13,141,86,86,86,12,10,7,15,0.8,0.7
2023-10-15T01:00:00,1439A,106.6899,26.5998,贵阳市,马鞍山,,28,19,15,19,9,69,10,10,10,14,11,4,3,0.6,0.6
2023-10-15T01:00:00,1440A,106.6971,26.5694,贵阳市,市环保站,,38,27,22,26,19,84,8,8,8,41,27,4,4,0.4,0.4
2023-10-15T01:00:00,1441A,106.6243,26.6266,贵阳市,鉴湖路,,45,39,16,31,9,78,10,10,10,40,15,3,3,0.5,0.3
2023-10-15T01:00:00,1442A,106.7487,26.6343,贵阳市,燕子冲,,41,41,15,24,15,78,10,10,10,19,12,5,5,0.4,0.4
2023-10-15T01:00:00,1443A,106.6555,26.4365,贵阳市,碧云窝,,48,48,27,24,11,86,3,3,3,19,16,5,4,0.7,0.6
2023-10-15T01:00:00,1444A,106.694,26.5161,贵阳市,中院村,颗粒物(PM10),67,83,36,41,19,72,7,7,7,38,26,12,10,0.6,0.6
2023-10-15T01:00:00,1445A,106.7109,26.6027,贵阳市,红边门,,49,44,26,34,19,75,2,2,2,34,21,4,5,0.7,0.6
2023-10-15T01:00:00,1446A,106.7164,26.5699,贵阳市,新华路,,35,27,22,24,19,82,6,6,6,34,22,6,4,0.8,0.6
2023-10-15T01:00:00,1447A,106.674,26.5424,贵阳市,太慈桥,,31,31,17,19,10,77,5,5,5,20,18,4,4,0.5,0.5
2023-10-15T01:00:00,1450A,102.8204,24.8886,昆明市,呈贡新区,,34,34,23,23,15,65,29,29,29,26,22,5,7,1.1,0.9
2023-10-15T01:00:00,1451A,102.6251,24.9608,昆明市,西山森林公园,,27,13,8,6,8,110,84,84,84,4,9,5,5,0.5,0.6
2023-10-15T01:00:00,1452A,102.7252,25.0902,昆明市,龙泉镇,,42,42,15,15,6,72,4,4,4,28,15,8,9,0.8,0.6
2023-10-15T01:00:00,1453A,102.7266,25.0375,昆明市,东风东路,细颗粒物(PM2.5),67,41,16,48,16,73,15,15,15,45,20,12,8,0.8,0.7
2023-10-15T01:00:00,1454A,102.6742,25.0669,昆明市,金鼎山,,34,34,20,15,7,77,34,34,34,29,18,19,13,0.7,0.6
2023-10-15T01:00:00,1455A,102.6644,25.0401,昆明市,碧鸡广场,细颗粒物(PM2.5),72,36,16,52,26,76,26,26,26,37,20,10,7,0.9,0.8
2023-10-15T01:00:00,1456A,91.1319,29.6514,拉萨市,八廓街,,30,8,14,5,9,114,94,94,94,10,12,16,12,0.1,0.1
2023-10-15T01:00:00,1457A,91.1221,29.6747,拉萨市,市环保局,,29,9,18,5,8,114,92,92,92,10,13,12,8,0.4,0.4
2023-10-15T01:00:00,1458A,91.0874,29.6475,拉萨市,区监测站,,29,8,10,6,8,108,92,92,92,10,13,14,9,0.3,0.3
2023-10-15T01:00:00,1459A,91.1774,29.6541,拉萨市,西藏大学,,30,9,10,5,6,112,93,93,93,10,12,17,11,0.3,0.4
2023-10-15T01:00:00,1460A,90.9798,29.6588,拉萨市,区辐射站,,26,14,19,7,10,104,81,81,81,16,20,8,7,0.3,0.3
2023-10-15T01:00:00,1461A,91.0834,29.6292,拉萨市,拉萨火车站,,28,7,13,8,7,101,89,89,89,5,14,9,7,0.4,0.4
2023-10-15T01:00:00,1462A,108.882,34.2749,西安市,高压开关厂,颗粒物(PM10),52,53,42,21,19,121,16,16,16,68,40,8,9,0.5,0.5
2023-10-15T01:00:00,1463A,108.993,34.2629,西安市,兴庆小区,,27,27,33,15,16,122,41,41,41,38,30,6,6,0.3,0.4
2023-10-15T01:00:00,1464A,109.06,34.2572,西安市,纺织城,颗粒物(PM10),53,55,44,22,19,126,3,3,3,55,41,5,6,0.5,0.6
2023-10-15T01:00:00,1465A,108.9356,34.2173,西安市,小寨,,49,49,36,24,15,115,2,2,2,74,43,8,7,0.9,0.6
2023-10-15T01:00:00,1466A,108.954,34.2713,西安市,市人民体育场,,47,47,39,23,17,116,1,1,1,68,38,6,6,0.8,0.5
2023-10-15T01:00:00,1467A,108.8922,34.2322,西安市,高新西区,,46,46,35,21,20,121,10,10,10,70,39,6,6,0.7,0.7
2023-10-15T01:00:00,1468A,108.935,34.3474,西安市,经开区,,48,48,37,21,14,111,21,21,21,44,24,4,4,0.4,0.4
2023-10-15T01:00:00,1469A,108.906,34.1546,西安市,长安区,,49,49,35,19,15,125,4,4,4,56,32,6,6,0.4,0.4
2023-10-15T01:00:00,1471A,109.2186,34.3731,西安市,临潼区,,30,20,30,15,17,118,94,94,94,8,18,6,6,0.3,0.5
2023-10-15T01:00:00,1472A,108.869,34.378,西安市,草滩,颗粒物(PM10),62,73,52,12,17,112,11,11,11,69,56,6,7,0.3,0.4
2023-10-15T01:00:00,1473A,108.985,34.1978,西安市,曲江文化产业集团,,40,40,38,19,15,114,2,2,2,72,47,4,4,0.5,0.4
2023-10-15T01:00:00,1474A,109.051,34.3213,西安市,广运潭,颗粒物(PM10),51,52,42,19,16,112,7,7,7,56,41,7,7,0.5,0.5
2023-10-15T01:00:00,1476A,103.631,36.1031,兰州市,兰炼宾馆,,49,49,47,30,28,108,3,3,3,69,44,3,4,0.6,0.6
2023-10-15T01:00:00,1477A,104.1373,35.9454,兰州市,榆中兰大校区,,,,,,,,,,,,,,,,
2023-10-15T01:00:00,1478A,103.8412,36.0726,兰州市,生物制品所,颗粒物(PM10),61,72,55,35,38,124,1,1,1,69,52,6,6,0.8,0.8
2023-10-15T01:00:00,1479A,103.831,36.0464,兰州市,铁路设计院,颗粒物(PM10),64,78,58,45,37,121,2,2,2,77,71,18,10,3.5,1.4
2023-10-15T01:00:00,1483A,101.524,36.6867,西宁市,第五水厂,,,,,,,,,,,,,,,,
2023-10-15T01:00:00,1484A,105.9512,38.6016,银川市,贺兰山马莲口,,33,13,21,8,9,110,105,105,105,6,15,4,4,0.2,0.3
2023-10-15T01:00:00,1488A,106.2328,38.4975,银川市,贺兰山东路,细颗粒物(PM2.5),99,97,61,74,39,125,12,12,12,80,46,10,12,0.9,0.7
2023-10-15T01:00:00,1489A,106.1358,38.5036,银川市,学院路,细颗粒物(PM2.5),62,40,37,44,31,112,5,5,5,79,38,8,12,1.0,0.7
2023-10-15T01:00:00,1490A,87.5801,43.8303,乌鲁木齐市,监测站,,,138,101,,27,81,44,44,44,16,51,5,6,0.2,0.8
2023-10-15T01:00:00,1491A,87.6046,43.768,乌鲁木齐市,收费所,颗粒物(PM10),97,143,92,21,29,80,42,42,42,17,45,2,3,0.2,0.5
2023-10-15T01:00:00,1492A,87.4754,43.9469,乌鲁木齐市,新疆农科院农场,颗粒物(PM10),101,152,126,23,35,78,47,47,47,12,48,1,4,0.3,0.5
2023-10-15T01:00:00,1493A,87.5525,43.8711,乌鲁木齐市,铁路局,颗粒物(PM10),97,143,111,20,30,84,44,44,44,14,51,4,5,0.3,0.6
2023-10-15T01:00:00,1494A,87.6432,43.831,乌鲁木齐市,三十一中学,颗粒物(PM10),100,150,97,18,27,76,43,43,43,11,43,5,8,0.3,0.6
2023-10-15T01:00:00,1496A,87.7216,44.1747,乌鲁木齐市,米东区环保局,颗粒物(PM10),116,181,100,15,25,79,48,48,48,6,19,5,6,0.3,0.4
2023-10-15T01:00:00,1508A,112.9433,27.8614,湘潭市,板塘,细颗粒物(PM2.5),104,110,66,78,50,141,4,4,4,95,35,18,15,1.0,0.6
2023-10-15T01:00:00,1511A,112.9118,27.8403,湘潭市,市监测站,细颗粒物(PM2.5),110,110,74,83,51,148,49,49,49,44,32,12,8,1.2,0.7
2023-10-15T01:00:00,1512A,112.8937,27.8728,湘潭市,江麓,细颗粒物(PM2.5),112,106,65,84,50,151,53,53,53,36,29,9,10,1.2,1.1
2023-10-15T01:00:00,1513A,112.9227,27.8159,湘潭市,岳塘,细颗粒物(PM2.5),110,113,72,83,52,149,21,21,21,49,36,8,4,0.8,0.6
2023-10-15T01:00:00,1514A,112.9074,27.9119,湘潭市,科大,细颗粒物(PM2.5),112,106,69,84,48,154,19,19,19,61,38,22,11,1.2,0.7
2023-10-15T01:00:00,1515A,113.135,27.8244,株洲市,天台山庄,细颗粒物(PM2.5),113,115,71,85,54,174,44,44,44,51,33,9,8,1.1,0.8
2023-10-15T01:00:00,1518A,113.095,27.8867,株洲市,株冶医院,细颗粒物(PM2.5),95,92,75,71,62,165,7,7,7,64,37,8,7,1.1,0.8
2023-10-15T01:00:00,1519A,113.167,27.8667,株洲市,市四中,细颗粒物(PM2.5),82,88,80,60,59,177,72,72,72,28,34,5,5,0.8,0.8
2023-10-15T01:00:00,1520A,113.143,27.8381,株洲市,火车站,细颗粒物(PM2.5),102,95,80,76,65,173,70,70,70,33,33,7,8,0.9,0.8
2023-10-15T01:00:00,1524A,113.13,27.8528,株洲市,市监测站,细颗粒物(PM2.5),109,108,76,82,64,176,54,54,54,47,30,8,6,1.1,0.9
2023-10-15T01:00:00,1552A,106.805,26.3003,贵阳市,桐木岭,,,,,,,,,,,,,,,,
2023-10-15T01:00:00,1559A,113.251,27.8336,株洲市,大京风景区,,38,34,58,26,46,167,28,28,28,7,14,3,5,0.5,0.6
2023-10-15T01:00:00,1562A,113.0048,27.9153,湘潭市,昭山,颗粒物(PM10),68,85,69,48,46,164,23,23,23,79,36,10,7,0.8,0.6
2023-10-15T01:00:00,1564A,112.4876,27.9164,湘潭市,韶山,,32,26,45,22,24,135,55,55,55,9,11,6,6,0.4,0.5
2023-10-15T01:00:00,1585A,109.8756,40.6532,包头市,市环境监测站,颗粒物(PM10),76,101,66,49,24,112,23,23,23,63,54,9,23,0.8,1.2
2023-10-15T01:00:00,1587A,109.9991,40.5842,包头市,包头八中,颗粒物(PM10),80,109,91,26,30,106,6,6,6,81,59,12,39,0.8,1.9
2023-10-15T01:00:00,1588A,109.8538,40.6821,包头市,青山宾馆,颗粒物(PM10),57,63,61,16,24,106,34,34,34,49,46,11,27,0.5,0.7
2023-10-15T01:00:00,1589A,109.8642,40.6288,包头市,惠龙物流,颗粒物(PM10),89,127,72,47,25,108,5,5,5,85,57,22,34,1.7,1.4
2023-10-15T01:00:00,1590A,110.0377,40.5546,包头市,东河鸿龙湾,颗粒物(PM10),87,124,74,40,22,102,8,8,8,84,46,36,26,1.4,1.1
2023-10-15T01:00:00,1591A,110.0023,39.8129,鄂尔多斯市,综合楼,,31,31,36,5,7,99,87,87,87,19,32,3,6,0.3,0.5
2023-10-15T01:00:00,1592A,109.9486,39.8261,鄂尔多斯市,巴音孟克林场办事处,,26,22,33,12,12,100,82,82,82,18,32,6,8,0.4,0.4
2023-10-15T01:00:00,1593A,109.7736,39.5986,鄂尔多斯市,康泽苑,,15,14,21,8,7,102,47,47,47,25,17,4,4,0.2,0.3
2023-10-15T01:00:00,1594A,109.8119,39.5989,鄂尔多斯市,华泰汽车城,,24,24,26,7,9,104,12,12,12,43,32,3,4,0.4,0.4
2023-10-15T01:00:00,1595A,109.9734,39.7884,鄂尔多斯市,奥林花园,,34,34,37,7,12,102,80,80,80,24,36,6,6,0.5,0.6
2023-10-15T01:00:00,1597A,122.2703,40.7094,营口市,大庆路,"颗粒物(PM10),细颗粒物(PM2.5)",54,57,48,38,38,108,66,66,66,30,29,6,6,1.3,1.2
2023-10-15T01:00:00,1598A,122.2150,40.6511,营口市,镜湖西路,细颗粒物(PM2.5),63,74,64,45,42,104,58,58,58,34,32,7,7,1.5,1.1
2023-10-15T01:00:00,1599A,122.1658,40.6789,营口市,西炮台,细颗粒物(PM2.5),98,91,66,73,54,120,54,54,54,41,30,5,7,1.3,1
2023-10-15T01:00:00,1600A,124.3303,40.0625,丹东市,江湾东路,细颗粒物(PM2.5),73,65,44,53,34,120,8,8,8,29,28,6,8,1.6,1
2023-10-15T01:00:00,1601A,124.4256,40.1503,丹东市,临江后街,,36,36,35,23,23,129,16,16,16,33,26,6,8,0.9,0.9
2023-10-15T01:00:00,1602A,124.3933,40.1461,丹东市,元宝山,,30,28,27,21,22,117,30,30,30,16,17,10,10,0.7,0.7
2023-10-15T01:00:00,1603A,124.3633,40.1092,丹东市,民主桥,,31,31,37,17,23,124,10,10,10,38,29,5,7,0.8,0.9
2023-10-15T01:00:00,1604A,122.0303,41.1489,盘锦市,开发区,细颗粒物(PM2.5),62,32,40,44,41,132,95,95,95,19,38,8,9,0.9,0.9
2023-10-15T01:00:00,1605A,122.0485,41.0883,盘锦市,兴隆台,细颗粒物(PM2.5),67,33,38,48,40,122,77,77,77,29,44,8,9,0.7,0.8
2023-10-15T01:00:00,1606A,121.8297,41.1028,盘锦市,新生街道,,43,28,32,30,33,125,50,50,50,28,33,7,7,0.5,0.6
2023-10-15T01:00:00,1607A,120.9092,40.7136,葫芦岛市,龙港区,,20,20,37,14,24,108,52,52,52,24,24,11,51,0.4,0.7
2023-10-15T01:00:00,1608A,120.8392,40.7514,葫芦岛市,化工街,颗粒物(PM10),60,70,45,34,27,107,7,7,7,49,33,11,15,0.9,0.7
2023-10-15T01:00:00,1609A,120.8341,40.7073,葫芦岛市,新区,,30,27,33,21,25,110,36,36,36,42,37,8,13,0.7,0.9
2023-10-15T01:00:00,1610A,120.8695,40.7677,葫芦岛市,东城区,颗粒物(PM10),57,63,44,22,24,110,2,2,2,51,42,16,24,1.0,1
2023-10-15T01:00:00,1611A,118.5819,24.9117,泉州市,涂山街,,50,33,37,35,21,137,99,99,99,15,14,7,5,0.7,0.7
2023-10-15T01:00:00,1612A,118.5972,24.8978,泉州市,津头埔,,50,38,34,35,22,135,83,83,83,22,19,4,4,0.7,0.6
2023-10-15T01:00:00,1613A,118.6663,24.9424,泉州市,万安,,50,42,41,35,24,144,89,89,89,21,16,4,3,0.6,0.5
2023-10-15T01:00:00,1614A,118.6117,24.9604,泉州市,清源山,,,,,,,,,,,,,,,,
2023-10-15T01:00:00,1616A,117.6795,36.229,济南市,技术学院,颗粒物(PM10),59,68,96,37,52,139,9,9,9,90,58,7,9,0.5,0.7
2023-10-15T01:00:00,1618A,118.3429,35.0532,临沂市,沂河小区,细颗粒物(PM2.5),129,153,134,98,74,172,21,21,21,106,79,16,11,0.7,0.8
2023-10-15T01:00:00,1619A,118.295,35.0583,临沂市,鲁南制药厂,颗粒物(PM10),117,183,161,82,63,189,7,7,7,130,83,17,13,1.0,0.9
2023-10-15T01:00:00,1620A,118.2794,34.9976,临沂市,新光毛纺厂,颗粒物(PM10),113,175,132,70,63,176,7,7,7,124,80,12,10,1.0,1
2023-10-15T01:00:00,1621A,118.3956,35.0888,临沂市,河东保险公司,细颗粒物(PM2.5),94,129,110,70,62,171,42,42,42,78,62,17,8,0.9,0.9
2023-10-15T01:00:00,1622A,116.3032,37.4674,德州市,儿童乐园,细颗粒物(PM2.5),98,132,116,73,58,139,63,63,63,74,60,11,12,0.8,0.8
2023-10-15T01:00:00,1624A,116.2991,37.4451,德州市,监理站,细颗粒物(PM2.5),113,141,117,85,60,139,43,43,43,87,61,15,15,0.8,0.8
2023-10-15T01:00:00,1625A,115.9848,36.4372,聊城市,区政府,细颗粒物(PM2.5),113,132,154,85,96,191,58,58,58,67,67,6,8,0.7,1
2023-10-15T01:00:00,1628A,118.0062,37.3803,滨州市,市环保局,颗粒物(PM10),60,70,49,39,27,96,26,26,26,56,37,8,10,0.8,0.9
2023-10-15T01:00:00,1629A,118.0018,37.3617,滨州市,第二水厂,颗粒物(PM10),68,85,52,47,27,109,14,14,14,77,41,7,9,0.5,0.6
2023-10-15T01:00:00,1630A,117.9776,37.393,滨州市,北中新校,颗粒物(PM10),59,68,45,41,21,103,16,16,16,79,45,7,7,0.4,0.4
2023-10-15T01:00:00,1631A,118.0414,36.8103,淄博市,人民公园,颗粒物(PM10),74,97,110,51,58,110,0,0,0,94,68,9,12,0.8,0.9
2023-10-15T01:00:00,1633A,117.8525,36.4847,淄博市,双山,颗粒物(PM10),56,62,77,38,47,124,38,38,38,60,41,3,6,0.5,0.6
2023-10-15T01:00:00,1634A,117.9592,36.6331,淄博市,气象站,细颗粒物(PM2.5),70,79,80,51,51,116,9,9,9,81,54,15,11,0.4,0.5
2023-10-15T01:00:00,1635A,118.3092,36.8194,淄博市,莆田园,颗粒物(PM10),78,105,103,39,49,112,30,30,30,56,49,24,15,1.7,1.5
2023-10-15T01:00:00,1637A,117.558,34.8438,枣庄市,市中区政府,细颗粒物(PM2.5),122,175,146,92,87,181,5,5,5,90,62,8,12,1.3,0.9
2023-10-15T01:00:00,1638A,117.2852,34.7837,枣庄市,薛城环保局,细颗粒物(PM2.5),94,129,130,70,89,173,7,7,7,94,68,9,13,1.0,1
2023-10-15T01:00:00,1639A,117.5852,34.7745,枣庄市,峄城区政府,细颗粒物(PM2.5),113,163,140,85,73,182,12,12,12,85,50,8,10,0.8,0.8
2023-10-15T01:00:00,1640A,117.7276,34.5578,枣庄市,台儿庄区环保局,细颗粒物(PM2.5),89,117,112,66,71,179,9,9,9,98,62,6,9,0.8,0.9
2023-10-15T01:00:00,1641A,117.4518,35.0992,枣庄市,山亭区环保局,细颗粒物(PM2.5),92,100,105,68,67,177,64,64,64,35,35,4,8,0.8,0.9
2023-10-15T01:00:00,1642A,121.2514,37.5639,烟台市,开发区,,29,29,19,19,13,121,40,40,40,30,17,9,7,0.9,0.7
2023-10-15T01:00:00,1643A,121.3719,37.5433,烟台市,轴承厂,,35,31,26,24,18,124,64,64,64,17,18,7,5,0.5,0.3
2023-10-15T01:00:00,1644A,121.3181,37.5436,烟台市,西郊化工站,,30,29,24,21,14,122,69,69,69,16,22,6,5,0.6,0.7
2023-10-15T01:00:00,1645A,121.4478,37.4822,烟台市,莱山环保局,,27,27,18,14,13,120,73,73,73,11,9,9,7,0.7,0.5
2023-10-15T01:00:00,1646A,121.2611,37.4967,烟台市,福山环保局,,36,36,25,22,15,116,35,35,35,31,22,8,7,0.7,0.4
2023-10-15T01:00:00,1650A,119.1437,36.7023,潍坊市,环保局,颗粒物(PM10),64,78,65,43,38,127,2,2,2,80,51,9,11,0.9,0.8
2023-10-15T01:00:00,1653A,116.6251,35.4302,济宁市,火炬城,细颗粒物(PM2.5),122,117,112,92,83,149,33,33,33,59,52,12,12,1.0,0.8
2023-10-15T01:00:00,1655A,116.5491,35.4042,济宁市,电化厂,细颗粒物(PM2.5),178,185,150,134,85,160,38,38,38,93,53,15,9,0.9,0.8
2023-10-15T01:00:00,1656A,117.1437,36.1937,泰安市,监测站,细颗粒物(PM2.5),97,129,129,72,74,156,25,25,25,61,45,8,11,1.2,1.2
2023-10-15T01:00:00,1657A,117.0885,36.2017,泰安市,人口学校,细颗粒物(PM2.5),97,95,98,72,65,154,41,41,41,69,41,7,8,0.9,0.8
2023-10-15T01:00:00,1658A,117.1089,36.1758,泰安市,电力学校,细颗粒物(PM2.5),89,114,118,66,72,154,5,5,5,75,51,10,10,1.0,0.9
2023-10-15T01:00:00,1659A,119.471,35.4209,日照市,监测站,,48,48,78,27,51,152,4,4,4,65,57,9,9,0.9,1
2023-10-15T01:00:00,1660A,119.523,35.4216,日照市,市政府广场,颗粒物(PM10),51,51,80,29,44,157,4,4,4,87,44,6,6,0.8,0.7
2023-10-15T01:00:00,1661A,119.5587,35.4044,日照市,港务局,颗粒物(PM10),60,70,98,35,56,173,3,3,3,89,52,12,9,1.0,1
2023-10-15T01:00:00,1662A,122.1214,37.4236,威海市,华夏技校,,29,27,15,20,12,119,78,78,78,16,12,6,3,0.7,0.4
2023-10-15T01:00:00,1663A,122.0508,37.5236,威海市,山大分校,,39,39,17,20,6,130,77,77,77,13,5,8,4,0.7,0.3
2023-10-15T01:00:00,1664A,122.1067,37.5072,威海市,市监测站,,34,34,18,12,4,119,72,72,72,15,10,9,6,0.9,0.5
2023-10-15T01:00:00,1666A,118.6614,37.4309,东营市,市环保局,颗粒物(PM10),52,53,42,24,18,122,53,53,53,51,41,15,14,0.5,0.5
2023-10-15T01:00:00,1669A,113.5824,24.7733,韶关市,市八中,颗粒物(PM10),52,53,51,31,37,126,91,91,91,9,8,12,13,0.7,0.7
2023-10-15T01:00:00,1671A,113.5917,24.7972,韶关市,园林处,细颗粒物(PM2.5),68,51,52,49,42,124,94,94,94,4,4,10,12,0.6,0.6
2023-10-15T01:00:00,1672A,113.6735,24.7791,韶关市,韶关学院,细颗粒物(PM2.5),58,39,52,41,42,120,82,82,82,13,10,10,19,0.7,0.7
2023-10-15T01:00:00,1673A,113.5971,24.6863,韶关市,曲江监测站,颗粒物(PM10),57,64,52,36,38,130,86,86,86,11,10,13,12,0.6,0.6
2023-10-15T01:00:00,1674A,116.6794,23.3667,汕头市,金平子站,,34,33,30,21,18,140,107,107,107,12,14,6,8,0.4,0.4
2023-10-15T01:00:00,1675A,116.7244,23.3633,汕头市,龙湖子站,,34,32,28,16,15,138,108,108,108,11,13,6,7,0.7,0.7
2023-10-15T01:00:00,1676A,116.7258,23.2775,汕头市,濠江子站,,34,18,26,22,16,141,108,108,108,8,11,8,9,0.6,0.6
2023-10-15T01:00:00,1677A,116.7519,23.4714,汕头市,澄海子站,,39,29,33,27,20,138,105,105,105,13,15,10,11,0.5,0.5
2023-10-15T01:00:00,1678A,116.6092,23.2539,汕头市,潮阳子站,,35,20,33,16,16,146,109,109,109,5,12,8,10,0.5,0.7
2023-10-15T01:00:00,1680A,110.3539,21.2706,湛江市,湛江影剧院,颗粒物(PM10),62,74,41,41,25,116,69,69,69,17,15,27,15,0.9,0.7
2023-10-15T01:00:00,1681A,110.3928,21.2228,湛江市,市环境监测站,细颗粒物(PM2.5),60,63,38,43,25,132,76,76,76,14,13,18,11,0.7,0.6
2023-10-15T01:00:00,1682A,110.4019,21.1997,湛江市,环保局宿舍,细颗粒物(PM2.5),74,83,40,54,31,140,61,61,61,27,16,7,7,0.8,0.8
2023-10-15T01:00:00,1683A,110.4111,21.2028,湛江市,霞山游泳场,颗粒物(PM10),56,62,40,37,26,137,75,75,75,18,15,10,6,0.8,0.6
2023-10-15T01:00:00,1684A,110.3316,21.2679,湛江市,麻章区环保局,细颗粒物(PM2.5),62,65,47,44,26,120,66,66,66,18,19,17,11,0.8,0.7
2023-10-15T01:00:00,1685A,110.4558,21.2567,湛江市,坡头区环保局,细颗粒物(PM2.5),62,43,39,44,30,137,80,80,80,12,13,25,12,0.7,0.7
2023-10-15T01:00:00,1686A,111.0286,21.4688,茂名市,电白南海,细颗粒物(PM2.5),58,63,44,41,29,112,56,56,56,19,13,18,9,0.7,1
2023-10-15T01:00:00,1687A,110.9294,21.6533,茂名市,茂石化七小,细颗粒物(PM2.5),64,63,37,46,26,97,48,48,48,16,9,26,13,1.2,0.7
2023-10-15T01:00:00,1688A,110.9107,21.6687,茂名市,健康路,颗粒物(PM10),57,63,36,39,23,97,50,50,50,18,12,21,16,1.3,0.7
2023-10-15T01:00:00,1689A,110.8592,21.6828,茂名市,高岭,细颗粒物(PM2.5),64,73,40,46,30,98,40,40,40,25,14,26,12,0.6,0.6
2023-10-15T01:00:00,1690A,116.1231,24.3284,梅州市,梅江月梅,,40,40,33,20,21,127,96,96,96,12,18,7,4,0.7,0.7
2023-10-15T01:00:00,1691A,116.0797,24.2719,梅州市,梅县新城,,45,45,36,23,19,111,86,86,86,21,19,8,7,0.8,0.7
2023-10-15T01:00:00,1692A,116.1248,24.2654,梅州市,环境监控中心,,46,27,34,32,19,117,43,43,43,25,20,12,14,0.8,0.8
2023-10-15T01:00:00,1693A,115.3653,22.775,汕尾市,市环保局,,34,34,23,22,12,130,102,102,102,8,7,10,10,0.6,0.6
2023-10-15T01:00:00,1694A,115.3706,22.7898,汕尾市,市政府,细颗粒物(PM2.5),63,39,22,45,17,136,90,90,90,9,7,7,8,0.6,0.5
2023-10-15T01:00:00,1695A,115.3622,22.7925,汕尾市,新城中学,,44,44,26,27,15,130,85,85,85,9,6,9,9,0.7,0.6
2023-10-15T01:00:00,1696A,114.6778,23.7569,河源市,源西,细颗粒物(PM2.5),58,51,42,41,29,114,86,86,86,16,15,8,7,0.9,0.8
2023-10-15T01:00:00,1697A,114.6944,23.7586,河源市,东埔,细颗粒物(PM2.5),63,58,46,45,33,112,94,94,94,12,12,11,8,0.8,0.7
2023-10-15T01:00:00,1698A,114.6892,23.7233,河源市,老城,细颗粒物(PM2.5),59,49,42,42,33,120,93,93,93,9,10,7,7,0.8,0.7
2023-10-15T01:00:00,1699A,111.9797,21.8593,阳江市,鸳鸯湖,细颗粒物(PM2.5),53,28,35,37,28,126,73,73,73,40,13,12,11,0.8,0.8
2023-10-15T01:00:00,1701A,111.9491,21.8658,阳江市,马南垌,,48,39,37,33,26,118,88,88,88,17,14,7,6,0.7,0.6
2023-10-15T01:00:00,1702A,113.0426,23.691,清远市,环保大楼,细颗粒物(PM2.5),58,40,41,41,37,115,100,100,100,6,11,12,9,0.9,0.9
2023-10-15T01:00:00,1703A,113.0208,23.7106,清远市,凤城街办,,,98,53,38,37,126,,,,13,11,10,9,0.7,0.8
2023-10-15T01:00:00,1705A,116.6367,23.6719,潮州市,西园路,,44,44,31,29,18,123,68,68,68,14,11,7,5,0.2,0.4
2023-10-15T01:00:00,1706A,116.6447,23.6706,潮州市,档案局,细颗粒物(PM2.5),57,39,30,40,16,127,66,66,66,14,10,9,8,0.7,0.6
2023-10-15T01:00:00,1708A,116.3701,23.5345,揭阳市,新兴,,42,42,38,24,22,130,99,99,99,12,15,11,10,0.6,0.6
2023-10-15T01:00:00,1709A,116.3264,23.5443,揭阳市,西马,,37,37,36,22,18,134,105,105,105,9,13,10,8,0.6,0.6
2023-10-15T01:00:00,1710A,116.3611,23.5626,揭阳市,东兴,,50,50,53,22,22,122,98,98,98,16,18,12,8,0.7,0.8
2023-10-15T01:00:00,1711A,116.4151,23.5294,揭阳市,渔湖,,45,43,38,31,22,136,91,91,91,17,18,8,9,0.6,0.6
2023-10-15T01:00:00,1712A,112.0392,22.9169,云浮市,新市府,,33,31,35,23,25,98,33,33,33,14,11,6,7,1.0,0.9
2023-10-15T01:00:00,1714A,112.0539,22.9539,云浮市,牧羊,,50,50,38,27,26,97,5,5,5,48,29,11,7,0.8,0.7
2023-10-15T01:00:00,1715A,102.575,24.3711,玉溪市,东风水库,,18,18,8,10,4,78,42,42,42,11,9,11,5,0.8,0.9
2023-10-15T01:00:00,1718A,115.4208,35.2464,菏泽市,气象局,细颗粒物(PM2.5),90,110,139,67,82,195,110,110,110,50,53,11,10,0.7,0.7
2023-10-15T01:00:00,1719A,115.4747,35.2375,菏泽市,市政协,细颗粒物(PM2.5),94,113,144,70,88,195,102,102,102,43,48,21,12,0.9,0.7
2023-10-15T01:00:00,1721A,113.3819,40.1097,大同市,果树场,,,,,,,,,,,,,,,,
2023-10-15T01:00:00,1723A,113.2994,40.0758,大同市,云冈宾馆,颗粒物(PM10),66,81,51,30,18,100,18,18,18,56,38,20,17,1.1,1
2023-10-15T01:00:00,1724A,113.3444,40.0917,大同市,大同大学,颗粒物(PM10),66,82,48,27,19,99,33,33,33,47,34,25,19,1.3,1.1
2023-10-15T01:00:00,1725A,113.2661,40.1269,大同市,安家小村,颗粒物(PM10),61,72,55,29,18,113,20,20,20,52,31,21,19,1.4,1
2023-10-15T01:00:00,1726A,113.2711,40.0844,大同市,教育学院,颗粒物(PM10),65,80,66,25,21,99,12,12,12,66,42,13,17,1.2,1.1
2023-10-15T01:00:00,1727A,113.1147,36.1547,长治市,清华站,颗粒物(PM10),75,99,69,34,37,120,38,38,38,36,36,8,10,0.8,0.8
2023-10-15T01:00:00,1728A,113.1031,36.1989,长治市,监测站,颗粒物(PM10),62,73,66,39,41,118,17,17,17,51,43,8,9,1.0,0.9
2023-10-15T01:00:00,1730A,113.0886,36.2125,长治市,审计局,颗粒物(PM10),58,66,57,34,39,113,28,28,28,46,35,11,12,0.9,0.8
2023-10-15T01:00:00,1731A,113.0844,36.1856,长治市,长治八中,颗粒物(PM10),76,101,74,51,36,116,19,19,19,50,42,12,14,0.7,0.7
2023-10-15T01:00:00,1733A,111.5531,36.0783,临汾市,临钢医院,颗粒物(PM10),71,92,109,33,54,141,4,4,4,53,47,7,15,0.9,1.3
2023-10-15T01:00:00,1734A,111.5028,36.0714,临汾市,技工学校,颗粒物(PM10),79,108,104,50,59,146,5,5,5,66,51,10,17,0.8,1.1
2023-10-15T01:00:00,1736A,111.5018,36.0855,临汾市,市委,颗粒物(PM10),83,116,109,40,56,145,6,6,6,69,51,13,18,0.8,1
2023-10-15T01:00:00,1738A,113.5758,37.8572,阳泉市,市中心,颗粒物(PM10),55,60,72,24,33,114,8,8,8,95,62,10,14,0.6,0.7
2023-10-15T01:00:00,1739A,113.4894,37.8731,阳泉市,赛鱼,颗粒物(PM10),67,83,73,35,30,112,4,4,4,91,63,10,11,0.5,0.6
2023-10-15T01:00:00,1740A,113.5819,37.8486,阳泉市,南庄,颗粒物(PM10),123,195,108,42,41,114,5,5,5,81,53,40,17,1.0,0.8
2023-10-15T01:00:00,1742A,113.5614,37.8703,阳泉市,平坦,,47,43,64,19,21,110,9,9,9,94,64,9,9,0.6,0.6
2023-10-15T01:00:00,1743A,113.5158,37.8392,阳泉市,大阳泉,,42,37,30,29,23,118,60,60,60,47,39,9,10,0.7,0.7
2023-10-15T01:00:00,1744A,118.9233,42.2816,赤峰市,松山一中,颗粒物(PM10),56,61,43,29,23,90,39,39,39,26,41,11,12,0.5,0.9
2023-10-15T01:00:00,1745A,118.9576,42.2728,赤峰市,哈达街,细颗粒物(PM2.5),60,51,34,43,21,90,29,29,29,36,36,16,16,0.6,0.6
2023-10-15T01:00:00,1746A,118.8788,42.2554,赤峰市,天义路,,41,41,29,25,16,97,36,36,36,32,35,11,16,0.4,0.6
2023-10-15T01:00:00,1748A,123.044,41.1196,鞍山市,深沟寺,细颗粒物(PM2.5),70,70,44,51,40,92,26,26,26,17,23,4,4,1.4,1.2
2023-10-15T01:00:00,1749A,123.011,41.0931,鞍山市,太阳城,细颗粒物(PM2.5),77,83,54,56,40,75,43,43,43,20,27,9,9,1.5,1.4
2023-10-15T01:00:00,1750A,123.0485,41.1442,鞍山市,太平,细颗粒物(PM2.5),83,98,71,61,45,96,37,37,37,24,42,10,11,1.3,1.3
2023-10-15T01:00:00,1751A,122.9642,41.0971,鞍山市,铁西三道街,细颗粒物(PM2.5),98,114,86,73,59,87,32,32,32,39,48,11,9,1.8,1.9
2023-10-15T01:00:00,1752A,122.9341,41.0833,鞍山市,铁西工业园区,细颗粒物(PM2.5),100,107,78,75,63,90,26,26,26,38,40,11,9,2.4,1.9
2023-10-15T01:00:00,1753A,123.022,41.0821,鞍山市,明达新区,细颗粒物(PM2.5),85,83,52,63,44,71,46,46,46,21,30,7,5,1.5,1.4
2023-10-15T01:00:00,1754A,123.1289,41.0228,鞍山市,千山,,,,,,,,,,,,,,,,
2023-10-15T01:00:00,1755A,123.7977,41.8491,抚顺市,望花区,细颗粒物(PM2.5),100,62,51,75,54,100,15,15,15,33,36,16,14,1.0,0.8
2023-10-15T01:00:00,1756A,123.9161,41.8822,抚顺市,顺城区,细颗粒物(PM2.5),74,83,54,54,42,109,3,3,3,28,35,6,7,1.1,0.8
2023-10-15T01:00:00,1757A,124.0436,41.8611,抚顺市,东洲区,细颗粒物(PM2.5),62,63,49,44,36,111,25,25,25,15,25,8,9,0.9,0.9
2023-10-15T01:00:00,1758A,123.9247,41.8642,抚顺市,新抚区,细颗粒物(PM2.5),84,51,40,62,50,107,4,4,4,23,28,7,9,0.9,0.7
2023-10-15T01:00:00,1759A,124.0972,41.8961,抚顺市,大伙房水库,颗粒物(PM10),53,56,42,35,35,116,27,27,27,22,21,11,10,1.0,0.9
2023-10-15T01:00:00,1760A,123.7086,41.8391,抚顺市,沈抚新城,细颗粒物(PM2.5),123,66,49,93,65,103,20,20,20,31,34,9,9,0.8,0.8
2023-10-15T01:00:00,1761A,123.8275,41.3064,本溪市,大峪,颗粒物(PM10),56,62,47,27,28,82,6,6,6,30,31,7,8,1.6,1.4
2023-10-15T01:00:00,1762A,123.7567,41.3325,本溪市,溪湖,颗粒物(PM10),56,62,52,35,36,63,6,6,6,26,28,10,11,1.3,1.1
2023-10-15T01:00:00,1763A,123.7169,41.3094,本溪市,彩屯,颗粒物(PM10),64,78,68,39,41,68,5,5,5,30,35,9,11,1.4,1.2
2023-10-15T01:00:00,1764A,123.7669,41.2864,本溪市,东明,颗粒物(PM10),63,75,50,32,32,71,5,5,5,32,39,7,9,1.5,1.3
2023-10-15T01:00:00,1765A,123.7992,41.2664,本溪市,新立屯,,41,41,40,26,22,76,8,8,8,31,36,9,11,1.4,1.4
2023-10-15T01:00:00,1766A,123.8142,41.3472,本溪市,威宁,,50,50,63,28,35,71,4,4,4,32,33,7,6,1.5,1.2
2023-10-15T01:00:00,1767A,121.1115,41.0879,锦州市,南山,细颗粒物(PM2.5),62,41,32,44,36,104,8,8,8,51,28,6,10,0.9,0.7
2023-10-15T01:00:00,1768A,121.0533,40.8434,锦州市,开发区,颗粒物(PM10),70,90,49,48,42,114,4,4,4,88,40,18,25,0.8,0.9
2023-10-15T01:00:00,1769A,121.1836,41.1119,锦州市,百股街道,,41,41,35,24,30,116,13,13,13,37,24,6,11,0.7,0.6
2023-10-15T01:00:00,1770A,121.1178,41.1222,锦州市,天安街道,细颗粒物(PM2.5),79,65,43,58,39,100,6,6,6,61,36,12,12,1.2,0.9
2023-10-15T01:00:00,1771A,121.1303,41.1386,锦州市,北湖公园,细颗粒物(PM2.5),67,53,39,48,35,103,28,28,28,39,25,13,13,1.1,0.7
2023-10-15T01:00:00,1772A,126.54,43.8622,吉林市,哈达湾,颗粒物(PM10),54,58,68,31,43,129,49,49,49,39,34,5,5,0.9,0.9
2023-10-15T01:00:00,1773A,126.5844,43.8358,吉林市,东局子,,39,39,71,26,46,132,83,83,83,17,45,5,6,0.6,0.9
2023-10-15T01:00:00,1774A,126.5052,43.8245,吉林市,电力学院,细颗粒物(PM2.5),62,64,84,44,57,129,21,21,21,35,38,8,9,0.9,1.1
2023-10-15T01:00:00,1775A,126.6133,43.8972,吉林市,江北,,46,46,90,28,55,130,78,78,78,17,35,6,7,0.8,1.1
2023-10-15T01:00:00,1776A,126.555,43.8306,吉林市,江南公园,,42,42,71,28,51,126,68,68,68,20,36,8,8,0.7,0.9
2023-10-15T01:00:00,1778A,126.7061,43.7133,吉林市,丰满,,,,,,,,,,,,,,,,
2023-10-15T01:00:00,1779A,123.9305,47.3636,齐齐哈尔市,安居小区,,38,38,49,22,18,75,52,52,52,3,17,5,7,0.1,0.3
2023-10-15T01:00:00,1780A,123.9488,47.3386,齐齐哈尔市,中心广场,,28,28,31,11,16,73,52,52,52,1,20,2,5,0.3,0.5
2023-10-15T01:00:00,1781A,123.9483,47.3227,齐齐哈尔市,农牧车辆厂,,46,46,56,11,10,74,52,52,52,2,19,6,8,0.3,0.4
2023-10-15T01:00:00,1783A,123.945,47.2988,齐齐哈尔市,市环境监测站,颗粒物(PM10),54,57,47,8,12,78,52,52,52,2,11,3,6,0.2,0.3
2023-10-15T01:00:00,1784A,129.61,44.561,牡丹江市,环保大楼,颗粒物(PM10),60,69,51,27,24,136,24,24,24,42,38,6,7,0.7,0.7
2023-10-15T01:00:00,1785A,129.6115,44.5782,牡丹江市,文化广场,细颗粒物(PM2.5),63,59,66,45,41,126,23,23,23,42,46,7,7,0.7,0.7
2023-10-15T01:00:00,1786A,129.5904,44.5963,牡丹江市,第一医院,颗粒物(PM10),57,63,71,35,43,128,7,7,7,48,40,6,8,0.8,0.8
2023-10-15T01:00:00,1787A,129.6364,44.6075,牡丹江市,机车工厂,细颗粒物(PM2.5),63,66,79,45,34,134,25,25,25,34,35,5,6,1.0,0.8
2023-10-15T01:00:00,1788A,129.6386,44.5462,牡丹江市,第一中学,,42,42,49,28,26,138,31,31,31,24,28,6,7,0.5,0.5
2023-10-15T01:00:00,1789A,124.81117,46.03138,大庆市,大同区,颗粒物(PM10),68,85,60,24,35,94,65,65,65,8,14,6,6,0.4,0.5
2023-10-15T01:00:00,1790A,125.129,46.533,大庆市,龙凤区,,31,31,36,13,24,76,59,59,59,7,18,4,6,0.3,0.4
2023-10-15T01:00:00,1791A,124.902,46.408,大庆市,红岗区,,41,41,38,19,20,88,66,66,66,5,12,4,4,0.3,0.4
2023-10-15T01:00:00,1792A,125.153,46.586,大庆市,萨尔图区,,43,43,52,4,24,78,62,62,62,7,17,5,4,0.2,0.4
2023-10-15T01:00:00,1793A,124.9042,46.6215,大庆市,让胡路区,,46,46,38,12,17,86,62,62,62,5,13,3,3,0.2,0.4
2023-10-15T01:00:00,1794A,118.3606,31.3519,芜湖市,监测站,颗粒物(PM10),63,75,63,39,36,148,12,12,12,95,46,12,9,0.8,0.6
2023-10-15T01:00:00,1795A,118.3714,31.4134,芜湖市,科创中心,细颗粒物(PM2.5),69,83,67,50,40,149,6,6,6,117,60,13,9,1.1,0.7
2023-10-15T01:00:00,1796A,118.3673,31.3131,芜湖市,四水厂,颗粒物(PM10),54,58,59,35,36,153,90,90,90,31,46,12,8,0.9,0.7
2023-10-15T01:00:00,1798A,118.5092,31.6837,马鞍山市,湖东路四小,细颗粒物(PM2.5),78,63,62,57,41,161,82,82,82,34,36,9,10,0.7,0.8
2023-10-15T01:00:00,1799A,118.5024,31.6449,马鞍山市,开发区,细颗粒物(PM2.5),88,83,66,65,43,165,38,38,38,61,44,12,10,0.8,0.7
2023-10-15T01:00:00,1800A,118.5228,31.7231,马鞍山市,慈湖,细颗粒物(PM2.5),70,81,80,51,50,158,92,92,92,36,46,11,11,0.8,0.9
2023-10-15T01:00:00,1802A,118.6245,31.7241,马鞍山市,濮塘,细颗粒物(PM2.5),58,58,60,41,36,159,89,89,89,22,26,6,10,0.8,0.9
2023-10-15T01:00:00,1803A,115.9872,29.6815,九江市,十里,细颗粒物(PM2.5),89,91,74,66,46,183,9,9,9,84,34,8,9,0.9,0.9
2023-10-15T01:00:00,1804A,115.9584,29.7046,九江市,茅山头,细颗粒物(PM2.5),95,86,65,71,52,173,60,60,60,40,27,11,10,1.0,1
2023-10-15T01:00:00,1805A,115.9877,29.7295,九江市,西园,"颗粒物(PM10),细颗粒物(PM2.5)",75,100,79,55,46,163,48,48,48,53,37,10,11,0.9,1
2023-10-15T01:00:00,1806A,116.0172,29.6547,九江市,五七二七厂,细颗粒物(PM2.5),155,50,64,118,82,176,122,122,122,12,16,10,13,0.8,0.9
2023-10-15T01:00:00,1808A,115.9114,29.6038,九江市,综合工业园,细颗粒物(PM2.5),92,94,81,68,58,178,18,18,18,73,37,14,15,1.1,1.1
2023-10-15T01:00:00,1809A,116.0721,29.7535,九江市,石化总厂,细颗粒物(PM2.5),90,96,88,67,56,177,26,26,26,70,38,12,13,0.9,0.9
2023-10-15T01:00:00,1810A,115.9773,29.5698,九江市,庐山气象台,细颗粒物(PM2.5),60,49,48,43,50,152,142,142,142,8,11,6,6,1.0,0.9
2023-10-15T01:00:00,1812A,112.3931,34.6516,洛阳市,市委党校,细颗粒物(PM2.5),75,81,60,55,38,131,45,45,45,28,27,4,6,0.5,0.5
2023-10-15T01:00:00,1814A,112.4657,34.6871,洛阳市,豫西宾馆,细颗粒物(PM2.5),68,75,62,49,36,130,32,32,32,44,33,4,5,0.7,0.6
2023-10-15T01:00:00,1815A,112.494,34.6886,洛阳市,河南林校,细颗粒物(PM2.5),75,83,55,55,33,130,35,35,35,32,28,3,4,0.6,0.5
2023-10-15T01:00:00,1816A,112.3844,34.623,洛阳市,开发区管委会,细颗粒物(PM2.5),72,65,53,52,34,132,38,38,38,33,26,2,2,0.5,0.5
2023-10-15T01:00:00,1817A,112.4267,34.6258,洛阳市,市委新办公区,细颗粒物(PM2.5),62,65,53,44,34,139,49,49,49,26,22,6,5,0.5,0.5
2023-10-15T01:00:00,1818A,114.4839,36.0621,安阳市,棉研所,,,,,,,,,,,,,,,,
2023-10-15T01:00:00,1819A,114.3551,36.1017,安阳市,红庙街,细颗粒物(PM2.5),117,142,118,88,74,186,11,11,11,74,49,11,24,1.4,1.6
2023-10-15T01:00:00,1820A,114.361,36.0681,安阳市,银杏小区,颗粒物(PM10),89,127,112,54,57,182,28,28,28,46,39,10,21,1.2,1.5
2023-10-15T01:00:00,1824A,114.3389,34.7781,开封市,肿瘤医院,细颗粒物(PM2.5),112,162,107,84,70,186,47,47,47,64,32,13,12,0.8,0.9
2023-10-15T01:00:00,1826A,114.2885,34.7965,开封市,世纪星幼儿园,细颗粒物(PM2.5),124,149,93,94,62,180,,,,,40,,11,,1.2
2023-10-15T01:00:00,1828A,113.227,35.2125,焦作市,市环保局,颗粒物(PM10),68,86,75,40,42,138,29,29,29,56,36,11,11,0.7,0.8
2023-10-15T01:00:00,1830A,113.1992,35.2590,焦作市,影视城,,,,,,,,,,,,,,,,
2023-10-15T01:00:00,1832A,113.3257,33.742,平顶山市,新华旅馆,颗粒物(PM10),62,73,69,37,28,140,40,40,40,45,34,5,9,0.4,0.5
2023-10-15T01:00:00,1833A,113.2919,33.737,平顶山市,规划设计院,颗粒物(PM10),56,61,57,32,30,136,22,22,22,51,35,7,10,0.4,0.6
2023-10-15T01:00:00,1834A,113.182,33.774,平顶山市,平顶山工学院,,45,45,49,12,19,140,59,59,59,26,23,4,9,0.4,0.5
2023-10-15T01:00:00,1835A,111.1922,34.7752,三门峡市,市政府,,48,48,48,22,24,121,2,2,2,68,51,8,10,0.4,0.6
2023-10-15T01:00:00,1836A,111.1587,34.7942,三门峡市,开发区,颗粒物(PM10),64,78,58,28,29,124,0,0,0,54,38,6,8,0.6,0.4
2023-10-15T01:00:00,1838A,111.143,34.7955,三门峡市,风景区,,,,,,,,,,,,,,,,
2023-10-15T01:00:00,1840A,111.2992,30.6981,宜昌市,白龙岗,,32,29,33,22,20,103,26,26,26,31,33,6,7,0.5,0.5
2023-10-15T01:00:00,1841A,111.3549,30.6465,宜昌市,伍家岗,,31,31,32,19,22,105,28,28,28,34,33,4,5,0.6,0.6
2023-10-15T01:00:00,1842A,111.2628,30.6961,宜昌市,点军区,颗粒物(PM10),51,52,37,22,20,113,19,19,19,22,25,8,8,0.5,0.5
2023-10-15T01:00:00,1843A,111.3275,30.7819,宜昌市,夷陵区,,35,30,40,24,24,117,24,24,24,25,27,6,7,0.5,0.5
2023-10-15T01:00:00,1844A,112.2494,30.3197,荆州市,市图书馆,颗粒物(PM10),55,59,62,35,39,126,36,36,36,56,36,10,9,0.8,0.7
2023-10-15T01:00:00,1845A,112.2008,30.3544,荆州市,市委党校,细颗粒物(PM2.5),77,60,63,56,40,121,14,14,14,77,36,15,10,0.8,0.8
2023-10-15T01:00:00,1847A,113.1094,29.3578,岳阳市,南湖风景区,细颗粒物(PM2.5),82,72,69,60,50,141,26,26,26,64,38,11,10,0.7,0.8
2023-10-15T01:00:00,1848A,113.1493,29.4251,岳阳市,城陵矶,颗粒物(PM10),71,91,80,47,49,143,40,40,40,58,47,10,9,0.7,0.8
2023-10-15T01:00:00,1849A,113.1497,29.3575,岳阳市,开发区,细颗粒物(PM2.5),77,63,61,56,53,142,25,25,25,52,31,10,10,0.7,0.7
2023-10-15T01:00:00,1850A,113.2621,29.4758,岳阳市,云溪区,细颗粒物(PM2.5),54,48,58,38,41,152,68,68,68,19,25,8,9,0.5,0.6
2023-10-15T01:00:00,1851A,112.9943,29.4402,岳阳市,君山区,细颗粒物(PM2.5),72,70,75,52,60,137,54,54,54,34,26,5,7,0.7,0.6
2023-10-15T01:00:00,1852A,113.2117,29.355,岳阳市,金凤水库,颗粒物(PM10),62,73,53,43,37,160,96,96,96,15,16,6,6,0.7,0.7
2023-10-15T01:00:00,1854A,111.6975,28.9703,常德市,市二中,细颗粒物(PM2.5),78,52,43,57,29,110,25,25,25,37,20,9,9,0.7,0.6
2023-10-15T01:00:00,1857A,111.7158,29.1456,常德市,白鹤山,,32,32,22,0,4,109,78,78,78,14,7,13,4,0.4,0.4
2023-10-15T01:00:00,1858A,110.5319,29.1217,张家界市,永定新区,,34,34,38,21,26,110,23,23,23,18,16,6,6,0.4,0.5
2023-10-15T01:00:00,1859A,110.4697,29.1242,张家界市,电业局,,48,48,37,33,27,110,7,7,7,35,24,8,8,0.6,0.6
2023-10-15T01:00:00,1860A,110.5594,29.3547,张家界市,未央路,,29,28,30,20,19,102,25,25,25,7,12,3,3,0.5,0.5
2023-10-15T01:00:00,1861A,110.4417,29.315,张家界市,袁家界,,,14,23,,16,96,62,62,62,4,10,8,8,0.6,0.6
2023-10-15T01:00:00,1862A,110.4144,25.3167,桂林市,电子科大尧山校区,,36,27,53,25,39,105,33,33,33,7,9,3,3,0.6,0.7
2023-10-15T01:00:00,1863A,110.2819,25.2697,桂林市,监测站,细颗粒物(PM2.5),58,46,65,41,45,113,46,46,46,22,19,6,8,0.8,0.8
2023-10-15T01:00:00,1864A,110.3089,25.2708,桂林市,龙隐路小学,细颗粒物(PM2.5),60,49,61,43,50,114,40,40,40,23,12,7,8,0.7,0.7
2023-10-15T01:00:00,1865A,110.2869,25.2178,桂林市,八中,细颗粒物(PM2.5),52,48,61,36,48,116,59,59,59,19,20,5,7,0.8,0.8
2023-10-15T01:00:00,1866A,109.2262,21.588,北海市,牛尾岭水库,,,,,,,,,,,,,,,,
2023-10-15T01:00:00,1867A,109.1436,21.4086,北海市,海滩公园,颗粒物(PM10),55,60,52,32,32,108,75,75,75,8,8,9,7,0.9,0.9
2023-10-15T01:00:00,1868A,109.0981,21.4661,北海市,新市环保局,细颗粒物(PM2.5),55,40,48,39,39,119,77,77,77,9,9,8,8,0.9,0.9
2023-10-15T01:00:00,1869A,109.1778,21.5233,北海市,北海工业园,细颗粒物(PM2.5),55,43,55,39,40,108,69,69,69,9,10,7,8,0.7,0.7
2023-10-15T01:00:00,1870A,109.4856,24.3895,柳州市,柳东小学,,43,23,34,30,30,84,60,60,60,7,6,20,10,0.5,0.6
2023-10-15T01:00:00,1871A,109.4157,24.3277,柳州市,环保监测站,,38,24,41,26,34,80,36,36,36,29,18,11,9,0.8,0.9
2023-10-15T01:00:00,1872A,109.389,24.341,柳州市,河西水厂,颗粒物(PM10),58,65,48,33,30,83,22,22,22,32,18,10,14,1.1,1.3
2023-10-15T01:00:00,1873A,109.4311,24.2921,柳州市,市四中,,50,50,39,26,25,83,50,50,50,19,16,9,8,0.8,0.9
2023-10-15T01:00:00,1874A,109.4006,24.3631,柳州市,市九中,细颗粒物(PM2.5),58,37,42,41,30,82,39,39,39,18,18,12,11,0.8,1
2023-10-15T01:00:00,1875A,109.4958,24.3134,柳州市,古亭山,,26,21,36,18,29,80,48,48,48,7,9,7,7,0.7,0.7
2023-10-15T01:00:00,1876A,109.5078,18.2489,三亚市,河东子站,,33,33,24,23,15,102,90,90,90,7,8,4,4,0.5,0.4
2023-10-15T01:00:00,1877A,109.4964,18.2681,三亚市,河西子站,,35,35,25,24,15,95,81,81,81,6,7,4,4,0.5,0.5
2023-10-15T01:00:00,1878A,104.7778,31.4741,绵阳市,富乐山,,35,34,31,24,21,124,2,2,2,49,20,4,4,0.7,0.7
2023-10-15T01:00:00,1879A,104.7563,31.4535,绵阳市,市人大,颗粒物(PM10),52,53,42,17,27,116,2,2,2,52,33,8,9,0.8,0.7
2023-10-15T01:00:00,1880A,104.6697,31.4668,绵阳市,高新区自来水公司,颗粒物(PM10),56,61,38,29,22,127,2,2,2,56,34,7,8,0.8,0.8
2023-10-15T01:00:00,1881A,104.7287,31.5075,绵阳市,三水厂,颗粒物(PM10),60,70,50,40,31,124,1,1,1,44,31,8,8,0.9,0.9
2023-10-15T01:00:00,1882A,104.563,28.793,宜宾市,石马中学,,,,,,,,,,,,,,,,
2023-10-15T01:00:00,1883A,104.6201,28.7728,宜宾市,市委,颗粒物(PM10),57,64,29,38,17,108,11,11,11,46,25,6,6,0.7,0.6
2023-10-15T01:00:00,1884A,104.6055,28.793,宜宾市,宜宾四中,细颗粒物(PM2.5),57,62,30,40,19,100,7,7,7,49,26,5,4,0.7,0.6
2023-10-15T01:00:00,1885A,104.639,28.7562,宜宾市,市政府,细颗粒物(PM2.5),54,54,27,38,20,104,8,8,8,56,24,7,7,0.8,0.6
2023-10-15T01:00:00,1886A,104.5742,28.7199,宜宾市,黄金嘴,颗粒物(PM10),51,51,24,25,12,104,2,2,2,47,23,8,8,0.6,0.5
2023-10-15T01:00:00,1888A,101.6891,26.571,攀枝花市,弄弄坪,,44,44,22,20,9,94,6,6,6,38,17,17,10,0.9,0.7
2023-10-15T01:00:00,1889A,101.5769,26.5928,攀枝花市,河门口,,46,46,28,26,15,99,17,17,17,36,24,56,23,1.8,1.5
2023-10-15T01:00:00,1890A,101.7169,26.585,攀枝花市,炳草岗,颗粒物(PM10),68,86,33,38,15,103,8,8,8,52,24,75,18,1.2,0.9
2023-10-15T01:00:00,1891A,101.7369,26.5008,攀枝花市,仁和,,17,17,19,11,13,87,13,13,13,24,18,5,15,0.5,0.7
2023-10-15T01:00:00,1893A,105.4324,28.9634,泸州市,九狮山,,43,43,27,27,16,80,16,16,16,18,19,4,5,0.5,0.4
2023-10-15T01:00:00,1894A,105.4427,28.9063,泸州市,小市上码头,细颗粒物(PM2.5),59,64,32,42,19,109,48,48,48,25,16,6,6,0.6,0.6
2023-10-15T01:00:00,1895A,105.4241,28.8573,泸州市,兰田宪桥,细颗粒物(PM2.5),53,51,26,37,21,98,16,16,16,30,16,5,6,0.7,0.5
2023-10-15T01:00:00,1896A,105.4379,28.8833,泸州市,市环监站,颗粒物(PM10),54,58,26,36,15,92,36,36,36,36,15,18,6,0.6,0.5
2023-10-15T01:00:00,1901A,104.4239,31.1208,德阳市,东山公园,颗粒物(PM10),68,85,53,39,24,126,28,28,28,41,25,2,2,0.6,0.5
2023-10-15T01:00:00,1902A,104.3826,31.1317,德阳市,西小区,细颗粒物(PM2.5),73,80,56,53,34,128,55,55,55,16,28,1,2,0.6,0.7
2023-10-15T01:00:00,1904A,104.3553,31.1091,德阳市,耐火材料厂,颗粒物(PM10),56,61,59,35,29,129,55,55,55,18,24,1,3,0.6,0.6
2023-10-15T01:00:00,1905A,106.056,30.8064,南充市,西山风景区,细颗粒物(PM2.5),64,41,33,46,31,108,7,7,7,19,9,6,7,0.6,0.5
2023-10-15T01:00:00,1906A,106.0789,30.8023,南充市,南充市委,细颗粒物(PM2.5),68,59,53,49,43,99,4,4,4,36,27,3,7,0.6,0.5
2023-10-15T01:00:00,1907A,106.1031,30.8217,南充市,南充炼油厂,颗粒物(PM10),65,80,59,44,30,104,5,5,5,36,26,4,9,0.6,0.5
2023-10-15T01:00:00,1908A,106.1064,30.7856,南充市,高坪区监测站,细颗粒物(PM2.5),74,75,57,54,41,98,9,9,9,45,26,8,11,0.6,0.4
2023-10-15T01:00:00,1909A,106.0642,30.7636,南充市,嘉陵区环保局,细颗粒物(PM2.5),77,77,57,56,39,97,0,0,0,52,28,21,13,0.5,0.4
2023-10-15T01:00:00,1910A,106.1087,30.8388,南充市,市环境监测站,细颗粒物(PM2.5),72,71,55,52,38,97,11,11,11,31,30,4,9,0.6,0.5
2023-10-15T01:00:00,1911A,106.9222,27.6869,遵义市,丁字口,,36,36,21,19,15,104,16,16,16,33,24,5,6,0.6,0.6
2023-10-15T01:00:00,1912A,106.9242,27.7019,遵义市,凤凰山,,29,26,19,20,16,107,40,40,40,17,14,7,7,0.6,0.6
2023-10-15T01:00:00,1913A,106.8906,27.6486,遵义市,忠庄,,37,37,29,21,16,98,7,7,7,29,19,2,2,0.5,0.5
2023-10-15T01:00:00,1914A,106.9231,27.6506,遵义市,舟水桥,,38,38,23,14,12,106,8,8,8,20,16,2,2,0.4,0.4
2023-10-15T01:00:00,1915A,106.9178,27.72,遵义市,干田坝,,36,36,24,14,15,106,7,7,7,28,20,6,6,0.5,0.5
2023-10-15T01:00:00,1916A,103.7897,25.5035,曲靖市,环境监测站,,38,38,20,15,11,90,27,27,27,22,15,3,4,0.8,1
2023-10-15T01:00:00,1917A,103.8,25.5364,曲靖市,烟厂办公区,,25,25,17,11,10,93,38,38,38,13,12,4,5,0.8,0.8
2023-10-15T01:00:00,1918A,108.7197,34.3956,咸阳市,气象站,,,,,,,,,,,,,,,,
2023-10-15T01:00:00,1919A,108.673,34.3155,咸阳市,实验中学,,33,33,49,14,22,111,21,21,21,44,32,4,3,0.5,0.6
2023-10-15T01:00:00,1920A,108.7233,34.3617,咸阳市,师范学院,,42,42,52,19,21,106,25,25,25,42,31,5,5,0.5,0.5
2023-10-15T01:00:00,1922A,109.0656,35.0994,铜川市,党校,颗粒物(PM10),62,73,40,24,18,113,6,6,6,51,38,7,9,0.6,0.6
2023-10-15T01:00:00,1923A,109.0697,35.0697,铜川市,王益区政府,,32,32,35,21,15,116,9,9,9,35,30,4,4,0.5,0.5
2023-10-15T01:00:00,1924A,108.9344,34.9058,铜川市,新区管委会,,30,30,35,15,18,121,69,69,69,15,24,4,5,0.4,0.4
2023-10-15T01:00:00,1926A,109.4131,36.6275,延安市,枣园,,32,32,30,10,11,126,6,6,6,40,32,6,8,0.3,0.3
2023-10-15T01:00:00,1927A,109.4761,36.6028,延安市,延大医附院,,38,38,42,15,15,115,3,3,3,46,35,6,6,0.5,0.6
2023-10-15T01:00:00,1929A,109.5056,36.6106,延安市,百米大道,颗粒物(PM10),53,55,44,23,16,118,4,4,4,59,43,2,3,0.7,0.6
2023-10-15T01:00:00,1930A,107.185,34.3063,宝鸡市,庙沟村,颗粒物(PM10),60,70,30,6,8,105,46,46,46,13,9,8,8,0.2,0.3
2023-10-15T01:00:00,1931A,107.0708,34.3017,宝鸡市,竹园沟,,18,18,17,9,9,116,26,26,26,29,16,6,6,0.3,0.4
2023-10-15T01:00:00,1932A,107.1906,34.3672,宝鸡市,三陆医院,,37,37,33,17,13,118,17,17,17,25,30,14,12,0.3,0.5
2023-10-15T01:00:00,1933A,107.1431,34.3547,宝鸡市,监测站,,25,25,25,12,12,112,20,20,20,26,23,6,6,0.3,0.4
2023-10-15T01:00:00,1934A,107.1186,34.3739,宝鸡市,技工学校,,26,26,28,14,14,118,28,28,28,21,22,8,8,0.3,0.4
2023-10-15T01:00:00,1935A,107.3906,34.3528,宝鸡市,陈仓区环保局家属楼,,30,28,35,21,18,119,20,20,20,34,32,8,9,0.5,0.6
2023-10-15T01:00:00,1936A,107.2058,34.3497,宝鸡市,文理学院,,22,11,28,15,9,118,26,26,26,25,28,5,6,0.4,0.5
2023-10-15T01:00:00,1937A,107.2386,34.3622,宝鸡市,三迪小学,,22,22,30,12,14,122,23,23,23,24,28,8,7,0.3,0.4
2023-10-15T01:00:00,1938A,109.5293,34.5101,渭南市,农科所,,25,24,38,17,22,113,54,54,54,28,28,5,7,0.6,0.7
2023-10-15T01:00:00,1939A,109.4974,34.4877,渭南市,日报社,,24,24,39,10,21,112,72,72,72,26,39,5,7,0.3,0.4
2023-10-15T01:00:00,1940A,109.4636,34.493,渭南市,体育馆,,22,19,38,15,16,67,67,67,67,21,33,2,4,0.4,0.5
2023-10-15T01:00:00,1941A,109.4259,34.5023,渭南市,高新一小,,40,40,42,17,20,115,35,35,35,36,32,7,8,0.4,0.4
2023-10-15T01:00:00,1944A,102.1692,38.5167,金昌市,天庆家园,,49,49,44,24,19,117,79,79,79,19,26,9,8,0.5,0.6
2023-10-15T01:00:00,1945A,98.2908,39.7711,嘉峪关市,气象局,颗粒物(PM10),62,73,45,22,13,117,6,6,6,75,27,5,4,0.4,0.2
2023-10-15T01:00:00,1947A,106.3394,38.817,石嘴山市,沙湖旅游区,细颗粒物(PM2.5),85,84,56,63,24,125,21,21,21,53,34,12,13,0.3,0.3
2023-10-15T01:00:00,1948A,106.3668,39.0145,石嘴山市,大武口朝阳西街,,31,26,66,12,25,118,37,37,37,62,47,9,16,0.3,0.5
2023-10-15T01:00:00,1949A,106.7704,39.2282,石嘴山市,惠农南大街,颗粒物(PM10),73,96,68,26,24,114,3,3,3,79,52,18,23,0.8,0.8
2023-10-15T01:00:00,1950A,106.7099,39.1325,石嘴山市,红果子镇惠新街,细颗粒物(PM2.5),122,153,94,92,48,121,13,13,13,68,46,17,29,0.7,0.8
2023-10-15T01:00:00,1951A,84.895,45.6094,克拉玛依市,长征新村,,17,10,22,5,4,80,52,52,52,2,2,9,10,0.2,0.2
2023-10-15T01:00:00,1952A,84.8988,45.5893,克拉玛依市,南林小区,,18,5,19,10,10,88,56,56,56,1,3,5,5,0.2,0.2
2023-10-15T01:00:00,1954A,84.905,44.3396,克拉玛依市,独山子区,,22,9,56,0,14,91,70,70,70,3,5,4,5,0.3,0.3
2023-10-15T01:00:00,1955A,85.6979,46.098,克拉玛依市,乌尔禾区商贸楼,,16,14,70,3,7,78,49,49,49,1,3,6,7,0.4,0.4
2023-10-15T01:00:00,1956A,86.1472,41.7538,巴音郭楞州,孔雀公园,颗粒物(PM10),92,133,110,52,44,99,1,1,1,82,41,4,4,1.0,0.7
2023-10-15T01:00:00,1957A,86.1972,41.7166,巴音郭楞州,棉纺厂,颗粒物(PM10),136,222,132,65,38,100,1,1,1,73,40,2,2,0.5,0.5
2023-10-15T01:00:00,1958A,86.2357,41.7173,巴音郭楞州,经济开发区,颗粒物(PM10),193,335,150,67,37,106,26,26,26,46,18,2,3,0.3,0.3
2023-10-15T01:00:00,1961A,117.532,36.6868,济南市,东山小学,"颗粒物(PM10),细颗粒物(PM2.5)",74,98,95,54,52,131,91,91,91,39,42,5,6,0.7,0.7
2023-10-15T01:00:00,1966A,120.0405,35.8735,青岛市,黄岛区4号,颗粒物(PM10),59,68,76,31,37,138,21,21,21,82,42,8,8,0.8,0.7
2023-10-15T01:00:00,1982A,122.0693,37.2174,威海市,文登开发区,,32,29,25,22,13,115,82,82,82,10,14,11,8,0.8,0.4
2023-10-15T01:00:00,2031A,113.1817,27.9958,株洲市,云田中学,细颗粒物(PM2.5),97,98,68,72,55,169,21,21,21,26,31,8,8,0.9,0.8
2023-10-15T01:00:00,2054A,114.1099,32.1059,信阳市,平桥分局,,42,41,38,29,28,129,86,86,86,11,14,3,3,0.7,0.7
2023-10-15T01:00:00,2064A,113.9956,32.1271,信阳市,南湾水厂,,34,34,42,23,28,127,63,63,63,12,12,3,3,0.7,0.6
2023-10-15T01:00:00,2065A,114.0775,32.1195,信阳市,市酿酒公司,颗粒物(PM10),52,53,50,32,31,125,72,72,72,16,24,3,3,0.7,0.7
2023-10-15T01:00:00,2066A,114.0609,32.1399,信阳市,审计局,,48,42,50,33,28,129,74,74,74,23,16,4,5,0.6,0.6
2023-10-15T01:00:00,2067A,114.6613,33.6128,周口市,市环境监测站,颗粒物(PM10),102,154,97,75,53,180,51,51,51,61,36,10,12,0.6,0.5
2023-10-15T01:00:00,2068A,114.6758,33.6347,周口市,周口师范,细颗粒物(PM2.5),113,158,92,85,50,180,74,74,74,50,36,9,10,0.8,0.7
2023-10-15T01:00:00,2069A,114.6546,33.5979,周口市,市运管处,细颗粒物(PM2.5),118,162,99,89,53,180,74,74,74,50,31,9,11,0.6,0.5
2023-10-15T01:00:00,2070A,114.6369,33.6406,周口市,川汇区环保局,细颗粒物(PM2.5),120,159,97,91,58,178,30,30,30,82,44,12,13,0.8,0.7
2023-10-15T01:00:00,2075A,117.6336,24.4674,漳州市,九湖,,,,,,,,,,,,,,,,
2023-10-15T01:00:00,2160A,112.85,35.5051,晋城市,自来水公司,细颗粒物(PM2.5),77,85,76,56,45,122,54,54,54,46,36,10,9,1.0,1
2023-10-15T01:00:00,2161A,112.8318,35.4936,晋城市,白云商贸,颗粒物(PM10),57,63,80,31,40,124,70,70,70,36,32,9,8,0.9,1.1
2023-10-15T01:00:00,2162A,112.8508,35.4887,晋城市,市环保局,细颗粒物(PM2.5),70,84,76,51,43,121,43,43,43,56,36,9,10,1.0,1
2023-10-15T01:00:00,2163A,112.8676,35.4897,晋城市,技术学院,细颗粒物(PM2.5),67,66,71,48,39,127,39,39,39,54,35,8,9,1.0,1
2023-10-15T01:00:00,2165A,112.8453,35.546,晋城市,白马寺,,,,,,,,,,,,,,,,
2023-10-15T01:00:00,2166A,112.4397,39.3522,朔州市,平朔,颗粒物(PM10),80,109,89,29,25,106,5,5,5,58,41,11,22,0.8,0.7
2023-10-15T01:00:00,2167A,112.4575,39.3617,朔州市,朔唯,颗粒物(PM10),82,113,101,25,26,99,11,11,11,72,47,24,26,0.6,0.6
2023-10-15T01:00:00,2168A,112.4258,39.3197,朔州市,区政府,颗粒物(PM10),71,92,69,30,24,103,15,15,15,60,40,10,16,0.8,0.7
2023-10-15T01:00:00,2169A,112.4072,39.3278,朔州市,市环保局,颗粒物(PM10),73,95,73,21,19,104,17,17,17,52,35,11,16,0.7,0.5
2023-10-15T01:00:00,2170A,112.4272,39.3681,朔州市,市二中,颗粒物(PM10),73,96,111,27,29,104,10,10,10,59,48,10,26,0.5,0.7
2023-10-15T01:00:00,2171A,112.7532,37.6945,晋中市,锦纶小区,颗粒物(PM10),56,61,74,22,23,125,13,13,13,53,46,7,12,0.4,0.4
2023-10-15T01:00:00,2173A,112.7249,37.7067,晋中市,南都小区,颗粒物(PM10),63,75,72,41,29,119,7,7,7,74,48,11,12,0.6,0.6
2023-10-15T01:00:00,2174A,112.6991,37.6982,晋中市,榆次区政府,颗粒物(PM10),64,78,60,32,24,122,14,14,14,68,49,12,13,0.6,0.6
2023-10-15T01:00:00,2175A,110.9956,35.0147,运城市,运城中学,细颗粒物(PM2.5),78,98,61,57,36,127,15,15,15,47,25,6,8,0.9,0.7
2023-10-15T01:00:00,2178A,110.9686,35.0303,运城市,地区技校,细颗粒物(PM2.5),98,101,70,73,35,122,43,43,43,36,32,10,7,0.7,0.6
2023-10-15T01:00:00,2179A,111.0414,35.1147,运城市,空港新区,"颗粒物(PM10),细颗粒物(PM2.5)",89,128,78,66,39,132,6,6,6,63,40,5,7,0.6,0.5
2023-10-15T01:00:00,2181A,112.7383,38.4519,忻州市,开发区,颗粒物(PM10),56,61,40,16,14,109,7,7,7,72,39,27,14,0.6,0.5
2023-10-15T01:00:00,2182A,112.7003,38.4928,忻州市,会展中心,,30,26,35,20,16,107,5,5,5,60,38,7,10,0.4,0.5
2023-10-15T01:00:00,2183A,111.1406,37.5211,吕梁市,环保局,颗粒物(PM10),58,65,67,17,14,109,2,2,2,61,48,4,6,0.5,0.5
2023-10-15T01:00:00,2185A,111.1297,37.5136,吕梁市,自来水公司,颗粒物(PM10),107,164,88,23,17,107,5,5,5,52,38,6,6,0.4,0.5
2023-10-15T01:00:00,2187A,106.8174,39.6973,乌海市,市林业局,,45,45,41,21,19,118,43,43,43,37,26,9,10,0.8,0.8
2023-10-15T01:00:00,2188A,106.7907,39.6667,乌海市,中海勃湾学校,,49,49,45,28,18,122,13,13,13,81,35,12,13,0.5,0.6
2023-10-15T01:00:00,2191A,122.2532,43.6801,通辽市,艺术职业学校,,50,50,41,11,17,99,60,60,60,16,28,5,8,0,0.2
2023-10-15T01:00:00,2192A,119.7594,49.2261,呼伦贝尔市,区环保局,,25,21,42,17,22,89,45,45,45,5,9,6,5,0.1,0.1
2023-10-15T01:00:00,2195A,107.4212,40.761,巴彦淖尔市,附二中,,38,38,53,26,21,120,91,91,91,15,18,3,6,0.4,0.4
2023-10-15T01:00:00,2196A,107.37,40.7372,巴彦淖尔市,市环保大楼,颗粒物(PM10),66,82,73,44,26,112,61,61,61,28,19,2,3,0.4,0.4
2023-10-15T01:00:00,2197A,113.1306,40.9923,乌兰察布市,集宁新区,,25,25,24,12,10,109,72,72,72,15,21,5,7,0.3,0.4
2023-10-15T01:00:00,2200A,122.0392,46.0656,兴安盟,胜华新制药厂,,40,40,36,25,15,84,63,63,63,3,13,2,3,0.2,0.4
2023-10-15T01:00:00,2201A,121.9504,46.0741,兴安盟,科右前旗环保局,,47,47,37,27,16,83,63,63,63,3,13,4,4,0.4,0.3
2023-10-15T01:00:00,2202A,116.1042,43.9317,锡林郭勒盟,市环保监测站,,50,50,34,7,6,88,48,48,48,16,11,11,10,0.2,0.2
2023-10-15T01:00:00,2203A,116.0781,43.9311,锡林郭勒盟,市政府,颗粒物(PM10),53,55,25,3,6,91,61,61,61,12,10,9,9,0.1,0.2
2023-10-15T01:00:00,2204A,105.6467,38.8363,阿拉善盟,西城区西花园,,30,19,23,17,14,120,95,95,95,10,15,7,7,0.2,0.3
2023-10-15T01:00:00,2205A,105.6985,38.8411,阿拉善盟,蒙二幼,,32,19,19,7,8,117,102,102,102,6,11,8,8,0.3,0.3
2023-10-15T01:00:00,2206A,105.724,38.8516,阿拉善盟,环保局新楼,,35,23,20,7,8,114,110,110,110,4,7,7,7,0.3,0.4
2023-10-15T01:00:00,2207A,121.6094,41.998,阜新市,工业园区,颗粒物(PM10),71,92,59,46,30,116,30,30,30,41,27,20,12,1.0,0.9
2023-10-15T01:00:00,2208A,121.6697,42.0279,阜新市,长青街,颗粒物(PM10),76,101,71,52,36,109,41,41,41,30,24,18,11,0.7,0.8
2023-10-15T01:00:00,2209A,121.6673,42.0705,阜新市,农业园区,,,,50,,29,110,,,,,19,,10,,0.9
2023-10-15T01:00:00,2210A,121.6717,42.0224,阜新市,东苑,细颗粒物(PM2.5),67,79,67,48,36,108,41,41,41,37,33,24,17,0.9,1
2023-10-15T01:00:00,2211A,121.6506,42.0498,阜新市,玉龙新城,颗粒物(PM10),74,98,63,36,27,116,27,27,27,38,27,9,9,1.0,1.1
2023-10-15T01:00:00,2212A,123.2,41.1953,辽阳市,宏伟区,,49,49,39,32,25,86,23,23,23,16,25,8,8,1.3,1
2023-10-15T01:00:00,2213A,123.1683,41.2495,辽阳市,新华园,细颗粒物(PM2.5),63,48,47,45,33,99,3,3,3,43,33,8,11,1.5,1.2
2023-10-15T01:00:00,2214A,123.2354,41.2639,辽阳市,滨河路,细颗粒物(PM2.5),70,50,42,51,36,87,29,29,29,22,26,8,9,1.4,1
2023-10-15T01:00:00,2215A,123.149,41.2991,辽阳市,铁西工业园,细颗粒物(PM2.5),69,83,54,50,34,97,24,24,24,35,28,12,10,1.9,1.2
2023-10-15T01:00:00,2216A,123.8139,42.3022,铁岭市,汇工街西,细颗粒物(PM2.5),70,42,53,51,44,118,57,57,57,25,33,18,19,0.8,0.7
2023-10-15T01:00:00,2217A,123.8649,42.2923,铁岭市,水上乐园,细颗粒物(PM2.5),98,64,56,73,47,119,36,36,36,41,35,14,9,1.0,0.8
2023-10-15T01:00:00,2218A,123.8486,42.2867,铁岭市,银州路东段,细颗粒物(PM2.5),77,87,62,56,40,112,56,56,56,27,37,10,4,1.0,0.8
2023-10-15T01:00:00,2219A,123.7153,42.2217,铁岭市,金沙江路北,细颗粒物(PM2.5),80,54,46,59,39,119,40,40,40,34,34,20,12,0.9,0.8
2023-10-15T01:00:00,2220A,120.4318,41.5881,朝阳市,西梁,,42,42,48,24,24,93,17,17,17,33,31,10,12,0.8,1
2023-10-15T01:00:00,2221A,120.4521,41.5646,朝阳市,河畔小区,,29,27,28,20,17,90,38,38,38,24,27,8,9,0.7,0.7
2023-10-15T01:00:00,2222A,120.4176,41.5648,朝阳市,八里堡,,47,47,46,24,22,92,7,7,7,47,36,8,11,0.8,1
2023-10-15T01:00:00,2223A,120.3806,41.5969,朝阳市,农业园区,,32,32,29,18,16,94,13,13,13,47,33,7,8,0.8,0.6
2023-10-15T01:00:00,2225A,124.4002,43.1713,四平市,一商场,颗粒物(PM10),63,75,70,42,37,121,51,51,51,29,33,6,5,0.6,0.7
2023-10-15T01:00:00,2226A,124.388,43.193,四平市,境园,细颗粒物(PM2.5),83,58,47,61,39,124,52,52,52,20,21,7,4,0.7,0.7
2023-10-15T01:00:00,2227A,125.1358,42.8845,辽源市,环保局,细颗粒物(PM2.5),52,49,42,36,32,124,43,43,43,35,26,6,9,0.9,0.9
2023-10-15T01:00:00,2229A,125.9358,41.7173,通化市,光明,,34,34,38,18,20,105,15,15,15,33,40,7,8,0.3,0.5
2023-10-15T01:00:00,2230A,125.9446,41.7325,通化市,铁路,,49,49,35,22,21,113,7,7,7,52,33,7,8,0.6,0.7
2023-10-15T01:00:00,2231A,126.4219,41.9171,白山市,喜丰,颗粒物(PM10),58,65,47,17,18,108,10,10,10,36,29,8,8,0.8,0.7
2023-10-15T01:00:00,2232A,126.4077,41.9419,白山市,环保局,,46,46,38,22,19,99,12,12,12,36,24,7,9,0.9,0.9
2023-10-15T01:00:00,2233A,124.8006,45.1214,松原市,江南,,40,38,48,28,33,131,77,77,77,7,12,6,6,0.4,0.5
2023-10-15T01:00:00,2234A,124.7965,45.1722,松原市,江北,,41,41,45,26,34,126,70,70,70,11,13,4,4,0.5,0.6
2023-10-15T01:00:00,2235A,122.7911,45.6077,白城市,洮北区环保局,颗粒物(PM10),52,54,48,17,20,95,75,75,75,6,11,5,3,0.4,0.4
2023-10-15T01:00:00,2236A,122.8738,45.5725,白城市,市环保局,颗粒物(PM10),65,79,51,20,17,92,76,76,76,5,12,7,7,0.5,0.5
2023-10-15T01:00:00,2237A,129.47,42.8883,延边朝鲜族自治州,妇幼医院,,32,32,40,18,20,98,29,29,29,14,26,6,7,0.5,0.6
2023-10-15T01:00:00,2238A,129.5055,42.9108,延边朝鲜族自治州,延边医院,,37,37,64,22,29,107,25,25,25,33,42,6,8,0.7,0.8
2023-10-15T01:00:00,2239A,129.3964,42.8881,延边朝鲜族自治州,朝阳川镇医院,,35,35,42,16,20,106,10,10,10,18,22,4,5,0.5,0.6
2023-10-15T01:00:00,2240A,130.9762,45.3001,鸡西市,环保局,细颗粒物(PM2.5),92,125,61,68,31,103,2,2,2,46,30,5,6,0.9,0.5
2023-10-15T01:00:00,2243A,130.9429,45.3039,鸡西市,第一中学,颗粒物(PM10),67,84,54,41,29,124,74,74,74,16,15,8,9,0.5,0.4
2023-10-15T01:00:00,2244A,130.2537,47.3416,鹤岗市,哈啤分公司,颗粒物(PM10),61,71,47,34,24,95,60,60,60,35,20,16,14,0.6,0.4
2023-10-15T01:00:00,2245A,130.2684,47.3086,鹤岗市,斯达机电,细颗粒物(PM2.5),60,57,54,43,27,110,93,93,93,15,21,11,13,0.6,0.4
2023-10-15T01:00:00,2246A,130.3114,47.3388,鹤岗市,东山纸板厂,颗粒物(PM10),64,78,93,43,31,120,81,81,81,17,31,13,14,0.6,0.7
2023-10-15T01:00:00,2247A,130.1097,47.3382,鹤岗市,五号水库,,50,50,20,32,16,115,26,26,26,22,11,11,11,0.5,0.2
2023-10-15T01:00:00,2248A,131.1511,46.6937,双鸭山市,双合村,颗粒物(PM10),81,111,58,41,24,129,78,78,78,18,13,16,13,0.9,0.6
2023-10-15T01:00:00,2249A,131.1652,46.6191,双鸭山市,南小市,细颗粒物(PM2.5),52,44,52,36,28,123,85,85,85,7,10,7,7,0.5,0.4
2023-10-15T01:00:00,2250A,131.1524,46.6554,双鸭山市,环保局,,49,47,50,34,25,117,86,86,86,18,16,8,10,0.3,0.4
2023-10-15T01:00:00,2251A,131.12,46.5656,双鸭山市,苗圃,,33,33,27,21,22,162,72,72,72,7,7,3,4,0.4,0.4
2023-10-15T01:00:00,2252A,128.5159,47.4311,伊春市,环保局,,40,40,35,28,22,127,120,120,120,7,15,11,6,0.5,0.5
2023-10-15T01:00:00,2253A,128.9102,47.7412,伊春市,电力嘉园,,40,39,34,22,15,133,126,126,126,6,17,7,6,0.3,0.4
2023-10-15T01:00:00,2254A,129.5029,48.471,伊春市,汤旺河国家公园,,,,,,,,,,,,,,,,
2023-10-15T01:00:00,2255A,130.2751,46.8028,佳木斯市,佳纺,细颗粒物(PM2.5),57,54,62,40,39,125,109,109,109,10,20,3,4,0.7,0.7
2023-10-15T01:00:00,2256A,130.3995,46.8307,佳木斯市,发电厂,细颗粒物(PM2.5),55,43,52,39,32,123,115,115,115,11,18,6,6,0.8,0.8
2023-10-15T01:00:00,2257A,130.3258,46.7975,佳木斯市,环保局,细颗粒物(PM2.5),59,51,53,42,34,125,117,117,117,11,18,6,6,0.6,0.7
2023-10-15T01:00:00,2258A,130.3648,46.8032,佳木斯市,十一中,细颗粒物(PM2.5),54,55,60,38,35,115,110,110,110,13,26,3,3,0.6,0.7
2023-10-15T01:00:00,2259A,130.3794,46.7588,佳木斯市,四丰,,40,39,37,28,26,148,127,127,127,10,9,1,1,0.4,0.4
2023-10-15T01:00:00,2262A,131.0518,45.8751,七台河市,新一中,细颗粒物(PM2.5),52,44,47,36,25,148,47,47,47,13,21,8,8,0.6,0.7
2023-10-15T01:00:00,2263A,127.4833,50.2524,黑河市,交通局,,18,10,30,8,10,81,55,55,55,3,14,5,7,0.4,0.4
2023-10-15T01:00:00,2264A,127.5144,50.2341,黑河市,环保局,,17,12,32,10,14,81,54,54,54,3,11,2,4,0.3,0.4
2023-10-15T01:00:00,2265A,127.5291,50.2472,黑河市,大黑河岛,,,11,30,20,18,,,,,2,2,1,2,,
2023-10-15T01:00:00,2266A,126.9785,46.6365,绥化市,人和东街,,42,42,60,23,38,127,87,87,87,13,20,5,5,0.6,0.8
2023-10-15T01:00:00,2267A,126.964,46.6528,绥化市,党政办公中心,,40,40,51,24,37,130,90,90,90,11,15,4,4,0.6,0.7
2023-10-15T01:00:00,2269A,124.1069,50.4097,大兴安岭地区,科技局,,23,16,19,16,14,90,50,50,50,2,3,6,6,0.1,0.1
2023-10-15T01:00:00,2270A,117.396,32.939,蚌埠市,工人疗养院,颗粒物(PM10),64,78,86,45,47,161,69,69,69,34,23,8,6,0.6,0.6
2023-10-15T01:00:00,2271A,117.3605,32.9427,蚌埠市,百货大楼,"颗粒物(PM10),细颗粒物(PM2.5)",68,85,89,49,46,162,63,63,63,40,23,13,8,0.5,0.5
2023-10-15T01:00:00,2273A,117.4185,32.8911,蚌埠市,蚌埠学院,细颗粒物(PM2.5),85,100,98,63,52,163,45,45,45,46,30,8,7,0.6,0.5
2023-10-15T01:00:00,2274A,117.3533,32.9673,蚌埠市,淮上区政府,细颗粒物(PM2.5),78,90,91,57,57,158,50,50,50,54,29,8,7,0.4,0.4
2023-10-15T01:00:00,2275A,117.3145,32.8977,蚌埠市,高新区,细颗粒物(PM2.5),70,68,87,51,55,167,29,29,29,58,38,5,6,0.6,0.6
2023-10-15T01:00:00,2277A,116.8305,32.7727,淮南市,潘集区政府,颗粒物(PM10),78,105,91,52,51,141,57,57,57,37,20,9,9,0.5,0.5
2023-10-15T01:00:00,2278A,117.0067,32.6524,淮南市,师范学院,颗粒物(PM10),57,64,87,31,45,153,76,76,76,26,26,9,10,0.4,0.4
2023-10-15T01:00:00,2279A,116.8569,32.5951,淮南市,谢家集区政府,,41,41,56,21,33,151,87,87,87,18,24,7,6,0.4,0.4
2023-10-15T01:00:00,2280A,116.8281,32.633,淮南市,八公山区政府,,50,50,59,31,34,148,102,102,102,12,12,8,7,0.4,0.4
2023-10-15T01:00:00,2281A,116.6325,32.6201,淮南市,焦岗湖风景区管理处,,43,43,54,29,30,137,52,52,52,19,9,2,2,0.3,0.3
2023-10-15T01:00:00,2282A,116.8004,33.975,淮北市,监测站,细颗粒物(PM2.5),103,120,119,77,76,170,105,105,105,24,32,9,14,0.9,0.9
2023-10-15T01:00:00,2283A,116.8091,33.9007,淮北市,烈山区政府,细颗粒物(PM2.5),227,246,157,177,102,182,9,9,9,124,56,19,14,1.0,0.8
2023-10-15T01:00:00,2285A,117.8177,30.9412,铜陵市,市第四中学,细颗粒物(PM2.5),70,69,69,51,44,130,72,72,72,33,30,17,13,1.3,1
2023-10-15T01:00:00,2286A,117.8059,30.9273,铜陵市,市公路局,细颗粒物(PM2.5),63,60,59,45,35,146,103,103,103,17,25,6,8,0.7,0.9
2023-10-15T01:00:00,2287A,117.7807,30.9413,铜陵市,市新民污水厂,颗粒物(PM10),60,70,74,38,34,146,67,67,67,40,45,37,15,0.4,0.5
2023-10-15T01:00:00,2288A,117.7439,30.8792,铜陵市,市第九中学,颗粒物(PM10),73,96,87,43,33,146,26,26,26,64,44,1,4,0.6,0.5
2023-10-15T01:00:00,2289A,117.846,30.9413,铜陵市,车站新区,细颗粒物(PM2.5),52,51,53,36,38,142,78,78,78,21,27,4,6,0.4,0.6
2023-10-15T01:00:00,2290A,117.8483,30.97,铜陵市,市职教基地,细颗粒物(PM2.5),60,67,63,43,38,138,57,57,57,33,30,7,9,1.0,0.9
2023-10-15T01:00:00,2291A,117.0809,30.5177,安庆市,环科院,细颗粒物(PM2.5),62,71,49,44,34,148,68,68,68,36,45,9,8,0.7,0.6
2023-10-15T01:00:00,2292A,117.0331,30.5119,安庆市,马山宾馆,颗粒物(PM10),56,62,54,39,37,145,60,60,60,43,45,7,6,0.7,0.7
2023-10-15T01:00:00,2294A,116.9896,30.6145,安庆市,安庆大学,细颗粒物(PM2.5),80,66,52,59,37,150,23,23,23,68,36,6,7,0.7,0.6
2023-10-15T01:00:00,2295A,118.2903,29.6963,黄山市,延安路89号,,39,39,43,6,18,139,23,23,23,11,11,4,5,0.5,0.5
2023-10-15T01:00:00,2296A,118.327,29.7178,黄山市,黄山东路89号,,43,43,40,21,22,133,28,28,28,11,12,4,5,0.6,0.6
2023-10-15T01:00:00,2297A,118.1371,30.2756,黄山市,黄山区政府5号楼,颗粒物(PM10),51,51,43,35,25,136,22,22,22,8,12,6,6,0.6,0.6
2023-10-15T01:00:00,2298A,118.3093,32.3153,滁州市,老年大学,,49,48,51,34,34,176,132,132,132,12,18,6,6,0.5,0.6
2023-10-15T01:00:00,2299A,118.3244,32.2786,滁州市,人大宾馆,细颗粒物(PM2.5),60,52,65,43,47,180,114,114,114,18,26,7,7,0.4,0.4
2023-10-15T01:00:00,2301A,115.8277,32.8929,阜阳市,市监测站,,49,49,61,31,35,151,86,86,86,16,19,8,8,0.6,0.6
2023-10-15T01:00:00,2303A,115.8554,32.8605,阜阳市,开发区,细颗粒物(PM2.5),60,66,78,43,47,150,85,85,85,19,25,9,10,0.6,0.7
2023-10-15T01:00:00,2307A,116.5079,31.737,六安市,监测大楼,,43,43,48,29,26,150,68,68,68,23,26,3,4,0.4,0.4
2023-10-15T01:00:00,2308A,116.4738,31.7643,六安市,皖西学院,,49,49,52,25,25,150,71,71,71,18,21,6,6,0.5,0.5
2023-10-15T01:00:00,2309A,116.4996,31.7905,六安市,朝阳厂,,48,38,44,33,30,159,96,96,96,12,17,6,6,0.5,0.5
2023-10-15T01:00:00,2310A,116.5567,31.7886,六安市,开发区,颗粒物(PM10),54,57,63,37,32,154,60,60,60,23,32,5,6,0.5,0.5
2023-10-15T01:00:00,2311A,115.8072,33.8399,亳州市,污水处理厂,细颗粒物(PM2.5),114,125,116,86,63,194,35,35,35,50,39,15,14,0.9,0.8
2023-10-15T01:00:00,2312A,115.7789,33.8518,亳州市,三国揽胜宫,细颗粒物(PM2.5),108,144,123,81,66,201,76,76,76,39,26,13,14,0.8,0.7
2023-10-15T01:00:00,2314A,117.47,30.6618,池州市,池州学院,,36,36,42,24,29,159,70,70,70,11,10,5,5,1.0,1
2023-10-15T01:00:00,2316A,118.7581,30.9454,宣城市,鳌峰子站,,42,34,50,29,31,129,32,32,32,29,24,4,5,0.7,0.8
2023-10-15T01:00:00,2317A,118.7385,30.9743,宣城市,敬亭山子站,,35,32,40,24,29,142,72,72,72,24,21,5,6,0.4,0.5
2023-10-15T01:00:00,2318A,118.7173,30.9427,宣城市,开发区子站,,45,45,53,27,33,125,75,75,75,11,28,4,5,0.6,0.7
2023-10-15T01:00:00,2319A,119.0141,25.4325,莆田市,荔城区仓后路,,38,31,33,26,20,126,90,90,90,10,11,7,7,0.7,0.7
2023-10-15T01:00:00,2320A,119.0015,25.4553,莆田市,莆田市监测站,,38,34,29,26,20,131,65,65,65,6,8,7,7,0.7,0.6
2023-10-15T01:00:00,2321A,119.1119,25.4561,莆田市,涵江区六中,,41,41,32,28,21,130,96,96,96,8,9,7,7,0.6,0.7
2023-10-15T01:00:00,2322A,119.1013,25.3215,莆田市,秀屿区政府,,35,29,34,24,21,136,102,102,102,12,14,7,7,0.7,0.7
2023-10-15T01:00:00,2323A,118.981,25.4792,莆田市,东圳水库,,,,,,,,,,,,,,,,
2023-10-15T01:00:00,2324A,117.6211,26.2625,三明市,三钢,,46,30,34,32,27,87,15,15,15,30,25,7,8,0.5,0.6
2023-10-15T01:00:00,2325A,117.635,26.2714,三明市,三明二中,,45,36,31,31,24,88,16,16,16,25,21,4,4,0.8,0.8
2023-10-15T01:00:00,2326A,117.6028,26.2378,三明市,三元区政府,,40,33,37,28,25,102,11,11,11,25,22,9,10,0.7,0.8
2023-10-15T01:00:00,2327A,117.7275,26.3108,三明市,洋溪,,,,,,,,,,,,,,,,
2023-10-15T01:00:00,2331A,118.0966,26.6761,南平市,茫荡山,,,,,,,,,,,,,,,,
2023-10-15T01:00:00,2332A,118.1681,26.6369,南平市,南平市监测站,,39,38,34,27,23,91,24,24,24,15,13,4,5,0.6,0.6
2023-10-15T01:00:00,2333A,118.1825,26.6489,南平市,南平铝业有限公司,,45,36,31,31,24,95,25,25,25,19,13,5,5,0.7,0.6
2023-10-15T01:00:00,2334A,118.1756,26.6272,南平市,南平七中,,42,40,31,29,23,101,13,13,13,26,12,4,5,0.8,0.7
2023-10-15T01:00:00,2335A,117.0189,25.1181,龙岩市,龙岩师专,,,,,,,,,,,,,,,,
2023-10-15T01:00:00,2336A,117.0217,25.1033,龙岩市,龙岩市监测站,,33,33,27,23,17,74,49,49,49,14,17,7,8,0.5,0.6
2023-10-15T01:00:00,2337A,117.0258,25.0661,龙岩市,闽西职业技术学院,,39,32,26,27,17,76,54,54,54,13,14,10,9,0.6,0.6
2023-10-15T01:00:00,2338A,117.0196,25.0306,龙岩市,龙岩学院,,32,30,26,22,15,77,30,30,30,12,13,6,5,0.5,0.5
2023-10-15T01:00:00,2339A,119.5001,26.6946,宁德市,金涵水库,,,,,,,,,,,,,,,,
2023-10-15T01:00:00,2341A,119.5388,26.6612,宁德市,宁德市监测站,细颗粒物(PM2.5),59,43,30,42,26,99,76,76,76,20,21,6,7,0.7,0.8
2023-10-15T01:00:00,2342A,117.3102,29.3867,景德镇市,王港中学,,31,31,32,17,9,139,23,23,23,6,8,2,3,0.8,0.8
2023-10-15T01:00:00,2343A,117.2117,29.2933,景德镇市,老干部活动中心,细颗粒物(PM2.5),57,61,48,40,37,124,6,6,6,36,18,3,7,0.8,0.6
2023-10-15T01:00:00,2344A,117.1894,29.2789,景德镇市,兽医站,细颗粒物(PM2.5),59,60,54,42,47,115,31,31,31,22,18,8,12,0.7,0.7
2023-10-15T01:00:00,2345A,117.1547,29.2617,景德镇市,台达陶瓷,颗粒物(PM10),63,75,66,44,40,115,15,15,15,55,40,63,43,0.8,0.7
2023-10-15T01:00:00,2346A,117.2461,29.2956,景德镇市,陶研所,颗粒物(PM10),65,79,56,36,27,116,12,12,12,27,17,4,8,0.7,0.6
2023-10-15T01:00:00,2347A,114.0997,27.5002,萍乡市,武功山,,35,28,36,24,35,132,37,37,37,6,7,5,5,0.5,0.6
2023-10-15T01:00:00,2348A,113.8385,27.6434,萍乡市,中医院,细颗粒物(PM2.5),69,63,72,50,52,141,63,63,63,16,18,7,18,0.8,1
2023-10-15T01:00:00,2349A,113.8493,27.6253,萍乡市,市政府车库,细颗粒物(PM2.5),62,49,66,44,48,139,46,46,46,16,12,6,12,0.6,0.7
2023-10-15T01:00:00,2350A,113.8676,27.6435,萍乡市,市环保局,细颗粒物(PM2.5),69,71,64,50,53,143,50,50,50,23,22,7,13,0.7,0.8
2023-10-15T01:00:00,2351A,113.866,27.6198,萍乡市,安源区政府,细颗粒物(PM2.5),69,62,63,50,48,144,60,60,60,13,16,7,12,0.5,0.6
2023-10-15T01:00:00,2352A,115.0861,27.9317,新余市,北岗,细颗粒物(PM2.5),57,55,46,40,44,138,2,2,2,37,18,9,22,0.4,0.5
2023-10-15T01:00:00,2353A,114.9886,27.8431,新余市,飞宇,细颗粒物(PM2.5),67,77,79,48,49,114,10,10,10,44,25,6,11,1.0,0.7
2023-10-15T01:00:00,2354A,114.9231,27.8246,新余市,第二水厂,颗粒物(PM10),69,88,76,46,46,135,50,50,50,18,21,7,12,0.3,0.6
2023-10-15T01:00:00,2355A,114.9308,27.8036,新余市,市气象局,细颗粒物(PM2.5),67,74,66,48,50,120,36,36,36,28,22,8,12,0.8,0.8
2023-10-15T01:00:00,2357A,116.9822,28.1136,鹰潭市,龙虎山,,43,43,46,14,15,122,32,32,32,2,6,4,5,0.1,0.1
2023-10-15T01:00:00,2358A,117.0564,28.2642,鹰潭市,新监测站,细颗粒物(PM2.5),82,64,65,60,44,138,6,6,6,44,22,26,14,0.4,0.6
2023-10-15T01:00:00,2359A,117.0311,28.2475,鹰潭市,财苑宾馆,,50,45,65,35,43,136,60,60,60,15,20,3,15,0.4,0.6
2023-10-15T01:00:00,2360A,117.0222,28.2264,鹰潭市,体育馆,,49,40,59,34,43,133,52,52,52,9,20,2,8,0.6,0.6
2023-10-15T01:00:00,2361A,117.0017,28.2131,鹰潭市,三川水表,,45,40,55,31,40,125,47,47,47,4,14,3,5,0.6,0.7
2023-10-15T01:00:00,2362A,114.9017,25.9149,赣州市,通天岩,,,,,,,,,,,,,,,,
2023-10-15T01:00:00,2363A,114.9367,25.8664,赣州市,地委,细颗粒物(PM2.5),72,76,67,52,46,117,41,41,41,22,17,30,23,1.3,1.2
2023-10-15T01:00:00,2364A,114.9461,25.8481,赣州市,气象台,细颗粒物(PM2.5),72,68,63,52,46,122,60,60,60,13,18,48,15,1.1,1.1
2023-10-15T01:00:00,2365A,114.9322,25.8333,赣州市,市图书馆,细颗粒物(PM2.5),65,71,75,47,45,121,73,73,73,15,18,10,8,1.1,1.1
2023-10-15T01:00:00,2366A,114.8905,25.8471,赣州市,华坚鞋城,细颗粒物(PM2.5),64,68,63,46,42,120,97,97,97,8,13,8,11,1.0,1
2023-10-15T01:00:00,2367A,114.9754,27.0803,吉安市,红声器材厂,细颗粒物(PM2.5),94,102,76,70,55,117,15,15,15,57,23,11,15,0.9,0.9
2023-10-15T01:00:00,2368A,114.9658,27.0999,吉安市,市森林工业局,细颗粒物(PM2.5),84,92,76,62,49,117,19,19,19,58,29,11,13,0.8,0.7
2023-10-15T01:00:00,2369A,114.99,27.1312,吉安市,市环境监测站,细颗粒物(PM2.5),88,90,75,65,48,119,17,17,17,56,26,8,14,0.9,0.8
2023-10-15T01:00:00,2370A,115.0093,27.0968,吉安市,青原区法院,细颗粒物(PM2.5),82,86,69,60,51,122,18,18,18,32,24,10,14,0.9,0.9
2023-10-15T01:00:00,2371A,114.3408,27.8064,宜春市,槟榔水业,细颗粒物(PM2.5),84,83,70,62,49,150,37,37,37,34,29,2,6,0.5,0.6
2023-10-15T01:00:00,2373A,114.3956,27.7844,宜春市,市石油公司,细颗粒物(PM2.5),54,55,75,38,50,131,29,29,29,23,28,2,6,0.8,1
2023-10-15T01:00:00,2374A,114.3703,27.7914,宜春市,市气象局,细颗粒物(PM2.5),57,56,68,40,49,139,48,48,48,18,21,2,7,0.9,1
2023-10-15T01:00:00,2375A,114.4013,27.8074,宜春市,市广电局,颗粒物(PM10),59,67,72,39,53,146,47,47,47,25,24,3,10,0.7,0.9
2023-10-15T01:00:00,2376A,116.2127,28.0814,抚州市,桐源党溪,,49,49,51,34,35,132,20,20,20,13,12,5,3,0.7,0.8
2023-10-15T01:00:00,2377A,116.3544,27.9831,抚州市,市站,细颗粒物(PM2.5),83,82,68,61,45,133,30,30,30,39,24,4,5,0.9,0.8
2023-10-15T01:00:00,2378A,116.3565,27.963,抚州市,血防站,细颗粒物(PM2.5),78,84,71,57,46,130,22,22,22,28,22,3,2,1.1,1.1
2023-10-15T01:00:00,2379A,116.3564,28.0007,抚州市,采茶剧团,细颗粒物(PM2.5),82,80,69,60,49,125,59,59,59,13,17,4,5,1.0,1.1
2023-10-15T01:00:00,2380A,116.385,27.9647,抚州市,医学分院,细颗粒物(PM2.5),68,73,66,49,43,138,26,26,26,32,19,7,7,1.3,1.1
2023-10-15T01:00:00,2381A,118.005,28.4572,上饶市,百草园,,,53,55,30,35,113,32,32,32,9,17,8,21,,
2023-10-15T01:00:00,2382A,117.9756,28.4436,上饶市,市监测站,细颗粒物(PM2.5),58,60,61,41,38,124,35,35,35,28,30,10,22,0.8,0.9
2023-10-15T01:00:00,2383A,117.9519,28.4628,上饶市,凤凰光学,颗粒物(PM10),65,79,63,43,37,120,3,3,3,54,30,9,18,0.7,0.7
2023-10-15T01:00:00,2385A,114.17,35.9019,鹤壁市,市监测站,细颗粒物(PM2.5),78,69,81,57,60,175,34,34,34,38,38,3,17,0.7,1.2
2023-10-15T01:00:00,2386A,114.2956,35.7511,鹤壁市,市交警支队,细颗粒物(PM2.5),74,92,89,54,52,183,8,8,8,85,58,9,12,0.8,1
2023-10-15T01:00:00,2387A,114.2878,35.7306,鹤壁市,迎宾馆,细颗粒物(PM2.5),72,78,101,52,68,178,35,35,35,73,51,11,26,0.7,1.4
2023-10-15T01:00:00,2389A,113.836,35.311,新乡市,环保西院,颗粒物(PM10),94,138,96,66,53,171,6,6,6,92,42,13,14,0.8,0.8
2023-10-15T01:00:00,2390A,113.884,35.272,新乡市,开发区,细颗粒物(PM2.5),94,103,80,70,52,173,28,28,28,69,35,11,10,0.8,0.9
2023-10-15T01:00:00,2391A,113.883,35.303,新乡市,环保东院,颗粒物(PM10),97,143,98,60,59,170,14,14,14,85,43,10,11,0.9,0.9
2023-10-15T01:00:00,2392A,115.0312,35.7636,濮阳市,环保局,细颗粒物(PM2.5),67,77,99,48,76,171,68,68,68,45,41,5,10,0.6,0.8
2023-10-15T01:00:00,2394A,115.0574,35.7609,濮阳市,油田运输公司,细颗粒物(PM2.5),73,80,130,53,83,174,57,57,57,50,69,5,9,0.7,1
2023-10-15T01:00:00,2395A,115.0866,35.7754,濮阳市,油田物探公司,细颗粒物(PM2.5),85,96,133,63,91,177,53,53,53,67,50,2,6,0.7,0.9
2023-10-15T01:00:00,2396A,113.8276,34.0159,许昌市,监测站,细颗粒物(PM2.5),92,127,88,68,49,159,9,9,9,77,41,22,12,0.7,0.7
2023-10-15T01:00:00,2398A,113.7906,33.9953,许昌市,开发区,细颗粒物(PM2.5),98,139,83,73,51,153,7,7,7,68,37,21,10,0.7,0.5
2023-10-15T01:00:00,2399A,114.051,33.5699,漯河市,三五一五工厂,颗粒物(PM10),64,78,83,43,36,162,61,61,61,35,22,10,8,0.6,0.5
2023-10-15T01:00:00,2400A,114.0055,33.5698,漯河市,漯河大学,颗粒物(PM10),67,83,78,42,34,158,45,45,45,51,26,10,10,0.8,0.6
2023-10-15T01:00:00,2401A,114.0138,33.5828,漯河市,市水利局,颗粒物(PM10),64,78,83,36,31,159,45,45,45,47,22,9,9,0.7,0.5
2023-10-15T01:00:00,2402A,114.0261,33.5698,漯河市,市广电局,细颗粒物(PM2.5),68,76,81,49,43,156,55,55,55,41,24,13,8,0.9,0.6
2023-10-15T01:00:00,2404A,112.5224,33.0122,南阳市,瓦房庄,颗粒物(PM10),69,88,89,42,39,124,15,15,15,65,53,6,6,0.6,0.6
2023-10-15T01:00:00,2405A,112.5003,32.9735,南阳市,汉画馆,颗粒物(PM10),72,94,88,43,36,129,5,5,5,63,44,5,6,0.7,0.6
2023-10-15T01:00:00,2406A,112.5573,33.027,南阳市,气象站,颗粒物(PM10),53,56,90,24,31,127,56,56,56,23,42,5,5,0.4,0.6
2023-10-15T01:00:00,2407A,112.5481,32.9689,南阳市,理工学院,颗粒物(PM10),100,150,131,51,47,130,18,18,18,62,52,8,8,0.6,0.6
2023-10-15T01:00:00,2408A,115.6702,34.4285,商丘市,环境监测站,细颗粒物(PM2.5),147,150,121,112,84,170,34,34,34,63,36,6,8,1.1,0.8
2023-10-15T01:00:00,2409A,115.6458,34.4045,商丘市,粮食局,细颗粒物(PM2.5),176,171,152,133,116,174,73,73,73,60,52,8,9,0.6,0.7
2023-10-15T01:00:00,2410A,115.6293,34.3948,商丘市,睢阳区环保局,细颗粒物(PM2.5),189,197,161,142,115,179,0,0,0,108,60,6,8,0.8,0.7
2023-10-15T01:00:00,2420A,114.0189,32.9656,驻马店市,市一纸厂,,50,50,49,22,26,146,86,86,86,13,12,7,8,0.3,0.4
2023-10-15T01:00:00,2421A,114.0114,33.015,驻马店市,市彩印厂,颗粒物(PM10),57,63,63,30,30,144,96,96,96,16,15,6,6,0.2,0.3
