timepoint,stationcode,longitude,latitude,area,positionname,primarypollutant,aqi,pm10,pm10_24h,pm2_5,pm2_5_24h,o3,o3_24h,o3_8h,o3_8h_24h,no2,no2_24h,so2,so2_24h,co,co_24h
2025-09-05T1400,2566A,102.1879,31.914,阿坝藏族羌族自治州,州农科所,,24,24,12,7,6,61,,31,31,5,8,1,2,0.2,0.2
2025-09-05T1400,2568A,102.2502,31.8896,阿坝藏族羌族自治州,马师校,,21,19,14,3,10,66,,26,26,5,7,8,8,0.6,0.6
2025-09-05T1400,3994A,102.2165,31.9024,阿坝藏族羌族自治州,马尔康中学西区,,21,16,16,8,9,66,,28,28,3,6,9,9,0.6,0.6
2025-09-05T1400,2695A,80.292,41.1694,阿克苏地区,电视台,颗粒物(PM10),500,863,1003,256,283,52,,48,26,19,10,4,4,0.8,0.7
2025-09-05T1400,2696A,80.2613,41.1551,阿克苏地区,艺术中心,颗粒物(PM10),500,863,913,283,308,62,,32,32,3,9,3,4,0.5,0.5
2025-09-05T1400,2204A,105.6467,38.8363,阿拉善盟,西城区西花园,,32,27,59,8,20,100,,100,97,6,8,9,9,0.7,0.7
2025-09-05T1400,2205A,105.6985,38.8411,阿拉善盟,蒙二幼,,39,39,87,10,22,96,,100,94,3,4,8,8,0.2,0.3
2025-09-05T1400,2206A,105.724,38.8516,阿拉善盟,环保局新楼,,30,30,64,9,20,95,,101,96,3,4,7,8,0.3,0.4
2025-09-05T1400,2708A,88.1264,47.8517,阿勒泰地区,市站,,22,18,25,3,4,68,,42,42,10,17,3,3,0.3,0.3
2025-09-05T1400,2630A,80.1161,32.5,阿里地区,阿里监测站,,25,6,3,3,2,77,,,,3,5,6,5,0.3,0.3
2025-09-05T1400,3192A,80.0903,32.5028,阿里地区,阿里藏医院,,27,7,5,3,1,86,,80,74,2,2,6,6,0.3,0.3
2025-09-05T1400,2642A,109.0318,32.6537,安康市,香溪洞,,21,21,17,8,6,67,,55,55,5,5,8,8,0.5,0.6
2025-09-05T1400,2644A,109.0072,32.6975,安康市,汉滨区检察院,,28,28,22,8,9,59,,39,39,6,6,6,5,0.5,0.6
2025-09-05T1400,4054A,109.0325,32.6913,安康市,市邮政管理局,,22,22,18,3,9,60,,43,43,4,7,5,5,0.6,0.7
2025-09-05T1400,2291A,117.0809,30.5177,安庆市,环科院,,45,28,36,22,27,141,,100,100,2,10,5,6,0.6,0.8
2025-09-05T1400,2292A,117.0331,30.5119,安庆市,马山宾馆,,42,28,37,15,25,134,,88,88,8,13,4,5,0.7,0.9
2025-09-05T1400,2294A,116.9896,30.6145,安庆市,安庆大学,,42,27,37,19,23,133,,96,96,6,12,4,7,0.5,0.6
2025-09-05T1400,3173A,117.0598,30.5351,安庆市,市人大,,44,26,36,20,26,138,,98,98,5,12,4,5,0.5,0.7
2025-09-05T1400,3122A,105.9606,26.2611,安顺市,伍家关,,22,12,13,10,8,70,,58,58,2,3,5,5,0.4,0.5
2025-09-05T1400,3123A,105.9408,26.2431,安顺市,凤凰山,,22,17,20,13,16,70,,56,56,3,4,7,6,0.6,0.6
2025-09-05T1400,3124A,105.9439,26.2564,安顺市,金钟山,,25,17,18,17,14,72,,60,60,2,3,6,6,0.6,0.6
2025-09-05T1400,3125A,105.8983,26.2481,安顺市,娄家坡,,22,20,21,13,14,69,,55,55,2,2,5,5,0.5,0.5
2025-09-05T1400,1818A,114.4839,36.0621,安阳市,棉研所,,,,,,,,,,,,,,,,
2025-09-05T1400,1819A,114.3551,36.1017,安阳市,红庙街,,40,33,31,28,20,101,,81,81,11,14,5,7,0.9,1.2
2025-09-05T1400,1820A,114.361,36.0681,安阳市,银杏小区,,40,31,29,28,26,107,,85,85,12,13,6,7,0.8,0.7
2025-09-05T1400,3141A,114.3922,36.0878,安阳市,信访局,,44,44,29,21,22,114,,90,89,5,12,6,6,0.8,1
2025-09-05T1400,3669A,114.4705,36.0637,安阳市,左辅环卫站,,36,27,29,17,24,114,,92,92,10,14,6,7,0.8,1
2025-09-05T1400,3703A,114.2917,36.0949,安阳市,安钢职工学校,,45,40,33,31,28,103,,79,79,8,11,4,5,0.7,1
2025-09-05T1400,1748A,123.044,41.1196,鞍山市,深沟寺,,26,23,32,12,18,81,,73,73,2,6,6,7,0.7,1
2025-09-05T1400,1749A,123.011,41.0931,鞍山市,太阳城,,26,16,37,10,26,82,,74,74,6,11,6,7,0.6,0.9
2025-09-05T1400,1750A,123.0485,41.1442,鞍山市,太平,,24,24,52,10,29,76,,68,68,7,17,6,8,0.6,1
2025-09-05T1400,1751A,122.9642,41.0971,鞍山市,铁西三道街,,33,33,68,17,37,81,,67,67,10,28,7,8,0.7,1.1
2025-09-05T1400,1753A,123.022,41.0821,鞍山市,明达新区,,24,20,37,9,20,75,,70,70,5,14,7,8,0.7,1.2
2025-09-05T1400,1754A,123.1289,41.0228,鞍山市,千山,,,,25,,13,,,56,,,4,,3,,0.5
2025-09-05T1400,4201A,122.9446,41.0826,鞍山市,兴盛南路290号,,46,46,63,10,29,85,,71,71,9,35,7,8,0.7,1.1
2025-09-05T1400,2195A,107.4212,40.761,巴彦淖尔市,附二中,,33,33,198,7,64,101,,93,82,3,7,8,9,0.3,0.4
2025-09-05T1400,2196A,107.37,40.7372,巴彦淖尔市,市环保大楼,,,30,190,16,59,94,,88,82,3,6,10,9,,0.4
2025-09-05T1400,1956A,86.1472,41.7538,巴音郭楞蒙古自治州,孔雀公园,颗粒物(PM10),145,239,140,52,41,78,,60,60,2,15,5,5,0.2,0.3
2025-09-05T1400,1957A,86.1972,41.7166,巴音郭楞蒙古自治州,棉纺厂,颗粒物(PM10),138,225,168,77,42,82,,67,67,2,17,4,4,0.2,0.2
2025-09-05T1400,1958A,86.2357,41.7173,巴音郭楞蒙古自治州,经济开发区,颗粒物(PM10),160,269,148,56,34,78,,64,61,1,7,4,4,0.2,0.2
2025-09-05T1400,2914A,106.7677,31.8794,巴中市,苏山坪,,20,6,18,3,14,63,,42,42,4,4,4,4,0.5,0.5
2025-09-05T1400,3181A,106.7768,31.8526,巴中市,市五中,,19,15,32,10,22,60,,19,19,2,14,6,7,0.4,0.7
2025-09-05T1400,3183A,106.7418,31.8654,巴中市,圣泉水务公司,,21,10,21,7,14,65,,23,23,2,9,6,6,0.5,0.7
2025-09-05T1400,3616A,106.7616,31.8344,巴中市,市中心医院,,19,15,31,13,18,55,,17,17,6,16,6,7,0.5,0.7
2025-09-05T1400,2235A,122.7911,45.6077,白城市,洮北区环保局,,37,37,32,25,27,106,,100,100,4,6,6,3,0.6,0.5
2025-09-05T1400,2236A,122.8738,45.5725,白城市,市环保局,颗粒物(PM10),52,53,35,31,25,106,,90,90,5,7,4,4,0.6,0.6
2025-09-05T1400,2231A,126.4219,41.9171,白山市,喜丰,,25,20,51,10,16,79,,46,46,1,15,6,6,0.5,0.6
2025-09-05T1400,2232A,126.4077,41.9419,白山市,环保局,,26,16,29,14,18,82,,54,54,4,10,8,6,0.5,0.6
2025-09-05T1400,2647A,104.1724,36.5446,白银市,第三小学,颗粒物(PM10),65,79,90,31,24,103,,83,79,7,7,15,15,0.3,0.4
2025-09-05T1400,2648A,104.1465,36.5482,白银市,动力公司,颗粒物(PM10),64,78,73,40,23,106,,80,80,6,5,12,13,0.4,0.4
2025-09-05T1400,2512A,106.6103,23.9011,百色市,市监测站,,42,39,36,21,21,132,,72,72,8,14,9,10,0.5,0.6
2025-09-05T1400,2513A,106.6538,23.8859,百色市,市中心血站,,45,45,37,23,18,118,,68,68,10,16,8,11,0.6,0.6
2025-09-05T1400,3406A,106.6085,23.8798,百色市,祈福高中,,50,50,39,20,22,120,,65,65,8,16,10,10,0.6,0.6
2025-09-05T1400,2270A,117.396,32.939,蚌埠市,工人疗养院,臭氧1小时,63,40,38,17,16,170,,117,117,2,10,4,5,0.5,0.4
2025-09-05T1400,2271A,117.3605,32.9427,蚌埠市,百货大楼,,49,38,35,23,19,156,,108,108,5,14,7,7,0.7,0.6
2025-09-05T1400,2273A,117.4185,32.8911,蚌埠市,蚌埠学院,臭氧1小时,60,34,33,18,21,168,,116,116,2,16,8,8,0.6,0.5
2025-09-05T1400,2274A,117.3533,32.9673,蚌埠市,淮上区政府,臭氧1小时,59,39,38,25,22,167,,116,116,3,12,6,6,0.6,0.5
2025-09-05T1400,2275A,117.3145,32.8977,蚌埠市,高新区,,49,36,36,16,20,155,,116,116,5,13,7,7,0.7,0.7
2025-09-05T1400,3715A,117.3092,32.9314,蚌埠市,蚌埠田家炳中学,臭氧1小时,59,40,34,21,20,167,,124,124,6,11,8,7,0.5,0.5
2025-09-05T1400,1585A,109.8756,40.6532,包头市,市环境监测站,颗粒物(PM10),79,108,53,46,22,92,,84,82,7,13,4,5,0.3,0.6
2025-09-05T1400,1587A,109.9991,40.5842,包头市,包头八中,颗粒物(PM10),86,121,54,32,23,89,,76,66,9,17,5,7,0.3,0.6
2025-09-05T1400,1588A,109.8538,40.6821,包头市,青山宾馆,颗粒物(PM10),76,101,47,32,25,88,,79,77,8,15,3,4,0.4,0.6
2025-09-05T1400,1589A,109.8642,40.6288,包头市,惠龙物流,颗粒物(PM10),78,105,52,35,22,88,,87,77,4,11,4,7,0.4,0.6
2025-09-05T1400,1590A,110.0377,40.5546,包头市,东河鸿龙湾,颗粒物(PM10),87,124,49,39,22,88,,76,69,7,13,9,7,0.6,0.7
2025-09-05T1400,3283A,109.9154,40.5685,包头市,滨河大厦,颗粒物(PM10),80,109,49,34,23,88,,76,68,10,12,14,7,0.7,0.6
2025-09-05T1400,3419A,109.9447,40.6261,包头市,包头市委党校,颗粒物(PM10),74,97,46,34,22,90,,82,80,5,12,6,6,0.4,0.6
2025-09-05T1400,3683A,109.8331,40.6576,包头市,昆区政府,颗粒物(PM10),76,101,56,29,23,93,,96,89,6,12,5,7,0.4,0.6
2025-09-05T1400,1930A,107.185,34.3063,宝鸡市,庙沟村,,32,,23,11,11,101,,102,102,8,8,5,4,0.4,0.6
2025-09-05T1400,1931A,107.0708,34.3017,宝鸡市,竹园沟,,24,10,29,7,16,75,,81,81,7,8,8,8,0.3,0.5
2025-09-05T1400,1932A,107.1906,34.3672,宝鸡市,三陆医院,,18,16,43,10,25,56,,52,47,25,18,8,7,0.5,0.6
2025-09-05T1400,1933A,107.1431,34.3547,宝鸡市,监测站,,21,21,38,13,19,67,,70,68,13,10,8,8,0.5,0.6
2025-09-05T1400,1934A,107.1186,34.3739,宝鸡市,技工学校,,23,20,44,9,27,73,,69,69,9,11,6,6,0.5,0.7
2025-09-05T1400,1936A,107.2058,34.3497,宝鸡市,文理学院,,24,24,38,12,18,69,,77,74,16,11,7,7,0.5,0.6
2025-09-05T1400,1937A,107.2386,34.3622,宝鸡市,三迪小学,,20,16,43,13,24,63,,68,65,23,16,4,4,0.5,0.6
2025-09-05T1400,4308A,107.3898,34.3601,宝鸡市,陈仓区北开路21号,,24,,26,7,17,74,,76,76,16,10,5,5,0.4,0.5
2025-09-05T1400,1051A,115.493,38.8632,保定市,游泳馆,,41,41,55,19,33,96,,68,68,11,30,1,3,0.4,0.4
2025-09-05T1400,1052A,115.5213,38.8959,保定市,华电二区,,45,43,47,31,23,100,,69,69,10,20,2,3,0.3,0.3
2025-09-05T1400,1053A,115.4713,38.9108,保定市,接待中心,,43,40,50,30,34,79,,64,64,9,16,2,3,0.4,0.4
2025-09-05T1400,1054A,115.4612,38.8416,保定市,地表水厂,,32,32,70,18,27,83,,52,52,15,35,5,6,0.5,0.5
2025-09-05T1400,3581A,115.31981,38.95208,保定市,满城区生态环境分局,,31,24,57,17,29,99,,76,76,8,19,3,2,0.2,0.4
2025-09-05T1400,3582A,115.47694,38.76408,保定市,清苑区第二中学,,,,71,,31,,,98,,,27,,3,,0.5
2025-09-05T1400,3583A,115.62909,39.02311,保定市,徐水物探局,,43,38,66,30,39,88,,53,53,12,34,4,5,0.5,0.5
2025-09-05T1400,4004A,115.4202,38.8656,保定市,双鹰农机,,36,29,65,25,30,84,,54,54,7,27,2,4,0.4,0.5
2025-09-05T1400,4034A,115.5150,38.8590,保定市,植保所站,,37,37,65,22,33,105,,69,69,13,31,6,5,0.4,0.5
2025-09-05T1400,2594A,99.1678,25.1081,保山市,市环境监测站,,20,,14,14,18,46,,30,30,4,6,11,10,0.2,0.3
2025-09-05T1400,2595A,99.1711,25.1328,保山市,市环保局,,15,9,14,7,11,47,,31,31,2,4,7,6,0.3,0.4
2025-09-05T1400,1866A,109.2262,21.588,北海市,牛尾岭水库,,25,25,12,10,5,63,,42,42,4,7,2,5,0.6,0.5
2025-09-05T1400,1867A,109.1436,21.4086,北海市,海滩公园,,,12,12,,2,49,,47,47,2,5,3,4,0.5,0.5
2025-09-05T1400,1868A,109.0981,21.4661,北海市,新市环保局,,15,8,10,3,8,45,,45,45,3,6,4,5,0.5,0.5
2025-09-05T1400,1869A,109.1778,21.5233,北海市,北海工业园,,34,34,17,3,7,65,,48,48,4,7,3,3,0.4,0.5
2025-09-05T1400,3400A,109.1911,21.4415,北海市,龙潭自来水厂,,16,6,9,3,6,51,,43,43,3,5,3,4,0.4,0.4
2025-09-05T1400,1001A,116.3621,39.8784,北京市,万寿西宫,,48,47,50,33,33,89,,84,84,15,23,3,3,0.8,0.8
2025-09-05T1400,1002A,116.2202,40.2915,北京市,定陵,,29,18,48,14,36,92,,62,62,1,4,3,3,0.4,0.8
2025-09-05T1400,1003A,116.4174,39.9289,北京市,东四,颗粒物(PM10),59,68,42,35,30,96,,98,98,21,21,3,4,0.5,0.6
2025-09-05T1400,1004A,116.4072,39.8863,北京市,天坛,,48,43,46,33,31,84,,75,75,11,13,4,4,0.6,0.6
2025-09-05T1400,1005A,116.462,39.9365,北京市,农展馆,细颗粒物(PM2.5),57,55,54,40,34,78,,86,86,19,18,2,2,0.5,0.5
2025-09-05T1400,1006A,116.3392,39.9295,北京市,官园,细颗粒物(PM2.5),57,56,50,40,30,88,,81,81,21,23,2,3,0.6,0.6
2025-09-05T1400,1007A,116.2878,39.9611,北京市,海淀万柳,细颗粒物(PM2.5),52,44,51,36,30,72,,53,53,14,23,3,4,0.5,0.6
2025-09-05T1400,1008A,116.6636,40.135,北京市,顺义新城,,,,,,,,,,,,,,,,
2025-09-05T1400,1009A,116.6275,40.3275,北京市,怀柔镇,,32,18,59,17,46,102,,72,72,6,13,3,1,0.6,0.8
2025-09-05T1400,1010A,116.2296,40.217,北京市,昌平镇,,25,18,54,16,42,77,,61,61,7,16,3,4,0.6,0.7
2025-09-05T1400,1011A,116.3966,39.9821,北京市,奥体中心,,47,47,49,30,30,80,,74,74,15,18,3,4,0.4,0.5
2025-09-05T1400,3281A,115.9718,40.4529,北京市,延庆夏都,,29,17,50,13,37,92,,80,80,6,10,2,2,0.5,0.6
2025-09-05T1400,3418A,116.8336,40.4095,北京市,密云新城,细颗粒物(PM2.5),64,58,57,46,44,89,,63,63,6,6,2,2,0.6,0.6
2025-09-05T1400,3671A,116.088,39.9726,北京市,门头沟三家店,,28,20,47,15,32,87,,43,43,3,18,3,3,0.5,0.6
2025-09-05T1400,3672A,116.1541,39.8204,北京市,丰台云岗,,38,37,61,26,31,67,,42,42,7,29,2,3,0.5,0.6
2025-09-05T1400,3673A,116.6804,39.9081,北京市,通州东关,细颗粒物(PM2.5),52,46,62,36,43,112,,89,89,14,20,3,4,0.8,0.8
2025-09-05T1400,3674A,115.9577,39.7603,北京市,房山燕山,,28,25,44,17,31,89,,64,64,4,10,1,1,0.5,0.5
2025-09-05T1400,3675A,116.4672,39.7733,北京市,大兴旧宫,颗粒物(PM10),52,54,60,35,38,99,,77,77,6,12,2,3,0.7,0.7
2025-09-05T1400,3694A,115.986,40.4563,北京市,延庆石河营,,27,18,52,13,38,84,,68,68,4,6,1,1,0.4,0.5
2025-09-05T1400,3695A,116.6151,40.3053,北京市,怀柔新城,,33,17,58,13,46,105,,72,72,2,8,3,4,0.5,0.7
2025-09-05T1400,3696A,116.2545,39.8768,北京市,丰台小屯,,44,44,55,30,35,81,,58,58,9,21,1,2,0.5,0.6
2025-09-05T1400,3697A,116.84,40.3844,北京市,密云镇,细颗粒物(PM2.5),58,51,59,41,42,94,,70,70,10,13,4,5,0.7,0.7
2025-09-05T1400,4182A,116.1942,39.9158,北京市,八角北路9号,,35,35,60,22,32,101,,54,54,6,27,4,4,0.5,0.6
2025-09-05T1400,4194A,117.0790,40.1518,北京市,洳河巡河路,细颗粒物(PM2.5),69,72,67,50,49,98,,90,90,9,10,4,4,0.6,0.7
2025-09-05T1400,1761A,123.8275,41.3064,本溪市,大峪,,30,16,34,11,15,94,,62,62,5,14,6,6,0.4,0.7
2025-09-05T1400,1762A,123.7567,41.3325,本溪市,溪湖,,38,38,53,11,18,85,,56,56,2,16,7,7,0.8,1.1
2025-09-05T1400,1763A,123.7169,41.3094,本溪市,彩屯,,,,47,,28,,,62,,,29,,11,,1.3
2025-09-05T1400,1764A,123.7669,41.2864,本溪市,东明,,37,37,49,9,17,87,,60,60,9,25,4,5,0.6,1
2025-09-05T1400,1765A,123.7992,41.2664,本溪市,新立屯,,28,21,30,6,12,88,,60,60,6,22,5,5,0.4,0.6
2025-09-05T1400,1766A,123.8142,41.3472,本溪市,威宁,,,,39,,18,88,,11,,3,15,4,4,0.4,0.7
2025-09-05T1400,2587A,105.2864,27.3125,毕节市,八中,,25,24,31,15,27,78,,50,50,4,8,7,9,0.5,0.6
2025-09-05T1400,2588A,105.31,27.2944,毕节市,师专,,24,18,34,15,21,76,,50,50,5,8,6,11,0.5,0.5
2025-09-05T1400,4263A,105.3688,27.3598,毕节市,工业大道,,25,23,28,3,19,77,,54,54,6,8,7,7,0.6,0.6
2025-09-05T1400,1629A,118.0018,37.3617,滨州市,第二水厂,细颗粒物(PM2.5),55,51,41,39,26,114,,81,81,13,15,4,5,0.7,0.5
2025-09-05T1400,1630A,117.9776,37.393,滨州市,北中新校,细颗粒物(PM2.5),55,48,38,39,26,109,,81,81,12,18,3,4,0.2,0.1
2025-09-05T1400,3514A,117.9378,37.3956,滨州市,中海酒店,,49,46,42,34,26,106,,83,83,11,14,3,4,0.7,0.6
2025-09-05T1400,3515A,117.9378,37.3553,滨州市,开发区一中,颗粒物(PM10),53,56,44,36,26,111,,77,77,16,16,5,6,0.6,0.5
2025-09-05T1400,3516A,118.0917,37.694,滨州市,金海六路,细颗粒物(PM2.5),73,,31,53,29,89,,83,83,20,13,4,5,0.3,0.2
2025-09-05T1400,4028A,117.9956,37.3753,滨州市,滨州市西街道办事处,细颗粒物(PM2.5),58,,34,41,27,116,,82,82,14,16,3,3,0.5,0.4
2025-09-05T1400,2311A,115.8072,33.8399,亳州市,污水处理厂,,40,26,30,25,23,127,,71,71,7,12,2,5,0.7,0.6
2025-09-05T1400,2312A,115.7789,33.8518,亳州市,三国揽胜宫,,43,40,39,20,26,136,,82,82,6,10,4,6,0.7,0.8
2025-09-05T1400,3332A,115.7633,33.8034,亳州市,亳州学院,,46,31,32,27,24,147,,85,85,5,10,4,6,0.6,0.6
2025-09-05T1400,2693A,82.0485,44.8556,博尔塔拉蒙古自治州,市党校,,28,,41,18,19,89,,58,58,5,9,5,4,0.3,0.3
2025-09-05T1400,2694A,82.0806,44.8969,博尔塔拉蒙古自治州,市环保局,,38,38,44,26,20,90,,52,52,7,14,8,7,0.4,0.4
2025-09-05T1400,1071A,116.8842,38.2991,沧州市,沧县城建局,,37,37,47,23,33,100,,75,75,7,23,2,4,0.3,0.5
2025-09-05T1400,1072A,116.8584,38.3254,沧州市,电视转播站,颗粒物(PM10),53,55,54,36,32,81,,73,73,13,18,2,5,0.5,0.5
2025-09-05T1400,1073A,116.8709,38.3228,沧州市,市环保局,细颗粒物(PM2.5),53,54,58,37,36,97,,76,76,9,17,4,6,0.3,0.4
2025-09-05T1400,3324A,116.8136,38.3004,沧州市,河北水利电力学院,,39,31,48,27,37,101,,84,82,13,18,5,8,0.3,0.5
2025-09-05T1400,2622A,97.1806,31.1273,昌都市,昌都监测站,,24,8,6,3,5,75,,65,56,5,4,3,3,0.3,0.2
2025-09-05T1400,3719A,97.1714,31.1406,昌都市,昌都会议中心,,29,6,8,3,5,90,,66,62,2,4,3,3,0.2,0.2
2025-09-05T1400,2690A,88.1236,43.8886,昌吉回族自治州,天山天池,,16,12,6,8,3,51,,40,40,10,8,3,3,0.6,0.5
2025-09-05T1400,2692A,87.2717,44.0297,昌吉回族自治州,新区政务中心,,29,24,32,20,13,88,,38,38,9,25,9,7,0.3,0.5
2025-09-05T1400,3613A,87.3095,44.0142,昌吉回族自治州,亚心广场,,32,31,56,22,19,92,,40,40,11,36,11,9,0.4,0.6
2025-09-05T1400,1120A,125.2863,43.9027,长春市,客车厂,,33,29,65,16,25,105,,95,95,10,37,4,4,0.4,0.6
2025-09-05T1400,1121A,125.2841,43.8463,长春市,邮电学院,,,28,42,18,21,112,,94,94,,23,5,5,0.5,0.7
2025-09-05T1400,1122A,125.3716,43.8772,长春市,劳动公园,,33,31,53,8,23,105,,87,87,7,29,8,8,0.3,0.5
2025-09-05T1400,1123A,125.3297,43.8805,长春市,园林处,,35,20,37,10,18,109,,86,86,5,23,5,5,0.6,0.7
2025-09-05T1400,1124A,125.4605,43.79,长春市,净月潭,,32,22,23,10,10,102,,82,82,4,5,5,5,0.3,0.3
2025-09-05T1400,1125A,125.7194,43.515,长春市,甩湾子,,,,,,,,,,,,,,,,
2025-09-05T1400,1126A,125.3863,43.8447,长春市,经开区环卫处,,30,27,40,9,17,95,,82,82,7,28,4,4,0.5,0.7
2025-09-05T1400,1127A,125.245,43.7783,长春市,高新区管委会,,34,28,33,13,18,107,,87,87,5,23,3,3,0.4,0.5
2025-09-05T1400,1128A,125.1761,43.8325,长春市,岱山公园,,34,28,48,15,21,106,,91,91,8,39,4,4,0.4,0.5
2025-09-05T1400,4281A,125.3346,43.9164,长春市,北亚泰大街1068号,,33,33,52,13,22,104,,86,86,9,29,7,8,0.4,0.6
2025-09-05T1400,1335A,113.0833,28.2325,长沙市,经开区环保局,,42,42,41,22,26,130,,100,100,6,11,6,6,0.5,0.4
2025-09-05T1400,1336A,112.8872,28.2189,长沙市,高开区环保局,,32,29,38,13,19,100,,89,89,5,9,5,7,0.3,0.4
2025-09-05T1400,1337A,113.0792,28.2053,长沙市,马坡岭,,46,33,41,20,26,146,,110,110,3,9,7,7,0.5,0.6
2025-09-05T1400,1338A,112.9394,28.19,长沙市,湖南师范大学,,35,34,36,12,22,109,,99,99,3,11,5,6,0.4,0.6
2025-09-05T1400,1339A,113.0178,28.1322,长沙市,雨花区环保局,,37,32,37,18,20,116,,98,98,2,8,7,8,0.5,0.5
2025-09-05T1400,1340A,112.9792,28.2597,长沙市,伍家岭,,,27,38,24,21,110,,98,98,3,10,,4,0.3,0.3
2025-09-05T1400,1341A,113.0014,28.1944,长沙市,火车新站,,35,26,39,14,21,112,,99,99,1,8,7,8,0.4,0.5
2025-09-05T1400,1342A,112.9844,28.1178,长沙市,天心区环保局,,37,32,36,13,22,116,,98,98,5,14,4,6,0.2,0.4
2025-09-05T1400,1343A,112.8908,28.1308,长沙市,湖南中医药大学,,36,36,37,18,23,107,,91,91,1,10,4,6,0.5,0.6
2025-09-05T1400,1344A,112.9581,28.3611,长沙市,沙坪,,40,27,36,21,21,126,,108,108,2,11,3,3,0.3,0.4
2025-09-05T1400,1727A,113.1147,36.1547,长治市,清华站,,20,20,20,9,13,49,,76,46,13,9,7,7,0.9,1
2025-09-05T1400,1730A,113.0886,36.2125,长治市,审计局,,18,15,17,12,16,53,,80,49,15,9,5,6,1.0,0.9
2025-09-05T1400,1731A,113.0844,36.1856,长治市,长治八中,,26,,18,18,18,54,,73,47,8,6,8,8,1.0,1
2025-09-05T1400,2845A,113.1569,36.1911,长治市,德盛苑,,16,15,20,9,10,49,,64,49,11,7,7,7,1.1,1
2025-09-05T1400,3568A,113.06,36.0464,长治市,向阳小学,,46,46,44,19,20,73,,69,57,12,11,3,4,1.1,1.1
2025-09-05T1400,3569A,112.8792,36.3144,长治市,屯留一中,,17,14,32,6,26,52,,68,53,15,16,7,9,0.8,1
2025-09-05T1400,4189A,113.1131,36.19948,长治市,英华南巷50号,,,,22,,19,57,,71,46,11,9,7,7,1.0,1
2025-09-05T1400,4190A,113.2367,36.3344,长治市,学府街1号,,34,34,23,22,20,49,,83,57,21,9,1,2,1.9,0.9
2025-09-05T1400,1854A,111.6975,28.9703,常德市,市二中,,30,27,44,18,33,93,,68,68,3,13,5,7,0.5,0.7
2025-09-05T1400,1857A,111.7158,29.1456,常德市,白鹤山,,,,,,,,,,,,,,,,
2025-09-05T1400,3138A,111.7153,29.0289,常德市,武陵区永安,,31,28,48,14,31,98,,74,74,2,9,5,6,0.3,0.5
2025-09-05T1400,3139A,111.6892,28.9881,常德市,鼎城区玉霞,,31,24,44,15,33,97,,68,68,2,8,5,5,0.3,0.5
2025-09-05T1400,3140A,111.6625,29.0531,常德市,武陵区长庚,,28,22,46,17,36,88,,67,67,2,9,5,7,0.4,0.6
2025-09-05T1400,1196A,119.9633,31.762,常州市,市监测站,臭氧1小时,80,42,46,24,32,184,,126,126,6,22,14,14,0.5,0.8
2025-09-05T1400,1200A,119.9468,31.7069,常州市,武进监测站,,43,34,46,19,28,137,,93,93,3,22,7,9,0.5,0.8
2025-09-05T1400,1201A,119.9255,31.9087,常州市,安家,,,44,45,31,30,,,10,10,25,22,10,11,0.7,1
2025-09-05T1400,3002A,119.9805,31.8174,常州市,行政中心,臭氧1小时,84,35,49,25,29,187,,121,121,10,27,3,4,0.5,0.8
2025-09-05T1400,3003A,120.0522,31.7748,常州市,经开区,臭氧1小时,90,37,54,25,29,192,,124,124,17,30,5,5,0.8,1
2025-09-05T1400,3010A,119.9025,31.7964,常州市,钟楼,,50,30,47,19,28,157,,121,121,8,24,7,9,0.6,0.9
2025-09-05T1400,3429A,119.8598,31.7066,常州市,武进经发区,,50,25,49,17,27,157,,113,113,2,24,9,11,0.5,0.9
2025-09-05T1400,3430A,119.5826,31.7245,常州市,金坛城区,臭氧1小时,63,24,42,18,27,170,,115,115,6,19,7,9,0.5,0.8
2025-09-05T1400,2220A,120.4318,41.5881,朝阳市,西梁,颗粒物(PM10),54,58,49,34,38,117,,100,100,9,10,5,5,1.0,0.9
2025-09-05T1400,2221A,120.4521,41.5646,朝阳市,河畔小区,,,56,48,34,35,126,,114,114,4,5,,5,0.9,0.7
2025-09-05T1400,2222A,120.4176,41.5648,朝阳市,八里堡,颗粒物(PM10),58,65,52,31,37,127,,105,105,12,10,7,6,1.0,0.9
2025-09-05T1400,2223A,120.3806,41.5969,朝阳市,农业园区,,50,47,46,35,38,132,,103,103,5,11,4,4,1.0,0.8
2025-09-05T1400,1705A,116.6367,23.6719,潮州市,西园路,,45,28,26,26,18,144,,71,71,12,12,6,6,0.3,0.3
2025-09-05T1400,3026A,116.6183,23.6608,潮州市,市政府,,43,36,36,22,17,137,,71,71,12,12,9,8,0.6,0.6
2025-09-05T1400,4036A,116.6461,23.6761,潮州市,金山,,48,43,29,18,19,151,,70,70,10,11,8,7,0.6,0.6
2025-09-05T1400,2472A,113.0073,25.9061,郴州市,马头岭,,39,27,32,16,15,124,,84,84,7,17,6,7,0.5,0.5
2025-09-05T1400,2473A,113.0116,25.8226,郴州市,市职中,,39,26,30,20,23,123,,85,85,5,13,4,8,0.5,0.6
2025-09-05T1400,2475A,113.0383,25.8071,郴州市,市审计局,,43,23,28,14,19,136,,106,106,8,10,6,10,0.4,0.5
2025-09-05T1400,2476A,113.0348,25.7759,郴州市,市环保局,,44,29,31,18,22,138,,100,100,6,11,5,10,0.4,0.4
2025-09-05T1400,4252A,113.0138,25.8011,郴州市,好美居路49号,,40,30,29,21,19,127,,92,92,5,12,5,11,0.3,0.4
2025-09-05T1400,1431A,103.9728,30.7236,成都市,金泉两河,,,,52,6,30,66,,34,31,11,18,2,4,0.5,0.8
2025-09-05T1400,1432A,104.176,30.6872,成都市,十里店,,24,,65,3,37,76,,34,34,8,25,2,4,0.4,0.6
2025-09-05T1400,1433A,104.079,30.5706,成都市,三瓦窑,,32,32,59,14,40,82,,38,38,9,34,2,3,0.4,0.6
2025-09-05T1400,1434A,104.1114,30.63,成都市,沙河铺,,21,21,61,3,37,67,,32,32,6,20,4,4,0.4,0.7
2025-09-05T1400,1437A,104.0786,30.6531,成都市,君平街,,25,13,64,10,40,80,,42,42,4,20,3,4,0.3,0.5
2025-09-05T1400,1438A,103.613,31.0283,成都市,灵岩寺,,,,,,,,,,,,,,,,
2025-09-05T1400,2880A,104.0239,30.65639,成都市,大石西路,,30,30,60,14,40,71,,31,31,9,23,2,3,0.5,0.7
2025-09-05T1400,3136A,104.2725,30.5589,成都市,龙泉驿区区政府,,26,6,31,3,17,82,,44,44,9,14,5,5,0.6,0.7
2025-09-05T1400,3357A,104.0106,30.6931,成都市,金博路,,22,13,49,3,29,70,,28,27,9,23,5,7,0.4,0.7
2025-09-05T1400,3359A,104.0578,30.5225,成都市,华阳,,25,9,54,7,42,77,,33,32,10,28,1,2,0.5,0.7
2025-09-05T1400,3488A,104.3853,30.7453,成都市,青白江技师分院,,24,20,44,14,30,76,,35,35,8,24,3,3,0.3,0.6
2025-09-05T1400,3489A,104.0789,30.4072,成都市,科学城,,25,6,59,3,40,78,,39,39,7,21,4,5,0.5,0.7
2025-09-05T1400,4011A,103.8506,30.6947,成都市,光华大道三段,,24,24,56,3,36,62,,32,31,12,21,2,4,0.5,0.7
2025-09-05T1400,4224A,104.2433,30.5353,成都市,鲸龙路1057号,,25,6,49,3,32,77,,41,41,12,22,4,4,0.4,0.6
2025-09-05T1400,1062A,117.9531,40.9081,承德市,铁路,颗粒物(PM10),59,68,58,30,35,89,,82,82,23,22,3,4,0.6,0.6
2025-09-05T1400,1063A,117.9392,40.9763,承德市,中国银行,细颗粒物(PM2.5),73,67,54,53,42,92,,92,92,12,13,1,2,0.7,0.6
2025-09-05T1400,1064A,117.9503,40.928,承德市,开发区,细颗粒物(PM2.5),63,52,52,45,29,118,,96,96,7,14,4,4,0.6,0.7
2025-09-05T1400,1066A,117.9268,41.0026,承德市,离宫,颗粒物(PM10),55,59,48,33,21,72,,73,73,6,7,5,6,0.6,0.5
2025-09-05T1400,4274A,117.7994,40.9605,承德市,滨河大街98号,,,,43,47,34,87,,83,83,,8,1,4,0.6,0.5
2025-09-05T1400,2314A,117.47,30.6618,池州市,池州学院,,37,27,34,18,23,118,,94,94,4,10,9,7,0.7,0.8
2025-09-05T1400,3237A,117.4918,30.6617,池州市,展览馆,,39,29,35,18,21,124,,92,92,4,11,8,7,0.8,0.8
2025-09-05T1400,3333A,117.5627,30.695,池州市,第八中学,,45,32,35,23,22,142,,96,96,5,9,8,6,0.9,0.8
2025-09-05T1400,3334A,117.5038,30.6243,池州市,第十二中学,,41,27,34,24,23,129,,89,89,4,16,7,5,0.9,1
2025-09-05T1400,1744A,118.9233,42.2816,赤峰市,松山一中,,38,38,38,26,20,110,,102,102,11,15,7,7,0.8,0.7
2025-09-05T1400,1745A,118.9576,42.2728,赤峰市,哈达街,,41,41,38,20,19,99,,97,97,14,17,11,12,0.6,0.6
2025-09-05T1400,1746A,118.8788,42.2554,赤峰市,天义路,,46,,21,32,26,102,,100,100,16,15,9,12,0.4,0.4
2025-09-05T1400,3058A,119.2658,42.0353,赤峰市,银河街,颗粒物(PM10),52,54,60,24,39,97,,84,84,10,7,22,18,0.7,0.9
2025-09-05T1400,3286A,118.9359,42.3147,赤峰市,桥北物流园区,,35,35,47,18,32,74,,67,67,19,24,8,13,0.7,1
2025-09-05T1400,2521A,107.3476,22.4136,崇左市,市环保局江州分局,,20,14,22,9,12,62,,45,45,3,11,6,7,0.5,0.6
2025-09-05T1400,4256A,107.3750,22.3736,崇左市,石景林东路7号,,18,,20,9,14,57,,48,48,3,10,4,4,0.4,0.4
2025-09-05T1400,2298A,118.3093,32.3153,滁州市,老年大学,臭氧1小时,68,41,39,29,30,174,,132,132,2,8,8,6,0.5,0.4
2025-09-05T1400,2299A,118.3244,32.2786,滁州市,人大宾馆,臭氧1小时,103,32,31,22,27,205,,139,139,3,13,6,5,0.6,0.5
2025-09-05T1400,3207A,118.3118,32.3038,滁州市,市政府原办公楼,臭氧1小时,72,36,37,36,31,177,,132,132,4,11,6,5,0.6,0.5
2025-09-05T1400,3331A,118.3267,32.2634,滁州市,图书馆,臭氧1小时,105,39,32,12,24,210,,140,140,5,10,13,12,0.7,0.5
2025-09-05T1400,2605A,101.5482,25.0441,楚雄彝族自治州,州环境监测站,,16,16,12,6,9,36,,25,25,1,7,6,7,0.4,0.4
2025-09-05T1400,2606A,101.538,25.0492,楚雄彝族自治州,市经济开发区,,25,25,31,13,13,38,,24,24,6,10,7,6,0.5,0.6
2025-09-05T1400,2548A,107.5277,31.2827,达州市,达州职业技术学院,,38,38,59,26,31,60,,30,30,11,23,8,9,0.7,0.6
2025-09-05T1400,2549A,107.5086,31.2186,达州市,市环境监测站,颗粒物(PM10),51,52,47,24,23,47,,20,20,27,28,6,7,0.5,0.6
2025-09-05T1400,2550A,107.4988,31.2132,达州市,凤凰小区,颗粒物(PM10),51,51,43,34,27,37,,16,16,27,25,7,2,0.6,0.5
2025-09-05T1400,2551A,107.5082,31.1986,达州市,达县机关宾馆,颗粒物(PM10),54,58,50,16,26,54,,28,28,30,28,5,6,0.5,0.5
2025-09-05T1400,2552A,107.4644,31.2124,达州市,市政中心,颗粒物(PM10),55,59,54,34,28,53,,25,25,15,25,4,5,0.3,0.5
2025-09-05T1400,2614A,100.1542,25.7054,大理白族自治州,大理市环境监测站,,22,,13,15,18,49,,36,36,6,7,5,4,0.5,0.5
2025-09-05T1400,2615A,100.2171,25.5811,大理白族自治州,大理古城,,20,14,14,3,9,62,,44,44,2,8,5,6,0.7,0.7
2025-09-05T1400,1109A,121.612,38.9741,大连市,甘井子,,36,21,30,15,23,115,,100,100,9,17,6,7,0.3,0.4
2025-09-05T1400,1110A,121.565,38.9511,大连市,周水子,,32,24,28,10,20,100,,80,80,5,18,7,10,0.3,0.4
2025-09-05T1400,1111A,121.5637,38.8845,大连市,星海三站,,38,28,31,19,23,121,,100,100,10,14,4,4,0.4,0.4
2025-09-05T1400,1112A,121.6302,38.9117,大连市,青泥洼桥,,,13,33,8,22,100,,89,89,7,16,7,8,,0.6
2025-09-05T1400,1113A,121.6251,38.8638,大连市,傅家庄,,35,26,27,20,24,112,,98,98,6,12,12,12,0.5,0.5
2025-09-05T1400,1114A,121.5213,38.8661,大连市,七贤岭,,39,29,29,18,19,123,,96,96,5,8,8,7,0.5,0.6
2025-09-05T1400,1115A,121.2529,38.8061,大连市,旅顺,,37,26,22,17,20,116,,97,97,2,9,7,7,0.4,0.4
2025-09-05T1400,1116A,121.7485,39.1311,大连市,金州,,34,15,27,11,17,108,,98,98,9,14,7,7,0.2,0.4
2025-09-05T1400,1117A,121.7811,39.0496,大连市,开发区,,,27,34,14,23,94,,84,84,17,23,,6,0.3,0.5
2025-09-05T1400,1118A,121.9762,39.0631,大连市,双D港,,35,30,32,16,22,109,,90,90,5,6,10,10,0.4,0.6
2025-09-05T1400,1789A,124.81117,46.03138,大庆市,大同区,,42,42,45,11,23,111,,96,96,11,12,8,8,0.8,1
2025-09-05T1400,1790A,125.129,46.533,大庆市,龙凤区,,42,42,39,14,20,110,,93,93,11,12,7,8,0.8,0.9
2025-09-05T1400,1791A,124.902,46.408,大庆市,红岗区,,40,39,43,24,23,125,,102,102,8,10,6,6,0.7,0.8
2025-09-05T1400,1792A,125.153,46.586,大庆市,萨尔图区,,44,44,50,23,25,109,,91,91,11,13,9,9,0.7,0.8
2025-09-05T1400,1793A,124.9042,46.6215,大庆市,让胡路区,,39,39,47,19,23,122,,97,97,7,10,6,7,0.4,0.6
2025-09-05T1400,3481A,125.141,46.634,大庆市,萨区政府监测点,,48,48,51,14,22,127,,107,107,7,10,8,8,0.5,0.7
2025-09-05T1400,1721A,113.3819,40.1097,大同市,果树场,,23,,23,8,16,72,,74,74,7,14,5,4,0.3,0.3
2025-09-05T1400,1723A,113.2994,40.0758,大同市,云冈宾馆,,28,7,32,3,19,89,,88,86,8,12,4,5,0.7,0.7
2025-09-05T1400,1724A,113.3444,40.0917,大同市,大同大学,,28,12,29,12,18,87,,85,84,11,19,6,7,0.6,0.6
2025-09-05T1400,1725A,113.2661,40.1269,大同市,安家小村,,28,,36,9,17,87,,87,87,8,16,2,3,0.7,0.6
2025-09-05T1400,1726A,113.2711,40.0844,大同市,教育学院,,26,14,32,10,19,82,,86,84,11,13,6,7,0.7,0.6
2025-09-05T1400,3282A,113.3397,40.0597,大同市,大同市卫生学校,,28,,33,14,18,87,,86,85,8,14,6,7,0.6,0.6
2025-09-05T1400,3565A,113.1367,40.1122,大同市,云冈站,,25,14,46,9,19,77,,76,75,5,10,4,5,0.9,0.9
2025-09-05T1400,3566A,113.1186,40.2556,大同市,图书馆,,26,12,47,7,20,81,,76,76,5,14,3,4,0.5,0.7
2025-09-05T1400,3567A,113.5931,40.0461,大同市,区一中,,26,,19,3,17,81,,88,88,11,11,12,10,0.4,0.4
2025-09-05T1400,4199A,113.2798,40.0997,大同市,魏都大道141号,,28,12,30,7,19,88,,88,88,9,13,2,4,0.6,0.6
2025-09-05T1400,2269A,124.1069,50.4097,大兴安岭地区,科技局,,21,21,36,9,11,56,,23,23,4,6,4,5,0.4,0.3
2025-09-05T1400,3663A,124.1164,50.4278,大兴安岭地区,红旗社区,,22,22,25,9,8,65,,22,22,5,9,4,4,0.4,0.4
2025-09-05T1400,1600A,124.3303,40.0625,丹东市,江湾东路,,28,16,41,8,24,88,,58,58,8,16,9,6,0.6,0.8
2025-09-05T1400,1601A,124.4256,40.1503,丹东市,临江后街,,26,21,51,6,21,83,,55,55,5,15,8,7,0.6,0.7
2025-09-05T1400,1602A,124.3933,40.1461,丹东市,元宝山,,24,12,35,8,20,74,,49,49,9,14,7,6,0.7,0.8
2025-09-05T1400,1603A,124.3633,40.1092,丹东市,民主桥,,27,21,40,6,21,84,,52,52,6,21,8,7,0.6,0.7
2025-09-05T1400,3541A,109.5726,19.5167,儋州市,第一中学子站,,14,9,16,3,7,42,,30,30,1,4,5,6,0.4,0.5
2025-09-05T1400,3542A,109.5567,19.5187,儋州市,东坡学校子站,,13,10,14,3,6,41,,30,30,2,5,7,9,0.3,0.5
2025-09-05T1400,2616A,98.5842,24.428,德宏傣族景颇族自治州,德宏州监测站,,26,23,24,12,14,82,,35,35,6,9,8,12,0.3,0.4
2025-09-05T1400,3677A,98.5881,24.4368,德宏傣族景颇族自治州,芒市人民政府综合楼,,40,40,31,13,13,73,,33,33,5,8,7,15,0.3,0.4
2025-09-05T1400,1901A,104.4239,31.1208,德阳市,东山公园,,24,,26,3,22,76,,38,38,3,14,4,4,0.5,0.7
2025-09-05T1400,1902A,104.3826,31.1317,德阳市,西小区,,25,15,40,3,25,79,,38,38,7,18,3,3,0.6,0.9
2025-09-05T1400,1904A,104.3553,31.1091,德阳市,耐火材料厂,,24,13,39,6,24,74,,30,30,12,20,5,5,0.6,0.8
2025-09-05T1400,3639A,104.4019,31.1244,德阳市,市教育局,,25,9,36,3,24,79,,39,39,3,15,2,2,0.9,1.1
2025-09-05T1400,1622A,116.3032,37.4674,德州市,儿童乐园,,33,24,60,14,46,103,,105,105,11,26,8,11,0.6,0.8
2025-09-05T1400,1624A,116.2991,37.4451,德州市,监理站,,34,17,55,14,36,106,,101,101,13,21,11,13,0.6,0.7
2025-09-05T1400,3066A,116.2721,37.4379,德州市,九衢泉纯净水厂,,32,,68,22,45,92,,90,90,11,41,6,7,0.5,0.7
2025-09-05T1400,3371A,116.3728,37.4403,德州市,开发区人民医院,,28,22,57,19,38,87,,82,82,11,24,8,10,0.9,1.2
2025-09-05T1400,3511A,116.5652,37.3319,德州市,陵城艺术中心,,31,27,62,19,39,98,,92,92,10,16,13,13,0.9,1
2025-09-05T1400,4292A,116.3525,37.4209,德州市,新河东路,,32,29,58,22,41,92,,86,86,12,28,7,8,0.8,0.9
2025-09-05T1400,2621A,99.7056,27.8317,迪庆藏族自治州,迪庆州站,,15,10,16,3,11,45,,34,34,4,5,6,6,0.4,0.4
2025-09-05T1400,3180A,99.7136,27.8094,迪庆藏族自治州,质量技术监督局,,16,12,16,7,7,50,,35,35,5,6,6,6,0.4,0.4
2025-09-05T1400,4257A,104.6092,35.5962,定西市,将台街,颗粒物(PM10),58,66,64,23,28,109,,102,98,6,9,8,7,0.2,0.3
2025-09-05T1400,4309A,104.6159,35.5701,定西市,正龙路62号,颗粒物(PM10),65,80,79,22,32,117,,114,109,5,7,6,5,0.2,0.2
2025-09-05T1400,1389A,113.7547,23.0494,东莞市,莞城梨川,,48,,24,19,14,152,,54,54,11,26,5,7,0.3,0.4
2025-09-05T1400,1390A,113.7944,23.0128,东莞市,东城石井,臭氧1小时,67,26,30,20,11,173,,65,65,12,23,4,5,0.4,0.4
2025-09-05T1400,1391A,113.7383,22.9658,东莞市,南城西平,臭氧1小时,58,,21,27,11,166,,61,61,15,29,4,6,0.4,0.4
2025-09-05T1400,3319A,113.7338,23.0381,东莞市,万江金泰,,42,24,22,13,9,134,,50,50,9,25,4,5,0.6,0.6
2025-09-05T1400,3626A,113.7533,23.0202,东莞市,南城元岭,,46,28,20,14,8,145,,55,55,11,27,4,6,0.3,0.3
2025-09-05T1400,3627A,113.7875,23.0457,东莞市,东城主山,臭氧1小时,72,38,28,16,11,177,,62,62,14,27,7,7,0.4,0.4
2025-09-05T1400,1666A,118.6614,37.4309,东营市,市环保局,,41,24,21,12,12,129,,95,95,11,14,7,7,0.2,0.3
2025-09-05T1400,3036A,118.6904,37.4338,东营市,开发区管委会,,41,34,29,12,12,131,,103,103,11,14,7,7,0.3,0.4
2025-09-05T1400,3365A,118.5719,37.565,东营市,垦利区民丰路,细颗粒物(PM2.5),64,61,28,46,19,123,,96,96,17,15,8,7,1.1,0.8
2025-09-05T1400,3498A,118.5055,37.8612,东营市,河口城区,细颗粒物(PM2.5),55,48,24,39,9,113,,113,113,18,11,5,5,1.2,0.8
2025-09-05T1400,3646A,118.4978,37.4623,东营市,胜利站,细颗粒物(PM2.5),58,49,31,41,16,127,,99,99,19,17,6,5,0.7,0.4
2025-09-05T1400,3734A,118.35,37.26,东营市,理想之城,颗粒物(PM10),56,61,25,36,17,138,,89,89,24,21,8,5,0.7,0.4
2025-09-05T1400,1591A,110.0023,39.8129,鄂尔多斯市,综合楼,,48,48,53,12,22,85,,92,88,5,11,3,4,0.3,0.5
2025-09-05T1400,1592A,109.9486,39.8261,鄂尔多斯市,巴音孟克林场办事处,颗粒物(PM10),54,58,60,17,22,88,,96,93,6,11,6,6,0.2,0.3
2025-09-05T1400,1593A,109.7736,39.5986,鄂尔多斯市,康泽苑,颗粒物(PM10),52,53,65,12,25,81,,85,78,4,9,8,7,0.3,0.4
2025-09-05T1400,1594A,109.8119,39.5989,鄂尔多斯市,华泰汽车城,颗粒物(PM10),51,51,61,17,27,81,,86,77,6,9,8,7,0.3,0.5
2025-09-05T1400,1595A,109.9734,39.7884,鄂尔多斯市,奥林花园,,,58,61,,25,84,,92,88,5,10,6,6,0.4,0.6
2025-09-05T1400,2436A,114.8938,30.3994,鄂州市,市政府,颗粒物(PM10),51,51,47,21,21,155,,118,118,10,17,8,9,0.7,0.6
2025-09-05T1400,2437A,114.8989,30.3714,鄂州市,赵家坝,颗粒物(PM10),53,56,50,26,18,147,,104,104,11,14,12,10,0.7,0.6
2025-09-05T1400,3654A,114.8094,30.4089,鄂州市,精准医疗中心,,43,27,42,10,23,137,,108,108,3,18,6,8,0.6,0.9
2025-09-05T1400,2454A,109.4978,30.2981,恩施土家族苗族自治州,湖北民院,,24,24,26,3,15,75,,50,50,5,10,6,6,0.4,0.5
2025-09-05T1400,2455A,109.4707,30.2798,恩施土家族苗族自治州,州电力总公司,,22,21,21,9,14,70,,43,43,2,9,5,5,0.3,0.4
2025-09-05T1400,3549A,109.5061,30.3772,恩施土家族苗族自治州,龙凤新区,,28,22,22,8,13,89,,63,63,2,5,5,6,0.4,0.4
2025-09-05T1400,2499A,108.3411,21.6158,防城港市,沙万,,28,28,27,7,8,65,,49,49,5,14,3,3,0.4,0.4
2025-09-05T1400,2500A,108.3514,21.7731,防城港市,防城档案局,,30,30,24,14,13,74,,41,41,9,11,4,3,0.5,0.5
2025-09-05T1400,2501A,108.3506,21.6414,防城港市,大海花园,,44,44,22,6,9,70,,53,53,8,10,5,5,0.4,0.5
2025-09-05T1400,1371A,113.1294,23.0067,佛山市,湾梁,,41,31,19,18,19,131,,62,62,20,20,6,6,0.6,0.5
2025-09-05T1400,1372A,113.1083,23.0478,佛山市,华材职中,,45,24,19,8,10,141,,67,67,6,13,4,4,0.6,0.5
2025-09-05T1400,1373A,113.144,23.0453,佛山市,南海气象局,,39,22,22,7,10,122,,63,63,7,14,5,5,0.6,0.6
2025-09-05T1400,1374A,113.2881,22.8094,佛山市,顺德苏岗,,31,18,16,12,5,98,,47,47,8,15,6,6,0.4,0.5
2025-09-05T1400,1376A,112.8383,22.8678,佛山市,高明孔堂,,33,,17,7,8,103,,56,56,6,10,2,3,0.7,0.5
2025-09-05T1400,1377A,112.8836,23.1588,佛山市,三水监测站,,39,24,22,21,15,124,,62,62,7,18,9,6,0.4,0.4
2025-09-05T1400,1378A,112.867,23.185,佛山市,三水云东海,,44,29,25,12,10,139,,67,67,7,20,3,4,0.5,0.5
2025-09-05T1400,3625A,113.2544,22.7642,佛山市,容桂街道办,,39,19,12,14,9,124,,58,58,14,17,6,6,0.6,0.6
2025-09-05T1400,1280A,119.3903,26.0543,福州市,鼓山,,,,32,,18,,,109,,,9,,2,,0.5
2025-09-05T1400,1282A,119.2681,26.0504,福州市,师大,,33,11,38,3,27,104,,92,92,4,11,5,6,0.2,0.4
2025-09-05T1400,1283A,119.2984,26.1028,福州市,五四北路,,35,18,33,9,24,112,,88,88,6,11,4,4,0.2,0.4
2025-09-05T1400,1284A,119.2648,26.0768,福州市,杨桥西路,,39,20,36,10,25,122,,98,98,3,7,4,4,0.2,0.4
2025-09-05T1400,1285A,119.317,26.0746,福州市,紫阳,,36,23,40,8,26,114,,90,90,5,17,5,5,0.2,0.4
2025-09-05T1400,3048A,119.5799,26.0936,福州市,九龙,,20,12,23,3,18,64,,64,64,2,5,5,5,0.1,0.3
2025-09-05T1400,3526A,119.5189,25.9664,福州市,吴航,,22,6,25,3,17,68,,68,68,1,6,4,4,0.3,0.4
2025-09-05T1400,1755A,123.7977,41.8491,抚顺市,望花区,,42,42,56,14,28,109,,71,71,11,28,11,10,0.6,1
2025-09-05T1400,1756A,123.9161,41.8822,抚顺市,顺城区,颗粒物(PM10),55,59,46,17,22,126,,72,72,11,29,8,6,1.0,0.9
2025-09-05T1400,1757A,124.0436,41.8611,抚顺市,东洲区,,34,28,33,11,14,106,,61,61,5,11,3,3,0.4,0.6
2025-09-05T1400,1758A,123.9247,41.8642,抚顺市,新抚区,,44,44,43,17,21,117,,66,66,13,24,8,6,1.1,1
2025-09-05T1400,1759A,124.0972,41.8961,抚顺市,大伙房水库,,34,27,25,13,16,108,,62,62,8,15,8,8,0.6,0.7
2025-09-05T1400,1760A,123.7086,41.8391,抚顺市,沈抚新城,,35,35,55,10,27,103,,76,76,14,32,8,10,0.7,1.4
2025-09-05T1400,2376A,116.2127,28.0814,抚州市,桐源党溪,,29,29,30,13,17,86,,64,64,3,7,4,7,0.4,0.5
2025-09-05T1400,2377A,116.3544,27.9831,抚州市,市站,,31,21,25,11,13,98,,79,79,2,7,5,2,0.4,0.4
2025-09-05T1400,2378A,116.3565,27.963,抚州市,血防站,,30,18,26,9,12,96,,69,69,2,8,4,4,0,0.4
2025-09-05T1400,2379A,116.3564,28.0007,抚州市,采茶剧团,,32,22,28,3,13,102,,66,66,2,4,4,5,0.5,0.5
2025-09-05T1400,2380A,116.385,27.9647,抚州市,医学分院,,43,43,32,13,14,104,,67,67,2,7,3,4,0.7,0.6
2025-09-05T1400,2207A,121.6094,41.998,阜新市,工业园区,,47,47,47,8,25,125,,104,104,6,14,6,12,0.5,0.7
2025-09-05T1400,2208A,121.6697,42.0279,阜新市,长青街,,38,27,42,8,28,120,,107,107,6,12,6,13,0.4,0.6
2025-09-05T1400,2209A,121.6673,42.0705,阜新市,农业园区,,39,28,45,7,25,122,,111,111,6,10,3,6,0.5,0.7
2025-09-05T1400,2210A,121.6717,42.0224,阜新市,东苑,,40,40,57,9,24,118,,106,106,7,14,9,17,0.4,0.6
2025-09-05T1400,2211A,121.6506,42.0498,阜新市,玉龙新城,,37,36,45,7,23,117,,100,100,7,14,8,11,0.5,0.7
2025-09-05T1400,2301A,115.8277,32.8929,阜阳市,市监测站,,41,29,39,20,24,131,,49,,6,15,4,5,0.4,0.5
2025-09-05T1400,2303A,115.8554,32.8605,阜阳市,开发区,,43,32,44,20,22,135,,97,97,4,12,6,6,0.3,0.4
2025-09-05T1400,2875A,115.784,32.8892,阜阳市,阜阳职业技术学院,,44,26,40,10,19,139,,105,105,4,10,6,6,0.4,0.5
2025-09-05T1400,3468A,115.7901,32.8613,阜阳市,市规划展馆,,46,38,43,14,22,146,,111,111,4,11,2,3,0.4,0.5
2025-09-05T1400,3469A,115.836,32.9183,阜阳市,枣园社区,,45,32,42,15,23,141,,103,103,6,12,4,5,0.6,0.7
2025-09-05T1400,2669A,102.9099,34.9841,甘南藏族自治州,州政府,,37,37,17,16,15,92,,82,79,4,6,5,5,0.2,0.3
2025-09-05T1400,3380A,102.8914,34.9617,甘南藏族自治州,甘肃民族师范学院,颗粒物(PM10),51,52,17,18,12,86,,70,70,2,6,4,4,0.2,0.3
2025-09-05T1400,2570A,101.9603,30.0475,甘孜藏族自治州,水桥子,,20,10,14,6,6,63,,28,28,4,15,6,6,0.2,0.3
2025-09-05T1400,3065A,101.9533,29.9972,甘孜藏族自治州,州环保局,,23,14,17,3,5,73,,36,36,4,14,5,4,0.4,0.4
2025-09-05T1400,3414A,115.8347,28.932,赣江新区,桑海产业园,,40,24,28,18,17,125,,87,87,7,17,9,6,0.7,0.3
2025-09-05T1400,2362A,114.9017,25.9149,赣州市,通天岩,,34,26,22,13,11,106,,65,65,4,4,15,14,0.5,0.6
2025-09-05T1400,2363A,114.9367,25.8664,赣州市,地委,,38,17,29,16,19,120,,81,81,6,10,6,7,0.7,0.7
2025-09-05T1400,2364A,114.9461,25.8481,赣州市,气象台,,34,19,25,12,13,108,,75,75,4,9,8,8,0.7,0.7
2025-09-05T1400,2365A,114.9322,25.8333,赣州市,市图书馆,,,24,24,14,15,102,,68,68,4,12,4,5,,0.7
2025-09-05T1400,2366A,114.8905,25.8471,赣州市,华坚鞋城,,31,26,28,7,16,99,,68,68,7,12,5,5,0.5,0.6
2025-09-05T1400,3109A,115.0093,25.8613,赣州市,赣县区卫计委,,36,26,21,10,18,114,,73,73,4,6,6,6,0.6,0.6
2025-09-05T1400,2683A,106.2319,36.1417,固原市,马园,,,,,,,,,,,,,,,,
2025-09-05T1400,2684A,106.2792,36.0022,固原市,监测站,,33,23,62,23,32,102,,96,95,5,7,8,7,0.2,0.2
2025-09-05T1400,2685A,106.2375,36.0211,固原市,新区,,45,45,58,11,22,95,,92,89,5,7,8,8,0.3,0.3
2025-09-05T1400,3522A,106.2177,35.9959,固原市,原州区十五小,颗粒物(PM10),53,56,47,23,23,96,,93,93,4,6,9,9,0.1,0.2
2025-09-05T1400,2543A,106.6308,30.5278,广安市,小平旧居,,,,,,,,,,,,,,,,
2025-09-05T1400,2544A,106.6303,30.4576,广安市,市委,颗粒物(PM10),53,56,59,35,57,34,,38,37,8,12,6,5,0.4,0.5
2025-09-05T1400,2545A,106.6271,30.4663,广安市,友谊中学,,49,42,51,34,40,46,,50,49,8,12,6,5,0.7,0.8
2025-09-05T1400,2547A,106.6388,30.4551,广安市,广电花园,颗粒物(PM10),56,62,47,36,38,34,,38,37,8,12,6,5,0.6,0.7
2025-09-05T1400,2902A,106.6351,30.4865,广安市,北辰小学,颗粒物(PM10),53,56,54,36,39,47,,57,56,6,9,8,8,0.7,0.7
2025-09-05T1400,2523A,105.8945,32.4535,广元市,黑石坡,,26,,10,6,7,81,,69,69,2,10,10,10,0.2,0.4
2025-09-05T1400,2524A,105.821,32.4444,广元市,老城,,30,9,14,7,7,95,,86,86,8,18,1,2,0.5,0.9
2025-09-05T1400,2526A,105.8628,32.4287,广元市,监测站,,29,15,12,9,6,90,,78,78,6,18,6,8,0.5,0.9
2025-09-05T1400,3617A,105.8047,32.4166,广元市,经开区,,28,6,15,3,8,88,,77,77,5,18,5,5,0.5,0.8
2025-09-05T1400,1345A,113.2347,23.1423,广州市,广雅中学,,43,25,20,14,9,135,,62,62,10,15,3,4,0.8,0.6
2025-09-05T1400,1346A,113.2612,23.105,广州市,市五中,,45,26,17,16,9,144,,69,69,12,18,5,5,0.2,0.2
2025-09-05T1400,1348A,113.3478,23.0916,广州市,广东商学院,,40,27,17,11,8,128,,60,60,7,21,4,4,0.2,0.2
2025-09-05T1400,1349A,113.4332,23.1047,广州市,市八十六中,,42,22,16,9,7,133,,59,59,11,28,4,4,0.6,0.6
2025-09-05T1400,1350A,113.3505,22.9483,广州市,番禺中学,,38,23,15,13,7,121,,60,60,5,10,5,5,0.5,0.5
2025-09-05T1400,1351A,113.2146,23.3916,广州市,花都师范,臭氧1小时,58,37,29,23,10,166,,70,70,13,25,5,6,0.6,0.6
2025-09-05T1400,1352A,113.2597,23.1331,广州市,市监测站,,42,28,22,13,9,134,,63,63,8,14,5,5,0.4,0.4
2025-09-05T1400,1353A,113.5618,23.312,广州市,九龙镇镇龙,,46,21,38,12,23,145,,55,55,11,30,7,8,0.4,0.5
2025-09-05T1400,1354A,113.2765,23.1544,广州市,麓湖,,40,24,16,13,9,128,,62,62,10,16,3,3,0.3,0.2
2025-09-05T1400,1355A,113.443,23.3035,广州市,帽峰山森林公园,,44,15,16,6,8,138,,56,56,10,30,6,7,0.5,0.5
2025-09-05T1400,2846A,113.3221,23.1322,广州市,体育西,,41,35,21,18,10,129,,64,64,12,18,4,4,0.5,0.5
2025-09-05T1400,3298A,113.5717,23.5491,广州市,从化街口,,46,22,43,14,25,145,,63,63,9,24,8,8,0.5,0.6
2025-09-05T1400,3299A,113.3472,23.3692,广州市,白云竹料,,43,38,29,16,11,135,,55,55,11,29,4,5,0.4,0.4
2025-09-05T1400,3300A,113.2981,23.237,广州市,白云嘉禾,,45,31,23,17,10,143,,68,68,12,25,7,6,0.4,0.3
2025-09-05T1400,3301A,113.4256,23.1716,广州市,黄埔科学城,,50,34,21,16,9,159,,62,62,11,22,5,5,0.5,0.5
2025-09-05T1400,3302A,113.3942,23.0483,广州市,番禺大学城,,41,24,17,11,6,129,,64,64,9,18,8,9,0.3,0.4
2025-09-05T1400,3303A,113.4922,22.8168,广州市,南沙黄阁,,35,34,20,18,7,111,,51,51,9,14,4,4,0.4,0.4
2025-09-05T1400,3304A,113.5342,22.7896,广州市,南沙街,,38,35,15,17,6,120,,56,56,8,12,6,4,0.3,0.3
2025-09-05T1400,3443A,113.2902,23.5544,广州市,花都梯面,,40,25,30,15,14,126,,52,52,7,25,6,7,0.5,0.5
2025-09-05T1400,3445A,113.7858,23.7478,广州市,从化良口,,46,27,26,21,21,147,,80,80,9,10,5,5,0.5,0.5
2025-09-05T1400,3446A,113.8051,23.2614,广州市,增城荔城,,46,24,34,18,20,146,,59,59,8,19,9,9,0.4,0.5
2025-09-05T1400,2505A,109.568,23.1478,贵港市,德智高中,,,,,,,,,,,,,,,,
2025-09-05T1400,2506A,109.6047,23.0666,贵港市,江南子站,,25,14,25,12,16,79,,49,49,2,9,4,4,0.4,0.5
2025-09-05T1400,2508A,109.5669,23.1065,贵港市,荷城子站,,27,17,24,7,9,84,,50,50,6,12,4,4,0.6,0.5
2025-09-05T1400,3405A,109.5886,23.1172,贵港市,新世纪学校,,29,19,27,15,16,91,,56,56,5,11,6,4,0.4,0.5
2025-09-05T1400,4260A,109.5933,23.0951,贵港市,中山路155-3号,,27,22,26,15,13,84,,51,51,3,9,3,4,0.3,0.4
2025-09-05T1400,1439A,106.6899,26.5998,贵阳市,马鞍山,,,,,,,,,,,,,,,,
2025-09-05T1400,1441A,106.6243,26.6266,贵阳市,鉴湖路,,29,29,34,7,14,52,,49,48,6,8,5,6,0.4,0.4
2025-09-05T1400,1442A,106.7487,26.6343,贵阳市,燕子冲,,32,,18,22,19,68,,60,60,8,8,4,4,0.4,0.4
2025-09-05T1400,1443A,106.6555,26.4365,贵阳市,碧云窝,,20,17,30,3,10,62,,60,58,5,6,6,6,0.5,0.4
2025-09-05T1400,1445A,106.7109,26.6027,贵阳市,红边门,,27,27,30,17,22,64,,58,56,9,11,3,2,0.2,0.3
2025-09-05T1400,1446A,106.7164,26.5699,贵阳市,新华路,,29,29,27,12,15,64,,57,57,8,11,15,12,0.3,0.3
2025-09-05T1400,1447A,106.674,26.5424,贵阳市,太慈桥,,24,24,24,3,12,65,,61,60,8,8,5,5,0.0,0.1
2025-09-05T1400,1552A,106.805,26.3003,贵阳市,桐木岭,,32,32,30,19,19,61,,68,61,6,5,3,5,0.9,1
2025-09-05T1400,4230A,106.6882,26.5695,贵阳市,花果园大街66号,,23,,12,16,17,60,,55,53,6,7,4,4,0.5,0.5
2025-09-05T1400,4231A,106.6873,26.5169,贵阳市,漓江路57号,,,,25,,16,64,,60,60,,6,6,6,0.3,0.4
2025-09-05T1400,1862A,110.4144,25.3167,桂林市,电子科大尧山校区,,,,,,,,,,,,,,,,
2025-09-05T1400,1864A,110.3089,25.2708,桂林市,龙隐路小学,,,19,29,8,16,78,,56,56,4,11,,7,0.3,0.4
2025-09-05T1400,1865A,110.2869,25.2178,桂林市,八中,,25,,36,16,17,77,,53,53,3,9,6,8,0.3,0.5
2025-09-05T1400,3531A,110.296,25.1253,桂林市,旅游学院,,26,9,17,7,12,81,,52,52,3,9,3,3,0.3,0.3
2025-09-05T1400,4222A,110.1835,25.2444,桂林市,环湖路276号,,25,19,34,17,20,80,,52,52,8,27,5,10,0.3,0.4
2025-09-05T1400,4301A,110.2803,25.2773,桂林市,信义路13号,,25,21,29,8,19,80,,59,59,4,11,5,8,0.3,0.4
2025-09-05T1400,2674A,100.2561,34.4714,果洛藏族自治州,玛沁县大武镇,,33,18,23,3,13,103,,94,94,1,3,16,16,0.5,0.5
2025-09-05T1400,1129A,126.5422,45.755,哈尔滨市,岭北,臭氧1小时,55,22,30,14,20,164,,134,134,9,16,15,15,1.1,0.9
2025-09-05T1400,1130A,126.561,45.8167,哈尔滨市,松北商大,,43,30,36,16,19,136,,102,102,8,16,8,8,0.5,0.5
2025-09-05T1400,1131A,126.979,45.5419,哈尔滨市,阿城会宁,,38,27,40,14,21,121,,86,86,5,15,8,8,0.6,0.7
2025-09-05T1400,1132A,126.599,45.7222,哈尔滨市,南岗学府路,,46,39,53,18,22,145,,96,96,8,26,9,10,0.5,0.6
2025-09-05T1400,1133A,126.689,45.7733,哈尔滨市,太平宏伟公园,,43,43,46,22,25,137,,94,94,8,22,9,10,0.5,0.6
2025-09-05T1400,1134A,126.635,45.7667,哈尔滨市,道外承德广场,颗粒物(PM10),58,66,61,20,21,127,,85,85,11,23,8,8,0.6,0.8
2025-09-05T1400,1135A,126.685,45.7319,哈尔滨市,香坊红旗大街,,43,34,44,7,22,135,,90,90,15,30,7,9,0.6,0.7
2025-09-05T1400,1136A,126.6411,45.7258,哈尔滨市,动力和平路,,44,32,48,10,16,139,,89,89,9,28,8,9,0.6,0.8
2025-09-05T1400,1137A,126.593,45.7478,哈尔滨市,道里建国路,,,68,46,27,24,121,,86,86,,34,20,8,,1.5
2025-09-05T1400,1138A,126.615,45.61,哈尔滨市,平房东轻厂,,40,40,35,17,15,128,,89,89,5,11,9,8,0.6,0.5
2025-09-05T1400,1139A,126.595,45.9855,哈尔滨市,呼兰师专,颗粒物(PM10),55,60,45,22,21,124,,91,91,14,23,10,12,0.7,0.7
2025-09-05T1400,1140A,126.6206,45.6842,哈尔滨市,省农科院,颗粒物(PM10),72,93,66,22,22,129,,85,85,13,40,8,6,0.7,0.7
2025-09-05T1400,2688A,93.5128,42.8172,哈密市,地区监测站,,39,39,45,14,13,93,,65,65,8,15,9,4,0.7,0.2
2025-09-05T1400,2689A,93.4961,42.8328,哈密市,哈密师范学校,,31,19,36,11,11,97,,65,65,7,17,7,4,0.5,0.3
2025-09-05T1400,2671A,100.9048,36.9639,海北藏族自治州,海晏县西海镇,颗粒物(PM10),56,62,25,24,20,109,,84,84,1,4,7,8,0.3,0.5
2025-09-05T1400,3867A,102.0738,36.5056,海东市,平安区公安北苑,,34,13,37,10,18,106,,77,75,2,6,10,12,0.7,0.8
2025-09-05T1400,1409A,110.576,19.9507,海口市,东寨港,,38,38,16,6,8,38,,28,28,2,4,4,4,0.3,0.3
2025-09-05T1400,1410A,110.3232,20.0574,海口市,海南大学,,14,6,12,3,5,43,,38,38,2,3,3,3,0.3,0.3
2025-09-05T1400,1411A,110.283,20.0053,海口市,秀英海南医院,,18,18,16,3,6,40,,35,35,4,9,6,6,0.3,0.3
2025-09-05T1400,1412A,110.338,19.9969,海口市,海南师范大学,,15,7,15,3,6,48,,40,40,3,6,4,4,0.3,0.4
2025-09-05T1400,1413A,110.33,20.0356,海口市,龙华路环保局宿舍,,14,13,13,3,6,44,,38,38,5,5,6,6,0.2,0.3
2025-09-05T1400,3539A,110.5111,19.9736,海口市,桂林洋子站,,13,9,17,3,9,41,,31,31,2,6,5,5,0.2,0.2
2025-09-05T1400,2673A,100.6188,36.2866,海南藏族自治州,共和县恰卜恰镇,颗粒物(PM10),51,51,34,16,9,125,,90,90,1,3,6,9,0.4,0.4
2025-09-05T1400,2676A,97.3731,37.3753,海西蒙古族藏族自治州,德令哈市,颗粒物(PM10),64,77,58,21,21,108,,80,80,1,4,6,8,0.3,0.4
2025-09-05T1400,1048A,114.5302,36.6116,邯郸市,东污水处理厂,细颗粒物(PM2.5),54,,37,38,31,112,,94,88,12,11,7,8,0.7,0.9
2025-09-05T1400,1049A,114.4918,36.5713,邯郸市,矿院,细颗粒物(PM2.5),52,,29,36,32,113,,89,83,7,11,6,6,0.8,1
2025-09-05T1400,1050A,114.484,36.6133,邯郸市,丛台公园,,45,39,31,31,25,107,,96,87,12,12,9,10,0.8,0.9
2025-09-05T1400,3458A,114.7895,36.5593,邯郸市,香泉濮院小区,,35,26,35,16,15,112,,98,98,6,11,5,4,0.5,0.9
2025-09-05T1400,3579A,114.50634,36.77178,邯郸市,永年区实验高中,,46,46,40,23,25,109,,108,88,18,13,7,6,0.7,0.4
2025-09-05T1400,3580A,114.20016,36.44293,邯郸市,峰峰矿区临水派出所,,50,50,43,27,25,92,,83,82,16,12,8,8,1.1,0.9
2025-09-05T1400,2634A,106.9893,33.1842,汉中市,汉川机床厂子校,,26,6,17,3,10,82,,76,76,9,8,4,3,0.5,0.5
2025-09-05T1400,2635A,107.0154,33.0706,汉中市,市监测站,,24,6,12,3,8,74,,59,59,5,8,6,6,0.5,0.6
2025-09-05T1400,2636A,107.0089,33.1138,汉中市,鑫源开发区,,,,14,1,6,69,,58,58,8,9,6,6,0.5,0.6
2025-09-05T1400,2637A,107.007,33.0323,汉中市,南郑大河坎水厂,,24,6,12,3,4,74,,62,62,8,8,6,5,0.5,0.6
2025-09-05T1400,1223A,120.2072,30.2111,杭州市,滨江,臭氧1小时,84,40,48,29,28,187,,120,120,11,29,9,8,0.5,0.6
2025-09-05T1400,1224A,120.0633,30.2747,杭州市,西溪,臭氧1小时,77,38,35,36,32,181,,117,117,11,22,7,7,0.6,0.6
2025-09-05T1400,1226A,120.3417,30.3150,杭州市,下沙,臭氧1小时,73,33,38,23,24,178,,122,122,5,28,6,6,0.4,0.4
2025-09-05T1400,1227A,120.1269,30.2456,杭州市,卧龙桥,臭氧1小时,70,44,38,36,28,176,,106,106,6,14,7,7,0.7,0.7
2025-09-05T1400,1228A,120.1903,30.2692,杭州市,浙江农大,,50,50,51,26,28,134,,91,91,14,33,5,6,0.6,0.6
2025-09-05T1400,1230A,120.1197,30.3119,杭州市,和睦小学,臭氧1小时,69,57,38,27,25,175,,117,117,6,19,5,5,0.5,0.6
2025-09-05T1400,1231A,120.3019,30.4183,杭州市,临平镇,臭氧1小时,104,37,46,30,25,208,,137,137,10,22,6,6,0.6,0.6
2025-09-05T1400,1232A,120.2753,30.1839,杭州市,城厢镇,臭氧1小时,88,49,50,24,33,190,,120,120,12,29,9,9,0.6,0.7
2025-09-05T1400,1233A,120.0883,30.1808,杭州市,云栖,,,42,40,,,200,,127,127,13,23,10,10,0.8,0.9
2025-09-05T1400,3557A,119.9464,30.0494,杭州市,镇二中,,45,26,38,26,34,141,,103,103,6,23,5,5,0.6,0.8
2025-09-05T1400,3558A,119.7183,30.2367,杭州市,市府大楼,,44,38,28,24,22,138,,98,98,7,12,8,8,0.4,0.4
2025-09-05T1400,3656A,120.1556,30.2864,杭州市,消防大队,臭氧1小时,52,35,39,26,29,161,,112,112,7,21,7,8,0.6,0.6
2025-09-05T1400,1270A,117.1959,31.7848,合肥市,明珠广场,,50,36,39,24,26,158,,130,130,7,22,6,7,0.8,0.8
2025-09-05T1400,1271A,117.3072,31.8764,合肥市,三里街,,45,36,42,29,27,141,,109,109,6,18,5,6,0.8,0.8
2025-09-05T1400,1272A,117.2588,31.8707,合肥市,琥珀山庄,臭氧1小时,54,44,45,28,31,163,,125,125,8,14,8,8,0.9,0.9
2025-09-05T1400,1273A,117.1604,31.9052,合肥市,董铺水库,,45,41,43,31,31,128,,104,104,3,12,5,5,0.5,0.5
2025-09-05T1400,1274A,117.25,31.8571,合肥市,长江中路,,,46,45,23,26,165,,131,131,7,14,,7,0.7,0.7
2025-09-05T1400,1275A,117.266,31.9436,合肥市,庐阳区,臭氧1小时,63,39,48,27,25,170,,122,122,10,20,7,7,0.8,0.7
2025-09-05T1400,1276A,117.3453,31.8616,合肥市,瑶海区,,47,44,43,27,25,150,,116,116,10,19,7,8,0.7,0.8
2025-09-05T1400,1277A,117.3027,31.7964,合肥市,包河区,,49,39,44,31,28,155,,119,119,6,38,10,10,0.9,0.9
2025-09-05T1400,1278A,117.2776,31.7385,合肥市,滨湖新区,,49,36,42,34,33,151,,128,128,4,14,5,5,0.8,0.8
2025-09-05T1400,1279A,117.1318,31.8403,合肥市,高新区,,47,34,42,23,28,148,,125,125,7,24,6,6,0.7,0.8
2025-09-05T1400,3464A,117.3803,31.9147,合肥市,高教基地,,39,31,37,19,24,122,,104,104,5,12,6,7,0.6,0.7
2025-09-05T1400,3614A,79.924,37.0877,和田地区,地区环保局,颗粒物(PM10),500,1853,1260,495,323,64,,47,46,8,17,2,2,0.5,0.5
2025-09-05T1400,3615A,79.9131,37.113,和田地区,市环保局,颗粒物(PM10),500,1743,1130,427,257,62,,46,44,18,28,2,2,0.5,0.4
2025-09-05T1400,2516A,108.2011,24.715,河池市,东仁乐园,,,,,,,,,,,,,,,,
2025-09-05T1400,2517A,108.0497,24.6947,河池市,市环保站,,22,11,24,11,12,69,,47,47,4,10,5,5,0.5,0.6
2025-09-05T1400,2518A,108.0983,24.6989,河池市,市疾控中心,,23,13,20,10,12,73,,52,52,6,15,8,8,0.5,0.6
2025-09-05T1400,1696A,114.6778,23.7569,河源市,源西,,29,18,22,12,16,92,,50,50,6,13,6,6,0.8,0.8
2025-09-05T1400,1697A,114.6944,23.7586,河源市,东埔,,30,18,23,11,13,94,,52,52,7,12,4,5,0.7,0.7
2025-09-05T1400,1698A,114.6892,23.7233,河源市,老城,,36,20,27,9,20,115,,63,63,4,10,5,6,0.7,0.7
2025-09-05T1400,1718A,115.4208,35.2464,菏泽市,气象局,,50,46,30,35,26,79,,77,59,11,12,3,4,0.5,0.5
2025-09-05T1400,3374A,115.5564,35.0891,菏泽市,定陶老年大学,,41,41,32,27,21,102,,53,50,7,16,5,5,0.3,0.3
2025-09-05T1400,4184A,115.4797,35.24401,菏泽市,永昌路1号,细颗粒物(PM2.5),55,42,32,39,27,85,,74,55,8,10,7,8,0.6,0.6
2025-09-05T1400,4193A,115.4715,35.2800,菏泽市,长城路999号,,48,40,31,33,22,85,,68,57,15,15,8,10,0.5,0.5
2025-09-05T1400,2514A,111.5264,24.4172,贺州市,环保小区,,40,30,28,28,20,121,,82,82,5,9,15,18,0.3,0.4
2025-09-05T1400,2515A,111.5608,24.4078,贺州市,政协大楼,,47,21,26,18,19,149,,100,100,5,10,9,15,0.8,0.9
2025-09-05T1400,3534A,111.4744,24.4553,贺州市,西湾,,41,33,28,8,20,129,,90,90,6,13,6,6,0.2,0.4
2025-09-05T1400,2385A,114.17,35.9019,鹤壁市,市监测站,,45,31,26,31,19,106,,88,88,9,9,7,6,0.6,0.7
2025-09-05T1400,2386A,114.2956,35.7511,鹤壁市,市交警支队,,32,20,23,18,23,102,,86,85,6,8,3,3,0.5,0.8
2025-09-05T1400,2387A,114.2878,35.7306,鹤壁市,迎宾馆,,39,33,29,27,21,96,,83,81,8,11,5,4,0.7,0.8
2025-09-05T1400,3474A,114.2617,35.6822,鹤壁市,大新区,,38,,22,26,16,99,,88,83,8,7,7,7,0.6,0.8
2025-09-05T1400,3596A,114.1572,35.9603,鹤壁市,南山宾馆,,39,38,21,27,18,109,,94,94,10,9,3,4,0.6,0.8
2025-09-05T1400,2244A,130.2537,47.3416,鹤岗市,哈啤分公司,,39,21,42,12,17,124,,102,102,5,11,12,12,0.4,0.4
2025-09-05T1400,2245A,130.2684,47.3086,鹤岗市,斯达机电,,37,24,39,3,15,118,,98,98,5,13,12,12,0.5,0.5
2025-09-05T1400,2246A,130.3114,47.3388,鹤岗市,东山纸板厂,,40,27,75,20,21,128,,99,99,7,19,12,13,0.5,0.7
2025-09-05T1400,2247A,130.1097,47.3382,鹤岗市,五号水库,,35,7,19,3,8,110,,90,90,8,11,4,5,0.4,0.3
2025-09-05T1400,2263A,127.4833,50.2524,黑河市,交通局,,22,20,31,13,18,68,,44,44,3,13,7,9,0.3,0.5
2025-09-05T1400,2264A,127.5144,50.2341,黑河市,环保局,,22,11,29,7,14,68,,50,50,5,12,5,6,0.3,0.4
2025-09-05T1400,2265A,127.5291,50.2472,黑河市,大黑河岛,,,,,6,10,39,,35,34,2,2,22,24,0.4,0.4
2025-09-05T1400,1074A,115.6838,37.7541,衡水市,电机北厂,,46,,59,32,33,87,,90,89,9,24,5,7,0.4,0.5
2025-09-05T1400,1075A,115.6303,37.7316,衡水市,市监测站,,28,27,63,11,29,87,,79,79,7,23,6,8,0.5,0.6
2025-09-05T1400,3188A,115.6683,37.7217,衡水市,市城管局,,30,30,70,15,32,86,,85,85,7,35,6,8,0.5,0.6
2025-09-05T1400,3459A,115.5989,37.5491,衡水市,地表水厂,,28,28,59,14,27,89,,74,74,9,18,2,4,0.3,0.4
2025-09-05T1400,2456A,112.5003,26.9167,衡阳市,原169医院,,35,19,35,13,20,110,,80,80,4,4,4,6,0.5,0.6
2025-09-05T1400,2457A,112.6194,26.9258,衡阳市,衡阳化工总厂,,40,40,40,19,27,122,,94,94,4,10,6,8,0.9,1
2025-09-05T1400,2458A,112.6211,26.8956,衡阳市,珠晖区环保局,,40,33,34,24,22,128,,92,92,3,10,8,11,0.9,1
2025-09-05T1400,2459A,112.6197,26.8733,衡阳市,市委党校,,40,30,31,22,25,125,,89,89,3,9,6,8,0.5,0.6
2025-09-05T1400,2460A,112.6006,26.8919,衡阳市,市监测站,,43,43,31,19,23,115,,88,88,4,8,6,4,0.6,0.8
2025-09-05T1400,2461A,112.5664,26.9056,衡阳市,真空机电公司,,35,27,32,23,22,109,,84,84,1,8,5,10,0.8,1
2025-09-05T1400,3399A,112.6703,26.882,衡阳市,师范学院,,,,36,,25,122,,46,,6,9,6,10,,0.6
2025-09-05T1400,2608A,103.3772,23.3993,红河哈尼族彝族自治州,污水处理厂,,20,,22,9,20,64,,46,46,4,7,8,9,0.3,0.3
2025-09-05T1400,2609A,103.3861,23.35,红河哈尼族彝族自治州,监测站,,21,17,27,8,16,66,,52,52,2,3,9,10,0.2,0.2
2025-09-05T1400,3038A,103.3758,23.368,红河哈尼族彝族自治州,州图书馆,,20,,18,10,18,62,,50,50,3,5,2,2,0.2,0.3
2025-09-05T1400,1090A,111.6507,40.7517,呼和浩特市,呼市一监,,29,22,23,14,13,90,,88,86,3,9,3,4,0.2,0.3
2025-09-05T1400,1091A,111.6572,40.8033,呼和浩特市,小召,,34,34,26,17,13,80,,82,76,13,14,5,6,0.5,0.5
2025-09-05T1400,1094A,111.7516,40.8369,呼和浩特市,如意水处理厂,,38,38,32,26,16,88,,90,86,6,13,6,7,0.3,0.4
2025-09-05T1400,1095A,111.7276,40.8062,呼和浩特市,二十九中,,,42,30,25,17,89,,88,85,,11,6,7,0.6,0.6
2025-09-05T1400,1096A,111.5512,40.7866,呼和浩特市,工大金川校区,,28,28,40,13,15,86,,86,82,6,19,6,6,0.4,0.5
2025-09-05T1400,1097A,111.717,40.7612,呼和浩特市,化肥厂生活区,,29,25,28,14,14,92,,87,87,6,15,6,7,0.4,0.5
2025-09-05T1400,3698A,111.5968,40.8178,呼和浩特市,红旗小学,,28,24,34,12,14,88,,89,84,7,23,4,5,0.2,0.3
2025-09-05T1400,3699A,111.6518,40.8389,呼和浩特市,海东办,,41,41,31,16,14,87,,90,86,10,15,8,7,0.4,0.4
2025-09-05T1400,2192A,119.7594,49.2261,呼伦贝尔市,区环保局,,33,33,40,20,20,45,,24,24,12,22,5,6,0.3,0.3
2025-09-05T1400,3061A,119.7512,49.1577,呼伦贝尔市,国华电力东,,31,31,29,10,12,55,,36,36,6,12,5,6,0.2,0.2
2025-09-05T1400,1250A,120.0751,30.8669,湖州市,城西水厂,臭氧1小时,103,42,44,33,31,206,,134,134,12,32,8,9,0.4,0.5
2025-09-05T1400,2873A,120.0830,30.8929,湖州市,仁皇山新区,臭氧1小时,93,43,40,31,26,194,,128,128,11,16,4,4,0.5,0.5
2025-09-05T1400,2907A,120.1844,30.8596,湖州市,吴兴区站,臭氧1小时,92,43,39,36,27,193,,133,133,7,15,7,7,0.6,0.6
2025-09-05T1400,3562A,120.4148,30.8538,湖州市,南浔区站,臭氧1小时,75,50,35,39,28,180,,125,125,7,14,6,7,0.7,0.7
2025-09-05T1400,1607A,120.9049,40.7211,葫芦岛市,龙港区,,41,32,33,6,21,130,,110,110,4,7,4,5,0.5,0.6
2025-09-05T1400,1608A,120.8392,40.7514,葫芦岛市,化工街,,39,17,38,7,26,122,,84,84,2,20,6,6,0.5,0.6
2025-09-05T1400,1609A,120.8341,40.7073,葫芦岛市,新区,,40,32,32,10,33,127,,100,100,4,13,3,4,0.6,0.7
2025-09-05T1400,1610A,120.8695,40.7677,葫芦岛市,东城区,,39,24,39,9,44,123,,85,85,7,29,4,5,0.6,0.8
2025-09-05T1400,2482A,109.5981,27.5721,怀化市,林科所,,28,20,22,3,7,88,,78,78,4,6,4,4,0.5,0.6
2025-09-05T1400,2483A,109.9453,27.5444,怀化市,河西地税局,,25,,24,13,19,78,,56,56,2,11,4,4,0.3,0.4
2025-09-05T1400,2484A,109.9781,27.5342,怀化市,市四医院,,33,23,32,23,22,87,,65,65,1,8,5,7,0.2,0.1
2025-09-05T1400,2485A,109.9972,27.5578,怀化市,监测楼,,27,22,26,13,17,86,,70,70,3,7,4,6,0,0.1
2025-09-05T1400,2486A,110.0394,27.583,怀化市,市委党校,,25,18,31,13,18,80,,56,56,4,14,4,4,0.2,0.3
2025-09-05T1400,1210A,119.036,33.5981,淮安市,钵池山,,49,27,18,16,14,155,,104,104,5,10,6,6,0.6,0.5
2025-09-05T1400,1211A,119.007,33.575,淮安市,北京南路,,49,34,21,18,12,156,,108,108,7,11,6,6,0.7,0.6
2025-09-05T1400,1212A,118.989,33.6067,淮安市,市监测站,臭氧1小时,54,39,23,27,15,163,,108,108,6,12,10,10,0.6,0.5
2025-09-05T1400,1213A,119.135,33.5039,淮安市,楚州区监测站,,50,44,32,17,12,159,,98,98,7,13,8,8,0.5,0.4
2025-09-05T1400,3426A,118.8755,33.2894,淮安市,新华书店,,,38,22,30,15,159,,100,100,9,14,,8,0.9,0.6
2025-09-05T1400,4206A,119.0288,33.6319,淮安市,承德北路606号,,,36,28,18,14,151,,107,107,5,13,6,6,,0.4
2025-09-05T1400,2282A,116.8004,33.975,淮北市,监测站,,,,31,,16,186,,124,124,,11,8,8,1.0,0.9
2025-09-05T1400,2283A,116.8091,33.9007,淮北市,烈山区政府,臭氧1小时,84,52,36,23,12,187,,118,118,8,10,10,9,0.7,0.5
2025-09-05T1400,3330A,116.8873,33.9836,淮北市,杜集区检察院,臭氧1小时,70,46,33,27,17,176,,116,116,4,6,9,9,0.8,0.6
2025-09-05T1400,4017A,116.7923,33.9535,淮北市,市博物馆,臭氧1小时,83,53,33,34,18,186,,120,120,8,10,8,7,0.6,0.5
2025-09-05T1400,2277A,116.8305,32.7727,淮南市,潘集区政府,,50,33,38,22,22,157,,122,122,4,10,4,4,0.5,0.5
2025-09-05T1400,2279A,116.8569,32.5951,淮南市,谢家集区政府,,47,38,28,26,19,148,,115,115,2,7,7,8,0.4,0.4
2025-09-05T1400,2280A,116.8281,32.633,淮南市,八公山区政府,,42,38,38,24,24,132,,116,116,5,9,5,6,0.4,0.4
2025-09-05T1400,2281A,116.6325,32.6201,淮南市,焦岗湖风景区管理处,,,,,,,,,,,,,,,,
2025-09-05T1400,2894A,117.0566,32.6531,淮南市,经济技术开发区消防队,,46,31,31,16,10,145,,116,116,5,11,9,9,0.4,0.4
2025-09-05T1400,3329A,117.0108,32.5893,淮南市,山南新区,,49,30,24,20,12,155,,119,119,6,8,5,5,0.6,0.5
2025-09-05T1400,4209A,117.0031,32.6445,淮南市,国庆中路369号,臭氧1小时,57,47,42,28,24,165,,128,128,5,7,5,5,0.5,0.5
2025-09-05T1400,2446A,114.9028,30.4742,黄冈市,职工中心,,46,28,35,22,25,146,,116,116,10,11,5,5,0.6,0.6
2025-09-05T1400,2929A,114.8858,30.4519,黄冈市,红卫路,,43,30,38,24,25,137,,106,106,6,11,7,6,0.5,0.6
2025-09-05T1400,3398A,114.9136,30.4445,黄冈市,市林业局,,50,42,34,25,21,160,,114,114,12,11,8,6,0.6,0.5
2025-09-05T1400,2672A,102.0199,35.5102,黄南藏族自治州,同仁县隆务镇,,32,18,35,8,14,101,,87,87,2,3,9,9,0.4,0.4
2025-09-05T1400,2295A,118.2903,29.6963,黄山市,延安路89号,,41,41,36,11,11,118,,76,76,4,6,4,4,0.4,0.4
2025-09-05T1400,2297A,118.1371,30.2756,黄山市,黄山区政府5号楼,,32,32,29,16,15,88,,62,62,2,4,4,4,0.6,0.6
2025-09-05T1400,4210A,118.3354,29.7203,黄山市,滨江东路7-2号,,39,29,30,10,10,123,,74,74,3,6,3,3,0.3,0.4
2025-09-05T1400,2423A,115.0601,30.2313,黄石市,沈家营,,45,45,69,23,24,130,,104,104,2,19,6,6,0.5,0.6
2025-09-05T1400,2426A,114.8988,30.2019,黄石市,铁山,,37,37,43,10,24,96,,102,102,2,7,5,5,0.6,0.5
2025-09-05T1400,2427A,115.0307,30.2092,黄石市,团城山,,40,34,48,17,24,126,,114,114,3,11,7,8,0.5,0.6
2025-09-05T1400,3149A,115.0235,30.1578,黄石市,笔架山北路,细颗粒物(PM2.5),57,,46,40,21,128,,102,102,6,9,5,6,0.4,0.4
2025-09-05T1400,4185A,115.0780,30.21118,黄石市,磁湖东路29号,,,,78,,30,,,84,,,25,,10,,0.9
2025-09-05T1400,1392A,114.4183,23.0528,惠州市,河南岸金山湖子站,,45,,16,31,10,114,,57,57,10,14,8,9,0.4,0.4
2025-09-05T1400,1393A,114.4053,23.0822,惠州市,下埔横江三路子站,,37,23,17,8,8,118,,58,58,4,12,5,6,0.1,0.1
2025-09-05T1400,1394A,114.4103,23.1142,惠州市,江北云山西路子站,,41,24,17,14,8,130,,67,67,6,14,8,9,0.4,0.5
2025-09-05T1400,1395A,114.4645,22.7833,惠州市,惠阳区承修路船湖子站,,35,16,13,11,7,112,,60,60,9,10,7,7,0.4,0.5
2025-09-05T1400,1396A,114.5317,22.7422,惠州市,大亚湾管委会子站,,23,11,11,7,4,71,,46,46,5,9,9,8,0.5,0.5
2025-09-05T1400,3314A,114.4338,22.8134,惠州市,惠阳秋长,,37,27,17,12,8,118,,56,56,10,12,7,7,0.5,0.5
2025-09-05T1400,3452A,114.6517,22.775,惠州市,大亚湾霞涌,,17,15,9,7,5,54,,44,44,4,6,7,7,0.2,0.3
2025-09-05T1400,2240A,130.9762,45.3001,鸡西市,环保局,,40,40,41,15,17,115,,79,79,6,23,6,7,0.6,0.7
2025-09-05T1400,2243A,130.9429,45.3039,鸡西市,第一中学,,32,24,42,12,16,100,,72,72,5,20,10,10,0.7,0.7
2025-09-05T1400,3707A,131.0207,45.3073,鸡西市,欧美日汽修厂,,38,32,42,16,17,121,,76,76,7,21,10,10,0.7,0.7
2025-09-05T1400,3709A,130.9967,45.3106,鸡西市,市政设施管理处,,42,42,49,14,20,128,,83,83,9,28,9,9,0.3,0.6
2025-09-05T1400,2367A,114.9754,27.0803,吉安市,红声器材厂,,32,32,29,14,13,95,,72,72,1,5,8,16,0.5,0.4
2025-09-05T1400,2368A,114.9658,27.0999,吉安市,市森林工业局,,34,24,27,11,13,107,,74,74,2,6,8,9,0.4,0.5
2025-09-05T1400,2369A,114.99,27.1312,吉安市,市环境监测站,,37,28,22,15,11,117,,83,83,1,4,10,11,0.6,0.6
2025-09-05T1400,2370A,115.0093,27.0968,吉安市,青原区法院,,33,28,28,18,13,104,,78,78,5,6,9,11,0.8,0.6
2025-09-05T1400,1772A,126.54,43.8622,吉林市,哈达湾,,30,21,34,16,19,95,,74,74,4,17,7,7,0.4,0.4
2025-09-05T1400,1773A,126.5844,43.8358,吉林市,东局子,,30,28,37,13,20,95,,72,72,9,18,5,6,0.5,0.7
2025-09-05T1400,1774A,126.5052,43.8245,吉林市,电力学院,,29,16,38,14,20,91,,66,66,3,16,6,6,0.6,0.7
2025-09-05T1400,1775A,126.6133,43.8972,吉林市,江北,,29,28,31,15,27,90,,67,67,6,11,4,5,0.3,0.6
2025-09-05T1400,1776A,126.555,43.8306,吉林市,江南公园,,33,24,28,23,17,95,,73,73,6,13,2,2,0.4,0.4
2025-09-05T1400,1778A,126.7061,43.7133,吉林市,丰满,,30,17,20,16,15,95,,69,69,3,4,5,5,0.7,0.6
2025-09-05T1400,2868A,126.4739,43.953,吉林市,九站,,32,30,33,13,18,100,,82,82,6,22,4,14,0.3,0.4
2025-09-05T1400,1299A,116.9862,36.6114,济南市,科干所,,21,14,56,12,36,66,,56,55,18,28,6,7,0.6,0.7
2025-09-05T1400,1300A,116.9376,36.665,济南市,农科所,,49,,61,34,40,43,,39,39,39,44,8,9,0.5,0.5
2025-09-05T1400,1301A,117.1265,36.6734,济南市,开发区,,32,,57,22,38,73,,54,47,22,34,7,8,0.7,0.8
2025-09-05T1400,1303A,117.0624,36.6868,济南市,省种子仓库,颗粒物(PM10),54,58,75,36,39,45,,43,43,51,43,5,6,0.8,0.8
2025-09-05T1400,1304A,116.9489,36.6447,济南市,机床二厂,,29,20,72,20,39,58,,50,50,28,40,9,10,0.6,0.7
2025-09-05T1400,1305A,117.0495,36.663,济南市,市监测站,,49,39,64,34,40,48,,53,53,47,38,10,11,1.0,0.9
2025-09-05T1400,1306A,116.7675,36.5484,济南市,长清党校,,24,24,60,12,41,69,,40,40,15,35,6,7,0.8,0.8
2025-09-05T1400,1616A,117.6795,36.229,济南市,技术学院,,33,27,29,12,20,105,,74,74,10,20,13,10,0.9,0.8
2025-09-05T1400,1961A,117.532,36.6868,济南市,东山小学,,27,17,43,10,24,85,,61,61,14,26,7,7,0.5,0.6
2025-09-05T1400,3059A,117.7161,36.2049,济南市,泰兴公司,,32,27,31,17,20,100,,70,70,10,25,16,13,0.7,0.6
2025-09-05T1400,3064A,117.6867,36.2171,济南市,莱芜战役纪念馆,,29,24,35,13,23,92,,68,68,13,25,11,9,0.7,0.6
2025-09-05T1400,3494A,117.1673,36.9782,济南市,济阳区政府,,46,42,62,32,38,90,,68,68,16,29,6,9,0.5,0.4
2025-09-05T1400,3495A,117.1171,36.63,济南市,锦屏中学,,22,15,45,7,26,70,,56,56,8,19,9,10,0.8,0.9
2025-09-05T1400,3682A,116.9814,36.6819,济南市,济南四建,,49,,64,34,42,54,,42,42,41,40,5,6,0.9,0.8
2025-09-05T1400,1653A,116.6251,35.4302,济宁市,火炬城,颗粒物(PM10),51,51,55,27,29,87,,61,61,9,15,5,5,0.3,0.4
2025-09-05T1400,1655A,116.5491,35.4042,济宁市,电化厂,,42,42,55,22,29,107,,78,78,7,19,2,5,0.8,0.8
2025-09-05T1400,3500A,116.5814,35.3707,济宁市,北湖一中,,42,42,53,26,31,107,,73,73,4,14,7,7,0.5,0.6
2025-09-05T1400,3501A,116.8249,35.5593,济宁市,服务中心,,31,31,44,11,18,89,,59,59,10,25,3,5,0.3,0.4
2025-09-05T1400,3678A,116.5907,35.4054,济宁市,市第七中学,,37,37,51,19,24,104,,72,72,6,16,4,5,0.5,0.6
2025-09-05T1400,2255A,130.2751,46.8028,佳木斯市,佳纺,,35,27,52,13,21,111,,80,80,5,21,6,6,0.6,0.7
2025-09-05T1400,2256A,130.3995,46.8307,佳木斯市,发电厂,,35,29,46,14,24,111,,80,80,5,22,7,7,0.7,0.8
2025-09-05T1400,2257A,130.3258,46.7975,佳木斯市,环保局,,35,26,39,17,24,111,,90,90,5,19,8,9,0.6,0.7
2025-09-05T1400,2258A,130.3648,46.8032,佳木斯市,十一中,,32,31,44,14,23,101,,73,73,6,20,7,6,0.6,0.8
2025-09-05T1400,2259A,130.3794,46.7588,佳木斯市,四丰,,15,15,18,7,11,0,,,,6,14,1,16,0.5,0.6
2025-09-05T1400,1252A,120.7436,30.778,嘉兴市,清河小学,,48,41,33,22,18,153,,104,104,7,18,5,6,0.9,0.8
2025-09-05T1400,1253A,120.726,30.7478,嘉兴市,嘉兴学院,臭氧1小时,77,40,26,26,20,181,,115,115,8,21,4,5,0.5,0.5
2025-09-05T1400,2872A,120.7846,30.7525,嘉兴市,南湖区残联,臭氧1小时,68,37,34,23,25,174,,112,112,8,22,5,6,0.6,0.7
2025-09-05T1400,3407A,120.6916,30.7739,嘉兴市,秀洲住建,臭氧1小时,90,42,32,31,19,192,,122,122,8,19,6,7,0.7,0.7
2025-09-05T1400,1945A,98.2908,39.7711,嘉峪关市,气象局,颗粒物(PM10),68,85,77,22,20,116,,77,77,10,20,26,16,0.8,0.7
2025-09-05T1400,2884A,98.2672,39.7978,嘉峪关市,酒钢宾馆,颗粒物(PM10),73,95,93,27,26,118,,86,86,14,20,54,33,1.6,0.9
2025-09-05T1400,3248A,98.2643,39.7724,嘉峪关市,雄关区,颗粒物(PM10),61,72,73,18,22,105,,74,74,16,22,24,17,1.1,0.4
2025-09-05T1400,1383A,113.1064,22.6058,江门市,北街,,50,31,17,27,10,157,,74,74,8,8,4,4,0.3,0.3
2025-09-05T1400,1384A,113.0731,22.5835,江门市,西区,,,50,23,22,8,130,,73,73,10,11,9,8,,0.5
2025-09-05T1400,1385A,113.0219,22.5311,江门市,圭峰西,,28,,18,11,9,88,,56,56,3,8,4,4,0.4,0.4
2025-09-05T1400,1386A,113.0828,22.5947,江门市,东湖,,38,32,18,15,9,121,,58,58,9,10,6,6,0.4,0.5
2025-09-05T1400,3311A,113.1075,22.5647,江门市,江海富民,,43,22,24,11,12,135,,68,68,7,9,6,4,0.2,0.2
2025-09-05T1400,3449A,113.05,22.4667,江门市,新会银湖,,30,22,16,6,9,96,,53,53,5,10,2,2,0.4,0.4
2025-09-05T1400,1830A,113.1992,35.2590,焦作市,影视城,,,,16,,9,,,94,,,8,,7,,0.6
2025-09-05T1400,3335A,113.3137,35.2641,焦作市,马村街道办,,50,40,19,35,16,90,,77,72,13,11,5,5,0.7,0.7
2025-09-05T1400,3336A,113.2465,35.2373,焦作市,焦作技师学院,,33,33,23,19,8,85,,78,72,15,12,6,6,0.7,0.7
2025-09-05T1400,3477A,113.1656,35.2539,焦作市,中站许衡医院,颗粒物(PM10),51,52,24,34,22,85,,79,77,14,10,9,5,0.9,0.6
2025-09-05T1400,3981A,113.2449,35.1803,焦作市,原李万街道办,,32,32,24,17,10,102,,85,85,11,11,9,9,0.5,0.7
2025-09-05T1400,4264A,113.2340,35.2190,焦作市,新安路1731号,,,27,22,,8,92,,83,78,9,10,4,3,0.8,0.8
2025-09-05T1400,4295A,113.2722,35.2121,焦作市,人民路3066号,,39,39,33,18,10,96,,77,75,7,9,2,2,0.4,0.5
2025-09-05T1400,1708A,116.3701,23.5345,揭阳市,新兴,,50,50,34,27,20,143,,80,80,9,16,9,8,0.7,0.5
2025-09-05T1400,1709A,116.3264,23.5443,揭阳市,西马,颗粒物(PM10),55,60,36,29,18,145,,76,76,7,12,4,4,0.5,0.5
2025-09-05T1400,1710A,116.3611,23.5626,揭阳市,东兴,,44,44,37,22,20,139,,73,73,8,17,8,13,0.7,0.7
2025-09-05T1400,1711A,116.4151,23.5294,揭阳市,渔湖,颗粒物(PM10),60,69,39,22,20,160,,86,86,5,16,7,11,0.9,0.7
2025-09-05T1400,3320A,116.403,23.5699,揭阳市,曲溪,,49,31,33,24,19,155,,85,85,7,14,4,8,0.7,0.6
2025-09-05T1400,1944A,102.1692,38.5167,金昌市,天庆家园,颗粒物(PM10),70,90,60,26,20,98,,70,70,10,12,53,7,0.2,0.4
2025-09-05T1400,4022A,102.1647,38.5371,金昌市,金川区人防中心,颗粒物(PM10),67,83,62,28,21,113,,78,78,7,8,51,18,0.5,0.5
2025-09-05T1400,4239A,102.1930,38.5319,金昌市,长春路96号,颗粒物(PM10),70,89,57,21,17,106,,76,76,6,9,29,15,0.6,0.6
2025-09-05T1400,1262A,119.647,29.077,金华市,十五中,,48,36,41,20,24,152,,110,110,7,17,2,3,0.4,0.5
2025-09-05T1400,1263A,119.686,29.1029,金华市,监测站,,50,27,35,20,26,159,,114,114,6,20,4,4,0.5,0.6
2025-09-05T1400,3659A,119.656,29.1131,金华市,气象局,,,40,40,20,22,165,,116,116,,21,3,3,0.4,0.4
2025-09-05T1400,1767A,121.1115,41.0879,锦州市,南山,,38,24,37,10,29,120,,95,95,5,20,6,6,0.6,0.7
2025-09-05T1400,1768A,121.0604,40.8428,锦州市,开发区,,44,44,50,11,22,128,,102,102,7,27,3,13,0.7,0.8
2025-09-05T1400,1769A,121.1836,41.1119,锦州市,百股街道,,40,34,36,9,29,126,,102,102,4,13,6,12,0.5,0.7
2025-09-05T1400,1770A,121.1178,41.1222,锦州市,天安街道,,42,27,44,12,32,132,,104,104,6,18,10,10,0.7,0.8
2025-09-05T1400,1771A,121.1303,41.1386,锦州市,北湖公园,,39,22,45,7,28,122,,92,92,4,14,5,5,0.7,0.8
2025-09-05T1400,2160A,112.85,35.5051,晋城市,自来水公司,,23,23,16,7,5,50,,83,79,26,14,2,2,0.7,0.8
2025-09-05T1400,2161A,112.8318,35.4936,晋城市,白云商贸,,18,9,15,7,3,55,,90,87,23,13,2,2,0.7,0.7
2025-09-05T1400,2162A,112.8508,35.4887,晋城市,市环保局,,15,8,7,7,5,48,,80,75,21,10,2,2,1.0,0.9
2025-09-05T1400,2163A,112.8676,35.4897,晋城市,技术学院,,15,12,11,3,1,47,,81,78,29,13,3,3,1.0,1
2025-09-05T1400,2165A,112.8453,35.546,晋城市,白马寺,,26,,11,15,9,81,,95,94,6,6,6,6,0.9,1
2025-09-05T1400,3620A,112.8271,35.4828,晋城市,泽州一中,,,14,12,3,2,63,,92,87,20,12,2,2,,1
2025-09-05T1400,2173A,112.7249,37.7067,晋中市,南都小区,,29,26,33,20,23,58,,82,67,24,13,4,5,0.9,0.5
2025-09-05T1400,2174A,112.6991,37.6982,晋中市,榆次区政府,,25,17,27,17,21,60,,78,59,19,13,4,5,1.0,0.7
2025-09-05T1400,2865A,112.7195,37.6828,晋中市,榆次三中,,22,14,22,9,15,68,,76,68,12,10,6,6,0.7,0.5
2025-09-05T1400,4200A,112.7478,37.6954,晋中市,迎宾街26号,,19,17,21,9,14,60,,77,68,17,10,4,4,0.7,0.5
2025-09-05T1400,2439A,112.2014,31.0481,荆门市,竹园小学,颗粒物(PM10),56,62,55,23,33,151,,87,87,9,10,1,1,0.8,0.7
2025-09-05T1400,2440A,112.1969,30.9891,荆门市,掇刀,,47,40,47,29,32,148,,94,94,6,10,2,1,0.6,0.7
2025-09-05T1400,2441A,112.2213,31.0386,荆门市,石化一小,,47,45,55,26,32,149,,87,87,9,12,6,5,0.6,0.6
2025-09-05T1400,3012A,112.1849,31.0362,荆门市,西山林语,颗粒物(PM10),59,67,51,25,40,146,,90,90,8,9,1,2,0.4,0.5
2025-09-05T1400,3547A,112.1632,31.0138,荆门市,龙泉中学南校,,50,49,47,35,31,144,,96,96,8,8,2,2,0.8,0.9
2025-09-05T1400,1844A,112.2494,30.3197,荆州市,市图书馆,,41,38,42,24,27,130,,89,89,10,13,4,5,0.5,0.6
2025-09-05T1400,1845A,112.2008,30.3544,荆州市,市委党校,,41,37,42,19,24,131,,86,86,7,14,6,7,0.5,0.6
2025-09-05T1400,3194A,112.2747,30.3122,荆州市,管委会,,39,30,42,26,27,123,,82,82,4,11,2,4,0.5,0.7
2025-09-05T1400,4268A,112.1722,30.3366,荆州市,学苑路85号,,40,25,41,24,34,127,,111,111,20,16,6,6,0.5,0.4
2025-09-05T1400,2342A,117.3102,29.3867,景德镇市,王港中学,,,,,,,,,,,,,,,,
2025-09-05T1400,2343A,117.2117,29.2933,景德镇市,老干部活动中心,,44,35,32,26,26,138,,,,8,12,13,8,0.8,0.7
2025-09-05T1400,2344A,117.1894,29.2789,景德镇市,兽医站,,40,30,40,27,24,128,,78,78,6,10,10,6,0.9,0.9
2025-09-05T1400,2346A,117.2461,29.2956,景德镇市,陶研所,,40,32,38,26,26,125,,68,68,2,6,8,6,0.7,0.7
2025-09-05T1400,4289A,117.1542,29.2566,景德镇市,青少年活动中心,,37,32,36,21,27,116,,74,74,7,18,11,13,0.5,0.7
2025-09-05T1400,1803A,115.9872,29.6815,九江市,十里,,50,35,45,34,39,159,,104,104,8,23,7,8,0.2,0.5
2025-09-05T1400,1804A,115.9584,29.7046,九江市,茅山头,,34,27,42,16,34,108,,86,86,4,18,3,4,0.3,0.6
2025-09-05T1400,1805A,115.9877,29.7295,九江市,西园,臭氧1小时,80,33,37,22,21,184,,112,112,14,36,7,7,0.9,0.9
2025-09-05T1400,1808A,115.9114,29.6038,九江市,综合工业园,,37,,39,15,24,116,,93,93,9,34,6,7,0.7,0.8
2025-09-05T1400,1809A,116.0721,29.7535,九江市,石化总厂,,47,32,43,18,29,149,,88,88,17,36,5,9,0.6,0.8
2025-09-05T1400,1810A,115.9773,29.5698,九江市,庐山气象台,,,,,,,,,,,,,,,,
2025-09-05T1400,3190A,116.0254,29.6994,九江市,外国语学校,,42,25,38,19,32,132,,91,91,7,21,7,6,0.6,0.8
2025-09-05T1400,4253A,116.0102,29.6594,九江市,莲花大道8号,,,,27,,22,114,,75,75,,9,7,6,0.5,0.7
2025-09-05T1400,4240A,98.4958,39.7339,酒泉市,玉门东路5号,颗粒物(PM10),70,90,78,20,30,117,,59,59,7,18,21,18,0.5,0.4
2025-09-05T1400,4241A,98.5099,39.7506,酒泉市,北大街108号,颗粒物(PM10),70,90,74,19,24,113,,63,63,5,16,22,17,0.5,0.4
2025-09-05T1400,2698A,76.0072,39.4467,喀什地区,巡警大队,"颗粒物(PM10),细颗粒物(PM2.5)",500,1152,1001,575,409,60,,42,36,15,21,3,3,0.3,0.3
2025-09-05T1400,2699A,75.9755,39.4694,喀什地区,吾办,颗粒物(PM10),500,1161,989,399,324,67,,42,42,14,24,6,5,0.2,0.4
2025-09-05T1400,4027A,75.9483,39.4689,喀什地区,老干局,颗粒物(PM10),500,971,813,321,250,64,,38,34,11,22,3,4,0.3,0.4
2025-09-05T1400,1824A,114.3389,34.7781,开封市,肿瘤医院,,39,39,18,23,14,85,,96,87,14,12,2,2,1.0,0.9
2025-09-05T1400,1826A,114.2885,34.7965,开封市,世纪星幼儿园,,,27,16,,18,89,,103,94,13,11,4,4,0.9,0.8
2025-09-05T1400,3147A,114.3438,34.8106,开封市,龙亭公园,,,32,19,,10,81,,91,82,,9,4,4,,0.7
2025-09-05T1400,3210A,114.3644,34.7964,开封市,汴京公园,,45,35,19,31,15,89,,96,87,10,8,4,4,0.7,0.6
2025-09-05T1400,3473A,114.2485,34.8306,开封市,技师学院,,32,32,17,14,15,76,,91,81,12,8,5,6,1.2,1.2
2025-09-05T1400,3592A,114.4644,34.7556,开封市,祥符区生态环境局,,40,33,19,28,13,70,,81,74,11,10,2,2,1.0,0.8
2025-09-05T1400,1951A,84.895,45.6094,克拉玛依市,长征新村,,26,7,26,3,12,83,,66,66,4,14,2,3,0.2,0.3
2025-09-05T1400,1952A,84.8988,45.5893,克拉玛依市,南林小区,,26,12,31,3,8,83,,57,57,5,19,7,7,0.1,0.2
2025-09-05T1400,1954A,84.905,44.3396,克拉玛依市,独山子区,,39,39,31,17,12,94,,64,64,12,14,6,7,0.3,0.3
2025-09-05T1400,1955A,85.6979,46.098,克拉玛依市,乌尔禾区商贸楼,,26,,17,9,7,82,,49,49,6,14,3,7,0.0,0.2
2025-09-05T1400,3612A,85.1045,45.6899,克拉玛依市,白碱滩区新站,,28,24,36,13,11,88,,75,75,2,5,10,9,0.3,0.3
2025-09-05T1400,2697A,76.1454,39.7142,克孜勒苏柯尔克孜自治州,市人民政府,颗粒物(PM10),500,1295,873,446,286,65,,56,39,7,17,4,8,0.2,0.2
2025-09-05T1400,3665A,76.1658,39.7157,克孜勒苏柯尔克孜自治州,克州文化中心,颗粒物(PM10),500,1295,908,466,310,72,,69,57,6,9,5,7,0.3,0.2
2025-09-05T1400,1450A,102.8204,24.8886,昆明市,呈贡新区,,24,9,13,6,13,75,,48,48,4,12,1,4,0.3,0.4
2025-09-05T1400,1451A,102.6251,24.9608,昆明市,西山森林公园,,,,,,,,,,,,,,,,
2025-09-05T1400,1452A,102.7252,25.0902,昆明市,龙泉镇,,23,8,20,8,9,73,,45,45,7,12,2,3,0.4,0.4
2025-09-05T1400,1453A,102.7266,25.0375,昆明市,东风东路,,26,12,17,10,9,83,,46,46,8,12,4,5,0.3,0.3
2025-09-05T1400,1454A,102.6742,25.0669,昆明市,金鼎山,,23,23,25,10,7,67,,45,45,6,10,2,3,0.3,0.3
2025-09-05T1400,1455A,102.6644,25.0401,昆明市,碧鸡广场,,21,9,23,3,9,66,,42,42,6,15,8,9,0.4,0.4
2025-09-05T1400,3179A,102.7494,25.0119,昆明市,官渡区博物馆,,26,,16,12,8,82,,48,48,7,10,2,2,0,0.1
2025-09-05T1400,3375A,102.8017,24.8336,昆明市,青年创业园,,22,12,16,8,8,70,,44,44,1,8,2,3,0.4,0.5
2025-09-05T1400,3550A,102.7997,24.9786,昆明市,昆明学院,,23,12,18,7,10,72,,45,45,6,10,7,7,0.3,0.3
2025-09-05T1400,3551A,102.5967,24.6736,昆明市,晋宁区生态环境分局,,20,12,16,3,7,62,,44,44,4,6,5,4,0.4,0.5
2025-09-05T1400,3552A,102.6678,24.9856,昆明市,云天化总部,,23,10,16,3,11,73,,45,45,7,10,7,7,0.4,0.4
2025-09-05T1400,1456A,91.1319,29.6514,拉萨市,八廓街,,29,12,11,8,7,92,,48,48,5,13,6,7,0.2,0.2
2025-09-05T1400,1457A,91.1221,29.6747,拉萨市,市环保局,,29,10,15,7,7,92,,45,45,8,13,8,8,0.2,0.3
2025-09-05T1400,1458A,91.0874,29.6475,拉萨市,区监测站,,27,6,11,3,6,84,,41,41,7,23,4,5,0.2,0.3
2025-09-05T1400,1459A,91.1774,29.6541,拉萨市,西藏大学,,28,11,10,3,6,88,,46,46,9,13,7,8,0.3,0.3
2025-09-05T1400,1460A,90.9798,29.6588,拉萨市,区辐射站,,21,15,16,14,8,67,,33,33,8,18,5,6,0.3,0.3
2025-09-05T1400,1461A,91.0834,29.6292,拉萨市,拉萨火车站,,26,8,12,7,7,82,,40,40,5,20,6,6,0.4,0.5
2025-09-05T1400,2520A,109.2203,23.7256,来宾市,来宾技工学校,,26,21,30,13,15,82,,56,56,2,11,8,20,0.5,0.6
2025-09-05T1400,3535A,109.1781,23.7297,来宾市,兴宾区政府,,27,,19,15,12,85,,60,60,3,9,7,8,0.5,0.5
2025-09-05T1400,4002A,109.2416,23.7461,来宾市,中南小学,,28,15,26,3,16,88,,59,59,2,10,9,30,0.4,0.4
2025-09-05T1400,1477A,104.1373,35.9454,兰州市,榆中兰大校区,,,,,,,,,,,,,,,,
2025-09-05T1400,1479A,103.831,36.0464,兰州市,铁路设计院,颗粒物(PM10),60,70,70,28,32,94,,79,58,18,20,17,10,0.8,0.5
2025-09-05T1400,3241A,103.7439,36.0842,兰州市,百合公园,颗粒物(PM10),57,63,62,15,20,88,,65,60,6,8,5,4,0.6,0.4
2025-09-05T1400,3242A,103.9611,35.998,兰州市,和平,颗粒物(PM10),60,70,76,27,27,103,,83,76,2,8,10,10,0.2,0.3
2025-09-05T1400,4236A,103.6293,36.0938,兰州市,庄浪东路808号,颗粒物(PM10),62,73,67,20,29,97,,77,70,16,18,12,13,0.3,0.3
2025-09-05T1400,4237A,103.7251,36.1043,兰州市,安宁西路88号,颗粒物(PM10),63,76,72,22,32,114,,93,88,4,6,6,4,0.4,0.3
2025-09-05T1400,4238A,103.8470,36.0676,兰州市,北滨河东路1号,颗粒物(PM10),64,77,65,20,30,108,,84,72,10,13,17,9,0.6,0.3
2025-09-05T1400,3245A,103.6633,36.533,兰州新区,新区管委会,,36,36,33,25,22,113,,97,97,4,5,15,12,0.2,0.3
2025-09-05T1400,3246A,103.6975,36.4789,兰州新区,舟曲中学,,47,47,64,20,20,109,,94,94,7,8,6,9,0.4,0.4
2025-09-05T1400,1067A,116.6708,39.5111,廊坊市,药材公司,,49,49,74,30,43,117,,89,89,11,20,4,7,0.6,0.7
2025-09-05T1400,1068A,116.7214,39.5589,廊坊市,开发区,,44,44,72,28,41,104,,97,97,13,17,2,4,0.5,0.6
2025-09-05T1400,1070A,116.7244,39.5269,廊坊市,北华航天学院,,44,44,58,27,41,114,,104,104,10,13,4,7,0.5,0.6
2025-09-05T1400,2919A,116.7022,39.5453,廊坊市,河北工业大学,,39,35,56,27,40,116,,107,107,11,17,2,5,0.4,0.6
2025-09-05T1400,2535A,103.7723,29.5462,乐山市,花湖湾,,49,49,58,34,44,86,,48,43,14,20,4,5,0.5,0.6
2025-09-05T1400,2536A,103.7627,29.5844,乐山市,牛耳桥,细颗粒物(PM2.5),62,60,64,44,45,86,,35,29,18,22,6,5,0.8,0.9
2025-09-05T1400,2537A,103.7508,29.6006,乐山市,市第三水厂,细颗粒物(PM2.5),63,62,66,45,46,82,,42,32,17,22,5,5,0.8,0.8
2025-09-05T1400,2538A,103.7571,29.5664,乐山市,市监测站,细颗粒物(PM2.5),57,56,63,40,42,82,,34,28,11,19,7,7,1.0,1
2025-09-05T1400,3361A,103.7311,29.5628,乐山市,理工大学,"颗粒物(PM10),细颗粒物(PM2.5)",53,56,66,37,41,81,,29,29,14,21,8,8,0.9,1
2025-09-05T1400,2598A,100.2143,26.8576,丽江市,西南郊,,17,14,10,3,4,53,,44,44,2,4,6,6,0.9,1
2025-09-05T1400,2599A,100.2497,26.8802,丽江市,丽江古城,,19,15,16,8,7,60,,46,46,8,9,10,10,0.3,0.4
2025-09-05T1400,2600A,100.2203,26.8906,丽江市,市中心,,16,11,10,7,7,51,,40,40,7,9,10,10,0.4,0.4
2025-09-05T1400,1267A,119.914,28.4514,丽水市,监测站大楼,,37,22,24,10,16,118,,84,84,6,11,4,4,0.5,0.5
2025-09-05T1400,1268A,119.93,28.4586,丽水市,莲都小学,,37,28,28,11,12,118,,81,81,4,12,3,4,0.4,0.4
2025-09-05T1400,1269A,119.879,28.4231,丽水市,余庄前,,35,21,26,11,18,109,,80,80,4,16,5,5,0.4,0.4
2025-09-05T1400,1173A,119.176,34.5885,连云港市,市环境监测站,,40,12,13,7,2,125,,102,102,4,7,4,4,0.4,0.4
2025-09-05T1400,3000A,119.3581,34.6972,连云港市,德源药业,,31,14,19,3,5,99,,79,79,10,17,4,4,0.5,0.5
2025-09-05T1400,3007A,119.178,34.844,连云港市,新城一中,,33,15,17,3,4,103,,90,90,5,8,3,3,0.5,0.5
2025-09-05T1400,3008A,119.3608,34.7519,连云港市,胡沟管理处,,29,17,10,3,1,90,,80,80,10,7,5,4,0.8,0.8
2025-09-05T1400,3009A,119.1478,34.5911,连云港市,矿山设计院,,37,14,14,12,6,116,,101,101,4,8,5,5,0.6,0.6
2025-09-05T1400,3434A,119.2413,34.6539,连云港市,工贸学校,,36,18,13,13,7,115,,94,94,2,4,6,6,0.9,0.8
2025-09-05T1400,3664A,119.4172,34.7341,连云港市,连云街道,,34,16,13,12,5,106,,91,91,2,9,4,4,0.4,0.6
2025-09-05T1400,2571A,102.3431,27.8099,凉山彝族自治州,青龙寺,,25,8,16,6,5,78,,50,50,2,6,4,3,0.4,0.3
2025-09-05T1400,2572A,102.2721,27.8415,凉山彝族自治州,邛海宾馆,,23,23,21,15,12,70,,51,51,3,9,12,9,0.4,0.4
2025-09-05T1400,2573A,102.2625,27.898,凉山彝族自治州,西昌市政府,,20,19,22,13,15,64,,46,46,6,9,16,11,0.6,0.5
2025-09-05T1400,2574A,102.2685,27.8851,凉山彝族自治州,凉山州政府,,,27,23,17,13,74,,51,51,,10,16,10,0.8,1.2
2025-09-05T1400,4229A,102.2342,27.8859,凉山彝族自治州,凯乐南路30号,,19,17,22,8,11,60,,44,44,5,10,10,11,0.8,0.8
2025-09-05T1400,2212A,123.2,41.1953,辽阳市,宏伟区,,25,21,33,3,24,79,,71,71,6,12,2,3,0.5,0.8
2025-09-05T1400,2213A,123.1683,41.2495,辽阳市,新华园,,27,19,50,3,19,86,,68,68,5,22,3,6,0.4,0.7
2025-09-05T1400,2214A,123.2354,41.2639,辽阳市,滨河路,,25,17,47,12,18,78,,63,63,4,21,7,6,0.4,0.7
2025-09-05T1400,2215A,123.149,41.2991,辽阳市,铁西工业园,,27,25,56,3,27,84,,66,66,7,19,3,4,0.5,0.9
2025-09-05T1400,2227A,125.1358,42.8845,辽源市,环保局,,29,22,42,6,12,91,,71,71,2,14,8,9,0.5,0.6
2025-09-05T1400,3239A,125.0764,42.9078,辽源市,银鹰制药,,29,14,27,13,15,90,,90,90,8,21,12,11,0.4,0.5
2025-09-05T1400,1625A,115.9848,36.4372,聊城市,区政府,,40,30,47,28,34,64,,90,83,20,20,10,11,0.8,0.8
2025-09-05T1400,2878A,116.0072,36.4343,聊城市,聊大东校,,42,36,50,29,32,70,,91,84,21,22,9,11,0.6,0.6
2025-09-05T1400,3200A,115.9819,36.4978,聊城市,监控中心,,35,29,50,24,29,78,,90,88,18,20,8,9,0.9,0.9
2025-09-05T1400,3513A,116.0445,36.4361,聊城市,九州社区,,36,32,61,25,34,66,,83,76,16,17,3,6,0.6,0.6
2025-09-05T1400,4018A,116.0567,36.4608,聊城市,星美广场,,45,,53,31,33,61,,74,,17,17,6,8,0.8,0.8
2025-09-05T1400,2632A,94.3681,29.6376,林芝市,林芝监测站,,14,6,6,3,4,42,,26,26,3,3,5,5,0.4,0.4
2025-09-05T1400,2633A,94.3616,29.6616,林芝市,林芝人民医院,,,6,9,3,4,44,,27,27,4,3,,5,0.3,0.4
2025-09-05T1400,2603A,100.0781,23.8982,临沧市,市环保局,,15,12,16,10,20,42,,26,26,6,8,8,5,0.3,0.5
2025-09-05T1400,2604A,100.0894,23.8822,临沧市,市气象局,,20,,15,14,15,36,,24,24,5,8,8,9,0.5,0.5
2025-09-05T1400,1733A,111.5531,36.0783,临汾市,临钢医院,,23,23,24,3,9,60,,32,,9,12,6,4,0.6,1.1
2025-09-05T1400,1734A,111.5028,36.0714,临汾市,技工学校,,41,41,28,16,22,68,,39,39,10,12,4,5,0.7,0.9
2025-09-05T1400,1736A,111.5018,36.0855,临汾市,市委,,25,22,38,6,12,77,,39,39,10,15,4,4,0.6,0.9
2025-09-05T1400,3018A,111.505,36.1014,临汾市,唐尧大酒店,,40,40,40,7,13,82,,41,41,7,14,5,6,0.6,0.9
2025-09-05T1400,4244A,111.4879,36.0530,临汾市,启星学校,,26,,22,18,23,55,,37,37,13,14,3,3,0.9,1
2025-09-05T1400,4271A,103.2464,35.6123,临夏回族自治州,滨河东路1号,颗粒物(PM10),66,82,50,30,19,79,,58,58,1,5,7,7,0.2,0.3
2025-09-05T1400,4310A,103.2093,35.5995,临夏回族自治州,新华街21号,颗粒物(PM10),79,108,53,29,26,86,,71,69,4,6,6,6,0.3,0.3
2025-09-05T1400,1618A,118.3429,35.0532,临沂市,沂河小区,,41,22,29,14,17,131,,84,84,8,18,10,10,0.4,0.4
2025-09-05T1400,1619A,118.295,35.0583,临沂市,鲁南制药厂,,44,19,23,16,16,138,,95,95,7,16,9,10,0.4,0.6
2025-09-05T1400,1620A,118.2794,34.9976,临沂市,新光毛纺厂,,43,14,19,14,14,137,,91,91,6,15,7,8,0.4,0.5
2025-09-05T1400,1621A,118.3956,35.0888,临沂市,河东保险公司,,43,19,26,6,10,135,,81,81,6,21,7,7,0.3,0.3
2025-09-05T1400,3370A,118.3564,35.0215,临沂市,十里堡居委,,43,27,26,7,13,135,,87,87,8,19,10,11,0.3,0.4
2025-09-05T1400,3496A,118.3604,35.1084,临沂市,南坊新区,,44,19,28,3,9,139,,84,84,8,22,8,9,0.5,0.5
2025-09-05T1400,3860A,118.3920,35.0300,临沂市,皇山花园小区,,42,19,33,14,14,134,,85,85,5,22,9,10,0.4,0.4
2025-09-05T1400,1870A,109.4856,24.3895,柳州市,柳东小学,,32,26,25,12,16,102,,55,55,5,10,4,6,0.3,0.4
2025-09-05T1400,1871A,109.4157,24.3277,柳州市,环保监测站,,29,28,28,8,13,90,,61,61,5,10,7,7,0.5,0.6
2025-09-05T1400,1872A,109.389,24.341,柳州市,河西水厂,,28,15,29,6,16,88,,61,61,5,9,5,5,0.6,0.5
2025-09-05T1400,1873A,109.4311,24.2921,柳州市,市四中,,30,30,28,13,15,86,,54,54,6,14,7,7,0.4,0.5
2025-09-05T1400,1874A,109.4006,24.3631,柳州市,市九中,,30,,33,18,22,93,,62,62,4,11,3,3,0.4,0.5
2025-09-05T1400,1875A,109.4958,24.3134,柳州市,古亭山,,44,44,29,15,14,95,,53,53,4,16,6,6,0.4,0.4
2025-09-05T1400,3402A,109.5422,24.3996,柳州市,市二中,,33,29,30,15,16,104,,52,52,6,18,6,7,0.5,0.6
2025-09-05T1400,2307A,116.5079,31.737,六安市,监测大楼,,40,25,19,16,13,127,,92,92,2,7,4,4,0.4,0.4
2025-09-05T1400,2308A,116.4738,31.7643,六安市,皖西学院,,46,36,27,19,14,146,,105,105,2,6,3,3,0.4,0.4
2025-09-05T1400,2309A,116.4996,31.7905,六安市,朝阳厂,,39,34,20,17,15,124,,88,88,6,12,5,5,0.4,0.4
2025-09-05T1400,2310A,116.5567,31.7886,六安市,开发区,,40,,19,20,18,128,,90,90,2,13,3,3,0.6,0.5
2025-09-05T1400,2576A,104.8,26.5892,六盘水市,窑上,,33,27,36,23,20,79,,51,51,3,4,5,4,0.4,0.4
2025-09-05T1400,2577A,104.83,26.5917,六盘水市,黄土坡,,25,15,21,7,13,78,,58,58,6,8,1,5,0.3,0.4
2025-09-05T1400,2578A,104.89,26.5939,六盘水市,水钢,,25,16,29,15,18,79,,54,54,4,5,4,4,0.3,0.3
2025-09-05T1400,2579A,104.8475,26.5894,六盘水市,民中,,25,11,19,7,10,79,,52,52,4,5,2,2,0.4,0.4
2025-09-05T1400,2580A,104.9544,26.5506,六盘水市,双水,,28,19,19,19,17,67,,49,49,5,5,2,3,0.2,0.2
2025-09-05T1400,2335A,117.0189,25.1181,龙岩市,龙岩师专,,,,,,,,,,,,,,,,
2025-09-05T1400,2336A,117.0217,25.1033,龙岩市,龙岩市监测站,,40,27,26,13,16,128,,79,79,5,19,4,8,0.5,0.7
2025-09-05T1400,2337A,117.0258,25.0661,龙岩市,闽西职业技术学院,,42,36,29,20,14,133,,80,80,3,15,4,14,0.5,0.6
2025-09-05T1400,2338A,117.0196,25.0306,龙岩市,龙岩学院,,39,30,28,15,16,123,,71,71,4,10,5,4,0.6,0.6
2025-09-05T1400,2665A,105.0822,33.3261,陇南市,汉王镇固水子,,,,,,,,,,,,,,,,
2025-09-05T1400,2885A,104.9339,33.3826,陇南市,滨江中学,,26,26,32,9,18,69,,70,66,12,6,5,5,0.7,0.6
2025-09-05T1400,3247A,104.955,33.371,陇南市,市总工会,,33,33,38,3,7,66,,70,66,14,8,7,7,0.4,0.4
2025-09-05T1400,2487A,111.9589,27.8901,娄底市,电视发射台,,30,30,36,9,17,72,,51,51,6,8,6,5,0.3,0.5
2025-09-05T1400,2488A,111.9975,27.725,娄底市,市监测站,,28,28,37,15,24,86,,66,66,4,12,7,12,0.4,0.5
2025-09-05T1400,2489A,112.0194,27.7314,娄底市,市委党校,,27,17,38,14,28,84,,67,67,6,11,6,10,0.2,0.3
2025-09-05T1400,2490A,111.9561,27.7569,娄底市,涟钢,,41,41,49,28,28,72,,45,45,12,19,13,9,0.9,1.1
2025-09-05T1400,2491A,111.9892,27.7044,娄底市,市政府,,,29,33,27,28,85,,72,72,3,8,7,7,,0.7
2025-09-05T1400,1893A,105.4324,28.9634,泸州市,九狮山,颗粒物(PM10),56,61,62,28,44,115,,57,57,5,9,7,6,0.3,0.4
2025-09-05T1400,1894A,105.4427,28.9063,泸州市,小市上码头,,45,43,51,31,34,80,,50,50,1,8,4,4,0.4,0.5
2025-09-05T1400,1895A,105.4241,28.8573,泸州市,兰田宪桥,,41,41,61,26,39,104,,57,57,23,16,5,5,0.6,0.6
2025-09-05T1400,1896A,105.4379,28.8833,泸州市,市环监站,,43,36,46,30,35,108,,68,68,9,12,6,6,0.5,0.5
2025-09-05T1400,4272A,105.3689,28.7783,泸州市,纳溪中医医院,,36,34,66,24,42,115,,62,62,12,18,2,2,0.5,0.7
2025-09-05T1400,2183A,111.1406,37.5211,吕梁市,环保局,,21,21,20,12,13,55,,61,61,31,24,1,2,0.6,0.9
2025-09-05T1400,2185A,111.1297,37.5136,吕梁市,自来水公司,,23,9,21,3,9,73,,61,61,15,18,2,3,0.4,1
2025-09-05T1400,2867A,111.1283,37.51,吕梁市,马茂庄小学,,23,23,26,13,13,45,,53,52,36,25,3,4,0.5,1
2025-09-05T1400,1812A,112.3931,34.6516,洛阳市,市委党校,,,23,13,12,10,59,,68,59,,10,6,6,0.5,0.5
2025-09-05T1400,1815A,112.494,34.6886,洛阳市,河南林校,,,34,20,,11,67,,73,69,20,17,7,6,0.7,0.5
2025-09-05T1400,1816A,112.3844,34.623,洛阳市,开发区管委会,,20,17,12,10,11,61,,70,60,5,7,4,4,0.6,0.6
2025-09-05T1400,1817A,112.4267,34.6258,洛阳市,市委新办公区,,29,,13,20,15,58,,66,59,7,8,7,6,0.5,0.5
2025-09-05T1400,3340A,112.6005,34.6326,洛阳市,伊滨,,30,25,15,21,13,61,,60,60,15,15,8,8,0.7,0.6
2025-09-05T1400,3341A,112.4951,34.6332,洛阳市,中移产业园,,32,32,20,20,14,63,,60,58,14,13,8,7,0.6,0.5
2025-09-05T1400,3593A,112.5736,34.8993,洛阳市,吉利监测站,,20,13,21,3,17,63,,75,66,6,7,4,4,0.6,0.6
2025-09-05T1400,3635A,112.3677,34.662,洛阳市,河科大西苑校区,,20,19,13,10,7,63,,76,65,12,14,8,7,0.6,0.6
2025-09-05T1400,3636A,112.4388,34.6781,洛阳市,英才小学,,37,37,20,21,16,59,,72,63,22,14,8,6,0.7,0.6
2025-09-05T1400,4214A,112.4600,34.6949,洛阳市,春都路1号院,,,27,13,14,8,62,,71,64,,10,8,7,0.6,0.5
2025-09-05T1400,2399A,114.051,33.5699,漯河市,三五一五工厂,,44,44,33,30,27,84,,58,58,9,10,5,5,0.9,0.8
2025-09-05T1400,2400A,114.0055,33.5698,漯河市,漯河大学,,42,41,33,29,28,79,,58,58,8,9,5,5,0.6,0.6
2025-09-05T1400,2401A,114.0138,33.5828,漯河市,市水利局,,46,46,47,31,30,79,,58,58,8,9,5,5,0.7,0.7
2025-09-05T1400,2402A,114.0261,33.5698,漯河市,市广电局,,45,42,38,31,30,87,,62,62,6,8,3,3,0.7,0.6
2025-09-05T1400,3478A,113.9749,33.5664,漯河市,市图书馆,,31,31,39,13,23,75,,58,58,8,10,4,4,0.6,0.6
2025-09-05T1400,4250A,114.0892,33.5882,漯河市,韶山路11号,,47,47,33,19,25,86,,59,59,7,9,3,4,0.6,0.6
2025-09-05T1400,1798A,118.5092,31.6837,马鞍山市,湖东路四小,臭氧1小时,57,53,52,13,35,165,,133,133,7,15,7,8,0.6,0.8
2025-09-05T1400,1799A,118.5024,31.6449,马鞍山市,开发区,臭氧1小时,82,43,57,24,32,185,,133,133,7,20,8,9,0.6,0.8
2025-09-05T1400,1802A,118.6245,31.7241,马鞍山市,濮塘,臭氧1小时,57,39,45,29,32,165,,128,128,4,10,8,8,0.8,1
2025-09-05T1400,3633A,118.4918,31.6809,马鞍山市,雨山,,46,38,48,26,34,145,,128,128,10,18,7,8,0.5,0.7
2025-09-05T1400,4191A,118.5274,31.72227,马鞍山市,慈湖高新区,,47,21,52,21,35,148,,125,125,10,18,8,8,0.7,0.7
2025-09-05T1400,1686A,111.0286,21.4688,茂名市,电白南海,,42,,18,29,12,53,,41,41,5,7,4,4,0.2,0.3
2025-09-05T1400,1687A,110.9294,21.6533,茂名市,茂石化七小,,22,17,19,12,8,69,,49,49,6,8,5,6,0.6,0.6
2025-09-05T1400,1688A,110.9107,21.6687,茂名市,健康路,,22,12,14,9,10,70,,50,50,6,8,4,6,0.8,0.7
2025-09-05T1400,1689A,110.8592,21.6828,茂名市,高岭,,31,31,28,9,5,71,,45,45,11,13,10,9,0.6,0.5
2025-09-05T1400,3450A,111.01,21.5165,茂名市,电白水东,,17,7,11,3,6,54,,46,46,7,10,5,6,0.3,0.4
2025-09-05T1400,2539A,104.0308,30.0478,眉山市,黑龙滩水库,,50,45,54,35,48,81,,59,59,2,8,3,2,0.2,0.5
2025-09-05T1400,2540A,103.8416,30.0874,眉山市,气象局,,29,29,99,7,62,57,,33,23,16,27,7,9,0.4,0.6
2025-09-05T1400,3137A,103.8578,30.0744,眉山市,市委党校,,20,14,91,3,61,63,,31,31,13,26,7,10,0.5,0.8
2025-09-05T1400,3148A,103.8291,30.0564,眉山市,区人社局,,49,49,100,9,56,66,,36,27,16,28,14,18,0.8,1
2025-09-05T1400,1690A,116.1231,24.3284,梅州市,梅江月梅,,32,28,21,21,13,101,,59,59,6,12,8,8,0.6,0.5
2025-09-05T1400,1691A,116.0797,24.2719,梅州市,梅县新城,,36,32,22,25,13,114,,68,68,4,10,7,7,0.6,0.6
2025-09-05T1400,1692A,116.1248,24.2654,梅州市,环境监控中心,,40,30,20,19,13,127,,66,66,7,10,4,5,0.4,0.4
2025-09-05T1400,3315A,116.1233,24.2991,梅州市,梅龙,,33,27,17,23,14,97,,56,56,4,8,8,8,0.7,0.6
2025-09-05T1400,1878A,104.7778,31.4741,绵阳市,富乐山,,25,,24,11,18,79,,47,47,4,7,8,8,0.5,0.6
2025-09-05T1400,1880A,104.6697,31.4668,绵阳市,高新区自来水公司,,23,6,32,3,14,73,,44,44,8,17,8,8,0.4,0.6
2025-09-05T1400,1881A,104.7287,31.5075,绵阳市,三水厂,,25,14,29,3,20,77,,44,44,5,15,9,10,0.4,0.6
2025-09-05T1400,3491A,104.69,31.5322,绵阳市,西科大附属小学,,25,9,40,3,23,80,,45,45,7,21,8,8,0.5,0.7
2025-09-05T1400,3492A,104.5648,31.5343,绵阳市,安州区旅游局,,23,6,23,3,14,71,,41,41,6,12,8,9,0.3,0.7
2025-09-05T1400,4226A,104.7651,31.4531,绵阳市,绵阳市气象局,,,5,27,,20,80,,52,52,4,7,5,6,0.3,0.5
2025-09-05T1400,1784A,129.61,44.561,牡丹江市,环保大楼,,29,,33,13,13,90,,55,55,7,20,4,4,0.3,0.4
2025-09-05T1400,1785A,129.6115,44.5782,牡丹江市,文化广场,,29,15,35,11,22,90,,53,53,7,22,5,6,0.4,0.5
2025-09-05T1400,1786A,129.5904,44.5963,牡丹江市,第一医院,,30,18,29,8,19,96,,60,60,8,19,8,8,0.1,0.2
2025-09-05T1400,1787A,129.6364,44.6075,牡丹江市,机车工厂,,30,18,38,3,18,96,,56,56,8,18,7,9,0.4,0.5
2025-09-05T1400,1788A,129.6386,44.5462,牡丹江市,第一中学,,29,12,29,7,14,92,,58,58,5,17,4,4,0.3,0.3
2025-09-05T1400,2531A,105.0703,29.61,内江市,市监测站,,36,36,28,24,24,63,,55,35,7,9,5,5,0.6,0.6
2025-09-05T1400,2532A,105.0717,29.5947,内江市,东兴区政府,,26,25,28,18,16,56,,52,33,9,11,4,4,0.6,0.6
2025-09-05T1400,2533A,105.0653,29.5817,内江市,内江二中,,39,29,28,27,28,57,,47,31,12,13,3,3,0.7,0.7
2025-09-05T1400,2534A,105.0406,29.5822,内江市,内江日报社,,36,28,31,25,27,57,,51,33,9,15,5,5,0.6,0.6
2025-09-05T1400,2628A,92.0657,31.4846,那曲市,那曲监测站,,29,13,12,6,9,90,,77,69,6,11,2,2,0.2,0.3
2025-09-05T1400,4243A,92.0515,31.4787,那曲市,那曲市委宣传部,,30,7,10,3,6,96,,86,80,3,6,3,4,0.3,0.4
2025-09-05T1400,1290A,115.8931,28.6843,南昌市,省外办,,39,35,41,27,29,123,,82,82,2,17,6,6,1.0,0.9
2025-09-05T1400,1291A,115.8886,28.7003,南昌市,省林业公司,,41,29,40,22,22,130,,80,80,4,21,4,3,0.8,0.7
2025-09-05T1400,1292A,115.8126,28.7442,南昌市,林科所,臭氧1小时,60,31,28,19,20,168,,102,102,2,18,6,5,0.9,0.7
2025-09-05T1400,1294A,115.8518,28.687,南昌市,建工学校,,49,33,42,12,13,156,,92,92,11,30,7,7,0.7,0.8
2025-09-05T1400,1295A,115.8921,28.6424,南昌市,象湖,,50,37,35,19,22,158,,102,102,8,23,8,8,0.7,0.8
2025-09-05T1400,1296A,115.7423,28.7996,南昌市,武术学校,,25,16,18,9,12,80,,76,76,10,9,9,9,0.6,0.6
2025-09-05T1400,3046A,115.9084,28.6062,南昌市,机电学校,,44,33,49,22,28,140,,91,91,7,26,6,6,0.5,0.6
2025-09-05T1400,3690A,115.9721,28.7031,南昌市,外国语学校,,40,26,38,10,19,125,,90,90,6,25,8,8,0.6,0.5
2025-09-05T1400,4192A,115.9316,28.68677,南昌市,南京东路235号,,41,32,41,17,21,129,,94,94,8,22,11,11,0.9,1
2025-09-05T1400,1905A,106.056,30.8064,南充市,西山风景区,,,,,,,,,,,,,,,,
2025-09-05T1400,1906A,106.0789,30.8023,南充市,南充市委,,19,6,33,3,27,59,,30,30,6,10,3,3,0.3,0.6
2025-09-05T1400,1907A,106.1031,30.8217,南充市,南充炼油厂,,20,16,35,3,22,63,,33,33,3,6,4,5,0.1,0.3
2025-09-05T1400,4227A,106.1083,30.7884,南充市,梨树横街98号,,21,,35,7,26,65,,36,36,6,6,2,3,0.2,0.4
2025-09-05T1400,4304A,106.1172,30.843,南充市,清泉寺北路188号,,,15,33,3,30,65,,31,31,,7,3,4,0.2,0.4
2025-09-05T1400,4305A,106.067,30.7616,南充市,同庆路1号,,21,6,21,3,19,66,,35,35,7,10,4,4,0.4,0.6
2025-09-05T1400,1151A,118.8086,32.1065,南京市,迈皋桥,,45,,34,31,25,130,,92,92,13,32,4,4,0.7,0.7
2025-09-05T1400,1152A,118.7538,32.0551,南京市,草场门,臭氧1小时,99,41,44,29,28,199,,134,134,10,18,5,5,0.7,0.8
2025-09-05T1400,1153A,118.7794,32.0745,南京市,山西路,臭氧1小时,92,41,46,22,22,193,,140,140,2,14,4,4,0.6,0.7
2025-09-05T1400,1154A,118.7752,32.0023,南京市,中华门,臭氧1小时,52,27,36,22,24,161,,120,120,4,18,4,4,0.7,1
2025-09-05T1400,1155A,118.8109,32.0309,南京市,瑞金路,,50,24,35,22,27,159,,124,124,5,11,6,6,0.6,0.4
2025-09-05T1400,1156A,118.7997,32.0754,南京市,玄武湖,臭氧1小时,73,38,41,22,18,178,,129,129,8,11,3,4,0.4,0.5
2025-09-05T1400,1157A,118.6414,32.0931,南京市,浦口,臭氧1小时,78,40,47,23,22,182,,127,127,10,21,6,6,0.5,0.6
2025-09-05T1400,1158A,118.7356,31.9996,南京市,奥体中心,臭氧1小时,85,37,46,22,26,188,,139,139,11,20,6,7,0.5,0.6
2025-09-05T1400,1159A,118.9125,32.1028,南京市,仙林大学城,臭氧1小时,69,46,43,22,20,175,,127,127,5,15,6,8,0.7,0.9
2025-09-05T1400,3422A,118.8436,31.9198,南京市,江宁彩虹桥,,48,33,39,19,28,151,,128,128,13,21,4,5,0.5,0.7
2025-09-05T1400,3427A,118.8554,32.3578,南京市,六合雄州,臭氧1小时,112,38,44,30,26,224,,132,132,15,16,6,6,0.9,0.8
2025-09-05T1400,4249A,118.8708,31.3402,南京市,汶溪路181号,,46,28,43,28,33,146,,122,122,6,12,6,7,0.6,0.8
2025-09-05T1400,4312A,119.019,31.6512,南京市,中山西路1号,,38,,38,23,28,119,,106,106,9,19,3,4,0.6,0.8
2025-09-05T1400,1401A,108.3103,22.7881,南宁市,二十一中,,25,15,21,8,12,77,,59,59,3,10,4,7,0.5,0.6
2025-09-05T1400,1402A,108.3141,22.8528,南宁市,北湖,,30,13,20,13,14,93,,64,64,5,8,3,4,0.4,0.5
2025-09-05T1400,1403A,108.3206,22.8225,南宁市,市监测站,,26,14,15,12,13,81,,61,61,5,8,4,6,0.4,0.5
2025-09-05T1400,1404A,108.3829,22.8037,南宁市,大自然花园,,27,19,22,11,14,85,,60,60,4,7,5,6,0.4,0.5
2025-09-05T1400,1405A,108.4394,22.7904,南宁市,仙葫,,22,18,20,9,10,70,,53,53,4,7,4,4,0.4,0.6
2025-09-05T1400,1406A,108.2397,22.8467,南宁市,区农职院,,32,17,20,11,11,101,,73,73,6,12,6,7,0.2,0.3
2025-09-05T1400,1407A,108.3275,22.735,南宁市,英华嘉园,,22,,20,12,15,68,,50,50,4,12,2,5,0.4,0.4
2025-09-05T1400,3401A,108.4834,22.7618,南宁市,红星社区,,24,18,23,13,19,76,,52,52,3,9,4,5,0.4,0.5
2025-09-05T1400,4221A,108.2177,22.7774,南宁市,乐贤路16号,,32,32,28,17,15,94,,63,63,6,17,4,5,0.3,0.5
2025-09-05T1400,2331A,118.0966,26.6761,南平市,茫荡山,,,,17,,12,,,89,,,,,3,,0.3
2025-09-05T1400,2332A,118.1681,26.6369,南平市,南平市监测站,,35,19,20,16,14,111,,77,77,3,6,4,5,0.4,0.4
2025-09-05T1400,2333A,118.1825,26.6489,南平市,南平铝业有限公司,,34,28,23,20,15,108,,75,75,2,5,4,5,0.5,0.6
2025-09-05T1400,2334A,118.1756,26.6272,南平市,南平七中,,35,35,21,17,12,106,,69,69,2,4,3,3,0.7,0.8
2025-09-05T1400,1168A,120.9098,31.9663,南通市,狼山街道,,,27,28,,18,190,,94,94,11,24,,5,0.6,0.7
2025-09-05T1400,1169A,120.86,32.0005,南通市,虹桥,臭氧1小时,106,32,31,28,23,212,,110,110,12,21,5,6,0.5,0.7
2025-09-05T1400,1170A,120.87,32.02,南通市,城中,臭氧1小时,57,36,37,23,23,165,,88,88,10,22,5,7,0.8,0.8
2025-09-05T1400,1171A,120.94,31.93,南通市,星湖花园,,49,28,24,22,17,155,,80,80,8,20,4,4,0.5,0.5
2025-09-05T1400,1172A,120.81,32.0417,南通市,紫琅学院,臭氧1小时,85,36,30,24,19,188,,100,100,24,22,5,5,0.8,0.7
2025-09-05T1400,3291A,121.067,32.062,南通市,通州监测站,臭氧1小时,83,27,21,17,16,186,,99,99,8,14,2,3,0.7,0.7
2025-09-05T1400,3432A,120.9348,31.9883,南通市,环境教育馆,臭氧1小时,107,44,33,22,21,214,,98,98,10,28,6,4,0.4,0.4
2025-09-05T1400,2404A,112.5224,33.0122,南阳市,瓦房庄,,31,31,22,8,7,68,,63,58,4,6,7,7,0.6,0.6
2025-09-05T1400,2405A,112.5003,32.9735,南阳市,汉画馆,,33,33,23,11,8,62,,62,55,9,8,8,8,0.8,0.7
2025-09-05T1400,2406A,112.5573,33.027,南阳市,气象站,,28,28,13,14,6,69,,64,60,6,10,7,7,0.7,0.6
2025-09-05T1400,2407A,112.5481,32.9689,南阳市,理工学院,,,32,20,,6,68,,62,58,6,6,8,8,0.7,0.6
2025-09-05T1400,4008A,112.5234,32.9922,南阳市,卧龙区政府,,26,26,17,16,13,64,,55,55,9,10,6,6,0.8,0.7
2025-09-05T1400,1234A,121.8358,29.911,宁波市,区环保大楼,,27,25,26,9,10,86,,81,81,6,15,5,5,0.3,0.3
2025-09-05T1400,1235A,121.56,29.82,宁波市,万里学院,,42,20,24,11,15,134,,89,89,4,11,7,7,0.5,0.5
2025-09-05T1400,1236A,121.713,29.9572,宁波市,龙赛医院,,35,27,28,11,8,109,,90,90,14,14,9,6,0.4,0.4
2025-09-05T1400,1239A,121.633,29.7733,宁波市,钱湖水厂,,35,14,19,11,12,112,,85,85,4,9,7,7,0.4,0.5
2025-09-05T1400,1240A,121.5856,29.8635,宁波市,太古小学,,40,25,28,16,12,128,,85,85,4,9,3,3,0.4,0.5
2025-09-05T1400,1241A,121.524,29.8674,宁波市,市环境监测中心,,41,23,24,10,11,131,,78,78,5,13,6,7,0.4,0.5
2025-09-05T1400,2871A,121.6147,29.9017,宁波市,万里国际学校,,44,27,27,13,12,139,,95,95,4,9,5,5,0.4,0.4
2025-09-05T1400,3710A,121.5594,29.8975,宁波市,白沙活动中心,,48,16,20,9,11,152,,91,91,7,14,6,7,0.4,0.4
2025-09-05T1400,2339A,119.5001,26.6946,宁德市,金涵水库,,,,24,,13,,,44,,,5,,1,,0.8
2025-09-05T1400,2341A,119.5388,26.6612,宁德市,宁德市监测站,,28,17,27,15,18,87,,70,70,4,10,4,4,0.4,0.6
2025-09-05T1400,3209A,119.5231,26.6562,宁德市,宁德一中,,28,14,28,8,17,88,,77,77,3,7,4,6,0.3,0.5
2025-09-05T1400,2618A,98.8601,25.8567,怒江傈僳族自治州,州监测站,,20,20,25,14,18,60,,33,33,7,11,6,5,0.4,0.5
2025-09-05T1400,2619A,98.8546,25.8417,怒江傈僳族自治州,泸水一中,,23,23,20,3,10,54,,26,26,7,12,5,4,0.4,0.6
2025-09-05T1400,1888A,101.6891,26.571,攀枝花市,弄弄坪,,20,19,40,8,15,63,,43,43,5,20,4,9,0.5,0.8
2025-09-05T1400,1889A,101.5769,26.5928,攀枝花市,河门口,,26,19,28,9,14,81,,46,46,7,14,14,13,0.9,0.8
2025-09-05T1400,1890A,101.7169,26.585,攀枝花市,炳草岗,,25,23,43,8,16,77,,43,43,6,23,6,5,0.5,0.7
2025-09-05T1400,1891A,101.7369,26.5008,攀枝花市,仁和,,20,11,19,6,12,61,,39,39,4,11,8,8,0.5,0.6
2025-09-05T1400,2835A,101.7227,26.567,攀枝花市,四十中小,,34,34,34,18,18,65,,43,43,4,20,10,23,0.6,0.9
2025-09-05T1400,1604A,122.0303,41.1489,盘锦市,开发区,,34,18,30,12,25,107,,97,97,10,21,8,9,0.3,0.5
2025-09-05T1400,1605A,122.0485,41.0883,盘锦市,兴隆台,,35,27,32,9,18,110,,91,91,8,24,7,8,0.5,0.6
2025-09-05T1400,1606A,121.8297,41.1028,盘锦市,新生街道,,39,31,24,10,18,123,,99,99,8,15,5,4,0.5,0.5
2025-09-05T1400,1832A,113.3257,33.742,平顶山市,新华旅馆,,24,24,19,16,12,69,,79,74,7,8,4,4,0.6,0.6
2025-09-05T1400,1833A,113.2919,33.737,平顶山市,规划设计院,,20,14,13,9,9,64,,76,69,8,9,4,4,0.8,0.7
2025-09-05T1400,1834A,113.182,33.774,平顶山市,平顶山工学院,,20,20,13,3,6,60,,82,74,12,10,5,5,0.7,0.5
2025-09-05T1400,3204A,113.3025,33.73,平顶山市,规划局,,21,17,10,12,7,66,,,,9,9,4,4,0.7,0.6
2025-09-05T1400,3594A,112.8867,33.9116,平顶山市,石龙区,,22,,9,15,9,61,,60,60,8,9,4,4,0.7,0.7
2025-09-05T1400,2656A,106.6692,35.5461,平凉市,聚贤嘉苑,,,47,68,24,33,90,,96,75,4,12,,8,0.5,0.6
2025-09-05T1400,2657A,106.7021,35.5307,平凉市,博物馆,,45,45,72,13,30,88,,90,78,5,11,9,9,0.5,0.5
2025-09-05T1400,2347A,114.0997,27.5002,萍乡市,武功山,,28,11,8,7,7,87,,61,61,4,4,11,10,0.3,0.3
2025-09-05T1400,2348A,113.8385,27.6434,萍乡市,中医院,颗粒物(PM10),59,67,40,14,21,115,,86,86,9,16,3,19,0.7,0.9
2025-09-05T1400,2349A,113.8493,27.6253,萍乡市,市政府车库,,33,16,28,16,22,103,,72,72,2,9,10,12,0.4,0.7
2025-09-05T1400,2350A,113.8676,27.6435,萍乡市,市环保局,,35,26,36,14,23,111,,77,77,4,14,4,11,0.6,0.8
2025-09-05T1400,2351A,113.866,27.6198,萍乡市,安源区政府,,32,21,30,17,20,102,,71,71,1,10,16,18,0.2,0.6
2025-09-05T1400,2319A,119.0141,25.4325,莆田市,荔城区仓后路,,34,26,39,7,26,107,,94,94,5,11,8,7,0.6,0.6
2025-09-05T1400,2320A,119.0015,25.4553,莆田市,莆田市监测站,,38,38,34,3,25,113,,92,92,7,9,6,6,0.5,0.5
2025-09-05T1400,2321A,119.1119,25.4561,莆田市,涵江区六中,,27,19,33,3,23,85,,90,90,5,12,5,5,0.4,0.5
2025-09-05T1400,2322A,119.1013,25.3215,莆田市,秀屿区政府,,28,20,31,3,20,89,,96,96,5,10,5,6,0.4,0.5
2025-09-05T1400,2323A,118.981,25.4792,莆田市,东圳水库,,,,34,,20,,,94,,,8,,3,,0.8
2025-09-05T1400,2392A,115.0312,35.7636,濮阳市,环保局,,,,20,40,23,70,,103,84,,9,3,4,0.9,0.7
2025-09-05T1400,2394A,115.0574,35.7609,濮阳市,油田运输公司,细颗粒物(PM2.5),60,56,32,43,28,76,,105,84,14,9,2,2,1.0,0.9
2025-09-05T1400,3021A,115,35.7668,濮阳市,濮水河管理处,,44,44,27,23,15,59,,79,69,19,15,3,3,0.6,0.5
2025-09-05T1400,4216A,115.0924,35.7686,濮阳市,任丘路479号,颗粒物(PM10),59,67,39,38,22,71,,91,74,12,10,4,4,0.9,0.9
2025-09-05T1400,2601A,100.98,22.7633,普洱市,市环保局,,28,28,28,9,14,41,,28,28,4,5,7,7,0.5,0.5
2025-09-05T1400,2602A,100.9817,22.8322,普洱市,普洱第二中学,,25,25,30,3,11,57,,28,28,4,8,6,6,0.4,0.4
2025-09-05T1400,2262A,131.0518,45.8751,七台河市,新一中,,42,24,31,14,16,133,,89,89,8,18,9,10,0.6,0.9
2025-09-05T1400,3345A,131.0577,45.7879,七台河市,中波台,,,14,29,13,7,,,77,,10,26,7,8,0.0,0.7
2025-09-05T1400,3637A,131.0176,45.7761,七台河市,人民广场,,35,31,38,14,17,111,,77,77,7,20,12,12,0.7,0.7
2025-09-05T1400,3684A,130.8781,45.8222,七台河市,新建矿广场,,39,39,25,12,9,111,,76,76,6,23,10,11,0,0.4
2025-09-05T1400,1779A,123.9305,47.3636,齐齐哈尔市,安居小区,颗粒物(PM10),55,59,52,31,26,99,,84,84,18,13,9,8,0.8,0.8
2025-09-05T1400,1780A,123.9488,47.3386,齐齐哈尔市,中心广场,颗粒物(PM10),54,57,52,19,24,114,,94,94,10,12,6,6,0.7,0.8
2025-09-05T1400,1781A,123.9483,47.3227,齐齐哈尔市,农牧车辆厂,颗粒物(PM10),56,61,54,35,25,112,,91,91,7,7,7,7,0.4,0.5
2025-09-05T1400,1783A,123.945,47.2988,齐齐哈尔市,市环境监测站,,42,40,39,29,26,112,,93,93,8,7,6,6,0.7,0.7
2025-09-05T1400,3662A,123.6333,47.2075,齐齐哈尔市,富区青少年活动中心,颗粒物(PM10),62,74,48,24,29,96,,76,76,6,6,5,5,0.6,0.7
2025-09-05T1400,2591A,107.9783,26.5747,黔东南苗族侗族自治州,市环境监测站,,,13,13,,13,60,,60,60,2,2,2,2,0.3,0.4
2025-09-05T1400,2881A,107.8908,26.5311,黔东南苗族侗族自治州,凯里学院,,22,,11,13,13,68,,70,69,7,7,4,4,0.3,0.3
2025-09-05T1400,2593A,107.5228,26.2403,黔南布依族苗族自治州,小围寨,,18,6,10,3,7,57,,56,56,2,3,3,3,0.3,0.3
2025-09-05T1400,3538A,107.5175,26.2978,黔南布依族苗族自治州,沙坝,,12,6,15,3,8,37,,36,36,2,4,4,4,0.1,0.3
2025-09-05T1400,2589A,104.9022,25.0925,黔西南布依族苗族自治州,场坝街,,20,17,23,3,12,61,,52,51,5,6,6,5,0.4,0.4
2025-09-05T1400,2590A,104.8811,25.0992,黔西南布依族苗族自治州,坪东大道,,19,,26,13,17,58,,48,48,5,6,2,2,0.5,0.6
2025-09-05T1400,2502A,108.6236,21.9667,钦州市,市环保站,,30,27,25,7,7,96,,54,54,7,16,4,5,0.4,0.4
2025-09-05T1400,2503A,108.6549,21.9481,钦州市,沙埠小学,,31,25,30,18,21,97,,50,50,3,17,2,4,0.4,0.4
2025-09-05T1400,2504A,108.5989,21.7431,钦州市,港区一小,,22,21,25,8,8,69,,46,46,6,11,3,3,0.4,0.5
2025-09-05T1400,3404A,108.5959,21.9633,钦州市,北职校,,30,25,24,16,10,96,,54,54,4,14,4,4,0.6,0.6
2025-09-05T1400,1043A,119.7493,40.0116,秦皇岛市,第一关,,45,33,43,19,29,144,,104,104,2,27,5,7,0.4,0.4
2025-09-05T1400,1044A,119.5897,39.9499,秦皇岛市,监测站,,41,36,50,11,18,129,,95,95,9,17,5,7,0.4,0.4
2025-09-05T1400,1046A,119.5251,39.9041,秦皇岛市,建设大厦,,38,23,42,8,19,120,,91,91,3,14,4,6,0.3,0.4
2025-09-05T1400,3132A,119.610547,39.943889,秦皇岛市,文明里,,39,32,44,10,17,122,,96,96,10,15,6,7,0.2,0.3
2025-09-05T1400,4198A,119.5090,39.8253,秦皇岛市,北戴河轮滑馆,,38,38,47,18,18,118,,105,105,4,6,2,2,0.3,0.4
2025-09-05T1400,1307A,120.6659,36.2403,青岛市,仰口,,29,11,13,7,4,92,,80,80,8,6,9,10,0.5,0.6
2025-09-05T1400,1310A,120.4134,36.0658,青岛市,市南区东部子站,,34,12,14,3,10,106,,95,95,1,8,6,6,0.2,0.2
2025-09-05T1400,1311A,120.3664,36.1032,青岛市,四方区子站,,42,9,16,9,10,134,,101,101,1,12,4,5,0.2,0.2
2025-09-05T1400,1312A,120.2994,36.054,青岛市,市南区西部子站,,38,17,15,7,7,121,,91,91,9,11,6,6,0.5,0.5
2025-09-05T1400,1313A,120.4581,36.0858,青岛市,崂山区子站,,36,6,11,3,4,113,,94,94,3,7,8,8,0.2,0.2
2025-09-05T1400,1315A,120.3999,36.3083,青岛市,城阳区子站,臭氧1小时,60,17,18,10,8,168,,112,112,8,12,4,3,0.3,0.3
2025-09-05T1400,1966A,120.0405,35.8735,青岛市,黄岛区4号,臭氧1小时,54,14,17,9,6,163,,118,118,6,15,6,5,0.4,0.4
2025-09-05T1400,3362A,120.5014,36.4034,青岛市,即墨2号,臭氧1小时,62,24,16,9,8,169,,116,116,10,8,4,4,0.2,0.2
2025-09-05T1400,3642A,120.3503,36.0736,青岛市,市北区南部,,38,10,16,3,7,119,,98,98,3,10,6,7,0.6,0.6
2025-09-05T1400,3643A,120.3948,36.1805,青岛市,李沧区北部,,41,14,21,9,13,130,,93,93,12,20,6,5,0.4,0.3
2025-09-05T1400,4290A,120.1969,35.9546,青岛市,珠江路669号,臭氧1小时,58,19,18,15,11,166,,97,97,5,18,8,7,0.3,0.4
2025-09-05T1400,1702A,113.0426,23.691,清远市,环保大楼,,43,,37,20,24,135,,66,66,7,17,8,8,0.5,0.6
2025-09-05T1400,1703A,113.0208,23.7106,清远市,凤城街办,,40,22,40,15,22,128,,65,65,11,23,9,13,0.5,0.6
2025-09-05T1400,3025A,113.0477,23.6344,清远市,技师学院,,43,22,44,12,21,135,,66,66,6,24,10,11,0.3,0.4
2025-09-05T1400,3318A,112.9903,23.7403,清远市,清新太和,,40,25,37,13,22,127,,72,72,10,19,7,14,0.5,0.5
2025-09-05T1400,3455A,113.076,23.7198,清远市,清城东城,,44,26,36,18,19,139,,67,67,8,17,9,8,0.5,0.7
2025-09-05T1400,2661A,107.6325,35.7357,庆阳市,庆阳五中,,23,23,54,14,26,73,,70,70,4,6,7,7,0.3,0.4
2025-09-05T1400,2662A,107.6364,35.7067,庆阳市,市环保局,,26,16,56,16,24,81,,77,76,5,5,3,2,0.4,0.7
2025-09-05T1400,1916A,103.7897,25.5035,曲靖市,环境监测站,,26,18,23,7,10,81,,46,46,5,9,4,5,0.3,0.4
2025-09-05T1400,1917A,103.8,25.5364,曲靖市,烟厂办公区,,26,,21,10,12,83,,46,46,2,6,4,4,0.5,0.6
2025-09-05T1400,3376A,103.7947,25.462,曲靖市,南苑二区,,25,11,19,6,10,80,,45,45,5,8,4,4,0.3,0.4
2025-09-05T1400,3377A,103.7444,25.5261,曲靖市,曲靖师范学院,,29,,18,10,11,90,,50,50,5,6,2,3,0.4,0.4
2025-09-05T1400,1264A,118.8692,28.9398,衢州市,环保大楼,,46,28,33,18,20,145,,94,94,4,12,6,4,0.5,0.4
2025-09-05T1400,1265A,118.8709,28.9666,衢州市,实验学校,,42,19,32,14,20,132,,87,87,4,17,6,5,0.4,0.4
2025-09-05T1400,1266A,118.8621,28.9808,衢州市,衢州学院,,45,24,32,16,22,144,,92,92,5,24,5,4,0.4,0.4
2025-09-05T1400,1611A,118.5819,24.9117,泉州市,涂山街,,50,40,37,22,25,158,,110,110,10,14,2,3,0.7,0.6
2025-09-05T1400,1612A,118.5972,24.8978,泉州市,津头埔,,48,37,35,19,23,152,,112,112,8,13,3,4,0.6,0.5
2025-09-05T1400,1613A,118.6663,24.9424,泉州市,万安,,43,34,36,19,23,137,,105,105,5,14,2,2,0.6,0.5
2025-09-05T1400,1614A,118.6117,24.9604,泉州市,清源山,,,,20,,29,,,117,,,10,,2,,0.3
2025-09-05T1400,3529A,118.6333,24.9264,泉州市,城华南路,,43,28,32,19,25,136,,108,108,14,15,3,4,0.5,0.5
2025-09-05T1400,2626A,88.8876,29.2718,日喀则市,日喀则监测站,,23,6,8,3,2,72,,52,52,2,11,11,10,0.4,0.2
2025-09-05T1400,3726A,88.8781,29.2426,日喀则市,林业技术推广中心,,21,6,8,3,1,67,,52,52,2,3,5,6,0.2,0.2
2025-09-05T1400,1659A,119.471,35.4209,日照市,监测站,,32,7,11,3,8,101,,81,81,8,20,6,6,0.5,0.5
2025-09-05T1400,1660A,119.523,35.4216,日照市,市政府广场,,34,7,10,3,3,107,,89,89,2,8,5,5,0.5,0.6
2025-09-05T1400,1661A,119.5587,35.4044,日照市,港务局,,35,,9,12,13,109,,90,90,4,7,5,5,0.6,0.6
2025-09-05T1400,3507A,119.5328,35.4625,日照市,职业技术学院,,34,9,12,3,5,108,,90,90,3,7,5,5,0.5,0.5
2025-09-05T1400,3604A,119.3266,35.1044,日照市,岚山环保分局,,33,12,16,3,2,104,,93,93,8,9,8,7,0.6,0.5
2025-09-05T1400,1835A,111.1922,34.7752,三门峡市,市政府,,34,34,11,9,4,60,,89,63,11,9,8,6,0.5,0.6
2025-09-05T1400,1836A,111.1587,34.7942,三门峡市,开发区,,19,12,10,11,8,58,,83,58,7,10,4,4,0.2,0.4
2025-09-05T1400,1838A,111.143,34.7955,三门峡市,风景区,,25,25,9,16,6,60,,86,63,7,8,4,4,0.4,0.6
2025-09-05T1400,3039A,111.1911,34.7829,三门峡市,三门峡市第一小学,,31,31,11,11,6,56,,88,60,11,8,6,4,0.5,0.6
2025-09-05T1400,3598A,111.1,34.7167,三门峡市,富达温泉假日酒店,,20,19,14,6,4,62,,75,58,9,10,7,6,0.3,0.4
2025-09-05T1400,2324A,117.6211,26.2625,三明市,三钢,,45,32,29,22,19,143,,81,81,7,14,6,7,1.1,1.6
2025-09-05T1400,2325A,117.635,26.2714,三明市,三明二中,,47,47,30,21,18,126,,78,78,4,12,4,5,0.8,1
2025-09-05T1400,2326A,117.6028,26.2378,三明市,三元区政府,,48,32,26,20,15,153,,87,87,8,10,6,3,1.2,0.7
2025-09-05T1400,2327A,117.7275,26.3108,三明市,洋溪,,,,21,,15,,,66,,,10,,4,,0.9
2025-09-05T1400,1876A,109.5078,18.2489,三亚市,河东子站,,,12,13,3,6,67,,35,35,,10,3,2,0.5,0.5
2025-09-05T1400,1877A,109.4964,18.2681,三亚市,河西子站,,21,13,13,3,3,66,,34,34,2,6,3,3,0.4,0.3
2025-09-05T1400,3540A,109.7348,18.3443,三亚市,君悦子站,,12,8,12,3,3,37,,33,33,3,4,3,3,0.3,0.3
2025-09-05T1400,2624A,91.7608,29.2313,山南市,山南监测站,,24,6,6,3,2,74,,49,49,1,5,3,3,0.2,0.2
2025-09-05T1400,2625A,91.7706,29.2436,山南市,山南人民医院,,24,7,9,3,5,74,,50,48,2,4,3,3,0.2,0.1
2025-09-05T1400,1674A,116.6794,23.3667,汕头市,金平子站,,41,41,19,16,9,99,,69,69,12,11,3,4,0.6,0.6
2025-09-05T1400,1675A,116.7244,23.3633,汕头市,龙湖子站,,27,24,13,8,5,85,,57,57,5,8,9,7,0.6,0.5
2025-09-05T1400,1676A,116.7258,23.2775,汕头市,濠江子站,,28,28,17,7,7,66,,52,52,2,7,5,6,0.5,0.6
2025-09-05T1400,1677A,116.7519,23.4714,汕头市,澄海子站,,33,33,22,17,12,90,,56,56,6,12,4,5,0.7,0.7
2025-09-05T1400,1678A,116.6092,23.2539,汕头市,潮阳子站,,23,23,16,8,7,66,,55,55,16,5,16,6,1.6,0.5
2025-09-05T1400,3444A,116.454,23.2684,汕头市,潮南峡山,,32,18,21,12,13,102,,71,71,5,8,7,7,0.5,0.5
2025-09-05T1400,3624A,116.4069,23.2533,汕头市,潮南子站,,42,42,24,20,12,99,,66,66,6,7,4,5,0.6,0.5
2025-09-05T1400,1693A,115.3653,22.775,汕尾市,市环保局,,18,14,9,9,5,57,,44,44,6,8,4,3,0.5,0.4
2025-09-05T1400,1694A,115.3706,22.7898,汕尾市,市政府,,19,,8,3,4,58,,43,43,5,7,4,4,0.4,0.4
2025-09-05T1400,1695A,115.3622,22.7925,汕尾市,新城中学,,18,,11,8,7,57,,42,42,5,7,5,5,0.4,0.4
2025-09-05T1400,2645A,109.9154,33.8715,商洛市,监测站,,25,,12,6,7,78,,51,51,4,6,3,3,0.4,0.6
2025-09-05T1400,3045A,109.9643,33.8471,商洛市,商州区中学,,27,27,19,6,8,79,,49,49,5,14,4,5,0.2,0.5
2025-09-05T1400,2408A,115.6702,34.4285,商丘市,环境监测站,,37,35,66,22,54,117,,62,62,5,15,2,3,0.7,0.7
2025-09-05T1400,2409A,115.6458,34.4045,商丘市,粮食局,颗粒物(PM10),51,51,58,25,36,117,,63,63,5,14,3,4,0.6,0.7
2025-09-05T1400,2410A,115.6293,34.3948,商丘市,睢阳区环保局,,34,26,67,21,31,107,,58,58,5,11,4,5,0.5,0.6
2025-09-05T1400,3171A,115.6071,34.4465,商丘市,梁园区档案局,,35,33,49,24,29,110,,59,59,8,20,4,5,0.7,0.8
2025-09-05T1400,1141A,121.4,31.238,上海市,普陀,臭氧1小时,104,37,28,21,16,208,,112,112,12,23,6,6,0.5,0.5
2025-09-05T1400,1142A,121.478,31.2036,上海市,十五厂,臭氧1小时,89,36,29,28,18,191,,103,103,10,25,9,9,0.8,0.8
2025-09-05T1400,1143A,121.467,31.3008,上海市,虹口,,50,34,29,23,14,160,,94,94,28,23,8,6,0.8,0.8
2025-09-05T1400,1147A,121.425,31.2261,上海市,静安监测站,臭氧1小时,105,39,29,24,16,210,,114,114,12,25,5,4,0.7,0.8
2025-09-05T1400,1148A,121.703,31.1907,上海市,浦东川沙,,44,31,27,19,13,139,,80,80,18,27,8,8,0.7,0.7
2025-09-05T1400,1149A,121.533,31.2284,上海市,浦东新区监测站,臭氧1小时,88,,27,25,15,190,,114,114,8,22,5,4,0.5,0.4
2025-09-05T1400,1150A,121.577,31.2071,上海市,浦东张江,臭氧1小时,88,22,30,20,13,190,,106,106,8,22,6,6,0.9,0.8
2025-09-05T1400,3265A,121.4316,31.3322,上海市,宝山庙行,臭氧1小时,73,43,29,25,15,178,,103,103,31,25,8,7,0.4,0.4
2025-09-05T1400,3266A,121.8791,31.4662,上海市,崇明上实东滩,,44,16,12,12,8,140,,65,65,5,11,5,5,0.3,0.3
2025-09-05T1400,3268A,121.3162,31.2838,上海市,嘉定南翔,臭氧1小时,101,43,30,27,19,202,,107,107,14,34,,4,0.3,0.4
2025-09-05T1400,3269A,121.3359,30.7456,上海市,金山新城,,50,28,24,21,15,160,,104,104,7,14,3,4,0.7,0.8
2025-09-05T1400,3270A,121.4996,31.0739,上海市,闵行浦江,臭氧1小时,64,30,27,20,14,171,,98,98,6,21,5,4,0.9,0.8
2025-09-05T1400,3271A,121.2886,31.1663,上海市,青浦徐泾,臭氧1小时,106,30,30,21,14,211,,120,120,8,22,7,8,0.6,0.6
2025-09-05T1400,3272A,121.2186,31.0378,上海市,松江图书馆,臭氧1小时,95,25,26,23,17,196,,114,114,11,30,8,8,0.7,0.6
2025-09-05T1400,3273A,121.3902,31.2059,上海市,长宁仙霞,臭氧1小时,92,42,29,24,15,193,,101,101,16,23,8,8,0.8,0.8
2025-09-05T1400,3274A,121.7965,31.0507,上海市,浦东惠南,臭氧1小时,72,27,22,19,14,177,,94,94,11,16,11,10,0.6,0.6
2025-09-05T1400,3544A,121.4891,30.925,上海市,奉贤南桥新城,臭氧1小时,57,25,27,18,16,165,,97,97,5,18,6,4,0.7,0.6
2025-09-05T1400,4183A,121.4174,31.16637,上海市,冠生园路458号,臭氧1小时,58,27,26,23,14,166,,88,88,15,26,3,3,0.7,0.6
2025-09-05T1400,4205A,121.5419,31.2683,上海市,宁武路151号,臭氧1小时,65,40,33,17,15,172,,94,94,18,31,4,4,0.2,0.2
2025-09-05T1400,2381A,118.005,28.4572,上饶市,百草园,,,,,,,,,,,,,,,,
2025-09-05T1400,2382A,117.9756,28.4436,上饶市,市监测站,,,31,35,,20,125,,93,93,5,15,,15,0.3,0.7
