timepoint,stationcode,longitude,latitude,area,positionname,primarypollutant,aqi,pm10,pm10_24h,pm2_5,pm2_5_24h,o3,o3_24h,o3_8h,o3_8h_24h,no2,no2_24h,so2,so2_24h,co,co_24h
2024-02-14T0000,2566A,102.1879,31.914,阿坝藏族羌族自治州,州农科所,,11,11,20,5,11,20,,26,22,4,8,6,8,0.8,0.9
2024-02-14T0000,2568A,102.2502,31.8896,阿坝藏族羌族自治州,马师校,,16,16,10,8,6,47,,76,59,8,5,4,4,0.6,0.5
2024-02-14T0000,3994A,102.2165,31.9024,阿坝藏族羌族自治州,马尔康中学西区,,16,13,10,11,7,51,,73,62,4,3,5,5,0.5,0.4
2024-02-14T0000,2695A,80.292,41.1694,阿克苏地区,电视台,颗粒物(PM10),500,914,135,109,43,69,,93,86,15,29,9,8,0.8,1.1
2024-02-14T0000,2696A,80.2613,41.1551,阿克苏地区,艺术中心,颗粒物(PM10),500,1064,173,130,57,74,,95,86,12,29,8,9,0.6,1.6
2024-02-14T0000,2204A,105.6467,38.8363,阿拉善盟,西城区西花园,颗粒物(PM10),72,94,53,25,18,93,,93,93,2,4,11,11,0.5,0.4
2024-02-14T0000,2205A,105.6985,38.8411,阿拉善盟,蒙二幼,颗粒物(PM10),69,88,49,22,13,89,,89,89,4,6,4,5,0.4,0.5
2024-02-14T0000,2206A,105.724,38.8516,阿拉善盟,环保局新楼,颗粒物(PM10),68,85,40,25,14,95,,95,95,4,4,5,5,0.4,0.5
2024-02-14T0000,2708A,88.1264,47.8517,阿勒泰地区,市站,,29,,19,20,12,56,,70,61,18,18,4,6,0.5,0.3
2024-02-14T0000,2630A,80.1161,32.5,阿里地区,阿里监测站,,24,7,6,4,3,76,,88,84,8,4,11,8,0.5,0.4
2024-02-14T0000,3192A,80.0903,32.5028,阿里地区,阿里藏医院,,28,6,7,0,2,88,,93,91,2,2,5,5,0.4,0.4
2024-02-14T0000,2642A,109.0318,32.6537,安康市,香溪洞,细颗粒物(PM2.5),58,52,56,41,41,68,,86,84,6,7,8,10,0.5,0.6
2024-02-14T0000,2643A,109.0281,32.6939,安康市,安康市监测站,细颗粒物(PM2.5),112,119,81,84,56,16,,66,26,26,22,10,12,1.2,1
2024-02-14T0000,2644A,109.0072,32.6975,安康市,汉滨区检察院,细颗粒物(PM2.5),73,76,58,53,46,39,,78,58,15,11,8,10,0.6,0.6
2024-02-14T0000,2291A,117.0809,30.5177,安庆市,环科院,,48,48,51,31,34,61,,81,67,14,26,10,10,0.6,0.6
2024-02-14T0000,2292A,117.0331,30.5119,安庆市,马山宾馆,颗粒物(PM10),51,52,52,33,36,40,,84,61,50,36,6,8,0.4,0.4
2024-02-14T0000,2294A,116.9896,30.6145,安庆市,安庆大学,,32,32,42,21,27,80,,96,88,17,13,8,9,0.3,0.7
2024-02-14T0000,3173A,117.0598,30.5351,安庆市,市人大,颗粒物(PM10),52,54,54,30,38,73,,88,73,8,27,6,8,0.5,0.6
2024-02-14T0000,3122A,105.9606,26.2611,安顺市,伍家关,,,,,,,,,,,,,,,,
2024-02-14T0000,3123A,105.9408,26.2431,安顺市,凤凰山,细颗粒物(PM2.5),64,50,34,46,29,77,,94,87,11,8,21,19,0.6,0.5
2024-02-14T0000,3124A,105.9439,26.2564,安顺市,金钟山,细颗粒物(PM2.5),60,49,36,43,28,82,,93,90,7,6,20,18,0.6,0.5
2024-02-14T0000,3125A,105.8983,26.2481,安顺市,娄家坡,细颗粒物(PM2.5),52,44,36,36,29,83,,93,89,5,4,13,14,0.7,0.6
2024-02-14T0000,1818A,114.4839,36.0621,安阳市,棉研所,,,,,,,,,,,,,,,,
2024-02-14T0000,1819A,114.3551,36.1017,安阳市,红庙街,细颗粒物(PM2.5),217,217,137,167,94,21,,107,71,54,21,11,12,0.6,0.3
2024-02-14T0000,1820A,114.361,36.0681,安阳市,银杏小区,细颗粒物(PM2.5),209,185,128,159,108,43,,108,76,25,15,11,11,1.3,1.2
2024-02-14T0000,3141A,114.3922,36.0878,安阳市,信访局,细颗粒物(PM2.5),238,275,130,188,103,35,,115,84,53,17,12,8,1.0,0.7
2024-02-14T0000,3669A,114.4705,36.0637,安阳市,左辅环卫站,细颗粒物(PM2.5),147,138,120,112,88,55,,103,82,20,12,9,9,0.9,0.9
2024-02-14T0000,3703A,114.2917,36.0949,安阳市,安钢职工学校,细颗粒物(PM2.5),218,210,145,168,105,43,,107,80,35,32,15,12,1.2,0.8
2024-02-14T0000,1748A,123.044,41.1196,鞍山市,深沟寺,细颗粒物(PM2.5),74,78,98,54,65,110,,106,104,7,10,7,11,0.6,0.7
2024-02-14T0000,1749A,123.011,41.0931,鞍山市,太阳城,细颗粒物(PM2.5),69,85,94,50,55,102,,112,99,11,11,10,13,0.6,0.7
2024-02-14T0000,1750A,123.0485,41.1442,鞍山市,太平,细颗粒物(PM2.5),70,77,99,51,63,113,,112,106,9,13,4,8,0.5,0.6
2024-02-14T0000,1751A,122.9642,41.0971,鞍山市,铁西三道街,细颗粒物(PM2.5),90,99,108,67,67,87,,103,84,17,20,8,16,0.7,0.9
2024-02-14T0000,1752A,122.9341,41.0833,鞍山市,铁西工业园区,细颗粒物(PM2.5),80,92,100,59,63,90,,106,92,18,16,10,15,0.8,1.1
2024-02-14T0000,1753A,123.022,41.0821,鞍山市,明达新区,细颗粒物(PM2.5),68,83,91,49,84,100,,104,96,8,10,14,14,0.6,0.7
2024-02-14T0000,1754A,123.1289,41.0228,鞍山市,千山,,,,,,,,,,,,,,,,
2024-02-14T0000,2195A,107.4212,40.761,巴彦淖尔市,附二中,颗粒物(PM10),404,504,145,79,38,71,,84,79,7,9,6,12,0.5,0.5
2024-02-14T0000,2196A,107.37,40.7372,巴彦淖尔市,市环保大楼,颗粒物(PM10),394,495,153,87,34,65,,80,68,5,6,4,7,0.4,0.4
2024-02-14T0000,1956A,86.1472,41.7538,巴音郭楞蒙古自治州,孔雀公园,颗粒物(PM10),62,74,88,16,24,55,,86,70,30,10,4,5,0.4,0.4
2024-02-14T0000,1957A,86.1972,41.7166,巴音郭楞蒙古自治州,棉纺厂,颗粒物(PM10),62,74,105,17,22,35,,85,69,55,16,3,3,0.6,0.4
2024-02-14T0000,1958A,86.2357,41.7173,巴音郭楞蒙古自治州,经济开发区,颗粒物(PM10),55,59,82,9,22,70,,90,85,14,7,3,4,0.3,0.4
2024-02-14T0000,2914A,106.7677,31.8794,巴中市,苏山坪,细颗粒物(PM2.5),67,62,54,48,41,97,,104,104,7,8,5,6,0.4,0.4
2024-02-14T0000,3182A,106.7656,31.8545,巴中市,丽阳花园,细颗粒物(PM2.5),97,92,75,72,58,11,,69,31,40,31,4,5,1.0,0.9
2024-02-14T0000,3183A,106.7418,31.8654,巴中市,圣泉水务公司,细颗粒物(PM2.5),94,81,59,70,48,27,,79,47,31,20,4,5,0.8,0.7
2024-02-14T0000,3616A,106.7616,31.8344,巴中市,市中心医院,细颗粒物(PM2.5),107,101,70,80,57,4,,79,31,44,28,4,5,1.0,0.9
2024-02-14T0000,2235A,122.7911,45.6077,白城市,洮北区环保局,,17,15,99,8,23,52,,115,79,4,7,7,8,0.3,0.3
2024-02-14T0000,2236A,122.8738,45.5725,白城市,市环保局,,33,33,86,8,28,74,,78,71,6,7,6,7,0.3,0.4
2024-02-14T0000,2231A,126.4219,41.9171,白山市,喜丰,"颗粒物(PM10),细颗粒物(PM2.5)",69,88,98,50,51,82,,101,90,19,12,18,17,1.4,1.3
2024-02-14T0000,2232A,126.4077,41.9419,白山市,环保局,细颗粒物(PM2.5),107,107,110,80,69,54,,105,75,27,21,21,15,1.7,1.4
2024-02-14T0000,2647A,104.1724,36.5446,白银市,第三小学,颗粒物(PM10),67,83,90,15,34,88,,94,89,5,23,10,45,0.2,0.7
2024-02-14T0000,2648A,104.1465,36.5482,白银市,动力公司,颗粒物(PM10),58,66,76,15,35,89,,96,91,8,19,5,29,0.4,0.8
2024-02-14T0000,2512A,106.6103,23.9011,百色市,市监测站,"颗粒物(PM10),细颗粒物(PM2.5)",64,77,66,46,43,73,,93,79,12,12,26,16,0.9,0.8
2024-02-14T0000,2513A,106.6538,23.8859,百色市,市中心血站,颗粒物(PM10),60,69,54,40,43,75,,88,81,11,12,38,18,0.9,0.7
2024-02-14T0000,3406A,106.6085,23.8798,百色市,祈福高中,细颗粒物(PM2.5),69,57,53,50,44,72,,92,79,12,12,19,15,0.8,0.8
2024-02-14T0000,2270A,117.396,32.939,蚌埠市,工人疗养院,,50,50,44,32,24,76,,94,84,10,7,7,7,0.5,0.5
2024-02-14T0000,2271A,117.3605,32.9427,蚌埠市,百货大楼,,50,50,48,35,28,79,,92,79,14,14,5,4,0.7,0.7
2024-02-14T0000,2273A,117.4185,32.8911,蚌埠市,蚌埠学院,,46,46,44,32,29,74,,91,78,9,8,6,6,0.6,0.6
2024-02-14T0000,2274A,117.3533,32.9673,蚌埠市,淮上区政府,颗粒物(PM10),53,56,48,32,27,77,,92,81,14,11,7,6,0.6,0.6
2024-02-14T0000,2275A,117.3145,32.8977,蚌埠市,高新区,细颗粒物(PM2.5),54,51,45,38,30,78,,94,85,5,7,6,5,0.6,0.6
2024-02-14T0000,3715A,117.3092,32.9314,蚌埠市,蚌埠田家炳中学,颗粒物(PM10),51,51,53,28,30,77,,94,82,13,14,7,12,0.4,0.4
2024-02-14T0000,1585A,109.8756,40.6532,包头市,市环境监测站,颗粒物(PM10),66,81,96,16,54,68,,72,64,8,43,8,25,0.5,1.6
2024-02-14T0000,1587A,109.9991,40.5842,包头市,包头八中,颗粒物(PM10),67,83,122,11,74,67,,73,62,7,46,8,31,0.5,1.8
2024-02-14T0000,1588A,109.8538,40.6821,包头市,青山宾馆,颗粒物(PM10),60,69,95,11,58,67,,76,71,9,40,10,25,0.5,1.6
2024-02-14T0000,1589A,109.8642,40.6288,包头市,惠龙物流,颗粒物(PM10),62,74,97,25,55,66,,79,71,8,41,10,29,0.3,1.3
2024-02-14T0000,1590A,110.0377,40.5546,包头市,东河鸿龙湾,颗粒物(PM10),65,80,116,21,70,61,,82,64,12,42,12,18,0.4,1.4
2024-02-14T0000,3283A,109.9154,40.5685,包头市,滨河大厦,颗粒物(PM10),62,73,96,26,60,68,,83,71,7,36,10,24,0.5,1.4
2024-02-14T0000,3419A,109.9447,40.6261,包头市,包头市委党校,颗粒物(PM10),64,77,80,5,40,66,,79,71,6,32,10,26,0.4,1.2
2024-02-14T0000,3683A,109.8331,40.6576,包头市,昆区政府,颗粒物(PM10),62,73,100,18,72,64,,72,68,8,40,9,30,0.4,1.6
2024-02-14T0000,1930A,107.185,34.3063,宝鸡市,庙沟村,细颗粒物(PM2.5),102,97,85,76,63,94,,115,110,15,10,6,7,0.9,0.8
2024-02-14T0000,1931A,107.0708,34.3017,宝鸡市,竹园沟,细颗粒物(PM2.5),83,72,77,61,59,63,,112,86,20,19,5,6,0.7,0.7
2024-02-14T0000,1932A,107.1906,34.3672,宝鸡市,三陆医院,细颗粒物(PM2.5),160,,103,122,80,73,,128,91,23,31,8,8,0.9,0.8
2024-02-14T0000,1933A,107.1431,34.3547,宝鸡市,监测站,细颗粒物(PM2.5),130,182,93,99,71,49,,119,89,29,23,5,5,0.9,0.7
2024-02-14T0000,1934A,107.1186,34.3739,宝鸡市,技工学校,细颗粒物(PM2.5),158,132,100,120,74,66,,122,96,27,26,9,8,1.0,0.8
2024-02-14T0000,1935A,107.3906,34.3528,宝鸡市,陈仓区环保局家属楼,细颗粒物(PM2.5),249,216,142,199,113,42,,133,81,58,44,16,32,1.4,1.2
2024-02-14T0000,1936A,107.2058,34.3497,宝鸡市,文理学院,细颗粒物(PM2.5),155,144,106,118,76,69,,127,96,35,30,11,10,1.0,0.8
2024-02-14T0000,1937A,107.2386,34.3622,宝鸡市,三迪小学,细颗粒物(PM2.5),179,161,108,135,83,56,,124,90,44,33,11,10,0.9,0.8
2024-02-14T0000,1051A,115.493,38.8632,保定市,游泳馆,细颗粒物(PM2.5),223,268,208,173,137,29,,128,86,71,32,9,10,1.6,1.2
2024-02-14T0000,1052A,115.5213,38.8959,保定市,华电二区,细颗粒物(PM2.5),228,191,156,178,130,67,,127,102,32,19,6,9,0.9,0.8
2024-02-14T0000,1053A,115.4713,38.9108,保定市,接待中心,细颗粒物(PM2.5),201,191,159,151,123,62,,117,93,30,18,8,9,1.3,1
2024-02-14T0000,1054A,115.4612,38.8416,保定市,地表水厂,细颗粒物(PM2.5),210,225,195,160,135,23,,124,70,102,48,6,8,1.5,1.5
2024-02-14T0000,3581A,115.31981,38.95208,保定市,满城区生态环境分局,细颗粒物(PM2.5),208,202,180,158,137,44,,130,70,54,42,10,9,1.4,1.4
2024-02-14T0000,3582A,115.47694,38.76408,保定市,清苑区第二中学,细颗粒物(PM2.5),199,231,203,149,127,60,,130,103,49,38,12,12,1.2,1.1
2024-02-14T0000,3583A,115.62909,39.02311,保定市,徐水物探局,细颗粒物(PM2.5),195,217,183,146,118,84,,120,98,24,25,8,9,1.0,1
2024-02-14T0000,4004A,115.4202,38.8656,保定市,双鹰农机,细颗粒物(PM2.5),182,168,156,137,118,84,,132,109,27,30,10,9,1.1,1
2024-02-14T0000,4034A,115.5150,38.8590,保定市,植保所站,细颗粒物(PM2.5),211,188,159,161,136,46,,124,85,60,37,7,7,1.2,0.9
2024-02-14T0000,2594A,99.1678,25.1081,保山市,市环境监测站,,36,26,27,25,20,70,,92,82,5,6,6,6,0.5,0.4
2024-02-14T0000,2595A,99.1711,25.1328,保山市,市环保局,,26,26,29,18,21,82,,95,88,3,4,7,7,0.4,0.5
2024-02-14T0000,1866A,109.2262,21.588,北海市,牛尾岭水库,,,,,,,,,,,,,,,,
2024-02-14T0000,1867A,109.1436,21.4086,北海市,海滩公园,,48,48,57,20,24,89,,106,95,6,7,7,7,0.6,0.6
2024-02-14T0000,1868A,109.0981,21.4661,北海市,新市环保局,,49,49,52,24,24,93,,101,94,7,9,6,6,0.2,0.3
2024-02-14T0000,1869A,109.1778,21.5233,北海市,北海工业园,,40,40,57,24,29,93,,105,97,6,8,6,7,0.3,0.4
2024-02-14T0000,3400A,109.1911,21.4415,北海市,龙潭自来水厂,,43,43,52,22,26,90,,100,93,4,6,7,7,0.4,0.5
2024-02-14T0000,1001A,116.3621,39.8784,北京市,万寿西宫,细颗粒物(PM2.5),188,193,166,141,123,1,,123,66,144,64,4,5,1.9,1.1
2024-02-14T0000,1002A,116.2202,40.2915,北京市,定陵,细颗粒物(PM2.5),132,131,129,100,96,86,,110,98,14,16,3,4,0.7,0.7
2024-02-14T0000,1003A,116.4174,39.9289,北京市,东四,细颗粒物(PM2.5),189,198,180,142,127,6,,115,64,138,57,12,10,2.2,1.3
2024-02-14T0000,1004A,116.4072,39.8863,北京市,天坛,细颗粒物(PM2.5),189,175,163,142,121,4,,116,61,105,52,1,4,1.9,1.1
2024-02-14T0000,1005A,116.462,39.9365,北京市,农展馆,细颗粒物(PM2.5),178,187,176,134,122,12,,113,72,109,52,3,4,1.6,1.1
2024-02-14T0000,1006A,116.3392,39.9295,北京市,官园,细颗粒物(PM2.5),159,174,162,121,116,52,,129,91,71,47,6,6,1.2,1
2024-02-14T0000,1007A,116.2878,39.9611,北京市,海淀万柳,细颗粒物(PM2.5),152,164,142,116,100,34,,110,62,73,54,3,3,1.1,0.8
2024-02-14T0000,1008A,116.6636,40.135,北京市,顺义新城,细颗粒物(PM2.5),207,214,166,157,117,28,,136,113,83,28,2,3,1.1,0.8
2024-02-14T0000,1009A,116.6275,40.3275,北京市,怀柔镇,细颗粒物(PM2.5),147,156,142,112,102,86,,115,95,16,23,5,7,0.9,0.9
2024-02-14T0000,1010A,116.2296,40.217,北京市,昌平镇,细颗粒物(PM2.5),124,140,146,94,98,98,,128,109,28,36,3,3,0.6,0.7
2024-02-14T0000,1011A,116.3966,39.9821,北京市,奥体中心,细颗粒物(PM2.5),145,158,137,111,103,41,,113,53,90,62,8,8,1.1,0.9
2024-02-14T0000,1012A,116.184,39.9136,北京市,古城,细颗粒物(PM2.5),134,146,135,102,94,55,,114,79,30,32,1,3,1.0,0.9
2024-02-14T0000,3281A,115.9718,40.4529,北京市,延庆夏都,细颗粒物(PM2.5),139,148,111,106,85,13,,87,43,43,28,1,4,1.2,1
2024-02-14T0000,3417A,117.0709,40.1465,北京市,平谷新城,细颗粒物(PM2.5),224,248,195,174,136,50,,125,81,25,18,2,4,1.7,1.2
2024-02-14T0000,3418A,116.8336,40.4095,北京市,密云新城,细颗粒物(PM2.5),159,186,164,121,109,66,,132,106,36,21,1,3,0.8,0.8
2024-02-14T0000,3671A,116.088,39.9726,北京市,门头沟三家店,,,,,,,,,,,,,,,,
2024-02-14T0000,3672A,116.1541,39.8204,北京市,丰台云岗,细颗粒物(PM2.5),130,149,133,99,95,109,,137,132,22,21,3,3,0.7,0.6
2024-02-14T0000,3673A,116.6804,39.9081,北京市,通州东关,细颗粒物(PM2.5),195,210,190,146,134,20,,123,83,85,45,3,5,1.3,1.1
2024-02-14T0000,3674A,115.9577,39.7603,北京市,房山燕山,细颗粒物(PM2.5),144,139,108,110,87,94,,141,116,20,19,3,3,0.9,0.6
2024-02-14T0000,3675A,116.4672,39.7733,北京市,大兴旧宫,细颗粒物(PM2.5),182,190,171,137,127,53,,123,102,57,36,3,3,1.1,0.9
2024-02-14T0000,3694A,115.986,40.4563,北京市,延庆石河营,细颗粒物(PM2.5),129,134,108,98,83,14,,94,51,50,29,3,4,1.0,1
2024-02-14T0000,3695A,116.6151,40.3053,北京市,怀柔新城,细颗粒物(PM2.5),134,151,137,102,96,88,,122,107,17,20,2,3,0.8,0.8
2024-02-14T0000,3696A,116.2545,39.8768,北京市,丰台小屯,细颗粒物(PM2.5),162,188,157,123,108,19,,121,67,76,54,3,3,1.1,0.9
2024-02-14T0000,3697A,116.84,40.3844,北京市,密云镇,细颗粒物(PM2.5),213,203,175,163,132,61,,114,78,35,32,2,3,1.0,0.9
2024-02-14T0000,1761A,123.8275,41.3064,本溪市,大峪,细颗粒物(PM2.5),68,81,89,49,54,84,,105,86,18,17,10,9,0.9,1
2024-02-14T0000,1762A,123.7567,41.3325,本溪市,溪湖,细颗粒物(PM2.5),68,82,103,49,61,76,,99,94,31,18,18,21,1.1,1.1
2024-02-14T0000,1763A,123.7169,41.3094,本溪市,彩屯,细颗粒物(PM2.5),69,71,111,50,71,74,,83,73,48,38,38,33,2.1,2.7
2024-02-14T0000,1764A,123.7669,41.2864,本溪市,东明,细颗粒物(PM2.5),113,97,85,85,64,62,,98,84,40,20,12,14,0.8,0.6
2024-02-14T0000,1765A,123.7992,41.2664,本溪市,新立屯,细颗粒物(PM2.5),52,44,73,36,47,106,,111,108,12,13,12,12,0.5,0.6
2024-02-14T0000,1766A,123.8142,41.3472,本溪市,威宁,细颗粒物(PM2.5),69,68,88,50,54,20,,98,64,54,22,6,14,0.8,0.7
2024-02-14T0000,2587A,105.2864,27.3125,毕节市,八中,细颗粒物(PM2.5),98,88,62,73,52,35,,97,66,24,13,12,11,0.9,0.7
2024-02-14T0000,2588A,105.31,27.2944,毕节市,师专,细颗粒物(PM2.5),110,101,63,83,54,24,,101,79,41,15,13,11,1.3,0.7
2024-02-14T0000,3537A,105.3631,27.3533,毕节市,长征村,细颗粒物(PM2.5),58,53,76,41,59,83,,113,108,8,8,12,12,0.7,0.8
2024-02-14T0000,1629A,118.0018,37.3617,滨州市,第二水厂,细颗粒物(PM2.5),119,124,95,90,59,76,,121,99,28,23,16,14,1.1,1.1
2024-02-14T0000,1630A,117.9776,37.393,滨州市,北中新校,细颗粒物(PM2.5),138,155,100,105,58,29,,117,64,71,33,14,16,1.5,1.1
2024-02-14T0000,3514A,117.9378,37.3956,滨州市,中海酒店,细颗粒物(PM2.5),135,147,86,103,58,10,,117,61,100,32,15,18,1.5,0.9
2024-02-14T0000,3515A,117.9378,37.3553,滨州市,开发区一中,细颗粒物(PM2.5),128,127,99,97,63,88,,119,102,20,19,21,22,0.8,0.8
2024-02-14T0000,3516A,118.0917,37.694,滨州市,金海六路,细颗粒物(PM2.5),192,193,119,144,74,14,,119,68,77,27,19,38,1.3,1
2024-02-14T0000,4028A,117.9956,37.3753,滨州市,滨州市西街道办事处,细颗粒物(PM2.5),128,147,109,97,68,24,,113,56,56,33,14,19,1.4,1
2024-02-14T0000,2311A,115.8072,33.8399,亳州市,污水处理厂,细颗粒物(PM2.5),78,73,71,57,48,65,,97,79,12,11,9,7,0.7,0.7
2024-02-14T0000,2312A,115.7789,33.8518,亳州市,三国揽胜宫,颗粒物(PM10),62,73,77,43,42,69,,98,82,14,12,9,9,0.7,0.7
2024-02-14T0000,3332A,115.7633,33.8034,亳州市,亳州学院,细颗粒物(PM2.5),69,69,70,50,45,68,,98,80,9,8,8,7,1.0,1
2024-02-14T0000,2693A,82.0485,44.8556,博尔塔拉蒙古自治州,市党校,颗粒物(PM10),51,52,45,21,27,79,,83,81,13,16,9,13,0.5,0.6
2024-02-14T0000,2694A,82.0806,44.8969,博尔塔拉蒙古自治州,市环保局,,42,42,46,18,26,76,,79,76,10,17,2,6,0.2,0.5
2024-02-14T0000,1071A,116.8842,38.2991,沧州市,沧县城建局,细颗粒物(PM2.5),283,263,140,233,98,5,,101,51,86,30,10,9,2.2,1.4
2024-02-14T0000,1072A,116.8584,38.3254,沧州市,电视转播站,细颗粒物(PM2.5),223,214,127,173,91,9,,108,63,81,23,13,16,1.4,0.9
2024-02-14T0000,1073A,116.8709,38.3228,沧州市,市环保局,细颗粒物(PM2.5),193,176,132,145,93,48,,100,55,47,28,12,12,1.2,0.9
2024-02-14T0000,3324A,116.8136,38.3004,沧州市,河北水利电力学院,细颗粒物(PM2.5),182,175,124,137,82,63,,106,85,37,17,18,18,1.2,0.8
2024-02-14T0000,2622A,97.1806,31.1273,昌都市,昌都监测站,,44,44,20,28,12,18,,69,44,40,15,8,7,1.0,0.4
2024-02-14T0000,3719A,97.1714,31.1406,昌都市,昌都会议中心,,19,,9,13,8,55,,80,69,10,5,4,4,0.4,0.3
2024-02-14T0000,2690A,88.1236,43.8886,昌吉回族自治州,天山天池,,25,6,14,0,11,79,,85,79,4,6,7,8,0.6,0.6
2024-02-14T0000,2692A,87.2717,44.0297,昌吉回族自治州,新区政务中心,,43,35,62,30,49,75,,100,94,15,19,5,6,0.7,1
2024-02-14T0000,3613A,87.3095,44.0142,昌吉回族自治州,亚心广场,,,36,58,27,46,66,,102,95,25,13,,6,0.6,0.8
2024-02-14T0000,1119A,125.3325,43.9166,长春市,食品厂,颗粒物(PM10),71,91,114,40,63,34,,100,61,31,17,8,15,0.3,0.6
2024-02-14T0000,1120A,125.2863,43.9027,长春市,客车厂,颗粒物(PM10),65,80,111,22,58,38,,94,58,26,17,8,17,0.5,0.8
2024-02-14T0000,1121A,125.2841,43.8463,长春市,邮电学院,颗粒物(PM10),69,87,125,20,63,49,,98,66,18,21,10,22,0.4,0.7
2024-02-14T0000,1122A,125.3716,43.8772,长春市,劳动公园,颗粒物(PM10),63,76,113,19,53,39,,87,59,30,19,5,10,0.2,0.6
2024-02-14T0000,1123A,125.3297,43.8805,长春市,园林处,颗粒物(PM10),62,74,107,2,50,40,,102,66,24,15,10,16,0.3,0.9
2024-02-14T0000,1124A,125.4605,43.79,长春市,净月潭,颗粒物(PM10),73,95,105,11,51,46,,104,70,13,10,7,9,0.3,0.6
2024-02-14T0000,1125A,125.7194,43.515,长春市,甩湾子,,,,,,,,,,,,,,,,
2024-02-14T0000,1126A,125.3863,43.8447,长春市,经开区环卫处,颗粒物(PM10),62,73,110,14,54,45,,103,62,18,14,9,13,0.3,0.6
2024-02-14T0000,1127A,125.245,43.7783,长春市,高新区管委会,颗粒物(PM10),68,86,114,13,63,45,,105,67,16,12,10,17,0.7,1
2024-02-14T0000,1128A,125.1761,43.8325,长春市,岱山公园,颗粒物(PM10),63,76,108,15,59,63,,98,72,8,12,4,10,0.3,0.7
2024-02-14T0000,1335A,113.0833,28.2325,长沙市,经开区环保局,颗粒物(PM10),52,53,50,34,32,67,,82,73,2,3,6,5,0.5,0.5
2024-02-14T0000,1336A,112.8872,28.2189,长沙市,高开区环保局,颗粒物(PM10),55,59,53,34,35,61,,76,65,7,7,8,6,0.7,0.7
2024-02-14T0000,1337A,113.0792,28.2053,长沙市,马坡岭,细颗粒物(PM2.5),63,56,57,45,44,50,,70,56,5,4,7,8,0.6,0.6
2024-02-14T0000,1338A,112.9394,28.19,长沙市,湖南师范大学,细颗粒物(PM2.5),65,73,54,47,40,37,,61,51,17,13,8,7,0.8,0.8
2024-02-14T0000,1339A,113.0178,28.1322,长沙市,雨花区环保局,颗粒物(PM10),55,60,52,35,36,57,,64,61,9,6,5,5,0.5,0.7
2024-02-14T0000,1340A,112.9792,28.2597,长沙市,伍家岭,"颗粒物(PM10),细颗粒物(PM2.5)",92,133,78,68,52,30,,41,36,25,21,8,6,0.7,0.7
2024-02-14T0000,1341A,113.0014,28.1944,长沙市,火车新站,颗粒物(PM10),72,93,59,51,38,30,,53,41,33,20,4,5,0.8,0.8
2024-02-14T0000,1342A,112.9844,28.1178,长沙市,天心区环保局,颗粒物(PM10),58,66,54,39,34,53,,69,60,10,7,7,6,0.4,0.4
2024-02-14T0000,1343A,112.8908,28.1308,长沙市,湖南中医药大学,细颗粒物(PM2.5),123,133,67,93,50,20,,60,36,34,19,6,6,0.9,0.8
2024-02-14T0000,1344A,112.9581,28.3611,长沙市,沙坪,细颗粒物(PM2.5),52,44,41,36,32,33,,46,39,13,9,6,6,0.6,0.6
2024-02-14T0000,1727A,113.1147,36.1547,长治市,清华站,颗粒物(PM10),77,103,78,53,53,46,,106,69,26,25,19,24,0.8,0.9
2024-02-14T0000,1728A,113.1031,36.1989,长治市,监测站,颗粒物(PM10),72,93,93,51,52,51,,99,64,31,36,26,30,1.3,1.1
2024-02-14T0000,1730A,113.0886,36.2125,长治市,审计局,细颗粒物(PM2.5),77,89,72,56,50,44,,100,70,33,27,27,30,1.7,1.2
2024-02-14T0000,1731A,113.0844,36.1856,长治市,长治八中,细颗粒物(PM2.5),172,179,86,130,51,31,,103,56,46,35,20,24,1.2,1.1
2024-02-14T0000,2845A,113.1569,36.1911,长治市,德盛苑,,49,46,62,34,44,98,,114,101,11,18,23,30,0.8,1.2
2024-02-14T0000,3568A,113.06,36.0464,长治市,向阳小学,细颗粒物(PM2.5),84,77,82,62,50,93,,106,98,17,23,32,28,0.9,1
2024-02-14T0000,3569A,112.8792,36.3144,长治市,屯留一中,细颗粒物(PM2.5),85,83,66,63,49,24,,98,57,47,24,31,25,1.0,0.8
2024-02-14T0000,3570A,113.235,36.3489,长治市,潞城四中,细颗粒物(PM2.5),72,89,93,52,67,31,,126,76,53,35,10,23,1.1,1.5
2024-02-14T0000,1854A,111.6975,28.9703,常德市,市二中,颗粒物(PM10),51,51,66,32,56,77,,88,85,11,14,8,7,0.6,0.8
2024-02-14T0000,1857A,111.7158,29.1456,常德市,白鹤山,颗粒物(PM10),70,89,85,48,46,42,,62,53,4,3,3,3,0.6,0.6
2024-02-14T0000,3138A,111.7153,29.0289,常德市,武陵区永安,细颗粒物(PM2.5),69,75,80,50,59,62,,85,76,10,12,9,8,0.9,1.1
2024-02-14T0000,3139A,111.6892,28.9881,常德市,鼎城区玉霞,细颗粒物(PM2.5),64,65,77,46,60,56,,77,67,20,20,10,9,0.7,0.8
2024-02-14T0000,3140A,111.6625,29.0531,常德市,武陵区长庚,细颗粒物(PM2.5),83,108,90,61,62,31,,84,58,34,17,7,6,1.1,1
2024-02-14T0000,1196A,119.9633,31.762,常州市,市监测站,,49,49,58,30,33,76,,98,82,7,9,8,7,0.6,0.6
2024-02-14T0000,1200A,119.9468,31.7069,常州市,武进监测站,,50,50,54,31,29,72,,96,87,11,10,5,5,0.7,0.6
2024-02-14T0000,1201A,119.9255,31.9087,常州市,安家,细颗粒物(PM2.5),77,96,59,56,36,58,,95,77,19,12,8,8,0.8,0.7
2024-02-14T0000,3002A,119.9805,31.8174,常州市,行政中心,,45,45,52,26,29,73,,94,84,10,10,10,10,0.3,0.7
2024-02-14T0000,3003A,120.0522,31.7748,常州市,经开区,颗粒物(PM10),53,55,54,34,30,59,,99,83,22,14,13,15,0.7,1.2
2024-02-14T0000,3010A,119.9025,31.7964,常州市,钟楼,细颗粒物(PM2.5),52,50,53,36,32,63,,94,80,21,13,7,7,0.7,0.7
2024-02-14T0000,3429A,119.8598,31.7066,常州市,武进经发区,,44,44,55,30,35,74,,100,89,8,8,6,6,0.8,0.8
2024-02-14T0000,3430A,119.5826,31.7245,常州市,金坛城区,细颗粒物(PM2.5),52,50,61,36,40,71,,90,82,11,11,10,9,0.7,0.8
2024-02-14T0000,2220A,120.4318,41.5881,朝阳市,西梁,,50,50,127,15,75,79,,117,97,5,13,13,24,0.5,1.3
2024-02-14T0000,2221A,120.4521,41.5646,朝阳市,河畔小区,颗粒物(PM10),56,62,130,10,77,70,,109,89,5,19,5,14,0.5,1.2
2024-02-14T0000,2222A,120.4176,41.5648,朝阳市,八里堡,颗粒物(PM10),54,58,134,15,72,74,,109,90,6,23,10,23,0.5,1.5
2024-02-14T0000,2223A,120.3806,41.5969,朝阳市,农业园区,,40,40,124,11,86,74,,115,92,7,16,8,17,0.3,1
2024-02-14T0000,1705A,116.6367,23.6719,潮州市,西园路,细颗粒物(PM2.5),133,121,65,101,46,68,,110,96,18,9,5,5,0.6,0.5
2024-02-14T0000,3026A,116.6183,23.6608,潮州市,市政府,细颗粒物(PM2.5),127,130,61,96,42,64,,110,92,29,12,7,6,1.1,0.6
2024-02-14T0000,4036A,116.6461,23.6761,潮州市,金山,细颗粒物(PM2.5),147,125,57,112,46,43,,105,87,20,11,6,6,0.7,0.5
2024-02-14T0000,2472A,113.0073,25.9061,郴州市,马头岭,,31,31,34,15,12,82,,96,83,9,7,5,5,0.2,0.2
2024-02-14T0000,2473A,113.0116,25.8226,郴州市,市职中,,30,30,29,15,19,90,,101,87,4,4,5,6,0.4,0.4
2024-02-14T0000,2474A,113.0161,25.8001,郴州市,兴隆步行街,,30,30,33,19,19,93,,106,91,5,5,4,4,0.5,0.5
2024-02-14T0000,2475A,113.0383,25.8071,郴州市,市审计局,,36,36,29,18,19,93,,104,88,4,4,3,4,0.3,0.3
2024-02-14T0000,2476A,113.0348,25.7759,郴州市,市环保局,,35,35,30,20,22,90,,104,89,8,8,4,4,0.4,0.4
2024-02-14T0000,1431A,103.9728,30.7236,成都市,金泉两河,细颗粒物(PM2.5),112,,76,84,73,0,,106,53,74,32,1,3,1.5,1
2024-02-14T0000,1432A,104.176,30.6872,成都市,十里店,细颗粒物(PM2.5),118,103,93,89,83,66,,125,105,38,32,3,4,0.7,0.6
2024-02-14T0000,1433A,104.079,30.5706,成都市,三瓦窑,细颗粒物(PM2.5),94,105,101,70,78,7,,108,74,68,42,2,2,1.0,0.9
2024-02-14T0000,1434A,104.1114,30.63,成都市,沙河铺,细颗粒物(PM2.5),132,109,105,100,94,5,,108,61,62,39,2,3,1.0,1
2024-02-14T0000,1437A,104.0786,30.6531,成都市,君平街,细颗粒物(PM2.5),122,116,96,92,88,1,,114,85,106,54,6,7,1.3,1
2024-02-14T0000,1438A,103.613,31.0283,成都市,灵岩寺,细颗粒物(PM2.5),82,80,60,60,47,140,,141,141,18,15,6,5,0.8,0.8
2024-02-14T0000,2880A,104.0239,30.65639,成都市,大石西路,细颗粒物(PM2.5),127,108,97,96,85,2,,110,62,86,48,3,4,1.5,1.2
2024-02-14T0000,3136A,104.2725,30.5589,成都市,龙泉驿区区政府,细颗粒物(PM2.5),89,75,83,66,70,87,,121,107,7,12,3,3,0.8,0.8
2024-02-14T0000,3357A,104.0106,30.6931,成都市,金博路,细颗粒物(PM2.5),158,141,102,120,87,2,,104,56,83,42,1,3,1.2,0.9
2024-02-14T0000,3359A,104.0578,30.5225,成都市,华阳,细颗粒物(PM2.5),132,112,100,100,93,2,,106,60,56,25,1,2,1.3,1.1
2024-02-14T0000,3487A,104.2394,30.5319,成都市,车城东七路,细颗粒物(PM2.5),103,95,90,77,79,67,,125,106,28,17,2,2,0.9,0.8
2024-02-14T0000,3488A,104.3853,30.7453,成都市,青白江技师分院,细颗粒物(PM2.5),85,81,91,63,71,75,,131,109,25,21,8,8,0.9,0.9
2024-02-14T0000,3489A,104.0789,30.4072,成都市,科学城,细颗粒物(PM2.5),104,90,83,78,75,44,,122,100,17,9,3,4,0.9,0.8
2024-02-14T0000,4011A,103.8506,30.6947,成都市,光华大道三段,细颗粒物(PM2.5),129,122,99,98,77,4,,105,57,62,29,1,3,1.5,1.1
2024-02-14T0000,1062A,117.9531,40.9081,承德市,铁路,细颗粒物(PM2.5),180,181,132,136,93,17,,88,42,67,45,15,15,1.5,1.3
2024-02-14T0000,1063A,117.9392,40.9763,承德市,中国银行,细颗粒物(PM2.5),163,180,146,124,91,23,,96,37,50,36,10,12,1.1,1.3
2024-02-14T0000,1064A,117.9503,40.928,承德市,开发区,细颗粒物(PM2.5),140,162,117,107,74,28,,100,52,54,38,11,10,1.3,1.1
2024-02-14T0000,1065A,117.8051,40.9655,承德市,文化中心,细颗粒物(PM2.5),117,158,155,88,98,20,,89,42,53,40,13,23,1.6,1.3
2024-02-14T0000,1066A,117.9268,41.0026,承德市,离宫,细颗粒物(PM2.5),113,136,111,85,75,50,,103,77,27,19,8,9,0.8,0.9
2024-02-14T0000,2314A,117.47,30.6618,池州市,池州学院,,50,50,43,33,30,60,,84,70,24,26,15,7,0.9,0.7
2024-02-14T0000,3237A,117.4918,30.6617,池州市,展览馆,细颗粒物(PM2.5),57,60,51,40,33,25,,78,50,20,17,4,4,0.7,0.7
2024-02-14T0000,3333A,117.5627,30.695,池州市,第八中学,细颗粒物(PM2.5),52,48,38,36,26,65,,90,77,14,13,16,11,0.9,0.6
2024-02-14T0000,3334A,117.5038,30.6243,池州市,第十二中学,,38,36,40,26,28,64,,88,77,11,13,4,4,0.3,0.4
2024-02-14T0000,1744A,118.9233,42.2816,赤峰市,松山一中,,38,38,56,7,18,75,,85,71,6,13,6,10,0.4,0.6
2024-02-14T0000,1745A,118.9576,42.2728,赤峰市,哈达街,,36,36,55,9,17,72,,82,68,7,14,12,12,0.5,0.7
2024-02-14T0000,1746A,118.8788,42.2554,赤峰市,天义路,,26,26,44,8,17,74,,83,68,5,11,5,7,0.3,0.4
2024-02-14T0000,3058A,119.2658,42.0353,赤峰市,银河街,,40,40,84,8,44,64,,88,66,8,14,12,17,0.4,0.7
2024-02-14T0000,3286A,118.9359,42.3147,赤峰市,桥北物流园区,,40,40,50,5,20,77,,88,76,3,6,7,8,0.5,0.6
2024-02-14T0000,2521A,107.3476,22.4136,崇左市,市环保局江州分局,细颗粒物(PM2.5),115,127,85,87,58,15,,91,57,34,14,8,8,0.8,0.6
2024-02-14T0000,2522A,107.3702,22.3707,崇左市,城南新区,细颗粒物(PM2.5),120,97,65,91,62,43,,98,81,24,14,7,7,0.6,0.4
2024-02-14T0000,2298A,118.3093,32.3153,滁州市,老年大学,细颗粒物(PM2.5),103,93,78,77,44,14,,66,31,37,32,7,10,1.1,1.1
2024-02-14T0000,2299A,118.3244,32.2786,滁州市,人大宾馆,细颗粒物(PM2.5),79,69,66,58,48,15,,61,32,49,35,6,9,0.9,0.9
2024-02-14T0000,3207A,118.3118,32.3038,滁州市,市政府原办公楼,细颗粒物(PM2.5),113,106,70,85,50,9,,64,32,57,35,6,9,1.1,0.9
2024-02-14T0000,3331A,118.3267,32.2634,滁州市,图书馆,细颗粒物(PM2.5),75,75,54,55,37,38,,69,55,39,24,9,11,0.9,0.9
2024-02-14T0000,2605A,101.5482,25.0441,楚雄彝族自治州,州环境监测站,细颗粒物(PM2.5),52,52,28,36,22,46,,96,71,20,11,6,6,0.8,0.6
2024-02-14T0000,2606A,101.538,25.0492,楚雄彝族自治州,市经济开发区,细颗粒物(PM2.5),74,54,36,54,25,44,,90,64,23,13,7,7,0.9,0.6
2024-02-14T0000,2548A,107.5277,31.2827,达州市,达州职业技术学院,细颗粒物(PM2.5),89,91,68,66,46,26,,86,42,19,21,7,10,0.9,0.7
2024-02-14T0000,2549A,107.5086,31.2186,达州市,市环境监测站,细颗粒物(PM2.5),92,93,71,68,51,22,,70,34,41,39,8,10,1.2,1
2024-02-14T0000,2550A,107.4988,31.2132,达州市,凤凰小区,细颗粒物(PM2.5),89,88,72,66,53,17,,70,28,47,40,7,10,1.2,1
2024-02-14T0000,2551A,107.5082,31.1986,达州市,达县机关宾馆,细颗粒物(PM2.5),75,83,79,55,52,6,,57,11,50,44,5,7,1.2,1.2
2024-02-14T0000,2552A,107.4644,31.2124,达州市,市政中心,细颗粒物(PM2.5),100,109,85,75,58,5,,62,26,67,51,8,17,1.5,1.8
2024-02-14T0000,2614A,100.1542,25.7054,大理白族自治州,大理市环境监测站,,36,36,24,23,19,96,,96,96,4,5,7,7,0.4,0.5
2024-02-14T0000,2615A,100.2171,25.5811,大理白族自治州,大理古城,,43,,21,30,18,76,,96,87,18,10,7,6,0.4,0.5
2024-02-14T0000,1109A,121.612,38.9741,大连市,甘井子,颗粒物(PM10),74,97,104,39,70,60,,84,66,22,24,6,8,0.8,0.8
2024-02-14T0000,1110A,121.565,38.9511,大连市,周水子,细颗粒物(PM2.5),87,95,106,64,84,62,,85,72,23,28,6,36,1.0,1
2024-02-14T0000,1111A,121.5637,38.8845,大连市,星海三站,细颗粒物(PM2.5),112,107,106,84,78,38,,86,52,41,29,7,8,0.9,1.1
2024-02-14T0000,1112A,121.6302,38.9117,大连市,青泥洼桥,细颗粒物(PM2.5),77,76,94,56,68,67,,95,59,23,28,12,16,0.8,1
2024-02-14T0000,1113A,121.6251,38.8638,大连市,傅家庄,细颗粒物(PM2.5),75,80,104,55,70,72,,97,84,9,14,11,13,0.9,1
2024-02-14T0000,1114A,121.5213,38.8661,大连市,七贤岭,细颗粒物(PM2.5),104,120,112,78,72,26,,75,49,31,27,8,10,0.8,0.8
2024-02-14T0000,1115A,121.2529,38.8061,大连市,旅顺,细颗粒物(PM2.5),89,100,92,66,62,72,,92,86,26,25,8,9,0.9,1
2024-02-14T0000,1116A,121.7485,39.1311,大连市,金州,,46,46,90,29,69,77,,94,78,19,26,8,13,1.4,1.4
2024-02-14T0000,1117A,121.7811,39.0496,大连市,开发区,细颗粒物(PM2.5),64,75,111,46,75,69,,80,74,24,28,3,5,1.2,1.1
2024-02-14T0000,1118A,121.9762,39.0631,大连市,双D港,细颗粒物(PM2.5),54,44,91,38,62,83,,95,87,13,15,6,7,0.9,1
2024-02-14T0000,1789A,124.81117,46.03138,大庆市,大同区,,22,13,93,9,51,69,,79,69,6,10,5,9,0.3,0.6
2024-02-14T0000,1790A,125.129,46.533,大庆市,龙凤区,,33,33,78,16,41,62,,80,64,14,14,8,7,0.4,0.6
2024-02-14T0000,1791A,124.902,46.408,大庆市,红岗区,,36,,77,25,44,75,,84,76,6,8,6,7,0.3,0.4
2024-02-14T0000,1792A,125.153,46.586,大庆市,萨尔图区,,21,19,85,12,46,66,,75,68,8,12,9,11,0.5,0.6
2024-02-14T0000,1793A,124.9042,46.6215,大庆市,让胡路区,,35,31,83,24,41,67,,78,70,7,9,10,8,0.4,0.6
2024-02-14T0000,3481A,125.141,46.634,大庆市,萨区政府监测点,,23,15,80,15,42,71,,87,76,8,10,9,12,0.5,0.7
2024-02-14T0000,1721A,113.3819,40.1097,大同市,果树场,,,,,,,,,,,,,,,,
2024-02-14T0000,1723A,113.2994,40.0758,大同市,云冈宾馆,细颗粒物(PM2.5),79,103,90,58,47,18,,88,48,50,39,15,19,1.8,1.2
2024-02-14T0000,1724A,113.3444,40.0917,大同市,大同大学,颗粒物(PM10),61,72,69,29,33,50,,86,64,26,29,22,26,0.8,0.9
2024-02-14T0000,1725A,113.2661,40.1269,大同市,安家小村,颗粒物(PM10),55,60,64,27,26,38,,85,66,27,16,23,25,1.0,1
2024-02-14T0000,1726A,113.2711,40.0844,大同市,教育学院,颗粒物(PM10),70,90,86,34,39,23,,84,37,42,41,39,24,0.7,1.5
2024-02-14T0000,3282A,113.3397,40.0597,大同市,大同市卫生学校,颗粒物(PM10),79,108,79,50,47,20,,91,56,48,33,19,21,2.0,1
2024-02-14T0000,3565A,113.1367,40.1122,大同市,云冈站,颗粒物(PM10),63,76,57,28,21,9,,89,43,51,22,44,33,0.7,0.5
2024-02-14T0000,3566A,113.1186,40.2556,大同市,图书馆,颗粒物(PM10),54,57,56,31,29,30,,81,54,17,12,14,22,0.5,0.4
2024-02-14T0000,3567A,113.5931,40.0461,大同市,区一中,细颗粒物(PM2.5),68,81,80,49,45,38,,90,64,24,19,46,37,1.3,0.9
2024-02-14T0000,3676A,113.2802,40.0995,大同市,第二人民医院,颗粒物(PM10),70,89,80,48,33,15,,90,58,59,31,18,21,1.1,1.2
2024-02-14T0000,2269A,124.1069,50.4097,大兴安岭地区,科技局,,33,,28,23,24,63,,67,60,5,9,8,10,0.4,0.4
2024-02-14T0000,3663A,124.1164,50.4278,大兴安岭地区,红旗社区,,30,,20,21,17,41,,70,53,16,17,16,13,0.4,0.3
2024-02-14T0000,1600A,124.3303,40.0625,丹东市,江湾东路,颗粒物(PM10),63,76,100,43,60,87,,104,94,2,5,10,12,0.7,0.8
2024-02-14T0000,1601A,124.4256,40.1503,丹东市,临江后街,细颗粒物(PM2.5),93,119,105,69,57,71,,105,90,17,11,14,12,1.6,1.2
2024-02-14T0000,1602A,124.3933,40.1461,丹东市,元宝山,颗粒物(PM10),67,83,106,44,57,89,,97,90,11,15,13,13,1.0,1
2024-02-14T0000,1603A,124.3633,40.1092,丹东市,民主桥,"颗粒物(PM10),细颗粒物(PM2.5)",74,98,111,54,62,81,,92,84,10,11,16,13,1.5,1.1
2024-02-14T0000,3541A,109.5726,19.5167,儋州市,第一中学子站,,34,34,31,15,17,74,,84,80,2,2,5,5,0.5,0.5
2024-02-14T0000,3542A,109.5567,19.5187,儋州市,东坡学校子站,,37,37,32,14,16,80,,89,85,3,3,4,4,0.4,0.5
2024-02-14T0000,2616A,98.5842,24.428,德宏傣族景颇族自治州,德宏州监测站,细颗粒物(PM2.5),53,48,44,37,33,58,,94,74,16,23,5,12,0.6,0.6
2024-02-14T0000,3677A,98.5881,24.4368,德宏傣族景颇族自治州,芒市人民政府综合楼,,42,42,45,25,31,55,,90,74,12,15,5,7,0.6,0.6
2024-02-14T0000,1901A,104.4239,31.1208,德阳市,东山公园,细颗粒物(PM2.5),112,87,74,84,68,66,,124,113,39,14,6,5,0.9,0.7
2024-02-14T0000,1902A,104.3826,31.1317,德阳市,西小区,细颗粒物(PM2.5),165,129,93,125,85,29,,108,63,54,39,4,4,1.0,0.9
2024-02-14T0000,1904A,104.3553,31.1091,德阳市,耐火材料厂,细颗粒物(PM2.5),133,118,89,101,79,54,,118,92,28,23,6,5,0.8,0.7
2024-02-14T0000,3639A,104.4019,31.1244,德阳市,市教育局,细颗粒物(PM2.5),114,102,79,86,71,1,,111,52,88,40,3,3,1.4,0.8
2024-02-14T0000,1622A,116.3032,37.4674,德州市,儿童乐园,细颗粒物(PM2.5),104,117,103,78,61,94,,116,102,21,14,14,14,1.2,1.1
2024-02-14T0000,1624A,116.2991,37.4451,德州市,监理站,细颗粒物(PM2.5),113,124,103,85,62,90,,118,103,32,22,16,17,1.0,0.9
2024-02-14T0000,3066A,116.2721,37.4379,德州市,九衢泉纯净水厂,细颗粒物(PM2.5),114,129,106,86,67,89,,113,99,26,21,17,14,1.1,1
2024-02-14T0000,3371A,116.3728,37.4403,德州市,开发区人民医院,细颗粒物(PM2.5),100,127,101,75,57,95,,116,105,18,14,13,13,1.1,0.8
2024-02-14T0000,3372A,116.3572,37.4094,德州市,太阳城中学,细颗粒物(PM2.5),133,135,99,101,67,88,,118,105,19,12,12,11,1.1,1
2024-02-14T0000,3511A,116.5652,37.3319,德州市,陵城艺术中心,细颗粒物(PM2.5),100,119,94,75,53,88,,112,102,18,14,18,14,1.0,0.9
2024-02-14T0000,2621A,99.7056,27.8317,迪庆藏族自治州,迪庆州站,,25,23,22,15,13,78,,87,81,8,8,8,8,0.4,0.4
2024-02-14T0000,3180A,99.7136,27.8094,迪庆藏族自治州,质量技术监督局,,28,,18,19,12,77,,86,77,4,8,8,8,0.3,0.5
2024-02-14T0000,2663A,104.6241,35.5734,定西市,东关小学,颗粒物(PM10),87,124,80,36,49,68,,75,64,3,14,8,17,0.3,1.1
2024-02-14T0000,2664A,104.6194,35.5934,定西市,供电公司,颗粒物(PM10),82,113,78,34,54,77,,89,84,2,8,2,12,0.2,0.8
2024-02-14T0000,1389A,113.7547,23.0494,东莞市,莞城梨川,颗粒物(PM10),53,56,53,36,35,68,,122,98,26,17,8,8,0.6,0.6
2024-02-14T0000,1390A,113.7944,23.0128,东莞市,东城石井,,46,46,39,29,25,48,,111,83,17,12,6,7,0.6,0.6
2024-02-14T0000,1391A,113.7383,22.9658,东莞市,南城西平,颗粒物(PM10),55,59,45,32,25,64,,114,99,22,14,17,10,0.7,0.7
2024-02-14T0000,3319A,113.7338,23.0381,东莞市,万江金泰,细颗粒物(PM2.5),69,82,58,50,39,57,,110,94,23,12,9,8,0.9,0.8
2024-02-14T0000,3626A,113.7533,23.0202,东莞市,南城元岭,颗粒物(PM10),54,58,47,32,28,69,,118,100,18,10,7,7,0.8,0.7
2024-02-14T0000,3627A,113.7875,23.0457,东莞市,东城主山,,46,46,47,27,31,72,,117,100,13,10,9,10,0.6,0.6
2024-02-14T0000,1666A,118.6614,37.4309,东营市,市环保局,细颗粒物(PM2.5),110,114,97,83,65,71,,130,99,29,25,28,23,0.8,1
2024-02-14T0000,3036A,118.6904,37.4338,东营市,开发区管委会,细颗粒物(PM2.5),110,111,90,83,63,69,,121,97,32,24,22,17,0.8,0.9
2024-02-14T0000,3365A,118.5719,37.565,东营市,垦利区民丰路,细颗粒物(PM2.5),110,110,103,83,67,64,,130,93,35,26,22,21,1.1,1
2024-02-14T0000,3498A,118.5055,37.8612,东营市,河口城区,细颗粒物(PM2.5),221,190,120,171,83,88,,143,117,24,19,18,15,1.0,1
2024-02-14T0000,3646A,118.4978,37.4623,东营市,胜利站,细颗粒物(PM2.5),125,162,121,95,69,56,,117,76,46,37,23,19,1.1,1
2024-02-14T0000,3734A,118.35,37.26,东营市,理想之城,细颗粒物(PM2.5),110,110,100,83,65,60,,116,86,35,27,21,15,1.0,0.9
2024-02-14T0000,1591A,110.0023,39.8129,鄂尔多斯市,综合楼,颗粒物(PM10),75,100,57,34,20,74,,82,78,20,20,13,8,0.9,0.6
2024-02-14T0000,1592A,109.9486,39.8261,鄂尔多斯市,巴音孟克林场办事处,颗粒物(PM10),69,88,53,36,22,61,,79,69,23,17,15,14,0.7,0.6
2024-02-14T0000,1593A,109.7736,39.5986,鄂尔多斯市,康泽苑,颗粒物(PM10),60,70,46,34,23,65,,87,73,16,16,8,7,0.8,0.6
2024-02-14T0000,1594A,109.8119,39.5989,鄂尔多斯市,华泰汽车城,颗粒物(PM10),63,75,50,39,24,57,,87,70,20,21,8,8,0.7,0.6
2024-02-14T0000,1595A,109.9734,39.7884,鄂尔多斯市,奥林花园,颗粒物(PM10),74,97,56,34,22,70,,78,74,22,25,16,11,0.9,0.6
2024-02-14T0000,2436A,114.8938,30.3994,鄂州市,市政府,,45,45,43,24,27,66,,87,75,12,11,9,11,0.9,0.8
2024-02-14T0000,2437A,114.8989,30.3714,鄂州市,赵家坝,,38,38,37,24,27,68,,92,78,6,9,7,7,0.8,0.6
2024-02-14T0000,3654A,114.8094,30.4089,鄂州市,精准医疗中心,颗粒物(PM10),81,112,71,46,36,58,,93,70,25,24,56,35,3.8,2.4
2024-02-14T0000,2454A,109.4978,30.2981,恩施土家族苗族自治州,湖北民院,细颗粒物(PM2.5),94,84,61,70,43,41,,88,64,26,20,7,7,1.2,1.1
2024-02-14T0000,2455A,109.4707,30.2798,恩施土家族苗族自治州,州电力总公司,细颗粒物(PM2.5),163,154,72,124,56,12,,78,46,42,22,6,6,1.8,1.1
2024-02-14T0000,3549A,109.5061,30.3772,恩施土家族苗族自治州,龙凤新区,细颗粒物(PM2.5),74,58,45,54,43,34,,76,50,16,14,7,6,1.0,1
2024-02-14T0000,2499A,108.3411,21.6158,防城港市,沙万,颗粒物(PM10),60,69,56,33,31,39,,73,51,37,28,4,5,0.5,0.5
2024-02-14T0000,2500A,108.3514,21.7731,防城港市,防城档案局,颗粒物(PM10),61,72,66,40,39,18,,74,54,23,18,6,9,0.5,0.6
2024-02-14T0000,2501A,108.3506,21.6414,防城港市,大海花园,细颗粒物(PM2.5),57,52,56,40,32,48,,79,66,24,17,4,5,0.4,0.4
2024-02-14T0000,1371A,113.1294,23.0067,佛山市,湾梁,颗粒物(PM10),58,66,50,39,36,73,,120,99,12,11,9,9,0.6,0.5
2024-02-14T0000,1372A,113.1083,23.0478,佛山市,华材职中,细颗粒物(PM2.5),52,51,51,36,33,66,,115,85,14,22,11,11,0.5,0.6
2024-02-14T0000,1373A,113.144,23.0453,佛山市,南海气象局,"颗粒物(PM10),细颗粒物(PM2.5)",67,84,51,48,39,63,,114,90,17,16,7,7,0.4,0.3
2024-02-14T0000,1374A,113.2881,22.8094,佛山市,顺德苏岗,颗粒物(PM10),53,56,41,34,24,71,,119,96,10,12,8,9,0.4,0.4
2024-02-14T0000,1376A,112.8383,22.8678,佛山市,高明孔堂,,47,47,40,31,23,77,,116,99,7,6,4,4,0.3,0.3
2024-02-14T0000,1377A,112.8836,23.1588,佛山市,三水监测站,,46,41,49,32,34,74,,109,90,14,22,4,6,0.5,0.6
2024-02-14T0000,1378A,112.867,23.185,佛山市,三水云东海,,42,42,36,23,28,82,,111,82,15,18,4,4,0.5,0.5
2024-02-14T0000,3625A,113.2544,22.7642,佛山市,容桂街道办,,36,36,39,24,21,71,,109,90,7,10,5,6,0.5,0.5
2024-02-14T0000,1280A,119.3903,26.0543,福州市,鼓山,,,,,,,,,,,,,,,,
2024-02-14T0000,1282A,119.2681,26.0504,福州市,师大,细颗粒物(PM2.5),93,90,54,69,37,66,,113,93,18,7,8,7,0.5,0.4
2024-02-14T0000,1283A,119.2984,26.1028,福州市,五四北路,细颗粒物(PM2.5),95,88,54,71,37,43,,110,83,27,11,4,4,0.7,0.5
2024-02-14T0000,1284A,119.2648,26.0768,福州市,杨桥西路,细颗粒物(PM2.5),99,86,54,74,38,44,,115,89,22,11,4,4,0.6,0.5
2024-02-14T0000,1285A,119.317,26.0746,福州市,紫阳,细颗粒物(PM2.5),114,113,62,86,44,32,,108,74,39,12,8,7,0.7,0.6
2024-02-14T0000,3048A,119.5799,26.0936,福州市,九龙,,43,42,42,30,24,54,,113,85,9,8,2,3,0.4,0.5
2024-02-14T0000,3526A,119.5189,25.9664,福州市,吴航,,48,48,51,28,30,61,,111,82,12,14,4,5,0.5,0.5
2024-02-14T0000,1755A,123.7977,41.8491,抚顺市,望花区,细颗粒物(PM2.5),128,120,95,97,68,49,,99,67,39,21,20,28,1.2,0.9
2024-02-14T0000,1756A,123.9161,41.8822,抚顺市,顺城区,细颗粒物(PM2.5),125,125,99,95,69,58,,116,87,38,15,10,14,1.0,0.8
2024-02-14T0000,1757A,124.0436,41.8611,抚顺市,东洲区,细颗粒物(PM2.5),84,82,90,62,62,102,,114,109,8,7,9,13,0.7,0.9
2024-02-14T0000,1758A,123.9247,41.8642,抚顺市,新抚区,细颗粒物(PM2.5),109,120,93,82,63,46,,119,75,38,19,10,14,1.0,0.8
2024-02-14T0000,1759A,124.0972,41.8961,抚顺市,大伙房水库,细颗粒物(PM2.5),90,85,92,67,61,82,,119,107,11,7,10,12,0.8,0.7
2024-02-14T0000,1760A,123.7086,41.8391,抚顺市,沈抚新城,细颗粒物(PM2.5),109,123,95,82,63,57,,110,86,38,18,14,18,1.7,1.1
2024-02-14T0000,2376A,116.2127,28.0814,抚州市,桐源党溪,细颗粒物(PM2.5),163,151,76,124,54,28,,56,28,9,10,7,8,0.7,0.5
2024-02-14T0000,2377A,116.3544,27.9831,抚州市,市站,细颗粒物(PM2.5),125,130,59,95,37,38,,66,24,20,18,3,6,0.8,0.6
2024-02-14T0000,2378A,116.3565,27.963,抚州市,血防站,细颗粒物(PM2.5),109,108,50,82,27,49,,62,45,16,11,5,4,0.5,0.6
2024-02-14T0000,2379A,116.3564,28.0007,抚州市,采茶剧团,细颗粒物(PM2.5),119,115,52,90,34,40,,62,41,12,9,7,6,1.0,0.9
2024-02-14T0000,2380A,116.385,27.9647,抚州市,医学分院,细颗粒物(PM2.5),104,122,51,78,28,44,,69,48,12,8,7,6,0.7,0.6
2024-02-14T0000,2207A,121.6094,41.998,阜新市,工业园区,颗粒物(PM10),51,52,137,11,73,61,,102,63,14,25,56,27,0.5,1.4
2024-02-14T0000,2208A,121.6697,42.0279,阜新市,长青街,,41,41,134,10,95,62,,104,72,10,22,54,30,0.6,1.2
2024-02-14T0000,2209A,121.6673,42.0705,阜新市,农业园区,,31,31,147,5,92,67,,110,83,10,21,9,34,0.5,1
2024-02-14T0000,2210A,121.6717,42.0224,阜新市,东苑,,33,33,131,17,102,66,,111,79,11,24,32,33,0.6,1.2
2024-02-14T0000,2211A,121.6506,42.0498,阜新市,玉龙新城,,34,34,127,6,77,68,,108,78,8,21,9,26,0.1,0.9
2024-02-14T0000,2301A,115.8277,32.8929,阜阳市,市监测站,细颗粒物(PM2.5),122,101,71,92,55,40,,75,56,26,15,9,8,0.5,0.6
2024-02-14T0000,2303A,115.8554,32.8605,阜阳市,开发区,细颗粒物(PM2.5),90,78,72,67,38,64,,81,68,10,11,8,7,0.3,0.4
2024-02-14T0000,2875A,115.784,32.8892,阜阳市,阜阳职业技术学院,细颗粒物(PM2.5),62,47,54,44,33,71,,85,74,13,15,8,7,0.6,0.6
2024-02-14T0000,3468A,115.7901,32.8613,阜阳市,市规划展馆,细颗粒物(PM2.5),79,85,68,58,43,63,,80,71,12,11,9,7,0.7,0.6
2024-02-14T0000,3469A,115.836,32.9183,阜阳市,枣园社区,细颗粒物(PM2.5),119,150,82,90,52,31,,82,59,35,19,9,7,0.6,0.5
2024-02-14T0000,2669A,102.9099,34.9841,甘南藏族自治州,州政府,,33,33,24,21,16,23,,79,54,27,14,18,18,0.7,0.6
2024-02-14T0000,3380A,102.8914,34.9617,甘南藏族自治州,甘肃民族师范学院,,45,45,21,12,10,28,,74,51,21,9,20,18,0.8,0.7
2024-02-14T0000,2570A,101.9603,30.0475,甘孜藏族自治州,水桥子,,15,10,12,6,8,47,,76,64,10,6,9,10,0.4,0.3
2024-02-14T0000,3065A,101.9533,29.9972,甘孜藏族自治州,州环保局,,20,15,13,5,5,63,,89,67,2,3,8,8,0.2,0.2
2024-02-14T0000,3414A,115.8347,28.932,赣江新区,桑海产业园,,39,39,46,27,31,41,,71,47,13,18,4,6,0.4,0.5
2024-02-14T0000,2362A,114.9017,25.9149,赣州市,通天岩,,,,,,,,,,,,,,,,
2024-02-14T0000,2363A,114.9367,25.8664,赣州市,地委,细颗粒物(PM2.5),57,44,49,40,30,73,,93,58,18,21,13,12,1.1,1
2024-02-14T0000,2364A,114.9461,25.8481,赣州市,气象台,,49,,40,34,30,82,,101,73,3,17,7,8,0.5,0.5
2024-02-14T0000,2365A,114.9322,25.8333,赣州市,市图书馆,,49,49,51,27,29,61,,83,47,19,6,11,14,0.4,0.5
2024-02-14T0000,2366A,114.8905,25.8471,赣州市,华坚鞋城,颗粒物(PM10),56,62,56,37,34,48,,86,58,18,18,6,5,0.8,0.8
2024-02-14T0000,3109A,115.0093,25.8613,赣州市,赣县区卫计委,细颗粒物(PM2.5),118,115,48,89,33,24,,84,43,34,17,7,7,1.3,0.8
2024-02-14T0000,2683A,106.2319,36.1417,固原市,马园,颗粒物(PM10),113,175,64,20,31,74,,100,80,9,17,6,7,0.2,0.5
2024-02-14T0000,2684A,106.2792,36.0022,固原市,监测站,颗粒物(PM10),106,162,65,26,45,74,,100,82,14,21,6,8,0.3,0.9
2024-02-14T0000,2685A,106.2375,36.0211,固原市,新区,颗粒物(PM10),80,110,58,19,34,66,,94,76,11,25,6,7,0.3,0.6
2024-02-14T0000,3522A,106.2177,35.9959,固原市,原州区十五小,颗粒物(PM10),63,75,44,25,29,60,,96,76,12,11,9,10,0.4,0.5
2024-02-14T0000,2543A,106.6308,30.5278,广安市,小平旧居,,,,,,,,,,,,,,,,
2024-02-14T0000,2544A,106.6303,30.4576,广安市,市委,细颗粒物(PM2.5),172,168,129,130,103,12,,94,49,70,39,8,8,1.4,1.2
2024-02-14T0000,2545A,106.6271,30.4663,广安市,友谊中学,细颗粒物(PM2.5),133,119,103,101,90,56,,103,73,32,29,6,6,1.1,1.1
2024-02-14T0000,2547A,106.6388,30.4551,广安市,广电花园,细颗粒物(PM2.5),156,135,116,119,106,26,,102,51,51,36,6,6,1.5,1.3
2024-02-14T0000,2902A,106.6351,30.4865,广安市,北辰小学,细颗粒物(PM2.5),156,122,113,119,103,60,,112,85,26,26,7,7,1.1,1.1
2024-02-14T0000,2523A,105.8945,32.4535,广元市,黑石坡,细颗粒物(PM2.5),70,64,56,51,54,102,,116,113,12,13,7,7,0.6,0.6
2024-02-14T0000,2524A,105.821,32.4444,广元市,老城,细颗粒物(PM2.5),87,104,82,64,53,33,,87,54,40,28,1,12,1.2,1.3
2024-02-14T0000,2526A,105.8628,32.4287,广元市,监测站,细颗粒物(PM2.5),102,91,64,76,52,38,,92,73,36,19,5,8,1.0,0.9
2024-02-14T0000,3617A,105.8047,32.4166,广元市,经开区,细颗粒物(PM2.5),89,96,88,66,64,30,,93,58,40,32,6,23,1.1,1.2
2024-02-14T0000,1345A,113.2347,23.1423,广州市,广雅中学,细颗粒物(PM2.5),54,45,46,38,31,69,,108,87,20,26,5,5,0.7,0.7
2024-02-14T0000,1346A,113.2612,23.105,广州市,市五中,细颗粒物(PM2.5),69,72,49,50,33,69,,112,91,25,25,6,6,0.6,0.6
2024-02-14T0000,1348A,113.3478,23.0916,广州市,广东商学院,细颗粒物(PM2.5),75,81,51,55,34,67,,117,92,22,18,5,5,0.6,0.5
2024-02-14T0000,1349A,113.4332,23.1047,广州市,市八十六中,颗粒物(PM10),61,71,53,40,35,52,,125,85,39,21,6,6,0.4,0.4
2024-02-14T0000,1350A,113.3505,22.9483,广州市,番禺中学,细颗粒物(PM2.5),78,70,53,57,39,71,,122,96,23,22,5,5,0.6,0.6
2024-02-14T0000,1351A,113.2146,23.3916,广州市,花都师范,细颗粒物(PM2.5),67,76,61,48,40,64,,117,93,28,28,6,6,0.5,0.7
2024-02-14T0000,1352A,113.2597,23.1331,广州市,市监测站,颗粒物(PM10),63,76,51,44,30,65,,113,87,27,24,5,6,0.6,0.6
2024-02-14T0000,1353A,113.5618,23.312,广州市,九龙镇镇龙,细颗粒物(PM2.5),84,90,59,62,44,28,,110,78,19,16,7,6,0.7,0.6
2024-02-14T0000,1354A,113.2765,23.1544,广州市,麓湖,细颗粒物(PM2.5),55,57,44,39,28,48,,117,85,34,23,5,5,0.5,0.5
2024-02-14T0000,1355A,113.443,23.3035,广州市,帽峰山森林公园,颗粒物(PM10),51,52,39,32,25,75,,128,107,22,11,8,8,0.4,0.3
2024-02-14T0000,2846A,113.3221,23.1322,广州市,体育西,细颗粒物(PM2.5),78,83,46,57,32,70,,121,92,22,18,7,8,0.7,0.6
2024-02-14T0000,3298A,113.5717,23.5491,广州市,从化街口,细颗粒物(PM2.5),133,134,72,101,54,13,,106,69,36,16,6,5,0.9,0.6
2024-02-14T0000,3299A,113.3472,23.3692,广州市,白云竹料,细颗粒物(PM2.5),97,109,69,72,48,36,,114,86,30,15,6,6,0.8,0.7
2024-02-14T0000,3300A,113.2981,23.237,广州市,白云嘉禾,"颗粒物(PM10),细颗粒物(PM2.5)",63,76,49,45,28,75,,120,94,26,21,7,7,0.6,0.5
2024-02-14T0000,3301A,113.4256,23.1716,广州市,黄埔科学城,颗粒物(PM10),56,61,47,39,34,39,,118,87,20,13,4,5,0.7,0.6
2024-02-14T0000,3302A,113.3942,23.0483,广州市,番禺大学城,颗粒物(PM10),64,78,52,36,29,76,,122,101,15,16,9,9,0.7,0.6
2024-02-14T0000,3303A,113.4922,22.8168,广州市,南沙黄阁,,50,50,51,34,33,61,,108,87,20,15,4,5,0.7,0.6
2024-02-14T0000,3304A,113.5342,22.7896,广州市,南沙街,,48,48,42,29,25,66,,112,87,18,17,2,2,0.6,0.6
2024-02-14T0000,3443A,113.2902,23.5544,广州市,花都梯面,颗粒物(PM10),51,51,46,33,33,92,,118,80,12,15,6,5,0.3,0.3
2024-02-14T0000,3445A,113.7858,23.7478,广州市,从化良口,,34,34,33,21,20,48,,101,81,7,5,7,7,0.4,0.4
2024-02-14T0000,3446A,113.8051,23.2614,广州市,增城荔城,细颗粒物(PM2.5),72,82,60,52,44,30,,116,65,17,9,6,7,0.6,0.6
2024-02-14T0000,2505A,109.568,23.1478,贵港市,德智高中,细颗粒物(PM2.5),109,104,78,82,72,42,,73,54,18,15,6,7,0.9,0.8
2024-02-14T0000,2506A,109.6047,23.0666,贵港市,江南子站,细颗粒物(PM2.5),125,151,93,95,60,21,,70,41,29,18,11,10,1.2,0.9
2024-02-14T0000,2507A,109.6014,23.0948,贵港市,贵城子站,细颗粒物(PM2.5),108,93,75,81,66,33,,65,44,22,17,9,10,0.9,0.7
2024-02-14T0000,2508A,109.5669,23.1065,贵港市,荷城子站,细颗粒物(PM2.5),107,105,76,80,51,31,,65,49,24,12,10,10,1.3,1
2024-02-14T0000,3405A,109.5886,23.1172,贵港市,新世纪学校,细颗粒物(PM2.5),107,112,79,80,50,35,,70,56,24,15,10,10,1.1,0.8
2024-02-14T0000,1439A,106.6899,26.5998,贵阳市,马鞍山,,42,41,37,29,25,83,,100,79,8,10,7,9,0.7,0.6
2024-02-14T0000,1440A,106.6971,26.5694,贵阳市,市环保站,细颗粒物(PM2.5),63,,35,45,38,88,,103,76,9,16,14,13,0.5,0.5
2024-02-14T0000,1441A,106.6243,26.6266,贵阳市,鉴湖路,,49,46,41,34,23,84,,100,94,8,7,8,9,0.8,0.6
2024-02-14T0000,1442A,106.7487,26.6343,贵阳市,燕子冲,细颗粒物(PM2.5),58,51,41,41,29,82,,105,91,13,12,14,14,0.8,0.6
2024-02-14T0000,1443A,106.6555,26.4365,贵阳市,碧云窝,颗粒物(PM10),51,51,44,31,25,87,,103,97,7,7,12,12,0.6,0.5
2024-02-14T0000,1444A,106.694,26.5161,贵阳市,中院村,,49,44,42,34,33,79,,93,80,9,14,14,16,0.7,0.5
2024-02-14T0000,1445A,106.7109,26.6027,贵阳市,红边门,细颗粒物(PM2.5),62,53,49,44,37,71,,99,59,13,23,18,15,0.9,0.8
2024-02-14T0000,1446A,106.7164,26.5699,贵阳市,新华路,细颗粒物(PM2.5),58,48,46,41,34,81,,103,80,13,23,18,17,0.7,0.6
2024-02-14T0000,1447A,106.674,26.5424,贵阳市,太慈桥,,,39,37,36,24,85,,107,97,,7,10,9,0.5,0.4
2024-02-14T0000,1552A,106.805,26.3003,贵阳市,桐木岭,,,,,,,,,,,,,,,,
2024-02-14T0000,1862A,110.4144,25.3167,桂林市,电子科大尧山校区,,38,,37,26,37,25,,63,40,8,8,3,4,0.7,0.4
2024-02-14T0000,1863A,110.2819,25.2697,桂林市,监测站,细颗粒物(PM2.5),64,47,62,46,57,2,,60,16,43,31,7,7,1.5,1.1
2024-02-14T0000,1864A,110.3089,25.2708,桂林市,龙隐路小学,,50,,44,35,51,13,,69,35,33,18,4,5,1.0,0.8
2024-02-14T0000,1865A,110.2869,25.2178,桂林市,八中,,42,30,40,29,36,7,,68,20,32,22,4,4,0.8,0.6
2024-02-14T0000,3403A,110.1764,25.2381,桂林市,创业大厦,,42,36,50,29,45,24,,60,37,14,12,9,8,0.7,0.6
2024-02-14T0000,3531A,110.296,25.1253,桂林市,旅游学院,,,,35,24,30,,,72,28,12,12,4,5,0.6,0.5
2024-02-14T0000,2674A,100.2561,34.4714,果洛藏族自治州,玛沁县大武镇,,37,37,25,16,13,38,,82,64,18,12,12,13,0.5,0.4
2024-02-14T0000,1129A,126.5422,45.755,哈尔滨市,岭北,,22,17,79,10,56,68,,77,58,12,19,5,19,0.9,1.7
2024-02-14T0000,1130A,126.561,45.8167,哈尔滨市,松北商大,,35,35,83,13,51,76,,103,69,6,9,6,11,0.4,0.8
2024-02-14T0000,1131A,126.979,45.5419,哈尔滨市,阿城会宁,细颗粒物(PM2.5),57,56,90,40,62,52,,101,66,16,10,10,13,0.4,0.6
2024-02-14T0000,1132A,126.599,45.7222,哈尔滨市,南岗学府路,,50,50,108,13,50,63,,99,66,24,16,22,14,0.4,0.8
2024-02-14T0000,1133A,126.689,45.7733,哈尔滨市,太平宏伟公园,,47,47,89,13,52,73,,102,76,8,11,25,8,0.2,0.6
2024-02-14T0000,1134A,126.635,45.7667,哈尔滨市,道外承德广场,,41,41,93,17,53,69,,94,,10,18,11,11,0.4,0.6
2024-02-14T0000,1135A,126.685,45.7319,哈尔滨市,香坊红旗大街,,42,42,92,12,60,68,,88,65,11,18,21,21,0.6,0.9
2024-02-14T0000,1136A,126.6411,45.7258,哈尔滨市,动力和平路,,38,38,88,12,55,73,,101,73,8,11,12,13,0.4,0.8
2024-02-14T0000,1137A,126.593,45.7478,哈尔滨市,道里建国路,,45,36,89,31,60,69,,96,61,8,14,3,5,0.3,0.7
2024-02-14T0000,1138A,126.615,45.61,哈尔滨市,平房东轻厂,,33,33,94,18,55,75,,103,72,8,12,8,16,0.4,0.7
2024-02-14T0000,1139A,126.595,45.9855,哈尔滨市,呼兰师专,,44,44,107,26,73,58,,90,62,16,20,13,21,0.3,0.7
2024-02-14T0000,1140A,126.6206,45.6842,哈尔滨市,省农科院,,44,44,98,19,58,70,,105,61,3,9,8,9,0.4,0.8
2024-02-14T0000,2688A,93.5128,42.8172,哈密市,地区监测站,,22,18,68,15,21,64,,72,62,7,14,3,4,0.3,0.3
2024-02-14T0000,2689A,93.4961,42.8328,哈密市,哈密师范学校,,30,30,70,21,24,68,,76,61,7,14,4,7,0.2,0.3
2024-02-14T0000,2671A,100.9048,36.9639,海北藏族自治州,海晏县西海镇,,22,22,15,9,7,41,,77,58,3,3,12,13,0.4,0.4
2024-02-14T0000,3867A,102.0738,36.5056,海东市,平安区公安北苑,颗粒物(PM10),57,63,41,17,18,77,,73,73,6,16,14,20,0.2,0.5
2024-02-14T0000,1409A,110.576,19.9507,海口市,东寨港,,,,,,,,,,,,,,,,
2024-02-14T0000,1410A,110.3232,20.0574,海口市,海南大学,,50,50,41,23,18,95,,99,96,3,3,9,9,0.4,0.4
2024-02-14T0000,1411A,110.283,20.0053,海口市,秀英海南医院,,44,44,41,23,19,86,,96,90,5,4,8,8,0.4,0.4
2024-02-14T0000,1412A,110.338,19.9969,海口市,海南师范大学,,46,46,41,22,20,89,,95,90,5,4,7,7,0.4,0.4
2024-02-14T0000,1413A,110.33,20.0356,海口市,龙华路环保局宿舍,,45,45,42,23,19,89,,93,90,2,4,7,8,0.3,0.3
2024-02-14T0000,3539A,110.5111,19.9736,海口市,桂林洋子站,颗粒物(PM10),51,52,38,23,17,80,,95,89,2,2,6,6,0.3,0.3
2024-02-14T0000,2673A,100.6188,36.2866,海南藏族自治州,共和县恰卜恰镇,,32,32,23,7,10,44,,74,64,17,14,8,10,0.6,0.6
2024-02-14T0000,2676A,97.3731,37.3753,海西蒙古族藏族自治州,德令哈市,,24,24,16,11,10,74,,98,87,16,5,13,12,0.6,0.4
2024-02-14T0000,1048A,114.5302,36.6116,邯郸市,东污水处理厂,细颗粒物(PM2.5),313,360,162,263,115,4,,107,67,75,27,8,12,1.6,1.2
2024-02-14T0000,1049A,114.4918,36.5713,邯郸市,矿院,细颗粒物(PM2.5),282,316,141,232,103,2,,100,64,80,21,7,7,1.4,1.1
2024-02-14T0000,1050A,114.484,36.6133,邯郸市,丛台公园,细颗粒物(PM2.5),217,233,140,167,96,16,,114,65,48,19,8,10,1.2,1.3
2024-02-14T0000,3458A,114.7895,36.5593,邯郸市,香泉濮院小区,细颗粒物(PM2.5),135,124,115,103,79,77,,119,102,16,10,13,11,0.7,0.7
2024-02-14T0000,3579A,114.50634,36.77178,邯郸市,永年区实验高中,细颗粒物(PM2.5),208,231,172,158,123,40,,128,69,58,42,22,21,1.3,1.5
2024-02-14T0000,3580A,114.20016,36.44293,邯郸市,峰峰矿区临水派出所,细颗粒物(PM2.5),115,114,89,87,62,112,,116,112,1,10,17,24,0.7,1
2024-02-14T0000,2634A,106.9893,33.1842,汉中市,汉川机床厂子校,细颗粒物(PM2.5),57,41,49,40,41,60,,95,79,7,10,5,7,0.6,0.7
2024-02-14T0000,2635A,107.0154,33.0706,汉中市,市监测站,细颗粒物(PM2.5),156,129,91,119,80,43,,91,59,29,29,12,19,1.7,1.6
2024-02-14T0000,2636A,107.0089,33.1138,汉中市,鑫源开发区,细颗粒物(PM2.5),169,,76,128,74,32,,91,62,37,24,18,23,1.7,1.2
2024-02-14T0000,2637A,107.007,33.0323,汉中市,南郑大河坎水厂,细颗粒物(PM2.5),118,108,79,89,67,39,,92,63,24,18,10,15,1.3,1.1
2024-02-14T0000,1223A,120.2072,30.2111,杭州市,滨江,,34,34,43,13,26,68,,88,75,10,11,5,5,0.2,0.2
2024-02-14T0000,1224A,120.0633,30.2747,杭州市,西溪,,37,37,37,19,26,67,,95,76,9,10,6,6,0.4,0.5
2024-02-14T0000,1226A,120.3461,30.3153,杭州市,下沙,,37,37,48,21,28,75,,101,85,8,8,6,7,0.5,0.5
2024-02-14T0000,1227A,120.1269,30.2456,杭州市,卧龙桥,,31,31,39,18,28,49,,89,61,8,13,4,4,0.2,0.3
2024-02-14T0000,1228A,120.1903,30.2692,杭州市,浙江农大,,36,36,43,18,28,67,,75,69,10,11,7,7,0.5,0.5
2024-02-14T0000,1230A,120.1197,30.3119,杭州市,和睦小学,,32,31,40,22,29,51,,80,67,17,13,7,6,0.4,0.5
2024-02-14T0000,1231A,120.3019,30.4183,杭州市,临平镇,,32,,32,22,24,66,,93,77,8,7,6,6,0.3,0.3
2024-02-14T0000,1232A,120.2697,30.1819,杭州市,城厢镇,,42,39,49,29,33,64,,95,71,12,14,7,7,0.5,0.5
2024-02-14T0000,1233A,120.0883,30.1808,杭州市,云栖,,30,30,39,19,25,39,,84,62,10,15,8,7,0.5,0.5
2024-02-14T0000,3557A,119.9464,30.0494,杭州市,镇二中,,48,37,47,33,32,53,,84,67,9,12,6,7,0.6,0.6
2024-02-14T0000,3558A,119.7183,30.2367,杭州市,市府大楼,,26,26,40,18,27,78,,81,78,8,9,6,6,0.4,0.5
2024-02-14T0000,3656A,120.1556,30.2864,杭州市,消防大队,,29,25,42,20,31,64,,82,68,10,15,9,9,0.7,0.8
2024-02-14T0000,1270A,117.1959,31.7848,合肥市,明珠广场,,39,36,42,27,23,78,,88,84,10,12,9,8,0.5,0.5
2024-02-14T0000,1271A,117.3072,31.8764,合肥市,三里街,,46,46,45,27,26,63,,76,69,21,21,6,6,0.5,0.5
2024-02-14T0000,1272A,117.2588,31.8707,合肥市,琥珀山庄,,44,44,40,29,25,81,,88,86,5,9,5,5,0.6,0.7
2024-02-14T0000,1273A,117.1604,31.9052,合肥市,董铺水库,,48,48,41,29,23,83,,87,87,3,5,3,3,0.2,0.3
2024-02-14T0000,1274A,117.25,31.8571,合肥市,长江中路,,41,41,44,25,25,77,,85,82,11,14,9,8,0.7,0.7
2024-02-14T0000,1275A,117.266,31.9436,合肥市,庐阳区,,46,46,40,22,21,75,,78,78,13,15,6,6,0.5,0.5
2024-02-14T0000,1276A,117.336,31.8586,合肥市,瑶海区,,36,36,39,20,24,72,,83,78,11,11,6,6,0.5,0.5
2024-02-14T0000,1277A,117.3027,31.7964,合肥市,包河区,,39,36,37,27,25,77,,90,86,12,11,6,6,0.4,0.4
2024-02-14T0000,1278A,117.2776,31.7385,合肥市,滨湖新区,,46,46,42,24,29,80,,87,84,7,8,6,6,0.7,0.7
2024-02-14T0000,1279A,117.1318,31.8403,合肥市,高新区,,41,41,36,28,22,82,,88,87,10,10,6,5,0.6,0.6
2024-02-14T0000,3464A,117.3803,31.9147,合肥市,高教基地,,39,36,39,27,27,75,,93,87,6,5,4,4,0.4,0.4
2024-02-14T0000,3614A,79.924,37.0877,和田地区,地区环保局,颗粒物(PM10),320,436,139,96,30,41,,94,73,48,20,30,12,1.4,0.6
2024-02-14T0000,3615A,79.9131,37.113,和田地区,市环保局,颗粒物(PM10),388,490,133,111,32,22,,94,61,69,33,27,10,3.5,1.4
2024-02-14T0000,2516A,108.2011,24.715,河池市,东仁乐园,细颗粒物(PM2.5),162,148,84,123,64,28,,47,38,15,11,4,4,1.1,0.8
2024-02-14T0000,2517A,108.0497,24.6947,河池市,市环保站,细颗粒物(PM2.5),138,,70,105,60,29,,59,46,26,19,8,8,1.1,0.8
2024-02-14T0000,2518A,108.0983,24.6989,河池市,市疾控中心,细颗粒物(PM2.5),144,,64,110,61,50,,74,62,18,17,9,9,0.9,0.7
2024-02-14T0000,1696A,114.6778,23.7569,河源市,源西,细颗粒物(PM2.5),70,68,49,51,34,28,,95,60,36,19,5,4,0.7,0.6
2024-02-14T0000,1697A,114.6944,23.7586,河源市,东埔,细颗粒物(PM2.5),95,91,56,71,42,31,,100,70,28,12,7,7,0.8,0.6
2024-02-14T0000,1698A,114.6892,23.7233,河源市,老城,细颗粒物(PM2.5),82,73,50,60,34,53,,102,78,13,8,6,6,0.7,0.6
2024-02-14T0000,1718A,115.4208,35.2464,菏泽市,气象局,细颗粒物(PM2.5),78,96,87,57,48,86,,119,104,15,10,6,5,0.6,0.6
2024-02-14T0000,1719A,115.4747,35.2375,菏泽市,市政协,细颗粒物(PM2.5),75,96,86,55,50,72,,110,89,17,11,6,6,0.5,0.5
2024-02-14T0000,3374A,115.5564,35.0891,菏泽市,定陶老年大学,细颗粒物(PM2.5),79,100,83,58,46,72,,110,91,17,13,8,7,0.4,0.4
2024-02-14T0000,3647A,115.4702,35.2706,菏泽市,菏泽医专,颗粒物(PM10),67,84,80,42,39,81,,114,102,21,16,9,8,0.5,0.5
2024-02-14T0000,2514A,111.5264,24.4172,贺州市,环保小区,细颗粒物(PM2.5),163,154,67,124,47,21,,85,48,26,12,10,9,1.1,0.7
2024-02-14T0000,2515A,111.5608,24.4078,贺州市,政协大楼,细颗粒物(PM2.5),94,90,61,70,38,39,,89,53,15,12,9,10,0.7,0.6
2024-02-14T0000,3534A,111.4744,24.4553,贺州市,西湾,细颗粒物(PM2.5),94,84,56,70,44,33,,86,60,18,12,9,10,0.8,0.6
2024-02-14T0000,2385A,114.17,35.9019,鹤壁市,市监测站,细颗粒物(PM2.5),114,115,123,86,92,80,,114,86,15,22,5,4,0.8,0.9
2024-02-14T0000,2386A,114.2956,35.7511,鹤壁市,市交警支队,细颗粒物(PM2.5),209,214,137,159,100,32,,110,62,46,19,14,12,0.6,0.7
2024-02-14T0000,2387A,114.2878,35.7306,鹤壁市,迎宾馆,细颗粒物(PM2.5),225,216,128,175,102,42,,114,74,46,24,12,9,1.0,0.8
2024-02-14T0000,3474A,114.2617,35.6822,鹤壁市,大新区,细颗粒物(PM2.5),160,144,129,122,94,43,,110,71,57,22,13,12,1.1,1
2024-02-14T0000,3596A,114.1572,35.9603,鹤壁市,南山宾馆,细颗粒物(PM2.5),108,106,107,81,79,106,,118,103,18,23,12,13,0.9,0.8
2024-02-14T0000,2244A,130.2537,47.3416,鹤岗市,哈啤分公司,,45,37,72,31,43,78,,85,83,7,18,14,20,0.3,0.8
2024-02-14T0000,2245A,130.2684,47.3086,鹤岗市,斯达机电,,49,49,75,22,46,83,,97,88,8,14,10,14,0.5,0.7
2024-02-14T0000,2246A,130.3114,47.3388,鹤岗市,东山纸板厂,细颗粒物(PM2.5),54,,86,38,57,89,,106,96,9,23,12,20,0.1,1
2024-02-14T0000,2247A,130.1097,47.3382,鹤岗市,五号水库,,42,42,60,24,36,86,,103,92,8,11,8,10,0.6,0.7
2024-02-14T0000,2263A,127.4833,50.2524,黑河市,交通局,,28,21,37,19,26,66,,73,66,7,8,8,8,0.2,0.4
2024-02-14T0000,2264A,127.5144,50.2341,黑河市,环保局,,26,,30,18,27,66,,71,70,10,12,4,7,0.2,0.3
2024-02-14T0000,2265A,127.5291,50.2472,黑河市,大黑河岛,,,25,46,19,30,58,,66,65,58,61,10,13,,
2024-02-14T0000,1074A,115.6838,37.7541,衡水市,电机北厂,细颗粒物(PM2.5),169,167,124,128,83,62,,117,98,26,9,7,7,1.0,0.8
2024-02-14T0000,1075A,115.6303,37.7316,衡水市,市监测站,细颗粒物(PM2.5),143,140,112,109,77,72,,111,96,28,16,10,9,1.0,0.9
2024-02-14T0000,3188A,115.6683,37.7217,衡水市,市城管局,细颗粒物(PM2.5),165,164,119,125,84,54,,107,90,35,14,11,12,0.8,0.7
2024-02-14T0000,3459A,115.5989,37.5491,衡水市,地表水厂,细颗粒物(PM2.5),140,137,118,107,81,56,,112,96,24,17,8,8,1.0,0.8
2024-02-14T0000,2456A,112.5003,26.9167,衡阳市,原169医院,,44,44,43,29,34,76,,90,78,8,11,17,22,0.7,0.9
2024-02-14T0000,2457A,112.6194,26.9258,衡阳市,衡阳化工总厂,细颗粒物(PM2.5),77,81,53,56,37,58,,80,70,17,11,11,11,0.5,0.4
2024-02-14T0000,2458A,112.6211,26.8956,衡阳市,珠晖区环保局,细颗粒物(PM2.5),57,56,54,40,39,63,,90,79,14,13,10,12,0.6,0.6
2024-02-14T0000,2459A,112.6197,26.8733,衡阳市,市委党校,,40,40,44,27,29,70,,93,79,11,10,9,12,0.6,0.6
2024-02-14T0000,2460A,112.6006,26.8919,衡阳市,市监测站,细颗粒物(PM2.5),85,80,58,63,43,41,,80,63,25,12,13,11,0.9,0.8
2024-02-14T0000,2461A,112.5664,26.9056,衡阳市,真空机电公司,颗粒物(PM10),57,64,47,36,32,49,,82,72,26,13,21,9,1.2,0.8
2024-02-14T0000,3399A,112.6703,26.882,衡阳市,师范学院,,39,39,38,27,27,66,,94,80,10,6,9,10,0.6,0.5
2024-02-14T0000,2608A,103.3772,23.3993,红河哈尼族彝族自治州,污水处理厂,,50,35,38,35,31,69,,90,81,6,5,8,8,0.6,0.5
2024-02-14T0000,2609A,103.3861,23.35,红河哈尼族彝族自治州,监测站,,50,37,38,35,34,73,,90,80,9,6,15,10,0.7,0.6
2024-02-14T0000,3038A,103.3758,23.368,红河哈尼族彝族自治州,州图书馆,,42,34,33,29,28,68,,84,75,6,5,6,6,0.5,0.6
2024-02-14T0000,1090A,111.6507,40.7517,呼和浩特市,呼市一监,颗粒物(PM10),51,51,73,15,44,73,,93,75,4,24,9,15,0.3,0.7
2024-02-14T0000,1091A,111.6572,40.8033,呼和浩特市,小召,颗粒物(PM10),53,56,86,14,50,68,,94,76,7,40,6,14,0.3,0.9
2024-02-14T0000,1094A,111.7516,40.8369,呼和浩特市,如意水处理厂,,26,26,71,14,44,68,,92,63,7,40,13,19,0.3,0.8
2024-02-14T0000,1095A,111.7276,40.8062,呼和浩特市,二十九中,颗粒物(PM10),97,143,84,39,43,54,,90,60,17,35,24,19,0.5,0.8
2024-02-14T0000,1096A,111.5512,40.7866,呼和浩特市,工大金川校区,颗粒物(PM10),52,54,73,14,35,67,,82,66,5,27,6,14,0.3,0.6
2024-02-14T0000,1097A,111.717,40.7612,呼和浩特市,化肥厂生活区,细颗粒物(PM2.5),110,132,90,83,52,20,,87,52,56,34,23,22,1.3,0.9
2024-02-14T0000,3698A,111.5968,40.8178,呼和浩特市,红旗小学,颗粒物(PM10),52,53,76,16,38,67,,85,70,10,42,9,16,0.4,0.8
2024-02-14T0000,3699A,111.6518,40.8389,呼和浩特市,海东办,颗粒物(PM10),54,58,77,16,43,62,,89,72,13,42,11,17,0.2,0.7
2024-02-14T0000,2192A,119.7594,49.2261,呼伦贝尔市,区环保局,,32,29,25,22,18,75,,84,77,8,8,4,4,0.3,0.3
2024-02-14T0000,3061A,119.7512,49.1577,呼伦贝尔市,国华电力东,,32,27,29,22,18,76,,84,76,5,5,4,4,0.2,0.2
2024-02-14T0000,1250A,120.0751,30.8669,湖州市,城西水厂,颗粒物(PM10),55,60,49,36,29,71,,93,86,16,12,7,4,0.4,0.4
2024-02-14T0000,2873A,120.0875,30.8955,湖州市,仁皇山新区,细颗粒物(PM2.5),54,50,48,38,32,67,,90,82,19,14,8,6,0.5,0.5
2024-02-14T0000,2907A,120.1844,30.8596,湖州市,吴兴区站,细颗粒物(PM2.5),80,96,48,59,29,71,,91,79,14,10,17,7,0.4,0.5
2024-02-14T0000,3562A,120.4148,30.8538,湖州市,南浔区站,,32,31,47,22,28,83,,102,89,4,6,7,7,0.5,0.5
2024-02-14T0000,1607A,120.9092,40.7136,葫芦岛市,龙港区,细颗粒物(PM2.5),123,102,132,93,93,46,,95,87,32,21,8,13,1.0,1
2024-02-14T0000,1608A,120.8392,40.7514,葫芦岛市,化工街,细颗粒物(PM2.5),144,151,157,110,104,17,,81,61,54,22,11,13,2.0,1.8
2024-02-14T0000,1609A,120.8341,40.7073,葫芦岛市,新区,细颗粒物(PM2.5),140,127,126,107,95,33,,82,71,59,29,12,15,1.2,1.1
2024-02-14T0000,1610A,120.8695,40.7677,葫芦岛市,东城区,细颗粒物(PM2.5),142,125,151,108,113,50,,78,61,39,40,16,21,1.2,1.6
2024-02-14T0000,2482A,109.5981,27.5721,怀化市,林科所,,23,23,43,14,31,70,,96,75,4,4,3,3,0.4,0.2
2024-02-14T0000,2483A,109.9453,27.5444,怀化市,河西地税局,,29,22,48,20,39,52,,91,68,7,5,3,4,0.5,0.5
2024-02-14T0000,2484A,109.9781,27.5342,怀化市,市四医院,,45,35,58,31,43,62,,91,73,6,6,6,6,0.8,0.7
2024-02-14T0000,2485A,109.9972,27.5578,怀化市,监测楼,,43,30,76,30,67,48,,76,61,5,6,6,6,0.7,0.7
2024-02-14T0000,2486A,110.0394,27.583,怀化市,市委党校,细颗粒物(PM2.5),57,43,66,40,54,48,,80,64,5,6,7,7,0.5,0.5
2024-02-14T0000,1210A,119.036,33.5981,淮安市,钵池山,细颗粒物(PM2.5),62,58,55,44,41,48,,86,64,28,19,10,9,0.6,0.5
2024-02-14T0000,1211A,119.007,33.575,淮安市,北京南路,细颗粒物(PM2.5),59,58,56,42,41,51,,93,68,24,18,9,9,0.8,0.7
2024-02-14T0000,1212A,118.989,33.6067,淮安市,市监测站,细颗粒物(PM2.5),55,51,58,39,40,61,,93,71,21,18,9,10,0.7,0.7
2024-02-14T0000,1213A,119.135,33.5039,淮安市,楚州区监测站,细颗粒物(PM2.5),73,76,76,53,53,34,,93,51,40,28,9,8,0.8,0.6
2024-02-14T0000,1214A,119.0186,33.6297,淮安市,淮阴区监测站,细颗粒物(PM2.5),62,66,67,44,45,58,,90,71,28,22,8,8,0.5,0.5
2024-02-14T0000,3426A,118.8755,33.2894,淮安市,新华书店,细颗粒物(PM2.5),67,61,57,48,41,50,,84,57,26,21,8,7,0.5,0.5
2024-02-14T0000,2282A,116.8004,33.975,淮北市,监测站,"颗粒物(PM10),细颗粒物(PM2.5)",73,96,78,53,47,54,,92,69,23,19,11,9,1.1,0.7
2024-02-14T0000,2283A,116.8091,33.9007,淮北市,烈山区政府,细颗粒物(PM2.5),70,78,72,51,44,57,,101,81,23,19,14,9,0.4,0.4
2024-02-14T0000,3330A,116.8873,33.9836,淮北市,杜集区检察院,颗粒物(PM10),61,71,66,41,38,80,,104,92,16,16,13,12,0.6,0.5
2024-02-14T0000,4017A,116.7923,33.9535,淮北市,市博物馆,细颗粒物(PM2.5),82,93,77,60,50,49,,94,74,32,22,13,10,0.6,0.7
2024-02-14T0000,2277A,116.8305,32.7727,淮南市,潘集区政府,细颗粒物(PM2.5),70,65,67,51,42,70,,85,65,10,11,4,4,0.4,0.4
2024-02-14T0000,2278A,117.0067,32.6524,淮南市,师范学院,细颗粒物(PM2.5),58,58,54,41,31,73,,80,74,12,13,8,7,0.3,0.3
2024-02-14T0000,2279A,116.8569,32.5951,淮南市,谢家集区政府,细颗粒物(PM2.5),52,49,48,36,30,74,,92,75,16,13,5,5,0.4,0.4
2024-02-14T0000,2280A,116.8281,32.633,淮南市,八公山区政府,,48,48,49,31,29,83,,90,84,8,8,2,3,0.4,0.4
2024-02-14T0000,2281A,116.6325,32.6201,淮南市,焦岗湖风景区管理处,颗粒物(PM10),55,59,48,33,25,63,,74,67,12,9,3,3,0.1,0.1
2024-02-14T0000,2894A,117.0566,32.6531,淮南市,经济技术开发区消防队,细颗粒物(PM2.5),75,73,57,55,32,57,,85,72,11,6,6,5,0.4,0.4
2024-02-14T0000,3329A,117.0108,32.5893,淮南市,山南新区,细颗粒物(PM2.5),94,74,58,70,40,76,,89,82,13,10,6,5,0.5,0.4
2024-02-14T0000,2446A,114.9028,30.4742,黄冈市,职工中心,,41,41,45,28,29,72,,96,83,6,6,11,12,0.5,0.5
2024-02-14T0000,2929A,114.8858,30.4519,黄冈市,红卫路,,41,41,42,28,29,67,,88,75,2,5,7,9,0.5,0.6
2024-02-14T0000,3398A,114.9136,30.4445,黄冈市,市林业局,,39,35,40,27,29,72,,96,82,2,7,7,7,0.3,0.4
2024-02-14T0000,2672A,102.0199,35.5102,黄南藏族自治州,同仁县隆务镇,,22,22,28,13,12,50,,72,59,2,2,20,21,1.0,1
2024-02-14T0000,2295A,118.2903,29.6963,黄山市,延安路89号,,43,43,40,11,21,45,,82,68,5,5,6,6,0.3,0.3
2024-02-14T0000,2296A,118.327,29.7178,黄山市,黄山东路89号,,34,34,47,19,26,40,,81,69,10,11,6,5,0.6,0.7
2024-02-14T0000,2297A,118.1371,30.2756,黄山市,黄山区政府5号楼,细颗粒物(PM2.5),55,58,45,39,30,44,,79,65,9,8,5,4,0.6,0.6
2024-02-14T0000,2423A,115.0601,30.2313,黄石市,沈家营,颗粒物(PM10),54,58,49,29,32,48,,86,65,35,27,4,15,1.0,1.1
2024-02-14T0000,2424A,115.0817,30.2006,黄石市,陈家湾,细颗粒物(PM2.5),63,55,49,45,39,38,,90,66,35,24,17,16,1.2,0.8
2024-02-14T0000,2426A,114.8988,30.2019,黄石市,铁山,颗粒物(PM10),51,51,48,21,27,64,,100,70,22,18,13,11,0.6,0.7
2024-02-14T0000,2427A,115.0307,30.2092,黄石市,团城山,颗粒物(PM10),60,69,57,27,27,51,,96,71,25,20,14,17,0.9,1
2024-02-14T0000,3149A,115.0235,30.1578,黄石市,笔架山北路,颗粒物(PM10),57,64,40,22,22,70,,101,79,16,17,12,14,0.7,0.7
2024-02-14T0000,1392A,114.4183,23.0528,惠州市,河南岸金山湖子站,细颗粒物(PM2.5),68,68,49,49,34,48,,100,82,13,7,4,5,0.6,0.5
2024-02-14T0000,1393A,114.4053,23.0822,惠州市,下埔横江三路子站,"颗粒物(PM10),细颗粒物(PM2.5)",60,70,58,43,37,69,,106,87,18,13,5,5,0.6,0.6
2024-02-14T0000,1394A,114.4103,23.1142,惠州市,江北云山西路子站,"颗粒物(PM10),细颗粒物(PM2.5)",53,55,56,37,37,90,,111,95,4,7,9,9,0.5,0.5
2024-02-14T0000,1395A,114.4645,22.7833,惠州市,惠阳区承修路船湖子站,颗粒物(PM10),51,51,45,30,27,87,,107,98,13,11,8,8,0.7,0.6
2024-02-14T0000,1396A,114.5317,22.7422,惠州市,大亚湾管委会子站,,45,45,44,26,25,96,,111,106,11,13,6,6,0.5,0.4
2024-02-14T0000,3314A,114.4338,22.8134,惠州市,惠阳秋长,颗粒物(PM10),53,56,41,33,26,87,,115,104,11,6,7,7,0.5,0.4
2024-02-14T0000,3452A,114.6517,22.775,惠州市,大亚湾霞涌,细颗粒物(PM2.5),58,52,45,41,30,79,,111,89,9,9,7,8,0.4,0.5
2024-02-14T0000,2240A,130.9762,45.3001,鸡西市,环保局,颗粒物(PM10),61,72,77,34,43,75,,93,86,6,8,6,10,0.4,0.4
2024-02-14T0000,2243A,130.9429,45.3039,鸡西市,第一中学,颗粒物(PM10),59,67,75,28,43,82,,109,96,6,8,8,10,0.3,0.4
2024-02-14T0000,3707A,131.0207,45.3073,鸡西市,欧美日汽修厂,颗粒物(PM10),60,70,80,29,51,74,,91,82,10,12,3,11,0.2,0.7
2024-02-14T0000,3709A,130.9967,45.3106,鸡西市,市政设施管理处,颗粒物(PM10),62,74,75,32,49,79,,109,96,13,16,4,6,0.6,0.8
2024-02-14T0000,2367A,114.9754,27.0803,吉安市,红声器材厂,细颗粒物(PM2.5),97,106,56,72,33,23,,65,44,32,15,13,11,1.1,0.8
2024-02-14T0000,2368A,114.9658,27.0999,吉安市,市森林工业局,细颗粒物(PM2.5),80,73,51,59,37,30,,58,48,22,14,15,8,0.4,0.3
2024-02-14T0000,2369A,114.99,27.1312,吉安市,市环境监测站,细颗粒物(PM2.5),62,69,57,44,37,36,,62,49,20,15,7,7,0.5,0.5
2024-02-14T0000,2370A,115.0093,27.0968,吉安市,青原区法院,细颗粒物(PM2.5),89,92,56,66,36,24,,73,41,29,20,10,9,0.8,0.6
2024-02-14T0000,1772A,126.54,43.8622,吉林市,哈达湾,颗粒物(PM10),68,85,90,23,56,67,,115,90,7,9,2,6,0.6,0.8
2024-02-14T0000,1773A,126.5844,43.8358,吉林市,东局子,颗粒物(PM10),81,112,96,47,60,39,,109,77,32,15,10,13,0.7,1
2024-02-14T0000,1774A,126.5052,43.8245,吉林市,电力学院,颗粒物(PM10),62,74,86,30,58,65,,115,91,8,9,6,11,0.6,0.8
2024-02-14T0000,1775A,126.6133,43.8972,吉林市,江北,颗粒物(PM10),80,109,103,46,62,48,,106,76,15,13,11,18,0.9,0.9
2024-02-14T0000,1776A,126.555,43.8306,吉林市,江南公园,颗粒物(PM10),66,82,94,30,65,59,,115,86,17,10,6,8,0.5,0.7
2024-02-14T0000,1778A,126.7061,43.7133,吉林市,丰满,,,,,,,,,,,,,,,,
2024-02-14T0000,2868A,126.4739,43.953,吉林市,九站,颗粒物(PM10),66,82,93,30,60,63,,121,84,13,12,8,14,0.6,0.9
2024-02-14T0000,1299A,116.9862,36.6114,济南市,科干所,细颗粒物(PM2.5),55,56,57,39,36,102,,116,108,8,6,10,10,0.8,0.8
2024-02-14T0000,1300A,116.9376,36.665,济南市,农科所,颗粒物(PM10),57,63,63,39,34,87,,111,88,17,16,11,10,0.7,0.7
2024-02-14T0000,1301A,117.1265,36.6734,济南市,开发区,,46,44,51,32,30,99,,103,95,6,9,8,8,0.7,0.8
2024-02-14T0000,1303A,117.0624,36.6868,济南市,省种子仓库,颗粒物(PM10),92,134,68,61,34,37,,118,75,55,14,12,8,1.2,0.8
2024-02-14T0000,1304A,116.9489,36.6447,济南市,机床二厂,颗粒物(PM10),58,66,65,37,34,97,,120,99,13,12,16,15,1.0,0.9
2024-02-14T0000,1305A,117.0495,36.663,济南市,市监测站,颗粒物(PM10),56,61,56,37,36,101,,118,97,15,16,16,15,0.7,0.6
2024-02-14T0000,1306A,116.7675,36.5484,济南市,长清党校,颗粒物(PM10),59,68,73,39,45,101,,125,116,19,15,11,11,0.8,0.8
2024-02-14T0000,1616A,117.6795,36.229,济南市,技术学院,细颗粒物(PM2.5),85,90,78,63,47,76,,112,86,38,31,14,15,1.1,1.1
2024-02-14T0000,1961A,117.532,36.6868,济南市,东山小学,细颗粒物(PM2.5),59,61,65,42,38,102,,120,102,13,14,12,10,0.4,0.5
2024-02-14T0000,3059A,117.7161,36.2049,济南市,泰兴公司,细颗粒物(PM2.5),98,112,78,73,52,30,,109,69,40,26,12,15,1.3,1.2
2024-02-14T0000,3064A,117.6867,36.2171,济南市,莱芜战役纪念馆,颗粒物(PM10),130,210,92,73,46,47,,104,78,42,25,14,14,1.1,1
2024-02-14T0000,3494A,117.1673,36.9782,济南市,济阳区政府,细颗粒物(PM2.5),85,98,74,63,40,76,,118,99,25,16,18,12,0.7,0.5
2024-02-14T0000,3495A,117.1171,36.63,济南市,锦屏中学,,49,49,51,32,31,105,,116,98,9,9,9,9,0.5,0.5
2024-02-14T0000,3682A,116.9814,36.6819,济南市,济南四建,,,58,56,42,41,,,110,,25,22,15,14,0.8,0.8
2024-02-14T0000,1653A,116.6251,35.4302,济宁市,火炬城,细颗粒物(PM2.5),77,80,78,56,46,65,,103,86,16,13,12,8,0.9,0.8
2024-02-14T0000,1655A,116.5491,35.4042,济宁市,电化厂,颗粒物(PM10),66,81,82,44,42,74,,110,94,18,13,10,8,0.7,0.7
2024-02-14T0000,3500A,116.5814,35.3707,济宁市,北湖一中,细颗粒物(PM2.5),73,80,80,53,47,65,,104,89,18,12,14,10,0.6,0.6
2024-02-14T0000,3501A,116.8249,35.5593,济宁市,服务中心,颗粒物(PM10),80,109,89,58,44,63,,105,80,21,16,8,7,0.7,0.8
2024-02-14T0000,3678A,116.5907,35.4054,济宁市,市第七中学,细颗粒物(PM2.5),62,72,85,44,44,64,,106,86,23,15,10,7,0.8,0.8
2024-02-14T0000,2255A,130.2751,46.8028,佳木斯市,佳纺,,34,34,80,22,54,76,,113,87,12,12,1,6,0.5,0.8
2024-02-14T0000,2256A,130.3995,46.8307,佳木斯市,发电厂,,29,28,74,20,50,83,,112,90,8,14,3,7,0.4,0.7
2024-02-14T0000,2257A,130.3258,46.7975,佳木斯市,环保局,,35,35,76,20,55,68,,111,84,18,11,6,9,0.5,0.7
2024-02-14T0000,2258A,130.3648,46.8032,佳木斯市,十一中,,36,36,79,19,56,75,,110,81,11,11,6,10,0.4,0.7
2024-02-14T0000,2259A,130.3794,46.7588,佳木斯市,四丰,,,33,70,20,44,85,,120,,,,1,1,,0.3
2024-02-14T0000,1252A,120.7436,30.778,嘉兴市,清河小学,,25,25,48,14,23,75,,94,71,6,8,5,6,0.3,0.5
2024-02-14T0000,1253A,120.726,30.7478,嘉兴市,嘉兴学院,,29,29,49,14,25,73,,100,77,10,9,5,5,0.5,0.6
2024-02-14T0000,2872A,120.7846,30.7525,嘉兴市,南湖区残联,,30,30,56,12,26,89,,107,87,4,5,6,6,0.3,0.5
2024-02-14T0000,3407A,120.6916,30.7739,嘉兴市,秀洲住建,,25,25,47,15,26,72,,93,75,10,11,6,6,0.4,0.5
2024-02-14T0000,1945A,98.2908,39.7711,嘉峪关市,气象局,颗粒物(PM10),51,51,74,14,23,83,,84,82,5,23,3,38,0.3,1.1
2024-02-14T0000,2884A,98.2672,39.7978,嘉峪关市,酒钢宾馆,颗粒物(PM10),53,56,70,12,22,84,,84,80,5,16,9,42,0.2,0.8
2024-02-14T0000,3248A,98.2643,39.7724,嘉峪关市,雄关区,颗粒物(PM10),53,55,62,23,25,83,,82,81,4,25,5,31,0,0.7
2024-02-14T0000,1383A,113.1064,22.6058,江门市,北街,,48,38,44,33,30,74,,110,90,13,15,7,7,0.3,0.3
2024-02-14T0000,1384A,113.0731,22.5835,江门市,西区,细颗粒物(PM2.5),62,57,54,44,37,84,,110,95,13,16,5,7,0.5,0.4
2024-02-14T0000,1385A,113.0219,22.5311,江门市,圭峰西,细颗粒物(PM2.5),53,42,44,37,28,93,,116,99,12,13,6,6,0.5,0.5
2024-02-14T0000,1386A,113.0828,22.5947,江门市,东湖,颗粒物(PM10),53,56,52,35,40,88,,108,94,11,14,6,7,0.5,0.5
2024-02-14T0000,3311A,113.1075,22.5647,江门市,江海富民,"颗粒物(PM10),细颗粒物(PM2.5)",54,57,56,38,24,89,,115,97,12,13,6,7,0.4,0.4
2024-02-14T0000,3449A,113.05,22.4667,江门市,新会银湖,细颗粒物(PM2.5),59,,46,42,31,80,,116,95,12,14,6,5,0.6,0.5
2024-02-14T0000,1828A,113.227,35.2125,焦作市,市环保局,细颗粒物(PM2.5),130,124,119,99,88,82,,108,95,21,20,10,13,1.1,1.2
2024-02-14T0000,1830A,113.1992,35.2590,焦作市,影视城,,,,,,,,,,,,,,,,
2024-02-14T0000,3169A,113.2725,35.2067,焦作市,太极体育中心,细颗粒物(PM2.5),127,135,125,96,88,89,,118,109,24,24,13,14,0.9,1.1
2024-02-14T0000,3335A,113.3137,35.2641,焦作市,马村街道办,细颗粒物(PM2.5),109,97,108,82,79,99,,117,106,11,18,12,16,0.5,0.7
2024-02-14T0000,3336A,113.2465,35.2373,焦作市,焦作技师学院,细颗粒物(PM2.5),100,111,102,75,71,83,,107,95,17,23,16,19,1.0,1.2
2024-02-14T0000,3477A,113.1656,35.2539,焦作市,中站许衡医院,细颗粒物(PM2.5),84,85,97,62,64,102,,120,114,14,15,12,14,0.6,0.9
2024-02-14T0000,3981A,113.2449,35.1803,焦作市,原李万街道办,细颗粒物(PM2.5),117,146,120,88,78,100,,116,111,23,25,17,18,0.9,1.2
2024-02-14T0000,1708A,116.3701,23.5345,揭阳市,新兴,细颗粒物(PM2.5),113,107,66,85,50,80,,116,94,18,11,10,9,1.0,0.9
2024-02-14T0000,1709A,116.3264,23.5443,揭阳市,西马,细颗粒物(PM2.5),137,110,66,104,50,68,,116,94,22,10,11,9,1.0,0.7
2024-02-14T0000,1710A,116.3611,23.5626,揭阳市,东兴,细颗粒物(PM2.5),97,110,66,72,45,80,,116,94,16,10,9,9,0.8,0.8
2024-02-14T0000,1711A,116.4151,23.5294,揭阳市,渔湖,颗粒物(PM10),79,107,66,56,44,81,,117,94,15,10,10,9,0.7,0.8
2024-02-14T0000,3320A,116.403,23.5699,揭阳市,曲溪,细颗粒物(PM2.5),102,108,68,76,46,93,,118,97,12,11,4,4,0.7,0.7
2024-02-14T0000,1944A,102.1692,38.5167,金昌市,天庆家园,,40,40,52,6,13,89,,92,91,7,13,6,8,0.4,0.5
2024-02-14T0000,3170A,102.1864,38.5253,金昌市,市委党校,,42,42,60,10,22,88,,91,90,1,10,4,6,0.6,0.5
2024-02-14T0000,4022A,102.1647,38.5371,金昌市,金川区人防中心,,38,38,47,11,11,86,,92,91,4,6,6,6,0.5,0.5
2024-02-14T0000,1262A,119.647,29.077,金华市,十五中,细颗粒物(PM2.5),78,87,58,57,34,30,,89,53,26,13,4,4,0.8,0.6
2024-02-14T0000,1263A,119.686,29.1029,金华市,监测站,细颗粒物(PM2.5),79,84,59,58,32,25,,91,56,30,13,3,3,0.8,0.5
2024-02-14T0000,3659A,119.656,29.1131,金华市,气象局,细颗粒物(PM2.5),74,75,55,54,35,30,,90,48,19,12,3,3,0.9,0.7
2024-02-14T0000,1767A,121.1115,41.0879,锦州市,南山,细颗粒物(PM2.5),186,,154,140,123,46,,101,78,41,31,21,44,1.2,1.1
2024-02-14T0000,1768A,121.0533,40.8434,锦州市,开发区,细颗粒物(PM2.5),144,130,144,110,99,46,,78,62,38,34,10,18,1.3,1.2
2024-02-14T0000,1769A,121.1836,41.1119,锦州市,百股街道,细颗粒物(PM2.5),230,204,146,180,116,45,,87,64,33,23,21,31,1.5,1.2
2024-02-14T0000,1770A,121.1178,41.1222,锦州市,天安街道,细颗粒物(PM2.5),172,137,164,130,125,50,,83,58,32,37,20,34,1.3,1.4
2024-02-14T0000,1771A,121.1303,41.1386,锦州市,北湖公园,细颗粒物(PM2.5),166,,136,126,121,52,,79,57,28,35,18,33,1.3,1.4
2024-02-14T0000,2160A,112.85,35.5051,晋城市,自来水公司,细颗粒物(PM2.5),163,235,113,124,70,36,,116,84,58,30,26,18,1.3,1.7
2024-02-14T0000,2161A,112.8318,35.4936,晋城市,白云商贸,颗粒物(PM10),112,174,107,,54,49,,108,79,33,25,8,16,1.1,1.3
2024-02-14T0000,2162A,112.8508,35.4887,晋城市,市环保局,细颗粒物(PM2.5),206,271,126,156,68,12,,111,75,74,34,11,17,1.5,1.6
2024-02-14T0000,2163A,112.8676,35.4897,晋城市,技术学院,细颗粒物(PM2.5),140,186,118,107,66,38,,111,79,53,36,9,17,1.1,1.7
2024-02-14T0000,2165A,112.8453,35.546,晋城市,白马寺,,,,,,,,,,,,,,,,
2024-02-14T0000,3620A,112.8271,35.4828,晋城市,泽州一中,细颗粒物(PM2.5),122,146,101,92,57,61,,112,100,32,23,13,21,1.4,1.5
2024-02-14T0000,2171A,112.7532,37.6945,晋中市,锦纶小区,细颗粒物(PM2.5),62,70,79,44,42,50,,114,77,26,21,16,17,0.6,0.6
2024-02-14T0000,2173A,112.7249,37.7067,晋中市,南都小区,细颗粒物(PM2.5),173,200,97,131,55,23,,112,58,59,35,19,18,0.9,0.8
2024-02-14T0000,2174A,112.6991,37.6982,晋中市,榆次区政府,细颗粒物(PM2.5),125,156,89,95,51,13,,114,60,69,33,21,20,0.9,0.9
2024-02-14T0000,2865A,112.7195,37.6828,晋中市,榆次三中,颗粒物(PM10),71,92,83,48,41,39,,116,73,35,25,16,17,0.8,0.8
2024-02-14T0000,2439A,112.2014,31.0481,荆门市,竹园小学,细颗粒物(PM2.5),60,65,83,43,54,78,,102,83,15,22,11,11,0.6,0.8
2024-02-14T0000,2440A,112.1969,30.9891,荆门市,掇刀,细颗粒物(PM2.5),67,63,79,48,55,83,,104,89,13,22,12,13,0.6,0.7
2024-02-14T0000,2441A,112.2213,31.0386,荆门市,石化一小,细颗粒物(PM2.5),68,58,81,49,56,82,,104,98,16,17,16,16,0.6,0.8
2024-02-14T0000,3012A,112.1849,31.0362,荆门市,西山林语,细颗粒物(PM2.5),55,55,83,39,49,85,,102,87,18,17,16,21,0.5,0.7
2024-02-14T0000,3547A,112.1632,31.0138,荆门市,龙泉中学南校,"颗粒物(PM10),细颗粒物(PM2.5)",54,58,75,38,55,84,,107,98,18,20,12,10,0.4,0.6
2024-02-14T0000,1844A,112.2494,30.3197,荆州市,市图书馆,"颗粒物(PM10),细颗粒物(PM2.5)",54,58,61,38,51,57,,92,80,21,17,8,8,0.9,0.9
2024-02-14T0000,1845A,112.2008,30.3544,荆州市,市委党校,细颗粒物(PM2.5),63,58,61,45,53,66,,100,89,25,21,5,6,0.6,0.6
2024-02-14T0000,3194A,112.2747,30.3122,荆州市,管委会,细颗粒物(PM2.5),57,56,56,40,49,63,,100,88,18,14,10,10,0.6,0.7
2024-02-14T0000,3548A,112.1655,30.3364,荆州市,学苑路,颗粒物(PM10),61,71,57,40,49,53,,89,76,21,17,6,7,1.0,1
2024-02-14T0000,2342A,117.3102,29.3867,景德镇市,王港中学,,22,16,27,14,21,69,,78,57,2,3,3,3,0.3,0.1
2024-02-14T0000,2343A,117.2117,29.2933,景德镇市,老干部活动中心,,30,,30,21,19,48,,66,47,5,7,6,6,0.1,0.2
2024-02-14T0000,2344A,117.1894,29.2789,景德镇市,兽医站,,38,38,33,16,20,59,,77,56,5,7,4,5,0.3,0.3
2024-02-14T0000,2345A,117.1547,29.2617,景德镇市,台达陶瓷,,22,22,32,12,19,54,,76,54,7,8,3,4,0.3,0.4
2024-02-14T0000,2346A,117.2461,29.2956,景德镇市,陶研所,,20,20,26,14,14,53,,72,53,5,7,3,4,0.2,0.4
2024-02-14T0000,1803A,115.9872,29.6815,九江市,十里,,48,,39,33,30,59,,90,73,19,20,10,10,0.7,0.6
2024-02-14T0000,1804A,115.9584,29.7046,九江市,茅山头,颗粒物(PM10),52,53,60,32,48,44,,85,69,38,38,11,12,0.7,0.8
2024-02-14T0000,1805A,115.9877,29.7295,九江市,西园,,48,48,62,29,44,42,,77,65,43,38,7,8,0.5,0.5
2024-02-14T0000,1806A,116.0172,29.6547,九江市,五七二七厂,,35,24,30,24,24,32,,75,55,14,12,7,8,0.6,0.6
2024-02-14T0000,1808A,115.9114,29.6038,九江市,综合工业园,,36,,33,25,27,62,,99,85,18,14,12,12,0.5,0.4
2024-02-14T0000,1809A,116.0721,29.7535,九江市,石化总厂,,38,37,36,26,22,74,,96,87,13,11,9,11,0.6,0.5
2024-02-14T0000,1810A,115.9773,29.5698,九江市,庐山气象台,,28,26,20,16,17,88,,95,93,4,3,7,6,1.8,1.3
2024-02-14T0000,3190A,116.0254,29.6994,九江市,外国语学校,,43,36,43,30,30,58,,71,65,20,24,8,9,0.6,0.6
2024-02-14T0000,2658A,98.5061,39.7443,酒泉市,仓门街子站,颗粒物(PM10),57,63,64,21,28,76,,88,83,8,7,4,4,0.2,0.3
2024-02-14T0000,2659A,98.4989,39.7256,酒泉市,油田生活基地,颗粒物(PM10),63,75,65,23,26,81,,91,86,6,6,6,6,0.3,0.3
2024-02-14T0000,2698A,76.0072,39.4467,喀什地区,巡警大队,颗粒物(PM10),107,163,85,29,21,77,,94,81,21,37,6,7,0.8,1.3
2024-02-14T0000,2699A,75.9755,39.4694,喀什地区,吾办,颗粒物(PM10),110,169,108,50,36,69,,82,68,24,46,4,5,0.8,1.4
2024-02-14T0000,4027A,75.9483,39.4689,喀什地区,老干局,颗粒物(PM10),117,183,103,32,25,78,,91,79,21,32,8,7,0.9,1.4
2024-02-14T0000,1824A,114.3389,34.7781,开封市,肿瘤医院,细颗粒物(PM2.5),132,148,97,100,64,52,,102,80,38,16,2,2,0.8,0.7
2024-02-14T0000,1826A,114.2885,34.7965,开封市,世纪星幼儿园,细颗粒物(PM2.5),237,329,116,187,83,42,,107,76,44,14,12,7,0.8,0.6
2024-02-14T0000,3147A,114.3438,34.8106,开封市,龙亭公园,细颗粒物(PM2.5),257,305,120,207,76,17,,100,59,69,23,8,6,1.5,1
2024-02-14T0000,3210A,114.3644,34.7964,开封市,汴京公园,细颗粒物(PM2.5),341,377,132,291,87,2,,101,50,76,27,7,4,1.5,0.8
2024-02-14T0000,3473A,114.2485,34.8306,开封市,技师学院,细颗粒物(PM2.5),176,216,98,133,68,58,,109,94,31,9,7,4,0.9,0.8
2024-02-14T0000,3592A,114.4644,34.7556,开封市,祥符区生态环境局,细颗粒物(PM2.5),109,128,98,82,63,47,,103,74,37,18,7,5,0.6,0.5
2024-02-14T0000,1951A,84.895,45.6094,克拉玛依市,长征新村,,25,20,31,14,15,78,,83,76,11,14,8,8,0.3,0.3
2024-02-14T0000,1952A,84.8988,45.5893,克拉玛依市,南林小区,,32,25,31,22,27,79,,79,77,13,14,4,4,0.3,0.4
2024-02-14T0000,1954A,84.905,44.3396,克拉玛依市,独山子区,细颗粒物(PM2.5),75,71,32,55,24,82,,84,81,15,25,5,6,0.5,0.5
2024-02-14T0000,1955A,85.6979,46.098,克拉玛依市,乌尔禾区商贸楼,,46,,25,32,13,63,,78,75,24,22,3,4,0.3,0.4
2024-02-14T0000,3612A,85.1045,45.6899,克拉玛依市,白碱滩区新站,,35,35,27,13,12,76,,81,80,12,9,9,9,0.2,0.2
2024-02-14T0000,2697A,76.1454,39.7142,克孜勒苏柯尔克孜自治州,市人民政府,颗粒物(PM10),122,194,46,36,11,95,,95,87,7,4,6,4,0.7,1.1
2024-02-14T0000,3665A,76.1658,39.7157,克孜勒苏柯尔克孜自治州,克州文化中心,颗粒物(PM10),135,219,48,42,10,82,,98,87,21,5,6,5,0.7,0.3
2024-02-14T0000,1450A,102.8204,24.8886,昆明市,呈贡新区,,25,18,26,17,21,78,,94,83,4,6,5,5,0.6,0.7
2024-02-14T0000,1451A,102.6251,24.9608,昆明市,西山森林公园,,27,19,24,18,18,86,,98,92,5,6,7,7,0.8,0.9
2024-02-14T0000,1452A,102.7252,25.0902,昆明市,龙泉镇,,44,44,27,24,19,40,,96,76,30,12,12,12,0.5,0.5
2024-02-14T0000,1453A,102.7266,25.0375,昆明市,东风东路,,29,28,27,20,24,63,,91,79,16,12,8,9,0.5,0.6
2024-02-14T0000,1454A,102.6742,25.0669,昆明市,金鼎山,,28,25,30,19,20,84,,96,89,7,11,10,7,0.6,0.6
2024-02-14T0000,1455A,102.6644,25.0401,昆明市,碧鸡广场,,29,23,27,20,22,77,,94,85,7,9,10,10,0.6,0.7
2024-02-14T0000,3179A,102.7494,25.0119,昆明市,官渡区博物馆,,33,33,30,17,22,67,,90,78,6,11,9,8,0.8,0.6
2024-02-14T0000,3375A,102.8017,24.8336,昆明市,青年创业园,,24,21,25,15,20,75,,94,84,6,6,9,10,0.6,0.7
2024-02-14T0000,3550A,102.7997,24.9786,昆明市,昆明学院,,24,24,28,14,20,72,,91,80,4,5,8,8,0.5,0.7
2024-02-14T0000,3551A,102.5967,24.6736,昆明市,晋宁区生态环境分局,,25,17,36,14,23,77,,94,84,8,9,3,4,0.5,0.7
2024-02-14T0000,3552A,102.6678,24.9856,昆明市,云天化总部,,26,24,26,18,20,76,,95,86,5,7,8,7,0.7,0.8
2024-02-14T0000,1456A,91.1319,29.6514,拉萨市,八廓街,,20,19,14,11,8,63,,93,88,28,14,7,6,0.5,0.3
2024-02-14T0000,1457A,91.1221,29.6747,拉萨市,市环保局,,25,23,17,17,10,78,,98,92,13,12,7,6,0.7,0.6
2024-02-14T0000,1458A,91.0874,29.6475,拉萨市,区监测站,,25,14,14,7,7,79,,96,94,12,10,4,4,0.5,0.5
2024-02-14T0000,1459A,91.1774,29.6541,拉萨市,西藏大学,,26,26,13,18,8,65,,96,90,30,8,6,4,0.9,0.4
2024-02-14T0000,1460A,90.9798,29.6588,拉萨市,区辐射站,,24,22,15,13,9,75,,92,88,15,11,5,5,0.5,0.4
2024-02-14T0000,1461A,91.0834,29.6292,拉萨市,拉萨火车站,,28,12,12,6,7,87,,99,98,6,14,4,4,0.3,0.4
2024-02-14T0000,2520A,109.2203,23.7256,来宾市,来宾技工学校,细颗粒物(PM2.5),189,192,98,142,80,11,,62,44,37,17,7,10,1.6,0.9
2024-02-14T0000,3535A,109.1781,23.7297,来宾市,兴宾区政府,细颗粒物(PM2.5),145,125,84,111,63,33,,74,53,22,15,9,9,1.1,0.9
2024-02-14T0000,4002A,109.2416,23.7461,来宾市,中南小学,细颗粒物(PM2.5),229,239,123,179,94,3,,48,28,34,29,6,7,2.2,1.3
2024-02-14T0000,1476A,103.631,36.1031,兰州市,兰炼宾馆,颗粒物(PM10),90,129,80,33,44,83,,90,80,10,33,5,27,0.3,0.9
2024-02-14T0000,1477A,104.1373,35.9454,兰州市,榆中兰大校区,,,,,,,,,,,,,,,,
2024-02-14T0000,1478A,103.8412,36.0726,兰州市,生物制品所,颗粒物(PM10),82,114,86,38,52,84,,82,82,9,42,6,21,0.3,1.1
2024-02-14T0000,1479A,103.831,36.0464,兰州市,铁路设计院,颗粒物(PM10),79,108,86,39,51,75,,75,75,18,51,10,26,0.4,1.4
2024-02-14T0000,3186A,103.7158,36.1058,兰州市,教育港,颗粒物(PM10),87,123,79,37,46,77,,78,76,14,39,7,23,0.3,1.1
2024-02-14T0000,3241A,103.7439,36.0842,兰州市,百合公园,颗粒物(PM10),75,99,73,31,42,84,,74,74,8,40,4,16,0.5,1.3
2024-02-14T0000,3242A,103.9611,35.998,兰州市,和平,颗粒物(PM10),119,188,85,33,46,87,,87,87,8,28,10,27,0.4,1.3
2024-02-14T0000,3245A,103.6633,36.533,兰州新区,新区管委会,颗粒物(PM10),55,59,57,30,28,84,,89,87,6,11,5,14,0.3,0.6
2024-02-14T0000,3246A,103.6975,36.4789,兰州新区,舟曲中学,颗粒物(PM10),86,122,63,20,25,82,,89,88,5,14,6,14,0.4,0.6
2024-02-14T0000,1067A,116.6708,39.5111,廊坊市,药材公司,细颗粒物(PM2.5),255,302,252,205,165,38,,118,80,72,52,4,6,1.6,1.4
2024-02-14T0000,1068A,116.7214,39.5589,廊坊市,开发区,细颗粒物(PM2.5),241,239,217,191,167,44,,122,94,59,38,3,6,1.4,1.2
2024-02-14T0000,1070A,116.7244,39.5269,廊坊市,北华航天学院,细颗粒物(PM2.5),272,330,243,222,165,4,,125,67,102,44,5,6,1.9,1.3
2024-02-14T0000,2919A,116.7022,39.5453,廊坊市,河北工业大学,细颗粒物(PM2.5),282,312,238,232,177,17,,118,67,91,46,6,7,1.7,1.3
2024-02-14T0000,2535A,103.7723,29.5462,乐山市,花湖湾,细颗粒物(PM2.5),145,166,110,111,90,47,,108,90,45,23,8,37,0.8,0.8
2024-02-14T0000,2536A,103.7627,29.5844,乐山市,牛耳桥,细颗粒物(PM2.5),134,122,97,102,83,3,,89,42,59,36,6,6,1.4,1.1
2024-02-14T0000,2537A,103.7508,29.6006,乐山市,市第三水厂,细颗粒物(PM2.5),132,118,98,100,79,8,,89,44,64,39,4,5,1.2,1.1
2024-02-14T0000,2538A,103.7571,29.5664,乐山市,市监测站,细颗粒物(PM2.5),97,105,95,72,77,34,,100,75,54,30,8,22,1.0,0.9
2024-02-14T0000,3361A,103.7311,29.5628,乐山市,理工大学,细颗粒物(PM2.5),123,114,95,93,80,52,,111,93,33,24,6,16,1.0,1
2024-02-14T0000,2598A,100.2143,26.8576,丽江市,西南郊,,,,,,,,,,,,,,,,
2024-02-14T0000,2599A,100.2497,26.8802,丽江市,丽江古城,,29,27,23,20,14,79,,88,85,19,16,7,6,0.5,0.5
2024-02-14T0000,2600A,100.2203,26.8906,丽江市,市中心,,24,19,12,9,5,75,,86,78,17,12,8,8,0.5,0.5
2024-02-14T0000,1267A,119.914,28.4514,丽水市,监测站大楼,细颗粒物(PM2.5),64,47,48,46,34,32,,88,35,12,13,4,5,0.5,0.6
2024-02-14T0000,1268A,119.93,28.4586,丽水市,莲都小学,细颗粒物(PM2.5),110,114,59,83,37,12,,89,32,33,17,4,4,0.7,0.6
2024-02-14T0000,1269A,119.879,28.4231,丽水市,余庄前,,36,36,31,21,20,21,,93,45,9,6,4,4,0.5,0.5
2024-02-14T0000,1173A,119.176,34.5885,连云港市,市环境监测站,细颗粒物(PM2.5),85,88,81,63,56,54,,99,77,29,23,9,9,0.8,0.8
2024-02-14T0000,3000A,119.3581,34.6972,连云港市,德源药业,,46,46,72,29,49,77,,107,90,7,14,6,6,0.5,0.5
2024-02-14T0000,3007A,119.178,34.844,连云港市,新城一中,细颗粒物(PM2.5),90,84,82,67,63,65,,96,55,29,29,11,11,0.8,0.8
2024-02-14T0000,3008A,119.3608,34.7519,连云港市,胡沟管理处,,48,48,67,31,41,76,,97,91,15,20,9,11,0.3,0.4
2024-02-14T0000,3009A,119.1478,34.5911,连云港市,矿山设计院,细颗粒物(PM2.5),73,78,82,53,52,61,,98,83,15,17,6,8,0.6,0.7
2024-02-14T0000,3434A,119.2413,34.6539,连云港市,工贸学校,细颗粒物(PM2.5),67,71,77,48,48,72,,117,100,25,23,12,11,0.7,0.7
2024-02-14T0000,3664A,119.4172,34.7341,连云港市,连云街道,颗粒物(PM10),51,52,98,32,52,86,,104,104,7,35,4,10,0.7,0.8
2024-02-14T0000,2571A,102.3431,27.8099,凉山彝族自治州,青龙寺,,22,20,22,5,6,70,,96,81,5,5,5,5,0.7,0.8
2024-02-14T0000,2572A,102.2721,27.8415,凉山彝族自治州,邛海宾馆,,,20,25,,36,67,,98,87,8,9,10,11,0.6,0.8
2024-02-14T0000,2573A,102.2625,27.898,凉山彝族自治州,西昌市政府,,26,18,21,12,16,81,,102,94,5,7,9,12,0.7,0.9
2024-02-14T0000,2574A,102.2685,27.8851,凉山彝族自治州,凉山州政府,,22,18,21,13,16,70,,92,85,6,9,7,10,0.7,0.8
2024-02-14T0000,2575A,102.237,27.8914,凉山彝族自治州,长安,,31,31,25,19,16,72,,98,92,10,11,12,14,1.0,1.1
2024-02-14T0000,2212A,123.2,41.1953,辽阳市,宏伟区,细颗粒物(PM2.5),67,60,83,48,60,103,,99,99,6,8,12,14,0.8,0.9
2024-02-14T0000,2213A,123.1683,41.2495,辽阳市,新华园,细颗粒物(PM2.5),74,72,84,54,63,106,,102,101,9,10,13,16,0.9,1
2024-02-14T0000,2214A,123.2354,41.2639,辽阳市,滨河路,细颗粒物(PM2.5),75,59,76,55,70,99,,95,95,5,8,9,13,0.9,1
2024-02-14T0000,2215A,123.149,41.2991,辽阳市,铁西工业园,细颗粒物(PM2.5),73,72,82,53,64,110,,106,106,11,12,12,15,0.9,0.9
2024-02-14T0000,2227A,125.1358,42.8845,辽源市,环保局,细颗粒物(PM2.5),74,84,75,54,53,61,,121,82,11,14,10,12,0.6,1
2024-02-14T0000,3239A,125.0764,42.9078,辽源市,银鹰制药,颗粒物(PM10),63,76,78,30,54,68,,124,85,4,8,4,9,0.5,0.9
2024-02-14T0000,1625A,115.9848,36.4372,聊城市,区政府,细颗粒物(PM2.5),73,94,88,53,51,88,,110,102,11,8,11,8,0.7,0.7
2024-02-14T0000,2878A,116.0072,36.4343,聊城市,聊大东校,细颗粒物(PM2.5),85,88,80,63,53,95,,120,112,16,12,13,9,0.7,0.7
2024-02-14T0000,3200A,115.9819,36.4978,聊城市,监控中心,细颗粒物(PM2.5),83,92,88,61,49,88,,113,104,13,8,13,9,0.8,0.7
2024-02-14T0000,3513A,116.0445,36.4361,聊城市,九州社区,细颗粒物(PM2.5),84,111,96,62,49,86,,116,106,20,15,37,8,0.7,0.6
2024-02-14T0000,4018A,116.0567,36.4608,聊城市,星美广场,细颗粒物(PM2.5),80,102,99,59,50,91,,114,107,14,11,12,3,0.8,0.8
2024-02-14T0000,2632A,94.3681,29.6376,林芝市,林芝监测站,,28,10,10,0,6,87,,88,88,1,2,4,4,0.5,0.5
2024-02-14T0000,2633A,94.3616,29.6616,林芝市,林芝人民医院,,27,13,12,8,7,84,,85,85,3,3,10,10,0.5,0.5
2024-02-14T0000,2603A,100.0781,23.8982,临沧市,市环保局,细颗粒物(PM2.5),55,,30,39,31,55,,91,78,9,7,6,6,0.4,0.3
2024-02-14T0000,2604A,100.0894,23.8822,临沧市,市气象局,细颗粒物(PM2.5),54,,37,38,31,51,,88,70,9,8,7,7,0.3,0.4
2024-02-14T0000,1733A,111.5531,36.0783,临汾市,临钢医院,细颗粒物(PM2.5),83,95,89,61,49,50,,107,79,16,16,10,12,1.0,1
2024-02-14T0000,1734A,111.5028,36.0714,临汾市,技工学校,细颗粒物(PM2.5),103,134,110,77,63,50,,114,79,25,24,13,18,0.9,0.9
2024-02-14T0000,1736A,111.5018,36.0855,临汾市,市委,细颗粒物(PM2.5),97,126,108,72,56,52,,115,77,27,21,12,17,1.0,1
2024-02-14T0000,3018A,111.505,36.1014,临汾市,唐尧大酒店,细颗粒物(PM2.5),172,166,101,130,57,36,,113,80,40,30,14,17,0.9,1
2024-02-14T0000,3668A,111.5036,36.0414,临汾市,城南,细颗粒物(PM2.5),127,135,105,96,63,25,,112,78,38,21,13,15,1.2,1
2024-02-14T0000,2667A,103.2069,35.5993,临夏回族自治州,环保局,,33,33,47,21,23,64,,69,65,6,20,13,18,0.3,1.4
2024-02-14T0000,2668A,103.2417,35.6057,临夏回族自治州,建设大厦,,39,39,31,25,24,58,,74,68,9,13,13,16,0.4,0.7
2024-02-14T0000,1618A,118.3429,35.0532,临沂市,沂河小区,细颗粒物(PM2.5),75,70,82,55,60,60,,99,82,17,21,10,10,0.7,0.8
2024-02-14T0000,1619A,118.295,35.0583,临沂市,鲁南制药厂,细颗粒物(PM2.5),74,70,82,54,55,65,,106,88,21,22,11,12,1.0,1.1
2024-02-14T0000,1620A,118.2794,34.9976,临沂市,新光毛纺厂,细颗粒物(PM2.5),78,70,86,57,58,58,,102,80,25,27,12,11,0.9,0.9
2024-02-14T0000,1621A,118.3956,35.0888,临沂市,河东保险公司,细颗粒物(PM2.5),79,88,83,58,57,55,,107,81,56,25,12,12,1.0,1
2024-02-14T0000,3370A,118.3564,35.0215,临沂市,十里堡居委,细颗粒物(PM2.5),64,63,75,46,51,70,,109,89,21,25,8,9,1.0,1
2024-02-14T0000,3496A,118.3604,35.1084,临沂市,南坊新区,颗粒物(PM10),57,63,82,39,53,69,,97,,18,31,10,12,0.9,1
2024-02-14T0000,3860A,118.3920,35.0300,临沂市,皇山花园小区,细颗粒物(PM2.5),77,66,78,56,49,71,,109,92,17,19,14,15,0.9,0.9
2024-02-14T0000,1870A,109.4856,24.3895,柳州市,柳东小学,细颗粒物(PM2.5),82,,75,60,72,42,,71,39,14,20,6,7,0.7,0.7
2024-02-14T0000,1871A,109.4157,24.3277,柳州市,环保监测站,细颗粒物(PM2.5),127,102,110,96,96,4,,56,31,35,24,7,8,1.1,0.9
2024-02-14T0000,1872A,109.389,24.341,柳州市,河西水厂,细颗粒物(PM2.5),82,92,117,60,78,1,,56,28,30,25,6,8,1.0,0.8
2024-02-14T0000,1873A,109.4311,24.2921,柳州市,市四中,细颗粒物(PM2.5),149,146,123,114,96,6,,54,26,42,27,7,8,1.3,0.8
2024-02-14T0000,1874A,109.4006,24.3631,柳州市,市九中,细颗粒物(PM2.5),113,94,97,85,81,14,,46,28,23,22,4,5,0.8,0.7
2024-02-14T0000,1875A,109.4958,24.3134,柳州市,古亭山,细颗粒物(PM2.5),103,78,91,77,92,3,,38,13,23,24,6,6,1.0,0.9
2024-02-14T0000,3402A,109.5422,24.3996,柳州市,市二中,细颗粒物(PM2.5),85,77,93,63,79,10,,51,30,22,24,6,7,1.0,1
2024-02-14T0000,2307A,116.5079,31.737,六安市,监测大楼,,40,36,30,28,24,81,,89,87,12,12,6,5,0.8,0.6
2024-02-14T0000,2308A,116.4738,31.7643,六安市,皖西学院,,46,42,35,32,22,87,,91,89,9,10,5,4,0.5,0.5
2024-02-14T0000,2309A,116.4996,31.7905,六安市,朝阳厂,,46,35,33,32,26,81,,82,82,11,10,6,6,0.4,0.4
2024-02-14T0000,2310A,116.5567,31.7886,六安市,开发区,,48,48,48,32,29,72,,72,66,11,14,5,9,0.5,0.5
2024-02-14T0000,2576A,104.8,26.5892,六盘水市,窑上,,,,,,,,,,,,,,,,
2024-02-14T0000,2577A,104.83,26.5917,六盘水市,黄土坡,细颗粒物(PM2.5),67,,44,48,34,49,,98,75,18,22,14,16,0.7,0.9
2024-02-14T0000,2578A,104.89,26.5939,六盘水市,水钢,细颗粒物(PM2.5),53,39,37,37,21,91,,107,104,6,8,10,10,0.6,0.5
2024-02-14T0000,2579A,104.8475,26.5894,六盘水市,民中,细颗粒物(PM2.5),180,,60,136,48,21,,95,61,52,27,32,17,1.7,1
2024-02-14T0000,2580A,104.9544,26.5506,六盘水市,双水,,46,46,33,31,22,90,,106,102,6,6,9,9,0.6,0.5
2024-02-14T0000,2335A,117.0189,25.1181,龙岩市,龙岩师专,,,,,,,,,,,,,,,,
2024-02-14T0000,2336A,117.0217,25.1033,龙岩市,龙岩市监测站,,46,38,30,32,22,38,,94,62,14,10,3,4,0.4,0.4
2024-02-14T0000,2337A,117.0258,25.0661,龙岩市,闽西职业技术学院,,33,31,30,23,18,51,,94,68,8,5,2,2,0.5,0.4
2024-02-14T0000,2338A,117.0196,25.0306,龙岩市,龙岩学院,,30,27,25,21,16,50,,92,70,6,5,7,4,0.5,0.5
2024-02-14T0000,2665A,105.0822,33.3261,陇南市,汉王镇固水子,,,,,,,,,,,,,,,,
2024-02-14T0000,2885A,104.9339,33.3826,陇南市,滨江中学,细颗粒物(PM2.5),97,98,72,72,49,22,,76,34,42,29,20,17,2.2,1.5
2024-02-14T0000,3247A,104.955,33.371,陇南市,市总工会,细颗粒物(PM2.5),120,117,63,91,45,23,,88,62,45,18,10,10,1.4,0.8
2024-02-14T0000,2487A,111.9589,27.8901,娄底市,电视发射台,,33,33,54,18,34,20,,67,41,16,18,5,9,0.3,1.1
2024-02-14T0000,2488A,111.9975,27.725,娄底市,市监测站,,37,37,94,25,70,67,,86,75,14,26,7,15,0.5,1.1
2024-02-14T0000,2489A,112.0194,27.7314,娄底市,市委党校,,33,33,83,17,60,59,,68,58,7,19,1,12,0.4,0.7
2024-02-14T0000,2490A,111.9561,27.7569,娄底市,涟钢,,39,39,85,27,63,43,,74,52,27,20,36,20,0.9,1.2
2024-02-14T0000,2491A,111.9892,27.7044,娄底市,市政府,,35,34,86,24,64,65,,80,72,6,11,8,10,0.4,0.7
2024-02-14T0000,1893A,105.4324,28.9634,泸州市,九狮山,细颗粒物(PM2.5),142,165,122,108,85,26,,118,76,11,14,5,6,0.5,0.5
2024-02-14T0000,1894A,105.4427,28.9063,泸州市,小市上码头,细颗粒物(PM2.5),148,134,111,113,89,13,,109,76,73,30,6,5,1.2,0.9
2024-02-14T0000,1895A,105.4241,28.8573,泸州市,兰田宪桥,细颗粒物(PM2.5),180,150,116,136,99,26,,109,72,35,19,6,5,1.1,0.8
2024-02-14T0000,1896A,105.4379,28.8833,泸州市,市环监站,细颗粒物(PM2.5),180,143,113,136,100,59,,101,85,29,20,6,4,1.0,0.8
2024-02-14T0000,3490A,105.3617,28.7703,泸州市,纳溪区环保局,细颗粒物(PM2.5),140,137,124,107,99,28,,108,66,30,21,5,6,1.1,1
2024-02-14T0000,2183A,111.1406,37.5211,吕梁市,环保局,颗粒物(PM10),71,92,79,49,39,33,,87,48,35,30,4,7,0.5,0.6
2024-02-14T0000,2185A,111.1297,37.5136,吕梁市,自来水公司,细颗粒物(PM2.5),94,89,76,70,48,28,,85,54,34,28,12,11,0.7,0.7
2024-02-14T0000,2867A,111.1283,37.51,吕梁市,马茂庄小学,细颗粒物(PM2.5),124,156,97,94,55,20,,87,47,41,30,7,8,0.6,0.5
2024-02-14T0000,1812A,112.3931,34.6516,洛阳市,市委党校,细颗粒物(PM2.5),199,197,127,149,99,6,,89,47,72,37,16,13,1.0,0.8
2024-02-14T0000,1814A,112.4657,34.6871,洛阳市,豫西宾馆,细颗粒物(PM2.5),186,237,134,140,85,12,,96,68,73,32,15,15,0.9,0.6
2024-02-14T0000,1815A,112.494,34.6886,洛阳市,河南林校,细颗粒物(PM2.5),132,144,109,100,76,64,,93,73,27,27,11,10,1.2,0.9
2024-02-14T0000,1816A,112.3844,34.623,洛阳市,开发区管委会,细颗粒物(PM2.5),170,172,92,129,70,50,,102,85,28,14,15,7,0.9,0.8
2024-02-14T0000,1817A,112.4267,34.6258,洛阳市,市委新办公区,细颗粒物(PM2.5),335,,125,285,112,12,,92,46,65,31,7,7,1.3,1
2024-02-14T0000,3340A,112.6005,34.6326,洛阳市,伊滨,细颗粒物(PM2.5),179,239,138,135,95,29,,98,67,33,21,8,9,0.9,0.8
2024-02-14T0000,3341A,112.4951,34.6332,洛阳市,中移产业园,细颗粒物(PM2.5),202,186,108,152,87,42,,104,79,50,23,16,9,1.3,1
2024-02-14T0000,3593A,112.5736,34.8993,洛阳市,吉利监测站,细颗粒物(PM2.5),132,140,97,100,69,49,,115,87,41,23,4,7,0.9,0.7
2024-02-14T0000,3635A,112.3677,34.662,洛阳市,河科大西苑校区,细颗粒物(PM2.5),193,198,137,145,97,2,,96,51,63,37,16,12,0.3,0.3
2024-02-14T0000,3636A,112.4388,34.6781,洛阳市,英才小学,细颗粒物(PM2.5),202,207,132,152,96,20,,95,64,48,30,10,12,1.0,0.9
2024-02-14T0000,2399A,114.051,33.5699,漯河市,三五一五工厂,细颗粒物(PM2.5),240,242,99,190,74,7,,102,59,63,23,12,9,1.1,0.8
2024-02-14T0000,2400A,114.0055,33.5698,漯河市,漯河大学,细颗粒物(PM2.5),245,216,87,195,64,5,,103,57,74,24,12,9,1.2,0.9
2024-02-14T0000,2401A,114.0138,33.5828,漯河市,市水利局,细颗粒物(PM2.5),262,261,103,212,75,7,,105,57,66,20,14,11,1.4,0.9
2024-02-14T0000,2402A,114.0261,33.5698,漯河市,市广电局,细颗粒物(PM2.5),282,313,116,232,80,5,,106,53,71,25,8,6,1.7,1.1
2024-02-14T0000,3478A,113.9749,33.5664,漯河市,市图书馆,细颗粒物(PM2.5),133,132,75,101,54,59,,103,86,26,16,12,12,0.7,0.6
2024-02-14T0000,3479A,114.0967,33.5906,漯河市,召陵区卫健委,细颗粒物(PM2.5),129,139,84,98,57,50,,102,75,24,13,10,9,0.8,0.7
2024-02-14T0000,1798A,118.5092,31.6837,马鞍山市,湖东路四小,细颗粒物(PM2.5),70,58,58,51,41,53,,68,52,20,20,10,9,0.8,0.7
2024-02-14T0000,1799A,118.5024,31.6449,马鞍山市,开发区,细颗粒物(PM2.5),62,59,50,44,37,57,,72,57,20,24,6,5,0.5,0.4
2024-02-14T0000,1800A,118.5228,31.7231,马鞍山市,慈湖,细颗粒物(PM2.5),70,66,59,51,42,45,,64,50,28,26,7,6,0.3,0.3
2024-02-14T0000,1802A,118.6245,31.7241,马鞍山市,濮塘,,48,48,45,31,28,59,,74,70,9,8,6,6,0.4,0.4
2024-02-14T0000,3633A,118.4918,31.6809,马鞍山市,雨山,细颗粒物(PM2.5),69,62,57,50,40,46,,70,48,30,25,11,9,0.4,0.4
2024-02-14T0000,1686A,111.0286,21.4688,茂名市,电白南海,,,,62,,24,94,,108,101,13,11,10,11,0.5,0.5
2024-02-14T0000,1687A,110.9294,21.6533,茂名市,茂石化七小,,48,48,51,31,29,111,,102,102,10,10,9,10,0.5,0.6
2024-02-14T0000,1688A,110.9107,21.6687,茂名市,健康路,,48,48,48,29,23,106,,95,95,9,8,6,7,0.6,0.6
2024-02-14T0000,1689A,110.8592,21.6828,茂名市,高岭,,48,48,50,31,30,105,,97,95,8,15,8,13,0.5,0.6
2024-02-14T0000,3450A,111.01,21.5165,茂名市,电白水东,颗粒物(PM10),53,56,48,29,23,109,,107,107,6,6,6,7,0.7,0.6
2024-02-14T0000,2539A,104.0308,30.0478,眉山市,黑龙滩水库,细颗粒物(PM2.5),75,75,70,55,51,64,,122,103,6,5,1,2,0.7,0.6
2024-02-14T0000,2540A,103.8416,30.0874,眉山市,气象局,细颗粒物(PM2.5),128,101,89,97,76,27,,109,85,36,21,7,9,1.0,0.8
2024-02-14T0000,3137A,103.8578,30.0744,眉山市,市委党校,细颗粒物(PM2.5),110,110,93,83,76,22,,97,51,44,33,7,8,0.8,0.8
2024-02-14T0000,3148A,103.8291,30.0564,眉山市,区人社局,细颗粒物(PM2.5),132,105,77,100,79,19,,97,57,61,42,10,11,0.9,0.8
2024-02-14T0000,1690A,116.1231,24.3284,梅州市,梅江月梅,细颗粒物(PM2.5),97,85,40,72,36,38,,104,85,18,7,9,10,0.8,0.6
2024-02-14T0000,1691A,116.0797,24.2719,梅州市,梅县新城,细颗粒物(PM2.5),122,92,56,92,47,35,,107,71,23,12,6,6,0.7,0.5
2024-02-14T0000,1692A,116.1248,24.2654,梅州市,环境监控中心,细颗粒物(PM2.5),93,80,56,69,48,24,,102,66,35,15,6,5,0.7,0.5
2024-02-14T0000,3315A,116.1233,24.2991,梅州市,梅龙,细颗粒物(PM2.5),162,139,54,123,48,12,,100,59,37,14,8,6,1.1,0.6
2024-02-14T0000,1878A,104.7778,31.4741,绵阳市,富乐山,细颗粒物(PM2.5),83,70,68,61,57,41,,117,99,42,16,7,8,1.0,0.8
2024-02-14T0000,1879A,104.7563,31.4535,绵阳市,市人大,细颗粒物(PM2.5),125,116,89,95,66,3,,101,44,82,42,6,6,1.3,0.9
2024-02-14T0000,1880A,104.6697,31.4668,绵阳市,高新区自来水公司,细颗粒物(PM2.5),110,128,88,83,70,11,,109,60,62,30,8,8,0.9,0.7
2024-02-14T0000,1881A,104.7287,31.5075,绵阳市,三水厂,细颗粒物(PM2.5),120,108,82,91,70,6,,104,52,51,28,6,6,1.0,0.9
2024-02-14T0000,3491A,104.69,31.5322,绵阳市,西科大附属小学,细颗粒物(PM2.5),108,98,73,81,62,66,,117,94,29,18,9,8,0.7,0.6
2024-02-14T0000,3492A,104.5648,31.5343,绵阳市,安州区旅游局,细颗粒物(PM2.5),142,136,91,108,72,32,,111,61,35,31,5,6,1.1,1
2024-02-14T0000,1784A,129.61,44.561,牡丹江市,环保大楼,颗粒物(PM10),83,116,83,40,45,83,,115,93,11,12,8,11,0.5,0.6
2024-02-14T0000,1785A,129.6115,44.5782,牡丹江市,文化广场,,,,86,,57,56,,102,71,34,17,18,17,0.7,0.8
2024-02-14T0000,1786A,129.5904,44.5963,牡丹江市,第一医院,细颗粒物(PM2.5),72,92,84,52,59,71,,102,82,13,13,16,18,0.6,0.7
2024-02-14T0000,1787A,129.6364,44.6075,牡丹江市,机车工厂,颗粒物(PM10),79,108,88,38,50,25,,102,61,50,20,12,14,0.6,0.5
2024-02-14T0000,1788A,129.6386,44.5462,牡丹江市,第一中学,颗粒物(PM10),73,96,80,32,41,76,,110,89,9,11,13,14,0.6,0.7
2024-02-14T0000,2531A,105.0703,29.61,内江市,市监测站,细颗粒物(PM2.5),160,,96,122,104,25,,100,66,48,35,9,10,1.3,1.2
2024-02-14T0000,2532A,105.0717,29.5947,内江市,东兴区政府,细颗粒物(PM2.5),204,157,100,154,98,5,,104,65,66,30,13,11,1.4,1.1
2024-02-14T0000,2533A,105.0653,29.5817,内江市,内江二中,细颗粒物(PM2.5),149,141,97,114,109,7,,106,65,75,33,7,8,1.6,1.2
2024-02-14T0000,2534A,105.0406,29.5822,内江市,内江日报社,细颗粒物(PM2.5),135,123,101,103,109,13,,104,72,72,40,11,10,1.3,1.1
2024-02-14T0000,2628A,92.0657,31.4846,那曲市,那曲监测站,"颗粒物(PM10),细颗粒物(PM2.5)",65,79,31,47,19,38,,81,68,20,9,9,7,2.1,1
2024-02-14T0000,3128A,92.0506,31.4797,那曲市,那曲会议中心,,38,38,23,15,11,59,,93,83,16,9,8,7,0.8,0.6
2024-02-14T0000,1290A,115.8931,28.6843,南昌市,省外办,细颗粒物(PM2.5),85,86,91,63,60,15,,58,21,25,31,7,6,0.8,1
2024-02-14T0000,1291A,115.8886,28.7003,南昌市,省林业公司,细颗粒物(PM2.5),73,80,61,53,43,16,,68,40,27,30,5,5,0.8,0.8
2024-02-14T0000,1292A,115.8126,28.7442,南昌市,林科所,,39,34,36,27,27,38,,71,46,12,10,7,8,0.3,0.5
2024-02-14T0000,1294A,115.8518,28.687,南昌市,建工学校,"颗粒物(PM10),细颗粒物(PM2.5)",74,98,70,54,41,23,,74,36,26,29,7,7,0.6,0.6
2024-02-14T0000,1295A,115.8921,28.6424,南昌市,象湖,细颗粒物(PM2.5),102,126,85,76,57,3,,73,31,52,38,7,6,1.0,0.9
2024-02-14T0000,1296A,115.7423,28.7996,南昌市,武术学校,,36,,22,25,20,9,,62,23,5,3,15,13,0.8,0.7
2024-02-14T0000,1298A,115.9314,28.6842,南昌市,省站,"颗粒物(PM10),细颗粒物(PM2.5)",83,115,82,61,53,22,,73,41,23,25,9,9,0.7,0.7
2024-02-14T0000,3046A,115.9084,28.6062,南昌市,机电学校,细颗粒物(PM2.5),79,103,84,58,53,8,,72,32,43,34,11,10,1.3,1.2
2024-02-14T0000,3690A,115.9721,28.7031,南昌市,外国语学校,细颗粒物(PM2.5),95,72,63,71,53,38,,68,44,11,21,7,6,0.6,0.7
2024-02-14T0000,1905A,106.056,30.8064,南充市,西山风景区,细颗粒物(PM2.5),97,,73,72,76,117,,122,122,6,12,6,5,0.4,0.7
2024-02-14T0000,1906A,106.0789,30.8023,南充市,南充市委,细颗粒物(PM2.5),117,109,95,88,74,19,,90,48,48,31,5,5,0.9,0.7
2024-02-14T0000,1907A,106.1031,30.8217,南充市,南充炼油厂,细颗粒物(PM2.5),119,116,101,90,80,18,,99,66,61,31,5,5,0.9,0.7
2024-02-14T0000,1908A,106.1064,30.7856,南充市,高坪区监测站,细颗粒物(PM2.5),128,137,113,97,80,3,,95,47,67,36,7,7,1.4,0.9
2024-02-14T0000,1909A,106.0642,30.7636,南充市,嘉陵区环保局,细颗粒物(PM2.5),153,152,106,117,86,1,,84,31,80,48,4,4,1.8,1.2
2024-02-14T0000,1910A,106.1087,30.8388,南充市,市环境监测站,细颗粒物(PM2.5),104,104,95,78,73,86,,119,110,17,17,8,7,0.6,0.6
2024-02-14T0000,1151A,118.8086,32.1065,南京市,迈皋桥,细颗粒物(PM2.5),52,49,42,36,26,43,,62,46,23,16,4,4,0.5,0.4
2024-02-14T0000,1152A,118.7538,32.0551,南京市,草场门,细颗粒物(PM2.5),64,61,47,46,30,53,,70,55,36,29,4,2,0.8,0.6
2024-02-14T0000,1153A,118.7794,32.0745,南京市,山西路,细颗粒物(PM2.5),55,48,40,39,27,55,,66,64,28,21,5,4,0.7,0.6
2024-02-14T0000,1154A,118.7752,32.0023,南京市,中华门,细颗粒物(PM2.5),67,61,44,48,32,45,,72,62,34,18,8,7,0.6,0.5
2024-02-14T0000,1155A,118.8109,32.0309,南京市,瑞金路,细颗粒物(PM2.5),100,92,53,75,35,4,,66,22,112,36,4,4,1.4,0.7
2024-02-14T0000,1156A,118.7997,32.0754,南京市,玄武湖,颗粒物(PM10),56,62,50,33,25,62,,77,65,12,11,9,7,0.6,0.5
2024-02-14T0000,1157A,118.6414,32.0931,南京市,浦口,颗粒物(PM10),55,60,57,28,18,58,,68,61,20,22,5,6,0.9,0.8
2024-02-14T0000,1158A,118.7356,31.9996,南京市,奥体中心,细颗粒物(PM2.5),67,66,49,48,32,59,,75,66,23,16,7,6,0.7,0.6
2024-02-14T0000,1159A,118.9125,32.1028,南京市,仙林大学城,细颗粒物(PM2.5),64,58,41,46,22,56,,77,70,26,15,7,5,0.8,0.7
2024-02-14T0000,3422A,118.8436,31.9198,南京市,江宁彩虹桥,细颗粒物(PM2.5),67,75,56,48,31,64,,80,72,16,12,4,3,0.6,0.5
2024-02-14T0000,3423A,119.0138,31.6494,南京市,溧水永阳,,42,,41,29,36,74,,74,72,10,17,4,4,0.3,0.4
2024-02-14T0000,3424A,118.879,31.3302,南京市,高淳老职中,,45,39,38,31,29,65,,74,70,8,8,5,4,0.4,0.5
2024-02-14T0000,3427A,118.8554,32.3578,南京市,六合雄州,颗粒物(PM10),62,74,72,39,32,42,,80,59,30,22,4,3,0.5,0.6
2024-02-14T0000,1401A,108.3103,22.7881,南宁市,二十一中,,49,49,47,29,38,71,,90,80,12,9,10,7,0.8,0.7
2024-02-14T0000,1402A,108.3141,22.8528,南宁市,北湖,颗粒物(PM10),53,55,46,34,31,60,,83,68,12,7,6,5,0.8,0.7
2024-02-14T0000,1403A,108.3206,22.8225,南宁市,市监测站,,42,42,45,25,27,70,,90,77,10,8,7,6,0.9,0.8
2024-02-14T0000,1404A,108.3829,22.8037,南宁市,大自然花园,,41,41,48,23,26,69,,86,81,13,9,9,6,0.8,0.6
2024-02-14T0000,1405A,108.4394,22.7904,南宁市,仙葫,,48,48,45,28,31,66,,78,76,13,11,8,7,0.9,0.7
2024-02-14T0000,1406A,108.2397,22.8467,南宁市,区农职院,,45,45,47,24,29,66,,88,76,16,13,10,8,0.9,0.7
2024-02-14T0000,1407A,108.3275,22.735,南宁市,英华嘉园,颗粒物(PM10),51,52,49,25,28,58,,77,67,16,12,6,6,0.7,0.6
2024-02-14T0000,1408A,108.2257,22.7757,南宁市,沙井镇街道办,,44,44,49,25,30,60,,85,72,14,10,6,6,0.7,0.6
2024-02-14T0000,3401A,108.4834,22.7618,南宁市,红星社区,,39,38,46,27,31,63,,78,74,14,11,13,9,1.1,0.8
2024-02-14T0000,2331A,118.0966,26.6761,南平市,茫荡山,,,,,,,,,,,,,,,,
2024-02-14T0000,2332A,118.1681,26.6369,南平市,南平市监测站,细颗粒物(PM2.5),97,89,56,72,43,18,,88,42,25,15,6,6,0.9,0.6
2024-02-14T0000,2333A,118.1825,26.6489,南平市,南平铝业有限公司,细颗粒物(PM2.5),67,61,45,48,32,26,,81,47,15,11,9,8,0.7,0.7
2024-02-14T0000,2334A,118.1756,26.6272,南平市,南平七中,细颗粒物(PM2.5),77,81,44,56,33,25,,88,50,23,13,4,5,0.6,0.5
2024-02-14T0000,1168A,120.9098,31.9663,南通市,狼山街道,,45,45,50,31,31,31,,97,49,34,22,8,8,0.6,0.6
2024-02-14T0000,1169A,120.86,32.0005,南通市,虹桥,颗粒物(PM10),53,56,59,35,33,54,,92,69,33,21,6,6,0.4,0.4
2024-02-14T0000,1170A,120.87,32.02,南通市,城中,颗粒物(PM10),55,59,60,33,30,53,,99,67,35,21,6,5,0.8,0.7
2024-02-14T0000,1171A,120.94,31.93,南通市,星湖花园,,49,49,56,30,28,42,,91,54,41,25,8,7,0.4,0.4
2024-02-14T0000,1172A,120.81,32.0417,南通市,紫琅学院,,46,46,52,29,27,59,,89,62,33,32,8,8,0.4,0.5
2024-02-14T0000,3291A,121.067,32.062,南通市,通州监测站,细颗粒物(PM2.5),67,63,60,48,35,52,,104,75,34,20,8,8,0.3,0.3
2024-02-14T0000,3432A,120.9348,31.9883,南通市,环境教育馆,细颗粒物(PM2.5),58,58,59,41,34,33,,101,61,39,25,7,7,0.3,0.3
2024-02-14T0000,2404A,112.5224,33.0122,南阳市,瓦房庄,细颗粒物(PM2.5),354,321,146,304,134,6,,90,45,62,29,14,12,1.4,0.9
2024-02-14T0000,2405A,112.5003,32.9735,南阳市,汉画馆,细颗粒物(PM2.5),264,241,147,214,118,7,,93,47,56,29,9,9,1.4,0.9
2024-02-14T0000,2406A,112.5573,33.027,南阳市,气象站,细颗粒物(PM2.5),301,,108,251,101,12,,95,59,60,27,12,11,1.1,0.8
2024-02-14T0000,2407A,112.5481,32.9689,南阳市,理工学院,细颗粒物(PM2.5),215,180,118,165,106,37,,98,72,44,24,9,8,0.9,0.7
2024-02-14T0000,4008A,112.5234,32.9922,南阳市,卧龙区政府,细颗粒物(PM2.5),359,348,142,309,119,2,,92,39,72,37,11,10,1.6,0.9
2024-02-14T0000,1234A,121.8358,29.911,宁波市,区环保大楼,,48,48,49,22,22,35,,103,81,45,7,7,6,0.4,0.3
2024-02-14T0000,1235A,121.56,29.82,宁波市,万里学院,,35,35,48,21,24,69,,96,84,10,10,7,7,0.6,0.5
2024-02-14T0000,1236A,121.713,29.9572,宁波市,龙赛医院,,47,47,46,24,25,64,,103,87,20,7,5,5,0.5,0.5
2024-02-14T0000,1239A,121.633,29.7733,宁波市,钱湖水厂,,38,38,45,25,26,82,,99,89,4,3,5,5,0.5,0.6
2024-02-14T0000,1240A,121.5856,29.8635,宁波市,太古小学,,46,46,44,26,26,57,,100,83,24,13,6,6,0.6,0.5
2024-02-14T0000,1241A,121.524,29.8674,宁波市,市环境监测中心,,46,36,44,32,27,54,,102,72,30,20,6,6,0.7,0.5
2024-02-14T0000,2871A,121.6147,29.9017,宁波市,万里国际学校,,44,44,48,20,24,72,,104,93,11,8,7,7,0.6,0.5
2024-02-14T0000,3710A,121.5594,29.8975,宁波市,白沙活动中心,,42,42,47,26,26,55,,102,80,15,9,6,6,0.4,0.4
2024-02-14T0000,2339A,119.5001,26.6946,宁德市,金涵水库,,,,,,,,,,,,,,,,
2024-02-14T0000,2341A,119.5388,26.6612,宁德市,宁德市监测站,细颗粒物(PM2.5),72,60,52,52,37,45,,100,68,11,11,8,6,0.8,0.5
2024-02-14T0000,3209A,119.5231,26.6562,宁德市,宁德一中,"颗粒物(PM10),细颗粒物(PM2.5)",52,53,48,36,30,51,,102,72,11,10,7,6,0.7,0.5
2024-02-14T0000,2618A,98.8601,25.8567,怒江傈僳族自治州,州监测站,,45,43,23,31,15,48,,87,72,12,5,9,9,0.6,0.4
2024-02-14T0000,2619A,98.8546,25.8417,怒江傈僳族自治州,泸水一中,细颗粒物(PM2.5),52,,25,36,18,33,,79,56,16,11,9,8,0.7,0.6
2024-02-14T0000,1888A,101.6891,26.571,攀枝花市,弄弄坪,颗粒物(PM10),73,95,54,46,32,10,,96,69,73,36,62,51,4.4,2.2
2024-02-14T0000,1889A,101.5769,26.5928,攀枝花市,河门口,,47,47,31,19,17,42,,90,70,20,16,16,18,1.1,0.9
2024-02-14T0000,1890A,101.7169,26.585,攀枝花市,炳草岗,颗粒物(PM10),53,56,37,35,21,7,,96,60,60,32,17,19,1.4,1.1
2024-02-14T0000,1891A,101.7369,26.5008,攀枝花市,仁和,,43,43,26,28,20,37,,94,62,22,14,6,6,0.6,0.6
2024-02-14T0000,2835A,101.7227,26.567,攀枝花市,四十中小,颗粒物(PM10),59,68,37,39,23,34,,96,62,50,30,23,15,1.2,1.1
2024-02-14T0000,1604A,122.0303,41.1489,盘锦市,开发区,细颗粒物(PM2.5),163,163,104,124,88,55,,104,78,37,23,8,11,1.5,1.1
2024-02-14T0000,1605A,122.0485,41.0883,盘锦市,兴隆台,细颗粒物(PM2.5),166,163,109,126,80,44,,103,78,40,21,13,13,1.3,1.1
2024-02-14T0000,1606A,121.8297,41.1028,盘锦市,新生街道,细颗粒物(PM2.5),127,,94,96,73,36,,87,68,49,26,10,11,1.2,1
2024-02-14T0000,1832A,113.3257,33.742,平顶山市,新华旅馆,细颗粒物(PM2.5),113,163,130,85,77,16,,98,60,61,32,11,10,0.6,0.6
2024-02-14T0000,1833A,113.2919,33.737,平顶山市,规划设计院,细颗粒物(PM2.5),237,278,139,187,96,37,,116,84,56,31,14,13,1.0,0.8
2024-02-14T0000,1834A,113.182,33.774,平顶山市,平顶山工学院,细颗粒物(PM2.5),125,137,100,95,66,74,,106,94,21,15,14,8,0.9,0.8
2024-02-14T0000,3204A,113.3025,33.73,平顶山市,规划局,细颗粒物(PM2.5),298,300,151,248,115,31,,84,60,45,30,21,12,0.9,0.9
2024-02-14T0000,3594A,112.8867,33.9116,平顶山市,石龙区,细颗粒物(PM2.5),100,104,91,75,67,60,,108,80,25,18,8,10,0.7,0.7
2024-02-14T0000,2656A,106.6692,35.5461,平凉市,聚贤嘉苑,颗粒物(PM10),92,134,64,32,33,81,,113,94,12,17,8,9,0.2,0.5
2024-02-14T0000,2657A,106.7021,35.5307,平凉市,博物馆,颗粒物(PM10),96,142,78,37,48,80,,109,85,13,26,6,13,0.0,0.7
2024-02-14T0000,2347A,114.0997,27.5002,萍乡市,武功山,细颗粒物(PM2.5),57,44,28,40,26,43,,88,69,10,7,9,9,0.6,0.4
2024-02-14T0000,2348A,113.8385,27.6434,萍乡市,中医院,细颗粒物(PM2.5),97,98,76,72,53,4,,27,20,43,33,11,8,1.3,1.3
2024-02-14T0000,2349A,113.8493,27.6253,萍乡市,市政府车库,细颗粒物(PM2.5),118,121,93,89,72,4,,34,17,43,30,8,16,1.8,1.2
2024-02-14T0000,2350A,113.8676,27.6435,萍乡市,市环保局,细颗粒物(PM2.5),108,104,71,81,53,18,,39,29,35,23,11,10,0.8,0.9
2024-02-14T0000,2351A,113.866,27.6198,萍乡市,安源区政府,细颗粒物(PM2.5),109,116,76,82,53,4,,39,27,38,27,10,10,1.3,1.1
2024-02-14T0000,2319A,119.0141,25.4325,莆田市,荔城区仓后路,细颗粒物(PM2.5),186,187,74,140,56,50,,115,87,19,11,8,7,1.0,0.9
2024-02-14T0000,2320A,119.0015,25.4553,莆田市,莆田市监测站,细颗粒物(PM2.5),62,68,45,44,32,75,,117,94,8,9,5,8,0.7,0.5
2024-02-14T0000,2321A,119.1119,25.4561,莆田市,涵江区六中,细颗粒物(PM2.5),189,167,68,142,48,63,,122,94,16,10,10,9,1.0,0.8
2024-02-14T0000,2322A,119.1013,25.3215,莆田市,秀屿区政府,细颗粒物(PM2.5),302,,67,252,74,59,,117,86,33,14,10,9,0.7,0.7
2024-02-14T0000,2323A,118.981,25.4792,莆田市,东圳水库,,,,,,,,,,,,,,,,
2024-02-14T0000,2392A,115.0312,35.7636,濮阳市,环保局,细颗粒物(PM2.5),160,204,98,122,67,42,,99,67,45,18,8,8,0.7,0.6
2024-02-14T0000,2394A,115.0574,35.7609,濮阳市,油田运输公司,细颗粒物(PM2.5),135,128,98,103,65,56,,100,67,25,16,12,11,0.9,0.8
2024-02-14T0000,2395A,115.0866,35.7754,濮阳市,油田物探公司,细颗粒物(PM2.5),100,125,96,75,64,69,,99,76,24,17,8,8,0.8,0.7
2024-02-14T0000,3021A,115,35.7668,濮阳市,濮水河管理处,细颗粒物(PM2.5),237,234,99,187,70,27,,94,65,56,14,8,9,1.1,0.8
2024-02-14T0000,2601A,100.98,22.7633,普洱市,市环保局,细颗粒物(PM2.5),58,51,44,41,35,37,,90,66,13,12,5,5,0.5,0.6
2024-02-14T0000,2602A,100.9817,22.8322,普洱市,普洱第二中学,细颗粒物(PM2.5),57,40,33,40,25,24,,96,64,29,13,5,6,0.6,0.6
2024-02-14T0000,2262A,131.0518,45.8751,七台河市,新一中,,38,38,66,14,44,89,,122,104,8,12,9,12,0.8,1
2024-02-14T0000,3345A,131.0577,45.7879,七台河市,中波台,颗粒物(PM10),54,58,65,19,40,79,,112,91,16,18,13,15,0.5,0.7
2024-02-14T0000,3637A,131.0176,45.7761,七台河市,人民广场,颗粒物(PM10),51,51,80,19,48,83,,112,90,12,16,12,16,0.8,1
2024-02-14T0000,3684A,130.8781,45.8222,七台河市,新建矿广场,,38,27,61,26,42,82,,113,94,13,17,7,12,0.5,0.7
2024-02-14T0000,1779A,123.9305,47.3636,齐齐哈尔市,安居小区,,22,17,57,3,23,69,,74,70,4,8,5,7,0.3,0.5
2024-02-14T0000,1780A,123.9488,47.3386,齐齐哈尔市,中心广场,,22,14,64,5,25,68,,71,68,4,9,5,6,0.4,0.6
2024-02-14T0000,1781A,123.9483,47.3227,齐齐哈尔市,农牧车辆厂,,22,17,64,2,23,68,,73,70,3,8,6,8,0.3,0.5
2024-02-14T0000,1783A,123.945,47.2988,齐齐哈尔市,市环境监测站,,23,14,71,6,29,71,,74,71,3,9,2,4,0.4,0.5
2024-02-14T0000,3662A,123.6333,47.2075,齐齐哈尔市,富区青少年活动中心,,20,17,91,7,33,62,,69,64,7,15,13,16,0.4,0.8
2024-02-14T0000,2591A,107.9783,26.5747,黔东南苗族侗族自治州,市环境监测站,颗粒物(PM10),51,51,42,35,29,81,,105,83,6,7,5,6,0.5,0.5
2024-02-14T0000,2881A,107.8908,26.5311,黔东南苗族侗族自治州,凯里学院,,49,44,38,34,28,82,,115,89,5,4,5,5,0.5,0.5
2024-02-14T0000,2593A,107.5228,26.2403,黔南布依族苗族自治州,小围寨,,36,36,32,24,24,73,,104,81,5,5,6,6,0.4,0.3
2024-02-14T0000,3538A,107.5175,26.2978,黔南布依族苗族自治州,沙坝,,49,41,33,34,26,70,,98,82,4,4,4,5,0.7,0.6
2024-02-14T0000,2589A,104.9022,25.0925,黔西南布依族苗族自治州,场坝街,,49,41,32,34,26,82,,90,89,6,9,2,2,0.6,0.5
2024-02-14T0000,2590A,104.8811,25.0992,黔西南布依族苗族自治州,坪东大道,细颗粒物(PM2.5),55,57,38,39,26,73,,86,82,9,10,2,2,0.3,0.2
2024-02-14T0000,2502A,108.6236,21.9667,钦州市,市环保站,颗粒物(PM10),62,73,58,36,26,72,,80,74,18,15,8,7,0.7,0.7
2024-02-14T0000,2503A,108.6549,21.9481,钦州市,沙埠小学,细颗粒物(PM2.5),62,66,52,44,32,26,,86,70,45,12,8,7,0.9,0.8
2024-02-14T0000,2504A,108.5989,21.7431,钦州市,港区一小,颗粒物(PM10),64,77,69,37,33,40,,91,68,37,18,8,10,0.8,0.8
2024-02-14T0000,3404A,108.5959,21.9633,钦州市,北职校,颗粒物(PM10),56,62,54,37,36,57,,82,73,20,14,22,9,0.8,0.7
2024-02-14T0000,1042A,119.5134,39.8207,秦皇岛市,北戴河环保局,细颗粒物(PM2.5),110,118,171,83,114,52,,68,53,57,55,9,14,0.9,1.3
2024-02-14T0000,1043A,119.7493,40.0116,秦皇岛市,第一关,细颗粒物(PM2.5),145,162,190,111,131,4,,80,34,83,54,14,20,1.1,1.6
2024-02-14T0000,1044A,119.5897,39.9499,秦皇岛市,监测站,细颗粒物(PM2.5),156,169,168,119,117,24,,87,39,59,51,11,18,1.0,1.7
2024-02-14T0000,1046A,119.5251,39.9041,秦皇岛市,建设大厦,细颗粒物(PM2.5),160,169,170,122,104,18,,100,47,59,34,6,17,1.0,1.7
