timepoint,stationcode,longitude,latitude,area,positionname,primarypollutant,aqi,pm10,pm10_24h,pm2_5,pm2_5_24h,o3,o3_24h,o3_8h,o3_8h_24h,no2,no2_24h,so2,so2_24h,co,co_24h
2024-02-14T2300,2566A,102.1879,31.914,阿坝藏族羌族自治州,州农科所,,38,38,24,17,12,22,,28,27,3,4,6,6,0.9,0.9
2024-02-14T2300,2568A,102.2502,31.8896,阿坝藏族羌族自治州,马师校,,28,28,12,12,8,73,,82,81,3,3,4,3,0.6,0.5
2024-02-14T2300,3994A,102.2165,31.9024,阿坝藏族羌族自治州,马尔康中学西区,,36,36,14,15,9,72,,78,77,2,3,5,5,0.5,0.5
2024-02-14T2300,2695A,80.292,41.1694,阿克苏地区,电视台,颗粒物(PM10),150,249,359,55,49,54,,90,83,37,15,9,7,0.8,0.7
2024-02-14T2300,2696A,80.2613,41.1551,阿克苏地区,艺术中心,颗粒物(PM10),176,301,397,78,58,17,,90,76,59,18,16,10,1.0,0.9
2024-02-14T2300,2204A,105.6467,38.8363,阿拉善盟,西城区西花园,,34,34,55,11,18,85,,94,87,4,2,8,8,0.6,0.6
2024-02-14T2300,2205A,105.6985,38.8411,阿拉善盟,蒙二幼,,44,44,56,15,13,82,,90,85,7,5,5,4,0.5,0.4
2024-02-14T2300,2206A,105.724,38.8516,阿拉善盟,环保局新楼,,31,31,51,12,17,89,,92,89,4,4,5,5,0.4,0.4
2024-02-14T2300,2708A,88.1264,47.8517,阿勒泰地区,市站,,25,10,12,1,10,78,,78,74,7,13,4,6,0.3,0.3
2024-02-14T2300,2630A,80.1161,32.5,阿里地区,阿里监测站,,21,15,10,9,5,67,,90,87,11,7,14,14,0.6,0.5
2024-02-14T2300,3192A,80.0903,32.5028,阿里地区,阿里藏医院,,26,6,10,2,4,81,,95,94,4,5,6,11,0.4,0.5
2024-02-14T2300,2642A,109.0318,32.6537,安康市,香溪洞,,34,34,58,14,36,69,,74,74,4,6,6,9,0.3,0.5
2024-02-14T2300,2643A,109.0281,32.6939,安康市,安康市监测站,,49,49,72,19,47,62,,69,69,12,15,7,10,0.4,0.7
2024-02-14T2300,2644A,109.0072,32.6975,安康市,汉滨区检察院,,50,50,63,28,45,64,,74,74,6,10,7,9,0.4,0.5
2024-02-14T2300,2291A,117.0809,30.5177,安庆市,环科院,细颗粒物(PM2.5),58,63,44,41,32,32,,77,46,45,25,11,11,0.8,0.7
2024-02-14T2300,2292A,117.0331,30.5119,安庆市,马山宾馆,细颗粒物(PM2.5),89,87,49,66,37,11,,86,58,74,33,8,7,1.0,0.6
2024-02-14T2300,2294A,116.9896,30.6145,安庆市,安庆大学,细颗粒物(PM2.5),68,67,38,49,24,28,,87,62,31,17,8,8,1.1,0.5
2024-02-14T2300,3173A,117.0598,30.5351,安庆市,市人大,细颗粒物(PM2.5),102,96,49,76,34,4,,79,48,75,25,7,8,1.0,0.7
2024-02-14T2300,3123A,105.9408,26.2431,安顺市,凤凰山,细颗粒物(PM2.5),108,81,39,81,33,88,,87,83,9,7,16,14,0.9,0.6
2024-02-14T2300,3124A,105.9439,26.2564,安顺市,金钟山,细颗粒物(PM2.5),102,81,38,76,32,88,,85,84,7,5,14,13,0.9,0.6
2024-02-14T2300,3125A,105.8983,26.2481,安顺市,娄家坡,细颗粒物(PM2.5),98,98,42,73,35,87,,85,82,7,4,15,12,0.9,0.7
2024-02-14T2300,1819A,114.3551,36.1017,安阳市,红庙街,颗粒物(PM10),58,65,199,29,125,83,,122,99,3,22,6,12,0.2,0.9
2024-02-14T2300,1820A,114.361,36.0681,安阳市,银杏小区,,46,46,189,28,133,83,,120,98,2,15,5,10,0.9,1.6
2024-02-14T2300,3141A,114.3922,36.0878,安阳市,信访局,颗粒物(PM10),51,52,215,25,149,84,,125,100,4,24,3,10,0.4,1.3
2024-02-14T2300,3669A,114.4705,36.0637,安阳市,左辅环卫站,颗粒物(PM10),53,56,195,29,123,76,,116,96,5,21,4,9,0.5,1.2
2024-02-14T2300,3703A,114.2917,36.0949,安阳市,安钢职工学校,颗粒物(PM10),61,71,200,38,132,84,,122,100,7,23,6,12,0.5,1.4
2024-02-14T2300,1748A,123.044,41.1196,鞍山市,深沟寺,,37,37,39,17,22,57,,70,66,10,10,8,8,0.3,0.4
2024-02-14T2300,1749A,123.011,41.0931,鞍山市,太阳城,,38,38,47,14,23,63,,75,71,9,12,10,10,0.3,0.5
2024-02-14T2300,1750A,123.0485,41.1442,鞍山市,太平,,45,45,46,19,25,59,,71,67,11,12,6,8,0.3,0.4
2024-02-14T2300,1751A,122.9642,41.0971,鞍山市,铁西三道街,颗粒物(PM10),66,82,83,30,44,29,,48,33,42,37,34,26,3.0,2.4
2024-02-14T2300,1752A,122.9341,41.0833,鞍山市,铁西工业园区,,50,50,68,18,36,46,,63,58,29,27,18,15,1.2,1
2024-02-14T2300,1753A,123.022,41.0821,鞍山市,明达新区,颗粒物(PM10),59,67,60,33,31,55,,66,62,11,12,11,16,0.4,0.5
2024-02-14T2300,2195A,107.4212,40.761,巴彦淖尔市,附二中,颗粒物(PM10),121,191,407,39,79,75,,86,82,6,5,3,5,0.4,0.4
2024-02-14T2300,2196A,107.37,40.7372,巴彦淖尔市,市环保大楼,颗粒物(PM10),121,192,413,26,76,79,,88,85,2,3,3,5,0.4,0.4
2024-02-14T2300,1956A,86.1472,41.7538,巴音郭楞蒙古自治州,孔雀公园,颗粒物(PM10),92,134,190,37,36,57,,86,77,19,29,4,6,0.5,0.5
2024-02-14T2300,1957A,86.1972,41.7166,巴音郭楞蒙古自治州,棉纺厂,颗粒物(PM10),117,183,217,19,31,62,,86,79,8,27,3,4,0.4,0.4
2024-02-14T2300,1958A,86.2357,41.7173,巴音郭楞蒙古自治州,经济开发区,颗粒物(PM10),91,132,194,9,30,67,,90,84,14,13,5,4,0.3,0.3
2024-02-14T2300,2914A,106.7677,31.8794,巴中市,苏山坪,,30,30,50,14,34,84,,90,84,4,6,3,4,0.2,0.3
2024-02-14T2300,3182A,106.7656,31.8545,巴中市,丽阳花园,,30,30,64,14,47,79,,78,78,6,21,3,4,0.3,0.7
2024-02-14T2300,3183A,106.7418,31.8654,巴中市,圣泉水务公司,,34,34,54,15,40,81,,80,80,6,14,3,4,0.3,0.6
2024-02-14T2300,3616A,106.7616,31.8344,巴中市,市中心医院,,31,31,68,15,49,79,,78,78,6,20,4,4,0.4,0.7
2024-02-14T2300,2235A,122.7911,45.6077,白城市,洮北区环保局,,30,30,28,18,13,46,,70,53,6,6,5,6,0.4,0.4
2024-02-14T2300,2236A,122.8738,45.5725,白城市,市环保局,,45,45,35,22,12,52,,81,60,10,7,5,5,0.5,0.4
2024-02-14T2300,2231A,126.4219,41.9171,白山市,喜丰,,22,22,72,15,41,68,,66,66,7,21,7,16,0.8,1.3
2024-02-14T2300,2232A,126.4077,41.9419,白山市,环保局,,41,41,80,9,49,70,,68,68,8,22,9,15,0.7,1.2
2024-02-14T2300,2647A,104.1724,36.5446,白银市,第三小学,,43,43,44,9,10,82,,90,86,5,4,11,15,0.2,0.2
2024-02-14T2300,2648A,104.1465,36.5482,白银市,动力公司,,36,36,37,12,11,79,,90,86,9,7,5,5,0.5,0.5
2024-02-14T2300,2513A,106.6538,23.8859,百色市,市中心血站,细颗粒物(PM2.5),52,44,50,36,35,70,,79,72,8,11,21,20,0.7,0.8
2024-02-14T2300,3406A,106.6085,23.8798,百色市,祈福高中,细颗粒物(PM2.5),55,47,43,39,37,69,,80,72,9,11,19,13,0.8,0.7
2024-02-14T2300,2270A,117.396,32.939,蚌埠市,工人疗养院,细颗粒物(PM2.5),118,127,64,89,37,73,,106,96,26,14,12,8,0.7,0.6
2024-02-14T2300,2271A,117.3605,32.9427,蚌埠市,百货大楼,细颗粒物(PM2.5),135,141,66,103,41,44,,105,89,53,21,8,6,0.7,0.7
2024-02-14T2300,2273A,117.4185,32.8911,蚌埠市,蚌埠学院,细颗粒物(PM2.5),133,139,65,101,41,63,,108,93,27,11,16,9,0.8,0.7
2024-02-14T2300,2274A,117.3533,32.9673,蚌埠市,淮上区政府,细颗粒物(PM2.5),115,124,63,87,39,61,,108,93,26,14,9,8,0.8,0.7
2024-02-14T2300,2275A,117.3145,32.8977,蚌埠市,高新区,细颗粒物(PM2.5),158,156,65,120,45,36,,107,80,36,13,12,7,0.9,0.7
2024-02-14T2300,3715A,117.3092,32.9314,蚌埠市,蚌埠田家炳中学,细颗粒物(PM2.5),135,158,76,103,46,43,,106,82,38,18,14,16,0.6,0.5
2024-02-14T2300,1585A,109.8756,40.6532,包头市,市环境监测站,,34,34,27,10,10,77,,86,84,9,8,8,9,0.5,0.5
2024-02-14T2300,1587A,109.9991,40.5842,包头市,包头八中,,30,30,31,9,7,74,,87,84,10,7,6,6,0.5,0.5
2024-02-14T2300,1588A,109.8538,40.6821,包头市,青山宾馆,,27,27,23,8,7,78,,84,83,7,8,8,9,0.4,0.5
2024-02-14T2300,1589A,109.8642,40.6288,包头市,惠龙物流,,41,41,31,23,13,78,,87,84,7,7,9,10,0.2,0.3
2024-02-14T2300,1590A,110.0377,40.5546,包头市,东河鸿龙湾,,26,26,30,12,12,74,,82,80,13,13,10,9,0.4,0.4
2024-02-14T2300,3283A,109.9154,40.5685,包头市,滨河大厦,,34,34,23,21,11,85,,88,87,2,7,6,9,0.5,0.5
2024-02-14T2300,3419A,109.9447,40.6261,包头市,包头市委党校,,26,21,28,7,10,82,,86,85,3,5,8,10,0.4,0.4
2024-02-14T2300,3683A,109.8331,40.6576,包头市,昆区政府,,29,29,25,9,8,78,,86,84,10,8,8,9,0.3,0.4
2024-02-14T2300,1930A,107.185,34.3063,宝鸡市,庙沟村,,47,47,68,22,25,42,,81,49,11,6,5,6,0.5,0.6
2024-02-14T2300,1931A,107.0708,34.3017,宝鸡市,竹园沟,,25,21,57,17,29,31,,80,54,10,13,5,5,0.4,0.5
2024-02-14T2300,1932A,107.1906,34.3672,宝鸡市,三陆医院,细颗粒物(PM2.5),69,69,70,50,41,27,,84,58,31,25,6,6,0.6,0.5
2024-02-14T2300,1933A,107.1431,34.3547,宝鸡市,监测站,"颗粒物(PM10),细颗粒物(PM2.5)",54,57,72,38,39,30,,80,58,17,16,3,4,0.5,0.5
2024-02-14T2300,1934A,107.1186,34.3739,宝鸡市,技工学校,细颗粒物(PM2.5),82,69,74,60,49,40,,82,64,19,18,6,8,0.5,0.5
2024-02-14T2300,1935A,107.3906,34.3528,宝鸡市,陈仓区环保局家属楼,细颗粒物(PM2.5),77,64,90,56,47,35,,79,62,33,25,8,11,0.8,0.7
2024-02-14T2300,1936A,107.2058,34.3497,宝鸡市,文理学院,颗粒物(PM10),71,91,78,39,39,22,,83,60,40,23,6,6,0.4,0.4
2024-02-14T2300,1937A,107.2386,34.3622,宝鸡市,三迪小学,细颗粒物(PM2.5),72,70,74,52,42,32,,80,60,28,21,8,8,0.7,0.5
2024-02-14T2300,1051A,115.493,38.8632,保定市,游泳馆,颗粒物(PM10),85,120,199,58,127,48,,86,64,16,31,5,9,0.9,1.4
2024-02-14T2300,1052A,115.5213,38.8959,保定市,华电二区,细颗粒物(PM2.5),87,91,142,64,121,47,,82,61,13,16,7,9,0.8,1.2
2024-02-14T2300,1053A,115.4713,38.9108,保定市,接待中心,颗粒物(PM10),72,94,154,44,115,48,,78,61,11,18,9,10,0.9,1.3
2024-02-14T2300,1054A,115.4612,38.8416,保定市,地表水厂,颗粒物(PM10),89,127,193,58,129,52,,84,61,15,38,7,8,0.7,1.6
2024-02-14T2300,3581A,115.31981,38.95208,保定市,满城区生态环境分局,细颗粒物(PM2.5),135,158,152,103,109,31,,81,58,33,35,7,9,1.1,1.2
2024-02-14T2300,3582A,115.47694,38.76408,保定市,清苑区第二中学,颗粒物(PM10),92,134,197,65,122,42,,85,59,19,31,7,11,0.8,1.2
2024-02-14T2300,3583A,115.62909,39.02311,保定市,徐水物探局,颗粒物(PM10),75,100,153,31,91,55,,78,66,2,12,4,7,0.6,1
2024-02-14T2300,4004A,115.4202,38.8656,保定市,双鹰农机,细颗粒物(PM2.5),95,122,149,71,108,48,,88,65,21,25,7,9,0.8,1.2
2024-02-14T2300,4034A,115.5150,38.8590,保定市,植保所站,细颗粒物(PM2.5),83,98,151,61,125,47,,85,61,24,33,6,8,0.6,1.1
2024-02-14T2300,2594A,99.1678,25.1081,保山市,市环境监测站,,36,36,27,25,19,62,,88,77,9,7,6,6,0.7,0.5
2024-02-14T2300,2595A,99.1711,25.1328,保山市,市环保局,,30,26,28,21,15,76,,91,83,4,4,8,7,0.4,0.4
2024-02-14T2300,1867A,109.1436,21.4086,北海市,海滩公园,,40,40,60,17,24,81,,102,94,6,7,7,7,0.5,0.6
2024-02-14T2300,1868A,109.0981,21.4661,北海市,新市环保局,,45,45,49,29,26,82,,96,92,8,8,7,6,0.2,0.2
2024-02-14T2300,1869A,109.1778,21.5233,北海市,北海工业园,,46,46,51,29,28,72,,99,90,9,8,6,6,0.5,0.4
2024-02-14T2300,3400A,109.1911,21.4415,北海市,龙潭自来水厂,,43,43,52,27,26,77,,98,92,5,6,6,7,0.4,0.5
2024-02-14T2300,1001A,116.3621,39.8784,北京市,万寿西宫,,22,9,68,5,44,69,,70,68,7,30,1,3,0.2,0.5
2024-02-14T2300,1002A,116.2202,40.2915,北京市,定陵,,24,7,40,5,28,76,,81,81,4,6,3,3,0.1,0.3
2024-02-14T2300,1003A,116.4174,39.9289,北京市,东四,,21,12,68,7,46,67,,76,70,12,29,3,4,0.3,0.6
2024-02-14T2300,1004A,116.4072,39.8863,北京市,天坛,,22,10,62,5,46,68,,75,71,13,31,1,2,0.2,0.6
2024-02-14T2300,1005A,116.462,39.9365,北京市,农展馆,,20,9,68,4,46,62,,68,63,12,27,3,4,0.2,0.5
2024-02-14T2300,1006A,116.3392,39.9295,北京市,官园,,24,11,64,5,40,74,,81,77,12,22,1,3,0.3,0.6
2024-02-14T2300,1007A,116.2878,39.9611,北京市,海淀万柳,,20,11,60,5,40,63,,73,70,16,27,3,3,0.2,0.4
2024-02-14T2300,1008A,116.6636,40.135,北京市,顺义新城,,22,12,76,6,52,70,,82,76,6,16,1,2,0.2,0.5
2024-02-14T2300,1009A,116.6275,40.3275,北京市,怀柔镇,,24,3,58,3,40,76,,77,70,3,11,4,4,0.3,0.5
2024-02-14T2300,1010A,116.2296,40.217,北京市,昌平镇,,24,11,49,5,29,74,,87,84,3,13,3,3,0.5,0.3
2024-02-14T2300,1011A,116.3966,39.9821,北京市,奥体中心,,21,10,56,5,38,67,,75,71,5,21,4,5,0.1,0.4
2024-02-14T2300,1012A,116.184,39.9136,北京市,古城,,25,9,60,4,37,77,,78,73,2,15,3,2,0.3,0.6
2024-02-14T2300,3281A,115.9718,40.4529,北京市,延庆夏都,,20,12,59,7,41,64,,74,73,3,14,3,3,0.2,0.5
2024-02-14T2300,3417A,117.0709,40.1465,北京市,平谷新城,,35,35,93,21,65,64,,86,79,8,10,5,2,0.2,0.7
2024-02-14T2300,3418A,116.8336,40.4095,北京市,密云新城,,25,5,61,3,39,79,,88,80,1,8,3,2,0.2,0.4
2024-02-14T2300,3672A,116.1541,39.8204,北京市,丰台云岗,,24,12,57,5,33,75,,82,75,8,13,3,2,0.1,0.3
2024-02-14T2300,3673A,116.6804,39.9081,北京市,通州东关,,22,7,84,4,59,70,,77,73,3,21,1,2,0.2,0.6
2024-02-14T2300,3674A,115.9577,39.7603,北京市,房山燕山,,26,11,58,6,43,82,,92,91,5,10,3,3,0.2,0.4
2024-02-14T2300,3675A,116.4672,39.7733,北京市,大兴旧宫,,20,10,76,5,54,61,,72,68,14,27,2,2,0.2,0.5
2024-02-14T2300,3694A,115.986,40.4563,北京市,延庆石河营,,22,12,56,6,39,70,,80,79,2,13,1,2,0.2,0.6
2024-02-14T2300,3695A,116.6151,40.3053,北京市,怀柔新城,,24,4,60,3,41,75,,75,71,2,8,3,2,0.1,0.4
2024-02-14T2300,3696A,116.2545,39.8768,北京市,丰台小屯,,22,13,70,5,41,69,,77,70,13,25,3,2,0.2,0.5
2024-02-14T2300,3697A,116.84,40.3844,北京市,密云镇,,24,6,66,4,48,74,,77,73,3,13,1,1,0.2,0.4
2024-02-14T2300,1761A,123.8275,41.3064,本溪市,大峪,,27,27,42,17,26,58,,75,65,10,15,8,10,0.7,0.8
2024-02-14T2300,1762A,123.7567,41.3325,本溪市,溪湖,,21,21,43,12,25,62,,77,69,7,13,9,14,0.5,0.8
2024-02-14T2300,1763A,123.7169,41.3094,本溪市,彩屯,,22,18,42,15,31,59,,70,66,12,22,8,18,0.5,1.1
2024-02-14T2300,1764A,123.7669,41.2864,本溪市,东明,,37,37,58,23,38,56,,64,61,12,21,10,13,0.4,0.6
2024-02-14T2300,1765A,123.7992,41.2664,本溪市,新立屯,,37,37,48,25,32,56,,75,63,12,18,10,12,0.5,0.5
2024-02-14T2300,1766A,123.8142,41.3472,本溪市,威宁,,31,31,49,14,27,53,,64,62,12,22,6,6,0.5,0.6
2024-02-14T2300,2587A,105.2864,27.3125,毕节市,八中,细颗粒物(PM2.5),100,88,73,75,61,110,,106,106,6,9,8,9,0.7,0.7
2024-02-14T2300,2588A,105.31,27.2944,毕节市,师专,细颗粒物(PM2.5),102,86,86,76,71,106,,103,103,7,17,8,9,0.8,0.9
2024-02-14T2300,3537A,105.3631,27.3533,毕节市,长征村,细颗粒物(PM2.5),163,156,109,124,86,119,,113,113,8,8,10,10,0.9,0.9
2024-02-14T2300,1629A,118.0018,37.3617,滨州市,第二水厂,,31,31,113,8,62,71,,72,71,12,30,5,18,0.5,1.1
2024-02-14T2300,1630A,117.9776,37.393,滨州市,北中新校,,34,34,119,11,66,70,,72,70,10,42,8,16,0.5,1.1
2024-02-14T2300,3514A,117.9378,37.3956,滨州市,中海酒店,,29,29,111,11,67,67,,70,68,8,43,8,16,0.6,1.1
2024-02-14T2300,3515A,117.9378,37.3553,滨州市,开发区一中,,35,35,113,7,61,73,,74,73,10,23,11,26,0.3,0.7
2024-02-14T2300,3516A,118.0917,37.694,滨州市,金海六路,,30,30,126,8,76,70,,78,76,7,32,10,14,0.3,0.8
2024-02-14T2300,4028A,117.9956,37.3753,滨州市,滨州市西街道办事处,,23,23,115,13,68,68,,70,69,12,37,10,19,0.5,1.1
2024-02-14T2300,2311A,115.8072,33.8399,亳州市,污水处理厂,颗粒物(PM10),130,210,98,79,63,71,,100,89,11,13,9,10,0.8,0.8
2024-02-14T2300,2312A,115.7789,33.8518,亳州市,三国揽胜宫,颗粒物(PM10),142,233,107,71,63,66,,95,82,14,17,9,11,0.9,0.9
2024-02-14T2300,3332A,115.7633,33.8034,亳州市,亳州学院,颗粒物(PM10),131,212,100,76,65,70,,99,88,10,10,9,10,1.2,1.1
2024-02-14T2300,2693A,82.0485,44.8556,博尔塔拉蒙古自治州,市党校,"颗粒物(PM10),细颗粒物(PM2.5)",55,59,38,39,24,74,,85,84,18,13,9,9,0.7,0.6
2024-02-14T2300,2694A,82.0806,44.8969,博尔塔拉蒙古自治州,市环保局,,39,39,38,20,20,75,,78,78,12,13,4,5,0.3,0.3
2024-02-14T2300,1071A,116.8842,38.2991,沧州市,沧县城建局,颗粒物(PM10),55,59,140,23,98,61,,75,63,15,31,7,7,1.0,1.4
2024-02-14T2300,1072A,116.8584,38.3254,沧州市,电视转播站,颗粒物(PM10),53,55,140,9,92,64,,79,68,16,34,12,13,0.5,0.9
2024-02-14T2300,1073A,116.8709,38.3228,沧州市,市环保局,颗粒物(PM10),56,61,135,26,98,61,,75,64,16,28,6,9,0.4,0.8
2024-02-14T2300,3324A,116.8136,38.3004,沧州市,河北水利电力学院,颗粒物(PM10),54,58,134,24,84,64,,76,66,12,21,12,14,0.3,0.7
2024-02-14T2300,2622A,97.1806,31.1273,昌都市,昌都监测站,,39,39,24,18,12,40,,71,58,21,14,8,7,0.5,0.3
2024-02-14T2300,3719A,97.1714,31.1406,昌都市,昌都会议中心,,22,12,10,12,9,68,,83,76,6,5,5,4,0.3,0.3
2024-02-14T2300,2690A,88.1236,43.8886,昌吉回族自治州,天山天池,,23,9,4,0,3,72,,78,73,4,6,7,7,0.6,0.6
2024-02-14T2300,2692A,87.2717,44.0297,昌吉回族自治州,新区政务中心,细颗粒物(PM2.5),70,75,66,51,50,44,,70,61,36,33,6,5,0.8,1
2024-02-14T2300,3613A,87.3095,44.0142,昌吉回族自治州,亚心广场,细颗粒物(PM2.5),119,105,64,90,53,45,,68,59,38,33,,16,1.0,0.8
2024-02-14T2300,1119A,125.3325,43.9166,长春市,食品厂,细颗粒物(PM2.5),77,91,57,56,31,40,,66,50,28,18,9,8,0.4,0.3
2024-02-14T2300,1120A,125.2863,43.9027,长春市,客车厂,颗粒物(PM10),65,79,45,41,24,45,,58,50,24,17,11,10,0.6,0.5
2024-02-14T2300,1121A,125.2841,43.8463,长春市,邮电学院,颗粒物(PM10),65,79,49,39,21,46,,66,52,23,19,14,16,0.4,0.4
2024-02-14T2300,1122A,125.3716,43.8772,长春市,劳动公园,颗粒物(PM10),54,57,47,30,18,53,,63,57,41,26,5,4,0.5,0.2
2024-02-14T2300,1123A,125.3297,43.8805,长春市,园林处,颗粒物(PM10),64,77,40,34,10,54,,68,57,19,12,15,8,0.4,0.3
2024-02-14T2300,1124A,125.4605,43.79,长春市,净月潭,颗粒物(PM10),59,68,46,25,14,52,,69,62,10,9,6,7,0.3,0.3
2024-02-14T2300,1126A,125.3863,43.8447,长春市,经开区环卫处,颗粒物(PM10),54,57,40,20,14,61,,68,61,10,10,7,8,0.3,0.3
2024-02-14T2300,1127A,125.245,43.7783,长春市,高新区管委会,,,135,47,,15,22,,74,52,38,14,18,11,0.5,0.6
2024-02-14T2300,1128A,125.1761,43.8325,长春市,岱山公园,细颗粒物(PM2.5),77,86,38,56,19,44,,73,61,20,10,5,5,0.6,0.4
2024-02-14T2300,1335A,113.0833,28.2325,长沙市,经开区环保局,细颗粒物(PM2.5),83,82,48,61,32,51,,105,88,24,5,7,6,0.7,0.5
2024-02-14T2300,1336A,112.8872,28.2189,长沙市,高开区环保局,颗粒物(PM10),69,88,51,46,32,47,,95,76,15,6,11,8,0.7,0.7
2024-02-14T2300,1337A,113.0792,28.2053,长沙市,马坡岭,细颗粒物(PM2.5),97,114,53,72,38,29,,91,72,26,6,9,8,0.7,0.6
2024-02-14T2300,1338A,112.9394,28.19,长沙市,湖南师范大学,细颗粒物(PM2.5),98,90,55,73,36,33,,90,68,18,11,10,8,0.7,0.7
2024-02-14T2300,1339A,113.0178,28.1322,长沙市,雨花区环保局,颗粒物(PM10),71,91,51,47,32,52,,93,78,20,6,7,5,0.6,0.5
2024-02-14T2300,1340A,112.9792,28.2597,长沙市,伍家岭,,,,65,,44,5,,71,,48,21,18,8,1.0,0.7
2024-02-14T2300,1341A,113.0014,28.1944,长沙市,火车新站,细颗粒物(PM2.5),175,161,61,132,44,10,,94,60,58,25,9,5,1.5,0.9
2024-02-14T2300,1342A,112.9844,28.1178,长沙市,天心区环保局,细颗粒物(PM2.5),115,97,56,87,40,34,,96,78,35,6,8,7,0.3,0.3
2024-02-14T2300,1343A,112.8908,28.1308,长沙市,湖南中医药大学,细颗粒物(PM2.5),124,168,68,94,54,5,,92,55,40,18,7,6,0.7,0.7
2024-02-14T2300,1344A,112.9581,28.3611,长沙市,沙坪,细颗粒物(PM2.5),63,60,41,45,30,57,,87,81,10,10,3,6,0.6,0.6
2024-02-14T2300,1727A,113.1147,36.1547,长治市,清华站,细颗粒物(PM2.5),52,40,76,36,45,47,,77,66,19,24,10,23,0.7,0.9
2024-02-14T2300,1728A,113.1031,36.1989,长治市,监测站,,49,40,84,34,50,42,,75,63,26,33,11,28,0.7,1
2024-02-14T2300,1730A,113.0886,36.2125,长治市,审计局,,45,43,71,31,47,42,,77,64,17,25,13,28,0.8,1.5
2024-02-14T2300,1731A,113.0844,36.1856,长治市,长治八中,,36,33,82,25,49,44,,78,66,19,24,7,21,0.8,0.9
2024-02-14T2300,2845A,113.1569,36.1911,长治市,德盛苑,,42,39,62,29,41,58,,82,67,17,20,10,29,1.0,1.1
2024-02-14T2300,3568A,113.06,36.0464,长治市,向阳小学,颗粒物(PM10),51,51,75,33,50,54,,90,75,20,21,7,31,0.8,0.9
2024-02-14T2300,3569A,112.8792,36.3144,长治市,屯留一中,细颗粒物(PM2.5),77,58,56,56,40,37,,89,64,21,17,8,16,0.8,0.7
2024-02-14T2300,3570A,113.235,36.3489,长治市,潞城四中,细颗粒物(PM2.5),67,,95,48,62,46,,101,89,29,28,8,37,0.6,1.2
2024-02-14T2300,1854A,111.6975,28.9703,常德市,市二中,细颗粒物(PM2.5),59,44,43,42,34,63,,72,69,10,17,8,8,0.8,0.7
2024-02-14T2300,1857A,111.7158,29.1456,常德市,白鹤山,细颗粒物(PM2.5),84,93,64,62,36,36,,62,55,2,2,5,3,0.8,0.6
2024-02-14T2300,3138A,111.7153,29.0289,常德市,武陵区永安,细颗粒物(PM2.5),63,52,52,45,37,66,,83,79,5,9,8,9,1.0,1
2024-02-14T2300,3139A,111.6892,28.9881,常德市,鼎城区玉霞,细颗粒物(PM2.5),60,50,50,43,38,65,,82,78,9,13,10,9,0.8,0.7
2024-02-14T2300,3140A,111.6625,29.0531,常德市,武陵区长庚,细颗粒物(PM2.5),70,65,60,51,41,67,,84,78,5,12,8,7,0.9,0.9
2024-02-14T2300,1196A,119.9633,31.762,常州市,市监测站,细颗粒物(PM2.5),168,211,74,127,48,8,,103,64,73,16,10,9,1.3,0.7
2024-02-14T2300,1200A,119.9468,31.7069,常州市,武进监测站,细颗粒物(PM2.5),70,80,55,51,37,40,,100,78,49,13,7,8,1.0,0.7
2024-02-14T2300,1201A,119.9255,31.9087,常州市,安家,细颗粒物(PM2.5),128,117,60,97,43,45,,108,85,30,14,10,9,0.9,0.8
2024-02-14T2300,3002A,119.9805,31.8174,常州市,行政中心,细颗粒物(PM2.5),133,103,53,101,39,32,,101,80,56,15,13,11,1.0,0.5
2024-02-14T2300,3003A,120.0522,31.7748,常州市,经开区,细颗粒物(PM2.5),94,114,64,70,34,49,,104,86,34,15,11,11,0.7,0.7
2024-02-14T2300,3010A,119.9025,31.7964,常州市,钟楼,细颗粒物(PM2.5),107,102,60,80,43,27,,101,69,58,21,9,9,1.2,0.8
2024-02-14T2300,3429A,119.8598,31.7066,常州市,武进经发区,细颗粒物(PM2.5),84,78,58,62,44,59,,104,85,32,10,8,7,1.1,0.9
2024-02-14T2300,3430A,119.5826,31.7245,常州市,金坛城区,细颗粒物(PM2.5),78,77,71,57,51,73,,101,90,20,12,11,12,0.7,0.7
2024-02-14T2300,2220A,120.4318,41.5881,朝阳市,西梁,细颗粒物(PM2.5),57,50,29,40,14,40,,86,72,31,7,15,13,0.9,0.6
2024-02-14T2300,2221A,120.4521,41.5646,朝阳市,河畔小区,细颗粒物(PM2.5),72,65,34,52,12,49,,79,69,18,6,10,8,0.7,0.5
2024-02-14T2300,2222A,120.4176,41.5648,朝阳市,八里堡,颗粒物(PM10),55,59,47,32,16,52,,82,70,18,7,14,12,0.9,0.6
2024-02-14T2300,2223A,120.3806,41.5969,朝阳市,农业园区,,23,20,22,16,10,58,,84,67,11,8,6,7,0.5,0.4
2024-02-14T2300,1705A,116.6367,23.6719,潮州市,西园路,细颗粒物(PM2.5),129,141,73,98,52,44,,105,85,17,10,6,4,0.5,0.5
2024-02-14T2300,3026A,116.6183,23.6608,潮州市,市政府,细颗粒物(PM2.5),104,106,66,78,45,31,,108,81,36,14,9,6,1.3,0.8
2024-02-14T2300,4036A,116.6461,23.6761,潮州市,金山,细颗粒物(PM2.5),127,125,69,96,55,32,,101,76,20,11,8,6,0.7,0.5
2024-02-14T2300,2472A,113.0073,25.9061,郴州市,马头岭,,32,32,33,7,11,58,,81,65,10,10,4,5,0.5,0.3
2024-02-14T2300,2473A,113.0116,25.8226,郴州市,市职中,,36,31,30,25,21,73,,86,78,4,5,7,6,0.2,0.3
2024-02-14T2300,2474A,113.0161,25.8001,郴州市,兴隆步行街,,36,34,34,25,21,80,,95,83,6,5,3,3,0.4,0.4
2024-02-14T2300,2475A,113.0383,25.8071,郴州市,市审计局,,40,36,30,28,20,70,,96,82,6,4,3,3,0.3,0.3
2024-02-14T2300,2476A,113.0348,25.7759,郴州市,市环保局,,40,40,35,24,20,75,,96,82,7,8,3,3,0.4,0.4
2024-02-14T2300,1431A,103.9728,30.7236,成都市,金泉两河,颗粒物(PM10),52,53,70,28,59,40,,70,57,11,26,3,2,0.4,0.8
2024-02-14T2300,1432A,104.176,30.6872,成都市,十里店,细颗粒物(PM2.5),62,58,78,44,64,63,,81,71,14,23,1,4,0.2,0.5
2024-02-14T2300,1433A,104.079,30.5706,成都市,三瓦窑,颗粒物(PM10),54,57,92,23,61,59,,75,68,11,39,3,3,0.3,0.8
2024-02-14T2300,1434A,104.1114,30.63,成都市,沙河铺,颗粒物(PM10),60,69,91,37,69,53,,73,65,17,32,3,3,0.4,0.7
2024-02-14T2300,1437A,104.0786,30.6531,成都市,君平街,颗粒物(PM10),54,57,87,35,67,55,,79,69,21,38,4,8,0.2,0.6
2024-02-14T2300,1438A,103.613,31.0283,成都市,灵岩寺,,37,37,59,22,44,68,,116,85,16,15,3,8,0.6,0.7
2024-02-14T2300,2880A,104.0239,30.65639,成都市,大石西路,颗粒物(PM10),57,63,87,37,66,52,,79,70,20,35,2,4,0.5,0.8
2024-02-14T2300,3136A,104.2725,30.5589,成都市,龙泉驿区区政府,颗粒物(PM10),54,58,81,27,56,57,,78,69,16,14,2,4,0.5,0.7
2024-02-14T2300,3357A,104.0106,30.6931,成都市,金博路,细颗粒物(PM2.5),64,74,94,46,68,42,,71,61,16,33,3,3,0.4,0.7
2024-02-14T2300,3359A,104.0578,30.5225,成都市,华阳,,48,48,92,24,74,56,,70,65,5,24,1,2,0.5,1
2024-02-14T2300,3487A,104.2394,30.5319,成都市,车城东七路,,43,43,82,19,66,55,,79,68,21,20,1,3,0.3,0.7
2024-02-14T2300,3488A,104.3853,30.7453,成都市,青白江技师分院,颗粒物(PM10),53,55,84,22,53,58,,84,78,17,19,4,7,0.5,0.8
2024-02-14T2300,3489A,104.0789,30.4072,成都市,科学城,,36,36,79,19,67,73,,87,81,5,15,4,4,0.4,0.7
2024-02-14T2300,4011A,103.8506,30.6947,成都市,光华大道三段,颗粒物(PM10),52,54,87,34,62,44,,66,57,9,22,3,4,0.4,0.9
2024-02-14T2300,1062A,117.9531,40.9081,承德市,铁路,细颗粒物(PM2.5),69,70,94,50,60,81,,81,81,5,27,9,10,0.2,0.9
2024-02-14T2300,1063A,117.9392,40.9763,承德市,中国银行,,38,38,87,10,50,71,,78,76,12,24,8,9,0.3,0.8
2024-02-14T2300,1064A,117.9503,40.928,承德市,开发区,,28,27,85,16,53,88,,88,88,5,26,4,7,0.2,0.8
2024-02-14T2300,1065A,117.8051,40.9655,承德市,文化中心,,36,36,98,2,50,79,,79,78,6,26,5,8,0.2,0.8
2024-02-14T2300,1066A,117.9268,41.0026,承德市,离宫,,29,20,65,20,46,72,,78,76,3,14,4,6,0.3,0.6
2024-02-14T2300,2314A,117.47,30.6618,池州市,池州学院,细颗粒物(PM2.5),82,84,46,60,33,29,,84,64,44,22,8,11,1.6,1
2024-02-14T2300,3237A,117.4918,30.6617,池州市,展览馆,细颗粒物(PM2.5),59,65,48,42,33,15,,84,45,23,15,4,5,1.4,0.8
2024-02-14T2300,3333A,117.5627,30.695,池州市,第八中学,,45,43,39,31,29,61,,90,80,10,11,6,10,1.1,0.7
2024-02-14T2300,3334A,117.5038,30.6243,池州市,第十二中学,细颗粒物(PM2.5),75,70,44,55,32,26,,89,62,23,17,6,7,1.7,0.8
2024-02-14T2300,1744A,118.9233,42.2816,赤峰市,松山一中,细颗粒物(PM2.5),54,52,28,38,12,54,,72,63,17,14,14,9,0.6,0.5
2024-02-14T2300,1745A,118.9576,42.2728,赤峰市,哈达街,细颗粒物(PM2.5),74,71,32,54,16,56,,68,61,16,15,17,18,0.7,0.6
2024-02-14T2300,1746A,118.8788,42.2554,赤峰市,天义路,细颗粒物(PM2.5),54,39,18,38,14,55,,68,58,12,14,13,13,0.5,0.4
2024-02-14T2300,3058A,119.2658,42.0353,赤峰市,银河街,细颗粒物(PM2.5),113,94,45,85,23,40,,66,57,26,12,22,15,0.7,0.4
2024-02-14T2300,3286A,118.9359,42.3147,赤峰市,桥北物流园区,,40,40,21,18,10,55,,78,69,11,7,12,9,0.7,0.6
2024-02-14T2300,2521A,107.3476,22.4136,崇左市,市环保局江州分局,细颗粒物(PM2.5),57,61,85,40,58,61,,81,74,8,17,8,8,0.5,0.6
2024-02-14T2300,2522A,107.3702,22.3707,崇左市,城南新区,细颗粒物(PM2.5),92,81,70,68,58,56,,82,74,15,16,8,7,0.4,0.5
2024-02-14T2300,2298A,118.3093,32.3153,滁州市,老年大学,细颗粒物(PM2.5),124,117,83,94,66,40,,96,63,31,32,11,9,0.9,1
2024-02-14T2300,2299A,118.3244,32.2786,滁州市,人大宾馆,细颗粒物(PM2.5),145,175,71,111,54,30,,99,60,59,35,9,8,1.0,0.8
2024-02-14T2300,3207A,118.3118,32.3038,滁州市,市政府原办公楼,细颗粒物(PM2.5),137,139,77,104,57,33,,98,64,52,35,7,7,1.0,0.8
2024-02-14T2300,3331A,118.3267,32.2634,滁州市,图书馆,细颗粒物(PM2.5),100,121,63,75,43,43,,99,74,44,23,10,9,1.0,0.8
2024-02-14T2300,2605A,101.5482,25.0441,楚雄彝族自治州,州环境监测站,,28,25,25,15,20,88,,93,87,5,12,6,6,0.4,0.5
2024-02-14T2300,2606A,101.538,25.0492,楚雄彝族自治州,市经济开发区,,33,33,28,20,21,76,,87,78,10,14,6,7,0.6,0.6
2024-02-14T2300,2548A,107.5277,31.2827,达州市,达州职业技术学院,颗粒物(PM10),65,79,82,39,57,77,,41,41,6,25,8,14,0.3,1
2024-02-14T2300,2549A,107.5086,31.2186,达州市,市环境监测站,颗粒物(PM10),64,78,90,24,62,64,,28,28,15,42,7,15,0.6,1.4
2024-02-14T2300,2550A,107.4988,31.2132,达州市,凤凰小区,颗粒物(PM10),64,78,91,29,65,69,,28,28,10,43,6,16,0.4,1.4
2024-02-14T2300,2551A,107.5082,31.1986,达州市,达县机关宾馆,颗粒物(PM10),64,78,91,34,60,63,,22,20,16,47,6,8,0.6,1.2
2024-02-14T2300,2552A,107.4644,31.2124,达州市,市政中心,颗粒物(PM10),58,66,103,22,67,65,,24,24,15,51,6,29,0.3,2.1
2024-02-14T2300,2614A,100.1542,25.7054,大理白族自治州,大理市环境监测站,,33,25,21,23,15,92,,93,93,4,4,7,7,0.4,0.4
2024-02-14T2300,2615A,100.2171,25.5811,大理白族自治州,大理古城,,37,37,23,25,17,64,,93,80,23,13,7,7,0.5,0.5
2024-02-14T2300,1109A,121.612,38.9741,大连市,甘井子,颗粒物(PM10),53,55,65,28,36,65,,75,67,11,15,5,6,0.7,0.7
2024-02-14T2300,1110A,121.565,38.9511,大连市,周水子,颗粒物(PM10),54,57,65,30,41,66,,76,69,12,14,7,5,0.5,0.8
2024-02-14T2300,1111A,121.5637,38.8845,大连市,星海三站,颗粒物(PM10),56,62,70,35,51,62,,67,64,12,21,13,8,0.6,0.8
2024-02-14T2300,1112A,121.6302,38.9117,大连市,青泥洼桥,颗粒物(PM10),55,59,59,28,42,65,,78,67,12,18,12,10,0.5,0.8
2024-02-14T2300,1113A,121.6251,38.8638,大连市,傅家庄,,41,41,59,13,41,57,,77,66,9,13,15,14,0.7,1
2024-02-14T2300,1114A,121.5213,38.8661,大连市,七贤岭,细颗粒物(PM2.5),55,51,80,39,51,63,,70,68,9,16,10,10,0.6,0.7
2024-02-14T2300,1115A,121.2529,38.8061,大连市,旅顺,,40,40,63,18,40,70,,80,77,8,17,7,7,0.6,0.9
2024-02-14T2300,1116A,121.7485,39.1311,大连市,金州,,42,42,47,21,31,67,,90,72,11,15,9,9,0.7,1
2024-02-14T2300,1117A,121.7811,39.0496,大连市,开发区,,49,49,60,20,37,64,,88,69,12,16,6,5,0.7,1
2024-02-14T2300,1118A,121.9762,39.0631,大连市,双D港,颗粒物(PM10),51,52,64,12,32,68,,92,72,12,13,10,8,0.7,0.9
2024-02-14T2300,1789A,124.81117,46.03138,大庆市,大同区,细颗粒物(PM2.5),109,93,30,82,17,37,,68,57,22,7,8,6,0.5,0.3
2024-02-14T2300,1790A,125.129,46.533,大庆市,龙凤区,细颗粒物(PM2.5),60,50,38,43,23,54,,67,58,19,13,5,5,0.6,0.4
2024-02-14T2300,1791A,124.902,46.408,大庆市,红岗区,细颗粒物(PM2.5),59,,28,42,21,64,,75,66,9,8,7,6,0.4,0.4
2024-02-14T2300,1792A,125.153,46.586,大庆市,萨尔图区,细颗粒物(PM2.5),67,,31,48,23,49,,66,51,19,12,8,9,0.6,0.5
2024-02-14T2300,1793A,124.9042,46.6215,大庆市,让胡路区,,43,40,40,30,27,64,,68,56,8,10,8,8,0.4,0.4
2024-02-14T2300,3481A,125.141,46.634,大庆市,萨区政府监测点,细颗粒物(PM2.5),69,57,26,50,19,51,,72,64,26,11,10,9,0.7,0.5
2024-02-14T2300,1723A,113.2994,40.0758,大同市,云冈宾馆,,25,25,36,16,16,68,,86,79,14,12,5,6,0.4,0.4
2024-02-14T2300,1724A,113.3444,40.0917,大同市,大同大学,,20,20,38,10,17,61,,79,71,14,13,11,12,0.4,0.6
2024-02-14T2300,1725A,113.2661,40.1269,大同市,安家小村,,22,15,31,11,11,68,,83,78,2,4,10,11,0.5,0.5
2024-02-14T2300,1726A,113.2711,40.0844,大同市,教育学院,,36,36,40,24,15,67,,81,77,12,13,8,8,0.4,0.4
2024-02-14T2300,3282A,113.3397,40.0597,大同市,大同市卫生学校,,23,14,34,12,16,71,,82,78,5,8,5,7,0.4,0.6
2024-02-14T2300,3565A,113.1367,40.1122,大同市,云冈站,,20,20,37,8,15,38,,84,72,30,11,20,11,0.4,0.4
2024-02-14T2300,3566A,113.1186,40.2556,大同市,图书馆,,28,28,37,16,19,65,,78,73,12,13,14,13,0.5,0.5
2024-02-14T2300,3567A,113.5931,40.0461,大同市,区一中,,40,29,46,28,22,62,,77,72,10,11,5,12,0.4,0.5
2024-02-14T2300,3676A,113.2802,40.0995,大同市,第二人民医院,,25,19,37,17,14,70,,87,80,10,10,2,3,0.4,0.4
2024-02-14T2300,2269A,124.1069,50.4097,大兴安岭地区,科技局,,39,27,29,27,26,64,,64,56,5,8,8,10,0.4,0.4
2024-02-14T2300,3663A,124.1164,50.4278,大兴安岭地区,红旗社区,,20,,33,12,34,64,,55,52,4,24,8,21,0.4,0.4
2024-02-14T2300,1600A,124.3303,40.0625,丹东市,江湾东路,,28,28,80,17,54,67,,65,60,2,12,8,16,0.4,1.4
2024-02-14T2300,1601A,124.4256,40.1503,丹东市,临江后街,,28,28,79,13,47,65,,62,60,6,17,6,12,0.6,1.1
2024-02-14T2300,1602A,124.3933,40.1461,丹东市,元宝山,,26,26,72,15,44,62,,68,56,6,15,6,10,0.4,0.8
2024-02-14T2300,1603A,124.3633,40.1092,丹东市,民主桥,,35,35,78,13,45,61,,54,52,4,26,8,12,0.6,1.2
2024-02-14T2300,3541A,109.5726,19.5167,儋州市,第一中学子站,,33,33,30,17,15,64,,77,71,2,2,5,5,0.6,0.5
2024-02-14T2300,3542A,109.5567,19.5187,儋州市,东坡学校子站,,37,37,32,16,16,69,,81,76,3,3,4,4,0.4,0.4
2024-02-14T2300,2616A,98.5842,24.428,德宏傣族景颇族自治州,德宏州监测站,细颗粒物(PM2.5),55,51,42,39,33,62,,90,80,14,26,8,20,0.7,0.6
2024-02-14T2300,3677A,98.5881,24.4368,德宏傣族景颇族自治州,芒市人民政府综合楼,细颗粒物(PM2.5),58,58,40,41,28,50,,85,76,18,18,8,13,0.8,0.6
2024-02-14T2300,1901A,104.4239,31.1208,德阳市,东山公园,颗粒物(PM10),51,52,77,21,53,77,,85,78,6,14,1,6,0.3,0.6
2024-02-14T2300,1902A,104.3826,31.1317,德阳市,西小区,颗粒物(PM10),53,55,93,28,68,58,,71,67,16,31,1,7,0.3,0.7
2024-02-14T2300,1904A,104.3553,31.1091,德阳市,耐火材料厂,颗粒物(PM10),51,52,86,30,66,56,,68,64,11,20,2,8,0.3,0.6
2024-02-14T2300,3639A,104.4019,31.1244,德阳市,市教育局,颗粒物(PM10),51,51,79,19,57,66,,73,69,12,30,1,4,0.3,0.7
2024-02-14T2300,1622A,116.3032,37.4674,德州市,儿童乐园,颗粒物(PM10),52,53,131,12,72,70,,82,77,7,22,12,11,0.6,1.1
2024-02-14T2300,1624A,116.2991,37.4451,德州市,监理站,,48,48,125,12,69,73,,84,79,14,28,13,14,0.5,0.9
2024-02-14T2300,3066A,116.2721,37.4379,德州市,九衢泉纯净水厂,颗粒物(PM10),51,52,132,17,71,70,,81,76,14,32,10,11,0.5,1
2024-02-14T2300,3371A,116.3728,37.4403,德州市,开发区人民医院,,48,48,130,14,68,67,,81,75,10,18,12,11,0.4,0.8
2024-02-14T2300,3372A,116.3572,37.4094,德州市,太阳城中学,颗粒物(PM10),51,51,121,23,77,66,,82,75,3,14,11,11,0.6,1
2024-02-14T2300,3511A,116.5652,37.3319,德州市,陵城艺术中心,颗粒物(PM10),56,61,133,22,77,62,,79,72,14,18,11,13,0.5,1
2024-02-14T2300,2621A,99.7056,27.8317,迪庆藏族自治州,迪庆州站,,27,24,22,16,14,86,,88,88,8,7,9,8,0.4,0.4
2024-02-14T2300,3180A,99.7136,27.8094,迪庆藏族自治州,质量技术监督局,,26,19,16,13,14,83,,86,85,4,5,8,8,0.4,0.4
2024-02-14T2300,2663A,104.6241,35.5734,定西市,东关小学,细颗粒物(PM2.5),55,58,69,39,24,64,,77,68,11,9,13,17,0.5,0.3
2024-02-14T2300,2664A,104.6194,35.5934,定西市,供电公司,,42,42,64,26,26,68,,86,81,12,3,3,3,0.3,0.2
2024-02-14T2300,1389A,113.7547,23.0494,东莞市,莞城梨川,,38,38,38,19,24,80,,111,99,14,14,7,7,0.5,0.5
2024-02-14T2300,1390A,113.7944,23.0128,东莞市,东城石井,,33,33,33,18,20,54,,108,90,11,10,7,6,0.5,0.5
2024-02-14T2300,1391A,113.7383,22.9658,东莞市,南城西平,,42,42,39,17,20,77,,102,95,11,12,3,11,0.5,0.6
2024-02-14T2300,3319A,113.7338,23.0381,东莞市,万江金泰,,44,44,42,25,25,77,,98,84,9,9,8,8,0.6,0.8
2024-02-14T2300,3626A,113.7533,23.0202,东莞市,南城元岭,,36,36,37,18,21,78,,107,96,8,7,6,6,0.7,0.7
2024-02-14T2300,3627A,113.7875,23.0457,东莞市,东城主山,,33,33,37,19,22,74,,108,96,9,8,9,9,0.6,0.6
2024-02-14T2300,1666A,118.6614,37.4309,东营市,市环保局,,34,34,84,9,55,82,,85,85,9,20,8,19,0.4,0.7
2024-02-14T2300,3036A,118.6904,37.4338,东营市,开发区管委会,,33,33,83,12,48,79,,83,83,9,22,3,13,0.4,0.7
2024-02-14T2300,3365A,118.5719,37.565,东营市,垦利区民丰路,,36,36,88,7,53,78,,81,81,10,23,10,18,0.4,0.9
2024-02-14T2300,3498A,118.5055,37.8612,东营市,河口城区,,34,34,115,9,69,78,,88,86,15,20,9,10,0.2,0.8
2024-02-14T2300,3646A,118.4978,37.4623,东营市,胜利站,,25,22,121,5,56,78,,80,80,9,31,9,17,0.4,0.8
2024-02-14T2300,3734A,118.35,37.26,东营市,理想之城,,36,36,90,12,54,73,,76,76,7,24,3,13,0.3,0.7
2024-02-14T2300,1591A,110.0023,39.8129,鄂尔多斯市,综合楼,颗粒物(PM10),75,100,89,19,19,81,,86,83,8,12,3,6,0.5,0.6
2024-02-14T2300,1592A,109.9486,39.8261,鄂尔多斯市,巴音孟克林场办事处,颗粒物(PM10),74,97,84,19,21,74,,82,77,7,11,6,9,0.3,0.5
2024-02-14T2300,1593A,109.7736,39.5986,鄂尔多斯市,康泽苑,颗粒物(PM10),84,117,125,22,28,74,,87,81,13,11,4,5,0.4,0.4
2024-02-14T2300,1594A,109.8119,39.5989,鄂尔多斯市,华泰汽车城,颗粒物(PM10),84,117,137,29,35,79,,90,85,7,8,6,6,0.4,0.4
2024-02-14T2300,1595A,109.9734,39.7884,鄂尔多斯市,奥林花园,颗粒物(PM10),86,122,95,22,21,79,,85,82,9,12,7,9,0.5,0.5
2024-02-14T2300,2436A,114.8938,30.3994,鄂州市,市政府,细颗粒物(PM2.5),82,79,44,60,29,36,,78,60,44,18,10,10,1.0,0.9
2024-02-14T2300,2437A,114.8989,30.3714,鄂州市,赵家坝,细颗粒物(PM2.5),73,74,42,53,29,41,,88,75,31,9,7,7,0.9,0.8
2024-02-14T2300,3654A,114.8094,30.4089,鄂州市,精准医疗中心,颗粒物(PM10),67,83,77,40,33,45,,85,67,41,26,8,32,0.7,2.3
2024-02-14T2300,2454A,109.4978,30.2981,恩施土家族苗族自治州,湖北民院,细颗粒物(PM2.5),110,99,76,83,58,16,,36,30,40,29,8,7,1.4,1.2
2024-02-14T2300,2455A,109.4707,30.2798,恩施土家族苗族自治州,州电力总公司,细颗粒物(PM2.5),127,116,88,96,71,11,,29,25,37,26,6,6,1.7,1.3
2024-02-14T2300,3549A,109.5061,30.3772,恩施土家族苗族自治州,龙凤新区,细颗粒物(PM2.5),110,86,56,83,54,6,,30,25,24,18,7,7,1.4,1.1
2024-02-14T2300,2499A,108.3411,21.6158,防城港市,沙万,,33,31,48,23,26,37,,72,60,32,22,4,6,0.5,0.7
2024-02-14T2300,2500A,108.3514,21.7731,防城港市,防城档案局,细颗粒物(PM2.5),58,48,53,41,31,27,,78,57,20,14,4,7,0.6,0.4
2024-02-14T2300,2501A,108.3506,21.6414,防城港市,大海花园,颗粒物(PM10),51,52,48,34,28,50,,80,69,17,14,3,4,0.4,0.4
2024-02-14T2300,1371A,113.1294,23.0067,佛山市,湾梁,颗粒物(PM10),58,66,49,26,29,75,,104,96,10,8,9,9,0.5,0.5
2024-02-14T2300,1372A,113.1083,23.0478,佛山市,华材职中,,46,46,42,24,28,77,,112,99,8,11,12,12,0.5,0.5
2024-02-14T2300,1373A,113.144,23.0453,佛山市,南海气象局,颗粒物(PM10),56,61,47,31,32,70,,112,95,12,13,7,7,0.4,0.4
2024-02-14T2300,1374A,113.2881,22.8094,佛山市,顺德苏岗,细颗粒物(PM2.5),83,86,42,61,28,58,,106,87,14,12,10,8,0.5,0.5
2024-02-14T2300,1376A,112.8383,22.8678,佛山市,高明孔堂,,29,29,35,13,20,86,,97,94,2,4,5,4,0.4,0.3
2024-02-14T2300,1377A,112.8836,23.1588,佛山市,三水监测站,,46,46,42,31,26,62,,102,86,11,11,5,4,0.6,0.5
2024-02-14T2300,1378A,112.867,23.185,佛山市,三水云东海,,50,50,36,23,23,62,,105,80,16,15,4,4,0.5,0.5
2024-02-14T2300,3625A,113.2544,22.7642,佛山市,容桂街道办,,49,44,36,34,21,59,,97,82,10,7,6,6,0.5,0.5
2024-02-14T2300,1282A,119.2681,26.0504,福州市,师大,细颗粒物(PM2.5),129,122,62,98,49,75,,116,107,22,10,9,7,0.6,0.5
2024-02-14T2300,1283A,119.2984,26.1028,福州市,五四北路,细颗粒物(PM2.5),183,153,63,138,52,25,,113,86,51,16,6,5,0.8,0.6
2024-02-14T2300,1284A,119.2648,26.0768,福州市,杨桥西路,细颗粒物(PM2.5),231,238,67,181,55,33,,120,97,46,15,6,4,0.8,0.6
2024-02-14T2300,1285A,119.317,26.0746,福州市,紫阳,细颗粒物(PM2.5),128,109,68,97,54,69,,110,100,27,16,9,8,0.6,0.6
2024-02-14T2300,3048A,119.5799,26.0936,福州市,九龙,细颗粒物(PM2.5),73,54,49,53,39,63,,110,89,14,12,3,4,0.5,0.5
2024-02-14T2300,3526A,119.5189,25.9664,福州市,吴航,细颗粒物(PM2.5),102,106,66,76,45,69,,115,94,16,15,6,5,0.6,0.6
2024-02-14T2300,1755A,123.7977,41.8491,抚顺市,望花区,,29,29,51,14,31,62,,70,66,7,13,14,17,0.5,0.6
2024-02-14T2300,1756A,123.9161,41.8822,抚顺市,顺城区,颗粒物(PM10),51,51,59,14,35,66,,77,70,16,16,6,7,0.3,0.6
2024-02-14T2300,1757A,124.0436,41.8611,抚顺市,东洲区,,25,25,56,13,34,65,,74,71,5,10,7,10,0.4,0.5
2024-02-14T2300,1758A,123.9247,41.8642,抚顺市,新抚区,,50,50,57,26,36,82,,80,77,5,16,6,8,0.4,0.6
2024-02-14T2300,1759A,124.0972,41.8961,抚顺市,大伙房水库,,23,23,53,6,31,69,,74,72,4,11,8,9,0.4,0.6
2024-02-14T2300,1760A,123.7086,41.8391,抚顺市,沈抚新城,,30,30,48,11,21,65,,79,72,5,8,4,7,0.4,0.5
2024-02-14T2300,2376A,116.2127,28.0814,抚州市,桐源党溪,,48,48,83,33,41,41,,66,50,5,8,5,6,0.2,0.5
2024-02-14T2300,2377A,116.3544,27.9831,抚州市,市站,细颗粒物(PM2.5),87,92,64,64,43,53,,82,64,21,18,2,2,0.7,0.7
2024-02-14T2300,2378A,116.3565,27.963,抚州市,血防站,细颗粒物(PM2.5),90,90,57,67,36,62,,84,74,13,13,5,4,0.6,0.5
2024-02-14T2300,2379A,116.3564,28.0007,抚州市,采茶剧团,细颗粒物(PM2.5),117,111,58,88,41,64,,81,71,12,11,10,8,1.0,1
2024-02-14T2300,2380A,116.385,27.9647,抚州市,医学分院,细颗粒物(PM2.5),72,85,55,52,31,64,,89,76,9,8,8,7,0.7,0.7
2024-02-14T2300,2207A,121.6094,41.998,阜新市,工业园区,,39,39,27,23,11,48,,80,68,19,8,5,6,0.6,0.4
2024-02-14T2300,2208A,121.6697,42.0279,阜新市,长青街,颗粒物(PM10),51,52,29,31,8,53,,79,65,13,7,8,11,0.6,0.5
2024-02-14T2300,2209A,121.6673,42.0705,阜新市,农业园区,,20,19,25,9,6,61,,76,69,10,8,8,8,0.5,0.5
2024-02-14T2300,2210A,121.6717,42.0224,阜新市,东苑,,29,29,29,14,10,59,,85,73,15,8,4,8,0.8,0.6
2024-02-14T2300,2211A,121.6506,42.0498,阜新市,玉龙新城,,33,33,21,14,4,44,,80,64,18,7,6,6,0.6,0.3
2024-02-14T2300,2301A,115.8277,32.8929,阜阳市,市监测站,细颗粒物(PM2.5),196,217,77,147,58,67,,83,78,20,17,8,10,0.9,0.5
2024-02-14T2300,2303A,115.8554,32.8605,阜阳市,开发区,细颗粒物(PM2.5),155,245,85,118,48,69,,86,80,17,13,6,8,0.8,0.3
2024-02-14T2300,2875A,115.784,32.8892,阜阳市,阜阳职业技术学院,细颗粒物(PM2.5),185,246,76,139,48,66,,94,87,18,16,6,8,1.1,0.7
2024-02-14T2300,3468A,115.7901,32.8613,阜阳市,市规划展馆,细颗粒物(PM2.5),198,192,77,148,56,69,,88,83,20,12,8,8,1.3,0.7
2024-02-14T2300,3469A,115.836,32.9183,阜阳市,枣园社区,细颗粒物(PM2.5),204,178,86,154,63,69,,91,84,15,17,9,8,1.0,0.5
2024-02-14T2300,2669A,102.9099,34.9841,甘南藏族自治州,州政府,,42,42,38,21,20,82,,90,87,5,7,8,10,0.4,0.5
2024-02-14T2300,3380A,102.8914,34.9617,甘南藏族自治州,甘肃民族师范学院,,29,29,39,15,13,76,,85,83,9,7,7,10,0.7,0.7
2024-02-14T2300,2570A,101.9603,30.0475,甘孜藏族自治州,水桥子,,31,24,19,17,14,97,,94,94,3,5,10,10,0.4,0.3
2024-02-14T2300,3065A,101.9533,29.9972,甘孜藏族自治州,州环保局,,29,18,18,14,8,92,,88,88,5,4,8,8,0.4,0.3
2024-02-14T2300,3414A,115.8347,28.932,赣江新区,桑海产业园,细颗粒物(PM2.5),59,56,47,42,31,61,,96,88,17,16,6,6,0.6,0.5
2024-02-14T2300,2363A,114.9367,25.8664,赣州市,地委,颗粒物(PM10),56,62,43,33,27,43,,90,54,30,19,11,12,1.0,1.1
2024-02-14T2300,2364A,114.9461,25.8481,赣州市,气象台,细颗粒物(PM2.5),52,50,35,36,24,62,,99,80,14,13,8,8,0.6,0.5
2024-02-14T2300,2365A,114.9322,25.8333,赣州市,市图书馆,颗粒物(PM10),59,67,39,40,21,27,,82,58,40,22,16,14,0.7,0.5
2024-02-14T2300,2366A,114.8905,25.8471,赣州市,华坚鞋城,颗粒物(PM10),51,51,41,30,23,54,,84,68,12,12,5,5,0.8,0.8
2024-02-14T2300,3109A,115.0093,25.8613,赣州市,赣县区卫计委,,,131,49,,35,19,,80,51,36,18,8,7,1.0,0.8
2024-02-14T2300,2683A,106.2319,36.1417,固原市,马园,颗粒物(PM10),74,97,87,44,18,40,,88,72,28,9,9,6,0.7,0.3
2024-02-14T2300,2684A,106.2792,36.0022,固原市,监测站,颗粒物(PM10),78,105,80,37,18,64,,88,79,22,11,8,6,0.5,0.3
2024-02-14T2300,2685A,106.2375,36.0211,固原市,新区,颗粒物(PM10),65,79,70,22,14,69,,82,76,14,9,8,6,0.3,0.3
2024-02-14T2300,3522A,106.2177,35.9959,固原市,原州区十五小,颗粒物(PM10),60,69,67,22,15,71,,83,77,11,8,10,7,0.4,0.3
2024-02-14T2300,2544A,106.6303,30.4576,广安市,市委,细颗粒物(PM2.5),80,105,135,59,106,39,,79,60,26,32,7,8,0.7,1
2024-02-14T2300,2545A,106.6271,30.4663,广安市,友谊中学,细颗粒物(PM2.5),69,85,110,50,95,42,,75,58,28,29,4,6,0.7,1.1
2024-02-14T2300,2547A,106.6388,30.4551,广安市,广电花园,细颗粒物(PM2.5),87,84,113,64,105,37,,77,59,29,28,5,6,0.8,1.1
2024-02-14T2300,2902A,106.6351,30.4865,广安市,北辰小学,细颗粒物(PM2.5),74,89,120,54,105,55,,74,66,16,26,4,7,0.7,1.1
2024-02-14T2300,2523A,105.8945,32.4535,广元市,黑石坡,,,21,56,6,43,93,,92,92,5,8,,6,0.3,0.4
2024-02-14T2300,2524A,105.821,32.4444,广元市,老城,,41,41,81,13,38,84,,82,82,4,17,3,5,0.5,0.9
2024-02-14T2300,2526A,105.8628,32.4287,广元市,监测站,,46,46,68,12,40,89,,88,88,2,10,3,4,0.3,0.6
2024-02-14T2300,3617A,105.8047,32.4166,广元市,经开区,,37,37,69,14,39,84,,82,82,4,17,3,5,0.4,0.7
2024-02-14T2300,1345A,113.2347,23.1423,广州市,广雅中学,,35,35,45,22,31,63,,106,91,16,19,5,5,0.7,0.7
2024-02-14T2300,1346A,113.2612,23.105,广州市,市五中,,44,44,50,30,35,66,,110,95,18,20,5,5,0.6,0.6
2024-02-14T2300,1348A,113.3478,23.0916,广州市,广东商学院,,49,49,46,27,30,61,,110,91,18,17,5,5,0.5,0.5
2024-02-14T2300,1349A,113.4332,23.1047,广州市,市八十六中,,46,46,52,24,30,50,,74,70,25,25,5,6,0.4,0.4
2024-02-14T2300,1350A,113.3505,22.9483,广州市,番禺中学,,45,45,45,31,33,62,,115,93,20,19,4,4,0.6,0.6
2024-02-14T2300,1351A,113.2146,23.3916,广州市,花都师范,,44,44,56,26,37,66,,117,100,20,26,5,6,0.5,0.6
2024-02-14T2300,1352A,113.2597,23.1331,广州市,市监测站,,42,42,53,24,33,64,,107,92,17,20,5,5,0.5,0.6
2024-02-14T2300,1353A,113.5618,23.312,广州市,九龙镇镇龙,,48,48,57,31,42,58,,108,94,15,15,6,6,0.6,0.7
2024-02-14T2300,1354A,113.2765,23.1544,广州市,麓湖,,38,38,46,24,30,49,,112,88,25,25,5,5,0.4,0.5
2024-02-14T2300,1355A,113.443,23.3035,广州市,帽峰山森林公园,,33,33,34,18,24,70,,124,106,15,13,7,7,0.3,0.4
2024-02-14T2300,2846A,113.3221,23.1322,广州市,体育西,,43,43,47,30,34,53,,112,90,24,17,7,7,0.7,0.6
2024-02-14T2300,3298A,113.5717,23.5491,广州市,从化街口,颗粒物(PM10),52,54,67,34,49,64,,96,80,15,16,6,5,0.6,0.6
2024-02-14T2300,3299A,113.3472,23.3692,广州市,白云竹料,,35,35,59,20,41,70,,108,95,11,17,6,6,0.4,0.6
2024-02-14T2300,3300A,113.2981,23.237,广州市,白云嘉禾,,44,44,48,24,29,63,,114,95,23,20,6,6,0.6,0.6
2024-02-14T2300,3301A,113.4256,23.1716,广州市,黄埔科学城,,44,44,45,25,30,45,,109,84,14,12,4,4,0.5,0.6
2024-02-14T2300,3302A,113.3942,23.0483,广州市,番禺大学城,颗粒物(PM10),53,55,60,23,26,69,,114,96,11,13,10,9,0.9,0.8
2024-02-14T2300,3303A,113.4922,22.8168,广州市,南沙黄阁,,40,40,41,22,26,70,,95,82,11,14,5,5,0.6,0.6
2024-02-14T2300,3304A,113.5342,22.7896,广州市,南沙街,,34,34,37,18,22,73,,98,80,13,18,2,2,0.6,0.6
2024-02-14T2300,3443A,113.2902,23.5544,广州市,花都梯面,细颗粒物(PM2.5),54,51,45,38,31,50,,115,86,12,14,5,6,0.4,0.4
2024-02-14T2300,3445A,113.7858,23.7478,广州市,从化良口,,28,28,27,16,18,48,,84,76,7,5,7,7,0.5,0.4
2024-02-14T2300,3446A,113.8051,23.2614,广州市,增城荔城,颗粒物(PM10),53,55,51,33,35,30,,102,84,23,8,6,6,0.5,0.4
2024-02-14T2300,2505A,109.568,23.1478,贵港市,德智高中,细颗粒物(PM2.5),77,74,64,56,44,65,,75,65,15,13,6,6,0.8,0.7
2024-02-14T2300,2506A,109.6047,23.0666,贵港市,江南子站,细颗粒物(PM2.5),69,75,75,50,53,58,,77,66,14,16,7,8,0.8,0.8
2024-02-14T2300,2507A,109.6014,23.0948,贵港市,贵城子站,细颗粒物(PM2.5),68,62,60,49,44,55,,70,59,20,15,7,8,0.6,0.6
2024-02-14T2300,2508A,109.5669,23.1065,贵港市,荷城子站,细颗粒物(PM2.5),79,88,68,58,44,38,,70,54,25,14,9,10,1.1,1
2024-02-14T2300,3405A,109.5886,23.1172,贵港市,新世纪学校,细颗粒物(PM2.5),93,102,68,69,44,44,,76,57,29,18,10,9,1.1,0.8
2024-02-14T2300,1439A,106.6899,26.5998,贵阳市,马鞍山,细颗粒物(PM2.5),77,70,36,56,26,86,,84,68,8,8,9,6,0.8,0.6
2024-02-14T2300,1440A,106.6971,26.5694,贵阳市,市环保站,细颗粒物(PM2.5),93,,36,69,36,96,,88,74,12,13,11,9,0.5,0.4
2024-02-14T2300,1441A,106.6243,26.6266,贵阳市,鉴湖路,细颗粒物(PM2.5),70,78,43,51,26,92,,86,86,8,6,8,6,0.8,0.6
2024-02-14T2300,1442A,106.7487,26.6343,贵阳市,燕子冲,细颗粒物(PM2.5),83,78,40,61,30,99,,90,87,7,8,8,7,0.8,0.7
2024-02-14T2300,1443A,106.6555,26.4365,贵阳市,碧云窝,颗粒物(PM10),63,75,42,44,24,89,,91,88,8,6,11,9,0.6,0.5
2024-02-14T2300,1444A,106.694,26.5161,贵阳市,中院村,细颗粒物(PM2.5),85,73,40,63,30,88,,84,78,13,10,14,11,0.4,0.7
2024-02-14T2300,1445A,106.7109,26.6027,贵阳市,红边门,,,78,46,66,36,93,,83,69,8,13,14,12,,0.7
2024-02-14T2300,1446A,106.7164,26.5699,贵阳市,新华路,细颗粒物(PM2.5),83,68,40,61,32,93,,88,78,11,11,9,8,0.7,0.6
2024-02-14T2300,1447A,106.674,26.5424,贵阳市,太慈桥,细颗粒物(PM2.5),73,73,38,53,26,86,,84,74,11,8,9,6,0.5,0.4
2024-02-14T2300,1862A,110.4144,25.3167,桂林市,电子科大尧山校区,,40,39,31,28,26,25,,62,45,7,7,3,3,0.7,0.7
2024-02-14T2300,1863A,110.2819,25.2697,桂林市,监测站,细颗粒物(PM2.5),88,91,57,65,47,2,,26,12,39,32,8,7,1.4,1.4
2024-02-14T2300,1864A,110.3089,25.2708,桂林市,龙隐路小学,细颗粒物(PM2.5),65,53,45,47,40,34,,42,37,16,22,6,5,0.7,0.9
2024-02-14T2300,1865A,110.2869,25.2178,桂林市,八中,细颗粒物(PM2.5),74,64,46,54,35,16,,44,25,30,23,4,4,0.8,0.8
2024-02-14T2300,3403A,110.1764,25.2381,桂林市,创业大厦,细颗粒物(PM2.5),58,51,42,41,33,31,,45,40,12,13,6,7,0.6,0.7
2024-02-14T2300,3531A,110.296,25.1253,桂林市,旅游学院,细颗粒物(PM2.5),62,53,33,44,28,15,,41,24,21,14,4,4,0.7,0.6
2024-02-14T2300,2674A,100.2561,34.4714,果洛藏族自治州,玛沁县大武镇,,38,38,27,15,14,77,,82,80,10,11,9,10,0.4,0.4
2024-02-14T2300,1129A,126.5422,45.755,哈尔滨市,岭北,,,55,23,43,15,86,,82,75,19,10,8,5,,0.4
2024-02-14T2300,1130A,126.561,45.8167,哈尔滨市,松北商大,,36,33,24,25,16,55,,75,68,20,9,4,12,0.6,0.5
2024-02-14T2300,1131A,126.979,45.5419,哈尔滨市,阿城会宁,,49,42,36,34,22,39,,72,62,26,10,3,6,0.6,0.4
2024-02-14T2300,1132A,126.599,45.7222,哈尔滨市,南岗学府路,,48,45,32,33,13,56,,73,65,26,18,21,17,0.5,0.5
2024-02-14T2300,1133A,126.689,45.7733,哈尔滨市,太平宏伟公园,,39,31,26,27,20,72,,82,73,9,8,5,13,0.2,0.3
2024-02-14T2300,1134A,126.635,45.7667,哈尔滨市,道外承德广场,,39,39,32,26,17,52,,74,67,29,12,6,12,0.6,0.4
2024-02-14T2300,1135A,126.685,45.7319,哈尔滨市,香坊红旗大街,,45,42,30,31,19,56,,71,64,21,12,44,21,0.4,0.5
2024-02-14T2300,1136A,126.6411,45.7258,哈尔滨市,动力和平路,,32,32,24,21,14,65,,78,72,15,8,4,9,0.5,0.4
2024-02-14T2300,1137A,126.593,45.7478,哈尔滨市,道里建国路,,48,48,24,29,21,52,,70,61,22,10,9,7,0.4,0.3
2024-02-14T2300,1138A,126.615,45.61,哈尔滨市,平房东轻厂,,42,34,24,29,18,54,,81,71,26,10,5,7,0.6,0.4
2024-02-14T2300,1139A,126.595,45.9855,哈尔滨市,呼兰师专,细颗粒物(PM2.5),108,,34,81,30,54,,65,59,20,16,9,12,0.5,0.4
2024-02-14T2300,1140A,126.6206,45.6842,哈尔滨市,省农科院,颗粒物(PM10),57,64,30,39,21,15,,74,62,60,6,18,11,0.7,0.4
2024-02-14T2300,2688A,93.5128,42.8172,哈密市,地区监测站,颗粒物(PM10),83,115,51,55,25,34,,71,58,48,18,13,10,0.5,0.4
2024-02-14T2300,2689A,93.4961,42.8328,哈密市,哈密师范学校,颗粒物(PM10),94,137,61,64,35,19,,73,58,63,18,16,17,0.7,0.3
2024-02-14T2300,2671A,100.9048,36.9639,海北藏族自治州,海晏县西海镇,,45,45,56,14,17,64,,79,75,2,5,13,18,0.3,0.4
2024-02-14T2300,3867A,102.0738,36.5056,海东市,平安区公安北苑,颗粒物(PM10),52,53,74,15,16,74,,84,82,8,8,18,16,0.2,0.2
2024-02-14T2300,1410A,110.3232,20.0574,海口市,海南大学,,37,37,37,16,17,75,,96,88,4,4,9,9,0.3,0.4
2024-02-14T2300,1411A,110.283,20.0053,海口市,秀英海南医院,,40,40,36,18,17,69,,92,81,6,2,8,8,0.3,0.3
2024-02-14T2300,1412A,110.338,19.9969,海口市,海南师范大学,,40,40,34,19,18,66,,88,79,9,4,7,7,0.4,0.4
2024-02-14T2300,1413A,110.33,20.0356,海口市,龙华路环保局宿舍,,35,35,31,14,17,42,,71,42,5,5,8,8,0.6,0.4
2024-02-14T2300,3539A,110.5111,19.9736,海口市,桂林洋子站,,38,38,25,19,14,57,,83,73,3,2,7,6,0.3,0.3
2024-02-14T2300,2673A,100.6188,36.2866,海南藏族自治州,共和县恰卜恰镇,,26,26,40,6,14,69,,94,86,7,9,11,11,0.6,0.5
2024-02-14T2300,2676A,97.3731,37.3753,海西蒙古族藏族自治州,德令哈市,,31,24,31,15,12,98,,106,101,3,6,13,14,0.4,0.5
2024-02-14T2300,1048A,114.5302,36.6116,邯郸市,东污水处理厂,颗粒物(PM10),60,70,213,34,134,73,,114,86,3,19,6,9,0.5,1.3
2024-02-14T2300,1049A,114.4918,36.5713,邯郸市,矿院,颗粒物(PM10),66,81,200,28,127,72,,110,84,3,22,4,6,0.6,1.4
2024-02-14T2300,1050A,114.484,36.6133,邯郸市,丛台公园,颗粒物(PM10),53,56,173,24,107,77,,118,90,2,9,4,7,0.5,1.2
2024-02-14T2300,3458A,114.7895,36.5593,邯郸市,香泉濮院小区,颗粒物(PM10),54,58,187,28,121,69,,108,86,4,15,5,10,0.3,1
2024-02-14T2300,3579A,114.50634,36.77178,邯郸市,永年区实验高中,颗粒物(PM10),72,93,199,36,122,67,,111,81,10,24,6,12,0.2,1
2024-02-14T2300,3580A,114.20016,36.44293,邯郸市,峰峰矿区临水派出所,细颗粒物(PM2.5),104,110,150,78,98,66,,130,97,1,6,7,20,0.8,1.4
2024-02-14T2300,2634A,106.9893,33.1842,汉中市,汉川机床厂子校,,36,36,58,20,42,56,,82,70,6,9,4,8,0.5,0.7
2024-02-14T2300,2635A,107.0154,33.0706,汉中市,市监测站,细颗粒物(PM2.5),90,88,83,67,66,42,,73,60,24,25,9,10,1.2,1.3
2024-02-14T2300,2636A,107.0089,33.1138,汉中市,鑫源开发区,细颗粒物(PM2.5),75,66,86,55,73,34,,69,57,33,24,10,15,1.1,1.1
2024-02-14T2300,2637A,107.007,33.0323,汉中市,南郑大河坎水厂,细颗粒物(PM2.5),102,83,81,76,50,31,,85,64,29,19,11,11,1.3,0.9
2024-02-14T2300,1223A,120.2072,30.2111,杭州市,滨江,颗粒物(PM10),56,61,34,38,20,57,,83,68,28,14,5,4,0.6,0.4
2024-02-14T2300,1224A,120.0633,30.2747,杭州市,西溪,颗粒物(PM10),52,53,39,28,19,17,,83,55,15,10,6,6,0.4,0.4
2024-02-14T2300,1226A,120.3461,30.3153,杭州市,下沙,,46,46,36,32,24,68,,91,82,16,8,6,6,0.5,0.5
2024-02-14T2300,1227A,120.1269,30.2456,杭州市,卧龙桥,,46,45,33,32,24,6,,79,38,32,17,4,4,0.3,0.3
2024-02-14T2300,1228A,120.1903,30.2692,杭州市,浙江农大,细颗粒物(PM2.5),72,67,35,52,26,39,,81,53,29,14,7,6,0.9,0.6
2024-02-14T2300,1230A,120.1197,30.3119,杭州市,和睦小学,细颗粒物(PM2.5),103,98,40,77,34,39,,73,58,36,17,7,7,0.5,0.4
2024-02-14T2300,1231A,120.3019,30.4183,杭州市,临平镇,细颗粒物(PM2.5),57,,25,40,24,62,,84,78,12,7,5,6,0.2,0.3
2024-02-14T2300,1232A,120.2697,30.1819,杭州市,城厢镇,细颗粒物(PM2.5),75,60,44,55,34,58,,86,70,34,17,7,7,0.4,0.5
2024-02-14T2300,1233A,120.0883,30.1808,杭州市,云栖,,39,39,30,22,20,23,,75,44,20,17,8,8,0.6,0.6
2024-02-14T2300,3557A,119.9464,30.0494,杭州市,镇二中,细颗粒物(PM2.5),130,116,42,99,35,3,,77,42,34,14,7,7,1.0,0.6
2024-02-14T2300,3558A,119.7183,30.2367,杭州市,市府大楼,细颗粒物(PM2.5),59,50,34,42,25,32,,83,56,14,11,6,6,0.6,0.5
2024-02-14T2300,3656A,120.1556,30.2864,杭州市,消防大队,细颗粒物(PM2.5),77,88,40,56,27,43,,67,49,34,18,9,9,0.7,0.7
2024-02-14T2300,1270A,117.1959,31.7848,合肥市,明珠广场,细颗粒物(PM2.5),163,151,48,124,31,28,,84,66,45,16,11,9,0.8,0.6
2024-02-14T2300,1271A,117.3072,31.8764,合肥市,三里街,细颗粒物(PM2.5),185,197,58,139,36,0,,72,30,77,32,8,7,1.1,0.6
2024-02-14T2300,1272A,117.2588,31.8707,合肥市,琥珀山庄,,,,63,,33,5,,86,40,70,21,8,5,1.7,0.9
2024-02-14T2300,1273A,117.1604,31.9052,合肥市,董铺水库,细颗粒物(PM2.5),62,56,39,44,24,48,,90,76,16,7,3,3,0.4,0.4
2024-02-14T2300,1274A,117.25,31.8571,合肥市,长江中路,细颗粒物(PM2.5),209,202,59,159,36,4,,79,47,70,24,10,8,1.4,0.9
2024-02-14T2300,1275A,117.266,31.9436,合肥市,庐阳区,细颗粒物(PM2.5),85,95,43,63,23,36,,77,62,37,19,6,6,0.7,0.6
2024-02-14T2300,1276A,117.336,31.8586,合肥市,瑶海区,细颗粒物(PM2.5),211,210,56,161,38,5,,81,50,72,19,8,7,1.2,0.6
2024-02-14T2300,1277A,117.3027,31.7964,合肥市,包河区,细颗粒物(PM2.5),144,127,47,110,35,10,,85,52,70,25,5,9,,0.5
2024-02-14T2300,1278A,117.2776,31.7385,合肥市,滨湖新区,细颗粒物(PM2.5),117,122,50,88,36,18,,87,64,56,12,7,6,0.8,0.6
2024-02-14T2300,1279A,117.1318,31.8403,合肥市,高新区,细颗粒物(PM2.5),93,100,36,69,25,24,,89,72,54,14,6,5,1.0,0.7
2024-02-14T2300,3464A,117.3803,31.9147,合肥市,高教基地,颗粒物(PM10),64,78,40,43,26,27,,90,56,25,10,4,5,0.4,0.4
2024-02-14T2300,3614A,79.924,37.0877,和田地区,地区环保局,颗粒物(PM10),500,1121,563,240,109,32,,80,69,65,27,21,13,1.5,1
2024-02-14T2300,3615A,79.9131,37.113,和田地区,市环保局,颗粒物(PM10),500,1059,539,253,103,27,,81,67,63,30,11,11,2.0,1.5
2024-02-14T2300,2516A,108.2011,24.715,河池市,东仁乐园,细颗粒物(PM2.5),69,73,75,50,64,27,,35,31,8,9,4,4,0.8,0.8
2024-02-14T2300,2517A,108.0497,24.6947,河池市,市环保站,细颗粒物(PM2.5),68,58,86,49,76,46,,66,59,16,18,8,8,0.6,0.8
2024-02-14T2300,2518A,108.0983,24.6989,河池市,市疾控中心,细颗粒物(PM2.5),65,66,71,47,62,52,,72,66,15,16,10,8,0.7,0.8
2024-02-14T2300,1696A,114.6778,23.7569,河源市,源西,,38,36,41,26,28,70,,84,77,9,17,4,4,0.6,0.7
2024-02-14T2300,1697A,114.6944,23.7586,河源市,东埔,颗粒物(PM10),52,53,50,30,36,72,,88,81,8,11,7,6,0.5,0.6
2024-02-14T2300,1698A,114.6892,23.7233,河源市,老城,,38,38,42,22,29,77,,90,84,7,7,6,6,0.6,0.6
2024-02-14T2300,1718A,115.4208,35.2464,菏泽市,气象局,颗粒物(PM10),68,85,131,28,71,77,,96,84,12,15,2,6,0.4,0.7
2024-02-14T2300,1719A,115.4747,35.2375,菏泽市,市政协,颗粒物(PM10),62,74,128,36,72,76,,88,79,3,11,3,7,0.4,0.5
2024-02-14T2300,3374A,115.5564,35.0891,菏泽市,定陶老年大学,颗粒物(PM10),63,75,122,39,71,76,,92,82,8,15,4,8,0.3,0.5
2024-02-14T2300,3647A,115.4702,35.2706,菏泽市,菏泽医专,颗粒物(PM10),57,64,118,23,63,79,,91,83,9,18,3,9,0.3,0.6
2024-02-14T2300,2514A,111.5264,24.4172,贺州市,环保小区,细颗粒物(PM2.5),129,147,87,98,68,30,,80,56,25,16,11,9,1.1,0.8
2024-02-14T2300,2515A,111.5608,24.4078,贺州市,政协大楼,细颗粒物(PM2.5),112,110,69,84,46,32,,80,54,22,15,11,9,0.7,0.6
2024-02-14T2300,3534A,111.4744,24.4553,贺州市,西湾,细颗粒物(PM2.5),90,80,65,67,51,30,,81,61,18,13,9,9,0.7,0.7
2024-02-14T2300,2385A,114.17,35.9019,鹤壁市,市监测站,细颗粒物(PM2.5),83,74,155,61,105,79,,124,102,10,18,2,4,0.6,1.1
2024-02-14T2300,2386A,114.2956,35.7511,鹤壁市,市交警支队,颗粒物(PM10),56,61,177,34,113,77,,121,95,9,20,4,13,0.4,1
2024-02-14T2300,2387A,114.2878,35.7306,鹤壁市,迎宾馆,细颗粒物(PM2.5),68,60,165,49,115,81,,122,102,10,23,5,14,0.5,1.2
2024-02-14T2300,3474A,114.2617,35.6822,鹤壁市,大新区,细颗粒物(PM2.5),58,59,159,41,114,81,,118,100,6,22,6,13,0.7,1.4
2024-02-14T2300,3596A,114.1572,35.9603,鹤壁市,南山宾馆,细颗粒物(PM2.5),74,68,161,54,109,74,,126,102,11,23,3,13,0.8,1.3
2024-02-14T2300,2244A,130.2537,47.3416,鹤岗市,哈啤分公司,,26,18,23,18,20,68,,71,66,5,7,14,16,0.3,0.3
2024-02-14T2300,2245A,130.2684,47.3086,鹤岗市,斯达机电,,30,30,31,19,22,72,,76,72,5,8,9,11,0.3,0.3
2024-02-14T2300,2246A,130.3114,47.3388,鹤岗市,东山纸板厂,,25,,23,10,22,79,,81,78,4,8,10,15,0.1,0.1
2024-02-14T2300,2247A,130.1097,47.3382,鹤岗市,五号水库,,23,19,23,13,18,71,,81,74,5,6,6,8,0.5,0.5
2024-02-14T2300,2263A,127.4833,50.2524,黑河市,交通局,,43,31,20,30,19,53,,67,61,10,6,11,9,0.4,0.2
2024-02-14T2300,2264A,127.5144,50.2341,黑河市,环保局,细颗粒物(PM2.5),54,,21,38,20,58,,69,61,10,7,13,7,0.4,0.3
2024-02-14T2300,2265A,127.5291,50.2472,黑河市,大黑河岛,细颗粒物(PM2.5),120,100,26,91,21,54,,65,60,46,51,17,17,,
2024-02-14T2300,1074A,115.6838,37.7541,衡水市,电机北厂,,33,33,156,10,104,64,,84,72,3,16,4,6,0.2,0.8
2024-02-14T2300,1075A,115.6303,37.7316,衡水市,市监测站,,41,41,147,8,98,67,,85,72,14,28,6,7,0.3,1
2024-02-14T2300,3188A,115.6683,37.7217,衡水市,市城管局,,43,43,142,15,94,63,,82,69,9,19,4,9,0.3,0.8
2024-02-14T2300,3459A,115.5989,37.5491,衡水市,地表水厂,,44,44,134,18,92,66,,93,76,1,22,3,4,0.3,0.8
2024-02-14T2300,2456A,112.5003,26.9167,衡阳市,原169医院,颗粒物(PM10),51,51,47,34,32,54,,90,72,17,12,11,16,0.5,0.7
2024-02-14T2300,2457A,112.6194,26.9258,衡阳市,衡阳化工总厂,颗粒物(PM10),79,107,60,52,40,47,,84,67,20,12,9,11,0.5,0.5
2024-02-14T2300,2458A,112.6211,26.8956,衡阳市,珠晖区环保局,颗粒物(PM10),51,52,56,32,38,66,,92,82,9,16,11,11,0.5,0.6
2024-02-14T2300,2459A,112.6197,26.8733,衡阳市,市委党校,颗粒物(PM10),61,72,49,32,29,64,,90,78,11,11,29,10,0.7,0.7
2024-02-14T2300,2460A,112.6006,26.8919,衡阳市,市监测站,细颗粒物(PM2.5),79,82,61,58,46,46,,82,66,18,16,10,10,0.7,0.9
2024-02-14T2300,2461A,112.5664,26.9056,衡阳市,真空机电公司,细颗粒物(PM2.5),60,66,58,43,34,48,,76,64,20,20,11,14,1.0,1.1
2024-02-14T2300,3399A,112.6703,26.882,衡阳市,师范学院,,48,45,39,33,29,67,,89,79,8,9,21,10,0.6,0.6
2024-02-14T2300,2608A,103.3772,23.3993,红河哈尼族彝族自治州,污水处理厂,细颗粒物(PM2.5),54,53,41,38,36,79,,99,90,5,6,8,12,0.6,0.6
2024-02-14T2300,2609A,103.3861,23.35,红河哈尼族彝族自治州,监测站,,50,42,39,35,34,68,,96,83,7,6,8,9,0.7,0.6
2024-02-14T2300,3038A,103.3758,23.368,红河哈尼族彝族自治州,州图书馆,,49,40,36,34,25,64,,90,79,6,5,5,6,0.6,0.5
2024-02-14T2300,1090A,111.6507,40.7517,呼和浩特市,呼市一监,,27,22,22,6,11,84,,89,88,4,5,6,7,0.3,0.3
2024-02-14T2300,1091A,111.6572,40.8033,呼和浩特市,小召,,41,41,32,6,11,80,,85,83,5,6,4,5,0.3,0.3
2024-02-14T2300,1094A,111.7516,40.8369,呼和浩特市,如意水处理厂,,25,20,16,6,9,79,,84,81,6,8,11,12,0.3,0.3
2024-02-14T2300,1095A,111.7276,40.8062,呼和浩特市,二十九中,,29,29,32,7,14,80,,84,82,6,6,10,11,0.4,0.4
2024-02-14T2300,1096A,111.5512,40.7866,呼和浩特市,工大金川校区,,26,18,25,4,9,81,,82,81,3,5,4,6,0.3,0.3
2024-02-14T2300,1097A,111.717,40.7612,呼和浩特市,化肥厂生活区,,25,18,29,7,16,78,,85,82,8,10,11,13,0.2,0.3
2024-02-14T2300,3698A,111.5968,40.8178,呼和浩特市,红旗小学,,26,14,18,4,9,83,,87,85,9,9,6,7,0.4,0.4
2024-02-14T2300,3699A,111.6518,40.8389,呼和浩特市,海东办,,25,19,21,4,9,80,,83,79,9,13,8,11,0.2,0.2
2024-02-14T2300,2192A,119.7594,49.2261,呼伦贝尔市,区环保局,,28,25,27,19,21,75,,80,78,10,10,4,4,0.3,0.3
2024-02-14T2300,3061A,119.7512,49.1577,呼伦贝尔市,国华电力东,,30,,24,21,19,77,,80,78,4,5,4,4,0.2,0.2
2024-02-14T2300,1250A,120.0751,30.8669,湖州市,城西水厂,细颗粒物(PM2.5),130,116,62,99,48,41,,94,76,40,20,4,5,0.6,0.4
2024-02-14T2300,2873A,120.0875,30.8955,湖州市,仁皇山新区,细颗粒物(PM2.5),73,66,57,53,46,57,,93,80,28,17,6,7,0.7,0.5
2024-02-14T2300,2907A,120.1844,30.8596,湖州市,吴兴区站,颗粒物(PM10),53,55,51,34,36,68,,95,86,15,10,7,8,0.5,0.5
2024-02-14T2300,3562A,120.4148,30.8538,湖州市,南浔区站,细颗粒物(PM2.5),55,53,43,39,32,84,,103,90,9,6,8,7,0.7,0.6
2024-02-14T2300,1607A,120.9092,40.7136,葫芦岛市,龙港区,,22,21,62,6,27,69,,78,74,5,12,5,10,0.3,0.5
2024-02-14T2300,1608A,120.8392,40.7514,葫芦岛市,化工街,,24,24,75,7,24,66,,76,71,4,10,6,8,0.9,1.1
2024-02-14T2300,1609A,120.8341,40.7073,葫芦岛市,新区,,22,19,64,8,27,70,,78,75,10,17,8,10,0.3,0.5
2024-02-14T2300,1610A,120.8695,40.7677,葫芦岛市,东城区,,23,13,53,6,26,73,,79,76,5,13,7,10,0.5,0.7
2024-02-14T2300,2482A,109.5981,27.5721,怀化市,林科所,细颗粒物(PM2.5),63,74,31,45,20,48,,80,72,4,4,3,3,0.4,0.4
2024-02-14T2300,2483A,109.9453,27.5444,怀化市,河西地税局,,29,23,28,20,23,51,,73,,5,4,3,3,0.4,0.5
2024-02-14T2300,2484A,109.9781,27.5342,怀化市,市四医院,,48,34,32,33,27,57,,80,72,7,5,5,5,0.7,0.7
2024-02-14T2300,2485A,109.9972,27.5578,怀化市,监测楼,细颗粒物(PM2.5),74,77,40,54,29,20,,70,56,20,6,4,5,0.7,0.6
2024-02-14T2300,2486A,110.0394,27.583,怀化市,市委党校,,49,36,35,34,26,43,,75,65,10,5,5,6,0.4,0.5
2024-02-14T2300,1210A,119.036,33.5981,淮安市,钵池山,细颗粒物(PM2.5),228,232,88,178,64,,,81,71,57,31,14,13,0.9,0.7
2024-02-14T2300,1211A,119.007,33.575,淮安市,北京南路,细颗粒物(PM2.5),303,354,120,253,76,7,,84,37,60,33,13,12,1.8,1.1
2024-02-14T2300,1212A,118.989,33.6067,淮安市,市监测站,细颗粒物(PM2.5),318,354,118,268,90,17,,90,50,64,35,13,13,1.5,1.2
2024-02-14T2300,1213A,119.135,33.5039,淮安市,楚州区监测站,细颗粒物(PM2.5),222,254,118,172,79,14,,89,58,77,39,12,12,1.3,0.8
2024-02-14T2300,1214A,119.0186,33.6297,淮安市,淮阴区监测站,细颗粒物(PM2.5),202,278,106,152,62,27,,86,58,64,39,10,11,0.9,0.9
2024-02-14T2300,3426A,118.8755,33.2894,淮安市,新华书店,细颗粒物(PM2.5),130,116,88,99,65,44,,90,66,52,32,11,11,0.4,0.5
2024-02-14T2300,2282A,116.8004,33.975,淮北市,监测站,细颗粒物(PM2.5),143,167,88,109,60,52,,96,87,18,19,8,10,1.0,0.8
2024-02-14T2300,2283A,116.8091,33.9007,淮北市,烈山区政府,细颗粒物(PM2.5),158,217,87,120,59,54,,97,87,21,23,8,11,0.9,0.5
2024-02-14T2300,3330A,116.8873,33.9836,淮北市,杜集区检察院,细颗粒物(PM2.5),156,250,93,119,55,53,,107,94,21,19,12,13,1.0,0.7
2024-02-14T2300,4017A,116.7923,33.9535,淮北市,市博物馆,细颗粒物(PM2.5),162,217,90,123,62,51,,101,91,22,22,9,11,1.0,0.7
2024-02-14T2300,2277A,116.8305,32.7727,淮南市,潘集区政府,细颗粒物(PM2.5),113,117,69,85,45,60,,95,70,17,15,6,4,0.6,0.4
2024-02-14T2300,2278A,117.0067,32.6524,淮南市,师范学院,细颗粒物(PM2.5),142,167,77,108,51,45,,87,71,31,23,14,9,0.4,0.3
2024-02-14T2300,2279A,116.8569,32.5951,淮南市,谢家集区政府,细颗粒物(PM2.5),95,102,54,71,38,66,,106,91,22,12,10,6,0.6,0.4
2024-02-14T2300,2280A,116.8281,32.633,淮南市,八公山区政府,细颗粒物(PM2.5),112,130,59,84,37,57,,104,87,23,10,8,4,0.6,0.4
2024-02-14T2300,2281A,116.6325,32.6201,淮南市,焦岗湖风景区管理处,细颗粒物(PM2.5),98,137,61,73,32,144,,80,80,19,13,4,4,0.4,0.2
2024-02-14T2300,2894A,117.0566,32.6531,淮南市,经济技术开发区消防队,细颗粒物(PM2.5),137,142,63,104,38,50,,97,84,28,11,10,6,0.7,0.4
2024-02-14T2300,3329A,117.0108,32.5893,淮南市,山南新区,细颗粒物(PM2.5),186,171,68,140,50,67,,106,98,30,14,9,6,0.7,0.5
2024-02-14T2300,2446A,114.9028,30.4742,黄冈市,职工中心,细颗粒物(PM2.5),78,82,47,57,31,46,,90,74,26,9,12,12,0.6,0.5
2024-02-14T2300,2929A,114.8858,30.4519,黄冈市,红卫路,细颗粒物(PM2.5),75,74,44,55,31,37,,84,67,44,11,9,8,0.8,0.6
2024-02-14T2300,3398A,114.9136,30.4445,黄冈市,市林业局,细颗粒物(PM2.5),80,67,43,59,32,51,,90,76,24,9,6,7,0.6,0.4
2024-02-14T2300,2672A,102.0199,35.5102,黄南藏族自治州,同仁县隆务镇,颗粒物(PM10),52,53,62,18,22,80,,85,80,1,2,22,21,1.1,1
2024-02-14T2300,2295A,118.2903,29.6963,黄山市,延安路89号,细颗粒物(PM2.5),59,58,40,42,18,18,,77,56,10,6,6,6,0.5,0.4
2024-02-14T2300,2296A,118.327,29.7178,黄山市,黄山东路89号,细颗粒物(PM2.5),74,86,46,54,25,0,,69,32,28,13,6,5,1.4,0.8
2024-02-14T2300,2297A,118.1371,30.2756,黄山市,黄山区政府5号楼,细颗粒物(PM2.5),100,104,43,75,27,12,,76,47,16,9,5,4,0.8,0.6
2024-02-14T2300,2423A,115.0601,30.2313,黄石市,沈家营,细颗粒物(PM2.5),90,84,50,67,31,23,,82,58,52,33,6,11,1.1,1.1
2024-02-14T2300,2424A,115.0817,30.2006,黄石市,陈家湾,细颗粒物(PM2.5),159,164,82,121,52,7,,62,35,69,43,16,16,1.5,1.5
2024-02-14T2300,2426A,114.8988,30.2019,黄石市,铁山,颗粒物(PM10),56,62,61,37,27,46,,87,75,32,21,11,12,0.8,0.8
2024-02-14T2300,2427A,115.0307,30.2092,黄石市,团城山,细颗粒物(PM2.5),77,85,63,56,30,34,,81,66,39,27,22,22,1.5,1.7
2024-02-14T2300,3149A,115.0235,30.1578,黄石市,笔架山北路,细颗粒物(PM2.5),57,53,43,40,23,65,,97,87,17,13,13,12,0.7,0.6
2024-02-14T2300,1392A,114.4183,23.0528,惠州市,河南岸金山湖子站,,41,41,43,25,29,75,,90,85,7,7,5,4,0.5,0.5
2024-02-14T2300,1393A,114.4053,23.0822,惠州市,下埔横江三路子站,,46,46,49,27,30,74,,98,87,12,11,6,5,0.6,0.6
2024-02-14T2300,1394A,114.4103,23.1142,惠州市,江北云山西路子站,,46,46,43,32,28,70,,102,90,8,5,8,8,0.5,0.5
2024-02-14T2300,1395A,114.4645,22.7833,惠州市,惠阳区承修路船湖子站,颗粒物(PM10),51,52,41,30,26,97,,94,91,11,11,8,8,0.6,0.6
2024-02-14T2300,1396A,114.5317,22.7422,惠州市,大亚湾管委会子站,,49,49,39,26,21,98,,99,99,12,15,6,6,0.5,0.5
2024-02-14T2300,3314A,114.4338,22.8134,惠州市,惠阳秋长,,46,46,40,29,23,106,,104,97,6,7,7,7,0.5,0.5
2024-02-14T2300,3452A,114.6517,22.775,惠州市,大亚湾霞涌,细颗粒物(PM2.5),62,62,40,44,28,92,,95,93,16,9,8,7,0.4,0.4
2024-02-14T2300,2240A,130.9762,45.3001,鸡西市,环保局,细颗粒物(PM2.5),52,44,44,36,24,67,,68,64,8,10,5,7,0.4,0.3
2024-02-14T2300,2243A,130.9429,45.3039,鸡西市,第一中学,,38,29,39,26,23,76,,77,74,6,10,7,8,0.2,0.2
2024-02-14T2300,3707A,131.0207,45.3073,鸡西市,欧美日汽修厂,,38,30,50,26,31,61,,69,66,17,17,5,9,0.7,0.7
2024-02-14T2300,3709A,130.9967,45.3106,鸡西市,市政设施管理处,颗粒物(PM10),55,59,51,35,34,61,,73,64,20,22,4,5,0.5,0.6
2024-02-14T2300,2367A,114.9754,27.0803,吉安市,红声器材厂,细颗粒物(PM2.5),84,90,66,62,42,39,,84,66,29,19,14,12,0.9,0.9
2024-02-14T2300,2368A,114.9658,27.0999,吉安市,市森林工业局,细颗粒物(PM2.5),114,112,61,86,46,16,,84,52,45,19,9,9,0.6,0.3
2024-02-14T2300,2369A,114.99,27.1312,吉安市,市环境监测站,细颗粒物(PM2.5),75,78,58,55,38,40,,89,70,28,15,8,7,0.6,0.5
2024-02-14T2300,2370A,115.0093,27.0968,吉安市,青原区法院,细颗粒物(PM2.5),68,78,65,49,43,6,,92,52,58,28,11,10,0.7,0.7
2024-02-14T2300,1772A,126.54,43.8622,吉林市,哈达湾,颗粒物(PM10),56,62,56,25,19,70,,71,70,7,11,5,7,0.4,0.5
2024-02-14T2300,1773A,126.5844,43.8358,吉林市,东局子,颗粒物(PM10),57,63,67,33,29,60,,65,64,15,18,8,12,0.5,0.6
2024-02-14T2300,1774A,126.5052,43.8245,吉林市,电力学院,,30,30,46,12,20,75,,76,75,4,10,5,8,0.5,0.6
2024-02-14T2300,1775A,126.6133,43.8972,吉林市,江北,颗粒物(PM10),55,60,61,26,22,51,,67,64,18,13,11,11,0.7,0.6
2024-02-14T2300,1776A,126.555,43.8306,吉林市,江南公园,细颗粒物(PM2.5),72,78,62,52,29,63,,70,68,12,15,10,9,0.5,0.6
2024-02-14T2300,2868A,126.4739,43.953,吉林市,九站,,37,37,55,16,20,61,,74,66,15,19,7,15,0.5,0.5
2024-02-14T2300,1299A,116.9862,36.6114,济南市,科干所,,27,27,74,10,42,84,,89,74,4,12,6,11,0.6,0.9
2024-02-14T2300,1300A,116.9376,36.665,济南市,农科所,,29,29,81,15,42,74,,79,70,10,21,7,12,0.5,0.7
2024-02-14T2300,1301A,117.1265,36.6734,济南市,开发区,,27,27,68,12,38,80,,80,71,3,15,5,10,0.5,0.8
2024-02-14T2300,1303A,117.0624,36.6868,济南市,省种子仓库,,34,34,95,17,48,79,,81,73,3,28,4,10,0.6,1
2024-02-14T2300,1304A,116.9489,36.6447,济南市,机床二厂,,27,27,84,10,43,85,,86,78,4,18,4,14,0.7,1
2024-02-14T2300,1305A,117.0495,36.663,济南市,市监测站,,27,27,75,15,43,84,,83,75,8,27,11,17,0.4,0.7
2024-02-14T2300,1306A,116.7675,36.5484,济南市,长清党校,,29,29,78,7,46,88,,91,79,7,18,5,11,0.6,0.8
2024-02-14T2300,1616A,117.6795,36.229,济南市,技术学院,,25,19,82,12,49,79,,94,80,18,31,4,13,0.5,1.1
2024-02-14T2300,1961A,117.532,36.6868,济南市,东山小学,,32,32,79,20,44,77,,90,75,10,19,5,12,0.2,0.5
2024-02-14T2300,3059A,117.7161,36.2049,济南市,泰兴公司,,24,14,86,12,54,76,,89,78,8,26,7,12,0.6,1.2
2024-02-14T2300,3064A,117.6867,36.2171,济南市,莱芜战役纪念馆,,27,27,94,14,51,75,,88,77,10,25,5,13,0.4,1
2024-02-14T2300,3494A,117.1673,36.9782,济南市,济阳区政府,,49,49,98,17,51,75,,80,73,8,18,10,20,0.3,0.6
2024-02-14T2300,3495A,117.1171,36.63,济南市,锦屏中学,,27,22,66,10,38,84,,82,74,5,14,6,10,0.3,0.6
2024-02-14T2300,3682A,116.9814,36.6819,济南市,济南四建,,29,29,79,20,52,72,,77,69,4,31,9,14,0.4,0.9
2024-02-14T2300,1653A,116.6251,35.4302,济宁市,火炬城,颗粒物(PM10),67,84,87,22,52,72,,87,77,8,16,2,9,0.6,0.9
2024-02-14T2300,1655A,116.5491,35.4042,济宁市,电化厂,颗粒物(PM10),63,75,102,36,52,76,,89,77,8,18,3,9,0.5,0.8
2024-02-14T2300,3500A,116.5814,35.3707,济宁市,北湖一中,颗粒物(PM10),76,101,96,34,57,73,,86,77,5,14,4,12,0.5,0.7
2024-02-14T2300,3501A,116.8249,35.5593,济宁市,服务中心,颗粒物(PM10),69,88,109,22,58,72,,89,82,5,18,2,8,0.3,0.8
2024-02-14T2300,3678A,116.5907,35.4054,济宁市,市第七中学,颗粒物(PM10),52,53,95,34,55,73,,90,78,6,19,2,9,0.6,0.9
2024-02-14T2300,2255A,130.2751,46.8028,佳木斯市,佳纺,细颗粒物(PM2.5),57,46,39,40,30,60,,71,51,13,20,4,6,0.4,0.6
2024-02-14T2300,2256A,130.3995,46.8307,佳木斯市,发电厂,,40,36,27,28,20,65,,76,64,10,13,1,4,0.4,0.5
2024-02-14T2300,2257A,130.3258,46.7975,佳木斯市,环保局,细颗粒物(PM2.5),114,101,48,86,34,54,,72,48,20,22,7,10,0.7,0.7
2024-02-14T2300,2258A,130.3648,46.8032,佳木斯市,十一中,细颗粒物(PM2.5),93,87,39,69,33,59,,75,50,14,17,8,9,0.4,0.5
2024-02-14T2300,2259A,130.3794,46.7588,佳木斯市,四丰,,42,42,29,19,17,56,,82,70,16,10,1,1,0.3,0.2
2024-02-14T2300,1252A,120.7436,30.778,嘉兴市,清河小学,细颗粒物(PM2.5),74,69,38,54,23,62,,88,72,21,11,9,6,0.4,0.4
2024-02-14T2300,1253A,120.726,30.7478,嘉兴市,嘉兴学院,细颗粒物(PM2.5),54,54,40,38,25,58,,92,76,23,12,8,6,0.6,0.6
2024-02-14T2300,2872A,120.7846,30.7525,嘉兴市,南湖区残联,颗粒物(PM10),56,61,42,37,25,77,,101,87,21,8,15,7,0.7,0.5
2024-02-14T2300,3407A,120.6916,30.7739,嘉兴市,秀洲住建,细颗粒物(PM2.5),52,50,36,36,25,59,,87,70,27,16,10,8,0.5,0.5
2024-02-14T2300,1945A,98.2908,39.7711,嘉峪关市,气象局,颗粒物(PM10),51,51,54,27,20,71,,87,83,13,7,7,9,0.5,0.4
2024-02-14T2300,2884A,98.2672,39.7978,嘉峪关市,酒钢宾馆,颗粒物(PM10),54,58,66,19,22,73,,83,82,14,14,11,22,0.4,0.6
2024-02-14T2300,3248A,98.2643,39.7724,嘉峪关市,雄关区,,49,49,53,28,22,60,,81,79,24,15,6,9,0.6,0.4
2024-02-14T2300,1383A,113.1064,22.6058,江门市,北街,,33,33,41,23,26,70,,98,86,10,11,7,7,0.3,0.3
2024-02-14T2300,1384A,113.0731,22.5835,江门市,西区,颗粒物(PM10),52,54,46,33,36,71,,101,87,13,12,5,5,0.4,0.5
2024-02-14T2300,1385A,113.0219,22.5311,江门市,圭峰西,,32,28,38,22,25,76,,104,92,12,10,6,6,0.5,0.5
2024-02-14T2300,1386A,113.0828,22.5947,江门市,东湖,,50,50,44,30,29,61,,99,83,14,11,6,6,0.5,0.5
2024-02-14T2300,3311A,113.1075,22.5647,江门市,江海富民,,43,43,57,25,29,71,,104,90,11,10,6,6,0.4,0.4
2024-02-14T2300,3449A,113.05,22.4667,江门市,新会银湖,,38,32,37,26,30,70,,103,89,8,10,4,4,0.5,0.5
2024-02-14T2300,1828A,113.227,35.2125,焦作市,市环保局,颗粒物(PM10),53,56,117,31,90,53,,73,66,9,21,2,13,0.8,1.3
2024-02-14T2300,3169A,113.2725,35.2067,焦作市,太极体育中心,颗粒物(PM10),57,63,124,38,92,59,,86,80,14,24,4,14,0.6,1.1
2024-02-14T2300,3335A,113.3137,35.2641,焦作市,马村街道办,细颗粒物(PM2.5),90,72,118,67,91,68,,81,78,12,19,6,17,0.6,0.8
2024-02-14T2300,3336A,113.2465,35.2373,焦作市,焦作技师学院,细颗粒物(PM2.5),52,44,117,36,83,49,,73,62,12,27,11,22,0.9,1.3
2024-02-14T2300,3477A,113.1656,35.2539,焦作市,中站许衡医院,细颗粒物(PM2.5),57,46,107,40,73,49,,94,70,22,20,4,15,0.5,0.8
2024-02-14T2300,3981A,113.2449,35.1803,焦作市,原李万街道办,颗粒物(PM10),55,59,130,27,89,58,,80,71,15,27,6,16,0.6,1.2
2024-02-14T2300,1708A,116.3701,23.5345,揭阳市,新兴,细颗粒物(PM2.5),57,53,75,40,60,71,,108,89,17,11,12,9,1.0,0.9
2024-02-14T2300,1709A,116.3264,23.5443,揭阳市,西马,细颗粒物(PM2.5),92,91,80,68,63,62,,104,84,18,11,11,9,0.9,0.7
2024-02-14T2300,1710A,116.3611,23.5626,揭阳市,东兴,颗粒物(PM10),51,51,75,26,52,66,,108,91,22,10,12,9,1.2,0.8
2024-02-14T2300,1711A,116.4151,23.5294,揭阳市,渔湖,颗粒物(PM10),55,59,76,18,48,73,,109,93,15,10,12,9,0.9,0.8
2024-02-14T2300,3320A,116.403,23.5699,揭阳市,曲溪,细颗粒物(PM2.5),95,100,82,71,57,35,,115,89,39,12,12,5,1.7,0.8
2024-02-14T2300,1944A,102.1692,38.5167,金昌市,天庆家园,颗粒物(PM10),63,75,57,36,14,42,,86,72,36,11,16,15,0.8,0.4
2024-02-14T2300,3170A,102.1864,38.5253,金昌市,市委党校,颗粒物(PM10),60,69,58,33,15,46,,84,73,27,4,20,10,0.9,0.6
2024-02-14T2300,4022A,102.1647,38.5371,金昌市,金川区人防中心,细颗粒物(PM2.5),104,119,62,78,18,35,,84,70,34,7,23,14,0.9,0.6
2024-02-14T2300,1262A,119.647,29.077,金华市,十五中,细颗粒物(PM2.5),92,90,58,68,40,28,,86,57,32,18,4,4,0.9,0.7
2024-02-14T2300,1263A,119.686,29.1029,金华市,监测站,细颗粒物(PM2.5),112,105,62,84,41,28,,95,,28,16,4,3,0.7,0.6
2024-02-14T2300,3659A,119.656,29.1131,金华市,气象局,细颗粒物(PM2.5),117,113,61,88,44,3,,88,49,59,21,4,4,1.0,0.8
2024-02-14T2300,1767A,121.1115,41.0879,锦州市,南山,,33,33,50,17,33,61,,83,74,12,14,23,11,0.6,0.6
2024-02-14T2300,1768A,121.0533,40.8434,锦州市,开发区,,33,33,61,15,34,62,,80,71,11,13,45,15,1.0,0.8
2024-02-14T2300,1769A,121.1836,41.1119,锦州市,百股街道,,23,23,68,12,32,71,,83,72,6,9,12,12,0.5,0.6
2024-02-14T2300,1770A,121.1178,41.1222,锦州市,天安街道,,22,21,47,7,23,70,,78,74,12,12,7,9,0.4,0.5
2024-02-14T2300,1771A,121.1303,41.1386,锦州市,北湖公园,,22,20,40,6,23,68,,75,68,7,11,9,11,0.5,0.6
2024-02-14T2300,2160A,112.85,35.5051,晋城市,自来水公司,,48,48,100,27,58,54,,78,68,13,25,4,14,0.9,1.7
2024-02-14T2300,2161A,112.8318,35.4936,晋城市,白云商贸,,40,40,100,17,49,56,,79,68,15,22,4,10,0.7,1.4
2024-02-14T2300,2162A,112.8508,35.4887,晋城市,市环保局,,40,40,107,24,57,54,,78,66,14,29,4,12,0.7,1.5
2024-02-14T2300,2163A,112.8676,35.4897,晋城市,技术学院,,44,44,95,17,51,53,,78,68,16,30,3,13,0.7,1.3
2024-02-14T2300,3620A,112.8271,35.4828,晋城市,泽州一中,,28,28,98,14,47,56,,80,70,16,22,5,12,0.9,1.6
2024-02-14T2300,2171A,112.7532,37.6945,晋中市,锦纶小区,细颗粒物(PM2.5),117,117,82,88,48,40,,70,64,29,20,14,18,0.8,0.5
2024-02-14T2300,2173A,112.7249,37.7067,晋中市,南都小区,细颗粒物(PM2.5),83,95,111,61,61,43,,72,66,27,27,17,20,0.5,0.6
2024-02-14T2300,2174A,112.6991,37.6982,晋中市,榆次区政府,细颗粒物(PM2.5),68,78,82,49,49,41,,71,65,24,23,16,19,0.7,0.6
2024-02-14T2300,2865A,112.7195,37.6828,晋中市,榆次三中,细颗粒物(PM2.5),79,80,78,58,39,41,,71,64,24,19,13,18,1.2,0.7
2024-02-14T2300,2439A,112.2014,31.0481,荆门市,竹园小学,颗粒物(PM10),90,130,83,47,58,86,,96,95,10,18,10,12,0.7,0.7
2024-02-14T2300,2440A,112.1969,30.9891,荆门市,掇刀,颗粒物(PM10),84,117,74,53,54,90,,98,98,9,15,14,15,0.7,0.7
2024-02-14T2300,2441A,112.2213,31.0386,荆门市,石化一小,颗粒物(PM10),91,131,84,54,56,88,,99,98,11,16,16,16,0.7,0.7
2024-02-14T2300,3012A,112.1849,31.0362,荆门市,西山林语,颗粒物(PM10),79,107,74,42,51,89,,102,101,15,20,9,14,0.5,0.6
2024-02-14T2300,3547A,112.1632,31.0138,荆门市,龙泉中学南校,细颗粒物(PM2.5),87,107,76,64,52,85,,101,100,12,24,9,13,0.6,0.6
2024-02-14T2300,1844A,112.2494,30.3197,荆州市,市图书馆,细颗粒物(PM2.5),92,89,61,68,43,85,,82,82,12,21,7,8,0.9,1
2024-02-14T2300,1845A,112.2008,30.3544,荆州市,市委党校,颗粒物(PM10),66,82,57,44,48,88,,90,90,14,20,6,6,0.9,0.7
2024-02-14T2300,3194A,112.2747,30.3122,荆州市,管委会,细颗粒物(PM2.5),84,80,53,62,43,84,,82,82,11,15,9,9,0.8,0.7
2024-02-14T2300,3548A,112.1655,30.3364,荆州市,学苑路,细颗粒物(PM2.5),93,86,49,69,48,80,,78,78,13,17,8,7,1.1,1
2024-02-14T2300,2342A,117.3102,29.3867,景德镇市,王港中学,细颗粒物(PM2.5),65,58,26,47,21,8,,76,42,4,3,3,4,0.3,0.4
2024-02-14T2300,2343A,117.2117,29.2933,景德镇市,老干部活动中心,细颗粒物(PM2.5),85,88,34,63,26,6,,62,43,21,10,8,7,0.5,0.2
2024-02-14T2300,2344A,117.1894,29.2789,景德镇市,兽医站,细颗粒物(PM2.5),90,100,36,67,21,19,,76,58,18,7,5,5,0.5,0.3
2024-02-14T2300,2345A,117.1547,29.2617,景德镇市,台达陶瓷,细颗粒物(PM2.5),74,80,33,54,21,23,,72,51,20,10,4,4,0.6,0.4
2024-02-14T2300,2346A,117.2461,29.2956,景德镇市,陶研所,颗粒物(PM10),53,56,26,34,14,16,,68,48,13,9,4,5,0.3,0.2
2024-02-14T2300,1803A,115.9872,29.6815,九江市,十里,细颗粒物(PM2.5),103,105,41,77,29,38,,89,64,34,21,15,11,0.9,0.7
2024-02-14T2300,1804A,115.9584,29.7046,九江市,茅山头,细颗粒物(PM2.5),93,99,49,69,34,1,,70,45,71,40,16,12,0.9,0.8
2024-02-14T2300,1805A,115.9877,29.7295,九江市,西园,细颗粒物(PM2.5),90,91,49,67,29,51,,76,65,43,35,11,8,1.0,0.5
2024-02-14T2300,1806A,116.0172,29.6547,九江市,五七二七厂,,45,42,28,31,23,56,,71,61,17,14,9,8,0.8,0.6
2024-02-14T2300,1808A,115.9114,29.6038,九江市,综合工业园,细颗粒物(PM2.5),63,52,39,45,28,28,,86,62,24,16,12,12,0.5,0.6
2024-02-14T2300,1809A,116.0721,29.7535,九江市,石化总厂,细颗粒物(PM2.5),77,80,38,56,24,68,,92,74,36,21,12,11,1.0,0.7
2024-02-14T2300,1810A,115.9773,29.5698,九江市,庐山气象台,,28,21,22,18,17,87,,86,86,3,4,10,8,1.0,1.4
2024-02-14T2300,3190A,116.0254,29.6994,九江市,外国语学校,,,70,37,50,28,55,,67,63,33,28,14,9,,0.7
2024-02-14T2300,2658A,98.5061,39.7443,酒泉市,仓门街子站,颗粒物(PM10),58,66,46,32,20,64,,85,77,17,8,7,5,0.5,0.4
2024-02-14T2300,2659A,98.4989,39.7256,酒泉市,油田生活基地,颗粒物(PM10),59,68,52,31,25,62,,89,81,17,8,8,6,0.5,0.4
2024-02-14T2300,2698A,76.0072,39.4467,喀什地区,巡警大队,颗粒物(PM10),500,1228,878,247,153,47,,81,74,42,19,6,5,1.2,0.8
2024-02-14T2300,2699A,75.9755,39.4694,喀什地区,吾办,颗粒物(PM10),500,1240,840,244,151,48,,69,62,34,24,2,3,0.9,0.8
2024-02-14T2300,4027A,75.9483,39.4689,喀什地区,老干局,颗粒物(PM10),500,1304,909,199,122,27,,81,68,57,20,11,6,1.8,0.9
2024-02-14T2300,1824A,114.3389,34.7781,开封市,肿瘤医院,颗粒物(PM10),88,125,182,55,108,71,,95,87,7,19,2,4,0.6,1
2024-02-14T2300,1826A,114.2885,34.7965,开封市,世纪星幼儿园,颗粒物(PM10),78,106,171,45,122,81,,105,100,2,15,4,9,0.5,0.8
2024-02-14T2300,3147A,114.3438,34.8106,开封市,龙亭公园,颗粒物(PM10),76,102,197,36,136,70,,94,88,5,27,4,7,0.5,1
2024-02-14T2300,3210A,114.3644,34.7964,开封市,汴京公园,颗粒物(PM10),80,110,207,36,134,75,,100,94,8,26,3,6,0.5,0.9
2024-02-14T2300,3473A,114.2485,34.8306,开封市,技师学院,颗粒物(PM10),78,105,170,31,117,77,,101,96,3,14,1,5,0.7,1
2024-02-14T2300,3592A,114.4644,34.7556,开封市,祥符区生态环境局,颗粒物(PM10),75,100,172,38,110,72,,96,89,7,20,4,7,0.4,0.8
2024-02-14T2300,1951A,84.895,45.6094,克拉玛依市,长征新村,,32,32,21,21,13,72,,84,80,21,15,9,8,0.4,0.3
2024-02-14T2300,1952A,84.8988,45.5893,克拉玛依市,南林小区,细颗粒物(PM2.5),52,,23,36,19,37,,83,72,52,18,3,4,0.5,0.3
2024-02-14T2300,1954A,84.905,44.3396,克拉玛依市,独山子区,细颗粒物(PM2.5),59,47,47,42,43,95,,82,82,16,26,5,5,0.5,0.4
2024-02-14T2300,1955A,85.6979,46.098,克拉玛依市,乌尔禾区商贸楼,颗粒物(PM10),53,56,18,35,13,43,,86,76,45,19,7,4,1.1,0.4
2024-02-14T2300,3612A,85.1045,45.6899,克拉玛依市,白碱滩区新站,,27,27,26,7,11,67,,85,80,16,12,9,9,0.2,0.2
2024-02-14T2300,2697A,76.1454,39.7142,克孜勒苏柯尔克孜自治州,市人民政府,颗粒物(PM10),500,910,555,187,107,29,,81,67,46,10,4,4,1.1,0.8
2024-02-14T2300,3665A,76.1658,39.7157,克孜勒苏柯尔克孜自治州,克州文化中心,颗粒物(PM10),500,1053,738,188,113,56,,80,71,22,12,5,4,0.6,0.6
2024-02-14T2300,1450A,102.8204,24.8886,昆明市,呈贡新区,,36,,23,25,16,79,,94,87,11,6,5,5,0.5,0.6
2024-02-14T2300,1451A,102.6251,24.9608,昆明市,西山森林公园,,,18,18,14,13,94,,98,94,,6,7,10,0.7,0.8
2024-02-14T2300,1452A,102.7252,25.0902,昆明市,龙泉镇,颗粒物(PM10),97,143,30,51,21,34,,94,76,33,17,14,11,0.6,0.5
2024-02-14T2300,1453A,102.7266,25.0375,昆明市,东风东路,,26,26,22,17,19,75,,90,81,13,14,7,7,0.5,0.5
2024-02-14T2300,1454A,102.6742,25.0669,昆明市,金鼎山,,38,38,26,25,17,78,,94,85,14,14,8,8,0.6,0.6
2024-02-14T2300,1455A,102.6644,25.0401,昆明市,碧鸡广场,,32,25,22,22,17,73,,92,83,19,12,9,9,0.5,0.6
2024-02-14T2300,3179A,102.7494,25.0119,昆明市,官渡区博物馆,,,,31,16,16,77,,91,84,6,9,10,10,0.6,0.8
2024-02-14T2300,3375A,102.8017,24.8336,昆明市,青年创业园,,28,22,19,19,14,81,,97,89,7,6,10,9,1.1,0.9
2024-02-14T2300,3550A,102.7997,24.9786,昆明市,昆明学院,,30,29,21,21,13,80,,90,85,3,5,8,9,0.5,0.5
2024-02-14T2300,3551A,102.5967,24.6736,昆明市,晋宁区生态环境分局,,50,50,30,19,16,86,,98,92,8,8,4,4,0.5,0.5
2024-02-14T2300,3552A,102.6678,24.9856,昆明市,云天化总部,,27,23,22,16,16,85,,97,89,5,9,8,9,0.5,0.7
2024-02-14T2300,1456A,91.1319,29.6514,拉萨市,八廓街,,29,11,25,10,15,91,,97,93,13,18,6,6,0.4,0.4
2024-02-14T2300,1457A,91.1221,29.6747,拉萨市,市环保局,,28,10,21,7,13,89,,102,96,10,11,6,6,0.5,0.6
2024-02-14T2300,1458A,91.0874,29.6475,拉萨市,区监测站,,30,16,20,9,9,93,,100,95,5,7,4,4,0.5,0.5
2024-02-14T2300,1459A,91.1774,29.6541,拉萨市,西藏大学,,30,14,24,8,16,96,,100,97,2,10,4,5,0.4,0.4
2024-02-14T2300,1460A,90.9798,29.6588,拉萨市,区辐射站,,30,25,20,10,11,93,,98,93,5,9,5,5,0.3,0.4
2024-02-14T2300,1461A,91.0834,29.6292,拉萨市,拉萨火车站,,31,14,12,6,6,97,,102,99,2,5,3,3,0.3,0.2
2024-02-14T2300,2520A,109.2203,23.7256,来宾市,来宾技工学校,二氧化硫,83,97,90,59,63,52,,71,54,15,15,375,25,0.8,0.9
2024-02-14T2300,3535A,109.1781,23.7297,来宾市,兴宾区政府,细颗粒物(PM2.5),78,80,74,57,54,59,,75,65,16,12,10,10,0.8,0.8
2024-02-14T2300,4002A,109.2416,23.7461,来宾市,中南小学,细颗粒物(PM2.5),130,118,102,99,73,24,,70,49,35,20,7,6,1.4,1.3
2024-02-14T2300,1476A,103.631,36.1031,兰州市,兰炼宾馆,颗粒物(PM10),53,55,63,27,27,76,,86,77,6,9,7,9,0.3,0.3
2024-02-14T2300,1478A,103.8412,36.0726,兰州市,生物制品所,颗粒物(PM10),56,62,63,36,32,68,,85,78,16,13,9,8,0.4,0.4
2024-02-14T2300,1479A,103.831,36.0464,兰州市,铁路设计院,颗粒物(PM10),51,52,57,33,31,68,,84,80,27,19,12,11,0.5,0.4
2024-02-14T2300,3186A,103.7158,36.1058,兰州市,教育港,,43,43,56,24,26,78,,88,85,12,12,6,8,0.3,0.3
2024-02-14T2300,3241A,103.7439,36.0842,兰州市,百合公园,,44,44,52,20,23,69,,84,80,18,8,2,6,0.6,0.4
2024-02-14T2300,3242A,103.9611,35.998,兰州市,和平,,48,48,62,21,18,67,,93,86,26,9,13,12,0.6,0.5
2024-02-14T2300,3245A,103.6633,36.533,兰州新区,新区管委会,,50,50,45,28,21,78,,88,85,6,6,4,6,0.3,0.4
2024-02-14T2300,3246A,103.6975,36.4789,兰州新区,舟曲中学,颗粒物(PM10),52,53,57,14,14,72,,89,84,5,5,6,7,0.4,0.4
2024-02-14T2300,1067A,116.6708,39.5111,廊坊市,药材公司,,25,20,183,10,119,77,,80,79,10,36,1,6,0.2,1.2
2024-02-14T2300,1068A,116.7214,39.5589,廊坊市,开发区,,25,11,159,9,119,80,,79,79,5,28,1,4,0.2,1.2
2024-02-14T2300,1070A,116.7244,39.5269,廊坊市,北华航天学院,,25,17,173,1,113,79,,83,82,6,32,1,5,0.3,1.2
2024-02-14T2300,2919A,116.7022,39.5453,廊坊市,河北工业大学,,24,17,164,10,118,75,,80,79,8,28,1,6,0.2,1.1
2024-02-14T2300,2535A,103.7723,29.5462,乐山市,花湖湾,颗粒物(PM10),54,57,113,26,89,68,,102,94,10,30,6,8,0.2,0.6
2024-02-14T2300,2536A,103.7627,29.5844,乐山市,牛耳桥,颗粒物(PM10),56,61,93,39,77,49,,104,86,32,29,6,6,0.5,0.9
2024-02-14T2300,2537A,103.7508,29.6006,乐山市,市第三水厂,,50,46,92,35,75,64,,99,87,21,31,4,5,0.4,0.8
2024-02-14T2300,2538A,103.7571,29.5664,乐山市,市监测站,细颗粒物(PM2.5),64,53,94,46,76,62,,104,91,18,28,6,8,0.3,0.7
2024-02-14T2300,3361A,103.7311,29.5628,乐山市,理工大学,细颗粒物(PM2.5),55,53,96,39,80,70,,110,99,13,24,5,6,0.5,0.9
2024-02-14T2300,2599A,100.2497,26.8802,丽江市,丽江古城,,39,39,28,23,16,75,,88,80,20,18,6,7,0.6,0.5
2024-02-14T2300,2600A,100.2203,26.8906,丽江市,市中心,,25,17,14,10,8,78,,86,77,11,14,7,8,0.5,0.5
2024-02-14T2300,1267A,119.914,28.4514,丽水市,监测站大楼,细颗粒物(PM2.5),74,73,45,54,34,13,,72,33,25,14,4,4,0.9,0.7
2024-02-14T2300,1268A,119.93,28.4586,丽水市,莲都小学,细颗粒物(PM2.5),119,,51,90,39,14,,80,49,30,14,4,4,0.8,0.5
2024-02-14T2300,1269A,119.879,28.4231,丽水市,余庄前,,35,33,31,24,21,16,,78,46,8,6,4,4,0.6,0.5
2024-02-14T2300,1173A,119.176,34.5885,连云港市,市环境监测站,"颗粒物(PM10),细颗粒物(PM2.5)",73,95,90,53,62,63,,78,65,16,27,6,11,0.8,0.8
2024-02-14T2300,3000A,119.3581,34.6972,连云港市,德源药业,细颗粒物(PM2.5),73,85,78,53,49,66,,76,73,10,20,5,8,0.6,0.6
2024-02-14T2300,3007A,119.178,34.844,连云港市,新城一中,细颗粒物(PM2.5),68,73,98,49,80,68,,69,64,19,44,10,14,0.8,1
2024-02-14T2300,3008A,119.3608,34.7519,连云港市,胡沟管理处,"颗粒物(PM10),细颗粒物(PM2.5)",64,78,90,46,59,64,,58,38,17,39,8,15,0.4,0.6
2024-02-14T2300,3009A,119.1478,34.5911,连云港市,矿山设计院,细颗粒物(PM2.5),79,105,92,58,58,62,,79,64,14,23,6,9,0.7,0.8
2024-02-14T2300,3434A,119.2413,34.6539,连云港市,工贸学校,细颗粒物(PM2.5),84,101,89,62,62,69,,90,76,24,28,9,14,0.8,0.8
2024-02-14T2300,3664A,119.4172,34.7341,连云港市,连云街道,细颗粒物(PM2.5),80,108,121,59,66,64,,54,45,15,50,4,15,0.9,1
2024-02-14T2300,2571A,102.3431,27.8099,凉山彝族自治州,青龙寺,,28,28,22,4,4,74,,96,87,5,4,6,5,0.8,0.7
2024-02-14T2300,2572A,102.2721,27.8415,凉山彝族自治州,邛海宾馆,,21,20,22,5,6,66,,99,92,14,7,10,10,0.8,0.6
2024-02-14T2300,2573A,102.2625,27.898,凉山彝族自治州,西昌市政府,,28,23,21,16,13,88,,102,99,5,6,9,11,0.7,0.8
2024-02-14T2300,2574A,102.2685,27.8851,凉山彝族自治州,凉山州政府,,23,22,20,15,14,72,,94,88,9,8,7,9,0.7,0.7
2024-02-14T2300,2575A,102.237,27.8914,凉山彝族自治州,长安,,27,27,21,17,13,78,,100,96,10,8,16,15,1.0,1.1
2024-02-14T2300,2212A,123.2,41.1953,辽阳市,宏伟区,,36,36,42,20,27,48,,68,58,12,10,12,13,0.6,0.7
2024-02-14T2300,2213A,123.1683,41.2495,辽阳市,新华园,,50,50,46,20,27,54,,67,63,11,11,14,14,0.8,0.8
2024-02-14T2300,2214A,123.2354,41.2639,辽阳市,滨河路,,39,35,42,27,32,45,,62,57,12,9,9,8,0.6,0.8
2024-02-14T2300,2215A,123.149,41.2991,辽阳市,铁西工业园,,33,33,44,16,23,55,,69,64,12,12,12,12,0.6,0.7
2024-02-14T2300,2227A,125.1358,42.8845,辽源市,环保局,,41,41,40,28,22,66,,74,71,10,9,9,10,0.5,0.4
2024-02-14T2300,3239A,125.0764,42.9078,辽源市,银鹰制药,,28,25,36,19,14,50,,75,69,10,4,6,5,0.5,0.5
2024-02-14T2300,1625A,115.9848,36.4372,聊城市,区政府,,25,25,113,6,58,76,,79,75,3,11,4,11,0.4,0.8
2024-02-14T2300,2878A,116.0072,36.4343,聊城市,聊大东校,,30,30,102,16,65,80,,85,80,6,14,5,13,0.2,0.6
2024-02-14T2300,3200A,115.9819,36.4978,聊城市,监控中心,,36,36,117,17,64,72,,83,76,6,11,11,12,0.6,0.8
2024-02-14T2300,3513A,116.0445,36.4361,聊城市,九州社区,,41,41,114,16,56,75,,80,74,9,17,3,14,0.3,0.7
2024-02-14T2300,4018A,116.0567,36.4608,聊城市,星美广场,,42,42,120,7,56,76,,76,71,8,15,2,8,0.6,0.9
2024-02-14T2300,2632A,94.3681,29.6376,林芝市,林芝监测站,,30,15,13,5,5,93,,92,92,1,1,5,4,0.5,0.5
2024-02-14T2300,2633A,94.3616,29.6616,林芝市,林芝人民医院,,28,22,16,10,7,89,,89,89,3,3,9,10,0.5,0.5
2024-02-14T2300,2603A,100.0781,23.8982,临沧市,市环保局,细颗粒物(PM2.5),53,,24,37,24,54,,93,84,11,8,7,6,0.4,0.3
2024-02-14T2300,2604A,100.0894,23.8822,临沧市,市气象局,细颗粒物(PM2.5),59,47,32,42,27,47,,88,76,17,9,7,6,0.5,0.3
2024-02-14T2300,1733A,111.5531,36.0783,临汾市,临钢医院,颗粒物(PM10),74,97,96,28,45,50,,64,59,14,16,8,10,0.7,1
2024-02-14T2300,1734A,111.5028,36.0714,临汾市,技工学校,颗粒物(PM10),86,122,101,44,54,54,,71,67,13,18,9,12,0.5,0.7
2024-02-14T2300,1736A,111.5018,36.0855,临汾市,市委,颗粒物(PM10),103,155,107,43,47,55,,76,70,15,21,8,10,0.7,0.8
2024-02-14T2300,3018A,111.505,36.1014,临汾市,唐尧大酒店,颗粒物(PM10),118,185,107,35,49,59,,71,67,15,27,9,12,0.7,0.8
2024-02-14T2300,3668A,111.5036,36.0414,临汾市,城南,颗粒物(PM10),66,82,101,32,58,47,,69,62,15,18,8,10,0.4,0.8
2024-02-14T2300,2667A,103.2069,35.5993,临夏回族自治州,环保局,,41,41,28,21,16,65,,76,71,10,7,15,14,0.4,0.3
2024-02-14T2300,2668A,103.2417,35.6057,临夏回族自治州,建设大厦,,40,30,30,28,25,77,,84,83,8,8,14,14,0.3,0.3
2024-02-14T2300,1618A,118.3429,35.0532,临沂市,沂河小区,细颗粒物(PM2.5),64,73,98,46,70,70,,93,82,9,31,4,12,0.5,0.8
2024-02-14T2300,1619A,118.295,35.0583,临沂市,鲁南制药厂,颗粒物(PM10),67,83,92,40,61,77,,109,94,9,25,4,13,0.8,1.1
2024-02-14T2300,1620A,118.2794,34.9976,临沂市,新光毛纺厂,颗粒物(PM10),67,83,92,43,65,54,,102,82,13,28,3,11,0.7,0.9
2024-02-14T2300,1621A,118.3956,35.0888,临沂市,河东保险公司,颗粒物(PM10),65,80,95,32,65,78,,101,89,8,33,3,12,0.7,1.1
2024-02-14T2300,3370A,118.3564,35.0215,临沂市,十里堡居委,颗粒物(PM10),76,102,94,34,59,81,,103,91,16,32,1,10,0.7,1.1
2024-02-14T2300,3496A,118.3604,35.1084,临沂市,南坊新区,颗粒物(PM10),57,63,91,34,59,75,,108,94,8,27,6,14,0.6,1
2024-02-14T2300,3860A,118.3920,35.0300,临沂市,皇山花园小区,颗粒物(PM10),92,134,98,35,62,77,,107,94,4,28,4,14,0.6,1
2024-02-14T2300,1870A,109.4856,24.3895,柳州市,柳东小学,细颗粒物(PM2.5),78,70,54,57,45,55,,78,71,23,16,8,7,0.6,0.6
2024-02-14T2300,1871A,109.4157,24.3277,柳州市,环保监测站,细颗粒物(PM2.5),144,148,78,110,62,14,,74,54,49,20,9,7,1.2,0.8
2024-02-14T2300,1872A,109.389,24.341,柳州市,河西水厂,细颗粒物(PM2.5),140,160,76,107,47,27,,72,55,30,18,9,7,0.8,0.6
2024-02-14T2300,1873A,109.4311,24.2921,柳州市,市四中,细颗粒物(PM2.5),196,172,95,147,68,16,,71,56,52,21,10,8,1.2,0.7
2024-02-14T2300,1874A,109.4006,24.3631,柳州市,市九中,细颗粒物(PM2.5),129,185,79,98,52,14,,66,45,41,16,6,5,0.9,0.6
2024-02-14T2300,1875A,109.4958,24.3134,柳州市,古亭山,细颗粒物(PM2.5),107,133,64,80,50,15,,76,56,36,16,6,6,0.9,0.8
2024-02-14T2300,3402A,109.5422,24.3996,柳州市,市二中,细颗粒物(PM2.5),70,72,51,51,38,37,,78,61,26,18,7,7,0.7,0.8
2024-02-14T2300,2307A,116.5079,31.737,六安市,监测大楼,细颗粒物(PM2.5),94,88,36,70,31,51,,93,77,36,16,8,6,0.7,0.7
2024-02-14T2300,2308A,116.4738,31.7643,六安市,皖西学院,细颗粒物(PM2.5),75,78,45,55,30,68,,98,87,16,14,8,5,0.6,0.5
2024-02-14T2300,2309A,116.4996,31.7905,六安市,朝阳厂,细颗粒物(PM2.5),85,,41,63,34,75,,91,83,13,14,8,6,0.5,0.5
2024-02-14T2300,2310A,116.5567,31.7886,六安市,开发区,细颗粒物(PM2.5),80,93,47,59,28,53,,86,73,21,11,7,6,0.6,0.5
2024-02-14T2300,2577A,104.83,26.5917,六盘水市,黄土坡,细颗粒物(PM2.5),83,74,48,61,37,104,,105,105,7,13,9,15,0.7,0.7
2024-02-14T2300,2578A,104.89,26.5939,六盘水市,水钢,细颗粒物(PM2.5),99,,46,74,36,91,,106,104,21,7,8,8,1.0,0.6
2024-02-14T2300,2579A,104.8475,26.5894,六盘水市,民中,细颗粒物(PM2.5),92,73,62,68,55,96,,100,100,9,20,9,15,0.7,0.8
2024-02-14T2300,2580A,104.9544,26.5506,六盘水市,双水,细颗粒物(PM2.5),110,97,51,83,40,99,,108,108,9,5,10,9,0.8,0.6
2024-02-14T2300,2336A,117.0217,25.1033,龙岩市,龙岩市监测站,颗粒物(PM10),55,59,34,38,27,36,,87,64,18,12,3,4,0.5,0.5
2024-02-14T2300,2337A,117.0258,25.0661,龙岩市,闽西职业技术学院,,39,32,31,27,22,49,,82,68,10,7,2,2,0.5,0.5
2024-02-14T2300,2338A,117.0196,25.0306,龙岩市,龙岩学院,,38,30,28,26,19,53,,84,70,6,5,3,3,0.5,0.5
2024-02-14T2300,2885A,104.9339,33.3826,陇南市,滨江中学,颗粒物(PM10),69,88,73,35,37,53,,79,72,26,18,27,11,1.1,1.1
2024-02-14T2300,3247A,104.955,33.371,陇南市,市总工会,颗粒物(PM10),57,63,66,23,33,79,,88,86,10,13,8,7,0.5,0.6
2024-02-14T2300,2487A,111.9589,27.8901,娄底市,电视发射台,,38,38,37,24,20,31,,73,54,26,24,5,6,0.2,0.4
2024-02-14T2300,2488A,111.9975,27.725,娄底市,市监测站,细颗粒物(PM2.5),89,81,49,66,36,28,,86,69,40,23,14,6,0.8,0.6
2024-02-14T2300,2489A,112.0194,27.7314,娄底市,市委党校,细颗粒物(PM2.5),83,80,45,61,34,29,,72,57,22,11,8,9,0.6,0.5
2024-02-14T2300,2490A,111.9561,27.7569,娄底市,涟钢,细颗粒物(PM2.5),57,54,62,40,42,37,,56,50,10,20,18,24,1.0,1.4
2024-02-14T2300,2491A,111.9892,27.7044,娄底市,市政府,细颗粒物(PM2.5),110,118,49,83,31,7,,76,55,34,13,9,9,0.8,0.5
2024-02-14T2300,1893A,105.4324,28.9634,泸州市,九狮山,细颗粒物(PM2.5),89,114,143,66,101,66,,94,78,11,13,7,6,0.6,0.6
2024-02-14T2300,1894A,105.4427,28.9063,泸州市,小市上码头,细颗粒物(PM2.5),100,102,126,75,100,62,,101,96,17,29,7,6,0.7,1
2024-02-14T2300,1895A,105.4241,28.8573,泸州市,兰田宪桥,细颗粒物(PM2.5),124,104,124,94,110,57,,99,81,24,21,6,6,0.8,0.9
2024-02-14T2300,1896A,105.4379,28.8833,泸州市,市环监站,细颗粒物(PM2.5),110,99,121,83,97,52,,95,86,22,20,5,6,0.8,1
2024-02-14T2300,3490A,105.3617,28.7703,泸州市,纳溪区环保局,细颗粒物(PM2.5),149,158,122,114,105,40,,101,80,32,21,7,7,1.2,1.1
2024-02-14T2300,2183A,111.1406,37.5211,吕梁市,环保局,颗粒物(PM10),112,174,86,62,40,4,,45,23,37,31,5,6,0.5,0.6
2024-02-14T2300,2185A,111.1297,37.5136,吕梁市,自来水公司,颗粒物(PM10),119,188,99,70,48,14,,45,29,33,32,8,10,0.6,0.9
2024-02-14T2300,2867A,111.1283,37.51,吕梁市,马茂庄小学,颗粒物(PM10),154,258,116,74,50,4,,46,25,49,38,8,7,0.4,0.9
2024-02-14T2300,1812A,112.3931,34.6516,洛阳市,市委党校,,46,46,144,12,83,49,,66,56,8,27,8,18,0.2,0.7
2024-02-14T2300,1814A,112.4657,34.6871,洛阳市,豫西宾馆,,38,,161,26,78,52,,67,59,6,26,9,20,0.1,0.6
2024-02-14T2300,1815A,112.494,34.6886,洛阳市,河南林校,,39,39,142,26,75,51,,67,59,6,24,6,14,0.5,1
2024-02-14T2300,1816A,112.3844,34.623,洛阳市,开发区管委会,,38,38,131,24,70,55,,72,60,4,13,2,10,0.4,0.7
2024-02-14T2300,1817A,112.4267,34.6258,洛阳市,市委新办公区,,45,45,137,30,86,54,,71,61,6,19,3,8,0.5,0.8
2024-02-14T2300,3340A,112.6005,34.6326,洛阳市,伊滨,颗粒物(PM10),54,57,143,24,72,51,,70,60,9,18,4,8,0.4,0.7
2024-02-14T2300,3341A,112.4951,34.6332,洛阳市,中移产业园,,37,37,132,15,76,56,,69,61,6,20,3,10,0.6,0.9
2024-02-14T2300,3593A,112.5736,34.8993,洛阳市,吉利监测站,,18,14,89,8,55,55,,81,62,13,21,4,7,0.4,0.8
2024-02-14T2300,3635A,112.3677,34.662,洛阳市,河科大西苑校区,,49,49,132,26,57,54,,68,57,5,18,3,9,0.4,1.1
2024-02-14T2300,3636A,112.4388,34.6781,洛阳市,英才小学,,45,,150,31,79,55,,69,60,4,22,2,16,0.4,0.9
2024-02-14T2300,2399A,114.051,33.5699,漯河市,三五一五工厂,颗粒物(PM10),179,308,188,84,136,87,,113,108,9,30,10,15,0.7,1
2024-02-14T2300,2400A,114.0055,33.5698,漯河市,漯河大学,颗粒物(PM10),142,234,162,56,115,90,,116,111,8,33,7,13,0.9,1.1
2024-02-14T2300,2401A,114.0138,33.5828,漯河市,市水利局,颗粒物(PM10),181,312,199,63,135,90,,114,110,5,30,10,17,0.8,1.1
2024-02-14T2300,2402A,114.0261,33.5698,漯河市,市广电局,颗粒物(PM10),195,339,202,73,129,89,,114,108,7,34,4,11,1.0,1.3
2024-02-14T2300,3478A,113.9749,33.5664,漯河市,市图书馆,颗粒物(PM10),185,320,152,116,108,91,,117,112,13,21,9,14,0.6,0.8
2024-02-14T2300,3479A,114.0967,33.5906,漯河市,召陵区卫健委,颗粒物(PM10),194,337,168,105,109,87,,113,107,7,20,7,12,0.7,0.9
2024-02-14T2300,1798A,118.5092,31.6837,马鞍山市,湖东路四小,细颗粒物(PM2.5),107,143,60,80,41,28,,87,52,56,28,13,11,1.0,0.9
2024-02-14T2300,1799A,118.5024,31.6449,马鞍山市,开发区,细颗粒物(PM2.5),93,74,49,69,41,32,,93,64,50,31,8,7,0.6,0.6
2024-02-14T2300,1800A,118.5228,31.7231,马鞍山市,慈湖,细颗粒物(PM2.5),88,90,56,65,40,63,,83,58,25,29,11,9,0.4,0.4
2024-02-14T2300,1802A,118.6245,31.7241,马鞍山市,濮塘,细颗粒物(PM2.5),60,68,51,43,28,77,,87,80,10,11,9,9,0.6,0.5
2024-02-14T2300,3633A,118.4918,31.6809,马鞍山市,雨山,细颗粒物(PM2.5),117,140,57,88,43,11,,93,60,75,29,8,10,1.0,0.6
2024-02-14T2300,1686A,111.0286,21.4688,茂名市,电白南海,"颗粒物(PM10),细颗粒物(PM2.5)",64,78,59,46,27,79,,93,91,19,13,10,10,0.5,0.5
2024-02-14T2300,1687A,110.9294,21.6533,茂名市,茂石化七小,,46,46,45,31,28,89,,93,92,12,10,9,9,0.5,0.5
2024-02-14T2300,1688A,110.9107,21.6687,茂名市,健康路,,46,46,42,14,23,86,,88,87,9,8,6,7,0.6,0.6
2024-02-14T2300,1689A,110.8592,21.6828,茂名市,高岭,,42,41,44,29,28,86,,90,84,13,11,8,12,0.6,0.6
2024-02-14T2300,3450A,111.01,21.5165,茂名市,电白水东,颗粒物(PM10),53,56,44,34,25,92,,96,96,7,7,10,6,0.7,0.7
2024-02-14T2300,2539A,104.0308,30.0478,眉山市,黑龙滩水库,颗粒物(PM10),54,58,77,27,50,82,,104,94,2,6,3,2,0.3,0.6
2024-02-14T2300,2540A,103.8416,30.0874,眉山市,气象局,颗粒物(PM10),55,60,83,22,67,66,,102,85,11,21,5,7,0.4,0.7
2024-02-14T2300,3137A,103.8578,30.0744,眉山市,市委党校,颗粒物(PM10),56,61,90,14,66,69,,95,83,8,21,6,8,0.2,0.6
2024-02-14T2300,3148A,103.8291,30.0564,眉山市,区人社局,颗粒物(PM10),60,69,76,14,70,67,,98,82,19,31,4,13,0.2,0.6
2024-02-14T2300,1690A,116.1231,24.3284,梅州市,梅江月梅,细颗粒物(PM2.5),70,,41,51,36,66,,94,88,13,7,10,9,0.6,0.6
2024-02-14T2300,1691A,116.0797,24.2719,梅州市,梅县新城,细颗粒物(PM2.5),110,110,53,83,43,31,,94,70,30,12,9,7,0.7,0.6
2024-02-14T2300,1692A,116.1248,24.2654,梅州市,环境监控中心,细颗粒物(PM2.5),88,82,56,65,46,28,,88,64,33,18,6,5,0.7,0.6
2024-02-14T2300,3315A,116.1233,24.2991,梅州市,梅龙,细颗粒物(PM2.5),107,117,54,80,48,17,,88,68,35,15,8,6,1.1,0.7
2024-02-14T2300,1878A,104.7778,31.4741,绵阳市,富乐山,,46,46,74,19,55,82,,83,83,4,16,7,7,0.4,0.7
2024-02-14T2300,1879A,104.7563,31.4535,绵阳市,市人大,颗粒物(PM10),52,54,90,20,52,70,,76,75,16,30,2,4,0.3,0.6
2024-02-14T2300,1880A,104.6697,31.4668,绵阳市,高新区自来水公司,颗粒物(PM10),52,53,86,19,54,70,,81,78,17,23,7,7,0.3,0.6
2024-02-14T2300,1881A,104.7287,31.5075,绵阳市,三水厂,,50,50,88,16,65,58,,81,76,16,22,6,6,0.6,0.8
2024-02-14T2300,3491A,104.69,31.5322,绵阳市,西科大附属小学,,40,40,65,17,48,75,,80,80,8,15,7,8,0.2,0.5
2024-02-14T2300,3492A,104.5648,31.5343,绵阳市,安州区旅游局,颗粒物(PM10),60,70,89,22,59,63,,71,66,14,27,4,5,0.6,0.9
2024-02-14T2300,1784A,129.61,44.561,牡丹江市,环保大楼,,48,44,54,33,33,74,,79,79,10,12,6,11,0.4,0.4
2024-02-14T2300,1785A,129.6115,44.5782,牡丹江市,文化广场,,46,,68,32,42,68,,67,67,10,22,8,18,0.4,0.6
2024-02-14T2300,1786A,129.5904,44.5963,牡丹江市,第一医院,细颗粒物(PM2.5),57,,66,40,47,74,,75,75,4,15,10,19,0.3,0.5
2024-02-14T2300,1787A,129.6364,44.6075,牡丹江市,机车工厂,,23,21,60,16,34,72,,76,76,6,18,7,13,0.3,0.4
2024-02-14T2300,1788A,129.6386,44.5462,牡丹江市,第一中学,,33,33,57,19,27,71,,74,74,6,8,9,13,0.4,0.5
2024-02-14T2300,2531A,105.0703,29.61,内江市,市监测站,颗粒物(PM10),54,57,96,32,95,73,,82,82,10,26,7,9,0.5,1
2024-02-14T2300,2532A,105.0717,29.5947,内江市,东兴区政府,颗粒物(PM10),51,51,101,26,92,69,,85,82,9,29,9,11,0.4,1
2024-02-14T2300,2533A,105.0653,29.5817,内江市,内江二中,颗粒物(PM10),51,52,95,20,94,71,,88,84,11,31,4,6,0.6,1.1
2024-02-14T2300,2534A,105.0406,29.5822,内江市,内江日报社,颗粒物(PM10),63,76,94,20,91,55,,87,79,13,30,7,10,0.5,1
2024-02-14T2300,2628A,92.0657,31.4846,那曲市,那曲监测站,,22,17,26,15,13,66,,90,84,5,6,6,6,0.6,0.8
2024-02-14T2300,3128A,92.0506,31.4797,那曲市,那曲会议中心,,25,12,21,8,9,80,,100,94,2,5,6,6,0.3,0.4
2024-02-14T2300,1290A,115.8931,28.6843,南昌市,省外办,细颗粒物(PM2.5),199,214,96,149,62,7,,73,35,49,27,8,7,1.8,1.1
2024-02-14T2300,1291A,115.8886,28.7003,南昌市,省林业公司,细颗粒物(PM2.5),79,88,59,58,40,40,,88,69,32,24,9,8,0.6,0.6
2024-02-14T2300,1292A,115.8126,28.7442,南昌市,林科所,细颗粒物(PM2.5),79,73,41,58,29,42,,94,84,30,13,8,9,0.6,0.5
2024-02-14T2300,1294A,115.8518,28.687,南昌市,建工学校,细颗粒物(PM2.5),79,99,68,58,42,36,,92,66,40,21,8,7,0.7,0.6
2024-02-14T2300,1295A,115.8921,28.6424,南昌市,象湖,细颗粒物(PM2.5),118,135,71,89,48,5,,97,60,72,29,7,7,1.2,0.8
2024-02-14T2300,1296A,115.7423,28.7996,南昌市,武术学校,,29,29,22,9,22,15,,88,55,5,4,10,13,0.3,0.6
2024-02-14T2300,1298A,115.9314,28.6842,南昌市,省站,细颗粒物(PM2.5),105,113,72,79,46,36,,93,70,29,18,10,9,0.9,0.7
2024-02-14T2300,3046A,115.9084,28.6062,南昌市,机电学校,细颗粒物(PM2.5),107,136,77,80,47,8,,98,61,64,27,10,11,1.2,1
2024-02-14T2300,3690A,115.9721,28.7031,南昌市,外国语学校,细颗粒物(PM2.5),90,92,54,67,40,33,,90,68,36,16,7,7,0.7,0.7
2024-02-14T2300,1905A,106.056,30.8064,南充市,西山风景区,,,36,65,25,60,80,,94,77,3,6,,5,0.5,0.7
2024-02-14T2300,1906A,106.0789,30.8023,南充市,南充市委,,44,44,86,14,55,70,,68,67,11,19,6,6,0.2,0.5
2024-02-14T2300,1907A,106.1031,30.8217,南充市,南充炼油厂,,49,49,93,28,65,74,,72,71,5,23,6,6,0.2,0.6
2024-02-14T2300,1908A,106.1064,30.7856,南充市,高坪区监测站,,35,35,91,20,63,71,,69,66,9,28,8,7,0.3,0.7
2024-02-14T2300,1909A,106.0642,30.7636,南充市,嘉陵区环保局,,40,40,93,24,64,74,,70,69,9,34,4,4,0.3,0.8
2024-02-14T2300,1910A,106.1087,30.8388,南充市,市环境监测站,颗粒物(PM10),51,51,88,33,60,81,,83,80,9,12,8,8,0.2,0.5
2024-02-14T2300,1151A,118.8086,32.1065,南京市,迈皋桥,细颗粒物(PM2.5),132,143,56,100,38,2,,69,38,69,27,6,7,1.3,0.7
2024-02-14T2300,1152A,118.7538,32.0551,南京市,草场门,细颗粒物(PM2.5),83,85,58,61,40,16,,86,53,88,38,7,8,1.8,1
2024-02-14T2300,1153A,118.7794,32.0745,南京市,山西路,颗粒物(PM10),64,78,57,41,38,4,,73,41,78,36,10,10,1.6,1
2024-02-14T2300,1154A,118.7752,32.0023,南京市,中华门,细颗粒物(PM2.5),79,78,58,58,44,44,,87,61,46,27,12,14,1.0,1
2024-02-14T2300,1155A,118.8109,32.0309,南京市,瑞金路,细颗粒物(PM2.5),94,95,70,70,50,3,,70,25,136,63,4,4,2.1,1.2
2024-02-14T2300,1156A,118.7997,32.0754,南京市,玄武湖,颗粒物(PM10),69,88,63,39,33,10,,86,41,68,28,10,12,1.2,0.7
2024-02-14T2300,1157A,118.6414,32.0931,南京市,浦口,,43,43,61,14,23,78,,90,88,14,23,9,9,1.1,0.9
2024-02-14T2300,1158A,118.7356,31.9996,南京市,奥体中心,细颗粒物(PM2.5),73,88,69,53,45,8,,84,50,82,34,10,12,1.4,1
2024-02-14T2300,1159A,118.9125,32.1028,南京市,仙林大学城,细颗粒物(PM2.5),134,119,53,102,33,28,,92,67,49,22,9,9,1.2,0.9
2024-02-14T2300,3422A,118.8436,31.9198,南京市,江宁彩虹桥,细颗粒物(PM2.5),140,169,79,107,49,33,,96,60,53,23,8,6,0.7,0.6
2024-02-14T2300,3423A,119.0138,31.6494,南京市,溧水永阳,细颗粒物(PM2.5),62,53,39,44,34,43,,95,66,34,21,4,4,0.7,0.5
2024-02-14T2300,3424A,118.879,31.3302,南京市,高淳老职中,细颗粒物(PM2.5),62,56,31,44,29,75,,94,87,12,8,7,6,0.4,0.5
2024-02-14T2300,3427A,118.8554,32.3578,南京市,六合雄州,细颗粒物(PM2.5),92,102,87,68,59,68,,108,90,23,30,8,11,0.7,0.8
2024-02-14T2300,1401A,108.3103,22.7881,南宁市,二十一中,,36,35,45,25,27,63,,86,79,15,9,11,8,0.9,0.8
2024-02-14T2300,1402A,108.3141,22.8528,南宁市,北湖,,44,44,45,23,27,60,,78,73,12,7,8,6,0.9,0.7
2024-02-14T2300,1403A,108.3206,22.8225,南宁市,市监测站,,42,42,44,24,25,62,,82,77,13,8,9,7,1.0,0.9
2024-02-14T2300,1404A,108.3829,22.8037,南宁市,大自然花园,,40,40,45,24,28,65,,80,77,13,9,8,7,0.7,0.6
2024-02-14T2300,1405A,108.4394,22.7904,南宁市,仙葫,,38,34,47,26,28,65,,76,74,11,10,7,7,0.7,0.7
2024-02-14T2300,1406A,108.2397,22.8467,南宁市,区农职院,,46,46,43,29,25,59,,84,77,20,13,10,8,1.0,0.8
2024-02-14T2300,1407A,108.3275,22.735,南宁市,英华嘉园,,39,39,48,26,28,50,,74,66,20,12,7,6,0.8,0.6
2024-02-14T2300,1408A,108.2257,22.7757,南宁市,沙井镇街道办,,33,33,41,19,26,70,,81,75,8,9,7,6,0.6,0.6
2024-02-14T2300,3401A,108.4834,22.7618,南宁市,红星社区,,40,40,47,25,31,58,,75,71,13,9,8,9,0.7,0.8
2024-02-14T2300,2332A,118.1681,26.6369,南平市,南平市监测站,细颗粒物(PM2.5),224,226,70,174,54,6,,88,46,44,17,11,7,2.3,0.8
2024-02-14T2300,2333A,118.1825,26.6489,南平市,南平铝业有限公司,细颗粒物(PM2.5),95,85,52,71,39,31,,82,54,17,13,9,8,0.9,0.7
2024-02-14T2300,2334A,118.1756,26.6272,南平市,南平七中,细颗粒物(PM2.5),138,134,59,105,48,22,,88,55,28,17,10,7,0.9,0.6
2024-02-14T2300,1168A,120.9098,31.9663,南通市,狼山街道,细颗粒物(PM2.5),102,85,49,76,41,32,,98,67,27,22,8,10,0.7,0.6
2024-02-14T2300,1169A,120.86,32.0005,南通市,虹桥,细颗粒物(PM2.5),110,103,66,83,49,51,,98,76,30,25,7,10,0.6,0.7
2024-02-14T2300,1170A,120.87,32.02,南通市,城中,细颗粒物(PM2.5),123,122,64,93,46,42,,68,65,32,27,6,10,1.4,0.9
2024-02-14T2300,1171A,120.94,31.93,南通市,星湖花园,细颗粒物(PM2.5),72,63,59,52,42,55,,90,67,29,32,7,9,0.3,0.5
2024-02-14T2300,1172A,120.81,32.0417,南通市,紫琅学院,细颗粒物(PM2.5),129,120,62,98,46,42,,98,74,32,34,8,13,0.9,0.8
2024-02-14T2300,3291A,121.067,32.062,南通市,通州监测站,细颗粒物(PM2.5),140,122,65,107,51,48,,105,81,38,29,8,11,0.4,0.4
2024-02-14T2300,3432A,120.9348,31.9883,南通市,环境教育馆,细颗粒物(PM2.5),140,122,62,107,48,38,,102,76,32,34,8,9,0.6,0.4
2024-02-14T2300,2404A,112.5224,33.0122,南阳市,瓦房庄,颗粒物(PM10),89,127,129,47,103,78,,96,92,4,20,8,15,0.3,0.7
2024-02-14T2300,2405A,112.5003,32.9735,南阳市,汉画馆,颗粒物(PM10),89,128,134,47,98,77,,92,88,8,25,4,9,0.3,0.8
2024-02-14T2300,2406A,112.5573,33.027,南阳市,气象站,颗粒物(PM10),88,125,107,34,82,76,,96,91,13,22,8,12,0.4,0.7
2024-02-14T2300,2407A,112.5481,32.9689,南阳市,理工学院,颗粒物(PM10),90,130,130,44,99,77,,97,92,8,23,5,10,0.3,0.7
2024-02-14T2300,4008A,112.5234,32.9922,南阳市,卧龙区政府,颗粒物(PM10),95,140,138,50,101,75,,90,86,8,29,6,13,0.4,0.8
2024-02-14T2300,1234A,121.8358,29.911,宁波市,区环保大楼,颗粒物(PM10),57,63,44,33,26,0,,84,18,99,58,16,10,0.6,0.5
2024-02-14T2300,1235A,121.56,29.82,宁波市,万里学院,,29,28,34,19,27,90,,101,99,14,11,6,7,0.4,0.6
2024-02-14T2300,1236A,121.713,29.9572,宁波市,龙赛医院,,47,47,47,25,24,45,,86,,50,31,6,7,0.5,0.5
2024-02-14T2300,1239A,121.633,29.7733,宁波市,钱湖水厂,,30,17,26,14,22,95,,102,100,2,3,5,5,0.5,0.5
2024-02-14T2300,1240A,121.5856,29.8635,宁波市,太古小学,,28,23,33,11,26,88,,104,98,19,18,6,7,0.4,0.5
2024-02-14T2300,1241A,121.524,29.8674,宁波市,市环境监测中心,,29,27,34,20,28,83,,106,100,22,20,6,6,0.5,0.6
2024-02-14T2300,2871A,121.6147,29.9017,宁波市,万里国际学校,,28,26,33,16,24,88,,110,101,13,14,7,8,0.5,0.5
2024-02-14T2300,3710A,121.5594,29.8975,宁波市,白沙活动中心,,27,24,35,17,26,84,,106,96,13,16,6,7,0.4,0.4
2024-02-14T2300,2341A,119.5388,26.6612,宁德市,宁德市监测站,细颗粒物(PM2.5),135,121,68,103,55,48,,107,87,33,14,8,10,0.8,0.8
2024-02-14T2300,3209A,119.5231,26.6562,宁德市,宁德一中,细颗粒物(PM2.5),67,55,65,48,45,58,,107,88,12,12,6,10,1.0,0.8
2024-02-14T2300,2618A,98.8601,25.8567,怒江傈僳族自治州,州监测站,,48,42,28,33,20,55,,88,80,15,6,10,9,0.5,0.4
2024-02-14T2300,2619A,98.8546,25.8417,怒江傈僳族自治州,泸水一中,,49,42,24,34,20,37,,80,69,19,11,9,9,0.8,0.6
2024-02-14T2300,1888A,101.6891,26.571,攀枝花市,弄弄坪,颗粒物(PM10),56,62,60,33,36,33,,99,79,53,45,14,63,1.6,3.1
2024-02-14T2300,1889A,101.5769,26.5928,攀枝花市,河门口,,41,41,34,18,16,42,,94,77,25,18,25,18,1.1,1.1
2024-02-14T2300,1890A,101.7169,26.585,攀枝花市,炳草岗,,33,33,41,22,23,27,,98,70,50,40,12,20,1.0,1.4
2024-02-14T2300,1891A,101.7369,26.5008,攀枝花市,仁和,,31,31,28,19,19,60,,93,68,16,16,7,9,0.6,0.8
2024-02-14T2300,2835A,101.7227,26.567,攀枝花市,四十中小,,32,32,45,22,28,65,,93,73,24,36,10,30,0.8,2.1
2024-02-14T2300,1604A,122.0303,41.1489,盘锦市,开发区,,47,47,54,18,25,67,,80,73,9,11,6,6,0.5,0.6
2024-02-14T2300,1605A,122.0485,41.0883,盘锦市,兴隆台,颗粒物(PM10),53,55,55,18,30,69,,78,74,8,10,9,10,0.4,0.5
2024-02-14T2300,1606A,121.8297,41.1028,盘锦市,新生街道,颗粒物(PM10),51,51,44,27,20,51,,74,64,23,19,9,9,0.7,0.5
2024-02-14T2300,1832A,113.3257,33.742,平顶山市,新华旅馆,细颗粒物(PM2.5),119,165,162,90,80,86,,96,75,10,27,8,13,0.6,0.6
2024-02-14T2300,1833A,113.2919,33.737,平顶山市,规划设计院,颗粒物(PM10),91,132,166,56,95,83,,112,88,10,26,10,14,0.5,0.8
2024-02-14T2300,1834A,113.182,33.774,平顶山市,平顶山工学院,颗粒物(PM10),75,100,136,34,69,65,,97,75,12,17,5,9,0.6,0.8
2024-02-14T2300,3204A,113.3025,33.73,平顶山市,规划局,细颗粒物(PM2.5),105,136,170,79,103,64,,86,67,12,22,9,13,0.6,0.8
2024-02-14T2300,3594A,112.8867,33.9116,平顶山市,石龙区,颗粒物(PM10),58,65,129,29,62,75,,100,78,5,13,5,15,0.4,0.6
2024-02-14T2300,2656A,106.6692,35.5461,平凉市,聚贤嘉苑,颗粒物(PM10),55,59,75,24,19,77,,96,88,17,11,5,4,0.3,0.2
2024-02-14T2300,2657A,106.7021,35.5307,平凉市,博物馆,颗粒物(PM10),61,72,76,42,21,62,,95,81,19,7,13,6,0.7,0.1
2024-02-14T2300,2347A,114.0997,27.5002,萍乡市,武功山,,48,37,31,33,29,43,,84,63,8,8,13,11,0.3,0.4
2024-02-14T2300,2348A,113.8385,27.6434,萍乡市,中医院,细颗粒物(PM2.5),145,140,77,111,56,0,,70,32,58,33,13,11,2.3,1.4
2024-02-14T2300,2349A,113.8493,27.6253,萍乡市,市政府车库,细颗粒物(PM2.5),152,152,95,116,75,3,,78,40,42,28,10,11,2.1,1.6
2024-02-14T2300,2350A,113.8676,27.6435,萍乡市,市环保局,细颗粒物(PM2.5),114,108,70,86,52,12,,78,51,48,25,13,12,1.5,1.1
2024-02-14T2300,2351A,113.866,27.6198,萍乡市,安源区政府,细颗粒物(PM2.5),108,109,81,81,50,3,,78,42,52,30,7,11,1.5,1.3
2024-02-14T2300,2319A,119.0141,25.4325,莆田市,荔城区仓后路,细颗粒物(PM2.5),129,112,91,98,88,45,,139,99,31,16,8,8,1.3,1
2024-02-14T2300,2320A,119.0015,25.4553,莆田市,莆田市监测站,细颗粒物(PM2.5),87,70,64,64,56,70,,142,112,12,12,5,6,0.8,0.8
2024-02-14T2300,2321A,119.1119,25.4561,莆田市,涵江区六中,细颗粒物(PM2.5),123,108,87,93,81,56,,130,99,28,17,9,9,0.9,1
2024-02-14T2300,2322A,119.1013,25.3215,莆田市,秀屿区政府,细颗粒物(PM2.5),153,,108,117,123,55,,128,91,31,20,8,9,0.7,0.7
2024-02-14T2300,2392A,115.0312,35.7636,濮阳市,环保局,颗粒物(PM10),58,65,146,30,93,72,,91,84,8,22,6,8,0.5,0.9
2024-02-14T2300,2394A,115.0574,35.7609,濮阳市,油田运输公司,颗粒物(PM10),53,56,143,32,90,75,,92,85,5,14,8,11,0.5,1
2024-02-14T2300,2395A,115.0866,35.7754,濮阳市,油田物探公司,颗粒物(PM10),51,51,143,26,90,73,,88,83,8,16,6,8,0.4,0.8
2024-02-14T2300,3021A,115,35.7668,濮阳市,濮水河管理处,颗粒物(PM10),60,70,166,32,112,71,,90,83,7,21,8,8,0.3,0.8
2024-02-14T2300,2601A,100.98,22.7633,普洱市,市环保局,,49,49,38,34,28,54,,99,80,11,9,6,5,0.4,0.5
2024-02-14T2300,2602A,100.9817,22.8322,普洱市,普洱第二中学,细颗粒物(PM2.5),65,,31,47,23,56,,104,82,18,17,5,5,0.6,0.6
2024-02-14T2300,2262A,131.0518,45.8751,七台河市,新一中,,27,17,29,13,21,84,,94,90,6,9,9,9,0.7,0.8
2024-02-14T2300,3345A,131.0577,45.7879,七台河市,中波台,,24,15,39,14,28,76,,81,78,12,21,6,13,0.5,0.7
2024-02-14T2300,3637A,131.0176,45.7761,七台河市,人民广场,,36,36,50,17,37,77,,80,77,12,21,10,17,0.7,0.9
2024-02-14T2300,3684A,130.8781,45.8222,七台河市,新建矿广场,,36,,25,25,29,74,,85,80,15,16,6,8,0.5,0.6
2024-02-14T2300,1779A,123.9305,47.3636,齐齐哈尔市,安居小区,,33,33,31,7,8,67,,71,60,6,7,8,8,0.3,0.3
2024-02-14T2300,1780A,123.9488,47.3386,齐齐哈尔市,中心广场,,48,48,28,21,11,65,,66,58,6,8,10,7,0.4,0.4
2024-02-14T2300,1781A,123.9483,47.3227,齐齐哈尔市,农牧车辆厂,细颗粒物(PM2.5),77,,34,56,13,66,,69,61,4,5,8,9,0.3,0.3
2024-02-14T2300,1783A,123.945,47.2988,齐齐哈尔市,市环境监测站,,22,21,27,12,15,70,,72,62,4,7,3,9,0.4,0.4
2024-02-14T2300,3662A,123.6333,47.2075,齐齐哈尔市,富区青少年活动中心,,35,29,37,24,12,61,,67,60,8,8,7,10,0.4,0.4
2024-02-14T2300,2591A,107.9783,26.5747,黔东南苗族侗族自治州,市环境监测站,细颗粒物(PM2.5),62,54,42,44,33,39,,79,69,24,8,7,5,0.8,0.5
2024-02-14T2300,2881A,107.8908,26.5311,黔东南苗族侗族自治州,凯里学院,,42,38,38,29,30,62,,84,77,6,3,5,4,0.4,0.4
2024-02-14T2300,2593A,107.5228,26.2403,黔南布依族苗族自治州,小围寨,,39,29,31,27,27,60,,82,74,5,5,7,6,0.3,0.3
2024-02-14T2300,3538A,107.5175,26.2978,黔南布依族苗族自治州,沙坝,,42,31,34,29,28,55,,83,72,4,4,4,4,0.6,0.6
2024-02-14T2300,2589A,104.9022,25.0925,黔西南布依族苗族自治州,场坝街,细颗粒物(PM2.5),58,50,38,41,28,65,,89,84,9,8,2,2,0.6,0.5
2024-02-14T2300,2590A,104.8811,25.0992,黔西南布依族苗族自治州,坪东大道,,42,34,41,29,29,62,,94,86,8,11,2,2,0.2,0.2
2024-02-14T2300,2502A,108.6236,21.9667,钦州市,市环保站,颗粒物(PM10),53,56,54,34,24,54,,80,72,26,12,16,7,0.7,0.6
2024-02-14T2300,2503A,108.6549,21.9481,钦州市,沙埠小学,颗粒物(PM10),51,52,52,31,28,50,,80,68,21,14,12,8,0.8,0.8
2024-02-14T2300,2504A,108.5989,21.7431,钦州市,港区一小,颗粒物(PM10),58,66,59,32,26,30,,85,69,34,13,9,10,0.8,0.8
2024-02-14T2300,3404A,108.5959,21.9633,钦州市,北职校,颗粒物(PM10),57,64,52,39,28,41,,80,70,27,12,14,10,0.8,0.7
2024-02-14T2300,1042A,119.5134,39.8207,秦皇岛市,北戴河环保局,,27,27,74,13,39,68,,77,72,17,28,8,9,0.2,0.4
2024-02-14T2300,1043A,119.7493,40.0116,秦皇岛市,第一关,,35,35,82,18,53,60,,78,71,22,24,8,9,0.3,0.6
2024-02-14T2300,1044A,119.5897,39.9499,秦皇岛市,监测站,,25,20,77,14,50,78,,85,82,11,26,6,9,0.3,0.6
2024-02-14T2300,1046A,119.5251,39.9041,秦皇岛市,建设大厦,,24,,79,16,54,76,,82,79,5,21,4,5,0.1,0.5
2024-02-14T2300,3132A,119.610547,39.943889,秦皇岛市,文明里,,35,26,88,24,46,67,,81,74,18,28,7,8,0.3,0.5
2024-02-14T2300,1307A,120.6659,36.2403,青岛市,仰口,细颗粒物(PM2.5),77,83,77,56,55,66,,86,84,19,27,3,2,1.1,1.2
2024-02-14T2300,1310A,120.4134,36.0658,青岛市,市南区东部子站,细颗粒物(PM2.5),85,97,86,63,55,64,,66,63,20,42,4,8,0.8,0.8
2024-02-14T2300,1311A,120.3664,36.1032,青岛市,四方区子站,细颗粒物(PM2.5),70,88,81,51,60,66,,67,67,11,42,4,9,0.7,1.2
2024-02-14T2300,1312A,120.2994,36.054,青岛市,市南区西部子站,颗粒物(PM10),69,88,78,42,52,66,,58,57,17,39,6,8,0.9,1
2024-02-14T2300,1313A,120.4581,36.0858,青岛市,崂山区子站,细颗粒物(PM2.5),79,97,87,58,54,69,,70,69,14,21,6,7,0.8,0.8
2024-02-14T2300,1314A,120.1983,35.9608,青岛市,黄岛区子站,颗粒物(PM10),75,100,85,51,58,67,,75,63,22,30,6,7,0.8,0.9
2024-02-14T2300,1315A,120.3999,36.3083,青岛市,城阳区子站,颗粒物(PM10),62,73,89,32,47,68,,96,85,15,32,4,8,0.7,1.3
2024-02-14T2300,1966A,120.0405,35.8735,青岛市,黄岛区4号,细颗粒物(PM2.5),70,78,81,51,57,60,,80,64,14,25,6,9,0.9,1.1
2024-02-14T2300,3362A,120.5014,36.4034,青岛市,即墨2号,颗粒物(PM10),60,70,90,30,64,69,,94,81,6,20,4,8,0.5,1
2024-02-14T2300,3642A,120.3503,36.0736,青岛市,市北区南部,颗粒物(PM10),78,105,96,48,58,64,,70,62,19,36,8,9,0.8,0.9
2024-02-14T2300,3643A,120.3948,36.1805,青岛市,李沧区北部,细颗粒物(PM2.5),77,80,77,56,57,73,,94,90,19,34,7,13,0.8,1.2
2024-02-14T2300,1702A,113.0426,23.691,清远市,环保大楼,细颗粒物(PM2.5),127,107,70,96,62,33,,109,90,40,14,4,3,1.1,0.9
2024-02-14T2300,1703A,113.0208,23.7106,清远市,凤城街办,细颗粒物(PM2.5),65,72,73,47,52,48,,113,88,4,4,8,6,1.0,0.8
2024-02-14T2300,3025A,113.0477,23.6344,清远市,技师学院,细颗粒物(PM2.5),84,98,72,62,44,32,,110,82,42,19,6,6,0.9,0.7
2024-02-14T2300,3318A,112.9903,23.7403,清远市,清新太和,,39,39,55,26,33,86,,111,104,10,14,8,8,0.4,0.5
2024-02-14T2300,3455A,113.076,23.7198,清远市,清城东城,细颗粒物(PM2.5),59,61,53,42,37,44,,112,91,18,13,7,7,0.9,0.7
2024-02-14T2300,2661A,107.6325,35.7357,庆阳市,庆阳五中,颗粒物(PM10),66,82,126,28,27,79,,74,73,6,9,8,12,0.5,0.4
2024-02-14T2300,2662A,107.6364,35.7067,庆阳市,市环保局,颗粒物(PM10),72,94,128,28,25,84,,79,76,3,7,5,7,0.5,0.4
2024-02-14T2300,1916A,103.7897,25.5035,曲靖市,环境监测站,,31,31,19,14,10,77,,100,90,8,6,2,2,0.6,0.6
2024-02-14T2300,1917A,103.8,25.5364,曲靖市,烟厂办公区,,30,30,21,14,11,80,,99,89,7,6,4,4,0.4,0.4
2024-02-14T2300,3376A,103.7947,25.462,曲靖市,南苑二区,,26,21,21,18,13,76,,98,85,6,6,4,4,0.4,0.5
2024-02-14T2300,3377A,103.7444,25.5261,曲靖市,曲靖师范学院,,48,46,26,33,19,48,,93,80,24,10,17,8,0.5,0.4
2024-02-14T2300,1264A,118.8692,28.9398,衢州市,环保大楼,细颗粒物(PM2.5),64,66,48,46,36,11,,88,62,50,19,6,7,1.0,0.8
2024-02-14T2300,1265A,118.8709,28.9666,衢州市,实验学校,细颗粒物(PM2.5),63,62,48,45,34,32,,92,72,29,14,5,4,0.7,0.4
2024-02-14T2300,1266A,118.8621,28.9808,衢州市,衢州学院,,50,50,40,32,29,20,,90,66,32,14,6,6,0.2,0.3
2024-02-14T2300,1611A,118.5819,24.9117,泉州市,涂山街,细颗粒物(PM2.5),83,88,63,61,45,47,,119,88,39,17,5,3,1.0,0.8
2024-02-14T2300,1612A,118.5972,24.8978,泉州市,津头埔,细颗粒物(PM2.5),84,101,68,62,48,33,,108,77,46,21,6,4,0.9,0.8
2024-02-14T2300,1613A,118.6663,24.9424,泉州市,万安,细颗粒物(PM2.5),85,90,62,63,45,22,,121,92,45,16,3,3,0.6,0.4
2024-02-14T2300,3529A,118.6333,24.9264,泉州市,城华南路,细颗粒物(PM2.5),68,65,53,49,40,63,,114,93,20,11,3,3,0.5,0.5
2024-02-14T2300,2626A,88.8876,29.2718,日喀则市,日喀则监测站,,27,11,13,6,6,84,,96,92,10,6,3,5,0.6,0.5
2024-02-14T2300,3726A,88.8781,29.2426,日喀则市,林业技术推广中心,,29,8,11,3,4,92,,94,93,4,4,6,6,0.5,0.5
2024-02-14T2300,1659A,119.471,35.4209,日照市,监测站,细颗粒物(PM2.5),63,73,119,45,84,80,,67,67,18,46,8,15,0.6,1.4
2024-02-14T2300,1660A,119.523,35.4216,日照市,市政府广场,颗粒物(PM10),65,80,106,40,69,79,,70,70,14,40,7,13,0.7,1.3
2024-02-14T2300,1661A,119.5587,35.4044,日照市,港务局,颗粒物(PM10),65,80,103,44,82,82,,60,60,20,40,6,9,0.6,0.9
2024-02-14T2300,3507A,119.5328,35.4625,日照市,职业技术学院,颗粒物(PM10),69,88,102,29,63,78,,78,78,23,43,5,11,0.8,1.4
2024-02-14T2300,3604A,119.3266,35.1044,日照市,岚山环保分局,颗粒物(PM10),76,102,122,49,71,75,,53,53,16,55,16,28,0.8,1.8
2024-02-14T2300,1835A,111.1922,34.7752,三门峡市,市政府,,46,46,113,30,69,58,,69,66,13,27,8,11,0.4,0.9
2024-02-14T2300,1836A,111.1587,34.7942,三门峡市,开发区,,50,50,119,18,72,55,,72,66,13,24,8,9,0.6,1.1
2024-02-14T2300,3039A,111.1911,34.7829,三门峡市,三门峡市第一小学,,46,46,121,21,66,59,,70,66,10,25,6,5,0.4,0.9
2024-02-14T2300,3598A,111.1,34.7167,三门峡市,富达温泉假日酒店,,31,31,131,18,71,59,,68,66,15,27,5,11,0.5,1
2024-02-14T2300,2324A,117.6211,26.2625,三明市,三钢,细颗粒物(PM2.5),63,74,42,45,32,26,,80,54,21,17,8,14,0.4,1.2
