timepoint,stationcode,longitude,latitude,area,positionname,primarypollutant,aqi,pm10,pm10_24h,pm2_5,pm2_5_24h,o3,o3_24h,o3_8h,o3_8h_24h,no2,no2_24h,so2,so2_24h,co,co_24h
2025-08-02T0000,2566A,102.1879,31.914,阿坝藏族羌族自治州,州农科所,,,,20,0,6,,,79,,,6,,14,,1
2025-08-02T0000,2568A,102.2502,31.8896,阿坝藏族羌族自治州,马师校,,46,,18,32,19,29,,88,63,11,8,7,7,0.7,0.6
2025-08-02T0000,3994A,102.2165,31.9024,阿坝藏族羌族自治州,马尔康中学西区,,19,,16,13,15,33,,99,67,4,5,8,8,0.7,0.7
2025-08-02T0000,2695A,80.292,41.1694,阿克苏地区,电视台,颗粒物(PM10),78,105,63,41,22,86,,126,,8,13,3,3,0.5,0.7
2025-08-02T0000,2696A,80.2613,41.1551,阿克苏地区,艺术中心,颗粒物(PM10),103,155,65,41,28,108,,132,125,21,16,5,3,0.5,0.6
2025-08-02T0000,2204A,105.6467,38.8363,阿拉善盟,西城区西花园,,46,46,27,19,10,101,,136,126,15,10,9,8,0.7,0.6
2025-08-02T0000,2205A,105.6985,38.8411,阿拉善盟,蒙二幼,颗粒物(PM10),51,52,30,32,19,66,,117,104,6,4,9,9,0.6,0.5
2025-08-02T0000,2206A,105.724,38.8516,阿拉善盟,环保局新楼,,44,44,30,27,18,69,,113,100,5,6,8,8,0.6,0.6
2025-08-02T0000,2708A,88.1264,47.8517,阿勒泰地区,市站,,27,27,24,8,6,70,,109,97,20,14,2,2,0.4,0.4
2025-08-02T0000,2630A,80.1161,32.5,阿里地区,阿里监测站,,19,8,4,3,2,60,,63,63,3,7,7,6,0.2,0.1
2025-08-02T0000,3192A,80.0903,32.5028,阿里地区,阿里藏医院,,21,10,6,3,2,65,,69,69,1,2,7,7,0.1,0.1
2025-08-02T0000,2642A,109.0318,32.6537,安康市,香溪洞,,40,19,25,8,13,128,,136,133,3,5,6,7,0.4,0.4
2025-08-02T0000,2644A,109.0072,32.6975,安康市,汉滨区检察院,,32,32,25,19,14,75,,136,112,12,8,5,7,0.6,0.6
2025-08-02T0000,4054A,109.0325,32.6913,安康市,市邮政管理局,,29,25,28,17,18,91,,132,110,11,8,6,5,0.5,0.5
2025-08-02T0000,2291A,117.0809,30.5177,安庆市,环科院,,20,19,18,14,14,48,,72,64,13,10,4,4,0.6,0.6
2025-08-02T0000,2292A,117.0331,30.5119,安庆市,马山宾馆,,19,16,19,13,19,28,,68,55,25,11,3,2,0.3,0.3
2025-08-02T0000,2294A,116.9896,30.6145,安庆市,安庆大学,,28,,19,19,19,47,,61,56,15,16,6,4,0.3,0.4
2025-08-02T0000,3173A,117.0598,30.5351,安庆市,市人大,,22,18,17,15,19,46,,75,64,17,12,3,3,0.5,0.5
2025-08-02T0000,3122A,105.9606,26.2611,安顺市,伍家关,,23,23,19,6,10,54,,140,107,34,18,12,4,0.7,0.6
2025-08-02T0000,3123A,105.9408,26.2431,安顺市,凤凰山,,43,36,27,30,17,102,,143,132,13,18,23,7,0.4,0.5
2025-08-02T0000,3124A,105.9439,26.2564,安顺市,金钟山,,37,23,22,20,18,117,,142,132,8,11,27,9,0.3,0.5
2025-08-02T0000,3125A,105.8983,26.2481,安顺市,娄家坡,,33,21,22,21,19,103,,137,128,10,9,17,10,0.5,0.5
2025-08-02T0000,1818A,114.4839,36.0621,安阳市,棉研所,,,,,,,,,,,,,,,,
2025-08-02T0000,1819A,114.3551,36.1017,安阳市,红庙街,,40,40,43,16,20,99,,145,122,14,14,3,4,0.4,0.5
2025-08-02T0000,1820A,114.361,36.0681,安阳市,银杏小区,,33,33,44,21,20,103,,147,126,13,13,3,4,0.4,0.5
2025-08-02T0000,3141A,114.3922,36.0878,安阳市,信访局,,40,40,41,17,20,106,,152,128,10,11,5,6,0.4,0.6
2025-08-02T0000,3669A,114.4705,36.0637,安阳市,左辅环卫站,,48,48,46,28,22,85,,137,118,15,12,6,6,0.4,0.4
2025-08-02T0000,3703A,114.2917,36.0949,安阳市,安钢职工学校,,48,48,49,26,21,97,,146,122,13,11,4,7,0.3,0.5
2025-08-02T0000,1748A,123.044,41.1196,鞍山市,深沟寺,,25,25,33,12,20,23,,98,58,8,8,5,6,0.7,1.1
2025-08-02T0000,1749A,123.011,41.0931,鞍山市,太阳城,,31,31,29,19,18,33,,103,65,13,12,5,6,0.7,1.2
2025-08-02T0000,1750A,123.0485,41.1442,鞍山市,太平,,28,28,40,12,20,45,,100,66,8,15,5,8,0.9,1.4
2025-08-02T0000,1751A,122.9642,41.0971,鞍山市,铁西三道街,,32,32,41,18,23,58,,96,66,15,17,5,7,0.7,1.1
2025-08-02T0000,1753A,123.022,41.0821,鞍山市,明达新区,,28,28,31,16,19,38,,90,63,13,11,7,8,0.6,1
2025-08-02T0000,1754A,123.1289,41.0228,鞍山市,千山,,,,,,,,,,,,,,,,
2025-08-02T0000,4201A,122.9446,41.0826,鞍山市,兴盛南路290号,,44,44,40,18,20,15,,97,54,47,22,7,7,0.7,1.1
2025-08-02T0000,2195A,107.4212,40.761,巴彦淖尔市,附二中,颗粒物(PM10),51,51,24,24,15,104,,146,135,14,8,7,6,0.7,0.6
2025-08-02T0000,2196A,107.37,40.7372,巴彦淖尔市,市环保大楼,颗粒物(PM10),51,52,33,22,12,109,,142,136,15,9,6,6,0.6,0.5
2025-08-02T0000,1956A,86.1472,41.7538,巴音郭楞蒙古自治州,孔雀公园,颗粒物(PM10),56,61,41,20,21,67,,112,96,37,14,4,3,0.3,0.2
2025-08-02T0000,1957A,86.1972,41.7166,巴音郭楞蒙古自治州,棉纺厂,颗粒物(PM10),57,63,58,16,15,69,,118,105,27,11,4,4,0.2,0.1
2025-08-02T0000,1958A,86.2357,41.7173,巴音郭楞蒙古自治州,经济开发区,,34,34,32,8,11,81,,115,107,9,7,3,3,0.2,0.2
2025-08-02T0000,2914A,106.7677,31.8794,巴中市,苏山坪,,35,17,21,15,17,109,,134,121,6,6,4,2,0.6,0.6
2025-08-02T0000,3181A,106.7768,31.8526,巴中市,市五中,,33,33,28,19,21,58,,139,110,12,9,10,9,0.6,0.6
2025-08-02T0000,3183A,106.7418,31.8654,巴中市,圣泉水务公司,,22,22,26,14,18,61,,147,106,18,7,8,7,0.7,0.6
2025-08-02T0000,3616A,106.7616,31.8344,巴中市,市中心医院,,32,27,28,22,19,49,,136,98,21,14,9,9,0.6,0.5
2025-08-02T0000,2235A,122.7911,45.6077,白城市,洮北区环保局,,16,16,10,6,7,36,,108,81,26,7,4,3,0.5,0.5
2025-08-02T0000,2236A,122.8738,45.5725,白城市,市环保局,,18,,11,12,7,26,,98,63,27,8,3,3,0.4,0.4
2025-08-02T0000,2231A,126.4219,41.9171,白山市,喜丰,,28,28,38,3,13,9,,76,39,13,11,6,5,0.5,0.6
2025-08-02T0000,2232A,126.4077,41.9419,白山市,环保局,,15,15,28,8,12,26,,83,51,6,9,5,6,0.6,0.7
2025-08-02T0000,2647A,104.1724,36.5446,白银市,第三小学,颗粒物(PM10),56,62,63,28,36,113,,134,122,8,8,20,27,1.3,0.9
2025-08-02T0000,2648A,104.1465,36.5482,白银市,动力公司,颗粒物(PM10),53,56,55,23,30,98,,127,114,10,10,9,14,0.6,0.6
2025-08-02T0000,2512A,106.6103,23.9011,百色市,市监测站,,25,25,18,8,9,4,,89,54,33,9,5,4,0.6,0.5
2025-08-02T0000,2513A,106.6538,23.8859,百色市,市中心血站,,27,27,22,9,9,22,,94,58,26,14,2,2,0.6,0.6
2025-08-02T0000,3406A,106.6085,23.8798,百色市,祈福高中,,,25,22,14,9,,,79,,22,14,4,4,0.5,0.5
2025-08-02T0000,2270A,117.396,32.939,蚌埠市,工人疗养院,,22,19,14,6,4,70,,76,75,4,5,3,4,0.4,0.3
2025-08-02T0000,2271A,117.3605,32.9427,蚌埠市,百货大楼,,20,14,12,8,6,62,,69,68,6,5,5,6,0.4,0.4
2025-08-02T0000,2273A,117.4185,32.8911,蚌埠市,蚌埠学院,,18,,9,9,6,55,,66,54,14,17,6,7,0.5,0.4
2025-08-02T0000,2274A,117.3533,32.9673,蚌埠市,淮上区政府,,23,14,13,7,6,71,,80,79,8,6,5,5,0.5,0.5
2025-08-02T0000,2275A,117.3145,32.8977,蚌埠市,高新区,,14,14,10,3,4,39,,65,62,28,9,5,6,0.5,0.5
2025-08-02T0000,3715A,117.3092,32.9314,蚌埠市,蚌埠田家炳中学,,15,13,14,10,6,45,,55,47,6,6,6,6,0.3,0.3
2025-08-02T0000,1585A,109.8756,40.6532,包头市,市环境监测站,,29,,28,20,18,40,,156,110,34,18,3,6,0.6,0.6
2025-08-02T0000,1587A,109.9991,40.5842,包头市,包头八中,,39,28,40,27,21,45,,144,107,40,20,6,7,0.8,0.8
2025-08-02T0000,1588A,109.8538,40.6821,包头市,青山宾馆,,32,26,30,22,20,13,,153,92,38,27,3,5,0.7,0.7
2025-08-02T0000,1589A,109.8642,40.6288,包头市,惠龙物流,,32,32,31,14,17,64,,149,109,18,14,3,6,0.6,0.7
2025-08-02T0000,1590A,110.0377,40.5546,包头市,东河鸿龙湾,,28,,32,19,21,68,,149,115,19,19,6,4,0.9,0.7
2025-08-02T0000,3283A,109.9154,40.5685,包头市,滨河大厦,,32,30,29,22,17,38,,152,104,29,21,4,4,0.7,0.6
2025-08-02T0000,3419A,109.9447,40.6261,包头市,包头市委党校,,26,25,21,18,17,53,,156,116,26,19,3,6,0.6,0.7
2025-08-02T0000,3683A,109.8331,40.6576,包头市,昆区政府,,38,34,37,26,23,65,,157,112,26,22,3,6,0.7,0.8
2025-08-02T0000,1930A,107.185,34.3063,宝鸡市,庙沟村,,34,27,34,17,18,106,,160,132,12,12,3,4,0.4,0.5
2025-08-02T0000,1931A,107.0708,34.3017,宝鸡市,竹园沟,,32,28,34,22,26,77,,169,128,13,13,8,9,0.4,0.6
2025-08-02T0000,1932A,107.1906,34.3672,宝鸡市,三陆医院,,42,25,40,19,27,134,,167,156,11,16,8,8,0.6,0.6
2025-08-02T0000,1933A,107.1431,34.3547,宝鸡市,监测站,,36,35,44,25,23,94,,169,147,14,14,8,9,0.5,0.5
2025-08-02T0000,1934A,107.1186,34.3739,宝鸡市,技工学校,,42,29,40,22,24,132,,171,156,13,13,7,8,0.5,0.6
2025-08-02T0000,1936A,107.2058,34.3497,宝鸡市,文理学院,,43,36,43,19,21,136,,173,163,12,13,8,8,0.5,0.5
2025-08-02T0000,1937A,107.2386,34.3622,宝鸡市,三迪小学,,41,35,40,22,25,129,,166,154,16,16,8,9,0.6,0.6
2025-08-02T0000,4308A,107.3898,34.3601,宝鸡市,陈仓区北开路21号,,37,34,34,23,22,118,,182,158,13,13,8,9,0.5,0.5
2025-08-02T0000,1051A,115.493,38.8632,保定市,游泳馆,颗粒物(PM10),54,58,42,26,19,112,,178,152,18,14,2,3,0.4,0.3
2025-08-02T0000,1052A,115.5213,38.8959,保定市,华电二区,颗粒物(PM10),62,73,47,29,15,85,,187,143,28,16,1,3,0.5,0.4
2025-08-02T0000,1053A,115.4713,38.9108,保定市,接待中心,颗粒物(PM10),51,51,39,31,17,104,,194,158,21,12,1,2,0.4,0.4
2025-08-02T0000,1054A,115.4612,38.8416,保定市,地表水厂,颗粒物(PM10),63,76,52,24,16,111,,173,153,19,9,3,4,0.5,0.4
2025-08-02T0000,3581A,115.31981,38.95208,保定市,满城区生态环境分局,颗粒物(PM10),64,78,44,24,17,90,,182,154,27,16,3,3,0.3,0.2
2025-08-02T0000,3582A,115.47694,38.76408,保定市,清苑区第二中学,,,,52,,29,107,,174,154,29,11,4,5,0.5,0.4
2025-08-02T0000,3583A,115.62909,39.02311,保定市,徐水物探局,颗粒物(PM10),63,76,46,29,12,72,,186,138,32,15,3,4,0.2,0.4
2025-08-02T0000,4004A,115.4202,38.8656,保定市,双鹰农机,颗粒物(PM10),56,61,43,26,16,101,,181,155,22,12,3,4,0.3,0.3
2025-08-02T0000,4034A,115.5150,38.8590,保定市,植保所站,颗粒物(PM10),59,67,41,18,15,94,,193,157,29,14,3,2,0.3,0.3
2025-08-02T0000,2594A,99.1678,25.1081,保山市,市环境监测站,,23,,15,16,15,25,,57,41,10,7,6,6,0.3,0.3
2025-08-02T0000,2595A,99.1711,25.1328,保山市,市环保局,,19,17,16,13,8,23,,60,44,5,5,4,4,0.4,0.4
2025-08-02T0000,1866A,109.2262,21.588,北海市,牛尾岭水库,,27,10,8,7,5,86,,68,68,3,6,2,2,0.5,0.5
2025-08-02T0000,1867A,109.1436,21.4086,北海市,海滩公园,,32,28,26,3,4,100,,92,92,3,5,2,2,0.4,0.5
2025-08-02T0000,1868A,109.0981,21.4661,北海市,新市环保局,,,14,14,7,10,,,74,74,4,8,2,3,0.3,0.4
2025-08-02T0000,1869A,109.1778,21.5233,北海市,北海工业园,,30,6,14,3,7,96,,66,66,4,9,3,3,0.5,0.5
2025-08-02T0000,3400A,109.1911,21.4415,北海市,龙潭自来水厂,,30,10,14,7,9,96,,83,83,3,5,6,6,0.4,0.4
2025-08-02T0000,1001A,116.3621,39.8784,北京市,万寿西宫,颗粒物(PM10),57,64,47,38,28,129,,190,162,25,25,3,3,0.8,0.6
2025-08-02T0000,1002A,116.2202,40.2915,北京市,定陵,细颗粒物(PM2.5),58,52,41,41,36,64,,194,147,3,4,11,11,0.7,0.6
2025-08-02T0000,1003A,116.4174,39.9289,北京市,东四,细颗粒物(PM2.5),64,71,47,46,28,134,,214,180,27,21,5,4,0.9,0.7
2025-08-02T0000,1004A,116.4072,39.8863,北京市,天坛,"颗粒物(PM10),细颗粒物(PM2.5)",52,53,45,36,27,101,,188,131,18,17,1,2,0.8,0.7
2025-08-02T0000,1005A,116.462,39.9365,北京市,农展馆,细颗粒物(PM2.5),68,74,48,49,28,127,,197,163,23,24,4,3,0.9,0.7
2025-08-02T0000,1006A,116.3392,39.9295,北京市,官园,细颗粒物(PM2.5),55,54,48,39,26,148,,189,169,14,23,4,4,0.4,0.4
2025-08-02T0000,1007A,116.2878,39.9611,北京市,海淀万柳,颗粒物(PM10),51,52,43,33,25,98,,176,142,33,27,3,3,0.7,0.6
2025-08-02T0000,1008A,116.6636,40.135,北京市,顺义新城,,,,,,,,,,,,,,,,
2025-08-02T0000,1009A,116.6275,40.3275,北京市,怀柔镇,细颗粒物(PM2.5),60,58,42,43,28,97,,204,168,11,13,3,2,0.6,0.5
2025-08-02T0000,1010A,116.2296,40.217,北京市,昌平镇,细颗粒物(PM2.5),58,64,46,41,27,111,,185,158,13,17,3,4,0.8,0.7
2025-08-02T0000,1011A,116.3966,39.9821,北京市,奥体中心,颗粒物(PM10),58,65,45,40,27,114,,178,154,20,22,4,4,0.8,0.6
2025-08-02T0000,3281A,115.9718,40.4529,北京市,延庆夏都,"颗粒物(PM10),细颗粒物(PM2.5)",54,57,39,38,26,134,,175,175,10,8,2,2,0.9,0.8
2025-08-02T0000,3418A,116.8336,40.4095,北京市,密云新城,颗粒物(PM10),53,56,41,32,24,26,,163,117,5,5,1,1,0.7,0.6
2025-08-02T0000,3671A,116.088,39.9726,北京市,门头沟三家店,颗粒物(PM10),60,70,46,37,26,43,,171,114,21,11,2,3,0.7,0.6
2025-08-02T0000,3672A,116.1541,39.8204,北京市,丰台云岗,颗粒物(PM10),67,84,50,44,29,69,,167,126,35,18,5,3,0.8,0.7
2025-08-02T0000,3673A,116.6804,39.9081,北京市,通州东关,细颗粒物(PM2.5),83,98,65,61,36,77,,197,142,43,32,5,6,1.0,0.8
2025-08-02T0000,3674A,115.9577,39.7603,北京市,房山燕山,,48,45,42,33,28,115,,152,136,7,10,20,9,0.6,0.6
2025-08-02T0000,3675A,116.4672,39.7733,北京市,大兴旧宫,"颗粒物(PM10),细颗粒物(PM2.5)",52,53,48,36,29,120,,184,134,16,24,4,3,1.0,0.9
2025-08-02T0000,3694A,115.986,40.4563,北京市,延庆石河营,细颗粒物(PM2.5),60,59,40,43,26,110,,164,163,9,7,2,3,0.7,0.5
2025-08-02T0000,3695A,116.6151,40.3053,北京市,怀柔新城,细颗粒物(PM2.5),57,58,42,40,28,92,,171,140,2,4,2,2,0.9,0.8
2025-08-02T0000,3696A,116.2545,39.8768,北京市,丰台小屯,细颗粒物(PM2.5),55,57,45,39,27,42,,163,120,64,21,1,2,0.9,0.8
2025-08-02T0000,3697A,116.84,40.3844,北京市,密云镇,颗粒物(PM10),61,72,45,42,29,82,,170,148,15,13,4,4,0.9,0.8
2025-08-02T0000,4182A,116.1942,39.9158,北京市,八角北路9号,颗粒物(PM10),75,99,53,47,27,67,,186,143,39,14,3,3,0.8,0.6
2025-08-02T0000,4194A,117.0790,40.1518,北京市,洳河巡河路,细颗粒物(PM2.5),68,72,50,49,32,87,,168,134,10,8,2,3,0.7,0.6
2025-08-02T0000,1761A,123.8275,41.3064,本溪市,大峪,,27,27,24,8,9,11,,90,42,22,12,4,4,0.3,0.4
2025-08-02T0000,1762A,123.7567,41.3325,本溪市,溪湖,,35,35,28,15,13,16,,80,44,15,10,5,8,1.3,1.1
2025-08-02T0000,1763A,123.7169,41.3094,本溪市,彩屯,,22,22,29,12,17,14,,67,29,14,14,7,8,0.6,1
2025-08-02T0000,1764A,123.7669,41.2864,本溪市,东明,,34,34,28,9,12,11,,75,48,32,15,3,4,0.6,0.5
2025-08-02T0000,1765A,123.7992,41.2664,本溪市,新立屯,,24,24,22,8,9,17,,77,28,34,19,4,4,0.6,0.6
2025-08-02T0000,1766A,123.8142,41.3472,本溪市,威宁,,25,25,31,13,13,2,,76,26,18,12,7,8,0.5,0.7
2025-08-02T0000,2587A,105.2864,27.3125,毕节市,八中,,45,35,33,31,24,29,,111,68,20,16,4,5,0.4,0.4
2025-08-02T0000,2588A,105.31,27.2944,毕节市,师专,颗粒物(PM10),52,54,42,25,22,36,,117,71,21,18,4,5,0.5,0.5
2025-08-02T0000,4263A,105.3688,27.3598,毕节市,工业大道,,43,41,31,30,21,25,,124,74,33,19,6,6,0.7,0.7
2025-08-02T0000,1629A,118.0018,37.3617,滨州市,第二水厂,,27,27,24,17,18,27,,125,57,18,11,3,3,0.4,0.4
2025-08-02T0000,1630A,117.9776,37.393,滨州市,北中新校,,22,22,29,7,17,33,,137,60,19,16,3,3,0.3,0.3
2025-08-02T0000,3514A,117.9378,37.3956,滨州市,中海酒店,,22,22,26,14,21,38,,136,66,9,9,10,9,0.4,0.4
2025-08-02T0000,3515A,117.9378,37.3553,滨州市,开发区一中,,24,24,28,14,17,40,,140,69,18,13,5,5,0.4,0.4
2025-08-02T0000,3516A,118.0917,37.694,滨州市,金海六路,,25,22,20,17,11,51,,105,70,16,7,13,9,0.2,0.1
2025-08-02T0000,4028A,117.9956,37.3753,滨州市,滨州市西街道办事处,,18,17,20,12,17,41,,139,67,11,10,5,2,0.2,0.2
2025-08-02T0000,2311A,115.8072,33.8399,亳州市,污水处理厂,,12,7,8,7,8,38,,74,61,10,7,2,2,0.6,0.6
2025-08-02T0000,2312A,115.7789,33.8518,亳州市,三国揽胜宫,,22,18,21,15,10,52,,77,68,7,5,2,2,0.5,0.5
2025-08-02T0000,3332A,115.7633,33.8034,亳州市,亳州学院,,17,8,5,7,9,52,,73,62,9,8,3,3,0.6,0.5
2025-08-02T0000,2693A,82.0485,44.8556,博尔塔拉蒙古自治州,市党校,,38,30,107,26,35,94,,117,111,8,10,3,3,0.3,0.3
2025-08-02T0000,2694A,82.0806,44.8969,博尔塔拉蒙古自治州,市环保局,,34,34,108,23,28,80,,113,106,11,7,3,2,0.6,0.5
2025-08-02T0000,1071A,116.8842,38.2991,沧州市,沧县城建局,,31,31,36,15,13,62,,152,98,16,14,3,2,0.2,0.4
2025-08-02T0000,1072A,116.8584,38.3254,沧州市,电视转播站,,32,32,34,12,18,59,,140,101,18,19,1,2,0.2,0.4
2025-08-02T0000,1073A,116.8709,38.3228,沧州市,市环保局,,44,44,40,26,19,48,,152,97,20,14,4,3,0.2,0.3
2025-08-02T0000,3324A,116.8136,38.3004,沧州市,河北水利电力学院,,46,,24,32,22,81,,160,117,7,10,1,3,0.1,0.3
2025-08-02T0000,2622A,97.1806,31.1273,昌都市,昌都监测站,,21,21,14,9,6,60,,90,83,6,5,4,4,0.3,0.2
2025-08-02T0000,3719A,97.1714,31.1406,昌都市,昌都会议中心,,25,25,12,12,7,42,,98,82,23,8,6,5,0.3,0.3
2025-08-02T0000,2690A,88.1236,43.8886,昌吉回族自治州,天山天池,,49,49,37,18,12,63,,123,105,8,7,4,4,0.7,0.6
2025-08-02T0000,2692A,87.2717,44.0297,昌吉回族自治州,新区政务中心,,38,38,62,11,17,47,,116,99,44,15,6,8,0.5,0.2
2025-08-02T0000,3613A,87.3095,44.0142,昌吉回族自治州,亚心广场,颗粒物(PM10),56,61,62,19,16,46,,110,93,47,15,7,8,0.5,0.3
2025-08-02T0000,1120A,125.2863,43.9027,长春市,客车厂,颗粒物(PM10),55,60,32,23,14,37,,127,74,45,31,4,3,0.5,0.4
2025-08-02T0000,1121A,125.2841,43.8463,长春市,邮电学院,,37,37,24,12,10,40,,130,86,37,15,5,5,0.5,0.4
2025-08-02T0000,1122A,125.3716,43.8772,长春市,劳动公园,,47,47,34,28,15,40,,134,96,40,22,6,6,0.8,0.7
2025-08-02T0000,1123A,125.3297,43.8805,长春市,园林处,,44,44,28,16,11,34,,124,85,40,17,4,4,0.6,0.5
2025-08-02T0000,1124A,125.4605,43.79,长春市,净月潭,,28,28,20,15,9,28,,120,75,15,6,3,4,0.4,0.3
2025-08-02T0000,1125A,125.7194,43.515,长春市,甩湾子,,18,18,20,10,10,33,,108,68,15,12,4,4,0.5,0.6
2025-08-02T0000,1126A,125.3863,43.8447,长春市,经开区环卫处,,50,50,25,24,9,20,,123,78,57,22,3,3,0.6,0.4
2025-08-02T0000,1127A,125.245,43.7783,长春市,高新区管委会,,29,29,26,11,14,2,,126,67,57,18,3,3,0.5,0.5
2025-08-02T0000,1128A,125.1761,43.8325,长春市,岱山公园,,41,33,24,18,12,1,,119,57,81,24,3,3,0.5,0.4
2025-08-02T0000,4281A,125.3346,43.9164,长春市,北亚泰大街1068号,颗粒物(PM10),52,54,36,26,15,28,,119,80,49,30,7,6,0.7,0.6
2025-08-02T0000,1335A,113.0833,28.2325,长沙市,经开区环保局,颗粒物(PM10),54,57,40,37,25,63,,142,127,41,14,4,5,0.6,0.4
2025-08-02T0000,1336A,112.8872,28.2189,长沙市,高开区环保局,细颗粒物(PM2.5),54,56,47,38,28,105,,151,145,21,11,4,4,0.5,0.4
2025-08-02T0000,1337A,113.0792,28.2053,长沙市,马坡岭,颗粒物(PM10),66,82,43,43,28,62,,158,119,34,15,4,4,0.5,0.4
2025-08-02T0000,1338A,112.9394,28.19,长沙市,湖南师范大学,"颗粒物(PM10),细颗粒物(PM2.5)",55,59,42,39,26,114,,152,135,10,6,3,3,0.6,0.5
2025-08-02T0000,1339A,113.0178,28.1322,长沙市,雨花区环保局,颗粒物(PM10),56,62,42,29,21,52,,159,126,42,14,5,5,0.8,0.6
2025-08-02T0000,1340A,112.9792,28.2597,长沙市,伍家岭,颗粒物(PM10),61,71,45,35,28,49,,140,113,29,13,1,1,0.6,0.4
2025-08-02T0000,1341A,113.0014,28.1944,长沙市,火车新站,颗粒物(PM10),51,52,40,34,21,128,,153,143,8,7,5,6,0.7,0.6
2025-08-02T0000,1342A,112.9844,28.1178,长沙市,天心区环保局,细颗粒物(PM2.5),62,67,38,44,25,65,,163,144,43,15,2,3,0.5,0.4
2025-08-02T0000,1343A,112.8908,28.1308,长沙市,湖南中医药大学,颗粒物(PM10),56,62,47,38,31,38,,149,108,48,12,2,3,0.4,0.5
2025-08-02T0000,1344A,112.9581,28.3611,长沙市,沙坪,颗粒物(PM10),65,79,44,30,26,74,,131,97,9,9,5,6,0.6,0.5
2025-08-02T0000,1727A,113.1147,36.1547,长治市,清华站,,47,36,28,27,13,149,,150,150,8,8,6,7,0.5,0.6
2025-08-02T0000,1730A,113.0886,36.2125,长治市,审计局,,47,31,24,22,15,150,,157,156,8,8,5,6,0.7,0.8
2025-08-02T0000,1731A,113.0844,36.1856,长治市,长治八中,,49,40,29,28,21,155,,159,159,4,4,7,8,0.6,0.7
2025-08-02T0000,2845A,113.1569,36.1911,长治市,德盛苑,,44,32,27,22,14,138,,152,151,7,7,5,6,0.7,0.8
2025-08-02T0000,3568A,113.06,36.0464,长治市,向阳小学,颗粒物(PM10),59,67,67,31,22,121,,153,141,6,6,6,8,0.8,0.8
2025-08-02T0000,3569A,112.8792,36.3144,长治市,屯留一中,颗粒物(PM10),61,71,51,34,36,140,,190,162,10,13,9,18,0.2,0.7
2025-08-02T0000,4189A,113.1131,36.19948,长治市,英华南巷50号,,45,38,30,24,18,141,,148,148,8,7,6,7,0.7,0.8
2025-08-02T0000,4190A,113.2367,36.3344,长治市,学府街1号,细颗粒物(PM2.5),54,41,37,38,21,125,,160,153,17,12,4,8,0.7,0.8
2025-08-02T0000,1854A,111.6975,28.9703,常德市,市二中,,49,,40,34,34,65,,166,136,20,11,4,4,0.7,0.6
2025-08-02T0000,1857A,111.7158,29.1456,常德市,白鹤山,,,,,,,,,,,,,,,,
2025-08-02T0000,3138A,111.7153,29.0289,常德市,武陵区永安,,48,48,44,33,32,125,,162,142,7,8,3,4,0.5,0.4
2025-08-02T0000,3139A,111.6892,28.9881,常德市,鼎城区玉霞,细颗粒物(PM2.5),55,48,41,39,29,55,,154,122,25,11,3,8,0.6,0.4
2025-08-02T0000,3140A,111.6625,29.0531,常德市,武陵区长庚,细颗粒物(PM2.5),52,47,37,36,27,83,,161,146,21,8,3,3,0.5,0.4
2025-08-02T0000,1196A,119.9633,31.762,常州市,市监测站,,18,16,32,10,20,57,,152,91,12,17,8,9,0.5,0.6
2025-08-02T0000,1200A,119.9468,31.7069,常州市,武进监测站,,24,24,24,10,21,51,,162,99,10,12,11,11,0.9,0.9
2025-08-02T0000,1201A,119.9255,31.9087,常州市,安家,,22,22,29,9,18,56,,130,76,12,17,7,7,0.6,0.8
2025-08-02T0000,3002A,119.9805,31.8174,常州市,行政中心,,,24,27,9,18,55,,141,92,10,17,,11,,0.6
2025-08-02T0000,3003A,120.0522,31.7748,常州市,经开区,,22,22,39,10,18,59,,132,79,11,22,4,4,0.5,0.7
2025-08-02T0000,3010A,119.9025,31.7964,常州市,钟楼,,21,21,28,3,17,52,,155,91,13,14,5,6,0.7,0.8
2025-08-02T0000,3429A,119.8598,31.7066,常州市,武进经发区,,15,15,30,10,20,44,,151,83,10,12,5,7,0.8,0.8
2025-08-02T0000,3430A,119.5826,31.7245,常州市,金坛城区,,22,13,22,10,15,70,,138,74,6,12,6,8,0.3,0.4
2025-08-02T0000,2220A,120.4318,41.5881,朝阳市,西梁,,35,35,40,20,18,96,,128,122,10,16,6,7,0.6,0.5
2025-08-02T0000,2221A,120.4521,41.5646,朝阳市,河畔小区,,35,26,31,20,16,110,,138,134,10,14,6,7,0.8,0.7
2025-08-02T0000,2222A,120.4176,41.5648,朝阳市,八里堡,,33,,39,23,20,93,,139,128,9,15,2,5,0.8,0.8
2025-08-02T0000,2223A,120.3806,41.5969,朝阳市,农业园区,细颗粒物(PM2.5),57,,34,40,25,49,,137,103,24,17,5,7,0.7,0.7
2025-08-02T0000,1705A,116.6367,23.6719,潮州市,西园路,,37,37,29,3,10,14,,91,38,23,11,2,4,0.4,0.2
2025-08-02T0000,3026A,116.6183,23.6608,潮州市,市政府,,44,44,33,19,14,33,,99,51,25,17,12,12,0.8,0.6
2025-08-02T0000,4036A,116.6461,23.6761,潮州市,金山,,34,34,27,11,15,16,,98,41,24,12,4,4,0.8,0.6
2025-08-02T0000,2472A,113.0073,25.9061,郴州市,马头岭,,26,26,26,3,10,25,,98,64,14,8,5,6,0.5,0.5
2025-08-02T0000,2473A,113.0116,25.8226,郴州市,市职中,,23,19,26,16,17,39,,99,70,9,8,4,6,0.3,0.3
2025-08-02T0000,2475A,113.0383,25.8071,郴州市,市审计局,,24,24,33,15,22,40,,96,71,11,7,7,12,0.3,0.2
2025-08-02T0000,2476A,113.0348,25.7759,郴州市,市环保局,,30,,29,21,18,38,,94,69,8,7,3,6,0.3,0.3
2025-08-02T0000,4252A,113.0138,25.8011,郴州市,好美居路49号,,25,23,25,17,17,39,,96,72,13,8,7,6,0.3,0.3
2025-08-02T0000,1431A,103.9728,30.7236,成都市,金泉两河,,46,46,35,27,21,116,,182,144,19,16,3,4,0.7,0.6
2025-08-02T0000,1432A,104.176,30.6872,成都市,十里店,颗粒物(PM10),54,58,44,27,25,104,,181,145,19,16,6,5,0.6,0.6
2025-08-02T0000,1433A,104.079,30.5706,成都市,三瓦窑,,40,39,39,28,23,80,,175,130,42,26,4,4,0.5,0.5
2025-08-02T0000,1434A,104.1114,30.63,成都市,沙河铺,,37,33,37,22,24,117,,134,122,10,14,7,7,0.5,0.6
2025-08-02T0000,1437A,104.0786,30.6531,成都市,君平街,颗粒物(PM10),55,59,45,38,25,126,,181,145,16,14,7,6,0.5,0.5
2025-08-02T0000,1438A,103.613,31.0283,成都市,灵岩寺,,,,,,,,,,,,,,,,
2025-08-02T0000,2880A,104.0239,30.65639,成都市,大石西路,颗粒物(PM10),51,51,34,33,27,108,,163,125,17,14,5,4,0.7,0.6
2025-08-02T0000,3136A,104.2725,30.5589,成都市,龙泉驿区区政府,,40,19,19,9,11,125,,155,142,12,11,6,5,0.6,0.6
2025-08-02T0000,3357A,104.0106,30.6931,成都市,金博路,,41,41,30,24,18,106,,172,134,21,17,6,5,0.8,0.8
2025-08-02T0000,3359A,104.0578,30.5225,成都市,华阳,,44,,30,19,24,138,,155,143,9,13,4,4,0.5,0.6
2025-08-02T0000,3488A,104.3853,30.7453,成都市,青白江技师分院,,29,25,34,3,20,56,,163,126,57,26,5,5,0.7,0.7
2025-08-02T0000,3489A,104.0789,30.4072,成都市,科学城,,36,20,28,17,20,114,,142,136,6,10,3,3,0.4,0.5
2025-08-02T0000,4011A,103.8506,30.6947,成都市,光华大道三段,,,54,40,28,23,127,,179,150,19,16,6,6,,
2025-08-02T0000,4224A,104.2433,30.5353,成都市,鲸龙路1057号,,35,29,31,21,22,112,,155,144,20,15,4,4,0.7,0.7
2025-08-02T0000,1062A,117.9531,40.9081,承德市,铁路,颗粒物(PM10),56,61,44,27,22,45,,122,87,24,9,2,4,1.0,0.8
2025-08-02T0000,1063A,117.9392,40.9763,承德市,中国银行,,50,50,39,30,24,21,,134,79,15,9,3,3,0.8,0.6
2025-08-02T0000,1064A,117.9503,40.928,承德市,开发区,,50,50,43,21,17,65,,132,96,13,12,4,6,1.0,0.8
2025-08-02T0000,1066A,117.9268,41.0026,承德市,离宫,,40,,38,28,18,13,,126,52,8,7,2,2,0.6,0.6
2025-08-02T0000,4274A,117.7994,40.9605,承德市,滨河大街98号,,39,39,30,22,23,43,,124,75,6,5,2,3,0.7,0.6
2025-08-02T0000,2314A,117.47,30.6618,池州市,池州学院,,18,11,15,11,13,55,,69,64,5,6,4,4,0.5,0.4
2025-08-02T0000,3237A,117.4918,30.6617,池州市,展览馆,,19,11,19,7,12,58,,69,62,5,8,4,4,0.6,0.6
2025-08-02T0000,3333A,117.5627,30.695,池州市,第八中学,,19,11,16,8,11,59,,72,66,4,5,4,4,0.6,0.5
2025-08-02T0000,3334A,117.5038,30.6243,池州市,第十二中学,,20,16,18,14,14,45,,66,59,12,10,3,2,1.0,0.8
2025-08-02T0000,1744A,118.9233,42.2816,赤峰市,松山一中,,27,27,22,12,12,79,,108,98,12,16,5,5,0.7,0.7
2025-08-02T0000,1745A,118.9576,42.2728,赤峰市,哈达街,,33,33,29,18,10,73,,109,97,16,14,15,14,0.6,0.6
2025-08-02T0000,1746A,118.8788,42.2554,赤峰市,天义路,,33,,17,23,16,79,,112,95,12,11,19,13,0.4,0.4
2025-08-02T0000,3058A,119.2658,42.0353,赤峰市,银河街,,33,29,34,23,20,79,,122,99,11,14,8,12,0.7,0.8
2025-08-02T0000,3286A,118.9359,42.3147,赤峰市,桥北物流园区,,30,28,32,21,18,54,,100,79,25,18,9,12,0.8,0.6
2025-08-02T0000,2521A,107.3476,22.4136,崇左市,市环保局江州分局,,29,29,18,10,8,18,,66,43,14,10,6,7,0.6,0.5
2025-08-02T0000,4256A,107.3750,22.3736,崇左市,石景林东路7号,,,,12,26,18,33,,71,44,11,10,4,4,1.0,0.8
2025-08-02T0000,2298A,118.3093,32.3153,滁州市,老年大学,,20,13,15,3,6,64,,71,60,9,12,7,7,0.4,0.4
2025-08-02T0000,2299A,118.3244,32.2786,滁州市,人大宾馆,,20,,5,10,11,62,,73,64,4,4,4,4,0.4,0.4
2025-08-02T0000,3207A,118.3118,32.3038,滁州市,市政府原办公楼,,20,,12,12,13,62,,71,63,5,8,5,5,0.3,0.4
2025-08-02T0000,3331A,118.3267,32.2634,滁州市,图书馆,,23,10,8,9,11,71,,78,69,7,9,10,10,0.3,0.4
2025-08-02T0000,2605A,101.5482,25.0441,楚雄彝族自治州,州环境监测站,,43,43,18,23,13,16,,85,62,48,13,8,7,0.8,0.6
2025-08-02T0000,2606A,101.538,25.0492,楚雄彝族自治州,市经济开发区,颗粒物(PM10),59,67,34,28,14,15,,83,58,40,13,9,6,0.8,0.6
2025-08-02T0000,2548A,107.5277,31.2827,达州市,达州职业技术学院,,39,39,33,10,11,39,,147,98,31,16,7,9,0.5,0.5
2025-08-02T0000,2549A,107.5086,31.2186,达州市,市环境监测站,,21,21,32,12,11,58,,156,107,32,22,6,8,0.4,0.4
2025-08-02T0000,2550A,107.4988,31.2132,达州市,凤凰小区,,41,41,31,19,17,39,,156,102,38,20,4,8,0.5,0.4
2025-08-02T0000,2551A,107.5082,31.1986,达州市,达县机关宾馆,,48,48,33,29,13,27,,163,92,69,26,5,8,0.4,0.4
2025-08-02T0000,2552A,107.4644,31.2124,达州市,市政中心,,41,41,39,24,14,56,,146,102,32,17,4,6,0.4,0.3
2025-08-02T0000,2614A,100.1542,25.7054,大理白族自治州,大理市环境监测站,,33,,14,23,17,63,,82,73,8,11,5,5,0.4,0.5
2025-08-02T0000,2615A,100.2171,25.5811,大理白族自治州,大理古城,,26,21,18,18,9,51,,91,70,12,9,4,4,0.7,0.7
2025-08-02T0000,1109A,121.612,38.9741,大连市,甘井子,,23,18,12,16,9,51,,66,57,20,13,11,10,0.1,0
2025-08-02T0000,1110A,121.565,38.9511,大连市,周水子,,23,17,15,16,10,48,,59,54,12,8,6,7,0.3,0.2
2025-08-02T0000,1111A,121.5637,38.8845,大连市,星海三站,,19,15,13,13,7,58,,59,54,11,6,4,4,0.2,0.2
2025-08-02T0000,1112A,121.6302,38.9117,大连市,青泥洼桥,,22,17,17,12,7,69,,68,63,6,9,5,6,0.3,0.4
2025-08-02T0000,1113A,121.6251,38.8638,大连市,傅家庄,,16,13,14,10,8,51,,53,51,6,6,8,8,0.1,0
2025-08-02T0000,1114A,121.5213,38.8661,大连市,七贤岭,,20,15,12,11,7,61,,66,58,2,3,8,8,0.2,0.2
2025-08-02T0000,1115A,121.2529,38.8061,大连市,旅顺,,13,11,9,9,8,37,,54,49,8,7,5,4,0.2,0.2
2025-08-02T0000,1116A,121.7485,39.1311,大连市,金州,,20,15,12,11,7,61,,66,60,5,10,7,7,0.2,0.1
2025-08-02T0000,1117A,121.7811,39.0496,大连市,开发区,,25,18,15,17,9,60,,62,57,10,12,7,7,0.3,0.3
2025-08-02T0000,1118A,121.9762,39.0631,大连市,双D港,,21,14,15,13,9,66,,69,68,2,3,7,7,0.4,0.4
2025-08-02T0000,1789A,124.81117,46.03138,大庆市,大同区,,16,16,21,11,10,41,,81,55,15,11,8,7,0.7,0.7
2025-08-02T0000,1790A,125.129,46.533,大庆市,龙凤区,,32,32,21,18,10,34,,91,55,23,16,8,7,0.7,0.6
2025-08-02T0000,1791A,124.902,46.408,大庆市,红岗区,,21,21,20,8,9,29,,91,58,16,13,8,8,0.6,0.6
2025-08-02T0000,1792A,125.153,46.586,大庆市,萨尔图区,颗粒物(PM10),57,64,31,29,10,21,,100,56,37,18,7,7,0.8,0.6
2025-08-02T0000,1793A,124.9042,46.6215,大庆市,让胡路区,,31,31,24,14,14,31,,91,56,20,13,6,6,0.7,0.4
2025-08-02T0000,3481A,125.141,46.634,大庆市,萨区政府监测点,,41,41,28,12,7,32,,109,68,33,14,7,7,0.5,0.4
2025-08-02T0000,1721A,113.3819,40.1097,大同市,果树场,,33,22,36,11,23,103,,129,101,17,18,6,7,0.6,0.7
2025-08-02T0000,1723A,113.2994,40.0758,大同市,云冈宾馆,,36,30,42,15,26,114,,137,119,13,19,5,7,0.8,1.1
2025-08-02T0000,1724A,113.3444,40.0917,大同市,大同大学,,41,21,38,14,23,131,,150,128,8,15,4,7,0.5,0.8
2025-08-02T0000,1725A,113.2661,40.1269,大同市,安家小村,,33,15,47,6,27,103,,146,120,13,16,5,6,0.7,0.9
2025-08-02T0000,1726A,113.2711,40.0844,大同市,教育学院,,35,25,51,20,29,110,,144,124,13,21,6,9,0.5,1.2
2025-08-02T0000,3282A,113.3397,40.0597,大同市,大同市卫生学校,,35,23,45,20,24,112,,135,118,12,22,5,7,0.5,0.7
2025-08-02T0000,3565A,113.1367,40.1122,大同市,云冈站,,31,27,55,17,26,97,,152,122,9,17,3,4,0.6,0.6
2025-08-02T0000,3566A,113.1186,40.2556,大同市,图书馆,,34,34,44,18,24,89,,141,112,7,9,7,8,0.7,0.7
2025-08-02T0000,3567A,113.5931,40.0461,大同市,区一中,,38,,34,26,24,112,,139,118,8,8,8,8,0.6,0.5
2025-08-02T0000,4199A,113.2798,40.0997,大同市,魏都大道141号,,33,,49,20,29,105,,143,122,13,19,4,6,0.7,1.1
2025-08-02T0000,2269A,124.1069,50.4097,大兴安岭地区,科技局,,22,22,19,3,9,4,,46,24,7,4,7,4,0.4,0.3
2025-08-02T0000,3663A,124.1164,50.4278,大兴安岭地区,红旗社区,,9,7,5,6,3,4,,49,24,9,4,4,4,0.4,0.3
2025-08-02T0000,1600A,124.3303,40.0625,丹东市,江湾东路,,18,18,15,11,9,25,,54,38,17,10,6,8,0.5,0.4
2025-08-02T0000,1601A,124.4256,40.1503,丹东市,临江后街,颗粒物(PM10),59,68,61,19,12,7,,54,32,21,11,7,7,0.7,0.6
2025-08-02T0000,1602A,124.3933,40.1461,丹东市,元宝山,,44,44,19,25,8,15,,51,42,24,11,4,4,0.6,0.5
2025-08-02T0000,1603A,124.3633,40.1092,丹东市,民主桥,,21,21,17,11,8,17,,53,37,14,8,3,4,0.4,0.4
2025-08-02T0000,3541A,109.5726,19.5167,儋州市,第一中学子站,,34,34,28,16,15,33,,45,42,4,3,6,5,0.3,0.4
2025-08-02T0000,3542A,109.5567,19.5187,儋州市,东坡学校子站,,30,30,28,20,14,32,,47,43,7,4,5,6,0.6,0.5
2025-08-02T0000,2616A,98.5842,24.428,德宏傣族景颇族自治州,德宏州监测站,,20,20,21,12,11,8,,38,25,10,8,10,10,0.6,0.6
2025-08-02T0000,3677A,98.5881,24.4368,德宏傣族景颇族自治州,芒市人民政府综合楼,,29,29,29,8,12,8,,35,22,7,8,6,10,0.5,0.6
2025-08-02T0000,1901A,104.4239,31.1208,德阳市,东山公园,,45,,34,18,23,143,,158,141,18,14,2,4,0.7,0.9
2025-08-02T0000,1902A,104.3826,31.1317,德阳市,西小区,,45,38,38,21,25,144,,174,140,10,15,7,10,0.8,1
2025-08-02T0000,1904A,104.3553,31.1091,德阳市,耐火材料厂,,47,40,38,20,25,148,,174,144,5,17,1,4,0.5,0.6
2025-08-02T0000,3639A,104.4019,31.1244,德阳市,市教育局,,44,37,39,15,23,140,,160,134,4,9,2,2,0.7,0.8
2025-08-02T0000,1622A,116.3032,37.4674,德州市,儿童乐园,,27,27,33,14,17,77,,155,131,12,9,9,10,0.5,0.5
2025-08-02T0000,1624A,116.2991,37.4451,德州市,监理站,,26,19,27,14,14,81,,153,134,10,8,13,13,0.3,0.3
2025-08-02T0000,3066A,116.2721,37.4379,德州市,九衢泉纯净水厂,,24,24,32,9,20,75,,145,128,11,10,18,17,0.6,0.6
2025-08-02T0000,3371A,116.3728,37.4403,德州市,开发区人民医院,,27,27,28,12,18,64,,140,118,21,12,10,10,0.8,0.8
2025-08-02T0000,3511A,116.5652,37.3319,德州市,陵城艺术中心,,24,24,35,9,18,58,,143,109,14,9,8,5,0.5,0.5
2025-08-02T0000,4292A,116.3525,37.4209,德州市,新河东路,,28,27,33,19,20,87,,149,133,13,9,10,10,0.9,0.8
2025-08-02T0000,2621A,99.7056,27.8317,迪庆藏族自治州,迪庆州站,,24,24,21,16,13,61,,73,65,7,7,6,7,0.5,0.5
2025-08-02T0000,3180A,99.7136,27.8094,迪庆藏族自治州,质量技术监督局,,20,20,19,7,7,64,,76,67,13,13,6,7,0.5,0.4
2025-08-02T0000,4257A,104.6092,35.5962,定西市,将台街,,32,32,41,19,18,97,,123,112,7,8,8,8,0.5,0.5
2025-08-02T0000,4309A,104.6159,35.5701,定西市,正龙路62号,,33,27,39,23,20,77,,117,105,10,8,4,4,0.4,0.4
2025-08-02T0000,1389A,113.7547,23.0494,东莞市,莞城梨川,,19,19,23,10,17,45,,182,87,17,19,7,7,0.5,0.6
2025-08-02T0000,1390A,113.7944,23.0128,东莞市,东城石井,,19,19,24,9,14,34,,173,76,17,21,2,3,0.6,0.6
2025-08-02T0000,1391A,113.7383,22.9658,东莞市,南城西平,,17,17,20,8,12,53,,172,78,14,19,5,6,0.5,0.5
2025-08-02T0000,3319A,113.7338,23.0381,东莞市,万江金泰,,19,19,27,13,18,28,,182,76,21,21,4,4,0.8,0.7
2025-08-02T0000,3626A,113.7533,23.0202,东莞市,南城元岭,,14,13,23,8,14,43,,172,79,19,20,5,6,0.6,0.6
2025-08-02T0000,3627A,113.7875,23.0457,东莞市,东城主山,,21,21,43,10,18,48,,168,83,14,24,4,4,0.5,0.6
2025-08-02T0000,1666A,118.6614,37.4309,东营市,市环保局,,16,9,16,3,9,49,,86,68,11,11,6,7,0.1,0.2
2025-08-02T0000,3036A,118.6904,37.4338,东营市,开发区管委会,,16,7,21,3,8,50,,91,72,13,10,6,7,0.2,0.2
2025-08-02T0000,3365A,118.5719,37.565,东营市,垦利区民丰路,,15,9,17,7,9,47,,87,65,11,10,6,3,0.6,0.6
2025-08-02T0000,3498A,118.5055,37.8612,东营市,河口城区,,23,12,14,3,4,73,,111,88,12,11,4,5,0.8,0.8
2025-08-02T0000,3646A,118.4978,37.4623,东营市,胜利站,,20,20,25,7,10,64,,104,72,14,12,3,3,0.4,0.4
2025-08-02T0000,3734A,118.35,37.26,东营市,理想之城,,20,17,16,14,11,51,,99,72,10,8,2,4,0.3,0.3
2025-08-02T0000,1591A,110.0023,39.8129,鄂尔多斯市,综合楼,,48,48,43,24,24,86,,138,111,27,18,3,3,0.7,0.7
2025-08-02T0000,1592A,109.9486,39.8261,鄂尔多斯市,巴音孟克林场办事处,,36,36,46,22,27,104,,144,118,14,17,2,3,0.5,0.7
2025-08-02T0000,1593A,109.7736,39.5986,鄂尔多斯市,康泽苑,,29,17,42,7,21,90,,126,96,12,13,8,7,0.3,0.6
2025-08-02T0000,1594A,109.8119,39.5989,鄂尔多斯市,华泰汽车城,,29,19,39,9,24,90,,123,99,16,16,3,4,0.6,0.8
2025-08-02T0000,1595A,109.9734,39.7884,鄂尔多斯市,奥林花园,,48,48,46,29,31,56,,130,91,28,18,5,6,0.9,0.9
2025-08-02T0000,2436A,114.8938,30.3994,鄂州市,市政府,,20,14,24,7,9,61,,87,73,18,14,6,6,1.2,0.7
2025-08-02T0000,2437A,114.8989,30.3714,鄂州市,赵家坝,,,,26,,9,,,98,88,,9,,8,,1
2025-08-02T0000,3654A,114.8094,30.4089,鄂州市,精准医疗中心,,28,28,28,6,9,64,,104,81,9,17,4,4,0.9,0.7
2025-08-02T0000,2454A,109.4978,30.2981,恩施土家族苗族自治州,湖北民院,,28,28,23,18,20,84,,130,107,9,5,6,5,0.5,0.5
2025-08-02T0000,2455A,109.4707,30.2798,恩施土家族苗族自治州,州电力总公司,,28,,26,19,20,70,,108,91,8,11,9,9,0.2,0.3
2025-08-02T0000,3549A,109.5061,30.3772,恩施土家族苗族自治州,龙凤新区,,25,21,22,13,14,80,,142,112,4,4,4,4,0.6,0.5
2025-08-02T0000,2499A,108.3411,21.6158,防城港市,沙万,,12,,16,8,12,38,,51,47,7,16,2,4,0.6,0.7
2025-08-02T0000,2500A,108.3514,21.7731,防城港市,防城档案局,,12,12,24,8,11,29,,46,39,7,13,2,2,0.7,0.6
2025-08-02T0000,2501A,108.3506,21.6414,防城港市,大海花园,,14,12,12,6,13,42,,58,51,4,13,3,6,0.5,0.6
2025-08-02T0000,1371A,113.1294,23.0067,佛山市,湾梁,,17,17,22,10,14,27,,132,59,26,21,6,6,0.8,0.8
2025-08-02T0000,1372A,113.1083,23.0478,佛山市,华材职中,,20,,22,14,16,42,,149,72,12,19,7,8,0.5,0.6
2025-08-02T0000,1373A,113.144,23.0453,佛山市,南海气象局,,21,21,23,13,16,27,,123,55,17,17,3,4,0.6,0.6
2025-08-02T0000,1374A,113.2881,22.8094,佛山市,顺德苏岗,,22,22,20,14,12,14,,138,43,38,23,7,6,1.1,0.9
2025-08-02T0000,1376A,112.8383,22.8678,佛山市,高明孔堂,,16,16,18,8,9,24,,126,56,8,11,6,6,0.7,0.7
2025-08-02T0000,1377A,112.8836,23.1588,佛山市,三水监测站,,29,29,23,14,16,19,,122,58,32,27,6,5,0.5,0.5
2025-08-02T0000,1378A,112.867,23.185,佛山市,三水云东海,,38,38,32,16,20,16,,128,58,26,28,2,3,0.6,0.6
2025-08-02T0000,3625A,113.2544,22.7642,佛山市,容桂街道办,,27,27,16,14,15,11,,117,34,44,26,9,7,0.8,0.7
2025-08-02T0000,1280A,119.3903,26.0543,福州市,鼓山,,,,,,,,,,,,,,,,
2025-08-02T0000,1282A,119.2681,26.0504,福州市,师大,,18,18,33,10,16,39,,110,53,20,15,4,4,0.3,0.3
2025-08-02T0000,1283A,119.2984,26.1028,福州市,五四北路,,22,22,32,14,19,30,,107,44,26,19,3,4,0.4,0.3
2025-08-02T0000,1284A,119.2648,26.0768,福州市,杨桥西路,,22,22,30,12,17,32,,117,55,20,14,3,4,0.4,0.3
2025-08-02T0000,1285A,119.317,26.0746,福州市,紫阳,,24,24,37,14,21,30,,97,44,23,18,6,6,0.3,0.3
2025-08-02T0000,3048A,119.5799,26.0936,福州市,九龙,,32,32,27,17,17,12,,97,37,21,11,4,4,0.4,0.3
2025-08-02T0000,3526A,119.5189,25.9664,福州市,吴航,,26,26,28,11,15,39,,94,48,11,10,5,5,0.5,0.5
2025-08-02T0000,1755A,123.7977,41.8491,抚顺市,望花区,颗粒物(PM10),56,62,46,28,22,25,,140,100,42,23,7,7,0.8,0.8
2025-08-02T0000,1756A,123.9161,41.8822,抚顺市,顺城区,,35,34,35,24,19,12,,133,74,43,24,4,5,0.8,0.9
2025-08-02T0000,1757A,124.0436,41.8611,抚顺市,东洲区,,43,43,30,20,17,23,,130,95,26,15,4,6,0.7,0.7
2025-08-02T0000,1758A,123.9247,41.8642,抚顺市,新抚区,,36,36,35,24,18,18,,131,84,27,17,5,5,0.8,0.8
2025-08-02T0000,1759A,124.0972,41.8961,抚顺市,大伙房水库,,26,20,24,18,14,27,,131,100,31,14,6,6,0.6,0.6
2025-08-02T0000,1760A,123.7086,41.8391,抚顺市,沈抚新城,,34,34,31,22,20,26,,132,88,29,18,6,6,0.7,0.9
2025-08-02T0000,2376A,116.2127,28.0814,抚州市,桐源党溪,,37,37,32,23,14,39,,94,71,9,7,4,5,0.5,0.5
2025-08-02T0000,2377A,116.3544,27.9831,抚州市,市站,,49,49,34,29,18,60,,112,98,7,5,3,5,0.6,0.4
2025-08-02T0000,2378A,116.3565,27.963,抚州市,血防站,,44,44,33,28,18,46,,107,93,12,7,5,6,0.5,0.5
2025-08-02T0000,2379A,116.3564,28.0007,抚州市,采茶剧团,,45,45,31,25,17,57,,103,91,5,3,8,5,0.6,0.5
2025-08-02T0000,2380A,116.385,27.9647,抚州市,医学分院,,38,38,31,21,18,52,,104,92,2,2,3,5,0.6,0.5
2025-08-02T0000,2207A,121.6094,41.998,阜新市,工业园区,,42,39,40,29,19,67,,159,126,26,21,13,9,0.7,0.6
2025-08-02T0000,2208A,121.6697,42.0279,阜新市,长青街,,35,35,37,22,18,73,,153,127,22,19,12,9,0.8,1.1
2025-08-02T0000,2209A,121.6673,42.0705,阜新市,农业园区,,37,37,40,14,17,82,,146,124,11,12,5,7,0.8,0.9
2025-08-02T0000,2210A,121.6717,42.0224,阜新市,东苑,细颗粒物(PM2.5),88,,45,65,28,93,,151,122,23,24,11,10,0.7,1.4
2025-08-02T0000,2211A,121.6506,42.0498,阜新市,玉龙新城,,36,36,36,16,16,24,,151,107,27,16,7,10,0.8,0.8
2025-08-02T0000,2301A,115.8277,32.8929,阜阳市,市监测站,,30,,17,21,10,45,,68,60,15,13,4,3,0.3,0.2
2025-08-02T0000,2303A,115.8554,32.8605,阜阳市,开发区,,20,14,14,14,9,43,,70,58,12,11,6,6,0.3,0.3
2025-08-02T0000,2875A,115.784,32.8892,阜阳市,阜阳职业技术学院,,22,22,10,12,8,52,,77,66,10,6,4,4,0.4,0.4
2025-08-02T0000,3468A,115.7901,32.8613,阜阳市,市规划展馆,,36,29,18,25,15,49,,67,59,8,7,2,2,0.6,0.6
2025-08-02T0000,3469A,115.836,32.9183,阜阳市,枣园社区,,46,34,20,32,17,43,,72,56,16,11,2,2,0.4,0.4
2025-08-02T0000,2669A,102.9099,34.9841,甘南藏族自治州,州政府,颗粒物(PM10),52,53,31,26,19,4,,86,48,35,12,4,4,0.5,0.5
2025-08-02T0000,3380A,102.8914,34.9617,甘南藏族自治州,甘肃民族师范学院,颗粒物(PM10),72,94,41,31,20,1,,98,48,33,11,10,9,0.4,0.3
2025-08-02T0000,2570A,101.9603,30.0475,甘孜藏族自治州,水桥子,,29,25,19,19,12,90,,110,103,18,16,6,6,0.5,0.3
2025-08-02T0000,3065A,101.9533,29.9972,甘孜藏族自治州,州环保局,,27,17,22,15,9,86,,114,101,10,14,6,6,0.6,0.5
2025-08-02T0000,3414A,115.8347,28.932,赣江新区,桑海产业园,,39,39,28,22,14,77,,143,124,28,13,4,7,0.5,0.4
2025-08-02T0000,2362A,114.9017,25.9149,赣州市,通天岩,,28,28,29,18,16,7,,84,41,3,6,15,16,0.7,0.7
2025-08-02T0000,2363A,114.9367,25.8664,赣州市,地委,,32,32,33,20,20,48,,104,74,12,11,6,5,0.9,0.9
2025-08-02T0000,2364A,114.9461,25.8481,赣州市,气象台,,30,30,31,14,16,47,,112,75,12,8,6,8,0.8,0.8
2025-08-02T0000,2365A,114.9322,25.8333,赣州市,市图书馆,,30,25,28,21,20,34,,110,67,17,9,4,4,0.6,0.5
2025-08-02T0000,2366A,114.8905,25.8471,赣州市,华坚鞋城,,29,29,31,20,17,46,,101,68,14,11,4,5,0.5,0.5
2025-08-02T0000,3109A,115.0093,25.8613,赣州市,赣县区卫计委,,19,,24,13,17,44,,115,79,10,9,4,4,0.4,0.4
2025-08-02T0000,2683A,106.2319,36.1417,固原市,马园,,29,27,41,20,19,73,,111,84,38,21,10,7,0.8,0.7
2025-08-02T0000,2684A,106.2792,36.0022,固原市,监测站,,28,28,34,19,19,81,,123,102,23,8,5,5,0.4,0.4
2025-08-02T0000,2685A,106.2375,36.0211,固原市,新区,,32,22,34,16,18,101,,114,101,12,10,6,6,0.5,0.5
2025-08-02T0000,3522A,106.2177,35.9959,固原市,原州区十五小,,37,28,38,18,19,117,,118,114,9,8,8,8,0.5,0.5
2025-08-02T0000,2543A,106.6308,30.5278,广安市,小平旧居,,,,,,,,,,,,,,,,
2025-08-02T0000,2544A,106.6303,30.4576,广安市,市委,,42,42,31,22,20,72,,156,121,17,12,6,7,0.5,0.5
2025-08-02T0000,2545A,106.6271,30.4663,广安市,友谊中学,,35,35,27,23,17,80,,161,130,16,13,5,6,0.7,0.6
2025-08-02T0000,2547A,106.6388,30.4551,广安市,广电花园,颗粒物(PM10),51,51,54,20,17,66,,153,111,19,16,2,2,0.7,0.6
2025-08-02T0000,2902A,106.6351,30.4865,广安市,北辰小学,,35,35,31,24,17,65,,160,123,18,10,3,4,0.7,0.6
2025-08-02T0000,2523A,105.8945,32.4535,广元市,黑石坡,,36,29,32,25,21,76,,128,104,12,9,7,8,0.4,0.5
2025-08-02T0000,2524A,105.821,32.4444,广元市,老城,,26,10,16,6,7,38,,155,92,51,24,4,5,0.7,0.7
2025-08-02T0000,2526A,105.8628,32.4287,广元市,监测站,,33,31,29,23,16,58,,133,90,19,12,9,10,0.7,0.9
2025-08-02T0000,3617A,105.8047,32.4166,广元市,经开区,,32,32,36,16,23,32,,136,81,37,20,4,5,0.7,0.7
2025-08-02T0000,1345A,113.2347,23.1423,广州市,广雅中学,,,32,30,16,17,,,164,,30,26,3,2,0.3,0.4
2025-08-02T0000,1346A,113.2612,23.105,广州市,市五中,,26,26,25,13,15,22,,168,71,38,23,6,5,0.7,0.6
2025-08-02T0000,1348A,113.3478,23.0916,广州市,广东商学院,,26,25,23,16,17,21,,172,82,51,28,6,3,0.9,0.8
2025-08-02T0000,1349A,113.4332,23.1047,广州市,市八十六中,,25,25,25,16,15,17,,158,71,47,40,4,3,0.5,0.4
2025-08-02T0000,1350A,113.3505,22.9483,广州市,番禺中学,,29,28,21,20,15,26,,159,66,28,16,6,6,0.6,0.4
2025-08-02T0000,1351A,113.2146,23.3916,广州市,花都师范,,29,29,33,12,13,37,,148,92,28,18,2,4,0.5,0.5
2025-08-02T0000,1352A,113.2597,23.1331,广州市,市监测站,,25,25,26,12,14,27,,173,77,35,23,6,5,0.5,0.5
2025-08-02T0000,1353A,113.5618,23.312,广州市,九龙镇镇龙,,32,32,28,15,17,23,,155,103,37,21,8,6,0.7,0.6
2025-08-02T0000,1354A,113.2765,23.1544,广州市,麓湖,,25,25,25,14,14,21,,155,73,34,27,4,3,0.6,0.6
2025-08-02T0000,1355A,113.443,23.3035,广州市,帽峰山森林公园,,21,21,22,7,11,33,,163,109,35,23,9,8,0.7,0.7
2025-08-02T0000,2846A,113.3221,23.1322,广州市,体育西,,28,28,32,14,17,27,,175,88,44,28,8,3,0.6,0.6
2025-08-02T0000,3298A,113.5717,23.5491,广州市,从化街口,,33,33,28,17,16,52,,153,126,23,13,6,5,0.7,0.7
2025-08-02T0000,3299A,113.3472,23.3692,广州市,白云竹料,,21,21,24,14,18,30,,155,97,41,20,4,4,0.6,0.5
2025-08-02T0000,3300A,113.2981,23.237,广州市,白云嘉禾,,31,31,27,19,17,25,,164,90,41,24,8,4,0.6,0.6
2025-08-02T0000,3301A,113.4256,23.1716,广州市,黄埔科学城,,30,30,27,18,17,22,,166,88,30,19,2,2,0.5,0.5
2025-08-02T0000,3302A,113.3942,23.0483,广州市,番禺大学城,,35,35,26,18,10,24,,176,80,36,22,6,7,0.6,0.5
2025-08-02T0000,3303A,113.4922,22.8168,广州市,南沙黄阁,,32,32,26,14,13,34,,133,52,24,21,5,5,0.6,0.5
2025-08-02T0000,3304A,113.5342,22.7896,广州市,南沙街,,24,24,22,11,11,26,,137,50,17,16,4,4,0.5,0.5
2025-08-02T0000,3443A,113.2902,23.5544,广州市,花都梯面,,28,28,20,18,13,30,,136,100,34,13,6,5,0.8,0.6
2025-08-02T0000,3445A,113.7858,23.7478,广州市,从化良口,,30,30,23,19,14,90,,119,110,14,10,4,4,0.7,0.6
2025-08-02T0000,3446A,113.8051,23.2614,广州市,增城荔城,,18,18,31,10,15,36,,149,99,19,16,7,7,0.9,1.1
2025-08-02T0000,2505A,109.568,23.1478,贵港市,德智高中,,,,,,,,,,,,,,,,
2025-08-02T0000,2506A,109.6047,23.0666,贵港市,江南子站,颗粒物(PM10),64,78,38,38,29,23,,85,55,31,12,10,8,0.8,0.7
2025-08-02T0000,2508A,109.5669,23.1065,贵港市,荷城子站,,28,27,27,19,18,41,,90,63,14,9,8,9,0.5,0.5
2025-08-02T0000,3405A,109.5886,23.1172,贵港市,新世纪学校,,43,39,30,30,22,41,,95,66,18,11,7,3,0.6,0.6
2025-08-02T0000,4260A,109.5933,23.0951,贵港市,中山路155-3号,,40,40,36,24,21,38,,94,65,23,11,6,5,0.8,0.7
2025-08-02T0000,1439A,106.6899,26.5998,贵阳市,马鞍山,,22,22,17,9,5,34,,107,77,18,10,4,4,0.7,0.6
2025-08-02T0000,1441A,106.6243,26.6266,贵阳市,鉴湖路,,34,34,32,9,8,76,,117,100,13,13,6,6,0.1,0.2
2025-08-02T0000,1442A,106.7487,26.6343,贵阳市,燕子冲,,35,24,18,24,20,70,,119,101,16,13,9,9,0.8,0.6
2025-08-02T0000,1443A,106.6555,26.4365,贵阳市,碧云窝,,36,36,35,17,14,47,,126,94,15,16,4,5,0.1,0.1
2025-08-02T0000,1445A,106.7109,26.6027,贵阳市,红边门,,31,31,22,19,13,55,,117,94,29,16,6,6,0.3,0.2
2025-08-02T0000,1446A,106.7164,26.5699,贵阳市,新华路,,39,39,30,19,14,62,,112,95,30,16,5,21,0.4,0.3
2025-08-02T0000,1447A,106.674,26.5424,贵阳市,太慈桥,,19,19,18,12,9,32,,125,90,30,15,4,4,0.1,0.1
2025-08-02T0000,1552A,106.805,26.3003,贵阳市,桐木岭,,28,28,31,19,17,84,,119,101,6,6,6,7,0.7,0.7
2025-08-02T0000,4230A,106.6882,26.5695,贵阳市,花果园大街66号,,32,22,14,22,16,84,,116,102,21,17,4,3,0.5,0.4
2025-08-02T0000,4231A,106.6873,26.5169,贵阳市,漓江路57号,,27,27,26,17,14,46,,125,99,38,17,4,4,0.4,0.4
2025-08-02T0000,1862A,110.4144,25.3167,桂林市,电子科大尧山校区,,,,,,,,,,,,,,,,
2025-08-02T0000,1864A,110.3089,25.2708,桂林市,龙隐路小学,,28,28,26,15,15,34,,92,49,11,10,12,9,0.3,0.3
2025-08-02T0000,1865A,110.2869,25.2178,桂林市,八中,,28,28,23,14,10,35,,92,52,12,10,8,7,0.5,0.4
2025-08-02T0000,3531A,110.296,25.1253,桂林市,旅游学院,,18,12,18,12,15,33,,85,44,9,6,9,10,0.4,0.3
2025-08-02T0000,4222A,110.1835,25.2444,桂林市,环湖路276号,,19,19,23,12,13,37,,98,67,15,14,9,7,0.4,0.4
2025-08-02T0000,4301A,110.2803,25.2773,桂林市,信义路13号,,26,26,24,17,12,42,,102,58,10,10,6,5,0.6,0.5
2025-08-02T0000,2674A,100.2561,34.4714,果洛藏族自治州,玛沁县大武镇,,30,30,24,14,9,94,,105,90,2,5,13,9,0.1,0.2
2025-08-02T0000,1129A,126.5422,45.755,哈尔滨市,岭北,,37,37,24,23,14,63,,121,86,34,22,8,9,0.8,0.7
2025-08-02T0000,1130A,126.561,45.8167,哈尔滨市,松北商大,,36,36,29,14,11,20,,93,52,46,24,6,6,0.5,0.5
2025-08-02T0000,1131A,126.979,45.5419,哈尔滨市,阿城会宁,颗粒物(PM10),51,52,32,20,13,7,,90,43,35,20,5,5,0.5,0.5
2025-08-02T0000,1132A,126.599,45.7222,哈尔滨市,南岗学府路,颗粒物(PM10),78,106,40,33,13,0,,100,52,80,30,8,8,1.0,0.7
2025-08-02T0000,1133A,126.689,45.7733,哈尔滨市,太平宏伟公园,,48,48,38,17,13,26,,98,60,57,27,9,7,0.8,0.5
2025-08-02T0000,1134A,126.635,45.7667,哈尔滨市,道外承德广场,颗粒物(PM10),53,56,42,13,10,36,,90,53,34,28,6,8,1.5,0.7
2025-08-02T0000,1135A,126.685,45.7319,哈尔滨市,香坊红旗大街,"颗粒物(PM10),细颗粒物(PM2.5)",53,56,39,37,18,40,,100,62,47,33,9,25,1.0,0.7
2025-08-02T0000,1136A,126.6411,45.7258,哈尔滨市,动力和平路,,,99,39,,12,21,,105,59,60,34,7,7,0.8,0.6
2025-08-02T0000,1137A,126.593,45.7478,哈尔滨市,道里建国路,,48,48,41,14,14,8,,104,59,78,30,11,8,3.1,1.2
2025-08-02T0000,1138A,126.615,45.61,哈尔滨市,平房东轻厂,颗粒物(PM10),65,79,31,12,8,13,,84,46,57,28,8,7,0.8,0.5
2025-08-02T0000,1139A,126.595,45.9855,哈尔滨市,呼兰师专,颗粒物(PM10),54,58,39,19,14,1,,109,34,51,28,10,9,0.7,0.6
2025-08-02T0000,1140A,126.6206,45.6842,哈尔滨市,省农科院,颗粒物(PM10),88,125,55,33,18,2,,78,38,83,54,14,14,0.9,0.5
2025-08-02T0000,2688A,93.5128,42.8172,哈密市,地区监测站,,38,38,66,19,28,100,,109,99,8,14,3,5,0.3,0.5
2025-08-02T0000,2689A,93.4961,42.8328,哈密市,哈密师范学校,,,22,61,17,20,,,101,88,16,16,5,7,0.3,0.4
2025-08-02T0000,2671A,100.9048,36.9639,海北藏族自治州,海晏县西海镇,,49,49,48,29,29,67,,110,90,10,6,7,9,0.6,0.5
2025-08-02T0000,3867A,102.0738,36.5056,海东市,平安区公安北苑,,30,27,53,18,33,95,,129,118,4,6,10,12,0.6,0.6
2025-08-02T0000,1409A,110.576,19.9507,海口市,东寨港,,10,,19,7,8,12,,43,22,6,5,10,9,0.4,0.4
2025-08-02T0000,1410A,110.3232,20.0574,海口市,海南大学,,24,24,28,13,14,24,,66,38,12,9,2,3,0.4,0.4
2025-08-02T0000,1411A,110.283,20.0053,海口市,秀英海南医院,,27,27,30,12,14,10,,61,28,28,14,5,6,0.3,0.3
2025-08-02T0000,1412A,110.338,19.9969,海口市,海南师范大学,,19,18,25,13,13,21,,62,28,11,11,3,3,0.5,0.4
2025-08-02T0000,1413A,110.33,20.0356,海口市,龙华路环保局宿舍,,20,20,26,13,14,24,,67,37,14,10,5,5,0.4,0.3
2025-08-02T0000,3539A,110.5111,19.9736,海口市,桂林洋子站,,22,22,25,10,12,16,,49,23,9,9,4,5,0.3,0.3
2025-08-02T0000,2673A,100.6188,36.2866,海南藏族自治州,共和县恰卜恰镇,,46,46,47,25,31,92,,110,96,15,7,19,13,0.6,0.6
2025-08-02T0000,2676A,97.3731,37.3753,海西蒙古族藏族自治州,德令哈市,,44,44,48,17,19,99,,122,113,9,4,17,19,0.7,0.6
2025-08-02T0000,1048A,114.5302,36.6116,邯郸市,东污水处理厂,颗粒物(PM10),56,61,44,9,8,94,,155,131,18,11,5,6,0.3,0.4
2025-08-02T0000,1049A,114.4918,36.5713,邯郸市,矿院,,34,28,28,12,11,106,,162,143,12,8,5,6,0.3,0.4
2025-08-02T0000,1050A,114.484,36.6133,邯郸市,丛台公园,,36,35,31,20,15,115,,166,148,14,11,6,6,0.3,0.4
2025-08-02T0000,3458A,114.7895,36.5593,邯郸市,香泉濮院小区,,49,49,47,8,4,81,,143,115,12,9,2,3,0.4,0.5
2025-08-02T0000,3579A,114.50634,36.77178,邯郸市,永年区实验高中,颗粒物(PM10),61,72,51,28,22,91,,158,133,28,14,4,4,0.2,0.4
2025-08-02T0000,3580A,114.20016,36.44293,邯郸市,峰峰矿区临水派出所,,48,48,40,3,5,140,,186,156,14,9,3,4,0.3,0.3
2025-08-02T0000,2634A,106.9893,33.1842,汉中市,汉川机床厂子校,,28,,27,19,18,85,,133,106,14,10,3,4,0.4,0.4
2025-08-02T0000,2635A,107.0154,33.0706,汉中市,市监测站,,35,35,30,20,19,70,,128,103,14,7,6,7,0.4,0.5
2025-08-02T0000,2636A,107.0089,33.1138,汉中市,鑫源开发区,,26,26,24,17,14,72,,122,100,11,9,6,6,0.5,0.5
2025-08-02T0000,2637A,107.007,33.0323,汉中市,南郑大河坎水厂,,29,29,27,20,18,77,,129,96,14,9,7,8,0.5,0.5
2025-08-02T0000,1223A,120.2072,30.2111,杭州市,滨江,,45,45,34,28,15,40,,121,75,40,23,6,6,0.7,0.6
2025-08-02T0000,1224A,120.0633,30.2747,杭州市,西溪,,32,30,22,22,18,13,,90,37,25,14,4,4,0.6,0.5
2025-08-02T0000,1226A,120.3417,30.3150,杭州市,下沙,,38,38,25,22,15,70,,141,111,24,27,4,5,0.5,0.4
2025-08-02T0000,1227A,120.1269,30.2456,杭州市,卧龙桥,,32,30,23,22,19,9,,84,23,14,9,7,7,0.5,0.4
2025-08-02T0000,1228A,120.1903,30.2692,杭州市,浙江农大,,33,33,40,22,17,36,,102,57,32,25,5,5,0.5,0.4
2025-08-02T0000,1230A,120.1197,30.3119,杭州市,和睦小学,,30,30,22,19,14,20,,109,59,41,19,5,4,0.6,0.5
2025-08-02T0000,1231A,120.3019,30.4183,杭州市,临平镇,颗粒物(PM10),51,51,39,26,17,84,,136,114,13,21,6,6,0.5,0.5
2025-08-02T0000,1232A,120.2753,30.1839,杭州市,城厢镇,颗粒物(PM10),63,75,44,39,22,93,,133,91,10,14,6,11,0.7,0.6
2025-08-02T0000,1233A,120.0883,30.1808,杭州市,云栖,,44,44,29,17,10,13,,94,47,17,13,9,9,0.7,0.6
2025-08-02T0000,3557A,119.9464,30.0494,杭州市,镇二中,细颗粒物(PM2.5),57,43,33,40,27,11,,98,54,37,22,3,4,0.6,0.5
2025-08-02T0000,3558A,119.7183,30.2367,杭州市,市府大楼,,30,30,24,21,17,19,,88,38,12,11,7,7,0.5,0.4
2025-08-02T0000,3656A,120.1556,30.2864,杭州市,消防大队,,38,34,23,26,18,26,,101,58,41,21,6,6,0.6,0.5
2025-08-02T0000,1270A,117.1959,31.7848,合肥市,明珠广场,,14,6,4,3,4,44,,61,58,12,11,5,5,0.6,0.5
2025-08-02T0000,1271A,117.3072,31.8764,合肥市,三里街,,12,,4,3,4,36,,55,50,10,10,4,4,0.5,0.5
2025-08-02T0000,1272A,117.2588,31.8707,合肥市,琥珀山庄,,39,6,9,3,6,123,,112,112,12,10,6,6,0.8,0.7
2025-08-02T0000,1273A,117.1604,31.9052,合肥市,董铺水库,,14,7,7,3,5,42,,54,52,5,5,3,3,0.3,0.3
2025-08-02T0000,1274A,117.25,31.8571,合肥市,长江中路,,14,6,8,3,3,42,,63,59,9,9,5,5,0.6,0.6
2025-08-02T0000,1275A,117.266,31.9436,合肥市,庐阳区,,15,7,7,3,4,45,,61,57,5,6,9,8,0.7,0.6
2025-08-02T0000,1276A,117.3453,31.8616,合肥市,瑶海区,,11,,4,3,2,34,,59,50,14,11,4,6,0.7,0.6
2025-08-02T0000,1277A,117.3027,31.7964,合肥市,包河区,,17,,4,3,3,27,,52,45,33,22,6,6,0.7,0.7
2025-08-02T0000,1278A,117.2776,31.7385,合肥市,滨湖新区,,13,,6,7,9,39,,59,53,17,15,8,8,0.6,0.5
2025-08-02T0000,1279A,117.1318,31.8403,合肥市,高新区,,15,,7,3,4,48,,65,63,11,11,5,5,0.7,0.6
2025-08-02T0000,3464A,117.3803,31.9147,合肥市,高教基地,,,9,7,,19,38,,55,51,9,8,5,5,0.5,0.4
2025-08-02T0000,3614A,79.924,37.0877,和田地区,地区环保局,颗粒物(PM10),312,429,485,132,119,30,,91,75,16,12,3,2,0.5,0.1
2025-08-02T0000,3615A,79.9131,37.113,和田地区,市环保局,颗粒物(PM10),230,371,397,93,97,42,,90,77,34,13,2,3,0.4,0.1
2025-08-02T0000,2516A,108.2011,24.715,河池市,东仁乐园,,,,,,,,,,,,,,,,
2025-08-02T0000,2517A,108.0497,24.6947,河池市,市环保站,,19,18,17,8,10,59,,103,80,6,6,4,4,0.5,0.5
2025-08-02T0000,2518A,108.0983,24.6989,河池市,市疾控中心,,18,16,16,12,10,48,,106,86,15,10,6,5,0.5,0.5
2025-08-02T0000,1696A,114.6778,23.7569,河源市,源西,,30,14,20,12,13,95,,124,118,7,7,3,6,0.5,0.5
2025-08-02T0000,1697A,114.6944,23.7586,河源市,东埔,,29,24,24,17,11,90,,118,112,13,12,4,4,0.5,0.5
2025-08-02T0000,1698A,114.6892,23.7233,河源市,老城,,32,25,21,22,22,89,,119,112,12,9,4,4,0.5,0.5
2025-08-02T0000,1718A,115.4208,35.2464,菏泽市,气象局,,30,30,32,16,19,51,,106,78,15,10,3,4,0.3,0.4
2025-08-02T0000,3374A,115.5564,35.0891,菏泽市,定陶老年大学,,15,12,28,3,13,48,,90,63,11,12,2,2,0.3,0.3
2025-08-02T0000,4184A,115.4797,35.24401,菏泽市,永昌路1号,,17,17,34,11,20,50,,96,67,16,14,6,7,0.0,0.1
2025-08-02T0000,4193A,115.4715,35.2800,菏泽市,长城路999号,,23,23,31,8,14,45,,106,76,18,14,4,5,0.3,0.4
2025-08-02T0000,2514A,111.5264,24.4172,贺州市,环保小区,,32,29,24,22,13,39,,84,58,13,9,10,10,0.9,0.8
2025-08-02T0000,2515A,111.5608,24.4078,贺州市,政协大楼,,28,28,21,17,14,48,,93,67,13,9,11,11,0.7,0.6
2025-08-02T0000,3534A,111.4744,24.4553,贺州市,西湾,,35,25,25,24,16,24,,91,57,17,9,10,10,0.9,0.5
2025-08-02T0000,2385A,114.17,35.9019,鹤壁市,市监测站,,49,38,40,34,27,96,,154,118,10,9,6,7,0.6,0.8
2025-08-02T0000,2386A,114.2956,35.7511,鹤壁市,市交警支队,细颗粒物(PM2.5),54,38,40,38,29,79,,134,105,19,14,12,9,0.5,0.7
2025-08-02T0000,2387A,114.2878,35.7306,鹤壁市,迎宾馆,,42,42,45,22,27,87,,135,112,17,14,6,7,0.6,0.7
2025-08-02T0000,3474A,114.2617,35.6822,鹤壁市,大新区,,32,32,42,22,21,96,,138,118,7,8,7,8,0.5,0.7
2025-08-02T0000,3596A,114.1572,35.9603,鹤壁市,南山宾馆,,49,49,48,30,23,108,,165,132,16,10,4,7,0.5,0.8
2025-08-02T0000,2244A,130.2537,47.3416,鹤岗市,哈啤分公司,,26,26,19,9,8,45,,85,43,5,10,12,12,0.7,0.7
2025-08-02T0000,2245A,130.2684,47.3086,鹤岗市,斯达机电,,23,23,25,16,9,52,,77,46,6,12,12,12,0.4,0.5
2025-08-02T0000,2246A,130.3114,47.3388,鹤岗市,东山纸板厂,,14,14,35,8,9,35,,81,35,11,21,14,14,0.9,1
2025-08-02T0000,2247A,130.1097,47.3382,鹤岗市,五号水库,,12,12,7,3,5,30,,78,29,7,11,9,9,0.2,0.2
2025-08-02T0000,2263A,127.4833,50.2524,黑河市,交通局,,15,15,18,3,7,10,,41,22,8,9,9,8,0.5,0.4
2025-08-02T0000,2264A,127.5144,50.2341,黑河市,环保局,,39,39,19,13,10,6,,45,22,16,10,6,5,0.6,0.4
2025-08-02T0000,2265A,127.5291,50.2472,黑河市,大黑河岛,,,,4,11,5,16,,40,26,5,5,25,26,,
2025-08-02T0000,1074A,115.6838,37.7541,衡水市,电机北厂,,34,34,41,16,16,99,,163,133,15,13,6,6,0.5,0.4
2025-08-02T0000,1075A,115.6303,37.7316,衡水市,市监测站,,35,32,36,10,15,110,,166,149,9,10,7,6,0.3,0.3
2025-08-02T0000,3188A,115.6683,37.7217,衡水市,市城管局,,38,36,35,26,21,107,,162,143,13,10,13,12,0.4,0.5
2025-08-02T0000,3459A,115.5989,37.5491,衡水市,地表水厂,颗粒物(PM10),56,62,51,15,10,63,,149,112,40,14,8,9,0.3,0.3
2025-08-02T0000,2456A,112.5003,26.9167,衡阳市,原169医院,,36,35,34,25,16,55,,141,93,20,12,4,5,0.6,0.5
2025-08-02T0000,2457A,112.6194,26.9258,衡阳市,衡阳化工总厂,颗粒物(PM10),63,76,41,40,24,22,,132,86,37,13,6,4,0.9,0.8
2025-08-02T0000,2458A,112.6211,26.8956,衡阳市,珠晖区环保局,颗粒物(PM10),57,63,36,26,19,47,,110,93,37,15,5,5,0.7,0.6
2025-08-02T0000,2459A,112.6197,26.8733,衡阳市,市委党校,颗粒物(PM10),51,51,29,32,20,50,,134,98,29,13,9,8,0.6,0.5
2025-08-02T0000,2460A,112.6006,26.8919,衡阳市,市监测站,,50,50,37,31,22,54,,136,103,25,12,4,4,0.7,0.6
2025-08-02T0000,2461A,112.5664,26.9056,衡阳市,真空机电公司,颗粒物(PM10),54,57,35,28,21,57,,141,98,18,8,6,5,1.3,0.9
2025-08-02T0000,3399A,112.6703,26.882,衡阳市,师范学院,,41,41,38,27,21,65,,136,99,14,11,6,6,0.9,0.8
2025-08-02T0000,2608A,103.3772,23.3993,红河哈尼族彝族自治州,污水处理厂,,33,27,22,23,17,71,,116,99,13,10,10,17,0.0,0.1
2025-08-02T0000,2609A,103.3861,23.35,红河哈尼族彝族自治州,监测站,,42,42,31,24,17,73,,112,93,6,8,9,20,0.1,0.1
2025-08-02T0000,3038A,103.3758,23.368,红河哈尼族彝族自治州,州图书馆,,25,24,19,17,16,78,,112,97,7,8,2,16,0.2,0.3
2025-08-02T0000,1090A,111.6507,40.7517,呼和浩特市,呼市一监,,36,27,37,16,24,114,,141,106,9,16,8,8,0.6,0.7
2025-08-02T0000,1091A,111.6572,40.8033,呼和浩特市,小召,颗粒物(PM10),51,51,39,22,24,109,,146,119,22,21,8,8,0.6,0.7
2025-08-02T0000,1094A,111.7516,40.8369,呼和浩特市,如意水处理厂,,36,36,40,20,22,110,,156,129,12,18,4,5,0.5,0.5
2025-08-02T0000,1095A,111.7276,40.8062,呼和浩特市,二十九中,,46,46,42,22,24,115,,157,134,8,10,5,6,0.6,0.6
2025-08-02T0000,1096A,111.5512,40.7866,呼和浩特市,工大金川校区,颗粒物(PM10),53,55,44,26,23,97,,146,114,16,20,4,5,0.7,0.7
2025-08-02T0000,1097A,111.717,40.7612,呼和浩特市,化肥厂生活区,,,,46,,25,,,152,129,,17,,7,,0.6
2025-08-02T0000,3698A,111.5968,40.8178,呼和浩特市,红旗小学,,46,46,40,26,24,99,,158,112,22,24,4,5,0.7,0.6
2025-08-02T0000,3699A,111.6518,40.8389,呼和浩特市,海东办,,46,46,38,23,22,101,,167,127,14,20,4,5,0.6,0.6
2025-08-02T0000,2192A,119.7594,49.2261,呼伦贝尔市,区环保局,,34,34,28,21,17,30,,68,50,15,14,39,7,0.2,0.2
2025-08-02T0000,3061A,119.7512,49.1577,呼伦贝尔市,国华电力东,,19,17,14,13,9,43,,66,57,7,7,8,9,0.3,0.3
2025-08-02T0000,1250A,120.0751,30.8669,湖州市,城西水厂,,31,31,30,19,18,40,,121,70,21,21,6,6,0.5,0.5
2025-08-02T0000,2873A,120.0830,30.8929,湖州市,仁皇山新区,,31,31,32,14,19,37,,120,65,15,18,3,4,0.5,0.5
2025-08-02T0000,2907A,120.1844,30.8596,湖州市,吴兴区站,,,,32,14,22,37,,140,76,24,18,6,6,0.5,0.6
2025-08-02T0000,3562A,120.4148,30.8538,湖州市,南浔区站,,29,23,29,20,25,62,,140,98,10,12,6,6,0.5,0.5
2025-08-02T0000,1607A,120.9049,40.7211,葫芦岛市,龙港区,,44,44,35,22,14,63,,120,74,6,17,3,4,0.4,0.6
2025-08-02T0000,1608A,120.8392,40.7514,葫芦岛市,化工街,,22,22,30,7,14,38,,127,66,27,30,7,12,0.5,0.5
2025-08-02T0000,1609A,120.8341,40.7073,葫芦岛市,新区,,28,25,29,19,16,60,,119,75,7,22,2,3,0.6,0.8
2025-08-02T0000,1610A,120.8695,40.7677,葫芦岛市,东城区,,36,29,37,25,21,47,,124,67,23,26,3,15,0.5,0.7
2025-08-02T0000,2482A,109.5981,27.5721,怀化市,林科所,,28,28,27,16,11,76,,106,88,9,8,4,5,0.7,0.4
2025-08-02T0000,2483A,109.9453,27.5444,怀化市,河西地税局,,42,42,31,19,19,22,,111,66,25,13,3,2,0.2,0.3
2025-08-02T0000,2484A,109.9781,27.5342,怀化市,市四医院,颗粒物(PM10),55,59,38,20,22,39,,102,83,27,12,5,5,0.2,0.1
2025-08-02T0000,2485A,109.9972,27.5578,怀化市,监测楼,,26,22,29,18,17,77,,110,94,6,7,3,4,0.1,0.1
2025-08-02T0000,2486A,110.0394,27.583,怀化市,市委党校,,39,39,30,26,16,27,,115,88,22,11,17,14,0.2,0.2
2025-08-02T0000,1210A,119.036,33.5981,淮安市,钵池山,,23,,5,9,10,73,,65,65,9,10,7,7,0.6,0.7
2025-08-02T0000,1211A,119.007,33.575,淮安市,北京南路,,24,,8,8,8,74,,63,63,8,12,6,6,0.4,0.6
2025-08-02T0000,1212A,118.989,33.6067,淮安市,市监测站,,26,,8,7,8,81,,72,72,6,8,8,8,0.6,0.7
2025-08-02T0000,1213A,119.135,33.5039,淮安市,楚州区监测站,,21,7,14,6,7,67,,67,66,5,6,6,6,0.4,0.4
2025-08-02T0000,3426A,118.8755,33.2894,淮安市,新华书店,,25,,9,3,12,78,,82,77,7,8,7,8,0.4,0.5
2025-08-02T0000,4206A,119.0288,33.6319,淮安市,承德北路606号,,23,,7,6,6,71,,58,58,7,11,5,5,0.5,0.6
2025-08-02T0000,2282A,116.8004,33.975,淮北市,监测站,,21,16,16,8,16,66,,77,69,5,7,6,6,0.6,0.6
2025-08-02T0000,2283A,116.8091,33.9007,淮北市,烈山区政府,,23,12,16,3,4,73,,79,74,4,4,6,6,0.5,0.5
2025-08-02T0000,3330A,116.8873,33.9836,淮北市,杜集区检察院,,23,,15,9,10,72,,75,71,5,6,6,6,0.7,0.7
2025-08-02T0000,4017A,116.7923,33.9535,淮北市,市博物馆,,23,,16,6,12,72,,79,74,4,5,8,8,0.5,0.5
2025-08-02T0000,2277A,116.8305,32.7727,淮南市,潘集区政府,,29,29,17,7,8,56,,72,68,11,8,2,2,0.5,0.4
2025-08-02T0000,2279A,116.8569,32.5951,淮南市,谢家集区政府,,22,17,13,15,7,49,,69,65,11,7,6,7,0.3,0.3
2025-08-02T0000,2280A,116.8281,32.633,淮南市,八公山区政府,,17,17,11,10,7,50,,69,65,12,9,7,4,0.3,0.3
2025-08-02T0000,2281A,116.6325,32.6201,淮南市,焦岗湖风景区管理处,,,,,,,,,,,,,,,,
2025-08-02T0000,2894A,117.0566,32.6531,淮南市,经济技术开发区消防队,,20,,10,8,5,61,,64,64,9,11,8,8,0.3,0.3
2025-08-02T0000,3329A,117.0108,32.5893,淮南市,山南新区,,20,9,7,3,7,61,,69,68,8,8,9,9,0.6,0.6
2025-08-02T0000,4209A,117.0031,32.6445,淮南市,国庆中路369号,,23,,15,16,14,66,,69,69,8,10,13,13,0.4,0.4
2025-08-02T0000,2446A,114.9028,30.4742,黄冈市,职工中心,,25,24,26,13,16,80,,114,98,4,3,8,8,0.6,0.6
2025-08-02T0000,2929A,114.8858,30.4519,黄冈市,红卫路,,25,19,23,17,18,79,,113,95,4,3,8,9,0.4,0.6
2025-08-02T0000,3398A,114.9136,30.4445,黄冈市,市林业局,,27,21,26,7,14,84,,116,99,6,5,7,8,0.4,0.6
2025-08-02T0000,2672A,102.0199,35.5102,黄南藏族自治州,同仁县隆务镇,颗粒物(PM10),54,58,44,19,19,83,,122,106,6,3,9,9,0.7,0.4
2025-08-02T0000,2295A,118.2903,29.6963,黄山市,延安路89号,,31,31,25,18,13,19,,62,38,7,7,3,3,0.5,0.5
2025-08-02T0000,2297A,118.1371,30.2756,黄山市,黄山区政府5号楼,,34,34,20,12,9,32,,47,38,3,4,3,4,0.4,0.4
2025-08-02T0000,4210A,118.3354,29.7203,黄山市,滨江东路7-2号,,33,33,28,11,8,24,,63,37,7,8,2,2,0.5,0.5
2025-08-02T0000,2423A,115.0601,30.2313,黄石市,沈家营,颗粒物(PM10),51,51,48,13,11,75,,110,78,3,4,8,7,0.3,0.3
2025-08-02T0000,2426A,114.8988,30.2019,黄石市,铁山,,29,29,33,11,12,37,,116,76,30,13,4,6,0.4,0.5
2025-08-02T0000,2427A,115.0307,30.2092,黄石市,团城山,,32,32,32,3,7,82,,118,84,2,6,6,7,0.5,0.4
2025-08-02T0000,3149A,115.0235,30.1578,黄石市,笔架山北路,,35,35,33,9,10,60,,121,79,10,10,8,8,0.4,0.4
2025-08-02T0000,4185A,115.0780,30.21118,黄石市,磁湖东路29号,颗粒物(PM10),61,71,43,9,13,77,,108,84,2,3,6,7,0.4,0.4
2025-08-02T0000,1392A,114.4183,23.0528,惠州市,河南岸金山湖子站,,35,35,29,20,20,42,,127,79,18,20,8,7,0.7,0.7
2025-08-02T0000,1393A,114.4053,23.0822,惠州市,下埔横江三路子站,,40,39,29,28,19,52,,142,91,18,17,6,4,0.4,0.4
2025-08-02T0000,1394A,114.4103,23.1142,惠州市,江北云山西路子站,,32,32,28,19,16,59,,152,101,18,20,10,8,0.6,0.6
2025-08-02T0000,1395A,114.4645,22.7833,惠州市,惠阳区承修路船湖子站,,34,34,26,19,14,45,,96,,19,16,7,7,0.6,0.6
2025-08-02T0000,1396A,114.5317,22.7422,惠州市,大亚湾管委会子站,,22,22,21,14,13,33,,107,78,23,15,7,7,0.5,0.5
2025-08-02T0000,3314A,114.4338,22.8134,惠州市,惠阳秋长,,27,27,32,14,18,36,,124,65,23,24,4,5,0.5,0.5
2025-08-02T0000,3452A,114.6517,22.775,惠州市,大亚湾霞涌,,15,15,21,10,10,37,,101,81,17,12,5,5,0.7,0.6
2025-08-02T0000,2240A,130.9762,45.3001,鸡西市,环保局,,17,15,26,3,12,52,,92,51,14,21,6,4,0.2,0.2
2025-08-02T0000,2243A,130.9429,45.3039,鸡西市,第一中学,,16,10,24,6,11,51,,96,54,18,22,10,11,0.3,0.3
2025-08-02T0000,3707A,131.0207,45.3073,鸡西市,欧美日汽修厂,,28,28,30,17,12,3,,92,34,42,24,9,9,0.4,0.4
2025-08-02T0000,3709A,130.9967,45.3106,鸡西市,市政设施管理处,,30,30,36,6,13,52,,92,41,19,28,5,7,0.3,0.3
2025-08-02T0000,2367A,114.9754,27.0803,吉安市,红声器材厂,,28,28,33,18,17,62,,119,86,4,6,8,9,0.5,0.5
2025-08-02T0000,2368A,114.9658,27.0999,吉安市,市森林工业局,,36,36,29,15,16,69,,131,90,3,5,8,10,0.6,0.5
2025-08-02T0000,2369A,114.99,27.1312,吉安市,市环境监测站,,28,28,29,17,16,64,,137,94,3,4,14,14,0.5,0.5
2025-08-02T0000,2370A,115.0093,27.0968,吉安市,青原区法院,,33,33,33,21,19,54,,127,88,10,12,7,8,0.5,0.6
2025-08-02T0000,1772A,126.54,43.8622,吉林市,哈达湾,,24,24,20,12,12,47,,105,68,10,15,7,7,0.5,0.5
2025-08-02T0000,1773A,126.5844,43.8358,吉林市,东局子,颗粒物(PM10),59,68,71,11,16,50,,86,64,6,8,5,5,0.8,0.7
2025-08-02T0000,1774A,126.5052,43.8245,吉林市,电力学院,,30,26,24,21,14,31,,103,63,14,14,5,6,0.6,0.5
2025-08-02T0000,1775A,126.6133,43.8972,吉林市,江北,,,,20,,13,,,92,68,,8,,4,,0.9
2025-08-02T0000,1776A,126.555,43.8306,吉林市,江南公园,,23,23,22,10,10,51,,100,71,6,13,2,2,0.3,0.5
2025-08-02T0000,1778A,126.7061,43.7133,吉林市,丰满,,19,15,12,8,8,58,,112,83,3,4,4,4,0.6,0.6
2025-08-02T0000,2868A,126.4739,43.953,吉林市,九站,,22,20,31,15,14,55,,112,77,11,16,2,6,0.5,0.5
2025-08-02T0000,1299A,116.9862,36.6114,济南市,科干所,,16,14,30,7,21,51,,140,92,9,16,6,7,0.5,0.5
2025-08-02T0000,1300A,116.9376,36.665,济南市,农科所,,22,22,39,3,19,40,,139,87,20,22,7,8,0.3,0.4
2025-08-02T0000,1301A,117.1265,36.6734,济南市,开发区,,15,12,36,10,21,47,,132,79,14,22,8,9,0.6,0.7
2025-08-02T0000,1303A,117.0624,36.6868,济南市,省种子仓库,,22,22,46,7,19,60,,153,97,15,23,5,8,0.4,0.6
2025-08-02T0000,1304A,116.9489,36.6447,济南市,机床二厂,,37,37,43,12,18,26,,144,87,33,23,8,10,0.3,0.4
2025-08-02T0000,1305A,117.0495,36.663,济南市,市监测站,,16,12,36,7,12,49,,131,82,15,23,9,10,0.5,0.6
2025-08-02T0000,1306A,116.7675,36.5484,济南市,长清党校,,22,22,40,3,24,29,,144,83,26,24,5,6,0.5,0.5
2025-08-02T0000,1616A,117.6795,36.229,济南市,技术学院,,13,,12,9,9,36,,78,58,16,11,6,6,0.5,0.5
2025-08-02T0000,1961A,117.532,36.6868,济南市,东山小学,,37,37,41,17,18,19,,124,56,35,23,7,7,0.5,0.4
2025-08-02T0000,3059A,117.7161,36.2049,济南市,泰兴公司,,13,12,13,9,7,21,,66,45,19,9,7,8,0.4,0.4
2025-08-02T0000,3064A,117.6867,36.2171,济南市,莱芜战役纪念馆,,14,14,17,9,10,26,,68,49,19,11,4,4,0.8,0.7
2025-08-02T0000,3494A,117.1673,36.9782,济南市,济阳区政府,,32,32,36,10,17,46,,124,78,15,9,8,8,0.5,0.4
2025-08-02T0000,3495A,117.1171,36.63,济南市,锦屏中学,,20,20,32,3,16,28,,92,54,15,15,6,6,0.7,0.8
2025-08-02T0000,3682A,116.9814,36.6819,济南市,济南四建,,19,12,39,7,21,60,,137,90,9,23,6,7,0.5,0.6
2025-08-02T0000,1653A,116.6251,35.4302,济宁市,火炬城,,19,19,21,7,7,32,,73,52,9,9,5,5,0.5,0.5
2025-08-02T0000,1655A,116.5491,35.4042,济宁市,电化厂,,24,24,23,9,9,42,,80,60,6,7,1,2,0.6,0.6
2025-08-02T0000,3500A,116.5814,35.3707,济宁市,北湖一中,,21,21,21,3,8,38,,79,56,10,7,2,3,0.3,0.3
2025-08-02T0000,3501A,116.8249,35.5593,济宁市,服务中心,,20,20,18,3,3,30,,74,53,9,7,3,3,0.2,0.3
2025-08-02T0000,3678A,116.5907,35.4054,济宁市,市第七中学,,17,17,21,3,3,32,,73,51,7,7,4,4,0.2,0.3
2025-08-02T0000,2255A,130.2751,46.8028,佳木斯市,佳纺,,27,27,21,10,9,1,,86,27,33,23,8,8,0.5,0.5
2025-08-02T0000,2256A,130.3995,46.8307,佳木斯市,发电厂,,22,22,30,10,9,10,,90,38,32,24,6,6,0.5,0.3
2025-08-02T0000,2257A,130.3258,46.7975,佳木斯市,环保局,,28,28,22,13,11,1,,85,40,50,25,9,10,0.5,0.5
2025-08-02T0000,2258A,130.3648,46.8032,佳木斯市,十一中,,27,27,23,14,10,7,,85,36,47,22,9,9,0.6,0.5
2025-08-02T0000,2259A,130.3794,46.7588,佳木斯市,四丰,,,,,,,,,,,37,18,1,1,0.4,0.5
2025-08-02T0000,1252A,120.7436,30.778,嘉兴市,清河小学,,47,47,41,20,21,77,,151,117,12,14,5,5,0.7,1
2025-08-02T0000,1253A,120.726,30.7478,嘉兴市,嘉兴学院,,40,37,36,28,23,74,,159,121,9,10,3,3,0.6,0.6
2025-08-02T0000,2872A,120.7846,30.7525,嘉兴市,南湖区残联,,,44,44,27,26,,,165,,12,14,4,5,0.6,0.7
2025-08-02T0000,3407A,120.6916,30.7739,嘉兴市,秀洲住建,,40,40,34,20,22,55,,158,112,27,15,5,5,0.6,0.7
2025-08-02T0000,1945A,98.2908,39.7711,嘉峪关市,气象局,颗粒物(PM10),51,51,33,19,13,31,,124,96,64,16,10,11,1.2,1
2025-08-02T0000,2884A,98.2672,39.7978,嘉峪关市,酒钢宾馆,颗粒物(PM10),76,102,43,27,19,69,,130,110,33,16,11,10,0.5,0.8
2025-08-02T0000,3248A,98.2643,39.7724,嘉峪关市,雄关区,,36,36,38,19,12,46,,116,102,47,19,7,8,0.5,0.6
2025-08-02T0000,1383A,113.1064,22.6058,江门市,北街,,35,35,23,22,16,3,,134,34,31,17,2,2,0.9,0.6
2025-08-02T0000,1384A,113.0731,22.5835,江门市,西区,,40,,20,28,12,7,,126,26,32,19,6,6,0.5,0.5
2025-08-02T0000,1385A,113.0219,22.5311,江门市,圭峰西,,32,32,24,17,14,24,,92,41,11,8,4,4,0.5,0.4
2025-08-02T0000,1386A,113.0828,22.5947,江门市,东湖,,32,32,24,16,13,4,,119,24,27,17,6,6,0.6,0.5
2025-08-02T0000,3311A,113.1075,22.5647,江门市,江海富民,,44,44,27,8,12,29,,129,47,20,16,8,8,0.5,0.4
2025-08-02T0000,3449A,113.05,22.4667,江门市,新会银湖,,31,31,27,20,18,12,,82,19,21,19,2,3,0.5,0.5
2025-08-02T0000,1830A,113.1992,35.2590,焦作市,影视城,,,,18,,9,,,,,,6,,9,,0.6
2025-08-02T0000,3335A,113.3137,35.2641,焦作市,马村街道办,,50,50,41,29,25,99,,156,133,15,14,4,6,0.6,0.7
2025-08-02T0000,3336A,113.2465,35.2373,焦作市,焦作技师学院,,46,46,41,14,14,105,,159,138,14,12,3,4,0.9,0.9
2025-08-02T0000,3477A,113.1656,35.2539,焦作市,中站许衡医院,,43,43,34,26,24,103,,171,145,22,14,7,9,0.6,0.6
2025-08-02T0000,3981A,113.2449,35.1803,焦作市,原李万街道办,颗粒物(PM10),51,52,45,22,14,100,,164,135,14,15,10,12,0.9,0.9
2025-08-02T0000,4264A,113.2340,35.2190,焦作市,新安路1731号,,41,41,42,18,18,105,,168,141,11,10,4,5,0.5,0.5
2025-08-02T0000,4295A,113.2722,35.2121,焦作市,人民路3066号,颗粒物(PM10),54,58,43,23,19,96,,158,128,11,10,5,8,0.6,0.7
2025-08-02T0000,1708A,116.3701,23.5345,揭阳市,新兴,,29,29,25,15,16,39,,80,45,20,13,5,4,0.7,0.6
2025-08-02T0000,1709A,116.3264,23.5443,揭阳市,西马,,44,44,31,15,14,38,,80,46,15,11,3,3,0.5,0.4
2025-08-02T0000,1710A,116.3611,23.5626,揭阳市,东兴,,37,37,29,17,13,14,,75,45,31,11,2,2,1.2,0.6
2025-08-02T0000,1711A,116.4151,23.5294,揭阳市,渔湖,,26,26,30,12,13,28,,80,44,22,17,11,9,0.5,0.5
2025-08-02T0000,3320A,116.403,23.5699,揭阳市,曲溪,,36,36,23,14,13,23,,79,41,30,16,10,5,0.7,0.5
2025-08-02T0000,1944A,102.1692,38.5167,金昌市,天庆家园,,34,34,48,12,29,68,,107,96,16,10,11,12,1.2,0.9
2025-08-02T0000,4022A,102.1647,38.5371,金昌市,金川区人防中心,,43,43,50,13,26,51,,116,94,18,11,6,9,0.6,0.6
2025-08-02T0000,4239A,102.1930,38.5319,金昌市,长春路96号,,45,45,50,16,26,58,,110,100,22,10,9,10,0.9,0.5
2025-08-02T0000,1262A,119.647,29.077,金华市,十五中,,50,50,41,26,21,54,,141,90,21,20,3,4,0.3,0.3
2025-08-02T0000,1263A,119.686,29.1029,金华市,监测站,颗粒物(PM10),55,60,43,36,25,28,,149,82,43,22,4,4,0.6,0.5
2025-08-02T0000,3659A,119.656,29.1131,金华市,气象局,颗粒物(PM10),56,62,42,39,21,18,,140,80,52,20,4,5,0.7,0.6
2025-08-02T0000,1767A,121.1115,41.0879,锦州市,南山,,23,17,40,16,24,15,,143,69,46,22,3,7,0.5,0.9
2025-08-02T0000,1768A,121.0604,40.8428,锦州市,开发区,颗粒物(PM10),55,60,68,24,26,55,,117,68,20,35,9,11,0.6,0.8
2025-08-02T0000,1769A,121.1836,41.1119,锦州市,百股街道,,24,24,32,7,11,35,,135,74,35,18,4,6,0.6,0.7
2025-08-02T0000,1770A,121.1178,41.1222,锦州市,天安街道,,25,19,43,17,24,48,,155,85,26,28,6,8,0.6,0.8
2025-08-02T0000,1771A,121.1303,41.1386,锦州市,北湖公园,,22,22,37,14,19,56,,145,87,16,18,4,6,0.5,0.7
2025-08-02T0000,2160A,112.85,35.5051,晋城市,自来水公司,颗粒物(PM10),55,59,44,27,20,145,,173,168,14,12,2,1,0.5,0.6
2025-08-02T0000,2161A,112.8318,35.4936,晋城市,白云商贸,颗粒物(PM10),51,51,40,17,14,134,,163,157,11,11,3,2,0.5,0.6
2025-08-02T0000,2162A,112.8508,35.4887,晋城市,市环保局,颗粒物(PM10),56,62,52,27,19,120,,157,148,8,8,2,2,0.4,0.5
2025-08-02T0000,2163A,112.8676,35.4897,晋城市,技术学院,,50,50,38,22,15,126,,151,146,11,12,3,4,0.6,0.6
2025-08-02T0000,2165A,112.8453,35.546,晋城市,白马寺,,49,,27,34,23,150,,171,169,6,4,7,7,0.6,0.8
2025-08-02T0000,3620A,112.8271,35.4828,晋城市,泽州一中,颗粒物(PM10),57,63,42,22,16,111,,175,163,14,8,4,5,0.4,0.5
2025-08-02T0000,2173A,112.7249,37.7067,晋中市,南都小区,颗粒物(PM10),51,52,54,22,29,95,,152,106,13,10,3,3,0.7,0.6
2025-08-02T0000,2174A,112.6991,37.6982,晋中市,榆次区政府,,48,48,49,19,25,100,,156,111,11,7,9,9,0.8,0.9
2025-08-02T0000,2865A,112.7195,37.6828,晋中市,榆次三中,,39,39,46,27,29,100,,155,111,10,7,8,9,0.7,0.7
2025-08-02T0000,4200A,112.7478,37.6954,晋中市,迎宾街26号,,41,41,49,22,26,99,,161,111,12,8,6,6,0.6,0.6
2025-08-02T0000,2439A,112.2014,31.0481,荆门市,竹园小学,,40,40,47,25,28,107,,154,132,9,11,3,2,0.8,0.6
2025-08-02T0000,2440A,112.1969,30.9891,荆门市,掇刀,,40,35,40,24,26,125,,164,145,6,6,8,8,0.8,0.6
2025-08-02T0000,2441A,112.2213,31.0386,荆门市,石化一小,,43,43,44,22,22,119,,158,138,8,10,7,6,1.0,0.8
2025-08-02T0000,3012A,112.1849,31.0362,荆门市,西山林语,,38,38,46,23,26,111,,157,140,6,5,8,8,0.6,0.5
2025-08-02T0000,3547A,112.1632,31.0138,荆门市,龙泉中学南校,,35,33,35,24,27,110,,162,141,11,9,4,4,0.8,0.7
2025-08-02T0000,1844A,112.2494,30.3197,荆州市,市图书馆,,46,46,32,30,22,74,,160,125,37,11,2,3,0.7,0.6
2025-08-02T0000,1845A,112.2008,30.3544,荆州市,市委党校,,44,44,37,23,20,93,,162,130,21,13,7,8,0.6,0.6
2025-08-02T0000,3194A,112.2747,30.3122,荆州市,管委会,,42,38,31,29,25,84,,152,119,24,13,6,7,0.7,0.6
2025-08-02T0000,4268A,112.1722,30.3366,荆州市,学苑路85号,细颗粒物(PM2.5),58,43,33,41,28,91,,166,127,12,12,4,5,0.5,0.4
2025-08-02T0000,2342A,117.3102,29.3867,景德镇市,王港中学,,,,,,,,,,,,,,,,
2025-08-02T0000,2343A,117.2117,29.2933,景德镇市,老干部活动中心,,26,26,32,14,18,29,,82,56,8,14,5,8,0.6,0.6
2025-08-02T0000,2344A,117.1894,29.2789,景德镇市,兽医站,,34,34,41,20,21,34,,94,63,7,15,4,7,0.6,0.6
2025-08-02T0000,2346A,117.2461,29.2956,景德镇市,陶研所,,27,27,33,14,20,30,,74,51,3,9,3,4,0.7,0.8
2025-08-02T0000,4289A,117.1542,29.2566,景德镇市,青少年活动中心,,29,23,27,20,22,29,,105,75,11,18,1,10,0.8,0.7
2025-08-02T0000,1803A,115.9872,29.6815,九江市,十里,,38,,23,26,22,70,,120,94,29,16,4,5,0.6,0.6
2025-08-02T0000,1804A,115.9584,29.7046,九江市,茅山头,,30,24,32,21,18,77,,115,90,13,12,3,4,0.5,0.5
2025-08-02T0000,1805A,115.9877,29.7295,九江市,西园,,36,36,29,14,14,99,,133,111,12,14,6,7,0.8,0.8
2025-08-02T0000,1808A,115.9114,29.6038,九江市,综合工业园,,34,34,31,18,17,40,,110,76,46,25,5,6,0.9,0.7
2025-08-02T0000,1809A,116.0721,29.7535,九江市,石化总厂,,38,38,32,19,30,64,,122,95,43,18,8,9,0.6,0.6
2025-08-02T0000,1810A,115.9773,29.5698,九江市,庐山气象台,,26,13,20,8,9,81,,105,101,4,6,6,6,0.5,0.9
2025-08-02T0000,3190A,116.0254,29.6994,九江市,外国语学校,,36,,24,25,20,82,,122,100,21,14,2,2,0.6,0.6
2025-08-02T0000,4253A,116.0102,29.6594,九江市,莲花大道8号,,29,29,24,16,14,88,,123,105,1,2,4,4,0.6,0.6
2025-08-02T0000,4240A,98.4958,39.7339,酒泉市,玉门东路5号,颗粒物(PM10),60,70,38,29,25,30,,119,95,49,13,8,7,0.6,0.3
2025-08-02T0000,4241A,98.5099,39.7506,酒泉市,北大街108号,颗粒物(PM10),51,51,39,28,23,55,,114,95,24,11,10,8,0.5,0.2
2025-08-02T0000,2698A,76.0072,39.4467,喀什地区,巡警大队,颗粒物(PM10),119,187,83,34,21,91,,124,115,26,18,3,3,0.4,0.4
2025-08-02T0000,2699A,75.9755,39.4694,喀什地区,吾办,颗粒物(PM10),98,146,75,43,25,100,,105,,20,17,6,7,0.4,0.3
2025-08-02T0000,4027A,75.9483,39.4689,喀什地区,老干局,颗粒物(PM10),108,166,65,30,17,95,,118,112,17,12,4,4,1.0,0.8
2025-08-02T0000,1824A,114.3389,34.7781,开封市,肿瘤医院,,26,26,42,15,22,70,,157,117,16,14,3,4,0.4,0.4
2025-08-02T0000,1826A,114.2885,34.7965,开封市,世纪星幼儿园,,,30,47,,5,78,,143,115,11,11,3,3,0.6,1.7
2025-08-02T0000,3147A,114.3438,34.8106,开封市,龙亭公园,,21,21,39,8,26,60,,144,104,8,8,3,4,0.6,0.5
2025-08-02T0000,3210A,114.3644,34.7964,开封市,汴京公园,,30,30,46,21,26,58,,148,106,13,10,3,4,0.5,0.5
2025-08-02T0000,3473A,114.2485,34.8306,开封市,技师学院,,21,,40,14,19,65,,138,101,9,9,4,5,0.7,0.7
2025-08-02T0000,3592A,114.4644,34.7556,开封市,祥符区生态环境局,,26,24,35,18,24,34,,135,87,34,16,4,6,0.5,0.5
2025-08-02T0000,1951A,84.895,45.6094,克拉玛依市,长征新村,颗粒物(PM10),54,57,33,37,12,47,,106,95,37,7,4,4,0.5,0.2
2025-08-02T0000,1952A,84.8988,45.5893,克拉玛依市,南林小区,细颗粒物(PM2.5),89,118,36,66,16,11,,107,70,68,11,5,3,0.2,0.1
2025-08-02T0000,1954A,84.905,44.3396,克拉玛依市,独山子区,,42,41,42,29,15,65,,111,95,18,7,8,9,0.6,0.5
2025-08-02T0000,1955A,85.6979,46.098,克拉玛依市,乌尔禾区商贸楼,,49,49,34,11,11,21,,100,79,77,12,6,6,0.3,0.2
2025-08-02T0000,3612A,85.1045,45.6899,克拉玛依市,白碱滩区新站,颗粒物(PM10),54,57,37,26,19,71,,105,94,12,4,10,9,0.1,0.1
2025-08-02T0000,2697A,76.1454,39.7142,克孜勒苏柯尔克孜自治州,市人民政府,颗粒物(PM10),62,73,65,25,32,124,,126,124,7,10,4,5,0.2,0.1
2025-08-02T0000,3665A,76.1658,39.7157,克孜勒苏柯尔克孜自治州,克州文化中心,颗粒物(PM10),54,57,74,22,28,124,,124,123,3,6,5,7,0.3,0.4
2025-08-02T0000,1450A,102.8204,24.8886,昆明市,呈贡新区,,45,41,23,31,21,13,,131,77,71,27,4,4,0.7,0.5
2025-08-02T0000,1451A,102.6251,24.9608,昆明市,西山森林公园,,,,,,,,,,,,,,,,
2025-08-02T0000,1452A,102.7252,25.0902,昆明市,龙泉镇,,29,29,21,14,12,51,,123,95,10,13,1,1,0.5,0.5
2025-08-02T0000,1453A,102.7266,25.0375,昆明市,东风东路,,47,47,25,26,16,45,,131,102,29,18,3,3,0.6,0.4
2025-08-02T0000,1454A,102.6742,25.0669,昆明市,金鼎山,,31,31,23,14,11,64,,118,102,16,10,1,1,0.4,0.4
2025-08-02T0000,1455A,102.6644,25.0401,昆明市,碧鸡广场,细颗粒物(PM2.5),59,57,22,42,13,59,,121,99,26,15,7,7,0.6,0.5
2025-08-02T0000,3179A,102.7494,25.0119,昆明市,官渡区博物馆,,39,39,24,20,15,27,,134,86,44,23,1,2,0.6,0.5
2025-08-02T0000,3375A,102.8017,24.8336,昆明市,青年创业园,,45,45,29,28,21,6,,128,73,62,23,1,3,0.7,0.5
2025-08-02T0000,3550A,102.7997,24.9786,昆明市,昆明学院,细颗粒物(PM2.5),55,50,34,39,22,17,,131,85,64,26,6,6,0.5,0.4
2025-08-02T0000,3551A,102.5967,24.6736,昆明市,晋宁区生态环境分局,,44,44,22,27,18,54,,122,98,19,13,3,5,0.5,0.5
2025-08-02T0000,3552A,102.6678,24.9856,昆明市,云天化总部,,40,37,22,28,14,34,,134,87,52,21,4,4,0.5,0.4
2025-08-02T0000,1456A,91.1319,29.6514,拉萨市,八廓街,,16,13,13,6,8,51,,92,69,17,10,6,6,0.3,0.3
2025-08-02T0000,1457A,91.1221,29.6747,拉萨市,市环保局,,17,17,12,10,8,44,,97,77,19,10,7,7,0.3,0.2
2025-08-02T0000,1458A,91.0874,29.6475,拉萨市,区监测站,,21,21,9,8,6,38,,87,67,33,13,4,4,0.3,0.3
2025-08-02T0000,1459A,91.1774,29.6541,拉萨市,西藏大学,,18,15,11,6,8,57,,92,74,15,11,5,5,0.2,0.2
2025-08-02T0000,1460A,90.9798,29.6588,拉萨市,区辐射站,,19,19,13,10,7,46,,79,66,19,11,8,5,0.4,0.3
2025-08-02T0000,1461A,91.0834,29.6292,拉萨市,拉萨火车站,,17,12,7,7,6,54,,84,73,12,7,5,6,0.3,0.2
2025-08-02T0000,2520A,109.2203,23.7256,来宾市,来宾技工学校,颗粒物(PM10),56,62,24,28,13,72,,109,90,13,7,43,10,0.9,0.6
2025-08-02T0000,3535A,109.1781,23.7297,来宾市,兴宾区政府,,34,34,17,17,12,64,,114,90,8,6,4,6,0.7,0.7
2025-08-02T0000,4002A,109.2416,23.7461,来宾市,中南小学,,46,42,21,32,15,78,,116,100,10,7,7,3,0.6,0.5
2025-08-02T0000,1477A,104.1373,35.9454,兰州市,榆中兰大校区,,,,,,,,,,,,,,,,
2025-08-02T0000,1479A,103.831,36.0464,兰州市,铁路设计院,,50,50,59,28,30,78,,147,96,28,27,9,13,0.5,0.5
2025-08-02T0000,3241A,103.7439,36.0842,兰州市,百合公园,,46,46,50,25,23,21,,144,90,50,13,7,8,0.7,0.5
2025-08-02T0000,3242A,103.9611,35.998,兰州市,和平,,39,39,54,21,28,69,,145,106,13,10,11,12,0.7,0.7
2025-08-02T0000,4236A,103.6293,36.0938,兰州市,庄浪东路808号,颗粒物(PM10),51,51,60,22,31,58,,165,105,41,20,11,14,0.5,0.4
2025-08-02T0000,4237A,103.7251,36.1043,兰州市,安宁西路88号,,45,45,52,31,28,90,,159,115,12,7,5,7,0.5,0.4
2025-08-02T0000,4238A,103.8470,36.0676,兰州市,北滨河东路1号,颗粒物(PM10),60,70,49,30,29,2,,151,86,77,23,8,11,0.8,0.5
2025-08-02T0000,3245A,103.6633,36.533,兰州新区,新区管委会,,47,47,50,32,31,118,,145,132,7,7,25,19,0.6,0.5
2025-08-02T0000,3246A,103.6975,36.4789,兰州新区,舟曲中学,,,,,,,,,,,,,,,,
2025-08-02T0000,1067A,116.6708,39.5111,廊坊市,药材公司,,49,49,57,30,31,111,,191,174,17,17,6,5,0.6,0.8
2025-08-02T0000,1068A,116.7214,39.5589,廊坊市,开发区,,48,48,62,24,31,111,,172,148,18,22,3,2,0.7,0.8
2025-08-02T0000,1070A,116.7244,39.5269,廊坊市,北华航天学院,颗粒物(PM10),57,63,78,22,35,118,,200,176,13,22,7,6,0.7,0.8
2025-08-02T0000,2919A,116.7022,39.5453,廊坊市,河北工业大学,颗粒物(PM10),51,51,71,19,30,111,,193,167,22,26,7,6,0.6,0.7
2025-08-02T0000,2535A,103.7723,29.5462,乐山市,花湖湾,,38,35,37,26,27,84,,145,116,19,15,3,3,0.8,0.9
2025-08-02T0000,2536A,103.7627,29.5844,乐山市,牛耳桥,,35,31,33,24,25,38,,160,103,32,20,4,5,0.9,0.9
2025-08-02T0000,2537A,103.7508,29.6006,乐山市,市第三水厂,,42,42,34,28,25,37,,149,100,34,19,3,4,0.8,0.7
2025-08-02T0000,2538A,103.7571,29.5664,乐山市,市监测站,,33,33,40,19,22,52,,145,100,27,15,7,6,0.9,0.9
2025-08-02T0000,3361A,103.7311,29.5628,乐山市,理工大学,,49,42,40,34,29,43,,159,96,32,19,7,7,1.1,0.9
2025-08-02T0000,2598A,100.2143,26.8576,丽江市,西南郊,,26,23,17,13,12,82,,108,97,11,9,7,16,0.8,0.9
2025-08-02T0000,2599A,100.2497,26.8802,丽江市,丽江古城,,36,36,21,25,13,54,,103,87,19,11,9,9,0.6,0.5
2025-08-02T0000,2600A,100.2203,26.8906,丽江市,市中心,,25,23,16,17,11,78,,106,94,14,12,8,8,0.6,0.5
2025-08-02T0000,1267A,119.914,28.4514,丽水市,监测站大楼,,25,17,23,17,12,58,,99,80,12,11,2,4,0.4,0.4
2025-08-02T0000,1268A,119.93,28.4586,丽水市,莲都小学,,24,24,29,10,9,41,,99,78,20,12,3,3,0.4,0.4
2025-08-02T0000,1269A,119.879,28.4231,丽水市,余庄前,,30,27,28,21,18,26,,106,62,8,7,4,4,0.3,0.3
2025-08-02T0000,1173A,119.176,34.5885,连云港市,市环境监测站,,15,14,15,3,4,45,,50,43,7,5,4,2,0.5,0.4
2025-08-02T0000,3000A,119.3581,34.6972,连云港市,德源药业,,23,12,12,3,1,71,,58,58,9,8,3,2,0.7,0.6
2025-08-02T0000,3007A,119.178,34.844,连云港市,新城一中,,17,17,19,7,6,39,,43,40,8,5,3,3,0.6,0.6
2025-08-02T0000,3008A,119.3608,34.7519,连云港市,胡沟管理处,,14,14,14,3,3,27,,31,24,27,21,7,7,0.7,0.7
2025-08-02T0000,3009A,119.1478,34.5911,连云港市,矿山设计院,,19,19,17,3,6,48,,49,44,7,6,2,1,0.6,0.5
2025-08-02T0000,3434A,119.2413,34.6539,连云港市,工贸学校,,25,24,16,17,10,55,,52,47,6,5,5,5,0.7,0.6
2025-08-02T0000,3664A,119.4172,34.7341,连云港市,连云街道,,18,15,18,7,7,56,,50,50,2,4,2,2,0.5,0.5
2025-08-02T0000,2571A,102.3431,27.8099,凉山彝族自治州,青龙寺,,31,31,24,9,9,60,,125,83,8,5,4,7,0.2,0.4
2025-08-02T0000,2572A,102.2721,27.8415,凉山彝族自治州,邛海宾馆,,38,38,31,22,17,58,,137,101,18,16,9,11,0.6,0.7
2025-08-02T0000,2573A,102.2625,27.898,凉山彝族自治州,西昌市政府,,21,21,25,14,21,66,,136,97,4,10,6,11,0.4,0.7
2025-08-02T0000,2574A,102.2685,27.8851,凉山彝族自治州,凉山州政府,,29,27,28,20,19,68,,138,103,13,18,9,13,0.7,0.9
2025-08-02T0000,4229A,102.2342,27.8859,凉山彝族自治州,凯乐南路30号,,28,28,32,17,17,73,,140,109,6,16,9,16,0.7,1
2025-08-02T0000,2212A,123.2,41.1953,辽阳市,宏伟区,,15,10,25,10,15,48,,102,69,6,10,2,2,0.5,0.7
2025-08-02T0000,2213A,123.1683,41.2495,辽阳市,新华园,,19,14,31,13,16,33,,118,70,22,13,7,6,0.6,0.7
2025-08-02T0000,2214A,123.2354,41.2639,辽阳市,滨河路,,,,47,12,14,34,,88,40,10,11,2,2,0.4,0.6
2025-08-02T0000,2215A,123.149,41.2991,辽阳市,铁西工业园,颗粒物(PM10),54,57,49,30,19,25,,109,62,20,18,7,5,0.9,1.1
2025-08-02T0000,2227A,125.1358,42.8845,辽源市,环保局,,43,43,30,8,9,10,,125,70,32,16,6,6,0.4,0.5
2025-08-02T0000,3239A,125.0764,42.9078,辽源市,银鹰制药,,32,29,23,22,14,9,,130,62,35,22,8,8,0.5,0.5
2025-08-02T0000,1625A,115.9848,36.4372,聊城市,区政府,,18,13,31,6,19,56,,128,98,19,14,6,9,0.7,0.7
2025-08-02T0000,2878A,116.0072,36.4343,聊城市,聊大东校,,19,17,33,9,18,59,,133,101,20,15,7,8,0.7,0.8
2025-08-02T0000,3200A,115.9819,36.4978,聊城市,监控中心,,20,20,17,12,16,43,,128,97,34,14,7,8,0.8,0.8
2025-08-02T0000,3513A,116.0445,36.4361,聊城市,九州社区,,20,19,39,8,19,64,,130,101,10,14,2,5,0.2,0.4
2025-08-02T0000,4018A,116.0567,36.4608,聊城市,星美广场,,50,41,40,35,21,55,,130,98,16,16,1,5,0.5,0.6
2025-08-02T0000,2632A,94.3681,29.6376,林芝市,林芝监测站,,12,,8,3,4,37,,47,42,1,3,4,5,0.3,0.3
2025-08-02T0000,2633A,94.3616,29.6616,林芝市,林芝人民医院,,14,7,10,3,3,44,,48,44,1,2,6,5,0.3,0.4
2025-08-02T0000,2603A,100.0781,23.8982,临沧市,市环保局,,33,,17,23,14,23,,47,39,6,6,6,8,0.4,0.5
2025-08-02T0000,2604A,100.0894,23.8822,临沧市,市气象局,,18,15,17,12,11,26,,44,36,7,7,9,9,0.3,0.4
2025-08-02T0000,1733A,111.5531,36.0783,临汾市,临钢医院,,47,47,48,24,19,90,,159,129,18,11,4,4,1.0,0.9
2025-08-02T0000,1734A,111.5028,36.0714,临汾市,技工学校,颗粒物(PM10),54,58,51,31,32,88,,162,130,17,10,6,6,0.7,0.7
2025-08-02T0000,1736A,111.5018,36.0855,临汾市,市委,颗粒物(PM10),68,86,61,23,20,97,,184,151,19,11,7,6,0.7,0.7
2025-08-02T0000,3018A,111.505,36.1014,临汾市,唐尧大酒店,颗粒物(PM10),58,66,58,27,21,83,,165,127,19,12,3,4,0.9,0.8
2025-08-02T0000,4244A,111.4879,36.0530,临汾市,启星学校,细颗粒物(PM2.5),55,46,50,39,34,83,,172,136,24,11,6,6,0.8,0.8
2025-08-02T0000,4271A,103.2464,35.6123,临夏回族自治州,滨河东路1号,颗粒物(PM10),75,100,75,30,37,25,,105,60,30,19,6,7,0.5,0.5
2025-08-02T0000,4310A,103.2093,35.5995,临夏回族自治州,新华街21号,,,58,63,35,34,,,124,,19,11,6,8,0.5,0.4
2025-08-02T0000,1618A,118.3429,35.0532,临沂市,沂河小区,,22,22,17,12,13,21,,42,31,12,10,9,8,0.4,0.3
2025-08-02T0000,1619A,118.295,35.0583,临沂市,鲁南制药厂,,10,7,12,7,9,25,,48,35,10,8,10,9,0.5,0.5
2025-08-02T0000,1620A,118.2794,34.9976,临沂市,新光毛纺厂,,12,,8,8,9,30,,49,37,8,8,7,7,0.5,0.5
2025-08-02T0000,1621A,118.3956,35.0888,临沂市,河东保险公司,,17,17,15,8,3,20,,42,32,13,9,7,5,0.8,0.6
2025-08-02T0000,3370A,118.3564,35.0215,临沂市,十里堡居委,,14,14,11,9,8,23,,46,33,10,7,10,9,0.4,0.4
2025-08-02T0000,3496A,118.3604,35.1084,临沂市,南坊新区,,19,19,18,3,4,13,,42,28,17,10,9,9,0.8,0.4
2025-08-02T0000,3860A,118.3920,35.0300,临沂市,皇山花园小区,,9,7,10,6,9,22,,44,32,11,8,8,8,0.4,0.4
2025-08-02T0000,1870A,109.4856,24.3895,柳州市,柳东小学,,33,27,17,23,8,88,,119,89,8,4,1,2,0.5,0.5
2025-08-02T0000,1871A,109.4157,24.3277,柳州市,环保监测站,,33,25,21,23,15,84,,120,93,6,7,7,8,0.7,0.7
2025-08-02T0000,1872A,109.389,24.341,柳州市,河西水厂,,,48,30,29,17,,,119,,10,11,5,9,0.6,1
2025-08-02T0000,1873A,109.4311,24.2921,柳州市,市四中,,48,48,25,21,14,76,,121,91,13,10,6,7,1.0,0.9
2025-08-02T0000,1874A,109.4006,24.3631,柳州市,市九中,,49,45,29,34,19,86,,116,91,8,8,3,4,0.4,0.3
2025-08-02T0000,1875A,109.4958,24.3134,柳州市,古亭山,,35,35,27,21,12,78,,112,84,14,10,5,7,0.7,0.7
2025-08-02T0000,3402A,109.5422,24.3996,柳州市,市二中,,33,33,21,20,11,72,,116,85,14,10,6,6,0.8,0.7
2025-08-02T0000,2307A,116.5079,31.737,六安市,监测大楼,,16,,8,11,9,51,,63,59,5,4,3,3,0.5,0.3
2025-08-02T0000,2308A,116.4738,31.7643,六安市,皖西学院,,19,13,13,9,8,58,,68,63,5,4,2,2,0.4,0.3
2025-08-02T0000,2309A,116.4996,31.7905,六安市,朝阳厂,,16,,6,11,9,51,,60,54,7,7,4,4,0.5,0.4
2025-08-02T0000,2310A,116.5567,31.7886,六安市,开发区,,20,,5,14,8,45,,62,55,7,7,3,3,0.5,0.4
2025-08-02T0000,2576A,104.8,26.5892,六盘水市,窑上,,21,21,29,6,7,44,,122,71,3,5,1,2,0.4,0.4
2025-08-02T0000,2577A,104.83,26.5917,六盘水市,黄土坡,,28,28,23,17,16,48,,124,87,14,13,9,10,0.4,0.4
2025-08-02T0000,2578A,104.89,26.5939,六盘水市,水钢,细颗粒物(PM2.5),72,63,46,52,28,55,,128,105,39,20,9,14,0.5,0.9
2025-08-02T0000,2579A,104.8475,26.5894,六盘水市,民中,,49,49,28,27,14,46,,124,96,37,16,11,11,0.8,0.6
2025-08-02T0000,2580A,104.9544,26.5506,六盘水市,双水,,27,27,26,15,14,80,,122,107,10,11,6,8,0.5,0.5
2025-08-02T0000,2335A,117.0189,25.1181,龙岩市,龙岩师专,,,,,,,,,,,,,,,,
2025-08-02T0000,2336A,117.0217,25.1033,龙岩市,龙岩市监测站,,17,11,19,9,12,53,,90,67,11,10,3,4,0.5,0.5
2025-08-02T0000,2337A,117.0258,25.0661,龙岩市,闽西职业技术学院,,19,19,22,10,11,40,,82,62,10,10,3,6,0.6,0.6
2025-08-02T0000,2338A,117.0196,25.0306,龙岩市,龙岩学院,,16,16,18,6,10,28,,86,60,12,8,4,4,0.6,0.6
2025-08-02T0000,2665A,105.0822,33.3261,陇南市,汉王镇固水子,,,,,,,,,,,,,,,,
2025-08-02T0000,2885A,104.9339,33.3826,陇南市,滨江中学,,38,38,38,20,21,82,,117,98,3,4,7,7,0.6,0.6
2025-08-02T0000,3247A,104.955,33.371,陇南市,市总工会,,42,42,45,16,21,95,,129,112,4,5,6,6,0.4,0.4
2025-08-02T0000,2487A,111.9589,27.8901,娄底市,电视发射台,颗粒物(PM10),55,60,50,23,18,50,,93,53,4,4,6,6,0.6,0.5
2025-08-02T0000,2488A,111.9975,27.725,娄底市,市监测站,,45,45,46,28,26,71,,118,108,31,18,5,12,0.8,1.2
2025-08-02T0000,2489A,112.0194,27.7314,娄底市,市委党校,,47,47,45,32,27,100,,124,116,11,15,3,6,0.4,0.7
2025-08-02T0000,2490A,111.9561,27.7569,娄底市,涟钢,细颗粒物(PM2.5),62,61,40,44,25,39,,109,73,7,10,13,12,1.2,1.3
2025-08-02T0000,2491A,111.9892,27.7044,娄底市,市政府,细颗粒物(PM2.5),53,41,37,37,27,38,,123,94,6,5,4,5,0.5,0.7
2025-08-02T0000,1893A,105.4324,28.9634,泸州市,九狮山,,43,43,33,29,24,50,,155,87,24,13,3,4,0.3,0.3
2025-08-02T0000,1894A,105.4427,28.9063,泸州市,小市上码头,,34,34,28,16,13,39,,108,81,18,10,2,5,0.2,0.2
2025-08-02T0000,1895A,105.4241,28.8573,泸州市,兰田宪桥,,36,36,29,24,14,27,,123,83,33,16,8,7,0.5,0.4
2025-08-02T0000,1896A,105.4379,28.8833,泸州市,市环监站,,28,24,25,18,17,87,,127,107,11,15,5,9,0.3,0.2
2025-08-02T0000,4272A,105.3689,28.7783,泸州市,纳溪中医医院,,32,32,29,20,19,36,,127,83,27,18,6,4,0.6,0.5
2025-08-02T0000,2183A,111.1406,37.5211,吕梁市,环保局,,50,43,67,35,36,89,,170,119,31,27,3,3,0.8,0.9
2025-08-02T0000,2185A,111.1297,37.5136,吕梁市,自来水公司,,43,43,61,27,32,98,,171,122,20,19,4,5,1.0,1.1
2025-08-02T0000,2867A,111.1283,37.51,吕梁市,马茂庄小学,颗粒物(PM10),52,54,67,33,37,77,,171,119,39,22,5,6,0.6,0.7
2025-08-02T0000,1812A,112.3931,34.6516,洛阳市,市委党校,,32,32,31,18,18,98,,154,137,14,12,8,8,0.5,0.5
2025-08-02T0000,1815A,112.494,34.6886,洛阳市,河南林校,颗粒物(PM10),56,61,45,25,19,86,,158,132,27,15,8,8,0.4,0.4
2025-08-02T0000,1816A,112.3844,34.623,洛阳市,开发区管委会,,35,35,29,22,18,107,,165,150,12,9,9,9,0.5,0.5
2025-08-02T0000,1817A,112.4267,34.6258,洛阳市,市委新办公区,,38,32,30,26,20,94,,153,134,15,11,9,8,0.5,0.5
2025-08-02T0000,3340A,112.6005,34.6326,洛阳市,伊滨,,37,37,28,21,18,88,,150,131,17,13,9,9,0.6,0.6
2025-08-02T0000,3341A,112.4951,34.6332,洛阳市,中移产业园,,41,41,36,19,18,87,,156,132,16,12,7,7,0.7,0.7
2025-08-02T0000,3593A,112.5736,34.8993,洛阳市,吉利监测站,,46,46,41,24,19,100,,164,142,17,9,7,8,0.4,0.4
2025-08-02T0000,3635A,112.3677,34.662,洛阳市,河科大西苑校区,,42,42,34,18,15,102,,154,141,12,13,8,9,0.4,0.5
2025-08-02T0000,3636A,112.4388,34.6781,洛阳市,英才小学,,33,,36,23,19,89,,147,130,19,12,8,8,0.4,0.5
2025-08-02T0000,4214A,112.4600,34.6949,洛阳市,春都路1号院,,31,31,32,13,11,85,,139,123,16,12,6,6,0.4,0.5
2025-08-02T0000,2399A,114.051,33.5699,漯河市,三五一五工厂,,30,30,37,16,22,71,,108,91,10,8,7,6,0.5,0.5
2025-08-02T0000,2400A,114.0055,33.5698,漯河市,漯河大学,,31,31,42,9,18,73,,111,92,10,11,5,5,0.4,0.4
2025-08-02T0000,2401A,114.0138,33.5828,漯河市,市水利局,,29,29,38,14,22,65,,107,88,10,7,6,5,0.5,0.5
2025-08-02T0000,2402A,114.0261,33.5698,漯河市,市广电局,,24,22,36,15,23,75,,115,97,7,7,4,4,0.3,0.4
2025-08-02T0000,3478A,113.9749,33.5664,漯河市,市图书馆,,28,28,36,10,22,77,,116,100,6,8,6,7,0.3,0.3
2025-08-02T0000,4250A,114.0892,33.5882,漯河市,韶山路11号,,23,23,37,14,19,57,,105,82,14,10,2,3,0.7,0.6
2025-08-02T0000,1798A,118.5092,31.6837,马鞍山市,湖东路四小,,23,8,14,7,10,71,,69,69,6,7,5,5,0.5,0.4
2025-08-02T0000,1799A,118.5024,31.6449,马鞍山市,开发区,,23,6,13,3,9,73,,73,73,5,7,6,6,0.5,0.5
2025-08-02T0000,1802A,118.6245,31.7241,马鞍山市,濮塘,,25,10,12,9,9,78,,69,69,3,4,6,6,0.6,0.6
2025-08-02T0000,3633A,118.4918,31.6809,马鞍山市,雨山,,21,,10,3,10,67,,65,65,6,8,7,7,0.5,0.5
2025-08-02T0000,4191A,118.5274,31.72227,马鞍山市,慈湖高新区,,23,7,14,3,9,71,,66,66,6,9,6,6,0.4,0.5
2025-08-02T0000,1686A,111.0286,21.4688,茂名市,电白南海,,24,24,24,12,12,54,,63,49,9,10,2,3,0.4,0.5
2025-08-02T0000,1687A,110.9294,21.6533,茂名市,茂石化七小,,27,27,31,12,16,24,,49,38,14,12,5,8,0.5,0.5
2025-08-02T0000,1688A,110.9107,21.6687,茂名市,健康路,,24,24,26,7,14,35,,54,48,14,13,5,13,0.5,0.6
2025-08-02T0000,1689A,110.8592,21.6828,茂名市,高岭,,34,34,42,12,14,22,,49,37,27,20,6,11,0.5,0.5
2025-08-02T0000,3450A,111.01,21.5165,茂名市,电白水东,,35,,20,24,13,58,,62,61,10,11,3,8,0.5,0.5
2025-08-02T0000,2539A,104.0308,30.0478,眉山市,黑龙滩水库,,36,,14,21,15,115,,148,141,5,7,3,3,0.2,0.2
2025-08-02T0000,2540A,103.8416,30.0874,眉山市,气象局,,36,36,36,17,19,112,,165,143,20,23,3,3,0.6,0.6
2025-08-02T0000,3137A,103.8578,30.0744,眉山市,市委党校,,38,27,30,17,16,120,,152,139,15,21,8,8,0.6,0.7
2025-08-02T0000,3148A,103.8291,30.0564,眉山市,区人社局,,40,35,43,12,16,126,,162,145,13,25,6,13,0.8,0.8
2025-08-02T0000,1690A,116.1231,24.3284,梅州市,梅江月梅,,22,22,20,12,12,44,,92,64,14,12,9,8,0.5,0.5
2025-08-02T0000,1691A,116.0797,24.2719,梅州市,梅县新城,,18,,19,11,13,57,,90,73,7,8,9,6,0.5,0.5
2025-08-02T0000,1692A,116.1248,24.2654,梅州市,环境监控中心,,,,32,3,14,,,86,,16,13,5,4,0.5,0.5
2025-08-02T0000,3315A,116.1233,24.2991,梅州市,梅龙,,24,24,19,13,14,51,,91,68,11,10,7,6,0.6,0.6
2025-08-02T0000,1878A,104.7778,31.4741,绵阳市,富乐山,,31,31,36,19,26,97,,138,113,16,11,9,8,0.6,0.6
2025-08-02T0000,1880A,104.6697,31.4668,绵阳市,高新区自来水公司,,38,34,40,12,21,119,,138,116,12,20,9,8,0.6,0.6
2025-08-02T0000,1881A,104.7287,31.5075,绵阳市,三水厂,,44,44,43,27,29,80,,143,107,21,20,7,6,0.4,0.4
2025-08-02T0000,3491A,104.69,31.5322,绵阳市,西科大附属小学,,45,45,47,24,27,83,,153,108,22,22,10,8,0.5,0.5
2025-08-02T0000,3492A,104.5648,31.5343,绵阳市,安州区旅游局,,38,36,38,22,21,120,,148,113,9,10,3,2,0.5,0.5
2025-08-02T0000,4226A,104.7651,31.4531,绵阳市,绵阳市气象局,,46,46,38,26,25,108,,133,119,16,14,4,6,0.5,0.5
2025-08-02T0000,1784A,129.61,44.561,牡丹江市,环保大楼,,21,21,22,7,10,39,,78,57,16,18,3,4,0.2,0.3
2025-08-02T0000,1785A,129.6115,44.5782,牡丹江市,文化广场,,33,,18,23,18,47,,77,62,16,18,6,7,0.4,0.5
2025-08-02T0000,1786A,129.5904,44.5963,牡丹江市,第一医院,,25,22,24,17,16,49,,82,62,18,19,6,7,0.5,0.5
2025-08-02T0000,1787A,129.6364,44.6075,牡丹江市,机车工厂,,25,17,26,17,10,36,,78,58,21,17,4,5,0.5,0.4
2025-08-02T0000,1788A,129.6386,44.5462,牡丹江市,第一中学,,20,17,23,8,11,4,,79,47,40,20,6,6,0.2,0.2
2025-08-02T0000,2531A,105.0703,29.61,内江市,市监测站,,35,,19,24,17,40,,154,115,39,16,2,3,0.7,0.6
2025-08-02T0000,2532A,105.0717,29.5947,内江市,东兴区政府,,28,25,21,19,12,48,,144,113,38,14,8,8,0.6,0.5
2025-08-02T0000,2533A,105.0653,29.5817,内江市,内江二中,,48,37,29,33,21,16,,143,90,59,22,4,5,0.7,0.6
2025-08-02T0000,2534A,105.0406,29.5822,内江市,内江日报社,,39,27,19,26,19,13,,136,92,77,26,9,9,0.6,0.5
2025-08-02T0000,2628A,92.0657,31.4846,那曲市,那曲监测站,,26,26,31,12,14,77,,82,76,10,14,10,10,0.3,0.4
2025-08-02T0000,4243A,92.0515,31.4787,那曲市,那曲市委宣传部,,23,8,16,6,8,72,,91,79,4,8,7,7,0.2,0.3
2025-08-02T0000,1290A,115.8931,28.6843,南昌市,省外办,,35,35,28,24,20,97,,131,122,15,11,5,7,0.4,0.3
2025-08-02T0000,1291A,115.8886,28.7003,南昌市,省林业公司,,32,29,26,22,16,98,,136,120,12,12,3,5,0.5,0.5
2025-08-02T0000,1292A,115.8126,28.7442,南昌市,林科所,,32,22,19,19,11,100,,125,102,9,13,10,10,0.3,0.3
2025-08-02T0000,1294A,115.8518,28.687,南昌市,建工学校,,38,23,33,7,13,120,,137,126,13,16,11,11,0.6,0.5
2025-08-02T0000,1295A,115.8921,28.6424,南昌市,象湖,,35,25,28,24,15,102,,146,129,15,12,7,9,0.5,0.5
2025-08-02T0000,1296A,115.7423,28.7996,南昌市,武术学校,,35,26,17,24,13,72,,92,56,5,3,7,8,0.5,0.5
2025-08-02T0000,3046A,115.9084,28.6062,南昌市,机电学校,,43,43,35,27,18,106,,147,130,12,8,4,7,0.6,0.6
2025-08-02T0000,3690A,115.9721,28.7031,南昌市,外国语学校,,40,40,32,26,15,77,,155,125,19,12,6,7,0.4,0.3
2025-08-02T0000,4192A,115.9316,28.68677,南昌市,南京东路235号,,50,50,48,23,15,94,,136,124,14,12,5,6,0.7,0.6
2025-08-02T0000,1905A,106.056,30.8064,南充市,西山风景区,,,,,,,,,,,,,,,,
2025-08-02T0000,1906A,106.0789,30.8023,南充市,南充市委,,39,31,35,20,23,122,,139,136,14,13,5,6,0.4,0.4
2025-08-02T0000,1907A,106.1031,30.8217,南充市,南充炼油厂,颗粒物(PM10),51,52,40,24,22,95,,136,130,19,10,5,5,0.4,0.4
2025-08-02T0000,4227A,106.1083,30.7884,南充市,梨树横街98号,,,,32,31,20,,,148,148,12,10,5,6,0.2,0.3
2025-08-02T0000,4304A,106.1172,30.843,南充市,清泉寺北路188号,,45,40,36,31,23,114,,146,141,15,11,4,4,0.4,0.3
2025-08-02T0000,4305A,106.067,30.7616,南充市,同庆路1号,,38,36,34,24,20,120,,148,134,17,16,4,5,0.4,0.4
2025-08-02T0000,1151A,118.8086,32.1065,南京市,迈皋桥,,14,8,8,3,5,44,,67,57,19,14,4,4,0.3,0.3
2025-08-02T0000,1152A,118.7538,32.0551,南京市,草场门,,14,,10,9,7,44,,58,50,10,9,7,8,0.5,0.5
2025-08-02T0000,1153A,118.7794,32.0745,南京市,山西路,,18,9,12,3,2,55,,67,58,19,17,3,4,0.4,0.5
2025-08-02T0000,1154A,118.7752,32.0023,南京市,中华门,,14,9,7,3,3,43,,49,44,6,7,8,9,0.7,0.7
2025-08-02T0000,1155A,118.8109,32.0309,南京市,瑞金路,,16,,5,3,5,49,,61,51,13,14,6,6,0.4,0.3
2025-08-02T0000,1156A,118.7997,32.0754,南京市,玄武湖,,,10,12,,2,49,,60,53,8,9,9,8,0.4,0.4
2025-08-02T0000,1157A,118.6414,32.0931,南京市,浦口,,18,12,12,3,3,57,,63,57,11,10,4,4,0.4,0.4
2025-08-02T0000,1158A,118.7356,31.9996,南京市,奥体中心,,20,,9,7,6,62,,62,60,7,10,3,3,0.4,0.4
2025-08-02T0000,1159A,118.9125,32.1028,南京市,仙林大学城,,17,9,14,3,1,53,,67,56,5,6,7,8,0.6,0.6
2025-08-02T0000,3422A,118.8436,31.9198,南京市,江宁彩虹桥,,22,22,20,3,5,58,,59,56,8,11,5,4,0.6,0.6
2025-08-02T0000,3427A,118.8554,32.3578,南京市,六合雄州,,16,16,14,3,5,45,,70,51,14,13,3,3,0.5,0.6
2025-08-02T0000,4249A,118.8708,31.3402,南京市,汶溪路181号,,27,9,11,8,11,86,,70,70,5,7,4,4,0.5,0.5
2025-08-02T0000,4312A,119.019,31.6512,南京市,中山西路1号,,27,,7,9,9,84,,62,62,4,9,4,4,0.5,0.6
2025-08-02T0000,1401A,108.3103,22.7881,南宁市,二十一中,,16,16,20,11,15,40,,70,47,10,12,3,3,0.5,0.6
2025-08-02T0000,1402A,108.3141,22.8528,南宁市,北湖,,23,20,24,16,18,52,,86,59,8,11,2,4,0.5,0.5
2025-08-02T0000,1403A,108.3206,22.8225,南宁市,市监测站,,22,22,21,12,19,46,,78,58,10,12,3,3,0.4,0.5
2025-08-02T0000,1404A,108.3829,22.8037,南宁市,大自然花园,,21,21,22,11,14,40,,74,48,11,10,4,4,0.6,0.7
2025-08-02T0000,1405A,108.4394,22.7904,南宁市,仙葫,,20,14,23,14,17,39,,72,53,10,9,5,5,0.4,0.5
2025-08-02T0000,1406A,108.2397,22.8467,南宁市,区农职院,,30,,28,21,14,15,,88,48,28,14,4,5,0.5,0.6
2025-08-02T0000,1407A,108.3275,22.735,南宁市,英华嘉园,,16,16,23,11,18,45,,65,52,9,12,1,1,0.3,0.4
2025-08-02T0000,3401A,108.4834,22.7618,南宁市,红星社区,,26,26,22,8,17,27,,74,49,15,10,2,2,0.5,0.5
2025-08-02T0000,4221A,108.2177,22.7774,南宁市,乐贤路16号,,37,37,28,15,20,6,,75,43,36,21,4,5,0.5,0.6
2025-08-02T0000,2331A,118.0966,26.6761,南平市,茫荡山,,,,,,,,,,,,,,,,
2025-08-02T0000,2332A,118.1681,26.6369,南平市,南平市监测站,,18,11,23,9,16,55,,106,71,6,10,4,4,0.5,0.5
2025-08-02T0000,2333A,118.1825,26.6489,南平市,南平铝业有限公司,,20,20,28,3,14,50,,105,73,7,10,6,6,0.5,0.5
2025-08-02T0000,2334A,118.1756,26.6272,南平市,南平七中,,20,20,27,6,13,54,,106,69,6,8,4,4,0.5,0.5
2025-08-02T0000,1168A,120.9098,31.9663,南通市,狼山街道,,26,26,25,13,13,64,,113,82,10,9,2,2,0.6,0.6
2025-08-02T0000,1169A,120.86,32.0005,南通市,虹桥,,25,23,22,17,14,61,,112,80,12,12,1,1,0.7,0.7
2025-08-02T0000,1170A,120.87,32.02,南通市,城中,,27,27,29,15,15,50,,98,68,12,10,2,2,0.4,0.4
2025-08-02T0000,1171A,120.94,31.93,南通市,星湖花园,,21,21,20,13,14,63,,111,81,12,11,2,2,0.4,0.5
2025-08-02T0000,1172A,120.81,32.0417,南通市,紫琅学院,,,25,24,12,11,,,96,52,12,10,2,2,0.7,0.7
2025-08-02T0000,3291A,121.067,32.062,南通市,通州监测站,,22,22,19,9,10,62,,110,78,8,6,1,2,0.7,0.7
2025-08-02T0000,3432A,120.9348,31.9883,南通市,环境教育馆,,34,34,28,10,12,56,,109,79,12,9,2,2,0.3,0.3
2025-08-02T0000,2404A,112.5224,33.0122,南阳市,瓦房庄,,47,47,44,24,21,118,,142,137,9,8,7,7,0.5,0.5
2025-08-02T0000,2405A,112.5003,32.9735,南阳市,汉画馆,,43,43,39,14,14,116,,137,132,12,9,7,8,0.4,0.5
2025-08-02T0000,2406A,112.5573,33.027,南阳市,气象站,,48,48,40,22,20,113,,148,139,14,8,8,8,0.5,0.5
2025-08-02T0000,2407A,112.5481,32.9689,南阳市,理工学院,,44,44,41,18,14,112,,142,134,12,7,7,8,0.5,0.6
2025-08-02T0000,4008A,112.5234,32.9922,南阳市,卧龙区政府,,37,37,30,24,21,115,,140,135,12,9,6,6,0.6,0.6
2025-08-02T0000,1234A,121.8358,29.911,宁波市,区环保大楼,,,45,42,,18,,,104,88,13,11,4,3,0.5,0.5
2025-08-02T0000,1235A,121.56,29.82,宁波市,万里学院,,45,43,39,31,25,63,,109,85,19,12,4,4,0.6,0.6
2025-08-02T0000,1236A,121.713,29.9572,宁波市,龙赛医院,,41,41,34,18,17,60,,100,84,16,9,6,6,0.5,0.5
2025-08-02T0000,1239A,121.633,29.7733,宁波市,钱湖水厂,,34,34,31,18,18,48,,107,82,8,5,4,4,0.4,0.4
2025-08-02T0000,1240A,121.5856,29.8635,宁波市,太古小学,,43,43,41,20,19,72,,105,86,7,7,2,2,0.4,0.4
2025-08-02T0000,1241A,121.524,29.8674,宁波市,市环境监测中心,,40,40,36,24,21,74,,111,92,12,10,6,5,0.6,0.5
2025-08-02T0000,2871A,121.6147,29.9017,宁波市,万里国际学校,,30,30,29,20,21,76,,112,95,5,6,3,3,0.4,0.5
2025-08-02T0000,3710A,121.5594,29.8975,宁波市,白沙活动中心,,40,40,31,23,19,77,,111,93,8,7,4,4,0.5,0.5
2025-08-02T0000,2339A,119.5001,26.6946,宁德市,金涵水库,,,,,,,,,,,,,,,,
2025-08-02T0000,2341A,119.5388,26.6612,宁德市,宁德市监测站,,20,20,31,13,20,36,,94,59,23,16,6,6,0.9,0.7
2025-08-02T0000,3209A,119.5231,26.6562,宁德市,宁德一中,,20,20,28,14,20,26,,84,42,9,10,5,5,0.5,0.5
2025-08-02T0000,2618A,98.8601,25.8567,怒江傈僳族自治州,州监测站,,24,24,20,15,10,26,,57,43,8,8,6,6,0.3,0.4
2025-08-02T0000,2619A,98.8546,25.8417,怒江傈僳族自治州,泸水一中,,,5,17,,11,14,,45,28,12,11,6,6,0.3,0.4
2025-08-02T0000,1888A,101.6891,26.571,攀枝花市,弄弄坪,,42,42,40,17,22,54,,137,104,16,17,8,19,0.7,1.4
2025-08-02T0000,1889A,101.5769,26.5928,攀枝花市,河门口,,45,45,36,21,18,44,,118,99,23,12,7,8,0.7,0.7
2025-08-02T0000,1890A,101.7169,26.585,攀枝花市,炳草岗,颗粒物(PM10),53,55,40,27,18,32,,148,100,41,21,8,13,0.8,1.3
2025-08-02T0000,1891A,101.7369,26.5008,攀枝花市,仁和,,22,22,26,14,14,48,,115,78,11,10,7,9,0.6,0.7
2025-08-02T0000,2835A,101.7227,26.567,攀枝花市,四十中小,,40,40,32,19,20,53,,149,104,23,23,30,17,1.4,1.4
2025-08-02T0000,1604A,122.0303,41.1489,盘锦市,开发区,,34,34,27,17,16,52,,107,67,16,21,4,7,0.4,0.4
2025-08-02T0000,1605A,122.0485,41.0883,盘锦市,兴隆台,,22,16,23,15,16,59,,113,70,18,19,4,6,0.3,0.5
2025-08-02T0000,1606A,121.8297,41.1028,盘锦市,新生街道,,16,11,18,6,14,51,,132,68,10,20,2,4,0.4,0.5
2025-08-02T0000,1832A,113.3257,33.742,平顶山市,新华旅馆,,46,46,48,22,22,101,,155,137,13,10,6,6,0.4,0.5
2025-08-02T0000,1833A,113.2919,33.737,平顶山市,规划设计院,,38,38,40,23,23,105,,152,135,11,10,7,8,0.6,0.6
2025-08-02T0000,1834A,113.182,33.774,平顶山市,平顶山工学院,,36,34,35,22,20,113,,162,144,10,10,5,6,0.5,0.5
2025-08-02T0000,3204A,113.3025,33.73,平顶山市,规划局,,41,41,45,15,14,104,,158,142,10,8,4,5,0.5,0.4
2025-08-02T0000,3594A,112.8867,33.9116,平顶山市,石龙区,颗粒物(PM10),54,58,44,28,23,76,,170,137,23,12,7,10,0.6,0.6
2025-08-02T0000,2656A,106.6692,35.5461,平凉市,聚贤嘉苑,,46,46,46,23,16,133,,127,119,11,15,8,9,0.6,0.6
2025-08-02T0000,2657A,106.7021,35.5307,平凉市,博物馆,,43,38,39,20,21,136,,127,122,10,15,11,11,0.7,0.6
2025-08-02T0000,2347A,114.0997,27.5002,萍乡市,武功山,,17,6,4,3,8,53,,102,82,5,4,9,9,0.6,0.5
2025-08-02T0000,2348A,113.8385,27.6434,萍乡市,中医院,,29,29,36,20,17,83,,134,116,13,15,9,10,0.8,1
2025-08-02T0000,2349A,113.8493,27.6253,萍乡市,市政府车库,,35,26,25,24,22,66,,120,99,11,9,9,10,0.5,0.5
2025-08-02T0000,2350A,113.8676,27.6435,萍乡市,市环保局,,50,,30,35,22,68,,130,116,13,10,10,11,0.4,0.5
2025-08-02T0000,2351A,113.866,27.6198,萍乡市,安源区政府,,46,46,29,28,21,59,,121,100,11,7,9,11,0.6,0.6
2025-08-02T0000,2319A,119.0141,25.4325,莆田市,荔城区仓后路,,19,15,32,6,13,58,,110,73,9,8,5,5,0.7,0.7
2025-08-02T0000,2320A,119.0015,25.4553,莆田市,莆田市监测站,,49,49,33,10,15,44,,119,77,6,7,4,4,0.4,0.4
2025-08-02T0000,2321A,119.1119,25.4561,莆田市,涵江区六中,,19,11,31,10,18,59,,116,76,13,11,4,4,0.3,0.4
2025-08-02T0000,2322A,119.1013,25.3215,莆田市,秀屿区政府,,26,26,33,3,17,61,,110,76,9,10,4,5,0.3,0.4
2025-08-02T0000,2323A,118.981,25.4792,莆田市,东圳水库,,,,,,,,,,,,,,,,
2025-08-02T0000,2392A,115.0312,35.7636,濮阳市,环保局,,26,15,33,10,25,82,,138,111,9,8,15,6,0.5,0.5
2025-08-02T0000,2394A,115.0574,35.7609,濮阳市,油田运输公司,,25,23,42,3,21,77,,130,105,10,10,26,6,0.5,0.6
2025-08-02T0000,3021A,115,35.7668,濮阳市,濮水河管理处,,22,,38,15,26,57,,116,95,12,11,3,4,0.7,0.6
2025-08-02T0000,4216A,115.0924,35.7686,濮阳市,任丘路479号,,30,30,51,12,28,68,,123,100,11,9,17,6,0.5,0.5
2025-08-02T0000,2601A,100.98,22.7633,普洱市,市环保局,,31,31,25,8,12,28,,67,,5,5,5,5,0.5,0.6
2025-08-02T0000,2602A,100.9817,22.8322,普洱市,普洱第二中学,,29,24,22,20,14,32,,59,54,7,7,5,5,0.5,0.5
2025-08-02T0000,2262A,131.0518,45.8751,七台河市,新一中,,23,17,18,16,10,17,,116,60,32,19,10,10,1.0,0.9
2025-08-02T0000,3345A,131.0577,45.7879,七台河市,中波台,,16,12,13,7,7,17,,85,48,31,19,8,8,0.7,0.6
2025-08-02T0000,3637A,131.0176,45.7761,七台河市,人民广场,,39,39,25,23,12,20,,88,56,27,17,12,13,0.6,0.6
2025-08-02T0000,3684A,130.8781,45.8222,七台河市,新建矿广场,,23,,26,12,8,8,,104,57,46,24,11,11,0.5,0.5
2025-08-02T0000,1779A,123.9305,47.3636,齐齐哈尔市,安居小区,,41,41,23,18,8,31,,83,63,26,17,5,4,0.7,0.5
2025-08-02T0000,1780A,123.9488,47.3386,齐齐哈尔市,中心广场,,28,28,20,12,3,47,,91,76,21,13,5,5,0.7,0.5
2025-08-02T0000,1781A,123.9483,47.3227,齐齐哈尔市,农牧车辆厂,,44,44,26,19,9,28,,93,68,27,14,6,6,0.6,0.4
2025-08-02T0000,1783A,123.945,47.2988,齐齐哈尔市,市环境监测站,,36,36,20,10,6,26,,94,66,22,12,5,6,0.5,0.4
2025-08-02T0000,3662A,123.6333,47.2075,齐齐哈尔市,富区青少年活动中心,,32,32,22,14,9,28,,87,64,22,14,4,5,0.4,0.3
2025-08-02T0000,2591A,107.9783,26.5747,黔东南苗族侗族自治州,市环境监测站,,29,26,19,20,16,46,,105,80,19,11,2,2,0.5,0.5
2025-08-02T0000,2881A,107.8908,26.5311,黔东南苗族侗族自治州,凯里学院,,20,19,16,14,13,49,,116,88,18,12,3,3,0.7,0.6
2025-08-02T0000,2593A,107.5228,26.2403,黔南布依族苗族自治州,小围寨,,22,22,15,14,11,36,,92,72,14,9,2,2,0.3,0.4
2025-08-02T0000,3538A,107.5175,26.2978,黔南布依族苗族自治州,沙坝,,24,24,18,7,4,41,,115,82,15,9,4,4,0.4,0.5
2025-08-02T0000,2589A,104.9022,25.0925,黔西南布依族苗族自治州,场坝街,,30,30,26,13,14,45,,113,82,16,14,7,15,0.5,0.5
2025-08-02T0000,2590A,104.8811,25.0992,黔西南布依族苗族自治州,坪东大道,,44,44,29,18,15,26,,114,72,25,13,2,4,0.5,0.4
2025-08-02T0000,2502A,108.6236,21.9667,钦州市,市环保站,,15,6,7,3,3,46,,61,49,11,10,3,2,0.6,0.8
2025-08-02T0000,2503A,108.6549,21.9481,钦州市,沙埠小学,,17,8,13,3,6,53,,62,56,11,9,2,2,0.5,0.4
2025-08-02T0000,2504A,108.5989,21.7431,钦州市,港区一小,,16,9,16,6,8,51,,52,52,8,16,2,2,0.4,0.4
2025-08-02T0000,3404A,108.5959,21.9633,钦州市,北职校,,14,8,12,3,8,42,,61,50,9,7,3,2,0.6,0.5
2025-08-02T0000,1043A,119.7493,40.0116,秦皇岛市,第一关,,24,24,32,8,12,18,,146,61,44,33,5,7,0.1,0.3
2025-08-02T0000,1044A,119.5897,39.9499,秦皇岛市,监测站,,24,23,38,3,7,74,,148,84,3,16,3,6,0.2,0.5
2025-08-02T0000,1046A,119.5251,39.9041,秦皇岛市,建设大厦,,19,16,35,13,9,58,,156,80,5,15,4,7,0.2,0.5
2025-08-02T0000,3132A,119.610547,39.943889,秦皇岛市,文明里,,23,,40,9,10,71,,137,78,2,16,4,6,0.1,0.4
2025-08-02T0000,4198A,119.5090,39.8253,秦皇岛市,北戴河轮滑馆,,32,32,35,11,13,73,,138,77,1,18,2,4,0.4,0.7
2025-08-02T0000,1307A,120.6659,36.2403,青岛市,仰口,,10,10,16,6,6,25,,44,35,4,4,8,8,0.6,0.6
2025-08-02T0000,1310A,120.4134,36.0658,青岛市,市南区东部子站,,24,24,18,12,8,51,,44,40,2,3,6,6,0.3,0.3
2025-08-02T0000,1311A,120.3664,36.1032,青岛市,四方区子站,,13,9,14,7,8,41,,45,39,2,2,10,5,0.2,0.2
2025-08-02T0000,1312A,120.2994,36.054,青岛市,市南区西部子站,,17,17,17,10,7,31,,28,28,6,8,8,8,0.5,0.5
2025-08-02T0000,1313A,120.4581,36.0858,青岛市,崂山区子站,,29,29,30,7,4,41,,40,35,4,6,7,8,0.2,0.2
2025-08-02T0000,1315A,120.3999,36.3083,青岛市,城阳区子站,,10,9,9,3,7,30,,54,33,7,6,5,6,0.3,0.4
2025-08-02T0000,1966A,120.0405,35.8735,青岛市,黄岛区4号,,15,9,17,3,3,46,,53,50,2,2,10,10,0.3,0.3
2025-08-02T0000,3362A,120.5014,36.4034,青岛市,即墨2号,,21,21,12,8,11,39,,51,46,3,3,3,3,0.1,0.1
2025-08-02T0000,3642A,120.3503,36.0736,青岛市,市北区南部,,22,22,16,7,4,37,,47,36,6,9,6,5,0.5,0.5
2025-08-02T0000,3643A,120.3948,36.1805,青岛市,李沧区北部,,18,,6,12,8,37,,44,35,2,3,5,5,0.2,0.2
2025-08-02T0000,4290A,120.1969,35.9546,青岛市,珠江路669号,,13,7,13,7,8,39,,35,33,2,4,6,6,0.4,0.4
2025-08-02T0000,1702A,113.0426,23.691,清远市,环保大楼,,48,48,49,18,18,63,,168,126,20,12,10,11,0.8,0.8
2025-08-02T0000,1703A,113.0208,23.7106,清远市,凤城街办,,32,32,29,21,17,49,,130,91,24,14,10,9,0.6,0.6
2025-08-02T0000,3025A,113.0477,23.6344,清远市,技师学院,,26,26,24,14,15,50,,122,91,21,10,9,10,0.5,0.5
2025-08-02T0000,3318A,112.9903,23.7403,清远市,清新太和,,45,45,27,24,18,46,,128,94,30,14,8,6,0.6,0.6
2025-08-02T0000,3455A,113.076,23.7198,清远市,清城东城,,17,15,25,8,17,54,,119,91,16,10,6,6,0.7,0.7
2025-08-02T0000,2661A,107.6325,35.7357,庆阳市,庆阳五中,,42,32,31,16,16,132,,129,129,7,7,7,7,0.6,0.6
2025-08-02T0000,2662A,107.6364,35.7067,庆阳市,市环保局,,42,34,33,17,16,134,,129,,5,5,5,12,0.5,0.7
2025-08-02T0000,1916A,103.7897,25.5035,曲靖市,环境监测站,,41,41,42,21,21,63,,135,103,22,15,10,12,0.6,0.8
2025-08-02T0000,1917A,103.8,25.5364,曲靖市,烟厂办公区,,31,31,31,11,26,74,,128,106,12,10,4,8,0.6,0.9
2025-08-02T0000,3376A,103.7947,25.462,曲靖市,南苑二区,,34,34,29,14,19,71,,141,111,12,13,5,6,0.7,0.8
2025-08-02T0000,3377A,103.7444,25.5261,曲靖市,曲靖师范学院,,27,27,34,16,23,63,,111,92,11,17,7,11,0.4,0.7
2025-08-02T0000,1264A,118.8692,28.9398,衢州市,环保大楼,,48,48,41,28,24,58,,113,86,11,18,2,4,0.5,0.5
2025-08-02T0000,1265A,118.8709,28.9666,衢州市,实验学校,颗粒物(PM10),52,53,37,33,21,16,,115,82,52,18,3,4,0.5,0.4
2025-08-02T0000,1266A,118.8621,28.9808,衢州市,衢州学院,,47,47,35,32,23,16,,120,72,46,23,3,4,0.4,0.4
2025-08-02T0000,1611A,118.5819,24.9117,泉州市,涂山街,,26,26,36,12,20,51,,110,61,15,17,1,2,0.6,0.7
2025-08-02T0000,1612A,118.5972,24.8978,泉州市,津头埔,,30,27,35,21,20,60,,119,69,9,13,2,3,0.5,0.5
2025-08-02T0000,1613A,118.6663,24.9424,泉州市,万安,,24,24,36,12,20,57,,112,65,7,14,1,2,0.4,0.4
2025-08-02T0000,1614A,118.6117,24.9604,泉州市,清源山,,,,,,,,,,,,,,,,
2025-08-02T0000,3529A,118.6333,24.9264,泉州市,城华南路,,29,29,33,17,21,54,,114,64,14,14,3,4,0.5,0.5
2025-08-02T0000,2626A,88.8876,29.2718,日喀则市,日喀则监测站,,19,14,5,3,2,60,,87,78,15,5,12,11,0.4,0.3
2025-08-02T0000,3726A,88.8781,29.2426,日喀则市,林业技术推广中心,,22,6,6,6,2,70,,83,78,3,3,6,6,0.4,0.4
2025-08-02T0000,1659A,119.471,35.4209,日照市,监测站,,13,7,11,3,7,40,,43,38,3,5,5,7,0.4,0.3
2025-08-02T0000,1660A,119.523,35.4216,日照市,市政府广场,,14,9,14,3,4,42,,47,43,1,2,3,3,0.6,0.6
2025-08-02T0000,1661A,119.5587,35.4044,日照市,港务局,,20,17,18,14,14,46,,50,45,1,2,4,4,0.5,0.5
2025-08-02T0000,3507A,119.5328,35.4625,日照市,职业技术学院,,13,12,13,3,5,41,,46,42,4,4,5,5,0.5,0.5
2025-08-02T0000,3604A,119.3266,35.1044,日照市,岚山环保分局,,11,7,14,3,3,35,,38,36,5,4,8,8,0.4,0.4
2025-08-02T0000,1835A,111.1922,34.7752,三门峡市,市政府,,45,45,33,17,17,138,,151,143,12,8,9,7,0.5,0.4
2025-08-02T0000,1836A,111.1587,34.7942,三门峡市,开发区,,45,45,31,18,16,141,,150,143,17,14,10,8,0.4,0.3
2025-08-02T0000,1838A,111.143,34.7955,三门峡市,风景区,,46,29,31,24,15,147,,157,151,8,5,6,6,0.6,0.5
2025-08-02T0000,3039A,111.1911,34.7829,三门峡市,三门峡市第一小学,,45,43,31,8,12,142,,151,144,16,12,10,8,0.5,0.4
2025-08-02T0000,3598A,111.1,34.7167,三门峡市,富达温泉假日酒店,,45,43,34,19,18,141,,151,143,8,7,4,3,0.4,0.3
2025-08-02T0000,2324A,117.6211,26.2625,三明市,三钢,,42,32,32,29,25,7,,84,,18,15,3,7,1.0,1.2
2025-08-02T0000,2325A,117.635,26.2714,三明市,三明二中,,,33,31,,16,11,,88,40,12,12,1,3,0.5,0.7
2025-08-02T0000,2326A,117.6028,26.2378,三明市,三元区政府,,30,21,33,21,18,24,,87,42,7,13,1,5,0.3,0.4
2025-08-02T0000,2327A,117.7275,26.3108,三明市,洋溪,,,,,,,,,,,,,,,,
2025-08-02T0000,1876A,109.5078,18.2489,三亚市,河东子站,,37,37,38,16,16,56,,71,65,5,3,4,4,0.2,0.2
2025-08-02T0000,1877A,109.4964,18.2681,三亚市,河西子站,,36,36,37,16,13,49,,71,61,9,4,3,3,0.2,0.2
2025-08-02T0000,3540A,109.7348,18.3443,三亚市,君悦子站,颗粒物(PM10),52,53,42,13,16,57,,67,59,6,7,2,2,0.5,0.5
2025-08-02T0000,2624A,91.7608,29.2313,山南市,山南监测站,,,,25,4,5,66,,78,73,1,4,3,3,0.2,0.3
2025-08-02T0000,2625A,91.7706,29.2436,山南市,山南人民医院,,20,11,9,3,4,62,,75,69,1,4,4,4,0.2,0.2
2025-08-02T0000,1674A,116.6794,23.3667,汕头市,金平子站,,22,22,19,13,9,38,,89,60,12,9,2,2,0.6,0.5
2025-08-02T0000,1675A,116.7244,23.3633,汕头市,龙湖子站,,27,27,19,6,8,49,,83,61,9,8,6,6,0.5,0.5
2025-08-02T0000,1676A,116.7258,23.2775,汕头市,濠江子站,,35,35,31,3,10,43,,71,60,8,8,5,5,0.6,0.6
2025-08-02T0000,1677A,116.7519,23.4714,汕头市,澄海子站,,41,41,25,11,12,36,,93,56,19,11,2,2,0.8,0.7
2025-08-02T0000,1678A,116.6092,23.2539,汕头市,潮阳子站,,30,30,20,9,8,48,,80,62,6,5,4,4,0.5,0.5
2025-08-02T0000,3444A,116.454,23.2684,汕头市,潮南峡山,,39,39,21,24,12,23,,76,46,20,9,6,5,0.8,0.6
2025-08-02T0000,3624A,116.4069,23.2533,汕头市,潮南子站,,37,37,27,21,13,44,,77,52,10,8,4,3,0.7,0.6
2025-08-02T0000,1693A,115.3653,22.775,汕尾市,市环保局,,21,17,26,3,9,66,,84,83,6,8,2,2,0.5,0.5
2025-08-02T0000,1694A,115.3706,22.7898,汕尾市,市政府,,20,16,23,8,12,64,,81,79,10,10,3,3,0.5,0.5
2025-08-02T0000,1695A,115.3622,22.7925,汕尾市,新城中学,,27,27,30,9,11,68,,84,83,6,8,4,4,0.4,0.4
2025-08-02T0000,2645A,109.9154,33.8715,商洛市,监测站,,37,37,35,21,22,48,,145,97,21,12,6,7,0.5,0.5
2025-08-02T0000,3045A,109.9643,33.8471,商洛市,商州区中学,颗粒物(PM10),52,54,41,24,20,61,,144,94,23,15,34,14,0.6,0.5
2025-08-02T0000,2408A,115.6702,34.4285,商丘市,环境监测站,,24,24,25,12,14,45,,85,66,8,9,1,3,0.4,0.5
2025-08-02T0000,2409A,115.6458,34.4045,商丘市,粮食局,,22,22,22,10,10,45,,83,66,6,7,3,3,0.4,0.4
2025-08-02T0000,2410A,115.6293,34.3948,商丘市,睢阳区环保局,,25,25,23,9,11,45,,83,66,6,7,5,5,0.3,0.3
2025-08-02T0000,3171A,115.6071,34.4465,商丘市,梁园区档案局,,16,16,20,9,11,38,,79,60,10,9,2,2,0.4,0.4
2025-08-02T0000,1141A,121.4,31.238,上海市,普陀,,38,38,34,20,22,77,,146,100,15,13,5,5,0.4,0.3
2025-08-02T0000,1142A,121.478,31.2036,上海市,十五厂,颗粒物(PM10),51,51,38,23,24,71,,127,92,15,13,7,7,0.8,0.8
2025-08-02T0000,1143A,121.467,31.3008,上海市,虹口,颗粒物(PM10),51,51,39,18,20,77,,112,87,8,7,10,10,0.5,0.6
2025-08-02T0000,1147A,121.425,31.2261,上海市,静安监测站,,40,40,37,25,22,72,,139,92,13,12,3,3,0.8,0.6
2025-08-02T0000,1148A,121.703,31.1907,上海市,浦东川沙,,46,46,40,21,20,54,,89,74,19,13,10,10,0.5,0.5
2025-08-02T0000,1149A,121.533,31.2284,上海市,浦东新区监测站,,42,42,34,20,20,73,,115,90,7,7,7,7,0.3,0.4
2025-08-02T0000,1150A,121.577,31.2071,上海市,浦东张江,,49,49,39,20,20,79,,117,95,9,8,5,5,0.7,0.7
2025-08-02T0000,3265A,121.4316,31.3322,上海市,宝山庙行,,49,49,38,23,20,68,,99,78,11,9,7,7,0.4,0.4
2025-08-02T0000,3266A,121.8791,31.4662,上海市,崇明上实东滩,,44,44,33,23,16,63,,105,87,14,10,3,3,0.7,0.8
2025-08-02T0000,3268A,121.3162,31.2838,上海市,嘉定南翔,,42,42,37,24,24,65,,132,92,12,9,7,7,0.4,0.4
2025-08-02T0000,3269A,121.3359,30.7456,上海市,金山新城,,40,40,38,26,23,79,,117,90,11,8,4,3,0.7,0.6
2025-08-02T0000,3270A,121.4996,31.0739,上海市,闵行浦江,颗粒物(PM10),51,51,37,22,23,53,,129,83,16,10,4,4,0.9,1
