timepoint,stationcode,longitude,latitude,area,positionname,primarypollutant,aqi,pm10,pm10_24h,pm2_5,pm2_5_24h,o3,o3_24h,o3_8h,o3_8h_24h,no2,no2_24h,so2,so2_24h,co,co_24h
2025-08-02T1500,2566A,102.1879,31.914,阿坝藏族羌族自治州,州农科所,,28,,15,19,12,58,,50,50,12,5,14,14,1.0,1
2025-08-02T1500,2568A,102.2502,31.8896,阿坝藏族羌族自治州,马师校,,25,16,16,14,19,79,,58,58,8,8,7,7,0.7,0.7
2025-08-02T1500,3994A,102.2165,31.9024,阿坝藏族羌族自治州,马尔康中学西区,,26,,15,17,14,82,,60,60,4,4,8,7,0.7,0.7
2025-08-02T1500,2695A,80.292,41.1694,阿克苏地区,电视台,,38,38,61,16,22,120,,66,62,3,11,3,3,0.6,0.6
2025-08-02T1500,2696A,80.2613,41.1551,阿克苏地区,艺术中心,,44,42,66,16,25,138,,76,76,3,14,3,3,0.5,0.5
2025-08-02T1500,2204A,105.6467,38.8363,阿拉善盟,西城区西花园,,49,30,36,21,16,154,,132,132,8,11,8,8,0.7,0.7
2025-08-02T1500,2205A,105.6985,38.8411,阿拉善盟,蒙二幼,,45,45,43,24,25,137,,112,112,1,5,10,9,0.6,0.6
2025-08-02T1500,2206A,105.724,38.8516,阿拉善盟,环保局新楼,,50,50,40,30,24,139,,119,119,5,5,10,9,0.7,0.6
2025-08-02T1500,2708A,88.1264,47.8517,阿勒泰地区,市站,,34,23,19,3,5,108,,95,95,12,14,2,2,0.3,0.3
2025-08-02T1500,2630A,80.1161,32.5,阿里地区,阿里监测站,,27,6,2,3,1,86,,71,71,2,4,6,6,0.1,0.2
2025-08-02T1500,3192A,80.0903,32.5028,阿里地区,阿里藏医院,,29,6,5,3,1,92,,78,78,1,1,7,7,0.0,0.1
2025-08-02T1500,2642A,109.0318,32.6537,安康市,香溪洞,,42,23,25,15,14,134,,112,112,4,4,7,7,0.4,0.4
2025-08-02T1500,2644A,109.0072,32.6975,安康市,汉滨区检察院,,40,24,29,15,17,125,,108,108,3,8,5,5,0.6,0.6
2025-08-02T1500,4054A,109.0325,32.6913,安康市,市邮政管理局,,40,23,30,16,18,127,,107,107,4,9,4,5,0.4,0.5
2025-08-02T1500,2291A,117.0809,30.5177,安庆市,环科院,,28,13,20,11,17,88,,72,72,6,12,4,4,0.6,0.6
2025-08-02T1500,2292A,117.0331,30.5119,安庆市,马山宾馆,,25,22,20,6,16,80,,68,68,6,15,2,2,0.3,0.3
2025-08-02T1500,2294A,116.9896,30.6145,安庆市,安庆大学,,22,13,23,10,20,70,,64,64,3,15,3,4,0.4,0.5
2025-08-02T1500,3173A,117.0598,30.5351,安庆市,市人大,,29,27,21,11,19,90,,77,77,7,15,3,4,0.3,0.5
2025-08-02T1500,3122A,105.9606,26.2611,安顺市,伍家关,,48,17,20,12,12,151,,101,101,6,18,2,4,0.5,0.6
2025-08-02T1500,3123A,105.9408,26.2431,安顺市,凤凰山,,46,22,29,12,21,145,,101,101,5,15,2,8,0.4,0.4
2025-08-02T1500,3124A,105.9439,26.2564,安顺市,金钟山,,47,21,22,14,18,149,,105,105,5,10,6,11,0.3,0.4
2025-08-02T1500,3125A,105.8983,26.2481,安顺市,娄家坡,,44,24,20,16,18,138,,104,104,4,7,6,11,0.4,0.5
2025-08-02T1500,1818A,114.4839,36.0621,安阳市,棉研所,,,,,,,,,,,,,,,,
2025-08-02T1500,1819A,114.3551,36.1017,安阳市,红庙街,,41,30,45,13,22,130,,130,130,5,12,3,4,0.4,0.4
2025-08-02T1500,1820A,114.361,36.0681,安阳市,银杏小区,,41,29,43,15,24,130,,132,132,5,11,4,4,0.4,0.4
2025-08-02T1500,3141A,114.3922,36.0878,安阳市,信访局,,42,34,43,10,22,134,,134,134,2,10,5,6,0.5,0.5
2025-08-02T1500,3669A,114.4705,36.0637,安阳市,左辅环卫站,,42,31,48,12,26,132,,120,120,6,13,6,6,0.4,0.4
2025-08-02T1500,3703A,114.2917,36.0949,安阳市,安钢职工学校,颗粒物(PM10),52,53,51,18,25,139,,131,131,3,10,4,5,0.3,0.4
2025-08-02T1500,1748A,123.044,41.1196,鞍山市,深沟寺,,31,19,23,12,12,98,,71,71,5,6,6,6,0.9,0.7
2025-08-02T1500,1749A,123.011,41.0931,鞍山市,太阳城,,35,18,21,9,12,109,,78,78,9,10,6,5,0.9,0.8
2025-08-02T1500,1750A,123.0485,41.1442,鞍山市,太平,,35,25,26,13,12,112,,78,78,8,11,6,7,1.1,1
2025-08-02T1500,1751A,122.9642,41.0971,鞍山市,铁西三道街,,34,27,30,12,15,106,,80,80,11,14,5,6,0.7,0.7
2025-08-02T1500,1753A,123.022,41.0821,鞍山市,明达新区,,30,18,23,9,12,96,,72,72,8,10,8,7,0.8,0.7
2025-08-02T1500,1754A,123.1289,41.0228,鞍山市,千山,,,,,,,,,,,,,,,,
2025-08-02T1500,4201A,122.9446,41.0826,鞍山市,兴盛南路290号,,34,26,33,13,15,108,,84,84,9,24,7,7,0.6,0.8
2025-08-02T1500,2195A,107.4212,40.761,巴彦淖尔市,附二中,,43,21,31,17,20,137,,100,100,4,7,6,6,0.7,0.7
2025-08-02T1500,2196A,107.37,40.7372,巴彦淖尔市,市环保大楼,,42,40,44,10,17,133,,101,101,6,9,6,6,0.5,0.5
2025-08-02T1500,1956A,86.1472,41.7538,巴音郭楞蒙古自治州,孔雀公园,颗粒物(PM10),58,65,49,32,22,92,,76,76,5,17,4,4,0.2,0.3
2025-08-02T1500,1957A,86.1972,41.7166,巴音郭楞蒙古自治州,棉纺厂,颗粒物(PM10),67,83,71,13,16,106,,80,80,2,12,4,5,0.2,0.2
2025-08-02T1500,1958A,86.2357,41.7173,巴音郭楞蒙古自治州,经济开发区,,45,45,32,15,11,101,,87,87,3,7,3,3,0.2,0.2
2025-08-02T1500,2914A,106.7677,31.8794,巴中市,苏山坪,,45,30,22,18,17,143,,113,113,5,6,4,3,0.5,0.6
2025-08-02T1500,3181A,106.7768,31.8526,巴中市,市五中,,47,30,29,24,21,148,,109,109,4,11,9,10,0.6,0.6
2025-08-02T1500,3183A,106.7418,31.8654,巴中市,圣泉水务公司,,49,27,22,21,17,155,,117,117,2,8,8,7,0.6,0.6
2025-08-02T1500,3616A,106.7616,31.8344,巴中市,市中心医院,,45,32,29,22,20,141,,106,106,5,15,9,9,0.4,0.5
2025-08-02T1500,2235A,122.7911,45.6077,白城市,洮北区环保局,,38,17,10,7,8,121,,110,110,3,6,2,4,0.6,0.5
2025-08-02T1500,2236A,122.8738,45.5725,白城市,市环保局,,42,,13,29,11,122,,106,106,1,8,5,3,0.6,0.4
2025-08-02T1500,2231A,126.4219,41.9171,白山市,喜丰,,34,17,25,3,11,106,,82,82,6,9,5,5,0.6,0.5
2025-08-02T1500,2232A,126.4077,41.9419,白山市,环保局,,35,,24,23,11,112,,93,93,5,8,5,6,0.7,0.6
2025-08-02T1500,2647A,104.1724,36.5446,白银市,第三小学,,34,32,54,15,27,106,,95,95,9,10,37,36,0.7,0.9
2025-08-02T1500,2648A,104.1465,36.5482,白银市,动力公司,,33,31,46,14,25,105,,93,93,7,12,34,21,0.5,0.7
2025-08-02T1500,2512A,106.6103,23.9011,百色市,市监测站,,30,12,22,8,8,94,,64,64,5,10,4,4,0.5,0.5
2025-08-02T1500,2513A,106.6538,23.8859,百色市,市中心血站,,32,21,26,8,9,102,,68,68,8,16,2,3,0.5,0.6
2025-08-02T1500,3406A,106.6085,23.8798,百色市,祈福高中,,28,14,30,9,14,88,,56,56,12,16,4,4,0.5,0.6
2025-08-02T1500,2270A,117.396,32.939,蚌埠市,工人疗养院,,25,6,14,3,5,78,,74,74,1,5,3,4,0.2,0.3
2025-08-02T1500,2271A,117.3605,32.9427,蚌埠市,百货大楼,,25,6,12,3,7,78,,70,70,1,5,6,6,0.4,0.4
2025-08-02T1500,2273A,117.4185,32.8911,蚌埠市,蚌埠学院,,25,6,10,3,6,80,,74,74,2,15,5,6,0.3,0.4
2025-08-02T1500,2274A,117.3533,32.9673,蚌埠市,淮上区政府,,28,9,13,3,7,87,,80,80,1,5,5,5,0.4,0.5
2025-08-02T1500,2275A,117.3145,32.8977,蚌埠市,高新区,,25,9,12,3,5,78,,68,68,4,10,5,6,0.5,0.5
2025-08-02T1500,3715A,117.3092,32.9314,蚌埠市,蚌埠田家炳中学,,,7,15,3,8,,,45,,4,7,6,7,0.3,0.3
2025-08-02T1500,1585A,109.8756,40.6532,包头市,市环境监测站,,36,30,30,19,22,113,,121,121,10,20,5,6,0.5,0.6
2025-08-02T1500,1587A,109.9991,40.5842,包头市,包头八中,,41,41,44,9,26,120,,116,116,9,19,3,9,0.6,0.8
2025-08-02T1500,1588A,109.8538,40.6821,包头市,青山宾馆,,36,33,38,8,25,114,,119,119,12,26,4,5,0.6,0.8
2025-08-02T1500,1589A,109.8642,40.6288,包头市,惠龙物流,,36,27,35,17,20,115,,113,113,8,14,5,4,0.5,0.6
2025-08-02T1500,1590A,110.0377,40.5546,包头市,东河鸿龙湾,,49,49,35,15,23,132,,122,122,6,13,4,4,0.6,0.8
2025-08-02T1500,3283A,109.9154,40.5685,包头市,滨河大厦,,41,33,38,12,20,130,,123,123,6,16,3,4,0.5,0.6
2025-08-02T1500,3419A,109.9447,40.6261,包头市,包头市委党校,,43,35,31,30,23,120,,125,125,8,19,5,8,0.5,0.7
2025-08-02T1500,3683A,109.8331,40.6576,包头市,昆区政府,,36,35,43,6,26,115,,124,124,9,18,5,5,0.6,0.8
2025-08-02T1500,1930A,107.185,34.3063,宝鸡市,庙沟村,臭氧1小时,55,37,33,20,19,164,,143,143,8,12,4,4,0.4,0.5
2025-08-02T1500,1931A,107.0708,34.3017,宝鸡市,竹园沟,臭氧1小时,78,39,34,16,25,182,,142,142,8,11,10,9,0.8,0.6
2025-08-02T1500,1932A,107.1906,34.3672,宝鸡市,三陆医院,臭氧1小时,62,48,42,34,27,169,,138,138,9,19,8,10,0.6,0.6
2025-08-02T1500,1933A,107.1431,34.3547,宝鸡市,监测站,臭氧1小时,53,48,43,21,24,162,,138,138,8,13,9,9,0.5,0.5
2025-08-02T1500,1934A,107.1186,34.3739,宝鸡市,技工学校,臭氧1小时,63,36,39,21,23,170,,140,140,8,12,7,7,0.5,0.6
2025-08-02T1500,1936A,107.2058,34.3497,宝鸡市,文理学院,臭氧1小时,59,37,41,17,21,167,,144,144,7,13,8,8,0.5,0.5
2025-08-02T1500,1937A,107.2386,34.3622,宝鸡市,三迪小学,臭氧1小时,67,52,40,22,26,173,,142,142,10,16,9,9,0.6,0.6
2025-08-02T1500,4308A,107.3898,34.3601,宝鸡市,陈仓区北开路21号,臭氧1小时,89,34,32,20,21,191,,149,149,7,14,9,9,0.5,0.5
2025-08-02T1500,1051A,115.493,38.8632,保定市,游泳馆,,47,38,51,3,22,150,,110,110,12,15,2,3,0.3,0.3
2025-08-02T1500,1052A,115.5213,38.8959,保定市,华电二区,臭氧1小时,55,37,51,12,21,164,,112,112,7,17,4,3,0.4,0.4
2025-08-02T1500,1053A,115.4713,38.9108,保定市,接待中心,,48,32,48,25,25,153,,114,114,1,14,3,2,0.3,0.4
2025-08-02T1500,1054A,115.4612,38.8416,保定市,地表水厂,颗粒物(PM10),51,52,61,19,19,159,,111,111,2,11,2,4,0.4,0.4
2025-08-02T1500,3581A,115.31981,38.95208,保定市,满城区生态环境分局,,48,44,60,24,28,152,,120,120,5,18,3,3,0.2,0.3
2025-08-02T1500,3582A,115.47694,38.76408,保定市,清苑区第二中学,,50,47,52,29,28,160,,111,111,2,11,4,5,0.4,0.4
2025-08-02T1500,3583A,115.62909,39.02311,保定市,徐水物探局,臭氧1小时,55,32,53,14,19,164,,111,111,2,16,2,3,0.4,0.4
2025-08-02T1500,4004A,115.4202,38.8656,保定市,双鹰农机,,47,40,52,16,23,148,,107,107,4,14,3,4,0.3,0.3
2025-08-02T1500,4034A,115.5150,38.8590,保定市,植保所站,臭氧1小时,68,39,48,18,20,174,,120,120,6,15,2,3,0.2,0.3
2025-08-02T1500,2594A,99.1678,25.1081,保山市,市环境监测站,,15,13,16,8,12,48,,37,37,4,7,9,7,0.3,0.3
2025-08-02T1500,2595A,99.1711,25.1328,保山市,市环保局,,17,17,16,7,11,53,,39,39,3,5,5,5,0.4,0.4
2025-08-02T1500,1866A,109.2262,21.588,北海市,牛尾岭水库,颗粒物(PM10),51,52,15,12,6,110,,87,87,3,5,2,2,0.8,0.6
2025-08-02T1500,1867A,109.1436,21.4086,北海市,海滩公园,,49,49,30,12,5,107,,93,83,8,5,4,2,0.8,0.5
2025-08-02T1500,1868A,109.0981,21.4661,北海市,新市环保局,,38,,14,24,12,121,,84,81,7,8,8,3,0.5,0.3
2025-08-02T1500,1869A,109.1778,21.5233,北海市,北海工业园,,42,15,14,15,10,133,,81,78,6,8,9,3,0.9,0.5
2025-08-02T1500,3400A,109.1911,21.4415,北海市,龙潭自来水厂,,31,20,12,15,9,98,,88,80,5,5,8,6,0.5,0.4
2025-08-02T1500,1001A,116.3621,39.8784,北京市,万寿西宫,,48,32,47,25,30,151,,98,98,10,22,4,4,0.5,0.6
2025-08-02T1500,1002A,116.2202,40.2915,北京市,定陵,臭氧1小时,62,,53,33,44,169,,126,126,8,6,2,9,0.6,0.7
2025-08-02T1500,1003A,116.4174,39.9289,北京市,东四,臭氧1小时,63,37,45,25,29,170,,108,108,11,20,5,5,0.5,0.7
2025-08-02T1500,1004A,116.4072,39.8863,北京市,天坛,,46,42,43,22,27,147,,90,90,6,16,2,2,0.6,0.7
2025-08-02T1500,1005A,116.462,39.9365,北京市,农展馆,,49,35,47,20,28,155,,94,94,9,20,3,4,0.6,0.7
2025-08-02T1500,1006A,116.3392,39.9295,北京市,官园,,46,38,45,19,28,147,,105,105,7,15,4,5,0.3,0.4
2025-08-02T1500,1007A,116.2878,39.9611,北京市,海淀万柳,,42,33,54,18,31,133,,90,90,8,27,4,4,0.5,0.7
2025-08-02T1500,1008A,116.6636,40.135,北京市,顺义新城,,,,,,,,,,,,,,,,
2025-08-02T1500,1009A,116.6275,40.3275,北京市,怀柔镇,,46,42,56,30,41,146,,111,111,10,12,3,2,0.4,0.6
2025-08-02T1500,1010A,116.2296,40.217,北京市,昌平镇,,49,47,62,28,40,155,,110,110,15,21,5,4,0.7,0.8
2025-08-02T1500,1011A,116.3966,39.9821,北京市,奥体中心,,44,38,44,22,26,138,,96,96,6,15,4,5,0.5,0.6
2025-08-02T1500,3281A,115.9718,40.4529,北京市,延庆夏都,细颗粒物(PM2.5),57,55,53,40,38,157,,128,128,7,8,2,2,0.8,0.9
2025-08-02T1500,3418A,116.8336,40.4095,北京市,密云新城,,38,31,54,21,33,121,,95,95,4,7,3,2,0.6,0.8
2025-08-02T1500,3671A,116.088,39.9726,北京市,门头沟三家店,,48,48,60,28,37,143,,107,107,2,15,3,3,0.6,0.7
2025-08-02T1500,3672A,116.1541,39.8204,北京市,丰台云岗,,44,38,67,22,39,138,,89,89,6,25,3,3,0.6,0.7
2025-08-02T1500,3673A,116.6804,39.9081,北京市,通州东关,臭氧1小时,78,31,77,19,49,182,,93,93,10,27,5,7,0.6,0.9
2025-08-02T1500,3674A,115.9577,39.7603,北京市,房山燕山,,50,50,50,33,37,145,,104,104,6,10,4,9,0.5,0.6
2025-08-02T1500,3675A,116.4672,39.7733,北京市,大兴旧宫,臭氧1小时,54,31,45,19,28,163,,93,93,6,13,3,3,0.7,0.8
2025-08-02T1500,3694A,115.986,40.4563,北京市,延庆石河营,,50,50,53,35,38,141,,117,117,6,7,2,2,0.6,0.6
2025-08-02T1500,3695A,116.6151,40.3053,北京市,怀柔新城,,42,39,56,29,41,124,,92,92,3,4,3,3,0.8,1
2025-08-02T1500,3696A,116.2545,39.8768,北京市,丰台小屯,,42,34,50,18,32,132,,82,82,1,23,2,2,0.6,0.8
2025-08-02T1500,3697A,116.84,40.3844,北京市,密云镇,,43,30,58,25,37,135,,99,99,4,13,6,5,0.7,0.9
2025-08-02T1500,4182A,116.1942,39.9158,北京市,八角北路9号,,47,43,71,21,36,149,,99,99,1,20,3,3,0.4,0.6
2025-08-02T1500,4194A,117.0790,40.1518,北京市,洳河巡河路,颗粒物(PM10),51,52,59,34,41,153,,103,103,7,9,3,3,0.7,0.7
2025-08-02T1500,1761A,123.8275,41.3064,本溪市,大峪,,27,17,26,9,11,86,,77,77,2,12,4,4,0.2,0.3
2025-08-02T1500,1762A,123.7567,41.3325,本溪市,溪湖,,28,28,32,12,14,81,,73,73,2,10,6,6,0.5,1
2025-08-02T1500,1763A,123.7169,41.3094,本溪市,彩屯,,24,24,27,15,16,70,,65,65,8,15,10,8,1.0,0.8
2025-08-02T1500,1764A,123.7669,41.2864,本溪市,东明,,26,26,31,16,12,81,,76,76,6,17,3,4,0.3,0.5
2025-08-02T1500,1765A,123.7992,41.2664,本溪市,新立屯,,25,22,22,10,11,80,,74,74,7,19,4,3,0.6,0.6
2025-08-02T1500,1766A,123.8142,41.3472,本溪市,威宁,,23,12,30,11,14,73,,64,64,2,13,8,8,0.3,0.5
2025-08-02T1500,2587A,105.2864,27.3125,毕节市,八中,,38,26,32,14,26,119,,86,86,7,16,5,5,0.2,0.4
2025-08-02T1500,2588A,105.31,27.2944,毕节市,师专,,40,16,44,11,22,127,,85,85,4,19,5,6,0.4,0.5
2025-08-02T1500,4263A,105.3688,27.3598,毕节市,工业大道,,43,16,34,9,22,135,,92,92,8,21,7,8,0.5,0.7
2025-08-02T1500,1629A,118.0018,37.3617,滨州市,第二水厂,,33,14,20,14,15,103,,86,86,2,12,3,3,0.4,0.5
2025-08-02T1500,1630A,117.9776,37.393,滨州市,北中新校,,32,19,23,12,13,101,,80,80,6,14,2,3,0.3,0.4
2025-08-02T1500,3514A,117.9378,37.3956,滨州市,中海酒店,,39,27,20,27,18,109,,89,89,2,7,10,10,0.3,0.5
2025-08-02T1500,3515A,117.9378,37.3553,滨州市,开发区一中,,40,29,24,24,15,125,,90,90,5,15,10,6,0.4,0.5
2025-08-02T1500,3516A,118.0917,37.694,滨州市,金海六路,,35,15,21,7,12,112,,82,82,2,9,10,12,0,0.1
2025-08-02T1500,4028A,117.9956,37.3753,滨州市,滨州市西街道办事处,,35,14,16,12,14,112,,91,91,2,9,2,3,0.1,0.3
2025-08-02T1500,2311A,115.8072,33.8399,亳州市,污水处理厂,,33,,7,15,9,103,,72,72,3,7,2,2,0.5,0.6
2025-08-02T1500,2312A,115.7789,33.8518,亳州市,三国揽胜宫,,34,,18,14,13,107,,74,74,2,4,2,2,0.4,0.5
2025-08-02T1500,3332A,115.7633,33.8034,亳州市,亳州学院,,31,6,5,3,8,98,,68,68,4,7,3,2,0.4,0.5
2025-08-02T1500,2693A,82.0485,44.8556,博尔塔拉蒙古自治州,市党校,,35,24,29,18,16,109,,85,85,7,9,3,4,0.2,0.2
2025-08-02T1500,2694A,82.0806,44.8969,博尔塔拉蒙古自治州,市环保局,,31,31,35,9,14,94,,77,77,7,7,3,2,0.5,0.5
2025-08-02T1500,1071A,116.8842,38.2991,沧州市,沧县城建局,,45,23,32,3,13,142,,108,108,5,16,3,2,0.3,0.3
2025-08-02T1500,1072A,116.8584,38.3254,沧州市,电视转播站,,43,31,37,12,17,136,,105,105,7,16,3,2,0.2,0.2
2025-08-02T1500,1073A,116.8709,38.3228,沧州市,市环保局,,50,36,43,16,22,158,,115,115,4,13,3,3,0.2,0.2
2025-08-02T1500,3324A,116.8136,38.3004,沧州市,河北水利电力学院,,48,19,24,14,22,153,,120,120,1,9,3,3,0.2,0.2
2025-08-02T1500,2622A,97.1806,31.1273,昌都市,昌都监测站,,22,7,11,3,5,69,,62,60,2,4,4,4,0.2,0.3
2025-08-02T1500,3719A,97.1714,31.1406,昌都市,昌都会议中心,,22,6,13,3,7,68,,67,63,8,9,6,5,0.3,0.3
2025-08-02T1500,2690A,88.1236,43.8886,昌吉回族自治州,天山天池,,42,27,34,9,11,133,,99,99,7,8,5,4,0.7,0.7
2025-08-02T1500,2692A,87.2717,44.0297,昌吉回族自治州,新区政务中心,,44,18,34,10,12,138,,92,92,4,16,8,7,0.2,0.3
2025-08-02T1500,3613A,87.3095,44.0142,昌吉回族自治州,亚心广场,,42,27,51,9,14,134,,84,84,4,23,9,8,0.2,0.3
2025-08-02T1500,1120A,125.2863,43.9027,长春市,客车厂,,34,25,40,10,16,107,,104,104,7,29,2,3,0.4,0.4
2025-08-02T1500,1121A,125.2841,43.8463,长春市,邮电学院,,35,26,28,13,13,112,,104,104,4,19,4,5,0.4,0.4
2025-08-02T1500,1122A,125.3716,43.8772,长春市,劳动公园,,34,33,37,13,16,108,,102,102,9,22,6,6,0.5,0.7
2025-08-02T1500,1123A,125.3297,43.8805,长春市,园林处,,33,26,32,12,13,103,,100,100,4,20,3,4,0.5,0.5
2025-08-02T1500,1124A,125.4605,43.79,长春市,净月潭,颗粒物(PM10),65,80,41,12,12,101,,91,91,3,8,3,4,0.3,0.3
2025-08-02T1500,1125A,125.7194,43.515,长春市,甩湾子,,,,21,,12,,,87,,,12,,4,,0.6
2025-08-02T1500,1126A,125.3863,43.8447,长春市,经开区环卫处,,31,27,30,10,13,98,,90,90,7,26,3,3,0.3,0.4
2025-08-02T1500,1127A,125.245,43.7783,长春市,高新区管委会,,35,24,27,18,13,109,,95,95,3,20,3,3,0.5,0.4
2025-08-02T1500,1128A,125.1761,43.8325,长春市,岱山公园,,33,33,31,22,15,104,,91,91,4,29,3,3,0.5,0.4
2025-08-02T1500,4281A,125.3346,43.9164,长春市,北亚泰大街1068号,,42,42,37,12,16,103,,101,101,9,29,6,6,0.5,0.6
2025-08-02T1500,1335A,113.0833,28.2325,长沙市,经开区环保局,臭氧1小时,72,47,53,41,37,177,,131,131,7,20,4,4,0.5,0.5
2025-08-02T1500,1336A,112.8872,28.2189,长沙市,高开区环保局,臭氧1小时,53,51,57,25,35,162,,145,145,3,15,4,4,0.4,0.5
2025-08-02T1500,1337A,113.0792,28.2053,长沙市,马坡岭,臭氧1小时,100,51,57,40,38,200,,142,142,7,17,4,4,0.4,0.4
2025-08-02T1500,1338A,112.9394,28.19,长沙市,湖南师范大学,臭氧1小时,77,52,53,28,37,181,,150,150,6,10,2,3,0.6,0.6
2025-08-02T1500,1339A,113.0178,28.1322,长沙市,雨花区环保局,臭氧1小时,85,48,57,32,30,188,,131,131,4,20,4,5,0.7,0.8
2025-08-02T1500,1340A,112.9792,28.2597,长沙市,伍家岭,臭氧1小时,64,47,55,28,33,171,,128,128,1,18,1,1,0.5,0.5
2025-08-02T1500,1341A,113.0014,28.1944,长沙市,火车新站,臭氧1小时,70,49,54,36,31,176,,142,142,7,11,5,6,0.7,0.7
2025-08-02T1500,1342A,112.9844,28.1178,长沙市,天心区环保局,臭氧1小时,90,45,54,32,37,192,,144,144,8,22,2,2,0.4,0.5
2025-08-02T1500,1343A,112.8908,28.1308,长沙市,湖南中医药大学,,49,43,56,23,37,156,,130,130,1,19,2,3,0.2,0.4
2025-08-02T1500,1344A,112.9581,28.3611,长沙市,沙坪,,49,,63,31,37,155,,129,129,6,10,6,5,0.5,0.6
2025-08-02T1500,1727A,113.1147,36.1547,长治市,清华站,臭氧1小时,78,29,35,17,20,182,,142,142,7,10,8,7,0.5,0.7
2025-08-02T1500,1730A,113.0886,36.2125,长治市,审计局,臭氧1小时,58,22,32,14,23,166,,134,134,7,12,6,6,0.6,0.8
2025-08-02T1500,1731A,113.0844,36.1856,长治市,长治八中,臭氧1小时,70,29,38,22,29,176,,139,139,3,7,9,8,0.6,0.7
2025-08-02T1500,2845A,113.1569,36.1911,长治市,德盛苑,臭氧1小时,60,31,34,22,19,168,,142,142,8,8,9,6,0.7,0.9
2025-08-02T1500,3568A,113.06,36.0464,长治市,向阳小学,颗粒物(PM10),54,57,74,3,28,152,,130,130,3,8,9,8,0.6,0.8
2025-08-02T1500,3569A,112.8792,36.3144,长治市,屯留一中,,49,17,54,17,35,156,,137,137,5,15,9,12,0.1,0.4
2025-08-02T1500,4189A,113.1131,36.19948,长治市,英华南巷50号,臭氧1小时,55,31,39,17,24,164,,137,137,5,10,7,7,0.6,1.1
2025-08-02T1500,4190A,113.2367,36.3344,长治市,学府街1号,,44,35,45,8,28,140,,134,134,9,17,4,5,0.4,0.6
2025-08-02T1500,1854A,111.6975,28.9703,常德市,市二中,,47,39,40,23,32,148,,128,128,4,11,4,4,0.5,0.6
2025-08-02T1500,1857A,111.7158,29.1456,常德市,白鹤山,,,,,,,,,,,,,,,,
2025-08-02T1500,3138A,111.7153,29.0289,常德市,武陵区永安,,50,27,48,20,32,160,,132,132,3,8,3,4,0.4,0.5
2025-08-02T1500,3139A,111.6892,28.9881,常德市,鼎城区玉霞,,45,33,45,20,30,142,,122,122,3,13,2,3,0.3,0.5
2025-08-02T1500,3140A,111.6625,29.0531,常德市,武陵区长庚,,50,37,41,22,30,158,,128,128,4,8,3,4,0.4,0.5
2025-08-02T1500,1196A,119.9633,31.762,常州市,市监测站,,33,18,24,10,16,104,,93,93,5,14,8,8,0.6,0.5
2025-08-02T1500,1200A,119.9468,31.7069,常州市,武进监测站,,39,14,22,6,15,123,,102,102,2,7,11,11,1.0,0.9
2025-08-02T1500,1201A,119.9255,31.9087,常州市,安家,,35,18,22,8,12,110,,102,102,6,14,6,6,0.9,0.8
2025-08-02T1500,3002A,119.9805,31.8174,常州市,行政中心,,32,16,25,7,15,100,,95,95,5,12,3,6,0.5,0.6
2025-08-02T1500,3003A,120.0522,31.7748,常州市,经开区,,34,21,30,12,14,107,,93,93,10,18,3,4,0.4,0.5
2025-08-02T1500,3010A,119.9025,31.7964,常州市,钟楼,,32,14,23,3,13,102,,100,100,6,12,5,6,0.8,0.7
2025-08-02T1500,3429A,119.8598,31.7066,常州市,武进经发区,,31,7,21,7,14,99,,92,92,1,8,5,6,0.9,0.8
2025-08-02T1500,3430A,119.5826,31.7245,常州市,金坛城区,,32,,12,10,12,100,,84,84,5,9,7,7,0.5,0.4
2025-08-02T1500,2220A,120.4318,41.5881,朝阳市,西梁,颗粒物(PM10),51,51,38,29,24,134,,110,110,8,9,8,7,0.8,0.6
2025-08-02T1500,2221A,120.4521,41.5646,朝阳市,河畔小区,,49,49,35,30,26,146,,118,118,7,9,5,5,1.0,0.8
2025-08-02T1500,2222A,120.4176,41.5648,朝阳市,八里堡,颗粒物(PM10),58,66,41,27,25,149,,122,122,7,9,3,3,0.9,0.8
2025-08-02T1500,2223A,120.3806,41.5969,朝阳市,农业园区,,48,44,36,33,34,144,,115,115,7,15,5,6,0.9,0.8
2025-08-02T1500,1705A,116.6367,23.6719,潮州市,西园路,,20,,29,14,12,55,,58,58,6,14,3,3,0.1,0.3
2025-08-02T1500,3026A,116.6183,23.6608,潮州市,市政府,,19,14,30,10,15,59,,60,60,10,20,9,10,0.4,0.6
2025-08-02T1500,4036A,116.6461,23.6761,潮州市,金山,,20,19,29,11,14,61,,64,64,5,14,4,4,0.5,0.7
2025-08-02T1500,2472A,113.0073,25.9061,郴州市,马头岭,,28,15,24,3,8,87,,63,63,4,9,6,5,0.5,0.5
2025-08-02T1500,2473A,113.0116,25.8226,郴州市,市职中,,24,,22,13,14,75,,66,66,3,7,4,4,0.2,0.3
2025-08-02T1500,2475A,113.0383,25.8071,郴州市,市审计局,,24,,23,7,15,75,,71,71,4,8,6,7,0.2,0.3
2025-08-02T1500,2476A,113.0348,25.7759,郴州市,市环保局,,23,17,24,6,16,72,,63,63,3,6,2,5,0.3,0.3
2025-08-02T1500,4252A,113.0138,25.8011,郴州市,好美居路49号,,22,15,23,3,13,70,,65,65,3,8,4,5,0.1,0.3
2025-08-02T1500,1431A,103.9728,30.7236,成都市,金泉两河,臭氧1小时,106,,40,37,22,212,,165,165,8,16,3,4,0.6,0.6
2025-08-02T1500,1432A,104.176,30.6872,成都市,十里店,臭氧1小时,105,35,48,22,25,209,,164,164,5,17,5,6,0.5,0.6
2025-08-02T1500,1433A,104.079,30.5706,成都市,三瓦窑,臭氧1小时,93,24,42,16,25,194,,163,163,9,30,4,4,0.4,0.5
2025-08-02T1500,1434A,104.1114,30.63,成都市,沙河铺,,47,15,38,8,23,148,,104,104,6,18,7,7,0.5,0.6
2025-08-02T1500,1437A,104.0786,30.6531,成都市,君平街,臭氧1小时,108,,48,35,30,215,,178,178,9,17,6,6,0.3,0.5
2025-08-02T1500,1438A,103.613,31.0283,成都市,灵岩寺,,,,,,,,,,,,,,,,
2025-08-02T1500,2880A,104.0239,30.65639,成都市,大石西路,臭氧1小时,99,31,37,21,28,199,,149,149,10,17,4,4,0.5,0.7
2025-08-02T1500,3136A,104.2725,30.5589,成都市,龙泉驿区区政府,臭氧1小时,59,19,21,12,12,167,,138,138,8,14,6,5,0.6,0.6
2025-08-02T1500,3357A,104.0106,30.6931,成都市,金博路,臭氧1小时,97,23,34,17,22,197,,153,153,7,20,5,5,0.7,0.8
2025-08-02T1500,3359A,104.0578,30.5225,成都市,华阳,臭氧1小时,77,31,32,22,25,181,,143,143,12,14,5,4,0.5,0.6
2025-08-02T1500,3488A,104.3853,30.7453,成都市,青白江技师分院,臭氧1小时,58,16,32,6,18,166,,132,132,6,28,5,11,0.5,0.7
2025-08-02T1500,3489A,104.0789,30.4072,成都市,科学城,,48,24,29,19,22,152,,126,126,4,9,3,3,0.5,0.5
2025-08-02T1500,4011A,103.8506,30.6947,成都市,光华大道三段,,,24,44,16,26,180,,150,150,8,17,5,8,,
2025-08-02T1500,4224A,104.2433,30.5353,成都市,鲸龙路1057号,臭氧1小时,64,27,29,16,19,171,,140,140,7,19,4,4,0.6,0.7
2025-08-02T1500,1062A,117.9531,40.9081,承德市,铁路,,44,44,50,27,28,133,,116,116,2,10,2,2,0.6,0.8
2025-08-02T1500,1063A,117.9392,40.9763,承德市,中国银行,细颗粒物(PM2.5),55,45,47,39,33,137,,122,122,4,12,3,2,0.7,0.8
2025-08-02T1500,1064A,117.9503,40.928,承德市,开发区,,47,47,49,24,25,149,,130,130,5,12,5,5,0.7,0.9
2025-08-02T1500,1066A,117.9268,41.0026,承德市,离宫,,43,41,46,26,24,135,,112,112,5,7,4,3,0.7,0.7
2025-08-02T1500,4274A,117.7994,40.9605,承德市,滨河大街98号,,49,49,43,26,29,143,,120,120,7,8,13,4,0.7,0.8
2025-08-02T1500,2314A,117.47,30.6618,池州市,池州学院,,27,14,20,9,15,85,,62,62,8,9,4,4,0.5,0.5
2025-08-02T1500,3237A,117.4918,30.6617,池州市,展览馆,,28,11,21,7,14,89,,64,64,7,10,4,4,0.6,0.7
2025-08-02T1500,3333A,117.5627,30.695,池州市,第八中学,,28,11,18,6,13,88,,66,66,3,6,4,4,0.5,0.6
2025-08-02T1500,3334A,117.5038,30.6243,池州市,第十二中学,,31,15,22,10,16,98,,72,72,8,12,3,3,0.8,0.9
2025-08-02T1500,1744A,118.9233,42.2816,赤峰市,松山一中,,41,23,27,21,17,129,,129,129,7,11,5,5,0.8,0.8
2025-08-02T1500,1745A,118.9576,42.2728,赤峰市,哈达街,,39,35,34,14,15,124,,120,120,8,13,14,15,0.6,0.7
2025-08-02T1500,1746A,118.8788,42.2554,赤峰市,天义路,,42,22,24,17,20,133,,130,130,5,11,9,13,0.4,0.5
2025-08-02T1500,3058A,119.2658,42.0353,赤峰市,银河街,,41,35,43,11,26,131,,114,114,8,13,5,19,0.7,0.9
2025-08-02T1500,3286A,118.9359,42.3147,赤峰市,桥北物流园区,,39,,28,27,20,110,,113,113,10,15,5,10,0.7,0.8
2025-08-02T1500,2521A,107.3476,22.4136,崇左市,市环保局江州分局,,,11,19,7,9,83,,66,66,3,8,,7,0.4,0.5
2025-08-02T1500,4256A,107.3750,22.3736,崇左市,石景林东路7号,,30,,13,6,17,93,,71,71,3,8,3,3,0.8,0.9
2025-08-02T1500,2298A,118.3093,32.3153,滁州市,老年大学,,22,11,15,3,5,69,,59,59,2,9,6,12,0.3,0.4
2025-08-02T1500,2299A,118.3244,32.2786,滁州市,人大宾馆,,25,6,6,3,10,77,,65,65,2,4,3,4,0.3,0.4
2025-08-02T1500,3207A,118.3118,32.3038,滁州市,市政府原办公楼,,22,,11,9,13,69,,60,60,2,5,5,5,0.3,0.4
2025-08-02T1500,3331A,118.3267,32.2634,滁州市,图书馆,,26,10,8,3,9,81,,68,68,3,8,10,10,0.2,0.4
2025-08-02T1500,2605A,101.5482,25.0441,楚雄彝族自治州,州环境监测站,,21,14,23,6,17,66,,48,48,4,16,8,14,0.5,0.6
2025-08-02T1500,2606A,101.538,25.0492,楚雄彝族自治州,市经济开发区,,20,9,43,6,19,64,,47,47,6,19,6,14,0.5,0.7
2025-08-02T1500,2548A,107.5277,31.2827,达州市,达州职业技术学院,臭氧1小时,79,37,36,8,11,183,,128,128,4,18,8,8,0.5,0.6
2025-08-02T1500,2549A,107.5086,31.2186,达州市,市环境监测站,臭氧1小时,58,34,36,7,10,166,,118,118,12,24,7,6,0.5,0.4
2025-08-02T1500,2550A,107.4988,31.2132,达州市,凤凰小区,,48,31,35,12,16,152,,115,115,11,22,5,4,0.4,0.4
2025-08-02T1500,2551A,107.5082,31.1986,达州市,达县机关宾馆,臭氧1小时,63,34,36,16,13,170,,121,121,11,31,7,6,0.4,0.4
2025-08-02T1500,2552A,107.4644,31.2124,达州市,市政中心,,45,34,39,12,14,144,,113,113,4,18,4,4,0.2,0.3
2025-08-02T1500,2614A,100.1542,25.7054,大理白族自治州,大理市环境监测站,,24,8,11,8,18,75,,52,52,6,8,4,4,0.4,0.4
2025-08-02T1500,2615A,100.2171,25.5811,大理白族自治州,大理古城,,25,12,18,3,10,78,,56,56,4,9,4,4,0.7,0.7
2025-08-02T1500,1109A,121.612,38.9741,大连市,甘井子,,22,17,15,15,14,65,,56,56,10,15,9,10,0.0,0.1
2025-08-02T1500,1110A,121.565,38.9511,大连市,周水子,,20,20,18,11,14,57,,47,47,4,11,8,7,0.2,0.2
2025-08-02T1500,1111A,121.5637,38.8845,大连市,星海三站,,23,14,13,13,11,71,,47,47,8,10,6,5,0.2,0.2
2025-08-02T1500,1112A,121.6302,38.9117,大连市,青泥洼桥,,22,18,20,11,12,68,,66,66,5,10,6,6,0.4,0.3
2025-08-02T1500,1113A,121.6251,38.8638,大连市,傅家庄,,26,,13,18,10,70,,37,37,5,7,9,8,0.2,0.1
2025-08-02T1500,1114A,121.5213,38.8661,大连市,七贤岭,,25,17,13,10,10,79,,54,54,1,4,9,8,0.2,0.2
2025-08-02T1500,1115A,121.2529,38.8061,大连市,旅顺,,22,21,15,13,12,68,,41,41,3,5,4,4,0.2,0.2
2025-08-02T1500,1116A,121.7485,39.1311,大连市,金州,,23,15,16,12,12,71,,64,64,7,8,9,7,0.1,0.1
2025-08-02T1500,1117A,121.7811,39.0496,大连市,开发区,,23,23,19,14,15,50,,47,43,6,12,5,6,0.1,0.3
2025-08-02T1500,1118A,121.9762,39.0631,大连市,双D港,,22,21,21,12,17,70,,67,67,5,3,8,7,0.3,0.4
2025-08-02T1500,1789A,124.81117,46.03138,大庆市,大同区,,38,38,28,8,10,116,,87,87,14,14,9,8,0.8,0.8
2025-08-02T1500,1790A,125.129,46.533,大庆市,龙凤区,,23,10,28,6,12,72,,69,69,17,19,6,7,0.6,0.6
2025-08-02T1500,1791A,124.902,46.408,大庆市,红岗区,,33,15,21,7,11,104,,85,85,7,12,8,8,0.7,0.7
2025-08-02T1500,1792A,125.153,46.586,大庆市,萨尔图区,,26,19,38,10,13,83,,75,75,9,19,7,8,0.5,0.6
2025-08-02T1500,1793A,124.9042,46.6215,大庆市,让胡路区,,34,34,31,18,15,79,,72,72,11,15,6,7,0.2,0.4
2025-08-02T1500,3481A,125.141,46.634,大庆市,萨区政府监测点,,30,30,35,3,9,89,,79,79,7,15,7,8,0.3,0.4
2025-08-02T1500,1721A,113.3819,40.1097,大同市,果树场,,45,42,31,31,18,127,,89,89,17,21,7,7,0.8,0.7
2025-08-02T1500,1723A,113.2994,40.0758,大同市,云冈宾馆,细颗粒物(PM2.5),54,40,40,38,24,150,,108,108,12,20,7,7,1.0,1
2025-08-02T1500,1724A,113.3444,40.0917,大同市,大同大学,,47,44,35,31,24,148,,113,113,13,18,6,6,0.7,0.6
2025-08-02T1500,1725A,113.2661,40.1269,大同市,安家小村,,46,26,41,22,16,147,,106,106,11,17,6,7,0.8,0.9
2025-08-02T1500,1726A,113.2711,40.0844,大同市,教育学院,,49,35,39,25,23,155,,114,114,12,19,9,8,0.6,0.7
2025-08-02T1500,3282A,113.3397,40.0597,大同市,大同市卫生学校,,47,,39,31,22,148,,104,104,13,17,8,6,0.7,0.6
2025-08-02T1500,3565A,113.1367,40.1122,大同市,云冈站,,42,27,51,16,24,134,,101,101,6,11,3,4,0.7,0.7
2025-08-02T1500,3566A,113.1186,40.2556,大同市,图书馆,,44,44,42,16,23,113,,97,97,6,9,7,8,0.8,0.8
2025-08-02T1500,3567A,113.5931,40.0461,大同市,区一中,,35,34,31,24,21,103,,108,108,32,11,9,8,0.7,0.6
2025-08-02T1500,4199A,113.2798,40.0997,大同市,魏都大道141号,,47,42,38,32,24,150,,109,109,11,18,6,5,0.8,0.9
2025-08-02T1500,2269A,124.1069,50.4097,大兴安岭地区,科技局,,17,17,20,3,6,45,,24,24,3,4,4,4,0.4,0.4
2025-08-02T1500,3663A,124.1164,50.4278,大兴安岭地区,红旗社区,,16,7,9,3,5,49,,24,24,4,6,5,4,0.3,0.3
2025-08-02T1500,1600A,124.3303,40.0625,丹东市,江湾东路,,23,23,23,13,13,58,,53,53,7,14,7,7,0.4,0.5
2025-08-02T1500,1601A,124.4256,40.1503,丹东市,临江后街,,28,28,58,8,15,53,,51,51,5,12,6,6,0.6,0.6
2025-08-02T1500,1602A,124.3933,40.1461,丹东市,元宝山,,15,14,25,7,13,47,,45,45,7,14,3,4,0.4,0.5
2025-08-02T1500,1603A,124.3633,40.1092,丹东市,民主桥,,18,18,22,12,12,52,,52,52,5,13,3,3,0.5,0.5
2025-08-02T1500,3541A,109.5726,19.5167,儋州市,第一中学子站,,25,25,30,11,14,47,,40,40,2,3,4,6,0.4,0.4
2025-08-02T1500,3542A,109.5567,19.5187,儋州市,东坡学校子站,,19,19,28,12,16,48,,41,41,2,4,5,5,0.5,0.5
2025-08-02T1500,2616A,98.5842,24.428,德宏傣族景颇族自治州,德宏州监测站,,25,24,24,17,11,59,,28,28,6,8,15,11,0.4,0.6
2025-08-02T1500,3677A,98.5881,24.4368,德宏傣族景颇族自治州,芒市人民政府综合楼,,29,29,30,11,11,63,,28,28,6,8,10,9,0.4,0.5
2025-08-02T1500,1901A,104.4239,31.1208,德阳市,东山公园,臭氧1小时,72,27,28,16,20,177,,142,142,5,11,4,4,0.7,0.8
2025-08-02T1500,1902A,104.3826,31.1317,德阳市,西小区,臭氧1小时,73,31,34,12,21,178,,138,138,7,19,7,9,0.9,1
2025-08-02T1500,1904A,104.3553,31.1091,德阳市,耐火材料厂,臭氧1小时,69,27,39,19,23,175,,142,142,4,18,1,3,0.4,0.6
2025-08-02T1500,3639A,104.4019,31.1244,德阳市,市教育局,臭氧1小时,68,29,33,16,19,174,,132,132,1,12,2,2,0.8,0.8
2025-08-02T1500,1622A,116.3032,37.4674,德州市,儿童乐园,,46,34,31,14,16,146,,87,,4,11,8,10,0.5,0.5
2025-08-02T1500,1624A,116.2991,37.4451,德州市,监理站,,43,17,24,12,12,137,,117,117,3,8,11,13,0.2,0.3
2025-08-02T1500,3066A,116.2721,37.4379,德州市,九衢泉纯净水厂,,37,14,27,7,18,118,,107,107,6,11,13,17,0.5,0.6
2025-08-02T1500,3371A,116.3728,37.4403,德州市,开发区人民医院,,38,22,26,9,16,121,,107,107,7,15,9,10,0.5,0.8
2025-08-02T1500,3511A,116.5652,37.3319,德州市,陵城艺术中心,,42,22,31,7,13,133,,98,98,4,12,5,7,0.4,0.5
2025-08-02T1500,4292A,116.3525,37.4209,德州市,新河东路,,42,24,28,9,19,134,,116,116,5,12,9,11,0.8,0.8
2025-08-02T1500,2621A,99.7056,27.8317,迪庆藏族自治州,迪庆州站,,25,20,23,9,14,80,,62,62,5,7,6,6,0.3,0.4
2025-08-02T1500,3180A,99.7136,27.8094,迪庆藏族自治州,质量技术监督局,,30,17,20,9,9,94,,64,64,11,11,7,7,0.4,0.4
2025-08-02T1500,4257A,104.6092,35.5962,定西市,将台街,,36,21,32,10,17,113,,99,99,2,6,9,8,0.5,0.5
2025-08-02T1500,4309A,104.6159,35.5701,定西市,正龙路62号,,32,13,25,6,14,102,,90,90,2,6,4,4,0.5,0.4
2025-08-02T1500,1389A,113.7547,23.0494,东莞市,莞城梨川,,23,23,27,16,15,33,,42,39,21,16,7,7,0.5,0.5
2025-08-02T1500,1390A,113.7944,23.0128,东莞市,东城石井,,29,29,28,14,14,28,,33,33,28,19,2,3,0.6,0.6
2025-08-02T1500,1391A,113.7383,22.9658,东莞市,南城西平,,18,18,24,9,12,46,,52,50,11,15,5,6,0.5,0.5
2025-08-02T1500,3319A,113.7338,23.0381,东莞市,万江金泰,,27,27,28,12,15,14,,27,25,21,19,4,4,0.7,0.7
2025-08-02T1500,3626A,113.7533,23.0202,东莞市,南城元岭,,20,20,26,12,14,32,,39,38,23,18,5,5,0.7,0.6
2025-08-02T1500,3627A,113.7875,23.0457,东莞市,东城主山,,43,43,40,20,17,30,,38,31,37,21,4,4,0.6,0.5
2025-08-02T1500,1666A,118.6614,37.4309,东营市,市环保局,,29,22,14,12,7,90,,75,75,9,13,8,11,0.1,0.2
2025-08-02T1500,3036A,118.6904,37.4338,东营市,开发区管委会,,29,28,18,12,5,91,,79,79,7,11,8,9,0.2,0.2
2025-08-02T1500,3365A,118.5719,37.565,东营市,垦利区民丰路,,28,27,15,14,7,87,,66,66,7,10,7,6,0.5,0.6
2025-08-02T1500,3498A,118.5055,37.8612,东营市,河口城区,,23,9,11,3,3,73,,63,63,9,11,9,5,0.5,0.7
2025-08-02T1500,3646A,118.4978,37.4623,东营市,胜利站,,36,36,22,24,7,105,,64,64,13,14,5,3,0.3,0.4
2025-08-02T1500,3734A,118.35,37.26,东营市,理想之城,,35,22,14,17,9,110,,75,75,8,9,10,6,0.3,0.3
2025-08-02T1500,1591A,110.0023,39.8129,鄂尔多斯市,综合楼,,50,29,39,19,21,160,,132,132,9,16,4,4,0.7,0.7
2025-08-02T1500,1592A,109.9486,39.8261,鄂尔多斯市,巴音孟克林场办事处,臭氧1小时,57,46,39,24,24,165,,143,143,9,13,5,4,0.6,0.6
2025-08-02T1500,1593A,109.7736,39.5986,鄂尔多斯市,康泽苑,臭氧1小时,52,46,36,17,15,161,,118,118,10,14,7,7,0.5,0.5
2025-08-02T1500,1594A,109.8119,39.5989,鄂尔多斯市,华泰汽车城,,44,44,33,22,18,140,,106,106,8,15,6,4,0.8,0.7
2025-08-02T1500,1595A,109.9734,39.7884,鄂尔多斯市,奥林花园,细颗粒物(PM2.5),64,,42,46,30,152,,122,122,7,16,9,8,0.8,0.9
2025-08-02T1500,2436A,114.8938,30.3994,鄂州市,市政府,臭氧1小时,53,28,21,8,7,162,,111,111,11,13,6,5,0.9,0.8
2025-08-02T1500,2437A,114.8989,30.3714,鄂州市,赵家坝,臭氧1小时,70,28,21,7,6,176,,123,123,7,10,7,7,1.2,1.1
2025-08-02T1500,3654A,114.8094,30.4089,鄂州市,精准医疗中心,臭氧1小时,77,23,25,7,6,181,,129,129,5,7,3,4,0.9,0.8
2025-08-02T1500,2454A,109.4978,30.2981,恩施土家族苗族自治州,湖北民院,,41,25,25,22,19,131,,98,98,3,5,6,5,0.5,0.5
2025-08-02T1500,2455A,109.4707,30.2798,恩施土家族苗族自治州,州电力总公司,,35,18,23,16,19,110,,86,86,2,5,9,9,0.3,0.3
2025-08-02T1500,3549A,109.5061,30.3772,恩施土家族苗族自治州,龙凤新区,,43,,21,25,14,137,,113,113,2,4,4,4,0.6,0.6
2025-08-02T1500,2499A,108.3411,21.6158,防城港市,沙万,,39,39,14,26,10,94,,58,58,10,12,6,3,0.5,0.6
2025-08-02T1500,2500A,108.3514,21.7731,防城港市,防城档案局,,27,24,15,11,9,84,,44,44,7,8,4,2,0.7,0.7
2025-08-02T1500,2501A,108.3506,21.6414,防城港市,大海花园,,43,43,14,7,8,114,,68,68,6,6,11,5,0.4,0.5
2025-08-02T1500,1371A,113.1294,23.0067,佛山市,湾梁,,14,14,21,9,13,21,,38,38,26,22,6,6,0.8,0.8
2025-08-02T1500,1372A,113.1083,23.0478,佛山市,华材职中,,16,,21,11,14,32,,43,42,18,16,7,7,0.6,0.6
2025-08-02T1500,1373A,113.144,23.0453,佛山市,南海气象局,,18,,24,12,15,19,,38,36,23,17,3,3,0.6,0.6
2025-08-02T1500,1374A,113.2881,22.8094,佛山市,顺德苏岗,,28,20,30,19,14,42,,33,33,29,30,6,7,1.0,1
2025-08-02T1500,1376A,112.8383,22.8678,佛山市,高明孔堂,,19,19,22,8,9,46,,40,40,8,10,6,6,0.7,0.7
2025-08-02T1500,1377A,112.8836,23.1588,佛山市,三水监测站,,23,,24,16,16,30,,45,45,28,24,5,7,0.5,0.5
2025-08-02T1500,1378A,112.867,23.185,佛山市,三水云东海,,34,34,34,12,15,19,,41,41,33,25,1,3,0.7,0.6
2025-08-02T1500,3625A,113.2544,22.7642,佛山市,容桂街道办,,20,17,23,14,18,51,,33,33,22,34,5,8,0.7,0.7
2025-08-02T1500,1280A,119.3903,26.0543,福州市,鼓山,,,,,,,,,,,,,,,,
2025-08-02T1500,1282A,119.2681,26.0504,福州市,师大,,46,46,25,9,9,90,,94,94,5,14,4,4,0.2,0.3
2025-08-02T1500,1283A,119.2984,26.1028,福州市,五四北路,,29,17,26,13,14,92,,91,91,6,19,3,3,0.3,0.3
2025-08-02T1500,1284A,119.2648,26.0768,福州市,杨桥西路,,28,24,25,12,10,87,,91,91,4,13,3,3,0.3,0.3
2025-08-02T1500,1285A,119.317,26.0746,福州市,紫阳,,31,31,27,10,12,90,,84,84,7,18,6,6,0.2,0.3
2025-08-02T1500,3048A,119.5799,26.0936,福州市,九龙,,35,27,27,19,14,112,,91,91,5,13,4,4,0.3,0.3
2025-08-02T1500,3526A,119.5189,25.9664,福州市,吴航,,35,31,27,16,14,110,,85,85,4,12,5,5,0.4,0.5
2025-08-02T1500,1755A,123.7977,41.8491,抚顺市,望花区,,40,35,45,15,22,126,,102,102,10,24,6,7,0.7,0.8
2025-08-02T1500,1756A,123.9161,41.8822,抚顺市,顺城区,,44,39,38,19,21,138,,103,103,8,24,6,5,0.9,0.8
2025-08-02T1500,1757A,124.0436,41.8611,抚顺市,东洲区,,35,28,34,13,19,109,,85,85,9,17,6,5,0.5,0.6
2025-08-02T1500,1758A,123.9247,41.8642,抚顺市,新抚区,,40,36,39,17,21,126,,97,97,7,17,6,5,0.8,0.7
2025-08-02T1500,1759A,124.0972,41.8961,抚顺市,大伙房水库,,35,23,24,12,16,112,,82,82,5,14,6,6,0.4,0.6
2025-08-02T1500,1760A,123.7086,41.8391,抚顺市,沈抚新城,,36,23,32,16,19,115,,105,105,9,18,6,6,0.6,0.7
2025-08-02T1500,2376A,116.2127,28.0814,抚州市,桐源党溪,,45,45,36,18,20,92,,84,84,3,6,4,5,0.5,0.5
2025-08-02T1500,2377A,116.3544,27.9831,抚州市,市站,,33,28,36,17,21,104,,86,86,1,3,5,4,0.7,0.6
2025-08-02T1500,2378A,116.3565,27.963,抚州市,血防站,,32,32,34,21,21,95,,80,80,2,5,4,5,0.4,0.4
2025-08-02T1500,2379A,116.3564,28.0007,抚州市,采茶剧团,,32,28,34,8,20,101,,82,82,2,2,4,4,0.6,0.6
2025-08-02T1500,2380A,116.385,27.9647,抚州市,医学分院,,35,35,35,19,20,99,,81,81,2,2,5,4,0.6,0.5
2025-08-02T1500,2207A,121.6094,41.998,阜新市,工业园区,颗粒物(PM10),52,53,41,20,21,144,,120,120,6,17,3,8,0.6,0.6
2025-08-02T1500,2208A,121.6697,42.0279,阜新市,长青街,,,,33,17,19,136,,114,114,5,13,4,8,0.6,0.6
2025-08-02T1500,2209A,121.6673,42.0705,阜新市,农业园区,,45,45,38,14,16,135,,114,114,5,10,2,5,0.7,0.8
2025-08-02T1500,2210A,121.6717,42.0224,阜新市,东苑,,49,49,38,22,35,142,,119,119,9,17,3,6,0.5,0.5
2025-08-02T1500,2211A,121.6506,42.0498,阜新市,玉龙新城,,49,49,37,18,16,136,,113,113,2,11,6,8,0.7,0.7
2025-08-02T1500,2301A,115.8277,32.8929,阜阳市,市监测站,,30,20,18,20,13,95,,81,81,6,14,4,4,0.2,0.2
2025-08-02T1500,2303A,115.8554,32.8605,阜阳市,开发区,,34,34,17,9,10,102,,86,86,5,10,5,6,0.2,0.3
2025-08-02T1500,2875A,115.784,32.8892,阜阳市,阜阳职业技术学院,,33,,7,8,10,103,,86,86,2,6,4,6,0.4,0.4
2025-08-02T1500,3468A,115.7901,32.8613,阜阳市,市规划展馆,,26,19,22,12,18,82,,70,70,3,7,3,3,0.5,0.5
2025-08-02T1500,3469A,115.836,32.9183,阜阳市,枣园社区,,31,10,22,9,19,99,,82,82,6,12,2,3,0.4,0.4
2025-08-02T1500,2669A,102.9099,34.9841,甘南藏族自治州,州政府,,28,10,29,3,18,88,,69,69,2,13,4,4,0.2,0.4
2025-08-02T1500,3380A,102.8914,34.9617,甘南藏族自治州,甘肃民族师范学院,,30,23,44,12,21,96,,70,70,2,13,9,9,0.3,0.3
2025-08-02T1500,2570A,101.9603,30.0475,甘孜藏族自治州,水桥子,,36,19,24,11,14,113,,78,78,7,16,6,6,0.4,0.4
2025-08-02T1500,3065A,101.9533,29.9972,甘孜藏族自治州,州环保局,,38,20,24,3,10,120,,85,85,5,15,6,6,0.6,0.6
2025-08-02T1500,3414A,115.8347,28.932,赣江新区,桑海产业园,,41,24,33,14,21,131,,112,112,4,15,8,6,0.5,0.4
2025-08-02T1500,2362A,114.9017,25.9149,赣州市,通天岩,,31,30,28,15,19,97,,89,89,5,5,16,16,0.6,0.7
2025-08-02T1500,2363A,114.9367,25.8664,赣州市,地委,,30,25,32,20,19,95,,90,90,6,11,1,5,0.7,0.9
2025-08-02T1500,2364A,114.9461,25.8481,赣州市,气象台,,31,23,31,15,16,98,,94,94,4,8,8,8,0.7,0.8
2025-08-02T1500,2365A,114.9322,25.8333,赣州市,市图书馆,,29,22,27,16,22,91,,84,84,4,10,3,4,0.4,0.5
2025-08-02T1500,2366A,114.8905,25.8471,赣州市,华坚鞋城,,29,21,32,9,20,90,,81,81,5,12,4,5,0.5,0.5
2025-08-02T1500,3109A,115.0093,25.8613,赣州市,赣县区卫计委,,39,39,26,15,15,99,,86,86,4,8,4,4,0.4,0.4
2025-08-02T1500,2683A,106.2319,36.1417,固原市,马园,,40,13,35,11,16,126,,118,118,12,21,5,10,0.6,0.7
2025-08-02T1500,2684A,106.2792,36.0022,固原市,监测站,,45,11,29,10,16,141,,119,119,4,11,5,5,0.4,0.4
2025-08-02T1500,2685A,106.2375,36.0211,固原市,新区,,41,25,27,16,16,130,,111,111,8,10,6,6,0.5,0.5
2025-08-02T1500,3522A,106.2177,35.9959,固原市,原州区十五小,,41,21,29,17,17,131,,110,110,4,7,8,8,0.5,0.5
2025-08-02T1500,2543A,106.6308,30.5278,广安市,小平旧居,,,,,,,,,,,,,,,,
2025-08-02T1500,2544A,106.6303,30.4576,广安市,市委,,46,23,33,16,21,146,,118,118,7,13,7,6,0.3,0.4
2025-08-02T1500,2545A,106.6271,30.4663,广安市,友谊中学,,47,22,28,16,19,148,,120,120,8,14,6,5,0.5,0.6
2025-08-02T1500,2547A,106.6388,30.4551,广安市,广电花园,,47,23,39,10,17,148,,116,116,6,18,2,2,0.5,0.6
2025-08-02T1500,2902A,106.6351,30.4865,广安市,北辰小学,,49,29,36,11,19,155,,124,124,5,12,3,4,0.5,0.6
2025-08-02T1500,2523A,105.8945,32.4535,广元市,黑石坡,,42,29,31,8,17,134,,106,106,5,10,7,8,0.4,0.4
2025-08-02T1500,2524A,105.821,32.4444,广元市,老城,,47,12,14,3,6,149,,116,116,10,27,7,5,0.7,0.8
2025-08-02T1500,2526A,105.8628,32.4287,广元市,监测站,,44,14,26,10,16,140,,107,107,5,14,9,10,0.7,0.8
2025-08-02T1500,3617A,105.8047,32.4166,广元市,经开区,,44,30,39,17,21,140,,107,107,5,24,7,9,0.6,0.8
2025-08-02T1500,1345A,113.2347,23.1423,广州市,广雅中学,,20,20,32,10,16,34,,35,35,23,26,2,2,0.3,0.4
2025-08-02T1500,1346A,113.2612,23.105,广州市,市五中,,18,18,28,9,14,35,,44,44,17,23,4,5,0.7,0.7
2025-08-02T1500,1348A,113.3478,23.0916,广州市,广东商学院,,18,15,27,10,17,57,,56,56,24,29,2,4,0.7,0.8
2025-08-02T1500,1349A,113.4332,23.1047,广州市,市八十六中,,25,16,28,8,17,13,,33,33,49,39,3,4,0.8,0.4
2025-08-02T1500,1350A,113.3505,22.9483,广州市,番禺中学,,23,22,28,16,20,44,,46,46,19,22,5,6,0.5,0.5
2025-08-02T1500,1351A,113.2146,23.3916,广州市,花都师范,,15,15,39,7,16,41,,58,58,25,26,3,4,0.5,0.5
2025-08-02T1500,1352A,113.2597,23.1331,广州市,市监测站,,16,16,26,8,13,40,,44,44,14,21,4,5,0.4,0.4
2025-08-02T1500,1353A,113.5618,23.312,广州市,九龙镇镇龙,,15,6,30,3,17,47,,41,41,14,26,6,7,0.4,0.6
2025-08-02T1500,1354A,113.2765,23.1544,广州市,麓湖,,19,19,25,10,13,25,,34,33,31,23,2,2,0.6,0.6
2025-08-02T1500,1355A,113.443,23.3035,广州市,帽峰山森林公园,,19,,22,6,9,58,,37,37,9,26,4,8,0.6,0.7
2025-08-02T1500,2846A,113.3221,23.1322,广州市,体育西,,26,26,31,12,15,33,,49,49,27,26,2,4,0.6,0.5
2025-08-02T1500,3298A,113.5717,23.5491,广州市,从化街口,,16,6,33,3,18,50,,52,52,11,18,5,6,0.6,0.7
2025-08-02T1500,3299A,113.3472,23.3692,广州市,白云竹料,,13,7,31,3,19,40,,44,44,16,28,3,4,0.5,0.6
2025-08-02T1500,3300A,113.2981,23.237,广州市,白云嘉禾,,14,14,32,6,17,35,,32,32,22,30,3,4,0.5,0.6
2025-08-02T1500,3301A,113.4256,23.1716,广州市,黄埔科学城,,12,10,29,3,18,37,,31,31,16,24,3,2,0.5,0.5
2025-08-02T1500,3302A,113.3942,23.0483,广州市,番禺大学城,,24,24,33,8,19,32,,43,43,29,27,6,6,0.6,0.6
2025-08-02T1500,3303A,113.4922,22.8168,广州市,南沙黄阁,,24,24,36,16,16,48,,40,40,12,23,4,4,0.5,0.6
2025-08-02T1500,3304A,113.5342,22.7896,广州市,南沙街,,21,21,27,8,13,48,,44,44,11,16,4,4,0.4,0.5
2025-08-02T1500,3443A,113.2902,23.5544,广州市,花都梯面,,19,18,27,10,17,60,,70,70,11,22,5,5,0.6,0.7
2025-08-02T1500,3445A,113.7858,23.7478,广州市,从化良口,,20,20,27,14,19,63,,55,55,6,11,4,4,0.6,0.6
2025-08-02T1500,3446A,113.8051,23.2614,广州市,增城荔城,,,14,24,7,13,34,,31,31,12,16,6,7,,1.1
2025-08-02T1500,2505A,109.568,23.1478,贵港市,德智高中,,,,,,,,,,,,,,,,
2025-08-02T1500,2506A,109.6047,23.0666,贵港市,江南子站,,20,,26,10,25,63,,42,42,4,11,6,8,0.6,0.6
2025-08-02T1500,2508A,109.5669,23.1065,贵港市,荷城子站,,18,6,18,3,10,57,,44,44,4,10,7,9,0.3,0.5
2025-08-02T1500,3405A,109.5886,23.1172,贵港市,新世纪学校,,20,,21,3,15,64,,48,48,6,11,1,3,0.4,0.5
2025-08-02T1500,4260A,109.5933,23.0951,贵港市,中山路155-3号,,21,,28,10,17,67,,48,48,5,11,3,4,0.5,0.7
2025-08-02T1500,1439A,106.6899,26.5998,贵阳市,马鞍山,臭氧1小时,58,19,19,9,8,166,,92,92,8,12,3,3,0.6,0.6
2025-08-02T1500,1441A,106.6243,26.6266,贵阳市,鉴湖路,臭氧1小时,57,41,36,9,9,165,,98,98,11,14,7,7,0.2,0.2
2025-08-02T1500,1442A,106.7487,26.6343,贵阳市,燕子冲,,49,,21,22,23,155,,100,100,8,16,14,10,0.4,0.6
2025-08-02T1500,1443A,106.6555,26.4365,贵阳市,碧云窝,,48,34,36,7,15,152,,96,96,8,16,5,5,0.1,0.1
2025-08-02T1500,1445A,106.7109,26.6027,贵阳市,红边门,臭氧1小时,64,19,28,14,18,171,,103,103,11,21,8,6,0.2,0.3
2025-08-02T1500,1446A,106.7164,26.5699,贵阳市,新华路,,47,34,34,9,16,150,,105,105,9,20,69,21,0.3,0.4
2025-08-02T1500,1447A,106.674,26.5424,贵阳市,太慈桥,臭氧1小时,72,29,21,12,11,177,,109,109,13,18,5,4,0.1,0.1
2025-08-02T1500,1552A,106.805,26.3003,贵阳市,桐木岭,,36,29,31,19,19,113,,87,87,7,6,9,7,0.5,0.7
2025-08-02T1500,4230A,106.6882,26.5695,贵阳市,花果园大街66号,臭氧1小时,69,,20,16,20,175,,101,101,11,21,4,4,0.4,0.5
2025-08-02T1500,4231A,106.6873,26.5169,贵阳市,漓江路57号,臭氧1小时,65,24,29,14,16,172,,108,108,7,19,4,5,0.3,0.4
2025-08-02T1500,1862A,110.4144,25.3167,桂林市,电子科大尧山校区,,,,,,,,,,,,,,,,
2025-08-02T1500,1864A,110.3089,25.2708,桂林市,龙隐路小学,,31,17,23,11,13,98,,77,77,6,12,4,10,0.2,0.3
2025-08-02T1500,1865A,110.2869,25.2178,桂林市,八中,,33,14,23,10,12,104,,79,79,5,9,6,7,0.4,0.4
2025-08-02T1500,3531A,110.296,25.1253,桂林市,旅游学院,,30,,14,9,12,94,,71,71,2,5,5,7,0.4,0.4
2025-08-02T1500,4222A,110.1835,25.2444,桂林市,环湖路276号,,32,14,22,9,14,100,,78,78,3,8,5,16,0.4,0.4
2025-08-02T1500,4301A,110.2803,25.2773,桂林市,信义路13号,,34,17,26,11,17,108,,82,82,4,10,5,6,0.5,0.5
2025-08-02T1500,2674A,100.2561,34.4714,果洛藏族自治州,玛沁县大武镇,,29,22,20,14,9,91,,90,90,1,2,3,9,0.2,0.2
2025-08-02T1500,1129A,126.5422,45.755,哈尔滨市,岭北,,44,19,28,14,18,138,,124,124,8,26,10,9,0.8,0.8
2025-08-02T1500,1130A,126.561,45.8167,哈尔滨市,松北商大,,35,28,36,16,13,111,,96,96,6,31,7,7,0.5,0.5
2025-08-02T1500,1131A,126.979,45.5419,哈尔滨市,阿城会宁,,36,33,47,17,18,113,,94,94,5,23,6,6,0.5,0.5
2025-08-02T1500,1132A,126.599,45.7222,哈尔滨市,南岗学府路,,35,35,48,11,15,109,,96,96,7,36,9,9,0.7,0.8
2025-08-02T1500,1133A,126.689,45.7733,哈尔滨市,太平宏伟公园,,33,32,44,13,15,104,,92,92,6,28,8,8,0.5,0.6
2025-08-02T1500,1134A,126.635,45.7667,哈尔滨市,道外承德广场,,39,39,50,15,13,96,,84,84,10,29,9,7,0.6,0.7
2025-08-02T1500,1135A,126.685,45.7319,哈尔滨市,香坊红旗大街,,34,27,50,12,20,107,,94,94,15,34,9,10,0.6,0.8
2025-08-02T1500,1136A,126.6411,45.7258,哈尔滨市,动力和平路,,,43,52,,11,114,,100,100,8,34,8,9,0.7,0.7
2025-08-02T1500,1137A,126.593,45.7478,哈尔滨市,道里建国路,,38,38,46,21,16,118,,105,105,7,37,15,13,1.0,1.9
2025-08-02T1500,1138A,126.615,45.61,哈尔滨市,平房东轻厂,,,,51,,15,,,64,,,37,,9,,0.5
2025-08-02T1500,1139A,126.595,45.9855,哈尔滨市,呼兰师专,,42,42,43,17,14,116,,94,94,10,33,11,10,0.4,0.6
2025-08-02T1500,1140A,126.6206,45.6842,哈尔滨市,省农科院,,40,40,62,16,20,95,,82,82,27,54,15,14,0.5,0.6
2025-08-02T1500,2688A,93.5128,42.8172,哈密市,地区监测站,,41,39,43,22,22,130,,105,105,5,12,4,5,0.4,0.4
2025-08-02T1500,2689A,93.4961,42.8328,哈密市,哈密师范学校,,40,15,44,11,16,127,,102,102,5,14,5,6,0.2,0.4
2025-08-02T1500,2671A,100.9048,36.9639,海北藏族自治州,海晏县西海镇,,39,31,42,23,30,123,,102,102,2,6,8,9,0.6,0.6
2025-08-02T1500,3867A,102.0738,36.5056,海东市,平安区公安北苑,,45,29,39,23,28,142,,96,96,2,5,9,9,0.6,0.7
2025-08-02T1500,1409A,110.576,19.9507,海口市,东寨港,,21,21,19,10,10,42,,42,42,3,5,11,9,0.3,0.4
2025-08-02T1500,1410A,110.3232,20.0574,海口市,海南大学,,27,23,27,15,15,85,,55,55,5,8,3,3,0.4,0.4
2025-08-02T1500,1411A,110.283,20.0053,海口市,秀英海南医院,,27,27,31,12,15,69,,46,46,10,14,6,5,0.3,0.3
2025-08-02T1500,1412A,110.338,19.9969,海口市,海南师范大学,,28,28,23,12,13,78,,46,46,6,9,3,3,0.4,0.4
2025-08-02T1500,1413A,110.33,20.0356,海口市,龙华路环保局宿舍,,26,26,24,15,15,82,,53,53,6,10,5,5,0.3,0.3
2025-08-02T1500,3539A,110.5111,19.9736,海口市,桂林洋子站,,23,23,26,14,12,51,,46,46,4,8,5,4,0.3,0.3
2025-08-02T1500,2673A,100.6188,36.2866,海南藏族自治州,共和县恰卜恰镇,,37,28,43,18,27,118,,105,105,4,7,8,13,0.6,0.6
2025-08-02T1500,2676A,97.3731,37.3753,海西蒙古族藏族自治州,德令哈市,,39,38,38,13,14,122,,111,111,1,3,16,17,0.5,0.6
2025-08-02T1500,1048A,114.5302,36.6116,邯郸市,东污水处理厂,,48,46,50,3,12,151,,135,135,2,13,4,6,0.3,0.3
2025-08-02T1500,1049A,114.4918,36.5713,邯郸市,矿院,臭氧1小时,53,22,33,12,15,162,,149,149,3,9,5,5,0.3,0.3
2025-08-02T1500,1050A,114.484,36.6133,邯郸市,丛台公园,臭氧1小时,54,30,36,18,16,163,,150,150,4,12,5,6,0.3,0.4
2025-08-02T1500,3458A,114.7895,36.5593,邯郸市,香泉濮院小区,,45,27,49,3,8,141,,125,125,3,10,2,3,0.4,0.4
2025-08-02T1500,3579A,114.50634,36.77178,邯郸市,永年区实验高中,臭氧1小时,57,47,55,21,26,165,,139,139,6,17,3,4,0.2,0.3
2025-08-02T1500,3580A,114.20016,36.44293,邯郸市,峰峰矿区临水派出所,臭氧1小时,90,40,48,12,9,192,,168,168,2,8,3,5,0.2,0.3
2025-08-02T1500,2634A,106.9893,33.1842,汉中市,汉川机床厂子校,,42,22,25,17,20,134,,113,113,5,11,4,4,0.4,0.4
2025-08-02T1500,2635A,107.0154,33.0706,汉中市,市监测站,,,33,27,,18,135,,116,116,4,7,6,6,0.4,0.4
2025-08-02T1500,2636A,107.0089,33.1138,汉中市,鑫源开发区,,39,26,22,12,14,124,,108,108,3,8,6,6,0.5,0.5
2025-08-02T1500,2637A,107.007,33.0323,汉中市,南郑大河坎水厂,,43,26,25,16,16,136,,115,115,4,9,9,7,0.4,0.4
2025-08-02T1500,1223A,120.2072,30.2111,杭州市,滨江,,42,42,42,22,24,100,,100,100,18,26,6,6,0.7,0.7
2025-08-02T1500,1224A,120.0633,30.2747,杭州市,西溪,,40,34,29,28,24,88,,83,83,9,16,4,5,0.6,0.6
2025-08-02T1500,1226A,120.3417,30.3150,杭州市,下沙,,31,31,35,19,22,98,,108,108,27,25,4,5,0.5,0.5
2025-08-02T1500,1227A,120.1269,30.2456,杭州市,卧龙桥,,42,36,31,29,24,95,,81,81,4,10,7,7,0.5,0.5
2025-08-02T1500,1228A,120.1903,30.2692,杭州市,浙江农大,颗粒物(PM10),52,53,47,26,25,91,,83,83,14,25,5,5,0.5,0.5
2025-08-02T1500,1230A,120.1197,30.3119,杭州市,和睦小学,,36,36,30,23,18,102,,100,100,13,23,5,5,0.6,0.6
2025-08-02T1500,1231A,120.3019,30.4183,杭州市,临平镇,,33,19,46,16,23,105,,98,98,12,17,5,6,0.5,0.5
2025-08-02T1500,1232A,120.2753,30.1839,杭州市,城厢镇,,46,40,50,32,29,136,,112,112,5,16,6,6,0.6,0.7
2025-08-02T1500,1233A,120.0883,30.1808,杭州市,云栖,,35,35,36,23,17,77,,83,83,10,14,9,9,0.7,0.7
2025-08-02T1500,3557A,119.9464,30.0494,杭州市,镇二中,,43,38,38,30,33,85,,87,87,16,21,4,4,0.5,0.6
2025-08-02T1500,3558A,119.7183,30.2367,杭州市,市府大楼,,34,34,31,23,21,74,,61,61,6,11,6,7,0.5,0.5
2025-08-02T1500,3656A,120.1556,30.2864,杭州市,消防大队,,39,37,32,27,25,91,,82,82,9,23,6,6,0.6,0.6
2025-08-02T1500,1270A,117.1959,31.7848,合肥市,明珠广场,,30,12,8,12,6,94,,73,73,9,11,5,5,0.4,0.6
2025-08-02T1500,1271A,117.3072,31.8764,合肥市,三里街,,29,17,7,14,6,90,,67,67,5,9,5,4,0.4,0.6
2025-08-02T1500,1272A,117.2588,31.8707,合肥市,琥珀山庄,,,14,13,14,11,,,57,,5,9,7,7,0.7,0.8
2025-08-02T1500,1273A,117.1604,31.9052,合肥市,董铺水库,,25,17,12,17,8,80,,63,63,2,4,4,4,0.2,0.3
2025-08-02T1500,1274A,117.25,31.8571,合肥市,长江中路,,30,17,12,7,6,96,,73,73,4,8,6,5,0.5,0.6
2025-08-02T1500,1275A,117.266,31.9436,合肥市,庐阳区,,30,17,11,14,7,94,,72,72,2,5,9,8,0.5,0.7
2025-08-02T1500,1276A,117.3453,31.8616,合肥市,瑶海区,,29,19,8,12,6,92,,70,70,6,10,6,6,0.5,0.7
2025-08-02T1500,1277A,117.3027,31.7964,合肥市,包河区,,29,14,7,9,6,90,,70,70,10,20,5,6,0.6,0.7
2025-08-02T1500,1278A,117.2776,31.7385,合肥市,滨湖新区,,30,22,10,17,12,96,,70,70,6,12,8,8,0.5,0.6
2025-08-02T1500,1279A,117.1318,31.8403,合肥市,高新区,,30,14,10,12,6,96,,76,76,5,10,5,5,0.5,0.6
2025-08-02T1500,3464A,117.3803,31.9147,合肥市,高教基地,,27,22,10,11,16,85,,66,66,6,9,5,6,0.5,0.5
2025-08-02T1500,3614A,79.924,37.0877,和田地区,地区环保局,,32,22,281,9,91,101,,84,84,8,12,1,3,0.2,0.2
2025-08-02T1500,3615A,79.9131,37.113,和田地区,市环保局,,27,,258,18,80,86,,64,64,8,18,2,2,0.2,0.2
2025-08-02T1500,2516A,108.2011,24.715,河池市,东仁乐园,,,,,,,,,,,,,,,,
2025-08-02T1500,2517A,108.0497,24.6947,河池市,市环保站,,,48,26,22,11,109,,79,79,,6,4,4,0.5,0.5
2025-08-02T1500,2518A,108.0983,24.6989,河池市,市疾控中心,,40,24,18,18,12,125,,88,88,7,9,4,5,0.6,0.5
2025-08-02T1500,1696A,114.6778,23.7569,河源市,源西,,14,6,26,3,17,42,,59,57,5,7,3,3,0.5,0.6
2025-08-02T1500,1697A,114.6944,23.7586,河源市,东埔,,15,13,24,10,15,40,,63,57,7,11,4,4,0.4,0.5
2025-08-02T1500,1698A,114.6892,23.7233,河源市,老城,,13,9,27,6,22,39,,59,53,6,10,4,5,0.4,0.5
2025-08-02T1500,1718A,115.4208,35.2464,菏泽市,气象局,,38,24,27,17,15,119,,87,87,3,11,2,3,0.3,0.3
2025-08-02T1500,3374A,115.5564,35.0891,菏泽市,定陶老年大学,,33,14,25,9,10,105,,81,81,4,12,1,2,0.2,0.3
2025-08-02T1500,4184A,115.4797,35.24401,菏泽市,永昌路1号,,37,34,30,16,18,117,,84,84,6,16,5,6,0.0,0.1
2025-08-02T1500,4193A,115.4715,35.2800,菏泽市,长城路999号,,38,38,28,11,12,118,,82,82,5,14,4,5,0.3,0.4
2025-08-02T1500,2514A,111.5264,24.4172,贺州市,环保小区,,20,20,25,9,15,63,,57,57,9,9,10,11,0.9,0.9
2025-08-02T1500,2515A,111.5608,24.4078,贺州市,政协大楼,,21,10,20,9,15,67,,64,64,5,8,10,12,0.6,0.6
2025-08-02T1500,3534A,111.4744,24.4553,贺州市,西湾,,20,20,24,12,16,50,,57,57,6,9,10,10,0.4,0.5
2025-08-02T1500,2385A,114.17,35.9019,鹤壁市,市监测站,,49,,40,26,34,156,,138,138,4,9,4,7,0.6,0.7
2025-08-02T1500,2386A,114.2956,35.7511,鹤壁市,市交警支队,,46,,40,32,37,129,,108,108,6,15,6,9,0.5,0.6
2025-08-02T1500,2387A,114.2878,35.7306,鹤壁市,迎宾馆,,42,,46,29,28,123,,111,111,7,16,4,6,0.6,0.7
2025-08-02T1500,3474A,114.2617,35.6822,鹤壁市,大新区,,40,35,42,21,25,126,,112,112,1,7,6,7,0.5,0.6
2025-08-02T1500,3596A,114.1572,35.9603,鹤壁市,南山宾馆,臭氧1小时,55,34,54,18,25,164,,150,150,4,10,4,6,0.5,0.6
2025-08-02T1500,2244A,130.2537,47.3416,鹤岗市,哈啤分公司,,28,11,19,7,7,89,,76,76,4,6,12,12,0.6,0.7
2025-08-02T1500,2245A,130.2684,47.3086,鹤岗市,斯达机电,,,,20,,10,,,63,63,,8,,12,,0.4
2025-08-02T1500,2246A,130.3114,47.3388,鹤岗市,东山纸板厂,,33,33,19,3,6,91,,79,79,7,14,10,12,0.4,0.9
2025-08-02T1500,2247A,130.1097,47.3382,鹤岗市,五号水库,,26,8,7,3,4,81,,76,76,12,9,9,10,0.2,0.2
2025-08-02T1500,2263A,127.4833,50.2524,黑河市,交通局,,18,15,20,3,7,55,,54,54,7,9,6,7,0.4,0.4
2025-08-02T1500,2264A,127.5144,50.2341,黑河市,环保局,,24,24,24,8,10,54,,51,51,8,12,4,5,0.4,0.5
2025-08-02T1500,2265A,127.5291,50.2472,黑河市,大黑河岛,,,,3,11,7,44,,33,33,5,7,27,26,,
2025-08-02T1500,1074A,115.6838,37.7541,衡水市,电机北厂,,39,25,39,10,18,124,,107,107,3,11,4,7,0.2,0.4
2025-08-02T1500,1075A,115.6303,37.7316,衡水市,市监测站,,42,27,31,17,13,134,,114,114,1,7,5,6,0.2,0.3
2025-08-02T1500,3188A,115.6683,37.7217,衡水市,市城管局,,41,17,30,16,19,129,,109,109,2,9,8,12,0.2,0.3
2025-08-02T1500,3459A,115.5989,37.5491,衡水市,地表水厂,,42,40,50,8,12,133,,106,106,2,16,8,9,0.2,0.2
2025-08-02T1500,2456A,112.5003,26.9167,衡阳市,原169医院,,38,29,36,16,21,119,,100,100,3,15,4,6,0.5,0.6
2025-08-02T1500,2457A,112.6194,26.9258,衡阳市,衡阳化工总厂,,33,,45,19,28,105,,93,93,4,12,5,6,0.7,0.8
2025-08-02T1500,2458A,112.6211,26.8956,衡阳市,珠晖区环保局,,37,22,37,21,22,116,,99,99,1,11,6,8,0.5,0.6
2025-08-02T1500,2459A,112.6197,26.8733,衡阳市,市委党校,,35,,31,22,22,112,,93,93,3,10,8,10,0.5,0.5
2025-08-02T1500,2460A,112.6006,26.8919,衡阳市,市监测站,,36,36,39,21,23,112,,94,94,4,10,4,8,0.6,0.7
2025-08-02T1500,2461A,112.5664,26.9056,衡阳市,真空机电公司,,41,41,42,24,26,113,,92,92,3,11,6,9,1.2,1.1
2025-08-02T1500,3399A,112.6703,26.882,衡阳市,师范学院,,39,39,40,18,23,110,,91,91,7,9,6,6,0.7,0.8
2025-08-02T1500,2608A,103.3772,23.3993,红河哈尼族彝族自治州,污水处理厂,,40,28,26,28,23,126,,86,86,6,10,16,17,0.0,0.1
2025-08-02T1500,2609A,103.3861,23.35,红河哈尼族彝族自治州,监测站,,31,28,32,14,17,99,,88,88,3,5,10,10,0.1,0.1
2025-08-02T1500,3038A,103.3758,23.368,红河哈尼族彝族自治州,州图书馆,,35,22,21,21,16,112,,90,90,5,6,5,4,0.3,0.2
2025-08-02T1500,1090A,111.6507,40.7517,呼和浩特市,呼市一监,,35,27,30,13,22,111,,108,108,13,12,7,7,0.6,0.7
2025-08-02T1500,1091A,111.6572,40.8033,呼和浩特市,小召,颗粒物(PM10),54,58,34,10,22,102,,103,103,16,17,8,8,0.6,0.7
2025-08-02T1500,1094A,111.7516,40.8369,呼和浩特市,如意水处理厂,,45,44,37,31,22,113,,116,116,20,14,5,5,0.6,0.5
2025-08-02T1500,1095A,111.7276,40.8062,呼和浩特市,二十九中,,,,35,,21,,,128,,,10,,5,,0.6
2025-08-02T1500,1096A,111.5512,40.7866,呼和浩特市,工大金川校区,,35,35,36,7,22,93,,107,107,11,14,5,5,0.5,0.7
2025-08-02T1500,1097A,111.717,40.7612,呼和浩特市,化肥厂生活区,,,,47,,24,,,143,,,15,,7,,0.6
2025-08-02T1500,3698A,111.5968,40.8178,呼和浩特市,红旗小学,,34,12,32,6,21,106,,123,123,12,20,3,4,0.5,0.6
2025-08-02T1500,3699A,111.6518,40.8389,呼和浩特市,海东办,,37,7,31,7,20,116,,122,122,13,17,4,5,0.4,0.6
2025-08-02T1500,2192A,119.7594,49.2261,呼伦贝尔市,区环保局,,23,17,26,16,18,70,,58,58,8,13,10,10,0.2,0.2
2025-08-02T1500,3061A,119.7512,49.1577,呼伦贝尔市,国华电力东,,22,16,16,3,8,69,,64,64,4,7,8,8,0.3,0.3
2025-08-02T1500,1250A,120.0751,30.8669,湖州市,城西水厂,,,17,32,14,22,79,,52,52,,19,6,6,0.6,0.5
2025-08-02T1500,2873A,120.0830,30.8929,湖州市,仁皇山新区,,27,16,33,14,21,86,,54,54,9,19,4,3,0.6,0.6
2025-08-02T1500,2907A,120.1844,30.8596,湖州市,吴兴区站,,,,50,11,22,87,,49,49,4,18,6,6,0.6,0.6
2025-08-02T1500,3562A,120.4148,30.8538,湖州市,南浔区站,,,,29,,26,,,94,,,12,,6,,0.5
2025-08-02T1500,1607A,120.9049,40.7211,葫芦岛市,龙港区,,26,26,23,16,15,76,,76,76,4,5,4,4,0.5,0.5
2025-08-02T1500,1608A,120.8392,40.7514,葫芦岛市,化工街,,29,22,16,9,9,91,,79,79,7,12,6,6,0.4,0.4
2025-08-02T1500,1609A,120.8341,40.7073,葫芦岛市,新区,,27,12,20,11,12,84,,78,78,3,6,2,2,0.6,0.7
2025-08-02T1500,1610A,120.8695,40.7677,葫芦岛市,东城区,,30,22,22,10,13,96,,88,88,7,12,2,3,0.6,0.6
2025-08-02T1500,2482A,109.5981,27.5721,怀化市,林科所,,36,31,33,10,13,113,,102,102,6,10,4,5,0.1,0.4
2025-08-02T1500,2483A,109.9453,27.5444,怀化市,河西地税局,,39,24,32,19,22,122,,94,94,4,12,3,2,0.2,0.2
2025-08-02T1500,2484A,109.9781,27.5342,怀化市,市四医院,,43,32,44,30,25,115,,96,96,3,13,8,6,0.3,0.3
2025-08-02T1500,2485A,109.9972,27.5578,怀化市,监测楼,,37,34,38,23,22,118,,102,102,3,9,5,4,0.1,0.2
2025-08-02T1500,2486A,110.0394,27.583,怀化市,市委党校,,38,34,37,17,23,121,,104,104,4,12,7,10,0.1,0.2
2025-08-02T1500,1210A,119.036,33.5981,淮安市,钵池山,,26,,5,10,9,82,,60,60,7,9,7,7,0.8,0.7
2025-08-02T1500,1211A,119.007,33.575,淮安市,北京南路,,25,7,6,3,6,79,,60,60,8,12,6,6,0.7,0.6
2025-08-02T1500,1212A,118.989,33.6067,淮安市,市监测站,,27,,7,14,8,84,,66,66,6,8,8,8,0.8,0.7
2025-08-02T1500,1213A,119.135,33.5039,淮安市,楚州区监测站,,23,12,14,3,5,72,,55,55,3,5,6,6,0.6,0.4
2025-08-02T1500,3426A,118.8755,33.2894,淮安市,新华书店,,26,,3,8,6,82,,68,65,6,7,7,7,0.5,0.4
2025-08-02T1500,4206A,119.0288,33.6319,淮安市,承德北路606号,,24,,6,7,6,76,,57,57,6,11,5,5,0.7,0.6
2025-08-02T1500,2282A,116.8004,33.975,淮北市,监测站,,29,22,15,11,16,90,,77,77,4,7,6,6,0.6,0.6
2025-08-02T1500,2283A,116.8091,33.9007,淮北市,烈山区政府,,29,19,18,6,6,90,,81,81,4,4,5,6,0.5,0.5
2025-08-02T1500,3330A,116.8873,33.9836,淮北市,杜集区检察院,,27,16,16,10,13,86,,72,72,4,6,6,6,0.7,0.7
2025-08-02T1500,4017A,116.7923,33.9535,淮北市,市博物馆,,30,24,18,14,13,96,,79,79,4,5,8,8,0.5,0.5
2025-08-02T1500,2277A,116.8305,32.7727,淮南市,潘集区政府,,30,13,20,8,9,94,,75,75,4,8,2,2,0.4,0.4
2025-08-02T1500,2279A,116.8569,32.5951,淮南市,谢家集区政府,,31,18,15,6,9,98,,78,78,3,7,7,7,0.2,0.3
2025-08-02T1500,2280A,116.8281,32.633,淮南市,八公山区政府,,31,8,15,3,9,98,,77,77,4,9,6,6,0.2,0.3
2025-08-02T1500,2281A,116.6325,32.6201,淮南市,焦岗湖风景区管理处,,,,,,,,,,,,,,,,
2025-08-02T1500,2894A,117.0566,32.6531,淮南市,经济技术开发区消防队,,30,6,10,3,4,96,,73,73,5,10,8,8,0.2,0.3
2025-08-02T1500,3329A,117.0108,32.5893,淮南市,山南新区,,32,8,6,3,6,100,,78,78,4,7,9,9,0.5,0.6
2025-08-02T1500,4209A,117.0031,32.6445,淮南市,国庆中路369号,,32,,18,3,17,101,,77,77,3,8,12,13,0.3,0.4
2025-08-02T1500,2446A,114.9028,30.4742,黄冈市,职工中心,,50,18,22,13,13,159,,123,123,1,2,9,8,0.5,0.6
2025-08-02T1500,2929A,114.8858,30.4519,黄冈市,红卫路,臭氧1小时,80,20,18,19,15,184,,132,132,2,2,11,9,0.6,0.5
2025-08-02T1500,3398A,114.9136,30.4445,黄冈市,市林业局,臭氧1小时,84,25,21,14,12,187,,134,134,4,3,9,7,0.7,0.5
2025-08-02T1500,2672A,102.0199,35.5102,黄南藏族自治州,同仁县隆务镇,,35,,40,13,17,112,,100,100,7,5,9,9,0.3,0.6
2025-08-02T1500,2295A,118.2903,29.6963,黄山市,延安路89号,,26,16,32,9,15,83,,53,53,1,7,3,4,0.5,0.5
2025-08-02T1500,2297A,118.1371,30.2756,黄山市,黄山区政府5号楼,,23,15,22,9,10,72,,56,56,2,4,4,4,0.4,0.4
2025-08-02T1500,4210A,118.3354,29.7203,黄山市,滨江东路7-2号,,27,22,31,10,10,84,,57,57,2,8,2,2,0.5,0.6
2025-08-02T1500,2423A,115.0601,30.2313,黄石市,沈家营,,50,34,48,16,9,159,,112,112,2,3,7,7,0.3,0.2
2025-08-02T1500,2426A,114.8988,30.2019,黄石市,铁山,,47,23,28,14,10,149,,,,6,13,6,6,0.6,0.5
2025-08-02T1500,2427A,115.0307,30.2092,黄石市,团城山,,50,25,32,7,6,158,,113,113,2,5,7,7,0.3,0.3
2025-08-02T1500,3149A,115.0235,30.1578,黄石市,笔架山北路,,46,18,32,6,8,147,,111,111,3,8,7,8,0.3,0.4
2025-08-02T1500,4185A,115.0780,30.21118,黄石市,磁湖东路29号,,47,17,45,17,11,149,,118,118,2,3,7,7,0.6,0.5
2025-08-02T1500,1392A,114.4183,23.0528,惠州市,河南岸金山湖子站,,14,8,25,3,15,42,,37,37,10,16,6,8,0.6,0.7
2025-08-02T1500,1393A,114.4053,23.0822,惠州市,下埔横江三路子站,,15,10,25,7,18,46,,39,39,8,14,4,5,0.3,0.4
2025-08-02T1500,1394A,114.4103,23.1142,惠州市,江北云山西路子站,,16,9,25,6,15,49,,48,48,10,16,6,9,0.5,0.6
2025-08-02T1500,1395A,114.4645,22.7833,惠州市,惠阳区承修路船湖子站,,12,10,30,6,16,38,,37,37,12,19,6,7,0.5,0.7
2025-08-02T1500,1396A,114.5317,22.7422,惠州市,大亚湾管委会子站,,,10,21,3,12,40,,35,35,,13,6,7,0.5,0.5
2025-08-02T1500,3314A,114.4338,22.8134,惠州市,惠阳秋长,,18,17,30,12,18,36,,32,32,18,23,3,4,0.5,0.5
2025-08-02T1500,3452A,114.6517,22.775,惠州市,大亚湾霞涌,,15,9,19,6,9,48,,46,46,8,11,5,5,0.6,0.6
2025-08-02T1500,2240A,130.9762,45.3001,鸡西市,环保局,,39,22,17,10,7,122,,109,109,8,13,6,6,0.3,0.2
2025-08-02T1500,2243A,130.9429,45.3039,鸡西市,第一中学,,36,19,19,10,10,113,,104,104,10,16,10,10,0.3,0.3
2025-08-02T1500,3707A,131.0207,45.3073,鸡西市,欧美日汽修厂,,33,21,24,10,10,105,,99,99,7,24,8,10,0.4,0.4
2025-08-02T1500,3709A,130.9967,45.3106,鸡西市,市政设施管理处,,37,22,25,9,10,116,,104,104,9,23,6,6,0.2,0.3
2025-08-02T1500,2367A,114.9754,27.0803,吉安市,红声器材厂,,37,26,31,16,16,117,,89,89,1,5,8,9,0.5,0.5
2025-08-02T1500,2368A,114.9658,27.0999,吉安市,市森林工业局,,39,25,30,16,17,124,,96,96,1,5,8,10,0.6,0.5
2025-08-02T1500,2369A,114.99,27.1312,吉安市,市环境监测站,,42,25,27,19,16,132,,102,102,1,4,13,16,0.4,0.5
2025-08-02T1500,2370A,115.0093,27.0968,吉安市,青原区法院,,40,27,30,14,18,128,,92,92,3,8,7,8,0.5,0.5
2025-08-02T1500,1772A,126.54,43.8622,吉林市,哈达湾,,35,25,22,13,12,111,,99,99,3,9,7,7,0.5,0.5
2025-08-02T1500,1773A,126.5844,43.8358,吉林市,东局子,,32,30,50,22,12,98,,84,84,3,6,5,5,0.7,0.8
2025-08-02T1500,1774A,126.5052,43.8245,吉林市,电力学院,,35,25,22,16,16,109,,98,98,9,10,5,5,0.5,0.6
2025-08-02T1500,1775A,126.6133,43.8972,吉林市,江北,,31,29,18,16,12,98,,90,90,3,5,3,4,0.4,1
2025-08-02T1500,1776A,126.555,43.8306,吉林市,江南公园,,35,23,20,22,11,112,,99,99,5,7,2,2,0.3,0.3
2025-08-02T1500,1778A,126.7061,43.7133,吉林市,丰满,,40,15,12,14,9,127,,106,106,5,3,4,4,0.6,0.6
2025-08-02T1500,2868A,126.4739,43.953,吉林市,九站,,36,19,24,17,16,113,,102,102,3,10,2,2,0.5,0.5
2025-08-02T1500,1299A,116.9862,36.6114,济南市,科干所,,37,19,23,10,13,117,,85,85,10,15,6,6,0.3,0.5
2025-08-02T1500,1300A,116.9376,36.665,济南市,农科所,,45,32,31,10,11,144,,89,89,10,23,8,8,0.3,0.3
2025-08-02T1500,1301A,117.1265,36.6734,济南市,开发区,,41,24,23,12,13,129,,83,83,11,17,8,8,0.6,0.7
2025-08-02T1500,1303A,117.0624,36.6868,济南市,省种子仓库,,48,27,30,7,10,152,,99,99,16,19,7,6,0.5,0.5
2025-08-02T1500,1304A,116.9489,36.6447,济南市,机床二厂,,45,27,41,7,11,144,,90,90,10,24,10,10,0.3,0.4
2025-08-02T1500,1305A,117.0495,36.663,济南市,市监测站,,40,27,22,10,12,126,,85,85,14,18,9,9,0.5,0.6
2025-08-02T1500,1306A,116.7675,36.5484,济南市,长清党校,,45,22,26,20,17,143,,99,99,8,21,5,5,0.5,0.5
2025-08-02T1500,1616A,117.6795,36.229,济南市,技术学院,,26,6,9,3,7,82,,60,60,3,10,7,6,0.4,0.5
2025-08-02T1500,1961A,117.532,36.6868,济南市,东山小学,,42,32,27,10,11,133,,76,76,6,19,8,7,0.2,0.3
2025-08-02T1500,3059A,117.7161,36.2049,济南市,泰兴公司,,21,7,11,3,6,65,,47,47,2,9,9,8,0.4,0.4
2025-08-02T1500,3064A,117.6867,36.2171,济南市,莱芜战役纪念馆,,,9,15,6,8,72,,49,49,6,11,,4,0.3,0.7
2025-08-02T1500,3494A,117.1673,36.9782,济南市,济阳区政府,,39,32,35,12,14,124,,99,99,4,13,7,8,0.2,0.4
2025-08-02T1500,3495A,117.1171,36.63,济南市,锦屏中学,,35,15,18,3,8,112,,70,70,7,11,6,6,0.7,0.8
2025-08-02T1500,3682A,116.9814,36.6819,济南市,济南四建,,47,24,33,15,14,149,,92,92,10,22,6,6,0.5,0.6
2025-08-02T1500,1653A,116.6251,35.4302,济宁市,火炬城,,32,21,21,7,9,101,,65,65,4,9,4,6,0.4,0.5
2025-08-02T1500,1655A,116.5491,35.4042,济宁市,电化厂,,34,24,23,9,10,107,,72,72,1,6,1,2,0.6,0.6
2025-08-02T1500,3500A,116.5814,35.3707,济宁市,北湖一中,,35,18,21,11,8,109,,72,72,2,6,5,3,0.2,0.3
2025-08-02T1500,3501A,116.8249,35.5593,济宁市,服务中心,,32,16,18,3,3,100,,67,67,4,8,3,3,0.2,0.2
2025-08-02T1500,3678A,116.5907,35.4054,济宁市,市第七中学,,,36,22,3,4,101,,63,63,3,7,,4,0.3,0.3
2025-08-02T1500,2255A,130.2751,46.8028,佳木斯市,佳纺,,26,20,24,10,10,83,,78,78,7,21,8,8,0.5,0.5
2025-08-02T1500,2256A,130.3995,46.8307,佳木斯市,发电厂,,,16,21,8,10,88,,73,73,7,22,,6,0.4,0.4
2025-08-02T1500,2257A,130.3258,46.7975,佳木斯市,环保局,,25,24,25,10,12,80,,72,72,10,28,9,10,0.6,0.6
2025-08-02T1500,2258A,130.3648,46.8032,佳木斯市,十一中,,27,17,25,9,11,85,,76,76,6,25,9,9,0.4,0.5
2025-08-02T1500,2259A,130.3794,46.7588,佳木斯市,四丰,,,,,,,,,,,8,23,1,1,0.5,0.5
2025-08-02T1500,1252A,120.7436,30.778,嘉兴市,清河小学,颗粒物(PM10),51,52,54,28,24,152,,85,85,16,18,5,5,0.9,0.9
2025-08-02T1500,1253A,120.726,30.7478,嘉兴市,嘉兴学院,,48,47,45,27,29,152,,88,88,9,14,3,3,0.6,0.6
2025-08-02T1500,2872A,120.7846,30.7525,嘉兴市,南湖区残联,臭氧1小时,117,65,50,42,32,234,,97,97,14,17,4,5,0.8,0.7
2025-08-02T1500,3407A,120.6916,30.7739,嘉兴市,秀洲住建,,40,35,45,24,26,127,,77,77,13,22,4,5,0.6,0.6
2025-08-02T1500,1945A,98.2908,39.7711,嘉峪关市,气象局,,42,24,30,12,12,133,,98,98,3,18,8,11,0.8,0.9
2025-08-02T1500,2884A,98.2672,39.7978,嘉峪关市,酒钢宾馆,,44,27,44,12,17,140,,107,107,6,16,20,16,0.8,0.7
2025-08-02T1500,3248A,98.2643,39.7724,嘉峪关市,雄关区,,38,30,31,8,12,120,,91,91,6,18,8,9,0.2,0.5
2025-08-02T1500,1383A,113.1064,22.6058,江门市,北街,,25,25,29,15,17,37,,35,35,9,19,2,2,0.5,0.7
2025-08-02T1500,1384A,113.0731,22.5835,江门市,西区,,,,30,11,17,56,,43,43,10,26,7,6,0.8,0.6
2025-08-02T1500,1385A,113.0219,22.5311,江门市,圭峰西,,33,33,25,14,13,54,,43,43,8,8,4,4,0.5,0.4
2025-08-02T1500,1386A,113.0828,22.5947,江门市,东湖,,17,17,27,8,15,49,,37,37,10,20,7,6,0.4,0.5
2025-08-02T1500,3311A,113.1075,22.5647,江门市,江海富民,,47,47,38,18,13,52,,40,40,13,20,8,8,0.3,0.5
2025-08-02T1500,3449A,113.05,22.4667,江门市,新会银湖,,27,27,26,11,18,38,,30,30,6,17,2,2,0.4,0.5
2025-08-02T1500,1830A,113.1992,35.2590,焦作市,影视城,,,,,,,,,,,,,,,,
2025-08-02T1500,3335A,113.3137,35.2641,焦作市,马村街道办,细颗粒物(PM2.5),52,39,47,36,29,146,,121,121,8,14,9,7,0.7,0.7
2025-08-02T1500,3336A,113.2465,35.2373,焦作市,焦作技师学院,,41,32,44,14,16,131,,113,113,6,12,4,3,0.7,0.9
2025-08-02T1500,3477A,113.1656,35.2539,焦作市,中站许衡医院,,44,22,38,18,28,140,,127,127,5,13,6,8,0.5,0.6
2025-08-02T1500,3981A,113.2449,35.1803,焦作市,原李万街道办,,45,41,46,12,18,142,,116,116,9,13,8,10,0.7,0.8
2025-08-02T1500,4264A,113.2340,35.2190,焦作市,新安路1731号,,44,23,42,14,19,140,,122,122,3,9,4,6,0.4,0.5
2025-08-02T1500,4295A,113.2722,35.2121,焦作市,人民路3066号,,44,31,50,24,23,139,,111,111,4,9,4,7,0.5,0.6
2025-08-02T1500,1708A,116.3701,23.5345,揭阳市,新兴,,32,32,28,15,15,56,,52,52,5,17,3,5,0.4,0.6
2025-08-02T1500,1709A,116.3264,23.5443,揭阳市,西马,,26,26,35,8,16,47,,56,56,9,15,1,3,0.3,0.5
2025-08-02T1500,1710A,116.3611,23.5626,揭阳市,东兴,,19,19,28,8,13,46,,50,50,9,16,2,3,0.8,1
2025-08-02T1500,1711A,116.4151,23.5294,揭阳市,渔湖,,21,21,29,3,11,54,,49,49,5,20,8,8,0.4,0.5
2025-08-02T1500,3320A,116.403,23.5699,揭阳市,曲溪,,19,,29,13,15,54,,54,54,7,18,3,6,0.4,0.5
2025-08-02T1500,1944A,102.1692,38.5167,金昌市,天庆家园,,32,31,41,16,16,101,,70,70,13,15,26,16,1.0,0.9
2025-08-02T1500,4022A,102.1647,38.5371,金昌市,金川区人防中心,,39,39,44,13,16,115,,71,71,4,16,12,12,0.5,0.7
2025-08-02T1500,4239A,102.1930,38.5319,金昌市,长春路96号,,35,28,39,18,16,110,,77,77,2,11,15,15,0.2,0.6
2025-08-02T1500,1262A,119.647,29.077,金华市,十五中,,35,34,42,23,24,112,,114,114,10,17,3,3,0.2,0.3
2025-08-02T1500,1263A,119.686,29.1029,金华市,监测站,,38,33,45,20,27,120,,117,117,8,21,3,4,0.4,0.5
2025-08-02T1500,3659A,119.656,29.1131,金华市,气象局,,36,36,43,18,24,111,,110,110,6,17,4,4,0.6,0.6
2025-08-02T1500,1767A,121.1115,41.0879,锦州市,南山,,43,43,28,23,17,109,,88,88,2,13,4,3,0.5,0.5
2025-08-02T1500,1768A,121.0604,40.8428,锦州市,开发区,,30,30,41,11,15,74,,81,81,5,13,2,6,0.6,0.6
2025-08-02T1500,1769A,121.1836,41.1119,锦州市,百股街道,,33,30,25,12,7,104,,94,94,3,10,4,5,0.6,0.6
2025-08-02T1500,1770A,121.1178,41.1222,锦州市,天安街道,,37,31,30,18,17,117,,100,100,6,15,6,5,0.7,0.7
2025-08-02T1500,1771A,121.1303,41.1386,锦州市,北湖公园,,35,33,29,18,17,110,,94,94,4,11,3,4,0.6,0.6
2025-08-02T1500,2160A,112.85,35.5051,晋城市,自来水公司,颗粒物(PM10),57,64,53,24,25,155,,130,130,10,13,1,2,0.4,0.6
2025-08-02T1500,2161A,112.8318,35.4936,晋城市,白云商贸,,,65,47,17,19,151,,128,128,8,12,,3,0.4,0.6
2025-08-02T1500,2162A,112.8508,35.4887,晋城市,市环保局,,47,47,68,22,22,139,,116,116,4,8,2,2,0.4,0.5
2025-08-02T1500,2163A,112.8676,35.4897,晋城市,技术学院,,43,25,43,17,18,137,,112,112,6,11,4,4,0.5,0.6
2025-08-02T1500,2165A,112.8453,35.546,晋城市,白马寺,,49,21,33,20,30,155,,136,136,3,5,6,7,0.5,0.8
2025-08-02T1500,3620A,112.8271,35.4828,晋城市,泽州一中,颗粒物(PM10),58,65,52,22,22,157,,130,130,6,10,3,4,0.3,0.5
2025-08-02T1500,2173A,112.7249,37.7067,晋中市,南都小区,臭氧1小时,69,52,56,21,31,175,,135,135,4,9,6,4,0.8,0.7
2025-08-02T1500,2174A,112.6991,37.6982,晋中市,榆次区政府,臭氧1小时,74,44,51,16,26,179,,138,138,1,7,11,9,1.0,0.9
2025-08-02T1500,2865A,112.7195,37.6828,晋中市,榆次三中,臭氧1小时,78,48,47,31,29,182,,139,139,3,7,11,9,1.1,0.8
2025-08-02T1500,4200A,112.7478,37.6954,晋中市,迎宾街26号,臭氧1小时,80,46,49,31,28,184,,141,141,4,9,8,6,0.9,0.7
2025-08-02T1500,2439A,112.2014,31.0481,荆门市,竹园小学,,42,,42,29,29,5,,,,4,10,1,2,0.3,0.7
2025-08-02T1500,2440A,112.1969,30.9891,荆门市,掇刀,,39,,38,25,27,124,,120,120,3,6,8,8,0.5,0.6
2025-08-02T1500,2441A,112.2213,31.0386,荆门市,石化一小,,35,33,43,20,26,112,,114,114,2,8,4,5,0.7,0.9
2025-08-02T1500,3012A,112.1849,31.0362,荆门市,西山林语,,22,,38,15,22,3,,102,6,2,5,7,8,0.4,0.5
2025-08-02T1500,3547A,112.1632,31.0138,荆门市,龙泉中学南校,,37,24,33,12,24,117,,119,119,7,9,3,3,0.5,0.7
2025-08-02T1500,1844A,112.2494,30.3197,荆州市,市图书馆,,46,28,37,20,26,146,,122,122,4,16,2,3,0.5,0.6
2025-08-02T1500,1845A,112.2008,30.3544,荆州市,市委党校,,45,22,38,15,25,144,,122,122,10,15,8,9,0.6,0.6
2025-08-02T1500,3194A,112.2747,30.3122,荆州市,管委会,,42,26,34,22,26,133,,122,122,9,15,6,7,0.6,0.7
2025-08-02T1500,4268A,112.1722,30.3366,荆州市,学苑路85号,臭氧1小时,54,37,33,25,31,163,,131,131,9,10,4,6,0.5,0.5
2025-08-02T1500,2342A,117.3102,29.3867,景德镇市,王港中学,,,,,,,,,,,,,,,,
2025-08-02T1500,2343A,117.2117,29.2933,景德镇市,老干部活动中心,,38,20,31,19,19,120,,70,70,5,10,7,6,0.5,0.6
2025-08-02T1500,2344A,117.1894,29.2789,景德镇市,兽医站,,37,29,37,18,21,118,,67,67,6,10,5,5,0.5,0.6
2025-08-02T1500,2346A,117.2461,29.2956,景德镇市,陶研所,,38,32,38,24,22,121,,66,66,8,9,5,4,0.9,0.8
2025-08-02T1500,4289A,117.1542,29.2566,景德镇市,青少年活动中心,,36,36,32,19,25,108,,64,64,5,11,3,3,0.7,0.8
2025-08-02T1500,1803A,115.9872,29.6815,九江市,十里,,45,,22,19,24,143,,95,95,6,16,4,4,0.8,0.6
2025-08-02T1500,1804A,115.9584,29.7046,九江市,茅山头,,45,34,32,7,19,144,,92,92,7,13,5,4,0.5,0.6
2025-08-02T1500,1805A,115.9877,29.7295,九江市,西园,,49,21,31,7,15,155,,102,102,10,21,6,7,0.9,0.9
2025-08-02T1500,1808A,115.9114,29.6038,九江市,综合工业园,,48,28,31,17,18,151,,92,92,10,25,6,6,0.8,0.7
2025-08-02T1500,1809A,116.0721,29.7535,九江市,石化总厂,,48,36,33,29,29,152,,104,104,9,21,8,8,0.7,0.6
2025-08-02T1500,1810A,115.9773,29.5698,九江市,庐山气象台,,30,26,16,20,7,94,,83,83,7,6,6,6,0.6,0.8
2025-08-02T1500,3190A,116.0254,29.6994,九江市,外国语学校,,49,,22,24,21,156,,102,102,6,15,2,2,0.7,0.6
2025-08-02T1500,4253A,116.0102,29.6594,九江市,莲花大道8号,,47,,22,21,16,150,,95,95,2,4,4,4,0.7,0.6
2025-08-02T1500,4240A,98.4958,39.7339,酒泉市,玉门东路5号,,38,22,34,15,24,120,,104,104,2,10,7,8,0.3,0.3
2025-08-02T1500,4241A,98.5099,39.7506,酒泉市,北大街108号,,37,22,33,15,20,118,,98,98,1,9,8,9,0.3,0.3
2025-08-02T1500,2698A,76.0072,39.4467,喀什地区,巡警大队,颗粒物(PM10),53,55,93,18,20,129,,88,80,9,19,4,4,0.4,0.4
2025-08-02T1500,2699A,75.9755,39.4694,喀什地区,吾办,颗粒物(PM10),58,66,93,23,30,131,,84,78,12,19,7,7,0.3,0.4
2025-08-02T1500,4027A,75.9483,39.4689,喀什地区,老干局,颗粒物(PM10),58,65,89,17,20,130,,75,75,8,15,6,5,1.0,0.9
2025-08-02T1500,1824A,114.3389,34.7781,开封市,肿瘤医院,,42,42,30,14,17,114,,101,101,8,12,2,4,0.8,0.6
2025-08-02T1500,1826A,114.2885,34.7965,开封市,世纪星幼儿园,,38,25,40,11,14,120,,101,101,6,10,3,3,0.5,0.9
2025-08-02T1500,3147A,114.3438,34.8106,开封市,龙亭公园,,39,32,30,27,16,112,,92,92,1,6,4,3,0.6,0.6
2025-08-02T1500,3210A,114.3644,34.7964,开封市,汴京公园,,37,27,36,12,20,116,,97,97,3,9,3,4,0.5,0.5
2025-08-02T1500,3473A,114.2485,34.8306,开封市,技师学院,,37,30,30,14,16,117,,93,93,2,7,4,5,0.6,0.7
2025-08-02T1500,3592A,114.4644,34.7556,开封市,祥符区生态环境局,,,38,30,,20,130,,94,94,12,18,8,5,0.3,0.5
2025-08-02T1500,1951A,84.895,45.6094,克拉玛依市,长征新村,,36,22,30,3,11,114,,93,93,3,8,4,4,0.2,0.2
2025-08-02T1500,1952A,84.8988,45.5893,克拉玛依市,南林小区,,39,15,37,14,18,124,,97,97,2,14,4,4,0.2,0.1
2025-08-02T1500,1954A,84.905,44.3396,克拉玛依市,独山子区,,34,27,32,7,14,108,,94,94,6,10,8,9,0.5,0.5
2025-08-02T1500,1955A,85.6979,46.098,克拉玛依市,乌尔禾区商贸楼,,36,10,28,3,10,115,,73,73,1,19,7,6,0.2,0.3
2025-08-02T1500,3612A,85.1045,45.6899,克拉玛依市,白碱滩区新站,,36,20,32,9,16,113,,103,103,2,4,10,9,0,0
2025-08-02T1500,2697A,76.1454,39.7142,克孜勒苏柯尔克孜自治州,市人民政府,颗粒物(PM10),52,53,61,25,29,140,,116,102,6,8,4,4,0.1,0.1
2025-08-02T1500,3665A,76.1658,39.7157,克孜勒苏柯尔克孜自治州,克州文化中心,颗粒物(PM10),58,65,68,23,26,137,,113,105,4,4,5,6,0.4,0.4
2025-08-02T1500,1450A,102.8204,24.8886,昆明市,呈贡新区,,44,29,29,25,23,140,,81,81,8,31,4,4,0.4,0.6
2025-08-02T1500,1451A,102.6251,24.9608,昆明市,西山森林公园,,,,,,,,,,,,,,,,
2025-08-02T1500,1452A,102.7252,25.0902,昆明市,龙泉镇,,35,,24,14,13,110,,78,78,5,14,1,1,0.5,0.5
2025-08-02T1500,1453A,102.7266,25.0375,昆明市,东风东路,,38,34,31,24,18,120,,76,76,8,20,6,3,0.5,0.5
2025-08-02T1500,1454A,102.6742,25.0669,昆明市,金鼎山,,35,,29,24,14,102,,75,75,5,13,3,1,0.4,0.4
2025-08-02T1500,1455A,102.6644,25.0401,昆明市,碧鸡广场,,32,24,31,19,19,101,,70,70,11,18,10,7,0.5,0.5
2025-08-02T1500,3179A,102.7494,25.0119,昆明市,官渡区博物馆,,40,36,28,25,17,127,,73,73,8,31,4,2,0.5,0.5
2025-08-02T1500,3375A,102.8017,24.8336,昆明市,青年创业园,,38,17,33,14,22,121,,,,5,23,3,3,0.3,0.5
2025-08-02T1500,3550A,102.7997,24.9786,昆明市,昆明学院,,46,46,40,32,27,142,,78,78,8,30,8,6,0.5,0.4
2025-08-02T1500,3551A,102.5967,24.6736,昆明市,晋宁区生态环境分局,,37,14,28,12,19,117,,91,91,6,13,6,5,0.4,0.4
2025-08-02T1500,3552A,102.6678,24.9856,昆明市,云天化总部,,39,25,29,17,21,122,,78,78,9,26,9,4,0.4,0.5
2025-08-02T1500,1456A,91.1319,29.6514,拉萨市,八廓街,,29,12,11,11,7,91,,74,74,5,10,5,6,0.2,0.2
2025-08-02T1500,1457A,91.1221,29.6747,拉萨市,市环保局,,30,15,12,6,7,96,,69,69,10,11,6,7,0.3,0.3
2025-08-02T1500,1458A,91.0874,29.6475,拉萨市,区监测站,,29,7,9,6,7,90,,70,70,7,15,3,4,0.3,0.3
2025-08-02T1500,1459A,91.1774,29.6541,拉萨市,西藏大学,,28,7,9,3,6,87,,72,72,6,11,5,5,0.2,0.2
2025-08-02T1500,1460A,90.9798,29.6588,拉萨市,区辐射站,,28,13,14,7,7,87,,69,68,13,14,4,5,0.4,0.4
2025-08-02T1500,1461A,91.0834,29.6292,拉萨市,拉萨火车站,,28,9,9,6,6,87,,65,65,4,11,5,5,0.2,0.2
2025-08-02T1500,2520A,109.2203,23.7256,来宾市,来宾技工学校,,28,14,34,11,20,87,,67,67,5,8,7,9,0.7,0.7
2025-08-02T1500,3535A,109.1781,23.7297,来宾市,兴宾区政府,,27,22,28,13,19,85,,67,67,4,7,6,6,0.6,0.7
2025-08-02T1500,4002A,109.2416,23.7461,来宾市,中南小学,,31,20,32,13,23,97,,71,71,7,8,1,2,0.4,0.5
2025-08-02T1500,1477A,104.1373,35.9454,兰州市,榆中兰大校区,,,,,,,,,,,,,,,,
2025-08-02T1500,1479A,103.831,36.0464,兰州市,铁路设计院,,50,30,48,23,25,158,,108,108,20,28,12,10,0.5,0.5
2025-08-02T1500,3241A,103.7439,36.0842,兰州市,百合公园,臭氧1小时,52,24,38,18,20,161,,112,112,3,18,3,6,0.4,0.5
2025-08-02T1500,3242A,103.9611,35.998,兰州市,和平,,44,30,42,11,24,140,,114,114,4,12,12,12,0.6,0.7
2025-08-02T1500,4236A,103.6293,36.0938,兰州市,庄浪东路808号,臭氧1小时,60,40,52,20,24,168,,110,110,10,22,13,13,0.4,0.4
2025-08-02T1500,4237A,103.7251,36.1043,兰州市,安宁西路88号,臭氧1小时,68,28,43,12,24,174,,124,124,3,8,7,6,0.4,0.5
2025-08-02T1500,4238A,103.8470,36.0676,兰州市,北滨河东路1号,臭氧1小时,60,,41,23,27,168,,119,119,7,26,10,9,0.5,0.6
2025-08-02T1500,3245A,103.6633,36.533,兰州新区,新区管委会,,45,34,49,16,30,143,,132,132,6,6,8,17,0.5,0.5
2025-08-02T1500,3246A,103.6975,36.4789,兰州新区,舟曲中学,,,,,,,,,,,,,,,,
2025-08-02T1500,1067A,116.6708,39.5111,廊坊市,药材公司,臭氧1小时,70,48,49,28,25,176,,119,119,5,15,3,4,0.4,0.5
2025-08-02T1500,1068A,116.7214,39.5589,廊坊市,开发区,臭氧1小时,63,57,57,32,29,170,,106,106,7,18,3,2,0.5,0.6
2025-08-02T1500,1070A,116.7244,39.5269,廊坊市,北华航天学院,臭氧1小时,75,63,68,28,30,180,,113,113,6,16,4,6,0.5,0.7
2025-08-02T1500,2919A,116.7022,39.5453,廊坊市,河北工业大学,臭氧1小时,77,66,61,35,26,181,,116,116,6,20,4,5,0.5,0.4
2025-08-02T1500,2535A,103.7723,29.5462,乐山市,花湖湾,,44,21,38,16,28,139,,102,102,4,17,2,2,0.6,1
2025-08-02T1500,2536A,103.7627,29.5844,乐山市,牛耳桥,,47,24,32,19,25,149,,121,121,5,19,4,5,0.8,0.9
2025-08-02T1500,2537A,103.7508,29.6006,乐山市,市第三水厂,,45,22,35,16,26,142,,116,116,6,21,3,3,0.6,0.7
2025-08-02T1500,2538A,103.7571,29.5664,乐山市,市监测站,,41,28,42,18,24,129,,101,101,5,16,6,6,0.6,1
2025-08-02T1500,3361A,103.7311,29.5628,乐山市,理工大学,,47,26,39,20,28,150,,116,116,4,18,5,7,0.7,1
2025-08-02T1500,2598A,100.2143,26.8576,丽江市,西南郊,,,,22,,16,,,100,,,9,,11,,1.1
2025-08-02T1500,2599A,100.2497,26.8802,丽江市,丽江古城,,30,13,19,3,11,94,,84,84,8,12,10,9,0.4,0.5
2025-08-02T1500,2600A,100.2203,26.8906,丽江市,市中心,,31,12,14,3,10,97,,82,82,8,12,8,8,0.5,0.5
2025-08-02T1500,1267A,119.914,28.4514,丽水市,监测站大楼,,32,31,25,16,16,100,,91,91,6,10,3,3,0.4,0.4
2025-08-02T1500,1268A,119.93,28.4586,丽水市,莲都小学,,32,29,27,12,10,101,,90,90,4,12,3,3,0.4,0.4
2025-08-02T1500,1269A,119.879,28.4231,丽水市,余庄前,,30,30,26,18,19,81,,76,76,6,7,4,4,0.4,0.4
2025-08-02T1500,1173A,119.176,34.5885,连云港市,市环境监测站,,31,9,13,3,5,99,,79,79,4,5,2,2,0.4,0.5
2025-08-02T1500,3000A,119.3581,34.6972,连云港市,德源药业,,33,12,12,3,3,104,,72,72,8,8,3,3,0.7,0.7
2025-08-02T1500,3007A,119.178,34.844,连云港市,新城一中,,23,18,17,11,8,73,,63,63,1,5,2,2,0.6,0.6
2025-08-02T1500,3008A,119.3608,34.7519,连云港市,胡沟管理处,,30,9,13,3,5,93,,63,63,6,18,6,6,0.7,0.7
2025-08-02T1500,3009A,119.1478,34.5911,连云港市,矿山设计院,,25,12,15,3,7,79,,73,73,5,6,1,1,0.5,0.5
2025-08-02T1500,3434A,119.2413,34.6539,连云港市,工贸学校,,31,12,15,12,11,98,,74,74,8,6,4,5,0.6,0.6
2025-08-02T1500,3664A,119.4172,34.7341,连云港市,连云街道,,32,15,18,7,8,100,,79,78,5,4,2,2,0.6,0.5
2025-08-02T1500,2571A,102.3431,27.8099,凉山彝族自治州,青龙寺,,40,15,24,12,10,126,,85,85,2,6,11,6,0.4,0.3
2025-08-02T1500,2572A,102.2721,27.8415,凉山彝族自治州,邛海宾馆,,46,27,33,17,20,146,,95,95,13,16,16,11,0.6,0.7
2025-08-02T1500,2573A,102.2625,27.898,凉山彝族自治州,西昌市政府,,46,36,25,26,19,146,,104,104,8,8,16,10,0.9,0.6
2025-08-02T1500,2574A,102.2685,27.8851,凉山彝族自治州,凉山州政府,,45,38,30,23,20,142,,104,104,24,18,18,12,0.9,0.8
2025-08-02T1500,4229A,102.2342,27.8859,凉山彝族自治州,凯乐南路30号,,45,29,32,14,18,143,,97,97,8,15,22,16,1.0,0.9
2025-08-02T1500,2212A,123.2,41.1953,辽阳市,宏伟区,,23,15,18,10,10,72,,64,64,5,7,2,2,0.5,0.6
2025-08-02T1500,2213A,123.1683,41.2495,辽阳市,新华园,,29,19,22,8,11,91,,76,76,6,9,4,5,0.4,0.5
2025-08-02T1500,2214A,123.2354,41.2639,辽阳市,滨河路,,41,41,36,8,11,65,,59,59,5,10,3,2,0.4,0.4
2025-08-02T1500,2215A,123.149,41.2991,辽阳市,铁西工业园,,31,15,29,6,12,98,,72,72,7,11,8,7,0.5,0.6
2025-08-02T1500,2227A,125.1358,42.8845,辽源市,环保局,,35,23,34,14,11,109,,94,94,2,15,5,6,0.5,0.5
2025-08-02T1500,3239A,125.0764,42.9078,辽源市,银鹰制药,,35,22,21,19,15,110,,101,101,4,18,8,8,0.6,0.5
2025-08-02T1500,1625A,115.9848,36.4372,聊城市,区政府,,42,25,24,14,14,134,,100,100,5,13,8,9,0.7,0.7
2025-08-02T1500,2878A,116.0072,36.4343,聊城市,聊大东校,,40,19,27,16,16,126,,99,99,5,18,7,8,0.7,0.8
2025-08-02T1500,3200A,115.9819,36.4978,聊城市,监控中心,,44,12,17,12,13,140,,98,98,4,22,7,8,0.8,0.9
2025-08-02T1500,3513A,116.0445,36.4361,聊城市,九州社区,,36,23,33,13,16,113,,91,91,5,16,3,5,0.3,0.4
2025-08-02T1500,4018A,116.0567,36.4608,聊城市,星美广场,,36,18,32,9,16,115,,90,90,10,18,2,4,0.5,0.7
2025-08-02T1500,2632A,94.3681,29.6376,林芝市,林芝监测站,,16,6,8,3,5,50,,56,40,3,4,5,5,0.4,0.4
2025-08-02T1500,2633A,94.3616,29.6616,林芝市,林芝人民医院,,14,10,12,3,5,42,,54,37,5,3,5,7,0.4,0.4
2025-08-02T1500,2603A,100.0781,23.8982,临沧市,市环保局,,20,14,17,14,15,47,,35,35,5,6,9,8,0.4,0.4
2025-08-02T1500,2604A,100.0894,23.8822,临沧市,市气象局,,17,17,16,11,12,41,,33,33,11,7,12,10,0.3,0.3
2025-08-02T1500,1733A,111.5531,36.0783,临汾市,临钢医院,,,52,50,,19,162,,142,142,,12,6,4,,0.9
2025-08-02T1500,1734A,111.5028,36.0714,临汾市,技工学校,臭氧1小时,57,32,55,24,30,165,,145,145,5,12,7,7,0.6,0.7
2025-08-02T1500,1736A,111.5018,36.0855,临汾市,市委,臭氧1小时,74,37,65,15,21,179,,168,168,6,12,7,7,0.6,0.7
2025-08-02T1500,3018A,111.505,36.1014,临汾市,唐尧大酒店,臭氧1小时,68,44,63,16,23,174,,145,145,6,13,6,4,0.6,0.8
2025-08-02T1500,4244A,111.4879,36.0530,临汾市,启星学校,臭氧1小时,59,39,52,31,36,167,,151,151,7,16,8,7,0.6,0.8
2025-08-02T1500,4271A,103.2464,35.6123,临夏回族自治州,滨河东路1号,,37,37,58,24,29,102,,71,71,7,17,7,6,0.4,0.4
2025-08-02T1500,4310A,103.2093,35.5995,临夏回族自治州,新华街21号,,37,22,51,17,31,117,,79,79,7,12,6,6,0.5,0.5
2025-08-02T1500,1618A,118.3429,35.0532,临沂市,沂河小区,,22,22,22,14,16,69,,57,57,5,11,9,9,0.3,0.4
2025-08-02T1500,1619A,118.295,35.0583,临沂市,鲁南制药厂,,27,,16,15,11,84,,66,66,5,9,9,9,0.3,0.5
2025-08-02T1500,1620A,118.2794,34.9976,临沂市,新光毛纺厂,,25,,12,15,11,80,,65,65,5,10,7,8,0.4,0.5
2025-08-02T1500,1621A,118.3956,35.0888,临沂市,河东保险公司,,25,14,17,8,4,78,,61,61,6,10,6,6,0.2,0.5
2025-08-02T1500,3370A,118.3564,35.0215,临沂市,十里堡居委,,24,,15,9,10,76,,59,59,3,10,9,10,0.3,0.4
2025-08-02T1500,3496A,118.3604,35.1084,临沂市,南坊新区,,25,24,20,3,7,80,,59,59,6,12,9,11,0.3,0.4
2025-08-02T1500,3860A,118.3920,35.0300,临沂市,皇山花园小区,,24,9,16,7,12,75,,60,60,3,10,8,9,0.3,0.4
2025-08-02T1500,1870A,109.4856,24.3895,柳州市,柳东小学,,32,22,26,14,17,101,,75,75,1,6,3,3,0.5,0.5
2025-08-02T1500,1871A,109.4157,24.3277,柳州市,环保监测站,,34,15,26,13,18,106,,76,76,3,5,7,7,0.5,0.6
2025-08-02T1500,1872A,109.389,24.341,柳州市,河西水厂,,,,29,,16,,,75,,,10,,5,,0.7
2025-08-02T1500,1873A,109.4311,24.2921,柳州市,市四中,,35,29,28,14,16,112,,75,75,6,10,7,7,0.9,1
2025-08-02T1500,1874A,109.4006,24.3631,柳州市,市九中,,38,20,34,20,19,121,,74,74,9,9,5,4,0.5,0.4
2025-08-02T1500,1875A,109.4958,24.3134,柳州市,古亭山,,30,15,30,14,15,96,,71,71,2,10,5,5,0.6,0.7
2025-08-02T1500,3402A,109.5422,24.3996,柳州市,市二中,,30,19,27,13,16,94,,77,77,4,10,5,7,0.7,0.8
2025-08-02T1500,2307A,116.5079,31.737,六安市,监测大楼,,27,14,12,8,12,84,,65,65,1,4,3,3,0.3,0.4
2025-08-02T1500,2308A,116.4738,31.7643,六安市,皖西学院,,28,,16,8,10,88,,69,69,2,5,2,2,0.3,0.4
2025-08-02T1500,2309A,116.4996,31.7905,六安市,朝阳厂,,25,,8,8,12,79,,62,62,3,7,5,4,0.3,0.4
2025-08-02T1500,2310A,116.5567,31.7886,六安市,开发区,,26,,6,11,11,81,,63,63,2,6,3,3,0.4,0.5
2025-08-02T1500,2576A,104.8,26.5892,六盘水市,窑上,,48,12,28,3,6,152,,101,101,9,5,10,2,0.8,0.4
2025-08-02T1500,2577A,104.83,26.5917,六盘水市,黄土坡,,46,31,24,12,15,146,,103,103,15,12,27,11,0.8,0.4
2025-08-02T1500,2578A,104.89,26.5939,六盘水市,水钢,,45,23,46,10,28,141,,96,96,6,18,9,10,0.4,0.7
2025-08-02T1500,2579A,104.8475,26.5894,六盘水市,民中,,46,23,29,14,14,145,,103,103,12,17,23,12,0.7,0.5
2025-08-02T1500,2580A,104.9544,26.5506,六盘水市,双水,,44,29,32,3,17,139,,96,96,8,16,10,7,0.5,0.6
2025-08-02T1500,2335A,117.0189,25.1181,龙岩市,龙岩师专,,,,,,,,,,,,,,,,
2025-08-02T1500,2336A,117.0217,25.1033,龙岩市,龙岩市监测站,,35,35,20,16,12,108,,84,84,4,9,3,4,0.4,0.5
2025-08-02T1500,2337A,117.0258,25.0661,龙岩市,闽西职业技术学院,,31,21,18,11,10,98,,77,77,2,7,2,2,0.5,0.6
2025-08-02T1500,2338A,117.0196,25.0306,龙岩市,龙岩学院,,35,21,18,10,9,109,,89,89,2,6,5,4,0.6,0.6
2025-08-02T1500,2665A,105.0822,33.3261,陇南市,汉王镇固水子,,,,,,,,,,,,,,,,
2025-08-02T1500,2885A,104.9339,33.3826,陇南市,滨江中学,,41,29,31,23,17,131,,107,107,2,4,7,7,0.5,0.6
2025-08-02T1500,3247A,104.955,33.371,陇南市,市总工会,,46,39,41,21,19,145,,122,122,4,5,6,6,0.4,0.4
2025-08-02T1500,2487A,111.9589,27.8901,娄底市,电视发射台,臭氧1小时,65,38,56,27,24,172,,99,99,6,4,9,6,1.0,0.6
2025-08-02T1500,2488A,111.9975,27.725,娄底市,市监测站,颗粒物(PM10),54,58,54,31,32,130,,105,105,5,17,7,15,0.7,1.3
2025-08-02T1500,2489A,112.0194,27.7314,娄底市,市委党校,,45,34,49,25,33,142,,115,115,7,13,2,4,0.5,0.7
2025-08-02T1500,2490A,111.9561,27.7569,娄底市,涟钢,细颗粒物(PM2.5),59,56,46,42,33,146,,100,100,13,10,13,13,2.3,1.5
2025-08-02T1500,2491A,111.9892,27.7044,娄底市,市政府,,46,36,43,32,33,127,,102,102,1,5,6,5,0.5,0.6
2025-08-02T1500,1893A,105.4324,28.9634,泸州市,九狮山,,46,24,32,9,23,145,,126,126,2,13,4,4,0,0.2
2025-08-02T1500,1894A,105.4427,28.9063,泸州市,小市上码头,,39,25,28,10,13,122,,90,90,3,9,2,3,0.1,0.2
2025-08-02T1500,1895A,105.4241,28.8573,泸州市,兰田宪桥,,40,21,29,8,13,126,,103,103,2,15,8,8,0.4,0.4
2025-08-02T1500,1896A,105.4379,28.8833,泸州市,市环监站,,41,17,24,14,17,129,,104,104,4,14,5,6,0.2,0.3
2025-08-02T1500,4272A,105.3689,28.7783,泸州市,纳溪中医医院,,42,12,26,12,18,133,,109,109,6,19,7,7,0.4,0.5
2025-08-02T1500,2183A,111.1406,37.5211,吕梁市,环保局,臭氧1小时,77,53,62,26,34,181,,123,123,9,24,5,3,0.9,0.9
2025-08-02T1500,2185A,111.1297,37.5136,吕梁市,自来水公司,臭氧1小时,85,42,59,25,32,188,,121,121,8,20,6,5,1.2,1.1
2025-08-02T1500,2867A,111.1283,37.51,吕梁市,马茂庄小学,臭氧1小时,88,39,66,34,32,190,,153,153,8,26,8,7,1.2,0.7
2025-08-02T1500,1812A,112.3931,34.6516,洛阳市,市委党校,,43,24,30,18,19,136,,112,112,3,9,6,8,0.4,0.5
2025-08-02T1500,1815A,112.494,34.6886,洛阳市,河南林校,,47,34,46,23,21,148,,121,121,6,14,6,8,0.4,0.4
2025-08-02T1500,1816A,112.3844,34.623,洛阳市,开发区管委会,,47,25,30,19,20,149,,123,123,2,7,10,9,0.5,0.5
2025-08-02T1500,1817A,112.4267,34.6258,洛阳市,市委新办公区,,41,29,31,16,22,131,,106,106,5,10,6,8,0.4,0.5
2025-08-02T1500,3340A,112.6005,34.6326,洛阳市,伊滨,,44,27,29,20,21,140,,112,112,9,13,8,9,0.6,0.6
2025-08-02T1500,3341A,112.4951,34.6332,洛阳市,中移产业园,,43,32,39,19,21,137,,107,107,2,10,5,7,0.7,0.7
2025-08-02T1500,3593A,112.5736,34.8993,洛阳市,吉利监测站,,43,32,47,25,27,136,,121,121,2,12,5,7,0.3,0.4
2025-08-02T1500,3635A,112.3677,34.662,洛阳市,河科大西苑校区,,43,28,34,13,14,137,,118,118,1,8,7,8,0.3,0.4
2025-08-02T1500,3636A,112.4388,34.6781,洛阳市,英才小学,,42,33,39,19,20,132,,107,107,5,11,8,9,0.4,0.5
2025-08-02T1500,4214A,112.4600,34.6949,洛阳市,春都路1号院,,40,25,33,15,13,128,,106,106,6,11,4,6,0.5,0.5
2025-08-02T1500,2399A,114.051,33.5699,漯河市,三五一五工厂,,32,13,25,10,15,101,,84,84,3,7,5,7,0.4,0.5
2025-08-02T1500,2400A,114.0055,33.5698,漯河市,漯河大学,,32,22,31,9,11,100,,81,81,7,9,4,4,0.3,0.4
2025-08-02T1500,2401A,114.0138,33.5828,漯河市,市水利局,,31,22,25,12,14,97,,78,78,2,6,4,5,0.4,0.4
2025-08-02T1500,2402A,114.0261,33.5698,漯河市,市广电局,,34,20,23,10,15,107,,87,87,2,6,2,3,0.3,0.3
2025-08-02T1500,3478A,113.9749,33.5664,漯河市,市图书馆,,36,36,23,12,14,102,,82,82,3,6,6,6,0.2,0.3
2025-08-02T1500,4250A,114.0892,33.5882,漯河市,韶山路11号,,32,17,24,16,14,100,,80,80,3,9,2,2,0.6,0.6
2025-08-02T1500,1798A,118.5092,31.6837,马鞍山市,湖东路四小,,26,18,14,7,11,83,,68,66,8,8,6,5,0.7,0.6
2025-08-02T1500,1799A,118.5024,31.6449,马鞍山市,开发区,,33,15,13,13,10,103,,77,77,8,7,6,6,0.7,0.7
2025-08-02T1500,1802A,118.6245,31.7241,马鞍山市,濮塘,,23,18,12,3,7,71,,73,62,12,6,8,7,1.4,0.8
2025-08-02T1500,3633A,118.4918,31.6809,马鞍山市,雨山,,34,34,14,11,10,78,,65,62,8,9,7,7,0.6,0.6
2025-08-02T1500,4191A,118.5274,31.72227,马鞍山市,慈湖高新区,,23,12,13,7,9,71,,67,54,17,12,8,7,1.5,0.8
2025-08-02T1500,1686A,111.0286,21.4688,茂名市,电白南海,,44,44,27,19,14,61,,49,49,6,10,2,2,0.4,0.4
2025-08-02T1500,1687A,110.9294,21.6533,茂名市,茂石化七小,,22,22,27,9,13,39,,35,35,8,10,3,7,0.5,0.5
2025-08-02T1500,1688A,110.9107,21.6687,茂名市,健康路,,13,12,22,3,11,39,,38,38,12,12,5,8,0.5,0.6
2025-08-02T1500,1689A,110.8592,21.6828,茂名市,高岭,,19,19,31,3,8,41,,36,36,12,17,5,8,0.4,0.5
2025-08-02T1500,3450A,111.01,21.5165,茂名市,电白水东,,22,22,20,14,12,53,,50,50,9,11,3,5,0.5,0.5
2025-08-02T1500,2539A,104.0308,30.0478,眉山市,黑龙滩水库,,48,8,16,6,15,152,,117,117,4,8,3,3,0.2,0.2
2025-08-02T1500,2540A,103.8416,30.0874,眉山市,气象局,臭氧1小时,78,31,43,12,21,182,,133,133,6,28,3,3,0.5,0.6
2025-08-02T1500,3137A,103.8578,30.0744,眉山市,市委党校,臭氧1小时,62,27,33,14,18,169,,125,125,8,24,8,8,0.6,0.7
2025-08-02T1500,3148A,103.8291,30.0564,眉山市,区人社局,臭氧1小时,77,37,43,9,17,181,,139,139,9,28,5,9,0.8,0.9
2025-08-02T1500,1690A,116.1231,24.3284,梅州市,梅江月梅,,25,17,22,11,14,77,,76,76,6,10,8,8,0.5,0.5
2025-08-02T1500,1691A,116.0797,24.2719,梅州市,梅县新城,,30,30,23,16,13,74,,70,70,3,8,6,7,0.4,0.5
2025-08-02T1500,1692A,116.1248,24.2654,梅州市,环境监控中心,,25,25,29,8,11,70,,65,65,5,10,3,4,0.5,0.5
2025-08-02T1500,3315A,116.1233,24.2991,梅州市,梅龙,,29,29,21,9,14,71,,73,73,4,7,6,7,0.5,0.6
2025-08-02T1500,1878A,104.7778,31.4741,绵阳市,富乐山,,47,40,35,29,25,149,,119,119,5,10,9,9,0.5,0.6
2025-08-02T1500,1880A,104.6697,31.4668,绵阳市,高新区自来水公司,,45,21,37,17,18,141,,112,112,4,19,9,9,0.5,0.6
2025-08-02T1500,1881A,104.7287,31.5075,绵阳市,三水厂,,47,30,37,23,25,148,,118,118,6,19,7,7,0.2,0.4
2025-08-02T1500,3491A,104.69,31.5322,绵阳市,西科大附属小学,,49,28,43,17,24,155,,119,119,6,21,9,9,0.4,0.5
2025-08-02T1500,3492A,104.5648,31.5343,绵阳市,安州区旅游局,,46,24,36,19,20,147,,120,120,5,9,3,3,0.5,0.5
2025-08-02T1500,4226A,104.7651,31.4531,绵阳市,绵阳市气象局,,44,27,34,19,23,138,,109,109,6,12,1,5,0.4,0.5
2025-08-02T1500,1784A,129.61,44.561,牡丹江市,环保大楼,,38,14,26,8,9,121,,77,77,6,17,3,3,0.3,0.3
2025-08-02T1500,1785A,129.6115,44.5782,牡丹江市,文化广场,,38,,14,18,20,120,,76,76,8,18,7,6,0.5,0.4
2025-08-02T1500,1786A,129.5904,44.5963,牡丹江市,第一医院,,39,17,22,16,19,124,,78,78,9,20,7,7,0.4,0.5
2025-08-02T1500,1787A,129.6364,44.6075,牡丹江市,机车工厂,,37,16,20,15,12,118,,75,75,7,17,4,4,0.4,0.4
2025-08-02T1500,1788A,129.6386,44.5462,牡丹江市,第一中学,,39,14,21,12,11,122,,80,80,6,16,6,6,0.2,0.2
2025-08-02T1500,2531A,105.0703,29.61,内江市,市监测站,臭氧1小时,69,,17,17,18,175,,134,134,7,17,3,3,0.6,0.6
2025-08-02T1500,2532A,105.0717,29.5947,内江市,东兴区政府,臭氧1小时,60,23,20,9,12,168,,126,126,6,14,9,8,0.5,0.6
2025-08-02T1500,2533A,105.0653,29.5817,内江市,内江二中,臭氧1小时,57,,28,17,23,165,,119,119,8,25,6,5,0.5,0.6
2025-08-02T1500,2534A,105.0406,29.5822,内江市,内江日报社,,49,19,22,17,20,154,,116,116,6,22,10,9,0.4,0.5
2025-08-02T1500,2628A,92.0657,31.4846,那曲市,那曲监测站,,28,,19,17,10,88,,81,81,8,12,10,10,0.3,0.4
2025-08-02T1500,4243A,92.0515,31.4787,那曲市,那曲市委宣传部,,30,10,12,3,7,96,,92,92,6,6,7,7,0.2,0.2
2025-08-02T1500,1290A,115.8931,28.6843,南昌市,省外办,,42,35,37,29,28,124,,110,110,4,12,4,7,0.4,0.4
2025-08-02T1500,1291A,115.8886,28.7003,南昌市,省林业公司,,47,36,37,27,25,150,,117,117,7,15,4,4,0.6,0.6
2025-08-02T1500,1292A,115.8126,28.7442,南昌市,林科所,,48,31,29,24,18,153,,112,112,7,17,9,10,0.4,0.3
2025-08-02T1500,1294A,115.8518,28.687,南昌市,建工学校,细颗粒物(PM2.5),53,43,48,37,19,144,,113,113,9,18,10,12,0.6,0.6
2025-08-02T1500,1295A,115.8921,28.6424,南昌市,象湖,,49,35,38,22,22,156,,120,120,5,13,7,9,0.5,0.6
2025-08-02T1500,1296A,115.7423,28.7996,南昌市,武术学校,,28,12,22,8,13,88,,76,76,3,4,8,8,0.5,0.5
2025-08-02T1500,3046A,115.9084,28.6062,南昌市,机电学校,,46,40,49,27,27,146,,114,114,2,10,5,7,0.6,0.7
2025-08-02T1500,3690A,115.9721,28.7031,南昌市,外国语学校,臭氧1小时,101,58,44,30,25,202,,143,143,6,13,8,8,0.5,0.4
2025-08-02T1500,4192A,115.9316,28.68677,南昌市,南京东路235号,臭氧1小时,53,47,45,23,24,162,,121,121,8,14,5,6,0.7,0.7
2025-08-02T1500,1905A,106.056,30.8064,南充市,西山风景区,,,,,,,,,,,,,,,,
2025-08-02T1500,1906A,106.0789,30.8023,南充市,南充市委,,42,29,34,22,24,133,,120,120,6,14,6,6,0.4,0.4
2025-08-02T1500,1907A,106.1031,30.8217,南充市,南充炼油厂,,40,,41,22,24,126,,115,115,3,11,5,5,0.3,0.4
2025-08-02T1500,4227A,106.1083,30.7884,南充市,梨树横街98号,,45,26,32,14,20,143,,126,126,5,11,5,6,0.2,0.3
2025-08-02T1500,4304A,106.1172,30.843,南充市,清泉寺北路188号,,46,21,36,17,24,145,,115,115,6,12,4,4,0.2,0.3
2025-08-02T1500,4305A,106.067,30.7616,南充市,同庆路1号,,44,23,35,17,21,138,,124,124,6,13,5,5,0.4,0.4
2025-08-02T1500,1151A,118.8086,32.1065,南京市,迈皋桥,,25,8,5,3,5,79,,69,62,3,12,4,4,0.3,0.3
2025-08-02T1500,1152A,118.7538,32.0551,南京市,草场门,,22,6,7,3,6,68,,57,52,5,9,8,8,0.5,0.6
2025-08-02T1500,1153A,118.7794,32.0745,南京市,山西路,,25,14,10,3,1,79,,68,62,20,17,4,4,0.5,0.5
2025-08-02T1500,1154A,118.7752,32.0023,南京市,中华门,,20,6,5,3,2,62,,55,47,4,6,9,9,0.8,0.8
2025-08-02T1500,1155A,118.8109,32.0309,南京市,瑞金路,,23,6,2,3,5,72,,63,54,12,15,7,6,0.3,0.4
2025-08-02T1500,1156A,118.7997,32.0754,南京市,玄武湖,,20,10,10,3,1,62,,60,51,10,9,12,10,0.4,0.4
2025-08-02T1500,1157A,118.6414,32.0931,南京市,浦口,,23,6,10,3,3,72,,59,55,5,11,4,4,0.4,0.4
2025-08-02T1500,1158A,118.7356,31.9996,南京市,奥体中心,,22,11,7,3,7,70,,65,55,6,9,3,3,0.4,0.4
2025-08-02T1500,1159A,118.9125,32.1028,南京市,仙林大学城,,27,14,12,3,0,84,,64,63,3,5,8,7,0.7,0.6
2025-08-02T1500,3422A,118.8436,31.9198,南京市,江宁彩虹桥,,23,14,16,7,5,73,,64,57,7,11,3,4,0.9,0.6
2025-08-02T1500,3427A,118.8554,32.3578,南京市,六合雄州,,23,6,10,3,4,72,,49,49,8,13,3,4,0.7,0.6
2025-08-02T1500,4249A,118.8708,31.3402,南京市,汶溪路181号,,34,,8,8,9,107,,85,85,6,6,6,5,0.8,0.6
2025-08-02T1500,4312A,119.019,31.6512,南京市,中山西路1号,,28,,4,14,9,89,,76,76,7,6,4,4,0.7,0.6
2025-08-02T1500,1401A,108.3103,22.7881,南宁市,二十一中,,33,31,20,17,13,105,,62,62,6,10,3,3,0.5,0.5
2025-08-02T1500,1402A,108.3141,22.8528,南宁市,北湖,,39,15,21,14,14,124,,80,80,6,10,3,4,0.5,0.5
2025-08-02T1500,1403A,108.3206,22.8225,南宁市,市监测站,,40,21,20,11,14,126,,74,74,8,11,3,3,0.5,0.4
2025-08-02T1500,1404A,108.3829,22.8037,南宁市,大自然花园,,46,34,22,19,11,145,,83,83,7,8,5,4,0.6,0.6
2025-08-02T1500,1405A,108.4394,22.7904,南宁市,仙葫,,40,29,18,17,13,127,,76,76,8,9,6,5,0.5,0.4
2025-08-02T1500,1406A,108.2397,22.8467,南宁市,区农职院,,30,18,28,11,18,96,,68,68,5,15,4,4,0.5,0.5
2025-08-02T1500,1407A,108.3275,22.735,南宁市,英华嘉园,,35,18,22,18,15,111,,63,63,7,10,1,1,0.4,0.4
2025-08-02T1500,3401A,108.4834,22.7618,南宁市,红星社区,,,,15,22,12,142,,81,81,,9,2,2,0.6,0.5
2025-08-02T1500,4221A,108.2177,22.7774,南宁市,乐贤路16号,,36,34,29,17,18,113,,68,68,4,15,4,4,0.6,0.6
2025-08-02T1500,2331A,118.0966,26.6761,南平市,茫荡山,,,,,,,,,,,,,,,,
2025-08-02T1500,2332A,118.1681,26.6369,南平市,南平市监测站,,30,18,19,14,14,96,,77,77,4,5,4,4,0.6,0.5
2025-08-02T1500,2333A,118.1825,26.6489,南平市,南平铝业有限公司,,30,19,23,19,16,94,,78,78,5,6,5,5,0.7,0.5
2025-08-02T1500,2334A,118.1756,26.6272,南平市,南平七中,,30,,20,16,12,96,,78,78,3,5,3,3,0.7,0.5
2025-08-02T1500,1168A,120.9098,31.9663,南通市,狼山街道,,22,,17,3,9,68,,57,56,12,12,2,2,0.6,0.6
2025-08-02T1500,1169A,120.86,32.0005,南通市,虹桥,,22,,15,8,11,70,,61,61,16,16,3,1,0.8,0.8
2025-08-02T1500,1170A,120.87,32.02,南通市,城中,,19,11,20,3,10,60,,52,52,13,13,2,2,0.5,0.4
2025-08-02T1500,1171A,120.94,31.93,南通市,星湖花园,,20,,12,6,10,64,,58,58,15,15,2,2,0.6,0.5
2025-08-02T1500,1172A,120.81,32.0417,南通市,紫琅学院,,22,6,14,3,6,70,,57,56,13,14,2,2,0.8,0.7
2025-08-02T1500,3291A,121.067,32.062,南通市,通州监测站,,21,,12,3,8,67,,62,58,9,9,1,1,0.8,0.7
2025-08-02T1500,3432A,120.9348,31.9883,南通市,环境教育馆,,20,6,20,3,8,61,,66,52,13,12,2,2,0.4,0.3
2025-08-02T1500,2404A,112.5224,33.0122,南阳市,瓦房庄,,36,26,42,7,19,114,,102,102,7,8,6,7,0.4,0.5
2025-08-02T1500,2405A,112.5003,32.9735,南阳市,汉画馆,,34,23,40,9,15,108,,101,101,6,10,7,7,0.4,0.5
2025-08-02T1500,2406A,112.5573,33.027,南阳市,气象站,,39,14,40,12,19,123,,104,104,3,8,8,8,0.4,0.5
2025-08-02T1500,2407A,112.5481,32.9689,南阳市,理工学院,,36,18,37,3,13,113,,101,101,3,6,7,7,0.5,0.6
2025-08-02T1500,4008A,112.5234,32.9922,南阳市,卧龙区政府,,36,17,33,12,21,113,,103,103,5,9,6,6,0.5,0.6
2025-08-02T1500,1234A,121.8358,29.911,宁波市,区环保大楼,颗粒物(PM10),54,57,41,18,17,108,,98,98,19,10,6,4,0.6,0.5
2025-08-02T1500,1235A,121.56,29.82,宁波市,万里学院,,33,33,38,18,24,104,,103,103,14,11,4,5,0.5,0.6
2025-08-02T1500,1236A,121.713,29.9572,宁波市,龙赛医院,,32,30,34,16,17,100,,105,105,13,8,6,6,0.5,0.5
2025-08-02T1500,1239A,121.633,29.7733,宁波市,钱湖水厂,,36,27,29,18,18,113,,101,101,4,5,4,4,0.4,0.4
2025-08-02T1500,1240A,121.5856,29.8635,宁波市,太古小学,,34,29,38,20,19,107,,105,105,7,6,2,2,0.4,0.4
2025-08-02T1500,1241A,121.524,29.8674,宁波市,市环境监测中心,,35,27,32,15,19,110,,104,104,10,12,6,6,0.5,0.5
2025-08-02T1500,2871A,121.6147,29.9017,宁波市,万里国际学校,,44,44,30,22,20,110,,111,111,10,6,3,4,0.5,0.5
2025-08-02T1500,3710A,121.5594,29.8975,宁波市,白沙活动中心,,33,29,32,18,20,104,,105,105,9,7,4,4,0.5,0.6
2025-08-02T1500,2339A,119.5001,26.6946,宁德市,金涵水库,,,,,,,,,,,,,,,,
2025-08-02T1500,2341A,119.5388,26.6612,宁德市,宁德市监测站,,37,34,25,17,14,116,,95,95,6,15,6,6,0.7,0.7
2025-08-02T1500,3209A,119.5231,26.6562,宁德市,宁德一中,,36,35,23,20,14,114,,94,94,4,9,5,5,0.5,0.5
2025-08-02T1500,2618A,98.8601,25.8567,怒江傈僳族自治州,州监测站,,21,13,19,9,11,65,,37,37,5,9,6,6,0.3,0.4
2025-08-02T1500,2619A,98.8546,25.8417,怒江傈僳族自治州,泸水一中,,21,21,14,14,8,47,,26,26,5,12,6,6,0.2,0.3
2025-08-02T1500,1888A,101.6891,26.571,攀枝花市,弄弄坪,,39,35,54,25,27,123,,85,85,7,21,9,14,0.7,1.1
2025-08-02T1500,1889A,101.5769,26.5928,攀枝花市,河门口,,50,42,41,26,22,159,,90,90,9,14,17,13,1.2,0.9
2025-08-02T1500,1890A,101.7169,26.585,攀枝花市,炳草岗,,44,34,49,21,25,139,,90,90,8,22,9,12,0.8,1
2025-08-02T1500,1891A,101.7369,26.5008,攀枝花市,仁和,,34,22,29,14,17,108,,81,81,4,11,9,10,0.5,0.7
2025-08-02T1500,2835A,101.7227,26.567,攀枝花市,四十中小,,44,42,40,25,22,138,,95,95,6,20,11,22,0.8,1.3
2025-08-02T1500,1604A,122.0303,41.1489,盘锦市,开发区,,23,17,17,12,11,72,,63,63,4,8,4,4,0.2,0.3
2025-08-02T1500,1605A,122.0485,41.0883,盘锦市,兴隆台,,26,12,20,9,12,82,,70,70,5,10,5,5,0.3,0.3
2025-08-02T1500,1606A,121.8297,41.1028,盘锦市,新生街道,,,15,18,9,9,92,,78,78,8,10,,3,0.3,0.3
2025-08-02T1500,1832A,113.3257,33.742,平顶山市,新华旅馆,,38,17,35,16,23,119,,87,87,4,9,4,5,0.3,0.4
2025-08-02T1500,1833A,113.2919,33.737,平顶山市,规划设计院,,37,20,29,14,19,116,,86,86,6,8,7,7,0.5,0.6
2025-08-02T1500,1834A,113.182,33.774,平顶山市,平顶山工学院,,37,16,25,12,15,116,,90,90,4,8,4,4,0.4,0.4
2025-08-02T1500,3204A,113.3025,33.73,平顶山市,规划局,,37,17,33,7,11,118,,88,88,4,7,4,4,0.3,0.4
2025-08-02T1500,3594A,112.8867,33.9116,平顶山市,石龙区,,37,18,47,14,23,116,,104,104,6,17,6,9,0.5,0.7
2025-08-02T1500,2656A,106.6692,35.5461,平凉市,聚贤嘉苑,,50,50,51,10,18,131,,114,114,5,14,8,9,0.6,0.7
2025-08-02T1500,2657A,106.7021,35.5307,平凉市,博物馆,,42,36,39,16,20,133,,116,116,4,16,11,11,0.5,0.6
2025-08-02T1500,2347A,114.0997,27.5002,萍乡市,武功山,,37,,3,20,12,117,,102,102,3,4,9,9,0.5,0.6
2025-08-02T1500,2348A,113.8385,27.6434,萍乡市,中医院,臭氧1小时,74,34,40,18,19,179,,133,133,12,14,11,10,1.0,0.9
2025-08-02T1500,2349A,113.8493,27.6253,萍乡市,市政府车库,,48,31,28,31,25,153,,117,117,6,9,10,9,0.7,0.5
2025-08-02T1500,2350A,113.8676,27.6435,萍乡市,市环保局,臭氧1小时,62,30,34,14,24,169,,134,134,6,8,12,10,0.7,0.5
2025-08-02T1500,2351A,113.866,27.6198,萍乡市,安源区政府,,49,40,34,29,25,154,,117,117,5,7,9,10,0.7,0.6
2025-08-02T1500,2319A,119.0141,25.4325,莆田市,荔城区仓后路,颗粒物(PM10),52,54,28,19,13,109,,92,92,8,8,5,5,0.6,0.7
2025-08-02T1500,2320A,119.0015,25.4553,莆田市,莆田市监测站,,37,32,31,22,13,116,,98,98,9,7,5,4,0.4,0.4
2025-08-02T1500,2321A,119.1119,25.4561,莆田市,涵江区六中,颗粒物(PM10),74,98,33,24,16,108,,96,96,10,12,5,5,0.0,0.2
2025-08-02T1500,2322A,119.1013,25.3215,莆田市,秀屿区政府,,31,28,28,14,14,97,,96,96,5,10,4,5,0.4,0.4
2025-08-02T1500,2323A,118.981,25.4792,莆田市,东圳水库,,,,,,,,,,,,,,,,
2025-08-02T1500,2392A,115.0312,35.7636,濮阳市,环保局,,44,31,28,24,19,140,,117,117,4,8,7,20,0.4,0.5
2025-08-02T1500,2394A,115.0574,35.7609,濮阳市,油田运输公司,,43,33,35,23,17,135,,114,114,6,10,7,26,0.4,0.5
2025-08-02T1500,3021A,115,35.7668,濮阳市,濮水河管理处,,35,28,26,24,18,107,,94,94,8,10,4,6,0.6,0.7
2025-08-02T1500,4216A,115.0924,35.7686,濮阳市,任丘路479号,,37,29,39,14,20,116,,102,102,4,9,3,16,0.4,0.5
2025-08-02T1500,2601A,100.98,22.7633,普洱市,市环保局,,28,24,26,19,13,50,,33,33,4,4,5,5,0.5,0.5
2025-08-02T1500,2602A,100.9817,22.8322,普洱市,普洱第二中学,,23,23,24,3,12,48,,33,33,2,7,5,5,0.4,0.5
2025-08-02T1500,2262A,131.0518,45.8751,七台河市,新一中,,38,15,19,8,11,120,,112,112,9,20,10,10,0.7,0.9
2025-08-02T1500,3345A,131.0577,45.7879,七台河市,中波台,,30,28,20,7,7,95,,90,90,18,23,8,8,0.7,0.6
2025-08-02T1500,3637A,131.0176,45.7761,七台河市,人民广场,,34,21,30,12,15,106,,99,99,11,18,12,12,0.6,0.6
2025-08-02T1500,3684A,130.8781,45.8222,七台河市,新建矿广场,,36,17,26,3,7,114,,102,102,10,25,12,11,0.4,0.5
2025-08-02T1500,1779A,123.9305,47.3636,齐齐哈尔市,安居小区,,27,8,27,3,9,84,,60,60,13,17,6,5,0.5,0.5
2025-08-02T1500,1780A,123.9488,47.3386,齐齐哈尔市,中心广场,,27,21,23,9,7,86,,68,68,17,13,5,5,0.6,0.5
2025-08-02T1500,1781A,123.9483,47.3227,齐齐哈尔市,农牧车辆厂,,26,22,27,12,10,83,,63,63,14,14,6,6,0.4,0.3
2025-08-02T1500,1783A,123.945,47.2988,齐齐哈尔市,市环境监测站,,25,18,20,7,9,79,,61,61,10,12,5,5,0.5,0.4
2025-08-02T1500,3662A,123.6333,47.2075,齐齐哈尔市,富区青少年活动中心,,25,,19,17,12,79,,61,61,12,12,7,5,0.7,0.4
2025-08-02T1500,2591A,107.9783,26.5747,黔东南苗族侗族自治州,市环境监测站,,31,22,22,16,17,98,,79,79,4,12,2,2,0.4,0.5
2025-08-02T1500,2881A,107.8908,26.5311,黔东南苗族侗族自治州,凯里学院,,39,,18,16,14,122,,86,86,9,13,2,3,0.9,0.8
2025-08-02T1500,2593A,107.5228,26.2403,黔南布依族苗族自治州,小围寨,,29,12,15,3,10,91,,58,58,4,9,3,2,0.3,0.3
2025-08-02T1500,3538A,107.5175,26.2978,黔南布依族苗族自治州,沙坝,,35,14,20,3,5,110,,70,70,5,9,3,4,0.6,0.4
2025-08-02T1500,2589A,104.9022,25.0925,黔西南布依族苗族自治州,场坝街,,30,15,23,3,10,96,,70,70,7,14,5,15,0.4,0.5
2025-08-02T1500,2590A,104.8811,25.0992,黔西南布依族苗族自治州,坪东大道,,30,28,28,7,12,96,,72,72,4,14,2,4,0.3,0.4
2025-08-02T1500,2502A,108.6236,21.9667,钦州市,市环保站,,29,12,9,9,3,90,,55,55,3,8,3,3,0.5,0.6
2025-08-02T1500,2503A,108.6549,21.9481,钦州市,沙埠小学,,30,25,14,16,8,96,,61,61,4,8,1,1,0.5,0.4
2025-08-02T1500,2504A,108.5989,21.7431,钦州市,港区一小,,37,24,11,9,6,116,,63,63,6,11,6,3,0.6,0.5
2025-08-02T1500,3404A,108.5959,21.9633,钦州市,北职校,,29,11,15,9,8,91,,54,54,2,6,1,2,0.5,0.6
2025-08-02T1500,1043A,119.7493,40.0116,秦皇岛市,第一关,,27,,18,8,10,86,,73,73,1,18,5,5,0.2,0.2
2025-08-02T1500,1044A,119.5897,39.9499,秦皇岛市,监测站,,28,28,29,6,5,88,,86,86,5,8,4,4,0.3,0.3
2025-08-02T1500,1046A,119.5251,39.9041,秦皇岛市,建设大厦,,27,17,21,3,8,86,,76,76,2,12,5,6,0.3,0.3
2025-08-02T1500,3132A,119.610547,39.943889,秦皇岛市,文明里,,26,14,24,12,13,82,,70,70,2,7,4,5,0.2,0.2
2025-08-02T1500,4198A,119.5090,39.8253,秦皇岛市,北戴河轮滑馆,,26,17,27,10,11,81,,66,66,2,7,2,2,0.2,0.3
2025-08-02T1500,1307A,120.6659,36.2403,青岛市,仰口,,20,17,17,8,9,64,,52,52,6,4,8,9,0.5,0.6
2025-08-02T1500,1310A,120.4134,36.0658,青岛市,市南区东部子站,,23,6,15,3,10,73,,53,53,2,3,6,6,0.3,0.3
2025-08-02T1500,1311A,120.3664,36.1032,青岛市,四方区子站,,22,12,16,3,9,69,,51,51,2,2,5,7,0.2,0.2
2025-08-02T1500,1312A,120.2994,36.054,青岛市,市南区西部子站,,18,7,17,3,8,55,,46,46,8,8,8,8,0.5,0.5
2025-08-02T1500,1313A,120.4581,36.0858,青岛市,崂山区子站,,22,9,30,3,7,68,,48,48,5,6,8,8,0.2,0.2
2025-08-02T1500,1315A,120.3999,36.3083,青岛市,城阳区子站,,20,9,14,3,8,62,,49,49,3,8,6,6,0.4,0.4
2025-08-02T1500,1966A,120.0405,35.8735,青岛市,黄岛区4号,,25,9,15,3,4,77,,58,58,1,2,10,10,0.4,0.3
2025-08-02T1500,3362A,120.5014,36.4034,青岛市,即墨2号,,20,,13,13,11,64,,58,58,2,2,4,4,0.1,0.1
2025-08-02T1500,3642A,120.3503,36.0736,青岛市,市北区南部,,21,15,19,3,7,67,,52,52,6,8,5,6,0.6,0.6
2025-08-02T1500,3643A,120.3948,36.1805,青岛市,李沧区北部,,21,,10,9,11,67,,49,49,3,3,5,6,0.3,0.2
2025-08-02T1500,4290A,120.1969,35.9546,青岛市,珠江路669号,,19,,12,10,9,60,,42,42,3,3,6,6,0.5,0.4
2025-08-02T1500,1702A,113.0426,23.691,清远市,环保大楼,,26,20,49,12,21,81,,93,93,11,16,6,9,0.7,0.8
2025-08-02T1500,1703A,113.0208,23.7106,清远市,凤城街办,,23,,29,16,25,67,,76,76,13,18,6,8,0.5,0.6
2025-08-02T1500,3025A,113.0477,23.6344,清远市,技师学院,,19,13,29,7,17,60,,76,76,11,17,6,9,0.4,0.5
2025-08-02T1500,3318A,112.9903,23.7403,清远市,清新太和,,25,24,32,13,18,77,,71,71,12,18,6,7,0.5,0.6
2025-08-02T1500,3455A,113.076,23.7198,清远市,清城东城,,20,16,26,9,17,64,,75,75,12,13,6,6,0.6,0.7
2025-08-02T1500,2661A,107.6325,35.7357,庆阳市,庆阳五中,,40,28,31,12,16,125,,124,123,5,7,7,7,0.6,0.6
2025-08-02T1500,2662A,107.6364,35.7067,庆阳市,市环保局,,41,38,37,14,17,131,,127,127,3,5,3,6,0.5,0.6
2025-08-02T1500,1916A,103.7897,25.5035,曲靖市,环境监测站,,44,30,35,6,14,140,,96,96,8,16,7,8,0.5,0.5
2025-08-02T1500,1917A,103.8,25.5364,曲靖市,烟厂办公区,,44,,25,23,17,138,,89,89,4,12,4,4,0.6,0.6
2025-08-02T1500,3376A,103.7947,25.462,曲靖市,南苑二区,,45,13,22,10,13,143,,111,111,4,9,6,4,0.6,0.6
2025-08-02T1500,3377A,103.7444,25.5261,曲靖市,曲靖师范学院,,,,29,12,18,112,,73,73,7,12,8,8,0.6,0.4
2025-08-02T1500,1264A,118.8692,28.9398,衢州市,环保大楼,,36,36,43,23,27,85,,76,76,8,16,2,2,0.5,0.5
2025-08-02T1500,1265A,118.8709,28.9666,衢州市,实验学校,,35,35,39,17,25,83,,81,81,8,16,4,4,0.5,0.4
2025-08-02T1500,1266A,118.8621,28.9808,衢州市,衢州学院,,29,27,38,20,26,90,,85,85,7,20,2,3,0.4,0.4
2025-08-02T1500,1611A,118.5819,24.9117,泉州市,涂山街,,,25,32,18,16,92,,90,90,7,15,,2,0.6,0.7
2025-08-02T1500,1612A,118.5972,24.8978,泉州市,津头埔,,30,20,30,15,17,95,,99,99,6,11,2,2,0.4,0.5
2025-08-02T1500,1613A,118.6663,24.9424,泉州市,万安,,30,26,30,15,15,95,,91,91,6,11,1,2,0.3,0.4
2025-08-02T1500,1614A,118.6117,24.9604,泉州市,清源山,,,,,,,,,,,,,,,,
2025-08-02T1500,3529A,118.6333,24.9264,泉州市,城华南路,,30,22,27,12,17,93,,95,95,8,13,4,4,0.5,0.5
2025-08-02T1500,2626A,88.8876,29.2718,日喀则市,日喀则监测站,,23,6,5,3,1,73,,62,62,1,5,12,12,0.3,0.3
2025-08-02T1500,3726A,88.8781,29.2426,日喀则市,林业技术推广中心,,21,6,6,3,1,66,,57,55,2,3,6,6,0.4,0.4
2025-08-02T1500,1659A,119.471,35.4209,日照市,监测站,,21,,10,13,9,65,,59,59,2,4,5,6,0.5,0.4
2025-08-02T1500,1660A,119.523,35.4216,日照市,市政府广场,,20,9,13,3,4,63,,59,59,1,2,3,3,0.6,0.6
2025-08-02T1500,1661A,119.5587,35.4044,日照市,港务局,,22,14,15,11,15,69,,62,62,1,3,4,4,0.6,0.5
2025-08-02T1500,3507A,119.5328,35.4625,日照市,职业技术学院,,21,7,12,3,6,65,,60,60,6,4,5,5,0.5,0.5
2025-08-02T1500,3604A,119.3266,35.1044,日照市,岚山环保分局,,24,24,13,3,4,64,,58,58,2,5,7,8,0.5,0.5
2025-08-02T1500,1835A,111.1922,34.7752,三门峡市,市政府,,40,34,37,19,19,127,,121,121,4,8,5,6,0.4,0.4
2025-08-02T1500,1836A,111.1587,34.7942,三门峡市,开发区,,41,29,36,22,20,130,,124,124,9,13,4,7,0.3,0.3
2025-08-02T1500,1838A,111.143,34.7955,三门峡市,风景区,,43,37,39,13,22,135,,128,128,2,5,3,5,0.4,0.5
2025-08-02T1500,3039A,111.1911,34.7829,三门峡市,三门峡市第一小学,,40,37,36,24,17,126,,120,120,7,12,5,8,0.4,0.4
2025-08-02T1500,3598A,111.1,34.7167,三门峡市,富达温泉假日酒店,,42,30,37,19,20,133,,124,124,4,8,2,4,0.4,0.4
2025-08-02T1500,2324A,117.6211,26.2625,三明市,三钢,,27,27,30,8,20,82,,65,65,9,15,8,6,2.3,1.4
2025-08-02T1500,2325A,117.635,26.2714,三明市,三明二中,,28,25,28,3,14,87,,70,70,3,10,2,3,0.3,0.5
2025-08-02T1500,2326A,117.6028,26.2378,三明市,三元区政府,,29,29,30,11,18,89,,72,72,7,11,3,4,0.3,0.4
2025-08-02T1500,2327A,117.7275,26.3108,三明市,洋溪,,,,,,,,,,,,,,,,
2025-08-02T1500,1876A,109.5078,18.2489,三亚市,河东子站,,39,39,34,14,15,78,,67,67,3,3,4,4,0.2,0.2
2025-08-02T1500,1877A,109.4964,18.2681,三亚市,河西子站,,30,30,35,17,14,79,,66,66,3,4,3,3,0.2,0.2
2025-08-02T1500,3540A,109.7348,18.3443,三亚市,君悦子站,,47,47,39,16,15,73,,66,66,4,6,2,2,0.4,0.5
2025-08-02T1500,2624A,91.7608,29.2313,山南市,山南监测站,,,,28,4,3,65,,61,55,4,5,4,3,0.3,0.3
2025-08-02T1500,2625A,91.7706,29.2436,山南市,山南人民医院,,20,12,11,3,4,63,,58,54,4,5,4,4,0.2,0.2
2025-08-02T1500,1674A,116.6794,23.3667,汕头市,金平子站,,20,20,14,6,9,60,,54,54,6,10,1,2,0.5,0.6
2025-08-02T1500,1675A,116.7244,23.3633,汕头市,龙湖子站,,20,10,16,3,7,61,,54,54,5,9,6,6,0.5,0.5
2025-08-02T1500,1676A,116.7258,23.2775,汕头市,濠江子站,,21,21,27,8,7,51,,48,48,3,6,4,4,0.6,0.6
2025-08-02T1500,1677A,116.7519,23.4714,汕头市,澄海子站,,20,15,23,8,14,63,,52,52,5,14,2,2,0.6,0.8
2025-08-02T1500,1678A,116.6092,23.2539,汕头市,潮阳子站,,17,12,17,6,8,52,,48,48,3,5,4,4,0.5,0.5
2025-08-02T1500,3444A,116.454,23.2684,汕头市,潮南峡山,,16,6,20,3,12,49,,44,44,5,11,5,5,0.6,0.7
2025-08-02T1500,3624A,116.4069,23.2533,汕头市,潮南子站,,17,7,22,3,11,52,,46,46,2,9,3,4,0.5,0.6
2025-08-02T1500,1693A,115.3653,22.775,汕尾市,市环保局,,16,12,20,7,9,51,,53,51,5,5,2,2,0.5,0.5
2025-08-02T1500,1694A,115.3706,22.7898,汕尾市,市政府,,16,13,19,3,8,50,,49,48,7,8,3,3,0.4,0.5
2025-08-02T1500,1695A,115.3622,22.7925,汕尾市,新城中学,,17,15,24,6,9,53,,51,51,4,5,4,4,0.4,0.4
2025-08-02T1500,2645A,109.9154,33.8715,商洛市,监测站,,,33,36,21,23,129,,104,104,5,14,,7,0.5,0.5
2025-08-02T1500,3045A,109.9643,33.8471,商洛市,商州区中学,,39,34,40,21,21,122,,100,100,4,15,8,13,0.5,0.5
2025-08-02T1500,2408A,115.6702,34.4285,商丘市,环境监测站,,34,22,19,12,12,106,,76,76,4,8,2,2,0.4,0.5
2025-08-02T1500,2409A,115.6458,34.4045,商丘市,粮食局,,33,22,17,14,10,104,,74,74,4,7,2,3,0.3,0.4
2025-08-02T1500,2410A,115.6293,34.3948,商丘市,睢阳区环保局,,32,20,18,12,10,102,,74,74,3,6,4,5,0.3,0.3
2025-08-02T1500,3171A,115.6071,34.4465,商丘市,梁园区档案局,,33,30,20,12,10,103,,70,70,6,9,1,2,0.4,0.4
2025-08-02T1500,1141A,121.4,31.238,上海市,普陀,,49,42,39,32,24,156,,78,78,12,18,5,5,0.5,0.4
2025-08-02T1500,1142A,121.478,31.2036,上海市,十五厂,,50,40,43,35,26,148,,80,80,14,17,7,8,0.9,0.8
2025-08-02T1500,1143A,121.467,31.3008,上海市,虹口,细颗粒物(PM2.5),53,48,41,37,23,127,,57,56,14,16,10,10,0.6,0.6
2025-08-02T1500,1147A,121.425,31.2261,上海市,静安监测站,,45,44,40,28,24,141,,73,73,12,16,3,3,0.8,0.8
2025-08-02T1500,1148A,121.703,31.1907,上海市,浦东川沙,,44,44,44,28,23,116,,97,97,21,15,10,10,0.8,0.6
2025-08-02T1500,1149A,121.533,31.2284,上海市,浦东新区监测站,细颗粒物(PM2.5),52,38,38,36,25,144,,79,79,7,10,7,7,0.5,0.4
2025-08-02T1500,1150A,121.577,31.2071,上海市,浦东张江,,50,40,44,28,23,157,,91,91,10,11,5,5,0.9,0.7
2025-08-02T1500,3265A,121.4316,31.3322,上海市,宝山庙行,,39,38,42,27,22,52,,48,32,55,20,7,8,0.5,0.4
2025-08-02T1500,3266A,121.8791,31.4662,上海市,崇明上实东滩,,32,29,35,15,17,101,,71,71,12,13,3,4,0.7,0.7
2025-08-02T1500,3268A,121.3162,31.2838,上海市,嘉定南翔,,46,46,41,28,24,92,,47,30,36,17,8,7,0.5,0.4
2025-08-02T1500,3269A,121.3359,30.7456,上海市,金山新城,,49,34,38,33,26,155,,112,112,5,11,3,3,0.7,0.6
2025-08-02T1500,3270A,121.4996,31.0739,上海市,闵行浦江,,44,42,39,30,25,140,,89,89,6,12,4,4,1.0,1
2025-08-02T1500,3271A,121.2886,31.1663,上海市,青浦徐泾,颗粒物(PM10),57,64,52,38,25,142,,70,70,20,18,6,7,0.6,0.5
2025-08-02T1500,3272A,121.2186,31.0378,上海市,松江图书馆,臭氧1小时,84,,39,44,27,187,,90,90,12,19,6,7,0.7,0.7
2025-08-02T1500,3273A,121.3902,31.2059,上海市,长宁仙霞,,48,44,41,33,23,129,,64,64,13,16,7,7,0.7,0.7
2025-08-02T1500,3274A,121.7965,31.0507,上海市,浦东惠南,,50,34,35,25,21,158,,112,112,7,9,9,9,0.7,0.6
2025-08-02T1500,3544A,121.4891,30.925,上海市,奉贤南桥新城,,46,37,38,30,23,146,,103,103,10,14,3,3,0.7,0.6
2025-08-02T1500,4183A,121.4174,31.16637,上海市,冠生园路458号,,50,42,38,35,25,119,,58,58,11,16,3,3,0.9,0.8
2025-08-02T1500,4205A,121.5419,31.2683,上海市,宁武路151号,颗粒物(PM10),51,51,47,29,23,115,,53,53,28,23,8,7,0.6,0.6
2025-08-02T1500,2381A,118.005,28.4572,上饶市,百草园,,,,,,,,,,,,,,,,
2025-08-02T1500,2382A,117.9756,28.4436,上饶市,市监测站,,42,42,46,27,30,106,,100,100,5,11,4,14,0.6,0.6
2025-08-02T1500,2383A,117.9519,28.4628,上饶市,凤凰光学,,48,48,47,28,29,120,,105,105,2,9,5,12,1.0,1
2025-08-02T1500,3685A,117.897,28.4315,上饶市,双创科技城,,39,38,44,19,19,123,,106,106,8,21,3,9,0.6,0.6
2025-08-02T1500,4211A,118.1904,28.4448,上饶市,裕丰大道,,31,,31,18,23,98,,85,85,7,10,8,10,0.8,0.7
2025-08-02T1500,1669A,113.5824,24.7733,韶关市,市八中,,36,36,33,15,17,86,,80,80,6,11,10,11,0.4,0.7
