timepoint,stationcode,longitude,latitude,area,positionname,primarypollutant,aqi,pm10,pm10_24h,pm2_5,pm2_5_24h,o3,o3_24h,o3_8h,o3_8h_24h,no2,no2_24h,so2,so2_24h,co,co_24h
2022-06-28T21:00:00,1001A,116.3621,39.8784,北京市,万寿西宫,,27,9,21,7,15,110,85,106,102,6,10,4,3,0.5,0.6
2022-06-28T21:00:00,1002A,116.2202,40.2915,北京市,定陵(对照点),,21,12,29,6,10,96,66,87,83,3,6,3,3,0.4,0.4
2022-06-28T21:00:00,1003A,116.4174,39.9289,北京市,东四,,26,13,22,6,14,112,83,104,99,14,15,3,3,0.4,0.5
2022-06-28T21:00:00,1004A,116.4072,39.8863,北京市,天坛,,23,11,21,6,13,96,71,89,85,13,13,3,3,0.4,0.5
2022-06-28T21:00:00,1005A,116.462,39.9365,北京市,农展馆,,24,13,25,7,16,101,76,92,89,15,15,3,3,0.4,0.5
2022-06-28T21:00:00,1006A,116.3392,39.9295,北京市,官园,,25,12,21,6,15,106,78,100,95,16,16,3,3,0.4,0.5
2022-06-28T21:00:00,1007A,116.2878,39.9611,北京市,海淀万柳,,22,12,22,6,15,97,69,89,87,12,13,1,1,0.4,0.5
2022-06-28T21:00:00,1008A,116.6636,40.135,北京市,顺义新城,,26,26,24,14,17,85,35,74,57,20,12,3,3,0.4,0.5
2022-06-28T21:00:00,1009A,116.6275,40.3275,北京市,怀柔镇,,19,14,16,9,11,99,58,88,71,6,5,3,3,0.3,0.4
2022-06-28T21:00:00,1010A,116.2296,40.217,北京市,昌平镇,,16,16,21,9,14,81,51,68,65,11,10,3,3,0.4,0.4
2022-06-28T21:00:00,1011A,116.3966,39.9821,北京市,奥体中心,,25,10,23,6,14,104,80,95,91,15,15,1,1,0.3,0.4
2022-06-28T21:00:00,1012A,116.184,39.9136,北京市,古城,,27,11,22,7,14,108,84,101,94,10,14,3,3,0.4,0.5
2022-06-28T21:00:00,1015A,117.1444,39.1661,天津市,勤俭道,,26,26,32,12,22,154,70,138,123,24,14,5,6,0.6,0.7
2022-06-28T21:00:00,1017A,117.237,39.1082,天津市,大直沽八号路,,30,22,30,10,18,157,95,131,121,25,15,6,6,0.8,0.9
2022-06-28T21:00:00,1018A,117.202,39.0927,天津市,前进道,,23,21,27,10,18,129,71,111,101,32,17,6,9,0.8,0.9
2022-06-28T21:00:00,1019A,117.1837,39.2133,天津市,淮河道,,28,28,40,14,26,165,77,139,127,27,21,6,8,0.7,0.9
2022-06-28T21:00:00,1021A,117.307,39.0877,天津市,跃进路,,,22,28,12,16,150,,124,113,35,19,8,10,0.7,0.7
2022-06-28T21:00:00,1023A,117.707,39.0343,天津市,第四大街,,26,20,24,12,12,129,83,109,98,30,23,6,5,0.8,0.7
2022-06-28T21:00:00,1024A,117.457,38.8394,天津市,永明路,,31,15,19,11,14,149,98,127,115,16,9,9,9,0.5,0.6
2022-06-28T21:00:00,1026A,117.764,39.1587,天津市,汉北路,,25,13,25,6,16,150,79,135,122,31,27,5,6,0.6,0.8
2022-06-28T21:00:00,1027A,117.157,38.9194,天津市,团泊洼(对照点),,34,22,17,12,10,126,107,118,118,15,8,6,8,1.0,1.1
2022-06-28T21:00:00,1029A,114.4422,38.0444,石家庄市,职工医院,,34,27,27,8,14,157,108,148,136,9,6,2,2,0.8,0.8
2022-06-28T21:00:00,1030A,114.6063,38.0266,石家庄市,高新区,,30,21,26,19,19,148,96,142,129,18,22,5,6,0.4,0.5
2022-06-28T21:00:00,1031A,114.4898,38.1328,石家庄市,西北水源,,27,7,15,15,16,144,84,136,123,14,6,4,4,0.3,0.4
2022-06-28T21:00:00,1032A,114.4586,38.0058,石家庄市,西南高教,,30,13,19,13,14,148,94,134,118,2,3,4,5,0.4,0.4
2022-06-28T21:00:00,1033A,114.5331,38.0178,石家庄市,世纪公园,,29,29,29,19,18,145,78,136,118,13,9,3,4,0.5,0.5
2022-06-28T21:00:00,1034A,114.509,38.0457,石家庄市,人民会堂,,32,16,16,15,18,155,100,146,132,13,8,5,6,0.4,0.4
2022-06-28T21:00:00,1035A,114.3524,37.8911,石家庄市,封龙山(对照点),,40,12,23,16,20,150,128,137,134,10,12,5,4,0.5,0.5
2022-06-28T21:00:00,1037A,118.131,39.6363,唐山市,雷达站,,,38,35,7,10,168,,155,149,29,17,3,8,0.7,1
2022-06-28T21:00:00,1038A,118.1725,39.6334,唐山市,物资局,,36,36,41,14,12,170,109,152,136,17,18,7,12,0.5,0.7
2022-06-28T21:00:00,1040A,118.1705,39.6506,唐山市,十二中,,38,27,30,26,23,164,109,148,136,19,21,5,10,0.4,0.6
2022-06-28T21:00:00,1041A,118.1869,39.622,唐山市,小山,,42,42,35,18,15,171,109,155,142,20,21,4,8,0.5,0.7
2022-06-28T21:00:00,1042A,119.5134,39.8207,秦皇岛市,北戴河环保局,,35,24,21,3,5,151,109,135,125,13,12,6,6,0.2,0.4
2022-06-28T21:00:00,1043A,119.7493,40.0116,秦皇岛市,第一关,,46,31,19,9,7,124,12,112,90,91,36,14,13,0.2,0.2
2022-06-28T21:00:00,1044A,119.5897,39.9499,秦皇岛市,监测站,,28,28,21,12,7,128,87,117,102,26,15,5,5,0.2,0.2
2022-06-28T21:00:00,1046A,119.5251,39.9041,秦皇岛市,建设大厦,,25,25,17,9,10,139,70,123,108,25,8,3,2,0.5,0.4
2022-06-28T21:00:00,1048A,114.5302,36.6116,邯郸市,东污水处理厂,,39,33,40,10,24,178,122,156,148,13,12,4,5,0.6,0.9
2022-06-28T21:00:00,1049A,114.4918,36.5713,邯郸市,矿院,,41,19,38,13,26,179,130,160,153,9,11,3,3,0.6,0.9
2022-06-28T21:00:00,1050A,114.484,36.6133,邯郸市,丛台公园,,,,48,12,29,179,128,168,156,15,18,4,5,0.7,1
2022-06-28T21:00:00,1051A,115.493,38.8632,保定市,游泳馆,,39,22,19,14,12,140,123,140,127,10,7,10,13,0.4,0.3
2022-06-28T21:00:00,1052A,115.5213,38.8959,保定市,华电二区,,32,28,26,5,10,139,102,139,120,20,9,5,4,0.5,0.5
2022-06-28T21:00:00,1053A,115.4713,38.9108,保定市,接待中心,,37,25,20,7,9,149,117,149,126,18,11,3,3,0.7,0.7
2022-06-28T21:00:00,1054A,115.4612,38.8416,保定市,地表水厂,,32,28,27,17,16,124,101,118,109,11,7,6,6,0.5,0.5
2022-06-28T21:00:00,1055A,115.4323,38.8697,保定市,胶片厂,,34,20,17,12,9,152,107,152,132,17,7,5,5,0.5,0.4
2022-06-28T21:00:00,1056A,115.5086,38.8639,保定市,监测站,,38,25,22,11,14,148,120,148,132,14,11,8,8,0.4,0.4
2022-06-28T21:00:00,1057A,114.8883,40.8336,张家口市,人民公园,,31,31,24,8,7,141,92,124,116,18,11,6,5,0.3,0.2
2022-06-28T21:00:00,1059A,114.8687,40.8042,张家口市,五金库,,29,29,20,12,13,132,85,118,109,22,18,8,7,0.3,0.3
2022-06-28T21:00:00,1061A,114.8916,40.8661,张家口市,北泵房(对照点),,39,36,26,27,16,140,91,122,116,14,9,8,6,0.6,0.5
2022-06-28T21:00:00,1062A,117.9531,40.9081,承德市,铁路,,41,41,28,24,13,112,39,104,84,17,15,2,3,0.4,0.3
2022-06-28T21:00:00,1063A,117.9392,40.9763,承德市,中国银行,,17,17,10,5,9,112,34,108,87,21,13,4,4,0.3,0.2
2022-06-28T21:00:00,1064A,117.9503,40.928,承德市,开发区,,26,26,21,9,11,116,44,112,88,24,14,4,4,0.4,0.4
2022-06-28T21:00:00,1065A,117.8051,40.9655,承德市,文化中心,,36,36,18,16,11,118,37,113,97,32,16,4,4,0.4,0.4
2022-06-28T21:00:00,1066A,117.9268,41.0026,承德市,离宫(对照点),,13,7,13,9,10,102,17,97,57,16,7,7,7,0.2,0.2
2022-06-28T21:00:00,1067A,116.6708,39.5111,廊坊市,药材公司,,42,42,29,13,19,114,65,107,95,32,19,3,3,0.4,0.5
2022-06-28T21:00:00,1068A,116.7214,39.5589,廊坊市,开发区,,29,22,27,20,22,114,61,101,91,39,26,6,6,0.5,0.5
2022-06-28T21:00:00,1070A,116.7244,39.5269,廊坊市,北华航天学院,,31,31,36,20,21,113,74,104,97,29,25,8,8,0.3,0.4
2022-06-28T21:00:00,1071A,116.8842,38.2991,沧州市,沧县城建局,,33,24,30,11,18,133,104,123,117,24,23,4,7,0.4,0.5
2022-06-28T21:00:00,1072A,116.8584,38.3254,沧州市,电视转播站,,30,24,26,3,12,131,96,118,109,15,16,10,11,0.3,0.5
2022-06-28T21:00:00,1073A,116.8709,38.3228,沧州市,市环保局,,29,27,40,12,16,129,91,116,109,21,15,7,8,0.2,0.3
2022-06-28T21:00:00,1074A,115.6838,37.7541,衡水市,电机北厂,,35,14,29,0,15,145,112,129,127,16,16,8,9,0.3,0.4
2022-06-28T21:00:00,1075A,115.6303,37.7316,衡水市,市监测站,,41,27,37,3,9,154,129,140,140,10,12,16,17,0.5,0.6
2022-06-28T21:00:00,1077A,114.4704,37.0886,邢台市,达活泉,,37,22,37,6,10,154,118,147,140,2,8,8,10,0.4,0.6
2022-06-28T21:00:00,1078A,114.5062,37.0349,邢台市,邢师高专,,40,5,23,10,16,169,125,158,150,8,13,6,8,0.6,0.8
2022-06-28T21:00:00,1079A,114.5237,37.0851,邢台市,路桥公司,,36,34,36,12,16,158,114,149,142,10,12,6,7,0.4,0.5
2022-06-28T21:00:00,1080A,114.4725,37.0719,邢台市,市环保局,,,,43,,20,165,115,154,146,,17,,8,0.4,0.5
2022-06-28T21:00:00,1081A,112.5139,37.8873,太原市,尖草坪,,38,38,33,13,15,109,62,100,97,39,23,8,7,0.8,0.5
2022-06-28T21:00:00,1083A,112.434,38.0108,太原市,上兰(对照点),,26,22,31,3,13,111,81,98,94,17,13,3,2,0.5,0.4
2022-06-28T21:00:00,1084A,112.469,37.7124,太原市,晋源,,25,25,37,14,23,106,55,94,88,47,29,12,9,0.5,0.4
2022-06-28T21:00:00,1085A,112.5583,37.7394,太原市,小店,,30,30,39,8,18,113,68,111,97,35,27,7,6,0.5,0.5
2022-06-28T21:00:00,1086A,112.5369,37.8692,太原市,桃园,,27,27,30,8,13,108,75,101,99,25,20,4,5,0.6,0.5
2022-06-28T21:00:00,1087A,112.57,37.8195,太原市,坞城,,29,29,29,10,15,116,79,116,98,27,18,11,11,0.5,0.5
2022-06-28T21:00:00,1088A,112.549,37.9854,太原市,南寨,,25,25,35,11,16,104,72,97,80,22,30,5,6,0.6,0.5
2022-06-28T21:00:00,1090A,111.6507,40.7517,呼和浩特市,呼市一监,,36,7,11,3,4,122,114,100,100,14,14,5,6,0.3,0.3
2022-06-28T21:00:00,1091A,111.6572,40.8033,呼和浩特市,小召,,40,5,8,3,4,130,125,101,101,11,16,5,5,0.4,0.4
2022-06-28T21:00:00,1094A,111.7516,40.8369,呼和浩特市,如意水处理厂,,36,7,6,2,3,124,114,107,107,15,12,4,4,0.4,0.4
2022-06-28T21:00:00,1095A,111.7276,40.8062,呼和浩特市,二十九中,,34,6,8,4,4,122,108,102,102,16,14,8,8,0.5,0.4
2022-06-28T21:00:00,1096A,111.5512,40.7866,呼和浩特市,工大金川校区,,34,8,17,3,7,115,106,95,95,20,18,4,6,0.4,0.5
2022-06-28T21:00:00,1097A,111.717,40.7612,呼和浩特市,化肥厂生活区,,38,7,12,5,6,119,119,99,99,9,16,6,6,0.4,0.5
2022-06-28T21:00:00,1099A,123.505,41.7406,沈阳市,浑南东路,,24,19,19,10,14,94,23,74,68,48,17,1,2,0.7,0.8
2022-06-28T21:00:00,1100A,123.4231,41.6989,沈阳市,新秀街,,30,22,19,10,10,77,13,67,57,59,21,5,3,0.8,1
2022-06-28T21:00:00,1102A,123.5903,41.8411,沈阳市,东陵路,,24,24,24,8,10,77,22,60,51,21,12,6,6,0.7,0.9
2022-06-28T21:00:00,1103A,123.4264,41.8467,沈阳市,陵东街,,14,14,12,8,7,69,23,60,49,18,11,4,3,0.6,0.6
2022-06-28T21:00:00,1104A,123.4114,41.7653,沈阳市,文化路,,18,18,15,12,11,94,41,71,64,27,12,2,2,0.4,0.5
2022-06-28T21:00:00,1105A,123.4678,41.7867,沈阳市,小河沿,,15,15,16,10,10,80,30,59,52,26,16,3,4,0.7,0.7
2022-06-28T21:00:00,1106A,123.4017,41.7972,沈阳市,太原街,,22,14,13,11,11,84,36,71,59,44,23,3,3,0.4,0.4
2022-06-28T21:00:00,1108A,123.3783,41.9228,沈阳市,京沈街,,24,10,12,7,4,93,74,82,78,10,6,8,9,0.6,0.5
2022-06-28T21:00:00,1109A,121.612,38.9741,大连市,甘井子,,35,35,17,19,9,124,70,115,111,36,17,6,5,0.5,0.5
2022-06-28T21:00:00,1110A,121.565,38.9511,大连市,周水子,,30,30,18,14,11,114,71,108,100,41,19,6,5,0.9,0.9
2022-06-28T21:00:00,1111A,121.5637,38.8845,大连市,星海三站,,33,18,18,23,14,154,94,133,129,36,22,5,6,0.5,0.4
2022-06-28T21:00:00,1112A,121.6302,38.9117,大连市,青泥洼桥,,29,29,16,17,11,125,80,115,108,48,26,6,6,0.5,0.4
2022-06-28T21:00:00,1113A,121.6251,38.8638,大连市,傅家庄,,29,19,14,11,9,109,90,99,99,13,5,8,8,0.9,0.8
2022-06-28T21:00:00,1115A,121.2529,38.8061,大连市,旅顺,,34,16,14,13,8,138,106,125,125,13,12,4,5,0.5,0.5
2022-06-28T21:00:00,1116A,121.7485,39.1311,大连市,金州,,27,27,14,16,10,124,70,114,102,15,8,5,5,0.6,0.5
2022-06-28T21:00:00,1117A,121.7811,39.0496,大连市,开发区,,30,23,18,21,11,125,81,111,107,36,26,8,7,0.8,0.7
2022-06-28T21:00:00,1118A,121.9762,39.0631,大连市,双D港,,26,26,26,9,11,122,47,100,93,16,18,8,8,0.5,0.5
2022-06-28T21:00:00,1119A,125.3325,43.9166,长春市,食品厂,,25,16,17,17,3,68,49,62,59,20,12,3,3,0.5,0.5
2022-06-28T21:00:00,1120A,125.2863,43.9027,长春市,客车厂,,19,14,10,5,5,70,59,65,61,17,15,3,3,0.5,0.5
2022-06-28T21:00:00,1121A,125.2841,43.8463,长春市,邮电学院,,16,5,4,8,7,66,31,64,52,31,12,4,4,0.4,0.4
2022-06-28T21:00:00,1122A,125.3716,43.8772,长春市,劳动公园,,31,31,14,11,6,66,38,60,54,24,11,3,3,0.3,0.3
2022-06-28T21:00:00,1123A,125.3297,43.8805,长春市,园林处,,17,14,11,7,8,70,54,66,63,21,15,2,2,0.4,0.4
2022-06-28T21:00:00,1124A,125.4605,43.79,长春市,净月潭,,16,10,9,3,5,67,49,64,54,6,6,3,3,0.2,0.3
2022-06-28T21:00:00,1125A,125.7194,43.515,长春市,甩湾子(对照点),,28,28,9,6,7,74,35,62,52,8,5,5,5,0.2,0.2
2022-06-28T21:00:00,1126A,125.3863,43.8447,长春市,经开区环卫处,,16,10,9,5,7,60,49,55,52,11,13,4,4,0.3,0.3
2022-06-28T21:00:00,1127A,125.245,43.7783,长春市,高新区管委会,,17,15,10,0,3,69,54,61,59,18,13,4,4,0.3,0.3
2022-06-28T21:00:00,1128A,125.1761,43.8325,长春市,岱山公园,,20,18,14,8,9,67,25,58,51,39,17,5,5,0.6,0.4
2022-06-28T21:00:00,1129A,126.5422,45.755,哈尔滨市,岭北(对照点),,28,12,20,8,14,109,89,106,102,14,14,5,5,0.4,0.5
2022-06-28T21:00:00,1130A,126.561,45.8167,哈尔滨市,松北商大,,27,15,25,4,9,105,84,97,95,4,5,5,5,1.0,1
2022-06-28T21:00:00,1131A,126.979,45.5419,哈尔滨市,阿城会宁,,32,19,22,22,11,92,72,86,85,9,11,10,10,0.5,0.6
2022-06-28T21:00:00,1132A,126.599,45.7222,哈尔滨市,南岗学府路,,26,10,18,1,8,105,83,100,96,10,13,8,9,0.7,0.7
2022-06-28T21:00:00,1133A,126.689,45.7733,哈尔滨市,太平宏伟公园,,28,28,30,10,10,99,70,92,88,26,23,11,12,0.4,0.5
2022-06-28T21:00:00,1134A,126.635,45.7667,哈尔滨市,道外承德广场,,26,26,33,9,8,98,60,89,79,34,27,13,12,0.2,0.3
2022-06-28T21:00:00,1135A,126.685,45.7319,哈尔滨市,香坊红旗大街,,22,20,24,7,8,100,70,93,88,27,24,8,8,0.4,0.4
2022-06-28T21:00:00,1136A,126.6411,45.7258,哈尔滨市,动力和平路,,25,14,28,2,7,98,80,94,91,15,14,7,8,0.5,0.5
2022-06-28T21:00:00,1137A,126.593,45.7478,哈尔滨市,道里建国路,,26,22,28,11,13,105,83,98,90,13,21,2,4,0.8,0.9
2022-06-28T21:00:00,1138A,126.615,45.61,哈尔滨市,平房东轻厂,,26,26,37,13,14,91,38,82,74,43,22,5,5,0.6,0.6
2022-06-28T21:00:00,1139A,126.595,45.9855,哈尔滨市,呼兰师专,,35,35,27,6,8,101,74,92,90,24,19,6,10,0.4,0.5
2022-06-28T21:00:00,1140A,126.6206,45.6842,哈尔滨市,省农科院,,24,17,20,8,10,105,76,99,94,18,16,5,6,0.7,0.6
2022-06-28T21:00:00,1141A,121.4,31.238,上海市,普陀,,29,29,25,6,9,129,56,113,106,18,16,4,4,0.4,0.6
2022-06-28T21:00:00,1142A,121.478,31.2036,上海市,十五厂,,26,24,28,18,15,102,38,95,82,14,14,2,3,0.6,0.6
2022-06-28T21:00:00,1144A,121.412,31.1654,上海市,徐汇上师大,,,30,24,14,10,117,,109,103,17,15,3,3,0.7,0.7
2022-06-28T21:00:00,1145A,121.536,31.2659,上海市,杨浦四漂,,19,19,24,13,13,117,48,107,95,13,12,6,5,0.8,0.8
2022-06-28T21:00:00,1147A,121.425,31.2261,上海市,静安监测站,,29,29,26,12,12,115,50,104,92,18,18,2,2,0.3,0.4
2022-06-28T21:00:00,1148A,121.703,31.1907,上海市,浦东川沙,,24,24,34,12,12,108,38,94,79,16,12,5,5,0.3,0.4
2022-06-28T21:00:00,1149A,121.533,31.2284,上海市,浦东新区监测站,,29,29,29,16,15,125,55,114,103,14,13,7,7,0.3,0.3
2022-06-28T21:00:00,1150A,121.577,31.2071,上海市,浦东张江,,20,13,18,14,10,110,44,99,87,17,15,4,4,0.6,0.7
2022-06-28T21:00:00,1151A,118.8086,32.1065,南京市,迈皋桥,,25,25,20,12,4,89,77,83,83,15,12,12,8,0.7,0.3
2022-06-28T21:00:00,1152A,118.7538,32.0551,南京市,草场门,,25,17,15,12,6,90,80,84,84,16,11,11,5,0.9,0.3
2022-06-28T21:00:00,1153A,118.7794,32.0745,南京市,山西路,,27,27,21,17,13,82,70,76,76,11,7,5,4,1.0,0.3
2022-06-28T21:00:00,1154A,118.7752,32.0023,南京市,中华门,,24,24,17,7,2,86,66,78,78,10,4,5,5,1.1,0.8
2022-06-28T21:00:00,1155A,118.8109,32.0309,南京市,瑞金路,,,58,24,17,9,87,,82,82,,8,4,4,0.3,0.1
2022-06-28T21:00:00,1156A,118.7997,32.0754,南京市,玄武湖,,26,22,18,17,11,92,81,86,86,9,7,4,4,1.0,0.6
2022-06-28T21:00:00,1157A,118.6414,32.0931,南京市,浦口,,27,17,22,11,9,89,84,84,84,6,11,3,2,0.1,0.2
2022-06-28T21:00:00,1158A,118.7356,31.9996,南京市,奥体中心,,29,29,24,17,10,100,85,93,93,17,15,6,5,0.5,0.4
2022-06-28T21:00:00,1159A,118.9125,32.1028,南京市,仙林大学城,,,,20,,10,92,,90,90,13,13,,3,,0.5
2022-06-28T21:00:00,1160A,120.561,31.2472,苏州市,上方山(对照点),,47,47,42,18,18,139,84,123,115,22,14,6,7,0.6,0.5
2022-06-28T21:00:00,1162A,120.591,31.3019,苏州市,彩香,,30,30,31,11,11,138,90,120,112,20,14,5,6,0.5,0.5
2022-06-28T21:00:00,1163A,120.596,31.3264,苏州市,轧钢厂,,36,36,34,14,13,126,83,113,105,18,10,7,7,0.6,0.5
2022-06-28T21:00:00,1164A,120.613,31.2703,苏州市,吴中区,,31,31,26,14,14,142,81,125,116,26,14,5,7,0.4,0.4
2022-06-28T21:00:00,1165A,120.543,31.2994,苏州市,苏州新区,,32,32,31,18,15,140,100,124,117,14,12,6,6,0.7,0.7
2022-06-28T21:00:00,1166A,120.669,31.3097,苏州市,苏州工业园区,,34,34,28,19,15,127,75,110,103,24,14,6,6,0.8,0.7
2022-06-28T21:00:00,1167A,120.641,31.3708,苏州市,相城区,,40,40,34,18,18,130,70,113,101,28,12,5,6,0.6,0.4
2022-06-28T21:00:00,1168A,120.9098,31.9663,南通市,狼山街道,,32,32,31,12,10,143,48,121,96,33,24,3,5,0.4,0.4
2022-06-28T21:00:00,1169A,120.86,32.0005,南通市,虹桥,,35,29,35,24,13,127,56,105,83,31,22,9,10,0.5,0.4
2022-06-28T21:00:00,1170A,120.87,32.02,南通市,城中,,33,33,32,18,12,124,57,104,86,34,22,6,6,0.6,0.5
2022-06-28T21:00:00,1171A,120.94,31.93,南通市,星湖花园,,26,26,32,14,11,143,75,121,106,22,21,6,6,0.7,0.7
2022-06-28T21:00:00,1172A,120.81,32.0417,南通市,紫琅学院,,49,49,40,17,13,140,28,113,88,64,34,10,8,0.8,0.7
2022-06-28T21:00:00,1173A,119.176,34.5885,连云港市,市环境监测站,,34,27,15,17,11,121,107,98,98,9,10,1,1,0.5,0.4
2022-06-28T21:00:00,1177A,117.179,34.2761,徐州市,黄河新村,颗粒物(PM10),65,80,28,26,16,168,128,150,150,26,11,6,5,0.7,0.5
2022-06-28T21:00:00,1178A,117.1918,34.2384,徐州市,淮塔,,,,14,27,13,178,109,160,158,18,10,12,11,0.6,0.5
2022-06-28T21:00:00,1180A,117.256,34.2153,徐州市,新城区,颗粒物(PM10),66,81,31,33,18,174,84,155,150,52,14,6,6,0.7,0.6
2022-06-28T21:00:00,1181A,117.244,34.2911,徐州市,桃园路,颗粒物(PM10),58,66,33,17,7,176,109,158,154,21,12,8,8,0.6,0.5
2022-06-28T21:00:00,1182A,117.2933,34.2778,徐州市,农科院,颗粒物(PM10),62,73,24,14,5,170,87,154,148,53,12,7,6,0.7,0.6
2022-06-28T21:00:00,1186A,119.389,32.3761,扬州市,邗江监测站,,36,36,24,12,6,100,76,92,92,13,8,5,6,0.9,0.6
2022-06-28T21:00:00,1188A,120.269,31.4867,无锡市,雪浪,,27,27,30,17,12,141,51,119,91,17,7,12,12,0.4,0.4
2022-06-28T21:00:00,1189A,120.275,31.6219,无锡市,黄巷,,29,29,31,19,15,138,49,119,85,31,13,7,7,0.6,0.5
2022-06-28T21:00:00,1190A,120.294,31.56,无锡市,曹张,,36,36,27,9,10,142,26,121,84,53,12,6,6,0.7,0.5
2022-06-28T21:00:00,1191A,120.242,31.5031,无锡市,漆塘,,29,29,28,19,16,140,45,118,87,16,8,5,5,0.5,0.4
2022-06-28T21:00:00,1192A,120.3489,31.5863,无锡市,东亭,,39,39,32,19,15,140,52,118,87,23,8,8,8,0.7,0.6
2022-06-28T21:00:00,1193A,120.354,31.5475,无锡市,旺庄,,27,27,33,9,13,143,60,120,94,34,17,9,9,0.5,0.4
2022-06-28T21:00:00,1194A,120.245,31.5631,无锡市,荣巷,,32,31,28,22,17,136,43,114,72,10,6,10,11,0.4,0.4
2022-06-28T21:00:00,1195A,120.299,31.6817,无锡市,堰桥,,29,29,35,14,14,140,53,120,85,29,14,6,6,0.8,0.7
2022-06-28T21:00:00,1196A,119.9633,31.762,常州市,市监测站,,30,30,30,12,10,129,66,104,84,14,14,7,8,0.4,0.4
2022-06-28T21:00:00,1200A,119.9468,31.7069,常州市,武进监测站,,32,30,29,22,19,145,74,119,97,15,15,6,7,0.6,0.6
2022-06-28T21:00:00,1203A,119.6707,32.1875,镇江市,新区办事处,,27,24,26,9,7,104,84,96,96,13,16,13,12,0.5,0.5
2022-06-28T21:00:00,1204A,119.4974,32.1968,镇江市,职教中心,,25,23,25,14,10,93,78,84,84,10,13,3,4,0.5,0.5
2022-06-28T21:00:00,1205A,119.4303,32.1328,镇江市,丹徒区监测站,,27,23,28,15,15,104,84,93,93,11,14,5,4,0.5,0.5
2022-06-28T21:00:00,1206A,119.905,32.4878,泰州市,公园路,,25,22,27,17,14,81,62,71,71,15,16,4,5,0.8,0.8
2022-06-28T21:00:00,1207A,119.9189,32.4625,泰州市,莲花,,25,20,27,17,19,91,70,80,79,17,19,7,9,0.7,0.7
2022-06-28T21:00:00,1209A,119.888,32.4639,泰州市,留学生创业园,,29,29,30,16,16,97,71,87,85,19,19,6,10,0.7,0.7
2022-06-28T21:00:00,1210A,119.036,33.5981,淮安市,钵池山,,36,19,13,12,9,129,114,119,119,11,9,7,7,0.7,0.8
2022-06-28T21:00:00,1211A,119.007,33.575,淮安市,北京南路,,29,24,16,14,12,111,92,100,100,22,20,5,8,0.6,1.1
2022-06-28T21:00:00,1212A,118.989,33.6067,淮安市,市监测站,,34,34,21,11,8,123,108,114,114,18,13,6,6,1.4,0.8
2022-06-28T21:00:00,1213A,119.135,33.5039,淮安市,楚州区监测站,,34,34,17,12,6,118,79,101,101,25,13,9,9,0.3,0.2
2022-06-28T21:00:00,1214A,119.0186,33.6297,淮安市,淮阴区监测站,,33,21,17,17,10,123,103,111,111,16,10,5,5,1.1,0.7
2022-06-28T21:00:00,1215A,120.118,33.4022,盐城市,盐城电厂,,34,24,33,13,18,112,106,97,97,12,16,5,7,0.4,0.4
2022-06-28T21:00:00,1216A,120.156,33.3942,盐城市,市监测站,,35,30,29,4,9,113,111,99,99,12,16,11,12,0.3,0.3
2022-06-28T21:00:00,1218A,120.2144,33.38,盐城市,开发区管委会,,32,29,34,16,18,110,100,93,93,14,18,10,11,0.5,0.5
2022-06-28T21:00:00,1220A,118.293,33.9528,宿迁市,宿迁学院,,46,46,23,24,10,152,115,135,135,9,6,7,6,0.7,0.7
2022-06-28T21:00:00,1221A,118.2442,33.9592,宿迁市,宿迁中学,,40,27,15,28,9,156,118,135,135,9,7,2,2,0.7,0.6
2022-06-28T21:00:00,1223A,120.2072,30.2111,杭州市,滨江,,38,38,31,20,16,129,86,110,103,27,17,5,4,0.5,0.5
2022-06-28T21:00:00,1224A,120.0633,30.2747,杭州市,西溪,,47,47,37,20,17,123,50,104,89,16,14,10,10,0.4,0.3
2022-06-28T21:00:00,1226A,120.3461,30.3153,杭州市,下沙,,,48,41,21,16,141,,124,115,49,23,6,5,0.5,0.4
2022-06-28T21:00:00,1227A,120.1269,30.2456,杭州市,卧龙桥,,32,29,26,22,16,112,23,99,70,23,15,4,4,0.8,0.6
2022-06-28T21:00:00,1228A,120.1903,30.2692,杭州市,浙江农大,,32,30,26,17,15,122,101,114,108,19,16,6,5,0.5,0.5
2022-06-28T21:00:00,1230A,120.1197,30.3119,杭州市,和睦小学,,39,39,33,20,18,127,74,114,106,23,15,5,5,0.8,0.7
2022-06-28T21:00:00,1231A,120.3019,30.4183,杭州市,临平镇,颗粒物(PM10),63,75,46,20,11,125,58,115,101,47,17,4,3,0.7,0.6
2022-06-28T21:00:00,1232A,120.2697,30.1819,杭州市,城厢镇,,37,37,32,22,17,126,87,108,101,22,17,6,5,0.5,0.5
2022-06-28T21:00:00,1233A,120.0883,30.1808,杭州市,云栖,,35,35,32,12,15,115,28,102,74,26,20,8,8,0.5,0.6
2022-06-28T21:00:00,1234A,121.8358,29.911,宁波市,区环保大楼,,19,17,20,6,7,74,60,67,63,8,5,6,6,0.3,0.3
2022-06-28T21:00:00,1235A,121.56,29.82,宁波市,万里学院,,,,15,,11,105,68,86,83,12,6,,8,,0.5
2022-06-28T21:00:00,1236A,121.713,29.9572,宁波市,龙赛医院,,21,19,16,7,5,96,66,81,78,3,4,3,4,0.4,0.4
2022-06-28T21:00:00,1239A,121.633,29.7733,宁波市,钱湖水厂,,22,10,10,3,2,84,70,74,74,6,6,7,7,0.4,0.4
2022-06-28T21:00:00,1240A,121.5856,29.8635,宁波市,太古小学,,20,18,14,14,11,92,64,76,74,7,6,6,6,0.4,0.4
2022-06-28T21:00:00,1241A,121.524,29.8674,宁波市,市环境监测中心,,20,20,18,12,6,90,59,75,70,9,9,3,3,0.2,0.2
2022-06-28T21:00:00,1242A,120.634,28.0089,温州市,瓯海,,27,27,26,12,12,109,86,101,95,11,14,5,6,0.3,0.4
2022-06-28T21:00:00,1243A,120.6748,27.9939,温州市,南浦,,29,29,27,10,9,104,88,99,96,8,10,4,5,0.4,0.4
2022-06-28T21:00:00,1244A,120.76,27.9747,温州市,龙湾,,,14,20,7,7,100,,95,95,7,11,5,6,0.4,0.4
2022-06-28T21:00:00,1245A,120.6709,28.0167,温州市,市站,,25,24,22,13,10,81,79,81,78,14,17,5,5,0.5,0.4
2022-06-28T21:00:00,1247A,120.6053,29.9928,绍兴市,城东开发委,,26,24,19,18,12,116,68,100,96,10,5,6,6,0.7,0.6
2022-06-28T21:00:00,1250A,120.0751,30.8669,湖州市,城西水厂,,26,26,30,17,12,104,57,90,80,39,20,5,5,0.3,0.3
2022-06-28T21:00:00,1252A,120.7436,30.778,嘉兴市,清河小学,,40,40,29,18,13,151,71,124,118,33,17,7,7,0.5,0.3
2022-06-28T21:00:00,1253A,120.726,30.7478,嘉兴市,嘉兴学院,,38,38,30,20,15,150,75,124,116,32,20,3,2,0.5,0.4
2022-06-28T21:00:00,1255A,121.273,28.6459,台州市,黄岩环保大楼,,29,26,22,8,7,100,92,92,92,8,7,6,6,0.3,0.3
2022-06-28T21:00:00,1256A,121.419,28.6542,台州市,台州环保大楼,,25,22,20,10,8,81,77,76,76,6,5,4,4,0.4,0.4
2022-06-28T21:00:00,1257A,121.377,28.5773,台州市,路桥田洋王,,27,20,17,10,8,84,84,77,77,8,8,6,4,0.3,0.2
2022-06-28T21:00:00,1258A,122.122,30.0203,舟山市,定海檀枫,,22,18,16,9,7,68,68,52,52,11,8,2,2,0.3,0.2
2022-06-28T21:00:00,1259A,122.3094,29.9558,舟山市,普陀东港,,22,22,18,5,6,59,53,50,46,4,3,2,2,0.3,0.3
2022-06-28T21:00:00,1260A,122.19,29.9944,舟山市,临城新区,,24,20,19,7,6,74,74,54,54,8,6,1,2,0.3,0.3
2022-06-28T21:00:00,1262A,119.647,29.077,金华市,十五中,,36,36,33,20,19,144,65,126,120,14,11,4,5,0.4,0.5
2022-06-28T21:00:00,1263A,119.686,29.1029,金华市,监测站,,46,46,29,22,16,161,63,130,123,16,11,6,4,0.4,0.4
2022-06-28T21:00:00,1264A,118.8692,28.9398,衢州市,环保大楼,,50,50,38,14,13,95,46,87,74,23,20,5,5,0.5,0.5
2022-06-28T21:00:00,1265A,118.8709,28.9666,衢州市,实验学校,,33,33,26,12,12,88,43,80,70,23,20,5,5,0.6,0.6
2022-06-28T21:00:00,1266A,118.8621,28.9808,衢州市,衢州学院,,39,39,34,14,10,98,48,91,78,22,21,7,9,0.4,0.4
2022-06-28T21:00:00,1267A,119.914,28.4514,丽水市,监测站大楼,,44,44,28,20,15,117,90,93,85,8,7,5,5,0.4,0.3
2022-06-28T21:00:00,1268A,119.93,28.4586,丽水市,莲都小学,,40,40,30,19,12,116,101,98,97,7,6,6,6,0.4,0.3
2022-06-28T21:00:00,1269A,119.879,28.4231,丽水市,余庄前,,33,33,26,13,11,139,82,94,71,10,8,5,5,0.3,0.3
2022-06-28T21:00:00,1270A,117.1959,31.7848,合肥市,明珠广场,,19,19,14,9,4,99,52,85,80,20,16,5,5,0.4,0.4
2022-06-28T21:00:00,1271A,117.3072,31.8764,合肥市,三里街,,22,22,14,5,5,96,51,83,78,20,16,8,9,0.4,0.4
2022-06-28T21:00:00,1272A,117.2588,31.8707,合肥市,琥珀山庄,,20,19,12,7,4,110,64,99,94,16,14,8,7,0.5,0.5
2022-06-28T21:00:00,1273A,117.1604,31.9052,合肥市,董铺水库(对照点),,,17,15,,0,98,56,91,87,16,8,8,8,0.6,0.5
2022-06-28T21:00:00,1274A,117.25,31.8571,合肥市,长江中路,,24,24,22,9,7,114,64,99,94,10,6,4,4,0.5,0.4
2022-06-28T21:00:00,1275A,117.266,31.9436,合肥市,庐阳区,,,19,15,9,6,111,,97,97,16,9,10,10,0.6,0.5
2022-06-28T21:00:00,1276A,117.336,31.8586,合肥市,瑶海区,,19,19,20,6,7,95,54,84,80,17,17,7,8,0.5,0.4
2022-06-28T21:00:00,1277A,117.3027,31.7964,合肥市,包河区,,19,17,15,12,8,98,58,84,80,14,16,6,6,0.4,0.4
2022-06-28T21:00:00,1278A,117.2776,31.7385,合肥市,滨湖新区,,,7,13,5,5,89,,78,78,8,14,7,12,0.5,0.2
2022-06-28T21:00:00,1279A,117.1318,31.8403,合肥市,高新区,,19,17,13,9,6,104,60,93,89,13,10,10,9,0.6,0.5
2022-06-28T21:00:00,1282A,119.2681,26.0504,福州市,师大,,42,42,28,7,9,110,39,91,73,17,11,4,3,0.3,0.3
2022-06-28T21:00:00,1283A,119.2984,26.1028,福州市,五四北路,,,29,17,5,5,90,,80,73,18,12,4,3,0.2,0.4
2022-06-28T21:00:00,1284A,119.2648,26.0768,福州市,杨桥西路,,,,28,10,10,94,37,79,68,,12,3,3,0.3,0.3
2022-06-28T21:00:00,1285A,119.317,26.0746,福州市,紫阳,,40,40,28,0,4,96,40,81,68,15,11,5,4,0.4,0.3
2022-06-28T21:00:00,1287A,118.1514,24.4767,厦门市,洪文,,10,9,14,2,3,39,29,30,28,2,4,3,4,0.5,0.5
2022-06-28T21:00:00,1288A,118.0661,24.4444,厦门市,鼓浪屿,,10,7,12,7,7,54,14,32,24,14,9,3,4,0.2,0.3
2022-06-28T21:00:00,1290A,115.8931,28.6843,南昌市,省外办,,26,26,29,7,7,110,74,102,93,14,12,3,6,0.5,0.4
2022-06-28T21:00:00,1291A,115.8886,28.7003,南昌市,省林业公司,,27,14,20,2,5,124,84,116,106,17,16,4,9,0.6,0.6
2022-06-28T21:00:00,1292A,115.8126,28.7442,南昌市,林科所,,19,19,25,7,9,117,49,100,80,23,15,5,9,0.6,0.5
2022-06-28T21:00:00,1294A,115.8518,28.687,南昌市,建工学校,,26,24,28,18,15,118,66,104,92,21,16,8,12,0.6,0.5
2022-06-28T21:00:00,1295A,115.8921,28.6424,南昌市,象湖,,23,13,16,0,2,112,71,104,93,8,7,3,5,0.4,0.4
2022-06-28T21:00:00,1296A,115.7423,28.7996,南昌市,武术学校(对照点),,29,29,22,19,13,103,23,86,56,6,7,3,11,0.2,0.2
2022-06-28T21:00:00,1298A,115.9314,28.6842,南昌市,省站,,36,36,25,8,8,121,78,110,100,13,8,8,10,0.6,0.5
2022-06-28T21:00:00,1299A,116.9862,36.6114,济南市,科干所,,33,14,31,10,22,153,104,141,132,18,12,6,8,0.6,0.6
2022-06-28T21:00:00,1300A,116.9376,36.665,济南市,农科所,,29,24,32,5,17,146,91,132,120,27,15,7,7,0.2,0.2
2022-06-28T21:00:00,1301A,117.1265,36.6734,济南市,开发区,,27,22,34,11,25,195,86,148,127,32,13,7,7,0.6,0.5
2022-06-28T21:00:00,1303A,117.0624,36.6868,济南市,省种子仓库,,,,38,,30,152,75,122,109,30,10,7,4,,0.2
2022-06-28T21:00:00,1304A,116.9489,36.6447,济南市,机床二厂,,32,22,36,5,20,158,100,139,128,18,9,6,6,0.5,0.5
2022-06-28T21:00:00,1305A,117.0495,36.663,济南市,市监测站,,30,22,31,2,18,180,95,141,124,31,15,9,8,0.7,0.7
2022-06-28T21:00:00,1306A,116.7675,36.5484,济南市,长清党校,,35,12,33,12,26,149,110,135,127,13,10,6,8,0.4,0.5
2022-06-28T21:00:00,1307A,120.6659,36.2403,青岛市,仰口(对照点),,,7,17,14,13,102,87,95,85,,,4,4,0.4,0.6
2022-06-28T21:00:00,1310A,120.4134,36.0658,青岛市,市南区东部子站,,38,29,13,22,8,96,12,80,52,76,16,9,6,0.5,0.4
2022-06-28T21:00:00,1311A,120.3664,36.1032,青岛市,四方区子站,,30,12,10,12,9,88,34,75,45,60,23,11,5,0.6,0.5
2022-06-28T21:00:00,1312A,120.2994,36.054,青岛市,市南区西部子站,,27,27,18,10,6,102,83,82,61,34,26,8,7,0.6,0.6
2022-06-28T21:00:00,1313A,120.4581,36.0858,青岛市,崂山区子站,,28,9,14,19,7,103,30,86,68,52,18,8,8,0.8,0.5
2022-06-28T21:00:00,1314A,120.1983,35.9608,青岛市,黄岛区子站,,35,12,10,10,8,110,110,88,76,14,20,4,5,0.4,0.4
2022-06-28T21:00:00,1315A,120.3999,36.3083,青岛市,城阳区子站,,27,27,10,12,9,83,50,74,64,32,19,5,5,0.7,0.6
2022-06-28T21:00:00,1316A,113.69031,34.76122,郑州市,烟厂,,33,33,69,7,21,189,105,168,150,20,15,7,7,0.4,0.6
2022-06-28T21:00:00,1317A,113.65724,34.77134,郑州市,郑纺机,,34,17,67,8,22,139,107,139,123,20,12,7,5,0.9,1.1
2022-06-28T21:00:00,1318A,113.67526,34.80246,郑州市,银行学校,,,39,60,7,21,106,,98,97,19,16,3,3,0.5,0.8
2022-06-28T21:00:00,1319A,113.56746,34.81334,郑州市,供水公司,,34,30,62,3,21,174,108,161,147,18,18,7,6,0.4,0.6
2022-06-28T21:00:00,1320A,113.7329,34.7178,郑州市,经开区管委,,33,29,61,4,21,171,104,158,145,20,20,3,3,0.7,0.9
2022-06-28T21:00:00,1321A,113.73961,34.77172,郑州市,四十七中,,,34,59,12,19,182,,167,161,20,14,9,6,0.5,0.7
2022-06-28T21:00:00,1322A,113.60532,34.74838,郑州市,市监测站,,35,35,66,6,22,170,84,153,134,38,26,4,3,0.8,0.9
2022-06-28T21:00:00,1323A,113.64164,34.7525,郑州市,河医大,,39,39,66,14,23,181,98,163,146,21,15,5,4,0.5,0.7
2022-06-28T21:00:00,1324A,113.51488,34.91089,郑州市,岗李水库(对照点),,33,24,62,23,45,164,85,153,137,23,18,1,2,0.5,0.6
2022-06-28T21:00:00,1325A,114.3677,30.5584,武汉市,东湖梨园,,34,34,22,20,11,125,100,117,117,10,11,6,6,0.8,0.8
2022-06-28T21:00:00,1326A,114.2529,30.558,武汉市,汉阳月湖,,35,35,30,9,6,112,99,107,107,17,11,6,6,0.6,0.7
2022-06-28T21:00:00,1327A,114.282,30.6189,武汉市,汉口花桥,,40,40,19,17,11,110,99,104,104,15,12,5,5,0.7,0.9
2022-06-28T21:00:00,1328A,114.3025,30.5332,武汉市,武昌紫阳,,30,30,20,21,10,111,83,106,104,18,11,3,3,0.9,0.8
2022-06-28T21:00:00,1329A,114.3646,30.6217,武汉市,青山钢花,,39,30,21,27,14,126,103,118,118,18,15,5,5,0.7,0.6
2022-06-28T21:00:00,1330A,114.1566,30.4825,武汉市,沌口新区,,36,35,21,25,14,104,83,99,98,27,15,7,7,0.7,0.7
2022-06-28T21:00:00,1331A,114.3014,30.5944,武汉市,汉口江滩,,40,31,22,3,12,123,43,101,95,80,23,6,6,0.8,0.7
2022-06-28T21:00:00,1333A,114.135,30.6319,武汉市,吴家山,,38,38,19,15,9,100,80,92,92,26,12,5,5,0.9,0.8
2022-06-28T21:00:00,1334A,113.8454,30.2917,武汉市,沉湖七壕(对照点),,29,29,19,14,4,98,77,85,85,6,4,6,6,0.5,0.5
2022-06-28T21:00:00,1335A,113.0833,28.2325,长沙市,经开区环保局,,28,18,11,19,14,102,68,88,87,13,9,4,5,0.7,0.7
2022-06-28T21:00:00,1336A,112.8872,28.2189,长沙市,高开区环保局,,22,12,7,15,6,74,68,72,72,6,5,6,6,0.5,0.5
2022-06-28T21:00:00,1337A,113.0792,28.2053,长沙市,马坡岭,,26,26,15,14,8,101,63,92,89,17,9,4,5,0.7,0.7
2022-06-28T21:00:00,1338A,112.9394,28.19,长沙市,湖南师范大学,,,,20,14,10,76,55,67,66,7,6,1,4,0.5,0.7
2022-06-28T21:00:00,1339A,113.0178,28.1322,长沙市,雨花区环保局,,25,21,12,17,12,95,66,83,83,12,5,6,6,0.4,0.4
2022-06-28T21:00:00,1340A,112.9792,28.2597,长沙市,伍家岭,,32,9,11,22,13,90,70,82,81,15,12,2,5,0.4,0.4
2022-06-28T21:00:00,1341A,113.0014,28.1944,长沙市,火车新站,,38,21,18,26,14,82,62,75,74,12,8,6,8,0.6,0.5
2022-06-28T21:00:00,1342A,112.9844,28.1178,长沙市,天心区环保局,,26,21,19,18,9,82,58,74,74,10,8,3,3,0.6,0.5
2022-06-28T21:00:00,1343A,112.8908,28.1308,长沙市,湖南中医药大学,,30,28,20,21,14,78,54,68,68,14,9,2,3,0.6,0.5
2022-06-28T21:00:00,1344A,112.9581,28.3611,长沙市,沙坪(对照点),,24,24,20,14,9,74,37,69,66,15,10,2,3,0.5,0.5
2022-06-28T21:00:00,1345A,113.2347,23.1423,广州市,广雅中学,,26,26,23,12,11,169,79,138,133,24,19,5,5,0.8,0.7
2022-06-28T21:00:00,1346A,113.2612,23.105,广州市,市五中,,27,27,22,13,11,176,78,140,134,19,16,6,6,0.6,0.5
2022-06-28T21:00:00,1348A,113.3478,23.0916,广州市,广东商学院,,37,37,26,17,11,169,55,133,126,35,22,3,3,0.6,0.6
2022-06-28T21:00:00,1349A,113.4332,23.1047,广州市,市八十六中,,38,38,25,19,10,180,20,144,129,64,27,9,6,0.4,0.4
2022-06-28T21:00:00,1350A,113.3505,22.9483,广州市,番禺中学,,22,22,21,9,10,168,44,133,122,17,14,7,6,0.4,0.3
2022-06-28T21:00:00,1351A,113.2146,23.3916,广州市,花都师范,,45,45,28,21,13,205,115,181,177,32,23,5,5,0.7,0.6
2022-06-28T21:00:00,1352A,113.2597,23.1331,广州市,市监测站,,41,41,25,12,10,181,86,144,138,20,18,5,6,0.6,0.6
2022-06-28T21:00:00,1353A,113.5618,23.312,广州市,九龙镇镇龙,颗粒物(PM10),64,77,35,30,15,162,39,139,132,78,29,7,6,0.6,0.5
2022-06-28T21:00:00,1354A,113.2765,23.1544,广州市,麓湖,,31,31,23,14,11,184,86,145,141,17,15,4,4,0.6,0.6
2022-06-28T21:00:00,1355A,113.443,23.3035,广州市,帽峰山森林公园(对照点),,33,33,20,18,10,202,87,162,159,34,19,6,4,0.4,0.3
2022-06-28T21:00:00,1356A,114.1063,22.5545,深圳市,通心岭子站,,21,14,11,9,5,102,66,81,81,10,11,3,3,0.7,0.6
2022-06-28T21:00:00,1357A,114.117,22.5625,深圳市,洪湖,,18,15,11,7,6,106,57,90,87,16,12,7,7,0.5,0.5
2022-06-28T21:00:00,1358A,113.987,22.5417,深圳市,华侨城,,15,15,12,1,1,56,36,47,45,19,20,4,4,0.5,0.5
2022-06-28T21:00:00,1359A,113.9181,22.5171,深圳市,南海子站,,,19,13,11,6,48,,39,36,34,20,1,4,0.5,0.5
2022-06-28T21:00:00,1360A,114.2458,22.5689,深圳市,盐田,,,10,8,2,2,74,18,66,59,,12,2,3,0.3,0.5
2022-06-28T21:00:00,1361A,114.2283,22.7244,深圳市,龙岗,,23,13,14,5,5,147,72,115,108,12,14,8,8,0.3,0.4
2022-06-28T21:00:00,1363A,114.494,22.5422,深圳市,南澳,,15,8,7,4,2,58,46,50,49,7,7,8,7,0.6,0.5
2022-06-28T21:00:00,1364A,114.41,22.6342,深圳市,葵涌,,15,6,5,0,1,51,45,45,45,6,9,6,6,0.4,0.4
2022-06-28T21:00:00,1365A,114.297,22.5978,深圳市,梅沙,,16,10,8,6,3,74,49,58,58,5,6,5,5,0.4,0.4
2022-06-28T21:00:00,1366A,114.0678,22.738,深圳市,观澜,,36,36,25,9,8,108,44,86,83,40,25,5,5,0.8,0.7
2022-06-28T21:00:00,1367A,113.5814,22.2618,珠海市,吉大,,10,5,7,3,5,63,31,55,48,9,4,8,8,0.4,0.4
2022-06-28T21:00:00,1368A,113.4881,22.2335,珠海市,前山,,12,11,7,7,3,86,36,56,50,9,8,10,10,0.2,0.3
2022-06-28T21:00:00,1369A,113.628,22.4251,珠海市,唐家,,15,5,5,5,5,82,48,71,66,5,5,6,7,0.2,0.3
2022-06-28T21:00:00,1370A,113.299,22.2281,珠海市,斗门,,16,12,15,11,6,82,46,69,58,5,5,9,9,0.3,0.4
2022-06-28T21:00:00,1371A,113.1294,23.0067,佛山市,湾梁,,29,29,20,12,9,164,73,130,120,19,13,6,6,0.5,0.4
2022-06-28T21:00:00,1372A,113.1083,23.0478,佛山市,华材职中,,31,31,19,18,10,153,76,126,122,21,12,6,6,0.7,0.6
2022-06-28T21:00:00,1373A,113.144,23.0453,佛山市,南海气象局,,35,35,24,18,12,167,72,134,126,27,16,4,5,0.6,0.5
2022-06-28T21:00:00,1374A,113.2881,22.8094,佛山市,顺德苏岗,,28,28,11,9,4,143,55,112,103,18,12,5,5,0.5,0.5
2022-06-28T21:00:00,1376A,112.8383,22.8678,佛山市,高明孔堂,,,26,14,13,5,107,,85,85,10,5,13,6,0.7,0.6
2022-06-28T21:00:00,1377A,112.8836,23.1588,佛山市,三水监测站,,41,41,18,16,8,122,55,106,102,59,20,3,5,0.6,0.5
2022-06-28T21:00:00,1378A,112.867,23.185,佛山市,三水云东海,颗粒物(PM10),52,53,19,20,11,137,101,118,118,33,20,5,8,0.5,0.4
2022-06-28T21:00:00,1379A,113.3769,22.5211,中山市,华柏园,,14,10,14,7,6,84,44,78,70,9,7,3,3,0.5,0.4
2022-06-28T21:00:00,1380A,113.3881,22.5497,中山市,张溪,,15,3,17,3,8,90,48,82,75,7,6,4,4,0.4,0.4
2022-06-28T21:00:00,1381A,113.4075,22.5111,中山市,紫马岭,,12,10,12,8,6,92,38,78,72,12,8,4,4,0.5,0.5
2022-06-28T21:00:00,1382A,113.4411,22.4853,中山市,长江旅游区(对照点),,12,5,9,6,5,84,36,71,65,7,5,4,3,0.4,0.4
2022-06-28T21:00:00,1383A,113.1064,22.6058,江门市,北街,,14,14,17,8,6,107,40,94,84,12,9,5,4,0.5,0.4
2022-06-28T21:00:00,1384A,113.0731,22.5835,江门市,西区,,27,27,19,17,9,99,29,88,76,19,14,7,6,0.3,0.3
2022-06-28T21:00:00,1385A,113.0219,22.5311,江门市,圭峰西,,12,12,16,2,3,89,21,76,68,24,12,5,4,0.4,0.3
2022-06-28T21:00:00,1386A,113.0828,22.5947,江门市,东湖,,31,31,19,5,6,107,36,94,83,16,11,8,7,0.3,0.3
2022-06-28T21:00:00,1389A,113.7547,23.0494,东莞市,莞城梨川,,29,29,18,12,8,147,30,125,108,33,19,8,7,0.5,0.6
2022-06-28T21:00:00,1390A,113.7944,23.0128,东莞市,东城石井,,,19,14,8,6,139,,117,117,27,18,,8,0.3,0.3
2022-06-28T21:00:00,1391A,113.7383,22.9658,东莞市,南城西平,,19,19,14,4,9,132,32,100,87,30,18,4,4,0.4,0.4
2022-06-28T21:00:00,1392A,114.4183,23.0528,惠州市,河南岸金山湖子站,,25,25,26,6,7,133,40,113,104,20,11,3,3,0.4,0.4
2022-06-28T21:00:00,1393A,114.4053,23.0822,惠州市,下埔横江三路子站,,28,28,21,10,7,139,43,125,116,29,15,4,3,0.4,0.3
2022-06-28T21:00:00,1394A,114.4103,23.1142,惠州市,江北云山西路子站,,29,29,23,14,9,163,36,135,121,30,11,5,4,0.4,0.3
2022-06-28T21:00:00,1395A,114.4645,22.7833,惠州市,惠阳区承修路船湖子站,,25,25,15,5,6,111,31,90,76,26,14,4,4,0.2,0.2
2022-06-28T21:00:00,1396A,114.5317,22.7422,惠州市,大亚湾管委会子站,,20,20,19,6,6,83,34,65,55,19,14,5,5,0.3,0.3
2022-06-28T21:00:00,1397A,112.4267,23.0706,肇庆市,睦岗子站,,37,37,16,18,8,94,59,83,81,27,14,10,11,0.6,0.4
2022-06-28T21:00:00,1398A,112.4645,23.0475,肇庆市,城中子站,,23,20,18,10,9,91,72,83,82,12,14,11,13,0.6,0.6
2022-06-28T21:00:00,1399A,112.5544,23.1522,肇庆市,坑口子站,,21,21,19,14,12,101,54,89,85,7,5,6,9,0.4,0.5
2022-06-28T21:00:00,1401A,108.3103,22.7881,南宁市,二十一中,,40,40,29,15,12,84,51,78,72,16,13,4,5,0.7,0.6
2022-06-28T21:00:00,1402A,108.3141,22.8528,南宁市,北湖,,40,40,29,17,13,95,29,78,62,29,12,4,4,0.7,0.5
2022-06-28T21:00:00,1403A,108.3206,22.8225,南宁市,市监测站,,,45,30,19,14,85,,72,66,15,15,8,8,0.6,0.5
2022-06-28T21:00:00,1404A,108.3829,22.8037,南宁市,大自然花园,,46,46,24,15,12,82,62,77,74,10,8,6,6,0.7,0.6
2022-06-28T21:00:00,1405A,108.4394,22.7904,南宁市,仙葫(对照点),,27,27,24,15,12,77,62,71,70,9,9,4,4,0.7,0.6
2022-06-28T21:00:00,1406A,108.2397,22.8467,南宁市,区农职院,,,45,27,16,12,49,,42,,22,17,6,6,0.7,0.6
2022-06-28T21:00:00,1407A,108.3275,22.735,南宁市,英华嘉园,,32,32,36,22,17,76,39,68,60,27,24,5,6,0.7,0.6
2022-06-28T21:00:00,1408A,108.2257,22.7757,南宁市,沙井镇街道办,,40,40,27,14,11,83,41,71,65,31,16,1,2,0.8,0.7
2022-06-28T21:00:00,1409A,110.576,19.9507,海口市,东寨港(对照点),,,41,28,45,14,46,,46,46,,,1,6,,0
2022-06-28T21:00:00,1410A,110.3232,20.0574,海口市,海南大学,,19,19,18,10,8,109,33,82,60,3,4,6,6,0.4,0.4
2022-06-28T21:00:00,1411A,110.283,20.0053,海口市,秀英海南医院,,12,12,17,3,6,84,37,66,54,13,13,2,2,0.4,0.4
2022-06-28T21:00:00,1412A,110.338,19.9969,海口市,海南师范大学,,23,23,17,8,6,110,35,84,67,6,7,4,4,0.4,0.5
2022-06-28T21:00:00,1413A,110.33,20.0356,海口市,龙华路环保局宿舍,,35,8,17,24,11,106,41,83,67,8,5,4,4,0.4,0.4
2022-06-28T21:00:00,1414A,106.3787,29.8279,重庆市,缙云山(对照点),,46,29,21,14,10,168,145,147,147,9,11,9,8,0.2,0.2
2022-06-28T21:00:00,1416A,106.4213,29.8253,重庆市,天生,颗粒物(PM10),62,74,53,29,22,200,120,163,163,25,28,5,6,0.7,0.8
2022-06-28T21:00:00,1417A,106.6263,29.7228,重庆市,两路,二氧化氮,59,35,21,18,9,200,43,154,147,118,52,15,10,1.0,0.6
2022-06-28T21:00:00,1418A,106.2953,29.5983,重庆市,虎溪,颗粒物(PM10),51,51,40,31,25,138,88,128,122,31,24,10,9,0.6,0.6
2022-06-28T21:00:00,1419A,106.5777,29.5102,重庆市,南坪,颗粒物(PM10),52,53,40,29,14,197,112,173,170,40,20,17,11,0.7,0.6
2022-06-28T21:00:00,1420A,106.6556,29.6277,重庆市,唐家沱,,45,45,27,22,12,225,118,168,168,49,36,13,9,0.5,0.6
2022-06-28T21:00:00,1421A,106.6349,29.4906,重庆市,茶园,,45,45,34,24,14,184,123,163,163,27,22,9,8,0.6,0.5
2022-06-28T21:00:00,1422A,106.3754,29.4572,重庆市,白市驿,,,36,36,5,5,,,,,,,8,8,,
2022-06-28T21:00:00,1425A,106.6205,29.7166,重庆市,空港,颗粒物(PM10),52,54,24,20,12,204,67,156,152,78,39,13,8,1.1,1
2022-06-28T21:00:00,1426A,106.4782,29.4875,重庆市,新山村,,,33,24,19,9,173,101,142,141,,38,17,12,0.7,0.4
2022-06-28T21:00:00,1427A,106.5616,29.6453,重庆市,礼嘉,,48,48,29,17,10,179,75,132,132,70,59,14,9,1.0,0.8
2022-06-28T21:00:00,1428A,106.4522,29.7091,重庆市,蔡家,,49,49,38,34,19,176,78,143,140,49,29,6,6,0.6,0.6
2022-06-28T21:00:00,1429A,106.5093,29.3917,重庆市,鱼新街,,35,35,28,16,12,124,47,87,80,38,28,4,4,0.9,0.9
2022-06-28T21:00:00,1431A,103.9728,30.7236,成都市,金泉两河,,48,48,34,23,17,170,115,158,149,16,19,7,5,0.4,0.4
2022-06-28T21:00:00,1432A,104.1419,30.6764,成都市,十里店,,46,46,55,22,27,175,132,154,148,15,29,8,6,0.5,0.6
2022-06-28T21:00:00,1433A,104.0594,30.5767,成都市,三瓦窑,,49,49,45,25,20,143,81,129,120,48,52,6,5,0.5,0.6
2022-06-28T21:00:00,1434A,104.1122,30.6306,成都市,沙河铺,,,40,38,27,20,164,117,144,137,,38,6,4,0.5,0.7
2022-06-28T21:00:00,1437A,104.0431,30.6556,成都市,君平街,,48,48,45,24,23,175,121,161,151,22,33,7,4,0.6,0.7
2022-06-28T21:00:00,1438A,103.6202,31.0201,成都市,灵岩寺(对照点),,27,24,31,14,14,126,86,126,108,1,3,10,8,0.4,0.6
2022-06-28T21:00:00,1439A,106.6899,26.5998,贵阳市,马鞍山,,24,24,25,12,11,102,69,94,92,8,12,5,5,0.6,0.7
2022-06-28T21:00:00,1440A,106.6971,26.5694,贵阳市,市环保站,,27,27,31,12,17,82,37,71,67,43,27,5,15,0.5,0.5
2022-06-28T21:00:00,1441A,106.6243,26.6266,贵阳市,鉴湖路,,,34,33,9,12,104,89,100,100,6,11,2,5,,0.6
2022-06-28T21:00:00,1442A,106.7487,26.6343,贵阳市,燕子冲,,36,36,29,14,19,95,75,92,90,6,14,5,7,0.5,0.7
2022-06-28T21:00:00,1443A,106.6555,26.4365,贵阳市,碧云窝,,44,44,33,12,10,123,73,107,106,20,14,3,6,0.7,0.6
2022-06-28T21:00:00,1444A,106.694,26.5161,贵阳市,中院村,,31,31,34,12,14,107,69,101,98,25,19,3,6,0.5,0.5
2022-06-28T21:00:00,1445A,106.7109,26.6027,贵阳市,红边门,,32,31,30,22,24,108,51,104,98,39,23,2,3,0.5,0.5
2022-06-28T21:00:00,1446A,106.7164,26.5699,贵阳市,新华路,,24,24,27,14,19,107,48,102,96,44,22,3,5,0.4,0.5
2022-06-28T21:00:00,1447A,106.674,26.5424,贵阳市,太慈桥,,48,48,35,17,12,108,24,100,91,48,16,4,7,0.5,0.5
2022-06-28T21:00:00,1450A,102.8204,24.8886,昆明市,呈贡新区,,27,27,16,16,9,87,63,77,76,27,14,7,7,0.3,0.3
2022-06-28T21:00:00,1451A,102.6251,24.9608,昆明市,西山森林公园(对照点),,26,14,9,10,6,116,83,94,94,20,11,16,8,0.4,0.4
2022-06-28T21:00:00,1452A,102.7252,25.0902,昆明市,龙泉镇,,23,0,27,16,12,102,47,71,71,38,21,10,10,0.3,0.4
2022-06-28T21:00:00,1453A,102.7266,25.0375,昆明市,东风东路,,,43,17,8,7,94,,74,74,23,20,4,6,,0.5
2022-06-28T21:00:00,1454A,102.6742,25.0669,昆明市,金鼎山,,32,32,18,17,11,100,56,78,78,36,17,13,10,0.5,0.5
2022-06-28T21:00:00,1455A,102.6644,25.0401,昆明市,碧鸡广场,,32,32,19,18,11,94,38,71,71,53,23,17,10,0.5,0.5
2022-06-28T21:00:00,1456A,91.1319,29.6514,拉萨市,八廓街,,38,10,14,7,12,144,121,134,131,13,9,6,6,0.1,0.2
2022-06-28T21:00:00,1457A,91.1221,29.6747,拉萨市,市环保局,,34,13,12,8,7,143,107,131,127,17,14,7,8,0.2,0.2
2022-06-28T21:00:00,1458A,91.0874,29.6475,拉萨市,区监测站,,40,8,8,2,3,144,125,136,133,19,15,7,7,0.3,0.3
2022-06-28T21:00:00,1459A,91.1774,29.6541,拉萨市,西藏大学,,40,6,8,4,4,137,126,131,130,8,10,7,6,0.3,0.2
2022-06-28T21:00:00,1460A,90.9798,29.6588,拉萨市,区辐射站,,37,12,11,5,6,141,118,127,123,23,18,8,8,0.2,0.2
2022-06-28T21:00:00,1461A,91.0834,29.6292,拉萨市,拉萨火车站,,39,12,9,2,4,137,124,125,124,20,15,9,9,0.2,0.2
2022-06-28T21:00:00,1462A,108.882,34.2749,西安市,高压开关厂,,48,48,62,4,14,162,111,152,146,35,21,6,7,0.5,0.3
2022-06-28T21:00:00,1463A,108.993,34.2629,西安市,兴庆小区,,38,38,55,4,14,160,109,147,141,30,24,5,5,0.4,0.5
2022-06-28T21:00:00,1464A,109.06,34.2572,西安市,纺织城,颗粒物(PM10),51,52,64,16,17,159,79,144,133,41,36,6,6,0.5,0.5
2022-06-28T21:00:00,1465A,108.9356,34.2173,西安市,小寨,颗粒物(PM10),55,59,54,14,15,167,91,157,149,54,26,4,4,0.4,0.2
2022-06-28T21:00:00,1466A,108.954,34.2713,西安市,市人民体育场,,34,34,60,8,16,157,104,148,138,30,22,6,5,0.3,0.3
2022-06-28T21:00:00,1467A,108.8922,34.2322,西安市,高新西区,,40,40,56,16,18,171,108,160,156,41,17,6,6,0.8,0.4
2022-06-28T21:00:00,1468A,108.935,34.3474,西安市,经开区,,,52,61,6,16,159,,142,141,33,17,,3,0.1,0.1
2022-06-28T21:00:00,1469A,108.906,34.1546,西安市,长安区,,34,34,60,14,17,171,97,156,151,27,15,6,6,0.4,0.3
2022-06-28T21:00:00,1471A,109.2186,34.3731,西安市,临潼区,,34,34,56,13,17,162,108,146,138,40,18,5,5,0.5,0.4
2022-06-28T21:00:00,1472A,108.869,34.378,西安市,草滩(对照点),,31,31,66,8,18,132,93,124,120,28,39,10,9,0.6,0.7
2022-06-28T21:00:00,1473A,108.985,34.1978,西安市,曲江文化产业集团,,44,44,51,11,14,167,81,154,146,66,25,5,5,0.5,0.4
2022-06-28T21:00:00,1474A,109.051,34.3213,西安市,广运潭,,46,46,58,4,15,153,97,137,129,43,32,6,7,0.5,0.4
2022-06-28T21:00:00,1476A,103.631,36.1031,兰州市,兰炼宾馆,,37,37,30,15,14,127,107,125,122,26,23,4,12,0.1,0.4
2022-06-28T21:00:00,1478A,103.8412,36.0726,兰州市,生物制品所,,44,44,51,15,20,139,78,129,120,51,42,9,10,0.8,0.7
2022-06-28T21:00:00,1479A,103.831,36.0464,兰州市,铁路设计院,,34,34,39,9,14,144,83,125,112,58,38,12,12,0.5,0.5
2022-06-28T21:00:00,1483A,101.524,36.6867,西宁市,第五水厂(对照点),,33,20,12,11,5,138,105,129,125,16,13,14,11,0.6,0.5
2022-06-28T21:00:00,1484A,105.9512,38.6016,银川市,贺兰山马莲口(对照点),,35,17,22,9,14,125,111,117,115,6,7,7,9,0.4,0.4
2022-06-28T21:00:00,1488A,106.2328,38.4975,银川市,贺兰山东路,,32,12,28,17,10,129,101,121,119,18,14,6,8,0.4,0.4
2022-06-28T21:00:00,1489A,106.1358,38.5036,银川市,学院路,,33,21,38,8,11,136,104,125,123,18,15,6,8,0.3,0.4
2022-06-28T21:00:00,1490A,87.5801,43.8303,乌鲁木齐市,监测站,,,31,39,,13,133,106,119,117,18,22,9,11,0.2,0.3
2022-06-28T21:00:00,1491A,87.6046,43.768,乌鲁木齐市,收费所,颗粒物(PM10),51,51,47,13,15,134,101,121,118,40,39,9,8,0.3,0.3
2022-06-28T21:00:00,1492A,87.4754,43.9469,乌鲁木齐市,新疆农科院农场(对照点),,,,82,13,14,149,99,129,126,13,25,9,12,0.6,0.6
2022-06-28T21:00:00,1493A,87.5525,43.8711,乌鲁木齐市,铁路局,颗粒物(PM10),51,52,37,15,12,144,104,131,127,20,22,8,8,0.3,0.3
2022-06-28T21:00:00,1494A,87.6432,43.831,乌鲁木齐市,三十一中学,,38,38,40,6,8,142,102,127,124,23,13,3,3,0.2,0.2
2022-06-28T21:00:00,1508A,112.9433,27.8614,湘潭市,板塘,颗粒物(PM10),51,51,26,20,11,89,59,80,76,14,8,4,6,0.4,0.4
2022-06-28T21:00:00,1511A,112.9118,27.8403,湘潭市,市监测站,,46,24,18,32,19,75,58,66,64,18,14,10,19,0.7,1
2022-06-28T21:00:00,1512A,112.8937,27.8728,湘潭市,江麓,,40,40,29,26,22,84,56,77,76,14,11,6,16,0.5,0.5
2022-06-28T21:00:00,1513A,112.9227,27.8159,湘潭市,岳塘,,,69,34,,12,82,57,72,70,8,8,14,11,0.9,0.7
2022-06-28T21:00:00,1514A,112.9074,27.9119,湘潭市,科大,,39,39,28,20,12,80,58,72,72,12,14,7,16,0.5,0.7
2022-06-28T21:00:00,1515A,113.135,27.8244,株洲市,天台山庄,,45,27,8,31,13,93,56,76,75,15,10,5,6,0.8,0.4
2022-06-28T21:00:00,1518A,113.095,27.8867,株洲市,株冶医院,,26,22,12,18,11,84,62,75,75,13,11,6,7,0.5,0.4
2022-06-28T21:00:00,1519A,113.167,27.8667,株洲市,市四中,,28,14,12,19,8,88,52,74,73,13,9,5,7,0.6,0.6
2022-06-28T21:00:00,1520A,113.143,27.8381,株洲市,火车站,,36,27,16,25,13,84,48,70,69,10,8,4,5,0.5,0.3
2022-06-28T21:00:00,1524A,113.13,27.8528,株洲市,市监测站,,32,31,18,22,13,103,69,86,86,10,8,5,5,0.4,0.3
2022-06-28T21:00:00,1559A,113.251,27.8336,株洲市,大京风景区(对照点),,16,1,18,11,10,62,14,53,49,4,2,3,3,0.5,0.4
2022-06-28T21:00:00,1562A,113.0048,27.9153,湘潭市,昭山,,,22,15,,10,87,51,76,74,14,8,5,6,0.5,0.5
2022-06-28T21:00:00,1564A,112.4876,27.9164,湘潭市,韶山(对照点),,39,39,22,8,7,72,49,58,58,11,10,5,4,0.8,0.7
2022-06-28T21:00:00,1585A,109.8756,40.6532,包头市,市环境监测站,,35,12,8,9,7,114,109,102,102,9,11,6,6,0.4,0.7
2022-06-28T21:00:00,1587A,109.9991,40.5842,包头市,包头八中,,38,38,14,5,7,111,111,98,98,9,13,11,14,0.4,0.6
2022-06-28T21:00:00,1588A,109.8538,40.6821,包头市,青山宾馆,,35,6,8,10,5,115,110,100,100,8,10,6,7,0.5,0.7
2022-06-28T21:00:00,1589A,109.8642,40.6288,包头市,惠龙物流,,36,12,21,10,6,120,115,108,108,11,14,9,10,0.5,0.4
2022-06-28T21:00:00,1590A,110.0377,40.5546,包头市,东河鸿龙湾,,35,11,13,2,6,116,109,99,99,6,8,4,6,0.4,0.5
2022-06-28T21:00:00,1591A,110.0023,39.8129,鄂尔多斯市,综合楼,,29,13,12,5,4,112,90,103,102,21,14,5,5,0.6,0.5
2022-06-28T21:00:00,1592A,109.9486,39.8261,鄂尔多斯市,巴音孟克林场办事处,,26,19,12,14,6,121,82,108,104,27,11,7,6,0.7,0.5
2022-06-28T21:00:00,1593A,109.7736,39.5986,鄂尔多斯市,康泽苑,,33,12,11,2,2,126,103,117,117,8,4,5,4,0.6,0.3
2022-06-28T21:00:00,1594A,109.8119,39.5989,鄂尔多斯市,华泰汽车城,,32,17,12,5,5,121,102,114,114,10,4,6,5,0.8,0.5
2022-06-28T21:00:00,1595A,109.9734,39.7884,鄂尔多斯市,奥林花园,,29,17,15,7,6,117,90,105,102,18,10,6,5,0.7,0.7
2022-06-28T21:00:00,1597A,122.2703,40.7094,营口市,大庆路,,17,15,14,7,6,99,53,92,83,19,8,3,4,0.5,0.5
2022-06-28T21:00:00,1598A,122.215,40.6511,营口市,镜湖西路,,21,12,12,7,4,106,67,96,90,27,12,3,3,0.4,0.4
2022-06-28T21:00:00,1599A,122.167,40.6655,营口市,西炮台,,24,24,11,7,6,112,56,101,86,28,13,7,4,0.4,0.4
2022-06-28T21:00:00,1600A,124.3303,40.0625,丹东市,江湾东路,,20,6,10,8,11,92,61,83,67,7,8,5,6,0.4,0.4
2022-06-28T21:00:00,1601A,124.4256,40.1503,丹东市,临江后街,,,,,5,3,92,58,83,66,3,2,10,11,1.2,1.1
2022-06-28T21:00:00,1602A,124.3933,40.1461,丹东市,元宝山,,17,11,10,9,8,86,52,77,60,6,6,6,6,0.5,0.4
2022-06-28T21:00:00,1603A,124.3633,40.1092,丹东市,民主桥,,20,10,9,8,7,91,61,82,66,5,4,9,9,0.5,0.4
2022-06-28T21:00:00,1604A,122.0303,41.1489,盘锦市,开发区,,24,24,11,2,2,93,67,89,85,18,11,4,3,0.7,0.7
2022-06-28T21:00:00,1605A,122.0485,41.0883,盘锦市,兴隆台,,26,26,13,4,6,94,65,89,82,26,15,3,2,0.7,0.5
2022-06-28T21:00:00,1606A,121.8297,41.1028,盘锦市,新生街道,,22,7,3,9,5,97,69,85,81,16,15,1,2,0.5,0.5
2022-06-28T21:00:00,1607A,120.9092,40.7136,葫芦岛市,龙港区,,29,29,15,5,4,116,60,103,80,18,9,10,7,0.4,0.4
2022-06-28T21:00:00,1608A,120.8392,40.7514,葫芦岛市,化工街,颗粒物(PM10),54,58,20,19,12,120,22,111,84,65,13,10,7,0.6,0.5
2022-06-28T21:00:00,1609A,120.8341,40.7073,葫芦岛市,新区,,29,29,14,17,7,116,80,111,91,15,10,6,7,0.3,0.3
2022-06-28T21:00:00,1610A,120.8695,40.7677,葫芦岛市,东城区,,25,25,27,14,8,112,57,103,78,30,10,7,6,0.4,0.3
2022-06-28T21:00:00,1611A,118.5819,24.9117,泉州市,涂山街,,35,35,29,6,6,54,31,48,38,18,16,7,11,0.3,0.2
2022-06-28T21:00:00,1612A,118.5972,24.8978,泉州市,津头埔,,30,30,27,4,8,55,33,45,36,17,16,5,9,0.2,0.2
2022-06-28T21:00:00,1613A,118.6663,24.9424,泉州市,万安,,20,20,22,6,9,56,40,48,42,11,14,5,7,0.5,0.4
2022-06-28T21:00:00,1616A,117.6795,36.229,济南市,技术学院,,36,9,26,13,20,163,114,148,136,17,12,7,8,0.9,1.1
2022-06-28T21:00:00,1618A,118.3429,35.0532,临沂市,沂河小区,颗粒物(PM10),52,53,24,26,16,158,97,141,138,47,16,17,9,0.7,0.5
2022-06-28T21:00:00,1619A,118.295,35.0583,临沂市,鲁南制药厂,颗粒物(PM10),57,63,17,25,14,162,102,147,145,31,16,13,6,0.7,0.5
2022-06-28T21:00:00,1620A,118.2794,34.9976,临沂市,新光毛纺厂,,41,41,17,20,11,150,127,139,139,25,14,6,6,0.7,0.6
2022-06-28T21:00:00,1621A,118.3956,35.0888,临沂市,河东保险公司,,36,36,17,17,10,173,111,146,146,20,9,7,5,0.6,0.5
2022-06-28T21:00:00,1622A,116.3032,37.4674,德州市,儿童乐园,,34,14,31,0,24,137,108,128,125,13,15,5,5,0.6,0.7
2022-06-28T21:00:00,1624A,116.2991,37.4451,德州市,监理站,,35,6,25,6,20,141,112,131,129,4,8,9,10,0.7,0.7
2022-06-28T21:00:00,1625A,115.9848,36.4372,聊城市,区政府,,36,17,33,8,23,145,114,135,128,12,8,6,6,0.6,0.7
2022-06-28T21:00:00,1628A,118.0062,37.3803,滨州市,市环保局,,34,9,32,9,29,154,106,142,131,10,6,2,2,0.2,0.2
2022-06-28T21:00:00,1629A,118.0018,37.3617,滨州市,第二水厂,,31,14,28,2,20,142,97,133,117,13,10,10,14,0.7,0.6
2022-06-28T21:00:00,1630A,117.9776,37.393,滨州市,北中新校,,24,13,23,6,18,134,76,125,110,16,8,5,2,0.4,0.5
2022-06-28T21:00:00,1631A,118.0414,36.8103,淄博市,人民公园,,28,22,23,19,22,155,84,137,120,25,14,8,8,0.4,0.3
2022-06-28T21:00:00,1633A,117.8525,36.4847,淄博市,双山,,26,17,27,12,27,166,82,138,120,19,17,9,10,0.3,0.4
2022-06-28T21:00:00,1634A,117.9592,36.6331,淄博市,气象站,,27,17,28,14,24,211,86,173,139,19,15,10,12,0.4,0.4
2022-06-28T21:00:00,1635A,118.3092,36.8194,淄博市,莆田园,,29,24,23,19,21,145,92,136,122,26,18,9,9,0.9,0.7
2022-06-28T21:00:00,1637A,117.558,34.8438,枣庄市,市中区政府,颗粒物(PM10),62,73,23,24,10,152,140,146,145,18,9,7,8,0.6,0.4
2022-06-28T21:00:00,1638A,117.2852,34.7837,枣庄市,薛城环保局,颗粒物(PM10),58,66,27,31,14,158,100,139,135,38,12,8,8,0.8,0.7
2022-06-28T21:00:00,1639A,117.5852,34.7745,枣庄市,峄城区政府,颗粒物(PM10),53,56,24,34,15,159,123,143,143,18,13,6,15,0.7,0.5
2022-06-28T21:00:00,1640A,117.7276,34.5578,枣庄市,台儿庄区环保局,,,95,23,36,12,169,,155,155,66,16,11,12,1.1,0.8
2022-06-28T21:00:00,1641A,117.4518,35.0992,枣庄市,山亭区环保局,颗粒物(PM10),57,63,27,37,22,169,126,157,153,18,11,9,10,0.6,0.5
2022-06-28T21:00:00,1642A,121.2514,37.5639,烟台市,开发区,,26,14,9,9,5,124,81,108,94,23,11,8,8,0.4,0.5
2022-06-28T21:00:00,1643A,121.3719,37.5433,烟台市,轴承厂,,24,9,10,5,9,111,45,105,84,48,14,5,5,0.2,0.2
2022-06-28T21:00:00,1644A,121.3181,37.5436,烟台市,西郊化工站,,18,9,8,12,5,85,50,79,64,35,13,6,6,0.3,0.4
2022-06-28T21:00:00,1645A,121.4478,37.4822,烟台市,莱山环保局,,,,3,7,4,110,83,103,92,16,8,6,6,0.5,0.5
2022-06-28T21:00:00,1646A,121.2611,37.4967,烟台市,福山环保局,,21,14,12,9,7,95,65,87,78,24,13,5,5,0.6,0.6
2022-06-28T21:00:00,1650A,119.1437,36.7023,潍坊市,环保局,,26,17,23,13,19,136,82,121,111,20,10,9,9,0.7,0.6
2022-06-28T21:00:00,1653A,116.6251,35.4302,济宁市,火炬城,颗粒物(PM10),60,69,34,39,22,159,133,144,143,13,6,10,11,0.7,0.6
2022-06-28T21:00:00,1655A,116.5491,35.4042,济宁市,电化厂,颗粒物(PM10),73,96,37,36,20,132,121,120,120,15,6,1,2,0.5,0.5
2022-06-28T21:00:00,1656A,117.1437,36.1937,泰安市,监测站,,33,20,36,10,27,148,103,144,127,11,6,10,10,0.7,0.4
2022-06-28T21:00:00,1657A,117.0885,36.2017,泰安市,人口学校,,33,22,38,12,22,149,104,138,129,12,9,7,6,0.2,0.2
2022-06-28T21:00:00,1658A,117.1089,36.1758,泰安市,电力学校,,31,22,48,19,23,160,98,143,132,12,7,7,7,0.6,0.2
2022-06-28T21:00:00,1659A,119.471,35.4209,日照市,监测站,,33,9,11,10,12,103,103,80,80,6,15,9,9,0.6,0.8
2022-06-28T21:00:00,1660A,119.523,35.4216,日照市,市政府广场,,,,13,,9,110,110,75,75,2,17,5,6,0.6,0.8
2022-06-28T21:00:00,1661A,119.5587,35.4044,日照市,港务局,,37,5,14,5,6,116,116,82,82,5,22,4,5,0.6,0.8
2022-06-28T21:00:00,1662A,122.1214,37.4236,威海市,华夏技校,,34,2,4,2,7,118,107,115,92,8,9,4,4,0.4,0.4
2022-06-28T21:00:00,1663A,122.0508,37.5236,威海市,山大分校,,20,2,4,2,3,116,33,106,76,40,12,3,2,0.2,0.2
2022-06-28T21:00:00,1664A,122.1067,37.5072,威海市,市监测站,,16,0,5,7,10,111,38,105,51,31,13,5,4,0.4,0.3
2022-06-28T21:00:00,1666A,118.6614,37.4309,东营市,市环保局,,30,12,15,9,15,125,93,119,112,14,10,6,7,0.7,0.7
2022-06-28T21:00:00,1669A,113.5824,24.7733,韶关市,市八中,,,,25,17,13,133,,115,115,21,15,7,9,0.4,0.4
2022-06-28T21:00:00,1671A,113.5917,24.7972,韶关市,园林处,,30,8,26,20,10,124,93,106,106,13,7,13,11,0.5,0.5
2022-06-28T21:00:00,1672A,113.6735,24.7791,韶关市,韶关学院,,37,37,26,16,13,120,82,101,100,16,11,8,9,0.6,0.6
2022-06-28T21:00:00,1673A,113.5971,24.6863,韶关市,曲江监测站,,33,26,24,23,13,120,83,102,102,17,10,8,8,0.6,0.5
2022-06-28T21:00:00,1674A,116.6794,23.3667,汕头市,金平子站,,11,4,13,6,8,61,34,52,47,8,9,6,7,0.6,0.6
2022-06-28T21:00:00,1675A,116.7244,23.3633,汕头市,龙湖子站,,12,12,14,4,5,57,38,52,49,9,8,6,7,0.6,0.5
2022-06-28T21:00:00,1676A,116.7258,23.2775,汕头市,濠江子站,,23,23,23,0,8,173,28,154,50,10,8,9,9,0.5,0.5
2022-06-28T21:00:00,1677A,116.7519,23.4714,汕头市,澄海子站,,18,18,17,8,8,62,32,48,42,11,11,5,5,0.5,0.4
2022-06-28T21:00:00,1678A,116.6092,23.2539,汕头市,潮阳子站,,14,14,15,5,7,50,27,41,39,6,6,6,8,0.6,0.6
2022-06-28T21:00:00,1680A,110.3539,21.2706,湛江市,湛江影剧院,,17,17,16,5,6,76,36,60,48,4,6,5,5,0.3,0.5
2022-06-28T21:00:00,1681A,110.3928,21.2228,湛江市,市环境监测站,,13,7,19,7,8,81,39,64,51,4,5,4,5,0.4,0.5
2022-06-28T21:00:00,1682A,110.4019,21.1997,湛江市,环保局宿舍,,11,10,14,5,8,72,35,56,46,3,6,4,4,0.5,0.6
2022-06-28T21:00:00,1683A,110.4111,21.2028,湛江市,霞山游泳场,,,,15,6,6,72,40,57,48,3,6,5,6,0.3,0.4
2022-06-28T21:00:00,1684A,110.3316,21.2679,湛江市,麻章区环保局,,12,12,18,6,10,90,29,69,49,7,9,4,4,0.5,0.6
2022-06-28T21:00:00,1685A,110.4558,21.2567,湛江市,坡头区环保局,,13,12,11,7,7,69,40,58,49,5,5,5,5,0.4,0.4
2022-06-28T21:00:00,1686A,111.0286,21.4688,茂名市,电白南海,,19,19,13,7,5,46,43,43,43,4,4,3,3,0.4,0.4
2022-06-28T21:00:00,1687A,110.9294,21.6533,茂名市,茂石化七小,,19,19,13,9,9,49,34,45,42,9,7,3,3,0.5,0.5
2022-06-28T21:00:00,1688A,110.9107,21.6687,茂名市,健康路,,12,12,11,6,1,58,38,52,50,8,6,5,5,0.5,0.5
2022-06-28T21:00:00,1689A,110.8592,21.6828,茂名市,高岭,,13,9,5,5,1,56,39,52,50,7,6,5,5,0.4,0.4
2022-06-28T21:00:00,1690A,116.1231,24.3284,梅州市,梅江月梅,,40,40,25,10,10,84,67,70,70,8,7,5,4,0.5,0.5
2022-06-28T21:00:00,1691A,116.0797,24.2719,梅州市,梅县新城,,24,24,22,9,13,85,76,69,69,10,12,5,6,0.5,0.5
2022-06-28T21:00:00,1692A,116.1248,24.2654,梅州市,环境监控中心,,22,19,19,14,11,82,69,66,66,9,11,6,5,0.6,0.5
2022-06-28T21:00:00,1693A,115.3653,22.775,汕尾市,市环保局,,13,0,14,5,4,63,40,47,47,5,6,5,5,0.5,0.4
2022-06-28T21:00:00,1694A,115.3706,22.7898,汕尾市,市政府,,15,10,9,4,5,72,45,50,50,4,5,6,6,0.5,0.5
2022-06-28T21:00:00,1695A,115.3622,22.7925,汕尾市,新城中学,,15,15,11,3,4,74,45,50,50,3,3,5,6,0.5,0.5
2022-06-28T21:00:00,1696A,114.6778,23.7569,河源市,源西(对照点),颗粒物(PM10),54,57,23,20,9,104,22,88,77,44,8,4,4,0.5,0.3
2022-06-28T21:00:00,1697A,114.6944,23.7586,河源市,东埔,,46,34,23,32,10,110,50,94,91,27,12,3,4,0.9,0.6
2022-06-28T21:00:00,1698A,114.6892,23.7233,河源市,老城,颗粒物(PM10),51,52,22,11,8,113,42,98,91,27,12,2,3,0.7,0.6
2022-06-28T21:00:00,1701A,111.9491,21.8658,阳江市,马南垌,,12,0,8,5,5,51,38,46,43,2,2,3,2,0.4,0.3
2022-06-28T21:00:00,1702A,113.0426,23.691,清远市,环保大楼(对照点),臭氧1小时,72,43,26,20,13,207,177,167,167,20,17,4,5,0.5,0.4
2022-06-28T21:00:00,1703A,113.0208,23.7106,清远市,凤城街办,,44,40,25,26,15,158,140,132,132,19,17,6,6,0.7,0.5
2022-06-28T21:00:00,1705A,116.6367,23.6719,潮州市,西园路(对照点),,15,15,18,4,10,109,39,80,62,8,9,5,5,0.7,0.7
2022-06-28T21:00:00,1706A,116.6447,23.6706,潮州市,档案局,,13,13,18,9,11,108,30,74,54,9,10,7,8,0.4,0.5
2022-06-28T21:00:00,1708A,116.3701,23.5345,揭阳市,新兴,,15,9,21,10,11,80,34,71,57,11,9,6,6,0.4,0.3
2022-06-28T21:00:00,1709A,116.3264,23.5443,揭阳市,西马,,13,13,20,9,5,81,36,68,58,3,5,8,9,0.5,0.5
2022-06-28T21:00:00,1710A,116.3611,23.5626,揭阳市,东兴,,44,44,21,8,6,82,35,73,58,7,8,5,5,0.6,0.5
2022-06-28T21:00:00,1711A,116.4151,23.5294,揭阳市,渔湖,,,24,19,,10,72,32,62,53,5,5,5,5,0.6,0.5
2022-06-28T21:00:00,1714A,112.0539,22.9539,云浮市,牧羊,,26,26,20,13,9,65,35,58,56,18,9,7,7,0.4,0.5
2022-06-28T21:00:00,1715A,102.575,24.3711,玉溪市,东风水库,,16,16,12,4,4,67,45,51,50,9,12,4,4,0.7,0.9
2022-06-28T21:00:00,1718A,115.4208,35.2464,菏泽市,气象局,颗粒物(PM10),54,58,59,33,37,204,158,176,176,11,10,4,4,0.5,0.5
2022-06-28T21:00:00,1719A,115.4747,35.2375,菏泽市,市政协,臭氧1小时,57,55,52,33,30,204,165,178,178,9,9,6,7,0.3,0.2
2022-06-28T21:00:00,1721A,113.3819,40.1097,大同市,果树场(对照点),,17,12,15,10,12,119,53,108,92,28,16,8,9,0.8,0.9
2022-06-28T21:00:00,1723A,113.2994,40.0758,大同市,云冈宾馆,,34,34,20,8,8,112,59,103,94,54,21,6,10,0.7,0.6
2022-06-28T21:00:00,1724A,113.3444,40.0917,大同市,大同大学,,20,20,18,8,7,120,58,112,102,40,17,5,7,0.6,0.6
2022-06-28T21:00:00,1725A,113.2661,40.1269,大同市,安家小村,,35,35,18,16,9,131,74,121,109,30,16,10,11,0.4,0.5
2022-06-28T21:00:00,1726A,113.2711,40.0844,大同市,教育学院,,43,16,25,8,7,112,21,99,79,85,24,10,11,0.7,0.5
2022-06-28T21:00:00,1727A,113.1147,36.1547,长治市,清华站,,30,20,40,5,16,147,94,131,110,20,18,10,14,0.2,0.5
2022-06-28T21:00:00,1728A,113.1031,36.1989,长治市,监测站,,30,26,43,12,17,149,96,131,111,13,9,8,9,0.4,0.6
2022-06-28T21:00:00,1730A,113.0886,36.2125,长治市,审计局,,30,21,35,5,16,143,94,125,112,12,10,8,9,0.6,0.7
2022-06-28T21:00:00,1731A,113.0844,36.1856,长治市,长治八中,,31,23,41,9,18,146,99,128,111,14,14,10,12,0.4,0.6
2022-06-28T21:00:00,1733A,111.5531,36.0783,临汾市,临钢医院,,26,16,38,8,12,118,81,112,105,23,23,2,3,0.4,0.8
2022-06-28T21:00:00,1734A,111.5028,36.0714,临汾市,技工学校,,27,10,27,4,12,105,84,99,98,13,14,1,6,0.3,0.5
2022-06-28T21:00:00,1736A,111.5018,36.0855,临汾市,市委,,28,20,32,5,12,111,87,105,103,14,16,4,5,0.4,0.3
2022-06-28T21:00:00,1738A,113.5758,37.8572,阳泉市,市中心,,27,13,45,8,17,144,85,130,120,19,37,6,9,0.6,0.7
2022-06-28T21:00:00,1739A,113.4894,37.8731,阳泉市,赛鱼,,28,28,32,15,16,132,54,117,103,34,33,7,9,0.7,0.8
2022-06-28T21:00:00,1740A,113.5819,37.8486,阳泉市,南庄,,33,13,44,23,29,141,94,129,119,12,28,5,8,0.6,0.8
2022-06-28T21:00:00,1742A,113.5614,37.8703,阳泉市,平坦,,30,18,43,9,16,133,94,123,117,14,40,6,9,0.7,0.9
2022-06-28T21:00:00,1743A,113.5158,37.8392,阳泉市,大阳泉,,35,6,31,7,20,141,110,119,115,10,15,6,9,0.6,0.6
2022-06-28T21:00:00,1744A,118.9233,42.2816,赤峰市,松山一中,,28,25,14,8,10,109,87,108,90,20,15,10,10,0.6,0.5
2022-06-28T21:00:00,1745A,118.9576,42.2728,赤峰市,哈达街,,27,21,16,9,8,104,86,103,85,17,18,12,11,0.6,0.6
2022-06-28T21:00:00,1746A,118.8788,42.2554,赤峰市,天义路,,26,21,13,4,5,112,82,112,84,20,14,8,9,0.5,0.5
2022-06-28T21:00:00,1748A,123.044,41.1196,鞍山市,深沟寺,,15,15,26,6,19,86,28,74,48,15,17,5,6,0.7,1.1
2022-06-28T21:00:00,1749A,123.011,41.0931,鞍山市,太阳城,,17,17,28,10,17,86,34,76,68,16,16,6,7,1.1,1.3
2022-06-28T21:00:00,1750A,123.0485,41.1442,鞍山市,太平,,20,20,27,10,17,84,60,71,61,20,17,8,8,1.5,1.4
2022-06-28T21:00:00,1751A,122.9642,41.0971,鞍山市,铁西三道街,,21,21,24,12,20,85,50,73,69,28,17,6,5,0.7,0.9
2022-06-28T21:00:00,1752A,122.9341,41.0833,鞍山市,铁西工业园区,,20,20,23,10,17,83,44,75,70,22,12,3,4,0.8,0.9
2022-06-28T21:00:00,1753A,123.022,41.0821,鞍山市,明达新区,,17,15,25,8,18,82,54,72,67,22,18,4,3,0.7,1.3
2022-06-28T21:00:00,1755A,123.7977,41.8491,抚顺市,望花区,,20,20,18,11,13,91,49,78,73,31,15,2,2,0.8,0.9
2022-06-28T21:00:00,1756A,123.9161,41.8822,抚顺市,顺城区,,40,40,25,15,18,67,32,62,56,36,22,8,8,0.4,0.6
2022-06-28T21:00:00,1757A,124.0436,41.8611,抚顺市,东洲区,,28,21,18,19,14,79,61,73,72,9,12,3,4,0.5,0.7
2022-06-28T21:00:00,1758A,123.9247,41.8642,抚顺市,新抚区,,24,24,19,12,11,89,58,80,75,16,13,3,3,0.7,0.8
2022-06-28T21:00:00,1759A,124.0972,41.8961,抚顺市,大伙房水库,,26,19,16,18,14,78,60,75,73,13,10,14,8,0.4,0.6
2022-06-28T21:00:00,1760A,123.7086,41.8391,抚顺市,沈抚新城,,17,17,22,5,13,94,48,73,70,22,14,3,5,0.6,0.8
2022-06-28T21:00:00,1761A,123.8275,41.3064,本溪市,大峪,,50,50,23,27,7,84,34,79,54,16,14,5,5,1.3,0.7
2022-06-28T21:00:00,1762A,123.7567,41.3325,本溪市,溪湖,,46,40,24,32,15,60,14,47,38,31,24,6,6,3.4,2
2022-06-28T21:00:00,1763A,123.7169,41.3094,本溪市,彩屯,细颗粒物(PM2.5),82,43,26,60,19,70,21,55,46,23,16,4,4,2.2,1.8
2022-06-28T21:00:00,1764A,123.7669,41.2864,本溪市,东明,,45,45,17,25,7,74,24,62,48,37,15,5,5,1.8,0.9
2022-06-28T21:00:00,1765A,123.7992,41.2664,本溪市,新立屯,颗粒物(PM10),51,51,14,21,5,70,21,70,45,22,9,3,4,1.3,0.7
2022-06-28T21:00:00,1766A,123.8142,41.3472,本溪市,威宁,,,28,27,17,7,75,,70,52,27,13,8,9,1.6,0.6
2022-06-28T21:00:00,1767A,121.1115,41.0879,锦州市,南山,,25,19,12,17,11,112,69,109,80,14,7,9,7,0.8,0.7
2022-06-28T21:00:00,1768A,121.0533,40.8434,锦州市,开发区,,41,32,19,18,7,101,23,93,73,81,15,8,8,0.5,0.5
2022-06-28T21:00:00,1769A,121.1836,41.1119,锦州市,百股街道,,30,30,13,5,5,121,58,117,87,22,8,2,3,0.5,0.5
2022-06-28T21:00:00,1770A,121.1178,41.1222,锦州市,天安街道,,24,21,13,9,10,120,74,117,81,9,6,5,6,0.5,0.6
2022-06-28T21:00:00,1771A,121.1303,41.1386,锦州市,北湖公园,,25,15,11,11,8,117,79,113,83,10,5,3,4,0.3,0.3
2022-06-28T21:00:00,1772A,126.54,43.8622,吉林市,哈达湾,,15,10,13,6,10,84,48,67,53,9,10,6,7,0.5,0.6
2022-06-28T21:00:00,1773A,126.5844,43.8358,吉林市,东局子,,15,11,11,10,8,75,36,65,50,12,11,5,5,0.6,0.6
2022-06-28T21:00:00,1774A,126.5052,43.8245,吉林市,电力学院,,16,8,10,11,13,72,40,56,47,10,12,6,6,0.6,0.7
2022-06-28T21:00:00,1775A,126.6133,43.8972,吉林市,江北,,12,9,12,3,6,66,37,59,40,5,10,7,7,0.6,0.6
2022-06-28T21:00:00,1776A,126.555,43.8306,吉林市,江南公园,,14,9,15,5,12,72,44,62,48,10,15,3,3,0.5,0.7
2022-06-28T21:00:00,1778A,126.7061,43.7133,吉林市,丰满(对照点),,15,15,13,9,8,77,24,77,46,6,6,4,4,0.7,0.7
2022-06-28T21:00:00,1779A,123.9305,47.3636,齐齐哈尔市,安居小区,,35,35,27,8,8,105,61,100,94,37,15,5,5,0.7,0.5
2022-06-28T21:00:00,1780A,123.9488,47.3386,齐齐哈尔市,中心广场,,28,28,18,9,5,115,85,110,107,26,10,3,3,0.7,0.4
2022-06-28T21:00:00,1781A,123.9483,47.3227,齐齐哈尔市,农牧车辆厂,,31,31,28,5,6,114,84,111,107,16,8,4,4,0.4,0.3
2022-06-28T21:00:00,1783A,123.945,47.2988,齐齐哈尔市,市环境监测站,,24,20,17,12,7,120,76,115,110,29,9,5,5,0.6,0.5
2022-06-28T21:00:00,1784A,129.61,44.561,牡丹江市,环保大楼,,23,9,10,5,6,85,72,68,64,5,5,5,4,0.5,0.5
2022-06-28T21:00:00,1785A,129.6115,44.5782,牡丹江市,文化广场,,20,17,11,8,9,73,63,61,56,12,11,3,2,0.4,0.4
2022-06-28T21:00:00,1786A,129.5904,44.5963,牡丹江市,第一医院,,22,6,9,10,6,74,68,56,56,6,10,3,3,0.6,0.7
2022-06-28T21:00:00,1787A,129.6364,44.6075,牡丹江市,机车工厂,,18,10,9,8,6,71,56,56,55,9,7,1,2,0.5,0.3
2022-06-28T21:00:00,1788A,129.6386,44.5462,牡丹江市,第一中学,,21,12,9,4,7,76,67,55,55,8,7,2,2,0.4,0.5
2022-06-28T21:00:00,1789A,124.81117,46.03138,大庆市,大同区,,,,24,,14,117,82,110,103,15,10,,6,0.4,0.4
2022-06-28T21:00:00,1790A,125.129,46.533,大庆市,龙凤区,,22,18,16,11,7,107,69,100,93,25,14,8,6,0.4,0.3
2022-06-28T21:00:00,1791A,124.902,46.408,大庆市,红岗区,,24,8,11,4,6,109,74,104,98,12,8,4,4,0.3,0.3
2022-06-28T21:00:00,1792A,125.153,46.586,大庆市,萨尔图区,,24,23,24,10,11,108,76,103,96,21,9,5,4,0.3,0.3
2022-06-28T21:00:00,1793A,124.9042,46.6215,大庆市,让胡路区,,25,21,15,12,5,114,78,107,103,22,7,6,3,0.4,0.4
2022-06-28T21:00:00,1794A,118.3606,31.3519,芜湖市,监测站,,43,27,25,30,14,80,47,72,68,38,18,12,9,0.8,0.4
2022-06-28T21:00:00,1795A,118.3714,31.4134,芜湖市,科创中心,,38,38,21,22,12,85,51,74,71,30,14,11,7,0.9,0.6
2022-06-28T21:00:00,1796A,118.3673,31.3131,芜湖市,四水厂,,38,30,23,26,12,106,29,86,77,48,15,8,6,1.0,0.5
2022-06-28T21:00:00,1798A,118.5092,31.6837,马鞍山市,湖东路四小,,26,23,20,18,8,108,80,95,95,18,11,3,4,0.7,0.7
2022-06-28T21:00:00,1799A,118.5024,31.6449,马鞍山市,开发区,,33,30,23,23,14,103,72,92,92,21,14,7,6,0.8,0.8
2022-06-28T21:00:00,1800A,118.5228,31.7231,马鞍山市,慈湖,,38,26,20,26,18,104,81,93,93,10,7,4,4,0.6,0.7
2022-06-28T21:00:00,1802A,118.6245,31.7241,马鞍山市,濮塘(对照点),,33,33,22,16,10,104,66,92,90,24,5,12,10,0.8,0.7
2022-06-28T21:00:00,1803A,115.9872,29.6815,九江市,十里,,19,19,20,9,12,92,40,71,63,14,13,8,9,0.6,0.6
2022-06-28T21:00:00,1804A,115.9584,29.7046,九江市,茅山头,,29,29,24,15,18,88,35,69,62,13,10,5,9,0.5,0.5
2022-06-28T21:00:00,1805A,115.9877,29.7295,九江市,西园,,20,19,29,14,12,83,39,68,59,12,15,8,9,0.8,0.7
2022-06-28T21:00:00,1806A,116.0172,29.6547,九江市,五七二七厂,,21,21,20,11,7,89,24,76,62,7,6,2,5,1.0,0.5
2022-06-28T21:00:00,1808A,115.9114,29.6038,九江市,综合工业园,,11,9,21,2,9,87,34,70,46,12,13,5,9,0.8,0.7
2022-06-28T21:00:00,1809A,116.0721,29.7535,九江市,石化总厂,,22,22,29,11,15,70,33,58,48,16,18,4,7,0.6,0.6
2022-06-28T21:00:00,1810A,115.9773,29.5698,九江市,庐山气象台(对照点),,17,8,13,9,12,68,54,58,56,2,5,5,14,0.5,0.4
2022-06-28T21:00:00,1812A,112.3931,34.6516,洛阳市,市委党校,,33,29,50,15,22,153,104,126,118,14,12,8,6,0.3,0.4
2022-06-28T21:00:00,1814A,112.4657,34.6871,洛阳市,豫西宾馆,,32,23,60,12,23,143,102,134,124,15,14,3,7,0.2,0.4
2022-06-28T21:00:00,1815A,112.494,34.6886,洛阳市,河南林校,,30,22,52,6,18,132,96,124,115,14,14,5,8,0.1,0.3
2022-06-28T21:00:00,1816A,112.3844,34.623,洛阳市,开发区管委会,,30,29,46,8,20,132,94,127,121,10,10,7,10,0.1,0.2
2022-06-28T21:00:00,1817A,112.4267,34.6258,洛阳市,市委新办公区,,35,29,47,8,18,135,112,129,127,12,11,5,8,0.2,0.4
2022-06-28T21:00:00,1818A,114.4839,36.0621,安阳市,棉研所(对照点),,,19,51,,,170,88,149,138,15,10,4,4,1.1,1.4
2022-06-28T21:00:00,1819A,114.3551,36.1017,安阳市,红庙街,,,,55,,32,212,,185,179,31,20,3,4,1.0,0.6
2022-06-28T21:00:00,1820A,114.361,36.0681,安阳市,银杏小区,,33,28,58,23,36,209,98,183,163,26,8,3,5,1.4,0.9
2022-06-28T21:00:00,1824A,114.3389,34.7781,开封市,肿瘤医院,颗粒物(PM10),60,69,55,15,23,205,134,189,175,12,8,7,6,0.8,0.8
2022-06-28T21:00:00,1826A,114.2885,34.7965,开封市,世纪星幼儿园,颗粒物(PM10),54,57,51,11,18,198,136,174,168,15,12,1,3,0.7,0.8
2022-06-28T21:00:00,1828A,113.227,35.2125,焦作市,市环保局,,,46,52,9,21,137,,131,128,19,11,7,3,0.4,0.4
2022-06-28T21:00:00,1830A,113.1992,35.2590,焦作市,影视城(对照点),,37,33,45,13,34,128,118,124,122,12,9,6,8,0.5,0.6
2022-06-28T21:00:00,1832A,113.3257,33.742,平顶山市,新华旅馆,,39,39,38,4,18,173,102,150,134,11,10,4,4,0.2,0.4
2022-06-28T21:00:00,1833A,113.2919,33.737,平顶山市,规划设计院,,35,33,45,5,13,185,109,158,140,14,14,6,7,0.3,0.5
2022-06-28T21:00:00,1834A,113.182,33.774,平顶山市,平顶山工学院,,32,29,37,13,21,161,100,146,134,19,12,4,4,0.3,0.5
2022-06-28T21:00:00,1835A,111.1922,34.7752,三门峡市,市政府,,29,25,54,18,19,128,64,122,116,58,31,6,6,0.5,0.4
2022-06-28T21:00:00,1836A,111.1587,34.7942,三门峡市,开发区,,48,48,53,9,18,119,93,114,113,9,18,3,3,0.3,0.3
2022-06-28T21:00:00,1838A,111.143,34.7955,三门峡市,风景区(对照点),,,,60,7,14,129,86,117,115,5,10,,4,0.3,0.3
2022-06-28T21:00:00,1840A,111.2992,30.6981,宜昌市,白龙岗,,46,46,25,24,6,162,74,128,122,21,12,1,2,0.7,0.5
2022-06-28T21:00:00,1841A,111.3549,30.6465,宜昌市,伍家岗,颗粒物(PM10),52,54,22,27,9,163,79,132,126,22,16,7,7,0.6,0.5
2022-06-28T21:00:00,1842A,111.2628,30.6961,宜昌市,点军区,颗粒物(PM10),52,53,27,22,8,163,94,132,131,28,13,3,2,0.5,0.3
2022-06-28T21:00:00,1843A,111.3275,30.7819,宜昌市,夷陵区,颗粒物(PM10),51,51,27,24,7,179,88,138,134,25,13,6,5,0.4,0.3
2022-06-28T21:00:00,1844A,112.2494,30.3197,荆州市,市图书馆,,42,42,20,21,11,123,98,112,111,14,10,8,8,0.5,0.5
2022-06-28T21:00:00,1845A,112.2008,30.3544,荆州市,市委党校,,35,35,18,10,13,120,100,112,112,12,8,7,8,0.5,0.5
2022-06-28T21:00:00,1847A,113.1094,29.3578,岳阳市,南湖风景区,,28,25,19,19,15,101,84,94,94,12,8,13,11,0.5,0.4
2022-06-28T21:00:00,1848A,113.1493,29.4251,岳阳市,城陵矶,,38,29,17,26,14,102,92,93,93,14,10,7,9,0.6,0.5
2022-06-28T21:00:00,1849A,113.1497,29.3575,岳阳市,开发区,,33,23,18,23,18,97,83,89,89,12,6,10,8,0.4,0.4
2022-06-28T21:00:00,1850A,113.2621,29.4758,岳阳市,云溪区,,27,18,18,14,14,98,86,93,93,7,10,10,10,0.7,0.6
2022-06-28T21:00:00,1851A,112.9943,29.4402,岳阳市,君山区,,26,14,14,14,14,100,82,92,92,8,5,6,6,0.4,0.4
2022-06-28T21:00:00,1852A,113.2117,29.355,岳阳市,金凤水库(对照点),,25,16,22,16,12,98,79,87,87,12,6,1,3,0.5,0.5
2022-06-28T21:00:00,1854A,111.6975,28.9703,常德市,市二中,,,36,23,16,17,107,,97,97,16,8,4,5,0.5,0.4
2022-06-28T21:00:00,1857A,111.7158,29.1456,常德市,白鹤山(对照点),,30,30,24,15,15,104,50,86,81,2,2,2,3,0.5,0.5
2022-06-28T21:00:00,1858A,110.5319,29.1217,张家界市,永定新区,,36,36,25,25,18,129,71,107,103,11,9,3,3,0.4,0.4
2022-06-28T21:00:00,1859A,110.4697,29.1242,张家界市,电业局,,,,23,,7,119,,107,107,10,8,6,5,0.3,0.2
2022-06-28T21:00:00,1860A,110.5594,29.3547,张家界市,未央路,,27,27,28,6,6,108,31,89,70,16,6,2,2,0.3,0.3
2022-06-28T21:00:00,1861A,110.4417,29.315,张家界市,袁家界(对照点),,27,27,25,13,8,113,73,100,92,5,5,6,7,0.5,0.5
2022-06-28T21:00:00,1862A,110.4144,25.3167,桂林市,电子科大尧山校区(对照点),,35,33,24,24,13,89,41,74,67,6,6,18,9,0.5,0.5
2022-06-28T21:00:00,1863A,110.2819,25.2697,桂林市,监测站,颗粒物(PM10),52,53,26,23,13,68,32,60,53,25,10,7,5,0.5,0.4
2022-06-28T21:00:00,1864A,110.3089,25.2708,桂林市,龙隐路小学,,,,26,,13,74,,63,62,13,10,15,11,0.4,0.3
2022-06-28T21:00:00,1865A,110.2869,25.2178,桂林市,八中,,50,42,22,35,13,70,35,63,57,28,11,18,9,0.6,0.4
2022-06-28T21:00:00,1866A,109.2262,21.588,北海市,牛尾岭水库(对照点),,42,36,24,29,17,25,20,24,23,10,8,20,6,0.6,0.5
2022-06-28T21:00:00,1867A,109.1436,21.4086,北海市,海滩公园,,50,50,32,10,6,107,72,100,95,3,3,4,4,0.4,0.4
2022-06-28T21:00:00,1868A,109.0981,21.4661,北海市,新市环保局,,21,14,16,7,6,96,67,89,85,4,4,3,3,0.3,0.4
2022-06-28T21:00:00,1869A,109.1778,21.5233,北海市,北海工业园,,21,18,22,12,11,93,67,91,88,6,6,4,4,0.4,0.4
2022-06-28T21:00:00,1870A,109.4856,24.3895,柳州市,柳东小学,,29,20,21,20,16,96,58,90,87,12,9,5,5,0.7,0.6
2022-06-28T21:00:00,1871A,109.4157,24.3277,柳州市,环保监测站,,20,6,22,8,12,95,63,88,86,10,10,4,5,0.5,0.5
2022-06-28T21:00:00,1872A,109.389,24.341,柳州市,河西水厂,,17,14,24,10,12,96,53,87,84,13,10,4,4,0.8,0.7
2022-06-28T21:00:00,1873A,109.4311,24.2921,柳州市,市四中,,22,12,26,15,12,98,64,86,85,9,8,5,6,0.5,0.5
2022-06-28T21:00:00,1874A,109.4006,24.3631,柳州市,市九中,,,21,28,,14,89,62,82,81,13,9,5,5,0.9,0.8
2022-06-28T21:00:00,1875A,109.4958,24.3134,柳州市,古亭山,,17,17,22,10,11,85,48,78,75,15,8,2,2,0.5,0.6
2022-06-28T21:00:00,1876A,109.5078,18.2489,三亚市,河东子站,,20,18,10,10,5,69,64,64,64,7,7,2,3,0.5,0.4
2022-06-28T21:00:00,1877A,109.4964,18.2681,三亚市,河西子站,,20,15,13,13,4,73,63,66,66,8,8,2,3,0.3,0.4
2022-06-28T21:00:00,1878A,104.7778,31.4741,绵阳市,富乐山,臭氧1小时,60,55,31,34,16,250,168,192,192,20,14,9,7,0.6,0.5
2022-06-28T21:00:00,1879A,104.7563,31.4535,绵阳市,市人大,颗粒物(PM10),56,62,35,27,17,251,152,193,192,52,28,11,8,0.6,0.5
2022-06-28T21:00:00,1880A,104.6697,31.4668,绵阳市,高新区自来水公司,颗粒物(PM10),64,78,54,21,23,256,133,195,191,37,33,6,6,0.6,0.5
2022-06-28T21:00:00,1881A,104.7287,31.5075,绵阳市,三水厂,,,,38,,17,242,,188,188,58,34,10,9,0.7,0.5
2022-06-28T21:00:00,1882A,104.563,28.793,宜宾市,石马中学(对照点),,48,48,42,22,16,76,39,64,63,30,16,6,7,0.6,0.6
2022-06-28T21:00:00,1883A,104.6201,28.7728,宜宾市,市委,颗粒物(PM10),54,58,36,28,17,69,18,60,56,55,28,7,7,0.8,0.6
2022-06-28T21:00:00,1884A,104.6055,28.793,宜宾市,宜宾四中,颗粒物(PM10),62,73,40,31,17,72,20,64,59,64,26,10,9,0.8,0.5
2022-06-28T21:00:00,1885A,104.639,28.7562,宜宾市,市政府,颗粒物(PM10),59,68,47,29,20,69,17,56,52,58,41,6,8,0.8,0.6
2022-06-28T21:00:00,1886A,104.5742,28.7199,宜宾市,黄金嘴,颗粒物(PM10),52,53,31,26,14,76,10,65,56,54,16,6,8,0.6,0.4
2022-06-28T21:00:00,1888A,101.6891,26.571,攀枝花市,弄弄坪,,22,18,19,8,9,80,68,74,74,12,14,4,4,1.0,1.1
2022-06-28T21:00:00,1889A,101.5769,26.5928,攀枝花市,河门口,,20,20,15,9,7,71,48,64,61,17,12,3,3,0.7,0.8
2022-06-28T21:00:00,1890A,101.7169,26.585,攀枝花市,炳草岗,,24,24,20,12,11,86,54,72,71,22,21,5,5,1.3,1
2022-06-28T21:00:00,1891A,101.7369,26.5008,攀枝花市,仁和,,,35,28,,20,81,29,63,60,48,25,39,27,2.0,1.8
2022-06-28T21:00:00,1893A,105.4324,28.9634,泸州市,九狮山(对照点),,32,32,25,9,13,126,44,93,92,19,19,6,8,0.8,0.6
2022-06-28T21:00:00,1894A,105.4427,28.9063,泸州市,小市上码头,,50,50,37,15,9,137,89,107,107,27,21,41,24,0.7,0.7
2022-06-28T21:00:00,1895A,105.4241,28.8573,泸州市,兰田宪桥,颗粒物(PM10),52,53,41,12,7,109,60,89,89,25,21,3,9,0.5,0.5
2022-06-28T21:00:00,1896A,105.4379,28.8833,泸州市,市环监站,,48,48,38,15,6,114,79,99,99,28,26,76,15,0.5,0.5
2022-06-28T21:00:00,1901A,104.4239,31.1208,德阳市,东山公园,,50,50,45,16,16,277,107,222,206,31,21,10,8,0.5,0.5
2022-06-28T21:00:00,1902A,104.3826,31.1317,德阳市,西小区,颗粒物(PM10),54,57,53,18,14,279,98,207,193,23,25,10,10,0.6,0.6
2022-06-28T21:00:00,1904A,104.3553,31.1091,德阳市,耐火材料厂,颗粒物(PM10),57,63,63,15,16,271,98,203,190,28,28,7,9,0.6,0.5
2022-06-28T21:00:00,1905A,106.056,30.8064,南充市,西山风景区(对照点),,48,48,37,24,21,177,124,140,137,9,10,1,2,0.8,0.8
2022-06-28T21:00:00,1906A,106.0789,30.8023,南充市,南充市委,,48,48,42,16,18,153,103,131,122,5,9,2,3,0.6,0.5
2022-06-28T21:00:00,1907A,106.1031,30.8217,南充市,南充炼油厂,,45,45,44,19,20,200,139,174,166,14,10,12,8,0.6,0.5
2022-06-28T21:00:00,1908A,106.1064,30.7856,南充市,高坪区监测站,,37,34,33,18,20,169,117,149,140,14,13,13,3,0.6,0.5
2022-06-28T21:00:00,1909A,106.0642,30.7636,南充市,嘉陵区环保局,,46,46,36,31,24,139,107,114,110,12,9,5,5,0.3,0.4
2022-06-28T21:00:00,1910A,106.1087,30.8388,南充市,市环境监测站,,42,42,39,28,23,152,113,138,132,18,13,4,3,0.5,0.4
2022-06-28T21:00:00,1911A,106.9222,27.6869,遵义市,丁字口,,37,37,23,22,13,139,49,128,114,50,17,4,5,0.9,0.6
2022-06-28T21:00:00,1912A,106.9242,27.7019,遵义市,凤凰山,,31,31,18,11,12,133,80,126,120,24,8,4,6,0.7,0.6
2022-06-28T21:00:00,1913A,106.8906,27.6486,遵义市,忠庄,,44,44,22,12,8,139,59,118,107,31,15,3,3,0.6,0.5
2022-06-28T21:00:00,1914A,106.9231,27.6506,遵义市,舟水桥,,40,40,28,15,8,121,37,111,94,22,16,1,2,0.5,0.4
2022-06-28T21:00:00,1915A,106.9178,27.72,遵义市,干田坝,,30,26,22,21,9,145,55,123,108,32,12,5,5,0.6,0.5
2022-06-28T21:00:00,1916A,103.7897,25.5035,曲靖市,环境监测站,,46,46,29,18,18,142,82,116,108,24,22,11,8,0.6,0.6
2022-06-28T21:00:00,1917A,103.8,25.5364,曲靖市,烟厂办公区,,46,46,34,20,18,136,85,115,110,24,22,13,7,0.6,0.7
2022-06-28T21:00:00,1918A,108.7197,34.3956,咸阳市,气象站(对照点),颗粒物(PM10),60,69,82,13,18,146,80,137,128,58,28,6,6,0.8,0.9
2022-06-28T21:00:00,1919A,108.673,34.3155,咸阳市,实验中学,,39,39,64,19,21,164,117,152,149,20,22,3,4,0.2,0.3
2022-06-28T21:00:00,1920A,108.7233,34.3617,咸阳市,师范学院,颗粒物(PM10),52,54,73,19,21,157,106,148,142,16,16,5,5,0.6,0.7
2022-06-28T21:00:00,1922A,109.0656,35.0994,铜川市,党校(对照点),颗粒物(PM10),56,61,45,10,13,116,17,100,80,54,28,11,11,0.8,0.7
2022-06-28T21:00:00,1923A,109.0697,35.0697,铜川市,王益区政府,,44,44,39,12,8,130,43,112,94,28,21,5,4,0.5,0.4
2022-06-28T21:00:00,1924A,108.9344,34.9058,铜川市,新区管委会,,48,48,40,15,10,127,113,113,113,26,15,4,4,0.4,0.2
2022-06-28T21:00:00,1926A,109.4131,36.6275,延安市,枣园(对照点),,43,43,52,9,13,120,60,112,102,26,17,4,4,0.5,0.5
2022-06-28T21:00:00,1927A,109.4761,36.6028,延安市,延大医附院,,45,45,59,15,12,115,42,108,95,43,21,4,4,0.4,0.2
2022-06-28T21:00:00,1929A,109.5056,36.6106,延安市,百米大道,,45,45,68,9,16,110,58,105,96,29,27,5,5,0.3,0.4
2022-06-28T21:00:00,1930A,107.185,34.3063,宝鸡市,庙沟村(对照点),颗粒物(PM10),52,53,42,16,11,119,100,113,108,10,12,5,5,0.4,0.4
2022-06-28T21:00:00,1931A,107.0708,34.3017,宝鸡市,竹园沟,,46,46,42,18,14,119,62,113,98,26,11,5,6,0.4,0.4
2022-06-28T21:00:00,1932A,107.1906,34.3672,宝鸡市,三陆医院,颗粒物(PM10),59,68,51,40,20,126,62,119,108,34,17,5,6,0.5,0.3
2022-06-28T21:00:00,1933A,107.1431,34.3547,宝鸡市,监测站,颗粒物(PM10),61,71,45,23,17,123,60,115,104,36,17,5,5,0.4,0.3
2022-06-28T21:00:00,1934A,107.1186,34.3739,宝鸡市,技工学校,颗粒物(PM10),76,102,63,26,18,125,65,115,107,25,15,4,4,0.5,0.4
2022-06-28T21:00:00,1935A,107.3906,34.3528,宝鸡市,陈仓区环保局家属楼,颗粒物(PM10),60,69,53,29,19,129,70,122,112,32,19,5,6,0.5,0.4
2022-06-28T21:00:00,1936A,107.2058,34.3497,宝鸡市,文理学院,颗粒物(PM10),60,69,50,14,14,130,82,124,114,27,17,7,8,0.2,0.1
2022-06-28T21:00:00,1937A,107.2386,34.3622,宝鸡市,三迪小学,颗粒物(PM10),62,73,52,17,14,130,50,122,108,43,21,6,7,0.4,0.2
2022-06-28T21:00:00,1938A,109.5293,34.5101,渭南市,农科所(对照点),颗粒物(PM10),60,70,56,17,22,189,125,161,157,39,25,10,11,0.5,0.4
2022-06-28T21:00:00,1939A,109.4974,34.4877,渭南市,日报社,颗粒物(PM10),62,73,66,17,16,185,126,150,149,44,36,7,8,0.5,0.4
2022-06-28T21:00:00,1940A,109.4636,34.493,渭南市,体育馆,颗粒物(PM10),59,68,63,10,13,203,122,170,165,58,39,11,11,0.5,0.5
2022-06-28T21:00:00,1941A,109.4259,34.5023,渭南市,高新一小,,,,67,,14,189,,164,164,27,31,9,5,0.5,0.4
2022-06-28T21:00:00,1943A,102.1725,38.5339,金昌市,新川苑,,32,27,42,5,7,119,102,114,112,14,11,4,7,0.6,0.5
2022-06-28T21:00:00,1944A,102.1692,38.5167,金昌市,天庆家园,,32,19,33,5,8,123,100,117,116,13,10,5,9,0.7,0.7
2022-06-28T21:00:00,1945A,98.2908,39.7711,嘉峪关市,气象局,,41,31,15,9,6,155,130,146,145,19,14,5,3,0.5,0.3
2022-06-28T21:00:00,1947A,106.3394,38.817,石嘴山市,沙湖旅游区(对照点),,44,44,32,6,10,115,100,106,104,11,13,19,21,0.2,0.3
2022-06-28T21:00:00,1948A,106.3668,39.0145,石嘴山市,大武口朝阳西街,颗粒物(PM10),51,52,19,11,6,108,108,102,102,8,9,1,1,0.4,0.4
2022-06-28T21:00:00,1949A,106.7704,39.2282,石嘴山市,惠农南大街,颗粒物(PM10),58,65,29,15,10,117,112,113,113,22,17,14,14,0.4,0.5
2022-06-28T21:00:00,1950A,106.7099,39.1325,石嘴山市,红果子镇惠新街,颗粒物(PM10),53,56,31,11,9,112,107,108,108,18,14,28,24,0.4,0.4
2022-06-28T21:00:00,1951A,84.895,45.6094,克拉玛依市,长征新村,,29,17,34,4,6,133,92,125,96,10,7,6,6,0.2,0.2
2022-06-28T21:00:00,1952A,84.8988,45.5893,克拉玛依市,南林小区,细颗粒物(PM2.5),63,27,35,45,13,137,82,130,95,24,14,8,8,0.5,0.4
2022-06-28T21:00:00,1954A,84.905,44.3396,克拉玛依市,独山子区,颗粒物(PM10),64,78,33,33,12,117,83,112,103,12,11,8,9,0.3,0.3
2022-06-28T21:00:00,1955A,85.6979,46.098,克拉玛依市,乌尔禾区商贸楼,颗粒物(PM10),59,67,45,15,11,112,103,112,103,4,6,10,10,0.2,0.2
2022-06-28T21:00:00,1956A,86.1472,41.7538,巴音郭楞州,孔雀公园,,38,38,70,7,22,148,120,133,132,14,29,4,4,0.2,0.4
2022-06-28T21:00:00,1957A,86.1972,41.7166,巴音郭楞州,棉纺厂,,42,42,62,16,21,156,118,142,140,16,23,3,3,0.3,0.4
2022-06-28T21:00:00,1958A,86.2357,41.7173,巴音郭楞州,经济开发区,,,0,90,2,23,155,129,142,141,,14,2,3,0.2,0.2
2022-06-28T21:00:00,1961A,117.532,36.6868,济南市,东山小学,,27,22,30,7,19,171,84,142,119,21,12,8,8,0.3,0.3
2022-06-28T21:00:00,1966A,120.0405,35.8735,青岛市,黄岛区4号,,33,12,8,0,5,104,104,84,81,13,14,7,6,0.7,0.7
2022-06-28T21:00:00,1982A,122.0693,37.2174,威海市,文登开发区,,,,8,,8,107,83,107,84,,11,1,1,0.3,0.7
2022-06-28T21:00:00,2031A,113.1817,27.9958,株洲市,云田中学,,46,27,19,32,15,94,60,85,84,11,11,3,3,0.6,0.5
2022-06-28T21:00:00,2054A,114.1099,32.1059,信阳市,平桥分局,,35,24,13,6,8,115,112,111,111,5,5,8,7,0.5,0.5
2022-06-28T21:00:00,2064A,113.9956,32.1271,信阳市,南湾水厂,,38,35,16,14,8,124,120,114,114,5,4,7,5,0.5,0.5
2022-06-28T21:00:00,2065A,114.0775,32.1195,信阳市,市酿酒公司,,36,35,15,14,8,122,114,117,117,4,4,7,6,0.4,0.4
2022-06-28T21:00:00,2066A,114.0609,32.1399,信阳市,审计局,,,35,15,21,8,120,,113,113,5,5,6,5,0.5,0.6
2022-06-28T21:00:00,2067A,114.6613,33.6128,周口市,市环境监测站,,43,40,39,19,13,192,135,176,173,20,12,3,3,0.4,0.4
2022-06-28T21:00:00,2068A,114.6758,33.6347,周口市,周口师范,颗粒物(PM10),56,61,37,31,13,192,132,174,171,17,10,3,3,0.5,0.5
2022-06-28T21:00:00,2069A,114.6546,33.5979,周口市,市运管处,,44,44,33,24,13,184,126,169,165,16,9,1,2,0.7,0.8
2022-06-28T21:00:00,2070A,114.6369,33.6406,周口市,川汇区环保局,颗粒物(PM10),57,64,35,26,15,193,123,175,170,21,11,3,3,0.6,0.5
2022-06-28T21:00:00,2075A,117.6336,24.4674,漳州市,九湖(对照点),,,,,,,183,29,74,46,2,5,6,17,0.4,0.5
2022-06-28T21:00:00,2160A,112.85,35.5051,晋城市,自来水公司,,32,30,54,5,19,192,102,131,125,24,18,4,5,0.2,0.7
2022-06-28T21:00:00,2161A,112.8318,35.4936,晋城市,白云商贸,,32,14,51,2,17,167,101,122,118,14,12,3,2,0.3,0.5
2022-06-28T21:00:00,2162A,112.8508,35.4887,晋城市,市环保局,,33,12,63,7,24,163,104,126,118,12,15,5,6,0.3,0.5
2022-06-28T21:00:00,2163A,112.8676,35.4897,晋城市,技术学院,,,20,44,2,19,169,105,138,118,11,16,3,2,,0.3
2022-06-28T21:00:00,2166A,112.4397,39.3522,朔州市,平朔,,24,9,17,9,14,122,75,102,95,22,17,9,8,0.6,0.6
2022-06-28T21:00:00,2167A,112.4575,39.3617,朔州市,朔唯,,25,9,23,12,16,127,79,99,92,23,24,5,6,0.7,0.7
2022-06-28T21:00:00,2168A,112.4258,39.3197,朔州市,区政府,,24,21,23,14,10,123,76,109,100,25,16,3,7,0.6,0.6
2022-06-28T21:00:00,2169A,112.4072,39.3278,朔州市,市环保局,,25,19,24,5,9,118,80,108,99,26,18,6,7,0.6,0.6
2022-06-28T21:00:00,2170A,112.4272,39.3681,朔州市,市二中,,24,11,24,11,16,115,76,100,92,22,16,10,9,0.5,0.6
2022-06-28T21:00:00,2171A,112.7532,37.6945,晋中市,锦纶小区,,29,25,41,12,20,124,92,112,105,19,24,7,9,0.4,0.4
2022-06-28T21:00:00,2173A,112.7249,37.7067,晋中市,南都小区,,38,38,40,15,18,116,82,106,98,22,23,5,7,0.4,0.4
2022-06-28T21:00:00,2174A,112.6991,37.6982,晋中市,榆次区政府,,27,27,39,8,22,113,82,104,99,18,22,4,8,0.4,0.5
2022-06-28T21:00:00,2175A,110.9956,35.0147,运城市,运城中学,,37,24,59,13,26,122,116,118,117,13,13,6,13,0.7,0.6
2022-06-28T21:00:00,2178A,110.9686,35.0303,运城市,地区技校,,35,23,56,9,17,124,111,122,120,14,11,4,5,0.4,0.4
2022-06-28T21:00:00,2179A,111.0414,35.1147,运城市,空港新区,,,,78,,23,125,,119,119,31,25,6,9,0.4,0.6
2022-06-28T21:00:00,2181A,112.7383,38.4519,忻州市,开发区,,31,26,25,6,16,128,99,117,112,14,19,8,13,0.5,0.5
2022-06-28T21:00:00,2182A,112.7003,38.4928,忻州市,会展中心,,28,24,27,10,15,125,89,108,100,15,17,11,13,0.4,0.4
2022-06-28T21:00:00,2183A,111.1406,37.5211,吕梁市,环保局,,31,31,28,7,5,108,80,102,98,23,12,4,4,0.3,0.2
2022-06-28T21:00:00,2185A,111.1297,37.5136,吕梁市,自来水公司,,38,38,27,4,4,105,70,97,93,27,13,1,2,0.3,0.2
2022-06-28T21:00:00,2187A,106.8174,39.6973,乌海市,市林业局,,40,28,28,15,10,128,125,118,118,6,8,5,5,0.5,0.5
2022-06-28T21:00:00,2188A,106.7907,39.6667,乌海市,中海勃湾学校,,42,27,19,14,9,132,132,122,122,7,9,7,7,0.3,0.4
2022-06-28T21:00:00,2191A,122.2532,43.6801,通辽市,艺术职业学校,,43,43,28,11,10,120,101,120,100,11,10,5,5,0.5,0.5
2022-06-28T21:00:00,2192A,119.7594,49.2261,呼伦贝尔市,区环保局,,29,29,50,19,19,111,50,100,90,38,23,5,6,0.8,0.5
2022-06-28T21:00:00,2195A,107.4212,40.761,巴彦淖尔市,附二中,,32,18,18,15,12,124,101,111,111,11,8,4,6,0.6,0.6
2022-06-28T21:00:00,2196A,107.37,40.7372,巴彦淖尔市,市环保大楼,,37,32,29,14,12,129,118,116,116,10,9,4,5,0.5,0.5
2022-06-28T21:00:00,2197A,113.1306,40.9923,乌兰察布市,集宁新区,,37,19,16,15,12,135,116,124,124,13,10,9,8,0.4,0.4
2022-06-28T21:00:00,2200A,122.0392,46.0656,兴安盟,胜华新制药厂,,38,38,21,18,11,119,76,113,106,23,7,2,2,0.2,0.2
2022-06-28T21:00:00,2201A,121.9504,46.0741,兴安盟,科右前旗环保局,,25,25,15,15,14,116,74,110,104,21,8,3,3,0.4,0.2
2022-06-28T21:00:00,2202A,116.1042,43.9317,锡林郭勒盟,市环保监测站,,18,4,7,2,6,101,55,96,88,32,6,12,12,0.8,0.7
2022-06-28T21:00:00,2203A,116.0781,43.9311,锡林郭勒盟,市政府,,23,17,12,2,5,107,73,102,94,23,9,9,9,0.8,0.6
2022-06-28T21:00:00,2204A,105.6467,38.8363,阿拉善盟,西城区西花园(对照点),,38,27,17,14,11,123,120,119,119,6,6,7,5,0.2,0.3
2022-06-28T21:00:00,2205A,105.6985,38.8411,阿拉善盟,蒙二幼,,37,36,14,14,12,118,116,114,114,5,5,8,8,0.1,0.2
2022-06-28T21:00:00,2206A,105.724,38.8516,阿拉善盟,环保局新楼,,38,29,17,24,15,122,119,114,114,5,6,8,7,0.3,0.2
2022-06-28T21:00:00,2207A,121.6094,41.998,阜新市,工业园区,,29,20,10,8,3,131,91,121,110,10,7,5,5,0.4,0.5
2022-06-28T21:00:00,2208A,121.6697,42.0279,阜新市,长青街,,27,27,7,15,4,111,76,103,96,9,5,6,6,0.3,0.4
2022-06-28T21:00:00,2209A,121.6673,42.0705,阜新市,农业园区,,33,10,8,9,4,125,103,117,112,7,5,6,6,0.5,0.4
2022-06-28T21:00:00,2210A,121.6717,42.0224,阜新市,东苑,,32,16,11,11,6,124,100,116,110,9,5,4,4,0.4,0.4
2022-06-28T21:00:00,2211A,121.6506,42.0498,阜新市,玉龙新城,,23,16,10,2,4,122,72,114,99,13,5,5,5,0.5,0.4
2022-06-28T21:00:00,2212A,123.2,41.1953,辽阳市,宏伟区,,21,13,28,3,14,86,65,72,66,9,13,6,6,0.4,0.9
2022-06-28T21:00:00,2213A,123.1683,41.2495,辽阳市,新华园,,24,19,38,8,19,92,74,79,79,13,17,5,5,0.4,1
2022-06-28T21:00:00,2214A,123.2354,41.2639,辽阳市,滨河路,,21,20,33,8,16,89,66,78,75,8,12,6,6,0.6,0.9
2022-06-28T21:00:00,2215A,123.149,41.2991,辽阳市,铁西工业园,,25,22,37,17,25,86,50,80,77,20,14,3,4,0.5,1.1
2022-06-28T21:00:00,2216A,123.8139,42.3022,铁岭市,汇工街西,,25,25,18,8,5,94,68,87,84,8,7,5,6,0.4,0.3
2022-06-28T21:00:00,2217A,123.8649,42.2923,铁岭市,水上乐园,,32,32,15,8,4,73,44,64,57,22,14,6,5,0.4,0.3
2022-06-28T21:00:00,2218A,123.8486,42.2867,铁岭市,银州路东段,,19,19,16,10,5,82,51,78,67,22,18,5,6,0.3,0.3
2022-06-28T21:00:00,2219A,123.7153,42.2217,铁岭市,金沙江路北,,24,24,10,9,6,90,67,83,79,14,12,4,4,0.4,0.4
2022-06-28T21:00:00,2220A,120.4318,41.5881,朝阳市,西梁,,47,47,21,13,8,127,73,122,89,16,9,10,6,0.6,0.5
2022-06-28T21:00:00,2221A,120.4521,41.5646,朝阳市,河畔小区,,,29,18,15,8,118,73,114,87,16,9,7,8,,0.4
2022-06-28T21:00:00,2222A,120.4176,41.5648,朝阳市,八里堡,颗粒物(PM10),51,51,20,13,9,123,66,121,86,21,12,6,5,0.8,0.6
2022-06-28T21:00:00,2223A,120.3806,41.5969,朝阳市,农业园区,,23,23,15,12,7,115,65,113,78,16,6,5,5,0.4,0.4
2022-06-28T21:00:00,2225A,124.4002,43.1713,四平市,一商场,,23,23,10,7,5,85,43,76,72,35,14,3,2,0.4,0.4
2022-06-28T21:00:00,2226A,124.388,43.193,四平市,境园,,14,14,7,5,2,66,24,56,49,21,8,5,4,0.6,0.5
2022-06-28T21:00:00,2227A,125.1358,42.8845,辽源市,环保局,,22,18,15,15,7,78,52,70,62,15,9,4,5,0.5,0.5
2022-06-28T21:00:00,2229A,125.9358,41.7173,通化市,光明,,21,13,9,8,4,96,66,86,85,10,6,9,8,0.7,0.6
2022-06-28T21:00:00,2230A,125.9446,41.7325,通化市,铁路,,20,15,9,12,3,93,63,82,81,12,9,7,7,0.7,0.6
2022-06-28T21:00:00,2231A,126.4219,41.9171,白山市,喜丰,,22,22,18,10,6,81,64,71,71,15,16,10,10,1.0,1
2022-06-28T21:00:00,2232A,126.4077,41.9419,白山市,环保局,,18,18,18,8,6,88,57,80,78,15,13,7,8,0.7,0.7
2022-06-28T21:00:00,2233A,124.8006,45.1214,松原市,江南,,28,28,10,13,8,119,87,111,103,15,13,3,2,0.4,0.4
2022-06-28T21:00:00,2234A,124.7965,45.1722,松原市,江北,,21,15,14,2,8,110,65,108,96,20,11,1,2,0.4,0.3
2022-06-28T21:00:00,2235A,122.7911,45.6077,白城市,洮北区环保局,,29,20,20,0,3,122,92,117,113,15,10,5,5,0.2,0.1
2022-06-28T21:00:00,2236A,122.8738,45.5725,白城市,市环保局,,40,28,24,28,11,128,115,122,122,10,10,5,5,0.3,0.3
2022-06-28T21:00:00,2237A,129.47,42.8883,延边朝鲜族自治州,妇幼医院,,31,31,12,3,6,97,30,72,41,17,7,9,7,0.5,0.4
2022-06-28T21:00:00,2238A,129.5055,42.9108,延边朝鲜族自治州,延边医院,颗粒物(PM10),66,82,28,24,11,99,19,74,42,19,8,6,6,0.6,0.5
2022-06-28T21:00:00,2239A,129.3964,42.8881,延边朝鲜族自治州,朝阳川镇医院,,30,30,21,7,5,92,27,73,49,18,6,5,5,0.5,0.5
2022-06-28T21:00:00,2240A,130.9762,45.3001,鸡西市,环保局,,25,8,13,4,7,80,80,67,67,20,22,1,1,0.2,0.3
2022-06-28T21:00:00,2243A,130.9429,45.3039,鸡西市,第一中学,,28,9,12,3,6,87,87,72,72,11,18,2,5,0.3,0.4
2022-06-28T21:00:00,2244A,130.2537,47.3416,鹤岗市,哈啤分公司,,19,14,11,8,7,83,59,80,78,14,10,7,7,0.4,0.4
2022-06-28T21:00:00,2245A,130.2684,47.3086,鹤岗市,斯达机电,,24,18,16,9,7,86,76,78,78,7,8,8,8,0.3,0.3
2022-06-28T21:00:00,2246A,130.3114,47.3388,鹤岗市,东山纸板厂,,37,37,23,12,7,80,37,74,68,22,13,9,9,0.3,0.3
2022-06-28T21:00:00,2247A,130.1097,47.3382,鹤岗市,五号水库(对照点),,13,10,8,9,8,79,31,72,64,13,10,10,10,0.3,0.3
2022-06-28T21:00:00,2248A,131.1511,46.6937,双鸭山市,双合村,,20,20,16,7,8,65,24,54,47,20,15,3,7,0.2,0.2
2022-06-28T21:00:00,2249A,131.1652,46.6191,双鸭山市,南小市,,36,36,22,18,10,76,28,54,52,20,10,2,3,0.2,0.2
2022-06-28T21:00:00,2250A,131.1524,46.6554,双鸭山市,环保局,,20,16,15,14,6,71,39,60,42,8,11,3,3,0.4,0.4
2022-06-28T21:00:00,2251A,131.12,46.5656,双鸭山市,苗圃(对照点),,15,15,10,9,8,61,18,49,44,5,8,3,2,0.4,0.4
2022-06-28T21:00:00,2252A,128.5159,47.4311,伊春市,环保局,,20,20,12,10,10,99,45,90,76,9,5,5,7,0.2,0.3
2022-06-28T21:00:00,2253A,128.9102,47.7412,伊春市,电力嘉园,,21,21,12,9,11,91,31,83,66,19,10,7,8,0.5,0.6
2022-06-28T21:00:00,2255A,130.2751,46.8028,佳木斯市,佳纺,颗粒物(PM10),51,51,24,13,14,73,31,63,60,34,16,5,5,0.4,0.4
2022-06-28T21:00:00,2256A,130.3995,46.8307,佳木斯市,发电厂,,27,27,34,10,11,78,42,66,64,12,12,2,3,0.2,0.3
2022-06-28T21:00:00,2257A,130.3258,46.7975,佳木斯市,环保局,,21,21,29,8,14,85,30,75,53,34,19,3,2,0.5,0.4
2022-06-28T21:00:00,2258A,130.3648,46.8032,佳木斯市,十一中,,24,24,25,11,14,73,36,61,59,31,16,8,7,0.4,0.3
2022-06-28T21:00:00,2259A,130.3794,46.7588,佳木斯市,四丰(对照点),,19,12,19,8,13,84,24,58,56,37,20,5,7,0.5,0.5
2022-06-28T21:00:00,2262A,131.0518,45.8751,七台河市,新一中(对照点),,22,8,8,4,6,86,70,77,77,9,10,6,6,0.6,0.7
2022-06-28T21:00:00,2263A,127.4833,50.2524,黑河市,交通局,,25,24,17,13,8,136,77,128,115,10,9,5,8,0.6,0.7
2022-06-28T21:00:00,2264A,127.5144,50.2341,黑河市,环保局,,37,37,21,9,11,156,74,131,120,10,11,3,5,0.5,0.6
2022-06-28T21:00:00,2266A,126.9785,46.6365,绥化市,人和东街,,24,18,19,7,13,104,75,96,91,16,17,5,6,0.2,0.2
2022-06-28T21:00:00,2267A,126.964,46.6528,绥化市,党政办公中心,,25,16,22,9,14,105,78,95,91,14,16,8,5,0.2,0.2
2022-06-28T21:00:00,2269A,124.1069,50.4097,大兴安岭地区,科技局,,36,26,10,25,7,87,19,74,59,17,8,6,5,0.3,0.2
2022-06-28T21:00:00,2270A,117.396,32.939,蚌埠市,工人疗养院,,30,25,10,19,9,123,95,117,114,5,3,8,7,0.3,0.2
2022-06-28T21:00:00,2271A,117.3605,32.9427,蚌埠市,百货大楼,,31,24,11,6,7,126,97,116,113,8,6,10,7,0.4,0.3
2022-06-28T21:00:00,2273A,117.4185,32.8911,蚌埠市,蚌埠学院,,34,34,11,12,3,114,81,107,105,7,3,8,9,0.3,0.3
2022-06-28T21:00:00,2274A,117.3533,32.9673,蚌埠市,淮上区政府,,31,31,17,9,5,130,98,120,117,6,4,11,9,0.5,0.4
2022-06-28T21:00:00,2275A,117.3145,32.8977,蚌埠市,高新区,,29,29,13,12,6,115,88,106,105,14,7,14,7,0.5,0.4
2022-06-28T21:00:00,2277A,116.8305,32.7727,淮南市,潘集区政府,,29,29,13,15,9,108,76,99,96,8,5,5,5,0.2,0.1
2022-06-28T21:00:00,2278A,117.0067,32.6524,淮南市,师范学院,,45,45,16,15,5,104,84,97,96,8,4,5,5,0.4,0.3
2022-06-28T21:00:00,2279A,116.8569,32.5951,淮南市,谢家集区政府,,22,22,7,2,5,103,61,94,90,18,3,4,4,0.3,0.2
2022-06-28T21:00:00,2280A,116.8281,32.633,淮南市,八公山区政府,,35,35,17,11,5,101,68,92,90,15,4,3,3,0.3,0.2
2022-06-28T21:00:00,2281A,116.6325,32.6201,淮南市,焦岗湖风景区管理处(对照点),,28,26,13,19,7,99,71,94,92,6,5,5,5,0.3,0.2
2022-06-28T21:00:00,2282A,116.8004,33.975,淮北市,监测站,,,71,21,22,13,155,,147,147,26,7,4,7,0.7,0.5
2022-06-28T21:00:00,2283A,116.8091,33.9007,淮北市,烈山区政府,颗粒物(PM10),62,74,18,27,13,166,123,150,150,17,7,6,6,0.7,0.6
2022-06-28T21:00:00,2284A,116.7856,33.9477,淮北市,职业技术学院,,,,11,,10,134,98,119,104,,8,6,5,1.7,0.8
2022-06-28T21:00:00,2285A,117.8177,30.9412,铜陵市,市第四中学,,39,32,20,27,13,81,53,64,63,20,12,2,4,0.4,0.3
2022-06-28T21:00:00,2286A,117.8059,30.9273,铜陵市,市公路局,,37,37,25,23,10,78,54,64,62,17,11,5,6,0.6,0.4
2022-06-28T21:00:00,2287A,117.7807,30.9413,铜陵市,市新民污水厂,颗粒物(PM10),51,52,39,23,20,84,38,63,60,34,18,23,17,0.5,0.3
2022-06-28T21:00:00,2288A,117.7439,30.8792,铜陵市,市第九中学,,38,38,36,23,17,69,34,58,52,41,19,7,7,0.7,0.5
2022-06-28T21:00:00,2289A,117.846,30.9413,铜陵市,车站新区,,45,45,35,27,13,80,59,65,65,16,12,8,8,0.6,0.4
2022-06-28T21:00:00,2290A,117.8483,30.97,铜陵市,市职教基地,,22,18,22,15,8,85,54,67,66,19,12,9,7,0.8,0.6
2022-06-28T21:00:00,2291A,117.0809,30.5177,安庆市,环科院,,33,24,19,23,13,81,55,68,68,26,14,5,5,0.8,0.7
2022-06-28T21:00:00,2292A,117.0331,30.5119,安庆市,马山宾馆,,30,23,18,21,13,71,28,60,54,45,15,4,4,0.7,0.5
2022-06-28T21:00:00,2294A,116.9896,30.6145,安庆市,安庆大学,,29,27,19,20,11,74,67,68,68,17,15,4,5,0.5,0.4
2022-06-28T21:00:00,2295A,118.2903,29.6963,黄山市,延安路89号,,19,19,15,1,4,86,33,76,66,9,3,8,8,0.4,0.3
2022-06-28T21:00:00,2296A,118.327,29.7178,黄山市,黄山东路89号,,14,14,17,4,5,81,41,72,65,5,6,7,8,0.4,0.4
2022-06-28T21:00:00,2297A,118.1371,30.2756,黄山市,黄山区政府5号楼,,16,16,18,1,5,85,47,81,72,5,4,8,8,0.7,0.7
2022-06-28T21:00:00,2298A,118.3093,32.3153,滁州市,老年大学,,23,1,16,11,9,99,73,86,86,10,10,10,11,0.4,0.2
2022-06-28T21:00:00,2301A,115.8277,32.8929,阜阳市,市监测站,,25,16,8,5,3,121,80,115,107,8,5,5,5,0.5,0.4
2022-06-28T21:00:00,2303A,115.8554,32.8605,阜阳市,开发区,,40,40,15,17,8,119,72,110,104,15,8,6,6,0.4,0.3
2022-06-28T21:00:00,2307A,116.5079,31.737,六安市,监测大楼,,25,20,10,12,2,107,77,100,97,6,3,5,5,0.2,0.1
2022-06-28T21:00:00,2308A,116.4738,31.7643,六安市,皖西学院,,26,19,9,9,4,111,82,102,100,2,2,8,8,0.3,0.3
2022-06-28T21:00:00,2309A,116.4996,31.7905,六安市,朝阳厂,,24,20,9,12,7,105,74,97,94,2,2,7,7,0.5,0.4
2022-06-28T21:00:00,2310A,116.5567,31.7886,六安市,开发区,,24,14,8,8,6,106,75,98,95,4,3,6,6,0.4,0.4
2022-06-28T21:00:00,2311A,115.8072,33.8399,亳州市,污水处理厂,颗粒物(PM10),54,58,24,24,12,162,130,150,150,9,6,5,5,0.4,0.5
2022-06-28T21:00:00,2312A,115.7789,33.8518,亳州市,三国揽胜宫,颗粒物(PM10),51,51,29,18,8,164,136,154,154,8,4,6,5,0.5,0.5
2022-06-28T21:00:00,2314A,117.47,30.6618,池州市,池州学院,,33,33,21,21,11,86,58,73,72,13,6,6,5,0.8,0.4
2022-06-28T21:00:00,2316A,118.7581,30.9454,宣城市,鳌峰子站,,24,24,20,13,8,63,44,62,58,12,12,8,4,0.3,0.2
2022-06-28T21:00:00,2317A,118.7385,30.9743,宣城市,敬亭山子站,,18,18,20,11,8,62,41,58,54,17,13,5,6,0.3,0.3
2022-06-28T21:00:00,2318A,118.7173,30.9427,宣城市,开发区子站,,18,15,16,12,8,72,53,68,64,11,13,8,5,0.3,0.3
2022-06-28T21:00:00,2319A,119.0141,25.4325,莆田市,荔城区仓后路,,24,24,27,4,7,88,27,67,60,14,13,2,3,0.5,0.5
2022-06-28T21:00:00,2320A,119.0015,25.4553,莆田市,莆田市监测站,,25,25,22,11,10,93,34,73,68,12,9,5,5,0.6,0.6
2022-06-28T21:00:00,2321A,119.1119,25.4561,莆田市,涵江区六中,,36,36,25,7,9,92,16,69,58,23,15,6,5,0.4,0.2
2022-06-28T21:00:00,2322A,119.1013,25.3215,莆田市,秀屿区政府,,21,21,23,4,8,89,18,70,53,12,9,6,5,0.5,0.4
2022-06-28T21:00:00,2324A,117.6211,26.2625,三明市,三钢,,32,17,33,22,16,73,20,61,41,28,26,3,11,0.5,1.3
2022-06-28T21:00:00,2325A,117.635,26.2714,三明市,三明二中,,24,24,26,10,12,75,16,68,54,27,17,2,6,0.8,0.9
2022-06-28T21:00:00,2326A,117.6028,26.2378,三明市,三元区政府,,25,25,32,13,15,72,30,66,54,18,17,5,7,0.6,0.7
2022-06-28T21:00:00,2327A,117.7275,26.3108,三明市,洋溪(对照点),,22,22,29,12,12,90,43,80,67,7,10,2,5,0.4,0.6
2022-06-28T21:00:00,2332A,118.1681,26.6369,南平市,南平市监测站,细颗粒物(PM2.5),77,39,23,56,17,67,20,67,45,23,18,6,6,0.4,0.4
2022-06-28T21:00:00,2333A,118.1825,26.6489,南平市,南平铝业有限公司,,29,29,23,8,12,79,26,71,52,12,11,7,8,0.7,0.6
2022-06-28T21:00:00,2334A,118.1756,26.6272,南平市,南平七中,,29,29,21,15,14,79,25,73,56,18,9,5,5,0.6,0.5
2022-06-28T21:00:00,2335A,117.0189,25.1181,龙岩市,龙岩师专(对照点),,24,24,24,8,8,58,44,56,54,17,8,4,4,0.4,0.5
2022-06-28T21:00:00,2336A,117.0217,25.1033,龙岩市,龙岩市监测站,,17,17,17,7,8,64,45,58,57,16,12,5,6,0.4,0.4
2022-06-28T21:00:00,2337A,117.0258,25.0661,龙岩市,闽西职业技术学院,,27,27,18,6,8,62,39,58,56,18,9,7,8,0.3,0.5
2022-06-28T21:00:00,2338A,117.0196,25.0306,龙岩市,龙岩学院,,16,15,14,6,6,58,49,53,53,6,8,4,3,0.5,0.4
2022-06-28T21:00:00,2339A,119.5001,26.6946,宁德市,金涵水库(对照点),,29,29,31,16,16,123,41,110,99,14,13,7,8,0.4,0.4
2022-06-28T21:00:00,2341A,119.5388,26.6612,宁德市,宁德市监测站,,32,32,35,12,13,117,78,108,104,21,15,6,6,0.5,0.5
2022-06-28T21:00:00,2342A,117.3102,29.3867,景德镇市,王港中学(对照点),,22,14,22,12,11,112,69,103,96,5,4,4,5,0.3,0.3
2022-06-28T21:00:00,2343A,117.2117,29.2933,景德镇市,老干部活动中心,,46,46,33,28,14,84,44,74,62,18,8,9,6,0.8,0.6
2022-06-28T21:00:00,2344A,117.1894,29.2789,景德镇市,兽医站,,29,29,21,17,14,82,48,66,56,11,12,14,11,0.5,0.5
2022-06-28T21:00:00,2345A,117.1547,29.2617,景德镇市,台达陶瓷,,27,27,33,12,9,82,55,71,65,19,14,46,26,0.3,0.4
2022-06-28T21:00:00,2346A,117.2461,29.2956,景德镇市,陶研所,,35,35,21,17,9,90,47,79,66,7,5,4,4,0.4,0.3
2022-06-28T21:00:00,2347A,114.0997,27.5002,萍乡市,武功山(对照点),,12,8,5,4,3,70,38,61,56,7,4,10,12,0.2,0.1
2022-06-28T21:00:00,2348A,113.8385,27.6434,萍乡市,中医院,,42,36,19,29,13,72,16,63,58,33,14,8,8,0.9,0.7
2022-06-28T21:00:00,2349A,113.8493,27.6253,萍乡市,市政府车库,,40,40,20,28,16,71,23,63,59,27,13,7,7,0.7,0.5
2022-06-28T21:00:00,2350A,113.8676,27.6435,萍乡市,市环保局,,,,20,,13,73,,63,63,44,11,19,11,1.4,0.4
2022-06-28T21:00:00,2351A,113.866,27.6198,萍乡市,安源区政府,,40,26,22,28,17,66,20,61,52,16,9,12,14,0.4,0.3
2022-06-28T21:00:00,2352A,115.0861,27.9317,新余市,北岗(对照点),,18,16,18,12,12,87,39,82,63,7,7,4,5,1.0,1
2022-06-28T21:00:00,2353A,114.9886,27.8431,新余市,飞宇,,38,38,35,18,12,89,56,84,77,10,10,6,8,0.9,0.7
2022-06-28T21:00:00,2354A,114.9231,27.8246,新余市,第二水厂,颗粒物(PM10),54,57,41,16,17,93,52,88,78,18,16,8,14,0.8,1
2022-06-28T21:00:00,2355A,114.9308,27.8036,新余市,市气象局,,41,41,73,22,55,71,46,51,48,16,49,10,84,0.7,3.9
2022-06-28T21:00:00,2357A,116.9822,28.1136,鹰潭市,龙虎山(对照点),,36,36,19,5,3,72,47,69,63,5,4,1,2,0.6,0.5
2022-06-28T21:00:00,2358A,117.0564,28.2642,鹰潭市,新监测站,,37,37,28,7,4,70,19,63,52,32,9,3,2,0.3,0.3
2022-06-28T21:00:00,2359A,117.0311,28.2475,鹰潭市,财苑宾馆,,38,38,22,7,2,68,42,65,59,5,3,2,2,0.6,0.3
2022-06-28T21:00:00,2360A,117.0222,28.2264,鹰潭市,体育馆,,27,27,18,5,2,71,42,68,61,1,2,7,5,0.4,0.4
2022-06-28T21:00:00,2361A,117.0017,28.2131,鹰潭市,三川水表,,41,41,22,12,4,70,35,66,59,11,2,5,5,0.6,0.6
2022-06-28T21:00:00,2362A,114.9017,25.9149,赣州市,通天岩(对照点),,27,27,20,8,12,97,65,91,83,13,9,5,18,0.4,0.4
2022-06-28T21:00:00,2363A,114.9367,25.8664,赣州市,地委,,25,21,19,9,8,104,78,101,97,9,9,8,9,0.7,0.7
2022-06-28T21:00:00,2364A,114.9461,25.8481,赣州市,气象台,,26,26,19,13,9,98,71,96,91,7,8,7,7,0.7,0.6
2022-06-28T21:00:00,2365A,114.9322,25.8333,赣州市,市图书馆,,,11,17,35,10,87,56,82,78,,10,4,5,0.5,0.7
2022-06-28T21:00:00,2366A,114.8905,25.8471,赣州市,华坚鞋城,,,27,19,11,10,99,69,91,88,11,10,,3,0.5,0.6
2022-06-28T21:00:00,2367A,114.9754,27.0803,吉安市,红声器材厂,,49,49,32,25,14,102,73,96,88,9,8,17,7,0.4,0.4
2022-06-28T21:00:00,2368A,114.9658,27.0999,吉安市,市森林工业局,,40,40,27,22,15,107,77,101,91,8,7,11,6,0.4,0.4
2022-06-28T21:00:00,2369A,114.99,27.1312,吉安市,市环境监测站,,,,29,14,13,107,78,101,93,9,8,5,7,0.4,0.4
2022-06-28T21:00:00,2370A,115.0093,27.0968,吉安市,青原区法院,,35,35,26,21,13,102,67,96,87,8,5,14,10,0.5,0.4
2022-06-28T21:00:00,2371A,114.3408,27.8064,宜春市,槟榔水业(对照点),,42,42,38,21,15,80,51,74,67,24,15,9,9,0.6,0.5
2022-06-28T21:00:00,2373A,114.3956,27.7844,宜春市,市石油公司,,45,45,31,20,14,89,32,82,69,26,14,5,7,0.8,0.6
2022-06-28T21:00:00,2374A,114.3703,27.7914,宜春市,市气象局,颗粒物(PM10),51,52,33,22,15,94,50,83,74,26,12,5,6,0.9,0.7
2022-06-28T21:00:00,2375A,114.4013,27.8074,宜春市,市广电局,,46,46,30,25,16,89,65,84,78,18,10,3,4,0.9,0.7
2022-06-28T21:00:00,2376A,116.2127,28.0814,抚州市,桐源党溪(对照点),,20,20,18,12,8,90,51,82,65,7,5,2,2,0.5,0.4
2022-06-28T21:00:00,2377A,116.3544,27.9831,抚州市,市站,,29,29,30,17,15,86,51,76,64,7,6,3,3,0.3,0.3
2022-06-28T21:00:00,2378A,116.3565,27.963,抚州市,血防站,,21,21,20,13,11,87,46,80,68,10,7,3,2,0.7,0.5
2022-06-28T21:00:00,2379A,116.3564,28.0007,抚州市,采茶剧团,,25,25,20,8,8,85,52,75,63,5,4,3,4,0.5,0.5
2022-06-28T21:00:00,2380A,116.385,27.9647,抚州市,医学分院,,23,23,21,11,9,82,43,74,62,10,7,4,4,0.3,0.3
2022-06-28T21:00:00,2382A,117.9756,28.4436,上饶市,市监测站,,32,32,28,13,13,92,43,80,68,13,12,3,6,0.5,0.4
2022-06-28T21:00:00,2383A,117.9519,28.4628,上饶市,凤凰光学,,26,26,32,10,15,86,42,75,64,12,12,17,23,0.6,0.5
2022-06-28T21:00:00,2385A,114.17,35.9019,鹤壁市,市监测站,,38,38,75,22,40,202,119,183,168,10,18,6,5,1.0,0.9
2022-06-28T21:00:00,2386A,114.2956,35.7511,鹤壁市,市交警支队,,40,30,65,10,45,182,126,157,155,12,13,8,10,1.1,1.2
2022-06-28T21:00:00,2387A,114.2878,35.7306,鹤壁市,迎宾馆,,41,20,63,22,47,184,130,163,160,12,12,6,6,0.8,0.8
2022-06-28T21:00:00,2389A,113.836,35.311,新乡市,环保西院,,44,34,62,17,29,216,140,170,152,16,17,5,6,0.7,0.7
2022-06-28T21:00:00,2390A,113.884,35.272,新乡市,开发区,,44,41,60,12,27,224,140,172,145,12,13,5,5,0.9,1
2022-06-28T21:00:00,2391A,113.883,35.303,新乡市,环保东院,,46,46,62,19,37,216,139,178,158,15,17,5,6,0.7,0.7
2022-06-28T21:00:00,2392A,115.0312,35.7636,濮阳市,环保局,,41,34,42,5,40,164,130,139,139,8,10,4,3,0.5,0.6
2022-06-28T21:00:00,2394A,115.0574,35.7609,濮阳市,油田运输公司,,45,41,43,8,43,184,142,163,156,9,11,1,2,0.5,0.6
2022-06-28T21:00:00,2396A,113.8276,34.0159,许昌市,监测站,,35,30,48,20,19,181,110,146,128,25,15,4,7,0.5,0.6
2022-06-28T21:00:00,2398A,113.7906,33.9953,许昌市,开发区,,45,45,43,9,17,172,73,148,122,46,11,4,4,0.6,0.7
2022-06-28T21:00:00,2399A,114.051,33.5699,漯河市,三五一五工厂,,44,44,42,12,19,193,110,178,170,12,6,6,5,0.2,0.3
2022-06-28T21:00:00,2400A,114.0055,33.5698,漯河市,漯河大学,,49,49,46,23,22,197,113,180,172,16,9,4,4,0.4,0.4
2022-06-28T21:00:00,2401A,114.0138,33.5828,漯河市,市水利局,,41,41,42,12,14,198,114,182,174,13,7,7,7,0.2,0.4
2022-06-28T21:00:00,2402A,114.0261,33.5698,漯河市,市广电局,,39,39,40,13,14,196,114,181,172,13,7,7,7,0.5,0.7
2022-06-28T21:00:00,2403A,112.5192,32.9917,南阳市,环保局,,42,42,45,16,18,146,50,130,114,51,12,3,5,0.6,0.5
2022-06-28T21:00:00,2404A,112.5339,33.0086,南阳市,瓦房庄,颗粒物(PM10),53,56,44,23,20,145,32,131,116,87,15,5,4,0.8,0.4
2022-06-28T21:00:00,2405A,112.5003,32.9735,南阳市,汉画馆,,40,30,42,28,18,154,63,135,120,35,16,6,5,0.4,0.5
2022-06-28T21:00:00,2406A,112.5779,33.0144,南阳市,气象站,,50,50,44,17,20,139,75,126,116,34,15,8,7,0.5,0.4
2022-06-28T21:00:00,2407A,112.548,32.9692,南阳市,理工学院,颗粒物(PM10),59,68,42,28,31,146,78,134,126,42,13,4,3,0.4,0.4
2022-06-28T21:00:00,2408A,115.6702,34.4285,商丘市,环境监测站,颗粒物(PM10),77,104,39,44,18,170,83,146,129,36,8,2,4,0.5,0.6
2022-06-28T21:00:00,2409A,115.6458,34.4045,商丘市,粮食局,颗粒物(PM10),59,67,37,20,19,179,121,155,153,24,10,6,6,0.7,0.7
2022-06-28T21:00:00,2410A,115.6293,34.3948,商丘市,睢阳区环保局,颗粒物(PM10),66,81,42,22,21,168,103,146,143,31,11,4,3,0.7,0.6
2022-06-28T21:00:00,2420A,114.0189,32.9656,驻马店市,市一纸厂,,40,40,23,28,14,150,108,141,139,21,9,7,5,0.2,0.2
2022-06-28T21:00:00,2421A,114.0114,33.015,驻马店市,市彩印厂,,,58,27,,9,158,132,148,148,10,7,4,3,0.2,0.2
2022-06-28T21:00:00,2422A,113.9976,32.9771,驻马店市,天方二分厂,颗粒物(PM10),53,56,23,20,8,170,125,156,155,11,5,5,3,0.6,0.5
2022-06-28T21:00:00,2423A,115.0601,30.2313,黄石市,沈家营,,23,23,27,1,4,70,21,56,54,22,7,8,8,0.5,0.6
2022-06-28T21:00:00,2424A,115.0817,30.2006,黄石市,陈家湾,颗粒物(PM10),59,67,34,1,7,83,44,58,58,13,14,5,4,0.4,0.5
2022-06-28T21:00:00,2426A,114.8988,30.2019,黄石市,铁山,,25,25,25,15,7,83,26,71,67,13,13,5,5,0.3,0.3
2022-06-28T21:00:00,2427A,115.0307,30.2092,黄石市,团城山,,19,19,29,2,4,74,45,60,60,6,6,6,7,0.5,0.8
2022-06-28T21:00:00,2428A,111.0419,32.395,十堰市,武当山(对照点),,34,30,29,16,15,121,106,114,107,4,4,7,7,0.4,0.4
2022-06-28T21:00:00,2429A,110.78,32.6494,十堰市,滨河新村,颗粒物(PM10),58,65,47,17,16,119,28,116,99,75,19,8,7,0.9,0.4
2022-06-28T21:00:00,2430A,110.7258,32.6389,十堰市,刘家沟,,31,31,38,2,12,123,78,119,107,9,7,7,7,0.5,0.6
2022-06-28T21:00:00,2431A,110.8839,32.5714,十堰市,铁二处,,26,26,42,6,13,132,69,129,114,14,9,7,7,0.4,0.5
2022-06-28T21:00:00,2432A,112.155,32.0197,襄阳市,襄城运动路,,39,39,46,9,19,149,110,129,129,7,11,5,9,0.6,0.7
2022-06-28T21:00:00,2433A,112.1392,32.0564,襄阳市,樊城新华路,,,,52,,25,156,114,139,137,,14,,5,,0.9
2022-06-28T21:00:00,2434A,112.1825,32.1142,襄阳市,高新管委会,,,35,21,,40,146,114,135,133,10,12,7,7,0.7,0.8
2022-06-28T21:00:00,2435A,112.2106,32.0903,襄阳市,襄州航空路,,43,43,48,8,28,139,110,124,124,9,9,5,6,1.0,0.8
2022-06-28T21:00:00,2436A,114.8938,30.3994,鄂州市,市政府,,32,32,23,13,6,84,42,75,73,14,9,3,5,0.6,0.7
2022-06-28T21:00:00,2437A,114.8989,30.3714,鄂州市,赵家坝,,24,24,20,8,5,78,40,67,66,11,9,5,5,0.4,0.5
2022-06-28T21:00:00,2439A,112.2014,31.0481,荆门市,竹园小学,,42,42,25,17,10,135,109,118,118,12,7,7,6,0.7,0.7
2022-06-28T21:00:00,2440A,112.1969,30.9891,荆门市,掇刀,,38,38,28,16,12,137,102,119,119,15,9,8,11,0.5,0.5
2022-06-28T21:00:00,2441A,112.2213,31.0386,荆门市,石化一小,,,51,26,22,15,139,93,121,119,25,9,11,8,,0.6
2022-06-28T21:00:00,2443A,113.9153,30.9285,孝感市,文化路,,48,48,19,16,8,97,73,91,89,8,4,4,4,0.5,0.5
2022-06-28T21:00:00,2444A,113.942,30.9075,孝感市,东城区,,38,18,11,26,6,105,82,100,97,10,5,4,5,0.5,0.4
2022-06-28T21:00:00,2446A,114.9028,30.4742,黄冈市,职工中心,,25,25,20,8,4,94,39,79,76,18,5,6,6,0.5,0.5
2022-06-28T21:00:00,2447A,114.3175,29.8142,咸宁市,森林公园(对照点),,23,20,29,12,8,80,73,71,71,2,2,5,5,0.7,0.7
2022-06-28T21:00:00,2448A,114.3107,29.8454,咸宁市,市发改委,,23,15,29,14,7,86,71,76,76,5,5,5,5,0.6,0.5
2022-06-28T21:00:00,2449A,114.2936,29.8566,咸宁市,咸安区政府,,22,21,41,13,8,84,69,74,74,6,6,3,4,0.6,0.5
2022-06-28T21:00:00,2451A,113.3583,31.7275,随州市,市委党校,,35,35,17,8,4,106,104,101,101,4,4,6,6,0.8,0.8
2022-06-28T21:00:00,2452A,113.3833,31.6908,随州市,市林业局,,47,47,15,10,4,111,111,106,106,6,4,3,2,0.7,0.6
2022-06-28T21:00:00,2453A,113.3983,31.7308,随州市,市立交桥水厂,,40,40,27,16,7,113,112,105,105,5,7,7,7,0.6,0.6
2022-06-28T21:00:00,2454A,109.4978,30.2981,恩施土家族苗族自治州,湖北民院,颗粒物(PM10),52,54,39,25,15,138,80,124,120,10,5,7,7,0.7,0.7
2022-06-28T21:00:00,2455A,109.4707,30.2798,恩施土家族苗族自治州,州电力总公司,,34,34,21,12,8,125,68,107,102,16,8,10,8,0.7,0.7
2022-06-28T21:00:00,2456A,112.5003,26.9167,衡阳市,原169医院(对照点),,40,40,33,18,12,75,27,71,61,24,13,3,14,0.6,0.5
2022-06-28T21:00:00,2457A,112.6194,26.9258,衡阳市,衡阳化工总厂,颗粒物(PM10),54,58,29,35,17,82,34,70,56,20,10,25,12,0.9,0.6
2022-06-28T21:00:00,2458A,112.6211,26.8956,衡阳市,珠晖区环保局,,,40,23,,8,81,59,72,64,12,9,1,4,0.6,0.6
2022-06-28T21:00:00,2459A,112.6197,26.8733,衡阳市,市委党校,颗粒物(PM10),61,72,26,32,11,90,90,73,71,26,11,10,8,1.0,0.4
2022-06-28T21:00:00,2460A,112.6006,26.8919,衡阳市,市监测站,,46,46,28,20,15,84,58,72,64,15,10,9,14,0.5,0.5
2022-06-28T21:00:00,2461A,112.5664,26.9056,衡阳市,真空机电公司,,,44,33,,,79,57,72,66,14,13,6,53,0.5,0.8
2022-06-28T21:00:00,2462A,111.5239,27.3033,邵阳市,市水土所(对照点),,32,21,22,22,18,66,7,48,42,3,6,5,6,0.5,0.4
2022-06-28T21:00:00,2463A,111.4733,27.2317,邵阳市,市一中,,21,21,23,11,12,63,37,58,53,14,8,9,7,0.5,0.4
2022-06-28T21:00:00,2464A,111.5283,27.2442,邵阳市,市化工厂,,,121,33,18,15,70,31,60,57,19,11,5,5,,0.4
2022-06-28T21:00:00,2465A,111.4503,27.2537,邵阳市,市罐头厂,,17,17,26,7,16,58,43,47,46,5,11,7,9,0.3,0.3
2022-06-28T21:00:00,2466A,111.4328,27.2272,邵阳市,市环保局,,20,18,25,14,16,61,40,54,54,11,10,6,7,0.4,0.4
2022-06-28T21:00:00,2467A,112.4067,28.6428,益阳市,甘溪港(对照点),,37,37,26,4,6,97,70,89,88,17,14,11,7,0.4,0.5
2022-06-28T21:00:00,2468A,112.3458,28.5808,益阳市,市环保局,,31,31,33,21,10,104,73,96,95,9,8,4,4,0.6,0.6
2022-06-28T21:00:00,2469A,112.3437,28.5531,益阳市,市特殊教育学校,细颗粒物(PM2.5),52,37,23,36,12,101,71,92,91,10,8,3,3,0.5,0.5
2022-06-28T21:00:00,2470A,112.3347,28.6047,益阳市,资阳区政务中心,颗粒物(PM10),51,52,28,28,11,108,76,97,95,7,5,2,4,0.7,0.6
2022-06-28T21:00:00,2471A,112.3744,28.5819,益阳市,赫山环保分局,,36,36,24,19,7,96,71,90,88,9,7,4,5,0.6,0.7
2022-06-28T21:00:00,2472A,113.0073,25.9061,郴州市,马头岭(对照点),,25,25,22,9,6,86,32,81,66,23,6,12,6,0.7,0.6
2022-06-28T21:00:00,2473A,113.0116,25.8226,郴州市,市职中,,34,34,24,17,10,94,57,88,74,15,8,12,7,0.5,0.4
2022-06-28T21:00:00,2474A,113.0161,25.8001,郴州市,兴隆步行街,,23,23,20,7,8,88,67,84,76,11,8,10,8,0.4,0.4
2022-06-28T21:00:00,2475A,113.0383,25.8071,郴州市,市审计局,,28,28,20,16,11,88,56,84,74,20,8,22,6,0.6,0.5
2022-06-28T21:00:00,2476A,113.0348,25.7759,郴州市,市环保局,,27,27,24,11,10,86,59,82,75,20,9,36,8,0.5,0.4
2022-06-28T21:00:00,2477A,111.6217,26.2081,永州市,零陵南津渡(对照点),,32,30,30,22,12,73,50,69,63,7,3,9,6,0.5,0.5
2022-06-28T21:00:00,2478A,111.6156,26.4214,永州市,市环境监测站,,44,44,28,21,14,79,61,73,71,7,4,17,7,0.5,0.4
2022-06-28T21:00:00,2479A,111.6236,26.2331,永州市,零陵区环保局,,,45,24,,14,74,46,70,67,11,4,11,10,0.4,0.3
2022-06-28T21:00:00,2480A,111.5992,26.4364,永州市,永州市环保局,,36,35,26,25,17,80,64,76,74,4,3,7,5,0.4,0.4
2022-06-28T21:00:00,2481A,111.5989,26.4519,永州市,冷水滩区环保局,,37,37,31,17,14,74,60,68,67,6,6,6,6,0.4,0.3
2022-06-28T21:00:00,2482A,109.5981,27.5721,怀化市,林科所(对照点),,24,24,21,7,8,92,66,83,80,8,7,9,8,1.3,1.3
2022-06-28T21:00:00,2483A,109.9453,27.5444,怀化市,河西地税局,,21,21,16,10,11,85,55,79,77,12,7,2,2,0.6,0.5
2022-06-28T21:00:00,2484A,109.9781,27.5342,怀化市,市四医院,,37,37,23,17,18,92,46,83,77,17,9,4,5,0.5,0.5
2022-06-28T21:00:00,2485A,109.9972,27.5578,怀化市,监测楼,,33,33,25,19,14,92,51,82,79,16,10,5,5,0.5,0.5
2022-06-28T21:00:00,2486A,110.0394,27.583,怀化市,市委党校,,36,24,19,25,26,95,50,89,84,8,7,2,2,0.7,0.8
2022-06-28T21:00:00,2487A,111.9589,27.8901,娄底市,电视发射台(对照点),,23,23,16,12,13,76,27,59,55,2,2,6,7,1.1,1
2022-06-28T21:00:00,2488A,111.9975,27.725,娄底市,市监测站,,28,28,21,18,18,61,51,57,57,8,8,4,5,0.3,0.3
2022-06-28T21:00:00,2489A,112.0194,27.7314,娄底市,市委党校,,22,22,22,15,15,61,52,58,58,7,5,8,9,0.5,0.5
2022-06-28T21:00:00,2490A,111.9561,27.7569,娄底市,涟钢,,46,46,42,12,22,48,39,41,41,20,21,12,35,1.3,1.2
2022-06-28T21:00:00,2491A,111.9892,27.7044,娄底市,市政府,,32,16,16,22,14,81,75,64,64,4,3,3,3,0.5,0.5
2022-06-28T21:00:00,2492A,109.6414,28.2558,湘西州,跃进水库(对照点),,28,28,27,18,13,117,15,96,79,3,2,6,6,0.5,0.8
