timepoint,stationcode,longitude,latitude,area,positionname,primarypollutant,aqi,pm10,pm10_24h,pm2_5,pm2_5_24h,o3,o3_24h,o3_8h,o3_8h_24h,no2,no2_24h,so2,so2_24h,co,co_24h
2022-09-13T18:00:00,1001A,116.3621,39.8784,北京市,万寿西宫,臭氧1小时,62,48,95,31,72,188,169,164,164,11,32,3,3,1.0,1
2022-09-13T18:00:00,1002A,116.2202,40.2915,北京市,定陵(对照点),臭氧1小时,72,61,71,39,49,188,177,168,168,9,7,1,3,0.8,0.7
2022-09-13T18:00:00,1003A,116.4174,39.9289,北京市,东四,臭氧1小时,70,55,95,32,57,194,176,169,169,16,34,2,3,0.8,0.8
2022-09-13T18:00:00,1004A,116.4072,39.8863,北京市,天坛,,48,47,102,30,66,163,151,139,139,14,26,1,3,0.8,0.8
2022-09-13T18:00:00,1005A,116.462,39.9365,北京市,农展馆,颗粒物(PM10),52,53,89,32,59,166,152,146,146,14,33,3,3,0.8,0.8
2022-09-13T18:00:00,1006A,116.3392,39.9295,北京市,官园,颗粒物(PM10),55,60,99,30,64,176,148,138,138,8,25,1,2,0.7,0.9
2022-09-13T18:00:00,1007A,116.2878,39.9611,北京市,海淀万柳,颗粒物(PM10),51,51,104,33,71,183,160,158,158,14,34,3,3,0.8,0.8
2022-09-13T18:00:00,1008A,116.6636,40.135,北京市,顺义新城,颗粒物(PM10),62,73,89,39,52,173,162,159,159,12,18,4,4,0.8,0.7
2022-09-13T18:00:00,1009A,116.6275,40.3275,北京市,怀柔镇,细颗粒物(PM2.5),67,71,70,48,50,172,165,154,154,17,14,3,3,0.9,0.7
2022-09-13T18:00:00,1010A,116.2296,40.217,北京市,昌平镇,颗粒物(PM10),54,58,83,35,56,175,147,145,145,18,28,2,2,0.8,0.7
2022-09-13T18:00:00,1011A,116.3966,39.9821,北京市,奥体中心,颗粒物(PM10),53,55,108,30,63,183,147,143,143,17,34,1,1,0.7,0.8
2022-09-13T18:00:00,1012A,116.184,39.9136,北京市,古城,臭氧1小时,53,46,97,27,66,203,162,172,172,14,24,4,4,0.8,0.8
2022-09-13T18:00:00,1015A,117.1444,39.1661,天津市,勤俭道,,46,44,83,21,49,183,146,168,165,23,32,10,9,0.7,1.1
2022-09-13T18:00:00,1017A,117.237,39.1082,天津市,大直沽八号路,,45,41,71,25,51,184,142,163,163,15,24,12,8,0.8,0.8
2022-09-13T18:00:00,1018A,117.202,39.0927,天津市,前进道,,46,46,69,22,42,188,146,169,169,19,24,13,9,1.1,1
2022-09-13T18:00:00,1019A,117.1837,39.2133,天津市,淮河道,,46,44,93,22,54,194,145,172,172,26,35,8,9,0.8,1.1
2022-09-13T18:00:00,1021A,117.307,39.0877,天津市,跃进路,,47,47,79,21,46,166,136,152,152,24,44,13,9,0.7,0.8
2022-09-13T18:00:00,1023A,117.707,39.0343,天津市,第四大街,,36,36,60,18,35,153,109,135,135,28,43,4,6,0.7,0.9
2022-09-13T18:00:00,1024A,117.457,38.8394,天津市,永明路,,41,35,52,21,38,172,129,150,150,7,17,5,6,0.4,0.6
2022-09-13T18:00:00,1026A,117.764,39.1587,天津市,汉北路,,43,29,60,17,41,182,137,156,156,10,15,8,8,0.7,0.9
2022-09-13T18:00:00,1027A,117.157,38.9194,天津市,团泊洼(对照点),,46,27,64,18,36,191,147,170,170,10,32,8,10,1.0,1.1
2022-09-13T18:00:00,1029A,114.4422,38.0444,石家庄市,职工医院,细颗粒物(PM2.5),64,64,91,46,62,210,167,169,169,10,38,2,6,0.6,1
2022-09-13T18:00:00,1030A,114.6063,38.0266,石家庄市,高新区,臭氧1小时,73,77,128,38,58,200,178,174,174,12,30,5,7,0.8,0.8
2022-09-13T18:00:00,1031A,114.4898,38.1328,石家庄市,西北水源,细颗粒物(PM2.5),98,73,124,73,79,209,192,186,186,10,35,2,4,0.9,1.1
2022-09-13T18:00:00,1032A,114.4586,38.0058,石家庄市,西南高教,"颗粒物(PM10),细颗粒物(PM2.5)",60,69,106,43,60,187,155,165,165,16,39,3,4,0.9,1.3
2022-09-13T18:00:00,1033A,114.5331,38.0178,石家庄市,世纪公园,细颗粒物(PM2.5),73,92,105,53,63,196,163,171,171,16,28,7,9,0.6,0.8
2022-09-13T18:00:00,1034A,114.509,38.0457,石家庄市,人民会堂,细颗粒物(PM2.5),88,80,99,65,64,218,181,182,182,13,26,5,8,1.0,1.1
2022-09-13T18:00:00,1035A,114.3524,37.8911,石家庄市,封龙山(对照点),臭氧1小时,77,81,83,43,53,226,181,205,179,17,15,8,19,0.9,1.2
2022-09-13T18:00:00,1037A,118.131,39.6363,唐山市,雷达站,颗粒物(PM10),70,89,99,34,51,168,135,150,148,13,28,3,9,0.6,1.1
2022-09-13T18:00:00,1038A,118.1725,39.6334,唐山市,物资局,,,,119,,61,84,,76,,,44,,12,,1.3
2022-09-13T18:00:00,1040A,118.1705,39.6506,唐山市,十二中,颗粒物(PM10),70,89,89,35,45,167,121,143,143,22,37,3,9,0.6,1.1
2022-09-13T18:00:00,1041A,118.1869,39.622,唐山市,小山,颗粒物(PM10),65,80,92,28,43,172,130,148,148,18,43,2,9,0.6,1.2
2022-09-13T18:00:00,1042A,119.5134,39.8207,秦皇岛市,北戴河环保局,颗粒物(PM10),52,54,49,23,22,156,144,135,135,12,17,8,7,0.3,0.4
2022-09-13T18:00:00,1043A,119.7493,40.0116,秦皇岛市,第一关,"颗粒物(PM10),细颗粒物(PM2.5)",52,54,48,36,33,137,116,125,125,15,49,5,5,0.5,0.5
2022-09-13T18:00:00,1044A,119.5897,39.9499,秦皇岛市,监测站,颗粒物(PM10),56,62,57,38,32,137,111,118,118,31,33,6,4,0.3,0.3
2022-09-13T18:00:00,1046A,119.5251,39.9041,秦皇岛市,建设大厦,颗粒物(PM10),53,55,63,28,21,148,134,139,139,21,28,5,4,0.6,0.5
2022-09-13T18:00:00,1047A,114.5129,36.61763,邯郸市,环保局,,,,,,,,,,,,,,,,
2022-09-13T18:00:00,1048A,114.5302,36.6116,邯郸市,东污水处理厂,臭氧1小时,85,55,90,31,56,191,188,181,181,12,27,3,8,0.7,1
2022-09-13T18:00:00,1049A,114.4918,36.5713,邯郸市,矿院,臭氧1小时,70,69,83,28,56,183,176,172,172,13,25,6,10,0.7,0.9
2022-09-13T18:00:00,1050A,114.484,36.6133,邯郸市,丛台公园,臭氧1小时,72,62,91,31,54,185,177,176,176,14,29,5,8,0.5,0.8
2022-09-13T18:00:00,1051A,115.493,38.8632,保定市,游泳馆,臭氧1小时,89,71,93,43,57,221,191,197,197,23,46,3,7,0.7,0.7
2022-09-13T18:00:00,1052A,115.5213,38.8959,保定市,华电二区,颗粒物(PM10),77,103,129,43,59,196,165,176,176,25,46,7,5,0.9,0.9
2022-09-13T18:00:00,1053A,115.4713,38.9108,保定市,接待中心,臭氧1小时,89,65,112,31,50,216,191,195,195,20,41,7,8,0.8,0.8
2022-09-13T18:00:00,1054A,115.4612,38.8416,保定市,地表水厂,臭氧1小时,88,91,117,40,52,212,190,191,191,17,45,7,8,0.8,0.8
2022-09-13T18:00:00,1055A,115.4323,38.8697,保定市,胶片厂,臭氧1小时,92,58,95,44,65,213,193,194,194,16,42,8,9,0.6,0.7
2022-09-13T18:00:00,1056A,115.5086,38.8639,保定市,监测站,臭氧1小时,92,92,101,51,59,228,193,200,200,19,35,3,6,0.6,0.5
2022-09-13T18:00:00,1057A,114.8883,40.8336,张家口市,人民公园,颗粒物(PM10),55,60,51,27,19,187,159,173,173,10,10,7,6,0.6,0.5
2022-09-13T18:00:00,1059A,114.8687,40.8042,张家口市,五金库,颗粒物(PM10),52,54,48,29,27,174,141,162,162,20,21,8,8,0.6,0.5
2022-09-13T18:00:00,1060A,114.8902,40.762,张家口市,世纪豪园,颗粒物(PM10),55,60,58,29,28,186,150,170,170,14,18,3,3,0.4,0.4
2022-09-13T18:00:00,1061A,114.8916,40.8661,张家口市,北泵房(对照点),颗粒物(PM10),64,78,52,42,33,194,166,179,179,11,11,8,7,0.6,0.5
2022-09-13T18:00:00,1062A,117.9531,40.9081,承德市,铁路,颗粒物(PM10),51,51,57,26,34,135,101,111,111,14,24,6,6,0.4,0.5
2022-09-13T18:00:00,1063A,117.9392,40.9763,承德市,中国银行,,33,32,58,23,30,134,105,111,111,3,16,9,9,0.3,0.5
2022-09-13T18:00:00,1064A,117.9503,40.928,承德市,开发区,,34,34,50,21,30,146,101,116,116,12,19,4,5,0.4,0.6
2022-09-13T18:00:00,1065A,117.8051,40.9655,承德市,文化中心,,44,44,58,20,39,134,118,124,124,5,19,8,9,0.5,0.6
2022-09-13T18:00:00,1066A,117.9268,41.0026,承德市,离宫(对照点),,34,34,47,19,29,112,90,106,106,3,11,4,5,0.3,0.5
2022-09-13T18:00:00,1067A,116.6708,39.5111,廊坊市,药材公司,臭氧1小时,95,102,87,62,59,196,196,174,174,21,29,10,9,1.1,0.7
2022-09-13T18:00:00,1068A,116.7214,39.5589,廊坊市,开发区,细颗粒物(PM2.5),78,95,80,57,56,184,167,166,166,18,29,5,5,1.1,0.7
2022-09-13T18:00:00,1070A,116.7244,39.5269,廊坊市,北华航天学院,细颗粒物(PM2.5),104,109,102,78,75,190,189,170,170,18,38,9,7,1.1,0.7
2022-09-13T18:00:00,1071A,116.8842,38.2991,沧州市,沧县城建局,颗粒物(PM10),56,62,80,25,42,178,129,151,150,20,38,6,6,0.3,0.5
2022-09-13T18:00:00,1072A,116.8584,38.3254,沧州市,电视转播站,颗粒物(PM10),54,58,82,22,45,205,153,171,171,13,26,8,9,0.5,0.6
2022-09-13T18:00:00,1073A,116.8709,38.3228,沧州市,市环保局,颗粒物(PM10),52,54,79,17,40,185,147,163,163,4,26,6,9,0.4,0.5
2022-09-13T18:00:00,1074A,115.6838,37.7541,衡水市,电机北厂,臭氧1小时,74,66,81,32,52,190,179,179,179,11,40,6,15,0.6,0.7
2022-09-13T18:00:00,1075A,115.6303,37.7316,衡水市,市监测站,颗粒物(PM10),67,83,86,31,43,183,172,173,173,11,32,8,9,0.9,1
2022-09-13T18:00:00,1077A,114.4704,37.0886,邢台市,达活泉,臭氧1小时,73,78,98,38,53,199,178,184,184,11,21,3,5,0.6,0.9
2022-09-13T18:00:00,1078A,114.5062,37.0349,邢台市,邢师高专,臭氧1小时,78,83,104,41,53,196,182,182,182,12,36,4,6,0.6,0.8
2022-09-13T18:00:00,1079A,114.5237,37.0851,邢台市,路桥公司,臭氧1小时,72,77,92,37,52,198,177,180,180,15,24,6,6,0.6,0.8
2022-09-13T18:00:00,1080A,114.4725,37.0719,邢台市,市环保局,臭氧1小时,64,62,78,39,55,190,171,169,169,12,23,6,7,0.5,0.8
2022-09-13T18:00:00,1081A,112.5139,37.8873,太原市,尖草坪,"颗粒物(PM10),细颗粒物(PM2.5)",57,63,70,40,36,185,162,166,166,17,34,5,7,0.6,0.7
2022-09-13T18:00:00,1083A,112.434,38.0108,太原市,上兰(对照点),,,,,,,,,,,,,,,,
2022-09-13T18:00:00,1084A,112.469,37.7124,太原市,晋源,颗粒物(PM10),55,60,67,34,33,186,144,166,166,20,41,6,7,0.5,0.6
2022-09-13T18:00:00,1085A,112.5583,37.7394,太原市,小店,颗粒物(PM10),55,60,88,36,39,184,159,174,172,17,54,6,16,0.5,0.9
2022-09-13T18:00:00,1086A,112.5369,37.8692,太原市,桃园,细颗粒物(PM2.5),57,60,70,40,37,192,162,170,170,18,41,5,8,0.7,0.8
2022-09-13T18:00:00,1087A,112.57,37.8195,太原市,坞城,颗粒物(PM10),55,60,80,38,39,180,159,167,167,16,51,7,15,0.5,0.9
2022-09-13T18:00:00,1088A,112.549,37.9854,太原市,南寨,颗粒物(PM10),58,65,66,37,35,179,155,159,159,19,30,8,6,0.7,0.6
2022-09-13T18:00:00,1089A,112.4701,37.782,太原市,金胜,,,,,,,,,,,,,,,,
2022-09-13T18:00:00,1090A,111.6507,40.7517,呼和浩特市,呼市一监,,37,36,37,10,11,126,116,105,105,16,33,8,6,0.4,0.4
2022-09-13T18:00:00,1091A,111.6572,40.8033,呼和浩特市,小召,,43,29,33,10,12,161,137,141,141,14,38,4,5,0.3,0.4
2022-09-13T18:00:00,1094A,111.7516,40.8369,呼和浩特市,如意水处理厂,,40,35,40,10,10,156,128,134,134,10,41,8,8,0.4,0.5
2022-09-13T18:00:00,1095A,111.7276,40.8062,呼和浩特市,二十九中,,38,24,36,9,12,143,121,126,126,13,41,5,6,0.4,0.5
2022-09-13T18:00:00,1096A,111.5512,40.7866,呼和浩特市,工大金川校区,,40,37,52,15,13,154,127,128,128,15,43,6,4,0.5,0.5
2022-09-13T18:00:00,1097A,111.717,40.7612,呼和浩特市,化肥厂生活区,,39,39,38,13,13,152,118,130,130,16,33,7,9,0.4,0.4
2022-09-13T18:00:00,1098A,123.6836,41.9339,沈阳市,森林路(对照点),,,,,,,,,,,,,,,,
2022-09-13T18:00:00,1099A,123.505,41.7406,沈阳市,浑南东路,,37,37,58,18,29,156,92,133,133,18,38,12,16,0.6,1.1
2022-09-13T18:00:00,1100A,123.4231,41.6989,沈阳市,新秀街,,41,41,67,25,25,155,98,132,132,17,50,7,13,0.5,1.1
2022-09-13T18:00:00,1102A,123.5903,41.8411,沈阳市,东陵路,,43,43,52,25,24,139,73,121,116,13,19,10,11,0.5,0.7
2022-09-13T18:00:00,1103A,123.4264,41.8467,沈阳市,陵东街,,26,24,59,9,27,135,81,119,114,14,31,7,8,0.5,1
2022-09-13T18:00:00,1104A,123.4114,41.7653,沈阳市,文化路,,33,33,63,15,34,146,87,122,122,12,40,8,13,0.5,1
2022-09-13T18:00:00,1105A,123.4678,41.7867,沈阳市,小河沿,,40,40,55,15,26,144,85,118,118,15,35,6,8,0.4,0.8
2022-09-13T18:00:00,1106A,123.4017,41.7972,沈阳市,太原街,,33,33,54,18,31,135,76,115,113,21,46,4,8,0.4,0.9
2022-09-13T18:00:00,1108A,123.3783,41.9228,沈阳市,京沈街,,35,35,74,15,30,130,74,115,110,15,37,9,17,0.3,0.8
2022-09-13T18:00:00,1109A,121.612,38.9741,大连市,甘井子,,28,22,31,13,22,120,88,104,101,16,16,4,6,0.3,0.4
2022-09-13T18:00:00,1110A,121.565,38.9511,大连市,周水子,,30,21,30,12,20,125,96,113,111,10,13,4,7,0.3,0.4
2022-09-13T18:00:00,1111A,121.5637,38.8845,大连市,星海三站,,39,12,32,10,28,164,122,135,133,21,21,8,7,0.4,0.4
2022-09-13T18:00:00,1112A,121.6302,38.9117,大连市,青泥洼桥,,,12,28,9,20,123,88,113,110,,,4,4,0,0.1
2022-09-13T18:00:00,1113A,121.6251,38.8638,大连市,傅家庄,,34,22,27,14,18,140,107,118,117,20,18,10,12,0.8,0.9
2022-09-13T18:00:00,1114A,121.5213,38.8661,大连市,七贤岭,,41,23,27,15,16,161,129,148,147,9,8,8,8,0.6,0.6
2022-09-13T18:00:00,1115A,121.2529,38.8061,大连市,旅顺,,47,44,35,25,24,157,148,144,144,7,9,8,7,0.9,0.9
2022-09-13T18:00:00,1116A,121.7485,39.1311,大连市,金州,,32,21,35,14,18,131,102,102,101,14,11,5,5,0.4,0.4
2022-09-13T18:00:00,1117A,121.7811,39.0496,大连市,开发区,,30,30,33,16,23,136,88,99,98,33,19,10,10,0.7,0.7
2022-09-13T18:00:00,1118A,121.9762,39.0631,大连市,双D港,,23,20,20,12,12,72,72,72,72,6,6,7,7,0.2,0.2
2022-09-13T18:00:00,1119A,125.3325,43.9166,长春市,食品厂,,30,30,37,2,16,85,69,69,69,14,25,3,4,0.1,0.3
2022-09-13T18:00:00,1120A,125.2863,43.9027,长春市,客车厂,,30,30,37,8,14,97,64,68,68,22,23,7,6,0.4,0.6
2022-09-13T18:00:00,1121A,125.2841,43.8463,长春市,邮电学院,,28,28,35,6,15,81,68,81,71,9,25,4,4,0.3,0.5
2022-09-13T18:00:00,1122A,125.3716,43.8772,长春市,劳动公园,,47,47,41,7,14,113,53,90,67,30,22,5,6,0.4,0.5
2022-09-13T18:00:00,1123A,125.3297,43.8805,长春市,园林处,,22,20,33,5,16,108,70,91,72,16,18,5,5,0.3,0.4
2022-09-13T18:00:00,1124A,125.4605,43.79,长春市,净月潭,,22,15,33,5,14,84,70,75,74,8,16,6,5,0.2,0.3
2022-09-13T18:00:00,1125A,125.7194,43.515,长春市,甩湾子(对照点),,,,,,,,,,,,,,,,
2022-09-13T18:00:00,1126A,125.3863,43.8447,长春市,经开区环卫处,,24,24,39,4,15,98,66,72,72,19,23,5,6,0.3,0.5
2022-09-13T18:00:00,1127A,125.245,43.7783,长春市,高新区管委会,,38,38,46,14,22,82,51,66,66,36,35,6,6,0.2,0.4
2022-09-13T18:00:00,1128A,125.1761,43.8325,长春市,岱山公园,,48,48,39,6,13,91,43,63,63,42,29,6,7,0.3,0.4
2022-09-13T18:00:00,1129A,126.5422,45.755,哈尔滨市,岭北(对照点),,47,47,26,6,9,80,55,63,63,16,7,7,4,0.2,0.3
2022-09-13T18:00:00,1130A,126.561,45.8167,哈尔滨市,松北商大,,16,14,19,3,6,85,49,62,62,20,10,5,5,0.5,0.5
2022-09-13T18:00:00,1131A,126.979,45.5419,哈尔滨市,阿城会宁,,27,27,23,2,5,88,52,57,57,12,11,8,11,0.4,0.5
2022-09-13T18:00:00,1132A,126.599,45.7222,哈尔滨市,南岗学府路,,19,15,17,5,7,78,58,58,58,5,6,10,7,0.1,0.2
2022-09-13T18:00:00,1133A,126.689,45.7733,哈尔滨市,太平宏伟公园,,30,30,24,5,7,97,54,64,64,21,11,9,11,0.2,0.2
2022-09-13T18:00:00,1134A,126.635,45.7667,哈尔滨市,道外承德广场,,42,42,21,14,9,92,56,61,61,20,11,5,5,0.2,0.3
2022-09-13T18:00:00,1135A,126.685,45.7319,哈尔滨市,香坊红旗大街,,19,18,23,4,11,87,58,63,63,19,10,3,2,0.4,0.4
2022-09-13T18:00:00,1136A,126.6411,45.7258,哈尔滨市,动力和平路,,27,27,23,1,1,83,57,64,63,19,10,8,7,0.3,0.3
2022-09-13T18:00:00,1137A,126.593,45.7478,哈尔滨市,道里建国路,,21,15,19,4,9,80,65,66,66,15,15,10,12,0.4,0.4
2022-09-13T18:00:00,1138A,126.615,45.61,哈尔滨市,平房东轻厂,,37,37,27,3,8,64,39,55,54,37,25,5,4,0.5,0.4
2022-09-13T18:00:00,1139A,126.595,45.9855,哈尔滨市,呼兰师专,,,38,22,6,8,75,49,56,56,,15,11,8,,0.4
2022-09-13T18:00:00,1140A,126.6206,45.6842,哈尔滨市,省农科院,,19,19,24,3,5,74,58,64,64,17,8,9,8,0.6,0.4
2022-09-13T18:00:00,1141A,121.4,31.238,上海市,普陀,,24,24,15,14,6,70,65,62,62,19,19,2,2,0.5,0.4
2022-09-13T18:00:00,1142A,121.478,31.2036,上海市,十五厂,,23,19,13,13,10,74,71,65,65,13,16,4,4,0.5,0.4
2022-09-13T18:00:00,1143A,121.467,31.3008,上海市,虹口,,,14,12,,5,61,60,54,54,12,17,3,4,0.5,0.5
2022-09-13T18:00:00,1144A,121.412,31.1654,上海市,徐汇上师大,,22,21,14,13,8,73,70,65,65,14,15,4,4,0.8,0.7
2022-09-13T18:00:00,1145A,121.536,31.2659,上海市,杨浦四漂,,22,14,9,14,4,77,69,66,66,19,19,3,4,0.7,0.6
2022-09-13T18:00:00,1146A,120.978,31.0935,上海市,青浦淀山湖(对照点),,,,,,,,,,,,,,,,
2022-09-13T18:00:00,1147A,121.425,31.2261,上海市,静安监测站,,33,33,16,14,10,65,63,58,58,14,16,3,3,0.5,0.4
2022-09-13T18:00:00,1148A,121.703,31.1907,上海市,浦东川沙,,22,21,23,15,9,63,58,60,60,15,13,5,5,0.6,0.6
2022-09-13T18:00:00,1149A,121.533,31.2284,上海市,浦东新区监测站,,37,37,16,12,7,74,71,64,64,20,20,5,5,0.7,0.6
2022-09-13T18:00:00,1150A,121.577,31.2071,上海市,浦东张江,,22,17,10,15,10,66,61,58,58,17,19,4,4,0.7,0.6
2022-09-13T18:00:00,1151A,118.8086,32.1065,南京市,迈皋桥,,20,20,28,7,8,85,58,53,53,14,21,2,2,0.3,0.3
2022-09-13T18:00:00,1152A,118.7538,32.0551,南京市,草场门,,17,12,21,5,6,92,54,53,53,22,19,1,2,0.4,0.4
2022-09-13T18:00:00,1153A,118.7794,32.0745,南京市,山西路,,19,19,22,12,12,96,60,60,60,16,15,4,4,0.2,0.2
2022-09-13T18:00:00,1154A,118.7752,32.0023,南京市,中华门,,19,19,21,5,5,94,58,57,56,19,14,3,4,0.4,0.4
2022-09-13T18:00:00,1155A,118.8109,32.0309,南京市,瑞金路,,,20,23,,10,98,51,57,53,24,13,3,3,0.4,0.4
2022-09-13T18:00:00,1156A,118.7997,32.0754,南京市,玄武湖,,,16,25,4,8,98,61,57,57,11,15,,4,0.4,0.3
2022-09-13T18:00:00,1157A,118.6414,32.0931,南京市,浦口,,,,31,,12,100,,54,,,13,,6,,0.5
2022-09-13T18:00:00,1158A,118.7356,31.9996,南京市,奥体中心,,20,14,23,7,10,103,64,61,61,19,17,3,4,0.3,0.3
2022-09-13T18:00:00,1159A,118.9125,32.1028,南京市,仙林大学城,,20,17,23,12,11,93,61,53,53,6,13,2,3,0.4,0.4
2022-09-13T18:00:00,1160A,120.561,31.2472,苏州市,上方山(对照点),,29,29,24,12,14,65,52,51,51,12,9,7,6,0.6,0.5
2022-09-13T18:00:00,1161A,120.628,31.2864,苏州市,南门,,,,,,,,,,,,,,,,
2022-09-13T18:00:00,1162A,120.591,31.3019,苏州市,彩香,,22,22,14,14,9,66,64,59,59,15,11,5,4,0.9,0.7
2022-09-13T18:00:00,1163A,120.596,31.3264,苏州市,轧钢厂,,23,23,14,14,8,63,60,55,55,16,12,4,4,0.8,0.6
2022-09-13T18:00:00,1164A,120.613,31.2703,苏州市,吴中区,,21,21,13,14,9,63,63,59,59,20,16,5,6,0.6,0.6
2022-09-13T18:00:00,1165A,120.543,31.2994,苏州市,苏州新区,,22,22,15,15,9,70,65,56,56,14,13,5,4,0.7,0.7
2022-09-13T18:00:00,1166A,120.669,31.3097,苏州市,苏州工业园区,,22,20,13,15,9,60,57,55,55,17,13,5,4,0.7,0.6
2022-09-13T18:00:00,1167A,120.641,31.3708,苏州市,相城区,,22,17,12,10,5,70,70,62,62,13,12,4,3,0.6,0.6
2022-09-13T18:00:00,1168A,120.9098,31.9663,南通市,狼山街道,,,14,15,5,4,87,87,78,78,14,13,,5,0.4,0.3
2022-09-13T18:00:00,1169A,120.86,32.0005,南通市,虹桥,,26,16,13,14,12,84,82,75,75,4,5,3,3,0.5,0.5
2022-09-13T18:00:00,1170A,120.87,32.02,南通市,城中,,30,16,13,21,12,82,81,75,75,10,9,4,4,0.3,0.3
2022-09-13T18:00:00,1171A,120.94,31.93,南通市,星湖花园,,25,16,11,7,4,83,80,73,73,9,8,5,5,0.6,0.5
2022-09-13T18:00:00,1172A,120.81,32.0417,南通市,紫琅学院,,27,18,15,5,2,86,84,77,77,10,9,5,5,0.5,0.4
2022-09-13T18:00:00,1173A,119.176,34.5885,连云港市,市环境监测站,,28,22,25,12,8,103,88,92,92,11,11,5,4,0.2,0.2
2022-09-13T18:00:00,1177A,117.179,34.2761,徐州市,黄河新村,颗粒物(PM10),53,56,48,21,23,133,108,116,116,23,20,6,8,0.7,0.8
2022-09-13T18:00:00,1178A,117.1918,34.2384,徐州市,淮塔,,49,49,49,22,26,129,104,113,113,21,19,8,9,0.7,0.8
2022-09-13T18:00:00,1180A,117.256,34.2153,徐州市,新城区,颗粒物(PM10),53,56,54,19,24,125,102,107,107,25,21,7,9,0.5,0.5
2022-09-13T18:00:00,1181A,117.244,34.2911,徐州市,桃园路,,48,48,54,12,18,134,113,116,116,13,14,5,8,0.6,0.6
2022-09-13T18:00:00,1182A,117.2933,34.2778,徐州市,农科院,,39,39,46,12,16,124,110,109,109,20,29,6,9,0.8,0.8
2022-09-13T18:00:00,1186A,119.389,32.3761,扬州市,邗江监测站,,31,31,21,16,13,84,62,63,63,17,11,8,9,0.6,0.5
2022-09-13T18:00:00,1188A,120.269,31.4867,无锡市,雪浪,,20,19,14,12,9,79,62,53,53,7,6,5,5,0.7,0.7
2022-09-13T18:00:00,1189A,120.275,31.6219,无锡市,黄巷,,20,18,16,14,8,70,61,54,54,17,13,4,5,0.6,0.7
2022-09-13T18:00:00,1190A,120.294,31.56,无锡市,曹张,,19,19,15,12,9,72,60,52,52,20,16,6,6,0.7,0.8
2022-09-13T18:00:00,1191A,120.242,31.5031,无锡市,漆塘,,21,9,12,12,9,85,66,57,57,16,12,7,7,0.6,0.6
2022-09-13T18:00:00,1192A,120.3489,31.5863,无锡市,东亭,,22,22,15,12,9,72,57,45,45,15,11,7,7,0.6,0.8
2022-09-13T18:00:00,1193A,120.354,31.5475,无锡市,旺庄,,21,17,15,12,8,73,66,55,55,10,9,6,6,0.6,0.6
2022-09-13T18:00:00,1194A,120.245,31.5631,无锡市,荣巷,,32,19,16,22,14,82,67,62,62,17,13,7,7,0.6,0.6
2022-09-13T18:00:00,1195A,120.299,31.6817,无锡市,堰桥,,21,12,16,9,9,72,67,59,59,18,16,6,7,0.7,0.7
2022-09-13T18:00:00,1196A,119.9633,31.762,常州市,市监测站,,22,22,20,14,12,70,63,58,58,17,16,4,5,0.4,0.4
2022-09-13T18:00:00,1200A,119.9468,31.7069,常州市,武进监测站,,24,22,22,9,9,78,75,66,66,8,10,6,6,0.6,0.6
2022-09-13T18:00:00,1201A,119.9255,31.9087,常州市,安家,,22,20,22,15,12,76,70,69,69,12,10,6,7,0.3,0.3
2022-09-13T18:00:00,1203A,119.6707,32.1875,镇江市,新区办事处,,26,22,14,18,14,79,69,69,69,22,14,9,7,0.4,0.4
2022-09-13T18:00:00,1204A,119.4974,32.1968,镇江市,职教中心,,23,20,22,8,8,86,71,69,69,12,13,2,5,0.2,0.2
2022-09-13T18:00:00,1205A,119.4303,32.1328,镇江市,丹徒区监测站,,24,21,21,13,15,93,75,69,69,9,11,4,4,0.3,0.3
2022-09-13T18:00:00,1206A,119.905,32.4878,泰州市,公园路,,27,27,16,9,11,75,61,60,60,13,10,7,6,0.6,0.5
2022-09-13T18:00:00,1207A,119.9189,32.4625,泰州市,莲花,,25,22,12,17,12,79,70,64,64,9,9,5,5,0.5,0.5
2022-09-13T18:00:00,1209A,119.888,32.4639,泰州市,留学生创业园,,22,20,19,13,11,81,69,67,67,13,11,4,5,0.5,0.5
2022-09-13T18:00:00,1210A,119.036,33.5981,淮安市,钵池山,,22,22,26,13,14,80,69,73,72,12,11,5,5,0.7,0.6
2022-09-13T18:00:00,1211A,119.007,33.575,淮安市,北京南路,,31,31,29,15,16,77,62,71,70,14,10,6,7,0.5,0.5
2022-09-13T18:00:00,1212A,118.989,33.6067,淮安市,市监测站,,25,22,27,10,15,83,77,76,76,11,12,7,7,0.7,0.6
2022-09-13T18:00:00,1213A,119.135,33.5039,淮安市,楚州区监测站,,27,27,27,7,11,73,65,68,67,11,9,5,5,0.7,0.7
2022-09-13T18:00:00,1214A,119.0186,33.6297,淮安市,淮阴区监测站,,29,29,31,12,16,80,74,73,73,12,12,7,8,0.4,0.4
2022-09-13T18:00:00,1215A,120.118,33.4022,盐城市,盐城电厂,,31,29,20,14,13,103,99,96,96,7,8,5,4,0.4,0.3
2022-09-13T18:00:00,1216A,120.156,33.3942,盐城市,市监测站,,30,25,16,15,14,98,94,90,90,7,10,15,15,0.4,0.3
2022-09-13T18:00:00,1218A,120.2144,33.38,盐城市,开发区管委会,,29,28,14,13,8,97,91,89,89,6,5,6,6,0.3,0.3
2022-09-13T18:00:00,1220A,118.293,33.9528,宿迁市,宿迁学院,,28,21,32,13,16,125,87,95,95,10,14,4,6,0.1,0.1
2022-09-13T18:00:00,1221A,118.2442,33.9592,宿迁市,宿迁中学,,34,23,26,12,17,125,108,114,114,9,13,6,7,0.4,0.5
2022-09-13T18:00:00,1223A,120.2072,30.2111,杭州市,滨江,,18,18,33,11,21,138,46,50,44,29,26,6,7,0.7,0.6
2022-09-13T18:00:00,1224A,120.0633,30.2747,杭州市,西溪,,17,17,33,7,15,162,42,40,40,17,16,9,9,0.6,0.6
2022-09-13T18:00:00,1225A,119.026,29.635,杭州市,千岛湖(对照点),,,,,,,,,,,,,,,,
2022-09-13T18:00:00,1226A,120.3461,30.3153,杭州市,下沙,,26,26,23,14,12,121,50,46,46,26,26,5,6,0.6,0.5
2022-09-13T18:00:00,1227A,120.1269,30.2456,杭州市,卧龙桥,,20,13,24,14,15,172,51,54,47,20,21,5,5,0.7,0.6
2022-09-13T18:00:00,1228A,120.1903,30.2692,杭州市,浙江农大,,21,21,26,11,13,164,43,52,38,28,25,4,4,0.6,0.5
2022-09-13T18:00:00,1229A,120.157,30.2897,杭州市,朝晖五区,,,,,,,,,,,,,,,,
2022-09-13T18:00:00,1230A,120.1197,30.3119,杭州市,和睦小学,,26,21,32,18,19,181,38,40,32,32,29,2,2,0.7,0.6
2022-09-13T18:00:00,1231A,120.3019,30.4183,杭州市,临平镇,,28,28,24,8,11,134,54,53,53,22,19,5,5,0.5,0.4
2022-09-13T18:00:00,1232A,120.2697,30.1819,杭州市,城厢镇,,18,17,32,12,18,106,57,55,50,17,20,3,4,0.6,0.5
2022-09-13T18:00:00,1233A,120.0883,30.1808,杭州市,云栖,,18,10,26,6,15,139,55,48,48,17,19,5,5,0.5,0.5
2022-09-13T18:00:00,1234A,121.8358,29.911,宁波市,区环保大楼,,16,14,19,5,15,67,50,60,59,17,25,6,6,0.5,0.6
2022-09-13T18:00:00,1235A,121.56,29.82,宁波市,万里学院,,20,20,27,5,20,87,60,67,67,12,16,5,5,0.5,0.8
2022-09-13T18:00:00,1236A,121.713,29.9572,宁波市,龙赛医院,,20,14,18,4,14,78,63,71,70,10,18,6,5,0.5,0.5
2022-09-13T18:00:00,1239A,121.633,29.7733,宁波市,钱湖水厂,,18,10,26,6,20,75,57,64,64,8,15,4,5,0.5,0.6
2022-09-13T18:00:00,1240A,121.5856,29.8635,宁波市,太古小学,,18,7,22,4,18,94,57,66,66,14,17,6,7,0.6,0.7
2022-09-13T18:00:00,1241A,121.524,29.8674,宁波市,市环境监测中心,,19,18,22,8,11,86,59,64,64,11,17,5,5,0.5,0.5
2022-09-13T18:00:00,1242A,120.634,28.0089,温州市,瓯海,,20,20,24,10,11,89,54,81,63,23,16,6,6,0.6,0.4
2022-09-13T18:00:00,1243A,120.6748,27.9939,温州市,南浦,,19,16,19,9,12,90,59,82,70,18,12,4,4,0.5,0.4
2022-09-13T18:00:00,1244A,120.76,27.9747,温州市,龙湾,,27,27,24,10,10,86,47,71,58,31,20,5,5,0.7,0.6
2022-09-13T18:00:00,1245A,120.6709,28.0167,温州市,市站,,19,18,21,12,13,86,58,81,71,21,16,5,5,0.6,0.4
2022-09-13T18:00:00,1246A,120.598,30.0911,绍兴市,袍江站,,,,,,,,,,,,,,,,
2022-09-13T18:00:00,1247A,120.6053,29.9928,绍兴市,城东开发委,,,19,23,12,14,106,39,52,32,20,16,,8,0.7,0.6
2022-09-13T18:00:00,1250A,120.0751,30.8669,湖州市,城西水厂,,23,19,14,16,8,139,62,60,60,16,17,4,4,0.4,0.3
2022-09-13T18:00:00,1252A,120.7436,30.778,嘉兴市,清河小学,,21,21,16,8,8,73,63,61,61,18,18,5,5,0.5,0.5
2022-09-13T18:00:00,1253A,120.726,30.7478,嘉兴市,嘉兴学院,,19,16,19,12,10,82,60,58,58,16,16,4,4,0.4,0.4
2022-09-13T18:00:00,1255A,121.273,28.6459,台州市,黄岩环保大楼,细颗粒物(PM2.5),68,12,23,49,20,101,36,101,37,25,16,4,5,0.7,0.5
2022-09-13T18:00:00,1256A,121.419,28.6542,台州市,台州环保大楼,,14,12,21,6,12,94,42,92,40,20,16,5,5,0.5,0.5
2022-09-13T18:00:00,1257A,121.377,28.5773,台州市,路桥田洋王,,16,8,19,8,14,93,50,93,47,15,13,4,5,0.4,0.4
2022-09-13T18:00:00,1258A,122.122,30.0203,舟山市,定海檀枫,,17,15,13,6,7,63,54,61,58,6,8,2,2,0.4,0.4
2022-09-13T18:00:00,1259A,122.3094,29.9558,舟山市,普陀东港,,22,22,18,10,9,70,56,66,63,13,15,3,3,0.4,0.4
2022-09-13T18:00:00,1260A,122.19,29.9944,舟山市,临城新区,,,14,16,5,7,68,56,65,62,6,8,,2,0.3,0.3
2022-09-13T18:00:00,1261A,119.649,29.1131,金华市,四中(停运161031),,,,,,,,,,,,,,,,
2022-09-13T18:00:00,1262A,119.647,29.077,金华市,十五中,细颗粒物(PM2.5),59,46,42,42,35,152,51,105,58,31,21,10,7,0.6,0.6
2022-09-13T18:00:00,1263A,119.686,29.1029,金华市,监测站,,36,36,42,20,29,156,49,107,59,28,22,7,5,0.7,0.6
2022-09-13T18:00:00,1264A,118.8692,28.9398,衢州市,环保大楼,细颗粒物(PM2.5),62,45,59,44,43,167,58,99,85,36,23,37,11,0.9,0.7
2022-09-13T18:00:00,1265A,118.8709,28.9666,衢州市,实验学校,颗粒物(PM10),57,64,67,34,44,179,69,102,95,29,22,17,11,0.7,0.7
2022-09-13T18:00:00,1266A,118.8621,28.9808,衢州市,衢州学院,细颗粒物(PM2.5),55,46,63,39,47,170,89,106,104,23,22,12,12,0.7,0.7
2022-09-13T18:00:00,1267A,119.914,28.4514,丽水市,监测站大楼,颗粒物(PM10),52,54,32,24,16,120,53,98,62,22,16,6,6,0.6,0.4
2022-09-13T18:00:00,1268A,119.93,28.4586,丽水市,莲都小学,细颗粒物(PM2.5),62,69,40,44,17,131,39,101,62,42,18,6,6,0.6,0.4
2022-09-13T18:00:00,1269A,119.879,28.4231,丽水市,余庄前,颗粒物(PM10),55,59,37,31,23,129,24,92,60,25,17,7,7,0.6,0.5
2022-09-13T18:00:00,1270A,117.1959,31.7848,合肥市,明珠广场,,36,36,35,19,18,125,63,87,86,20,16,7,8,0.3,0.4
2022-09-13T18:00:00,1271A,117.3072,31.8764,合肥市,三里街,,,,32,,14,68,,71,,,16,,5,,0.5
2022-09-13T18:00:00,1272A,117.2588,31.8707,合肥市,琥珀山庄,,24,24,34,9,14,118,65,79,78,14,17,5,6,0.3,0.4
2022-09-13T18:00:00,1273A,117.1604,31.9052,合肥市,董铺水库(对照点),,27,27,45,7,17,120,66,76,76,9,13,8,8,0.4,0.5
2022-09-13T18:00:00,1274A,117.25,31.8571,合肥市,长江中路,,27,27,36,14,21,126,68,83,83,7,11,8,8,0.6,0.6
2022-09-13T18:00:00,1275A,117.266,31.9436,合肥市,庐阳区,,39,39,41,14,20,122,64,80,80,18,14,9,10,0.3,0.4
2022-09-13T18:00:00,1276A,117.336,31.8586,合肥市,瑶海区,,,,43,,16,121,64,79,79,,14,9,10,0.5,0.5
2022-09-13T18:00:00,1277A,117.3027,31.7964,合肥市,包河区,,27,27,39,7,15,114,58,78,78,22,28,9,10,0.4,0.4
2022-09-13T18:00:00,1278A,117.2776,31.7385,合肥市,滨湖新区,,34,34,38,7,13,120,69,83,83,10,16,8,8,0.4,0.5
2022-09-13T18:00:00,1279A,117.1318,31.8403,合肥市,高新区,,39,39,40,9,15,125,69,90,90,20,20,2,3,0.5,0.6
2022-09-13T18:00:00,1280A,119.3903,26.0543,福州市,鼓山(对照点),,,,,,,,,,,,,,,,
2022-09-13T18:00:00,1282A,119.2681,26.0504,福州市,师大,颗粒物(PM10),51,51,40,15,19,147,105,133,130,18,14,6,5,0.5,0.5
2022-09-13T18:00:00,1283A,119.2984,26.1028,福州市,五四北路,,45,45,34,12,15,141,79,128,122,23,14,3,4,0.5,0.5
2022-09-13T18:00:00,1284A,119.2648,26.0768,福州市,杨桥西路,,28,27,39,18,18,149,89,136,130,19,13,4,5,0.4,0.4
2022-09-13T18:00:00,1285A,119.317,26.0746,福州市,紫阳,,49,49,34,14,18,144,99,132,129,16,13,5,6,0.4,0.4
2022-09-13T18:00:00,1286A,118.1608,24.8169,厦门市,溪东(对照点),,,,,,,,,,,,,,,,
2022-09-13T18:00:00,1287A,118.1514,24.4767,厦门市,洪文,臭氧1小时,69,65,51,18,32,175,175,159,159,16,18,4,6,0.5,0.4
2022-09-13T18:00:00,1288A,118.0661,24.4444,厦门市,鼓浪屿,细颗粒物(PM2.5),58,56,53,41,37,151,151,132,132,34,25,9,7,0.7,0.6
2022-09-13T18:00:00,1290A,115.8931,28.6843,南昌市,省外办,,47,47,61,16,23,166,127,146,146,9,13,8,12,0.6,0.8
2022-09-13T18:00:00,1291A,115.8886,28.7003,南昌市,省林业公司,,40,31,52,7,24,158,126,142,142,10,18,4,7,0.5,0.7
2022-09-13T18:00:00,1292A,115.8126,28.7442,南昌市,林科所,,41,41,51,17,26,170,131,156,148,8,8,6,8,0.5,0.7
2022-09-13T18:00:00,1294A,115.8518,28.687,南昌市,建工学校,颗粒物(PM10),51,52,58,24,30,165,132,149,148,12,18,9,11,0.7,0.9
2022-09-13T18:00:00,1295A,115.8921,28.6424,南昌市,象湖,,49,49,52,9,22,174,126,145,144,10,13,4,7,0.5,0.7
2022-09-13T18:00:00,1296A,115.7423,28.7996,南昌市,武术学校(对照点),,41,41,42,26,30,131,91,119,118,2,6,5,4,0.4,0.5
2022-09-13T18:00:00,1298A,115.9314,28.6842,南昌市,省站,颗粒物(PM10),53,56,65,25,32,161,116,136,135,14,17,6,8,0.7,1
2022-09-13T18:00:00,1299A,116.9862,36.6114,济南市,科干所,臭氧1小时,59,61,78,27,42,216,167,186,186,22,39,6,8,0.5,0.8
2022-09-13T18:00:00,1300A,116.9376,36.665,济南市,农科所,臭氧1小时,57,59,87,15,32,216,165,186,186,14,56,5,7,0.4,0.7
2022-09-13T18:00:00,1301A,117.1265,36.6734,济南市,开发区,颗粒物(PM10),51,51,76,27,33,213,155,183,183,28,49,6,7,0.6,0.8
2022-09-13T18:00:00,1303A,117.0624,36.6868,济南市,省种子仓库,,,61,96,27,40,210,159,181,181,13,57,,9,0.6,1
2022-09-13T18:00:00,1304A,116.9489,36.6447,济南市,机床二厂,臭氧1小时,67,69,110,27,37,231,173,195,195,17,56,7,8,0.6,0.9
2022-09-13T18:00:00,1305A,117.0495,36.663,济南市,市监测站,颗粒物(PM10),56,61,83,22,42,214,157,184,184,20,54,8,10,0.8,1.1
2022-09-13T18:00:00,1306A,116.7675,36.5484,济南市,长清党校,臭氧1小时,85,71,74,32,39,237,188,202,202,18,35,6,6,0.5,0.7
2022-09-13T18:00:00,1307A,120.6659,36.2403,青岛市,仰口(对照点),,,,,,,,,,,,,,,,
2022-09-13T18:00:00,1308A,120.3905,36.1851,青岛市,李沧区子站,,,,,,,,,,,,,,,,
2022-09-13T18:00:00,1309A,120.3471,36.0699,青岛市,市北区子站,,,,,,,,,,,,,,,,
2022-09-13T18:00:00,1310A,120.4134,36.0658,青岛市,市南区东部子站,,33,27,19,17,11,116,103,106,106,20,15,5,6,0.4,0.3
2022-09-13T18:00:00,1311A,120.3664,36.1032,青岛市,四方区子站,,31,31,24,19,12,109,94,98,98,26,20,5,5,0.5,0.4
2022-09-13T18:00:00,1312A,120.2994,36.054,青岛市,市南区西部子站,,34,31,25,15,10,129,106,116,116,24,18,6,8,0.6,0.5
2022-09-13T18:00:00,1313A,120.4581,36.0858,青岛市,崂山区子站,,44,44,25,17,11,130,116,119,119,15,11,5,5,0.3,0.3
2022-09-13T18:00:00,1314A,120.1983,35.9608,青岛市,黄岛区子站,,36,36,27,17,18,130,100,114,114,32,26,5,5,0.4,0.4
2022-09-13T18:00:00,1315A,120.3999,36.3083,青岛市,城阳区子站,,36,28,24,14,12,124,115,114,114,15,16,5,5,0.6,0.5
2022-09-13T18:00:00,1316A,113.69031,34.76122,郑州市,烟厂,,,,100,,51,211,192,177,177,19,44,,4,0.6,0.7
2022-09-13T18:00:00,1317A,113.65724,34.77134,郑州市,郑纺机,臭氧1小时,92,98,102,41,38,196,193,177,177,11,45,9,8,0.5,0.7
2022-09-13T18:00:00,1318A,113.67526,34.80246,郑州市,银行学校,臭氧1小时,90,78,91,35,52,192,192,174,174,15,44,9,8,1.0,1.1
2022-09-13T18:00:00,1319A,113.56746,34.81334,郑州市,供水公司,臭氧1小时,83,66,84,29,32,189,186,178,178,14,43,5,6,0.5,0.7
2022-09-13T18:00:00,1320A,113.7329,34.7178,郑州市,经开区管委,臭氧1小时,105,82,101,45,56,220,209,184,184,14,51,5,4,0.7,0.8
2022-09-13T18:00:00,1321A,113.73961,34.77172,郑州市,四十七中,臭氧1小时,103,79,97,37,48,206,205,187,187,18,45,8,7,0.7,0.8
2022-09-13T18:00:00,1322A,113.60532,34.74838,郑州市,市监测站,,,81,110,,,200,200,185,185,14,54,4,5,0.5,0.7
2022-09-13T18:00:00,1323A,113.64164,34.7525,郑州市,河医大,臭氧1小时,92,91,108,47,51,193,193,174,174,21,51,8,8,0.8,0.9
2022-09-13T18:00:00,1324A,113.51488,34.91089,郑州市,岗李水库(对照点),,,,,,,,,,,,,,,,
2022-09-13T18:00:00,1325A,114.3677,30.5584,武汉市,东湖梨园,,43,25,41,12,28,165,137,146,145,10,16,8,15,0.6,1
2022-09-13T18:00:00,1326A,114.2529,30.558,武汉市,汉阳月湖,,43,30,41,12,25,170,137,148,147,15,16,6,6,0.7,0.7
2022-09-13T18:00:00,1327A,114.282,30.6189,武汉市,汉口花桥,,43,31,59,20,31,165,137,147,146,14,13,7,8,0.7,0.8
2022-09-13T18:00:00,1328A,114.3025,30.5332,武汉市,武昌紫阳,,41,26,36,21,23,168,131,146,145,15,17,11,13,0.6,0.8
2022-09-13T18:00:00,1329A,114.3646,30.6217,武汉市,青山钢花,,40,39,47,22,34,156,125,138,137,19,17,8,8,0.5,0.6
2022-09-13T18:00:00,1330A,114.1566,30.4825,武汉市,沌口新区,,42,34,49,29,30,174,129,147,146,18,20,7,8,0.7,0.8
2022-09-13T18:00:00,1331A,114.3014,30.5944,武汉市,汉口江滩,,45,36,44,17,30,168,141,148,148,12,15,7,7,0.7,0.8
2022-09-13T18:00:00,1333A,114.135,30.6319,武汉市,吴家山,,45,39,47,24,29,159,143,144,144,14,17,5,5,0.7,0.8
2022-09-13T18:00:00,1334A,113.8454,30.2917,武汉市,沉湖七壕(对照点),,47,27,44,26,21,189,148,159,159,25,38,8,8,0.7,0.7
2022-09-13T18:00:00,1335A,113.0833,28.2325,长沙市,经开区环保局,臭氧1小时,99,51,53,43,37,202,199,183,183,9,14,8,9,0.5,0.5
2022-09-13T18:00:00,1336A,112.8872,28.2189,长沙市,高开区环保局,臭氧1小时,83,49,60,33,33,188,186,172,172,4,9,8,9,0.4,0.5
2022-09-13T18:00:00,1337A,113.0792,28.2053,长沙市,马坡岭,臭氧1小时,70,58,64,38,37,190,176,162,162,11,18,8,9,0.5,0.4
2022-09-13T18:00:00,1338A,112.9394,28.19,长沙市,湖南师范大学,臭氧1小时,73,59,65,15,34,178,178,169,169,5,10,4,5,0.4,0.4
2022-09-13T18:00:00,1339A,113.0178,28.1322,长沙市,雨花区环保局,臭氧1小时,95,54,53,31,30,196,196,189,189,11,14,8,8,0.3,0.3
2022-09-13T18:00:00,1340A,112.9792,28.2597,长沙市,伍家岭,臭氧1小时,82,47,56,30,39,185,185,170,170,10,18,6,7,0.5,0.4
2022-09-13T18:00:00,1341A,113.0014,28.1944,长沙市,火车新站,臭氧1小时,80,51,54,35,38,184,184,175,175,9,14,6,7,0.6,0.6
2022-09-13T18:00:00,1342A,112.9844,28.1178,长沙市,天心区环保局,臭氧1小时,80,62,59,31,30,184,184,178,178,8,14,6,7,0.5,0.8
2022-09-13T18:00:00,1343A,112.8908,28.1308,长沙市,湖南中医药大学,臭氧1小时,69,46,50,27,35,185,175,172,172,5,10,5,5,0.5,0.6
2022-09-13T18:00:00,1344A,112.9581,28.3611,长沙市,沙坪(对照点),臭氧1小时,85,54,58,35,35,188,188,172,172,8,13,6,7,0.6,0.6
2022-09-13T18:00:00,1345A,113.2347,23.1423,广州市,广雅中学,颗粒物(PM10),54,57,74,28,40,228,160,186,186,28,57,6,8,0.7,0.9
2022-09-13T18:00:00,1346A,113.2612,23.105,广州市,市五中,臭氧1小时,93,51,64,34,43,245,194,206,206,15,39,7,8,0.7,0.9
2022-09-13T18:00:00,1348A,113.3478,23.0916,广州市,广东商学院,"颗粒物(PM10),臭氧1小时",65,79,80,34,38,215,172,189,189,21,61,5,6,0.6,0.7
2022-09-13T18:00:00,1349A,113.4332,23.1047,广州市,市八十六中,臭氧1小时,75,52,75,29,34,207,180,186,186,15,61,6,7,0.7,0.8
2022-09-13T18:00:00,1350A,113.3505,22.9483,广州市,番禺中学,,,,68,,37,103,,91,,,52,,6,,0.8
2022-09-13T18:00:00,1351A,113.2146,23.3916,广州市,花都师范,臭氧1小时,72,51,60,31,32,186,177,175,175,16,39,8,8,0.7,0.9
2022-09-13T18:00:00,1352A,113.2597,23.1331,广州市,市监测站,臭氧1小时,75,42,69,30,39,242,180,201,201,18,49,6,7,0.8,0.9
2022-09-13T18:00:00,1353A,113.5618,23.312,广州市,九龙镇镇龙,颗粒物(PM10),52,53,74,32,35,160,160,147,147,9,35,5,5,0.9,0.9
2022-09-13T18:00:00,1354A,113.2765,23.1544,广州市,麓湖,,46,44,60,30,37,235,145,192,192,22,53,4,5,0.7,0.8
2022-09-13T18:00:00,1355A,113.443,23.3035,广州市,帽峰山森林公园(对照点),,44,44,42,30,29,190,130,169,169,6,8,6,6,0.7,0.7
2022-09-13T18:00:00,1356A,114.1063,22.5545,深圳市,通心岭子站,臭氧1小时,73,49,47,30,35,212,178,194,194,16,31,4,5,0.7,0.7
2022-09-13T18:00:00,1357A,114.117,22.5625,深圳市,洪湖,臭氧1小时,69,78,77,46,40,210,175,195,195,27,56,6,6,0.4,0.6
2022-09-13T18:00:00,1358A,113.987,22.5417,深圳市,华侨城,臭氧1小时,74,52,59,29,40,231,179,201,201,9,21,4,5,0.6,0.7
2022-09-13T18:00:00,1359A,113.9181,22.5171,深圳市,南海子站,臭氧1小时,123,70,68,34,42,282,245,227,227,30,53,6,6,0.8,0.9
2022-09-13T18:00:00,1360A,114.2458,22.5689,深圳市,盐田,臭氧1小时,80,52,43,36,30,218,184,198,198,16,24,5,5,0.8,0.8
2022-09-13T18:00:00,1361A,114.2283,22.7244,深圳市,龙岗,颗粒物(PM10),56,62,74,31,40,199,161,178,178,15,60,6,6,0.3,0.7
2022-09-13T18:00:00,1362A,113.8953,22.5861,深圳市,西乡,,,,,,,,,,,,,,,,
2022-09-13T18:00:00,1363A,114.494,22.5422,深圳市,南澳,细颗粒物(PM2.5),62,68,49,44,31,250,146,172,172,25,19,6,5,0.7,0.9
2022-09-13T18:00:00,1364A,114.41,22.6342,深圳市,葵涌,颗粒物(PM10),51,52,52,31,32,172,137,159,159,20,20,9,9,0.7,0.8
2022-09-13T18:00:00,1365A,114.297,22.5978,深圳市,梅沙,,,,49,,28,210,167,174,174,13,19,,8,0.7,0.8
2022-09-13T18:00:00,1366A,114.0678,22.738,深圳市,观澜,颗粒物(PM10),62,74,100,33,38,197,161,184,184,16,37,7,7,0.4,0.5
2022-09-13T18:00:00,1367A,113.5814,22.2618,珠海市,吉大,臭氧1小时,127,64,61,34,31,331,254,265,265,26,24,5,7,0.8,0.9
2022-09-13T18:00:00,1368A,113.4881,22.2335,珠海市,前山,臭氧1小时,133,54,62,47,40,294,265,248,248,49,39,6,7,0.5,0.6
2022-09-13T18:00:00,1369A,113.628,22.4251,珠海市,唐家,臭氧1小时,147,57,59,32,41,339,293,290,290,,22,8,8,0.6,0.7
2022-09-13T18:00:00,1370A,113.299,22.2281,珠海市,斗门,臭氧1小时,115,67,55,48,39,292,230,243,241,26,28,9,10,0.7,0.7
2022-09-13T18:00:00,1371A,113.1294,23.0067,佛山市,湾梁,臭氧1小时,99,48,66,30,35,249,199,217,217,10,36,5,11,0.5,0.6
2022-09-13T18:00:00,1372A,113.1083,23.0478,佛山市,华材职中,臭氧1小时,82,51,68,36,38,240,185,201,201,16,47,7,12,0.5,0.6
2022-09-13T18:00:00,1373A,113.144,23.0453,佛山市,南海气象局,臭氧1小时,88,59,66,31,39,229,190,203,203,14,46,6,10,0.7,0.8
2022-09-13T18:00:00,1374A,113.2881,22.8094,佛山市,顺德苏岗,臭氧1小时,100,53,55,31,35,259,200,231,231,18,40,6,11,0.8,0.8
2022-09-13T18:00:00,1375A,113.2544,22.7642,佛山市,容桂街道办,,,,,,,,,,,,,,,,
2022-09-13T18:00:00,1376A,112.8383,22.8678,佛山市,高明孔堂,臭氧1小时,100,58,52,35,32,240,200,205,205,20,23,9,9,0.6,0.6
2022-09-13T18:00:00,1377A,112.8836,23.1588,佛山市,三水监测站,细颗粒物(PM2.5),57,46,58,40,28,202,155,177,177,11,36,4,6,0.6,0.8
2022-09-13T18:00:00,1378A,112.867,23.185,佛山市,三水云东海,,45,32,54,31,35,186,110,159,159,14,35,5,8,0.6,0.6
2022-09-13T18:00:00,1379A,113.3769,22.5211,中山市,华柏园,臭氧1小时,143,66,69,26,38,291,286,261,261,22,31,6,9,0.8,0.8
2022-09-13T18:00:00,1380A,113.3881,22.5497,中山市,张溪,臭氧1小时,139,66,81,24,36,288,278,262,262,25,32,4,7,0.7,0.8
2022-09-13T18:00:00,1381A,113.4075,22.5111,中山市,紫马岭,臭氧1小时,128,64,73,41,40,296,256,260,260,23,32,7,9,0.5,0.6
2022-09-13T18:00:00,1382A,113.4411,22.4853,中山市,长江旅游区(对照点),臭氧1小时,111,63,54,40,45,281,222,245,245,20,17,10,12,0.6,0.6
2022-09-13T18:00:00,1383A,113.1064,22.6058,江门市,北街,臭氧1小时,118,57,63,31,32,301,236,256,256,15,26,9,11,0.7,0.8
2022-09-13T18:00:00,1384A,113.0731,22.5835,江门市,西区,臭氧1小时,109,50,70,43,43,284,217,239,239,23,35,9,11,0.7,0.8
2022-09-13T18:00:00,1385A,113.0219,22.5311,江门市,圭峰西,臭氧1小时,114,63,62,35,36,237,228,206,206,17,25,8,12,0.7,0.7
2022-09-13T18:00:00,1386A,113.0828,22.5947,江门市,东湖,臭氧1小时,117,57,66,36,35,284,234,243,243,16,29,8,8,0.6,0.8
2022-09-13T18:00:00,1387A,113.7875,23.0457,东莞市,东城主山,,,,,,,,,,,,,,,,
2022-09-13T18:00:00,1388A,113.7533,23.0202,东莞市,南城元岭,,,,,,,,,,,,,,,,
2022-09-13T18:00:00,1389A,113.7547,23.0494,东莞市,莞城梨川,臭氧1小时,75,44,52,27,31,204,180,188,188,15,32,10,11,1.0,1
2022-09-13T18:00:00,1390A,113.7944,23.0128,东莞市,东城石井,臭氧1小时,65,40,43,24,27,231,172,195,195,20,27,12,12,0.9,0.9
2022-09-13T18:00:00,1391A,113.7383,22.9658,东莞市,南城西平,臭氧1小时,54,51,56,30,33,213,163,188,188,21,40,14,14,0.6,0.9
2022-09-13T18:00:00,1392A,114.4183,23.0528,惠州市,河南岸金山湖子站,颗粒物(PM10),58,66,66,16,29,175,142,155,155,20,29,5,7,0.7,0.8
2022-09-13T18:00:00,1393A,114.4053,23.0822,惠州市,下埔横江三路子站,,49,49,62,25,27,189,151,163,163,17,31,6,10,0.7,0.8
2022-09-13T18:00:00,1394A,114.4103,23.1142,惠州市,江北云山西路子站,,50,47,60,24,32,197,157,170,170,11,26,7,13,0.6,0.7
2022-09-13T18:00:00,1395A,114.4645,22.7833,惠州市,惠阳区承修路船湖子站,颗粒物(PM10),56,62,66,33,38,182,153,162,162,12,29,7,8,0.8,0.9
2022-09-13T18:00:00,1396A,114.5317,22.7422,惠州市,大亚湾管委会子站,臭氧1小时,62,61,60,34,35,199,169,168,168,18,35,3,3,0.7,0.7
2022-09-13T18:00:00,1397A,112.4267,23.0706,肇庆市,睦岗子站,,49,49,48,32,30,188,141,165,165,19,34,4,4,0.5,0.6
2022-09-13T18:00:00,1398A,112.4645,23.0475,肇庆市,城中子站,臭氧1小时,65,42,48,32,29,211,172,183,183,13,42,7,8,0.6,0.6
2022-09-13T18:00:00,1399A,112.5544,23.1522,肇庆市,坑口子站,臭氧1小时,75,62,41,42,29,218,180,190,190,17,17,9,8,0.6,0.6
2022-09-13T18:00:00,1400A,112.4753,23.1,肇庆市,七星岩子站(对照点),,,,,,,,,,,,,,,,
2022-09-13T18:00:00,1401A,108.3103,22.7881,南宁市,二十一中,,50,50,56,35,30,160,105,120,120,20,27,8,10,0.8,0.9
2022-09-13T18:00:00,1402A,108.3141,22.8528,南宁市,北湖,颗粒物(PM10),52,53,56,35,36,174,96,124,124,20,27,6,11,0.8,0.8
2022-09-13T18:00:00,1403A,108.3206,22.8225,南宁市,市监测站,细颗粒物(PM2.5),60,64,59,43,35,176,97,129,120,30,34,7,9,0.8,0.9
2022-09-13T18:00:00,1404A,108.3829,22.8037,南宁市,大自然花园,细颗粒物(PM2.5),57,58,50,40,34,177,110,133,133,16,21,7,8,0.9,0.9
2022-09-13T18:00:00,1405A,108.4394,22.7904,南宁市,仙葫(对照点),细颗粒物(PM2.5),58,39,54,41,32,176,101,126,126,14,29,8,10,1.0,1
2022-09-13T18:00:00,1406A,108.2397,22.8467,南宁市,区农职院,,46,42,49,32,30,153,102,119,119,16,21,7,10,0.8,0.8
2022-09-13T18:00:00,1407A,108.3275,22.735,南宁市,英华嘉园,颗粒物(PM10),54,57,58,37,35,144,103,107,107,18,30,6,7,0.9,0.9
2022-09-13T18:00:00,1408A,108.2257,22.7757,南宁市,沙井镇街道办,,46,46,52,32,31,138,96,110,110,22,26,6,7,0.6,0.6
2022-09-13T18:00:00,1409A,110.576,19.9507,海口市,东寨港(对照点),,,17,31,15,24,107,97,107,102,,,7,4,0.4,0.1
2022-09-13T18:00:00,1410A,110.3232,20.0574,海口市,海南大学,,36,25,33,23,23,120,114,116,116,8,9,5,5,0.7,0.7
2022-09-13T18:00:00,1411A,110.283,20.0053,海口市,秀英海南医院,,38,30,30,26,18,118,112,111,111,7,11,6,6,0.7,0.6
2022-09-13T18:00:00,1412A,110.338,19.9969,海口市,海南师范大学,,40,40,38,26,22,116,112,114,114,9,14,4,4,0.6,0.6
2022-09-13T18:00:00,1413A,110.33,20.0356,海口市,龙华路环保局宿舍,,37,37,32,24,23,119,118,114,114,5,8,4,4,0.5,0.6
2022-09-13T18:00:00,1414A,106.3787,29.8279,重庆市,缙云山(对照点),臭氧1小时,74,26,55,11,33,196,179,164,159,15,21,5,10,0.4,0.6
2022-09-13T18:00:00,1416A,106.4213,29.8253,重庆市,天生,臭氧1小时,88,37,75,31,56,192,190,176,176,11,32,6,9,0.6,0.9
2022-09-13T18:00:00,1417A,106.6263,29.7228,重庆市,两路,,44,38,70,28,44,173,140,152,152,37,59,11,13,0.9,1
2022-09-13T18:00:00,1418A,106.2953,29.5983,重庆市,虎溪,臭氧1小时,72,40,68,18,41,181,177,154,154,17,40,6,8,0.4,0.6
2022-09-13T18:00:00,1419A,106.5777,29.5102,重庆市,南坪,臭氧1小时,82,65,61,23,37,205,185,181,181,27,27,5,10,0.7,0.8
2022-09-13T18:00:00,1420A,106.6556,29.6277,重庆市,唐家沱,臭氧1小时,85,46,66,25,38,208,188,187,187,20,58,8,9,0.6,0.7
2022-09-13T18:00:00,1421A,106.6349,29.4906,重庆市,茶园,臭氧1小时,93,41,58,24,31,219,194,196,196,32,44,9,11,0.6,0.6
2022-09-13T18:00:00,1422A,106.3754,29.4572,重庆市,白市驿,臭氧1小时,84,40,58,15,37,187,187,143,143,16,22,7,17,0.6,0.7
2022-09-13T18:00:00,1425A,106.6205,29.7166,重庆市,空港,臭氧1小时,65,36,64,27,42,190,172,175,175,14,41,6,9,0.8,1
2022-09-13T18:00:00,1426A,106.4782,29.4875,重庆市,新山村,臭氧1小时,100,43,63,13,38,200,200,167,167,29,59,10,12,0.5,0.7
2022-09-13T18:00:00,1427A,106.5616,29.6453,重庆市,礼嘉,臭氧1小时,101,39,54,21,28,238,202,189,189,20,58,11,13,0.9,1.1
2022-09-13T18:00:00,1428A,106.4522,29.7091,重庆市,蔡家,臭氧1小时,70,41,67,23,45,181,176,161,161,19,39,6,8,0.6,0.8
2022-09-13T18:00:00,1429A,106.5093,29.3917,重庆市,鱼新街,臭氧1小时,102,37,63,29,42,203,203,150,150,17,40,7,13,0.9,1
2022-09-13T18:00:00,1431A,103.9728,30.7236,成都市,金泉两河,细颗粒物(PM2.5),52,37,68,36,60,144,101,98,98,10,14,2,4,0.5,0.6
2022-09-13T18:00:00,1432A,104.1419,30.6764,成都市,十里店,,48,44,73,33,56,132,105,104,104,7,15,6,7,0.6,0.7
2022-09-13T18:00:00,1433A,104.0594,30.5767,成都市,三瓦窑,细颗粒物(PM2.5),52,42,62,36,49,137,116,112,112,8,18,2,4,0.8,0.9
2022-09-13T18:00:00,1434A,104.1122,30.6306,成都市,沙河铺,,48,48,84,33,50,123,116,111,111,8,17,6,7,0.8,0.9
2022-09-13T18:00:00,1437A,104.0431,30.6556,成都市,君平街,,49,38,70,34,60,141,110,106,106,3,10,4,7,0.9,1
2022-09-13T18:00:00,1438A,103.6202,31.0201,成都市,灵岩寺(对照点),,35,31,38,24,29,133,102,126,81,4,6,3,4,0.9,0.9
2022-09-13T18:00:00,1439A,106.6899,26.5998,贵阳市,马鞍山,,16,2,25,2,21,84,51,64,64,5,6,3,4,0.4,0.5
2022-09-13T18:00:00,1440A,106.6971,26.5694,贵阳市,市环保站,,,5,20,4,20,96,0,53,34,,11,,4,0.4,0.3
2022-09-13T18:00:00,1441A,106.6243,26.6266,贵阳市,鉴湖路,,17,5,24,2,18,97,52,67,63,2,4,3,3,0.2,0.3
2022-09-13T18:00:00,1442A,106.7487,26.6343,贵阳市,燕子冲,,18,5,38,12,34,96,51,56,56,4,5,6,6,0.4,0.5
2022-09-13T18:00:00,1443A,106.6555,26.4365,贵阳市,碧云窝,,18,9,29,2,15,105,56,62,60,3,5,4,5,0.4,0.4
2022-09-13T18:00:00,1444A,106.694,26.5161,贵阳市,中院村,,,5,28,0,19,95,48,59,58,5,5,8,9,,
2022-09-13T18:00:00,1445A,106.7109,26.6027,贵阳市,红边门,,,,,,,,,,,,,,,,
2022-09-13T18:00:00,1446A,106.7164,26.5699,贵阳市,新华路,,16,2,25,7,25,96,51,61,61,2,5,3,3,0.4,0.5
2022-09-13T18:00:00,1447A,106.674,26.5424,贵阳市,太慈桥,,16,12,30,2,16,100,51,59,59,4,6,5,4,0.3,0.4
2022-09-13T18:00:00,1450A,102.8204,24.8886,昆明市,呈贡新区,,28,26,19,8,7,104,88,76,76,14,17,6,7,0.2,0.2
2022-09-13T18:00:00,1451A,102.6251,24.9608,昆明市,西山森林公园(对照点),,36,12,8,20,8,113,113,67,67,6,7,6,6,0.6,0.6
2022-09-13T18:00:00,1452A,102.7252,25.0902,昆明市,龙泉镇,,34,20,13,16,8,107,107,74,74,16,14,6,6,0.4,0.4
2022-09-13T18:00:00,1453A,102.7266,25.0375,昆明市,东风东路,,32,26,16,14,9,100,100,72,72,24,20,5,4,0.6,0.5
2022-09-13T18:00:00,1454A,102.6742,25.0669,昆明市,金鼎山,,27,21,13,14,12,85,85,66,66,15,12,5,4,0.5,0.4
2022-09-13T18:00:00,1455A,102.6644,25.0401,昆明市,碧鸡广场,,30,20,13,21,10,87,87,67,67,18,18,9,8,0.4,0.6
2022-09-13T18:00:00,1456A,91.1319,29.6514,拉萨市,八廓街,,20,1,3,0,0,87,63,79,73,3,5,8,8,0,0
2022-09-13T18:00:00,1457A,91.1221,29.6747,拉萨市,市环保局,,20,5,3,0,1,82,61,74,71,6,6,6,7,0.1,0.1
2022-09-13T18:00:00,1458A,91.0874,29.6475,拉萨市,区监测站,,22,4,3,0,0,97,69,87,83,7,5,9,9,0.2,0.2
2022-09-13T18:00:00,1459A,91.1774,29.6541,拉萨市,西藏大学,,20,7,5,2,2,88,64,80,75,6,7,11,10,0.2,0.2
2022-09-13T18:00:00,1460A,90.9798,29.6588,拉萨市,区辐射站,,32,4,3,22,21,82,60,77,69,6,6,9,9,0.1,0.1
2022-09-13T18:00:00,1461A,91.0834,29.6292,拉萨市,拉萨火车站,,,,,3,1,85,62,79,75,10,5,11,10,0,0
2022-09-13T18:00:00,1462A,108.882,34.2749,西安市,高压开关厂,,,64,71,27,35,186,163,155,155,16,33,,6,0.5,0.7
2022-09-13T18:00:00,1463A,108.993,34.2629,西安市,兴庆小区,,42,38,62,20,34,159,134,132,132,10,27,6,9,0.6,0.8
2022-09-13T18:00:00,1464A,109.06,34.2572,西安市,纺织城,,44,35,66,22,32,168,138,135,135,14,38,6,9,0.6,0.8
2022-09-13T18:00:00,1465A,108.9356,34.2173,西安市,小寨,,40,37,53,18,28,183,127,143,143,16,30,3,3,0.3,0.6
2022-09-13T18:00:00,1466A,108.954,34.2713,西安市,市人民体育场,颗粒物(PM10),56,61,70,27,35,182,161,156,156,21,32,10,11,0.5,0.7
2022-09-13T18:00:00,1467A,108.8922,34.2322,西安市,高新西区,颗粒物(PM10),51,51,67,22,38,188,140,150,150,16,31,6,7,0.5,0.8
2022-09-13T18:00:00,1468A,108.935,34.3474,西安市,经开区,颗粒物(PM10),57,64,72,25,37,174,157,153,153,13,33,6,9,0.4,0.7
2022-09-13T18:00:00,1469A,108.906,34.1546,西安市,长安区,颗粒物(PM10),52,53,73,21,34,198,129,144,144,8,37,6,5,0.3,0.6
2022-09-13T18:00:00,1470A,109.2,34.6575,西安市,阎良区,,,,,,,,,,,,,,,,
2022-09-13T18:00:00,1471A,109.2186,34.3731,西安市,临潼区,颗粒物(PM10),55,60,75,30,39,166,154,146,146,12,26,6,9,0.3,0.5
2022-09-13T18:00:00,1472A,108.869,34.378,西安市,草滩(对照点),,50,50,65,23,36,168,145,148,148,23,38,8,9,0.7,1.1
2022-09-13T18:00:00,1473A,108.985,34.1978,西安市,曲江文化产业集团,,41,39,63,24,32,183,131,140,140,11,29,4,6,0.6,0.7
2022-09-13T18:00:00,1474A,109.051,34.3213,西安市,广运潭,颗粒物(PM10),55,60,74,28,39,173,156,147,147,11,32,7,10,0.4,0.6
2022-09-13T18:00:00,1476A,103.631,36.1031,兰州市,兰炼宾馆,颗粒物(PM10),55,60,49,23,24,182,106,133,133,11,29,3,6,0.3,0.4
2022-09-13T18:00:00,1477A,104.1373,35.9454,兰州市,榆中兰大校区(对照点),,,,,,,,,,,,,,,,
2022-09-13T18:00:00,1478A,103.8412,36.0726,兰州市,生物制品所,,40,38,44,28,28,116,94,102,102,24,23,3,3,0.6,0.7
2022-09-13T18:00:00,1479A,103.831,36.0464,兰州市,铁路设计院,,40,40,43,27,16,106,85,91,91,22,25,5,5,0.7,0.7
2022-09-13T18:00:00,1480A,101.748,36.6428,西宁市,市环境监测站,,,,,,,,,,,,,,,,
2022-09-13T18:00:00,1482A,101.834,36.5819,西宁市,四陆医院,,,,,,,,,,,,,,,,
2022-09-13T18:00:00,1483A,101.524,36.6867,西宁市,第五水厂(对照点),,38,34,39,23,26,142,120,118,118,10,13,8,12,0.5,0.8
2022-09-13T18:00:00,1484A,105.9512,38.6016,银川市,贺兰山马莲口(对照点),,45,25,21,8,15,172,141,151,151,7,10,10,10,0.4,0.4
2022-09-13T18:00:00,1488A,106.2328,38.4975,银川市,贺兰山东路,,40,32,34,7,21,157,128,140,140,13,24,9,15,0.5,0.6
2022-09-13T18:00:00,1489A,106.1358,38.5036,银川市,学院路,,38,34,38,13,19,158,121,134,134,12,25,10,12,0.4,0.6
2022-09-13T18:00:00,1490A,87.5801,43.8303,乌鲁木齐市,监测站,,28,28,30,13,13,78,75,78,76,9,8,5,6,0.7,0.7
2022-09-13T18:00:00,1491A,87.6046,43.768,乌鲁木齐市,收费所,,32,32,26,17,17,85,79,78,78,11,14,7,7,0.2,0.3
2022-09-13T18:00:00,1492A,87.4754,43.9469,乌鲁木齐市,新疆农科院农场(对照点),颗粒物(PM10),64,77,36,4,13,65,61,61,61,6,11,8,9,0.7,0.8
2022-09-13T18:00:00,1493A,87.5525,43.8711,乌鲁木齐市,铁路局,,36,36,25,6,12,81,75,73,73,6,12,5,6,0.4,0.6
2022-09-13T18:00:00,1494A,87.6432,43.831,乌鲁木齐市,三十一中学,,,39,29,,,82,76,74,74,5,7,6,6,0.2,0.3
2022-09-13T18:00:00,1496A,87.7216,44.1747,乌鲁木齐市,米东区环保局,,24,24,19,12,10,82,74,70,70,5,8,4,5,0.1,0.2
2022-09-13T18:00:00,1508A,112.9433,27.8614,湘潭市,板塘,臭氧1小时,94,61,62,29,33,213,195,197,197,2,16,6,6,0.4,0.4
2022-09-13T18:00:00,1511A,112.9118,27.8403,湘潭市,市监测站,,,,51,,36,127,,128,,,17,,8,,0.8
2022-09-13T18:00:00,1512A,112.8937,27.8728,湘潭市,江麓,臭氧1小时,77,65,65,30,32,192,181,178,178,14,18,13,12,0.6,0.7
2022-09-13T18:00:00,1513A,112.9227,27.8159,湘潭市,岳塘,臭氧1小时,90,70,67,35,33,210,192,192,192,14,16,7,6,0.5,0.5
2022-09-13T18:00:00,1514A,112.9074,27.9119,湘潭市,科大,臭氧1小时,87,67,68,25,35,197,189,186,186,8,13,7,6,0.7,0.7
2022-09-13T18:00:00,1515A,113.135,27.8244,株洲市,天台山庄,臭氧1小时,104,47,49,35,33,212,207,203,203,13,16,2,7,0.5,0.5
2022-09-13T18:00:00,1518A,113.095,27.8867,株洲市,株冶医院,臭氧1小时,104,50,52,31,36,213,208,208,208,20,20,5,6,0.6,0.5
2022-09-13T18:00:00,1519A,113.167,27.8667,株洲市,市四中,臭氧1小时,108,56,56,33,37,222,215,210,210,21,22,1,4,0.6,0.6
2022-09-13T18:00:00,1520A,113.143,27.8381,株洲市,火车站,臭氧1小时,102,61,62,30,32,208,204,196,196,18,21,7,9,0.6,0.6
2022-09-13T18:00:00,1524A,113.13,27.8528,株洲市,市监测站,臭氧1小时,106,58,59,34,37,216,211,206,206,13,20,2,6,0.6,0.7
2022-09-13T18:00:00,1552A,106.805,26.3003,贵阳市,桐木岭(对照点),,,,,,,,,,,,,,,,
2022-09-13T18:00:00,1559A,113.251,27.8336,株洲市,大京风景区(对照点),臭氧1小时,83,56,58,26,34,186,186,175,175,8,11,5,5,0.6,0.6
2022-09-13T18:00:00,1562A,113.0048,27.9153,湘潭市,昭山,臭氧1小时,68,63,64,32,36,193,174,179,179,21,29,4,4,0.5,0.7
2022-09-13T18:00:00,1564A,112.4876,27.9164,湘潭市,韶山(对照点),,,62,56,17,24,179,179,168,168,,10,6,7,0.5,0.7
2022-09-13T18:00:00,1585A,109.8756,40.6532,包头市,市环境监测站,,46,30,44,20,18,158,147,130,130,25,34,16,17,0.6,0.8
2022-09-13T18:00:00,1587A,109.9991,40.5842,包头市,包头八中,,48,39,64,13,18,164,153,128,128,18,36,11,23,0.5,1
2022-09-13T18:00:00,1588A,109.8538,40.6821,包头市,青山宾馆,,49,27,41,14,16,161,156,136,136,16,29,17,16,0.6,0.8
2022-09-13T18:00:00,1589A,109.8642,40.6288,包头市,惠龙物流,臭氧1小时,52,29,47,18,20,163,161,133,133,14,31,13,18,0.4,0.6
2022-09-13T18:00:00,1590A,110.0377,40.5546,包头市,东河鸿龙湾,,46,28,43,12,14,159,146,128,128,13,23,18,17,0.6,0.7
2022-09-13T18:00:00,1591A,110.0023,39.8129,鄂尔多斯市,综合楼,,42,32,52,4,12,153,132,133,133,13,31,5,15,0.4,0.6
2022-09-13T18:00:00,1592A,109.9486,39.8261,鄂尔多斯市,巴音孟克林场办事处,颗粒物(PM10),73,95,73,12,20,169,141,140,140,21,41,5,14,0.3,0.5
2022-09-13T18:00:00,1593A,109.7736,39.5986,鄂尔多斯市,康泽苑,臭氧1小时,58,51,56,14,19,170,166,153,153,10,19,8,8,0.6,0.7
2022-09-13T18:00:00,1594A,109.8119,39.5989,鄂尔多斯市,华泰汽车城,颗粒物(PM10),56,61,58,19,24,166,149,145,145,9,32,9,8,0.3,0.6
2022-09-13T18:00:00,1595A,109.9734,39.7884,鄂尔多斯市,奥林花园,颗粒物(PM10),53,56,72,12,20,151,131,142,141,16,52,5,7,0.3,0.7
2022-09-13T18:00:00,1596A,122.2414,40.6592,营口市,学府南路,,,,,,,,,,,,,,,,
2022-09-13T18:00:00,1597A,122.2703,40.7094,营口市,大庆路,颗粒物(PM10),55,59,77,25,46,199,139,169,169,16,38,6,8,0.7,1.3
2022-09-13T18:00:00,1598A,122.215,40.6511,营口市,镜湖西路,,50,50,58,14,34,193,132,159,159,16,29,4,5,0.7,1.1
2022-09-13T18:00:00,1599A,122.167,40.6655,营口市,西炮台,,45,45,84,24,51,177,128,153,153,15,32,2,5,0.7,1.1
2022-09-13T18:00:00,1600A,124.3303,40.0625,丹东市,江湾东路,,25,25,33,10,18,84,69,78,78,16,20,6,6,0.6,0.7
2022-09-13T18:00:00,1601A,124.4256,40.1503,丹东市,临江后街,,22,20,28,10,14,85,70,78,78,11,16,6,8,0.5,0.5
2022-09-13T18:00:00,1602A,124.3933,40.1461,丹东市,元宝山,,27,27,29,11,15,78,57,58,58,14,17,7,7,0.6,0.3
2022-09-13T18:00:00,1603A,124.3633,40.1092,丹东市,民主桥,,24,24,26,12,14,87,63,78,78,21,20,9,9,0.6,0.6
2022-09-13T18:00:00,1604A,122.0303,41.1489,盘锦市,开发区,,40,40,52,13,39,114,96,105,105,16,28,9,10,0.6,0.9
2022-09-13T18:00:00,1605A,122.0485,41.0883,盘锦市,兴隆台,颗粒物(PM10),51,52,58,15,34,118,97,114,112,16,40,6,17,0.5,0.9
2022-09-13T18:00:00,1606A,121.8297,41.1028,盘锦市,新生街道,,40,40,39,11,29,111,96,106,106,12,24,7,11,0.5,0.7
2022-09-13T18:00:00,1607A,120.9092,40.7136,葫芦岛市,龙港区,颗粒物(PM10),60,70,48,24,28,135,103,124,124,23,20,73,22,1.6,0.8
2022-09-13T18:00:00,1608A,120.8392,40.7514,葫芦岛市,化工街,颗粒物(PM10),58,65,70,31,37,138,91,126,125,17,32,10,7,0.5,0.6
2022-09-13T18:00:00,1609A,120.8341,40.7073,葫芦岛市,新区,颗粒物(PM10),55,59,54,24,40,139,98,127,127,14,29,16,12,0.6,0.8
2022-09-13T18:00:00,1610A,120.8695,40.7677,葫芦岛市,东城区,,46,46,55,19,33,129,83,117,116,16,30,26,13,0.4,0.5
2022-09-13T18:00:00,1611A,118.5819,24.9117,泉州市,涂山街,,48,48,59,24,28,191,141,163,163,19,23,13,14,0.6,0.7
2022-09-13T18:00:00,1612A,118.5972,24.8978,泉州市,津头埔,颗粒物(PM10),51,52,58,20,23,194,128,157,157,25,26,15,13,0.5,0.5
2022-09-13T18:00:00,1613A,118.6663,24.9424,泉州市,万安,,,35,50,21,29,157,118,135,128,13,22,,10,0.6,0.7
2022-09-13T18:00:00,1614A,118.6117,24.9604,泉州市,清源山(对照点),,,,,,,,,,,,,,,,
2022-09-13T18:00:00,1616A,117.6795,36.229,济南市,技术学院,颗粒物(PM10),51,51,54,10,23,166,144,135,135,16,26,4,5,0.4,0.5
2022-09-13T18:00:00,1618A,118.3429,35.0532,临沂市,沂河小区,,41,41,35,13,15,111,104,104,104,10,13,8,8,0.4,0.4
2022-09-13T18:00:00,1619A,118.295,35.0583,临沂市,鲁南制药厂,,34,29,28,9,13,117,108,108,108,11,15,8,7,0.6,0.6
2022-09-13T18:00:00,1620A,118.2794,34.9976,临沂市,新光毛纺厂,,34,34,30,14,17,116,99,101,101,13,18,6,4,0.5,0.5
2022-09-13T18:00:00,1621A,118.3956,35.0888,临沂市,河东保险公司,,36,36,30,13,19,107,104,102,102,15,20,6,6,0.5,0.5
2022-09-13T18:00:00,1622A,116.3032,37.4674,德州市,儿童乐园,颗粒物(PM10),53,56,73,18,43,187,149,167,167,18,31,8,12,0.5,0.7
2022-09-13T18:00:00,1624A,116.2991,37.4451,德州市,监理站,,,44,73,21,37,199,164,179,179,7,22,,17,0.6,0.9
2022-09-13T18:00:00,1625A,115.9848,36.4372,聊城市,区政府,,,74,83,,45,213,184,194,194,19,33,5,10,0.7,0.9
2022-09-13T18:00:00,1628A,118.0062,37.3803,滨州市,市环保局,,40,31,65,17,38,214,128,148,148,9,20,9,15,0.5,0.8
2022-09-13T18:00:00,1629A,118.0018,37.3617,滨州市,第二水厂,,38,26,57,19,36,164,119,141,139,14,25,7,12,0.4,0.7
2022-09-13T18:00:00,1630A,117.9776,37.393,滨州市,北中新校,,43,43,50,12,32,170,128,146,146,9,21,9,14,0.3,0.6
2022-09-13T18:00:00,1631A,118.0414,36.8103,淄博市,人民公园,,48,48,97,24,65,202,128,150,146,17,49,8,13,0.1,0.8
2022-09-13T18:00:00,1632A,118.0253,36.8406,淄博市,东风化工厂,,,,,,,,,,,,,,,,
2022-09-13T18:00:00,1633A,117.8525,36.4847,淄博市,双山,颗粒物(PM10),54,57,63,26,38,181,134,146,146,19,26,7,10,0.5,0.7
2022-09-13T18:00:00,1634A,117.9592,36.6331,淄博市,气象站,,45,45,101,19,49,217,123,145,142,12,35,9,16,0.4,0.8
2022-09-13T18:00:00,1635A,118.3092,36.8194,淄博市,莆田园,,38,27,84,24,52,198,120,131,131,15,47,4,11,0,1.4
2022-09-13T18:00:00,1636A,117.8661,36.805,淄博市,三金集团,,,,,,,,,,,,,,,,
2022-09-13T18:00:00,1637A,117.558,34.8438,枣庄市,市中区政府,,46,46,51,14,19,153,129,126,126,17,24,7,10,0.4,0.5
2022-09-13T18:00:00,1638A,117.2852,34.7837,枣庄市,薛城环保局,颗粒物(PM10),56,61,57,12,25,137,115,124,124,27,22,14,15,0.5,0.6
2022-09-13T18:00:00,1639A,117.5852,34.7745,枣庄市,峄城区政府,,46,46,49,12,19,143,126,128,128,20,19,13,13,0.5,0.5
2022-09-13T18:00:00,1640A,117.7276,34.5578,枣庄市,台儿庄区环保局,颗粒物(PM10),59,68,48,14,25,129,93,105,105,12,20,11,12,0.5,0.7
2022-09-13T18:00:00,1641A,117.4518,35.0992,枣庄市,山亭区环保局,,40,22,36,15,21,174,127,124,124,15,15,10,12,0.4,0.6
2022-09-13T18:00:00,1642A,121.2514,37.5639,烟台市,开发区,,39,31,36,12,18,133,124,128,128,11,19,6,9,0.6,0.7
2022-09-13T18:00:00,1643A,121.3719,37.5433,烟台市,轴承厂,,,,23,20,18,130,121,126,124,11,8,8,7,0.1,0.1
2022-09-13T18:00:00,1644A,121.3181,37.5436,烟台市,西郊化工站,,38,31,29,17,14,130,119,125,124,16,14,7,10,0.5,0.4
2022-09-13T18:00:00,1645A,121.4478,37.4822,烟台市,莱山环保局,,37,27,20,12,13,133,118,128,126,6,6,6,8,0.4,0.4
2022-09-13T18:00:00,1646A,121.2611,37.4967,烟台市,福山环保局,,41,41,42,17,21,117,104,110,110,18,26,9,9,0.3,0.3
2022-09-13T18:00:00,1648A,119.12,36.7019,潍坊市,仲裁委,,,,,,,,,,,,,,,,
2022-09-13T18:00:00,1650A,119.1437,36.7023,潍坊市,环保局,,43,39,39,20,20,151,135,131,131,6,14,4,5,0.4,0.5
2022-09-13T18:00:00,1652A,119.1936,36.7729,潍坊市,寒亭监测站,,,,,,,,,,,,,,,,
2022-09-13T18:00:00,1653A,116.6251,35.4302,济宁市,火炬城,,40,24,56,0,26,183,127,145,145,2,8,6,12,0.2,0.6
2022-09-13T18:00:00,1655A,116.5491,35.4042,济宁市,电化厂,,42,25,58,9,33,193,134,158,158,14,17,7,12,0.4,0.7
2022-09-13T18:00:00,1656A,117.1437,36.1937,泰安市,监测站,颗粒物(PM10),51,51,70,15,36,158,158,150,150,10,17,8,9,0.1,0.7
2022-09-13T18:00:00,1657A,117.0885,36.2017,泰安市,人口学校,,48,41,65,14,32,152,152,146,142,9,13,7,10,0.2,0.5
2022-09-13T18:00:00,1658A,117.1089,36.1758,泰安市,电力学校,臭氧1小时,52,44,68,20,39,161,161,152,152,10,22,6,9,0.4,0.7
2022-09-13T18:00:00,1659A,119.471,35.4209,日照市,监测站,,34,22,19,13,11,107,107,96,96,13,16,6,7,0.4,0.4
2022-09-13T18:00:00,1660A,119.523,35.4216,日照市,市政府广场,,34,27,19,16,10,107,107,90,90,5,5,3,3,0.5,0.4
2022-09-13T18:00:00,1661A,119.5587,35.4044,日照市,港务局,,37,29,19,17,9,116,116,98,98,3,4,3,3,0.4,0.4
2022-09-13T18:00:00,1662A,122.1214,37.4236,威海市,华夏技校,,36,29,22,17,18,124,115,117,115,9,8,5,5,0.2,0.1
2022-09-13T18:00:00,1663A,122.0508,37.5236,威海市,山大分校,,35,17,18,20,13,131,111,122,118,8,10,3,3,0.5,0.5
2022-09-13T18:00:00,1664A,122.1067,37.5072,威海市,市监测站,,39,24,22,27,21,130,109,120,116,9,8,6,6,0.3,0.3
2022-09-13T18:00:00,1665A,118.5019,37.4658,东营市,西城阳光环保公司,,,,,,,,,,,,,,,,
2022-09-13T18:00:00,1666A,118.6614,37.4309,东营市,市环保局,,45,34,36,19,20,166,142,130,130,6,11,7,12,0.4,0.6
2022-09-13T18:00:00,1669A,113.5824,24.7733,韶关市,市八中,,,56,52,40,30,170,162,160,160,10,20,,16,0.6,0.7
2022-09-13T18:00:00,1670A,113.5556,24.8082,韶关市,碧湖山庄,,,,,,,,,,,,,,,,
2022-09-13T18:00:00,1671A,113.5917,24.7972,韶关市,园林处,颗粒物(PM10),56,62,57,31,37,164,156,153,153,11,22,16,27,0.6,0.7
2022-09-13T18:00:00,1672A,113.6735,24.7791,韶关市,韶关学院,臭氧1小时,58,53,57,38,36,169,166,161,161,10,16,15,14,0.7,0.7
2022-09-13T18:00:00,1673A,113.5971,24.6863,韶关市,曲江监测站,颗粒物(PM10),64,77,57,40,33,182,153,166,166,18,30,12,14,0.8,0.9
2022-09-13T18:00:00,1674A,116.6794,23.3667,汕头市,金平子站,,46,46,59,14,39,169,142,157,157,20,16,9,10,0.7,0.8
2022-09-13T18:00:00,1675A,116.7244,23.3633,汕头市,龙湖子站,臭氧1小时,107,92,70,20,35,213,213,169,169,23,17,9,8,0.8,0.8
2022-09-13T18:00:00,1676A,116.7258,23.2775,汕头市,濠江子站,臭氧1小时,129,74,52,32,39,259,257,208,208,19,15,11,9,0.9,0.9
2022-09-13T18:00:00,1677A,116.7519,23.4714,汕头市,澄海子站,颗粒物(PM10),51,52,61,17,36,153,144,148,148,18,16,10,11,0.8,0.9
2022-09-13T18:00:00,1678A,116.6092,23.2539,汕头市,潮阳子站,臭氧1小时,105,79,60,13,39,210,210,173,173,29,14,13,9,1.2,0.9
2022-09-13T18:00:00,1679A,116.4069,23.2533,汕头市,潮南子站,,,,,,,,,,,,,,,,
2022-09-13T18:00:00,1680A,110.3539,21.2706,湛江市,湛江影剧院,细颗粒物(PM2.5),63,49,59,45,36,172,158,159,159,13,18,10,17,0.6,0.7
2022-09-13T18:00:00,1681A,110.3928,21.2228,湛江市,市环境监测站,臭氧1小时,55,55,60,35,40,174,164,160,160,17,24,12,11,0.7,0.8
2022-09-13T18:00:00,1682A,110.4019,21.1997,湛江市,环保局宿舍,,,61,61,44,42,201,168,174,174,,21,,13,0.8,0.9
2022-09-13T18:00:00,1683A,110.4111,21.2028,湛江市,霞山游泳场,臭氧1小时,107,81,65,56,48,214,214,177,177,18,21,10,12,0.8,0.8
2022-09-13T18:00:00,1684A,110.3316,21.2679,湛江市,麻章区环保局,颗粒物(PM10),53,56,64,28,39,169,143,149,149,19,20,7,11,0.7,0.8
2022-09-13T18:00:00,1685A,110.4558,21.2567,湛江市,坡头区环保局,臭氧1小时,90,71,59,52,42,192,192,167,167,12,19,12,24,0.9,0.8
2022-09-13T18:00:00,1686A,111.0286,21.4688,茂名市,电白南海,细颗粒物(PM2.5),62,66,70,44,42,218,161,167,167,11,24,5,14,0.6,0.7
2022-09-13T18:00:00,1687A,110.9294,21.6533,茂名市,茂石化七小,,,,58,,39,173,,153,153,,21,,20,,1.2
2022-09-13T18:00:00,1688A,110.9107,21.6687,茂名市,健康路,,46,44,55,25,31,163,145,148,148,10,16,11,31,0.7,1.2
2022-09-13T18:00:00,1689A,110.8592,21.6828,茂名市,高岭,,,,54,31,34,150,133,136,136,10,17,7,14,0.7,0.8
2022-09-13T18:00:00,1690A,116.1231,24.3284,梅州市,梅江月梅,,48,34,41,18,24,170,153,159,159,9,20,9,9,0.6,0.6
2022-09-13T18:00:00,1691A,116.0797,24.2719,梅州市,梅县新城,,44,36,43,21,21,144,139,140,140,14,30,8,8,0.6,0.6
2022-09-13T18:00:00,1692A,116.1248,24.2654,梅州市,环境监控中心,,47,34,47,23,26,167,149,153,153,10,30,7,6,0.5,0.5
2022-09-13T18:00:00,1693A,115.3653,22.775,汕尾市,市环保局,细颗粒物(PM2.5),52,45,48,36,31,191,124,133,133,9,12,7,7,0.7,0.7
2022-09-13T18:00:00,1694A,115.3706,22.7898,汕尾市,市政府,,,,46,,28,226,124,169,128,12,12,8,7,0.6,0.9
2022-09-13T18:00:00,1695A,115.3622,22.7925,汕尾市,新城中学,颗粒物(PM10),55,60,57,26,34,229,122,154,128,8,10,9,8,0.8,0.9
2022-09-13T18:00:00,1696A,114.6778,23.7569,河源市,源西(对照点),颗粒物(PM10),53,56,53,31,27,158,124,145,145,11,23,4,6,0.8,0.8
2022-09-13T18:00:00,1697A,114.6944,23.7586,河源市,东埔,,45,41,47,30,27,164,142,152,152,11,20,5,7,0.9,0.9
2022-09-13T18:00:00,1698A,114.6892,23.7233,河源市,老城,,47,47,58,32,26,170,133,150,150,8,18,3,5,0.9,0.9
2022-09-13T18:00:00,1699A,111.9797,21.8593,阳江市,鸳鸯湖(对照点),,,,,,,,,,,,,,,,
2022-09-13T18:00:00,1700A,111.9508,21.8536,阳江市,南恩路,,,,,,,,,,,,,,,,
2022-09-13T18:00:00,1701A,111.9491,21.8658,阳江市,马南垌,细颗粒物(PM2.5),74,46,52,54,38,162,153,135,135,30,21,22,10,1.3,0.9
2022-09-13T18:00:00,1702A,113.0426,23.691,清远市,环保大楼(对照点),臭氧1小时,75,39,44,31,30,234,180,204,204,10,15,4,6,0.8,0.6
2022-09-13T18:00:00,1703A,113.0208,23.7106,清远市,凤城街办,,46,44,48,32,31,185,140,159,159,8,25,7,8,0.9,0.9
2022-09-13T18:00:00,1705A,116.6367,23.6719,潮州市,西园路(对照点),,48,48,50,27,25,132,111,118,118,8,10,7,7,0.6,0.6
2022-09-13T18:00:00,1706A,116.6447,23.6706,潮州市,档案局,,47,42,49,23,20,166,148,157,156,14,16,9,10,0.7,0.7
2022-09-13T18:00:00,1708A,116.3701,23.5345,揭阳市,新兴,颗粒物(PM10),80,110,65,18,36,170,139,154,154,18,17,8,14,0.5,0.8
2022-09-13T18:00:00,1709A,116.3264,23.5443,揭阳市,西马,,48,48,61,16,35,133,124,129,129,8,19,7,12,0.6,0.7
2022-09-13T18:00:00,1710A,116.3611,23.5626,揭阳市,东兴,,39,33,60,20,33,146,122,134,134,8,23,7,13,0.7,0.8
2022-09-13T18:00:00,1711A,116.4151,23.5294,揭阳市,渔湖,颗粒物(PM10),53,56,72,24,42,169,128,146,146,12,24,5,18,0.4,0.7
2022-09-13T18:00:00,1712A,112.0392,22.9169,云浮市,新市府(对照点),,,,,,,,,,,,,,,,
2022-09-13T18:00:00,1713A,112.0369,22.9394,云浮市,市监测站,,,,,,,,,,,,,,,,
2022-09-13T18:00:00,1714A,112.0539,22.9539,云浮市,牧羊,,42,42,66,26,30,173,128,150,147,18,30,18,33,0.6,0.7
2022-09-13T18:00:00,1715A,102.575,24.3711,玉溪市,东风水库,,17,17,14,7,7,70,44,51,51,12,9,5,5,0.7,0.8
2022-09-13T18:00:00,1718A,115.4208,35.2464,菏泽市,气象局,臭氧1小时,74,85,117,45,68,219,179,198,198,12,26,8,9,0.6,0.7
2022-09-13T18:00:00,1719A,115.4747,35.2375,菏泽市,市政协,臭氧1小时,79,80,119,45,64,220,183,204,202,13,25,5,9,0.5,0.6
2022-09-13T18:00:00,1720A,115.455,35.27,菏泽市,菏泽学院,,,,,,,,,,,,,,,,
2022-09-13T18:00:00,1721A,113.3819,40.1097,大同市,果树场(对照点),,,,,,,,,,,,,,,,
2022-09-13T18:00:00,1723A,113.2994,40.0758,大同市,云冈宾馆,颗粒物(PM10),61,71,92,17,28,140,120,131,131,25,45,8,23,0.5,1.3
2022-09-13T18:00:00,1724A,113.3444,40.0917,大同市,大同大学,,39,32,75,16,24,140,124,133,133,10,33,6,32,0.4,0.8
2022-09-13T18:00:00,1725A,113.2661,40.1269,大同市,安家小村,,42,34,88,13,21,145,134,138,138,12,37,11,19,0.3,1.2
2022-09-13T18:00:00,1726A,113.2711,40.0844,大同市,教育学院,,45,45,76,28,30,146,120,123,123,14,41,7,19,0.5,1.2
2022-09-13T18:00:00,1727A,113.1147,36.1547,长治市,清华站,臭氧1小时,53,48,71,27,34,169,162,161,161,17,44,11,15,0.6,0.8
2022-09-13T18:00:00,1728A,113.1031,36.1989,长治市,监测站,臭氧1小时,57,39,65,29,36,169,165,163,163,4,24,10,10,0.4,1.6
2022-09-13T18:00:00,1730A,113.0886,36.2125,长治市,审计局,臭氧1小时,64,40,58,27,35,180,171,174,174,9,23,9,9,0.7,1.8
2022-09-13T18:00:00,1731A,113.0844,36.1856,长治市,长治八中,臭氧1小时,59,47,73,25,33,170,167,163,163,9,30,8,11,0.8,1.2
2022-09-13T18:00:00,1733A,111.5531,36.0783,临汾市,临钢医院,,,72,62,54,37,193,134,154,154,,37,5,5,1.0,1
2022-09-13T18:00:00,1734A,111.5028,36.0714,临汾市,技工学校,细颗粒物(PM2.5),57,46,63,40,38,200,163,172,172,7,34,3,8,0.7,0.8
2022-09-13T18:00:00,1735A,111.5169,36.0822,临汾市,工商学校,,,,,,,,,,,,,,,,
2022-09-13T18:00:00,1736A,111.5018,36.0855,临汾市,市委,,,46,62,33,39,198,161,170,170,8,38,4,7,,1.2
2022-09-13T18:00:00,1738A,113.5758,37.8572,阳泉市,市中心,颗粒物(PM10),71,91,104,47,42,185,166,164,164,20,56,9,17,0.9,1
2022-09-13T18:00:00,1739A,113.4894,37.8731,阳泉市,赛鱼,细颗粒物(PM2.5),73,77,93,53,43,179,164,161,161,20,58,9,10,0.9,1
2022-09-13T18:00:00,1740A,113.5819,37.8486,阳泉市,南庄,细颗粒物(PM2.5),69,80,112,50,47,184,171,168,168,18,44,14,21,0.8,1.2
2022-09-13T18:00:00,1741A,113.6292,37.8531,阳泉市,白羊墅,,,,,,,,,,,,,,,,
2022-09-13T18:00:00,1742A,113.5614,37.8703,阳泉市,平坦,颗粒物(PM10),75,100,100,50,54,173,156,152,152,26,67,7,14,0.9,1.1
2022-09-13T18:00:00,1743A,113.5158,37.8392,阳泉市,大阳泉,臭氧1小时,63,65,77,42,53,199,170,176,175,18,18,9,14,0.9,1
2022-09-13T18:00:00,1744A,118.9233,42.2816,赤峰市,松山一中,,,,,10,13,87,84,72,72,19,23,17,21,0.8,0.7
2022-09-13T18:00:00,1745A,118.9576,42.2728,赤峰市,哈达街,,32,32,41,9,15,100,61,96,66,35,24,40,27,0.7,0.6
2022-09-13T18:00:00,1746A,118.8788,42.2554,赤峰市,天义路,,33,33,30,17,11,116,49,80,64,43,20,48,17,1.2,0.6
2022-09-13T18:00:00,1748A,123.044,41.1196,鞍山市,深沟寺,颗粒物(PM10),53,56,47,30,29,180,116,151,151,14,16,10,12,0.6,0.9
2022-09-13T18:00:00,1749A,123.011,41.0931,鞍山市,太阳城,,45,45,49,22,30,181,124,153,153,13,20,10,15,0.8,1.2
2022-09-13T18:00:00,1750A,123.0485,41.1442,鞍山市,太平,颗粒物(PM10),53,56,63,24,31,177,107,148,148,17,28,10,17,0.8,1.2
2022-09-13T18:00:00,1751A,122.9642,41.0971,鞍山市,铁西三道街,颗粒物(PM10),65,79,86,30,39,177,82,144,143,45,47,29,22,2.3,1.6
2022-09-13T18:00:00,1752A,122.9341,41.0833,鞍山市,铁西工业园区,颗粒物(PM10),56,62,104,24,40,180,110,146,146,22,50,13,22,0.8,1.5
2022-09-13T18:00:00,1753A,123.022,41.0821,鞍山市,明达新区,,46,46,53,22,28,177,118,150,150,18,25,9,15,0.6,1
2022-09-13T18:00:00,1754A,123.1289,41.0228,鞍山市,千山(对照点),,,,,,,,,,,,,,,,
2022-09-13T18:00:00,1755A,123.7977,41.8491,抚顺市,望花区,颗粒物(PM10),52,54,55,19,25,140,100,126,126,20,30,8,8,0.6,0.8
2022-09-13T18:00:00,1756A,123.9161,41.8822,抚顺市,顺城区,颗粒物(PM10),55,60,53,24,25,135,103,125,125,27,32,8,10,0.7,0.8
2022-09-13T18:00:00,1757A,124.0436,41.8611,抚顺市,东洲区,,46,46,46,24,21,140,108,127,127,15,19,4,5,0.9,0.9
2022-09-13T18:00:00,1758A,123.9247,41.8642,抚顺市,新抚区,颗粒物(PM10),51,52,56,23,26,135,113,128,128,16,27,3,5,0.5,0.6
2022-09-13T18:00:00,1759A,124.0972,41.8961,抚顺市,大伙房水库,,43,43,36,27,19,142,106,124,124,14,16,9,8,0.5,0.6
2022-09-13T18:00:00,1760A,123.7086,41.8391,抚顺市,沈抚新城,颗粒物(PM10),56,61,54,19,26,148,106,133,133,7,21,6,9,0.4,0.6
2022-09-13T18:00:00,1761A,123.8275,41.3064,本溪市,大峪,,33,33,38,17,17,123,104,112,112,15,20,8,7,0.7,0.7
2022-09-13T18:00:00,1762A,123.7567,41.3325,本溪市,溪湖,,42,42,59,19,24,136,127,128,128,8,24,8,11,0.7,0.8
2022-09-13T18:00:00,1763A,123.7169,41.3094,本溪市,彩屯,,42,42,46,17,27,121,100,116,116,35,25,12,8,0.8,0.8
2022-09-13T18:00:00,1764A,123.7669,41.2864,本溪市,东明,,44,44,46,20,18,131,113,119,119,20,28,9,8,0.8,0.7
2022-09-13T18:00:00,1765A,123.7992,41.2664,本溪市,新立屯,颗粒物(PM10),57,64,38,20,16,133,93,119,119,14,27,7,7,0.9,0.9
2022-09-13T18:00:00,1766A,123.8142,41.3472,本溪市,威宁,,34,31,39,17,16,114,107,97,97,8,21,7,6,0.7,0.7
2022-09-13T18:00:00,1767A,121.1115,41.0879,锦州市,南山,,48,48,40,18,41,128,100,119,118,22,20,11,8,0.6,0.7
2022-09-13T18:00:00,1768A,121.0533,40.8434,锦州市,开发区,颗粒物(PM10),51,52,57,21,59,139,115,130,130,10,28,11,12,0.8,0.8
2022-09-13T18:00:00,1769A,121.1836,41.1119,锦州市,百股街道,颗粒物(PM10),54,58,49,24,41,134,104,122,122,14,21,8,13,0.7,0.8
2022-09-13T18:00:00,1770A,121.1178,41.1222,锦州市,天安街道,颗粒物(PM10),52,54,49,16,27,128,89,115,114,29,21,14,13,0.7,1
2022-09-13T18:00:00,1771A,121.1303,41.1386,锦州市,北湖公园,,46,46,43,16,31,128,97,117,116,15,14,13,8,0.7,0.8
2022-09-13T18:00:00,1772A,126.54,43.8622,吉林市,哈达湾,,24,14,45,3,25,123,76,83,83,11,21,9,15,0.4,0.8
2022-09-13T18:00:00,1773A,126.5844,43.8358,吉林市,东局子,,23,15,44,5,22,102,71,78,78,14,24,5,9,0.5,0.8
2022-09-13T18:00:00,1774A,126.5052,43.8245,吉林市,电力学院,,23,19,52,11,26,95,73,78,78,13,19,12,15,0.4,0.6
2022-09-13T18:00:00,1775A,126.6133,43.8972,吉林市,江北,,22,22,42,10,26,81,47,69,69,31,18,8,7,0.5,0.7
2022-09-13T18:00:00,1776A,126.555,43.8306,吉林市,江南公园,,21,20,48,8,23,99,67,80,80,17,20,5,11,0.5,0.7
2022-09-13T18:00:00,1778A,126.7061,43.7133,吉林市,丰满(对照点),,,,,,,,,,,,,,,,
2022-09-13T18:00:00,1779A,123.9305,47.3636,齐齐哈尔市,安居小区,,33,33,28,5,5,62,39,54,54,25,14,5,5,0.5,0.3
2022-09-13T18:00:00,1780A,123.9488,47.3386,齐齐哈尔市,中心广场,,26,26,25,2,4,66,44,58,58,20,10,3,3,0.4,0.3
2022-09-13T18:00:00,1781A,123.9483,47.3227,齐齐哈尔市,农牧车辆厂,,22,22,24,2,5,66,55,60,60,6,8,5,5,0.3,0.3
2022-09-13T18:00:00,1783A,123.945,47.2988,齐齐哈尔市,市环境监测站,,28,27,25,19,15,65,55,60,60,10,11,2,3,0.1,0.3
2022-09-13T18:00:00,1784A,129.61,44.561,牡丹江市,环保大楼,,20,18,15,9,10,104,62,82,82,13,16,5,5,0.4,0.4
2022-09-13T18:00:00,1785A,129.6115,44.5782,牡丹江市,文化广场,颗粒物(PM10),51,52,31,23,12,93,42,70,70,32,20,4,3,0.6,0.6
2022-09-13T18:00:00,1786A,129.5904,44.5963,牡丹江市,第一医院,,32,23,19,22,13,83,43,68,68,28,18,10,5,0.7,0.7
2022-09-13T18:00:00,1787A,129.6364,44.6075,牡丹江市,机车工厂,颗粒物(PM10),59,68,32,25,11,88,47,72,72,25,15,28,9,0.3,0.4
2022-09-13T18:00:00,1788A,129.6386,44.5462,牡丹江市,第一中学,,29,29,20,8,12,96,26,74,72,43,13,5,4,0.5,0.4
2022-09-13T18:00:00,1789A,124.81117,46.03138,大庆市,大同区,,,17,14,,,72,65,64,64,8,4,4,4,0.3,0.3
2022-09-13T18:00:00,1790A,125.129,46.533,大庆市,龙凤区,,20,12,14,8,8,67,62,61,61,2,3,3,3,0.3,0.2
2022-09-13T18:00:00,1791A,124.902,46.408,大庆市,红岗区,,20,14,14,4,7,70,64,64,64,3,4,3,2,0.3,0.3
2022-09-13T18:00:00,1792A,125.153,46.586,大庆市,萨尔图区,,20,12,8,4,4,62,61,57,57,3,2,5,5,0,0
2022-09-13T18:00:00,1793A,124.9042,46.6215,大庆市,让胡路区,,,,,,,62,59,57,57,3,3,3,1,0.9,1
2022-09-13T18:00:00,1794A,118.3606,31.3519,芜湖市,监测站,,16,7,35,4,19,137,49,62,61,18,19,5,7,0.3,0.4
2022-09-13T18:00:00,1795A,118.3714,31.4134,芜湖市,科创中心,,22,22,37,6,19,140,41,60,58,24,23,6,7,0.6,0.6
2022-09-13T18:00:00,1796A,118.3673,31.3131,芜湖市,四水厂,,19,1,32,5,19,140,60,70,69,16,18,5,6,0.3,0.4
2022-09-13T18:00:00,1797A,118.4022,31.3839,芜湖市,济民医院(对照点),,,,,,,,,,,,,,,,
2022-09-13T18:00:00,1798A,118.5092,31.6837,马鞍山市,湖东路四小,,15,15,28,10,14,123,41,59,54,26,16,5,6,1.0,0.7
2022-09-13T18:00:00,1799A,118.5024,31.6449,马鞍山市,开发区,,17,17,31,10,17,123,47,65,58,25,18,5,7,0.7,0.7
2022-09-13T18:00:00,1800A,118.5228,31.7231,马鞍山市,慈湖,,17,17,38,10,21,94,41,58,48,32,30,5,6,1.0,0.8
2022-09-13T18:00:00,1801A,118.48,31.6928,马鞍山市,马钢动力厂,,,,,,,,,,,,,,,,
2022-09-13T18:00:00,1802A,118.6245,31.7241,马鞍山市,濮塘(对照点),,13,9,25,5,16,124,39,53,51,16,12,3,4,0.4,0.5
2022-09-13T18:00:00,1803A,115.9872,29.6815,九江市,十里,,38,22,38,8,27,167,120,126,121,12,17,5,9,0.5,0.7
2022-09-13T18:00:00,1804A,115.9584,29.7046,九江市,茅山头,,36,17,39,10,26,160,113,128,115,12,14,5,7,0.6,0.7
2022-09-13T18:00:00,1805A,115.9877,29.7295,九江市,西园,,38,26,47,11,23,159,120,120,118,9,18,8,10,0.6,0.7
2022-09-13T18:00:00,1806A,116.0172,29.6547,九江市,五七二七厂,,36,28,39,17,25,159,114,130,117,4,10,4,7,0.6,0.7
2022-09-13T18:00:00,1808A,115.9114,29.6038,九江市,综合工业园,,33,17,43,9,23,170,105,132,115,18,17,6,8,0.5,0.7
2022-09-13T18:00:00,1809A,116.0721,29.7535,九江市,石化总厂,,38,26,45,15,24,145,120,111,111,10,19,8,9,0.6,0.8
2022-09-13T18:00:00,1810A,115.9773,29.5698,九江市,庐山气象台(对照点),,36,14,32,15,22,177,113,166,118,6,8,13,12,0.4,0.7
2022-09-13T18:00:00,1811A,112.3628,34.6692,洛阳市,中信二小,,,,,,,,,,,,,,,,
2022-09-13T18:00:00,1812A,112.3931,34.6516,洛阳市,市委党校,臭氧1小时,75,71,81,35,40,204,180,176,176,14,36,5,9,0.5,0.6
2022-09-13T18:00:00,1814A,112.4657,34.6871,洛阳市,豫西宾馆,臭氧1小时,80,75,83,43,44,195,184,172,172,16,61,9,12,0.5,0.7
2022-09-13T18:00:00,1815A,112.494,34.6886,洛阳市,河南林校,臭氧1小时,67,66,72,37,37,188,173,164,164,8,32,6,7,0.5,0.7
2022-09-13T18:00:00,1816A,112.3844,34.623,洛阳市,开发区管委会,臭氧1小时,87,61,75,42,40,216,189,186,186,7,23,5,4,0.5,0.5
2022-09-13T18:00:00,1817A,112.4267,34.6258,洛阳市,市委新办公区,细颗粒物(PM2.5),63,74,71,45,41,198,166,169,169,12,23,6,7,0.6,0.6
2022-09-13T18:00:00,1818A,114.4839,36.0621,安阳市,棉研所(对照点),,,,,,,,,,,,,,,,
2022-09-13T18:00:00,1819A,114.3551,36.1017,安阳市,红庙街,臭氧1小时,80,61,74,39,49,198,184,187,187,14,22,7,13,0.4,0.7
2022-09-13T18:00:00,1820A,114.361,36.0681,安阳市,银杏小区,,,102,87,,42,190,180,180,180,5,25,5,11,0.6,0.7
2022-09-13T18:00:00,1824A,114.3389,34.7781,开封市,肿瘤医院,臭氧1小时,113,90,100,56,58,236,226,203,203,15,28,7,8,0.9,0.9
2022-09-13T18:00:00,1826A,114.2885,34.7965,开封市,世纪星幼儿园,臭氧1小时,109,106,102,47,53,219,217,191,191,14,23,10,9,0.7,0.7
2022-09-13T18:00:00,1828A,113.227,35.2125,焦作市,市环保局,臭氧1小时,77,59,72,27,38,193,181,177,177,12,16,4,10,0.4,0.7
2022-09-13T18:00:00,1829A,113.2464,35.1764,焦作市,高新区政府（停运20220628）,,,,,,,,,,,,,,,,
2022-09-13T18:00:00,1830A,113.1992,35.2590,焦作市,影视城(对照点),,,,,,,,,,,,,,,,
2022-09-13T18:00:00,1832A,113.3257,33.742,平顶山市,新华旅馆,细颗粒物(PM2.5),78,99,107,57,64,202,170,183,183,21,39,4,15,0.6,0.6
2022-09-13T18:00:00,1833A,113.2919,33.737,平顶山市,规划设计院,颗粒物(PM10),80,109,105,44,49,196,172,178,178,17,38,5,11,0.6,0.6
2022-09-13T18:00:00,1834A,113.182,33.774,平顶山市,平顶山工学院,臭氧1小时,85,109,91,56,50,211,188,189,189,18,29,4,12,0.5,0.5
2022-09-13T18:00:00,1835A,111.1922,34.7752,三门峡市,市政府,臭氧1小时,90,69,54,43,31,198,192,182,182,14,25,6,7,0.6,0.6
2022-09-13T18:00:00,1836A,111.1587,34.7942,三门峡市,开发区,臭氧1小时,98,77,62,42,32,206,198,188,188,18,18,5,6,0.6,0.6
2022-09-13T18:00:00,1838A,111.143,34.7955,三门峡市,风景区(对照点),,,,,,,,,,,,,,,,
2022-09-13T18:00:00,1839A,111.3009,30.7157,宜昌市,四零三,,,,,,,,,,,,,,,,
2022-09-13T18:00:00,1840A,111.2992,30.6981,宜昌市,白龙岗,颗粒物(PM10),56,61,31,36,18,188,139,146,146,45,18,4,3,0.8,0.6
2022-09-13T18:00:00,1841A,111.3549,30.6465,宜昌市,伍家岗,细颗粒物(PM2.5),58,62,34,41,19,182,156,145,145,40,25,9,8,0.7,0.5
2022-09-13T18:00:00,1842A,111.2628,30.6961,宜昌市,点军区,颗粒物(PM10),69,88,37,46,15,194,144,147,147,58,17,9,8,0.7,0.5
2022-09-13T18:00:00,1843A,111.3275,30.7819,宜昌市,夷陵区,颗粒物(PM10),59,67,38,39,22,172,165,141,141,20,19,7,6,0.6,0.4
2022-09-13T18:00:00,1844A,112.2494,30.3197,荆州市,市图书馆,臭氧1小时,82,62,57,52,38,205,185,194,194,17,16,5,7,0.7,0.7
2022-09-13T18:00:00,1845A,112.2008,30.3544,荆州市,市委党校,臭氧1小时,74,58,59,42,37,199,179,190,190,14,16,5,7,0.9,0.9
2022-09-13T18:00:00,1847A,113.1094,29.3578,岳阳市,南湖风景区,臭氧1小时,95,48,57,30,41,198,196,188,188,11,17,5,13,0.7,0.9
2022-09-13T18:00:00,1848A,113.1493,29.4251,岳阳市,城陵矶,,,53,67,25,36,183,180,172,172,17,27,,14,0.5,0.6
2022-09-13T18:00:00,1849A,113.1497,29.3575,岳阳市,开发区,臭氧1小时,101,54,61,37,38,208,202,198,198,19,24,8,9,0.7,0.6
2022-09-13T18:00:00,1850A,113.2621,29.4758,岳阳市,云溪区,臭氧1小时,78,60,60,33,37,195,182,182,182,11,17,8,12,0.8,0.8
2022-09-13T18:00:00,1851A,112.9943,29.4402,岳阳市,君山区,臭氧1小时,80,56,62,36,44,188,184,179,179,15,18,5,7,0.8,0.9
2022-09-13T18:00:00,1852A,113.2117,29.355,岳阳市,金凤水库(对照点),臭氧1小时,74,60,59,26,34,187,179,178,178,6,11,4,6,0.6,0.7
2022-09-13T18:00:00,1854A,111.6975,28.9703,常德市,市二中,,,66,57,37,38,185,172,167,167,8,12,,9,0.5,0.6
2022-09-13T18:00:00,1857A,111.7158,29.1456,常德市,白鹤山(对照点),臭氧1小时,90,58,51,37,34,194,192,182,182,5,5,4,5,0.5,0.5
2022-09-13T18:00:00,1858A,110.5319,29.1217,张家界市,永定新区,,49,46,52,26,34,154,154,137,137,14,20,4,4,0.4,0.4
2022-09-13T18:00:00,1859A,110.4697,29.1242,张家界市,电业局,,47,32,45,19,29,155,150,142,142,21,17,4,4,0.4,0.4
2022-09-13T18:00:00,1860A,110.5594,29.3547,张家界市,未央路,,48,41,36,27,28,152,152,124,124,7,16,3,3,0.3,0.2
2022-09-13T18:00:00,1861A,110.4417,29.315,张家界市,袁家界(对照点),,50,22,32,34,26,182,158,134,134,13,15,7,9,0.5,0.8
2022-09-13T18:00:00,1862A,110.4144,25.3167,桂林市,电子科大尧山校区(对照点),细颗粒物(PM2.5),59,64,63,42,43,172,158,154,154,10,12,11,16,0.8,0.8
2022-09-13T18:00:00,1863A,110.2819,25.2697,桂林市,监测站,颗粒物(PM10),55,59,75,38,42,157,152,145,145,13,22,11,15,0.7,0.8
2022-09-13T18:00:00,1864A,110.3089,25.2708,桂林市,龙隐路小学,细颗粒物(PM2.5),54,50,66,38,45,157,155,145,145,12,18,19,26,0.9,1
2022-09-13T18:00:00,1865A,110.2869,25.2178,桂林市,八中,颗粒物(PM10),53,55,71,32,46,148,143,133,133,19,25,12,20,0.8,0.9
2022-09-13T18:00:00,1866A,109.2262,21.588,北海市,牛尾岭水库(对照点),颗粒物(PM10),54,57,48,24,31,144,144,124,124,7,13,6,5,0.7,0.6
2022-09-13T18:00:00,1867A,109.1436,21.4086,北海市,海滩公园,臭氧1小时,103,61,48,32,26,223,206,166,166,6,14,6,7,1.1,1.1
2022-09-13T18:00:00,1868A,109.0981,21.4661,北海市,新市环保局,臭氧1小时,82,52,44,39,31,190,185,153,153,8,13,5,8,0.8,0.9
2022-09-13T18:00:00,1869A,109.1778,21.5233,北海市,北海工业园,细颗粒物(PM2.5),64,74,53,46,33,181,168,142,142,8,11,7,9,0.8,0.7
2022-09-13T18:00:00,1870A,109.4856,24.3895,柳州市,柳东小学,细颗粒物(PM2.5),60,51,63,43,57,137,112,112,112,6,10,8,18,0.8,0.9
2022-09-13T18:00:00,1871A,109.4157,24.3277,柳州市,环保监测站,颗粒物(PM10),53,56,63,29,42,126,96,105,105,19,18,11,15,1.0,0.9
2022-09-13T18:00:00,1872A,109.389,24.341,柳州市,河西水厂,颗粒物(PM10),55,59,70,37,48,124,96,102,102,11,19,10,9,1.0,1.1
2022-09-13T18:00:00,1873A,109.4311,24.2921,柳州市,市四中,,,60,66,,48,130,106,107,107,9,16,11,14,0.9,1
2022-09-13T18:00:00,1874A,109.4006,24.3631,柳州市,市九中,细颗粒物(PM2.5),80,98,78,59,53,132,53,100,100,54,20,47,17,3.3,1
2022-09-13T18:00:00,1875A,109.4958,24.3134,柳州市,古亭山,颗粒物(PM10),57,64,58,36,47,137,116,114,114,11,23,10,11,0.9,1
2022-09-13T18:00:00,1876A,109.5078,18.2489,三亚市,河东子站,,32,30,29,22,19,92,80,85,85,3,4,3,3,0.6,0.7
2022-09-13T18:00:00,1877A,109.4964,18.2681,三亚市,河西子站,,,27,28,,12,91,80,84,84,2,3,2,2,0.7,0.7
2022-09-13T18:00:00,1878A,104.7778,31.4741,绵阳市,富乐山,,,36,54,36,46,134,76,78,78,,21,1,3,0.7,0.9
2022-09-13T18:00:00,1879A,104.7563,31.4535,绵阳市,市人大,颗粒物(PM10),56,62,77,34,43,115,65,64,64,11,24,6,7,0.5,0.7
2022-09-13T18:00:00,1880A,104.6697,31.4668,绵阳市,高新区自来水公司,细颗粒物(PM2.5),64,54,72,46,58,122,74,81,80,17,24,5,6,0.6,0.7
2022-09-13T18:00:00,1881A,104.7287,31.5075,绵阳市,三水厂,细颗粒物(PM2.5),55,40,74,39,58,104,69,63,63,16,33,5,5,0.5,0.9
2022-09-13T18:00:00,1882A,104.563,28.793,宜宾市,石马中学(对照点),细颗粒物(PM2.5),69,50,68,50,54,138,124,124,124,7,12,6,7,0.6,0.7
2022-09-13T18:00:00,1883A,104.6201,28.7728,宜宾市,市委,细颗粒物(PM2.5),58,48,61,41,50,133,120,120,120,11,18,7,11,0.6,0.6
2022-09-13T18:00:00,1884A,104.6055,28.793,宜宾市,宜宾四中,细颗粒物(PM2.5),57,46,70,40,58,159,138,142,142,6,12,9,10,0.6,0.7
2022-09-13T18:00:00,1885A,104.639,28.7562,宜宾市,市政府,细颗粒物(PM2.5),57,53,62,40,54,148,138,138,138,5,11,9,11,0.6,0.7
2022-09-13T18:00:00,1886A,104.5742,28.7199,宜宾市,黄金嘴,细颗粒物(PM2.5),63,52,62,45,52,153,138,136,136,6,12,8,12,0.4,0.5
2022-09-13T18:00:00,1888A,101.6891,26.571,攀枝花市,弄弄坪,,42,42,69,20,20,120,120,86,86,15,23,17,17,0.9,1.4
2022-09-13T18:00:00,1889A,101.5769,26.5928,攀枝花市,河门口,,39,11,22,9,13,137,123,104,104,11,18,17,19,1.3,1.6
2022-09-13T18:00:00,1890A,101.7169,26.585,攀枝花市,炳草岗,,43,43,43,19,28,125,124,92,92,15,29,32,31,0.4,0.9
2022-09-13T18:00:00,1891A,101.7369,26.5008,攀枝花市,仁和,,33,17,19,17,19,105,105,83,83,8,9,18,13,0.6,0.7
2022-09-13T18:00:00,1893A,105.4324,28.9634,泸州市,九狮山(对照点),,43,20,38,16,30,137,136,124,124,3,2,8,9,0.3,0.4
2022-09-13T18:00:00,1894A,105.4427,28.9063,泸州市,小市上码头,,48,40,57,27,46,152,152,138,138,7,14,11,16,0.7,0.7
2022-09-13T18:00:00,1895A,105.4241,28.8573,泸州市,兰田宪桥,,47,34,59,24,46,150,150,139,139,5,14,8,13,0.7,0.8
2022-09-13T18:00:00,1896A,105.4379,28.8833,泸州市,市环监站,,45,34,51,30,44,145,144,132,132,4,10,5,12,0.5,0.6
2022-09-13T18:00:00,1897A,104.7547,29.3628,自贡市,大塘山(对照点),,,,,,,,,,,,,,,,
2022-09-13T18:00:00,1900A,104.7692,29.3411,自贡市,春华路,,,,,,,,,,,,,,,,
2022-09-13T18:00:00,1901A,104.4239,31.1208,德阳市,东山公园,,37,37,64,25,49,124,109,100,100,9,18,1,5,0.7,0.8
2022-09-13T18:00:00,1902A,104.3826,31.1317,德阳市,西小区,,47,47,74,24,45,118,89,90,90,13,22,3,9,0.7,0.8
2022-09-13T18:00:00,1903A,104.4053,31.1167,德阳市,市检察院,,,,,,,,,,,,,,,,
2022-09-13T18:00:00,1904A,104.3553,31.1091,德阳市,耐火材料厂,,41,41,75,26,48,119,91,88,88,11,21,4,9,0.6,0.8
2022-09-13T18:00:00,1905A,106.056,30.8064,南充市,西山风景区(对照点),,,,62,,66,124,,129,,,9,,2,,1.0
2022-09-13T18:00:00,1906A,106.0789,30.8023,南充市,南充市委,颗粒物(PM10),60,70,70,36,47,135,132,126,126,5,13,4,4,0.7,0.7
2022-09-13T18:00:00,1907A,106.1031,30.8217,南充市,南充炼油厂,"颗粒物(PM10),细颗粒物(PM2.5)",57,64,79,40,52,163,159,147,147,8,14,6,7,0.4,0.5
2022-09-13T18:00:00,1908A,106.1064,30.7856,南充市,高坪区监测站,细颗粒物(PM2.5),65,56,70,47,53,143,136,129,129,3,18,3,3,0.6,0.8
2022-09-13T18:00:00,1909A,106.0642,30.7636,南充市,嘉陵区环保局,颗粒物(PM10),57,64,68,37,52,134,129,125,125,7,16,4,3,0.6,0.8
2022-09-13T18:00:00,1910A,106.1087,30.8388,南充市,市环境监测站,细颗粒物(PM2.5),63,60,77,45,57,143,134,125,125,4,13,4,7,0.4,0.5
2022-09-13T18:00:00,1911A,106.9222,27.6869,遵义市,丁字口,,43,43,39,21,29,130,111,99,99,1,5,5,6,0.7,0.7
2022-09-13T18:00:00,1912A,106.9242,27.7019,遵义市,凤凰山,,35,26,44,23,34,132,109,97,97,6,11,4,5,0.6,0.7
2022-09-13T18:00:00,1913A,106.8906,27.6486,遵义市,忠庄,,34,32,41,18,24,119,108,94,94,6,11,2,2,0.5,0.6
2022-09-13T18:00:00,1914A,106.9231,27.6506,遵义市,舟水桥,,40,36,42,28,24,131,114,104,104,6,9,2,2,0.3,0.4
2022-09-13T18:00:00,1915A,106.9178,27.72,遵义市,干田坝,,38,38,36,16,24,140,105,98,98,5,9,5,5,0.5,0.6
2022-09-13T18:00:00,1916A,103.7897,25.5035,曲靖市,环境监测站,,28,28,14,9,13,71,67,64,64,10,11,5,4,0.5,0.6
2022-09-13T18:00:00,1917A,103.8,25.5364,曲靖市,烟厂办公区,,23,17,11,8,8,79,71,65,65,5,9,6,5,0.5,0.5
2022-09-13T18:00:00,1918A,108.7197,34.3956,咸阳市,气象站(对照点),颗粒物(PM10),53,55,72,24,34,156,138,137,137,15,40,8,11,0.8,1
2022-09-13T18:00:00,1919A,108.673,34.3155,咸阳市,实验中学,,,52,74,25,39,194,171,166,166,,35,6,10,0.8,1
2022-09-13T18:00:00,1920A,108.7233,34.3617,咸阳市,师范学院,臭氧1小时,52,51,71,24,37,188,161,163,163,11,26,9,11,0.6,0.9
2022-09-13T18:00:00,1922A,109.0656,35.0994,铜川市,党校(对照点),颗粒物(PM10),62,74,54,28,22,132,132,116,116,11,29,8,7,0.7,0.8
2022-09-13T18:00:00,1923A,109.0697,35.0697,铜川市,王益区政府,臭氧1小时,60,40,50,22,27,168,168,157,157,12,21,9,9,0.8,0.9
2022-09-13T18:00:00,1924A,108.9344,34.9058,铜川市,新区管委会,臭氧1小时,60,39,49,30,31,168,168,155,155,12,21,10,9,0.6,0.7
2022-09-13T18:00:00,1925A,108.9589,34.8731,铜川市,新区兰芝公司,,,,,,,,,,,,,,,,
2022-09-13T18:00:00,1926A,109.4131,36.6275,延安市,枣园(对照点),,45,42,30,19,15,177,144,138,138,7,18,6,5,0.6,0.5
2022-09-13T18:00:00,1927A,109.4761,36.6028,延安市,延大医附院,,45,37,32,25,19,180,142,137,137,8,20,6,5,0.4,0.5
2022-09-13T18:00:00,1928A,109.4824,36.5767,延安市,市监测站,,,,,,,,,,,,,,,,
2022-09-13T18:00:00,1929A,109.5056,36.6106,延安市,百米大道,,46,46,40,25,17,171,133,130,130,14,27,7,6,0.4,0.5
2022-09-13T18:00:00,1930A,107.185,34.3063,宝鸡市,庙沟村(对照点),颗粒物(PM10),51,52,53,26,33,136,136,112,112,10,13,6,6,0.5,0.6
2022-09-13T18:00:00,1931A,107.0708,34.3017,宝鸡市,竹园沟,细颗粒物(PM2.5),72,71,55,52,42,102,84,77,77,19,17,8,8,0.7,0.8
2022-09-13T18:00:00,1932A,107.1906,34.3672,宝鸡市,三陆医院,细颗粒物(PM2.5),59,66,69,42,45,156,150,136,136,17,23,7,8,0.6,0.7
2022-09-13T18:00:00,1933A,107.1431,34.3547,宝鸡市,监测站,颗粒物(PM10),59,67,66,35,41,151,133,124,124,27,22,8,8,0.9,0.8
2022-09-13T18:00:00,1934A,107.1186,34.3739,宝鸡市,技工学校,颗粒物(PM10),54,57,67,6,47,157,136,132,132,24,22,6,7,0.7,0.7
2022-09-13T18:00:00,1935A,107.3906,34.3528,宝鸡市,陈仓区环保局家属楼,颗粒物(PM10),66,81,67,37,40,174,169,146,146,20,26,8,8,0.7,0.7
2022-09-13T18:00:00,1936A,107.2058,34.3497,宝鸡市,文理学院,颗粒物(PM10),54,58,60,33,38,164,160,142,142,20,23,7,8,0.7,0.7
2022-09-13T18:00:00,1937A,107.2386,34.3622,宝鸡市,三迪小学,颗粒物(PM10),60,69,65,38,45,143,132,126,126,33,27,8,8,0.7,0.7
2022-09-13T18:00:00,1938A,109.5293,34.5101,渭南市,农科所(对照点),,,,,,,,,,,,,,,,
2022-09-13T18:00:00,1939A,109.4974,34.4877,渭南市,日报社,臭氧1小时,82,70,64,35,42,186,185,163,163,15,31,8,12,0.5,0.6
2022-09-13T18:00:00,1940A,109.4636,34.493,渭南市,体育馆,臭氧1小时,78,44,61,25,39,190,182,165,165,13,36,3,6,0.5,0.6
2022-09-13T18:00:00,1941A,109.4259,34.5023,渭南市,高新一小,颗粒物(PM10),62,74,79,25,44,179,166,157,157,13,29,8,9,0.6,0.7
2022-09-13T18:00:00,1943A,102.1725,38.5339,金昌市,新川苑,颗粒物(PM10),172,294,131,65,37,144,110,122,118,16,14,9,12,0.6,0.7
2022-09-13T18:00:00,1944A,102.1692,38.5167,金昌市,天庆家园,颗粒物(PM10),152,254,125,58,34,140,110,114,114,10,17,10,81,0.9,0.8
2022-09-13T18:00:00,1945A,98.2908,39.7711,嘉峪关市,气象局,颗粒物(PM10),93,136,227,39,63,144,144,130,130,7,15,3,4,0.2,0.5
2022-09-13T18:00:00,1947A,106.3394,38.817,石嘴山市,沙湖旅游区(对照点),颗粒物(PM10),53,56,34,10,14,148,145,144,144,5,11,5,5,0.4,0.5
2022-09-13T18:00:00,1948A,106.3668,39.0145,石嘴山市,大武口朝阳西街,颗粒物(PM10),54,58,43,14,17,135,127,128,128,14,25,23,13,0.5,0.7
2022-09-13T18:00:00,1949A,106.7704,39.2282,石嘴山市,惠农南大街,,42,41,37,14,16,140,132,126,126,13,18,7,8,0.3,0.3
2022-09-13T18:00:00,1950A,106.7099,39.1325,石嘴山市,红果子镇惠新街,颗粒物(PM10),63,76,58,14,15,142,137,127,127,5,23,8,10,0.4,0.5
2022-09-13T18:00:00,1951A,84.895,45.6094,克拉玛依市,长征新村,,36,36,22,4,6,83,82,60,60,8,16,5,4,0.2,0.2
2022-09-13T18:00:00,1952A,84.8988,45.5893,克拉玛依市,南林小区,,25,25,18,9,8,80,74,57,57,16,21,4,4,0.1,0.2
2022-09-13T18:00:00,1953A,85.1186,45.6886,克拉玛依市,白碱滩区,,,,,,,,,,,,,,,,
2022-09-13T18:00:00,1954A,84.905,44.3396,克拉玛依市,独山子区,,47,47,41,14,15,75,65,63,63,17,15,9,8,0.5,0.3
2022-09-13T18:00:00,1955A,85.6979,46.098,克拉玛依市,乌尔禾区商贸楼,,35,35,26,1,9,82,82,62,62,7,13,4,3,0.2,0.2
2022-09-13T18:00:00,1956A,86.1472,41.7538,巴音郭楞州,孔雀公园,,46,46,54,10,11,127,125,117,117,3,2,4,4,0.3,0.3
2022-09-13T18:00:00,1957A,86.1972,41.7166,巴音郭楞州,棉纺厂,,37,33,51,17,18,118,118,110,110,2,4,5,5,0.2,0.2
2022-09-13T18:00:00,1958A,86.2357,41.7173,巴音郭楞州,经济开发区,,,,0,32,16,124,122,111,111,2,3,6,6,0.2,0.2
2022-09-13T18:00:00,1959A,118.746,36.881,寿光市,监测站,,,,,,,,,,,,,,,,
2022-09-13T18:00:00,1960A,118.780,36.864,寿光市,世纪学校,,,,,,,,,,,,,,,,
2022-09-13T18:00:00,1961A,117.532,36.6868,济南市,东山小学,颗粒物(PM10),59,68,82,17,37,202,139,165,165,14,40,5,7,0.3,0.6
2022-09-13T18:00:00,1962A,117.541,36.710,章丘市,明水开发区,,,,,,,,,,,,,,,,
2022-09-13T18:00:00,1963A,120.610,36.440,即墨市,环保局子站,,,,,,,,,,,,,,,,
2022-09-13T18:00:00,1964A,120.470,36.390,即墨市,开发区子站,,,,,,,,,,,,,,,,
2022-09-13T18:00:00,1965A,120.005,35.878,胶南市,JN子站,,,,,,,,,,,,,,,,
2022-09-13T18:00:00,1966A,120.0405,35.8735,青岛市,黄岛区4号,,38,37,29,12,8,128,120,116,116,19,18,5,5,0.6,0.5
2022-09-13T18:00:00,1967A,120.008,36.283,胶州市,胶州环保局,,,,,,,,,,,,,,,,
2022-09-13T18:00:00,1968A,120.014,36.253,胶州市,胶州一中,,,,,,,,,,,,,,,,
2022-09-13T18:00:00,1969A,120.537,36.865,莱西市,环保局子站,,,,,,,,,,,,,,,,
2022-09-13T18:00:00,1970A,120.515,36.885,莱西市,人民广场子站,,,,,,,,,,,,,,,,
2022-09-13T18:00:00,1971A,119.952,36.792,平度市,1号,,,,,,,,,,,,,,,,
2022-09-13T18:00:00,1972A,119.976,36.799,平度市,2号,,,,,,,,,,,,,,,,
2022-09-13T18:00:00,1973A,120.747,37.825,蓬莱市,蓬莱环保局,,,,,,,,,,,,,,,,
2022-09-13T18:00:00,1974A,120.773,37.809,蓬莱市,蓬莱博物馆,,,,,,,,,,,,,,,,
2022-09-13T18:00:00,1975A,120.399,37.374,招远市,招远环保局,,,,,,,,,,,,,,,,
2022-09-13T18:00:00,1976A,120.394,37.364,招远市,招远教育局,,,,,,,,,,,,,,,,
2022-09-13T18:00:00,1977A,119.941,37.177,莱州市,莱州环保局,,,,,,,,,,,,,,,,
2022-09-13T18:00:00,1978A,119.959,37.180,莱州市,莱州外经委,,,,,,,,,,,,,,,,
2022-09-13T18:00:00,1979A,122.471,37.154,荣成市,荣成市环保局办公楼,,,,,,,,,,,,,,,,
2022-09-13T18:00:00,1980A,122.410,37.161,荣成市,山东成山轮胎公司,,,,,,,,,,,,,,,,
2022-09-13T18:00:00,1981A,122.038,37.197,文登市,文登市环保局,,,,,,,,,,,,,,,,
2022-09-13T18:00:00,1982A,122.0693,37.2174,威海市,文登开发区,,36,36,34,17,19,125,100,117,115,16,17,5,5,0.3,0.5
2022-09-13T18:00:00,1983A,121.531,36.913,乳山市,乳山市环保局,,,,,,,,,,,,,,,,
2022-09-13T18:00:00,1984A,121.544,36.907,乳山市,乳山市气象局,,,,,,,,,,,,,,,,
2022-09-13T18:00:00,1985A,120.636,31.155,吴江市,吴江市环保局,,,,,,,,,,,,,,,,
2022-09-13T18:00:00,1986A,120.635,31.170,吴江市,教师进修学校,,,,,,,,,,,,,,,,
2022-09-13T18:00:00,1987A,120.658,31.172,吴江市,吴江开发区,,,,,,,,,,,,,,,,
2022-09-13T18:00:00,1988A,120.953,31.388,昆山市,昆山实验小学,,,,,,,,,,,,,,,,
2022-09-13T18:00:00,1989A,120.999,31.381,昆山市,震川中学,,,,,,,,,,,,,,,,
2022-09-13T18:00:00,1990A,120.758,31.670,常熟市,海虞子站,,,,,,,,,,,,,,,,
2022-09-13T18:00:00,1991A,120.721,31.671,常熟市,兴福子站,,,,,,,,,,,,,,,,
2022-09-13T18:00:00,1992A,120.734,31.656,常熟市,菱塘子站,,,,,,,,,,,,,,,,
2022-09-13T18:00:00,1993A,120.526,31.874,张家港市,张家港市监测站,,,,,,,,,,,,,,,,
2022-09-13T18:00:00,1994A,120.550,31.882,张家港市,城北小学,,,,,,,,,,,,,,,,
2022-09-13T18:00:00,1995A,121.115,31.453,太仓市,太仓市监测站,,,,,,,,,,,,,,,,
2022-09-13T18:00:00,1996A,121.140,31.422,太仓市,科教新城实小,,,,,,,,,,,,,,,,
2022-09-13T18:00:00,1997A,119.146,31.955,句容市,消防指挥中心,,,,,,,,,,,,,,,,
2022-09-13T18:00:00,1998A,119.180,31.955,句容市,房家坝,,,,,,,,,,,,,,,,
2022-09-13T18:00:00,1999A,120.268,31.920,江阴市,虹桥邮政,,,,,,,,,,,,,,,,
2022-09-13T18:00:00,2000A,120.237,31.909,江阴市,五星公园,,,,,,,,,,,,,,,,
2022-09-13T18:00:00,2001A,120.302,31.920,江阴市,第二实验小学,,,,,,,,,,,,,,,,
2022-09-13T18:00:00,2002A,119.818,31.354,宜兴市,宜兴市环保局,,,,,,,,,,,,,,,,
2022-09-13T18:00:00,2003A,119.794,31.371,宜兴市,宜园,,,,,,,,,,,,,,,,
2022-09-13T18:00:00,2004A,119.579,31.751,金坛市,金坛市环境监测站,,,,,,,,,,,,,,,,
2022-09-13T18:00:00,2005A,119.579,31.737,金坛市,金坛市自来水公司,,,,,,,,,,,,,,,,
2022-09-13T18:00:00,2006A,119.460,31.400,溧阳市,溧阳市东门子站,,,,,,,,,,,,,,,,
2022-09-13T18:00:00,2007A,119.438,31.317,溧阳市,燕山子站,,,,,,,,,,,,,,,,
2022-09-13T18:00:00,2008A,121.173,31.896,海门市,海门市监测站,,,,,,,,,,,,,,,,
2022-09-13T18:00:00,2009A,121.1518,31.89708,海门市,社会福利院,,,,,,,,,,,,,,,,
2022-09-13T18:00:00,2010A,119.7183,30.2366,临安市,市政府,,,,,,,,,,,,,,,,
2022-09-13T18:00:00,2011A,119.6942,30.2311,临安市,四中,,,,,,,,,,,,,,,,
2022-09-13T18:00:00,2012A,119.954,30.054,富阳市,监测站,,,,,,,,,,,,,,,,
2022-09-13T18:00:00,2013A,119.946,30.049,富阳市,富春二小,,,,,,,,,,,,,,,,
2022-09-13T18:00:00,2014A,120.091,29.305,义乌市,江东,,,,,,,,,,,,,,,,
2022-09-13T18:00:00,2015A,120.040,29.334,义乌市,北苑,,,,,,,,,,,,,,,,
2022-09-13T18:00:00,2016A,120.251,29.719,诸暨市,图书馆,,,,,,,,,,,,,,,,
2022-09-13T18:00:00,2017A,120.209,29.732,诸暨市,富林印务,,,,,,,,,,,,,,,,
2022-09-13T18:00:00,2018A,121.989,39.625,瓦房店市,抱龙山庄,,,,,,,,,,,,,,,,
2022-09-13T18:00:00,2019A,122.011,39.617,瓦房店市,东山公园,,,,,,,,,,,,,,,,
2022-09-13T18:00:00,2031A,113.1817,27.9958,株洲市,云田中学,臭氧1小时,110,58,59,35,32,224,219,210,210,14,16,6,8,0.7,0.7
2022-09-13T18:00:00,2054A,114.1099,32.1059,信阳市,平桥分局,颗粒物(PM10),58,66,77,27,38,170,157,152,152,16,22,8,9,0.8,1
2022-09-13T18:00:00,2064A,113.9956,32.1271,信阳市,南湾水厂,颗粒物(PM10),58,65,65,29,39,165,159,152,152,13,16,7,8,0.7,0.8
2022-09-13T18:00:00,2065A,114.0775,32.1195,信阳市,市酿酒公司,,50,50,61,29,41,162,147,146,146,14,21,8,8,0.8,0.9
2022-09-13T18:00:00,2066A,114.0609,32.1399,信阳市,审计局,颗粒物(PM10),52,54,69,32,43,168,160,154,154,8,24,5,6,0.8,1
2022-09-13T18:00:00,2067A,114.6613,33.6128,周口市,市环境监测站,颗粒物(PM10),61,71,109,37,56,182,165,170,169,12,16,6,21,0.7,0.7
2022-09-13T18:00:00,2068A,114.6758,33.6347,周口市,周口师范,颗粒物(PM10),64,77,96,34,57,184,168,173,173,13,18,4,14,0.8,0.9
2022-09-13T18:00:00,2069A,114.6546,33.5979,周口市,市运管处,"颗粒物(PM10),臭氧1小时",60,70,96,34,65,186,168,172,172,17,23,7,26,0.8,0.9
2022-09-13T18:00:00,2070A,114.6369,33.6406,周口市,川汇区环保局,颗粒物(PM10),68,86,96,41,54,179,164,168,168,11,17,8,17,0.6,0.7
2022-09-13T18:00:00,2075A,117.6336,24.4674,漳州市,九湖(对照点),,,,,,,,,,,,,,,,
2022-09-13T18:00:00,2160A,112.85,35.5051,晋城市,自来水公司,臭氧1小时,72,48,68,31,42,194,177,181,181,12,30,5,7,0.9,1.3
2022-09-13T18:00:00,2161A,112.8318,35.4936,晋城市,白云商贸,颗粒物(PM10),68,86,81,34,43,181,161,166,166,19,35,4,4,0.6,1
2022-09-13T18:00:00,2162A,112.8508,35.4887,晋城市,市环保局,臭氧1小时,68,60,70,41,45,194,174,176,176,12,36,5,7,0.7,0.9
2022-09-13T18:00:00,2163A,112.8676,35.4897,晋城市,技术学院,臭氧1小时,63,50,55,36,41,188,170,171,171,10,31,4,6,0.5,0.8
2022-09-13T18:00:00,2164A,112.8271,35.4828,晋城市,泽州一中,,,,,,,,,,,,,,,,
2022-09-13T18:00:00,2165A,112.8453,35.546,晋城市,白马寺 (对照点),,,,,,,,,,,,,,,,
2022-09-13T18:00:00,2166A,112.4397,39.3522,朔州市,平朔,细颗粒物(PM2.5),77,85,126,56,40,166,162,144,144,13,54,2,10,0.7,0.7
2022-09-13T18:00:00,2167A,112.4575,39.3617,朔州市,朔唯,"颗粒物(PM10),细颗粒物(PM2.5)",69,88,119,50,39,168,162,146,146,15,53,4,15,0.7,0.6
2022-09-13T18:00:00,2168A,112.4258,39.3197,朔州市,区政府,细颗粒物(PM2.5),74,92,125,54,29,161,161,141,141,16,36,6,12,0.6,0.8
2022-09-13T18:00:00,2169A,112.4072,39.3278,朔州市,市环保局,颗粒物(PM10),60,69,106,34,28,158,158,145,145,16,36,6,13,0.7,0.7
2022-09-13T18:00:00,2170A,112.4272,39.3681,朔州市,市二中,细颗粒物(PM2.5),70,66,146,51,43,162,161,144,144,14,52,6,16,0.9,0.9
2022-09-13T18:00:00,2171A,112.7532,37.6945,晋中市,锦纶小区,臭氧1小时,68,50,78,34,47,192,174,183,183,10,30,8,11,0.4,0.6
2022-09-13T18:00:00,2173A,112.7249,37.7067,晋中市,南都小区,颗粒物(PM10),51,51,87,30,45,182,160,172,172,16,28,7,11,0.4,0.6
2022-09-13T18:00:00,2174A,112.6991,37.6982,晋中市,榆次区政府,颗粒物(PM10),71,91,99,39,47,179,160,170,170,15,28,9,12,0.5,0.7
2022-09-13T18:00:00,2175A,110.9956,35.0147,运城市,运城中学,颗粒物(PM10),68,85,70,42,36,174,172,162,162,8,16,7,11,0.8,1.1
2022-09-13T18:00:00,2176A,111.0233,35.0611,运城市,禹都开发区,,,,,,,,,,,,,,,,
2022-09-13T18:00:00,2178A,110.9686,35.0303,运城市,地区技校,臭氧1小时,93,80,68,37,32,196,194,184,184,9,24,7,12,0.8,1.2
2022-09-13T18:00:00,2179A,111.0414,35.1147,运城市,空港新区,臭氧1小时,90,90,91,54,50,197,192,183,183,12,35,11,37,0.8,1.7
2022-09-13T18:00:00,2181A,112.7383,38.4519,忻州市,开发区,"颗粒物(PM10),细颗粒物(PM2.5)",57,64,59,40,31,165,134,137,137,17,27,7,13,0.7,0.7
2022-09-13T18:00:00,2182A,112.7003,38.4928,忻州市,会展中心,细颗粒物(PM2.5),54,54,57,38,31,171,144,149,149,12,33,7,12,0.6,0.5
2022-09-13T18:00:00,2183A,111.1406,37.5211,吕梁市,环保局,,41,34,65,14,19,160,130,132,132,20,48,5,7,0.3,0.6
2022-09-13T18:00:00,2185A,111.1297,37.5136,吕梁市,自来水公司,,44,43,80,22,21,159,138,136,136,11,36,1,3,0.4,0.5
2022-09-13T18:00:00,2186A,106.8288,39.6778,乌海市,聚英学校,,,,,,,,,,,,,,,,
2022-09-13T18:00:00,2187A,106.8174,39.6973,乌海市,市林业局,,50,50,51,14,17,151,144,144,144,9,16,7,16,0.4,0.5
2022-09-13T18:00:00,2188A,106.7907,39.6667,乌海市,中海勃湾学校,颗粒物(PM10),51,51,55,11,18,152,146,142,142,12,23,9,17,0.5,0.7
2022-09-13T18:00:00,2191A,122.2532,43.6801,通辽市,艺术职业学校,,,23,46,8,11,130,62,70,70,,11,5,5,0.2,0.1
2022-09-13T18:00:00,2192A,119.7594,49.2261,呼伦贝尔市,区环保局,,36,36,61,11,18,86,78,76,76,18,24,5,5,0.5,0.4
2022-09-13T18:00:00,2194A,107.5936,40.916,巴彦淖尔市,秋林养殖基地(对照点),,,,,,,,,,,,,,,,
2022-09-13T18:00:00,2195A,107.4212,40.761,巴彦淖尔市,附二中,,47,47,53,27,29,142,142,134,134,5,11,4,5,0.5,0.6
2022-09-13T18:00:00,2196A,107.37,40.7372,巴彦淖尔市,市环保大楼,,46,35,44,17,27,146,146,138,138,2,8,5,5,0.8,0.8
2022-09-13T18:00:00,2197A,113.1306,40.9923,乌兰察布市,集宁新区,,46,41,37,25,23,145,145,134,134,10,26,9,11,0.4,0.4
2022-09-13T18:00:00,2200A,122.0392,46.0656,兴安盟,胜华新制药厂,,,,26,,11,71,56,65,65,13,11,3,3,,0.2
2022-09-13T18:00:00,2201A,121.9504,46.0741,兴安盟,科右前旗环保局,,24,24,25,13,13,80,67,74,74,11,8,3,4,0.1,0.2
2022-09-13T18:00:00,2202A,116.1042,43.9317,锡林郭勒盟,市环保监测站,,44,31,25,5,7,147,140,128,128,4,3,9,9,0.2,0.2
2022-09-13T18:00:00,2203A,116.0781,43.9311,锡林郭勒盟,市政府,,,34,19,,,142,136,124,124,4,4,9,9,0.3,0.2
2022-09-13T18:00:00,2204A,105.6467,38.8363,阿拉善盟,西城区西花园(对照点),颗粒物(PM10),59,68,40,18,17,169,157,156,156,9,7,8,6,0.3,0.4
2022-09-13T18:00:00,2205A,105.6985,38.8411,阿拉善盟,蒙二幼,"颗粒物(PM10),臭氧1小时",59,68,48,25,26,196,167,171,168,7,7,11,9,0.2,0.3
2022-09-13T18:00:00,2206A,105.724,38.8516,阿拉善盟,环保局新楼,,50,25,19,19,16,172,159,158,158,8,7,9,7,0.3,0.3
2022-09-13T18:00:00,2207A,121.6094,41.998,阜新市,工业园区,,39,39,52,6,30,107,77,77,77,14,21,7,11,0.4,0.6
2022-09-13T18:00:00,2208A,121.6697,42.0279,阜新市,长青街,,31,31,50,16,29,115,76,95,82,13,13,8,12,0.4,0.7
2022-09-13T18:00:00,2209A,121.6673,42.0705,阜新市,农业园区,,31,31,52,6,33,110,70,98,78,13,11,7,10,1.1,0.7
2022-09-13T18:00:00,2210A,121.6717,42.0224,阜新市,东苑,,46,46,68,13,34,106,75,84,81,12,18,7,13,0.4,0.7
2022-09-13T18:00:00,2211A,121.6506,42.0498,阜新市,玉龙新城,,35,35,48,6,32,116,79,83,83,14,16,9,10,0.2,0.5
2022-09-13T18:00:00,2212A,123.2,41.1953,辽阳市,宏伟区,颗粒物(PM10),56,62,60,23,24,164,106,138,138,22,26,10,17,0.7,1.1
2022-09-13T18:00:00,2213A,123.1683,41.2495,辽阳市,新华园,颗粒物(PM10),62,74,74,22,32,159,101,136,136,18,34,9,15,0.7,1.3
2022-09-13T18:00:00,2214A,123.2354,41.2639,辽阳市,滨河路,颗粒物(PM10),59,68,65,21,33,183,117,159,159,17,33,6,12,0.8,1.5
2022-09-13T18:00:00,2215A,123.149,41.2991,辽阳市,铁西工业园,颗粒物(PM10),62,74,74,30,37,179,106,152,152,20,31,7,11,0.6,1.2
2022-09-13T18:00:00,2216A,123.8139,42.3022,铁岭市,汇工街西,,26,26,51,5,23,120,82,102,102,7,26,3,18,0.2,0.5
2022-09-13T18:00:00,2217A,123.8649,42.2923,铁岭市,水上乐园,,33,33,45,8,24,146,84,96,96,20,33,8,10,0.1,0.3
2022-09-13T18:00:00,2218A,123.8486,42.2867,铁岭市,银州路东段,,,7,20,,,133,78,97,97,13,22,6,6,0.8,1
2022-09-13T18:00:00,2219A,123.7153,42.2217,铁岭市,金沙江路北,,32,32,43,7,22,113,81,99,99,9,27,3,6,0.2,0.5
2022-09-13T18:00:00,2220A,120.4318,41.5881,朝阳市,西梁,,,22,60,20,31,125,73,84,84,,9,9,16,0.5,0.7
2022-09-13T18:00:00,2221A,120.4521,41.5646,朝阳市,河畔小区,,41,41,66,18,30,129,74,86,86,7,6,8,11,0.6,0.8
2022-09-13T18:00:00,2222A,120.4176,41.5648,朝阳市,八里堡,颗粒物(PM10),52,54,55,20,32,115,73,84,84,9,9,6,13,0.7,0.9
2022-09-13T18:00:00,2223A,120.3806,41.5969,朝阳市,农业园区,,,,52,26,34,120,77,85,85,,13,8,8,0.6,0.8
2022-09-13T18:00:00,2225A,124.4002,43.1713,四平市,一商场,,23,23,53,5,28,116,63,64,64,19,30,3,5,0.3,0.5
2022-09-13T18:00:00,2226A,124.388,43.193,四平市,境园,,23,23,41,9,18,123,64,64,64,12,20,4,4,0.3,0.5
2022-09-13T18:00:00,2227A,125.1358,42.8845,辽源市,环保局,颗粒物(PM10),52,54,41,21,25,83,78,80,80,17,18,6,8,0.5,0.6
2022-09-13T18:00:00,2229A,125.9358,41.7173,通化市,光明,,33,28,51,12,26,108,103,90,90,16,28,10,32,0.6,1.3
2022-09-13T18:00:00,2230A,125.9446,41.7325,通化市,铁路,,37,28,50,9,23,117,116,98,98,7,22,10,26,0.5,1.2
2022-09-13T18:00:00,2231A,126.4219,41.9171,白山市,喜丰,,46,46,49,16,16,114,94,106,106,19,18,8,11,0.7,0.7
2022-09-13T18:00:00,2232A,126.4077,41.9419,白山市,环保局,,36,36,43,20,16,105,96,100,100,10,17,7,12,0.6,0.6
2022-09-13T18:00:00,2233A,124.8006,45.1214,松原市,江南,,20,12,10,5,5,72,61,66,66,9,5,3,3,0.3,0.3
2022-09-13T18:00:00,2234A,124.7965,45.1722,松原市,江北,,18,7,19,10,7,68,57,63,63,13,10,2,3,0.4,0.3
2022-09-13T18:00:00,2235A,122.7911,45.6077,白城市,洮北区环保局,,21,20,23,7,6,81,66,72,72,8,7,1,2,0.3,0.2
2022-09-13T18:00:00,2236A,122.8738,45.5725,白城市,市环保局,,20,18,25,6,12,70,23,64,60,39,9,7,5,0.3,0.3
2022-09-13T18:00:00,2237A,129.47,42.8883,延边朝鲜族自治州,妇幼医院,,44,44,26,24,14,114,78,105,105,16,11,9,8,0.6,0.5
2022-09-13T18:00:00,2238A,129.5055,42.9108,延边朝鲜族自治州,延边医院,,35,33,29,24,16,114,80,102,102,21,18,8,8,0.7,0.6
2022-09-13T18:00:00,2239A,129.3964,42.8881,延边朝鲜族自治州,朝阳川镇医院,,45,45,20,13,8,115,66,103,102,24,9,6,6,0.6,0.5
2022-09-13T18:00:00,2240A,130.9762,45.3001,鸡西市,环保局,,19,19,24,3,12,67,50,61,61,18,14,1,3,0.3,0.4
2022-09-13T18:00:00,2243A,130.9429,45.3039,鸡西市,第一中学,颗粒物(PM10),62,73,31,6,9,78,66,72,72,4,5,3,4,0.1,0.2
2022-09-13T18:00:00,2244A,130.2537,47.3416,鹤岗市,哈啤分公司,,23,23,13,15,9,83,38,54,52,14,5,5,5,0.4,0.2
2022-09-13T18:00:00,2245A,130.2684,47.3086,鹤岗市,斯达机电,,22,22,19,14,10,104,47,60,56,12,4,3,3,0.2,0.2
2022-09-13T18:00:00,2246A,130.3114,47.3388,鹤岗市,东山纸板厂,颗粒物(PM10),70,90,27,22,15,83,29,58,53,23,4,7,7,0.3,0.3
2022-09-13T18:00:00,2247A,130.1097,47.3382,鹤岗市,五号水库(对照点),,16,16,12,6,8,62,38,59,56,4,3,2,3,0.5,0.5
2022-09-13T18:00:00,2248A,131.1511,46.6937,双鸭山市,双合村,,15,15,20,8,8,111,35,57,54,14,6,7,8,0.1,0.2
2022-09-13T18:00:00,2249A,131.1652,46.6191,双鸭山市,南小市,,41,41,23,9,8,90,39,63,61,23,5,4,4,0.1,0
2022-09-13T18:00:00,2250A,131.1524,46.6554,双鸭山市,环保局,,17,17,22,0,4,87,41,58,57,15,7,2,3,0.1,0.1
2022-09-13T18:00:00,2251A,131.12,46.5656,双鸭山市,苗圃(对照点),,,,16,17,17,86,39,62,60,7,4,7,7,0.5,0.5
2022-09-13T18:00:00,2252A,128.5159,47.4311,伊春市,环保局,,23,23,18,0,6,50,24,44,43,24,6,6,5,0.5,0.2
2022-09-13T18:00:00,2253A,128.9102,47.7412,伊春市,电力嘉园,,25,25,14,11,13,82,16,56,49,26,4,5,6,0.3,0.1
2022-09-13T18:00:00,2254A,129.5029,48.471,伊春市,汤旺河国家公园(对照点),,14,14,13,3,4,50,28,46,44,2,2,5,5,0.2,0.1
2022-09-13T18:00:00,2255A,130.2751,46.8028,佳木斯市,佳纺,,24,24,26,1,8,89,22,56,52,34,9,2,2,0.4,0.3
2022-09-13T18:00:00,2256A,130.3995,46.8307,佳木斯市,发电厂,,15,9,21,10,9,100,44,58,56,19,4,8,1,0.3,0.3
2022-09-13T18:00:00,2257A,130.3258,46.7975,佳木斯市,环保局,,28,28,34,4,8,93,31,51,49,30,10,1,1,0.5,0.3
2022-09-13T18:00:00,2258A,130.3648,46.8032,佳木斯市,十一中,,17,17,25,4,8,99,46,56,55,16,7,4,4,0.4,0.4
2022-09-13T18:00:00,2259A,130.3794,46.7588,佳木斯市,四丰(对照点),,17,17,24,2,15,127,53,71,70,20,8,1,2,0.1,0.4
2022-09-13T18:00:00,2262A,131.0518,45.8751,七台河市,新一中(对照点),,28,28,18,9,11,88,67,79,79,11,17,8,11,0.4,0.6
2022-09-13T18:00:00,2263A,127.4833,50.2524,黑河市,交通局,,16,15,14,11,7,57,38,48,48,24,7,6,8,0.4,0.4
2022-09-13T18:00:00,2264A,127.5144,50.2341,黑河市,环保局,,18,9,10,7,8,58,56,54,54,6,5,6,6,0.4,0.4
2022-09-13T18:00:00,2265A,127.5291,50.2472,黑河市,大黑河岛(对照点),,16,16,14,2,5,59,50,53,53,2,2,5,7,0.2,0.2
2022-09-13T18:00:00,2266A,126.9785,46.6365,绥化市,人和东街,,42,42,26,7,6,73,50,60,60,15,6,10,7,0.6,0.5
2022-09-13T18:00:00,2267A,126.964,46.6528,绥化市,党政办公中心,,33,33,17,7,5,79,38,66,64,28,6,8,7,0.4,0.4
2022-09-13T18:00:00,2269A,124.1069,50.4097,大兴安岭地区,科技局,,16,5,5,8,10,53,50,50,50,4,6,3,4,0.2,0.2
2022-09-13T18:00:00,2270A,117.396,32.939,蚌埠市,工人疗养院,,35,35,46,17,24,110,83,88,88,6,10,9,12,0.2,0.2
2022-09-13T18:00:00,2271A,117.3605,32.9427,蚌埠市,百货大楼,,26,24,38,16,13,111,83,85,85,8,11,7,8,0.3,0.3
2022-09-13T18:00:00,2273A,117.4185,32.8911,蚌埠市,蚌埠学院,,27,27,40,12,20,102,84,91,91,8,25,6,12,0.1,0.2
2022-09-13T18:00:00,2274A,117.3533,32.9673,蚌埠市,淮上区政府,,39,39,40,14,19,116,86,89,89,2,9,7,7,0.3,0.4
2022-09-13T18:00:00,2275A,117.3145,32.8977,蚌埠市,高新区,,31,31,35,14,19,125,92,92,92,12,14,6,7,0.2,0.2
2022-09-13T18:00:00,2277A,116.8305,32.7727,淮南市,潘集区政府,,32,32,45,14,26,127,93,89,89,8,13,8,10,0.1,0.2
2022-09-13T18:00:00,2278A,117.0067,32.6524,淮南市,师范学院,,38,38,57,5,22,121,85,85,85,9,17,6,9,0.4,0.5
2022-09-13T18:00:00,2279A,116.8569,32.5951,淮南市,谢家集区政府,,28,24,46,4,18,131,87,86,86,12,20,8,11,0.3,0.3
2022-09-13T18:00:00,2280A,116.8281,32.633,淮南市,八公山区政府,,29,21,37,6,23,133,90,86,86,10,15,6,8,0.2,0.3
2022-09-13T18:00:00,2281A,116.6325,32.6201,淮南市,焦岗湖风景区管理处(对照点),,26,23,48,5,20,124,82,76,76,10,22,10,12,0.1,0.2
2022-09-13T18:00:00,2282A,116.8004,33.975,淮北市,监测站,,39,28,46,14,24,138,124,118,118,10,8,6,7,0.4,0.5
2022-09-13T18:00:00,2283A,116.8091,33.9007,淮北市,烈山区政府,,45,29,36,10,22,149,142,128,128,5,9,6,6,0.4,0.5
2022-09-13T18:00:00,2284A,116.7856,33.9477,淮北市,职业技术学院,,40,40,46,16,22,124,119,113,113,15,15,7,6,0.4,0.5
2022-09-13T18:00:00,2285A,117.8177,30.9412,铜陵市,市第四中学,,28,28,58,9,32,164,66,90,90,12,27,5,8,0.2,0.6
2022-09-13T18:00:00,2286A,117.8059,30.9273,铜陵市,市公路局,,28,28,61,8,37,165,67,91,88,9,24,7,9,0.2,0.6
2022-09-13T18:00:00,2287A,117.7807,30.9413,铜陵市,市新民污水厂,,25,25,48,1,23,164,66,91,88,10,38,6,8,0.2,0.5
2022-09-13T18:00:00,2288A,117.7439,30.8792,铜陵市,市第九中学,,47,47,70,11,28,140,64,82,82,14,36,12,16,0.3,0.8
2022-09-13T18:00:00,2289A,117.846,30.9413,铜陵市,车站新区,,24,24,61,8,32,154,61,76,76,9,26,3,6,0.2,0.6
2022-09-13T18:00:00,2290A,117.8483,30.97,铜陵市,市职教基地,,22,20,55,4,31,155,68,92,92,10,20,4,6,0.5,0.8
2022-09-13T18:00:00,2291A,117.0809,30.5177,安庆市,环科院,,32,32,48,12,31,178,97,166,136,10,12,6,7,0.5,0.7
2022-09-13T18:00:00,2292A,117.0331,30.5119,安庆市,马山宾馆,,33,27,43,13,27,161,104,135,109,10,13,4,6,0.3,0.5
2022-09-13T18:00:00,2294A,116.9896,30.6145,安庆市,安庆大学,,33,23,44,10,28,171,104,108,108,6,11,5,7,0.4,0.5
2022-09-13T18:00:00,2295A,118.2903,29.6963,黄山市,延安路89号,,26,13,34,3,17,151,81,102,97,6,9,7,8,0.2,0.3
2022-09-13T18:00:00,2296A,118.327,29.7178,黄山市,黄山东路89号,,23,11,33,4,21,144,73,115,91,7,11,7,7,0.0,0.2
2022-09-13T18:00:00,2297A,118.1371,30.2756,黄山市,黄山区政府5号楼,,22,12,49,9,26,165,68,88,87,7,9,7,7,0.3,0.4
2022-09-13T18:00:00,2298A,118.3093,32.3153,滁州市,老年大学,,23,19,23,4,12,89,72,70,70,9,13,6,7,0.1,0.1
2022-09-13T18:00:00,2299A,118.3244,32.2786,滁州市,人大宾馆,,21,6,23,5,12,82,66,68,67,20,15,3,4,0.1,0.1
2022-09-13T18:00:00,2301A,115.8277,32.8929,阜阳市,市监测站,,43,32,54,25,33,183,135,122,122,14,15,8,8,0.4,0.5
2022-09-13T18:00:00,2303A,115.8554,32.8605,阜阳市,开发区,,46,46,58,16,37,163,127,116,116,15,18,4,6,0.5,0.6
2022-09-13T18:00:00,2306A,116.989,33.6306,宿州市,火车站,,,,,,,,,,,,,,,,
2022-09-13T18:00:00,2307A,116.5079,31.737,六安市,监测大楼,,35,35,32,8,13,151,99,89,89,3,9,5,8,0.2,0.3
2022-09-13T18:00:00,2308A,116.4738,31.7643,六安市,皖西学院,,34,30,38,5,14,162,108,97,97,1,8,4,7,0.2,0.3
2022-09-13T18:00:00,2309A,116.4996,31.7905,六安市,朝阳厂,,32,32,32,11,14,150,101,91,91,3,6,12,11,0.3,0.4
2022-09-13T18:00:00,2310A,116.5567,31.7886,六安市,开发区,,30,23,39,12,21,134,96,88,88,8,12,7,7,0.3,0.4
2022-09-13T18:00:00,2311A,115.8072,33.8399,亳州市,污水处理厂,,,42,70,24,45,147,143,133,133,,10,4,11,0.4,0.5
2022-09-13T18:00:00,2312A,115.7789,33.8518,亳州市,三国揽胜宫,,45,43,65,25,48,167,142,128,128,6,10,4,7,0.6,0.7
2022-09-13T18:00:00,2314A,117.47,30.6618,池州市,池州学院,,23,16,51,10,31,168,71,102,102,9,20,3,12,0.3,0.6
2022-09-13T18:00:00,2315A,117.4974,30.6539,池州市,平天湖(对照点),,,,,,,,,,,,,,,,
2022-09-13T18:00:00,2316A,118.7581,30.9454,宣城市,鳌峰子站,,20,4,34,4,19,127,64,63,63,10,13,12,7,0.2,0.3
2022-09-13T18:00:00,2317A,118.7385,30.9743,宣城市,敬亭山子站,,20,9,31,3,18,114,61,65,64,16,19,7,7,0.2,0.2
2022-09-13T18:00:00,2318A,118.7173,30.9427,宣城市,开发区子站,,25,4,30,3,20,132,77,74,74,12,14,9,6,0.2,0.3
2022-09-13T18:00:00,2319A,119.0141,25.4325,莆田市,荔城区仓后路,颗粒物(PM10),52,54,42,34,22,156,156,133,133,15,15,5,5,0.6,0.7
2022-09-13T18:00:00,2320A,119.0015,25.4553,莆田市,莆田市监测站,臭氧1小时,52,49,33,32,19,168,161,140,140,13,5,8,7,0.7,0.6
2022-09-13T18:00:00,2321A,119.1119,25.4561,莆田市,涵江区六中,,45,42,32,26,20,157,142,138,138,5,7,6,6,0.7,0.7
2022-09-13T18:00:00,2322A,119.1013,25.3215,莆田市,秀屿区政府,,48,28,34,24,22,159,153,138,138,4,9,7,9,0.7,0.7
2022-09-13T18:00:00,2323A,118.981,25.4792,莆田市,东圳水库(对照点),,,,,,,,,,,,,,,,
2022-09-13T18:00:00,2324A,117.6211,26.2625,三明市,三钢,,47,39,47,30,31,201,150,172,170,12,20,4,7,0.5,0.6
2022-09-13T18:00:00,2325A,117.635,26.2714,三明市,三明二中,,44,33,41,29,28,188,139,162,162,13,19,4,7,0.7,0.9
2022-09-13T18:00:00,2326A,117.6028,26.2378,三明市,三元区政府,,46,46,43,26,32,185,137,160,160,17,18,5,8,0.6,0.7
2022-09-13T18:00:00,2327A,117.7275,26.3108,三明市,洋溪(对照点),,,,,,,,,,,,,,,,
2022-09-13T18:00:00,2331A,118.0966,26.6761,南平市,茫荡山(对照点),,,,,,,,,,,,,,,,
2022-09-13T18:00:00,2332A,118.1681,26.6369,南平市,南平市监测站,,48,34,38,30,24,166,151,158,158,8,20,6,7,0.4,0.5
2022-09-13T18:00:00,2333A,118.1825,26.6489,南平市,南平铝业有限公司,,49,36,38,24,21,165,154,157,157,6,16,4,6,0.7,0.7
2022-09-13T18:00:00,2334A,118.1756,26.6272,南平市,南平七中,臭氧1小时,53,38,36,26,26,172,162,167,166,8,15,10,8,0.6,0.6
2022-09-13T18:00:00,2335A,117.0189,25.1181,龙岩市,龙岩师专(对照点),,,,,,,,,,,,,,,,
2022-09-13T18:00:00,2336A,117.0217,25.1033,龙岩市,龙岩市监测站,,44,28,52,27,22,169,138,150,150,11,28,6,9,0.4,0.6
2022-09-13T18:00:00,2337A,117.0258,25.0661,龙岩市,闽西职业技术学院,,44,34,53,22,25,182,138,156,156,11,26,6,24,0.5,0.5
2022-09-13T18:00:00,2338A,117.0196,25.0306,龙岩市,龙岩学院,,43,38,36,25,23,179,137,155,155,12,15,2,6,0.5,0.4
2022-09-13T18:00:00,2339A,119.5001,26.6946,宁德市,金涵水库(对照点),,,,,,,,,,,,,,,,
2022-09-13T18:00:00,2341A,119.5388,26.6612,宁德市,宁德市监测站,,23,10,28,12,17,112,72,98,93,10,13,5,5,0.4,0.5
2022-09-13T18:00:00,2342A,117.3102,29.3867,景德镇市,王港中学(对照点),,32,21,42,14,26,116,102,110,110,5,6,3,4,0.4,0.5
2022-09-13T18:00:00,2343A,117.2117,29.2933,景德镇市,老干部活动中心,,43,43,61,25,27,159,113,122,110,6,13,7,9,0.5,0.6
2022-09-13T18:00:00,2344A,117.1894,29.2789,景德镇市,兽医站,,36,27,45,12,32,167,115,136,119,11,12,4,5,0.5,0.6
2022-09-13T18:00:00,2345A,117.1547,29.2617,景德镇市,台达陶瓷,,35,31,44,16,27,160,111,128,117,10,9,7,7,0.6,0.7
2022-09-13T18:00:00,2346A,117.2461,29.2956,景德镇市,陶研所,,39,39,51,18,26,158,118,116,116,3,12,5,5,0.5,0.6
2022-09-13T18:00:00,2347A,114.0997,27.5002,萍乡市,武功山(对照点),,49,30,31,19,21,163,154,154,154,7,9,13,15,0.4,0.4
