timepoint,stationcode,longitude,latitude,area,positionname,primarypollutant,aqi,pm10,pm10_24h,pm2_5,pm2_5_24h,o3,o3_24h,o3_8h,o3_8h_24h,no2,no2_24h,so2,so2_24h,co,co_24h
2023-07-27T03:00:00,1001A,116.3621,39.8784,北京市,万寿西宫,细颗粒物(PM2.5),52,48,54,36,36,170,26,29,28,46,18,3,3,0.8,0.8
2023-07-27T03:00:00,1002A,116.2202,40.2915,北京市,定陵,,23,23,34,0,25,205,58,52,52,6,8,3,3,0.5,0.6
2023-07-27T03:00:00,1003A,116.4174,39.9289,北京市,东四,细颗粒物(PM2.5),52,48,50,36,36,193,61,69,62,34,20,3,3,0.6,0.7
2023-07-27T03:00:00,1004A,116.4072,39.8863,北京市,天坛,,39,39,54,24,34,181,5,20,11,36,20,3,3,0.8,0.7
2023-07-27T03:00:00,1005A,116.462,39.9365,北京市,农展馆,,46,44,54,32,31,222,28,33,25,60,24,3,3,0.6,0.7
2023-07-27T03:00:00,1006A,116.3392,39.9295,北京市,官园,,45,38,44,31,39,217,24,57,40,49,20,3,3,0.6,0.5
2023-07-27T03:00:00,1007A,116.2878,39.9611,北京市,海淀万柳,,46,46,54,32,39,186,40,67,51,33,23,1,3,0.4,0.6
2023-07-27T03:00:00,1008A,116.6636,40.135,北京市,顺义新城,,,31,17,20,11,,,,,2,2,,,,
2023-07-27T03:00:00,1009A,116.6275,40.3275,北京市,怀柔镇,,39,38,46,27,29,203,52,76,60,10,11,3,3,0.7,0.9
2023-07-27T03:00:00,1010A,116.2296,40.217,北京市,昌平镇,,30,30,47,16,30,196,59,59,59,29,9,3,1,0.4,0.6
2023-07-27T03:00:00,1011A,116.3966,39.9821,北京市,奥体中心,细颗粒物(PM2.5),57,40,38,40,28,184,21,81,48,78,31,3,3,0.6,0.6
2023-07-27T03:00:00,1012A,116.184,39.9136,北京市,古城,,45,45,53,28,38,173,27,38,31,28,20,3,3,0.5,0.6
2023-07-27T03:00:00,1015A,117.1444,39.1661,天津市,勤俭道,细颗粒物(PM2.5),60,64,50,43,31,232,109,103,103,15,18,5,5,0.7,0.8
2023-07-27T03:00:00,1017A,117.237,39.1082,天津市,大直沽八号路,细颗粒物(PM2.5),79,82,58,58,40,204,64,97,84,23,22,2,2,0.6,0.7
2023-07-27T03:00:00,1018A,117.202,39.0927,天津市,前进道,细颗粒物(PM2.5),73,66,47,53,32,208,78,104,94,24,20,4,4,0.6,0.7
2023-07-27T03:00:00,1019A,117.1837,39.2133,天津市,淮河道,细颗粒物(PM2.5),69,77,61,50,38,238,37,68,56,49,31,5,6,0.9,0.9
2023-07-27T03:00:00,1021A,117.307,39.0877,天津市,跃进路,细颗粒物(PM2.5),63,57,54,45,34,248,82,104,88,23,22,6,6,0.6,0.8
2023-07-27T03:00:00,1023A,117.707,39.0343,天津市,第四大街,,35,35,58,21,34,203,96,99,98,20,32,4,4,0.5,0.7
2023-07-27T03:00:00,1024A,117.457,38.8394,天津市,永明路,,39,33,42,24,29,197,123,115,115,7,12,7,4,0.6,0.7
2023-07-27T03:00:00,1026A,117.764,39.1587,天津市,汉北路,,45,45,59,28,44,191,72,76,68,26,11,3,3,0.8,0.8
2023-07-27T03:00:00,1027A,117.157,38.9194,天津市,团泊洼,,,29,42,35,26,222,60,87,71,,14,1,2,0.3,0.5
2023-07-27T03:00:00,1029A,114.4422,38.0444,石家庄市,职工医院,颗粒物(PM10),55,60,47,27,23,217,66,84,75,24,16,3,3,0.5,0.6
2023-07-27T03:00:00,1030A,114.6063,38.0266,石家庄市,高新区,颗粒物(PM10),54,58,55,30,28,230,87,111,99,20,17,1,1,0.4,0.5
2023-07-27T03:00:00,1031A,114.4898,38.1328,石家庄市,西北水源,,43,43,37,29,31,241,68,100,84,26,15,1,2,0.5,0.4
2023-07-27T03:00:00,1032A,114.4586,38.0058,石家庄市,西南高教,颗粒物(PM10),52,53,42,26,18,213,53,73,62,24,12,3,3,0.5,0.6
2023-07-27T03:00:00,1033A,114.5331,38.0178,石家庄市,世纪公园,,47,47,44,26,22,220,82,88,86,19,14,4,5,0.5,0.5
2023-07-27T03:00:00,1034A,114.509,38.0457,石家庄市,人民会堂,颗粒物(PM10),51,51,49,22,22,240,82,98,91,19,14,3,2,0.4,0.4
2023-07-27T03:00:00,1035A,114.3524,37.8911,石家庄市,封龙山,,43,43,50,16,23,202,136,138,137,8,11,8,6,1.0,0.8
2023-07-27T03:00:00,1037A,118.131,39.6363,唐山市,雷达站,颗粒物(PM10),60,70,74,41,49,201,64,86,75,12,16,2,2,0.6,1
2023-07-27T03:00:00,1038A,118.1725,39.6334,唐山市,物资局,细颗粒物(PM2.5),72,56,69,52,48,206,52,72,62,14,13,1,2,0.6,1
2023-07-27T03:00:00,1040A,118.1705,39.6506,唐山市,十二中,细颗粒物(PM2.5),73,59,72,53,54,205,59,77,68,9,13,3,2,0.6,0.9
2023-07-27T03:00:00,1041A,118.1869,39.622,唐山市,小山,颗粒物(PM10),54,58,71,34,42,201,48,69,58,14,10,2,3,0.6,1
2023-07-27T03:00:00,1042A,119.5134,39.8207,秦皇岛市,北戴河环保局,,31,24,36,7,16,153,98,120,107,9,14,4,4,0.6,0.7
2023-07-27T03:00:00,1043A,119.7493,40.0116,秦皇岛市,第一关,,36,33,42,25,28,157,87,103,94,6,20,2,2,0.3,0.5
2023-07-27T03:00:00,1044A,119.5897,39.9499,秦皇岛市,监测站,,40,32,50,28,40,154,92,107,101,11,21,5,6,0.3,0.5
2023-07-27T03:00:00,1046A,119.5251,39.9041,秦皇岛市,建设大厦,,30,29,53,17,23,175,96,114,106,7,18,4,5,0.3,0.5
2023-07-27T03:00:00,1048A,114.5302,36.6116,邯郸市,东污水处理厂,细颗粒物(PM2.5),62,61,38,44,25,167,55,88,71,22,12,2,4,0.5,0.5
2023-07-27T03:00:00,1049A,114.4918,36.5713,邯郸市,矿院,细颗粒物(PM2.5),67,55,36,48,25,156,48,76,60,27,14,7,7,0.6,0.6
2023-07-27T03:00:00,1050A,114.484,36.6133,邯郸市,丛台公园,"颗粒物(PM10),细颗粒物(PM2.5)",52,53,33,36,21,164,65,82,75,20,12,7,6,0.6,0.6
2023-07-27T03:00:00,1051A,115.493,38.8632,保定市,游泳馆,,43,39,37,30,23,158,45,72,57,15,14,8,8,0.3,0.2
2023-07-27T03:00:00,1052A,115.5213,38.8959,保定市,华电二区,,50,50,52,21,20,177,74,98,84,15,17,4,4,0.3,0.4
2023-07-27T03:00:00,1053A,115.4713,38.9108,保定市,接待中心,颗粒物(PM10),65,80,52,28,21,172,34,88,61,30,16,3,3,0.5,0.5
2023-07-27T03:00:00,1054A,115.4612,38.8416,保定市,地表水厂,颗粒物(PM10),55,60,57,30,23,170,57,85,70,26,19,8,8,0.6,0.5
2023-07-27T03:00:00,1056A,115.5086,38.8639,保定市,监测站,,45,45,50,31,33,188,84,98,90,14,22,7,6,0.4,0.4
2023-07-27T03:00:00,1057A,114.8883,40.8336,张家口市,人民公园,,36,19,28,19,13,174,115,126,122,1,7,3,2,0.2,0.3
2023-07-27T03:00:00,1059A,114.8687,40.8042,张家口市,五金库,,38,12,41,6,19,168,119,133,127,7,13,1,1,0.2,0.4
2023-07-27T03:00:00,1060A,114.8902,40.762,张家口市,世纪豪园,,29,17,34,14,22,173,90,124,113,30,13,3,5,0.1,0.2
2023-07-27T03:00:00,1061A,114.8916,40.8661,张家口市,北泵房,,37,29,39,12,19,182,116,125,121,3,8,8,9,0.6,0.7
2023-07-27T03:00:00,1062A,117.9531,40.9081,承德市,铁路,颗粒物(PM10),59,67,49,38,28,173,114,128,119,20,20,6,7,0.6,0.6
2023-07-27T03:00:00,1063A,117.9392,40.9763,承德市,中国银行,颗粒物(PM10),52,53,45,34,24,189,47,52,48,19,16,6,7,0.7,0.6
2023-07-27T03:00:00,1064A,117.9503,40.928,承德市,开发区,,45,45,41,31,22,184,123,122,122,17,21,8,8,0.6,0.6
2023-07-27T03:00:00,1065A,117.8051,40.9655,承德市,文化中心,细颗粒物(PM2.5),55,57,47,39,24,192,34,40,38,31,22,8,11,0.7,0.6
2023-07-27T03:00:00,1066A,117.9268,41.0026,承德市,离宫,颗粒物(PM10),56,61,40,32,21,171,33,40,37,10,8,4,5,0.7,0.6
2023-07-27T03:00:00,1067A,116.6708,39.5111,廊坊市,药材公司,细颗粒物(PM2.5),55,52,64,39,38,187,43,63,49,35,21,2,2,0.4,0.5
2023-07-27T03:00:00,1068A,116.7214,39.5589,廊坊市,开发区,,43,33,46,30,34,179,12,25,18,39,19,1,2,0.6,0.6
2023-07-27T03:00:00,1070A,116.7244,39.5269,廊坊市,北华航天学院,,48,48,63,32,47,187,18,35,28,47,22,4,4,0.5,0.5
2023-07-27T03:00:00,1071A,116.8842,38.2991,沧州市,沧县城建局,,38,29,42,26,22,186,107,108,108,16,20,7,5,0.4,0.4
2023-07-27T03:00:00,1072A,116.8584,38.3254,沧州市,电视转播站,,38,27,38,24,24,174,120,125,119,15,16,7,6,0.4,0.4
2023-07-27T03:00:00,1073A,116.8709,38.3228,沧州市,市环保局,,37,29,41,22,25,168,116,115,114,16,21,3,5,0.2,0.2
2023-07-27T03:00:00,1074A,115.6838,37.7541,衡水市,电机北厂,,41,41,33,23,18,170,95,94,94,9,5,6,4,0.6,0.5
2023-07-27T03:00:00,1075A,115.6303,37.7316,衡水市,市监测站,,47,47,43,25,22,167,74,96,85,15,10,8,7,0.6,0.5
2023-07-27T03:00:00,1077A,114.4704,37.0886,邢台市,达活泉,颗粒物(PM10),57,64,49,26,19,216,73,93,85,20,14,9,11,0.9,1.1
2023-07-27T03:00:00,1078A,114.5062,37.0349,邢台市,邢师高专,颗粒物(PM10),57,64,46,37,22,210,17,48,38,66,26,5,8,0.5,0.6
2023-07-27T03:00:00,1079A,114.5237,37.0851,邢台市,路桥公司,"颗粒物(PM10),细颗粒物(PM2.5)",57,63,44,40,23,212,31,69,55,43,19,1,5,0.5,0.5
2023-07-27T03:00:00,1080A,114.4725,37.0719,邢台市,市环保局,颗粒物(PM10),55,60,50,34,22,226,75,96,85,30,23,6,8,0.8,0.8
2023-07-27T03:00:00,1081A,112.522,37.8873,太原市,尖草坪,颗粒物(PM10),57,63,50,32,24,191,137,152,145,20,17,7,7,0.8,0.8
2023-07-27T03:00:00,1083A,112.434,38.0108,太原市,上兰,,,,45,,25,157,,155,,,9,,5,,0.6
2023-07-27T03:00:00,1084A,112.469,37.7124,太原市,晋源,颗粒物(PM10),52,53,51,23,25,178,110,115,111,19,17,9,8,0.8,0.7
2023-07-27T03:00:00,1085A,112.5583,37.7394,太原市,小店,颗粒物(PM10),58,66,50,31,24,166,124,129,126,19,16,7,6,0.7,0.6
2023-07-27T03:00:00,1086A,112.5369,37.8692,太原市,桃园,颗粒物(PM10),58,65,51,36,26,184,114,127,121,31,20,5,6,0.8,0.8
2023-07-27T03:00:00,1087A,112.57,37.8195,太原市,坞城,,43,37,43,24,22,176,135,145,140,11,16,6,6,0.7,0.8
2023-07-27T03:00:00,1088A,112.549,37.9854,太原市,南寨,颗粒物(PM10),53,56,52,32,28,204,85,134,114,27,21,4,6,0.8,0.8
2023-07-27T03:00:00,1090A,111.6507,40.7517,呼和浩特市,呼市一监,,36,36,31,19,18,158,74,91,84,30,21,8,9,0.6,0.6
2023-07-27T03:00:00,1091A,111.6572,40.8033,呼和浩特市,小召,,39,39,31,22,20,152,78,106,93,36,26,8,8,0.7,0.7
2023-07-27T03:00:00,1094A,111.7516,40.8369,呼和浩特市,如意水处理厂,,41,41,34,18,16,175,78,83,75,32,21,8,8,0.5,0.5
2023-07-27T03:00:00,1095A,111.7276,40.8062,呼和浩特市,二十九中,,42,42,32,25,20,169,75,89,80,33,22,7,8,0.6,0.6
2023-07-27T03:00:00,1096A,111.5512,40.7866,呼和浩特市,工大金川校区,颗粒物(PM10),51,51,44,22,21,154,76,64,64,28,29,6,7,0.6,0.6
2023-07-27T03:00:00,1097A,111.717,40.7612,呼和浩特市,化肥厂生活区,,41,41,39,18,16,136,86,90,89,25,27,7,5,0.6,0.6
2023-07-27T03:00:00,1098A,123.6836,41.9339,沈阳市,森林路,,,,33,,28,66,,80,,,19,,4,,0.9
2023-07-27T03:00:00,1099A,123.505,41.7406,沈阳市,浑南东路,,27,27,34,14,18,146,50,48,48,27,27,3,4,0.8,0.9
2023-07-27T03:00:00,1100A,123.4231,41.6989,沈阳市,新秀街,,36,36,34,15,15,140,59,65,62,15,22,38,9,0.6,0.7
2023-07-27T03:00:00,1102A,123.5903,41.8411,沈阳市,东陵路,,29,29,36,12,16,170,49,57,53,16,16,5,7,0.5,0.7
2023-07-27T03:00:00,1103A,123.4264,41.8467,沈阳市,陵东街,,22,20,27,10,18,179,70,70,70,12,17,6,7,0.6,0.8
2023-07-27T03:00:00,1104A,123.4114,41.7653,沈阳市,文化路,,25,25,37,13,17,158,66,69,68,13,19,11,9,0.6,0.8
2023-07-27T03:00:00,1105A,123.4678,41.7867,沈阳市,小河沿,,21,20,31,10,17,147,66,64,64,13,18,7,6,0.7,0.9
2023-07-27T03:00:00,1106A,123.4017,41.7972,沈阳市,太原街,,22,20,28,14,20,162,70,70,70,13,21,6,7,0.5,0.6
2023-07-27T03:00:00,1108A,123.3783,41.9228,沈阳市,京沈街,,24,22,38,15,24,199,76,84,79,9,18,9,9,0.4,0.7
2023-07-27T03:00:00,1109A,121.612,38.9741,大连市,甘井子,,17,12,19,3,14,140,52,65,61,12,18,4,4,0.5,0.5
2023-07-27T03:00:00,1110A,121.565,38.9511,大连市,周水子,,13,12,19,8,16,129,41,49,45,12,17,4,4,0.2,0.3
2023-07-27T03:00:00,1111A,121.5637,38.8845,大连市,星海三站,,14,14,19,6,15,111,30,37,33,12,12,8,10,0.4,0.5
2023-07-27T03:00:00,1112A,121.6302,38.9117,大连市,青泥洼桥,,11,9,18,6,13,120,33,38,36,12,12,4,5,0.5,0.6
2023-07-27T03:00:00,1113A,121.6251,38.8638,大连市,傅家庄,,20,20,24,6,14,124,42,57,48,14,12,7,7,0.4,0.5
2023-07-27T03:00:00,1114A,121.5213,38.8661,大连市,七贤岭,,,16,20,4,14,140,,78,78,13,11,5,5,0.1,0.2
2023-07-27T03:00:00,1115A,121.2529,38.8061,大连市,旅顺,,19,19,23,10,16,139,39,61,49,17,15,4,4,0.2,0.3
2023-07-27T03:00:00,1116A,121.7485,39.1311,大连市,金州,,11,10,18,5,15,123,35,47,38,12,12,10,10,0.5,0.6
2023-07-27T03:00:00,1117A,121.7811,39.0496,大连市,开发区,,20,20,24,6,15,126,30,41,35,15,16,6,6,0.5,0.6
2023-07-27T03:00:00,1118A,121.9762,39.0631,大连市,双D港,,16,16,22,3,11,105,21,25,22,19,16,6,6,0.3,0.4
2023-07-27T03:00:00,1119A,125.3325,43.9166,长春市,食品厂,,38,38,41,18,17,118,105,110,109,12,21,4,4,0.6,0.6
2023-07-27T03:00:00,1120A,125.2863,43.9027,长春市,客车厂,,34,32,31,19,17,120,108,108,108,8,17,4,4,0.6,0.6
2023-07-27T03:00:00,1121A,125.2841,43.8463,长春市,邮电学院,,32,32,28,14,15,123,102,121,115,5,9,4,4,0.4,0.5
2023-07-27T03:00:00,1122A,125.3716,43.8772,长春市,劳动公园,,29,29,31,13,15,118,87,114,105,9,12,5,5,0.6,0.5
2023-07-27T03:00:00,1123A,125.3297,43.8805,长春市,园林处,,40,40,33,14,13,125,107,122,117,9,14,3,3,0.4,0.5
2023-07-27T03:00:00,1124A,125.4605,43.79,长春市,净月潭,,19,19,26,9,13,112,57,52,52,6,5,5,5,0.3,0.4
2023-07-27T03:00:00,1125A,125.7194,43.515,长春市,甩湾子,,28,28,30,11,14,102,45,35,35,15,12,3,3,0.3,0.4
2023-07-27T03:00:00,1126A,125.3863,43.8447,长春市,经开区环卫处,,31,31,33,12,13,103,79,80,80,10,15,5,4,0.4,0.4
2023-07-27T03:00:00,1127A,125.245,43.7783,长春市,高新区管委会,,26,26,26,14,15,106,76,82,80,8,13,3,3,0.4,0.5
2023-07-27T03:00:00,1128A,125.1761,43.8325,长春市,岱山公园,,29,29,30,15,14,112,91,96,95,16,23,3,4,0.5,0.6
2023-07-27T03:00:00,1129A,126.5422,45.755,哈尔滨市,岭北,,50,50,34,33,22,148,104,111,109,12,12,10,9,0.9,0.9
2023-07-27T03:00:00,1130A,126.561,45.8167,哈尔滨市,松北商大,,49,49,37,22,17,117,47,65,57,26,17,5,5,0.7,0.7
2023-07-27T03:00:00,1131A,126.979,45.5419,哈尔滨市,阿城会宁,,44,44,39,24,21,130,56,62,60,11,9,8,7,0.6,0.7
2023-07-27T03:00:00,1132A,126.599,45.7222,哈尔滨市,南岗学府路,颗粒物(PM10),54,58,50,25,22,130,56,78,70,17,10,5,7,0.8,0.8
2023-07-27T03:00:00,1133A,126.689,45.7733,哈尔滨市,太平宏伟公园,,48,48,43,21,18,125,71,74,73,21,18,6,6,0.4,0.4
2023-07-27T03:00:00,1134A,126.635,45.7667,哈尔滨市,道外承德广场,颗粒物(PM10),52,53,44,22,23,133,81,91,86,21,20,7,6,0.5,0.6
2023-07-27T03:00:00,1135A,126.685,45.7319,哈尔滨市,香坊红旗大街,颗粒物(PM10),52,53,45,31,26,129,49,60,53,34,26,3,6,0.7,0.7
2023-07-27T03:00:00,1136A,126.6411,45.7258,哈尔滨市,动力和平路,,,61,50,,,132,53,74,65,32,25,8,7,0.6,0.7
2023-07-27T03:00:00,1137A,126.593,45.7478,哈尔滨市,道里建国路,颗粒物(PM10),54,58,42,22,17,129,71,71,70,31,25,4,3,1.0,1.3
2023-07-27T03:00:00,1138A,126.615,45.61,哈尔滨市,平房东轻厂,,42,42,40,17,15,125,50,60,54,10,8,4,4,0.4,0.5
2023-07-27T03:00:00,1139A,126.595,45.9855,哈尔滨市,呼兰师专,颗粒物(PM10),54,57,42,26,18,107,100,100,100,10,14,10,10,0.5,0.5
2023-07-27T03:00:00,1140A,126.6206,45.6842,哈尔滨市,省农科院,颗粒物(PM10),58,66,50,19,17,144,31,72,52,46,30,8,6,0.6,0.6
2023-07-27T03:00:00,1141A,121.4,31.238,上海市,普陀,,17,17,22,3,6,72,22,21,21,10,11,4,4,0.4,0.4
2023-07-27T03:00:00,1142A,121.478,31.2036,上海市,十五厂,,17,17,26,5,9,62,25,24,24,2,6,7,8,0.3,0.3
2023-07-27T03:00:00,1143A,121.467,31.3008,上海市,虹口,,15,15,22,3,6,71,24,24,24,8,9,6,6,0.4,0.4
2023-07-27T03:00:00,1144A,121.412,31.1654,上海市,徐汇上师大,,18,18,24,2,5,72,22,23,23,12,11,3,4,0.6,0.7
2023-07-27T03:00:00,1145A,121.536,31.2659,上海市,杨浦四漂,,19,19,27,4,7,71,20,21,20,6,5,5,5,0.5,0.5
2023-07-27T03:00:00,1147A,121.425,31.2261,上海市,静安监测站,,17,17,25,7,9,75,26,26,26,9,10,2,2,0.4,0.4
2023-07-27T03:00:00,1148A,121.703,31.1907,上海市,浦东川沙,,14,14,20,7,9,60,17,22,19,19,14,6,6,0.4,0.4
2023-07-27T03:00:00,1149A,121.533,31.2284,上海市,浦东新区监测站,,16,16,21,3,4,64,20,24,22,8,8,7,7,0.3,0.3
2023-07-27T03:00:00,1150A,121.577,31.2071,上海市,浦东张江,,16,16,23,7,9,60,21,25,22,12,13,5,5,0.4,0.4
2023-07-27T03:00:00,1151A,118.8086,32.1065,南京市,迈皋桥,,19,19,24,2,7,99,18,23,20,14,13,3,3,0.4,0.3
2023-07-27T03:00:00,1152A,118.7538,32.0551,南京市,草场门,,17,17,23,5,9,110,21,32,26,19,18,4,4,0.5,0.5
2023-07-27T03:00:00,1153A,118.7794,32.0745,南京市,山西路,,24,24,28,2,6,115,23,38,30,14,13,4,4,0.2,0.1
2023-07-27T03:00:00,1154A,118.7752,32.0023,南京市,中华门,,17,17,23,2,9,101,15,26,20,17,14,7,6,0.6,0.6
2023-07-27T03:00:00,1155A,118.8109,32.0309,南京市,瑞金路,,14,14,26,5,9,96,21,26,23,16,16,4,4,0.6,0.5
2023-07-27T03:00:00,1156A,118.7997,32.0754,南京市,玄武湖,,20,20,23,1,6,98,23,33,29,14,15,6,6,0.4,0.4
2023-07-27T03:00:00,1157A,118.6414,32.0931,南京市,浦口,,26,26,26,7,10,113,17,18,17,22,23,4,4,0.2,0.2
2023-07-27T03:00:00,1158A,118.7356,31.9996,南京市,奥体中心,,19,19,25,9,13,104,20,30,24,16,17,7,7,0.3,0.4
2023-07-27T03:00:00,1159A,118.9125,32.1028,南京市,仙林大学城,,8,7,21,5,10,104,25,30,28,11,12,8,7,0.5,0.5
2023-07-27T03:00:00,1160A,120.561,31.2472,苏州市,上方山,,24,24,28,7,8,87,17,21,19,10,10,5,12,0.2,0.2
2023-07-27T03:00:00,1162A,120.591,31.3019,苏州市,彩香,,22,22,22,6,8,96,18,20,19,5,5,6,7,0.4,0.4
2023-07-27T03:00:00,1163A,120.596,31.3264,苏州市,轧钢厂,,28,28,25,7,7,95,19,23,21,6,6,8,8,0.4,0.4
2023-07-27T03:00:00,1164A,120.613,31.2703,苏州市,吴中区,,24,24,23,8,8,98,14,20,18,15,11,10,8,0.4,0.4
2023-07-27T03:00:00,1165A,120.543,31.2994,苏州市,苏州新区,,20,17,21,14,10,96,20,22,21,4,5,7,7,0.4,0.4
2023-07-27T03:00:00,1166A,120.669,31.3097,苏州市,苏州工业园区,,22,22,22,5,8,86,16,20,18,3,3,8,8,0.4,0.5
2023-07-27T03:00:00,1167A,120.641,31.3708,苏州市,相城区,,18,18,20,8,8,86,16,18,17,9,9,8,7,0.5,0.5
2023-07-27T03:00:00,1168A,120.9098,31.9663,南通市,狼山街道,,10,10,17,0,2,108,19,22,21,14,14,7,7,0.3,0.3
2023-07-27T03:00:00,1169A,120.86,32.0005,南通市,虹桥,,15,15,15,5,7,115,16,19,17,14,16,9,9,0.4,0.5
2023-07-27T03:00:00,1170A,120.87,32.02,南通市,城中,,14,14,14,4,5,111,19,23,21,3,6,5,6,0.4,0.4
2023-07-27T03:00:00,1171A,120.94,31.93,南通市,星湖花园,,9,9,14,0,2,102,16,19,18,13,13,5,5,0.2,0.3
2023-07-27T03:00:00,1172A,120.81,32.0417,南通市,紫琅学院,,8,4,16,0,2,101,16,19,17,15,19,6,6,0.4,0.4
2023-07-27T03:00:00,1173A,119.176,34.5885,连云港市,市环境监测站,,15,14,16,0,9,116,47,57,52,11,12,5,4,0.4,0.2
2023-07-27T03:00:00,1177A,117.179,34.2761,徐州市,黄河新村,,28,22,20,19,11,114,44,61,52,12,11,6,6,0.5,0.5
2023-07-27T03:00:00,1178A,117.1918,34.2384,徐州市,淮塔,,28,28,20,13,11,115,38,51,45,16,10,8,8,0.4,0.6
2023-07-27T03:00:00,1180A,117.256,34.2153,徐州市,新城区,,37,37,27,20,11,117,47,57,51,8,6,6,6,0.3,0.4
2023-07-27T03:00:00,1181A,117.244,34.2911,徐州市,桃园路,,27,27,16,14,9,122,40,50,45,17,11,8,8,0.3,0.3
2023-07-27T03:00:00,1182A,117.2933,34.2778,徐州市,农科院,,29,29,14,18,12,111,39,43,42,19,14,5,5,0.4,0.4
2023-07-27T03:00:00,1186A,119.389,32.3761,扬州市,邗江监测站,,31,31,26,13,12,129,0,13,6,35,20,8,7,0.7,0.4
2023-07-27T03:00:00,1188A,120.269,31.4867,无锡市,雪浪,,14,14,20,2,5,117,22,27,24,14,13,3,4,0.5,0.5
2023-07-27T03:00:00,1189A,120.275,31.6219,无锡市,黄巷,,17,17,32,5,6,110,22,24,23,17,19,6,6,0.6,0.6
2023-07-27T03:00:00,1190A,120.294,31.56,无锡市,曹张,,,,,,,,,,,,,,,,
2023-07-27T03:00:00,1191A,120.242,31.5031,无锡市,漆塘,,12,12,14,5,6,120,23,28,25,12,10,5,5,0.6,0.6
2023-07-27T03:00:00,1192A,120.3489,31.5863,无锡市,东亭,,27,27,27,5,8,100,19,21,20,15,19,10,11,0.4,0.5
2023-07-27T03:00:00,1193A,120.354,31.5475,无锡市,旺庄,,19,19,20,5,5,98,10,12,11,17,15,6,6,0.4,0.4
2023-07-27T03:00:00,1194A,120.245,31.5631,无锡市,荣巷,,17,17,20,5,7,110,17,18,17,13,12,8,8,0.3,0.3
2023-07-27T03:00:00,1195A,120.299,31.6817,无锡市,堰桥,,8,7,19,5,4,108,20,21,21,10,13,6,6,0.5,0.5
2023-07-27T03:00:00,1196A,119.9633,31.762,常州市,市监测站,,18,18,20,3,8,112,15,18,17,18,14,8,7,0.7,0.6
2023-07-27T03:00:00,1200A,119.9468,31.7069,常州市,武进监测站,,23,23,21,6,8,129,22,28,25,8,8,7,7,0.4,0.5
2023-07-27T03:00:00,1201A,119.9255,31.9087,常州市,安家,,9,8,13,6,8,110,19,16,16,12,10,5,5,0.5,0.5
2023-07-27T03:00:00,1203A,119.6707,32.1875,镇江市,新区办事处,,29,29,22,13,10,98,8,7,7,34,23,5,2,0.5,0.3
2023-07-27T03:00:00,1204A,119.4974,32.1968,镇江市,职教中心,,32,32,24,11,10,110,9,18,13,29,19,4,3,0.6,0.5
2023-07-27T03:00:00,1205A,119.4303,32.1328,镇江市,丹徒区监测站,,33,33,27,12,11,113,5,21,13,30,18,4,2,0.7,0.6
2023-07-27T03:00:00,1206A,119.905,32.4878,泰州市,公园路,,17,17,16,7,7,85,6,19,11,27,16,11,9,0.6,0.4
2023-07-27T03:00:00,1207A,119.9189,32.4625,泰州市,莲花,,20,20,16,7,10,85,4,16,9,24,13,9,8,0.8,0.5
2023-07-27T03:00:00,1209A,119.888,32.4639,泰州市,留学生创业园,,24,24,19,8,7,82,3,16,9,25,12,10,8,1.0,0.7
2023-07-27T03:00:00,1210A,119.036,33.5981,淮安市,钵池山,,10,7,9,6,11,106,29,32,31,14,15,5,5,0.6,0.6
2023-07-27T03:00:00,1211A,119.007,33.575,淮安市,北京南路,,10,5,12,7,8,115,27,33,29,15,16,7,7,0.4,0.5
2023-07-27T03:00:00,1212A,118.989,33.6067,淮安市,市监测站,,10,9,11,0,3,122,30,45,35,16,14,5,4,0.5,0.6
2023-07-27T03:00:00,1213A,119.135,33.5039,淮安市,楚州区监测站,,9,5,9,0,3,113,24,31,28,17,12,6,6,0.7,0.7
2023-07-27T03:00:00,1214A,119.0186,33.6297,淮安市,淮阴区监测站,,12,12,11,7,11,122,28,40,34,16,15,7,7,0.4,0.5
2023-07-27T03:00:00,1215A,120.118,33.4022,盐城市,盐城电厂,,14,14,13,2,5,72,29,29,28,8,9,4,4,0.4,0.4
2023-07-27T03:00:00,1216A,120.156,33.3942,盐城市,市监测站,,14,14,11,4,5,73,29,34,32,9,9,4,2,0.2,0.3
2023-07-27T03:00:00,1218A,120.2144,33.38,盐城市,开发区管委会,,10,7,13,4,4,73,31,47,40,12,11,6,4,0.3,0.3
2023-07-27T03:00:00,1220A,118.293,33.9528,宿迁市,宿迁学院,,22,20,12,15,9,112,35,38,36,14,11,6,6,0.6,0.6
2023-07-27T03:00:00,1221A,118.2442,33.9592,宿迁市,宿迁中学,,26,21,14,18,10,121,32,46,38,14,13,5,5,0.5,0.5
2023-07-27T03:00:00,1223A,120.2072,30.2111,杭州市,滨江,,17,17,16,6,8,83,17,18,17,11,9,6,6,0.6,0.6
2023-07-27T03:00:00,1224A,120.0633,30.2747,杭州市,西溪,,18,18,19,6,9,87,18,20,19,10,8,4,4,0.5,0.5
2023-07-27T03:00:00,1226A,120.3461,30.3153,杭州市,下沙,,22,22,24,6,7,115,13,17,15,18,12,5,5,0.4,0.3
2023-07-27T03:00:00,1227A,120.1269,30.2456,杭州市,卧龙桥,,13,13,17,4,7,94,28,24,24,6,9,5,6,0.4,0.4
2023-07-27T03:00:00,1228A,120.1903,30.2692,杭州市,浙江农大,,18,18,17,7,8,113,27,30,29,15,11,8,7,0.5,0.5
2023-07-27T03:00:00,1230A,120.1197,30.3119,杭州市,和睦小学,,16,16,21,4,9,111,15,18,16,17,15,7,7,0.8,0.7
2023-07-27T03:00:00,1231A,120.3019,30.4183,杭州市,临平镇,,14,14,26,5,7,114,22,22,20,8,9,4,4,0.3,0.3
2023-07-27T03:00:00,1232A,120.2697,30.1819,杭州市,城厢镇,,18,18,19,8,9,84,18,21,20,14,11,6,6,0.4,0.4
2023-07-27T03:00:00,1233A,120.0883,30.1808,杭州市,云栖,,21,21,18,6,7,90,17,27,23,10,9,4,4,0.5,0.6
2023-07-27T03:00:00,1234A,121.8358,29.911,宁波市,区环保大楼,,28,28,22,8,8,39,1,2,1,28,17,4,2,1.2,0.5
2023-07-27T03:00:00,1235A,121.56,29.82,宁波市,万里学院,,11,11,15,6,6,40,4,8,6,20,13,4,4,0.4,0.4
2023-07-27T03:00:00,1236A,121.713,29.9572,宁波市,龙赛医院,,28,28,18,4,4,42,1,3,2,30,14,18,8,0.6,0.4
2023-07-27T03:00:00,1239A,121.633,29.7733,宁波市,钱湖水厂,,17,17,14,2,5,43,8,13,10,5,2,3,2,0.4,0.4
2023-07-27T03:00:00,1240A,121.5856,29.8635,宁波市,太古小学,,15,15,12,4,6,42,5,10,7,19,12,4,4,0.6,0.6
2023-07-27T03:00:00,1241A,121.524,29.8674,宁波市,市环境监测中心,,16,16,15,3,4,46,11,18,14,9,7,4,4,0.3,0.3
2023-07-27T03:00:00,1242A,120.634,28.0089,温州市,瓯海,,9,9,16,3,6,44,14,14,11,10,16,5,5,0.4,0.5
2023-07-27T03:00:00,1243A,120.6748,27.9939,温州市,南浦,,10,10,18,3,6,48,20,21,20,2,6,6,6,0.4,0.4
2023-07-27T03:00:00,1244A,120.76,27.9747,温州市,龙湾,,18,18,23,3,5,47,22,21,21,2,8,6,6,0.4,0.4
2023-07-27T03:00:00,1245A,120.6709,28.0167,温州市,市站,,5,3,18,2,8,35,13,16,14,10,15,4,5,0.4,0.4
2023-07-27T03:00:00,1247A,120.6053,29.9928,绍兴市,城东开发委,,14,14,14,4,5,64,15,27,21,16,10,6,5,0.4,0.4
2023-07-27T03:00:00,1250A,120.0751,30.8669,湖州市,城西水厂,,24,24,27,4,5,116,19,21,20,17,14,2,3,0.4,0.4
2023-07-27T03:00:00,1252A,120.7436,30.778,嘉兴市,清河小学,,17,17,22,6,7,97,17,23,21,14,9,8,7,0.3,0.3
2023-07-27T03:00:00,1253A,120.726,30.7478,嘉兴市,嘉兴学院,,18,18,19,6,8,107,16,23,20,13,10,4,4,0.4,0.3
2023-07-27T03:00:00,1255A,121.273,28.6459,台州市,黄岩环保大楼,,7,3,12,0,9,50,22,18,18,5,13,3,3,0.3,0.4
2023-07-27T03:00:00,1256A,121.419,28.6542,台州市,台州环保大楼,,12,12,20,5,9,48,24,23,23,2,7,2,2,0.4,0.4
2023-07-27T03:00:00,1257A,121.377,28.5773,台州市,路桥田洋王,,14,14,19,5,6,52,21,21,21,1,10,5,3,0.3,0.4
2023-07-27T03:00:00,1258A,122.122,30.0203,舟山市,定海檀枫,,13,13,17,3,6,40,21,20,20,6,8,5,5,0.2,0.2
2023-07-27T03:00:00,1259A,122.3094,29.9558,舟山市,普陀东港,,16,16,18,4,6,40,19,25,22,7,4,4,4,0.3,0.3
2023-07-27T03:00:00,1260A,122.19,29.9944,舟山市,临城新区,,12,11,17,8,6,39,20,20,20,3,5,5,2,0.3,0.2
2023-07-27T03:00:00,1262A,119.647,29.077,金华市,十五中,,21,21,22,4,6,82,12,16,15,16,12,3,2,0.4,0.3
2023-07-27T03:00:00,1263A,119.686,29.1029,金华市,监测站,,20,20,21,5,8,76,4,9,7,23,14,5,4,0.3,0.3
2023-07-27T03:00:00,1264A,118.8692,28.9398,衢州市,环保大楼,,16,16,19,5,7,104,8,15,8,15,12,4,4,0.3,0.3
2023-07-27T03:00:00,1265A,118.8709,28.9666,衢州市,实验学校,,20,20,23,8,10,109,6,8,7,21,16,9,5,0.3,0.3
2023-07-27T03:00:00,1266A,118.8621,28.9808,衢州市,衢州学院,,21,21,23,9,9,102,9,7,7,14,15,5,4,0.1,0.1
2023-07-27T03:00:00,1267A,119.914,28.4514,丽水市,监测站大楼,,7,5,11,4,8,64,6,12,9,14,7,5,5,0.4,0.4
2023-07-27T03:00:00,1268A,119.93,28.4586,丽水市,莲都小学,,7,5,9,1,3,64,4,11,7,13,6,5,5,0.4,0.4
2023-07-27T03:00:00,1269A,119.879,28.4231,丽水市,余庄前,,14,14,13,6,5,65,3,3,3,9,7,4,4,0.5,0.5
2023-07-27T03:00:00,1270A,117.1959,31.7848,合肥市,明珠广场,,29,29,36,14,22,129,52,55,54,16,24,5,6,0.4,0.5
2023-07-27T03:00:00,1271A,117.3072,31.8764,合肥市,三里街,,25,22,36,17,25,157,40,48,44,14,20,4,5,0.3,0.4
2023-07-27T03:00:00,1272A,117.2588,31.8707,合肥市,琥珀山庄,,35,29,37,24,24,160,51,58,55,10,14,4,5,0.6,0.6
2023-07-27T03:00:00,1273A,117.1604,31.9052,合肥市,董铺水库,,27,27,32,14,17,175,49,52,51,13,14,4,4,0.4,0.5
2023-07-27T03:00:00,1274A,117.25,31.8571,合肥市,长江中路,,36,36,40,18,24,161,49,58,54,9,14,6,7,0.4,0.5
2023-07-27T03:00:00,1275A,117.266,31.9436,合肥市,庐阳区,,31,31,40,17,26,172,43,49,47,16,20,4,6,0.5,0.5
2023-07-27T03:00:00,1276A,117.336,31.8586,合肥市,瑶海区,,39,39,43,13,21,150,46,60,53,10,16,8,9,0.7,0.7
2023-07-27T03:00:00,1277A,117.3027,31.7964,合肥市,包河区,,36,36,39,24,26,145,33,38,37,30,32,7,8,0.5,0.6
2023-07-27T03:00:00,1278A,117.2776,31.7385,合肥市,滨湖新区,,25,24,39,17,22,140,50,52,52,15,18,7,7,0.5,0.6
2023-07-27T03:00:00,1279A,117.1318,31.8403,合肥市,高新区,,36,36,37,21,22,154,47,46,46,17,20,8,9,0.4,0.5
2023-07-27T03:00:00,1280A,119.3903,26.0543,福州市,鼓山,,,,10,,3,,,,,,3,,2,,
2023-07-27T03:00:00,1282A,119.2681,26.0504,福州市,师大,,20,20,18,2,2,43,34,34,34,1,3,4,4,0.3,0.3
2023-07-27T03:00:00,1283A,119.2984,26.1028,福州市,五四北路,,15,15,17,4,3,42,32,32,32,2,3,2,2,0.1,0.2
2023-07-27T03:00:00,1284A,119.2648,26.0768,福州市,杨桥西路,,16,16,18,1,1,41,31,31,31,2,3,3,3,0.3,0.3
2023-07-27T03:00:00,1285A,119.317,26.0746,福州市,紫阳,,18,18,21,6,4,40,30,30,30,2,2,3,3,0.3,0.3
2023-07-27T03:00:00,1286A,118.1608,24.8169,厦门市,溪东,,,,9,,12,,,,,,5,,1,,
2023-07-27T03:00:00,1287A,118.1514,24.4767,厦门市,洪文,,17,17,38,6,8,55,26,26,26,4,7,1,1,0.2,0.2
2023-07-27T03:00:00,1288A,118.0661,24.4444,厦门市,鼓浪屿,,,,25,,6,30,,23,,,2,,2,,0.5
2023-07-27T03:00:00,1290A,115.8931,28.6843,南昌市,省外办,,29,29,37,14,16,99,27,41,32,22,17,10,9,0.6,0.6
2023-07-27T03:00:00,1291A,115.8886,28.7003,南昌市,省林业公司,,27,27,39,9,15,154,31,28,28,45,25,10,8,0.4,0.4
2023-07-27T03:00:00,1292A,115.8126,28.7442,南昌市,林科所,,17,9,20,9,11,96,52,52,52,10,17,8,9,0.6,0.6
2023-07-27T03:00:00,1294A,115.8518,28.687,南昌市,建工学校,,29,29,34,9,9,104,43,38,38,13,14,4,6,0.5,0.6
2023-07-27T03:00:00,1295A,115.8921,28.6424,南昌市,象湖,,20,16,20,14,14,104,32,50,40,9,12,4,4,0.6,0.6
2023-07-27T03:00:00,1296A,115.7423,28.7996,南昌市,武术学校,,18,18,18,11,13,81,4,11,7,5,4,14,7,1.1,0.3
2023-07-27T03:00:00,1298A,115.9314,28.6842,南昌市,省站,,28,28,34,15,16,101,31,40,36,5,13,6,8,0.4,0.4
2023-07-27T03:00:00,1299A,116.9862,36.6114,济南市,科干所,,46,29,36,32,24,223,123,126,125,10,15,5,5,0.5,0.5
2023-07-27T03:00:00,1300A,116.9376,36.665,济南市,农科所,,29,29,35,15,13,204,88,98,90,15,19,6,6,0.4,0.4
2023-07-27T03:00:00,1301A,117.1265,36.6734,济南市,开发区,,33,32,34,20,19,219,105,115,107,18,21,5,5,0.7,0.7
2023-07-27T03:00:00,1303A,117.0624,36.6868,济南市,省种子仓库,,39,34,36,24,18,222,122,135,128,10,20,4,4,0.6,0.6
2023-07-27T03:00:00,1304A,116.9489,36.6447,济南市,机床二厂,,37,37,39,17,17,238,110,103,101,13,20,7,8,0.7,0.6
2023-07-27T03:00:00,1305A,117.0495,36.663,济南市,市监测站,,42,29,35,20,21,226,133,138,135,8,23,5,5,0.5,0.5
2023-07-27T03:00:00,1306A,116.7675,36.5484,济南市,长清党校,,39,39,41,22,24,189,102,113,108,15,17,6,6,0.6,0.6
2023-07-27T03:00:00,1307A,120.6659,36.2403,青岛市,仰口,,,,14,,15,43,,45,,,6,,5,,0.2
2023-07-27T03:00:00,1310A,120.4134,36.0658,青岛市,市南区东部子站,,15,12,17,0,6,109,45,54,50,8,12,4,4,0.3,0.3
2023-07-27T03:00:00,1311A,120.3664,36.1032,青岛市,四方区子站,,18,0,14,0,5,117,56,58,56,7,14,5,6,0.4,0.5
2023-07-27T03:00:00,1312A,120.2994,36.054,青岛市,市南区西部子站,,17,17,18,2,5,88,37,46,43,19,24,6,7,0.4,0.5
2023-07-27T03:00:00,1313A,120.4581,36.0858,青岛市,崂山区子站,,17,14,28,5,7,117,54,61,54,8,11,5,6,0.2,0.3
2023-07-27T03:00:00,1314A,120.1983,35.9608,青岛市,黄岛区子站,,21,5,15,2,7,133,66,61,61,6,11,4,4,0.5,0.5
2023-07-27T03:00:00,1315A,120.3999,36.3083,青岛市,城阳区子站,,19,9,25,2,10,119,60,59,59,12,18,5,5,0.3,0.4
2023-07-27T03:00:00,1316A,113.69031,34.76122,郑州市,烟厂,,50,50,33,21,10,178,105,126,116,16,20,1,1,0.6,0.6
2023-07-27T03:00:00,1317A,113.65724,34.77134,郑州市,郑纺机,,,43,35,,9,180,108,126,117,8,14,1,1,0.5,0.5
2023-07-27T03:00:00,1318A,113.67526,34.80246,郑州市,银行学校,,50,50,30,18,15,173,108,131,118,15,19,3,2,0.5,0.5
2023-07-27T03:00:00,1319A,113.56746,34.81334,郑州市,供水公司,,43,43,40,21,15,171,84,100,94,18,30,2,2,0.5,0.5
2023-07-27T03:00:00,1320A,113.7329,34.7178,郑州市,经开区管委,颗粒物(PM10),53,55,36,30,18,165,74,104,91,14,14,1,1,0.6,0.5
2023-07-27T03:00:00,1321A,113.73961,34.77172,郑州市,四十七中,,49,49,36,23,18,154,83,105,94,14,16,1,1,0.6,0.6
2023-07-27T03:00:00,1322A,113.60532,34.74838,郑州市,市监测站,颗粒物(PM10),51,51,43,26,18,189,100,123,114,13,24,3,3,0.5,0.5
2023-07-27T03:00:00,1323A,113.64164,34.7525,郑州市,河医大,,45,45,44,19,15,166,97,114,106,7,17,2,3,0.5,0.5
2023-07-27T03:00:00,1324A,113.51488,34.91089,郑州市,岗李水库,,45,45,37,19,15,134,23,26,25,16,17,3,3,0.6,0.8
2023-07-27T03:00:00,1325A,114.3677,30.5584,武汉市,东湖梨园,,32,32,32,20,17,158,17,38,31,35,19,8,8,1.1,0.9
2023-07-27T03:00:00,1326A,114.2529,30.558,武汉市,汉阳月湖,,25,25,35,7,14,151,14,13,13,31,25,6,6,0.7,0.7
2023-07-27T03:00:00,1327A,114.282,30.6189,武汉市,汉口花桥,,22,22,35,15,17,165,32,37,34,16,19,7,8,0.4,0.5
2023-07-27T03:00:00,1328A,114.3025,30.5332,武汉市,武昌紫阳,,20,20,30,9,14,155,29,28,28,24,21,5,6,0.6,0.8
2023-07-27T03:00:00,1329A,114.3646,30.6217,武汉市,青山钢花,,20,20,37,12,20,168,21,27,24,23,21,8,9,0.4,0.6
2023-07-27T03:00:00,1330A,114.1566,30.4825,武汉市,沌口新区,,29,28,30,20,19,135,30,41,36,33,24,8,7,0.5,0.5
2023-07-27T03:00:00,1331A,114.3014,30.5944,武汉市,汉口江滩,,22,22,30,9,18,184,31,38,34,12,16,5,5,0.5,0.6
2023-07-27T03:00:00,1333A,114.135,30.6319,武汉市,吴家山,,20,20,32,10,16,160,26,27,24,17,24,8,7,0.6,0.6
2023-07-27T03:00:00,1334A,113.8454,30.2917,武汉市,沉湖七壕,,12,6,28,7,14,143,38,48,45,20,19,6,6,0.6,0.7
2023-07-27T03:00:00,1335A,113.0833,28.2325,长沙市,经开区环保局,,12,10,13,8,9,129,36,44,41,18,8,4,4,0.4,0.3
2023-07-27T03:00:00,1336A,112.8872,28.2189,长沙市,高开区环保局,,33,33,20,18,12,144,44,48,44,10,10,4,4,0.6,0.5
2023-07-27T03:00:00,1337A,113.0792,28.2053,长沙市,马坡岭,,18,12,18,12,14,125,36,42,40,20,10,4,5,0.4,0.3
2023-07-27T03:00:00,1338A,112.9394,28.19,长沙市,湖南师范大学,,30,17,19,21,14,157,48,43,43,11,11,2,2,0.4,0.6
2023-07-27T03:00:00,1339A,113.0178,28.1322,长沙市,雨花区环保局,,20,20,25,11,10,139,37,35,35,17,14,5,4,0.4,0.4
2023-07-27T03:00:00,1340A,112.9792,28.2597,长沙市,伍家岭,细颗粒物(PM2.5),52,24,23,36,17,139,46,28,28,13,14,2,2,0.2,0.1
2023-07-27T03:00:00,1341A,113.0014,28.1944,长沙市,火车新站,,20,8,14,14,12,125,45,42,40,12,10,4,4,0.7,0.6
2023-07-27T03:00:00,1342A,112.9844,28.1178,长沙市,天心区环保局,,23,23,18,12,14,154,32,40,37,28,13,1,2,0.5,0.5
2023-07-27T03:00:00,1343A,112.8908,28.1308,长沙市,湖南中医药大学,,32,24,22,22,14,173,48,50,49,9,10,2,1,0.7,0.7
2023-07-27T03:00:00,1344A,112.9581,28.3611,长沙市,沙坪,颗粒物(PM10),52,53,41,24,13,119,37,43,40,8,5,4,3,0.6,0.6
2023-07-27T03:00:00,1345A,113.2347,23.1423,广州市,广雅中学,,41,41,65,26,34,69,45,51,46,25,34,6,6,0.6,0.6
2023-07-27T03:00:00,1346A,113.2612,23.105,广州市,市五中,,37,37,46,24,30,204,50,62,55,18,18,9,8,0.6,0.6
2023-07-27T03:00:00,1348A,113.3478,23.0916,广州市,广东商学院,,31,31,46,19,27,199,52,64,57,14,22,6,5,0.6,0.6
2023-07-27T03:00:00,1349A,113.4332,23.1047,广州市,市八十六中,,34,34,45,18,25,194,48,57,53,16,18,6,4,0.5,0.4
2023-07-27T03:00:00,1350A,113.3505,22.9483,广州市,番禺中学,,30,29,45,21,28,213,57,69,63,18,27,10,10,0.6,0.7
2023-07-27T03:00:00,1351A,113.2146,23.3916,广州市,花都师范,,36,34,41,25,26,166,45,59,51,18,14,12,9,0.7,0.6
2023-07-27T03:00:00,1352A,113.2597,23.1331,广州市,市监测站,,37,37,51,19,30,191,42,49,45,29,28,8,7,0.8,0.8
2023-07-27T03:00:00,1353A,113.5618,23.312,广州市,九龙镇镇龙,,28,28,45,16,28,144,41,50,46,17,17,7,6,0.6,0.6
2023-07-27T03:00:00,1354A,113.2765,23.1544,广州市,麓湖,,38,38,44,23,29,198,28,44,39,31,28,7,6,0.7,0.7
2023-07-27T03:00:00,1355A,113.443,23.3035,广州市,帽峰山森林公园,,30,29,32,21,25,151,49,60,53,13,11,10,8,0.4,0.4
2023-07-27T03:00:00,1356A,114.1063,22.5545,深圳市,通心岭子站,,30,30,39,19,24,172,30,28,28,19,20,4,4,0.6,0.6
2023-07-27T03:00:00,1357A,114.117,22.5625,深圳市,洪湖,,45,45,46,15,19,186,28,25,25,31,27,5,5,0.7,0.7
2023-07-27T03:00:00,1358A,113.987,22.5417,深圳市,华侨城,,32,32,39,17,30,206,35,30,30,14,21,6,6,0.7,0.8
2023-07-27T03:00:00,1359A,113.9181,22.5171,深圳市,南海子站,颗粒物(PM10),67,83,81,31,29,226,24,28,27,30,35,5,5,0.8,0.7
2023-07-27T03:00:00,1360A,114.2458,22.5689,深圳市,盐田,,23,23,41,16,28,216,42,67,52,14,35,4,4,0.6,0.7
2023-07-27T03:00:00,1361A,114.2283,22.7244,深圳市,龙岗,,21,21,42,13,22,156,45,40,40,17,27,7,7,0.6,0.7
2023-07-27T03:00:00,1363A,114.494,22.5422,深圳市,南澳,,32,32,40,20,25,198,39,108,71,15,14,4,5,0.6,0.7
2023-07-27T03:00:00,1364A,114.41,22.6342,深圳市,葵涌,,33,33,51,19,25,260,33,29,29,16,18,8,7,0.6,0.6
2023-07-27T03:00:00,1365A,114.297,22.5978,深圳市,梅沙,,25,25,46,13,22,251,50,64,57,7,11,5,5,0.8,0.8
2023-07-27T03:00:00,1366A,114.0678,22.738,深圳市,观澜,,40,40,60,16,29,200,33,30,30,24,34,7,7,0.7,0.7
2023-07-27T03:00:00,1367A,113.5814,22.2618,珠海市,吉大,,42,42,40,24,30,261,42,71,55,28,21,6,5,0.5,0.5
2023-07-27T03:00:00,1368A,113.4881,22.2335,珠海市,前山,,46,46,48,31,27,234,40,61,51,26,23,8,8,0.6,0.5
2023-07-27T03:00:00,1369A,113.628,22.4251,珠海市,唐家,细颗粒物(PM2.5),62,48,42,44,31,256,30,47,37,34,18,7,5,0.4,0.3
2023-07-27T03:00:00,1370A,113.299,22.2281,珠海市,斗门,,46,42,31,32,24,206,52,63,59,18,13,7,6,0.6,0.5
2023-07-27T03:00:00,1371A,113.1294,23.0067,佛山市,湾梁,,29,29,43,20,26,188,45,62,54,16,19,10,9,0.5,0.5
2023-07-27T03:00:00,1372A,113.1083,23.0478,佛山市,华材职中,,36,27,42,25,30,174,37,43,39,26,27,16,11,0.7,0.7
2023-07-27T03:00:00,1373A,113.144,23.0453,佛山市,南海气象局,,39,39,49,24,27,142,35,47,42,24,23,4,4,0.6,0.6
2023-07-27T03:00:00,1374A,113.2881,22.8094,佛山市,顺德苏岗,,25,10,35,17,24,178,43,58,50,17,22,7,8,0.6,0.7
2023-07-27T03:00:00,1376A,112.8383,22.8678,佛山市,高明孔堂,,49,49,43,25,25,181,32,44,38,33,22,10,9,0.6,0.6
2023-07-27T03:00:00,1377A,112.8836,23.1588,佛山市,三水监测站,,29,29,41,15,27,184,36,51,44,26,22,7,6,0.7,0.6
2023-07-27T03:00:00,1378A,112.867,23.185,佛山市,三水云东海,,33,25,38,23,30,168,27,34,31,23,22,6,7,0.6,0.7
2023-07-27T03:00:00,1379A,113.3769,22.5211,中山市,华柏园,细颗粒物(PM2.5),57,49,48,40,29,263,26,44,35,43,23,8,7,0.5,0.5
2023-07-27T03:00:00,1380A,113.3881,22.5497,中山市,张溪,,38,38,51,22,34,278,49,41,41,17,20,7,8,0.6,0.6
2023-07-27T03:00:00,1381A,113.4075,22.5111,中山市,紫马岭,,38,32,47,26,31,262,46,43,43,18,18,10,8,0.3,0.4
2023-07-27T03:00:00,1382A,113.4411,22.4853,中山市,长江旅游区,,42,37,40,29,27,265,26,49,37,15,14,10,12,0.5,0.5
2023-07-27T03:00:00,1383A,113.1064,22.6058,江门市,北街,细颗粒物(PM2.5),53,43,42,37,29,192,42,60,50,29,17,9,8,0.6,0.6
2023-07-27T03:00:00,1384A,113.0731,22.5835,江门市,西区,,47,47,46,22,22,208,39,61,49,32,20,11,9,0.6,0.5
2023-07-27T03:00:00,1385A,113.0219,22.5311,江门市,圭峰西,,42,23,42,29,26,184,53,71,61,23,14,7,5,0.6,0.5
2023-07-27T03:00:00,1386A,113.0828,22.5947,江门市,东湖,,48,48,45,32,26,210,42,66,53,28,15,10,7,0.6,0.5
2023-07-27T03:00:00,1389A,113.7547,23.0494,东莞市,莞城梨川,,32,32,38,21,25,172,36,54,48,26,19,9,10,0.9,0.8
2023-07-27T03:00:00,1390A,113.7944,23.0128,东莞市,东城石井,,25,25,34,16,22,176,50,50,50,11,15,8,8,0.6,0.6
2023-07-27T03:00:00,1391A,113.7383,22.9658,东莞市,南城西平,,26,26,40,15,22,191,32,52,42,35,35,5,6,0.9,0.8
2023-07-27T03:00:00,1392A,114.4183,23.0528,惠州市,河南岸金山湖子站,,37,37,40,19,19,137,28,32,30,22,19,4,4,0.6,0.6
2023-07-27T03:00:00,1393A,114.4053,23.0822,惠州市,下埔横江三路子站,,25,25,35,13,17,141,39,37,36,13,12,5,6,0.7,0.7
2023-07-27T03:00:00,1394A,114.4103,23.1142,惠州市,江北云山西路子站,,18,16,42,12,19,149,36,28,28,14,12,4,5,0.5,0.5
2023-07-27T03:00:00,1395A,114.4645,22.7833,惠州市,惠阳区承修路船湖子站,,34,34,45,21,23,131,29,23,23,18,19,6,6,0.8,0.8
2023-07-27T03:00:00,1396A,114.5317,22.7422,惠州市,大亚湾管委会子站,,26,17,42,18,19,171,48,42,42,18,26,3,2,0.5,0.6
2023-07-27T03:00:00,1397A,112.4267,23.0706,肇庆市,睦岗子站,,35,35,38,18,21,152,48,41,41,21,25,8,8,0.6,0.7
2023-07-27T03:00:00,1398A,112.4645,23.0475,肇庆市,城中子站,,40,40,39,25,25,143,10,21,16,49,33,11,23,0.5,0.6
2023-07-27T03:00:00,1399A,112.5544,23.1522,肇庆市,坑口子站,,23,20,32,16,23,149,28,33,29,24,17,4,6,0.4,0.4
2023-07-27T03:00:00,1400A,112.4753,23.1,肇庆市,七星岩子站,,,,50,,30,79,,86,,,19,,8,,0.7
2023-07-27T03:00:00,1401A,108.3103,22.7881,南宁市,二十一中,,44,44,41,27,23,142,71,82,75,17,11,7,8,0.8,0.7
2023-07-27T03:00:00,1402A,108.3141,22.8528,南宁市,北湖,细颗粒物(PM2.5),80,81,45,59,32,146,25,64,49,32,14,14,8,0.8,0.7
2023-07-27T03:00:00,1403A,108.3206,22.8225,南宁市,市监测站,,40,33,47,28,30,148,74,78,77,26,19,9,10,0.7,0.6
2023-07-27T03:00:00,1404A,108.3829,22.8037,南宁市,大自然花园,,40,40,40,26,25,138,46,50,46,19,13,6,8,0.7,0.6
2023-07-27T03:00:00,1405A,108.4394,22.7904,南宁市,仙葫,细颗粒物(PM2.5),52,52,42,36,25,142,5,56,31,52,18,7,8,0.7,0.5
2023-07-27T03:00:00,1406A,108.2397,22.8467,南宁市,区农职院,细颗粒物(PM2.5),55,58,50,39,29,132,32,42,35,22,18,10,9,0.6,0.7
2023-07-27T03:00:00,1407A,108.3275,22.735,南宁市,英华嘉园,,33,31,43,23,28,127,63,65,61,18,20,6,9,0.6,0.6
2023-07-27T03:00:00,1408A,108.2257,22.7757,南宁市,沙井镇街道办,颗粒物(PM10),59,67,48,32,30,129,15,35,28,46,26,9,10,0.7,0.7
2023-07-27T03:00:00,1409A,110.576,19.9507,海口市,东寨港,,,,,,,,,,,,,,,,
2023-07-27T03:00:00,1410A,110.3232,20.0574,海口市,海南大学,,22,22,16,10,8,78,22,28,22,24,11,6,6,0.4,0.4
2023-07-27T03:00:00,1411A,110.283,20.0053,海口市,秀英海南医院,,18,18,17,11,9,73,32,31,31,11,12,6,6,0.4,0.4
2023-07-27T03:00:00,1412A,110.338,19.9969,海口市,海南师范大学,,15,5,10,10,9,36,36,31,31,9,13,6,7,0.2,0.3
2023-07-27T03:00:00,1413A,110.33,20.0356,海口市,龙华路环保局宿舍,,16,16,14,8,8,73,43,38,38,6,10,7,6,0.3,0.3
2023-07-27T03:00:00,1414A,106.3787,29.8279,重庆市,缙云山,,24,14,23,7,12,103,76,78,69,6,11,6,8,0.3,0.4
2023-07-27T03:00:00,1416A,106.4213,29.8253,重庆市,天生,,29,15,29,20,20,75,48,29,29,7,23,5,6,0.7,0.9
2023-07-27T03:00:00,1417A,106.6263,29.7228,重庆市,两路,,20,17,22,14,17,96,39,39,35,17,32,7,8,1.0,1.1
2023-07-27T03:00:00,1418A,106.2953,29.5983,重庆市,虎溪,,23,10,29,7,20,86,73,68,68,4,21,4,4,0.4,0.6
2023-07-27T03:00:00,1419A,106.5777,29.5102,重庆市,南坪,,25,25,36,16,22,103,35,50,42,16,23,6,9,0.5,0.6
2023-07-27T03:00:00,1420A,106.6556,29.6277,重庆市,唐家沱,,20,19,29,7,19,88,1,4,3,40,36,6,7,0.6,0.7
2023-07-27T03:00:00,1421A,106.6349,29.4906,重庆市,茶园,,25,10,29,9,13,147,78,78,78,13,27,4,6,0.6,0.8
2023-07-27T03:00:00,1422A,106.3754,29.4572,重庆市,白市驿,,15,14,25,8,14,86,46,42,42,9,21,5,6,0.7,0.9
2023-07-27T03:00:00,1425A,106.6205,29.7166,重庆市,空港,,32,32,31,18,13,116,44,47,44,19,29,5,7,0.7,0.8
2023-07-27T03:00:00,1426A,106.4782,29.4875,重庆市,新山村,,22,13,33,15,22,80,34,22,22,25,33,6,8,0.3,0.6
2023-07-27T03:00:00,1427A,106.5616,29.6453,重庆市,礼嘉,,20,20,37,11,20,97,51,33,33,16,40,7,9,0.7,0.9
2023-07-27T03:00:00,1428A,106.4522,29.7091,重庆市,蔡家,,20,13,32,9,15,86,61,54,54,13,26,4,5,0.7,0.8
2023-07-27T03:00:00,1429A,106.5093,29.3917,重庆市,鱼新街,,25,21,28,17,18,85,25,21,21,21,30,4,5,0.9,1
2023-07-27T03:00:00,1431A,103.9728,30.7236,成都市,金泉两河,,20,8,20,2,8,86,62,41,41,2,6,2,3,0.2,0.3
2023-07-27T03:00:00,1432A,104.176,30.6872,成都市,十里店,,22,21,18,15,9,89,43,47,43,9,10,3,3,0.6,0.6
2023-07-27T03:00:00,1433A,104.079,30.5706,成都市,三瓦窑,,13,6,20,2,11,100,39,34,34,13,20,1,1,0.4,0.5
2023-07-27T03:00:00,1434A,104.1114,30.63,成都市,沙河铺,,26,26,22,14,11,90,37,29,29,10,14,1,1,0.5,0.5
2023-07-27T03:00:00,1437A,104.0786,30.6531,成都市,君平街,,,5,19,,15,101,42,37,37,6,14,2,2,0.4,0.5
2023-07-27T03:00:00,1438A,103.613,31.0283,成都市,灵岩寺,,15,14,17,10,12,86,40,43,42,10,5,13,8,0.6,0.6
2023-07-27T03:00:00,1439A,106.6899,26.5998,贵阳市,马鞍山,,27,27,26,14,14,92,19,23,20,14,12,5,4,0.6,0.6
2023-07-27T03:00:00,1440A,106.6971,26.5694,贵阳市,市环保站,,43,41,36,30,28,91,28,30,29,28,23,4,5,0.5,0.4
2023-07-27T03:00:00,1441A,106.6243,26.6266,贵阳市,鉴湖路,,35,29,33,24,20,90,34,37,36,17,15,3,9,0.7,0.6
2023-07-27T03:00:00,1442A,106.7487,26.6343,贵阳市,燕子冲,,25,19,21,17,19,98,38,41,40,10,12,5,6,0.6,0.6
2023-07-27T03:00:00,1443A,106.6555,26.4365,贵阳市,碧云窝,细颗粒物(PM2.5),62,53,42,44,21,84,12,9,9,22,14,4,6,0.5,0.5
2023-07-27T03:00:00,1444A,106.694,26.5161,贵阳市,中院村,,46,46,38,22,20,80,21,17,17,33,23,5,7,0.5,0.5
2023-07-27T03:00:00,1445A,106.7109,26.6027,贵阳市,红边门,,29,29,38,19,27,86,36,42,38,12,20,5,7,0.5,0.6
2023-07-27T03:00:00,1446A,106.7164,26.5699,贵阳市,新华路,,32,29,34,22,22,98,33,23,23,22,21,6,6,0.3,0.3
2023-07-27T03:00:00,1447A,106.674,26.5424,贵阳市,太慈桥,,39,39,41,12,15,85,19,19,19,26,19,4,5,0.5,0.5
2023-07-27T03:00:00,1450A,102.8204,24.8886,昆明市,呈贡新区,,34,34,21,11,10,89,40,41,39,21,14,26,8,0.9,0.6
2023-07-27T03:00:00,1451A,102.6251,24.9608,昆明市,西山森林公园,,21,12,10,12,8,101,66,66,66,6,7,7,8,0.5,0.6
2023-07-27T03:00:00,1452A,102.7252,25.0902,昆明市,龙泉镇,,22,22,20,11,9,96,36,40,36,21,18,9,8,0.3,0.3
2023-07-27T03:00:00,1453A,102.7266,25.0375,昆明市,东风东路,,22,22,20,10,11,92,39,39,39,17,17,5,4,0.6,0.4
2023-07-27T03:00:00,1454A,102.6742,25.0669,昆明市,金鼎山,,23,23,22,11,12,92,49,45,45,10,14,8,8,0.4,0.5
2023-07-27T03:00:00,1455A,102.6644,25.0401,昆明市,碧鸡广场,,22,22,21,8,10,92,48,39,39,12,17,7,8,0.4,0.5
2023-07-27T03:00:00,1456A,91.1319,29.6514,拉萨市,八廓街,,35,4,16,8,11,110,109,110,107,4,13,6,7,0.1,0.2
2023-07-27T03:00:00,1457A,91.1221,29.6747,拉萨市,市环保局,,30,2,12,6,8,103,95,96,91,10,15,5,6,0.3,0.4
2023-07-27T03:00:00,1458A,91.0874,29.6475,拉萨市,区监测站,,32,4,10,5,6,106,102,96,96,8,15,8,8,0.2,0.3
2023-07-27T03:00:00,1459A,91.1774,29.6541,拉萨市,西藏大学,,36,1,14,6,9,113,113,113,113,4,12,12,11,0.1,0.2
2023-07-27T03:00:00,1460A,90.9798,29.6588,拉萨市,区辐射站,,29,3,17,6,6,114,90,90,90,6,15,9,10,0.1,0.1
2023-07-27T03:00:00,1461A,91.0834,29.6292,拉萨市,拉萨火车站,,31,5,15,7,6,104,98,96,95,5,15,10,11,0.2,0.2
2023-07-27T03:00:00,1462A,108.882,34.2749,西安市,高压开关厂,,26,24,29,11,11,157,81,78,78,13,17,8,8,0.4,0.4
2023-07-27T03:00:00,1463A,108.993,34.2629,西安市,兴庆小区,,26,25,27,10,13,149,83,85,84,8,9,6,6,0.5,0.5
2023-07-27T03:00:00,1464A,109.06,34.2572,西安市,纺织城,,22,19,28,13,12,140,69,80,77,19,15,10,5,0.4,0.4
2023-07-27T03:00:00,1465A,108.9356,34.2173,西安市,小寨,,31,31,33,11,12,155,78,77,77,5,7,5,16,0.4,0.4
2023-07-27T03:00:00,1466A,108.954,34.2713,西安市,市人民体育场,,27,27,30,14,16,146,77,79,77,9,13,7,7,0.4,0.4
2023-07-27T03:00:00,1467A,108.8922,34.2322,西安市,高新西区,,29,29,25,13,14,169,90,88,88,7,11,6,7,0.5,0.5
2023-07-27T03:00:00,1468A,108.935,34.3474,西安市,经开区,,32,32,30,17,15,141,40,76,64,24,8,2,3,0.4,0.4
2023-07-27T03:00:00,1469A,108.906,34.1546,西安市,长安区,,34,34,31,9,12,170,66,72,70,13,12,4,4,0.5,0.5
2023-07-27T03:00:00,1471A,109.2186,34.3731,西安市,临潼区,颗粒物(PM10),55,60,31,19,16,137,20,86,50,30,14,5,6,0.5,0.5
2023-07-27T03:00:00,1472A,108.869,34.378,西安市,草滩,,,,,,,,,,,,,,,,
2023-07-27T03:00:00,1473A,108.985,34.1978,西安市,曲江文化产业集团,,33,33,36,10,13,158,85,84,84,8,12,4,5,0.3,0.4
2023-07-27T03:00:00,1474A,109.051,34.3213,西安市,广运潭,,32,32,29,12,14,132,36,76,62,22,11,6,7,0.5,0.5
2023-07-27T03:00:00,1476A,103.631,36.1031,兰州市,兰炼宾馆,,38,36,58,26,27,414,47,51,48,20,31,4,8,0.5,0.5
2023-07-27T03:00:00,1477A,104.1373,35.9454,兰州市,榆中兰大校区,,,,,,,,,,,,,,,,
2023-07-27T03:00:00,1478A,103.8412,36.0726,兰州市,生物制品所,,35,29,43,24,24,174,51,70,62,19,20,2,5,0.5,0.4
2023-07-27T03:00:00,1479A,103.831,36.0464,兰州市,铁路设计院,,32,25,39,22,24,194,78,87,84,20,30,5,6,0.6,0.8
2023-07-27T03:00:00,1483A,101.524,36.6867,西宁市,第五水厂,,,,,,,,,,,,,,,,
2023-07-27T03:00:00,1484A,105.9512,38.6016,银川市,贺兰山马莲口,,18,18,25,8,14,143,49,80,59,27,11,4,5,0.5,0.6
2023-07-27T03:00:00,1488A,106.2328,38.4975,银川市,贺兰山东路,,34,34,40,17,19,192,73,92,85,24,15,7,9,0.4,0.4
2023-07-27T03:00:00,1489A,106.1358,38.5036,银川市,学院路,颗粒物(PM10),57,63,41,18,15,179,42,92,69,49,19,9,12,0.4,0.4
2023-07-27T03:00:00,1490A,87.5801,43.8303,乌鲁木齐市,监测站,颗粒物(PM10),65,79,55,23,13,161,28,20,20,70,46,4,5,0.7,0.7
2023-07-27T03:00:00,1491A,87.6046,43.768,乌鲁木齐市,收费所,颗粒物(PM10),51,51,46,23,16,191,49,26,26,36,38,8,10,0.3,0.3
2023-07-27T03:00:00,1492A,87.4754,43.9469,乌鲁木齐市,新疆农科院农场,颗粒物(PM10),149,248,100,97,40,151,6,5,5,97,53,7,5,1.1,0.7
2023-07-27T03:00:00,1493A,87.5525,43.8711,乌鲁木齐市,铁路局,颗粒物(PM10),81,111,60,25,16,156,30,10,10,66,47,4,4,0.3,0.3
2023-07-27T03:00:00,1494A,87.6432,43.831,乌鲁木齐市,三十一中学,颗粒物(PM10),67,83,46,18,15,172,66,40,40,55,53,3,4,0.5,0.5
2023-07-27T03:00:00,1496A,87.7216,44.1747,乌鲁木齐市,米东区环保局,颗粒物(PM10),71,91,70,18,23,136,19,33,28,64,28,6,7,0.6,0.3
2023-07-27T03:00:00,1508A,112.9433,27.8614,湘潭市,板塘,,32,32,30,17,16,152,22,27,22,30,20,9,10,0.8,0.8
2023-07-27T03:00:00,1511A,112.9118,27.8403,湘潭市,市监测站,,32,32,27,13,14,184,38,46,43,19,15,4,5,0.5,0.6
2023-07-27T03:00:00,1512A,112.8937,27.8728,湘潭市,江麓,,43,43,34,11,18,167,33,34,32,20,18,10,10,0.2,0.2
2023-07-27T03:00:00,1513A,112.9227,27.8159,湘潭市,岳塘,,25,25,30,9,15,161,40,45,40,22,18,11,11,0.2,0.4
2023-07-27T03:00:00,1514A,112.9074,27.9119,湘潭市,科大,颗粒物(PM10),53,55,35,31,22,174,32,28,28,15,16,6,6,0.5,0.4
2023-07-27T03:00:00,1515A,113.135,27.8244,株洲市,天台山庄,,30,30,28,13,15,108,38,35,35,12,9,5,4,0.5,0.5
2023-07-27T03:00:00,1518A,113.095,27.8867,株洲市,株冶医院,,25,25,28,13,14,128,46,41,41,12,15,4,4,0.4,0.5
2023-07-27T03:00:00,1519A,113.167,27.8667,株洲市,市四中,,28,28,26,13,13,133,27,27,26,19,11,6,4,0.5,0.5
2023-07-27T03:00:00,1520A,113.143,27.8381,株洲市,火车站,,29,29,28,9,14,110,39,41,39,12,8,7,5,0.4,0.4
2023-07-27T03:00:00,1524A,113.13,27.8528,株洲市,市监测站,,29,28,30,20,18,130,36,33,33,16,12,8,7,0.7,0.7
2023-07-27T03:00:00,1552A,106.805,26.3003,贵阳市,桐木岭,,33,29,37,23,25,84,61,59,59,2,6,2,1,0.4,0.4
2023-07-27T03:00:00,1559A,113.251,27.8336,株洲市,大京风景区,,32,32,24,8,9,86,25,21,21,9,5,7,5,0.3,0.5
2023-07-27T03:00:00,1562A,113.0048,27.9153,湘潭市,昭山,,29,29,28,11,13,140,5,11,7,37,19,3,4,0.6,0.5
2023-07-27T03:00:00,1564A,112.4876,27.9164,湘潭市,韶山,,34,34,31,12,12,117,69,66,66,6,7,7,7,0.5,0.5
2023-07-27T03:00:00,1585A,109.8756,40.6532,包头市,市环境监测站,,45,45,32,26,16,156,70,73,72,27,33,12,12,0.6,0.8
2023-07-27T03:00:00,1587A,109.9991,40.5842,包头市,包头八中,细颗粒物(PM2.5),80,61,36,59,25,154,61,64,63,46,27,7,13,1.0,0.8
2023-07-27T03:00:00,1588A,109.8538,40.6821,包头市,青山宾馆,细颗粒物(PM2.5),72,46,30,52,23,149,19,32,27,64,36,6,7,0.9,1.1
2023-07-27T03:00:00,1589A,109.8642,40.6288,包头市,惠龙物流,,47,47,29,17,15,155,71,94,81,33,24,13,11,0.5,0.6
2023-07-27T03:00:00,1590A,110.0377,40.5546,包头市,东河鸿龙湾,颗粒物(PM10),52,53,31,23,16,141,72,53,53,24,20,7,6,0.7,0.9
2023-07-27T03:00:00,1591A,110.0023,39.8129,鄂尔多斯市,综合楼,颗粒物(PM10),67,83,59,17,18,173,92,98,95,23,29,6,21,0.6,0.7
2023-07-27T03:00:00,1592A,109.9486,39.8261,鄂尔多斯市,巴音孟克林场办事处,,33,29,46,14,21,186,104,115,109,21,26,6,16,0.4,0.6
2023-07-27T03:00:00,1593A,109.7736,39.5986,鄂尔多斯市,康泽苑,,32,27,33,5,9,173,101,105,102,13,16,8,9,0.5,0.6
2023-07-27T03:00:00,1594A,109.8119,39.5989,鄂尔多斯市,华泰汽车城,,31,27,31,9,16,162,97,104,100,13,18,6,8,0.4,0.5
2023-07-27T03:00:00,1595A,109.9734,39.7884,鄂尔多斯市,奥林花园,,44,44,48,14,18,164,69,78,75,30,27,6,7,0.8,0.9
2023-07-27T03:00:00,1597A,122.2703,40.7094,营口市,大庆路,,24,21,36,10,15,151,76,79,77,8,13,5,5,0.6,0.7
2023-07-27T03:00:00,1598A,122.2150,40.6511,营口市,镜湖西路,,25,18,32,10,20,153,77,76,76,7,11,6,6,0.5,0.6
2023-07-27T03:00:00,1599A,122.1658,40.6789,营口市,西炮台,,26,23,32,12,17,149,81,80,80,12,16,5,3,0.5,0.6
2023-07-27T03:00:00,1600A,124.3303,40.0625,丹东市,江湾东路,,12,9,8,4,4,99,37,44,41,3,6,5,2,0.4,0.5
2023-07-27T03:00:00,1601A,124.4256,40.1503,丹东市,临江后街,,13,11,8,5,3,111,40,42,41,2,4,5,5,0.6,0.6
2023-07-27T03:00:00,1602A,124.3933,40.1461,丹东市,元宝山,,23,6,10,16,16,113,34,40,38,5,8,6,7,0.9,0.8
2023-07-27T03:00:00,1603A,124.3633,40.1092,丹东市,民主桥,,12,12,10,4,5,98,35,40,38,1,7,3,4,0.5,0.5
2023-07-27T03:00:00,1604A,122.0303,41.1489,盘锦市,开发区,,23,19,36,10,20,163,73,75,74,8,15,2,3,0.5,0.7
2023-07-27T03:00:00,1605A,122.0485,41.0883,盘锦市,兴隆台,,29,29,34,16,21,158,60,65,63,25,22,3,3,0.6,0.6
2023-07-27T03:00:00,1606A,121.8297,41.1028,盘锦市,新生街道,,28,16,29,9,16,173,88,88,88,10,13,5,5,0.3,0.4
2023-07-27T03:00:00,1607A,120.9092,40.7136,葫芦岛市,龙港区,细颗粒物(PM2.5),57,16,35,40,38,148,95,129,110,1,3,3,3,0.4,0.5
2023-07-27T03:00:00,1608A,120.8392,40.7514,葫芦岛市,化工街,,28,27,38,19,25,143,89,100,94,4,10,5,5,0.3,0.5
2023-07-27T03:00:00,1609A,120.8341,40.7073,葫芦岛市,新区,,38,19,32,26,34,139,95,115,105,2,5,3,3,0.6,0.6
2023-07-27T03:00:00,1610A,120.8695,40.7677,葫芦岛市,东城区,颗粒物(PM10),51,52,64,13,24,149,94,113,103,3,10,3,4,0.2,0.4
2023-07-27T03:00:00,1611A,118.5819,24.9117,泉州市,涂山街,,20,20,36,5,6,54,36,35,35,2,2,8,8,0.5,0.5
2023-07-27T03:00:00,1612A,118.5972,24.8978,泉州市,津头埔,,19,19,33,6,7,52,33,32,32,4,5,7,7,0.5,0.5
2023-07-27T03:00:00,1613A,118.6663,24.9424,泉州市,万安,,18,18,42,8,10,54,34,34,34,3,4,7,8,0.5,0.5
2023-07-27T03:00:00,1614A,118.6117,24.9604,泉州市,清源山,,,,21,,7,,,,,,3,,1,,
2023-07-27T03:00:00,1616A,117.6795,36.229,济南市,技术学院,,31,31,36,17,20,193,71,80,77,21,21,6,8,0.7,1
2023-07-27T03:00:00,1618A,118.3429,35.0532,临沂市,沂河小区,,19,19,24,13,14,116,50,63,56,16,14,4,4,0.1,0.3
2023-07-27T03:00:00,1619A,118.295,35.0583,临沂市,鲁南制药厂,,15,12,18,8,11,122,48,58,54,10,10,3,2,0.7,0.8
2023-07-27T03:00:00,1620A,118.2794,34.9976,临沂市,新光毛纺厂,,16,14,15,11,12,124,45,52,49,12,12,5,5,0.2,0.3
2023-07-27T03:00:00,1621A,118.3956,35.0888,临沂市,河东保险公司,,20,12,19,14,14,111,29,41,35,20,14,1,2,0.4,0.5
2023-07-27T03:00:00,1622A,116.3032,37.4674,德州市,儿童乐园,,46,46,41,31,26,192,86,100,90,18,16,8,7,0.8,0.6
2023-07-27T03:00:00,1624A,116.2991,37.4451,德州市,监理站,颗粒物(PM10),52,53,43,31,25,176,78,92,79,16,15,9,6,0.7,0.5
2023-07-27T03:00:00,1625A,115.9848,36.4372,聊城市,区政府,,45,45,38,24,18,206,83,96,92,15,15,5,5,0.8,0.7
2023-07-27T03:00:00,1628A,118.0062,37.3803,滨州市,市环保局,,41,41,58,20,40,252,32,51,40,32,29,5,7,0.6,0.5
2023-07-27T03:00:00,1629A,118.0018,37.3617,滨州市,第二水厂,,34,34,56,22,35,257,35,58,45,37,33,4,3,0.6,0.7
2023-07-27T03:00:00,1630A,117.9776,37.393,滨州市,北中新校,,47,47,58,24,35,247,36,55,44,33,26,4,5,0.6,0.6
2023-07-27T03:00:00,1631A,118.0414,36.8103,淄博市,人民公园,,27,27,46,17,25,245,86,83,83,27,30,12,13,0.4,0.5
2023-07-27T03:00:00,1633A,117.8525,36.4847,淄博市,双山,,25,18,29,12,18,210,78,86,83,12,13,8,9,0.5,0.7
2023-07-27T03:00:00,1634A,117.9592,36.6331,淄博市,气象站,,26,12,33,14,26,224,82,83,82,13,16,5,8,0.2,0.4
2023-07-27T03:00:00,1635A,118.3092,36.8194,淄博市,莆田园,,31,31,45,19,27,244,88,74,74,18,20,12,13,1.1,1.1
2023-07-27T03:00:00,1637A,117.558,34.8438,枣庄市,市中区政府,,39,39,31,12,18,146,72,66,66,20,18,9,12,0.4,0.4
2023-07-27T03:00:00,1638A,117.2852,34.7837,枣庄市,薛城环保局,,29,29,33,7,12,152,64,72,69,20,18,11,11,0.3,0.4
2023-07-27T03:00:00,1639A,117.5852,34.7745,枣庄市,峄城区政府,,46,46,29,14,10,135,56,71,63,22,16,12,10,0.7,0.5
2023-07-27T03:00:00,1640A,117.7276,34.5578,枣庄市,台儿庄区环保局,,34,34,21,14,10,118,31,48,39,31,15,11,8,0.5,0.5
2023-07-27T03:00:00,1641A,117.4518,35.0992,枣庄市,山亭区环保局,,32,29,25,22,20,166,91,92,92,9,12,7,7,0.2,0.2
2023-07-27T03:00:00,1642A,121.2514,37.5639,烟台市,开发区,,12,2,17,0,10,107,37,34,34,2,8,6,6,0.5,0.7
2023-07-27T03:00:00,1643A,121.3719,37.5433,烟台市,轴承厂,,15,9,20,3,11,111,47,48,48,2,3,2,2,0.1,0.2
2023-07-27T03:00:00,1644A,121.3181,37.5436,烟台市,西郊化工站,,14,7,20,2,12,107,44,43,43,1,5,3,3,0.1,0.2
2023-07-27T03:00:00,1645A,121.4478,37.4822,烟台市,莱山环保局,,15,12,17,2,8,101,46,47,47,1,4,4,4,0.3,0.4
2023-07-27T03:00:00,1646A,121.2611,37.4967,烟台市,福山环保局,,12,5,22,0,6,92,38,34,34,6,14,6,7,0,0.2
2023-07-27T03:00:00,1650A,119.1437,36.7023,潍坊市,环保局,,23,19,32,7,22,165,71,70,70,7,9,9,10,0.2,0.4
2023-07-27T03:00:00,1653A,116.6251,35.4302,济宁市,火炬城,,34,34,37,14,19,183,60,78,70,15,10,15,9,0.7,0.7
2023-07-27T03:00:00,1655A,116.5491,35.4042,济宁市,电化厂,,28,28,37,19,20,191,65,74,71,10,8,9,6,0.6,0.6
2023-07-27T03:00:00,1656A,117.1437,36.1937,泰安市,监测站,,31,31,37,12,20,184,74,85,80,7,8,8,8,0.3,0.4
2023-07-27T03:00:00,1657A,117.0885,36.2017,泰安市,人口学校,,25,22,29,12,19,182,79,80,80,6,8,7,7,0.3,0.4
2023-07-27T03:00:00,1658A,117.1089,36.1758,泰安市,电力学校,,31,31,36,17,22,190,76,81,79,5,7,8,9,0.4,0.4
2023-07-27T03:00:00,1659A,119.471,35.4209,日照市,监测站,,19,9,18,0,8,96,46,43,43,37,26,6,5,0.5,0.6
2023-07-27T03:00:00,1660A,119.523,35.4216,日照市,市政府广场,,18,12,18,6,8,112,57,54,54,14,10,8,7,0.3,0.4
2023-07-27T03:00:00,1661A,119.5587,35.4044,日照市,港务局,,21,19,22,3,5,122,66,66,66,9,11,6,7,0.4,0.4
2023-07-27T03:00:00,1662A,122.1214,37.4236,威海市,华夏技校,,10,7,14,7,12,78,25,34,29,5,6,5,5,0.2,0.2
2023-07-27T03:00:00,1663A,122.0508,37.5236,威海市,山大分校,,13,2,15,2,9,102,40,48,45,2,2,4,4,0.2,0.2
2023-07-27T03:00:00,1664A,122.1067,37.5072,威海市,市监测站,,10,7,18,7,17,98,31,40,34,2,3,8,8,0.3,0.4
2023-07-27T03:00:00,1666A,118.6614,37.4309,东营市,市环保局,,22,22,36,14,26,194,58,76,68,17,11,19,16,0.2,0.3
2023-07-27T03:00:00,1669A,113.5824,24.7733,韶关市,市八中,,23,23,36,6,13,107,34,41,37,6,7,12,15,0.6,0.6
2023-07-27T03:00:00,1671A,113.5917,24.7972,韶关市,园林处,,32,28,32,22,21,100,31,32,32,4,4,12,13,0.5,0.5
2023-07-27T03:00:00,1672A,113.6735,24.7791,韶关市,韶关学院,,42,34,50,29,35,94,8,20,13,17,10,10,13,0.5,0.5
2023-07-27T03:00:00,1673A,113.5971,24.6863,韶关市,曲江监测站,,31,31,40,12,21,111,34,41,39,13,9,23,19,0.4,0.5
2023-07-27T03:00:00,1674A,116.6794,23.3667,汕头市,金平子站,,37,37,36,17,13,93,42,55,49,11,13,5,7,0.7,0.7
2023-07-27T03:00:00,1675A,116.7244,23.3633,汕头市,龙湖子站,,42,42,36,14,11,99,62,61,61,8,14,6,6,0.5,0.5
2023-07-27T03:00:00,1676A,116.7258,23.2775,汕头市,濠江子站,,41,41,45,16,14,96,60,72,66,10,14,8,10,0.6,0.7
2023-07-27T03:00:00,1677A,116.7519,23.4714,汕头市,澄海子站,,12,12,24,7,11,80,22,32,26,22,18,20,11,0.6,0.6
2023-07-27T03:00:00,1678A,116.6092,23.2539,汕头市,潮阳子站,,40,40,56,19,14,105,70,70,70,6,11,9,9,0.7,0.8
2023-07-27T03:00:00,1680A,110.3539,21.2706,湛江市,湛江影剧院,,27,27,24,10,13,94,33,31,31,7,9,15,13,0.5,0.6
2023-07-27T03:00:00,1681A,110.3928,21.2228,湛江市,市环境监测站,,25,25,27,8,12,82,22,27,24,16,12,7,11,0.4,0.4
2023-07-27T03:00:00,1682A,110.4019,21.1997,湛江市,环保局宿舍,,35,17,22,24,14,86,30,36,34,12,9,28,10,0.5,0.5
2023-07-27T03:00:00,1683A,110.4111,21.2028,湛江市,霞山游泳场,,27,27,25,18,13,87,30,34,31,12,10,26,13,0.5,0.5
2023-07-27T03:00:00,1684A,110.3316,21.2679,湛江市,麻章区环保局,,26,20,24,18,16,88,29,27,27,8,10,5,10,0.5,0.5
2023-07-27T03:00:00,1685A,110.4558,21.2567,湛江市,坡头区环保局,,16,15,19,11,11,92,37,34,34,8,11,6,7,0.4,0.5
2023-07-27T03:00:00,1686A,111.0286,21.4688,茂名市,电白南海,,32,31,38,22,24,110,45,53,48,9,8,10,7,0.5,0.5
2023-07-27T03:00:00,1687A,110.9294,21.6533,茂名市,茂石化七小,,41,41,30,24,20,98,35,55,45,17,9,18,10,0.7,0.6
2023-07-27T03:00:00,1688A,110.9107,21.6687,茂名市,健康路,,36,36,27,12,12,99,37,45,41,19,11,17,10,0.6,0.4
2023-07-27T03:00:00,1689A,110.8592,21.6828,茂名市,高岭,颗粒物(PM10),57,63,38,22,22,94,36,47,43,18,11,14,9,0.8,0.6
2023-07-27T03:00:00,1690A,116.1231,24.3284,梅州市,梅江月梅,,29,29,25,12,11,74,2,5,4,33,19,3,2,0.6,0.6
2023-07-27T03:00:00,1691A,116.0797,24.2719,梅州市,梅县新城,,15,15,24,5,10,79,32,17,17,10,16,6,6,0.5,0.6
2023-07-27T03:00:00,1692A,116.1248,24.2654,梅州市,环境监控中心,,19,19,22,9,10,70,6,24,18,30,14,2,3,0.6,0.6
2023-07-27T03:00:00,1693A,115.3653,22.775,汕尾市,市环保局,,32,11,31,22,14,152,43,97,65,11,8,7,8,0.7,0.7
2023-07-27T03:00:00,1694A,115.3706,22.7898,汕尾市,市政府,,40,34,26,28,14,139,40,67,49,12,6,4,5,0.6,0.5
2023-07-27T03:00:00,1695A,115.3622,22.7925,汕尾市,新城中学,,36,36,37,18,12,130,36,79,51,10,5,6,7,0.7,0.6
2023-07-27T03:00:00,1696A,114.6778,23.7569,河源市,源西,,18,16,25,12,19,82,38,48,43,12,11,8,6,0.5,0.5
2023-07-27T03:00:00,1697A,114.6944,23.7586,河源市,东埔,,30,30,27,12,18,79,38,49,43,9,9,9,6,0.4,0.6
2023-07-27T03:00:00,1698A,114.6892,23.7233,河源市,老城,,34,34,33,8,16,55,42,52,46,8,5,6,4,0.6,0.6
2023-07-27T03:00:00,1699A,111.9797,21.8593,阳江市,鸳鸯湖,细颗粒物(PM2.5),58,52,32,41,20,115,40,51,43,14,10,9,9,0.9,0.8
2023-07-27T03:00:00,1701A,111.9491,21.8658,阳江市,马南垌,细颗粒物(PM2.5),58,59,37,41,24,113,21,36,30,19,12,8,8,0.6,0.6
2023-07-27T03:00:00,1702A,113.0426,23.691,清远市,环保大楼,,25,25,30,17,22,169,53,59,55,6,7,7,7,0.4,0.5
2023-07-27T03:00:00,1703A,113.0208,23.7106,清远市,凤城街办,,22,22,34,14,22,140,54,61,57,2,7,6,6,0.4,0.4
2023-07-27T03:00:00,1705A,116.6367,23.6719,潮州市,西园路,,13,13,23,8,8,53,23,23,23,6,7,4,5,0.3,0.4
2023-07-27T03:00:00,1706A,116.6447,23.6706,潮州市,档案局,,19,16,21,13,11,59,25,23,23,7,7,5,5,0.4,0.5
2023-07-27T03:00:00,1708A,116.3701,23.5345,揭阳市,新兴,,12,3,19,8,12,63,33,38,35,2,6,6,7,0.4,0.5
2023-07-27T03:00:00,1709A,116.3264,23.5443,揭阳市,西马,,12,9,24,8,12,70,28,34,31,3,8,6,7,0.5,0.6
2023-07-27T03:00:00,1710A,116.3611,23.5626,揭阳市,东兴,,10,10,22,7,10,57,32,36,34,7,12,2,3,0.5,0.6
2023-07-27T03:00:00,1711A,116.4151,23.5294,揭阳市,渔湖,,,,27,,14,42,,38,,,8,,5,,0.5
2023-07-27T03:00:00,1712A,112.0392,22.9169,云浮市,新市府,,35,33,34,24,19,127,24,30,26,11,8,4,5,0.9,0.9
2023-07-27T03:00:00,1714A,112.0539,22.9539,云浮市,牧羊,颗粒物(PM10),55,60,49,31,26,149,7,10,7,39,31,12,13,0.7,0.7
2023-07-27T03:00:00,1715A,102.575,24.3711,玉溪市,东风水库,,22,17,19,15,10,74,31,46,39,16,12,6,6,0.6,0.7
2023-07-27T03:00:00,1718A,115.4208,35.2464,菏泽市,气象局,,34,34,36,23,18,175,84,103,94,8,8,4,4,0.5,0.5
2023-07-27T03:00:00,1719A,115.4747,35.2375,菏泽市,市政协,,42,34,36,29,22,178,79,98,89,11,11,4,5,0.4,0.3
2023-07-27T03:00:00,1721A,113.3819,40.1097,大同市,果树场,细颗粒物(PM2.5),55,47,35,39,23,151,75,79,73,27,21,4,4,0.6,0.6
2023-07-27T03:00:00,1723A,113.2994,40.0758,大同市,云冈宾馆,颗粒物(PM10),59,68,48,39,21,179,121,116,116,16,24,8,8,0.6,0.6
2023-07-27T03:00:00,1724A,113.3444,40.0917,大同市,大同大学,,48,48,40,32,20,177,119,115,115,15,19,5,6,0.7,0.6
2023-07-27T03:00:00,1725A,113.2661,40.1269,大同市,安家小村,颗粒物(PM10),52,53,39,21,16,178,97,110,101,12,15,7,9,0.7,0.7
2023-07-27T03:00:00,1726A,113.2711,40.0844,大同市,教育学院,颗粒物(PM10),51,52,46,26,23,175,112,117,112,17,28,10,10,0.6,0.6
2023-07-27T03:00:00,1727A,113.1147,36.1547,长治市,清华站,,29,29,30,17,11,168,68,107,90,21,15,8,9,0.6,0.7
2023-07-27T03:00:00,1728A,113.1031,36.1989,长治市,监测站,,34,34,31,14,13,187,68,113,93,19,22,10,12,0.8,0.9
2023-07-27T03:00:00,1730A,113.0886,36.2125,长治市,审计局,,32,27,30,9,13,179,100,116,110,10,19,12,13,0.7,0.7
2023-07-27T03:00:00,1731A,113.0844,36.1856,长治市,长治八中,,31,30,36,15,14,176,99,110,105,8,16,9,9,1.0,0.8
2023-07-27T03:00:00,1733A,111.5531,36.0783,临汾市,临钢医院,,48,20,27,33,32,159,102,101,101,10,10,7,8,0.9,0.8
2023-07-27T03:00:00,1734A,111.5028,36.0714,临汾市,技工学校,颗粒物(PM10),52,53,42,16,15,157,99,95,95,11,13,6,7,0.6,0.8
2023-07-27T03:00:00,1736A,111.5018,36.0855,临汾市,市委,,49,49,43,26,27,146,88,88,85,12,14,6,7,0.7,0.7
2023-07-27T03:00:00,1738A,113.5758,37.8572,阳泉市,市中心,颗粒物(PM10),51,51,53,14,20,206,28,25,23,46,36,8,11,1.0,1
2023-07-27T03:00:00,1739A,113.4894,37.8731,阳泉市,赛鱼,颗粒物(PM10),51,51,47,16,21,197,22,38,33,32,25,9,11,0.9,0.8
2023-07-27T03:00:00,1740A,113.5819,37.8486,阳泉市,南庄,,40,40,56,22,23,207,86,85,85,14,20,7,11,0.8,1
2023-07-27T03:00:00,1742A,113.5614,37.8703,阳泉市,平坦,颗粒物(PM10),53,55,59,30,31,204,29,16,16,59,44,9,10,0.8,0.9
2023-07-27T03:00:00,1743A,113.5158,37.8392,阳泉市,大阳泉,,44,44,51,21,28,206,139,144,143,13,12,8,11,0.8,0.8
2023-07-27T03:00:00,1744A,118.9233,42.2816,赤峰市,松山一中,,40,40,30,23,12,185,125,124,122,24,28,12,12,0.6,0.5
2023-07-27T03:00:00,1745A,118.9576,42.2728,赤峰市,哈达街,,50,50,36,28,16,186,125,123,123,14,18,14,15,0.5,0.4
2023-07-27T03:00:00,1746A,118.8788,42.2554,赤峰市,天义路,,46,34,27,18,12,192,146,141,141,7,14,16,16,0.5,0.4
2023-07-27T03:00:00,1748A,123.044,41.1196,鞍山市,深沟寺,,19,19,22,10,14,146,57,74,65,4,6,6,7,0.5,0.6
2023-07-27T03:00:00,1749A,123.011,41.0931,鞍山市,太阳城,,20,19,23,9,12,137,64,80,70,4,6,5,5,0.7,0.9
2023-07-27T03:00:00,1750A,123.0485,41.1442,鞍山市,太平,,24,24,31,9,15,155,75,82,78,2,7,4,4,0.7,0.8
2023-07-27T03:00:00,1751A,122.9642,41.0971,鞍山市,铁西三道街,,27,27,35,14,20,168,77,82,79,5,14,3,4,0.4,0.7
2023-07-27T03:00:00,1752A,122.9341,41.0833,鞍山市,铁西工业园区,,29,29,31,12,18,150,39,60,49,24,17,4,2,1.0,0.9
2023-07-27T03:00:00,1753A,123.022,41.0821,鞍山市,明达新区,,26,17,22,9,14,144,81,86,83,4,7,3,3,0.4,0.5
2023-07-27T03:00:00,1754A,123.1289,41.0228,鞍山市,千山,,,,21,,12,119,,135,,,3,,4,,0.8
2023-07-27T03:00:00,1755A,123.7977,41.8491,抚顺市,望花区,,24,24,28,14,17,163,72,66,66,11,17,23,9,0.6,0.6
2023-07-27T03:00:00,1756A,123.9161,41.8822,抚顺市,顺城区,,,22,27,13,15,163,,,,6,12,2,2,0.7,0.6
2023-07-27T03:00:00,1757A,124.0436,41.8611,抚顺市,东洲区,,21,16,23,8,11,152,67,65,65,7,9,9,7,0.3,0.4
2023-07-27T03:00:00,1758A,123.9247,41.8642,抚顺市,新抚区,,25,25,27,14,15,159,49,59,53,11,14,5,6,0.7,0.6
2023-07-27T03:00:00,1759A,124.0972,41.8961,抚顺市,大伙房水库,,24,14,17,9,10,132,76,73,73,3,5,3,3,0.3,0.4
2023-07-27T03:00:00,1760A,123.7086,41.8391,抚顺市,沈抚新城,,16,16,36,0,11,147,51,52,52,13,17,5,6,0.4,0.7
2023-07-27T03:00:00,1761A,123.8275,41.3064,本溪市,大峪,,34,34,33,9,11,141,62,85,73,14,12,4,4,0.3,0.4
2023-07-27T03:00:00,1762A,123.7567,41.3325,本溪市,溪湖,,21,19,26,10,14,102,67,65,65,8,15,3,3,0.6,0.9
2023-07-27T03:00:00,1763A,123.7169,41.3094,本溪市,彩屯,,30,30,34,18,20,108,60,45,45,18,35,6,6,1.1,2.1
2023-07-27T03:00:00,1764A,123.7669,41.2864,本溪市,东明,,28,22,29,11,14,125,87,86,86,5,15,6,6,0.7,0.8
2023-07-27T03:00:00,1765A,123.7992,41.2664,本溪市,新立屯,,27,20,25,8,10,134,84,86,86,5,10,6,6,0.7,1.1
2023-07-27T03:00:00,1766A,123.8142,41.3472,本溪市,威宁,,29,29,30,14,14,124,21,29,25,17,14,5,6,0.5,0.5
2023-07-27T03:00:00,1767A,121.1115,41.0879,锦州市,南山,,45,45,41,31,29,153,89,117,103,5,10,18,10,0.5,0.6
2023-07-27T03:00:00,1768A,121.0533,40.8434,锦州市,开发区,,41,41,47,14,26,146,80,117,100,7,16,4,11,0.7,0.7
2023-07-27T03:00:00,1769A,121.1836,41.1119,锦州市,百股街道,颗粒物(PM10),51,52,38,24,30,158,102,123,114,3,9,3,9,0.6,0.7
2023-07-27T03:00:00,1770A,121.1178,41.1222,锦州市,天安街道,颗粒物(PM10),62,74,56,27,27,152,86,113,100,5,11,4,5,0.7,0.8
2023-07-27T03:00:00,1771A,121.1303,41.1386,锦州市,北湖公园,颗粒物(PM10),67,83,63,25,28,157,92,121,107,7,11,9,6,0.6,0.7
2023-07-27T03:00:00,1772A,126.54,43.8622,吉林市,哈达湾,,19,18,27,13,17,124,56,63,59,11,11,6,5,0.6,0.7
2023-07-27T03:00:00,1773A,126.5844,43.8358,吉林市,东局子,,23,23,24,16,18,133,37,50,46,14,12,5,5,0.8,0.9
2023-07-27T03:00:00,1774A,126.5052,43.8245,吉林市,电力学院,,27,27,26,12,16,130,32,45,37,19,16,6,6,0.6,0.7
2023-07-27T03:00:00,1775A,126.6133,43.8972,吉林市,江北,,27,27,33,13,17,132,60,66,64,5,10,6,6,0.7,0.8
2023-07-27T03:00:00,1776A,126.555,43.8306,吉林市,江南公园,,28,27,26,19,20,133,43,44,43,11,11,4,4,0.7,0.8
2023-07-27T03:00:00,1778A,126.7061,43.7133,吉林市,丰满,,,,,,,,,,,,,,,,
2023-07-27T03:00:00,1779A,123.9305,47.3636,齐齐哈尔市,安居小区,,25,12,31,2,15,108,77,108,92,14,16,5,5,0.5,0.7
2023-07-27T03:00:00,1780A,123.9488,47.3386,齐齐哈尔市,中心广场,,28,10,26,3,7,128,87,120,103,20,17,2,3,0.4,0.5
2023-07-27T03:00:00,1781A,123.9483,47.3227,齐齐哈尔市,农牧车辆厂,,26,24,36,2,10,133,82,115,100,18,15,6,7,0.5,0.4
2023-07-27T03:00:00,1783A,123.945,47.2988,齐齐哈尔市,市环境监测站,,30,10,20,8,14,143,93,136,111,10,13,5,5,0.3,0.4
2023-07-27T03:00:00,1784A,129.61,44.561,牡丹江市,环保大楼,,19,19,15,6,10,112,30,45,38,13,11,5,5,0.5,0.5
2023-07-27T03:00:00,1785A,129.6115,44.5782,牡丹江市,文化广场,,26,12,13,18,16,111,30,22,22,14,15,4,5,0.4,0.5
2023-07-27T03:00:00,1786A,129.5904,44.5963,牡丹江市,第一医院,,24,24,20,11,11,107,4,22,14,26,13,4,4,0.5,0.4
2023-07-27T03:00:00,1787A,129.6364,44.6075,牡丹江市,机车工厂,,20,20,24,10,7,105,12,14,14,17,13,2,3,0.6,0.6
2023-07-27T03:00:00,1788A,129.6386,44.5462,牡丹江市,第一中学,,31,31,45,4,7,115,20,24,18,15,20,4,4,0.4,0.4
2023-07-27T03:00:00,1789A,124.81117,46.03138,大庆市,大同区,,37,8,28,10,21,133,118,133,124,4,8,4,4,0.3,0.4
2023-07-27T03:00:00,1790A,125.129,46.533,大庆市,龙凤区,,27,16,22,13,11,112,86,112,99,21,20,5,5,0.2,0.4
2023-07-27T03:00:00,1791A,124.902,46.408,大庆市,红岗区,,34,25,19,15,18,135,107,135,122,7,7,2,2,0.2,0.4
2023-07-27T03:00:00,1792A,125.153,46.586,大庆市,萨尔图区,,33,3,26,3,14,116,105,116,111,6,10,3,4,0.0,0.4
2023-07-27T03:00:00,1793A,124.9042,46.6215,大庆市,让胡路区,,29,16,23,13,12,122,91,122,110,6,7,1,2,0.3,0.4
2023-07-27T03:00:00,1794A,118.3606,31.3519,芜湖市,监测站,,24,24,32,8,14,122,31,57,43,16,19,4,4,0.4,0.5
2023-07-27T03:00:00,1795A,118.3714,31.4134,芜湖市,科创中心,,24,24,32,10,15,118,28,54,40,16,21,5,6,0.4,0.5
2023-07-27T03:00:00,1796A,118.3673,31.3131,芜湖市,四水厂,,27,27,30,10,12,137,33,56,44,14,15,3,3,0.5,0.6
2023-07-27T03:00:00,1798A,118.5092,31.6837,马鞍山市,湖东路四小,,18,18,31,10,15,123,24,48,37,21,16,7,7,0.6,0.7
2023-07-27T03:00:00,1799A,118.5024,31.6449,马鞍山市,开发区,,27,27,41,9,14,108,29,46,38,13,19,8,8,0.6,0.7
2023-07-27T03:00:00,1800A,118.5228,31.7231,马鞍山市,慈湖,,31,31,38,14,19,125,35,51,42,11,19,6,8,0.4,0.6
2023-07-27T03:00:00,1802A,118.6245,31.7241,马鞍山市,濮塘,,45,12,17,31,18,119,39,57,48,7,8,4,4,0.4,0.5
2023-07-27T03:00:00,1803A,115.9872,29.6815,九江市,十里,,28,28,28,19,18,102,35,75,56,15,14,12,12,0.7,0.7
2023-07-27T03:00:00,1804A,115.9584,29.7046,九江市,茅山头,,22,22,23,12,17,125,34,73,48,22,21,6,8,0.7,0.8
2023-07-27T03:00:00,1805A,115.9877,29.7295,九江市,西园,,29,29,26,10,12,133,34,71,48,16,20,9,9,0.5,0.6
2023-07-27T03:00:00,1806A,116.0172,29.6547,九江市,五七二七厂,,27,27,25,6,14,84,33,62,48,12,9,10,9,0.9,0.8
2023-07-27T03:00:00,1808A,115.9114,29.6038,九江市,综合工业园,,,,31,,19,63,,61,,,29,,12,,1.1
2023-07-27T03:00:00,1809A,116.0721,29.7535,九江市,石化总厂,,22,22,28,7,12,120,29,58,40,17,19,10,11,0.6,0.7
2023-07-27T03:00:00,1810A,115.9773,29.5698,九江市,庐山气象台,,24,6,16,5,11,148,76,70,70,1,2,7,7,0.9,0.8
2023-07-27T03:00:00,1812A,112.3931,34.6516,洛阳市,市委党校,颗粒物(PM10),53,56,40,33,27,154,53,116,91,22,8,2,2,1.0,0.9
2023-07-27T03:00:00,1814A,112.4657,34.6871,洛阳市,豫西宾馆,颗粒物(PM10),55,60,46,36,29,164,72,65,65,17,13,4,3,0.7,0.6
2023-07-27T03:00:00,1815A,112.494,34.6886,洛阳市,河南林校,,42,42,38,22,21,163,69,62,62,21,18,5,5,0.7,0.6
2023-07-27T03:00:00,1816A,112.3844,34.623,洛阳市,开发区管委会,,49,49,43,25,23,162,51,114,84,37,17,7,7,0.6,0.7
2023-07-27T03:00:00,1817A,112.4267,34.6258,洛阳市,市委新办公区,,45,40,43,31,29,154,70,116,93,17,13,3,3,0.6,0.4
2023-07-27T03:00:00,1818A,114.4839,36.0621,安阳市,棉研所,颗粒物(PM10),54,58,40,27,18,160,81,88,86,16,9,6,6,0.7,0.7
2023-07-27T03:00:00,1819A,114.3551,36.1017,安阳市,红庙街,颗粒物(PM10),67,83,42,32,19,167,63,96,82,16,7,2,4,0.4,0.4
2023-07-27T03:00:00,1820A,114.361,36.0681,安阳市,银杏小区,,,56,39,,25,168,62,94,77,28,16,6,9,0.5,0.5
2023-07-27T03:00:00,1824A,114.3389,34.7781,开封市,肿瘤医院,颗粒物(PM10),68,85,45,24,17,150,66,84,75,14,14,3,2,0.5,0.5
2023-07-27T03:00:00,1826A,114.2885,34.7965,开封市,世纪星幼儿园,颗粒物(PM10),56,61,36,32,23,155,82,102,94,13,13,2,3,0.8,0.7
2023-07-27T03:00:00,1828A,113.227,35.2125,焦作市,市环保局,,45,31,33,31,20,175,81,105,90,13,10,3,4,0.7,0.7
2023-07-27T03:00:00,1830A,113.1992,35.2590,焦作市,影视城,,33,24,20,13,16,160,103,123,113,4,6,3,3,0.7,0.7
2023-07-27T03:00:00,1832A,113.3257,33.742,平顶山市,新华旅馆,,44,44,37,21,17,150,80,99,90,30,17,6,5,0.4,0.5
2023-07-27T03:00:00,1833A,113.2919,33.737,平顶山市,规划设计院,,31,31,34,18,19,150,94,92,92,17,13,10,7,0.7,0.7
2023-07-27T03:00:00,1834A,113.182,33.774,平顶山市,平顶山工学院,,41,41,40,17,15,162,93,96,95,21,15,10,7,0.5,0.5
2023-07-27T03:00:00,1835A,111.1922,34.7752,三门峡市,市政府,,36,36,36,25,20,133,108,110,110,10,10,4,3,0.6,0.6
2023-07-27T03:00:00,1836A,111.1587,34.7942,三门峡市,开发区,颗粒物(PM10),52,54,45,25,20,137,114,112,112,11,14,4,4,0.6,0.6
2023-07-27T03:00:00,1838A,111.143,34.7955,三门峡市,风景区,,39,36,37,27,24,132,116,113,113,4,7,6,6,0.7,0.6
2023-07-27T03:00:00,1840A,111.2992,30.6981,宜昌市,白龙岗,,27,27,32,12,16,108,23,26,25,13,21,3,4,0.5,0.6
2023-07-27T03:00:00,1841A,111.3549,30.6465,宜昌市,伍家岗,,30,30,27,14,17,110,44,50,47,10,18,2,3,0.6,0.6
2023-07-27T03:00:00,1842A,111.2628,30.6961,宜昌市,点军区,,26,26,30,12,12,120,26,32,30,7,13,4,4,0.6,0.7
2023-07-27T03:00:00,1843A,111.3275,30.7819,宜昌市,夷陵区,,29,29,28,7,13,110,24,30,26,8,13,1,1,0.6,0.6
2023-07-27T03:00:00,1844A,112.2494,30.3197,荆州市,市图书馆,,23,20,27,16,17,145,56,68,60,10,10,7,7,0.6,0.6
2023-07-27T03:00:00,1845A,112.2008,30.3544,荆州市,市委党校,,23,23,29,11,18,147,53,57,53,12,9,6,6,0.6,0.7
2023-07-27T03:00:00,1847A,113.1094,29.3578,岳阳市,南湖风景区,,29,19,25,20,16,182,34,47,42,23,15,14,11,0.7,0.7
2023-07-27T03:00:00,1848A,113.1493,29.4251,岳阳市,城陵矶,,21,21,26,11,16,150,37,50,40,24,22,15,11,0.6,0.7
2023-07-27T03:00:00,1849A,113.1497,29.3575,岳阳市,开发区,,23,23,27,6,11,165,34,50,45,24,17,12,10,0.5,0.8
2023-07-27T03:00:00,1850A,113.2621,29.4758,岳阳市,云溪区,,16,16,28,7,14,145,36,56,43,17,11,8,8,0.5,0.6
2023-07-27T03:00:00,1851A,112.9943,29.4402,岳阳市,君山区,,17,13,23,11,14,140,52,62,57,10,12,7,7,0.5,0.6
2023-07-27T03:00:00,1852A,113.2117,29.355,岳阳市,金凤水库,,26,26,20,8,11,147,40,39,39,17,8,3,2,0.2,0.3
2023-07-27T03:00:00,1854A,111.6975,28.9703,常德市,市二中,,35,32,23,24,16,112,25,33,29,12,8,6,4,0.7,0.6
2023-07-27T03:00:00,1857A,111.7158,29.1456,常德市,白鹤山,,,18,16,5,7,92,32,52,39,8,3,6,7,,0.5
2023-07-27T03:00:00,1858A,110.5319,29.1217,张家界市,永定新区,,30,30,18,18,15,48,10,5,5,6,11,4,5,0.4,0.2
2023-07-27T03:00:00,1859A,110.4697,29.1242,张家界市,电业局,,25,25,20,17,10,52,8,8,8,8,16,7,5,0.4,0.4
2023-07-27T03:00:00,1860A,110.5594,29.3547,张家界市,未央路,,32,32,13,9,7,63,4,4,4,9,11,3,3,0.3,0.2
2023-07-27T03:00:00,1861A,110.4417,29.315,张家界市,袁家界,,10,10,6,5,4,63,31,49,37,4,5,6,6,0.7,0.7
2023-07-27T03:00:00,1862A,110.4144,25.3167,桂林市,电子科大尧山校区,,33,21,35,23,23,121,47,57,53,7,6,6,7,0.6,0.6
2023-07-27T03:00:00,1863A,110.2819,25.2697,桂林市,监测站,,32,32,38,19,18,120,52,56,55,9,10,5,5,0.6,0.6
2023-07-27T03:00:00,1864A,110.3089,25.2708,桂林市,龙隐路小学,,33,31,33,23,26,121,49,50,49,9,10,11,13,0.6,0.5
2023-07-27T03:00:00,1865A,110.2869,25.2178,桂林市,八中,,33,33,34,23,24,113,52,61,57,10,11,5,5,0.6,0.6
2023-07-27T03:00:00,1866A,109.2262,21.588,北海市,牛尾岭水库,,12,12,19,6,7,74,36,34,34,8,9,5,5,0.4,0.5
2023-07-27T03:00:00,1867A,109.1436,21.4086,北海市,海滩公园,,17,17,21,2,4,70,47,47,47,3,3,3,4,0.3,0.5
2023-07-27T03:00:00,1868A,109.0981,21.4661,北海市,新市环保局,,16,10,11,2,6,70,51,50,50,3,3,2,3,0.5,0.5
2023-07-27T03:00:00,1869A,109.1778,21.5233,北海市,北海工业园,,16,13,19,10,10,73,51,48,48,2,5,4,5,0.5,0.5
2023-07-27T03:00:00,1870A,109.4856,24.3895,柳州市,柳东小学,,39,30,39,27,31,152,62,70,66,10,12,6,12,0.3,0.3
2023-07-27T03:00:00,1871A,109.4157,24.3277,柳州市,环保监测站,,33,30,41,23,24,124,64,64,64,8,14,5,6,0.6,0.6
2023-07-27T03:00:00,1872A,109.389,24.341,柳州市,河西水厂,,35,30,49,24,29,135,69,70,70,9,17,6,9,0.5,0.6
2023-07-27T03:00:00,1873A,109.4311,24.2921,柳州市,市四中,,33,31,38,23,23,119,64,61,61,9,13,9,8,0.5,0.6
2023-07-27T03:00:00,1874A,109.4006,24.3631,柳州市,市九中,,37,37,50,23,25,136,62,72,68,8,14,8,10,0.7,0.8
2023-07-27T03:00:00,1875A,109.4958,24.3134,柳州市,古亭山,,23,23,33,13,19,124,67,59,59,14,19,17,14,0.6,0.6
2023-07-27T03:00:00,1876A,109.5078,18.2489,三亚市,河东子站,,12,4,12,3,4,50,36,45,41,4,6,1,2,0.5,0.4
2023-07-27T03:00:00,1877A,109.4964,18.2681,三亚市,河西子站,,10,7,10,5,4,51,29,48,39,6,5,1,1,0.3,0.4
2023-07-27T03:00:00,1878A,104.7778,31.4741,绵阳市,富乐山,,19,19,19,11,15,73,33,32,32,7,10,4,4,0.5,0.5
2023-07-27T03:00:00,1879A,104.7563,31.4535,绵阳市,市人大,,14,13,19,9,13,82,42,39,39,8,19,6,6,0.5,0.5
2023-07-27T03:00:00,1880A,104.6697,31.4668,绵阳市,高新区自来水公司,,15,9,23,10,16,82,35,32,32,12,17,6,6,0.5,0.5
2023-07-27T03:00:00,1881A,104.7287,31.5075,绵阳市,三水厂,,20,18,23,14,15,82,24,30,28,14,16,6,6,0.6,0.6
2023-07-27T03:00:00,1882A,104.563,28.793,宜宾市,石马中学,,21,5,7,4,7,94,65,66,66,6,8,3,2,0.6,0.6
2023-07-27T03:00:00,1883A,104.6201,28.7728,宜宾市,市委,,19,6,16,5,12,82,59,59,59,8,13,6,6,0.5,0.5
2023-07-27T03:00:00,1884A,104.6055,28.793,宜宾市,宜宾四中,,21,7,17,5,13,90,67,66,66,6,10,4,5,0.5,0.6
2023-07-27T03:00:00,1885A,104.639,28.7562,宜宾市,市政府,,23,4,15,2,13,89,71,69,69,7,10,6,7,0.5,0.6
2023-07-27T03:00:00,1886A,104.5742,28.7199,宜宾市,黄金嘴,,17,10,15,5,10,94,53,56,54,14,12,6,4,0.7,0.6
2023-07-27T03:00:00,1888A,101.6891,26.571,攀枝花市,弄弄坪,,28,28,37,14,16,109,55,57,56,10,17,6,10,0.8,0.8
2023-07-27T03:00:00,1889A,101.5769,26.5928,攀枝花市,河门口,,37,37,41,16,18,123,39,39,39,26,19,23,17,1.7,1.3
2023-07-27T03:00:00,1890A,101.7169,26.585,攀枝花市,炳草岗,,24,24,37,13,16,112,55,56,55,9,18,15,21,0.9,0.9
2023-07-27T03:00:00,1891A,101.7369,26.5008,攀枝花市,仁和,,36,31,22,25,13,84,20,30,25,17,13,6,7,0.9,0.7
2023-07-27T03:00:00,1893A,105.4324,28.9634,泸州市,九狮山,,14,14,15,5,6,48,32,25,25,11,15,5,5,0.5,0.5
2023-07-27T03:00:00,1894A,105.4427,28.9063,泸州市,小市上码头,,16,10,14,8,10,70,49,49,48,4,14,4,6,0.5,0.7
2023-07-27T03:00:00,1895A,105.4241,28.8573,泸州市,兰田宪桥,,14,14,13,6,8,77,39,42,41,4,8,5,6,0.6,0.6
2023-07-27T03:00:00,1896A,105.4379,28.8833,泸州市,市环监站,,16,9,12,0,5,72,51,50,50,2,10,2,4,0.4,0.6
2023-07-27T03:00:00,1901A,104.4239,31.1208,德阳市,东山公园,,25,12,11,10,11,92,77,58,58,2,5,1,1,0.4,0.4
2023-07-27T03:00:00,1902A,104.3826,31.1317,德阳市,西小区,,24,18,24,10,12,89,75,65,65,2,8,3,3,0.4,0.4
2023-07-27T03:00:00,1904A,104.3553,31.1091,德阳市,耐火材料厂,,24,7,12,12,14,93,76,58,58,2,5,3,3,0.4,0.5
2023-07-27T03:00:00,1905A,106.056,30.8064,南充市,西山风景区,颗粒物(PM10),54,58,44,12,19,76,31,25,25,6,6,1,1,0.4,0.5
2023-07-27T03:00:00,1906A,106.0789,30.8023,南充市,南充市委,,23,23,36,8,17,85,19,16,16,16,19,7,9,0.4,0.5
2023-07-27T03:00:00,1907A,106.1031,30.8217,南充市,南充炼油厂,,22,22,41,10,21,89,31,27,27,13,16,7,8,0.3,0.4
2023-07-27T03:00:00,1908A,106.1064,30.7856,南充市,高坪区监测站,,23,23,33,13,20,87,12,21,18,26,21,6,6,0.4,0.5
2023-07-27T03:00:00,1909A,106.0642,30.7636,南充市,嘉陵区环保局,,23,23,35,14,20,86,14,25,16,22,23,5,7,0.3,0.4
2023-07-27T03:00:00,1910A,106.1087,30.8388,南充市,市环境监测站,,32,23,33,22,23,87,28,25,25,11,16,6,6,0.2,0.3
2023-07-27T03:00:00,1911A,106.9222,27.6869,遵义市,丁字口,,26,26,21,11,9,102,31,30,30,17,18,6,4,0.8,0.7
2023-07-27T03:00:00,1912A,106.9242,27.7019,遵义市,凤凰山,,22,22,21,11,15,95,44,42,42,6,11,7,7,0.5,0.5
2023-07-27T03:00:00,1913A,106.8906,27.6486,遵义市,忠庄,,25,25,26,10,12,108,31,27,27,10,12,1,2,0.5,0.5
2023-07-27T03:00:00,1914A,106.9231,27.6506,遵义市,舟水桥,,11,11,15,6,12,104,22,28,25,8,9,1,1,0.6,0.6
2023-07-27T03:00:00,1915A,106.9178,27.72,遵义市,干田坝,,19,15,22,13,14,108,25,41,33,14,14,6,6,0.7,0.6
2023-07-27T03:00:00,1916A,103.7897,25.5035,曲靖市,环境监测站,,21,21,26,7,12,99,48,54,52,14,13,3,4,0.7,0.6
2023-07-27T03:00:00,1917A,103.8,25.5364,曲靖市,烟厂办公区,,26,26,26,8,11,102,53,54,54,10,10,4,5,0.6,0.5
2023-07-27T03:00:00,1918A,108.7197,34.3956,咸阳市,气象站,,,,,,,,,,,,,,,,
2023-07-27T03:00:00,1919A,108.673,34.3155,咸阳市,实验中学,,26,26,36,14,16,163,47,66,60,19,11,4,5,0.5,0.5
2023-07-27T03:00:00,1920A,108.7233,34.3617,咸阳市,师范学院,,44,44,33,22,16,153,37,66,54,35,20,4,4,0.5,0.5
2023-07-27T03:00:00,1922A,109.0656,35.0994,铜川市,党校,颗粒物(PM10),63,75,36,16,14,121,42,39,35,24,12,7,7,0.9,0.8
2023-07-27T03:00:00,1923A,109.0697,35.0697,铜川市,王益区政府,,46,46,28,15,16,124,24,48,37,26,10,3,3,0.7,0.7
2023-07-27T03:00:00,1924A,108.9344,34.9058,铜川市,新区管委会,,46,46,37,14,16,137,51,52,51,18,15,10,7,0.6,0.6
2023-07-27T03:00:00,1926A,109.4131,36.6275,延安市,枣园,,49,49,34,17,16,154,16,29,21,45,22,6,7,0.6,0.7
2023-07-27T03:00:00,1927A,109.4761,36.6028,延安市,延大医附院,,41,41,38,14,17,137,31,34,33,34,24,4,5,0.7,0.6
2023-07-27T03:00:00,1929A,109.5056,36.6106,延安市,百米大道,,39,39,38,17,17,140,44,46,45,22,22,8,8,0.7,0.7
2023-07-27T03:00:00,1930A,107.185,34.3063,宝鸡市,庙沟村,,46,46,39,22,20,135,58,92,75,14,9,7,7,0.4,0.4
2023-07-27T03:00:00,1931A,107.0708,34.3017,宝鸡市,竹园沟,,38,35,36,26,24,182,43,58,52,14,14,5,6,0.6,0.6
2023-07-27T03:00:00,1932A,107.1906,34.3672,宝鸡市,三陆医院,颗粒物(PM10),52,53,53,27,28,174,72,80,71,22,22,6,8,0.6,0.6
2023-07-27T03:00:00,1933A,107.1431,34.3547,宝鸡市,监测站,,47,47,45,27,24,175,66,68,67,25,22,10,10,0.5,0.5
2023-07-27T03:00:00,1934A,107.1186,34.3739,宝鸡市,技工学校,细颗粒物(PM2.5),58,52,47,41,30,180,62,86,73,22,18,6,5,0.6,0.5
2023-07-27T03:00:00,1935A,107.3906,34.3528,宝鸡市,陈仓区环保局家属楼,颗粒物(PM10),52,54,48,31,31,176,62,68,63,35,26,6,6,0.5,0.5
2023-07-27T03:00:00,1936A,107.2058,34.3497,宝鸡市,文理学院,,48,48,46,24,23,174,75,80,79,18,16,9,11,0.4,0.4
2023-07-27T03:00:00,1937A,107.2386,34.3622,宝鸡市,三迪小学,,47,47,48,24,27,170,67,69,68,22,19,5,6,0.5,0.5
2023-07-27T03:00:00,1938A,109.5293,34.5101,渭南市,农科所,,36,36,30,17,16,125,29,19,19,20,17,4,5,0.7,0.7
2023-07-27T03:00:00,1939A,109.4974,34.4877,渭南市,日报社,,38,34,32,26,17,138,16,12,12,35,21,6,6,0.3,0.4
2023-07-27T03:00:00,1940A,109.4636,34.493,渭南市,体育馆,,36,36,25,15,11,140,26,15,15,33,17,5,4,0.4,0.4
2023-07-27T03:00:00,1941A,109.4259,34.5023,渭南市,高新一小,,46,46,32,14,10,137,22,29,25,25,12,5,6,0.4,0.4
2023-07-27T03:00:00,1943A,102.1725,38.5339,金昌市,新川苑,颗粒物(PM10),57,63,221,7,45,135,80,132,105,16,14,16,14,0.7,0.6
2023-07-27T03:00:00,1944A,102.1692,38.5167,金昌市,天庆家园,颗粒物(PM10),53,55,170,17,42,134,88,129,108,16,17,19,22,0.8,0.6
2023-07-27T03:00:00,1945A,98.2908,39.7711,嘉峪关市,气象局,,44,44,42,12,13,150,114,91,91,7,17,3,4,0.3,0.4
2023-07-27T03:00:00,1947A,106.3394,38.817,石嘴山市,沙湖旅游区,,38,31,47,19,20,200,120,139,128,6,13,17,37,0.6,0.8
2023-07-27T03:00:00,1948A,106.3668,39.0145,石嘴山市,大武口朝阳西街,,40,29,55,16,21,220,127,114,114,2,18,9,21,0.3,0.5
2023-07-27T03:00:00,1949A,106.7704,39.2282,石嘴山市,惠农南大街,颗粒物(PM10),58,66,66,22,19,187,78,79,79,35,31,86,34,1.5,0.9
2023-07-27T03:00:00,1950A,106.7099,39.1325,石嘴山市,红果子镇惠新街,,46,46,65,14,25,193,100,78,78,15,26,15,22,0.8,0.8
2023-07-27T03:00:00,1951A,84.895,45.6094,克拉玛依市,长征新村,,36,36,32,9,6,134,103,106,105,3,19,10,10,0.2,0.3
2023-07-27T03:00:00,1952A,84.8988,45.5893,克拉玛依市,南林小区,,31,28,36,19,16,135,98,68,68,7,33,3,4,0.1,0.3
2023-07-27T03:00:00,1954A,84.905,44.3396,克拉玛依市,独山子区,,37,31,39,13,15,171,118,105,105,4,11,6,8,0.3,0.4
2023-07-27T03:00:00,1955A,85.6979,46.098,克拉玛依市,乌尔禾区商贸楼,,32,24,24,22,11,117,45,50,49,21,19,8,8,0.5,0.5
2023-07-27T03:00:00,1956A,86.1472,41.7538,巴音郭楞州,孔雀公园,颗粒物(PM10),86,121,102,40,35,123,0,0,0,98,22,6,5,0.6,0.4
2023-07-27T03:00:00,1957A,86.1972,41.7166,巴音郭楞州,棉纺厂,颗粒物(PM10),114,178,120,46,40,122,43,24,24,24,12,4,4,0.2,0.2
2023-07-27T03:00:00,1958A,86.2357,41.7173,巴音郭楞州,经济开发区,颗粒物(PM10),187,323,126,70,37,125,58,39,39,17,10,4,4,0.2,0.2
2023-07-27T03:00:00,1961A,117.532,36.6868,济南市,东山小学,,34,34,44,20,23,250,98,104,102,11,20,6,25,0.7,0.7
2023-07-27T03:00:00,1966A,120.0405,35.8735,青岛市,黄岛区4号,,21,12,17,2,6,130,65,62,62,8,11,4,3,0.2,0.3
2023-07-27T03:00:00,1982A,122.0693,37.2174,威海市,文登开发区,,10,9,16,2,6,79,32,38,34,4,6,5,5,0.2,0.2
2023-07-27T03:00:00,2031A,113.1817,27.9958,株洲市,云田中学,,26,26,24,7,14,116,12,24,18,24,9,7,6,0.5,0.4
2023-07-27T03:00:00,2054A,114.1099,32.1059,信阳市,平桥分局,,31,31,27,7,13,122,50,47,47,8,8,1,1,0.5,0.7
2023-07-27T03:00:00,2064A,113.9956,32.1271,信阳市,南湾水厂,,15,14,30,10,15,115,36,33,33,13,10,1,2,0.5,0.6
2023-07-27T03:00:00,2065A,114.0775,32.1195,信阳市,市酿酒公司,,25,19,29,17,21,121,54,51,51,9,11,1,2,0.6,0.7
2023-07-27T03:00:00,2066A,114.0609,32.1399,信阳市,审计局,,27,27,34,11,20,120,57,52,52,5,9,1,2,0.5,0.6
2023-07-27T03:00:00,2067A,114.6613,33.6128,周口市,市环境监测站,,41,41,29,22,18,156,56,77,66,14,10,5,3,0.5,0.5
2023-07-27T03:00:00,2068A,114.6758,33.6347,周口市,周口师范,,24,24,28,9,10,152,56,80,68,11,7,4,4,0.4,0.4
2023-07-27T03:00:00,2069A,114.6546,33.5979,周口市,市运管处,,30,30,29,14,14,148,51,71,59,14,10,8,4,0.5,0.5
2023-07-27T03:00:00,2070A,114.6369,33.6406,周口市,川汇区环保局,,29,29,27,9,9,149,58,78,68,8,5,3,2,0.5,0.5
2023-07-27T03:00:00,2075A,117.6336,24.4674,漳州市,九湖,,,,19,,7,,,,,,10,,3,,
2023-07-27T03:00:00,2160A,112.85,35.5051,晋城市,自来水公司,,41,41,31,12,11,173,128,158,144,11,14,8,9,0.8,0.8
2023-07-27T03:00:00,2161A,112.8318,35.4936,晋城市,白云商贸,,40,24,24,12,12,169,125,154,142,13,16,9,9,0.8,0.7
2023-07-27T03:00:00,2162A,112.8508,35.4887,晋城市,市环保局,,36,33,27,14,15,163,115,144,132,16,18,8,9,0.8,0.8
2023-07-27T03:00:00,2163A,112.8676,35.4897,晋城市,技术学院,,33,30,31,12,11,158,104,140,123,18,16,8,9,0.9,0.8
2023-07-27T03:00:00,2165A,112.8453,35.546,晋城市,白马寺,,49,40,29,34,26,155,115,138,127,12,12,6,6,0.6,0.6
2023-07-27T03:00:00,2166A,112.4397,39.3522,朔州市,平朔,颗粒物(PM10),51,52,44,34,26,171,137,129,129,8,10,4,5,0.7,0.7
2023-07-27T03:00:00,2167A,112.4575,39.3617,朔州市,朔唯,细颗粒物(PM2.5),60,63,29,43,26,200,103,135,119,13,9,5,7,0.7,0.7
2023-07-27T03:00:00,2168A,112.4258,39.3197,朔州市,区政府,,48,48,38,28,19,176,136,132,132,15,15,5,5,0.6,0.6
2023-07-27T03:00:00,2169A,112.4072,39.3278,朔州市,市环保局,,50,50,47,33,23,188,154,151,151,3,7,4,7,0.7,0.6
2023-07-27T03:00:00,2170A,112.4272,39.3681,朔州市,市二中,细颗粒物(PM2.5),57,49,42,40,24,189,138,138,138,10,11,5,7,0.6,0.5
2023-07-27T03:00:00,2171A,112.7532,37.6945,晋中市,锦纶小区,颗粒物(PM10),51,51,45,13,13,180,95,125,111,26,16,13,13,0.8,0.7
2023-07-27T03:00:00,2173A,112.7249,37.7067,晋中市,南都小区,,44,44,46,25,22,182,118,129,120,17,14,13,12,0.7,0.6
2023-07-27T03:00:00,2174A,112.6991,37.6982,晋中市,榆次区政府,颗粒物(PM10),51,51,43,18,22,175,121,131,124,18,15,13,12,0.7,0.6
2023-07-27T03:00:00,2175A,110.9956,35.0147,运城市,运城中学,颗粒物(PM10),52,53,41,25,21,146,138,136,136,3,7,5,5,0.5,0.4
2023-07-27T03:00:00,2178A,110.9686,35.0303,运城市,地区技校,,46,46,35,22,20,149,129,130,129,5,5,3,2,0.6,0.5
2023-07-27T03:00:00,2179A,111.0414,35.1147,运城市,空港新区,,42,42,40,25,21,151,105,118,113,8,7,3,3,0.6,0.6
2023-07-27T03:00:00,2181A,112.7383,38.4519,忻州市,开发区,颗粒物(PM10),56,61,52,39,34,183,72,157,108,32,16,10,11,1.1,0.9
2023-07-27T03:00:00,2182A,112.7003,38.4928,忻州市,会展中心,细颗粒物(PM2.5),68,58,50,49,39,178,104,146,128,22,16,10,9,0.6,0.6
2023-07-27T03:00:00,2183A,111.1406,37.5211,吕梁市,环保局,颗粒物(PM10),53,56,56,24,24,192,44,50,48,46,28,5,6,0.6,0.6
2023-07-27T03:00:00,2185A,111.1297,37.5136,吕梁市,自来水公司,颗粒物(PM10),73,96,54,40,25,195,29,69,52,63,28,9,7,0.7,0.6
2023-07-27T03:00:00,2187A,106.8174,39.6973,乌海市,市林业局,颗粒物(PM10),52,54,68,18,24,152,77,100,92,19,22,18,22,0.9,0.9
2023-07-27T03:00:00,2188A,106.7907,39.6667,乌海市,中海勃湾学校,,48,48,57,24,22,154,75,90,85,19,23,21,20,0.7,0.6
2023-07-27T03:00:00,2191A,122.2532,43.6801,通辽市,艺术职业学校,"颗粒物(PM10),细颗粒物(PM2.5)",59,68,46,42,25,146,117,132,124,11,14,5,5,0.7,0.6
2023-07-27T03:00:00,2192A,119.7594,49.2261,呼伦贝尔市,区环保局,,28,28,26,13,15,109,69,78,73,5,11,3,5,0.4,0.4
2023-07-27T03:00:00,2195A,107.4212,40.761,巴彦淖尔市,附二中,,32,32,57,16,23,181,66,123,99,17,14,4,4,0.5,0.6
2023-07-27T03:00:00,2196A,107.37,40.7372,巴彦淖尔市,市环保大楼,,30,30,70,12,17,168,74,105,92,16,13,4,3,0.5,0.6
2023-07-27T03:00:00,2197A,113.1306,40.9923,乌兰察布市,集宁新区,,35,35,32,19,22,181,83,124,100,14,13,12,12,0.4,0.5
2023-07-27T03:00:00,2200A,122.0392,46.0656,兴安盟,胜华新制药厂,,37,16,30,13,20,124,118,123,121,8,12,2,4,0.3,0.7
2023-07-27T03:00:00,2201A,121.9504,46.0741,兴安盟,科右前旗环保局,,,,29,,19,81,,75,,,10,,3,,0.7
2023-07-27T03:00:00,2202A,116.1042,43.9317,锡林郭勒盟,市环保监测站,,35,11,26,3,12,149,110,112,111,3,3,7,8,0.2,0.3
2023-07-27T03:00:00,2203A,116.0781,43.9311,锡林郭勒盟,市政府,,39,5,26,2,5,161,122,124,124,3,7,10,10,0.2,0.2
2023-07-27T03:00:00,2204A,105.6467,38.8363,阿拉善盟,西城区西花园,,42,33,58,22,27,147,132,128,128,14,18,10,10,0.5,0.5
2023-07-27T03:00:00,2205A,105.6985,38.8411,阿拉善盟,蒙二幼,,42,30,49,20,20,153,132,132,132,5,9,10,10,0.6,0.6
2023-07-27T03:00:00,2206A,105.724,38.8516,阿拉善盟,环保局新楼,,43,27,33,12,18,158,137,137,137,5,7,7,7,0.5,0.4
2023-07-27T03:00:00,2207A,121.6094,41.998,阜新市,工业园区,,49,49,44,27,23,140,111,110,110,7,11,3,3,0.8,0.8
2023-07-27T03:00:00,2208A,121.6697,42.0279,阜新市,长青街,颗粒物(PM10),62,73,45,41,25,130,103,106,105,8,11,5,5,0.7,0.7
2023-07-27T03:00:00,2209A,121.6673,42.0705,阜新市,农业园区,颗粒物(PM10),65,79,41,40,32,147,121,122,121,10,11,5,6,0.7,0.8
2023-07-27T03:00:00,2210A,121.6717,42.0224,阜新市,东苑,颗粒物(PM10),51,52,44,34,30,141,113,120,116,5,8,6,9,0.7,0.7
2023-07-27T03:00:00,2211A,121.6506,42.0498,阜新市,玉龙新城,颗粒物(PM10),65,79,43,25,20,136,111,112,112,4,6,4,5,0.7,0.7
2023-07-27T03:00:00,2212A,123.2,41.1953,辽阳市,宏伟区,,26,21,20,8,11,125,81,85,84,1,4,3,3,0.3,0.4
2023-07-27T03:00:00,2213A,123.1683,41.2495,辽阳市,新华园,,22,20,25,7,12,139,70,75,73,1,4,5,5,0.3,0.4
2023-07-27T03:00:00,2214A,123.2354,41.2639,辽阳市,滨河路,,22,18,23,12,14,119,68,74,71,8,12,7,7,0.3,0.4
2023-07-27T03:00:00,2215A,123.149,41.2991,辽阳市,铁西工业园,,26,26,39,12,16,157,76,82,80,5,12,6,6,0.5,0.7
2023-07-27T03:00:00,2216A,123.8139,42.3022,铁岭市,汇工街西,,29,20,35,20,37,149,75,67,67,10,15,5,7,0.7,0.6
2023-07-27T03:00:00,2217A,123.8649,42.2923,铁岭市,水上乐园,,21,17,31,7,15,159,67,64,64,17,19,3,4,0.5,0.7
2023-07-27T03:00:00,2218A,123.8486,42.2867,铁岭市,银州路东段,,23,19,35,8,16,143,71,65,65,11,18,5,6,0.5,0.7
2023-07-27T03:00:00,2219A,123.7153,42.2217,铁岭市,金沙江路北,,29,29,35,11,20,149,55,48,48,19,21,12,9,0.9,0.9
2023-07-27T03:00:00,2220A,120.4318,41.5881,朝阳市,西梁,细颗粒物(PM2.5),137,56,69,104,56,147,98,108,103,6,10,8,8,0.8,0.9
2023-07-27T03:00:00,2221A,120.4521,41.5646,朝阳市,河畔小区,颗粒物(PM10),94,137,82,36,26,162,112,119,116,5,7,6,5,0.8,0.9
2023-07-27T03:00:00,2222A,120.4176,41.5648,朝阳市,八里堡,颗粒物(PM10),73,96,59,34,23,148,96,95,94,8,11,2,3,0.8,0.9
2023-07-27T03:00:00,2223A,120.3806,41.5969,朝阳市,农业园区,颗粒物(PM10),88,126,71,52,29,150,75,77,76,16,12,4,4,0.9,0.9
2023-07-27T03:00:00,2225A,124.4002,43.1713,四平市,一商场,,22,22,30,12,19,119,69,105,87,9,13,8,8,0.6,0.6
2023-07-27T03:00:00,2226A,124.388,43.193,四平市,境园,,28,28,28,16,17,122,68,103,87,12,14,4,7,0.3,0.4
2023-07-27T03:00:00,2227A,125.1358,42.8845,辽源市,环保局,,20,14,17,10,10,123,61,55,55,9,11,5,5,0.6,0.6
2023-07-27T03:00:00,2229A,125.9358,41.7173,通化市,光明,,19,15,19,13,10,103,55,74,65,11,10,7,7,0.4,0.2
2023-07-27T03:00:00,2230A,125.9446,41.7325,通化市,铁路,,20,11,17,10,9,99,63,75,69,3,8,4,5,0.2,0.2
2023-07-27T03:00:00,2231A,126.4219,41.9171,白山市,喜丰,,32,32,44,12,13,110,29,48,35,18,14,8,8,0.5,0.5
2023-07-27T03:00:00,2232A,126.4077,41.9419,白山市,环保局,,29,29,31,12,13,113,23,28,26,14,15,7,6,0.4,0.5
2023-07-27T03:00:00,2233A,124.8006,45.1214,松原市,江南,,39,39,35,27,25,130,113,112,112,7,10,7,7,0.7,0.6
2023-07-27T03:00:00,2234A,124.7965,45.1722,松原市,江北,,46,32,29,32,26,118,114,115,115,5,6,4,4,0.4,0.5
2023-07-27T03:00:00,2235A,122.7911,45.6077,白城市,洮北区环保局,,47,47,47,7,15,137,137,121,121,6,12,6,6,0.2,0.2
2023-07-27T03:00:00,2236A,122.8738,45.5725,白城市,市环保局,,36,21,25,11,15,128,115,127,123,5,8,4,3,0.3,0.3
2023-07-27T03:00:00,2237A,129.47,42.8883,延边朝鲜族自治州,妇幼医院,,18,18,23,6,11,100,5,12,9,19,15,7,8,0.6,0.6
2023-07-27T03:00:00,2238A,129.5055,42.9108,延边朝鲜族自治州,延边医院,,20,20,31,11,15,106,17,16,15,14,17,6,5,0.7,0.7
2023-07-27T03:00:00,2239A,129.3964,42.8881,延边朝鲜族自治州,朝阳川镇医院,,19,19,20,7,8,111,12,16,14,11,11,7,6,0.5,0.5
2023-07-27T03:00:00,2240A,130.9762,45.3001,鸡西市,环保局,,,,37,,17,54,,52,,,19,,5,,0.2
2023-07-27T03:00:00,2243A,130.9429,45.3039,鸡西市,第一中学,,47,47,33,22,16,115,7,7,6,29,17,6,6,0.2,0.2
2023-07-27T03:00:00,2244A,130.2537,47.3416,鹤岗市,哈啤分公司,,19,11,25,13,19,79,43,62,54,12,14,9,9,0.4,0.6
2023-07-27T03:00:00,2245A,130.2684,47.3086,鹤岗市,斯达机电,,20,17,25,6,16,78,64,61,61,12,13,7,8,0.3,0.5
2023-07-27T03:00:00,2246A,130.3114,47.3388,鹤岗市,东山纸板厂,,34,34,34,13,22,82,3,24,14,30,17,11,10,1.2,0.7
2023-07-27T03:00:00,2247A,130.1097,47.3382,鹤岗市,五号水库,,18,7,22,12,22,78,16,10,10,9,9,9,9,0.3,0.4
2023-07-27T03:00:00,2248A,131.1511,46.6937,双鸭山市,双合村,,37,37,50,18,33,87,37,42,40,14,13,12,13,0.7,0.7
2023-07-27T03:00:00,2249A,131.1652,46.6191,双鸭山市,南小市,,19,14,38,13,24,84,40,52,46,3,7,6,6,0.2,0.3
2023-07-27T03:00:00,2250A,131.1524,46.6554,双鸭山市,环保局,,19,15,30,13,19,73,48,51,50,6,13,9,10,0.4,0.6
2023-07-27T03:00:00,2251A,131.12,46.5656,双鸭山市,苗圃,,17,16,19,7,13,112,52,61,56,5,5,3,4,0.5,0.5
2023-07-27T03:00:00,2252A,128.5159,47.4311,伊春市,环保局,,12,12,25,5,13,85,28,53,38,4,9,3,4,0.3,0.5
2023-07-27T03:00:00,2253A,128.9102,47.7412,伊春市,电力嘉园,,9,9,19,6,16,97,26,30,28,9,8,5,6,0.4,0.6
2023-07-27T03:00:00,2254A,129.5029,48.471,伊春市,汤旺河国家公园,,33,33,47,13,31,94,16,16,16,1,2,11,12,0.5,0.2
2023-07-27T03:00:00,2255A,130.2751,46.8028,佳木斯市,佳纺,,,,63,,44,22,,15,,,28,,4,,0.7
2023-07-27T03:00:00,2256A,130.3995,46.8307,佳木斯市,发电厂,,23,23,38,12,27,100,15,39,27,25,14,4,2,0.6,0.7
2023-07-27T03:00:00,2257A,130.3258,46.7975,佳木斯市,环保局,,28,28,45,14,26,93,33,57,44,25,18,2,2,0.5,0.6
2023-07-27T03:00:00,2258A,130.3648,46.8032,佳木斯市,十一中,,26,26,43,16,27,94,26,43,36,29,23,4,4,0.5,0.6
2023-07-27T03:00:00,2259A,130.3794,46.7588,佳木斯市,四丰,,25,17,30,17,24,135,55,60,56,14,9,1,1,0.5,0.5
2023-07-27T03:00:00,2262A,131.0518,45.8751,七台河市,新一中,,29,24,43,20,33,143,7,9,8,20,15,7,10,0.9,1
2023-07-27T03:00:00,2263A,127.4833,50.2524,黑河市,交通局,,37,37,96,25,78,140,5,14,8,21,19,4,5,0.7,1.2
2023-07-27T03:00:00,2264A,127.5144,50.2341,黑河市,环保局,颗粒物(PM10),63,76,129,32,71,137,6,11,6,26,19,4,9,0.7,1.1
2023-07-27T03:00:00,2265A,127.5291,50.2472,黑河市,大黑河岛,细颗粒物(PM2.5),62,28,86,44,113,153,0,6,3,2,2,1,7,0.6,0.9
2023-07-27T03:00:00,2266A,126.9785,46.6365,绥化市,人和东街,,35,19,19,24,13,103,55,57,55,12,13,9,8,0.5,0.4
2023-07-27T03:00:00,2267A,126.964,46.6528,绥化市,党政办公中心,,32,32,19,20,14,87,55,55,54,12,12,9,4,0.5,0.5
2023-07-27T03:00:00,2269A,124.1069,50.4097,大兴安岭地区,科技局,,18,18,13,10,10,70,19,25,20,11,5,7,6,0.2,0.2
2023-07-27T03:00:00,2270A,117.396,32.939,蚌埠市,工人疗养院,,26,26,27,14,10,114,41,56,50,11,8,15,14,0.2,0.1
2023-07-27T03:00:00,2271A,117.3605,32.9427,蚌埠市,百货大楼,,25,25,27,10,10,117,42,58,49,14,10,5,5,0.3,0.3
2023-07-27T03:00:00,2273A,117.4185,32.8911,蚌埠市,蚌埠学院,,22,22,32,14,17,107,29,30,30,28,24,8,9,0.4,0.4
2023-07-27T03:00:00,2274A,117.3533,32.9673,蚌埠市,淮上区政府,,24,24,26,15,14,110,41,62,52,14,10,5,4,0.2,0.1
2023-07-27T03:00:00,2275A,117.3145,32.8977,蚌埠市,高新区,,19,19,29,11,12,127,37,65,49,30,16,10,8,0.4,0.4
2023-07-27T03:00:00,2277A,116.8305,32.7727,淮南市,潘集区政府,,22,22,30,11,17,145,47,50,48,13,12,4,5,0.3,0.4
2023-07-27T03:00:00,2278A,117.0067,32.6524,淮南市,师范学院,,25,25,31,16,20,137,43,57,50,8,9,9,9,0.4,0.4
2023-07-27T03:00:00,2279A,116.8569,32.5951,淮南市,谢家集区政府,,30,30,22,7,6,139,53,61,58,14,14,7,7,0.3,0.3
2023-07-27T03:00:00,2280A,116.8281,32.633,淮南市,八公山区政府,,32,32,31,19,17,151,44,59,52,15,12,7,8,0.4,0.4
2023-07-27T03:00:00,2281A,116.6325,32.6201,淮南市,焦岗湖风景区管理处,,28,28,26,3,10,114,20,34,27,22,16,5,5,0.3,0.3
2023-07-27T03:00:00,2282A,116.8004,33.975,淮北市,监测站,,22,11,20,10,10,137,70,74,72,8,10,3,3,0.4,0.4
2023-07-27T03:00:00,2283A,116.8091,33.9007,淮北市,烈山区政府,,26,17,20,11,14,150,82,75,75,6,7,3,3,0.3,0.3
2023-07-27T03:00:00,2285A,117.8177,30.9412,铜陵市,市第四中学,,39,39,31,11,14,124,5,31,14,64,21,2,2,0.3,0.3
2023-07-27T03:00:00,2286A,117.8059,30.9273,铜陵市,市公路局,,44,44,37,21,17,131,10,32,15,45,23,9,6,0.3,0.3
2023-07-27T03:00:00,2287A,117.7807,30.9413,铜陵市,市新民污水厂,,39,39,38,15,14,132,21,12,12,26,28,10,8,0.3,0.4
2023-07-27T03:00:00,2288A,117.7439,30.8792,铜陵市,市第九中学,,48,48,51,17,16,112,21,13,13,32,38,6,8,0.5,0.8
2023-07-27T03:00:00,2289A,117.846,30.9413,铜陵市,车站新区,,40,35,27,28,16,140,6,37,18,59,24,4,3,0.4,0.3
2023-07-27T03:00:00,2290A,117.8483,30.97,铜陵市,市职教基地,,25,25,25,11,8,131,7,24,12,40,15,3,4,0.6,0.5
2023-07-27T03:00:00,2291A,117.0809,30.5177,安庆市,环科院,,23,23,26,8,14,154,58,53,53,9,16,6,6,0.5,0.6
2023-07-27T03:00:00,2292A,117.0331,30.5119,安庆市,马山宾馆,,22,22,25,10,15,155,60,58,58,10,16,5,5,0.4,0.5
2023-07-27T03:00:00,2294A,116.9896,30.6145,安庆市,安庆大学,,21,17,26,7,16,127,67,60,60,7,11,5,5,0.4,0.5
2023-07-27T03:00:00,2295A,118.2903,29.6963,黄山市,延安路89号,,20,20,25,6,7,76,39,44,43,4,5,6,6,0.3,0.3
2023-07-27T03:00:00,2296A,118.327,29.7178,黄山市,黄山东路89号,,22,22,17,1,5,74,36,54,45,5,5,6,6,0.3,0.4
2023-07-27T03:00:00,2297A,118.1371,30.2756,黄山市,黄山区政府5号楼,,26,26,23,7,7,67,8,8,7,6,5,7,7,0.3,0.3
2023-07-27T03:00:00,2298A,118.3093,32.3153,滁州市,老年大学,,24,24,31,10,15,153,24,37,31,24,18,10,8,0.3,0.3
2023-07-27T03:00:00,2299A,118.3244,32.2786,滁州市,人大宾馆,,23,23,25,11,15,167,23,35,29,33,24,11,8,0.4,0.3
2023-07-27T03:00:00,2301A,115.8277,32.8929,阜阳市,市监测站,,16,15,20,2,9,173,49,77,61,17,12,4,5,0.5,0.6
2023-07-27T03:00:00,2303A,115.8554,32.8605,阜阳市,开发区,,13,2,17,8,14,163,36,67,50,25,14,6,6,0.5,0.6
2023-07-27T03:00:00,2307A,116.5079,31.737,六安市,监测大楼,二氧化硫,52,11,24,0,10,124,40,40,40,7,8,159,11,0.3,0.4
2023-07-27T03:00:00,2308A,116.4738,31.7643,六安市,皖西学院,,24,24,30,8,10,142,42,44,43,11,11,8,8,0.2,0.3
2023-07-27T03:00:00,2309A,116.4996,31.7905,六安市,朝阳厂,,16,16,18,10,13,153,38,47,43,12,10,8,9,0.3,0.4
2023-07-27T03:00:00,2310A,116.5567,31.7886,六安市,开发区,,33,33,32,20,21,139,31,38,35,13,9,6,8,0.5,0.5
2023-07-27T03:00:00,2311A,115.8072,33.8399,亳州市,污水处理厂,,17,17,23,10,10,152,53,80,68,11,7,5,5,0.5,0.6
2023-07-27T03:00:00,2312A,115.7789,33.8518,亳州市,三国揽胜宫,,20,19,22,7,10,153,63,88,75,8,6,6,5,0.5,0.6
2023-07-27T03:00:00,2314A,117.47,30.6618,池州市,池州学院,,24,24,24,11,12,189,17,29,20,16,7,13,7,0.7,0.7
2023-07-27T03:00:00,2316A,118.7581,30.9454,宣城市,鳌峰子站,,23,23,36,8,14,97,20,30,27,16,17,8,7,0.3,0.4
2023-07-27T03:00:00,2317A,118.7385,30.9743,宣城市,敬亭山子站,,24,24,31,9,12,94,24,44,35,26,21,6,7,0.3,0.3
2023-07-27T03:00:00,2318A,118.7173,30.9427,宣城市,开发区子站,,27,27,29,9,13,107,44,63,54,16,16,5,6,0.3,0.4
2023-07-27T03:00:00,2319A,119.0141,25.4325,莆田市,荔城区仓后路,,20,20,22,4,4,51,36,35,35,1,3,6,6,0.5,0.5
2023-07-27T03:00:00,2320A,119.0015,25.4553,莆田市,莆田市监测站,,15,15,20,7,4,49,36,35,35,2,2,6,7,0.5,0.5
2023-07-27T03:00:00,2321A,119.1119,25.4561,莆田市,涵江区六中,,26,26,28,6,3,47,36,35,35,2,2,8,8,0.4,0.4
2023-07-27T03:00:00,2322A,119.1013,25.3215,莆田市,秀屿区政府,,33,33,45,6,8,47,33,33,33,2,2,6,6,0.5,0.5
2023-07-27T03:00:00,2323A,118.981,25.4792,莆田市,东圳水库,,,,13,,4,,,,,,2,,2,,
2023-07-27T03:00:00,2324A,117.6211,26.2625,三明市,三钢,,12,12,15,8,11,59,25,28,27,6,7,9,8,0,0.1
2023-07-27T03:00:00,2325A,117.635,26.2714,三明市,三明二中,,13,10,11,9,10,60,26,28,27,10,10,7,5,0.5,0.5
2023-07-27T03:00:00,2326A,117.6028,26.2378,三明市,三元区政府,,10,10,14,2,5,62,26,28,27,6,7,9,8,0.6,0.7
2023-07-27T03:00:00,2327A,117.7275,26.3108,三明市,洋溪,,,,30,,8,,,,,,6,,10,,
2023-07-27T03:00:00,2331A,118.0966,26.6761,南平市,茫荡山,,,,,,8,,,,,,,,5,,
2023-07-27T03:00:00,2332A,118.1681,26.6369,南平市,南平市监测站,,9,9,9,4,4,62,16,23,19,11,9,5,6,0.5,0.5
2023-07-27T03:00:00,2333A,118.1825,26.6489,南平市,南平铝业有限公司,,10,10,13,3,4,59,23,24,23,8,8,7,8,0.4,0.4
2023-07-27T03:00:00,2334A,118.1756,26.6272,南平市,南平七中,,5,4,14,3,3,62,13,17,14,7,6,4,5,0.4,0.5
2023-07-27T03:00:00,2335A,117.0189,25.1181,龙岩市,龙岩师专,,,,10,,10,,,,,,4,,5,,
2023-07-27T03:00:00,2336A,117.0217,25.1033,龙岩市,龙岩市监测站,,10,7,13,4,6,61,32,32,32,4,6,4,6,0.3,0.4
2023-07-27T03:00:00,2337A,117.0258,25.0661,龙岩市,闽西职业技术学院,,11,9,14,4,5,56,34,34,34,1,3,4,5,0.3,0.3
2023-07-27T03:00:00,2338A,117.0196,25.0306,龙岩市,龙岩学院,,11,10,13,1,4,56,33,34,33,2,5,3,4,0.2,0.3
2023-07-27T03:00:00,2339A,119.5001,26.6946,宁德市,金涵水库,,,,18,,6,,,,,,8,,3,,
2023-07-27T03:00:00,2341A,119.5388,26.6612,宁德市,宁德市监测站,,7,7,14,2,5,40,11,16,13,10,6,8,8,0.5,0.5
2023-07-27T03:00:00,2342A,117.3102,29.3867,景德镇市,王港中学,,16,14,14,11,9,68,12,13,12,5,5,3,3,0.0,0.3
2023-07-27T03:00:00,2343A,117.2117,29.2933,景德镇市,老干部活动中心,,15,15,18,7,11,58,41,42,42,8,9,5,5,0.1,0.2
2023-07-27T03:00:00,2344A,117.1894,29.2789,景德镇市,兽医站,,26,19,25,18,22,60,43,47,46,7,8,6,5,0.3,0.4
2023-07-27T03:00:00,2345A,117.1547,29.2617,景德镇市,台达陶瓷,,14,13,17,9,13,61,44,45,45,6,7,8,6,0.3,0.3
2023-07-27T03:00:00,2346A,117.2461,29.2956,景德镇市,陶研所,,40,40,29,2,8,57,43,54,49,5,9,5,8,0.2,0.2
2023-07-27T03:00:00,2347A,114.0997,27.5002,萍乡市,武功山,,17,17,8,2,4,84,14,16,15,3,3,28,28,0.5,0.4
2023-07-27T03:00:00,2348A,113.8385,27.6434,萍乡市,中医院,,49,39,36,34,24,108,48,59,54,8,9,38,17,0.5,0.6
2023-07-27T03:00:00,2349A,113.8493,27.6253,萍乡市,市政府车库,,42,42,35,26,22,120,33,45,41,15,14,29,16,0.5,0.7
2023-07-27T03:00:00,2350A,113.8676,27.6435,萍乡市,市环保局,,40,40,30,23,21,108,45,51,48,8,9,43,19,0.4,0.5
2023-07-27T03:00:00,2351A,113.866,27.6198,萍乡市,安源区政府,,43,43,30,23,18,119,26,36,33,25,14,17,12,0.8,0.7
2023-07-27T03:00:00,2352A,115.0861,27.9317,新余市,北岗,,36,36,25,22,18,93,27,30,27,18,8,25,14,0.6,0.6
2023-07-27T03:00:00,2353A,114.9886,27.8431,新余市,飞宇,颗粒物(PM10),60,69,43,24,20,94,37,41,38,12,10,14,11,0.7,0.6
2023-07-27T03:00:00,2354A,114.9231,27.8246,新余市,第二水厂,,43,43,37,25,18,103,37,44,40,17,13,8,9,0.2,0.2
2023-07-27T03:00:00,2355A,114.9308,27.8036,新余市,市气象局,,40,40,35,17,20,96,34,41,37,13,10,8,7,0.8,0.9
2023-07-27T03:00:00,2357A,116.9822,28.1136,鹰潭市,龙虎山,,18,12,22,12,10,99,26,19,19,2,2,5,4,0.1,0.3
2023-07-27T03:00:00,2358A,117.0564,28.2642,鹰潭市,新监测站,,,,34,10,12,112,17,13,13,8,8,10,14,0.5,0.5
2023-07-27T03:00:00,2359A,117.0311,28.2475,鹰潭市,财苑宾馆,,28,14,30,19,12,120,11,12,10,21,9,30,13,0.7,0.4
2023-07-27T03:00:00,2360A,117.0222,28.2264,鹰潭市,体育馆,,22,9,30,15,10,117,3,5,4,10,11,6,10,0.2,0.3
2023-07-27T03:00:00,2361A,117.0017,28.2131,鹰潭市,三川水表,,,,34,9,14,120,2,6,4,14,11,7,7,0.5,0.5
2023-07-27T03:00:00,2362A,114.9017,25.9149,赣州市,通天岩,,,,,,,,,,,,,,,,
2023-07-27T03:00:00,2363A,114.9367,25.8664,赣州市,地委,,30,30,31,3,14,62,32,43,38,3,3,2,1,1.1,1.1
2023-07-27T03:00:00,2364A,114.9461,25.8481,赣州市,气象台,,27,27,22,16,12,81,32,44,39,5,6,5,6,0.6,0.7
2023-07-27T03:00:00,2365A,114.9322,25.8333,赣州市,市图书馆,,31,31,25,12,12,83,45,56,51,6,6,5,6,0.9,0.8
2023-07-27T03:00:00,2366A,114.8905,25.8471,赣州市,华坚鞋城,,33,27,28,23,12,79,47,55,51,5,8,5,5,0.8,0.8
2023-07-27T03:00:00,2367A,114.9754,27.0803,吉安市,红声器材厂,,37,37,32,19,18,94,44,65,57,15,9,8,8,0.7,0.7
2023-07-27T03:00:00,2368A,114.9658,27.0999,吉安市,市森林工业局,,35,35,30,21,19,89,41,48,46,16,8,15,8,0.7,0.7
2023-07-27T03:00:00,2369A,114.99,27.1312,吉安市,市环境监测站,,41,41,33,17,18,85,42,51,47,15,10,15,9,0.7,0.7
2023-07-27T03:00:00,2370A,115.0093,27.0968,吉安市,青原区法院,,29,29,31,17,19,93,56,67,62,11,11,14,14,0.7,0.8
2023-07-27T03:00:00,2371A,114.3408,27.8064,宜春市,槟榔水业,,37,37,33,22,18,77,28,38,33,3,3,1,1,0.4,0.5
2023-07-27T03:00:00,2373A,114.3956,27.7844,宜春市,市石油公司,颗粒物(PM10),51,52,39,29,23,115,40,27,27,13,13,5,7,0.8,0.9
2023-07-27T03:00:00,2374A,114.3703,27.7914,宜春市,市气象局,,42,42,39,23,23,105,42,53,47,16,16,6,7,1.0,1.1
2023-07-27T03:00:00,2375A,114.4013,27.8074,宜春市,市广电局,,46,46,37,26,23,110,43,50,47,11,9,8,8,0.6,0.7
2023-07-27T03:00:00,2376A,116.2127,28.0814,抚州市,桐源党溪,,26,26,29,12,16,130,26,16,16,2,3,5,4,0.8,0.9
2023-07-27T03:00:00,2377A,116.3544,27.9831,抚州市,市站,,14,13,36,5,19,120,43,50,47,8,8,4,6,1.0,0.9
2023-07-27T03:00:00,2378A,116.3565,27.963,抚州市,血防站,,22,22,35,6,17,104,38,40,39,3,6,5,5,0.9,0.9
2023-07-27T03:00:00,2379A,116.3564,28.0007,抚州市,采茶剧团,,16,16,35,7,20,115,29,40,36,4,4,5,5,0.7,0.8
2023-07-27T03:00:00,2380A,116.385,27.9647,抚州市,医学分院,,11,10,32,3,16,109,35,42,40,9,8,5,5,0.9,0.9
2023-07-27T03:00:00,2381A,118.005,28.4572,上饶市,百草园,,13,13,25,2,8,99,16,24,21,13,7,5,5,0.7,0.6
2023-07-27T03:00:00,2382A,117.9756,28.4436,上饶市,市监测站,,17,17,28,2,11,117,20,30,26,16,9,14,8,0.5,0.4
2023-07-27T03:00:00,2383A,117.9519,28.4628,上饶市,凤凰光学,,13,13,29,6,12,101,14,17,16,7,8,20,11,0.7,0.7
2023-07-27T03:00:00,2385A,114.17,35.9019,鹤壁市,市监测站,细颗粒物(PM2.5),62,64,43,44,26,181,68,108,95,29,24,3,7,0.7,0.8
2023-07-27T03:00:00,2386A,114.2956,35.7511,鹤壁市,市交警支队,颗粒物(PM10),53,56,34,22,20,171,86,85,78,18,17,3,10,0.6,0.5
2023-07-27T03:00:00,2387A,114.2878,35.7306,鹤壁市,迎宾馆,,43,38,33,30,26,175,86,101,82,15,16,6,5,0.6,0.5
2023-07-27T03:00:00,2389A,113.836,35.311,新乡市,环保西院,,43,43,38,24,18,151,89,116,103,16,14,7,7,0.7,0.7
2023-07-27T03:00:00,2390A,113.884,35.272,新乡市,开发区,,42,38,29,29,17,165,96,109,104,10,10,2,4,0.7,0.7
2023-07-27T03:00:00,2391A,113.883,35.303,新乡市,环保东院,,44,44,39,19,14,156,103,116,110,13,13,5,7,0.5,0.5
2023-07-27T03:00:00,2392A,115.0312,35.7636,濮阳市,环保局,细颗粒物(PM2.5),63,38,36,45,28,197,93,120,105,10,9,2,3,0.7,0.6
2023-07-27T03:00:00,2394A,115.0574,35.7609,濮阳市,油田运输公司,细颗粒物(PM2.5),57,49,41,40,28,205,82,112,96,10,10,4,4,0.7,0.6
2023-07-27T03:00:00,2395A,115.0866,35.7754,濮阳市,油田物探公司,细颗粒物(PM2.5),59,46,42,42,27,197,86,101,94,7,8,3,4,0.7,0.6
2023-07-27T03:00:00,2396A,113.8276,34.0159,许昌市,监测站,,35,28,28,24,17,141,85,111,99,15,12,4,5,0.5,0.6
2023-07-27T03:00:00,2398A,113.7906,33.9953,许昌市,开发区,,47,47,31,18,14,143,31,104,59,51,16,2,3,0.5,0.5
2023-07-27T03:00:00,2399A,114.051,33.5699,漯河市,三五一五工厂,,26,22,29,17,17,160,82,95,87,11,10,8,9,0.3,0.3
2023-07-27T03:00:00,2400A,114.0055,33.5698,漯河市,漯河大学,,30,15,27,20,21,164,95,100,98,6,8,3,3,0.3,0.4
2023-07-27T03:00:00,2401A,114.0138,33.5828,漯河市,市水利局,,29,19,30,17,15,157,92,99,96,8,10,7,9,0.5,0.5
2023-07-27T03:00:00,2402A,114.0261,33.5698,漯河市,市广电局,,29,12,26,17,18,162,91,90,90,7,9,3,6,0.4,0.5
2023-07-27T03:00:00,2404A,112.5224,33.0122,南阳市,瓦房庄,,31,31,32,20,16,152,93,111,101,12,13,5,6,0.4,0.5
2023-07-27T03:00:00,2405A,112.5003,32.9735,南阳市,汉画馆,,38,27,30,26,21,152,109,118,112,3,9,4,5,0.4,0.4
2023-07-27T03:00:00,2406A,112.5573,33.027,南阳市,气象站,,43,37,34,30,25,160,90,114,100,12,12,4,4,0.3,0.5
2023-07-27T03:00:00,2407A,112.5481,32.9689,南阳市,理工学院,,33,31,27,23,17,155,90,106,96,8,10,7,7,0.4,0.5
2023-07-27T03:00:00,2408A,115.6702,34.4285,商丘市,环境监测站,,37,37,30,14,14,143,53,74,63,14,10,9,9,0.9,0.7
2023-07-27T03:00:00,2409A,115.6458,34.4045,商丘市,粮食局,,34,34,28,22,14,157,62,77,69,12,10,6,4,0.5,0.5
2023-07-27T03:00:00,2410A,115.6293,34.3948,商丘市,睢阳区环保局,,28,28,29,17,15,168,69,85,76,11,9,7,4,0.5,0.5
2023-07-27T03:00:00,2420A,114.0189,32.9656,驻马店市,市一纸厂,,26,19,28,9,13,149,83,88,85,8,10,11,6,0.9,0.8
2023-07-27T03:00:00,2421A,114.0114,33.015,驻马店市,市彩印厂,,28,17,25,10,13,147,89,85,85,2,7,6,7,0.3,0.4
2023-07-27T03:00:00,2422A,113.9976,32.9771,驻马店市,天方二分厂,,27,20,26,12,20,143,84,84,84,5,8,8,5,0.4,0.4
2023-07-27T03:00:00,2423A,115.0601,30.2313,黄石市,沈家营,,39,39,46,12,15,128,18,27,21,18,16,6,8,0.3,0.3
2023-07-27T03:00:00,2424A,115.0817,30.2006,黄石市,陈家湾,,49,49,52,14,18,130,1,18,12,38,14,5,7,0.6,0.7
2023-07-27T03:00:00,2426A,114.8988,30.2019,黄石市,铁山,,42,42,30,17,16,128,16,39,29,31,16,15,12,0.9,0.7
2023-07-27T03:00:00,2427A,115.0307,30.2092,黄石市,团城山,,47,47,44,15,12,127,13,25,19,31,13,7,8,0.2,0.4
2023-07-27T03:00:00,2428A,111.0419,32.395,十堰市,武当山,,32,32,20,21,11,87,62,87,67,5,5,7,7,0.6,0.7
2023-07-27T03:00:00,2429A,110.78,32.6494,十堰市,滨河新村,,22,22,29,14,15,104,37,46,39,11,8,4,5,0.8,0.8
2023-07-27T03:00:00,2430A,110.7258,32.6389,十堰市,刘家沟,,33,27,24,23,18,112,32,48,41,3,6,5,5,0.6,1
2023-07-27T03:00:00,2431A,110.8839,32.5714,十堰市,铁二处,,25,25,24,6,11,126,38,55,45,2,6,5,5,0.3,0.4
2023-07-27T03:00:00,2432A,112.155,32.0197,襄阳市,襄城运动路,,28,28,25,17,13,119,52,69,61,14,12,8,7,0.7,0.7
2023-07-27T03:00:00,2433A,112.1392,32.0564,襄阳市,樊城新华路,,36,36,30,19,17,126,39,50,45,21,12,8,7,0.6,0.6
2023-07-27T03:00:00,2434A,112.1825,32.1142,襄阳市,高新管委会,,40,34,32,28,19,136,9,29,16,39,16,5,6,0.8,0.7
2023-07-27T03:00:00,2435A,112.2106,32.0903,襄阳市,襄州航空路,,43,43,31,28,24,114,8,29,19,38,13,7,6,0.8,0.7
2023-07-27T03:00:00,2436A,114.8938,30.3994,鄂州市,市政府,,28,28,31,7,11,140,28,41,32,13,10,4,6,0.3,0.4
2023-07-27T03:00:00,2437A,114.8989,30.3714,鄂州市,赵家坝,,33,33,35,8,11,140,11,32,20,24,12,11,6,0.4,0.6
2023-07-27T03:00:00,2439A,112.2014,31.0481,荆门市,竹园小学,,44,44,43,22,23,129,37,55,44,13,13,6,9,0.5,0.8
2023-07-27T03:00:00,2440A,112.1969,30.9891,荆门市,掇刀,,41,41,36,22,17,133,55,70,61,16,15,14,10,0.7,0.6
2023-07-27T03:00:00,2441A,112.2213,31.0386,荆门市,石化一小,,38,38,42,21,16,135,41,53,47,18,16,5,8,0.4,0.4
2023-07-27T03:00:00,2443A,113.9153,30.9285,孝感市,文化路,,13,6,22,8,16,162,41,53,48,8,7,7,7,0.5,0.6
2023-07-27T03:00:00,2444A,113.942,30.9075,孝感市,东城区,,18,18,28,3,13,161,31,52,44,15,13,6,7,0.5,0.6
2023-07-27T03:00:00,2446A,114.9028,30.4742,黄冈市,职工中心,,18,18,27,10,16,123,38,44,41,1,3,12,13,0.4,0.5
2023-07-27T03:00:00,2447A,114.3175,29.8142,咸宁市,森林公园,,17,17,22,7,11,109,47,54,52,4,4,5,5,0.4,0.4
2023-07-27T03:00:00,2448A,114.3107,29.8454,咸宁市,市发改委,,13,12,14,2,11,113,39,50,43,5,4,4,4,0.5,0.5
2023-07-27T03:00:00,2449A,114.2936,29.8566,咸宁市,咸安区政府,,14,14,21,4,14,109,29,38,32,8,6,2,2,0.4,0.5
2023-07-27T03:00:00,2451A,113.3583,31.7275,随州市,市委党校,,26,23,30,18,20,122,44,70,57,8,6,6,6,0.6,0.6
2023-07-27T03:00:00,2452A,113.3833,31.6908,随州市,市林业局,,25,25,30,16,18,115,49,60,55,9,8,4,4,0.6,0.6
2023-07-27T03:00:00,2453A,113.3983,31.7308,随州市,市立交桥水厂,,26,23,26,18,18,120,35,65,46,7,11,6,6,0.6,0.6
2023-07-27T03:00:00,2454A,109.4978,30.2981,恩施土家族苗族自治州,湖北民院,,30,30,28,9,12,47,6,16,13,20,13,8,8,0.7,0.8
2023-07-27T03:00:00,2455A,109.4707,30.2798,恩施土家族苗族自治州,州电力总公司,,14,14,16,4,9,47,8,8,8,20,17,10,10,0.6,0.7
2023-07-27T03:00:00,2456A,112.5003,26.9167,衡阳市,原169医院,,36,36,28,12,12,127,60,51,51,8,11,5,8,0.3,0.3
2023-07-27T03:00:00,2457A,112.6194,26.9258,衡阳市,衡阳化工总厂,,50,50,31,25,15,124,59,68,64,11,8,25,15,0.7,0.6
2023-07-27T03:00:00,2458A,112.6211,26.8956,衡阳市,珠晖区环保局,,,35,25,,,119,54,66,60,16,11,25,8,0.7,0.6
2023-07-27T03:00:00,2459A,112.6197,26.8733,衡阳市,市委党校,,23,20,20,16,12,130,67,74,70,8,9,19,10,0.6,0.6
2023-07-27T03:00:00,2460A,112.6006,26.8919,衡阳市,市监测站,,31,31,25,21,16,126,66,74,70,10,9,25,12,0.8,0.6
2023-07-27T03:00:00,2461A,112.5664,26.9056,衡阳市,真空机电公司,,27,27,26,16,14,137,64,76,71,8,8,6,11,0.6,0.6
2023-07-27T03:00:00,2462A,111.5239,27.3033,邵阳市,市水土所,,40,35,36,28,28,112,60,57,57,8,7,5,9,0.7,0.5
2023-07-27T03:00:00,2463A,111.4733,27.2317,邵阳市,市一中,,43,43,38,27,19,123,84,86,83,7,6,10,10,0.7,0.5
2023-07-27T03:00:00,2464A,111.5283,27.2442,邵阳市,市化工厂,,40,31,31,28,23,118,78,83,80,9,9,10,10,0.8,0.5
2023-07-27T03:00:00,2465A,111.4503,27.2537,邵阳市,市罐头厂,,33,33,38,22,25,125,86,81,81,7,9,9,12,0.6,0.5
2023-07-27T03:00:00,2466A,111.4328,27.2272,邵阳市,市环保局,,36,24,34,25,23,129,91,88,88,6,8,3,7,0.6,0.5
2023-07-27T03:00:00,2467A,112.4067,28.6428,益阳市,甘溪港,,47,47,26,8,7,105,38,44,41,4,4,4,4,0.5,0.5
2023-07-27T03:00:00,2468A,112.3458,28.5808,益阳市,市环保局,,33,26,21,23,14,122,50,60,54,7,10,3,3,0.6,0.6
2023-07-27T03:00:00,2469A,112.3437,28.5531,益阳市,市特殊教育学校,颗粒物(PM10),53,56,30,32,17,120,46,57,51,13,10,1,2,0.7,0.6
2023-07-27T03:00:00,2470A,112.3347,28.6047,益阳市,资阳区政务中心,,42,33,22,29,13,118,47,53,49,5,7,3,2,0.8,0.8
2023-07-27T03:00:00,2471A,112.3744,28.5819,益阳市,赫山环保分局,,47,47,34,17,11,116,58,66,62,5,8,3,4,0.8,0.8
2023-07-27T03:00:00,2472A,113.0073,25.9061,郴州市,马头岭,,25,25,26,7,11,130,6,6,6,21,21,3,5,0.6,0.6
2023-07-27T03:00:00,2473A,113.0116,25.8226,郴州市,市职中,,19,19,28,13,18,141,16,13,13,20,15,5,5,0.6,0.6
2023-07-27T03:00:00,2474A,113.0161,25.8001,郴州市,兴隆步行街,,48,48,34,18,17,140,7,6,6,29,20,5,7,0.5,0.5
2023-07-27T03:00:00,2475A,113.0383,25.8071,郴州市,市审计局,,25,19,23,17,17,132,9,14,13,23,15,3,6,0.5,0.5
2023-07-27T03:00:00,2476A,113.0348,25.7759,郴州市,市环保局,,32,18,27,22,20,140,5,16,9,31,20,4,7,0.5,0.6
2023-07-27T03:00:00,2477A,111.6217,26.2081,永州市,零陵南津渡,,39,33,26,27,23,129,76,53,53,6,8,8,8,0.6,0.5
2023-07-27T03:00:00,2478A,111.6156,26.4214,永州市,市环境监测站,,45,38,36,31,26,99,90,86,86,8,9,6,9,0.7,0.6
