timepoint,stationcode,longitude,latitude,area,positionname,primarypollutant,aqi,pm10,pm10_24h,pm2_5,pm2_5_24h,o3,o3_24h,o3_8h,o3_8h_24h,no2,no2_24h,so2,so2_24h,co,co_24h
2026-03-18T1900,2568A,102.2503,31.8896,阿坝藏族羌族自治州,马师校,,37,25,19,7,8,116,116,106,106,4,6,4,5,0.2,0.3
2026-03-18T1900,3994A,102.2174,31.9016,阿坝藏族羌族自治州,马尔康中学西区,,35,23,21,9,8,112,112,103,103,6,6,2,2,0.3,0.4
2026-03-18T1900,2695A,80.2899,41.1684,阿克苏地区,电视台,细颗粒物(PM2.5),158,249,293,120,119,85,85,81,81,4,13,2,2,0.5,0.6
2026-03-18T1900,2696A,80.2592,41.1541,阿克苏地区,艺术中心,颗粒物(PM10),150,250,276,81,96,89,89,85,85,4,16,3,4,NA,0.9
2026-03-18T1900,2205A,105.699,38.8409,阿拉善盟,蒙二幼,颗粒物(PM10),58,60,132,7,21,90,90,91,91,7,5,9,8,0.5,0.5
2026-03-18T1900,2206A,105.7198,38.8508,阿拉善盟,环保局新楼,颗粒物(PM10),55,56,111,16,23,79,79,83,83,8,5,8,7,0.6,0.5
2026-03-18T1900,2708A,88.1266,47.8515,阿勒泰地区,市站,,31,8,7,3,2,97,97,93,93,3,5,4,4,0.1,0.1
2026-03-18T1900,4166A,88.1198,47.7931,阿勒泰地区,阿勒泰路33号,,30,30,12,3,1,94,94,91,91,9,7,5,5,0.4,0.3
2026-03-18T1900,2630A,80.1171,32.4999,阿里地区,阿里监测站,,28,18,15,3,3,88,88,90,90,1,3,8,8,0.3,0.3
2026-03-18T1900,3192A,80.0906,32.5029,阿里地区,阿里藏医院,,30,11,12,3,4,93,93,94,94,2,4,9,9,0.3,0.3
2026-03-18T1900,2644A,109.0088,32.6974,安康市,汉滨区检察院,,49,49,20,17,11,65,65,62,62,20,18,4,4,0.6,0.7
2026-03-18T1900,4054A,109.0324,32.6913,安康市,市邮政管理局,,43,43,24,14,12,66,66,63,63,14,17,4,5,0.8,0.7
2026-03-18T1900,2291A,117.0806,30.5181,安庆市,环科院,NA,NA,NA,13,23,13,NA,NA,50,50,10,19,7,7,0.7,0.8
2026-03-18T1900,2292A,117.0331,30.5118,安庆市,马山宾馆,,32,24,14,22,12,56,56,50,50,22,23,4,4,0.9,0.9
2026-03-18T1900,2294A,116.9897,30.6146,安庆市,安庆大学,,32,32,15,19,10,66,66,59,59,8,15,3,3,0.6,0.7
2026-03-18T1900,3173A,117.0598,30.5351,安庆市,市人大,,28,26,17,19,12,55,55,48,48,23,25,5,6,0.7,0.8
2026-03-18T1900,3123A,105.9408,26.2431,安顺市,凤凰山,,39,35,18,27,14,82,82,77,77,14,9,17,11,0.6,0.6
2026-03-18T1900,3124A,105.9443,26.2567,安顺市,金钟山,,35,NA,17,24,14,76,76,70,70,12,7,14,11,0.7,0.7
2026-03-18T1900,3125A,105.8983,26.248,安顺市,娄家坡,,35,26,18,24,15,77,77,72,72,12,9,13,12,0.7,0.7
2026-03-18T1900,1819A,114.3552,36.1017,安阳市,红庙街,,40,40,59,8,38,80,80,81,81,7,13,2,2,0.2,0.5
2026-03-18T1900,1820A,114.361,36.0681,安阳市,银杏小区,,41,41,64,14,41,84,84,84,84,10,14,1,2,0,0.4
2026-03-18T1900,3141A,114.3921,36.0879,安阳市,信访局,,44,44,62,17,47,82,82,84,84,13,7,2,2,0,0.4
2026-03-18T1900,3669A,114.4706,36.0634,安阳市,左辅环卫站,颗粒物(PM10),53,53,89,14,36,72,72,83,83,11,11,1,2,0.2,0.4
2026-03-18T1900,4117A,114.2918,36.0769,安阳市,钢三路198号,,30,30,57,19,40,69,69,77,77,16,15,1,2,0.2,0.4
2026-03-18T1900,1748A,123.0441,41.1201,鞍山市,深沟寺,,25,25,56,13,36,72,72,84,83,23,18,9,10,0.8,0.7
2026-03-18T1900,1749A,123.011,41.0931,鞍山市,太阳城,,34,34,53,17,39,80,80,86,85,20,19,8,13,0.8,0.9
2026-03-18T1900,1750A,123.0483,41.1445,鞍山市,太平,,37,37,57,18,36,76,76,88,87,27,18,11,11,1.4,0.9
2026-03-18T1900,1751A,122.964,41.0968,鞍山市,铁西三道街,,37,37,67,18,41,72,72,79,78,27,28,7,18,0.6,1.2
2026-03-18T1900,1753A,123.0219,41.0822,鞍山市,明达新区,,38,38,52,22,36,75,75,84,84,24,18,10,11,0.9,0.8
2026-03-18T1900,4201A,122.944647,41.082639,鞍山市,兴盛南路290号,颗粒物(PM10),56,58,70,32,47,63,63,80,78,38,28,7,12,0.9,1.3
2026-03-18T1900,2195A,107.4206,40.7609,巴彦淖尔市,附二中,,28,26,36,14,15,87,87,88,88,6,7,7,8,0.2,0.3
2026-03-18T1900,2196A,107.37,40.7372,巴彦淖尔市,市环保大楼,,31,31,38,15,10,90,90,94,94,7,8,5,5,0.4,0.3
2026-03-18T1900,1956A,86.1476,41.7529,巴音郭楞蒙古自治州,孔雀公园,颗粒物(PM10),156,261,202,73,48,83,83,78,78,6,22,9,9,0.4,0.6
2026-03-18T1900,1957A,86.1971,41.7166,巴音郭楞蒙古自治州,棉纺厂,颗粒物(PM10),398,498,261,104,58,87,87,83,83,1,20,/,/,/,/
2026-03-18T1900,1958A,86.236,41.7172,巴音郭楞蒙古自治州,经济开发区,颗粒物(PM10),300,420,224,98,53,72,72,72,72,9,19,7,7,0.4,0.5
2026-03-18T1900,3181A,106.776805,31.852614,巴中市,市五中,,31,31,23,9,9,74,74,77,76,12,13,7,7,0.5,0.7
2026-03-18T1900,3183A,106.7419,31.8654,巴中市,圣泉水务公司,,30,30,20,15,9,67,67,81,79,22,15,9,9,0.8,0.8
2026-03-18T1900,3616A,106.7617,31.8343,巴中市,市中心医院,,26,26,22,9,10,72,72,81,80,13,16,11,10,0.6,0.7
2026-03-18T1900,2235A,122.7909,45.608,白城市,洮北区环保局,颗粒物(PM10),54,55,117,20,42,80,80,84,84,10,10,4,3,0.3,0.1
2026-03-18T1900,2236A,122.8741,45.5725,白城市,市环保局,NA,NA,61,117,35,42,NA,NA,85,84,8,7,4,5,0.3,0.2
2026-03-18T1900,2231A,126.4219,41.9172,白山市,喜丰,,36,36,83,14,29,87,87,89,89,13,39,9,11,0.6,1
2026-03-18T1900,2232A,126.4082,41.9416,白山市,环保局,,27,26,54,7,25,86,86,86,86,8,14,12,10,1.0,1.1
2026-03-18T1900,2647A,104.1727,36.5448,白银市,第三小学,颗粒物(PM10),89,104,131,39,38,81,81,84,84,20,13,6,27,0.5,0.5
2026-03-18T1900,2648A,104.1467,36.5482,白银市,动力公司,颗粒物(PM10),90,105,122,36,34,84,84,85,85,11,10,2,10,0.5,0.4
2026-03-18T1900,2512A,106.6102,23.901,百色市,市监测站,颗粒物(PM10),58,60,49,28,31,94,94,111,111,11,17,13,16,0.5,0.6
2026-03-18T1900,2513A,106.6524,23.8842,百色市,市中心血站,颗粒物(PM10),60,63,58,28,36,91,91,108,108,13,22,12,17,0.6,0.7
2026-03-18T1900,4133A,106.6273,23.8798,百色市,龙景西路,颗粒物(PM10),61,65,54,29,35,101,101,118,118,10,17,16,18,0.6,0.6
2026-03-18T1900,2270A,117.396,32.9389,蚌埠市,工人疗养院,细颗粒物(PM2.5),108,87,71,68,61,51,51,58,56,30,21,3,3,0.9,0.7
2026-03-18T1900,2271A,117.3606,32.9428,蚌埠市,百货大楼,细颗粒物(PM2.5),107,86,64,67,60,49,49,60,58,27,15,4,4,0.6,0.4
2026-03-18T1900,2273A,117.4183,32.8909,蚌埠市,蚌埠学院,细颗粒物(PM2.5),108,NA,48,68,61,60,60,63,62,20,15,4,4,0.6,0.5
2026-03-18T1900,2274A,117.3534,32.9672,蚌埠市,淮上区政府,细颗粒物(PM2.5),110,73,57,70,59,53,53,62,61,27,16,4,4,0.7,0.6
2026-03-18T1900,2275A,117.3143,32.8977,蚌埠市,高新区,细颗粒物(PM2.5),101,68,56,61,55,45,45,58,57,32,21,6,6,0.6,0.5
2026-03-18T1900,3715A,117.3091,32.9314,蚌埠市,蚌埠田家炳中学,细颗粒物(PM2.5),110,84,68,70,60,51,51,59,58,26,17,4,4,0.5,0.4
2026-03-18T1900,1585A,109.8761,40.6533,包头市,市环境监测站,,47,47,79,26,19,101,101,111,111,25,14,11,11,0.7,0.6
2026-03-18T1900,1587A,109.9992,40.5843,包头市,包头八中,,42,42,72,20,27,90,90,98,98,15,13,8,11,0.5,0.6
2026-03-18T1900,1589A,109.8641,40.6288,包头市,惠龙物流,,43,43,60,27,19,95,95,108,106,19,12,12,12,0.5,0.7
2026-03-18T1900,1590A,110.0376,40.5546,包头市,东河鸿龙湾,,32,17,57,15,20,102,102,105,105,11,16,8,11,0.5,0.6
2026-03-18T1900,3283A,109.9154,40.5684,包头市,滨河大厦,,32,32,56,9,13,100,100,105,105,11,12,6,13,0.5,0.6
2026-03-18T1900,3419A,109.9449,40.6259,包头市,包头市委党校,,36,36,78,19,19,98,98,103,103,11,12,10,13,0.4,0.8
2026-03-18T1900,3683A,109.8332,40.6577,包头市,昆区政府,,46,44,58,32,16,98,98,106,106,29,17,8,13,0.7,0.7
2026-03-18T1900,1931A,107.0802,34.3129,宝鸡市,竹园沟,颗粒物(PM10),127,188,98,27,19,84,84,82,82,12,13,6,6,0.1,0.1
2026-03-18T1900,1933A,107.1429,34.3549,宝鸡市,监测站,颗粒物(PM10),120,172,98,39,26,74,74,74,74,12,16,5,6,0.3,0.2
2026-03-18T1900,1934A,107.1172,34.3759,宝鸡市,技工学校,颗粒物(PM10),121,174,103,38,26,78,78,82,82,18,14,3,4,0.3,0.3
2026-03-18T1900,1936A,107.2025,34.3518,宝鸡市,文理学院,颗粒物(PM10),121,174,96,38,27,76,76,69,69,12,17,4,5,0.4,0.5
2026-03-18T1900,1937A,107.2396,34.3626,宝鸡市,三迪小学,颗粒物(PM10),118,166,101,36,29,79,79,80,80,17,23,4,4,0.4,0.5
2026-03-18T1900,4155A,107.1721,34.3558,宝鸡市,滨河北路,颗粒物(PM10),124,181,91,34,28,81,81,77,77,14,16,5,6,0.3,0.4
2026-03-18T1900,4308A,107.3898,34.3601,宝鸡市,陈仓区北开路21号,颗粒物(PM10),129,194,112,34,32,79,79,81,81,17,20,6,12,0.3,0.5
2026-03-18T1900,1051A,115.4803,38.8568,保定市,游泳馆,,36,36,69,15,50,88,88,95,94,17,17,6,6,0.5,0.6
2026-03-18T1900,1052A,115.509,38.8895,保定市,华电二区,,37,37,66,3,45,94,94,97,97,9,11,2,2,0.3,0.4
2026-03-18T1900,1053A,115.4588,38.9037,保定市,接待中心,,39,39,69,12,47,88,88,93,93,11,15,3,3,0.0,0.2
2026-03-18T1900,1054A,115.4484,38.8344,保定市,地表水厂,,43,43,76,3,42,86,86,94,94,16,17,5,5,0.2,0.3
2026-03-18T1900,3581A,115.3136,38.9511,保定市,满城区生态环境分局,颗粒物(PM10),53,53,99,16,49,86,86,100,98,18,18,3,5,0.2,0.5
2026-03-18T1900,3582A,115.4709,38.7628,保定市,清苑区第二中学,,48,48,88,11,53,82,82,90,90,10,17,5,5,0.3,0.4
2026-03-18T1900,3583A,115.6231,39.0223,保定市,徐水物探局,颗粒物(PM10),58,61,92,20,56,87,87,100,99,16,18,3,3,0.5,0.6
2026-03-18T1900,4004A,115.4199,38.8665,保定市,双鹰农机,NA,NA,33,91,12,53,92,92,98,98,20,19,3,4,NA,0.4
2026-03-18T1900,4034A,115.515,38.8589,保定市,植保所站,,44,44,79,6,45,88,88,92,92,11,15,3,3,0.4,0.5
2026-03-18T1900,2594A,99.1589,25.1137,保山市,市环境监测站,颗粒物(PM10),53,54,30,34,19,108,108,104,104,8,9,13,12,0.2,0.2
2026-03-18T1900,2595A,99.1616,25.1381,保山市,市环保局,颗粒物(PM10),51,51,32,35,23,98,98,102,102,4,6,5,5,0.5,0.5
2026-03-18T1900,1867A,109.1435,21.4085,北海市,海滩公园,NA,NA,NA,30,NA,13,NA,NA,87,87,NA,7,NA,8,NA,0.6
2026-03-18T1900,1868A,109.0983,21.466,北海市,新市环保局,,30,30,26,13,10,79,79,78,78,13,8,6,7,0.5,0.5
2026-03-18T1900,1869A,109.1775,21.5232,北海市,北海工业园,颗粒物(PM10),54,55,32,6,10,80,80,78,78,6,5,6,11,0.4,0.5
2026-03-18T1900,3400A,109.1844,21.4396,北海市,龙潭自来水厂,,24,22,24,7,11,76,76,81,81,9,6,4,7,0.6,0.7
2026-03-18T1900,1001A,116.3611,39.8786,北京市,万寿西宫,,29,17,45,6,32,92,92,96,96,18,18,2,2,0.3,0.4
2026-03-18T1900,1003A,116.4174,39.9289,北京市,东四,,30,16,46,6,31,93,93,97,97,13,14,4,5,0.3,0.4
2026-03-18T1900,1004A,116.4073,39.8858,北京市,天坛,,25,14,44,3,30,79,79,89,88,14,16,2,2,0.2,0.8
2026-03-18T1900,1005A,116.4622,39.9364,北京市,农展馆,,27,15,46,6,32,85,85,90,90,13,12,4,4,0.2,0.3
2026-03-18T1900,1006A,116.3399,39.9293,北京市,官园,,26,17,44,7,30,83,83,88,88,21,20,1,2,0.3,0.4
2026-03-18T1900,1007A,116.2879,39.9613,北京市,海淀万柳,NA,NA,NA,48,NA,34,NA,NA,72,NA,NA,20,NA,3,NA,0.5
2026-03-18T1900,1008A,116.6635,40.1349,北京市,顺义新城,,27,11,47,3,34,85,85,93,91,10,12,3,4,0.2,0.3
2026-03-18T1900,1009A,116.6275,40.327,北京市,怀柔镇,,26,9,37,3,29,81,81,84,84,9,10,4,4,0.3,0.5
2026-03-18T1900,1010A,116.2295,40.217,北京市,昌平镇,,26,11,36,3,25,81,81,86,86,17,16,3,2,0.6,0.6
2026-03-18T1900,1011A,116.3968,39.982,北京市,奥体中心,,25,14,44,6,29,80,80,84,84,11,15,4,4,0.2,0.4
2026-03-18T1900,3418A,116.8336,40.4095,北京市,密云新城,,22,17,41,7,27,68,68,86,84,21,11,3,2,0.4,0.5
2026-03-18T1900,3671A,116.0879,39.9725,北京市,门头沟三家店,,31,19,47,8,30,97,97,93,93,17,13,4,4,0.3,0.4
2026-03-18T1900,3672A,116.1507,39.8246,北京市,丰台云岗,,29,23,50,7,32,91,91,95,95,17,16,2,3,0.3,0.4
2026-03-18T1900,3674A,115.9578,39.7602,北京市,房山燕山,,25,19,45,7,31,78,78,80,80,23,17,4,4,0.3,0.3
2026-03-18T1900,3675A,116.4669,39.7734,北京市,大兴旧宫,,28,18,48,3,32,87,87,90,90,11,14,3,3,0.3,0.5
2026-03-18T1900,3694A,115.9859,40.4562,北京市,延庆石河营,,28,10,28,3,18,87,87,90,90,11,11,2,2,0.3,0.4
2026-03-18T1900,3695A,116.6151,40.3052,北京市,怀柔新城,,25,9,38,3,29,79,79,84,84,13,9,3,2,0.2,0.4
2026-03-18T1900,3696A,116.2542,39.8764,北京市,丰台小屯,,27,20,47,7,30,84,84,86,86,14,19,3,4,0.2,0.3
2026-03-18T1900,3697A,116.8399,40.3843,北京市,密云镇,,25,12,37,3,28,78,78,88,87,14,14,3,3,0.3,0.3
2026-03-18T1900,4057A,115.9423,40.4431,北京市,延庆百泉,,26,8,27,3,16,82,82,82,82,9,12,1,3,0.3,0.4
2026-03-18T1900,4058A,116.6598,39.9164,北京市,通州新华,,27,17,54,6,35,84,84,84,84,14,18,2,2,0.3,0.5
2026-03-18T1900,4182A,116.1942,39.9158,北京市,石景山八角,,25,25,46,7,28,74,74,80,80,17,17,4,4,0.2,0.3
2026-03-18T1900,4194A,117.078628,40.151726,北京市,平谷新城,,25,12,40,3,29,78,78,84,83,16,13,1,2,0.4,0.5
2026-03-18T1900,1761A,123.8274146,41.31234549,本溪市,大峪,,23,23,50,10,26,67,67,88,86,17,14,9,10,0.5,0.6
2026-03-18T1900,1763A,123.7169,41.3094,本溪市,彩屯,,48,48,61,26,30,61,61,98,94,26,16,9,12,0.6,0.9
2026-03-18T1900,1764A,123.7672166,41.28649327,本溪市,东明,,40,40,56,12,28,80,80,90,90,16,15,9,10,0.6,0.5
2026-03-18T1900,1765A,123.799345,41.266614,本溪市,新立屯,,32,32,55,11,28,27,27,90,78,54,14,7,8,0.4,0.7
2026-03-18T1900,1766A,123.829144,41.336777,本溪市,威宁,,26,26,64,13,29,63,63,96,92,21,14,6,8,0.6,0.7
2026-03-18T1900,2587A,105.287,27.3133,毕节市,八中,,28,28,10,16,7,35,35,51,45,16,8,10,9,0.7,0.7
2026-03-18T1900,2588A,105.3079,27.2987,毕节市,师专,,25,25,11,11,7,33,33,48,40,15,9,9,8,0.7,0.6
2026-03-18T1900,4263A,105.3688,27.3598,毕节市,工业大道,,22,22,10,10,6,42,42,60,49,11,8,10,10,/,/
2026-03-18T1900,1629A,117.9961,37.3604,滨州市,第二水厂,,28,14,63,3,39,89,89,84,84,12,20,9,12,0.2,0.4
2026-03-18T1900,1630A,117.9789,37.3931,滨州市,北中新校,,29,29,66,3,40,91,91,87,87,3,23,11,14,0.3,0.2
2026-03-18T1900,3514A,117.9379,37.3959,滨州市,中海酒店,,30,22,70,3,45,93,93,90,90,16,26,7,10,0.4,0.6
2026-03-18T1900,3515A,117.9381509,37.35547456,滨州市,开发区一中,,27,24,71,3,41,84,84,82,82,5,15,12,16,0.4,0.6
2026-03-18T1900,3516A,118.0914,37.6938,滨州市,金海六路,,28,24,53,14,36,88,88,94,94,19,21,5,8,0.5,0.6
2026-03-18T1900,4028A,117.9955,37.3752,滨州市,滨州市西街道办事处,,28,17,64,3,39,88,88,86,86,10,15,8,12,0.3,0.5
2026-03-18T1900,2311A,115.8071,33.8399,亳州市,污水处理厂,,46,46,68,18,47,62,62,59,58,12,16,4,4,0.2,0.2
2026-03-18T1900,2312A,115.7789,33.8519,亳州市,三国揽胜宫,NA,NA,NA,66,NA,54,58,58,54,54,NA,13,4,4,NA,0.3
2026-03-18T1900,3332A,115.7631,33.803,亳州市,亳州学院,,50,50,75,19,51,64,64,59,59,12,14,4,4,0.1,0.2
2026-03-18T1900,2693A,82.0482,44.8553,博尔塔拉蒙古自治州,市党校,颗粒物(PM10),62,66,71,26,25,115,115,101,101,10,8,7,4,0.5,0.6
2026-03-18T1900,2694A,82.0805,44.8966,博尔塔拉蒙古自治州,市环保局,颗粒物(PM10),69,76,61,27,32,102,102,91,91,16,23,2,2,0.4,0.5
2026-03-18T1900,1071A,116.8733,38.2922,沧州市,沧县城建局,,39,38,67,27,50,82,82,81,81,22,20,5,2,0.5,0.6
2026-03-18T1900,1072A,116.8462,38.3189,沧州市,电视转播站,NA,NA,43,69,22,57,NA,NA,87,87,15,19,3,2,0.5,0.4
2026-03-18T1900,1073A,116.8588,38.3161,沧州市,市环保局,,45,45,71,23,52,97,97,87,87,13,15,6,8,0.1,0.1
2026-03-18T1900,3324A,116.8011,38.294,沧州市,河北水利电力学院,,36,36,69,20,56,87,87,82,82,20,18,6,6,0.2,0.3
2026-03-18T1900,2622A,97.1813,31.1289,昌都市,昌都监测站,NA,NA,NA,10,7,5,117,117,122,122,8,5,1,2,0.4,0.5
2026-03-18T1900,3719A,97.1707,31.1428,昌都市,昌都会议中心,,38,14,9,3,6,120,120,124,124,4,4,5,5,0.3,0.3
2026-03-18T1900,2692A,87.2722,44.0298,昌吉回族自治州,新区政务中心,,33,31,30,23,24,95,95,91,91,14,17,7,6,0.3,0.4
2026-03-18T1900,3613A,87.3069,44.0093,昌吉回族自治州,亚心广场,,39,39,43,15,24,97,97,91,91,13,18,11,10,0.4,0.5
2026-03-18T1900,4164A,87.2057,43.9289,昌吉回族自治州,财政所,颗粒物(PM10),58,60,47,31,24,86,86,81,81,13,11,10,8,0.5,0.4
2026-03-18T1900,1120A,125.2874,43.9024,长春市,客车厂,颗粒物(PM10),70,78,110,23,41,66,66,82,80,22,19,7,8,0.6,0.6
2026-03-18T1900,1121A,125.2943,43.8508,长春市,邮电学院,颗粒物(PM10),70,78,103,23,42,69,69,86,84,16,16,8,8,0.3,0.4
2026-03-18T1900,1122A,125.3648,43.8745,长春市,劳动公园,NA,NA,68,102,29,37,71,71,87,86,NA,17,NA,8,0.2,0.3
2026-03-18T1900,1123A,125.3233,43.8781,长春市,园林处,颗粒物(PM10),66,72,98,28,39,68,68,84,83,17,14,11,8,0.3,0.4
2026-03-18T1900,1124A,125.4604,43.7904,长春市,净月潭,颗粒物(PM10),61,65,101,16,39,78,78,87,87,11,14,6,7,0.3,0.4
2026-03-18T1900,1126A,125.38,43.8422,长春市,经开区环卫处,颗粒物(PM10),68,74,102,19,39,70,70,86,85,18,17,7,8,0.3,0.4
2026-03-18T1900,1127A,125.234,43.7761,长春市,高新区管委会,颗粒物(PM10),69,76,96,24,35,70,70,85,84,15,16,7,8,0.3,0.5
2026-03-18T1900,1128A,125.1695,43.83,长春市,岱山公园,颗粒物(PM10),80,91,111,21,42,56,56,80,77,29,18,5,5,0.2,0.3
2026-03-18T1900,4281A,125.334645,43.916281,长春市,北亚泰大街1068号,颗粒物(PM10),66,72,111,26,46,49,49,75,72,34,20,9,8,0.3,0.3
2026-03-18T1900,1335A,113.082,28.2421,长沙市,经开区环保局,,38,33,18,26,12,50,50,64,62,32,17,3,3,0.6,0.6
2026-03-18T1900,1336A,112.8873,28.2202,长沙市,高开区环保局,,41,41,17,20,12,73,73,69,69,16,13,5,4,0.8,0.8
2026-03-18T1900,1337A,113.0785,28.2012,长沙市,马坡岭,,37,37,17,25,13,47,47,63,63,36,17,4,4,0.8,0.8
2026-03-18T1900,1338A,112.9448,28.1894,长沙市,湖南师范大学,,38,30,17,26,13,63,63,74,74,23,14,4,4,0.9,0.9
2026-03-18T1900,1339A,113.0177,28.1322,长沙市,雨花区环保局,,33,33,17,22,12,67,67,68,68,17,11,3,3,0.8,0.8
2026-03-18T1900,1340A,112.9795,28.2593,长沙市,伍家岭,,38,31,18,26,15,64,64,65,65,21,13,3,3,0.7,0.7
2026-03-18T1900,1341A,113.002,28.1944,长沙市,火车新站,,36,36,17,24,13,68,68,68,68,20,14,3,3,0.7,0.7
2026-03-18T1900,1342A,112.9846,28.1177,长沙市,天心区环保局,,43,43,19,26,15,64,64,70,70,33,23,6,5,0.8,0.8
2026-03-18T1900,1343A,112.8906,28.1307,长沙市,湖南中医药大学,,32,32,19,20,13,72,72,76,76,15,9,6,5,0.7,0.7
2026-03-18T1900,1727A,113.1146,36.1547,长治市,清华站,,35,21,50,7,19,110,110,101,101,17,18,8,8,0.4,0.5
2026-03-18T1900,1730A,113.0887,36.2126,长治市,审计局,,35,19,46,12,24,110,110,102,102,13,15,11,9,0.5,0.5
2026-03-18T1900,1731A,113.0845,36.1856,长治市,长治八中,NA,NA,17,59,3,26,NA,NA,100,100,8,14,9,10,0.4,0.5
2026-03-18T1900,2845A,113.1561,36.1912,长治市,德盛苑,,32,23,50,12,25,102,102,108,108,15,14,11,11,0.6,0.6
2026-03-18T1900,3568A,113.0603,36.0464,长治市,向阳小学,颗粒物(PM10),69,76,76,21,23,94,94,102,101,21,23,12,11,0.3,0.6
2026-03-18T1900,3569A,112.8788,36.315,长治市,屯留一中,,37,20,51,3,20,118,118,112,112,15,21,8,7,0.2,0.4
2026-03-18T1900,4189A,113.113092,36.199482,长治市,英华南巷50号,,35,25,55,11,24,110,110,105,105,21,19,14,11,0.5,0.5
2026-03-18T1900,4190A,113.23666,36.33435,长治市,学府街1号,,36,36,55,12,24,92,92,95,95,16,18,7,5,0.5,0.6
2026-03-18T1900,1854A,111.696,28.9725,常德市,市二中,,35,35,27,9,16,83,83,84,84,19,12,6,6,0.7,0.9
2026-03-18T1900,3138A,111.7152,29.0288,常德市,武陵区永安,,37,37,21,10,19,93,93,89,89,13,16,4,3,0.6,0.8
2026-03-18T1900,3139A,111.6891,28.9881,常德市,鼎城区玉霞,,35,35,24,9,17,93,93,88,88,12,16,7,6,0.6,0.8
2026-03-18T1900,3140A,111.6651,29.0526,常德市,武陵区长庚,NA,NA,NA,20,NA,19,NA,NA,86,86,12,13,6,6,0.7,1
2026-03-18T1900,1196A,119.9524,31.7586,常州市,市监测站,,49,49,68,34,38,74,74,70,70,26,29,7,8,0.7,0.8
2026-03-18T1900,1200A,119.9351,31.703,常州市,武进监测站,,43,43,58,25,32,79,79,70,70,22,23,6,7,0.6,0.6
2026-03-18T1900,3002A,119.9701,31.813,常州市,行政中心,颗粒物(PM10),53,54,59,32,35,65,65,63,63,37,37,5,6,0.5,0.5
2026-03-18T1900,3003A,120.0434,31.7726,常州市,经开区,,47,47,68,27,33,68,68,68,68,28,30,8,8,0.8,0.9
2026-03-18T1900,3010A,119.8919,31.7892,常州市,钟楼,,43,43,58,27,32,80,80,71,71,30,34,8,6,0.6,0.6
2026-03-18T1900,3429A,119.8595,31.706,常州市,武进经发区,,50,NA,42,35,35,62,62,67,67,41,29,7,7,0.7,0.8
2026-03-18T1900,3430A,119.5812,31.7256,常州市,金坛城区,NA,NA,NA,32,48,37,NA,NA,76,76,26,20,7,7,0.7,0.6
2026-03-18T1900,4089A,119.9551,31.863,常州市,崇义南街5-H号,,44,44,49,30,34,68,68,66,66,23,30,4,5,0.7,0.7
2026-03-18T1900,2220A,120.4318,41.588,朝阳市,西梁,颗粒物(PM10),64,69,38,13,11,70,70,90,88,17,9,6,7,0.5,0.4
2026-03-18T1900,2221A,120.452,41.565,朝阳市,河畔小区,颗粒物(PM10),51,51,37,10,9,78,78,94,92,19,11,7,8,0.4,0.4
2026-03-18T1900,2222A,120.4176,41.5648,朝阳市,八里堡,颗粒物(PM10),59,62,40,12,10,74,74,91,88,18,10,6,6,0.4,0.4
2026-03-18T1900,3026A,116.6179,23.6608,潮州市,市政府,,50,50,58,28,31,74,74,102,99,20,19,5,7,0.8,0.5
2026-03-18T1900,4036A,116.646,23.676,潮州市,金山,,48,48,44,24,25,82,82,105,104,19,13,4,4,0.7,0.5
2026-03-18T1900,2473A,113.0116,25.8228,郴州市,市职中,,19,10,38,3,28,58,58,47,47,13,17,2,3,0.6,0.8
2026-03-18T1900,2475A,113.0381,25.8074,郴州市,市审计局,,16,12,38,3,28,50,50,44,44,12,13,4,4,/,/
2026-03-18T1900,2476A,113.0348,25.7757,郴州市,市环保局,NA,NA,15,49,3,29,56,56,46,46,NA,20,4,6,0.4,0.6
2026-03-18T1900,4252A,113.0138,25.8011,郴州市,好美居路49号,,20,NA,30,8,30,62,62,52,52,16,19,3,5,/,/
2026-03-18T1900,1431A,103.9727,30.7242,成都市,金泉两河,颗粒物(PM10),52,52,29,16,16,79,79,81,81,18,18,1,2,0.2,0.3
2026-03-18T1900,1432A,104.1423,30.6765,成都市,十里店,颗粒物(PM10),65,71,35,20,18,83,83,78,78,18,19,4,4,0.3,0.5
2026-03-18T1900,1433A,104.0594,30.5765,成都市,三瓦窑,颗粒物(PM10),66,72,36,24,20,76,76,72,72,19,22,2,2,0.5,0.7
2026-03-18T1900,1434A,104.1122,30.6306,成都市,沙河铺,颗粒物(PM10),65,70,38,20,19,75,75,72,72,26,29,4,4,0.2,0.4
2026-03-18T1900,2880A,104.0219,30.6561,成都市,大石西路,颗粒物(PM10),69,76,37,20,19,76,76,76,76,23,22,2,2,0.4,0.6
2026-03-18T1900,3136A,104.2724,30.559,成都市,龙泉驿区区政府,颗粒物(PM10),55,56,36,22,18,82,82,76,76,23,22,6,6,0.4,0.5
2026-03-18T1900,3357A,104.0028,30.6891,成都市,金博路,颗粒物(PM10),60,63,24,15,17,83,83,82,82,24,25,5,6,0.3,0.6
2026-03-18T1900,3359A,104.056,30.5228,成都市,华阳,NA,NA,63,37,19,18,85,85,78,78,21,26,4,3,NA,0.6
2026-03-18T1900,3488A,104.387954,30.746684,成都市,青石路225号,颗粒物(PM10),55,57,38,23,16,82,82,79,79,19,22,7,5,0.3,0.4
2026-03-18T1900,3489A,104.0788,30.4054,成都市,科学城,,44,44,30,17,18,87,87,82,82,17,20,7,7,0.5,0.7
2026-03-18T1900,4011A,103.8505,30.6946,成都市,光华大道三段,颗粒物(PM10),56,58,30,16,12,82,82,83,83,25,21,3,3,0.2,0.3
2026-03-18T1900,4144A,104.3257,30.6406,成都市,八角井街185号,颗粒物(PM10),63,68,46,23,16,71,71,66,66,19,21,4,4,0.5,0.6
2026-03-18T1900,4224A,104.2433276,30.53529463,成都市,鲸龙路1057号,颗粒物(PM10),52,52,37,20,21,81,81,72,72,24,24,6,6,0.3,0.5
2026-03-18T1900,1062A,117.9531,40.908,承德市,铁路,,30,30,37,11,18,79,79,87,85,7,10,5,3,0.5,0.3
2026-03-18T1900,1063A,117.9397,40.9763,承德市,中国银行,,48,48,40,3,16,70,70,86,84,12,7,3,2,0.3,0.3
2026-03-18T1900,4073A,117.9462,40.95,承德市,杏林街1号,,27,24,35,6,20,85,85,88,88,4,6,14,4,0.1,0.2
2026-03-18T1900,4274A,117.7994,40.9605,承德市,滨河大街98号,,39,39,31,11,18,79,79,90,89,7,8,23,7,0.2,0.3
2026-03-18T1900,2314A,117.4698,30.6617,池州市,池州学院,,25,24,14,17,12,46,46,52,52,31,27,3,3,0.5,0.5
2026-03-18T1900,3237A,117.4918,30.6617,池州市,展览馆,,29,22,14,20,13,47,47,53,53,29,27,2,2,0.7,0.8
2026-03-18T1900,3333A,117.5626,30.695,池州市,第八中学,,26,20,16,18,13,55,55,50,50,25,29,3,3,0.7,0.8
2026-03-18T1900,3334A,117.5037,30.6242,池州市,第十二中学,,25,22,13,17,11,50,50,49,49,24,29,3,3,0.8,0.9
2026-03-18T1900,1744A,118.9229,42.2816,赤峰市,松山一中,颗粒物(PM10),54,55,39,12,8,77,77,83,82,14,8,3,4,0.3,0.3
2026-03-18T1900,1745A,118.9588,42.2733,赤峰市,哈达街,颗粒物(PM10),56,58,40,12,5,65,65,75,74,17,11,9,8,0.6,0.5
2026-03-18T1900,1746A,118.8792,42.2551,赤峰市,天义路,颗粒物(PM10),51,51,32,9,7,74,74,92,88,18,8,9,5,0.4,0.3
2026-03-18T1900,3058A,119.2656,42.0356,赤峰市,银河街,颗粒物(PM10),56,58,60,14,8,78,78,89,88,10,6,5,8,0.2,0.3
2026-03-18T1900,3286A,118.9359,42.3146,赤峰市,桥北物流园区,,48,48,27,22,7,71,71,84,82,11,5,4,4,0.4,0.4
2026-03-18T1900,2521A,107.3473,22.4137,崇左市,市环保局江州分局,,41,41,47,28,27,65,65,80,80,15,12,5,6,0.8,0.7
2026-03-18T1900,4256A,107.375,22.3736,崇左市,石景林东路7号,,40,36,49,28,28,76,76,84,84,12,17,3,4,0.9,0.9
2026-03-18T1900,3207A,118.31131,32.3033,滁州市,市政府原办公楼,细颗粒物(PM2.5),92,NA,36,56,41,52,52,64,62,23,17,4,4,0.6,0.4
2026-03-18T1900,3331A,118.3268,32.2633,滁州市,图书馆,细颗粒物(PM2.5),62,NA,38,41,32,53,53,63,62,24,21,8,8,0.6,0.5
2026-03-18T1900,4101A,118.3196,32.3335,滁州市,银山路666号,细颗粒物(PM2.5),72,NA,32,46,38,60,60,70,68,16,14,8,9,0.7,0.6
2026-03-18T1900,4102A,118.3426,32.2979,滁州市,黄山路555号,细颗粒物(PM2.5),72,62,51,46,38,57,57,69,68,18,17,5,5,0.8,0.7
2026-03-18T1900,2606A,101.5379,25.0492,楚雄彝族自治州,市经济开发区,,42,38,26,29,16,101,101,104,104,8,14,4,9,0.5,0.5
2026-03-18T1900,4153A,101.5536,25.0343,楚雄彝族自治州,团结路562号,,36,36,24,19,15,109,109,111,111,4,16,7,14,0.2,0.3
2026-03-18T1900,2549A,107.5087,31.2186,达州市,市环境监测站,,37,37,20,10,4,44,44,40,40,29,24,5,5,0.3,0.4
2026-03-18T1900,2550A,107.4988,31.2132,达州市,凤凰小区,,39,39,21,9,5,51,51,44,44,21,24,5,5,0.3,0.4
2026-03-18T1900,2551A,107.5081,31.1987,达州市,达县机关宾馆,,34,34,20,9,6,43,43,44,44,32,29,4,4,0.5,0.6
2026-03-18T1900,2552A,107.4644,31.2124,达州市,市政中心,NA,NA,50,28,6,4,37,37,43,43,34,26,4,4,NA,0.6
2026-03-18T1900,2614A,100.2168,25.5818,大理白族自治州,大理市环境监测站,,45,32,20,31,18,93,93,96,96,10,8,7,7,0.6,0.4
2026-03-18T1900,2615A,100.1542,25.7055,大理白族自治州,大理古城,,33,26,28,23,18,100,100,108,102,5,4,7,8,0.6,0.5
2026-03-18T1900,1109A,121.6119,38.974,大连市,甘井子,,26,23,33,9,23,83,83,93,92,19,18,7,8,0.5,0.5
2026-03-18T1900,1110A,121.565,38.9509,大连市,周水子,,31,31,46,12,25,75,75,87,86,23,16,6,9,0.4,0.5
2026-03-18T1900,1111A,121.5637,38.8849,大连市,星海三站,颗粒物(PM10),56,58,47,35,29,63,63,70,69,18,16,8,6,0.5,0.6
2026-03-18T1900,1112A,121.6301,38.9117,大连市,青泥洼桥,,25,25,35,11,23,78,78,87,86,22,17,6,6,0.4,0.5
2026-03-18T1900,1113A,121.6248,38.8643,大连市,傅家庄,,26,22,33,8,21,82,82,89,89,20,19,6,6,0.5,0.5
2026-03-18T1900,1114A,121.5117,38.8636,大连市,七贤岭,,35,35,43,13,23,81,81,88,88,20,20,6,7,0.3,0.5
2026-03-18T1900,1116A,121.7507,39.1339,大连市,金州,,30,30,37,10,20,89,89,91,91,14,15,4,5,0.4,0.4
2026-03-18T1900,1117A,121.7811,39.0495,大连市,开发区,,27,25,46,9,25,86,86,91,91,17,24,8,8,0.3,0.3
2026-03-18T1900,1118A,121.9762,39.0631,大连市,双D港,,30,27,46,7,27,93,93,100,100,12,17,6,5,0.4,0.5
2026-03-18T1900,4082A,121.2548,38.8188,大连市,旅顺,,28,28,34,17,22,74,74,83,82,17,15,6,6,0.4,0.4
2026-03-18T1900,1789A,124.8085,46.0381,大庆市,大同区,颗粒物(PM10),58,60,147,28,37,76,76,91,90,12,10,10,10,0.6,0.6
2026-03-18T1900,1790A,125.1166,46.5255,大庆市,龙凤区,细颗粒物(PM2.5),110,106,113,71,55,85,85,90,90,22,15,6,4,0.7,0.5
2026-03-18T1900,1791A,124.8894,46.4007,大庆市,红岗区,细颗粒物(PM2.5),126,122,96,88,48,84,84,93,93,NA,13,9,4,0.7,0.8
2026-03-18T1900,1792A,125.1391,46.578,大庆市,萨尔图区,细颗粒物(PM2.5),108,120,114,68,51,84,84,92,92,22,14,7,6,0.6,0.5
2026-03-18T1900,1793A,124.9026,46.6217,大庆市,让胡路区,细颗粒物(PM2.5),115,95,97,76,58,82,82,92,92,19,10,6,6,0.7,0.6
2026-03-18T1900,3481A,125.127,46.6277,大庆市,萨区政府监测点,细颗粒物(PM2.5),108,111,125,68,59,86,86,92,92,14,9,9,9,0.4,0.3
2026-03-18T1900,1723A,113.2926,40.0759,大同市,云冈宾馆,细颗粒物(PM2.5),106,110,49,66,17,94,94,92,92,28,11,18,7,0.8,0.6
2026-03-18T1900,1724A,113.3437,40.0921,大同市,大同大学,细颗粒物(PM2.5),109,102,59,69,15,103,103,102,102,33,14,18,5,0.6,0.5
2026-03-18T1900,1725A,113.2637,40.129,大同市,安家小村,NA,NA,NA,59,NA,10,NA,NA,76,NA,NA,20,NA,11,NA,0.5
2026-03-18T1900,3282A,113.3399,40.0586,大同市,大同市卫生学校,细颗粒物(PM2.5),100,108,56,60,15,96,96,99,99,30,11,18,5,0.5,0.5
2026-03-18T1900,3565A,113.1371,40.1122,大同市,云冈站,颗粒物(PM10),78,89,43,44,11,91,91,91,91,18,7,10,7,0.6,0.6
2026-03-18T1900,3566A,113.1186,40.2556,大同市,图书馆,,45,NA,41,31,11,92,92,97,97,8,8,3,5,0.5,0.5
2026-03-18T1900,3567A,113.5931,40.0459,大同市,区一中,细颗粒物(PM2.5),117,115,54,78,18,107,107,106,106,29,11,26,11,0.6,0.3
2026-03-18T1900,4199A,113.2798248,40.09972476,大同市,魏都大道141号,细颗粒物(PM2.5),110,104,62,70,16,93,93,94,94,30,11,17,9,0.7,0.6
2026-03-18T1900,2269A,124.1068,50.4091,大兴安岭地区,科技局,,24,20,26,8,11,74,74,76,75,1,2,6,6,0.3,0.3
2026-03-18T1900,3663A,124.117,50.4279,大兴安岭地区,红旗社区,,25,12,18,9,13,79,79,82,80,4,4,8,9,0.3,0.3
2026-03-18T1900,1600A,124.33,40.0625,丹东市,江湾东路,,31,24,90,6,67,99,99,97,97,9,23,7,9,0.4,1.2
2026-03-18T1900,1601A,124.4242,40.1513,丹东市,临江后街,,28,16,84,6,54,87,87,88,88,12,17,8,11,0.4,0.9
2026-03-18T1900,1602A,124.3935,40.1461,丹东市,元宝山,,28,20,92,3,62,88,88,86,86,9,24,6,10,0.4,0.9
2026-03-18T1900,1603A,124.3634,40.1093,丹东市,民主桥,,29,18,91,6,64,90,90,91,91,16,34,5,7,0.4,0.9
2026-03-18T1900,3541A,109.5726195,19.51688767,儋州市,第一中学子站,NA,NA,36,30,16,14,80,80,72,72,NA,5,7,7,0.3,0.4
2026-03-18T1900,3542A,109.5567,19.5187,儋州市,东坡学校子站,,28,28,29,12,16,87,87,79,79,8,7,5,7,0.3,0.3
2026-03-18T1900,2616A,98.5611,24.4273,德宏傣族景颇族自治州,德宏州监测站,细颗粒物(PM2.5),52,NA,24,36,22,106,106,94,94,10,12,6,4,0.5,0.5
2026-03-18T1900,3677A,98.5887,24.4366,德宏傣族景颇族自治州,芒市人民政府综合楼,颗粒物(PM10),71,79,43,39,22,97,97,87,87,10,10,9,8,0.5,0.6
2026-03-18T1900,1901A,104.424,31.1209,德阳市,东山公园,颗粒物(PM10),55,56,33,22,16,90,90,85,85,15,17,3,4,0.3,0.4
2026-03-18T1900,1902A,104.3827,31.1318,德阳市,西小区,颗粒物(PM10),58,61,43,19,18,85,85,86,86,18,21,6,7,0.5,0.5
2026-03-18T1900,1904A,104.3553,31.1091,德阳市,耐火材料厂,颗粒物(PM10),58,60,38,20,20,91,91,88,88,17,21,1,3,0.3,0.4
2026-03-18T1900,4145A,104.4144,31.1495,德阳市,市林业局,颗粒物(PM10),60,64,40,19,17,89,89,88,88,10,22,6,9,0.3,0.4
2026-03-18T1900,1622A,116.3034,37.4675,德州市,儿童乐园,,31,31,74,9,49,81,81,80,80,16,19,9,10,0.4,0.6
2026-03-18T1900,1624A,116.2992,37.4449,德州市,监理站,,31,31,79,8,49,87,87,85,85,14,21,5,7,0.5,0.6
2026-03-18T1900,3066A,116.2722,37.438,德州市,九衢泉纯净水厂,,34,34,73,12,50,75,75,82,82,26,29,3,4,0.3,0.6
2026-03-18T1900,3371A,116.3693,37.44,德州市,开发区人民医院,,34,34,73,9,51,79,79,76,76,21,19,6,6,0.4,0.6
2026-03-18T1900,3511A,116.5687,37.3331,德州市,陵城艺术中心,NA,NA,22,70,10,55,NA,NA,76,76,12,14,4,3,0.4,0.6
2026-03-18T1900,4292A,116.352738,37.420875,德州市,新河东路,,29,29,72,10,47,78,78,78,78,18,19,8,8,0.8,0.7
2026-03-18T1900,2621A,99.7054,27.8319,迪庆藏族自治州,迪庆州站,,34,15,19,9,11,106,106,100,100,8,8,7,8,0.5,0.5
2026-03-18T1900,3180A,99.7122,27.8129,迪庆藏族自治州,质量技术监督局,,33,15,17,7,10,103,103,99,99,9,7,6,5,0.7,0.6
2026-03-18T1900,4257A,104.6092,35.5962,定西市,将台街,颗粒物(PM10),81,93,110,34,32,104,104,104,104,8,10,8,8,0.3,0.3
2026-03-18T1900,4309A,104.6159,35.5701,定西市,正龙路62号,颗粒物(PM10),86,100,111,29,29,98,98,97,97,8,9,4,4,0.2,0.3
2026-03-18T1900,4071A,114.9883,38.5232,定州市,交通局,,30,30,62,3,31,87,87,97,96,18,16,11,12,0.4,0.6
2026-03-18T1900,4072A,115.0045,38.5136,定州市,第五中学,,43,43,74,12,32,81,81,95,94,20,16,8,9,0.3,0.6
2026-03-18T1900,1390A,113.7943,23.0132,东莞市,东城石井,,23,19,32,8,17,72,72,107,104,19,27,4,4,0.4,0.5
2026-03-18T1900,1391A,113.7384,22.9659,东莞市,南城西平,,22,19,39,6,19,68,68,92,88,16,38,5,6,0.4,0.5
2026-03-18T1900,3319A,113.7283,23.041,东莞市,万江金泰,,24,24,39,12,20,75,75,101,99,19,24,5,5,0.5,0.6
2026-03-18T1900,4129A,113.8666,23.1062,东莞市,裕兴路,NA,NA,16,31,7,20,86,86,122,119,NA,25,7,7,0.5,0.6
2026-03-18T1900,4130A,114.0076,22.9739,东莞市,教育路1号,,31,31,44,10,20,77,77,111,109,24,29,5,5,0.3,0.3
2026-03-18T1900,4131A,113.7981,22.8124,东莞市,长怡路1号,,24,24,45,8,20,58,58,81,77,32,36,5,5,0.5,0.6
2026-03-18T1900,1666A,118.6612,37.4313,东营市,市环保局,,27,24,43,6,24,86,86,90,90,13,15,8,12,0.3,0.5
2026-03-18T1900,3036A,118.6903,37.4337,东营市,开发区管委会,NA,NA,29,46,3,22,NA,NA,91,91,20,23,7,10,NA,0.6
2026-03-18T1900,3365A,118.5721,37.5654,东营市,垦利区民丰路,,32,22,40,3,25,100,100,99,99,12,16,9,11,0.5,0.7
2026-03-18T1900,3498A,118.5063,37.8606,东营市,河口城区,,30,29,52,12,30,96,96,101,101,12,14,9,9,0.4,0.5
2026-03-18T1900,3646A,118.4979,37.4623,东营市,胜利站,,25,21,51,3,22,79,79,87,87,20,15,6,8,0.5,0.6
2026-03-18T1900,3734A,118.5753,37.4405,东营市,理想之城,,29,29,48,3,23,74,74,93,92,22,18,3,6,0.6,0.7
2026-03-18T1900,1591A,110.0024,39.8127,鄂尔多斯市,综合楼,,29,NA,70,15,14,90,90,88,88,14,11,7,7,0.3,0.3
2026-03-18T1900,1592A,109.9485,39.8259,鄂尔多斯市,巴音孟克林场办事处,,31,NA,67,13,10,97,97,96,96,8,13,5,6,0.3,0.3
2026-03-18T1900,1593A,109.7734,39.5987,鄂尔多斯市,康泽苑,,31,12,64,11,10,98,98,96,96,11,8,6,7,0.3,0.3
2026-03-18T1900,1594A,109.8121,39.5987,鄂尔多斯市,华泰汽车城,,31,9,65,9,12,98,98,98,98,14,10,5,7,0.3,0.3
2026-03-18T1900,1595A,109.9734,39.7884,鄂尔多斯市,奥林花园,,27,22,75,3,15,86,86,90,90,21,16,6,7,0.3,0.3
2026-03-18T1900,2436A,114.894,30.3989,鄂州市,市政府,,42,42,19,29,10,60,60,64,64,26,21,6,7,0.4,0.5
2026-03-18T1900,2437A,114.8986,30.3714,鄂州市,赵家坝,,40,38,21,28,10,70,70,77,77,16,12,8,10,0.8,1
2026-03-18T1900,3654A,114.8093,30.4091,鄂州市,精准医疗中心,NA,NA,57,18,28,10,NA,NA,80,80,16,15,35,12,0.6,0.8
2026-03-18T1900,2454A,109.4978,30.2979,恩施土家族苗族自治州,湖北民院,,25,22,18,17,10,38,38,45,42,15,13,6,6,0.7,0.8
2026-03-18T1900,3549A,109.5061,30.3771,恩施土家族苗族自治州,龙凤新区,,19,19,13,3,7,22,22,46,41,12,6,7,7,0.6,0.6
2026-03-18T1900,2499A,108.3411,21.6159,防城港市,沙万,NA,NA,85,53,20,16,NA,NA,67,67,27,23,9,6,0.4,0.7
2026-03-18T1900,2500A,108.3515,21.7733,防城港市,防城档案局,,26,26,38,17,19,72,72,67,67,10,10,6,7,0.4,0.5
2026-03-18T1900,2501A,108.3506,21.6414,防城港市,大海花园,,40,40,38,23,19,78,78,76,76,25,25,11,9,0.4,0.5
2026-03-18T1900,1371A,113.1293,23.0065,佛山市,湾梁,NA,NA,46,31,12,19,NA,NA,122,122,14,24,/,/,/,/
2026-03-18T1900,1372A,113.1082,23.0477,佛山市,华材职中,,31,31,34,13,18,94,94,114,114,21,25,6,7,0.3,0.3
2026-03-18T1900,1373A,113.1439,23.045,佛山市,南海气象局,,33,33,34,13,20,93,93,119,119,16,27,/,/,/,/
2026-03-18T1900,1374A,113.2879,22.8094,佛山市,顺德苏岗,,39,39,33,13,18,90,90,115,115,16,23,/,/,0.4,0.4
2026-03-18T1900,1376A,112.8384,22.8678,佛山市,高明孔堂,,31,31,26,15,13,88,88,94,94,12,6,/,/,/,/
2026-03-18T1900,1377A,112.8835,23.1584,佛山市,三水监测站,,34,34,34,15,20,68,68,93,93,34,26,5,5,0.4,0.4
2026-03-18T1900,1378A,112.8668,23.185,佛山市,三水云东海,,50,50,49,15,20,73,73,103,103,18,22,/,/,/,/
2026-03-18T1900,3625A,113.2568,22.7629,佛山市,容桂街道办,,29,29,29,12,17,82,82,102,102,19,24,/,/,/,/
2026-03-18T1900,1282A,119.2681,26.0506,福州市,师大,颗粒物(PM10),65,70,51,17,30,107,107,151,151,24,16,4,4,0.3,0.3
2026-03-18T1900,1283A,119.2983,26.1028,福州市,五四北路,颗粒物(PM10),63,67,45,19,30,117,117,149,149,20,18,6,4,0.4,0.4
2026-03-18T1900,1284A,119.2648,26.0769,福州市,杨桥西路,颗粒物(PM10),63,67,48,19,30,117,117,155,155,20,16,5,4,/,/
2026-03-18T1900,3048A,119.5799,26.0937,福州市,九龙,,44,44,42,14,29,109,109,145,145,15,15,6,5,0.3,0.3
2026-03-18T1900,3526A,119.5188,25.9666,福州市,吴航,,30,22,41,10,26,94,94,136,136,16,16,6,5,0.4,0.6
2026-03-18T1900,4104A,119.3106,26.0648,福州市,路通桥巷6号,,38,38,48,18,30,103,103,147,147,14,13,/,/,/,/
2026-03-18T1900,1755A,123.7974,41.8494,抚顺市,望花区,,44,44,88,12,42,81,81,93,92,21,20,10,16,0.7,0.9
2026-03-18T1900,1756A,123.9161,41.8827,抚顺市,顺城区,,29,29,79,15,45,77,77,93,91,24,22,9,13,0.8,0.7
2026-03-18T1900,1757A,124.0437,41.8615,抚顺市,东洲区,,30,30,107,17,56,78,78,91,90,22,19,8,10,0.6,0.7
2026-03-18T1900,1758A,123.9246,41.8638,抚顺市,新抚区,,34,34,105,11,47,74,74,92,92,22,20,8,11,0.5,0.7
2026-03-18T1900,1759A,124.0972,41.8961,抚顺市,大伙房水库,,29,29,106,16,53,83,83,96,95,16,17,11,13,0.4,0.6
2026-03-18T1900,1760A,123.708,41.8386,抚顺市,沈抚新城,,30,30,80,9,36,76,76,90,89,26,21,7,10,0.5,0.6
2026-03-18T1900,2377A,116.3544,27.9833,抚州市,市站,,13,12,26,3,21,40,40,44,43,15,14,6,9,1.3,1.3
2026-03-18T1900,2378A,116.3562,27.9631,抚州市,血防站,,22,22,31,3,20,38,38,42,40,7,7,3,4,0.8,1
2026-03-18T1900,2379A,116.3561,28.0007,抚州市,采茶剧团,,13,10,29,7,19,39,39,43,42,13,12,9,14,0.8,0.8
2026-03-18T1900,2380A,116.3854,27.9648,抚州市,医学分院,,20,20,34,3,16,44,44,46,45,11,11,5,9,1.1,1.2
2026-03-18T1900,2207A,121.6095,41.9978,阜新市,工业园区,颗粒物(PM10),71,79,53,12,12,76,76,99,96,17,9,9,7,0.3,0.3
2026-03-18T1900,2208A,121.6567,42.0188,阜新市,长青街,,48,48,44,3,12,77,77,93,91,10,9,6,7,0.4,0.5
2026-03-18T1900,2209A,121.6672,42.07,阜新市,农业园区,颗粒物(PM10),65,70,54,12,10,73,73,93,91,16,10,4,4,0.3,0.3
2026-03-18T1900,2211A,121.6343,42.0455,阜新市,玉龙新城,颗粒物(PM10),68,74,55,12,11,61,61,97,91,24,10,4,6,0.4,0.4
2026-03-18T1900,2301A,115.8276,32.8929,阜阳市,市监测站,细颗粒物(PM2.5),103,92,68,63,45,60,60,74,74,17,14,5,5,0.6,0.5
2026-03-18T1900,2303A,115.8551,32.8606,阜阳市,开发区,细颗粒物(PM2.5),108,117,68,68,43,60,60,74,74,19,15,4,4,0.6,0.6
2026-03-18T1900,2875A,115.783962,32.889217,阜阳市,阜阳职业技术学院,细颗粒物(PM2.5),90,99,57,55,31,63,63,80,78,16,14,5,6,0.7,0.6
2026-03-18T1900,3468A,115.79,32.8614,阜阳市,市规划展馆,细颗粒物(PM2.5),108,102,63,68,45,66,66,79,79,13,12,6,6,0.7,0.6
2026-03-18T1900,3469A,115.835101,32.918568,阜阳市,枣园社区,细颗粒物(PM2.5),107,102,58,67,49,58,58,74,73,14,13,5,6,0.5,0.6
2026-03-18T1900,2669A,102.9097,34.9841,甘南藏族自治州,州政府,,30,22,37,18,18,96,96,109,99,4,3,6,4,0.4,0.3
2026-03-18T1900,3380A,102.8915,34.9618,甘南藏族自治州,甘肃民族师范学院,,37,37,42,20,18,103,103,109,109,15,4,3,3,0.4,0.4
2026-03-18T1900,2570A,101.96,30.048,甘孜藏族自治州,水桥子,NA,NA,18,11,3,2,NA,NA,63,63,NA,8,4,3,0.7,0.6
2026-03-18T1900,3065A,101.9534,29.9976,甘孜藏族自治州,州环保局,,25,14,5,6,3,78,78,78,78,18,12,6,6,0.5,0.5
2026-03-18T1900,2363A,114.9368,25.8663,赣州市,地委,,38,38,33,12,18,18,18,79,62,17,15,4,6,1.3,0.8
2026-03-18T1900,2364A,114.946,25.8483,赣州市,气象台,,42,42,35,18,21,34,34,94,79,20,14,5,7,0.8,0.5
2026-03-18T1900,2365A,114.932,25.8332,赣州市,市图书馆,,26,21,35,18,18,36,36,80,70,17,12,4,5,1.0,0.5
2026-03-18T1900,2366A,114.8905,25.8472,赣州市,华坚鞋城,,33,33,38,18,20,27,27,84,68,18,15,5,8,0.9,0.5
2026-03-18T1900,3109A,115.0094,25.8614,赣州市,赣县区卫计委,,32,26,38,22,20,23,23,77,67,19,17,4,3,1.1,0.6
2026-03-18T1900,2684A,106.2753,36.0057,固原市,监测站,颗粒物(PM10),121,173,181,39,37,82,82,82,82,8,9,8,9,0.2,0.4
2026-03-18T1900,2685A,106.2384,36.0189,固原市,新区,颗粒物(PM10),108,140,163,36,36,81,81,82,82,9,9,7,8,0.3,0.2
2026-03-18T1900,2544A,106.6307,30.4577,广安市,市委,,23,23,17,12,10,56,56,58,58,15,16,5,5,0.7,0.7
2026-03-18T1900,2545A,106.6266,30.4662,广安市,友谊中学,NA,NA,18,15,10,8,NA,NA,63,63,10,15,6,5,0.7,0.8
2026-03-18T1900,2547A,106.6386,30.4551,广安市,广电花园,,23,23,20,11,11,59,59,57,57,14,18,8,8,0.7,0.8
2026-03-18T1900,2902A,106.6347,30.4868,广安市,北辰小学,,24,24,17,10,10,56,56,56,56,12,14,4,4,0.7,0.8
2026-03-18T1900,2524A,105.8211,32.4444,广元市,老城,颗粒物(PM10),56,58,52,10,14,91,91,101,99,8,13,5,5,0.3,0.3
2026-03-18T1900,2526A,105.8629,32.429,广元市,监测站,,50,50,54,10,14,93,93,97,97,6,11,3,3,0.2,0.3
2026-03-18T1900,3617A,105.8047,32.4167,广元市,经开区,,48,48,52,16,20,88,88,93,93,6,14,3,3,0.3,0.2
2026-03-18T1900,1345A,113.2346,23.1423,广州市,广雅中学,,34,34,36,14,16,97,97,112,112,21,35,3,3,0.6,0.5
2026-03-18T1900,1346A,113.2611,23.105,广州市,市五中,,37,37,39,18,19,106,106,130,130,26,37,6,7,/,/
2026-03-18T1900,1348A,113.3477,23.0916,广州市,广东商学院,,34,34,37,14,23,59,59,109,109,35,43,5,6,0.6,0.7
2026-03-18T1900,1349A,113.4332,23.105,广州市,市八十六中,,24,24,32,10,14,54,54,97,91,48,55,5,5,/,/
2026-03-18T1900,1350A,113.3506,22.9488,广州市,番禺中学,,40,40,51,14,10,76,76,118,117,22,32,3,3,0.5,0.5
2026-03-18T1900,1351A,113.2147,23.3918,广州市,花都师范,,38,38,44,20,22,121,121,124,124,22,40,6,6,0.6,0.6
2026-03-18T1900,1352A,113.2599,23.1329,广州市,市监测站,,38,38,38,15,18,98,98,114,114,22,36,3,2,/,/
2026-03-18T1900,1353A,113.5618,23.3119,广州市,九龙镇镇龙,,37,37,45,17,23,100,100,111,110,35,31,6,6,0.3,0.4
2026-03-18T1900,1354A,113.2764,23.1544,广州市,麓湖,,35,35,36,16,17,108,108,126,126,14,29,3,4,0.5,0.5
2026-03-18T1900,2846A,113.3209,23.1323,广州市,体育西,NA,NA,40,39,17,16,NA,NA,126,126,38,44,5,7,NA,0.6
2026-03-18T1900,3298A,113.5718,23.5493,广州市,从化街口,颗粒物(PM10),54,55,42,28,20,128,128,132,132,31,24,6,6,0.8,0.6
2026-03-18T1900,3299A,113.3463,23.369,广州市,白云竹料,颗粒物(PM10),54,55,47,24,22,98,98,136,131,30,33,4,4,0.5,0.6
2026-03-18T1900,3300A,113.2981,23.2365,广州市,白云嘉禾,,46,46,43,19,20,103,103,130,130,33,46,6,7,/,/
2026-03-18T1900,3301A,113.4256,23.1716,广州市,黄埔科学城,,45,45,41,20,21,66,66,124,122,40,36,8,8,0.5,0.5
2026-03-18T1900,3302A,113.3942,23.0485,广州市,番禺大学城,,37,37,42,8,17,78,78,128,126,27,38,8,8,0.4,0.4
2026-03-18T1900,3303A,113.4923,22.8169,广州市,南沙黄阁,,38,38,37,13,18,77,77,97,97,20,45,6,7,/,/
2026-03-18T1900,3304A,113.534,22.7893,广州市,南沙街,,36,36,35,9,19,69,69,86,86,12,34,5,7,0.4,0.5
2026-03-18T1900,3443A,113.2905,23.5541,广州市,花都梯面,颗粒物(PM10),57,59,39,34,21,128,128,118,118,19,24,7,6,/,/
2026-03-18T1900,3445A,113.786,23.7479,广州市,从化良口,,40,35,20,22,10,126,126,134,134,18,18,4,4,/,/
2026-03-18T1900,3446A,113.805,23.2614,广州市,增城荔城,,37,37,38,19,22,100,100,138,138,24,28,6,5,0.4,0.4
2026-03-18T1900,2506A,109.604387,23.066791,贵港市,江南子站,颗粒物(PM10),56,58,55,24,28,82,82,81,81,10,15,7,7,0.6,0.6
2026-03-18T1900,2508A,109.5669,23.1065,贵港市,荷城子站,,46,46,47,28,26,77,77,83,82,19,18,7,9,0.6,0.6
2026-03-18T1900,3405A,109.5886,23.1172,贵港市,新世纪学校,颗粒物(PM10),53,53,53,27,29,84,84,82,82,15,20,/,/,0.5,0.5
2026-03-18T1900,4260A,109.5933,23.095,贵港市,中山路155-3号,颗粒物(PM10),52,52,60,28,31,82,82,79,79,10,16,/,/,0.5,0.5
2026-03-18T1900,1439A,106.6863,26.6035,贵阳市,马鞍山,,19,12,17,10,13,60,60,61,61,9,9,6,5,/,/
2026-03-18T1900,1441A,106.6241,26.6266,贵阳市,鉴湖路,,29,29,23,15,11,62,62,63,63,11,10,5,4,0.3,0.4
2026-03-18T1900,1442A,106.7468,26.6344,贵阳市,燕子冲,,22,22,17,13,11,62,62,60,60,10,10,7,7,0.9,1
2026-03-18T1900,1443A,106.6556,26.4362,贵阳市,碧云窝,,29,29,22,14,11,63,63,70,70,16,13,11,8,/,/
2026-03-18T1900,1445A,106.6963,26.6063,贵阳市,红边门,,22,22,22,13,11,60,60,63,63,15,13,11,8,/,/
2026-03-18T1900,1446A,106.7162383,26.56964667,贵阳市,新华路,,34,34,27,13,10,62,62,66,66,15,13,10,7,0.4,0.5
2026-03-18T1900,1447A,106.6742,26.542,贵阳市,太慈桥,NA,NA,NA,16,NA,11,63,63,67,67,14,13,4,4,/,/
2026-03-18T1900,4230A,106.688212,26.56952,贵阳市,花果园大街66号,,26,19,16,18,14,57,57,56,56,13,11,4,3,/,/
2026-03-18T1900,4231A,106.687268,26.516892,贵阳市,漓江路57号,,20,14,14,14,11,64,64,67,67,14,14,8,8,0.8,0.8
2026-03-18T1900,1864A,110.3091,25.2705,桂林市,龙隐路小学,,18,NA,57,12,50,48,48,36,36,16,31,3,7,0.8,0.9
2026-03-18T1900,1865A,110.2849361,25.22909545,桂林市,八中,NA,NA,11,60,3,33,NA,NA,30,30,13,36,3,9,0.9,1.2
2026-03-18T1900,3531A,110.296,25.1254,桂林市,旅游学院,,16,16,76,3,58,51,51,40,40,12,36,5,9,0.8,0.9
2026-03-18T1900,4222A,110.1835,25.2444,桂林市,环湖路276号,,14,7,78,6,66,43,43,30,30,13,37,4,28,1.0,1.3
2026-03-18T1900,4301A,110.2803,25.2773,桂林市,信义路13号,,15,12,64,3,49,45,45,33,33,14,36,3,10,1.1,1.3
2026-03-18T1900,2674A,100.2262,34.4854,果洛藏族自治州,玛沁县大武镇,,36,33,32,21,21,114,114,115,115,1,3,3,10,0.2,0.4
2026-03-18T1900,1130A,126.5557,45.8109,哈尔滨市,松北商大,颗粒物(PM10),110,146,196,63,88,79,79,98,98,11,17,3,6,0.3,0.5
2026-03-18T1900,1132A,126.6162,45.719,哈尔滨市,南岗学府路,颗粒物(PM10),136,213,224,65,73,87,87,100,100,15,19,9,11,0.1,0.4
2026-03-18T1900,1133A,126.6894,45.7733,哈尔滨市,太平宏伟公园,颗粒物(PM10),128,192,202,77,77,88,88,101,101,14,19,8,11,0.7,0.8
2026-03-18T1900,1134A,126.6361,45.7672,哈尔滨市,道外承德广场,颗粒物(PM10),213,359,302,74,84,87,87,102,102,18,21,9,10,1.1,1.1
2026-03-18T1900,1136A,126.644,45.7261,哈尔滨市,动力和平路,颗粒物(PM10),134,206,230,80,82,82,82,97,97,15,18,10,13,0.8,1
2026-03-18T1900,1137A,126.5933,45.7479,哈尔滨市,道里建国路,颗粒物(PM10),114,155,186,60,76,81,81,96,96,19,23,8,14,0.2,0.4
2026-03-18T1900,1138A,126.6127,45.6119,哈尔滨市,平房东轻厂,颗粒物(PM10),116,160,138,73,72,56,56,72,70,74,52,21,26,0.7,0.9
2026-03-18T1900,1139A,126.5875,45.9827,哈尔滨市,呼兰师专,颗粒物(PM10),114,154,213,46,63,71,71,84,83,16,19,9,11,0.3,0.5
2026-03-18T1900,1140A,126.6299,45.6799,哈尔滨市,省农科院,颗粒物(PM10),140,222,253,75,75,74,74,91,89,17,19,12,11,0.7,0.9
2026-03-18T1900,4282A,126.6769,45.7379,哈尔滨市,华山路1号,颗粒物(PM10),136,212,215,62,66,84,84,95,95,16,22,2,9,0.8,0.9
2026-03-18T1900,4283A,126.9717,45.5356,哈尔滨市,解放大街52号,颗粒物(PM10),120,171,171,50,63,80,80,96,95,16,18,3,8,0.2,0.2
2026-03-18T1900,2688A,93.5124,42.8176,哈密市,地区监测站,,27,23,25,8,9,85,85,78,78,5,12,4,5,0.1,0.2
2026-03-18T1900,2689A,93.5014,42.8312,哈密市,哈密师范学校,NA,NA,29,28,10,12,69,69,79,79,NA,24,NA,7,0.1,0.3
2026-03-18T1900,2671A,100.9016,36.9464,海北藏族自治州,海晏县西海镇,,40,33,52,28,31,94,94,93,93,1,4,6,7,0.6,0.6
2026-03-18T1900,3867A,102.074,36.5056,海东市,平安区公安局北苑,NA,NA,NA,97,NA,38,NA,NA,101,101,8,11,9,15,0.7,1
2026-03-18T1900,4163A,102.0984,36.5119,海东市,滨河路,颗粒物(PM10),84,97,95,39,38,78,78,87,87,32,26,7,14,0.8,1
2026-03-18T1900,1410A,110.3189,20.0596,海口市,海南大学,,25,23,28,10,12,80,80,79,79,5,8,5,5,0.3,0.3
2026-03-18T1900,1411A,110.2827,20.0051,海口市,秀英海南医院,,25,25,23,11,11,68,68,71,71,7,12,8,8,0.2,0.3
2026-03-18T1900,1412A,110.3391,19.9979,海口市,海南师范大学,,32,32,29,12,13,74,74,78,78,8,8,6,6,0.4,0.4
2026-03-18T1900,1413A,110.3303,20.0359,海口市,龙华路环保局宿舍,,26,26,32,12,13,80,80,79,79,7,9,/,/,0.4,0.3
2026-03-18T1900,3539A,110.5111,19.9737,海口市,桂林洋子站,NA,NA,34,29,18,13,67,67,73,73,NA,11,/,/,/,/
2026-03-18T1900,4134A,110.1952,20.0451,海口市,长滨二路9号,,24,21,24,9,13,74,74,76,76,6,7,/,/,/,/
2026-03-18T1900,2673A,100.6158,36.2985,海南藏族自治州,共和县恰卜恰镇,颗粒物(PM10),53,53,46,26,26,98,98,105,105,6,5,11,11,0.3,0.3
2026-03-18T1900,2676A,97.373,37.376,海西蒙古族藏族自治州,德令哈市,,46,40,40,23,21,145,145,142,142,2,2,13,13,0.4,0.4
2026-03-18T1900,1049A,114.492,36.5712,邯郸市,矿院,,36,36,61,13,31,82,82,89,89,9,11,1,2,0.2,0.4
2026-03-18T1900,1050A,114.4839,36.6136,邯郸市,丛台公园,,34,34,65,11,37,88,88,90,90,9,12,3,3,0.2,0.4
2026-03-18T1900,3458A,114.7893,36.5592,邯郸市,香泉濮院小区,,38,38,70,3,25,82,82,87,87,12,9,1,2,0.3,0.5
2026-03-18T1900,3580A,114.1998,36.4439,邯郸市,峰峰矿区临水派出所,,29,26,63,15,31,92,92,93,93,2,7,3,5,0.5,0.7
2026-03-18T1900,4068A,114.5209,36.7697,邯郸市,建安街268号,,40,40,68,10,38,66,66,91,89,24,14,3,2,0.3,0.5
2026-03-18T1900,4069A,114.5488,36.6177,邯郸市,丛台东路558号,NA,NA,22,53,NA,32,84,84,89,89,4,11,3,3,0.3,0.5
2026-03-18T1900,2635A,107.0155,33.0707,汉中市,市监测站,颗粒物(PM10),68,74,36,16,16,82,82,84,84,11,15,7,7,0.4,0.8
2026-03-18T1900,2636A,107.0083,33.114,汉中市,鑫源开发区,颗粒物(PM10),65,70,34,8,10,84,84,89,89,13,18,4,4,0.2,0.5
2026-03-18T1900,2637A,107.0072,33.0323,汉中市,南郑大河坎水厂,颗粒物(PM10),63,67,37,18,16,85,85,89,89,10,19,4,4,0.3,0.7
2026-03-18T1900,1223A,120.2073,30.2111,杭州市,滨江,,16,16,59,11,36,51,51,28,28,23,42,8,7,0.9,1.1
2026-03-18T1900,1224A,120.0625,30.2737,杭州市,西溪,,18,18,55,3,33,36,36,25,25,23,31,8,8,1.0,1.1
2026-03-18T1900,1226A,120.3417,30.315,杭州市,下沙,,26,26,67,14,35,55,55,37,37,23,38,8,7,0.6,0.8
2026-03-18T1900,1227A,120.1252,30.2465,杭州市,卧龙桥,,13,12,51,9,34,36,36,28,28,26,33,7,7,0.6,0.6
2026-03-18T1900,1228A,120.1902,30.2691,杭州市,浙江农大,,18,11,40,8,37,46,46,30,30,35,46,5,6,0.8,0.9
2026-03-18T1900,1230A,120.1195,30.3121,杭州市,和睦小学,,20,20,70,8,37,42,42,28,28,24,36,5,6,0.8,0.9
2026-03-18T1900,1231A,120.3076,30.4146,杭州市,临平镇,,21,17,49,14,34,67,67,46,46,19,30,6,6,0.7,0.8
2026-03-18T1900,1232A,120.2753,30.1839,杭州市,城厢镇,,21,21,49,11,39,55,55,32,32,20,31,8,8,0.9,0.9
2026-03-18T1900,1233A,120.0883,30.1808,杭州市,云栖,,16,16,49,3,31,38,38,26,26,24,29,5,5,0.8,0.9
2026-03-18T1900,3557A,119.9463,30.0496,杭州市,镇二中,,14,6,37,3,40,44,44,18,18,18,36,4,4,1.0,1
2026-03-18T1900,3558A,119.7184,30.2367,杭州市,市府大楼,,9,6,29,3,29,28,28,16,16,15,26,6,6,0.7,0.6
2026-03-18T1900,3656A,120.1554,30.2863,杭州市,消防大队,,16,15,66,11,38,48,48,29,29,22,37,7,7,0.9,0.9
2026-03-18T1900,1270A,117.1957,31.7845,合肥市,明珠广场,细颗粒物(PM2.5),62,61,38,41,29,60,60,59,59,22,17,5,5,1.0,1.1
2026-03-18T1900,1271A,117.307,31.8765,合肥市,三里街,细颗粒物(PM2.5),56,48,37,38,32,58,58,58,58,29,26,5,5,0.8,0.8
2026-03-18T1900,1272A,117.2587,31.8703,合肥市,琥珀山庄,细颗粒物(PM2.5),64,46,37,42,33,66,66,62,62,28,25,6,6,0.8,0.8
2026-03-18T1900,1275A,117.2593,31.9376,合肥市,庐阳区,颗粒物(PM10),53,53,41,33,27,62,62,61,61,26,20,4,4,0.9,0.9
2026-03-18T1900,1276A,117.345251,31.861615,合肥市,瑶海区,,48,48,35,32,25,61,61,57,57,30,27,5,5,0.7,0.7
2026-03-18T1900,1277A,117.3033,31.7967,合肥市,包河区,,50,46,36,35,25,29,29,39,38,70,44,7,9,0.9,1
2026-03-18T1900,1278A,117.278,31.7392,合肥市,滨湖新区,细颗粒物(PM2.5),62,51,33,41,26,62,62,54,54,20,23,4,4,0.8,0.8
2026-03-18T1900,1279A,117.1324,31.8395,合肥市,高新区,NA,NA,51,39,NA,26,NA,NA,63,63,15,15,4,4,0.8,0.8
2026-03-18T1900,3464A,117.3802,31.9148,合肥市,高教基地,,50,44,36,35,31,62,62,59,59,20,22,6,7,0.6,0.6
2026-03-18T1900,4098A,117.2518,31.8404,合肥市,中国科学技术大学,,48,46,32,33,23,68,68,62,62,21,20,4,5,0.7,0.8
2026-03-18T1900,3614A,79.9241,37.0878,和田地区,地区环保局,颗粒物(PM10),147,241,227,66,60,95,95,89,89,6,19,2,2,0.3,0.5
2026-03-18T1900,3615A,79.9132,37.1137,和田地区,市环保局,NA,NA,NA,231,NA,62,NA,NA,81,NA,NA,30,NA,2,NA,1.1
2026-03-18T1900,2517A,108.0496,24.6957,河池市,市环保站,,18,18,21,3,16,51,51,50,50,8,6,5,5,0.6,0.4
2026-03-18T1900,4302A,108.0901,24.6945,河池市,上任中路54号,NA,NA,NA,32,NA,22,NA,NA,74,NA,NA,10,NA,8,NA,0.5
2026-03-18T1900,1697A,114.6962,23.7538,河源市,东埔,,44,44,37,25,22,120,120,115,115,15,13,6,6,0.7,0.6
2026-03-18T1900,1698A,114.6895,23.7232,河源市,老城,颗粒物(PM10),57,59,37,24,22,107,107,114,114,14,13,6,6,0.6,0.6
2026-03-18T1900,3374A,115.5562,35.089,菏泽市,定陶老年大学,,34,34,71,14,51,80,80,84,84,11,15,4,5,0.4,0.6
2026-03-18T1900,4114A,115.4239,35.2593,菏泽市,黄河路600号,,43,43,83,16,54,78,78,78,78,10,17,1,1,0.3,0.5
2026-03-18T1900,4115A,115.5025,35.2727,菏泽市,菏泽市人社局,,44,44,74,18,58,73,73,77,77,14,17,3,4,0.3,0.5
2026-03-18T1900,4184A,115.479691,35.244011,菏泽市,永昌路1号,,36,36,80,16,57,91,91,94,94,15,20,2,2,0.2,0.2
2026-03-18T1900,4193A,115.471542,35.280012,菏泽市,长城路999号,,36,36,78,15,55,82,82,81,81,10,14,3,4,0.2,0.4
2026-03-18T1900,2514A,111.5264,24.4178,贺州市,环保小区,,30,30,54,7,33,43,43,45,45,11,22,4,6,0.8,0.6
2026-03-18T1900,2515A,111.561,24.4074,贺州市,政协大楼,,37,37,56,7,32,34,34,52,51,17,25,6,8,0.6,0.4
2026-03-18T1900,3534A,111.4744,24.455,贺州市,西湾,,48,48,64,3,32,41,41,48,45,12,26,5,7,0.9,0.7
2026-03-18T1900,2385A,114.17,35.9019,鹤壁市,市监测站,,42,42,72,12,40,77,77,82,82,15,15,3,4,0.4,0.6
2026-03-18T1900,2386A,114.2953,35.7512,鹤壁市,市交警支队,,39,39,76,10,43,68,68,72,72,23,23,5,5,0.2,0.5
2026-03-18T1900,2387A,114.2877,35.7302,鹤壁市,迎宾馆,,35,35,88,20,45,72,72,79,79,18,17,8,8,0.4,0.7
2026-03-18T1900,3474A,114.2616,35.6824,鹤壁市,大新区,,42,42,70,23,49,69,69,76,76,25,23,4,5,0.4,0.7
2026-03-18T1900,3596A,114.1573,35.9607,鹤壁市,南山宾馆,,46,46,86,18,41,79,79,84,84,6,10,5,8,0.1,0.4
2026-03-18T1900,2244A,130.2537,47.3416,鹤岗市,哈啤分公司,,32,32,29,19,18,81,81,74,74,8,11,11,12,0.5,0.4
2026-03-18T1900,2245A,130.2683,47.3087,鹤岗市,斯达机电,,33,33,38,16,19,98,98,84,84,7,11,9,11,0.5,0.5
2026-03-18T1900,2246A,130.3114,47.3388,鹤岗市,东山纸板厂,,35,35,57,23,21,79,79,72,72,6,14,8,10,0.5,0.7
2026-03-18T1900,2263A,127.4832,50.2524,黑河市,交通局,,30,30,37,16,19,77,77,84,82,7,20,6,8,0.4,0.3
2026-03-18T1900,2264A,127.5146,50.2339,黑河市,环保局,,29,29,31,19,20,81,81,86,86,13,21,5,9,0.4,0.4
2026-03-18T1900,1074A,115.6839,37.754,衡水市,电机北厂,,30,30,68,15,47,95,95,94,94,13,15,3,3,0.4,0.5
2026-03-18T1900,1075A,115.6303,37.7318,衡水市,市监测站,,50,50,69,17,47,85,85,89,89,13,14,4,7,0.3,0.4
2026-03-18T1900,3188A,115.6684,37.7216,衡水市,市城管局,,47,47,71,27,46,88,88,89,89,15,15,1,3,0.3,0.5
2026-03-18T1900,3459A,115.599,37.5491,衡水市,地表水厂,,30,27,66,21,49,75,75,94,93,26,15,6,6,0.3,0.4
2026-03-18T1900,2457A,112.6209,26.9268,衡阳市,衡阳化工总厂,,43,NA,18,30,13,46,46,62,62,21,11,3,4,1.0,1
2026-03-18T1900,2458A,112.621,26.8957,衡阳市,珠晖区环保局,,26,26,17,18,10,53,53,62,62,19,13,5,5,1.1,1.1
2026-03-18T1900,2459A,112.628,26.8654,衡阳市,市委党校,,21,21,19,14,10,63,63,66,66,10,10,4,5,1.0,1.1
2026-03-18T1900,2460A,112.6007,26.8977,衡阳市,市监测站,,35,33,21,24,12,60,60,68,68,13,7,6,6,0.9,0.8
2026-03-18T1900,2461A,112.5658,26.9013,衡阳市,真空机电公司,NA,NA,24,21,22,14,61,61,70,70,18,13,6,6,NA,1.1
2026-03-18T1900,3399A,112.6703,26.8817,衡阳市,师范学院,,21,21,18,13,14,62,62,69,69,10,8,4,4,1.0,1.1
2026-03-18T1900,3038A,103.3757,23.3679,红河哈尼族彝族自治州,州图书馆,,46,40,40,32,32,103,103,110,110,6,10,5,18,0.3,0.4
2026-03-18T1900,4154A,103.401,23.3561,红河哈尼族彝族自治州,蒙自市朝阳路,细颗粒物(PM2.5),52,36,32,36,27,103,103,115,113,9,11,9,13,0.4,0.4
2026-03-18T1900,1090A,111.6506,40.7517,呼和浩特市,呼市一监,细颗粒物(PM2.5),88,68,33,54,15,107,107,97,97,17,7,10,6,0.5,0.3
2026-03-18T1900,1094A,111.7516,40.8369,呼和浩特市,如意水处理厂,颗粒物(PM10),53,54,25,25,10,105,105,97,97,17,9,13,8,0.4,0.2
2026-03-18T1900,1095A,111.727798,40.806187,呼和浩特市,二十九中,,48,47,33,33,10,96,96,89,89,20,9,12,8,0.5,0.3
2026-03-18T1900,1097A,111.717,40.7617,呼和浩特市,化肥厂生活区,细颗粒物(PM2.5),66,63,37,43,14,100,100,96,96,20,10,9,5,0.4,0.3
2026-03-18T1900,3699A,111.6519,40.8389,呼和浩特市,海东办,颗粒物(PM10),62,66,35,27,8,101,101,88,88,18,8,10,5,0.4,0.2
2026-03-18T1900,4275A,111.591512,40.827312,呼和浩特市,成吉思汗西街8号,颗粒物(PM10),65,70,40,30,10,96,96,86,86,22,9,7,4,0.5,0.3
2026-03-18T1900,4276A,111.6597,40.8077,呼和浩特市,公园东路75号,颗粒物(PM10),62,66,37,25,8,102,102,86,86,16,9,12,8,0.5,0.3
2026-03-18T1900,4277A,111.5427,40.7846,呼和浩特市,金海路35号,颗粒物(PM10),64,69,40,26,9,93,93,83,83,19,9,12,8,0.5,0.4
2026-03-18T1900,3061A,119.7511,49.1576,呼伦贝尔市,国华电力东,,33,33,28,18,11,81,81,84,84,10,7,5,6,0.2,0.2
2026-03-18T1900,4279A,119.7569,49.2222,呼伦贝尔市,伊敏大街东7号,,33,33,27,16,13,79,79,83,83,15,10,7,7,0.4,0.3
2026-03-18T1900,1250A,120.075,30.867,湖州市,城西水厂,,24,14,39,12,29,76,76,48,48,21,33,5,5,0.5,0.7
2026-03-18T1900,2873A,120.083,30.8929,湖州市,仁皇山新区,,23,16,37,13,29,73,73,54,54,21,32,4,5,0.7,0.9
2026-03-18T1900,2907A,120.1846,30.8592,湖州市,吴兴区站,,27,27,53,13,31,72,72,55,55,21,26,4,5,0.5,0.6
2026-03-18T1900,3562A,120.4146,30.8538,湖州市,南浔区站,,28,21,55,19,37,64,64,63,63,26,25,7,8,0.8,0.9
2026-03-18T1900,1607A,120.904878,40.721091,葫芦岛市,龙港区,,30,NA,43,14,38,94,94,90,90,6,14,7,9,0.4,0.5
2026-03-18T1900,1608A,120.8382,40.7521,葫芦岛市,化工街,,26,24,46,17,36,82,82,85,85,17,19,14,14,0.4,0.4
2026-03-18T1900,1609A,120.8339,40.7078,葫芦岛市,新区,,26,19,38,15,33,83,83,82,82,14,18,8,8,0.5,0.6
2026-03-18T1900,1610A,120.8697,40.7679,葫芦岛市,东城区,,26,16,40,14,38,82,82,86,86,18,19,8,9,0.4,0.6
2026-03-18T1900,2483A,109.9297,27.5383,怀化市,河西地税局,NA,NA,NA,8,NA,6,NA,NA,72,72,26,10,4,3,/,/
2026-03-18T1900,2484A,109.9783,27.5342,怀化市,市四医院,,24,24,8,12,6,47,47,67,66,18,10,7,6,0.6,0.5
2026-03-18T1900,2485A,109.9971,27.5579,怀化市,监测楼,,28,23,8,19,7,57,57,71,70,12,7,4,3,0.3,0.3
2026-03-18T1900,1210A,119.0566,33.5991,淮安市,钵池山,细颗粒物(PM2.5),130,110,54,92,48,52,52,93,69,32,18,7,8,0.8,0.5
2026-03-18T1900,1211A,119.0083,33.578,淮安市,北京南路,细颗粒物(PM2.5),130,105,47,92,49,42,42,87,63,32,14,7,6,0.8,0.5
2026-03-18T1900,1212A,118.9938,33.6083,淮安市,市监测站,细颗粒物(PM2.5),137,105,44,100,53,50,50,90,68,30,17,5,4,0.7,0.5
2026-03-18T1900,1213A,119.135,33.5038,淮安市,楚州区监测站,细颗粒物(PM2.5),145,117,50,109,55,52,52,91,69,26,13,6,6,0.8,0.7
2026-03-18T1900,3426A,118.8757,33.2897,淮安市,新华书店,细颗粒物(PM2.5),130,121,59,93,52,54,54,85,68,27,15,7,6,0.9,0.6
2026-03-18T1900,4092A,119.119691,33.550006,淮安市,枚皋中路89号,NA,NA,120,56,NA,48,50,50,91,68,25,17,9,9,1.0,0.6
2026-03-18T1900,4206A,119.028838,33.631911,淮安市,承德北路606号,细颗粒物(PM2.5),126,132,63,88,49,41,41,88,66,35,15,8,7,0.7,0.4
2026-03-18T1900,2282A,116.8005,33.9749,淮北市,监测站,NA,NA,83,71,48,59,59,59,76,74,21,17,NA,5,0.7,0.6
2026-03-18T1900,2283A,116.8094,33.9008,淮北市,烈山区政府,细颗粒物(PM2.5),84,77,67,52,60,58,58,78,77,20,16,3,4,0.6,0.5
2026-03-18T1900,4017A,116.7926,33.9534,淮北市,市博物馆,细颗粒物(PM2.5),88,78,63,54,61,56,56,73,72,22,18,2,2,0.7,0.6
2026-03-18T1900,4100A,116.8322,33.9884,淮北市,杜集区第一实验学校,细颗粒物(PM2.5),78,87,74,49,61,51,51,67,67,22,18,6,5,0.7,0.6
2026-03-18T1900,2277A,116.8304,32.7726,淮南市,潘集区政府,细颗粒物(PM2.5),90,78,59,55,43,57,57,61,61,18,14,5,5,0.7,0.6
2026-03-18T1900,2279A,116.8569,32.5949,淮南市,谢家集区政府,细颗粒物(PM2.5),104,70,52,64,50,49,49,60,60,26,19,9,7,0.8,0.6
2026-03-18T1900,2280A,116.8279,32.6333,淮南市,八公山区政府,细颗粒物(PM2.5),94,70,52,57,46,50,50,61,61,18,13,8,7,0.7,0.6
2026-03-18T1900,2894A,117.0561,32.6536,淮南市,经济技术开发区消防队,细颗粒物(PM2.5),101,64,53,61,52,61,61,63,63,18,18,6,6,0.5,0.5
2026-03-18T1900,3329A,117.011,32.5891,淮南市,山南新区,细颗粒物(PM2.5),94,64,48,57,50,66,66,71,71,22,17,6,6,0.6,0.5
2026-03-18T1900,4209A,117.003137,32.644456,淮南市,国庆中路369号,细颗粒物(PM2.5),94,72,58,57,42,50,50,56,56,21,15,7,7,0.6,0.5
2026-03-18T1900,2446A,114.9021,30.474,黄冈市,职工中心,细颗粒物(PM2.5),60,50,21,40,16,75,75,78,78,12,11,4,4,0.6,0.5
2026-03-18T1900,2929A,114.8858,30.4519,黄冈市,红卫路,,50,47,20,35,14,82,82,84,84,9,9,4,3,0.6,0.5
2026-03-18T1900,3398A,114.9134,30.4446,黄冈市,市林业局,颗粒物(PM10),53,53,22,35,15,85,85,83,83,11,9,4,4,0.5,0.5
2026-03-18T1900,2672A,102.02,35.5101,黄南藏族自治州,同仁县隆务镇,颗粒物(PM10),60,64,51,30,26,96,96,104,104,9,3,11,9,0.5,0.3
2026-03-18T1900,2295A,118.2905,29.6965,黄山市,延安路89号,,12,6,24,3,17,37,37,62,40,15,14,4,4,0.7,0.8
2026-03-18T1900,2297A,118.1369,30.2755,黄山市,黄山区政府5号楼,,17,6,14,3,4,52,52,40,40,13,16,2,2,0.7,0.8
2026-03-18T1900,4210A,118.335445,29.720283,黄山市,滨江东路7-2号,,22,22,36,3,16,38,38,44,43,16,15,/,/,/,/
2026-03-18T1900,2423A,115.0547,30.2332,黄石市,沈家营,,45,45,22,25,10,70,70,63,63,15,14,6,6,0.8,1.1
2026-03-18T1900,2426A,114.899,30.211,黄石市,铁山,,47,47,24,30,12,67,67,70,70,12,14,6,6,1.3,0.8
2026-03-18T1900,2427A,115.0259,30.2108,黄石市,团城山,NA,NA,NA,16,NA,8,NA,NA,20,NA,NA,14,NA,7,NA,0.9
2026-03-18T1900,3149A,115.0174,30.1591,黄石市,笔架山北路,颗粒物(PM10),51,51,24,22,10,74,74,74,74,18,17,7,6,1.1,1.1
2026-03-18T1900,4185A,115.078022,30.21118,黄石市,磁湖东路29号,,48,42,21,33,13,75,75,65,65,12,15,6,6,1.2,1.3
2026-03-18T1900,1392A,114.4181,23.0528,惠州市,河南岸金山湖子站,,25,25,34,13,19,80,80,102,101,10,13,6,7,0.5,0.5
2026-03-18T1900,1393A,114.4055,23.0824,惠州市,下埔横江三路子站,,29,29,39,12,18,83,83,101,101,12,13,3,4,0.5,0.6
2026-03-18T1900,1395A,114.4645,22.7832,惠州市,惠阳区承修路船湖子站,,31,31,38,12,17,66,66,82,80,18,17,5,6,0.5,0.4
2026-03-18T1900,1396A,114.5316,22.7423,惠州市,大亚湾管委会子站,,33,33,36,14,16,74,74,78,77,15,13,3,3,0.5,0.5
2026-03-18T1900,3314A,114.4334,22.8134,惠州市,惠阳秋长,,36,36,34,11,16,70,70,90,87,17,16,/,/,/,/
2026-03-18T1900,3452A,114.6521,22.7755,惠州市,大亚湾霞涌,,28,24,27,14,14,87,87,91,91,7,12,/,/,/,/
2026-03-18T1900,4300A,114.4089,23.1147,惠州市,文华一路1号,,28,24,34,11,17,88,88,107,107,10,13,/,/,/,/
2026-03-18T1900,2240A,130.9618,45.2926,鸡西市,环保局,,43,43,186,27,130,70,70,76,75,12,30,6,11,0.3,0.9
2026-03-18T1900,2243A,130.9294,45.2959,鸡西市,第一中学,,27,27,156,9,139,70,70,73,73,10,28,4,8,0.5,0.9
2026-03-18T1900,3707A,131.0069,45.2988,鸡西市,欧美日汽修厂,,38,NA,204,26,134,71,71,72,70,9,33,11,15,0.4,1
2026-03-18T1900,2367A,114.9753,27.0803,吉安市,红声器材厂,,12,11,64,3,43,15,15,52,20,20,20,4,7,1.2,1.2
2026-03-18T1900,2369A,114.9903,27.1313,吉安市,市环境监测站,,14,14,56,3,44,13,13,51,19,20,20,7,12,/,/
2026-03-18T1900,2370A,115.009527,27.096792,吉安市,青原区法院,,22,16,59,3,45,14,14,56,22,43,36,4,5,1.0,1
2026-03-18T1900,1772A,126.54,43.8622,吉林市,哈达湾,颗粒物(PM10),58,60,106,27,56,82,82,89,89,14,18,6,8,0.5,0.6
2026-03-18T1900,1773A,126.5843,43.8358,吉林市,东局子,NA,NA,NA,87,17,58,NA,NA,90,90,13,20,4,9,0.5,0.9
2026-03-18T1900,1774A,126.5051,43.8243,吉林市,电力学院,NA,NA,36,81,24,55,NA,NA,97,97,15,20,6,8,0.5,0.8
2026-03-18T1900,1775A,126.6133,43.8971,吉林市,江北,,47,47,99,16,50,81,81,91,91,20,23,6,8,0.7,0.9
2026-03-18T1900,1776A,126.5549,43.8304,吉林市,江南公园,,38,38,87,21,57,83,83,88,88,11,19,7,9,0.5,0.7
2026-03-18T1900,2868A,126.4737,43.953,吉林市,九站,颗粒物(PM10),52,52,123,26,76,63,63,89,86,27,26,7,11,0.5,0.7
2026-03-18T1900,1299A,116.9866,36.6118,济南市,科干所,,34,34,67,13,51,64,64,69,66,16,20,5,6,0.5,0.6
2026-03-18T1900,1300A,116.9379,36.6652,济南市,农科所,,32,32,65,12,52,60,60,67,67,22,24,6,6,0.4,0.5
2026-03-18T1900,1301A,117.1265,36.6736,济南市,开发区,,37,37,64,14,50,72,72,73,72,17,18,2,4,0.5,0.7
2026-03-18T1900,1303A,117.0616,36.6865,济南市,省种子仓库,,46,46,68,15,51,66,66,68,68,17,17,3,5,0.4,0.6
2026-03-18T1900,1304A,116.9495185,36.644937,济南市,机床二厂,,29,29,64,11,50,69,69,72,72,21,22,4,4,0.5,0.6
2026-03-18T1900,1305A,117.0496,36.6629,济南市,市监测站,,44,44,71,15,47,63,63,68,68,22,20,2,4,0.4,0.5
2026-03-18T1900,1306A,116.7674,36.5458,济南市,长清党校,,29,29,70,8,51,66,66,68,68,17,19,2,3,0.5,0.7
2026-03-18T1900,1961A,117.5323,36.6865,济南市,东山小学,NA,NA,51,90,24,57,62,62,68,67,NA,28,2,3,0.5,0.7
2026-03-18T1900,3059A,117.7181,36.205,济南市,泰兴公司,,39,39,71,13,49,73,73,77,77,18,19,5,7,0.7,0.9
2026-03-18T1900,3064A,117.6861,36.2172,济南市,莱芜战役纪念馆,,46,46,75,14,55,72,72,77,76,22,19,2,4,0.4,0.7
2026-03-18T1900,3494A,117.1673,36.9782,济南市,济阳区政府,,39,39,78,11,56,68,68,69,69,16,22,6,6,0.3,0.5
2026-03-18T1900,3495A,117.1168,36.6299,济南市,锦屏中学,,37,37,63,15,50,62,62,76,69,19,17,7,7,0.5,0.5
2026-03-18T1900,4108A,117.7107,36.2385,济南市,山财大街5号,,39,39,65,14,49,62,62,67,67,27,23,4,5,0.5,0.8
2026-03-18T1900,4109A,116.9744,36.6889,济南市,无影山路12号,,27,27,57,10,50,69,69,68,68,16,20,3,4,0.5,0.6
2026-03-18T1900,1653A,116.6229,35.4288,济宁市,火炬城,,34,34,62,19,57,70,70,73,73,15,17,3,4,0.5,0.7
2026-03-18T1900,3500A,116.5808,35.3703,济宁市,北湖一中,,48,48,62,24,55,70,70,72,72,13,19,4,5,0.4,0.7
2026-03-18T1900,3501A,116.8251,35.5592,济宁市,服务中心,,46,46,72,20,56,68,68,77,77,14,15,1,2,0.6,0.8
2026-03-18T1900,3678A,116.5907,35.4054,济宁市,市第七中学,颗粒物(PM10),52,52,58,23,54,73,73,76,76,17,18,2,3,0.5,0.7
2026-03-18T1900,4111A,116.6075,35.4566,济宁市,任和路,颗粒物(PM10),53,53,87,24,60,69,69,73,73,14,18,3,4,0.6,0.8
2026-03-18T1900,4112A,116.5648,35.3921,济宁市,文体南路1号,,49,49,81,25,53,74,74,76,76,14,20,2,2,0.4,0.6
2026-03-18T1900,4122A,112.6071,35.1015,济源市,市委党校,颗粒物(PM10),75,84,115,24,39,70,70,74,74,15,18,5,8,0.2,0.6
2026-03-18T1900,4123A,112.596,35.0702,济源市,沁园中路1号,颗粒物(PM10),73,82,103,28,39,74,74,78,78,17,20,3,5,0.4,0.7
2026-03-18T1900,2255A,130.2749,46.8028,佳木斯市,佳纺,,45,32,91,31,42,39,39,64,62,37,34,7,7,0.5,0.5
2026-03-18T1900,2257A,130.3258,46.7975,佳木斯市,环保局,,33,NA,60,23,38,51,51,67,66,28,32,5,4,0.3,0.5
2026-03-18T1900,4285A,130.363,46.806,佳木斯市,顺和街,NA,NA,NA,56,23,42,NA,NA,59,59,34,26,4,6,0.5,0.4
2026-03-18T1900,4286A,130.3952,46.8268,佳木斯市,长安路196号,,24,24,52,16,32,64,64,64,64,13,16,3,2,0.5,0.5
2026-03-18T1900,1252A,120.7439,30.778,嘉兴市,清河小学,,20,16,36,3,26,62,62,51,51,25,32,6,6,0.8,0.8
2026-03-18T1900,1253A,120.7261,30.7477,嘉兴市,嘉兴学院,,22,22,48,15,27,61,61,51,51,31,36,5,5,0.7,0.8
2026-03-18T1900,2872A,120.7845,30.7524,嘉兴市,南湖区残联,,23,18,30,16,31,62,62,53,53,25,30,3,4,0.8,0.9
2026-03-18T1900,3407A,120.6915,30.7741,嘉兴市,秀洲住建,,20,17,36,14,34,61,61,52,52,27,31,7,8,0.7,0.8
2026-03-18T1900,1945A,98.291,39.7705,嘉峪关市,气象局,颗粒物(PM10),144,232,118,54,24,91,91,92,92,10,9,12,7,0.5,0.4
2026-03-18T1900,2884A,98.2672,39.7978,嘉峪关市,酒钢宾馆,颗粒物(PM10),146,239,134,56,29,76,76,81,80,23,14,28,23,1.5,1.1
2026-03-18T1900,3248A,98.2644,39.7723,嘉峪关市,雄关区,颗粒物(PM10),127,190,95,55,24,87,87,87,87,13,12,11,9,0.5,0.4
2026-03-18T1900,1383A,113.1063,22.6058,江门市,北街,,23,23,31,7,18,68,68,94,93,12,18,/,/,/,/
2026-03-18T1900,1384A,113.073,22.5835,江门市,西区,,29,29,30,8,16,72,72,96,95,14,16,/,/,/,/
2026-03-18T1900,1385A,113.0218,22.531,江门市,圭峰西,,22,18,31,11,15,68,68,88,87,12,11,/,/,/,/
2026-03-18T1900,1386A,113.0826,22.5947,江门市,东湖,,23,22,31,7,16,71,71,95,94,12,14,6,6,0.4,0.4
2026-03-18T1900,3311A,113.1077,22.5647,江门市,江海富民,,30,30,50,7,18,71,71,100,98,14,17,/,/,0.3,0.3
2026-03-18T1900,3449A,113.0496,22.4669,江门市,新会银湖,,36,36,32,9,16,60,60,90,87,20,24,8,8,0.2,0.3
2026-03-18T1900,3335A,113.3137,35.2643,焦作市,马村街道办,颗粒物(PM10),66,72,90,21,50,68,68,74,73,19,19,7,8,0.4,0.7
2026-03-18T1900,3336A,113.2464,35.2374,焦作市,焦作技师学院,颗粒物(PM10),63,68,97,17,42,70,70,72,72,14,19,6,8,0.4,0.7
2026-03-18T1900,3477A,113.1656,35.2536,焦作市,中站许衡医院,颗粒物(PM10),56,58,91,24,48,75,75,79,79,18,24,7,15,0.4,0.9
2026-03-18T1900,3981A,113.2456,35.18,焦作市,原李万街道办,颗粒物(PM10),68,75,89,15,44,67,67,73,73,16,16,7,8,0.3,0.7
2026-03-18T1900,4264A,113.234,35.219,焦作市,新安路1731号,颗粒物(PM10),63,68,96,18,45,77,77,81,81,16,20,7,10,0.4,0.7
2026-03-18T1900,4295A,113.2722,35.2121,焦作市,人民路3066号,颗粒物(PM10),55,57,87,19,46,76,76,83,83,22,23,6,8,0.3,0.6
2026-03-18T1900,1708A,116.3701,23.5345,揭阳市,新兴,,50,50,49,26,30,62,62,85,82,17,21,7,9,0.7,0.7
2026-03-18T1900,1709A,116.3261,23.5442,揭阳市,西马,颗粒物(PM10),53,54,54,24,30,65,65,88,85,14,19,7,8,0.7,0.5
2026-03-18T1900,1710A,116.361,23.5627,揭阳市,东兴,,33,33,51,21,27,71,71,92,89,8,15,4,7,/,/
2026-03-18T1900,1711A,116.4151,23.5295,揭阳市,渔湖,,50,50,45,14,25,82,82,101,100,15,19,3,5,/,/
2026-03-18T1900,3320A,116.4028,23.5699,揭阳市,曲溪,,45,45,46,22,25,83,83,101,100,15,18,3,3,0.5,0.7
2026-03-18T1900,1944A,102.1691,38.5166,金昌市,天庆家园,颗粒物(PM10),140,222,134,64,34,100,100,96,96,6,7,16,25,0.6,0.6
2026-03-18T1900,4022A,102.1648,38.5369,金昌市,金川区人防中心,颗粒物(PM10),140,224,124,63,37,93,93,92,92,7,6,4,12,0.6,0.6
2026-03-18T1900,4239A,102.193042,38.531887,金昌市,长春路96号,颗粒物(PM10),133,204,135,50,34,93,93,88,88,4,7,6,30,0.2,0.4
2026-03-18T1900,1262A,119.6478,29.0773,金华市,十五中,,12,9,79,3,49,38,38,81,65,24,39,3,5,0.8,0.8
2026-03-18T1900,1263A,119.6859,29.1032,金华市,监测站,,16,9,74,3,46,26,26,60,53,32,52,4,9,0.9,0.8
2026-03-18T1900,3659A,119.656,29.1132,金华市,气象局,,16,8,78,3,50,23,23,66,53,32,50,2,4,0.8,0.7
2026-03-18T1900,1767A,121.1114,41.0879,锦州市,南山,,25,23,39,12,30,77,77,89,88,22,15,7,8,0.3,0.5
2026-03-18T1900,1768A,121.060361,40.842794,锦州市,开发区,,29,29,40,9,31,80,80,81,81,20,17,4,6,0.6,0.7
2026-03-18T1900,1769A,121.1836,41.1118,锦州市,百股街道,NA,NA,NA,43,14,33,NA,NA,90,90,14,15,6,8,NA,0.8
2026-03-18T1900,1770A,121.1176,41.1224,锦州市,天安街道,,35,35,40,14,29,77,77,88,87,23,16,6,6,0.5,0.6
2026-03-18T1900,1771A,121.1303,41.1385,锦州市,北湖公园,,26,22,40,15,31,81,81,92,91,20,13,7,7,0.4,0.5
2026-03-18T1900,2160A,112.8496,35.5051,晋城市,自来水公司,NA,NA,NA,89,NA,24,NA,NA,80,80,14,15,6,9,0.3,0.5
2026-03-18T1900,2162A,112.8509,35.4886,晋城市,市环保局,颗粒物(PM10),74,83,82,19,28,77,77,81,81,14,13,6,5,0.4,0.6
2026-03-18T1900,3620A,112.8258,35.4804,晋城市,泽州一中,颗粒物(PM10),70,77,87,26,31,78,78,82,82,13,13,4,4,0.4,0.6
2026-03-18T1900,4078A,112.8246,35.5152,晋城市,前书院路,颗粒物(PM10),75,84,85,24,24,74,74,77,77,14,15,6,5,0.4,0.5
2026-03-18T1900,4079A,112.8864,35.4773,晋城市,祥云街666号,颗粒物(PM10),70,77,79,22,34,79,79,80,80,13,15,7,6,0.2,0.5
2026-03-18T1900,2174A,112.6992,37.6984,晋中市,榆次区政府,,29,29,75,15,19,91,91,88,88,20,18,8,9,0.3,0.3
2026-03-18T1900,2865A,112.7195,37.683,晋中市,榆次三中,NA,NA,31,76,14,16,NA,NA,92,92,11,12,9,10,0.4,0.2
2026-03-18T1900,4080A,112.7375,37.7215,晋中市,广安街188号,,40,40,63,20,17,91,91,90,90,11,12,9,10,0.5,0.3
2026-03-18T1900,4200A,112.7478,37.6954,晋中市,迎宾街26号,,41,41,72,16,18,93,93,92,92,15,14,10,9,0.5,0.5
2026-03-18T1900,2439A,112.2012,31.048,荆门市,竹园小学,颗粒物(PM10),77,87,46,32,25,86,86,84,84,22,20,2,1,0.3,0.6
2026-03-18T1900,2440A,112.1968,30.9892,荆门市,掇刀,颗粒物(PM10),73,81,46,33,27,96,96,94,94,13,14,2,6,0,0.7
2026-03-18T1900,3012A,112.1849,31.0361,荆门市,西山林语,颗粒物(PM10),65,71,41,29,23,88,88,84,84,18,15,5,4,0.6,0.8
2026-03-18T1900,3547A,112.1631,31.0134,荆门市,龙泉中学南校,颗粒物(PM10),78,89,45,28,26,97,97,92,92,15,14,5,4,0.4,0.7
2026-03-18T1900,4124A,112.2213,31.0654,荆门市,新台西路6号,颗粒物(PM10),86,100,51,35,32,80,80,80,80,22,13,6,5,0.4,0.6
2026-03-18T1900,1844A,112.2493,30.3198,荆州市,市图书馆,NA,NA,NA,25,NA,25,NA,NA,76,76,NA,16,NA,5,NA,1
2026-03-18T1900,1845A,112.2009,30.3543,荆州市,市委党校,,49,49,38,21,32,73,73,72,72,31,24,7,7,0.7,0.8
2026-03-18T1900,3194A,112.2749,30.3124,荆州市,管委会,细颗粒物(PM2.5),58,47,30,39,29,82,82,78,78,20,18,12,9,0.7,0.7
2026-03-18T1900,4268A,112.1722,30.3366,荆州市,学苑路85号,颗粒物(PM10),54,55,41,31,30,88,88,88,88,15,11,1,1,0.9,1
2026-03-18T1900,2343A,117.2114,29.2931,景德镇市,老干部活动中心,,15,12,20,10,21,35,35,28,25,11,13,4,5,0.9,1
2026-03-18T1900,2344A,117.1893,29.2789,景德镇市,兽医站,,18,13,28,12,18,39,39,28,28,16,16,4,4,0.8,0.8
2026-03-18T1900,2346A,117.246,29.2958,景德镇市,陶研所,,12,NA,20,8,18,38,38,29,28,23,23,3,4,1.0,1
2026-03-18T1900,4289A,117.154766,29.256967,景德镇市,青少年活动中心,,12,12,23,7,23,31,31,22,22,20,19,5,10,/,/
2026-03-18T1900,1803A,115.9873,29.6816,九江市,十里,,19,19,22,8,10,36,36,39,39,31,31,7,8,1.0,1.2
2026-03-18T1900,1804A,115.9583,29.7047,九江市,茅山头,NA,NA,34,20,10,11,NA,NA,37,37,23,29,5,4,0.7,0.8
2026-03-18T1900,1805A,115.9877,29.7295,九江市,西园,,21,21,21,11,11,44,44,38,38,29,35,4,5,0.9,1
2026-03-18T1900,1808A,115.9112,29.6038,九江市,综合工业园,,14,10,13,8,9,41,41,33,33,28,31,7,7,0.8,1
2026-03-18T1900,3190A,116.0254,29.6995,九江市,外国语学校,,15,15,15,10,10,32,32,32,32,28,26,3,4,0.9,1
2026-03-18T1900,4253A,116.010205,29.659402,九江市,莲花大道8号,,16,16,17,7,10,44,44,39,39,22,37,3,4,0.6,0.8
2026-03-18T1900,4240A,98.495752,39.733935,酒泉市,玉门东路5号,颗粒物(PM10),152,254,123,56,27,84,84,83,83,4,6,6,6,0.3,0.3
2026-03-18T1900,4241A,98.5099,39.7506,酒泉市,北大街108号,颗粒物(PM10),148,244,127,65,31,84,84,83,83,6,6,6,7,0.4,0.3
2026-03-18T1900,2698A,76.0071,39.466,喀什地区,巡警大队,颗粒物(PM10),119,167,222,74,80,88,88,79,79,4,14,4,3,0.3,0.4
2026-03-18T1900,2699A,75.9756,39.4693,喀什地区,吾办,颗粒物(PM10),119,167,219,68,80,84,84,77,77,2,9,9,8,0.3,0.4
2026-03-18T1900,4027A,75.9485,39.4688,喀什地区,老干局,颗粒物(PM10),114,155,226,59,77,87,87,79,79,3,12,2,2,0.4,0.5
2026-03-18T1900,1824A,114.3389,34.778,开封市,肿瘤医院,颗粒物(PM10),59,62,71,37,66,77,77,84,84,21,30,7,7,0.5,0.8
2026-03-18T1900,1826A,114.2884,34.7966,开封市,世纪星幼儿园,NA,NA,93,64,23,57,NA,NA,80,80,15,26,8,8,0.6,0.8
2026-03-18T1900,3147A,114.3434,34.8101,开封市,龙亭公园,颗粒物(PM10),51,51,73,24,56,73,73,81,81,23,27,8,8,0.5,0.8
2026-03-18T1900,3210A,114.3645,34.7955,开封市,汴京公园,,50,50,69,25,63,73,73,82,82,20,25,4,4,0.4,0.7
2026-03-18T1900,3473A,114.2485,34.8306,开封市,技师学院,,38,38,58,11,57,72,72,79,79,17,21,5,6,0.6,0.9
2026-03-18T1900,3592A,114.4518,34.7503,开封市,祥符区生态环境局,,46,46,75,30,63,69,69,78,78,23,28,6,8,0.7,0.7
2026-03-18T1900,1951A,84.886,45.6029,克拉玛依市,长征新村,,35,35,28,3,8,84,84,75,73,9,15,6,6,0.3,0.4
2026-03-18T1900,1952A,84.8894,45.5827,克拉玛依市,南林小区,,35,35,32,3,4,90,90,78,78,1,9,4,4,0.1,0.5
2026-03-18T1900,1954A,84.896,44.3328,克拉玛依市,独山子区,颗粒物(PM10),61,65,79,27,31,113,113,110,110,7,13,5,5,0.6,0.7
2026-03-18T1900,1955A,85.6888,46.0909,克拉玛依市,乌尔禾区商贸楼,,50,50,41,22,16,82,82,71,71,8,13,9,9,0.6,0.6
2026-03-18T1900,3612A,85.1045,45.6895,克拉玛依市,白碱滩区新站,,28,27,25,9,9,89,89,80,80,4,10,13,11,0.4,0.4
2026-03-18T1900,2697A,76.1457,39.7143,克孜勒苏柯尔克孜自治州,市人民政府,颗粒物(PM10),125,184,172,68,56,88,88,76,76,7,12,3,3,0.2,0.2
2026-03-18T1900,3665A,76.1654,39.7157,克孜勒苏柯尔克孜自治州,克州文化中心,颗粒物(PM10),124,181,186,70,62,89,89,77,77,5,8,5,5,0.2,0.3
2026-03-18T1900,1450A,102.8203,24.889,昆明市,呈贡新区,,32,24,25,21,17,102,102,112,111,6,12,2,4,0.4,0.5
2026-03-18T1900,1452A,102.7253,25.0904,昆明市,龙泉镇,NA,NA,38,33,24,18,NA,NA,100,100,9,27,4,4,0.4,0.5
2026-03-18T1900,1453A,102.7267,25.0378,昆明市,东风东路,,32,32,29,21,19,97,97,107,106,12,15,2,5,0.2,0.4
2026-03-18T1900,1454A,102.6744,25.0671,昆明市,金鼎山,,43,43,36,19,17,97,97,105,104,11,17,2,4,0.4,0.5
2026-03-18T1900,1455A,102.6643,25.0401,昆明市,碧鸡广场,,38,30,29,26,20,97,97,104,104,11,21,4,7,0.3,0.4
2026-03-18T1900,3179A,102.7491,25.012,昆明市,官渡区博物馆,,34,34,33,17,17,94,94,106,104,11,18,3,5,0.3,0.5
2026-03-18T1900,3375A,102.8016,24.8336,昆明市,青年创业园,,31,26,22,15,16,99,99,109,108,2,9,4,6,0.3,0.4
2026-03-18T1900,3550A,102.8,24.9787,昆明市,昆明学院,,31,29,28,20,16,97,97,110,109,10,15,4,5,0.4,0.5
2026-03-18T1900,3551A,102.5969,24.6738,昆明市,晋宁区生态环境分局,,38,29,28,26,20,101,101,108,107,6,9,1,2,0.3,0.4
2026-03-18T1900,3552A,102.6673,24.9861,昆明市,云天化总部,,31,28,28,14,15,99,99,105,105,7,18,7,10,0.3,0.4
2026-03-18T1900,1456A,91.132,29.6515,拉萨市,八廓街,,33,13,34,6,14,105,105,107,107,12,13,5,5,0.3,0.4
2026-03-18T1900,1457A,91.1221,29.6748,拉萨市,市环保局,,33,13,32,3,12,105,105,104,104,7,16,3,3,0.3,0.5
2026-03-18T1900,1458A,91.0874,29.6476,拉萨市,区监测站,NA,NA,17,23,3,9,NA,NA,101,101,15,20,4,4,0.2,0.5
2026-03-18T1900,1459A,91.1774,29.6541,拉萨市,西藏大学,NA,NA,15,35,6,10,NA,NA,107,107,13,14,4,5,0.2,0.5
2026-03-18T1900,1460A,90.9798,29.6586,拉萨市,区辐射站,,32,8,23,8,11,100,100,98,98,9,19,4,5,0.3,0.4
2026-03-18T1900,1461A,91.0831,29.6292,拉萨市,拉萨火车站,,31,7,24,6,10,98,98,102,102,11,15,3,4,0.4,0.5
2026-03-18T1900,2520A,109.2203,23.7252,来宾市,来宾技工学校,,44,44,57,19,32,52,52,76,76,14,11,8,18,0.9,0.7
2026-03-18T1900,3535A,109.1781,23.7293,来宾市,兴宾区政府,颗粒物(PM10),55,57,48,14,23,55,55,81,80,11,13,9,8,0.8,0.5
2026-03-18T1900,4002A,109.2312,23.7428,来宾市,中南小学,颗粒物(PM10),56,58,57,18,29,53,53,81,80,14,13,12,11,0.9,0.6
2026-03-18T1900,1479A,103.8309,36.0467,兰州市,铁路设计院,NA,NA,NA,NA,NA,NA,NA,NA,NA,NA,NA,NA,NA,NA,NA,NA
2026-03-18T1900,3241A,103.7439,36.0841,兰州市,百合公园,颗粒物(PM10),73,81,104,41,38,93,93,87,83,13,9,2,5,0.2,0.3
2026-03-18T1900,3242A,103.9613,35.9985,兰州市,和平,颗粒物(PM10),103,127,158,31,36,104,104,98,98,7,8,9,10,0.4,0.4
2026-03-18T1900,4236A,103.629272,36.093822,兰州市,庄浪东路808号,颗粒物(PM10),93,109,115,43,39,94,94,86,86,12,10,7,7,0.4,0.4
2026-03-18T1900,4237A,103.7251,36.104344,兰州市,安宁西路88号,颗粒物(PM10),89,104,130,47,39,106,106,95,95,8,6,6,7,0.4,0.3
2026-03-18T1900,4238A,103.846982,36.067567,兰州市,北滨河东路1号,颗粒物(PM10),78,88,112,34,37,99,99,91,91,18,15,6,7,0.5,0.5
2026-03-18T1900,1067A,116.6712,39.5109,廊坊市,药材公司,,33,33,67,16,42,78,78,90,89,12,16,3,3,0.5,0.6
2026-03-18T1900,1068A,116.7215,39.5592,廊坊市,开发区,NA,NA,13,65,6,41,85,85,93,92,NA,16,NA,2,0.3,0.4
2026-03-18T1900,1070A,116.7246,39.5273,廊坊市,北华航天学院,,33,33,76,7,42,82,82,93,91,12,14,3,2,0.3,0.4
2026-03-18T1900,2919A,116.7022,39.5454,廊坊市,河北工业大学,,28,28,69,9,42,86,86,92,92,7,11,2,2,0.3,0.4
2026-03-18T1900,2536A,103.7629,29.5844,乐山市,牛耳桥,,43,43,24,14,9,74,74,69,69,21,20,6,6,0.4,0.6
2026-03-18T1900,2537A,103.7501,29.6002,乐山市,市第三水厂,,47,47,24,13,8,76,76,75,75,23,21,4,4,0.4,0.5
2026-03-18T1900,2538A,103.7571,29.5664,乐山市,市监测站,,44,44,24,8,7,75,75,68,68,14,17,4,4,0.4,0.6
2026-03-18T1900,3361A,103.7313,29.563,乐山市,理工大学,,44,44,23,13,8,74,74,70,70,16,16,6,6,0.5,0.6
2026-03-18T1900,2599A,100.2497,26.8802,丽江市,丽江古城,,35,22,27,10,12,112,112,104,104,11,11,13,13,0.1,0.1
2026-03-18T1900,2600A,100.2203,26.8906,丽江市,市中心,NA,NA,8,17,3,11,NA,NA,103,103,NA,12,8,8,0.5,0.3
2026-03-18T1900,1267A,119.9141,28.4513,丽水市,监测站大楼,颗粒物(PM10),75,84,36,42,23,62,62,126,119,26,16,4,5,0.7,0.5
2026-03-18T1900,1268A,119.93,28.4589,丽水市,莲都小学,颗粒物(PM10),70,77,43,35,22,55,55,123,118,24,20,/,/,/,/
2026-03-18T1900,1269A,119.8794,28.4232,丽水市,余庄前,颗粒物(PM10),77,87,42,46,25,72,72,116,115,28,18,4,4,0.7,0.4
2026-03-18T1900,1173A,119.1759,34.5885,连云港市,市环境监测站,细颗粒物(PM2.5),58,53,52,39,47,74,74,90,67,23,21,9,8,0.6,0.5
2026-03-18T1900,3000A,119.3577,34.6971,连云港市,德源药业,NA,NA,NA,55,NA,41,NA,NA,103,70,18,20,7,9,0.5,0.7
2026-03-18T1900,3007A,119.178,34.8442,连云港市,新城一中,,49,49,53,15,47,48,48,88,65,45,22,8,8,0.4,0.7
2026-03-18T1900,3008A,119.3607,34.7519,连云港市,胡沟管理处,,34,34,45,9,36,84,84,107,72,15,15,6,5,0.6,0.7
2026-03-18T1900,3009A,119.1478,34.5913,连云港市,矿山设计院,颗粒物(PM10),55,56,56,29,43,75,75,90,72,29,28,9,8,0.8,0.8
2026-03-18T1900,3434A,119.2414,34.6539,连云港市,工贸学校,,35,30,52,24,44,80,80,96,71,21,20,10,9,0.7,0.8
2026-03-18T1900,3664A,119.4171,34.734,连云港市,连云街道,,30,30,53,20,44,55,55,108,59,45,29,8,6,0.5,0.6
2026-03-18T1900,2573A,102.2629,27.8981,凉山彝族自治州,西昌市政府,,35,20,29,10,10,112,112,103,103,6,9,9,12,0.4,0.8
2026-03-18T1900,2574A,102.2686,27.885,凉山彝族自治州,凉山州政府,,31,29,22,12,10,98,98,93,93,6,9,5,8,0.4,0.6
2026-03-18T1900,4229A,102.2342,27.8859,凉山彝族自治州,凯乐南路30号,,33,29,22,11,9,104,104,98,98,8,11,10,10,0.6,0.7
2026-03-18T1900,2212A,123.1978,41.2036,辽阳市,宏伟区,,39,39,54,14,35,86,86,90,90,15,13,7,8,0.4,0.5
2026-03-18T1900,2213A,123.1684,41.2497,辽阳市,新华园,,30,30,53,12,35,85,85,89,89,21,17,5,8,0.4,0.5
2026-03-18T1900,2214A,123.2355,41.2663,辽阳市,滨河路,,36,36,50,14,35,57,57,84,81,37,17,6,7,0.4,0.5
2026-03-18T1900,4083A,123.153,41.2874,辽阳市,铁西路150号,,39,39,57,26,36,78,78,83,83,18,15,9,10,0.6,0.7
2026-03-18T1900,2227A,125.1359,42.8845,辽源市,环保局,,44,44,75,14,25,84,84,89,89,8,8,6,6,0.3,0.4
2026-03-18T1900,4085A,125.0998,42.9134,辽源市,安宁大街333号,,27,27,79,10,28,76,76,86,85,16,10,5,5,0.4,0.5
2026-03-18T1900,1625A,115.9789,36.4372,聊城市,区政府,,34,34,64,10,46,69,69,77,77,15,16,8,10,0.5,0.6
2026-03-18T1900,3200A,115.9772,36.4986,聊城市,监控中心,,40,40,67,15,47,74,74,85,85,18,17,10,10,0.6,0.7
2026-03-18T1900,3513A,116.0443,36.436,聊城市,九州社区,,38,38,66,9,47,78,78,88,88,20,17,1,2,0.5,0.7
2026-03-18T1900,4018A,116.0564,36.4609,聊城市,星美广场,,49,49,76,12,48,71,71,79,79,13,10,2,5,0.4,0.6
2026-03-18T1900,4113A,116.0091,36.4495,聊城市,利民路,,32,32,68,9,45,74,74,85,84,19,15,7,8,0.6,0.7
2026-03-18T1900,2632A,94.3683,29.6373,林芝市,林芝监测站,,31,NA,6,15,6,99,99,98,98,3,2,5,5,0.5,0.5
2026-03-18T1900,2633A,94.3616,29.6634,林芝市,林芝人民医院,,34,15,10,8,5,106,106,104,104,2,3,6,6,0.4,0.4
2026-03-18T1900,2603A,100.0779,23.8981,临沧市,市环保局,颗粒物(PM10),56,58,33,37,23,95,95,103,103,12,7,7,5,0.5,0.6
2026-03-18T1900,2604A,100.0894,23.882,临沧市,市气象局,,49,44,32,34,25,110,110,111,111,8,7,7,7,0.8,0.9
2026-03-18T1900,1733A,111.5552,36.0791,临汾市,临钢医院,颗粒物(PM10),83,96,96,22,40,85,85,92,92,20,21,8,8,0.6,1
2026-03-18T1900,1734A,111.4984,36.0734,临汾市,技工学校,颗粒物(PM10),80,92,107,27,50,84,84,90,90,14,20,9,8,0.6,0.9
2026-03-18T1900,1736A,111.5017,36.0857,临汾市,市委,颗粒物(PM10),79,90,103,14,40,87,87,94,94,18,19,7,5,0.6,1
2026-03-18T1900,3018A,111.5048,36.1015,临汾市,唐尧大酒店,颗粒物(PM10),85,99,106,20,41,87,87,92,92,21,23,10,8,0.6,1
2026-03-18T1900,4244A,111.4879,36.053,临汾市,启星学校,颗粒物(PM10),77,87,95,25,43,82,82,90,90,24,23,8,5,0.4,0.9
2026-03-18T1900,4271A,103.2464,35.6123,临夏回族自治州,滨河东路1号,颗粒物(PM10),65,70,87,25,33,93,93,101,101,10,15,8,7,0.3,0.5
2026-03-18T1900,4310A,103.207136,35.599807,临夏回族自治州,新华街21号,颗粒物(PM10),60,64,87,28,38,87,87,84,84,5,9,7,6,0.7,0.7
2026-03-18T1900,1618A,118.3429,35.0532,临沂市,沂河小区,,39,39,42,8,44,69,69,72,72,15,18,9,9,0.3,0.5
2026-03-18T1900,1619A,118.2962,35.0568,临沂市,鲁南制药厂,,27,27,63,9,48,71,71,75,75,19,26,9,10,0.2,0.6
2026-03-18T1900,1620A,118.2793,34.9976,临沂市,新光毛纺厂,,27,27,57,9,53,69,69,72,72,18,22,7,8,0.3,0.6
2026-03-18T1900,1621A,118.3955,35.0889,临沂市,河东保险公司,,34,34,61,9,45,72,72,76,76,26,26,7,8,0.3,0.6
2026-03-18T1900,3370A,118.3563,35.0215,临沂市,十里堡居委,,34,34,53,8,44,71,71,76,76,23,25,7,8,0.3,0.6
2026-03-18T1900,3496A,118.359,35.1067,临沂市,南坊新区,NA,NA,NA,60,NA,51,73,73,78,78,19,24,7,9,0.1,0.7
2026-03-18T1900,3860A,118.3915,35.0297,临沂市,皇山花园小区,,36,36,53,9,42,74,74,78,75,20,23,9,10,0.3,0.6
2026-03-18T1900,1870A,109.4854,24.3898,柳州市,柳东小学,,25,22,47,17,30,46,46,66,50,12,11,4,6,0.8,0.5
2026-03-18T1900,1871A,109.4109,24.3304,柳州市,环保监测站,,16,16,62,10,34,45,45,55,46,11,21,4,6,1.0,0.9
2026-03-18T1900,1872A,109.3886,24.3408,柳州市,河西水厂,,22,22,64,13,38,42,42,54,44,17,25,12,11,1.2,1.1
2026-03-18T1900,1873A,109.4263,24.2951,柳州市,市四中,NA,NA,NA,65,NA,41,46,46,52,48,NA,28,7,9,0.9,0.3
2026-03-18T1900,1874A,109.396,24.3658,柳州市,市九中,,29,29,60,17,36,41,41,49,41,12,20,9,10,1.0,0.9
2026-03-18T1900,1875A,109.4912,24.3164,柳州市,古亭山,颗粒物(PM10),51,51,55,11,29,46,46,61,52,8,15,6,7,0.8,0.6
2026-03-18T1900,3402A,109.5422,24.3994,柳州市,市二中,,23,NA,47,16,31,40,40,60,45,10,19,6,8,0.9,0.7
2026-03-18T1900,2307A,116.5078,31.7369,六安市,监测大楼,细颗粒物(PM2.5),60,48,28,40,24,72,72,64,64,22,18,3,4,0.5,0.6
2026-03-18T1900,2308A,116.4738,31.7642,六安市,皖西学院,,48,42,28,33,21,84,84,72,72,17,16,4,4,0.5,0.6
2026-03-18T1900,2309A,116.4997,31.7904,六安市,朝阳厂,细颗粒物(PM2.5),72,55,28,46,30,74,74,70,70,28,20,4,4,0.6,0.6
2026-03-18T1900,2310A,116.5566,31.7885,六安市,开发区,细颗粒物(PM2.5),64,NA,19,42,24,82,82,69,69,14,14,4,4,0.5,0.6
2026-03-18T1900,2577A,104.8293,26.592,六盘水市,黄土坡,,46,46,27,28,15,67,67,63,63,22,13,8,7,0.6,0.6
2026-03-18T1900,2579A,104.8481,26.5898,六盘水市,民中,,37,37,27,25,16,72,72,63,63,13,10,6,4,0.6,0.6
2026-03-18T1900,2580A,104.9541,26.5506,六盘水市,双水,,48,48,27,22,14,71,71,69,69,14,10,5,4,0.3,0.3
2026-03-18T1900,4151A,104.8899,26.5685,六盘水市,钟山大道中段564号,,42,42,28,26,14,71,71,68,68,12,9,10,7,0.6,0.6
2026-03-18T1900,2336A,117.022,25.1031,龙岩市,龙岩市监测站,,30,NA,28,21,18,91,91,94,94,11,12,4,6,0.6,0.5
2026-03-18T1900,2337A,117.0257,25.0662,龙岩市,闽西职业技术学院,,35,NA,34,24,17,78,78,89,89,12,10,5,6,0.5,0.4
2026-03-18T1900,2338A,117.0195,25.0306,龙岩市,龙岩学院,细颗粒物(PM2.5),80,54,26,50,18,78,78,90,89,13,8,5,4,/,/
2026-03-18T1900,2885A,104.9344,33.3827,陇南市,滨江中学,颗粒物(PM10),69,76,66,25,22,92,92,90,90,5,8,6,6,0.6,0.6
2026-03-18T1900,3247A,104.9551,33.3709,陇南市,市总工会,颗粒物(PM10),78,88,63,23,19,82,82,88,88,12,7,5,5,0.5,0.5
2026-03-18T1900,2488A,111.9984,27.7346,娄底市,市监测站,,31,31,14,18,6,74,74,69,69,9,11,4,6,0.5,0.8
2026-03-18T1900,2491A,111.9888,27.7035,娄底市,市政府,,29,29,14,16,7,61,61,63,63,14,10,4,4,0.5,0.5
2026-03-18T1900,4127A,111.9812,27.7591,娄底市,涟钢职大,,39,39,12,25,7,77,77,74,74,12,10,1,1,0.4,1.1
2026-03-18T1900,4128A,112.0303,27.7457,娄底市,娄底体校,,30,30,17,14,5,66,66,65,65,7,7,2,2,0.4,0.5
2026-03-18T1900,1894A,105.4427,28.9063,泸州市,小市上码头,,22,15,25,8,19,69,69,72,72,27,18,6,7,0.6,0.7
2026-03-18T1900,1895A,105.4241,28.8573,泸州市,兰田宪桥,,21,16,26,6,15,67,67,67,67,14,14,4,5,0.7,0.7
2026-03-18T1900,1896A,105.4378,28.8833,泸州市,市环监站,,22,14,25,8,16,68,68,71,71,34,21,4,5,0.5,0.5
2026-03-18T1900,4272A,105.3689,28.7783,泸州市,纳溪中医医院,,24,24,28,7,17,74,74,70,70,17,15,6,6,0.6,0.7
2026-03-18T1900,2183A,111.1447,37.5212,吕梁市,环保局,,27,26,84,17,18,85,85,85,85,15,13,5,6,0.2,0.2
2026-03-18T1900,2185A,111.1285,37.5338,吕梁市,自来水公司,,27,25,80,15,17,86,86,87,87,14,11,4,5,0.3,0.3
2026-03-18T1900,2867A,111.1225,37.5093,吕梁市,马茂庄小学,,30,30,95,14,14,84,84,84,84,12,12,2,3,0.2,0.3
2026-03-18T1900,1812A,112.3934,34.6517,洛阳市,市委党校,颗粒物(PM10),76,86,86,40,38,68,68,73,73,22,17,8,8,0.6,0.7
2026-03-18T1900,1815A,112.494,34.6883,洛阳市,河南林校,颗粒物(PM10),75,85,87,26,39,65,65,76,76,29,25,10,11,0.5,0.7
2026-03-18T1900,1816A,112.3843,34.623,洛阳市,开发区管委会,颗粒物(PM10),89,104,91,40,35,69,69,79,79,25,17,10,10,0.4,0.5
2026-03-18T1900,1817A,112.4263,34.6249,洛阳市,市委新办公区,颗粒物(PM10),83,96,88,33,38,69,69,82,79,26,17,8,8,0.5,0.6
2026-03-18T1900,3340A,112.6005,34.6323,洛阳市,伊滨,颗粒物(PM10),83,95,80,39,37,64,64,75,75,27,17,7,7,0.5,0.6
2026-03-18T1900,3341A,112.495,34.6338,洛阳市,中移产业园,颗粒物(PM10),79,90,84,32,37,63,63,75,75,24,20,9,9,0.3,0.5
2026-03-18T1900,3593A,112.5736,34.8993,洛阳市,吉利监测站,颗粒物(PM10),81,93,81,27,38,74,74,77,77,24,31,8,8,0.4,0.6
2026-03-18T1900,3635A,112.3678,34.6623,洛阳市,河科大西苑校区,颗粒物(PM10),79,90,91,29,36,73,73,80,80,26,20,8,10,0.6,0.7
2026-03-18T1900,3636A,112.4387,34.678,洛阳市,英才小学,颗粒物(PM10),77,87,94,24,36,66,66,75,75,28,26,9,11,0.5,0.7
2026-03-18T1900,4214A,112.460027,34.694929,洛阳市,春都路1号院,颗粒物(PM10),87,101,102,27,37,67,67,73,73,21,21,8,9,0.6,0.8
2026-03-18T1900,2399A,114.051,33.5721,漯河市,三五一五工厂,细颗粒物(PM2.5),64,66,95,42,69,86,86,91,91,14,18,4,4,0.4,0.6
2026-03-18T1900,2400A,114.0055,33.5698,漯河市,漯河大学,颗粒物(PM10),61,65,82,37,68,91,91,94,94,11,18,5,5,0.4,0.6
2026-03-18T1900,2401A,114.0134,33.5826,漯河市,市水利局,颗粒物(PM10),62,66,76,32,60,82,82,89,88,14,18,5,5,0.4,0.6
2026-03-18T1900,2402A,114.0261,33.5697,漯河市,市广电局,颗粒物(PM10),60,63,82,34,65,80,80,83,83,13,18,5,5,0.4,0.6
2026-03-18T1900,3478A,113.9691,33.568,漯河市,市图书馆,颗粒物(PM10),68,74,95,29,62,85,85,88,88,14,18,5,6,0.2,0.6
2026-03-18T1900,4250A,114.089259,33.588274,漯河市,韶山路11号,颗粒物(PM10),57,59,87,31,64,70,70,82,82,18,16,7,7,0.5,0.7
2026-03-18T1900,1798A,118.5084,31.6838,马鞍山市,湖东路四小,细颗粒物(PM2.5),54,39,28,37,25,66,66,62,62,26,28,6,10,0.6,0.9
2026-03-18T1900,1799A,118.5019,31.6449,马鞍山市,开发区,细颗粒物(PM2.5),56,41,26,38,22,72,72,65,65,26,31,4,6,0.6,0.8
2026-03-18T1900,3633A,118.4914,31.681,马鞍山市,雨山,,47,47,30,26,20,64,64,57,57,28,34,12,13,0.7,1.1
2026-03-18T1900,4191A,118.527362,31.722269,马鞍山市,慈湖高新区,颗粒物(PM10),51,51,37,34,26,58,58,62,61,33,33,5,6,0.6,0.7
2026-03-18T1900,1686A,111.0285,21.469,茂名市,电白南海,,36,36,33,13,12,71,71,74,74,12,10,5,5,0.7,0.7
2026-03-18T1900,1687A,110.9294,21.6533,茂名市,茂石化七小,,41,41,34,19,16,56,56,72,72,22,14,6,8,0.6,0.4
2026-03-18T1900,1688A,110.9108,21.6688,茂名市,健康路,,34,34,28,16,14,62,62,78,78,17,12,6,6,0.6,0.5
2026-03-18T1900,1689A,110.8592,21.6826,茂名市,高岭,,41,41,38,21,14,65,65,75,75,13,13,3,6,/,/
2026-03-18T1900,3450A,111.0101,21.5165,茂名市,电白水东,,22,22,25,12,12,69,69,71,71,10,11,3,4,/,/
2026-03-18T1900,2540A,103.8414,30.0871,眉山市,气象局,颗粒物(PM10),53,54,39,6,9,89,89,91,91,11,17,7,7,0.4,0.5
2026-03-18T1900,3148A,103.829,30.0563,眉山市,区人社局,颗粒物(PM10),53,53,41,12,11,84,84,83,83,17,21,8,9,0.5,0.6
2026-03-18T1900,4148A,103.8836,30.0695,眉山市,眉职院,,42,42,29,9,9,86,86,86,86,16,19,7,6,0.5,0.7
2026-03-18T1900,1690A,116.1248,24.3307,梅州市,梅江月梅,,45,35,39,31,25,90,90,101,101,15,18,/,/,/,/
2026-03-18T1900,1691A,116.0798,24.2719,梅州市,梅县新城,,41,41,45,25,26,88,88,89,89,17,24,9,9,0.6,0.6
2026-03-18T1900,3315A,116.1234,24.2994,梅州市,梅龙,,46,46,39,25,24,83,83,90,90,15,15,6,9,0.7,0.6
2026-03-18T1900,1878A,104.7775,31.4741,绵阳市,富乐山,NA,NA,NA,32,NA,14,89,89,88,88,NA,14,7,6,0.5,0.6
2026-03-18T1900,1880A,104.6698,31.4668,绵阳市,高新区自来水公司,颗粒物(PM10),61,65,44,22,16,87,87,90,90,16,23,9,10,0.5,0.6
2026-03-18T1900,3491A,104.6899,31.5324,绵阳市,西科大附属小学,颗粒物(PM10),62,66,39,24,18,85,85,91,91,13,28,9,8,0.3,0.4
2026-03-18T1900,3492A,104.5647,31.5343,绵阳市,安州区旅游局,颗粒物(PM10),68,74,42,21,15,80,80,85,85,12,15,5,7,0.4,0.5
2026-03-18T1900,4146A,104.7092,31.4972,绵阳市,科技城新区公安局,颗粒物(PM10),60,64,38,19,13,84,84,85,85,16,17,10,10,0.5,0.5
2026-03-18T1900,4226A,104.765114,31.453094,绵阳市,绵阳市气象局,颗粒物(PM10),61,65,40,24,16,82,82,79,79,20,23,8,8,0.4,0.4
2026-03-18T1900,1784A,129.61,44.561,牡丹江市,环保大楼,细颗粒物(PM2.5),54,51,239,37,195,88,88,76,76,16,45,3,6,0.4,1.4
2026-03-18T1900,1787A,129.6364,44.6075,牡丹江市,机车工厂,颗粒物(PM10),55,56,191,37,145,82,82,74,74,12,45,4,8,0.5,1.1
2026-03-18T1900,1788A,129.6386,44.5462,牡丹江市,第一中学,NA,NA,51,151,37,138,NA,NA,73,73,15,38,3,6,0.3,0.9
2026-03-18T1900,4287A,129.5992,44.5964,牡丹江市,东晓云街98号,,46,46,212,29,174,84,84,78,78,12,32,2,8,0.5,1.2
2026-03-18T1900,2531A,105.0703,29.61,内江市,市监测站,,39,39,26,12,7,93,93,96,96,12,10,6,6,0.4,0.5
2026-03-18T1900,2533A,105.0657,29.5807,内江市,内江二中,颗粒物(PM10),56,58,32,12,8,91,91,94,94,18,17,7,7,0.3,0.4
2026-03-18T1900,2534A,105.0407,29.5828,内江市,内江日报社,NA,NA,NA,29,NA,8,NA,NA,98,98,NA,12,6,9,NA,0.4
2026-03-18T1900,4147A,105.0433,29.6105,内江市,玉峰路西段888号,,41,41,26,11,9,102,102,101,101,12,14,6,6,0.2,0.3
2026-03-18T1900,2628A,92.0653,31.4846,那曲市,那曲监测站,,33,30,29,10,22,105,105,100,100,5,14,6,7,0.6,0.8
2026-03-18T1900,4243A,92.0515,31.4787,那曲市,那曲市委宣传部,,35,20,21,3,14,109,109,108,108,3,9,3,4,0.4,0.6
2026-03-18T1900,1291A,115.8887,28.7006,南昌市,省林业公司,,15,6,7,3,6,45,45,47,47,13,16,3,3,0.8,0.9
2026-03-18T1900,1292A,115.813,28.7443,南昌市,林科所,NA,NA,NA,7,NA,4,NA,NA,57,57,10,15,7,7,0.4,1
2026-03-18T1900,1294A,115.8518,28.687,南昌市,建工学校,,15,12,23,3,6,47,47,47,47,24,23,8,8,0.8,0.8
2026-03-18T1900,1295A,115.8926,28.6425,南昌市,象湖,,15,NA,9,7,7,48,48,46,46,16,16,7,7,0.8,0.9
2026-03-18T1900,3046A,115.9084,28.6062,南昌市,机电学校,,16,16,18,3,8,49,49,48,48,16,16,4,4,0.6,0.7
2026-03-18T1900,3690A,115.9718,28.7032,南昌市,外国语学校,,15,10,11,3,9,45,45,38,38,16,19,7,7,0.7,0.8
2026-03-18T1900,4106A,115.7923,28.6873,南昌市,工业二路,,20,19,17,3,6,62,62,60,60,16,18,3,4,0.8,0.8
2026-03-18T1900,4192A,115.931587,28.686774,南昌市,南京东路235号,,14,8,19,3,7,44,44,45,45,11,11,4,4,0.7,0.7
2026-03-18T1900,1906A,106.0791,30.8022,南充市,南充市委,,25,25,21,11,11,61,61,71,70,15,17,6,6,0.4,0.5
2026-03-18T1900,1907A,106.1038,30.8215,南充市,南充炼油厂,,30,30,29,8,9,60,60,66,66,12,14,5,4,0.4,0.4
2026-03-18T1900,4227A,106.108336,30.788436,南充市,梨树横街98号,,26,26,21,10,10,66,66,74,74,12,16,6,5,0.3,0.3
2026-03-18T1900,4304A,106.1172,30.843,南充市,清泉寺北路188号,,30,30,23,6,7,71,71,78,78,8,9,6,6,0.3,0.3
2026-03-18T1900,4305A,106.067,30.7616,南充市,同庆路1号,,30,30,23,3,5,61,61,72,72,14,18,6,6,0.5,0.5
2026-03-18T1900,1151A,118.8033,32.1085,南京市,迈皋桥,NA,NA,60,39,50,33,NA,NA,82,NA,NA,19,5,5,0.4,0.4
2026-03-18T1900,1152A,118.7487,32.057,南京市,草场门,细颗粒物(PM2.5),82,58,33,51,28,68,68,70,70,37,33,9,8,0.6,0.6
2026-03-18T1900,1154A,118.770105,32.004342,南京市,中华门,细颗粒物(PM2.5),66,63,34,43,22,72,72,65,65,20,20,5,4,0.6,0.7
2026-03-18T1900,1155A,118.8059,32.0329,南京市,瑞金路,细颗粒物(PM2.5),76,63,39,48,27,62,62,61,61,18,26,3,5,1.0,0.9
2026-03-18T1900,1156A,118.7946,32.0774,南京市,玄武湖,细颗粒物(PM2.5),80,60,35,50,33,68,68,69,69,22,20,6,7,0.9,0.9
2026-03-18T1900,1157A,118.6415,32.0964,南京市,浦口,细颗粒物(PM2.5),66,57,37,43,31,64,64,68,68,20,21,4,4,0.6,0.6
2026-03-18T1900,1158A,118.730129,32.000956,南京市,奥体中心,NA,NA,NA,34,43,24,75,75,70,70,31,27,6,9,0.5,0.4
2026-03-18T1900,1159A,118.9072,32.1047,南京市,仙林大学城,细颗粒物(PM2.5),100,NA,38,60,32,65,65,64,64,28,32,6,6,0.6,0.6
2026-03-18T1900,3422A,118.8443,31.919,南京市,江宁彩虹桥,,49,49,24,29,17,76,76,77,77,37,35,4,4,0.8,0.8
2026-03-18T1900,3427A,118.8497,32.3599,南京市,六合雄州,细颗粒物(PM2.5),101,NA,37,61,38,40,40,65,63,42,22,4,4,0.7,0.6
2026-03-18T1900,4086A,118.7641,32.0841,南京市,新模范马路66号,NA,NA,NA,38,NA,28,60,60,63,63,33,30,3,4,1.0,0.9
2026-03-18T1900,4249A,118.8707617,31.34017673,南京市,汶溪路181号,,33,28,29,23,25,79,79,69,69,24,23,5,4,0.4,0.5
2026-03-18T1900,4312A,119.019,31.6512,南京市,中山西路1号,,34,34,24,20,16,68,68,60,60,15,18,4,4,0.7,0.5
2026-03-18T1900,1401A,108.3098,22.788,南宁市,二十一中,,30,27,31,21,18,68,68,76,75,12,12,5,5,0.6,0.6
2026-03-18T1900,1402A,108.3135,22.8529,南宁市,北湖,,43,43,32,20,21,72,72,77,77,10,12,3,4,0.6,0.6
2026-03-18T1900,1403A,108.3205,22.8222,南宁市,市监测站,颗粒物(PM10),63,67,44,14,17,74,74,80,80,13,12,6,8,0.5,0.6
2026-03-18T1900,1404A,108.3828,22.8038,南宁市,大自然花园,,36,36,34,23,17,80,80,87,87,10,10,6,6,0.4,0.4
2026-03-18T1900,1406A,108.2397,22.8462,南宁市,区农职院,,44,44,34,22,20,67,67,78,77,13,14,8,6,0.4,0.3
2026-03-18T1900,1407A,108.3285,22.7356,南宁市,英华嘉园,NA,NA,NA,44,28,20,62,62,75,74,18,15,9,6,0.7,0.6
2026-03-18T1900,3401A,108.4829,22.762,南宁市,红星社区,,39,39,32,26,18,77,77,88,88,11,11,5,5,0.6,0.6
2026-03-18T1900,4132A,108.2927,23.1477,南宁市,起凤路9号,,36,36,37,22,23,74,74,86,86,11,10,3,4,0.4,0.4
2026-03-18T1900,4221A,108.2177,22.7774,南宁市,乐贤路16号,,40,40,35,17,17,60,60,71,70,13,18,3,4,0.5,0.6
2026-03-18T1900,2332A,118.1682,26.6371,南平市,南平市监测站,颗粒物(PM10),51,51,37,27,23,58,58,101,96,24,18,4,5,0.7,0.6
2026-03-18T1900,2334A,118.1757,26.6276,南平市,南平七中,,34,34,35,17,22,74,74,104,101,16,17,2,3,0.5,0.4
2026-03-18T1900,1168A,120.9056,31.9669,南通市,狼山街道,,27,21,38,11,27,84,84,79,79,14,26,3,3,0.4,0.5
2026-03-18T1900,1170A,120.8635,32.0231,南通市,城中,,30,21,48,13,27,93,93,85,85,13,21,3,3,0.6,0.7
2026-03-18T1900,1171A,120.9376,31.9301,南通市,星湖花园,,27,19,43,10,33,84,84,79,79,15,25,3,4,0.5,0.7
2026-03-18T1900,1172A,120.8053,32.046,南通市,紫琅学院,NA,NA,NA,41,11,28,NA,NA,84,84,21,22,4,4,0.7,0.7
2026-03-18T1900,3291A,121.0631,32.0644,南通市,通州监测站,,30,17,35,7,24,95,95,88,88,12,15,2,3,0.4,0.6
2026-03-18T1900,3432A,120.9348,31.9874,南通市,环境教育馆,,28,22,37,8,25,87,87,83,83,18,26,3,3,0.5,0.6
2026-03-18T1900,4091A,120.8692,31.9885,南通市,洪江路,,27,21,43,11,31,85,85,78,78,15,24,3,3,0.7,0.8
2026-03-18T1900,2404A,112.5338,33.0086,南阳市,瓦房庄,颗粒物(PM10),78,89,65,37,31,83,83,82,82,14,19,4,4,0.6,0.8
2026-03-18T1900,2405A,112.5002,32.9734,南阳市,汉画馆,细颗粒物(PM2.5),98,100,61,59,47,85,85,56,NA,17,24,5,5,0.6,0.8
2026-03-18T1900,2406A,112.5778,33.0144,南阳市,气象站,颗粒物(PM10),95,112,74,43,37,86,86,86,86,16,21,5,5,0.5,0.7
2026-03-18T1900,2407A,112.548,32.9687,南阳市,理工学院,颗粒物(PM10),84,97,66,50,40,83,83,83,83,11,18,5,5,0.5,0.7
2026-03-18T1900,4008A,112.5233,32.9921,南阳市,卧龙区政府,颗粒物(PM10),90,106,59,46,38,81,81,81,81,15,19,6,6,0.5,0.7
2026-03-18T1900,1234A,121.8352,29.9111,宁波市,区环保大楼,,21,14,39,9,23,40,40,47,35,41,30,6,7,0.7,0.6
2026-03-18T1900,1235A,121.5595,29.8208,宁波市,万里学院,,20,20,35,13,27,48,48,50,37,25,22,4,5,0.8,0.7
2026-03-18T1900,1236A,121.713,29.9564,宁波市,龙赛医院,,19,19,35,12,25,44,44,33,29,31,30,5,6,0.6,0.6
2026-03-18T1900,1240A,121.5855,29.8635,宁波市,太古小学,,23,23,39,16,26,47,47,46,36,32,29,3,4,0.8,0.7
2026-03-18T1900,1241A,121.5239,29.8673,宁波市,市环境监测中心,,27,27,41,16,29,46,46,38,35,29,27,6,6,0.9,0.8
2026-03-18T1900,2871A,121.6156,29.9015,宁波市,万里国际学校,,32,32,39,15,26,44,44,39,35,30,26,3,4,0.8,0.7
2026-03-18T1900,3710A,121.5593,29.8976,宁波市,白沙活动中心,,23,23,30,13,26,48,48,38,36,28,25,4,4,0.7,0.6
2026-03-18T1900,4095A,121.8962,29.7529,宁波市,中科路88号,,16,10,38,3,26,45,45,66,40,32,23,5,6,0.9,0.6
2026-03-18T1900,2341A,119.5387,26.6611,宁德市,宁德市监测站,细颗粒物(PM2.5),60,49,35,40,23,147,147,140,140,29,16,5,5,0.7,0.6
2026-03-18T1900,3209A,119.5231,26.6562,宁德市,宁德一中,细颗粒物(PM2.5),84,76,39,52,27,125,125,128,128,27,16,5,5,0.7,0.5
2026-03-18T1900,2618A,98.859,25.8541,怒江傈僳族自治州,州监测站,NA,NA,26,25,19,15,NA,NA,85,85,6,9,6,7,NA,0.6
2026-03-18T1900,2619A,98.8607,25.8168,怒江傈僳族自治州,泸水一中,,31,23,21,15,17,97,97,82,82,10,13,5,5,0.4,0.5
2026-03-18T1900,1888A,101.6891,26.571,攀枝花市,弄弄坪,NA,NA,35,33,11,13,88,88,98,98,22,17,NA,26,3.2,1.3
2026-03-18T1900,1889A,101.577,26.5914,攀枝花市,河门口,,33,28,38,13,18,105,105,106,106,5,18,5,12,0.4,0.6
2026-03-18T1900,1891A,101.7365,26.4986,攀枝花市,仁和,,31,15,13,12,14,99,99,103,103,6,8,8,9,0.6,0.5
2026-03-18T1900,2835A,101.7222,26.567,攀枝花市,四十中小,,34,26,28,10,14,106,106,107,107,10,18,4,9,0.5,0.7
2026-03-18T1900,1604A,122.0303,41.1489,盘锦市,开发区,,32,32,36,20,28,82,82,88,88,16,13,5,5,0.4,0.4
2026-03-18T1900,1605A,122.0486,41.0883,盘锦市,兴隆台,,24,22,31,15,24,75,75,86,86,24,15,6,6,0.3,0.3
2026-03-18T1900,1606A,121.8297,41.1026,盘锦市,新生街道,,26,18,28,10,24,81,81,91,91,18,18,6,7,0.4,0.5
2026-03-18T1900,1832A,113.3257,33.7423,平顶山市,新华旅馆,颗粒物(PM10),71,79,89,35,45,80,80,86,86,19,13,1,3,0.2,0.4
2026-03-18T1900,1833A,113.2917,33.737,平顶山市,规划设计院,颗粒物(PM10),73,81,87,37,46,78,78,82,81,17,16,6,7,0.4,0.5
2026-03-18T1900,1834A,113.182,33.7738,平顶山市,平顶山工学院,颗粒物(PM10),65,70,78,24,39,88,88,88,88,14,14,4,5,0.1,0.3
2026-03-18T1900,3594A,112.8736,33.9068,平顶山市,石龙区,颗粒物(PM10),84,97,96,31,37,85,85,87,87,15,15,6,6,0.4,0.5
2026-03-18T1900,4116A,113.284,33.7139,平顶山市,姚电大道23号,颗粒物(PM10),80,91,76,29,43,88,88,89,89,15,17,5,6,0.5,0.7
2026-03-18T1900,2656A,106.6633,35.5338,平凉市,聚贤嘉苑,颗粒物(PM10),115,157,162,44,41,81,81,82,82,15,11,11,7,0.4,0.5
2026-03-18T1900,2657A,106.7021,35.5307,平凉市,博物馆,颗粒物(PM10),118,165,155,43,40,86,86,84,84,11,10,11,9,0.5,0.5
2026-03-18T1900,2348A,113.8384,27.6436,萍乡市,中医院,NA,NA,26,38,14,23,43,43,33,33,NA,21,5,9,1.0,1.1
2026-03-18T1900,2350A,113.8677,27.6438,萍乡市,市环保局,,26,26,30,16,25,50,50,37,37,12,17,5,6,1.0,1.2
2026-03-18T1900,2351A,113.8663,27.6202,萍乡市,安源区政府,,20,16,24,14,19,47,47,33,33,11,15,4,6,0.5,0.5
2026-03-18T1900,4107A,113.8686,27.6668,萍乡市,联洪村委会,,19,18,36,13,23,42,42,30,30,15,23,2,7,0.5,0.8
2026-03-18T1900,2319A,119.0142,25.4324,莆田市,荔城区仓后路,颗粒物(PM10),51,51,53,13,34,69,69,130,127,23,22,/,/,/,/
2026-03-18T1900,2320A,119.0016,25.4553,莆田市,莆田市监测站,颗粒物(PM10),53,53,47,12,30,67,67,138,133,20,15,4,3,0.3,0.3
2026-03-18T1900,2321A,119.112,25.4561,莆田市,涵江区六中,,45,45,47,8,30,66,66,131,128,21,18,/,/,0.3,0.4
2026-03-18T1900,2322A,119.1014,25.3215,莆田市,秀屿区政府,,37,37,51,7,38,75,75,125,119,10,16,4,4,0.3,0.4
2026-03-18T1900,2392A,115.0312,35.7636,濮阳市,环保局,,33,33,54,16,49,76,76,77,77,10,12,3,5,0.4,0.6
2026-03-18T1900,3021A,115,35.7667,濮阳市,濮水河管理处,,35,35,74,16,47,81,81,82,82,12,13,7,7,0.3,0.5
2026-03-18T1900,4118A,115.0552,35.7816,濮阳市,中原东路68号,,38,38,76,18,50,76,76,78,78,10,9,5,5,0.4,0.6
2026-03-18T1900,4216A,115.0923632,35.76857718,濮阳市,任丘路479号,,37,37,70,23,49,78,78,80,80,15,15,6,6,0.7,0.8
2026-03-18T1900,2601A,100.9801,22.7634,普洱市,市环保局,颗粒物(PM10),67,73,63,34,29,118,118,121,121,10,9,7,6,0.5,0.6
2026-03-18T1900,2602A,100.9763,22.8237,普洱市,普洱第二中学,颗粒物(PM10),64,69,59,40,34,112,112,119,119,11,14,3,3,0.5,0.6
2026-03-18T1900,3345A,131.0413,45.7795,七台河市,中波台,,30,30,120,18,95,76,76,71,71,13,19,11,14,0.7,0.8
2026-03-18T1900,3637A,131.0136,45.7688,七台河市,人民广场,,33,32,119,23,81,71,71,72,70,21,21,13,15,0.5,0.7
2026-03-18T1900,3684A,130.8639,45.8144,七台河市,新建矿广场,,35,34,121,24,87,75,75,72,72,12,33,6,8,0.2,0.5
2026-03-18T1900,1779A,123.9307,47.3641,齐齐哈尔市,安居小区,NA,NA,39,57,25,20,76,76,91,89,NA,7,6,4,NA,0.3
2026-03-18T1900,1780A,123.9497,47.3389,齐齐哈尔市,中心广场,,45,39,53,31,18,74,74,87,85,16,8,10,9,0.6,0.4
2026-03-18T1900,1781A,123.9483,47.3229,齐齐哈尔市,农牧车辆厂,细颗粒物(PM2.5),80,70,64,50,29,74,74,86,84,12,7,9,7,0.5,0.3
2026-03-18T1900,1783A,123.9442,47.2994,齐齐哈尔市,市环境监测站,颗粒物(PM10),61,65,73,37,23,72,72,86,84,12,7,4,3,0.5,0.4
2026-03-18T1900,3662A,123.6341,47.2079,齐齐哈尔市,富区青少年活动中心,细颗粒物(PM2.5),120,121,74,82,36,73,73,88,85,24,11,9,4,1.2,0.6
2026-03-18T1900,2591A,107.9765,26.5724,黔东南苗族侗族自治州,市环境监测站,,22,NA,10,12,8,68,68,53,53,9,9,2,2,0.7,0.8
2026-03-18T1900,2881A,107.8909,26.531,黔东南苗族侗族自治州,凯里学院,,22,NA,10,15,8,65,65,49,49,16,14,3,4,0.8,0.9
2026-03-18T1900,2593A,107.5223,26.2371,黔南布依族苗族自治州,小围寨,,19,NA,8,13,9,46,46,42,42,5,6,3,5,0.9,0.8
2026-03-18T1900,3538A,107.5175,26.2977,黔南布依族苗族自治州,沙坝,NA,NA,14,14,6,10,NA,NA,46,46,5,6,4,4,0.9,0.8
2026-03-18T1900,2589A,104.9022,25.0943,黔西南布依族苗族自治州,场坝街,,50,43,25,35,23,88,88,92,91,9,7,5,7,0.5,0.5
2026-03-18T1900,2590A,104.8812,25.0994,黔西南布依族苗族自治州,坪东大道,,42,41,32,29,26,88,88,90,90,7,11,6,6,0.6,0.5
2026-03-18T1900,2502A,108.6238,21.9667,钦州市,市环保站,颗粒物(PM10),53,53,42,18,15,65,65,74,74,24,20,9,6,0.6,0.5
2026-03-18T1900,2503A,108.655,21.9481,钦州市,沙埠小学,,49,49,44,22,20,70,70,78,78,18,19,15,8,0.4,0.4
2026-03-18T1900,2504A,108.5989,21.7435,钦州市,港区一小,颗粒物(PM10),55,57,48,22,19,72,72,78,78,19,18,2,3,0.4,0.4
2026-03-18T1900,3404A,108.5959,21.9634,钦州市,北职校,NA,NA,44,37,16,19,NA,NA,75,75,17,18,4,7,0.4,0.5
2026-03-18T1900,1046A,119.5247,39.9346,秦皇岛市,建设大厦,,43,43,67,17,48,68,68,79,78,6,6,5,5,0.5,0.5
2026-03-18T1900,3132A,119.5979,39.938,秦皇岛市,文明里,NA,NA,54,75,19,47,NA,NA,80,80,15,17,8,9,0.4,0.4
2026-03-18T1900,4066A,119.7458,39.9952,秦皇岛市,南园路157号,,33,33,58,12,48,79,79,79,79,16,25,6,6,0.3,0.4
2026-03-18T1900,4067A,119.5131,39.8858,秦皇岛市,翠岛大街1号,,49,49,65,14,51,68,68,76,76,16,16,8,8,0.4,0.4
2026-03-18T1900,4198A,119.509013,39.825305,秦皇岛市,北戴河轮滑馆,,35,35,63,11,44,77,77,83,83,19,22,6,6,0.5,0.4
2026-03-18T1900,1310A,120.404,36.0625,青岛市,市南区东部子站,,44,44,43,3,28,75,75,96,80,17,19,10,10,0.5,0.5
2026-03-18T1900,1311A,120.362344,36.10282,青岛市,四方区子站,,36,36,45,6,34,82,82,98,88,13,18,6,6,0.5,0.6
2026-03-18T1900,1312A,120.294373,36.054183,青岛市,市南区西部子站,,34,34,37,3,30,72,72,86,80,20,20,3,3,0.4,0.5
2026-03-18T1900,1313A,120.4581,36.0858,青岛市,崂山区子站,,36,36,40,3,26,76,76,100,87,16,16,9,7,0.4,0.5
2026-03-18T1900,1315A,120.3945,36.3083,青岛市,城阳区子站,,39,39,48,7,32,78,78,88,87,20,22,7,6,0.6,0.6
2026-03-18T1900,3642A,120.3454,36.0735,青岛市,市北区南部,,27,27,43,6,24,71,71,97,82,17,13,6,3,0.6,0.7
2026-03-18T1900,3643A,120.3897,36.18,青岛市,李沧区北部,,46,46,44,6,33,76,76,94,87,20,19,9,8,0.5,0.5
2026-03-18T1900,4110A,120.5222,36.4089,青岛市,盟旺路653号,,26,26,42,3,29,83,83,94,93,11,11,4,2,0.6,0.7
2026-03-18T1900,4290A,120.196923,35.954556,青岛市,珠江路669号,,39,39,40,7,32,70,70,99,82,29,26,5,5,0.4,0.5
2026-03-18T1900,4291A,120.0424,35.8656,青岛市,黄岛区人民政府广场,,39,39,37,6,26,75,75,91,84,17,14,7,7,0.4,0.5
2026-03-18T1900,1703A,113.0218,23.7086,清远市,凤城街办,,39,39,40,19,20,98,98,112,112,31,29,/,/,/,/
2026-03-18T1900,3025A,113.0479,23.6343,清远市,技师学院,NA,NA,40,43,18,19,119,119,125,125,NA,30,6,6,NA,0.3
2026-03-18T1900,3318A,112.9898,23.7403,清远市,清新太和,,38,37,41,19,20,120,120,130,130,18,26,8,7,0.4,0.3
2026-03-18T1900,3455A,113.076,23.72,清远市,清城东城,,48,48,50,22,20,119,119,124,124,20,28,/,/,/,/
2026-03-18T1900,2661A,107.6325,35.7357,庆阳市,庆阳五中,颗粒物(PM10),107,138,149,33,30,93,93,92,92,10,8,6,5,0.3,0.2
2026-03-18T1900,2662A,107.6361,35.7067,庆阳市,市环保局,颗粒物(PM10),107,137,147,31,30,94,94,92,92,12,10,6,5,0.4,0.3
2026-03-18T1900,1916A,103.7897,25.5036,曲靖市,环境监测站,,39,35,32,16,19,123,123,127,126,9,9,7,7,0.4,0.4
2026-03-18T1900,1917A,103.8013,25.5357,曲靖市,烟厂办公区,,33,33,31,17,15,104,104,109,109,7,8,4,4,0.3,0.4
2026-03-18T1900,3376A,103.7926,25.4651,曲靖市,南苑二区,,33,31,28,17,14,104,104,108,108,11,12,3,4,0.3,0.3
2026-03-18T1900,3377A,103.7442,25.5259,曲靖市,曲靖师范学院,,40,40,36,20,21,109,109,114,114,6,10,2,3,0.2,0.2
2026-03-18T1900,1264A,118.8694,28.94,衢州市,环保大楼,,10,6,66,3,45,24,24,74,63,20,32,/,/,/,/
2026-03-18T1900,1266A,118.8622,28.9809,衢州市,衢州学院,,10,6,54,3,38,30,30,79,69,16,37,3,4,0.9,0.7
2026-03-18T1900,4097A,118.9646,28.9832,衢州市,衢州三中,NA,NA,6,70,3,45,28,28,83,69,NA,40,6,8,NA,0.9
2026-03-18T1900,1611A,118.5818,24.9116,泉州市,涂山街,,34,34,45,8,26,55,55,84,81,16,21,4,5,0.5,0.5
2026-03-18T1900,1612A,118.597,24.8976,泉州市,津头埔,NA,NA,31,45,8,28,57,57,88,85,16,23,NA,4,0.5,0.6
2026-03-18T1900,1613A,118.6669,24.9422,泉州市,万安,,30,30,46,8,27,56,56,84,82,12,27,3,4,0.5,0.5
2026-03-18T1900,4105A,118.6355,24.9148,泉州市,霞新路6号,,19,19,38,9,25,49,49,81,77,18,24,/,/,0.4,0.4
2026-03-18T1900,2626A,88.8873,29.2723,日喀则市,日喀则监测站,,35,13,27,3,11,109,109,107,107,9,12,6,6,0.3,0.4
2026-03-18T1900,3726A,88.8775,29.2425,日喀则市,林业技术推广中心,,35,19,22,3,4,110,110,107,107,3,4,3,4,0.3,0.3
2026-03-18T1900,1659A,119.4711,35.421,日照市,监测站,,24,19,44,3,30,76,76,79,78,17,22,7,6,0.5,0.6
2026-03-18T1900,1660A,119.523,35.4216,日照市,市政府广场,,25,19,42,3,31,79,79,86,81,20,20,5,5,0.4,0.5
2026-03-18T1900,1661A,119.5511,35.4113,日照市,港务局,,34,34,44,3,28,78,78,82,82,16,24,4,4,0.5,0.6
2026-03-18T1900,3507A,119.5326,35.4627,日照市,职业技术学院,,27,27,37,3,26,78,78,84,83,17,23,6,6,0.6,0.7
2026-03-18T1900,3604A,119.3267,35.1043,日照市,岚山环保分局,,31,31,57,3,36,80,80,78,70,18,25,10,12,0.6,0.9
2026-03-18T1900,1835A,111.1922,34.7752,三门峡市,市政府,颗粒物(PM10),85,99,85,17,23,86,86,79,79,15,28,9,9,0.3,0.5
2026-03-18T1900,1836A,111.1588,34.794,三门峡市,开发区,颗粒物(PM10),91,107,71,12,28,86,86,78,78,7,19,8,10,0.2,0.4
2026-03-18T1900,3039A,111.1911,34.7829,三门峡市,三门峡市第一小学,NA,NA,NA,98,NA,28,NA,NA,79,79,13,23,13,12,NA,0.5
2026-03-18T1900,3598A,111.1031,34.719,三门峡市,富达温泉假日酒店,颗粒物(PM10),101,122,106,18,26,81,81,80,80,21,21,10,12,0.3,0.5
2026-03-18T1900,2324A,117.621,26.2626,三明市,三钢,NA,NA,41,33,21,22,NA,NA,100,99,14,21,20,11,1.3,1.2
2026-03-18T1900,2325A,117.6352,26.2714,三明市,三明二中,,32,32,31,21,19,72,72,98,96,17,18,10,8,0.7,0.6
2026-03-18T1900,2326A,117.6028,26.2377,三明市,三元区政府,细颗粒物(PM2.5),52,44,30,36,23,51,51,101,96,37,16,7,7,0.9,0.5
2026-03-18T1900,1877A,109.4962,18.2682,三亚市,河西子站,,22,22,24,12,11,69,69,77,75,4,5,4,4,0.3,0.4
2026-03-18T1900,3540A,109.7348,18.3443,三亚市,君悦子站,NA,NA,23,27,10,11,NA,NA,76,76,4,8,4,4,0.3,0.4
2026-03-18T1900,4135A,109.1714,18.3739,三亚市,城东小学站,,33,33,27,13,14,72,72,83,82,7,8,/,/,/,/
2026-03-18T1900,2624A,91.7592,29.234,山南市,山南监测站,,32,21,24,3,7,100,100,99,99,4,5,2,2,0.2,0.2
2026-03-18T1900,2625A,91.7701,29.2436,山南市,山南人民医院,,33,28,29,7,5,104,104,102,102,5,4,5,6,0.3,0.3
2026-03-18T1900,1674A,116.6795,23.3666,汕头市,金平子站,,38,38,36,21,24,119,119,102,102,15,23,5,7,0.5,0.6
2026-03-18T1900,1675A,116.7248,23.3632,汕头市,龙湖子站,颗粒物(PM10),53,54,38,15,22,99,99,96,96,15,19,5,6,/,/
2026-03-18T1900,1676A,116.7257,23.2774,汕头市,濠江子站,,43,43,38,30,23,126,126,106,106,15,16,8,8,/,/
2026-03-18T1900,1677A,116.7518,23.4712,汕头市,澄海子站,,43,43,43,21,26,81,81,91,89,17,18,7,8,0.7,0.7
2026-03-18T1900,1678A,116.6088,23.2539,汕头市,潮阳子站,,40,40,32,25,22,111,111,96,96,8,10,6,6,0.6,0.6
2026-03-18T1900,3444A,116.4539,23.2684,汕头市,潮南峡山,,25,19,39,8,22,80,80,93,90,2,8,6,6,0.7,0.8
2026-03-18T1900,3624A,116.4069,23.2533,汕头市,潮南子站,,32,32,49,13,27,72,72,84,82,5,11,6,7,/,/
2026-03-18T1900,1693A,115.3653,22.7751,汕尾市,市环保局,,34,34,31,13,16,79,79,90,90,11,9,5,6,0.6,0.6
2026-03-18T1900,1695A,115.362,22.7926,汕尾市,新城中学,,49,49,33,17,15,94,94,94,94,8,8,6,6,0.4,0.4
2026-03-18T1900,2645A,109.9155,33.8714,商洛市,监测站,颗粒物(PM10),112,151,63,45,23,87,87,89,89,11,14,5,5,0.2,0.5
2026-03-18T1900,3045A,109.9647,33.8486,商洛市,商州区中学,颗粒物(PM10),113,152,84,41,25,85,85,90,90,11,20,4,4,0.3,0.5
2026-03-18T1900,2408A,115.6701,34.4283,商丘市,环境监测站,,44,44,69,30,66,71,71,63,63,12,14,1,2,0.4,0.6
2026-03-18T1900,2409A,115.6458,34.4047,商丘市,粮食局,,40,40,56,27,61,71,71,62,62,18,22,1,1,0.3,0.5
2026-03-18T1900,3171A,115.6069,34.4465,商丘市,梁园区档案局,,42,42,53,24,55,80,80,67,67,11,18,2,2,0.3,0.5
2026-03-18T1900,4119A,115.6701,34.3767,商丘市,北海东路185号,,36,29,61,25,56,77,77,64,64,12,20,3,3,0.3,0.5
2026-03-18T1900,4120A,115.6172,34.3704,商丘市,中山大街3号,,38,28,61,26,55,80,80,67,67,9,19,3,3,0.3,0.6
2026-03-18T1900,1141A,121.401,31.2382,上海市,普陀,,27,NA,36,11,34,84,84,57,57,24,35,5,5,0.9,0.8
2026-03-18T1900,1142A,121.4774,31.2043,上海市,十五厂,,29,NA,39,8,33,92,92,66,66,19,31,8,8,0.6,0.8
2026-03-18T1900,1143A,121.4673,31.3011,上海市,虹口,,27,NA,37,8,32,85,85,59,59,17,30,4,4,0.3,0.5
2026-03-18T1900,1147A,121.4253,31.226,上海市,静安监测站,,27,NA,34,8,30,84,84,62,62,27,34,7,7,0.6,0.7
2026-03-18T1900,1148A,121.7029,31.1905,上海市,浦东川沙,,27,NA,35,8,32,85,85,62,62,18,32,4,5,0.4,0.7
2026-03-18T1900,1149A,121.5339,31.229,上海市,浦东新区监测站,,27,NA,34,8,29,86,86,58,58,18,28,4,5,0.6,0.7
2026-03-18T1900,1150A,121.5776,31.2038,上海市,浦东张江,,27,NA,36,7,28,85,85,63,63,20,29,6,6,0.3,0.4
2026-03-18T1900,3265A,121.4242,31.3303,上海市,宝山庙行,,24,9,43,9,31,75,75,56,56,26,33,4,4,0.5,0.6
2026-03-18T1900,3266A,121.8789,31.4662,上海市,崇明上实东滩,,31,10,30,8,26,99,99,86,86,5,24,7,7,0.2,0.4
2026-03-18T1900,3268A,121.316,31.2839,上海市,嘉定南翔,,27,NA,34,8,30,86,86,62,62,18,31,4,4,0.7,0.6
2026-03-18T1900,3269A,121.3357,30.7455,上海市,金山新城,,29,NA,34,20,29,51,51,47,44,33,24,3,4,0.7,0.9
2026-03-18T1900,3270A,121.4996,31.0741,上海市,闵行浦江,,25,19,60,9,33,79,79,50,50,21,35,6,6,0.5,0.5
2026-03-18T1900,3271A,121.2886,31.1663,上海市,青浦徐泾,NA,NA,7,38,7,34,NA,NA,50,50,21,37,4,4,0.5,0.7
2026-03-18T1900,3272A,121.2193,31.0382,上海市,松江图书馆,,25,NA,42,10,35,78,78,54,54,22,30,6,6,0.6,0.7
2026-03-18T1900,3273A,121.3904,31.206,上海市,长宁仙霞,,26,NA,39,10,32,83,83,57,57,24,33,8,8,0.6,0.4
2026-03-18T1900,3274A,121.7964,31.0507,上海市,浦东惠南,,28,NA,30,6,30,88,88,52,52,17,29,5,5,0.4,0.7
2026-03-18T1900,3544A,121.4891,30.925,上海市,奉贤南桥新城,,26,NA,32,11,30,83,83,53,51,19,25,3,3,0.6,0.7
2026-03-18T1900,4183A,121.417401,31.16637,上海市,冠生园路458号,,26,NA,39,9,33,82,82,58,58,22,31,6,6,0.6,0.6
2026-03-18T1900,4205A,121.541914,31.268301,上海市,宁武路151号,,26,NA,36,8,32,82,82,61,61,22,30,6,6,0.8,1
2026-03-18T1900,2382A,117.9758,28.4439,上饶市,市监测站,,19,19,47,3,30,31,31,72,62,26,23,6,12,/,/
2026-03-18T1900,2383A,117.9521,28.4637,上饶市,凤凰光学,,19,19,49,3,33,17,17,61,46,28,23,13,13,1.2,1
2026-03-18T1900,3685A,117.897,28.4316,上饶市,双创科技城,,19,19,48,3,31,34,34,76,64,24,20,9,11,1.1,1
2026-03-18T1900,4211A,118.190438,28.444845,上饶市,裕丰大道,,29,29,64,3,38,33,33,76,66,16,19,12,25,1.1,1.1
2026-03-18T1900,1669A,113.5821,24.7733,韶关市,市八中,,20,20,36,9,21,38,38,92,88,16,22,4,15,0.7,0.4
2026-03-18T1900,1671A,113.5916,24.7973,韶关市,园林处,,23,22,37,16,23,39,39,88,83,16,21,4,14,/,/
2026-03-18T1900,1673A,113.5971,24.6864,韶关市,曲江监测站,NA,NA,28,37,18,23,75,75,104,104,NA,18,26,9,NA,0.5
2026-03-18T1900,2809A,113.6668,24.7756,韶关市,大学路288号,,31,31,41,16,21,44,44,99,96,17,15,7,11,/,/
2026-03-18T1900,3622A,113.5556,24.8082,韶关市,碧湖山庄,NA,NA,19,98,8,24,NA,NA,87,87,16,21,4,8,0.8,0.5
2026-03-18T1900,2464A,111.5277,27.2442,邵阳市,市化工厂,,32,27,22,22,19,57,57,67,67,13,11,7,7,0.9,0.4
2026-03-18T1900,2466A,111.4327,27.2276,邵阳市,市环保局,NA,NA,NA,21,21,17,NA,NA,71,71,10,10,8,5,0.9,1
2026-03-18T1900,4218A,111.446,27.2472,邵阳市,北塔二期4-26地块,,25,24,18,17,15,58,58,62,62,12,10,3,4,1.0,1.1
2026-03-18T1900,4219A,111.4739,27.2282,邵阳市,邵水西路287号,,28,22,21,19,17,60,60,68,68,14,12,6,6,0.9,1
2026-03-18T1900,1247A,120.6053,29.9927,绍兴市,城东开发委,,26,20,46,18,37,48,48,37,37,32,43,7,9,0.7,0.7
2026-03-18T1900,2921A,120.5482,30.0003,绍兴市,树下王站,,29,24,55,20,39,49,49,35,35,26,41,6,7,0.6,0.6
2026-03-18T1900,3408A,120.5685,29.936,绍兴市,绍兴中专,,31,31,53,18,33,51,51,40,40,26,38,7,8,0.7,0.8
2026-03-18T1900,3409A,120.4905,30.086,绍兴市,柯桥区政府,,32,32,51,21,41,56,56,40,40,28,43,6,7,0.9,1
2026-03-18T1900,3410A,120.8751,30.0249,绍兴市,重华小学,,43,42,50,30,39,34,34,34,34,39,41,8,7,0.7,0.7
2026-03-18T1900,3411A,120.837,30.0137,绍兴市,上虞中学,,42,35,57,29,42,39,39,33,33,30,44,6,6,0.7,0.7
2026-03-18T1900,3560A,120.4715,30.0414,绍兴市,柯桥妇保,,25,25,53,16,36,51,51,35,35,22,39,5,6,0.7,0.8
