timepoint,stationcode,longitude,latitude,area,positionname,primarypollutant,aqi,pm10,pm10_24h,pm2_5,pm2_5_24h,o3,o3_24h,o3_8h,o3_8h_24h,no2,no2_24h,so2,so2_24h,co,co_24h
2026-03-18T1700,2568A,102.2503,31.8896,阿坝藏族羌族自治州,马师校,,39,26,19,8,8,124,124,92,92,7,6,4,5,0.3,0.3
2026-03-18T1700,3994A,102.2174,31.9016,阿坝藏族羌族自治州,马尔康中学西区,,38,18,21,8,9,121,121,90,90,6,6,2,2,0.3,0.4
2026-03-18T1700,2695A,80.2899,41.1684,阿克苏地区,电视台,颗粒物(PM10),154,257,307,93,118,88,88,71,71,4,13,3,2,0.5,0.6
2026-03-18T1700,2696A,80.2592,41.1541,阿克苏地区,艺术中心,颗粒物(PM10),149,245,286,88,100,89,89,74,74,6,16,3,4,0.5,0.8
2026-03-18T1700,2205A,105.699,38.8409,阿拉善盟,蒙二幼,颗粒物(PM10),68,75,140,12,22,96,96,86,86,5,5,8,8,0.5,0.5
2026-03-18T1700,2206A,105.7198,38.8508,阿拉善盟,环保局新楼,颗粒物(PM10),56,58,116,10,24,88,88,83,81,4,5,7,7,0.5,0.5
2026-03-18T1700,2708A,88.1266,47.8515,阿勒泰地区,市站,,31,10,7,3,2,98,98,91,91,5,6,5,5,0.1,0.1
2026-03-18T1700,4166A,88.1198,47.7931,阿勒泰地区,阿勒泰路33号,,30,12,12,3,1,94,94,89,89,8,7,6,5,0.4,0.3
2026-03-18T1700,2630A,80.1171,32.4999,阿里地区,阿里监测站,,29,9,15,3,3,91,91,86,86,2,3,8,8,0.2,0.3
2026-03-18T1700,3192A,80.0906,32.5029,阿里地区,阿里藏医院,,30,7,12,3,4,95,95,90,89,2,3,9,9,0.3,0.4
2026-03-18T1700,2644A,109.0088,32.6974,安康市,汉滨区检察院,,30,30,17,10,11,70,70,54,54,12,18,4,4,0.5,0.7
2026-03-18T1700,4054A,109.0324,32.6913,安康市,市邮政管理局,,33,33,22,12,12,66,66,52,52,13,18,4,5,0.6,0.7
2026-03-18T1700,2291A,117.0806,30.5181,安庆市,环科院,NA,NA,NA,13,15,12,56,56,45,45,10,21,NA,7,NA,0.8
2026-03-18T1700,2292A,117.0331,30.5118,安庆市,马山宾馆,,23,NA,14,16,11,57,57,46,46,19,24,4,4,0.9,0.9
2026-03-18T1700,2294A,116.9897,30.6146,安庆市,安庆大学,,25,20,13,17,9,69,69,53,53,7,16,3,3,0.6,0.7
2026-03-18T1700,3173A,117.0598,30.5351,安庆市,市人大,,20,14,16,14,11,53,53,43,43,20,25,5,6,0.7,0.8
2026-03-18T1700,3123A,105.9408,26.2431,安顺市,凤凰山,,45,45,19,23,15,77,77,71,71,13,9,13,11,0.6,0.6
2026-03-18T1700,3124A,105.9443,26.2567,安顺市,金钟山,,32,NA,19,22,15,71,71,65,65,10,7,13,11,0.7,0.7
2026-03-18T1700,3125A,105.8983,26.248,安顺市,娄家坡,,38,31,19,26,15,72,72,67,67,12,9,12,12,0.7,0.7
2026-03-18T1700,1819A,114.3552,36.1017,安阳市,红庙街,,41,41,63,8,45,87,87,78,78,4,14,2,2,0.2,0.5
2026-03-18T1700,1820A,114.361,36.0681,安阳市,银杏小区,,48,48,66,9,48,87,87,80,80,8,15,2,2,0,0.4
2026-03-18T1700,3141A,114.3921,36.0879,安阳市,信访局,,44,44,65,19,55,88,88,80,80,7,7,2,2,0,0.5
2026-03-18T1700,3669A,114.4706,36.0634,安阳市,左辅环卫站,颗粒物(PM10),54,55,93,13,41,87,87,79,79,3,12,2,2,0.2,0.4
2026-03-18T1700,4117A,114.2918,36.0769,安阳市,钢三路198号,,27,27,65,13,47,82,82,75,75,9,16,2,2,0.2,0.5
2026-03-18T1700,1748A,123.0441,41.1201,鞍山市,深沟寺,,29,15,65,7,42,92,92,84,84,11,20,8,11,0.5,0.8
2026-03-18T1700,1749A,123.011,41.0931,鞍山市,太阳城,,28,19,63,12,47,87,87,86,86,20,21,17,14,1.4,1
2026-03-18T1700,1750A,123.0483,41.1445,鞍山市,太平,,30,19,66,8,42,94,94,87,87,14,18,9,12,1.0,0.9
2026-03-18T1700,1751A,122.964,41.0968,鞍山市,铁西三道街,,28,28,78,12,48,82,82,78,78,22,30,11,19,0.8,1.2
2026-03-18T1700,1753A,123.0219,41.0822,鞍山市,明达新区,,27,19,60,10,42,86,86,84,84,20,18,17,12,1.3,0.9
2026-03-18T1700,4201A,122.944647,41.082639,鞍山市,兴盛南路290号,,27,22,81,12,55,86,86,79,79,22,29,8,14,0.9,1.3
2026-03-18T1700,2195A,107.4206,40.7609,巴彦淖尔市,附二中,,29,20,73,11,18,91,91,84,84,3,7,7,8,0.2,0.3
2026-03-18T1700,2196A,107.37,40.7372,巴彦淖尔市,市环保大楼,,30,22,106,3,14,96,96,91,91,3,8,5,5,0.4,0.3
2026-03-18T1700,1956A,86.1476,41.7529,巴音郭楞蒙古自治州,孔雀公园,颗粒物(PM10),200,350,196,73,46,82,82,63,63,4,22,9,9,0.4,0.5
2026-03-18T1700,1957A,86.1971,41.7166,巴音郭楞蒙古自治州,棉纺厂,颗粒物(PM10),443,543,235,112,53,87,87,66,66,2,20,/,/,/,/
2026-03-18T1700,1958A,86.236,41.7172,巴音郭楞蒙古自治州,经济开发区,颗粒物(PM10),416,516,202,109,48,75,75,61,61,5,19,6,7,0.4,0.5
2026-03-18T1700,3181A,106.776805,31.852614,巴中市,市五中,,32,32,22,8,9,73,73,77,77,15,14,7,8,0.6,0.7
2026-03-18T1700,3183A,106.7419,31.8654,巴中市,圣泉水务公司,,27,27,18,10,9,77,77,81,81,12,16,9,9,0.7,0.8
2026-03-18T1700,3616A,106.7617,31.8343,巴中市,市中心医院,,25,21,21,7,10,79,79,79,79,8,16,10,10,0.5,0.7
2026-03-18T1700,2235A,122.7909,45.608,白城市,洮北区环保局,颗粒物(PM10),69,76,174,20,56,85,85,84,84,9,10,4,3,0.3,0.1
2026-03-18T1700,2236A,122.8741,45.5725,白城市,市环保局,NA,NA,48,144,23,44,84,84,85,84,4,7,4,5,NA,0.2
2026-03-18T1700,2231A,126.4219,41.9172,白山市,喜丰,,29,26,86,3,31,92,92,82,82,7,39,6,11,0.5,1
2026-03-18T1700,2232A,126.4082,41.9416,白山市,环保局,,29,17,58,3,27,91,91,80,80,6,15,9,10,0.9,1.1
2026-03-18T1700,2647A,104.1727,36.5448,白银市,第三小学,颗粒物(PM10),97,115,130,37,37,92,92,79,79,5,12,4,27,0.4,0.5
2026-03-18T1700,2648A,104.1467,36.5482,白银市,动力公司,颗粒物(PM10),96,114,119,33,33,92,92,78,78,4,10,2,10,0.4,0.4
2026-03-18T1700,2512A,106.6102,23.901,百色市,市监测站,,47,47,46,30,30,118,118,98,98,11,17,13,16,0.5,0.6
2026-03-18T1700,2513A,106.6524,23.8842,百色市,市中心血站,颗粒物(PM10),63,68,56,26,35,113,113,94,94,13,22,12,17,0.6,0.6
2026-03-18T1700,4133A,106.6273,23.8798,百色市,龙景西路,颗粒物(PM10),56,58,53,28,35,122,122,102,102,12,17,14,18,0.5,0.6
2026-03-18T1700,2270A,117.396,32.9389,蚌埠市,工人疗养院,细颗粒物(PM2.5),106,79,68,66,58,58,58,58,57,25,20,4,3,0.8,0.7
2026-03-18T1700,2271A,117.3606,32.9428,蚌埠市,百货大楼,细颗粒物(PM2.5),106,79,61,66,58,61,61,60,58,19,15,4,4,0.5,0.4
2026-03-18T1700,2273A,117.4183,32.8909,蚌埠市,蚌埠学院,细颗粒物(PM2.5),102,NA,46,62,59,68,68,62,62,17,17,4,4,0.5,0.5
2026-03-18T1700,2274A,117.3534,32.9672,蚌埠市,淮上区政府,细颗粒物(PM2.5),107,68,54,67,56,65,65,62,62,19,16,5,4,0.7,0.6
2026-03-18T1700,2275A,117.3143,32.8977,蚌埠市,高新区,细颗粒物(PM2.5),98,70,53,59,52,60,60,57,57,26,21,7,6,0.6,0.5
2026-03-18T1700,3715A,117.3091,32.9314,蚌埠市,蚌埠田家炳中学,细颗粒物(PM2.5),110,84,64,71,56,64,64,59,59,19,17,5,4,0.5,0.4
2026-03-18T1700,1585A,109.8761,40.6533,包头市,市环境监测站,,49,45,93,34,19,123,123,103,103,19,13,16,11,0.8,0.6
2026-03-18T1700,1587A,109.9992,40.5843,包头市,包头八中,,48,35,83,33,27,109,109,93,93,12,12,14,11,0.6,0.6
2026-03-18T1700,1589A,109.8641,40.6288,包头市,惠龙物流,,46,46,69,28,19,112,112,76,NA,16,11,18,11,0.9,0.6
2026-03-18T1700,1590A,110.0376,40.5546,包头市,东河鸿龙湾,,38,29,69,26,20,116,116,99,99,8,16,10,11,0.5,0.6
2026-03-18T1700,3283A,109.9154,40.5684,包头市,滨河大厦,,37,29,65,25,13,116,116,99,99,9,12,11,13,0.6,0.6
2026-03-18T1700,3419A,109.9449,40.6259,包头市,包头市委党校,,44,44,88,27,19,114,114,99,99,14,12,22,12,0.8,0.8
2026-03-18T1700,3683A,109.8332,40.6577,包头市,昆区政府,,45,44,68,31,15,118,118,103,103,23,16,13,13,0.8,0.7
2026-03-18T1700,1931A,107.0802,34.3129,宝鸡市,竹园沟,颗粒物(PM10),126,186,82,28,18,86,86,74,74,17,13,7,6,0.1,0.1
2026-03-18T1700,1933A,107.1429,34.3549,宝鸡市,监测站,颗粒物(PM10),128,191,88,39,24,79,79,64,64,10,17,6,6,0.2,0.2
2026-03-18T1700,1934A,107.1172,34.3759,宝鸡市,技工学校,颗粒物(PM10),129,194,91,36,25,86,86,72,72,13,14,4,4,0.2,0.4
2026-03-18T1700,1936A,107.2025,34.3518,宝鸡市,文理学院,颗粒物(PM10),124,181,86,39,26,78,78,58,58,12,19,4,5,0.4,0.5
2026-03-18T1700,1937A,107.2396,34.3626,宝鸡市,三迪小学,颗粒物(PM10),110,144,91,38,28,86,86,69,69,12,25,4,4,0.3,0.6
2026-03-18T1700,4155A,107.1721,34.3558,宝鸡市,滨河北路,颗粒物(PM10),126,186,78,39,26,83,83,66,66,12,17,5,6,0.3,0.4
2026-03-18T1700,4308A,107.3898,34.3601,宝鸡市,陈仓区北开路21号,颗粒物(PM10),132,203,100,35,32,87,87,71,71,10,21,6,12,0.3,0.5
2026-03-18T1700,1051A,115.4803,38.8568,保定市,游泳馆,,32,31,78,3,60,100,100,93,93,13,18,6,7,0.5,0.6
2026-03-18T1700,1052A,115.509,38.8895,保定市,华电二区,,33,27,74,3,56,103,103,95,95,6,12,1,3,0.3,0.5
2026-03-18T1700,1053A,115.4588,38.9037,保定市,接待中心,,37,37,75,18,54,98,98,91,91,9,15,2,3,0.0,0.2
2026-03-18T1700,1054A,115.4484,38.8344,保定市,地表水厂,,41,41,88,3,52,99,99,93,93,13,18,4,5,0.2,0.4
2026-03-18T1700,3581A,115.3136,38.9511,保定市,满城区生态环境分局,颗粒物(PM10),51,51,109,8,58,101,101,99,99,11,19,3,6,0.3,0.5
2026-03-18T1700,3582A,115.4709,38.7628,保定市,清苑区第二中学,,38,38,98,11,62,97,97,90,90,5,19,4,6,0.3,0.4
2026-03-18T1700,3583A,115.6231,39.0223,保定市,徐水物探局,,41,41,103,10,65,102,102,99,99,7,19,2,3,0.5,0.6
2026-03-18T1700,4004A,115.4199,38.8665,保定市,双鹰农机,NA,NA,28,103,6,64,102,102,97,97,NA,19,3,4,0.3,0.4
2026-03-18T1700,4034A,115.515,38.8589,保定市,植保所站,,31,30,88,10,55,98,98,90,90,6,15,1,4,0.4,0.5
2026-03-18T1700,2594A,99.1589,25.1137,保山市,市环境监测站,颗粒物(PM10),51,51,28,27,18,107,107,88,88,6,9,12,12,0.1,0.2
2026-03-18T1700,2595A,99.1616,25.1381,保山市,市环保局,,48,48,31,33,22,102,102,88,88,4,6,5,5,0.5,0.5
2026-03-18T1700,1867A,109.1435,21.4085,北海市,海滩公园,,30,28,31,16,13,93,93,84,84,6,7,8,8,0.6,0.6
2026-03-18T1700,1868A,109.0983,21.466,北海市,新市环保局,,26,26,26,3,10,82,82,76,76,8,8,6,7,0.5,0.5
2026-03-18T1700,1869A,109.1775,21.5232,北海市,北海工业园,,46,46,30,9,10,79,79,77,77,3,5,6,11,0.4,0.5
2026-03-18T1700,3400A,109.1844,21.4396,北海市,龙潭自来水厂,,27,16,24,8,11,85,85,79,79,3,6,11,7,0.6,0.7
2026-03-18T1700,1001A,116.3611,39.8786,北京市,万寿西宫,,31,15,59,3,43,97,97,94,94,15,19,2,2,0.3,0.5
2026-03-18T1700,1003A,116.4174,39.9289,北京市,东四,,32,8,60,3,42,101,101,95,95,5,16,4,5,0.2,0.4
2026-03-18T1700,1004A,116.4073,39.8858,北京市,天坛,,28,12,57,3,40,89,89,88,88,14,18,2,2,0.7,0.9
2026-03-18T1700,1005A,116.4622,39.9364,北京市,农展馆,,30,7,59,3,42,94,94,89,89,6,14,4,4,0.1,0.4
2026-03-18T1700,1006A,116.3399,39.9293,北京市,官园,,29,9,57,3,41,92,92,86,86,11,22,2,2,0.3,0.4
2026-03-18T1700,1007A,116.2879,39.9613,北京市,海淀万柳,NA,NA,NA,59,NA,43,NA,NA,72,72,NA,23,NA,3,NA,0.5
2026-03-18T1700,1008A,116.6635,40.1349,北京市,顺义新城,,30,10,61,3,45,93,93,93,93,5,14,3,4,0.2,0.4
2026-03-18T1700,1009A,116.6275,40.327,北京市,怀柔镇,,27,7,50,3,40,86,86,84,84,7,13,4,4,0.3,0.6
2026-03-18T1700,1010A,116.2295,40.217,北京市,昌平镇,,28,9,49,3,35,88,88,86,86,13,19,2,2,0.5,0.7
2026-03-18T1700,1011A,116.3968,39.982,北京市,奥体中心,,27,7,57,3,39,85,85,82,82,3,18,3,4,0.1,0.5
2026-03-18T1700,3418A,116.8336,40.4095,北京市,密云新城,,28,6,54,3,37,87,87,86,86,9,12,2,3,0.3,0.5
2026-03-18T1700,3671A,116.0879,39.9725,北京市,门头沟三家店,,30,11,61,3,41,96,96,90,90,8,16,4,4,0.3,0.5
2026-03-18T1700,3672A,116.1507,39.8246,北京市,丰台云岗,,31,14,64,3,43,97,97,94,94,13,18,1,3,0.3,0.5
2026-03-18T1700,3674A,115.9578,39.7602,北京市,房山燕山,,26,14,58,3,41,83,83,80,80,22,17,3,4,0.2,0.3
2026-03-18T1700,3675A,116.4669,39.7734,北京市,大兴旧宫,,30,13,61,3,42,95,95,86,86,7,16,3,3,0.3,0.5
2026-03-18T1700,3694A,115.9859,40.4562,北京市,延庆石河营,,29,8,40,3,28,92,92,88,88,9,14,2,2,0.3,0.4
2026-03-18T1700,3695A,116.6151,40.3052,北京市,怀柔新城,,28,7,50,3,39,87,87,84,84,7,11,2,3,0.2,0.5
2026-03-18T1700,3696A,116.2542,39.8764,北京市,丰台小屯,,28,15,61,6,41,87,87,82,82,10,21,3,4,0.2,0.3
2026-03-18T1700,3697A,116.8399,40.3843,北京市,密云镇,,28,6,50,3,39,89,89,88,88,9,17,1,3,0.2,0.4
2026-03-18T1700,4057A,115.9423,40.4431,北京市,延庆百泉,,27,7,38,3,25,84,84,80,80,8,14,3,3,0.2,0.4
2026-03-18T1700,4058A,116.6598,39.9164,北京市,通州新华,,27,9,68,3,46,85,85,82,82,9,20,1,2,0.4,0.5
2026-03-18T1700,4182A,116.1942,39.9158,北京市,石景山八角,,27,15,59,3,38,85,85,80,80,12,19,4,5,0.1,0.3
2026-03-18T1700,4194A,117.078628,40.151726,北京市,平谷新城,,26,10,52,3,39,82,82,84,84,15,14,1,2,0.4,0.5
2026-03-18T1700,1761A,123.8274146,41.31234549,本溪市,大峪,,27,15,57,7,31,86,86,88,88,13,14,10,10,0.4,0.6
2026-03-18T1700,1763A,123.7169,41.3094,本溪市,彩屯,,31,27,67,3,35,97,97,96,96,13,18,9,14,0.4,1.1
2026-03-18T1700,1764A,123.7672166,41.28649327,本溪市,东明,,28,23,61,3,33,89,89,90,90,11,16,9,10,0.5,0.6
2026-03-18T1700,1765A,123.799345,41.266614,本溪市,新立屯,,27,17,60,3,33,86,86,90,90,13,13,8,9,0.3,0.7
2026-03-18T1700,1766A,123.829144,41.336777,本溪市,威宁,,30,30,69,7,33,93,93,95,95,10,14,7,8,0.5,0.7
2026-03-18T1700,2587A,105.287,27.3133,毕节市,八中,,20,20,9,6,7,42,42,51,47,13,8,10,9,0.7,0.6
2026-03-18T1700,2588A,105.3079,27.2987,毕节市,师专,,20,19,11,14,7,43,43,48,42,12,9,9,8,0.7,0.5
2026-03-18T1700,4263A,105.3688,27.3598,毕节市,工业大道,,17,17,10,9,6,46,46,60,50,11,7,10,10,/,/
2026-03-18T1700,1629A,117.9961,37.3604,滨州市,第二水厂,,29,17,71,3,45,92,92,78,78,9,21,8,13,0.2,0.5
2026-03-18T1700,1630A,117.9789,37.3931,滨州市,北中新校,,31,24,74,3,47,97,97,81,81,9,25,11,14,0,0.2
2026-03-18T1700,3514A,117.9379,37.3959,滨州市,中海酒店,,31,17,80,3,54,98,98,88,88,13,27,7,10,0.4,0.7
2026-03-18T1700,3515A,117.9381509,37.35547456,滨州市,开发区一中,,29,24,80,3,49,90,90,76,76,2,16,11,17,0.4,0.6
2026-03-18T1700,3516A,118.0914,37.6938,滨州市,金海六路,,31,10,62,3,45,98,98,89,89,11,22,4,8,0.4,0.7
2026-03-18T1700,4028A,117.9955,37.3752,滨州市,滨州市西街道办事处,,30,9,72,3,47,94,94,81,81,7,16,8,12,0.3,0.5
2026-03-18T1700,2311A,115.8071,33.8399,亳州市,污水处理厂,颗粒物(PM10),54,55,69,19,50,59,59,59,57,14,16,4,4,0.2,0.2
2026-03-18T1700,2312A,115.7789,33.8519,亳州市,三国揽胜宫,NA,NA,70,66,18,55,56,56,53,52,NA,13,4,4,0.1,0.3
2026-03-18T1700,3332A,115.7631,33.803,亳州市,亳州学院,颗粒物(PM10),58,60,76,24,53,60,60,58,58,12,14,4,4,0.2,0.2
2026-03-18T1700,2693A,82.0482,44.8553,博尔塔拉蒙古自治州,市党校,颗粒物(PM10),61,65,71,29,24,106,106,84,84,17,8,14,4,0.5,0.6
2026-03-18T1700,2694A,82.0805,44.8966,博尔塔拉蒙古自治州,市环保局,颗粒物(PM10),55,56,60,22,32,102,102,74,74,16,23,3,2,0.4,0.6
2026-03-18T1700,1071A,116.8733,38.2922,沧州市,沧县城建局,,30,20,74,11,57,93,93,73,73,12,21,2,2,0.5,0.6
2026-03-18T1700,1072A,116.8462,38.3189,沧州市,电视转播站,NA,NA,NA,77,NA,65,101,101,80,80,11,20,NA,2,0.4,0.5
2026-03-18T1700,1073A,116.8588,38.3161,沧州市,市环保局,,32,23,79,10,59,100,100,78,78,8,16,6,8,0.0,0.1
2026-03-18T1700,3324A,116.8011,38.294,沧州市,河北水利电力学院,,30,19,77,7,64,96,96,76,76,9,19,5,7,0.2,0.4
2026-03-18T1700,2622A,97.1813,31.1289,昌都市,昌都监测站,,39,14,9,3,4,124,124,112,112,4,5,1,2,0.4,0.5
2026-03-18T1700,3719A,97.1707,31.1428,昌都市,昌都会议中心,,40,9,9,3,6,127,127,114,114,3,4,5,5,0.3,0.3
2026-03-18T1700,2692A,87.2722,44.0298,昌吉回族自治州,新区政务中心,,30,21,30,12,24,94,94,80,80,12,17,7,6,0.3,0.4
2026-03-18T1700,3613A,87.3069,44.0093,昌吉回族自治州,亚心广场,NA,NA,34,42,13,24,NA,NA,77,77,10,17,10,10,0.3,0.5
2026-03-18T1700,4164A,87.2057,43.9289,昌吉回族自治州,财政所,颗粒物(PM10),55,56,47,27,24,81,81,73,73,16,11,10,8,0.5,0.4
2026-03-18T1700,1120A,125.2874,43.9024,长春市,客车厂,颗粒物(PM10),57,59,128,16,51,85,85,82,82,13,20,7,8,0.5,0.7
2026-03-18T1700,1121A,125.2943,43.8508,长春市,邮电学院,颗粒物(PM10),54,55,122,18,51,89,89,86,86,9,18,7,9,0.2,0.5
2026-03-18T1700,1122A,125.3648,43.8745,长春市,劳动公园,,47,47,114,16,45,90,90,87,87,14,18,7,9,0.1,0.3
2026-03-18T1700,1123A,125.3233,43.8781,长春市,园林处,,41,41,114,16,48,87,87,84,84,11,16,8,8,0.3,0.5
2026-03-18T1700,1124A,125.4604,43.7904,长春市,净月潭,,41,41,111,14,47,91,91,86,86,9,15,5,7,0.2,0.4
2026-03-18T1700,1126A,125.38,43.8422,长春市,经开区环卫处,,47,47,115,16,48,90,90,86,86,12,18,5,8,0.3,0.5
2026-03-18T1700,1127A,125.234,43.7761,长春市,高新区管委会,,41,41,109,14,43,89,89,84,84,9,18,7,8,0.2,0.6
2026-03-18T1700,1128A,125.1695,43.83,长春市,岱山公园,颗粒物(PM10),57,59,127,17,54,82,82,80,80,13,19,5,6,0.1,0.4
2026-03-18T1700,4281A,125.334645,43.916281,长春市,北亚泰大街1068号,颗粒物(PM10),59,62,130,17,58,77,77,75,75,15,21,6,8,0.2,0.4
2026-03-18T1700,1335A,113.082,28.2421,长沙市,经开区环保局,,28,24,18,19,11,67,67,59,59,16,17,3,3,0.5,0.6
2026-03-18T1700,1336A,112.8873,28.2202,长沙市,高开区环保局,,26,24,15,18,12,71,71,64,64,14,14,5,4,0.8,0.8
2026-03-18T1700,1337A,113.0785,28.2012,长沙市,马坡岭,,29,24,17,20,13,70,70,63,63,15,16,4,4,0.7,0.8
2026-03-18T1700,1338A,112.9448,28.1894,长沙市,湖南师范大学,,30,25,16,21,13,80,80,72,72,14,14,4,4,0.8,0.9
2026-03-18T1700,1339A,113.0177,28.1322,长沙市,雨花区环保局,,25,22,16,17,12,73,73,64,64,11,11,3,3,0.7,0.8
2026-03-18T1700,1340A,112.9795,28.2593,长沙市,伍家岭,,32,25,18,22,15,67,67,61,61,16,13,3,3,0.6,0.7
2026-03-18T1700,1341A,113.002,28.1944,长沙市,火车新站,,29,23,16,20,13,71,71,64,64,16,14,3,2,0.6,0.7
2026-03-18T1700,1342A,112.9846,28.1177,长沙市,天心区环保局,,32,26,18,22,16,76,76,66,66,23,22,5,5,0.7,0.8
2026-03-18T1700,1343A,112.8906,28.1307,长沙市,湖南中医药大学,,28,25,18,19,12,79,79,71,71,9,9,6,5,0.7,0.7
2026-03-18T1700,1727A,113.1146,36.1547,长治市,清华站,,35,19,52,3,23,110,110,92,92,11,19,7,8,0.3,0.5
2026-03-18T1700,1730A,113.0887,36.2126,长治市,审计局,,36,18,48,3,27,113,113,92,92,7,17,7,9,0.3,0.5
2026-03-18T1700,1731A,113.0845,36.1856,长治市,长治八中,NA,NA,NA,61,NA,28,110,110,91,91,7,14,NA,11,0.3,0.6
2026-03-18T1700,2845A,113.1561,36.1912,长治市,德盛苑,,37,22,52,3,27,118,118,100,100,12,15,11,10,0.4,0.6
2026-03-18T1700,3568A,113.0603,36.0464,长治市,向阳小学,,42,42,76,3,25,109,109,102,102,13,23,12,11,0.3,0.6
2026-03-18T1700,3569A,112.8788,36.315,长治市,屯留一中,,40,17,55,7,24,128,128,100,100,6,22,8,7,0.2,0.4
2026-03-18T1700,4189A,113.113092,36.199482,长治市,英华南巷50号,,37,24,58,8,27,117,117,96,96,16,19,10,10,0.3,0.6
2026-03-18T1700,4190A,113.23666,36.33435,长治市,学府街1号,,37,37,58,7,28,106,106,88,88,12,19,6,5,0.5,0.6
2026-03-18T1700,1854A,111.696,28.9725,常德市,市二中,,30,21,26,8,16,96,96,78,78,8,12,6,6,0.7,0.9
2026-03-18T1700,3138A,111.7152,29.0288,常德市,武陵区永安,,31,26,20,8,19,98,98,81,81,11,16,3,3,0.7,0.8
2026-03-18T1700,3139A,111.6891,28.9881,常德市,鼎城区玉霞,,31,23,22,8,18,97,97,80,80,12,16,7,6,0.6,0.9
2026-03-18T1700,3140A,111.6651,29.0526,常德市,武陵区长庚,NA,NA,24,20,8,19,98,98,79,79,NA,13,6,6,0.7,1
2026-03-18T1700,1196A,119.9524,31.7586,常州市,市监测站,,32,32,70,18,39,70,70,66,66,27,31,8,8,0.7,0.8
2026-03-18T1700,1200A,119.9351,31.703,常州市,武进监测站,,30,30,60,12,33,68,68,66,66,27,25,6,7,0.6,0.6
2026-03-18T1700,3002A,119.9701,31.813,常州市,行政中心,,38,38,60,14,36,67,67,60,60,34,38,6,5,0.5,0.5
2026-03-18T1700,3003A,120.0434,31.7726,常州市,经开区,,32,32,71,14,34,68,68,66,66,30,32,8,8,0.8,0.9
2026-03-18T1700,3010A,119.8919,31.7892,常州市,钟楼,,35,35,60,17,33,68,68,67,67,38,35,6,6,0.6,0.6
2026-03-18T1700,3429A,119.8595,31.706,常州市,武进经发区,,32,NA,43,22,36,70,70,67,67,30,29,6,6,0.8,0.8
2026-03-18T1700,3430A,119.5812,31.7256,常州市,金坛城区,NA,NA,NA,33,NA,36,79,79,74,74,19,20,6,7,0.6,0.6
2026-03-18T1700,4089A,119.9551,31.863,常州市,崇义南街5-H号,,34,34,50,18,35,59,59,63,63,28,31,5,4,0.6,0.7
2026-03-18T1700,2220A,120.4318,41.588,朝阳市,西梁,颗粒物(PM10),53,53,41,6,16,88,88,90,90,7,10,5,7,0.4,0.4
2026-03-18T1700,2221A,120.452,41.565,朝阳市,河畔小区,颗粒物(PM10),53,54,39,3,14,91,91,94,94,10,12,7,8,0.3,0.4
2026-03-18T1700,2222A,120.4176,41.5648,朝阳市,八里堡,,43,43,42,9,16,87,87,91,90,9,12,5,7,0.3,0.4
2026-03-18T1700,3026A,116.6179,23.6608,潮州市,市政府,,49,49,58,10,31,92,92,99,99,8,19,4,7,0.4,0.5
2026-03-18T1700,4036A,116.646,23.676,潮州市,金山,,42,42,44,14,25,101,101,100,100,7,13,3,4,0.4,0.5
2026-03-18T1700,2473A,113.0116,25.8228,郴州市,市职中,,20,6,40,3,29,63,63,36,36,13,17,2,3,0.7,0.8
2026-03-18T1700,2475A,113.0381,25.8074,郴州市,市审计局,,19,6,40,3,28,60,60,34,34,8,13,3,4,/,/
2026-03-18T1700,2476A,113.0348,25.7757,郴州市,市环保局,,20,16,52,3,30,63,63,34,34,10,19,4,6,0.4,0.5
2026-03-18T1700,4252A,113.0138,25.8011,郴州市,好美居路49号,,22,6,32,3,32,69,69,41,41,13,19,3,5,/,/
2026-03-18T1700,1431A,103.9727,30.7242,成都市,金泉两河,,46,46,28,15,16,88,88,73,73,16,18,3,2,0.2,0.3
2026-03-18T1700,1432A,104.1423,30.6765,成都市,十里店,颗粒物(PM10),54,55,31,19,17,82,82,67,67,16,19,4,4,0.3,0.5
2026-03-18T1700,1433A,104.0594,30.5765,成都市,三瓦窑,,48,48,33,20,20,84,84,62,62,11,23,2,2,0.4,0.7
2026-03-18T1700,1434A,104.1122,30.6306,成都市,沙河铺,颗粒物(PM10),56,58,35,20,18,81,81,64,64,21,29,3,4,0.2,0.4
2026-03-18T1700,2880A,104.0219,30.6561,成都市,大石西路,,42,42,34,18,19,85,85,67,67,17,23,2,2,0.4,0.6
2026-03-18T1700,3136A,104.2724,30.559,成都市,龙泉驿区区政府,颗粒物(PM10),53,53,32,22,17,82,82,68,68,20,21,6,6,0.4,0.5
2026-03-18T1700,3357A,104.0028,30.6891,成都市,金博路,,49,49,21,15,17,90,90,70,70,22,25,6,6,0.3,0.7
2026-03-18T1700,3359A,104.056,30.5228,成都市,华阳,颗粒物(PM10),55,56,34,20,18,92,92,66,66,16,27,4,3,0,0.6
2026-03-18T1700,3488A,104.387954,30.746684,成都市,青石路225号,颗粒物(PM10),53,54,35,24,15,82,82,73,73,21,21,5,5,0.3,0.4
2026-03-18T1700,3489A,104.0788,30.4054,成都市,科学城,,43,43,28,20,19,95,95,73,73,14,21,7,7,0.5,0.7
2026-03-18T1700,4011A,103.8505,30.6946,成都市,光华大道三段,,42,42,28,13,13,95,95,72,72,16,21,3,3,0.2,0.4
2026-03-18T1700,4144A,104.3257,30.6406,成都市,八角井街185号,颗粒物(PM10),63,68,42,22,14,73,73,56,56,16,20,4,4,0.5,0.6
2026-03-18T1700,4224A,104.2433276,30.53529463,成都市,鲸龙路1057号,,44,44,34,18,19,87,87,59,59,17,24,6,6,0.3,0.5
2026-03-18T1700,1062A,117.9531,40.908,承德市,铁路,,30,30,41,3,21,83,83,87,86,5,12,5,3,0.3,0.3
2026-03-18T1700,1063A,117.9397,40.9763,承德市,中国银行,,31,31,44,3,20,86,86,86,86,2,8,1,2,0.2,0.4
2026-03-18T1700,4073A,117.9462,40.95,承德市,杏林街1号,,29,29,40,8,25,89,89,88,88,3,7,3,4,0.1,0.3
2026-03-18T1700,4274A,117.7994,40.9605,承德市,滨河大街98号,NA,NA,NA,35,11,23,89,89,90,90,4,9,14,5,0.2,0.3
2026-03-18T1700,2314A,117.4698,30.6617,池州市,池州学院,,20,18,14,14,12,53,53,50,50,28,28,3,3,0.4,0.5
2026-03-18T1700,3237A,117.4918,30.6617,池州市,展览馆,,22,16,14,15,13,54,54,51,51,26,28,2,2,0.6,0.8
2026-03-18T1700,3333A,117.5626,30.695,池州市,第八中学,,19,16,16,13,12,49,49,45,45,27,29,3,3,0.6,0.8
2026-03-18T1700,3334A,117.5037,30.6242,池州市,第十二中学,NA,NA,NA,12,NA,11,52,52,49,49,24,30,3,3,NA,0.9
2026-03-18T1700,1744A,118.9229,42.2816,赤峰市,松山一中,,50,50,42,9,10,84,84,83,83,8,9,4,4,0.2,0.3
2026-03-18T1700,1745A,118.9588,42.2733,赤峰市,哈达街,颗粒物(PM10),57,59,42,8,6,74,74,75,75,10,12,8,9,0.5,0.5
2026-03-18T1700,1746A,118.8792,42.2551,赤峰市,天义路,,40,40,34,8,9,89,89,92,92,6,9,5,5,0.3,0.3
2026-03-18T1700,3058A,119.2656,42.0356,赤峰市,银河街,,49,49,68,7,12,87,87,87,87,5,7,6,9,0.2,0.3
2026-03-18T1700,3286A,118.9359,42.3146,赤峰市,桥北物流园区,,38,38,30,13,7,81,81,84,84,2,6,3,4,0.3,0.4
2026-03-18T1700,2521A,107.3473,22.4137,崇左市,市环保局江州分局,,38,38,48,25,27,80,80,76,76,7,12,5,6,0.7,0.8
2026-03-18T1700,4256A,107.375,22.3736,崇左市,石景林东路7号,,34,34,50,23,28,82,82,82,82,13,17,3,4,0.8,0.9
2026-03-18T1700,3207A,118.31131,32.3033,滁州市,市政府原办公楼,细颗粒物(PM2.5),60,NA,35,40,40,64,64,63,63,16,19,4,4,0.4,0.4
2026-03-18T1700,3331A,118.3268,32.2633,滁州市,图书馆,,40,37,37,28,31,62,62,62,62,20,23,7,8,0.5,0.5
2026-03-18T1700,4101A,118.3196,32.3335,滁州市,银山路666号,,46,NA,31,32,37,67,67,70,70,14,16,8,9,0.7,0.7
2026-03-18T1700,4102A,118.3426,32.2979,滁州市,黄山路555号,细颗粒物(PM2.5),60,50,50,40,37,68,68,69,69,17,20,5,6,0.8,0.7
2026-03-18T1700,2606A,101.5379,25.0492,楚雄彝族自治州,市经济开发区,,33,30,25,17,16,105,105,92,92,5,14,4,9,0.4,0.5
2026-03-18T1700,4153A,101.5536,25.0343,楚雄彝族自治州,团结路562号,,35,31,24,13,15,112,112,99,99,3,17,6,14,0.2,0.3
2026-03-18T1700,2549A,107.5087,31.2186,达州市,市环境监测站,,34,34,18,6,4,54,54,34,34,18,23,7,5,0.2,0.4
2026-03-18T1700,2550A,107.4988,31.2132,达州市,凤凰小区,,34,34,19,3,4,57,57,36,36,14,24,6,5,0.2,0.4
2026-03-18T1700,2551A,107.5081,31.1987,达州市,达县机关宾馆,,31,31,18,3,6,56,56,35,35,19,29,5,4,0.4,0.6
2026-03-18T1700,2552A,107.4644,31.2124,达州市,市政中心,NA,NA,34,25,3,4,60,60,36,36,NA,25,5,4,0.3,0.6
2026-03-18T1700,2614A,100.2168,25.5818,大理白族自治州,大理市环境监测站,,35,26,18,24,17,99,99,91,91,6,8,7,7,0.4,0.4
2026-03-18T1700,2615A,100.1542,25.7055,大理白族自治州,大理古城,,32,NA,28,22,17,100,100,108,98,5,4,6,8,0.5,0.5
2026-03-18T1700,1109A,121.6119,38.974,大连市,甘井子,,30,12,36,6,26,96,96,91,91,8,21,7,8,0.4,0.5
2026-03-18T1700,1110A,121.565,38.9509,大连市,周水子,,30,30,48,8,28,90,90,86,86,10,17,5,9,0.3,0.5
2026-03-18T1700,1111A,121.5637,38.8849,大连市,星海三站,NA,NA,53,46,22,30,NA,NA,68,68,12,17,9,6,0.5,0.6
2026-03-18T1700,1112A,121.6301,38.9117,大连市,青泥洼桥,,29,13,38,3,25,90,90,85,85,11,19,4,6,0.3,0.5
2026-03-18T1700,1113A,121.6248,38.8643,大连市,傅家庄,,29,14,35,3,24,92,92,87,87,11,21,5,6,0.4,0.5
2026-03-18T1700,1114A,121.5117,38.8636,大连市,七贤岭,,32,32,45,6,25,91,91,86,86,11,22,6,7,0.3,0.5
2026-03-18T1700,1116A,121.7507,39.1339,大连市,金州,,30,23,39,6,23,95,95,89,89,10,16,3,5,0.4,0.5
2026-03-18T1700,1117A,121.7811,39.0495,大连市,开发区,,30,25,50,3,27,95,95,89,89,11,29,7,8,0.2,0.3
2026-03-18T1700,1118A,121.9762,39.0631,大连市,双D港,,33,20,50,3,31,104,104,97,97,8,19,5,5,0.4,0.5
2026-03-18T1700,4082A,121.2548,38.8188,大连市,旅顺,,27,21,36,8,23,85,85,82,82,12,16,6,6,0.4,0.4
2026-03-18T1700,1789A,124.8085,46.0381,大庆市,大同区,颗粒物(PM10),96,114,163,25,47,90,90,91,91,6,12,10,11,0.5,0.7
2026-03-18T1700,1790A,125.1166,46.5255,大庆市,龙凤区,细颗粒物(PM2.5),107,108,141,67,69,94,94,87,87,16,18,2,5,0.6,0.5
2026-03-18T1700,1791A,124.8894,46.4007,大庆市,红岗区,细颗粒物(PM2.5),114,105,109,75,59,99,99,92,92,NA,15,8,4,0.7,0.9
2026-03-18T1700,1792A,125.1391,46.578,大庆市,萨尔图区,细颗粒物(PM2.5),106,118,141,66,65,94,94,89,89,14,16,6,7,0.6,0.6
2026-03-18T1700,1793A,124.9026,46.6217,大庆市,让胡路区,细颗粒物(PM2.5),108,112,115,68,71,96,96,90,90,14,12,6,6,0.6,0.6
2026-03-18T1700,3481A,125.127,46.6277,大庆市,萨区政府监测点,细颗粒物(PM2.5),108,126,156,68,80,96,96,92,92,8,11,8,9,0.3,0.4
2026-03-18T1700,1723A,113.2926,40.0759,大同市,云冈宾馆,颗粒物(PM10),83,95,55,48,17,103,103,88,88,22,10,13,6,0.7,0.6
2026-03-18T1700,1724A,113.3437,40.0921,大同市,大同大学,细颗粒物(PM2.5),66,57,72,43,14,114,114,95,95,22,13,11,4,0.5,0.5
2026-03-18T1700,1725A,113.2637,40.129,大同市,安家小村,NA,NA,NA,84,NA,16,NA,NA,76,NA,NA,20,NA,11,NA,0.5
2026-03-18T1700,3282A,113.3399,40.0586,大同市,大同市卫生学校,颗粒物(PM10),80,92,70,43,14,113,113,92,92,22,10,13,4,0.4,0.5
2026-03-18T1700,3565A,113.1371,40.1122,大同市,云冈站,颗粒物(PM10),55,57,54,25,12,97,97,88,88,13,6,12,7,0.6,0.6
2026-03-18T1700,3566A,113.1186,40.2556,大同市,图书馆,,32,16,57,14,12,101,101,93,93,6,8,3,5,0.4,0.5
2026-03-18T1700,3567A,113.5931,40.0459,大同市,区一中,细颗粒物(PM2.5),54,52,72,37,18,112,112,99,99,16,11,19,9,0.4,0.3
2026-03-18T1700,4199A,113.2798248,40.09972476,大同市,魏都大道141号,细颗粒物(PM2.5),74,66,76,47,15,102,102,89,89,22,10,14,8,0.6,0.6
2026-03-18T1700,2269A,124.1068,50.4091,大兴安岭地区,科技局,,24,22,29,11,12,75,75,76,76,2,3,6,6,0.3,0.3
2026-03-18T1700,3663A,124.117,50.4279,大兴安岭地区,红旗社区,,25,17,22,10,15,80,80,82,80,4,4,8,9,0.3,0.3
2026-03-18T1700,1600A,124.33,40.0625,丹东市,江湾东路,,31,23,98,3,76,98,98,92,92,11,26,7,10,0.4,1.2
2026-03-18T1700,1601A,124.4242,40.1513,丹东市,临江后街,,29,19,102,3,69,92,92,85,85,9,19,7,12,0.3,1
2026-03-18T1700,1602A,124.3935,40.1461,丹东市,元宝山,,29,18,102,3,70,91,91,82,82,8,27,5,11,0.3,0.9
2026-03-18T1700,1603A,124.3634,40.1093,丹东市,民主桥,,30,14,99,3,72,93,93,88,88,16,36,4,8,0.3,0.9
2026-03-18T1700,3541A,109.5726195,19.51688767,儋州市,第一中学子站,NA,NA,26,30,11,14,70,70,66,66,NA,5,6,7,0.3,0.4
2026-03-18T1700,3542A,109.5567,19.5187,儋州市,东坡学校子站,,25,17,30,11,16,79,79,72,72,3,7,5,7,0.2,0.3
2026-03-18T1700,2616A,98.5611,24.4273,德宏傣族景颇族自治州,德宏州监测站,NA,NA,NA,25,31,20,104,104,71,71,7,12,5,4,0.5,0.5
2026-03-18T1700,3677A,98.5887,24.4366,德宏傣族景颇族自治州,芒市人民政府综合楼,颗粒物(PM10),56,58,40,33,20,96,96,67,67,10,10,9,8,0.5,0.6
2026-03-18T1700,1901A,104.424,31.1209,德阳市,东山公园,颗粒物(PM10),52,52,29,19,14,93,93,77,77,12,17,3,4,0.3,0.4
2026-03-18T1700,1902A,104.3827,31.1318,德阳市,西小区,颗粒物(PM10),56,58,39,17,17,94,94,72,72,11,20,5,7,0.4,0.6
2026-03-18T1700,1904A,104.3553,31.1091,德阳市,耐火材料厂,颗粒物(PM10),58,61,34,18,19,97,97,75,75,11,21,1,3,0.2,0.4
2026-03-18T1700,4145A,104.4144,31.1495,德阳市,市林业局,颗粒物(PM10),57,59,36,16,16,96,96,78,78,5,22,5,9,0.2,0.4
2026-03-18T1700,1622A,116.3034,37.4675,德州市,儿童乐园,,28,27,81,7,56,87,87,75,75,12,19,10,10,0.4,0.6
2026-03-18T1700,1624A,116.2992,37.4449,德州市,监理站,,29,27,87,6,55,92,92,80,80,11,22,5,7,0.4,0.6
2026-03-18T1700,3066A,116.2722,37.438,德州市,九衢泉纯净水厂,,28,22,81,7,56,89,89,79,79,14,30,3,4,0.3,0.7
2026-03-18T1700,3371A,116.3693,37.44,德州市,开发区人民医院,,27,22,80,6,57,84,84,72,72,13,19,6,6,0.5,0.6
2026-03-18T1700,3511A,116.5687,37.3331,德州市,陵城艺术中心,,26,19,77,8,62,83,83,72,72,8,15,4,3,0.4,0.6
2026-03-18T1700,4292A,116.352738,37.420875,德州市,新河东路,,27,22,80,6,53,86,86,74,74,12,20,8,8,0.7,0.7
2026-03-18T1700,2621A,99.7054,27.8319,迪庆藏族自治州,迪庆州站,,32,21,19,3,12,102,102,95,93,9,7,8,8,0.5,0.5
2026-03-18T1700,3180A,99.7122,27.8129,迪庆藏族自治州,质量技术监督局,,32,15,17,9,10,100,100,93,92,8,7,6,5,0.6,0.6
2026-03-18T1700,4257A,104.6092,35.5962,定西市,将台街,颗粒物(PM10),85,98,107,34,32,113,113,98,98,3,10,8,8,0.2,0.3
2026-03-18T1700,4309A,104.6159,35.5701,定西市,正龙路62号,颗粒物(PM10),83,95,108,35,29,104,104,91,91,6,9,4,4,0.2,0.3
2026-03-18T1700,4071A,114.9883,38.5232,定州市,交通局,,32,11,71,8,39,100,100,96,96,9,17,10,12,0.4,0.7
2026-03-18T1700,4072A,115.0045,38.5136,定州市,第五中学,,32,32,83,6,39,99,99,94,94,10,17,7,9,0.3,0.6
2026-03-18T1700,1390A,113.7943,23.0132,东莞市,东城石井,,34,15,32,7,17,106,106,105,105,11,28,4,4,0.4,0.5
2026-03-18T1700,1391A,113.7384,22.9659,东莞市,南城西平,,29,15,38,3,19,91,91,91,91,11,38,5,6,0.4,0.5
2026-03-18T1700,3319A,113.7283,23.041,东莞市,万江金泰,,34,20,38,12,20,107,107,99,99,18,24,6,5,0.4,0.6
2026-03-18T1700,4129A,113.8666,23.1062,东莞市,裕兴路,,33,10,30,3,20,105,105,119,119,10,25,6,7,0.5,0.6
2026-03-18T1700,4130A,114.0076,22.9739,东莞市,教育路1号,,34,23,45,7,21,108,108,108,108,16,30,5,5,0.3,0.3
2026-03-18T1700,4131A,113.7981,22.8124,东莞市,长怡路1号,,26,18,46,3,20,81,81,81,81,14,36,4,5,0.4,0.6
2026-03-18T1700,1666A,118.6612,37.4313,东营市,市环保局,,30,19,48,3,29,95,95,87,87,10,16,8,12,0.3,0.5
2026-03-18T1700,3036A,118.6903,37.4337,东营市,开发区管委会,NA,NA,19,51,3,27,94,94,89,89,13,24,NA,10,0.4,0.7
2026-03-18T1700,3365A,118.5721,37.5654,东营市,垦利区民丰路,,33,17,47,3,30,105,105,93,93,7,17,9,12,0.5,0.7
2026-03-18T1700,3498A,118.5063,37.8606,东营市,河口城区,,33,22,61,3,37,105,105,97,97,7,15,7,10,0.4,0.6
2026-03-18T1700,3646A,118.4979,37.4623,东营市,胜利站,,32,32,58,3,27,93,93,83,83,6,16,8,9,0.5,0.7
2026-03-18T1700,3734A,118.5753,37.4405,东营市,理想之城,,32,22,54,3,28,100,100,90,90,11,19,5,6,0.5,0.7
2026-03-18T1700,1591A,110.0024,39.8127,鄂尔多斯市,综合楼,,31,31,90,9,15,95,95,86,86,10,11,6,7,0.2,0.3
2026-03-18T1700,1592A,109.9485,39.8259,鄂尔多斯市,巴音孟克林场办事处,,33,9,88,6,13,103,103,91,91,4,13,4,6,0.3,0.3
2026-03-18T1700,1593A,109.7734,39.5987,鄂尔多斯市,康泽苑,,34,7,85,3,12,107,107,93,93,5,8,6,7,0.3,0.3
2026-03-18T1700,1594A,109.8121,39.5987,鄂尔多斯市,华泰汽车城,,34,17,89,6,15,108,108,98,94,5,9,4,7,0.2,0.3
2026-03-18T1700,1595A,109.9734,39.7884,鄂尔多斯市,奥林花园,NA,NA,NA,94,NA,17,NA,NA,92,87,NA,15,NA,7,NA,0.3
2026-03-18T1700,2436A,114.894,30.3989,鄂州市,市政府,,37,37,16,25,8,71,71,58,58,18,21,6,7,0.4,0.6
2026-03-18T1700,2437A,114.8986,30.3714,鄂州市,赵家坝,,31,31,19,17,9,87,87,71,71,12,12,8,10,0.7,1.1
2026-03-18T1700,3654A,114.8093,30.4091,鄂州市,精准医疗中心,,39,30,16,27,9,90,90,72,72,10,15,5,10,0.8,0.8
2026-03-18T1700,2454A,109.4978,30.2979,恩施土家族苗族自治州,湖北民院,NA,NA,16,18,8,10,43,43,45,44,12,13,NA,6,0.7,0.8
2026-03-18T1700,3549A,109.5061,30.3771,恩施土家族苗族自治州,龙凤新区,,13,13,13,3,7,41,41,46,46,14,6,7,7,0.6,0.6
2026-03-18T1700,2499A,108.3411,21.6159,防城港市,沙万,NA,NA,70,53,16,16,66,66,62,62,24,23,NA,6,0.6,0.7
2026-03-18T1700,2500A,108.3515,21.7733,防城港市,防城档案局,,47,47,39,14,20,67,67,59,59,14,10,7,7,0.6,0.5
2026-03-18T1700,2501A,108.3506,21.6414,防城港市,大海花园,颗粒物(PM10),58,60,38,19,19,69,69,70,70,22,24,8,9,0.3,0.5
2026-03-18T1700,1371A,113.1293,23.0065,佛山市,湾梁,,41,29,31,12,19,130,130,108,108,11,25,/,/,/,/
2026-03-18T1700,1372A,113.1082,23.0477,佛山市,华材职中,,41,41,35,16,18,128,128,103,103,18,25,6,7,0.2,0.3
2026-03-18T1700,1373A,113.1439,23.045,佛山市,南海气象局,,40,33,35,12,21,128,128,107,107,12,28,/,/,/,/
2026-03-18T1700,1374A,113.2879,22.8094,佛山市,顺德苏岗,,36,27,33,11,17,113,113,108,108,11,23,/,/,0.3,0.4
2026-03-18T1700,1376A,112.8384,22.8678,佛山市,高明孔堂,NA,NA,25,26,16,12,104,104,89,89,NA,5,/,/,/,/
2026-03-18T1700,1377A,112.8835,23.1584,佛山市,三水监测站,,30,22,36,13,20,96,96,88,88,19,26,5,5,0.4,0.4
2026-03-18T1700,1378A,112.8668,23.185,佛山市,三水云东海,,34,34,52,13,20,105,105,96,96,14,22,/,/,/,/
2026-03-18T1700,3625A,113.2568,22.7629,佛山市,容桂街道办,,33,27,28,12,17,103,103,97,97,14,24,/,/,/,/
2026-03-18T1700,1282A,119.2681,26.0506,福州市,师大,臭氧1小时(O3_1h),77,82,49,27,29,181,181,140,140,21,16,6,4,0.3,0.3
2026-03-18T1700,1283A,119.2983,26.1028,福州市,五四北路,臭氧1小时(O3_1h),82,82,43,34,29,185,185,135,135,21,18,6,4,0.4,0.4
2026-03-18T1700,1284A,119.2648,26.0769,福州市,杨桥西路,臭氧1小时(O3_1h),87,84,45,32,30,189,189,141,141,21,16,6,4,/,/
2026-03-18T1700,3048A,119.5799,26.0937,福州市,九龙,臭氧1小时(O3_1h),68,68,39,33,29,174,174,134,134,18,14,6,5,0.3,0.3
2026-03-18T1700,3526A,119.5188,25.9666,福州市,吴航,臭氧1小时(O3_1h),53,34,43,18,28,162,162,130,130,17,16,7,5,0.5,0.6
2026-03-18T1700,4104A,119.3106,26.0648,福州市,路通桥巷6号,臭氧1小时(O3_1h),73,59,47,35,30,178,178,136,136,16,13,/,/,/,/
2026-03-18T1700,1755A,123.7974,41.8494,抚顺市,望花区,,30,8,101,7,51,93,93,92,92,15,23,11,17,0.9,0.9
2026-03-18T1700,1756A,123.9161,41.8827,抚顺市,顺城区,,30,16,90,3,53,95,95,91,91,12,24,8,14,0.4,0.8
2026-03-18T1700,1757A,124.0437,41.8615,抚顺市,东洲区,,30,19,119,3,64,93,93,90,90,11,21,7,11,0.4,0.8
2026-03-18T1700,1758A,123.9246,41.8638,抚顺市,新抚区,,31,24,118,3,55,97,97,91,91,11,22,8,12,0.4,0.8
2026-03-18T1700,1759A,124.0972,41.8961,抚顺市,大伙房水库,,31,21,117,3,60,97,97,95,95,8,19,10,14,0.3,0.7
2026-03-18T1700,1760A,123.708,41.8386,抚顺市,沈抚新城,,29,14,91,3,45,92,92,90,90,14,22,6,10,0.4,0.6
2026-03-18T1700,2377A,116.3544,27.9833,抚州市,市站,,13,9,30,3,24,40,40,44,44,14,14,6,10,1.3,1.3
2026-03-18T1700,2378A,116.3562,27.9631,抚州市,血防站,NA,NA,NA,34,NA,23,38,38,42,42,6,7,3,4,0.8,1
2026-03-18T1700,2379A,116.3561,28.0007,抚州市,采茶剧团,,12,9,33,3,22,37,37,43,43,11,12,9,14,0.8,0.8
2026-03-18T1700,2380A,116.3854,27.9648,抚州市,医学分院,,20,20,39,3,20,43,43,46,46,11,12,5,10,1.2,1.2
2026-03-18T1700,2207A,121.6095,41.9978,阜新市,工业园区,颗粒物(PM10),71,79,57,3,20,94,94,99,99,7,10,7,8,0.3,0.4
2026-03-18T1700,2208A,121.6567,42.0188,阜新市,长青街,颗粒物(PM10),53,54,49,3,20,88,88,93,93,7,10,6,8,0.4,0.5
2026-03-18T1700,2209A,121.6672,42.07,阜新市,农业园区,颗粒物(PM10),60,64,59,3,18,90,90,93,93,8,11,4,5,0.2,0.4
2026-03-18T1700,2211A,121.6343,42.0455,阜新市,玉龙新城,颗粒物(PM10),60,64,59,3,19,90,90,97,96,5,10,4,6,0.3,0.4
2026-03-18T1700,2301A,115.8276,32.8929,阜阳市,市监测站,细颗粒物(PM2.5),98,92,64,59,42,74,74,74,74,13,15,5,4,0.6,0.5
2026-03-18T1700,2303A,115.8551,32.8606,阜阳市,开发区,细颗粒物(PM2.5),101,91,62,61,39,75,75,74,74,13,15,4,4,0.6,0.6
2026-03-18T1700,2875A,115.783962,32.889217,阜阳市,阜阳职业技术学院,细颗粒物(PM2.5),88,74,51,54,27,78,78,79,79,13,14,6,6,0.7,0.6
2026-03-18T1700,3468A,115.79,32.8614,阜阳市,市规划展馆,细颗粒物(PM2.5),96,74,57,58,41,81,81,78,78,11,12,6,6,0.7,0.6
2026-03-18T1700,3469A,115.835101,32.918568,阜阳市,枣园社区,细颗粒物(PM2.5),106,66,53,66,45,72,72,74,74,11,13,4,6,0.5,0.6
2026-03-18T1700,2669A,102.9097,34.9841,甘南藏族自治州,州政府,,32,17,39,11,17,102,102,109,100,2,4,7,4,0.3,0.3
2026-03-18T1700,3380A,102.8915,34.9618,甘南藏族自治州,甘肃民族师范学院,,36,26,42,24,18,115,115,105,105,1,4,3,3,0.4,0.4
2026-03-18T1700,2570A,101.96,30.048,甘孜藏族自治州,水桥子,NA,NA,15,11,3,2,62,62,59,59,NA,8,4,3,0.7,0.6
2026-03-18T1700,3065A,101.9534,29.9976,甘孜藏族自治州,州环保局,,29,14,5,3,3,90,90,74,73,19,12,6,6,0.5,0.5
2026-03-18T1700,2363A,114.9368,25.8663,赣州市,地委,细颗粒物(PM2.5),62,42,32,41,18,34,34,79,75,19,15,4,6,1.5,0.8
2026-03-18T1700,2364A,114.946,25.8483,赣州市,气象台,细颗粒物(PM2.5),72,55,34,46,21,53,53,94,91,20,13,6,7,1.0,0.5
2026-03-18T1700,2365A,114.932,25.8332,赣州市,市图书馆,细颗粒物(PM2.5),78,58,35,49,17,55,55,80,79,16,12,4,5,1.1,0.5
2026-03-18T1700,2366A,114.8905,25.8472,赣州市,华坚鞋城,颗粒物(PM10),53,54,37,31,19,40,40,84,80,21,15,4,8,1.0,0.4
2026-03-18T1700,3109A,115.0094,25.8614,赣州市,赣县区卫计委,细颗粒物(PM2.5),64,62,38,42,19,52,52,77,77,17,17,3,3,0.8,0.6
2026-03-18T1700,2684A,106.2753,36.0057,固原市,监测站,颗粒物(PM10),102,123,168,37,36,90,90,78,78,5,9,9,9,0.2,0.4
2026-03-18T1700,2685A,106.2384,36.0189,固原市,新区,颗粒物(PM10),114,156,157,36,34,88,88,78,78,5,9,7,8,0.2,0.2
2026-03-18T1700,2544A,106.6307,30.4577,广安市,市委,,21,21,16,12,10,65,65,54,54,14,16,6,5,0.7,0.7
2026-03-18T1700,2545A,106.6266,30.4662,广安市,友谊中学,NA,NA,17,15,8,8,70,70,58,58,NA,16,NA,5,0.7,0.8
2026-03-18T1700,2547A,106.6386,30.4551,广安市,广电花园,,21,15,19,10,11,65,65,53,53,14,18,8,8,0.7,0.8
2026-03-18T1700,2902A,106.6347,30.4868,广安市,北辰小学,,24,24,16,10,10,63,63,53,53,12,14,5,4,0.8,0.8
2026-03-18T1700,2524A,105.8211,32.4444,广元市,老城,颗粒物(PM10),56,58,48,14,14,104,104,101,101,6,14,5,5,0.3,0.3
2026-03-18T1700,2526A,105.8629,32.429,广元市,监测站,颗粒物(PM10),55,56,52,11,14,100,100,92,92,6,11,6,3,0.2,0.3
2026-03-18T1700,3617A,105.8047,32.4167,广元市,经开区,颗粒物(PM10),55,57,50,18,20,96,96,87,87,7,14,4,3,0.2,0.3
2026-03-18T1700,1345A,113.2346,23.1423,广州市,广雅中学,,35,24,35,10,15,110,110,99,99,12,35,3,3,0.5,0.5
2026-03-18T1700,1346A,113.2611,23.105,广州市,市五中,,40,25,39,12,19,125,125,117,117,14,37,6,7,/,/
2026-03-18T1700,1348A,113.3477,23.0916,广州市,广东商学院,,38,25,36,12,22,120,120,103,103,15,42,5,6,0.5,0.7
2026-03-18T1700,1349A,113.4332,23.105,广州市,市八十六中,,26,21,31,11,14,75,75,96,96,51,53,4,5,/,/
2026-03-18T1700,1350A,113.3506,22.9488,广州市,番禺中学,,38,20,50,8,10,121,121,112,112,9,33,3,3,0.4,0.5
2026-03-18T1700,1351A,113.2147,23.3918,广州市,花都师范,,45,28,44,14,22,141,141,102,102,14,40,6,6,0.5,0.6
2026-03-18T1700,1352A,113.2599,23.1329,广州市,市监测站,,35,25,37,10,17,110,110,102,102,12,36,1,2,/,/
2026-03-18T1700,1353A,113.5618,23.3119,广州市,九龙镇镇龙,,40,31,45,15,24,128,128,109,109,16,31,6,6,0.3,0.4
2026-03-18T1700,1354A,113.2764,23.1544,广州市,麓湖,,39,26,36,11,17,124,124,114,114,7,30,3,4,0.4,0.5
2026-03-18T1700,2846A,113.3209,23.1323,广州市,体育西,,40,26,38,12,15,127,127,112,112,15,43,6,7,0.5,0.6
2026-03-18T1700,3298A,113.5718,23.5493,广州市,从化街口,,49,34,40,18,20,154,154,116,116,14,23,5,6,0.6,0.6
2026-03-18T1700,3299A,113.3463,23.369,广州市,白云竹料,臭氧1小时(O3_1h),62,46,46,18,21,169,169,123,123,19,33,4,4,0.5,0.6
2026-03-18T1700,3300A,113.2981,23.2365,广州市,白云嘉禾,,44,32,42,14,20,139,139,119,119,17,45,7,7,/,/
2026-03-18T1700,3301A,113.4256,23.1716,广州市,黄埔科学城,,50,31,40,15,20,158,158,121,121,15,35,7,8,0.4,0.5
2026-03-18T1700,3302A,113.3942,23.0485,广州市,番禺大学城,,44,31,41,8,17,140,140,124,124,17,38,7,8,0.4,0.4
2026-03-18T1700,3303A,113.4923,22.8169,广州市,南沙黄阁,NA,NA,24,36,12,18,101,101,91,91,14,44,NA,7,/,/
2026-03-18T1700,3304A,113.534,22.7893,广州市,南沙街,,36,36,34,8,19,84,84,81,81,8,35,6,7,0.4,0.5
2026-03-18T1700,3443A,113.2905,23.5541,广州市,花都梯面,,45,34,39,16,20,143,143,98,98,17,24,6,6,/,/
2026-03-18T1700,3445A,113.786,23.7479,广州市,从化良口,,50,34,19,19,9,160,160,114,114,15,18,5,4,/,/
2026-03-18T1700,3446A,113.805,23.2614,广州市,增城荔城,,39,25,38,14,22,122,122,133,133,14,28,5,5,0.3,0.4
2026-03-18T1700,2506A,109.604387,23.066791,贵港市,江南子站,,41,41,55,16,29,88,88,74,74,4,15,6,7,0.5,0.6
2026-03-18T1700,2508A,109.5669,23.1065,贵港市,荷城子站,NA,NA,34,48,22,26,92,92,73,73,8,18,7,9,NA,0.6
2026-03-18T1700,3405A,109.5886,23.1172,贵港市,新世纪学校,,49,44,52,34,28,96,96,70,70,10,20,/,/,0.4,0.5
2026-03-18T1700,4260A,109.5933,23.095,贵港市,中山路155-3号,,42,42,59,18,31,88,88,68,68,9,16,/,/,0.4,0.5
2026-03-18T1700,1439A,106.6863,26.6035,贵阳市,马鞍山,,22,19,19,15,15,66,66,57,57,8,9,6,5,/,/
2026-03-18T1700,1441A,106.6241,26.6266,贵阳市,鉴湖路,,36,36,24,18,13,63,63,63,63,12,11,5,4,0.3,0.4
2026-03-18T1700,1442A,106.7468,26.6344,贵阳市,燕子冲,,22,22,19,12,12,65,65,56,56,9,10,7,7,0.8,1
2026-03-18T1700,1443A,106.6556,26.4362,贵阳市,碧云窝,,27,27,24,16,12,82,82,66,66,12,13,7,7,/,/
2026-03-18T1700,1445A,106.6963,26.6063,贵阳市,红边门,,27,27,24,17,12,68,68,60,60,11,13,9,8,/,/
2026-03-18T1700,1446A,106.7162383,26.56964667,贵阳市,新华路,,39,39,28,13,12,67,67,63,63,12,13,10,8,0.4,0.5
2026-03-18T1700,1447A,106.6742,26.542,贵阳市,太慈桥,NA,NA,19,17,9,12,76,76,63,63,NA,14,NA,4,/,/
2026-03-18T1700,4230A,106.688212,26.56952,贵阳市,花果园大街66号,,27,27,18,15,15,60,60,52,52,11,11,3,3,/,/
2026-03-18T1700,4231A,106.687268,26.516892,贵阳市,漓江路57号,,25,NA,15,17,12,75,75,63,63,11,14,8,8,0.7,0.8
2026-03-18T1700,1864A,110.3091,25.2705,桂林市,龙隐路小学,,13,NA,66,3,58,40,40,30,30,16,34,3,9,0.8,0.9
2026-03-18T1700,1865A,110.2849361,25.22909545,桂林市,八中,NA,NA,6,69,3,37,38,38,26,26,NA,40,3,11,NA,1.3
2026-03-18T1700,3531A,110.296,25.1254,桂林市,旅游学院,,20,20,86,3,66,52,52,30,30,12,39,5,10,0.8,1
2026-03-18T1700,4222A,110.1835,25.2444,桂林市,环湖路276号,,12,9,90,7,76,37,37,24,24,13,40,4,32,1.0,1.3
2026-03-18T1700,4301A,110.2803,25.2773,桂林市,信义路13号,,15,15,76,3,58,37,37,26,26,14,39,3,12,1.2,1.4
2026-03-18T1700,2674A,100.2262,34.4854,果洛藏族自治州,玛沁县大武镇,,38,25,35,7,21,119,119,109,109,1,3,2,11,0.2,0.4
2026-03-18T1700,1130A,126.5557,45.8109,哈尔滨市,松北商大,颗粒物(PM10),162,274,212,96,101,99,99,96,96,9,20,2,7,0.4,0.6
2026-03-18T1700,1132A,126.6162,45.719,哈尔滨市,南岗学府路,颗粒物(PM10),192,334,251,104,80,104,104,97,97,15,24,9,13,0.3,0.5
2026-03-18T1700,1133A,126.6894,45.7733,哈尔滨市,太平宏伟公园,颗粒物(PM10),189,327,233,108,77,106,106,97,97,12,24,7,13,0.7,0.9
2026-03-18T1700,1134A,126.6361,45.7672,哈尔滨市,道外承德广场,颗粒物(PM10),500,606,321,107,95,107,107,100,100,15,27,8,14,1.1,1.2
2026-03-18T1700,1136A,126.644,45.7261,哈尔滨市,动力和平路,颗粒物(PM10),206,354,254,127,81,100,100,94,94,14,22,8,15,0.9,1.1
2026-03-18T1700,1137A,126.5933,45.7479,哈尔滨市,道里建国路,颗粒物(PM10),161,271,207,94,86,99,99,94,94,19,28,8,16,0.3,0.5
2026-03-18T1700,1138A,126.6127,45.6119,哈尔滨市,平房东轻厂,细颗粒物(PM2.5),120,119,159,82,72,71,71,71,71,40,56,18,27,0.6,1
2026-03-18T1700,1139A,126.5875,45.9827,哈尔滨市,呼兰师专,颗粒物(PM10),160,270,230,73,70,84,84,83,83,10,24,8,12,0.2,0.6
2026-03-18T1700,1140A,126.6299,45.6799,哈尔滨市,省农科院,颗粒物(PM10),206,354,289,105,74,91,91,90,90,16,28,10,13,0.7,1.1
2026-03-18T1700,4282A,126.6769,45.7379,哈尔滨市,华山路1号,颗粒物(PM10),226,368,252,93,66,100,100,92,92,16,25,4,11,0.9,1.1
2026-03-18T1700,4283A,126.9717,45.5356,哈尔滨市,解放大街52号,颗粒物(PM10),103,126,185,48,71,99,99,94,94,11,21,3,9,NA,0.3
2026-03-18T1700,2688A,93.5124,42.8176,哈密市,地区监测站,,40,40,25,8,9,84,84,69,69,4,12,5,5,0.1,0.2
2026-03-18T1700,2689A,93.5014,42.8312,哈密市,哈密师范学校,NA,NA,33,28,3,12,NA,NA,69,69,4,24,6,7,0.1,0.3
2026-03-18T1700,2671A,100.9016,36.9464,海北藏族自治州,海晏县西海镇,,38,NA,55,26,32,94,94,89,89,2,4,6,7,0.6,0.6
2026-03-18T1700,3867A,102.074,36.5056,海东市,平安区公安局北苑,NA,NA,NA,95,NA,38,109,109,95,95,3,11,8,15,0.6,0.9
2026-03-18T1700,4163A,102.0984,36.5119,海东市,滨河路,颗粒物(PM10),71,79,94,37,38,94,94,82,82,11,26,7,14,0.6,1
2026-03-18T1700,1410A,110.3189,20.0596,海口市,海南大学,,26,21,28,9,12,82,82,73,73,4,8,5,6,0.3,0.3
2026-03-18T1700,1411A,110.2827,20.0051,海口市,秀英海南医院,,23,23,23,8,11,73,73,67,67,4,12,8,8,0.2,0.3
2026-03-18T1700,1412A,110.3391,19.9979,海口市,海南师范大学,,26,26,29,10,13,80,80,72,72,4,9,6,6,0.4,0.4
2026-03-18T1700,1413A,110.3303,20.0359,海口市,龙华路环保局宿舍,,27,26,36,10,14,84,84,73,73,5,9,/,/,0.5,0.2
2026-03-18T1700,3539A,110.5111,19.9737,海口市,桂林洋子站,,28,28,29,13,13,70,70,73,73,17,11,/,/,/,/
2026-03-18T1700,4134A,110.1952,20.0451,海口市,长滨二路9号,,25,18,24,9,13,78,78,71,71,4,7,/,/,/,/
2026-03-18T1700,2673A,100.6158,36.2985,海南藏族自治州,共和县恰卜恰镇,,44,44,47,24,27,107,107,104,104,3,5,12,11,0.3,0.3
2026-03-18T1700,2676A,97.373,37.376,海西蒙古族藏族自治州,德令哈市,,46,40,41,30,21,146,146,139,139,2,3,11,13,0.4,0.4
2026-03-18T1700,1049A,114.492,36.5712,邯郸市,矿院,,40,40,64,10,36,94,94,88,88,6,12,1,2,0.2,0.5
2026-03-18T1700,1050A,114.4839,36.6136,邯郸市,丛台公园,,30,28,69,16,42,94,94,86,86,6,12,3,3,0.3,0.5
2026-03-18T1700,3458A,114.7893,36.5592,邯郸市,香泉濮院小区,,36,36,75,3,30,92,92,84,84,6,10,3,2,0.3,0.5
2026-03-18T1700,3580A,114.1998,36.4439,邯郸市,峰峰矿区临水派出所,,34,34,66,12,37,97,97,89,89,2,8,3,5,0.6,0.7
2026-03-18T1700,4068A,114.5209,36.7697,邯郸市,建安街268号,,42,42,71,8,44,98,98,88,88,7,14,1,2,0.3,0.5
2026-03-18T1700,4069A,114.5488,36.6177,邯郸市,丛台东路558号,,31,31,56,3,36,95,95,86,86,2,12,3,2,0.3,0.5
2026-03-18T1700,2635A,107.0155,33.0707,汉中市,市监测站,颗粒物(PM10),58,61,32,14,16,92,92,72,72,8,16,6,7,0.4,0.8
2026-03-18T1700,2636A,107.0083,33.114,汉中市,鑫源开发区,颗粒物(PM10),55,57,30,8,10,98,98,76,76,6,18,4,4,0.2,0.5
2026-03-18T1700,2637A,107.0072,33.0323,汉中市,南郑大河坎水厂,颗粒物(PM10),60,64,33,16,15,95,95,82,82,7,19,4,4,0.3,0.8
2026-03-18T1700,1223A,120.2073,30.2111,杭州市,滨江,,15,15,63,9,38,28,28,21,21,29,43,7,7,0.9,1.1
2026-03-18T1700,1224A,120.0625,30.2737,杭州市,西溪,,21,21,61,8,37,26,26,20,20,24,34,8,8,1.2,1
2026-03-18T1700,1226A,120.3417,30.315,杭州市,下沙,,27,27,71,15,37,53,53,28,28,21,39,7,7,0.6,0.8
2026-03-18T1700,1227A,120.1252,30.2465,杭州市,卧龙桥,,13,11,58,9,38,31,31,23,23,24,36,7,7,0.7,0.6
2026-03-18T1700,1228A,120.1902,30.2691,杭州市,浙江农大,,16,11,42,8,39,32,32,24,24,32,47,6,6,1.0,0.9
2026-03-18T1700,1230A,120.1195,30.3121,杭州市,和睦小学,,22,22,76,10,40,31,31,22,22,22,39,5,6,1.0,0.9
2026-03-18T1700,1231A,120.3076,30.4146,杭州市,临平镇,,29,23,52,20,35,64,64,35,35,17,32,6,6,0.8,0.8
2026-03-18T1700,1232A,120.2753,30.1839,杭州市,城厢镇,,23,23,51,10,41,31,31,24,24,23,32,8,8,1.0,0.9
2026-03-18T1700,1233A,120.0883,30.1808,杭州市,云栖,,20,20,54,6,35,25,25,21,21,27,33,5,5,0.9,0.9
2026-03-18T1700,3557A,119.9463,30.0496,杭州市,镇二中,,17,NA,41,9,44,17,17,12,12,33,37,4,4,1.2,0.9
2026-03-18T1700,3558A,119.7184,30.2367,杭州市,市府大楼,,10,6,33,3,34,17,17,12,12,19,28,6,6,0.8,0.6
2026-03-18T1700,3656A,120.1554,30.2863,杭州市,消防大队,,18,17,72,12,41,27,27,22,22,28,39,6,7,1.0,0.9
2026-03-18T1700,1270A,117.1957,31.7845,合肥市,明珠广场,细颗粒物(PM2.5),54,53,35,37,27,72,72,52,52,14,19,5,5,0.9,1.1
2026-03-18T1700,1271A,117.307,31.8765,合肥市,三里街,细颗粒物(PM2.5),58,51,35,39,30,61,61,54,54,27,27,5,5,0.7,0.8
2026-03-18T1700,1272A,117.2587,31.8703,合肥市,琥珀山庄,细颗粒物(PM2.5),62,46,35,41,31,70,70,57,57,26,27,6,6,0.7,0.8
2026-03-18T1700,1275A,117.2593,31.9376,合肥市,庐阳区,颗粒物(PM10),51,51,38,34,25,69,69,58,58,21,21,4,4,0.8,0.9
2026-03-18T1700,1276A,117.345251,31.861615,合肥市,瑶海区,,46,46,33,32,23,65,65,52,52,25,29,5,5,0.7,0.8
2026-03-18T1700,1277A,117.3033,31.7967,合肥市,包河区,颗粒物(PM10),53,53,33,35,23,42,42,39,39,58,45,7,9,0.8,1
2026-03-18T1700,1278A,117.278,31.7392,合肥市,滨湖新区,细颗粒物(PM2.5),56,46,30,38,23,64,64,48,48,18,25,4,4,0.7,0.9
2026-03-18T1700,1279A,117.1324,31.8395,合肥市,高新区,NA,NA,56,36,36,25,71,71,57,57,14,17,NA,4,NA,0.9
2026-03-18T1700,3464A,117.3802,31.9148,合肥市,高教基地,,50,48,34,35,28,63,63,55,55,22,23,6,7,0.5,0.7
2026-03-18T1700,4098A,117.2518,31.8404,合肥市,中国科学技术大学,,46,44,29,32,21,71,71,57,57,20,21,5,5,0.7,0.9
2026-03-18T1700,3614A,79.9241,37.0878,和田地区,地区环保局,颗粒物(PM10),147,241,223,60,59,97,97,73,73,5,19,2,2,0.3,0.6
2026-03-18T1700,3615A,79.9132,37.1137,和田地区,市环保局,NA,NA,NA,222,NA,59,NA,NA,81,NA,NA,27,NA,2,NA,1.1
2026-03-18T1700,2517A,108.0496,24.6957,河池市,市环保站,,18,12,23,3,18,56,56,45,45,5,6,5,5,0.6,0.4
2026-03-18T1700,4302A,108.0901,24.6945,河池市,上任中路54号,NA,NA,NA,32,NA,22,NA,NA,74,NA,NA,9,NA,7,NA,0.5
2026-03-18T1700,1697A,114.6962,23.7538,河源市,东埔,,40,33,37,20,22,126,126,102,102,9,13,6,6,0.6,0.6
2026-03-18T1700,1698A,114.6895,23.7232,河源市,老城,,40,31,37,22,21,126,126,102,102,9,13,6,6,0.6,0.6
2026-03-18T1700,3374A,115.5562,35.089,菏泽市,定陶老年大学,,39,39,73,9,54,90,90,75,75,9,15,4,5,0.4,0.6
2026-03-18T1700,4114A,115.4239,35.2593,菏泽市,黄河路600号,,46,46,86,14,58,81,81,71,71,8,18,1,1,0.3,0.5
2026-03-18T1700,4115A,115.5025,35.2727,菏泽市,菏泽市人社局,,35,35,77,12,62,81,81,71,71,10,18,4,4,0.2,0.5
2026-03-18T1700,4184A,115.479691,35.244011,菏泽市,永昌路1号,,39,39,84,13,61,97,97,86,86,12,21,2,2,0.2,0.2
2026-03-18T1700,4193A,115.471542,35.280012,菏泽市,长城路999号,,41,41,81,12,59,85,85,78,78,8,15,3,5,0.2,0.4
2026-03-18T1700,2514A,111.5264,24.4178,贺州市,环保小区,,45,45,56,14,35,36,36,45,41,11,24,5,6,0.7,0.6
2026-03-18T1700,2515A,111.561,24.4074,贺州市,政协大楼,颗粒物(PM10),59,62,56,17,33,52,52,52,50,24,25,5,8,0.6,0.4
2026-03-18T1700,3534A,111.4744,24.455,贺州市,西湾,,40,40,65,10,35,31,31,48,48,12,28,5,7,0.9,0.7
2026-03-18T1700,2385A,114.17,35.9019,鹤壁市,市监测站,,34,34,79,3,49,88,88,78,78,11,16,5,4,0.4,0.6
2026-03-18T1700,2386A,114.2953,35.7512,鹤壁市,市交警支队,,38,38,80,12,48,76,76,67,67,16,23,6,4,0.2,0.6
2026-03-18T1700,2387A,114.2877,35.7302,鹤壁市,迎宾馆,,50,50,91,19,49,84,84,76,76,11,17,8,8,0.4,0.7
2026-03-18T1700,3474A,114.2616,35.6824,鹤壁市,大新区,颗粒物(PM10),52,52,71,25,55,80,80,73,73,17,23,4,5,0.4,0.8
2026-03-18T1700,3596A,114.1573,35.9607,鹤壁市,南山宾馆,颗粒物(PM10),59,62,90,9,48,90,90,80,80,4,11,7,8,0.2,0.4
2026-03-18T1700,2244A,130.2537,47.3416,鹤岗市,哈啤分公司,,25,25,30,6,19,77,77,66,66,6,12,10,12,0.4,0.4
2026-03-18T1700,2245A,130.2683,47.3087,鹤岗市,斯达机电,,28,25,38,3,20,88,88,74,74,6,12,8,12,0.5,0.5
2026-03-18T1700,2246A,130.3114,47.3388,鹤岗市,东山纸板厂,,25,25,58,6,22,76,76,70,70,3,16,7,10,0.4,0.7
2026-03-18T1700,2263A,127.4832,50.2524,黑河市,交通局,,28,28,37,12,19,84,84,84,82,8,22,6,9,0.4,0.3
2026-03-18T1700,2264A,127.5146,50.2339,黑河市,环保局,,28,24,30,18,20,89,89,86,86,10,21,4,9,0.4,0.4
2026-03-18T1700,1074A,115.6839,37.754,衡水市,电机北厂,,31,23,75,9,54,97,97,90,90,10,15,3,3,0.4,0.6
2026-03-18T1700,1075A,115.6303,37.7318,衡水市,市监测站,,30,14,72,7,52,94,94,88,88,5,15,5,7,0.2,0.5
2026-03-18T1700,3188A,115.6684,37.7216,衡水市,市城管局,,30,23,77,14,51,95,95,85,85,10,16,3,4,0.3,0.5
2026-03-18T1700,3459A,115.599,37.5491,衡水市,地表水厂,,32,25,72,3,56,101,101,91,91,7,16,6,6,0.3,0.4
2026-03-18T1700,2457A,112.6209,26.9268,衡阳市,衡阳化工总厂,,19,17,21,11,14,59,59,61,61,16,11,3,4,0.9,1
2026-03-18T1700,2458A,112.621,26.8957,衡阳市,珠晖区环保局,,19,9,20,3,11,59,59,60,60,15,14,5,5,1.0,1.1
2026-03-18T1700,2459A,112.628,26.8654,衡阳市,市委党校,,20,16,24,3,12,63,63,61,61,11,11,5,5,1.0,1.1
2026-03-18T1700,2460A,112.6007,26.8977,衡阳市,市监测站,,22,22,25,8,15,64,64,65,65,10,8,6,6,0.7,0.8
2026-03-18T1700,2461A,112.5658,26.9013,衡阳市,真空机电公司,NA,NA,22,24,10,16,68,68,66,66,13,14,NA,6,1.0,1.1
2026-03-18T1700,3399A,112.6703,26.8817,衡阳市,师范学院,,21,12,22,9,16,67,67,64,64,7,9,4,4,1.0,1.1
2026-03-18T1700,3038A,103.3757,23.3679,红河哈尼族彝族自治州,州图书馆,,40,36,41,28,34,107,107,98,98,5,10,5,17,0.2,0.4
2026-03-18T1700,4154A,103.401,23.3561,红河哈尼族彝族自治州,蒙自市朝阳路,,42,NA,33,29,27,113,113,108,108,5,11,9,13,0.3,0.3
2026-03-18T1700,1090A,111.6506,40.7517,呼和浩特市,呼市一监,,34,34,40,11,13,96,96,92,92,9,7,8,6,0.3,0.3
2026-03-18T1700,1094A,111.7516,40.8369,呼和浩特市,如意水处理厂,,33,33,26,20,9,98,98,91,91,9,8,10,8,0.2,0.2
2026-03-18T1700,1095A,111.727798,40.806187,呼和浩特市,二十九中,,36,36,43,14,9,89,89,84,84,12,8,10,7,0.3,0.3
2026-03-18T1700,1097A,111.717,40.7617,呼和浩特市,化肥厂生活区,,47,47,41,25,14,100,100,93,93,10,9,6,5,0.4,0.3
2026-03-18T1700,3699A,111.6519,40.8389,呼和浩特市,海东办,,41,41,45,16,7,89,89,82,82,11,7,7,5,0.2,0.2
2026-03-18T1700,4275A,111.591512,40.827312,呼和浩特市,成吉思汗西街8号,颗粒物(PM10),51,51,53,16,8,88,88,81,81,12,8,4,4,0.3,0.3
2026-03-18T1700,4276A,111.6597,40.8077,呼和浩特市,公园东路75号,,39,39,48,12,7,87,87,79,79,11,9,10,8,0.3,0.3
2026-03-18T1700,4277A,111.5427,40.7846,呼和浩特市,金海路35号,,33,33,49,16,9,86,86,77,77,11,8,8,7,0.3,0.4
2026-03-18T1700,3061A,119.7511,49.1576,呼伦贝尔市,国华电力东,,27,27,29,13,11,85,85,84,84,8,7,6,6,0.2,0.2
2026-03-18T1700,4279A,119.7569,49.2222,呼伦贝尔市,伊敏大街东7号,,34,34,28,20,13,83,83,83,83,13,10,8,7,0.3,0.3
2026-03-18T1700,1250A,120.075,30.867,湖州市,城西水厂,,23,12,43,10,32,72,72,36,36,25,34,5,5,0.6,0.7
2026-03-18T1700,2873A,120.083,30.8929,湖州市,仁皇山新区,,23,14,41,11,32,72,72,43,43,17,33,4,5,0.7,0.9
2026-03-18T1700,2907A,120.1846,30.8592,湖州市,吴兴区站,,29,29,57,13,33,65,65,45,45,22,27,4,5,0.5,0.6
2026-03-18T1700,3562A,120.4146,30.8538,湖州市,南浔区站,,32,27,58,22,39,67,67,55,55,23,25,7,8,0.9,0.9
2026-03-18T1700,1607A,120.904878,40.721091,葫芦岛市,龙港区,,29,NA,51,17,49,92,92,86,86,8,15,8,9,0.4,0.6
2026-03-18T1700,1608A,120.8382,40.7521,葫芦岛市,化工街,,28,22,52,10,41,88,88,83,83,13,20,14,14,0.3,0.5
2026-03-18T1700,1609A,120.8339,40.7078,葫芦岛市,新区,,27,25,46,9,42,85,85,78,78,13,19,8,9,0.5,0.7
2026-03-18T1700,1610A,120.8697,40.7679,葫芦岛市,东城区,,36,NA,45,25,46,90,90,84,84,13,20,9,10,0.4,0.7
2026-03-18T1700,2483A,109.9297,27.5383,怀化市,河西地税局,NA,NA,19,8,13,6,68,68,72,72,NA,9,4,3,/,/
2026-03-18T1700,2484A,109.9783,27.5342,怀化市,市四医院,,22,11,11,6,5,68,68,67,67,10,9,6,6,0.5,0.5
2026-03-18T1700,2485A,109.9971,27.5579,怀化市,监测楼,,23,15,7,10,6,71,71,71,71,6,7,3,3,0.3,0.3
2026-03-18T1700,1210A,119.0566,33.5991,淮安市,钵池山,细颗粒物(PM2.5),119,97,49,80,45,62,62,93,76,28,17,8,8,0.7,0.5
2026-03-18T1700,1211A,119.0083,33.578,淮安市,北京南路,细颗粒物(PM2.5),120,90,43,81,46,58,58,87,71,23,13,8,6,0.6,0.4
2026-03-18T1700,1212A,118.9938,33.6083,淮安市,市监测站,细颗粒物(PM2.5),125,NA,38,87,49,60,60,90,74,27,16,5,4,0.6,0.5
2026-03-18T1700,1213A,119.135,33.5038,淮安市,楚州区监测站,细颗粒物(PM2.5),131,103,43,94,50,64,64,91,76,20,12,5,6,0.7,0.7
2026-03-18T1700,3426A,118.8757,33.2897,淮安市,新华书店,细颗粒物(PM2.5),115,98,54,76,49,61,61,85,75,18,15,7,6,0.9,0.6
2026-03-18T1700,4092A,119.119691,33.550006,淮安市,枚皋中路89号,细颗粒物(PM2.5),125,93,51,87,49,62,62,91,76,24,16,10,9,0.9,0.6
2026-03-18T1700,4206A,119.028838,33.631911,淮安市,承德北路606号,细颗粒物(PM2.5),117,110,57,78,46,60,60,88,73,24,14,8,7,0.6,0.4
2026-03-18T1700,2282A,116.8005,33.9749,淮北市,监测站,细颗粒物(PM2.5),114,96,68,75,59,55,55,76,76,23,17,5,5,0.8,0.6
2026-03-18T1700,2283A,116.8094,33.9008,淮北市,烈山区政府,细颗粒物(PM2.5),122,100,65,84,60,63,63,78,78,19,15,4,4,0.6,0.5
2026-03-18T1700,4017A,116.7926,33.9534,淮北市,市博物馆,细颗粒物(PM2.5),116,84,60,77,61,55,55,73,73,22,17,2,2,0.7,0.6
2026-03-18T1700,4100A,116.8322,33.9884,淮北市,杜集区第一实验学校,细颗粒物(PM2.5),110,104,72,71,61,48,48,67,67,23,17,3,5,0.8,0.6
2026-03-18T1700,2277A,116.8304,32.7726,淮南市,潘集区政府,细颗粒物(PM2.5),82,78,56,51,41,63,63,58,58,16,14,5,5,0.7,0.6
2026-03-18T1700,2279A,116.8569,32.5949,淮南市,谢家集区政府,细颗粒物(PM2.5),86,59,47,53,48,68,68,59,59,20,19,7,7,0.6,0.6
2026-03-18T1700,2280A,116.8279,32.6333,淮南市,八公山区政府,细颗粒物(PM2.5),90,68,48,55,44,59,59,59,59,14,13,7,7,0.7,0.6
2026-03-18T1700,2894A,117.0561,32.6536,淮南市,经济技术开发区消防队,细颗粒物(PM2.5),102,NA,51,62,50,63,63,60,60,18,20,6,6,0.5,0.5
2026-03-18T1700,3329A,117.011,32.5891,淮南市,山南新区,细颗粒物(PM2.5),92,NA,46,56,47,72,72,71,71,17,18,6,6,0.6,0.5
2026-03-18T1700,4209A,117.003137,32.644456,淮南市,国庆中路369号,细颗粒物(PM2.5),74,72,55,47,40,58,58,53,53,14,16,7,7,0.6,0.5
2026-03-18T1700,2446A,114.9021,30.474,黄冈市,职工中心,,46,42,18,32,13,87,87,72,72,8,11,4,4,0.6,0.5
2026-03-18T1700,2929A,114.8858,30.4519,黄冈市,红卫路,,45,39,18,31,12,92,92,77,77,7,9,3,3,0.5,0.5
2026-03-18T1700,3398A,114.9134,30.4446,黄冈市,市林业局,,44,44,19,24,12,88,88,76,76,7,9,4,4,0.5,0.5
2026-03-18T1700,2672A,102.02,35.5101,黄南藏族自治州,同仁县隆务镇,,43,43,50,27,26,106,106,101,101,4,3,10,9,0.4,0.3
2026-03-18T1700,2295A,118.2905,29.6965,黄山市,延安路89号,,15,6,27,3,20,46,46,62,42,13,14,4,4,0.6,0.8
2026-03-18T1700,2297A,118.1369,30.2755,黄山市,黄山区政府5号楼,,15,7,15,3,4,45,45,34,34,14,16,2,2,0.8,0.8
2026-03-18T1700,4210A,118.335445,29.720283,黄山市,滨江东路7-2号,,20,20,40,3,18,48,48,44,42,13,15,/,/,/,/
2026-03-18T1700,2423A,115.0547,30.2332,黄石市,沈家营,,34,34,20,21,8,77,77,63,63,13,15,8,6,0.8,1.1
2026-03-18T1700,2426A,114.899,30.211,黄石市,铁山,,40,36,22,28,11,82,82,64,64,12,15,6,6,1.1,0.8
2026-03-18T1700,2427A,115.0259,30.2108,黄石市,团城山,NA,NA,NA,15,NA,7,NA,NA,20,NA,NA,17,NA,6,NA,0.9
2026-03-18T1700,3149A,115.0174,30.1591,黄石市,笔架山北路,,39,39,21,21,9,80,80,67,67,17,19,6,6,1.0,1.1
2026-03-18T1700,4185A,115.078022,30.21118,黄石市,磁湖东路29号,,33,28,19,23,11,74,74,55,55,14,16,7,6,1.2,1.3
2026-03-18T1700,1392A,114.4181,23.0528,惠州市,河南岸金山湖子站,,32,23,35,12,19,100,100,97,97,5,12,6,7,0.5,0.5
2026-03-18T1700,1393A,114.4055,23.0824,惠州市,下埔横江三路子站,,31,27,39,10,18,98,98,98,98,7,13,4,5,0.5,0.6
2026-03-18T1700,1395A,114.4645,22.7832,惠州市,惠阳区承修路船湖子站,NA,NA,24,38,8,17,78,78,82,82,9,17,NA,6,NA,0.4
2026-03-18T1700,1396A,114.5316,22.7423,惠州市,大亚湾管委会子站,,27,27,36,11,16,75,75,77,77,6,13,3,3,0.5,0.5
2026-03-18T1700,3314A,114.4334,22.8134,惠州市,惠阳秋长,,27,27,33,7,17,84,84,89,89,8,16,/,/,/,/
2026-03-18T1700,3452A,114.6521,22.7755,惠州市,大亚湾霞涌,,30,19,29,12,14,94,94,91,91,6,12,/,/,/,/
2026-03-18T1700,4300A,114.4089,23.1147,惠州市,文华一路1号,,33,25,34,11,17,103,103,103,103,8,12,/,/,/,/
2026-03-18T1700,2240A,130.9618,45.2926,鸡西市,环保局,颗粒物(PM10),98,117,199,25,140,77,77,75,75,8,31,6,12,0.3,0.9
2026-03-18T1700,2243A,130.9294,45.2959,鸡西市,第一中学,NA,NA,18,169,NA,145,76,76,70,70,4,29,4,8,0.5,0.9
2026-03-18T1700,3707A,131.0069,45.2988,鸡西市,欧美日汽修厂,,49,NA,218,34,144,61,61,72,72,17,34,7,15,0.5,1.1
2026-03-18T1700,2367A,114.9753,27.0803,吉安市,红声器材厂,,27,27,68,3,48,18,18,52,25,19,21,4,7,1.2,1.2
2026-03-18T1700,2369A,114.9903,27.1313,吉安市,市环境监测站,,14,14,61,3,48,14,14,51,25,20,20,7,12,/,/
2026-03-18T1700,2370A,115.009527,27.096792,吉安市,青原区法院,,22,NA,63,14,49,18,18,56,24,43,34,3,6,1.0,1
2026-03-18T1700,1772A,126.54,43.8622,吉林市,哈达湾,颗粒物(PM10),53,54,112,16,62,89,89,87,87,11,19,6,8,0.4,0.7
2026-03-18T1700,1773A,126.5843,43.8358,吉林市,东局子,,29,19,91,14,67,89,89,85,85,11,22,86,9,0.7,0.9
2026-03-18T1700,1774A,126.5051,43.8243,吉林市,电力学院,NA,NA,NA,90,NA,62,96,96,94,94,9,22,6,8,NA,0.9
2026-03-18T1700,1775A,126.6133,43.8971,吉林市,江北,,39,39,108,12,57,92,92,90,90,17,24,6,9,0.6,0.9
2026-03-18T1700,1776A,126.5549,43.8304,吉林市,江南公园,,34,34,96,14,64,90,90,86,86,9,21,6,9,0.4,0.7
2026-03-18T1700,2868A,126.4737,43.953,吉林市,九站,,40,40,128,15,81,89,89,89,89,12,28,6,11,0.4,0.8
2026-03-18T1700,1299A,116.9866,36.6118,济南市,科干所,,36,36,74,9,57,73,73,69,65,12,20,4,6,0.5,0.7
2026-03-18T1700,1300A,116.9379,36.6652,济南市,农科所,,27,27,71,8,58,77,77,65,65,12,24,6,6,0.3,0.6
2026-03-18T1700,1301A,117.1265,36.6736,济南市,开发区,,37,37,71,10,56,76,76,73,68,14,20,3,4,0.5,0.7
2026-03-18T1700,1303A,117.0616,36.6865,济南市,省种子仓库,,36,36,75,10,57,74,74,66,66,12,19,5,5,0.4,0.6
2026-03-18T1700,1304A,116.9495185,36.644937,济南市,机床二厂,,27,27,70,7,56,80,80,69,69,13,22,3,5,0.4,0.6
2026-03-18T1700,1305A,117.0496,36.6629,济南市,市监测站,,32,32,77,10,54,74,74,68,66,14,21,3,4,0.4,0.6
2026-03-18T1700,1306A,116.7674,36.5458,济南市,长清党校,,29,29,76,8,56,73,73,66,66,10,20,3,3,0.5,0.7
2026-03-18T1700,1961A,117.5323,36.6865,济南市,东山小学,NA,NA,NA,96,NA,61,71,71,66,66,17,28,2,3,0.5,0.8
2026-03-18T1700,3059A,117.7181,36.205,济南市,泰兴公司,,34,34,74,11,52,81,81,76,76,12,19,5,8,0.7,0.9
2026-03-18T1700,3064A,117.6861,36.2172,济南市,莱芜战役纪念馆,,39,39,78,10,59,78,78,77,77,18,19,3,4,0.4,0.7
2026-03-18T1700,3494A,117.1673,36.9782,济南市,济阳区政府,,25,24,85,7,63,79,79,66,66,10,23,5,7,0.2,0.5
2026-03-18T1700,3495A,117.1168,36.6299,济南市,锦屏中学,,32,32,69,10,56,76,76,76,68,13,18,6,8,0.4,0.6
2026-03-18T1700,4108A,117.7107,36.2385,济南市,山财大街5号,,29,29,69,10,51,70,70,67,67,20,23,4,6,0.5,0.8
2026-03-18T1700,4109A,116.9744,36.6889,济南市,无影山路12号,,25,22,64,6,57,77,77,65,65,11,20,3,4,0.4,0.7
2026-03-18T1700,1653A,116.6229,35.4288,济宁市,火炬城,,49,49,63,29,60,76,76,68,68,14,18,3,4,0.5,0.7
2026-03-18T1700,3500A,116.5808,35.3703,济宁市,北湖一中,,49,49,63,32,59,74,74,68,68,12,20,5,6,0.5,0.7
2026-03-18T1700,3501A,116.8251,35.5592,济宁市,服务中心,颗粒物(PM10),51,51,73,25,59,80,80,75,75,9,16,3,2,0.6,0.8
2026-03-18T1700,3678A,116.5907,35.4054,济宁市,市第七中学,颗粒物(PM10),55,56,58,30,57,79,79,73,73,13,18,3,3,0.5,0.7
2026-03-18T1700,4111A,116.6075,35.4566,济宁市,任和路,颗粒物(PM10),55,57,89,31,64,76,76,69,69,12,18,3,4,0.6,0.8
2026-03-18T1700,4112A,116.5648,35.3921,济宁市,文体南路1号,,48,48,84,32,56,78,78,71,71,12,20,2,3,0.4,0.6
2026-03-18T1700,4122A,112.6071,35.1015,济源市,市委党校,颗粒物(PM10),93,110,116,26,43,82,82,70,70,11,18,6,8,0.2,0.7
2026-03-18T1700,4123A,112.596,35.0702,济源市,沁园中路1号,颗粒物(PM10),93,110,102,36,42,88,88,74,74,13,21,4,5,0.4,0.7
2026-03-18T1700,2255A,130.2749,46.8028,佳木斯市,佳纺,,30,30,93,20,44,70,70,64,64,15,36,6,7,0.3,0.6
2026-03-18T1700,2257A,130.3258,46.7975,佳木斯市,环保局,,24,20,62,12,40,74,74,64,64,10,34,3,4,0.2,0.5
2026-03-18T1700,4285A,130.363,46.806,佳木斯市,顺和街,NA,NA,NA,56,NA,44,63,63,58,58,NA,27,NA,6,0.4,0.4
2026-03-18T1700,4286A,130.3952,46.8268,佳木斯市,长安路196号,,33,33,53,18,34,71,71,58,58,7,18,3,3,0.5,0.5
2026-03-18T1700,1252A,120.7439,30.778,嘉兴市,清河小学,,29,26,37,20,27,46,46,42,42,37,32,6,6,0.9,0.8
2026-03-18T1700,1253A,120.7261,30.7477,嘉兴市,嘉兴学院,,45,45,49,26,28,43,43,42,42,44,36,5,5,0.8,0.8
2026-03-18T1700,2872A,120.7845,30.7524,嘉兴市,南湖区残联,,39,32,30,27,32,49,49,44,44,33,31,3,4,0.9,0.9
2026-03-18T1700,3407A,120.6915,30.7741,嘉兴市,秀洲住建,,42,31,38,29,35,45,45,45,45,36,31,7,8,0.8,0.8
2026-03-18T1700,1945A,98.291,39.7705,嘉峪关市,气象局,颗粒物(PM10),152,254,102,44,21,97,97,86,86,7,8,10,7,0.4,0.4
2026-03-18T1700,2884A,98.2672,39.7978,嘉峪关市,酒钢宾馆,颗粒物(PM10),144,234,117,50,25,90,90,81,75,11,13,20,23,0.8,1
2026-03-18T1700,3248A,98.2644,39.7723,嘉峪关市,雄关区,颗粒物(PM10),125,183,83,48,21,92,92,78,78,9,12,11,8,0.4,0.4
2026-03-18T1700,1383A,113.1063,22.6058,江门市,北街,,31,30,32,7,18,98,98,92,92,11,19,/,/,/,/
2026-03-18T1700,1384A,113.073,22.5835,江门市,西区,,32,16,31,8,17,101,101,94,94,12,16,/,/,/,/
2026-03-18T1700,1385A,113.0218,22.531,江门市,圭峰西,,32,32,32,8,15,88,88,88,88,6,11,/,/,/,/
2026-03-18T1700,1386A,113.0826,22.5947,江门市,东湖,,32,21,32,3,17,100,100,93,93,10,15,6,6,0.4,0.4
2026-03-18T1700,3311A,113.1077,22.5647,江门市,江海富民,,42,42,50,8,19,106,106,98,98,11,17,/,/,0.4,0.3
2026-03-18T1700,3449A,113.0496,22.4669,江门市,新会银湖,,40,40,31,6,15,80,80,90,90,11,24,8,8,0.2,0.3
2026-03-18T1700,3335A,113.3137,35.2643,焦作市,马村街道办,颗粒物(PM10),69,76,94,19,57,77,77,69,69,14,20,9,8,0.4,0.7
2026-03-18T1700,3336A,113.2464,35.2374,焦作市,焦作技师学院,颗粒物(PM10),62,66,101,16,50,78,78,66,66,9,20,7,8,0.4,0.8
2026-03-18T1700,3477A,113.1656,35.2536,焦作市,中站许衡医院,颗粒物(PM10),58,60,99,22,57,83,83,75,75,14,27,9,15,0.4,1
2026-03-18T1700,3981A,113.2456,35.18,焦作市,原李万街道办,颗粒物(PM10),76,86,89,16,53,78,78,67,67,8,17,7,8,0.3,0.7
2026-03-18T1700,4264A,113.234,35.219,焦作市,新安路1731号,颗粒物(PM10),70,77,99,17,52,85,85,75,75,12,21,8,10,0.4,0.7
2026-03-18T1700,4295A,113.2722,35.2121,焦作市,人民路3066号,颗粒物(PM10),67,73,91,16,52,88,88,77,77,16,24,6,8,0.3,0.6
2026-03-18T1700,1708A,116.3701,23.5345,揭阳市,新兴,,28,28,49,13,30,76,76,84,84,9,21,7,9,0.5,0.7
2026-03-18T1700,1709A,116.3261,23.5442,揭阳市,西马,,41,41,55,12,30,76,76,85,85,10,19,5,8,0.5,0.5
2026-03-18T1700,1710A,116.361,23.5627,揭阳市,东兴,,36,36,51,12,27,80,80,89,89,6,15,4,7,/,/
2026-03-18T1700,1711A,116.4151,23.5295,揭阳市,渔湖,颗粒物(PM10),58,61,45,12,26,92,92,99,99,11,19,3,5,/,/
2026-03-18T1700,3320A,116.4028,23.5699,揭阳市,曲溪,,32,32,47,12,26,89,89,98,98,10,18,3,4,0.3,0.7
2026-03-18T1700,1944A,102.1691,38.5166,金昌市,天庆家园,颗粒物(PM10),142,229,118,54,30,104,104,90,90,4,6,31,25,0.6,0.6
2026-03-18T1700,4022A,102.1648,38.5369,金昌市,金川区人防中心,颗粒物(PM10),137,215,109,60,33,97,97,86,86,5,6,5,12,0.6,0.6
2026-03-18T1700,4239A,102.193042,38.531887,金昌市,长春路96号,颗粒物(PM10),133,205,122,52,31,94,94,82,82,4,7,7,30,0.2,0.4
2026-03-18T1700,1262A,119.6478,29.0773,金华市,十五中,,18,18,84,6,52,23,23,81,77,32,41,3,5,0.9,0.8
2026-03-18T1700,1263A,119.6859,29.1032,金华市,监测站,,19,16,77,6,48,18,18,60,59,37,54,4,9,0.9,0.8
2026-03-18T1700,3659A,119.656,29.1132,金华市,气象局,,19,18,83,8,52,17,17,66,65,37,52,2,4,0.9,0.6
2026-03-18T1700,1767A,121.1114,41.0879,锦州市,南山,,28,28,46,11,38,87,87,88,88,16,17,7,8,0.3,0.5
2026-03-18T1700,1768A,121.060361,40.842794,锦州市,开发区,,26,21,47,10,39,82,82,80,80,16,19,5,6,0.6,0.7
2026-03-18T1700,1769A,121.1836,41.1118,锦州市,百股街道,,29,27,48,12,41,91,91,88,88,12,16,8,8,0.6,0.8
2026-03-18T1700,1770A,121.1176,41.1224,锦州市,天安街道,,37,37,46,11,38,85,85,87,87,16,17,6,7,0.5,0.7
2026-03-18T1700,1771A,121.1303,41.1385,锦州市,北湖公园,,28,28,47,13,39,89,89,91,91,14,14,7,8,0.4,0.5
2026-03-18T1700,2160A,112.8496,35.5051,晋城市,自来水公司,颗粒物(PM10),75,85,89,20,25,82,82,76,76,14,16,5,5,0.2,0.5
2026-03-18T1700,2162A,112.8509,35.4886,晋城市,市环保局,颗粒物(PM10),78,89,79,23,30,82,82,79,79,13,14,5,5,0.4,0.6
2026-03-18T1700,3620A,112.8258,35.4804,晋城市,泽州一中,颗粒物(PM10),84,97,85,20,33,83,83,79,79,12,14,4,4,0.4,0.6
2026-03-18T1700,4078A,112.8246,35.5152,晋城市,前书院路,颗粒物(PM10),82,94,83,22,25,75,75,74,74,14,16,6,5,0.4,0.5
2026-03-18T1700,4079A,112.8864,35.4773,晋城市,祥云街666号,颗粒物(PM10),70,77,77,30,36,79,79,78,78,15,16,7,5,0.2,0.5
2026-03-18T1700,2174A,112.6992,37.6984,晋中市,榆次区政府,,30,22,78,6,20,93,93,85,85,19,17,8,9,0.2,0.3
2026-03-18T1700,2865A,112.7195,37.683,晋中市,榆次三中,NA,NA,22,76,3,16,98,98,88,88,NA,12,9,10,0.4,0.1
2026-03-18T1700,4080A,112.7375,37.7215,晋中市,广安街188号,,30,20,65,9,18,96,96,88,88,6,12,9,10,0.4,0.3
2026-03-18T1700,4200A,112.7478,37.6954,晋中市,迎宾街26号,,31,24,74,3,18,98,98,88,88,11,14,8,9,0.5,0.5
2026-03-18T1700,2439A,112.2012,31.048,荆门市,竹园小学,颗粒物(PM10),64,69,43,25,25,99,99,73,73,18,20,1,1,0.2,0.6
2026-03-18T1700,2440A,112.1968,30.9892,荆门市,掇刀,NA,NA,NA,42,NA,27,107,107,86,86,NA,15,8,6,NA,0.7
2026-03-18T1700,3012A,112.1849,31.0361,荆门市,西山林语,颗粒物(PM10),66,72,38,23,24,101,101,74,74,14,15,5,4,0.5,0.8
2026-03-18T1700,3547A,112.1631,31.0134,荆门市,龙泉中学南校,颗粒物(PM10),70,77,41,19,25,110,110,82,82,10,14,5,3,0.4,0.7
2026-03-18T1700,4124A,112.2213,31.0654,荆门市,新台西路6号,颗粒物(PM10),78,89,46,29,32,95,95,71,71,14,12,5,5,0.4,0.6
2026-03-18T1700,1844A,112.2493,30.3198,荆州市,市图书馆,NA,NA,NA,25,NA,25,99,99,69,69,10,17,6,5,0.9,1
2026-03-18T1700,1845A,112.2009,30.3543,荆州市,市委党校,,48,48,36,28,32,88,88,66,66,19,24,7,7,0.7,0.8
2026-03-18T1700,3194A,112.2749,30.3124,荆州市,管委会,,39,36,29,27,28,97,97,68,68,13,18,9,8,0.6,0.7
2026-03-18T1700,4268A,112.1722,30.3366,荆州市,学苑路85号,,42,40,40,29,30,107,107,82,82,7,11,1,1,0.9,1
2026-03-18T1700,2343A,117.2114,29.2931,景德镇市,老干部活动中心,,10,NA,25,6,24,28,28,28,22,14,13,4,6,1.0,1
2026-03-18T1700,2344A,117.1893,29.2789,景德镇市,兽医站,,20,20,32,3,21,31,31,26,26,17,16,5,4,0.8,0.8
2026-03-18T1700,2346A,117.246,29.2958,景德镇市,陶研所,,12,6,25,3,22,36,36,29,25,21,24,4,4,1.0,1.1
2026-03-18T1700,4289A,117.154766,29.256967,景德镇市,青少年活动中心,,13,NA,27,9,27,24,24,22,22,21,19,7,10,/,/
2026-03-18T1700,1803A,115.9873,29.6816,九江市,十里,,18,18,22,7,11,50,50,33,33,25,32,7,8,1.0,1.2
2026-03-18T1700,1804A,115.9583,29.7047,九江市,茅山头,NA,NA,19,20,12,12,49,49,31,31,16,30,NA,4,0.7,0.8
2026-03-18T1700,1805A,115.9877,29.7295,九江市,西园,,19,19,21,6,11,47,47,32,32,29,37,3,5,0.8,1
2026-03-18T1700,1808A,115.9112,29.6038,九江市,综合工业园,,17,13,13,10,9,45,45,28,28,33,31,7,7,0.8,1
2026-03-18T1700,3190A,116.0254,29.6995,九江市,外国语学校,,13,12,16,6,11,40,40,28,28,23,28,3,4,0.8,1
2026-03-18T1700,4253A,116.010205,29.659402,九江市,莲花大道8号,,16,NA,19,8,11,46,46,32,32,31,40,4,4,0.6,0.8
2026-03-18T1700,4240A,98.495752,39.733935,酒泉市,玉门东路5号,颗粒物(PM10),158,266,106,52,24,86,86,78,78,4,6,6,6,0.3,0.3
2026-03-18T1700,4241A,98.5099,39.7506,酒泉市,北大街108号,颗粒物(PM10),151,251,109,55,27,86,86,78,78,5,6,6,7,0.4,0.3
2026-03-18T1700,2698A,76.0071,39.466,喀什地区,巡警大队,颗粒物(PM10),137,216,228,73,81,85,85,74,74,6,14,3,3,0.2,0.4
2026-03-18T1700,2699A,75.9756,39.4693,喀什地区,吾办,颗粒物(PM10),131,200,224,80,82,80,80,70,70,6,9,8,8,0.3,0.4
2026-03-18T1700,4027A,75.9485,39.4688,喀什地区,老干局,颗粒物(PM10),130,196,236,64,78,85,85,68,68,4,11,2,2,0.4,0.5
2026-03-18T1700,1824A,114.3389,34.778,开封市,肿瘤医院,颗粒物(PM10),55,57,73,22,72,85,85,80,80,18,31,7,7,0.5,0.8
2026-03-18T1700,1826A,114.2884,34.7966,开封市,世纪星幼儿园,,49,49,64,14,61,80,80,75,75,15,26,9,8,0.5,0.8
2026-03-18T1700,3147A,114.3434,34.8101,开封市,龙亭公园,,50,50,76,12,61,82,82,76,76,16,27,8,8,0.5,0.8
2026-03-18T1700,3210A,114.3645,34.7955,开封市,汴京公园,,49,49,71,18,69,84,84,78,78,14,26,5,4,0.4,0.7
2026-03-18T1700,3473A,114.2485,34.8306,开封市,技师学院,,41,41,60,19,63,80,80,78,78,12,22,5,6,0.5,1
2026-03-18T1700,3592A,114.4518,34.7503,开封市,祥符区生态环境局,,39,38,78,27,70,81,81,74,74,16,28,6,8,0.5,0.7
2026-03-18T1700,1951A,84.886,45.6029,克拉玛依市,长征新村,NA,NA,NA,28,NA,8,NA,NA,75,63,8,15,7,6,0.3,0.4
2026-03-18T1700,1952A,84.8894,45.5827,克拉玛依市,南林小区,,30,23,32,3,4,93,93,72,61,1,9,4,4,0.1,0.5
2026-03-18T1700,1954A,84.896,44.3328,克拉玛依市,独山子区,颗粒物(PM10),65,70,85,18,35,115,115,100,100,6,15,5,5,0.6,0.8
2026-03-18T1700,1955A,85.6888,46.0909,克拉玛依市,乌尔禾区商贸楼,,46,46,40,12,16,77,77,60,60,6,13,10,9,0.6,0.6
2026-03-18T1700,3612A,85.1045,45.6895,克拉玛依市,白碱滩区新站,,28,18,24,3,9,88,88,71,71,4,10,12,11,0.4,0.4
2026-03-18T1700,2697A,76.1457,39.7143,克孜勒苏柯尔克孜自治州,市人民政府,颗粒物(PM10),141,225,176,73,55,88,88,68,62,5,12,4,3,0.2,0.2
2026-03-18T1700,3665A,76.1654,39.7157,克孜勒苏柯尔克孜自治州,克州文化中心,颗粒物(PM10),137,214,191,78,63,88,88,66,66,5,8,5,5,0.2,0.3
2026-03-18T1700,1450A,102.8203,24.889,昆明市,呈贡新区,NA,NA,NA,26,NA,17,107,107,111,111,6,12,2,4,0.4,0.5
2026-03-18T1700,1452A,102.7253,25.0904,昆明市,龙泉镇,NA,NA,27,33,15,18,96,96,93,93,NA,27,4,4,0.4,0.5
2026-03-18T1700,1453A,102.7267,25.0378,昆明市,东风东路,,33,27,29,18,19,104,104,105,105,8,15,2,5,0.2,0.4
2026-03-18T1700,1454A,102.6744,25.0671,昆明市,金鼎山,,37,37,36,16,17,100,100,102,102,9,18,2,4,0.3,0.5
2026-03-18T1700,1455A,102.6643,25.0401,昆明市,碧鸡广场,,32,25,30,20,20,101,101,102,102,8,22,4,7,0.3,0.4
2026-03-18T1700,3179A,102.7491,25.012,昆明市,官渡区博物馆,,35,35,33,16,18,100,100,106,106,8,18,3,5,0.2,0.6
2026-03-18T1700,3375A,102.8016,24.8336,昆明市,青年创业园,,33,20,21,14,17,104,104,108,108,2,9,4,6,0.3,0.4
2026-03-18T1700,3550A,102.8,24.9787,昆明市,昆明学院,,33,26,28,14,16,104,104,108,108,7,16,3,5,0.3,0.5
2026-03-18T1700,3551A,102.5969,24.6738,昆明市,晋宁区生态环境分局,,32,18,30,12,20,101,101,107,107,5,9,1,2,0.3,0.4
2026-03-18T1700,3552A,102.6673,24.9861,昆明市,云天化总部,,32,26,28,15,15,101,101,102,102,7,18,7,10,0.3,0.4
2026-03-18T1700,1456A,91.132,29.6515,拉萨市,八廓街,,35,15,36,3,14,111,111,103,103,4,13,6,5,0.5,0.4
2026-03-18T1700,1457A,91.1221,29.6748,拉萨市,市环保局,,34,16,33,3,12,107,107,97,97,5,16,2,3,0.3,0.5
2026-03-18T1700,1458A,91.0874,29.6476,拉萨市,区监测站,NA,NA,8,23,3,8,102,102,94,94,7,20,4,4,NA,0.5
2026-03-18T1700,1459A,91.1774,29.6541,拉萨市,西藏大学,,50,50,36,11,10,109,109,103,103,7,14,3,5,0.2,0.5
2026-03-18T1700,1460A,90.9798,29.6586,拉萨市,区辐射站,,33,8,24,6,12,104,104,89,89,4,19,3,5,0.3,0.4
2026-03-18T1700,1461A,91.0831,29.6292,拉萨市,拉萨火车站,,34,7,26,3,11,106,106,92,92,3,15,3,4,0.4,0.5
2026-03-18T1700,2520A,109.2203,23.7252,来宾市,来宾技工学校,NA,NA,99,57,24,33,72,72,75,75,8,11,NA,18,NA,0.7
2026-03-18T1700,3535A,109.1781,23.7293,来宾市,兴宾区政府,颗粒物(PM10),52,52,47,15,24,77,77,80,80,7,13,8,8,0.7,0.5
2026-03-18T1700,4002A,109.2312,23.7428,来宾市,中南小学,颗粒物(PM10),85,98,56,18,30,76,76,79,79,8,13,8,11,0.8,0.6
2026-03-18T1700,1479A,103.8309,36.0467,兰州市,铁路设计院,NA,NA,NA,NA,NA,NA,NA,NA,NA,NA,NA,NA,NA,NA,NA,NA
2026-03-18T1700,3241A,103.7439,36.0841,兰州市,百合公园,颗粒物(PM10),79,90,103,43,37,94,94,86,86,5,9,1,5,0.2,0.4
2026-03-18T1700,3242A,103.9613,35.9985,兰州市,和平,颗粒物(PM10),200,350,143,26,35,111,111,86,86,4,8,8,10,0.3,0.4
2026-03-18T1700,4236A,103.629272,36.093822,兰州市,庄浪东路808号,颗粒物(PM10),92,108,113,41,38,96,96,77,77,6,10,7,7,0.4,0.4
2026-03-18T1700,4237A,103.7251,36.104344,兰州市,安宁西路88号,颗粒物(PM10),100,119,128,45,38,105,105,83,83,5,6,6,7,0.3,0.3
2026-03-18T1700,4238A,103.846982,36.067567,兰州市,北滨河东路1号,颗粒物(PM10),86,100,111,39,37,104,104,79,79,10,15,6,7,0.5,0.5
2026-03-18T1700,1067A,116.6712,39.5109,廊坊市,药材公司,,29,18,76,3,50,91,91,90,90,6,17,3,3,0.5,0.6
2026-03-18T1700,1068A,116.7215,39.5592,廊坊市,开发区,,29,24,75,7,50,91,91,93,93,10,16,2,2,0.2,0.4
2026-03-18T1700,1070A,116.7246,39.5273,廊坊市,北华航天学院,,29,29,86,3,53,91,91,91,91,9,15,2,3,0.2,0.4
2026-03-18T1700,2919A,116.7022,39.5454,廊坊市,河北工业大学,,30,17,80,7,51,94,94,91,91,2,12,2,2,0.3,0.4
2026-03-18T1700,2536A,103.7629,29.5844,乐山市,牛耳桥,,40,40,23,13,9,81,81,63,63,17,21,6,6,0.3,0.6
2026-03-18T1700,2537A,103.7501,29.6002,乐山市,市第三水厂,,42,42,23,10,8,88,88,65,65,16,21,4,4,0.3,0.5
2026-03-18T1700,2538A,103.7571,29.5664,乐山市,市监测站,,43,43,23,8,8,80,80,60,60,12,17,4,4,0.4,0.7
2026-03-18T1700,3361A,103.7313,29.563,乐山市,理工大学,,41,41,22,11,8,85,85,62,62,10,17,6,6,0.4,0.7
2026-03-18T1700,2599A,100.2497,26.8802,丽江市,丽江古城,,34,19,27,6,12,106,106,100,100,9,11,13,13,0.1,0.1
2026-03-18T1700,2600A,100.2203,26.8906,丽江市,市中心,,35,17,17,10,11,111,111,100,100,10,12,7,8,0.3,0.3
2026-03-18T1700,1267A,119.9141,28.4513,丽水市,监测站大楼,细颗粒物(PM2.5),76,64,32,48,20,158,158,126,126,17,15,6,5,0.6,0.4
2026-03-18T1700,1268A,119.93,28.4589,丽水市,莲都小学,"颗粒物(PM10),细颗粒物(PM2.5)",76,86,39,48,20,156,156,116,116,17,18,/,/,/,/
2026-03-18T1700,1269A,119.8794,28.4232,丽水市,余庄前,颗粒物(PM10),67,73,38,41,23,148,148,109,109,21,17,5,4,0.6,0.4
2026-03-18T1700,1173A,119.1759,34.5885,连云港市,市环境监测站,细颗粒物(PM2.5),82,68,51,51,47,74,74,90,67,23,21,8,7,0.6,0.5
2026-03-18T1700,3000A,119.3577,34.6971,连云港市,德源药业,颗粒物(PM10),67,73,53,41,40,80,80,103,67,20,20,9,6,1.0,0.7
2026-03-18T1700,3007A,119.178,34.8442,连云港市,新城一中,颗粒物(PM10),57,59,52,31,48,82,82,88,69,26,20,8,8,0.5,0.7
2026-03-18T1700,3008A,119.3607,34.7519,连云港市,胡沟管理处,颗粒物(PM10),51,51,43,31,36,79,79,107,70,19,19,7,6,0.9,0.7
2026-03-18T1700,3009A,119.1478,34.5913,连云港市,矿山设计院,细颗粒物(PM2.5),68,73,54,44,43,84,84,90,70,27,28,8,8,0.9,0.8
2026-03-18T1700,3434A,119.2414,34.6539,连云港市,工贸学校,细颗粒物(PM2.5),66,50,51,43,43,79,79,96,72,20,20,11,9,0.9,0.8
2026-03-18T1700,3664A,119.4171,34.734,连云港市,连云街道,细颗粒物(PM2.5),56,52,52,38,43,65,65,108,63,36,26,6,5,0.5,0.6
2026-03-18T1700,2573A,102.2629,27.8981,凉山彝族自治州,西昌市政府,,36,23,30,11,10,115,115,72,NA,4,9,9,11,0.4,0.8
2026-03-18T1700,2574A,102.2686,27.885,凉山彝族自治州,凉山州政府,,31,29,22,12,11,99,99,82,82,4,10,4,8,0.3,0.6
2026-03-18T1700,4229A,102.2342,27.8859,凉山彝族自治州,凯乐南路30号,,34,30,22,12,9,106,106,87,87,6,11,13,10,0.7,0.7
2026-03-18T1700,2212A,123.1978,41.2036,辽阳市,宏伟区,,30,16,62,6,42,96,96,88,88,9,14,7,9,0.3,0.6
2026-03-18T1700,2213A,123.1684,41.2497,辽阳市,新华园,,30,25,61,6,43,96,96,88,88,13,19,5,9,0.3,0.5
2026-03-18T1700,2214A,123.2355,41.2663,辽阳市,滨河路,,29,22,57,3,42,91,91,83,83,11,17,5,8,0.3,0.6
2026-03-18T1700,4083A,123.153,41.2874,辽阳市,铁西路150号,,29,21,67,6,45,90,90,82,82,10,17,8,11,0.4,0.8
2026-03-18T1700,2227A,125.1359,42.8845,辽源市,环保局,,32,32,80,3,30,91,91,88,88,5,9,4,6,0.3,0.5
2026-03-18T1700,4085A,125.0998,42.9134,辽源市,安宁大街333号,,28,26,88,3,33,87,87,86,86,5,11,4,6,0.3,0.6
2026-03-18T1700,1625A,115.9789,36.4372,聊城市,区政府,,28,28,71,8,53,80,80,76,76,9,16,9,10,0.5,0.7
2026-03-18T1700,3200A,115.9772,36.4986,聊城市,监控中心,,28,27,74,6,54,87,87,83,83,10,17,8,10,0.5,0.7
2026-03-18T1700,3513A,116.0443,36.436,聊城市,九州社区,,36,36,72,8,54,90,90,86,86,13,18,1,2,0.6,0.7
2026-03-18T1700,4018A,116.0564,36.4609,聊城市,星美广场,,41,41,82,10,56,82,82,78,78,7,10,8,5,0.5,0.7
2026-03-18T1700,4113A,116.0091,36.4495,聊城市,利民路,,33,33,76,7,52,87,87,83,83,12,16,9,8,0.6,0.7
2026-03-18T1700,2632A,94.3683,29.6373,林芝市,林芝监测站,,32,11,6,3,5,100,100,90,90,3,2,6,5,0.4,0.5
2026-03-18T1700,2633A,94.3616,29.6634,林芝市,林芝人民医院,,35,20,9,3,6,109,109,95,95,2,3,6,6,0.4,0.4
2026-03-18T1700,2603A,100.0779,23.8981,临沧市,市环保局,颗粒物(PM10),52,52,29,24,22,115,115,87,87,3,7,7,5,0.4,0.6
2026-03-18T1700,2604A,100.0894,23.882,临沧市,市气象局,,43,43,30,24,23,119,119,93,93,4,8,7,7,0.5,1
2026-03-18T1700,1733A,111.5552,36.0791,临汾市,临钢医院,颗粒物(PM10),73,82,98,14,45,98,98,87,87,15,22,7,8,0.5,1.1
2026-03-18T1700,1734A,111.4984,36.0734,临汾市,技工学校,颗粒物(PM10),73,82,110,24,58,97,97,87,87,10,22,6,8,0.4,1
2026-03-18T1700,1736A,111.5017,36.0857,临汾市,市委,颗粒物(PM10),77,87,107,16,43,99,99,89,89,12,20,4,5,0.5,1.1
2026-03-18T1700,3018A,111.5048,36.1015,临汾市,唐尧大酒店,颗粒物(PM10),79,90,108,16,45,96,96,86,86,17,24,7,8,0.5,1.1
2026-03-18T1700,4244A,111.4879,36.053,临汾市,启星学校,颗粒物(PM10),68,74,98,20,48,98,98,85,85,15,26,4,5,0.3,1
2026-03-18T1700,4271A,103.2464,35.6123,临夏回族自治州,滨河东路1号,颗粒物(PM10),71,79,88,19,34,108,108,85,85,7,15,9,7,0.2,0.5
2026-03-18T1700,4310A,103.207136,35.599807,临夏回族自治州,新华街21号,颗粒物(PM10),64,69,88,27,38,89,89,74,74,3,10,7,6,0.6,0.7
2026-03-18T1700,1618A,118.3429,35.0532,临沂市,沂河小区,,34,34,43,10,46,78,78,68,64,10,18,9,9,0.3,0.5
2026-03-18T1700,1619A,118.2962,35.0568,临沂市,鲁南制药厂,,34,34,64,11,49,82,82,68,68,15,26,9,10,0.2,0.6
2026-03-18T1700,1620A,118.2793,34.9976,临沂市,新光毛纺厂,,34,34,58,13,56,79,79,65,65,15,23,7,8,0.3,0.6
2026-03-18T1700,1621A,118.3955,35.0889,临沂市,河东保险公司,,31,31,62,10,47,84,84,68,68,19,27,8,9,0.2,0.6
2026-03-18T1700,3370A,118.3563,35.0215,临沂市,十里堡居委,,31,31,54,10,46,84,84,72,68,17,25,8,8,0.3,0.6
2026-03-18T1700,3496A,118.359,35.1067,临沂市,南坊新区,,34,34,59,10,51,84,84,69,69,15,25,8,9,0.1,0.7
2026-03-18T1700,3860A,118.3915,35.0297,临沂市,皇山花园小区,,27,27,54,11,44,84,84,78,66,17,23,9,10,0.3,0.6
2026-03-18T1700,1870A,109.4854,24.3898,柳州市,柳东小学,,25,25,49,12,31,52,52,66,56,7,12,4,6,0.7,0.5
2026-03-18T1700,1871A,109.4109,24.3304,柳州市,环保监测站,,15,14,66,3,36,48,48,55,50,10,22,4,6,0.9,0.9
2026-03-18T1700,1872A,109.3886,24.3408,柳州市,河西水厂,,16,12,69,3,41,50,50,54,49,11,25,9,11,1.0,1.1
2026-03-18T1700,1873A,109.4263,24.2951,柳州市,市四中,,15,11,66,7,43,48,48,52,51,10,28,7,9,0.1,0.3
2026-03-18T1700,1874A,109.396,24.3658,柳州市,市九中,,14,10,64,3,38,43,43,49,45,10,21,8,10,0.9,0.9
2026-03-18T1700,1875A,109.4912,24.3164,柳州市,古亭山,,22,22,56,6,31,51,51,61,56,5,16,6,7,0.7,0.6
2026-03-18T1700,3402A,109.5422,24.3994,柳州市,市二中,,14,9,50,6,32,44,44,60,50,12,19,6,9,0.9,0.6
2026-03-18T1700,2307A,116.5078,31.7369,六安市,监测大楼,,46,42,25,32,21,73,73,55,55,18,19,3,4,0.4,0.7
2026-03-18T1700,2308A,116.4738,31.7642,六安市,皖西学院,,40,40,25,24,20,77,77,61,61,14,18,4,4,0.5,0.6
2026-03-18T1700,2309A,116.4997,31.7904,六安市,朝阳厂,,50,37,25,35,28,71,71,60,60,24,21,5,4,0.6,0.7
2026-03-18T1700,2310A,116.5566,31.7885,六安市,开发区,,48,34,17,33,22,77,77,57,57,16,15,4,4,0.5,0.6
2026-03-18T1700,2577A,104.8293,26.592,六盘水市,黄土坡,,41,41,28,20,16,79,79,59,59,18,13,11,7,0.6,0.6
2026-03-18T1700,2579A,104.8481,26.5898,六盘水市,民中,,35,34,29,24,16,81,81,59,59,11,11,8,4,0.6,0.6
2026-03-18T1700,2580A,104.9541,26.5506,六盘水市,双水,,29,29,29,17,15,75,75,66,66,10,11,4,4,0.3,0.3
2026-03-18T1700,4151A,104.8899,26.5685,六盘水市,钟山大道中段564号,,45,45,31,23,15,81,81,64,64,9,9,8,7,0.6,0.6
2026-03-18T1700,2336A,117.022,25.1031,龙岩市,龙岩市监测站,,31,31,28,14,17,96,96,90,90,4,12,4,7,0.5,0.5
2026-03-18T1700,2337A,117.0257,25.0662,龙岩市,闽西职业技术学院,,29,22,33,12,16,91,91,87,87,3,10,4,6,0.4,0.4
2026-03-18T1700,2338A,117.0195,25.0306,龙岩市,龙岩学院,,30,30,24,14,16,91,91,89,89,6,7,3,4,/,/
2026-03-18T1700,2885A,104.9344,33.3827,陇南市,滨江中学,颗粒物(PM10),76,86,65,28,23,92,92,82,82,7,8,6,6,0.5,0.6
2026-03-18T1700,3247A,104.9551,33.3709,陇南市,市总工会,颗粒物(PM10),78,89,61,25,19,92,92,82,82,5,7,4,5,0.5,0.5
2026-03-18T1700,2488A,111.9984,27.7346,娄底市,市监测站,,23,19,14,11,6,72,72,64,64,9,11,7,6,0.5,0.8
2026-03-18T1700,2491A,111.9888,27.7035,娄底市,市政府,NA,NA,16,15,10,7,69,69,58,58,11,10,NA,4,0.4,0.5
2026-03-18T1700,4127A,111.9812,27.7591,娄底市,涟钢职大,,27,27,11,14,6,80,80,67,67,8,10,1,1,0.3,1.2
2026-03-18T1700,4128A,112.0303,27.7457,娄底市,娄底体校,,25,25,18,9,6,71,71,60,60,2,7,3,2,0.3,0.5
2026-03-18T1700,1894A,105.4427,28.9063,泸州市,小市上码头,,25,12,26,6,21,79,79,62,62,16,18,6,7,0.6,0.7
2026-03-18T1700,1895A,105.4241,28.8573,泸州市,兰田宪桥,,24,12,28,3,16,74,74,56,56,13,15,5,5,0.6,0.7
2026-03-18T1700,1896A,105.4378,28.8833,泸州市,市环监站,,26,10,27,6,17,81,81,61,61,18,21,4,5,0.4,0.6
2026-03-18T1700,4272A,105.3689,28.7783,泸州市,纳溪中医医院,,25,25,30,7,18,73,73,60,60,11,15,6,6,0.6,0.7
2026-03-18T1700,2183A,111.1447,37.5212,吕梁市,环保局,,29,28,89,6,19,91,91,81,81,11,15,5,6,0.2,0.2
2026-03-18T1700,2185A,111.1285,37.5338,吕梁市,自来水公司,,29,27,83,12,18,92,92,84,84,12,12,5,5,0.2,0.3
2026-03-18T1700,2867A,111.1225,37.5093,吕梁市,马茂庄小学,,33,33,101,12,15,90,90,81,81,9,13,2,4,0.2,0.3
2026-03-18T1700,1812A,112.3934,34.6517,洛阳市,市委党校,颗粒物(PM10),95,113,83,42,40,82,82,68,68,15,17,9,8,0.6,0.8
2026-03-18T1700,1815A,112.494,34.6883,洛阳市,河南林校,颗粒物(PM10),93,110,86,42,42,84,84,71,71,19,26,12,11,0.5,0.7
2026-03-18T1700,1816A,112.3843,34.623,洛阳市,开发区管委会,颗粒物(PM10),102,123,88,31,37,88,88,73,73,17,16,11,9,0.5,0.5
2026-03-18T1700,1817A,112.4263,34.6249,洛阳市,市委新办公区,颗粒物(PM10),95,112,86,40,40,86,86,82,82,18,17,10,8,0.5,0.6
2026-03-18T1700,3340A,112.6005,34.6323,洛阳市,伊滨,颗粒物(PM10),90,106,78,32,39,84,84,69,69,15,18,8,7,0.6,0.7
2026-03-18T1700,3341A,112.495,34.6338,洛阳市,中移产业园,颗粒物(PM10),88,103,82,38,39,84,84,68,68,17,20,9,9,0.4,0.5
2026-03-18T1700,3593A,112.5736,34.8993,洛阳市,吉利监测站,颗粒物(PM10),95,113,78,40,41,87,87,72,72,23,31,9,8,0.5,0.6
2026-03-18T1700,3635A,112.3678,34.6623,洛阳市,河科大西苑校区,颗粒物(PM10),103,127,88,35,38,88,88,75,75,19,19,10,9,0.6,0.7
2026-03-18T1700,3636A,112.4387,34.678,洛阳市,英才小学,颗粒物(PM10),97,115,92,34,39,83,83,70,70,22,26,11,10,0.5,0.7
2026-03-18T1700,4214A,112.460027,34.694929,洛阳市,春都路1号院,颗粒物(PM10),111,147,99,41,39,79,79,68,68,18,22,10,9,0.7,0.8
2026-03-18T1700,2399A,114.051,33.5721,漯河市,三五一五工厂,颗粒物(PM10),65,71,94,30,70,97,97,84,84,10,19,4,4,0.3,0.6
2026-03-18T1700,2400A,114.0055,33.5698,漯河市,漯河大学,颗粒物(PM10),61,65,81,37,71,98,98,86,86,8,18,5,5,0.3,0.6
2026-03-18T1700,2401A,114.0134,33.5826,漯河市,市水利局,颗粒物(PM10),65,70,75,30,62,93,93,88,88,10,19,5,5,0.3,0.7
2026-03-18T1700,2402A,114.0261,33.5697,漯河市,市广电局,颗粒物(PM10),63,68,81,28,67,87,87,77,77,10,18,5,5,0.4,0.6
2026-03-18T1700,3478A,113.9691,33.568,漯河市,市图书馆,颗粒物(PM10),63,68,95,26,64,92,92,80,80,10,19,5,6,0.2,0.6
2026-03-18T1700,4250A,114.089259,33.588274,漯河市,韶山路11号,颗粒物(PM10),61,65,86,31,66,89,89,77,77,9,16,7,7,0.4,0.7
2026-03-18T1700,1798A,118.5084,31.6838,马鞍山市,湖东路四小,,32,NA,27,22,24,71,71,58,58,24,30,11,10,0.6,0.9
2026-03-18T1700,1799A,118.5019,31.6449,马鞍山市,开发区,,29,22,24,20,20,83,83,62,62,23,32,7,6,0.6,0.8
2026-03-18T1700,3633A,118.4914,31.681,马鞍山市,雨山,,23,21,28,16,19,63,63,55,55,36,35,7,12,0.8,1.1
2026-03-18T1700,4191A,118.527362,31.722269,马鞍山市,慈湖高新区,,33,33,35,20,24,73,73,61,61,18,34,5,6,0.5,0.7
2026-03-18T1700,1686A,111.0285,21.469,茂名市,电白南海,,29,29,34,10,12,75,75,73,73,8,10,5,5,0.7,0.7
2026-03-18T1700,1687A,110.9294,21.6533,茂名市,茂石化七小,,24,24,34,8,15,69,69,69,69,11,13,5,9,0.4,0.4
2026-03-18T1700,1688A,110.9108,21.6688,茂名市,健康路,,25,22,27,8,13,77,77,75,75,11,12,3,5,0.5,0.5
2026-03-18T1700,1689A,110.8592,21.6826,茂名市,高岭,,41,41,39,10,14,69,69,73,73,16,13,4,6,/,/
2026-03-18T1700,3450A,111.0101,21.5165,茂名市,电白水东,,23,22,26,10,12,71,71,69,69,10,11,3,4,/,/
2026-03-18T1700,2540A,103.8414,30.0871,眉山市,气象局,颗粒物(PM10),51,51,38,6,10,97,97,84,84,8,18,8,7,0.4,0.6
2026-03-18T1700,3148A,103.829,30.0563,眉山市,区人社局,颗粒物(PM10),52,52,39,12,11,90,90,74,74,13,21,10,9,0.4,0.6
2026-03-18T1700,4148A,103.8836,30.0695,眉山市,眉职院,,40,40,28,9,9,89,89,77,77,15,20,6,6,0.5,0.7
2026-03-18T1700,1690A,116.1248,24.3307,梅州市,梅江月梅,,40,40,39,17,24,94,94,95,95,10,18,/,/,/,/
2026-03-18T1700,1691A,116.0798,24.2719,梅州市,梅县新城,,39,39,45,11,26,92,92,84,84,11,24,8,9,0.5,0.6
2026-03-18T1700,3315A,116.1234,24.2994,梅州市,梅龙,,29,27,38,14,24,92,92,88,88,8,15,6,9,0.5,0.6
2026-03-18T1700,1878A,104.7775,31.4741,绵阳市,富乐山,NA,NA,54,30,16,13,97,97,78,78,10,14,NA,6,NA,0.6
2026-03-18T1700,1880A,104.6698,31.4668,绵阳市,高新区自来水公司,颗粒物(PM10),58,61,39,16,15,97,97,76,76,10,22,10,9,0.5,0.6
2026-03-18T1700,3491A,104.6899,31.5324,绵阳市,西科大附属小学,NA,NA,55,34,19,16,99,99,79,79,8,29,8,7,NA,0.5
2026-03-18T1700,3492A,104.5647,31.5343,绵阳市,安州区旅游局,颗粒物(PM10),56,58,37,16,14,94,94,74,74,10,15,5,8,0.3,0.5
2026-03-18T1700,4146A,104.7092,31.4972,绵阳市,科技城新区公安局,颗粒物(PM10),58,61,33,16,12,93,93,75,75,10,17,10,10,0.4,0.6
2026-03-18T1700,4226A,104.765114,31.453094,绵阳市,绵阳市气象局,颗粒物(PM10),56,58,35,18,15,87,87,70,70,14,23,8,8,0.3,0.4
2026-03-18T1700,1784A,129.61,44.561,牡丹江市,环保大楼,,38,38,254,22,205,86,86,68,68,11,48,2,7,0.3,1.4
2026-03-18T1700,1787A,129.6364,44.6075,牡丹江市,机车工厂,细颗粒物(PM2.5),74,54,214,47,155,83,83,63,63,9,49,5,8,0.5,1.1
2026-03-18T1700,1788A,129.6386,44.5462,牡丹江市,第一中学,NA,NA,NA,160,29,143,84,84,67,67,NA,42,NA,6,0.3,0.9
2026-03-18T1700,4287A,129.5992,44.5964,牡丹江市,东晓云街98号,,35,35,246,24,194,84,84,74,74,6,39,2,9,0.4,1.4
2026-03-18T1700,2531A,105.0703,29.61,内江市,市监测站,,38,38,23,10,7,98,98,87,87,9,10,6,6,0.4,0.5
2026-03-18T1700,2533A,105.0657,29.5807,内江市,内江二中,颗粒物(PM10),55,56,31,10,8,95,95,87,87,15,17,7,7,0.2,0.4
2026-03-18T1700,2534A,105.0407,29.5828,内江市,内江日报社,,36,36,28,11,8,97,97,90,90,9,12,9,10,0.2,0.4
2026-03-18T1700,4147A,105.0433,29.6105,内江市,玉峰路西段888号,,43,43,25,11,9,103,103,93,93,11,14,6,6,0.2,0.3
2026-03-18T1700,2628A,92.0653,31.4846,那曲市,那曲监测站,,33,25,27,3,22,104,104,90,90,3,14,5,7,0.5,0.8
2026-03-18T1700,4243A,92.0515,31.4787,那曲市,那曲市委宣传部,,35,18,21,8,14,110,110,99,99,2,9,3,4,0.4,0.6
2026-03-18T1700,1291A,115.8887,28.7006,南昌市,省林业公司,,20,6,9,3,9,64,64,41,41,12,17,3,3,1.1,0.9
2026-03-18T1700,1292A,115.813,28.7443,南昌市,林科所,NA,NA,NA,12,0,6,69,69,51,51,13,17,NA,7,0.5,1.1
2026-03-18T1700,1294A,115.8518,28.687,南昌市,建工学校,,21,12,27,3,8,66,66,43,43,21,24,7,8,0.8,0.8
2026-03-18T1700,1295A,115.8926,28.6425,南昌市,象湖,NA,NA,NA,18,2,10,64,64,40,40,13,17,7,7,0.7,0.9
2026-03-18T1700,3046A,115.9084,28.6062,南昌市,机电学校,,20,9,23,3,11,62,62,42,42,15,18,4,4,0.6,0.7
2026-03-18T1700,3690A,115.9718,28.7032,南昌市,外国语学校,,15,6,15,3,12,40,40,33,33,29,21,7,7,0.7,0.8
2026-03-18T1700,4106A,115.7923,28.6873,南昌市,工业二路,,23,6,22,3,9,72,72,52,52,15,20,4,4,0.7,0.8
2026-03-18T1700,4192A,115.931587,28.686774,南昌市,南京东路235号,,20,6,24,3,9,62,62,40,40,7,12,4,5,0.6,0.7
2026-03-18T1700,1906A,106.0791,30.8022,南充市,南充市委,,26,26,20,12,10,72,72,69,69,11,18,6,6,0.4,0.5
2026-03-18T1700,1907A,106.1038,30.8215,南充市,南充炼油厂,,48,48,28,10,9,64,64,65,65,13,15,5,4,0.4,0.4
2026-03-18T1700,4227A,106.108336,30.788436,南充市,梨树横街98号,,25,25,20,9,9,74,74,72,72,10,17,6,5,0.2,0.3
2026-03-18T1700,4304A,106.1172,30.843,南充市,清泉寺北路188号,,36,36,22,7,6,79,79,76,76,7,9,6,6,0.3,0.3
2026-03-18T1700,4305A,106.067,30.7616,南充市,同庆路1号,,30,30,22,3,5,74,74,69,69,9,18,6,6,0.4,0.5
2026-03-18T1700,1151A,118.8033,32.1085,南京市,迈皋桥,细颗粒物(PM2.5),56,46,36,38,30,81,81,80,80,18,21,4,5,0.3,0.4
2026-03-18T1700,1152A,118.7487,32.057,南京市,草场门,,45,44,30,31,26,73,73,66,66,30,34,9,8,0.7,0.6
2026-03-18T1700,1154A,118.770105,32.004342,南京市,中华门,颗粒物(PM10),51,51,30,26,19,65,65,61,61,20,21,6,4,0.8,0.7
2026-03-18T1700,1155A,118.8059,32.0329,南京市,瑞金路,,48,48,35,30,23,67,67,57,57,14,29,4,5,0.9,0.9
2026-03-18T1700,1156A,118.7946,32.0774,南京市,玄武湖,细颗粒物(PM2.5),62,NA,33,41,30,71,71,67,67,15,22,6,7,0.8,0.9
2026-03-18T1700,1157A,118.6415,32.0964,南京市,浦口,细颗粒物(PM2.5),58,43,34,39,28,71,71,64,64,18,24,4,4,0.6,0.6
2026-03-18T1700,1158A,118.730129,32.000956,南京市,奥体中心,NA,NA,NA,32,26,21,76,76,68,68,NA,28,5,10,0.4,0.4
2026-03-18T1700,1159A,118.9072,32.1047,南京市,仙林大学城,,48,44,35,33,28,64,64,62,62,32,32,6,6,0.6,0.6
2026-03-18T1700,3422A,118.8443,31.919,南京市,江宁彩虹桥,,29,29,22,17,15,86,86,74,74,32,36,4,4,0.7,0.8
2026-03-18T1700,3427A,118.8497,32.3599,南京市,六合雄州,细颗粒物(PM2.5),68,NA,35,44,35,66,66,65,65,23,22,4,4,0.7,0.6
2026-03-18T1700,4086A,118.7641,32.0841,南京市,新模范马路66号,NA,NA,56,35,NA,25,65,65,61,61,26,32,4,4,1.1,0.9
2026-03-18T1700,4249A,118.8707617,31.34017673,南京市,汶溪路181号,,20,NA,30,14,26,64,64,62,62,20,23,6,4,0.4,0.5
2026-03-18T1700,4312A,119.019,31.6512,南京市,中山西路1号,,22,22,24,9,17,65,65,55,55,13,18,4,4,0.6,0.5
2026-03-18T1700,1401A,108.3098,22.788,南宁市,二十一中,,25,23,32,17,18,78,78,71,71,9,12,4,5,0.5,0.6
2026-03-18T1700,1402A,108.3135,22.8529,南宁市,北湖,,38,38,32,17,21,77,77,73,73,11,12,3,4,0.5,0.6
2026-03-18T1700,1403A,108.3205,22.8222,南宁市,市监测站,颗粒物(PM10),65,70,42,13,17,81,81,75,75,11,12,5,8,0.5,0.6
2026-03-18T1700,1404A,108.3828,22.8038,南宁市,大自然花园,,30,30,34,17,17,89,89,81,81,8,10,6,6,0.3,0.4
2026-03-18T1700,1406A,108.2397,22.8462,南宁市,区农职院,,32,32,34,20,20,77,77,74,74,13,14,6,5,0.3,0.3
2026-03-18T1700,1407A,108.3285,22.7356,南宁市,英华嘉园,,46,46,45,18,20,73,73,72,72,15,15,4,6,0.6,0.6
2026-03-18T1700,3401A,108.4829,22.762,南宁市,红星社区,,29,29,32,15,18,88,88,83,83,7,11,4,5,0.5,0.6
2026-03-18T1700,4132A,108.2927,23.1477,南宁市,起凤路9号,,37,37,39,24,24,90,90,80,80,7,10,3,4,0.4,0.4
2026-03-18T1700,4221A,108.2177,22.7774,南宁市,乐贤路16号,,35,35,35,18,17,69,69,69,69,13,17,4,4,0.5,0.6
2026-03-18T1700,2332A,118.1682,26.6371,南平市,南平市监测站,,32,31,36,14,23,100,100,101,101,6,18,3,5,0.4,0.6
2026-03-18T1700,2334A,118.1757,26.6276,南平市,南平七中,,38,38,35,15,22,102,102,103,103,5,17,2,3,0.3,0.5
2026-03-18T1700,1168A,120.9056,31.9669,南通市,狼山街道,,25,17,38,6,28,80,80,75,75,15,26,3,3,0.4,0.5
2026-03-18T1700,1170A,120.8635,32.0231,南通市,城中,,26,21,48,9,28,83,83,80,80,13,22,3,3,0.6,0.7
2026-03-18T1700,1171A,120.9376,31.9301,南通市,星湖花园,,25,14,44,6,34,78,78,74,74,12,25,3,4,0.5,0.7
2026-03-18T1700,1172A,120.8053,32.046,南通市,紫琅学院,NA,NA,15,40,10,29,78,78,83,83,15,22,NA,4,NA,0.7
2026-03-18T1700,3291A,121.0631,32.0644,南通市,通州监测站,,30,14,36,3,26,95,95,82,82,10,15,3,3,0.4,0.6
2026-03-18T1700,3432A,120.9348,31.9874,南通市,环境教育馆,,27,19,38,3,26,84,84,78,78,16,26,3,3,0.5,0.6
2026-03-18T1700,4091A,120.8692,31.9885,南通市,洪江路,,25,20,43,6,32,78,78,73,73,13,24,2,3,0.7,0.8
2026-03-18T1700,2404A,112.5338,33.0086,南阳市,瓦房庄,颗粒物(PM10),87,101,60,46,29,94,94,67,67,11,20,5,4,0.6,0.8
2026-03-18T1700,2405A,112.5002,32.9734,南阳市,汉画馆,NA,NA,NA,56,NA,45,NA,NA,74,NA,NA,24,NA,5,NA,0.9
2026-03-18T1700,2406A,112.5778,33.0144,南阳市,气象站,颗粒物(PM10),107,138,69,39,37,100,100,71,71,12,21,6,5,0.5,0.8
2026-03-18T1700,2407A,112.548,32.9687,南阳市,理工学院,颗粒物(PM10),93,109,61,43,38,94,94,68,68,8,18,6,5,0.5,0.7
2026-03-18T1700,4008A,112.5233,32.9921,南阳市,卧龙区政府,颗粒物(PM10),82,94,52,34,36,93,93,67,67,10,19,6,6,0.5,0.8
2026-03-18T1700,1234A,121.8352,29.9111,宁波市,区环保大楼,,26,26,40,17,23,40,40,47,31,36,29,6,7,0.8,0.6
2026-03-18T1700,1235A,121.5595,29.8208,宁波市,万里学院,,20,20,36,10,27,44,44,50,35,28,21,4,5,0.9,0.7
2026-03-18T1700,1236A,121.713,29.9564,宁波市,龙赛医院,,23,23,36,15,26,40,40,33,22,32,29,5,6,0.7,0.5
2026-03-18T1700,1240A,121.5855,29.8635,宁波市,太古小学,,17,16,41,10,26,40,40,46,33,34,27,3,4,0.8,0.7
2026-03-18T1700,1241A,121.5239,29.8673,宁波市,市环境监测中心,,29,29,42,13,30,38,38,38,32,35,26,6,6,1.0,0.7
2026-03-18T1700,2871A,121.6156,29.9015,宁波市,万里国际学校,,28,28,39,10,27,36,36,39,32,34,25,3,4,0.8,0.7
2026-03-18T1700,3710A,121.5593,29.8976,宁波市,白沙活动中心,,21,21,31,9,27,40,40,38,32,30,24,4,4,0.7,0.5
2026-03-18T1700,4095A,121.8962,29.7529,宁波市,中科路88号,,18,17,39,12,27,43,43,66,39,34,22,6,6,0.9,0.6
2026-03-18T1700,2341A,119.5387,26.6611,宁德市,宁德市监测站,颗粒物(PM10),70,78,32,36,21,155,155,126,126,26,15,5,4,0.7,0.6
2026-03-18T1700,3209A,119.5231,26.6562,宁德市,宁德一中,NA,NA,80,36,37,24,152,152,115,115,22,15,5,5,NA,0.4
2026-03-18T1700,2618A,98.859,25.8541,怒江傈僳族自治州,州监测站,NA,NA,19,24,6,14,96,96,70,70,6,9,NA,7,0.5,0.6
2026-03-18T1700,2619A,98.8607,25.8168,怒江傈僳族自治州,泸水一中,,29,12,22,6,18,90,90,63,63,9,13,5,5,0.3,0.5
2026-03-18T1700,1888A,101.6891,26.571,攀枝花市,弄弄坪,,32,28,34,11,13,100,100,98,98,13,17,55,24,2.1,1.2
2026-03-18T1700,1889A,101.577,26.5914,攀枝花市,河门口,NA,NA,NA,38,14,18,110,110,99,99,4,18,5,12,0.4,0.7
2026-03-18T1700,1891A,101.7365,26.4986,攀枝花市,仁和,,34,NA,13,12,14,107,107,97,97,4,8,8,9,0.5,0.5
2026-03-18T1700,2835A,101.7222,26.567,攀枝花市,四十中小,,34,27,29,10,14,108,108,100,100,11,18,9,10,0.6,0.7
2026-03-18T1700,1604A,122.0303,41.1489,盘锦市,开发区,,37,37,40,20,33,91,91,86,86,12,14,5,6,0.4,0.5
2026-03-18T1700,1605A,122.0486,41.0883,盘锦市,兴隆台,,28,22,34,8,30,89,89,84,84,15,16,6,6,0.3,0.4
2026-03-18T1700,1606A,121.8297,41.1026,盘锦市,新生街道,,30,23,31,7,30,94,94,88,88,14,19,7,8,0.4,0.5
2026-03-18T1700,1832A,113.3257,33.7423,平顶山市,新华旅馆,颗粒物(PM10),78,88,88,31,48,88,88,83,83,12,13,2,3,0.2,0.4
2026-03-18T1700,1833A,113.2917,33.737,平顶山市,规划设计院,颗粒物(PM10),77,87,88,33,49,83,83,79,79,13,16,7,7,0.3,0.5
2026-03-18T1700,1834A,113.182,33.7738,平顶山市,平顶山工学院,颗粒物(PM10),73,81,79,23,43,90,90,83,83,12,14,4,5,0.1,0.3
2026-03-18T1700,3594A,112.8736,33.9068,平顶山市,石龙区,颗粒物(PM10),95,112,91,35,38,85,85,82,82,16,15,7,6,0.5,0.5
2026-03-18T1700,4116A,113.284,33.7139,平顶山市,姚电大道23号,颗粒物(PM10),75,84,75,31,46,90,90,85,85,14,17,6,6,0.5,0.7
2026-03-18T1700,2656A,106.6633,35.5338,平凉市,聚贤嘉苑,颗粒物(PM10),118,165,153,44,39,86,86,79,79,10,11,11,6,0.3,0.5
2026-03-18T1700,2657A,106.7021,35.5307,平凉市,博物馆,颗粒物(PM10),112,150,148,34,38,88,88,80,80,11,10,12,9,0.5,0.5
2026-03-18T1700,2348A,113.8384,27.6436,萍乡市,中医院,NA,NA,23,42,17,26,41,41,27,27,17,21,NA,9,0.9,1.2
2026-03-18T1700,2350A,113.8677,27.6438,萍乡市,市环保局,,22,22,35,10,28,47,47,29,29,11,18,5,6,1.0,1.3
2026-03-18T1700,2351A,113.8663,27.6202,萍乡市,安源区政府,,16,NA,30,11,24,41,41,26,26,13,16,5,7,0.5,0.6
2026-03-18T1700,4107A,113.8686,27.6668,萍乡市,联洪村委会,,23,23,41,10,27,38,38,23,23,18,24,4,7,0.7,0.9
2026-03-18T1700,2319A,119.0142,25.4324,莆田市,荔城区仓后路,颗粒物(PM10),65,70,53,8,36,97,97,128,128,18,23,/,/,/,/
2026-03-18T1700,2320A,119.0016,25.4553,莆田市,莆田市监测站,颗粒物(PM10),55,56,45,8,31,114,114,134,134,12,15,4,3,0.2,0.3
2026-03-18T1700,2321A,119.112,25.4561,莆田市,涵江区六中,颗粒物(PM10),60,64,47,6,32,95,95,128,128,11,18,/,/,0.2,0.4
2026-03-18T1700,2322A,119.1014,25.3215,莆田市,秀屿区政府,,48,48,51,6,39,87,87,125,125,11,16,5,4,0.3,0.4
2026-03-18T1700,2392A,115.0312,35.7636,濮阳市,环保局,,36,36,56,13,52,80,80,75,75,8,12,5,5,0.4,0.6
2026-03-18T1700,3021A,115,35.7667,濮阳市,濮水河管理处,,38,38,76,12,51,86,86,80,80,9,13,8,7,0.3,0.6
2026-03-18T1700,4118A,115.0552,35.7816,濮阳市,中原东路68号,,38,38,80,19,53,81,81,77,77,6,10,5,5,0.3,0.7
2026-03-18T1700,4216A,115.0923632,35.76857718,濮阳市,任丘路479号,NA,NA,41,73,NA,52,76,76,78,78,12,16,NA,5,NA,0.8
2026-03-18T1700,2601A,100.9801,22.7634,普洱市,市环保局,颗粒物(PM10),64,69,63,29,30,122,122,114,114,6,9,7,6,0.5,0.6
2026-03-18T1700,2602A,100.9763,22.8237,普洱市,普洱第二中学,颗粒物(PM10),62,66,60,34,34,120,120,105,105,5,14,4,3,0.4,0.6
2026-03-18T1700,3345A,131.0413,45.7795,七台河市,中波台,,24,18,127,11,102,75,75,69,69,10,20,11,14,0.7,0.8
2026-03-18T1700,3637A,131.0136,45.7688,七台河市,人民广场,,28,28,126,19,86,67,67,72,72,20,21,14,15,0.5,0.7
2026-03-18T1700,3684A,130.8639,45.8144,七台河市,新建矿广场,,29,29,132,20,94,75,75,65,65,11,36,4,9,0.2,0.5
2026-03-18T1700,1779A,123.9307,47.3641,齐齐哈尔市,安居小区,NA,NA,NA,87,NA,37,85,85,91,91,5,9,NA,5,0.3,0.4
2026-03-18T1700,1780A,123.9497,47.3389,齐齐哈尔市,中心广场,,27,27,88,9,42,79,79,87,87,8,11,7,10,0.4,0.5
2026-03-18T1700,1781A,123.9483,47.3229,齐齐哈尔市,农牧车辆厂,,39,39,81,21,45,80,80,86,86,5,8,7,8,0.3,0.4
2026-03-18T1700,1783A,123.9442,47.2994,齐齐哈尔市,市环境监测站,,40,40,102,11,40,80,80,86,86,6,9,2,4,0.3,0.5
2026-03-18T1700,3662A,123.6341,47.2079,齐齐哈尔市,富区青少年活动中心,细颗粒物(PM2.5),88,76,101,54,39,86,86,88,88,12,13,4,5,0.7,0.7
2026-03-18T1700,2591A,107.9765,26.5724,黔东南苗族侗族自治州,市环境监测站,,20,9,10,8,8,64,64,40,40,8,9,2,2,0.7,0.8
2026-03-18T1700,2881A,107.8909,26.531,黔东南苗族侗族自治州,凯里学院,,19,14,12,8,8,59,59,40,40,17,13,4,4,0.9,0.9
2026-03-18T1700,2593A,107.5223,26.2371,黔南布依族苗族自治州,小围寨,,18,NA,9,12,9,44,44,36,36,9,6,3,5,0.9,0.8
2026-03-18T1700,3538A,107.5175,26.2977,黔南布依族苗族自治州,沙坝,NA,NA,NA,15,NA,10,49,49,40,40,6,7,4,4,NA,0.8
2026-03-18T1700,2589A,104.9022,25.0943,黔西南布依族苗族自治州,场坝街,,38,NA,25,26,23,98,98,88,85,7,7,6,7,0.4,0.5
2026-03-18T1700,2590A,104.8812,25.0994,黔西南布依族苗族自治州,坪东大道,,38,NA,31,26,26,94,94,80,80,6,12,5,6,0.5,0.5
2026-03-18T1700,2502A,108.6238,21.9667,钦州市,市环保站,颗粒物(PM10),55,56,42,17,15,76,76,71,71,18,20,6,6,0.5,0.5
2026-03-18T1700,2503A,108.655,21.9481,钦州市,沙埠小学,颗粒物(PM10),57,59,44,17,20,82,82,75,75,11,19,10,7,0.4,0.4
2026-03-18T1700,2504A,108.5989,21.7435,钦州市,港区一小,颗粒物(PM10),53,54,47,21,20,86,86,74,74,12,18,2,3,0.4,0.4
2026-03-18T1700,3404A,108.5959,21.9634,钦州市,北职校,NA,NA,NA,37,NA,19,73,73,71,71,14,18,NA,7,0.5,0.5
2026-03-18T1700,1046A,119.5247,39.9346,秦皇岛市,建设大厦,,27,24,76,16,57,86,86,78,78,2,7,5,5,0.3,0.5
2026-03-18T1700,3132A,119.5979,39.938,秦皇岛市,文明里,,43,43,83,12,56,87,87,78,78,7,20,8,9,0.2,0.5
2026-03-18T1700,4066A,119.7458,39.9952,秦皇岛市,南园路157号,,28,28,67,13,58,87,87,78,78,12,27,6,7,0.2,0.4
2026-03-18T1700,4067A,119.5131,39.8858,秦皇岛市,翠岛大街1号,,35,35,71,8,59,83,83,74,74,8,17,8,8,0.3,0.5
2026-03-18T1700,4198A,119.509013,39.825305,秦皇岛市,北戴河轮滑馆,,28,27,73,13,54,89,89,80,80,12,24,6,6,0.2,0.4
2026-03-18T1700,1310A,120.404,36.0625,青岛市,市南区东部子站,,41,41,44,6,31,85,85,96,81,14,19,9,10,0.4,0.5
2026-03-18T1700,1311A,120.362344,36.10282,青岛市,四方区子站,,39,39,46,7,38,88,88,98,89,12,18,6,6,0.5,0.6
2026-03-18T1700,1312A,120.294373,36.054183,青岛市,市南区西部子站,,29,29,38,6,33,78,78,86,79,18,21,4,3,0.4,0.6
2026-03-18T1700,1313A,120.4581,36.0858,青岛市,崂山区子站,,36,36,41,6,29,87,87,100,89,14,16,7,7,0.4,0.5
2026-03-18T1700,1315A,120.3945,36.3083,青岛市,城阳区子站,,34,34,49,3,35,86,86,88,88,15,23,7,6,0.5,0.6
2026-03-18T1700,3642A,120.3454,36.0735,青岛市,市北区南部,,28,28,44,6,26,79,79,97,82,14,13,7,3,0.5,0.7
2026-03-18T1700,3643A,120.3897,36.18,青岛市,李沧区北部,,44,44,46,6,36,86,86,94,87,14,20,9,8,0.4,0.5
2026-03-18T1700,4110A,120.5222,36.4089,青岛市,盟旺路653号,,29,23,44,3,32,90,90,93,93,8,11,2,2,0.7,0.7
2026-03-18T1700,4290A,120.196923,35.954556,青岛市,珠江路669号,NA,NA,NA,41,6,35,82,82,99,82,24,25,5,5,0.4,0.5
2026-03-18T1700,4291A,120.0424,35.8656,青岛市,黄岛区人民政府广场,,46,46,37,6,28,85,85,91,85,13,14,7,7,0.4,0.6
2026-03-18T1700,1703A,113.0218,23.7086,清远市,凤城街办,,40,34,40,18,20,126,126,95,95,17,29,/,/,/,/
2026-03-18T1700,3025A,113.0479,23.6343,清远市,技师学院,,45,33,43,14,19,142,142,105,105,13,30,6,6,0.3,0.3
2026-03-18T1700,3318A,112.9898,23.7403,清远市,清新太和,,46,34,42,18,20,147,147,111,111,12,26,7,7,0.3,0.3
2026-03-18T1700,3455A,113.076,23.72,清远市,清城东城,,46,44,50,22,20,147,147,103,103,14,28,/,/,/,/
2026-03-18T1700,2661A,107.6325,35.7357,庆阳市,庆阳五中,颗粒物(PM10),105,131,143,27,28,95,95,89,89,10,8,6,5,0.2,0.2
2026-03-18T1700,2662A,107.6361,35.7067,庆阳市,市环保局,颗粒物(PM10),105,131,141,34,28,93,93,88,88,11,10,7,5,0.4,0.3
2026-03-18T1700,1916A,103.7897,25.5036,曲靖市,环境监测站,,40,40,33,9,20,120,120,122,122,6,9,6,7,0.3,0.5
2026-03-18T1700,1917A,103.8013,25.5357,曲靖市,烟厂办公区,,34,30,32,8,16,106,106,105,105,4,8,4,4,0.3,0.4
2026-03-18T1700,3376A,103.7926,25.4651,曲靖市,南苑二区,,33,24,29,8,15,104,104,104,104,10,13,4,4,0.2,0.3
2026-03-18T1700,3377A,103.7442,25.5259,曲靖市,曲靖师范学院,,35,20,36,14,22,110,110,112,112,4,10,1,3,0.2,0.2
2026-03-18T1700,1264A,118.8694,28.94,衢州市,环保大楼,,15,8,71,6,48,47,47,74,74,13,33,/,/,/,/
2026-03-18T1700,1266A,118.8622,28.9809,衢州市,衢州学院,,16,9,58,7,41,50,50,79,78,12,38,4,5,0.8,0.7
2026-03-18T1700,4097A,118.9646,28.9832,衢州市,衢州三中,NA,NA,NA,75,NA,49,38,38,83,81,17,40,5,8,0.9,0.8
2026-03-18T1700,1611A,118.5818,24.9116,泉州市,涂山街,,29,29,46,7,27,71,71,84,84,9,21,4,5,0.4,0.5
2026-03-18T1700,1612A,118.597,24.8976,泉州市,津头埔,,25,25,47,6,29,73,73,87,87,10,23,3,4,0.4,0.6
2026-03-18T1700,1613A,118.6669,24.9422,泉州市,万安,,26,26,46,6,28,69,69,84,84,7,27,3,4,0.4,0.5
2026-03-18T1700,4105A,118.6355,24.9148,泉州市,霞新路6号,,21,15,39,7,26,66,66,81,81,8,24,/,/,0.3,0.4
2026-03-18T1700,2626A,88.8873,29.2723,日喀则市,日喀则监测站,,36,11,29,3,12,115,115,98,98,4,12,6,6,0.3,0.4
2026-03-18T1700,3726A,88.8775,29.2425,日喀则市,林业技术推广中心,,36,7,24,3,4,113,113,103,103,2,4,3,4,0.3,0.3
2026-03-18T1700,1659A,119.4711,35.421,日照市,监测站,,28,27,47,3,33,88,88,79,73,11,23,6,6,0.5,0.6
2026-03-18T1700,1660A,119.523,35.4216,日照市,市政府广场,,28,24,45,3,35,89,89,86,75,14,21,5,5,0.4,0.5
2026-03-18T1700,1661A,119.5511,35.4113,日照市,港务局,,28,27,46,3,31,88,88,82,75,14,24,4,4,0.5,0.7
2026-03-18T1700,3507A,119.5326,35.4627,日照市,职业技术学院,,28,27,40,3,30,87,87,81,78,14,24,6,6,0.6,0.7
2026-03-18T1700,3604A,119.3267,35.1043,日照市,岚山环保分局,,44,44,59,11,39,90,90,78,63,19,25,12,12,0.6,1
2026-03-18T1700,1835A,111.1922,34.7752,三门峡市,市政府,颗粒物(PM10),99,118,82,19,25,88,88,71,71,11,29,8,10,0.3,0.6
2026-03-18T1700,1836A,111.1588,34.794,三门峡市,开发区,颗粒物(PM10),106,135,67,18,31,86,86,70,70,5,20,9,10,0.2,0.4
2026-03-18T1700,3039A,111.1911,34.7829,三门峡市,三门峡市第一小学,颗粒物(PM10),112,151,92,16,29,90,90,72,72,8,24,NA,12,0.3,0.5
2026-03-18T1700,3598A,111.1031,34.719,三门峡市,富达温泉假日酒店,颗粒物(PM10),113,152,98,25,28,87,87,74,74,15,22,12,12,0.3,0.5
2026-03-18T1700,2324A,117.621,26.2626,三明市,三钢,,28,25,32,18,22,89,89,100,100,16,21,13,10,1.2,1.2
2026-03-18T1700,2325A,117.6352,26.2714,三明市,三明二中,,30,26,31,16,20,94,94,98,98,8,18,5,7,0.7,0.6
2026-03-18T1700,2326A,117.6028,26.2377,三明市,三元区政府,,31,31,29,21,23,97,97,101,101,9,14,5,7,0.5,0.5
2026-03-18T1700,1877A,109.4962,18.2682,三亚市,河西子站,,30,30,26,10,12,69,69,77,77,6,5,4,4,0.3,0.4
2026-03-18T1700,3540A,109.7348,18.3443,三亚市,君悦子站,,39,39,27,9,12,78,78,75,75,3,8,4,4,0.3,0.4
2026-03-18T1700,4135A,109.1714,18.3739,三亚市,城东小学站,,35,35,28,10,14,73,73,82,82,7,8,/,/,/,/
2026-03-18T1700,2624A,91.7592,29.234,山南市,山南监测站,,34,17,25,3,7,107,107,90,90,2,5,2,2,0.2,0.2
2026-03-18T1700,2625A,91.7701,29.2436,山南市,山南人民医院,,35,23,29,3,6,109,109,92,92,2,4,6,6,0.3,0.3
2026-03-18T1700,1674A,116.6795,23.3666,汕头市,金平子站,,36,36,35,12,23,108,108,94,94,18,23,6,7,0.9,0.6
2026-03-18T1700,1675A,116.7248,23.3632,汕头市,龙湖子站,,39,39,36,9,23,89,89,95,95,13,19,6,6,/,/
2026-03-18T1700,1676A,116.7257,23.2774,汕头市,濠江子站,,40,40,37,21,22,121,121,96,96,11,16,8,8,/,/
2026-03-18T1700,1677A,116.7518,23.4712,汕头市,澄海子站,颗粒物(PM10),54,55,44,15,26,86,86,89,89,13,18,7,8,0.6,0.7
2026-03-18T1700,1678A,116.6088,23.2539,汕头市,潮阳子站,,32,32,32,13,22,101,101,89,89,5,11,6,6,0.5,0.6
2026-03-18T1700,3444A,116.4539,23.2684,汕头市,潮南峡山,,27,17,41,8,24,86,86,92,92,2,9,6,6,0.6,0.8
2026-03-18T1700,3624A,116.4069,23.2533,汕头市,潮南子站,,24,20,52,7,29,75,75,84,84,3,11,6,7,/,/
2026-03-18T1700,1693A,115.3653,22.7751,汕尾市,市环保局,NA,NA,27,32,7,17,80,80,89,89,NA,9,5,6,1.3,0.6
2026-03-18T1700,1695A,115.362,22.7926,汕尾市,新城中学,,30,30,31,11,15,95,95,92,92,6,8,6,6,0.4,0.4
2026-03-18T1700,2645A,109.9155,33.8714,商洛市,监测站,颗粒物(PM10),108,139,51,40,19,96,96,83,83,6,14,5,5,0.2,0.5
2026-03-18T1700,3045A,109.9647,33.8486,商洛市,商州区中学,颗粒物(PM10),121,174,71,38,22,95,95,82,82,5,21,4,4,0.3,0.5
2026-03-18T1700,2408A,115.6701,34.4283,商丘市,环境监测站,,36,35,72,25,71,78,78,51,51,5,15,1,2,0.4,0.6
2026-03-18T1700,2409A,115.6458,34.4047,商丘市,粮食局,,33,32,59,23,67,77,77,51,48,11,23,1,1,0.3,0.6
2026-03-18T1700,3171A,115.6069,34.4465,商丘市,梁园区档案局,,45,45,54,25,60,82,82,50,50,9,19,2,2,0.3,0.5
2026-03-18T1700,4119A,115.6701,34.3767,商丘市,北海东路185号,,29,24,67,20,62,80,80,51,51,7,21,3,3,0.3,0.5
2026-03-18T1700,4120A,115.6172,34.3704,商丘市,中山大街3号,,32,24,67,22,60,82,82,51,51,7,20,3,3,0.3,0.6
2026-03-18T1700,1141A,121.401,31.2382,上海市,普陀,,21,NA,39,13,36,66,66,41,41,28,35,5,5,0.6,0.8
2026-03-18T1700,1142A,121.4774,31.2043,上海市,十五厂,,25,11,43,10,36,78,78,49,49,25,32,8,8,0.7,0.8
2026-03-18T1700,1143A,121.4673,31.3011,上海市,虹口,,26,10,41,10,34,82,82,43,43,20,30,4,5,0.4,0.5
2026-03-18T1700,1147A,121.4253,31.226,上海市,静安监测站,,22,NA,37,10,32,68,68,47,47,31,34,7,7,0.6,0.7
2026-03-18T1700,1148A,121.7029,31.1905,上海市,浦东川沙,,24,NA,38,10,33,74,74,46,46,27,32,5,5,0.6,0.7
2026-03-18T1700,1149A,121.5339,31.229,上海市,浦东新区监测站,,23,10,37,10,31,72,72,51,42,29,28,4,5,0.7,0.7
2026-03-18T1700,1150A,121.5776,31.2038,上海市,浦东张江,,25,NA,38,10,30,77,77,48,48,26,29,6,6,0.3,0.4
2026-03-18T1700,3265A,121.4242,31.3303,上海市,宝山庙行,,20,10,46,3,33,64,64,44,44,33,33,4,4,0.5,0.6
2026-03-18T1700,3266A,121.8789,31.4662,上海市,崇明上实东滩,,30,NA,31,7,27,94,94,72,72,7,25,7,7,0.3,0.4
2026-03-18T1700,3268A,121.316,31.2839,上海市,嘉定南翔,,18,11,37,11,33,56,56,50,50,30,32,4,4,0.7,0.6
2026-03-18T1700,3269A,121.3357,30.7455,上海市,金山新城,,40,29,35,28,30,50,50,47,39,33,23,3,4,0.9,0.9
2026-03-18T1700,3270A,121.4996,31.0741,上海市,闵行浦江,,47,47,62,17,36,53,53,35,35,34,36,6,6,0.7,0.4
2026-03-18T1700,3271A,121.2886,31.1663,上海市,青浦徐泾,NA,NA,18,41,18,36,53,53,37,37,NA,38,NA,4,0.6,0.7
2026-03-18T1700,3272A,121.2193,31.0382,上海市,松江图书馆,,39,NA,45,27,37,57,57,45,45,33,30,6,6,0.7,0.7
2026-03-18T1700,3273A,121.3904,31.206,上海市,长宁仙霞,,20,12,42,11,34,64,64,42,42,26,33,8,8,0.3,0.4
2026-03-18T1700,3274A,121.7964,31.0507,上海市,浦东惠南,,21,NA,32,12,33,67,67,43,35,31,28,5,5,0.6,0.7
2026-03-18T1700,3544A,121.4891,30.925,上海市,奉贤南桥新城,,36,25,34,25,32,44,44,53,36,42,25,3,3,0.7,0.7
2026-03-18T1700,4183A,121.417401,31.16637,上海市,冠生园路458号,,21,12,42,11,36,66,66,43,43,24,32,6,6,0.5,0.6
2026-03-18T1700,4205A,121.541914,31.268301,上海市,宁武路151号,,24,NA,39,10,34,75,75,46,46,30,31,6,6,0.8,1
2026-03-18T1700,2382A,117.9758,28.4439,上饶市,市监测站,,25,25,49,3,31,48,48,72,71,22,22,6,12,/,/
2026-03-18T1700,2383A,117.9521,28.4637,上饶市,凤凰光学,,28,28,53,3,35,39,39,61,58,21,23,8,13,1.2,1
2026-03-18T1700,3685A,117.897,28.4316,上饶市,双创科技城,,24,24,51,3,32,51,51,76,75,16,20,4,11,1.1,1
2026-03-18T1700,4211A,118.190438,28.444845,上饶市,裕丰大道,,36,36,66,6,39,46,46,76,74,17,19,15,25,1.1,1.1
2026-03-18T1700,1669A,113.5821,24.7733,韶关市,市八中,NA,NA,NA,36,32,22,NA,NA,92,92,17,22,6,15,0.5,0.4
2026-03-18T1700,1671A,113.5916,24.7973,韶关市,园林处,细颗粒物(PM2.5),54,48,38,37,24,84,84,88,88,16,22,8,14,/,/
2026-03-18T1700,1673A,113.5971,24.6864,韶关市,曲江监测站,,41,41,38,27,24,115,115,94,94,20,18,6,8,0.6,0.5
2026-03-18T1700,2809A,113.6668,24.7756,韶关市,大学路288号,,47,47,42,24,21,115,115,99,99,15,15,8,12,/,/
2026-03-18T1700,3622A,113.5556,24.8082,韶关市,碧湖山庄,颗粒物(PM10),63,67,104,36,26,68,68,81,81,20,22,9,8,0.7,0.5
2026-03-18T1700,2464A,111.5277,27.2442,邵阳市,市化工厂,,23,NA,23,16,20,68,68,66,66,8,11,6,7,0.8,0.4
2026-03-18T1700,2466A,111.4327,27.2276,邵阳市,市环保局,NA,NA,31,23,13,18,70,70,69,69,NA,11,NA,4,0.9,1.1
2026-03-18T1700,4218A,111.446,27.2472,邵阳市,北塔二期4-26地块,,25,NA,20,17,16,60,60,60,60,9,11,3,4,1.0,1.1
2026-03-18T1700,4219A,111.4739,27.2282,邵阳市,邵水西路287号,,22,12,22,11,18,70,70,67,67,10,13,5,6,0.8,1
2026-03-18T1700,1247A,120.6053,29.9927,绍兴市,城东开发委,,20,16,47,14,37,44,44,32,32,28,44,7,9,0.7,0.7
2026-03-18T1700,2921A,120.5482,30.0003,绍兴市,树下王站,,20,19,58,14,40,38,38,28,28,25,42,6,7,0.7,0.6
2026-03-18T1700,3408A,120.5685,29.936,绍兴市,绍兴中专,,20,20,53,11,34,35,35,32,32,28,38,8,8,0.7,0.8
2026-03-18T1700,3409A,120.4905,30.086,绍兴市,柯桥区政府,,20,20,52,14,43,44,44,32,32,28,44,5,7,1.0,1
2026-03-18T1700,3410A,120.8751,30.0249,绍兴市,重华小学,,25,21,50,17,38,50,50,30,30,28,40,7,7,0.7,0.7
2026-03-18T1700,3411A,120.837,30.0137,绍兴市,上虞中学,,28,23,57,19,42,45,45,26,26,26,44,6,6,0.7,0.7
2026-03-18T1700,3560A,120.4715,30.0414,绍兴市,柯桥妇保,,17,17,55,10,38,40,40,27,27,24,40,6,6,0.8,0.8
2026-03-18T1700,3658A,120.6156,30.0762,绍兴市,袍江中学,,22,20,52,15,34,39,39,29,29,32,44,8,7,0.6,0.8
2026-03-18T1700,1356A,114.0948,22.5506,深圳市,通心岭子站,,25,18,26,10,13,79,79,78,78,16,14,5,5,0.3,0.4
2026-03-18T1700,1357A,114.1153,22.5713,深圳市,洪湖,,26,26,33,9,16,74,74,78,78,24,27,6,5,0.3,0.3
2026-03-18T1700,1358A,113.9823,22.5398,深圳市,华侨城,,24,24,29,8,14,58,58,66,66,29,16,/,/,/,/
2026-03-18T1700,1359A,113.9181,22.517,深圳市,南海子站,,23,19,32,7,17,72,72,66,66,11,17,3,3,0.3,0.4
2026-03-18T1700,1360A,114.2345,22.565,深圳市,盐田,,28,28,28,11,13,51,51,67,67,40,28,8,7,0.3,0.3
