timepoint,stationcode,longitude,latitude,area,positionname,primarypollutant,aqi,pm10,pm10_24h,pm2_5,pm2_5_24h,o3,o3_24h,o3_8h,o3_8h_24h,no2,no2_24h,so2,so2_24h,co,co_24h
2025-06-28T2300,2566A,102.1879,31.914,阿坝藏族羌族自治州,州农科所,,27,27,19,12,9,41,,78,64,10,8,12,12,0.6,0.5
2025-06-28T2300,2568A,102.2502,31.8896,阿坝藏族羌族自治州,马师校,,33,26,23,23,17,27,,109,79,31,11,6,6,0.4,0.4
2025-06-28T2300,3994A,102.2165,31.9024,阿坝藏族羌族自治州,马尔康中学西区,,,,18,30,18,58,,115,96,11,6,6,6,,0.5
2025-06-28T2300,2695A,80.292,41.1694,阿克苏地区,电视台,颗粒物(PM10),62,74,37,22,15,110,,142,137,24,12,3,6,0.8,0.7
2025-06-28T2300,2696A,80.2613,41.1551,阿克苏地区,艺术中心,颗粒物(PM10),89,128,59,42,24,109,,147,142,16,4,4,4,0.4,0.3
2025-06-28T2300,2204A,105.6467,38.8363,阿拉善盟,西城区西花园,臭氧1小时,60,24,18,20,12,168,,172,172,11,9,7,6,0.8,0.7
2025-06-28T2300,2205A,105.6985,38.8411,阿拉善盟,蒙二幼,,49,39,23,23,12,156,,156,156,9,8,8,7,0.7,0.6
2025-06-28T2300,2206A,105.724,38.8516,阿拉善盟,环保局新楼,臭氧1小时,63,29,17,21,12,170,,161,161,5,5,9,9,0.7,0.6
2025-06-28T2300,2708A,88.1264,47.8517,阿勒泰地区,市站,,33,,17,14,6,103,,112,111,8,7,1,1,0.2,0.3
2025-06-28T2300,2630A,80.1161,32.5,阿里地区,阿里监测站,,,,5,,4,118,,129,128,,7,5,8,0.3,0.3
2025-06-28T2300,3192A,80.0903,32.5028,阿里地区,阿里藏医院,,39,18,10,3,5,124,,134,133,1,3,8,8,0.4,0.4
2025-06-28T2300,2642A,109.0318,32.6537,安康市,香溪洞,,37,23,24,13,12,117,,112,112,3,6,4,5,0.4,0.5
2025-06-28T2300,2644A,109.0072,32.6975,安康市,汉滨区检察院,,34,19,25,3,13,108,,112,106,4,8,5,11,0.2,0.4
2025-06-28T2300,4054A,109.0325,32.6913,安康市,市邮政管理局,,34,15,23,11,12,108,,110,103,3,9,5,10,0.4,0.6
2025-06-28T2300,2291A,117.0809,30.5177,安庆市,环科院,,19,19,12,6,6,7,,60,34,30,18,3,3,0.5,0.5
2025-06-28T2300,2292A,117.0331,30.5119,安庆市,马山宾馆,,17,17,14,3,5,12,,54,34,27,19,3,3,0.4,0.4
2025-06-28T2300,2294A,116.9896,30.6145,安庆市,安庆大学,,19,19,14,9,7,20,,70,48,24,15,4,3,0.4,0.4
2025-06-28T2300,3173A,117.0598,30.5351,安庆市,市人大,,13,13,12,6,6,24,,65,47,20,15,4,3,0.4,0.4
2025-06-28T2300,3122A,105.9606,26.2611,安顺市,伍家关,,,,10,8,7,55,,55,55,2,2,3,3,0.4,0.4
2025-06-28T2300,3123A,105.9408,26.2431,安顺市,凤凰山,,19,10,12,7,6,60,,61,60,6,6,3,3,0.4,0.4
2025-06-28T2300,3124A,105.9439,26.2564,安顺市,金钟山,,19,9,10,7,7,59,,60,60,4,4,4,5,0.5,0.5
2025-06-28T2300,3125A,105.8983,26.2481,安顺市,娄家坡,,19,6,8,3,5,58,,56,56,2,2,3,4,0.5,0.5
2025-06-28T2300,1818A,114.4839,36.0621,安阳市,棉研所,,,,,,,,,,,,,,,,
2025-06-28T2300,1819A,114.3551,36.1017,安阳市,红庙街,,29,24,36,19,23,91,,102,102,2,3,2,4,0.5,0.5
2025-06-28T2300,1820A,114.361,36.0681,安阳市,银杏小区,,41,41,36,25,31,92,,121,114,1,2,2,2,0.5,0.6
2025-06-28T2300,3141A,114.3922,36.0878,安阳市,信访局,,42,42,35,14,20,96,,121,118,4,3,1,2,0.6,0.7
2025-06-28T2300,3669A,114.4705,36.0637,安阳市,左辅环卫站,,33,27,35,23,24,105,,111,111,6,5,5,5,0.5,0.6
2025-06-28T2300,3703A,114.2917,36.0949,安阳市,安钢职工学校,,43,43,43,21,36,85,,101,97,17,7,9,4,1.2,0.8
2025-06-28T2300,1748A,123.044,41.1196,鞍山市,深沟寺,,45,41,24,31,16,37,,82,58,8,11,5,5,1.0,1.1
2025-06-28T2300,1749A,123.011,41.0931,鞍山市,太阳城,,46,46,28,28,19,29,,93,72,13,12,6,6,1.4,1.1
2025-06-28T2300,1750A,123.0485,41.1442,鞍山市,太平,细颗粒物(PM2.5),74,93,39,54,23,78,,91,80,8,18,6,6,0.9,1.1
2025-06-28T2300,1751A,122.9642,41.0971,鞍山市,铁西三道街,细颗粒物(PM2.5),84,74,35,62,24,65,,101,94,21,14,6,6,1.5,1
2025-06-28T2300,1753A,123.022,41.0821,鞍山市,明达新区,,48,39,23,33,19,51,,84,70,13,10,6,6,1.0,0.9
2025-06-28T2300,1754A,123.1289,41.0228,鞍山市,千山,,,,,,,,,,,,,,,,
2025-06-28T2300,4201A,122.9446,41.0826,鞍山市,兴盛南路290号,细颗粒物(PM2.5),63,69,36,45,23,58,,98,89,27,16,3,4,0.9,0.8
2025-06-28T2300,2195A,107.4212,40.761,巴彦淖尔市,附二中,,37,32,34,20,19,118,,170,152,9,15,6,7,0.6,0.6
2025-06-28T2300,2196A,107.37,40.7372,巴彦淖尔市,市环保大楼,,41,41,49,27,23,130,,165,154,11,16,8,8,0.5,0.5
2025-06-28T2300,1956A,86.1472,41.7538,巴音郭楞蒙古自治州,孔雀公园,颗粒物(PM10),62,74,26,28,11,35,,132,116,75,15,2,3,0.6,0.2
2025-06-28T2300,1957A,86.1972,41.7166,巴音郭楞蒙古自治州,棉纺厂,颗粒物(PM10),53,55,43,16,6,84,,135,129,40,16,4,4,0.5,0.2
2025-06-28T2300,1958A,86.2357,41.7173,巴音郭楞蒙古自治州,经济开发区,,48,48,18,3,5,75,,134,127,25,5,2,2,0.2,0.2
2025-06-28T2300,2914A,106.7677,31.8794,巴中市,苏山坪,,34,17,17,14,13,106,,118,115,9,7,5,4,0.5,0.4
2025-06-28T2300,3181A,106.7768,31.8526,巴中市,市五中,,30,30,24,18,15,52,,128,108,21,14,7,8,0.6,0.6
2025-06-28T2300,3183A,106.7418,31.8654,巴中市,圣泉水务公司,,24,24,21,13,14,56,,128,103,27,14,6,6,0.7,0.6
2025-06-28T2300,3616A,106.7616,31.8344,巴中市,市中心医院,,26,26,24,12,12,44,,120,101,30,17,7,7,0.6,0.5
2025-06-28T2300,2235A,122.7911,45.6077,白城市,洮北区环保局,,33,,16,23,17,82,,116,109,11,9,4,3,0.3,0.3
2025-06-28T2300,2236A,122.8738,45.5725,白城市,市环保局,,21,19,16,12,13,67,,105,97,16,8,7,6,0.5,0.4
2025-06-28T2300,2231A,126.4219,41.9171,白山市,喜丰,,28,28,35,8,17,7,,79,60,36,15,6,7,0.9,0.9
2025-06-28T2300,2232A,126.4077,41.9419,白山市,环保局,,37,37,36,11,16,40,,87,75,9,11,4,8,0.8,0.7
2025-06-28T2300,2647A,104.1724,36.5446,白银市,第三小学,二氧化硫,59,57,45,20,19,106,,150,136,23,16,207,64,1.2,0.7
2025-06-28T2300,2648A,104.1465,36.5482,白银市,动力公司,颗粒物(PM10),65,80,41,26,19,89,,143,127,27,16,19,35,0.8,0.6
2025-06-28T2300,2512A,106.6103,23.9011,百色市,市监测站,,26,26,27,13,15,49,,74,69,13,10,16,8,0.6,0.5
2025-06-28T2300,2513A,106.6538,23.8859,百色市,市中心血站,,22,22,30,13,17,48,,72,66,12,12,11,7,0.7,0.7
2025-06-28T2300,3406A,106.6085,23.8798,百色市,祈福高中,,29,29,36,14,20,46,,70,64,16,14,14,9,0.5,0.5
2025-06-28T2300,2270A,117.396,32.939,蚌埠市,工人疗养院,,23,15,15,3,4,72,,80,80,2,6,4,4,0.3,0.4
2025-06-28T2300,2271A,117.3605,32.9427,蚌埠市,百货大楼,,21,12,17,3,4,65,,74,74,6,10,5,5,0.3,0.4
2025-06-28T2300,2273A,117.4185,32.8911,蚌埠市,蚌埠学院,,22,7,11,3,5,69,,74,74,2,4,5,5,0.3,0.3
2025-06-28T2300,2274A,117.3533,32.9673,蚌埠市,淮上区政府,,23,12,13,3,6,73,,79,79,3,8,5,5,0.4,0.5
2025-06-28T2300,2275A,117.3145,32.8977,蚌埠市,高新区,,20,14,14,3,6,64,,78,78,7,10,5,6,0.4,0.5
2025-06-28T2300,3715A,117.3092,32.9314,蚌埠市,蚌埠田家炳中学,,19,13,19,6,7,60,,72,72,5,8,6,7,0.2,0.3
2025-06-28T2300,1585A,109.8756,40.6532,包头市,市环境监测站,细颗粒物(PM2.5),54,43,27,38,19,88,,158,132,33,20,8,11,0.6,0.6
2025-06-28T2300,1587A,109.9991,40.5842,包头市,包头八中,颗粒物(PM10),56,62,37,35,24,91,,158,140,41,20,7,13,0.8,0.8
2025-06-28T2300,1588A,109.8538,40.6821,包头市,青山宾馆,细颗粒物(PM2.5),53,42,25,37,22,62,,148,94,44,24,9,10,0.8,0.6
2025-06-28T2300,1589A,109.8642,40.6288,包头市,惠龙物流,,35,32,24,23,18,109,,155,136,24,17,7,9,0.8,0.8
2025-06-28T2300,1590A,110.0377,40.5546,包头市,东河鸿龙湾,,37,37,26,14,18,104,,165,143,30,16,12,10,0.9,0.7
2025-06-28T2300,3283A,109.9154,40.5685,包头市,滨河大厦,,40,40,22,24,18,96,,168,148,34,14,13,10,0.9,0.7
2025-06-28T2300,3419A,109.9447,40.6261,包头市,包头市委党校,,44,44,27,29,23,96,,154,134,28,19,10,14,0.8,0.8
2025-06-28T2300,3683A,109.8331,40.6576,包头市,昆区政府,颗粒物(PM10),51,52,35,35,24,100,,152,128,28,18,7,10,0.9,0.9
2025-06-28T2300,1930A,107.185,34.3063,宝鸡市,庙沟村,,35,18,24,13,12,110,,155,139,9,12,5,5,0.3,0.3
2025-06-28T2300,1931A,107.0708,34.3017,宝鸡市,竹园沟,,24,23,27,12,13,76,,160,133,15,14,6,6,0.4,0.4
2025-06-28T2300,1932A,107.1906,34.3672,宝鸡市,三陆医院,,33,30,30,23,14,87,,158,139,35,24,6,7,0.6,0.5
2025-06-28T2300,1933A,107.1431,34.3547,宝鸡市,监测站,,29,27,34,20,16,63,,148,127,25,16,7,8,0.3,0.3
2025-06-28T2300,1934A,107.1186,34.3739,宝鸡市,技工学校,,37,37,29,21,14,97,,157,141,15,11,10,10,0.5,0.4
2025-06-28T2300,1935A,107.3906,34.3528,宝鸡市,陈仓区环保局家属楼,,43,39,27,30,15,90,,157,138,29,14,7,6,0.4,0.3
2025-06-28T2300,1936A,107.2058,34.3497,宝鸡市,文理学院,颗粒物(PM10),51,51,30,16,13,70,,160,139,26,14,6,7,0.5,0.4
2025-06-28T2300,1937A,107.2386,34.3622,宝鸡市,三迪小学,,32,32,31,20,14,91,,157,140,30,17,6,7,0.5,0.4
2025-06-28T2300,1051A,115.493,38.8632,保定市,游泳馆,,32,31,52,20,35,102,,127,114,11,13,4,4,0.3,0.4
2025-06-28T2300,1052A,115.5213,38.8959,保定市,华电二区,,40,37,63,28,34,107,,154,139,17,16,1,2,0.7,0.8
2025-06-28T2300,1053A,115.4713,38.9108,保定市,接待中心,,39,38,60,27,42,104,,148,131,11,11,3,3,0.4,0.5
2025-06-28T2300,1054A,115.4612,38.8416,保定市,地表水厂,颗粒物(PM10),53,55,72,21,28,95,,154,130,16,15,3,3,0.6,0.7
2025-06-28T2300,3581A,115.31981,38.95208,保定市,满城区生态环境分局,,36,36,60,22,38,86,,134,115,10,11,2,2,0.3,0.4
2025-06-28T2300,3582A,115.47694,38.76408,保定市,清苑区第二中学,,,50,71,27,44,,,150,131,16,10,3,2,0.4,0.5
2025-06-28T2300,3583A,115.62909,39.02311,保定市,徐水物探局,,42,,57,29,32,91,,142,123,11,12,3,2,0.3,0.5
2025-06-28T2300,4004A,115.4202,38.8656,保定市,双鹰农机,,36,,40,23,32,115,,145,128,11,14,2,2,0.3,0.5
2025-06-28T2300,4034A,115.5150,38.8590,保定市,植保所站,,43,42,56,20,35,135,,160,147,13,19,4,4,0.4,0.5
2025-06-28T2300,2594A,99.1678,25.1081,保山市,市环境监测站,,25,,19,17,14,36,,64,54,7,6,9,9,0.4,0.4
2025-06-28T2300,2595A,99.1711,25.1328,保山市,市环保局,,22,22,16,10,9,32,,75,59,4,4,6,6,0.4,0.4
2025-06-28T2300,1866A,109.2262,21.588,北海市,牛尾岭水库,,,17,14,15,7,45,,60,54,,4,12,6,0.5,0.4
2025-06-28T2300,1867A,109.1436,21.4086,北海市,海滩公园,,20,19,18,3,3,64,,61,61,4,3,2,2,0.6,0.5
2025-06-28T2300,1868A,109.0981,21.4661,北海市,新市环保局,,21,,12,7,7,67,,67,67,3,3,2,2,0.3,0.3
2025-06-28T2300,1869A,109.1778,21.5233,北海市,北海工业园,,20,,14,10,7,64,,62,62,5,5,2,3,0.6,0.6
2025-06-28T2300,3400A,109.1911,21.4415,北海市,龙潭自来水厂,,21,15,10,3,6,67,,67,66,4,4,3,4,0.4,0.4
2025-06-28T2300,1001A,116.3621,39.8784,北京市,万寿西宫,臭氧1小时,55,56,42,36,32,164,,184,180,10,13,3,3,0.6,0.6
2025-06-28T2300,1002A,116.2202,40.2915,北京市,定陵,细颗粒物(PM2.5),59,50,44,42,36,80,,162,137,3,4,3,3,0.7,0.7
2025-06-28T2300,1003A,116.4174,39.9289,北京市,东四,臭氧1小时,53,45,42,31,26,162,,194,182,15,16,2,2,0.6,0.6
2025-06-28T2300,1004A,116.4072,39.8863,北京市,天坛,细颗粒物(PM2.5),59,49,46,42,34,113,,169,151,11,13,3,3,0.7,0.8
2025-06-28T2300,1005A,116.462,39.9365,北京市,农展馆,细颗粒物(PM2.5),57,51,43,40,32,140,,164,153,12,12,4,4,1.1,1.1
2025-06-28T2300,1006A,116.3392,39.9295,北京市,官园,"细颗粒物(PM2.5),臭氧1小时",52,45,45,36,32,161,,182,176,12,14,3,3,0.5,0.6
2025-06-28T2300,1007A,116.2878,39.9611,北京市,海淀万柳,细颗粒物(PM2.5),55,48,44,39,28,151,,172,168,14,13,3,3,0.7,0.7
2025-06-28T2300,1008A,116.6636,40.135,北京市,顺义新城,,,,,,,,,,,,,,,,
2025-06-28T2300,1009A,116.6275,40.3275,北京市,怀柔镇,,42,41,37,29,30,113,,167,160,12,12,1,1,0.6,0.7
2025-06-28T2300,1010A,116.2296,40.217,北京市,昌平镇,,44,38,52,23,29,138,,167,159,12,14,4,4,0.8,0.9
2025-06-28T2300,1011A,116.3966,39.9821,北京市,奥体中心,,48,48,40,33,24,152,,164,161,7,8,3,3,0.7,0.7
2025-06-28T2300,3281A,115.9718,40.4529,北京市,延庆夏都,细颗粒物(PM2.5),69,66,45,50,39,144,,158,158,9,8,4,4,0.7,0.8
2025-06-28T2300,3418A,116.8336,40.4095,北京市,密云新城,细颗粒物(PM2.5),62,67,42,44,30,74,,150,125,16,8,1,2,0.7,0.7
2025-06-28T2300,3671A,116.088,39.9726,北京市,门头沟三家店,细颗粒物(PM2.5),72,83,53,52,35,100,,156,133,14,15,3,3,0.8,0.8
2025-06-28T2300,3672A,116.1541,39.8204,北京市,丰台云岗,细颗粒物(PM2.5),63,59,52,45,38,135,,156,136,10,8,2,3,0.5,0.6
2025-06-28T2300,3673A,116.6804,39.9081,北京市,通州东关,,47,34,49,27,38,150,,175,171,7,8,1,2,0.8,0.9
2025-06-28T2300,3674A,115.9577,39.7603,北京市,房山燕山,细颗粒物(PM2.5),62,56,52,44,43,130,,164,146,15,11,1,1,0.6,0.7
2025-06-28T2300,3675A,116.4672,39.7733,北京市,大兴旧宫,颗粒物(PM10),51,51,48,34,34,122,,162,153,9,12,1,2,0.8,0.8
2025-06-28T2300,3694A,115.986,40.4563,北京市,延庆石河营,细颗粒物(PM2.5),67,57,42,48,32,137,,156,156,10,8,2,2,0.7,0.7
2025-06-28T2300,3695A,116.6151,40.3053,北京市,怀柔新城,,45,35,39,31,33,111,,150,144,6,9,1,1,0.9,1
2025-06-28T2300,3696A,116.2545,39.8768,北京市,丰台小屯,细颗粒物(PM2.5),68,65,49,49,36,83,,161,142,13,8,2,2,0.6,0.7
2025-06-28T2300,3697A,116.84,40.3844,北京市,密云镇,细颗粒物(PM2.5),69,69,37,50,32,99,,150,139,15,10,3,3,0.7,0.7
2025-06-28T2300,4182A,116.1942,39.9158,北京市,八角北路9号,细颗粒物(PM2.5),63,61,50,45,36,128,,164,154,15,15,1,1,0.6,0.6
2025-06-28T2300,4194A,117.0790,40.1518,北京市,洳河巡河路,细颗粒物(PM2.5),113,174,65,85,40,100,,154,142,17,5,3,2,0.8,0.8
2025-06-28T2300,1761A,123.8275,41.3064,本溪市,大峪,,43,43,24,20,14,55,,85,79,16,11,6,6,0.5,0.5
2025-06-28T2300,1762A,123.7567,41.3325,本溪市,溪湖,,43,38,27,30,15,89,,78,78,12,12,6,7,1.2,1
2025-06-28T2300,1763A,123.7169,41.3094,本溪市,彩屯,细颗粒物(PM2.5),54,48,28,38,19,78,,69,69,29,24,10,9,2.2,1.6
2025-06-28T2300,1764A,123.7669,41.2864,本溪市,东明,,37,37,25,22,13,99,,92,92,13,14,5,5,0.8,0.8
2025-06-28T2300,1765A,123.7992,41.2664,本溪市,新立屯,,48,33,22,33,13,91,,97,94,15,11,4,4,0.7,0.6
2025-06-28T2300,1766A,123.8142,41.3472,本溪市,威宁,颗粒物(PM10),63,76,39,31,15,41,,85,69,18,12,5,6,0.6,0.5
2025-06-28T2300,2587A,105.2864,27.3125,毕节市,八中,,20,20,24,14,18,39,,71,64,14,10,6,6,0.5,0.5
2025-06-28T2300,2588A,105.31,27.2944,毕节市,师专,,18,18,24,12,17,42,,74,66,17,15,4,5,0.5,0.5
2025-06-28T2300,4263A,105.3688,27.3598,毕节市,工业大道,,16,14,22,7,14,51,,84,75,15,14,8,7,0.6,0.6
2025-06-28T2300,1629A,118.0018,37.3617,滨州市,第二水厂,,19,17,66,9,43,60,,181,106,24,20,2,2,0.5,0.7
2025-06-28T2300,1630A,117.9776,37.393,滨州市,北中新校,,24,24,59,7,42,50,,189,100,25,17,7,6,0.6,0.7
2025-06-28T2300,3514A,117.9378,37.3956,滨州市,中海酒店,,24,14,49,9,42,74,,185,107,19,21,7,8,0.6,0.8
2025-06-28T2300,3515A,117.9378,37.3553,滨州市,开发区一中,,22,,57,12,45,70,,166,100,16,22,9,10,0.6,0.6
2025-06-28T2300,3516A,118.0917,37.694,滨州市,金海六路,,31,10,60,7,47,99,,195,135,12,18,7,9,0.2,0.4
2025-06-28T2300,4028A,117.9956,37.3753,滨州市,滨州市西街道办事处,,24,14,56,7,43,75,,194,118,16,15,3,4,0.5,0.7
2025-06-28T2300,2311A,115.8072,33.8399,亳州市,污水处理厂,,17,6,6,3,6,53,,83,73,8,7,4,4,0.7,0.8
2025-06-28T2300,2312A,115.7789,33.8518,亳州市,三国揽胜宫,,18,16,17,8,4,55,,83,75,9,8,2,2,0.4,0.4
2025-06-28T2300,3332A,115.7633,33.8034,亳州市,亳州学院,,18,,5,3,7,56,,86,76,10,8,2,2,0.4,0.4
2025-06-28T2300,2693A,82.0485,44.8556,博尔塔拉蒙古自治州,市党校,,32,23,14,17,10,100,,120,115,16,9,3,3,0.1,0.1
2025-06-28T2300,2694A,82.0806,44.8969,博尔塔拉蒙古自治州,市环保局,,39,39,22,9,8,72,,118,110,20,5,3,2,0.3,0.2
2025-06-28T2300,1071A,116.8842,38.2991,沧州市,沧县城建局,细颗粒物(PM2.5),55,52,56,39,48,111,,162,145,13,21,1,3,0.6,0.6
2025-06-28T2300,1072A,116.8584,38.3254,沧州市,电视转播站,颗粒物(PM10),116,181,68,51,55,62,,133,109,20,21,1,3,0.7,0.5
2025-06-28T2300,1073A,116.8709,38.3228,沧州市,市环保局,细颗粒物(PM2.5),74,77,73,54,50,91,,147,130,16,18,3,3,0.7,0.6
2025-06-28T2300,3324A,116.8136,38.3004,沧州市,河北水利电力学院,细颗粒物(PM2.5),62,70,67,44,47,118,,177,161,14,20,3,3,0.8,0.5
2025-06-28T2300,2622A,97.1806,31.1273,昌都市,昌都监测站,,29,,35,20,20,84,,97,92,12,12,6,5,0.2,0.3
2025-06-28T2300,3719A,97.1714,31.1406,昌都市,昌都会议中心,,28,17,41,12,22,88,,108,102,7,8,5,6,0.2,0.3
2025-06-28T2300,2690A,88.1236,43.8886,昌吉回族自治州,天山天池,,18,8,8,7,4,57,,109,94,5,5,4,5,0.5,0.6
2025-06-28T2300,2692A,87.2717,44.0297,昌吉回族自治州,新区政务中心,,30,20,14,6,7,93,,125,121,16,8,2,2,0.3,0.3
2025-06-28T2300,3613A,87.3095,44.0142,昌吉回族自治州,亚心广场,,36,36,19,9,5,69,,120,114,38,12,5,6,0.3,0.2
2025-06-28T2300,1120A,125.2863,43.9027,长春市,客车厂,,20,20,34,12,23,54,,78,62,18,25,4,4,0.4,0.4
2025-06-28T2300,1121A,125.2841,43.8463,长春市,邮电学院,,17,17,28,10,19,47,,69,56,21,18,5,5,0.6,0.6
2025-06-28T2300,1122A,125.3716,43.8772,长春市,劳动公园,,16,16,42,7,22,45,,77,63,26,23,5,6,0.4,0.5
2025-06-28T2300,1123A,125.3297,43.8805,长春市,园林处,,17,14,34,8,19,54,,80,67,17,19,4,5,0.5,0.6
2025-06-28T2300,1124A,125.4605,43.79,长春市,净月潭,,12,12,27,6,15,36,,73,54,18,11,5,6,0.4,0.4
2025-06-28T2300,1125A,125.7194,43.515,长春市,甩湾子,,12,6,27,3,15,37,,69,61,12,16,1,1,0.6,0.7
2025-06-28T2300,1126A,125.3863,43.8447,长春市,经开区环卫处,,20,20,41,3,17,47,,70,62,19,19,5,6,0.5,0.5
2025-06-28T2300,1127A,125.245,43.7783,长春市,高新区管委会,,18,16,35,3,30,25,,72,51,36,22,3,4,0.4,0.5
2025-06-28T2300,1128A,125.1761,43.8325,长春市,岱山公园,,38,38,31,10,19,19,,71,45,48,30,3,3,0.4,0.4
2025-06-28T2300,4281A,125.3346,43.9164,长春市,北亚泰大街1068号,,,28,39,13,22,,,94,,19,25,4,4,0.6,0.7
2025-06-28T2300,1335A,113.0833,28.2325,长沙市,经开区环保局,,19,10,18,3,7,59,,85,62,13,8,3,4,0.3,0.4
2025-06-28T2300,1336A,112.8872,28.2189,长沙市,高开区环保局,,19,19,21,3,6,60,,86,64,5,6,3,2,0.4,0.5
2025-06-28T2300,1337A,113.0792,28.2053,长沙市,马坡岭,,20,16,19,3,5,64,,84,63,6,6,3,4,0.4,0.5
2025-06-28T2300,1338A,112.9394,28.19,长沙市,湖南师范大学,,19,10,19,6,6,58,,83,52,7,8,2,2,0.3,0.4
2025-06-28T2300,1339A,113.0178,28.1322,长沙市,雨花区环保局,,,,18,6,6,64,,86,63,8,7,4,5,0.1,0.2
2025-06-28T2300,1340A,112.9792,28.2597,长沙市,伍家岭,,19,12,24,6,4,60,,87,48,10,10,2,3,0.3,0.4
2025-06-28T2300,1341A,113.0014,28.1944,长沙市,火车新站,,19,12,22,3,7,59,,84,59,10,8,6,7,0.5,0.5
2025-06-28T2300,1342A,112.9844,28.1178,长沙市,天心区环保局,,21,8,18,7,6,67,,91,67,9,10,1,2,0.1,0.2
2025-06-28T2300,1343A,112.8908,28.1308,长沙市,湖南中医药大学,,20,11,20,3,10,61,,83,57,8,7,2,4,0.4,0.5
2025-06-28T2300,1344A,112.9581,28.3611,长沙市,沙坪,,21,21,20,3,5,57,,90,55,9,10,4,4,0.4,0.5
2025-06-28T2300,1727A,113.1147,36.1547,长治市,清华站,,34,24,29,14,14,106,,146,137,9,9,5,6,0.8,0.7
2025-06-28T2300,1730A,113.0886,36.2125,长治市,审计局,,32,24,23,22,14,98,,146,130,11,10,8,9,0.9,0.7
2025-06-28T2300,1731A,113.0844,36.1856,长治市,长治八中,,35,24,26,23,21,110,,152,140,9,8,10,10,0.8,0.7
2025-06-28T2300,2845A,113.1569,36.1911,长治市,德盛苑,,34,17,27,17,15,106,,144,135,10,8,7,7,1.0,0.9
2025-06-28T2300,3568A,113.06,36.0464,长治市,向阳小学,颗粒物(PM10),52,53,47,18,18,118,,153,147,27,21,20,14,1.0,0.8
2025-06-28T2300,3569A,112.8792,36.3144,长治市,屯留一中,细颗粒物(PM2.5),75,69,43,55,32,90,,144,120,18,13,9,7,1.1,0.4
2025-06-28T2300,4189A,113.1131,36.19948,长治市,英华南巷50号,,30,23,31,14,17,95,,142,129,13,12,6,7,0.9,0.8
2025-06-28T2300,4190A,113.2367,36.3344,长治市,学府街1号,,,,40,,24,,,120,,,16,,5,,0.9
2025-06-28T2300,1854A,111.6975,28.9703,常德市,市二中,,12,11,13,3,5,36,,58,53,10,9,4,4,0.7,0.7
2025-06-28T2300,1857A,111.7158,29.1456,常德市,白鹤山,,,,,,,,,,,,,,,,
2025-06-28T2300,3138A,111.7153,29.0289,常德市,武陵区永安,,13,12,16,3,5,39,,58,54,8,9,4,4,0.2,0.3
2025-06-28T2300,3139A,111.6892,28.9881,常德市,鼎城区玉霞,,12,12,15,3,6,34,,56,50,11,8,4,3,0.5,0.5
2025-06-28T2300,3140A,111.6625,29.0531,常德市,武陵区长庚,,11,9,13,7,7,35,,54,51,18,9,4,3,0.5,0.5
2025-06-28T2300,1196A,119.9633,31.762,常州市,市监测站,,26,,18,8,10,82,,82,77,17,23,8,9,0.3,0.4
2025-06-28T2300,1200A,119.9468,31.7069,常州市,武进监测站,,24,20,22,6,8,75,,78,76,14,16,9,11,0.6,0.6
2025-06-28T2300,1201A,119.9255,31.9087,常州市,安家,,22,16,19,8,9,70,,87,83,12,20,8,8,0.6,0.7
2025-06-28T2300,3002A,119.9805,31.8174,常州市,行政中心,,24,9,17,6,10,76,,83,77,10,14,11,11,0.3,0.4
2025-06-28T2300,3003A,120.0522,31.7748,常州市,经开区,,29,17,26,6,9,92,,86,81,10,17,8,6,1.0,0.4
2025-06-28T2300,3010A,119.9025,31.7964,常州市,钟楼,,21,12,17,8,6,66,,78,74,12,14,7,7,0.3,0.4
2025-06-28T2300,3429A,119.8598,31.7066,常州市,武进经发区,,19,15,19,8,9,58,,78,75,10,13,7,7,0.6,0.7
2025-06-28T2300,3430A,119.5826,31.7245,常州市,金坛城区,,19,10,13,6,8,60,,83,80,8,13,6,7,0.2,0.3
2025-06-28T2300,2220A,120.4318,41.5881,朝阳市,西梁,,22,21,14,15,13,68,,78,74,9,7,9,7,0.7,0.6
2025-06-28T2300,2221A,120.4521,41.5646,朝阳市,河畔小区,,25,14,10,11,12,77,,87,84,8,6,6,6,0.3,0.3
2025-06-28T2300,2222A,120.4176,41.5648,朝阳市,八里堡,,22,16,20,15,14,64,,89,79,12,10,4,4,0.5,0.5
2025-06-28T2300,2223A,120.3806,41.5969,朝阳市,农业园区,,20,,13,13,12,63,,83,76,13,10,3,3,0.5,0.5
2025-06-28T2300,1705A,116.6367,23.6719,潮州市,西园路,,26,26,15,3,3,31,,59,44,11,10,6,5,0.5,0.5
2025-06-28T2300,3026A,116.6183,23.6608,潮州市,市政府,,16,16,17,7,7,36,,54,42,6,8,7,4,0.7,0.7
2025-06-28T2300,4036A,116.6461,23.6761,潮州市,金山,,15,,15,10,12,16,,26,,9,7,5,5,0.6,0.6
2025-06-28T2300,2472A,113.0073,25.9061,郴州市,马头岭,,19,17,12,3,6,60,,55,52,7,8,8,8,0.4,0.4
2025-06-28T2300,2473A,113.0116,25.8226,郴州市,市职中,,20,10,8,9,5,61,,53,51,10,11,6,9,0.5,0.5
2025-06-28T2300,2475A,113.0383,25.8071,郴州市,市审计局,,17,13,10,8,5,54,,53,49,7,6,36,16,0.3,0.2
2025-06-28T2300,2476A,113.0348,25.7759,郴州市,市环保局,,20,9,11,3,2,63,,53,53,6,7,36,17,0.2,0.2
2025-06-28T2300,4252A,113.0138,25.8011,郴州市,好美居路49号,,,12,13,7,7,,,59,,5,5,8,12,0.2,0.2
2025-06-28T2300,1431A,103.9728,30.7236,成都市,金泉两河,细颗粒物(PM2.5),70,63,41,51,22,77,,184,146,36,27,3,4,0.7,0.6
2025-06-28T2300,1432A,104.176,30.6872,成都市,十里店,细颗粒物(PM2.5),60,59,48,43,30,102,,157,133,28,23,4,5,0.8,0.7
2025-06-28T2300,1433A,104.079,30.5706,成都市,三瓦窑,细颗粒物(PM2.5),59,66,47,42,29,78,,180,137,39,42,3,4,0.8,0.7
2025-06-28T2300,1434A,104.1114,30.63,成都市,沙河铺,细颗粒物(PM2.5),54,51,50,38,32,67,,135,110,33,30,4,5,0.9,0.9
2025-06-28T2300,1437A,104.0786,30.6531,成都市,君平街,颗粒物(PM10),60,69,49,41,28,68,,124,99,27,27,4,4,0.9,0.8
2025-06-28T2300,1438A,103.613,31.0283,成都市,灵岩寺,,,,,,,,,,,,,,,,
2025-06-28T2300,2880A,104.0239,30.65639,成都市,大石西路,细颗粒物(PM2.5),69,66,47,50,30,101,,168,136,30,25,5,5,1.0,0.9
2025-06-28T2300,3136A,104.2725,30.5589,成都市,龙泉驿区区政府,,28,27,27,19,18,86,,144,118,33,34,3,4,0.8,0.8
2025-06-28T2300,3357A,104.0106,30.6931,成都市,金博路,"颗粒物(PM10),细颗粒物(PM2.5)",53,56,39,37,24,73,,163,131,36,26,3,4,1.0,0.9
2025-06-28T2300,3359A,104.0578,30.5225,成都市,华阳,,49,46,42,34,32,78,,147,113,34,28,6,6,0.9,0.8
2025-06-28T2300,3488A,104.3853,30.7453,成都市,青白江技师分院,,48,48,42,10,24,46,,147,109,60,29,6,5,0.7,0.8
2025-06-28T2300,3489A,104.0789,30.4072,成都市,科学城,,32,32,33,20,24,62,,154,130,19,12,2,3,0.6,0.6
2025-06-28T2300,4011A,103.8506,30.6947,成都市,光华大道三段,,48,48,43,30,26,78,,199,153,17,17,4,4,0.8,0.7
2025-06-28T2300,4224A,104.2433,30.5353,成都市,鲸龙路1057号,,40,40,42,23,27,49,,146,104,56,32,7,7,0.7,0.7
2025-06-28T2300,1062A,117.9531,40.9081,承德市,铁路,颗粒物(PM10),52,53,26,21,14,77,,113,87,17,13,2,2,0.5,0.5
2025-06-28T2300,1063A,117.9392,40.9763,承德市,中国银行,,48,48,29,24,21,92,,126,110,7,9,1,3,0.5,0.5
2025-06-28T2300,1064A,117.9503,40.928,承德市,开发区,,48,48,29,27,17,93,,124,108,14,11,4,4,0.5,0.5
2025-06-28T2300,1065A,117.8051,40.9655,承德市,文化中心,颗粒物(PM10),51,51,37,29,20,103,,126,116,12,9,1,2,0.4,0.5
2025-06-28T2300,1066A,117.9268,41.0026,承德市,离宫,,39,39,28,21,17,59,,116,87,8,7,3,2,0.4,0.5
2025-06-28T2300,2314A,117.47,30.6618,池州市,池州学院,,18,18,12,8,6,17,,67,49,12,11,5,5,0.4,0.3
2025-06-28T2300,3237A,117.4918,30.6617,池州市,展览馆,,15,15,13,3,4,23,,63,46,10,11,4,4,0.8,0.5
2025-06-28T2300,3333A,117.5627,30.695,池州市,第八中学,,18,18,15,6,4,19,,69,51,14,10,4,5,0.3,0.3
2025-06-28T2300,3334A,117.5038,30.6243,池州市,第十二中学,,18,18,14,8,5,25,,66,44,9,6,5,3,1.0,0.6
2025-06-28T2300,1744A,118.9233,42.2816,赤峰市,松山一中,,39,30,27,21,15,124,,125,117,10,14,7,12,0.8,0.7
2025-06-28T2300,1745A,118.9576,42.2728,赤峰市,哈达街,,36,30,25,18,14,115,,119,113,16,16,15,14,0.9,0.7
2025-06-28T2300,1746A,118.8788,42.2554,赤峰市,天义路,,38,,17,25,17,119,,130,120,12,11,12,10,0.5,0.5
2025-06-28T2300,3058A,119.2658,42.0353,赤峰市,银河街,,29,24,31,20,19,92,,121,107,9,9,14,11,0.8,0.8
2025-06-28T2300,3286A,118.9359,42.3147,赤峰市,桥北物流园区,,33,32,25,14,24,104,,120,111,12,7,9,16,0.8,0.8
2025-06-28T2300,2521A,107.3476,22.4136,崇左市,市环保局江州分局,,24,24,22,6,8,22,,60,42,13,8,6,6,0.7,0.6
2025-06-28T2300,4256A,107.3750,22.3736,崇左市,石景林东路7号,,18,18,20,3,6,33,,63,45,18,13,4,5,0.6,0.6
2025-06-28T2300,2298A,118.3093,32.3153,滁州市,老年大学,,22,22,18,3,8,51,,82,78,10,14,9,9,0.2,0.4
2025-06-28T2300,2299A,118.3244,32.2786,滁州市,人大宾馆,,20,,8,3,8,62,,97,92,6,12,5,6,0.2,0.4
2025-06-28T2300,3207A,118.3118,32.3038,滁州市,市政府原办公楼,,18,14,18,12,15,52,,84,80,8,12,4,5,0.4,0.5
2025-06-28T2300,3331A,118.3267,32.2634,滁州市,图书馆,,17,10,11,8,9,52,,82,78,7,9,9,8,0.3,0.5
2025-06-28T2300,2605A,101.5482,25.0441,楚雄彝族自治州,州环境监测站,,16,7,13,3,8,49,,63,60,5,9,7,7,0.4,0.4
2025-06-28T2300,2606A,101.538,25.0492,楚雄彝族自治州,市经济开发区,,29,29,18,8,9,45,,61,57,7,8,6,6,0.4,0.5
2025-06-28T2300,2548A,107.5277,31.2827,达州市,达州职业技术学院,,38,38,31,6,3,26,,105,70,39,24,7,9,0.6,0.5
2025-06-28T2300,2549A,107.5086,31.2186,达州市,市环境监测站,,24,24,28,3,5,69,,112,96,20,30,6,6,0.4,0.4
2025-06-28T2300,2550A,107.4988,31.2132,达州市,凤凰小区,,22,22,26,9,9,67,,121,105,14,20,5,5,0.3,0.3
2025-06-28T2300,2551A,107.5082,31.1986,达州市,达县机关宾馆,,27,27,24,3,4,57,,125,106,26,24,6,7,0.3,0.3
2025-06-28T2300,2552A,107.4644,31.2124,达州市,市政中心,,25,25,32,9,8,56,,115,96,20,22,3,3,0.6,0.6
2025-06-28T2300,2614A,100.1542,25.7054,大理白族自治州,大理市环境监测站,,26,,11,18,12,69,,70,67,8,7,5,5,0.5,0.5
2025-06-28T2300,2615A,100.2171,25.5811,大理白族自治州,大理古城,,31,31,16,20,8,44,,84,65,14,8,4,8,0.7,0.8
2025-06-28T2300,1109A,121.612,38.9741,大连市,甘井子,,50,41,40,35,41,94,,151,129,15,19,7,6,0.7,0.8
2025-06-28T2300,1110A,121.565,38.9511,大连市,周水子,细颗粒物(PM2.5),55,,39,39,43,106,,170,146,14,16,4,6,0.6,0.6
2025-06-28T2300,1111A,121.5637,38.8845,大连市,星海三站,颗粒物(PM10),59,68,68,37,46,106,,167,145,7,11,5,6,0.4,0.5
2025-06-28T2300,1112A,121.6302,38.9117,大连市,青泥洼桥,细颗粒物(PM2.5),64,71,84,46,54,101,,164,139,11,11,6,6,0.8,0.8
2025-06-28T2300,1113A,121.6251,38.8638,大连市,傅家庄,,49,,34,34,43,99,,151,132,12,16,12,12,0.5,0.5
2025-06-28T2300,1114A,121.5213,38.8661,大连市,七贤岭,细颗粒物(PM2.5),60,,41,43,49,111,,184,160,9,13,9,9,0.7,0.8
2025-06-28T2300,1115A,121.2529,38.8061,大连市,旅顺,,35,31,36,24,32,94,,147,132,12,17,3,3,0.4,0.4
2025-06-28T2300,1116A,121.7485,39.1311,大连市,金州,颗粒物(PM10),58,65,59,33,47,117,,146,140,10,15,6,7,0.6,0.5
2025-06-28T2300,1117A,121.7811,39.0496,大连市,开发区,细颗粒物(PM2.5),60,43,43,43,46,104,,166,136,19,18,10,13,0.4,0.5
2025-06-28T2300,1118A,121.9762,39.0631,大连市,双D港,,32,26,32,22,36,102,,137,124,5,13,8,9,0.5,0.5
2025-06-28T2300,1789A,124.81117,46.03138,大庆市,大同区,,40,39,32,28,18,52,,117,96,28,11,6,7,0.7,0.5
2025-06-28T2300,1790A,125.129,46.533,大庆市,龙凤区,,35,33,27,24,18,92,,119,108,12,10,6,6,0.5,0.6
2025-06-28T2300,1791A,124.902,46.408,大庆市,红岗区,细颗粒物(PM2.5),52,,29,36,22,110,,134,122,10,11,8,8,0.7,0.6
2025-06-28T2300,1792A,125.153,46.586,大庆市,萨尔图区,,46,46,37,19,18,83,,114,104,15,10,8,9,0.5,0.5
2025-06-28T2300,1793A,124.9042,46.6215,大庆市,让胡路区,,40,40,30,25,22,85,,124,103,17,11,5,5,0.5,0.3
2025-06-28T2300,3481A,125.141,46.634,大庆市,萨区政府监测点,,46,46,39,14,12,101,,131,115,10,9,6,7,0.4,0.4
2025-06-28T2300,1721A,113.3819,40.1097,大同市,果树场,,,,,,,,,,,,,,,,
2025-06-28T2300,1723A,113.2994,40.0758,大同市,云冈宾馆,,46,46,35,24,25,81,,134,108,19,14,6,6,0.8,0.7
2025-06-28T2300,1724A,113.3444,40.0917,大同市,大同大学,,32,30,29,22,23,87,,139,112,19,15,8,10,0.5,0.5
2025-06-28T2300,1725A,113.2661,40.1269,大同市,安家小村,,50,50,37,17,21,65,,140,101,25,16,6,5,0.8,0.8
2025-06-28T2300,1726A,113.2711,40.0844,大同市,教育学院,,42,42,35,21,23,81,,137,109,21,15,10,8,0.6,0.5
2025-06-28T2300,3282A,113.3397,40.0597,大同市,大同市卫生学校,,37,37,33,12,22,85,,129,108,21,13,8,6,0.8,0.8
2025-06-28T2300,3565A,113.1367,40.1122,大同市,云冈站,颗粒物(PM10),52,54,42,19,21,57,,124,84,25,22,5,4,0.6,0.6
2025-06-28T2300,3566A,113.1186,40.2556,大同市,图书馆,,48,48,36,19,22,57,,137,95,17,13,6,7,0.9,0.7
2025-06-28T2300,3567A,113.5931,40.0461,大同市,区一中,,32,12,28,11,23,101,,136,120,10,10,12,11,0.5,0.5
2025-06-28T2300,4199A,113.2798,40.0997,大同市,魏都大道141号,颗粒物(PM10),52,53,43,23,23,79,,142,110,21,16,9,7,0.9,0.8
2025-06-28T2300,2269A,124.1069,50.4097,大兴安岭地区,科技局,,41,41,37,14,16,118,,113,113,7,6,6,6,0.3,0.4
2025-06-28T2300,3663A,124.1164,50.4278,大兴安岭地区,红旗社区,,40,14,20,10,16,128,,120,120,6,11,6,6,0.3,0.3
2025-06-28T2300,1600A,124.3303,40.0625,丹东市,江湾东路,,34,21,24,13,24,106,,101,101,6,10,2,3,0.7,0.8
2025-06-28T2300,1601A,124.4256,40.1503,丹东市,临江后街,,32,28,26,9,15,102,,102,95,7,9,7,7,0.9,0.9
2025-06-28T2300,1602A,124.3933,40.1461,丹东市,元宝山,,35,35,28,24,20,105,,104,95,7,9,5,5,0.8,0.7
2025-06-28T2300,1603A,124.3633,40.1092,丹东市,民主桥,,30,18,41,14,16,96,,93,93,5,6,6,7,0.7,1
2025-06-28T2300,3541A,109.5726,19.5167,儋州市,第一中学子站,,13,12,13,6,7,41,,46,42,4,3,6,7,0.5,0.5
2025-06-28T2300,3542A,109.5567,19.5187,儋州市,东坡学校子站,,18,12,10,12,7,39,,51,45,5,3,6,7,0.5,0.5
2025-06-28T2300,2616A,98.5842,24.428,德宏傣族景颇族自治州,德宏州监测站,,18,18,14,3,6,25,,48,40,6,6,7,7,0.6,0.7
2025-06-28T2300,3677A,98.5881,24.4368,德宏傣族景颇族自治州,芒市人民政府综合楼,,18,18,22,7,5,28,,49,40,6,5,7,7,0.4,0.5
2025-06-28T2300,1901A,104.4239,31.1208,德阳市,东山公园,,39,39,36,26,26,110,,161,144,21,14,6,7,0.9,0.9
2025-06-28T2300,1902A,104.3826,31.1317,德阳市,西小区,细颗粒物(PM2.5),52,51,49,36,34,92,,159,125,22,24,5,7,0.7,0.9
2025-06-28T2300,1904A,104.3553,31.1091,德阳市,耐火材料厂,颗粒物(PM10),51,52,50,32,35,89,,183,142,20,24,1,3,0.6,0.7
2025-06-28T2300,3639A,104.4019,31.1244,德阳市,市教育局,细颗粒物(PM2.5),52,46,40,36,30,98,,168,140,23,17,17,15,0.8,0.8
2025-06-28T2300,1622A,116.3032,37.4674,德州市,儿童乐园,细颗粒物(PM2.5),62,58,48,44,39,102,,125,125,12,10,6,6,0.7,0.6
2025-06-28T2300,1624A,116.2991,37.4451,德州市,监理站,细颗粒物(PM2.5),55,53,44,39,34,114,,144,142,10,10,7,7,0.5,0.5
2025-06-28T2300,3066A,116.2721,37.4379,德州市,九衢泉纯净水厂,细颗粒物(PM2.5),55,51,46,39,37,128,,143,143,16,20,6,6,0.9,0.9
2025-06-28T2300,3371A,116.3728,37.4403,德州市,开发区人民医院,,44,44,42,29,30,106,,146,142,25,16,4,6,0.8,0.8
2025-06-28T2300,3372A,116.3572,37.4094,德州市,太阳城中学,,,,,,,,,,,,,,,,
2025-06-28T2300,3511A,116.5652,37.3319,德州市,陵城艺术中心,,24,24,41,12,28,74,,117,110,14,10,2,7,1.1,1
2025-06-28T2300,2621A,99.7056,27.8317,迪庆藏族自治州,迪庆州站,,24,16,22,13,15,74,,92,84,6,8,7,7,0.3,0.4
2025-06-28T2300,3180A,99.7136,27.8094,迪庆藏族自治州,质量技术监督局,,43,43,23,3,9,69,,90,80,12,11,6,7,0.4,0.4
2025-06-28T2300,4257A,104.6092,35.5962,定西市,将台街,,47,47,34,24,15,95,,134,125,14,17,4,5,0.1,0.1
2025-06-28T2300,4309A,104.6159,35.5701,定西市,正龙路62号,,33,33,29,18,17,93,,130,122,7,6,4,4,0.3,0.3
2025-06-28T2300,1389A,113.7547,23.0494,东莞市,莞城梨川,,19,19,17,12,12,33,,81,62,17,15,6,6,0.4,0.5
2025-06-28T2300,1390A,113.7944,23.0128,东莞市,东城石井,,18,18,18,7,8,28,,64,51,19,20,3,3,0.5,0.5
2025-06-28T2300,1391A,113.7383,22.9658,东莞市,南城西平,,16,16,15,7,8,30,,66,54,18,20,3,3,0.5,0.5
2025-06-28T2300,3319A,113.7338,23.0381,东莞市,万江金泰,,20,20,17,10,8,23,,70,52,18,16,2,2,0.7,0.7
2025-06-28T2300,3626A,113.7533,23.0202,东莞市,南城元岭,,17,17,15,8,7,27,,74,58,21,17,4,4,0.5,0.5
2025-06-28T2300,3627A,113.7875,23.0457,东莞市,东城主山,,16,16,20,7,9,33,,77,57,15,16,6,6,0.8,0.8
2025-06-28T2300,1666A,118.6614,37.4309,东营市,市环保局,,29,12,50,3,38,90,,186,127,19,20,6,10,0.4,0.6
2025-06-28T2300,3036A,118.6904,37.4338,东营市,开发区管委会,,28,18,63,3,42,87,,188,125,17,20,5,5,0.3,0.5
2025-06-28T2300,3365A,118.5719,37.565,东营市,垦利区民丰路,,23,17,62,7,43,73,,201,138,24,19,7,8,0.8,0.9
2025-06-28T2300,3498A,118.5055,37.8612,东营市,河口城区,,27,12,53,7,40,86,,200,151,15,18,5,8,1.2,1.2
2025-06-28T2300,3646A,118.4978,37.4623,东营市,胜利站,,29,8,49,3,37,91,,190,129,15,22,7,9,1.1,1.2
2025-06-28T2300,3734A,118.35,37.26,东营市,理想之城,,24,9,53,7,42,74,,189,120,20,23,5,7,0.6,0.9
2025-06-28T2300,1591A,110.0023,39.8129,鄂尔多斯市,综合楼,,36,31,35,22,22,115,,153,144,24,19,6,8,0.7,0.7
2025-06-28T2300,1592A,109.9486,39.8261,鄂尔多斯市,巴音孟克林场办事处,颗粒物(PM10),51,51,46,24,23,129,,168,158,19,16,6,6,0.6,0.5
2025-06-28T2300,1593A,109.7736,39.5986,鄂尔多斯市,康泽苑,,,46,42,,18,85,,146,129,28,18,11,12,0.8,0.5
2025-06-28T2300,1594A,109.8119,39.5989,鄂尔多斯市,华泰汽车城,,41,41,38,24,19,64,,141,121,34,17,7,6,0.7,0.6
2025-06-28T2300,1595A,109.9734,39.7884,鄂尔多斯市,奥林花园,颗粒物(PM10),53,56,45,36,26,82,,152,136,28,22,6,7,0.7,0.6
2025-06-28T2300,2436A,114.8938,30.3994,鄂州市,市政府,,17,10,27,3,11,53,,95,81,2,8,5,6,0.4,0.6
2025-06-28T2300,2437A,114.8989,30.3714,鄂州市,赵家坝,,22,22,20,3,4,56,,91,80,6,10,10,10,0.5,0.6
2025-06-28T2300,3654A,114.8094,30.4089,鄂州市,精准医疗中心,,,19,24,,6,57,,94,82,4,19,4,7,0.1,0.7
2025-06-28T2300,2454A,109.4978,30.2981,恩施土家族苗族自治州,湖北民院,,20,20,20,3,6,18,,58,35,12,9,5,5,0.4,0.4
2025-06-28T2300,2455A,109.4707,30.2798,恩施土家族苗族自治州,州电力总公司,,22,22,17,9,9,11,,52,31,16,10,6,7,0.6,0.7
2025-06-28T2300,3549A,109.5061,30.3772,恩施土家族苗族自治州,龙凤新区,,16,16,15,3,6,10,,65,30,8,8,2,3,0.3,0.3
2025-06-28T2300,2499A,108.3411,21.6158,防城港市,沙万,,20,20,19,10,9,44,,56,53,22,16,1,3,0.6,0.7
2025-06-28T2300,2500A,108.3514,21.7731,防城港市,防城档案局,,16,16,30,9,12,31,,53,50,8,14,2,2,0.7,0.7
2025-06-28T2300,2501A,108.3506,21.6414,防城港市,大海花园,,,24,29,,,33,,64,58,19,11,4,4,0.8,0.8
2025-06-28T2300,1371A,113.1294,23.0067,佛山市,湾梁,,24,24,15,6,8,28,,85,51,24,24,8,8,0.4,0.4
2025-06-28T2300,1372A,113.1083,23.0478,佛山市,华材职中,,12,9,11,7,6,38,,95,60,13,15,6,6,0.5,0.5
2025-06-28T2300,1373A,113.144,23.0453,佛山市,南海气象局,,13,13,12,6,7,31,,72,46,18,20,3,2,0.6,0.6
2025-06-28T2300,1374A,113.2881,22.8094,佛山市,顺德苏岗,,11,7,13,3,4,35,,61,50,13,18,6,6,0.6,0.6
2025-06-28T2300,1376A,112.8383,22.8678,佛山市,高明孔堂,,15,15,11,6,5,30,,87,59,14,9,5,5,0.5,0.5
2025-06-28T2300,1377A,112.8836,23.1588,佛山市,三水监测站,,18,14,15,8,11,12,,89,51,35,26,2,2,0.6,0.6
2025-06-28T2300,1378A,112.867,23.185,佛山市,三水云东海,,39,39,29,20,14,8,,91,47,33,25,1,1,0.7,0.5
2025-06-28T2300,3625A,113.2544,22.7642,佛山市,容桂街道办,,11,6,8,3,3,35,,71,52,16,18,6,6,0.7,0.7
2025-06-28T2300,1280A,119.3903,26.0543,福州市,鼓山,,,,,,,,,,,,,,,,
2025-06-28T2300,1282A,119.2681,26.0504,福州市,师大,,23,23,25,8,7,51,,128,82,12,7,4,4,0.2,0.2
2025-06-28T2300,1283A,119.2984,26.1028,福州市,五四北路,,36,36,30,8,7,44,,133,81,23,14,4,4,0.3,0.3
2025-06-28T2300,1284A,119.2648,26.0768,福州市,杨桥西路,,25,25,24,7,8,47,,130,79,18,10,3,3,0.2,0.2
2025-06-28T2300,1285A,119.317,26.0746,福州市,紫阳,,36,36,42,12,12,43,,119,72,23,19,4,4,0.3,0.3
2025-06-28T2300,3048A,119.5799,26.0936,福州市,九龙,,14,12,20,3,6,44,,105,68,11,7,4,4,0.2,0.2
2025-06-28T2300,3526A,119.5189,25.9664,福州市,吴航,,18,18,26,8,11,49,,120,82,8,9,5,6,0.4,0.4
2025-06-28T2300,1755A,123.7977,41.8491,抚顺市,望花区,,36,32,27,25,16,40,,83,74,24,23,4,4,1.0,0.8
2025-06-28T2300,1756A,123.9161,41.8822,抚顺市,顺城区,,25,20,22,17,11,24,,89,74,36,22,5,6,1.2,1
2025-06-28T2300,1757A,124.0436,41.8611,抚顺市,东洲区,,33,,16,23,12,24,,77,58,22,10,6,6,1.2,0.8
2025-06-28T2300,1758A,123.9247,41.8642,抚顺市,新抚区,,23,16,20,16,12,17,,77,58,19,15,4,5,0.9,0.8
2025-06-28T2300,1759A,124.0972,41.8961,抚顺市,大伙房水库,,26,18,16,18,11,23,,69,57,34,12,8,7,0.9,0.5
2025-06-28T2300,1760A,123.7086,41.8391,抚顺市,沈抚新城,,33,,23,23,13,42,,88,76,23,18,5,5,1.8,0.9
2025-06-28T2300,2376A,116.2127,28.0814,抚州市,桐源党溪,,34,34,22,22,10,14,,52,30,3,3,14,6,0.3,0.2
2025-06-28T2300,2377A,116.3544,27.9831,抚州市,市站,,24,24,21,12,8,43,,60,52,4,5,1,5,0.7,0.6
2025-06-28T2300,2378A,116.3565,27.963,抚州市,血防站,,21,21,20,13,10,44,,55,48,5,6,2,3,0.7,0.7
2025-06-28T2300,2379A,116.3564,28.0007,抚州市,采茶剧团,,23,23,19,10,8,42,,58,50,2,3,4,6,0.3,0.4
2025-06-28T2300,2380A,116.385,27.9647,抚州市,医学分院,,26,26,20,9,8,50,,59,52,2,2,4,5,0.5,0.5
2025-06-28T2300,2207A,121.6094,41.998,阜新市,工业园区,,32,23,22,22,12,91,,102,90,17,11,7,6,0.6,0.6
2025-06-28T2300,2208A,121.6697,42.0279,阜新市,长青街,,27,24,22,17,11,85,,90,81,11,10,7,9,0.6,0.6
2025-06-28T2300,2209A,121.6673,42.0705,阜新市,农业园区,,28,21,24,17,13,88,,93,87,12,10,5,5,0.8,0.8
2025-06-28T2300,2210A,121.6717,42.0224,阜新市,东苑,,27,23,25,16,13,84,,92,83,11,11,5,10,0.6,0.7
2025-06-28T2300,2211A,121.6506,42.0498,阜新市,玉龙新城,,26,18,23,18,12,75,,85,77,12,11,5,5,0.7,0.8
2025-06-28T2300,2301A,115.8277,32.8929,阜阳市,市监测站,,24,24,15,10,7,45,,63,59,6,5,3,3,0.3,0.3
2025-06-28T2300,2303A,115.8554,32.8605,阜阳市,开发区,,18,,8,12,7,48,,68,65,9,7,5,5,0.0,0.1
2025-06-28T2300,2875A,115.784,32.8892,阜阳市,阜阳职业技术学院,,17,12,6,7,5,54,,72,69,7,4,3,4,0.3,0.2
2025-06-28T2300,3468A,115.7901,32.8613,阜阳市,市规划展馆,,19,19,15,10,9,47,,65,60,8,5,2,2,0.3,0.3
2025-06-28T2300,3469A,115.836,32.9183,阜阳市,枣园社区,,14,14,10,3,7,34,,62,51,7,8,3,4,0.5,0.4
2025-06-28T2300,2669A,102.9099,34.9841,甘南藏族自治州,州政府,,36,30,39,25,18,93,,124,113,6,24,6,6,0.2,0.3
2025-06-28T2300,3380A,102.8914,34.9617,甘南藏族自治州,甘肃民族师范学院,,,27,50,17,15,,,129,124,14,29,9,9,0.4,0.4
2025-06-28T2300,2570A,101.9603,30.0475,甘孜藏族自治州,水桥子,,43,,16,30,8,17,,89,68,47,16,6,5,0.5,0.3
2025-06-28T2300,3065A,101.9533,29.9972,甘孜藏族自治州,州环保局,,32,32,18,11,6,16,,92,64,36,14,2,2,0.4,0.3
2025-06-28T2300,3414A,115.8347,28.932,赣江新区,桑海产业园,,22,9,13,7,6,70,,88,82,5,11,5,7,0.1,0.3
2025-06-28T2300,2362A,114.9017,25.9149,赣州市,通天岩,,10,10,16,3,4,26,,54,41,4,5,12,12,0.3,0.3
2025-06-28T2300,2363A,114.9367,25.8664,赣州市,地委,,15,14,15,7,8,46,,61,53,9,9,5,4,0.6,0.6
2025-06-28T2300,2364A,114.9461,25.8481,赣州市,气象台,,20,20,16,6,5,43,,60,51,4,6,8,8,0.3,0.3
2025-06-28T2300,2365A,114.9322,25.8333,赣州市,市图书馆,,15,10,11,10,7,43,,59,52,6,7,4,4,0.5,0.4
2025-06-28T2300,2366A,114.8905,25.8471,赣州市,华坚鞋城,,15,15,18,3,7,42,,59,53,8,9,5,5,0.4,0.4
2025-06-28T2300,3109A,115.0093,25.8613,赣州市,赣县区卫计委,,12,,19,8,10,28,,46,40,15,9,2,2,0.1,0.1
2025-06-28T2300,2683A,106.2319,36.1417,固原市,马园,,30,30,31,11,10,66,,135,108,39,27,12,16,0.6,0.6
2025-06-28T2300,2684A,106.2792,36.0022,固原市,监测站,,36,36,22,3,7,98,,133,121,17,12,4,4,0.2,0.2
2025-06-28T2300,2685A,106.2375,36.0211,固原市,新区,,29,21,25,13,9,90,,128,119,15,14,6,6,0.4,1
2025-06-28T2300,3522A,106.2177,35.9959,固原市,原州区十五小,,29,26,24,14,11,90,,127,118,13,8,11,10,0.4,0.4
2025-06-28T2300,2543A,106.6308,30.5278,广安市,小平旧居,,,,,,,,,,,,,,,,
2025-06-28T2300,2544A,106.6303,30.4576,广安市,市委,,38,,25,26,17,75,,139,116,16,16,5,4,0.5,0.5
2025-06-28T2300,2545A,106.6271,30.4663,广安市,友谊中学,,31,31,23,19,14,83,,154,130,24,14,2,2,0.8,0.6
2025-06-28T2300,2547A,106.6388,30.4551,广安市,广电花园,,28,28,26,17,13,68,,148,119,16,13,5,4,0.6,0.6
2025-06-28T2300,2902A,106.6351,30.4865,广安市,北辰小学,,29,29,25,18,12,82,,151,126,13,11,5,4,0.5,0.5
2025-06-28T2300,2523A,105.8945,32.4535,广元市,黑石坡,,30,28,28,13,14,95,,111,106,6,7,7,8,0.3,0.4
2025-06-28T2300,2524A,105.821,32.4444,广元市,老城,,38,38,24,23,11,102,,142,135,19,20,8,7,0.7,0.8
2025-06-28T2300,2526A,105.8628,32.4287,广元市,监测站,,30,28,20,21,13,82,,131,121,21,15,8,8,0.7,0.7
2025-06-28T2300,3617A,105.8047,32.4166,广元市,经开区,,35,30,33,24,24,93,,134,129,28,18,4,7,0.6,0.6
2025-06-28T2300,1345A,113.2347,23.1423,广州市,广雅中学,,14,14,18,7,9,33,,75,50,21,24,3,2,0.2,0.3
2025-06-28T2300,1346A,113.2612,23.105,广州市,市五中,,11,10,16,3,8,32,,72,50,21,24,4,5,0.3,0.3
2025-06-28T2300,1348A,113.3478,23.0916,广州市,广东商学院,,17,14,20,8,12,17,,65,42,34,28,4,4,0.6,0.6
2025-06-28T2300,1349A,113.4332,23.1047,广州市,市八十六中,,28,21,17,14,9,2,,55,25,55,35,3,4,0.6,0.5
2025-06-28T2300,1350A,113.3505,22.9483,广州市,番禺中学,,12,11,13,3,5,29,,63,45,23,20,7,7,0.5,0.5
2025-06-28T2300,1351A,113.2146,23.3916,广州市,花都师范,,17,17,17,8,10,29,,76,46,29,30,4,4,0.5,0.5
2025-06-28T2300,1352A,113.2597,23.1331,广州市,市监测站,,12,12,19,6,8,34,,74,51,19,21,5,5,0.3,0.4
2025-06-28T2300,1353A,113.5618,23.312,广州市,九龙镇镇龙,,22,22,20,9,10,23,,79,46,16,15,6,6,0.4,0.4
2025-06-28T2300,1354A,113.2765,23.1544,广州市,麓湖,,24,23,18,13,9,2,,65,40,47,26,2,2,0.7,0.6
2025-06-28T2300,1355A,113.443,23.3035,广州市,帽峰山森林公园,,16,,11,3,6,49,,95,67,13,15,6,6,0.4,0.4
2025-06-28T2300,2846A,113.3221,23.1322,广州市,体育西,,21,19,22,12,12,16,,71,44,41,31,4,5,0.6,0.6
2025-06-28T2300,3298A,113.5717,23.5491,广州市,从化街口,,14,12,16,3,9,42,,71,53,11,17,5,4,0.6,0.6
2025-06-28T2300,3299A,113.3472,23.3692,广州市,白云竹料,,15,15,27,9,11,29,,78,48,20,21,3,3,0.3,0.4
2025-06-28T2300,3300A,113.2981,23.237,广州市,白云嘉禾,,28,28,18,18,10,14,,74,45,38,28,5,6,0.3,0.3
2025-06-28T2300,3301A,113.4256,23.1716,广州市,黄埔科学城,,12,12,20,6,9,17,,67,39,21,21,5,5,0.6,0.6
2025-06-28T2300,3302A,113.3942,23.0483,广州市,番禺大学城,,,21,18,3,8,24,,71,48,31,27,,6,0.6,0.7
2025-06-28T2300,3303A,113.4922,22.8168,广州市,南沙黄阁,,13,13,14,3,6,29,,53,46,21,14,6,6,0.4,0.5
2025-06-28T2300,3304A,113.5342,22.7896,广州市,南沙街,,16,10,12,3,6,20,,54,43,32,17,4,4,0.4,0.4
2025-06-28T2300,3443A,113.2902,23.5544,广州市,花都梯面,,13,13,14,3,7,31,,80,52,13,12,4,4,0.5,0.5
2025-06-28T2300,3445A,113.7858,23.7478,广州市,从化良口,,12,12,14,3,4,22,,54,40,10,7,6,6,0.5,0.5
2025-06-28T2300,3446A,113.8051,23.2614,广州市,增城荔城,,14,13,13,3,6,42,,78,52,8,10,9,7,0.3,0.3
2025-06-28T2300,2505A,109.568,23.1478,贵港市,德智高中,,,,,,,,,,,,,,,,
2025-06-28T2300,2506A,109.6047,23.0666,贵港市,江南子站,,24,24,25,11,14,30,,72,52,16,11,6,7,0.6,0.5
2025-06-28T2300,2508A,109.5669,23.1065,贵港市,荷城子站,,22,22,24,9,8,27,,66,47,19,14,6,7,0.4,0.3
2025-06-28T2300,3405A,109.5886,23.1172,贵港市,新世纪学校,,18,12,19,12,12,37,,72,54,14,12,3,4,0.4,0.4
2025-06-28T2300,4260A,109.5933,23.0951,贵港市,中山路155-3号,,31,31,28,13,16,30,,74,53,17,15,4,5,0.7,0.7
2025-06-28T2300,1439A,106.6899,26.5998,贵阳市,马鞍山,,,12,10,,1,47,,44,44,5,8,2,2,0.4,0.4
2025-06-28T2300,1441A,106.6243,26.6266,贵阳市,鉴湖路,,19,19,18,3,2,46,,51,48,7,10,7,8,0.3,0.3
2025-06-28T2300,1442A,106.7487,26.6343,贵阳市,燕子冲,,17,12,16,9,14,54,,59,54,9,12,4,4,0.7,0.7
2025-06-28T2300,1443A,106.6555,26.4365,贵阳市,碧云窝,,19,19,19,3,3,49,,56,53,6,7,4,5,0.3,0.3
2025-06-28T2300,1445A,106.7109,26.6027,贵阳市,红边门,,16,12,14,3,5,50,,54,51,5,9,3,4,0.2,0.2
2025-06-28T2300,1446A,106.7164,26.5699,贵阳市,新华路,,14,9,11,9,10,42,,46,42,12,18,2,6,0.4,0.4
2025-06-28T2300,1447A,106.674,26.5424,贵阳市,太慈桥,,17,12,12,3,3,52,,50,48,8,13,5,6,0.3,0.3
2025-06-28T2300,1552A,106.805,26.3003,贵阳市,桐木岭,,20,17,19,12,10,63,,60,60,6,4,16,16,0.8,0.8
2025-06-28T2300,4230A,106.6882,26.5695,贵阳市,花果园大街66号,,17,7,8,6,6,52,,55,52,7,11,3,3,0.1,0.1
2025-06-28T2300,4231A,106.6873,26.5169,贵阳市,漓江路57号,,17,6,9,3,2,54,,57,56,5,9,5,5,0.3,0.2
2025-06-28T2300,1862A,110.4144,25.3167,桂林市,电子科大尧山校区,,,,,,,,,,,,,,,,
2025-06-28T2300,1864A,110.3089,25.2708,桂林市,龙隐路小学,,15,15,17,8,7,24,,64,46,10,7,10,8,0.4,0.4
2025-06-28T2300,1865A,110.2869,25.2178,桂林市,八中,,27,27,23,10,10,20,,62,43,18,13,7,7,0.5,0.5
2025-06-28T2300,3531A,110.296,25.1253,桂林市,旅游学院,,9,9,11,3,6,13,,65,39,7,9,2,3,0.3,0.3
2025-06-28T2300,4222A,110.1835,25.2444,桂林市,环湖路276号,,22,22,20,14,12,28,,61,46,14,14,13,10,0.3,0.3
2025-06-28T2300,4301A,110.2803,25.2773,桂林市,信义路13号,,21,21,23,7,12,32,,66,48,11,12,7,5,0.5,0.5
2025-06-28T2300,2674A,100.2561,34.4714,果洛藏族自治州,玛沁县大武镇,,45,45,30,21,15,84,,133,119,8,6,18,16,0.5,0.4
2025-06-28T2300,1129A,126.5422,45.755,哈尔滨市,岭北,细颗粒物(PM2.5),62,53,33,44,25,97,,148,125,21,17,3,3,1.0,0.9
2025-06-28T2300,1130A,126.561,45.8167,哈尔滨市,松北商大,,47,47,37,27,18,67,,139,104,16,15,5,6,0.7,0.7
2025-06-28T2300,1131A,126.979,45.5419,哈尔滨市,阿城会宁,,21,21,40,9,22,39,,116,77,15,28,7,8,0.5,0.6
2025-06-28T2300,1132A,126.599,45.7222,哈尔滨市,南岗学府路,,43,43,42,20,17,85,,142,116,18,18,6,6,0.7,0.7
2025-06-28T2300,1133A,126.689,45.7733,哈尔滨市,太平宏伟公园,,35,27,42,24,19,82,,120,114,16,14,6,5,0.6,0.7
2025-06-28T2300,1134A,126.635,45.7667,哈尔滨市,道外承德广场,颗粒物(PM10),63,75,53,22,17,86,,133,113,13,15,6,6,0.7,0.8
2025-06-28T2300,1135A,126.685,45.7319,哈尔滨市,香坊红旗大街,,40,36,45,28,23,66,,146,114,29,21,3,5,0.8,0.7
2025-06-28T2300,1136A,126.6411,45.7258,哈尔滨市,动力和平路,,,35,46,,8,75,,148,113,19,16,7,9,0.5,0.6
2025-06-28T2300,1137A,126.593,45.7478,哈尔滨市,道里建国路,,33,31,45,23,17,95,,151,128,15,15,6,6,1.0,1.2
2025-06-28T2300,1138A,126.615,45.61,哈尔滨市,平房东轻厂,,25,25,43,13,15,52,,144,103,26,25,9,9,0.5,0.5
2025-06-28T2300,1139A,126.595,45.9855,哈尔滨市,呼兰师专,,21,21,33,14,14,66,,131,112,20,19,6,6,0.6,0.6
2025-06-28T2300,1140A,126.6206,45.6842,哈尔滨市,省农科院,颗粒物(PM10),56,62,61,26,18,65,,144,110,38,24,5,6,0.8,0.8
2025-06-28T2300,2688A,93.5128,42.8172,哈密市,地区监测站,,36,26,73,7,18,113,,121,120,6,7,5,6,0.1,0.2
2025-06-28T2300,2689A,93.4961,42.8328,哈密市,哈密师范学校,,30,28,34,8,12,93,,106,103,13,9,9,8,0.3,0.4
2025-06-28T2300,2671A,100.9048,36.9639,海北藏族自治州,海晏县西海镇,,45,23,18,17,10,142,,144,135,3,4,8,9,0.4,0.4
2025-06-28T2300,3867A,102.0738,36.5056,海东市,平安区公安北苑,,42,31,32,11,14,134,,159,147,3,6,13,15,0.4,0.6
2025-06-28T2300,1409A,110.576,19.9507,海口市,东寨港,,13,13,13,6,8,34,,47,42,3,3,7,6,0.4,0.4
2025-06-28T2300,1410A,110.3232,20.0574,海口市,海南大学,,22,22,14,11,9,45,,59,49,4,4,2,3,0.4,0.3
2025-06-28T2300,1411A,110.283,20.0053,海口市,秀英海南医院,,22,22,14,13,8,28,,60,47,19,10,5,5,0.3,0.3
2025-06-28T2300,1412A,110.338,19.9969,海口市,海南师范大学,,23,19,20,16,9,37,,59,48,6,5,4,4,0.7,0.6
2025-06-28T2300,1413A,110.33,20.0356,海口市,龙华路环保局宿舍,,21,21,14,13,8,42,,58,48,6,5,5,5,0.3,0.3
2025-06-28T2300,3539A,110.5111,19.9736,海口市,桂林洋子站,,38,38,18,15,9,29,,51,42,8,6,4,5,0.3,0.2
2025-06-28T2300,2673A,100.6188,36.2866,海南藏族自治州,共和县恰卜恰镇,,43,37,30,8,12,135,,153,149,4,6,16,13,0.6,0.6
2025-06-28T2300,2676A,97.3731,37.3753,海西蒙古族藏族自治州,德令哈市,,44,38,31,21,12,138,,140,136,1,2,13,16,0.5,0.5
2025-06-28T2300,1048A,114.5302,36.6116,邯郸市,东污水处理厂,,,13,36,,15,108,,124,120,9,12,4,3,0.3,0.5
2025-06-28T2300,1049A,114.4918,36.5713,邯郸市,矿院,,38,13,30,3,17,121,,137,134,8,8,4,4,0.4,0.5
2025-06-28T2300,1050A,114.484,36.6133,邯郸市,丛台公园,,37,17,30,3,14,117,,140,136,9,11,7,6,0.3,0.5
2025-06-28T2300,3458A,114.7895,36.5593,邯郸市,香泉濮院小区,,30,30,41,3,10,95,,118,115,13,11,4,4,0.2,0.2
2025-06-28T2300,3579A,114.50634,36.77178,邯郸市,永年区实验高中,,31,20,39,11,25,98,,127,118,20,18,4,3,0.2,0.4
2025-06-28T2300,3580A,114.20016,36.44293,邯郸市,峰峰矿区临水派出所,,,24,43,,16,121,,138,135,6,7,7,7,0.3,0.5
2025-06-28T2300,2634A,106.9893,33.1842,汉中市,汉川机床厂子校,,29,20,23,20,16,78,,135,119,14,12,4,4,0.6,0.6
2025-06-28T2300,2635A,107.0154,33.0706,汉中市,市监测站,,31,31,26,15,13,85,,132,119,10,10,6,6,0.5,0.6
2025-06-28T2300,2636A,107.0089,33.1138,汉中市,鑫源开发区,颗粒物(PM10),54,58,27,36,15,60,,140,116,21,16,6,6,0.5,0.5
2025-06-28T2300,2637A,107.007,33.0323,汉中市,南郑大河坎水厂,,,,23,,16,,,86,,,12,,4,,0.6
2025-06-28T2300,1223A,120.2072,30.2111,杭州市,滨江,,18,18,20,8,9,41,,107,70,23,19,6,6,0.4,0.3
2025-06-28T2300,1224A,120.0633,30.2747,杭州市,西溪,,14,14,15,6,9,18,,94,52,19,8,4,4,0.3,0.3
2025-06-28T2300,1226A,120.3417,30.3150,杭州市,下沙,,15,14,17,9,9,47,,137,88,18,16,4,5,0.3,0.3
2025-06-28T2300,1227A,120.1269,30.2456,杭州市,卧龙桥,,14,14,17,3,9,24,,98,52,6,9,7,7,0.4,0.4
2025-06-28T2300,1228A,120.1903,30.2692,杭州市,浙江农大,,13,9,13,8,10,39,,100,63,20,17,3,3,0.1,0.1
2025-06-28T2300,1230A,120.1197,30.3119,杭州市,和睦小学,,16,16,16,8,10,39,,101,60,9,7,8,8,0.4,0.4
2025-06-28T2300,1231A,120.3019,30.4183,杭州市,临平镇,,19,19,23,7,8,44,,134,89,21,19,5,5,0.4,0.4
2025-06-28T2300,1232A,120.2753,30.1839,杭州市,城厢镇,,15,13,20,8,9,48,,117,73,10,12,6,7,0.5,0.5
2025-06-28T2300,1233A,120.0883,30.1808,杭州市,云栖,,14,14,18,3,6,19,,96,51,11,10,7,7,0.4,0.5
2025-06-28T2300,3557A,119.9464,30.0494,杭州市,镇二中,,13,10,16,8,10,41,,93,56,12,13,3,3,0.4,0.4
2025-06-28T2300,3558A,119.7183,30.2367,杭州市,市府大楼,,12,11,14,8,8,28,,74,48,12,10,7,7,0.3,0.3
2025-06-28T2300,3656A,120.1556,30.2864,杭州市,消防大队,,14,14,19,3,8,44,,102,62,11,11,6,6,0.5,0.6
2025-06-28T2300,1270A,117.1959,31.7848,合肥市,明珠广场,,19,9,10,7,6,58,,83,74,10,12,5,4,0.5,0.6
2025-06-28T2300,1271A,117.3072,31.8764,合肥市,三里街,,16,14,15,7,7,51,,71,63,10,15,6,6,0.4,0.5
2025-06-28T2300,1272A,117.2588,31.8707,合肥市,琥珀山庄,,22,22,13,8,9,60,,78,72,8,13,6,6,0.6,0.7
2025-06-28T2300,1273A,117.1604,31.9052,合肥市,董铺水库,,20,,12,14,6,62,,81,74,6,9,4,4,0.2,0.3
2025-06-28T2300,1274A,117.25,31.8571,合肥市,长江中路,,19,7,17,6,9,59,,81,73,7,11,5,5,0.4,0.5
2025-06-28T2300,1275A,117.266,31.9436,合肥市,庐阳区,,19,14,14,3,6,60,,83,76,5,9,9,9,0.4,0.6
2025-06-28T2300,1276A,117.3453,31.8616,合肥市,瑶海区,,17,7,12,3,5,52,,73,64,8,14,6,6,0.5,0.6
2025-06-28T2300,1277A,117.3027,31.7964,合肥市,包河区,,19,6,10,3,4,59,,78,73,6,10,4,4,0.6,0.7
2025-06-28T2300,1278A,117.2776,31.7385,合肥市,滨湖新区,,,14,12,9,10,,,78,74,4,8,8,8,0.4,0.5
2025-06-28T2300,1279A,117.1318,31.8403,合肥市,高新区,,20,9,14,3,7,63,,82,75,7,12,7,7,0.4,0.4
2025-06-28T2300,3464A,117.3803,31.9147,合肥市,高教基地,,18,,12,8,9,56,,78,73,8,11,3,3,0.4,0.5
2025-06-28T2300,3614A,79.924,37.0877,和田地区,地区环保局,颗粒物(PM10),500,874,1182,277,336,90,,116,105,17,9,1,2,0.6,0.5
2025-06-28T2300,3615A,79.9131,37.113,和田地区,市环保局,颗粒物(PM10),500,877,997,272,277,61,,116,102,28,5,1,2,0.2,0.2
2025-06-28T2300,2516A,108.2011,24.715,河池市,东仁乐园,,,,,,,,,,,,,,,,
2025-06-28T2300,2517A,108.0497,24.6947,河池市,市环保站,,14,14,17,6,6,21,,43,35,11,7,3,2,0.6,0.6
2025-06-28T2300,2518A,108.0983,24.6989,河池市,市疾控中心,,21,21,17,9,9,5,,45,30,25,14,2,3,0.6,0.6
2025-06-28T2300,1696A,114.6778,23.7569,河源市,源西,,28,28,16,3,8,38,,79,66,20,7,4,5,0.7,0.6
2025-06-28T2300,1697A,114.6944,23.7586,河源市,东埔,,18,16,16,12,9,34,,52,44,14,13,5,7,0.5,0.5
2025-06-28T2300,1698A,114.6892,23.7233,河源市,老城,,24,24,17,7,7,30,,51,43,12,9,5,7,0.5,0.5
2025-06-28T2300,1718A,115.4208,35.2464,菏泽市,气象局,,35,17,23,3,12,111,,110,110,8,10,2,2,0.3,0.3
2025-06-28T2300,3374A,115.5564,35.0891,菏泽市,定陶老年大学,,,,23,,9,,,67,,,14,,3,,0.3
2025-06-28T2300,4184A,115.4797,35.24401,菏泽市,永昌路1号,,,3,20,,9,106,,110,110,9,11,3,4,0.1,0.1
2025-06-28T2300,4193A,115.4715,35.2800,菏泽市,长城路999号,,35,9,20,3,8,109,,108,108,9,10,2,3,0.2,0.2
2025-06-28T2300,2514A,111.5264,24.4172,贺州市,环保小区,,14,14,14,7,8,39,,55,48,10,7,11,11,0.6,0.6
2025-06-28T2300,2515A,111.5608,24.4078,贺州市,政协大楼,,16,16,16,3,7,41,,58,50,10,9,12,14,0.6,0.6
2025-06-28T2300,3534A,111.4744,24.4553,贺州市,西湾,,13,12,13,8,7,39,,57,46,11,9,13,13,0.5,0.5
2025-06-28T2300,2385A,114.17,35.9019,鹤壁市,市监测站,细颗粒物(PM2.5),53,,41,37,38,90,,101,99,12,11,3,4,1.3,1.4
2025-06-28T2300,2386A,114.2956,35.7511,鹤壁市,市交警支队,,39,,33,27,24,77,,120,101,19,15,2,7,0.8,1
2025-06-28T2300,2387A,114.2878,35.7306,鹤壁市,迎宾馆,,42,,42,29,27,80,,124,103,17,12,5,5,0.6,0.7
2025-06-28T2300,3474A,114.2617,35.6822,鹤壁市,大新区,,25,20,36,16,19,80,,116,98,6,10,6,6,0.9,0.9
2025-06-28T2300,3596A,114.1572,35.9603,鹤壁市,南山宾馆,,46,44,49,32,42,93,,100,100,12,12,4,4,0.8,1.2
2025-06-28T2300,2244A,130.2537,47.3416,鹤岗市,哈啤分公司,,42,,24,29,20,20,,142,75,18,10,11,11,0.5,0.4
2025-06-28T2300,2245A,130.2684,47.3086,鹤岗市,斯达机电,,42,32,46,29,23,25,,125,86,17,11,14,14,0.5,0.5
2025-06-28T2300,2246A,130.3114,47.3388,鹤岗市,东山纸板厂,颗粒物(PM10),65,80,66,34,20,3,,135,60,31,20,6,8,0.9,0.6
2025-06-28T2300,2247A,130.1097,47.3382,鹤岗市,五号水库,,17,17,16,3,7,32,,116,46,10,9,16,16,0.6,0.6
2025-06-28T2300,2263A,127.4833,50.2524,黑河市,交通局,,35,34,40,15,13,111,,151,124,10,12,9,7,0.4,0.6
2025-06-28T2300,2264A,127.5144,50.2341,黑河市,环保局,,38,30,45,22,17,120,,160,135,6,10,5,7,0.4,0.5
2025-06-28T2300,2265A,127.5291,50.2472,黑河市,大黑河岛,,,,6,18,18,104,,122,109,,,36,35,0.5,0.5
2025-06-28T2300,1074A,115.6838,37.7541,衡水市,电机北厂,,34,33,38,21,28,108,,132,128,15,10,3,3,0.2,0.3
2025-06-28T2300,1075A,115.6303,37.7316,衡水市,市监测站,,42,42,46,12,21,104,,136,125,13,10,6,5,0.4,0.4
2025-06-28T2300,3188A,115.6683,37.7217,衡水市,市城管局,,40,37,34,28,30,124,,140,138,12,10,1,2,0.4,0.4
2025-06-28T2300,3459A,115.5989,37.5491,衡水市,地表水厂,,35,35,39,11,16,92,,131,125,7,8,5,6,0.2,0.3
2025-06-28T2300,2456A,112.5003,26.9167,衡阳市,原169医院,,15,12,16,6,6,45,,86,68,14,9,3,7,0.4,0.5
2025-06-28T2300,2457A,112.6194,26.9258,衡阳市,衡阳化工总厂,,16,10,17,6,9,50,,79,60,7,7,4,5,0.4,0.4
2025-06-28T2300,2458A,112.6211,26.8956,衡阳市,珠晖区环保局,,,11,13,,,55,,85,73,7,6,6,8,0.5,0.5
2025-06-28T2300,2459A,112.6197,26.8733,衡阳市,市委党校,,15,14,17,10,8,48,,75,64,10,7,7,9,0.4,0.4
2025-06-28T2300,2460A,112.6006,26.8919,衡阳市,市监测站,,16,15,12,9,7,50,,74,62,7,7,5,7,0.2,0.3
2025-06-28T2300,2461A,112.5664,26.9056,衡阳市,真空机电公司,,27,27,17,8,8,49,,75,61,7,6,7,8,0.4,0.5
2025-06-28T2300,3399A,112.6703,26.882,衡阳市,师范学院,,14,11,18,6,9,44,,75,63,8,6,6,7,0.5,0.5
2025-06-28T2300,2608A,103.3772,23.3993,红河哈尼族彝族自治州,污水处理厂,,14,12,12,8,9,44,,51,47,2,3,7,6,0.1,0.1
2025-06-28T2300,2609A,103.3861,23.35,红河哈尼族彝族自治州,监测站,,28,28,21,15,11,41,,49,45,3,3,9,6,0.3,0.3
2025-06-28T2300,3038A,103.3758,23.368,红河哈尼族彝族自治州,州图书馆,,15,,8,6,9,46,,52,49,3,3,2,1,0.2,0.2
2025-06-28T2300,1090A,111.6507,40.7517,呼和浩特市,呼市一监,,26,17,21,14,18,83,,138,118,25,15,9,9,0.8,0.6
2025-06-28T2300,1091A,111.6572,40.8033,呼和浩特市,小召,,30,22,21,14,19,94,,139,122,25,18,6,6,0.6,0.5
2025-06-28T2300,1094A,111.7516,40.8369,呼和浩特市,如意水处理厂,,24,24,23,12,15,58,,152,114,37,18,5,5,0.5,0.5
2025-06-28T2300,1095A,111.7276,40.8062,呼和浩特市,二十九中,,26,25,27,14,18,83,,147,120,26,14,5,5,0.7,0.6
2025-06-28T2300,1096A,111.5512,40.7866,呼和浩特市,工大金川校区,,39,39,32,12,21,65,,137,108,37,22,5,7,0.3,0.4
2025-06-28T2300,1097A,111.717,40.7612,呼和浩特市,化肥厂生活区,,31,22,25,13,18,99,,148,127,23,17,6,7,0.4,0.4
2025-06-28T2300,3698A,111.5968,40.8178,呼和浩特市,红旗小学,,39,39,28,27,20,34,,150,114,56,22,3,4,0.5,0.5
2025-06-28T2300,3699A,111.6518,40.8389,呼和浩特市,海东办,,22,22,24,13,20,59,,147,116,35,20,5,6,0.6,0.5
2025-06-28T2300,2192A,119.7594,49.2261,呼伦贝尔市,区环保局,,35,35,30,23,21,92,,118,108,9,10,5,5,0.6,0.6
2025-06-28T2300,3061A,119.7512,49.1577,呼伦贝尔市,国华电力东,,32,31,25,22,18,96,,138,125,8,7,4,4,0.5,0.4
2025-06-28T2300,1250A,120.0751,30.8669,湖州市,城西水厂,,18,11,24,8,16,55,,120,89,12,19,5,6,0.4,0.5
2025-06-28T2300,2873A,120.0830,30.8929,湖州市,仁皇山新区,,15,9,23,8,14,48,,121,88,13,17,4,4,0.4,0.6
2025-06-28T2300,2907A,120.1844,30.8596,湖州市,吴兴区站,,18,18,22,7,14,46,,128,93,11,16,6,6,0.4,0.4
2025-06-28T2300,3562A,120.4148,30.8538,湖州市,南浔区站,,25,25,23,17,16,59,,140,107,16,15,4,4,0.4,0.5
2025-06-28T2300,1607A,120.9049,40.7211,葫芦岛市,龙港区,细颗粒物(PM2.5),82,,29,60,23,100,,100,100,3,4,4,4,0.8,0.6
2025-06-28T2300,1608A,120.8392,40.7514,葫芦岛市,化工街,,31,24,11,19,12,98,,98,98,10,7,6,7,0.7,0.6
2025-06-28T2300,1609A,120.8341,40.7073,葫芦岛市,新区,细颗粒物(PM2.5),62,,15,44,19,107,,105,105,2,2,2,2,0.9,0.8
2025-06-28T2300,1610A,120.8695,40.7677,葫芦岛市,东城区,,,,22,43,24,,,88,,8,8,2,8,0.8,0.7
2025-06-28T2300,2482A,109.5981,27.5721,怀化市,林科所,,15,15,18,3,3,30,,38,37,11,8,5,5,0.4,0.3
2025-06-28T2300,2483A,109.9453,27.5444,怀化市,河西地税局,,16,16,15,9,7,26,,46,42,11,8,5,6,0.2,0.2
2025-06-28T2300,2484A,109.9781,27.5342,怀化市,市四医院,,22,22,22,9,10,24,,40,36,11,10,2,2,0.5,0.6
2025-06-28T2300,2485A,109.9972,27.5578,怀化市,监测楼,,21,21,21,11,10,19,,38,33,13,7,2,5,0.1,0.1
2025-06-28T2300,2486A,110.0394,27.583,怀化市,市委党校,,20,20,16,13,10,14,,47,37,18,13,4,7,0.3,0.3
2025-06-28T2300,1210A,119.036,33.5981,淮安市,钵池山,,18,14,18,11,18,55,,77,75,18,12,7,8,0.4,0.5
2025-06-28T2300,1211A,119.007,33.575,淮安市,北京南路,,18,14,18,11,16,55,,75,74,15,10,6,10,0.9,0.8
2025-06-28T2300,1212A,118.989,33.6067,淮安市,市监测站,,20,19,23,14,19,64,,74,73,12,11,8,11,0.8,0.9
2025-06-28T2300,1213A,119.135,33.5039,淮安市,楚州区监测站,,20,20,29,11,14,49,,75,70,12,8,7,7,0.4,0.5
2025-06-28T2300,3426A,118.8755,33.2894,淮安市,新华书店,,18,15,24,6,11,56,,73,70,14,11,7,8,0.4,0.5
2025-06-28T2300,4206A,119.0288,33.6319,淮安市,承德北路606号,,19,19,25,12,15,43,,69,66,22,9,5,5,0.5,0.6
2025-06-28T2300,2282A,116.8004,33.975,淮北市,监测站,,22,22,21,9,10,67,,81,79,7,8,6,6,0.5,0.5
2025-06-28T2300,2283A,116.8091,33.9007,淮北市,烈山区政府,,37,37,28,3,7,67,,83,81,8,9,6,6,0.6,0.6
2025-06-28T2300,3330A,116.8873,33.9836,淮北市,杜集区检察院,,22,21,19,8,14,68,,80,78,10,13,7,7,0.8,0.8
2025-06-28T2300,4017A,116.7923,33.9535,淮北市,市博物馆,,23,22,18,9,11,71,,85,83,5,7,6,7,0.8,0.7
2025-06-28T2300,2277A,116.8305,32.7727,淮南市,潘集区政府,,25,25,18,15,10,56,,81,79,14,11,2,3,0.4,0.4
2025-06-28T2300,2279A,116.8569,32.5951,淮南市,谢家集区政府,,27,27,19,9,5,55,,85,83,10,9,6,6,0.2,0.2
2025-06-28T2300,2280A,116.8281,32.633,淮南市,八公山区政府,,18,14,15,3,9,57,,85,83,10,10,4,3,0.3,0.3
2025-06-28T2300,2281A,116.6325,32.6201,淮南市,焦岗湖风景区管理处,,,,,,,,,,,,,,,,
2025-06-28T2300,2894A,117.0566,32.6531,淮南市,经济技术开发区消防队,,19,11,14,7,6,60,,82,81,9,10,7,6,0.2,0.3
2025-06-28T2300,3329A,117.0108,32.5893,淮南市,山南新区,,19,17,9,6,6,58,,94,92,9,7,7,7,0.4,0.4
2025-06-28T2300,4209A,117.0031,32.6445,淮南市,国庆中路369号,,20,11,9,8,13,61,,95,93,10,9,8,7,0.1,0.1
2025-06-28T2300,2446A,114.9028,30.4742,黄冈市,职工中心,,20,14,23,3,11,62,,110,94,1,3,11,10,0.3,0.4
2025-06-28T2300,2929A,114.8858,30.4519,黄冈市,红卫路,,20,15,21,3,11,62,,110,94,2,4,6,8,0.3,0.4
2025-06-28T2300,3398A,114.9136,30.4445,黄冈市,市林业局,,19,14,22,10,15,58,,96,84,2,4,8,8,0.3,0.4
2025-06-28T2300,2672A,102.0199,35.5102,黄南藏族自治州,同仁县隆务镇,,39,39,27,12,9,67,,84,78,10,10,9,9,0.2,0.2
2025-06-28T2300,2295A,118.2903,29.6963,黄山市,延安路89号,,10,10,14,3,6,31,,62,48,4,5,6,7,0.4,0.5
2025-06-28T2300,2297A,118.1371,30.2756,黄山市,黄山区政府5号楼,,10,6,12,3,5,29,,45,,3,3,4,4,0.4,0.2
2025-06-28T2300,4210A,118.3354,29.7203,黄山市,滨江东路7-2号,,14,14,20,3,6,32,,63,48,3,4,4,4,0.3,0.3
2025-06-28T2300,2423A,115.0601,30.2313,黄石市,沈家营,,19,19,33,3,6,56,,80,73,5,15,7,7,0.2,0.4
2025-06-28T2300,2426A,114.8988,30.2019,黄石市,铁山,,18,6,16,3,5,55,,86,77,2,9,4,4,0.5,0.6
2025-06-28T2300,2427A,115.0307,30.2092,黄石市,团城山,,22,22,23,3,2,62,,94,84,4,10,7,7,0.5,0.5
2025-06-28T2300,3149A,115.0235,30.1578,黄石市,笔架山北路,,,6,19,,1,51,,83,74,3,8,5,6,0.5,0.4
2025-06-28T2300,4185A,115.0780,30.21118,黄石市,磁湖东路29号,,18,8,35,3,9,56,,89,78,2,16,6,8,0.4,0.7
2025-06-28T2300,1392A,114.4183,23.0528,惠州市,河南岸金山湖子站,,14,6,15,3,8,42,,44,40,6,10,6,7,0.3,0.4
2025-06-28T2300,1393A,114.4053,23.0822,惠州市,下埔横江三路子站,,13,9,15,6,8,41,,50,42,8,10,4,5,0.3,0.3
2025-06-28T2300,1394A,114.4103,23.1142,惠州市,江北云山西路子站,,16,16,17,3,7,39,,54,43,8,9,6,7,0.4,0.5
2025-06-28T2300,1395A,114.4645,22.7833,惠州市,惠阳区承修路船湖子站,,15,10,11,3,6,45,,48,46,10,11,7,7,0.4,0.4
2025-06-28T2300,1396A,114.5317,22.7422,惠州市,大亚湾管委会子站,,12,10,10,3,4,36,,41,40,19,12,10,9,0.4,0.4
2025-06-28T2300,3314A,114.4338,22.8134,惠州市,惠阳秋长,,14,,11,3,6,42,,54,49,12,12,12,12,0.4,0.4
2025-06-28T2300,3452A,114.6517,22.775,惠州市,大亚湾霞涌,,14,6,13,3,5,43,,54,53,9,10,5,6,0.6,0.5
2025-06-28T2300,2240A,130.9762,45.3001,鸡西市,环保局,颗粒物(PM10),51,51,53,24,24,70,,139,86,24,28,6,7,0.5,0.5
2025-06-28T2300,2243A,130.9429,45.3039,鸡西市,第一中学,,40,40,47,21,19,61,,146,88,30,29,10,10,0.5,0.5
2025-06-28T2300,3707A,131.0207,45.3073,鸡西市,欧美日汽修厂,颗粒物(PM10),59,68,60,28,24,44,,132,74,39,31,8,8,0.6,0.6
2025-06-28T2300,3709A,130.9967,45.3106,鸡西市,市政设施管理处,颗粒物(PM10),59,68,63,28,24,53,,133,77,34,33,5,6,0.7,0.7
2025-06-28T2300,2367A,114.9754,27.0803,吉安市,红声器材厂,,21,21,19,12,7,26,,59,46,14,6,8,9,0.3,0.2
2025-06-28T2300,2368A,114.9658,27.0999,吉安市,市森林工业局,,21,21,18,9,6,22,,64,44,14,6,9,8,0.4,0.4
2025-06-28T2300,2369A,114.99,27.1312,吉安市,市环境监测站,,20,20,16,14,8,35,,66,47,8,5,12,12,0.4,0.4
2025-06-28T2300,2370A,115.0093,27.0968,吉安市,青原区法院,,21,21,20,7,7,38,,57,50,10,12,7,7,0.3,0.4
2025-06-28T2300,1772A,126.54,43.8622,吉林市,哈达湾,,20,19,19,14,15,58,,99,79,17,9,6,6,0.5,0.4
2025-06-28T2300,1773A,126.5844,43.8358,吉林市,东局子,,29,29,31,14,16,62,,98,81,13,11,5,5,0.8,0.8
2025-06-28T2300,1774A,126.5052,43.8245,吉林市,电力学院,,24,24,26,14,15,42,,95,71,27,13,5,5,0.8,0.8
2025-06-28T2300,1775A,126.6133,43.8972,吉林市,江北,,23,23,25,12,12,50,,84,61,12,9,8,8,0.6,0.6
2025-06-28T2300,1776A,126.555,43.8306,吉林市,江南公园,,,26,26,20,17,,,93,,23,12,4,5,0.5,0.5
2025-06-28T2300,1778A,126.7061,43.7133,吉林市,丰满,,,,,,,,,,,,,,,,
2025-06-28T2300,2868A,126.4739,43.953,吉林市,九站,,32,32,43,15,39,46,,108,80,28,14,4,5,0.4,0.4
2025-06-28T2300,1299A,116.9862,36.6114,济南市,科干所,,24,,19,3,22,74,,124,90,9,7,4,4,0.6,0.6
2025-06-28T2300,1300A,116.9376,36.665,济南市,农科所,,15,12,29,3,17,47,,104,63,16,25,6,7,0.2,0.3
2025-06-28T2300,1301A,117.1265,36.6734,济南市,开发区,,21,10,24,7,18,66,,120,82,17,18,6,6,0.5,0.5
2025-06-28T2300,1303A,117.0624,36.6868,济南市,省种子仓库,,36,36,36,14,18,30,,122,76,58,30,5,5,0.7,0.7
2025-06-28T2300,1304A,116.9489,36.6447,济南市,机床二厂,,20,15,28,3,15,61,,110,81,21,22,4,4,0.5,0.5
2025-06-28T2300,1305A,117.0495,36.663,济南市,市监测站,,25,24,25,17,18,33,,112,66,49,25,8,8,0.7,0.6
2025-06-28T2300,1306A,116.7675,36.5484,济南市,长清党校,,19,7,19,7,20,59,,103,86,24,15,4,4,0.4,0.4
2025-06-28T2300,1616A,117.6795,36.229,济南市,技术学院,,24,17,27,9,20,51,,128,89,48,30,9,8,1.0,0.9
2025-06-28T2300,1961A,117.532,36.6868,济南市,东山小学,,22,10,28,3,16,68,,138,86,13,15,5,5,0.2,0.3
2025-06-28T2300,3059A,117.7161,36.2049,济南市,泰兴公司,,14,9,34,3,24,44,,117,80,20,20,7,7,0.2,0.4
2025-06-28T2300,3064A,117.6867,36.2171,济南市,莱芜战役纪念馆,,27,27,39,9,25,46,,114,78,18,15,6,6,1.5,1.3
2025-06-28T2300,3494A,117.1673,36.9782,济南市,济阳区政府,,29,29,44,15,27,46,,142,78,37,18,5,5,0.4,0.5
2025-06-28T2300,3495A,117.1171,36.63,济南市,锦屏中学,,21,7,21,3,11,66,,113,75,8,9,4,5,0.5,0.6
2025-06-28T2300,3682A,116.9814,36.6819,济南市,济南四建,,27,27,31,10,23,39,,117,76,40,32,4,4,0.5,0.6
2025-06-28T2300,1653A,116.6251,35.4302,济宁市,火炬城,,32,6,37,3,18,101,,90,90,1,8,5,5,0.3,0.5
2025-06-28T2300,1655A,116.5491,35.4042,济宁市,电化厂,,35,8,30,3,20,111,,100,100,5,10,4,4,0.6,0.8
2025-06-28T2300,3500A,116.5814,35.3707,济宁市,北湖一中,,35,6,34,3,16,112,,101,101,2,6,4,4,0.2,0.4
2025-06-28T2300,3501A,116.8249,35.5593,济宁市,服务中心,,31,14,34,3,14,98,,92,86,8,13,2,1,0.1,0.4
2025-06-28T2300,3678A,116.5907,35.4054,济宁市,市第七中学,,,5,35,,14,106,,94,94,2,6,10,10,0.2,0.4
2025-06-28T2300,2255A,130.2751,46.8028,佳木斯市,佳纺,,41,41,52,26,27,81,,123,94,18,24,4,4,0.4,0.5
2025-06-28T2300,2256A,130.3995,46.8307,佳木斯市,发电厂,,43,43,54,29,26,71,,106,80,17,25,5,4,0.5,0.5
2025-06-28T2300,2257A,130.3258,46.7975,佳木斯市,环保局,,48,48,48,27,30,97,,132,105,19,22,5,5,0.5,0.5
2025-06-28T2300,2258A,130.3648,46.8032,佳木斯市,十一中,,,39,48,,40,101,,134,115,15,23,4,7,0.7,0.5
2025-06-28T2300,2259A,130.3794,46.7588,佳木斯市,四丰,,,31,29,,,,,,,18,12,1,1,0.6,0.6
2025-06-28T2300,1252A,120.7436,30.778,嘉兴市,清河小学,,22,16,28,12,16,70,,166,125,17,19,7,8,0.5,0.7
2025-06-28T2300,1253A,120.726,30.7478,嘉兴市,嘉兴学院,,24,24,29,14,17,66,,173,130,20,19,5,5,0.3,0.4
2025-06-28T2300,2872A,120.7846,30.7525,嘉兴市,南湖区残联,,23,20,28,16,17,69,,178,136,16,15,5,6,0.2,0.2
2025-06-28T2300,3407A,120.6916,30.7739,嘉兴市,秀洲住建,,23,19,25,12,15,71,,167,122,16,22,6,6,0.7,0.7
2025-06-28T2300,1945A,98.2908,39.7711,嘉峪关市,气象局,,36,,101,9,18,114,,128,121,6,11,6,6,0.6,0.6
2025-06-28T2300,2884A,98.2672,39.7978,嘉峪关市,酒钢宾馆,,37,9,125,3,22,118,,125,122,2,12,12,22,0.6,0.7
2025-06-28T2300,3248A,98.2643,39.7724,嘉峪关市,雄关区,,32,16,85,12,20,100,,122,113,13,14,6,8,0.6,0.5
2025-06-28T2300,1383A,113.1064,22.6058,江门市,北街,,12,6,14,3,7,36,,81,56,10,12,3,3,0.4,0.4
2025-06-28T2300,1384A,113.0731,22.5835,江门市,西区,,24,24,12,7,6,42,,80,56,10,10,8,8,0.4,0.4
2025-06-28T2300,1385A,113.0219,22.5311,江门市,圭峰西,,12,7,14,6,6,38,,72,50,10,8,3,3,0.6,0.6
2025-06-28T2300,1386A,113.0828,22.5947,江门市,东湖,,,10,11,8,6,33,,75,53,10,11,,7,0.5,0.5
2025-06-28T2300,3311A,113.1075,22.5647,江门市,江海富民,,25,25,21,9,10,41,,81,58,13,11,10,9,0.5,0.5
2025-06-28T2300,3449A,113.05,22.4667,江门市,新会银湖,,16,12,24,11,7,16,,62,34,16,11,2,1,0.4,0.4
2025-06-28T2300,1830A,113.1992,35.2590,焦作市,影视城,,,,28,,9,,,,,,10,,14,,0.4
2025-06-28T2300,3169A,113.2725,35.2067,焦作市,太极体育中心,细颗粒物(PM2.5),62,54,45,44,32,94,,159,132,8,13,5,5,0.8,0.6
2025-06-28T2300,3335A,113.3137,35.2641,焦作市,马村街道办,细颗粒物(PM2.5),55,42,42,39,32,88,,145,122,11,14,8,9,0.8,0.7
2025-06-28T2300,3336A,113.2465,35.2373,焦作市,焦作技师学院,,46,46,55,24,17,87,,150,127,11,13,4,3,0.9,0.9
2025-06-28T2300,3477A,113.1656,35.2539,焦作市,中站许衡医院,,40,40,35,22,19,66,,152,124,17,13,6,7,0.8,0.6
2025-06-28T2300,3981A,113.2449,35.1803,焦作市,原李万街道办,,42,42,44,19,16,90,,161,131,12,16,11,13,0.2,0.2
2025-06-28T2300,4264A,113.2340,35.2190,焦作市,新安路1731号,,45,45,54,27,23,92,,162,136,6,9,2,5,0.6,0.5
2025-06-28T2300,1708A,116.3701,23.5345,揭阳市,新兴,,13,10,21,9,10,35,,63,46,10,10,5,5,0.5,0.5
2025-06-28T2300,1709A,116.3264,23.5443,揭阳市,西马,,17,17,43,9,8,36,,47,45,7,9,1,2,0.6,0.6
2025-06-28T2300,1710A,116.3611,23.5626,揭阳市,东兴,,14,,25,8,8,42,,75,54,7,9,3,3,0.6,0.4
2025-06-28T2300,1711A,116.4151,23.5294,揭阳市,渔湖,,15,15,18,3,8,37,,56,44,7,9,7,7,0.4,0.4
2025-06-28T2300,3320A,116.403,23.5699,揭阳市,曲溪,,19,19,15,10,8,40,,67,50,7,6,4,5,0.5,0.5
2025-06-28T2300,1944A,102.1692,38.5167,金昌市,天庆家园,,36,36,33,16,16,112,,142,138,18,12,18,18,0.9,0.8
2025-06-28T2300,4022A,102.1647,38.5371,金昌市,金川区人防中心,,50,50,39,16,16,109,,145,136,18,11,16,17,0.9,0.5
2025-06-28T2300,4239A,102.1930,38.5319,金昌市,长春路96号,颗粒物(PM10),58,65,32,15,13,128,,146,142,10,9,53,35,0.7,0.6
2025-06-28T2300,1262A,119.647,29.077,金华市,十五中,,22,22,24,11,11,58,,113,66,15,12,4,4,0.4,0.4
2025-06-28T2300,1263A,119.686,29.1029,金华市,监测站,颗粒物(PM10),60,69,26,32,13,44,,112,58,14,11,6,2,0.6,0.6
2025-06-28T2300,3659A,119.656,29.1131,金华市,气象局,,33,33,22,18,10,50,,110,61,18,17,4,3,0.4,0.4
2025-06-28T2300,1767A,121.1115,41.0879,锦州市,南山,,42,,20,29,20,66,,85,84,14,8,5,7,0.8,0.8
2025-06-28T2300,1768A,121.0604,40.8428,锦州市,开发区,,48,37,22,33,16,91,,69,69,14,14,5,7,0.9,0.7
2025-06-28T2300,1769A,121.1836,41.1119,锦州市,百股街道,,35,,24,24,18,75,,92,92,12,11,3,6,0.7,0.7
2025-06-28T2300,1770A,121.1178,41.1222,锦州市,天安街道,,45,,29,31,26,77,,90,89,15,13,2,11,0.9,1.2
2025-06-28T2300,1771A,121.1303,41.1386,锦州市,北湖公园,,45,38,29,31,23,74,,83,82,11,10,2,4,0.7,0.8
2025-06-28T2300,2160A,112.85,35.5051,晋城市,自来水公司,,45,45,52,7,18,139,,164,159,6,8,1,2,0.6,0.5
2025-06-28T2300,2161A,112.8318,35.4936,晋城市,白云商贸,,41,26,38,7,8,129,,161,155,10,11,4,6,0.5,0.5
2025-06-28T2300,2162A,112.8508,35.4887,晋城市,市环保局,,49,49,56,9,17,130,,162,154,9,10,7,8,0.0,0
2025-06-28T2300,2163A,112.8676,35.4897,晋城市,技术学院,,38,36,37,9,15,121,,151,145,9,9,6,7,0.5,0.5
2025-06-28T2300,2165A,112.8453,35.546,晋城市,白马寺,,45,31,27,24,20,143,,163,159,5,7,5,6,0.8,0.5
2025-06-28T2300,3620A,112.8271,35.4828,晋城市,泽州一中,,46,15,41,3,14,145,,170,165,9,11,3,4,0.5,0.5
2025-06-28T2300,2173A,112.7249,37.7067,晋中市,南都小区,,35,16,31,16,20,111,,137,124,5,4,3,3,0.7,0.7
2025-06-28T2300,2174A,112.6991,37.6982,晋中市,榆次区政府,,36,19,25,8,16,114,,138,126,5,5,4,4,1.0,1
2025-06-28T2300,2865A,112.7195,37.6828,晋中市,榆次三中,,40,9,20,3,13,126,,146,134,6,7,5,5,0.4,0.5
2025-06-28T2300,4200A,112.7478,37.6954,晋中市,迎宾街26号,,,9,19,7,14,125,,146,133,,4,5,5,0.7,0.4
2025-06-28T2300,2439A,112.2014,31.0481,荆门市,竹园小学,,13,13,23,9,15,40,,64,54,10,8,6,6,0.5,0.6
2025-06-28T2300,2440A,112.1969,30.9891,荆门市,掇刀,,20,20,22,12,17,39,,63,50,9,9,6,7,0.5,0.6
2025-06-28T2300,2441A,112.2213,31.0386,荆门市,石化一小,,22,22,23,8,24,38,,70,55,14,11,12,13,0.3,0.5
2025-06-28T2300,3012A,112.1849,31.0362,荆门市,西山林语,,13,11,22,9,15,40,,61,53,6,3,10,10,0.4,0.4
2025-06-28T2300,3547A,112.1632,31.0138,荆门市,龙泉中学南校,,20,17,19,14,14,40,,62,53,6,4,5,5,0.3,0.4
2025-06-28T2300,1844A,112.2494,30.3197,荆州市,市图书馆,,16,10,14,7,8,49,,60,50,5,7,2,4,0.4,0.5
2025-06-28T2300,1845A,112.2008,30.3544,荆州市,市委党校,,20,,14,14,11,44,,48,41,7,9,6,6,0.4,0.5
2025-06-28T2300,3194A,112.2747,30.3122,荆州市,管委会,,15,10,15,10,13,39,,57,47,11,8,8,7,0.6,0.6
2025-06-28T2300,4268A,112.1722,30.3366,荆州市,学苑路85号,,18,14,29,12,12,46,,54,46,8,9,3,3,0.4,0.5
2025-06-28T2300,2342A,117.3102,29.3867,景德镇市,王港中学,,,,,,,,,,,,,,,,
2025-06-28T2300,2343A,117.2117,29.2933,景德镇市,老干部活动中心,,18,12,18,3,6,56,,72,62,5,10,5,7,0.3,0.4
2025-06-28T2300,2344A,117.1894,29.2789,景德镇市,兽医站,,18,12,23,3,8,57,,69,62,4,9,5,7,0.3,0.4
2025-06-28T2300,2345A,117.1547,29.2617,景德镇市,台达陶瓷,,18,15,25,8,13,57,,66,60,8,13,19,24,0.5,0.5
2025-06-28T2300,2346A,117.2461,29.2956,景德镇市,陶研所,,18,8,18,3,9,57,,74,64,3,4,4,4,0.3,0.3
2025-06-28T2300,1803A,115.9872,29.6815,九江市,十里,,28,19,12,19,10,64,,73,68,6,13,2,3,0.3,0.5
2025-06-28T2300,1804A,115.9584,29.7046,九江市,茅山头,,26,26,13,13,10,62,,75,69,5,12,3,4,0.2,0.3
2025-06-28T2300,1805A,115.9877,29.7295,九江市,西园,,23,23,13,11,6,68,,80,76,13,22,5,6,0.4,0.6
2025-06-28T2300,1808A,115.9114,29.6038,九江市,综合工业园,,20,20,14,3,6,64,,74,68,11,13,2,3,0.6,0.7
2025-06-28T2300,1809A,116.0721,29.7535,九江市,石化总厂,,42,,24,29,17,64,,82,81,5,12,7,8,0.3,0.4
2025-06-28T2300,1810A,115.9773,29.5698,九江市,庐山气象台,,19,15,5,6,3,59,,64,64,4,3,9,8,0.8,0.8
2025-06-28T2300,3190A,116.0254,29.6994,九江市,外国语学校,,22,,12,15,7,62,,76,75,6,12,4,5,0.5,0.6
2025-06-28T2300,4253A,116.0102,29.6594,九江市,莲花大道8号,,17,12,9,8,8,52,,60,58,2,4,4,4,0.4,0.5
2025-06-28T2300,4240A,98.4958,39.7339,酒泉市,玉门东路5号,,46,,115,32,33,107,,118,110,4,10,9,12,0.3,0.3
2025-06-28T2300,4241A,98.5099,39.7506,酒泉市,北大街108号,,37,22,114,18,30,118,,124,119,1,8,12,17,0.3,0.3
2025-06-28T2300,2698A,76.0072,39.4467,喀什地区,巡警大队,颗粒物(PM10),148,245,382,71,92,98,,120,117,23,19,3,3,0.4,0.4
2025-06-28T2300,2699A,75.9755,39.4694,喀什地区,吾办,颗粒物(PM10),150,249,353,94,132,98,,117,114,22,18,6,6,0.5,0.5
2025-06-28T2300,4027A,75.9483,39.4689,喀什地区,老干局,颗粒物(PM10),155,260,343,83,104,77,,116,110,26,12,5,6,0.4,0.3
2025-06-28T2300,1824A,114.3389,34.7781,开封市,肿瘤医院,,35,13,28,13,14,109,,128,125,10,12,3,2,0.3,0.3
2025-06-28T2300,1826A,114.2885,34.7965,开封市,世纪星幼儿园,,33,10,28,7,14,104,,128,123,11,12,3,3,0.5,0.5
2025-06-28T2300,3147A,114.3438,34.8106,开封市,龙亭公园,,34,20,28,11,19,106,,127,123,6,8,2,2,0.2,0.3
2025-06-28T2300,3210A,114.3644,34.7964,开封市,汴京公园,,,,37,6,15,111,,130,127,10,14,3,4,0.4,0.4
2025-06-28T2300,3473A,114.2485,34.8306,开封市,技师学院,,37,,28,12,15,116,,135,132,8,8,3,3,0.6,0.9
2025-06-28T2300,3592A,114.4644,34.7556,开封市,祥符区生态环境局,,25,17,26,6,15,80,,118,111,23,15,7,4,0.8,0.5
2025-06-28T2300,1951A,84.895,45.6094,克拉玛依市,长征新村,,29,20,20,3,4,91,,109,108,15,10,5,4,0.3,0.2
2025-06-28T2300,1952A,84.8988,45.5893,克拉玛依市,南林小区,,25,23,19,3,7,78,,111,108,19,11,2,3,0.2,0.1
2025-06-28T2300,1954A,84.905,44.3396,克拉玛依市,独山子区,,37,29,19,9,6,116,,126,126,11,9,8,10,0.3,0.3
2025-06-28T2300,1955A,85.6979,46.098,克拉玛依市,乌尔禾区商贸楼,,33,11,22,7,6,104,,118,116,2,7,4,4,0.3,0.4
2025-06-28T2300,3612A,85.1045,45.6899,克拉玛依市,白碱滩区新站,,33,18,13,9,19,104,,122,120,15,12,7,8,0.3,0.4
2025-06-28T2300,2697A,76.1454,39.7142,克孜勒苏柯尔克孜自治州,市人民政府,颗粒物(PM10),169,287,290,106,102,89,,128,122,21,11,3,6,0.3,0.2
2025-06-28T2300,3665A,76.1658,39.7157,克孜勒苏柯尔克孜自治州,克州文化中心,颗粒物(PM10),177,303,300,103,103,63,,126,117,13,8,4,6,0.2,0.4
2025-06-28T2300,1450A,102.8204,24.8886,昆明市,呈贡新区,,20,14,10,14,13,20,,79,68,32,11,9,7,0.4,0.3
2025-06-28T2300,1451A,102.6251,24.9608,昆明市,西山森林公园,,,,,,,,,,,,,,,,
2025-06-28T2300,1452A,102.7252,25.0902,昆明市,龙泉镇,,22,22,15,7,7,49,,90,81,12,11,1,2,0.4,0.4
2025-06-28T2300,1453A,102.7266,25.0375,昆明市,东风东路,,15,13,17,8,12,48,,87,79,14,16,4,4,0.4,0.3
2025-06-28T2300,1454A,102.6742,25.0669,昆明市,金鼎山,,15,9,18,3,8,45,,80,73,10,11,1,2,0.3,0.3
2025-06-28T2300,1455A,102.6644,25.0401,昆明市,碧鸡广场,,12,11,15,3,4,37,,75,68,19,14,5,5,0.4,0.4
2025-06-28T2300,3179A,102.7494,25.0119,昆明市,官渡区博物馆,,15,15,10,3,10,45,,86,78,12,16,6,6,0.4,0.4
2025-06-28T2300,3375A,102.8017,24.8336,昆明市,青年创业园,,14,14,13,7,9,33,,77,69,15,12,2,2,0.4,0.4
2025-06-28T2300,3550A,102.7997,24.9786,昆明市,昆明学院,,16,16,20,10,12,38,,82,74,18,16,7,5,0.3,0.3
2025-06-28T2300,3551A,102.5967,24.6736,昆明市,晋宁区生态环境分局,,,30,16,19,9,,,74,71,20,11,5,2,0.2,0.4
2025-06-28T2300,3552A,102.6678,24.9856,昆明市,云天化总部,,15,8,13,3,7,47,,78,73,6,11,3,4,0.5,0.6
2025-06-28T2300,1456A,91.1319,29.6514,拉萨市,八廓街,,41,21,17,9,8,130,,118,116,5,10,7,7,0.2,0.2
2025-06-28T2300,1457A,91.1221,29.6747,拉萨市,市环保局,,40,23,18,8,7,126,,121,113,15,11,8,7,0.3,0.3
2025-06-28T2300,1458A,91.0874,29.6475,拉萨市,区监测站,,42,13,16,9,6,133,,117,115,9,11,6,7,0.2,0.2
2025-06-28T2300,1459A,91.1774,29.6541,拉萨市,西藏大学,,41,18,15,7,6,129,,116,114,6,10,5,5,0.3,0.3
2025-06-28T2300,1460A,90.9798,29.6588,拉萨市,区辐射站,,33,27,18,11,8,104,,105,102,14,11,7,6,0.2,0.2
2025-06-28T2300,1461A,91.0834,29.6292,拉萨市,拉萨火车站,,42,14,13,8,6,134,,118,118,4,7,4,4,0.1,0.1
2025-06-28T2300,2520A,109.2203,23.7256,来宾市,来宾技工学校,,31,31,28,13,13,36,,78,63,15,12,52,13,0.6,0.6
2025-06-28T2300,3535A,109.1781,23.7297,来宾市,兴宾区政府,,20,20,20,8,12,27,,79,60,13,11,7,9,0.5,0.6
2025-06-28T2300,4002A,109.2416,23.7461,来宾市,中南小学,,27,27,23,15,13,24,,80,63,20,11,12,11,0.6,0.5
2025-06-28T2300,1477A,104.1373,35.9454,兰州市,榆中兰大校区,,,,,,,,,,,,,,,,
2025-06-28T2300,1479A,103.831,36.0464,兰州市,铁路设计院,,39,39,44,23,24,76,,162,132,48,42,7,14,0.5,0.7
2025-06-28T2300,3241A,103.7439,36.0842,兰州市,百合公园,,33,32,34,23,20,67,,144,123,39,35,4,7,0.3,0.5
2025-06-28T2300,3242A,103.9611,35.998,兰州市,和平,,34,34,34,20,13,94,,166,142,19,12,8,12,0.4,0.4
2025-06-28T2300,4236A,103.6293,36.0938,兰州市,庄浪东路808号,,40,40,36,24,20,57,,164,126,68,38,10,18,0.3,0.3
2025-06-28T2300,4237A,103.7251,36.1043,兰州市,安宁西路88号,,46,46,41,29,20,103,,179,158,20,22,6,12,0.3,0.4
2025-06-28T2300,4238A,103.8470,36.0676,兰州市,北滨河东路1号,,45,45,38,30,23,73,,171,141,52,43,7,11,0.6,0.7
2025-06-28T2300,3245A,103.6633,36.533,兰州新区,新区管委会,细颗粒物(PM2.5),52,42,31,36,22,121,,176,159,9,10,35,13,0.4,0.3
2025-06-28T2300,3246A,103.6975,36.4789,兰州新区,舟曲中学,,38,32,31,10,13,119,,164,150,17,16,7,13,0.3,0.4
2025-06-28T2300,1067A,116.6708,39.5111,廊坊市,药材公司,,33,30,48,18,27,104,,180,155,14,11,3,3,0.5,0.6
2025-06-28T2300,1068A,116.7214,39.5589,廊坊市,开发区,,34,30,44,20,28,108,,180,156,10,12,1,1,0.4,0.5
2025-06-28T2300,1070A,116.7244,39.5269,廊坊市,北华航天学院,,48,42,57,33,46,113,,172,148,8,5,1,1,0.5,0.5
2025-06-28T2300,2919A,116.7022,39.5453,廊坊市,河北工业大学,,41,41,51,16,25,127,,182,163,13,11,3,3,0.4,0.5
2025-06-28T2300,2535A,103.7723,29.5462,乐山市,花湖湾,,39,35,29,27,23,73,,146,134,37,18,2,2,0.6,0.6
2025-06-28T2300,2536A,103.7627,29.5844,乐山市,牛耳桥,,43,38,34,30,26,60,,154,124,42,24,7,7,1.1,0.9
2025-06-28T2300,2537A,103.7508,29.6006,乐山市,市第三水厂,,48,48,36,32,30,84,,150,128,33,26,4,5,0.8,0.7
2025-06-28T2300,2538A,103.7571,29.5664,乐山市,市监测站,,41,41,36,26,21,88,,135,120,14,12,6,6,0.9,0.8
2025-06-28T2300,3361A,103.7311,29.5628,乐山市,理工大学,,40,38,36,28,24,82,,159,135,25,18,7,7,0.8,0.7
2025-06-28T2300,2598A,100.2143,26.8576,丽江市,西南郊,,22,22,19,13,10,47,,100,81,22,10,6,6,0.7,0.6
2025-06-28T2300,2599A,100.2497,26.8802,丽江市,丽江古城,,31,31,21,19,10,43,,91,74,17,11,9,10,0.6,0.5
2025-06-28T2300,2600A,100.2203,26.8906,丽江市,市中心,,21,21,15,13,10,66,,103,83,11,13,7,7,0.7,0.6
2025-06-28T2300,1267A,119.914,28.4514,丽水市,监测站大楼,,9,9,17,3,6,23,,85,54,16,13,3,3,0.4,0.4
2025-06-28T2300,1268A,119.93,28.4586,丽水市,莲都小学,,15,15,18,6,9,25,,84,52,18,12,3,3,0.4,0.4
2025-06-28T2300,1269A,119.879,28.4231,丽水市,余庄前,,20,20,21,3,9,3,,95,36,11,9,3,3,0.4,0.4
2025-06-28T2300,1173A,119.176,34.5885,连云港市,市环境监测站,,16,14,24,9,25,49,,74,60,16,14,4,5,0.5,0.4
2025-06-28T2300,3000A,119.3581,34.6972,连云港市,德源药业,,17,17,25,3,15,39,,78,48,22,16,9,9,0.7,0.6
2025-06-28T2300,3007A,119.178,34.844,连云港市,新城一中,,17,17,28,10,13,29,,72,47,30,17,6,6,1.0,0.9
2025-06-28T2300,3008A,119.3608,34.7519,连云港市,胡沟管理处,,15,14,19,3,15,47,,103,32,25,19,7,7,1.0,0.9
2025-06-28T2300,3009A,119.1478,34.5911,连云港市,矿山设计院,,17,17,24,9,19,39,,68,52,11,8,4,4,0.7,0.6
2025-06-28T2300,3434A,119.2413,34.6539,连云港市,工贸学校,,23,12,38,9,18,72,,86,66,2,3,7,7,0.8,0.7
2025-06-28T2300,3664A,119.4172,34.7341,连云港市,连云街道,,25,22,17,14,11,80,,122,63,4,10,6,7,0.7,0.6
2025-06-28T2300,2571A,102.3431,27.8099,凉山彝族自治州,青龙寺,,24,24,17,7,8,40,,75,53,12,8,5,5,0.4,0.6
2025-06-28T2300,2572A,102.2721,27.8415,凉山彝族自治州,邛海宾馆,,28,28,21,16,12,46,,92,74,23,11,10,9,0.7,0.5
2025-06-28T2300,2573A,102.2625,27.898,凉山彝族自治州,西昌市政府,颗粒物(PM10),54,58,26,29,16,52,,95,76,10,12,11,13,0.5,0.6
2025-06-28T2300,2574A,102.2685,27.8851,凉山彝族自治州,凉山州政府,,35,35,21,24,15,47,,96,78,19,16,8,10,1.0,1
2025-06-28T2300,4229A,102.2342,27.8859,凉山彝族自治州,凯乐南路30号,,31,31,23,14,12,51,,91,69,17,17,10,13,0.8,0.9
2025-06-28T2300,2212A,123.2,41.1953,辽阳市,宏伟区,颗粒物(PM10),51,51,22,26,14,108,,68,66,3,6,3,3,0.8,0.8
2025-06-28T2300,2213A,123.1683,41.2495,辽阳市,新华园,细颗粒物(PM2.5),72,55,22,52,15,116,,80,77,3,8,3,5,0.5,0.4
2025-06-28T2300,2214A,123.2354,41.2639,辽阳市,滨河路,,46,46,25,30,11,91,,64,50,12,19,7,7,0.6,0.6
2025-06-28T2300,2215A,123.149,41.2991,辽阳市,铁西工业园,细颗粒物(PM2.5),63,,47,45,16,82,,65,65,7,13,3,3,0.8,0.9
2025-06-28T2300,2227A,125.1358,42.8845,辽源市,环保局,,24,20,36,3,17,76,,84,79,7,20,2,3,0.4,0.5
2025-06-28T2300,3239A,125.0764,42.9078,辽源市,银鹰制药,,19,12,27,7,21,59,,80,72,14,24,1,2,0.5,0.6
2025-06-28T2300,1625A,115.9848,36.4372,聊城市,区政府,,25,,30,3,21,77,,107,102,11,13,7,9,0.6,0.7
2025-06-28T2300,2878A,116.0072,36.4343,聊城市,聊大东校,,25,,31,6,24,77,,112,105,9,11,6,7,0.2,0.5
2025-06-28T2300,3200A,115.9819,36.4978,聊城市,监控中心,,26,6,25,3,17,82,,112,104,9,12,7,9,0.5,0.7
2025-06-28T2300,3513A,116.0445,36.4361,聊城市,九州社区,,25,9,38,3,20,78,,106,99,14,14,4,5,0.3,0.5
2025-06-28T2300,4018A,116.0567,36.4608,聊城市,星美广场,,27,14,40,6,18,86,,115,107,12,14,10,11,0.6,0.8
2025-06-28T2300,2632A,94.3681,29.6376,林芝市,林芝监测站,,21,10,21,3,6,65,,79,76,3,5,3,4,0.4,0.4
2025-06-28T2300,2633A,94.3616,29.6616,林芝市,林芝人民医院,,21,8,13,3,6,65,,82,78,1,2,5,5,0.3,0.3
2025-06-28T2300,2603A,100.0781,23.8982,临沧市,市环保局,,43,,16,30,14,20,,57,44,10,8,6,6,0.7,0.6
2025-06-28T2300,2604A,100.0894,23.8822,临沧市,市气象局,,26,25,15,18,10,18,,56,44,11,8,8,7,0.5,0.4
2025-06-28T2300,1733A,111.5531,36.0783,临汾市,临钢医院,,45,45,33,16,8,139,,184,169,22,16,5,6,0.7,0.7
2025-06-28T2300,1734A,111.5028,36.0714,临汾市,技工学校,颗粒物(PM10),58,66,29,34,16,141,,185,172,19,12,4,4,0.7,0.6
2025-06-28T2300,1736A,111.5018,36.0855,临汾市,市委,颗粒物(PM10),62,73,42,21,9,146,,190,179,22,15,4,4,0.9,0.8
2025-06-28T2300,3018A,111.505,36.1014,临汾市,唐尧大酒店,颗粒物(PM10),61,71,50,18,13,132,,180,164,18,13,3,4,0.7,0.6
2025-06-28T2300,4244A,111.4879,36.0530,临汾市,启星学校,颗粒物(PM10),57,64,33,39,21,145,,186,174,16,12,5,6,0.7,0.6
2025-06-28T2300,4271A,103.2464,35.6123,临夏回族自治州,滨河东路1号,,40,40,45,12,16,92,,129,119,8,9,4,4,0.2,0.3
2025-06-28T2300,4310A,103.2093,35.5995,临夏回族自治州,新华街21号,,33,,34,19,17,105,,142,134,6,10,7,7,0.2,0.3
2025-06-28T2300,1618A,118.3429,35.0532,临沂市,沂河小区,,17,17,30,8,23,54,,68,66,15,16,8,8,0.4,0.4
2025-06-28T2300,1619A,118.295,35.0583,临沂市,鲁南制药厂,,19,,28,10,19,58,,68,68,12,16,7,9,0.3,0.5
2025-06-28T2300,1620A,118.2794,34.9976,临沂市,新光毛纺厂,,18,,24,10,22,57,,70,69,13,16,8,9,0.4,0.5
2025-06-28T2300,1621A,118.3956,35.0888,临沂市,河东保险公司,,14,12,30,3,18,42,,67,,21,16,5,6,0.4,0.6
2025-06-28T2300,3370A,118.3564,35.0215,临沂市,十里堡居委,,17,,24,3,26,54,,74,70,17,18,8,9,0.4,0.6
2025-06-28T2300,3496A,118.3604,35.1084,临沂市,南坊新区,,17,17,30,3,17,48,,71,63,18,16,8,9,0.3,0.5
2025-06-28T2300,3860A,118.3920,35.0300,临沂市,皇山花园小区,,18,,28,12,27,47,,70,68,17,15,10,10,0.5,0.7
2025-06-28T2300,1870A,109.4856,24.3895,柳州市,柳东小学,,25,23,22,17,13,58,,82,71,9,12,4,8,0.5,0.5
2025-06-28T2300,1871A,109.4157,24.3277,柳州市,环保监测站,,18,18,24,3,15,40,,82,68,18,12,6,8,0.6,0.6
2025-06-28T2300,1872A,109.389,24.341,柳州市,河西水厂,,26,,23,18,13,52,,80,69,16,13,4,5,0.5,0.4
2025-06-28T2300,1873A,109.4311,24.2921,柳州市,市四中,,19,15,25,13,12,53,,86,76,15,17,6,7,0.5,0.5
2025-06-28T2300,1874A,109.4006,24.3631,柳州市,市九中,,34,34,27,21,12,49,,74,,17,14,2,3,0.7,0.7
2025-06-28T2300,1875A,109.4958,24.3134,柳州市,古亭山,,22,22,20,13,15,28,,80,61,14,12,4,4,0.5,0.5
2025-06-28T2300,3402A,109.5422,24.3996,柳州市,市二中,细颗粒物(PM2.5),64,,26,46,25,48,,89,74,12,17,5,7,0.5,0.4
2025-06-28T2300,2307A,116.5079,31.737,六安市,监测大楼,,13,,8,9,9,33,,47,41,6,5,4,4,0,0
2025-06-28T2300,2308A,116.4738,31.7643,六安市,皖西学院,,16,,9,11,9,41,,54,46,2,4,3,3,0.1,0.2
2025-06-28T2300,2309A,116.4996,31.7905,六安市,朝阳厂,,13,,9,9,9,34,,45,39,7,8,5,5,0.2,0.2
2025-06-28T2300,2310A,116.5567,31.7886,六安市,开发区,,12,10,6,8,8,33,,48,41,4,4,4,3,0.3,0.3
2025-06-28T2300,2576A,104.8,26.5892,六盘水市,窑上,,24,24,24,3,3,42,,56,52,4,4,3,3,0.3,0.3
2025-06-28T2300,2577A,104.83,26.5917,六盘水市,黄土坡,,16,,14,8,7,50,,60,57,6,10,8,9,0.4,0.4
2025-06-28T2300,2578A,104.89,26.5939,六盘水市,水钢,,32,,34,22,21,54,,64,61,8,13,14,14,0.4,0.5
2025-06-28T2300,2579A,104.8475,26.5894,六盘水市,民中,,16,15,15,9,5,51,,63,59,7,10,8,9,0.5,0.4
2025-06-28T2300,2580A,104.9544,26.5506,六盘水市,双水,,16,,8,3,7,49,,62,59,6,8,10,10,0.3,0.3
2025-06-28T2300,2335A,117.0189,25.1181,龙岩市,龙岩师专,,,,,,,,,,,,,,,,
2025-06-28T2300,2336A,117.0217,25.1033,龙岩市,龙岩市监测站,,18,15,19,12,9,26,,56,33,24,16,12,9,0.4,0.4
2025-06-28T2300,2337A,117.0258,25.0661,龙岩市,闽西职业技术学院,,30,30,24,14,10,13,,49,20,20,13,15,19,0.5,0.5
2025-06-28T2300,2338A,117.0196,25.0306,龙岩市,龙岩学院,,16,,15,11,7,26,,50,32,8,5,4,5,0.7,0.6
2025-06-28T2300,2665A,105.0822,33.3261,陇南市,汉王镇固水子,,,,,,,,,,,,,,,,
2025-06-28T2300,2885A,104.9339,33.3826,陇南市,滨江中学,,47,47,37,26,13,84,,104,101,6,6,5,5,0.4,0.3
2025-06-28T2300,3247A,104.955,33.371,陇南市,市总工会,,50,50,44,12,11,101,,115,114,4,4,6,7,0.7,0.7
2025-06-28T2300,2487A,111.9589,27.8901,娄底市,电视发射台,,5,,30,3,10,16,,44,29,6,8,6,6,0.3,0.5
2025-06-28T2300,2488A,111.9975,27.725,娄底市,市监测站,细颗粒物(PM2.5),90,,17,67,20,21,,49,49,37,16,10,11,0.9,0.7
2025-06-28T2300,2489A,112.0194,27.7314,娄底市,市委党校,,14,14,18,8,11,44,,68,60,10,9,5,7,0.4,0.4
2025-06-28T2300,2490A,111.9561,27.7569,娄底市,涟钢,,22,22,30,3,12,37,,53,42,16,17,5,6,0.9,1
2025-06-28T2300,2491A,111.9892,27.7044,娄底市,市政府,,10,8,19,6,10,32,,64,56,11,6,6,6,0.6,0.4
2025-06-28T2300,1893A,105.4324,28.9634,泸州市,九狮山,,50,,32,35,28,34,,126,87,31,20,5,5,0.4,0.3
2025-06-28T2300,1894A,105.4427,28.9063,泸州市,小市上码头,,42,42,29,29,15,74,,133,107,16,15,2,3,0.3,0.3
2025-06-28T2300,1895A,105.4241,28.8573,泸州市,兰田宪桥,,35,34,31,24,18,65,,134,104,22,17,7,8,0.7,0.7
2025-06-28T2300,1896A,105.4379,28.8833,泸州市,市环监站,,45,41,28,31,19,74,,119,96,20,19,3,3,0.6,0.6
2025-06-28T2300,4272A,105.3689,28.7783,泸州市,纳溪中医医院,细颗粒物(PM2.5),60,52,35,43,25,23,,128,96,54,21,5,4,0.6,0.5
2025-06-28T2300,2183A,111.1406,37.5211,吕梁市,环保局,颗粒物(PM10),68,85,31,15,13,68,,153,125,39,25,4,5,0.5,0.5
2025-06-28T2300,2185A,111.1297,37.5136,吕梁市,自来水公司,,42,42,27,14,13,72,,139,117,18,22,2,2,0.5,0.5
2025-06-28T2300,2867A,111.1283,37.51,吕梁市,马茂庄小学,颗粒物(PM10),60,69,34,18,14,44,,145,114,45,33,4,3,0.5,0.4
2025-06-28T2300,1812A,112.3931,34.6516,洛阳市,市委党校,,49,49,27,16,15,76,,120,104,18,12,6,6,0.6,0.6
2025-06-28T2300,1815A,112.494,34.6886,洛阳市,河南林校,颗粒物(PM10),53,55,38,20,18,93,,140,118,17,16,7,9,0.6,0.6
2025-06-28T2300,1816A,112.3844,34.623,洛阳市,开发区管委会,,37,37,26,15,13,83,,128,106,16,12,10,11,0.6,0.5
2025-06-28T2300,1817A,112.4267,34.6258,洛阳市,市委新办公区,,46,46,28,19,17,80,,125,106,17,14,9,11,0.6,0.6
2025-06-28T2300,3340A,112.6005,34.6326,洛阳市,伊滨,,48,48,38,22,18,86,,134,107,14,17,5,6,0.5,0.5
2025-06-28T2300,3341A,112.4951,34.6332,洛阳市,中移产业园,,45,45,31,26,18,85,,132,112,15,13,7,9,0.9,0.8
2025-06-28T2300,3593A,112.5736,34.8993,洛阳市,吉利监测站,,49,36,43,34,22,113,,148,132,8,11,7,7,0.6,0.5
2025-06-28T2300,3635A,112.3677,34.662,洛阳市,河科大西苑校区,,49,49,27,15,11,88,,132,112,16,11,8,10,0.7,0.6
2025-06-28T2300,3636A,112.4388,34.6781,洛阳市,英才小学,,43,43,32,20,19,74,,125,104,15,13,8,10,0.8,0.8
2025-06-28T2300,4214A,112.4600,34.6949,洛阳市,春都路1号院,,47,47,33,14,14,83,,130,109,14,14,2,5,0.6,0.7
2025-06-28T2300,2399A,114.051,33.5699,漯河市,三五一五工厂,,26,26,22,16,13,36,,106,81,26,15,4,4,0.5,0.6
2025-06-28T2300,2400A,114.0055,33.5698,漯河市,漯河大学,,28,28,24,9,10,51,,106,84,20,16,4,4,0.3,0.4
2025-06-28T2300,2401A,114.0138,33.5828,漯河市,市水利局,,15,7,21,7,11,48,,102,81,15,12,3,3,0.5,0.6
2025-06-28T2300,2402A,114.0261,33.5698,漯河市,市广电局,,29,20,17,20,15,30,,105,79,28,13,2,2,0.5,0.5
2025-06-28T2300,3478A,113.9749,33.5664,漯河市,市图书馆,,18,16,25,12,15,55,,100,80,11,13,2,2,0.3,0.3
2025-06-28T2300,4250A,114.0892,33.5882,漯河市,韶山路11号,,25,25,23,13,11,46,,107,85,18,14,2,2,0.6,0.6
2025-06-28T2300,1798A,118.5092,31.6837,马鞍山市,湖东路四小,,17,,19,3,7,54,,114,98,3,8,7,8,0.3,0.6
2025-06-28T2300,1799A,118.5024,31.6449,马鞍山市,开发区,,17,9,21,3,8,53,,118,98,5,13,6,7,0.6,0.8
2025-06-28T2300,1802A,118.6245,31.7241,马鞍山市,濮塘,,17,9,14,8,9,54,,112,98,1,3,8,9,0.6,0.8
2025-06-28T2300,3633A,118.4918,31.6809,马鞍山市,雨山,,16,,14,3,7,50,,107,90,6,10,6,6,0.4,0.7
2025-06-28T2300,4191A,118.5274,31.72227,马鞍山市,慈湖高新区,,16,7,16,3,9,50,,112,98,10,14,6,7,0.2,0.5
2025-06-28T2300,1686A,111.0286,21.4688,茂名市,电白南海,,20,17,17,14,13,42,,43,42,7,8,2,2,0.3,0.4
2025-06-28T2300,1687A,110.9294,21.6533,茂名市,茂石化七小,,27,27,19,9,7,34,,49,42,8,6,3,4,0.4,0.4
2025-06-28T2300,1688A,110.9107,21.6687,茂名市,健康路,,22,22,12,12,6,43,,57,49,9,8,3,4,0.4,0.3
2025-06-28T2300,1689A,110.8592,21.6828,茂名市,高岭,,29,29,23,3,4,43,,50,44,9,10,5,6,0.4,0.4
2025-06-28T2300,3450A,111.01,21.5165,茂名市,电白水东,,18,9,13,3,7,56,,52,52,6,8,4,6,0.3,0.4
2025-06-28T2300,2539A,104.0308,30.0478,眉山市,黑龙滩水库,,48,,18,33,28,65,,125,108,15,16,2,3,0.7,0.7
2025-06-28T2300,2540A,103.8416,30.0874,眉山市,气象局,,48,48,43,29,27,72,,170,135,32,36,3,3,0.7,0.6
2025-06-28T2300,3137A,103.8578,30.0744,眉山市,市委党校,,42,36,36,29,22,88,,149,130,20,33,6,6,0.6,0.6
2025-06-28T2300,3148A,103.8291,30.0564,眉山市,区人社局,颗粒物(PM10),57,64,57,29,22,81,,161,137,27,44,18,11,1.0,0.8
2025-06-28T2300,1690A,116.1231,24.3284,梅州市,梅江月梅,,12,11,21,3,12,37,,80,64,9,9,8,7,0.5,0.5
2025-06-28T2300,1691A,116.0797,24.2719,梅州市,梅县新城,,18,18,19,3,9,29,,76,67,24,9,6,7,0.6,0.5
2025-06-28T2300,1692A,116.1248,24.2654,梅州市,环境监控中心,,17,17,22,3,12,26,,74,57,27,16,2,3,0.5,0.6
2025-06-28T2300,3315A,116.1233,24.2991,梅州市,梅龙,,24,24,20,10,9,31,,73,59,14,10,8,7,0.6,0.6
2025-06-28T2300,1878A,104.7778,31.4741,绵阳市,富乐山,,35,33,37,24,26,79,,144,119,26,16,8,8,0.7,0.6
2025-06-28T2300,1880A,104.6697,31.4668,绵阳市,高新区自来水公司,颗粒物(PM10),56,62,47,34,23,86,,135,118,29,28,9,8,0.6,0.5
2025-06-28T2300,1881A,104.7287,31.5075,绵阳市,三水厂,,41,41,45,28,29,39,,149,116,61,31,9,9,0.8,0.7
2025-06-28T2300,3491A,104.69,31.5322,绵阳市,西科大附属小学,颗粒物(PM10),56,62,51,37,29,53,,155,115,59,33,8,8,0.2,0.2
2025-06-28T2300,3492A,104.5648,31.5343,绵阳市,安州区旅游局,颗粒物(PM10),54,57,42,31,27,67,,156,132,36,16,9,7,0.7,0.5
2025-06-28T2300,4226A,104.7651,31.4531,绵阳市,绵阳市气象局,,49,49,39,28,25,84,,122,111,27,19,6,7,0.7,0.6
2025-06-28T2300,1784A,129.61,44.561,牡丹江市,环保大楼,,23,,34,13,20,72,,144,93,18,19,1,1,0.3,0.4
2025-06-28T2300,1785A,129.6115,44.5782,牡丹江市,文化广场,,36,,32,25,25,74,,140,91,20,25,3,4,0.4,0.5
2025-06-28T2300,1786A,129.5904,44.5963,牡丹江市,第一医院,,30,21,27,21,16,69,,143,92,18,23,5,5,0.4,0.4
2025-06-28T2300,1787A,129.6364,44.6075,牡丹江市,机车工厂,,35,35,49,13,13,61,,135,65,18,19,4,5,0.4,0.5
2025-06-28T2300,1788A,129.6386,44.5462,牡丹江市,第一中学,,32,32,29,13,16,43,,135,80,23,20,4,4,0.5,0.5
2025-06-28T2300,2531A,105.0703,29.61,内江市,市监测站,,39,39,26,22,22,84,,152,119,31,26,6,6,0.7,0.7
2025-06-28T2300,2532A,105.0717,29.5947,内江市,东兴区政府,,35,33,18,24,14,70,,143,115,36,18,3,3,0.6,0.5
2025-06-28T2300,2533A,105.0653,29.5817,内江市,内江二中,,38,,23,26,23,89,,138,118,21,19,8,8,0.6,0.6
2025-06-28T2300,2534A,105.0406,29.5822,内江市,内江日报社,,38,38,20,23,22,74,,143,111,43,34,18,21,0.5,0.6
2025-06-28T2300,2628A,92.0657,31.4846,那曲市,那曲监测站,,27,16,30,16,13,86,,109,102,20,14,20,8,0.5,0.4
2025-06-28T2300,4243A,92.0515,31.4787,那曲市,那曲市委宣传部,,32,10,23,7,11,102,,117,110,11,12,8,8,0.3,0.3
2025-06-28T2300,1290A,115.8931,28.6843,南昌市,省外办,,18,7,16,3,12,56,,72,69,4,11,3,3,0.4,0.5
2025-06-28T2300,1291A,115.8886,28.7003,南昌市,省林业公司,,20,,15,7,9,63,,83,77,3,12,8,10,0.5,0.6
2025-06-28T2300,1292A,115.8126,28.7442,南昌市,林科所,,,2,11,,4,54,,75,65,7,12,4,6,0.3,0.3
2025-06-28T2300,1294A,115.8518,28.687,南昌市,建工学校,,,29,17,23,9,54,,80,74,,6,6,8,0.3,0.4
2025-06-28T2300,1295A,115.8921,28.6424,南昌市,象湖,,22,22,17,3,9,55,,77,73,7,11,6,8,0.4,0.5
2025-06-28T2300,1296A,115.7423,28.7996,南昌市,武术学校,,15,14,19,8,10,48,,59,49,2,3,8,9,0.4,0.5
2025-06-28T2300,3046A,115.9084,28.6062,南昌市,机电学校,,19,12,23,3,8,58,,76,70,5,11,3,5,0.4,0.6
2025-06-28T2300,3690A,115.9721,28.7031,南昌市,外国语学校,,20,15,20,14,9,54,,71,66,4,11,9,11,0.6,0.7
2025-06-28T2300,4192A,115.9316,28.68677,南昌市,南京东路235号,,38,38,29,3,7,56,,74,70,7,13,3,5,0.4,0.5
2025-06-28T2300,1905A,106.056,30.8064,南充市,西山风景区,,,,,,,,,,,,,,,,
2025-06-28T2300,1906A,106.0789,30.8023,南充市,南充市委,,45,38,36,31,25,51,,149,121,37,18,5,5,0.6,0.4
2025-06-28T2300,1907A,106.1031,30.8217,南充市,南充炼油厂,,33,31,32,23,21,91,,138,117,13,17,5,6,0.3,0.3
2025-06-28T2300,4227A,106.1083,30.7884,南充市,梨树横街98号,,30,30,35,11,20,85,,140,119,21,18,4,3,0.4,0.4
2025-06-28T2300,4304A,106.1172,30.843,南充市,清泉寺北路188号,细颗粒物(PM2.5),54,52,36,38,18,80,,129,120,15,15,3,3,0.4,0.4
2025-06-28T2300,4305A,106.067,30.7616,南充市,同庆路1号,,35,25,34,24,18,87,,147,125,15,22,3,4,0.3,0.4
2025-06-28T2300,1151A,118.8086,32.1065,南京市,迈皋桥,,13,10,10,3,7,39,,86,82,7,7,4,4,0.7,0.9
2025-06-28T2300,1152A,118.7538,32.0551,南京市,草场门,,15,9,12,7,7,45,,105,99,5,12,6,8,0,0.2
2025-06-28T2300,1153A,118.7794,32.0745,南京市,山西路,,15,9,16,3,3,46,,112,105,2,10,4,6,0.1,0.5
2025-06-28T2300,1154A,118.7752,32.0023,南京市,中华门,,11,7,10,3,6,35,,95,87,5,11,8,10,0.3,0.7
2025-06-28T2300,1155A,118.8109,32.0309,南京市,瑞金路,,14,6,9,3,6,44,,103,95,2,12,7,6,0.5,0.4
2025-06-28T2300,1156A,118.7997,32.0754,南京市,玄武湖,,,11,15,,0,42,,95,90,10,11,4,4,0.2,0.5
2025-06-28T2300,1157A,118.6414,32.0931,南京市,浦口,,21,21,15,3,5,38,,86,83,12,13,3,3,0.2,0.3
2025-06-28T2300,1158A,118.7356,31.9996,南京市,奥体中心,,15,10,14,3,8,46,,109,102,6,15,4,7,0.1,0.5
2025-06-28T2300,1159A,118.9125,32.1028,南京市,仙林大学城,,15,12,17,3,2,46,,103,95,4,9,6,7,0.5,0.6
2025-06-28T2300,3422A,118.8436,31.9198,南京市,江宁彩虹桥,,12,11,13,3,7,36,,99,85,10,12,3,4,0.4,0.6
2025-06-28T2300,3427A,118.8554,32.3578,南京市,六合雄州,,17,16,12,3,7,54,,97,94,20,23,4,5,0.6,0.8
2025-06-28T2300,4249A,118.8708,31.3402,南京市,汶溪路181号,,16,10,11,3,7,50,,93,73,10,14,5,5,0.3,0.4
2025-06-28T2300,4312A,119.019,31.6512,南京市,中山西路1号,,15,,9,8,8,46,,82,71,3,8,4,4,0.5,0.6
2025-06-28T2300,1401A,108.3103,22.7881,南宁市,二十一中,,22,22,21,10,10,51,,56,44,9,7,6,5,0.5,0.8
2025-06-28T2300,1402A,108.3141,22.8528,南宁市,北湖,,24,24,21,14,11,61,,61,51,11,12,4,5,0.5,0.5
2025-06-28T2300,1403A,108.3206,22.8225,南宁市,市监测站,,27,27,21,11,9,55,,56,46,10,10,8,7,0.5,0.5
2025-06-28T2300,1404A,108.3829,22.8037,南宁市,大自然花园,,21,15,18,11,11,67,,63,62,7,6,5,5,0.4,0.4
2025-06-28T2300,1405A,108.4394,22.7904,南宁市,仙葫,,20,,16,14,11,57,,64,62,12,8,9,9,0.5,0.5
2025-06-28T2300,1406A,108.2397,22.8467,南宁市,区农职院,,30,30,20,10,11,8,,68,45,34,14,10,3,0.6,0.5
2025-06-28T2300,1407A,108.3275,22.735,南宁市,英华嘉园,,23,23,18,9,12,47,,65,55,20,11,9,7,0.4,0.4
2025-06-28T2300,3401A,108.4834,22.7618,南宁市,红星社区,,24,24,18,16,13,38,,59,52,11,6,2,2,0.5,0.5
2025-06-28T2300,4221A,108.2177,22.7774,南宁市,乐贤路16号,,20,20,24,7,12,34,,65,54,20,17,6,6,0.5,0.6
2025-06-28T2300,2331A,118.0966,26.6761,南平市,茫荡山,,,,,,,,,,,,,,,,
2025-06-28T2300,2332A,118.1681,26.6369,南平市,南平市监测站,,10,8,13,3,10,30,,84,56,12,8,4,5,0.3,0.4
2025-06-28T2300,2333A,118.1825,26.6489,南平市,南平铝业有限公司,,19,19,20,3,9,22,,85,51,15,10,4,4,0.4,0.5
2025-06-28T2300,2334A,118.1756,26.6272,南平市,南平七中,,13,13,16,6,10,32,,87,55,9,7,4,5,0.3,0.4
2025-06-28T2300,1168A,120.9098,31.9663,南通市,狼山街道,,23,7,26,3,13,71,,133,118,14,23,4,6,0.6,0.8
2025-06-28T2300,1169A,120.86,32.0005,南通市,虹桥,,26,9,27,6,20,81,,125,119,19,28,2,6,0.7,1
2025-06-28T2300,1170A,120.87,32.02,南通市,城中,,25,13,31,3,15,80,,122,112,10,23,4,4,0.4,0.7
2025-06-28T2300,1171A,120.94,31.93,南通市,星湖花园,,25,,26,7,18,79,,126,119,12,30,2,5,0.5,0.7
2025-06-28T2300,1172A,120.81,32.0417,南通市,紫琅学院,,22,14,30,3,11,70,,126,104,20,32,6,7,1.0,0.8
2025-06-28T2300,3291A,121.067,32.062,南通市,通州监测站,,30,7,24,3,15,94,,156,131,10,17,7,7,0.6,0.8
2025-06-28T2300,3432A,120.9348,31.9883,南通市,环境教育馆,,29,9,31,3,12,92,,147,127,10,23,3,5,0.2,0.4
2025-06-28T2300,2404A,112.5224,33.0122,南阳市,瓦房庄,,25,25,30,9,13,57,,105,87,10,10,6,6,0.4,0.5
2025-06-28T2300,2405A,112.5003,32.9735,南阳市,汉画馆,,21,21,26,8,13,51,,96,80,14,11,5,5,0.4,0.5
2025-06-28T2300,2406A,112.5573,33.027,南阳市,气象站,,16,15,23,7,14,50,,103,86,18,10,6,6,0.4,0.5
2025-06-28T2300,2407A,112.5481,32.9689,南阳市,理工学院,,23,23,27,12,16,50,,92,76,12,13,5,5,0.3,0.4
2025-06-28T2300,4008A,112.5234,32.9922,南阳市,卧龙区政府,,17,14,24,11,16,53,,104,85,11,9,4,4,0.5,0.6
2025-06-28T2300,1234A,121.8358,29.911,宁波市,区环保大楼,,26,26,33,14,15,55,,103,69,34,18,5,4,0.5,0.5
2025-06-28T2300,1235A,121.56,29.82,宁波市,万里学院,,19,19,24,12,14,60,,107,86,15,17,2,3,0.4,0.4
2025-06-28T2300,1236A,121.713,29.9572,宁波市,龙赛医院,,19,19,28,9,12,58,,117,88,24,19,2,4,0.4,0.4
2025-06-28T2300,1239A,121.633,29.7733,宁波市,钱湖水厂,,17,17,21,11,13,50,,108,79,16,5,4,4,0.3,0.3
2025-06-28T2300,1240A,121.5856,29.8635,宁波市,太古小学,,21,18,26,12,15,65,,114,89,9,12,4,4,0.2,0.3
2025-06-28T2300,1241A,121.524,29.8674,宁波市,市环境监测中心,,25,18,23,17,9,58,,104,84,13,17,4,5,0.4,0.4
2025-06-28T2300,2871A,121.6147,29.9017,宁波市,万里国际学校,,21,21,22,10,13,49,,118,84,24,12,3,3,0.5,0.6
2025-06-28T2300,3710A,121.5594,29.8975,宁波市,白沙活动中心,,24,24,22,7,9,66,,113,95,10,12,3,4,0.3,0.3
2025-06-28T2300,2339A,119.5001,26.6946,宁德市,金涵水库,,,,,,,,,,,,,,,,
2025-06-28T2300,2341A,119.5388,26.6612,宁德市,宁德市监测站,,19,,19,13,11,60,,136,98,6,8,4,4,0.6,0.6
2025-06-28T2300,3209A,119.5231,26.6562,宁德市,宁德一中,,17,15,19,8,7,52,,139,96,5,4,4,5,0.2,0.3
2025-06-28T2300,2618A,98.8601,25.8567,怒江傈僳族自治州,州监测站,,20,18,18,14,13,54,,71,69,7,7,8,8,0.4,0.4
2025-06-28T2300,2619A,98.8546,25.8417,怒江傈僳族自治州,泸水一中,,11,11,18,3,10,27,,53,44,14,11,5,6,0.4,0.4
2025-06-28T2300,1888A,101.6891,26.571,攀枝花市,弄弄坪,,35,35,52,15,18,48,,104,80,20,22,12,29,0.7,0.9
2025-06-28T2300,1889A,101.5769,26.5928,攀枝花市,河门口,,30,30,33,17,18,51,,113,86,15,14,6,11,0.7,0.9
2025-06-28T2300,1890A,101.7169,26.585,攀枝花市,炳草岗,颗粒物(PM10),64,77,54,30,24,10,,99,76,70,27,14,44,0.7,0.9
2025-06-28T2300,1891A,101.7369,26.5008,攀枝花市,仁和,,31,31,22,17,12,42,,83,71,15,10,8,9,0.6,0.5
2025-06-28T2300,2835A,101.7227,26.567,攀枝花市,四十中小,,42,42,40,24,22,56,,111,88,36,21,38,64,0.9,0.8
2025-06-28T2300,1604A,122.0303,41.1489,盘锦市,开发区,细颗粒物(PM2.5),57,,25,40,24,97,,103,103,12,18,5,6,0.7,0.8
2025-06-28T2300,1605A,122.0485,41.0883,盘锦市,兴隆台,,27,,20,18,15,86,,101,101,23,20,2,2,0.5,0.6
2025-06-28T2300,1606A,121.8297,41.1028,盘锦市,新生街道,,43,,19,30,16,76,,110,106,13,13,6,6,0.7,0.7
2025-06-28T2300,1832A,113.3257,33.742,平顶山市,新华旅馆,,25,17,15,17,14,54,,113,98,16,11,3,4,0.4,0.5
2025-06-28T2300,1833A,113.2919,33.737,平顶山市,规划设计院,,41,41,23,14,14,51,,108,93,18,12,4,4,0.7,0.8
2025-06-28T2300,1834A,113.182,33.774,平顶山市,平顶山工学院,,20,11,24,9,12,63,,116,102,12,9,5,5,0.4,0.5
2025-06-28T2300,3204A,113.3025,33.73,平顶山市,规划局,,18,17,20,8,10,56,,117,100,18,12,2,3,0.3,0.4
2025-06-28T2300,3594A,112.8867,33.9116,平顶山市,石龙区,,30,30,23,13,13,76,,116,105,16,18,6,6,0.5,0.5
2025-06-28T2300,2656A,106.6692,35.5461,平凉市,聚贤嘉苑,,49,49,37,18,10,31,,105,84,46,25,13,12,0.8,0.7
2025-06-28T2300,2657A,106.7021,35.5307,平凉市,博物馆,颗粒物(PM10),58,66,43,9,7,28,,118,96,57,21,9,9,1.1,0.8
2025-06-28T2300,2347A,114.0997,27.5002,萍乡市,武功山,,6,,4,3,4,13,,40,26,3,3,12,12,0.3,0.3
2025-06-28T2300,2348A,113.8385,27.6434,萍乡市,中医院,,23,19,17,16,8,31,,64,39,7,6,11,12,0.6,0.7
2025-06-28T2300,2349A,113.8493,27.6253,萍乡市,市政府车库,,30,15,18,14,13,20,,57,30,11,8,15,11,3.0,2
2025-06-28T2300,2350A,113.8676,27.6435,萍乡市,市环保局,,16,16,17,6,10,25,,60,34,11,5,14,10,0.6,0.8
2025-06-28T2300,2351A,113.866,27.6198,萍乡市,安源区政府,,15,15,26,7,11,26,,66,37,13,10,10,9,1.0,1.6
2025-06-28T2300,2319A,119.0141,25.4325,莆田市,荔城区仓后路,,29,29,26,13,10,40,,98,66,13,10,5,5,0.6,0.5
2025-06-28T2300,2320A,119.0015,25.4553,莆田市,莆田市监测站,,29,29,26,3,8,42,,100,72,12,10,4,4,0.5,0.4
2025-06-28T2300,2321A,119.1119,25.4561,莆田市,涵江区六中,,28,28,27,12,7,37,,106,66,20,14,5,3,0.3,0.7
2025-06-28T2300,2322A,119.1013,25.3215,莆田市,秀屿区政府,,28,28,19,6,6,36,,95,62,19,12,20,6,0.4,0.4
2025-06-28T2300,2323A,118.981,25.4792,莆田市,东圳水库,,,,,,,,,,,,,,,,
2025-06-28T2300,2392A,115.0312,35.7636,濮阳市,环保局,,27,10,22,9,15,84,,121,112,12,11,4,4,0.2,0.3
2025-06-28T2300,2394A,115.0574,35.7609,濮阳市,油田运输公司,,25,18,29,6,14,79,,116,106,12,12,5,5,0.5,0.6
2025-06-28T2300,3021A,115,35.7668,濮阳市,濮水河管理处,,24,11,21,9,17,76,,109,100,16,15,2,3,0.3,0.4
2025-06-28T2300,4216A,115.0924,35.7686,濮阳市,任丘路479号,,24,23,34,8,17,75,,111,102,10,9,6,6,0.5,0.5
2025-06-28T2300,2601A,100.98,22.7633,普洱市,市环保局,,22,22,22,14,10,22,,32,29,4,4,4,4,0.6,0.6
2025-06-28T2300,2602A,100.9817,22.8322,普洱市,普洱第二中学,,29,28,23,20,9,14,,34,28,10,6,6,6,0.5,0.4
2025-06-28T2300,2262A,131.0518,45.8751,七台河市,新一中,细颗粒物(PM2.5),63,52,42,45,28,28,,143,90,32,18,10,10,0.9,0.9
2025-06-28T2300,3345A,131.0577,45.7879,七台河市,中波台,颗粒物(PM10),61,72,41,3,6,40,,100,63,39,28,8,9,0.3,0.3
2025-06-28T2300,3637A,131.0176,45.7761,七台河市,人民广场,颗粒物(PM10),56,61,53,28,29,44,,107,72,27,21,12,13,0.7,0.6
2025-06-28T2300,3684A,130.8781,45.8222,七台河市,新建矿广场,,44,44,52,23,19,41,,125,74,37,28,12,10,0.4,0.5
2025-06-28T2300,1779A,123.9305,47.3636,齐齐哈尔市,安居小区,,31,31,34,8,13,82,,113,98,20,17,23,35,0.6,0.6
2025-06-28T2300,1780A,123.9488,47.3386,齐齐哈尔市,中心广场,,31,30,42,12,12,98,,126,107,16,13,7,8,0.5,0.6
2025-06-28T2300,1781A,123.9483,47.3227,齐齐哈尔市,农牧车辆厂,,36,36,36,10,16,92,,119,103,14,12,6,6,0.1,0.2
2025-06-28T2300,1783A,123.945,47.2988,齐齐哈尔市,市环境监测站,,28,21,29,15,18,88,,125,109,14,10,4,4,0.3,0.3
2025-06-28T2300,3662A,123.6333,47.2075,齐齐哈尔市,富区青少年活动中心,,48,48,38,24,22,104,,124,123,14,14,10,21,0.5,0.8
2025-06-28T2300,2591A,107.9783,26.5747,黔东南苗族侗族自治州,市环境监测站,,13,,6,6,6,40,,50,48,6,7,3,3,0.5,0.5
2025-06-28T2300,2881A,107.8908,26.5311,黔东南苗族侗族自治州,凯里学院,,14,9,3,6,5,44,,61,59,8,8,4,3,0.3,0.2
2025-06-28T2300,2593A,107.5228,26.2403,黔南布依族苗族自治州,小围寨,,10,6,2,3,1,32,,41,40,3,3,2,2,0.4,0.4
2025-06-28T2300,3538A,107.5175,26.2978,黔南布依族苗族自治州,沙坝,,9,9,5,3,0,22,,38,33,4,4,3,4,0.6,0.5
2025-06-28T2300,2589A,104.9022,25.0925,黔西南布依族苗族自治州,场坝街,,15,10,13,3,6,47,,52,50,4,4,3,4,0.3,0.3
2025-06-28T2300,2590A,104.8811,25.0992,黔西南布依族苗族自治州,坪东大道,,22,19,12,15,7,42,,46,46,7,8,1,1,0.1,0.1
2025-06-28T2300,2502A,108.6236,21.9667,钦州市,市环保站,,36,36,16,12,5,40,,68,62,22,11,4,2,0.5,0.4
2025-06-28T2300,2503A,108.6549,21.9481,钦州市,沙埠小学,,22,22,22,10,12,36,,65,58,19,14,3,3,0.4,0.4
2025-06-28T2300,2504A,108.5989,21.7431,钦州市,港区一小,,23,23,27,13,12,51,,62,62,15,17,2,2,0.5,0.5
2025-06-28T2300,3404A,108.5959,21.9633,钦州市,北职校,,30,30,18,16,9,30,,64,57,24,11,3,3,0.4,0.4
2025-06-28T2300,1043A,119.7493,40.0116,秦皇岛市,第一关,,48,40,19,33,11,103,,109,109,4,11,4,4,0.6,0.3
2025-06-28T2300,1044A,119.5897,39.9499,秦皇岛市,监测站,,44,44,29,20,8,111,,110,110,2,11,2,2,0.5,0.4
2025-06-28T2300,1046A,119.5251,39.9041,秦皇岛市,建设大厦,,41,41,20,15,8,111,,113,112,1,11,3,3,0.6,0.4
2025-06-28T2300,3132A,119.610547,39.943889,秦皇岛市,文明里,,45,36,23,31,15,126,,119,119,2,6,4,4,0.4,0.3
2025-06-28T2300,4198A,119.5090,39.8253,秦皇岛市,北戴河轮滑馆,,,75,23,,15,148,,113,113,7,6,2,2,0.5,0.4
2025-06-28T2300,1307A,120.6659,36.2403,青岛市,仰口,,18,15,32,12,22,55,,109,90,7,9,7,7,0.6,0.8
2025-06-28T2300,1310A,120.4134,36.0658,青岛市,市南区东部子站,,29,19,27,12,20,92,,110,109,2,5,8,9,0.3,0.4
2025-06-28T2300,1311A,120.3664,36.1032,青岛市,四方区子站,,32,27,36,22,28,97,,140,116,4,14,5,8,0.2,0.5
2025-06-28T2300,1312A,120.2994,36.054,青岛市,市南区西部子站,,29,19,33,17,24,91,,112,111,5,18,8,8,0.6,0.7
2025-06-28T2300,1313A,120.4581,36.0858,青岛市,崂山区子站,,28,19,30,12,22,89,,102,101,7,16,7,7,0.3,0.3
2025-06-28T2300,1315A,120.3999,36.3083,青岛市,城阳区子站,,32,14,32,12,19,100,,154,103,8,19,5,6,0.4,0.6
2025-06-28T2300,1966A,120.0405,35.8735,青岛市,黄岛区4号,,27,12,34,3,23,84,,123,114,8,16,9,10,0.6,0.8
2025-06-28T2300,3362A,120.5014,36.4034,青岛市,即墨2号,,29,19,38,7,18,90,,159,117,10,15,2,3,0.3,0.4
2025-06-28T2300,3642A,120.3503,36.0736,青岛市,市北区南部,,27,,28,14,27,86,,114,106,7,15,7,8,0.4,0.5
2025-06-28T2300,3643A,120.3948,36.1805,青岛市,李沧区北部,,28,22,30,19,25,79,,118,88,2,12,4,5,0.6,0.8
2025-06-28T2300,4290A,120.1969,35.9546,青岛市,珠江路669号,,31,14,28,7,25,97,,117,115,3,10,6,7,0.4,0.5
2025-06-28T2300,1702A,113.0426,23.691,清远市,环保大楼,,39,39,27,3,7,50,,93,72,14,13,6,6,0.6,0.5
2025-06-28T2300,1703A,113.0208,23.7106,清远市,凤城街办,,24,24,14,15,9,50,,86,69,17,15,10,7,0.4,0.4
2025-06-28T2300,3025A,113.0477,23.6344,清远市,技师学院,,29,29,18,16,10,28,,81,53,33,18,14,9,0.5,0.5
2025-06-28T2300,3318A,112.9903,23.7403,清远市,清新太和,,19,19,14,11,10,47,,89,71,13,12,9,8,0.4,0.4
2025-06-28T2300,3455A,113.076,23.7198,清远市,清城东城,,22,21,13,15,7,51,,83,64,8,8,12,7,0.5,0.5
2025-06-28T2300,2661A,107.6325,35.7357,庆阳市,庆阳五中,,40,40,34,20,13,88,,140,115,25,14,7,7,0.7,0.5
2025-06-28T2300,2662A,107.6364,35.7067,庆阳市,市环保局,,41,36,32,12,11,131,,150,128,9,11,15,13,0.5,0.4
2025-06-28T2300,1916A,103.7897,25.5035,曲靖市,环境监测站,,25,25,14,8,5,24,,58,47,14,10,5,5,0.5,0.5
2025-06-28T2300,1917A,103.8,25.5364,曲靖市,烟厂办公区,,26,26,15,6,8,28,,60,50,11,8,10,5,0.7,0.6
2025-06-28T2300,3376A,103.7947,25.462,曲靖市,南苑二区,,11,11,7,3,4,33,,62,52,9,7,3,4,0.6,0.6
2025-06-28T2300,3377A,103.7444,25.5261,曲靖市,曲靖师范学院,,20,20,9,3,4,33,,56,48,7,7,5,6,0.3,0.3
2025-06-28T2300,1264A,118.8692,28.9398,衢州市,环保大楼,,18,18,20,9,11,20,,92,46,25,13,4,5,0.4,0.4
2025-06-28T2300,1265A,118.8709,28.9666,衢州市,实验学校,,20,20,23,8,12,16,,94,46,26,14,2,3,0.2,0.3
2025-06-28T2300,1266A,118.8621,28.9808,衢州市,衢州学院,,18,18,23,8,13,18,,96,48,24,15,3,4,0.3,0.3
2025-06-28T2300,1611A,118.5819,24.9117,泉州市,涂山街,,20,,28,14,10,7,,92,44,39,21,11,7,0.6,0.5
2025-06-28T2300,1612A,118.5972,24.8978,泉州市,津头埔,,34,34,26,14,11,10,,88,39,30,18,5,5,0.5,0.4
2025-06-28T2300,1613A,118.6663,24.9424,泉州市,万安,,31,31,25,9,9,13,,84,41,26,16,4,4,0.5,0.4
2025-06-28T2300,1614A,118.6117,24.9604,泉州市,清源山,,,,,,,,,,,,,,,,
2025-06-28T2300,3529A,118.6333,24.9264,泉州市,城华南路,,34,34,23,12,9,16,,86,40,24,14,7,6,0.4,0.4
2025-06-28T2300,2626A,88.8876,29.2718,日喀则市,日喀则监测站,,35,8,10,3,3,112,,114,114,8,5,14,14,0.3,0.3
2025-06-28T2300,3726A,88.8781,29.2426,日喀则市,林业技术推广中心,,34,16,15,8,3,108,,112,111,3,3,9,9,0.4,0.3
2025-06-28T2300,1659A,119.471,35.4209,日照市,监测站,,25,12,33,3,24,27,,71,42,49,37,8,9,0.5,0.9
2025-06-28T2300,1660A,119.523,35.4216,日照市,市政府广场,,25,6,33,3,22,19,,69,43,50,24,9,8,0.5,0.8
2025-06-28T2300,1661A,119.5587,35.4044,日照市,港务局,,18,,36,8,31,33,,69,48,36,28,6,6,0.6,0.9
2025-06-28T2300,3507A,119.5328,35.4625,日照市,职业技术学院,,12,9,35,3,22,36,,86,54,20,20,4,6,0.5,0.8
2025-06-28T2300,3604A,119.3266,35.1044,日照市,岚山环保分局,,15,7,27,3,17,45,,73,47,29,24,8,8,0.6,0.7
2025-06-28T2300,1835A,111.1922,34.7752,三门峡市,市政府,,33,18,22,11,11,103,,140,125,9,8,4,5,0.3,0.3
2025-06-28T2300,1836A,111.1587,34.7942,三门峡市,开发区,,33,23,22,11,13,103,,145,131,9,10,5,6,0.4,0.5
2025-06-28T2300,1838A,111.143,34.7955,三门峡市,风景区,,36,,24,8,13,115,,153,139,7,7,5,6,0.2,0.3
2025-06-28T2300,3039A,111.1911,34.7829,三门峡市,三门峡市第一小学,,33,18,21,10,11,105,,142,128,13,11,5,6,0.4,0.4
2025-06-28T2300,3598A,111.1,34.7167,三门峡市,富达温泉假日酒店,,25,25,18,12,10,76,,139,119,15,12,9,12,0.4,0.4
2025-06-28T2300,2324A,117.6211,26.2625,三明市,三钢,,15,10,20,6,12,45,,83,65,10,13,3,11,0.4,1.3
2025-06-28T2300,2325A,117.635,26.2714,三明市,三明二中,,20,,18,14,11,40,,84,64,10,13,1,6,0.3,0.8
2025-06-28T2300,2326A,117.6028,26.2378,三明市,三元区政府,,15,7,17,6,8,46,,88,65,11,13,2,4,0.9,0.5
2025-06-28T2300,2327A,117.7275,26.3108,三明市,洋溪,,,,,,,,,,,,,,,,
2025-06-28T2300,1876A,109.5078,18.2489,三亚市,河东子站,,16,16,8,6,4,28,,58,49,22,6,3,3,0.5,0.5
2025-06-28T2300,1877A,109.4964,18.2681,三亚市,河西子站,,15,12,11,10,6,24,,57,48,25,8,2,2,0.4,0.4
2025-06-28T2300,3540A,109.7348,18.3443,三亚市,君悦子站,,18,18,11,6,3,22,,65,51,20,7,2,2,0,0.4
2025-06-28T2300,2624A,91.7608,29.2313,山南市,山南监测站,,29,6,9,3,5,92,,123,117,1,4,3,3,0.2,0.2
2025-06-28T2300,2625A,91.7706,29.2436,山南市,山南人民医院,,30,15,10,3,5,94,,123,119,1,3,6,6,0.1,0.1
2025-06-28T2300,1674A,116.6794,23.3667,汕头市,金平子站,,13,11,11,3,5,41,,60,54,4,4,4,5,0.5,0.5
2025-06-28T2300,1675A,116.7244,23.3633,汕头市,龙湖子站,,14,14,12,3,4,42,,58,52,6,6,5,5,0.4,0.4
2025-06-28T2300,1676A,116.7258,23.2775,汕头市,濠江子站,,11,7,16,6,6,33,,52,45,10,7,4,4,0.5,0.5
2025-06-28T2300,1677A,116.7519,23.4714,汕头市,澄海子站,,13,11,13,6,6,40,,55,50,6,6,2,2,0.5,0.5
2025-06-28T2300,1678A,116.6092,23.2539,汕头市,潮阳子站,,13,13,14,3,5,37,,55,49,5,5,4,4,0.4,0.5
2025-06-28T2300,3444A,116.454,23.2684,汕头市,潮南峡山,,11,8,11,3,2,34,,53,46,7,7,5,5,0.4,0.5
2025-06-28T2300,3624A,116.4069,23.2533,汕头市,潮南子站,,22,22,16,9,6,35,,54,46,8,6,4,4,0.4,0.4
2025-06-28T2300,1693A,115.3653,22.775,汕尾市,市环保局,,15,13,11,3,4,46,,57,47,9,11,2,2,0.5,0.5
2025-06-28T2300,1694A,115.3706,22.7898,汕尾市,市政府,,17,7,13,3,6,52,,61,52,5,9,3,3,0.5,0.5
2025-06-28T2300,1695A,115.3622,22.7925,汕尾市,新城中学,,15,,14,3,5,45,,56,47,5,10,3,3,0.4,0.4
2025-06-28T2300,2645A,109.9154,33.8715,商洛市,监测站,,25,25,28,14,16,76,,115,85,19,11,10,7,0.4,0.4
2025-06-28T2300,3045A,109.9643,33.8471,商洛市,商州区中学,,38,33,32,7,14,119,,104,83,13,14,10,6,0.4,0.5
2025-06-28T2300,2408A,115.6702,34.4285,商丘市,环境监测站,,20,19,26,14,14,53,,80,75,7,6,2,2,0.3,0.4
2025-06-28T2300,2409A,115.6458,34.4045,商丘市,粮食局,,22,21,21,15,17,58,,91,82,5,5,2,2,0.3,0.3
2025-06-28T2300,2410A,115.6293,34.3948,商丘市,睢阳区环保局,颗粒物(PM10),54,57,31,12,12,55,,83,76,3,4,2,2,0.2,0.3
2025-06-28T2300,3171A,115.6071,34.4465,商丘市,梁园区档案局,,20,14,23,14,12,56,,86,79,7,7,2,2,0.4,0.5
2025-06-28T2300,1141A,121.4,31.238,上海市,普陀,,32,26,35,19,25,101,,179,158,17,22,4,6,0.3,0.3
2025-06-28T2300,1142A,121.478,31.2036,上海市,十五厂,,33,25,35,15,28,104,,191,170,16,27,7,8,0.6,0.5
2025-06-28T2300,1143A,121.467,31.3008,上海市,虹口,,32,32,40,18,27,101,,176,144,21,27,8,9,0.4,0.5
2025-06-28T2300,1147A,121.425,31.2261,上海市,静安监测站,,29,26,35,18,25,91,,170,144,20,24,4,5,0.7,0.7
2025-06-28T2300,1148A,121.703,31.1907,上海市,浦东川沙,,33,31,41,21,26,105,,161,138,20,22,8,8,0.8,0.8
2025-06-28T2300,1149A,121.533,31.2284,上海市,浦东新区监测站,,34,20,27,13,21,107,,,,18,14,7,7,0.8,0.7
2025-06-28T2300,1150A,121.577,31.2071,上海市,浦东张江,,36,24,45,14,26,115,,175,162,16,21,5,6,0.8,0.8
2025-06-28T2300,3265A,121.4316,31.3322,上海市,宝山庙行,,31,,51,19,26,97,,190,152,19,25,4,4,0.2,0.3
2025-06-28T2300,3266A,121.8791,31.4662,上海市,崇明上实东滩,,30,16,27,15,16,94,,192,112,20,17,2,2,0.6,0.6
2025-06-28T2300,3268A,121.3162,31.2838,上海市,嘉定南翔,,34,34,40,20,26,75,,169,130,18,26,6,7,0.4,0.5
2025-06-28T2300,3269A,121.3359,30.7456,上海市,金山新城,,33,,36,11,22,103,,198,161,13,16,3,3,0.6,0.6
2025-06-28T2300,3270A,121.4996,31.0739,上海市,闵行浦江,,31,21,33,13,25,99,,163,144,15,15,3,4,0.6,0.6
2025-06-28T2300,3271A,121.2886,31.1663,上海市,青浦徐泾,,34,34,33,19,24,71,,172,145,17,23,5,6,0.5,0.6
2025-06-28T2300,3272A,121.2186,31.0378,上海市,松江图书馆,,30,22,29,19,23,95,,181,157,6,14,7,7,0.4,0.5
2025-06-28T2300,3273A,121.3902,31.2059,上海市,长宁仙霞,,26,25,32,18,22,82,,165,144,24,21,7,6,0.5,0.5
2025-06-28T2300,3274A,121.7965,31.0507,上海市,浦东惠南,,34,19,34,17,26,107,,182,150,19,17,9,9,0.6,0.7
2025-06-28T2300,3544A,121.4891,30.925,上海市,奉贤南桥新城,,33,17,32,10,24,103,,162,142,8,13,6,7,0.9,1
2025-06-28T2300,4183A,121.4174,31.16637,上海市,冠生园路458号,,30,30,35,18,29,68,,162,138,17,22,4,4,0.5,0.5
2025-06-28T2300,4205A,121.5419,31.2683,上海市,宁武路151号,,,,41,,27,122,,166,148,15,32,8,6,,0.5
2025-06-28T2300,2381A,118.005,28.4572,上饶市,百草园,,,,,,,,,,,,,,,,
2025-06-28T2300,2382A,117.9756,28.4436,上饶市,市监测站,,22,22,27,8,10,44,,93,57,10,11,12,8,0.4,0.4
2025-06-28T2300,2383A,117.9519,28.4628,上饶市,凤凰光学,,15,,15,10,11,40,,90,53,19,16,8,11,0.8,0.8
