timepoint,stationcode,longitude,latitude,area,positionname,primarypollutant,aqi,pm10,pm10_24h,pm2_5,pm2_5_24h,o3,o3_24h,o3_8h,o3_8h_24h,no2,no2_24h,so2,so2_24h,co,co_24h
2023-10-31T18:00:00,1001A,116.3621,39.8784,北京市,万寿西宫,细颗粒物(PM2.5),134,195,156,102,77,118,94,78,78,29,32,3,2,1.0,1.1
2023-10-31T18:00:00,1002A,116.2202,40.2915,北京市,定陵,颗粒物(PM10),94,137,133,66,84,90,56,65,65,20,21,3,2,0.9,0.9
2023-10-31T18:00:00,1003A,116.4174,39.9289,北京市,东四,细颗粒物(PM2.5),144,188,153,110,86,124,97,83,83,33,33,1,2,0.9,1
2023-10-31T18:00:00,1004A,116.4072,39.8863,北京市,天坛,细颗粒物(PM2.5),135,191,151,103,79,98,82,75,75,24,31,3,2,0.9,1
2023-10-31T18:00:00,1005A,116.462,39.9365,北京市,农展馆,细颗粒物(PM2.5),145,192,149,111,85,120,91,83,83,29,31,3,2,0.9,1
2023-10-31T18:00:00,1006A,116.3392,39.9295,北京市,官园,细颗粒物(PM2.5),128,184,152,97,85,136,89,78,78,32,28,3,2,1.1,1.2
2023-10-31T18:00:00,1007A,116.2878,39.9611,北京市,海淀万柳,颗粒物(PM10),113,176,151,83,83,122,75,70,70,41,34,1,2,1.0,1.2
2023-10-31T18:00:00,1008A,116.6636,40.135,北京市,顺义新城,细颗粒物(PM2.5),120,178,148,91,77,110,72,78,78,49,26,1,3,0.8,0.8
2023-10-31T18:00:00,1009A,116.6275,40.3275,北京市,怀柔镇,颗粒物(PM10),103,156,142,73,76,126,44,82,82,66,20,1,2,1.2,1
2023-10-31T18:00:00,1010A,116.2296,40.217,北京市,昌平镇,颗粒物(PM10),105,160,150,75,85,122,75,78,78,37,31,2,2,1.0,1
2023-10-31T18:00:00,1011A,116.3966,39.9821,北京市,奥体中心,,,,146,93,86,121,96,84,84,28,30,2,2,0.8,1
2023-10-31T18:00:00,1012A,116.184,39.9136,北京市,古城,细颗粒物(PM2.5),132,196,168,100,95,119,96,76,76,22,24,3,1,1.3,1.4
2023-10-31T18:00:00,1015A,117.1444,39.1661,天津市,勤俭道,细颗粒物(PM2.5),284,306,152,234,105,140,106,114,114,42,39,7,8,1.3,0.9
2023-10-31T18:00:00,1017A,117.237,39.1082,天津市,大直沽八号路,,,,139,,83,142,109,122,122,43,46,3,4,,0.9
2023-10-31T18:00:00,1018A,117.202,39.0927,天津市,前进道,细颗粒物(PM2.5),254,289,147,204,93,146,104,121,121,49,42,5,6,1.7,1.3
2023-10-31T18:00:00,1019A,117.1837,39.2133,天津市,淮河道,细颗粒物(PM2.5),244,295,139,194,86,157,114,132,132,78,55,5,6,1.5,1.1
2023-10-31T18:00:00,1021A,117.307,39.0877,天津市,跃进路,细颗粒物(PM2.5),260,289,137,210,89,158,103,131,131,54,46,6,7,1.5,1.2
2023-10-31T18:00:00,1023A,117.707,39.0343,天津市,第四大街,细颗粒物(PM2.5),269,296,133,219,89,121,49,82,81,82,45,5,5,1.5,1
2023-10-31T18:00:00,1024A,117.457,38.8394,天津市,永明路,细颗粒物(PM2.5),266,266,161,216,123,118,65,98,96,51,25,4,5,1.4,0.9
2023-10-31T18:00:00,1026A,117.764,39.1587,天津市,汉北路,细颗粒物(PM2.5),247,370,137,197,69,128,43,104,95,77,32,6,6,,1
2023-10-31T18:00:00,1027A,117.157,38.9194,天津市,团泊洼,细颗粒物(PM2.5),251,279,205,201,133,117,76,97,97,36,24,4,3,1.6,1.2
2023-10-31T18:00:00,1029A,114.4422,38.0444,石家庄市,职工医院,细颗粒物(PM2.5),210,232,233,160,169,182,151,147,147,50,73,7,4,1.2,1.3
2023-10-31T18:00:00,1030A,114.6063,38.0266,石家庄市,高新区,细颗粒物(PM2.5),232,244,222,182,157,186,160,152,152,40,55,4,3,1.4,1.4
2023-10-31T18:00:00,1031A,114.4898,38.1328,石家庄市,西北水源,细颗粒物(PM2.5),189,222,200,142,138,182,148,137,137,39,53,3,3,1.2,1.1
2023-10-31T18:00:00,1032A,114.4586,38.0058,石家庄市,西南高教,细颗粒物(PM2.5),220,182,202,170,180,187,148,146,146,38,56,4,3,1.2,1.2
2023-10-31T18:00:00,1033A,114.5331,38.0178,石家庄市,世纪公园,细颗粒物(PM2.5),200,222,208,150,142,169,144,144,144,33,36,6,5,1.4,1.4
2023-10-31T18:00:00,1034A,114.509,38.0457,石家庄市,人民会堂,细颗粒物(PM2.5),219,196,219,169,194,183,162,150,150,33,51,7,6,1.2,1.2
2023-10-31T18:00:00,1035A,114.3524,37.8911,石家庄市,封龙山,颗粒物(PM10),89,127,153,64,81,185,166,142,142,16,18,8,8,1.0,1
2023-10-31T18:00:00,1037A,118.131,39.6363,唐山市,雷达站,细颗粒物(PM2.5),183,221,122,138,69,135,51,102,102,65,24,1,6,1.0,1
2023-10-31T18:00:00,1038A,118.1725,39.6334,唐山市,物资局,细颗粒物(PM2.5),196,180,118,147,68,134,91,109,109,40,25,5,10,1.0,1
2023-10-31T18:00:00,1040A,118.1705,39.6506,唐山市,十二中,细颗粒物(PM2.5),137,182,113,104,57,130,80,101,101,43,23,1,8,1.0,1
2023-10-31T18:00:00,1041A,118.1869,39.622,唐山市,小山,细颗粒物(PM2.5),169,194,121,128,59,137,75,105,105,49,21,3,6,1.1,1
2023-10-31T18:00:00,1042A,119.5134,39.8207,秦皇岛市,北戴河环保局,细颗粒物(PM2.5),172,185,102,130,49,127,87,112,112,67,48,12,10,1.8,0.9
2023-10-31T18:00:00,1043A,119.7493,40.0116,秦皇岛市,第一关,细颗粒物(PM2.5),190,217,102,143,55,138,68,117,117,61,49,13,11,1.7,0.7
2023-10-31T18:00:00,1044A,119.5897,39.9499,秦皇岛市,监测站,细颗粒物(PM2.5),138,154,98,105,56,122,73,110,110,65,45,15,13,1.6,0.8
2023-10-31T18:00:00,1046A,119.5251,39.9041,秦皇岛市,建设大厦,细颗粒物(PM2.5),123,171,104,93,44,121,78,114,109,60,47,8,11,1.5,0.6
2023-10-31T18:00:00,1048A,114.5302,36.6116,邯郸市,东污水处理厂,细颗粒物(PM2.5),92,82,208,68,189,167,167,145,145,28,65,8,7,0.8,1.4
2023-10-31T18:00:00,1049A,114.4918,36.5713,邯郸市,矿院,细颗粒物(PM2.5),107,102,207,80,195,178,171,151,151,33,80,8,7,0.7,1.4
2023-10-31T18:00:00,1050A,114.484,36.6133,邯郸市,丛台公园,细颗粒物(PM2.5),107,124,233,80,185,178,173,154,154,22,53,9,8,0.8,1.4
2023-10-31T18:00:00,1051A,115.493,38.8632,保定市,游泳馆,细颗粒物(PM2.5),252,221,205,202,183,100,84,84,84,44,56,8,6,1.0,0.8
2023-10-31T18:00:00,1052A,115.5213,38.8959,保定市,华电二区,细颗粒物(PM2.5),262,220,169,212,150,95,54,76,76,43,48,4,5,1.4,1.1
2023-10-31T18:00:00,1053A,115.4713,38.9108,保定市,接待中心,细颗粒物(PM2.5),254,253,194,204,152,106,56,82,82,53,58,4,4,,1.3
2023-10-31T18:00:00,1054A,115.4612,38.8416,保定市,地表水厂,细颗粒物(PM2.5),213,250,212,163,134,110,77,86,86,49,64,5,6,1.3,1.1
2023-10-31T18:00:00,1056A,115.5086,38.8639,保定市,监测站,细颗粒物(PM2.5),261,231,207,211,166,105,66,80,80,62,65,6,6,1.1,1.1
2023-10-31T18:00:00,1057A,114.8883,40.8336,张家口市,人民公园,颗粒物(PM10),86,121,98,21,31,94,60,88,86,46,24,2,2,0.4,0.3
2023-10-31T18:00:00,1059A,114.8687,40.8042,张家口市,五金库,,,,98,,44,115,,85,85,46,28,5,4,0.5,0.5
2023-10-31T18:00:00,1060A,114.8902,40.762,张家口市,世纪豪园,颗粒物(PM10),87,124,99,34,42,111,50,83,82,57,30,2,3,0.7,0.6
2023-10-31T18:00:00,1061A,114.8916,40.8661,张家口市,北泵房,颗粒物(PM10),69,87,85,28,34,107,86,101,101,21,18,10,8,0.4,0.4
2023-10-31T18:00:00,1062A,117.9531,40.9081,承德市,铁路,颗粒物(PM10),105,160,163,76,101,111,39,74,74,90,72,8,9,1.0,1.2
2023-10-31T18:00:00,1063A,117.9392,40.9763,承德市,中国银行,颗粒物(PM10),119,187,160,87,93,107,63,94,90,70,49,8,10,1.0,1.1
2023-10-31T18:00:00,1064A,117.9503,40.928,承德市,开发区,颗粒物(PM10),102,153,152,74,93,126,70,84,84,49,56,7,9,1.0,1.3
2023-10-31T18:00:00,1065A,117.8051,40.9655,承德市,文化中心,颗粒物(PM10),123,196,186,65,107,104,42,87,87,64,56,4,11,1.0,1.3
2023-10-31T18:00:00,1066A,117.9268,41.0026,承德市,离宫,颗粒物(PM10),96,141,156,59,99,105,73,83,83,21,25,2,4,0.8,1
2023-10-31T18:00:00,1067A,116.6708,39.5111,廊坊市,药材公司,细颗粒物(PM2.5),224,271,143,174,72,126,104,93,93,32,30,2,3,1.0,0.8
2023-10-31T18:00:00,1068A,116.7214,39.5589,廊坊市,开发区,细颗粒物(PM2.5),225,244,151,175,81,126,95,96,96,41,36,2,2,0.9,0.7
2023-10-31T18:00:00,1070A,116.7244,39.5269,廊坊市,北华航天学院,细颗粒物(PM2.5),248,297,151,198,76,129,115,97,97,37,30,,5,1.1,0.8
2023-10-31T18:00:00,1071A,116.8842,38.2991,沧州市,沧县城建局,细颗粒物(PM2.5),276,276,223,226,190,164,131,119,119,63,59,6,4,1.3,1.2
2023-10-31T18:00:00,1072A,116.8584,38.3254,沧州市,电视转播站,细颗粒物(PM2.5),260,246,195,210,164,162,135,121,121,37,45,3,3,1.1,1.1
2023-10-31T18:00:00,1073A,116.8709,38.3228,沧州市,市环保局,细颗粒物(PM2.5),269,246,215,219,184,153,133,115,115,43,45,16,14,1.3,1.3
2023-10-31T18:00:00,1074A,115.6838,37.7541,衡水市,电机北厂,细颗粒物(PM2.5),204,210,184,154,160,204,192,184,184,35,44,13,7,1.4,1.2
2023-10-31T18:00:00,1075A,115.6303,37.7316,衡水市,市监测站,细颗粒物(PM2.5),207,203,196,157,180,179,172,146,146,52,46,12,8,1.4,1.3
2023-10-31T18:00:00,1077A,114.4704,37.0886,邢台市,达活泉,细颗粒物(PM2.5),192,206,229,144,175,185,160,152,152,32,45,14,8,1.6,1.5
2023-10-31T18:00:00,1078A,114.5062,37.0349,邢台市,邢师高专,细颗粒物(PM2.5),158,169,198,120,156,181,101,135,135,79,64,6,5,1.0,1.2
2023-10-31T18:00:00,1079A,114.5237,37.0851,邢台市,路桥公司,细颗粒物(PM2.5),182,193,223,137,176,203,159,160,160,48,46,9,7,1.1,1.2
2023-10-31T18:00:00,1080A,114.4725,37.0719,邢台市,市环保局,细颗粒物(PM2.5),129,178,214,98,153,197,154,157,157,32,39,9,7,1.1,1.4
2023-10-31T18:00:00,1081A,112.522,37.8873,太原市,尖草坪,颗粒物(PM10),83,116,123,59,59,140,101,98,98,47,75,15,16,0.9,0.9
2023-10-31T18:00:00,1083A,112.434,38.0108,太原市,上兰,,,,,,,,,,,,,,,,
2023-10-31T18:00:00,1084A,112.469,37.7124,太原市,晋源,细颗粒物(PM2.5),104,126,117,78,58,152,46,99,99,113,75,21,17,1.3,1.1
2023-10-31T18:00:00,1085A,112.5583,37.7394,太原市,小店,颗粒物(PM10),85,120,155,59,63,133,82,99,99,58,80,15,17,1.3,1.2
2023-10-31T18:00:00,1086A,112.5369,37.8692,太原市,桃园,细颗粒物(PM2.5),87,121,127,64,55,143,85,110,110,64,80,14,14,1.0,1
2023-10-31T18:00:00,1087A,112.57,37.8195,太原市,坞城,颗粒物(PM10),80,109,133,56,63,144,85,107,107,66,78,14,14,0.9,0.9
2023-10-31T18:00:00,1088A,112.549,37.9854,太原市,南寨,颗粒物(PM10),79,108,119,56,49,136,82,90,90,73,73,17,20,0.9,1
2023-10-31T18:00:00,1090A,111.6507,40.7517,呼和浩特市,呼市一监,颗粒物(PM10),93,136,170,21,58,97,70,75,75,17,50,11,16,0.5,0.8
2023-10-31T18:00:00,1091A,111.6572,40.8033,呼和浩特市,小召,,,,185,,65,104,,71,71,29,60,,16,0.6,1.1
2023-10-31T18:00:00,1094A,111.7516,40.8369,呼和浩特市,如意水处理厂,颗粒物(PM10),72,93,172,18,62,105,81,76,76,22,57,9,14,0.4,0.9
2023-10-31T18:00:00,1095A,111.7276,40.8062,呼和浩特市,二十九中,颗粒物(PM10),96,141,168,26,62,108,79,79,79,22,54,10,15,0.4,0.9
2023-10-31T18:00:00,1096A,111.5512,40.7866,呼和浩特市,工大金川校区,颗粒物(PM10),90,129,194,21,78,110,57,72,72,42,62,9,24,0.4,0.8
2023-10-31T18:00:00,1097A,111.717,40.7612,呼和浩特市,化肥厂生活区,颗粒物(PM10),84,118,163,27,57,105,70,77,77,27,48,16,16,0.4,0.8
2023-10-31T18:00:00,1098A,123.6836,41.9339,沈阳市,森林路,,,,,,,,,,,,,,,,
2023-10-31T18:00:00,1099A,123.505,41.7406,沈阳市,浑南东路,颗粒物(PM10),53,56,108,26,62,112,62,103,98,27,43,12,16,0.7,1.1
2023-10-31T18:00:00,1100A,123.4231,41.6989,沈阳市,新秀街,,50,50,112,22,69,116,65,104,100,30,44,14,39,0.7,1
2023-10-31T18:00:00,1102A,123.5903,41.8411,沈阳市,东陵路,颗粒物(PM10),82,113,108,18,62,121,59,111,104,21,36,12,14,0.5,1.2
2023-10-31T18:00:00,1103A,123.4264,41.8467,沈阳市,陵东街,,20,20,102,11,60,121,56,108,101,26,37,11,17,0.5,1.1
2023-10-31T18:00:00,1104A,123.4114,41.7653,沈阳市,文化路,,32,32,114,15,61,122,62,110,104,25,37,14,29,0.5,1
2023-10-31T18:00:00,1105A,123.4678,41.7867,沈阳市,小河沿,,39,39,116,15,64,119,58,109,102,33,45,12,13,0.6,1.1
2023-10-31T18:00:00,1106A,123.4017,41.7972,沈阳市,太原街,,42,42,96,12,59,116,50,102,94,39,46,7,25,0.5,1
2023-10-31T18:00:00,1108A,123.3783,41.9228,沈阳市,京沈街,,49,49,96,8,62,123,56,106,100,26,40,14,23,0.4,1
2023-10-31T18:00:00,1109A,121.612,38.9741,大连市,甘井子,细颗粒物(PM2.5),170,261,116,129,54,166,124,145,145,40,31,9,9,1.1,0.8
2023-10-31T18:00:00,1110A,121.565,38.9511,大连市,周水子,细颗粒物(PM2.5),211,211,108,161,57,169,101,143,142,60,38,11,11,1.4,1.1
2023-10-31T18:00:00,1111A,121.5637,38.8845,大连市,星海三站,颗粒物(PM10),134,217,89,99,42,170,170,156,156,28,24,11,6,1.0,0.8
2023-10-31T18:00:00,1112A,121.6302,38.9117,大连市,青泥洼桥,细颗粒物(PM2.5),130,197,86,99,41,146,92,128,127,70,31,15,10,1.7,1.2
2023-10-31T18:00:00,1113A,121.6251,38.8638,大连市,傅家庄,细颗粒物(PM2.5),117,147,62,88,39,166,144,148,148,34,20,21,10,1.0,0.8
2023-10-31T18:00:00,1114A,121.5213,38.8661,大连市,七贤岭,颗粒物(PM10),141,231,101,95,41,185,172,165,165,29,35,10,10,1.1,0.8
2023-10-31T18:00:00,1115A,121.2529,38.8061,大连市,旅顺,细颗粒物(PM2.5),133,167,72,101,44,170,112,150,150,59,28,,10,,0.9
2023-10-31T18:00:00,1116A,121.7485,39.1311,大连市,金州,细颗粒物(PM2.5),152,202,95,116,49,157,134,138,138,33,27,12,13,1.2,0.9
2023-10-31T18:00:00,1117A,121.7811,39.0496,大连市,开发区,细颗粒物(PM2.5),182,210,87,137,47,155,125,139,139,49,39,9,8,1.1,0.6
2023-10-31T18:00:00,1118A,121.9762,39.0631,大连市,双D港,细颗粒物(PM2.5),117,112,53,88,36,158,117,147,146,34,23,7,7,0.9,0.7
2023-10-31T18:00:00,1119A,125.3325,43.9166,长春市,食品厂,颗粒物(PM10),82,114,114,26,66,95,42,76,74,35,38,6,10,0.5,0.6
2023-10-31T18:00:00,1120A,125.2863,43.9027,长春市,客车厂,颗粒物(PM10),79,107,114,33,66,91,39,74,70,36,35,6,12,0.5,0.7
2023-10-31T18:00:00,1121A,125.2841,43.8463,长春市,邮电学院,颗粒物(PM10),81,112,117,20,64,104,56,87,84,30,33,10,9,0.4,0.6
2023-10-31T18:00:00,1122A,125.3716,43.8772,长春市,劳动公园,颗粒物(PM10),71,92,119,18,63,102,60,84,83,21,36,7,9,0.3,0.5
2023-10-31T18:00:00,1123A,125.3297,43.8805,长春市,园林处,颗粒物(PM10),73,96,113,16,61,99,56,84,81,25,32,10,11,0.3,0.6
2023-10-31T18:00:00,1124A,125.4605,43.79,长春市,净月潭,颗粒物(PM10),78,105,93,11,52,90,62,80,76,15,20,8,10,0.3,0.6
2023-10-31T18:00:00,1125A,125.7194,43.515,长春市,甩湾子,,,,,,,,,,,,,,,,
2023-10-31T18:00:00,1126A,125.3863,43.8447,长春市,经开区环卫处,颗粒物(PM10),71,91,110,14,61,97,54,80,80,28,36,12,9,0.4,0.7
2023-10-31T18:00:00,1127A,125.245,43.7783,长春市,高新区管委会,颗粒物(PM10),74,98,112,17,64,101,49,87,80,34,36,5,9,0.4,0.6
2023-10-31T18:00:00,1128A,125.1761,43.8325,长春市,岱山公园,颗粒物(PM10),81,111,114,16,60,96,59,81,77,21,40,5,9,0.3,0.7
2023-10-31T18:00:00,1129A,126.5422,45.755,哈尔滨市,岭北,细颗粒物(PM2.5),239,231,83,189,59,60,45,29,29,23,25,22,21,0.9,0.8
2023-10-31T18:00:00,1130A,126.561,45.8167,哈尔滨市,松北商大,细颗粒物(PM2.5),202,133,77,152,84,41,,22,22,53,44,7,9,0.9,0.7
2023-10-31T18:00:00,1131A,126.979,45.5419,哈尔滨市,阿城会宁,细颗粒物(PM2.5),206,173,132,156,84,77,33,30,30,37,42,8,9,1.0,1
2023-10-31T18:00:00,1132A,126.599,45.7222,哈尔滨市,南岗学府路,细颗粒物(PM2.5),222,189,93,172,58,53,38,31,31,35,37,20,10,0.9,0.7
2023-10-31T18:00:00,1133A,126.689,45.7733,哈尔滨市,太平宏伟公园,细颗粒物(PM2.5),257,188,99,207,74,45,34,22,22,38,45,8,8,1.3,0.9
2023-10-31T18:00:00,1134A,126.635,45.7667,哈尔滨市,道外承德广场,细颗粒物(PM2.5),203,,69,153,51,52,,27,27,37,38,19,7,,1.1
2023-10-31T18:00:00,1135A,126.685,45.7319,哈尔滨市,香坊红旗大街,细颗粒物(PM2.5),249,165,89,199,74,57,44,33,33,33,42,38,11,1.1,0.9
2023-10-31T18:00:00,1136A,126.6411,45.7258,哈尔滨市,动力和平路,细颗粒物(PM2.5),227,171,87,177,62,49,32,25,24,41,40,7,9,0.8,0.7
2023-10-31T18:00:00,1137A,126.593,45.7478,哈尔滨市,道里建国路,细颗粒物(PM2.5),223,137,97,173,73,48,31,30,25,39,41,18,13,0.9,1
2023-10-31T18:00:00,1138A,126.615,45.61,哈尔滨市,平房东轻厂,细颗粒物(PM2.5),203,145,115,153,73,86,27,42,42,43,49,9,12,0.9,0.3
2023-10-31T18:00:00,1139A,126.595,45.9855,哈尔滨市,呼兰师专,细颗粒物(PM2.5),280,215,72,230,58,46,37,31,31,42,33,7,7,1.3,0.8
2023-10-31T18:00:00,1140A,126.6206,45.6842,哈尔滨市,省农科院,细颗粒物(PM2.5),260,194,98,210,73,69,52,47,47,37,42,10,13,1.0,0.8
2023-10-31T18:00:00,1141A,121.4,31.238,上海市,普陀,颗粒物(PM10),54,58,43,21,16,161,127,134,134,40,30,12,5,0.6,0.6
2023-10-31T18:00:00,1142A,121.478,31.2036,上海市,十五厂,颗粒物(PM10),54,57,44,26,21,145,133,132,132,44,42,7,8,0.6,0.5
2023-10-31T18:00:00,1143A,121.467,31.3008,上海市,虹口,颗粒物(PM10),51,52,41,20,18,149,138,133,133,33,34,5,6,0.7,0.6
2023-10-31T18:00:00,1144A,121.412,31.1654,上海市,徐汇上师大,颗粒物(PM10),53,56,45,27,23,163,141,142,142,43,41,10,9,0.8,0.7
2023-10-31T18:00:00,1145A,121.536,31.2659,上海市,杨浦四漂,颗粒物(PM10),60,69,56,27,31,153,123,137,137,36,36,6,6,0.6,0.6
2023-10-31T18:00:00,1147A,121.425,31.2261,上海市,静安监测站,,48,48,39,25,21,161,150,142,142,36,33,14,6,0.7,0.7
2023-10-31T18:00:00,1148A,121.703,31.1907,上海市,浦东川沙,颗粒物(PM10),51,52,37,22,17,162,120,145,145,18,25,6,6,0.6,0.6
2023-10-31T18:00:00,1149A,121.533,31.2284,上海市,浦东新区监测站,,45,43,39,20,17,151,144,138,138,24,28,7,7,0.6,0.5
2023-10-31T18:00:00,1150A,121.577,31.2071,上海市,浦东张江,,39,38,40,19,17,148,124,136,136,19,21,6,5,0.7,0.6
2023-10-31T18:00:00,1151A,118.8086,32.1065,南京市,迈皋桥,颗粒物(PM10),61,72,76,31,38,174,127,153,153,37,44,4,4,0.8,0.7
2023-10-31T18:00:00,1152A,118.7538,32.0551,南京市,草场门,颗粒物(PM10),58,66,77,34,43,154,151,146,146,34,54,7,6,0.8,0.7
2023-10-31T18:00:00,1153A,118.7794,32.0745,南京市,山西路,颗粒物(PM10),62,73,77,34,42,170,159,158,158,25,28,10,8,1.0,0.8
2023-10-31T18:00:00,1154A,118.7752,32.0023,南京市,中华门,颗粒物(PM10),65,80,74,39,43,171,139,150,150,47,58,7,6,1.1,1.1
2023-10-31T18:00:00,1155A,118.8109,32.0309,南京市,瑞金路,颗粒物(PM10),60,70,82,36,40,162,115,137,137,43,51,8,8,0.8,0.6
2023-10-31T18:00:00,1156A,118.7997,32.0754,南京市,玄武湖,,,,63,,40,169,130,148,148,31,25,,8,,0.4
2023-10-31T18:00:00,1157A,118.6414,32.0931,南京市,浦口,颗粒物(PM10),62,74,68,41,39,170,147,147,147,38,38,9,9,1.0,0.9
2023-10-31T18:00:00,1158A,118.7356,31.9996,南京市,奥体中心,颗粒物(PM10),70,89,84,41,46,164,137,147,147,46,57,11,11,0.7,0.6
2023-10-31T18:00:00,1159A,118.9125,32.1028,南京市,仙林大学城,颗粒物(PM10),59,68,68,31,43,186,131,158,158,40,35,2,3,0.8,0.8
2023-10-31T18:00:00,1160A,120.561,31.2472,苏州市,上方山,臭氧1小时,82,70,53,39,27,211,185,193,193,18,28,6,6,0.6,0.6
2023-10-31T18:00:00,1162A,120.591,31.3019,苏州市,彩香,,,78,61,,35,201,156,183,180,37,34,8,8,0.8,0.8
2023-10-31T18:00:00,1163A,120.596,31.3264,苏州市,轧钢厂,细颗粒物(PM2.5),67,78,63,48,31,207,147,182,182,44,30,12,9,0.9,0.8
2023-10-31T18:00:00,1164A,120.613,31.2703,苏州市,吴中区,颗粒物(PM10),55,60,61,33,32,238,138,194,194,69,46,14,9,0.8,0.7
2023-10-31T18:00:00,1165A,120.543,31.2994,苏州市,苏州新区,颗粒物(PM10),61,71,63,42,36,207,149,183,183,50,44,9,8,0.8,0.7
2023-10-31T18:00:00,1166A,120.669,31.3097,苏州市,苏州工业园区,细颗粒物(PM2.5),75,69,56,55,31,229,166,180,180,54,39,9,9,0.8,0.7
2023-10-31T18:00:00,1167A,120.641,31.3708,苏州市,相城区,细颗粒物(PM2.5),65,61,55,47,33,235,121,181,181,89,48,11,11,0.9,0.7
2023-10-31T18:00:00,1168A,120.9098,31.9663,南通市,狼山街道,,47,47,35,29,18,192,130,158,155,32,30,8,8,0.5,0.5
2023-10-31T18:00:00,1169A,120.86,32.0005,南通市,虹桥,颗粒物(PM10),54,57,47,36,27,184,138,157,157,59,43,7,8,0.5,0.5
2023-10-31T18:00:00,1170A,120.87,32.02,南通市,城中,臭氧1小时,54,50,39,26,23,190,163,164,164,37,36,8,8,0.5,0.5
2023-10-31T18:00:00,1171A,120.94,31.93,南通市,星湖花园,颗粒物(PM10),58,65,43,26,21,182,101,151,151,66,38,7,8,0.5,0.4
2023-10-31T18:00:00,1172A,120.81,32.0417,南通市,紫琅学院,颗粒物(PM10),59,67,48,31,21,155,85,127,127,106,55,10,9,0.6,0.6
2023-10-31T18:00:00,1173A,119.176,34.5885,连云港市,市环境监测站,颗粒物(PM10),68,85,100,46,61,158,155,150,150,24,29,8,12,0.7,0.7
2023-10-31T18:00:00,1177A,117.179,34.2761,徐州市,黄河新村,颗粒物(PM10),70,90,108,43,70,178,134,160,160,41,35,8,8,0.6,0.6
2023-10-31T18:00:00,1178A,117.1918,34.2384,徐州市,淮塔,颗粒物(PM10),65,80,122,45,76,186,143,165,165,27,37,8,9,0.6,0.3
2023-10-31T18:00:00,1180A,117.256,34.2153,徐州市,新城区,颗粒物(PM10),72,93,124,42,76,179,124,159,159,54,43,7,9,0.7,0.8
2023-10-31T18:00:00,1181A,117.244,34.2911,徐州市,桃园路,,,,116,45,67,168,132,153,153,41,35,9,10,0.7,0.8
2023-10-31T18:00:00,1182A,117.2933,34.2778,徐州市,农科院,颗粒物(PM10),65,80,106,39,70,183,132,157,157,50,33,8,10,0.6,0.8
2023-10-31T18:00:00,1186A,119.389,32.3761,扬州市,邗江监测站,颗粒物(PM10),62,73,93,29,37,188,126,164,164,50,55,7,10,0.5,0.7
2023-10-31T18:00:00,1188A,120.269,31.4867,无锡市,雪浪,"颗粒物(PM10),臭氧1小时",58,66,56,36,30,196,166,175,175,26,31,4,5,0.6,0.6
2023-10-31T18:00:00,1189A,120.275,31.6219,无锡市,黄巷,颗粒物(PM10),55,60,74,24,27,182,139,162,162,43,59,8,8,0.4,0.5
2023-10-31T18:00:00,1190A,120.294,31.56,无锡市,曹张,二氧化氮,62,46,48,31,31,186,56,156,152,124,53,7,8,0.9,0.9
2023-10-31T18:00:00,1191A,120.242,31.5031,无锡市,漆塘,颗粒物(PM10),53,56,52,36,32,197,99,163,163,34,34,6,7,1.1,1.1
2023-10-31T18:00:00,1192A,120.3489,31.5863,无锡市,东亭,颗粒物(PM10),58,66,58,29,28,187,127,163,163,64,61,5,6,0.5,0.5
2023-10-31T18:00:00,1193A,120.354,31.5475,无锡市,旺庄,颗粒物(PM10),70,90,62,39,30,184,115,162,162,73,64,5,6,0.8,0.7
2023-10-31T18:00:00,1194A,120.245,31.5631,无锡市,荣巷,细颗粒物(PM2.5),52,46,41,36,27,202,130,169,169,27,30,8,9,1.0,0.9
2023-10-31T18:00:00,1195A,120.299,31.6817,无锡市,堰桥,颗粒物(PM10),57,63,54,27,26,178,89,148,148,72,46,5,7,0.7,0.7
2023-10-31T18:00:00,1196A,119.9633,31.762,常州市,市监测站,细颗粒物(PM2.5),77,76,91,56,46,211,154,179,179,48,60,8,9,0.7,0.8
2023-10-31T18:00:00,1200A,119.9468,31.7069,常州市,武进监测站,细颗粒物(PM2.5),73,69,84,53,42,212,169,183,183,35,35,9,13,0.6,0.6
2023-10-31T18:00:00,1201A,119.9255,31.9087,常州市,安家,细颗粒物(PM2.5),72,76,79,52,43,187,134,167,167,60,58,7,8,0.8,0.8
2023-10-31T18:00:00,1203A,119.6707,32.1875,镇江市,新区办事处,,,44,71,21,43,188,154,171,171,,59,6,8,0.4,0.6
2023-10-31T18:00:00,1204A,119.4974,32.1968,镇江市,职教中心,臭氧1小时,72,61,77,34,62,192,177,176,176,28,49,4,9,0.7,0.6
2023-10-31T18:00:00,1205A,119.4303,32.1328,镇江市,丹徒区监测站,颗粒物(PM10),67,83,72,38,53,191,167,170,170,28,44,4,5,0.6,0.6
2023-10-31T18:00:00,1206A,119.905,32.4878,泰州市,公园路,臭氧1小时,57,53,69,34,42,184,165,180,180,27,45,8,11,0.6,0.8
2023-10-31T18:00:00,1207A,119.9189,32.4625,泰州市,莲花,颗粒物(PM10),59,68,74,29,41,193,156,176,176,36,46,6,9,0.5,0.7
2023-10-31T18:00:00,1209A,119.888,32.4639,泰州市,留学生创业园,颗粒物(PM10),60,70,71,26,40,196,148,174,174,36,42,8,12,0.7,0.9
2023-10-31T18:00:00,1210A,119.036,33.5981,淮安市,钵池山,臭氧1小时,85,83,80,52,63,188,188,158,158,23,30,9,11,1.1,1
2023-10-31T18:00:00,1211A,119.007,33.575,淮安市,北京南路,臭氧1小时,77,88,85,55,63,181,181,162,162,30,34,8,11,0.9,0.8
2023-10-31T18:00:00,1212A,118.989,33.6067,淮安市,市监测站,颗粒物(PM10),70,90,87,46,55,175,175,165,165,31,32,11,16,0.9,0.9
2023-10-31T18:00:00,1213A,119.135,33.5039,淮安市,楚州区监测站,颗粒物(PM10),74,98,103,43,68,199,172,170,170,38,66,8,9,1.1,1
2023-10-31T18:00:00,1214A,119.0186,33.6297,淮安市,淮阴区监测站,颗粒物(PM10),84,117,111,51,58,170,163,155,155,40,32,10,15,1.0,0.9
2023-10-31T18:00:00,1215A,120.118,33.4022,盐城市,盐城电厂,,,73,66,34,34,195,,171,171,22,21,10,9,0.7,0.6
2023-10-31T18:00:00,1216A,120.156,33.3942,盐城市,市监测站,臭氧1小时,103,68,53,33,32,241,206,207,207,25,25,10,9,0.7,0.6
2023-10-31T18:00:00,1218A,120.2144,33.38,盐城市,开发区管委会,,,76,57,34,31,206,,181,181,25,21,8,7,0.5,0.5
2023-10-31T18:00:00,1220A,118.293,33.9528,宿迁市,宿迁学院,颗粒物(PM10),55,59,80,34,53,179,143,167,167,41,39,10,12,0.7,0.9
2023-10-31T18:00:00,1221A,118.2442,33.9592,宿迁市,宿迁中学,颗粒物(PM10),64,78,104,34,50,166,135,154,154,40,39,10,13,0.6,0.7
2023-10-31T18:00:00,1223A,120.2072,30.2111,杭州市,滨江,臭氧1小时,59,55,78,36,42,192,167,166,166,37,50,7,8,0.6,0.7
2023-10-31T18:00:00,1224A,120.0633,30.2747,杭州市,西溪,,38,36,56,26,45,187,105,146,146,29,39,6,5,0.6,0.7
2023-10-31T18:00:00,1226A,120.3461,30.3153,杭州市,下沙,颗粒物(PM10),65,79,69,41,40,193,138,174,174,60,56,8,8,0.5,0.5
2023-10-31T18:00:00,1227A,120.1269,30.2456,杭州市,卧龙桥,,39,39,52,23,40,186,77,146,146,40,26,4,5,0.6,0.7
2023-10-31T18:00:00,1228A,120.1903,30.2692,杭州市,浙江农大,,48,44,58,33,41,166,108,151,146,51,48,6,7,0.5,0.6
2023-10-31T18:00:00,1230A,120.1197,30.3119,杭州市,和睦小学,颗粒物(PM10),56,61,66,36,44,181,80,145,145,82,54,10,9,0.7,0.7
2023-10-31T18:00:00,1231A,120.3019,30.4183,杭州市,临平镇,"颗粒物(PM10),细颗粒物(PM2.5)",80,109,76,59,34,189,154,169,169,47,45,7,6,0.7,0.7
2023-10-31T18:00:00,1232A,120.2697,30.1819,杭州市,城厢镇,细颗粒物(PM2.5),63,68,71,45,50,183,146,161,161,52,41,6,6,0.7,0.7
2023-10-31T18:00:00,1233A,120.0883,30.1808,杭州市,云栖,,34,34,54,22,37,187,107,148,148,31,31,6,6,0.6,0.7
2023-10-31T18:00:00,1234A,121.8358,29.911,宁波市,区环保大楼,,30,30,22,11,13,127,95,116,116,23,38,5,5,0.6,0.6
2023-10-31T18:00:00,1235A,121.56,29.82,宁波市,万里学院,,33,33,44,14,19,133,94,116,116,15,31,9,9,0.5,0.6
2023-10-31T18:00:00,1236A,121.713,29.9572,宁波市,龙赛医院,,31,31,38,10,18,118,95,105,105,25,44,6,7,0.4,0.4
2023-10-31T18:00:00,1239A,121.633,29.7733,宁波市,钱湖水厂,,35,29,28,24,11,129,102,113,113,6,10,7,7,0.4,0.4
2023-10-31T18:00:00,1240A,121.5856,29.8635,宁波市,太古小学,,37,37,35,20,15,128,97,115,115,17,36,8,8,0.6,0.7
2023-10-31T18:00:00,1241A,121.524,29.8674,宁波市,市环境监测中心,,32,32,34,17,16,143,98,120,120,16,26,6,7,0.7,0.7
2023-10-31T18:00:00,1242A,120.634,28.0089,温州市,瓯海,,30,22,39,8,19,138,93,117,117,17,37,6,7,0.5,0.5
2023-10-31T18:00:00,1243A,120.6748,27.9939,温州市,南浦,,30,27,36,13,18,132,94,117,114,14,26,5,7,0.3,0.3
2023-10-31T18:00:00,1244A,120.76,27.9747,温州市,龙湾,,29,21,41,6,13,119,92,104,104,15,34,5,6,0.4,0.5
2023-10-31T18:00:00,1245A,120.6709,28.0167,温州市,市站,,27,24,38,8,18,124,85,106,106,21,25,6,7,0.4,0.4
2023-10-31T18:00:00,1247A,120.6053,29.9928,绍兴市,城东开发委,颗粒物(PM10),53,55,54,32,34,140,111,127,127,43,28,9,8,0.7,0.7
2023-10-31T18:00:00,1250A,120.0751,30.8669,湖州市,城西水厂,,46,46,81,21,44,199,112,157,157,66,76,4,5,0.5,0.6
2023-10-31T18:00:00,1252A,120.7436,30.778,嘉兴市,清河小学,,45,44,57,22,28,205,144,173,173,28,36,6,7,0.7,0.7
2023-10-31T18:00:00,1253A,120.726,30.7478,嘉兴市,嘉兴学院,,42,42,56,22,34,198,123,164,164,33,25,6,7,0.6,0.6
2023-10-31T18:00:00,1255A,121.273,28.6459,台州市,黄岩环保大楼,,34,34,28,16,15,134,93,108,108,16,16,6,6,0.5,0.5
2023-10-31T18:00:00,1256A,121.419,28.6542,台州市,台州环保大楼,,43,43,31,12,15,129,92,108,108,10,18,4,5,0.4,0.4
2023-10-31T18:00:00,1257A,121.377,28.5773,台州市,路桥田洋王,,40,40,45,4,20,123,80,104,104,18,26,6,8,0.4,0.5
2023-10-31T18:00:00,1258A,122.122,30.0203,舟山市,定海檀枫,,,,16,4,8,112,106,106,106,16,16,6,6,0.3,0.4
2023-10-31T18:00:00,1259A,122.3094,29.9558,舟山市,普陀东港,,29,22,15,8,6,106,90,94,94,20,13,6,5,0.3,0.3
2023-10-31T18:00:00,1260A,122.19,29.9944,舟山市,临城新区,,29,16,17,7,9,103,91,90,90,21,20,6,5,0.5,0.4
2023-10-31T18:00:00,1262A,119.647,29.077,金华市,十五中,,42,34,49,22,35,167,133,143,143,42,41,5,6,0.6,0.6
2023-10-31T18:00:00,1263A,119.686,29.1029,金华市,监测站,,48,48,63,21,37,157,122,139,139,42,58,5,6,0.6,0.8
2023-10-31T18:00:00,1264A,118.8692,28.9398,衢州市,环保大楼,颗粒物(PM10),51,52,60,23,36,155,99,125,122,33,31,6,4,0.6,0.6
2023-10-31T18:00:00,1265A,118.8709,28.9666,衢州市,实验学校,,44,44,62,26,37,162,103,130,130,36,32,14,7,0.5,0.6
2023-10-31T18:00:00,1266A,118.8621,28.9808,衢州市,衢州学院,,41,41,64,24,39,150,80,120,120,45,47,9,5,0.6,0.7
2023-10-31T18:00:00,1267A,119.914,28.4514,丽水市,监测站大楼,,39,39,42,10,23,130,69,112,112,42,25,6,9,0.6,0.4
2023-10-31T18:00:00,1268A,119.93,28.4586,丽水市,莲都小学,,48,48,42,7,21,131,81,115,115,30,26,6,6,0.4,0.4
2023-10-31T18:00:00,1269A,119.879,28.4231,丽水市,余庄前,,19,19,37,12,25,125,60,102,102,16,18,5,5,0.3,0.3
2023-10-31T18:00:00,1270A,117.1959,31.7848,合肥市,明珠广场,颗粒物(PM10),64,78,93,39,54,168,132,146,146,42,45,9,10,0.6,0.7
2023-10-31T18:00:00,1271A,117.3072,31.8764,合肥市,三里街,颗粒物(PM10),60,70,107,36,58,158,113,129,129,58,70,7,7,0.6,0.7
2023-10-31T18:00:00,1272A,117.2588,31.8707,合肥市,琥珀山庄,颗粒物(PM10),62,73,95,34,54,175,152,151,151,22,42,6,6,0.7,0.9
2023-10-31T18:00:00,1273A,117.1604,31.9052,合肥市,董铺水库,颗粒物(PM10),62,73,89,31,45,196,163,172,172,22,37,1,3,0.5,0.7
2023-10-31T18:00:00,1274A,117.25,31.8571,合肥市,长江中路,颗粒物(PM10),58,66,96,39,59,170,144,152,152,28,41,9,10,0.8,0.9
2023-10-31T18:00:00,1275A,117.266,31.9436,合肥市,庐阳区,颗粒物(PM10),54,58,97,31,55,164,142,139,139,29,48,5,6,0.6,0.8
2023-10-31T18:00:00,1276A,117.336,31.8586,合肥市,瑶海区,颗粒物(PM10),64,78,115,29,58,155,111,133,133,55,71,5,6,0.6,1.1
2023-10-31T18:00:00,1277A,117.3027,31.7964,合肥市,包河区,颗粒物(PM10),58,66,94,36,56,174,136,151,151,41,62,6,8,0.7,0.9
2023-10-31T18:00:00,1278A,117.2776,31.7385,合肥市,滨湖新区,颗粒物(PM10),57,63,88,36,49,172,156,154,154,21,26,8,8,0.6,0.7
2023-10-31T18:00:00,1279A,117.1318,31.8403,合肥市,高新区,颗粒物(PM10),58,66,92,32,52,166,143,149,149,36,44,9,10,0.6,0.8
2023-10-31T18:00:00,1280A,119.3903,26.0543,福州市,鼓山,,,,,,,,,,,,,,,,
2023-10-31T18:00:00,1282A,119.2681,26.0504,福州市,师大,,34,34,29,7,10,111,102,106,106,9,11,5,5,0.5,0.5
2023-10-31T18:00:00,1283A,119.2984,26.1028,福州市,五四北路,,,,24,7,9,109,101,104,104,9,11,4,3,0.5,0.6
2023-10-31T18:00:00,1284A,119.2648,26.0768,福州市,杨桥西路,,34,34,29,6,10,112,99,105,105,9,11,4,4,0.4,0.5
2023-10-31T18:00:00,1285A,119.317,26.0746,福州市,紫阳,,31,25,24,8,9,104,98,99,99,6,7,6,6,0.3,0.4
2023-10-31T18:00:00,1286A,118.1608,24.8169,厦门市,溪东,,,,,,,,,,,,,,,,
2023-10-31T18:00:00,1287A,118.1514,24.4767,厦门市,洪文,,44,44,30,11,12,110,86,99,99,10,8,2,2,0.4,0.4
2023-10-31T18:00:00,1288A,118.0661,24.4444,厦门市,鼓浪屿,,36,36,28,11,12,100,85,90,90,5,10,2,3,0.5,0.4
2023-10-31T18:00:00,1290A,115.8931,28.6843,南昌市,省外办,颗粒物(PM10),68,85,101,44,60,164,125,143,143,22,46,6,6,0.3,0.5
2023-10-31T18:00:00,1291A,115.8886,28.7003,南昌市,省林业公司,颗粒物(PM10),63,75,107,39,58,178,148,150,150,25,66,8,7,0.5,0.6
2023-10-31T18:00:00,1292A,115.8126,28.7442,南昌市,林科所,颗粒物(PM10),53,56,74,34,44,194,148,176,173,28,38,8,8,0.6,0.7
2023-10-31T18:00:00,1294A,115.8518,28.687,南昌市,建工学校,颗粒物(PM10),55,59,100,35,59,174,149,154,154,34,64,12,11,0.7,0.9
2023-10-31T18:00:00,1295A,115.8921,28.6424,南昌市,象湖,颗粒物(PM10),55,59,104,28,60,191,124,163,163,35,64,7,8,0.5,1
2023-10-31T18:00:00,1296A,115.7423,28.7996,南昌市,武术学校,,38,27,29,23,20,164,119,144,144,11,11,2,2,0.3,0.4
2023-10-31T18:00:00,1298A,115.9314,28.6842,南昌市,省站,颗粒物(PM10),55,59,113,34,62,177,116,148,148,28,48,8,9,0.7,0.8
2023-10-31T18:00:00,1299A,116.9862,36.6114,济南市,科干所,颗粒物(PM10),76,102,85,46,42,165,162,150,150,16,14,9,10,0.5,0.6
2023-10-31T18:00:00,1300A,116.9376,36.665,济南市,农科所,颗粒物(PM10),73,95,109,37,55,142,116,128,128,43,54,9,7,0.4,0.6
2023-10-31T18:00:00,1301A,117.1265,36.6734,济南市,开发区,颗粒物(PM10),68,85,90,37,45,150,124,137,137,45,56,9,9,0.6,0.7
2023-10-31T18:00:00,1303A,117.0624,36.6868,济南市,省种子仓库,颗粒物(PM10),68,85,131,39,67,157,141,141,141,32,69,8,9,0.7,1.1
2023-10-31T18:00:00,1304A,116.9489,36.6447,济南市,机床二厂,颗粒物(PM10),83,115,119,46,58,144,121,128,128,53,42,8,7,0.5,0.6
2023-10-31T18:00:00,1305A,117.0495,36.663,济南市,市监测站,颗粒物(PM10),68,85,110,39,55,160,142,144,144,39,66,9,8,0.5,0.8
2023-10-31T18:00:00,1306A,116.7675,36.5484,济南市,长清党校,颗粒物(PM10),72,93,119,49,65,169,147,141,141,26,30,12,11,0.6,0.7
2023-10-31T18:00:00,1307A,120.6659,36.2403,青岛市,仰口,臭氧1小时,85,73,69,48,34,191,188,166,166,28,13,35,7,1.0,0.5
2023-10-31T18:00:00,1310A,120.4134,36.0658,青岛市,市南区东部子站,颗粒物(PM10),74,97,64,51,30,206,170,186,186,38,17,7,8,0.7,0.6
2023-10-31T18:00:00,1311A,120.3664,36.1032,青岛市,四方区子站,臭氧1小时,84,88,66,56,34,209,187,192,192,37,23,6,7,0.9,0.7
2023-10-31T18:00:00,1312A,120.2994,36.054,青岛市,市南区西部子站,臭氧1小时,85,90,73,46,35,207,188,188,188,26,17,7,8,0.6,0.6
2023-10-31T18:00:00,1313A,120.4581,36.0858,青岛市,崂山区子站,细颗粒物(PM2.5),85,110,69,63,36,214,178,191,191,32,20,7,8,0.8,0.6
2023-10-31T18:00:00,1314A,120.1983,35.9608,青岛市,黄岛区子站,臭氧1小时,80,83,71,46,38,201,184,184,184,35,26,7,8,0.7,0.7
2023-10-31T18:00:00,1315A,120.3999,36.3083,青岛市,城阳区子站,颗粒物(PM10),79,107,78,46,33,194,175,179,179,44,30,9,9,1.0,0.9
2023-10-31T18:00:00,1316A,113.69031,34.76122,郑州市,烟厂,颗粒物(PM10),51,52,93,17,38,128,92,96,96,38,57,8,10,0.5,0.7
2023-10-31T18:00:00,1317A,113.65724,34.77134,郑州市,郑纺机,颗粒物(PM10),59,68,101,20,40,126,74,98,98,59,64,9,10,0.7,0.9
2023-10-31T18:00:00,1318A,113.67526,34.80246,郑州市,银行学校,颗粒物(PM10),56,61,102,16,51,128,100,105,105,38,58,8,11,0.9,1
2023-10-31T18:00:00,1319A,113.56746,34.81334,郑州市,供水公司,,48,48,127,15,59,126,89,105,105,42,69,4,8,0.6,1
2023-10-31T18:00:00,1320A,113.7329,34.7178,郑州市,经开区管委,颗粒物(PM10),56,62,80,14,27,127,97,94,94,32,52,9,10,0.5,0.7
2023-10-31T18:00:00,1321A,113.73961,34.77172,郑州市,四十七中,颗粒物(PM10),54,57,95,14,41,133,98,105,105,39,62,8,10,0.5,0.7
2023-10-31T18:00:00,1322A,113.60532,34.74838,郑州市,市监测站,颗粒物(PM10),69,87,116,33,46,125,64,93,93,77,65,11,10,0.6,0.7
2023-10-31T18:00:00,1323A,113.64164,34.7525,郑州市,河医大,颗粒物(PM10),58,66,92,23,36,131,92,98,98,37,48,12,12,0.6,0.8
2023-10-31T18:00:00,1324A,113.51488,34.91089,郑州市,岗李水库,,,,,,,,,,,,,,,,
2023-10-31T18:00:00,1325A,114.3677,30.5584,武汉市,东湖梨园,,49,42,95,34,64,156,147,136,136,22,41,9,8,0.8,1.1
2023-10-31T18:00:00,1326A,114.2529,30.558,武汉市,汉阳月湖,"颗粒物(PM10),细颗粒物(PM2.5)",52,53,98,36,65,136,102,121,121,42,76,8,8,0.6,0.9
2023-10-31T18:00:00,1327A,114.282,30.6189,武汉市,汉口花桥,细颗粒物(PM2.5),55,51,101,39,69,149,123,136,136,34,59,8,8,0.9,1.2
2023-10-31T18:00:00,1328A,114.3025,30.5332,武汉市,武昌紫阳,颗粒物(PM10),54,57,105,29,52,161,124,145,145,52,72,8,8,0.7,1.1
2023-10-31T18:00:00,1329A,114.3646,30.6217,武汉市,青山钢花,细颗粒物(PM2.5),58,56,141,41,92,174,124,140,140,47,80,9,10,0.9,1.5
2023-10-31T18:00:00,1330A,114.1566,30.4825,武汉市,沌口新区,颗粒物(PM10),55,60,96,32,61,165,103,138,138,54,83,8,10,0.6,0.9
2023-10-31T18:00:00,1331A,114.3014,30.5944,武汉市,汉口江滩,颗粒物(PM10),53,56,98,28,52,161,127,134,134,39,68,7,7,0.7,0.9
2023-10-31T18:00:00,1333A,114.135,30.6319,武汉市,吴家山,颗粒物(PM10),55,60,99,29,67,170,141,152,152,31,78,8,10,0.6,0.9
2023-10-31T18:00:00,1334A,113.8454,30.2917,武汉市,沉湖七壕,,48,36,69,33,41,171,146,152,152,14,51,7,7,0.7,0.8
2023-10-31T18:00:00,1335A,113.0833,28.2325,长沙市,经开区环保局,颗粒物(PM10),59,67,76,36,48,167,159,141,141,26,39,8,9,0.5,0.7
2023-10-31T18:00:00,1336A,112.8872,28.2189,长沙市,高开区环保局,臭氧1小时,73,63,82,41,48,187,178,157,157,17,48,9,7,0.7,0.8
2023-10-31T18:00:00,1337A,113.0792,28.2053,长沙市,马坡岭,颗粒物(PM10),63,76,89,34,41,196,154,161,161,34,41,7,7,0.5,0.6
2023-10-31T18:00:00,1338A,112.9394,28.19,长沙市,湖南师范大学,颗粒物(PM10),63,76,67,41,41,177,132,145,145,20,31,8,7,0.7,0.7
2023-10-31T18:00:00,1339A,113.0178,28.1322,长沙市,雨花区环保局,颗粒物(PM10),67,83,72,40,44,186,110,148,148,78,47,4,3,0.9,0.9
2023-10-31T18:00:00,1340A,112.9792,28.2597,长沙市,伍家岭,,48,48,72,25,45,180,95,146,146,68,49,6,6,1.1,0.8
2023-10-31T18:00:00,1341A,113.0014,28.1944,长沙市,火车新站,颗粒物(PM10),59,68,85,41,52,174,147,152,152,31,49,7,7,0.7,0.9
2023-10-31T18:00:00,1342A,112.9844,28.1178,长沙市,天心区环保局,颗粒物(PM10),51,51,72,29,38,174,152,146,146,28,52,8,6,0.5,0.5
2023-10-31T18:00:00,1343A,112.8908,28.1308,长沙市,湖南中医药大学,细颗粒物(PM2.5),57,0,65,40,38,196,86,150,150,75,46,8,5,1.1,0.9
2023-10-31T18:00:00,1344A,112.9581,28.3611,长沙市,沙坪,,45,42,36,31,32,117,64,90,90,35,13,5,5,0.6,0.3
2023-10-31T18:00:00,1345A,113.2347,23.1423,广州市,广雅中学,,48,48,52,17,27,123,113,112,112,20,38,4,5,0.8,0.8
2023-10-31T18:00:00,1346A,113.2612,23.105,广州市,市五中,,36,32,39,22,28,136,114,120,120,21,25,6,7,0.5,0.6
2023-10-31T18:00:00,1348A,113.3478,23.0916,广州市,广东商学院,,36,36,37,19,26,117,101,105,104,18,26,4,5,0.6,0.5
2023-10-31T18:00:00,1349A,113.4332,23.1047,广州市,市八十六中,,,41,45,19,25,118,93,106,106,,38,4,4,,0.6
2023-10-31T18:00:00,1350A,113.3505,22.9483,广州市,番禺中学,,39,39,43,15,22,139,101,117,117,28,39,6,6,0.5,0.6
2023-10-31T18:00:00,1351A,113.2146,23.3916,广州市,花都师范,,35,28,41,16,26,123,109,114,114,16,23,5,8,0.6,0.7
2023-10-31T18:00:00,1352A,113.2597,23.1331,广州市,市监测站,,34,34,40,23,27,130,107,115,115,31,34,4,5,0.5,0.6
2023-10-31T18:00:00,1353A,113.5618,23.312,广州市,九龙镇镇龙,,50,50,40,27,27,100,39,89,88,72,27,6,5,0.6,0.6
2023-10-31T18:00:00,1354A,113.2765,23.1544,广州市,麓湖,,29,28,35,20,24,129,87,111,111,23,28,4,5,0.6,0.6
2023-10-31T18:00:00,1355A,113.443,23.3035,广州市,帽峰山森林公园,,31,31,33,16,21,129,90,114,114,10,14,7,7,0.9,0.9
2023-10-31T18:00:00,1356A,114.1063,22.5545,深圳市,通心岭子站,,42,28,29,15,17,153,134,140,140,14,20,4,4,0.2,0.3
2023-10-31T18:00:00,1357A,114.117,22.5625,深圳市,洪湖,颗粒物(PM10),52,54,53,30,29,157,137,141,141,11,27,5,3,0.7,0.6
2023-10-31T18:00:00,1358A,113.987,22.5417,深圳市,华侨城,臭氧1小时,77,55,42,33,25,204,181,155,155,32,22,1,3,0.1,0.1
2023-10-31T18:00:00,1359A,113.9181,22.5171,深圳市,南海子站,,,76,58,48,32,174,174,144,144,29,36,4,3,,0.2
2023-10-31T18:00:00,1360A,114.2458,22.5689,深圳市,盐田,,44,34,36,15,20,159,139,135,135,22,25,4,3,0.3,0.4
2023-10-31T18:00:00,1361A,114.2283,22.7244,深圳市,龙岗,,43,43,47,19,27,142,133,132,132,20,25,3,4,0.7,0.7
2023-10-31T18:00:00,1363A,114.494,22.5422,深圳市,南澳,,40,40,34,22,21,155,114,137,137,16,9,2,3,0.2,0.3
2023-10-31T18:00:00,1364A,114.41,22.6342,深圳市,葵涌,,40,31,35,17,18,159,127,139,139,19,15,2,2,0.4,0.4
2023-10-31T18:00:00,1365A,114.297,22.5978,深圳市,梅沙,,43,34,37,25,19,156,137,135,135,6,11,3,3,0.3,0.7
2023-10-31T18:00:00,1366A,114.0678,22.738,深圳市,观澜,颗粒物(PM10),51,52,58,23,28,156,88,127,127,57,34,3,4,0.9,0.9
2023-10-31T18:00:00,1367A,113.5814,22.2618,珠海市,吉大,,46,41,45,16,23,217,146,170,170,12,19,7,7,0.5,0.6
2023-10-31T18:00:00,1368A,113.4881,22.2335,珠海市,前山,,43,16,30,19,21,196,136,155,155,32,35,7,7,0.5,0.6
2023-10-31T18:00:00,1369A,113.628,22.4251,珠海市,唐家,,48,42,46,19,26,209,151,167,167,18,24,5,5,0.4,0.4
2023-10-31T18:00:00,1370A,113.299,22.2281,珠海市,斗门,,,37,42,23,27,184,166,164,164,21,31,8,8,,0.6
2023-10-31T18:00:00,1371A,113.1294,23.0067,佛山市,湾梁,,39,19,38,21,26,151,123,128,128,15,33,11,12,0.6,0.7
2023-10-31T18:00:00,1372A,113.1083,23.0478,佛山市,华材职中,,38,24,55,22,32,153,121,132,132,14,48,6,8,0.5,0.6
2023-10-31T18:00:00,1373A,113.144,23.0453,佛山市,南海气象局,,46,46,46,21,29,142,116,122,122,22,47,7,8,0.5,0.6
2023-10-31T18:00:00,1374A,113.2881,22.8094,佛山市,顺德苏岗,颗粒物(PM10),57,64,41,27,26,158,119,126,126,31,35,10,9,0.7,0.8
2023-10-31T18:00:00,1376A,112.8383,22.8678,佛山市,高明孔堂,,46,34,58,22,34,193,146,158,158,20,32,8,9,0.7,0.7
2023-10-31T18:00:00,1377A,112.8836,23.1588,佛山市,三水监测站,,39,39,53,18,32,148,113,128,128,13,30,5,6,0.7,0.8
2023-10-31T18:00:00,1378A,112.867,23.185,佛山市,三水云东海,,37,37,45,17,33,144,82,119,119,15,24,5,6,0.6,0.7
2023-10-31T18:00:00,1379A,113.3769,22.5211,中山市,华柏园,臭氧1小时,62,45,50,20,25,202,169,166,166,25,42,4,5,0.4,0.4
2023-10-31T18:00:00,1380A,113.3881,22.5497,中山市,张溪,臭氧1小时,54,56,61,28,31,209,163,170,170,23,42,3,4,0.5,0.6
2023-10-31T18:00:00,1381A,113.4075,22.5111,中山市,紫马岭,,49,46,44,29,29,192,154,160,160,19,31,4,4,0.5,0.5
2023-10-31T18:00:00,1382A,113.4411,22.4853,中山市,长江旅游区,,,,,,,,,,,,,,,,
2023-10-31T18:00:00,1383A,113.1064,22.6058,江门市,北街,臭氧1小时,54,41,57,25,37,176,163,142,142,24,51,9,8,0.6,0.7
2023-10-31T18:00:00,1384A,113.0731,22.5835,江门市,西区,臭氧1小时,62,46,59,21,33,183,169,148,148,23,46,8,8,0.6,0.7
2023-10-31T18:00:00,1385A,113.0219,22.5311,江门市,圭峰西,臭氧1小时,60,40,48,21,27,176,168,145,145,22,38,5,6,0.6,0.7
2023-10-31T18:00:00,1386A,113.0828,22.5947,江门市,东湖,臭氧1小时,55,40,52,20,29,180,164,147,147,19,37,7,7,0.6,0.7
2023-10-31T18:00:00,1389A,113.7547,23.0494,东莞市,莞城梨川,,35,28,38,15,24,134,110,118,118,16,28,8,8,0.6,0.7
2023-10-31T18:00:00,1390A,113.7944,23.0128,东莞市,东城石井,,34,34,39,17,24,118,93,106,106,17,21,7,7,0.6,0.7
2023-10-31T18:00:00,1391A,113.7383,22.9658,东莞市,南城西平,,32,30,43,16,25,124,102,113,113,20,37,7,6,0.5,0.7
2023-10-31T18:00:00,1392A,114.4183,23.0528,惠州市,河南岸金山湖子站,,,,40,,26,105,79,94,94,,16,7,7,0.5,0.6
2023-10-31T18:00:00,1393A,114.4053,23.0822,惠州市,下埔横江三路子站,,30,25,37,13,21,104,96,97,97,16,18,8,11,0.5,0.6
2023-10-31T18:00:00,1394A,114.4103,23.1142,惠州市,江北云山西路子站,,33,24,40,14,28,112,105,104,104,15,16,6,11,0.5,0.6
2023-10-31T18:00:00,1395A,114.4645,22.7833,惠州市,惠阳区承修路船湖子站,,38,32,46,15,26,125,120,107,107,12,15,9,9,0.8,0.9
2023-10-31T18:00:00,1396A,114.5317,22.7422,惠州市,大亚湾管委会子站,,38,38,39,16,21,141,116,121,121,27,26,7,6,0.8,0.8
2023-10-31T18:00:00,1397A,112.4267,23.0706,肇庆市,睦岗子站,颗粒物(PM10),51,51,47,28,28,140,102,117,117,34,37,8,8,0.6,0.6
2023-10-31T18:00:00,1398A,112.4645,23.0475,肇庆市,城中子站,,41,28,38,18,26,137,129,125,125,14,32,9,9,0.6,0.7
2023-10-31T18:00:00,1399A,112.5544,23.1522,肇庆市,坑口子站,,34,34,36,22,25,132,95,114,114,15,21,8,9,0.4,0.5
2023-10-31T18:00:00,1400A,112.4753,23.1,肇庆市,七星岩子站,,,,,,,,,,,,,,,,
2023-10-31T18:00:00,1401A,108.3103,22.7881,南宁市,二十一中,,40,40,48,18,27,123,108,110,110,13,28,6,13,0.9,1
2023-10-31T18:00:00,1402A,108.3141,22.8528,南宁市,北湖,,38,38,48,21,27,113,104,105,105,14,26,7,12,0.7,0.9
2023-10-31T18:00:00,1403A,108.3206,22.8225,南宁市,市监测站,,40,40,49,25,29,124,99,109,109,23,38,10,19,0.7,0.8
2023-10-31T18:00:00,1404A,108.3829,22.8037,南宁市,大自然花园,,33,32,39,21,29,108,103,103,103,14,19,7,11,0.6,0.8
2023-10-31T18:00:00,1405A,108.4394,22.7904,南宁市,仙葫,,39,39,41,20,27,117,116,112,112,12,26,6,8,0.5,0.7
2023-10-31T18:00:00,1406A,108.2397,22.8467,南宁市,区农职院,,39,39,40,6,21,115,104,76,,24,24,9,10,0.7,0.8
2023-10-31T18:00:00,1407A,108.3275,22.735,南宁市,英华嘉园,,32,28,49,22,33,108,94,98,98,16,37,7,10,0.7,0.8
2023-10-31T18:00:00,1408A,108.2257,22.7757,南宁市,沙井镇街道办,,,39,61,22,35,122,,107,107,23,29,8,15,0.8,0.9
2023-10-31T18:00:00,1409A,110.576,19.9507,海口市,东寨港,,,,,,,,,,,,,,,,
2023-10-31T18:00:00,1410A,110.3232,20.0574,海口市,海南大学,臭氧1小时,83,50,42,33,31,186,186,155,155,12,13,8,8,0.6,0.6
2023-10-31T18:00:00,1411A,110.283,20.0053,海口市,秀英海南医院,臭氧1小时,77,51,42,34,31,181,181,149,149,13,10,8,8,0.6,0.6
2023-10-31T18:00:00,1412A,110.338,19.9969,海口市,海南师范大学,臭氧1小时,67,53,43,36,31,173,173,145,145,15,11,6,7,0.6,0.6
2023-10-31T18:00:00,1413A,110.33,20.0356,海口市,龙华路环保局宿舍,,,48,41,33,29,182,182,152,152,14,11,,9,0.5,0.4
2023-10-31T18:00:00,1414A,106.3787,29.8279,重庆市,缙云山,,29,29,25,15,18,102,79,83,61,10,10,8,8,0.1,0.1
2023-10-31T18:00:00,1416A,106.4213,29.8253,重庆市,天生,细颗粒物(PM2.5),52,33,51,36,36,68,65,38,38,22,39,8,8,0.7,0.8
2023-10-31T18:00:00,1417A,106.6263,29.7228,重庆市,两路,,46,46,41,27,24,58,43,41,40,37,37,7,7,0.8,0.8
2023-10-31T18:00:00,1418A,106.2953,29.5983,重庆市,虎溪,颗粒物(PM10),53,55,45,29,30,56,44,42,42,37,50,7,6,0.6,0.6
2023-10-31T18:00:00,1419A,106.5777,29.5102,重庆市,南坪,颗粒物(PM10),63,76,52,29,32,97,26,48,36,68,35,9,11,1.0,0.9
2023-10-31T18:00:00,1420A,106.6556,29.6277,重庆市,唐家沱,,44,44,50,28,24,67,37,39,39,55,44,8,8,0.8,0.8
2023-10-31T18:00:00,1421A,106.6349,29.4906,重庆市,茶园,颗粒物(PM10),63,76,61,25,33,74,29,53,53,69,54,7,8,0.9,1
2023-10-31T18:00:00,1422A,106.3754,29.4572,重庆市,白市驿,颗粒物(PM10),52,53,49,34,34,111,46,35,35,42,45,8,8,0.7,0.8
2023-10-31T18:00:00,1425A,106.6205,29.7166,重庆市,空港,,45,45,45,30,29,80,53,53,45,34,37,7,7,1.0,0.9
2023-10-31T18:00:00,1426A,106.4782,29.4875,重庆市,新山村,颗粒物(PM10),53,56,59,34,34,75,41,36,36,61,62,10,9,0.9,1.1
2023-10-31T18:00:00,1427A,106.5616,29.6453,重庆市,礼嘉,颗粒物(PM10),52,53,49,23,30,75,26,34,34,63,55,10,10,0.8,0.8
2023-10-31T18:00:00,1428A,106.4522,29.7091,重庆市,蔡家,,,,58,,35,65,48,39,39,,42,5,7,,0.7
2023-10-31T18:00:00,1429A,106.5093,29.3917,重庆市,鱼新街,颗粒物(PM10),63,75,56,34,35,107,35,51,51,72,55,7,9,1.1,1.3
2023-10-31T18:00:00,1431A,103.9728,30.7236,成都市,金泉两河,,48,28,60,33,44,85,63,61,61,14,24,2,5,0.5,0.6
2023-10-31T18:00:00,1432A,104.176,30.6872,成都市,十里店,细颗粒物(PM2.5),103,83,76,77,65,76,68,57,57,28,34,1,2,0.7,0.7
2023-10-31T18:00:00,1433A,104.079,30.5706,成都市,三瓦窑,细颗粒物(PM2.5),118,114,106,89,77,61,56,54,54,27,27,1,2,0.6,0.6
2023-10-31T18:00:00,1434A,104.1114,30.63,成都市,沙河铺,细颗粒物(PM2.5),99,102,95,74,72,66,47,50,50,26,31,2,2,0.8,0.7
2023-10-31T18:00:00,1437A,104.0786,30.6531,成都市,君平街,,,106,90,75,70,77,70,61,61,38,41,,3,,0.7
2023-10-31T18:00:00,1438A,103.613,31.0283,成都市,灵岩寺,,35,32,38,24,26,91,40,50,38,14,12,6,7,0.6,0.6
2023-10-31T18:00:00,1439A,106.6899,26.5998,贵阳市,马鞍山,,24,19,24,9,15,114,76,89,89,10,15,4,4,0.4,0.4
2023-10-31T18:00:00,1440A,106.6971,26.5694,贵阳市,市环保站,,24,22,46,15,33,106,74,91,91,31,41,3,5,0.3,0.6
2023-10-31T18:00:00,1441A,106.6243,26.6266,贵阳市,鉴湖路,,28,22,34,9,16,104,88,90,90,10,20,3,4,0.4,0.5
2023-10-31T18:00:00,1442A,106.7487,26.6343,贵阳市,燕子冲,,24,17,27,12,22,109,76,87,87,16,16,7,6,0.3,0.3
2023-10-31T18:00:00,1443A,106.6555,26.4365,贵阳市,碧云窝,,27,22,40,7,19,104,84,92,92,12,18,4,5,0.2,0.6
2023-10-31T18:00:00,1444A,106.694,26.5161,贵阳市,中院村,,41,41,53,19,27,90,63,76,76,32,37,3,5,0.3,0.5
2023-10-31T18:00:00,1445A,106.7109,26.6027,贵阳市,红边门,,41,41,41,14,26,110,71,86,86,31,32,4,5,0.3,0.5
2023-10-31T18:00:00,1446A,106.7164,26.5699,贵阳市,新华路,,34,34,52,9,26,111,69,89,89,36,37,6,6,0.5,0.6
2023-10-31T18:00:00,1447A,106.674,26.5424,贵阳市,太慈桥,,25,24,33,9,16,102,78,92,92,21,26,4,5,0.3,0.5
2023-10-31T18:00:00,1450A,102.8204,24.8886,昆明市,呈贡新区,,41,41,42,21,26,105,90,91,91,19,40,7,6,0.8,1
2023-10-31T18:00:00,1451A,102.6251,24.9608,昆明市,西山森林公园,,29,20,21,14,17,101,91,90,90,8,7,7,6,0.6,0.6
2023-10-31T18:00:00,1452A,102.7252,25.0902,昆明市,龙泉镇,,37,37,35,13,19,99,89,82,82,18,29,9,8,0.7,0.8
2023-10-31T18:00:00,1453A,102.7266,25.0375,昆明市,东风东路,,,31,41,20,21,108,95,93,93,19,33,10,10,,0.7
2023-10-31T18:00:00,1454A,102.6742,25.0669,昆明市,金鼎山,,32,32,45,18,22,102,96,91,91,17,36,16,25,0.5,0.6
2023-10-31T18:00:00,1455A,102.6644,25.0401,昆明市,碧鸡广场,,29,27,38,19,24,102,90,89,89,18,32,8,8,0.8,0.8
2023-10-31T18:00:00,1456A,91.1319,29.6514,拉萨市,八廓街,,35,18,13,8,7,110,110,97,97,9,9,12,15,0.2,0.2
2023-10-31T18:00:00,1457A,91.1221,29.6747,拉萨市,市环保局,,,13,15,6,7,112,110,95,95,,14,8,11,0.5,0.5
2023-10-31T18:00:00,1458A,91.0874,29.6475,拉萨市,区监测站,,34,9,10,5,6,109,107,95,95,9,12,9,13,0.3,0.3
2023-10-31T18:00:00,1459A,91.1774,29.6541,拉萨市,西藏大学,,34,17,10,8,6,108,108,96,96,9,9,9,12,0.3,0.4
2023-10-31T18:00:00,1460A,90.9798,29.6588,拉萨市,区辐射站,,29,19,20,6,9,106,91,86,86,23,23,6,7,0.5,0.4
2023-10-31T18:00:00,1461A,91.0834,29.6292,拉萨市,拉萨火车站,,31,10,8,6,6,99,99,87,87,8,7,6,10,0.3,0.3
2023-10-31T18:00:00,1462A,108.882,34.2749,西安市,高压开关厂,,,51,100,18,34,49,26,30,30,,77,8,11,0.6,0.9
2023-10-31T18:00:00,1463A,108.993,34.2629,西安市,兴庆小区,颗粒物(PM10),52,54,63,19,27,77,20,27,27,59,58,7,7,0.6,0.7
2023-10-31T18:00:00,1464A,109.06,34.2572,西安市,纺织城,颗粒物(PM10),61,72,89,27,36,36,11,24,23,66,61,7,7,0.8,0.7
2023-10-31T18:00:00,1465A,108.9356,34.2173,西安市,小寨,颗粒物(PM10),53,55,85,22,33,36,12,20,20,62,70,8,9,0.6,1.1
2023-10-31T18:00:00,1466A,108.954,34.2713,西安市,市人民体育场,颗粒物(PM10),52,54,88,20,39,47,24,26,26,52,70,6,6,0.6,0.9
2023-10-31T18:00:00,1467A,108.8922,34.2322,西安市,高新西区,颗粒物(PM10),51,52,77,25,38,48,22,26,26,56,71,6,8,0.7,1
2023-10-31T18:00:00,1468A,108.935,34.3474,西安市,经开区,,50,50,90,12,42,49,31,31,31,46,71,4,6,0.5,0.9
2023-10-31T18:00:00,1469A,108.906,34.1546,西安市,长安区,颗粒物(PM10),55,59,76,29,30,37,18,24,22,55,59,6,6,0.5,0.5
2023-10-31T18:00:00,1471A,109.2186,34.3731,西安市,临潼区,颗粒物(PM10),52,54,101,31,43,75,42,43,43,22,39,6,10,0.7,0.8
2023-10-31T18:00:00,1472A,108.869,34.378,西安市,草滩,,35,35,113,11,35,60,29,27,27,57,76,10,14,0.6,0.8
2023-10-31T18:00:00,1473A,108.985,34.1978,西安市,曲江文化产业集团,,50,50,80,18,28,66,28,26,26,51,65,5,6,0.5,0.7
2023-10-31T18:00:00,1474A,109.051,34.3213,西安市,广运潭,,40,40,76,20,35,50,38,29,29,32,56,8,9,0.5,0.6
2023-10-31T18:00:00,1476A,103.631,36.1031,兰州市,兰炼宾馆,颗粒物(PM10),74,98,115,46,63,151,68,114,114,85,84,11,16,0.8,1
2023-10-31T18:00:00,1477A,104.1373,35.9454,兰州市,榆中兰大校区,,,,,,,,,,,,,,,,
2023-10-31T18:00:00,1478A,103.8412,36.0726,兰州市,生物制品所,细颗粒物(PM2.5),97,114,108,72,57,78,30,50,50,135,83,15,13,1.4,1.2
2023-10-31T18:00:00,1479A,103.831,36.0464,兰州市,铁路设计院,二氧化氮,73,93,111,49,61,72,9,38,38,146,104,14,15,1.4,1.8
2023-10-31T18:00:00,1483A,101.524,36.6867,西宁市,第五水厂,,,,,,,,,,,,,,,,
2023-10-31T18:00:00,1484A,105.9512,38.6016,银川市,贺兰山马莲口,,,,29,14,10,103,101,94,94,13,14,4,3,0.3,0.3
2023-10-31T18:00:00,1488A,106.2328,38.4975,银川市,贺兰山东路,颗粒物(PM10),59,67,72,21,27,102,85,83,83,30,47,8,12,0.3,0.6
2023-10-31T18:00:00,1489A,106.1358,38.5036,银川市,学院路,颗粒物(PM10),52,53,71,27,27,93,78,76,76,19,30,7,10,0.5,0.6
2023-10-31T18:00:00,1490A,87.5801,43.8303,乌鲁木齐市,监测站,颗粒物(PM10),55,60,54,18,11,95,95,78,78,25,39,6,5,0.6,0.7
2023-10-31T18:00:00,1491A,87.6046,43.768,乌鲁木齐市,收费所,,,46,56,,23,104,104,85,85,10,34,4,3,0.3,0.4
2023-10-31T18:00:00,1492A,87.4754,43.9469,乌鲁木齐市,新疆农科院农场,颗粒物(PM10),58,66,120,19,39,74,72,58,58,33,52,2,3,0.6,0.8
2023-10-31T18:00:00,1493A,87.5525,43.8711,乌鲁木齐市,铁路局,颗粒物(PM10),52,53,64,18,16,92,92,80,80,23,40,4,4,0.5,0.7
2023-10-31T18:00:00,1494A,87.6432,43.831,乌鲁木齐市,三十一中学,颗粒物(PM10),52,53,44,16,12,103,103,86,86,4,30,3,2,0.2,0.3
2023-10-31T18:00:00,1496A,87.7216,44.1747,乌鲁木齐市,米东区环保局,,46,46,88,12,33,82,82,42,42,9,30,5,8,0.3,0.7
2023-10-31T18:00:00,1508A,112.9433,27.8614,湘潭市,板塘,颗粒物(PM10),56,61,85,28,63,174,161,147,147,18,50,12,12,0.6,0.7
2023-10-31T18:00:00,1511A,112.9118,27.8403,湘潭市,市监测站,颗粒物(PM10),55,59,69,33,69,176,160,153,153,32,37,8,9,0.7,0.8
2023-10-31T18:00:00,1512A,112.8937,27.8728,湘潭市,江麓,细颗粒物(PM2.5),134,72,78,102,53,170,148,138,138,30,44,14,15,0.9,0.9
2023-10-31T18:00:00,1513A,112.9227,27.8159,湘潭市,岳塘,颗粒物(PM10),56,62,76,37,57,181,122,150,150,33,39,7,9,1.0,1.1
2023-10-31T18:00:00,1514A,112.9074,27.9119,湘潭市,科大,颗粒物(PM10),64,77,79,38,62,170,143,142,142,34,53,20,17,0.9,0.8
2023-10-31T18:00:00,1515A,113.135,27.8244,株洲市,天台山庄,颗粒物(PM10),55,60,89,33,57,170,111,144,144,54,54,8,9,0.8,1.1
2023-10-31T18:00:00,1518A,113.095,27.8867,株洲市,株冶医院,细颗粒物(PM2.5),64,70,72,46,51,175,104,148,148,56,45,9,9,0.8,0.7
2023-10-31T18:00:00,1519A,113.167,27.8667,株洲市,市四中,"颗粒物(PM10),细颗粒物(PM2.5)",72,93,75,52,47,171,120,150,150,44,41,8,7,1.1,1.1
2023-10-31T18:00:00,1520A,113.143,27.8381,株洲市,火车站,颗粒物(PM10),54,57,81,34,52,174,130,148,148,37,44,8,8,1.1,1.3
2023-10-31T18:00:00,1524A,113.13,27.8528,株洲市,市监测站,细颗粒物(PM2.5),54,53,85,38,60,179,135,155,155,33,53,12,8,0.7,1
2023-10-31T18:00:00,1552A,106.805,26.3003,贵阳市,桐木岭,,,,,,,,,,,,,,,,
2023-10-31T18:00:00,1559A,113.251,27.8336,株洲市,大京风景区,颗粒物(PM10),83,116,49,30,28,156,79,131,131,8,11,5,6,0.5,0.6
2023-10-31T18:00:00,1562A,113.0048,27.9153,湘潭市,昭山,颗粒物(PM10),64,78,74,42,89,196,125,150,150,59,54,8,8,0.9,0.8
2023-10-31T18:00:00,1564A,112.4876,27.9164,湘潭市,韶山,颗粒物(PM10),52,54,51,22,26,160,86,140,140,25,16,7,8,0.6,0.6
2023-10-31T18:00:00,1585A,109.8756,40.6532,包头市,市环境监测站,颗粒物(PM10),85,120,141,46,50,98,67,89,89,37,52,27,38,1.1,1.6
2023-10-31T18:00:00,1587A,109.9991,40.5842,包头市,包头八中,颗粒物(PM10),89,128,149,20,39,98,78,83,83,27,47,13,28,0.5,1
2023-10-31T18:00:00,1588A,109.8538,40.6821,包头市,青山宾馆,颗粒物(PM10),82,113,128,24,39,97,82,76,76,19,50,19,32,0.5,1.4
2023-10-31T18:00:00,1589A,109.8642,40.6288,包头市,惠龙物流,颗粒物(PM10),86,121,141,17,48,104,74,85,85,28,46,11,41,0.6,1.4
2023-10-31T18:00:00,1590A,110.0377,40.5546,包头市,东河鸿龙湾,颗粒物(PM10),69,88,102,6,24,104,91,92,92,17,38,12,20,0.3,0.5
2023-10-31T18:00:00,1591A,110.0023,39.8129,鄂尔多斯市,综合楼,颗粒物(PM10),78,105,91,17,16,93,80,86,86,23,20,5,7,0.5,0.5
2023-10-31T18:00:00,1592A,109.9486,39.8261,鄂尔多斯市,巴音孟克林场办事处,,,,79,,22,91,80,88,88,21,15,,13,0.4,0.3
2023-10-31T18:00:00,1593A,109.7736,39.5986,鄂尔多斯市,康泽苑,颗粒物(PM10),60,70,86,13,22,96,88,90,90,9,23,4,6,0.3,0.4
2023-10-31T18:00:00,1594A,109.8119,39.5989,鄂尔多斯市,华泰汽车城,颗粒物(PM10),60,70,87,12,20,95,86,88,88,12,27,4,6,0.4,0.5
2023-10-31T18:00:00,1595A,109.9734,39.7884,鄂尔多斯市,奥林花园,,,110,95,17,19,90,74,85,84,23,31,15,23,,
2023-10-31T18:00:00,1597A,122.2703,40.7094,营口市,大庆路,细颗粒物(PM2.5),118,175,126,89,66,112,83,100,98,28,39,5,9,0.8,1.5
2023-10-31T18:00:00,1598A,122.2150,40.6511,营口市,镜湖西路,颗粒物(PM10),89,128,112,62,56,104,72,102,92,38,46,8,13,1.0,1.3
2023-10-31T18:00:00,1599A,122.1658,40.6789,营口市,西炮台,细颗粒物(PM2.5),159,163,115,121,72,112,96,107,101,18,25,6,10,1.0,1.2
2023-10-31T18:00:00,1600A,124.3303,40.0625,丹东市,江湾东路,颗粒物(PM10),51,51,50,29,24,119,114,107,107,22,11,10,5,0.6,0.6
2023-10-31T18:00:00,1601A,124.4256,40.1503,丹东市,临江后街,,42,42,41,17,19,120,120,110,110,10,7,6,5,0.8,0.6
2023-10-31T18:00:00,1602A,124.3933,40.1461,丹东市,元宝山,,36,36,38,18,19,109,105,98,98,20,12,6,7,0.6,0.6
2023-10-31T18:00:00,1603A,124.3633,40.1092,丹东市,民主桥,,44,44,48,19,21,114,106,98,98,17,9,6,6,0.8,0.9
2023-10-31T18:00:00,1604A,122.0303,41.1489,盘锦市,开发区,细颗粒物(PM2.5),134,101,78,102,59,110,79,93,93,61,54,8,16,1.8,1.3
2023-10-31T18:00:00,1605A,122.0485,41.0883,盘锦市,兴隆台,细颗粒物(PM2.5),113,114,84,85,50,123,69,98,95,60,46,7,17,1.5,1.1
2023-10-31T18:00:00,1606A,121.8297,41.1028,盘锦市,新生街道,细颗粒物(PM2.5),107,100,70,80,50,132,93,112,112,24,36,7,13,1.2,1
2023-10-31T18:00:00,1607A,120.9092,40.7136,葫芦岛市,龙港区,细颗粒物(PM2.5),162,138,85,123,40,132,128,99,99,23,35,14,16,1.3,0.8
2023-10-31T18:00:00,1608A,120.8392,40.7514,葫芦岛市,化工街,细颗粒物(PM2.5),125,193,123,95,41,113,81,86,86,42,43,8,14,1.5,0.7
2023-10-31T18:00:00,1609A,120.8341,40.7073,葫芦岛市,新区,细颗粒物(PM2.5),163,139,88,124,45,130,89,92,92,59,52,8,22,2.1,0.9
2023-10-31T18:00:00,1610A,120.8695,40.7677,葫芦岛市,东城区,细颗粒物(PM2.5),166,164,102,126,53,124,58,88,88,81,51,11,15,1.9,1
2023-10-31T18:00:00,1611A,118.5819,24.9117,泉州市,涂山街,颗粒物(PM10),52,54,29,14,12,125,98,112,112,14,9,5,5,0.5,0.5
2023-10-31T18:00:00,1612A,118.5972,24.8978,泉州市,津头埔,,47,47,28,14,12,120,97,109,109,19,14,4,3,0.5,0.5
2023-10-31T18:00:00,1613A,118.6663,24.9424,泉州市,万安,,,46,30,14,11,127,104,115,115,,12,,4,0.6,0.5
2023-10-31T18:00:00,1614A,118.6117,24.9604,泉州市,清源山,,,,,,,,,,,,,,,,
2023-10-31T18:00:00,1616A,117.6795,36.229,济南市,技术学院,颗粒物(PM10),81,112,114,39,49,171,141,153,153,38,47,15,13,1.5,1
2023-10-31T18:00:00,1618A,118.3429,35.0532,临沂市,沂河小区,"颗粒物(PM10),细颗粒物(PM2.5)",70,90,108,51,60,175,152,158,158,40,36,12,17,0.5,0.5
2023-10-31T18:00:00,1619A,118.295,35.0583,临沂市,鲁南制药厂,颗粒物(PM10),76,102,112,39,48,198,159,176,176,38,36,10,18,0.8,0.8
2023-10-31T18:00:00,1620A,118.2794,34.9976,临沂市,新光毛纺厂,颗粒物(PM10),73,95,106,48,61,184,159,175,175,38,43,15,18,0.6,0.8
2023-10-31T18:00:00,1621A,118.3956,35.0888,临沂市,河东保险公司,臭氧1小时,69,75,104,44,59,190,175,172,172,29,36,7,13,0.7,0.8
2023-10-31T18:00:00,1622A,116.3032,37.4674,德州市,儿童乐园,颗粒物(PM10),104,158,223,75,158,186,122,138,138,47,49,17,13,1.0,1.3
2023-10-31T18:00:00,1624A,116.2991,37.4451,德州市,监理站,颗粒物(PM10),101,152,232,75,181,175,128,132,132,33,46,20,15,1.0,1.2
2023-10-31T18:00:00,1625A,115.9848,36.4372,聊城市,区政府,颗粒物(PM10),90,129,175,63,106,200,142,144,144,42,47,9,10,0.8,1
2023-10-31T18:00:00,1628A,118.0062,37.3803,滨州市,市环保局,颗粒物(PM10),72,94,151,48,107,140,89,113,110,45,53,12,12,0.9,1
2023-10-31T18:00:00,1629A,118.0018,37.3617,滨州市,第二水厂,颗粒物(PM10),73,95,146,41,84,150,121,118,118,33,61,10,12,0.7,1
2023-10-31T18:00:00,1630A,117.9776,37.393,滨州市,北中新校,颗粒物(PM10),68,85,140,40,78,139,110,113,113,35,59,12,13,0.6,1
2023-10-31T18:00:00,1631A,118.0414,36.8103,淄博市,人民公园,细颗粒物(PM2.5),64,75,91,46,52,163,127,142,142,32,42,11,16,0.6,0.8
2023-10-31T18:00:00,1633A,117.8525,36.4847,淄博市,双山,细颗粒物(PM2.5),69,86,83,50,51,164,143,147,147,25,22,8,10,0.7,0.7
2023-10-31T18:00:00,1634A,117.9592,36.6331,淄博市,气象站,细颗粒物(PM2.5),64,73,85,46,44,152,143,139,139,19,28,9,10,0.3,0.5
2023-10-31T18:00:00,1635A,118.3092,36.8194,淄博市,莆田园,颗粒物(PM10),86,122,109,63,50,176,121,146,146,69,43,20,17,0.9,1.6
2023-10-31T18:00:00,1637A,117.558,34.8438,枣庄市,市中区政府,颗粒物(PM10),81,112,142,58,81,185,146,168,168,47,51,5,8,0.7,0.7
2023-10-31T18:00:00,1638A,117.2852,34.7837,枣庄市,薛城环保局,颗粒物(PM10),78,105,120,51,72,187,122,165,165,63,39,7,9,0.8,0.9
2023-10-31T18:00:00,1639A,117.5852,34.7745,枣庄市,峄城区政府,颗粒物(PM10),90,129,131,51,61,188,139,165,165,47,42,7,9,0.9,0.9
2023-10-31T18:00:00,1640A,117.7276,34.5578,枣庄市,台儿庄区环保局,颗粒物(PM10),59,68,101,39,62,186,114,162,162,65,46,6,6,0.9,0.8
2023-10-31T18:00:00,1641A,117.4518,35.0992,枣庄市,山亭区环保局,颗粒物(PM10),67,83,93,46,54,180,157,167,167,35,29,8,10,0.9,0.9
2023-10-31T18:00:00,1642A,121.2514,37.5639,烟台市,开发区,颗粒物(PM10),65,80,57,46,29,173,136,159,158,32,17,10,9,0.9,0.8
2023-10-31T18:00:00,1643A,121.3719,37.5433,烟台市,轴承厂,颗粒物(PM10),78,105,63,54,35,169,102,154,151,45,15,8,6,0.9,0.7
2023-10-31T18:00:00,1644A,121.3181,37.5436,烟台市,西郊化工站,颗粒物(PM10),70,90,59,47,30,166,131,154,153,40,18,10,7,1.0,0.5
2023-10-31T18:00:00,1645A,121.4478,37.4822,烟台市,莱山环保局,,,,53,,25,168,149,159,159,24,14,8,7,0.7,0.6
2023-10-31T18:00:00,1646A,121.2611,37.4967,烟台市,福山环保局,颗粒物(PM10),76,102,64,34,30,164,120,150,148,44,23,10,8,0.6,0.5
2023-10-31T18:00:00,1650A,119.1437,36.7023,潍坊市,环保局,颗粒物(PM10),76,102,103,41,53,162,103,140,140,76,39,9,10,0.8,0.7
2023-10-31T18:00:00,1653A,116.6251,35.4302,济宁市,火炬城,颗粒物(PM10),59,68,78,31,42,155,135,134,134,26,27,11,14,0.6,0.7
2023-10-31T18:00:00,1655A,116.5491,35.4042,济宁市,电化厂,颗粒物(PM10),70,90,97,31,47,164,120,136,136,39,32,6,12,0.5,0.6
2023-10-31T18:00:00,1656A,117.1437,36.1937,泰安市,监测站,颗粒物(PM10),78,105,101,56,58,167,138,144,144,38,27,12,13,0.9,0.9
2023-10-31T18:00:00,1657A,117.0885,36.2017,泰安市,人口学校,颗粒物(PM10),76,102,89,51,57,165,149,143,143,29,26,9,9,0.7,0.8
2023-10-31T18:00:00,1658A,117.1089,36.1758,泰安市,电力学校,颗粒物(PM10),75,100,107,42,54,161,140,139,139,31,36,11,12,0.4,0.6
2023-10-31T18:00:00,1659A,119.471,35.4209,日照市,监测站,颗粒物(PM10),73,95,82,42,47,159,113,142,142,45,40,13,11,0.9,1
2023-10-31T18:00:00,1660A,119.523,35.4216,日照市,市政府广场,颗粒物(PM10),68,85,87,28,45,176,124,161,161,58,43,10,10,0.7,0.8
2023-10-31T18:00:00,1661A,119.5587,35.4044,日照市,港务局,颗粒物(PM10),69,88,88,35,42,169,111,147,147,59,49,13,12,1.1,1.1
2023-10-31T18:00:00,1662A,122.1214,37.4236,威海市,华夏技校,臭氧1小时,72,66,43,42,22,177,177,157,157,20,13,4,3,0.7,0.5
2023-10-31T18:00:00,1663A,122.0508,37.5236,威海市,山大分校,,,71,51,37,22,165,165,147,147,25,10,6,5,,0.5
2023-10-31T18:00:00,1664A,122.1067,37.5072,威海市,市监测站,臭氧1小时,63,73,51,32,25,170,170,157,157,18,11,9,8,1.0,0.7
2023-10-31T18:00:00,1666A,118.6614,37.4309,东营市,市环保局,颗粒物(PM10),85,119,113,58,65,179,104,150,144,55,53,11,12,0.7,0.7
2023-10-31T18:00:00,1669A,113.5824,24.7733,韶关市,市八中,,35,35,40,24,25,118,97,109,109,22,19,10,14,0.8,0.7
2023-10-31T18:00:00,1671A,113.5917,24.7972,韶关市,园林处,,,,42,24,31,118,105,108,108,12,17,12,18,0.6,0.6
2023-10-31T18:00:00,1672A,113.6735,24.7791,韶关市,韶关学院,,40,29,40,28,31,120,88,108,108,21,17,18,12,0.7,0.5
2023-10-31T18:00:00,1673A,113.5971,24.6863,韶关市,曲江监测站,,37,37,44,22,26,122,104,109,109,15,18,10,12,0.5,0.6
2023-10-31T18:00:00,1674A,116.6794,23.3667,汕头市,金平子站,,36,36,40,11,15,133,110,117,117,10,14,6,9,0.6,0.6
2023-10-31T18:00:00,1675A,116.7244,23.3633,汕头市,龙湖子站,,49,49,33,15,14,137,108,121,121,12,14,6,9,0.6,0.5
2023-10-31T18:00:00,1676A,116.7258,23.2775,汕头市,濠江子站,,34,34,27,16,12,126,102,114,114,6,9,8,9,0.5,0.5
2023-10-31T18:00:00,1677A,116.7519,23.4714,汕头市,澄海子站,,44,44,35,16,17,132,103,114,114,13,16,5,10,0.5,0.5
2023-10-31T18:00:00,1678A,116.6092,23.2539,汕头市,潮阳子站,,48,48,47,15,15,135,114,122,122,5,11,8,9,0.5,0.5
2023-10-31T18:00:00,1680A,110.3539,21.2706,湛江市,湛江影剧院,,46,46,43,20,23,140,140,120,120,14,16,6,15,0.5,0.7
2023-10-31T18:00:00,1681A,110.3928,21.2228,湛江市,市环境监测站,,44,33,38,20,25,140,140,116,116,11,15,3,9,0.7,0.8
2023-10-31T18:00:00,1682A,110.4019,21.1997,湛江市,环保局宿舍,,45,38,41,31,28,137,137,116,116,13,17,4,10,0.6,0.9
2023-10-31T18:00:00,1683A,110.4111,21.2028,湛江市,霞山游泳场,,44,37,40,25,27,139,139,115,115,14,13,4,12,0.6,0.8
2023-10-31T18:00:00,1684A,110.3316,21.2679,湛江市,麻章区环保局,,50,50,44,13,24,129,129,115,115,14,20,3,10,0.6,0.7
2023-10-31T18:00:00,1685A,110.4558,21.2567,湛江市,坡头区环保局,,49,36,38,26,29,156,156,129,129,9,13,5,15,0.6,0.7
2023-10-31T18:00:00,1686A,111.0286,21.4688,茂名市,电白南海,臭氧1小时,57,61,50,39,32,165,165,129,129,19,18,9,12,0.7,0.9
2023-10-31T18:00:00,1687A,110.9294,21.6533,茂名市,茂石化七小,颗粒物(PM10),56,61,41,29,28,108,108,99,99,17,12,8,17,0.7,0.6
2023-10-31T18:00:00,1688A,110.9107,21.6687,茂名市,健康路,,36,36,33,24,25,102,101,99,99,14,12,8,12,0.6,0.6
2023-10-31T18:00:00,1689A,110.8592,21.6828,茂名市,高岭,,,56,41,29,32,122,122,102,102,,15,9,13,0.6,0.8
2023-10-31T18:00:00,1690A,116.1231,24.3284,梅州市,梅江月梅,,34,20,30,2,12,125,106,114,114,7,20,6,7,0.4,0.5
2023-10-31T18:00:00,1691A,116.0797,24.2719,梅州市,梅县新城,,28,26,32,5,12,113,88,100,100,23,23,8,8,0.8,0.7
2023-10-31T18:00:00,1692A,116.1248,24.2654,梅州市,环境监控中心,,39,39,39,10,14,102,56,90,90,43,26,9,9,0.7,0.6
2023-10-31T18:00:00,1693A,115.3653,22.775,汕尾市,市环保局,,37,30,34,11,18,130,118,116,116,10,13,14,14,0.6,0.6
2023-10-31T18:00:00,1694A,115.3706,22.7898,汕尾市,市政府,,39,26,33,9,16,145,122,123,123,5,7,8,8,0.6,0.7
2023-10-31T18:00:00,1695A,115.3622,22.7925,汕尾市,新城中学,,39,39,37,14,20,138,118,119,119,8,10,9,10,0.5,0.6
2023-10-31T18:00:00,1696A,114.6778,23.7569,河源市,源西,,33,33,36,22,22,100,70,88,88,24,21,5,6,0.6,0.6
2023-10-31T18:00:00,1697A,114.6944,23.7586,河源市,东埔,,26,24,38,16,26,98,83,89,89,12,18,6,8,0.6,0.7
2023-10-31T18:00:00,1698A,114.6892,23.7233,河源市,老城,,34,34,39,15,25,109,84,98,98,12,20,5,7,0.6,0.6
2023-10-31T18:00:00,1699A,111.9797,21.8593,阳江市,鸳鸯湖,颗粒物(PM10),80,109,52,27,30,170,170,136,136,13,17,12,15,0.6,0.7
2023-10-31T18:00:00,1701A,111.9491,21.8658,阳江市,马南垌,臭氧1小时,53,52,52,29,34,162,162,131,131,18,28,7,9,0.7,0.7
2023-10-31T18:00:00,1702A,113.0426,23.691,清远市,环保大楼,,37,25,35,12,22,123,116,113,113,13,14,9,11,0.7,0.8
2023-10-31T18:00:00,1703A,113.0208,23.7106,清远市,凤城街办,,36,31,38,24,26,126,115,114,114,15,17,6,6,0.5,0.6
2023-10-31T18:00:00,1705A,116.6367,23.6719,潮州市,西园路,颗粒物(PM10),58,65,45,25,22,142,136,115,115,16,14,5,6,0.6,0.5
2023-10-31T18:00:00,1706A,116.6447,23.6706,潮州市,档案局,颗粒物(PM10),51,52,37,25,22,148,141,120,120,14,13,6,8,0.6,0.6
2023-10-31T18:00:00,1708A,116.3701,23.5345,揭阳市,新兴,颗粒物(PM10),53,56,45,29,23,143,122,126,126,19,18,10,13,0.8,0.7
2023-10-31T18:00:00,1709A,116.3264,23.5443,揭阳市,西马,颗粒物(PM10),57,63,45,22,22,143,131,126,126,12,15,9,10,0.6,0.6
2023-10-31T18:00:00,1710A,116.3611,23.5626,揭阳市,东兴,颗粒物(PM10),54,58,47,18,21,140,130,125,125,19,21,8,12,0.8,0.7
2023-10-31T18:00:00,1711A,116.4151,23.5294,揭阳市,渔湖,颗粒物(PM10),55,60,48,28,22,136,127,128,128,21,22,8,11,0.5,0.5
2023-10-31T18:00:00,1712A,112.0392,22.9169,云浮市,新市府,,29,29,36,19,22,117,86,100,100,7,11,3,4,0.5,0.6
2023-10-31T18:00:00,1714A,112.0539,22.9539,云浮市,牧羊,,31,26,42,19,20,118,98,104,103,16,24,6,7,0.5,0.6
2023-10-31T18:00:00,1715A,102.575,24.3711,玉溪市,东风水库,,42,42,32,26,22,95,82,75,75,9,16,8,9,0.8,1
2023-10-31T18:00:00,1718A,115.4208,35.2464,菏泽市,气象局,颗粒物(PM10),71,91,101,31,44,144,113,126,126,31,42,7,13,0.4,0.5
2023-10-31T18:00:00,1719A,115.4747,35.2375,菏泽市,市政协,颗粒物(PM10),64,77,101,28,47,136,116,127,127,28,48,9,13,0.1,0.4
2023-10-31T18:00:00,1721A,113.3819,40.1097,大同市,果树场,,,,,,,,,,,,,,,,
2023-10-31T18:00:00,1723A,113.2994,40.0758,大同市,云冈宾馆,颗粒物(PM10),73,96,115,16,37,92,49,70,70,48,46,15,26,0.5,0.7
2023-10-31T18:00:00,1724A,113.3444,40.0917,大同市,大同大学,颗粒物(PM10),67,83,122,19,38,95,64,76,76,35,44,15,26,0.4,0.6
2023-10-31T18:00:00,1725A,113.2661,40.1269,大同市,安家小村,颗粒物(PM10),64,78,109,18,31,97,60,80,80,36,33,16,29,0.3,0.9
2023-10-31T18:00:00,1726A,113.2711,40.0844,大同市,教育学院,颗粒物(PM10),77,104,128,18,32,92,54,72,72,46,46,19,32,0.4,0.6
2023-10-31T18:00:00,1727A,113.1147,36.1547,长治市,清华站,,44,44,71,22,36,135,87,115,115,54,37,9,12,0.6,0.7
2023-10-31T18:00:00,1728A,113.1031,36.1989,长治市,监测站,,45,45,65,29,44,138,103,118,118,38,40,9,11,0.9,1
2023-10-31T18:00:00,1730A,113.0886,36.2125,长治市,审计局,颗粒物(PM10),53,55,66,27,44,134,83,111,111,46,40,10,13,0.7,0.8
2023-10-31T18:00:00,1731A,113.0844,36.1856,长治市,长治八中,颗粒物(PM10),58,66,83,32,39,138,101,114,114,34,37,13,16,0.6,0.8
2023-10-31T18:00:00,1733A,111.5531,36.0783,临汾市,临钢医院,细颗粒物(PM2.5),110,148,130,83,75,184,171,146,146,28,42,14,11,2.1,1.5
2023-10-31T18:00:00,1734A,111.5028,36.0714,临汾市,技工学校,细颗粒物(PM2.5),123,157,145,93,87,194,182,153,153,30,58,14,12,1.6,1.5
2023-10-31T18:00:00,1736A,111.5018,36.0855,临汾市,市委,细颗粒物(PM2.5),125,150,144,95,79,188,179,160,160,31,58,16,12,1.5,1.4
2023-10-31T18:00:00,1738A,113.5758,37.8572,阳泉市,市中心,颗粒物(PM10),52,54,115,24,57,135,70,106,106,51,65,11,17,0.8,1
2023-10-31T18:00:00,1739A,113.4894,37.8731,阳泉市,赛鱼,颗粒物(PM10),60,70,92,21,43,136,31,116,110,86,65,10,16,0.7,0.9
2023-10-31T18:00:00,1740A,113.5819,37.8486,阳泉市,南庄,颗粒物(PM10),75,99,160,28,67,126,81,110,106,38,66,11,13,0.7,1
2023-10-31T18:00:00,1742A,113.5614,37.8703,阳泉市,平坦,颗粒物(PM10),58,66,110,13,53,137,91,115,115,36,60,9,14,0.7,1
2023-10-31T18:00:00,1743A,113.5158,37.8392,阳泉市,大阳泉,,40,32,86,28,57,173,121,122,122,19,30,10,14,0.4,0.8
2023-10-31T18:00:00,1744A,118.9233,42.2816,赤峰市,松山一中,,,33,79,,45,117,46,94,71,35,36,10,18,0.7,0.9
2023-10-31T18:00:00,1745A,118.9576,42.2728,赤峰市,哈达街,,49,49,83,20,50,121,28,91,68,56,37,26,24,1.0,1
2023-10-31T18:00:00,1746A,118.8788,42.2554,赤峰市,天义路,颗粒物(PM10),55,60,69,2,33,123,28,81,68,55,36,38,9,0.9,1.2
2023-10-31T18:00:00,1748A,123.044,41.1196,鞍山市,深沟寺,细颗粒物(PM2.5),203,185,112,153,77,137,98,134,125,37,24,12,10,1.5,0.9
2023-10-31T18:00:00,1749A,123.011,41.0931,鞍山市,太阳城,细颗粒物(PM2.5),185,224,123,139,68,144,98,134,124,40,27,13,12,1.6,0.9
2023-10-31T18:00:00,1750A,123.0485,41.1442,鞍山市,太平,细颗粒物(PM2.5),182,227,145,137,76,140,87,132,117,56,33,15,17,1.6,0.9
2023-10-31T18:00:00,1751A,122.9642,41.0971,鞍山市,铁西三道街,细颗粒物(PM2.5),200,249,157,150,79,126,75,119,113,56,36,9,14,1.8,1
2023-10-31T18:00:00,1752A,122.9341,41.0833,鞍山市,铁西工业园区,细颗粒物(PM2.5),186,209,147,140,82,126,80,122,116,48,36,10,16,1.6,1.2
2023-10-31T18:00:00,1753A,123.022,41.0821,鞍山市,明达新区,细颗粒物(PM2.5),182,178,106,137,69,133,82,124,,49,28,15,19,1.1,0.6
2023-10-31T18:00:00,1754A,123.1289,41.0228,鞍山市,千山,,,,,,,,,,,,,,,,
2023-10-31T18:00:00,1755A,123.7977,41.8491,抚顺市,望花区,颗粒物(PM10),95,140,103,25,72,123,66,113,102,16,31,14,16,0.3,0.8
2023-10-31T18:00:00,1756A,123.9161,41.8822,抚顺市,顺城区,颗粒物(PM10),74,97,93,24,63,125,65,114,104,24,34,8,9,0.5,0.8
2023-10-31T18:00:00,1757A,124.0436,41.8611,抚顺市,东洲区,颗粒物(PM10),78,105,72,46,60,141,78,130,112,17,20,6,9,0.7,0.9
2023-10-31T18:00:00,1758A,123.9247,41.8642,抚顺市,新抚区,颗粒物(PM10),86,122,79,46,73,118,66,110,99,22,33,10,9,0.6,0.9
2023-10-31T18:00:00,1759A,124.0972,41.8961,抚顺市,大伙房水库,颗粒物(PM10),87,124,77,32,51,139,78,126,112,13,16,10,9,0.6,0.7
2023-10-31T18:00:00,1760A,123.7086,41.8391,抚顺市,沈抚新城,颗粒物(PM10),92,134,99,32,90,129,66,116,108,17,35,9,13,0.4,1.3
2023-10-31T18:00:00,1761A,123.8275,41.3064,本溪市,大峪,细颗粒物(PM2.5),113,164,108,85,55,140,93,137,121,51,30,12,9,1.4,1.1
2023-10-31T18:00:00,1762A,123.7567,41.3325,本溪市,溪湖,细颗粒物(PM2.5),137,171,124,104,68,154,112,133,133,29,32,14,15,1.4,1.2
2023-10-31T18:00:00,1763A,123.7169,41.3094,本溪市,彩屯,细颗粒物(PM2.5),150,170,134,115,81,143,98,123,122,36,46,14,24,1.3,2.3
2023-10-31T18:00:00,1764A,123.7669,41.2864,本溪市,东明,细颗粒物(PM2.5),144,208,100,110,59,138,106,133,123,48,35,16,12,1.7,1.2
2023-10-31T18:00:00,1765A,123.7992,41.2664,本溪市,新立屯,颗粒物(PM10),104,157,76,59,42,134,31,131,113,82,24,13,11,1.6,1
2023-10-31T18:00:00,1766A,123.8142,41.3472,本溪市,威宁,细颗粒物(PM2.5),138,131,105,105,73,138,69,128,113,63,30,7,7,1.2,1.2
2023-10-31T18:00:00,1767A,121.1115,41.0879,锦州市,南山,细颗粒物(PM2.5),120,164,87,91,58,113,55,94,94,61,42,14,28,1.1,0.9
2023-10-31T18:00:00,1768A,121.0533,40.8434,锦州市,开发区,细颗粒物(PM2.5),165,226,150,125,60,71,55,58,58,90,66,61,31,2.0,0.9
2023-10-31T18:00:00,1769A,121.1836,41.1119,锦州市,百股街道,细颗粒物(PM2.5),119,128,80,90,47,122,39,88,87,77,49,10,34,1.3,0.9
2023-10-31T18:00:00,1770A,121.1178,41.1222,锦州市,天安街道,细颗粒物(PM2.5),122,165,105,92,61,112,33,87,87,94,56,16,28,1.5,1.2
2023-10-31T18:00:00,1771A,121.1303,41.1386,锦州市,北湖公园,细颗粒物(PM2.5),123,140,86,93,57,116,31,90,89,84,45,14,24,1.3,1
2023-10-31T18:00:00,1772A,126.54,43.8622,吉林市,哈达湾,颗粒物(PM10),53,55,98,16,62,108,76,98,95,20,31,6,8,0.6,0.8
2023-10-31T18:00:00,1773A,126.5844,43.8358,吉林市,东局子,,49,49,96,23,59,98,68,91,88,25,33,6,7,0.6,0.8
2023-10-31T18:00:00,1774A,126.5052,43.8245,吉林市,电力学院,,49,49,101,24,59,98,73,88,88,16,37,7,13,0.6,1
2023-10-31T18:00:00,1775A,126.6133,43.8972,吉林市,江北,,50,50,108,18,68,93,71,88,83,22,42,9,10,0.6,0.9
2023-10-31T18:00:00,1776A,126.555,43.8306,吉林市,江南公园,,50,50,94,23,62,105,70,95,92,20,34,8,10,0.6,0.8
2023-10-31T18:00:00,1778A,126.7061,43.7133,吉林市,丰满,,,,,,,,,,,,,,,,
2023-10-31T18:00:00,1779A,123.9305,47.3636,齐齐哈尔市,安居小区,细颗粒物(PM2.5),103,76,61,77,49,56,49,52,52,16,18,5,7,0.4,0.3
2023-10-31T18:00:00,1780A,123.9488,47.3386,齐齐哈尔市,中心广场,细颗粒物(PM2.5),85,90,70,63,46,54,47,48,48,19,19,2,4,0.7,0.6
2023-10-31T18:00:00,1781A,123.9483,47.3227,齐齐哈尔市,农牧车辆厂,颗粒物(PM10),64,78,63,41,35,57,50,51,51,18,18,6,9,0.5,0.5
2023-10-31T18:00:00,1783A,123.945,47.2988,齐齐哈尔市,市环境监测站,细颗粒物(PM2.5),82,72,66,60,45,59,52,52,52,18,19,4,6,0.4,0.4
2023-10-31T18:00:00,1784A,129.61,44.561,牡丹江市,环保大楼,细颗粒物(PM2.5),110,81,105,83,71,81,18,22,22,64,50,7,11,1.2,0.9
2023-10-31T18:00:00,1785A,129.6115,44.5782,牡丹江市,文化广场,细颗粒物(PM2.5),104,84,123,78,82,89,14,18,12,64,57,8,11,1.2,0.9
2023-10-31T18:00:00,1786A,129.5904,44.5963,牡丹江市,第一医院,细颗粒物(PM2.5),147,105,103,112,83,91,2,29,5,68,48,9,11,1.4,0.9
2023-10-31T18:00:00,1787A,129.6364,44.6075,牡丹江市,机车工厂,细颗粒物(PM2.5),102,98,142,76,88,80,10,17,8,56,47,8,10,1.2,1.1
2023-10-31T18:00:00,1788A,129.6386,44.5462,牡丹江市,第一中学,细颗粒物(PM2.5),68,75,98,49,70,86,54,34,34,32,43,7,9,0.8,0.8
2023-10-31T18:00:00,1789A,124.81117,46.03138,大庆市,大同区,细颗粒物(PM2.5),104,110,79,78,45,76,50,60,60,15,19,5,8,0.5,0.6
2023-10-31T18:00:00,1790A,125.129,46.533,大庆市,龙凤区,细颗粒物(PM2.5),70,66,70,51,54,70,36,54,54,20,17,4,6,0.6,0.5
2023-10-31T18:00:00,1791A,124.902,46.408,大庆市,红岗区,细颗粒物(PM2.5),78,62,67,57,46,75,39,59,58,19,20,4,7,0.3,0.4
2023-10-31T18:00:00,1792A,125.153,46.586,大庆市,萨尔图区,细颗粒物(PM2.5),60,50,78,43,61,71,39,56,55,21,19,4,6,0.2,0.3
2023-10-31T18:00:00,1793A,124.9042,46.6215,大庆市,让胡路区,细颗粒物(PM2.5),59,62,62,42,39,70,40,56,55,15,19,3,5,0.5,0.5
2023-10-31T18:00:00,1794A,118.3606,31.3519,芜湖市,监测站,颗粒物(PM10),66,82,86,37,47,170,91,135,135,83,60,10,11,0.9,0.9
2023-10-31T18:00:00,1795A,118.3714,31.4134,芜湖市,科创中心,颗粒物(PM10),66,81,95,36,57,168,122,133,133,56,76,9,11,0.9,1
2023-10-31T18:00:00,1796A,118.3673,31.3131,芜湖市,四水厂,颗粒物(PM10),56,61,82,32,46,175,127,138,138,39,41,7,8,0.7,0.8
2023-10-31T18:00:00,1798A,118.5092,31.6837,马鞍山市,湖东路四小,细颗粒物(PM2.5),74,94,78,54,52,173,134,146,146,42,40,10,12,1.2,1
2023-10-31T18:00:00,1799A,118.5024,31.6449,马鞍山市,开发区,细颗粒物(PM2.5),69,83,90,50,57,168,139,144,144,38,48,11,13,0.8,1
2023-10-31T18:00:00,1800A,118.5228,31.7231,马鞍山市,慈湖,细颗粒物(PM2.5),100,105,82,75,51,169,130,145,145,56,49,9,12,1.0,0.9
2023-10-31T18:00:00,1802A,118.6245,31.7241,马鞍山市,濮塘,细颗粒物(PM2.5),70,71,68,51,39,164,140,150,150,18,16,7,10,0.8,0.7
2023-10-31T18:00:00,1803A,115.9872,29.6815,九江市,十里,颗粒物(PM10),54,57,88,31,59,200,116,158,158,26,48,9,8,1.0,1.2
2023-10-31T18:00:00,1804A,115.9584,29.7046,九江市,茅山头,颗粒物(PM10),53,55,98,29,68,208,125,158,158,31,57,10,10,0.9,1.2
2023-10-31T18:00:00,1805A,115.9877,29.7295,九江市,西园,颗粒物(PM10),58,66,119,35,74,176,108,139,139,35,64,7,10,1.1,1.3
2023-10-31T18:00:00,1806A,116.0172,29.6547,九江市,五七二七厂,颗粒物(PM10),57,64,80,33,58,182,133,159,159,14,14,11,12,0.6,0.8
2023-10-31T18:00:00,1808A,115.9114,29.6038,九江市,综合工业园,颗粒物(PM10),56,62,81,36,53,165,113,141,141,47,39,12,11,0.7,0.8
2023-10-31T18:00:00,1809A,116.0721,29.7535,九江市,石化总厂,颗粒物(PM10),60,69,146,32,93,175,108,127,127,54,82,12,15,0.6,1.3
2023-10-31T18:00:00,1810A,115.9773,29.5698,九江市,庐山气象台,,39,22,27,12,20,152,122,133,133,2,5,7,6,0.5,0.6
2023-10-31T18:00:00,1812A,112.3931,34.6516,洛阳市,市委党校,,,58,99,26,61,121,53,104,96,,55,5,8,0.6,0.8
2023-10-31T18:00:00,1814A,112.4657,34.6871,洛阳市,豫西宾馆,颗粒物(PM10),58,66,115,28,58,129,54,94,94,70,55,3,7,0.8,0.9
2023-10-31T18:00:00,1815A,112.494,34.6886,洛阳市,河南林校,,46,46,89,21,49,126,70,94,94,51,49,3,4,0.6,0.6
2023-10-31T18:00:00,1816A,112.3844,34.623,洛阳市,开发区管委会,,41,41,74,22,45,130,88,103,101,22,41,3,2,0.4,0.5
2023-10-31T18:00:00,1817A,112.4267,34.6258,洛阳市,市委新办公区,,50,50,74,23,42,134,70,104,104,45,47,2,3,0.6,0.7
2023-10-31T18:00:00,1818A,114.4839,36.0621,安阳市,棉研所,,,,,,,,,,,,,,,,
2023-10-31T18:00:00,1819A,114.3551,36.1017,安阳市,红庙街,颗粒物(PM10),103,155,235,60,158,189,151,159,159,38,60,11,14,1.2,2.1
2023-10-31T18:00:00,1820A,114.361,36.0681,安阳市,银杏小区,细颗粒物(PM2.5),78,93,194,57,155,185,149,151,151,33,50,11,12,0.7,1.6
2023-10-31T18:00:00,1824A,114.3389,34.7781,开封市,肿瘤医院,颗粒物(PM10),67,84,92,27,46,129,95,110,110,32,47,4,5,0.7,0.8
2023-10-31T18:00:00,1826A,114.2885,34.7965,开封市,世纪星幼儿园,颗粒物(PM10),66,82,82,27,37,138,101,114,114,28,40,9,10,0.7,0.7
2023-10-31T18:00:00,1828A,113.227,35.2125,焦作市,市环保局,颗粒物(PM10),82,113,131,32,76,179,115,118,118,40,41,11,19,0.5,0.9
2023-10-31T18:00:00,1830A,113.1992,35.2590,焦作市,影视城,,,,,,,,,,,,,,,,
2023-10-31T18:00:00,1832A,113.3257,33.742,平顶山市,新华旅馆,颗粒物(PM10),53,56,58,33,30,108,83,99,99,20,19,7,7,0.6,0.6
2023-10-31T18:00:00,1833A,113.2919,33.737,平顶山市,规划设计院,,50,50,44,19,25,109,90,100,100,17,21,8,8,0.3,0.4
2023-10-31T18:00:00,1834A,113.182,33.774,平顶山市,平顶山工学院,,49,49,43,14,16,124,97,108,108,16,16,6,6,0.3,0.3
2023-10-31T18:00:00,1835A,111.1922,34.7752,三门峡市,市政府,颗粒物(PM10),71,92,71,44,35,133,93,99,99,57,56,13,11,0.9,0.8
2023-10-31T18:00:00,1836A,111.1587,34.7942,三门峡市,开发区,细颗粒物(PM2.5),92,108,93,68,45,142,115,108,108,21,35,12,10,0.6,0.7
2023-10-31T18:00:00,1838A,111.143,34.7955,三门峡市,风景区,,,,,,,,,,,,,,,,
2023-10-31T18:00:00,1840A,111.2992,30.6981,宜昌市,白龙岗,,41,41,32,12,17,122,88,82,82,39,32,8,6,0.6,0.5
2023-10-31T18:00:00,1841A,111.3549,30.6465,宜昌市,伍家岗,,30,29,33,19,20,143,95,95,95,32,37,8,7,0.4,0.5
2023-10-31T18:00:00,1842A,111.2628,30.6961,宜昌市,点军区,,32,31,27,22,19,133,97,87,87,42,28,10,8,0.6,0.6
2023-10-31T18:00:00,1843A,111.3275,30.7819,宜昌市,夷陵区,,,,39,,19,130,89,93,93,,30,8,7,,0.4
2023-10-31T18:00:00,1844A,112.2494,30.3197,荆州市,市图书馆,,42,41,49,29,35,146,126,123,123,23,25,8,10,0.6,0.6
2023-10-31T18:00:00,1845A,112.2008,30.3544,荆州市,市委党校,,41,38,61,26,37,140,131,122,122,21,29,8,10,0.5,0.6
2023-10-31T18:00:00,1847A,113.1094,29.3578,岳阳市,南湖风景区,,50,49,63,35,46,179,120,150,150,33,38,4,6,1.1,1
2023-10-31T18:00:00,1848A,113.1493,29.4251,岳阳市,城陵矶,,49,49,80,31,45,161,120,140,140,38,56,8,19,0.5,0.8
2023-10-31T18:00:00,1849A,113.1497,29.3575,岳阳市,开发区,,,,77,,63,30,,94,,,72,,9,,0.8
2023-10-31T18:00:00,1850A,113.2621,29.4758,岳阳市,云溪区,细颗粒物(PM2.5),57,50,62,40,45,165,121,145,145,54,32,9,9,0.8,0.9
2023-10-31T18:00:00,1851A,112.9943,29.4402,岳阳市,君山区,,47,47,65,27,51,167,125,145,145,45,45,6,7,0.8,0.7
2023-10-31T18:00:00,1852A,113.2117,29.355,岳阳市,金凤水库,,49,45,58,28,39,176,154,153,153,17,16,4,6,0.6,0.6
2023-10-31T18:00:00,1854A,111.6975,28.9703,常德市,市二中,,34,30,30,12,20,115,107,98,98,13,23,8,10,0.4,0.5
2023-10-31T18:00:00,1857A,111.7158,29.1456,常德市,白鹤山,,27,27,43,12,19,115,73,96,96,6,8,3,3,0.5,0.5
2023-10-31T18:00:00,1858A,110.5319,29.1217,张家界市,永定新区,,,,26,16,14,87,57,71,71,,14,6,6,0.2,0.5
2023-10-31T18:00:00,1859A,110.4697,29.1242,张家界市,电业局,,36,36,30,11,11,84,47,64,64,33,20,8,8,0.6,0.5
2023-10-31T18:00:00,1860A,110.5594,29.3547,张家界市,未央路,,20,20,18,11,10,97,40,76,76,27,11,3,3,0.2,0.2
2023-10-31T18:00:00,1861A,110.4417,29.315,张家界市,袁家界,,16,14,13,7,8,86,51,70,70,16,6,6,7,0.4,0.4
2023-10-31T18:00:00,1862A,110.4144,25.3167,桂林市,电子科大尧山校区,,,44,31,19,21,119,100,107,107,,8,5,3,0.5,0.6
2023-10-31T18:00:00,1863A,110.2819,25.2697,桂林市,监测站,,37,32,41,25,22,125,116,115,115,15,20,9,9,0.3,0.5
2023-10-31T18:00:00,1864A,110.3089,25.2708,桂林市,龙隐路小学,,36,30,35,19,23,121,113,113,113,13,14,7,11,0.6,0.7
2023-10-31T18:00:00,1865A,110.2869,25.2178,桂林市,八中,,42,42,48,25,28,122,122,,,15,26,6,6,0.5,0.7
2023-10-31T18:00:00,1866A,109.2262,21.588,北海市,牛尾岭水库,,,,,,,,,,,,,,,,
2023-10-31T18:00:00,1867A,109.1436,21.4086,北海市,海滩公园,,35,35,39,20,22,128,109,106,106,9,9,6,7,0.9,0.9
2023-10-31T18:00:00,1868A,109.0981,21.4661,北海市,新市环保局,,42,41,37,29,30,123,102,105,105,18,10,6,7,0.8,0.8
2023-10-31T18:00:00,1869A,109.1778,21.5233,北海市,北海工业园,,34,34,42,22,29,115,107,104,104,10,11,6,8,0.7,0.8
2023-10-31T18:00:00,1870A,109.4856,24.3895,柳州市,柳东小学,,,29,36,23,29,114,113,104,104,7,12,8,12,,0.5
2023-10-31T18:00:00,1871A,109.4157,24.3277,柳州市,环保监测站,,40,40,56,12,36,116,110,101,101,18,30,12,10,0.8,0.9
2023-10-31T18:00:00,1872A,109.389,24.341,柳州市,河西水厂,,48,37,66,33,36,119,112,99,99,14,26,15,15,1.0,1.1
2023-10-31T18:00:00,1873A,109.4311,24.2921,柳州市,市四中,,33,32,51,23,31,122,103,106,106,31,29,9,9,1.0,1.1
2023-10-31T18:00:00,1874A,109.4006,24.3631,柳州市,市九中,,42,42,59,26,35,118,112,104,104,11,24,7,8,0.7,0.9
2023-10-31T18:00:00,1875A,109.4958,24.3134,柳州市,古亭山,,42,42,35,23,24,123,100,110,110,14,26,7,8,0.4,0.5
2023-10-31T18:00:00,1876A,109.5078,18.2489,三亚市,河东子站,,37,37,30,18,15,111,104,108,108,7,5,4,4,0.5,0.4
2023-10-31T18:00:00,1877A,109.4964,18.2681,三亚市,河西子站,,36,36,30,20,15,109,100,104,104,6,4,2,3,0.3,0.3
2023-10-31T18:00:00,1878A,104.7778,31.4741,绵阳市,富乐山,细颗粒物(PM2.5),52,50,57,36,45,98,60,82,82,13,24,7,6,0.6,0.7
2023-10-31T18:00:00,1879A,104.7563,31.4535,绵阳市,市人大,细颗粒物(PM2.5),60,53,64,43,45,79,54,65,65,51,33,8,8,0.9,0.8
2023-10-31T18:00:00,1880A,104.6697,31.4668,绵阳市,高新区自来水公司,,46,46,59,31,31,98,80,74,74,26,29,6,7,0.5,0.6
2023-10-31T18:00:00,1881A,104.7287,31.5075,绵阳市,三水厂,细颗粒物(PM2.5),62,70,76,44,53,82,34,63,63,64,39,5,5,0.8,0.8
2023-10-31T18:00:00,1882A,104.563,28.793,宜宾市,石马中学,,,,,,,,,,,,,,,,
2023-10-31T18:00:00,1883A,104.6201,28.7728,宜宾市,市委,细颗粒物(PM2.5),52,49,75,36,53,119,113,86,86,16,36,9,8,0.6,0.7
2023-10-31T18:00:00,1884A,104.6055,28.793,宜宾市,宜宾四中,细颗粒物(PM2.5),54,50,76,38,56,109,102,79,79,23,40,11,10,0.6,0.6
2023-10-31T18:00:00,1885A,104.639,28.7562,宜宾市,市政府,细颗粒物(PM2.5),59,60,72,42,55,118,114,89,89,21,36,16,9,0.6,0.7
2023-10-31T18:00:00,1886A,104.5742,28.7199,宜宾市,黄金嘴,细颗粒物(PM2.5),52,48,63,36,45,128,115,93,93,16,32,9,8,0.6,0.6
2023-10-31T18:00:00,1888A,101.6891,26.571,攀枝花市,弄弄坪,颗粒物(PM10),55,59,55,32,33,131,123,90,90,17,29,41,28,1.0,1.4
2023-10-31T18:00:00,1889A,101.5769,26.5928,攀枝花市,河门口,,44,44,44,27,27,140,128,101,101,17,26,31,21,1.1,1.4
2023-10-31T18:00:00,1890A,101.7169,26.585,攀枝花市,炳草岗,颗粒物(PM10),60,70,65,21,35,136,120,94,94,33,46,34,30,1.0,1.1
2023-10-31T18:00:00,1891A,101.7369,26.5008,攀枝花市,仁和,,39,39,43,22,27,131,109,105,105,18,22,21,17,0.5,0.8
2023-10-31T18:00:00,1893A,105.4324,28.9634,泸州市,九狮山,细颗粒物(PM2.5),54,47,54,38,40,102,87,73,73,15,17,7,5,0.5,0.6
2023-10-31T18:00:00,1894A,105.4427,28.9063,泸州市,小市上码头,细颗粒物(PM2.5),57,52,76,40,51,115,96,73,73,14,29,10,9,0.5,0.6
2023-10-31T18:00:00,1895A,105.4241,28.8573,泸州市,兰田宪桥,细颗粒物(PM2.5),60,63,73,43,47,100,94,72,72,17,28,7,7,0.7,0.8
2023-10-31T18:00:00,1896A,105.4379,28.8833,泸州市,市环监站,,47,47,70,29,43,84,74,56,56,23,35,6,6,0.8,0.9
2023-10-31T18:00:00,1901A,104.4239,31.1208,德阳市,东山公园,颗粒物(PM10),70,90,75,0,34,92,92,72,72,22,24,2,3,0.6,0.7
2023-10-31T18:00:00,1902A,104.3826,31.1317,德阳市,西小区,细颗粒物(PM2.5),89,82,78,66,55,91,76,63,63,31,28,2,23,0.6,0.8
2023-10-31T18:00:00,1904A,104.3553,31.1091,德阳市,耐火材料厂,细颗粒物(PM2.5),83,101,89,61,49,98,63,67,67,40,28,1,10,0.6,0.5
2023-10-31T18:00:00,1905A,106.056,30.8064,南充市,西山风景区,细颗粒物(PM2.5),60,50,37,43,34,93,51,44,36,28,22,3,6,0.5,0.9
2023-10-31T18:00:00,1906A,106.0789,30.8023,南充市,南充市委,细颗粒物(PM2.5),68,64,59,49,42,64,51,38,38,27,34,4,4,0.6,0.6
2023-10-31T18:00:00,1907A,106.1031,30.8217,南充市,南充炼油厂,颗粒物(PM10),53,55,61,27,32,71,56,40,40,18,28,4,5,0.1,0.2
2023-10-31T18:00:00,1908A,106.1064,30.7856,南充市,高坪区监测站,,39,39,61,23,38,67,61,40,40,19,34,5,6,0.3,0.5
2023-10-31T18:00:00,1909A,106.0642,30.7636,南充市,嘉陵区环保局,"颗粒物(PM10),细颗粒物(PM2.5)",55,59,57,39,40,45,37,30,30,40,44,2,4,0.5,0.5
2023-10-31T18:00:00,1910A,106.1087,30.8388,南充市,市环境监测站,,48,43,53,33,41,80,57,39,39,18,26,4,8,0.5,0.5
2023-10-31T18:00:00,1911A,106.9222,27.6869,遵义市,丁字口,,32,17,24,22,21,100,61,76,76,36,29,8,7,0.7,0.8
2023-10-31T18:00:00,1912A,106.9242,27.7019,遵义市,凤凰山,,34,27,29,22,23,115,107,92,92,11,15,9,11,0.4,0.5
2023-10-31T18:00:00,1913A,106.8906,27.6486,遵义市,忠庄,,33,25,35,23,22,104,88,85,85,12,25,1,3,0.0,0.4
2023-10-31T18:00:00,1914A,106.9231,27.6506,遵义市,舟水桥,,35,33,37,24,20,109,95,89,89,8,15,5,3,0.5,0.5
2023-10-31T18:00:00,1915A,106.9178,27.72,遵义市,干田坝,,36,32,28,25,19,115,87,88,88,20,26,7,7,0.4,0.5
2023-10-31T18:00:00,1916A,103.7897,25.5035,曲靖市,环境监测站,颗粒物(PM10),53,55,44,19,27,102,82,91,91,22,16,6,5,0.4,0.6
2023-10-31T18:00:00,1917A,103.8,25.5364,曲靖市,烟厂办公区,,32,32,41,17,24,102,91,91,91,14,13,4,5,0.6,0.7
2023-10-31T18:00:00,1918A,108.7197,34.3956,咸阳市,气象站,,,,,,,,,,,,,,,,
2023-10-31T18:00:00,1919A,108.673,34.3155,咸阳市,实验中学,,46,46,107,13,44,52,29,28,28,46,57,2,3,0.4,0.8
2023-10-31T18:00:00,1920A,108.7233,34.3617,咸阳市,师范学院,,42,42,96,11,50,59,35,35,35,40,48,4,5,0.5,0.8
2023-10-31T18:00:00,1922A,109.0656,35.0994,铜川市,党校,颗粒物(PM10),57,64,95,28,38,92,30,67,67,76,57,9,8,1.0,1
2023-10-31T18:00:00,1923A,109.0697,35.0697,铜川市,王益区政府,颗粒物(PM10),53,55,80,21,38,102,53,80,80,49,42,5,4,0.6,0.7
2023-10-31T18:00:00,1924A,108.9344,34.9058,铜川市,新区管委会,颗粒物(PM10),54,58,70,23,30,105,65,83,83,38,36,6,6,0.4,0.5
2023-10-31T18:00:00,1926A,109.4131,36.6275,延安市,枣园,,31,31,42,16,17,122,79,94,94,32,34,7,7,0.4,0.4
2023-10-31T18:00:00,1927A,109.4761,36.6028,延安市,延大医附院,,46,46,53,18,19,111,33,78,78,71,39,5,3,1.0,0.8
2023-10-31T18:00:00,1929A,109.5056,36.6106,延安市,百米大道,颗粒物(PM10),52,54,54,16,22,104,20,74,74,93,54,4,3,0.8,0.8
2023-10-31T18:00:00,1930A,107.185,34.3063,宝鸡市,庙沟村,,22,17,19,13,14,87,69,77,77,4,4,8,8,0.3,0.3
2023-10-31T18:00:00,1931A,107.0708,34.3017,宝鸡市,竹园沟,,,5,19,11,15,94,84,87,87,,11,7,6,0.5,0.4
2023-10-31T18:00:00,1932A,107.1906,34.3672,宝鸡市,三陆医院,,23,23,46,7,24,86,64,19,,29,49,7,8,0.5,0.6
2023-10-31T18:00:00,1933A,107.1431,34.3547,宝鸡市,监测站,,23,19,31,11,19,84,73,73,73,14,22,6,6,0.4,0.5
2023-10-31T18:00:00,1934A,107.1186,34.3739,宝鸡市,技工学校,,,9,26,12,17,89,,83,83,17,18,7,6,,0.5
2023-10-31T18:00:00,1935A,107.3906,34.3528,宝鸡市,陈仓区环保局家属楼,,28,28,61,12,31,102,63,74,74,30,45,8,14,0.5,0.7
2023-10-31T18:00:00,1936A,107.2058,34.3497,宝鸡市,文理学院,,21,21,42,10,23,87,67,69,69,28,36,4,6,0.5,0.5
2023-10-31T18:00:00,1937A,107.2386,34.3622,宝鸡市,三迪小学,,23,17,53,16,27,86,67,66,66,27,47,6,9,0.4,0.5
2023-10-31T18:00:00,1938A,109.5293,34.5101,渭南市,农科所,,,,,,,,,,,,,,,,
2023-10-31T18:00:00,1939A,109.4974,34.4877,渭南市,日报社,颗粒物(PM10),56,61,102,15,64,61,37,39,39,60,67,5,6,0.5,0.6
2023-10-31T18:00:00,1940A,109.4636,34.493,渭南市,体育馆,颗粒物(PM10),54,58,99,24,58,71,39,42,42,58,69,5,10,0.6,0.7
2023-10-31T18:00:00,1941A,109.4259,34.5023,渭南市,高新一小,颗粒物(PM10),55,59,111,24,69,84,55,47,47,27,60,7,7,0.6,0.7
2023-10-31T18:00:00,1944A,102.1692,38.5167,金昌市,天庆家园,颗粒物(PM10),51,52,56,13,14,113,106,102,102,15,26,14,11,0.7,0.7
2023-10-31T18:00:00,1945A,98.2908,39.7711,嘉峪关市,气象局,颗粒物(PM10),62,73,45,14,12,107,99,89,89,16,25,5,7,0.4,0.4
2023-10-31T18:00:00,1947A,106.3394,38.817,石嘴山市,沙湖旅游区,颗粒物(PM10),60,69,98,23,36,106,87,80,80,12,34,8,20,0.2,0.8
2023-10-31T18:00:00,1948A,106.3668,39.0145,石嘴山市,大武口朝阳西街,颗粒物(PM10),57,63,98,10,33,103,103,77,77,6,39,5,44,0.1,0.9
2023-10-31T18:00:00,1949A,106.7704,39.2282,石嘴山市,惠农南大街,颗粒物(PM10),58,65,82,23,23,98,96,69,69,16,37,2,13,0.5,0.9
2023-10-31T18:00:00,1950A,106.7099,39.1325,石嘴山市,红果子镇惠新街,颗粒物(PM10),70,90,83,14,25,95,93,74,74,17,33,9,23,0.2,0.6
2023-10-31T18:00:00,1951A,84.895,45.6094,克拉玛依市,长征新村,,43,43,33,1,6,53,42,44,44,25,23,11,10,0.4,0.4
2023-10-31T18:00:00,1952A,84.8988,45.5893,克拉玛依市,南林小区,,46,46,40,25,21,56,43,43,43,26,22,4,4,0.4,0.4
2023-10-31T18:00:00,1954A,84.905,44.3396,克拉玛依市,独山子区,颗粒物(PM10),75,99,86,44,32,72,62,42,42,30,44,14,10,0.6,0.7
2023-10-31T18:00:00,1955A,85.6979,46.098,克拉玛依市,乌尔禾区商贸楼,,27,27,23,9,13,59,53,47,47,12,19,10,9,0.3,0.4
2023-10-31T18:00:00,1956A,86.1472,41.7538,巴音郭楞州,孔雀公园,颗粒物(PM10),76,102,116,22,36,106,100,71,71,10,57,4,6,0.3,0.8
2023-10-31T18:00:00,1957A,86.1972,41.7166,巴音郭楞州,棉纺厂,颗粒物(PM10),67,83,142,18,39,103,99,80,80,10,48,3,3,0.2,0.5
2023-10-31T18:00:00,1958A,86.2357,41.7173,巴音郭楞州,经济开发区,颗粒物(PM10),56,61,123,18,29,107,106,88,88,6,33,4,4,0.2,0.4
2023-10-31T18:00:00,1961A,117.532,36.6868,济南市,东山小学,颗粒物(PM10),67,83,91,42,45,166,150,148,148,30,28,8,10,0.4,0.4
2023-10-31T18:00:00,1966A,120.0405,35.8735,青岛市,黄岛区4号,颗粒物(PM10),67,83,80,41,41,200,165,183,183,34,22,8,11,0.9,1
2023-10-31T18:00:00,1982A,122.0693,37.2174,威海市,文登开发区,臭氧1小时,72,75,55,34,19,177,177,162,162,13,8,9,8,1.0,0.8
2023-10-31T18:00:00,2031A,113.1817,27.9958,株洲市,云田中学,细颗粒物(PM2.5),54,52,68,38,51,182,136,159,159,43,28,8,8,0.8,0.9
2023-10-31T18:00:00,2054A,114.1099,32.1059,信阳市,平桥分局,颗粒物(PM10),70,89,48,36,34,156,135,142,142,20,16,4,5,0.5,0.5
2023-10-31T18:00:00,2064A,113.9956,32.1271,信阳市,南湾水厂,颗粒物(PM10),54,57,57,29,36,168,161,160,160,12,13,5,6,0.7,0.7
2023-10-31T18:00:00,2065A,114.0775,32.1195,信阳市,市酿酒公司,,,49,51,39,37,155,139,145,145,22,17,4,5,,0.7
2023-10-31T18:00:00,2066A,114.0609,32.1399,信阳市,审计局,细颗粒物(PM2.5),57,49,56,40,39,159,153,153,153,14,13,6,7,0.6,0.6
2023-10-31T18:00:00,2067A,114.6613,33.6128,周口市,市环境监测站,颗粒物(PM10),55,60,70,24,36,128,96,116,116,26,28,7,8,0.3,0.3
2023-10-31T18:00:00,2068A,114.6758,33.6347,周口市,周口师范,颗粒物(PM10),58,65,64,14,31,128,99,116,116,29,25,5,6,0.3,0.5
2023-10-31T18:00:00,2069A,114.6546,33.5979,周口市,市运管处,颗粒物(PM10),51,52,69,22,38,124,93,112,112,25,29,4,5,0.5,0.6
2023-10-31T18:00:00,2070A,114.6369,33.6406,周口市,川汇区环保局,颗粒物(PM10),57,64,64,26,33,118,91,107,107,25,23,8,8,0.4,0.5
2023-10-31T18:00:00,2075A,117.6336,24.4674,漳州市,九湖,,,,,,,,,,,,,,,,
2023-10-31T18:00:00,2160A,112.85,35.5051,晋城市,自来水公司,,,,110,31,63,153,120,126,126,32,54,12,14,1.2,1.7
2023-10-31T18:00:00,2161A,112.8318,35.4936,晋城市,白云商贸,,,,116,,61,152,,127,127,33,47,7,10,1.0,1.9
2023-10-31T18:00:00,2162A,112.8508,35.4887,晋城市,市环保局,颗粒物(PM10),68,86,116,31,61,153,121,126,126,35,62,12,10,1.2,1.9
2023-10-31T18:00:00,2163A,112.8676,35.4897,晋城市,技术学院,,46,46,111,29,65,152,132,129,129,28,59,12,11,0.8,1.4
2023-10-31T18:00:00,2165A,112.8453,35.546,晋城市,白马寺,,,,,,,,,,,,,,,,
2023-10-31T18:00:00,2166A,112.4397,39.3522,朔州市,平朔,颗粒物(PM10),52,53,85,19,27,109,97,98,98,14,23,8,11,0.5,0.6
2023-10-31T18:00:00,2167A,112.4575,39.3617,朔州市,朔唯,颗粒物(PM10),54,58,155,12,42,99,88,86,86,22,50,9,20,0.9,0.9
2023-10-31T18:00:00,2168A,112.4258,39.3197,朔州市,区政府,,,,71,,21,104,,98,98,16,17,8,9,0.4,0.5
2023-10-31T18:00:00,2169A,112.4072,39.3278,朔州市,市环保局,颗粒物(PM10),63,76,74,8,21,101,85,95,95,25,17,10,9,0.5,0.5
2023-10-31T18:00:00,2170A,112.4272,39.3681,朔州市,市二中,颗粒物(PM10),53,55,75,18,21,106,98,94,94,12,23,9,11,0.4,0.4
2023-10-31T18:00:00,2171A,112.7532,37.6945,晋中市,锦纶小区,颗粒物(PM10),89,127,97,48,47,160,63,123,123,74,52,12,14,0.9,0.6
2023-10-31T18:00:00,2173A,112.7249,37.7067,晋中市,南都小区,颗粒物(PM10),82,113,99,44,44,144,67,119,119,72,59,15,14,1.0,0.7
2023-10-31T18:00:00,2174A,112.6991,37.6982,晋中市,榆次区政府,颗粒物(PM10),95,139,89,42,38,143,53,124,115,102,58,16,15,1.0,0.9
2023-10-31T18:00:00,2175A,110.9956,35.0147,运城市,运城中学,颗粒物(PM10),97,144,176,63,108,183,133,142,142,33,39,10,13,0.8,1.1
2023-10-31T18:00:00,2178A,110.9686,35.0303,运城市,地区技校,颗粒物(PM10),104,158,187,77,103,182,,144,144,35,55,8,10,0.9,1.3
2023-10-31T18:00:00,2179A,111.0414,35.1147,运城市,空港新区,细颗粒物(PM2.5),113,150,195,85,112,178,159,149,149,35,56,9,10,0.9,1
2023-10-31T18:00:00,2181A,112.7383,38.4519,忻州市,开发区,颗粒物(PM10),68,86,96,32,44,107,104,87,87,37,51,19,20,0.9,0.8
2023-10-31T18:00:00,2182A,112.7003,38.4928,忻州市,会展中心,颗粒物(PM10),61,71,106,34,58,101,96,82,82,37,56,20,19,0.9,1
2023-10-31T18:00:00,2183A,111.1406,37.5211,吕梁市,环保局,颗粒物(PM10),63,75,86,39,29,110,22,77,77,87,55,3,5,0.7,0.6
2023-10-31T18:00:00,2185A,111.1297,37.5136,吕梁市,自来水公司,颗粒物(PM10),57,63,135,38,38,106,28,76,76,84,53,3,12,1.3,0.7
2023-10-31T18:00:00,2187A,106.8174,39.6973,乌海市,市林业局,颗粒物(PM10),59,68,82,23,22,102,98,94,94,8,22,9,16,0.6,0.8
2023-10-31T18:00:00,2188A,106.7907,39.6667,乌海市,中海勃湾学校,颗粒物(PM10),52,53,81,22,24,107,105,96,96,5,30,8,18,0.5,0.8
2023-10-31T18:00:00,2191A,122.2532,43.6801,通辽市,艺术职业学校,颗粒物(PM10),53,55,77,16,24,71,64,67,67,16,27,6,9,0.4,0.5
2023-10-31T18:00:00,2192A,119.7594,49.2261,呼伦贝尔市,区环保局,,30,24,38,21,22,68,57,62,60,14,14,5,6,0.6,0.5
2023-10-31T18:00:00,2195A,107.4212,40.761,巴彦淖尔市,附二中,颗粒物(PM10),78,105,83,14,23,97,86,89,89,12,12,4,4,0.4,0.4
2023-10-31T18:00:00,2196A,107.37,40.7372,巴彦淖尔市,市环保大楼,颗粒物(PM10),78,106,95,34,28,96,88,87,87,13,15,2,2,0.3,0.3
2023-10-31T18:00:00,2197A,113.1306,40.9923,乌兰察布市,集宁新区,颗粒物(PM10),64,77,105,20,30,103,96,96,96,24,25,9,10,0.5,0.4
2023-10-31T18:00:00,2200A,122.0392,46.0656,兴安盟,胜华新制药厂,颗粒物(PM10),66,81,50,34,28,64,46,59,58,24,15,4,7,0.4,0.7
2023-10-31T18:00:00,2201A,121.9504,46.0741,兴安盟,科右前旗环保局,颗粒物(PM10),65,79,46,38,21,66,47,60,60,21,12,3,5,0.7,0.7
2023-10-31T18:00:00,2202A,116.1042,43.9317,锡林郭勒盟,市环保监测站,,18,15,73,6,11,105,55,68,63,11,4,9,8,0.3,0.2
2023-10-31T18:00:00,2203A,116.0781,43.9311,锡林郭勒盟,市政府,,17,16,83,2,13,104,53,64,61,18,7,10,10,0.3,0.2
2023-10-31T18:00:00,2204A,105.6467,38.8363,阿拉善盟,西城区西花园,颗粒物(PM10),57,63,47,12,16,106,97,102,102,10,14,9,8,1.2,1.1
2023-10-31T18:00:00,2205A,105.6985,38.8411,阿拉善盟,蒙二幼,颗粒物(PM10),51,51,52,13,15,103,98,99,99,13,14,7,7,0.3,0.3
2023-10-31T18:00:00,2206A,105.724,38.8516,阿拉善盟,环保局新楼,,34,34,35,16,16,100,96,96,96,9,8,8,7,0.4,0.3
2023-10-31T18:00:00,2207A,121.6094,41.998,阜新市,工业园区,,,97,110,15,34,111,41,96,91,,48,,27,1.0,1.1
2023-10-31T18:00:00,2208A,121.6697,42.0279,阜新市,长青街,颗粒物(PM10),69,88,100,16,53,102,38,82,78,38,49,9,22,1.1,1.2
2023-10-31T18:00:00,2209A,121.6673,42.0705,阜新市,农业园区,,31,31,80,9,45,93,48,78,74,18,27,9,27,0.8,0.8
2023-10-31T18:00:00,2210A,121.6717,42.0224,阜新市,东苑,颗粒物(PM10),62,74,102,13,44,97,36,78,76,46,52,12,28,0.8,1
2023-10-31T18:00:00,2211A,121.6506,42.0498,阜新市,玉龙新城,颗粒物(PM10),64,77,97,10,34,113,38,91,85,47,46,10,24,1.0,1.2
2023-10-31T18:00:00,2212A,123.2,41.1953,辽阳市,宏伟区,细颗粒物(PM2.5),110,162,91,83,53,136,85,127,120,47,25,13,20,1.3,0.8
2023-10-31T18:00:00,2213A,123.1683,41.2495,辽阳市,新华园,细颗粒物(PM2.5),109,152,100,82,54,121,75,113,105,50,33,17,20,1.4,1
2023-10-31T18:00:00,2214A,123.2354,41.2639,辽阳市,滨河路,细颗粒物(PM2.5),99,111,93,74,54,126,84,115,111,40,27,15,15,1.4,0.9
2023-10-31T18:00:00,2215A,123.149,41.2991,辽阳市,铁西工业园,颗粒物(PM10),106,162,118,67,52,124,90,117,112,34,28,13,17,1.2,0.9
2023-10-31T18:00:00,2216A,123.8139,42.3022,铁岭市,汇工街西,,36,36,78,8,99,110,57,84,84,15,43,18,31,0.2,0.8
2023-10-31T18:00:00,2217A,123.8649,42.2923,铁岭市,水上乐园,,40,40,98,12,75,113,53,88,88,23,32,4,7,0.5,1.1
2023-10-31T18:00:00,2218A,123.8486,42.2867,铁岭市,银州路东段,,28,28,108,16,63,123,57,94,86,23,36,4,6,0.5,0.8
2023-10-31T18:00:00,2219A,123.7153,42.2217,铁岭市,金沙江路北,,40,40,80,13,57,117,56,94,94,19,48,6,10,0.3,0.8
2023-10-31T18:00:00,2220A,120.4318,41.5881,朝阳市,西梁,,,,100,32,55,100,63,84,83,21,39,19,14,0.8,1.1
2023-10-31T18:00:00,2221A,120.4521,41.5646,朝阳市,河畔小区,颗粒物(PM10),63,75,102,14,42,111,73,94,92,14,29,12,13,0.6,1.1
2023-10-31T18:00:00,2222A,120.4176,41.5648,朝阳市,八里堡,颗粒物(PM10),88,125,106,19,34,103,67,86,86,16,40,14,13,0.8,1.1
2023-10-31T18:00:00,2223A,120.3806,41.5969,朝阳市,农业园区,颗粒物(PM10),61,72,78,18,40,109,62,96,93,24,39,12,12,0.7,0.9
2023-10-31T18:00:00,2225A,124.4002,43.1713,四平市,一商场,颗粒物(PM10),74,97,115,18,52,94,36,87,73,43,34,4,8,0.5,0.7
2023-10-31T18:00:00,2226A,124.388,43.193,四平市,境园,颗粒物(PM10),63,75,96,30,71,100,41,92,78,29,32,4,8,0.3,0.6
2023-10-31T18:00:00,2227A,125.1358,42.8845,辽源市,环保局,颗粒物(PM10),51,52,165,31,138,115,64,102,92,20,46,17,16,0.6,1.5
2023-10-31T18:00:00,2229A,125.9358,41.7173,通化市,光明,,32,24,47,21,25,131,102,126,122,21,28,6,7,0.6,0.6
2023-10-31T18:00:00,2230A,125.9446,41.7325,通化市,铁路,,33,19,58,17,29,132,104,126,122,16,32,6,7,0.5,0.7
2023-10-31T18:00:00,2231A,126.4219,41.9171,白山市,喜丰,,34,34,131,19,51,131,82,117,116,21,44,9,14,0.9,1.1
2023-10-31T18:00:00,2232A,126.4077,41.9419,白山市,环保局,细颗粒物(PM2.5),67,60,113,48,62,121,83,112,112,20,44,11,16,0.9,1.3
2023-10-31T18:00:00,2233A,124.8006,45.1214,松原市,江南,细颗粒物(PM2.5),144,143,103,110,62,91,68,80,80,21,25,8,11,0.6,0.6
2023-10-31T18:00:00,2234A,124.7965,45.1722,松原市,江北,细颗粒物(PM2.5),143,135,91,109,60,82,70,76,76,16,27,3,8,0.5,0.5
2023-10-31T18:00:00,2235A,122.7911,45.6077,白城市,洮北区环保局,,,,38,,17,60,,60,,,15,,10,,0.5
2023-10-31T18:00:00,2236A,122.8738,45.5725,白城市,市环保局,细颗粒物(PM2.5),95,118,59,71,22,82,68,75,75,23,22,6,6,0.5,0.4
2023-10-31T18:00:00,2237A,129.47,42.8883,延边朝鲜族自治州,妇幼医院,,31,21,96,17,54,97,97,63,63,19,46,8,11,0.7,0.9
2023-10-31T18:00:00,2238A,129.5055,42.9108,延边朝鲜族自治州,延边医院,,30,14,116,7,69,102,94,66,66,29,58,8,13,0.8,1.3
2023-10-31T18:00:00,2239A,129.3964,42.8881,延边朝鲜族自治州,朝阳川镇医院,,30,14,102,8,55,110,95,70,70,16,37,9,10,0.8,1
2023-10-31T18:00:00,2240A,130.9762,45.3001,鸡西市,环保局,细颗粒物(PM2.5),137,124,133,104,97,69,1,27,19,61,39,6,6,1.4,1.1
2023-10-31T18:00:00,2243A,130.9429,45.3039,鸡西市,第一中学,细颗粒物(PM2.5),139,114,114,106,94,84,2,26,20,58,29,9,8,0.7,0.6
2023-10-31T18:00:00,2244A,130.2537,47.3416,鹤岗市,哈啤分公司,细颗粒物(PM2.5),62,53,45,44,36,75,46,46,40,10,12,12,13,0,0.2
2023-10-31T18:00:00,2245A,130.2684,47.3086,鹤岗市,斯达机电,细颗粒物(PM2.5),72,58,57,52,40,73,42,36,36,16,20,8,10,0.6,0.5
2023-10-31T18:00:00,2246A,130.3114,47.3388,鹤岗市,东山纸板厂,细颗粒物(PM2.5),72,65,72,52,39,64,50,42,42,14,28,12,12,0.4,0.8
2023-10-31T18:00:00,2247A,130.1097,47.3382,鹤岗市,五号水库,,41,41,54,25,47,71,50,47,45,8,13,10,10,0.1,0.4
2023-10-31T18:00:00,2248A,131.1511,46.6937,双鸭山市,双合村,细颗粒物(PM2.5),75,81,112,55,64,87,24,41,36,17,24,9,13,0.6,0.9
2023-10-31T18:00:00,2249A,131.1652,46.6191,双鸭山市,南小市,细颗粒物(PM2.5),90,58,83,67,63,95,21,40,35,24,25,8,8,0.6,0.6
2023-10-31T18:00:00,2250A,131.1524,46.6554,双鸭山市,环保局,细颗粒物(PM2.5),70,67,94,51,62,68,20,37,32,20,28,6,10,0.5,0.8
2023-10-31T18:00:00,2251A,131.12,46.5656,双鸭山市,苗圃,细颗粒物(PM2.5),112,79,69,84,63,111,36,58,54,28,18,6,4,1.2,0.5
2023-10-31T18:00:00,2252A,128.5159,47.4311,伊春市,环保局,,39,32,62,27,73,41,28,38,36,14,24,5,5,0.5,0.6
2023-10-31T18:00:00,2253A,128.9102,47.7412,伊春市,电力嘉园,,35,35,69,17,49,65,27,29,27,9,22,6,6,0.3,0.4
2023-10-31T18:00:00,2254A,129.5029,48.471,伊春市,汤旺河国家公园,,21,21,33,12,21,48,48,45,45,4,6,4,4,0.3,0.2
2023-10-31T18:00:00,2255A,130.2751,46.8028,佳木斯市,佳纺,细颗粒物(PM2.5),62,44,83,44,59,77,37,32,32,17,36,2,4,0.6,0.7
2023-10-31T18:00:00,2256A,130.3995,46.8307,佳木斯市,发电厂,,43,43,73,30,42,81,40,36,36,8,23,3,9,0.4,0.6
2023-10-31T18:00:00,2257A,130.3258,46.7975,佳木斯市,环保局,细颗粒物(PM2.5),59,40,69,42,59,64,33,23,,18,37,3,7,0.7,0.7
2023-10-31T18:00:00,2258A,130.3648,46.8032,佳木斯市,十一中,细颗粒物(PM2.5),52,43,79,36,57,76,38,34,34,13,34,3,6,0.4,0.5
2023-10-31T18:00:00,2259A,130.3794,46.7588,佳木斯市,四丰,,46,36,71,32,54,73,36,31,31,18,34,1,1,0.4,0.5
2023-10-31T18:00:00,2262A,131.0518,45.8751,七台河市,新一中,细颗粒物(PM2.5),107,81,110,80,92,105,40,58,50,24,25,9,10,0.9,0.9
2023-10-31T18:00:00,2263A,127.4833,50.2524,黑河市,交通局,颗粒物(PM10),79,107,44,20,28,46,13,41,38,39,17,8,5,0.6,0.4
2023-10-31T18:00:00,2264A,127.5144,50.2341,黑河市,环保局,,22,22,30,13,22,46,29,40,40,23,14,4,5,0.5,0.4
2023-10-31T18:00:00,2265A,127.5291,50.2472,黑河市,大黑河岛,,,113,40,4,34,24,,,,2,2,1,2,,
2023-10-31T18:00:00,2266A,126.9785,46.6365,绥化市,人和东街,细颗粒物(PM2.5),115,107,245,87,215,64,26,34,26,33,42,4,6,0.8,1.3
2023-10-31T18:00:00,2267A,126.964,46.6528,绥化市,党政办公中心,细颗粒物(PM2.5),115,98,268,87,249,90,29,51,28,25,38,5,7,0.7,1.3
2023-10-31T18:00:00,2269A,124.1069,50.4097,大兴安岭地区,科技局,细颗粒物(PM2.5),93,92,54,69,46,71,55,57,57,20,12,6,7,0.5,0.4
2023-10-31T18:00:00,2270A,117.396,32.939,蚌埠市,工人疗养院,颗粒物(PM10),65,79,90,39,51,174,146,159,159,26,23,3,8,0.6,0.7
2023-10-31T18:00:00,2271A,117.3605,32.9427,蚌埠市,百货大楼,颗粒物(PM10),61,72,91,35,50,175,147,160,160,27,23,5,9,0.6,0.7
2023-10-31T18:00:00,2273A,117.4185,32.8911,蚌埠市,蚌埠学院,颗粒物(PM10),62,73,91,36,53,178,152,165,165,29,25,4,9,0.5,0.6
2023-10-31T18:00:00,2274A,117.3533,32.9673,蚌埠市,淮上区政府,颗粒物(PM10),69,88,94,45,63,174,147,159,159,19,18,6,12,0.5,0.7
2023-10-31T18:00:00,2275A,117.3145,32.8977,蚌埠市,高新区,颗粒物(PM10),76,102,96,44,67,177,124,160,160,48,32,5,10,0.6,0.7
2023-10-31T18:00:00,2277A,116.8305,32.7727,淮南市,潘集区政府,颗粒物(PM10),76,102,111,38,63,155,141,145,145,32,36,6,12,0.4,0.5
2023-10-31T18:00:00,2278A,117.0067,32.6524,淮南市,师范学院,颗粒物(PM10),61,72,92,40,55,174,139,158,158,24,26,10,11,0.7,0.8
2023-10-31T18:00:00,2279A,116.8569,32.5951,淮南市,谢家集区政府,颗粒物(PM10),61,72,87,28,50,168,114,157,152,46,44,5,8,0.3,0.5
2023-10-31T18:00:00,2280A,116.8281,32.633,淮南市,八公山区政府,颗粒物(PM10),61,71,87,33,52,167,139,152,152,29,25,7,8,0.5,0.6
2023-10-31T18:00:00,2281A,116.6325,32.6201,淮南市,焦岗湖风景区管理处,,37,37,68,23,41,146,114,133,133,23,25,2,2,0.3,0.3
2023-10-31T18:00:00,2282A,116.8004,33.975,淮北市,监测站,颗粒物(PM10),54,58,88,28,52,163,113,148,147,42,30,9,10,0.7,0.7
2023-10-31T18:00:00,2283A,116.8091,33.9007,淮北市,烈山区政府,颗粒物(PM10),73,95,121,36,73,175,122,159,159,47,40,7,9,0.5,0.6
2023-10-31T18:00:00,2285A,117.8177,30.9412,铜陵市,市第四中学,,,,96,,55,145,61,120,119,,53,9,19,1.1,1.5
2023-10-31T18:00:00,2286A,117.8059,30.9273,铜陵市,市公路局,细颗粒物(PM2.5),80,88,83,59,44,142,77,118,118,53,39,12,22,1.1,1.5
2023-10-31T18:00:00,2287A,117.7807,30.9413,铜陵市,市新民污水厂,颗粒物(PM10),57,63,80,28,36,152,67,122,122,58,56,7,9,0.4,0.9
2023-10-31T18:00:00,2288A,117.7439,30.8792,铜陵市,市第九中学,颗粒物(PM10),76,101,115,25,43,130,71,108,108,82,61,4,7,0.5,1
2023-10-31T18:00:00,2289A,117.846,30.9413,铜陵市,车站新区,颗粒物(PM10),52,53,76,21,43,140,110,120,120,37,55,6,11,0.6,1
2023-10-31T18:00:00,2290A,117.8483,30.97,铜陵市,市职教基地,,47,47,81,27,49,130,104,111,111,28,37,19,21,0.6,1.1
2023-10-31T18:00:00,2291A,117.0809,30.5177,安庆市,环科院,颗粒物(PM10),53,55,77,30,45,159,115,139,139,36,68,8,8,0.7,0.9
2023-10-31T18:00:00,2292A,117.0331,30.5119,安庆市,马山宾馆,颗粒物(PM10),53,56,73,29,50,178,118,153,153,39,68,6,7,0.5,0.7
2023-10-31T18:00:00,2294A,116.9896,30.6145,安庆市,安庆大学,,46,46,71,28,50,175,84,142,142,65,42,7,7,0.8,0.9
2023-10-31T18:00:00,2295A,118.2903,29.6963,黄山市,延安路89号,,36,36,37,23,18,144,84,118,118,23,12,6,5,0.3,0.3
2023-10-31T18:00:00,2296A,118.327,29.7178,黄山市,黄山东路89号,颗粒物(PM10),67,84,48,40,26,137,67,111,111,32,17,4,5,1.2,0.6
2023-10-31T18:00:00,2297A,118.1371,30.2756,黄山市,黄山区政府5号楼,,45,45,45,19,26,121,76,109,105,23,13,7,6,0.6,0.5
2023-10-31T18:00:00,2298A,118.3093,32.3153,滁州市,老年大学,颗粒物(PM10),61,71,74,40,50,186,157,166,166,26,38,9,9,0.6,0.9
2023-10-31T18:00:00,2299A,118.3244,32.2786,滁州市,人大宾馆,细颗粒物(PM2.5),80,91,97,59,68,191,171,172,172,34,50,10,13,0.7,0.9
2023-10-31T18:00:00,2301A,115.8277,32.8929,阜阳市,市监测站,"颗粒物(PM10),细颗粒物(PM2.5)",60,69,80,43,55,159,122,151,150,44,29,7,8,0.8,0.7
2023-10-31T18:00:00,2303A,115.8554,32.8605,阜阳市,开发区,颗粒物(PM10),71,92,94,50,59,163,135,155,155,27,27,8,8,0.7,0.7
2023-10-31T18:00:00,2307A,116.5079,31.737,六安市,监测大楼,,,58,64,27,37,157,146,136,136,,28,,6,0.2,0.5
2023-10-31T18:00:00,2308A,116.4738,31.7643,六安市,皖西学院,颗粒物(PM10),59,67,67,24,37,161,149,144,144,21,23,6,7,0.5,0.6
2023-10-31T18:00:00,2309A,116.4996,31.7905,六安市,朝阳厂,细颗粒物(PM2.5),55,57,61,39,41,154,144,142,142,20,22,6,7,0.5,0.6
2023-10-31T18:00:00,2310A,116.5567,31.7886,六安市,开发区,,,,101,,49,145,124,134,133,30,30,6,9,,0.7
2023-10-31T18:00:00,2311A,115.8072,33.8399,亳州市,污水处理厂,颗粒物(PM10),59,67,70,22,37,146,102,134,133,43,28,8,18,0.5,0.6
2023-10-31T18:00:00,2312A,115.7789,33.8518,亳州市,三国揽胜宫,颗粒物(PM10),53,56,60,19,37,152,122,141,141,30,21,8,20,0.2,0.3
2023-10-31T18:00:00,2314A,117.47,30.6618,池州市,池州学院,颗粒物(PM10),58,66,54,39,33,156,151,145,145,23,27,5,5,0.5,0.9
2023-10-31T18:00:00,2316A,118.7581,30.9454,宣城市,鳌峰子站,颗粒物(PM10),53,55,61,36,35,125,108,112,112,22,24,4,5,0.6,0.6
2023-10-31T18:00:00,2317A,118.7385,30.9743,宣城市,敬亭山子站,,,45,50,27,32,122,,94,94,,20,,6,,0.6
2023-10-31T18:00:00,2318A,118.7173,30.9427,宣城市,开发区子站,,49,49,60,27,36,114,105,105,105,31,39,5,5,0.6,0.6
2023-10-31T18:00:00,2319A,119.0141,25.4325,莆田市,荔城区仓后路,,30,29,21,13,8,108,94,100,100,9,7,6,6,0.7,0.8
2023-10-31T18:00:00,2320A,119.0015,25.4553,莆田市,莆田市监测站,,32,18,17,8,6,111,100,105,105,6,5,7,8,0.5,0.5
2023-10-31T18:00:00,2321A,119.1119,25.4561,莆田市,涵江区六中,,34,34,27,9,7,109,101,104,104,6,4,7,7,0.5,0.5
2023-10-31T18:00:00,2322A,119.1013,25.3215,莆田市,秀屿区政府,,33,31,28,14,7,107,103,102,102,12,9,7,7,0.5,0.5
2023-10-31T18:00:00,2323A,118.981,25.4792,莆田市,东圳水库,,,,,,,,,,,,,,,,
2023-10-31T18:00:00,2324A,117.6211,26.2625,三明市,三钢,,45,45,32,19,24,119,88,104,104,29,25,9,8,0.6,0.5
2023-10-31T18:00:00,2325A,117.635,26.2714,三明市,三明二中,,31,30,29,21,22,114,99,102,102,16,22,5,5,0.5,0.5
2023-10-31T18:00:00,2326A,117.6028,26.2378,三明市,三元区政府,,43,41,37,30,21,119,99,106,105,24,27,5,8,0.7,0.8
2023-10-31T18:00:00,2327A,117.7275,26.3108,三明市,洋溪,,,,,,,,,,,,,,,,
2023-10-31T18:00:00,2331A,118.0966,26.6761,南平市,茫荡山,,,,,,,,,,,,,,,,
2023-10-31T18:00:00,2332A,118.1681,26.6369,南平市,南平市监测站,细颗粒物(PM2.5),57,27,30,40,24,118,59,97,97,30,20,4,5,1.1,0.7
2023-10-31T18:00:00,2333A,118.1825,26.6489,南平市,南平铝业有限公司,,34,34,32,22,23,114,68,96,96,24,24,5,8,0.8,0.8
2023-10-31T18:00:00,2334A,118.1756,26.6272,南平市,南平七中,,50,50,29,26,20,117,73,98,98,19,15,5,6,0.6,0.5
2023-10-31T18:00:00,2335A,117.0189,25.1181,龙岩市,龙岩师专,,,,,,,,,,,,,,,,
2023-10-31T18:00:00,2336A,117.0217,25.1033,龙岩市,龙岩市监测站,,31,20,30,15,20,115,98,107,107,19,17,6,7,0.6,0.6
2023-10-31T18:00:00,2337A,117.0258,25.0661,龙岩市,闽西职业技术学院,,30,29,39,13,17,114,94,107,107,20,26,4,8,0.5,0.6
2023-10-31T18:00:00,2338A,117.0196,25.0306,龙岩市,龙岩学院,,26,21,27,13,16,111,81,101,101,13,16,5,6,0.5,0.6
2023-10-31T18:00:00,2339A,119.5001,26.6946,宁德市,金涵水库,,,,,,,,,,,,,,,,
2023-10-31T18:00:00,2341A,119.5388,26.6612,宁德市,宁德市监测站,,30,20,22,13,14,118,96,101,101,14,16,6,7,0.5,0.6
2023-10-31T18:00:00,2342A,117.3102,29.3867,景德镇市,王港中学,,39,34,37,27,22,147,86,122,122,4,5,3,2,0.1,0.2
2023-10-31T18:00:00,2343A,117.2117,29.2933,景德镇市,老干部活动中心,颗粒物(PM10),54,57,53,28,33,168,128,132,132,22,25,17,11,0.8,0.6
2023-10-31T18:00:00,2344A,117.1894,29.2789,景德镇市,兽医站,细颗粒物(PM2.5),110,97,56,83,44,163,114,129,129,18,20,17,11,0.8,0.7
2023-10-31T18:00:00,2345A,117.1547,29.2617,景德镇市,台达陶瓷,细颗粒物(PM2.5),77,74,58,56,37,143,100,114,114,32,31,36,22,0.8,0.7
2023-10-31T18:00:00,2346A,117.2461,29.2956,景德镇市,陶研所,颗粒物(PM10),53,56,63,36,26,129,83,106,106,25,25,8,5,0.6,0.6
2023-10-31T18:00:00,2347A,114.0997,27.5002,萍乡市,武功山,,38,27,21,26,20,142,97,116,116,9,6,7,6,0.4,0.5
2023-10-31T18:00:00,2348A,113.8385,27.6434,萍乡市,中医院,颗粒物(PM10),52,54,61,31,43,134,116,123,123,26,26,14,16,1.0,1
2023-10-31T18:00:00,2349A,113.8493,27.6253,萍乡市,市政府车库,,49,49,65,31,45,138,126,125,125,13,21,14,16,0.6,1.2
2023-10-31T18:00:00,2350A,113.8676,27.6435,萍乡市,市环保局,细颗粒物(PM2.5),52,47,64,36,49,140,124,128,128,18,24,12,16,0.8,1
2023-10-31T18:00:00,2351A,113.866,27.6198,萍乡市,安源区政府,,40,40,61,22,42,142,122,130,130,20,20,16,14,1.1,1.1
2023-10-31T18:00:00,2352A,115.0861,27.9317,新余市,北岗,,42,39,51,29,40,156,98,138,138,8,13,12,17,0.3,0.6
2023-10-31T18:00:00,2353A,114.9886,27.8431,新余市,飞宇,颗粒物(PM10),51,51,76,34,47,148,120,130,130,30,33,7,15,0.3,0.6
2023-10-31T18:00:00,2354A,114.9231,27.8246,新余市,第二水厂,,49,49,72,29,45,159,124,148,148,28,38,9,11,0.6,0.8
2023-10-31T18:00:00,2355A,114.9308,27.8036,新余市,市气象局,,48,46,74,33,48,151,128,135,135,19,35,9,9,0.3,0.8
2023-10-31T18:00:00,2357A,116.9822,28.1136,鹰潭市,龙虎山,,44,44,43,4,13,157,136,136,136,9,3,11,6,0,0
2023-10-31T18:00:00,2358A,117.0564,28.2642,鹰潭市,新监测站,,44,44,62,27,40,178,134,138,138,9,22,8,23,0.4,0.5
2023-10-31T18:00:00,2359A,117.0311,28.2475,鹰潭市,财苑宾馆,,44,39,63,17,42,159,139,132,132,7,27,7,24,0.2,0.5
2023-10-31T18:00:00,2360A,117.0222,28.2264,鹰潭市,体育馆,,44,44,61,10,42,177,130,143,143,10,17,3,24,0.1,0.4
2023-10-31T18:00:00,2361A,117.0017,28.2131,鹰潭市,三川水表,颗粒物(PM10),53,56,57,23,35,169,83,136,136,48,13,6,8,0.4,0.5
2023-10-31T18:00:00,2362A,114.9017,25.9149,赣州市,通天岩,,,,,,,,,,,,,,,,
2023-10-31T18:00:00,2363A,114.9367,25.8664,赣州市,地委,颗粒物(PM10),62,73,59,30,34,126,87,113,113,19,15,4,10,1.0,1
2023-10-31T18:00:00,2364A,114.9461,25.8481,赣州市,气象台,,30,29,46,21,32,127,88,112,112,31,29,7,15,0.8,0.8
2023-10-31T18:00:00,2365A,114.9322,25.8333,赣州市,市图书馆,,42,42,55,24,31,122,95,111,111,15,21,14,15,0.9,0.9
2023-10-31T18:00:00,2366A,114.8905,25.8471,赣州市,华坚鞋城,,39,34,49,27,36,126,77,104,104,30,20,7,16,1.0,1
2023-10-31T18:00:00,2367A,114.9754,27.0803,吉安市,红声器材厂,,45,45,63,30,41,156,124,132,132,13,24,10,11,0.8,0.9
2023-10-31T18:00:00,2368A,114.9658,27.0999,吉安市,市森林工业局,,48,48,60,33,40,161,111,129,129,20,22,11,14,0.7,0.4
2023-10-31T18:00:00,2369A,114.99,27.1312,吉安市,市环境监测站,,43,43,60,29,37,148,103,112,112,28,27,8,10,0.6,0.7
2023-10-31T18:00:00,2370A,115.0093,27.0968,吉安市,青原区法院,,45,45,62,28,42,154,119,128,128,19,30,10,12,0.8,0.8
2023-10-31T18:00:00,2371A,114.3408,27.8064,宜春市,槟榔水业,,47,38,54,21,35,171,150,148,148,21,19,5,3,0.7,0.6
2023-10-31T18:00:00,2373A,114.3956,27.7844,宜春市,市石油公司,,,39,72,32,43,149,100,126,126,,26,,5,0.7,0.8
2023-10-31T18:00:00,2374A,114.3703,27.7914,宜春市,市气象局,,46,46,60,28,38,153,119,131,131,26,21,6,5,1.0,0.8
2023-10-31T18:00:00,2375A,114.4013,27.8074,宜春市,市广电局,,49,49,65,24,41,154,144,138,138,31,26,7,6,1.0,1.1
2023-10-31T18:00:00,2376A,116.2127,28.0814,抚州市,桐源党溪,,50,50,59,27,40,155,94,134,134,9,13,3,4,0.7,0.8
2023-10-31T18:00:00,2377A,116.3544,27.9831,抚州市,市站,颗粒物(PM10),51,52,73,28,47,155,137,140,140,23,24,7,9,0.8,1
2023-10-31T18:00:00,2378A,116.3565,27.963,抚州市,血防站,颗粒物(PM10),52,53,73,29,48,155,137,76,,12,23,5,4,0.8,0.9
2023-10-31T18:00:00,2379A,116.3564,28.0007,抚州市,采茶剧团,,41,41,74,28,49,144,123,125,125,18,28,6,7,0.9,1.1
2023-10-31T18:00:00,2380A,116.385,27.9647,抚州市,医学分院,颗粒物(PM10),51,52,76,22,44,163,150,144,144,13,26,8,8,1.0,1.1
2023-10-31T18:00:00,2381A,118.005,28.4572,上饶市,百草园,,,37,54,15,31,148,135,130,130,8,18,14,28,,
2023-10-31T18:00:00,2382A,117.9756,28.4436,上饶市,市监测站,,42,39,65,20,39,168,133,142,142,17,26,8,42,0.5,0.7
2023-10-31T18:00:00,2383A,117.9519,28.4628,上饶市,凤凰光学,,42,42,70,22,36,161,112,134,134,30,45,10,25,0.4,0.6
2023-10-31T18:00:00,2385A,114.17,35.9019,鹤壁市,市监测站,细颗粒物(PM2.5),83,109,166,61,121,172,112,135,135,62,42,15,14,1.0,1
2023-10-31T18:00:00,2386A,114.2956,35.7511,鹤壁市,市交警支队,颗粒物(PM10),71,91,184,45,122,176,128,133,133,45,76,2,5,0.6,1.3
2023-10-31T18:00:00,2387A,114.2878,35.7306,鹤壁市,迎宾馆,颗粒物(PM10),67,84,150,45,117,177,130,138,138,46,58,9,11,0.5,1.3
2023-10-31T18:00:00,2389A,113.836,35.311,新乡市,环保西院,颗粒物(PM10),59,68,185,20,126,153,96,127,127,51,65,11,14,0.6,1.4
2023-10-31T18:00:00,2390A,113.884,35.272,新乡市,开发区,颗粒物(PM10),114,178,172,19,130,150,96,128,128,33,46,8,12,0.7,1.5
2023-10-31T18:00:00,2391A,113.883,35.303,新乡市,环保东院,颗粒物(PM10),53,56,184,26,128,151,104,127,127,36,52,9,13,0.5,1.4
2023-10-31T18:00:00,2392A,115.0312,35.7636,濮阳市,环保局,颗粒物(PM10),54,57,114,16,67,146,106,131,131,18,31,6,11,0.4,0.8
2023-10-31T18:00:00,2394A,115.0574,35.7609,濮阳市,油田运输公司,,44,44,132,14,74,153,99,132,132,30,35,6,13,0.6,1
