timepoint,stationcode,longitude,latitude,area,positionname,primarypollutant,aqi,pm10,pm10_24h,pm2_5,pm2_5_24h,o3,o3_24h,o3_8h,o3_8h_24h,no2,no2_24h,so2,so2_24h,co,co_24h
2023-10-31T09:00:00,1001A,116.3621,39.8784,北京市,万寿西宫,颗粒物(PM10),99,147,150,56,94,167,12,21,18,39,30,1,3,1.0,1.1
2023-10-31T09:00:00,1002A,116.2202,40.2915,北京市,定陵,细颗粒物(PM2.5),92,112,114,68,74,135,1,15,10,19,19,3,2,0.9,0.8
2023-10-31T09:00:00,1003A,116.4174,39.9289,北京市,东四,细颗粒物(PM2.5),114,174,153,86,95,150,43,26,26,30,32,1,2,0.9,1.1
2023-10-31T09:00:00,1004A,116.4072,39.8863,北京市,天坛,颗粒物(PM10),96,141,145,59,89,160,11,21,17,35,30,1,2,0.9,1
2023-10-31T09:00:00,1005A,116.462,39.9365,北京市,农展馆,细颗粒物(PM2.5),110,162,145,83,89,154,32,18,17,27,30,1,2,0.9,1
2023-10-31T09:00:00,1006A,116.3392,39.9295,北京市,官园,颗粒物(PM10),101,151,149,73,95,163,30,27,25,29,25,1,3,1.2,1.3
2023-10-31T09:00:00,1007A,116.2878,39.9611,北京市,海淀万柳,颗粒物(PM10),88,125,143,61,87,142,19,28,25,38,31,2,2,1.1,1.1
2023-10-31T09:00:00,1008A,116.6636,40.135,北京市,顺义新城,颗粒物(PM10),101,152,144,70,87,156,29,36,34,32,20,3,3,0.8,0.8
2023-10-31T09:00:00,1009A,116.6275,40.3275,北京市,怀柔镇,颗粒物(PM10),86,121,124,63,76,145,29,40,37,15,18,2,3,0.9,0.9
2023-10-31T09:00:00,1010A,116.2296,40.217,北京市,昌平镇,颗粒物(PM10),95,139,131,67,79,162,14,25,22,40,29,1,2,0.9,0.9
2023-10-31T09:00:00,1011A,116.3966,39.9821,北京市,奥体中心,细颗粒物(PM2.5),123,,147,93,93,144,49,25,25,21,30,2,2,0.8,1
2023-10-31T09:00:00,1012A,116.184,39.9136,北京市,古城,细颗粒物(PM2.5),103,149,157,77,95,160,17,21,19,26,23,1,2,1.3,1.4
2023-10-31T09:00:00,1015A,117.1444,39.1661,天津市,勤俭道,细颗粒物(PM2.5),205,239,129,155,85,147,73,12,12,25,41,7,12,1.0,1.3
2023-10-31T09:00:00,1017A,117.237,39.1082,天津市,大直沽八号路,细颗粒物(PM2.5),182,243,147,137,91,148,,2,2,38,49,3,9,0.9,1.2
2023-10-31T09:00:00,1018A,117.202,39.0927,天津市,前进道,细颗粒物(PM2.5),132,208,111,100,66,117,76,22,22,29,47,5,8,1.3,1.4
2023-10-31T09:00:00,1019A,117.1837,39.2133,天津市,淮河道,颗粒物(PM10),86,122,126,63,80,162,4,2,2,58,57,6,11,1.2,1.5
2023-10-31T09:00:00,1021A,117.307,39.0877,天津市,跃进路,细颗粒物(PM2.5),120,163,120,91,81,152,18,2,2,56,50,7,11,1.2,1.5
2023-10-31T09:00:00,1023A,117.707,39.0343,天津市,第四大街,细颗粒物(PM2.5),128,150,107,97,71,96,28,8,8,48,46,5,6,1.0,1
2023-10-31T09:00:00,1024A,117.457,38.8394,天津市,永明路,细颗粒物(PM2.5),202,184,150,152,111,121,56,60,58,30,39,4,7,1.1,1.1
2023-10-31T09:00:00,1026A,117.764,39.1587,天津市,汉北路,颗粒物(PM10),95,140,101,62,59,105,17,12,12,34,30,6,9,1.1,1.2
2023-10-31T09:00:00,1027A,117.157,38.9194,天津市,团泊洼,细颗粒物(PM2.5),232,258,187,182,122,132,71,58,58,18,29,3,5,1.4,1.4
2023-10-31T09:00:00,1029A,114.4422,38.0444,石家庄市,职工医院,细颗粒物(PM2.5),228,226,224,178,161,180,18,12,12,74,66,3,3,1.4,1.2
2023-10-31T09:00:00,1030A,114.6063,38.0266,石家庄市,高新区,细颗粒物(PM2.5),224,240,239,174,166,180,9,17,13,67,50,2,2,1.6,1.3
2023-10-31T09:00:00,1031A,114.4898,38.1328,石家庄市,西北水源,细颗粒物(PM2.5),128,154,201,97,136,166,12,2,2,46,45,1,2,1.2,1.1
2023-10-31T09:00:00,1032A,114.4586,38.0058,石家庄市,西南高教,细颗粒物(PM2.5),229,209,194,179,164,186,16,10,10,64,48,2,2,1.4,1.2
2023-10-31T09:00:00,1033A,114.5331,38.0178,石家庄市,世纪公园,细颗粒物(PM2.5),134,181,206,102,142,176,10,16,13,42,28,4,5,1.5,1.4
2023-10-31T09:00:00,1034A,114.509,38.0457,石家庄市,人民会堂,,,,214,,190,182,,20,20,66,45,5,5,1.3,1.2
2023-10-31T09:00:00,1035A,114.3524,37.8911,石家庄市,封龙山,细颗粒物(PM2.5),57,53,164,40,88,185,99,121,112,16,19,11,8,0.7,1
2023-10-31T09:00:00,1037A,118.131,39.6363,唐山市,雷达站,颗粒物(PM10),95,139,119,66,63,121,20,25,24,37,21,14,8,1.8,1.1
2023-10-31T09:00:00,1038A,118.1725,39.6334,唐山市,物资局,颗粒物(PM10),98,145,126,62,69,124,14,22,20,43,24,19,12,1.8,1.2
2023-10-31T09:00:00,1040A,118.1705,39.6506,唐山市,十二中,颗粒物(PM10),96,141,120,52,57,116,29,21,21,31,23,16,12,2.0,1.3
2023-10-31T09:00:00,1041A,118.1869,39.622,唐山市,小山,颗粒物(PM10),100,149,130,57,60,118,7,19,17,45,21,14,9,1.7,1.1
2023-10-31T09:00:00,1042A,119.5134,39.8207,秦皇岛市,北戴河环保局,颗粒物(PM10),77,104,76,49,21,90,78,48,48,37,42,8,8,0.9,0.2
2023-10-31T09:00:00,1043A,119.7493,40.0116,秦皇岛市,第一关,颗粒物(PM10),75,100,85,47,29,88,27,11,11,74,44,11,11,0.9,0.4
2023-10-31T09:00:00,1044A,119.5897,39.9499,秦皇岛市,监测站,细颗粒物(PM2.5),98,103,74,73,32,81,72,27,27,37,42,9,12,1.0,0.5
2023-10-31T09:00:00,1046A,119.5251,39.9041,秦皇岛市,建设大厦,颗粒物(PM10),76,101,85,54,24,86,74,29,29,33,42,4,9,0.8,0.2
2023-10-31T09:00:00,1048A,114.5302,36.6116,邯郸市,东污水处理厂,细颗粒物(PM2.5),321,283,233,271,220,201,33,15,15,60,63,19,6,1.6,1.4
2023-10-31T09:00:00,1049A,114.4918,36.5713,邯郸市,矿院,细颗粒物(PM2.5),291,240,226,241,221,207,14,5,5,94,81,8,5,1.8,1.5
2023-10-31T09:00:00,1050A,114.484,36.6133,邯郸市,丛台公园,细颗粒物(PM2.5),278,273,266,228,210,208,38,15,15,52,51,9,7,1.8,1.5
2023-10-31T09:00:00,1051A,115.493,38.8632,保定市,游泳馆,细颗粒物(PM2.5),239,209,195,189,164,156,43,17,17,38,50,5,6,0.8,0.8
2023-10-31T09:00:00,1052A,115.5213,38.8959,保定市,华电二区,细颗粒物(PM2.5),176,149,156,133,127,145,21,6,6,36,44,4,6,1.0,1
2023-10-31T09:00:00,1053A,115.4713,38.9108,保定市,接待中心,细颗粒物(PM2.5),216,206,174,166,130,144,46,15,15,26,53,3,4,1.2,1.2
2023-10-31T09:00:00,1054A,115.4612,38.8416,保定市,地表水厂,细颗粒物(PM2.5),211,217,202,161,121,146,49,12,12,32,58,5,6,1.1,1.1
2023-10-31T09:00:00,1056A,115.5086,38.8639,保定市,监测站,细颗粒物(PM2.5),212,198,195,162,148,157,40,13,13,43,60,6,5,0.9,1
2023-10-31T09:00:00,1057A,114.8883,40.8336,张家口市,人民公园,颗粒物(PM10),84,118,76,55,24,94,53,62,60,26,22,2,2,0.4,0.4
2023-10-31T09:00:00,1059A,114.8687,40.8042,张家口市,五金库,细颗粒物(PM2.5),78,102,74,57,31,115,50,58,57,36,24,3,3,0.6,0.4
2023-10-31T09:00:00,1060A,114.8902,40.762,张家口市,世纪豪园,颗粒物(PM10),86,122,73,51,31,111,45,62,59,40,26,1,2,0.8,0.6
2023-10-31T09:00:00,1061A,114.8916,40.8661,张家口市,北泵房,颗粒物(PM10),77,103,63,54,28,98,64,63,63,21,17,8,8,0.4,0.3
2023-10-31T09:00:00,1062A,117.9531,40.9081,承德市,铁路,细颗粒物(PM2.5),130,148,160,99,106,116,6,8,6,54,67,7,7,1.3,1.1
2023-10-31T09:00:00,1063A,117.9392,40.9763,承德市,中国银行,细颗粒物(PM2.5),132,155,152,100,99,114,4,2,2,36,46,,6,1.3,1
2023-10-31T09:00:00,1064A,117.9503,40.928,承德市,开发区,细颗粒物(PM2.5),113,153,148,85,98,126,7,5,5,54,52,7,6,1.4,1.1
2023-10-31T09:00:00,1065A,117.8051,40.9655,承德市,文化中心,细颗粒物(PM2.5),186,215,176,140,114,121,5,5,4,50,55,4,3,2.1,1.2
2023-10-31T09:00:00,1066A,117.9268,41.0026,承德市,离宫,细颗粒物(PM2.5),122,152,148,92,105,103,10,20,15,25,25,1,2,1.2,0.9
2023-10-31T09:00:00,1067A,116.6708,39.5111,廊坊市,药材公司,颗粒物(PM10),98,146,146,54,81,161,5,8,6,36,31,2,5,0.8,1
2023-10-31T09:00:00,1068A,116.7214,39.5589,廊坊市,开发区,颗粒物(PM10),104,157,153,58,90,160,9,10,8,35,38,2,4,0.6,0.9
2023-10-31T09:00:00,1070A,116.7244,39.5269,廊坊市,北华航天学院,颗粒物(PM10),108,165,154,52,85,162,11,11,9,33,31,5,7,0.7,1
2023-10-31T09:00:00,1071A,116.8842,38.2991,沧州市,沧县城建局,细颗粒物(PM2.5),178,180,219,134,183,124,30,15,15,34,69,3,5,1.2,1.1
2023-10-31T09:00:00,1072A,116.8584,38.3254,沧州市,电视转播站,细颗粒物(PM2.5),122,121,191,92,166,117,27,16,16,26,52,1,4,1.2,1.1
2023-10-31T09:00:00,1073A,116.8709,38.3228,沧州市,市环保局,细颗粒物(PM2.5),160,155,217,122,183,125,30,20,20,25,54,13,9,1.3,1.3
2023-10-31T09:00:00,1074A,115.6838,37.7541,衡水市,电机北厂,细颗粒物(PM2.5),103,110,177,77,169,90,0,2,1,36,41,7,5,1.3,1.1
2023-10-31T09:00:00,1075A,115.6303,37.7316,衡水市,市监测站,,,,189,,183,95,,,,,40,,4,,1.2
2023-10-31T09:00:00,1077A,114.4704,37.0886,邢台市,达活泉,细颗粒物(PM2.5),202,206,227,152,173,187,35,32,32,43,41,3,5,1.6,1.4
2023-10-31T09:00:00,1078A,114.5062,37.0349,邢台市,邢师高专,细颗粒物(PM2.5),193,183,199,145,159,182,14,7,7,53,55,2,3,1.2,1
2023-10-31T09:00:00,1079A,114.5237,37.0851,邢台市,路桥公司,细颗粒物(PM2.5),221,207,223,171,178,192,60,69,69,36,40,3,5,1.1,1.1
2023-10-31T09:00:00,1080A,114.4725,37.0719,邢台市,市环保局,细颗粒物(PM2.5),205,197,213,155,162,198,39,42,42,43,30,4,5,1.5,1.2
2023-10-31T09:00:00,1081A,112.522,37.8873,太原市,尖草坪,颗粒物(PM10),87,124,109,52,47,120,9,5,5,71,72,20,19,1.1,0.9
2023-10-31T09:00:00,1083A,112.434,38.0108,太原市,上兰,,,,,,,,,,,,,,,,
2023-10-31T09:00:00,1084A,112.469,37.7124,太原市,晋源,颗粒物(PM10),80,110,106,58,48,132,10,7,7,78,69,14,16,1.2,1
2023-10-31T09:00:00,1085A,112.5583,37.7394,太原市,小店,颗粒物(PM10),126,202,149,90,55,114,4,3,3,86,79,18,16,1.6,1.1
2023-10-31T09:00:00,1086A,112.5369,37.8692,太原市,桃园,颗粒物(PM10),88,126,110,42,43,114,10,4,4,76,76,21,16,1.0,1
2023-10-31T09:00:00,1087A,112.57,37.8195,太原市,坞城,颗粒物(PM10),88,125,122,57,52,120,10,5,5,76,76,15,11,1.2,0.9
2023-10-31T09:00:00,1088A,112.549,37.9854,太原市,南寨,颗粒物(PM10),88,126,105,51,38,109,9,6,6,66,67,9,13,0.9,0.8
2023-10-31T09:00:00,1090A,111.6507,40.7517,呼和浩特市,呼市一监,颗粒物(PM10),101,151,154,53,57,78,11,9,9,44,53,10,16,0.8,0.8
2023-10-31T09:00:00,1091A,111.6572,40.8033,呼和浩特市,小召,颗粒物(PM10),135,219,154,74,59,73,10,11,9,50,61,10,16,1.0,1.1
2023-10-31T09:00:00,1094A,111.7516,40.8369,呼和浩特市,如意水处理厂,颗粒物(PM10),153,255,150,114,55,84,9,7,7,60,59,15,14,1.2,0.9
2023-10-31T09:00:00,1095A,111.7276,40.8062,呼和浩特市,二十九中,颗粒物(PM10),135,220,146,79,57,86,15,12,11,48,57,10,16,0.9,0.9
2023-10-31T09:00:00,1096A,111.5512,40.7866,呼和浩特市,工大金川校区,细颗粒物(PM2.5),153,252,162,117,67,84,8,8,5,62,63,20,22,0.9,0.8
2023-10-31T09:00:00,1097A,111.717,40.7612,呼和浩特市,化肥厂生活区,颗粒物(PM10),111,172,149,62,56,80,12,9,9,45,53,11,17,0.9,0.8
2023-10-31T09:00:00,1098A,123.6836,41.9339,沈阳市,森林路,,,,,,,,,,,,,,,,
2023-10-31T09:00:00,1099A,123.505,41.7406,沈阳市,浑南东路,细颗粒物(PM2.5),62,64,96,44,67,95,95,51,51,27,50,57,16,0.8,1
2023-10-31T09:00:00,1100A,123.4231,41.6989,沈阳市,新秀街,颗粒物(PM10),57,63,93,36,55,104,92,80,80,36,52,22,40,0.7,0.9
2023-10-31T09:00:00,1102A,123.5903,41.8411,沈阳市,东陵路,细颗粒物(PM2.5),59,63,86,42,48,100,100,54,54,26,41,16,14,0.8,1.1
2023-10-31T09:00:00,1103A,123.4264,41.8467,沈阳市,陵东街,颗粒物(PM10),55,60,89,36,50,114,100,74,74,29,42,17,17,0.7,1
2023-10-31T09:00:00,1104A,123.4114,41.7653,沈阳市,文化路,颗粒物(PM10),56,62,97,37,47,110,110,89,89,23,46,13,30,0.7,0.9
2023-10-31T09:00:00,1105A,123.4678,41.7867,沈阳市,小河沿,颗粒物(PM10),59,68,99,36,49,106,106,59,59,30,54,17,14,0.7,0.9
2023-10-31T09:00:00,1106A,123.4017,41.7972,沈阳市,太原街,,,58,85,32,49,116,78,80,80,53,50,,25,0.7,0.9
2023-10-31T09:00:00,1108A,123.3783,41.9228,沈阳市,京沈街,细颗粒物(PM2.5),59,54,84,42,52,111,91,79,79,30,39,13,23,0.8,0.9
2023-10-31T09:00:00,1109A,121.612,38.9741,大连市,甘井子,颗粒物(PM10),69,87,90,43,40,117,92,106,105,33,37,9,8,0.6,0.7
2023-10-31T09:00:00,1110A,121.565,38.9511,大连市,周水子,颗粒物(PM10),66,82,86,36,37,118,98,110,110,30,45,9,11,1.1,1.1
2023-10-31T09:00:00,1111A,121.5637,38.8845,大连市,星海三站,颗粒物(PM10),56,61,63,28,29,128,101,115,115,23,23,5,4,0.7,0.7
2023-10-31T09:00:00,1112A,121.6302,38.9117,大连市,青泥洼桥,,47,47,66,26,29,110,97,103,103,21,28,8,10,1.1,1.1
2023-10-31T09:00:00,1113A,121.6251,38.8638,大连市,傅家庄,,44,44,45,27,26,133,113,122,122,18,20,9,9,0.7,0.7
2023-10-31T09:00:00,1114A,121.5213,38.8661,大连市,七贤岭,颗粒物(PM10),63,75,74,30,29,129,104,110,110,32,37,23,8,0.7,0.7
2023-10-31T09:00:00,1115A,121.2529,38.8061,大连市,旅顺,颗粒物(PM10),54,57,53,31,27,136,107,127,125,27,28,9,10,0.9,0.9
2023-10-31T09:00:00,1116A,121.7485,39.1311,大连市,金州,颗粒物(PM10),58,65,84,34,41,152,93,111,108,30,29,13,13,0.8,0.9
2023-10-31T09:00:00,1117A,121.7811,39.0496,大连市,开发区,,,57,68,28,30,115,101,109,109,29,38,,8,,0.6
2023-10-31T09:00:00,1118A,121.9762,39.0631,大连市,双D港,颗粒物(PM10),51,51,37,24,25,119,118,105,105,22,23,7,6,0.6,0.6
2023-10-31T09:00:00,1119A,125.3325,43.9166,长春市,食品厂,细颗粒物(PM2.5),122,118,111,92,69,64,45,33,33,42,41,9,10,1.0,0.6
2023-10-31T09:00:00,1120A,125.2863,43.9027,长春市,客车厂,细颗粒物(PM2.5),147,118,101,112,62,60,43,43,43,47,37,21,11,1.0,0.7
2023-10-31T09:00:00,1121A,125.2841,43.8463,长春市,邮电学院,细颗粒物(PM2.5),153,121,101,117,61,74,65,53,53,39,34,8,10,0.9,0.5
2023-10-31T09:00:00,1122A,125.3716,43.8772,长春市,劳动公园,细颗粒物(PM2.5),160,192,110,122,58,72,52,40,40,44,38,8,10,0.8,0.5
2023-10-31T09:00:00,1123A,125.3297,43.8805,长春市,园林处,,,,94,,53,66,55,45,45,35,33,,11,0.9,0.6
2023-10-31T09:00:00,1124A,125.4605,43.79,长春市,净月潭,细颗粒物(PM2.5),124,80,91,94,50,80,77,52,52,16,22,9,10,0.8,0.5
2023-10-31T09:00:00,1125A,125.7194,43.515,长春市,甩湾子,,,,,,,,,,,,,,,,
2023-10-31T09:00:00,1126A,125.3863,43.8447,长春市,经开区环卫处,细颗粒物(PM2.5),158,118,99,120,56,74,56,38,38,31,37,7,9,0.9,0.6
2023-10-31T09:00:00,1127A,125.245,43.7783,长春市,高新区管委会,细颗粒物(PM2.5),142,126,98,108,58,71,71,42,42,30,38,8,9,0.8,0.6
2023-10-31T09:00:00,1128A,125.1761,43.8325,长春市,岱山公园,细颗粒物(PM2.5),139,119,98,106,54,69,60,41,41,48,41,7,8,0.8,0.6
2023-10-31T09:00:00,1129A,126.5422,45.755,哈尔滨市,岭北,细颗粒物(PM2.5),90,80,40,67,27,76,15,27,25,29,18,19,20,0.8,0.5
2023-10-31T09:00:00,1130A,126.561,45.8167,哈尔滨市,松北商大,,,,58,,24,76,,,,,36,,10,,0.6
2023-10-31T09:00:00,1131A,126.979,45.5419,哈尔滨市,阿城会宁,颗粒物(PM10),84,117,123,49,64,90,5,12,11,38,40,7,10,0.8,0.7
2023-10-31T09:00:00,1132A,126.599,45.7222,哈尔滨市,南岗学府路,细颗粒物(PM2.5),87,106,59,64,23,69,5,27,22,58,26,8,11,1.0,0.5
2023-10-31T09:00:00,1133A,126.689,45.7733,哈尔滨市,太平宏伟公园,细颗粒物(PM2.5),102,100,85,76,41,79,7,9,8,46,35,6,10,1.1,0.6
2023-10-31T09:00:00,1134A,126.635,45.7667,哈尔滨市,道外承德广场,"颗粒物(PM10),细颗粒物(PM2.5)",68,86,70,49,28,75,13,17,15,46,29,5,8,2.0,0.7
2023-10-31T09:00:00,1135A,126.685,45.7319,哈尔滨市,香坊红旗大街,细颗粒物(PM2.5),99,89,70,74,40,81,10,22,20,52,32,6,13,1.0,0.7
2023-10-31T09:00:00,1136A,126.6411,45.7258,哈尔滨市,动力和平路,细颗粒物(PM2.5),88,102,67,65,30,71,5,25,20,57,31,9,10,0.9,0.6
2023-10-31T09:00:00,1137A,126.593,45.7478,哈尔滨市,道里建国路,细颗粒物(PM2.5),84,94,77,62,44,68,9,30,26,48,33,10,12,1.2,0.8
2023-10-31T09:00:00,1138A,126.615,45.61,哈尔滨市,平房东轻厂,细颗粒物(PM2.5),83,109,92,61,41,74,8,19,18,51,43,11,12,0.4,0.2
2023-10-31T09:00:00,1139A,126.595,45.9855,哈尔滨市,呼兰师专,细颗粒物(PM2.5),55,49,63,39,33,96,19,31,28,33,29,5,7,0.8,0.7
2023-10-31T09:00:00,1140A,126.6206,45.6842,哈尔滨市,省农科院,细颗粒物(PM2.5),88,114,69,65,29,80,17,25,22,57,34,7,12,1.1,0.6
2023-10-31T09:00:00,1141A,121.4,31.238,上海市,普陀,,34,34,39,12,14,117,57,47,47,36,28,6,5,0.6,0.5
2023-10-31T09:00:00,1142A,121.478,31.2036,上海市,十五厂,,37,37,40,18,19,119,48,36,34,48,39,8,6,0.6,0.5
2023-10-31T09:00:00,1143A,121.467,31.3008,上海市,虹口,,35,35,34,18,16,108,56,48,45,41,32,9,5,0.7,0.6
2023-10-31T09:00:00,1144A,121.412,31.1654,上海市,徐汇上师大,,39,39,41,24,20,122,51,30,30,49,40,9,8,0.8,0.7
2023-10-31T09:00:00,1145A,121.536,31.2659,上海市,杨浦四漂,细颗粒物(PM2.5),59,39,56,42,30,99,48,22,22,25,46,7,6,0.7,0.6
2023-10-31T09:00:00,1147A,121.425,31.2261,上海市,静安监测站,,34,34,36,20,19,126,55,51,50,46,30,7,5,0.7,0.6
2023-10-31T09:00:00,1148A,121.703,31.1907,上海市,浦东川沙,,33,33,34,17,16,120,59,55,55,21,25,6,6,0.7,0.6
2023-10-31T09:00:00,1149A,121.533,31.2284,上海市,浦东新区监测站,,36,36,37,19,15,109,43,52,49,43,30,8,7,0.7,0.5
2023-10-31T09:00:00,1150A,121.577,31.2071,上海市,浦东张江,,34,34,40,21,16,107,45,43,39,30,22,6,5,0.7,0.6
2023-10-31T09:00:00,1151A,118.8086,32.1065,南京市,迈皋桥,细颗粒物(PM2.5),77,102,74,56,36,198,83,89,88,38,40,4,4,0.8,0.5
2023-10-31T09:00:00,1152A,118.7538,32.0551,南京市,草场门,细颗粒物(PM2.5),79,90,77,58,43,193,77,56,56,47,54,7,4,0.6,0.6
2023-10-31T09:00:00,1153A,118.7794,32.0745,南京市,山西路,细颗粒物(PM2.5),77,97,76,56,42,203,80,87,86,43,25,9,6,0.9,0.6
2023-10-31T09:00:00,1154A,118.7752,32.0023,南京市,中华门,,,95,74,53,41,192,,22,19,52,50,8,5,1.2,1
2023-10-31T09:00:00,1155A,118.8109,32.0309,南京市,瑞金路,颗粒物(PM10),90,129,82,56,39,174,52,34,34,58,49,12,7,0.7,0.5
2023-10-31T09:00:00,1156A,118.7997,32.0754,南京市,玄武湖,细颗粒物(PM2.5),94,80,61,70,38,188,67,89,86,41,21,11,7,0.4,0.5
2023-10-31T09:00:00,1157A,118.6414,32.0931,南京市,浦口,细颗粒物(PM2.5),70,81,64,51,35,186,72,74,74,51,34,16,6,1.0,0.8
2023-10-31T09:00:00,1158A,118.7356,31.9996,南京市,奥体中心,颗粒物(PM10),79,108,81,53,44,190,67,36,36,47,53,12,9,0.5,0.4
2023-10-31T09:00:00,1159A,118.9125,32.1028,南京市,仙林大学城,细颗粒物(PM2.5),85,92,65,63,41,194,85,71,71,43,31,8,3,1.0,0.8
2023-10-31T09:00:00,1160A,120.561,31.2472,苏州市,上方山,颗粒物(PM10),51,51,40,29,20,155,43,19,19,42,26,8,5,0.8,0.6
2023-10-31T09:00:00,1162A,120.591,31.3019,苏州市,彩香,细颗粒物(PM2.5),67,75,48,48,23,155,40,36,33,50,31,10,8,0.9,0.8
2023-10-31T09:00:00,1163A,120.596,31.3264,苏州市,轧钢厂,颗粒物(PM10),66,82,49,45,22,152,41,36,34,42,26,12,8,0.9,0.7
2023-10-31T09:00:00,1164A,120.613,31.2703,苏州市,吴中区,颗粒物(PM10),62,73,49,41,22,160,40,28,26,58,42,11,8,0.7,0.7
2023-10-31T09:00:00,1165A,120.543,31.2994,苏州市,苏州新区,细颗粒物(PM2.5),64,73,50,46,26,158,44,32,29,47,41,10,7,0.7,0.6
2023-10-31T09:00:00,1166A,120.669,31.3097,苏州市,苏州工业园区,颗粒物(PM10),59,67,41,41,20,150,56,48,48,44,32,12,8,0.7,0.6
2023-10-31T09:00:00,1167A,120.641,31.3708,苏州市,相城区,颗粒物(PM10),63,75,42,40,23,152,49,32,32,46,43,13,10,0.8,0.6
2023-10-31T09:00:00,1168A,120.9098,31.9663,南通市,狼山街道,,47,47,31,21,13,135,54,22,22,51,32,10,7,0.5,0.4
2023-10-31T09:00:00,1169A,120.86,32.0005,南通市,虹桥,,42,42,42,22,22,144,53,35,34,46,45,10,7,0.5,0.5
2023-10-31T09:00:00,1170A,120.87,32.02,南通市,城中,,38,38,34,21,19,145,53,39,39,48,35,10,8,0.4,0.4
2023-10-31T09:00:00,1171A,120.94,31.93,南通市,星湖花园,颗粒物(PM10),53,55,37,29,16,137,38,28,26,56,34,11,7,0.5,0.4
2023-10-31T09:00:00,1172A,120.81,32.0417,南通市,紫琅学院,,33,33,40,18,16,136,54,28,28,40,50,14,9,0.6,0.6
2023-10-31T09:00:00,1173A,119.176,34.5885,连云港市,市环境监测站,细颗粒物(PM2.5),110,112,99,83,61,165,83,70,70,31,31,14,12,0.8,0.7
2023-10-31T09:00:00,1177A,117.179,34.2761,徐州市,黄河新村,细颗粒物(PM2.5),143,158,111,109,73,166,58,54,54,51,37,11,8,0.8,0.6
2023-10-31T09:00:00,1178A,117.1918,34.2384,徐州市,淮塔,细颗粒物(PM2.5),165,202,123,125,76,179,59,42,42,50,41,12,10,0.5,0.3
2023-10-31T09:00:00,1180A,117.256,34.2153,徐州市,新城区,细颗粒物(PM2.5),142,168,127,108,77,181,71,50,50,48,44,12,9,1.1,0.8
2023-10-31T09:00:00,1181A,117.244,34.2911,徐州市,桃园路,细颗粒物(PM2.5),144,163,121,110,69,176,76,67,66,43,34,13,10,1.1,0.9
2023-10-31T09:00:00,1182A,117.2933,34.2778,徐州市,农科院,细颗粒物(PM2.5),139,161,111,106,70,183,65,70,70,48,32,12,10,1.1,0.8
2023-10-31T09:00:00,1186A,119.389,32.3761,扬州市,邗江监测站,颗粒物(PM10),80,110,91,34,37,201,61,37,36,58,54,11,9,0.7,0.7
2023-10-31T09:00:00,1188A,120.269,31.4867,无锡市,雪浪,颗粒物(PM10),53,56,49,31,23,154,54,35,35,27,31,7,6,0.5,0.6
2023-10-31T09:00:00,1189A,120.275,31.6219,无锡市,黄巷,颗粒物(PM10),73,95,71,29,23,156,42,31,30,58,62,9,9,0.4,0.5
2023-10-31T09:00:00,1190A,120.294,31.56,无锡市,曹张,,47,47,44,31,27,148,35,34,32,54,51,9,8,1.0,0.9
2023-10-31T09:00:00,1191A,120.242,31.5031,无锡市,漆塘,颗粒物(PM10),53,56,44,34,23,163,59,36,36,33,33,9,7,1.1,1.1
2023-10-31T09:00:00,1192A,120.3489,31.5863,无锡市,东亭,颗粒物(PM10),60,70,53,39,24,147,34,27,24,73,61,7,6,0.6,0.5
2023-10-31T09:00:00,1193A,120.354,31.5475,无锡市,旺庄,颗粒物(PM10),57,63,56,31,24,150,34,20,20,63,64,8,6,0.7,0.7
2023-10-31T09:00:00,1194A,120.245,31.5631,无锡市,荣巷,,46,46,34,31,21,161,58,34,34,30,29,10,9,1.0,0.9
2023-10-31T09:00:00,1195A,120.299,31.6817,无锡市,堰桥,颗粒物(PM10),58,66,51,29,23,137,31,27,24,56,45,8,7,0.8,0.7
2023-10-31T09:00:00,1196A,119.9633,31.762,常州市,市监测站,颗粒物(PM10),71,91,83,40,39,169,46,40,40,45,58,9,9,0.7,0.8
2023-10-31T09:00:00,1200A,119.9468,31.7069,常州市,武进监测站,颗粒物(PM10),70,90,77,39,34,166,56,53,53,31,32,13,13,0.7,0.6
2023-10-31T09:00:00,1201A,119.9255,31.9087,常州市,安家,颗粒物(PM10),71,91,79,39,41,182,48,32,32,52,57,7,8,0.9,0.8
2023-10-31T09:00:00,1203A,119.6707,32.1875,镇江市,新区办事处,细颗粒物(PM2.5),65,66,70,47,43,192,66,41,41,36,58,10,6,0.5,0.6
2023-10-31T09:00:00,1204A,119.4974,32.1968,镇江市,职教中心,细颗粒物(PM2.5),112,77,78,84,61,189,51,25,25,41,51,9,9,0.7,0.7
2023-10-31T09:00:00,1205A,119.4303,32.1328,镇江市,丹徒区监测站,细颗粒物(PM2.5),102,62,70,76,53,182,34,29,26,50,43,8,5,0.7,0.6
2023-10-31T09:00:00,1206A,119.905,32.4878,泰州市,公园路,"颗粒物(PM10),细颗粒物(PM2.5)",62,73,67,44,39,175,55,24,24,46,42,14,11,0.9,0.8
2023-10-31T09:00:00,1207A,119.9189,32.4625,泰州市,莲花,"颗粒物(PM10),细颗粒物(PM2.5)",62,73,71,44,39,176,49,20,20,47,44,11,10,0.8,0.7
2023-10-31T09:00:00,1209A,119.888,32.4639,泰州市,留学生创业园,细颗粒物(PM2.5),69,70,66,50,37,175,48,24,24,46,39,13,12,1.1,0.9
2023-10-31T09:00:00,1210A,119.036,33.5981,淮安市,钵池山,细颗粒物(PM2.5),103,92,74,77,58,159,92,78,78,33,29,16,10,1.0,0.9
2023-10-31T09:00:00,1211A,119.007,33.575,淮安市,北京南路,,,,77,,58,170,81,75,73,41,33,,10,,0.7
2023-10-31T09:00:00,1212A,118.989,33.6067,淮安市,市监测站,细颗粒物(PM2.5),98,112,83,73,49,166,87,88,84,45,32,22,15,1.5,0.7
2023-10-31T09:00:00,1213A,119.135,33.5039,淮安市,楚州区监测站,细颗粒物(PM2.5),130,120,94,99,61,166,44,9,9,66,61,10,9,1.2,0.9
2023-10-31T09:00:00,1214A,119.0186,33.6297,淮安市,淮阴区监测站,细颗粒物(PM2.5),103,153,99,77,53,164,92,89,86,33,31,23,14,1.0,0.8
2023-10-31T09:00:00,1215A,120.118,33.4022,盐城市,盐城电厂,细颗粒物(PM2.5),70,78,57,51,26,154,64,46,45,34,19,12,9,0.7,0.6
2023-10-31T09:00:00,1216A,120.156,33.3942,盐城市,市监测站,颗粒物(PM10),58,66,46,33,28,184,80,55,55,33,22,10,8,0.6,0.5
2023-10-31T09:00:00,1218A,120.2144,33.38,盐城市,开发区管委会,细颗粒物(PM2.5),64,75,48,46,25,166,45,41,39,33,19,8,6,0.6,0.5
2023-10-31T09:00:00,1220A,118.293,33.9528,宿迁市,宿迁学院,细颗粒物(PM2.5),92,97,79,68,52,201,87,92,90,45,41,16,13,1.0,0.9
2023-10-31T09:00:00,1221A,118.2442,33.9592,宿迁市,宿迁中学,颗粒物(PM10),90,129,105,66,50,190,90,90,88,44,40,17,13,0.9,0.7
2023-10-31T09:00:00,1223A,120.2072,30.2111,杭州市,滨江,"颗粒物(PM10),细颗粒物(PM2.5)",65,79,85,47,43,192,54,28,28,50,51,8,8,0.9,0.6
2023-10-31T09:00:00,1224A,120.0633,30.2747,杭州市,西溪,细颗粒物(PM2.5),88,73,55,65,45,185,47,9,9,43,36,6,5,0.8,0.7
2023-10-31T09:00:00,1226A,120.3461,30.3153,杭州市,下沙,细颗粒物(PM2.5),79,87,70,58,44,179,75,20,20,43,63,8,8,0.7,0.5
2023-10-31T09:00:00,1227A,120.1269,30.2456,杭州市,卧龙桥,细颗粒物(PM2.5),94,66,52,70,39,192,42,12,12,36,24,5,5,0.7,0.6
2023-10-31T09:00:00,1228A,120.1903,30.2692,杭州市,浙江农大,细颗粒物(PM2.5),75,74,61,55,44,159,52,16,16,47,49,7,7,0.7,0.6
2023-10-31T09:00:00,1230A,120.1197,30.3119,杭州市,和睦小学,细颗粒物(PM2.5),78,76,66,57,42,184,30,11,11,59,53,9,9,0.8,0.7
2023-10-31T09:00:00,1231A,120.3019,30.4183,杭州市,临平镇,颗粒物(PM10),77,104,77,49,37,179,40,19,19,64,45,7,6,0.9,0.7
2023-10-31T09:00:00,1232A,120.2697,30.1819,杭州市,城厢镇,细颗粒物(PM2.5),78,73,76,57,53,173,58,42,42,40,42,5,6,0.8,0.7
2023-10-31T09:00:00,1233A,120.0883,30.1808,杭州市,云栖,细颗粒物(PM2.5),83,88,55,61,36,175,32,15,15,52,29,7,6,0.9,0.6
2023-10-31T09:00:00,1234A,121.8358,29.911,宁波市,区环保大楼,,19,18,23,11,14,123,44,27,27,37,44,5,6,0.7,0.6
2023-10-31T09:00:00,1235A,121.56,29.82,宁波市,万里学院,,37,37,46,13,20,134,46,8,8,22,31,11,9,0.7,0.6
2023-10-31T09:00:00,1236A,121.713,29.9572,宁波市,龙赛医院,颗粒物(PM10),56,61,45,18,22,85,28,18,18,46,52,8,7,0.5,0.4
2023-10-31T09:00:00,1239A,121.633,29.7733,宁波市,钱湖水厂,颗粒物(PM10),54,58,30,25,11,130,24,45,40,25,10,8,7,0.5,0.4
2023-10-31T09:00:00,1240A,121.5856,29.8635,宁波市,太古小学,,35,35,36,15,16,138,32,8,8,41,38,9,8,0.9,0.7
2023-10-31T09:00:00,1241A,121.524,29.8674,宁波市,市环境监测中心,,30,30,37,14,15,135,42,24,24,28,27,7,7,0.6,0.6
2023-10-31T09:00:00,1242A,120.634,28.0089,温州市,瓯海,颗粒物(PM10),52,54,42,28,20,137,39,10,10,37,37,10,7,0.5,0.6
2023-10-31T09:00:00,1243A,120.6748,27.9939,温州市,南浦,,47,47,39,29,18,129,46,31,31,27,26,9,7,0.3,0.3
2023-10-31T09:00:00,1244A,120.76,27.9747,温州市,龙湾,,39,39,45,16,15,127,46,28,28,31,35,6,6,0.6,0.5
2023-10-31T09:00:00,1245A,120.6709,28.0167,温州市,市站,,44,44,42,28,19,117,40,42,42,30,27,8,7,0.6,0.4
2023-10-31T09:00:00,1247A,120.6053,29.9928,绍兴市,城东开发委,颗粒物(PM10),51,52,62,35,37,162,52,38,35,31,29,9,9,0.7,0.7
2023-10-31T09:00:00,1250A,120.0751,30.8669,湖州市,城西水厂,细颗粒物(PM2.5),79,99,78,58,42,173,14,5,5,68,72,5,5,0.7,0.5
2023-10-31T09:00:00,1252A,120.7436,30.778,嘉兴市,清河小学,颗粒物(PM10),63,75,44,36,20,186,62,37,37,32,33,11,7,0.8,0.7
2023-10-31T09:00:00,1253A,120.726,30.7478,嘉兴市,嘉兴学院,细颗粒物(PM2.5),75,78,42,55,25,182,47,51,50,37,21,9,7,0.6,0.5
2023-10-31T09:00:00,1255A,121.273,28.6459,台州市,黄岩环保大楼,,38,38,30,21,15,122,43,51,50,21,16,6,6,0.6,0.5
2023-10-31T09:00:00,1256A,121.419,28.6542,台州市,台州环保大楼,,31,31,31,20,16,120,45,33,33,29,18,6,5,0.5,0.4
2023-10-31T09:00:00,1257A,121.377,28.5773,台州市,路桥田洋王,,28,28,51,13,23,116,40,23,23,24,26,8,8,0.6,0.5
2023-10-31T09:00:00,1258A,122.122,30.0203,舟山市,定海檀枫,,20,13,18,9,9,124,61,39,39,21,14,7,6,0.5,0.4
2023-10-31T09:00:00,1259A,122.3094,29.9558,舟山市,普陀东港,,21,11,18,8,8,117,67,70,69,23,12,6,5,0.4,0.3
2023-10-31T09:00:00,1260A,122.19,29.9944,舟山市,临城新区,,20,14,19,6,9,120,62,45,45,26,18,6,5,0.4,0.3
2023-10-31T09:00:00,1262A,119.647,29.077,金华市,十五中,细颗粒物(PM2.5),59,62,53,42,37,178,54,46,44,38,40,7,6,0.7,0.7
2023-10-31T09:00:00,1263A,119.686,29.1029,金华市,监测站,细颗粒物(PM2.5),88,77,68,65,39,173,40,12,12,46,59,9,6,0.9,0.8
2023-10-31T09:00:00,1264A,118.8692,28.9398,衢州市,环保大楼,,,61,61,38,39,161,,39,38,32,31,6,4,0.7,0.7
2023-10-31T09:00:00,1265A,118.8709,28.9666,衢州市,实验学校,"颗粒物(PM10),细颗粒物(PM2.5)",59,68,62,42,38,173,57,34,34,29,30,11,6,0.7,0.6
2023-10-31T09:00:00,1266A,118.8621,28.9808,衢州市,衢州学院,细颗粒物(PM2.5),79,82,68,58,41,164,26,8,8,47,46,9,6,0.8,0.7
2023-10-31T09:00:00,1267A,119.914,28.4514,丽水市,监测站大楼,,44,44,46,27,26,160,26,18,18,21,27,6,9,0.4,0.4
2023-10-31T09:00:00,1268A,119.93,28.4586,丽水市,莲都小学,颗粒物(PM10),51,51,49,34,24,164,20,16,13,26,30,6,6,0.5,0.4
2023-10-31T09:00:00,1269A,119.879,28.4231,丽水市,余庄前,细颗粒物(PM2.5),73,66,43,53,29,150,21,7,7,22,20,5,5,0.5,0.4
2023-10-31T09:00:00,1270A,117.1959,31.7848,合肥市,明珠广场,细颗粒物(PM2.5),92,132,98,68,54,194,51,83,74,55,46,10,11,0.9,0.7
2023-10-31T09:00:00,1271A,117.3072,31.8764,合肥市,三里街,细颗粒物(PM2.5),104,136,116,78,60,183,38,43,41,64,72,8,8,0.9,0.8
2023-10-31T09:00:00,1272A,117.2588,31.8707,合肥市,琥珀山庄,细颗粒物(PM2.5),94,122,100,70,54,200,76,60,60,39,43,7,6,0.9,0.9
2023-10-31T09:00:00,1273A,117.1604,31.9052,合肥市,董铺水库,颗粒物(PM10),64,78,95,41,47,223,54,85,76,35,36,3,4,0.8,0.7
2023-10-31T09:00:00,1274A,117.25,31.8571,合肥市,长江中路,细颗粒物(PM2.5),102,127,104,76,63,187,65,82,76,43,43,10,11,1.0,0.9
2023-10-31T09:00:00,1275A,117.266,31.9436,合肥市,庐阳区,细颗粒物(PM2.5),100,129,106,75,58,186,57,75,68,56,50,7,7,1.1,0.8
2023-10-31T09:00:00,1276A,117.336,31.8586,合肥市,瑶海区,细颗粒物(PM2.5),112,158,120,84,61,182,44,47,42,62,71,7,7,1.3,1.1
2023-10-31T09:00:00,1277A,117.3027,31.7964,合肥市,包河区,细颗粒物(PM2.5),107,127,100,80,59,190,74,55,53,36,64,8,9,0.9,0.9
2023-10-31T09:00:00,1278A,117.2776,31.7385,合肥市,滨湖新区,细颗粒物(PM2.5),85,114,93,63,50,190,77,88,83,31,27,8,9,0.7,0.7
2023-10-31T09:00:00,1279A,117.1318,31.8403,合肥市,高新区,细颗粒物(PM2.5),103,114,96,77,56,194,50,101,91,66,43,8,11,0.9,0.8
2023-10-31T09:00:00,1280A,119.3903,26.0543,福州市,鼓山,,,,,,,,,,,,,,,,
2023-10-31T09:00:00,1282A,119.2681,26.0504,福州市,师大,,40,40,32,13,12,146,57,49,49,16,12,7,6,0.6,0.5
2023-10-31T09:00:00,1283A,119.2984,26.1028,福州市,五四北路,,40,40,31,12,12,144,68,57,57,14,12,4,4,0.6,0.6
2023-10-31T09:00:00,1284A,119.2648,26.0768,福州市,杨桥西路,,41,41,34,14,13,140,62,54,54,14,13,5,4,0.5,0.5
2023-10-31T09:00:00,1285A,119.317,26.0746,福州市,紫阳,,,43,31,13,11,134,62,62,61,,9,6,6,0.5,0.5
2023-10-31T09:00:00,1286A,118.1608,24.8169,厦门市,溪东,,,,,,,,,,,,,,,,
2023-10-31T09:00:00,1287A,118.1514,24.4767,厦门市,洪文,,23,23,30,9,15,143,73,71,71,7,9,1,2,0.4,0.4
2023-10-31T09:00:00,1288A,118.0661,24.4444,厦门市,鼓浪屿,,21,21,30,11,15,132,56,52,52,15,12,3,3,0.4,0.4
2023-10-31T09:00:00,1290A,115.8931,28.6843,南昌市,省外办,细颗粒物(PM2.5),94,126,106,70,65,173,45,25,25,58,43,10,6,0.5,0.5
2023-10-31T09:00:00,1291A,115.8886,28.7003,南昌市,省林业公司,颗粒物(PM10),86,122,111,63,63,183,28,10,10,48,64,7,7,0.6,0.6
2023-10-31T09:00:00,1292A,115.8126,28.7442,南昌市,林科所,,,,79,,49,195,,85,85,,41,,9,,0.8
2023-10-31T09:00:00,1294A,115.8518,28.687,南昌市,建工学校,细颗粒物(PM2.5),84,100,108,62,65,183,71,25,25,44,62,17,11,0.9,1
2023-10-31T09:00:00,1295A,115.8921,28.6424,南昌市,象湖,细颗粒物(PM2.5),104,146,107,78,64,193,19,5,5,82,62,9,7,1.2,1
2023-10-31T09:00:00,1296A,115.7423,28.7996,南昌市,武术学校,,20,20,34,8,25,169,13,13,12,9,9,3,3,0.5,0.5
2023-10-31T09:00:00,1298A,115.9314,28.6842,南昌市,省站,细颗粒物(PM2.5),94,132,120,70,67,185,66,39,39,44,46,9,9,0.8,0.8
2023-10-31T09:00:00,1299A,116.9862,36.6114,济南市,科干所,颗粒物(PM10),52,53,105,27,52,188,101,112,108,13,17,8,12,0.5,0.7
2023-10-31T09:00:00,1300A,116.9376,36.665,济南市,农科所,颗粒物(PM10),67,83,122,34,63,161,81,69,69,27,56,8,8,0.3,0.6
2023-10-31T09:00:00,1301A,117.1265,36.6734,济南市,开发区,,49,49,106,22,51,179,90,72,72,26,64,8,10,0.5,0.9
2023-10-31T09:00:00,1303A,117.0624,36.6868,济南市,省种子仓库,颗粒物(PM10),53,56,153,19,78,183,91,41,41,21,75,7,10,0.5,1.2
2023-10-31T09:00:00,1304A,116.9489,36.6447,济南市,机床二厂,颗粒物(PM10),70,90,137,32,69,170,80,87,86,30,43,7,9,0.4,0.7
2023-10-31T09:00:00,1305A,117.0495,36.663,济南市,市监测站,,46,46,128,20,63,185,104,69,69,21,69,7,10,0.3,0.9
2023-10-31T09:00:00,1306A,116.7675,36.5484,济南市,长清党校,细颗粒物(PM2.5),68,83,143,49,76,170,83,89,86,24,32,10,12,0.6,0.8
2023-10-31T09:00:00,1307A,120.6659,36.2403,青岛市,仰口,颗粒物(PM10),65,80,58,34,30,158,120,130,127,19,15,6,5,0.6,0.5
2023-10-31T09:00:00,1310A,120.4134,36.0658,青岛市,市南区东部子站,,,,54,,23,182,,112,112,,14,,8,,0.5
2023-10-31T09:00:00,1311A,120.3664,36.1032,青岛市,四方区子站,颗粒物(PM10),65,80,56,39,26,182,120,117,116,27,20,8,6,0.8,0.6
2023-10-31T09:00:00,1312A,120.2994,36.054,青岛市,市南区西部子站,颗粒物(PM10),65,80,62,42,25,186,126,114,114,18,15,9,7,0.7,0.5
2023-10-31T09:00:00,1313A,120.4581,36.0858,青岛市,崂山区子站,"颗粒物(PM10),细颗粒物(PM2.5)",62,73,58,44,29,183,121,116,116,23,17,8,8,0.6,0.5
2023-10-31T09:00:00,1314A,120.1983,35.9608,青岛市,黄岛区子站,颗粒物(PM10),68,85,61,46,31,171,121,113,113,37,23,10,8,0.8,0.6
2023-10-31T09:00:00,1315A,120.3999,36.3083,青岛市,城阳区子站,颗粒物(PM10),74,97,64,34,25,174,106,109,106,43,27,10,8,1.0,0.7
2023-10-31T09:00:00,1316A,113.69031,34.76122,郑州市,烟厂,颗粒物(PM10),83,115,97,48,46,148,12,22,18,73,61,11,12,1.0,0.8
2023-10-31T09:00:00,1317A,113.65724,34.77134,郑州市,郑纺机,颗粒物(PM10),84,117,101,49,45,148,14,16,14,78,67,11,12,1.1,0.9
2023-10-31T09:00:00,1318A,113.67526,34.80246,郑州市,银行学校,细颗粒物(PM2.5),87,119,101,64,57,154,23,19,19,60,59,13,12,1.3,1.1
2023-10-31T09:00:00,1319A,113.56746,34.81334,郑州市,供水公司,颗粒物(PM10),103,155,126,72,63,163,26,19,19,52,69,18,8,1.2,1
2023-10-31T09:00:00,1320A,113.7329,34.7178,郑州市,经开区管委,颗粒物(PM10),67,84,85,34,35,151,11,16,15,59,55,10,11,0.8,0.7
2023-10-31T09:00:00,1321A,113.73961,34.77172,郑州市,四十七中,颗粒物(PM10),87,123,95,55,48,166,15,22,21,66,63,10,11,1.1,0.8
2023-10-31T09:00:00,1322A,113.60532,34.74838,郑州市,市监测站,颗粒物(PM10),105,159,125,49,51,152,9,7,5,70,64,10,12,0.8,0.7
2023-10-31T09:00:00,1323A,113.64164,34.7525,郑州市,河医大,颗粒物(PM10),73,96,91,44,41,149,13,16,12,61,49,12,14,1.1,0.9
2023-10-31T09:00:00,1324A,113.51488,34.91089,郑州市,岗李水库,,,,,,,,,,,,,,,,
2023-10-31T09:00:00,1325A,114.3677,30.5584,武汉市,东湖梨园,细颗粒物(PM2.5),140,171,105,107,70,191,19,22,20,70,43,10,8,1.4,0.9
2023-10-31T09:00:00,1326A,114.2529,30.558,武汉市,汉阳月湖,细颗粒物(PM2.5),117,140,109,88,72,163,27,10,10,65,84,7,8,1.1,0.9
2023-10-31T09:00:00,1327A,114.282,30.6189,武汉市,汉口花桥,细颗粒物(PM2.5),108,137,113,81,74,186,28,31,28,78,68,8,8,1.4,1.2
2023-10-31T09:00:00,1328A,114.3025,30.5332,武汉市,武昌紫阳,细颗粒物(PM2.5),90,122,115,67,54,206,73,31,31,51,78,9,9,1.3,1.1
2023-10-31T09:00:00,1329A,114.3646,30.6217,武汉市,青山钢花,细颗粒物(PM2.5),160,184,156,122,102,199,27,14,14,78,90,14,11,1.7,1.5
2023-10-31T09:00:00,1330A,114.1566,30.4825,武汉市,沌口新区,细颗粒物(PM2.5),102,112,103,76,62,172,37,28,28,74,88,10,10,1.1,0.9
2023-10-31T09:00:00,1331A,114.3014,30.5944,武汉市,汉口江滩,细颗粒物(PM2.5),107,157,112,80,57,187,28,31,31,63,77,8,8,1.3,0.9
2023-10-31T09:00:00,1333A,114.135,30.6319,武汉市,吴家山,细颗粒物(PM2.5),113,134,100,85,71,186,25,20,20,104,75,10,10,1.2,0.8
2023-10-31T09:00:00,1334A,113.8454,30.2917,武汉市,沉湖七壕,细颗粒物(PM2.5),67,47,65,48,40,174,13,8,8,58,49,6,8,1.0,0.7
2023-10-31T09:00:00,1335A,113.0833,28.2325,长沙市,经开区环保局,颗粒物(PM10),65,79,80,45,59,152,25,16,16,36,39,11,9,0.7,0.6
2023-10-31T09:00:00,1336A,112.8872,28.2189,长沙市,高开区环保局,细颗粒物(PM2.5),74,73,82,54,49,170,11,2,2,52,46,6,6,0.9,0.8
2023-10-31T09:00:00,1337A,113.0792,28.2053,长沙市,马坡岭,颗粒物(PM10),66,81,94,41,47,180,22,7,7,29,44,8,7,0.5,0.6
2023-10-31T09:00:00,1338A,112.9394,28.19,长沙市,湖南师范大学,细颗粒物(PM2.5),74,71,69,54,41,180,14,6,4,41,31,7,7,0.8,0.7
2023-10-31T09:00:00,1339A,113.0178,28.1322,长沙市,雨花区环保局,颗粒物(PM10),58,66,76,40,48,172,32,9,9,32,52,4,3,0.8,0.9
2023-10-31T09:00:00,1340A,112.9792,28.2597,长沙市,伍家岭,颗粒物(PM10),63,75,70,41,48,162,6,1,1,39,45,6,6,0.9,0.8
2023-10-31T09:00:00,1341A,113.0014,28.1944,长沙市,火车新站,细颗粒物(PM2.5),64,74,86,46,56,166,25,10,10,44,54,7,6,0.8,0.9
2023-10-31T09:00:00,1342A,112.9844,28.1178,长沙市,天心区环保局,颗粒物(PM10),56,62,78,38,40,160,36,7,7,36,60,7,6,0.1,0.6
2023-10-31T09:00:00,1343A,112.8908,28.1308,长沙市,湖南中医药大学,颗粒物(PM10),63,76,72,36,40,188,5,1,1,40,43,4,4,0.9,0.8
2023-10-31T09:00:00,1344A,112.9581,28.3611,长沙市,沙坪,,48,42,38,33,32,105,24,34,32,16,12,5,5,0.4,0.3
2023-10-31T09:00:00,1345A,113.2347,23.1423,广州市,广雅中学,,47,47,56,27,28,117,57,31,31,32,41,5,5,0.8,0.9
2023-10-31T09:00:00,1346A,113.2612,23.105,广州市,市五中,,36,35,44,25,31,127,67,51,51,24,25,7,7,0.5,0.6
2023-10-31T09:00:00,1348A,113.3478,23.0916,广州市,广东商学院,,32,32,39,22,28,105,50,38,38,30,26,5,5,0.5,0.6
2023-10-31T09:00:00,1349A,113.4332,23.1047,广州市,市八十六中,,42,42,47,23,27,105,42,19,19,39,38,4,4,0.6,0.7
2023-10-31T09:00:00,1350A,113.3505,22.9483,广州市,番禺中学,,40,40,45,25,24,126,42,16,16,45,40,7,6,0.6,0.7
2023-10-31T09:00:00,1351A,113.2146,23.3916,广州市,花都师范,,38,38,43,23,30,112,82,56,56,21,23,10,8,0.7,0.8
2023-10-31T09:00:00,1352A,113.2597,23.1331,广州市,市监测站,,46,46,42,30,30,119,56,44,44,34,33,5,5,0.5,0.6
2023-10-31T09:00:00,1353A,113.5618,23.312,广州市,九龙镇镇龙,,39,39,40,26,27,86,27,8,8,26,24,5,5,0.6,0.6
2023-10-31T09:00:00,1354A,113.2765,23.1544,广州市,麓湖,,35,33,38,24,26,123,65,30,30,20,28,6,5,0.6,0.6
2023-10-31T09:00:00,1355A,113.443,23.3035,广州市,帽峰山森林公园,,31,31,32,20,23,110,59,56,56,17,14,8,7,0.9,0.9
2023-10-31T09:00:00,1356A,114.1063,22.5545,深圳市,通心岭子站,,24,24,31,10,19,116,65,71,68,25,24,4,4,0.3,0.3
2023-10-31T09:00:00,1357A,114.117,22.5625,深圳市,洪湖,,46,46,49,20,26,112,58,31,31,25,26,2,1,0.6,0.6
2023-10-31T09:00:00,1358A,113.987,22.5417,深圳市,华侨城,,34,34,41,19,24,128,67,56,56,21,22,3,3,0.1,0.1
2023-10-31T09:00:00,1359A,113.9181,22.5171,深圳市,南海子站,,50,50,55,26,31,114,38,68,64,57,33,4,3,0.2,0.3
2023-10-31T09:00:00,1360A,114.2458,22.5689,深圳市,盐田,,40,40,37,19,22,110,48,90,85,47,25,4,3,0.4,0.4
2023-10-31T09:00:00,1361A,114.2283,22.7244,深圳市,龙岗,,43,43,48,27,28,122,62,49,49,25,24,4,4,0.8,0.8
2023-10-31T09:00:00,1363A,114.494,22.5422,深圳市,南澳,,29,29,41,18,28,149,89,90,90,12,9,3,3,0.3,0.3
2023-10-31T09:00:00,1364A,114.41,22.6342,深圳市,葵涌,,35,35,36,17,21,107,74,60,60,14,15,2,2,0.4,0.4
2023-10-31T09:00:00,1365A,114.297,22.5978,深圳市,梅沙,,35,35,38,20,19,122,86,90,87,10,11,3,3,0.8,0.8
2023-10-31T09:00:00,1366A,114.0678,22.738,深圳市,观澜,颗粒物(PM10),53,55,59,27,29,124,60,41,41,31,32,5,4,1.0,0.9
2023-10-31T09:00:00,1367A,113.5814,22.2618,珠海市,吉大,,43,43,45,26,26,165,73,81,81,26,20,8,7,0.6,0.6
2023-10-31T09:00:00,1368A,113.4881,22.2335,珠海市,前山,,34,34,32,18,23,139,60,48,45,36,37,7,7,0.6,0.6
2023-10-31T09:00:00,1369A,113.628,22.4251,珠海市,唐家,,45,45,45,30,27,173,67,62,62,29,27,6,5,0.4,0.5
2023-10-31T09:00:00,1370A,113.299,22.2281,珠海市,斗门,细颗粒物(PM2.5),53,53,39,37,27,133,36,20,20,41,33,9,8,0.7,0.6
2023-10-31T09:00:00,1371A,113.1294,23.0067,佛山市,湾梁,,41,41,43,24,28,141,48,24,24,36,35,11,12,0.6,0.7
2023-10-31T09:00:00,1372A,113.1083,23.0478,佛山市,华材职中,颗粒物(PM10),51,51,56,28,34,131,43,14,14,42,48,8,8,0.6,0.7
2023-10-31T09:00:00,1373A,113.144,23.0453,佛山市,南海气象局,,39,35,49,27,30,135,45,15,15,43,48,8,9,0.6,0.7
2023-10-31T09:00:00,1374A,113.2881,22.8094,佛山市,顺德苏岗,,42,41,42,29,27,117,33,6,6,38,36,11,8,0.8,0.8
2023-10-31T09:00:00,1376A,112.8383,22.8678,佛山市,高明孔堂,细颗粒物(PM2.5),55,57,59,39,35,162,38,15,15,44,33,17,8,0.8,0.8
2023-10-31T09:00:00,1377A,112.8836,23.1588,佛山市,三水监测站,颗粒物(PM10),57,63,54,37,32,130,41,15,15,33,30,8,6,0.9,0.9
2023-10-31T09:00:00,1378A,112.867,23.185,佛山市,三水云东海,颗粒物(PM10),58,65,47,40,36,127,34,8,8,29,25,10,6,0.8,0.8
2023-10-31T09:00:00,1379A,113.3769,22.5211,中山市,华柏园,颗粒物(PM10),55,59,50,30,26,176,39,11,11,47,44,5,5,0.5,0.5
2023-10-31T09:00:00,1380A,113.3881,22.5497,中山市,张溪,颗粒物(PM10),61,72,60,36,31,175,42,7,7,41,44,5,5,0.6,0.7
2023-10-31T09:00:00,1381A,113.4075,22.5111,中山市,紫马岭,颗粒物(PM10),57,64,43,37,29,183,41,11,11,42,36,6,5,0.6,0.6
2023-10-31T09:00:00,1382A,113.4411,22.4853,中山市,长江旅游区,,,,,,,,,,,,,,,,
2023-10-31T09:00:00,1383A,113.1064,22.6058,江门市,北街,细颗粒物(PM2.5),62,59,62,44,42,154,26,6,6,56,55,9,8,0.7,0.8
2023-10-31T09:00:00,1384A,113.0731,22.5835,江门市,西区,,,66,61,34,36,163,,9,7,51,49,9,8,,0.8
2023-10-31T09:00:00,1385A,113.0219,22.5311,江门市,圭峰西,,49,49,51,30,31,167,39,32,32,49,40,7,7,0.7,0.8
2023-10-31T09:00:00,1386A,113.0828,22.5947,江门市,东湖,颗粒物(PM10),56,61,56,34,33,155,27,11,11,52,41,8,8,0.8,0.8
2023-10-31T09:00:00,1389A,113.7547,23.0494,东莞市,莞城梨川,,37,37,39,23,26,122,43,18,18,33,29,10,8,0.7,0.7
2023-10-31T09:00:00,1390A,113.7944,23.0128,东莞市,东城石井,,37,37,40,24,25,124,48,18,18,25,20,10,7,0.7,0.7
2023-10-31T09:00:00,1391A,113.7383,22.9658,东莞市,南城西平,,42,42,44,25,26,120,50,9,9,27,38,8,6,0.7,0.8
2023-10-31T09:00:00,1392A,114.4183,23.0528,惠州市,河南岸金山湖子站,,38,38,42,26,27,102,53,24,24,17,17,10,7,0.6,0.6
2023-10-31T09:00:00,1393A,114.4053,23.0822,惠州市,下埔横江三路子站,,38,38,36,24,18,107,54,47,47,19,18,12,11,0.6,0.6
2023-10-31T09:00:00,1394A,114.4103,23.1142,惠州市,江北云山西路子站,,32,32,44,22,31,116,62,44,44,12,16,10,11,0.6,0.6
2023-10-31T09:00:00,1395A,114.4645,22.7833,惠州市,惠阳区承修路船湖子站,颗粒物(PM10),52,54,48,29,27,90,28,36,36,18,14,9,9,0.9,0.9
2023-10-31T09:00:00,1396A,114.5317,22.7422,惠州市,大亚湾管委会子站,,38,38,39,22,22,90,57,66,66,21,23,6,5,0.9,0.9
2023-10-31T09:00:00,1397A,112.4267,23.0706,肇庆市,睦岗子站,颗粒物(PM10),54,57,47,30,30,122,28,8,8,39,36,10,8,0.8,0.7
2023-10-31T09:00:00,1398A,112.4645,23.0475,肇庆市,城中子站,,40,40,40,27,28,125,60,16,16,27,32,12,8,0.8,0.8
2023-10-31T09:00:00,1399A,112.5544,23.1522,肇庆市,坑口子站,,45,40,42,31,27,122,35,31,31,27,20,11,9,0.6,0.5
2023-10-31T09:00:00,1400A,112.4753,23.1,肇庆市,七星岩子站,,,,,,,,,,,,,,,,
2023-10-31T09:00:00,1401A,108.3103,22.7881,南宁市,二十一中,颗粒物(PM10),57,64,46,34,25,110,11,12,6,37,27,14,12,1.1,1
2023-10-31T09:00:00,1402A,108.3141,22.8528,南宁市,北湖,,45,38,46,31,24,87,26,7,7,28,26,26,11,0.9,0.8
2023-10-31T09:00:00,1403A,108.3206,22.8225,南宁市,市监测站,细颗粒物(PM2.5),52,47,45,36,25,98,16,8,7,41,38,15,17,0.9,0.8
2023-10-31T09:00:00,1404A,108.3829,22.8037,南宁市,大自然花园,细颗粒物(PM2.5),58,57,35,41,27,88,9,28,23,35,19,12,10,1.0,1.5
2023-10-31T09:00:00,1405A,108.4394,22.7904,南宁市,仙葫,颗粒物(PM10),54,58,37,30,25,92,16,18,18,33,25,8,7,0.8,0.6
2023-10-31T09:00:00,1406A,108.2397,22.8467,南宁市,区农职院,颗粒物(PM10),56,62,36,29,20,102,19,14,14,36,23,18,9,1.0,0.8
2023-10-31T09:00:00,1407A,108.3275,22.735,南宁市,英华嘉园,"颗粒物(PM10),细颗粒物(PM2.5)",54,58,47,38,30,93,7,5,5,33,37,12,10,0.9,0.8
2023-10-31T09:00:00,1408A,108.2257,22.7757,南宁市,沙井镇街道办,颗粒物(PM10),55,60,57,35,31,108,14,4,4,23,28,13,13,1.0,0.9
2023-10-31T09:00:00,1409A,110.576,19.9507,海口市,东寨港,,,,,,,,,,,,,,,,
2023-10-31T09:00:00,1410A,110.3232,20.0574,海口市,海南大学,细颗粒物(PM2.5),53,49,37,37,29,148,97,118,116,12,12,9,8,0.7,0.6
2023-10-31T09:00:00,1411A,110.283,20.0053,海口市,秀英海南医院,细颗粒物(PM2.5),55,46,37,39,28,153,94,120,116,16,10,10,8,0.7,0.6
2023-10-31T09:00:00,1412A,110.338,19.9969,海口市,海南师范大学,细颗粒物(PM2.5),53,47,37,37,28,138,95,112,110,12,10,8,6,0.7,0.6
2023-10-31T09:00:00,1413A,110.33,20.0356,海口市,龙华路环保局宿舍,,50,45,36,35,26,148,95,120,117,15,11,11,9,0.6,0.4
2023-10-31T09:00:00,1414A,106.3787,29.8279,重庆市,缙云山,,28,25,23,19,16,102,65,83,79,10,13,7,7,0.1,0.2
2023-10-31T09:00:00,1416A,106.4213,29.8253,重庆市,天生,颗粒物(PM10),52,54,42,34,30,112,3,2,2,34,38,7,7,0.9,0.8
2023-10-31T09:00:00,1417A,106.6263,29.7228,重庆市,两路,,41,41,36,19,23,110,14,41,37,47,35,8,8,0.9,0.8
2023-10-31T09:00:00,1418A,106.2953,29.5983,重庆市,虎溪,,42,39,47,29,30,120,4,4,4,37,51,5,6,0.8,0.7
2023-10-31T09:00:00,1419A,106.5777,29.5102,重庆市,南坪,,48,47,52,33,32,135,26,48,47,36,26,12,10,0.8,0.9
2023-10-31T09:00:00,1420A,106.6556,29.6277,重庆市,唐家沱,,43,43,50,29,27,128,5,7,6,40,40,7,8,0.9,0.8
2023-10-31T09:00:00,1421A,106.6349,29.4906,重庆市,茶园,颗粒物(PM10),62,73,63,33,35,140,22,17,17,42,52,6,7,0.9,1
2023-10-31T09:00:00,1422A,106.3754,29.4572,重庆市,白市驿,细颗粒物(PM2.5),68,62,42,49,33,120,10,20,13,43,40,8,8,1.0,0.8
2023-10-31T09:00:00,1425A,106.6205,29.7166,重庆市,空港,,47,47,40,31,26,127,22,53,50,49,32,7,7,1.0,0.9
2023-10-31T09:00:00,1426A,106.4782,29.4875,重庆市,新山村,颗粒物(PM10),64,78,59,42,34,112,5,5,5,54,57,9,9,1.7,1.1
2023-10-31T09:00:00,1427A,106.5616,29.6453,重庆市,礼嘉,,44,44,47,29,29,135,7,5,4,50,50,10,10,0.9,0.9
2023-10-31T09:00:00,1428A,106.4522,29.7091,重庆市,蔡家,细颗粒物(PM2.5),58,58,51,41,29,113,6,8,8,33,40,6,7,1.0,0.7
2023-10-31T09:00:00,1429A,106.5093,29.3917,重庆市,鱼新街,颗粒物(PM10),56,61,55,37,34,129,8,5,5,49,51,10,8,1.3,1.3
2023-10-31T09:00:00,1431A,103.9728,30.7236,成都市,金泉两河,细颗粒物(PM2.5),53,51,63,37,46,69,16,22,22,26,31,5,5,0.6,0.6
2023-10-31T09:00:00,1432A,104.176,30.6872,成都市,十里店,细颗粒物(PM2.5),79,64,78,58,65,65,14,25,25,32,41,3,2,0.6,0.7
2023-10-31T09:00:00,1433A,104.079,30.5706,成都市,三瓦窑,细颗粒物(PM2.5),94,95,91,70,63,94,11,8,8,24,28,3,2,0.5,0.5
2023-10-31T09:00:00,1434A,104.1114,30.63,成都市,沙河铺,细颗粒物(PM2.5),94,82,86,70,61,96,10,26,26,30,33,3,2,0.7,0.7
2023-10-31T09:00:00,1437A,104.0786,30.6531,成都市,君平街,细颗粒物(PM2.5),77,67,90,56,68,75,37,37,37,33,46,3,4,0.7,0.7
2023-10-31T09:00:00,1438A,103.613,31.0283,成都市,灵岩寺,,17,11,51,8,31,91,54,48,48,9,13,7,9,0.7,0.7
2023-10-31T09:00:00,1439A,106.6899,26.5998,贵阳市,马鞍山,,32,24,26,22,18,100,10,8,8,9,15,4,5,0.5,0.4
2023-10-31T09:00:00,1440A,106.6971,26.5694,贵阳市,市环保站,细颗粒物(PM2.5),58,58,48,41,34,109,9,7,7,30,38,7,6,0.7,0.6
2023-10-31T09:00:00,1441A,106.6243,26.6266,贵阳市,鉴湖路,颗粒物(PM10),51,51,34,24,16,100,10,27,22,32,20,5,5,0.7,0.5
2023-10-31T09:00:00,1442A,106.7487,26.6343,贵阳市,燕子冲,细颗粒物(PM2.5),52,46,27,36,24,95,7,14,11,18,15,8,7,0.7,0.4
2023-10-31T09:00:00,1443A,106.6555,26.4365,贵阳市,碧云窝,,48,48,43,19,22,116,8,3,3,14,20,5,6,0.7,0.6
2023-10-31T09:00:00,1444A,106.694,26.5161,贵阳市,中院村,颗粒物(PM10),58,66,54,34,29,102,10,8,8,38,36,8,5,0.7,0.5
2023-10-31T09:00:00,1445A,106.7109,26.6027,贵阳市,红边门,,49,48,39,34,26,100,6,6,5,27,29,6,6,0.8,0.6
2023-10-31T09:00:00,1446A,106.7164,26.5699,贵阳市,新华路,颗粒物(PM10),56,61,53,29,28,105,11,7,7,23,35,6,6,0.5,0.6
2023-10-31T09:00:00,1447A,106.674,26.5424,贵阳市,太慈桥,,35,31,30,24,18,103,9,6,6,22,27,4,5,0.6,0.5
2023-10-31T09:00:00,1450A,102.8204,24.8886,昆明市,呈贡新区,细颗粒物(PM2.5),60,57,42,43,25,110,24,23,23,42,40,8,6,1.3,0.9
2023-10-31T09:00:00,1451A,102.6251,24.9608,昆明市,西山森林公园,,43,22,21,30,15,123,69,81,78,5,7,5,5,0.6,0.5
2023-10-31T09:00:00,1452A,102.7252,25.0902,昆明市,龙泉镇,,44,44,30,22,18,110,22,31,31,31,27,8,8,0.8,0.7
2023-10-31T09:00:00,1453A,102.7266,25.0375,昆明市,东风东路,颗粒物(PM10),52,54,37,23,19,119,18,23,23,48,33,10,10,0.8,0.6
2023-10-31T09:00:00,1454A,102.6742,25.0669,昆明市,金鼎山,,45,45,41,23,21,119,16,22,22,42,35,15,24,0.7,0.6
2023-10-31T09:00:00,1455A,102.6644,25.0401,昆明市,碧鸡广场,,44,44,33,28,21,104,44,43,43,23,32,9,8,0.8,0.7
2023-10-31T09:00:00,1456A,91.1319,29.6514,拉萨市,八廓街,,18,12,16,6,8,107,55,73,70,14,9,20,14,0.2,0.2
2023-10-31T09:00:00,1457A,91.1221,29.6747,拉萨市,市环保局,,19,19,18,9,8,122,45,73,68,25,14,14,10,0.7,0.5
2023-10-31T09:00:00,1458A,91.0874,29.6475,拉萨市,区监测站,,17,7,14,7,6,107,52,73,70,21,12,21,12,0.4,0.3
2023-10-31T09:00:00,1459A,91.1774,29.6541,拉萨市,西藏大学,,16,8,15,5,7,104,50,74,70,18,9,16,10,0.3,0.4
2023-10-31T09:00:00,1460A,90.9798,29.6588,拉萨市,区辐射站,,26,24,21,13,8,99,20,54,49,51,21,9,6,0.6,0.4
2023-10-31T09:00:00,1461A,91.0834,29.6292,拉萨市,拉萨火车站,,20,6,14,6,7,100,61,74,72,9,7,14,9,0.3,0.3
2023-10-31T09:00:00,1462A,108.882,34.2749,西安市,高压开关厂,颗粒物(PM10),74,98,114,32,41,84,5,4,4,68,83,12,12,0.9,0.9
2023-10-31T09:00:00,1463A,108.993,34.2629,西安市,兴庆小区,,47,47,73,19,31,103,17,12,12,40,65,6,7,1.3,0.7
2023-10-31T09:00:00,1464A,109.06,34.2572,西安市,纺织城,颗粒物(PM10),61,71,92,20,41,113,9,4,4,41,60,6,8,0.7,0.7
2023-10-31T09:00:00,1465A,108.9356,34.2173,西安市,小寨,颗粒物(PM10),63,75,92,30,39,78,7,2,2,59,74,9,10,1.0,1.1
2023-10-31T09:00:00,1466A,108.954,34.2713,西安市,市人民体育场,颗粒物(PM10),63,76,100,32,46,83,5,4,4,66,77,7,7,1.0,0.9
2023-10-31T09:00:00,1467A,108.8922,34.2322,西安市,高新西区,颗粒物(PM10),56,61,87,36,44,93,10,8,8,63,76,8,8,0.9,1
2023-10-31T09:00:00,1468A,108.935,34.3474,西安市,经开区,颗粒物(PM10),69,87,104,45,50,90,2,1,1,62,79,7,6,0.9,0.9
2023-10-31T09:00:00,1469A,108.906,34.1546,西安市,长安区,,38,38,81,20,33,88,20,6,6,38,60,6,8,0.4,0.5
2023-10-31T09:00:00,1471A,109.2186,34.3731,西安市,临潼区,颗粒物(PM10),83,115,114,54,49,90,8,11,10,55,45,10,12,0.8,0.8
2023-10-31T09:00:00,1472A,108.869,34.378,西安市,草滩,颗粒物(PM10),79,107,119,37,36,105,3,0,0,57,76,16,14,1.0,0.8
2023-10-31T09:00:00,1473A,108.985,34.1978,西安市,曲江文化产业集团,,50,50,91,19,37,79,6,2,2,52,70,5,6,0.8,0.8
2023-10-31T09:00:00,1474A,109.051,34.3213,西安市,广运潭,,45,45,87,20,42,105,13,3,3,34,61,7,9,0.5,0.6
2023-10-31T09:00:00,1476A,103.631,36.1031,兰州市,兰炼宾馆,颗粒物(PM10),85,120,113,53,60,152,7,3,3,61,79,22,16,1.1,1
2023-10-31T09:00:00,1477A,104.1373,35.9454,兰州市,榆中兰大校区,,,,,,,,,,,,,,,,
2023-10-31T09:00:00,1478A,103.8412,36.0726,兰州市,生物制品所,颗粒物(PM10),77,103,102,46,54,108,3,1,1,58,76,8,14,1.3,1.3
2023-10-31T09:00:00,1479A,103.831,36.0464,兰州市,铁路设计院,颗粒物(PM10),78,106,105,52,59,85,3,2,2,71,99,11,15,1.9,1.7
2023-10-31T09:00:00,1483A,101.524,36.6867,西宁市,第五水厂,,,,,,,,,,,,,,,,
2023-10-31T09:00:00,1484A,105.9512,38.6016,银川市,贺兰山马莲口,,30,30,37,7,10,102,92,89,89,12,16,3,5,0.3,0.3
2023-10-31T09:00:00,1488A,106.2328,38.4975,银川市,贺兰山东路,,,123,72,46,31,101,31,36,36,,49,,15,0.9,0.6
2023-10-31T09:00:00,1489A,106.1358,38.5036,银川市,学院路,颗粒物(PM10),87,123,77,37,29,91,18,32,26,43,32,28,15,1.0,0.6
2023-10-31T09:00:00,1490A,87.5801,43.8303,乌鲁木齐市,监测站,,25,25,70,12,15,65,35,50,50,42,48,4,5,0.6,0.8
2023-10-31T09:00:00,1491A,87.6046,43.768,乌鲁木齐市,收费所,,28,28,68,12,25,58,30,31,31,33,42,2,3,0.3,0.5
2023-10-31T09:00:00,1492A,87.4754,43.9469,乌鲁木齐市,新疆农科院农场,颗粒物(PM10),73,96,148,25,44,45,0,19,19,64,55,3,4,0.6,0.9
2023-10-31T09:00:00,1493A,87.5525,43.8711,乌鲁木齐市,铁路局,,43,43,78,7,22,61,18,38,38,51,50,4,5,0.6,0.8
2023-10-31T09:00:00,1494A,87.6432,43.831,乌鲁木齐市,三十一中学,,30,30,60,9,16,73,29,39,39,32,39,2,2,0.2,0.4
2023-10-31T09:00:00,1496A,87.7216,44.1747,乌鲁木齐市,米东区环保局,,45,45,127,18,43,11,2,2,2,23,36,6,8,0.5,0.7
2023-10-31T09:00:00,1508A,112.9433,27.8614,湘潭市,板塘,颗粒物(PM10),62,73,77,37,66,157,4,0,0,54,48,17,9,0.7,0.7
2023-10-31T09:00:00,1511A,112.9118,27.8403,湘潭市,市监测站,细颗粒物(PM2.5),172,107,69,130,70,168,13,5,5,29,34,10,6,0.7,0.7
2023-10-31T09:00:00,1512A,112.8937,27.8728,湘潭市,江麓,细颗粒物(PM2.5),62,57,74,44,44,165,10,5,5,31,39,10,11,0.9,0.8
2023-10-31T09:00:00,1513A,112.9227,27.8159,湘潭市,岳塘,"颗粒物(PM10),细颗粒物(PM2.5)",64,77,74,46,59,164,10,4,4,32,38,11,8,1.1,1.3
2023-10-31T09:00:00,1514A,112.9074,27.9119,湘潭市,科大,颗粒物(PM10),55,59,78,37,68,155,0,0,0,40,47,11,12,0.8,0.6
2023-10-31T09:00:00,1515A,113.135,27.8244,株洲市,天台山庄,细颗粒物(PM2.5),83,95,94,61,64,179,39,6,6,30,56,14,9,0.9,1.2
2023-10-31T09:00:00,1518A,113.095,27.8867,株洲市,株冶医院,细颗粒物(PM2.5),73,76,77,53,55,168,16,11,11,46,47,11,8,0.8,0.7
2023-10-31T09:00:00,1519A,113.167,27.8667,株洲市,市四中,细颗粒物(PM2.5),79,89,75,58,51,164,21,6,6,39,43,12,6,1.1,1.1
2023-10-31T09:00:00,1520A,113.143,27.8381,株洲市,火车站,细颗粒物(PM2.5),97,102,87,72,59,187,43,20,20,29,47,13,8,1.2,1.3
2023-10-31T09:00:00,1524A,113.13,27.8528,株洲市,市监测站,细颗粒物(PM2.5),83,92,92,61,68,184,41,8,8,30,57,13,7,1.0,1.1
2023-10-31T09:00:00,1552A,106.805,26.3003,贵阳市,桐木岭,,,,,,,,,,,,,,,,
2023-10-31T09:00:00,1559A,113.251,27.8336,株洲市,大京风景区,细颗粒物(PM2.5),68,63,46,49,31,158,37,20,20,15,13,7,5,0.7,0.6
2023-10-31T09:00:00,1562A,113.0048,27.9153,湘潭市,昭山,细颗粒物(PM2.5),80,83,76,59,91,175,10,3,3,49,52,8,6,0.8,0.7
2023-10-31T09:00:00,1564A,112.4876,27.9164,湘潭市,韶山,颗粒物(PM10),62,74,48,41,24,136,18,38,34,45,14,6,6,0.9,0.6
2023-10-31T09:00:00,1585A,109.8756,40.6532,包头市,市环境监测站,颗粒物(PM10),112,173,136,63,45,97,8,10,6,68,55,26,39,2.2,1.6
2023-10-31T09:00:00,1587A,109.9991,40.5842,包头市,包头八中,颗粒物(PM10),108,166,152,61,52,96,9,10,9,69,52,42,30,2.1,1.1
2023-10-31T09:00:00,1588A,109.8538,40.6821,包头市,青山宾馆,颗粒物(PM10),96,141,119,52,47,95,7,12,6,62,52,20,32,1.5,1.5
2023-10-31T09:00:00,1589A,109.8642,40.6288,包头市,惠龙物流,颗粒物(PM10),109,167,135,66,51,104,8,9,8,69,50,31,39,2.4,1.4
2023-10-31T09:00:00,1590A,110.0377,40.5546,包头市,东河鸿龙湾,颗粒物(PM10),75,100,118,26,34,103,15,12,12,62,45,23,23,0.9,0.6
2023-10-31T09:00:00,1591A,110.0023,39.8129,鄂尔多斯市,综合楼,颗粒物(PM10),80,110,95,12,16,114,36,79,73,56,21,12,7,0.8,0.5
2023-10-31T09:00:00,1592A,109.9486,39.8261,鄂尔多斯市,巴音孟克林场办事处,颗粒物(PM10),51,51,80,17,22,110,72,74,74,18,18,18,13,0.2,0.3
2023-10-31T09:00:00,1593A,109.7736,39.5986,鄂尔多斯市,康泽苑,颗粒物(PM10),67,83,81,26,21,109,20,40,35,47,25,6,6,0.8,0.5
2023-10-31T09:00:00,1594A,109.8119,39.5989,鄂尔多斯市,华泰汽车城,颗粒物(PM10),65,80,81,22,19,111,12,32,26,51,27,6,5,0.7,0.5
2023-10-31T09:00:00,1595A,109.9734,39.7884,鄂尔多斯市,奥林花园,,,78,92,17,17,113,33,48,46,48,32,41,21,,0.6
2023-10-31T09:00:00,1597A,122.2703,40.7094,营口市,大庆路,细颗粒物(PM2.5),103,120,87,77,39,100,98,58,58,34,39,8,9,1.5,1.3
2023-10-31T09:00:00,1598A,122.2150,40.6511,营口市,镜湖西路,,,109,85,59,36,103,99,69,69,,44,9,13,1.2,1.1
2023-10-31T09:00:00,1599A,122.1658,40.6789,营口市,西炮台,细颗粒物(PM2.5),107,124,82,80,42,105,103,61,61,7,28,6,11,0.8,1
2023-10-31T09:00:00,1600A,124.3303,40.0625,丹东市,江湾东路,颗粒物(PM10),54,57,52,34,25,110,82,92,91,14,11,5,6,0.8,0.6
2023-10-31T09:00:00,1601A,124.4256,40.1503,丹东市,临江后街,,43,43,43,21,20,112,102,102,102,6,8,5,6,0.7,0.6
2023-10-31T09:00:00,1602A,124.3933,40.1461,丹东市,元宝山,,44,44,42,20,20,104,88,94,93,14,13,6,8,0.7,0.6
2023-10-31T09:00:00,1603A,124.3633,40.1092,丹东市,民主桥,颗粒物(PM10),52,53,51,26,23,98,77,81,80,12,10,6,7,1.0,0.9
2023-10-31T09:00:00,1604A,122.0303,41.1489,盘锦市,开发区,细颗粒物(PM2.5),88,68,70,65,39,80,80,24,24,36,51,11,16,1.2,1.1
2023-10-31T09:00:00,1605A,122.0485,41.0883,盘锦市,兴隆台,细颗粒物(PM2.5),60,68,72,43,33,97,97,30,30,24,45,11,17,0.9,0.9
2023-10-31T09:00:00,1606A,121.8297,41.1028,盘锦市,新生街道,,,,53,54,30,67,27,10,10,44,36,27,13,1.2,0.8
2023-10-31T09:00:00,1607A,120.9092,40.7136,葫芦岛市,龙港区,颗粒物(PM10),66,82,60,36,14,62,60,31,31,20,36,14,21,0.8,0.6
2023-10-31T09:00:00,1608A,120.8392,40.7514,葫芦岛市,化工街,颗粒物(PM10),70,90,84,29,22,71,35,12,12,34,36,10,14,0.5,0.5
2023-10-31T09:00:00,1609A,120.8341,40.7073,葫芦岛市,新区,颗粒物(PM10),62,74,61,38,16,69,36,14,14,43,46,11,27,0.8,0.6
2023-10-31T09:00:00,1610A,120.8695,40.7677,葫芦岛市,东城区,颗粒物(PM10),87,123,76,37,26,72,30,8,8,43,42,16,16,0.9,0.7
2023-10-31T09:00:00,1611A,118.5819,24.9117,泉州市,涂山街,,34,34,30,15,14,154,81,82,81,10,10,4,5,0.5,0.5
2023-10-31T09:00:00,1612A,118.5972,24.8978,泉州市,津头埔,,34,34,27,11,14,150,69,79,76,19,16,3,3,0.6,0.5
2023-10-31T09:00:00,1613A,118.6663,24.9424,泉州市,万安,,34,34,30,8,13,153,86,84,84,11,13,4,5,0.6,0.6
2023-10-31T09:00:00,1614A,118.6117,24.9604,泉州市,清源山,,,,,,,,,,,,,,,,
2023-10-31T09:00:00,1616A,117.6795,36.229,济南市,技术学院,颗粒物(PM10),109,168,116,56,48,169,51,74,70,70,48,15,13,1.5,1
2023-10-31T09:00:00,1618A,118.3429,35.0532,临沂市,沂河小区,细颗粒物(PM2.5),100,146,114,75,61,184,80,80,77,52,38,40,18,0.8,0.6
2023-10-31T09:00:00,1619A,118.295,35.0583,临沂市,鲁南制药厂,颗粒物(PM10),98,146,118,58,50,205,84,79,75,47,40,29,20,1.0,0.9
2023-10-31T09:00:00,1620A,118.2794,34.9976,临沂市,新光毛纺厂,细颗粒物(PM2.5),103,141,110,77,64,193,63,64,58,62,45,34,20,1.1,0.9
2023-10-31T09:00:00,1621A,118.3956,35.0888,临沂市,河东保险公司,细颗粒物(PM2.5),99,132,110,74,59,194,96,74,73,38,38,28,13,1.0,0.9
2023-10-31T09:00:00,1622A,116.3032,37.4674,德州市,儿童乐园,细颗粒物(PM2.5),185,195,253,139,186,119,31,28,28,56,54,18,11,1.2,1.4
2023-10-31T09:00:00,1624A,116.2991,37.4451,德州市,监理站,,,,266,,221,135,,31,30,61,57,19,14,1.2,1.4
2023-10-31T09:00:00,1625A,115.9848,36.4372,聊城市,区政府,颗粒物(PM10),82,113,210,56,133,156,44,41,38,31,52,10,9,0.7,1.1
2023-10-31T09:00:00,1628A,118.0062,37.3803,滨州市,市环保局,,,,,,,160,,,,,17,,10,,0.7
2023-10-31T09:00:00,1629A,118.0018,37.3617,滨州市,第二水厂,细颗粒物(PM2.5),178,224,139,134,79,176,23,13,13,77,57,23,13,1.6,1
2023-10-31T09:00:00,1630A,117.9776,37.393,滨州市,北中新校,细颗粒物(PM2.5),159,216,129,121,72,175,11,12,11,81,58,12,12,1.6,1
2023-10-31T09:00:00,1631A,118.0414,36.8103,淄博市,人民公园,颗粒物(PM10),69,88,92,46,51,171,72,87,87,39,42,21,14,0.7,0.7
2023-10-31T09:00:00,1633A,117.8525,36.4847,淄博市,双山,细颗粒物(PM2.5),73,79,84,53,49,168,93,106,103,21,23,10,10,0.6,0.7
2023-10-31T09:00:00,1634A,117.9592,36.6331,淄博市,气象站,颗粒物(PM10),66,81,77,36,42,168,89,108,105,22,30,11,10,0.4,0.4
2023-10-31T09:00:00,1635A,118.3092,36.8194,淄博市,莆田园,颗粒物(PM10),80,110,107,51,50,141,71,106,106,49,44,16,14,1.5,1.6
2023-10-31T09:00:00,1637A,117.558,34.8438,枣庄市,市中区政府,细颗粒物(PM2.5),153,205,144,117,81,185,51,46,45,64,54,10,8,0.9,0.7
2023-10-31T09:00:00,1638A,117.2852,34.7837,枣庄市,薛城环保局,细颗粒物(PM2.5),123,144,120,93,70,191,93,81,81,44,40,12,10,1.2,0.9
2023-10-31T09:00:00,1639A,117.5852,34.7745,枣庄市,峄城区政府,细颗粒物(PM2.5),122,178,133,92,59,180,63,62,58,56,42,10,8,1.0,0.8
2023-10-31T09:00:00,1640A,117.7276,34.5578,枣庄市,台儿庄区环保局,细颗粒物(PM2.5),122,139,104,92,62,192,88,56,56,44,46,10,7,1.0,0.8
2023-10-31T09:00:00,1641A,117.4518,35.0992,枣庄市,山亭区环保局,细颗粒物(PM2.5),83,100,99,61,54,185,126,113,113,34,30,14,10,1.0,0.9
2023-10-31T09:00:00,1642A,121.2514,37.5639,烟台市,开发区,颗粒物(PM10),59,68,55,34,26,161,114,121,117,31,17,12,9,0.9,0.8
2023-10-31T09:00:00,1643A,121.3719,37.5433,烟台市,轴承厂,颗粒物(PM10),58,66,57,34,30,162,107,120,115,21,12,7,6,0.7,0.6
2023-10-31T09:00:00,1644A,121.3181,37.5436,烟台市,西郊化工站,颗粒物(PM10),56,61,54,34,26,157,125,124,122,21,15,8,6,0.5,0.4
2023-10-31T09:00:00,1645A,121.4478,37.4822,烟台市,莱山环保局,,41,41,49,27,22,163,107,108,105,17,13,7,7,0.6,0.6
2023-10-31T09:00:00,1646A,121.2611,37.4967,烟台市,福山环保局,颗粒物(PM10),60,70,60,39,27,151,112,98,97,27,23,9,8,0.7,0.5
2023-10-31T09:00:00,1650A,119.1437,36.7023,潍坊市,环保局,细颗粒物(PM2.5),94,134,109,70,54,162,77,93,87,48,38,12,11,0.8,0.6
2023-10-31T09:00:00,1653A,116.6251,35.4302,济宁市,火炬城,细颗粒物(PM2.5),79,100,81,58,43,148,64,54,54,27,28,15,14,0.8,0.7
2023-10-31T09:00:00,1655A,116.5491,35.4042,济宁市,电化厂,细颗粒物(PM2.5),79,104,102,58,50,148,72,54,54,27,33,16,12,0.7,0.6
2023-10-31T09:00:00,1656A,117.1437,36.1937,泰安市,监测站,细颗粒物(PM2.5),87,112,104,64,60,172,84,91,88,27,29,15,14,1.0,1
2023-10-31T09:00:00,1657A,117.0885,36.2017,泰安市,人口学校,细颗粒物(PM2.5),83,97,95,61,57,179,71,88,82,37,29,11,10,1.1,0.9
2023-10-31T09:00:00,1658A,117.1089,36.1758,泰安市,电力学校,细颗粒物(PM2.5),82,105,113,60,58,170,79,88,86,29,36,14,13,0.7,0.6
2023-10-31T09:00:00,1659A,119.471,35.4209,日照市,监测站,细颗粒物(PM2.5),110,124,76,83,45,150,60,34,34,61,46,13,11,1.4,1
2023-10-31T09:00:00,1660A,119.523,35.4216,日照市,市政府广场,颗粒物(PM10),90,129,85,66,42,161,75,75,75,58,49,10,11,0.9,0.9
2023-10-31T09:00:00,1661A,119.5587,35.4044,日照市,港务局,细颗粒物(PM2.5),87,110,82,64,39,163,102,70,70,45,49,14,14,1.2,1.3
2023-10-31T09:00:00,1662A,122.1214,37.4236,威海市,华夏技校,,39,39,36,19,17,144,110,112,110,13,12,2,3,0.4,0.4
2023-10-31T09:00:00,1663A,122.0508,37.5236,威海市,山大分校,,46,46,42,24,17,152,114,114,113,12,9,5,5,0.5,0.5
2023-10-31T09:00:00,1664A,122.1067,37.5072,威海市,市监测站,,49,49,46,34,24,160,128,127,125,11,11,8,8,0.7,0.7
2023-10-31T09:00:00,1666A,118.6614,37.4309,东营市,市环保局,细颗粒物(PM2.5),85,117,113,63,62,188,70,55,55,42,51,10,12,0.7,0.8
2023-10-31T09:00:00,1669A,113.5824,24.7733,韶关市,市八中,,43,41,42,30,26,105,22,18,16,19,18,17,13,0.8,0.7
2023-10-31T09:00:00,1671A,113.5917,24.7972,韶关市,园林处,细颗粒物(PM2.5),52,38,41,36,32,106,20,12,12,19,16,26,17,0.6,0.6
2023-10-31T09:00:00,1672A,113.6735,24.7791,韶关市,韶关学院,,43,34,38,30,32,107,27,10,10,12,16,16,11,0.5,0.5
2023-10-31T09:00:00,1673A,113.5971,24.6863,韶关市,曲江监测站,,39,39,43,26,26,110,20,13,13,18,17,16,11,0.8,0.6
2023-10-31T09:00:00,1674A,116.6794,23.3667,汕头市,金平子站,,44,44,44,24,18,148,74,72,70,22,15,17,9,0.8,0.6
2023-10-31T09:00:00,1675A,116.7244,23.3633,汕头市,龙湖子站,,42,42,34,12,15,153,82,80,80,26,15,15,9,0.7,0.5
2023-10-31T09:00:00,1676A,116.7258,23.2775,汕头市,濠江子站,,34,34,29,8,13,142,83,81,80,16,10,15,10,0.7,0.5
2023-10-31T09:00:00,1677A,116.7519,23.4714,汕头市,澄海子站,,49,49,37,17,19,137,71,72,71,28,17,19,10,0.7,0.5
2023-10-31T09:00:00,1678A,116.6092,23.2539,汕头市,潮阳子站,颗粒物(PM10),92,134,41,25,13,160,75,84,81,28,10,14,10,0.6,0.5
2023-10-31T09:00:00,1680A,110.3539,21.2706,湛江市,湛江影剧院,,41,41,37,27,22,100,45,26,26,16,16,20,15,0.7,0.7
2023-10-31T09:00:00,1681A,110.3928,21.2228,湛江市,市环境监测站,,,40,34,26,23,100,,31,30,19,16,15,9,0.8,0.8
2023-10-31T09:00:00,1682A,110.4019,21.1997,湛江市,环保局宿舍,,,42,38,33,26,102,,35,35,16,18,16,9,1.0,1
2023-10-31T09:00:00,1683A,110.4111,21.2028,湛江市,霞山游泳场,,46,42,38,32,24,106,48,38,38,14,13,22,12,0.9,0.9
2023-10-31T09:00:00,1684A,110.3316,21.2679,湛江市,麻章区环保局,,48,48,40,24,25,91,31,15,15,18,22,10,11,0.7,0.7
2023-10-31T09:00:00,1685A,110.4558,21.2567,湛江市,坡头区环保局,,,,35,,27,63,,72,,,13,,14,,0.8
2023-10-31T09:00:00,1686A,111.0286,21.4688,茂名市,电白南海,颗粒物(PM10),53,56,46,34,30,95,50,37,37,13,17,12,12,1.0,0.9
2023-10-31T09:00:00,1687A,110.9294,21.6533,茂名市,茂石化七小,,49,48,36,34,25,73,62,56,56,14,13,17,18,0.8,0.7
2023-10-31T09:00:00,1688A,110.9107,21.6687,茂名市,健康路,,42,41,30,29,21,75,51,52,51,18,12,16,13,0.7,0.6
2023-10-31T09:00:00,1689A,110.8592,21.6828,茂名市,高岭,,44,44,36,27,30,72,33,26,26,15,15,18,14,0.9,0.8
2023-10-31T09:00:00,1690A,116.1231,24.3284,梅州市,梅江月梅,,30,30,29,14,12,108,26,7,7,18,21,11,7,0.6,0.5
2023-10-31T09:00:00,1691A,116.0797,24.2719,梅州市,梅县新城,,42,42,32,19,11,99,29,14,14,21,23,10,7,0.9,0.8
2023-10-31T09:00:00,1692A,116.1248,24.2654,梅州市,环境监控中心,,38,38,45,19,14,96,36,22,22,18,24,10,8,0.7,0.7
2023-10-31T09:00:00,1693A,115.3653,22.775,汕尾市,市环保局,,29,29,35,19,20,141,73,83,80,15,13,14,14,0.7,0.6
2023-10-31T09:00:00,1694A,115.3706,22.7898,汕尾市,市政府,,,42,35,14,20,147,66,80,76,,9,9,8,0.8,0.7
2023-10-31T09:00:00,1695A,115.3622,22.7925,汕尾市,新城中学,,29,27,39,20,22,147,68,80,76,13,10,10,10,0.6,0.6
2023-10-31T09:00:00,1696A,114.6778,23.7569,河源市,源西,,32,32,36,21,23,82,40,31,31,17,19,11,6,0.6,0.6
2023-10-31T09:00:00,1697A,114.6944,23.7586,河源市,东埔,,32,27,39,22,26,79,41,35,35,16,17,12,8,0.7,0.7
2023-10-31T09:00:00,1698A,114.6892,23.7233,河源市,老城,,35,34,39,24,27,87,43,20,20,14,19,11,6,0.7,0.6
2023-10-31T09:00:00,1699A,111.9797,21.8593,阳江市,鸳鸯湖,颗粒物(PM10),52,54,45,28,27,99,51,47,46,23,17,16,15,0.9,0.8
2023-10-31T09:00:00,1701A,111.9491,21.8658,阳江市,马南垌,颗粒物(PM10),51,51,47,28,32,100,44,32,32,34,27,10,9,1.0,0.7
2023-10-31T09:00:00,1702A,113.0426,23.691,清远市,环保大楼,,35,35,39,18,26,109,69,58,58,17,15,13,13,0.8,0.8
2023-10-31T09:00:00,1703A,113.0208,23.7106,清远市,凤城街办,,44,44,43,29,31,105,43,38,38,32,17,8,6,0.7,0.6
2023-10-31T09:00:00,1705A,116.6367,23.6719,潮州市,西园路,,45,35,53,31,25,144,57,50,45,11,14,5,6,0.6,0.5
2023-10-31T09:00:00,1706A,116.6447,23.6706,潮州市,档案局,,39,37,41,27,23,150,57,53,47,12,14,8,8,0.8,0.6
2023-10-31T09:00:00,1708A,116.3701,23.5345,揭阳市,新兴,颗粒物(PM10),52,53,47,27,26,129,53,61,56,27,19,13,14,1.1,0.8
2023-10-31T09:00:00,1709A,116.3264,23.5443,揭阳市,西马,,49,45,48,34,26,139,61,61,56,21,16,12,11,0.8,0.6
2023-10-31T09:00:00,1710A,116.3611,23.5626,揭阳市,东兴,颗粒物(PM10),66,81,49,31,24,122,51,53,50,34,20,11,13,1.0,0.8
2023-10-31T09:00:00,1711A,116.4151,23.5294,揭阳市,渔湖,颗粒物(PM10),54,58,51,32,24,152,55,55,51,32,23,14,12,0.6,0.6
2023-10-31T09:00:00,1712A,112.0392,22.9169,云浮市,新市府,,39,35,36,27,23,95,23,15,15,22,11,5,4,0.7,0.6
2023-10-31T09:00:00,1714A,112.0539,22.9539,云浮市,牧羊,,,57,39,23,20,94,,6,6,29,23,10,7,0.7,0.7
2023-10-31T09:00:00,1715A,102.575,24.3711,玉溪市,东风水库,,41,41,28,23,16,110,12,22,19,18,14,10,8,1.5,0.9
2023-10-31T09:00:00,1718A,115.4208,35.2464,菏泽市,气象局,颗粒物(PM10),78,105,119,56,56,172,46,40,40,39,46,14,16,0.5,0.6
2023-10-31T09:00:00,1719A,115.4747,35.2375,菏泽市,市政协,细颗粒物(PM2.5),73,92,113,53,60,174,42,46,44,37,51,18,15,0.4,0.5
2023-10-31T09:00:00,1721A,113.3819,40.1097,大同市,果树场,,,,,,,,,,,,,,,,
2023-10-31T09:00:00,1723A,113.2994,40.0758,大同市,云冈宾馆,颗粒物(PM10),118,185,114,46,44,118,9,31,26,54,49,19,34,1.2,0.8
2023-10-31T09:00:00,1724A,113.3444,40.0917,大同市,大同大学,颗粒物(PM10),110,170,115,48,42,130,16,40,36,55,44,22,30,1.0,0.7
2023-10-31T09:00:00,1725A,113.2661,40.1269,大同市,安家小村,颗粒物(PM10),109,167,115,51,44,130,28,46,40,45,36,53,34,5.2,1.1
2023-10-31T09:00:00,1726A,113.2711,40.0844,大同市,教育学院,颗粒物(PM10),106,162,130,38,40,125,21,39,35,57,49,35,35,1.0,0.7
2023-10-31T09:00:00,1727A,113.1147,36.1547,长治市,清华站,颗粒物(PM10),76,102,81,48,39,130,20,52,43,66,39,10,12,1.1,0.7
2023-10-31T09:00:00,1728A,113.1031,36.1989,长治市,监测站,细颗粒物(PM2.5),94,100,68,70,44,129,11,38,30,65,40,10,11,1.4,1
2023-10-31T09:00:00,1730A,113.0886,36.2125,长治市,审计局,细颗粒物(PM2.5),92,112,68,68,43,126,7,43,33,59,38,12,14,1.3,0.8
2023-10-31T09:00:00,1731A,113.0844,36.1856,长治市,长治八中,颗粒物(PM10),99,147,86,50,39,125,9,34,25,56,36,14,16,1.1,0.8
2023-10-31T09:00:00,1733A,111.5531,36.0783,临汾市,临钢医院,颗粒物(PM10),89,128,127,57,70,165,21,20,18,46,40,9,10,1.1,1.3
2023-10-31T09:00:00,1734A,111.5028,36.0714,临汾市,技工学校,细颗粒物(PM2.5),99,132,138,74,82,192,18,11,10,56,58,8,12,1.2,1.4
2023-10-31T09:00:00,1736A,111.5018,36.0855,临汾市,市委,颗粒物(PM10),90,129,139,60,75,182,21,12,12,55,59,9,13,1.3,1.3
2023-10-31T09:00:00,1738A,113.5758,37.8572,阳泉市,市中心,细颗粒物(PM2.5),137,199,120,104,61,135,9,3,3,76,68,45,22,1.9,1
2023-10-31T09:00:00,1739A,113.4894,37.8731,阳泉市,赛鱼,颗粒物(PM10),84,117,95,52,44,129,63,28,28,65,66,29,16,1.3,0.9
2023-10-31T09:00:00,1740A,113.5819,37.8486,阳泉市,南庄,颗粒物(PM10),147,243,160,92,69,142,,25,25,83,66,22,19,2.0,1.1
2023-10-31T09:00:00,1742A,113.5614,37.8703,阳泉市,平坦,颗粒物(PM10),91,131,122,63,59,140,56,11,11,64,65,28,21,1.4,1.1
2023-10-31T09:00:00,1743A,113.5158,37.8392,阳泉市,大阳泉,"颗粒物(PM10),细颗粒物(PM2.5)",67,83,91,48,54,173,89,96,89,48,32,23,15,1.1,0.9
2023-10-31T09:00:00,1744A,118.9233,42.2816,赤峰市,松山一中,细颗粒物(PM2.5),113,150,73,85,40,117,84,69,69,39,43,11,33,1.4,1
2023-10-31T09:00:00,1745A,118.9576,42.2728,赤峰市,哈达街,细颗粒物(PM2.5),149,210,74,114,44,121,80,66,66,39,43,20,42,1.4,1
2023-10-31T09:00:00,1746A,118.8788,42.2554,赤峰市,天义路,细颗粒物(PM2.5),114,131,58,86,25,123,,71,71,29,36,5,12,1.6,1.3
2023-10-31T09:00:00,1748A,123.044,41.1196,鞍山市,深沟寺,,,91,78,60,42,137,,131,131,16,29,7,12,0.8,0.8
2023-10-31T09:00:00,1749A,123.011,41.0931,鞍山市,太阳城,颗粒物(PM10),76,102,77,55,38,144,124,134,134,22,32,11,15,0.9,0.8
2023-10-31T09:00:00,1750A,123.0485,41.1442,鞍山市,太平,颗粒物(PM10),81,112,98,58,44,140,126,130,130,21,37,11,18,0.7,0.7
2023-10-31T09:00:00,1751A,122.9642,41.0971,鞍山市,铁西三道街,颗粒物(PM10),88,126,108,62,46,118,106,104,104,26,44,7,20,1.0,1.1
2023-10-31T09:00:00,1752A,122.9341,41.0833,鞍山市,铁西工业园区,细颗粒物(PM2.5),85,114,108,63,48,119,119,92,92,13,46,8,23,1.0,1.1
2023-10-31T09:00:00,1753A,123.022,41.0821,鞍山市,明达新区,细颗粒物(PM2.5),77,85,78,56,41,133,119,124,124,18,33,9,21,0.5,0.5
2023-10-31T09:00:00,1754A,123.1289,41.0228,鞍山市,千山,,,,,,,,,,,,,,,,
2023-10-31T09:00:00,1755A,123.7977,41.8491,抚顺市,望花区,细颗粒物(PM2.5),59,56,91,42,55,123,117,73,73,20,36,15,14,0.6,0.7
2023-10-31T09:00:00,1756A,123.9161,41.8822,抚顺市,顺城区,细颗粒物(PM2.5),59,56,81,42,51,121,121,54,54,21,38,7,9,0.7,0.7
2023-10-31T09:00:00,1757A,124.0436,41.8611,抚顺市,东洲区,细颗粒物(PM2.5),54,46,76,38,52,132,131,90,90,12,24,8,11,0.8,0.9
2023-10-31T09:00:00,1758A,123.9247,41.8642,抚顺市,新抚区,细颗粒物(PM2.5),67,54,68,48,58,116,116,50,50,17,37,7,10,0.7,0.8
2023-10-31T09:00:00,1759A,124.0972,41.8961,抚顺市,大伙房水库,,47,47,68,30,41,133,133,97,97,5,18,8,9,0.5,0.6
2023-10-31T09:00:00,1760A,123.7086,41.8391,抚顺市,沈抚新城,细颗粒物(PM2.5),67,62,92,48,73,112,112,75,75,22,40,9,14,0.7,1.2
2023-10-31T09:00:00,1761A,123.8275,41.3064,本溪市,大峪,颗粒物(PM10),59,68,105,34,51,140,140,136,136,11,39,7,11,0.8,1.1
2023-10-31T09:00:00,1762A,123.7567,41.3325,本溪市,溪湖,颗粒物(PM10),67,83,118,39,63,124,124,118,118,23,43,17,15,1.2,1.1
2023-10-31T09:00:00,1763A,123.7169,41.3094,本溪市,彩屯,细颗粒物(PM2.5),73,92,128,53,71,94,94,69,69,45,55,36,24,2.6,2.2
2023-10-31T09:00:00,1764A,123.7669,41.2864,本溪市,东明,,48,48,100,32,53,135,132,130,130,21,46,9,12,0.7,1.1
2023-10-31T09:00:00,1765A,123.7992,41.2664,本溪市,新立屯,颗粒物(PM10),51,51,74,30,39,133,133,131,131,12,32,10,13,0.8,1
2023-10-31T09:00:00,1766A,123.8142,41.3472,本溪市,威宁,细颗粒物(PM2.5),58,56,114,41,72,130,130,94,94,12,42,7,7,0.9,1.3
2023-10-31T09:00:00,1767A,121.1115,41.0879,锦州市,南山,细颗粒物(PM2.5),80,78,58,59,30,69,35,11,11,39,37,17,28,0.8,0.7
2023-10-31T09:00:00,1768A,121.0533,40.8434,锦州市,开发区,颗粒物(PM10),94,137,101,59,33,67,19,7,7,57,51,82,25,1.1,0.6
2023-10-31T09:00:00,1769A,121.1836,41.1119,锦州市,百股街道,颗粒物(PM10),59,68,61,39,30,72,50,17,17,33,43,14,38,0.9,0.7
2023-10-31T09:00:00,1770A,121.1178,41.1222,锦州市,天安街道,颗粒物(PM10),83,116,68,58,37,67,25,10,10,54,48,16,25,1.0,1.1
2023-10-31T09:00:00,1771A,121.1303,41.1386,锦州市,北湖公园,细颗粒物(PM2.5),89,82,59,66,30,72,27,19,19,51,38,14,22,0.9,0.8
2023-10-31T09:00:00,1772A,126.54,43.8622,吉林市,哈达湾,细颗粒物(PM2.5),92,98,105,68,68,117,78,54,54,32,33,7,9,0.9,0.9
2023-10-31T09:00:00,1773A,126.5844,43.8358,吉林市,东局子,细颗粒物(PM2.5),94,108,108,70,67,113,79,52,52,22,35,6,8,0.8,0.8
2023-10-31T09:00:00,1774A,126.5052,43.8245,吉林市,电力学院,细颗粒物(PM2.5),104,130,105,78,66,119,47,19,19,47,37,12,14,1.1,1
2023-10-31T09:00:00,1775A,126.6133,43.8972,吉林市,江北,细颗粒物(PM2.5),94,104,122,70,76,103,90,47,47,17,45,9,10,0.9,1
2023-10-31T09:00:00,1776A,126.555,43.8306,吉林市,江南公园,细颗粒物(PM2.5),108,112,103,81,69,113,69,44,44,32,38,8,10,0.9,0.8
2023-10-31T09:00:00,1778A,126.7061,43.7133,吉林市,丰满,,,,,,,,,,,,,,,,
2023-10-31T09:00:00,1779A,123.9305,47.3636,齐齐哈尔市,安居小区,颗粒物(PM10),62,74,38,38,24,70,36,41,40,21,15,7,7,0.5,0.2
2023-10-31T09:00:00,1780A,123.9488,47.3386,齐齐哈尔市,中心广场,颗粒物(PM10),88,126,40,61,19,68,33,43,42,24,14,5,4,0.8,0.5
2023-10-31T09:00:00,1781A,123.9483,47.3227,齐齐哈尔市,农牧车辆厂,颗粒物(PM10),73,95,43,52,13,66,32,39,39,22,15,9,8,0.6,0.4
2023-10-31T09:00:00,1783A,123.945,47.2988,齐齐哈尔市,市环境监测站,细颗粒物(PM2.5),99,127,46,74,19,66,35,42,42,22,15,7,5,0.5,0.3
2023-10-31T09:00:00,1784A,129.61,44.561,牡丹江市,环保大楼,,,,117,,70,113,,18,17,54,45,35,11,0.7,0.8
2023-10-31T09:00:00,1785A,129.6115,44.5782,牡丹江市,文化广场,细颗粒物(PM2.5),103,138,132,77,80,97,17,16,16,60,54,40,11,0.9,0.9
2023-10-31T09:00:00,1786A,129.5904,44.5963,牡丹江市,第一医院,细颗粒物(PM2.5),90,105,104,67,75,91,16,29,25,52,41,31,12,0.9,0.8
2023-10-31T09:00:00,1787A,129.6364,44.6075,牡丹江市,机车工厂,颗粒物(PM10),110,169,159,65,84,84,22,17,16,40,47,15,12,0.9,1
2023-10-31T09:00:00,1788A,129.6386,44.5462,牡丹江市,第一中学,细颗粒物(PM2.5),114,103,109,86,70,119,29,19,19,40,39,12,9,0.8,0.7
2023-10-31T09:00:00,1789A,124.81117,46.03138,大庆市,大同区,颗粒物(PM10),71,92,49,46,16,70,25,30,29,17,15,8,7,0.7,0.5
2023-10-31T09:00:00,1790A,125.129,46.533,大庆市,龙凤区,细颗粒物(PM2.5),110,107,45,83,22,62,29,34,32,23,16,8,6,0.7,0.4
2023-10-31T09:00:00,1791A,124.902,46.408,大庆市,红岗区,细颗粒物(PM2.5),110,109,37,83,18,67,34,35,34,23,16,9,6,0.6,0.3
2023-10-31T09:00:00,1792A,125.153,46.586,大庆市,萨尔图区,细颗粒物(PM2.5),143,131,50,109,23,59,38,40,38,22,17,9,5,0.5,0.3
2023-10-31T09:00:00,1793A,124.9042,46.6215,大庆市,让胡路区,颗粒物(PM10),70,89,41,42,18,67,29,37,35,23,16,6,5,0.6,0.4
2023-10-31T09:00:00,1794A,118.3606,31.3519,芜湖市,监测站,,,,81,,46,171,35,52,48,56,55,9,10,0.9,0.7
2023-10-31T09:00:00,1795A,118.3714,31.4134,芜湖市,科创中心,颗粒物(PM10),67,84,94,39,59,188,37,14,14,54,72,7,9,0.8,0.8
2023-10-31T09:00:00,1796A,118.3673,31.3131,芜湖市,四水厂,颗粒物(PM10),71,91,80,42,49,186,42,55,51,39,34,6,8,0.8,0.7
2023-10-31T09:00:00,1798A,118.5092,31.6837,马鞍山市,湖东路四小,细颗粒物(PM2.5),62,67,77,44,52,184,63,62,60,36,36,12,12,0.9,0.9
2023-10-31T09:00:00,1799A,118.5024,31.6449,马鞍山市,开发区,细颗粒物(PM2.5),77,92,89,56,57,185,53,37,34,36,45,13,12,0.8,0.9
2023-10-31T09:00:00,1800A,118.5228,31.7231,马鞍山市,慈湖,细颗粒物(PM2.5),65,67,83,47,51,187,58,63,59,48,46,12,12,1.0,0.8
2023-10-31T09:00:00,1802A,118.6245,31.7241,马鞍山市,濮塘,颗粒物(PM10),65,79,65,45,40,172,80,88,84,16,14,12,9,0.7,0.6
2023-10-31T09:00:00,1803A,115.9872,29.6815,九江市,十里,细颗粒物(PM2.5),73,81,109,53,75,217,53,20,20,59,45,12,9,1.2,1.3
2023-10-31T09:00:00,1804A,115.9584,29.7046,九江市,茅山头,细颗粒物(PM2.5),97,93,122,72,87,230,58,33,33,56,54,12,12,1.2,1.4
2023-10-31T09:00:00,1805A,115.9877,29.7295,九江市,西园,细颗粒物(PM2.5),99,115,143,74,88,205,62,38,38,56,75,9,12,1.4,1.5
2023-10-31T09:00:00,1806A,116.0172,29.6547,九江市,五七二七厂,细颗粒物(PM2.5),73,72,97,53,72,208,92,114,106,14,15,11,12,0.8,0.9
2023-10-31T09:00:00,1808A,115.9114,29.6038,九江市,综合工业园,细颗粒物(PM2.5),98,96,95,73,69,208,53,54,51,65,41,12,13,1.1,1
2023-10-31T09:00:00,1809A,116.0721,29.7535,九江市,石化总厂,细颗粒物(PM2.5),118,139,165,89,107,202,21,5,5,74,81,21,15,1.0,1.4
2023-10-31T09:00:00,1810A,115.9773,29.5698,九江市,庐山气象台,,33,16,47,15,38,187,104,120,117,7,7,6,6,0.8,0.6
2023-10-31T09:00:00,1812A,112.3931,34.6516,洛阳市,市委党校,细颗粒物(PM2.5),102,110,93,76,55,137,23,16,16,36,53,8,8,0.7,0.7
2023-10-31T09:00:00,1814A,112.4657,34.6871,洛阳市,豫西宾馆,细颗粒物(PM2.5),117,156,118,88,59,126,16,3,3,48,56,7,9,1.2,0.9
2023-10-31T09:00:00,1815A,112.494,34.6886,洛阳市,河南林校,细颗粒物(PM2.5),80,93,90,59,49,120,23,10,10,32,52,4,5,0.6,0.6
2023-10-31T09:00:00,1816A,112.3844,34.623,洛阳市,开发区管委会,细颗粒物(PM2.5),72,84,71,52,44,132,23,13,13,31,38,2,2,0.6,0.5
2023-10-31T09:00:00,1817A,112.4267,34.6258,洛阳市,市委新办公区,细颗粒物(PM2.5),69,79,73,50,43,131,28,16,16,27,49,4,3,0.6,0.7
2023-10-31T09:00:00,1818A,114.4839,36.0621,安阳市,棉研所,,,,,,,,,,,,,,,,
2023-10-31T09:00:00,1819A,114.3551,36.1017,安阳市,红庙街,细颗粒物(PM2.5),261,264,270,211,186,235,75,40,40,53,59,18,12,2.4,2.3
2023-10-31T09:00:00,1820A,114.361,36.0681,安阳市,银杏小区,细颗粒物(PM2.5),271,281,228,221,191,225,60,44,44,53,47,19,10,2.3,1.8
2023-10-31T09:00:00,1824A,114.3389,34.7781,开封市,肿瘤医院,细颗粒物(PM2.5),73,90,102,53,55,142,35,16,16,39,53,11,6,0.9,0.8
2023-10-31T09:00:00,1826A,114.2885,34.7965,开封市,世纪星幼儿园,颗粒物(PM10),73,95,88,44,45,141,29,18,18,46,45,16,10,0.9,0.7
2023-10-31T09:00:00,1828A,113.227,35.2125,焦作市,市环保局,细颗粒物(PM2.5),102,147,135,76,80,179,30,31,25,53,45,15,21,1.2,0.9
2023-10-31T09:00:00,1830A,113.1992,35.2590,焦作市,影视城,,,,,,,,,,,,,,,,
2023-10-31T09:00:00,1832A,113.3257,33.742,平顶山市,新华旅馆,,,55,59,32,34,115,,75,74,20,21,7,9,0.6,0.6
2023-10-31T09:00:00,1833A,113.2919,33.737,平顶山市,规划设计院,,48,48,48,29,27,115,72,62,60,19,24,9,11,0.4,0.4
2023-10-31T09:00:00,1834A,113.182,33.774,平顶山市,平顶山工学院,,39,39,46,22,17,133,76,91,88,19,17,6,7,0.3,0.3
2023-10-31T09:00:00,1835A,111.1922,34.7752,三门峡市,市政府,颗粒物(PM10),63,76,60,34,29,125,6,2,2,46,57,9,11,0.9,0.8
2023-10-31T09:00:00,1836A,111.1587,34.7942,三门峡市,开发区,颗粒物(PM10),71,91,79,36,34,121,5,1,1,24,39,8,10,0.9,0.6
2023-10-31T09:00:00,1838A,111.143,34.7955,三门峡市,风景区,,,,,,,,,,,,,,,,
2023-10-31T09:00:00,1840A,111.2992,30.6981,宜昌市,白龙岗,,31,31,30,14,16,106,21,31,29,32,30,5,5,0.5,0.5
2023-10-31T09:00:00,1841A,111.3549,30.6465,宜昌市,伍家岗,颗粒物(PM10),52,54,32,29,19,122,12,17,16,32,35,6,6,0.6,0.5
2023-10-31T09:00:00,1842A,111.2628,30.6961,宜昌市,点军区,,23,23,27,14,18,107,16,13,13,21,28,8,8,0.6,0.6
2023-10-31T09:00:00,1843A,111.3275,30.7819,宜昌市,夷陵区,,31,31,36,14,18,111,17,16,15,33,30,7,7,0.6,0.4
2023-10-31T09:00:00,1844A,112.2494,30.3197,荆州市,市图书馆,细颗粒物(PM2.5),63,65,48,45,32,122,26,45,39,31,24,16,9,0.9,0.6
2023-10-31T09:00:00,1845A,112.2008,30.3544,荆州市,市委党校,颗粒物(PM10),66,81,56,46,32,121,29,43,38,28,27,12,9,0.8,0.6
2023-10-31T09:00:00,1847A,113.1094,29.3578,岳阳市,南湖风景区,细颗粒物(PM2.5),67,67,63,48,48,167,60,57,56,34,38,6,6,1.1,1
2023-10-31T09:00:00,1848A,113.1493,29.4251,岳阳市,城陵矶,细颗粒物(PM2.5),69,81,83,50,46,163,44,43,43,48,56,10,10,0.9,0.9
2023-10-31T09:00:00,1849A,113.1497,29.3575,岳阳市,开发区,,,,65,,54,91,,91,,,57,,10,,0.7
2023-10-31T09:00:00,1850A,113.2621,29.4758,岳阳市,云溪区,细颗粒物(PM2.5),68,62,65,49,46,180,40,44,41,45,34,8,10,1.1,1
2023-10-31T09:00:00,1851A,112.9943,29.4402,岳阳市,君山区,细颗粒物(PM2.5),77,65,68,56,50,163,45,37,37,30,45,8,9,0.7,0.7
2023-10-31T09:00:00,1852A,113.2117,29.355,岳阳市,金凤水库,细颗粒物(PM2.5),60,65,63,43,42,192,53,77,75,21,16,3,7,0.7,0.6
2023-10-31T09:00:00,1854A,111.6975,28.9703,常德市,市二中,,28,18,32,19,22,114,25,17,17,17,24,11,10,0.5,0.5
2023-10-31T09:00:00,1857A,111.7158,29.1456,常德市,白鹤山,颗粒物(PM10),55,60,42,24,19,111,25,56,47,14,7,5,3,0.6,0.6
2023-10-31T09:00:00,1858A,110.5319,29.1217,张家界市,永定新区,,28,28,26,13,13,88,12,13,12,16,13,6,6,0.7,0.5
2023-10-31T09:00:00,1859A,110.4697,29.1242,张家界市,电业局,,30,30,28,14,9,86,12,10,10,15,19,8,8,0.5,0.5
2023-10-31T09:00:00,1860A,110.5594,29.3547,张家界市,未央路,,20,20,19,9,11,91,14,16,15,19,10,3,3,0.3,0.2
2023-10-31T09:00:00,1861A,110.4417,29.315,张家界市,袁家界,,,,12,,8,62,,61,,,5,,7,,0.4
2023-10-31T09:00:00,1862A,110.4144,25.3167,桂林市,电子科大尧山校区,,42,42,33,21,22,108,48,32,32,8,8,3,3,0.6,0.6
2023-10-31T09:00:00,1863A,110.2819,25.2697,桂林市,监测站,,38,38,43,21,19,120,44,44,42,23,20,11,10,0.6,0.5
2023-10-31T09:00:00,1864A,110.3089,25.2708,桂林市,龙隐路小学,,41,41,37,23,24,118,55,50,50,17,13,14,11,0.7,0.7
2023-10-31T09:00:00,1865A,110.2869,25.2178,桂林市,八中,,,,46,,26,70,,76,,,19,,6,,0.6
2023-10-31T09:00:00,1866A,109.2262,21.588,北海市,牛尾岭水库,,,,,,,,,,,,,,,,
2023-10-31T09:00:00,1867A,109.1436,21.4086,北海市,海滩公园,,34,34,36,22,20,78,50,60,57,12,10,9,6,0.9,0.9
2023-10-31T09:00:00,1868A,109.0981,21.4661,北海市,新市环保局,,45,37,34,31,28,81,48,56,54,10,9,6,7,0.8,0.8
2023-10-31T09:00:00,1869A,109.1778,21.5233,北海市,北海工业园,,48,48,41,32,28,73,41,49,47,15,12,8,7,0.9,0.8
2023-10-31T09:00:00,1870A,109.4856,24.3895,柳州市,柳东小学,,33,24,34,23,29,114,53,44,44,8,11,14,11,0.5,0.5
2023-10-31T09:00:00,1871A,109.4157,24.3277,柳州市,环保监测站,颗粒物(PM10),57,64,53,29,36,103,13,10,10,21,27,12,8,0.9,0.8
2023-10-31T09:00:00,1872A,109.389,24.341,柳州市,河西水厂,颗粒物(PM10),55,60,64,35,34,98,10,4,4,18,26,20,13,1.2,1.1
2023-10-31T09:00:00,1873A,109.4311,24.2921,柳州市,市四中,,43,43,50,30,30,107,36,19,19,22,29,17,8,1.0,1.1
2023-10-31T09:00:00,1874A,109.4006,24.3631,柳州市,市九中,颗粒物(PM10),60,69,59,39,35,101,17,8,8,21,24,8,6,0.9,0.9
2023-10-31T09:00:00,1875A,109.4958,24.3134,柳州市,古亭山,,33,32,34,23,24,118,57,11,11,13,25,10,8,0.5,0.5
2023-10-31T09:00:00,1876A,109.5078,18.2489,三亚市,河东子站,,30,26,27,15,13,106,96,101,100,5,6,4,4,0.4,0.4
2023-10-31T09:00:00,1877A,109.4964,18.2681,三亚市,河西子站,,,,27,,12,98,,95,95,4,4,4,4,0.4,0.3
2023-10-31T09:00:00,1878A,104.7778,31.4741,绵阳市,富乐山,细颗粒物(PM2.5),59,58,62,42,51,55,4,19,18,27,23,6,7,0.8,0.7
2023-10-31T09:00:00,1879A,104.7563,31.4535,绵阳市,市人大,颗粒物(PM10),59,68,70,40,49,44,4,24,22,42,30,8,8,1.1,0.8
2023-10-31T09:00:00,1880A,104.6697,31.4668,绵阳市,高新区自来水公司,颗粒物(PM10),54,57,70,32,35,39,5,31,27,40,35,8,8,0.7,0.7
2023-10-31T09:00:00,1881A,104.7287,31.5075,绵阳市,三水厂,细颗粒物(PM2.5),72,70,88,52,65,23,1,12,12,43,40,6,5,1.1,0.8
2023-10-31T09:00:00,1882A,104.563,28.793,宜宾市,石马中学,,,,,,,,,,,,,,,,
2023-10-31T09:00:00,1883A,104.6201,28.7728,宜宾市,市委,细颗粒物(PM2.5),94,94,63,70,44,123,8,13,13,43,35,7,10,0.9,0.6
2023-10-31T09:00:00,1884A,104.6055,28.793,宜宾市,宜宾四中,细颗粒物(PM2.5),102,98,66,76,47,115,4,10,10,50,39,10,11,0.9,0.6
2023-10-31T09:00:00,1885A,104.639,28.7562,宜宾市,市政府,细颗粒物(PM2.5),105,101,59,79,44,120,14,18,18,44,35,9,11,0.9,0.6
2023-10-31T09:00:00,1886A,104.5742,28.7199,宜宾市,黄金嘴,细颗粒物(PM2.5),75,73,51,55,35,121,4,13,13,34,31,8,8,0.8,0.6
2023-10-31T09:00:00,1888A,101.6891,26.571,攀枝花市,弄弄坪,颗粒物(PM10),55,59,49,28,32,115,10,20,17,34,27,17,23,1.7,1.2
2023-10-31T09:00:00,1889A,101.5769,26.5928,攀枝花市,河门口,,50,50,45,32,28,131,14,18,18,25,27,12,22,1.5,1.4
2023-10-31T09:00:00,1890A,101.7169,26.585,攀枝花市,炳草岗,,,83,60,47,32,121,,13,13,37,43,28,29,1.2,1
2023-10-31T09:00:00,1891A,101.7369,26.5008,攀枝花市,仁和,,39,39,44,23,31,128,15,24,22,27,22,7,16,0.8,0.6
2023-10-31T09:00:00,1893A,105.4324,28.9634,泸州市,九狮山,细颗粒物(PM2.5),65,73,41,47,28,115,7,6,6,24,15,5,4,0.7,0.5
2023-10-31T09:00:00,1894A,105.4427,28.9063,泸州市,小市上码头,细颗粒物(PM2.5),73,79,58,53,38,115,12,13,11,32,25,8,9,0.7,0.6
2023-10-31T09:00:00,1895A,105.4241,28.8573,泸州市,兰田宪桥,,,76,53,53,36,105,12,12,12,,25,8,6,1.0,0.7
2023-10-31T09:00:00,1896A,105.4379,28.8833,泸州市,市环监站,颗粒物(PM10),69,87,53,46,33,94,13,16,12,41,30,12,7,1.0,0.8
2023-10-31T09:00:00,1901A,104.4239,31.1208,德阳市,东山公园,颗粒物(PM10),52,54,71,28,35,68,47,58,58,13,24,1,1,0.6,0.7
2023-10-31T09:00:00,1902A,104.3826,31.1317,德阳市,西小区,,,64,79,48,56,51,,44,44,32,30,5,22,0.9,0.8
2023-10-31T09:00:00,1904A,104.3553,31.1091,德阳市,耐火材料厂,细颗粒物(PM2.5),79,84,94,58,50,52,15,37,35,40,32,20,8,0.9,0.5
2023-10-31T09:00:00,1905A,106.056,30.8064,南充市,西山风景区,细颗粒物(PM2.5),53,38,34,37,29,107,32,44,38,18,23,4,5,0.9,0.9
2023-10-31T09:00:00,1906A,106.0789,30.8023,南充市,南充市委,细颗粒物(PM2.5),68,64,54,49,38,104,10,10,9,35,32,5,4,0.6,0.5
2023-10-31T09:00:00,1907A,106.1031,30.8217,南充市,南充炼油厂,颗粒物(PM10),61,72,62,37,31,71,17,12,12,25,31,8,5,0.5,0.2
2023-10-31T09:00:00,1908A,106.1064,30.7856,南充市,高坪区监测站,颗粒物(PM10),56,62,54,36,34,103,20,16,16,27,30,6,6,0.4,0.5
2023-10-31T09:00:00,1909A,106.0642,30.7636,南充市,嘉陵区环保局,,,57,51,,34,109,,10,10,34,39,3,4,0.5,0.5
2023-10-31T09:00:00,1910A,106.1087,30.8388,南充市,市环境监测站,细颗粒物(PM2.5),62,51,49,44,36,111,18,25,22,28,24,7,8,0.6,0.5
2023-10-31T09:00:00,1911A,106.9222,27.6869,遵义市,丁字口,,,19,30,28,24,95,,12,12,22,30,8,7,0.9,0.9
2023-10-31T09:00:00,1912A,106.9242,27.7019,遵义市,凤凰山,,35,30,30,24,23,106,11,43,37,18,16,10,10,0.7,0.5
2023-10-31T09:00:00,1913A,106.8906,27.6486,遵义市,忠庄,,39,39,41,26,25,96,6,6,6,15,26,3,4,0.4,0.4
2023-10-31T09:00:00,1914A,106.9231,27.6506,遵义市,舟水桥,,37,37,41,18,19,99,6,6,6,8,17,2,2,0.7,0.5
2023-10-31T09:00:00,1915A,106.9178,27.72,遵义市,干田坝,,26,25,26,18,20,99,10,6,6,19,26,7,6,0.6,0.5
2023-10-31T09:00:00,1916A,103.7897,25.5035,曲靖市,环境监测站,,50,50,44,33,25,122,42,55,52,27,15,9,5,0.7,0.7
2023-10-31T09:00:00,1917A,103.8,25.5364,曲靖市,烟厂办公区,颗粒物(PM10),51,51,44,27,25,120,50,66,63,23,13,11,7,0.9,0.9
2023-10-31T09:00:00,1918A,108.7197,34.3956,咸阳市,气象站,,,,,,,,,,,,,,,,
2023-10-31T09:00:00,1919A,108.673,34.3155,咸阳市,实验中学,颗粒物(PM10),84,118,110,53,48,93,4,2,2,47,61,4,4,1.0,0.8
2023-10-31T09:00:00,1920A,108.7233,34.3617,咸阳市,师范学院,细颗粒物(PM2.5),83,98,103,61,54,82,10,6,6,41,52,6,6,0.8,0.7
2023-10-31T09:00:00,1922A,109.0656,35.0994,铜川市,党校,颗粒物(PM10),73,96,94,32,43,104,14,10,10,32,62,7,8,0.8,1
2023-10-31T09:00:00,1923A,109.0697,35.0697,铜川市,王益区政府,颗粒物(PM10),58,65,86,31,45,120,23,7,7,28,46,5,5,0.8,0.7
2023-10-31T09:00:00,1924A,108.9344,34.9058,铜川市,新区管委会,,49,49,87,19,36,146,45,58,55,22,40,4,9,0.4,0.6
2023-10-31T09:00:00,1926A,109.4131,36.6275,延安市,枣园,,44,44,46,14,17,128,8,6,6,24,36,6,7,0.5,0.4
2023-10-31T09:00:00,1927A,109.4761,36.6028,延安市,延大医附院,,48,48,57,11,21,106,9,5,5,23,40,3,3,0.7,0.8
2023-10-31T09:00:00,1929A,109.5056,36.6106,延安市,百米大道,,47,47,59,15,25,111,9,4,4,36,56,3,3,0.7,0.8
2023-10-31T09:00:00,1930A,107.185,34.3063,宝鸡市,庙沟村,,19,19,19,11,15,86,43,58,56,14,6,8,8,0.3,0.3
2023-10-31T09:00:00,1931A,107.0708,34.3017,宝鸡市,竹园沟,,21,21,23,13,16,103,55,66,65,13,12,6,6,0.4,0.4
2023-10-31T09:00:00,1932A,107.1906,34.3672,宝鸡市,三陆医院,颗粒物(PM10),54,57,43,25,23,98,8,8,8,51,45,9,9,0.9,0.6
2023-10-31T09:00:00,1933A,107.1431,34.3547,宝鸡市,监测站,,43,43,31,18,20,90,10,37,33,49,23,6,6,0.8,0.5
2023-10-31T09:00:00,1934A,107.1186,34.3739,宝鸡市,技工学校,,29,29,29,18,18,97,36,65,62,40,19,6,6,0.7,0.5
2023-10-31T09:00:00,1935A,107.3906,34.3528,宝鸡市,陈仓区环保局家属楼,颗粒物(PM10),69,88,63,44,31,90,12,8,8,43,48,28,15,1.0,0.7
2023-10-31T09:00:00,1936A,107.2058,34.3497,宝鸡市,文理学院,颗粒物(PM10),52,54,39,30,21,96,8,25,24,50,36,8,5,0.8,0.5
2023-10-31T09:00:00,1937A,107.2386,34.3622,宝鸡市,三迪小学,颗粒物(PM10),66,81,47,28,25,85,8,8,8,47,47,10,7,0.9,0.5
2023-10-31T09:00:00,1938A,109.5293,34.5101,渭南市,农科所,,,,99,,61,92,,44,,,33,,11,,0.9
2023-10-31T09:00:00,1939A,109.4974,34.4877,渭南市,日报社,细颗粒物(PM2.5),95,119,102,71,65,149,7,9,6,62,57,8,8,0.7,0.6
2023-10-31T09:00:00,1940A,109.4636,34.493,渭南市,体育馆,,,114,109,59,64,153,6,4,2,57,63,,7,1.0,0.7
2023-10-31T09:00:00,1941A,109.4259,34.5023,渭南市,高新一小,细颗粒物(PM2.5),104,114,122,78,80,140,5,3,3,54,59,6,9,1.1,0.8
2023-10-31T09:00:00,1944A,102.1692,38.5167,金昌市,天庆家园,颗粒物(PM10),75,100,54,15,12,101,34,74,69,57,22,8,8,1.4,0.7
2023-10-31T09:00:00,1945A,98.2908,39.7711,嘉峪关市,气象局,颗粒物(PM10),56,61,42,12,12,102,30,39,38,43,23,2,6,0.5,0.4
2023-10-31T09:00:00,1947A,106.3394,38.817,石嘴山市,沙湖旅游区,颗粒物(PM10),73,96,90,45,35,99,11,10,10,36,35,18,17,1.1,0.5
2023-10-31T09:00:00,1948A,106.3668,39.0145,石嘴山市,大武口朝阳西街,颗粒物(PM10),114,177,98,77,33,104,12,18,16,49,37,110,33,2.4,0.8
2023-10-31T09:00:00,1949A,106.7704,39.2282,石嘴山市,惠农南大街,颗粒物(PM10),113,176,86,28,23,104,5,11,10,65,36,15,10,1.7,0.9
2023-10-31T09:00:00,1950A,106.7099,39.1325,石嘴山市,红果子镇惠新街,颗粒物(PM10),72,93,96,35,29,106,13,19,16,44,35,16,28,0.7,0.8
2023-10-31T09:00:00,1951A,84.895,45.6094,克拉玛依市,长征新村,,25,25,30,10,6,30,11,12,12,21,24,10,10,0.6,0.4
2023-10-31T09:00:00,1952A,84.8988,45.5893,克拉玛依市,南林小区,,28,28,33,16,21,38,20,17,17,18,23,4,4,0.4,0.4
2023-10-31T09:00:00,1954A,84.905,44.3396,克拉玛依市,独山子区,颗粒物(PM10),56,61,74,26,30,72,11,22,22,39,39,5,17,0.8,0.7
2023-10-31T09:00:00,1955A,85.6979,46.098,克拉玛依市,乌尔禾区商贸楼,,25,20,17,17,12,43,11,7,7,21,18,10,8,0.3,0.3
2023-10-31T09:00:00,1956A,86.1472,41.7538,巴音郭楞州,孔雀公园,颗粒物(PM10),84,118,117,46,36,99,10,13,13,67,57,8,5,1.0,0.8
2023-10-31T09:00:00,1957A,86.1972,41.7166,巴音郭楞州,棉纺厂,颗粒物(PM10),88,126,152,49,40,98,11,28,28,69,49,4,3,0.7,0.6
2023-10-31T09:00:00,1958A,86.2357,41.7173,巴音郭楞州,经济开发区,颗粒物(PM10),72,93,129,29,31,103,18,57,54,56,34,2,4,0.4,0.4
2023-10-31T09:00:00,1961A,117.532,36.6868,济南市,东山小学,颗粒物(PM10),61,71,100,37,48,170,99,110,106,20,32,10,10,0.4,0.5
2023-10-31T09:00:00,1966A,120.0405,35.8735,青岛市,黄岛区4号,颗粒物(PM10),75,100,74,53,35,174,129,125,125,38,22,17,10,1.6,0.9
2023-10-31T09:00:00,1982A,122.0693,37.2174,威海市,文登开发区,颗粒物(PM10),53,56,47,14,13,139,114,110,110,11,8,7,8,0.7,0.7
2023-10-31T09:00:00,2031A,113.1817,27.9958,株洲市,云田中学,细颗粒物(PM2.5),63,60,70,45,56,170,53,33,32,14,28,9,7,0.9,0.9
2023-10-31T09:00:00,2054A,114.1099,32.1059,信阳市,平桥分局,细颗粒物(PM2.5),55,47,43,39,31,134,125,126,126,12,16,5,5,0.6,0.5
2023-10-31T09:00:00,2064A,113.9956,32.1271,信阳市,南湾水厂,颗粒物(PM10),54,57,49,34,31,141,141,135,135,11,14,5,5,0.7,0.7
2023-10-31T09:00:00,2065A,114.0775,32.1195,信阳市,市酿酒公司,,47,47,48,29,32,136,118,125,125,18,18,5,5,0.7,0.7
2023-10-31T09:00:00,2066A,114.0609,32.1399,信阳市,审计局,颗粒物(PM10),52,54,49,34,34,136,136,132,132,12,14,6,7,0.6,0.6
2023-10-31T09:00:00,2067A,114.6613,33.6128,周口市,市环境监测站,细颗粒物(PM2.5),83,88,71,61,34,123,62,60,60,37,28,9,9,0.5,0.3
2023-10-31T09:00:00,2068A,114.6758,33.6347,周口市,周口师范,细颗粒物(PM2.5),83,74,60,61,30,126,68,71,70,36,26,7,6,0.7,0.5
2023-10-31T09:00:00,2069A,114.6546,33.5979,周口市,市运管处,细颗粒物(PM2.5),85,103,67,63,37,121,64,64,64,36,30,6,5,0.8,0.6
2023-10-31T09:00:00,2070A,114.6369,33.6406,周口市,川汇区环保局,颗粒物(PM10),70,90,64,50,30,118,70,76,74,31,24,9,8,0.7,0.5
2023-10-31T09:00:00,2075A,117.6336,24.4674,漳州市,九湖,,,,,,,,,,,,,,,,
2023-10-31T09:00:00,2160A,112.85,35.5051,晋城市,自来水公司,细颗粒物(PM2.5),128,146,113,97,64,147,20,19,18,63,54,18,15,3.4,1.8
2023-10-31T09:00:00,2161A,112.8318,35.4936,晋城市,白云商贸,细颗粒物(PM2.5),140,195,118,107,60,150,33,30,30,51,46,17,11,3.9,1.8
2023-10-31T09:00:00,2162A,112.8508,35.4887,晋城市,市环保局,细颗粒物(PM2.5),125,170,119,95,62,149,18,9,9,66,62,13,11,3.2,1.9
2023-10-31T09:00:00,2163A,112.8676,35.4897,晋城市,技术学院,细颗粒物(PM2.5),125,150,121,95,70,148,16,9,9,61,59,12,11,2.4,1.5
2023-10-31T09:00:00,2165A,112.8453,35.546,晋城市,白马寺,,,,,,,,,,,,,,,,
2023-10-31T09:00:00,2166A,112.4397,39.3522,朔州市,平朔,颗粒物(PM10),130,209,79,70,31,123,12,58,48,74,25,50,13,1.4,0.6
2023-10-31T09:00:00,2167A,112.4575,39.3617,朔州市,朔唯,颗粒物(PM10),245,381,148,80,42,109,4,24,14,85,53,67,22,1.3,1
2023-10-31T09:00:00,2168A,112.4258,39.3197,朔州市,区政府,颗粒物(PM10),83,116,69,44,22,117,42,74,67,44,20,19,11,0.8,0.5
2023-10-31T09:00:00,2169A,112.4072,39.3278,朔州市,市环保局,颗粒物(PM10),74,98,78,28,22,113,59,66,62,27,20,12,12,0.6,0.6
2023-10-31T09:00:00,2170A,112.4272,39.3681,朔州市,市二中,颗粒物(PM10),107,164,80,52,28,120,16,59,49,74,26,36,14,0.8,0.4
2023-10-31T09:00:00,2171A,112.7532,37.6945,晋中市,锦纶小区,颗粒物(PM10),93,136,89,48,42,147,19,32,31,55,47,12,13,0.9,0.5
2023-10-31T09:00:00,2173A,112.7249,37.7067,晋中市,南都小区,颗粒物(PM10),97,144,97,47,40,126,19,13,13,61,57,14,14,1.1,0.7
2023-10-31T09:00:00,2174A,112.6991,37.6982,晋中市,榆次区政府,颗粒物(PM10),89,127,84,46,35,136,17,21,20,63,54,14,15,1.2,0.8
2023-10-31T09:00:00,2175A,110.9956,35.0147,运城市,运城中学,细颗粒物(PM2.5),160,196,170,122,106,169,50,38,38,35,40,15,14,1.4,1.1
2023-10-31T09:00:00,2178A,110.9686,35.0303,运城市,地区技校,细颗粒物(PM2.5),168,212,181,127,102,167,17,23,23,54,53,9,11,1.6,1.3
2023-10-31T09:00:00,2179A,111.0414,35.1147,运城市,空港新区,细颗粒物(PM2.5),169,214,188,128,112,197,15,4,4,54,61,9,11,1.3,1.2
2023-10-31T09:00:00,2181A,112.7383,38.4519,忻州市,开发区,,,143,95,73,43,101,,12,11,59,52,17,19,0.9,0.7
2023-10-31T09:00:00,2182A,112.7003,38.4928,忻州市,会展中心,细颗粒物(PM2.5),128,143,97,97,51,100,20,13,12,59,53,16,19,1.1,0.9
2023-10-31T09:00:00,2183A,111.1406,37.5211,吕梁市,环保局,颗粒物(PM10),67,84,87,37,28,107,6,2,2,50,56,9,4,0.7,0.6
2023-10-31T09:00:00,2185A,111.1297,37.5136,吕梁市,自来水公司,颗粒物(PM10),103,156,129,42,36,112,9,5,5,43,50,26,13,0.7,0.7
2023-10-31T09:00:00,2187A,106.8174,39.6973,乌海市,市林业局,颗粒物(PM10),82,114,98,31,27,108,26,34,30,50,30,31,29,1.5,1
2023-10-31T09:00:00,2188A,106.7907,39.6667,乌海市,中海勃湾学校,颗粒物(PM10),92,133,93,35,26,110,26,21,15,56,37,34,27,1.3,1
2023-10-31T09:00:00,2191A,122.2532,43.6801,通辽市,艺术职业学校,颗粒物(PM10),79,108,64,42,22,78,58,54,54,31,28,14,8,0.7,0.5
2023-10-31T09:00:00,2192A,119.7594,49.2261,呼伦贝尔市,区环保局,,32,25,33,22,19,68,54,62,60,13,13,6,5,0.5,0.4
2023-10-31T09:00:00,2195A,107.4212,40.761,巴彦淖尔市,附二中,颗粒物(PM10),60,70,116,24,30,102,52,65,63,22,16,5,7,0.5,0.5
2023-10-31T09:00:00,2196A,107.37,40.7372,巴彦淖尔市,市环保大楼,,,71,124,25,31,102,45,50,49,21,18,,5,0.4,0.4
2023-10-31T09:00:00,2197A,113.1306,40.9923,乌兰察布市,集宁新区,颗粒物(PM10),100,149,98,49,30,104,45,55,54,37,29,7,12,0.5,0.5
2023-10-31T09:00:00,2200A,122.0392,46.0656,兴安盟,胜华新制药厂,颗粒物(PM10),52,53,41,23,24,76,46,51,50,13,15,4,7,0.4,0.7
2023-10-31T09:00:00,2201A,121.9504,46.0741,兴安盟,科右前旗环保局,,44,44,35,26,14,77,45,52,50,13,12,6,5,0.7,0.7
2023-10-31T09:00:00,2202A,116.1042,43.9317,锡林郭勒盟,市环保监测站,,20,20,86,6,11,105,52,68,63,6,4,7,8,0.2,0.2
2023-10-31T09:00:00,2203A,116.0781,43.9311,锡林郭勒盟,市政府,,32,32,89,4,14,104,48,64,60,15,7,11,10,0.3,0.2
2023-10-31T09:00:00,2204A,105.6467,38.8363,阿拉善盟,西城区西花园,颗粒物(PM10),71,91,47,23,16,110,75,85,85,17,14,8,8,1.2,1.1
2023-10-31T09:00:00,2205A,105.6985,38.8411,阿拉善盟,蒙二幼,颗粒物(PM10),73,95,48,27,16,107,59,85,82,37,15,8,8,0.7,0.3
2023-10-31T09:00:00,2206A,105.724,38.8516,阿拉善盟,环保局新楼,,,41,34,16,16,106,,95,95,10,8,7,8,0.3,0.3
2023-10-31T09:00:00,2207A,121.6094,41.998,阜新市,工业园区,颗粒物(PM10),83,116,85,49,25,79,43,18,18,44,44,38,23,1.3,0.9
2023-10-31T09:00:00,2208A,121.6697,42.0279,阜新市,长青街,细颗粒物(PM2.5),105,121,78,79,36,72,37,18,18,57,45,28,21,1.4,1
2023-10-31T09:00:00,2209A,121.6673,42.0705,阜新市,农业园区,细颗粒物(PM2.5),98,103,61,73,29,66,54,33,33,32,25,26,26,1.1,0.7
2023-10-31T09:00:00,2210A,121.6717,42.0224,阜新市,东苑,颗粒物(PM10),96,142,82,59,31,70,28,15,15,56,47,32,27,1.2,0.8
2023-10-31T09:00:00,2211A,121.6506,42.0498,阜新市,玉龙新城,颗粒物(PM10),79,107,74,52,22,82,51,24,24,39,44,28,21,1.4,1
2023-10-31T09:00:00,2212A,123.2,41.1953,辽阳市,宏伟区,细颗粒物(PM2.5),62,52,69,44,35,125,125,121,121,12,30,10,24,0.7,0.7
2023-10-31T09:00:00,2213A,123.1683,41.2495,辽阳市,新华园,细颗粒物(PM2.5),55,54,78,39,36,115,115,110,110,13,37,8,21,0.6,0.7
2023-10-31T09:00:00,2214A,123.2354,41.2639,辽阳市,滨河路,颗粒物(PM10),56,61,76,34,41,108,104,104,104,18,30,12,17,0.7,0.7
2023-10-31T09:00:00,2215A,123.149,41.2991,辽阳市,铁西工业园,颗粒物(PM10),56,61,89,36,40,119,113,114,114,19,31,9,20,0.7,0.7
2023-10-31T09:00:00,2216A,123.8139,42.3022,铁岭市,汇工街西,细颗粒物(PM2.5),78,92,69,57,97,110,15,52,52,62,42,24,29,1.3,0.8
2023-10-31T09:00:00,2217A,123.8649,42.2923,铁岭市,水上乐园,细颗粒物(PM2.5),100,72,88,75,67,112,43,86,86,52,34,8,6,1.3,1
2023-10-31T09:00:00,2218A,123.8486,42.2867,铁岭市,银州路东段,细颗粒物(PM2.5),95,120,95,71,55,123,27,94,94,65,34,8,7,1.2,0.8
2023-10-31T09:00:00,2219A,123.7153,42.2217,铁岭市,金沙江路北,细颗粒物(PM2.5),104,88,71,78,48,106,15,51,51,64,46,12,10,1.5,0.8
2023-10-31T09:00:00,2220A,120.4318,41.5881,朝阳市,西梁,细颗粒物(PM2.5),118,119,66,89,30,83,30,20,20,50,33,13,13,1.3,0.8
2023-10-31T09:00:00,2221A,120.4521,41.5646,朝阳市,河畔小区,,,107,57,60,22,87,38,37,37,,23,11,11,1.4,1
2023-10-31T09:00:00,2222A,120.4176,41.5648,朝阳市,八里堡,颗粒物(PM10),77,104,85,26,28,58,33,15,15,46,48,11,11,1.2,1
2023-10-31T09:00:00,2223A,120.3806,41.5969,朝阳市,农业园区,细颗粒物(PM2.5),112,90,47,84,21,85,74,27,27,24,37,11,11,1.1,0.8
2023-10-31T09:00:00,2225A,124.4002,43.1713,四平市,一商场,颗粒物(PM10),81,112,101,53,48,91,71,74,74,32,33,7,7,0.8,0.5
2023-10-31T09:00:00,2226A,124.388,43.193,四平市,境园,细颗粒物(PM2.5),108,87,105,81,64,87,,68,68,,27,,7,,0.5
2023-10-31T09:00:00,2227A,125.1358,42.8845,辽源市,环保局,细颗粒物(PM2.5),77,72,179,56,150,120,101,43,43,26,50,11,17,0.8,1.5
2023-10-31T09:00:00,2229A,125.9358,41.7173,通化市,光明,,44,44,58,25,28,122,122,98,98,16,38,6,12,0.5,0.8
2023-10-31T09:00:00,2230A,125.9446,41.7325,通化市,铁路,,46,46,81,21,37,120,120,80,80,13,47,7,12,0.6,0.8
2023-10-31T09:00:00,2231A,126.4219,41.9171,白山市,喜丰,颗粒物(PM10),95,139,202,54,74,40,40,11,11,61,69,14,17,1.2,1.4
2023-10-31T09:00:00,2232A,126.4077,41.9419,白山市,环保局,细颗粒物(PM2.5),98,117,162,73,80,7,4,4,4,42,66,19,18,1.9,1.6
2023-10-31T09:00:00,2233A,124.8006,45.1214,松原市,江南,细颗粒物(PM2.5),137,137,60,104,26,75,14,35,31,42,19,13,9,1.0,0.4
2023-10-31T09:00:00,2234A,124.7965,45.1722,松原市,江北,细颗粒物(PM2.5),139,119,70,106,32,74,15,28,24,42,26,12,8,0.9,0.4
2023-10-31T09:00:00,2235A,122.7911,45.6077,白城市,洮北区环保局,,35,35,34,18,12,83,41,56,52,18,14,10,8,0.5,0.5
2023-10-31T09:00:00,2236A,122.8738,45.5725,白城市,市环保局,,47,47,44,16,10,88,48,55,54,18,22,7,5,0.4,0.4
2023-10-31T09:00:00,2237A,129.47,42.8883,延边朝鲜族自治州,妇幼医院,细颗粒物(PM2.5),94,104,81,70,43,76,11,8,8,46,44,24,11,1.2,0.8
2023-10-31T09:00:00,2238A,129.5055,42.9108,延边朝鲜族自治州,延边医院,细颗粒物(PM2.5),123,141,114,93,64,51,19,13,13,63,64,19,13,1.6,1.3
2023-10-31T09:00:00,2239A,129.3964,42.8881,延边朝鲜族自治州,朝阳川镇医院,细颗粒物(PM2.5),95,94,90,71,50,78,21,9,9,33,36,18,10,1.1,0.9
2023-10-31T09:00:00,2240A,130.9762,45.3001,鸡西市,环保局,细颗粒物(PM2.5),142,156,136,108,82,92,24,19,19,44,36,7,7,1.1,1.1
2023-10-31T09:00:00,2243A,130.9429,45.3039,鸡西市,第一中学,,,,103,,72,82,,74,,,17,,8,,0.5
2023-10-31T09:00:00,2244A,130.2537,47.3416,鹤岗市,哈啤分公司,,,,71,,42,75,38,46,44,,24,14,16,0.1,0.3
2023-10-31T09:00:00,2245A,130.2684,47.3086,鹤岗市,斯达机电,,32,29,92,22,48,73,33,36,35,21,32,10,13,0.4,0.6
2023-10-31T09:00:00,2246A,130.3114,47.3388,鹤岗市,东山纸板厂,,36,36,127,23,50,64,44,22,22,14,40,12,15,0.3,0.9
2023-10-31T09:00:00,2247A,130.1097,47.3382,鹤岗市,五号水库,,,,77,,52,71,48,46,46,10,21,10,12,0.4,0.6
2023-10-31T09:00:00,2248A,131.1511,46.6937,双鸭山市,双合村,,,93,163,57,72,95,,9,9,22,28,14,14,0.7,1
2023-10-31T09:00:00,2249A,131.1652,46.6191,双鸭山市,南小市,细颗粒物(PM2.5),118,146,114,89,78,106,35,28,28,34,24,10,9,1.0,0.7
2023-10-31T09:00:00,2250A,131.1524,46.6554,双鸭山市,环保局,细颗粒物(PM2.5),73,73,113,53,89,97,29,8,8,25,30,12,12,0.7,0.9
2023-10-31T09:00:00,2251A,131.12,46.5656,双鸭山市,苗圃,细颗粒物(PM2.5),64,41,81,46,73,129,44,44,44,19,16,3,4,0.3,0.6
2023-10-31T09:00:00,2252A,128.5159,47.4311,伊春市,环保局,细颗粒物(PM2.5),113,62,97,85,94,119,34,29,29,25,31,6,7,0.7,0.8
2023-10-31T09:00:00,2253A,128.9102,47.7412,伊春市,电力嘉园,细颗粒物(PM2.5),79,64,101,58,74,123,29,23,23,24,26,7,8,0.5,0.6
2023-10-31T09:00:00,2254A,129.5029,48.471,伊春市,汤旺河国家公园,,21,21,55,8,40,79,38,24,24,5,9,5,5,0.2,0.3
2023-10-31T09:00:00,2255A,130.2751,46.8028,佳木斯市,佳纺,颗粒物(PM10),52,54,110,34,72,77,28,17,17,27,43,4,6,0.6,0.8
2023-10-31T09:00:00,2256A,130.3995,46.8307,佳木斯市,发电厂,,,58,88,31,49,81,27,23,23,23,26,15,10,,0.7
2023-10-31T09:00:00,2257A,130.3258,46.7975,佳木斯市,环保局,,,50,94,31,76,67,20,18,18,32,43,,9,0.9,0.8
2023-10-31T09:00:00,2258A,130.3648,46.8032,佳木斯市,十一中,细颗粒物(PM2.5),59,56,108,42,75,76,25,17,17,32,44,10,7,0.7,0.7
2023-10-31T09:00:00,2259A,130.3794,46.7588,佳木斯市,四丰,细颗粒物(PM2.5),73,61,99,53,69,95,20,15,14,35,38,1,1,0.6,0.6
2023-10-31T09:00:00,2262A,131.0518,45.8751,七台河市,新一中,细颗粒物(PM2.5),108,101,113,81,87,105,50,58,54,24,25,13,11,0.8,0.9
2023-10-31T09:00:00,2263A,127.4833,50.2524,黑河市,交通局,细颗粒物(PM2.5),53,44,42,37,36,61,22,27,26,20,18,6,4,0.5,0.5
2023-10-31T09:00:00,2264A,127.5144,50.2341,黑河市,环保局,颗粒物(PM10),51,52,36,31,30,72,12,32,29,36,14,7,4,0.7,0.4
2023-10-31T09:00:00,2265A,127.5291,50.2472,黑河市,大黑河岛,,,58,49,37,46,,,,,,2,,2,,
2023-10-31T09:00:00,2266A,126.9785,46.6365,绥化市,人和东街,细颗粒物(PM2.5),500,584,219,532,184,104,17,34,32,61,37,6,5,2.8,1.2
2023-10-31T09:00:00,2267A,126.964,46.6528,绥化市,党政办公中心,"颗粒物(PM10),细颗粒物(PM2.5)",500,712,239,691,215,107,25,51,50,60,35,7,6,3.1,1.2
2023-10-31T09:00:00,2269A,124.1069,50.4097,大兴安岭地区,科技局,,30,22,24,21,20,61,31,32,32,6,7,7,6,0.3,0.3
2023-10-31T09:00:00,2270A,117.396,32.939,蚌埠市,工人疗养院,细颗粒物(PM2.5),92,118,97,68,54,192,97,129,123,39,24,10,9,0.9,0.7
2023-10-31T09:00:00,2271A,117.3605,32.9427,蚌埠市,百货大楼,"颗粒物(PM10),细颗粒物(PM2.5)",88,125,98,65,51,196,94,134,124,41,24,12,11,0.9,0.7
2023-10-31T09:00:00,2273A,117.4185,32.8911,蚌埠市,蚌埠学院,细颗粒物(PM2.5),100,112,96,75,54,191,90,121,116,37,26,17,10,1.0,0.6
2023-10-31T09:00:00,2274A,117.3533,32.9673,蚌埠市,淮上区政府,细颗粒物(PM2.5),105,110,98,79,65,193,90,129,121,34,18,12,14,0.9,0.7
2023-10-31T09:00:00,2275A,117.3145,32.8977,蚌埠市,高新区,细颗粒物(PM2.5),120,122,97,91,69,202,75,106,99,56,32,16,11,1.0,0.7
2023-10-31T09:00:00,2277A,116.8305,32.7727,淮南市,潘集区政府,细颗粒物(PM2.5),105,129,115,79,65,159,69,72,70,47,37,15,13,0.7,0.6
2023-10-31T09:00:00,2278A,117.0067,32.6524,淮南市,师范学院,颗粒物(PM10),72,93,95,48,57,172,102,115,109,30,25,11,11,0.9,0.8
2023-10-31T09:00:00,2279A,116.8569,32.5951,淮南市,谢家集区政府,细颗粒物(PM2.5),72,83,87,52,50,171,61,80,76,61,45,9,8,0.7,0.5
2023-10-31T09:00:00,2280A,116.8281,32.633,淮南市,八公山区政府,细颗粒物(PM2.5),83,97,89,61,52,162,79,97,93,34,26,9,9,0.7,0.6
2023-10-31T09:00:00,2281A,116.6325,32.6201,淮南市,焦岗湖风景区管理处,细颗粒物(PM2.5),69,82,72,50,42,153,62,63,60,32,25,2,2,0.4,0.3
2023-10-31T09:00:00,2282A,116.8004,33.975,淮北市,监测站,细颗粒物(PM2.5),82,97,91,60,55,152,99,87,87,33,31,12,10,0.8,0.7
2023-10-31T09:00:00,2283A,116.8091,33.9007,淮北市,烈山区政府,细颗粒物(PM2.5),134,144,120,102,73,162,84,68,68,40,40,10,10,0.8,0.6
2023-10-31T09:00:00,2285A,117.8177,30.9412,铜陵市,市第四中学,细颗粒物(PM2.5),90,128,118,67,69,163,44,26,26,71,63,46,20,3.2,1.5
2023-10-31T09:00:00,2286A,117.8059,30.9273,铜陵市,市公路局,颗粒物(PM10),78,105,100,42,51,153,61,31,31,46,46,33,23,2.8,1.6
2023-10-31T09:00:00,2287A,117.7807,30.9413,铜陵市,市新民污水厂,颗粒物(PM10),58,66,104,34,47,167,42,10,10,60,61,16,11,0.8,1.1
2023-10-31T09:00:00,2288A,117.7439,30.8792,铜陵市,市第九中学,颗粒物(PM10),67,83,148,32,55,163,46,19,19,46,70,6,11,1.0,1.2
2023-10-31T09:00:00,2289A,117.846,30.9413,铜陵市,车站新区,细颗粒物(PM2.5),97,117,88,72,51,156,13,18,14,88,57,29,10,3.3,1
2023-10-31T09:00:00,2290A,117.8483,30.97,铜陵市,市职教基地,细颗粒物(PM2.5),88,93,88,65,56,147,15,6,6,40,39,24,18,1.7,1
2023-10-31T09:00:00,2291A,117.0809,30.5177,安庆市,环科院,细颗粒物(PM2.5),58,60,84,41,49,200,50,12,12,46,73,7,9,0.9,1
2023-10-31T09:00:00,2292A,117.0331,30.5119,安庆市,马山宾馆,"颗粒物(PM10),细颗粒物(PM2.5)",57,64,81,40,54,195,44,18,18,59,76,6,8,0.6,0.8
2023-10-31T09:00:00,2294A,116.9896,30.6145,安庆市,安庆大学,细颗粒物(PM2.5),85,84,78,63,52,220,54,39,38,57,44,10,10,1.0,1
2023-10-31T09:00:00,2295A,118.2903,29.6963,黄山市,延安路89号,,37,37,40,19,21,149,32,19,19,10,12,5,5,0.3,0.3
2023-10-31T09:00:00,2296A,118.327,29.7178,黄山市,黄山东路89号,,48,46,47,33,28,146,21,16,15,15,16,4,5,0.6,0.6
2023-10-31T09:00:00,2297A,118.1371,30.2756,黄山市,黄山区政府5号楼,,48,32,48,33,28,146,31,17,17,12,13,6,7,0.5,0.5
2023-10-31T09:00:00,2298A,118.3093,32.3153,滁州市,老年大学,细颗粒物(PM2.5),93,95,72,69,47,188,32,18,18,49,40,13,9,1.1,0.9
2023-10-31T09:00:00,2299A,118.3244,32.2786,滁州市,人大宾馆,细颗粒物(PM2.5),127,129,93,96,61,188,58,48,48,64,51,30,15,1.0,0.9
2023-10-31T09:00:00,2301A,115.8277,32.8929,阜阳市,市监测站,细颗粒物(PM2.5),103,118,76,77,50,154,,122,122,31,28,9,8,0.8,0.6
2023-10-31T09:00:00,2303A,115.8554,32.8605,阜阳市,开发区,细颗粒物(PM2.5),107,116,87,80,54,153,112,83,83,35,27,11,9,0.8,0.7
2023-10-31T09:00:00,2307A,116.5079,31.737,六安市,监测大楼,颗粒物(PM10),65,79,65,45,36,157,70,66,64,44,28,5,6,0.7,0.5
2023-10-31T09:00:00,2308A,116.4738,31.7643,六安市,皖西学院,细颗粒物(PM2.5),69,86,67,50,36,164,72,75,72,35,23,6,7,0.7,0.6
2023-10-31T09:00:00,2309A,116.4996,31.7905,六安市,朝阳厂,细颗粒物(PM2.5),77,80,63,56,41,167,29,87,78,54,22,7,7,0.9,0.6
2023-10-31T09:00:00,2310A,116.5567,31.7886,六安市,开发区,,,126,100,59,49,156,,49,45,44,28,6,9,0.9,0.7
2023-10-31T09:00:00,2311A,115.8072,33.8399,亳州市,污水处理厂,颗粒物(PM10),71,91,67,51,37,146,88,83,83,34,29,20,18,0.7,0.6
2023-10-31T09:00:00,2312A,115.7789,33.8518,亳州市,三国揽胜宫,细颗粒物(PM2.5),77,70,58,56,37,152,106,98,98,25,22,27,20,0.4,0.3
2023-10-31T09:00:00,2314A,117.47,30.6618,池州市,池州学院,颗粒物(PM10),56,61,54,36,34,186,58,58,58,30,29,5,5,1.1,0.9
2023-10-31T09:00:00,2316A,118.7581,30.9454,宣城市,鳌峰子站,颗粒物(PM10),57,64,69,31,39,152,56,62,59,23,25,5,5,0.6,0.6
2023-10-31T09:00:00,2317A,118.7385,30.9743,宣城市,敬亭山子站,颗粒物(PM10),53,55,60,33,37,174,62,70,66,38,21,7,7,0.7,0.6
2023-10-31T09:00:00,2318A,118.7173,30.9427,宣城市,开发区子站,,50,50,67,33,42,157,52,43,43,31,38,4,5,0.6,0.6
2023-10-31T09:00:00,2319A,119.0141,25.4325,莆田市,荔城区仓后路,,27,23,25,4,11,120,84,84,84,7,8,6,6,0.8,0.8
2023-10-31T09:00:00,2320A,119.0015,25.4553,莆田市,莆田市监测站,,29,9,21,4,9,124,92,92,92,3,6,8,8,0.5,0.5
2023-10-31T09:00:00,2321A,119.1119,25.4561,莆田市,涵江区六中,,26,23,24,6,8,124,82,85,84,5,5,8,7,0.5,0.5
2023-10-31T09:00:00,2322A,119.1013,25.3215,莆田市,秀屿区政府,,31,31,26,6,9,122,78,81,80,11,10,8,8,0.6,0.5
2023-10-31T09:00:00,2323A,118.981,25.4792,莆田市,东圳水库,,,,,,,,,,,,,,,,
2023-10-31T09:00:00,2324A,117.6211,26.2625,三明市,三钢,细颗粒物(PM2.5),52,44,31,36,25,94,24,9,9,21,24,9,8,0.5,0.5
2023-10-31T09:00:00,2325A,117.635,26.2714,三明市,三明二中,,40,24,28,28,22,91,22,10,10,20,21,5,5,0.6,0.5
2023-10-31T09:00:00,2326A,117.6028,26.2378,三明市,三元区政府,,43,43,35,27,19,94,16,8,8,23,26,11,10,0.9,0.8
2023-10-31T09:00:00,2327A,117.7275,26.3108,三明市,洋溪,,,,,,,,,,,,,,,,
2023-10-31T09:00:00,2331A,118.0966,26.6761,南平市,茫荡山,,,,,,,,,,,,,,,,
2023-10-31T09:00:00,2332A,118.1681,26.6369,南平市,南平市监测站,,46,46,32,25,22,103,27,12,12,20,19,10,5,1.0,0.7
2023-10-31T09:00:00,2333A,118.1825,26.6489,南平市,南平铝业有限公司,,45,39,34,31,25,103,22,8,8,21,25,12,8,1.0,0.8
2023-10-31T09:00:00,2334A,118.1756,26.6272,南平市,南平七中,,45,34,28,31,20,102,30,15,15,17,14,8,5,0.7,0.5
2023-10-31T09:00:00,2335A,117.0189,25.1181,龙岩市,龙岩师专,,,,,,,,,,,,,,,,
2023-10-31T09:00:00,2336A,117.0217,25.1033,龙岩市,龙岩市监测站,,,37,29,28,19,98,,28,27,17,16,9,7,0.7,0.6
2023-10-31T09:00:00,2337A,117.0258,25.0661,龙岩市,闽西职业技术学院,,42,37,39,29,18,97,39,12,12,17,26,8,8,0.9,0.6
2023-10-31T09:00:00,2338A,117.0196,25.0306,龙岩市,龙岩学院,,49,37,27,34,17,95,24,9,9,21,16,10,6,0.8,0.6
2023-10-31T09:00:00,2339A,119.5001,26.6946,宁德市,金涵水库,,,,,,,,,,,,,,,,
2023-10-31T09:00:00,2341A,119.5388,26.6612,宁德市,宁德市监测站,,22,16,23,15,14,116,38,34,33,24,16,7,6,0.7,0.6
2023-10-31T09:00:00,2342A,117.3102,29.3867,景德镇市,王港中学,,27,27,38,18,26,149,30,16,16,5,5,2,2,0.3,0.3
2023-10-31T09:00:00,2343A,117.2117,29.2933,景德镇市,老干部活动中心,细颗粒物(PM2.5),59,47,53,42,34,151,30,10,10,21,23,10,10,0.6,0.6
2023-10-31T09:00:00,2344A,117.1894,29.2789,景德镇市,兽医站,,39,38,52,27,38,144,36,16,16,17,19,8,10,0.6,0.6
2023-10-31T09:00:00,2345A,117.1547,29.2617,景德镇市,台达陶瓷,,42,42,57,22,38,139,44,26,26,15,29,7,16,0.6,0.7
2023-10-31T09:00:00,2346A,117.2461,29.2956,景德镇市,陶研所,,,50,63,25,26,143,,3,3,21,24,4,4,0.5,0.6
2023-10-31T09:00:00,2347A,114.0997,27.5002,萍乡市,武功山,,25,24,25,17,26,132,54,41,41,6,6,6,7,0.3,1.8
2023-10-31T09:00:00,2348A,113.8385,27.6434,萍乡市,中医院,颗粒物(PM10),62,73,65,43,45,131,28,18,17,32,26,23,16,1.3,1.2
2023-10-31T09:00:00,2349A,113.8493,27.6253,萍乡市,市政府车库,细颗粒物(PM2.5),70,81,65,51,47,132,21,26,23,42,21,42,15,5.4,1.1
2023-10-31T09:00:00,2350A,113.8676,27.6435,萍乡市,市环保局,,,,65,,47,134,,27,27,,26,31,14,0.8,1.1
2023-10-31T09:00:00,2351A,113.866,27.6198,萍乡市,安源区政府,颗粒物(PM10),52,53,62,33,45,141,21,20,20,38,19,17,14,1.5,1
2023-10-31T09:00:00,2352A,115.0861,27.9317,新余市,北岗,,46,42,46,32,37,144,27,22,20,20,14,19,16,0.8,0.6
2023-10-31T09:00:00,2353A,114.9886,27.8431,新余市,飞宇,细颗粒物(PM2.5),69,76,70,50,41,129,24,29,26,34,31,11,16,0.8,0.7
2023-10-31T09:00:00,2354A,114.9231,27.8246,新余市,第二水厂,细颗粒物(PM2.5),70,85,70,51,44,151,16,13,12,44,37,11,11,1.3,0.8
2023-10-31T09:00:00,2355A,114.9308,27.8036,新余市,市气象局,细颗粒物(PM2.5),74,79,70,54,45,138,27,15,15,38,34,10,8,1.2,0.8
2023-10-31T09:00:00,2357A,116.9822,28.1136,鹰潭市,龙虎山,,36,36,43,5,14,177,45,30,30,3,4,5,6,0.0,0
2023-10-31T09:00:00,2358A,117.0564,28.2642,鹰潭市,新监测站,细颗粒物(PM2.5),80,94,63,59,40,170,16,42,36,26,21,105,20,0.8,0.5
2023-10-31T09:00:00,2359A,117.0311,28.2475,鹰潭市,财苑宾馆,细颗粒物(PM2.5),73,86,61,53,40,179,15,39,37,26,24,80,21,0.8,0.5
2023-10-31T09:00:00,2360A,117.0222,28.2264,鹰潭市,体育馆,细颗粒物(PM2.5),72,82,61,52,42,178,16,45,43,26,16,45,21,0.7,0.4
2023-10-31T09:00:00,2361A,117.0017,28.2131,鹰潭市,三川水表,颗粒物(PM10),65,80,59,41,36,174,23,38,35,21,12,19,7,0.7,0.5
2023-10-31T09:00:00,2362A,114.9017,25.9149,赣州市,通天岩,,,,,,,,,,,,,,,,
2023-10-31T09:00:00,2363A,114.9367,25.8664,赣州市,地委,颗粒物(PM10),53,56,60,33,35,116,20,23,21,18,15,3,8,1.0,1
2023-10-31T09:00:00,2364A,114.9461,25.8481,赣州市,气象台,"颗粒物(PM10),细颗粒物(PM2.5)",53,55,53,37,37,119,15,8,7,33,29,33,14,0.9,0.8
2023-10-31T09:00:00,2365A,114.9322,25.8333,赣州市,市图书馆,颗粒物(PM10),52,54,57,32,34,116,17,16,13,26,20,20,18,1.0,0.9
2023-10-31T09:00:00,2366A,114.8905,25.8471,赣州市,华坚鞋城,细颗粒物(PM2.5),59,62,65,42,32,116,16,29,23,27,18,9,15,1.2,1
2023-10-31T09:00:00,2367A,114.9754,27.0803,吉安市,红声器材厂,细颗粒物(PM2.5),63,69,60,45,38,137,24,28,27,24,24,10,10,1.0,0.9
2023-10-31T09:00:00,2368A,114.9658,27.0999,吉安市,市森林工业局,细颗粒物(PM2.5),57,59,56,40,38,137,47,47,46,19,21,15,14,0.5,0.4
2023-10-31T09:00:00,2369A,114.99,27.1312,吉安市,市环境监测站,"颗粒物(PM10),细颗粒物(PM2.5)",54,58,55,38,35,141,44,43,43,23,24,12,11,0.9,0.7
2023-10-31T09:00:00,2370A,115.0093,27.0968,吉安市,青原区法院,细颗粒物(PM2.5),65,62,58,47,37,139,17,10,10,24,29,10,12,0.9,0.9
2023-10-31T09:00:00,2371A,114.3408,27.8064,宜春市,槟榔水业,,40,39,55,28,36,160,4,12,9,19,18,1,3,0.6,0.6
2023-10-31T09:00:00,2373A,114.3956,27.7844,宜春市,市石油公司,颗粒物(PM10),59,67,71,39,41,142,42,31,31,30,25,4,5,1.1,0.8
2023-10-31T09:00:00,2374A,114.3703,27.7914,宜春市,市气象局,颗粒物(PM10),53,55,57,35,38,143,35,44,42,30,20,2,5,1.0,0.9
2023-10-31T09:00:00,2375A,114.4013,27.8074,宜春市,市广电局,细颗粒物(PM2.5),58,63,65,41,40,147,54,58,57,29,24,5,7,1.3,1.2
2023-10-31T09:00:00,2376A,116.2127,28.0814,抚州市,桐源党溪,细颗粒物(PM2.5),57,57,58,40,39,158,29,20,20,31,12,1,3,0.9,0.8
2023-10-31T09:00:00,2377A,116.3544,27.9831,抚州市,市站,细颗粒物(PM2.5),68,71,73,49,45,140,49,25,24,22,23,11,10,1.1,1.1
2023-10-31T09:00:00,2378A,116.3565,27.963,抚州市,血防站,细颗粒物(PM2.5),64,68,71,46,44,137,47,27,27,18,22,3,5,0.9,0.9
2023-10-31T09:00:00,2379A,116.3564,28.0007,抚州市,采茶剧团,细颗粒物(PM2.5),70,72,73,51,48,131,13,20,14,34,26,6,8,1.2,1.1
2023-10-31T09:00:00,2380A,116.385,27.9647,抚州市,医学分院,"颗粒物(PM10),细颗粒物(PM2.5)",60,70,72,43,42,142,45,18,18,21,25,6,8,1.1,1.2
2023-10-31T09:00:00,2381A,118.005,28.4572,上饶市,百草园,,,62,55,27,32,155,32,31,30,26,17,40,30,,
2023-10-31T09:00:00,2382A,117.9756,28.4436,上饶市,市监测站,颗粒物(PM10),61,72,65,43,38,175,41,38,37,34,25,56,44,0.8,0.7
2023-10-31T09:00:00,2383A,117.9519,28.4628,上饶市,凤凰光学,颗粒物(PM10),61,71,73,31,39,171,24,9,9,42,45,49,25,0.7,0.6
2023-10-31T09:00:00,2385A,114.17,35.9019,鹤壁市,市监测站,细颗粒物(PM2.5),150,156,218,115,166,239,31,50,44,65,41,12,14,1.3,1.2
2023-10-31T09:00:00,2386A,114.2956,35.7511,鹤壁市,市交警支队,细颗粒物(PM2.5),163,182,223,124,154,232,,4,4,64,70,5,6,1.6,1.6
2023-10-31T09:00:00,2387A,114.2878,35.7306,鹤壁市,迎宾馆,细颗粒物(PM2.5),193,166,182,145,150,232,12,32,32,71,54,8,10,1.6,1.5
2023-10-31T09:00:00,2389A,113.836,35.311,新乡市,环保西院,细颗粒物(PM2.5),188,210,243,141,167,230,32,18,18,65,69,19,17,1.5,1.7
2023-10-31T09:00:00,2390A,113.884,35.272,新乡市,开发区,细颗粒物(PM2.5),160,173,210,122,166,219,50,28,28,45,51,17,14,1.4,1.8
2023-10-31T09:00:00,2391A,113.883,35.303,新乡市,环保东院,细颗粒物(PM2.5),153,177,235,117,170,230,43,26,26,44,56,18,17,1.2,1.8
2023-10-31T09:00:00,2392A,115.0312,35.7636,濮阳市,环保局,细颗粒物(PM2.5),68,79,152,49,99,210,35,41,37,38,34,9,12,0.6,1.1
2023-10-31T09:00:00,2394A,115.0574,35.7609,濮阳市,油田运输公司,颗粒物(PM10),61,71,182,33,108,229,24,40,32,41,38,7,15,0.8,1.3
2023-10-31T09:00:00,2395A,115.0866,35.7754,濮阳市,油田物探公司,颗粒物(PM10),74,98,181,50,113,230,26,40,32,29,33,8,15,0.7,1.2
2023-10-31T09:00:00,2396A,113.8276,34.0159,许昌市,监测站,细颗粒物(PM2.5),58,49,74,41,41,127,53,52,52,31,32,9,11,0.7,0.6
2023-10-31T09:00:00,2398A,113.7906,33.9953,许昌市,开发区,细颗粒物(PM2.5),63,46,63,45,45,122,37,43,43,38,34,9,10,0.6,0.6
