timepoint,stationcode,longitude,latitude,area,positionname,primarypollutant,aqi,pm10,pm10_24h,pm2_5,pm2_5_24h,o3,o3_24h,o3_8h,o3_8h_24h,no2,no2_24h,so2,so2_24h,co,co_24h
2023-10-31T23:00:00,1001A,116.3621,39.8784,北京市,万寿西宫,细颗粒物(PM2.5),230,255,166,180,87,105,54,83,74,39,36,3,2,1.3,1
2023-10-31T23:00:00,1002A,116.2202,40.2915,北京市,定陵,细颗粒物(PM2.5),110,137,126,83,75,90,27,66,48,15,19,3,2,0.9,0.9
2023-10-31T23:00:00,1003A,116.4174,39.9289,北京市,东四,细颗粒物(PM2.5),214,249,162,164,90,100,57,88,76,56,37,1,1,1.2,0.9
2023-10-31T23:00:00,1004A,116.4072,39.8863,北京市,天坛,细颗粒物(PM2.5),195,212,156,146,81,98,19,76,50,31,32,3,2,1.2,0.9
2023-10-31T23:00:00,1005A,116.462,39.9365,北京市,农展馆,细颗粒物(PM2.5),200,223,156,150,88,94,27,86,62,49,35,3,2,1.2,0.9
2023-10-31T23:00:00,1006A,116.3392,39.9295,北京市,官园,细颗粒物(PM2.5),213,250,159,163,84,97,74,88,80,29,30,3,2,1.2,1.2
2023-10-31T23:00:00,1007A,116.2878,39.9611,北京市,海淀万柳,细颗粒物(PM2.5),172,223,153,130,79,85,35,73,52,49,41,1,2,1.3,1.1
2023-10-31T23:00:00,1008A,116.6636,40.135,北京市,顺义新城,细颗粒物(PM2.5),186,213,157,140,81,96,36,81,60,40,30,1,2,0.9,0.8
2023-10-31T23:00:00,1009A,116.6275,40.3275,北京市,怀柔镇,细颗粒物(PM2.5),113,156,139,85,70,106,41,82,50,20,24,1,2,0.9,0.9
2023-10-31T23:00:00,1010A,116.2296,40.217,北京市,昌平镇,细颗粒物(PM2.5),123,168,142,93,75,107,52,79,66,24,31,3,2,0.9,0.9
2023-10-31T23:00:00,1011A,116.3966,39.9821,北京市,奥体中心,细颗粒物(PM2.5),198,,151,148,86,96,33,87,69,55,34,2,2,1.3,0.9
2023-10-31T23:00:00,1012A,116.184,39.9136,北京市,古城,细颗粒物(PM2.5),182,226,170,137,91,96,33,78,63,36,26,3,2,1.5,1.3
2023-10-31T23:00:00,1015A,117.1444,39.1661,天津市,勤俭道,细颗粒物(PM2.5),303,335,206,253,151,140,14,115,74,74,44,7,8,1.6,1.1
2023-10-31T23:00:00,1017A,117.237,39.1082,天津市,大直沽八号路,细颗粒物(PM2.5),271,326,201,221,128,142,7,122,76,84,49,3,4,1.6,1.1
2023-10-31T23:00:00,1018A,117.202,39.0927,天津市,前进道,细颗粒物(PM2.5),274,301,198,224,133,146,14,121,70,76,47,5,6,2.0,1.5
2023-10-31T23:00:00,1019A,117.1837,39.2133,天津市,淮河道,细颗粒物(PM2.5),286,330,193,236,128,157,11,132,78,125,69,5,6,1.8,1.3
2023-10-31T23:00:00,1021A,117.307,39.0877,天津市,跃进路,细颗粒物(PM2.5),268,300,188,218,131,158,1,131,62,91,52,7,7,1.8,1.3
2023-10-31T23:00:00,1023A,117.707,39.0343,天津市,第四大街,细颗粒物(PM2.5),200,240,175,150,119,121,1,82,37,87,57,6,5,1.7,1.2
2023-10-31T23:00:00,1024A,117.457,38.8394,天津市,永明路,细颗粒物(PM2.5),198,200,196,148,155,118,64,98,59,36,34,4,5,1.3,1.1
2023-10-31T23:00:00,1026A,117.764,39.1587,天津市,汉北路,颗粒物(PM10),129,208,192,88,95,128,42,104,36,30,48,6,6,1.2,1.1
2023-10-31T23:00:00,1027A,117.157,38.9194,天津市,团泊洼,细颗粒物(PM2.5),243,282,250,193,167,117,0,97,43,49,29,4,4,1.7,1.4
2023-10-31T23:00:00,1029A,114.4422,38.0444,石家庄市,职工医院,细颗粒物(PM2.5),244,276,236,194,172,182,68,155,119,52,72,3,5,1.3,1.3
2023-10-31T23:00:00,1030A,114.6063,38.0266,石家庄市,高新区,,,,211,,151,76,,67,,,58,,3,,1.4
2023-10-31T23:00:00,1031A,114.4898,38.1328,石家庄市,西北水源,细颗粒物(PM2.5),238,238,199,188,140,182,40,148,106,51,55,1,3,1.2,1.2
2023-10-31T23:00:00,1032A,114.4586,38.0058,石家庄市,西南高教,细颗粒物(PM2.5),258,241,203,208,183,187,71,152,124,37,55,2,3,1.3,1.2
2023-10-31T23:00:00,1033A,114.5331,38.0178,石家庄市,世纪公园,细颗粒物(PM2.5),262,282,215,212,149,169,60,145,120,50,39,4,5,1.6,1.5
2023-10-31T23:00:00,1034A,114.509,38.0457,石家庄市,人民会堂,细颗粒物(PM2.5),289,273,225,239,198,183,65,162,131,45,53,5,6,1.3,1.2
2023-10-31T23:00:00,1035A,114.3524,37.8911,石家庄市,封龙山,颗粒物(PM10),54,58,117,34,61,184,102,162,155,14,16,13,10,0.6,0.9
2023-10-31T23:00:00,1037A,118.131,39.6363,唐山市,雷达站,细颗粒物(PM2.5),280,293,161,230,105,135,3,105,62,68,31,2,5,1.4,1.1
2023-10-31T23:00:00,1038A,118.1725,39.6334,唐山市,物资局,细颗粒物(PM2.5),258,267,150,208,103,134,20,113,77,51,30,6,10,1.5,1.1
2023-10-31T23:00:00,1040A,118.1705,39.6506,唐山市,十二中,,,,130,,70,130,,104,76,80,32,2,7,,1
2023-10-31T23:00:00,1041A,118.1869,39.622,唐山市,小山,细颗粒物(PM2.5),250,242,152,200,92,137,18,110,70,51,27,2,6,1.5,1.1
2023-10-31T23:00:00,1042A,119.5134,39.8207,秦皇岛市,北戴河环保局,细颗粒物(PM2.5),203,198,124,153,77,127,51,112,78,69,52,10,10,1.7,1.2
2023-10-31T23:00:00,1043A,119.7493,40.0116,秦皇岛市,第一关,,,,118,,71,50,,64,,,59,,12,,0.9
2023-10-31T23:00:00,1044A,119.5897,39.9499,秦皇岛市,监测站,细颗粒物(PM2.5),147,181,121,112,78,122,4,110,55,94,52,15,13,1.6,1.1
2023-10-31T23:00:00,1046A,119.5251,39.9041,秦皇岛市,建设大厦,细颗粒物(PM2.5),158,199,129,120,68,121,10,114,59,89,52,5,11,1.5,0.9
2023-10-31T23:00:00,1048A,114.5302,36.6116,邯郸市,东污水处理厂,细颗粒物(PM2.5),94,96,186,70,164,167,66,148,118,43,60,6,8,0.7,1.2
2023-10-31T23:00:00,1049A,114.4918,36.5713,邯郸市,矿院,细颗粒物(PM2.5),110,116,182,83,167,178,38,158,122,68,68,5,7,0.8,1.2
2023-10-31T23:00:00,1050A,114.484,36.6133,邯郸市,丛台公园,细颗粒物(PM2.5),118,113,200,89,159,178,68,161,130,43,47,12,9,1.0,1.3
2023-10-31T23:00:00,1051A,115.493,38.8632,保定市,游泳馆,细颗粒物(PM2.5),287,222,212,237,192,100,30,84,62,57,52,7,7,1.1,0.9
2023-10-31T23:00:00,1052A,115.5213,38.8959,保定市,华电二区,细颗粒物(PM2.5),242,240,181,192,163,95,2,76,39,65,48,4,5,1.5,1.2
2023-10-31T23:00:00,1053A,115.4713,38.9108,保定市,接待中心,细颗粒物(PM2.5),280,252,207,230,173,106,33,82,49,44,49,3,4,1.3,1.2
2023-10-31T23:00:00,1054A,115.4612,38.8416,保定市,地表水厂,细颗粒物(PM2.5),229,245,210,179,140,110,26,86,64,60,54,5,6,1.5,1.2
2023-10-31T23:00:00,1056A,115.5086,38.8639,保定市,监测站,细颗粒物(PM2.5),285,242,210,235,179,105,24,80,53,68,59,4,6,1.2,1.1
2023-10-31T23:00:00,1057A,114.8883,40.8336,张家口市,人民公园,颗粒物(PM10),80,110,108,26,32,94,51,88,54,26,29,3,3,0.3,0.4
2023-10-31T23:00:00,1059A,114.8687,40.8042,张家口市,五金库,颗粒物(PM10),89,127,111,31,45,100,15,85,43,66,38,6,4,0.7,0.6
2023-10-31T23:00:00,1060A,114.8902,40.762,张家口市,世纪豪园,颗粒物(PM10),84,118,108,41,43,108,33,83,52,48,36,3,4,0.7,0.7
2023-10-31T23:00:00,1061A,114.8916,40.8661,张家口市,北泵房,,,,88,,34,107,42,101,60,25,21,8,8,0.3,0.4
2023-10-31T23:00:00,1062A,117.9531,40.9081,承德市,铁路,颗粒物(PM10),88,126,156,51,88,111,6,78,44,79,62,7,9,1.0,1.1
2023-10-31T23:00:00,1063A,117.9392,40.9763,承德市,中国银行,颗粒物(PM10),95,140,160,60,87,107,1,94,38,72,50,7,10,1.0,1.1
2023-10-31T23:00:00,1064A,117.9503,40.928,承德市,开发区,颗粒物(PM10),95,139,147,59,81,114,2,84,42,80,59,7,9,1.3,1.3
2023-10-31T23:00:00,1065A,117.8051,40.9655,承德市,文化中心,颗粒物(PM10),108,165,185,61,96,104,0,87,34,85,57,3,11,0.8,1.2
2023-10-31T23:00:00,1066A,117.9268,41.0026,承德市,离宫,颗粒物(PM10),82,114,147,54,87,105,38,87,62,34,26,1,4,0.7,1
2023-10-31T23:00:00,1067A,116.6708,39.5111,廊坊市,药材公司,细颗粒物(PM2.5),264,328,188,214,105,126,40,98,83,49,34,3,3,1.4,0.9
2023-10-31T23:00:00,1068A,116.7214,39.5589,廊坊市,开发区,细颗粒物(PM2.5),202,252,181,152,105,126,28,99,74,35,38,1,2,1.1,0.8
2023-10-31T23:00:00,1070A,116.7244,39.5269,廊坊市,北华航天学院,细颗粒物(PM2.5),283,318,192,233,112,129,20,103,86,56,34,4,4,1.3,0.8
2023-10-31T23:00:00,1071A,116.8842,38.2991,沧州市,沧县城建局,细颗粒物(PM2.5),280,251,226,230,198,164,14,133,94,83,58,7,5,1.1,1.2
2023-10-31T23:00:00,1072A,116.8584,38.3254,沧州市,电视转播站,细颗粒物(PM2.5),252,249,205,202,172,162,13,128,86,65,44,1,3,1.2,1.2
2023-10-31T23:00:00,1073A,116.8709,38.3228,沧州市,市环保局,细颗粒物(PM2.5),280,253,222,230,192,153,16,122,85,69,48,18,16,1.3,1.3
2023-10-31T23:00:00,1074A,115.6838,37.7541,衡水市,电机北厂,细颗粒物(PM2.5),103,139,167,77,134,204,115,184,154,27,40,12,9,0.7,1.1
2023-10-31T23:00:00,1075A,115.6303,37.7316,衡水市,市监测站,细颗粒物(PM2.5),129,144,179,98,150,179,96,158,133,40,43,11,11,0.7,1.1
2023-10-31T23:00:00,1077A,114.4704,37.0886,邢台市,达活泉,细颗粒物(PM2.5),179,192,221,135,169,185,44,154,99,71,49,9,9,1.5,1.6
2023-10-31T23:00:00,1078A,114.5062,37.0349,邢台市,邢师高专,细颗粒物(PM2.5),133,172,187,101,145,181,17,135,75,92,69,4,6,1.0,1.2
2023-10-31T23:00:00,1079A,114.5237,37.0851,邢台市,路桥公司,细颗粒物(PM2.5),168,186,211,127,161,203,21,160,105,100,51,6,7,1.6,1.2
2023-10-31T23:00:00,1080A,114.4725,37.0719,邢台市,市环保局,细颗粒物(PM2.5),143,167,206,109,142,197,49,160,107,72,44,8,8,1.4,1.4
2023-10-31T23:00:00,1081A,112.522,37.8873,太原市,尖草坪,颗粒物(PM10),112,173,135,78,65,140,6,98,52,98,78,9,16,1.6,1.1
2023-10-31T23:00:00,1083A,112.434,38.0108,太原市,上兰,,,,,,,,,,,,,,,,
2023-10-31T23:00:00,1084A,112.469,37.7124,太原市,晋源,颗粒物(PM10),119,188,128,78,64,152,9,99,43,114,78,14,17,1.5,1.3
2023-10-31T23:00:00,1085A,112.5583,37.7394,太原市,小店,颗粒物(PM10),137,223,163,96,69,133,4,99,46,108,83,16,18,1.5,1.3
2023-10-31T23:00:00,1086A,112.5369,37.8692,太原市,桃园,颗粒物(PM10),116,181,137,81,63,143,4,110,50,111,82,9,14,2.2,1.3
2023-10-31T23:00:00,1087A,112.57,37.8195,太原市,坞城,细颗粒物(PM2.5),117,173,139,88,68,144,27,107,51,91,79,18,15,1.2,1
2023-10-31T23:00:00,1088A,112.549,37.9854,太原市,南寨,颗粒物(PM10),98,146,126,60,54,136,5,90,51,93,75,7,21,0.9,1
2023-10-31T23:00:00,1090A,111.6507,40.7517,呼和浩特市,呼市一监,颗粒物(PM10),141,232,170,95,57,97,0,75,45,67,41,19,16,0.9,0.7
2023-10-31T23:00:00,1091A,111.6572,40.8033,呼和浩特市,小召,颗粒物(PM10),130,210,185,62,60,104,5,76,47,75,52,16,15,1.0,0.9
2023-10-31T23:00:00,1094A,111.7516,40.8369,呼和浩特市,如意水处理厂,颗粒物(PM10),106,162,167,42,58,105,3,80,47,85,53,14,13,0.8,0.8
2023-10-31T23:00:00,1095A,111.7276,40.8062,呼和浩特市,二十九中,颗粒物(PM10),103,156,165,50,56,108,5,84,57,82,47,14,14,0.9,0.7
2023-10-31T23:00:00,1096A,111.5512,40.7866,呼和浩特市,工大金川校区,颗粒物(PM10),109,168,195,54,74,110,3,74,42,76,56,16,20,0.7,0.7
2023-10-31T23:00:00,1097A,111.717,40.7612,呼和浩特市,化肥厂生活区,颗粒物(PM10),138,225,160,85,54,105,6,78,44,67,42,15,15,0.7,0.7
2023-10-31T23:00:00,1098A,123.6836,41.9339,沈阳市,森林路,,,,,,,,,,,,,,,,
2023-10-31T23:00:00,1099A,123.505,41.7406,沈阳市,浑南东路,,50,50,88,20,53,112,43,103,60,28,36,9,14,0.5,0.9
2023-10-31T23:00:00,1100A,123.4231,41.6989,沈阳市,新秀街,,27,27,84,9,52,116,44,104,62,32,36,15,37,0.5,0.8
2023-10-31T23:00:00,1102A,123.5903,41.8411,沈阳市,东陵路,颗粒物(PM10),77,104,104,11,51,121,32,111,59,26,29,8,12,0.4,1
2023-10-31T23:00:00,1103A,123.4264,41.8467,沈阳市,陵东街,,34,34,81,12,48,121,19,108,51,53,33,9,15,0.5,0.9
2023-10-31T23:00:00,1104A,123.4114,41.7653,沈阳市,文化路,,33,33,88,9,49,122,41,110,61,35,31,14,27,0.4,0.8
2023-10-31T23:00:00,1105A,123.4678,41.7867,沈阳市,小河沿,,32,32,93,8,51,119,40,109,60,40,39,8,12,0.5,0.9
2023-10-31T23:00:00,1106A,123.4017,41.7972,沈阳市,太原街,,46,46,80,8,45,116,48,102,55,31,40,7,23,0.4,0.8
2023-10-31T23:00:00,1108A,123.3783,41.9228,沈阳市,京沈街,颗粒物(PM10),58,66,83,14,52,123,19,106,58,56,32,15,22,0.5,0.8
2023-10-31T23:00:00,1109A,121.612,38.9741,大连市,甘井子,细颗粒物(PM2.5),262,389,169,212,84,166,132,145,129,21,28,5,9,0.9,0.8
2023-10-31T23:00:00,1110A,121.565,38.9511,大连市,周水子,细颗粒物(PM2.5),300,299,142,250,94,169,87,143,104,55,35,10,10,1.5,1.2
2023-10-31T23:00:00,1111A,121.5637,38.8845,大连市,星海三站,细颗粒物(PM2.5),225,302,132,175,66,177,138,164,162,33,22,13,8,1.2,0.8
2023-10-31T23:00:00,1112A,121.6302,38.9117,大连市,青泥洼桥,细颗粒物(PM2.5),233,316,121,183,65,146,105,129,118,46,28,13,10,1.8,1.3
2023-10-31T23:00:00,1113A,121.6251,38.8638,大连市,傅家庄,细颗粒物(PM2.5),219,266,101,169,64,171,155,164,162,31,22,19,12,1.3,0.9
2023-10-31T23:00:00,1114A,121.5213,38.8661,大连市,七贤岭,,,,137,,59,185,,171,170,46,30,14,11,1.5,0.9
2023-10-31T23:00:00,1115A,121.2529,38.8061,大连市,旅顺,细颗粒物(PM2.5),211,318,116,161,69,170,150,150,136,22,27,12,10,1.6,1.1
2023-10-31T23:00:00,1116A,121.7485,39.1311,大连市,金州,细颗粒物(PM2.5),256,282,131,206,80,157,144,149,148,16,22,11,13,1.3,1
2023-10-31T23:00:00,1117A,121.7811,39.0496,大连市,开发区,细颗粒物(PM2.5),224,274,126,174,79,155,143,140,140,19,28,5,7,1.1,0.7
2023-10-31T23:00:00,1118A,121.9762,39.0631,大连市,双D港,细颗粒物(PM2.5),195,183,80,146,59,158,148,147,133,22,24,7,8,1.1,0.8
2023-10-31T23:00:00,1119A,125.3325,43.9166,长春市,食品厂,细颗粒物(PM2.5),89,102,113,66,61,95,40,76,48,40,35,7,9,0.5,0.6
2023-10-31T23:00:00,1120A,125.2863,43.9027,长春市,客车厂,细颗粒物(PM2.5),80,95,108,59,62,91,43,74,47,36,31,8,11,0.6,0.7
2023-10-31T23:00:00,1121A,125.2841,43.8463,长春市,邮电学院,细颗粒物(PM2.5),84,91,112,62,62,104,62,87,60,25,30,7,10,0.4,0.6
2023-10-31T23:00:00,1122A,125.3716,43.8772,长春市,劳动公园,细颗粒物(PM2.5),84,96,113,62,61,102,65,84,60,26,31,8,9,0.4,0.5
2023-10-31T23:00:00,1123A,125.3297,43.8805,长春市,园林处,细颗粒物(PM2.5),72,87,106,52,58,99,54,84,58,29,28,10,11,0.4,0.6
2023-10-31T23:00:00,1124A,125.4605,43.79,长春市,净月潭,颗粒物(PM10),66,81,93,31,52,90,48,80,58,16,18,8,10,0.4,0.5
2023-10-31T23:00:00,1125A,125.7194,43.515,长春市,甩湾子,,,,,,,,,,,,,,,,
2023-10-31T23:00:00,1126A,125.3863,43.8447,长春市,经开区环卫处,细颗粒物(PM2.5),77,84,105,56,60,97,52,80,58,27,31,7,9,0.5,0.7
2023-10-31T23:00:00,1127A,125.245,43.7783,长春市,高新区管委会,细颗粒物(PM2.5),63,73,108,45,63,101,26,87,50,57,32,7,8,0.5,0.6
2023-10-31T23:00:00,1128A,125.1761,43.8325,长春市,岱山公园,颗粒物(PM10),65,79,110,39,58,96,53,81,55,29,32,6,8,0.4,0.6
2023-10-31T23:00:00,1129A,126.5422,45.755,哈尔滨市,岭北,细颗粒物(PM2.5),64,51,96,46,75,46,13,40,37,23,27,22,21,0.8,0.9
2023-10-31T23:00:00,1130A,126.561,45.8167,哈尔滨市,松北商大,颗粒物(PM10),58,66,95,40,98,41,14,30,26,29,38,6,9,0.4,0.7
2023-10-31T23:00:00,1131A,126.979,45.5419,哈尔滨市,阿城会宁,细颗粒物(PM2.5),155,177,145,118,104,77,23,39,34,42,40,10,9,1.2,1.1
2023-10-31T23:00:00,1132A,126.599,45.7222,哈尔滨市,南岗学府路,细颗粒物(PM2.5),72,78,113,52,76,53,17,40,33,32,38,10,9,0.6,0.8
2023-10-31T23:00:00,1133A,126.689,45.7733,哈尔滨市,太平宏伟公园,细颗粒物(PM2.5),64,52,114,46,88,39,17,27,27,31,47,11,9,0.4,0.9
2023-10-31T23:00:00,1134A,126.635,45.7667,哈尔滨市,道外承德广场,细颗粒物(PM2.5),67,68,96,48,66,40,20,35,34,30,40,28,10,0.5,1.1
2023-10-31T23:00:00,1135A,126.685,45.7319,哈尔滨市,香坊红旗大街,细颗粒物(PM2.5),72,47,108,52,92,52,29,44,39,20,42,8,11,0.7,0.9
2023-10-31T23:00:00,1136A,126.6411,45.7258,哈尔滨市,动力和平路,细颗粒物(PM2.5),69,60,105,50,79,45,23,34,31,28,41,24,12,0.5,0.7
2023-10-31T23:00:00,1137A,126.593,45.7478,哈尔滨市,道里建国路,细颗粒物(PM2.5),74,57,100,54,78,48,18,34,32,28,38,12,13,0.4,0.9
2023-10-31T23:00:00,1138A,126.615,45.61,哈尔滨市,平房东轻厂,细颗粒物(PM2.5),68,68,135,49,97,86,12,42,22,33,45,8,11,0.2,0.4
2023-10-31T23:00:00,1139A,126.595,45.9855,哈尔滨市,呼兰师专,细颗粒物(PM2.5),58,45,76,41,64,44,16,31,25,29,32,6,6,0.7,0.8
2023-10-31T23:00:00,1140A,126.6206,45.6842,哈尔滨市,省农科院,细颗粒物(PM2.5),60,65,122,43,92,69,26,51,42,25,42,11,12,0.8,0.9
2023-10-31T23:00:00,1141A,121.4,31.238,上海市,普陀,,38,38,42,20,17,161,73,138,109,27,31,12,6,0.5,0.5
2023-10-31T23:00:00,1142A,121.478,31.2036,上海市,十五厂,,49,49,44,23,22,145,61,133,99,43,43,6,8,0.5,0.5
2023-10-31T23:00:00,1143A,121.467,31.3008,上海市,虹口,,41,41,42,20,20,149,71,136,109,34,35,5,6,0.6,0.7
2023-10-31T23:00:00,1144A,121.412,31.1654,上海市,徐汇上师大,,49,49,44,26,24,163,62,144,104,41,42,11,9,0.8,0.7
2023-10-31T23:00:00,1145A,121.536,31.2659,上海市,杨浦四漂,颗粒物(PM10),53,56,56,28,31,153,56,137,90,29,35,6,6,0.6,0.6
2023-10-31T23:00:00,1147A,121.425,31.2261,上海市,静安监测站,,42,42,40,22,22,161,69,147,114,37,34,5,6,0.6,0.7
2023-10-31T23:00:00,1148A,121.703,31.1907,上海市,浦东川沙,,43,43,40,22,19,162,66,145,87,22,24,6,6,0.5,0.6
2023-10-31T23:00:00,1149A,121.533,31.2284,上海市,浦东新区监测站,,46,46,41,22,19,151,56,138,94,40,33,7,7,0.6,0.6
2023-10-31T23:00:00,1150A,121.577,31.2071,上海市,浦东张江,,41,41,38,20,18,148,59,136,94,27,22,5,5,0.6,0.6
2023-10-31T23:00:00,1151A,118.8086,32.1065,南京市,迈皋桥,颗粒物(PM10),52,53,74,29,38,174,109,153,120,26,34,3,4,0.6,0.7
2023-10-31T23:00:00,1152A,118.7538,32.0551,南京市,草场门,颗粒物(PM10),67,83,76,46,44,154,40,147,113,95,50,2,6,0.8,0.7
2023-10-31T23:00:00,1153A,118.7794,32.0745,南京市,山西路,颗粒物(PM10),58,66,80,36,44,170,80,160,119,43,31,5,9,0.8,0.9
2023-10-31T23:00:00,1154A,118.7752,32.0023,南京市,中华门,颗粒物(PM10),68,85,74,48,43,171,16,153,107,119,57,5,6,1.1,1.1
2023-10-31T23:00:00,1155A,118.8109,32.0309,南京市,瑞金路,"颗粒物(PM10),细颗粒物(PM2.5)",64,78,82,46,41,162,9,137,71,107,50,7,8,1.0,0.7
2023-10-31T23:00:00,1156A,118.7997,32.0754,南京市,玄武湖,颗粒物(PM10),53,56,64,32,41,169,87,150,123,34,27,6,8,0.7,0.4
2023-10-31T23:00:00,1157A,118.6414,32.0931,南京市,浦口,颗粒物(PM10),70,89,71,50,41,170,80,149,120,40,38,17,10,1.1,0.9
2023-10-31T23:00:00,1158A,118.7356,31.9996,南京市,奥体中心,"颗粒物(PM10),细颗粒物(PM2.5)",64,77,83,46,47,164,72,149,118,61,51,8,11,0.6,0.6
2023-10-31T23:00:00,1159A,118.9125,32.1028,南京市,仙林大学城,颗粒物(PM10),53,56,66,36,42,186,84,158,123,45,35,2,3,0.8,0.8
2023-10-31T23:00:00,1160A,120.561,31.2472,苏州市,上方山,颗粒物(PM10),58,66,60,34,31,211,88,194,137,29,31,6,6,0.7,0.7
2023-10-31T23:00:00,1162A,120.591,31.3019,苏州市,彩香,细颗粒物(PM2.5),62,71,64,44,39,201,79,183,128,39,33,9,9,0.7,0.8
2023-10-31T23:00:00,1163A,120.596,31.3264,苏州市,轧钢厂,颗粒物(PM10),59,67,66,39,35,207,84,182,123,28,29,10,10,0.8,0.8
2023-10-31T23:00:00,1164A,120.613,31.2703,苏州市,吴中区,颗粒物(PM10),62,73,64,39,34,238,89,194,130,39,44,12,10,0.8,0.7
2023-10-31T23:00:00,1165A,120.543,31.2994,苏州市,苏州新区,颗粒物(PM10),61,71,67,40,39,207,91,183,110,44,50,9,8,0.7,0.7
2023-10-31T23:00:00,1166A,120.669,31.3097,苏州市,苏州工业园区,颗粒物(PM10),58,65,60,39,35,229,98,184,144,33,39,9,9,0.7,0.7
2023-10-31T23:00:00,1167A,120.641,31.3708,苏州市,相城区,,50,41,57,35,36,235,94,181,128,40,48,8,11,0.7,0.7
2023-10-31T23:00:00,1168A,120.9098,31.9663,南通市,狼山街道,颗粒物(PM10),51,52,43,25,23,192,92,158,94,47,43,9,8,0.5,0.5
2023-10-31T23:00:00,1169A,120.86,32.0005,南通市,虹桥,颗粒物(PM10),55,59,53,34,32,184,67,157,100,72,57,8,9,0.5,0.5
2023-10-31T23:00:00,1170A,120.87,32.02,南通市,城中,颗粒物(PM10),55,60,45,33,28,190,67,167,117,69,49,9,9,0.5,0.5
2023-10-31T23:00:00,1171A,120.94,31.93,南通市,星湖花园,颗粒物(PM10),55,60,53,29,26,182,86,151,86,55,53,9,9,0.5,0.4
2023-10-31T23:00:00,1172A,120.81,32.0417,南通市,紫琅学院,颗粒物(PM10),61,72,54,37,25,155,65,127,83,62,64,10,10,0.6,0.6
2023-10-31T23:00:00,1173A,119.176,34.5885,连云港市,市环境监测站,颗粒物(PM10),74,97,96,53,60,158,112,153,132,25,25,9,10,0.7,0.7
2023-10-31T23:00:00,1177A,117.179,34.2761,徐州市,黄河新村,"颗粒物(PM10),细颗粒物(PM2.5)",70,90,109,51,70,178,92,160,119,34,36,8,8,0.7,0.6
2023-10-31T23:00:00,1178A,117.1918,34.2384,徐州市,淮塔,细颗粒物(PM2.5),75,85,121,55,75,186,100,165,131,28,35,8,9,0.8,0.5
2023-10-31T23:00:00,1180A,117.256,34.2153,徐州市,新城区,颗粒物(PM10),81,112,127,56,76,179,64,159,106,52,46,8,9,0.8,0.8
2023-10-31T23:00:00,1181A,117.244,34.2911,徐州市,桃园路,,,100,117,,68,168,87,153,116,38,37,9,10,0.9,0.8
2023-10-31T23:00:00,1182A,117.2933,34.2778,徐州市,农科院,颗粒物(PM10),70,90,106,47,68,183,104,157,122,27,35,8,10,0.7,0.8
2023-10-31T23:00:00,1186A,119.389,32.3761,扬州市,邗江监测站,颗粒物(PM10),79,107,97,55,41,188,98,165,141,62,53,8,10,0.7,0.7
2023-10-31T23:00:00,1188A,120.269,31.4867,无锡市,雪浪,颗粒物(PM10),57,63,59,34,32,196,90,176,130,35,32,7,5,0.6,0.6
2023-10-31T23:00:00,1189A,120.275,31.6219,无锡市,黄巷,颗粒物(PM10),75,100,72,36,29,182,71,162,100,76,58,10,8,0.5,0.5
2023-10-31T23:00:00,1190A,120.294,31.56,无锡市,曹张,颗粒物(PM10),59,68,50,36,33,186,67,156,95,68,53,8,8,0.9,0.9
2023-10-31T23:00:00,1191A,120.242,31.5031,无锡市,漆塘,颗粒物(PM10),54,58,51,34,32,197,111,163,130,33,30,9,8,0.7,1
2023-10-31T23:00:00,1192A,120.3489,31.5863,无锡市,东亭,颗粒物(PM10),69,88,62,46,32,187,56,163,113,93,60,8,6,0.6,0.5
2023-10-31T23:00:00,1193A,120.354,31.5475,无锡市,旺庄,颗粒物(PM10),63,75,66,41,33,184,58,162,104,76,62,7,6,0.8,0.7
2023-10-31T23:00:00,1194A,120.245,31.5631,无锡市,荣巷,细颗粒物(PM2.5),52,48,43,36,30,202,102,169,128,31,26,11,9,0.9,0.9
2023-10-31T23:00:00,1195A,120.299,31.6817,无锡市,堰桥,颗粒物(PM10),63,75,58,36,28,178,74,148,100,59,48,7,7,0.7,0.7
2023-10-31T23:00:00,1196A,119.9633,31.762,常州市,市监测站,细颗粒物(PM2.5),90,118,90,67,48,211,131,180,151,45,48,8,9,0.7,0.7
2023-10-31T23:00:00,1200A,119.9468,31.7069,常州市,武进监测站,细颗粒物(PM2.5),78,95,80,57,43,212,145,184,165,29,30,15,13,0.6,0.6
2023-10-31T23:00:00,1201A,119.9255,31.9087,常州市,安家,细颗粒物(PM2.5),88,100,76,65,43,187,126,167,130,52,50,7,7,0.7,0.8
2023-10-31T23:00:00,1203A,119.6707,32.1875,镇江市,新区办事处,细颗粒物(PM2.5),74,91,67,54,41,188,140,176,150,27,43,12,9,0.3,0.5
2023-10-31T23:00:00,1204A,119.4974,32.1968,镇江市,职教中心,细颗粒物(PM2.5),107,104,79,80,64,192,128,178,158,28,43,4,7,0.7,0.6
2023-10-31T23:00:00,1205A,119.4303,32.1328,镇江市,丹徒区监测站,细颗粒物(PM2.5),109,97,77,82,58,191,83,170,133,55,43,11,6,0.6,0.6
2023-10-31T23:00:00,1206A,119.905,32.4878,泰州市,公园路,细颗粒物(PM2.5),113,107,69,85,43,184,102,180,140,46,43,10,11,0.7,0.8
2023-10-31T23:00:00,1207A,119.9189,32.4625,泰州市,莲花,颗粒物(PM10),61,71,75,41,42,193,123,178,143,35,45,7,10,0.5,0.7
2023-10-31T23:00:00,1209A,119.888,32.4639,泰州市,留学生创业园,细颗粒物(PM2.5),175,229,81,132,45,196,95,174,133,50,43,12,12,0.9,0.9
2023-10-31T23:00:00,1210A,119.036,33.5981,淮安市,钵池山,颗粒物(PM10),69,88,82,48,62,188,117,162,142,27,29,14,11,1.1,1
2023-10-31T23:00:00,1211A,119.007,33.575,淮安市,北京南路,"颗粒物(PM10),细颗粒物(PM2.5)",70,90,89,51,65,181,85,166,131,48,36,11,11,0.9,0.8
2023-10-31T23:00:00,1212A,118.989,33.6067,淮安市,市监测站,颗粒物(PM10),71,92,93,51,57,175,122,168,138,34,34,24,19,1.3,1.1
2023-10-31T23:00:00,1213A,119.135,33.5039,淮安市,楚州区监测站,颗粒物(PM10),77,103,102,36,65,199,62,172,136,58,61,8,9,1.0,1
2023-10-31T23:00:00,1214A,119.0186,33.6297,淮安市,淮阴区监测站,颗粒物(PM10),81,112,116,58,60,170,107,157,133,41,32,33,16,3.3,1.1
2023-10-31T23:00:00,1215A,120.118,33.4022,盐城市,盐城电厂,颗粒物(PM10),73,95,75,48,39,195,124,176,152,25,22,11,10,0.6,0.6
2023-10-31T23:00:00,1216A,120.156,33.3942,盐城市,市监测站,细颗粒物(PM2.5),85,91,61,63,36,241,133,214,185,37,26,10,9,0.7,0.6
2023-10-31T23:00:00,1218A,120.2144,33.38,盐城市,开发区管委会,细颗粒物(PM2.5),84,102,67,62,36,206,122,186,149,29,22,9,8,0.7,0.5
2023-10-31T23:00:00,1220A,118.293,33.9528,宿迁市,宿迁学院,颗粒物(PM10),71,91,81,48,52,179,115,167,131,30,33,11,12,0.8,0.8
2023-10-31T23:00:00,1221A,118.2442,33.9592,宿迁市,宿迁中学,颗粒物(PM10),83,116,104,58,51,166,96,154,115,36,39,12,13,0.7,0.7
2023-10-31T23:00:00,1223A,120.2072,30.2111,杭州市,滨江,颗粒物(PM10),86,122,84,58,46,192,35,172,112,94,56,9,8,0.8,0.7
2023-10-31T23:00:00,1224A,120.0633,30.2747,杭州市,西溪,颗粒物(PM10),51,52,53,30,42,187,3,146,74,61,41,5,6,0.8,0.7
2023-10-31T23:00:00,1226A,120.3461,30.3153,杭州市,下沙,颗粒物(PM10),64,77,73,40,43,193,28,174,94,98,64,8,8,0.6,0.6
2023-10-31T23:00:00,1227A,120.1269,30.2456,杭州市,卧龙桥,细颗粒物(PM2.5),58,55,50,41,39,186,27,146,74,33,26,4,5,0.7,0.7
2023-10-31T23:00:00,1228A,120.1903,30.2692,杭州市,浙江农大,细颗粒物(PM2.5),88,84,61,65,45,166,26,151,84,74,53,8,7,0.7,0.6
2023-10-31T23:00:00,1230A,120.1197,30.3119,杭州市,和睦小学,细颗粒物(PM2.5),69,82,68,50,45,181,25,145,89,90,59,9,9,0.9,0.7
2023-10-31T23:00:00,1231A,120.3019,30.4183,杭州市,临平镇,颗粒物(PM10),62,74,79,33,36,189,67,169,118,49,46,5,6,0.6,0.7
2023-10-31T23:00:00,1232A,120.2697,30.1819,杭州市,城厢镇,细颗粒物(PM2.5),95,98,74,71,53,183,22,161,86,105,52,7,6,0.9,0.7
2023-10-31T23:00:00,1233A,120.0883,30.1808,杭州市,云栖,颗粒物(PM10),51,51,51,33,35,187,36,149,99,44,31,6,6,0.7,0.7
2023-10-31T23:00:00,1234A,121.8358,29.911,宁波市,区环保大楼,,31,17,21,8,12,127,97,116,100,14,29,5,5,0.5,0.6
2023-10-31T23:00:00,1235A,121.56,29.82,宁波市,万里学院,,37,37,44,14,19,133,38,116,90,44,29,9,9,0.5,0.6
2023-10-31T23:00:00,1236A,121.713,29.9572,宁波市,龙赛医院,,30,26,38,10,13,118,39,105,86,60,42,6,7,0.3,0.4
2023-10-31T23:00:00,1239A,121.633,29.7733,宁波市,钱湖水厂,,25,13,27,3,12,129,78,115,96,7,9,6,7,0.3,0.4
2023-10-31T23:00:00,1240A,121.5856,29.8635,宁波市,太古小学,,29,29,34,8,15,128,79,115,94,17,33,7,8,0.7,0.7
2023-10-31T23:00:00,1241A,121.524,29.8674,宁波市,市环境监测中心,,23,23,33,11,16,143,59,120,90,28,25,6,7,0.7,0.7
2023-10-31T23:00:00,1242A,120.634,28.0089,温州市,瓯海,,40,40,38,13,17,138,21,117,74,56,37,6,7,0.6,0.5
2023-10-31T23:00:00,1243A,120.6748,27.9939,温州市,南浦,颗粒物(PM10),56,62,36,28,18,132,14,117,80,64,27,6,7,0.5,0.3
2023-10-31T23:00:00,1244A,120.76,27.9747,温州市,龙湾,,31,31,35,13,12,119,36,104,76,43,33,5,6,0.5,0.5
2023-10-31T23:00:00,1245A,120.6709,28.0167,温州市,市站,,49,49,36,22,17,124,42,106,72,31,25,6,7,0.4,0.4
2023-10-31T23:00:00,1247A,120.6053,29.9928,绍兴市,城东开发委,细颗粒物(PM2.5),72,79,54,52,35,140,53,127,84,28,29,8,8,0.7,0.7
2023-10-31T23:00:00,1250A,120.0751,30.8669,湖州市,城西水厂,颗粒物(PM10),77,104,84,54,45,199,32,157,76,123,80,6,5,0.6,0.6
2023-10-31T23:00:00,1252A,120.7436,30.778,嘉兴市,清河小学,,46,46,58,21,29,205,56,173,122,43,37,7,7,0.7,0.7
2023-10-31T23:00:00,1253A,120.726,30.7478,嘉兴市,嘉兴学院,,25,25,57,16,35,198,68,164,119,24,27,8,7,0.5,0.6
2023-10-31T23:00:00,1255A,121.273,28.6459,台州市,黄岩环保大楼,,28,28,24,14,14,134,55,110,84,18,14,6,6,0.5,0.5
2023-10-31T23:00:00,1256A,121.419,28.6542,台州市,台州环保大楼,,37,37,32,13,14,129,36,108,75,27,19,5,5,0.5,0.4
2023-10-31T23:00:00,1257A,121.377,28.5773,台州市,路桥田洋王,,32,32,35,13,13,123,22,104,61,45,25,6,7,0.5,0.5
2023-10-31T23:00:00,1258A,122.122,30.0203,舟山市,定海檀枫,,26,26,15,8,8,112,54,106,82,21,17,7,7,0.4,0.3
2023-10-31T23:00:00,1259A,122.3094,29.9558,舟山市,普陀东港,,29,11,14,3,6,106,90,94,90,10,13,5,5,0.3,0.3
2023-10-31T23:00:00,1260A,122.19,29.9944,舟山市,临城新区,,34,34,18,18,8,103,32,90,65,30,20,5,5,0.6,0.4
2023-10-31T23:00:00,1262A,119.647,29.077,金华市,十五中,颗粒物(PM10),52,53,50,25,34,167,68,150,97,41,42,5,6,0.4,0.6
2023-10-31T23:00:00,1263A,119.686,29.1029,金华市,监测站,,48,48,61,25,35,157,62,139,87,41,54,5,6,0.6,0.8
2023-10-31T23:00:00,1264A,118.8692,28.9398,衢州市,环保大楼,颗粒物(PM10),56,62,62,36,35,155,27,125,68,57,34,4,5,0.6,0.6
2023-10-31T23:00:00,1265A,118.8709,28.9666,衢州市,实验学校,,50,50,56,29,34,162,25,130,76,57,33,5,8,0.6,0.6
2023-10-31T23:00:00,1266A,118.8621,28.9808,衢州市,衢州学院,,50,50,59,27,36,150,8,120,60,73,47,5,6,0.6,0.7
2023-10-31T23:00:00,1267A,119.914,28.4514,丽水市,监测站大楼,,48,48,42,16,22,130,12,112,63,46,27,6,9,0.5,0.4
2023-10-31T23:00:00,1268A,119.93,28.4586,丽水市,莲都小学,,24,24,38,3,19,131,54,115,81,27,25,6,6,0.3,0.4
2023-10-31T23:00:00,1269A,119.879,28.4231,丽水市,余庄前,,29,29,35,17,24,125,15,102,51,36,20,5,5,0.3,0.3
2023-10-31T23:00:00,1270A,117.1959,31.7848,合肥市,明珠广场,细颗粒物(PM2.5),92,112,93,68,55,168,66,149,120,56,39,10,10,0.7,0.7
2023-10-31T23:00:00,1271A,117.3072,31.8764,合肥市,三里街,细颗粒物(PM2.5),77,97,105,56,58,158,52,130,101,82,59,6,7,0.8,0.7
2023-10-31T23:00:00,1272A,117.2588,31.8707,合肥市,琥珀山庄,细颗粒物(PM2.5),73,83,92,53,52,175,78,157,133,38,36,5,6,0.9,0.8
2023-10-31T23:00:00,1273A,117.1604,31.9052,合肥市,董铺水库,颗粒物(PM10),74,97,88,48,45,196,107,172,152,33,30,5,3,0.7,0.7
2023-10-31T23:00:00,1274A,117.25,31.8571,合肥市,长江中路,细颗粒物(PM2.5),77,88,93,56,56,170,100,152,134,33,33,9,10,0.8,0.9
2023-10-31T23:00:00,1275A,117.266,31.9436,合肥市,庐阳区,细颗粒物(PM2.5),67,80,93,48,53,164,106,148,136,34,39,5,6,0.7,0.8
2023-10-31T23:00:00,1276A,117.336,31.8586,合肥市,瑶海区,颗粒物(PM10),76,102,108,50,56,155,58,133,101,77,54,6,6,0.7,1
2023-10-31T23:00:00,1277A,117.3027,31.7964,合肥市,包河区,细颗粒物(PM2.5),70,85,88,51,55,174,95,155,136,44,40,7,7,0.8,0.8
2023-10-31T23:00:00,1278A,117.2776,31.7385,合肥市,滨湖新区,细颗粒物(PM2.5),77,92,89,56,50,172,43,160,135,88,28,8,8,0.7,0.7
2023-10-31T23:00:00,1279A,117.1318,31.8403,合肥市,高新区,颗粒物(PM10),69,88,92,48,51,166,105,151,131,36,37,10,10,0.7,0.8
2023-10-31T23:00:00,1280A,119.3903,26.0543,福州市,鼓山,,,,,,,,,,,,,,,,
2023-10-31T23:00:00,1282A,119.2681,26.0504,福州市,师大,,29,21,28,6,10,111,92,106,101,8,10,5,5,0.4,0.5
2023-10-31T23:00:00,1283A,119.2984,26.1028,福州市,五四北路,,,,22,8,9,109,83,105,99,13,11,4,4,0.5,0.6
2023-10-31T23:00:00,1284A,119.2648,26.0768,福州市,杨桥西路,,28,20,28,5,9,112,88,106,100,11,11,4,4,0.4,0.4
2023-10-31T23:00:00,1285A,119.317,26.0746,福州市,紫阳,,28,21,23,7,8,104,88,101,98,8,7,6,6,0.3,0.4
2023-10-31T23:00:00,1286A,118.1608,24.8169,厦门市,溪东,,,,,,,,,,,,,,,,
2023-10-31T23:00:00,1287A,118.1514,24.4767,厦门市,洪文,,35,35,31,12,12,110,76,99,85,12,7,3,2,0.3,0.4
2023-10-31T23:00:00,1288A,118.0661,24.4444,厦门市,鼓浪屿,,35,35,28,13,12,100,60,90,76,15,10,4,3,0.4,0.4
2023-10-31T23:00:00,1290A,115.8931,28.6843,南昌市,省外办,"颗粒物(PM10),细颗粒物(PM2.5)",73,95,98,53,57,164,28,143,79,64,49,4,6,0.4,0.4
2023-10-31T23:00:00,1291A,115.8886,28.7003,南昌市,省林业公司,颗粒物(PM10),79,107,104,53,55,178,4,152,83,124,70,6,7,0.6,0.6
2023-10-31T23:00:00,1292A,115.8126,28.7442,南昌市,林科所,细颗粒物(PM2.5),89,75,71,66,42,194,63,176,134,64,37,8,8,0.6,0.7
2023-10-31T23:00:00,1294A,115.8518,28.687,南昌市,建工学校,颗粒物(PM10),88,126,99,48,57,174,13,155,92,110,69,10,11,1.1,0.9
2023-10-31T23:00:00,1295A,115.8921,28.6424,南昌市,象湖,颗粒物(PM10),89,127,101,61,57,191,2,163,74,114,67,7,8,1.2,0.9
2023-10-31T23:00:00,1296A,115.7423,28.7996,南昌市,武术学校,,18,18,27,9,18,164,34,144,86,8,11,1,2,0.3,0.4
2023-10-31T23:00:00,1298A,115.9314,28.6842,南昌市,省站,细颗粒物(PM2.5),93,122,109,69,60,177,4,148,81,97,50,8,9,0.9,0.8
2023-10-31T23:00:00,1299A,116.9862,36.6114,济南市,科干所,颗粒物(PM10),63,75,70,34,35,165,147,161,159,8,11,8,9,0.5,0.5
2023-10-31T23:00:00,1300A,116.9376,36.665,济南市,农科所,颗粒物(PM10),61,71,86,34,39,142,120,128,123,27,40,7,7,0.3,0.4
2023-10-31T23:00:00,1301A,117.1265,36.6734,济南市,开发区,颗粒物(PM10),57,63,71,32,35,150,134,140,138,20,38,9,9,0.4,0.6
2023-10-31T23:00:00,1303A,117.0624,36.6868,济南市,省种子仓库,颗粒物(PM10),59,68,105,29,52,157,141,146,143,16,50,7,8,0.5,0.9
2023-10-31T23:00:00,1304A,116.9489,36.6447,济南市,机床二厂,颗粒物(PM10),68,85,91,37,41,147,135,136,135,17,27,7,7,0.4,0.5
2023-10-31T23:00:00,1305A,117.0495,36.663,济南市,市监测站,颗粒物(PM10),57,63,87,29,42,160,147,154,152,19,45,8,8,0.3,0.6
2023-10-31T23:00:00,1306A,116.7675,36.5484,济南市,长清党校,颗粒物(PM10),68,85,94,46,49,164,136,154,152,18,24,9,11,0.5,0.6
2023-10-31T23:00:00,1307A,120.6659,36.2403,青岛市,仰口,细颗粒物(PM2.5),70,80,76,51,37,191,157,173,171,14,14,8,8,0.7,0.6
2023-10-31T23:00:00,1310A,120.4134,36.0658,青岛市,市南区东部子站,颗粒物(PM10),58,66,69,31,34,206,118,188,163,26,20,7,8,0.5,0.6
2023-10-31T23:00:00,1311A,120.3664,36.1032,青岛市,四方区子站,颗粒物(PM10),63,75,71,34,37,209,124,194,165,33,26,7,7,0.9,0.8
2023-10-31T23:00:00,1312A,120.2994,36.054,青岛市,市南区西部子站,颗粒物(PM10),68,85,80,42,39,207,110,191,161,39,21,8,8,0.6,0.6
2023-10-31T23:00:00,1313A,120.4581,36.0858,青岛市,崂山区子站,颗粒物(PM10),56,61,75,39,42,214,113,192,152,34,24,7,8,0.6,0.6
2023-10-31T23:00:00,1314A,120.1983,35.9608,青岛市,黄岛区子站,颗粒物(PM10),70,90,77,49,42,201,115,186,158,44,31,10,9,0.9,0.8
2023-10-31T23:00:00,1315A,120.3999,36.3083,青岛市,城阳区子站,颗粒物(PM10),70,90,83,34,35,194,122,180,158,42,33,11,10,0.9,0.9
2023-10-31T23:00:00,1316A,113.69031,34.76122,郑州市,烟厂,颗粒物(PM10),64,78,89,23,36,128,54,100,80,42,51,12,10,0.6,0.7
2023-10-31T23:00:00,1317A,113.65724,34.77134,郑州市,郑纺机,颗粒物(PM10),64,77,97,23,39,126,49,98,68,47,59,10,10,0.7,0.8
2023-10-31T23:00:00,1318A,113.67526,34.80246,郑州市,银行学校,颗粒物(PM10),60,69,95,22,46,128,60,108,86,36,50,10,11,0.8,1
2023-10-31T23:00:00,1319A,113.56746,34.81334,郑州市,供水公司,颗粒物(PM10),60,69,116,19,52,126,60,105,81,38,53,7,8,0.7,0.9
2023-10-31T23:00:00,1320A,113.7329,34.7178,郑州市,经开区管委,颗粒物(PM10),62,74,79,23,26,127,60,98,81,29,46,13,10,0.6,0.6
2023-10-31T23:00:00,1321A,113.73961,34.77172,郑州市,四十七中,颗粒物(PM10),56,62,87,18,38,133,63,108,90,34,51,10,10,0.5,0.7
2023-10-31T23:00:00,1322A,113.60532,34.74838,郑州市,市监测站,颗粒物(PM10),62,73,110,31,45,125,48,96,65,47,62,11,10,0.6,0.6
2023-10-31T23:00:00,1323A,113.64164,34.7525,郑州市,河医大,颗粒物(PM10),62,74,88,23,35,131,62,104,85,28,42,14,12,0.7,0.8
2023-10-31T23:00:00,1324A,113.51488,34.91089,郑州市,岗李水库,,,,,,,,,,,,,,,,
2023-10-31T23:00:00,1325A,114.3677,30.5584,武汉市,东湖梨园,细颗粒物(PM2.5),85,78,93,63,63,155,10,141,90,87,47,7,8,1.2,1.1
2023-10-31T23:00:00,1326A,114.2529,30.558,武汉市,汉阳月湖,细颗粒物(PM2.5),70,82,93,51,61,136,8,121,60,106,71,7,8,1.0,0.9
2023-10-31T23:00:00,1327A,114.282,30.6189,武汉市,汉口花桥,细颗粒物(PM2.5),92,103,98,68,66,149,5,136,63,109,61,8,8,1.6,1.2
2023-10-31T23:00:00,1328A,114.3025,30.5332,武汉市,武昌紫阳,颗粒物(PM10),81,112,98,47,49,161,15,145,79,113,71,9,8,1.6,1.1
2023-10-31T23:00:00,1329A,114.3646,30.6217,武汉市,青山钢花,颗粒物(PM10),117,183,131,85,86,174,5,142,75,113,72,10,10,1.9,1.4
2023-10-31T23:00:00,1330A,114.1566,30.4825,武汉市,沌口新区,颗粒物(PM10),81,112,91,59,60,165,4,138,68,136,79,11,10,0.8,0.9
2023-10-31T23:00:00,1331A,114.3014,30.5944,武汉市,汉口江滩,颗粒物(PM10),67,83,94,39,50,161,12,134,74,119,65,7,7,1.0,0.9
2023-10-31T23:00:00,1333A,114.135,30.6319,武汉市,吴家山,细颗粒物(PM2.5),83,96,96,61,66,170,13,152,79,116,78,8,9,1.2,0.9
2023-10-31T23:00:00,1334A,113.8454,30.2917,武汉市,沉湖七壕,细颗粒物(PM2.5),62,68,66,44,40,171,15,155,90,80,50,6,7,0.8,0.8
2023-10-31T23:00:00,1335A,113.0833,28.2325,长沙市,经开区环保局,细颗粒物(PM2.5),83,99,79,61,48,167,23,152,110,104,42,8,9,1.0,0.7
2023-10-31T23:00:00,1336A,112.8872,28.2189,长沙市,高开区环保局,颗粒物(PM10),88,125,85,63,51,187,4,161,93,103,52,6,7,1.5,0.9
2023-10-31T23:00:00,1337A,113.0792,28.2053,长沙市,马坡岭,颗粒物(PM10),105,160,96,71,45,196,4,164,94,110,44,8,7,0.9,0.6
2023-10-31T23:00:00,1338A,112.9394,28.19,长沙市,湖南师范大学,细颗粒物(PM2.5),70,74,70,51,46,177,60,148,118,35,32,6,7,0.9,0.8
2023-10-31T23:00:00,1339A,113.0178,28.1322,长沙市,雨花区环保局,细颗粒物(PM2.5),84,104,73,62,44,186,35,153,105,95,48,4,3,1.0,0.9
2023-10-31T23:00:00,1340A,112.9792,28.2597,长沙市,伍家岭,细颗粒物(PM2.5),90,108,76,67,47,180,16,146,68,81,49,5,6,0.9,0.8
2023-10-31T23:00:00,1341A,113.0014,28.1944,长沙市,火车新站,细颗粒物(PM2.5),113,135,93,85,57,174,2,152,89,130,56,6,7,1.5,1
2023-10-31T23:00:00,1342A,112.9844,28.1178,长沙市,天心区环保局,颗粒物(PM10),80,109,76,55,42,174,17,154,107,118,55,7,7,1.2,0.5
2023-10-31T23:00:00,1343A,112.8908,28.1308,长沙市,湖南中医药大学,,,82,67,,39,196,1,150,73,107,46,6,6,1.2,0.9
2023-10-31T23:00:00,1344A,112.9581,28.3611,长沙市,沙坪,,42,42,39,29,33,117,57,92,72,12,14,4,5,0.3,0.3
2023-10-31T23:00:00,1345A,113.2347,23.1423,广州市,广雅中学,颗粒物(PM10),51,51,50,28,27,123,20,113,74,79,41,4,5,0.9,0.8
2023-10-31T23:00:00,1346A,113.2612,23.105,广州市,市五中,"颗粒物(PM10),细颗粒物(PM2.5)",55,59,38,39,27,136,9,120,78,88,30,6,7,0.8,0.6
2023-10-31T23:00:00,1348A,113.3478,23.0916,广州市,广东商学院,颗粒物(PM10),61,71,40,35,25,117,12,105,66,90,33,5,5,0.8,0.6
2023-10-31T23:00:00,1349A,113.4332,23.1047,广州市,市八十六中,颗粒物(PM10),65,79,51,32,26,118,9,109,47,108,46,5,4,0.8,0.6
2023-10-31T23:00:00,1350A,113.3505,22.9483,广州市,番禺中学,颗粒物(PM10),52,54,45,29,23,139,96,117,79,43,45,5,6,0.6,0.6
2023-10-31T23:00:00,1351A,113.2146,23.3916,广州市,花都师范,颗粒物(PM10),52,53,40,31,24,123,81,114,99,33,23,8,8,0.7,0.7
2023-10-31T23:00:00,1352A,113.2597,23.1331,广州市,市监测站,,34,34,40,22,27,130,41,115,74,57,37,4,5,0.6,0.6
2023-10-31T23:00:00,1353A,113.5618,23.312,广州市,九龙镇镇龙,颗粒物(PM10),57,63,47,26,28,100,12,89,36,38,33,5,5,0.6,0.6
2023-10-31T23:00:00,1354A,113.2765,23.1544,广州市,麓湖,,33,31,32,22,23,129,10,111,58,66,32,4,5,0.6,0.6
2023-10-31T23:00:00,1355A,113.443,23.3035,广州市,帽峰山森林公园,,29,19,29,12,18,129,92,114,100,9,13,7,7,0.9,0.9
2023-10-31T23:00:00,1356A,114.1063,22.5545,深圳市,通心岭子站,,30,23,23,7,12,153,96,143,125,12,16,3,4,0.1,0.2
2023-10-31T23:00:00,1357A,114.117,22.5625,深圳市,洪湖,,40,40,50,10,26,157,100,145,126,7,23,5,3,0.6,0.6
2023-10-31T23:00:00,1358A,113.987,22.5417,深圳市,华侨城,,28,24,38,10,22,204,89,158,134,14,20,3,3,0,0.1
2023-10-31T23:00:00,1359A,113.9181,22.5171,深圳市,南海子站,,32,32,54,14,28,174,96,155,136,13,31,3,4,0.5,0.3
2023-10-31T23:00:00,1360A,114.2458,22.5689,深圳市,盐田,,22,22,34,12,18,159,70,139,114,21,25,3,4,0.5,0.4
2023-10-31T23:00:00,1361A,114.2283,22.7244,深圳市,龙岗,,31,24,43,9,24,142,97,136,122,13,21,3,4,0.6,0.7
2023-10-31T23:00:00,1363A,114.494,22.5422,深圳市,南澳,,32,25,29,14,17,155,102,137,109,6,9,2,3,0.1,0.2
2023-10-31T23:00:00,1364A,114.41,22.6342,深圳市,葵涌,,25,24,31,10,15,159,77,140,107,20,14,3,2,0.3,0.4
2023-10-31T23:00:00,1365A,114.297,22.5978,深圳市,梅沙,,29,29,34,14,18,156,74,137,106,14,10,2,3,0.3,0.6
2023-10-31T23:00:00,1366A,114.0678,22.738,深圳市,观澜,颗粒物(PM10),55,59,58,20,27,156,62,127,81,47,37,4,4,1.0,1
2023-10-31T23:00:00,1367A,113.5814,22.2618,珠海市,吉大,,39,39,43,12,22,217,98,171,142,14,17,7,8,0.5,0.5
2023-10-31T23:00:00,1368A,113.4881,22.2335,珠海市,前山,,30,2,26,11,18,196,94,157,133,20,31,7,7,0.4,0.5
2023-10-31T23:00:00,1369A,113.628,22.4251,珠海市,唐家,,40,40,45,13,25,209,82,175,136,26,23,5,5,0.4,0.4
2023-10-31T23:00:00,1370A,113.299,22.2281,珠海市,斗门,,31,31,40,19,25,184,96,164,142,23,29,8,8,0.5,0.6
2023-10-31T23:00:00,1371A,113.1294,23.0067,佛山市,湾梁,颗粒物(PM10),57,63,38,25,25,151,18,128,87,74,36,12,11,0.8,0.7
2023-10-31T23:00:00,1372A,113.1083,23.0478,佛山市,华材职中,颗粒物(PM10),56,61,51,28,30,153,16,132,84,80,47,8,7,0.7,0.6
2023-10-31T23:00:00,1373A,113.144,23.0453,佛山市,南海气象局,颗粒物(PM10),54,58,46,32,28,142,21,125,84,84,49,9,8,0.7,0.6
2023-10-31T23:00:00,1374A,113.2881,22.8094,佛山市,顺德苏岗,颗粒物(PM10),64,77,45,34,29,158,84,126,89,39,38,8,9,0.7,0.8
2023-10-31T23:00:00,1376A,112.8383,22.8678,佛山市,高明孔堂,,46,46,56,27,32,193,55,159,110,21,30,7,9,0.7,0.7
2023-10-31T23:00:00,1377A,112.8836,23.1588,佛山市,三水监测站,颗粒物(PM10),69,88,54,39,32,148,16,128,84,71,32,5,6,0.9,0.8
2023-10-31T23:00:00,1378A,112.867,23.185,佛山市,三水云东海,颗粒物(PM10),61,71,47,35,32,144,5,119,72,72,26,6,6,0.8,0.7
2023-10-31T23:00:00,1379A,113.3769,22.5211,中山市,华柏园,,48,48,52,25,26,202,106,172,139,29,40,3,4,0.4,0.4
2023-10-31T23:00:00,1380A,113.3881,22.5497,中山市,张溪,颗粒物(PM10),53,55,66,30,33,209,121,174,131,19,42,4,4,0.4,0.6
2023-10-31T23:00:00,1381A,113.4075,22.5111,中山市,紫马岭,,46,46,47,28,30,192,88,162,132,20,29,4,4,0.5,0.5
2023-10-31T23:00:00,1382A,113.4411,22.4853,中山市,长江旅游区,,,,,,,,,,,,,,,,
2023-10-31T23:00:00,1383A,113.1064,22.6058,江门市,北街,细颗粒物(PM2.5),54,53,56,38,37,176,111,148,130,24,46,7,8,0.6,0.7
2023-10-31T23:00:00,1384A,113.0731,22.5835,江门市,西区,颗粒物(PM10),60,70,61,29,31,183,113,155,130,27,46,7,8,0.5,0.7
2023-10-31T23:00:00,1385A,113.0219,22.5311,江门市,圭峰西,颗粒物(PM10),54,57,49,30,26,176,106,156,140,33,37,5,6,0.8,0.7
2023-10-31T23:00:00,1386A,113.0828,22.5947,江门市,东湖,颗粒物(PM10),60,70,55,34,29,180,109,153,130,29,37,6,7,0.7,0.7
2023-10-31T23:00:00,1389A,113.7547,23.0494,东莞市,莞城梨川,颗粒物(PM10),55,59,40,31,24,134,68,118,92,40,30,8,8,0.7,0.7
2023-10-31T23:00:00,1390A,113.7944,23.0128,东莞市,东城石井,颗粒物(PM10),51,52,40,27,23,118,41,106,72,31,22,6,7,0.7,0.7
2023-10-31T23:00:00,1391A,113.7383,22.9658,东莞市,南城西平,颗粒物(PM10),64,78,47,39,26,124,14,113,71,94,41,6,7,0.8,0.7
2023-10-31T23:00:00,1392A,114.4183,23.0528,惠州市,河南岸金山湖子站,,40,40,39,22,25,111,68,100,90,22,17,6,7,0.6,0.6
2023-10-31T23:00:00,1393A,114.4053,23.0822,惠州市,下埔横江三路子站,,49,49,38,24,22,106,75,101,94,28,19,10,11,0.6,0.6
2023-10-31T23:00:00,1394A,114.4103,23.1142,惠州市,江北云山西路子站,,50,50,40,21,26,112,83,107,98,24,17,8,10,0.6,0.6
2023-10-31T23:00:00,1395A,114.4645,22.7833,惠州市,惠阳区承修路船湖子站,,40,40,43,15,23,125,68,112,101,16,15,8,9,0.8,0.8
2023-10-31T23:00:00,1396A,114.5317,22.7422,惠州市,大亚湾管委会子站,颗粒物(PM10),61,72,45,23,20,141,18,123,82,81,32,6,6,0.8,0.8
2023-10-31T23:00:00,1397A,112.4267,23.0706,肇庆市,睦岗子站,颗粒物(PM10),53,55,48,28,28,140,4,117,65,76,41,7,8,0.7,0.6
2023-10-31T23:00:00,1398A,112.4645,23.0475,肇庆市,城中子站,,48,48,38,28,24,137,16,125,80,73,37,9,9,0.7,0.7
2023-10-31T23:00:00,1399A,112.5544,23.1522,肇庆市,坑口子站,,26,24,34,18,24,132,67,114,90,18,20,8,9,0.4,0.5
2023-10-31T23:00:00,1400A,112.4753,23.1,肇庆市,七星岩子站,,,,,,,,,,,,,,,,
2023-10-31T23:00:00,1401A,108.3103,22.7881,南宁市,二十一中,颗粒物(PM10),53,55,51,34,28,123,68,113,95,38,28,7,13,1.1,1
2023-10-31T23:00:00,1402A,108.3141,22.8528,南宁市,北湖,细颗粒物(PM2.5),75,92,49,55,29,113,5,107,70,54,27,12,12,1.0,0.9
2023-10-31T23:00:00,1403A,108.3206,22.8225,南宁市,市监测站,细颗粒物(PM2.5),57,47,50,40,32,124,44,109,79,62,38,12,17,0.9,0.8
2023-10-31T23:00:00,1404A,108.3829,22.8037,南宁市,大自然花园,,44,44,41,29,30,108,51,104,81,36,21,6,10,0.7,0.7
2023-10-31T23:00:00,1405A,108.4394,22.7904,南宁市,仙葫,细颗粒物(PM2.5),54,55,44,38,29,117,7,113,79,66,28,6,8,0.8,0.7
2023-10-31T23:00:00,1406A,108.2397,22.8467,南宁市,区农职院,颗粒物(PM10),54,58,43,25,20,115,21,76,44,39,27,14,11,0.9,0.8
2023-10-31T23:00:00,1407A,108.3275,22.735,南宁市,英华嘉园,颗粒物(PM10),66,81,54,40,35,108,6,99,56,78,42,7,10,1.0,0.8
2023-10-31T23:00:00,1408A,108.2257,22.7757,南宁市,沙井镇街道办,细颗粒物(PM2.5),78,93,61,57,36,122,7,116,53,60,32,39,16,1.0,0.9
2023-10-31T23:00:00,1409A,110.576,19.9507,海口市,东寨港,,,,,,,,,,,,,,,,
2023-10-31T23:00:00,1410A,110.3232,20.0574,海口市,海南大学,,35,26,41,10,27,186,112,160,145,16,13,7,8,0.4,0.6
2023-10-31T23:00:00,1411A,110.283,20.0053,海口市,秀英海南医院,,38,32,42,12,27,181,120,155,145,8,10,8,8,0.4,0.6
2023-10-31T23:00:00,1412A,110.338,19.9969,海口市,海南师范大学,,34,29,42,12,28,173,107,148,135,12,11,6,7,0.4,0.6
2023-10-31T23:00:00,1413A,110.33,20.0356,海口市,龙华路环保局宿舍,,36,28,40,10,26,182,113,159,144,10,11,8,9,0.4,0.4
2023-10-31T23:00:00,1414A,106.3787,29.8279,重庆市,缙云山,,27,24,25,9,16,97,85,85,85,12,10,9,8,0.1,0.1
2023-10-31T23:00:00,1416A,106.4213,29.8253,重庆市,天生,细颗粒物(PM2.5),52,51,51,36,37,68,2,46,38,41,36,8,9,0.8,0.8
2023-10-31T23:00:00,1417A,106.6263,29.7228,重庆市,两路,颗粒物(PM10),56,61,43,29,25,58,4,41,26,46,36,8,7,1.0,0.8
2023-10-31T23:00:00,1418A,106.2953,29.5983,重庆市,虎溪,颗粒物(PM10),55,60,44,37,31,56,3,43,22,56,45,6,6,0.7,0.6
2023-10-31T23:00:00,1419A,106.5777,29.5102,重庆市,南坪,颗粒物(PM10),56,61,51,31,32,68,24,48,28,40,39,8,10,0.9,0.9
2023-10-31T23:00:00,1420A,106.6556,29.6277,重庆市,唐家沱,颗粒物(PM10),56,61,48,33,25,56,14,39,23,36,42,8,7,0.9,0.8
2023-10-31T23:00:00,1421A,106.6349,29.4906,重庆市,茶园,颗粒物(PM10),62,73,61,37,32,74,14,53,28,56,51,6,7,0.9,1
2023-10-31T23:00:00,1422A,106.3754,29.4572,重庆市,白市驿,,50,48,52,35,34,61,31,49,46,38,45,8,8,0.7,0.8
2023-10-31T23:00:00,1425A,106.6205,29.7166,重庆市,空港,细颗粒物(PM2.5),58,52,45,41,31,71,7,53,29,52,38,7,7,1.2,1
2023-10-31T23:00:00,1426A,106.4782,29.4875,重庆市,新山村,细颗粒物(PM2.5),67,70,61,48,36,50,5,37,21,80,64,10,9,1.4,1.1
2023-10-31T23:00:00,1427A,106.5616,29.6453,重庆市,礼嘉,颗粒物(PM10),57,64,53,34,32,52,5,34,20,62,55,12,10,1.1,0.9
2023-10-31T23:00:00,1428A,106.4522,29.7091,重庆市,蔡家,颗粒物(PM10),62,74,54,42,36,65,6,43,30,40,37,5,6,0.8,0.7
2023-10-31T23:00:00,1429A,106.5093,29.3917,重庆市,鱼新街,细颗粒物(PM2.5),72,69,61,52,37,78,5,51,26,64,56,6,9,1.9,1.4
2023-10-31T23:00:00,1431A,103.9728,30.7236,成都市,金泉两河,,49,39,56,34,41,85,0,65,46,37,21,2,4,1.0,0.6
2023-10-31T23:00:00,1432A,104.176,30.6872,成都市,十里店,细颗粒物(PM2.5),93,87,75,69,63,76,21,62,48,52,32,3,2,0.9,0.7
2023-10-31T23:00:00,1433A,104.079,30.5706,成都市,三瓦窑,细颗粒物(PM2.5),124,124,103,94,76,61,0,56,39,53,28,1,2,1.0,0.6
2023-10-31T23:00:00,1434A,104.1114,30.63,成都市,沙河铺,细颗粒物(PM2.5),105,105,90,79,69,66,1,51,30,39,29,1,2,1.0,0.7
2023-10-31T23:00:00,1437A,104.0786,30.6531,成都市,君平街,细颗粒物(PM2.5),89,91,86,66,68,77,34,66,58,53,39,2,3,0.8,0.7
2023-10-31T23:00:00,1438A,103.613,31.0283,成都市,灵岩寺,,25,19,33,14,23,79,79,50,50,9,12,7,7,0.5,0.6
2023-10-31T23:00:00,1439A,106.6899,26.5998,贵阳市,马鞍山,,44,44,25,24,17,114,8,90,50,36,17,4,4,0.1,0.4
2023-10-31T23:00:00,1440A,106.6971,26.5694,贵阳市,市环保站,细颗粒物(PM2.5),79,80,52,58,37,106,7,91,38,58,42,8,6,1.3,0.7
2023-10-31T23:00:00,1441A,106.6243,26.6266,贵阳市,鉴湖路,,49,48,38,34,18,104,14,91,58,57,26,4,4,0.7,0.5
2023-10-31T23:00:00,1442A,106.7487,26.6343,贵阳市,燕子冲,,34,34,29,22,22,109,16,88,53,39,20,6,6,0.4,0.4
2023-10-31T23:00:00,1443A,106.6555,26.4365,贵阳市,碧云窝,细颗粒物(PM2.5),89,88,44,66,24,104,8,92,54,23,16,4,5,0.8,0.6
2023-10-31T23:00:00,1444A,106.694,26.5161,贵阳市,中院村,细颗粒物(PM2.5),107,149,67,80,33,90,8,76,34,53,38,11,6,1.1,0.6
2023-10-31T23:00:00,1445A,106.7109,26.6027,贵阳市,红边门,颗粒物(PM10),58,66,46,34,28,110,2,86,34,62,36,11,6,0.9,0.6
2023-10-31T23:00:00,1446A,106.7164,26.5699,贵阳市,新华路,颗粒物(PM10),93,136,58,51,27,111,6,89,38,57,37,8,6,1.0,0.6
2023-10-31T23:00:00,1447A,106.674,26.5424,贵阳市,太慈桥,,44,44,33,27,17,102,14,92,44,30,25,4,4,0.4,0.5
2023-10-31T23:00:00,1450A,102.8204,24.8886,昆明市,呈贡新区,,49,46,36,34,26,105,42,92,71,44,34,8,6,1.0,0.9
2023-10-31T23:00:00,1451A,102.6251,24.9608,昆明市,西山森林公园,,32,25,22,22,19,99,73,95,88,7,7,5,5,0.8,0.6
2023-10-31T23:00:00,1452A,102.7252,25.0902,昆明市,龙泉镇,,43,43,34,20,19,99,56,87,77,25,22,9,8,0.8,0.8
2023-10-31T23:00:00,1453A,102.7266,25.0375,昆明市,东风东路,,50,50,43,23,23,108,63,95,84,21,31,11,10,0.7,0.7
2023-10-31T23:00:00,1454A,102.6742,25.0669,昆明市,金鼎山,颗粒物(PM10),69,87,45,30,22,102,63,94,83,18,28,16,18,0.6,0.6
2023-10-31T23:00:00,1455A,102.6644,25.0401,昆明市,碧鸡广场,细颗粒物(PM2.5),54,53,41,38,27,102,52,91,76,26,27,9,8,0.9,0.8
2023-10-31T23:00:00,1456A,91.1319,29.6514,拉萨市,八廓街,,27,18,14,13,7,110,85,102,90,11,11,18,16,0.3,0.2
2023-10-31T23:00:00,1457A,91.1221,29.6747,拉萨市,市环保局,,26,26,17,11,8,112,68,104,91,21,17,12,12,0.5,0.5
2023-10-31T23:00:00,1458A,91.0874,29.6475,拉萨市,区监测站,,25,21,12,11,7,109,77,99,82,20,16,16,14,0.4,0.4
2023-10-31T23:00:00,1459A,91.1774,29.6541,拉萨市,西藏大学,,27,19,12,9,7,108,84,100,93,12,10,16,12,0.4,0.4
2023-10-31T23:00:00,1460A,90.9798,29.6588,拉萨市,区辐射站,,30,30,24,16,10,106,69,89,74,23,27,7,8,0.5,0.5
2023-10-31T23:00:00,1461A,91.0834,29.6292,拉萨市,拉萨火车站,,25,18,11,13,7,99,78,90,81,18,12,11,10,0.4,0.3
2023-10-31T23:00:00,1462A,108.882,34.2749,西安市,高压开关厂,颗粒物(PM10),73,95,91,39,30,49,4,30,18,76,68,13,10,1.4,0.9
2023-10-31T23:00:00,1463A,108.993,34.2629,西安市,兴庆小区,颗粒物(PM10),62,73,57,30,24,44,4,27,16,63,54,7,7,0.7,0.6
2023-10-31T23:00:00,1464A,109.06,34.2572,西安市,纺织城,颗粒物(PM10),62,73,78,33,30,36,4,24,12,52,55,6,6,0.6,0.7
2023-10-31T23:00:00,1465A,108.9356,34.2173,西安市,小寨,颗粒物(PM10),67,84,78,38,31,36,4,20,12,66,64,11,9,1.7,1
2023-10-31T23:00:00,1466A,108.954,34.2713,西安市,市人民体育场,颗粒物(PM10),83,115,82,49,35,41,5,26,17,74,63,8,6,1.7,0.9
2023-10-31T23:00:00,1467A,108.8922,34.2322,西安市,高新西区,颗粒物(PM10),75,99,73,42,36,48,10,26,20,68,63,8,7,1.8,1
2023-10-31T23:00:00,1468A,108.935,34.3474,西安市,经开区,颗粒物(PM10),81,112,82,31,34,46,2,31,17,72,64,7,6,1.5,0.9
2023-10-31T23:00:00,1469A,108.906,34.1546,西安市,长安区,颗粒物(PM10),64,77,68,42,30,37,5,24,14,54,54,6,6,0.8,0.5
2023-10-31T23:00:00,1471A,109.2186,34.3731,西安市,临潼区,,41,41,86,21,38,75,21,43,32,27,37,7,9,0.6,0.8
2023-10-31T23:00:00,1472A,108.869,34.378,西安市,草滩,颗粒物(PM10),65,80,100,13,29,60,0,27,18,64,70,10,15,0.7,0.8
2023-10-31T23:00:00,1473A,108.985,34.1978,西安市,曲江文化产业集团,颗粒物(PM10),52,54,65,23,23,41,1,26,14,69,60,6,5,0.9,0.6
2023-10-31T23:00:00,1474A,109.051,34.3213,西安市,广运潭,颗粒物(PM10),57,63,63,27,29,50,1,29,17,53,50,9,8,0.6,0.6
2023-10-31T23:00:00,1476A,103.631,36.1031,兰州市,兰炼宾馆,细颗粒物(PM2.5),65,77,105,47,57,151,2,114,46,102,80,8,16,1.2,1
2023-10-31T23:00:00,1477A,104.1373,35.9454,兰州市,榆中兰大校区,,,,,,,,,,,,,,,,
2023-10-31T23:00:00,1478A,103.8412,36.0726,兰州市,生物制品所,颗粒物(PM10),80,110,112,51,59,78,1,50,23,82,85,9,13,0.8,1.2
2023-10-31T23:00:00,1479A,103.831,36.0464,兰州市,铁路设计院,细颗粒物(PM2.5),90,114,110,67,60,72,3,38,20,119,103,17,15,2.7,1.8
2023-10-31T23:00:00,1483A,101.524,36.6867,西宁市,第五水厂,,,,,,,,,,,,,,,,
2023-10-31T23:00:00,1484A,105.9512,38.6016,银川市,贺兰山马莲口,,30,21,35,13,12,103,95,98,96,12,15,3,4,0.3,0.3
2023-10-31T23:00:00,1488A,106.2328,38.4975,银川市,贺兰山东路,颗粒物(PM10),55,60,70,21,27,102,71,84,72,36,45,8,12,0.4,0.6
2023-10-31T23:00:00,1489A,106.1358,38.5036,银川市,学院路,颗粒物(PM10),66,82,75,37,28,93,46,81,64,40,31,7,11,0.6,0.6
2023-10-31T23:00:00,1490A,87.5801,43.8303,乌鲁木齐市,监测站,颗粒物(PM10),102,154,61,48,14,95,23,84,63,37,34,8,5,0.9,0.7
2023-10-31T23:00:00,1491A,87.6046,43.768,乌鲁木齐市,收费所,细颗粒物(PM2.5),128,160,55,97,23,104,24,98,79,41,27,7,3,0.7,0.3
2023-10-31T23:00:00,1492A,87.4754,43.9469,乌鲁木齐市,新疆农科院农场,颗粒物(PM10),107,164,106,49,37,74,22,66,44,32,46,5,3,0.8,0.7
2023-10-31T23:00:00,1493A,87.5525,43.8711,乌鲁木齐市,铁路局,颗粒物(PM10),111,171,74,54,19,92,19,84,58,43,36,6,4,0.8,0.6
2023-10-31T23:00:00,1494A,87.6432,43.831,乌鲁木齐市,三十一中学,颗粒物(PM10),90,129,50,56,15,103,22,97,74,33,22,4,2,0.5,0.2
2023-10-31T23:00:00,1496A,87.7216,44.1747,乌鲁木齐市,米东区环保局,颗粒物(PM10),107,163,90,48,33,82,28,51,46,21,26,7,7,0.6,0.6
2023-10-31T23:00:00,1508A,112.9433,27.8614,湘潭市,板塘,细颗粒物(PM2.5),114,81,80,86,49,174,58,154,103,67,50,12,12,0.9,0.7
2023-10-31T23:00:00,1511A,112.9118,27.8403,湘潭市,市监测站,细颗粒物(PM2.5),79,93,72,58,70,176,6,156,101,110,42,6,10,0.9,0.8
2023-10-31T23:00:00,1512A,112.8937,27.8728,湘潭市,江麓,细颗粒物(PM2.5),132,117,81,100,70,170,8,143,101,96,45,10,17,1.1,1
2023-10-31T23:00:00,1513A,112.9227,27.8159,湘潭市,岳塘,细颗粒物(PM2.5),103,140,79,77,59,181,0,150,79,99,40,9,9,1.3,1.1
2023-10-31T23:00:00,1514A,112.9074,27.9119,湘潭市,科大,颗粒物(PM10),92,134,89,66,45,170,0,147,86,110,54,14,18,0.9,0.9
2023-10-31T23:00:00,1515A,113.135,27.8244,株洲市,天台山庄,细颗粒物(PM2.5),127,157,92,96,56,170,3,144,64,115,57,10,9,1.8,1.1
2023-10-31T23:00:00,1518A,113.095,27.8867,株洲市,株冶医院,细颗粒物(PM2.5),80,80,76,59,54,175,48,148,94,67,48,9,10,0.8,0.7
2023-10-31T23:00:00,1519A,113.167,27.8667,株洲市,市四中,细颗粒物(PM2.5),104,115,84,78,53,171,36,150,68,59,43,7,7,1.0,1.1
2023-10-31T23:00:00,1520A,113.143,27.8381,株洲市,火车站,细颗粒物(PM2.5),114,128,84,86,56,174,7,148,87,92,43,9,8,2.3,1.2
2023-10-31T23:00:00,1524A,113.13,27.8528,株洲市,市监测站,细颗粒物(PM2.5),127,137,87,96,61,179,9,156,82,107,52,7,8,1.2,1
2023-10-31T23:00:00,1552A,106.805,26.3003,贵阳市,桐木岭,,,,,,,,,,,,,,,,
2023-10-31T23:00:00,1559A,113.251,27.8336,株洲市,大京风景区,颗粒物(PM10),58,66,56,37,29,156,37,131,79,8,10,4,6,0.5,0.5
2023-10-31T23:00:00,1562A,113.0048,27.9153,湘潭市,昭山,"颗粒物(PM10),细颗粒物(PM2.5)",68,85,73,49,68,196,11,151,82,95,53,8,8,0.8,0.8
2023-10-31T23:00:00,1564A,112.4876,27.9164,湘潭市,韶山,颗粒物(PM10),53,55,53,23,25,160,41,140,81,32,19,6,9,0.7,0.6
2023-10-31T23:00:00,1585A,109.8756,40.6532,包头市,市环境监测站,颗粒物(PM10),115,179,129,58,51,98,6,89,41,80,54,29,36,1.7,1.6
2023-10-31T23:00:00,1587A,109.9991,40.5842,包头市,包头八中,颗粒物(PM10),97,144,135,47,38,98,7,84,50,74,48,40,31,1.3,1
2023-10-31T23:00:00,1588A,109.8538,40.6821,包头市,青山宾馆,颗粒物(PM10),155,259,129,58,42,97,6,77,40,79,54,25,29,1.2,1.3
2023-10-31T23:00:00,1589A,109.8642,40.6288,包头市,惠龙物流,颗粒物(PM10),105,159,129,54,46,97,4,85,46,83,51,62,44,2.4,1.4
2023-10-31T23:00:00,1590A,110.0377,40.5546,包头市,东河鸿龙湾,颗粒物(PM10),74,97,90,24,21,104,17,93,68,63,38,18,19,0.6,0.5
2023-10-31T23:00:00,1591A,110.0023,39.8129,鄂尔多斯市,综合楼,颗粒物(PM10),74,97,84,22,15,93,36,86,71,51,22,19,7,0.7,0.5
2023-10-31T23:00:00,1592A,109.9486,39.8261,鄂尔多斯市,巴音孟克林场办事处,颗粒物(PM10),63,75,71,24,21,91,64,88,75,26,15,8,13,0.5,0.3
2023-10-31T23:00:00,1593A,109.7736,39.5986,鄂尔多斯市,康泽苑,颗粒物(PM10),56,61,76,17,21,96,33,90,61,39,26,5,6,0.4,0.4
2023-10-31T23:00:00,1594A,109.8119,39.5989,鄂尔多斯市,华泰汽车城,颗粒物(PM10),58,66,79,19,19,95,8,88,55,61,30,5,5,0.7,0.5
2023-10-31T23:00:00,1595A,109.9734,39.7884,鄂尔多斯市,奥林花园,,,110,92,24,19,90,8,85,44,73,34,9,21,,
2023-10-31T23:00:00,1597A,122.2703,40.7094,营口市,大庆路,颗粒物(PM10),61,71,135,22,69,112,23,100,64,41,35,8,8,0.6,1.2
2023-10-31T23:00:00,1598A,122.2150,40.6511,营口市,镜湖西路,,42,42,114,15,59,104,24,102,64,41,39,13,10,0.9,1.2
2023-10-31T23:00:00,1599A,122.1658,40.6789,营口市,西炮台,,48,48,126,21,82,112,36,107,76,33,21,9,8,0.8,1.1
2023-10-31T23:00:00,1600A,124.3303,40.0625,丹东市,江湾东路,,38,38,48,22,25,119,90,114,110,11,12,5,6,0.6,0.6
2023-10-31T23:00:00,1601A,124.4256,40.1503,丹东市,临江后街,颗粒物(PM10),53,55,41,26,18,120,115,114,114,8,7,5,5,0.7,0.7
2023-10-31T23:00:00,1602A,124.3933,40.1461,丹东市,元宝山,颗粒物(PM10),51,52,38,28,18,112,112,103,103,12,13,7,6,0.8,0.6
2023-10-31T23:00:00,1603A,124.3633,40.1092,丹东市,民主桥,颗粒物(PM10),54,57,47,25,21,114,105,106,105,12,10,8,6,1.2,0.9
2023-10-31T23:00:00,1604A,122.0303,41.1489,盘锦市,开发区,颗粒物(PM10),53,56,72,11,54,110,47,94,70,30,50,10,15,0.9,1.3
2023-10-31T23:00:00,1605A,122.0485,41.0883,盘锦市,兴隆台,颗粒物(PM10),51,51,81,16,49,123,50,98,76,29,42,15,15,0.5,1.1
2023-10-31T23:00:00,1606A,121.8297,41.1028,盘锦市,新生街道,,42,42,64,13,48,132,36,112,75,35,33,10,13,0.6,1
2023-10-31T23:00:00,1607A,120.9092,40.7136,葫芦岛市,龙港区,,36,36,104,11,58,132,56,109,93,20,34,43,32,0.4,0.9
2023-10-31T23:00:00,1608A,120.8392,40.7514,葫芦岛市,化工街,颗粒物(PM10),68,85,138,14,51,113,45,92,67,24,42,12,13,0.3,0.8
2023-10-31T23:00:00,1609A,120.8341,40.7073,葫芦岛市,新区,,43,43,107,10,63,130,58,94,77,24,54,13,13,0.5,1
2023-10-31T23:00:00,1610A,120.8695,40.7677,葫芦岛市,东城区,,40,40,116,9,69,124,46,88,54,29,53,18,15,0.5,1.1
2023-10-31T23:00:00,1611A,118.5819,24.9117,泉州市,涂山街,,31,28,28,12,12,125,97,112,103,9,9,4,4,0.4,0.5
2023-10-31T23:00:00,1612A,118.5972,24.8978,泉州市,津头埔,,33,17,28,9,11,120,103,109,101,12,14,3,3,0.4,0.5
2023-10-31T23:00:00,1613A,118.6663,24.9424,泉州市,万安,,33,20,29,10,10,127,104,117,109,12,11,3,4,0.5,0.5
2023-10-31T23:00:00,1614A,118.6117,24.9604,泉州市,清源山,,,,,,,,,,,,,,,,
2023-10-31T23:00:00,1616A,117.6795,36.229,济南市,技术学院,颗粒物(PM10),82,114,111,47,48,171,37,154,116,103,44,10,13,0.9,1
2023-10-31T23:00:00,1618A,118.3429,35.0532,临沂市,沂河小区,细颗粒物(PM2.5),80,97,111,59,62,175,85,163,128,36,38,13,17,0.5,0.6
2023-10-31T23:00:00,1619A,118.295,35.0583,临沂市,鲁南制药厂,颗粒物(PM10),78,105,115,56,50,198,92,176,134,40,39,11,18,0.8,0.8
2023-10-31T23:00:00,1620A,118.2794,34.9976,临沂市,新光毛纺厂,"颗粒物(PM10),细颗粒物(PM2.5)",79,107,111,58,62,184,78,175,124,52,48,14,21,0.7,0.8
2023-10-31T23:00:00,1621A,118.3956,35.0888,临沂市,河东保险公司,颗粒物(PM10),68,85,102,46,59,190,114,174,146,30,34,10,12,0.8,0.8
2023-10-31T23:00:00,1622A,116.3032,37.4674,德州市,儿童乐园,"颗粒物(PM10),细颗粒物(PM2.5)",89,127,194,66,131,186,103,149,132,26,41,18,15,0.9,1.2
2023-10-31T23:00:00,1624A,116.2991,37.4451,德州市,监理站,细颗粒物(PM2.5),92,128,203,68,147,175,95,144,126,18,36,20,17,0.8,1.1
2023-10-31T23:00:00,1625A,115.9848,36.4372,聊城市,区政府,颗粒物(PM10),79,108,141,46,76,200,77,150,123,34,38,13,12,0.7,0.8
2023-10-31T23:00:00,1628A,118.0062,37.3803,滨州市,市环保局,细颗粒物(PM2.5),117,138,148,88,99,140,6,113,51,93,62,12,12,1.1,1.1
2023-10-31T23:00:00,1629A,118.0018,37.3617,滨州市,第二水厂,细颗粒物(PM2.5),92,117,140,68,81,150,8,118,79,110,64,8,11,0.9,1
2023-10-31T23:00:00,1630A,117.9776,37.393,滨州市,北中新校,细颗粒物(PM2.5),108,140,138,81,76,139,6,113,54,109,65,9,12,1.1,1.1
2023-10-31T23:00:00,1631A,118.0414,36.8103,淄博市,人民公园,细颗粒物(PM2.5),67,78,83,48,48,163,120,142,120,21,34,9,16,0.7,0.7
2023-10-31T23:00:00,1633A,117.8525,36.4847,淄博市,双山,细颗粒物(PM2.5),68,79,82,49,52,164,135,147,138,15,19,6,9,0.4,0.7
2023-10-31T23:00:00,1634A,117.9592,36.6331,淄博市,气象站,细颗粒物(PM2.5),64,57,79,46,43,152,138,143,140,13,20,7,9,0.2,0.4
2023-10-31T23:00:00,1635A,118.3092,36.8194,淄博市,莆田园,颗粒物(PM10),79,107,100,48,48,176,111,146,118,29,34,18,17,1.7,1.3
2023-10-31T23:00:00,1637A,117.558,34.8438,枣庄市,市中区政府,细颗粒物(PM2.5),104,144,145,78,82,185,60,168,92,70,59,18,8,1.2,0.8
2023-10-31T23:00:00,1638A,117.2852,34.7837,枣庄市,薛城环保局,颗粒物(PM10),85,120,120,60,72,187,68,165,119,65,42,9,9,1.0,0.9
2023-10-31T23:00:00,1639A,117.5852,34.7745,枣庄市,峄城区政府,颗粒物(PM10),87,124,128,53,58,188,72,165,110,54,45,9,8,1.0,0.9
2023-10-31T23:00:00,1640A,117.7276,34.5578,枣庄市,台儿庄区环保局,细颗粒物(PM2.5),77,95,101,56,63,186,62,162,103,55,46,5,6,0.8,0.8
2023-10-31T23:00:00,1641A,117.4518,35.0992,枣庄市,山亭区环保局,颗粒物(PM10),74,97,93,51,54,180,103,167,141,39,33,10,10,1.0,0.9
2023-10-31T23:00:00,1642A,121.2514,37.5639,烟台市,开发区,细颗粒物(PM2.5),100,122,66,75,35,173,34,159,113,83,24,9,10,1.3,0.8
2023-10-31T23:00:00,1643A,121.3719,37.5433,烟台市,轴承厂,细颗粒物(PM2.5),92,95,70,68,40,169,142,154,128,22,18,6,7,0.8,0.7
2023-10-31T23:00:00,1644A,121.3181,37.5436,烟台市,西郊化工站,细颗粒物(PM2.5),78,97,66,57,34,166,108,154,132,50,23,7,8,1.0,0.6
2023-10-31T23:00:00,1645A,121.4478,37.4822,烟台市,莱山环保局,细颗粒物(PM2.5),80,90,59,59,30,168,127,159,140,24,18,7,7,0.9,0.6
2023-10-31T23:00:00,1646A,121.2611,37.4967,烟台市,福山环保局,细颗粒物(PM2.5),85,114,73,63,35,164,67,150,102,61,30,8,9,0.8,0.6
2023-10-31T23:00:00,1650A,119.1437,36.7023,潍坊市,环保局,颗粒物(PM10),70,90,102,47,52,162,59,140,76,58,52,11,11,0.6,0.7
2023-10-31T23:00:00,1653A,116.6251,35.4302,济宁市,火炬城,细颗粒物(PM2.5),62,69,80,44,44,155,76,136,113,37,28,21,15,0.6,0.7
2023-10-31T23:00:00,1655A,116.5491,35.4042,济宁市,电化厂,颗粒物(PM10),74,97,99,46,48,164,72,136,107,42,33,14,11,0.6,0.6
2023-10-31T23:00:00,1656A,117.1437,36.1937,泰安市,监测站,细颗粒物(PM2.5),75,90,100,55,58,167,134,147,142,25,26,14,14,0.9,0.9
2023-10-31T23:00:00,1657A,117.0885,36.2017,泰安市,人口学校,细颗粒物(PM2.5),69,78,87,50,55,165,141,157,155,19,24,10,9,0.7,0.8
2023-10-31T23:00:00,1658A,117.1089,36.1758,泰安市,电力学校,颗粒物(PM10),74,97,99,48,51,161,123,142,135,27,28,12,12,0.5,0.5
2023-10-31T23:00:00,1659A,119.471,35.4209,日照市,监测站,细颗粒物(PM2.5),82,97,91,60,53,159,81,142,96,45,47,11,12,1.1,1
2023-10-31T23:00:00,1660A,119.523,35.4216,日照市,市政府广场,细颗粒物(PM2.5),80,92,92,59,49,176,108,162,138,41,43,7,10,0.8,0.8
2023-10-31T23:00:00,1661A,119.5587,35.4044,日照市,港务局,颗粒物(PM10),75,100,96,48,47,169,100,147,122,47,51,10,13,1.1,1.2
2023-10-31T23:00:00,1662A,122.1214,37.4236,威海市,华夏技校,细颗粒物(PM2.5),72,63,48,52,28,180,168,174,174,16,13,3,3,0.6,0.5
2023-10-31T23:00:00,1663A,122.0508,37.5236,威海市,山大分校,细颗粒物(PM2.5),70,76,57,51,27,176,175,165,165,16,13,5,5,0.7,0.6
2023-10-31T23:00:00,1664A,122.1067,37.5072,威海市,市监测站,臭氧1小时,69,78,57,42,28,178,175,173,173,14,12,8,8,0.9,0.8
2023-10-31T23:00:00,1666A,118.6614,37.4309,东营市,市环保局,细颗粒物(PM2.5),208,180,125,158,83,179,128,150,141,30,45,11,12,0.9,0.7
2023-10-31T23:00:00,1669A,113.5824,24.7733,韶关市,市八中,,49,49,40,20,24,118,31,112,73,35,20,11,12,0.6,0.7
2023-10-31T23:00:00,1671A,113.5917,24.7972,韶关市,园林处,细颗粒物(PM2.5),52,47,42,36,31,118,18,108,67,42,20,36,18,0.7,0.6
2023-10-31T23:00:00,1672A,113.6735,24.7791,韶关市,韶关学院,,45,25,36,31,29,120,18,108,67,16,17,10,10,0.5,0.5
2023-10-31T23:00:00,1673A,113.5971,24.6863,韶关市,曲江监测站,,47,47,42,23,25,122,12,109,70,39,19,9,12,0.5,0.6
2023-10-31T23:00:00,1674A,116.6794,23.3667,汕头市,金平子站,,29,22,35,9,14,133,91,117,104,9,13,5,9,0.5,0.6
2023-10-31T23:00:00,1675A,116.7244,23.3633,汕头市,龙湖子站,,30,22,31,11,13,137,95,121,106,9,13,6,9,0.5,0.5
2023-10-31T23:00:00,1676A,116.7258,23.2775,汕头市,濠江子站,,30,21,27,14,12,126,94,114,102,6,8,7,9,0.4,0.5
2023-10-31T23:00:00,1677A,116.7519,23.4714,汕头市,澄海子站,,28,28,33,14,16,132,88,114,101,14,16,6,10,0.4,0.5
2023-10-31T23:00:00,1678A,116.6092,23.2539,汕头市,潮阳子站,,32,20,47,10,15,135,100,122,111,4,10,8,9,0.4,0.5
2023-10-31T23:00:00,1680A,110.3539,21.2706,湛江市,湛江影剧院,,42,39,45,14,24,172,133,144,144,13,15,5,12,0.5,0.6
2023-10-31T23:00:00,1681A,110.3928,21.2228,湛江市,市环境监测站,,42,27,38,21,25,168,132,142,142,11,13,2,8,0.7,0.8
2023-10-31T23:00:00,1682A,110.4019,21.1997,湛江市,环保局宿舍,,43,33,41,22,29,164,136,142,142,7,14,3,9,0.6,0.8
2023-10-31T23:00:00,1683A,110.4111,21.2028,湛江市,霞山游泳场,,40,30,40,18,27,164,128,142,142,11,12,4,11,0.5,0.8
2023-10-31T23:00:00,1684A,110.3316,21.2679,湛江市,麻章区环保局,,42,38,45,20,22,167,134,138,138,11,18,3,8,0.5,0.7
2023-10-31T23:00:00,1685A,110.4558,21.2567,湛江市,坡头区环保局,,45,28,37,18,27,171,141,152,152,8,11,4,13,0.5,0.7
2023-10-31T23:00:00,1686A,111.0286,21.4688,茂名市,电白南海,,,46,50,22,30,177,,154,154,14,16,8,11,0.6,0.8
2023-10-31T23:00:00,1687A,110.9294,21.6533,茂名市,茂石化七小,,44,44,45,24,29,160,126,128,128,11,12,6,14,0.5,0.6
2023-10-31T23:00:00,1688A,110.9107,21.6687,茂名市,健康路,,42,39,36,17,26,169,132,131,131,11,11,8,11,0.4,0.5
2023-10-31T23:00:00,1689A,110.8592,21.6828,茂名市,高岭,,45,44,42,31,33,156,132,123,123,16,15,7,11,0.6,0.7
2023-10-31T23:00:00,1690A,116.1231,24.3284,梅州市,梅江月梅,颗粒物(PM10),52,54,31,12,11,125,10,114,72,48,20,7,7,0.5,0.5
2023-10-31T23:00:00,1691A,116.0797,24.2719,梅州市,梅县新城,,45,45,35,15,13,113,39,100,54,25,25,7,8,0.7,0.7
2023-10-31T23:00:00,1692A,116.1248,24.2654,梅州市,环境监控中心,,40,40,40,13,14,102,8,90,45,56,28,11,9,0.6,0.6
2023-10-31T23:00:00,1693A,115.3653,22.775,汕尾市,市环保局,,31,31,32,15,16,125,91,118,108,10,12,14,14,0.6,0.6
2023-10-31T23:00:00,1694A,115.3706,22.7898,汕尾市,市政府,,,,31,,16,134,87,124,110,,6,8,8,0.6,0.6
2023-10-31T23:00:00,1695A,115.3622,22.7925,汕尾市,新城中学,,32,32,36,22,19,129,88,119,107,8,9,8,10,0.6,0.6
2023-10-31T23:00:00,1696A,114.6778,23.7569,河源市,源西,,23,23,38,16,22,100,26,88,42,33,24,5,6,0.6,0.6
2023-10-31T23:00:00,1697A,114.6944,23.7586,河源市,东埔,,45,45,37,20,24,98,24,89,54,37,20,5,8,0.7,0.7
2023-10-31T23:00:00,1698A,114.6892,23.7233,河源市,老城,,40,40,38,16,22,109,21,98,58,34,20,5,7,0.6,0.6
2023-10-31T23:00:00,1699A,111.9797,21.8593,阳江市,鸳鸯湖,,49,30,50,34,30,170,117,146,142,12,15,12,14,0.7,0.7
2023-10-31T23:00:00,1701A,111.9491,21.8658,阳江市,马南垌,细颗粒物(PM2.5),52,44,50,36,31,162,117,145,141,20,27,6,9,0.8,0.7
2023-10-31T23:00:00,1702A,113.0426,23.691,清远市,环保大楼,,38,38,34,21,21,123,69,113,95,25,15,15,11,0.7,0.8
2023-10-31T23:00:00,1703A,113.0208,23.7106,清远市,凤城街办,,38,38,37,21,25,126,65,114,94,22,18,4,6,0.6,0.5
2023-10-31T23:00:00,1705A,116.6367,23.6719,潮州市,西园路,颗粒物(PM10),52,54,40,9,20,142,83,120,116,15,13,9,6,0.6,0.5
2023-10-31T23:00:00,1706A,116.6447,23.6706,潮州市,档案局,,32,32,34,20,22,148,79,126,120,16,11,7,7,0.6,0.6
2023-10-31T23:00:00,1708A,116.3701,23.5345,揭阳市,新兴,,31,31,41,19,22,143,79,126,105,14,16,11,13,0.7,0.7
2023-10-31T23:00:00,1709A,116.3264,23.5443,揭阳市,西马,,34,34,42,13,20,143,84,127,111,12,14,10,10,0.5,0.6
2023-10-31T23:00:00,1710A,116.3611,23.5626,揭阳市,东兴,,34,34,44,14,19,140,82,126,110,16,20,10,12,0.6,0.7
2023-10-31T23:00:00,1711A,116.4151,23.5294,揭阳市,渔湖,,37,37,46,15,21,136,79,132,108,18,20,8,11,0.5,0.5
2023-10-31T23:00:00,1712A,112.0392,22.9169,云浮市,新市府,,32,32,35,20,21,117,46,102,72,7,10,3,4,0.5,0.6
2023-10-31T23:00:00,1714A,112.0539,22.9539,云浮市,牧羊,,41,41,47,18,19,118,62,106,85,27,21,7,8,0.7,0.6
2023-10-31T23:00:00,1715A,102.575,24.3711,玉溪市,东风水库,,39,27,32,27,24,95,42,82,70,11,14,6,9,0.6,1
2023-10-31T23:00:00,1718A,115.4208,35.2464,菏泽市,气象局,颗粒物(PM10),75,100,96,42,40,144,57,127,98,46,38,22,14,0.4,0.4
2023-10-31T23:00:00,1719A,115.4747,35.2375,菏泽市,市政协,颗粒物(PM10),71,92,85,42,39,136,61,127,103,37,32,18,13,0.3,0.3
2023-10-31T23:00:00,1721A,113.3819,40.1097,大同市,果树场,,,,,,,,,,,,,,,,
2023-10-31T23:00:00,1723A,113.2994,40.0758,大同市,云冈宾馆,颗粒物(PM10),86,121,115,34,33,92,27,70,42,59,45,35,28,0.8,0.7
2023-10-31T23:00:00,1724A,113.3444,40.0917,大同市,大同大学,颗粒物(PM10),74,98,117,32,33,95,53,76,52,41,41,59,29,0.6,0.6
2023-10-31T23:00:00,1725A,113.2661,40.1269,大同市,安家小村,颗粒物(PM10),59,67,109,17,30,97,88,81,74,17,30,42,32,0.3,0.9
2023-10-31T23:00:00,1726A,113.2711,40.0844,大同市,教育学院,颗粒物(PM10),76,102,125,24,29,92,46,72,43,45,45,53,36,0.6,0.6
2023-10-31T23:00:00,1727A,113.1147,36.1547,长治市,清华站,颗粒物(PM10),64,78,72,44,34,135,46,115,82,60,44,10,11,0.7,0.7
2023-10-31T23:00:00,1728A,113.1031,36.1989,长治市,监测站,细颗粒物(PM2.5),85,93,65,63,44,138,54,121,91,46,43,14,10,1.3,1
2023-10-31T23:00:00,1730A,113.0886,36.2125,长治市,审计局,细颗粒物(PM2.5),73,69,63,53,42,134,70,112,90,38,40,18,13,1.0,0.8
2023-10-31T23:00:00,1731A,113.0844,36.1856,长治市,长治八中,颗粒物(PM10),76,102,81,36,38,138,33,119,92,54,38,15,15,1.0,0.8
2023-10-31T23:00:00,1733A,111.5531,36.0783,临汾市,临钢医院,细颗粒物(PM2.5),117,160,132,88,77,184,34,156,115,58,40,6,11,1.6,1.5
2023-10-31T23:00:00,1734A,111.5028,36.0714,临汾市,技工学校,细颗粒物(PM2.5),175,209,144,132,89,194,22,166,125,76,52,8,12,2.0,1.5
2023-10-31T23:00:00,1736A,111.5018,36.0855,临汾市,市委,细颗粒物(PM2.5),156,209,145,119,82,188,30,175,124,76,54,11,13,1.5,1.4
2023-10-31T23:00:00,1738A,113.5758,37.8572,阳泉市,市中心,颗粒物(PM10),74,98,102,44,49,129,2,106,41,112,72,16,17,0.9,1
2023-10-31T23:00:00,1739A,113.4894,37.8731,阳泉市,赛鱼,颗粒物(PM10),78,105,87,40,38,136,4,116,34,107,69,15,16,0.8,0.9
2023-10-31T23:00:00,1740A,113.5819,37.8486,阳泉市,南庄,颗粒物(PM10),98,145,145,47,58,126,17,110,62,93,69,15,13,0.9,1
2023-10-31T23:00:00,1742A,113.5614,37.8703,阳泉市,平坦,颗粒物(PM10),75,99,98,37,43,130,27,115,57,90,66,16,14,0.9,1
2023-10-31T23:00:00,1743A,113.5158,37.8392,阳泉市,大阳泉,颗粒物(PM10),73,96,65,45,44,173,104,122,113,37,31,17,15,0.8,0.7
2023-10-31T23:00:00,1744A,118.9233,42.2816,赤峰市,松山一中,细颗粒物(PM2.5),60,32,73,43,39,117,56,94,54,20,31,9,11,0.5,0.8
2023-10-31T23:00:00,1745A,118.9576,42.2728,赤峰市,哈达街,,39,30,82,27,48,121,58,91,46,17,36,15,17,0.7,0.9
2023-10-31T23:00:00,1746A,118.8788,42.2554,赤峰市,天义路,,26,26,69,3,30,123,60,81,50,15,30,5,9,0.6,1.1
2023-10-31T23:00:00,1748A,123.044,41.1196,鞍山市,深沟寺,,46,46,106,9,72,137,38,134,75,33,20,9,8,0.5,0.9
2023-10-31T23:00:00,1749A,123.011,41.0931,鞍山市,太阳城,,29,29,115,9,64,144,35,134,74,36,23,16,11,0.5,0.9
2023-10-31T23:00:00,1750A,123.0485,41.1442,鞍山市,太平,,32,32,127,13,69,140,37,132,70,39,27,26,13,0.5,0.8
2023-10-31T23:00:00,1751A,122.9642,41.0971,鞍山市,铁西三道街,,32,32,143,9,74,126,34,119,64,36,32,12,12,0.5,1
2023-10-31T23:00:00,1752A,122.9341,41.0833,鞍山市,铁西工业园区,颗粒物(PM10),52,54,136,22,78,126,40,122,63,35,33,15,13,0.6,1.3
2023-10-31T23:00:00,1753A,123.022,41.0821,鞍山市,明达新区,颗粒物(PM10),51,52,103,14,67,133,39,124,60,37,25,22,19,0.2,0.6
2023-10-31T23:00:00,1754A,123.1289,41.0228,鞍山市,千山,,,,,,,,,,,,,,,,
2023-10-31T23:00:00,1755A,123.7977,41.8491,抚顺市,望花区,颗粒物(PM10),54,57,91,13,57,123,54,113,67,16,25,9,16,0.2,0.6
2023-10-31T23:00:00,1756A,123.9161,41.8822,抚顺市,顺城区,颗粒物(PM10),54,57,82,13,52,125,24,114,61,41,31,5,8,0.4,0.7
2023-10-31T23:00:00,1757A,124.0436,41.8611,抚顺市,东洲区,,38,38,61,12,48,141,38,130,70,26,19,9,9,0.4,0.8
2023-10-31T23:00:00,1758A,123.9247,41.8642,抚顺市,新抚区,颗粒物(PM10),68,86,79,18,63,118,44,110,61,23,29,6,9,0.4,0.8
2023-10-31T23:00:00,1759A,124.0972,41.8961,抚顺市,大伙房水库,,50,50,73,8,42,139,42,126,72,24,15,8,9,0.3,0.6
2023-10-31T23:00:00,1760A,123.7086,41.8391,抚顺市,沈抚新城,颗粒物(PM10),53,55,85,17,70,129,39,116,66,25,27,7,11,0.3,0.9
2023-10-31T23:00:00,1761A,123.8275,41.3064,本溪市,大峪,颗粒物(PM10),56,62,93,25,47,140,50,137,80,24,23,9,10,1.0,1
2023-10-31T23:00:00,1762A,123.7567,41.3325,本溪市,溪湖,颗粒物(PM10),54,58,106,20,55,154,35,133,89,38,26,14,15,0.7,1.1
2023-10-31T23:00:00,1763A,123.7169,41.3094,本溪市,彩屯,,35,35,113,19,70,143,21,123,72,41,44,13,26,0.7,2.2
2023-10-31T23:00:00,1764A,123.7669,41.2864,本溪市,东明,颗粒物(PM10),65,80,88,27,49,138,41,133,79,39,30,11,12,1.0,1.1
2023-10-31T23:00:00,1765A,123.7992,41.2664,本溪市,新立屯,细颗粒物(PM2.5),52,52,75,36,40,134,10,131,55,51,26,10,11,0.8,1
2023-10-31T23:00:00,1766A,123.8142,41.3472,本溪市,威宁,颗粒物(PM10),65,80,90,26,61,138,24,128,66,43,29,6,7,0.6,1
2023-10-31T23:00:00,1767A,121.1115,41.0879,锦州市,南山,,50,50,94,11,60,113,54,94,57,13,39,10,20,0.4,0.9
2023-10-31T23:00:00,1768A,121.0533,40.8434,锦州市,开发区,,41,41,163,17,71,71,46,58,49,29,65,36,35,0.4,1
2023-10-31T23:00:00,1769A,121.1836,41.1119,锦州市,百股街道,颗粒物(PM10),54,57,85,17,45,122,52,88,57,17,43,11,29,0.5,0.9
2023-10-31T23:00:00,1770A,121.1178,41.1222,锦州市,天安街道,颗粒物(PM10),51,51,110,17,62,112,48,87,55,20,49,9,28,0.5,1.2
2023-10-31T23:00:00,1771A,121.1303,41.1386,锦州市,北湖公园,,50,50,90,14,60,116,49,90,54,17,42,8,23,0.5,1
2023-10-31T23:00:00,1772A,126.54,43.8622,吉林市,哈达湾,颗粒物(PM10),74,98,93,40,54,108,62,98,70,23,28,6,7,0.7,0.8
2023-10-31T23:00:00,1773A,126.5844,43.8358,吉林市,东局子,颗粒物(PM10),73,96,95,46,56,98,59,91,64,24,29,6,7,0.6,0.8
2023-10-31T23:00:00,1774A,126.5052,43.8245,吉林市,电力学院,颗粒物(PM10),66,81,98,37,55,98,45,88,65,22,30,8,11,0.7,0.9
2023-10-31T23:00:00,1775A,126.6133,43.8972,吉林市,江北,颗粒物(PM10),84,117,106,60,65,93,23,88,54,61,34,14,11,0.9,0.9
2023-10-31T23:00:00,1776A,126.555,43.8306,吉林市,江南公园,颗粒物(PM10),69,88,93,40,58,105,60,95,66,21,28,8,9,0.6,0.8
2023-10-31T23:00:00,1778A,126.7061,43.7133,吉林市,丰满,,,,,,,,,,,,,,,,
2023-10-31T23:00:00,1779A,123.9305,47.3636,齐齐哈尔市,安居小区,细颗粒物(PM2.5),67,64,66,48,53,56,32,52,44,18,17,4,7,0.3,0.3
2023-10-31T23:00:00,1780A,123.9488,47.3386,齐齐哈尔市,中心广场,细颗粒物(PM2.5),67,53,78,48,54,54,39,48,42,14,18,3,4,0.6,0.6
2023-10-31T23:00:00,1781A,123.9483,47.3227,齐齐哈尔市,农牧车辆厂,细颗粒物(PM2.5),60,48,69,43,43,57,31,51,45,20,18,9,9,0.5,0.5
2023-10-31T23:00:00,1783A,123.945,47.2988,齐齐哈尔市,市环境监测站,细颗粒物(PM2.5),72,59,72,52,53,59,23,53,45,32,19,4,6,0.4,0.4
2023-10-31T23:00:00,1784A,129.61,44.561,牡丹江市,环保大楼,细颗粒物(PM2.5),108,111,106,81,74,76,76,40,40,21,48,5,11,0.7,0.9
2023-10-31T23:00:00,1785A,129.6115,44.5782,牡丹江市,文化广场,细颗粒物(PM2.5),104,120,122,78,84,72,72,31,31,25,55,6,11,0.6,0.9
2023-10-31T23:00:00,1786A,129.5904,44.5963,牡丹江市,第一医院,细颗粒物(PM2.5),148,134,102,113,83,78,78,29,29,17,46,8,11,0.7,0.9
2023-10-31T23:00:00,1787A,129.6364,44.6075,牡丹江市,机车工厂,细颗粒物(PM2.5),137,135,132,104,86,73,72,26,26,19,46,6,9,0.8,1.1
2023-10-31T23:00:00,1788A,129.6386,44.5462,牡丹江市,第一中学,细颗粒物(PM2.5),114,127,100,86,72,73,73,52,52,20,42,7,9,0.7,0.8
2023-10-31T23:00:00,1789A,124.81117,46.03138,大庆市,大同区,细颗粒物(PM2.5),78,57,81,57,53,76,39,60,48,11,15,5,7,0.4,0.6
2023-10-31T23:00:00,1790A,125.129,46.533,大庆市,龙凤区,,48,48,76,29,59,70,36,54,40,16,17,4,6,0.6,0.6
2023-10-31T23:00:00,1791A,124.902,46.408,大庆市,红岗区,细颗粒物(PM2.5),63,46,71,45,53,75,41,59,45,13,19,4,6,0.3,0.4
2023-10-31T23:00:00,1792A,125.153,46.586,大庆市,萨尔图区,细颗粒物(PM2.5),58,50,83,41,68,71,36,56,42,19,19,4,6,0.2,0.3
2023-10-31T23:00:00,1793A,124.9042,46.6215,大庆市,让胡路区,细颗粒物(PM2.5),52,42,66,36,44,70,41,56,45,11,17,3,5,0.5,0.5
2023-10-31T23:00:00,1794A,118.3606,31.3519,芜湖市,监测站,颗粒物(PM10),71,91,86,46,47,170,69,139,99,61,55,10,11,0.7,0.9
2023-10-31T23:00:00,1795A,118.3714,31.4134,芜湖市,科创中心,细颗粒物(PM2.5),83,94,93,61,54,168,23,133,77,106,76,9,11,0.8,1
2023-10-31T23:00:00,1796A,118.3673,31.3131,芜湖市,四水厂,颗粒物(PM10),67,83,81,44,45,175,103,144,119,34,40,11,8,0.6,0.7
2023-10-31T23:00:00,1798A,118.5092,31.6837,马鞍山市,湖东路四小,细颗粒物(PM2.5),72,88,78,52,54,173,96,147,122,31,33,8,12,0.8,1
2023-10-31T23:00:00,1799A,118.5024,31.6449,马鞍山市,开发区,细颗粒物(PM2.5),69,73,88,50,57,168,66,147,128,60,41,10,13,0.7,1
2023-10-31T23:00:00,1800A,118.5228,31.7231,马鞍山市,慈湖,细颗粒物(PM2.5),98,111,89,73,55,169,41,146,109,83,47,8,12,1.2,1
2023-10-31T23:00:00,1802A,118.6245,31.7241,马鞍山市,濮塘,颗粒物(PM10),55,59,71,38,41,164,117,152,142,11,17,6,9,0.7,0.8
2023-10-31T23:00:00,1803A,115.9872,29.6815,九江市,十里,细颗粒物(PM2.5),62,66,77,44,49,200,52,158,73,39,48,7,8,0.9,1
2023-10-31T23:00:00,1804A,115.9584,29.7046,九江市,茅山头,颗粒物(PM10),62,74,85,31,58,208,21,158,82,74,57,10,10,0.9,1.2
2023-10-31T23:00:00,1805A,115.9877,29.7295,九江市,西园,细颗粒物(PM2.5),74,84,103,54,65,176,9,140,84,94,56,14,10,1.2,1.2
2023-10-31T23:00:00,1806A,116.0172,29.6547,九江市,五七二七厂,,36,30,65,18,47,181,114,159,128,7,13,9,11,0.2,0.7
2023-10-31T23:00:00,1808A,115.9114,29.6038,九江市,综合工业园,细颗粒物(PM2.5),62,63,73,44,48,165,51,141,92,51,41,11,12,0.6,0.8
2023-10-31T23:00:00,1809A,116.0721,29.7535,九江市,石化总厂,细颗粒物(PM2.5),75,92,129,55,81,175,61,132,101,48,69,12,15,0.6,1
2023-10-31T23:00:00,1810A,115.9773,29.5698,九江市,庐山气象台,,41,21,22,13,19,152,129,133,126,2,4,7,6,0.4,0.6
2023-10-31T23:00:00,1812A,112.3931,34.6516,洛阳市,市委党校,细颗粒物(PM2.5),94,90,87,70,59,121,49,104,70,44,44,9,8,0.6,0.7
2023-10-31T23:00:00,1814A,112.4657,34.6871,洛阳市,豫西宾馆,细颗粒物(PM2.5),88,112,110,65,58,129,18,94,46,73,56,5,7,1.0,1
2023-10-31T23:00:00,1815A,112.494,34.6886,洛阳市,河南林校,细颗粒物(PM2.5),72,78,78,52,46,126,46,94,62,41,45,4,4,0.6,0.6
2023-10-31T23:00:00,1816A,112.3844,34.623,洛阳市,开发区管委会,细颗粒物(PM2.5),77,82,75,56,46,130,24,103,66,50,39,2,2,0.6,0.6
2023-10-31T23:00:00,1817A,112.4267,34.6258,洛阳市,市委新办公区,细颗粒物(PM2.5),72,85,72,52,43,134,38,104,66,49,39,4,3,0.6,0.6
2023-10-31T23:00:00,1818A,114.4839,36.0621,安阳市,棉研所,,,,,,,,,,,,,,,,
2023-10-31T23:00:00,1819A,114.3551,36.1017,安阳市,红庙街,细颗粒物(PM2.5),88,117,203,65,131,189,52,159,116,47,53,16,14,1.2,1.8
2023-10-31T23:00:00,1820A,114.361,36.0681,安阳市,银杏小区,,,,180,56,127,185,50,152,112,50,43,21,13,0.8,1.3
2023-10-31T23:00:00,1824A,114.3389,34.7781,开封市,肿瘤医院,颗粒物(PM10),64,78,82,37,40,129,35,110,76,42,39,3,5,0.7,0.7
2023-10-31T23:00:00,1826A,114.2885,34.7965,开封市,世纪星幼儿园,颗粒物(PM10),63,76,80,28,33,138,34,115,79,42,38,7,9,0.7,0.7
2023-10-31T23:00:00,1828A,113.227,35.2125,焦作市,市环保局,颗粒物(PM10),82,113,111,53,58,147,45,119,86,50,45,12,18,0.6,0.8
2023-10-31T23:00:00,1830A,113.1992,35.2590,焦作市,影视城,,,,,,,,,,,,,,,,
2023-10-31T23:00:00,1832A,113.3257,33.742,平顶山市,新华旅馆,细颗粒物(PM2.5),57,58,56,40,33,108,90,99,90,20,17,7,7,0.6,0.6
2023-10-31T23:00:00,1833A,113.2919,33.737,平顶山市,规划设计院,颗粒物(PM10),51,51,43,27,25,109,88,100,90,24,21,8,8,0.4,0.4
2023-10-31T23:00:00,1834A,113.182,33.774,平顶山市,平顶山工学院,,43,43,42,19,16,124,109,108,101,15,15,6,6,0.3,0.3
2023-10-31T23:00:00,1835A,111.1922,34.7752,三门峡市,市政府,颗粒物(PM10),71,92,75,39,38,133,3,99,45,77,58,9,11,0.9,0.8
2023-10-31T23:00:00,1836A,111.1587,34.7942,三门峡市,开发区,,,136,102,54,51,142,6,109,62,,27,8,10,0.9,0.7
2023-10-31T23:00:00,1838A,111.143,34.7955,三门峡市,风景区,,,,,,,,,,,,,,,,
2023-10-31T23:00:00,1840A,111.2992,30.6981,宜昌市,白龙岗,,41,41,32,24,16,122,34,88,70,47,33,5,6,0.6,0.5
2023-10-31T23:00:00,1841A,111.3549,30.6465,宜昌市,伍家岗,,49,47,34,34,21,143,7,96,55,64,38,6,7,0.7,0.5
2023-10-31T23:00:00,1842A,111.2628,30.6961,宜昌市,点军区,细颗粒物(PM2.5),64,48,28,46,21,133,19,88,62,34,29,8,8,0.9,0.7
2023-10-31T23:00:00,1843A,111.3275,30.7819,宜昌市,夷陵区,颗粒物(PM10),53,56,39,31,20,130,18,99,70,53,31,7,7,0.5,0.5
2023-10-31T23:00:00,1844A,112.2494,30.3197,荆州市,市图书馆,,,65,50,,35,146,92,128,112,30,24,36,12,0.7,0.6
2023-10-31T23:00:00,1845A,112.2008,30.3544,荆州市,市委党校,细颗粒物(PM2.5),60,54,55,43,37,140,96,128,116,28,25,11,10,0.6,0.6
2023-10-31T23:00:00,1847A,113.1094,29.3578,岳阳市,南湖风景区,细颗粒物(PM2.5),79,90,67,58,47,179,55,150,78,63,37,7,7,0.9,1
2023-10-31T23:00:00,1848A,113.1493,29.4251,岳阳市,城陵矶,颗粒物(PM10),85,120,80,55,46,161,3,141,78,102,55,8,19,0.7,0.7
2023-10-31T23:00:00,1849A,113.1497,29.3575,岳阳市,开发区,,,,88,,65,35,,50,,,64,,11,,0.8
2023-10-31T23:00:00,1850A,113.2621,29.4758,岳阳市,云溪区,"颗粒物(PM10),细颗粒物(PM2.5)",64,77,64,46,45,165,57,145,85,35,35,9,9,1.0,1
2023-10-31T23:00:00,1851A,112.9943,29.4402,岳阳市,君山区,细颗粒物(PM2.5),79,65,67,58,56,167,58,149,121,68,39,7,7,0.9,0.7
2023-10-31T23:00:00,1852A,113.2117,29.355,岳阳市,金凤水库,,50,49,63,35,39,176,100,158,145,24,17,4,5,0.6,0.6
2023-10-31T23:00:00,1854A,111.6975,28.9703,常德市,市二中,细颗粒物(PM2.5),55,57,33,39,20,115,100,100,92,23,24,19,10,0.6,0.5
2023-10-31T23:00:00,1857A,111.7158,29.1456,常德市,白鹤山,颗粒物(PM10),55,60,45,31,21,115,113,97,95,7,8,3,3,0.7,0.6
2023-10-31T23:00:00,1858A,110.5319,29.1217,张家界市,永定新区,,34,34,25,18,14,87,22,73,53,20,13,6,6,0.2,0.5
2023-10-31T23:00:00,1859A,110.4697,29.1242,张家界市,电业局,,41,41,31,27,12,84,13,64,41,33,19,7,8,0.6,0.5
2023-10-31T23:00:00,1860A,110.5594,29.3547,张家界市,未央路,,22,21,18,15,11,97,29,76,42,11,11,3,3,0.2,0.2
2023-10-31T23:00:00,1861A,110.4417,29.315,张家界市,袁家界,,,,13,,9,61,,62,,,6,,7,,0.4
2023-10-31T23:00:00,1862A,110.4144,25.3167,桂林市,电子科大尧山校区,,44,44,33,27,22,119,39,107,80,11,9,4,3,0.6,0.6
2023-10-31T23:00:00,1863A,110.2819,25.2697,桂林市,监测站,颗粒物(PM10),57,63,47,26,25,125,47,115,66,27,25,9,10,0.5,0.5
2023-10-31T23:00:00,1864A,110.3089,25.2708,桂林市,龙隐路小学,颗粒物(PM10),57,63,39,22,23,121,53,113,76,27,18,24,11,0.8,0.7
2023-10-31T23:00:00,1865A,110.2869,25.2178,桂林市,八中,颗粒物(PM10),53,56,46,26,27,122,49,64,64,19,21,4,6,0.7,0.6
2023-10-31T23:00:00,1866A,109.2262,21.588,北海市,牛尾岭水库,,,,,,,,,,,,,,,,
2023-10-31T23:00:00,1867A,109.1436,21.4086,北海市,海滩公园,,43,43,40,24,23,128,115,110,106,8,9,6,7,0.9,0.9
2023-10-31T23:00:00,1868A,109.0981,21.4661,北海市,新市环保局,,49,49,38,31,30,123,97,107,100,15,12,7,7,0.9,0.8
2023-10-31T23:00:00,1869A,109.1778,21.5233,北海市,北海工业园,颗粒物(PM10),51,52,44,34,30,115,71,104,84,23,14,8,7,0.8,0.8
2023-10-31T23:00:00,1870A,109.4856,24.3895,柳州市,柳东小学,,40,22,34,28,28,115,49,112,103,25,12,8,10,0.6,0.5
2023-10-31T23:00:00,1871A,109.4157,24.3277,柳州市,环保监测站,细颗粒物(PM2.5),82,73,56,60,36,116,8,103,59,62,32,7,10,0.9,0.9
2023-10-31T23:00:00,1872A,109.389,24.341,柳州市,河西水厂,颗粒物(PM10),89,127,75,56,39,119,13,102,57,58,32,13,16,1.3,1.2
2023-10-31T23:00:00,1873A,109.4311,24.2921,柳州市,市四中,细颗粒物(PM2.5),72,85,54,52,33,122,8,106,56,64,33,7,9,1.4,1.1
2023-10-31T23:00:00,1874A,109.4006,24.3631,柳州市,市九中,细颗粒物(PM2.5),77,92,59,56,34,118,6,104,61,53,26,6,8,0.9,0.9
2023-10-31T23:00:00,1875A,109.4958,24.3134,柳州市,古亭山,,35,35,36,22,24,123,3,110,63,63,26,7,8,0.4,0.5
2023-10-31T23:00:00,1876A,109.5078,18.2489,三亚市,河东子站,,31,31,31,12,16,111,91,108,100,7,5,4,4,0.4,0.4
2023-10-31T23:00:00,1877A,109.4964,18.2681,三亚市,河西子站,,29,28,31,12,16,109,92,104,98,3,4,2,3,0.2,0.3
2023-10-31T23:00:00,1878A,104.7778,31.4741,绵阳市,富乐山,"颗粒物(PM10),细颗粒物(PM2.5)",55,60,54,39,42,98,8,83,45,47,28,6,6,0.7,0.7
2023-10-31T23:00:00,1879A,104.7563,31.4535,绵阳市,市人大,颗粒物(PM10),69,87,66,39,45,79,2,65,31,61,41,9,8,1.2,0.9
2023-10-31T23:00:00,1880A,104.6697,31.4668,绵阳市,高新区自来水公司,颗粒物(PM10),66,81,60,42,31,98,2,74,39,54,33,10,8,0.8,0.6
2023-10-31T23:00:00,1881A,104.7287,31.5075,绵阳市,三水厂,细颗粒物(PM2.5),89,101,75,66,51,82,1,63,18,43,43,6,5,0.9,0.8
2023-10-31T23:00:00,1882A,104.563,28.793,宜宾市,石马中学,,,,,,,,,,,,,,,,
2023-10-31T23:00:00,1883A,104.6201,28.7728,宜宾市,市委,细颗粒物(PM2.5),83,84,80,61,57,119,41,100,90,40,34,10,8,0.9,0.7
2023-10-31T23:00:00,1884A,104.6055,28.793,宜宾市,宜宾四中,细颗粒物(PM2.5),98,98,80,73,60,109,22,90,80,58,40,21,12,1.0,0.7
2023-10-31T23:00:00,1885A,104.639,28.7562,宜宾市,市政府,细颗粒物(PM2.5),88,81,78,65,60,118,56,102,92,34,33,10,10,0.8,0.7
2023-10-31T23:00:00,1886A,104.5742,28.7199,宜宾市,黄金嘴,细颗粒物(PM2.5),74,77,67,54,49,128,40,98,74,36,33,10,8,0.7,0.7
2023-10-31T23:00:00,1888A,101.6891,26.571,攀枝花市,弄弄坪,颗粒物(PM10),52,54,55,34,34,131,19,103,84,28,28,17,30,1.1,1.4
2023-10-31T23:00:00,1889A,101.5769,26.5928,攀枝花市,河门口,颗粒物(PM10),54,57,45,34,27,140,41,113,96,30,27,18,23,1.5,1.5
2023-10-31T23:00:00,1890A,101.7169,26.585,攀枝花市,炳草岗,颗粒物(PM10),72,93,70,47,37,136,15,105,74,76,47,30,31,1.7,1.2
2023-10-31T23:00:00,1891A,101.7369,26.5008,攀枝花市,仁和,,33,33,41,21,25,131,35,107,77,19,22,7,17,0.4,0.8
2023-10-31T23:00:00,1893A,105.4324,28.9634,泸州市,九狮山,细颗粒物(PM2.5),54,52,56,38,40,102,6,75,51,13,16,5,5,0.6,0.6
2023-10-31T23:00:00,1894A,105.4427,28.9063,泸州市,小市上码头,细颗粒物(PM2.5),79,83,76,58,53,105,22,83,61,53,36,9,9,0.8,0.7
2023-10-31T23:00:00,1895A,105.4241,28.8573,泸州市,兰田宪桥,细颗粒物(PM2.5),88,99,79,65,52,100,16,79,64,35,27,7,9,1.0,0.8
2023-10-31T23:00:00,1896A,105.4379,28.8833,泸州市,市环监站,细颗粒物(PM2.5),70,77,73,51,45,84,18,67,59,63,37,6,7,1.1,1
2023-10-31T23:00:00,1901A,104.4239,31.1208,德阳市,东山公园,,,92,75,,31,92,11,76,61,30,23,1,3,0.8,0.7
2023-10-31T23:00:00,1902A,104.3826,31.1317,德阳市,西小区,细颗粒物(PM2.5),107,115,84,80,60,91,3,67,50,70,31,3,23,1.1,0.8
2023-10-31T23:00:00,1904A,104.3553,31.1091,德阳市,耐火材料厂,细颗粒物(PM2.5),118,159,98,89,55,98,3,68,40,61,32,3,9,0.8,0.5
2023-10-31T23:00:00,1905A,106.056,30.8064,南充市,西山风景区,,50,43,40,35,36,78,47,44,44,23,21,4,6,0.4,0.8
2023-10-31T23:00:00,1906A,106.0789,30.8023,南充市,南充市委,细颗粒物(PM2.5),80,63,59,59,44,64,3,38,25,32,31,3,4,0.6,0.6
2023-10-31T23:00:00,1907A,106.1031,30.8217,南充市,南充炼油厂,颗粒物(PM10),69,87,63,41,34,66,0,44,32,32,27,4,5,0.5,0.3
2023-10-31T23:00:00,1908A,106.1064,30.7856,南充市,高坪区监测站,细颗粒物(PM2.5),69,76,61,50,40,64,4,43,33,41,31,5,6,0.5,0.5
2023-10-31T23:00:00,1909A,106.0642,30.7636,南充市,嘉陵区环保局,细颗粒物(PM2.5),62,63,58,44,41,45,0,30,16,38,38,3,4,0.6,0.5
2023-10-31T23:00:00,1910A,106.1087,30.8388,南充市,市环境监测站,细颗粒物(PM2.5),63,59,51,45,41,57,4,41,32,36,25,6,6,0.6,0.5
2023-10-31T23:00:00,1911A,106.9222,27.6869,遵义市,丁字口,颗粒物(PM10),53,56,26,34,23,100,12,76,44,53,30,9,7,0.7,0.7
2023-10-31T23:00:00,1912A,106.9242,27.7019,遵义市,凤凰山,,43,43,31,27,23,115,54,104,90,27,17,18,12,0.7,0.6
2023-10-31T23:00:00,1913A,106.8906,27.6486,遵义市,忠庄,,44,44,34,25,21,104,46,92,80,26,20,5,3,0.7,0.3
2023-10-31T23:00:00,1914A,106.9231,27.6506,遵义市,舟水桥,颗粒物(PM10),54,58,39,28,19,109,6,94,56,38,16,3,4,0.6,0.6
2023-10-31T23:00:00,1915A,106.9178,27.72,遵义市,干田坝,细颗粒物(PM2.5),52,48,29,36,20,115,17,93,56,43,25,8,7,0.6,0.5
2023-10-31T23:00:00,1916A,103.7897,25.5035,曲靖市,环境监测站,颗粒物(PM10),53,56,47,30,30,102,47,91,70,22,17,12,7,0.7,0.6
2023-10-31T23:00:00,1917A,103.8,25.5364,曲靖市,烟厂办公区,,44,44,41,30,25,102,57,95,78,20,15,8,6,0.9,0.8
2023-10-31T23:00:00,1918A,108.7197,34.3956,咸阳市,气象站,,,,,,,,,,,,,,,,
2023-10-31T23:00:00,1919A,108.673,34.3155,咸阳市,实验中学,颗粒物(PM10),70,89,98,34,40,52,2,28,17,58,52,3,3,1.0,0.8
2023-10-31T23:00:00,1920A,108.7233,34.3617,咸阳市,师范学院,颗粒物(PM10),66,82,88,31,45,59,5,35,24,54,46,5,5,0.7,0.7
2023-10-31T23:00:00,1922A,109.0656,35.0994,铜川市,党校,颗粒物(PM10),60,69,76,29,30,92,2,67,26,58,52,7,8,0.9,0.9
2023-10-31T23:00:00,1923A,109.0697,35.0697,铜川市,王益区政府,颗粒物(PM10),54,57,61,35,34,102,2,80,32,46,38,6,4,0.7,0.6
2023-10-31T23:00:00,1924A,108.9344,34.9058,铜川市,新区管委会,颗粒物(PM10),58,66,60,30,25,105,32,83,42,32,31,4,5,0.5,0.5
2023-10-31T23:00:00,1926A,109.4131,36.6275,延安市,枣园,颗粒物(PM10),68,85,44,18,16,122,3,94,42,58,36,7,7,0.5,0.4
2023-10-31T23:00:00,1927A,109.4761,36.6028,延安市,延大医附院,颗粒物(PM10),70,89,56,24,19,111,4,78,34,61,40,4,3,0.9,0.8
2023-10-31T23:00:00,1929A,109.5056,36.6106,延安市,百米大道,颗粒物(PM10),70,90,53,28,20,104,4,74,29,86,55,8,4,0.9,0.7
2023-10-31T23:00:00,1930A,107.185,34.3063,宝鸡市,庙沟村,,20,9,17,9,13,87,62,77,66,2,4,8,8,0.3,0.3
2023-10-31T23:00:00,1931A,107.0708,34.3017,宝鸡市,竹园沟,,26,16,18,11,13,94,83,89,85,8,9,6,6,0.4,0.4
2023-10-31T23:00:00,1932A,107.1906,34.3672,宝鸡市,三陆医院,,43,43,43,14,20,86,13,52,41,56,49,8,8,0.7,0.6
2023-10-31T23:00:00,1933A,107.1431,34.3547,宝鸡市,监测站,,22,22,30,13,16,84,45,77,55,26,23,6,6,0.4,0.5
2023-10-31T23:00:00,1934A,107.1186,34.3739,宝鸡市,技工学校,,23,15,27,15,16,89,71,84,72,16,18,6,6,0.3,0.4
2023-10-31T23:00:00,1935A,107.3906,34.3528,宝鸡市,陈仓区环保局家属楼,颗粒物(PM10),55,59,52,28,27,102,8,77,46,64,42,9,13,0.7,0.7
2023-10-31T23:00:00,1936A,107.2058,34.3497,宝鸡市,文理学院,,37,37,38,23,21,87,12,72,44,57,35,5,5,0.6,0.5
2023-10-31T23:00:00,1937A,107.2386,34.3622,宝鸡市,三迪小学,,38,38,46,21,24,86,8,68,41,60,44,6,9,0.8,0.5
2023-10-31T23:00:00,1938A,109.5293,34.5101,渭南市,农科所,,44,44,97,27,58,58,12,31,20,38,54,5,9,0.7,1
2023-10-31T23:00:00,1939A,109.4974,34.4877,渭南市,日报社,颗粒物(PM10),52,53,93,33,56,61,2,39,24,58,63,9,7,0.5,0.6
2023-10-31T23:00:00,1940A,109.4636,34.493,渭南市,体育馆,颗粒物(PM10),51,51,87,29,49,71,1,42,24,62,62,5,10,0.6,0.7
2023-10-31T23:00:00,1941A,109.4259,34.5023,渭南市,高新一小,颗粒物(PM10),68,85,103,48,60,72,2,47,29,55,53,6,6,0.7,0.7
2023-10-31T23:00:00,1944A,102.1692,38.5167,金昌市,天庆家园,颗粒物(PM10),66,81,63,27,16,113,55,102,70,37,30,11,11,0.9,0.8
2023-10-31T23:00:00,1945A,98.2908,39.7711,嘉峪关市,气象局,,48,48,52,9,13,107,47,93,78,37,27,2,6,0.5,0.4
2023-10-31T23:00:00,1947A,106.3394,38.817,石嘴山市,沙湖旅游区,颗粒物(PM10),72,94,96,21,35,106,14,90,74,52,32,11,20,0.3,0.7
2023-10-31T23:00:00,1948A,106.3668,39.0145,石嘴山市,大武口朝阳西街,颗粒物(PM10),59,68,100,15,33,103,18,90,78,79,43,12,44,0.2,0.9
2023-10-31T23:00:00,1949A,106.7704,39.2282,石嘴山市,惠农南大街,颗粒物(PM10),67,84,89,22,24,98,65,81,79,27,40,19,18,0.6,0.9
2023-10-31T23:00:00,1950A,106.7099,39.1325,石嘴山市,红果子镇惠新街,颗粒物(PM10),76,101,90,37,28,95,24,83,67,64,38,74,24,0.6,0.6
2023-10-31T23:00:00,1951A,84.895,45.6094,克拉玛依市,长征新村,,29,29,32,10,6,77,68,62,62,1,17,12,11,0.2,0.4
2023-10-31T23:00:00,1952A,84.8988,45.5893,克拉玛依市,南林小区,,33,33,37,17,19,80,72,64,64,2,16,5,4,0.2,0.4
2023-10-31T23:00:00,1954A,84.905,44.3396,克拉玛依市,独山子区,颗粒物(PM10),86,121,88,32,35,74,74,49,49,5,37,6,9,0.3,0.7
2023-10-31T23:00:00,1955A,85.6979,46.098,克拉玛依市,乌尔禾区商贸楼,,23,10,24,3,12,81,72,66,66,3,14,9,10,0.2,0.3
2023-10-31T23:00:00,1956A,86.1472,41.7538,巴音郭楞州,孔雀公园,颗粒物(PM10),103,156,114,38,35,106,1,92,70,98,57,4,6,2.0,0.8
2023-10-31T23:00:00,1957A,86.1972,41.7166,巴音郭楞州,棉纺厂,颗粒物(PM10),113,176,141,47,37,103,2,90,61,104,48,4,3,1.3,0.5
2023-10-31T23:00:00,1958A,86.2357,41.7173,巴音郭楞州,经济开发区,颗粒物(PM10),93,136,119,33,29,107,15,96,66,70,32,3,4,0.4,0.4
2023-10-31T23:00:00,1961A,117.532,36.6868,济南市,东山小学,颗粒物(PM10),67,83,86,46,42,166,145,156,154,20,21,10,10,0.4,0.4
2023-10-31T23:00:00,1966A,120.0405,35.8735,青岛市,黄岛区4号,颗粒物(PM10),73,95,88,48,45,200,120,183,150,36,28,13,12,1.1,1.1
2023-10-31T23:00:00,1982A,122.0693,37.2174,威海市,文登开发区,颗粒物(PM10),64,78,61,34,23,181,166,177,176,5,8,8,8,1.0,0.8
2023-10-31T23:00:00,2031A,113.1817,27.9958,株洲市,云田中学,细颗粒物(PM2.5),107,97,68,80,50,182,55,162,118,31,25,12,9,1.0,0.9
2023-10-31T23:00:00,2054A,114.1099,32.1059,信阳市,平桥分局,细颗粒物(PM2.5),69,67,52,50,39,156,141,144,143,14,15,6,5,0.6,0.6
2023-10-31T23:00:00,2064A,113.9956,32.1271,信阳市,南湾水厂,细颗粒物(PM2.5),59,60,60,42,39,168,153,160,156,13,13,5,6,0.7,0.7
2023-10-31T23:00:00,2065A,114.0775,32.1195,信阳市,市酿酒公司,细颗粒物(PM2.5),69,63,53,50,41,155,134,146,,18,18,4,5,0.8,0.7
2023-10-31T23:00:00,2066A,114.0609,32.1399,信阳市,审计局,细颗粒物(PM2.5),63,61,61,45,43,159,140,153,147,17,13,6,7,0.7,0.6
2023-10-31T23:00:00,2067A,114.6613,33.6128,周口市,市环境监测站,颗粒物(PM10),68,86,72,46,38,128,97,116,99,25,27,8,8,0.4,0.4
2023-10-31T23:00:00,2068A,114.6758,33.6347,周口市,周口师范,细颗粒物(PM2.5),64,70,68,46,33,128,94,119,,27,25,6,6,0.5,0.5
2023-10-31T23:00:00,2069A,114.6546,33.5979,周口市,市运管处,细颗粒物(PM2.5),69,78,70,50,39,124,93,112,95,24,27,4,5,0.7,0.6
2023-10-31T23:00:00,2070A,114.6369,33.6406,周口市,川汇区环保局,颗粒物(PM10),61,71,66,43,34,118,107,107,97,16,21,8,8,0.6,0.5
2023-10-31T23:00:00,2075A,117.6336,24.4674,漳州市,九湖,,,,,,,,,,,,,,,,
2023-10-31T23:00:00,2160A,112.85,35.5051,晋城市,自来水公司,颗粒物(PM10),63,75,102,41,59,153,19,130,74,75,56,9,13,1.2,1.7
2023-10-31T23:00:00,2161A,112.8318,35.4936,晋城市,白云商贸,颗粒物(PM10),71,92,109,34,57,152,19,127,51,65,49,6,9,1.0,1.9
2023-10-31T23:00:00,2162A,112.8508,35.4887,晋城市,市环保局,颗粒物(PM10),66,82,109,44,56,153,7,126,61,93,63,7,10,2.1,1.9
2023-10-31T23:00:00,2163A,112.8676,35.4897,晋城市,技术学院,颗粒物(PM10),68,86,104,46,60,152,14,129,68,99,65,7,10,1.4,1.4
2023-10-31T23:00:00,2165A,112.8453,35.546,晋城市,白马寺,,,,,,,,,,,,,,,,
2023-10-31T23:00:00,2166A,112.4397,39.3522,朔州市,平朔,,43,43,85,19,26,109,104,100,94,9,22,9,12,0.5,0.6
2023-10-31T23:00:00,2167A,112.4575,39.3617,朔州市,朔唯,颗粒物(PM10),53,55,142,21,41,99,96,92,90,12,43,9,19,0.6,0.8
2023-10-31T23:00:00,2168A,112.4258,39.3197,朔州市,区政府,,49,49,75,22,22,102,88,98,81,14,19,8,9,0.5,0.5
2023-10-31T23:00:00,2169A,112.4072,39.3278,朔州市,市环保局,颗粒物(PM10),52,53,76,17,20,101,98,95,74,7,19,9,9,0.7,0.5
2023-10-31T23:00:00,2170A,112.4272,39.3681,朔州市,市二中,颗粒物(PM10),52,54,76,19,22,106,101,98,96,9,22,10,11,0.1,0.4
2023-10-31T23:00:00,2171A,112.7532,37.6945,晋中市,锦纶小区,细颗粒物(PM2.5),98,144,106,73,51,160,28,123,51,84,55,17,15,0.9,0.7
2023-10-31T23:00:00,2173A,112.7249,37.7067,晋中市,南都小区,细颗粒物(PM2.5),100,147,104,75,48,144,42,119,56,65,59,21,16,1.0,0.8
2023-10-31T23:00:00,2174A,112.6991,37.6982,晋中市,榆次区政府,细颗粒物(PM2.5),100,142,100,75,44,143,34,124,49,79,62,26,16,1.2,0.9
2023-10-31T23:00:00,2175A,110.9956,35.0147,运城市,运城中学,细颗粒物(PM2.5),113,161,181,85,110,183,41,148,111,47,38,7,12,1.0,1.1
2023-10-31T23:00:00,2178A,110.9686,35.0303,运城市,地区技校,细颗粒物(PM2.5),132,197,189,100,103,182,8,144,78,101,52,5,10,1.7,1.3
2023-10-31T23:00:00,2179A,111.0414,35.1147,运城市,空港新区,细颗粒物(PM2.5),165,206,194,125,111,178,63,150,103,52,55,8,10,0.9,1
2023-10-31T23:00:00,2181A,112.7383,38.4519,忻州市,开发区,颗粒物(PM10),51,51,92,21,42,107,55,98,80,38,50,7,19,0.5,0.7
2023-10-31T23:00:00,2182A,112.7003,38.4928,忻州市,会展中心,,43,43,100,13,54,101,56,88,78,35,50,8,17,0.4,0.9
2023-10-31T23:00:00,2183A,111.1406,37.5211,吕梁市,环保局,颗粒物(PM10),81,111,87,28,28,110,2,77,30,69,55,1,5,0.5,0.6
2023-10-31T23:00:00,2185A,111.1297,37.5136,吕梁市,自来水公司,颗粒物(PM10),121,191,136,40,39,106,5,76,37,66,52,7,12,0.6,0.7
2023-10-31T23:00:00,2187A,106.8174,39.6973,乌海市,市林业局,颗粒物(PM10),61,71,80,27,22,102,30,96,69,49,26,10,16,0.9,0.8
2023-10-31T23:00:00,2188A,106.7907,39.6667,乌海市,中海勃湾学校,颗粒物(PM10),85,120,83,33,24,107,6,101,76,76,34,10,17,0.9,0.9
2023-10-31T23:00:00,2191A,122.2532,43.6801,通辽市,艺术职业学校,,34,34,71,3,21,71,57,67,60,16,23,5,9,0.4,0.5
2023-10-31T23:00:00,2192A,119.7594,49.2261,呼伦贝尔市,区环保局,,33,33,34,21,22,68,56,62,58,11,10,5,6,0.5,0.5
2023-10-31T23:00:00,2195A,107.4212,40.761,巴彦淖尔市,附二中,颗粒物(PM10),62,73,83,18,21,97,79,90,84,14,12,4,4,0.5,0.4
2023-10-31T23:00:00,2196A,107.37,40.7372,巴彦淖尔市,市环保大楼,颗粒物(PM10),62,74,94,25,26,96,63,88,74,23,16,3,2,0.4,0.3
2023-10-31T23:00:00,2197A,113.1306,40.9923,乌兰察布市,集宁新区,颗粒物(PM10),64,77,106,23,30,103,59,96,68,29,27,7,8,0.4,0.4
2023-10-31T23:00:00,2200A,122.0392,46.0656,兴安盟,胜华新制药厂,细颗粒物(PM2.5),88,91,55,65,33,64,46,59,50,17,14,4,5,0.4,0.4
2023-10-31T23:00:00,2201A,121.9504,46.0741,兴安盟,科右前旗环保局,细颗粒物(PM2.5),74,78,53,54,29,66,40,60,50,20,13,4,5,0.8,0.8
2023-10-31T23:00:00,2202A,116.1042,43.9317,锡林郭勒盟,市环保监测站,,28,28,28,4,9,91,37,68,49,15,7,11,8,0.2,0.2
2023-10-31T23:00:00,2203A,116.0781,43.9311,锡林郭勒盟,市政府,,21,21,46,6,9,84,31,64,44,27,12,12,10,0.3,0.2
2023-10-31T23:00:00,2204A,105.6467,38.8363,阿拉善盟,西城区西花园,颗粒物(PM10),52,53,48,22,16,106,60,102,65,18,15,8,9,1.3,1.2
2023-10-31T23:00:00,2205A,105.6985,38.8411,阿拉善盟,蒙二幼,,44,44,54,15,16,103,68,99,72,14,16,7,7,0.3,0.4
2023-10-31T23:00:00,2206A,105.724,38.8516,阿拉善盟,环保局新楼,,37,37,34,15,16,100,84,96,87,5,8,7,7,0.3,0.3
2023-10-31T23:00:00,2207A,121.6094,41.998,阜新市,工业园区,,47,47,96,10,32,111,42,96,51,26,39,133,33,0.4,0.9
2023-10-31T23:00:00,2208A,121.6697,42.0279,阜新市,长青街,,40,40,94,4,47,102,43,82,44,20,43,108,27,0.6,1.1
2023-10-31T23:00:00,2209A,121.6673,42.0705,阜新市,农业园区,,32,32,74,7,40,93,42,78,47,13,25,8,21,0.4,0.8
2023-10-31T23:00:00,2210A,121.6717,42.0224,阜新市,东苑,,43,43,96,2,39,97,44,78,42,21,45,23,27,0.4,0.9
2023-10-31T23:00:00,2211A,121.6506,42.0498,阜新市,玉龙新城,,40,40,91,2,30,113,47,91,50,24,38,10,22,0.7,1.1
2023-10-31T23:00:00,2212A,123.2,41.1953,辽阳市,宏伟区,,50,50,85,19,50,136,29,127,68,37,21,43,19,0.5,0.8
2023-10-31T23:00:00,2213A,123.1683,41.2495,辽阳市,新华园,,45,45,88,16,48,121,35,113,63,30,25,38,14,0.4,0.9
2023-10-31T23:00:00,2214A,123.2354,41.2639,辽阳市,滨河路,颗粒物(PM10),53,55,81,18,44,126,28,115,64,33,20,16,13,0.5,0.9
2023-10-31T23:00:00,2215A,123.149,41.2991,辽阳市,铁西工业园,,48,48,100,20,44,124,28,117,66,28,22,15,13,0.4,0.8
2023-10-31T23:00:00,2216A,123.8139,42.3022,铁岭市,汇工街西,颗粒物(PM10),56,61,66,14,82,110,15,84,44,50,37,10,24,0.4,0.7
2023-10-31T23:00:00,2217A,123.8649,42.2923,铁岭市,水上乐园,颗粒物(PM10),62,74,86,29,60,113,7,88,43,62,33,4,6,0.7,1
2023-10-31T23:00:00,2218A,123.8486,42.2867,铁岭市,银州路东段,颗粒物(PM10),52,53,94,23,55,123,19,94,44,56,37,5,6,0.6,0.8
2023-10-31T23:00:00,2219A,123.7153,42.2217,铁岭市,金沙江路北,颗粒物(PM10),58,66,74,21,51,117,40,94,57,29,35,8,10,0.3,0.7
2023-10-31T23:00:00,2220A,120.4318,41.5881,朝阳市,西梁,,43,43,82,30,49,100,44,84,57,15,30,11,15,0.7,1
2023-10-31T23:00:00,2221A,120.4521,41.5646,朝阳市,河畔小区,颗粒物(PM10),53,56,99,9,38,111,40,94,66,18,24,38,16,0.5,1
2023-10-31T23:00:00,2222A,120.4176,41.5648,朝阳市,八里堡,颗粒物(PM10),60,70,100,14,30,103,44,86,58,13,32,13,14,0.6,1
2023-10-31T23:00:00,2223A,120.3806,41.5969,朝阳市,农业园区,,50,50,76,7,37,109,36,96,56,22,31,17,12,0.7,0.9
2023-10-31T23:00:00,2225A,124.4002,43.1713,四平市,一商场,颗粒物(PM10),70,89,113,21,49,94,15,87,38,49,30,4,8,0.3,0.6
2023-10-31T23:00:00,2226A,124.388,43.193,四平市,境园,颗粒物(PM10),64,78,94,32,65,100,18,92,40,39,25,2,8,0.3,0.5
2023-10-31T23:00:00,2227A,125.1358,42.8845,辽源市,环保局,,37,37,129,15,106,115,20,102,53,30,35,6,15,0.7,1.2
2023-10-31T23:00:00,2229A,125.9358,41.7173,通化市,光明,颗粒物(PM10),56,62,45,36,25,131,56,126,88,24,25,6,6,0.6,0.6
2023-10-31T23:00:00,2230A,125.9446,41.7325,通化市,铁路,颗粒物(PM10),57,63,53,34,29,132,61,126,88,14,25,5,7,0.5,0.6
2023-10-31T23:00:00,2231A,126.4219,41.9171,白山市,喜丰,颗粒物(PM10),56,61,92,13,38,131,57,117,83,13,31,8,11,0.7,1
2023-10-31T23:00:00,2232A,126.4077,41.9419,白山市,环保局,颗粒物(PM10),55,60,83,26,48,121,48,112,81,6,24,7,13,0.7,1.1
2023-10-31T23:00:00,2233A,124.8006,45.1214,松原市,江南,细颗粒物(PM2.5),89,78,114,66,76,91,42,80,62,13,22,7,10,0.5,0.6
2023-10-31T23:00:00,2234A,124.7965,45.1722,松原市,江北,细颗粒物(PM2.5),102,84,101,76,74,82,43,76,60,15,23,3,7,0.5,0.5
2023-10-31T23:00:00,2235A,122.7911,45.6077,白城市,洮北区环保局,细颗粒物(PM2.5),99,70,45,74,30,78,55,61,,19,15,12,11,0.6,0.5
2023-10-31T23:00:00,2236A,122.8738,45.5725,白城市,市环保局,细颗粒物(PM2.5),100,97,69,75,35,82,35,76,64,33,16,5,6,0.5,0.4
2023-10-31T23:00:00,2237A,129.47,42.8883,延边朝鲜族自治州,妇幼医院,,18,18,79,9,46,97,31,76,67,22,41,6,11,0.6,0.9
2023-10-31T23:00:00,2238A,129.5055,42.9108,延边朝鲜族自治州,延边医院,,28,24,91,19,53,102,32,78,67,34,50,9,11,0.9,1.1
2023-10-31T23:00:00,2239A,129.3964,42.8881,延边朝鲜族自治州,朝阳川镇医院,,12,12,72,8,42,110,31,83,70,18,31,7,11,0.7,0.9
2023-10-31T23:00:00,2240A,130.9762,45.3001,鸡西市,环保局,细颗粒物(PM2.5),104,95,132,78,99,46,18,27,11,21,42,5,6,1.0,1.1
2023-10-31T23:00:00,2243A,130.9429,45.3039,鸡西市,第一中学,细颗粒物(PM2.5),97,70,109,72,94,84,26,26,22,25,33,8,8,0.5,0.6
2023-10-31T23:00:00,2244A,130.2537,47.3416,鹤岗市,哈啤分公司,,30,22,39,21,32,57,42,46,41,5,10,13,13,0.8,0.2
2023-10-31T23:00:00,2245A,130.2684,47.3086,鹤岗市,斯达机电,,30,29,50,21,35,60,43,40,40,7,18,8,9,0.4,0.5
2023-10-31T23:00:00,2246A,130.3114,47.3388,鹤岗市,东山纸板厂,,33,24,58,23,34,51,47,47,47,6,23,11,12,0.3,0.7
2023-10-31T23:00:00,2247A,130.1097,47.3382,鹤岗市,五号水库,,28,24,42,19,36,53,43,47,45,5,10,10,10,0.0,0.3
2023-10-31T23:00:00,2248A,131.1511,46.6937,双鸭山市,双合村,细颗粒物(PM2.5),85,90,100,63,58,54,49,41,34,7,20,8,12,0.6,0.9
2023-10-31T23:00:00,2249A,131.1652,46.6191,双鸭山市,南小市,细颗粒物(PM2.5),98,75,73,73,57,52,49,40,34,11,21,9,8,0.5,0.6
2023-10-31T23:00:00,2250A,131.1524,46.6554,双鸭山市,环保局,细颗粒物(PM2.5),115,91,86,87,59,55,47,37,31,12,24,6,10,0.5,0.7
2023-10-31T23:00:00,2251A,131.12,46.5656,双鸭山市,苗圃,细颗粒物(PM2.5),133,110,67,101,58,70,52,58,46,24,17,10,5,0.9,0.5
2023-10-31T23:00:00,2252A,128.5159,47.4311,伊春市,环保局,,23,23,48,14,55,45,44,38,37,5,18,3,5,0.4,0.5
2023-10-31T23:00:00,2253A,128.9102,47.7412,伊春市,电力嘉园,,26,21,56,18,39,41,41,33,33,3,17,4,5,0.2,0.4
2023-10-31T23:00:00,2254A,129.5029,48.471,伊春市,汤旺河国家公园,,20,11,27,14,16,48,47,46,46,3,5,4,4,0.2,0.2
2023-10-31T23:00:00,2255A,130.2751,46.8028,佳木斯市,佳纺,细颗粒物(PM2.5),70,49,68,51,52,39,29,34,33,19,31,2,3,0.5,0.6
2023-10-31T23:00:00,2256A,130.3995,46.8307,佳木斯市,发电厂,细颗粒物(PM2.5),52,45,62,36,36,44,33,39,38,9,19,6,8,0.4,0.5
2023-10-31T23:00:00,2257A,130.3258,46.7975,佳木斯市,环保局,细颗粒物(PM2.5),74,50,58,54,52,38,21,35,33,26,31,4,5,0.5,0.7
2023-10-31T23:00:00,2258A,130.3648,46.8032,佳木斯市,十一中,细颗粒物(PM2.5),69,50,63,50,51,44,26,38,37,26,30,5,5,0.5,0.5
2023-10-31T23:00:00,2259A,130.3794,46.7588,佳木斯市,四丰,细颗粒物(PM2.5),70,59,61,51,48,43,27,37,37,24,29,1,1,0.4,0.5
2023-10-31T23:00:00,2262A,131.0518,45.8751,七台河市,新一中,细颗粒物(PM2.5),62,46,101,44,87,97,39,58,38,15,24,7,10,0.8,0.9
2023-10-31T23:00:00,2263A,127.4833,50.2524,黑河市,交通局,,26,26,47,16,25,46,23,41,23,13,18,6,6,0.3,0.4
2023-10-31T23:00:00,2264A,127.5144,50.2341,黑河市,环保局,,38,36,36,26,23,46,13,40,20,27,19,8,6,0.6,0.5
2023-10-31T23:00:00,2265A,127.5291,50.2472,黑河市,大黑河岛,,,116,55,14,30,24,,,,2,2,1,2,,
2023-10-31T23:00:00,2266A,126.9785,46.6365,绥化市,人和东街,,26,23,248,18,218,64,25,34,26,14,41,2,6,0.5,1.3
2023-10-31T23:00:00,2267A,126.964,46.6528,绥化市,党政办公中心,,35,27,270,24,252,90,26,51,29,11,37,2,7,0.4,1.3
2023-10-31T23:00:00,2269A,124.1069,50.4097,大兴安岭地区,科技局,细颗粒物(PM2.5),118,101,71,89,60,71,40,58,47,14,13,8,7,0.5,0.5
2023-10-31T23:00:00,2270A,117.396,32.939,蚌埠市,工人疗养院,细颗粒物(PM2.5),68,80,88,49,50,174,123,159,143,26,23,15,9,1.0,0.7
2023-10-31T23:00:00,2271A,117.3605,32.9427,蚌埠市,百货大楼,颗粒物(PM10),70,89,91,44,49,175,122,160,140,26,25,6,10,0.7,0.7
2023-10-31T23:00:00,2273A,117.4185,32.8911,蚌埠市,蚌埠学院,颗粒物(PM10),62,73,84,42,51,178,128,165,146,21,22,8,8,0.7,0.6
2023-10-31T23:00:00,2274A,117.3533,32.9673,蚌埠市,淮上区政府,细颗粒物(PM2.5),74,85,93,54,62,174,124,159,138,18,18,10,13,0.7,0.7
2023-10-31T23:00:00,2275A,117.3145,32.8977,蚌埠市,高新区,细颗粒物(PM2.5),98,102,98,73,68,177,95,160,122,44,34,9,10,0.9,0.7
2023-10-31T23:00:00,2277A,116.8305,32.7727,淮南市,潘集区政府,颗粒物(PM10),73,95,104,43,58,155,89,145,116,39,35,8,10,0.4,0.5
2023-10-31T23:00:00,2278A,117.0067,32.6524,淮南市,师范学院,颗粒物(PM10),71,91,90,47,55,174,119,158,141,26,25,10,10,0.7,0.8
2023-10-31T23:00:00,2279A,116.8569,32.5951,淮南市,谢家集区政府,颗粒物(PM10),72,94,80,37,47,168,83,157,106,45,42,6,7,0.4,0.5
2023-10-31T23:00:00,2280A,116.8281,32.633,淮南市,八公山区政府,颗粒物(PM10),72,93,87,44,50,167,86,152,119,37,26,8,8,0.5,0.6
2023-10-31T23:00:00,2281A,116.6325,32.6201,淮南市,焦岗湖风景区管理处,颗粒物(PM10),55,60,67,31,40,146,85,133,105,23,24,2,2,0.4,0.4
2023-10-31T23:00:00,2282A,116.8004,33.975,淮北市,监测站,颗粒物(PM10),77,103,89,54,51,163,95,148,110,32,31,10,10,0.8,0.7
2023-10-31T23:00:00,2283A,116.8091,33.9007,淮北市,烈山区政府,细颗粒物(PM2.5),88,122,125,65,74,175,68,159,110,50,41,10,10,0.7,0.7
2023-10-31T23:00:00,2285A,117.8177,30.9412,铜陵市,市第四中学,细颗粒物(PM2.5),70,73,95,51,55,145,13,120,39,83,55,11,19,1.3,1.5
2023-10-31T23:00:00,2286A,117.8059,30.9273,铜陵市,市公路局,细颗粒物(PM2.5),58,54,79,41,45,142,44,118,84,45,37,16,22,1.1,1.5
2023-10-31T23:00:00,2287A,117.7807,30.9413,铜陵市,市新民污水厂,颗粒物(PM10),69,88,78,39,36,152,2,122,50,73,53,6,9,0.7,0.9
2023-10-31T23:00:00,2288A,117.7439,30.8792,铜陵市,市第九中学,颗粒物(PM10),104,157,100,46,40,130,25,108,82,91,54,7,6,0.6,1
2023-10-31T23:00:00,2289A,117.846,30.9413,铜陵市,车站新区,颗粒物(PM10),57,64,74,36,42,140,71,120,88,43,54,5,11,0.4,1
2023-10-31T23:00:00,2290A,117.8483,30.97,铜陵市,市职教基地,细颗粒物(PM2.5),77,93,77,56,47,130,35,111,76,45,37,20,22,0.9,1.1
2023-10-31T23:00:00,2291A,117.0809,30.5177,安庆市,环科院,细颗粒物(PM2.5),72,75,74,52,45,159,16,139,81,105,65,8,8,1.0,0.9
2023-10-31T23:00:00,2292A,117.0331,30.5119,安庆市,马山宾馆,细颗粒物(PM2.5),88,79,71,65,51,178,51,153,89,80,62,8,7,0.8,0.7
2023-10-31T23:00:00,2294A,116.9896,30.6145,安庆市,安庆大学,细颗粒物(PM2.5),70,73,68,51,48,175,49,142,85,54,43,7,7,0.9,0.9
2023-10-31T23:00:00,2295A,118.2903,29.6963,黄山市,延安路89号,,35,35,38,16,19,144,30,118,76,16,12,5,5,0.3,0.3
2023-10-31T23:00:00,2296A,118.327,29.7178,黄山市,黄山东路89号,,49,47,51,34,29,137,32,111,61,20,18,4,4,0.6,0.6
2023-10-31T23:00:00,2297A,118.1371,30.2756,黄山市,黄山区政府5号楼,细颗粒物(PM2.5),69,73,47,50,27,121,30,109,55,12,13,6,6,0.7,0.6
2023-10-31T23:00:00,2298A,118.3093,32.3153,滁州市,老年大学,细颗粒物(PM2.5),68,80,75,49,50,186,119,170,152,27,32,10,9,0.7,0.8
2023-10-31T23:00:00,2299A,118.3244,32.2786,滁州市,人大宾馆,细颗粒物(PM2.5),115,110,99,87,71,191,100,176,144,43,43,11,13,0.8,0.8
2023-10-31T23:00:00,2301A,115.8277,32.8929,阜阳市,市监测站,细颗粒物(PM2.5),77,76,82,56,57,159,146,151,139,21,24,9,8,0.9,0.7
2023-10-31T23:00:00,2303A,115.8554,32.8605,阜阳市,开发区,细颗粒物(PM2.5),78,81,96,57,61,163,135,155,132,22,27,8,9,0.8,0.8
2023-10-31T23:00:00,2307A,116.5079,31.737,六安市,监测大楼,颗粒物(PM10),58,65,61,37,37,148,93,142,118,30,29,5,5,0.3,0.4
2023-10-31T23:00:00,2308A,116.4738,31.7643,六安市,皖西学院,颗粒物(PM10),58,65,65,36,37,157,78,148,122,28,24,6,6,0.6,0.5
2023-10-31T23:00:00,2309A,116.4996,31.7905,六安市,朝阳厂,细颗粒物(PM2.5),60,46,58,43,41,154,109,145,129,17,22,6,6,0.5,0.6
2023-10-31T23:00:00,2310A,116.5567,31.7886,六安市,开发区,颗粒物(PM10),76,102,98,53,50,145,38,135,97,47,28,7,6,0.7,0.7
2023-10-31T23:00:00,2311A,115.8072,33.8399,亳州市,污水处理厂,颗粒物(PM10),66,81,72,40,38,146,118,134,119,21,26,18,18,0.9,0.7
2023-10-31T23:00:00,2312A,115.7789,33.8518,亳州市,三国揽胜宫,细颗粒物(PM2.5),72,79,64,52,39,152,117,141,129,22,21,12,19,0.6,0.3
2023-10-31T23:00:00,2314A,117.47,30.6618,池州市,池州学院,颗粒物(PM10),53,55,56,35,34,156,91,146,120,24,24,5,5,0.9,0.9
2023-10-31T23:00:00,2316A,118.7581,30.9454,宣城市,鳌峰子站,颗粒物(PM10),56,62,61,27,35,125,75,113,81,24,25,4,5,0.5,0.6
2023-10-31T23:00:00,2317A,118.7385,30.9743,宣城市,敬亭山子站,,39,39,46,26,29,122,82,109,,20,20,7,6,0.5,0.6
2023-10-31T23:00:00,2318A,118.7173,30.9427,宣城市,开发区子站,颗粒物(PM10),76,101,59,39,32,114,7,106,60,78,39,6,5,0.7,0.6
2023-10-31T23:00:00,2319A,119.0141,25.4325,莆田市,荔城区仓后路,,30,12,19,4,7,108,95,101,96,6,7,6,6,0.7,0.7
2023-10-31T23:00:00,2320A,119.0015,25.4553,莆田市,莆田市监测站,,33,15,16,4,5,111,104,106,105,3,4,7,8,0.5,0.5
2023-10-31T23:00:00,2321A,119.1119,25.4561,莆田市,涵江区六中,,30,16,25,8,6,109,96,104,103,5,4,7,7,0.5,0.5
2023-10-31T23:00:00,2322A,119.1013,25.3215,莆田市,秀屿区政府,,30,4,29,3,7,107,93,103,100,9,9,7,7,0.5,0.5
2023-10-31T23:00:00,2323A,118.981,25.4792,莆田市,东圳水库,,,,,,,,,,,,,,,,
2023-10-31T23:00:00,2324A,117.6211,26.2625,三明市,三钢,,39,30,34,27,24,119,26,104,62,37,26,7,8,0.4,0.5
2023-10-31T23:00:00,2325A,117.635,26.2714,三明市,三明二中,,40,40,31,26,22,114,26,103,70,34,22,4,5,0.6,0.5
2023-10-31T23:00:00,2326A,117.6028,26.2378,三明市,三元区政府,,48,48,39,27,23,119,4,106,54,57,29,6,7,1.2,0.8
2023-10-31T23:00:00,2327A,117.7275,26.3108,三明市,洋溪,,,,,,,,,,,,,,,,
2023-10-31T23:00:00,2331A,118.0966,26.6761,南平市,茫荡山,,,,,,,,,,,,,,,,
2023-10-31T23:00:00,2332A,118.1681,26.6369,南平市,南平市监测站,,48,26,30,33,27,118,31,97,58,25,20,4,5,0.7,0.7
2023-10-31T23:00:00,2333A,118.1825,26.6489,南平市,南平铝业有限公司,,39,39,34,25,23,114,13,96,52,39,23,7,7,0.8,0.8
2023-10-31T23:00:00,2334A,118.1756,26.6272,南平市,南平七中,,40,40,31,22,21,117,22,100,64,26,16,5,6,0.6,0.6
2023-10-31T23:00:00,2335A,117.0189,25.1181,龙岩市,龙岩师专,,,,,,,,,,,,,,,,
2023-10-31T23:00:00,2336A,117.0217,25.1033,龙岩市,龙岩市监测站,,35,35,31,21,20,115,30,107,61,36,21,9,8,0.7,0.6
2023-10-31T23:00:00,2337A,117.0258,25.0661,龙岩市,闽西职业技术学院,颗粒物(PM10),61,71,38,16,17,114,20,107,56,47,27,17,9,0.5,0.6
2023-10-31T23:00:00,2338A,117.0196,25.0306,龙岩市,龙岩学院,,27,27,27,16,16,111,34,101,67,18,15,6,6,0.5,0.6
2023-10-31T23:00:00,2339A,119.5001,26.6946,宁德市,金涵水库,,,,,,,,,,,,,,,,
2023-10-31T23:00:00,2341A,119.5388,26.6612,宁德市,宁德市监测站,,22,11,21,12,14,118,69,102,85,11,16,6,7,0.4,0.5
2023-10-31T23:00:00,2342A,117.3102,29.3867,景德镇市,王港中学,,35,35,36,24,22,147,27,122,66,2,4,2,2,0.1,0.2
2023-10-31T23:00:00,2343A,117.2117,29.2933,景德镇市,老干部活动中心,颗粒物(PM10),62,74,54,39,32,168,25,136,92,36,25,10,11,0.6,0.6
2023-10-31T23:00:00,2344A,117.1894,29.2789,景德镇市,兽医站,颗粒物(PM10),61,72,57,40,46,163,35,129,92,30,21,11,12,0.8,0.7
2023-10-31T23:00:00,2345A,117.1547,29.2617,景德镇市,台达陶瓷,细颗粒物(PM2.5),58,64,58,41,39,143,26,114,66,41,30,10,22,0.9,0.7
2023-10-31T23:00:00,2346A,117.2461,29.2956,景德镇市,陶研所,颗粒物(PM10),62,74,64,32,27,129,19,107,66,44,26,4,5,0.5,0.6
2023-10-31T23:00:00,2347A,114.0997,27.5002,萍乡市,武功山,,46,22,21,32,20,142,60,116,93,6,6,6,6,0.4,0.4
2023-10-31T23:00:00,2348A,113.8385,27.6434,萍乡市,中医院,细颗粒物(PM2.5),59,57,61,42,41,134,28,124,81,54,27,14,17,1.0,1
2023-10-31T23:00:00,2349A,113.8493,27.6253,萍乡市,市政府车库,细颗粒物(PM2.5),78,69,64,57,45,138,40,126,81,27,22,12,17,0.7,1.2
2023-10-31T23:00:00,2350A,113.8676,27.6435,萍乡市,市环保局,细颗粒物(PM2.5),62,59,59,44,43,140,54,130,97,35,23,12,17,0.8,0.9
2023-10-31T23:00:00,2351A,113.866,27.6198,萍乡市,安源区政府,细颗粒物(PM2.5),64,62,58,46,40,142,44,130,87,25,22,19,14,0.7,1.1
2023-10-31T23:00:00,2352A,115.0861,27.9317,新余市,北岗,细颗粒物(PM2.5),59,40,50,42,39,156,46,138,92,14,13,12,17,0.5,0.6
2023-10-31T23:00:00,2353A,114.9886,27.8431,新余市,飞宇,颗粒物(PM10),64,77,76,41,47,148,42,132,89,43,31,11,16,0.7,0.6
2023-10-31T23:00:00,2354A,114.9231,27.8246,新余市,第二水厂,颗粒物(PM10),67,83,71,46,45,159,13,148,76,93,44,10,11,0.9,0.8
2023-10-31T23:00:00,2355A,114.9308,27.8036,新余市,市气象局,颗粒物(PM10),72,94,75,49,48,151,8,135,72,76,38,7,9,0.9,0.8
2023-10-31T23:00:00,2357A,116.9822,28.1136,鹰潭市,龙虎山,,36,36,41,8,10,157,66,138,110,3,4,5,6,0,0
2023-10-31T23:00:00,2358A,117.0564,28.2642,鹰潭市,新监测站,颗粒物(PM10),57,63,60,35,38,178,47,146,102,30,22,6,23,0.4,0.5
2023-10-31T23:00:00,2359A,117.0311,28.2475,鹰潭市,财苑宾馆,细颗粒物(PM2.5),53,54,61,37,43,159,43,138,94,45,29,13,29,0.4,0.5
2023-10-31T23:00:00,2360A,117.0222,28.2264,鹰潭市,体育馆,颗粒物(PM10),52,53,63,34,41,177,35,146,80,44,23,16,27,0.4,0.4
2023-10-31T23:00:00,2361A,117.0017,28.2131,鹰潭市,三川水表,,,35,54,26,33,169,58,136,88,,11,4,7,0.5,0.5
2023-10-31T23:00:00,2362A,114.9017,25.9149,赣州市,通天岩,,,,,,,,,,,,,,,,
2023-10-31T23:00:00,2363A,114.9367,25.8664,赣州市,地委,颗粒物(PM10),71,92,62,29,33,126,4,113,58,62,22,11,12,1.1,1
2023-10-31T23:00:00,2364A,114.9461,25.8481,赣州市,气象台,颗粒物(PM10),58,66,49,34,32,127,1,112,51,83,40,13,16,0.9,0.8
2023-10-31T23:00:00,2365A,114.9322,25.8333,赣州市,市图书馆,颗粒物(PM10),60,70,57,28,32,122,11,111,65,59,27,12,16,0.9,0.9
2023-10-31T23:00:00,2366A,114.8905,25.8471,赣州市,华坚鞋城,颗粒物(PM10),61,72,53,36,35,126,33,104,65,38,26,12,16,1.5,1
2023-10-31T23:00:00,2367A,114.9754,27.0803,吉安市,红声器材厂,细颗粒物(PM2.5),79,85,65,58,42,156,29,135,86,51,27,12,11,1.0,1
2023-10-31T23:00:00,2368A,114.9658,27.0999,吉安市,市森林工业局,细颗粒物(PM2.5),63,64,59,45,40,161,6,136,85,78,25,10,14,0.8,0.5
2023-10-31T23:00:00,2369A,114.99,27.1312,吉安市,市环境监测站,"颗粒物(PM10),细颗粒物(PM2.5)",62,74,61,44,38,148,11,118,82,70,28,8,10,0.9,0.7
2023-10-31T23:00:00,2370A,115.0093,27.0968,吉安市,青原区法院,细颗粒物(PM2.5),78,90,65,57,45,154,10,129,66,54,33,10,12,0.9,0.9
2023-10-31T23:00:00,2371A,114.3408,27.8064,宜春市,槟榔水业,颗粒物(PM10),57,63,53,37,33,171,62,153,106,25,20,2,3,0.6,0.6
2023-10-31T23:00:00,2373A,114.3956,27.7844,宜春市,市石油公司,颗粒物(PM10),66,81,69,41,40,149,48,126,59,30,29,4,5,0.7,0.8
2023-10-31T23:00:00,2374A,114.3703,27.7914,宜春市,市气象局,,,53,57,,36,153,74,131,99,16,21,3,5,0.7,0.8
2023-10-31T23:00:00,2375A,114.4013,27.8074,宜春市,市广电局,颗粒物(PM10),71,92,67,46,40,154,62,138,90,29,28,4,6,1.0,1.1
2023-10-31T23:00:00,2376A,116.2127,28.0814,抚州市,桐源党溪,颗粒物(PM10),53,55,57,35,37,155,36,134,74,16,14,3,4,0.7,0.8
2023-10-31T23:00:00,2377A,116.3544,27.9831,抚州市,市站,细颗粒物(PM2.5),67,81,71,48,45,155,43,140,98,54,28,9,9,1.0,1
2023-10-31T23:00:00,2378A,116.3565,27.963,抚州市,血防站,颗粒物(PM10),69,88,73,46,46,155,29,122,98,55,27,5,4,1.3,0.9
2023-10-31T23:00:00,2379A,116.3564,28.0007,抚州市,采茶剧团,细颗粒物(PM2.5),75,91,72,55,47,144,36,130,87,55,31,7,7,1.1,1.1
2023-10-31T23:00:00,2380A,116.385,27.9647,抚州市,医学分院,颗粒物(PM10),72,94,74,48,42,163,5,147,101,82,31,5,8,1.2,1.1
2023-10-31T23:00:00,2381A,118.005,28.4572,上饶市,百草园,,,47,54,23,29,148,32,137,106,42,19,12,29,,
2023-10-31T23:00:00,2382A,117.9756,28.4436,上饶市,市监测站,颗粒物(PM10),52,54,62,26,36,168,53,145,112,39,27,9,40,0.6,0.7
2023-10-31T23:00:00,2383A,117.9519,28.4628,上饶市,凤凰光学,颗粒物(PM10),58,66,64,34,34,161,57,135,92,40,40,24,26,0.5,0.5
2023-10-31T23:00:00,2385A,114.17,35.9019,鹤壁市,市监测站,细颗粒物(PM2.5),109,148,146,82,100,172,52,135,91,46,43,12,13,1.0,0.9
2023-10-31T23:00:00,2386A,114.2956,35.7511,鹤壁市,市交警支队,颗粒物(PM10),72,94,151,50,99,176,57,138,100,60,60,3,5,0.6,1
