timepoint,stationcode,longitude,latitude,area,positionname,primarypollutant,aqi,pm10,pm10_24h,pm2_5,pm2_5_24h,o3,o3_24h,o3_8h,o3_8h_24h,no2,no2_24h,so2,so2_24h,co,co_24h
2025-04-28T2200,2566A,102.1879,31.914,阿坝藏族羌族自治州,州农科所,,21,21,24,11,10,56,,84,76,6,8,10,13,0.5,0.5
2025-04-28T2200,2568A,102.2502,31.8896,阿坝藏族羌族自治州,马师校,,18,12,17,12,13,57,,100,90,13,11,5,5,0.6,0.5
2025-04-28T2200,3994A,102.2165,31.9024,阿坝藏族羌族自治州,马尔康中学西区,,23,21,16,14,12,72,,111,103,4,5,4,4,0.4,0.3
2025-04-28T2200,2695A,80.292,41.1694,阿克苏地区,电视台,颗粒物(PM10),148,245,313,68,71,92,,120,118,22,10,10,8,0.6,0.5
2025-04-28T2200,2696A,80.2613,41.1551,阿克苏地区,艺术中心,颗粒物(PM10),178,306,363,92,83,88,,121,118,22,24,3,4,0.5,0.5
2025-04-28T2200,2204A,105.6467,38.8363,阿拉善盟,西城区西花园,颗粒物(PM10),58,65,30,12,7,69,,126,116,37,12,5,7,0.8,0.6
2025-04-28T2200,2205A,105.6985,38.8411,阿拉善盟,蒙二幼,,26,18,23,8,7,83,,108,104,10,9,6,8,0.6,0.6
2025-04-28T2200,2206A,105.724,38.8516,阿拉善盟,环保局新楼,,33,9,18,3,8,105,,114,111,4,4,7,8,0.5,0.5
2025-04-28T2200,2708A,88.1264,47.8517,阿勒泰地区,市站,,32,29,26,3,6,102,,103,102,3,8,3,3,0.5,0.4
2025-04-28T2200,2630A,80.1161,32.5,阿里地区,阿里监测站,,35,16,15,6,7,109,,120,118,10,6,18,6,0.4,0.4
2025-04-28T2200,3192A,80.0903,32.5028,阿里地区,阿里藏医院,,36,29,20,8,7,115,,130,128,11,2,6,5,0.4,0.3
2025-04-28T2200,2642A,109.0318,32.6537,安康市,香溪洞,,37,37,38,8,18,112,,125,124,5,8,7,9,0.4,0.6
2025-04-28T2200,2644A,109.0072,32.6975,安康市,汉滨区检察院,,48,48,39,14,17,77,,121,112,14,10,7,11,0.4,0.4
2025-04-28T2200,4054A,109.0325,32.6913,安康市,市邮政管理局,颗粒物(PM10),52,53,43,24,20,64,,118,105,21,11,19,15,0.5,0.4
2025-04-28T2200,2291A,117.0809,30.5177,安庆市,环科院,颗粒物(PM10),64,77,49,38,30,113,,160,142,48,30,2,2,0.8,0.8
2025-04-28T2200,2292A,117.0331,30.5119,安庆市,马山宾馆,颗粒物(PM10),66,81,47,40,30,139,,163,154,21,24,6,4,0.8,0.8
2025-04-28T2200,2294A,116.9896,30.6145,安庆市,安庆大学,颗粒物(PM10),60,69,50,41,31,88,,158,126,27,20,3,4,0.6,0.6
2025-04-28T2200,3173A,117.0598,30.5351,安庆市,市人大,颗粒物(PM10),69,87,52,42,31,128,,169,152,26,24,8,7,0.6,0.5
2025-04-28T2200,3122A,105.9606,26.2611,安顺市,伍家关,颗粒物(PM10),89,128,23,42,11,74,,122,116,29,9,11,4,0.5,0.4
2025-04-28T2200,3123A,105.9408,26.2431,安顺市,凤凰山,,46,33,20,32,14,92,,117,114,17,7,18,7,0.8,0.5
2025-04-28T2200,3124A,105.9439,26.2564,安顺市,金钟山,,36,26,17,25,14,99,,117,116,12,7,20,6,0.5,0.5
2025-04-28T2200,3125A,105.8983,26.2481,安顺市,娄家坡,,40,33,21,28,15,99,,115,114,16,9,16,8,0.7,0.5
2025-04-28T2200,1818A,114.4839,36.0621,安阳市,棉研所,,,,,,,,,,,,,,,,
2025-04-28T2200,1819A,114.3551,36.1017,安阳市,红庙街,颗粒物(PM10),60,69,79,19,29,122,,142,140,8,12,4,7,0.4,0.6
2025-04-28T2200,1820A,114.361,36.0681,安阳市,银杏小区,颗粒物(PM10),60,69,75,20,22,129,,153,151,10,16,7,7,0.3,0.5
2025-04-28T2200,3141A,114.3922,36.0878,安阳市,信访局,颗粒物(PM10),61,72,89,12,14,130,,157,153,18,16,5,6,0.2,0.4
2025-04-28T2200,3669A,114.4705,36.0637,安阳市,左辅环卫站,颗粒物(PM10),56,62,73,20,22,105,,151,144,24,25,5,6,0.5,0.6
2025-04-28T2200,3703A,114.2917,36.0949,安阳市,安钢职工学校,颗粒物(PM10),60,69,114,22,24,112,,134,133,15,18,2,4,0.4,0.5
2025-04-28T2200,1748A,123.044,41.1196,鞍山市,深沟寺,细颗粒物(PM2.5),57,47,58,40,33,95,,112,104,14,15,6,8,0.5,0.6
2025-04-28T2200,1749A,123.011,41.0931,鞍山市,太阳城,颗粒物(PM10),54,57,62,34,30,76,,104,95,18,12,6,8,0.7,0.7
2025-04-28T2200,1750A,123.0485,41.1442,鞍山市,太平,颗粒物(PM10),61,71,82,38,36,78,,100,91,22,16,9,12,0.7,0.7
2025-04-28T2200,1751A,122.9642,41.0971,鞍山市,铁西三道街,颗粒物(PM10),65,79,69,43,34,54,,108,95,55,25,4,14,0.6,1.2
2025-04-28T2200,1753A,123.022,41.0821,鞍山市,明达新区,颗粒物(PM10),51,52,63,28,27,69,,110,100,16,13,6,8,0.3,0.3
2025-04-28T2200,1754A,123.1289,41.0228,鞍山市,千山,,,,56,,20,,,95,,,13,,5,,0.5
2025-04-28T2200,4201A,122.9446,41.0826,鞍山市,兴盛南路290号,颗粒物(PM10),75,99,73,54,33,49,,106,89,54,32,10,17,0.9,1
2025-04-28T2200,2195A,107.4212,40.761,巴彦淖尔市,附二中,,41,41,51,24,16,94,,111,108,12,8,3,4,0.5,0.4
2025-04-28T2200,2196A,107.37,40.7372,巴彦淖尔市,市环保大楼,,47,47,46,18,17,83,,110,105,16,11,4,4,0.3,0.3
2025-04-28T2200,1956A,86.1472,41.7538,巴音郭楞蒙古自治州,孔雀公园,颗粒物(PM10),160,270,146,54,33,78,,108,103,18,14,6,6,0.2,0.2
2025-04-28T2200,1957A,86.1972,41.7166,巴音郭楞蒙古自治州,棉纺厂,颗粒物(PM10),190,329,168,59,32,75,,108,102,20,21,2,4,0.3,0.3
2025-04-28T2200,1958A,86.2357,41.7173,巴音郭楞蒙古自治州,经济开发区,颗粒物(PM10),149,247,142,51,25,79,,109,104,19,12,6,7,0.3,0.3
2025-04-28T2200,2914A,106.7677,31.8794,巴中市,苏山坪,颗粒物(PM10),51,52,35,21,14,124,,129,129,12,9,10,4,0.6,0.6
2025-04-28T2200,3181A,106.7768,31.8526,巴中市,市五中,颗粒物(PM10),63,76,47,37,24,54,,122,106,32,19,6,6,0.5,0.5
2025-04-28T2200,3183A,106.7418,31.8654,巴中市,圣泉水务公司,颗粒物(PM10),63,75,40,35,18,21,,126,96,71,23,6,6,0.6,0.5
2025-04-28T2200,3616A,106.7616,31.8344,巴中市,市中心医院,颗粒物(PM10),63,76,42,37,25,43,,125,110,40,21,4,4,0.6,0.6
2025-04-28T2200,2235A,122.7911,45.6077,白城市,洮北区环保局,,30,30,31,11,16,77,,93,89,9,9,3,3,0.4,0.5
2025-04-28T2200,2236A,122.8738,45.5725,白城市,市环保局,,29,29,28,18,19,70,,96,87,8,7,4,3,0.4,0.4
2025-04-28T2200,2231A,126.4219,41.9171,白山市,喜丰,细颗粒物(PM2.5),89,121,56,66,36,50,,109,93,44,21,13,11,1.0,0.8
2025-04-28T2200,2232A,126.4077,41.9419,白山市,环保局,细颗粒物(PM2.5),77,96,49,56,28,55,,99,89,25,14,11,10,0.7,0.6
2025-04-28T2200,2647A,104.1724,36.5446,白银市,第三小学,颗粒物(PM10),76,101,41,28,16,99,,117,115,13,9,26,17,0.5,0.6
2025-04-28T2200,2648A,104.1465,36.5482,白银市,动力公司,颗粒物(PM10),53,55,38,23,14,99,,120,118,14,11,6,15,0.5,0.7
2025-04-28T2200,2512A,106.6103,23.9011,百色市,市监测站,,38,38,23,22,13,55,,100,94,25,10,6,4,0.8,0.7
2025-04-28T2200,2513A,106.6538,23.8859,百色市,市中心血站,,42,42,27,21,13,65,,103,96,29,13,9,7,0.9,0.8
2025-04-28T2200,3406A,106.6085,23.8798,百色市,祈福高中,颗粒物(PM10),69,88,29,26,14,18,,98,89,67,12,6,6,0.8,0.7
2025-04-28T2200,2270A,117.396,32.939,蚌埠市,工人疗养院,颗粒物(PM10),57,64,92,25,39,102,,163,135,32,20,6,6,0.6,0.6
2025-04-28T2200,2271A,117.3605,32.9427,蚌埠市,百货大楼,颗粒物(PM10),58,65,91,25,43,94,,163,134,36,24,8,7,0.5,0.6
2025-04-28T2200,2273A,117.4185,32.8911,蚌埠市,蚌埠学院,颗粒物(PM10),54,58,76,26,42,102,,162,129,25,23,5,6,0.6,0.6
2025-04-28T2200,2274A,117.3533,32.9673,蚌埠市,淮上区政府,颗粒物(PM10),59,68,84,25,43,86,,163,130,42,27,7,6,0.4,0.5
2025-04-28T2200,2275A,117.3145,32.8977,蚌埠市,高新区,颗粒物(PM10),52,53,75,26,42,90,,161,131,28,23,6,8,0.4,0.5
2025-04-28T2200,3715A,117.3092,32.9314,蚌埠市,蚌埠田家炳中学,颗粒物(PM10),57,64,96,28,39,96,,170,138,32,26,7,8,0.4,0.4
2025-04-28T2200,1585A,109.8756,40.6532,包头市,市环境监测站,颗粒物(PM10),54,57,45,21,33,46,,102,89,57,29,32,16,2.5,0.8
2025-04-28T2200,1587A,109.9991,40.5842,包头市,包头八中,颗粒物(PM10),57,64,55,20,24,74,,107,96,30,40,25,29,0.8,0.7
2025-04-28T2200,1588A,109.8538,40.6821,包头市,青山宾馆,,50,50,35,28,26,59,,99,92,31,26,10,14,0.5,0.7
2025-04-28T2200,1589A,109.8642,40.6288,包头市,惠龙物流,,36,36,42,19,21,62,,105,94,40,31,35,22,1.4,0.9
2025-04-28T2200,1590A,110.0377,40.5546,包头市,东河鸿龙湾,,42,42,43,15,15,84,,105,98,16,30,10,19,0.6,0.6
2025-04-28T2200,3283A,109.9154,40.5685,包头市,滨河大厦,,42,42,49,17,20,83,,104,98,16,25,15,26,0.5,0.7
2025-04-28T2200,3419A,109.9447,40.6261,包头市,包头市委党校,,47,47,45,22,18,68,,109,99,31,35,24,24,1.3,0.9
2025-04-28T2200,3683A,109.8331,40.6576,包头市,昆区政府,颗粒物(PM10),51,52,40,30,20,28,,95,82,80,33,46,20,3.0,1.1
2025-04-28T2200,1930A,107.185,34.3063,宝鸡市,庙沟村,,31,24,35,17,22,99,,130,124,19,8,8,7,0.4,0.4
2025-04-28T2200,1931A,107.0708,34.3017,宝鸡市,竹园沟,,33,33,41,17,13,76,,128,115,18,10,8,8,0.3,0.3
2025-04-28T2200,1932A,107.1906,34.3672,宝鸡市,三陆医院,,49,49,45,25,21,74,,129,119,45,22,6,7,0.6,0.4
2025-04-28T2200,1933A,107.1431,34.3547,宝鸡市,监测站,,49,45,46,34,16,57,,119,107,30,13,4,6,0.3,0.3
2025-04-28T2200,1934A,107.1186,34.3739,宝鸡市,技工学校,,49,47,45,34,20,78,,123,112,22,13,8,8,0.5,0.4
2025-04-28T2200,1935A,107.3906,34.3528,宝鸡市,陈仓区环保局家属楼,颗粒物(PM10),56,61,50,20,16,73,,126,114,41,22,8,8,0.5,0.4
2025-04-28T2200,1936A,107.2058,34.3497,宝鸡市,文理学院,颗粒物(PM10),52,54,43,20,16,69,,129,116,31,15,6,7,0.4,0.4
2025-04-28T2200,1937A,107.2386,34.3622,宝鸡市,三迪小学,颗粒物(PM10),52,54,50,20,18,80,,124,114,34,18,6,6,0.5,0.4
2025-04-28T2200,1051A,115.493,38.8632,保定市,游泳馆,颗粒物(PM10),73,95,82,44,31,61,,141,130,60,30,6,5,0.2,0.2
2025-04-28T2200,1052A,115.5213,38.8959,保定市,华电二区,颗粒物(PM10),67,83,61,43,31,77,,145,137,41,20,3,3,0.4,0.4
2025-04-28T2200,1053A,115.4713,38.9108,保定市,接待中心,颗粒物(PM10),64,78,68,38,36,90,,149,144,33,18,4,3,0.8,0.6
2025-04-28T2200,1054A,115.4612,38.8416,保定市,地表水厂,颗粒物(PM10),80,109,86,40,29,67,,144,134,57,30,5,5,0.4,0.3
2025-04-28T2200,3581A,115.31981,38.95208,保定市,满城区生态环境分局,颗粒物(PM10),60,70,73,36,33,80,,144,138,38,19,4,4,0.5,0.3
2025-04-28T2200,3582A,115.47694,38.76408,保定市,清苑区第二中学,颗粒物(PM10),91,132,103,37,29,79,,145,136,41,24,6,6,0.4,0.3
2025-04-28T2200,3583A,115.62909,39.02311,保定市,徐水物探局,颗粒物(PM10),77,104,89,34,25,100,,146,142,31,24,3,2,0.2,0.2
2025-04-28T2200,4004A,115.4202,38.8656,保定市,双鹰农机,细颗粒物(PM2.5),70,85,67,51,28,69,,141,132,43,27,7,8,0.4,0.2
2025-04-28T2200,4034A,115.5150,38.8590,保定市,植保所站,颗粒物(PM10),87,123,85,49,32,66,,137,126,53,23,2,2,0.6,0.5
2025-04-28T2200,2594A,99.1678,25.1081,保山市,市环境监测站,颗粒物(PM10),60,70,70,34,38,119,,142,136,7,11,10,10,0.5,0.5
2025-04-28T2200,2595A,99.1711,25.1328,保山市,市环保局,颗粒物(PM10),61,71,70,37,34,130,,156,149,5,7,9,10,0.4,0.5
2025-04-28T2200,1866A,109.2262,21.588,北海市,牛尾岭水库,,,,21,20,13,60,,76,74,,,8,7,1.0,1
2025-04-28T2200,1867A,109.1436,21.4086,北海市,海滩公园,,25,22,31,15,15,79,,101,101,11,14,5,6,0.7,0.6
2025-04-28T2200,1868A,109.0981,21.4661,北海市,新市环保局,,25,25,27,17,16,69,,96,94,16,15,4,5,0.7,0.6
2025-04-28T2200,1869A,109.1778,21.5233,北海市,北海工业园,,32,22,32,22,20,56,,93,90,24,17,9,10,0.9,0.7
2025-04-28T2200,3400A,109.1911,21.4415,北海市,龙潭自来水厂,,29,22,28,20,21,66,,95,94,14,15,7,8,0.7,0.5
2025-04-28T2200,1001A,116.3621,39.8784,北京市,万寿西宫,颗粒物(PM10),59,67,64,20,24,71,,138,128,35,28,8,8,1.0,0.6
2025-04-28T2200,1002A,116.2202,40.2915,北京市,定陵,,,,,,,,,,,,,,,,
2025-04-28T2200,1003A,116.4174,39.9289,北京市,东四,颗粒物(PM10),61,72,75,20,21,80,,128,120,28,28,5,4,0.7,0.5
2025-04-28T2200,1004A,116.4072,39.8863,北京市,天坛,颗粒物(PM10),53,55,67,23,28,74,,132,120,35,24,4,5,0.9,0.6
2025-04-28T2200,1005A,116.462,39.9365,北京市,农展馆,颗粒物(PM10),61,71,69,19,20,78,,133,122,32,32,10,9,0.7,0.5
2025-04-28T2200,1006A,116.3392,39.9295,北京市,官园,颗粒物(PM10),68,86,79,31,30,65,,111,106,29,29,6,6,0.6,0.4
2025-04-28T2200,1007A,116.2878,39.9611,北京市,海淀万柳,颗粒物(PM10),59,68,70,21,22,76,,124,119,26,28,6,6,0.5,0.5
2025-04-28T2200,1008A,116.6636,40.135,北京市,顺义新城,颗粒物(PM10),61,71,66,22,18,66,,107,93,21,25,7,8,0.5,0.5
2025-04-28T2200,1009A,116.6275,40.3275,北京市,怀柔镇,颗粒物(PM10),65,80,54,31,21,68,,107,96,22,20,5,4,0.4,0.4
2025-04-28T2200,1010A,116.2296,40.217,北京市,昌平镇,颗粒物(PM10),61,72,53,20,14,64,,119,111,23,33,4,3,0.2,0.2
2025-04-28T2200,1011A,116.3966,39.9821,北京市,奥体中心,颗粒物(PM10),54,58,55,20,18,70,,122,114,36,36,5,5,0.5,0.3
2025-04-28T2200,3281A,115.9718,40.4529,北京市,延庆夏都,颗粒物(PM10),74,97,36,36,15,109,,122,122,25,18,5,4,0.6,0.4
2025-04-28T2200,3418A,116.8336,40.4095,北京市,密云新城,颗粒物(PM10),69,87,52,29,17,61,,102,93,21,12,5,5,0.4,0.4
2025-04-28T2200,3671A,116.088,39.9726,北京市,门头沟三家店,,,,67,,19,,,33,,,48,,3,,0.2
2025-04-28T2200,3672A,116.1541,39.8204,北京市,丰台云岗,颗粒物(PM10),70,89,88,35,31,88,,136,130,24,33,6,4,0.4,0.3
2025-04-28T2200,3673A,116.6804,39.9081,北京市,通州东关,颗粒物(PM10),65,80,88,32,34,58,,107,94,35,33,5,8,0.4,0.7
2025-04-28T2200,3674A,115.9577,39.7603,北京市,房山燕山,颗粒物(PM10),83,115,56,39,21,62,,126,120,54,19,7,6,0.5,0.3
2025-04-28T2200,3675A,116.4672,39.7733,北京市,大兴旧宫,颗粒物(PM10),59,67,80,21,22,65,,122,113,30,23,1,3,0.6,0.3
2025-04-28T2200,3694A,115.986,40.4563,北京市,延庆石河营,颗粒物(PM10),68,86,38,29,13,98,,116,116,19,17,4,3,0.5,0.4
2025-04-28T2200,3695A,116.6151,40.3053,北京市,怀柔新城,"颗粒物(PM10),细颗粒物(PM2.5)",58,65,44,41,21,70,,101,96,19,15,5,3,0.4,0.5
2025-04-28T2200,3696A,116.2545,39.8768,北京市,丰台小屯,颗粒物(PM10),55,60,57,27,21,89,,120,116,24,34,4,3,0.4,0.3
2025-04-28T2200,3697A,116.84,40.3844,北京市,密云镇,颗粒物(PM10),62,74,41,16,15,57,,104,94,26,23,7,7,0.4,0.4
2025-04-28T2200,4182A,116.1942,39.9158,北京市,八角北路9号,颗粒物(PM10),71,92,93,28,29,84,,131,125,35,42,6,5,0.5,0.4
2025-04-28T2200,4194A,117.0790,40.1518,北京市,洳河巡河路,颗粒物(PM10),51,52,46,21,20,73,,100,90,16,20,4,5,0.5,0.5
2025-04-28T2200,1761A,123.8275,41.3064,本溪市,大峪,细颗粒物(PM2.5),67,80,62,48,36,49,,122,105,43,15,6,7,0.7,0.7
2025-04-28T2200,1762A,123.7567,41.3325,本溪市,溪湖,细颗粒物(PM2.5),79,81,66,58,39,58,,119,103,34,14,6,7,0.7,0.6
2025-04-28T2200,1763A,123.7169,41.3094,本溪市,彩屯,细颗粒物(PM2.5),75,80,64,55,36,58,,120,97,36,18,8,9,0.7,0.7
2025-04-28T2200,1764A,123.7669,41.2864,本溪市,东明,细颗粒物(PM2.5),82,81,68,60,37,54,,122,107,46,19,6,8,0.8,0.8
2025-04-28T2200,1765A,123.7992,41.2664,本溪市,新立屯,细颗粒物(PM2.5),57,61,60,40,39,51,,123,94,62,27,6,7,0.8,0.9
2025-04-28T2200,1766A,123.8142,41.3472,本溪市,威宁,颗粒物(PM10),78,106,86,52,38,48,,117,91,40,21,5,6,0.8,0.7
2025-04-28T2200,2587A,105.2864,27.3125,毕节市,八中,细颗粒物(PM2.5),62,57,22,44,17,46,,103,87,26,9,5,5,0.8,0.6
2025-04-28T2200,2588A,105.31,27.2944,毕节市,师专,细颗粒物(PM2.5),72,55,22,52,20,49,,102,90,25,9,7,7,0.7,0.5
2025-04-28T2200,4263A,105.3688,27.3598,毕节市,工业大道,,38,38,24,26,16,38,,102,86,34,13,7,6,0.7,0.6
2025-04-28T2200,1629A,118.0018,37.3617,滨州市,第二水厂,颗粒物(PM10),52,53,61,14,26,69,,136,116,27,19,11,11,0.6,0.6
2025-04-28T2200,1630A,117.9776,37.393,滨州市,北中新校,,48,48,51,12,25,85,,144,128,28,24,10,11,0.6,0.6
2025-04-28T2200,3514A,117.9378,37.3956,滨州市,中海酒店,,39,39,44,19,31,87,,142,131,24,23,10,10,0.6,0.6
2025-04-28T2200,3515A,117.9378,37.3553,滨州市,开发区一中,颗粒物(PM10),52,53,57,14,26,67,,136,122,35,27,6,7,0.4,0.5
2025-04-28T2200,3516A,118.0917,37.694,滨州市,金海六路,,39,39,53,9,17,74,,146,122,22,26,8,15,0.2,0.2
2025-04-28T2200,4028A,117.9956,37.3753,滨州市,滨州市西街道办事处,,48,48,55,22,30,71,,152,130,31,20,9,10,0.5,0.6
2025-04-28T2200,2311A,115.8072,33.8399,亳州市,污水处理厂,,47,47,44,12,16,87,,136,128,22,13,2,2,0.3,0.2
2025-04-28T2200,2312A,115.7789,33.8518,亳州市,三国揽胜宫,,35,35,48,3,15,108,,141,135,17,12,4,4,0.2,0.3
2025-04-28T2200,3332A,115.7633,33.8034,亳州市,亳州学院,颗粒物(PM10),54,58,39,9,16,109,,147,137,24,13,1,2,0.3,0.3
2025-04-28T2200,2693A,82.0485,44.8556,博尔塔拉蒙古自治州,市党校,颗粒物(PM10),54,58,43,22,17,111,,112,109,60,39,4,4,0.6,0.7
2025-04-28T2200,2694A,82.0806,44.8969,博尔塔拉蒙古自治州,市环保局,颗粒物(PM10),72,94,58,20,15,89,,113,107,30,21,1,3,0.6,0.6
2025-04-28T2200,1071A,116.8842,38.2991,沧州市,沧县城建局,颗粒物(PM10),67,84,67,47,30,66,,140,126,45,27,9,6,0.4,0.3
2025-04-28T2200,1072A,116.8584,38.3254,沧州市,电视转播站,颗粒物(PM10),68,85,60,36,31,65,,137,127,44,25,8,7,0.4,0.2
2025-04-28T2200,1073A,116.8709,38.3228,沧州市,市环保局,颗粒物(PM10),72,94,70,39,32,70,,136,118,44,22,10,7,0.5,0.4
2025-04-28T2200,3324A,116.8136,38.3004,沧州市,河北水利电力学院,颗粒物(PM10),65,80,64,34,27,88,,146,137,34,27,13,9,0.5,0.3
2025-04-28T2200,2622A,97.1806,31.1273,昌都市,昌都监测站,,39,,6,7,7,123,,127,119,3,3,3,3,0.4,0.4
2025-04-28T2200,3719A,97.1714,31.1406,昌都市,昌都会议中心,,39,,11,9,8,124,,125,123,4,4,4,3,0.2,0.2
2025-04-28T2200,2690A,88.1236,43.8886,昌吉回族自治州,天山天池,,24,24,14,9,7,73,,117,98,5,5,5,5,0.5,0.5
2025-04-28T2200,2692A,87.2717,44.0297,昌吉回族自治州,新区政务中心,,40,40,33,17,9,68,,136,125,52,19,6,7,0.5,0.3
2025-04-28T2200,3613A,87.3095,44.0142,昌吉回族自治州,亚心广场,颗粒物(PM10),59,68,41,17,12,88,,132,127,42,22,7,11,0.3,0.6
2025-04-28T2200,1119A,125.3325,43.9166,长春市,食品厂,颗粒物(PM10),53,55,46,30,35,33,,93,68,56,20,8,8,0.6,0.4
2025-04-28T2200,1120A,125.2863,43.9027,长春市,客车厂,颗粒物(PM10),52,54,41,32,33,36,,96,75,57,20,5,5,0.6,0.4
2025-04-28T2200,1121A,125.2841,43.8463,长春市,邮电学院,细颗粒物(PM2.5),52,36,22,36,39,33,,104,86,55,12,6,6,0.6,0.4
2025-04-28T2200,1122A,125.3716,43.8772,长春市,劳动公园,颗粒物(PM10),53,55,47,34,32,40,,102,87,44,12,6,6,0.4,0.3
2025-04-28T2200,1123A,125.3297,43.8805,长春市,园林处,颗粒物(PM10),55,59,48,34,31,31,,97,78,56,13,6,7,0.7,0.4
2025-04-28T2200,1124A,125.4605,43.79,长春市,净月潭,,33,32,42,23,29,70,,102,86,10,10,6,6,0.2,0.2
2025-04-28T2200,1125A,125.7194,43.515,长春市,甩湾子,,,,,,,,,,,,,,,,
2025-04-28T2200,1126A,125.3863,43.8447,长春市,经开区环卫处,颗粒物(PM10),57,64,52,29,27,9,,98,76,77,16,7,7,0.6,0.4
2025-04-28T2200,1127A,125.245,43.7783,长春市,高新区管委会,细颗粒物(PM2.5),67,54,39,48,32,43,,101,80,35,15,8,7,0.5,0.3
2025-04-28T2200,1128A,125.1761,43.8325,长春市,岱山公园,"颗粒物(PM10),细颗粒物(PM2.5)",72,94,39,52,31,6,,107,75,86,17,6,4,0.7,0.5
2025-04-28T2200,1335A,113.0833,28.2325,长沙市,经开区环保局,颗粒物(PM10),71,92,58,40,41,138,,161,161,28,28,6,5,0.7,0.8
2025-04-28T2200,1336A,112.8872,28.2189,长沙市,高开区环保局,颗粒物(PM10),70,89,59,45,42,82,,157,148,47,23,6,5,1.0,1.1
2025-04-28T2200,1337A,113.0792,28.2053,长沙市,马坡岭,颗粒物(PM10),73,96,58,49,38,107,,160,155,40,29,4,4,0.6,0.6
2025-04-28T2200,1338A,112.9394,28.19,长沙市,湖南师范大学,颗粒物(PM10),62,74,55,30,30,97,,161,153,30,19,2,2,0.6,0.7
2025-04-28T2200,1339A,113.0178,28.1322,长沙市,雨花区环保局,,,88,55,42,32,,,171,171,26,25,4,3,0.6,0.6
2025-04-28T2200,1340A,112.9792,28.2597,长沙市,伍家岭,,,104,64,,39,92,,155,148,50,26,4,2,0.7,0.7
2025-04-28T2200,1341A,113.0014,28.1944,长沙市,火车新站,颗粒物(PM10),70,90,64,44,38,137,,166,164,26,31,7,6,0.8,0.8
2025-04-28T2200,1342A,112.9844,28.1178,长沙市,天心区环保局,颗粒物(PM10),67,83,54,37,31,144,,171,169,22,28,4,3,0.7,0.8
2025-04-28T2200,1343A,112.8908,28.1308,长沙市,湖南中医药大学,细颗粒物(PM2.5),79,79,44,58,34,64,,159,142,41,20,3,2,0.8,0.8
2025-04-28T2200,1344A,112.9581,28.3611,长沙市,沙坪,颗粒物(PM10),56,61,45,37,26,111,,155,148,12,12,5,5,0.7,0.7
2025-04-28T2200,1727A,113.1147,36.1547,长治市,清华站,,45,45,61,14,17,130,,118,118,11,25,9,10,0.6,0.7
2025-04-28T2200,1730A,113.0886,36.2125,长治市,审计局,,45,45,62,12,15,120,,123,118,20,31,11,16,0.4,0.6
2025-04-28T2200,1731A,113.0844,36.1856,长治市,长治八中,颗粒物(PM10),56,61,66,14,21,117,,117,113,20,32,10,15,0.6,0.7
2025-04-28T2200,2845A,113.1569,36.1911,长治市,德盛苑,,44,44,48,17,17,125,,119,119,14,18,7,11,0.6,0.8
2025-04-28T2200,3568A,113.06,36.0464,长治市,向阳小学,颗粒物(PM10),58,66,72,29,17,128,,122,122,17,22,12,13,0.3,0.4
2025-04-28T2200,3569A,112.8792,36.3144,长治市,屯留一中,颗粒物(PM10),52,53,53,16,12,85,,112,109,28,24,8,9,0.5,0.5
2025-04-28T2200,4189A,113.1131,36.19948,长治市,英华南巷50号,颗粒物(PM10),54,57,69,17,20,128,,124,122,17,29,7,14,0.4,0.7
2025-04-28T2200,4190A,113.2367,36.3344,长治市,学府街1号,,43,43,81,15,28,96,,132,108,25,44,4,28,0.5,1.1
2025-04-28T2200,1854A,111.6975,28.9703,常德市,市二中,,,,63,,40,139,,182,176,20,19,13,9,0.8,0.8
2025-04-28T2200,1857A,111.7158,29.1456,常德市,白鹤山,,,,,,,,,,,,,,,,
2025-04-28T2200,3138A,111.7153,29.0289,常德市,武陵区永安,颗粒物(PM10),71,92,69,46,36,146,,180,173,19,13,4,5,0.6,0.6
2025-04-28T2200,3139A,111.6892,28.9881,常德市,鼎城区玉霞,细颗粒物(PM2.5),77,98,67,56,40,110,,177,164,29,14,14,7,0.7,0.7
2025-04-28T2200,3140A,111.6625,29.0531,常德市,武陵区长庚,颗粒物(PM10),70,89,62,50,34,156,,188,182,16,13,12,10,0.8,0.7
2025-04-28T2200,1196A,119.9633,31.762,常州市,市监测站,颗粒物(PM10),63,76,93,33,41,85,,158,135,34,25,9,10,0.8,0.8
2025-04-28T2200,1200A,119.9468,31.7069,常州市,武进监测站,颗粒物(PM10),56,62,78,30,34,96,,172,148,39,38,17,16,1.0,0.8
2025-04-28T2200,1201A,119.9255,31.9087,常州市,安家,颗粒物(PM10),62,73,104,32,38,33,,142,109,82,48,11,13,0.5,0.4
2025-04-28T2200,3002A,119.9805,31.8174,常州市,行政中心,颗粒物(PM10),61,72,78,35,41,70,,155,127,46,31,19,19,0.8,0.6
2025-04-28T2200,3003A,120.0522,31.7748,常州市,经开区,颗粒物(PM10),58,66,77,33,39,84,,158,131,44,47,11,12,0.6,0.6
2025-04-28T2200,3010A,119.9025,31.7964,常州市,钟楼,颗粒物(PM10),59,67,90,40,43,82,,158,135,33,30,10,10,0.6,0.6
2025-04-28T2200,3429A,119.8598,31.7066,常州市,武进经发区,颗粒物(PM10),58,65,81,34,43,89,,167,138,37,46,12,13,1.0,0.8
2025-04-28T2200,3430A,119.5826,31.7245,常州市,金坛城区,,50,50,73,21,34,89,,176,149,36,27,12,11,0.6,0.7
2025-04-28T2200,2220A,120.4318,41.5881,朝阳市,西梁,,44,44,33,28,14,93,,101,100,14,13,5,7,0.5,0.4
2025-04-28T2200,2221A,120.4521,41.5646,朝阳市,河畔小区,,41,41,32,23,14,103,,107,107,10,8,8,7,0.3,0.2
2025-04-28T2200,2222A,120.4176,41.5648,朝阳市,八里堡,颗粒物(PM10),51,51,37,24,15,89,,100,99,15,13,7,8,0.3,0.2
2025-04-28T2200,2223A,120.3806,41.5969,朝阳市,农业园区,,46,39,31,32,18,88,,100,98,18,12,8,8,0.5,0.4
2025-04-28T2200,1705A,116.6367,23.6719,潮州市,西园路,,,,47,22,35,101,,95,95,9,18,3,6,0.7,0.8
2025-04-28T2200,3026A,116.6183,23.6608,潮州市,市政府,,35,31,58,24,38,100,,96,96,8,21,4,13,0.7,0.9
2025-04-28T2200,4036A,116.6461,23.6761,潮州市,金山,,30,27,49,21,34,95,,88,88,11,19,6,9,0.7,0.8
2025-04-28T2200,2472A,113.0073,25.9061,郴州市,马头岭,,43,43,33,16,11,11,,28,25,18,14,7,7,0.5,0.5
2025-04-28T2200,2473A,113.0116,25.8226,郴州市,市职中,"颗粒物(PM10),细颗粒物(PM2.5)",57,64,31,40,22,26,,106,83,26,11,3,2,0.8,0.8
2025-04-28T2200,2475A,113.0383,25.8071,郴州市,市审计局,,50,50,27,31,20,51,,105,91,19,9,2,2,0.8,0.7
2025-04-28T2200,2476A,113.0348,25.7759,郴州市,市环保局,颗粒物(PM10),52,53,28,29,19,21,,98,83,43,13,2,3,0.8,0.7
2025-04-28T2200,4252A,113.0138,25.8011,郴州市,好美居路49号,颗粒物(PM10),52,53,29,35,19,25,,106,87,33,12,4,5,0.9,0.8
2025-04-28T2200,1431A,103.9728,30.7236,成都市,金泉两河,"颗粒物(PM10),细颗粒物(PM2.5)",62,74,58,44,20,56,,139,129,41,29,3,3,0.8,0.7
2025-04-28T2200,1432A,104.176,30.6872,成都市,十里店,颗粒物(PM10),60,70,60,32,26,90,,133,129,42,44,4,5,0.8,0.8
2025-04-28T2200,1433A,104.079,30.5706,成都市,三瓦窑,颗粒物(PM10),72,93,61,47,31,58,,127,119,72,49,7,6,0.7,0.7
2025-04-28T2200,1434A,104.1114,30.63,成都市,沙河铺,细颗粒物(PM2.5),63,66,59,45,30,87,,129,126,36,38,7,7,0.7,0.7
2025-04-28T2200,1437A,104.0786,30.6531,成都市,君平街,颗粒物(PM10),64,77,56,39,29,49,,123,114,38,40,8,8,0.7,0.8
2025-04-28T2200,1438A,103.613,31.0283,成都市,灵岩寺,,,,,,,,,,,,,,,,
2025-04-28T2200,2880A,104.0239,30.65639,成都市,大石西路,颗粒物(PM10),65,79,59,40,31,79,,143,134,48,40,6,6,0.5,0.5
2025-04-28T2200,3136A,104.2725,30.5589,成都市,龙泉驿区区政府,颗粒物(PM10),52,53,46,34,23,79,,103,102,28,26,6,5,0.8,0.7
2025-04-28T2200,3357A,104.0106,30.6931,成都市,金博路,颗粒物(PM10),60,69,43,23,19,84,,148,141,30,33,8,8,0.4,0.4
2025-04-28T2200,3359A,104.0578,30.5225,成都市,华阳,细颗粒物(PM2.5),77,73,59,56,41,77,,123,121,51,47,7,6,0.4,0.4
2025-04-28T2200,3488A,104.3853,30.7453,成都市,青白江技师分院,细颗粒物(PM2.5),90,96,54,67,27,62,,148,133,85,49,5,2,0.6,0.3
2025-04-28T2200,3489A,104.0789,30.4072,成都市,科学城,细颗粒物(PM2.5),100,105,70,75,46,64,,118,114,42,41,5,5,0.6,0.5
2025-04-28T2200,4011A,103.8506,30.6947,成都市,光华大道三段,细颗粒物(PM2.5),60,56,46,43,24,63,,138,125,35,26,2,5,0.7,0.6
2025-04-28T2200,4224A,104.2433,30.5353,成都市,鲸龙路1057号,颗粒物(PM10),65,80,61,32,28,104,,120,120,30,50,6,5,0.7,0.7
2025-04-28T2200,1062A,117.9531,40.9081,承德市,铁路,颗粒物(PM10),54,58,35,11,8,82,,103,100,24,18,6,5,0.4,0.3
2025-04-28T2200,1063A,117.9392,40.9763,承德市,中国银行,颗粒物(PM10),59,67,37,31,11,90,,105,103,15,10,4,4,0.4,0.3
2025-04-28T2200,1064A,117.9503,40.928,承德市,开发区,,49,49,30,27,15,92,,108,106,16,15,7,5,0.4,0.3
2025-04-28T2200,1065A,117.8051,40.9655,承德市,文化中心,颗粒物(PM10),58,65,39,25,10,97,,106,105,20,15,26,14,0.6,0.3
2025-04-28T2200,1066A,117.9268,41.0026,承德市,离宫,,45,43,26,31,19,74,,106,101,11,6,3,3,0.4,0.2
2025-04-28T2200,2314A,117.47,30.6618,池州市,池州学院,细颗粒物(PM2.5),70,84,56,51,32,127,,179,173,25,13,6,6,0.6,0.6
2025-04-28T2200,3237A,117.4918,30.6617,池州市,展览馆,颗粒物(PM10),62,73,52,39,30,102,,179,166,24,15,6,6,0.6,0.6
2025-04-28T2200,3333A,117.5627,30.695,池州市,第八中学,颗粒物(PM10),67,84,54,43,30,117,,179,167,38,16,8,7,0.6,0.6
2025-04-28T2200,3334A,117.5038,30.6243,池州市,第十二中学,颗粒物(PM10),65,79,54,44,32,51,,181,160,68,17,3,5,0.7,0.8
2025-04-28T2200,1744A,118.9233,42.2816,赤峰市,松山一中,,25,25,13,8,5,71,,87,80,24,18,12,10,0.4,0.3
2025-04-28T2200,1745A,118.9576,42.2728,赤峰市,哈达街,,27,20,16,9,6,84,,96,92,16,15,11,10,0.6,0.5
2025-04-28T2200,1746A,118.8788,42.2554,赤峰市,天义路,,26,22,15,11,7,81,,102,95,16,12,17,9,0.4,0.4
2025-04-28T2200,3058A,119.2658,42.0353,赤峰市,银河街,颗粒物(PM10),53,56,25,22,12,70,,89,81,15,7,19,18,0.6,0.4
2025-04-28T2200,3286A,118.9359,42.3147,赤峰市,桥北物流园区,,25,25,16,9,9,61,,91,81,35,18,17,8,0.8,0.6
2025-04-28T2200,2521A,107.3476,22.4136,崇左市,市环保局江州分局,,32,32,28,16,16,73,,98,95,18,10,6,6,0.6,0.6
2025-04-28T2200,4256A,107.3750,22.3736,崇左市,石景林东路7号,,24,18,23,15,9,74,,105,102,14,8,4,4,0.6,0.5
2025-04-28T2200,2298A,118.3093,32.3153,滁州市,老年大学,,50,50,59,25,33,119,,173,146,27,19,2,4,0.3,0.4
2025-04-28T2200,2299A,118.3244,32.2786,滁州市,人大宾馆,,40,40,60,22,37,121,,176,146,20,22,9,11,0.3,0.4
2025-04-28T2200,3207A,118.3118,32.3038,滁州市,市政府原办公楼,,42,42,56,26,37,103,,172,142,41,18,6,7,0.3,0.4
2025-04-28T2200,3331A,118.3267,32.2634,滁州市,图书馆,,40,40,71,28,39,115,,171,146,19,18,7,10,0.4,0.6
2025-04-28T2200,2605A,101.5482,25.0441,楚雄彝族自治州,州环境监测站,细颗粒物(PM2.5),68,57,66,49,46,90,,151,138,33,23,8,10,0.7,0.6
2025-04-28T2200,2606A,101.538,25.0492,楚雄彝族自治州,市经济开发区,细颗粒物(PM2.5),87,91,68,64,42,89,,152,137,33,21,11,11,1.0,0.7
2025-04-28T2200,2548A,107.5277,31.2827,达州市,达州职业技术学院,颗粒物(PM10),56,62,57,35,25,30,,105,89,48,26,5,6,0.6,0.5
2025-04-28T2200,2549A,107.5086,31.2186,达州市,市环境监测站,颗粒物(PM10),72,94,55,39,21,19,,128,97,77,37,5,5,0.7,0.4
2025-04-28T2200,2550A,107.4988,31.2132,达州市,凤凰小区,颗粒物(PM10),71,92,50,51,24,8,,131,98,96,37,9,8,1.0,0.5
2025-04-28T2200,2551A,107.5082,31.1986,达州市,达县机关宾馆,颗粒物(PM10),73,95,52,36,22,2,,125,84,88,40,6,6,0.6,0.5
2025-04-28T2200,2552A,107.4644,31.2124,达州市,市政中心,颗粒物(PM10),67,83,55,31,22,7,,133,103,91,39,3,3,0.8,0.5
2025-04-28T2200,2614A,100.1542,25.7054,大理白族自治州,大理市环境监测站,颗粒物(PM10),56,62,58,36,33,134,,146,146,14,6,9,9,0.3,0.3
2025-04-28T2200,2615A,100.2171,25.5811,大理白族自治州,大理古城,颗粒物(PM10),61,71,63,36,35,142,,139,139,7,13,10,9,0.6,0.6
2025-04-28T2200,1109A,121.612,38.9741,大连市,甘井子,,49,40,32,34,17,46,,104,97,63,24,7,8,0.5,0.3
2025-04-28T2200,1110A,121.565,38.9511,大连市,周水子,,49,46,35,34,16,38,,97,81,56,24,4,6,0.6,0.4
2025-04-28T2200,1111A,121.5637,38.8845,大连市,星海三站,,43,40,30,30,15,47,,107,95,38,19,2,4,0.5,0.3
2025-04-28T2200,1112A,121.6302,38.9117,大连市,青泥洼桥,颗粒物(PM10),55,59,37,32,17,48,,101,89,50,24,6,7,0.5,0.4
2025-04-28T2200,1113A,121.6251,38.8638,大连市,傅家庄,,37,37,27,25,13,84,,109,104,31,19,9,10,0.4,0.3
2025-04-28T2200,1114A,121.5213,38.8661,大连市,七贤岭,,45,45,28,25,13,70,,105,96,15,12,6,6,0.6,0.6
2025-04-28T2200,1115A,121.2529,38.8061,大连市,旅顺,,39,35,26,27,14,62,,75,66,26,26,5,6,0.4,0.3
2025-04-28T2200,1116A,121.7485,39.1311,大连市,金州,,49,49,30,25,18,92,,104,103,23,22,5,7,0.3,0.3
2025-04-28T2200,1117A,121.7811,39.0496,大连市,开发区,,38,38,32,22,16,77,,96,92,28,21,2,4,0.6,0.5
2025-04-28T2200,1118A,121.9762,39.0631,大连市,双D港,,,,21,23,15,71,,112,102,22,14,8,9,0.3,0.3
2025-04-28T2200,1789A,124.81117,46.03138,大庆市,大同区,,43,43,41,27,33,71,,86,80,8,7,5,4,0.5,0.5
2025-04-28T2200,1790A,125.129,46.533,大庆市,龙凤区,,,,46,,33,,,72,,,15,,4,,0.5
2025-04-28T2200,1791A,124.902,46.408,大庆市,红岗区,,26,26,36,10,26,76,,96,87,7,8,4,4,0.4,0.4
2025-04-28T2200,1792A,125.153,46.586,大庆市,萨尔图区,,42,42,51,20,36,72,,86,80,10,16,8,5,0.5,0.5
2025-04-28T2200,1793A,124.9042,46.6215,大庆市,让胡路区,,29,22,32,20,29,74,,89,82,8,8,6,6,0.3,0.4
2025-04-28T2200,3481A,125.141,46.634,大庆市,萨区政府监测点,,37,37,48,9,25,85,,97,92,7,12,7,5,0.4,0.4
2025-04-28T2200,1721A,113.3819,40.1097,大同市,果树场,颗粒物(PM10),51,52,35,19,13,14,,103,88,66,24,4,7,0.5,0.6
2025-04-28T2200,1723A,113.2994,40.0758,大同市,云冈宾馆,,35,35,37,8,11,90,,116,113,22,21,10,10,0.4,0.8
2025-04-28T2200,1724A,113.3444,40.0917,大同市,大同大学,,40,40,35,10,9,73,,109,103,32,24,7,12,0.4,0.6
2025-04-28T2200,1725A,113.2661,40.1269,大同市,安家小村,,34,26,31,3,8,108,,111,111,3,14,10,13,0.2,0.7
2025-04-28T2200,1726A,113.2711,40.0844,大同市,教育学院,,35,30,36,24,13,95,,114,111,15,21,11,11,0.3,0.7
2025-04-28T2200,3282A,113.3397,40.0597,大同市,大同市卫生学校,,47,47,32,27,14,76,,106,101,31,22,11,10,0.5,0.6
2025-04-28T2200,3565A,113.1367,40.1122,大同市,云冈站,,46,46,40,27,12,46,,107,94,33,17,18,14,0.3,0.4
2025-04-28T2200,3566A,113.1186,40.2556,大同市,图书馆,,25,25,20,6,7,57,,103,94,8,7,8,9,0.5,0.5
2025-04-28T2200,3567A,113.5931,40.0461,大同市,区一中,,,,50,,15,,,55,,,31,,25,,0.5
2025-04-28T2200,4199A,113.2798,40.0997,大同市,魏都大道141号,,,,45,,16,,,114,113,24,27,15,16,0.3,1.1
2025-04-28T2200,2269A,124.1069,50.4097,大兴安岭地区,科技局,颗粒物(PM10),52,54,28,35,20,75,,84,81,6,3,4,4,0.4,0.3
2025-04-28T2200,3663A,124.1164,50.4278,大兴安岭地区,红旗社区,,48,44,18,33,15,76,,84,81,11,7,11,5,0.4,0.3
2025-04-28T2200,1600A,124.3303,40.0625,丹东市,江湾东路,细颗粒物(PM2.5),65,60,51,47,32,110,,126,126,20,14,10,9,0.7,0.6
2025-04-28T2200,1601A,124.4256,40.1503,丹东市,临江后街,细颗粒物(PM2.5),65,68,54,47,33,103,,112,112,17,17,8,6,0.7,0.7
2025-04-28T2200,1602A,124.3933,40.1461,丹东市,元宝山,颗粒物(PM10),56,61,47,39,29,118,,116,116,9,9,10,8,0.7,0.6
2025-04-28T2200,1603A,124.3633,40.1092,丹东市,民主桥,细颗粒物(PM2.5),57,59,54,40,28,121,,119,119,16,21,10,8,0.9,0.8
2025-04-28T2200,3541A,109.5726,19.5167,儋州市,第一中学子站,,20,13,23,7,13,61,,82,74,6,6,4,5,0.6,0.5
2025-04-28T2200,3542A,109.5567,19.5187,儋州市,东坡学校子站,,20,16,24,8,12,62,,84,77,6,6,4,5,0.7,0.6
2025-04-28T2200,2616A,98.5842,24.428,德宏傣族景颇族自治州,德宏州监测站,细颗粒物(PM2.5),112,118,95,84,66,76,,130,113,22,23,9,11,1.1,0.9
2025-04-28T2200,3677A,98.5881,24.4368,德宏傣族景颇族自治州,芒市人民政府综合楼,细颗粒物(PM2.5),97,137,111,72,59,96,,152,136,16,16,8,10,0.7,0.6
2025-04-28T2200,1901A,104.4239,31.1208,德阳市,东山公园,颗粒物(PM10),60,69,47,42,26,75,,131,123,35,15,8,4,0.7,0.7
2025-04-28T2200,1902A,104.3826,31.1317,德阳市,西小区,细颗粒物(PM2.5),75,79,55,55,30,76,,133,122,32,28,8,4,0.7,0.6
2025-04-28T2200,1904A,104.3553,31.1091,德阳市,耐火材料厂,细颗粒物(PM2.5),75,95,62,55,30,63,,132,117,37,29,9,6,0.6,0.5
2025-04-28T2200,3639A,104.4019,31.1244,德阳市,市教育局,细颗粒物(PM2.5),70,71,49,51,27,79,,136,124,36,28,9,5,0.6,0.5
2025-04-28T2200,1622A,116.3032,37.4674,德州市,儿童乐园,颗粒物(PM10),57,63,58,17,16,111,,139,137,20,18,6,11,0.5,0.5
2025-04-28T2200,1624A,116.2991,37.4451,德州市,监理站,颗粒物(PM10),52,53,49,17,17,105,,133,130,21,21,12,11,0.4,0.4
2025-04-28T2200,3066A,116.2721,37.4379,德州市,九衢泉纯净水厂,颗粒物(PM10),52,53,52,34,24,93,,129,122,32,30,4,7,0.7,0.6
2025-04-28T2200,3371A,116.3728,37.4403,德州市,开发区人民医院,颗粒物(PM10),59,68,59,17,19,81,,125,118,30,24,6,8,0.6,0.5
2025-04-28T2200,3372A,116.3572,37.4094,德州市,太阳城中学,颗粒物(PM10),58,66,65,19,24,88,,138,131,29,35,4,5,0.4,0.4
2025-04-28T2200,3511A,116.5652,37.3319,德州市,陵城艺术中心,颗粒物(PM10),56,61,55,24,22,106,,144,140,23,25,4,4,0.3,0.2
2025-04-28T2200,2621A,99.7056,27.8317,迪庆藏族自治州,迪庆州站,"颗粒物(PM10),细颗粒物(PM2.5)",54,58,58,38,28,118,,126,123,10,14,5,6,0.4,0.5
2025-04-28T2200,3180A,99.7136,27.8094,迪庆藏族自治州,质量技术监督局,细颗粒物(PM2.5),52,51,44,36,25,117,,132,127,11,14,5,4,0.6,0.7
2025-04-28T2200,4257A,104.6092,35.5962,定西市,将台街,颗粒物(PM10),60,70,79,39,33,76,,133,124,31,21,6,5,0.4,0.2
2025-04-28T2200,4309A,104.6159,35.5701,定西市,正龙路62号,颗粒物(PM10),59,68,72,27,35,89,,133,128,17,11,9,8,0.5,0.3
2025-04-28T2200,1389A,113.7547,23.0494,东莞市,莞城梨川,,19,11,42,10,32,60,,106,88,18,23,5,6,0.7,0.7
2025-04-28T2200,1390A,113.7944,23.0128,东莞市,东城石井,,18,18,39,9,24,19,,112,78,36,28,4,4,0.8,0.8
2025-04-28T2200,1391A,113.7383,22.9658,东莞市,南城西平,,24,16,38,9,27,30,,114,83,48,33,4,4,0.6,0.6
2025-04-28T2200,3319A,113.7338,23.0381,东莞市,万江金泰,,16,16,39,9,27,50,,98,83,19,24,6,5,0.6,1
2025-04-28T2200,3626A,113.7533,23.0202,东莞市,南城元岭,,19,12,38,3,27,59,,109,89,16,20,7,7,0.7,0.7
2025-04-28T2200,3627A,113.7875,23.0457,东莞市,东城主山,,21,21,43,9,23,41,,95,74,34,27,4,4,0.7,0.6
2025-04-28T2200,1666A,118.6614,37.4309,东营市,市环保局,,33,24,38,7,15,103,,121,108,15,28,4,8,0.3,0.4
2025-04-28T2200,3036A,118.6904,37.4338,东营市,开发区管委会,,34,29,47,7,17,107,,118,106,11,22,4,7,0.5,0.6
2025-04-28T2200,3365A,118.5719,37.565,东营市,垦利区民丰路,,29,27,40,12,16,90,,116,102,25,30,6,6,0.5,0.6
2025-04-28T2200,3498A,118.5055,37.8612,东营市,河口城区,,29,29,46,7,14,75,,107,96,17,26,4,7,0.7,0.6
2025-04-28T2200,3646A,118.4978,37.4623,东营市,胜利站,,35,35,48,17,29,88,,124,101,24,28,10,11,0.6,0.7
2025-04-28T2200,3734A,118.35,37.26,东营市,理想之城,,24,24,51,9,19,67,,118,95,35,29,3,7,0.4,0.5
2025-04-28T2200,1591A,110.0023,39.8129,鄂尔多斯市,综合楼,,35,27,24,9,3,109,,118,117,15,11,4,2,0.3,0.2
2025-04-28T2200,1592A,109.9486,39.8261,鄂尔多斯市,巴音孟克林场办事处,,39,39,26,14,9,99,,111,110,16,12,9,7,0.4,0.3
2025-04-28T2200,1593A,109.7736,39.5986,鄂尔多斯市,康泽苑,,34,27,24,9,6,106,,119,119,10,7,8,7,0.3,0.3
2025-04-28T2200,1594A,109.8119,39.5989,鄂尔多斯市,华泰汽车城,,31,24,28,14,7,98,,110,110,16,12,7,6,0.2,0.2
2025-04-28T2200,1595A,109.9734,39.7884,鄂尔多斯市,奥林花园,,34,34,26,9,6,75,,112,107,31,14,6,3,0.3,0.1
2025-04-28T2200,2436A,114.8938,30.3994,鄂州市,市政府,,34,34,77,9,33,79,,139,116,31,22,7,8,0.5,0.8
2025-04-28T2200,2437A,114.8989,30.3714,鄂州市,赵家坝,,34,33,67,10,27,107,,167,150,22,17,6,6,0.6,0.7
2025-04-28T2200,3654A,114.8094,30.4089,鄂州市,精准医疗中心,,31,31,67,9,28,98,,161,140,23,13,3,4,0.7,0.6
2025-04-28T2200,2454A,109.4978,30.2981,恩施土家族苗族自治州,湖北民院,颗粒物(PM10),56,62,45,33,24,42,,107,92,20,14,6,5,0.3,0.4
2025-04-28T2200,2455A,109.4707,30.2798,恩施土家族苗族自治州,州电力总公司,,49,41,43,34,26,52,,123,106,22,18,4,4,0.2,0.2
2025-04-28T2200,3549A,109.5061,30.3772,恩施土家族苗族自治州,龙凤新区,细颗粒物(PM2.5),52,50,39,36,23,26,,83,63,12,10,7,6,0.6,0.5
2025-04-28T2200,2499A,108.3411,21.6158,防城港市,沙万,,29,28,31,20,14,78,,84,83,14,13,3,2,0.7,0.5
2025-04-28T2200,2500A,108.3514,21.7731,防城港市,防城档案局,,46,46,41,24,17,70,,83,82,16,14,3,3,0.6,0.6
2025-04-28T2200,2501A,108.3506,21.6414,防城港市,大海花园,,30,30,23,18,11,88,,92,92,10,8,2,3,0.6,0.5
2025-04-28T2200,1371A,113.1294,23.0067,佛山市,湾梁,,31,31,26,14,14,45,,116,100,34,23,8,8,0.8,0.7
2025-04-28T2200,1372A,113.1083,23.0478,佛山市,华材职中,颗粒物(PM10),54,58,29,20,17,31,,113,92,55,34,8,7,0.8,0.7
2025-04-28T2200,1373A,113.144,23.0453,佛山市,南海气象局,,26,26,28,17,17,46,,112,97,36,23,7,7,0.8,0.7
2025-04-28T2200,1374A,113.2881,22.8094,佛山市,顺德苏岗,,35,35,28,9,14,59,,126,111,24,25,6,5,0.6,0.7
2025-04-28T2200,1376A,112.8383,22.8678,佛山市,高明孔堂,,50,50,31,12,17,38,,107,89,32,22,7,6,0.9,0.8
2025-04-28T2200,1377A,112.8836,23.1588,佛山市,三水监测站,,46,46,32,24,17,44,,85,76,44,32,5,4,0.7,0.7
2025-04-28T2200,1378A,112.867,23.185,佛山市,三水云东海,,34,34,32,11,20,27,,90,71,36,32,2,2,0.5,0.5
2025-04-28T2200,3625A,113.2544,22.7642,佛山市,容桂街道办,,35,29,23,24,20,61,,130,114,28,30,5,5,0.8,0.8
2025-04-28T2200,1280A,119.3903,26.0543,福州市,鼓山,,,,16,,13,,,69,,,6,,2,,0.4
2025-04-28T2200,1282A,119.2681,26.0504,福州市,师大,,44,44,32,14,20,83,,101,101,26,21,4,4,0.5,0.6
2025-04-28T2200,1283A,119.2984,26.1028,福州市,五四北路,,38,38,30,12,30,68,,88,88,26,27,4,4,0.6,0.7
2025-04-28T2200,1284A,119.2648,26.0768,福州市,杨桥西路,,50,50,32,16,23,57,,98,98,30,20,4,3,0.5,0.5
2025-04-28T2200,1285A,119.317,26.0746,福州市,紫阳,颗粒物(PM10),52,54,39,15,29,59,,93,93,42,29,6,5,0.5,0.6
2025-04-28T2200,3048A,119.5799,26.0936,福州市,九龙,,31,31,26,7,21,51,,98,92,17,15,3,4,0.3,0.5
2025-04-28T2200,3526A,119.5189,25.9664,福州市,吴航,,20,17,44,10,28,61,,92,90,19,19,3,5,0.5,0.7
2025-04-28T2200,1755A,123.7977,41.8491,抚顺市,望花区,细颗粒物(PM2.5),99,112,64,74,37,43,,124,104,61,16,29,8,0.9,0.5
2025-04-28T2200,1756A,123.9161,41.8822,抚顺市,顺城区,颗粒物(PM10),124,197,70,73,36,3,,116,77,86,26,8,7,0.8,0.4
2025-04-28T2200,1757A,124.0436,41.8611,抚顺市,东洲区,细颗粒物(PM2.5),75,68,55,55,33,87,,120,114,26,16,9,7,0.6,0.5
2025-04-28T2200,1758A,123.9247,41.8642,抚顺市,新抚区,细颗粒物(PM2.5),103,133,62,77,34,18,,113,83,62,16,7,7,0.8,0.5
2025-04-28T2200,1759A,124.0972,41.8961,抚顺市,大伙房水库,细颗粒物(PM2.5),65,59,56,47,35,87,,117,109,13,11,7,8,0.5,0.5
2025-04-28T2200,1760A,123.7086,41.8391,抚顺市,沈抚新城,细颗粒物(PM2.5),104,104,61,78,38,50,,113,96,45,18,10,7,0.7,0.3
2025-04-28T2200,2376A,116.2127,28.0814,抚州市,桐源党溪,颗粒物(PM10),53,56,37,36,21,29,,117,91,2,3,2,5,0.6,1.1
2025-04-28T2200,2377A,116.3544,27.9831,抚州市,市站,颗粒物(PM10),64,78,38,45,21,33,,98,79,36,12,3,3,1.3,1
2025-04-28T2200,2378A,116.3565,27.963,抚州市,血防站,颗粒物(PM10),62,74,40,39,21,44,,106,95,35,9,3,3,1.1,0.8
2025-04-28T2200,2379A,116.3564,28.0007,抚州市,采茶剧团,细颗粒物(PM2.5),64,70,39,46,22,54,,99,90,23,6,1,2,1.3,1.1
2025-04-28T2200,2380A,116.385,27.9647,抚州市,医学分院,颗粒物(PM10),61,72,34,41,19,41,,94,85,17,4,5,4,1.9,1.2
2025-04-28T2200,2207A,121.6094,41.998,阜新市,工业园区,颗粒物(PM10),53,56,56,34,23,94,,105,99,14,13,10,9,0.4,0.4
2025-04-28T2200,2208A,121.6697,42.0279,阜新市,长青街,,45,45,29,30,16,95,,103,99,20,10,12,7,0.5,0.6
2025-04-28T2200,2209A,121.6673,42.0705,阜新市,农业园区,,50,50,30,24,12,101,,104,101,12,5,11,7,0.8,0.9
2025-04-28T2200,2210A,121.6717,42.0224,阜新市,东苑,颗粒物(PM10),54,58,39,30,19,94,,103,98,20,9,16,10,0.6,0.7
2025-04-28T2200,2211A,121.6506,42.0498,阜新市,玉龙新城,颗粒物(PM10),56,61,38,37,19,93,,103,96,16,14,14,8,0.6,0.5
2025-04-28T2200,2301A,115.8277,32.8929,阜阳市,市监测站,颗粒物(PM10),55,59,62,21,38,12,,142,105,94,20,7,9,0.4,0.4
2025-04-28T2200,2303A,115.8554,32.8605,阜阳市,开发区,颗粒物(PM10),66,82,80,32,33,27,,149,104,65,21,7,8,0.6,0.3
2025-04-28T2200,2875A,115.784,32.8892,阜阳市,阜阳职业技术学院,,42,42,68,21,35,45,,139,104,46,16,6,7,0.3,0.3
2025-04-28T2200,3468A,115.7901,32.8613,阜阳市,市规划展馆,颗粒物(PM10),53,56,73,12,37,48,,151,114,49,16,7,9,0.3,0.4
2025-04-28T2200,3469A,115.836,32.9183,阜阳市,枣园社区,,45,45,69,15,32,23,,144,108,75,16,9,11,0.3,0.4
2025-04-28T2200,2669A,102.9099,34.9841,甘南藏族自治州,州政府,颗粒物(PM10),56,62,64,23,26,59,,100,94,27,20,3,2,0.3,0.4
2025-04-28T2200,3380A,102.8914,34.9617,甘南藏族自治州,甘肃民族师范学院,颗粒物(PM10),53,56,62,23,20,62,,112,101,33,21,9,8,0.5,0.5
2025-04-28T2200,2570A,101.9603,30.0475,甘孜藏族自治州,水桥子,,17,,7,7,5,54,,92,77,29,16,4,4,0.4,0.4
2025-04-28T2200,3065A,101.9533,29.9972,甘孜藏族自治州,州环保局,,22,22,12,6,5,53,,95,76,29,20,1,1,0.4,0.3
2025-04-28T2200,3414A,115.8347,28.932,赣江新区,桑海产业园,颗粒物(PM10),58,66,39,34,25,44,,123,108,49,10,4,5,0.4,0.5
2025-04-28T2200,2362A,114.9017,25.9149,赣州市,通天岩,颗粒物(PM10),54,57,29,7,6,40,,113,86,5,6,1,1,0.8,0.9
2025-04-28T2200,2363A,114.9367,25.8664,赣州市,地委,,,46,26,25,14,,,114,114,17,8,4,6,1.1,1
2025-04-28T2200,2364A,114.9461,25.8481,赣州市,气象台,颗粒物(PM10),53,55,30,25,13,72,,108,100,24,14,10,8,0.5,0.5
2025-04-28T2200,2365A,114.9322,25.8333,赣州市,市图书馆,,48,48,24,26,15,88,,112,107,14,9,4,4,1.0,1.1
2025-04-28T2200,2366A,114.8905,25.8471,赣州市,华坚鞋城,,44,44,27,22,16,115,,118,118,9,10,4,4,0.6,0.6
2025-04-28T2200,3109A,115.0093,25.8613,赣州市,赣县区卫计委,颗粒物(PM10),54,57,26,35,17,25,,101,83,37,11,3,3,0.6,0.6
2025-04-28T2200,2683A,106.2319,36.1417,固原市,马园,颗粒物(PM10),62,73,54,39,21,18,,122,97,77,35,8,6,0.7,0.6
2025-04-28T2200,2684A,106.2792,36.0022,固原市,监测站,细颗粒物(PM2.5),70,70,45,51,24,50,,118,107,48,18,8,7,0.6,0.4
2025-04-28T2200,2685A,106.2375,36.0211,固原市,新区,颗粒物(PM10),60,70,47,34,19,36,,115,101,67,30,6,6,0.4,0.4
2025-04-28T2200,3522A,106.2177,35.9959,固原市,原州区十五小,颗粒物(PM10),59,68,42,32,17,46,,120,105,65,22,7,7,0.4,0.3
2025-04-28T2200,2543A,106.6308,30.5278,广安市,小平旧居,,,,,,,,,,,,,,,,
2025-04-28T2200,2544A,106.6303,30.4576,广安市,市委,颗粒物(PM10),62,73,52,42,31,36,,122,101,52,23,4,4,0.7,0.5
2025-04-28T2200,2545A,106.6271,30.4663,广安市,友谊中学,颗粒物(PM10),55,59,51,34,26,41,,132,104,44,21,4,4,1.1,1
2025-04-28T2200,2547A,106.6388,30.4551,广安市,广电花园,细颗粒物(PM2.5),54,51,48,38,29,52,,130,110,43,22,4,4,0.5,0.4
2025-04-28T2200,2902A,106.6351,30.4865,广安市,北辰小学,颗粒物(PM10),55,59,54,33,27,56,,133,112,27,21,5,4,0.5,0.5
2025-04-28T2200,2523A,105.8945,32.4535,广元市,黑石坡,颗粒物(PM10),52,53,50,12,12,94,,115,112,13,10,4,3,0.3,0.3
2025-04-28T2200,2524A,105.821,32.4444,广元市,老城,颗粒物(PM10),56,62,45,22,13,16,,117,89,73,25,3,2,0.5,0.5
2025-04-28T2200,2526A,105.8628,32.4287,广元市,监测站,,47,47,37,16,15,75,,117,107,20,15,7,7,0.4,0.4
2025-04-28T2200,3617A,105.8047,32.4166,广元市,经开区,颗粒物(PM10),58,66,56,31,27,18,,118,91,70,28,4,9,0.6,0.6
2025-04-28T2200,1345A,113.2347,23.1423,广州市,广雅中学,,34,34,27,17,16,28,,100,82,34,26,3,3,1.2,1.1
2025-04-28T2200,1346A,113.2612,23.105,广州市,市五中,,28,28,26,14,16,56,,118,103,20,17,2,2,1.0,1
2025-04-28T2200,1348A,113.3478,23.0916,广州市,广东商学院,,26,25,23,18,16,42,,114,99,43,32,4,4,0.6,0.7
2025-04-28T2200,1349A,113.4332,23.1047,广州市,市八十六中,,27,27,28,11,17,63,,115,100,23,32,4,4,0.9,0.9
2025-04-28T2200,1350A,113.3505,22.9483,广州市,番禺中学,,,,27,13,16,,,125,115,,28,,5,,0.8
2025-04-28T2200,1351A,113.2146,23.3916,广州市,花都师范,,23,16,21,11,14,72,,110,100,19,24,5,5,0.8,0.8
2025-04-28T2200,1352A,113.2597,23.1331,广州市,市监测站,,,27,24,12,14,,,99,91,54,32,6,6,0.7,0.6
2025-04-28T2200,1353A,113.5618,23.312,广州市,九龙镇镇龙,,24,24,26,12,16,49,,90,79,20,18,5,5,0.5,0.5
2025-04-28T2200,1354A,113.2765,23.1544,广州市,麓湖,,25,25,23,14,15,48,,114,93,30,26,5,5,0.8,0.7
2025-04-28T2200,1355A,113.443,23.3035,广州市,帽峰山森林公园,,21,19,19,3,9,66,,102,91,9,8,5,5,0.7,0.7
2025-04-28T2200,2846A,113.3221,23.1322,广州市,体育西,,39,39,41,21,23,42,,118,98,42,28,4,4,0.7,0.7
2025-04-28T2200,3298A,113.5717,23.5491,广州市,从化街口,,22,22,30,13,20,25,,91,76,41,24,6,6,0.9,0.8
2025-04-28T2200,3299A,113.3472,23.3692,广州市,白云竹料,,27,27,28,15,18,31,,112,91,42,21,3,3,0.8,0.7
2025-04-28T2200,3300A,113.2981,23.237,广州市,白云嘉禾,,,45,29,14,19,,,104,91,64,35,6,6,,0.9
2025-04-28T2200,3301A,113.4256,23.1716,广州市,黄埔科学城,,18,18,23,9,16,55,,102,88,16,17,3,3,0.6,0.6
2025-04-28T2200,3302A,113.3942,23.0483,广州市,番禺大学城,,21,21,30,9,14,47,,121,100,38,32,6,6,0.7,0.7
2025-04-28T2200,3303A,113.4922,22.8168,广州市,南沙黄阁,,39,39,42,12,26,17,,114,91,68,34,6,6,1.0,0.9
2025-04-28T2200,3304A,113.5342,22.7896,广州市,南沙街,,43,43,37,14,24,21,,138,102,46,24,8,6,0.8,0.7
2025-04-28T2200,3443A,113.2902,23.5544,广州市,花都梯面,,32,32,22,8,12,41,,98,79,24,16,5,5,0.7,0.7
2025-04-28T2200,3445A,113.7858,23.7478,广州市,从化良口,,21,20,17,12,13,67,,90,83,9,10,6,7,0.3,0.4
2025-04-28T2200,3446A,113.8051,23.2614,广州市,增城荔城,,18,18,32,11,21,38,,87,64,15,12,7,7,0.5,0.4
2025-04-28T2200,2505A,109.568,23.1478,贵港市,德智高中,,,,,,,,,,,,,,,,
2025-04-28T2200,2506A,109.6047,23.0666,贵港市,江南子站,,48,48,27,29,16,49,,77,74,27,14,6,5,1.0,0.8
2025-04-28T2200,2508A,109.5669,23.1065,贵港市,荷城子站,,40,40,27,19,10,58,,69,69,21,14,10,10,0.6,0.6
2025-04-28T2200,3405A,109.5886,23.1172,贵港市,新世纪学校,,39,39,26,23,15,63,,72,72,24,21,4,5,1.0,1
2025-04-28T2200,4260A,109.5933,23.0951,贵港市,中山路155-3号,,,45,31,27,17,,,79,79,22,15,5,7,0.6,0.9
2025-04-28T2200,1439A,106.6899,26.5998,贵阳市,马鞍山,,34,34,22,12,8,50,,96,85,13,8,4,4,0.4,0.4
2025-04-28T2200,1441A,106.6243,26.6266,贵阳市,鉴湖路,,46,46,28,24,11,80,,98,94,16,11,7,6,0.4,0.3
2025-04-28T2200,1442A,106.7487,26.6343,贵阳市,燕子冲,,36,36,27,22,22,74,,103,97,14,16,3,4,0.2,0.3
2025-04-28T2200,1443A,106.6555,26.4365,贵阳市,碧云窝,颗粒物(PM10),51,51,36,24,13,63,,106,99,18,15,5,5,0.4,0.4
2025-04-28T2200,1445A,106.7109,26.6027,贵阳市,红边门,,39,39,28,22,19,75,,103,97,19,13,3,4,0.3,0.2
2025-04-28T2200,1446A,106.7164,26.5699,贵阳市,新华路,,48,48,29,22,20,89,,106,103,13,12,9,13,0.4,0.4
2025-04-28T2200,1447A,106.674,26.5424,贵阳市,太慈桥,,48,48,26,22,12,28,,104,92,59,21,6,6,0.4,0.3
2025-04-28T2200,1552A,106.805,26.3003,贵阳市,桐木岭,,48,48,40,31,22,98,,104,104,5,5,4,4,0.7,0.7
2025-04-28T2200,4230A,106.6882,26.5695,贵阳市,花果园大街66号,,41,41,25,22,18,83,,99,98,22,17,4,5,0.5,0.5
2025-04-28T2200,4231A,106.6873,26.5169,贵阳市,漓江路57号,,39,39,25,24,16,70,,99,94,22,13,8,8,0.4,0.4
2025-04-28T2200,1862A,110.4144,25.3167,桂林市,电子科大尧山校区,,,,,,,,,,,,,,,,
2025-04-28T2200,1864A,110.3089,25.2708,桂林市,龙隐路小学,,46,46,29,16,12,120,,136,134,9,6,13,12,0.5,0.5
2025-04-28T2200,1865A,110.2869,25.2178,桂林市,八中,,46,46,31,10,15,109,,122,120,14,13,8,4,0.5,0.5
2025-04-28T2200,3531A,110.296,25.1253,桂林市,旅游学院,,39,39,23,24,13,108,,121,120,13,9,5,4,0.6,0.7
2025-04-28T2200,4222A,110.1835,25.2444,桂林市,环湖路276号,,49,48,36,34,23,101,,114,108,12,10,12,20,0.4,0.5
2025-04-28T2200,4301A,110.2803,25.2773,桂林市,信义路13号,,48,48,31,13,16,114,,129,126,15,11,3,4,0.5,0.5
2025-04-28T2200,2674A,100.2561,34.4714,果洛藏族自治州,玛沁县大武镇,,49,49,53,30,21,114,,126,123,1,5,14,15,0.4,0.4
2025-04-28T2200,1129A,126.5422,45.755,哈尔滨市,岭北,,45,40,48,31,41,66,,104,95,32,17,10,11,0.9,0.8
2025-04-28T2200,1130A,126.561,45.8167,哈尔滨市,松北商大,,42,42,56,27,44,42,,92,76,40,22,6,5,0.8,0.7
2025-04-28T2200,1131A,126.979,45.5419,哈尔滨市,阿城会宁,颗粒物(PM10),65,80,59,44,36,31,,94,71,39,22,11,11,0.7,0.5
2025-04-28T2200,1132A,126.599,45.7222,哈尔滨市,南岗学府路,细颗粒物(PM2.5),77,100,67,56,41,24,,97,80,67,20,11,8,0.6,0.5
2025-04-28T2200,1133A,126.689,45.7733,哈尔滨市,太平宏伟公园,细颗粒物(PM2.5),98,94,64,73,51,50,,101,86,48,22,7,5,0.8,0.7
2025-04-28T2200,1134A,126.635,45.7667,哈尔滨市,道外承德广场,细颗粒物(PM2.5),83,,34,61,50,42,,92,77,48,21,8,6,0.6,0.5
2025-04-28T2200,1135A,126.685,45.7319,哈尔滨市,香坊红旗大街,细颗粒物(PM2.5),92,102,68,68,46,52,,97,81,43,21,10,8,0.7,0.6
2025-04-28T2200,1136A,126.6411,45.7258,哈尔滨市,动力和平路,细颗粒物(PM2.5),98,78,57,73,47,57,,92,82,34,20,10,7,0.6,0.6
2025-04-28T2200,1137A,126.593,45.7478,哈尔滨市,道里建国路,细颗粒物(PM2.5),74,73,53,54,46,23,,94,77,68,23,14,11,1.5,0.6
2025-04-28T2200,1138A,126.615,45.61,哈尔滨市,平房东轻厂,细颗粒物(PM2.5),75,75,55,55,38,52,,101,83,33,25,11,10,0.7,0.6
2025-04-28T2200,1139A,126.595,45.9855,哈尔滨市,呼兰师专,细颗粒物(PM2.5),109,,62,82,58,43,,96,81,51,22,9,7,0.5,0.4
2025-04-28T2200,1140A,126.6206,45.6842,哈尔滨市,省农科院,细颗粒物(PM2.5),104,106,77,78,53,13,,94,62,74,31,10,6,0.8,0.6
2025-04-28T2200,2688A,93.5128,42.8172,哈密市,地区监测站,,49,49,70,14,25,94,,113,111,18,21,8,7,0.3,0.3
2025-04-28T2200,2689A,93.4961,42.8328,哈密市,哈密师范学校,,30,22,55,11,18,96,,107,106,13,22,4,5,0.3,0.4
2025-04-28T2200,2671A,100.9048,36.9639,海北藏族自治州,海晏县西海镇,,41,41,22,18,15,79,,124,116,19,5,10,10,0.4,0.4
2025-04-28T2200,3867A,102.0738,36.5056,海东市,平安区公安北苑,,40,40,46,8,27,79,,123,114,7,10,3,6,0.7,0.8
2025-04-28T2200,1409A,110.576,19.9507,海口市,东寨港,,,,12,,13,,,24,,,3,,3,,0.5
2025-04-28T2200,1410A,110.3232,20.0574,海口市,海南大学,,37,37,31,16,16,76,,107,101,36,13,2,2,0.3,0.3
2025-04-28T2200,1411A,110.283,20.0053,海口市,秀英海南医院,,37,37,31,24,21,55,,92,82,51,22,5,4,0.4,0.3
2025-04-28T2200,1412A,110.338,19.9969,海口市,海南师范大学,,37,37,26,21,17,84,,106,101,20,15,3,3,0.5,0.4
2025-04-28T2200,1413A,110.33,20.0356,海口市,龙华路环保局宿舍,,31,31,28,18,16,96,,111,107,24,14,5,4,0.4,0.4
2025-04-28T2200,3539A,110.5111,19.9736,海口市,桂林洋子站,,34,34,25,16,14,73,,112,106,24,12,4,4,0.3,0.2
2025-04-28T2200,2673A,100.6188,36.2866,海南藏族自治州,共和县恰卜恰镇,颗粒物(PM10),58,65,36,15,17,100,,144,136,29,12,16,14,0.3,0.4
2025-04-28T2200,2676A,97.3731,37.3753,海西蒙古族藏族自治州,德令哈市,,40,40,46,20,19,121,,127,126,2,3,12,13,0.4,0.4
2025-04-28T2200,1048A,114.5302,36.6116,邯郸市,东污水处理厂,颗粒物(PM10),72,94,89,17,17,118,,121,121,22,30,2,6,0.5,0.7
2025-04-28T2200,1049A,114.4918,36.5713,邯郸市,矿院,,47,47,55,9,17,111,,115,115,14,33,8,10,0.4,0.5
2025-04-28T2200,1050A,114.484,36.6133,邯郸市,丛台公园,,41,41,49,16,17,126,,125,125,13,24,2,5,0.4,0.7
2025-04-28T2200,3458A,114.7895,36.5593,邯郸市,香泉濮院小区,颗粒物(PM10),70,89,66,12,14,117,,130,129,15,20,5,8,0.5,0.6
2025-04-28T2200,3579A,114.50634,36.77178,邯郸市,永年区实验高中,颗粒物(PM10),55,59,67,21,20,121,,122,122,12,29,6,7,0.4,0.8
2025-04-28T2200,3580A,114.20016,36.44293,邯郸市,峰峰矿区临水派出所,颗粒物(PM10),51,52,43,14,13,111,,137,136,22,32,8,9,0.6,0.6
2025-04-28T2200,2634A,106.9893,33.1842,汉中市,汉川机床厂子校,,36,36,48,3,10,85,,131,119,8,8,7,8,0.7,0.6
2025-04-28T2200,2635A,107.0154,33.0706,汉中市,市监测站,颗粒物(PM10),64,78,50,26,20,65,,122,104,27,16,6,6,0.7,0.7
2025-04-28T2200,2636A,107.0089,33.1138,汉中市,鑫源开发区,颗粒物(PM10),63,75,48,42,20,36,,122,105,53,21,6,7,0.7,0.7
2025-04-28T2200,2637A,107.007,33.0323,汉中市,南郑大河坎水厂,颗粒物(PM10),55,59,44,28,21,74,,123,110,20,17,6,6,0.5,0.5
2025-04-28T2200,1223A,120.2072,30.2111,杭州市,滨江,颗粒物(PM10),72,93,52,46,27,106,,206,195,47,23,9,7,0.6,0.6
2025-04-28T2200,1224A,120.0633,30.2747,杭州市,西溪,颗粒物(PM10),55,59,49,30,31,93,,196,181,44,25,5,6,0.6,0.6
2025-04-28T2200,1226A,120.3417,30.3150,杭州市,下沙,颗粒物(PM10),62,73,60,35,32,90,,185,172,37,29,9,8,0.4,0.5
2025-04-28T2200,1227A,120.1269,30.2456,杭州市,卧龙桥,颗粒物(PM10),55,60,45,34,27,91,,202,174,27,20,6,7,0.8,0.7
2025-04-28T2200,1228A,120.1903,30.2692,杭州市,浙江农大,细颗粒物(PM2.5),88,93,52,65,31,102,,185,173,50,28,4,3,0.4,0.5
2025-04-28T2200,1230A,120.1197,30.3119,杭州市,和睦小学,颗粒物(PM10),64,78,52,32,27,129,,203,194,38,22,8,8,0.7,0.6
2025-04-28T2200,1231A,120.3019,30.4183,杭州市,临平镇,,42,42,62,24,29,94,,198,178,25,29,6,7,0.5,0.7
2025-04-28T2200,1232A,120.2753,30.1839,杭州市,城厢镇,颗粒物(PM10),67,84,62,47,31,100,,206,189,42,27,11,8,0.5,0.5
2025-04-28T2200,1233A,120.0883,30.1808,杭州市,云栖,颗粒物(PM10),58,66,41,33,23,87,,199,169,41,24,6,6,0.7,0.7
2025-04-28T2200,3557A,119.9464,30.0494,杭州市,镇二中,颗粒物(PM10),58,65,39,34,27,119,,186,178,44,26,4,4,0.6,0.6
2025-04-28T2200,3558A,119.7183,30.2367,杭州市,市府大楼,细颗粒物(PM2.5),69,83,48,50,25,147,,194,190,26,17,9,8,0.6,0.5
2025-04-28T2200,3656A,120.1556,30.2864,杭州市,消防大队,细颗粒物(PM2.5),77,80,53,56,33,118,,198,187,44,25,5,5,0.7,0.7
2025-04-28T2200,1270A,117.1959,31.7848,合肥市,明珠广场,颗粒物(PM10),78,105,84,56,43,116,,196,186,53,25,6,7,0.6,0.5
2025-04-28T2200,1271A,117.3072,31.8764,合肥市,三里街,颗粒物(PM10),65,80,81,34,36,140,,189,184,32,21,6,6,0.7,0.6
2025-04-28T2200,1272A,117.2588,31.8707,合肥市,琥珀山庄,颗粒物(PM10),74,97,81,45,43,120,,190,178,48,24,4,4,0.8,0.6
2025-04-28T2200,1273A,117.1604,31.9052,合肥市,董铺水库,颗粒物(PM10),69,88,82,41,36,116,,178,172,28,17,2,2,0.5,0.4
2025-04-28T2200,1274A,117.25,31.8571,合肥市,长江中路,颗粒物(PM10),78,105,86,55,46,141,,188,184,31,20,9,9,0.7,0.6
2025-04-28T2200,1275A,117.266,31.9436,合肥市,庐阳区,细颗粒物(PM2.5),89,117,81,66,42,115,,195,186,43,19,17,8,1.4,0.6
2025-04-28T2200,1276A,117.3453,31.8616,合肥市,瑶海区,颗粒物(PM10),64,78,82,37,40,145,,185,180,30,24,7,7,0.6,0.5
2025-04-28T2200,1277A,117.3027,31.7964,合肥市,包河区,颗粒物(PM10),68,85,86,41,42,102,,185,171,68,32,7,7,0.6,0.6
2025-04-28T2200,1278A,117.2776,31.7385,合肥市,滨湖新区,颗粒物(PM10),81,112,89,58,50,124,,181,174,45,26,8,8,0.8,0.7
2025-04-28T2200,1279A,117.1318,31.8403,合肥市,高新区,颗粒物(PM10),76,102,84,50,44,138,,189,183,36,20,4,3,0.6,0.5
2025-04-28T2200,3464A,117.3803,31.9147,合肥市,高教基地,颗粒物(PM10),68,85,87,32,40,136,,190,172,19,24,6,6,0.5,0.5
2025-04-28T2200,3614A,79.924,37.0877,和田地区,地区环保局,颗粒物(PM10),91,132,126,37,30,71,,99,96,32,9,1,2,0.3,0.2
2025-04-28T2200,3615A,79.9131,37.113,和田地区,市环保局,颗粒物(PM10),88,125,151,26,35,49,,105,98,63,21,3,3,0.3,0.2
2025-04-28T2200,2516A,108.2011,24.715,河池市,东仁乐园,,,,,,,,,,,,,,,,
2025-04-28T2200,2517A,108.0497,24.6947,河池市,市环保站,,32,22,32,9,16,102,,108,108,9,10,13,8,0.5,0.6
2025-04-28T2200,2518A,108.0983,24.6989,河池市,市疾控中心,,41,41,32,16,19,54,,112,105,48,19,8,8,0.5,0.6
2025-04-28T2200,1696A,114.6778,23.7569,河源市,源西,,25,25,25,15,15,60,,84,82,26,23,5,4,0.8,0.8
2025-04-28T2200,1697A,114.6944,23.7586,河源市,东埔,,26,22,26,16,23,82,,89,89,17,19,8,4,0.8,0.9
2025-04-28T2200,1698A,114.6892,23.7233,河源市,老城,,37,37,32,15,32,65,,85,81,21,20,6,4,0.6,0.7
2025-04-28T2200,1718A,115.4208,35.2464,菏泽市,气象局,颗粒物(PM10),64,77,71,18,29,116,,152,146,16,16,6,8,0.3,0.4
2025-04-28T2200,3374A,115.5564,35.0891,菏泽市,定陶老年大学,颗粒物(PM10),52,53,54,12,20,106,,146,138,16,17,14,7,0.3,0.4
2025-04-28T2200,4184A,115.4797,35.24401,菏泽市,永昌路1号,颗粒物(PM10),57,63,63,19,29,108,,148,141,22,17,7,9,0.3,0.3
2025-04-28T2200,4193A,115.4715,35.2800,菏泽市,长城路999号,颗粒物(PM10),55,59,61,13,24,112,,147,142,25,20,7,10,0.3,0.3
2025-04-28T2200,2514A,111.5264,24.4172,贺州市,环保小区,颗粒物(PM10),58,65,32,29,12,52,,102,92,28,13,6,6,0.8,0.8
2025-04-28T2200,2515A,111.5608,24.4078,贺州市,政协大楼,,47,47,24,31,16,66,,103,96,27,12,6,6,0.7,0.8
2025-04-28T2200,3534A,111.4744,24.4553,贺州市,西湾,,40,40,25,19,10,88,,104,100,15,9,8,7,0.7,0.7
2025-04-28T2200,2385A,114.17,35.9019,鹤壁市,市监测站,颗粒物(PM10),51,51,89,18,22,130,,154,150,16,15,11,8,0.7,0.5
2025-04-28T2200,2386A,114.2956,35.7511,鹤壁市,市交警支队,颗粒物(PM10),60,69,80,23,18,115,,154,148,38,36,10,9,0.6,0.7
2025-04-28T2200,2387A,114.2878,35.7306,鹤壁市,迎宾馆,颗粒物(PM10),59,67,71,16,16,114,,158,151,21,18,3,3,0.5,0.5
2025-04-28T2200,3474A,114.2617,35.6822,鹤壁市,大新区,颗粒物(PM10),58,66,56,20,21,70,,146,130,47,24,7,8,0.5,0.5
2025-04-28T2200,3596A,114.1572,35.9603,鹤壁市,南山宾馆,颗粒物(PM10),70,90,76,30,26,116,,154,149,18,10,8,6,0.5,0.5
2025-04-28T2200,2244A,130.2537,47.3416,鹤岗市,哈啤分公司,,32,29,20,22,13,18,,52,38,19,9,14,15,0.4,0.3
2025-04-28T2200,2245A,130.2684,47.3086,鹤岗市,斯达机电,,44,44,19,20,13,30,,57,52,24,7,12,11,0.3,0.2
2025-04-28T2200,2246A,130.3114,47.3388,鹤岗市,东山纸板厂,,38,37,24,26,16,7,,60,38,32,13,14,11,1.0,0.3
2025-04-28T2200,2247A,130.1097,47.3382,鹤岗市,五号水库,,,,,,,,,,,,,,,,
2025-04-28T2200,2263A,127.4833,50.2524,黑河市,交通局,,18,16,16,11,14,57,,80,74,6,7,7,8,0.3,0.3
2025-04-28T2200,2264A,127.5144,50.2341,黑河市,环保局,,20,10,12,8,13,61,,89,80,3,7,3,4,0.2,0.2
2025-04-28T2200,2265A,127.5291,50.2472,黑河市,大黑河岛,,23,6,10,3,5,71,,91,85,3,4,1,2,0.2,0.2
2025-04-28T2200,1074A,115.6838,37.7541,衡水市,电机北厂,颗粒物(PM10),59,67,54,22,26,112,,138,135,18,17,9,10,0.4,0.3
2025-04-28T2200,1075A,115.6303,37.7316,衡水市,市监测站,颗粒物(PM10),64,77,53,20,17,97,,133,127,28,21,11,12,0.5,0.4
2025-04-28T2200,3188A,115.6683,37.7217,衡水市,市城管局,颗粒物(PM10),54,58,53,21,25,98,,136,131,22,19,13,12,0.4,0.3
2025-04-28T2200,3459A,115.5989,37.5491,衡水市,地表水厂,颗粒物(PM10),54,57,57,18,19,81,,136,123,28,33,8,9,0.4,0.3
2025-04-28T2200,2456A,112.5003,26.9167,衡阳市,原169医院,颗粒物(PM10),54,58,34,29,17,57,,132,122,59,18,6,5,0.8,0.8
2025-04-28T2200,2457A,112.6194,26.9258,衡阳市,衡阳化工总厂,细颗粒物(PM2.5),59,65,46,42,30,92,,128,124,16,10,6,6,0.8,0.8
2025-04-28T2200,2458A,112.6211,26.8956,衡阳市,珠晖区环保局,颗粒物(PM10),55,60,43,33,28,58,,132,123,56,13,8,9,0.8,0.8
2025-04-28T2200,2459A,112.6197,26.8733,衡阳市,市委党校,,,50,41,,16,110,,131,130,12,10,4,4,0.7,0.6
2025-04-28T2200,2460A,112.6006,26.8919,衡阳市,市监测站,细颗粒物(PM2.5),67,73,44,48,29,82,,124,117,23,13,8,9,0.9,0.8
2025-04-28T2200,2461A,112.5664,26.9056,衡阳市,真空机电公司,颗粒物(PM10),63,75,41,36,21,73,,128,118,40,12,5,5,1.1,0.9
2025-04-28T2200,3399A,112.6703,26.882,衡阳市,师范学院,细颗粒物(PM2.5),75,67,42,55,28,88,,136,128,16,13,6,7,1.0,0.8
2025-04-28T2200,2608A,103.3772,23.3993,红河哈尼族彝族自治州,污水处理厂,细颗粒物(PM2.5),59,49,58,42,43,83,,98,92,5,10,4,8,0.5,0.7
2025-04-28T2200,2609A,103.3861,23.35,红河哈尼族彝族自治州,监测站,颗粒物(PM10),51,52,59,34,40,72,,98,87,7,9,6,7,0.4,0.4
2025-04-28T2200,3038A,103.3758,23.368,红河哈尼族彝族自治州,州图书馆,细颗粒物(PM2.5),57,43,60,40,43,64,,95,83,12,9,2,2,0.4,0.4
2025-04-28T2200,1090A,111.6507,40.7517,呼和浩特市,呼市一监,颗粒物(PM10),67,83,63,26,20,61,,113,103,25,22,8,7,0.5,0.5
2025-04-28T2200,1091A,111.6572,40.8033,呼和浩特市,小召,颗粒物(PM10),54,58,47,19,15,48,,105,93,48,30,9,8,0.5,0.4
2025-04-28T2200,1094A,111.7516,40.8369,呼和浩特市,如意水处理厂,,29,29,37,10,13,81,,110,107,21,30,6,9,0.4,0.4
2025-04-28T2200,1095A,111.7276,40.8062,呼和浩特市,二十九中,颗粒物(PM10),51,51,39,17,17,64,,110,102,27,20,5,5,0.5,0.4
2025-04-28T2200,1096A,111.5512,40.7866,呼和浩特市,工大金川校区,,30,30,39,6,16,71,,114,106,30,32,5,7,0.4,0.5
2025-04-28T2200,1097A,111.717,40.7612,呼和浩特市,化肥厂生活区,颗粒物(PM10),66,82,57,20,18,58,,111,101,39,30,18,11,0.4,0.4
2025-04-28T2200,3698A,111.5968,40.8178,呼和浩特市,红旗小学,,29,29,42,6,13,70,,114,105,37,31,4,6,0.3,0.4
2025-04-28T2200,3699A,111.6518,40.8389,呼和浩特市,海东办,,24,24,36,8,14,76,,109,105,23,23,6,8,0.4,0.5
2025-04-28T2200,2192A,119.7594,49.2261,呼伦贝尔市,区环保局,,27,,24,18,18,86,,96,95,7,10,5,5,0.3,0.3
2025-04-28T2200,3061A,119.7512,49.1577,呼伦贝尔市,国华电力东,,27,27,23,9,11,84,,97,95,5,7,3,4,0.3,0.3
2025-04-28T2200,1250A,120.0751,30.8669,湖州市,城西水厂,,48,48,71,24,41,120,,213,199,27,38,8,9,0.5,0.6
2025-04-28T2200,2873A,120.0830,30.8929,湖州市,仁皇山新区,,46,46,71,21,42,111,,208,191,31,39,6,8,0.8,0.9
2025-04-28T2200,2907A,120.1844,30.8596,湖州市,吴兴区站,,43,43,66,26,44,102,,210,190,28,37,8,9,0.5,0.7
2025-04-28T2200,3562A,120.4148,30.8538,湖州市,南浔区站,颗粒物(PM10),55,60,79,32,49,63,,196,171,42,36,8,6,0.6,0.7
2025-04-28T2200,1607A,120.9049,40.7211,葫芦岛市,龙港区,,31,23,42,19,21,98,,116,114,12,19,7,18,0.4,0.5
2025-04-28T2200,1608A,120.8392,40.7514,葫芦岛市,化工街,,46,46,41,24,18,63,,110,102,44,25,10,17,0.6,0.5
2025-04-28T2200,1609A,120.8341,40.7073,葫芦岛市,新区,,37,37,38,25,20,88,,112,109,23,24,8,14,0.5,0.5
2025-04-28T2200,1610A,120.8695,40.7677,葫芦岛市,东城区,,43,39,43,30,24,68,,104,99,38,24,6,19,0.6,0.6
2025-04-28T2200,2482A,109.5981,27.5721,怀化市,林科所,细颗粒物(PM2.5),53,47,37,37,21,102,,109,109,9,12,22,11,0.6,0.5
2025-04-28T2200,2483A,109.9453,27.5444,怀化市,河西地税局,细颗粒物(PM2.5),62,65,36,44,23,41,,108,96,16,13,3,4,0.6,0.6
2025-04-28T2200,2484A,109.9781,27.5342,怀化市,市四医院,颗粒物(PM10),51,52,48,30,28,76,,124,116,25,16,4,6,0.7,0.7
2025-04-28T2200,2485A,109.9972,27.5578,怀化市,监测楼,,,66,44,35,26,62,,127,119,32,15,,5,0.4,0.8
2025-04-28T2200,2486A,110.0394,27.583,怀化市,市委党校,颗粒物(PM10),56,62,38,38,23,30,,120,107,52,14,6,7,0.7,0.7
2025-04-28T2200,1210A,119.036,33.5981,淮安市,钵池山,,48,48,50,21,32,106,,135,127,23,23,8,9,0.3,0.4
2025-04-28T2200,1211A,119.007,33.575,淮安市,北京南路,,39,39,49,20,30,109,,137,129,19,23,8,9,0.5,0.6
2025-04-28T2200,1212A,118.989,33.6067,淮安市,市监测站,,36,36,45,24,32,106,,131,123,21,27,8,9,0.4,0.5
2025-04-28T2200,1213A,119.135,33.5039,淮安市,楚州区监测站,颗粒物(PM10),57,63,58,24,32,57,,128,112,56,22,8,8,0.6,0.7
2025-04-28T2200,3426A,118.8755,33.2894,淮安市,新华书店,,41,41,58,21,36,105,,146,133,23,22,8,12,0.5,0.6
2025-04-28T2200,4206A,119.0288,33.6319,淮安市,承德北路606号,,46,46,59,24,36,105,,133,123,21,26,8,9,0.4,0.4
2025-04-28T2200,2282A,116.8004,33.975,淮北市,监测站,,34,31,62,7,31,106,,133,122,24,20,8,8,0.7,0.8
2025-04-28T2200,2283A,116.8091,33.9007,淮北市,烈山区政府,颗粒物(PM10),73,95,66,31,32,41,,138,116,75,19,6,6,1.1,0.7
2025-04-28T2200,3330A,116.8873,33.9836,淮北市,杜集区检察院,颗粒物(PM10),60,70,71,22,38,68,,136,119,40,21,7,8,0.8,0.8
2025-04-28T2200,4017A,116.7923,33.9535,淮北市,市博物馆,颗粒物(PM10),55,60,59,20,32,53,,135,116,50,20,7,8,1.0,0.8
2025-04-28T2200,2277A,116.8305,32.7727,淮南市,潘集区政府,颗粒物(PM10),70,89,86,40,47,82,,162,143,43,19,6,8,0.4,0.5
2025-04-28T2200,2279A,116.8569,32.5951,淮南市,谢家集区政府,,44,40,78,27,49,139,,171,159,16,21,6,8,0.3,0.4
2025-04-28T2200,2280A,116.8281,32.633,淮南市,八公山区政府,,50,50,93,25,46,152,,169,161,7,13,6,7,0.3,0.4
2025-04-28T2200,2281A,116.6325,32.6201,淮南市,焦岗湖风景区管理处,,,,,,,,,,,,,,,,
2025-04-28T2200,2894A,117.0566,32.6531,淮南市,经济技术开发区消防队,颗粒物(PM10),59,67,78,41,55,79,,164,144,43,20,6,8,0.4,0.5
2025-04-28T2200,3329A,117.0108,32.5893,淮南市,山南新区,颗粒物(PM10),58,65,91,31,43,112,,179,158,25,21,9,10,0.5,0.6
2025-04-28T2200,4209A,117.0031,32.6445,淮南市,国庆中路369号,颗粒物(PM10),66,82,89,28,48,110,,171,150,28,18,12,10,0.5,0.5
2025-04-28T2200,2446A,114.9028,30.4742,黄冈市,职工中心,,32,20,54,12,37,102,,158,140,19,14,7,7,0.5,0.7
2025-04-28T2200,2929A,114.8858,30.4519,黄冈市,红卫路,,31,24,62,12,38,99,,159,137,18,11,7,6,0.4,0.6
2025-04-28T2200,3398A,114.9136,30.4445,黄冈市,市林业局,,36,21,60,14,39,115,,159,143,7,8,8,7,0.5,0.6
2025-04-28T2200,2672A,102.0199,35.5102,黄南藏族自治州,同仁县隆务镇,,40,40,39,22,17,84,,111,108,2,4,4,4,0.1,0.1
2025-04-28T2200,2295A,118.2903,29.6963,黄山市,延安路89号,颗粒物(PM10),52,53,31,34,17,52,,139,115,15,6,5,4,0.6,0.5
2025-04-28T2200,2297A,118.1371,30.2756,黄山市,黄山区政府5号楼,颗粒物(PM10),58,66,42,38,22,101,,169,157,13,6,4,4,0.7,0.6
2025-04-28T2200,4210A,118.3354,29.7203,黄山市,滨江东路7-2号,颗粒物(PM10),51,51,36,31,17,50,,139,113,14,4,4,4,0.7,0.5
2025-04-28T2200,2423A,115.0601,30.2313,黄石市,沈家营,,48,48,78,24,31,64,,185,157,58,16,6,8,0.7,0.8
2025-04-28T2200,2426A,114.8988,30.2019,黄石市,铁山,颗粒物(PM10),55,60,77,23,38,65,,171,146,29,21,10,7,0.9,0.3
2025-04-28T2200,2427A,115.0307,30.2092,黄石市,团城山,,44,44,81,19,28,106,,171,155,20,18,7,9,0.6,0.7
2025-04-28T2200,3149A,115.0235,30.1578,黄石市,笔架山北路,,40,37,59,28,29,115,,182,164,17,13,7,8,0.6,0.7
2025-04-28T2200,4185A,115.0780,30.21118,黄石市,磁湖东路29号,颗粒物(PM10),54,57,70,33,39,90,,188,164,38,10,7,7,0.8,0.7
2025-04-28T2200,1392A,114.4183,23.0528,惠州市,河南岸金山湖子站,,,13,30,8,24,,,84,80,20,18,9,8,0.5,0.5
2025-04-28T2200,1393A,114.4053,23.0822,惠州市,下埔横江三路子站,,24,12,34,7,22,74,,92,84,15,15,10,8,0.7,0.7
2025-04-28T2200,1394A,114.4103,23.1142,惠州市,江北云山西路子站,,23,13,34,7,21,73,,93,84,18,15,14,10,0.6,0.6
2025-04-28T2200,1395A,114.4645,22.7833,惠州市,惠阳区承修路船湖子站,,23,18,34,10,19,71,,98,88,17,16,9,8,0.8,0.7
2025-04-28T2200,1396A,114.5317,22.7422,惠州市,大亚湾管委会子站,,23,12,31,7,17,73,,96,89,20,18,8,8,0.5,0.6
2025-04-28T2200,3314A,114.4338,22.8134,惠州市,惠阳秋长,,27,22,30,10,20,86,,110,99,14,14,9,8,0.6,0.6
2025-04-28T2200,3452A,114.6517,22.775,惠州市,大亚湾霞涌,,27,27,27,9,16,78,,110,95,15,15,9,8,0.6,0.6
2025-04-28T2200,2240A,130.9762,45.3001,鸡西市,环保局,细颗粒物(PM2.5),54,50,40,38,33,43,,106,92,32,13,7,6,0.6,0.4
2025-04-28T2200,2243A,130.9429,45.3039,鸡西市,第一中学,细颗粒物(PM2.5),54,50,43,38,35,47,,103,89,29,10,6,11,0.6,0.4
2025-04-28T2200,3707A,131.0207,45.3073,鸡西市,欧美日汽修厂,细颗粒物(PM2.5),70,68,47,51,41,53,,102,84,19,16,6,6,0.6,0.6
2025-04-28T2200,3709A,130.9967,45.3106,鸡西市,市政设施管理处,细颗粒物(PM2.5),68,78,49,49,37,48,,96,80,23,20,8,7,0.6,0.5
2025-04-28T2200,2367A,114.9754,27.0803,吉安市,红声器材厂,颗粒物(PM10),53,55,37,33,20,65,,136,121,31,12,9,12,0.7,0.6
2025-04-28T2200,2368A,114.9658,27.0999,吉安市,市森林工业局,颗粒物(PM10),53,55,35,34,22,65,,128,116,28,10,8,12,0.6,0.5
2025-04-28T2200,2369A,114.99,27.1312,吉安市,市环境监测站,"颗粒物(PM10),细颗粒物(PM2.5)",55,59,36,39,23,70,,136,124,17,8,9,13,0.7,0.6
2025-04-28T2200,2370A,115.0093,27.0968,吉安市,青原区法院,颗粒物(PM10),54,57,36,34,24,82,,138,123,12,10,11,13,0.5,0.5
2025-04-28T2200,1772A,126.54,43.8622,吉林市,哈达湾,细颗粒物(PM2.5),97,104,56,72,39,45,,116,98,49,16,7,8,0.7,0.4
2025-04-28T2200,1773A,126.5844,43.8358,吉林市,东局子,细颗粒物(PM2.5),64,61,46,46,37,73,,115,99,29,16,5,7,0.5,0.6
2025-04-28T2200,1774A,126.5052,43.8245,吉林市,电力学院,细颗粒物(PM2.5),118,101,51,89,44,31,,116,89,37,14,6,6,1.0,0.5
2025-04-28T2200,1775A,126.6133,43.8972,吉林市,江北,细颗粒物(PM2.5),70,72,52,51,33,69,,116,98,25,14,6,7,0.9,0.7
2025-04-28T2200,1776A,126.555,43.8306,吉林市,江南公园,细颗粒物(PM2.5),74,62,46,54,40,70,,112,98,22,13,5,6,0.5,0.5
2025-04-28T2200,1778A,126.7061,43.7133,吉林市,丰满,,,,,,,,,,,,,,,,
2025-04-28T2200,2868A,126.4739,43.953,吉林市,九站,细颗粒物(PM2.5),62,58,57,44,44,39,,116,87,52,19,7,10,0.7,0.7
2025-04-28T2200,1299A,116.9862,36.6114,济南市,科干所,颗粒物(PM10),52,53,43,20,15,147,,131,131,12,20,8,4,0.3,0.4
2025-04-28T2200,1300A,116.9376,36.665,济南市,农科所,颗粒物(PM10),57,63,51,15,15,66,,126,110,46,31,8,8,0.5,0.4
2025-04-28T2200,1301A,117.1265,36.6734,济南市,开发区,,44,44,37,20,17,107,,122,113,21,21,8,7,0.5,0.5
2025-04-28T2200,1303A,117.0624,36.6868,济南市,省种子仓库,颗粒物(PM10),52,53,55,29,32,92,,124,113,35,30,6,5,0.5,0.4
2025-04-28T2200,1304A,116.9489,36.6447,济南市,机床二厂,颗粒物(PM10),58,66,67,17,20,124,,130,122,24,32,11,9,0.5,0.5
2025-04-28T2200,1305A,117.0495,36.663,济南市,市监测站,颗粒物(PM10),51,51,49,17,20,134,,121,117,16,27,11,9,0.5,0.5
2025-04-28T2200,1306A,116.7675,36.5484,济南市,长清党校,,49,49,48,17,18,147,,147,146,20,28,8,6,0.6,0.6
2025-04-28T2200,1616A,117.6795,36.229,济南市,技术学院,,41,41,55,14,28,112,,131,129,19,27,12,12,0.7,0.9
2025-04-28T2200,1961A,117.532,36.6868,济南市,东山小学,,44,44,55,20,18,45,,126,104,53,26,6,6,0.3,0.3
2025-04-28T2200,3059A,117.7161,36.2049,济南市,泰兴公司,颗粒物(PM10),51,51,55,22,31,50,,134,118,60,36,9,10,0.8,0.8
2025-04-28T2200,3064A,117.6867,36.2171,济南市,莱芜战役纪念馆,,44,44,46,12,26,111,,128,127,25,34,6,7,0.6,0.8
2025-04-28T2200,3494A,117.1673,36.9782,济南市,济阳区政府,颗粒物(PM10),62,73,58,12,20,114,,142,138,31,31,8,7,0.4,0.5
2025-04-28T2200,3495A,117.1171,36.63,济南市,锦屏中学,,39,39,34,10,8,123,,124,112,18,15,6,5,0.3,0.3
2025-04-28T2200,3682A,116.9814,36.6819,济南市,济南四建,颗粒物(PM10),57,63,58,15,21,126,,132,127,26,31,8,6,0.5,0.5
2025-04-28T2200,1653A,116.6251,35.4302,济宁市,火炬城,,48,48,54,14,23,106,,141,136,14,14,14,8,0.3,0.4
2025-04-28T2200,1655A,116.5491,35.4042,济宁市,电化厂,颗粒物(PM10),57,64,63,24,31,94,,140,129,19,20,14,7,0.5,0.5
2025-04-28T2200,3500A,116.5814,35.3707,济宁市,北湖一中,,47,47,60,14,19,107,,146,139,25,26,14,8,0.3,0.4
2025-04-28T2200,3501A,116.8249,35.5593,济宁市,服务中心,颗粒物(PM10),70,90,79,38,30,88,,138,130,38,25,3,4,0.4,0.6
2025-04-28T2200,3678A,116.5907,35.4054,济宁市,市第七中学,颗粒物(PM10),74,98,73,14,19,116,,146,141,13,18,16,13,0.3,0.4
2025-04-28T2200,2255A,130.2751,46.8028,佳木斯市,佳纺,颗粒物(PM10),53,55,13,29,8,20,,72,50,28,12,4,4,0.5,0.3
2025-04-28T2200,2256A,130.3995,46.8307,佳木斯市,发电厂,,18,18,10,11,7,34,,72,62,19,9,3,6,0.4,0.3
2025-04-28T2200,2257A,130.3258,46.7975,佳木斯市,环保局,颗粒物(PM10),56,61,15,22,9,0,,67,46,60,15,6,4,0.8,0.4
2025-04-28T2200,2258A,130.3648,46.8032,佳木斯市,十一中,,48,48,10,24,8,5,,68,51,59,12,6,4,1.3,0.4
2025-04-28T2200,2259A,130.3794,46.7588,佳木斯市,四丰,,20,20,11,13,8,14,,61,51,7,10,1,1,0.3,0.2
2025-04-28T2200,1252A,120.7436,30.778,嘉兴市,清河小学,,27,27,65,10,34,71,,177,145,24,39,5,7,0.7,1
2025-04-28T2200,1253A,120.726,30.7478,嘉兴市,嘉兴学院,,36,36,66,13,38,72,,195,158,28,46,7,8,0.7,0.9
2025-04-28T2200,2872A,120.7846,30.7525,嘉兴市,南湖区残联,,40,40,60,13,36,78,,184,152,24,40,6,8,0.5,0.8
2025-04-28T2200,3407A,120.6916,30.7739,嘉兴市,秀洲住建,,30,30,78,8,35,79,,211,176,17,35,7,9,0.5,0.8
2025-04-28T2200,1945A,98.2908,39.7711,嘉峪关市,气象局,,33,29,75,7,24,103,,110,106,11,10,7,4,0.3,0.3
2025-04-28T2200,2884A,98.2672,39.7978,嘉峪关市,酒钢宾馆,,41,41,90,17,24,99,,108,104,9,9,11,17,0.2,0.3
2025-04-28T2200,3248A,98.2643,39.7724,嘉峪关市,雄关区,,38,29,69,26,23,102,,109,106,12,13,4,5,0.5,0.5
2025-04-28T2200,1383A,113.1064,22.6058,江门市,北街,,26,26,36,10,19,50,,154,132,46,28,2,2,0.6,0.5
2025-04-28T2200,1384A,113.0731,22.5835,江门市,西区,,35,35,29,18,17,58,,147,124,42,26,7,6,0.6,0.6
2025-04-28T2200,1385A,113.0219,22.5311,江门市,圭峰西,,34,34,33,12,20,72,,139,124,22,31,5,4,0.7,0.7
2025-04-28T2200,1386A,113.0828,22.5947,江门市,东湖,,29,23,35,20,20,59,,143,122,33,23,8,7,0.7,0.6
2025-04-28T2200,3311A,113.1075,22.5647,江门市,江海富民,,28,28,59,18,31,59,,150,130,36,21,8,7,0.6,0.6
2025-04-28T2200,3449A,113.05,22.4667,江门市,新会银湖,,48,48,41,14,28,46,,153,124,47,27,3,2,0.7,0.7
2025-04-28T2200,1830A,113.1992,35.2590,焦作市,影视城,,,,38,,18,,,,,,8,,9,,0.8
2025-04-28T2200,3169A,113.2725,35.2067,焦作市,太极体育中心,颗粒物(PM10),82,113,106,28,31,77,,149,137,37,20,3,5,0.3,0.5
2025-04-28T2200,3335A,113.3137,35.2641,焦作市,马村街道办,颗粒物(PM10),67,84,75,23,27,100,,149,135,35,23,8,11,0.5,0.4
2025-04-28T2200,3336A,113.2465,35.2373,焦作市,焦作技师学院,颗粒物(PM10),61,72,92,14,22,112,,153,146,22,21,7,12,0.4,0.5
2025-04-28T2200,3477A,113.1656,35.2539,焦作市,中站许衡医院,颗粒物(PM10),57,64,73,34,29,102,,158,146,57,23,8,10,0.5,0.6
2025-04-28T2200,3981A,113.2449,35.1803,焦作市,原李万街道办,颗粒物(PM10),59,68,88,22,24,109,,153,146,27,26,12,16,0.5,0.5
2025-04-28T2200,4264A,113.2340,35.2190,焦作市,新安路1731号,颗粒物(PM10),59,67,91,31,36,108,,155,144,25,25,7,13,0.5,0.9
2025-04-28T2200,1708A,116.3701,23.5345,揭阳市,新兴,,45,44,56,31,37,112,,92,92,14,17,6,6,0.8,0.9
2025-04-28T2200,1709A,116.3264,23.5443,揭阳市,西马,,46,43,55,32,30,114,,87,87,8,11,8,8,0.9,0.9
2025-04-28T2200,1710A,116.3611,23.5626,揭阳市,东兴,,49,43,66,34,42,111,,90,90,10,13,6,5,0.6,0.7
2025-04-28T2200,1711A,116.4151,23.5294,揭阳市,渔湖,,38,38,66,23,27,117,,97,97,10,16,4,5,0.8,0.9
2025-04-28T2200,3320A,116.403,23.5699,揭阳市,曲溪,,39,30,47,27,29,118,,99,99,16,20,3,2,0.7,0.7
2025-04-28T2200,1944A,102.1692,38.5167,金昌市,天庆家园,颗粒物(PM10),153,256,71,70,29,110,,115,115,4,13,9,17,0.5,0.7
2025-04-28T2200,4022A,102.1647,38.5371,金昌市,金川区人防中心,颗粒物(PM10),209,356,107,86,30,103,,112,111,6,12,20,28,0.4,0.5
2025-04-28T2200,4239A,102.1930,38.5319,金昌市,长春路96号,颗粒物(PM10),258,390,93,82,32,110,,115,114,3,13,13,38,0.4,0.5
2025-04-28T2200,1262A,119.647,29.077,金华市,十五中,颗粒物(PM10),66,82,44,44,28,59,,131,112,52,29,2,2,0.8,0.7
2025-04-28T2200,1263A,119.686,29.1029,金华市,监测站,细颗粒物(PM2.5),80,87,43,59,29,47,,130,106,74,30,5,5,0.8,0.7
2025-04-28T2200,3659A,119.656,29.1131,金华市,气象局,颗粒物(PM10),74,98,46,42,25,53,,128,104,60,27,2,2,0.7,0.6
2025-04-28T2200,1767A,121.1115,41.0879,锦州市,南山,,33,30,36,23,23,83,,104,100,26,22,8,9,0.6,0.6
2025-04-28T2200,1768A,121.0604,40.8428,锦州市,开发区,,41,41,54,27,23,83,,105,97,31,25,8,11,0.6,0.6
2025-04-28T2200,1769A,121.1836,41.1119,锦州市,百股街道,,33,33,39,22,18,90,,103,102,18,18,6,10,0.6,0.6
2025-04-28T2200,1770A,121.1178,41.1222,锦州市,天安街道,,46,46,37,31,20,83,,100,97,24,18,9,10,0.7,0.6
2025-04-28T2200,1771A,121.1303,41.1386,锦州市,北湖公园,,48,48,35,27,19,87,,103,101,22,12,11,12,0.6,0.6
2025-04-28T2200,2160A,112.85,35.5051,晋城市,自来水公司,颗粒物(PM10),56,62,74,17,17,114,,137,136,32,23,10,11,0.6,0.8
2025-04-28T2200,2161A,112.8318,35.4936,晋城市,白云商贸,颗粒物(PM10),61,72,62,17,12,88,,138,132,44,25,9,8,0.8,0.7
2025-04-28T2200,2162A,112.8508,35.4887,晋城市,市环保局,颗粒物(PM10),73,96,74,12,15,114,,135,133,27,24,9,9,0.3,0.5
2025-04-28T2200,2163A,112.8676,35.4897,晋城市,技术学院,,,67,71,14,16,,,136,136,27,32,10,11,0.5,1
2025-04-28T2200,2165A,112.8453,35.546,晋城市,白马寺,,48,48,55,16,30,140,,141,141,14,14,10,24,0.4,0.9
2025-04-28T2200,3620A,112.8271,35.4828,晋城市,泽州一中,,38,38,56,19,13,112,,138,137,28,22,8,6,0.5,0.6
2025-04-28T2200,2173A,112.7249,37.7067,晋中市,南都小区,颗粒物(PM10),61,72,44,14,9,59,,119,108,47,24,5,8,0.2,0.2
2025-04-28T2200,2174A,112.6991,37.6982,晋中市,榆次区政府,颗粒物(PM10),60,70,46,17,11,48,,119,105,58,27,6,9,0.2,0.2
2025-04-28T2200,2865A,112.7195,37.6828,晋中市,榆次三中,颗粒物(PM10),59,68,48,24,13,64,,120,109,40,28,5,8,0.1,0.1
2025-04-28T2200,4200A,112.7478,37.6954,晋中市,迎宾街26号,颗粒物(PM10),60,70,44,24,12,59,,117,107,34,19,6,8,0.5,0.4
2025-04-28T2200,2439A,112.2014,31.0481,荆门市,竹园小学,颗粒物(PM10),53,56,81,20,30,96,,156,138,28,13,12,7,0.2,0.3
2025-04-28T2200,2440A,112.1969,30.9891,荆门市,掇刀,颗粒物(PM10),54,57,74,26,30,107,,149,138,21,12,18,12,0.4,0.3
2025-04-28T2200,2441A,112.2213,31.0386,荆门市,石化一小,颗粒物(PM10),56,62,78,24,31,79,,153,136,37,12,12,11,0.3,0.4
2025-04-28T2200,3012A,112.1849,31.0362,荆门市,西山林语,,34,34,70,16,27,107,,153,144,10,8,9,9,0.2,0.5
2025-04-28T2200,3547A,112.1632,31.0138,荆门市,龙泉中学南校,颗粒物(PM10),54,57,70,17,29,110,,151,142,20,11,10,10,0.4,0.4
2025-04-28T2200,1844A,112.2494,30.3197,荆州市,市图书馆,颗粒物(PM10),65,80,62,35,33,129,,159,151,30,19,7,6,0.7,0.5
2025-04-28T2200,1845A,112.2008,30.3544,荆州市,市委党校,,,,66,,32,105,,150,140,,16,10,8,0.5,0.5
2025-04-28T2200,3194A,112.2747,30.3122,荆州市,管委会,颗粒物(PM10),67,83,62,35,34,113,,155,145,38,16,8,7,0.7,0.7
2025-04-28T2200,4268A,112.1722,30.3366,荆州市,学苑路85号,颗粒物(PM10),63,75,60,42,35,54,,152,127,55,23,4,4,0.6,0.5
2025-04-28T2200,2342A,117.3102,29.3867,景德镇市,王港中学,,,,,,,,,,,,,,,,
2025-04-28T2200,2343A,117.2117,29.2933,景德镇市,老干部活动中心,细颗粒物(PM2.5),64,70,39,46,26,60,,131,112,28,11,10,9,0.8,0.6
2025-04-28T2200,2344A,117.1894,29.2789,景德镇市,兽医站,颗粒物(PM10),61,72,47,39,24,67,,123,105,28,16,9,6,0.9,0.7
2025-04-28T2200,2345A,117.1547,29.2617,景德镇市,台达陶瓷,颗粒物(PM10),68,86,56,47,32,60,,121,108,49,22,78,43,1.5,1
2025-04-28T2200,2346A,117.2461,29.2956,景德镇市,陶研所,细颗粒物(PM2.5),59,58,44,42,32,68,,123,102,15,15,7,7,0.7,0.6
2025-04-28T2200,1803A,115.9872,29.6815,九江市,十里,细颗粒物(PM2.5),60,52,51,43,36,91,,175,149,20,18,2,3,0.7,0.7
2025-04-28T2200,1804A,115.9584,29.7046,九江市,茅山头,,45,38,56,31,33,107,,164,146,17,18,5,5,0.5,0.6
2025-04-28T2200,1805A,115.9877,29.7295,九江市,西园,颗粒物(PM10),53,56,46,28,30,109,,158,141,30,32,8,9,0.7,0.9
2025-04-28T2200,1808A,115.9114,29.6038,九江市,综合工业园,颗粒物(PM10),67,83,55,34,32,44,,168,141,92,34,13,9,0.8,0.8
2025-04-28T2200,1809A,116.0721,29.7535,九江市,石化总厂,细颗粒物(PM2.5),69,72,58,50,41,92,,154,123,22,22,5,8,0.8,0.9
2025-04-28T2200,1810A,115.9773,29.5698,九江市,庐山气象台,细颗粒物(PM2.5),72,83,48,52,40,168,,164,164,15,12,6,6,0.6,0.8
2025-04-28T2200,3190A,116.0254,29.6994,九江市,外国语学校,细颗粒物(PM2.5),54,44,48,38,34,86,,162,135,24,22,4,4,1.0,1
2025-04-28T2200,4253A,116.0102,29.6594,九江市,莲花大道8号,颗粒物(PM10),55,60,52,36,35,100,,160,144,8,8,10,5,0.6,0.7
2025-04-28T2200,4240A,98.4958,39.7339,酒泉市,玉门东路5号,颗粒物(PM10),58,66,103,35,33,105,,108,104,7,10,13,11,0.2,0.2
2025-04-28T2200,4241A,98.5099,39.7506,酒泉市,北大街108号,,48,48,103,20,23,107,,113,109,10,13,12,11,0.2,0.3
2025-04-28T2200,2698A,76.0072,39.4467,喀什地区,巡警大队,颗粒物(PM10),126,201,255,36,54,115,,126,126,21,36,3,4,0.5,0.6
2025-04-28T2200,2699A,75.9755,39.4694,喀什地区,吾办,颗粒物(PM10),119,188,217,54,69,102,,124,124,24,40,8,6,0.5,0.6
2025-04-28T2200,4027A,75.9483,39.4689,喀什地区,老干局,颗粒物(PM10),103,156,201,38,47,109,,124,124,15,30,3,4,0.5,0.6
2025-04-28T2200,1824A,114.3389,34.7781,开封市,肿瘤医院,,,63,77,10,19,,,148,141,19,13,8,9,0.3,0.4
2025-04-28T2200,1826A,114.2885,34.7965,开封市,世纪星幼儿园,,50,50,70,3,12,110,,162,151,16,17,8,10,0.5,0.6
2025-04-28T2200,3147A,114.3438,34.8106,开封市,龙亭公园,颗粒物(PM10),53,55,84,14,17,103,,158,143,19,19,2,4,0.5,0.7
2025-04-28T2200,3210A,114.3644,34.7964,开封市,汴京公园,颗粒物(PM10),86,121,140,14,19,106,,163,150,16,16,4,5,0.5,0.7
2025-04-28T2200,3473A,114.2485,34.8306,开封市,技师学院,颗粒物(PM10),51,51,85,26,30,110,,151,143,12,21,4,6,0.5,0.7
2025-04-28T2200,3592A,114.4644,34.7556,开封市,祥符区生态环境局,颗粒物(PM10),51,52,62,14,22,84,,151,128,36,24,8,12,0.3,0.5
2025-04-28T2200,1951A,84.895,45.6094,克拉玛依市,长征新村,颗粒物(PM10),53,56,36,16,8,91,,119,114,8,17,7,8,0.2,0.3
2025-04-28T2200,1952A,84.8988,45.5893,克拉玛依市,南林小区,,48,48,39,13,13,94,,126,120,8,22,4,4,0.3,0.5
2025-04-28T2200,1954A,84.905,44.3396,克拉玛依市,独山子区,,47,47,28,10,11,82,,140,132,34,7,13,8,0.5,0.3
2025-04-28T2200,1955A,85.6979,46.098,克拉玛依市,乌尔禾区商贸楼,,46,46,33,14,9,101,,132,128,3,12,7,7,0.3,0.3
2025-04-28T2200,3612A,85.1045,45.6899,克拉玛依市,白碱滩区新站,颗粒物(PM10),51,52,42,14,10,93,,125,121,6,12,10,11,0.1,0.2
2025-04-28T2200,2697A,76.1454,39.7142,克孜勒苏柯尔克孜自治州,市人民政府,颗粒物(PM10),122,194,203,53,60,105,,128,126,12,12,5,18,0.4,0.3
2025-04-28T2200,3665A,76.1658,39.7157,克孜勒苏柯尔克孜自治州,克州文化中心,颗粒物(PM10),109,168,234,46,65,123,,127,127,4,13,7,15,0.3,0.3
2025-04-28T2200,1450A,102.8204,24.8886,昆明市,呈贡新区,,47,47,66,31,46,109,,133,130,11,24,5,7,0.8,0.8
2025-04-28T2200,1451A,102.6251,24.9608,昆明市,西山森林公园,,,,,,,,,,,,,,,,
2025-04-28T2200,1452A,102.7252,25.0902,昆明市,龙泉镇,颗粒物(PM10),59,67,50,26,31,90,,138,130,16,25,9,9,0.5,0.5
2025-04-28T2200,1453A,102.7266,25.0375,昆明市,东风东路,细颗粒物(PM2.5),58,58,68,41,44,98,,152,139,21,24,8,9,0.6,0.6
2025-04-28T2200,1454A,102.6742,25.0669,昆明市,金鼎山,"颗粒物(PM10),细颗粒物(PM2.5)",57,64,62,40,40,102,,146,138,18,22,2,4,0.5,0.6
2025-04-28T2200,1455A,102.6644,25.0401,昆明市,碧鸡广场,颗粒物(PM10),54,57,64,31,39,102,,138,130,15,21,6,7,0.6,0.6
2025-04-28T2200,3179A,102.7494,25.0119,昆明市,官渡区博物馆,,48,47,64,33,36,95,,144,134,23,30,7,8,0.5,0.6
2025-04-28T2200,3375A,102.8017,24.8336,昆明市,青年创业园,,48,48,69,29,42,119,,135,133,12,23,6,9,0.7,0.8
2025-04-28T2200,3550A,102.7997,24.9786,昆明市,昆明学院,颗粒物(PM10),55,59,81,31,40,105,,142,135,14,28,6,7,0.4,0.5
2025-04-28T2200,3551A,102.5967,24.6736,昆明市,晋宁区生态环境分局,细颗粒物(PM2.5),58,46,59,41,43,111,,138,135,14,17,6,8,0.5,0.5
2025-04-28T2200,3552A,102.6678,24.9856,昆明市,云天化总部,,45,45,63,30,40,111,,136,131,10,29,5,8,0.4,0.6
2025-04-28T2200,1456A,91.1319,29.6514,拉萨市,八廓街,,45,20,22,14,13,141,,153,150,13,10,5,7,0.4,0.7
2025-04-28T2200,1457A,91.1221,29.6747,拉萨市,市环保局,,41,16,22,16,12,129,,150,146,12,13,3,4,0.4,0.5
2025-04-28T2200,1458A,91.0874,29.6475,拉萨市,区监测站,,41,16,16,10,10,130,,144,142,14,12,5,6,0.4,0.3
2025-04-28T2200,1459A,91.1774,29.6541,拉萨市,西藏大学,,44,,15,13,9,138,,147,145,13,10,5,7,0.4,0.3
2025-04-28T2200,1460A,90.9798,29.6588,拉萨市,区辐射站,,38,16,20,14,11,121,,141,134,33,18,8,8,0.6,0.5
2025-04-28T2200,1461A,91.0834,29.6292,拉萨市,拉萨火车站,,41,15,14,13,9,130,,147,142,9,7,3,3,0.4,0.4
2025-04-28T2200,2520A,109.2203,23.7256,来宾市,来宾技工学校,颗粒物(PM10),52,54,25,3,8,104,,130,130,20,12,7,7,0.4,0.4
2025-04-28T2200,3535A,109.1781,23.7297,来宾市,兴宾区政府,,40,40,22,22,12,96,,114,114,15,10,5,6,0.5,0.6
2025-04-28T2200,4002A,109.2416,23.7461,来宾市,中南小学,,42,42,26,13,12,93,,123,121,20,10,6,6,0.5,0.5
2025-04-28T2200,1477A,104.1373,35.9454,兰州市,榆中兰大校区,,,,,,,,,,,,,,,,
2025-04-28T2200,1479A,103.831,36.0464,兰州市,铁路设计院,颗粒物(PM10),54,58,51,25,24,18,,117,91,104,34,8,14,0.7,0.5
2025-04-28T2200,3241A,103.7439,36.0842,兰州市,百合公园,,38,38,44,16,21,33,,112,94,67,18,3,10,0.2,0.5
2025-04-28T2200,3242A,103.9611,35.998,兰州市,和平,颗粒物(PM10),55,60,60,30,33,89,,120,111,10,16,10,14,0.5,0.7
2025-04-28T2200,4236A,103.6293,36.0938,兰州市,庄浪东路808号,颗粒物(PM10),52,53,57,29,30,46,,115,99,64,24,9,15,0.4,0.4
2025-04-28T2200,4237A,103.7251,36.1043,兰州市,安宁西路88号,颗粒物(PM10),68,85,64,39,33,20,,122,104,80,19,6,13,0.6,0.4
2025-04-28T2200,4238A,103.8470,36.0676,兰州市,北滨河东路1号,颗粒物(PM10),75,99,61,34,26,2,,125,96,109,33,10,15,0.9,0.7
2025-04-28T2200,3245A,103.6633,36.533,兰州新区,新区管委会,颗粒物(PM10),59,67,45,25,22,97,,122,121,17,10,5,7,0.4,0.4
2025-04-28T2200,3246A,103.6975,36.4789,兰州新区,舟曲中学,颗粒物(PM10),60,69,43,20,20,104,,127,124,18,12,6,10,0.3,0.3
2025-04-28T2200,1067A,116.6708,39.5111,廊坊市,药材公司,颗粒物(PM10),59,68,72,24,26,69,,116,109,30,23,4,4,0.6,0.4
2025-04-28T2200,1068A,116.7214,39.5589,廊坊市,开发区,颗粒物(PM10),54,58,82,20,30,62,,118,108,26,20,4,4,0.8,0.4
2025-04-28T2200,1070A,116.7244,39.5269,廊坊市,北华航天学院,颗粒物(PM10),62,73,95,23,24,60,,113,104,31,24,7,6,0.8,0.4
2025-04-28T2200,2919A,116.7022,39.5453,廊坊市,河北工业大学,颗粒物(PM10),60,70,87,23,27,66,,119,111,27,20,8,7,0.8,0.4
2025-04-28T2200,2535A,103.7723,29.5462,乐山市,花湖湾,,44,44,47,27,28,74,,120,117,31,28,7,8,0.5,0.8
2025-04-28T2200,2536A,103.7627,29.5844,乐山市,牛耳桥,,48,48,45,22,28,39,,103,96,50,36,7,8,0.8,1
2025-04-28T2200,2537A,103.7508,29.6006,乐山市,市第三水厂,,49,49,45,25,30,44,,101,96,44,30,4,6,0.6,0.7
2025-04-28T2200,2538A,103.7571,29.5664,乐山市,市监测站,,41,41,47,22,28,71,,107,104,23,27,7,9,0.6,0.9
2025-04-28T2200,3361A,103.7311,29.5628,乐山市,理工大学,,41,41,44,22,27,72,,110,106,23,28,4,6,0.5,0.8
2025-04-28T2200,2598A,100.2143,26.8576,丽江市,西南郊,颗粒物(PM10),61,72,49,35,25,129,,134,131,3,4,5,14,0.3,0.5
2025-04-28T2200,2599A,100.2497,26.8802,丽江市,丽江古城,颗粒物(PM10),54,57,44,34,23,114,,128,124,11,10,9,9,0.5,0.5
2025-04-28T2200,2600A,100.2203,26.8906,丽江市,市中心,,39,39,37,26,23,103,,117,113,7,7,7,6,0.8,0.8
2025-04-28T2200,1267A,119.914,28.4514,丽水市,监测站大楼,颗粒物(PM10),51,51,35,23,21,84,,137,126,25,19,3,3,0.5,0.4
2025-04-28T2200,1268A,119.93,28.4586,丽水市,莲都小学,,50,50,40,22,19,95,,140,134,20,17,3,3,0.4,0.4
2025-04-28T2200,1269A,119.879,28.4231,丽水市,余庄前,,42,42,32,28,20,50,,135,112,14,11,3,3,0.6,0.5
2025-04-28T2200,1173A,119.176,34.5885,连云港市,市环境监测站,,44,44,46,22,24,109,,134,126,18,18,6,9,0.4,0.7
2025-04-28T2200,3000A,119.3581,34.6972,连云港市,德源药业,,41,41,42,17,19,103,,117,115,19,21,10,9,0.4,0.4
2025-04-28T2200,3007A,119.178,34.844,连云港市,新城一中,,49,49,76,23,22,101,,124,120,25,23,8,12,0.6,0.8
2025-04-28T2200,3008A,119.3608,34.7519,连云港市,胡沟管理处,,40,29,31,14,16,125,,116,116,19,23,15,14,0.7,0.8
2025-04-28T2200,3009A,119.1478,34.5911,连云港市,矿山设计院,,42,36,48,22,24,132,,131,131,18,25,9,11,0.5,0.7
2025-04-28T2200,3434A,119.2413,34.6539,连云港市,工贸学校,,39,33,41,18,26,123,,131,130,16,21,9,11,0.5,0.7
2025-04-28T2200,3664A,119.4172,34.7341,连云港市,连云街道,颗粒物(PM10),51,52,47,21,22,139,,130,130,16,29,8,9,0.4,0.5
2025-04-28T2200,2571A,102.3431,27.8099,凉山彝族自治州,青龙寺,,34,34,19,8,5,40,,98,87,29,10,2,2,0.6,0.5
2025-04-28T2200,2572A,102.2721,27.8415,凉山彝族自治州,邛海宾馆,,32,32,19,20,11,54,,101,87,35,13,8,7,0.6,0.5
2025-04-28T2200,2573A,102.2625,27.898,凉山彝族自治州,西昌市政府,,27,27,22,15,12,70,,97,87,6,14,8,10,0.5,0.5
2025-04-28T2200,2574A,102.2685,27.8851,凉山彝族自治州,凉山州政府,,32,32,23,18,12,64,,99,88,14,16,6,6,0.6,0.6
2025-04-28T2200,4229A,102.2342,27.8859,凉山彝族自治州,凯乐南路30号,细颗粒物(PM2.5),79,71,27,58,15,31,,91,71,53,21,10,9,0.9,0.5
2025-04-28T2200,2212A,123.2,41.1953,辽阳市,宏伟区,细颗粒物(PM2.5),60,,61,43,37,110,,122,117,12,13,8,9,0.4,0.5
2025-04-28T2200,2213A,123.1683,41.2495,辽阳市,新华园,颗粒物(PM10),60,70,61,41,29,75,,116,101,27,13,9,9,0.6,0.5
2025-04-28T2200,2214A,123.2354,41.2639,辽阳市,滨河路,细颗粒物(PM2.5),60,53,58,43,32,81,,114,102,24,16,54,9,0.5,0.5
2025-04-28T2200,2215A,123.149,41.2991,辽阳市,铁西工业园,细颗粒物(PM2.5),82,66,62,60,32,65,,111,98,25,13,11,10,0.6,0.4
2025-04-28T2200,2227A,125.1358,42.8845,辽源市,环保局,细颗粒物(PM2.5),75,88,66,55,35,40,,121,98,46,17,7,9,0.7,0.4
2025-04-28T2200,3239A,125.0764,42.9078,辽源市,银鹰制药,细颗粒物(PM2.5),67,56,44,48,36,52,,128,106,46,14,8,5,0.5,0.4
2025-04-28T2200,1625A,115.9848,36.4372,聊城市,区政府,颗粒物(PM10),57,63,56,19,20,105,,144,134,21,19,10,7,0.5,0.6
2025-04-28T2200,2878A,116.0072,36.4343,聊城市,聊大东校,颗粒物(PM10),57,63,68,19,30,112,,143,136,15,17,6,8,0.3,0.4
2025-04-28T2200,3200A,115.9819,36.4978,聊城市,监控中心,颗粒物(PM10),51,51,56,3,20,119,,140,130,19,27,8,8,0.5,0.5
2025-04-28T2200,3513A,116.0445,36.4361,聊城市,九州社区,颗粒物(PM10),51,51,50,20,22,106,,152,141,31,26,10,7,0.5,0.5
2025-04-28T2200,4018A,116.0567,36.4608,聊城市,星美广场,颗粒物(PM10),54,58,57,11,16,115,,144,138,23,25,10,10,0.6,0.7
2025-04-28T2200,2632A,94.3681,29.6376,林芝市,林芝监测站,,32,12,8,12,6,102,,114,114,11,7,5,5,0.2,0.2
2025-04-28T2200,2633A,94.3616,29.6616,林芝市,林芝人民医院,,32,24,10,14,6,100,,114,112,7,5,5,5,0.3,0.3
2025-04-28T2200,2603A,100.0781,23.8982,临沧市,市环保局,细颗粒物(PM2.5),103,124,87,77,55,101,,155,147,24,12,14,9,0.9,0.6
2025-04-28T2200,2604A,100.0894,23.8822,临沧市,市气象局,细颗粒物(PM2.5),80,79,77,59,53,107,,166,157,24,16,9,9,0.8,0.7
2025-04-28T2200,1733A,111.5531,36.0783,临汾市,临钢医院,颗粒物(PM10),60,70,54,23,10,105,,129,128,18,19,11,7,0.6,0.5
2025-04-28T2200,1734A,111.5028,36.0714,临汾市,技工学校,颗粒物(PM10),62,73,54,25,15,110,,136,134,16,17,15,10,0.5,0.4
2025-04-28T2200,1736A,111.5018,36.0855,临汾市,市委,颗粒物(PM10),64,78,51,21,11,108,,133,132,16,15,15,10,0.4,0.3
2025-04-28T2200,3018A,111.505,36.1014,临汾市,唐尧大酒店,颗粒物(PM10),57,64,59,14,12,103,,134,130,18,22,12,7,0.5,0.4
2025-04-28T2200,4244A,111.4879,36.0530,临汾市,启星学校,颗粒物(PM10),66,82,64,36,21,100,,132,129,17,23,17,9,0.6,0.5
2025-04-28T2200,4271A,103.2464,35.6123,临夏回族自治州,滨河东路1号,颗粒物(PM10),81,111,57,50,33,22,,120,96,50,13,4,3,0.6,0.4
2025-04-28T2200,4310A,103.2093,35.5995,临夏回族自治州,新华街21号,颗粒物(PM10),62,74,50,41,33,46,,111,101,39,19,4,3,0.6,0.4
2025-04-28T2200,1618A,118.3429,35.0532,临沂市,沂河小区,颗粒物(PM10),62,73,58,33,39,95,,143,134,29,16,14,9,0.4,0.3
2025-04-28T2200,1619A,118.295,35.0583,临沂市,鲁南制药厂,,,80,50,22,28,,,165,,40,23,10,6,0.5,0.4
2025-04-28T2200,1620A,118.2794,34.9976,临沂市,新光毛纺厂,颗粒物(PM10),63,75,51,43,43,91,,149,137,40,22,15,8,0.4,0.3
2025-04-28T2200,1621A,118.3956,35.0888,临沂市,河东保险公司,颗粒物(PM10),51,51,48,25,26,121,,161,157,24,21,10,6,0.4,0.3
2025-04-28T2200,3370A,118.3564,35.0215,临沂市,十里堡居委,颗粒物(PM10),63,75,50,34,27,82,,147,135,43,25,10,4,0.4,0.4
2025-04-28T2200,3496A,118.3604,35.1084,临沂市,南坊新区,颗粒物(PM10),60,70,52,22,27,106,,145,140,25,18,10,7,0.3,0.3
2025-04-28T2200,3860A,118.3920,35.0300,临沂市,皇山花园小区,颗粒物(PM10),62,73,52,31,29,92,,145,136,37,22,16,8,0.6,0.5
2025-04-28T2200,1870A,109.4856,24.3895,柳州市,柳东小学,,40,40,31,22,15,117,,133,132,15,13,10,15,0.5,0.6
2025-04-28T2200,1871A,109.4157,24.3277,柳州市,环保监测站,,42,42,31,17,15,110,,123,123,11,12,9,14,0.7,0.8
2025-04-28T2200,1872A,109.389,24.341,柳州市,河西水厂,,40,40,34,24,18,115,,124,124,8,14,5,16,0.4,0.5
2025-04-28T2200,1873A,109.4311,24.2921,柳州市,市四中,,39,39,35,20,12,112,,128,126,13,10,8,8,0.6,0.7
2025-04-28T2200,1874A,109.4006,24.3631,柳州市,市九中,,46,46,35,19,12,112,,125,125,7,11,7,15,0.4,0.6
2025-04-28T2200,1875A,109.4958,24.3134,柳州市,古亭山,,36,33,34,21,15,115,,126,126,9,6,14,10,0.6,0.7
2025-04-28T2200,3402A,109.5422,24.3996,柳州市,市二中,,39,39,28,24,16,100,,127,122,19,14,10,11,0.4,0.4
2025-04-28T2200,2307A,116.5079,31.737,六安市,监测大楼,细颗粒物(PM2.5),65,65,70,47,41,100,,171,163,38,15,6,6,0.7,0.5
2025-04-28T2200,2308A,116.4738,31.7643,六安市,皖西学院,细颗粒物(PM2.5),69,77,79,50,41,108,,177,165,25,16,6,7,0.6,0.5
2025-04-28T2200,2309A,116.4996,31.7905,六安市,朝阳厂,颗粒物(PM10),65,79,71,44,40,123,,165,156,30,20,5,5,0.5,0.4
2025-04-28T2200,2310A,116.5567,31.7886,六安市,开发区,颗粒物(PM10),66,82,87,42,38,61,,172,150,55,23,5,6,0.7,0.6
2025-04-28T2200,2576A,104.8,26.5892,六盘水市,窑上,,36,36,29,20,18,57,,101,88,8,7,4,6,0.2,0.2
2025-04-28T2200,2577A,104.83,26.5917,六盘水市,黄土坡,,36,34,23,25,15,87,,112,106,20,12,10,12,0.4,0.4
2025-04-28T2200,2578A,104.89,26.5939,六盘水市,水钢,颗粒物(PM10),55,60,30,30,12,80,,114,108,22,12,9,14,0.3,0.5
2025-04-28T2200,2579A,104.8475,26.5894,六盘水市,民中,,37,37,19,22,11,83,,111,106,18,11,9,11,0.4,0.3
2025-04-28T2200,2580A,104.9544,26.5506,六盘水市,双水,,34,34,25,15,8,78,,110,101,20,11,10,9,0.4,0.3
2025-04-28T2200,2335A,117.0189,25.1181,龙岩市,龙岩师专,,,,,,,,,,,,,,,,
2025-04-28T2200,2336A,117.0217,25.1033,龙岩市,龙岩市监测站,,30,30,21,9,13,18,,68,49,38,23,4,4,0.7,0.7
2025-04-28T2200,2337A,117.0258,25.0661,龙岩市,闽西职业技术学院,,42,42,20,13,11,43,,72,56,19,18,11,4,0.6,0.7
2025-04-28T2200,2338A,117.0196,25.0306,龙岩市,龙岩学院,,30,30,17,12,10,36,,78,64,13,10,8,9,0.5,0.5
2025-04-28T2200,2665A,105.0822,33.3261,陇南市,汉王镇固水子,,,,,,,,,,,,,,,,
2025-04-28T2200,2885A,104.9339,33.3826,陇南市,滨江中学,颗粒物(PM10),53,55,60,27,27,87,,110,105,8,8,8,9,0.5,0.5
2025-04-28T2200,3247A,104.955,33.371,陇南市,市总工会,,41,41,50,20,23,97,,116,113,7,7,6,6,0.3,0.3
2025-04-28T2200,2487A,111.9589,27.8901,娄底市,电视发射台,颗粒物(PM10),65,79,45,29,21,58,,126,110,3,3,4,4,0.4,0.4
2025-04-28T2200,2488A,111.9975,27.725,娄底市,市监测站,细颗粒物(PM2.5),69,71,72,50,46,67,,135,129,46,24,7,11,1.0,1.4
2025-04-28T2200,2489A,112.0194,27.7314,娄底市,市委党校,细颗粒物(PM2.5),77,79,63,56,42,55,,133,124,39,17,3,4,0.9,0.9
2025-04-28T2200,2490A,111.9561,27.7569,娄底市,涟钢,颗粒物(PM10),78,106,49,47,32,34,,129,116,43,14,14,13,0.3,0.4
2025-04-28T2200,2491A,111.9892,27.7044,娄底市,市政府,,,76,53,47,37,50,,125,113,24,15,4,4,,0.4
2025-04-28T2200,1893A,105.4324,28.9634,泸州市,九狮山,,,,,,,,,,,,,,,,
2025-04-28T2200,1894A,105.4427,28.9063,泸州市,小市上码头,颗粒物(PM10),57,64,49,33,26,107,,148,143,22,22,8,12,0.8,0.7
2025-04-28T2200,1895A,105.4241,28.8573,泸州市,兰田宪桥,,50,50,43,35,29,51,,129,114,32,20,8,8,0.7,0.7
2025-04-28T2200,1896A,105.4379,28.8833,泸州市,市环监站,,,,,,,,,,,,,,,,
2025-04-28T2200,4272A,105.3689,28.7783,泸州市,纳溪中医医院,颗粒物(PM10),70,90,54,43,31,15,,110,90,62,23,6,7,0.9,0.8
2025-04-28T2200,2183A,111.1406,37.5211,吕梁市,环保局,颗粒物(PM10),74,97,57,19,12,26,,103,85,61,30,2,3,0.3,0.4
2025-04-28T2200,2185A,111.1297,37.5136,吕梁市,自来水公司,颗粒物(PM10),51,52,56,19,13,53,,100,93,33,23,2,3,0.6,0.4
2025-04-28T2200,2867A,111.1283,37.51,吕梁市,马茂庄小学,颗粒物(PM10),68,86,57,17,12,7,,104,86,83,35,3,4,0.4,0.3
2025-04-28T2200,1812A,112.3931,34.6516,洛阳市,市委党校,颗粒物(PM10),54,58,59,21,22,91,,128,121,31,24,8,7,0.5,0.5
2025-04-28T2200,1815A,112.494,34.6886,洛阳市,河南林校,颗粒物(PM10),59,68,64,32,21,83,,136,127,36,24,9,9,0.4,0.4
2025-04-28T2200,1816A,112.3844,34.623,洛阳市,开发区管委会,,47,47,53,23,20,73,,128,119,41,24,5,6,0.5,0.4
2025-04-28T2200,1817A,112.4267,34.6258,洛阳市,市委新办公区,,49,49,51,20,19,92,,138,128,30,20,6,6,0.4,0.4
2025-04-28T2200,3340A,112.6005,34.6326,洛阳市,伊滨,颗粒物(PM10),52,53,65,20,30,98,,146,137,23,19,7,7,0.4,0.5
2025-04-28T2200,3341A,112.4951,34.6332,洛阳市,中移产业园,颗粒物(PM10),57,64,68,21,22,110,,145,140,24,21,8,7,0.3,0.4
2025-04-28T2200,3593A,112.5736,34.8993,洛阳市,吉利监测站,,45,45,67,14,16,103,,142,134,24,18,9,9,0.4,0.4
2025-04-28T2200,3635A,112.3677,34.662,洛阳市,河科大西苑校区,,49,49,57,17,20,112,,138,134,23,26,11,10,0.4,0.5
2025-04-28T2200,3636A,112.4388,34.6781,洛阳市,英才小学,颗粒物(PM10),51,52,63,16,21,103,,143,136,30,33,11,9,0.6,0.7
2025-04-28T2200,4214A,112.4600,34.6949,洛阳市,春都路1号院,颗粒物(PM10),64,77,69,23,20,91,,147,137,34,24,8,7,0.5,0.5
2025-04-28T2200,2399A,114.051,33.5699,漯河市,三五一五工厂,颗粒物(PM10),52,53,55,23,22,81,,126,113,24,14,6,6,0.5,0.5
2025-04-28T2200,2400A,114.0055,33.5698,漯河市,漯河大学,,48,48,55,14,21,98,,125,119,16,15,6,8,0.3,0.4
2025-04-28T2200,2401A,114.0138,33.5828,漯河市,市水利局,,36,36,54,17,20,102,,126,120,13,13,5,7,0.3,0.3
2025-04-28T2200,2402A,114.0261,33.5698,漯河市,市广电局,,46,46,56,17,21,88,,124,114,17,10,5,6,0.4,0.4
2025-04-28T2200,3478A,113.9749,33.5664,漯河市,市图书馆,,,61,66,,21,94,,122,115,21,18,17,8,0.4,0.4
2025-04-28T2200,4250A,114.0892,33.5882,漯河市,韶山路11号,,49,49,58,19,20,95,,128,116,18,16,5,6,0.4,0.4
2025-04-28T2200,1798A,118.5092,31.6837,马鞍山市,湖东路四小,,38,38,60,19,33,118,,207,182,20,33,9,13,0.6,0.9
2025-04-28T2200,1799A,118.5024,31.6449,马鞍山市,开发区,颗粒物(PM10),56,62,65,31,41,104,,202,177,32,35,9,11,0.5,0.9
2025-04-28T2200,1802A,118.6245,31.7241,马鞍山市,濮塘,,46,46,62,26,32,120,,204,178,12,20,8,9,0.5,0.7
2025-04-28T2200,3633A,118.4918,31.6809,马鞍山市,雨山,,46,46,64,17,31,122,,198,180,17,34,9,13,0.5,0.9
2025-04-28T2200,4191A,118.5274,31.72227,马鞍山市,慈湖高新区,,43,43,74,24,37,114,,199,176,21,38,8,12,0.7,1
2025-04-28T2200,1686A,111.0286,21.4688,茂名市,电白南海,,25,17,25,17,18,76,,77,77,10,11,1,1,0.8,0.7
2025-04-28T2200,1687A,110.9294,21.6533,茂名市,茂石化七小,颗粒物(PM10),78,105,33,19,17,62,,76,76,18,13,9,5,0.9,0.9
2025-04-28T2200,1688A,110.9107,21.6687,茂名市,健康路,,28,19,26,19,18,64,,82,82,15,9,4,4,0.9,0.8
2025-04-28T2200,1689A,110.8592,21.6828,茂名市,高岭,,31,31,38,9,14,47,,65,63,12,12,6,9,0.9,0.7
2025-04-28T2200,3450A,111.01,21.5165,茂名市,电白水东,,22,,19,12,12,70,,76,76,18,14,4,2,1.0,1
2025-04-28T2200,2539A,104.0308,30.0478,眉山市,黑龙滩水库,颗粒物(PM10),53,56,33,35,21,72,,113,110,24,21,2,2,0.5,0.5
2025-04-28T2200,2540A,103.8416,30.0874,眉山市,气象局,颗粒物(PM10),52,54,76,24,41,38,,116,108,51,48,7,7,0.6,0.7
2025-04-28T2200,3137A,103.8578,30.0744,眉山市,市委党校,颗粒物(PM10),52,53,62,27,34,41,,110,104,52,51,9,9,0.3,0.4
2025-04-28T2200,3148A,103.8291,30.0564,眉山市,区人社局,,44,44,48,19,31,40,,113,106,51,54,9,8,0.4,0.5
2025-04-28T2200,1690A,116.1231,24.3284,梅州市,梅江月梅,,36,36,19,8,11,46,,74,68,22,12,5,4,0.6,0.7
2025-04-28T2200,1691A,116.0797,24.2719,梅州市,梅县新城,,39,39,18,7,12,46,,76,73,32,12,5,5,0.8,0.7
2025-04-28T2200,1692A,116.1248,24.2654,梅州市,环境监控中心,,28,28,18,6,13,16,,71,61,42,13,6,7,0.8,0.7
2025-04-28T2200,3315A,116.1233,24.2991,梅州市,梅龙,,44,44,17,17,12,30,,75,67,29,11,6,6,0.9,0.8
2025-04-28T2200,1878A,104.7778,31.4741,绵阳市,富乐山,,50,50,42,24,20,98,,119,115,13,14,7,7,0.4,0.3
2025-04-28T2200,1880A,104.6697,31.4668,绵阳市,高新区自来水公司,颗粒物(PM10),63,76,64,31,23,69,,124,114,46,35,6,4,0.4,0.4
2025-04-28T2200,1881A,104.7287,31.5075,绵阳市,三水厂,颗粒物(PM10),60,70,66,24,29,64,,121,110,50,39,8,6,0.6,0.7
2025-04-28T2200,3491A,104.69,31.5322,绵阳市,西科大附属小学,颗粒物(PM10),56,62,59,28,27,87,,122,116,28,31,9,7,0.5,0.5
2025-04-28T2200,3492A,104.5648,31.5343,绵阳市,安州区旅游局,颗粒物(PM10),52,54,46,29,21,90,,129,124,19,17,6,8,0.4,0.4
2025-04-28T2200,4226A,104.7651,31.4531,绵阳市,绵阳市气象局,颗粒物(PM10),55,59,49,30,23,88,,117,113,31,27,3,3,0.5,0.5
2025-04-28T2200,1784A,129.61,44.561,牡丹江市,环保大楼,细颗粒物(PM2.5),99,115,53,74,38,50,,111,98,48,19,7,6,0.8,0.4
2025-04-28T2200,1785A,129.6115,44.5782,牡丹江市,文化广场,细颗粒物(PM2.5),110,97,63,83,44,50,,112,101,59,23,10,12,0.9,0.7
2025-04-28T2200,1786A,129.5904,44.5963,牡丹江市,第一医院,细颗粒物(PM2.5),84,85,53,62,42,79,,108,108,18,12,7,8,0.6,0.4
2025-04-28T2200,1787A,129.6364,44.6075,牡丹江市,机车工厂,细颗粒物(PM2.5),72,81,63,52,40,57,,114,104,34,16,34,42,0.6,0.5
2025-04-28T2200,1788A,129.6386,44.5462,牡丹江市,第一中学,细颗粒物(PM2.5),155,,52,118,39,50,,119,105,35,12,8,7,0.9,0.5
2025-04-28T2200,2531A,105.0703,29.61,内江市,市监测站,细颗粒物(PM2.5),74,74,42,54,37,67,,141,122,62,31,8,10,1.2,1.1
2025-04-28T2200,2532A,105.0717,29.5947,内江市,东兴区政府,细颗粒物(PM2.5),63,71,38,45,30,70,,137,124,58,25,13,13,1.0,0.9
2025-04-28T2200,2533A,105.0653,29.5817,内江市,内江二中,颗粒物(PM10),62,74,49,42,38,42,,130,113,70,27,7,7,1.0,0.6
2025-04-28T2200,2534A,105.0406,29.5822,内江市,内江日报社,细颗粒物(PM2.5),60,55,43,43,37,80,,137,128,47,24,14,12,0.5,0.4
2025-04-28T2200,2628A,92.0657,31.4846,那曲市,那曲监测站,,48,48,35,28,19,94,,108,105,15,17,8,7,0.7,0.7
2025-04-28T2200,4243A,92.0515,31.4787,那曲市,那曲市委宣传部,,32,30,33,14,15,102,,116,114,9,10,8,7,0.3,0.3
2025-04-28T2200,1290A,115.8931,28.6843,南昌市,省外办,细颗粒物(PM2.5),64,55,42,46,33,63,,124,108,34,28,5,6,0.9,0.7
2025-04-28T2200,1291A,115.8886,28.7003,南昌市,省林业公司,,46,46,36,29,27,94,,133,124,18,18,7,7,0.8,0.8
2025-04-28T2200,1292A,115.8126,28.7442,南昌市,林科所,颗粒物(PM10),53,56,37,31,24,12,,133,95,91,34,5,4,0.7,0.5
2025-04-28T2200,1294A,115.8518,28.687,南昌市,建工学校,,,40,40,11,30,70,,121,108,,27,3,3,0.9,0.8
2025-04-28T2200,1295A,115.8921,28.6424,南昌市,象湖,,49,47,41,34,27,28,,121,100,66,24,6,7,1.1,0.8
2025-04-28T2200,1296A,115.7423,28.7996,南昌市,武术学校,,35,34,33,24,13,21,,129,94,3,2,3,3,0.6,0.6
2025-04-28T2200,3046A,115.9084,28.6062,南昌市,机电学校,,45,45,47,29,29,54,,123,108,38,19,3,4,0.6,0.6
2025-04-28T2200,3690A,115.9721,28.7031,南昌市,外国语学校,"颗粒物(PM10),细颗粒物(PM2.5)",55,60,43,39,23,52,,133,110,38,24,7,7,0.7,0.5
2025-04-28T2200,4192A,115.9316,28.68677,南昌市,南京东路235号,细颗粒物(PM2.5),77,82,52,56,33,50,,132,107,50,29,8,9,1.2,0.9
2025-04-28T2200,1905A,106.056,30.8064,南充市,西山风景区,,,,,,,,,,,,,,,,
2025-04-28T2200,1906A,106.0789,30.8023,南充市,南充市委,颗粒物(PM10),52,54,48,29,28,65,,129,114,44,25,5,4,0.8,0.6
2025-04-28T2200,1907A,106.1031,30.8217,南充市,南充炼油厂,颗粒物(PM10),62,73,54,36,30,45,,128,115,55,27,4,4,0.8,0.6
2025-04-28T2200,4227A,106.1083,30.7884,南充市,梨树横街98号,颗粒物(PM10),64,78,52,35,28,48,,130,114,56,25,3,4,0.5,0.3
2025-04-28T2200,4304A,106.1172,30.843,南充市,清泉寺北路188号,颗粒物(PM10),57,63,48,32,25,55,,129,118,58,22,4,4,0.6,0.4
2025-04-28T2200,4305A,106.067,30.7616,南充市,同庆路1号,颗粒物(PM10),53,56,50,31,29,69,,127,112,40,26,7,4,0.3,0.5
2025-04-28T2200,1151A,118.8086,32.1065,南京市,迈皋桥,,40,40,51,19,27,62,,159,128,78,55,4,4,0.2,0.3
2025-04-28T2200,1152A,118.7538,32.0551,南京市,草场门,,48,48,59,22,30,88,,170,140,44,34,1,4,0.1,0.2
2025-04-28T2200,1153A,118.7794,32.0745,南京市,山西路,,46,46,70,14,31,84,,173,143,48,33,5,7,0.2,0.4
2025-04-28T2200,1154A,118.7752,32.0023,南京市,中华门,,44,44,65,24,30,88,,164,134,38,37,5,7,0.3,0.4
2025-04-28T2200,1155A,118.8109,32.0309,南京市,瑞金路,,46,46,74,24,34,98,,174,145,28,26,6,6,0.4,0.5
2025-04-28T2200,1156A,118.7997,32.0754,南京市,玄武湖,,41,41,58,14,29,66,,153,123,27,19,11,13,0.4,0.5
2025-04-28T2200,1157A,118.6414,32.0931,南京市,浦口,,48,48,68,19,29,125,,174,152,20,23,6,8,0.4,0.6
2025-04-28T2200,1158A,118.7356,31.9996,南京市,奥体中心,,45,45,65,19,30,112,,185,158,29,36,9,11,0.3,0.5
2025-04-28T2200,1159A,118.9125,32.1028,南京市,仙林大学城,颗粒物(PM10),51,51,65,22,37,95,,161,131,31,40,9,12,0.4,0.5
2025-04-28T2200,3422A,118.8436,31.9198,南京市,江宁彩虹桥,,41,41,58,19,30,86,,184,151,54,44,3,4,0.4,0.5
2025-04-28T2200,3427A,118.8554,32.3578,南京市,六合雄州,,48,48,55,24,34,111,,150,137,33,34,7,7,0.4,0.5
2025-04-28T2200,4249A,118.8708,31.3402,南京市,汶溪路181号,颗粒物(PM10),65,79,56,24,29,110,,206,188,12,20,4,6,0.6,0.9
2025-04-28T2200,4312A,119.019,31.6512,南京市,中山西路1号,,33,29,49,23,30,104,,197,167,31,26,5,8,0.5,0.7
2025-04-28T2200,1401A,108.3103,22.7881,南宁市,二十一中,,29,22,22,15,14,90,,119,115,10,9,4,4,0.9,0.8
2025-04-28T2200,1402A,108.3141,22.8528,南宁市,北湖,,33,33,25,19,16,96,,116,113,19,14,7,8,0.7,0.6
2025-04-28T2200,1403A,108.3206,22.8225,南宁市,市监测站,,26,25,29,18,16,82,,104,100,13,14,6,6,0.6,0.5
2025-04-28T2200,1404A,108.3829,22.8037,南宁市,大自然花园,,33,33,24,18,15,82,,121,115,13,9,6,6,0.7,0.6
2025-04-28T2200,1405A,108.4394,22.7904,南宁市,仙葫,,35,35,23,24,14,75,,104,100,13,9,5,5,0.8,0.6
2025-04-28T2200,1406A,108.2397,22.8467,南宁市,区农职院,,36,36,27,18,14,96,,110,109,15,10,5,5,0.5,0.5
2025-04-28T2200,1407A,108.3275,22.735,南宁市,英华嘉园,,31,31,24,18,15,91,,130,124,12,11,7,7,0.5,0.5
2025-04-28T2200,3401A,108.4834,22.7618,南宁市,红星社区,,37,37,22,14,12,81,,123,116,16,8,9,9,0.6,0.4
2025-04-28T2200,4221A,108.2177,22.7774,南宁市,乐贤路16号,,35,35,29,20,18,66,,106,100,35,16,5,6,0.5,0.4
2025-04-28T2200,2331A,118.0966,26.6761,南平市,茫荡山,,,,,,,,,,,,,,,,
2025-04-28T2200,2332A,118.1681,26.6369,南平市,南平市监测站,,36,28,23,25,18,33,,103,84,32,11,3,4,0.7,0.7
2025-04-28T2200,2333A,118.1825,26.6489,南平市,南平铝业有限公司,,42,42,24,23,17,28,,104,86,32,9,3,3,0.9,0.8
2025-04-28T2200,2334A,118.1756,26.6272,南平市,南平七中,,28,25,25,19,17,51,,105,92,17,9,4,5,0.6,0.7
2025-04-28T2200,1168A,120.9098,31.9663,南通市,狼山街道,颗粒物(PM10),51,52,43,25,21,76,,135,118,24,20,4,3,0.8,0.5
2025-04-28T2200,1169A,120.86,32.0005,南通市,虹桥,,47,47,38,30,27,88,,134,120,24,22,2,2,0.7,0.6
2025-04-28T2200,1170A,120.87,32.02,南通市,城中,,48,48,44,19,18,91,,133,119,22,20,3,3,0.4,0.3
2025-04-28T2200,1171A,120.94,31.93,南通市,星湖花园,,41,41,37,23,22,74,,132,116,26,19,4,2,0.9,0.7
2025-04-28T2200,1172A,120.81,32.0417,南通市,紫琅学院,,49,49,39,25,23,69,,124,104,29,20,4,4,0.5,0.5
2025-04-28T2200,3291A,121.067,32.062,南通市,通州监测站,,41,41,40,19,17,79,,120,115,14,10,4,4,0.5,0.5
2025-04-28T2200,3432A,120.9348,31.9883,南通市,环境教育馆,,41,41,43,28,23,62,,140,118,34,20,2,2,0.4,0.2
2025-04-28T2200,2404A,112.5224,33.0122,南阳市,瓦房庄,颗粒物(PM10),57,63,67,15,18,91,,149,135,38,16,5,6,0.5,0.5
2025-04-28T2200,2405A,112.5003,32.9735,南阳市,汉画馆,,50,50,57,16,21,82,,140,123,36,19,7,6,0.5,0.5
2025-04-28T2200,2406A,112.5573,33.027,南阳市,气象站,颗粒物(PM10),53,55,68,17,21,110,,151,138,22,14,5,6,0.5,0.5
2025-04-28T2200,2407A,112.5481,32.9689,南阳市,理工学院,颗粒物(PM10),52,54,62,19,20,105,,147,134,25,16,4,5,0.4,0.5
2025-04-28T2200,4008A,112.5234,32.9922,南阳市,卧龙区政府,,47,47,63,19,25,112,,146,134,22,16,4,5,0.5,0.5
2025-04-28T2200,1234A,121.8358,29.911,宁波市,区环保大楼,,42,28,43,19,22,12,,128,102,84,30,10,10,0.5,0.5
2025-04-28T2200,1235A,121.56,29.82,宁波市,万里学院,,28,18,38,7,28,89,,161,140,25,33,6,7,0.3,0.5
2025-04-28T2200,1236A,121.713,29.9572,宁波市,龙赛医院,,30,30,46,11,22,70,,123,,33,30,5,6,0.5,0.6
2025-04-28T2200,1239A,121.633,29.7733,宁波市,钱湖水厂,,27,27,42,11,23,68,,160,130,37,27,8,9,0.6,0.7
2025-04-28T2200,1240A,121.5856,29.8635,宁波市,太古小学,,26,16,42,6,22,83,,148,130,24,30,6,7,0.5,0.8
2025-04-28T2200,1241A,121.524,29.8674,宁波市,市环境监测中心,,27,14,43,12,23,85,,153,126,22,37,12,14,0.4,0.6
2025-04-28T2200,2871A,121.6147,29.9017,宁波市,万里国际学校,,23,,20,8,21,65,,148,123,46,38,9,10,0.4,0.6
2025-04-28T2200,3710A,121.5594,29.8975,宁波市,白沙活动中心,,28,19,35,9,21,87,,148,122,21,32,8,9,0.4,0.6
2025-04-28T2200,2339A,119.5001,26.6946,宁德市,金涵水库,,,,,,,,,,,,,,,,
2025-04-28T2200,2341A,119.5388,26.6612,宁德市,宁德市监测站,,40,40,31,24,28,66,,117,106,24,26,5,5,0.7,0.7
2025-04-28T2200,3209A,119.5231,26.6562,宁德市,宁德一中,,29,29,33,20,29,72,,113,103,14,15,7,7,0.6,0.6
2025-04-28T2200,2618A,98.8601,25.8567,怒江傈僳族自治州,州监测站,,40,37,36,28,19,100,,98,98,4,4,6,6,0.3,0.3
2025-04-28T2200,2619A,98.8546,25.8417,怒江傈僳族自治州,泸水一中,,30,23,30,21,15,88,,82,82,6,7,7,7,0.4,0.4
2025-04-28T2200,1888A,101.6891,26.571,攀枝花市,弄弄坪,颗粒物(PM10),55,59,51,37,26,87,,139,126,27,15,8,10,0.8,0.7
2025-04-28T2200,1889A,101.5769,26.5928,攀枝花市,河门口,颗粒物(PM10),57,64,53,36,27,91,,140,129,22,16,11,13,0.7,0.8
2025-04-28T2200,1890A,101.7169,26.585,攀枝花市,炳草岗,颗粒物(PM10),54,58,48,33,23,98,,142,132,26,18,12,16,0.5,0.5
2025-04-28T2200,1891A,101.7369,26.5008,攀枝花市,仁和,,,80,55,42,28,,,131,118,21,15,12,10,0.6,0.5
2025-04-28T2200,2835A,101.7227,26.567,攀枝花市,四十中小,,50,50,44,30,23,89,,145,126,38,16,9,10,1.0,0.8
2025-04-28T2200,1604A,122.0303,41.1489,盘锦市,开发区,,50,41,37,35,21,83,,117,111,30,11,6,7,0.4,0.3
2025-04-28T2200,1605A,122.0485,41.0883,盘锦市,兴隆台,细颗粒物(PM2.5),55,51,41,39,19,92,,104,101,23,17,9,10,0.5,0.4
2025-04-28T2200,1606A,121.8297,41.1028,盘锦市,新生街道,,39,38,34,27,20,81,,119,114,39,22,9,10,0.4,0.4
2025-04-28T2200,1832A,113.3257,33.742,平顶山市,新华旅馆,颗粒物(PM10),52,53,69,24,23,74,,150,131,28,18,5,8,0.5,0.6
2025-04-28T2200,1833A,113.2919,33.737,平顶山市,规划设计院,,40,40,63,20,24,89,,146,132,21,19,5,11,0.4,0.4
2025-04-28T2200,1834A,113.182,33.774,平顶山市,平顶山工学院,,47,47,61,9,23,97,,148,139,15,17,3,8,0.1,0.3
2025-04-28T2200,3204A,113.3025,33.73,平顶山市,规划局,,36,36,64,15,20,98,,143,131,14,16,6,12,0.3,0.4
2025-04-28T2200,3594A,112.8867,33.9116,平顶山市,石龙区,颗粒物(PM10),60,70,70,23,19,114,,145,138,34,33,7,8,0.3,0.3
2025-04-28T2200,2656A,106.6692,35.5461,平凉市,聚贤嘉苑,颗粒物(PM10),52,54,43,22,16,90,,119,113,18,20,14,15,0.4,0.4
2025-04-28T2200,2657A,106.7021,35.5307,平凉市,博物馆,颗粒物(PM10),71,92,50,23,15,70,,123,112,36,18,10,10,1.8,0.5
2025-04-28T2200,2347A,114.0997,27.5002,萍乡市,武功山,,39,39,23,27,13,66,,116,106,9,7,11,13,0.6,1
2025-04-28T2200,2348A,113.8385,27.6434,萍乡市,中医院,颗粒物(PM10),59,67,46,32,23,96,,128,121,19,12,11,9,0.8,0.8
2025-04-28T2200,2349A,113.8493,27.6253,萍乡市,市政府车库,细颗粒物(PM2.5),67,55,34,48,24,81,,128,119,20,12,5,5,0.6,0.6
2025-04-28T2200,2350A,113.8676,27.6435,萍乡市,市环保局,细颗粒物(PM2.5),68,67,41,49,26,94,,131,124,20,14,6,5,0.8,0.7
2025-04-28T2200,2351A,113.866,27.6198,萍乡市,安源区政府,颗粒物(PM10),58,65,38,38,22,102,,120,116,10,10,7,5,0.6,0.7
2025-04-28T2200,2319A,119.0141,25.4325,莆田市,荔城区仓后路,颗粒物(PM10),52,54,46,13,28,53,,99,87,30,19,5,4,1.0,0.9
2025-04-28T2200,2320A,119.0015,25.4553,莆田市,莆田市监测站,,23,21,39,9,24,72,,97,90,12,11,5,7,0.6,0.7
2025-04-28T2200,2321A,119.1119,25.4561,莆田市,涵江区六中,,38,38,45,13,34,76,,102,94,34,25,5,5,0.7,0.6
2025-04-28T2200,2322A,119.1013,25.3215,莆田市,秀屿区政府,,32,32,32,11,26,92,,106,101,18,13,5,6,0.7,0.6
2025-04-28T2200,2323A,118.981,25.4792,莆田市,东圳水库,,,,,,,,,,,,,,,,
2025-04-28T2200,2392A,115.0312,35.7636,濮阳市,环保局,,43,35,56,12,21,137,,146,146,14,20,7,10,0.6,0.7
2025-04-28T2200,2394A,115.0574,35.7609,濮阳市,油田运输公司,,48,48,65,14,24,146,,158,156,15,24,6,9,0.6,0.8
2025-04-28T2200,3021A,115,35.7668,濮阳市,濮水河管理处,颗粒物(PM10),51,52,66,19,25,133,,158,153,15,21,8,7,0.6,0.7
2025-04-28T2200,4216A,115.0924,35.7686,濮阳市,任丘路479号,颗粒物(PM10),55,60,68,17,25,136,,160,153,19,22,8,9,0.6,0.8
2025-04-28T2200,2601A,100.98,22.7633,普洱市,市环保局,细颗粒物(PM2.5),80,86,99,59,43,138,,157,148,8,15,9,9,0.6,0.7
2025-04-28T2200,2602A,100.9817,22.8322,普洱市,普洱第二中学,细颗粒物(PM2.5),69,71,80,50,38,119,,162,152,16,25,8,9,0.8,0.7
2025-04-28T2200,2262A,131.0518,45.8751,七台河市,新一中,,36,36,26,23,20,66,,101,89,14,10,11,11,0.8,0.7
2025-04-28T2200,3345A,131.0577,45.7879,七台河市,中波台,,38,38,29,19,19,26,,,,44,23,3,16,0.8,0.6
2025-04-28T2200,3637A,131.0176,45.7761,七台河市,人民广场,颗粒物(PM10),59,67,39,40,31,43,,96,82,40,20,12,10,0.6,0.6
2025-04-28T2200,3684A,130.8781,45.8222,七台河市,新建矿广场,颗粒物(PM10),51,51,38,32,22,23,,76,54,40,21,11,8,0.8,0.6
2025-04-28T2200,1779A,123.9305,47.3636,齐齐哈尔市,安居小区,,30,30,25,7,8,80,,91,85,9,11,2,2,0.3,0.3
2025-04-28T2200,1780A,123.9488,47.3386,齐齐哈尔市,中心广场,,32,32,24,14,8,78,,92,86,8,9,7,7,0.2,0.2
2025-04-28T2200,1781A,123.9483,47.3227,齐齐哈尔市,农牧车辆厂,,27,27,27,6,12,81,,92,88,6,9,4,5,0.1,0.2
2025-04-28T2200,1783A,123.945,47.2988,齐齐哈尔市,市环境监测站,,27,27,22,9,12,81,,95,89,6,7,2,2,0.4,0.3
2025-04-28T2200,3662A,123.6333,47.2075,齐齐哈尔市,富区青少年活动中心,,33,33,38,17,19,78,,86,82,6,11,2,3,0.3,0.4
2025-04-28T2200,2591A,107.9783,26.5747,黔东南苗族侗族自治州,市环境监测站,,40,40,26,27,18,50,,100,89,34,16,3,3,0.6,0.4
2025-04-28T2200,2881A,107.8908,26.5311,黔东南苗族侗族自治州,凯里学院,,36,36,24,22,16,67,,106,100,12,11,2,2,0.5,0.5
2025-04-28T2200,2593A,107.5228,26.2403,黔南布依族苗族自治州,小围寨,,29,29,21,17,12,73,,112,106,12,7,3,3,0.3,0.3
2025-04-28T2200,3538A,107.5175,26.2978,黔南布依族苗族自治州,沙坝,颗粒物(PM10),53,56,28,24,13,49,,117,102,22,11,4,4,0.4,0.5
2025-04-28T2200,2589A,104.9022,25.0925,黔西南布依族苗族自治州,场坝街,,35,25,23,8,11,110,,119,117,10,12,4,5,0.4,0.4
2025-04-28T2200,2590A,104.8811,25.0992,黔西南布依族苗族自治州,坪东大道,,33,,17,19,20,104,,116,113,10,11,3,6,0.3,0.3
2025-04-28T2200,2502A,108.6236,21.9667,钦州市,市环保站,,48,48,27,24,11,70,,91,87,19,19,3,3,0.8,0.9
2025-04-28T2200,2503A,108.6549,21.9481,钦州市,沙埠小学,,49,41,33,34,17,71,,92,90,21,21,9,7,0.9,0.8
2025-04-28T2200,2504A,108.5989,21.7431,钦州市,港区一小,,48,48,41,25,18,64,,87,84,25,24,7,8,0.8,0.8
2025-04-28T2200,3404A,108.5959,21.9633,钦州市,北职校,颗粒物(PM10),52,53,33,27,15,68,,87,85,19,20,7,7,0.8,0.7
2025-04-28T2200,1043A,119.7493,40.0116,秦皇岛市,第一关,,45,42,47,28,24,11,,99,84,90,30,4,6,0.4,0.4
2025-04-28T2200,1044A,119.5897,39.9499,秦皇岛市,监测站,,41,41,56,22,17,75,,99,96,16,19,3,6,0.4,0.4
2025-04-28T2200,1046A,119.5251,39.9041,秦皇岛市,建设大厦,,48,48,67,20,16,60,,98,92,35,27,3,8,0.4,0.5
2025-04-28T2200,3132A,119.610547,39.943889,秦皇岛市,文明里,,45,45,58,19,18,79,,94,90,15,21,2,6,0.3,0.3
2025-04-28T2200,4198A,119.5090,39.8253,秦皇岛市,北戴河轮滑馆,,39,39,43,23,18,67,,101,96,16,15,1,4,0.3,0.3
2025-04-28T2200,1307A,120.6659,36.2403,青岛市,仰口,颗粒物(PM10),53,56,50,35,25,161,,152,152,14,13,8,7,0.5,0.5
2025-04-28T2200,1310A,120.4134,36.0658,青岛市,市南区东部子站,,44,44,58,22,24,88,,128,116,36,28,8,9,0.5,0.5
2025-04-28T2200,1311A,120.3664,36.1032,青岛市,四方区子站,,39,39,54,19,26,116,,167,154,27,26,11,9,0.6,0.6
2025-04-28T2200,1312A,120.2994,36.054,青岛市,市南区西部子站,,31,31,52,12,26,73,,140,124,57,34,7,10,0.7,0.8
2025-04-28T2200,1313A,120.4581,36.0858,青岛市,崂山区子站,,34,31,51,14,21,108,,125,122,23,27,9,10,0.5,0.6
2025-04-28T2200,1315A,120.3999,36.3083,青岛市,城阳区子站,颗粒物(PM10),51,51,57,20,24,129,,148,140,28,26,5,6,0.5,0.5
2025-04-28T2200,1966A,120.0405,35.8735,青岛市,黄岛区4号,,41,41,42,12,18,93,,136,126,35,24,9,10,0.7,0.7
2025-04-28T2200,3362A,120.5014,36.4034,青岛市,即墨2号,颗粒物(PM10),60,69,62,33,29,140,,157,155,27,20,10,11,0.6,0.6
2025-04-28T2200,3642A,120.3503,36.0736,青岛市,市北区南部,,36,36,59,17,25,114,,147,139,13,22,7,8,0.6,0.7
2025-04-28T2200,3643A,120.3948,36.1805,青岛市,李沧区北部,颗粒物(PM10),52,53,62,19,30,109,,147,136,32,33,9,10,0.6,0.7
2025-04-28T2200,4290A,120.1969,35.9546,青岛市,珠江路669号,,35,27,52,17,28,110,,137,126,20,30,8,9,0.6,0.7
2025-04-28T2200,1702A,113.0426,23.691,清远市,环保大楼,,20,20,30,10,13,56,,106,98,26,16,6,6,0.9,0.8
2025-04-28T2200,1703A,113.0208,23.7106,清远市,凤城街办,,18,18,18,7,12,52,,86,75,20,22,6,5,0.7,0.7
2025-04-28T2200,3025A,113.0477,23.6344,清远市,技师学院,,20,20,20,11,11,48,,92,84,21,18,12,7,0.9,0.7
2025-04-28T2200,3318A,112.9903,23.7403,清远市,清新太和,,20,11,16,3,10,63,,80,76,11,18,8,7,0.6,0.6
2025-04-28T2200,3455A,113.076,23.7198,清远市,清城东城,,25,25,21,15,12,48,,95,87,19,12,7,7,1.0,0.9
2025-04-28T2200,2661A,107.6325,35.7357,庆阳市,庆阳五中,,46,39,24,32,7,90,,116,110,20,7,7,3,0.5,0.3
2025-04-28T2200,2662A,107.6364,35.7067,庆阳市,市环保局,,46,46,30,21,7,103,,119,113,13,7,7,6,0.5,0.5
2025-04-28T2200,1916A,103.7897,25.5035,曲靖市,环境监测站,,44,44,38,21,16,116,,132,130,14,13,6,7,0.4,0.4
2025-04-28T2200,1917A,103.8,25.5364,曲靖市,烟厂办公区,,39,39,34,21,15,117,,131,130,10,10,4,7,0.4,0.5
2025-04-28T2200,3376A,103.7947,25.462,曲靖市,南苑二区,,,43,37,21,19,,,132,132,14,12,8,7,0.4,0.4
