timepoint,stationcode,longitude,latitude,area,positionname,primarypollutant,aqi,pm10,pm10_24h,pm2_5,pm2_5_24h,o3,o3_24h,o3_8h,o3_8h_24h,no2,no2_24h,so2,so2_24h,co,co_24h
2025-04-28T1700,2566A,102.1879,31.914,阿坝藏族羌族自治州,州农科所,,27,15,25,10,10,86,,81,81,6,11,10,14,0.5,0.6
2025-04-28T1700,2568A,102.2502,31.8896,阿坝藏族羌族自治州,马师校,,30,23,17,18,13,96,,92,92,13,11,4,5,0.5,0.4
2025-04-28T1700,3994A,102.2165,31.9024,阿坝藏族羌族自治州,马尔康中学西区,,35,17,17,12,13,109,,103,103,5,5,4,4,0.3,0.3
2025-04-28T1700,2695A,80.292,41.1694,阿克苏地区,电视台,颗粒物(PM10),162,273,343,54,77,123,,102,102,1,11,9,7,0.4,0.5
2025-04-28T1700,2696A,80.2613,41.1551,阿克苏地区,艺术中心,颗粒物(PM10),175,299,402,50,91,122,,102,102,2,23,4,4,0.4,0.5
2025-04-28T1700,2204A,105.6467,38.8363,阿拉善盟,西城区西花园,,42,13,30,3,8,132,,123,123,6,11,6,7,0.6,0.6
2025-04-28T1700,2205A,105.6985,38.8411,阿拉善盟,蒙二幼,,35,13,26,3,7,110,,105,105,9,9,7,8,0.5,0.5
2025-04-28T1700,2206A,105.724,38.8516,阿拉善盟,环保局新楼,,37,9,19,3,8,116,,113,113,3,4,7,7,0.5,0.5
2025-04-28T1700,2708A,88.1264,47.8517,阿勒泰地区,市站,,31,28,24,9,7,98,,100,98,18,9,4,3,0.5,0.4
2025-04-28T1700,2630A,80.1161,32.5,阿里地区,阿里监测站,,39,15,14,8,7,124,,116,116,4,6,5,5,0.3,0.4
2025-04-28T1700,3192A,80.0903,32.5028,阿里地区,阿里藏医院,,42,18,18,8,7,132,,127,127,3,2,6,6,0.3,0.3
2025-04-28T1700,2642A,109.0318,32.6537,安康市,香溪洞,,46,46,37,12,19,129,,100,100,5,9,7,9,0.4,0.6
2025-04-28T1700,2644A,109.0072,32.6975,安康市,汉滨区检察院,,41,38,39,14,18,130,,99,99,6,10,8,14,0.3,0.4
2025-04-28T1700,4054A,109.0325,32.6913,安康市,市邮政管理局,,42,42,40,15,19,129,,100,100,5,9,6,14,0.2,0.3
2025-04-28T1700,2291A,117.0809,30.5177,安庆市,环科院,臭氧1小时,63,62,42,29,28,170,,150,150,17,25,1,2,0.8,0.8
2025-04-28T1700,2292A,117.0331,30.5119,安庆市,马山宾馆,臭氧1小时,65,58,39,30,28,172,,144,144,12,30,4,5,0.8,0.8
2025-04-28T1700,2294A,116.9896,30.6145,安庆市,安庆大学,,49,38,46,24,30,156,,155,155,20,20,3,5,0.6,0.6
2025-04-28T1700,3173A,117.0598,30.5351,安庆市,市人大,臭氧1小时,70,60,45,29,28,176,,153,153,14,24,6,7,0.6,0.5
2025-04-28T1700,3122A,105.9606,26.2611,安顺市,伍家关,,41,21,17,13,9,131,,112,112,5,7,3,4,0.3,0.4
2025-04-28T1700,3123A,105.9408,26.2431,安顺市,凤凰山,,39,28,20,17,14,122,,106,106,6,7,6,7,0.4,0.5
2025-04-28T1700,3124A,105.9439,26.2564,安顺市,金钟山,,39,18,17,17,14,122,,106,106,6,7,5,6,0.5,0.5
2025-04-28T1700,3125A,105.8983,26.2481,安顺市,娄家坡,,38,24,22,19,15,120,,105,105,8,8,6,7,0.4,0.5
2025-04-28T1700,1818A,114.4839,36.0621,安阳市,棉研所,,,,,,,,,,,,,,,,
2025-04-28T1700,1819A,114.3551,36.1017,安阳市,红庙街,颗粒物(PM10),62,73,77,27,28,156,,126,126,2,12,5,6,0.4,0.6
2025-04-28T1700,1820A,114.361,36.0681,安阳市,银杏小区,颗粒物(PM10),67,84,76,25,24,167,,136,136,4,16,8,7,0.4,0.5
2025-04-28T1700,3141A,114.3922,36.0878,安阳市,信访局,颗粒物(PM10),73,95,89,16,18,172,,139,139,2,15,5,6,0.2,0.4
2025-04-28T1700,3669A,114.4705,36.0637,安阳市,左辅环卫站,颗粒物(PM10),57,63,74,15,23,163,,137,137,10,24,6,5,0.5,0.5
2025-04-28T1700,3703A,114.2917,36.0949,安阳市,安钢职工学校,颗粒物(PM10),64,78,115,23,26,147,,125,125,4,17,4,4,0.4,0.5
2025-04-28T1700,1748A,123.044,41.1196,鞍山市,深沟寺,细颗粒物(PM2.5),59,45,55,42,27,116,,107,107,9,16,7,8,0.4,0.6
2025-04-28T1700,1749A,123.011,41.0931,鞍山市,太阳城,,43,43,59,25,27,107,,101,101,7,14,7,9,0.6,0.7
2025-04-28T1700,1750A,123.0485,41.1442,鞍山市,太平,颗粒物(PM10),55,60,76,32,31,103,,99,99,9,16,9,13,0.6,0.7
2025-04-28T1700,1751A,122.9642,41.0971,鞍山市,铁西三道街,颗粒物(PM10),52,54,65,30,31,108,,103,103,18,24,13,14,1.1,1.1
2025-04-28T1700,1753A,123.022,41.0821,鞍山市,明达新区,,45,45,60,22,25,113,,104,104,8,14,6,8,0.3,0.3
2025-04-28T1700,1754A,123.1289,41.0228,鞍山市,千山,,,,49,,13,,,84,,,13,,5,,0.5
2025-04-28T1700,4201A,122.9446,41.0826,鞍山市,兴盛南路290号,颗粒物(PM10),52,54,73,32,30,106,,101,101,21,32,11,16,0.8,1
2025-04-28T1700,2195A,107.4212,40.761,巴彦淖尔市,附二中,颗粒物(PM10),56,62,50,14,16,119,,101,101,4,8,3,4,0.4,0.4
2025-04-28T1700,2196A,107.37,40.7372,巴彦淖尔市,市环保大楼,,47,47,46,24,16,116,,101,101,6,12,4,4,0.3,0.3
2025-04-28T1700,1956A,86.1472,41.7538,巴音郭楞蒙古自治州,孔雀公园,颗粒物(PM10),137,224,106,41,27,112,,94,94,2,16,5,6,0.1,0.2
2025-04-28T1700,1957A,86.1972,41.7166,巴音郭楞蒙古自治州,棉纺厂,颗粒物(PM10),152,254,120,31,22,110,,92,92,5,22,2,4,0.2,0.3
2025-04-28T1700,1958A,86.2357,41.7173,巴音郭楞蒙古自治州,经济开发区,颗粒物(PM10),132,213,101,32,19,112,,98,98,5,13,6,7,0.3,0.3
2025-04-28T1700,2914A,106.7677,31.8794,巴中市,苏山坪,,47,47,31,17,15,132,,115,115,9,10,4,4,0.6,0.7
2025-04-28T1700,3181A,106.7768,31.8526,巴中市,市五中,,42,36,44,13,24,132,,107,107,8,18,6,6,0.3,0.5
2025-04-28T1700,3183A,106.7418,31.8654,巴中市,圣泉水务公司,,47,47,35,19,17,134,,112,112,7,21,6,6,0.4,0.5
2025-04-28T1700,3616A,106.7616,31.8344,巴中市,市中心医院,,41,40,40,14,24,131,,111,111,6,19,4,4,0.4,0.6
2025-04-28T1700,2235A,122.7911,45.6077,白城市,洮北区环保局,,30,26,34,9,20,93,,91,91,6,8,2,3,0.4,0.5
2025-04-28T1700,2236A,122.8738,45.5725,白城市,市环保局,,46,46,30,20,21,95,,94,94,6,6,3,3,0.4,0.4
2025-04-28T1700,2231A,126.4219,41.9171,白山市,喜丰,细颗粒物(PM2.5),79,60,43,58,25,121,,104,104,13,16,12,10,0.8,0.7
2025-04-28T1700,2232A,126.4077,41.9419,白山市,环保局,细颗粒物(PM2.5),57,56,45,40,20,104,,92,92,21,12,7,9,0.6,0.5
2025-04-28T1700,2647A,104.1724,36.5446,白银市,第三小学,,48,48,41,17,18,117,,106,106,7,10,13,23,0.6,0.7
2025-04-28T1700,2648A,104.1465,36.5482,白银市,动力公司,,,62,39,24,15,122,,112,112,,10,14,18,0.5,0.7
2025-04-28T1700,2512A,106.6103,23.9011,百色市,市监测站,,35,21,22,14,11,111,,85,85,9,8,7,3,0.7,0.7
2025-04-28T1700,2513A,106.6538,23.8859,百色市,市中心血站,,37,25,24,11,14,118,,89,89,10,10,11,5,0.8,0.8
2025-04-28T1700,3406A,106.6085,23.8798,百色市,祈福高中,,45,45,25,12,13,112,,84,84,8,7,8,5,0.6,0.7
2025-04-28T1700,2270A,117.396,32.939,蚌埠市,工人疗养院,颗粒物(PM10),53,55,97,13,42,156,,158,158,6,20,5,6,0.5,0.6
2025-04-28T1700,2271A,117.3605,32.9427,蚌埠市,百货大楼,,50,48,96,18,47,158,,157,157,10,24,7,7,0.5,0.6
2025-04-28T1700,2273A,117.4185,32.8911,蚌埠市,蚌埠学院,,50,41,81,19,45,160,,156,156,8,24,5,7,0.5,0.7
2025-04-28T1700,2274A,117.3533,32.9673,蚌埠市,淮上区政府,,50,48,86,24,46,158,,158,158,10,25,6,6,0.3,0.5
2025-04-28T1700,2275A,117.3145,32.8977,蚌埠市,高新区,,49,39,78,22,44,154,,155,155,9,23,6,8,0.4,0.5
2025-04-28T1700,3715A,117.3092,32.9314,蚌埠市,蚌埠田家炳中学,臭氧1小时,55,44,99,16,42,164,,164,164,9,23,6,8,0.3,0.5
2025-04-28T1700,1585A,109.8756,40.6532,包头市,市环境监测站,,34,34,39,20,29,105,,99,99,9,26,10,15,0.6,0.7
2025-04-28T1700,1587A,109.9991,40.5842,包头市,包头八中,,34,32,51,7,22,108,,104,104,8,40,10,28,0.2,0.7
2025-04-28T1700,1588A,109.8538,40.6821,包头市,青山宾馆,,33,30,29,22,22,103,,91,91,7,28,12,14,0.4,0.7
2025-04-28T1700,1589A,109.8642,40.6288,包头市,惠龙物流,,36,36,39,8,20,108,,101,101,7,30,8,20,0.3,0.7
2025-04-28T1700,1590A,110.0377,40.5546,包头市,东河鸿龙湾,,34,17,40,3,13,107,,101,101,5,30,6,19,0.4,0.6
2025-04-28T1700,3283A,109.9154,40.5685,包头市,滨河大厦,,35,28,45,3,17,109,,100,100,2,25,9,26,0.4,0.7
2025-04-28T1700,3419A,109.9447,40.6261,包头市,包头市委党校,,44,44,41,3,17,111,,108,108,4,34,10,22,0.4,0.8
2025-04-28T1700,3683A,109.8331,40.6576,包头市,昆区政府,,42,37,36,29,18,101,,90,90,13,27,10,17,0.8,0.9
2025-04-28T1700,1930A,107.185,34.3063,宝鸡市,庙沟村,,44,44,39,17,23,133,,116,116,5,8,8,7,0.3,0.4
2025-04-28T1700,1931A,107.0708,34.3017,宝鸡市,竹园沟,颗粒物(PM10),52,53,45,18,13,132,,114,114,6,10,8,8,0.3,0.3
2025-04-28T1700,1932A,107.1906,34.3672,宝鸡市,三陆医院,,46,46,48,18,23,133,,112,112,10,20,6,6,0.3,0.4
2025-04-28T1700,1933A,107.1431,34.3547,宝鸡市,监测站,颗粒物(PM10),63,76,48,20,16,121,,110,110,10,13,4,7,0.3,0.3
2025-04-28T1700,1934A,107.1186,34.3739,宝鸡市,技工学校,颗粒物(PM10),56,61,47,18,20,126,,110,110,10,10,7,8,0.3,0.4
2025-04-28T1700,1935A,107.3906,34.3528,宝鸡市,陈仓区环保局家属楼,,42,26,54,3,18,134,,108,108,11,20,8,8,0.4,0.4
2025-04-28T1700,1936A,107.2058,34.3497,宝鸡市,文理学院,,44,44,46,16,17,132,,112,112,7,14,6,7,0.3,0.4
2025-04-28T1700,1937A,107.2386,34.3622,宝鸡市,三迪小学,,43,43,52,15,19,130,,109,109,10,15,6,6,0.3,0.4
2025-04-28T1700,1051A,115.493,38.8632,保定市,游泳馆,颗粒物(PM10),70,90,82,37,27,165,,118,118,13,27,5,4,0.2,0.2
2025-04-28T1700,1052A,115.5213,38.8959,保定市,华电二区,臭氧1小时,59,57,58,31,29,167,,121,121,9,19,3,3,0.3,0.3
2025-04-28T1700,1053A,115.4713,38.9108,保定市,接待中心,臭氧1小时,63,67,68,42,33,170,,120,120,9,17,4,3,0.6,0.6
2025-04-28T1700,1054A,115.4612,38.8416,保定市,地表水厂,颗粒物(PM10),71,91,85,32,26,170,,121,121,14,26,4,4,0.3,0.3
2025-04-28T1700,3581A,115.31981,38.95208,保定市,满城区生态环境分局,细颗粒物(PM2.5),104,,78,78,31,176,,118,118,12,17,4,3,0.2,0.3
2025-04-28T1700,3582A,115.47694,38.76408,保定市,清苑区第二中学,颗粒物(PM10),72,93,101,26,25,165,,126,126,9,22,5,6,0.3,0.3
2025-04-28T1700,3583A,115.62909,39.02311,保定市,徐水物探局,颗粒物(PM10),74,98,97,27,20,163,,119,119,13,25,2,2,0.1,0.1
2025-04-28T1700,4004A,115.4202,38.8656,保定市,双鹰农机,臭氧1小时,59,60,67,25,25,167,,119,119,13,25,7,7,0.1,0.1
2025-04-28T1700,4034A,115.5150,38.8590,保定市,植保所站,颗粒物(PM10),67,83,79,33,29,162,,114,114,9,18,1,2,0.5,0.5
2025-04-28T1700,2594A,99.1678,25.1081,保山市,市环境监测站,颗粒物(PM10),62,74,69,26,38,141,,130,130,7,11,12,9,0.5,0.5
2025-04-28T1700,2595A,99.1711,25.1328,保山市,市环保局,颗粒物(PM10),62,73,68,27,33,156,,148,148,4,8,10,9,0.4,0.6
2025-04-28T1700,1866A,109.2262,21.588,北海市,牛尾岭水库,,,23,19,15,13,85,,58,58,,,7,7,1.0,0.9
2025-04-28T1700,1867A,109.1436,21.4086,北海市,海滩公园,,40,40,29,12,14,111,,74,74,15,13,6,6,0.7,0.6
2025-04-28T1700,1868A,109.0981,21.4661,北海市,新市环保局,,34,25,24,14,14,106,,76,76,14,13,4,5,0.6,0.6
2025-04-28T1700,1869A,109.1778,21.5233,北海市,北海工业园,,34,20,29,17,18,106,,72,72,8,15,8,10,0.8,0.7
2025-04-28T1700,3400A,109.1911,21.4415,北海市,龙潭自来水厂,,32,28,26,20,18,101,,75,75,8,13,7,8,0.6,0.5
2025-04-28T1700,1001A,116.3621,39.8784,北京市,万寿西宫,颗粒物(PM10),78,106,55,49,20,152,,119,119,20,27,11,7,0.8,0.6
2025-04-28T1700,1002A,116.2202,40.2915,北京市,定陵,,,,,,,,,,,,,,,,
2025-04-28T1700,1003A,116.4174,39.9289,北京市,东四,颗粒物(PM10),79,107,66,45,18,136,,110,110,20,26,7,4,0.6,0.4
2025-04-28T1700,1004A,116.4072,39.8863,北京市,天坛,颗粒物(PM10),70,90,48,39,19,139,,,,25,20,6,4,0.6,0.5
2025-04-28T1700,1005A,116.462,39.9365,北京市,农展馆,颗粒物(PM10),91,131,58,32,18,141,,116,116,23,29,11,8,0.6,0.4
2025-04-28T1700,1006A,116.3392,39.9295,北京市,官园,,,,63,,23,118,,88,88,19,28,7,5,0.5,0.3
2025-04-28T1700,1007A,116.2878,39.9611,北京市,海淀万柳,颗粒物(PM10),78,105,58,45,18,133,,103,103,15,27,8,5,0.5,0.4
2025-04-28T1700,1008A,116.6636,40.135,北京市,顺义新城,颗粒物(PM10),68,85,58,36,15,113,,102,102,15,25,10,8,0.6,0.5
2025-04-28T1700,1009A,116.6275,40.3275,北京市,怀柔镇,颗粒物(PM10),74,98,39,28,14,116,,104,104,18,20,6,4,0.5,0.4
2025-04-28T1700,1010A,116.2296,40.217,北京市,昌平镇,颗粒物(PM10),65,79,40,19,10,141,,102,102,12,32,3,3,0.2,0.2
2025-04-28T1700,1011A,116.3966,39.9821,北京市,奥体中心,颗粒物(PM10),65,79,46,32,14,128,,104,104,22,34,7,4,0.4,0.2
2025-04-28T1700,3281A,115.9718,40.4529,北京市,延庆夏都,颗粒物(PM10),52,53,20,21,8,125,,95,95,15,14,4,3,0.4,0.3
2025-04-28T1700,3418A,116.8336,40.4095,北京市,密云新城,颗粒物(PM10),75,100,40,35,13,118,,100,100,15,11,7,4,0.6,0.4
2025-04-28T1700,3671A,116.088,39.9726,北京市,门头沟三家店,,,,68,,19,,,59,,,45,,3,,0.2
2025-04-28T1700,3672A,116.1541,39.8204,北京市,丰台云岗,,,139,75,,23,147,,112,112,18,31,6,3,0.5,0.3
2025-04-28T1700,3673A,116.6804,39.9081,北京市,通州东关,细颗粒物(PM2.5),83,98,77,61,28,122,,103,103,17,31,8,7,0.4,0.7
2025-04-28T1700,3674A,115.9577,39.7603,北京市,房山燕山,颗粒物(PM10),68,86,40,39,14,129,,98,98,10,16,6,5,0.2,0.3
2025-04-28T1700,3675A,116.4672,39.7733,北京市,大兴旧宫,颗粒物(PM10),70,89,75,38,18,141,,107,107,14,22,4,3,0.3,0.3
2025-04-28T1700,3694A,115.986,40.4563,北京市,延庆石河营,颗粒物(PM10),60,70,20,21,7,122,,89,89,13,14,3,2,0.4,0.3
2025-04-28T1700,3695A,116.6151,40.3053,北京市,怀柔新城,颗粒物(PM10),66,82,36,29,13,110,,94,94,16,14,4,3,0.5,0.5
2025-04-28T1700,3696A,116.2545,39.8768,北京市,丰台小屯,颗粒物(PM10),70,89,48,46,16,132,,102,102,22,32,6,2,0.4,0.3
2025-04-28T1700,3697A,116.84,40.3844,北京市,密云镇,颗粒物(PM10),63,75,31,36,13,120,,102,102,13,24,10,6,0.5,0.4
2025-04-28T1700,4182A,116.1942,39.9158,北京市,八角北路9号,颗粒物(PM10),86,121,80,48,23,135,,108,108,19,42,6,5,0.5,0.4
2025-04-28T1700,4194A,117.0790,40.1518,北京市,洳河巡河路,,50,50,39,21,17,97,,98,98,15,19,4,5,0.4,0.5
2025-04-28T1700,1761A,123.8275,41.3064,本溪市,大峪,细颗粒物(PM2.5),59,65,61,42,33,129,,117,117,12,12,6,7,0.6,0.7
2025-04-28T1700,1762A,123.7567,41.3325,本溪市,溪湖,细颗粒物(PM2.5),60,61,62,43,32,124,,115,115,14,14,5,7,0.6,0.6
2025-04-28T1700,1763A,123.7169,41.3094,本溪市,彩屯,,,65,56,42,29,129,,118,118,15,16,10,9,,0.7
2025-04-28T1700,1764A,123.7669,41.2864,本溪市,东明,颗粒物(PM10),71,92,61,44,33,128,,116,116,13,20,6,9,0.6,0.8
2025-04-28T1700,1765A,123.7992,41.2664,本溪市,新立屯,"颗粒物(PM10),细颗粒物(PM2.5)",62,74,49,44,28,127,,123,123,18,26,7,6,0.8,0.8
2025-04-28T1700,1766A,123.8142,41.3472,本溪市,威宁,细颗粒物(PM2.5),62,70,74,44,32,123,,113,113,9,20,5,6,0.6,0.6
2025-04-28T1700,2587A,105.2864,27.3125,毕节市,八中,,35,20,18,10,14,110,,102,102,7,7,5,5,0.5,0.6
2025-04-28T1700,2588A,105.31,27.2944,毕节市,师专,,,16,18,14,14,107,,102,102,9,7,,7,0.4,0.5
2025-04-28T1700,4263A,105.3688,27.3598,毕节市,工业大道,,34,16,21,11,14,107,,102,102,9,12,7,6,0.5,0.6
2025-04-28T1700,1629A,118.0018,37.3617,滨州市,第二水厂,,46,46,57,31,25,143,,122,122,8,19,10,11,0.6,0.6
2025-04-28T1700,1630A,117.9776,37.393,滨州市,北中新校,,49,41,46,19,23,154,,132,132,11,24,9,10,0.5,0.5
2025-04-28T1700,3514A,117.9378,37.3956,滨州市,中海酒店,,49,44,40,22,29,155,,127,127,7,23,9,10,0.5,0.6
2025-04-28T1700,3515A,117.9378,37.3553,滨州市,开发区一中,颗粒物(PM10),51,51,51,19,25,145,,122,122,13,28,9,6,0.4,0.5
2025-04-28T1700,3516A,118.0917,37.694,滨州市,金海六路,颗粒物(PM10),54,58,49,12,17,144,,142,142,12,29,35,11,0.1,0.2
2025-04-28T1700,4028A,117.9956,37.3753,滨州市,滨州市西街道办事处,,50,41,51,19,29,158,,138,138,10,20,8,9,0.4,0.6
2025-04-28T1700,2311A,115.8072,33.8399,亳州市,污水处理厂,,46,24,62,3,21,146,,126,126,11,12,1,3,0.2,0.3
2025-04-28T1700,2312A,115.7789,33.8518,亳州市,三国揽胜宫,,47,32,64,3,22,149,,131,131,10,11,4,5,0.2,0.3
2025-04-28T1700,3332A,115.7633,33.8034,亳州市,亳州学院,,49,21,56,3,22,155,,139,139,12,12,2,2,0.2,0.4
2025-04-28T1700,2693A,82.0485,44.8556,博尔塔拉蒙古自治州,市党校,,47,47,39,20,17,111,,102,102,30,36,3,4,0.8,0.7
2025-04-28T1700,2694A,82.0806,44.8969,博尔塔拉蒙古自治州,市环保局,,44,44,51,13,15,114,,102,102,14,19,2,3,0.5,0.6
2025-04-28T1700,1071A,116.8842,38.2991,沧州市,沧县城建局,臭氧1小时,78,87,61,40,27,182,,129,129,18,25,9,5,0.5,0.3
2025-04-28T1700,1072A,116.8584,38.3254,沧州市,电视转播站,臭氧1小时,74,69,55,48,28,179,,120,120,20,23,9,6,0.4,0.2
2025-04-28T1700,1073A,116.8709,38.3228,沧州市,市环保局,,,80,65,48,28,,,130,130,17,21,11,6,0.5,0.4
2025-04-28T1700,3324A,116.8136,38.3004,沧州市,河北水利电力学院,臭氧1小时,69,66,58,23,25,175,,127,127,13,26,9,8,0.3,0.3
2025-04-28T1700,2622A,97.1806,31.1273,昌都市,昌都监测站,,38,6,7,6,8,119,,127,119,5,2,2,2,0.4,0.4
2025-04-28T1700,3719A,97.1714,31.1406,昌都市,昌都会议中心,,40,6,13,3,9,125,,125,120,4,4,3,3,0.2,0.2
2025-04-28T1700,2690A,88.1236,43.8886,昌吉回族自治州,天山天池,,38,6,12,3,6,120,,115,115,5,5,5,5,0.5,0.5
2025-04-28T1700,2692A,87.2717,44.0297,昌吉回族自治州,新区政务中心,,43,21,36,8,10,136,,116,116,9,17,6,7,0.2,0.3
2025-04-28T1700,3613A,87.3095,44.0142,昌吉回族自治州,亚心广场,,43,24,44,9,13,137,,115,115,5,22,7,11,0.2,0.6
2025-04-28T1700,1119A,125.3325,43.9166,长春市,食品厂,,39,36,45,27,31,96,,91,91,15,14,8,7,0.4,0.4
2025-04-28T1700,1120A,125.2863,43.9027,长春市,客车厂,,42,32,39,29,29,103,,94,94,12,15,5,5,0.3,0.3
2025-04-28T1700,1121A,125.2841,43.8463,长春市,邮电学院,,40,,24,28,41,108,,104,104,7,8,6,6,0.4,0.4
2025-04-28T1700,1122A,125.3716,43.8772,长春市,劳动公园,,34,31,45,20,29,108,,101,101,6,9,6,6,0.3,0.2
2025-04-28T1700,1123A,125.3297,43.8805,长春市,园林处,,,,39,20,28,101,,94,94,,9,6,7,0.5,0.4
2025-04-28T1700,1124A,125.4605,43.79,长春市,净月潭,,35,35,41,24,27,103,,102,102,8,9,6,6,0.2,0.2
2025-04-28T1700,1125A,125.7194,43.515,长春市,甩湾子,,,,,,,,,,,,,,,,
2025-04-28T1700,1126A,125.3863,43.8447,长春市,经开区环卫处,颗粒物(PM10),52,54,51,21,25,101,,97,97,10,11,6,6,0.3,0.4
2025-04-28T1700,1127A,125.245,43.7783,长春市,高新区管委会,,33,31,38,20,29,104,,98,98,9,12,8,7,0.2,0.3
2025-04-28T1700,1128A,125.1761,43.8325,长春市,岱山公园,,35,32,36,21,27,110,,105,105,8,9,4,4,0.5,0.5
2025-04-28T1700,1335A,113.0833,28.2325,长沙市,经开区环保局,臭氧1小时,70,78,49,30,40,176,,119,119,10,30,5,4,0.6,0.8
2025-04-28T1700,1336A,112.8872,28.2189,长沙市,高开区环保局,臭氧1小时,68,76,50,35,42,174,,126,126,4,22,5,5,0.9,1.1
2025-04-28T1700,1337A,113.0792,28.2053,长沙市,马坡岭,臭氧1小时,73,78,48,34,36,178,,127,127,11,30,4,3,0.5,0.6
2025-04-28T1700,1338A,112.9394,28.19,长沙市,湖南师范大学,臭氧1小时,74,77,48,31,29,179,,128,128,8,20,1,2,0.6,0.7
2025-04-28T1700,1339A,113.0178,28.1322,长沙市,雨花区环保局,臭氧1小时,78,86,48,36,29,182,,129,129,9,29,4,3,0.5,0.6
2025-04-28T1700,1340A,112.9792,28.2597,长沙市,伍家岭,颗粒物(PM10),66,82,54,40,38,171,,120,120,10,27,3,2,0.6,0.7
2025-04-28T1700,1341A,113.0014,28.1944,长沙市,火车新站,臭氧1小时,75,92,55,48,35,180,,132,132,10,34,7,6,0.6,0.8
2025-04-28T1700,1342A,112.9844,28.1178,长沙市,天心区环保局,臭氧1小时,78,78,45,30,30,182,,130,130,11,32,3,3,0.7,0.9
2025-04-28T1700,1343A,112.8908,28.1308,长沙市,湖南中医药大学,臭氧1小时,70,65,36,50,29,176,,127,127,7,22,3,2,0.7,0.8
2025-04-28T1700,1344A,112.9581,28.3611,长沙市,沙坪,臭氧1小时,69,44,41,34,21,175,,131,131,10,12,6,4,0.6,0.7
2025-04-28T1700,1727A,113.1147,36.1547,长治市,清华站,,39,21,70,12,18,123,,107,107,8,26,7,10,0.4,0.8
2025-04-28T1700,1730A,113.0886,36.2125,长治市,审计局,,40,24,69,3,17,125,,113,113,9,31,8,16,0.2,0.6
2025-04-28T1700,1731A,113.0844,36.1856,长治市,长治八中,,39,20,78,8,24,122,,106,106,10,31,9,16,0.4,0.7
2025-04-28T1700,2845A,113.1569,36.1911,长治市,德盛苑,,38,17,56,7,19,121,,109,109,5,18,5,11,0.4,0.9
2025-04-28T1700,3568A,113.06,36.0464,长治市,向阳小学,,40,40,88,3,19,128,,112,112,7,24,9,13,0.1,0.4
2025-04-28T1700,3569A,112.8792,36.3144,长治市,屯留一中,,,16,58,3,15,113,,101,101,,25,6,10,0.3,0.6
2025-04-28T1700,4189A,113.1131,36.19948,长治市,英华南巷50号,,40,27,79,7,21,126,,113,113,9,30,5,14,0.2,0.8
2025-04-28T1700,4190A,113.2367,36.3344,长治市,学府街1号,,41,32,91,10,29,129,,128,128,8,44,7,28,0.5,1.2
2025-04-28T1700,1854A,111.6975,28.9703,常德市,市二中,臭氧1小时,79,66,55,30,37,183,,172,172,15,20,7,8,0.7,0.8
2025-04-28T1700,1857A,111.7158,29.1456,常德市,白鹤山,,,,,,,,,,,,,,,,
2025-04-28T1700,3138A,111.7153,29.0289,常德市,武陵区永安,臭氧1小时,74,71,60,27,34,179,,169,169,9,13,3,5,0.5,0.6
2025-04-28T1700,3139A,111.6892,28.9881,常德市,鼎城区玉霞,臭氧1小时,75,60,58,32,37,180,,168,168,5,15,4,7,0.6,0.7
2025-04-28T1700,3140A,111.6625,29.0531,常德市,武陵区长庚,臭氧1小时,82,76,55,23,32,185,,176,176,7,13,8,9,0.6,0.7
2025-04-28T1700,1196A,119.9633,31.762,常州市,市监测站,,50,47,105,23,45,158,,151,151,14,29,8,11,0.6,0.8
2025-04-28T1700,1200A,119.9468,31.7069,常州市,武进监测站,臭氧1小时,70,52,82,23,36,176,,167,167,20,42,14,16,0.6,0.8
2025-04-28T1700,1201A,119.9255,31.9087,常州市,安家,,44,40,110,18,40,139,,131,131,15,49,10,13,0.2,0.4
2025-04-28T1700,3002A,119.9805,31.8174,常州市,行政中心,,48,31,80,20,43,151,,146,146,13,32,16,19,0.4,0.6
2025-04-28T1700,3003A,120.0522,31.7748,常州市,经开区,,50,50,80,14,42,155,,150,150,17,48,11,12,0.4,0.6
2025-04-28T1700,3010A,119.9025,31.7964,常州市,钟楼,臭氧1小时,52,46,97,26,44,161,,149,149,14,34,8,10,0.4,0.6
2025-04-28T1700,3429A,119.8598,31.7066,常州市,武进经发区,臭氧1小时,69,42,89,24,47,175,,160,160,15,46,10,13,0.6,0.8
2025-04-28T1700,3430A,119.5826,31.7245,常州市,金坛城区,臭氧1小时,78,39,75,20,35,182,,168,168,12,27,9,12,0.5,0.7
2025-04-28T1700,2220A,120.4318,41.5881,朝阳市,西梁,,34,20,37,7,11,106,,94,94,6,14,5,7,0.3,0.4
2025-04-28T1700,2221A,120.4521,41.5646,朝阳市,河畔小区,,34,28,32,10,11,107,,98,98,6,8,6,6,0.2,0.2
2025-04-28T1700,2222A,120.4176,41.5648,朝阳市,八里堡,,33,24,39,11,13,104,,94,94,9,15,6,7,0.2,0.2
2025-04-28T1700,2223A,120.3806,41.5969,朝阳市,农业园区,,33,17,31,12,15,105,,95,95,7,12,7,7,0.3,0.3
2025-04-28T1700,1705A,116.6367,23.6719,潮州市,西园路,,25,,57,13,39,79,,76,76,5,22,2,6,0.6,0.9
2025-04-28T1700,3026A,116.6183,23.6608,潮州市,市政府,,26,24,70,10,48,82,,79,79,5,30,4,17,0.7,0.9
2025-04-28T1700,4036A,116.6461,23.6761,潮州市,金山,,23,21,55,11,40,73,,72,72,7,22,6,9,0.7,0.9
2025-04-28T1700,2472A,113.0073,25.9061,郴州市,马头岭,,36,36,30,11,9,29,,25,25,11,14,7,7,0.5,0.5
2025-04-28T1700,2473A,113.0116,25.8226,郴州市,市职中,,38,30,25,26,18,113,,96,96,5,9,1,2,0.6,0.8
2025-04-28T1700,2475A,113.0383,25.8071,郴州市,市审计局,,35,28,22,22,16,112,,95,95,6,8,3,2,0.5,0.7
2025-04-28T1700,2476A,113.0348,25.7759,郴州市,市环保局,,34,34,22,16,18,103,,88,88,8,11,3,3,0.6,0.7
2025-04-28T1700,4252A,113.0138,25.8011,郴州市,好美居路49号,,38,38,24,23,16,113,,97,97,8,10,4,5,0.7,0.8
2025-04-28T1700,1431A,103.9728,30.7236,成都市,金泉两河,颗粒物(PM10),55,59,54,31,19,153,,112,112,13,28,3,3,0.7,0.7
2025-04-28T1700,1432A,104.176,30.6872,成都市,十里店,颗粒物(PM10),61,72,56,31,24,145,,105,105,25,42,4,5,0.7,0.8
2025-04-28T1700,1433A,104.079,30.5706,成都市,三瓦窑,颗粒物(PM10),59,68,54,36,28,134,,105,105,39,45,6,5,0.6,0.6
2025-04-28T1700,1434A,104.1114,30.63,成都市,沙河铺,颗粒物(PM10),59,67,55,34,28,139,,102,102,26,36,7,7,0.6,0.6
2025-04-28T1700,1437A,104.0786,30.6531,成都市,君平街,颗粒物(PM10),60,70,52,34,28,124,,99,99,24,40,8,8,0.6,0.8
2025-04-28T1700,1438A,103.613,31.0283,成都市,灵岩寺,,,,,,,,,,,,,,,,
2025-04-28T1700,2880A,104.0239,30.65639,成都市,大石西路,颗粒物(PM10),59,67,54,36,29,161,,120,120,29,38,6,6,0.4,0.5
2025-04-28T1700,3136A,104.2725,30.5589,成都市,龙泉驿区区政府,颗粒物(PM10),53,56,40,27,19,112,,81,81,25,23,5,5,0.7,0.7
2025-04-28T1700,3357A,104.0106,30.6931,成都市,金博路,臭氧1小时,69,68,39,24,19,175,,124,124,18,33,8,8,0.4,0.3
2025-04-28T1700,3359A,104.0578,30.5225,成都市,华阳,细颗粒物(PM2.5),62,70,52,44,36,144,,92,92,32,44,7,6,0.3,0.4
2025-04-28T1700,3488A,104.3853,30.7453,成都市,青白江技师分院,"颗粒物(PM10),臭氧1小时",54,58,46,33,22,163,,126,126,28,46,2,3,0.2,0.3
2025-04-28T1700,3489A,104.0789,30.4072,成都市,科学城,,,97,54,67,34,142,,86,86,31,37,,4,0.5,0.4
2025-04-28T1700,4011A,103.8506,30.6947,成都市,光华大道三段,颗粒物(PM10),56,62,42,36,22,154,,123,123,17,27,2,5,0.5,0.6
2025-04-28T1700,4224A,104.2433,30.5353,成都市,鲸龙路1057号,颗粒物(PM10),59,68,51,13,21,129,,93,93,34,51,5,5,0.6,0.7
2025-04-28T1700,1062A,117.9531,40.9081,承德市,铁路,,32,15,34,3,7,102,,94,94,7,16,9,4,0.4,0.3
2025-04-28T1700,1063A,117.9392,40.9763,承德市,中国银行,,32,7,36,3,8,102,,98,98,2,9,5,3,0.3,0.2
2025-04-28T1700,1064A,117.9503,40.928,承德市,开发区,,34,,28,11,13,106,,99,99,6,13,10,4,0.3,0.3
2025-04-28T1700,1065A,117.8051,40.9655,承德市,文化中心,,33,14,37,3,7,104,,101,101,6,13,9,4,0.4,0.3
2025-04-28T1700,1066A,117.9268,41.0026,承德市,离宫,,34,11,28,7,18,106,,100,100,3,6,3,3,0.2,0.2
2025-04-28T1700,2314A,117.47,30.6618,池州市,池州学院,臭氧1小时,89,73,45,39,26,191,,153,153,12,12,6,6,0.6,0.5
2025-04-28T1700,3237A,117.4918,30.6617,池州市,展览馆,臭氧1小时,95,64,44,35,25,196,,156,156,13,14,7,6,0.5,0.5
2025-04-28T1700,3333A,117.5627,30.695,池州市,第八中学,臭氧1小时,84,66,44,37,24,187,,155,155,15,13,7,7,0.5,0.6
2025-04-28T1700,3334A,117.5038,30.6243,池州市,第十二中学,臭氧1小时,97,66,45,34,28,197,,157,157,12,14,5,5,0.6,0.7
2025-04-28T1700,1744A,118.9233,42.2816,赤峰市,松山一中,,27,12,23,3,5,86,,86,86,20,16,10,10,0.3,0.3
2025-04-28T1700,1745A,118.9576,42.2728,赤峰市,哈达街,,30,11,24,3,6,94,,94,94,19,16,10,9,0.5,0.5
2025-04-28T1700,1746A,118.8788,42.2554,赤峰市,天义路,,,30,21,,9,103,,97,97,11,11,7,7,0.3,0.5
2025-04-28T1700,3058A,119.2658,42.0353,赤峰市,银河街,,29,20,28,8,11,92,,87,87,9,3,13,17,0.4,0.4
2025-04-28T1700,3286A,118.9359,42.3147,赤峰市,桥北物流园区,,30,,21,12,9,95,,90,90,14,15,7,7,0.6,0.6
2025-04-28T1700,2521A,107.3476,22.4136,崇左市,市环保局江州分局,,32,26,35,12,21,100,,80,80,3,10,6,6,0.5,0.6
2025-04-28T1700,4256A,107.3750,22.3736,崇左市,石景林东路7号,,35,21,30,3,17,110,,86,86,4,10,4,4,0.4,0.5
2025-04-28T1700,2298A,118.3093,32.3153,滁州市,老年大学,,50,48,62,17,35,160,,172,172,8,19,1,5,0.3,0.4
2025-04-28T1700,2299A,118.3244,32.2786,滁州市,人大宾馆,臭氧1小时,59,48,63,16,41,167,,176,176,12,23,8,11,0.3,0.4
2025-04-28T1700,3207A,118.3118,32.3038,滁州市,市政府原办公楼,,50,42,60,25,40,160,,172,172,6,17,5,7,0.3,0.4
2025-04-28T1700,3331A,118.3267,32.2634,滁州市,图书馆,颗粒物(PM10),56,61,73,24,41,163,,170,170,12,19,8,10,0.5,0.6
2025-04-28T1700,2605A,101.5482,25.0441,楚雄彝族自治州,州环境监测站,颗粒物(PM10),54,57,67,30,46,149,,143,143,6,22,7,10,0.4,0.5
2025-04-28T1700,2606A,101.538,25.0492,楚雄彝族自治州,市经济开发区,,47,44,69,32,42,150,,143,143,8,20,8,11,0.6,0.7
2025-04-28T1700,2548A,107.5277,31.2827,达州市,达州职业技术学院,颗粒物(PM10),54,58,52,18,23,129,,91,91,9,24,5,6,0.6,0.5
2025-04-28T1700,2549A,107.5086,31.2186,达州市,市环境监测站,,43,41,50,14,20,135,,112,112,17,33,4,5,0.2,0.3
2025-04-28T1700,2550A,107.4988,31.2132,达州市,凤凰小区,,44,39,47,12,22,140,,118,118,16,32,8,7,0.3,0.4
2025-04-28T1700,2551A,107.5082,31.1986,达州市,达县机关宾馆,,44,41,47,8,19,140,,114,114,13,35,5,5,0.3,0.5
2025-04-28T1700,2552A,107.4644,31.2124,达州市,市政中心,,48,48,52,14,20,146,,117,117,15,36,3,3,0.3,0.4
2025-04-28T1700,2614A,100.1542,25.7054,大理白族自治州,大理市环境监测站,颗粒物(PM10),52,54,60,26,36,151,,133,133,6,6,9,9,0.3,0.3
2025-04-28T1700,2615A,100.2171,25.5811,大理白族自治州,大理古城,颗粒物(PM10),57,64,63,30,35,148,,127,127,5,13,9,9,0.6,0.6
2025-04-28T1700,1109A,121.612,38.9741,大连市,甘井子,,35,35,32,23,15,110,,101,101,17,24,6,8,0.2,0.3
2025-04-28T1700,1110A,121.565,38.9511,大连市,周水子,,37,37,33,18,13,104,,94,94,9,26,6,6,0.3,0.4
2025-04-28T1700,1111A,121.5637,38.8845,大连市,星海三站,,36,28,29,16,13,113,,102,102,11,20,3,4,0.3,0.3
2025-04-28T1700,1112A,121.6302,38.9117,大连市,青泥洼桥,,37,37,31,19,13,104,,99,99,18,22,6,7,0.3,0.4
2025-04-28T1700,1113A,121.6251,38.8638,大连市,傅家庄,,36,30,25,17,10,114,,106,106,17,19,8,10,0.3,0.3
2025-04-28T1700,1114A,121.5213,38.8661,大连市,七贤岭,,35,27,24,16,10,110,,101,101,8,12,5,6,0.6,0.6
2025-04-28T1700,1115A,121.2529,38.8061,大连市,旅顺,,30,30,23,17,11,78,,75,75,16,24,5,6,0.3,0.3
2025-04-28T1700,1116A,121.7485,39.1311,大连市,金州,,37,37,26,22,15,114,,100,100,13,25,5,7,0.2,0.3
2025-04-28T1700,1117A,121.7811,39.0496,大连市,开发区,,33,29,33,19,14,103,,94,94,12,26,3,5,0.5,0.5
2025-04-28T1700,1118A,121.9762,39.0631,大连市,双D港,,,,20,23,12,122,,109,109,9,14,8,9,0.3,0.3
2025-04-28T1700,1789A,124.81117,46.03138,大庆市,大同区,,28,27,40,15,34,89,,84,84,5,6,4,4,0.4,0.5
2025-04-28T1700,1790A,125.129,46.533,大庆市,龙凤区,,30,24,55,13,41,95,,94,94,8,14,4,4,0.4,0.5
2025-04-28T1700,1791A,124.902,46.408,大庆市,红岗区,,,13,43,7,32,95,,94,94,4,8,,4,,0.4
2025-04-28T1700,1792A,125.153,46.586,大庆市,萨尔图区,,28,28,62,12,48,87,,84,84,9,16,5,5,0.5,0.5
2025-04-28T1700,1793A,124.9042,46.6215,大庆市,让胡路区,,28,14,43,8,39,87,,88,88,7,9,6,6,0.3,0.4
2025-04-28T1700,3481A,125.141,46.634,大庆市,萨区政府监测点,,32,23,59,3,39,101,,94,94,4,12,5,5,0.3,0.5
2025-04-28T1700,1721A,113.3819,40.1097,大同市,果树场,,,,33,,12,,,63,,,20,,7,,0.6
2025-04-28T1700,1723A,113.2994,40.0758,大同市,云冈宾馆,,38,22,35,3,11,120,,106,106,5,20,7,10,0.3,0.8
2025-04-28T1700,1724A,113.3444,40.0917,大同市,大同大学,,36,16,34,10,9,115,,101,101,5,26,6,13,0.2,0.6
2025-04-28T1700,1725A,113.2661,40.1269,大同市,安家小村,,36,16,30,3,9,114,,98,98,1,15,10,13,0.2,0.7
2025-04-28T1700,1726A,113.2711,40.0844,大同市,教育学院,,37,20,34,3,11,117,,102,102,7,20,8,11,0.2,0.7
2025-04-28T1700,3282A,113.3397,40.0597,大同市,大同市卫生学校,,35,,29,11,12,111,,95,95,6,21,6,10,0.2,0.6
2025-04-28T1700,3565A,113.1367,40.1122,大同市,云冈站,颗粒物(PM10),70,90,35,13,10,109,,101,101,6,16,9,14,0.3,0.4
2025-04-28T1700,3566A,113.1186,40.2556,大同市,图书馆,,35,12,20,3,7,109,,97,97,3,7,8,9,0.4,0.5
2025-04-28T1700,3567A,113.5931,40.0461,大同市,区一中,,,,42,,11,,,76,,,24,,20,,0.5
2025-04-28T1700,4199A,113.2798,40.0997,大同市,魏都大道141号,,38,19,43,9,15,120,,100,100,5,25,12,16,0.3,1.1
2025-04-28T1700,2269A,124.1069,50.4097,大兴安岭地区,科技局,,50,50,23,26,18,84,,81,81,4,3,4,4,0.4,0.3
2025-04-28T1700,3663A,124.1164,50.4278,大兴安岭地区,红旗社区,,36,34,12,25,10,84,,82,82,4,5,5,4,0.4,0.3
2025-04-28T1700,1600A,124.3303,40.0625,丹东市,江湾东路,细颗粒物(PM2.5),53,51,53,37,32,133,,114,114,11,16,9,9,0.5,0.6
2025-04-28T1700,1601A,124.4256,40.1503,丹东市,临江后街,,,,57,,32,118,,102,102,10,19,6,6,,0.8
2025-04-28T1700,1602A,124.3933,40.1461,丹东市,元宝山,,48,44,48,33,28,120,,102,102,6,11,8,8,0.5,0.6
2025-04-28T1700,1603A,124.3633,40.1092,丹东市,民主桥,,50,50,56,34,27,123,,108,108,17,21,7,8,0.8,0.8
2025-04-28T1700,3541A,109.5726,19.5167,儋州市,第一中学子站,,26,13,27,6,14,83,,72,72,4,6,4,5,0.5,0.4
2025-04-28T1700,3542A,109.5567,19.5187,儋州市,东坡学校子站,,27,12,27,8,13,86,,72,72,4,5,5,5,0.6,0.6
2025-04-28T1700,2616A,98.5842,24.428,德宏傣族景颇族自治州,德宏州监测站,细颗粒物(PM2.5),78,88,90,57,62,144,,115,115,10,21,10,11,0.7,0.8
2025-04-28T1700,3677A,98.5881,24.4368,德宏傣族景颇族自治州,芒市人民政府综合楼,颗粒物(PM10),85,120,106,53,56,164,,137,137,11,15,10,10,0.5,0.5
2025-04-28T1700,1901A,104.4239,31.1208,德阳市,东山公园,,43,39,43,21,25,136,,112,112,8,15,4,4,0.6,0.7
2025-04-28T1700,1902A,104.3826,31.1317,德阳市,西小区,,46,46,52,22,29,145,,115,115,14,30,3,4,0.5,0.6
2025-04-28T1700,1904A,104.3553,31.1091,德阳市,耐火材料厂,颗粒物(PM10),52,54,55,27,28,148,,119,119,12,28,5,6,0.4,0.5
2025-04-28T1700,3639A,104.4019,31.1244,德阳市,市教育局,,46,40,46,24,26,147,,116,116,15,27,5,5,0.4,0.5
2025-04-28T1700,1622A,116.3032,37.4674,德州市,儿童乐园,颗粒物(PM10),53,56,54,12,16,151,,118,118,8,18,9,11,0.4,0.4
2025-04-28T1700,1624A,116.2991,37.4451,德州市,监理站,,46,46,47,12,17,144,,112,112,7,21,13,11,0.3,0.4
2025-04-28T1700,3066A,116.2721,37.4379,德州市,九衢泉纯净水厂,,45,41,51,14,22,141,,110,110,12,32,6,7,0.6,0.6
2025-04-28T1700,3371A,116.3728,37.4403,德州市,开发区人民医院,细颗粒物(PM2.5),52,48,54,36,18,137,,108,108,7,23,9,8,0.5,0.5
2025-04-28T1700,3372A,116.3572,37.4094,德州市,太阳城中学,,47,39,59,19,24,150,,120,120,8,37,5,5,0.4,0.4
2025-04-28T1700,3511A,116.5652,37.3319,德州市,陵城艺术中心,臭氧1小时,70,51,53,44,21,176,,124,124,12,25,4,4,0.2,0.3
2025-04-28T1700,2621A,99.7056,27.8317,迪庆藏族自治州,迪庆州站,颗粒物(PM10),53,56,54,27,26,124,,102,102,11,15,5,6,0.4,0.6
2025-04-28T1700,3180A,99.7136,27.8094,迪庆藏族自治州,质量技术监督局,,46,46,38,25,21,127,,110,110,13,14,5,4,0.6,0.7
2025-04-28T1700,4257A,104.6092,35.5962,定西市,将台街,,44,43,89,18,38,140,,112,112,6,21,5,5,0.0,0.2
2025-04-28T1700,4309A,104.6159,35.5701,定西市,正龙路62号,,44,30,81,13,38,139,,110,110,5,12,8,8,0.3,0.3
2025-04-28T1700,1389A,113.7547,23.0494,东莞市,莞城梨川,,32,,55,12,37,100,,105,105,8,29,6,6,0.7,0.7
2025-04-28T1700,1390A,113.7944,23.0128,东莞市,东城石井,,31,14,47,9,28,98,,108,108,18,32,3,4,0.7,0.7
2025-04-28T1700,1391A,113.7383,22.9658,东莞市,南城西平,,36,,46,12,31,113,,110,110,13,35,6,4,0.5,0.6
2025-04-28T1700,3319A,113.7338,23.0381,东莞市,万江金泰,,29,12,47,10,31,92,,95,95,9,29,4,4,0.9,1
2025-04-28T1700,3626A,113.7533,23.0202,东莞市,南城元岭,,32,14,46,8,31,100,,106,106,7,25,7,7,0.7,0.7
2025-04-28T1700,3627A,113.7875,23.0457,东莞市,东城主山,,29,21,51,9,26,90,,92,92,12,31,4,4,0.6,0.6
2025-04-28T1700,1666A,118.6614,37.4309,东营市,市环保局,,36,22,38,3,14,114,,119,119,14,30,4,8,0.4,0.4
2025-04-28T1700,3036A,118.6904,37.4338,东营市,开发区管委会,,35,35,48,3,17,111,,116,116,10,23,4,7,0.5,0.6
2025-04-28T1700,3365A,118.5719,37.565,东营市,垦利区民丰路,,36,27,41,7,16,114,,114,114,16,31,4,6,0.5,0.6
2025-04-28T1700,3498A,118.5055,37.8612,东营市,河口城区,,,,43,,14,111,,105,105,11,26,4,7,,0.6
2025-04-28T1700,3646A,118.4978,37.4623,东营市,胜利站,细颗粒物(PM2.5),52,38,47,36,26,109,,124,124,15,29,8,11,0.5,0.7
2025-04-28T1700,3734A,118.35,37.26,东营市,理想之城,,33,31,52,12,19,105,,116,116,14,31,4,6,0.4,0.5
2025-04-28T1700,1591A,110.0023,39.8129,鄂尔多斯市,综合楼,,36,19,28,3,3,115,,109,109,8,11,1,2,0.2,0.2
2025-04-28T1700,1592A,109.9486,39.8261,鄂尔多斯市,巴音孟克林场办事处,,35,9,29,7,8,111,,103,103,8,13,5,6,0.3,0.3
2025-04-28T1700,1593A,109.7736,39.5986,鄂尔多斯市,康泽苑,,40,27,25,7,6,127,,110,110,7,7,8,7,0.3,0.2
2025-04-28T1700,1594A,109.8119,39.5989,鄂尔多斯市,华泰汽车城,,37,36,28,3,7,118,,102,102,9,13,7,6,0.2,0.2
2025-04-28T1700,1595A,109.9734,39.7884,鄂尔多斯市,奥林花园,,36,24,29,3,5,113,,105,105,7,12,3,3,0.2,0
2025-04-28T1700,2436A,114.8938,30.3994,鄂州市,市政府,颗粒物(PM10),54,58,83,21,37,142,,132,132,16,19,7,8,0.7,0.9
2025-04-28T1700,2437A,114.8989,30.3714,鄂州市,赵家坝,臭氧1小时,64,68,74,15,34,171,,165,165,11,17,5,6,0.6,0.8
2025-04-28T1700,3654A,114.8094,30.4089,鄂州市,精准医疗中心,臭氧1小时,52,44,75,13,34,161,,154,154,3,14,3,4,0.4,0.6
2025-04-28T1700,2454A,109.4978,30.2981,恩施土家族苗族自治州,湖北民院,,44,44,45,14,24,116,,91,91,4,15,5,5,0.2,0.4
2025-04-28T1700,2455A,109.4707,30.2798,恩施土家族苗族自治州,州电力总公司,,46,46,41,24,25,133,,105,105,8,19,4,4,0.2,0.2
2025-04-28T1700,3549A,109.5061,30.3772,恩施土家族苗族自治州,龙凤新区,,39,39,37,15,22,77,,80,80,5,11,6,6,0.5,0.5
2025-04-28T1700,2499A,108.3411,21.6158,防城港市,沙万,,39,39,30,14,13,85,,73,73,7,14,2,2,0.5,0.5
2025-04-28T1700,2500A,108.3514,21.7731,防城港市,防城档案局,,37,37,39,22,14,92,,72,72,8,12,1,2,0.6,0.6
2025-04-28T1700,2501A,108.3506,21.6414,防城港市,大海花园,,32,32,21,13,9,94,,79,79,5,7,2,3,0.5,0.5
2025-04-28T1700,1371A,113.1294,23.0067,佛山市,湾梁,,39,24,28,13,14,124,,102,102,15,24,8,7,0.7,0.7
2025-04-28T1700,1372A,113.1083,23.0478,佛山市,华材职中,,38,31,28,10,17,119,,99,99,21,32,8,7,0.6,0.6
2025-04-28T1700,1373A,113.144,23.0453,佛山市,南海气象局,,38,38,32,14,18,121,,98,98,12,22,7,6,0.7,0.7
2025-04-28T1700,1374A,113.2881,22.8094,佛山市,顺德苏岗,,47,35,30,12,15,148,,105,105,14,25,6,5,0.6,0.7
2025-04-28T1700,1376A,112.8383,22.8678,佛山市,高明孔堂,,36,28,32,12,18,115,,95,95,16,21,8,6,0.8,0.8
2025-04-28T1700,1377A,112.8836,23.1588,佛山市,三水监测站,,32,24,31,9,18,101,,73,73,15,33,4,4,0.6,0.6
2025-04-28T1700,1378A,112.867,23.185,佛山市,三水云东海,,37,37,35,7,20,110,,82,82,12,34,3,2,0.4,0.5
2025-04-28T1700,3625A,113.2544,22.7642,佛山市,容桂街道办,,48,27,25,22,19,151,,108,108,17,30,6,5,0.7,0.7
2025-04-28T1700,1280A,119.3903,26.0543,福州市,鼓山,,,,16,,16,,,80,,,7,,2,,0.4
2025-04-28T1700,1282A,119.2681,26.0504,福州市,师大,,35,27,33,3,23,112,,68,68,12,22,4,4,0.5,0.6
2025-04-28T1700,1283A,119.2984,26.1028,福州市,五四北路,,35,8,33,7,34,111,,64,64,16,29,4,4,0.7,0.7
2025-04-28T1700,1284A,119.2648,26.0768,福州市,杨桥西路,,37,22,33,3,27,118,,67,67,11,22,4,3,0.4,0.6
2025-04-28T1700,1285A,119.317,26.0746,福州市,紫阳,,35,35,39,3,32,104,,62,62,24,31,6,5,0.4,0.6
2025-04-28T1700,3048A,119.5799,26.0936,福州市,九龙,,36,19,25,3,22,114,,74,74,11,15,4,4,0.3,0.5
2025-04-28T1700,3526A,119.5189,25.9664,福州市,吴航,,38,13,54,9,30,120,,73,73,8,20,5,5,0.5,0.7
2025-04-28T1700,1755A,123.7977,41.8491,抚顺市,望花区,颗粒物(PM10),56,62,57,37,28,128,,117,117,12,13,4,6,0.5,0.5
2025-04-28T1700,1756A,123.9161,41.8822,抚顺市,顺城区,颗粒物(PM10),52,54,54,33,26,126,,111,111,14,19,7,7,0.3,0.3
2025-04-28T1700,1757A,124.0436,41.8611,抚顺市,东洲区,细颗粒物(PM2.5),55,52,49,39,27,131,,113,113,15,17,7,7,0.5,0.5
2025-04-28T1700,1758A,123.9247,41.8642,抚顺市,新抚区,颗粒物(PM10),52,53,53,35,27,120,,106,106,11,12,7,7,0.5,0.5
2025-04-28T1700,1759A,124.0972,41.8961,抚顺市,大伙房水库,细颗粒物(PM2.5),57,53,49,40,27,124,,110,110,6,11,8,8,0.5,0.5
2025-04-28T1700,1760A,123.7086,41.8391,抚顺市,沈抚新城,细颗粒物(PM2.5),57,58,52,40,28,120,,107,107,12,16,6,6,0.3,0.3
2025-04-28T1700,2376A,116.2127,28.0814,抚州市,桐源党溪,,45,45,31,30,17,134,,111,111,3,3,7,5,1.1,1.2
2025-04-28T1700,2377A,116.3544,27.9831,抚州市,市站,,47,47,28,29,15,108,,90,90,5,8,3,3,1.0,1
2025-04-28T1700,2378A,116.3565,27.963,抚州市,血防站,颗粒物(PM10),51,51,32,27,16,114,,93,93,5,7,3,3,0.8,0.8
2025-04-28T1700,2379A,116.3564,28.0007,抚州市,采茶剧团,,45,45,30,20,17,107,,90,90,2,5,1,2,1.1,1
2025-04-28T1700,2380A,116.385,27.9647,抚州市,医学分院,,45,45,26,23,13,102,,83,83,2,4,4,4,1.2,1.1
2025-04-28T1700,2207A,121.6094,41.998,阜新市,工业园区,,31,21,54,17,20,99,,103,102,14,13,9,8,0.3,0.4
2025-04-28T1700,2208A,121.6697,42.0279,阜新市,长青街,,34,15,30,10,14,106,,100,100,6,10,5,6,0.3,0.6
2025-04-28T1700,2209A,121.6673,42.0705,阜新市,农业园区,,34,22,29,3,10,106,,102,102,2,4,6,7,0.7,0.8
2025-04-28T1700,2210A,121.6717,42.0224,阜新市,东苑,,34,19,40,14,16,107,,101,101,4,7,8,10,0.4,0.7
2025-04-28T1700,2211A,121.6506,42.0498,阜新市,玉龙新城,,34,22,39,13,15,106,,101,101,6,14,6,7,0.4,0.5
2025-04-28T1700,2301A,115.8277,32.8929,阜阳市,市监测站,,41,28,69,17,41,130,,136,136,11,15,7,9,0.2,0.4
2025-04-28T1700,2303A,115.8554,32.8605,阜阳市,开发区,,42,16,87,13,35,134,,146,146,10,17,6,8,0.1,0.3
2025-04-28T1700,2875A,115.784,32.8892,阜阳市,阜阳职业技术学院,,41,38,77,16,38,129,,134,134,7,12,6,7,0.1,0.3
2025-04-28T1700,3468A,115.7901,32.8613,阜阳市,市规划展馆,颗粒物(PM10),56,61,81,8,42,140,,147,147,10,13,7,9,0.2,0.4
2025-04-28T1700,3469A,115.836,32.9183,阜阳市,枣园社区,,41,33,76,3,37,130,,138,138,6,12,7,11,0.4,0.4
2025-04-28T1700,2669A,102.9099,34.9841,甘南藏族自治州,州政府,,,140,58,,27,106,,96,96,,23,3,2,0.2,0.4
2025-04-28T1700,3380A,102.8914,34.9617,甘南藏族自治州,甘肃民族师范学院,颗粒物(PM10),58,65,61,21,21,109,,93,93,8,20,9,8,0.4,0.5
2025-04-28T1700,2570A,101.9603,30.0475,甘孜藏族自治州,水桥子,,28,6,11,3,7,87,,91,91,16,20,4,4,0.4,0.4
2025-04-28T1700,3065A,101.9533,29.9972,甘孜藏族自治州,州环保局,,30,10,14,6,5,93,,93,93,13,18,1,1,0.3,0.3
2025-04-28T1700,3414A,115.8347,28.932,赣江新区,桑海产业园,,42,39,32,28,22,133,,111,111,1,12,4,5,0.2,0.5
2025-04-28T1700,2362A,114.9017,25.9149,赣州市,通天岩,,33,33,24,9,5,92,,107,107,4,7,1,1,0.8,0.9
2025-04-28T1700,2363A,114.9367,25.8664,赣州市,地委,,38,30,21,15,11,119,,103,103,2,12,3,6,0.9,1
2025-04-28T1700,2364A,114.9461,25.8481,赣州市,气象台,,35,35,25,16,10,112,,100,100,11,18,8,8,0.3,0.6
2025-04-28T1700,2365A,114.9322,25.8333,赣州市,市图书馆,,36,24,19,16,12,115,,102,102,4,12,4,4,1.0,1.1
2025-04-28T1700,2366A,114.8905,25.8471,赣州市,华坚鞋城,,39,39,23,21,13,123,,107,107,7,15,4,5,0.5,0.7
2025-04-28T1700,3109A,115.0093,25.8613,赣州市,赣县区卫计委,,33,33,18,22,13,100,,89,89,2,14,3,3,0.4,0.6
2025-04-28T1700,2683A,106.2319,36.1417,固原市,马园,,50,50,54,11,20,136,,111,111,9,30,5,6,0.5,0.6
2025-04-28T1700,2684A,106.2792,36.0022,固原市,监测站,,38,37,42,26,20,121,,110,110,5,17,6,7,0.3,0.4
2025-04-28T1700,2685A,106.2375,36.0211,固原市,新区,,48,48,46,22,15,117,,108,108,7,30,6,6,0.2,0.4
2025-04-28T1700,3522A,106.2177,35.9959,固原市,原州区十五小,,43,43,42,20,16,123,,113,113,5,21,6,7,0.3,0.3
2025-04-28T1700,2543A,106.6308,30.5278,广安市,小平旧居,,,,,,,,,,,,,,,,
2025-04-28T1700,2544A,106.6303,30.4576,广安市,市委,,42,35,52,22,32,132,,112,112,5,21,4,4,0.4,0.5
2025-04-28T1700,2545A,106.6271,30.4663,广安市,友谊中学,,45,38,51,14,27,141,,120,120,7,19,3,4,0.7,1
2025-04-28T1700,2547A,106.6388,30.4551,广安市,广电花园,,45,32,48,18,29,142,,120,120,7,20,4,4,0.3,0.4
2025-04-28T1700,2902A,106.6351,30.4865,广安市,北辰小学,,45,33,50,20,27,144,,115,115,7,20,4,4,0.3,0.5
2025-04-28T1700,2523A,105.8945,32.4535,广元市,黑石坡,,44,44,45,7,12,122,,98,98,6,9,4,3,0.3,0.3
2025-04-28T1700,2524A,105.821,32.4444,广元市,老城,,40,25,43,9,13,126,,109,109,6,20,1,2,0.4,0.5
2025-04-28T1700,2526A,105.8628,32.4287,广元市,监测站,,40,34,35,3,17,127,,107,107,9,13,11,6,0.5,0.4
2025-04-28T1700,3617A,105.8047,32.4166,广元市,经开区,,50,50,51,20,25,130,,108,108,9,24,8,8,0.5,0.6
2025-04-28T1700,1345A,113.2347,23.1423,广州市,广雅中学,,35,21,28,10,16,110,,88,88,14,27,3,3,1.1,1
2025-04-28T1700,1346A,113.2612,23.105,广州市,市五中,,41,18,27,10,17,131,,104,104,8,19,2,2,0.9,0.9
2025-04-28T1700,1348A,113.3478,23.0916,广州市,广东商学院,,,,25,,17,119,,105,105,18,32,,4,0.7,0.6
2025-04-28T1700,1349A,113.4332,23.1047,广州市,市八十六中,,38,23,28,11,17,121,,104,104,11,38,5,4,0.8,0.9
2025-04-28T1700,1350A,113.3505,22.9483,广州市,番禺中学,,45,26,29,12,16,141,,112,112,15,29,6,5,0.8,0.8
2025-04-28T1700,1351A,113.2146,23.3916,广州市,花都师范,,39,18,26,14,17,122,,98,98,10,29,5,5,0.7,0.8
2025-04-28T1700,1352A,113.2597,23.1331,广州市,市监测站,,35,16,25,7,14,110,,87,87,17,31,6,5,0.6,0.5
2025-04-28T1700,1353A,113.5618,23.312,广州市,九龙镇镇龙,,30,20,33,12,20,94,,83,83,9,22,5,5,0.5,0.5
2025-04-28T1700,1354A,113.2765,23.1544,广州市,麓湖,,40,17,25,11,15,127,,102,102,13,26,6,5,0.7,0.7
2025-04-28T1700,1355A,113.443,23.3035,广州市,帽峰山森林公园,,35,16,23,3,12,111,,94,94,3,13,5,5,0.7,0.7
2025-04-28T1700,2846A,113.3221,23.1322,广州市,体育西,,40,30,40,15,22,125,,116,116,16,30,5,4,0.6,0.6
2025-04-28T1700,3298A,113.5717,23.5491,广州市,从化街口,,29,10,42,6,28,91,,86,86,6,26,5,6,0.7,0.8
2025-04-28T1700,3299A,113.3472,23.3692,广州市,白云竹料,,37,12,37,7,23,118,,104,104,5,24,4,3,0.6,0.7
2025-04-28T1700,3300A,113.2981,23.237,广州市,白云嘉禾,,35,15,30,8,20,109,,95,95,23,36,6,6,0.8,0.9
2025-04-28T1700,3301A,113.4256,23.1716,广州市,黄埔科学城,,35,12,29,8,19,109,,92,92,6,24,3,3,0.6,0.6
2025-04-28T1700,3302A,113.3942,23.0483,广州市,番禺大学城,,39,18,35,7,15,124,,108,108,13,34,6,6,0.7,0.7
2025-04-28T1700,3303A,113.4922,22.8168,广州市,南沙黄阁,,43,43,43,10,28,131,,104,104,15,30,6,5,0.8,0.9
2025-04-28T1700,3304A,113.5342,22.7896,广州市,南沙街,,46,31,37,10,25,145,,126,126,12,22,8,6,0.8,0.6
2025-04-28T1700,3443A,113.2902,23.5544,广州市,花都梯面,,31,10,25,7,14,97,,91,91,13,19,5,5,0.7,0.7
2025-04-28T1700,3445A,113.7858,23.7478,广州市,从化良口,,31,14,18,9,15,98,,84,84,3,13,7,7,0.3,0.4
2025-04-28T1700,3446A,113.8051,23.2614,广州市,增城荔城,,26,14,40,10,24,81,,86,86,7,13,7,7,0.4,0.4
2025-04-28T1700,2505A,109.568,23.1478,贵港市,德智高中,,,,,,,,,,,,,,,,
2025-04-28T1700,2506A,109.6047,23.0666,贵港市,江南子站,,36,36,26,20,16,89,,61,61,13,13,6,5,0.9,0.7
2025-04-28T1700,2508A,109.5669,23.1065,贵港市,荷城子站,,36,36,25,9,10,83,,57,57,11,14,9,10,0.6,0.6
2025-04-28T1700,3405A,109.5886,23.1172,贵港市,新世纪学校,,31,31,25,19,14,87,,58,58,14,21,6,6,1.0,1
2025-04-28T1700,4260A,109.5933,23.0951,贵港市,中山路155-3号,,,37,29,24,15,93,,63,63,12,15,,7,0.9,0.9
2025-04-28T1700,1439A,106.6899,26.5998,贵阳市,马鞍山,,32,27,19,7,7,101,,86,86,5,7,4,4,0.3,0.4
2025-04-28T1700,1441A,106.6243,26.6266,贵阳市,鉴湖路,,32,24,25,9,8,102,,88,88,5,11,6,6,0.3,0.4
2025-04-28T1700,1442A,106.7487,26.6343,贵阳市,燕子冲,,33,24,24,14,21,104,,89,89,8,16,3,4,0.2,0.3
2025-04-28T1700,1443A,106.6555,26.4365,贵阳市,碧云窝,,36,36,34,9,12,109,,96,96,8,16,5,5,0.4,0.4
2025-04-28T1700,1445A,106.7109,26.6027,贵阳市,红边门,,33,22,26,14,19,105,,94,94,10,13,3,5,0.1,0.3
2025-04-28T1700,1446A,106.7164,26.5699,贵阳市,新华路,,34,22,26,12,19,108,,97,97,4,13,34,12,0.3,0.5
2025-04-28T1700,1447A,106.674,26.5424,贵阳市,太慈桥,,35,22,22,7,11,110,,94,94,9,20,6,6,0.1,0.3
2025-04-28T1700,1552A,106.805,26.3003,贵阳市,桐木岭,,44,44,38,17,21,109,,95,95,2,5,3,4,0.6,0.8
2025-04-28T1700,4230A,106.6882,26.5695,贵阳市,花果园大街66号,,33,27,23,11,18,103,,87,87,8,18,3,5,0.4,0.6
2025-04-28T1700,4231A,106.6873,26.5169,贵阳市,漓江路57号,,33,19,23,14,15,105,,91,91,7,13,8,9,0.3,0.4
2025-04-28T1700,1862A,110.4144,25.3167,桂林市,电子科大尧山校区,,,,,,,,,,,,,,,,
2025-04-28T1700,1864A,110.3089,25.2708,桂林市,龙隐路小学,,44,27,27,11,13,138,,124,124,3,8,8,12,0.3,0.6
2025-04-28T1700,1865A,110.2869,25.2178,桂林市,八中,,39,36,28,15,17,122,,110,110,13,14,1,3,0.4,0.6
2025-04-28T1700,3531A,110.296,25.1253,桂林市,旅游学院,,39,27,19,12,12,124,,107,107,5,10,1,4,0.6,0.7
2025-04-28T1700,4222A,110.1835,25.2444,桂林市,环湖路276号,,41,41,33,19,22,111,,107,107,6,11,6,21,0.4,0.5
2025-04-28T1700,4301A,110.2803,25.2773,桂林市,信义路13号,,42,30,29,18,15,132,,118,118,8,14,1,3,0.3,0.6
2025-04-28T1700,2674A,100.2561,34.4714,果洛藏族自治州,玛沁县大武镇,,42,42,52,15,22,126,,113,113,1,5,15,14,0.3,0.4
2025-04-28T1700,1129A,126.5422,45.755,哈尔滨市,岭北,,35,26,51,21,43,112,,100,100,11,15,10,11,0.8,0.8
2025-04-28T1700,1130A,126.561,45.8167,哈尔滨市,松北商大,,31,21,59,16,48,99,,89,89,7,19,5,5,0.6,0.7
2025-04-28T1700,1131A,126.979,45.5419,哈尔滨市,阿城会宁,,49,49,55,26,35,97,,91,91,21,18,18,11,0.5,0.5
2025-04-28T1700,1132A,126.599,45.7222,哈尔滨市,南岗学府路,,46,46,67,28,42,108,,94,94,11,16,8,7,0.3,0.5
2025-04-28T1700,1133A,126.689,45.7733,哈尔滨市,太平宏伟公园,,42,42,65,26,52,101,,96,96,18,19,5,5,0.6,0.6
2025-04-28T1700,1134A,126.635,45.7667,哈尔滨市,道外承德广场,,42,,40,29,51,99,,88,88,13,18,6,6,0.5,0.5
2025-04-28T1700,1135A,126.685,45.7319,哈尔滨市,香坊红旗大街,颗粒物(PM10),58,66,65,21,45,98,,93,93,17,18,8,7,0.5,0.5
2025-04-28T1700,1136A,126.6411,45.7258,哈尔滨市,动力和平路,,33,26,57,23,48,97,,88,88,16,18,6,7,0.5,0.5
2025-04-28T1700,1137A,126.593,45.7478,哈尔滨市,道里建国路,,35,28,54,24,47,103,,91,91,14,19,10,10,0.5,0.5
2025-04-28T1700,1138A,126.615,45.61,哈尔滨市,平房东轻厂,,42,39,54,29,35,107,,98,98,12,22,10,10,0.4,0.5
2025-04-28T1700,1139A,126.595,45.9855,哈尔滨市,呼兰师专,,50,44,73,35,65,96,,92,92,20,23,8,7,0.3,0.4
2025-04-28T1700,1140A,126.6206,45.6842,哈尔滨市,省农科院,颗粒物(PM10),55,60,72,27,52,100,,91,91,12,24,5,6,0.5,0.6
2025-04-28T1700,2688A,93.5128,42.8172,哈密市,地区监测站,,46,46,69,23,26,115,,94,94,5,21,8,7,0.2,0.3
2025-04-28T1700,2689A,93.4961,42.8328,哈密市,哈密师范学校,,34,33,58,9,19,108,,87,87,5,24,4,5,0.2,0.4
2025-04-28T1700,2671A,100.9048,36.9639,海北藏族自治州,海晏县西海镇,,40,28,19,15,16,128,,118,118,2,5,9,10,0.3,0.4
2025-04-28T1700,3867A,102.0738,36.5056,海东市,平安区公安北苑,,41,40,45,8,30,130,,110,110,4,9,5,7,0.8,0.9
2025-04-28T1700,1409A,110.576,19.9507,海口市,东寨港,,,,14,,11,,,33,,,3,,3,,0.5
2025-04-28T1700,1410A,110.3232,20.0574,海口市,海南大学,,36,36,29,17,15,102,,80,80,22,8,2,2,0.4,0.3
2025-04-28T1700,1411A,110.283,20.0053,海口市,秀英海南医院,,31,29,29,19,19,97,,84,84,29,14,4,4,0.3,0.3
2025-04-28T1700,1412A,110.338,19.9969,海口市,海南师范大学,,34,26,25,16,15,106,,89,89,19,12,3,4,0.4,0.4
2025-04-28T1700,1413A,110.33,20.0356,海口市,龙华路环保局宿舍,,36,36,27,20,15,105,,88,88,23,10,4,4,0.5,0.4
2025-04-28T1700,3539A,110.5111,19.9736,海口市,桂林洋子站,,40,19,22,10,13,127,,91,91,8,10,3,4,0.2,0.2
2025-04-28T1700,2673A,100.6188,36.2866,海南藏族自治州,共和县恰卜恰镇,,46,35,39,11,20,145,,135,135,3,11,14,13,0.2,0.4
2025-04-28T1700,2676A,97.3731,37.3753,海西蒙古族藏族自治州,德令哈市,颗粒物(PM10),60,70,44,22,17,126,,121,121,2,3,13,14,0.4,0.4
2025-04-28T1700,1048A,114.5302,36.6116,邯郸市,东污水处理厂,颗粒物(PM10),59,68,78,7,14,127,,100,100,16,31,2,6,0.4,0.7
2025-04-28T1700,1049A,114.4918,36.5713,邯郸市,矿院,,41,41,53,14,16,118,,92,92,6,35,8,9,0.4,0.5
2025-04-28T1700,1050A,114.484,36.6133,邯郸市,丛台公园,,44,44,50,8,16,127,,103,103,9,25,2,5,0.4,0.7
2025-04-28T1700,3458A,114.7895,36.5593,邯郸市,香泉濮院小区,,48,48,61,9,14,137,,113,113,5,21,6,8,0.4,0.6
2025-04-28T1700,3579A,114.50634,36.77178,邯郸市,永年区实验高中,颗粒物(PM10),56,61,66,13,20,124,,92,92,5,32,5,7,0.4,0.8
2025-04-28T1700,3580A,114.20016,36.44293,邯郸市,峰峰矿区临水派出所,,47,46,40,29,14,150,,117,117,19,34,9,9,0.5,0.5
2025-04-28T1700,2634A,106.9893,33.1842,汉中市,汉川机床厂子校,,48,48,43,13,10,140,,118,118,5,8,8,8,0.6,0.6
2025-04-28T1700,2635A,107.0154,33.0706,汉中市,市监测站,,44,44,45,21,20,131,,104,104,4,13,5,6,0.5,0.7
2025-04-28T1700,2636A,107.0089,33.1138,汉中市,鑫源开发区,颗粒物(PM10),53,56,43,18,18,131,,105,105,7,19,5,7,0.5,0.7
2025-04-28T1700,2637A,107.007,33.0323,汉中市,南郑大河坎水厂,颗粒物(PM10),53,55,41,23,19,138,,105,105,6,18,6,6,0.4,0.5
2025-04-28T1700,1223A,120.2072,30.2111,杭州市,滨江,臭氧1小时,110,61,45,36,22,219,,177,177,19,24,9,7,0.6,0.6
2025-04-28T1700,1224A,120.0633,30.2747,杭州市,西溪,臭氧1小时,108,54,45,31,31,216,,171,171,19,24,8,6,0.5,0.7
2025-04-28T1700,1226A,120.3417,30.3150,杭州市,下沙,臭氧1小时,93,52,56,30,30,194,,167,167,22,35,9,7,0.5,0.5
2025-04-28T1700,1227A,120.1269,30.2456,杭州市,卧龙桥,臭氧1小时,109,56,41,33,25,218,,181,181,21,20,9,7,0.7,0.7
2025-04-28T1700,1228A,120.1903,30.2692,杭州市,浙江农大,臭氧1小时,89,69,43,39,23,191,,159,159,26,28,5,3,0.6,0.5
2025-04-28T1700,1230A,120.1197,30.3119,杭州市,和睦小学,臭氧1小时,108,65,44,30,25,215,,178,178,19,22,9,8,0.6,0.6
2025-04-28T1700,1231A,120.3019,30.4183,杭州市,临平镇,臭氧1小时,107,67,65,26,29,213,,178,178,18,36,8,7,0.6,0.7
2025-04-28T1700,1232A,120.2753,30.1839,杭州市,城厢镇,臭氧1小时,109,63,58,30,27,217,,181,181,21,29,10,8,0.4,0.5
2025-04-28T1700,1233A,120.0883,30.1808,杭州市,云栖,臭氧1小时,110,59,36,28,21,220,,178,178,21,24,8,6,0.7,0.6
2025-04-28T1700,3557A,119.9464,30.0494,杭州市,镇二中,臭氧1小时,101,49,32,24,24,201,,149,149,25,23,5,4,0.5,0.6
2025-04-28T1700,3558A,119.7183,30.2367,杭州市,市府大楼,臭氧1小时,105,63,42,34,20,210,,165,165,20,17,10,8,0.5,0.5
2025-04-28T1700,3656A,120.1556,30.2864,杭州市,消防大队,臭氧1小时,105,56,46,36,27,210,,174,174,21,26,7,4,0.7,0.7
2025-04-28T1700,1270A,117.1959,31.7848,合肥市,明珠广场,臭氧1小时,104,97,75,51,39,208,,160,160,16,24,7,7,0.5,0.5
2025-04-28T1700,1271A,117.3072,31.8764,合肥市,三里街,臭氧1小时,94,100,75,46,34,195,,156,156,19,21,6,6,0.6,0.6
2025-04-28T1700,1272A,117.2588,31.8707,合肥市,琥珀山庄,臭氧1小时,102,107,74,46,41,203,,154,154,16,23,4,4,0.7,0.6
2025-04-28T1700,1273A,117.1604,31.9052,合肥市,董铺水库,臭氧1小时,93,108,73,46,33,194,,157,157,14,15,3,2,0.5,0.4
2025-04-28T1700,1274A,117.25,31.8571,合肥市,长江中路,臭氧1小时,102,97,78,52,41,204,,155,155,13,20,9,9,0.6,0.6
2025-04-28T1700,1275A,117.266,31.9436,合肥市,庐阳区,臭氧1小时,104,105,72,53,37,207,,160,160,13,17,7,7,0.6,0.5
2025-04-28T1700,1276A,117.3453,31.8616,合肥市,瑶海区,臭氧1小时,92,100,77,46,36,193,,154,154,17,25,7,7,0.5,0.5
2025-04-28T1700,1277A,117.3027,31.7964,合肥市,包河区,臭氧1小时,98,100,78,41,38,198,,157,157,18,32,8,7,0.6,0.6
2025-04-28T1700,1278A,117.2776,31.7385,合肥市,滨湖新区,臭氧1小时,88,110,77,63,45,190,,151,151,13,28,8,8,0.7,0.6
2025-04-28T1700,1279A,117.1318,31.8403,合肥市,高新区,臭氧1小时,102,100,75,52,39,203,,157,157,16,20,3,3,0.5,0.5
2025-04-28T1700,3464A,117.3803,31.9147,合肥市,高教基地,臭氧1小时,82,100,81,38,39,185,,164,164,26,21,6,6,0.5,0.5
2025-04-28T1700,3614A,79.924,37.0877,和田地区,地区环保局,颗粒物(PM10),70,90,143,19,32,108,,87,87,4,9,3,2,0.2,0.2
2025-04-28T1700,3615A,79.9131,37.113,和田地区,市环保局,,,,162,23,39,108,,85,85,,20,3,3,0.0,0.2
2025-04-28T1700,2516A,108.2011,24.715,河池市,东仁乐园,,,,,,,,,,,,,,,,
2025-04-28T1700,2517A,108.0497,24.6947,河池市,市环保站,,35,35,33,8,17,109,,94,94,6,10,6,7,0.5,0.6
2025-04-28T1700,2518A,108.0983,24.6989,河池市,市疾控中心,,35,23,32,10,21,112,,95,95,10,19,8,8,0.5,0.7
2025-04-28T1700,1696A,114.6778,23.7569,河源市,源西,,28,19,27,9,22,89,,73,73,6,26,4,4,0.6,0.9
2025-04-28T1700,1697A,114.6944,23.7586,河源市,东埔,,,,28,12,27,93,,78,78,8,21,4,4,0.8,0.9
2025-04-28T1700,1698A,114.6892,23.7233,河源市,老城,,29,19,35,3,42,90,,80,80,6,22,4,4,0.5,0.7
2025-04-28T1700,1718A,115.4208,35.2464,菏泽市,气象局,颗粒物(PM10),54,57,74,14,32,155,,140,140,10,16,3,8,0.3,0.4
2025-04-28T1700,3374A,115.5564,35.0891,菏泽市,定陶老年大学,,47,41,64,9,24,150,,135,135,12,18,5,7,0.3,0.4
2025-04-28T1700,4184A,115.4797,35.24401,菏泽市,永昌路1号,颗粒物(PM10),54,57,69,22,33,155,,138,138,11,16,5,9,0.3,0.3
2025-04-28T1700,4193A,115.4715,35.2800,菏泽市,长城路999号,颗粒物(PM10),51,51,65,11,28,152,,137,137,12,20,7,10,0.2,0.3
2025-04-28T1700,2514A,111.5264,24.4172,贺州市,环保小区,,37,37,23,16,10,109,,90,90,9,12,6,6,0.7,0.8
2025-04-28T1700,2515A,111.5608,24.4078,贺州市,政协大楼,,35,23,20,18,13,112,,89,89,8,13,6,6,0.7,0.8
2025-04-28T1700,3534A,111.4744,24.4553,贺州市,西湾,,34,33,20,10,7,107,,92,92,9,9,7,7,0.6,0.7
2025-04-28T1700,2385A,114.17,35.9019,鹤壁市,市监测站,颗粒物(PM10),63,75,95,28,23,169,,144,144,9,15,14,8,0.5,0.4
2025-04-28T1700,2386A,114.2956,35.7511,鹤壁市,市交警支队,颗粒物(PM10),53,56,85,3,20,160,,143,143,31,33,3,9,0.5,0.7
2025-04-28T1700,2387A,114.2878,35.7306,鹤壁市,迎宾馆,臭氧1小时,55,58,72,19,16,164,,136,136,10,17,5,3,0.4,0.6
2025-04-28T1700,3474A,114.2617,35.6822,鹤壁市,大新区,,50,50,62,13,22,151,,130,130,9,23,8,8,0.4,0.5
2025-04-28T1700,3596A,114.1572,35.9603,鹤壁市,南山宾馆,颗粒物(PM10),82,114,78,29,25,169,,141,141,10,11,8,5,0.5,0.4
2025-04-28T1700,2244A,130.2537,47.3416,鹤岗市,哈啤分公司,,16,16,19,11,12,38,,52,49,26,5,25,14,0.3,0.2
2025-04-28T1700,2245A,130.2684,47.3086,鹤岗市,斯达机电,,22,22,17,15,13,59,,57,56,13,4,12,11,0.2,0.1
2025-04-28T1700,2246A,130.3114,47.3388,鹤岗市,东山纸板厂,,23,23,20,16,15,52,,60,59,21,8,12,11,0.4,0.3
2025-04-28T1700,2247A,130.1097,47.3382,鹤岗市,五号水库,,,,,,,,,,,,,,,,
2025-04-28T1700,2263A,127.4833,50.2524,黑河市,交通局,,26,20,14,10,15,83,,78,78,8,8,7,7,0.4,0.3
2025-04-28T1700,2264A,127.5144,50.2341,黑河市,环保局,,29,13,13,13,14,92,,85,85,6,8,3,4,0.2,0.2
2025-04-28T1700,2265A,127.5291,50.2472,黑河市,大黑河岛,,30,10,9,3,5,93,,88,88,3,6,3,2,0.2,0.2
2025-04-28T1700,1074A,115.6838,37.7541,衡水市,电机北厂,,,46,51,28,25,148,,125,125,8,17,,8,0.3,0.3
2025-04-28T1700,1075A,115.6303,37.7316,衡水市,市监测站,,48,40,53,11,17,153,,119,119,7,21,11,11,0.3,0.3
2025-04-28T1700,3188A,115.6683,37.7217,衡水市,市城管局,,48,48,50,29,25,153,,120,120,7,19,9,11,0.3,0.3
2025-04-28T1700,3459A,115.5989,37.5491,衡水市,地表水厂,,50,43,56,22,19,158,,124,124,9,36,8,8,0.3,0.3
2025-04-28T1700,2456A,112.5003,26.9167,衡阳市,原169医院,,49,49,30,22,15,148,,110,110,4,17,4,4,0.6,0.9
2025-04-28T1700,2457A,112.6194,26.9258,衡阳市,衡阳化工总厂,颗粒物(PM10),54,58,38,25,26,136,,106,106,4,10,5,6,0.7,0.8
2025-04-28T1700,2458A,112.6211,26.8956,衡阳市,珠晖区环保局,,,52,36,,,142,,111,111,2,11,7,9,0.6,0.8
2025-04-28T1700,2459A,112.6197,26.8733,衡阳市,市委党校,,,39,36,,16,136,,110,110,4,10,4,4,0.5,0.6
2025-04-28T1700,2460A,112.6006,26.8919,衡阳市,市监测站,,49,49,36,29,24,132,,106,106,6,13,8,9,0.7,0.8
2025-04-28T1700,2461A,112.5664,26.9056,衡阳市,真空机电公司,,47,47,34,22,17,137,,106,106,3,11,6,5,0.8,0.9
2025-04-28T1700,3399A,112.6703,26.882,衡阳市,师范学院,,45,45,34,29,21,141,,114,114,8,12,6,7,0.8,0.8
2025-04-28T1700,2608A,103.3772,23.3993,红河哈尼族彝族自治州,污水处理厂,颗粒物(PM10),55,60,67,30,47,98,,98,94,10,10,5,8,0.6,0.7
2025-04-28T1700,2609A,103.3861,23.35,红河哈尼族彝族自治州,监测站,,45,45,65,22,44,93,,98,92,11,8,9,7,0.4,0.4
2025-04-28T1700,3038A,103.3758,23.368,红河哈尼族彝族自治州,州图书馆,颗粒物(PM10),52,54,64,35,44,87,,95,86,9,8,2,3,0.4,0.4
2025-04-28T1700,1090A,111.6507,40.7517,呼和浩特市,呼市一监,颗粒物(PM10),64,78,49,10,17,126,,105,105,3,20,7,6,0.5,0.4
2025-04-28T1700,1091A,111.6572,40.8033,呼和浩特市,小召,颗粒物(PM10),59,68,42,10,14,118,,91,91,14,28,10,8,0.4,0.4
2025-04-28T1700,1094A,111.7516,40.8369,呼和浩特市,如意水处理厂,,39,36,36,9,13,123,,94,94,6,31,10,9,0.4,0.4
2025-04-28T1700,1095A,111.7276,40.8062,呼和浩特市,二十九中,,39,39,34,23,16,123,,92,92,6,19,7,5,0.4,0.4
2025-04-28T1700,1096A,111.5512,40.7866,呼和浩特市,工大金川校区,,39,34,37,16,16,122,,96,96,6,32,7,7,0.5,0.5
2025-04-28T1700,1097A,111.717,40.7612,呼和浩特市,化肥厂生活区,,47,47,46,10,16,125,,96,96,10,29,10,9,0.4,0.4
2025-04-28T1700,3698A,111.5968,40.8178,呼和浩特市,红旗小学,颗粒物(PM10),56,61,38,10,13,126,,97,97,12,29,6,5,0.4,0.4
2025-04-28T1700,3699A,111.6518,40.8389,呼和浩特市,海东办,颗粒物(PM10),54,58,33,8,16,121,,98,98,8,23,8,8,0.5,0.5
2025-04-28T1700,2192A,119.7594,49.2261,呼伦贝尔市,区环保局,,32,25,26,7,19,100,,89,89,11,13,5,5,0.3,0.3
2025-04-28T1700,3061A,119.7512,49.1577,呼伦贝尔市,国华电力东,,31,23,25,6,13,99,,90,90,10,8,7,4,0.3,0.3
2025-04-28T1700,1250A,120.0751,30.8669,湖州市,城西水厂,臭氧1小时,111,66,70,36,41,222,,187,187,18,44,9,9,0.5,0.6
2025-04-28T1700,2873A,120.0830,30.8929,湖州市,仁皇山新区,臭氧1小时,109,60,71,37,42,217,,186,186,20,41,7,8,0.8,0.9
2025-04-28T1700,2907A,120.1844,30.8596,湖州市,吴兴区站,臭氧1小时,110,62,66,35,44,219,,186,186,15,40,9,9,0.6,0.7
2025-04-28T1700,3562A,120.4148,30.8538,湖州市,南浔区站,臭氧1小时,105,59,81,35,49,209,,177,177,19,37,6,6,0.6,0.7
2025-04-28T1700,1607A,120.9049,40.7211,葫芦岛市,龙港区,,38,36,40,26,19,121,,103,103,6,19,8,18,0.4,0.5
2025-04-28T1700,1608A,120.8392,40.7514,葫芦岛市,化工街,,37,34,36,24,15,118,,101,101,12,24,10,17,0.5,0.5
2025-04-28T1700,1609A,120.8341,40.7073,葫芦岛市,新区,,38,32,35,24,17,120,,102,102,9,23,7,14,0.5,0.5
2025-04-28T1700,1610A,120.8695,40.7677,葫芦岛市,东城区,,45,37,39,31,19,112,,98,98,11,24,6,18,0.5,0.5
2025-04-28T1700,2482A,109.5981,27.5721,怀化市,林科所,,,37,32,20,18,108,,86,86,5,12,7,10,,0.5
2025-04-28T1700,2483A,109.9453,27.5444,怀化市,河西地税局,,46,46,30,26,19,124,,91,91,8,13,4,4,0.5,0.6
2025-04-28T1700,2484A,109.9781,27.5342,怀化市,市四医院,颗粒物(PM10),55,60,44,32,26,132,,102,102,7,16,6,6,0.5,0.7
2025-04-28T1700,2485A,109.9972,27.5578,怀化市,监测楼,,50,50,39,29,23,134,,104,104,6,14,4,4,0.6,0.8
2025-04-28T1700,2486A,110.0394,27.583,怀化市,市委党校,,49,49,31,28,20,133,,102,102,7,12,6,7,0.6,0.7
2025-04-28T1700,1210A,119.036,33.5981,淮安市,钵池山,,44,34,54,20,35,139,,128,128,14,26,8,9,0.3,0.4
2025-04-28T1700,1211A,119.007,33.575,淮安市,北京南路,,45,31,53,18,33,143,,133,133,8,27,7,10,0.5,0.6
2025-04-28T1700,1212A,118.989,33.6067,淮安市,市监测站,,44,34,50,17,35,140,,128,128,14,30,8,10,0.4,0.5
2025-04-28T1700,1213A,119.135,33.5039,淮安市,楚州区监测站,颗粒物(PM10),51,51,61,21,33,133,,125,125,6,26,8,9,0.6,0.7
2025-04-28T1700,3426A,118.8755,33.2894,淮安市,新华书店,,49,42,64,26,42,154,,139,139,10,24,9,12,0.6,0.6
2025-04-28T1700,4206A,119.0288,33.6319,淮安市,承德北路606号,颗粒物(PM10),57,63,63,23,38,137,,131,131,8,30,8,9,0.4,0.5
2025-04-28T1700,2282A,116.8004,33.975,淮北市,监测站,,43,24,72,8,36,135,,122,122,11,20,6,8,0.6,0.8
2025-04-28T1700,2283A,116.8091,33.9007,淮北市,烈山区政府,,40,21,74,7,36,125,,131,131,11,16,4,6,0.5,0.7
2025-04-28T1700,3330A,116.8873,33.9836,淮北市,杜集区检察院,颗粒物(PM10),51,52,80,14,43,130,,127,127,15,20,6,8,0.7,0.9
2025-04-28T1700,4017A,116.7923,33.9535,淮北市,市博物馆,,43,31,66,9,38,135,,123,123,10,18,5,8,0.5,0.8
2025-04-28T1700,2277A,116.8305,32.7727,淮南市,潘集区政府,颗粒物(PM10),53,56,83,36,47,161,,159,159,10,19,7,8,0.4,0.5
2025-04-28T1700,2279A,116.8569,32.5951,淮南市,谢家集区政府,臭氧1小时,77,63,77,36,48,181,,156,156,14,22,8,7,0.4,0.4
2025-04-28T1700,2280A,116.8281,32.633,淮南市,八公山区政府,颗粒物(PM10),63,76,91,28,46,169,,156,156,8,13,8,6,0.3,0.4
2025-04-28T1700,2281A,116.6325,32.6201,淮南市,焦岗湖风景区管理处,,,,,,,,,,,,,,,,
2025-04-28T1700,2894A,117.0566,32.6531,淮南市,经济技术开发区消防队,细颗粒物(PM2.5),54,54,77,38,55,161,,150,150,8,21,7,8,0.4,0.5
2025-04-28T1700,3329A,117.0108,32.5893,淮南市,山南新区,臭氧1小时,68,64,86,26,43,174,,162,162,13,20,10,10,0.4,0.6
2025-04-28T1700,4209A,117.0031,32.6445,淮南市,国庆中路369号,臭氧1小时,60,46,87,40,49,168,,155,155,7,18,9,10,0.4,0.4
2025-04-28T1700,2446A,114.9028,30.4742,黄冈市,职工中心,,50,29,62,15,44,157,,153,153,8,15,6,7,0.5,0.7
2025-04-28T1700,2929A,114.8858,30.4519,黄冈市,红卫路,臭氧1小时,54,41,71,18,45,163,,154,154,7,11,6,6,0.5,0.7
2025-04-28T1700,3398A,114.9136,30.4445,黄冈市,市林业局,,50,38,67,20,46,159,,153,153,4,9,8,8,0.5,0.6
2025-04-28T1700,2672A,102.0199,35.5102,黄南藏族自治州,同仁县隆务镇,,47,47,39,17,18,117,,96,96,4,4,4,4,0.1,0.1
2025-04-28T1700,2295A,118.2903,29.6963,黄山市,延安路89号,细颗粒物(PM2.5),53,38,24,37,12,151,,126,126,2,5,5,4,0.4,0.5
2025-04-28T1700,2297A,118.1371,30.2756,黄山市,黄山区政府5号楼,臭氧1小时,78,67,32,33,16,182,,158,158,8,5,4,3,0.5,0.5
2025-04-28T1700,4210A,118.3354,29.7203,黄山市,滨江东路7-2号,"颗粒物(PM10),细颗粒物(PM2.5)",52,53,30,36,13,154,,129,129,3,3,5,4,0.5,0.5
2025-04-28T1700,2423A,115.0601,30.2313,黄石市,沈家营,臭氧1小时,75,75,83,14,35,180,,171,171,11,14,6,8,0.6,0.8
2025-04-28T1700,2426A,114.8988,30.2019,黄石市,铁山,颗粒物(PM10),84,117,78,17,41,171,,158,158,11,22,6,7,0.4,0.3
2025-04-28T1700,2427A,115.0307,30.2092,黄石市,团城山,颗粒物(PM10),87,124,76,16,32,168,,158,158,9,18,7,9,0.6,0.7
2025-04-28T1700,3149A,115.0235,30.1578,黄石市,笔架山北路,臭氧1小时,78,49,64,14,31,182,,167,167,5,13,7,8,0.5,0.8
2025-04-28T1700,4185A,115.0780,30.21118,黄石市,磁湖东路29号,臭氧1小时,82,44,73,20,44,185,,175,175,3,10,7,7,0.6,0.8
2025-04-28T1700,1392A,114.4183,23.0528,惠州市,河南岸金山湖子站,,26,12,37,10,28,83,,82,82,13,18,8,8,0.5,0.5
2025-04-28T1700,1393A,114.4053,23.0822,惠州市,下埔横江三路子站,,28,11,43,6,28,89,,92,92,8,17,8,8,0.7,0.7
2025-04-28T1700,1394A,114.4103,23.1142,惠州市,江北云山西路子站,,29,12,42,7,25,91,,90,90,8,16,10,10,0.6,0.6
2025-04-28T1700,1395A,114.4645,22.7833,惠州市,惠阳区承修路船湖子站,,32,18,38,13,22,102,,92,92,12,16,8,8,0.8,0.6
2025-04-28T1700,1396A,114.5317,22.7422,惠州市,大亚湾管委会子站,,30,19,36,13,19,96,,96,96,13,18,8,7,0.6,0.6
2025-04-28T1700,3314A,114.4338,22.8134,惠州市,惠阳秋长,,36,34,31,18,22,114,,104,104,10,14,8,8,0.7,0.6
2025-04-28T1700,3452A,114.6517,22.775,惠州市,大亚湾霞涌,,34,24,30,14,18,106,,103,103,9,16,8,7,0.5,0.6
2025-04-28T1700,2240A,130.9762,45.3001,鸡西市,环保局,细颗粒物(PM2.5),65,57,35,47,28,113,,102,102,10,14,5,6,0.4,0.4
2025-04-28T1700,2243A,130.9429,45.3039,鸡西市,第一中学,,,71,38,50,30,110,,100,100,9,9,124,11,,0.4
2025-04-28T1700,3707A,131.0207,45.3073,鸡西市,欧美日汽修厂,细颗粒物(PM2.5),83,,43,61,38,111,,98,98,7,18,4,5,0.5,0.6
2025-04-28T1700,3709A,130.9967,45.3106,鸡西市,市政设施管理处,细颗粒物(PM2.5),75,62,40,55,32,102,,92,92,14,21,6,7,0.5,0.5
2025-04-28T1700,2367A,114.9754,27.0803,吉安市,红声器材厂,,45,40,31,22,17,142,,118,118,5,12,10,12,0.5,0.6
2025-04-28T1700,2368A,114.9658,27.0999,吉安市,市森林工业局,,43,43,28,21,18,136,,112,112,4,10,9,12,0.5,0.5
2025-04-28T1700,2369A,114.99,27.1312,吉安市,市环境监测站,,45,36,29,16,19,144,,116,116,2,9,9,13,0.5,0.6
2025-04-28T1700,2370A,115.0093,27.0968,吉安市,青原区法院,,46,42,28,20,20,147,,123,123,4,12,12,13,0.5,0.5
2025-04-28T1700,1772A,126.54,43.8622,吉林市,哈达湾,细颗粒物(PM2.5),57,56,47,40,32,122,,113,113,11,12,6,8,0.4,0.4
2025-04-28T1700,1773A,126.5844,43.8358,吉林市,东局子,细颗粒物(PM2.5),69,62,41,50,30,121,,111,111,13,13,6,7,0.4,0.6
2025-04-28T1700,1774A,126.5052,43.8245,吉林市,电力学院,细颗粒物(PM2.5),69,53,37,50,30,124,,113,113,10,10,5,6,0.5,0.4
2025-04-28T1700,1775A,126.6133,43.8972,吉林市,江北,细颗粒物(PM2.5),57,59,44,40,25,123,,114,114,15,12,7,7,0.6,0.6
2025-04-28T1700,1776A,126.555,43.8306,吉林市,江南公园,细颗粒物(PM2.5),72,54,39,52,32,117,,108,108,11,11,6,6,0.4,0.4
2025-04-28T1700,1778A,126.7061,43.7133,吉林市,丰满,,,,,,,,,,,,,,,,
2025-04-28T1700,2868A,126.4739,43.953,吉林市,九站,细颗粒物(PM2.5),57,52,50,40,39,118,,114,114,9,13,6,10,0.6,0.6
2025-04-28T1700,1299A,116.9862,36.6114,济南市,科干所,,43,27,46,10,18,136,,121,121,10,22,4,4,0.3,0.4
2025-04-28T1700,1300A,116.9376,36.665,济南市,农科所,,40,20,51,3,16,126,,115,115,7,30,7,7,0.3,0.4
2025-04-28T1700,1301A,117.1265,36.6734,济南市,开发区,,39,29,40,12,19,122,,120,120,9,23,7,7,0.4,0.5
2025-04-28T1700,1303A,117.0624,36.6868,济南市,省种子仓库,,39,29,57,19,30,123,,119,119,8,29,4,5,0.2,0.4
2025-04-28T1700,1304A,116.9489,36.6447,济南市,机床二厂,,,34,64,,19,134,,123,123,13,32,9,8,0.4,0.5
2025-04-28T1700,1305A,117.0495,36.663,济南市,市监测站,,39,27,50,7,22,124,,116,116,8,28,8,8,0.4,0.5
2025-04-28T1700,1306A,116.7675,36.5484,济南市,长清党校,,47,37,49,12,18,149,,136,136,9,30,6,6,0.6,0.6
2025-04-28T1700,1616A,117.6795,36.229,济南市,技术学院,颗粒物(PM10),51,51,53,17,32,142,,124,124,12,28,15,10,0.9,0.7
2025-04-28T1700,1961A,117.532,36.6868,济南市,东山小学,颗粒物(PM10),53,56,63,7,21,127,,123,123,5,28,6,6,0.2,0.3
2025-04-28T1700,3059A,117.7161,36.2049,济南市,泰兴公司,,47,41,57,14,36,148,,128,128,15,34,12,10,0.7,0.8
2025-04-28T1700,3064A,117.6867,36.2171,济南市,莱芜战役纪念馆,,45,34,45,12,31,142,,124,124,20,35,9,7,0.8,0.8
2025-04-28T1700,3494A,117.1673,36.9782,济南市,济阳区政府,,50,37,55,7,21,159,,128,128,10,29,9,6,0.3,0.4
2025-04-28T1700,3495A,117.1171,36.63,济南市,锦屏中学,,39,17,36,3,10,124,,123,123,9,17,4,5,0.2,0.3
2025-04-28T1700,3682A,116.9814,36.6819,济南市,济南四建,,42,19,57,3,22,132,,123,123,8,31,5,5,0.3,0.5
2025-04-28T1700,1653A,116.6251,35.4302,济宁市,火炬城,颗粒物(PM10),59,68,56,17,27,148,,122,122,6,15,5,7,0.2,0.5
2025-04-28T1700,1655A,116.5491,35.4042,济宁市,电化厂,颗粒物(PM10),54,57,62,19,34,152,,122,122,6,20,3,7,0.4,0.6
2025-04-28T1700,3500A,116.5814,35.3707,济宁市,北湖一中,颗粒物(PM10),61,72,63,17,21,158,,128,128,31,26,8,7,0.4,0.5
2025-04-28T1700,3501A,116.8249,35.5593,济宁市,服务中心,颗粒物(PM10),63,75,86,7,26,151,,122,122,11,24,2,4,0.4,0.6
2025-04-28T1700,3678A,116.5907,35.4054,济宁市,市第七中学,颗粒物(PM10),57,64,62,7,22,152,,129,129,7,20,8,13,0.2,0.5
2025-04-28T1700,2255A,130.2751,46.8028,佳木斯市,佳纺,,24,12,10,6,8,74,,71,71,8,7,4,4,0.3,0.3
2025-04-28T1700,2256A,130.3995,46.8307,佳木斯市,发电厂,,24,11,11,3,8,76,,72,72,10,7,3,4,0.3,0.2
2025-04-28T1700,2257A,130.3258,46.7975,佳木斯市,环保局,,21,15,12,10,8,67,,67,67,14,9,4,4,0.4,0.3
2025-04-28T1700,2258A,130.3648,46.8032,佳木斯市,十一中,,22,11,9,8,8,70,,68,68,10,7,4,4,0.3,0.3
2025-04-28T1700,2259A,130.3794,46.7588,佳木斯市,四丰,,21,,12,7,10,65,,60,60,10,10,1,1,0.2,0.2
2025-04-28T1700,1252A,120.7436,30.778,嘉兴市,清河小学,臭氧1小时,89,49,73,25,37,191,,161,161,18,43,7,7,1.0,1
2025-04-28T1700,1253A,120.726,30.7478,嘉兴市,嘉兴学院,臭氧1小时,103,54,68,26,41,206,,179,179,20,50,8,8,0.9,0.9
2025-04-28T1700,2872A,120.7846,30.7525,嘉兴市,南湖区残联,臭氧1小时,101,58,60,27,39,202,,170,170,23,43,8,8,0.8,0.8
2025-04-28T1700,3407A,120.6916,30.7739,嘉兴市,秀洲住建,臭氧1小时,116,68,82,34,36,231,,192,192,12,40,9,8,0.8,0.8
2025-04-28T1700,1945A,98.2908,39.7711,嘉峪关市,气象局,颗粒物(PM10),52,53,79,24,25,110,,110,110,4,9,1,4,0.3,0.3
2025-04-28T1700,2884A,98.2672,39.7978,嘉峪关市,酒钢宾馆,颗粒物(PM10),59,68,89,19,24,108,,108,108,3,9,15,18,0.3,0.3
2025-04-28T1700,3248A,98.2643,39.7724,嘉峪关市,雄关区,颗粒物(PM10),53,55,72,27,24,108,,109,109,8,13,6,6,0.4,0.4
2025-04-28T1700,1383A,113.1064,22.6058,江门市,北街,臭氧1小时,78,22,37,12,20,182,,132,132,15,27,2,2,0.6,0.5
2025-04-28T1700,1384A,113.0731,22.5835,江门市,西区,臭氧1小时,65,30,32,16,17,172,,134,134,20,23,6,5,0.6,0.6
2025-04-28T1700,1385A,113.0219,22.5311,江门市,圭峰西,,49,28,36,11,21,156,,122,122,13,31,4,4,0.7,0.7
2025-04-28T1700,1386A,113.0828,22.5947,江门市,东湖,臭氧1小时,60,,40,20,20,168,,130,130,16,21,8,7,0.6,0.6
2025-04-28T1700,3311A,113.1075,22.5647,江门市,江海富民,臭氧1小时,69,40,70,33,31,175,,130,130,15,20,7,7,0.6,0.5
2025-04-28T1700,3449A,113.05,22.4667,江门市,新会银湖,臭氧1小时,69,42,41,14,30,175,,133,133,20,23,2,2,0.7,0.6
2025-04-28T1700,1830A,113.1992,35.2590,焦作市,影视城,,,,38,,18,,,,,,8,,9,,0.8
2025-04-28T1700,3169A,113.2725,35.2067,焦作市,太极体育中心,颗粒物(PM10),90,130,118,16,30,160,,125,125,2,18,4,5,0.3,0.6
2025-04-28T1700,3335A,113.3137,35.2641,焦作市,马村街道办,臭氧1小时,53,49,76,16,26,162,,130,130,12,22,8,11,0.2,0.4
2025-04-28T1700,3336A,113.2465,35.2373,焦作市,焦作技师学院,颗粒物(PM10),77,104,99,12,22,163,,128,128,8,21,8,12,0.2,0.5
2025-04-28T1700,3477A,113.1656,35.2539,焦作市,中站许衡医院,臭氧1小时,64,44,69,17,29,171,,131,131,8,22,8,9,0.4,0.6
2025-04-28T1700,3981A,113.2449,35.1803,焦作市,原李万街道办,臭氧1小时,55,58,94,17,22,164,,132,132,11,26,8,16,0.3,0.5
2025-04-28T1700,4264A,113.2340,35.2190,焦作市,新安路1731号,,,50,94,14,34,164,,128,128,9,24,,13,0.7,0.9
2025-04-28T1700,1708A,116.3701,23.5345,揭阳市,新兴,,26,23,66,15,44,82,,82,82,8,20,5,6,0.8,0.9
2025-04-28T1700,1709A,116.3264,23.5443,揭阳市,西马,,29,29,59,3,36,77,,77,77,5,15,7,8,0.8,1
2025-04-28T1700,1710A,116.3611,23.5626,揭阳市,东兴,颗粒物(PM10),52,54,74,10,52,78,,81,81,4,16,5,5,0.5,0.8
2025-04-28T1700,1711A,116.4151,23.5294,揭阳市,渔湖,颗粒物(PM10),58,66,78,9,33,80,,87,87,10,20,5,5,0.8,1
2025-04-28T1700,3320A,116.403,23.5699,揭阳市,曲溪,,,18,52,10,33,86,,91,91,9,23,,2,0.6,0.8
2025-04-28T1700,1944A,102.1692,38.5167,金昌市,天庆家园,颗粒物(PM10),76,102,50,25,25,115,,112,112,4,14,9,18,0.7,0.7
2025-04-28T1700,4022A,102.1647,38.5371,金昌市,金川区人防中心,颗粒物(PM10),105,159,77,37,25,110,,106,106,6,13,24,28,0.4,0.5
2025-04-28T1700,4239A,102.1930,38.5319,金昌市,长春路96号,颗粒物(PM10),68,86,65,27,26,115,,108,108,2,14,13,43,0.5,0.6
2025-04-28T1700,1262A,119.647,29.077,金华市,十五中,,44,32,48,17,30,138,,119,119,18,31,3,2,0.5,0.7
2025-04-28T1700,1263A,119.686,29.1029,金华市,监测站,,45,29,45,19,30,143,,121,121,15,28,5,4,0.5,0.7
2025-04-28T1700,3659A,119.656,29.1131,金华市,气象局,,44,36,45,18,26,140,,120,120,20,26,3,2,0.5,0.6
2025-04-28T1700,1767A,121.1115,41.0879,锦州市,南山,,49,41,33,34,20,116,,99,99,12,22,7,11,0.5,0.5
2025-04-28T1700,1768A,121.0604,40.8428,锦州市,开发区,,49,49,56,26,20,106,,102,102,20,26,6,14,0.6,0.6
2025-04-28T1700,1769A,121.1836,41.1119,锦州市,百股街道,,36,36,35,22,14,115,,98,98,10,18,6,11,0.5,0.6
2025-04-28T1700,1770A,121.1178,41.1222,锦州市,天安街道,,47,47,36,24,16,107,,96,96,13,18,7,12,0.6,0.6
2025-04-28T1700,1771A,121.1303,41.1386,锦州市,北湖公园,,44,44,31,25,15,111,,97,97,11,12,8,13,0.5,0.5
2025-04-28T1700,2160A,112.85,35.5051,晋城市,自来水公司,,41,37,78,3,18,130,,116,116,11,23,6,11,0.3,0.8
2025-04-28T1700,2161A,112.8318,35.4936,晋城市,白云商贸,,42,23,66,3,13,134,,120,120,14,24,6,8,0.4,0.7
2025-04-28T1700,2162A,112.8508,35.4887,晋城市,市环保局,,41,29,76,3,17,130,,116,116,9,24,4,9,0.1,0.5
2025-04-28T1700,2163A,112.8676,35.4897,晋城市,技术学院,,,35,78,3,17,128,,112,112,,33,5,11,0.5,1
2025-04-28T1700,2165A,112.8453,35.546,晋城市,白马寺,,42,24,59,13,37,133,,120,120,4,15,3,23,0.2,0.9
2025-04-28T1700,3620A,112.8271,35.4828,晋城市,泽州一中,,44,27,59,3,14,139,,120,120,11,22,4,6,0.3,0.6
2025-04-28T1700,2173A,112.7249,37.7067,晋中市,南都小区,,40,32,41,9,8,128,,104,104,8,22,8,8,0.1,0.1
2025-04-28T1700,2174A,112.6991,37.6982,晋中市,榆次区政府,,41,31,45,7,12,130,,106,106,10,24,8,9,0.2,0.2
2025-04-28T1700,2865A,112.7195,37.6828,晋中市,榆次三中,,42,29,44,14,13,132,,108,108,8,25,7,8,0.1,0.1
2025-04-28T1700,4200A,112.7478,37.6954,晋中市,迎宾街26号,,40,29,42,7,12,126,,104,104,7,17,6,7,0.3,0.3
2025-04-28T1700,2439A,112.2014,31.0481,荆门市,竹园小学,颗粒物(PM10),55,60,88,18,34,162,,151,151,10,12,7,7,0.2,0.3
2025-04-28T1700,2440A,112.1969,30.9891,荆门市,掇刀,,48,47,81,21,35,151,,145,145,9,12,13,12,0.2,0.3
2025-04-28T1700,2441A,112.2213,31.0386,荆门市,石化一小,颗粒物(PM10),52,53,85,21,35,158,,148,148,7,11,10,11,0.2,0.4
2025-04-28T1700,3012A,112.1849,31.0362,荆门市,西山林语,颗粒物(PM10),58,65,76,14,32,159,,149,149,5,8,9,9,0.4,0.5
2025-04-28T1700,3547A,112.1632,31.0138,荆门市,龙泉中学南校,颗粒物(PM10),54,58,74,21,33,158,,146,146,7,11,8,10,0.3,0.4
2025-04-28T1700,1844A,112.2494,30.3197,荆州市,市图书馆,臭氧1小时,59,46,61,20,34,167,,152,152,14,18,5,6,0.4,0.5
2025-04-28T1700,1845A,112.2008,30.3544,荆州市,市委党校,,,60,66,22,33,158,,144,144,13,17,,7,0.4,0.5
2025-04-28T1700,3194A,112.2747,30.3122,荆州市,管委会,臭氧1小时,54,32,63,19,36,163,,147,147,13,14,8,7,0.6,0.6
2025-04-28T1700,4268A,112.1722,30.3366,荆州市,学苑路85号,,50,39,60,22,36,158,,146,146,11,21,3,4,0.4,0.5
2025-04-28T1700,2342A,117.3102,29.3867,景德镇市,王港中学,,,,,,,,,,,,,,,,
2025-04-28T1700,2343A,117.2117,29.2933,景德镇市,老干部活动中心,细颗粒物(PM2.5),52,51,30,36,20,133,,119,119,9,10,8,9,0.6,0.5
2025-04-28T1700,2344A,117.1894,29.2789,景德镇市,兽医站,颗粒物(PM10),59,68,39,34,20,125,,109,109,10,13,4,6,0.8,0.6
2025-04-28T1700,2345A,117.1547,29.2617,景德镇市,台达陶瓷,颗粒物(PM10),65,80,45,40,28,125,,106,106,18,21,19,40,0.6,1
2025-04-28T1700,2346A,117.2461,29.2956,景德镇市,陶研所,细颗粒物(PM2.5),57,56,36,40,27,127,,115,115,14,15,6,8,0.6,0.6
2025-04-28T1700,1803A,115.9872,29.6815,九江市,十里,臭氧1小时,77,78,46,43,32,181,,172,172,8,21,4,3,0.7,0.7
2025-04-28T1700,1804A,115.9584,29.7046,九江市,茅山头,颗粒物(PM10),60,69,50,36,30,165,,153,153,10,21,6,5,0.6,0.6
2025-04-28T1700,1805A,115.9877,29.7295,九江市,西园,颗粒物(PM10),55,60,42,34,28,152,,157,157,31,36,7,9,0.7,0.9
2025-04-28T1700,1808A,115.9114,29.6038,九江市,综合工业园,臭氧1小时,93,92,45,48,28,194,,156,156,29,34,12,8,1.0,0.8
2025-04-28T1700,1809A,116.0721,29.7535,九江市,石化总厂,颗粒物(PM10),59,67,53,40,40,145,,149,149,14,20,5,8,0.8,0.9
2025-04-28T1700,1810A,115.9773,29.5698,九江市,庐山气象台,细颗粒物(PM2.5),83,72,39,61,34,164,,134,134,17,11,6,6,0.6,0.8
2025-04-28T1700,3190A,116.0254,29.6994,九江市,外国语学校,细颗粒物(PM2.5),64,68,45,46,32,155,,150,150,17,22,4,5,1.0,1.1
2025-04-28T1700,4253A,116.0102,29.6594,九江市,莲花大道8号,颗粒物(PM10),63,76,46,36,33,169,,152,152,9,11,6,5,0.7,0.7
2025-04-28T1700,4240A,98.4958,39.7339,酒泉市,玉门东路5号,颗粒物(PM10),130,210,88,38,32,110,,106,106,6,9,14,11,0.3,0.3
2025-04-28T1700,4241A,98.5099,39.7506,酒泉市,北大街108号,颗粒物(PM10),152,254,82,19,23,117,,109,109,4,13,10,11,0.4,0.3
2025-04-28T1700,2698A,76.0072,39.4467,喀什地区,巡警大队,颗粒物(PM10),146,242,237,37,50,130,,100,100,6,36,3,4,0.3,0.6
2025-04-28T1700,2699A,75.9755,39.4694,喀什地区,吾办,颗粒物(PM10),134,218,202,64,65,125,,93,93,9,40,7,5,0.2,0.6
2025-04-28T1700,4027A,75.9483,39.4689,喀什地区,老干局,颗粒物(PM10),143,236,188,42,44,125,,91,91,6,31,4,4,0.5,0.6
2025-04-28T1700,1824A,114.3389,34.7781,开封市,肿瘤医院,颗粒物(PM10),89,128,84,11,24,161,,136,136,9,12,9,8,0.3,0.5
2025-04-28T1700,1826A,114.2885,34.7965,开封市,世纪星幼儿园,臭氧1小时,74,72,74,3,17,179,,146,146,13,17,10,10,0.5,0.7
2025-04-28T1700,3147A,114.3438,34.8106,开封市,龙亭公园,颗粒物(PM10),68,86,91,11,19,169,,142,142,14,18,4,4,0.5,0.7
2025-04-28T1700,3210A,114.3644,34.7964,开封市,汴京公园,颗粒物(PM10),103,156,125,10,22,178,,149,149,11,15,5,5,0.4,0.7
2025-04-28T1700,3473A,114.2485,34.8306,开封市,技师学院,臭氧1小时,57,62,92,29,34,165,,137,137,11,22,4,6,0.5,0.7
2025-04-28T1700,3592A,114.4644,34.7556,开封市,祥符区生态环境局,臭氧1小时,53,45,75,17,25,162,,142,142,24,19,8,12,0.3,0.5
2025-04-28T1700,1951A,84.895,45.6094,克拉玛依市,长征新村,,41,36,32,3,9,129,,102,102,7,17,8,7,0.3,0.3
2025-04-28T1700,1952A,84.8988,45.5893,克拉玛依市,南林小区,,43,31,35,7,12,137,,106,106,5,22,4,4,0.3,0.5
2025-04-28T1700,1954A,84.905,44.3396,克拉玛依市,独山子区,,45,29,27,3,11,143,,130,130,5,5,9,8,0.3,0.3
2025-04-28T1700,1955A,85.6979,46.098,克拉玛依市,乌尔禾区商贸楼,,43,21,26,3,7,136,,100,100,3,12,7,7,0.3,0.3
2025-04-28T1700,3612A,85.1045,45.6899,克拉玛依市,白碱滩区新站,,43,29,40,3,9,137,,106,106,4,12,11,10,0.1,0.2
2025-04-28T1700,2697A,76.1454,39.7142,克孜勒苏柯尔克孜自治州,市人民政府,颗粒物(PM10),142,234,196,59,58,130,,107,107,,12,5,18,0.2,0.3
2025-04-28T1700,3665A,76.1658,39.7157,克孜勒苏柯尔克孜自治州,克州文化中心,颗粒物(PM10),135,220,232,64,65,128,,99,99,2,14,7,16,0.2,0.3
2025-04-28T1700,1450A,102.8204,24.8886,昆明市,呈贡新区,颗粒物(PM10),51,52,70,26,47,140,,116,116,9,25,4,7,0.7,0.8
2025-04-28T1700,1451A,102.6251,24.9608,昆明市,西山森林公园,,,,,,,,,,,,,,,,
2025-04-28T1700,1452A,102.7252,25.0902,昆明市,龙泉镇,,49,38,52,32,32,155,,122,122,14,26,10,9,0.5,0.5
2025-04-28T1700,1453A,102.7266,25.0375,昆明市,东风东路,臭氧1小时,58,58,71,39,43,166,,134,134,16,23,9,9,0.5,0.6
2025-04-28T1700,1454A,102.6742,25.0669,昆明市,金鼎山,细颗粒物(PM2.5),60,59,65,43,39,157,,128,128,16,22,4,4,0.5,0.5
2025-04-28T1700,1455A,102.6644,25.0401,昆明市,碧鸡广场,,46,42,68,30,39,145,,121,121,15,21,7,7,0.5,0.5
2025-04-28T1700,3179A,102.7494,25.0119,昆明市,官渡区博物馆,颗粒物(PM10),55,60,67,31,37,161,,128,128,11,31,8,8,0.5,0.6
2025-04-28T1700,3375A,102.8017,24.8336,昆明市,青年创业园,,46,36,73,29,44,145,,119,119,9,24,7,9,0.7,0.7
2025-04-28T1700,3550A,102.7997,24.9786,昆明市,昆明学院,,50,50,84,26,41,152,,125,125,14,28,7,8,0.4,0.5
2025-04-28T1700,3551A,102.5967,24.6736,昆明市,晋宁区生态环境分局,,48,48,62,31,42,143,,122,122,10,17,6,9,0.4,0.4
2025-04-28T1700,3552A,102.6678,24.9856,昆明市,云天化总部,,45,35,66,16,41,144,,117,117,11,30,8,8,0.4,0.5
2025-04-28T1700,1456A,91.1319,29.6514,拉萨市,八廓街,,48,48,23,33,12,149,,151,148,17,9,8,7,2.6,0.4
2025-04-28T1700,1457A,91.1221,29.6747,拉萨市,市环保局,,49,19,27,10,12,154,,144,140,12,13,4,4,0.5,0.5
2025-04-28T1700,1458A,91.0874,29.6475,拉萨市,区监测站,,46,16,19,10,9,146,,144,138,13,12,5,6,0.3,0.3
2025-04-28T1700,1459A,91.1774,29.6541,拉萨市,西藏大学,,45,15,19,10,10,143,,147,144,15,9,6,6,0.4,0.3
2025-04-28T1700,1460A,90.9798,29.6588,拉萨市,区辐射站,,42,19,23,10,11,134,,141,131,20,16,8,8,0.4,0.5
2025-04-28T1700,1461A,91.0834,29.6292,拉萨市,拉萨火车站,,45,19,17,9,9,142,,147,139,11,8,3,3,0.4,0.4
2025-04-28T1700,2520A,109.2203,23.7256,来宾市,来宾技工学校,,45,27,21,13,9,142,,102,102,9,12,7,8,0.4,0.5
2025-04-28T1700,3535A,109.1781,23.7297,来宾市,兴宾区政府,,40,28,21,13,12,126,,91,91,7,10,6,6,0.5,0.6
2025-04-28T1700,4002A,109.2416,23.7461,来宾市,中南小学,,43,34,21,10,12,136,,97,97,6,10,7,6,0.4,0.6
2025-04-28T1700,1477A,104.1373,35.9454,兰州市,榆中兰大校区,,,,,,,,,,,,,,,,
2025-04-28T1700,1479A,103.831,36.0464,兰州市,铁路设计院,,37,34,60,16,27,118,,106,106,22,29,9,14,0.4,0.5
2025-04-28T1700,3241A,103.7439,36.0842,兰州市,百合公园,,36,25,54,7,27,115,,103,103,2,16,2,10,0.3,0.5
2025-04-28T1700,3242A,103.9611,35.998,兰州市,和平,,48,48,71,30,37,122,,103,103,10,16,12,14,0.6,0.7
2025-04-28T1700,4236A,103.6293,36.0938,兰州市,庄浪东路808号,,44,44,65,30,34,128,,103,103,8,22,10,14,0.3,0.4
2025-04-28T1700,4237A,103.7251,36.1043,兰州市,安宁西路88号,,46,46,73,24,35,129,,115,115,3,18,6,13,0.3,0.3
2025-04-28T1700,4238A,103.8470,36.0676,兰州市,北滨河东路1号,,40,38,69,14,29,128,,115,115,15,29,11,15,0.6,0.7
2025-04-28T1700,3245A,103.6633,36.533,兰州新区,新区管委会,,41,39,50,22,25,129,,109,109,5,10,5,7,0.3,0.4
2025-04-28T1700,3246A,103.6975,36.4789,兰州新区,舟曲中学,,42,29,55,16,25,133,,115,115,8,12,6,9,0.3,0.4
2025-04-28T1700,1067A,116.6708,39.5111,廊坊市,药材公司,颗粒物(PM10),53,56,67,22,23,138,,104,104,12,21,3,3,0.3,0.4
2025-04-28T1700,1068A,116.7214,39.5589,廊坊市,开发区,颗粒物(PM10),63,76,77,25,27,135,,103,103,14,19,2,3,0.3,0.4
2025-04-28T1700,1070A,116.7244,39.5269,廊坊市,北华航天学院,颗粒物(PM10),81,112,91,18,21,135,,104,104,13,22,5,5,0.3,0.4
2025-04-28T1700,2919A,116.7022,39.5453,廊坊市,河北工业大学,颗粒物(PM10),61,71,82,19,24,143,,105,105,11,17,6,7,0.3,0.3
2025-04-28T1700,2535A,103.7723,29.5462,乐山市,花湖湾,,42,31,46,20,28,133,,82,82,15,27,7,8,0.4,0.8
2025-04-28T1700,2536A,103.7627,29.5844,乐山市,牛耳桥,,38,34,44,20,26,120,,75,75,20,36,8,8,0.7,1
2025-04-28T1700,2537A,103.7508,29.6006,乐山市,市第三水厂,,38,33,44,16,30,119,,82,82,14,29,6,5,0.5,0.7
2025-04-28T1700,2538A,103.7571,29.5664,乐山市,市监测站,,40,35,46,22,28,125,,78,78,12,28,9,8,0.5,0.9
2025-04-28T1700,3361A,103.7311,29.5628,乐山市,理工大学,,40,39,43,20,27,128,,83,83,12,29,6,6,0.5,0.9
2025-04-28T1700,2598A,100.2143,26.8576,丽江市,西南郊,颗粒物(PM10),58,65,45,29,23,138,,134,124,4,3,6,14,0.3,0.5
2025-04-28T1700,2599A,100.2497,26.8802,丽江市,丽江古城,颗粒物(PM10),53,56,42,24,21,130,,118,118,12,10,9,8,0.5,0.5
2025-04-28T1700,2600A,100.2203,26.8906,丽江市,市中心,颗粒物(PM10),54,57,34,31,21,120,,105,105,9,7,7,6,0.8,0.7
2025-04-28T1700,1267A,119.914,28.4514,丽水市,监测站大楼,颗粒物(PM10),53,55,30,22,20,148,,116,116,12,19,3,3,0.4,0.4
2025-04-28T1700,1268A,119.93,28.4586,丽水市,莲都小学,,49,48,37,20,17,155,,120,120,10,18,4,3,0.3,0.4
2025-04-28T1700,1269A,119.879,28.4231,丽水市,余庄前,,50,34,30,20,18,158,,124,124,7,13,3,3,0.5,0.5
2025-04-28T1700,1173A,119.176,34.5885,连云港市,市环境监测站,,46,34,50,14,27,146,,130,130,11,20,6,10,0.5,0.7
2025-04-28T1700,3000A,119.3581,34.6972,连云港市,德源药业,,41,41,49,7,21,130,,111,111,21,28,10,9,0.2,0.4
2025-04-28T1700,3007A,119.178,34.844,连云港市,新城一中,,45,45,84,12,22,136,,118,118,11,26,8,12,0.5,0.8
2025-04-28T1700,3008A,119.3608,34.7519,连云港市,胡沟管理处,,38,22,34,7,18,121,,110,110,23,33,13,15,0.7,0.8
2025-04-28T1700,3009A,119.1478,34.5911,连云港市,矿山设计院,,44,36,53,17,26,140,,125,125,19,29,10,12,0.5,0.7
2025-04-28T1700,3434A,119.2413,34.6539,连云港市,工贸学校,,42,36,48,17,31,132,,124,124,20,30,9,11,0.4,0.7
2025-04-28T1700,3664A,119.4172,34.7341,连云港市,连云街道,,43,28,52,11,24,136,,107,107,20,35,8,9,0.4,0.5
2025-04-28T1700,2571A,102.3431,27.8099,凉山彝族自治州,青龙寺,,33,10,19,3,4,105,,89,89,2,8,2,3,0.5,0.5
2025-04-28T1700,2572A,102.2721,27.8415,凉山彝族自治州,邛海宾馆,,33,25,18,14,8,103,,96,96,11,10,6,7,0.5,0.5
2025-04-28T1700,2573A,102.2625,27.898,凉山彝族自治州,西昌市政府,,31,20,23,13,10,98,,90,90,10,12,10,10,0.5,0.5
2025-04-28T1700,2574A,102.2685,27.8851,凉山彝族自治州,凉山州政府,,32,24,22,11,10,101,,92,92,12,14,7,6,0.7,0.5
2025-04-28T1700,4229A,102.2342,27.8859,凉山彝族自治州,凯乐南路30号,,32,30,23,22,9,86,,84,84,19,15,9,9,0.5,0.4
2025-04-28T1700,2212A,123.2,41.1953,辽阳市,宏伟区,细颗粒物(PM2.5),72,,60,52,30,129,,116,116,7,16,7,9,0.4,0.5
2025-04-28T1700,2213A,123.1683,41.2495,辽阳市,新华园,,45,45,60,27,26,118,,111,111,6,14,6,9,0.4,0.6
2025-04-28T1700,2214A,123.2354,41.2639,辽阳市,滨河路,,47,47,54,32,26,120,,109,109,9,17,6,10,0.5,0.5
2025-04-28T1700,2215A,123.149,41.2991,辽阳市,铁西工业园,,40,38,58,28,27,114,,105,105,6,14,9,10,0.4,0.4
2025-04-28T1700,2227A,125.1358,42.8845,辽源市,环保局,颗粒物(PM10),61,71,58,37,28,130,,116,116,16,13,17,8,0.4,0.4
2025-04-28T1700,3239A,125.0764,42.9078,辽源市,银鹰制药,细颗粒物(PM2.5),57,44,37,40,29,140,,123,123,13,11,6,5,0.4,0.3
2025-04-28T1700,1625A,115.9848,36.4372,聊城市,区政府,颗粒物(PM10),54,58,52,13,22,162,,126,126,9,19,7,6,0.5,0.6
2025-04-28T1700,2878A,116.0072,36.4343,聊城市,聊大东校,颗粒物(PM10),54,58,68,22,33,161,,125,125,9,17,9,8,0.4,0.4
2025-04-28T1700,3200A,115.9819,36.4978,聊城市,监控中心,,41,29,54,3,22,131,,123,123,10,27,7,7,0.5,0.5
2025-04-28T1700,3513A,116.0445,36.4361,聊城市,九州社区,臭氧1小时,62,43,50,8,23,169,,134,134,12,27,6,7,0.5,0.5
2025-04-28T1700,4018A,116.0567,36.4608,聊城市,星美广场,,50,45,56,6,19,159,,126,126,16,26,10,10,0.6,0.7
2025-04-28T1700,2632A,94.3681,29.6376,林芝市,林芝监测站,,32,6,7,3,5,100,,88,88,12,6,5,5,0.3,0.2
2025-04-28T1700,2633A,94.3616,29.6616,林芝市,林芝人民医院,,30,9,10,3,6,96,,69,,7,5,5,5,0.3,0.3
2025-04-28T1700,2603A,100.0781,23.8982,临沧市,市环保局,颗粒物(PM10),67,83,88,43,52,162,,142,142,11,11,14,9,0.5,0.6
2025-04-28T1700,2604A,100.0894,23.8822,临沧市,市气象局,臭氧1小时,65,72,79,42,53,172,,145,145,15,16,10,9,0.5,0.7
2025-04-28T1700,1733A,111.5531,36.0783,临汾市,临钢医院,,50,50,54,17,8,139,,107,107,7,18,7,6,0.5,0.4
2025-04-28T1700,1734A,111.5028,36.0714,临汾市,技工学校,颗粒物(PM10),56,61,51,13,13,148,,112,112,6,15,11,9,0.4,0.3
2025-04-28T1700,1736A,111.5018,36.0855,临汾市,市委,颗粒物(PM10),53,55,47,17,9,145,,109,109,7,14,11,8,0.3,0.2
2025-04-28T1700,3018A,111.505,36.1014,临汾市,唐尧大酒店,颗粒物(PM10),63,75,60,3,13,146,,102,102,15,20,8,5,0.3,0.3
2025-04-28T1700,4244A,111.4879,36.0530,临汾市,启星学校,颗粒物(PM10),53,56,60,10,16,143,,108,108,10,22,11,7,0.4,0.5
2025-04-28T1700,4271A,103.2464,35.6123,临夏回族自治州,滨河东路1号,,40,32,52,16,32,126,,108,108,2,9,4,3,0.2,0.4
2025-04-28T1700,4310A,103.2093,35.5995,临夏回族自治州,新华街21号,,37,26,48,18,32,116,,96,96,9,17,3,3,0.2,0.4
2025-04-28T1700,1618A,118.3429,35.0532,临沂市,沂河小区,颗粒物(PM10),60,70,74,30,45,152,,134,134,9,16,10,9,0.2,0.3
2025-04-28T1700,1619A,118.295,35.0583,临沂市,鲁南制药厂,颗粒物(PM10),59,68,65,23,34,165,,143,143,19,21,7,6,0.3,0.4
2025-04-28T1700,1620A,118.2794,34.9976,临沂市,新光毛纺厂,细颗粒物(PM2.5),57,53,61,40,45,161,,139,139,16,21,9,7,0.3,0.3
2025-04-28T1700,1621A,118.3956,35.0888,临沂市,河东保险公司,臭氧1小时,69,46,62,20,31,175,,144,144,12,21,8,6,0.3,0.3
2025-04-28T1700,3370A,118.3564,35.0215,临沂市,十里堡居委,颗粒物(PM10),52,53,67,17,30,157,,132,132,21,24,7,3,0.3,0.4
2025-04-28T1700,3496A,118.3604,35.1084,临沂市,南坊新区,颗粒物(PM10),56,61,66,24,32,154,,133,133,14,18,9,7,0.2,0.3
2025-04-28T1700,3860A,118.3920,35.0300,临沂市,皇山花园小区,颗粒物(PM10),52,53,71,24,34,158,,132,132,18,22,10,8,0.5,0.5
2025-04-28T1700,1870A,109.4856,24.3895,柳州市,柳东小学,,45,36,27,19,12,143,,109,109,10,14,11,16,0.5,0.6
2025-04-28T1700,1871A,109.4157,24.3277,柳州市,环保监测站,,47,47,29,14,13,134,,101,101,5,14,11,15,0.6,0.9
2025-04-28T1700,1872A,109.389,24.341,柳州市,河西水厂,,42,34,33,18,16,133,,99,99,7,15,7,18,0.2,0.6
2025-04-28T1700,1873A,109.4311,24.2921,柳州市,市四中,,46,46,32,15,12,139,,106,106,7,12,8,8,0.6,0.7
2025-04-28T1700,1874A,109.4006,24.3631,柳州市,市九中,,43,39,33,6,10,135,,103,103,4,14,9,18,0.4,0.8
2025-04-28T1700,1875A,109.4958,24.3134,柳州市,古亭山,颗粒物(PM10),58,65,28,24,13,133,,103,103,5,6,8,10,0.5,0.7
2025-04-28T1700,3402A,109.5422,24.3996,柳州市,市二中,,43,39,24,20,13,136,,106,106,9,14,10,12,0.3,0.5
2025-04-28T1700,2307A,116.5079,31.737,六安市,监测大楼,臭氧1小时,78,82,63,47,38,182,,144,144,14,14,8,6,0.5,0.5
2025-04-28T1700,2308A,116.4738,31.7643,六安市,皖西学院,臭氧1小时,89,86,72,47,37,191,,156,156,11,15,8,6,0.5,0.5
2025-04-28T1700,2309A,116.4996,31.7905,六安市,朝阳厂,臭氧1小时,77,78,62,44,37,181,,147,147,18,17,6,5,0.5,0.4
2025-04-28T1700,2310A,116.5567,31.7886,六安市,开发区,臭氧1小时,85,107,77,43,34,188,,151,151,17,19,8,6,0.6,0.5
2025-04-28T1700,2576A,104.8,26.5892,六盘水市,窑上,,48,40,28,33,18,103,,99,99,13,6,8,6,0.2,0.3
2025-04-28T1700,2577A,104.83,26.5917,六盘水市,黄土坡,,36,36,22,15,14,115,,109,109,15,11,10,11,0.4,0.4
2025-04-28T1700,2578A,104.89,26.5939,六盘水市,水钢,,36,31,30,15,12,115,,112,112,11,11,11,13,0.3,0.5
2025-04-28T1700,2579A,104.8475,26.5894,六盘水市,民中,,36,25,19,14,10,114,,107,107,11,10,10,11,0.2,0.3
2025-04-28T1700,2580A,104.9544,26.5506,六盘水市,双水,,34,34,24,8,8,99,,106,106,20,9,8,9,0.4,0.3
2025-04-28T1700,2335A,117.0189,25.1181,龙岩市,龙岩师专,,,,,,,,,,,,,,,,
2025-04-28T1700,2336A,117.0217,25.1033,龙岩市,龙岩市监测站,,17,7,26,6,16,54,,67,67,22,24,5,4,0.7,0.8
2025-04-28T1700,2337A,117.0258,25.0661,龙岩市,闽西职业技术学院,,21,13,20,9,12,67,,72,71,9,20,4,4,0.7,0.7
2025-04-28T1700,2338A,117.0196,25.0306,龙岩市,龙岩学院,,25,11,17,3,11,78,,77,77,5,12,8,9,0.5,0.6
2025-04-28T1700,2665A,105.0822,33.3261,陇南市,汉王镇固水子,,,,,,,,,,,,,,,,
2025-04-28T1700,2885A,104.9339,33.3826,陇南市,滨江中学,颗粒物(PM10),63,75,57,25,27,113,,96,96,4,9,8,9,0.5,0.5
2025-04-28T1700,3247A,104.955,33.371,陇南市,市总工会,颗粒物(PM10),56,62,51,25,24,122,,104,104,4,7,6,6,0.2,0.3
2025-04-28T1700,2487A,111.9589,27.8901,娄底市,电视发射台,颗粒物(PM10),59,67,39,34,18,144,,109,109,5,3,5,4,0.4,0.4
2025-04-28T1700,2488A,111.9975,27.725,娄底市,市监测站,颗粒物(PM10),61,71,66,28,43,153,,100,100,11,23,6,11,0.6,1.4
2025-04-28T1700,2489A,112.0194,27.7314,娄底市,市委党校,,49,45,57,34,38,145,,97,97,9,16,4,4,0.4,0.9
2025-04-28T1700,2490A,111.9561,27.7569,娄底市,涟钢,细颗粒物(PM2.5),58,56,43,41,30,145,,100,100,9,12,18,13,0.4,0.5
2025-04-28T1700,2491A,111.9892,27.7044,娄底市,市政府,颗粒物(PM10),53,55,50,35,35,141,,89,89,6,14,4,4,0,0.6
2025-04-28T1700,1893A,105.4324,28.9634,泸州市,九狮山,,,,,,,,,,,,,,,,
2025-04-28T1700,1894A,105.4427,28.9063,泸州市,小市上码头,臭氧1小时,54,36,49,22,26,163,,119,119,13,22,7,12,0.6,0.7
2025-04-28T1700,1895A,105.4241,28.8573,泸州市,兰田宪桥,,46,36,41,25,29,145,,107,107,10,18,8,8,0.5,0.7
2025-04-28T1700,1896A,105.4379,28.8833,泸州市,市环监站,,,,,,,,,,,,,,,,
2025-04-28T1700,4272A,105.3689,28.7783,泸州市,纳溪中医医院,,42,42,49,21,28,114,,87,87,6,24,7,7,0.6,0.8
2025-04-28T1700,2183A,111.1406,37.5211,吕梁市,环保局,,35,13,55,3,11,110,,92,92,4,26,2,3,0.2,0.4
2025-04-28T1700,2185A,111.1297,37.5136,吕梁市,自来水公司,,34,16,56,3,13,107,,88,88,6,21,2,3,0.3,0.4
2025-04-28T1700,2867A,111.1283,37.51,吕梁市,马茂庄小学,,36,18,56,3,12,114,,88,88,5,32,2,4,0.2,0.3
2025-04-28T1700,1812A,112.3931,34.6516,洛阳市,市委党校,,43,34,62,15,23,135,,115,115,8,24,6,7,0.4,0.5
2025-04-28T1700,1815A,112.494,34.6886,洛阳市,河南林校,,45,41,68,14,22,141,,121,121,8,25,8,9,0.3,0.5
2025-04-28T1700,1816A,112.3844,34.623,洛阳市,开发区管委会,,43,26,59,9,21,136,,113,113,12,23,8,6,0.4,0.4
2025-04-28T1700,1817A,112.4267,34.6258,洛阳市,市委新办公区,,46,39,56,12,21,146,,122,122,8,20,7,6,0.3,0.4
2025-04-28T1700,3340A,112.6005,34.6326,洛阳市,伊滨,,48,44,71,15,37,152,,131,131,6,21,7,7,0.3,0.5
2025-04-28T1700,3341A,112.4951,34.6332,洛阳市,中移产业园,,47,41,73,14,23,150,,129,129,9,23,7,7,0.3,0.4
2025-04-28T1700,3593A,112.5736,34.8993,洛阳市,吉利监测站,颗粒物(PM10),51,51,71,10,18,152,,130,130,9,19,10,9,0.4,0.5
2025-04-28T1700,3635A,112.3677,34.662,洛阳市,河科大西苑校区,,46,38,63,10,21,147,,125,125,10,27,9,10,0.4,0.5
2025-04-28T1700,3636A,112.4388,34.6781,洛阳市,英才小学,,48,28,69,6,23,151,,127,127,11,34,7,8,0.5,0.7
2025-04-28T1700,4214A,112.4600,34.6949,洛阳市,春都路1号院,颗粒物(PM10),52,54,72,14,21,156,,132,132,9,24,7,6,0.5,0.5
2025-04-28T1700,2399A,114.051,33.5699,漯河市,三五一五工厂,,41,31,74,11,27,130,,121,121,7,13,4,7,0.4,0.6
2025-04-28T1700,2400A,114.0055,33.5698,漯河市,漯河大学,,41,26,73,3,25,129,,118,118,10,15,5,8,0.2,0.4
2025-04-28T1700,2401A,114.0138,33.5828,漯河市,市水利局,,41,24,77,3,24,130,,118,118,6,13,4,7,0.2,0.4
2025-04-28T1700,2402A,114.0261,33.5698,漯河市,市广电局,,41,24,81,14,26,130,,118,118,3,9,4,6,0.2,0.4
2025-04-28T1700,3478A,113.9749,33.5664,漯河市,市图书馆,,45,45,97,9,24,128,,120,120,12,17,4,6,0.3,0.5
2025-04-28T1700,4250A,114.0892,33.5882,漯河市,韶山路11号,,42,28,65,6,26,132,,123,123,10,16,3,6,0.3,0.4
2025-04-28T1700,1798A,118.5092,31.6837,马鞍山市,湖东路四小,臭氧1小时,108,65,59,23,32,216,,193,193,16,33,11,13,0.7,0.9
2025-04-28T1700,1799A,118.5024,31.6449,马鞍山市,开发区,臭氧1小时,106,76,62,36,39,212,,189,189,22,36,12,11,0.8,0.9
2025-04-28T1700,1802A,118.6245,31.7241,马鞍山市,濮塘,臭氧1小时,104,74,60,26,30,208,,192,192,10,21,9,9,0.7,0.7
2025-04-28T1700,3633A,118.4918,31.6809,马鞍山市,雨山,臭氧1小时,106,72,61,24,32,212,,195,195,17,34,14,13,0.7,0.9
2025-04-28T1700,4191A,118.5274,31.72227,马鞍山市,慈湖高新区,臭氧1小时,103,56,75,32,36,206,,186,186,15,41,8,12,0.7,1
2025-04-28T1700,1686A,111.0286,21.4688,茂名市,电白南海,,36,36,27,17,19,87,,51,51,16,12,1,1,0.8,0.7
2025-04-28T1700,1687A,110.9294,21.6533,茂名市,茂石化七小,,22,22,31,9,17,68,,56,56,15,12,2,4,1.0,0.9
2025-04-28T1700,1688A,110.9107,21.6687,茂名市,健康路,,24,,26,12,17,74,,62,62,10,8,3,4,0.8,0.8
2025-04-28T1700,1689A,110.8592,21.6828,茂名市,高岭,,27,27,37,9,13,61,,57,57,10,12,5,8,0.7,0.7
2025-04-28T1700,3450A,111.01,21.5165,茂名市,电白水东,,39,39,19,22,12,80,,53,53,22,12,1,1,1.1,1
2025-04-28T1700,2539A,104.0308,30.0478,眉山市,黑龙滩水库,颗粒物(PM10),51,51,27,25,17,129,,86,86,21,17,4,2,0.5,0.4
2025-04-28T1700,2540A,103.8416,30.0874,眉山市,气象局,颗粒物(PM10),59,67,70,34,36,154,,90,90,19,46,7,7,0.6,0.7
2025-04-28T1700,3137A,103.8578,30.0744,眉山市,市委党校,颗粒物(PM10),52,53,57,29,31,143,,82,82,21,50,10,8,0.2,0.4
2025-04-28T1700,3148A,103.8291,30.0564,眉山市,区人社局,,46,43,46,27,29,145,,86,86,24,54,8,8,0.4,0.5
2025-04-28T1700,1690A,116.1231,24.3284,梅州市,梅江月梅,,25,9,18,3,15,80,,69,69,4,13,4,4,0.7,0.7
2025-04-28T1700,1691A,116.0797,24.2719,梅州市,梅县新城,,26,9,16,3,15,81,,68,68,6,13,5,5,0.7,0.6
2025-04-28T1700,1692A,116.1248,24.2654,梅州市,环境监控中心,,,25,19,7,15,75,,65,65,7,12,,7,0.7,0.7
2025-04-28T1700,3315A,116.1233,24.2991,梅州市,梅龙,,25,12,16,7,13,79,,67,67,2,11,6,6,0.8,0.8
2025-04-28T1700,1878A,104.7778,31.4741,绵阳市,富乐山,,45,45,40,16,20,125,,104,104,7,15,7,7,0.3,0.3
2025-04-28T1700,1880A,104.6697,31.4668,绵阳市,高新区自来水公司,,43,43,60,14,22,128,,98,98,7,36,3,3,0.2,0.4
2025-04-28T1700,1881A,104.7287,31.5075,绵阳市,三水厂,,43,43,64,18,30,131,,99,99,9,40,7,6,0.4,0.7
2025-04-28T1700,3491A,104.69,31.5322,绵阳市,西科大附属小学,,46,46,57,18,27,130,,101,101,10,32,7,7,0.4,0.6
2025-04-28T1700,3492A,104.5648,31.5343,绵阳市,安州区旅游局,,41,40,44,19,20,130,,106,106,8,19,6,9,0.2,0.4
2025-04-28T1700,4226A,104.7651,31.4531,绵阳市,绵阳市气象局,颗粒物(PM10),51,52,48,20,23,120,,92,92,7,29,1,3,0.4,0.5
2025-04-28T1700,1784A,129.61,44.561,牡丹江市,环保大楼,细颗粒物(PM2.5),70,59,42,51,29,125,,105,105,17,15,6,6,0.4,0.4
2025-04-28T1700,1785A,129.6115,44.5782,牡丹江市,文化广场,细颗粒物(PM2.5),74,80,53,54,36,125,,107,107,19,19,10,12,0.7,0.6
2025-04-28T1700,1786A,129.5904,44.5963,牡丹江市,第一医院,细颗粒物(PM2.5),75,70,44,55,33,133,,,,10,10,6,7,0.4,0.3
2025-04-28T1700,1787A,129.6364,44.6075,牡丹江市,机车工厂,细颗粒物(PM2.5),69,86,56,50,35,124,,108,108,11,14,7,32,0.5,0.5
2025-04-28T1700,1788A,129.6386,44.5462,牡丹江市,第一中学,细颗粒物(PM2.5),77,78,41,56,28,132,,114,114,8,9,7,7,0.6,0.5
2025-04-28T1700,2531A,105.0703,29.61,内江市,市监测站,,46,43,37,29,33,147,,124,124,19,27,11,10,0.9,1.1
2025-04-28T1700,2532A,105.0717,29.5947,内江市,东兴区政府,,47,29,35,27,27,148,,118,118,12,22,14,12,0.8,0.9
2025-04-28T1700,2533A,105.0653,29.5817,内江市,内江二中,颗粒物(PM10),51,51,43,28,36,141,,112,112,15,24,9,7,0.5,0.6
2025-04-28T1700,2534A,105.0406,29.5822,内江市,内江日报社,,47,45,39,30,34,149,,117,117,12,22,14,11,0.4,0.4
2025-04-28T1700,2628A,92.0657,31.4846,那曲市,那曲监测站,,35,18,33,8,17,112,,100,100,8,18,6,8,0.4,0.7
2025-04-28T1700,4243A,92.0515,31.4787,那曲市,那曲市委宣传部,,38,23,32,7,15,120,,107,107,5,10,7,7,0.2,0.3
2025-04-28T1700,1290A,115.8931,28.6843,南昌市,省外办,颗粒物(PM10),53,56,38,36,30,132,,109,109,18,30,6,6,0.8,0.7
2025-04-28T1700,1291A,115.8886,28.7003,南昌市,省林业公司,颗粒物(PM10),53,56,33,34,26,144,,115,115,8,21,6,7,0.9,0.8
2025-04-28T1700,1292A,115.8126,28.7442,南昌市,林科所,颗粒物(PM10),52,53,32,29,22,152,,126,126,9,32,4,4,0.6,0.5
2025-04-28T1700,1294A,115.8518,28.687,南昌市,建工学校,颗粒物(PM10),56,61,36,25,30,140,,107,107,18,29,4,2,0.8,0.8
2025-04-28T1700,1295A,115.8921,28.6424,南昌市,象湖,颗粒物(PM10),56,61,37,34,26,139,,100,100,11,23,6,7,0.8,0.9
2025-04-28T1700,1296A,115.7423,28.7996,南昌市,武术学校,颗粒物(PM10),54,57,28,22,9,142,,124,124,6,2,4,3,0.6,0.6
2025-04-28T1700,3046A,115.9084,28.6062,南昌市,机电学校,颗粒物(PM10),62,73,44,34,28,146,,107,107,1,20,4,4,0.5,0.6
2025-04-28T1700,3690A,115.9721,28.7031,南昌市,外国语学校,颗粒物(PM10),53,56,37,28,19,143,,122,122,9,24,7,8,0.4,0.5
2025-04-28T1700,4192A,115.9316,28.68677,南昌市,南京东路235号,颗粒物(PM10),58,65,44,36,28,138,,123,123,16,29,11,9,1.1,0.9
2025-04-28T1700,1905A,106.056,30.8064,南充市,西山风景区,,,,,,,,,,,,,,,,
2025-04-28T1700,1906A,106.0789,30.8023,南充市,南充市委,,42,37,46,25,28,132,,104,104,10,28,4,4,0.5,0.6
2025-04-28T1700,1907A,106.1031,30.8217,南充市,南充炼油厂,,44,39,52,23,29,138,,104,104,7,28,4,3,0.5,0.6
2025-04-28T1700,4227A,106.1083,30.7884,南充市,梨树横街98号,,45,42,48,17,26,141,,105,105,8,25,4,3,0.2,0.3
2025-04-28T1700,4304A,106.1172,30.843,南充市,清泉寺北路188号,,42,32,46,15,21,134,,100,100,9,21,4,4,0.4,0.4
2025-04-28T1700,4305A,106.067,30.7616,南充市,同庆路1号,,42,33,49,24,28,133,,113,113,7,27,4,3,0.1,0.6
2025-04-28T1700,1151A,118.8086,32.1065,南京市,迈皋桥,,50,34,51,19,28,158,,154,154,3,58,4,4,0.2,0.4
2025-04-28T1700,1152A,118.7538,32.0551,南京市,草场门,臭氧1小时,68,56,61,31,31,174,,166,166,15,36,4,4,0.2,0.3
2025-04-28T1700,1153A,118.7794,32.0745,南京市,山西路,臭氧1小时,75,63,73,24,34,180,,169,169,20,36,6,7,0.4,0.4
2025-04-28T1700,1154A,118.7752,32.0023,南京市,中华门,臭氧1小时,58,56,65,22,32,166,,164,164,12,37,7,7,0.4,0.4
2025-04-28T1700,1155A,118.8109,32.0309,南京市,瑞金路,臭氧1小时,72,68,77,29,36,177,,170,170,5,28,6,6,0.5,0.5
2025-04-28T1700,1156A,118.7997,32.0754,南京市,玄武湖,颗粒物(PM10),54,58,62,13,30,158,,148,148,7,20,12,12,0.5,0.6
2025-04-28T1700,1157A,118.6414,32.0931,南京市,浦口,臭氧1小时,82,57,65,23,29,185,,167,167,14,22,7,8,0.4,0.6
2025-04-28T1700,1158A,118.7356,31.9996,南京市,奥体中心,臭氧1小时,85,65,65,29,32,188,,179,179,13,37,10,10,0.3,0.5
2025-04-28T1700,1159A,118.9125,32.1028,南京市,仙林大学城,,50,41,68,17,40,160,,161,161,11,41,10,12,0.4,0.6
2025-04-28T1700,3422A,118.8436,31.9198,南京市,江宁彩虹桥,臭氧1小时,77,62,60,24,31,181,,180,180,14,46,4,4,0.5,0.6
2025-04-28T1700,3427A,118.8554,32.3578,南京市,六合雄州,,45,26,61,24,36,143,,144,144,23,36,6,7,0.3,0.5
2025-04-28T1700,4249A,118.8708,31.3402,南京市,汶溪路181号,臭氧1小时,115,86,47,32,27,230,,190,190,11,20,4,6,0.8,0.9
2025-04-28T1700,4312A,119.019,31.6512,南京市,中山西路1号,臭氧1小时,106,61,50,30,29,211,,189,189,19,25,7,8,0.6,0.7
2025-04-28T1700,1401A,108.3103,22.7881,南宁市,二十一中,,41,30,23,14,14,131,,98,98,7,9,4,4,0.7,0.8
2025-04-28T1700,1402A,108.3141,22.8528,南宁市,北湖,,41,27,26,16,17,129,,98,98,11,15,7,7,0.6,0.6
2025-04-28T1700,1403A,108.3206,22.8225,南宁市,市监测站,,37,29,29,15,16,116,,88,88,11,13,6,6,0.4,0.5
2025-04-28T1700,1404A,108.3829,22.8037,南宁市,大自然花园,,40,35,23,16,14,126,,104,104,10,8,5,5,0.6,0.6
2025-04-28T1700,1405A,108.4394,22.7904,南宁市,仙葫,,34,33,21,16,13,107,,90,90,8,9,5,5,0.6,0.6
2025-04-28T1700,1406A,108.2397,22.8467,南宁市,区农职院,,41,25,28,15,14,130,,88,88,6,11,5,4,0.5,0.5
2025-04-28T1700,1407A,108.3275,22.735,南宁市,英华嘉园,,45,25,23,16,14,141,,110,110,10,12,7,7,0.5,0.5
2025-04-28T1700,3401A,108.4834,22.7618,南宁市,红星社区,,40,26,20,15,11,128,,106,106,6,7,9,8,0.4,0.4
2025-04-28T1700,4221A,108.2177,22.7774,南宁市,乐贤路16号,,37,29,27,19,17,116,,88,88,13,15,6,6,0.4,0.4
2025-04-28T1700,2331A,118.0966,26.6761,南平市,茫荡山,,,,,,,,,,,,,,,,
2025-04-28T1700,2332A,118.1681,26.6369,南平市,南平市监测站,,38,27,22,15,17,121,,96,96,6,9,5,4,0.6,0.7
2025-04-28T1700,2333A,118.1825,26.6489,南平市,南平铝业有限公司,,39,21,20,16,16,122,,95,95,4,8,4,3,0.6,0.8
2025-04-28T1700,2334A,118.1756,26.6272,南平市,南平七中,,39,22,24,16,16,123,,99,99,4,9,6,5,0.6,0.7
2025-04-28T1700,1168A,120.9098,31.9663,南通市,狼山街道,,48,48,44,21,21,146,,131,131,12,23,4,3,0.5,0.5
2025-04-28T1700,1169A,120.86,32.0005,南通市,虹桥,,45,40,42,23,28,144,,130,130,15,28,2,2,0.6,0.7
2025-04-28T1700,1170A,120.87,32.02,南通市,城中,颗粒物(PM10),51,52,50,21,21,140,,129,129,16,26,4,3,0.3,0.4
2025-04-28T1700,1171A,120.94,31.93,南通市,星湖花园,,45,43,41,19,24,143,,128,128,10,24,3,3,0.6,0.7
2025-04-28T1700,1172A,120.81,32.0417,南通市,紫琅学院,,48,48,46,20,25,130,,121,121,12,38,4,4,0.5,0.6
2025-04-28T1700,3291A,121.067,32.062,南通市,通州监测站,,48,48,44,19,19,138,,78,,8,14,4,5,0.5,0.5
2025-04-28T1700,3432A,120.9348,31.9883,南通市,环境教育馆,,48,48,46,24,24,151,,135,135,9,25,3,3,0.2,0.2
2025-04-28T1700,2404A,112.5224,33.0122,南阳市,瓦房庄,颗粒物(PM10),54,58,80,12,21,151,,142,142,10,14,6,6,0.5,0.6
2025-04-28T1700,2405A,112.5003,32.9735,南阳市,汉画馆,,46,46,71,15,24,143,,134,134,10,16,6,6,0.3,0.5
2025-04-28T1700,2406A,112.5573,33.027,南阳市,气象站,颗粒物(PM10),56,62,83,17,24,156,,143,143,8,12,6,6,0.5,0.6
2025-04-28T1700,2407A,112.5481,32.9689,南阳市,理工学院,颗粒物(PM10),52,53,76,14,23,149,,140,140,8,15,4,5,0.4,0.5
2025-04-28T1700,4008A,112.5234,32.9922,南阳市,卧龙区政府,颗粒物(PM10),52,54,77,19,29,148,,139,139,11,15,5,5,0.4,0.6
2025-04-28T1700,1234A,121.8358,29.911,宁波市,区环保大楼,,43,28,52,24,21,136,,125,125,24,37,10,10,0.4,0.5
2025-04-28T1700,1235A,121.56,29.82,宁波市,万里学院,臭氧1小时,63,39,40,25,30,170,,159,159,27,37,8,7,0.4,0.5
2025-04-28T1700,1236A,121.713,29.9572,宁波市,龙赛医院,,40,29,50,14,22,127,,123,123,19,35,6,6,0.5,0.6
2025-04-28T1700,1239A,121.633,29.7733,宁波市,钱湖水厂,臭氧1小时,63,38,43,19,25,170,,156,156,22,24,9,9,0.7,0.7
2025-04-28T1700,1240A,121.5856,29.8635,宁波市,太古小学,,49,34,48,20,25,154,,148,148,26,35,8,7,0.7,0.8
2025-04-28T1700,1241A,121.524,29.8674,宁波市,市环境监测中心,,49,35,48,19,24,154,,151,151,26,41,14,13,0.6,0.6
2025-04-28T1700,2871A,121.6147,29.9017,宁波市,万里国际学校,,47,,27,13,24,149,,148,148,34,40,11,10,0.5,0.7
2025-04-28T1700,3710A,121.5594,29.8975,宁波市,白沙活动中心,,49,30,35,16,22,156,,148,148,24,35,10,9,0.5,0.6
2025-04-28T1700,2339A,119.5001,26.6946,宁德市,金涵水库,,,,,,,,,,,,,,,,
2025-04-28T1700,2341A,119.5388,26.6612,宁德市,宁德市监测站,,42,35,30,14,30,133,,95,95,17,28,7,5,0.7,0.8
2025-04-28T1700,3209A,119.5231,26.6562,宁德市,宁德一中,,41,21,33,21,30,130,,99,99,16,17,10,7,0.9,0.6
2025-04-28T1700,2618A,98.8601,25.8567,怒江傈僳族自治州,州监测站,,41,41,40,19,19,99,,89,88,5,4,6,6,0.3,0.3
2025-04-28T1700,2619A,98.8546,25.8417,怒江傈僳族自治州,泸水一中,,,,31,23,17,80,,77,72,11,9,7,7,0.4,0.4
2025-04-28T1700,1888A,101.6891,26.571,攀枝花市,弄弄坪,细颗粒物(PM2.5),58,51,54,41,26,137,,129,129,10,15,8,13,0.5,0.8
2025-04-28T1700,1889A,101.5769,26.5928,攀枝花市,河门口,颗粒物(PM10),54,58,52,32,25,143,,140,140,10,16,13,13,0.8,0.8
2025-04-28T1700,1890A,101.7169,26.585,攀枝花市,炳草岗,,45,44,49,25,23,143,,130,130,11,19,11,17,0.4,0.5
2025-04-28T1700,1891A,101.7369,26.5008,攀枝花市,仁和,,,54,54,29,27,132,,123,123,,15,9,10,,0.5
2025-04-28T1700,2835A,101.7227,26.567,攀枝花市,四十中小,,46,41,46,24,23,146,,137,137,12,13,10,10,0.7,0.8
2025-04-28T1700,1604A,122.0303,41.1489,盘锦市,开发区,,42,42,34,21,17,129,,110,110,7,12,7,6,0.4,0.3
2025-04-28T1700,1605A,122.0485,41.0883,盘锦市,兴隆台,,,45,38,21,14,,,97,97,14,18,11,10,0.5,0.4
2025-04-28T1700,1606A,121.8297,41.1028,盘锦市,新生街道,,40,34,31,19,16,128,,111,111,12,23,9,12,0.4,0.4
2025-04-28T1700,1832A,113.3257,33.742,平顶山市,新华旅馆,臭氧1小时,59,46,86,15,27,167,,138,138,8,18,5,8,0.5,0.6
2025-04-28T1700,1833A,113.2919,33.737,平顶山市,规划设计院,臭氧1小时,54,38,76,14,26,163,,134,134,7,18,6,11,0.2,0.4
2025-04-28T1700,1834A,113.182,33.774,平顶山市,平顶山工学院,臭氧1小时,58,38,72,9,25,166,,134,134,7,18,3,8,0.2,0.4
2025-04-28T1700,3204A,113.3025,33.73,平顶山市,规划局,,50,41,81,7,24,160,,131,131,5,15,6,12,0.3,0.5
2025-04-28T1700,3594A,112.8867,33.9116,平顶山市,石龙区,,48,36,73,12,21,152,,135,135,6,33,7,7,0.1,0.3
2025-04-28T1700,2656A,106.6692,35.5461,平凉市,聚贤嘉苑,,44,44,47,13,16,127,,113,113,7,21,15,15,0.4,0.4
2025-04-28T1700,2657A,106.7021,35.5307,平凉市,博物馆,,49,49,48,12,15,131,,116,116,6,17,9,10,0.4,0.4
2025-04-28T1700,2347A,114.0997,27.5002,萍乡市,武功山,,,,10,,7,,,43,,,6,,13,,1.2
2025-04-28T1700,2348A,113.8385,27.6434,萍乡市,中医院,,49,49,37,15,20,138,,112,112,4,12,8,8,0.5,0.7
2025-04-28T1700,2349A,113.8493,27.6253,萍乡市,市政府车库,,44,44,26,30,20,138,,114,114,8,12,5,5,0.4,0.6
2025-04-28T1700,2350A,113.8676,27.6435,萍乡市,市环保局,,44,43,31,18,20,140,,116,116,6,14,4,4,0.5,0.7
2025-04-28T1700,2351A,113.866,27.6198,萍乡市,安源区政府,,45,45,30,31,17,126,,103,103,8,10,4,5,0.5,0.7
2025-04-28T1700,2319A,119.0141,25.4325,莆田市,荔城区仓后路,,40,40,48,3,33,93,,88,88,14,20,4,4,0.9,0.8
2025-04-28T1700,2320A,119.0015,25.4553,莆田市,莆田市监测站,,,,41,7,28,92,,82,82,14,12,5,7,0.7,0.6
2025-04-28T1700,2321A,119.1119,25.4561,莆田市,涵江区六中,,34,34,46,6,40,99,,90,90,15,25,5,5,0.6,0.6
2025-04-28T1700,2322A,119.1013,25.3215,莆田市,秀屿区政府,,35,35,31,3,31,105,,98,98,9,12,6,6,0.7,0.6
2025-04-28T1700,2323A,118.981,25.4792,莆田市,东圳水库,,,,,,,,,,,,,,,,
2025-04-28T1700,2392A,115.0312,35.7636,濮阳市,环保局,颗粒物(PM10),52,54,56,15,23,157,,131,131,12,19,9,9,0.7,0.7
2025-04-28T1700,2394A,115.0574,35.7609,濮阳市,油田运输公司,臭氧1小时,64,65,65,22,25,171,,143,143,14,24,8,9,0.7,0.8
2025-04-28T1700,3021A,115,35.7668,濮阳市,濮水河管理处,臭氧1小时,68,69,65,19,27,174,,144,144,8,21,8,7,0.7,0.7
2025-04-28T1700,4216A,115.0924,35.7686,濮阳市,任丘路479号,臭氧1小时,62,61,69,16,26,169,,146,146,10,21,9,9,0.7,0.8
2025-04-28T1700,2601A,100.98,22.7633,普洱市,市环保局,"颗粒物(PM10),细颗粒物(PM2.5)",69,88,105,50,47,155,,149,149,8,16,9,9,0.6,0.7
2025-04-28T1700,2602A,100.9817,22.8322,普洱市,普洱第二中学,颗粒物(PM10),61,71,81,40,40,166,,151,151,8,26,9,9,0.5,0.7
2025-04-28T1700,2262A,131.0518,45.8751,七台河市,新一中,,46,46,24,30,19,109,,98,98,12,9,12,11,0.7,0.7
2025-04-28T1700,3345A,131.0577,45.7879,七台河市,中波台,,,,28,,23,,,79,,,22,,6,,0.5
2025-04-28T1700,3637A,131.0176,45.7761,七台河市,人民广场,,48,44,36,33,30,100,,93,93,12,20,10,10,0.5,0.6
2025-04-28T1700,3684A,130.8781,45.8222,七台河市,新建矿广场,颗粒物(PM10),52,53,29,24,21,82,,76,76,21,18,9,7,0.5,0.6
2025-04-28T1700,1779A,123.9305,47.3636,齐齐哈尔市,安居小区,,39,39,35,22,19,89,,91,91,14,13,3,2,0.3,0.3
2025-04-28T1700,1780A,123.9488,47.3386,齐齐哈尔市,中心广场,,38,38,38,9,19,88,,92,92,16,11,7,7,0.3,0.3
2025-04-28T1700,1781A,123.9483,47.3227,齐齐哈尔市,农牧车辆厂,,41,41,36,6,22,93,,92,92,9,10,5,4,0.2,0.2
2025-04-28T1700,1783A,123.945,47.2988,齐齐哈尔市,市环境监测站,,30,28,32,14,23,95,,95,95,7,8,2,2,0.4,0.3
2025-04-28T1700,3662A,123.6333,47.2075,齐齐哈尔市,富区青少年活动中心,,46,46,46,22,29,87,,43,,8,12,2,3,0.4,0.5
2025-04-28T1700,2591A,107.9783,26.5747,黔东南苗族侗族自治州,市环境监测站,,35,26,24,18,16,111,,88,88,4,16,3,3,0.3,0.5
2025-04-28T1700,2881A,107.8908,26.5311,黔东南苗族侗族自治州,凯里学院,,35,34,20,19,13,112,,92,92,4,13,2,2,0.5,0.6
2025-04-28T1700,2593A,107.5228,26.2403,黔南布依族苗族自治州,小围寨,,38,19,19,9,11,121,,100,100,3,8,2,3,0.2,0.3
2025-04-28T1700,3538A,107.5175,26.2978,黔南布依族苗族自治州,沙坝,,,,26,12,12,124,,16,,,12,4,4,,0.5
2025-04-28T1700,2589A,104.9022,25.0925,黔西南布依族苗族自治州,场坝街,,39,10,29,3,15,123,,108,108,13,13,4,6,0.4,0.4
2025-04-28T1700,2590A,104.8811,25.0992,黔西南布依族苗族自治州,坪东大道,,39,13,22,9,25,123,,108,108,10,11,3,6,0.3,0.3
2025-04-28T1700,2502A,108.6236,21.9667,钦州市,市环保站,,30,19,24,12,9,93,,83,83,10,18,2,3,0.7,1
2025-04-28T1700,2503A,108.6549,21.9481,钦州市,沙埠小学,,36,36,31,18,14,96,,77,77,8,20,4,7,0.8,0.8
2025-04-28T1700,2504A,108.5989,21.7431,钦州市,港区一小,,39,39,41,16,16,89,,75,75,17,26,8,9,0.8,0.7
2025-04-28T1700,3404A,108.5959,21.9633,钦州市,北职校,,29,17,30,12,14,90,,73,73,10,20,7,7,0.7,0.7
2025-04-28T1700,1043A,119.7493,40.0116,秦皇岛市,第一关,,46,44,44,32,22,101,,95,95,7,30,4,6,0.3,0.3
2025-04-28T1700,1044A,119.5897,39.9499,秦皇岛市,监测站,,42,42,57,17,15,102,,92,92,6,19,2,6,0.3,0.5
2025-04-28T1700,1046A,119.5251,39.9041,秦皇岛市,建设大厦,,46,46,64,11,15,100,,93,93,10,27,3,8,0.3,0.5
2025-04-28T1700,3132A,119.610547,39.943889,秦皇岛市,文明里,,,,55,,17,97,,90,90,12,23,,6,,0.3
2025-04-28T1700,4198A,119.5090,39.8253,秦皇岛市,北戴河轮滑馆,,41,41,40,21,16,106,,92,92,6,16,1,5,0.2,0.3
2025-04-28T1700,1307A,120.6659,36.2403,青岛市,仰口,,,95,44,,22,154,,143,143,26,12,9,7,0.5,0.4
2025-04-28T1700,1310A,120.4134,36.0658,青岛市,市南区东部子站,颗粒物(PM10),53,56,55,27,22,134,,123,123,29,28,8,9,0.5,0.5
2025-04-28T1700,1311A,120.3664,36.1032,青岛市,四方区子站,臭氧1小时,74,61,54,34,25,179,,154,154,27,27,11,9,0.6,0.6
2025-04-28T1700,1312A,120.2994,36.054,青岛市,市南区西部子站,颗粒物(PM10),57,63,51,24,24,123,,140,138,55,34,10,9,0.7,0.8
2025-04-28T1700,1313A,120.4581,36.0858,青岛市,崂山区子站,颗粒物(PM10),56,61,47,36,18,122,,117,117,32,27,9,10,0.7,0.5
2025-04-28T1700,1315A,120.3999,36.3083,青岛市,城阳区子站,,46,46,56,15,24,147,,140,140,11,25,6,6,0.5,0.5
2025-04-28T1700,1966A,120.0405,35.8735,青岛市,黄岛区4号,,37,36,43,14,18,118,,130,130,32,23,10,10,0.7,0.7
2025-04-28T1700,3362A,120.5014,36.4034,青岛市,即墨2号,颗粒物(PM10),51,52,56,23,25,158,,141,141,13,18,11,10,0.5,0.6
2025-04-28T1700,3642A,120.3503,36.0736,青岛市,市北区南部,颗粒物(PM10),59,67,62,27,25,156,,132,132,20,23,8,8,0.7,0.7
2025-04-28T1700,3643A,120.3948,36.1805,青岛市,李沧区北部,颗粒物(PM10),57,63,58,27,29,156,,135,135,29,32,10,10,0.7,0.6
2025-04-28T1700,4290A,120.1969,35.9546,青岛市,珠江路669号,,46,46,54,29,30,129,,132,132,24,33,8,9,0.6,0.7
2025-04-28T1700,1702A,113.0426,23.691,清远市,环保大楼,,36,15,37,12,15,113,,86,86,9,18,6,5,0.7,0.8
2025-04-28T1700,1703A,113.0208,23.7106,清远市,凤城街办,,29,10,20,9,14,91,,75,75,9,24,6,5,0.6,0.7
2025-04-28T1700,3025A,113.0477,23.6344,清远市,技师学院,,32,11,25,6,14,102,,77,77,9,21,7,6,0.7,0.7
2025-04-28T1700,3318A,112.9903,23.7403,清远市,清新太和,,29,11,19,7,13,90,,77,77,4,23,7,6,0.6,0.7
2025-04-28T1700,3455A,113.076,23.7198,清远市,清城东城,,34,15,25,10,15,107,,80,80,6,15,8,7,0.9,0.9
2025-04-28T1700,2661A,107.6325,35.7357,庆阳市,庆阳五中,,38,15,29,9,4,120,,113,113,2,6,2,3,0.3,0.2
2025-04-28T1700,2662A,107.6364,35.7067,庆阳市,市环保局,,39,19,33,3,7,122,,115,115,2,6,4,6,0.4,0.5
2025-04-28T1700,1916A,103.7897,25.5035,曲靖市,环境监测站,,46,41,43,21,18,147,,119,119,13,13,6,7,0.3,0.4
2025-04-28T1700,1917A,103.8,25.5364,曲靖市,烟厂办公区,,47,32,40,15,18,150,,118,118,8,11,5,7,0.4,0.5
2025-04-28T1700,3376A,103.7947,25.462,曲靖市,南苑二区,,45,33,42,15,20,144,,118,118,9,12,6,6,0.4,0.5
2025-04-28T1700,3377A,103.7444,25.5261,曲靖市,曲靖师范学院,,45,,42,20,24,144,,114,114,9,13,8,10,0.4,0.5
2025-04-28T1700,1264A,118.8692,28.9398,衢州市,环保大楼,,44,32,36,18,22,139,,120,120,9,14,4,4,0.6,0.6
2025-04-28T1700,1265A,118.8709,28.9666,衢州市,实验学校,,44,26,31,15,22,140,,114,114,13,21,7,5,0.5,0.5
2025-04-28T1700,1266A,118.8621,28.9808,衢州市,衢州学院,,44,28,33,16,24,140,,115,115,10,21,5,4,0.5,0.5
2025-04-28T1700,1611A,118.5819,24.9117,泉州市,涂山街,,31,22,50,13,48,98,,112,112,10,28,4,6,0.7,0.7
2025-04-28T1700,1612A,118.5972,24.8978,泉州市,津头埔,,31,18,49,11,45,97,,114,114,17,37,3,5,0.7,0.7
2025-04-28T1700,1613A,118.6663,24.9424,泉州市,万安,,35,14,45,8,37,109,,113,113,12,24,5,5,0.8,0.7
2025-04-28T1700,1614A,118.6117,24.9604,泉州市,清源山,,,,,,,,,,,,,,,,
2025-04-28T1700,3529A,118.6333,24.9264,泉州市,城华南路,,31,16,46,12,37,98,,82,82,15,26,4,3,0.7,0.6
2025-04-28T1700,2626A,88.8876,29.2718,日喀则市,日喀则监测站,,46,20,21,7,10,145,,150,149,3,4,7,5,0.3,0.4
2025-04-28T1700,3726A,88.8781,29.2426,日喀则市,林业技术推广中心,,42,22,25,3,9,134,,138,137,2,2,6,6,0.5,0.5
2025-04-28T1700,1659A,119.471,35.4209,日照市,监测站,,39,29,45,7,23,123,,116,116,20,24,6,6,0.5,0.6
2025-04-28T1700,1660A,119.523,35.4216,日照市,市政府广场,,43,24,43,11,19,136,,121,121,13,18,5,5,0.5,0.5
2025-04-28T1700,1661A,119.5587,35.4044,日照市,港务局,颗粒物(PM10),53,56,48,28,33,117,,112,112,30,21,7,7,0.6,0.7
2025-04-28T1700,3507A,119.5328,35.4625,日照市,职业技术学院,,44,34,44,3,19,139,,127,127,11,16,6,6,0.5,0.6
2025-04-28T1700,3604A,119.3266,35.1044,日照市,岚山环保分局,,39,36,58,16,31,123,,119,119,19,32,6,25,0.6,2.2
2025-04-28T1700,1835A,111.1922,34.7752,三门峡市,市政府,,49,42,59,16,22,154,,118,118,14,27,7,11,0.5,0.7
2025-04-28T1700,1836A,111.1587,34.7942,三门峡市,开发区,,,38,59,14,23,152,,118,118,,17,7,9,0.5,0.6
2025-04-28T1700,1838A,111.143,34.7955,三门峡市,风景区,颗粒物(PM10),52,54,62,17,21,155,,122,122,9,13,9,11,0.3,0.5
2025-04-28T1700,3039A,111.1911,34.7829,三门峡市,三门峡市第一小学,颗粒物(PM10),60,70,72,19,19,164,,126,126,12,18,6,8,0.4,0.6
2025-04-28T1700,3598A,111.1,34.7167,三门峡市,富达温泉假日酒店,,50,45,68,25,22,157,,127,127,10,24,7,7,0.5,0.6
2025-04-28T1700,2324A,117.6211,26.2625,三明市,三钢,,36,32,26,12,18,113,,91,91,7,19,3,4,0.4,0.9
2025-04-28T1700,2325A,117.635,26.2714,三明市,三明二中,,34,27,27,10,24,108,,89,89,7,18,2,3,0.4,0.8
2025-04-28T1700,2326A,117.6028,26.2378,三明市,三元区政府,,37,28,24,9,21,117,,94,94,9,19,1,2,0.4,0.9
2025-04-28T1700,2327A,117.7275,26.3108,三明市,洋溪,,,,,,,,,,,,,,,,
