timepoint,stationcode,longitude,latitude,area,positionname,primarypollutant,aqi,pm10,pm10_24h,pm2_5,pm2_5_24h,o3,o3_24h,o3_8h,o3_8h_24h,no2,no2_24h,so2,so2_24h,co,co_24h
2026-01-31T0000,2568A,102.2503,31.8896,阿坝藏族羌族自治州,马师校,,25,25,36,10,14,52,,88,72,13,9,5,4,0.5,0.5
2026-01-31T0000,3994A,102.2174,31.9016,阿坝藏族羌族自治州,马尔康中学西区,,19,17,28,9,12,58,,86,78,12,8,7,7,0.7,0.7
2026-01-31T0000,2695A,80.2899,41.1684,阿克苏地区,电视台,细颗粒物(PM2.5),173,290,237,131,62,8,,79,66,82,22,15,11,2.4,0.9
2026-01-31T0000,2696A,80.2592,41.1541,阿克苏地区,艺术中心,颗粒物(PM10),128,206,216,89,93,38,,83,70,50,28,9,5,0.8,0.6
2026-01-31T0000,2205A,105.699,38.8409,阿拉善盟,蒙二幼,颗粒物(PM10),138,226,174,46,44,55,,74,64,11,13,9,11,0.6,0.6
2026-01-31T0000,2206A,105.7198,38.8508,阿拉善盟,环保局新楼,颗粒物(PM10),131,212,160,48,44,64,,68,63,5,11,8,9,0.4,0.5
2026-01-31T0000,2708A,88.1266,47.8515,阿勒泰地区,市站,,28,28,31,19,17,47,,57,40,26,38,2,6,0.6,0.4
2026-01-31T0000,4166A,88.1198,47.7931,阿勒泰地区,阿勒泰路33号,,39,39,27,17,14,46,,77,56,34,30,9,11,0.5,0.5
2026-01-31T0000,2630A,80.1171,32.4999,阿里地区,阿里监测站,,19,6,3,3,3,58,,82,77,15,5,13,8,0.5,0.3
2026-01-31T0000,3192A,80.0906,32.5029,阿里地区,阿里藏医院,,26,6,11,3,7,81,,83,83,2,5,7,13,0.2,0.6
2026-01-31T0000,2644A,109.0088,32.6974,安康市,汉滨区检察院,,40,35,31,28,29,17,,63,36,20,16,6,6,1.2,1.1
2026-01-31T0000,4054A,109.0324,32.6913,安康市,市邮政管理局,,36,36,38,25,27,23,,66,35,24,24,4,4,0.9,0.9
2026-01-31T0000,2291A,117.0806,30.5181,安庆市,环科院,,18,17,16,12,10,55,,60,53,9,11,5,5,0.4,0.5
2026-01-31T0000,2292A,117.0331,30.5118,安庆市,马山宾馆,,20,,16,14,13,56,,56,53,14,18,4,4,0.6,0.6
2026-01-31T0000,2294A,116.9897,30.6146,安庆市,安庆大学,,19,15,13,10,8,60,,64,60,12,15,3,3,0.5,0.5
2026-01-31T0000,3173A,117.0598,30.5351,安庆市,市人大,,18,18,17,7,11,55,,59,54,9,13,4,4,0.4,0.5
2026-01-31T0000,3123A,105.9408,26.2431,安顺市,凤凰山,,23,21,26,16,22,40,,64,47,12,12,13,12,0.8,0.8
2026-01-31T0000,3124A,105.9443,26.2567,安顺市,金钟山,,26,19,24,18,18,40,,62,47,10,11,10,12,0.8,0.8
2026-01-31T0000,3125A,105.8983,26.248,安顺市,娄家坡,,20,20,24,11,21,39,,65,49,11,12,12,18,0.9,0.9
2026-01-31T0000,1819A,114.3552,36.1017,安阳市,红庙街,细颗粒物(PM2.5),134,104,98,102,86,34,,66,51,22,25,1,2,0.9,0.9
2026-01-31T0000,1820A,114.361,36.0681,安阳市,银杏小区,细颗粒物(PM2.5),147,114,96,112,95,35,,71,53,23,23,6,4,0.9,0.9
2026-01-31T0000,3141A,114.3921,36.0879,安阳市,信访局,细颗粒物(PM2.5),138,119,99,105,94,40,,77,59,15,17,4,4,0.8,0.8
2026-01-31T0000,3669A,114.4706,36.0634,安阳市,左辅环卫站,细颗粒物(PM2.5),137,120,110,104,90,36,,77,57,23,24,4,4,0.7,0.7
2026-01-31T0000,4117A,114.2918,36.0769,安阳市,钢三路198号,细颗粒物(PM2.5),152,146,132,116,103,24,,58,44,24,24,3,4,0.8,0.8
2026-01-31T0000,1748A,123.0441,41.1201,鞍山市,深沟寺,,49,45,41,34,25,45,,64,50,23,29,6,10,0.8,0.9
2026-01-31T0000,1749A,123.011,41.0931,鞍山市,太阳城,细颗粒物(PM2.5),67,59,50,48,32,42,,61,52,27,32,12,16,0.9,1
2026-01-31T0000,1750A,123.0483,41.1445,鞍山市,太平,颗粒物(PM10),54,58,63,31,32,44,,60,41,24,34,10,11,0.5,0.7
2026-01-31T0000,1751A,122.964,41.0968,鞍山市,铁西三道街,颗粒物(PM10),73,95,89,51,48,23,,59,37,52,52,16,17,0.8,1.2
2026-01-31T0000,1753A,123.0219,41.0822,鞍山市,明达新区,颗粒物(PM10),51,52,50,31,30,45,,65,55,30,33,12,15,0.8,1.1
2026-01-31T0000,4201A,122.944647,41.082639,鞍山市,兴盛南路290号,颗粒物(PM10),84,117,114,48,53,14,,56,24,58,56,22,18,1.1,1.5
2026-01-31T0000,2195A,107.4206,40.7609,巴彦淖尔市,附二中,,38,38,64,14,32,45,,69,57,14,22,12,12,0.3,0.5
2026-01-31T0000,2196A,107.37,40.7372,巴彦淖尔市,市环保大楼,,40,40,71,16,34,52,,68,61,16,25,11,8,0.4,0.7
2026-01-31T0000,1956A,86.1476,41.7529,巴音郭楞蒙古自治州,孔雀公园,颗粒物(PM10),68,85,117,34,32,5,,69,51,43,16,7,7,0.7,0.5
2026-01-31T0000,1957A,86.1971,41.7166,巴音郭楞蒙古自治州,棉纺厂,颗粒物(PM10),95,139,163,44,38,2,,71,50,65,31,/,/,/,/
2026-01-31T0000,1958A,86.236,41.7172,巴音郭楞蒙古自治州,经济开发区,颗粒物(PM10),168,286,139,19,21,10,,67,49,31,8,4,4,0.5,0.4
2026-01-31T0000,3181A,106.776805,31.852614,巴中市,市五中,,46,39,24,32,15,11,,57,,21,18,5,5,0.9,1
2026-01-31T0000,3183A,106.7419,31.8654,巴中市,圣泉水务公司,,43,34,26,30,15,6,,60,33,37,28,3,3,1.1,0.9
2026-01-31T0000,3616A,106.7617,31.8343,巴中市,市中心医院,,46,44,21,32,16,11,,60,40,33,20,5,5,1.0,0.9
2026-01-31T0000,2235A,122.7909,45.608,白城市,洮北区环保局,细颗粒物(PM2.5),93,,42,69,27,30,,67,39,38,23,8,6,0.7,0.5
2026-01-31T0000,2236A,122.8741,45.5725,白城市,市环保局,颗粒物(PM10),56,61,39,37,19,10,,67,18,50,27,10,6,0.5,0.3
2026-01-31T0000,2231A,126.4219,41.9172,白山市,喜丰,细颗粒物(PM2.5),57,57,59,40,34,22,,66,31,50,34,14,15,1.1,0.9
2026-01-31T0000,2232A,126.4082,41.9416,白山市,环保局,,36,36,46,22,36,44,,61,37,21,27,11,14,0.8,0.9
2026-01-31T0000,2647A,104.1727,36.5448,白银市,第三小学,颗粒物(PM10),145,239,182,78,63,24,,61,47,38,22,10,12,1.0,0.8
2026-01-31T0000,2648A,104.1467,36.5482,白银市,动力公司,颗粒物(PM10),146,241,177,66,59,38,,70,50,22,17,7,7,0.6,0.7
2026-01-31T0000,2512A,106.6102,23.901,百色市,市监测站,,32,30,41,22,34,38,,40,34,12,18,8,11,0.9,0.8
2026-01-31T0000,2513A,106.6524,23.8842,百色市,市中心血站,,39,39,52,20,37,38,,46,37,9,20,7,12,0.8,1
2026-01-31T0000,4133A,106.6273,23.8798,百色市,龙景西路,,32,32,62,20,34,35,,43,34,12,21,7,11,0.7,0.7
2026-01-31T0000,2270A,117.396,32.9389,蚌埠市,工人疗养院,,44,44,43,23,25,53,,75,56,17,16,3,3,0.4,0.4
2026-01-31T0000,2271A,117.3606,32.9428,蚌埠市,百货大楼,,42,42,42,26,26,57,,73,58,13,13,5,5,0.4,0.4
2026-01-31T0000,2273A,117.4183,32.8909,蚌埠市,蚌埠学院,,43,39,35,30,27,48,,65,49,25,26,3,3,0.4,0.4
2026-01-31T0000,2274A,117.3534,32.9672,蚌埠市,淮上区政府,,41,41,39,28,30,46,,77,59,23,14,3,4,0.3,0.4
2026-01-31T0000,2275A,117.3143,32.8977,蚌埠市,高新区,,46,41,37,32,28,53,,73,56,15,12,4,5,0.4,0.4
2026-01-31T0000,3715A,117.3091,32.9314,蚌埠市,蚌埠田家炳中学,,46,46,45,26,28,54,,75,60,17,13,3,3,0.3,0.3
2026-01-31T0000,1585A,109.8761,40.6533,包头市,市环境监测站,,22,22,60,14,26,64,,73,66,13,34,5,9,0.4,0.8
2026-01-31T0000,1587A,109.9992,40.5843,包头市,包头八中,,35,35,71,9,34,67,,74,64,8,33,4,8,0.3,0.7
2026-01-31T0000,1589A,109.8641,40.6288,包头市,惠龙物流,,22,17,72,10,29,68,,78,71,14,36,7,12,0.5,1
2026-01-31T0000,1590A,110.0376,40.5546,包头市,东河鸿龙湾,,20,17,58,3,30,61,,71,62,18,42,6,11,0.3,0.8
2026-01-31T0000,3283A,109.9154,40.5684,包头市,滨河大厦,,19,7,62,3,35,59,,70,64,18,39,10,10,0.5,0.9
2026-01-31T0000,3419A,109.9449,40.6259,包头市,包头市委党校,,20,17,51,10,23,64,,74,68,14,35,10,11,0.5,0.8
2026-01-31T0000,3683A,109.8332,40.6577,包头市,昆区政府,,19,19,58,12,26,58,,73,66,19,37,6,12,0.6,1
2026-01-31T0000,1931A,107.0802,34.3129,宝鸡市,竹园沟,细颗粒物(PM2.5),59,60,58,42,52,9,,32,19,19,21,6,6,0.7,0.9
2026-01-31T0000,1933A,107.1429,34.3549,宝鸡市,监测站,细颗粒物(PM2.5),117,,66,88,72,1,,29,13,40,30,5,4,1.0,0.9
2026-01-31T0000,1934A,107.1172,34.3759,宝鸡市,技工学校,细颗粒物(PM2.5),104,83,62,78,59,4,,37,18,37,29,4,3,1.1,1
2026-01-31T0000,1936A,107.2025,34.3518,宝鸡市,文理学院,细颗粒物(PM2.5),117,95,66,88,66,4,,32,17,43,30,4,3,1.1,0.9
2026-01-31T0000,1937A,107.2396,34.3626,宝鸡市,三迪小学,细颗粒物(PM2.5),112,86,65,84,68,6,,34,15,43,34,3,3,1.1,1
2026-01-31T0000,4155A,107.1721,34.3558,宝鸡市,滨河北路,细颗粒物(PM2.5),103,110,71,77,59,1,,31,14,37,23,5,5,1.2,1
2026-01-31T0000,4308A,107.3898,34.3601,宝鸡市,陈仓区北开路21号,细颗粒物(PM2.5),115,92,74,87,75,14,,32,20,30,31,5,6,0.8,0.9
2026-01-31T0000,1051A,115.4803,38.8568,保定市,游泳馆,细颗粒物(PM2.5),139,110,104,106,92,33,,56,38,47,40,6,4,0.7,0.6
2026-01-31T0000,1052A,115.509,38.8895,保定市,华电二区,细颗粒物(PM2.5),133,111,92,101,81,15,,54,41,52,33,6,4,0.9,0.8
2026-01-31T0000,1053A,115.4588,38.9037,保定市,接待中心,细颗粒物(PM2.5),128,113,105,97,84,26,,55,45,37,24,3,2,0.5,0.4
2026-01-31T0000,1054A,115.4484,38.8344,保定市,地表水厂,细颗粒物(PM2.5),130,149,121,99,80,14,,55,38,62,40,6,6,0.6,0.6
2026-01-31T0000,3581A,115.3136,38.9511,保定市,满城区生态环境分局,细颗粒物(PM2.5),129,134,127,98,88,25,,47,40,41,36,4,3,0.7,0.7
2026-01-31T0000,3582A,115.4709,38.7628,保定市,清苑区第二中学,细颗粒物(PM2.5),123,140,134,93,87,30,,54,29,52,44,9,7,0.8,0.8
2026-01-31T0000,3583A,115.6231,39.0223,保定市,徐水物探局,细颗粒物(PM2.5),144,154,136,110,92,3,,54,36,64,40,4,4,0.7,0.7
2026-01-31T0000,4004A,115.4199,38.8665,保定市,双鹰农机,细颗粒物(PM2.5),134,151,131,102,85,28,,64,46,51,33,7,7,0.8,0.7
2026-01-31T0000,4034A,115.515,38.8589,保定市,植保所站,细颗粒物(PM2.5),132,118,110,100,85,5,,52,30,79,47,3,2,0.8,0.8
2026-01-31T0000,2594A,99.1589,25.1137,保山市,市环境监测站,,27,27,30,12,17,68,,90,76,6,9,4,4,0.2,0.3
2026-01-31T0000,2595A,99.1616,25.1381,保山市,市环保局,,28,23,33,19,18,72,,90,79,4,6,3,3,0.4,0.5
2026-01-31T0000,1867A,109.1435,21.4085,北海市,海滩公园,,50,50,42,24,18,49,,107,73,26,19,5,6,1.0,1
2026-01-31T0000,1868A,109.0983,21.466,北海市,新市环保局,,33,31,34,23,16,60,,100,86,34,15,8,7,0.8,0.7
2026-01-31T0000,1869A,109.1775,21.5232,北海市,北海工业园,,22,21,41,9,20,69,,104,91,15,13,5,6,0.6,0.6
2026-01-31T0000,3400A,109.1844,21.4396,北海市,龙潭自来水厂,细颗粒物(PM2.5),64,60,38,46,20,19,,98,63,38,11,8,3,1.0,0.7
2026-01-31T0000,1001A,116.3611,39.8786,北京市,万寿西宫,细颗粒物(PM2.5),158,155,121,120,87,36,,61,42,30,42,2,3,0.9,0.9
2026-01-31T0000,1003A,116.4174,39.9289,北京市,东四,细颗粒物(PM2.5),133,144,121,101,84,2,,47,15,62,45,5,5,1.0,0.8
2026-01-31T0000,1004A,116.4073,39.8858,北京市,天坛,细颗粒物(PM2.5),137,139,113,104,82,15,,58,31,54,47,2,2,1.1,0.9
2026-01-31T0000,1005A,116.4622,39.9364,北京市,农展馆,细颗粒物(PM2.5),135,136,116,103,84,5,,53,20,59,43,4,4,1.1,0.9
2026-01-31T0000,1006A,116.3399,39.9293,北京市,官园,细颗粒物(PM2.5),134,140,123,102,89,0,,44,11,71,50,3,4,1.2,0.9
2026-01-31T0000,1007A,116.2879,39.9613,北京市,海淀万柳,细颗粒物(PM2.5),135,139,126,103,86,1,,5,1,68,65,3,3,1.0,1
2026-01-31T0000,1008A,116.6635,40.1349,北京市,顺义新城,细颗粒物(PM2.5),138,153,139,105,89,2,,28,8,62,55,5,5,1.1,1
2026-01-31T0000,1009A,116.6275,40.327,北京市,怀柔镇,细颗粒物(PM2.5),128,130,104,97,74,10,,21,9,49,42,4,4,0.9,0.9
2026-01-31T0000,1010A,116.2295,40.217,北京市,昌平镇,细颗粒物(PM2.5),133,148,121,101,84,3,,11,4,62,55,2,3,1.2,1
2026-01-31T0000,1011A,116.3968,39.982,北京市,奥体中心,细颗粒物(PM2.5),135,145,126,103,86,1,,16,2,82,75,5,5,1.1,1.1
2026-01-31T0000,3418A,116.8336,40.4095,北京市,密云新城,细颗粒物(PM2.5),142,156,111,108,73,8,,30,14,51,36,4,4,1.1,0.9
2026-01-31T0000,3671A,116.0879,39.9725,北京市,门头沟三家店,细颗粒物(PM2.5),133,144,122,101,82,2,,27,5,55,48,3,3,1.1,1
2026-01-31T0000,3672A,116.1507,39.8246,北京市,丰台云岗,细颗粒物(PM2.5),143,137,138,109,91,2,,41,24,68,50,4,4,1.1,0.9
2026-01-31T0000,3674A,115.9578,39.7602,北京市,房山燕山,细颗粒物(PM2.5),168,157,141,127,103,22,,33,24,22,33,4,5,1.0,0.9
2026-01-31T0000,3675A,116.4669,39.7734,北京市,大兴旧宫,细颗粒物(PM2.5),87,110,110,64,67,2,,63,38,67,46,3,4,1.0,0.9
2026-01-31T0000,3694A,115.9859,40.4562,北京市,延庆石河营,细颗粒物(PM2.5),138,156,112,105,81,3,,27,8,59,47,3,3,1.5,0.9
2026-01-31T0000,3695A,116.6151,40.3052,北京市,怀柔新城,细颗粒物(PM2.5),135,134,108,103,82,7,,24,9,50,37,4,5,0.9,0.8
2026-01-31T0000,3696A,116.2542,39.8764,北京市,丰台小屯,细颗粒物(PM2.5),133,142,127,101,89,1,,39,17,69,53,4,4,1.2,0.9
2026-01-31T0000,3697A,116.8399,40.3843,北京市,密云镇,细颗粒物(PM2.5),144,145,108,110,75,2,,26,11,65,51,3,3,1.1,0.8
2026-01-31T0000,4057A,115.9423,40.4431,北京市,延庆百泉,细颗粒物(PM2.5),122,128,108,92,78,0,,28,6,54,43,2,2,1.0,0.8
2026-01-31T0000,4058A,116.6598,39.9164,北京市,通州新华,细颗粒物(PM2.5),138,166,132,105,85,1,,38,20,74,61,4,4,1.2,1
2026-01-31T0000,4182A,116.1942,39.9158,北京市,石景山八角,细颗粒物(PM2.5),124,144,137,94,87,4,,35,14,68,54,2,3,1.1,0.9
2026-01-31T0000,4194A,117.078628,40.151726,北京市,平谷新城,细颗粒物(PM2.5),145,144,128,111,95,17,,42,29,37,33,3,5,1.1,1
2026-01-31T0000,1761A,123.8274146,41.31234549,本溪市,大峪,细颗粒物(PM2.5),79,97,88,58,57,8,,55,32,63,40,7,9,1.6,1.8
2026-01-31T0000,1763A,123.7169,41.3094,本溪市,彩屯,细颗粒物(PM2.5),97,103,94,72,56,22,,61,37,44,37,7,8,1.4,1.4
2026-01-31T0000,1764A,123.7672166,41.28649327,本溪市,东明,细颗粒物(PM2.5),109,,91,82,76,7,,54,27,68,51,7,10,1.7,2
2026-01-31T0000,1765A,123.799345,41.266614,本溪市,新立屯,细颗粒物(PM2.5),54,44,75,38,56,10,,22,,63,49,13,12,2.7,3
2026-01-31T0000,1766A,123.829144,41.336777,本溪市,威宁,颗粒物(PM10),89,128,98,61,62,3,,41,12,57,48,4,7,1.4,1.5
2026-01-31T0000,2587A,105.287,27.3133,毕节市,八中,,13,,18,9,17,38,,53,39,11,12,8,8,0.9,0.9
2026-01-31T0000,2588A,105.3079,27.2987,毕节市,师专,,13,6,20,3,14,40,,59,42,11,14,8,8,0.8,0.8
2026-01-31T0000,4263A,105.3688,27.3598,毕节市,工业大道,,13,,19,7,17,41,,57,40,9,13,9,9,/,/
2026-01-31T0000,1629A,117.9961,37.3604,滨州市,第二水厂,颗粒物(PM10),53,56,45,26,23,20,,60,39,50,25,16,13,0.3,0.6
2026-01-31T0000,1630A,117.9789,37.3931,滨州市,北中新校,颗粒物(PM10),60,70,52,41,24,23,,64,44,43,25,12,9,0.7,0.5
2026-01-31T0000,3514A,117.9379,37.3959,滨州市,中海酒店,细颗粒物(PM2.5),58,61,45,41,24,24,,58,42,44,24,13,11,0.8,0.7
2026-01-31T0000,3515A,117.9381509,37.35547456,滨州市,开发区一中,颗粒物(PM10),62,73,59,36,24,17,,62,,47,22,18,14,0.7,0.6
2026-01-31T0000,3516A,118.0914,37.6938,滨州市,金海六路,细颗粒物(PM2.5),60,66,45,43,21,32,,82,54,47,29,21,14,0.7,0.6
2026-01-31T0000,4028A,117.9955,37.3752,滨州市,滨州市西街道办事处,细颗粒物(PM2.5),58,58,44,41,30,26,,66,44,38,22,17,13,0.7,0.6
2026-01-31T0000,2311A,115.8071,33.8399,亳州市,污水处理厂,细颗粒物(PM2.5),99,98,79,74,58,30,,62,35,27,19,4,3,0.6,0.5
2026-01-31T0000,2312A,115.7789,33.8519,亳州市,三国揽胜宫,细颗粒物(PM2.5),120,117,94,91,62,13,,57,33,41,19,4,3,0.7,0.5
2026-01-31T0000,3332A,115.7631,33.803,亳州市,亳州学院,细颗粒物(PM2.5),110,106,85,83,64,4,,63,35,43,18,3,2,0.8,0.6
2026-01-31T0000,2693A,82.0482,44.8553,博尔塔拉蒙古自治州,市党校,细颗粒物(PM2.5),139,180,180,106,117,95,,106,104,23,28,3,6,1.0,1.1
2026-01-31T0000,2694A,82.0805,44.8966,博尔塔拉蒙古自治州,市环保局,细颗粒物(PM2.5),152,164,185,116,137,84,,89,85,25,29,6,8,1.2,1.2
2026-01-31T0000,1071A,116.8733,38.2922,沧州市,沧县城建局,细颗粒物(PM2.5),84,98,71,62,44,5,,73,33,84,43,7,6,0.6,0.4
2026-01-31T0000,1072A,116.8462,38.3189,沧州市,电视转播站,细颗粒物(PM2.5),103,93,62,77,50,2,,75,47,82,33,3,5,0.8,0.6
2026-01-31T0000,1073A,116.8588,38.3161,沧州市,市环保局,细颗粒物(PM2.5),89,108,71,66,44,3,,62,36,78,36,9,8,0.8,0.6
2026-01-31T0000,3324A,116.8011,38.294,沧州市,河北水利电力学院,细颗粒物(PM2.5),117,117,65,88,50,4,,64,38,90,30,8,6,0.9,0.4
2026-01-31T0000,2622A,97.1813,31.1289,昌都市,昌都监测站,,30,30,27,8,14,52,,93,77,12,10,3,3,0.4,0.5
2026-01-31T0000,3719A,97.1707,31.1428,昌都市,昌都会议中心,,18,14,13,9,8,56,,80,74,2,3,5,5,0.2,0.2
2026-01-31T0000,2692A,87.2722,44.0298,昌吉回族自治州,新区政务中心,细颗粒物(PM2.5),110,102,146,83,106,37,,50,48,38,35,7,8,1.1,1.4
2026-01-31T0000,3613A,87.3069,44.0093,昌吉回族自治州,亚心广场,细颗粒物(PM2.5),119,105,141,90,112,52,,50,48,20,24,6,7,1.0,1.2
2026-01-31T0000,4164A,87.2057,43.9289,昌吉回族自治州,财政所,细颗粒物(PM2.5),104,107,87,78,74,58,,58,58,17,41,5,5,1.0,1.2
2026-01-31T0000,1120A,125.2874,43.9024,长春市,客车厂,细颗粒物(PM2.5),92,96,75,68,58,18,,54,29,70,57,14,11,1.2,0.8
2026-01-31T0000,1121A,125.2943,43.8508,长春市,邮电学院,细颗粒物(PM2.5),87,87,81,64,60,15,,52,34,65,49,8,12,1.3,0.9
2026-01-31T0000,1122A,125.3648,43.8745,长春市,劳动公园,细颗粒物(PM2.5),93,110,88,69,59,37,,56,34,42,46,6,8,1.5,1.3
2026-01-31T0000,1123A,125.3233,43.8781,长春市,园林处,细颗粒物(PM2.5),110,91,81,83,62,14,,50,29,67,49,15,18,1.2,0.8
2026-01-31T0000,1124A,125.4604,43.7904,长春市,净月潭,细颗粒物(PM2.5),68,63,66,49,51,50,,61,50,23,25,5,7,0.8,0.7
2026-01-31T0000,1126A,125.38,43.8422,长春市,经开区环卫处,细颗粒物(PM2.5),102,102,83,76,61,4,,54,28,78,52,5,6,1.1,0.9
2026-01-31T0000,1127A,125.234,43.7761,长春市,高新区管委会,细颗粒物(PM2.5),139,131,92,106,70,14,,64,26,75,51,7,8,1.5,1
2026-01-31T0000,1128A,125.1695,43.83,长春市,岱山公园,细颗粒物(PM2.5),84,84,96,62,69,16,,67,27,64,52,9,8,1.2,0.9
2026-01-31T0000,4281A,125.334645,43.916281,长春市,北亚泰大街1068号,细颗粒物(PM2.5),117,119,85,88,66,6,,50,23,75,59,10,11,1.1,0.7
2026-01-31T0000,1335A,113.082,28.2421,长沙市,经开区环保局,,35,27,28,24,20,29,,22,22,18,22,2,2,0.4,0.6
2026-01-31T0000,1336A,112.8873,28.2202,长沙市,高开区环保局,细颗粒物(PM2.5),69,,32,50,26,24,,30,25,19,19,4,4,0.6,0.7
2026-01-31T0000,1337A,113.0785,28.2012,长沙市,马坡岭,,48,36,32,33,23,26,,27,25,19,20,4,4,0.6,0.8
2026-01-31T0000,1338A,112.9448,28.1894,长沙市,湖南师范大学,,50,40,32,35,20,26,,32,26,16,17,3,3,0.7,0.8
2026-01-31T0000,1339A,113.0177,28.1322,长沙市,雨花区环保局,,48,34,26,33,20,21,,24,19,19,19,6,6,0.6,0.7
2026-01-31T0000,1340A,112.9795,28.2593,长沙市,伍家岭,细颗粒物(PM2.5),58,44,33,41,26,20,,28,21,19,20,4,4,0.6,0.8
2026-01-31T0000,1341A,113.002,28.1944,长沙市,火车新站,细颗粒物(PM2.5),57,41,31,40,24,25,,29,24,18,18,1,2,0.8,0.9
2026-01-31T0000,1342A,112.9846,28.1177,长沙市,天心区环保局,,35,35,30,21,20,27,,30,25,19,22,4,4,0.5,0.6
2026-01-31T0000,1343A,112.8906,28.1307,长沙市,湖南中医药大学,细颗粒物(PM2.5),58,45,30,41,21,24,,33,27,20,20,5,5,0.7,0.8
2026-01-31T0000,1727A,113.1146,36.1547,长治市,清华站,细颗粒物(PM2.5),119,,93,90,102,50,,78,64,26,23,10,8,1.0,1.1
2026-01-31T0000,1730A,113.0887,36.2126,长治市,审计局,细颗粒物(PM2.5),113,,95,85,107,53,,72,57,26,29,13,8,0.8,0.9
2026-01-31T0000,1731A,113.0845,36.1856,长治市,长治八中,细颗粒物(PM2.5),137,,113,104,118,43,,74,59,25,18,11,8,1.0,1.1
2026-01-31T0000,2845A,113.1561,36.1912,长治市,德盛苑,细颗粒物(PM2.5),122,,89,92,107,53,,78,65,22,19,7,6,1.1,1.3
2026-01-31T0000,3568A,113.0603,36.0464,长治市,向阳小学,细颗粒物(PM2.5),117,103,134,88,116,60,,75,60,34,32,7,8,1.0,1.3
2026-01-31T0000,3569A,112.8788,36.315,长治市,屯留一中,细颗粒物(PM2.5),100,,118,75,123,45,,77,61,40,26,12,8,1.0,1.2
2026-01-31T0000,4189A,113.113092,36.199482,长治市,英华南巷50号,细颗粒物(PM2.5),127,,98,96,104,43,,79,65,27,21,9,6,1.0,1.3
2026-01-31T0000,4190A,113.23666,36.33435,长治市,学府街1号,细颗粒物(PM2.5),117,,105,88,101,53,,75,63,28,25,9,6,1.0,1.1
2026-01-31T0000,1854A,111.696,28.9725,常德市,市二中,细颗粒物(PM2.5),73,62,54,53,45,46,,48,48,17,19,4,4,0.8,1
2026-01-31T0000,3138A,111.7152,29.0288,常德市,武陵区永安,细颗粒物(PM2.5),77,67,60,56,49,44,,48,47,20,22,3,4,0.8,0.9
2026-01-31T0000,3139A,111.6891,28.9881,常德市,鼎城区玉霞,细颗粒物(PM2.5),73,55,48,53,46,47,,50,50,24,23,5,6,0.8,0.9
2026-01-31T0000,3140A,111.6651,29.0526,常德市,武陵区长庚,细颗粒物(PM2.5),77,64,55,56,49,42,,48,47,16,18,4,4,0.6,0.7
2026-01-31T0000,1196A,119.9524,31.7586,常州市,市监测站,,22,22,36,10,19,16,,80,,24,21,6,5,0.4,0.3
2026-01-31T0000,1200A,119.9351,31.703,常州市,武进监测站,,29,29,36,11,18,52,,75,52,23,21,6,10,0.2,0.3
2026-01-31T0000,3002A,119.9701,31.813,常州市,行政中心,,19,18,29,9,17,59,,80,55,20,22,4,4,0.5,0.6
2026-01-31T0000,3003A,120.0434,31.7726,常州市,经开区,,24,24,41,9,16,53,,79,56,24,23,9,9,0.6,0.5
2026-01-31T0000,3010A,119.8919,31.7892,常州市,钟楼,,21,21,33,10,16,58,,79,55,15,18,6,6,0.5,0.6
2026-01-31T0000,3429A,119.8595,31.706,常州市,武进经发区,,26,20,30,18,23,47,,75,49,27,23,4,4,0.7,0.7
2026-01-31T0000,3430A,119.5812,31.7256,常州市,金坛城区,,26,19,33,18,24,61,,79,58,15,19,5,6,0.3,0.4
2026-01-31T0000,4089A,119.9551,31.863,常州市,崇义南街5-H号,,19,13,25,9,18,60,,83,62,14,16,3,4,0.5,0.5
2026-01-31T0000,2220A,120.4318,41.588,朝阳市,西梁,细颗粒物(PM2.5),89,100,72,66,47,6,,69,47,60,37,21,14,1.1,1.1
2026-01-31T0000,2221A,120.452,41.565,朝阳市,河畔小区,细颗粒物(PM2.5),73,,48,53,29,24,,71,53,45,30,16,12,0.9,0.8
2026-01-31T0000,2222A,120.4176,41.5648,朝阳市,八里堡,细颗粒物(PM2.5),84,67,55,62,39,13,,65,48,56,33,23,12,1.3,0.9
2026-01-31T0000,3026A,116.6179,23.6608,潮州市,市政府,,50,41,52,35,28,54,,68,58,23,15,4,5,0.5,0.5
2026-01-31T0000,4036A,116.646,23.676,潮州市,金山,,49,41,42,34,27,58,,68,62,22,16,5,3,0.6,0.5
2026-01-31T0000,2473A,113.0116,25.8228,郴州市,市职中,,22,19,41,15,32,12,,18,17,17,19,3,4,0.6,0.7
2026-01-31T0000,2475A,113.0381,25.8074,郴州市,市审计局,,19,18,43,13,30,8,,17,14,19,19,3,5,/,/
2026-01-31T0000,2476A,113.0348,25.7757,郴州市,市环保局,,21,21,48,14,32,14,,18,18,21,22,2,6,0.6,0.7
2026-01-31T0000,4252A,113.0138,25.8011,郴州市,好美居路49号,,36,,25,25,23,24,,28,28,11,14,3,6,/,/
2026-01-31T0000,1431A,103.9727,30.7242,成都市,金泉两河,细颗粒物(PM2.5),77,101,64,56,37,33,,56,46,32,33,2,2,0.5,0.6
2026-01-31T0000,1432A,104.1423,30.6765,成都市,十里店,颗粒物(PM10),80,109,71,58,39,37,,55,49,31,33,3,3,0.8,0.8
2026-01-31T0000,1433A,104.0594,30.5765,成都市,三瓦窑,颗粒物(PM10),77,104,69,50,36,57,,77,69,24,32,3,3,0.6,0.8
2026-01-31T0000,1434A,104.1122,30.6306,成都市,沙河铺,,,,65,,37,51,,70,59,24,34,4,4,0.7,0.7
2026-01-31T0000,2880A,104.0219,30.6561,成都市,大石西路,颗粒物(PM10),79,107,65,55,37,47,,63,53,18,26,4,4,0.5,0.5
2026-01-31T0000,3136A,104.2724,30.559,成都市,龙泉驿区区政府,细颗粒物(PM2.5),80,97,53,59,33,44,,79,69,23,22,6,6,0.7,0.7
2026-01-31T0000,3357A,104.0028,30.6891,成都市,金博路,细颗粒物(PM2.5),80,93,57,59,34,34,,60,48,32,34,4,4,0.7,0.8
2026-01-31T0000,3359A,104.056,30.5228,成都市,华阳,颗粒物(PM10),73,95,60,50,35,51,,76,69,26,31,2,2,0.6,0.8
2026-01-31T0000,3488A,104.387954,30.746684,成都市,青石路225号,颗粒物(PM10),84,118,66,60,36,21,,76,60,44,30,4,4,0.7,0.8
2026-01-31T0000,3489A,104.0788,30.4054,成都市,科学城,颗粒物(PM10),73,95,68,44,41,40,,57,53,16,24,6,6,0.7,0.8
2026-01-31T0000,4011A,103.8505,30.6946,成都市,光华大道三段,颗粒物(PM10),79,107,84,54,44,32,,49,44,33,36,3,3,0.7,0.8
2026-01-31T0000,4144A,104.3257,30.6406,成都市,八角井街185号,颗粒物(PM10),84,117,76,58,36,38,,70,61,28,26,3,3,0.8,0.8
2026-01-31T0000,4224A,104.2433276,30.53529463,成都市,鲸龙路1057号,颗粒物(PM10),84,117,64,56,34,41,,75,62,28,29,5,5,0.6,0.7
2026-01-31T0000,1062A,117.9531,40.908,承德市,铁路,细颗粒物(PM2.5),125,143,81,95,48,4,,40,18,55,41,4,6,1.3,1
2026-01-31T0000,1063A,117.9397,40.9763,承德市,中国银行,细颗粒物(PM2.5),122,124,65,92,43,17,,61,47,47,25,2,5,1.0,0.8
2026-01-31T0000,4073A,117.9462,40.95,承德市,杏林街1号,细颗粒物(PM2.5),125,142,74,95,49,10,,62,44,51,30,5,7,1.2,0.8
2026-01-31T0000,4274A,117.7994,40.9605,承德市,滨河大街98号,细颗粒物(PM2.5),118,99,70,89,50,29,,57,50,34,32,3,14,0.7,0.8
2026-01-31T0000,2314A,117.4698,30.6617,池州市,池州学院,,26,,20,18,17,43,,57,43,24,26,3,3,0.8,0.9
2026-01-31T0000,3237A,117.4918,30.6617,池州市,展览馆,,29,22,24,20,20,40,,56,42,25,26,2,2,0.6,0.7
2026-01-31T0000,3333A,117.5626,30.695,池州市,第八中学,,33,26,26,23,19,39,,54,43,27,27,2,3,0.7,0.7
2026-01-31T0000,3334A,117.5037,30.6242,池州市,第十二中学,,26,20,19,18,16,47,,53,43,26,28,3,2,0.7,0.8
2026-01-31T0000,1744A,118.9229,42.2816,赤峰市,松山一中,颗粒物(PM10),73,95,72,52,43,15,,43,18,52,51,24,20,1.4,1.3
2026-01-31T0000,1745A,118.9588,42.2733,赤峰市,哈达街,细颗粒物(PM2.5),74,84,68,54,42,13,,47,24,52,41,30,24,1.3,1.2
2026-01-31T0000,1746A,118.8792,42.2551,赤峰市,天义路,细颗粒物(PM2.5),98,90,51,73,35,6,,50,17,50,39,17,15,1.4,1.1
2026-01-31T0000,3058A,119.2656,42.0356,赤峰市,银河街,颗粒物(PM10),79,108,104,50,59,37,,64,37,23,28,22,30,1.2,1.8
2026-01-31T0000,3286A,118.9359,42.3146,赤峰市,桥北物流园区,细颗粒物(PM2.5),105,104,63,79,45,17,,55,31,52,37,18,16,1.4,1.1
2026-01-31T0000,2521A,107.3473,22.4137,崇左市,市环保局江州分局,颗粒物(PM10),62,74,58,41,38,0,,74,39,41,23,4,5,0.8,0.8
2026-01-31T0000,4256A,107.375,22.3736,崇左市,石景林东路7号,细颗粒物(PM2.5),64,66,54,46,41,7,,72,40,43,28,7,8,0.7,0.6
2026-01-31T0000,3207A,118.31131,32.3033,滁州市,市政府原办公楼,,32,29,32,22,26,64,,80,64,14,14,3,3,0.2,0.3
2026-01-31T0000,3331A,118.3268,32.2633,滁州市,图书馆,,23,20,24,16,20,59,,78,61,14,11,6,6,0.3,0.4
2026-01-31T0000,4101A,118.3196,32.3335,滁州市,银山路666号,,38,,26,26,30,65,,86,68,12,9,3,3,0.3,0.3
2026-01-31T0000,4102A,118.3426,32.2979,滁州市,黄山路555号,,36,29,43,25,28,68,,82,68,10,11,4,4,0.2,0.2
2026-01-31T0000,2606A,101.5379,25.0492,楚雄彝族自治州,市经济开发区,,49,49,26,31,15,48,,81,68,23,12,3,3,0.9,0.6
2026-01-31T0000,4153A,101.5536,25.0343,楚雄彝族自治州,团结路562号,,25,,25,16,16,77,,82,78,4,8,4,4,0.3,0.4
2026-01-31T0000,2549A,107.5087,31.2186,达州市,市环境监测站,,21,21,24,8,6,40,,37,29,21,23,8,12,0.6,0.7
2026-01-31T0000,2550A,107.4988,31.2132,达州市,凤凰小区,,22,22,17,10,7,42,,41,33,22,20,6,11,0.4,0.3
2026-01-31T0000,2551A,107.5081,31.1987,达州市,达县机关宾馆,,22,22,21,13,12,26,,29,19,33,32,4,8,0.9,1
2026-01-31T0000,2552A,107.4644,31.2124,达州市,市政中心,,32,32,26,9,6,42,,40,31,24,26,7,12,0.6,0.7
2026-01-31T0000,2614A,100.2168,25.5818,大理白族自治州,大理市环境监测站,,26,26,26,16,16,62,,72,68,10,8,7,6,0.4,0.5
2026-01-31T0000,2615A,100.1542,25.7055,大理白族自治州,大理古城,,32,32,22,14,15,53,,76,,13,7,8,8,0.5,0.5
2026-01-31T0000,1109A,121.6119,38.974,大连市,甘井子,颗粒物(PM10),52,53,42,35,27,21,,78,48,61,26,9,9,0.5,0.4
2026-01-31T0000,1110A,121.565,38.9509,大连市,周水子,,39,39,62,22,27,42,,70,44,32,28,11,10,0.4,0.5
2026-01-31T0000,1111A,121.5637,38.8849,大连市,星海三站,,45,34,33,31,24,33,,71,54,31,21,12,11,1.2,0.7
2026-01-31T0000,1112A,121.6301,38.9117,大连市,青泥洼桥,颗粒物(PM10),52,54,40,33,24,34,,72,44,40,24,15,12,0.9,0.5
2026-01-31T0000,1113A,121.6248,38.8643,大连市,傅家庄,颗粒物(PM10),59,67,41,31,22,51,,64,49,23,18,11,9,1.0,0.8
2026-01-31T0000,1114A,121.5117,38.8636,大连市,七贤岭,,39,35,35,27,22,65,,74,68,14,14,9,9,0.6,0.7
2026-01-31T0000,1116A,121.7507,39.1339,大连市,金州,,25,21,37,14,27,79,,79,73,12,19,9,12,0.3,0.5
2026-01-31T0000,1117A,121.7811,39.0495,大连市,开发区,细颗粒物(PM2.5),53,44,34,37,23,46,,80,58,32,17,7,7,0.8,0.6
2026-01-31T0000,1118A,121.9762,39.0631,大连市,双D港,,23,16,36,16,22,70,,81,69,14,16,10,11,0.5,0.6
2026-01-31T0000,4082A,121.2548,38.8188,大连市,旅顺,细颗粒物(PM2.5),69,71,48,50,36,27,,71,33,35,23,9,9,1.0,0.7
2026-01-31T0000,1789A,124.8085,46.0381,大庆市,大同区,细颗粒物(PM2.5),57,49,48,40,27,47,,62,44,22,18,11,7,0.8,0.7
2026-01-31T0000,1790A,125.1166,46.5255,大庆市,龙凤区,细颗粒物(PM2.5),72,67,44,52,27,20,,60,36,51,27,12,10,1.0,0.6
2026-01-31T0000,1791A,124.8894,46.4007,大庆市,红岗区,,48,41,28,33,16,35,,51,34,24,19,5,5,0.8,0.6
2026-01-31T0000,1792A,125.1391,46.578,大庆市,萨尔图区,颗粒物(PM10),54,58,36,28,15,30,,65,38,40,23,8,8,0.6,0.6
2026-01-31T0000,1793A,124.9026,46.6217,大庆市,让胡路区,,42,42,31,29,19,57,,74,51,23,18,7,8,0.6,0.5
2026-01-31T0000,3481A,125.127,46.6277,大庆市,萨区政府监测点,,46,46,31,22,14,38,,62,42,36,21,11,9,0.8,0.7
2026-01-31T0000,1723A,113.2926,40.0759,大同市,云冈宾馆,,20,20,78,8,36,54,,50,50,16,35,9,14,1.1,0.9
2026-01-31T0000,1724A,113.3437,40.0921,大同市,大同大学,,23,23,77,10,36,55,,46,46,13,32,6,12,0.8,0.9
2026-01-31T0000,1725A,113.2637,40.129,大同市,安家小村,,23,23,92,12,43,49,,46,46,15,40,8,17,0.4,0.9
2026-01-31T0000,3282A,113.3399,40.0586,大同市,大同市卫生学校,,22,22,69,9,37,62,,55,55,15,34,5,10,0.6,0.6
2026-01-31T0000,3565A,113.1371,40.1122,大同市,云冈站,,38,38,90,22,41,23,,46,39,33,40,6,15,0.5,0.8
2026-01-31T0000,3566A,113.1186,40.2556,大同市,图书馆,,42,42,69,22,39,40,,56,51,15,24,3,14,0.4,0.8
2026-01-31T0000,3567A,113.5931,40.0459,大同市,区一中,,29,24,85,20,47,49,,48,45,15,24,11,20,0.5,0.6
2026-01-31T0000,4199A,113.2798248,40.09972476,大同市,魏都大道141号,,28,28,99,14,44,61,,54,54,14,44,6,14,0.7,1.1
2026-01-31T0000,2269A,124.1068,50.4091,大兴安岭地区,科技局,,20,15,17,3,5,63,,66,63,2,2,4,3,0.2,0.2
2026-01-31T0000,3663A,124.117,50.4279,大兴安岭地区,红旗社区,,23,6,4,3,5,71,,74,71,2,2,4,4,0.3,0.3
2026-01-31T0000,1600A,124.33,40.0625,丹东市,江湾东路,细颗粒物(PM2.5),87,97,43,64,25,28,,68,48,35,19,10,8,1.8,0.8
2026-01-31T0000,1601A,124.4242,40.1513,丹东市,临江后街,细颗粒物(PM2.5),80,76,37,59,25,11,,73,44,54,16,27,9,1.2,0.6
2026-01-31T0000,1602A,124.3935,40.1461,丹东市,元宝山,,33,31,27,23,18,52,,71,62,14,12,12,10,0.7,0.6
2026-01-31T0000,1603A,124.3634,40.1093,丹东市,民主桥,"颗粒物(PM10),细颗粒物(PM2.5)",54,58,42,38,25,19,,70,37,48,23,11,10,1.0,0.8
2026-01-31T0000,3541A,109.5726195,19.51688767,儋州市,第一中学子站,,33,33,26,21,13,55,,72,68,5,4,4,4,0.6,0.6
2026-01-31T0000,3542A,109.5567,19.5187,儋州市,东坡学校子站,,27,27,24,17,10,70,,88,84,4,4,4,4,0.8,0.6
2026-01-31T0000,2616A,98.5611,24.4273,德宏傣族景颇族自治州,德宏州监测站,细颗粒物(PM2.5),65,50,54,47,39,52,,90,62,15,25,7,7,0.9,0.8
2026-01-31T0000,3677A,98.5887,24.4366,德宏傣族景颇族自治州,芒市人民政府综合楼,颗粒物(PM10),58,65,55,27,26,42,,81,63,11,14,4,4,0.8,0.7
2026-01-31T0000,1901A,104.424,31.1209,德阳市,东山公园,细颗粒物(PM2.5),88,87,49,65,34,42,,69,54,17,16,1,1,0.7,0.7
2026-01-31T0000,1902A,104.3827,31.1318,德阳市,西小区,细颗粒物(PM2.5),98,104,62,73,39,11,,69,47,45,26,3,3,0.9,0.9
2026-01-31T0000,1904A,104.3553,31.1091,德阳市,耐火材料厂,细颗粒物(PM2.5),107,91,60,80,46,11,,61,42,40,27,1,1,0.9,0.9
2026-01-31T0000,4145A,104.4144,31.1495,德阳市,市林业局,细颗粒物(PM2.5),77,64,55,56,35,23,,65,38,39,30,3,3,0.8,0.9
2026-01-31T0000,1622A,116.3034,37.4675,德州市,儿童乐园,细颗粒物(PM2.5),110,124,89,83,59,27,,69,39,63,39,15,15,1.2,1
2026-01-31T0000,1624A,116.2992,37.4449,德州市,监理站,细颗粒物(PM2.5),105,127,83,79,46,16,,72,52,85,38,10,12,1.1,0.8
2026-01-31T0000,3066A,116.2722,37.438,德州市,九衢泉纯净水厂,细颗粒物(PM2.5),153,149,83,117,56,8,,64,24,77,42,13,10,1.7,1.2
2026-01-31T0000,3371A,116.3693,37.44,德州市,开发区人民医院,细颗粒物(PM2.5),129,146,85,98,52,12,,74,44,88,38,15,15,1.1,0.7
2026-01-31T0000,3511A,116.5687,37.3331,德州市,陵城艺术中心,细颗粒物(PM2.5),142,146,83,108,54,14,,62,36,66,34,16,17,1.0,0.7
2026-01-31T0000,4292A,116.352738,37.420875,德州市,新河东路,细颗粒物(PM2.5),170,149,63,129,54,5,,67,36,93,34,17,15,1.3,0.8
2026-01-31T0000,2621A,99.7054,27.8319,迪庆藏族自治州,迪庆州站,,36,31,23,25,14,62,,86,79,12,7,5,5,0.7,0.5
2026-01-31T0000,3180A,99.7122,27.8129,迪庆藏族自治州,质量技术监督局,,35,,22,24,15,66,,90,82,13,6,5,5,0.6,0.4
2026-01-31T0000,4257A,104.6092,35.5962,定西市,将台街,颗粒物(PM10),101,152,135,61,52,24,,84,57,34,21,9,9,0.8,0.6
2026-01-31T0000,4309A,104.6159,35.5701,定西市,正龙路62号,颗粒物(PM10),99,147,133,62,50,22,,84,53,14,14,3,5,0.7,0.8
2026-01-31T0000,1390A,113.7943,23.0132,东莞市,东城石井,,50,47,40,35,30,7,,48,11,50,42,6,6,0.7,0.7
2026-01-31T0000,1391A,113.7384,22.9659,东莞市,南城西平,,49,37,36,34,28,0,,40,6,69,49,7,6,0.8,0.8
2026-01-31T0000,3319A,113.7283,23.041,东莞市,万江金泰,,,38,42,34,26,,,56,,43,34,5,4,1.0,0.9
2026-01-31T0000,4129A,113.8666,23.1062,东莞市,裕兴路,,38,36,38,26,26,16,,43,21,29,28,6,5,0.9,0.9
2026-01-31T0000,4130A,114.0076,22.9739,东莞市,教育路1号,,,,32,,25,,,58,,,35,,4,,0.7
2026-01-31T0000,4131A,113.7981,22.8124,东莞市,长怡路1号,颗粒物(PM10),54,58,45,32,26,1,,38,10,58,44,6,6,1.0,0.9
2026-01-31T0000,1666A,118.6612,37.4313,东营市,市环保局,,50,48,35,35,17,65,,82,72,26,22,8,10,0.6,0.6
2026-01-31T0000,3036A,118.6903,37.4337,东营市,开发区管委会,,45,45,40,31,18,65,,80,68,19,15,8,9,0.4,0.4
2026-01-31T0000,3365A,118.5721,37.5654,东营市,垦利区民丰路,,42,41,32,29,17,61,,86,69,26,20,10,10,0.6,0.5
2026-01-31T0000,3498A,118.5063,37.8606,东营市,河口城区,,46,46,39,27,16,69,,86,75,24,23,4,5,0.7,0.6
2026-01-31T0000,3646A,118.4979,37.4623,东营市,胜利站,,47,47,31,28,19,50,,74,59,29,24,9,9,0.8,0.6
2026-01-31T0000,3734A,118.5753,37.4405,东营市,理想之城,颗粒物(PM10),51,51,33,33,17,52,,80,65,35,25,5,6,0.5,0.5
2026-01-31T0000,1591A,110.0024,39.8127,鄂尔多斯市,综合楼,,39,39,83,3,26,58,,74,66,19,38,9,11,0.3,0.5
2026-01-31T0000,1592A,109.9485,39.8259,鄂尔多斯市,巴音孟克林场办事处,,31,31,70,7,26,52,,74,54,21,34,7,10,0.4,0.5
2026-01-31T0000,1593A,109.7734,39.5987,鄂尔多斯市,康泽苑,,24,24,64,11,31,62,,78,72,11,23,3,4,0.3,0.6
2026-01-31T0000,1594A,109.8121,39.5987,鄂尔多斯市,华泰汽车城,,27,27,61,10,28,64,,79,74,12,27,4,6,0.3,0.5
2026-01-31T0000,1595A,109.9734,39.7884,鄂尔多斯市,奥林花园,,36,36,76,3,26,54,,74,61,24,39,5,8,0.4,0.6
2026-01-31T0000,2436A,114.894,30.3989,鄂州市,市政府,,23,23,24,15,13,45,,46,46,17,24,4,4,0.5,0.5
2026-01-31T0000,2437A,114.8986,30.3714,鄂州市,赵家坝,,20,20,22,10,12,49,,54,54,11,10,7,7,0.6,0.6
2026-01-31T0000,3654A,114.8093,30.4091,鄂州市,精准医疗中心,,24,24,23,8,13,49,,59,59,8,10,4,10,0.6,0.5
2026-01-31T0000,2454A,109.4978,30.2979,恩施土家族苗族自治州,湖北民院,细颗粒物(PM2.5),53,38,22,37,16,14,,48,31,20,13,6,6,1.1,0.9
2026-01-31T0000,3549A,109.5061,30.3771,恩施土家族苗族自治州,龙凤新区,,39,36,17,27,15,10,,46,25,7,7,8,7,0.8,0.8
2026-01-31T0000,2499A,108.3411,21.6159,防城港市,沙万,颗粒物(PM10),84,117,65,40,23,1,,82,50,80,28,6,6,1.0,1
2026-01-31T0000,2500A,108.3515,21.7733,防城港市,防城档案局,颗粒物(PM10),60,69,50,36,32,5,,94,48,40,15,5,6,0.8,0.8
2026-01-31T0000,2501A,108.3506,21.6414,防城港市,大海花园,细颗粒物(PM2.5),53,54,46,37,28,21,,96,61,62,20,8,8,0.7,0.7
2026-01-31T0000,1371A,113.1293,23.0065,佛山市,湾梁,颗粒物(PM10),53,56,39,25,19,2,,64,28,63,41,/,/,/,/
2026-01-31T0000,1372A,113.1082,23.0477,佛山市,华材职中,细颗粒物(PM2.5),59,51,39,42,35,8,,73,36,61,38,6,6,0.9,0.7
2026-01-31T0000,1373A,113.1439,23.045,佛山市,南海气象局,,49,42,36,34,28,2,,61,25,66,45,/,/,/,/
2026-01-31T0000,1374A,113.2879,22.8094,佛山市,顺德苏岗,,42,42,34,23,21,0,,45,17,72,45,/,/,1.1,1
2026-01-31T0000,1376A,112.8384,22.8678,佛山市,高明孔堂,,33,33,37,19,23,31,,92,54,27,29,/,/,/,/
2026-01-31T0000,1377A,112.8835,23.1584,佛山市,三水监测站,,41,41,63,28,37,16,,71,26,51,62,3,4,0.5,0.6
2026-01-31T0000,1378A,112.8668,23.185,佛山市,三水云东海,,32,32,59,18,34,14,,85,36,47,58,/,/,/,/
2026-01-31T0000,3625A,113.2568,22.7629,佛山市,容桂街道办,,44,44,29,26,22,1,,43,20,76,43,/,/,/,/
2026-01-31T0000,1282A,119.2681,26.0506,福州市,师大,颗粒物(PM10),51,51,29,29,14,1,,58,25,64,27,3,2,0.6,0.5
2026-01-31T0000,1283A,119.2983,26.1028,福州市,五四北路,,45,45,23,31,12,2,,60,22,51,24,4,4,0.7,0.6
2026-01-31T0000,1284A,119.2648,26.0769,福州市,杨桥西路,,46,45,26,32,15,4,,60,23,56,27,4,4,/,/
2026-01-31T0000,3048A,119.5799,26.0937,福州市,九龙,,28,21,19,19,11,48,,58,36,17,18,4,4,0.5,0.5
2026-01-31T0000,3526A,119.5188,25.9666,福州市,吴航,,26,26,31,17,18,45,,57,10,19,34,4,4,0.6,0.6
2026-01-31T0000,4104A,119.3106,26.0648,福州市,路通桥巷6号,颗粒物(PM10),52,54,33,34,18,0,,61,16,60,27,/,/,/,/
2026-01-31T0000,1755A,123.7974,41.8494,抚顺市,望花区,细颗粒物(PM2.5),169,205,131,128,94,5,,36,8,81,65,9,10,2.1,1.6
2026-01-31T0000,1756A,123.9161,41.8827,抚顺市,顺城区,细颗粒物(PM2.5),149,129,103,114,86,9,,49,17,73,60,14,14,1.9,1.5
2026-01-31T0000,1757A,124.0437,41.8615,抚顺市,东洲区,细颗粒物(PM2.5),112,139,101,84,71,15,,54,17,55,45,18,7,1.6,1.2
2026-01-31T0000,1758A,123.9246,41.8638,抚顺市,新抚区,细颗粒物(PM2.5),188,151,120,141,91,8,,46,11,71,60,10,11,1.8,1.4
2026-01-31T0000,1759A,124.0972,41.8961,抚顺市,大伙房水库,细颗粒物(PM2.5),90,85,68,67,51,24,,61,41,52,38,11,13,1.4,1
2026-01-31T0000,1760A,123.708,41.8386,抚顺市,沈抚新城,细颗粒物(PM2.5),132,152,118,100,89,13,,37,16,74,66,9,10,2.0,1.4
2026-01-31T0000,2377A,116.3544,27.9833,抚州市,市站,,19,12,36,6,23,58,,53,53,14,18,6,6,1.3,1.1
2026-01-31T0000,2378A,116.3562,27.9631,抚州市,血防站,,22,22,40,3,24,55,,48,48,20,25,4,4,1.3,1.4
2026-01-31T0000,2379A,116.3561,28.0007,抚州市,采茶剧团,,16,12,37,3,23,50,,47,47,10,13,3,4,0.8,1
2026-01-31T0000,2380A,116.3854,27.9648,抚州市,医学分院,,17,17,41,3,24,52,,47,47,15,18,4,5,1.0,1.1
2026-01-31T0000,2207A,121.6095,41.9978,阜新市,工业园区,细颗粒物(PM2.5),62,59,85,44,36,20,,68,48,50,32,20,17,0.7,0.7
2026-01-31T0000,2208A,121.6567,42.0188,阜新市,长青街,细颗粒物(PM2.5),127,98,50,96,36,2,,68,37,62,32,17,12,1.1,0.7
2026-01-31T0000,2209A,121.6672,42.07,阜新市,农业园区,"颗粒物(PM10),细颗粒物(PM2.5)",57,64,49,40,25,35,,61,44,32,19,17,13,0.6,0.5
2026-01-31T0000,2211A,121.6343,42.0455,阜新市,玉龙新城,细颗粒物(PM2.5),103,108,74,77,38,5,,62,21,58,43,15,12,1.5,0.9
2026-01-31T0000,2301A,115.8276,32.8929,阜阳市,市监测站,颗粒物(PM10),53,56,49,26,31,46,,67,53,21,15,4,4,0.4,0.4
2026-01-31T0000,2303A,115.8551,32.8606,阜阳市,开发区,,35,24,32,24,33,49,,67,52,15,15,5,4,0.2,0.3
2026-01-31T0000,2875A,115.783962,32.889217,阜阳市,阜阳职业技术学院,颗粒物(PM10),52,53,39,27,31,50,,74,58,17,11,6,6,0.3,0.3
2026-01-31T0000,3468A,115.79,32.8614,阜阳市,市规划展馆,,41,41,42,24,31,62,,74,64,12,11,4,4,0.4,0.5
2026-01-31T0000,3469A,115.835101,32.918568,阜阳市,枣园社区,,50,50,49,31,35,37,,67,47,22,16,4,4,0.4,0.4
2026-01-31T0000,2669A,102.9097,34.9841,甘南藏族自治州,州政府,细颗粒物(PM2.5),52,49,68,36,47,57,,74,68,10,14,4,5,0.5,0.7
2026-01-31T0000,3380A,102.8915,34.9618,甘南藏族自治州,甘肃民族师范学院,颗粒物(PM10),67,84,76,33,33,29,,79,67,35,21,7,9,0.6,0.4
2026-01-31T0000,2570A,101.96,30.048,甘孜藏族自治州,水桥子,,15,10,12,3,4,45,,60,50,15,10,6,7,0.1,1
2026-01-31T0000,3065A,101.9534,29.9976,甘孜藏族自治州,州环保局,,18,18,11,3,6,52,,75,61,16,13,6,6,0.9,1
2026-01-31T0000,2363A,114.9368,25.8663,赣州市,地委,颗粒物(PM10),61,71,96,27,40,29,,66,43,18,26,7,9,0.8,0.9
2026-01-31T0000,2364A,114.946,25.8483,赣州市,气象台,颗粒物(PM10),57,63,67,32,48,26,,65,40,20,34,6,8,0.5,0.5
2026-01-31T0000,2365A,114.932,25.8332,赣州市,市图书馆,,49,47,61,34,47,26,,58,38,20,30,5,5,0.9,1
2026-01-31T0000,2366A,114.8905,25.8472,赣州市,华坚鞋城,颗粒物(PM10),53,56,62,33,43,23,,58,35,22,30,4,7,0.6,0.7
2026-01-31T0000,3109A,115.0094,25.8614,赣州市,赣县区卫计委,细颗粒物(PM2.5),55,50,54,39,48,34,,65,44,14,26,7,8,0.8,0.9
2026-01-31T0000,2684A,106.2753,36.0057,固原市,监测站,颗粒物(PM10),138,226,160,66,51,23,,80,54,44,20,8,7,1.5,0.8
2026-01-31T0000,2685A,106.2384,36.0189,固原市,新区,颗粒物(PM10),130,210,158,56,49,5,,80,47,58,25,6,7,1.0,0.7
2026-01-31T0000,2544A,106.6307,30.4577,广安市,市委,,32,27,22,22,13,29,,37,33,24,16,5,5,0.9,0.9
2026-01-31T0000,2545A,106.6266,30.4662,广安市,友谊中学,,32,24,19,22,12,33,,41,38,24,17,7,6,0.9,0.9
2026-01-31T0000,2547A,106.6386,30.4551,广安市,广电花园,,38,,18,26,16,22,,34,28,21,13,5,5,0.9,0.8
2026-01-31T0000,2902A,106.6347,30.4868,广安市,北辰小学,,30,22,18,21,13,34,,41,37,13,8,4,5,0.9,0.9
2026-01-31T0000,2524A,105.8211,32.4444,广元市,老城,颗粒物(PM10),53,55,43,36,28,11,,63,35,58,26,1,2,0.9,0.9
2026-01-31T0000,2526A,105.8629,32.429,广元市,监测站,颗粒物(PM10),57,64,46,36,28,19,,62,42,42,19,5,5,1.0,1.1
2026-01-31T0000,3617A,105.8047,32.4167,广元市,经开区,细颗粒物(PM2.5),63,68,45,45,31,3,,53,32,54,23,1,1,0.9,0.9
2026-01-31T0000,1345A,113.2346,23.1423,广州市,广雅中学,,,37,45,18,25,,,58,35,63,46,2,2,0.8,0.6
2026-01-31T0000,1346A,113.2611,23.105,广州市,市五中,,41,41,41,21,22,6,,66,32,58,43,6,6,/,/
2026-01-31T0000,1348A,113.3477,23.0916,广州市,广东商学院,,40,40,41,24,28,0,,49,18,64,56,6,5,1.0,0.9
2026-01-31T0000,1349A,113.4332,23.105,广州市,市八十六中,,27,27,33,18,21,13,,48,18,53,56,8,8,/,/
2026-01-31T0000,1350A,113.3506,22.9488,广州市,番禺中学,颗粒物(PM10),56,62,49,25,20,1,,50,18,62,43,4,3,0.9,0.8
2026-01-31T0000,1351A,113.2147,23.3918,广州市,花都师范,,26,26,46,14,25,35,,86,44,38,51,5,5,0.6,0.7
2026-01-31T0000,1352A,113.2599,23.1329,广州市,市监测站,,38,38,42,21,25,4,,61,30,60,43,3,3,/,/
2026-01-31T0000,1353A,113.5618,23.3119,广州市,九龙镇镇龙,,38,35,35,26,25,21,,61,37,25,24,4,4,0.6,0.6
2026-01-31T0000,1354A,113.2764,23.1544,广州市,麓湖,,31,30,34,20,24,2,,66,29,62,49,8,8,0.6,0.6
2026-01-31T0000,2846A,113.3209,23.1323,广州市,体育西,,40,40,43,22,24,3,,58,26,60,47,5,6,0.9,0.8
2026-01-31T0000,3298A,113.5718,23.5493,广州市,从化街口,,38,38,36,26,24,9,,74,48,43,25,6,7,0.8,0.7
2026-01-31T0000,3299A,113.3463,23.369,广州市,白云竹料,,46,46,43,26,25,27,,78,44,30,34,2,2,0.5,0.6
2026-01-31T0000,3300A,113.2981,23.2365,广州市,白云嘉禾,,33,33,46,18,27,12,,74,30,55,52,4,5,/,/
2026-01-31T0000,3301A,113.4256,23.1716,广州市,黄埔科学城,,28,28,41,18,28,27,,62,38,36,44,2,2,0.7,0.6
2026-01-31T0000,3302A,113.3942,23.0485,广州市,番禺大学城,颗粒物(PM10),53,56,61,26,25,9,,58,28,59,49,9,8,0.7,0.6
2026-01-31T0000,3303A,113.4923,22.8169,广州市,南沙黄阁,,49,49,34,33,25,2,,42,19,66,45,7,5,/,/
2026-01-31T0000,3304A,113.534,22.7893,广州市,南沙街,颗粒物(PM10),53,56,37,29,24,0,,45,20,69,44,6,5,1.0,0.9
2026-01-31T0000,3443A,113.2905,23.5541,广州市,花都梯面,,21,21,35,14,24,37,,83,51,18,31,4,4,/,/
2026-01-31T0000,3445A,113.786,23.7479,广州市,从化良口,,22,18,22,15,17,41,,80,57,16,18,7,7,/,/
2026-01-31T0000,3446A,113.805,23.2614,广州市,增城荔城,,30,30,37,15,20,28,,60,30,19,22,4,5,0.7,0.8
2026-01-31T0000,2506A,109.604387,23.066791,贵港市,江南子站,,39,39,64,17,29,22,,102,54,11,14,4,11,1.0,0.8
2026-01-31T0000,2508A,109.5669,23.1065,贵港市,荷城子站,,44,44,51,16,28,24,,84,42,16,24,5,8,1.2,0.9
2026-01-31T0000,3405A,109.5886,23.1172,贵港市,新世纪学校,,39,39,56,17,34,22,,99,48,15,19,/,/,0.9,0.6
2026-01-31T0000,4260A,109.5933,23.095,贵港市,中山路155-3号,,30,30,49,19,31,27,,104,56,16,18,/,/,1.0,0.7
2026-01-31T0000,1439A,106.6863,26.6035,贵阳市,马鞍山,,9,9,21,3,16,16,,36,32,11,13,2,3,/,/
2026-01-31T0000,1441A,106.6241,26.6266,贵阳市,鉴湖路,,14,14,28,3,16,30,,47,37,12,14,1,2,0.7,0.7
2026-01-31T0000,1442A,106.7468,26.6344,贵阳市,燕子冲,,12,,20,8,15,26,,39,34,9,13,6,8,0.8,0.8
2026-01-31T0000,1443A,106.6556,26.4362,贵阳市,碧云窝,,22,22,36,8,17,20,,45,40,14,16,13,14,/,/
2026-01-31T0000,1445A,106.6963,26.6063,贵阳市,红边门,,10,9,23,7,16,20,,34,31,13,18,7,9,/,/
2026-01-31T0000,1446A,106.7162383,26.56964667,贵阳市,新华路,,14,14,31,6,17,21,,36,32,16,19,6,6,0.8,0.8
2026-01-31T0000,1447A,106.6742,26.542,贵阳市,太慈桥,,14,14,24,3,15,23,,39,35,16,18,3,3,/,/
2026-01-31T0000,4230A,106.688212,26.56952,贵阳市,花果园大街66号,,19,,19,13,18,16,,34,30,13,17,1,2,/,/
2026-01-31T0000,4231A,106.687268,26.516892,贵阳市,漓江路57号,,14,14,27,3,19,11,,38,31,16,19,7,7,0.8,0.8
2026-01-31T0000,1864A,110.3091,25.2705,桂林市,龙隐路小学,,13,6,24,3,18,40,,37,37,13,15,6,6,0.6,0.7
2026-01-31T0000,1865A,110.2849361,25.22909545,桂林市,八中,,12,6,21,3,11,37,,33,33,12,16,3,3,0.9,0.9
2026-01-31T0000,3531A,110.296,25.1254,桂林市,旅游学院,,24,24,35,3,21,50,,45,45,9,16,3,4,0.5,0.7
2026-01-31T0000,4222A,110.1835,25.2444,桂林市,环湖路276号,,12,7,24,3,20,34,,32,32,14,17,6,8,1.2,1
2026-01-31T0000,4301A,110.2803,25.2773,桂林市,信义路13号,,12,,20,6,16,38,,36,36,13,16,5,5,1.0,1.1
2026-01-31T0000,2674A,100.2262,34.4854,果洛藏族自治州,玛沁县大武镇,细颗粒物(PM2.5),79,,58,58,24,71,,94,84,6,4,18,17,0.5,0.5
2026-01-31T0000,1130A,126.5557,45.8109,哈尔滨市,松北商大,细颗粒物(PM2.5),58,,38,41,29,47,,60,44,23,23,7,7,0.7,0.7
2026-01-31T0000,1132A,126.6162,45.719,哈尔滨市,南岗学府路,颗粒物(PM10),58,65,51,37,28,21,,60,44,42,19,8,10,0.9,0.7
2026-01-31T0000,1133A,126.6894,45.7733,哈尔滨市,太平宏伟公园,,42,42,35,21,19,44,,67,58,29,16,23,20,0.6,0.5
2026-01-31T0000,1134A,126.6361,45.7672,哈尔滨市,道外承德广场,颗粒物(PM10),57,64,44,25,19,32,,64,52,42,21,10,9,0.6,0.5
2026-01-31T0000,1136A,126.644,45.7261,哈尔滨市,动力和平路,,49,49,42,30,25,33,,58,47,36,23,9,12,0.9,0.8
2026-01-31T0000,1137A,126.5933,45.7479,哈尔滨市,道里建国路,细颗粒物(PM2.5),62,58,38,44,24,26,,56,,53,27,16,8,1.0,0.8
2026-01-31T0000,1138A,126.6127,45.6119,哈尔滨市,平房东轻厂,细颗粒物(PM2.5),67,72,45,48,29,16,,54,15,60,40,10,11,1.0,0.7
2026-01-31T0000,1139A,126.5875,45.9827,哈尔滨市,呼兰师专,细颗粒物(PM2.5),55,54,46,39,29,32,,59,41,34,22,13,13,0.9,0.7
2026-01-31T0000,1140A,126.6299,45.6799,哈尔滨市,省农科院,细颗粒物(PM2.5),67,58,57,48,43,15,,54,24,49,33,13,14,1.0,0.9
2026-01-31T0000,4282A,126.6769,45.7379,哈尔滨市,华山路1号,颗粒物(PM10),52,53,44,31,21,29,,53,43,39,28,11,19,0.6,0.6
2026-01-31T0000,4283A,126.9717,45.5356,哈尔滨市,解放大街52号,细颗粒物(PM2.5),70,67,62,51,45,23,,34,28,31,24,14,9,0.8,0.8
2026-01-31T0000,2688A,93.5124,42.8176,哈密市,地区监测站,颗粒物(PM10),79,108,100,40,45,10,,64,46,50,27,9,10,0.2,0.3
2026-01-31T0000,2689A,93.5014,42.8312,哈密市,哈密师范学校,,,,,,,,,,,,,,,,
2026-01-31T0000,2671A,100.9016,36.9464,海北藏族自治州,海晏县西海镇,细颗粒物(PM2.5),92,109,94,68,59,46,,76,65,20,14,7,10,1.0,0.8
2026-01-31T0000,3867A,102.074,36.5056,海东市,平安区公安局北苑,细颗粒物(PM2.5),100,146,147,75,69,40,,60,49,9,15,18,19,0.8,0.8
2026-01-31T0000,4163A,102.0984,36.5119,海东市,滨河路,细颗粒物(PM2.5),112,143,142,84,67,9,,64,40,59,29,21,21,1.1,0.8
2026-01-31T0000,1410A,110.3189,20.0596,海口市,海南大学,,25,6,29,3,13,77,,100,87,8,8,5,5,0.4,0.5
2026-01-31T0000,1411A,110.2827,20.0051,海口市,秀英海南医院,,24,13,30,3,13,75,,95,86,8,9,7,7,0.3,0.4
2026-01-31T0000,1412A,110.3391,19.9979,海口市,海南师范大学,,,10,27,3,11,77,,102,89,,19,5,5,0.4,0.5
2026-01-31T0000,1413A,110.3303,20.0359,海口市,龙华路环保局宿舍,,26,14,29,3,15,83,,108,94,7,8,/,/,0.7,0.7
2026-01-31T0000,3539A,110.5111,19.9737,海口市,桂林洋子站,,26,6,26,3,11,82,,100,89,7,7,/,/,/,/
2026-01-31T0000,4134A,110.1952,20.0451,海口市,长滨二路9号,,24,6,27,3,13,75,,99,85,5,8,/,/,/,/
2026-01-31T0000,2673A,100.6158,36.2985,海南藏族自治州,共和县恰卜恰镇,,39,39,65,14,37,71,,94,75,17,18,11,12,0.4,0.5
2026-01-31T0000,2676A,97.373,37.376,海西蒙古族藏族自治州,德令哈市,,44,44,63,18,21,90,,99,92,3,6,15,14,0.4,0.6
2026-01-31T0000,1049A,114.492,36.5712,邯郸市,矿院,细颗粒物(PM2.5),148,121,95,113,84,26,,74,54,33,17,1,2,0.9,0.7
2026-01-31T0000,1050A,114.4839,36.6136,邯郸市,丛台公园,细颗粒物(PM2.5),148,125,101,113,87,38,,74,62,29,22,3,3,0.8,0.7
2026-01-31T0000,3458A,114.7893,36.5592,邯郸市,香泉濮院小区,细颗粒物(PM2.5),120,108,103,91,72,50,,68,61,19,24,1,3,0.6,0.7
2026-01-31T0000,3580A,114.1998,36.4439,邯郸市,峰峰矿区临水派出所,细颗粒物(PM2.5),142,,82,108,76,32,,77,55,18,9,5,4,1.5,0.8
2026-01-31T0000,4068A,114.5209,36.7697,邯郸市,建安街268号,细颗粒物(PM2.5),152,,91,116,86,22,,70,52,57,30,2,2,0.7,0.6
2026-01-31T0000,4069A,114.5488,36.6177,邯郸市,丛台东路558号,细颗粒物(PM2.5),166,,95,126,93,6,,80,47,56,26,1,2,1.0,0.9
2026-01-31T0000,2635A,107.0155,33.0707,汉中市,市监测站,细颗粒物(PM2.5),79,60,30,58,25,12,,64,36,40,22,5,5,1.4,0.9
2026-01-31T0000,2636A,107.0083,33.114,汉中市,鑫源开发区,细颗粒物(PM2.5),89,69,35,66,33,4,,70,34,52,21,4,4,1.3,0.8
2026-01-31T0000,2637A,107.0072,33.0323,汉中市,南郑大河坎水厂,细颗粒物(PM2.5),64,67,38,46,25,8,,61,25,31,22,5,5,1.3,1
2026-01-31T0000,1223A,120.2073,30.2111,杭州市,滨江,,20,17,38,14,22,39,,58,53,26,26,6,6,0.4,0.4
2026-01-31T0000,1224A,120.0625,30.2737,杭州市,西溪,,20,20,43,13,17,32,,60,47,34,27,8,8,1.0,1
2026-01-31T0000,1226A,120.3417,30.315,杭州市,下沙,,27,27,40,16,17,39,,67,46,27,27,7,7,0.8,0.7
2026-01-31T0000,1227A,120.1252,30.2465,杭州市,卧龙桥,,18,18,36,12,18,36,,59,50,20,20,8,8,0.3,0.2
2026-01-31T0000,1228A,120.1902,30.2691,杭州市,浙江农大,,20,20,39,10,16,40,,65,53,34,32,5,5,0.7,0.7
2026-01-31T0000,1230A,120.1195,30.3121,杭州市,和睦小学,,20,19,37,14,19,37,,64,49,25,21,4,4,0.8,0.7
2026-01-31T0000,1231A,120.3076,30.4146,杭州市,临平镇,,25,23,33,17,17,44,,75,53,16,15,6,6,0.6,0.6
2026-01-31T0000,1232A,120.2753,30.1839,杭州市,城厢镇,,23,23,47,11,19,42,,60,55,23,27,7,7,0.3,0.4
2026-01-31T0000,1233A,120.0883,30.1808,杭州市,云栖,,16,16,37,6,15,37,,57,52,24,24,4,4,0.7,0.7
2026-01-31T0000,3557A,119.9463,30.0496,杭州市,镇二中,,14,10,26,7,17,39,,54,52,27,28,4,4,0.5,0.6
2026-01-31T0000,3558A,119.7184,30.2367,杭州市,市府大楼,,15,7,27,3,18,48,,53,49,12,19,9,10,0.6,0.5
2026-01-31T0000,3656A,120.1554,30.2863,杭州市,消防大队,,23,23,41,13,19,34,,57,46,29,25,6,6,0.4,0.4
2026-01-31T0000,1270A,117.1957,31.7845,合肥市,明珠广场,,25,22,19,17,16,59,,65,56,12,16,5,5,0.4,0.6
2026-01-31T0000,1271A,117.307,31.8765,合肥市,三里街,,22,17,18,15,16,50,,64,50,22,22,4,4,0.4,0.5
2026-01-31T0000,1272A,117.2587,31.8703,合肥市,琥珀山庄,,29,24,22,20,19,60,,72,60,15,16,7,7,0.6,0.7
2026-01-31T0000,1275A,117.2593,31.9376,合肥市,庐阳区,,22,22,19,14,14,55,,71,60,25,24,2,3,0.6,0.7
2026-01-31T0000,1276A,117.345251,31.861615,合肥市,瑶海区,,20,19,16,14,14,61,,70,59,17,20,2,3,0.3,0.4
2026-01-31T0000,1277A,117.3033,31.7967,合肥市,包河区,,26,19,20,18,15,35,,53,34,41,40,4,5,0.5,0.6
2026-01-31T0000,1278A,117.278,31.7392,合肥市,滨湖新区,,23,17,18,16,14,57,,65,57,16,19,2,2,0.5,0.5
2026-01-31T0000,1279A,117.1324,31.8395,合肥市,高新区,,27,27,21,17,15,60,,71,57,23,25,3,3,0.5,0.6
2026-01-31T0000,3464A,117.3802,31.9148,合肥市,高教基地,,22,22,18,13,14,58,,72,60,15,17,6,7,0.4,0.5
2026-01-31T0000,4098A,117.2518,31.8404,合肥市,中国科学技术大学,,25,22,16,17,13,61,,72,60,10,12,7,7,0.5,0.6
2026-01-31T0000,3614A,79.9241,37.0878,和田地区,地区环保局,颗粒物(PM10),500,671,429,189,105,20,,65,45,67,26,34,6,2.5,0.7
2026-01-31T0000,3615A,79.9132,37.1137,和田地区,市环保局,颗粒物(PM10),500,665,430,120,81,16,,68,48,52,21,4,3,1.7,1.1
2026-01-31T0000,2517A,108.0496,24.6957,河池市,市环保站,,,6,22,,13,30,,33,31,10,12,2,2,0.9,0.9
2026-01-31T0000,4302A,108.0901,24.6945,河池市,上任中路54号,,11,10,24,3,12,31,,32,30,6,16,4,4,1.1,1.1
2026-01-31T0000,1697A,114.6962,23.7538,河源市,东埔,,29,24,30,20,26,4,,62,32,48,31,5,5,0.7,0.8
2026-01-31T0000,1698A,114.6895,23.7232,河源市,老城,,37,37,31,23,25,2,,62,31,43,24,6,5,1.0,1
2026-01-31T0000,3374A,115.5562,35.089,菏泽市,定陶老年大学,细颗粒物(PM2.5),180,158,121,136,99,13,,42,29,42,27,4,5,0.8,1.1
2026-01-31T0000,4114A,115.4239,35.2593,菏泽市,黄河路600号,细颗粒物(PM2.5),149,143,117,114,91,34,,46,42,26,27,3,3,0.8,0.7
2026-01-31T0000,4115A,115.5025,35.2727,菏泽市,菏泽市人社局,细颗粒物(PM2.5),156,145,117,119,92,26,,42,32,33,27,6,8,0.9,0.8
2026-01-31T0000,4184A,115.479691,35.244011,菏泽市,永昌路1号,细颗粒物(PM2.5),155,151,120,118,92,32,,44,37,34,28,2,4,,0.4
2026-01-31T0000,4193A,115.471542,35.280012,菏泽市,长城路999号,细颗粒物(PM2.5),138,136,113,105,85,31,,41,35,31,30,19,18,0.9,0.9
2026-01-31T0000,2514A,111.5264,24.4178,贺州市,环保小区,,24,24,68,8,38,32,,87,32,16,20,4,5,0.8,0.8
2026-01-31T0000,2515A,111.561,24.4074,贺州市,政协大楼,,24,24,61,8,42,32,,94,27,11,30,10,13,0.8,0.8
2026-01-31T0000,3534A,111.4744,24.455,贺州市,西湾,,30,30,69,7,40,28,,84,26,15,23,8,8,0.9,0.9
2026-01-31T0000,2385A,114.17,35.9019,鹤壁市,市监测站,细颗粒物(PM2.5),165,128,122,125,96,31,,55,,20,20,2,2,1.1,1.1
2026-01-31T0000,2386A,114.2953,35.7512,鹤壁市,市交警支队,细颗粒物(PM2.5),132,132,119,100,92,36,,54,44,27,27,3,4,0.8,0.9
2026-01-31T0000,2387A,114.2877,35.7302,鹤壁市,迎宾馆,细颗粒物(PM2.5),134,116,113,102,93,35,,58,47,25,24,4,5,0.9,1
2026-01-31T0000,3474A,114.2616,35.6824,鹤壁市,大新区,细颗粒物(PM2.5),149,120,114,114,92,31,,57,45,36,23,6,6,0.9,1
2026-01-31T0000,3596A,114.1573,35.9607,鹤壁市,南山宾馆,细颗粒物(PM2.5),153,146,119,117,96,21,,65,38,30,22,4,4,1.2,1
2026-01-31T0000,2244A,130.2537,47.3416,鹤岗市,哈啤分公司,,25,18,24,9,12,78,,77,76,4,5,6,6,0.5,0.5
2026-01-31T0000,2245A,130.2683,47.3087,鹤岗市,斯达机电,,26,26,24,10,10,69,,72,68,5,7,4,4,0.6,0.5
2026-01-31T0000,2246A,130.3114,47.3388,鹤岗市,东山纸板厂,,41,41,19,16,11,74,,74,73,3,5,6,6,0.4,0.4
2026-01-31T0000,2263A,127.4832,50.2524,黑河市,交通局,,20,20,16,12,13,61,,73,59,10,9,5,5,0.3,0.3
2026-01-31T0000,2264A,127.5146,50.2339,黑河市,环保局,,20,13,16,11,12,64,,69,50,9,15,5,5,0.3,0.3
2026-01-31T0000,1074A,115.6839,37.754,衡水市,电机北厂,细颗粒物(PM2.5),122,123,89,92,63,0,,61,36,96,42,5,7,0.9,0.7
2026-01-31T0000,1075A,115.6303,37.7318,衡水市,市监测站,细颗粒物(PM2.5),103,102,82,77,60,28,,63,41,50,31,8,11,0.8,0.6
2026-01-31T0000,3188A,115.6684,37.7216,衡水市,市城管局,细颗粒物(PM2.5),93,101,80,69,56,24,,63,45,64,38,9,11,0.9,0.7
2026-01-31T0000,3459A,115.599,37.5491,衡水市,地表水厂,细颗粒物(PM2.5),123,125,75,93,66,5,,72,,111,43,15,8,1.1,0.6
2026-01-31T0000,2457A,112.6209,26.9268,衡阳市,衡阳化工总厂,,32,,23,22,17,21,,25,22,16,16,6,7,0.9,1
2026-01-31T0000,2458A,112.621,26.8957,衡阳市,珠晖区环保局,,35,,22,24,17,21,,24,21,19,20,3,4,1.0,1.1
2026-01-31T0000,2459A,112.628,26.8654,衡阳市,市委党校,,32,,23,22,17,22,,25,23,12,11,9,8,1.1,1.2
2026-01-31T0000,2460A,112.6007,26.8977,衡阳市,市监测站,,29,29,32,19,19,21,,26,23,16,16,5,5,0.9,1.1
2026-01-31T0000,2461A,112.5658,26.9013,衡阳市,真空机电公司,,36,,31,25,20,22,,29,25,19,17,5,5,1.0,1.1
2026-01-31T0000,3399A,112.6703,26.8817,衡阳市,师范学院,,30,30,26,20,20,21,,29,25,18,18,1,2,0.9,1
2026-01-31T0000,3038A,103.3757,23.3679,红河哈尼族彝族自治州,州图书馆,,45,45,35,30,25,77,,84,81,7,7,7,6,0.6,0.5
2026-01-31T0000,4154A,103.401,23.3561,红河哈尼族彝族自治州,蒙自市朝阳路,,40,,25,28,22,74,,86,79,5,6,6,6,0.4,0.3
2026-01-31T0000,1090A,111.6506,40.7517,呼和浩特市,呼市一监,,24,9,32,3,18,76,,68,68,6,19,6,9,0.3,0.5
2026-01-31T0000,1094A,111.7516,40.8369,呼和浩特市,如意水处理厂,,24,8,37,3,20,75,,67,67,5,30,7,11,0,0.3
2026-01-31T0000,1095A,111.727798,40.806187,呼和浩特市,二十九中,,21,16,37,3,18,67,,65,65,7,18,9,12,0.2,0.5
2026-01-31T0000,1097A,111.717,40.7617,呼和浩特市,化肥厂生活区,,21,16,40,7,19,66,,64,64,11,20,4,8,0.2,0.4
2026-01-31T0000,3699A,111.6519,40.8389,呼和浩特市,海东办,,22,7,36,3,17,69,,69,69,10,31,3,6,0.3,0.7
2026-01-31T0000,4275A,111.591512,40.827312,呼和浩特市,成吉思汗西街8号,,19,14,34,3,17,59,,56,56,8,33,4,7,0.3,0.5
2026-01-31T0000,4276A,111.6597,40.8077,呼和浩特市,公园东路75号,,22,9,33,3,18,68,,64,64,10,26,5,7,0.3,0.6
2026-01-31T0000,4277A,111.5427,40.7846,呼和浩特市,金海路35号,,18,18,37,3,16,48,,53,53,19,34,5,10,0.4,0.7
2026-01-31T0000,3061A,119.7511,49.1576,呼伦贝尔市,国华电力东,,37,37,29,25,21,59,,67,56,22,22,5,5,0.3,0.3
2026-01-31T0000,4279A,119.7569,49.2222,呼伦贝尔市,伊敏大街东7号,,39,36,31,27,26,38,,54,30,29,24,6,6,0.5,0.5
2026-01-31T0000,1250A,120.075,30.867,湖州市,城西水厂,,23,8,28,7,17,73,,82,74,14,18,5,5,0.3,0.3
2026-01-31T0000,2873A,120.083,30.8929,湖州市,仁皇山新区,,22,7,27,6,16,68,,80,68,16,22,5,5,0.4,0.5
2026-01-31T0000,2907A,120.1846,30.8592,湖州市,吴兴区站,,20,15,32,6,17,63,,73,64,14,17,4,4,0.3,0.4
2026-01-31T0000,3562A,120.4146,30.8538,湖州市,南浔区站,,18,10,33,9,19,55,,73,59,19,19,6,6,0.3,0.4
2026-01-31T0000,1607A,120.904878,40.721091,葫芦岛市,龙港区,,33,25,65,23,45,66,,68,64,12,35,10,28,0.6,1.1
2026-01-31T0000,1608A,120.8382,40.7521,葫芦岛市,化工街,,25,24,65,17,40,60,,62,59,15,39,14,29,0.4,0.7
2026-01-31T0000,1609A,120.8339,40.7078,葫芦岛市,新区,,32,22,46,22,34,65,,68,63,14,40,10,20,0.6,0.9
2026-01-31T0000,1610A,120.8697,40.7679,葫芦岛市,东城区,,32,,65,22,46,58,,65,60,19,38,13,37,0.9,1.2
2026-01-31T0000,2483A,109.9297,27.5383,怀化市,河西地税局,,49,37,16,34,16,44,,43,40,14,15,3,1,/,/
2026-01-31T0000,2484A,109.9783,27.5342,怀化市,市四医院,,50,,16,35,11,36,,36,33,11,11,7,7,0.7,0.7
2026-01-31T0000,2485A,109.9971,27.5579,怀化市,监测楼,,46,,13,32,11,39,,38,35,14,15,2,2,0.3,0.4
2026-01-31T0000,1210A,119.0566,33.5991,淮安市,钵池山,,27,27,39,13,22,58,,66,60,13,10,6,6,0.3,0.3
2026-01-31T0000,1211A,119.0083,33.578,淮安市,北京南路,,36,36,41,10,22,62,,66,61,10,9,6,6,0.4,0.5
2026-01-31T0000,1212A,118.9938,33.6083,淮安市,市监测站,,22,22,32,11,24,61,,68,62,15,13,8,8,0.6,0.6
2026-01-31T0000,1213A,119.135,33.5038,淮安市,楚州区监测站,,27,27,37,11,24,56,,66,61,13,8,8,8,0.4,0.4
2026-01-31T0000,3426A,118.8757,33.2897,淮安市,新华书店,,27,27,39,12,24,53,,59,53,17,13,8,7,0.4,0.4
2026-01-31T0000,4092A,119.119691,33.550006,淮安市,枚皋中路89号,,26,26,43,12,24,63,,74,67,13,8,8,8,0.6,0.7
2026-01-31T0000,4206A,119.028838,33.631911,淮安市,承德北路606号,,36,36,49,11,24,47,,63,55,17,8,6,6,0.4,0.5
2026-01-31T0000,2282A,116.8005,33.9749,淮北市,监测站,颗粒物(PM10),56,62,82,38,52,62,,68,60,11,14,4,4,0.5,0.5
2026-01-31T0000,2283A,116.8094,33.9008,淮北市,烈山区政府,颗粒物(PM10),52,53,65,31,41,58,,68,64,13,10,2,3,0.3,0.3
2026-01-31T0000,4017A,116.7926,33.9534,淮北市,市博物馆,颗粒物(PM10),55,60,76,37,51,63,,69,62,6,8,2,2,0.6,0.7
2026-01-31T0000,4100A,116.8322,33.9884,淮北市,杜集区第一实验学校,颗粒物(PM10),56,61,79,36,52,53,,67,59,13,12,3,3,0.3,0.5
2026-01-31T0000,2277A,116.8304,32.7726,淮南市,潘集区政府,,49,49,42,23,24,37,,69,52,28,12,4,4,0.3,0.3
2026-01-31T0000,2279A,116.8569,32.5949,淮南市,谢家集区政府,,41,41,24,21,21,45,,70,52,14,13,5,5,0.3,0.4
2026-01-31T0000,2280A,116.8279,32.6333,淮南市,八公山区政府,,38,38,30,25,25,48,,72,55,15,14,2,4,0.4,0.4
2026-01-31T0000,2894A,117.0561,32.6536,淮南市,经济技术开发区消防队,颗粒物(PM10),54,57,40,30,24,35,,66,44,28,18,3,3,0.3,0.2
2026-01-31T0000,3329A,117.011,32.5891,淮南市,山南新区,,39,32,21,27,22,48,,74,55,22,16,5,6,0.3,0.3
2026-01-31T0000,4209A,117.003137,32.644456,淮南市,国庆中路369号,,42,42,37,27,24,37,,62,43,18,14,7,7,0.3,0.3
2026-01-31T0000,2446A,114.9021,30.474,黄冈市,职工中心,,20,20,25,8,18,43,,52,50,14,14,3,5,0.7,0.6
2026-01-31T0000,2929A,114.8858,30.4519,黄冈市,红卫路,,18,18,22,6,15,54,,59,59,10,13,4,4,0.5,0.5
2026-01-31T0000,3398A,114.9134,30.4446,黄冈市,市林业局,,20,18,19,14,16,44,,49,49,15,15,4,4,0.4,0.4
2026-01-31T0000,2672A,102.02,35.5101,黄南藏族自治州,同仁县隆务镇,颗粒物(PM10),70,90,86,47,46,49,,73,62,8,5,7,8,0.8,0.6
2026-01-31T0000,2295A,118.2905,29.6965,黄山市,延安路89号,,17,6,27,3,21,52,,48,48,14,17,4,4,0.6,0.7
2026-01-31T0000,2297A,118.1369,30.2755,黄山市,黄山区政府5号楼,,15,11,21,3,11,45,,59,55,15,16,2,2,0.7,0.6
2026-01-31T0000,4210A,118.335445,29.720283,黄山市,滨江东路7-2号,,19,19,40,3,22,53,,52,52,16,17,/,/,/,/
2026-01-31T0000,2423A,115.0547,30.2332,黄石市,沈家营,,22,22,24,9,10,43,,46,46,8,9,5,6,0.6,0.7
2026-01-31T0000,2426A,114.899,30.211,黄石市,铁山,,26,26,26,7,15,45,,47,47,15,14,5,5,0.8,0.9
2026-01-31T0000,2427A,115.0259,30.2108,黄石市,团城山,,20,20,24,6,15,37,,42,42,10,12,6,6,0.6,0.7
2026-01-31T0000,3149A,115.0174,30.1591,黄石市,笔架山北路,,30,27,27,21,13,37,,42,42,19,17,7,7,0.7,0.7
2026-01-31T0000,4185A,115.078022,30.21118,黄石市,磁湖东路29号,,23,16,21,16,17,43,,44,44,6,8,7,6,0.8,0.8
2026-01-31T0000,1392A,114.4181,23.0528,惠州市,河南岸金山湖子站,,37,37,38,24,25,25,,58,31,22,24,4,3,0.7,0.8
2026-01-31T0000,1393A,114.4055,23.0824,惠州市,下埔横江三路子站,,40,40,40,26,27,27,,65,28,23,23,8,6,0.8,0.8
2026-01-31T0000,1395A,114.4645,22.7832,惠州市,惠阳区承修路船湖子站,颗粒物(PM10),56,61,47,33,29,8,,64,27,45,28,7,6,0.8,0.8
2026-01-31T0000,1396A,114.5316,22.7423,惠州市,大亚湾管委会子站,,48,48,48,19,25,48,,66,36,26,26,6,6,0.6,0.6
2026-01-31T0000,3314A,114.4334,22.8134,惠州市,惠阳秋长,,46,46,45,23,26,21,,71,35,37,27,/,/,/,/
2026-01-31T0000,3452A,114.6521,22.7755,惠州市,大亚湾霞涌,,31,31,36,11,19,29,,72,46,28,20,/,/,/,/
2026-01-31T0000,4300A,114.4089,23.1147,惠州市,文华一路1号,,38,38,35,25,25,23,,67,26,25,25,/,/,/,/
2026-01-31T0000,2240A,130.9618,45.2926,鸡西市,环保局,,22,12,24,3,13,69,,68,65,5,8,6,6,0.2,0.3
2026-01-31T0000,2243A,130.9294,45.2959,鸡西市,第一中学,,22,,19,14,13,69,,68,67,4,7,2,2,0.3,0.3
2026-01-31T0000,3707A,131.0069,45.2988,鸡西市,欧美日汽修厂,,20,14,30,8,14,62,,64,62,7,7,8,7,0.3,0.4
2026-01-31T0000,2367A,114.9753,27.0803,吉安市,红声器材厂,,18,18,59,3,43,8,,26,15,23,28,6,10,0.6,0.6
2026-01-31T0000,2369A,114.9903,27.1313,吉安市,市环境监测站,,12,12,53,8,42,13,,27,17,17,27,7,9,/,/
2026-01-31T0000,2370A,115.009527,27.096792,吉安市,青原区法院,,16,16,55,8,36,12,,24,17,18,28,8,11,0.9,0.9
2026-01-31T0000,1772A,126.54,43.8622,吉林市,哈达湾,细颗粒物(PM2.5),100,78,52,75,44,38,,82,65,48,25,10,8,1.5,1
2026-01-31T0000,1773A,126.5843,43.8358,吉林市,东局子,细颗粒物(PM2.5),90,83,50,67,42,39,,69,49,30,24,5,5,1.3,1
2026-01-31T0000,1774A,126.5051,43.8243,吉林市,电力学院,细颗粒物(PM2.5),104,93,76,78,62,37,,78,46,42,32,7,8,1.6,1.2
2026-01-31T0000,1775A,126.6133,43.8971,吉林市,江北,细颗粒物(PM2.5),97,86,63,72,44,41,,72,,28,25,8,8,1.5,1.2
2026-01-31T0000,1776A,126.5549,43.8304,吉林市,江南公园,细颗粒物(PM2.5),117,107,63,88,52,14,,74,45,60,31,8,7,1.3,0.7
2026-01-31T0000,2868A,126.4737,43.953,吉林市,九站,细颗粒物(PM2.5),102,85,62,76,52,13,,72,51,74,42,21,9,1.5,0.9
2026-01-31T0000,1299A,116.9866,36.6118,济南市,科干所,细颗粒物(PM2.5),138,166,119,105,72,9,,37,26,60,38,19,12,1.1,0.8
2026-01-31T0000,1300A,116.9379,36.6652,济南市,农科所,细颗粒物(PM2.5),158,154,113,120,78,2,,34,13,61,44,13,13,1.2,0.9
2026-01-31T0000,1301A,117.1265,36.6736,济南市,开发区,细颗粒物(PM2.5),152,144,113,116,79,5,,37,16,69,50,6,7,1.3,1
2026-01-31T0000,1303A,117.0616,36.6865,济南市,省种子仓库,细颗粒物(PM2.5),148,158,120,113,75,6,,37,19,68,47,16,12,1.1,0.8
2026-01-31T0000,1304A,116.9495185,36.644937,济南市,机床二厂,细颗粒物(PM2.5),162,171,119,123,88,2,,35,12,66,45,20,13,1.0,0.7
2026-01-31T0000,1305A,117.0496,36.6629,济南市,市监测站,细颗粒物(PM2.5),153,156,117,117,80,4,,34,15,64,43,12,9,1.2,0.9
2026-01-31T0000,1306A,116.7674,36.5458,济南市,长清党校,细颗粒物(PM2.5),214,171,116,164,94,1,,35,14,,34,8,10,1.2,1
2026-01-31T0000,1961A,117.5323,36.6865,济南市,东山小学,细颗粒物(PM2.5),175,149,125,132,92,6,,45,15,67,45,5,8,0.8,0.6
2026-01-31T0000,3059A,117.7181,36.205,济南市,泰兴公司,细颗粒物(PM2.5),153,197,124,117,82,,,74,41,67,36,10,6,1.3,1
2026-01-31T0000,3064A,117.6861,36.2172,济南市,莱芜战役纪念馆,细颗粒物(PM2.5),142,156,119,108,76,35,,72,46,44,29,12,10,1.0,0.9
2026-01-31T0000,3494A,117.1673,36.9782,济南市,济阳区政府,细颗粒物(PM2.5),160,168,103,122,65,10,,57,32,58,32,10,10,1.3,0.8
2026-01-31T0000,3495A,117.1168,36.6299,济南市,锦屏中学,细颗粒物(PM2.5),147,125,109,112,79,39,,41,29,34,39,3,6,0.7,0.6
2026-01-31T0000,4108A,117.7107,36.2385,济南市,山财大街5号,细颗粒物(PM2.5),135,158,117,103,68,6,,74,38,96,47,11,11,1.2,1.1
2026-01-31T0000,4109A,116.9744,36.6889,济南市,无影山路12号,细颗粒物(PM2.5),158,163,113,120,79,1,,34,12,59,43,15,13,1.5,1.1
2026-01-31T0000,1653A,116.6229,35.4288,济宁市,火炬城,细颗粒物(PM2.5),138,126,129,105,100,11,,47,21,43,30,3,2,0.9,0.8
2026-01-31T0000,3500A,116.5808,35.3703,济宁市,北湖一中,细颗粒物(PM2.5),156,139,124,119,100,1,,52,17,61,31,6,3,1.1,0.8
2026-01-31T0000,3501A,116.8251,35.5592,济宁市,服务中心,细颗粒物(PM2.5),120,180,154,91,95,2,,49,17,43,23,6,4,0.9,0.7
2026-01-31T0000,3678A,116.5907,35.4054,济宁市,市第七中学,细颗粒物(PM2.5),159,139,123,121,109,5,,54,24,58,32,11,8,1.0,0.7
2026-01-31T0000,4111A,116.6075,35.4566,济宁市,任和路,细颗粒物(PM2.5),153,187,157,117,103,0,,47,16,60,36,10,6,1.0,0.9
2026-01-31T0000,4112A,116.5648,35.3921,济宁市,文体南路1号,细颗粒物(PM2.5),159,186,149,121,103,1,,51,16,65,36,9,4,1.1,0.8
2026-01-31T0000,2255A,130.2749,46.8028,佳木斯市,佳纺,,36,35,40,25,26,59,,63,52,9,12,5,6,0.4,0.6
2026-01-31T0000,2257A,130.3258,46.7975,佳木斯市,环保局,,,39,33,,25,56,,64,53,11,13,6,7,0.4,0.3
2026-01-31T0000,4285A,130.363,46.806,佳木斯市,顺和街,,38,34,30,26,26,56,,57,50,13,16,8,9,0.4,0.4
2026-01-31T0000,4286A,130.3952,46.8268,佳木斯市,长安路196号,,36,35,30,25,24,59,,68,,14,12,5,5,0.6,0.6
2026-01-31T0000,1252A,120.7439,30.778,嘉兴市,清河小学,,19,13,31,13,20,59,,73,60,17,20,5,5,0.4,0.3
2026-01-31T0000,1253A,120.7261,30.7477,嘉兴市,嘉兴学院,,19,15,35,9,17,58,,74,59,19,20,4,4,0.4,0.4
2026-01-31T0000,2872A,120.7845,30.7524,嘉兴市,南湖区残联,,20,17,28,9,16,61,,78,62,18,21,4,4,0.3,0.3
2026-01-31T0000,3407A,120.6915,30.7741,嘉兴市,秀洲住建,,23,23,43,7,17,58,,75,60,20,23,5,6,0.4,0.4
2026-01-31T0000,1945A,98.291,39.7705,嘉峪关市,气象局,颗粒物(PM10),130,210,306,48,64,47,,72,59,28,19,13,18,0.6,0.7
2026-01-31T0000,2884A,98.2672,39.7978,嘉峪关市,酒钢宾馆,颗粒物(PM10),125,200,310,53,71,59,,75,67,18,18,12,18,0.6,0.8
2026-01-31T0000,3248A,98.2644,39.7723,嘉峪关市,雄关区,颗粒物(PM10),114,178,255,46,57,60,,72,64,14,21,15,17,0.5,0.6
2026-01-31T0000,1383A,113.1063,22.6058,江门市,北街,,45,42,38,31,26,14,,59,33,56,42,/,/,/,/
2026-01-31T0000,1384A,113.073,22.5835,江门市,西区,,38,34,37,26,24,15,,63,39,52,36,/,/,/,/
2026-01-31T0000,1385A,113.0218,22.531,江门市,圭峰西,,30,30,32,20,23,29,,68,51,25,28,/,/,/,/
2026-01-31T0000,1386A,113.0826,22.5947,江门市,东湖,,45,45,39,28,26,14,,64,38,46,34,8,9,0.6,0.6
2026-01-31T0000,3311A,113.1077,22.5647,江门市,江海富民,,50,50,46,27,27,10,,61,37,61,38,/,/,0.6,0.6
2026-01-31T0000,3449A,113.0496,22.4669,江门市,新会银湖,,36,29,30,25,26,11,,52,28,37,36,6,7,0.7,0.6
2026-01-31T0000,3335A,113.3137,35.2643,焦作市,马村街道办,细颗粒物(PM2.5),168,149,146,127,122,32,,47,44,30,23,3,3,1.0,1.1
2026-01-31T0000,3336A,113.2464,35.2374,焦作市,焦作技师学院,细颗粒物(PM2.5),163,143,151,124,115,32,,49,45,29,22,6,5,1.2,1.3
2026-01-31T0000,3477A,113.1656,35.2536,焦作市,中站许衡医院,细颗粒物(PM2.5),175,167,157,132,130,26,,43,41,35,27,8,5,1.4,1.3
2026-01-31T0000,3981A,113.2456,35.18,焦作市,原李万街道办,细颗粒物(PM2.5),140,120,131,107,103,32,,54,50,27,19,3,3,0.8,0.9
2026-01-31T0000,4264A,113.234,35.219,焦作市,新安路1731号,细颗粒物(PM2.5),148,165,165,113,116,36,,52,49,25,20,5,6,1.0,1.2
2026-01-31T0000,4295A,113.2722,35.2121,焦作市,人民路3066号,细颗粒物(PM2.5),165,163,149,125,108,32,,53,50,27,20,4,5,1.0,1.1
2026-01-31T0000,1708A,116.3701,23.5345,揭阳市,新兴,"颗粒物(PM10),细颗粒物(PM2.5)",55,60,65,39,33,45,,67,49,33,31,9,10,0.8,0.8
2026-01-31T0000,1709A,116.3261,23.5442,揭阳市,西马,颗粒物(PM10),55,60,65,36,33,44,,67,49,29,28,7,6,0.8,0.7
2026-01-31T0000,1710A,116.361,23.5627,揭阳市,东兴,细颗粒物(PM2.5),60,62,70,43,37,45,,68,50,33,30,9,10,/,/
2026-01-31T0000,1711A,116.4151,23.5295,揭阳市,渔湖,细颗粒物(PM2.5),57,50,56,40,29,50,,79,61,30,25,7,8,/,/
2026-01-31T0000,3320A,116.4028,23.5699,揭阳市,曲溪,细颗粒物(PM2.5),52,50,60,36,30,54,,77,59,30,25,13,7,0.6,0.7
2026-01-31T0000,1944A,102.1691,38.5166,金昌市,天庆家园,颗粒物(PM10),159,268,315,63,71,62,,74,67,12,10,7,18,0.7,0.7
2026-01-31T0000,4022A,102.1648,38.5369,金昌市,金川区人防中心,颗粒物(PM10),161,272,324,67,75,67,,76,71,11,9,9,9,0.5,0.5
2026-01-31T0000,4239A,102.193042,38.531887,金昌市,长春路96号,颗粒物(PM10),165,280,312,68,66,58,,60,55,14,8,18,10,0.6,0.6
2026-01-31T0000,1262A,119.6478,29.0773,金华市,十五中,,20,13,37,6,16,62,,53,52,19,36,3,4,0.4,0.3
2026-01-31T0000,1263A,119.6859,29.1032,金华市,监测站,,15,13,37,6,15,45,,39,38,25,37,2,2,0.3,0.2
2026-01-31T0000,3659A,119.656,29.1132,金华市,气象局,,15,9,32,3,14,45,,44,39,22,35,3,3,0.5,0.5
2026-01-31T0000,1767A,121.1114,41.0879,锦州市,南山,,32,22,50,22,39,37,,64,42,42,41,13,22,1.0,1
2026-01-31T0000,1768A,121.060361,40.842794,锦州市,开发区,,34,34,68,20,46,55,,67,44,25,40,12,39,0.6,0.9
2026-01-31T0000,1769A,121.1836,41.1118,锦州市,百股街道,细颗粒物(PM2.5),54,,54,38,44,8,,66,47,75,39,135,26,1.0,0.9
2026-01-31T0000,1770A,121.1176,41.1224,锦州市,天安街道,,35,35,56,24,36,52,,67,48,29,35,8,20,1.0,1
2026-01-31T0000,1771A,121.1303,41.1385,锦州市,北湖公园,细颗粒物(PM2.5),70,,53,51,34,16,,62,42,55,31,15,20,1.1,0.8
2026-01-31T0000,2160A,112.8496,35.5051,晋城市,自来水公司,细颗粒物(PM2.5),122,120,110,92,80,49,,80,63,29,18,4,4,1.1,1
2026-01-31T0000,2162A,112.8509,35.4886,晋城市,市环保局,细颗粒物(PM2.5),156,,106,119,88,47,,78,,29,18,4,4,0.4,1
2026-01-31T0000,3620A,112.8258,35.4804,晋城市,泽州一中,细颗粒物(PM2.5),129,106,104,98,86,53,,84,66,22,14,2,2,0.7,0.6
2026-01-31T0000,4078A,112.8246,35.5152,晋城市,前书院路,细颗粒物(PM2.5),105,134,118,79,75,44,,80,62,28,18,4,4,0.9,0.8
2026-01-31T0000,4079A,112.8864,35.4773,晋城市,祥云街666号,细颗粒物(PM2.5),149,129,106,114,91,42,,79,61,31,19,4,4,0.9,0.7
2026-01-31T0000,2174A,112.6992,37.6984,晋中市,榆次区政府,细颗粒物(PM2.5),143,122,187,109,157,32,,44,31,31,40,8,9,1.1,1.3
2026-01-31T0000,2865A,112.7195,37.683,晋中市,榆次三中,细颗粒物(PM2.5),133,122,188,101,151,37,,49,39,29,37,10,11,2.2,1.5
2026-01-31T0000,4080A,112.7375,37.7215,晋中市,广安街188号,细颗粒物(PM2.5),152,153,217,116,157,32,,44,25,43,50,8,9,1.0,1.2
2026-01-31T0000,4200A,112.7478,37.6954,晋中市,迎宾街26号,细颗粒物(PM2.5),152,124,188,116,164,39,,48,36,34,41,10,11,1.2,1.3
2026-01-31T0000,2439A,112.2012,31.048,荆门市,竹园小学,细颗粒物(PM2.5),85,75,93,63,79,36,,42,42,26,26,1,1,0.5,0.6
2026-01-31T0000,2440A,112.1968,30.9892,荆门市,掇刀,细颗粒物(PM2.5),88,73,92,65,77,43,,44,44,19,21,1,2,0.6,0.6
2026-01-31T0000,3012A,112.1849,31.0361,荆门市,西山林语,细颗粒物(PM2.5),79,72,90,58,75,44,,45,45,20,22,2,2,0.8,0.9
2026-01-31T0000,3547A,112.1631,31.0134,荆门市,龙泉中学南校,细颗粒物(PM2.5),74,65,94,54,80,56,,54,54,11,13,2,2,0.5,0.7
2026-01-31T0000,4124A,112.2213,31.0654,荆门市,新台西路6号,细颗粒物(PM2.5),97,80,93,72,86,35,,42,42,20,23,7,7,0.8,0.8
2026-01-31T0000,1844A,112.2493,30.3198,荆州市,市图书馆,细颗粒物(PM2.5),63,51,62,45,68,39,,38,38,21,22,5,5,0.7,0.9
2026-01-31T0000,1845A,112.2009,30.3543,荆州市,市委党校,细颗粒物(PM2.5),85,64,72,63,78,29,,34,34,29,25,6,6,0.8,0.9
2026-01-31T0000,3194A,112.2749,30.3124,荆州市,管委会,细颗粒物(PM2.5),75,,63,55,74,43,,40,40,16,22,5,5,0.9,1
2026-01-31T0000,4268A,112.1722,30.3366,荆州市,学苑路85号,细颗粒物(PM2.5),85,,63,63,68,24,,38,,28,19,9,6,0.7,1
2026-01-31T0000,2343A,117.2114,29.2931,景德镇市,老干部活动中心,,8,8,24,3,17,25,,31,21,11,13,4,4,0.6,0.6
2026-01-31T0000,2344A,117.1893,29.2789,景德镇市,兽医站,,20,20,32,3,16,28,,37,22,18,17,3,4,0.4,0.4
2026-01-31T0000,2346A,117.246,29.2958,景德镇市,陶研所,,10,,24,7,18,23,,30,17,15,16,3,3,0.7,0.7
2026-01-31T0000,4289A,117.154766,29.256967,景德镇市,青少年活动中心,,10,7,27,3,18,29,,32,24,19,19,7,6,/,/
2026-01-31T0000,1803A,115.9873,29.6816,九江市,十里,,21,14,20,10,21,66,,78,77,19,20,4,4,0.8,0.8
2026-01-31T0000,1804A,115.9583,29.7047,九江市,茅山头,,15,,21,8,19,48,,64,62,18,18,4,4,0.5,0.5
2026-01-31T0000,1805A,115.9877,29.7295,九江市,西园,,15,7,22,7,11,46,,64,62,29,28,3,3,0.6,0.5
2026-01-31T0000,1808A,115.9112,29.6038,九江市,综合工业园,,18,,21,12,21,44,,52,52,30,32,1,1,0.7,0.7
2026-01-31T0000,3190A,116.0254,29.6995,九江市,外国语学校,,14,6,19,3,13,38,,54,52,28,24,4,4,0.4,0.5
2026-01-31T0000,4253A,116.010205,29.659402,九江市,莲花大道8号,,16,10,25,3,13,49,,53,53,17,19,3,3,0.5,0.5
2026-01-31T0000,4240A,98.495752,39.733935,酒泉市,玉门东路5号,颗粒物(PM10),71,92,317,37,54,72,,70,68,4,10,10,10,0.5,0.5
2026-01-31T0000,4241A,98.5099,39.7506,酒泉市,北大街108号,颗粒物(PM10),58,66,300,28,55,71,,64,63,4,12,8,11,0.2,0.4
2026-01-31T0000,2698A,76.0071,39.466,喀什地区,巡警大队,颗粒物(PM10),186,322,305,117,98,12,,62,49,70,35,11,6,2.3,0.9
2026-01-31T0000,2699A,75.9756,39.4693,喀什地区,吾办,颗粒物(PM10),198,345,283,128,94,5,,69,56,90,36,26,15,2.8,1.1
2026-01-31T0000,4027A,75.9485,39.4688,喀什地区,老干局,颗粒物(PM10),223,366,315,127,85,4,,67,45,79,32,11,6,2.2,1.1
2026-01-31T0000,1824A,114.3389,34.778,开封市,肿瘤医院,细颗粒物(PM2.5),163,134,97,124,98,15,,39,22,44,35,8,8,1.2,1
2026-01-31T0000,1826A,114.2884,34.7966,开封市,世纪星幼儿园,细颗粒物(PM2.5),168,,89,127,96,5,,34,21,60,38,4,5,1.0,0.9
2026-01-31T0000,3147A,114.3434,34.8101,开封市,龙亭公园,细颗粒物(PM2.5),170,131,95,129,92,28,,36,28,39,32,6,6,1.2,1.1
2026-01-31T0000,3210A,114.3645,34.7955,开封市,汴京公园,细颗粒物(PM2.5),158,122,99,120,91,21,,36,24,38,29,4,4,0.9,0.9
2026-01-31T0000,3473A,114.2485,34.8306,开封市,技师学院,细颗粒物(PM2.5),140,,86,107,87,6,,40,26,58,31,6,6,1.1,0.9
2026-01-31T0000,3592A,114.4518,34.7503,开封市,祥符区生态环境局,细颗粒物(PM2.5),159,,139,121,87,12,,42,19,41,32,5,3,1.5,1
2026-01-31T0000,1951A,84.886,45.6029,克拉玛依市,长征新村,细颗粒物(PM2.5),107,119,121,80,77,23,,63,51,64,46,5,6,1.2,1.1
2026-01-31T0000,1952A,84.8894,45.5827,克拉玛依市,南林小区,细颗粒物(PM2.5),134,142,127,102,88,6,,65,48,66,35,5,4,2.2,1.3
2026-01-31T0000,1954A,84.896,44.3328,克拉玛依市,独山子区,细颗粒物(PM2.5),246,310,373,196,228,24,,67,52,93,72,2,3,1.9,1.8
2026-01-31T0000,1955A,85.6888,46.0909,克拉玛依市,乌尔禾区商贸楼,细颗粒物(PM2.5),64,74,92,46,63,37,,75,66,36,37,7,7,0.7,0.7
2026-01-31T0000,3612A,85.1045,45.6895,克拉玛依市,白碱滩区新站,细颗粒物(PM2.5),62,60,107,44,66,59,,55,53,24,33,8,8,0.7,0.9
2026-01-31T0000,2697A,76.1457,39.7143,克孜勒苏柯尔克孜自治州,市人民政府,颗粒物(PM10),179,308,291,85,81,35,,74,56,29,15,4,4,0.5,0.3
2026-01-31T0000,3665A,76.1654,39.7157,克孜勒苏柯尔克孜自治州,克州文化中心,颗粒物(PM10),174,297,294,78,74,25,,66,53,37,16,3,3,1.0,0.8
2026-01-31T0000,1450A,102.8203,24.889,昆明市,呈贡新区,,31,31,34,18,21,51,,85,70,26,16,4,5,0.2,0.2
2026-01-31T0000,1452A,102.7253,25.0904,昆明市,龙泉镇,颗粒物(PM10),55,60,35,27,19,2,,86,61,63,22,3,3,0.6,0.4
2026-01-31T0000,1453A,102.7267,25.0378,昆明市,东风东路,,50,50,31,22,17,44,,86,71,35,17,6,6,0.3,0.2
2026-01-31T0000,1454A,102.6744,25.0671,昆明市,金鼎山,,39,39,39,20,18,59,,85,69,17,20,6,4,0.5,0.4
2026-01-31T0000,1455A,102.6643,25.0401,昆明市,碧鸡广场,颗粒物(PM10),52,54,38,30,20,37,,86,62,40,25,7,5,0.5,0.4
2026-01-31T0000,3179A,102.7491,25.012,昆明市,官渡区博物馆,,42,42,34,24,19,49,,92,76,32,17,4,4,0.7,0.6
2026-01-31T0000,3375A,102.8016,24.8336,昆明市,青年创业园,,35,32,34,24,24,61,,91,77,16,11,10,8,0.5,0.4
2026-01-31T0000,3550A,102.8,24.9787,昆明市,昆明学院,,,42,37,24,24,68,,91,79,,13,4,5,0.5,0.5
2026-01-31T0000,3551A,102.5969,24.6738,昆明市,晋宁区生态环境分局,,43,41,35,30,24,68,,91,83,12,12,3,3,0.4,0.4
2026-01-31T0000,3552A,102.6673,24.9861,昆明市,云天化总部,颗粒物(PM10),51,51,30,28,17,28,,88,72,51,15,6,6,0.5,0.4
2026-01-31T0000,1456A,91.132,29.6515,拉萨市,八廓街,,50,50,22,32,12,24,,98,57,51,15,8,7,1.3,0.6
2026-01-31T0000,1457A,91.1221,29.6748,拉萨市,市环保局,颗粒物(PM10),53,56,27,34,12,15,,90,54,53,15,9,8,1.7,0.7
2026-01-31T0000,1458A,91.0874,29.6476,拉萨市,区监测站,,32,27,16,19,8,20,,93,65,63,15,5,4,1.5,0.8
2026-01-31T0000,1459A,91.1774,29.6541,拉萨市,西藏大学,,33,33,19,8,8,44,,90,65,30,15,5,4,0.8,0.6
2026-01-31T0000,1460A,90.9798,29.6586,拉萨市,区辐射站,颗粒物(PM10),53,55,24,28,12,33,,94,65,45,16,5,4,1.1,0.6
2026-01-31T0000,1461A,91.0831,29.6292,拉萨市,拉萨火车站,,22,21,15,13,9,32,,89,72,44,12,5,4,0.8,0.3
2026-01-31T0000,2520A,109.2203,23.7252,来宾市,来宾技工学校,,18,18,45,3,24,23,,74,25,10,12,10,11,0.9,0.8
2026-01-31T0000,3535A,109.1781,23.7293,来宾市,兴宾区政府,,20,20,50,3,28,27,,75,30,7,11,4,6,0.9,0.8
2026-01-31T0000,4002A,109.2312,23.7428,来宾市,中南小学,,18,18,45,3,26,23,,58,25,11,17,4,6,1.0,1
2026-01-31T0000,1479A,103.8309,36.0467,兰州市,铁路设计院,,,,,,,,,,,,,,,,
2026-01-31T0000,3241A,103.7439,36.0841,兰州市,百合公园,颗粒物(PM10),107,164,159,77,66,10,,63,33,57,37,8,9,0.9,0.8
2026-01-31T0000,3242A,103.9613,35.9985,兰州市,和平,颗粒物(PM10),105,159,161,48,55,49,,82,57,17,19,7,10,0.8,1
2026-01-31T0000,4236A,103.629272,36.093822,兰州市,庄浪东路808号,颗粒物(PM10),116,181,165,66,60,29,,66,39,41,32,8,10,0.6,0.6
2026-01-31T0000,4237A,103.7251,36.104344,兰州市,安宁西路88号,颗粒物(PM10),124,197,180,74,68,21,,66,37,44,32,7,8,0.6,0.7
2026-01-31T0000,4238A,103.846982,36.067567,兰州市,北滨河东路1号,颗粒物(PM10),125,200,154,78,51,4,,73,33,66,40,8,9,1.0,1
2026-01-31T0000,1067A,116.6712,39.5109,廊坊市,药材公司,细颗粒物(PM2.5),109,93,100,82,77,3,,70,32,79,46,7,6,0.9,0.7
2026-01-31T0000,1068A,116.7215,39.5592,廊坊市,开发区,细颗粒物(PM2.5),99,94,97,74,72,16,,70,39,58,40,6,5,0.9,0.7
2026-01-31T0000,1070A,116.7246,39.5273,廊坊市,北华航天学院,细颗粒物(PM2.5),104,114,100,78,70,3,,71,43,80,41,5,6,1.0,0.7
2026-01-31T0000,2919A,116.7022,39.5454,廊坊市,河北工业大学,细颗粒物(PM2.5),95,97,101,71,71,8,,72,44,74,33,5,5,1.1,0.7
2026-01-31T0000,2536A,103.7629,29.5844,乐山市,牛耳桥,,41,41,69,23,40,47,,60,55,21,26,5,7,0.9,0.9
2026-01-31T0000,2537A,103.7501,29.6002,乐山市,市第三水厂,,36,,59,25,40,50,,66,57,24,27,5,8,1.0,1
2026-01-31T0000,2538A,103.7571,29.5664,乐山市,市监测站,,35,35,74,21,41,53,,61,56,16,23,5,6,0.7,0.8
2026-01-31T0000,3361A,103.7313,29.563,乐山市,理工大学,,38,38,70,22,46,52,,60,54,13,22,3,13,0.8,1
2026-01-31T0000,2599A,100.2497,26.8802,丽江市,丽江古城,,28,23,25,19,17,83,,86,82,9,11,10,10,0.5,0.5
2026-01-31T0000,2600A,100.2203,26.8906,丽江市,市中心,,27,10,19,10,13,84,,88,82,8,11,6,6,0.4,0.4
2026-01-31T0000,1267A,119.9141,28.4513,丽水市,监测站大楼,,10,7,22,6,9,29,,84,43,20,14,4,4,0.5,0.4
2026-01-31T0000,1268A,119.93,28.4589,丽水市,莲都小学,,12,7,22,3,6,31,,88,46,24,15,/,/,/,/
2026-01-31T0000,1269A,119.8794,28.4232,丽水市,余庄前,,13,6,19,3,5,22,,82,41,26,14,4,4,0.4,0.3
2026-01-31T0000,1173A,119.1759,34.5885,连云港市,市环境监测站,,22,19,36,12,22,69,,75,72,14,11,10,9,0.3,0.3
2026-01-31T0000,3000A,119.3577,34.6971,连云港市,德源药业,,36,36,42,14,19,45,,74,62,27,14,5,6,0.6,0.6
2026-01-31T0000,3007A,119.178,34.8442,连云港市,新城一中,,32,32,46,15,22,40,,82,65,47,24,8,8,0.7,0.7
2026-01-31T0000,3008A,119.3607,34.7519,连云港市,胡沟管理处,,21,14,31,7,17,67,,78,72,17,11,6,7,0.5,0.6
2026-01-31T0000,3009A,119.1478,34.5913,连云港市,矿山设计院,,22,19,40,9,19,70,,77,75,14,12,7,8,0.5,0.6
2026-01-31T0000,3434A,119.2414,34.6539,连云港市,工贸学校,,21,21,34,10,19,65,,82,78,18,16,10,10,0.3,0.4
2026-01-31T0000,3664A,119.4171,34.734,连云港市,连云街道,,22,19,35,8,18,68,,78,76,10,18,3,4,0.5,0.5
2026-01-31T0000,2573A,102.2629,27.8981,凉山彝族自治州,西昌市政府,,31,31,36,13,22,63,,90,77,7,11,5,7,0.7,0.6
2026-01-31T0000,2574A,102.2686,27.885,凉山彝族自治州,凉山州政府,,28,28,36,12,21,56,,82,70,9,11,6,9,0.8,0.7
2026-01-31T0000,4229A,102.2342,27.8859,凉山彝族自治州,凯乐南路30号,,34,34,43,8,16,60,,86,72,8,10,7,9,0.7,0.7
2026-01-31T0000,2212A,123.1978,41.2036,辽阳市,宏伟区,细颗粒物(PM2.5),72,79,60,52,35,22,,65,40,32,25,23,14,1.0,0.8
2026-01-31T0000,2213A,123.1684,41.2497,辽阳市,新华园,细颗粒物(PM2.5),68,72,69,49,42,20,,68,39,50,37,18,10,1.0,1.1
2026-01-31T0000,2214A,123.2355,41.2663,辽阳市,滨河路,颗粒物(PM10),53,56,58,32,37,25,,62,33,41,37,11,9,0.6,0.8
2026-01-31T0000,4083A,123.153,41.2874,辽阳市,铁西路150号,颗粒物(PM10),69,88,70,48,51,21,,58,34,48,42,16,13,1.0,1.4
2026-01-31T0000,2227A,125.1359,42.8845,辽源市,环保局,细颗粒物(PM2.5),114,109,80,86,61,12,,70,29,63,45,4,5,1.7,1.3
2026-01-31T0000,4085A,125.0998,42.9134,辽源市,安宁大街333号,细颗粒物(PM2.5),144,114,82,110,66,7,,69,30,52,36,6,6,1.5,1.1
2026-01-31T0000,1625A,115.9789,36.4372,聊城市,区政府,细颗粒物(PM2.5),182,168,102,137,69,6,,46,23,60,34,13,15,1.2,0.9
2026-01-31T0000,3200A,115.9772,36.4986,聊城市,监控中心,细颗粒物(PM2.5),178,167,91,134,68,16,,54,26,55,34,9,8,1.0,0.8
2026-01-31T0000,3513A,116.0443,36.436,聊城市,九州社区,细颗粒物(PM2.5),186,167,103,140,70,29,,56,34,34,21,2,8,1.0,0.8
2026-01-31T0000,4018A,116.0564,36.4609,聊城市,星美广场,细颗粒物(PM2.5),202,160,109,152,75,54,,61,53,27,22,5,7,1.1,0.9
2026-01-31T0000,4113A,116.0091,36.4495,聊城市,利民路,细颗粒物(PM2.5),178,171,98,134,68,13,,44,25,52,32,10,12,1.2,0.9
2026-01-31T0000,2632A,94.3683,29.6373,林芝市,林芝监测站,,25,15,10,11,6,79,,94,88,2,3,5,5,0.4,0.4
2026-01-31T0000,2633A,94.3616,29.6634,林芝市,林芝人民医院,,22,16,13,9,7,70,,98,87,4,4,4,6,0.3,0.3
2026-01-31T0000,2603A,100.0779,23.8981,临沧市,市环保局,,46,39,38,32,25,44,,89,68,19,15,7,8,0.7,0.5
2026-01-31T0000,2604A,100.0894,23.882,临沧市,市气象局,颗粒物(PM10),56,62,51,37,35,48,,86,62,9,13,10,10,0.6,0.5
2026-01-31T0000,1733A,111.5552,36.0791,临汾市,临钢医院,细颗粒物(PM2.5),170,138,172,129,138,33,,60,50,32,27,5,5,1.4,1.6
2026-01-31T0000,1734A,111.4984,36.0734,临汾市,技工学校,细颗粒物(PM2.5),196,,158,147,160,21,,63,48,40,30,4,4,1.8,1.9
2026-01-31T0000,1736A,111.5017,36.0857,临汾市,市委,细颗粒物(PM2.5),183,178,191,138,147,22,,62,47,42,26,7,6,1.4,1.5
2026-01-31T0000,3018A,111.5048,36.1015,临汾市,唐尧大酒店,细颗粒物(PM2.5),172,154,164,130,133,25,,65,50,41,26,4,2,1.7,1.8
2026-01-31T0000,4244A,111.4879,36.053,临汾市,启星学校,细颗粒物(PM2.5),152,142,147,116,125,20,,62,47,48,31,4,5,1.2,1.3
2026-01-31T0000,4271A,103.2464,35.6123,临夏回族自治州,滨河东路1号,细颗粒物(PM2.5),128,184,147,97,66,8,,57,36,42,16,5,5,1.5,0.7
2026-01-31T0000,4310A,103.207136,35.599807,临夏回族自治州,新华街21号,细颗粒物(PM2.5),107,161,153,80,66,31,,53,44,20,15,5,5,1.0,0.7
2026-01-31T0000,1618A,118.3429,35.0532,临沂市,沂河小区,,36,36,69,12,37,63,,69,66,15,23,9,11,0.5,0.7
2026-01-31T0000,1619A,118.2962,35.0568,临沂市,鲁南制药厂,,36,34,62,25,46,57,,65,61,19,26,13,11,0.3,0.6
2026-01-31T0000,1620A,118.2793,34.9976,临沂市,新光毛纺厂,,33,31,58,23,44,61,,68,60,18,26,10,10,0.4,0.5
2026-01-31T0000,1621A,118.3955,35.0889,临沂市,河东保险公司,,39,39,67,22,43,59,,73,61,27,31,8,10,0.5,0.7
2026-01-31T0000,3370A,118.3563,35.0215,临沂市,十里堡居委,,34,34,62,15,40,58,,72,66,22,27,11,10,0.4,0.5
2026-01-31T0000,3496A,118.359,35.1067,临沂市,南坊新区,,31,31,66,14,39,71,,72,69,27,30,8,10,0.5,0.7
2026-01-31T0000,3860A,118.3915,35.0297,临沂市,皇山花园小区,,34,34,64,16,44,64,,74,67,28,28,10,12,0.4,0.6
2026-01-31T0000,1870A,109.4854,24.3898,柳州市,柳东小学,,9,8,43,3,25,23,,64,22,7,13,8,10,0.9,0.9
2026-01-31T0000,1871A,109.4109,24.3304,柳州市,环保监测站,,16,16,43,3,20,27,,58,23,13,24,4,5,1.0,1.1
2026-01-31T0000,1872A,109.3886,24.3408,柳州市,河西水厂,,14,10,45,3,25,24,,54,19,13,23,8,8,1.4,1.8
2026-01-31T0000,1873A,109.4263,24.2951,柳州市,市四中,,9,6,42,3,24,26,,54,23,11,24,5,7,0.9,1.1
2026-01-31T0000,1874A,109.396,24.3658,柳州市,市九中,,9,8,35,3,20,24,,51,20,14,21,8,10,0.9,1
2026-01-31T0000,1875A,109.4912,24.3164,柳州市,古亭山,,7,6,33,3,22,22,,64,21,8,18,6,7,0.7,0.7
2026-01-31T0000,3402A,109.5422,24.3994,柳州市,市二中,,10,6,52,3,36,20,,26,19,13,30,8,11,1.0,1
2026-01-31T0000,2307A,116.5078,31.7369,六安市,监测大楼,,28,27,19,19,13,53,,63,56,14,17,1,2,0.3,0.3
2026-01-31T0000,2308A,116.4738,31.7642,六安市,皖西学院,,35,35,24,18,16,56,,69,61,16,16,3,3,0.3,0.3
2026-01-31T0000,2309A,116.4997,31.7904,六安市,朝阳厂,,26,,16,18,14,55,,68,60,14,14,5,4,0.3,0.3
2026-01-31T0000,2310A,116.5566,31.7885,六安市,开发区,,,5,32,,18,54,,62,61,12,9,3,4,0.3,0.3
2026-01-31T0000,2577A,104.8293,26.592,六盘水市,黄土坡,,20,,31,14,26,47,,56,44,13,17,5,7,0.9,1
2026-01-31T0000,2579A,104.8481,26.5898,六盘水市,民中,,16,16,36,7,22,43,,54,38,13,18,3,4,0.9,0.9
2026-01-31T0000,2580A,104.9541,26.5506,六盘水市,双水,,15,,30,9,21,48,,59,46,11,12,4,5,0.9,0.9
2026-01-31T0000,4151A,104.8899,26.5685,六盘水市,钟山大道中段564号,,17,17,38,10,23,42,,52,36,10,13,5,6,0.9,1
2026-01-31T0000,2336A,117.022,25.1031,龙岩市,龙岩市监测站,细颗粒物(PM2.5),52,51,25,36,18,2,,63,28,45,24,12,7,0.9,0.8
2026-01-31T0000,2337A,117.0257,25.0662,龙岩市,闽西职业技术学院,,19,19,22,10,15,2,,59,26,28,18,5,5,0.5,0.7
2026-01-31T0000,2338A,117.0195,25.0306,龙岩市,龙岩学院,,13,12,20,9,17,13,,57,32,15,14,5,5,/,/
2026-01-31T0000,2885A,104.9344,33.3827,陇南市,滨江中学,颗粒物(PM10),89,127,105,59,53,49,,72,62,21,14,8,5,1.2,0.9
2026-01-31T0000,3247A,104.9551,33.3709,陇南市,市总工会,颗粒物(PM10),84,118,99,59,54,52,,70,61,17,14,2,4,0.9,0.9
2026-01-31T0000,2488A,111.9984,27.7346,娄底市,市监测站,细颗粒物(PM2.5),54,,19,38,18,31,,35,34,18,16,6,6,0.7,0.8
2026-01-31T0000,2491A,111.9888,27.7035,娄底市,市政府,,46,45,20,32,14,28,,29,29,22,24,3,3,0.4,0.5
2026-01-31T0000,4127A,111.9812,27.7591,娄底市,涟钢职大,,30,27,23,21,14,30,,32,30,15,16,3,3,0.5,0.6
2026-01-31T0000,4128A,112.0303,27.7457,娄底市,娄底体校,细颗粒物(PM2.5),52,,20,36,17,27,,32,29,13,13,2,2,0.6,0.7
2026-01-31T0000,1894A,105.4427,28.9063,泸州市,小市上码头,,22,21,34,15,26,28,,33,29,7,9,5,5,1.0,1
2026-01-31T0000,1895A,105.4241,28.8573,泸州市,兰田宪桥,,24,24,37,12,22,29,,33,29,14,14,7,7,0.8,0.8
2026-01-31T0000,1896A,105.4378,28.8833,泸州市,市环监站,,27,27,40,18,27,26,,28,,15,17,9,9,0.7,0.9
2026-01-31T0000,4272A,105.3689,28.7783,泸州市,纳溪中医医院,,37,37,43,19,32,25,,28,26,11,13,8,8,0.9,0.9
2026-01-31T0000,2183A,111.1447,37.5212,吕梁市,环保局,细颗粒物(PM2.5),90,123,146,67,109,1,,64,33,58,40,4,6,1.1,1.1
2026-01-31T0000,2185A,111.1285,37.5338,吕梁市,自来水公司,细颗粒物(PM2.5),77,100,145,56,103,24,,59,45,33,32,3,5,0.8,1.2
2026-01-31T0000,2867A,111.1225,37.5093,吕梁市,马茂庄小学,细颗粒物(PM2.5),74,84,151,54,104,29,,60,42,28,38,7,6,0.6,1
2026-01-31T0000,1812A,112.3934,34.6517,洛阳市,市委党校,细颗粒物(PM2.5),172,,116,130,118,26,,52,43,32,27,7,7,1.4,1.1
2026-01-31T0000,1815A,112.494,34.6883,洛阳市,河南林校,细颗粒物(PM2.5),149,115,116,114,111,24,,48,34,37,28,7,7,1.3,1.1
2026-01-31T0000,1816A,112.3843,34.623,洛阳市,开发区管委会,细颗粒物(PM2.5),168,145,140,127,121,17,,48,34,34,25,8,8,1.4,1.1
2026-01-31T0000,1817A,112.4263,34.6249,洛阳市,市委新办公区,细颗粒物(PM2.5),168,142,138,127,127,21,,45,36,41,31,7,7,1.1,0.9
2026-01-31T0000,3340A,112.6005,34.6323,洛阳市,伊滨,细颗粒物(PM2.5),143,137,128,109,106,12,,49,37,42,27,7,7,1.1,0.9
2026-01-31T0000,3341A,112.495,34.6338,洛阳市,中移产业园,细颗粒物(PM2.5),165,,118,125,108,27,,39,32,37,30,10,7,1.3,1.1
2026-01-31T0000,3593A,112.5736,34.8993,洛阳市,吉利监测站,细颗粒物(PM2.5),159,,123,121,124,2,,49,33,57,27,7,7,1.2,1.1
2026-01-31T0000,3635A,112.3678,34.6623,洛阳市,河科大西苑校区,细颗粒物(PM2.5),140,128,124,107,103,13,,52,40,51,32,8,7,1.3,1
2026-01-31T0000,3636A,112.4387,34.678,洛阳市,英才小学,细颗粒物(PM2.5),153,125,123,117,114,32,,58,47,37,30,8,7,1.2,1.1
2026-01-31T0000,4214A,112.460027,34.694929,洛阳市,春都路1号院,细颗粒物(PM2.5),163,140,138,124,109,24,,41,32,30,24,8,6,1.1,0.9
2026-01-31T0000,2399A,114.051,33.5721,漯河市,三五一五工厂,细颗粒物(PM2.5),150,147,118,115,93,20,,20,20,26,24,4,4,1.0,0.8
2026-01-31T0000,2400A,114.0055,33.5698,漯河市,漯河大学,细颗粒物(PM2.5),147,119,95,112,91,22,,21,20,26,24,4,4,0.9,0.8
2026-01-31T0000,2401A,114.0134,33.5826,漯河市,市水利局,细颗粒物(PM2.5),153,127,108,117,102,18,,,,25,25,4,4,1.4,1.6
2026-01-31T0000,2402A,114.0261,33.5697,漯河市,市广电局,细颗粒物(PM2.5),160,129,101,122,94,19,,19,18,22,20,5,5,0.6,0.6
2026-01-31T0000,3478A,113.9691,33.568,漯河市,市图书馆,细颗粒物(PM2.5),139,156,118,106,91,22,,23,21,25,21,6,4,0.7,0.9
2026-01-31T0000,4250A,114.089259,33.588274,漯河市,韶山路11号,细颗粒物(PM2.5),139,143,117,106,93,16,,18,15,30,27,5,6,0.8,0.7
2026-01-31T0000,1798A,118.5084,31.6838,马鞍山市,湖东路四小,,35,,22,24,20,46,,72,56,23,17,2,2,0.8,0.5
2026-01-31T0000,1799A,118.5019,31.6449,马鞍山市,开发区,,32,23,24,22,18,50,,75,62,22,16,3,3,0.4,0.4
2026-01-31T0000,3633A,118.4914,31.681,马鞍山市,雨山,,36,,25,25,19,48,,74,59,21,15,2,2,0.7,0.8
2026-01-31T0000,4191A,118.527362,31.722269,马鞍山市,慈湖高新区,,36,26,25,25,19,46,,76,59,25,16,3,3,0.4,0.5
2026-01-31T0000,1686A,111.0285,21.469,茂名市,电白南海,,21,17,36,6,18,65,,97,76,11,8,8,11,0.8,0.8
2026-01-31T0000,1687A,110.9294,21.6533,茂名市,茂石化七小,,24,24,38,14,16,57,,100,73,16,15,7,6,0.4,0.5
2026-01-31T0000,1688A,110.9108,21.6688,茂名市,健康路,,20,19,29,14,16,63,,114,84,16,15,9,9,0.7,0.7
2026-01-31T0000,1689A,110.8592,21.6826,茂名市,高岭,,34,34,57,16,23,54,,105,74,14,15,8,15,/,/
2026-01-31T0000,3450A,111.0101,21.5165,茂名市,电白水东,,20,,27,13,17,63,,96,77,15,17,8,9,/,/
2026-01-31T0000,2540A,103.8414,30.0871,眉山市,气象局,颗粒物(PM10),77,103,89,54,52,27,,68,49,37,30,13,14,0.7,0.8
2026-01-31T0000,3148A,103.829,30.0563,眉山市,区人社局,"颗粒物(PM10),细颗粒物(PM2.5)",68,86,82,49,52,29,,61,43,34,32,7,9,0.8,0.8
2026-01-31T0000,4148A,103.8836,30.0695,眉山市,眉职院,颗粒物(PM10),63,75,91,38,50,51,,74,55,17,26,2,2,0.7,0.9
2026-01-31T0000,1690A,116.1248,24.3307,梅州市,梅江月梅,,26,19,26,18,23,17,,59,33,32,18,/,/,/,/
2026-01-31T0000,1691A,116.0798,24.2719,梅州市,梅县新城,,25,19,31,17,26,30,,55,29,17,26,7,7,0.4,0.6
2026-01-31T0000,3315A,116.1234,24.2994,梅州市,梅龙,,20,14,28,14,25,27,,54,32,22,18,8,8,0.6,0.7
2026-01-31T0000,1878A,104.7775,31.4741,绵阳市,富乐山,颗粒物(PM10),73,96,49,48,27,25,,66,40,21,15,8,8,0.7,0.6
2026-01-31T0000,1880A,104.6698,31.4668,绵阳市,高新区自来水公司,细颗粒物(PM2.5),87,108,59,64,34,3,,60,40,56,23,8,8,0.8,0.8
2026-01-31T0000,3491A,104.6899,31.5324,绵阳市,西科大附属小学,细颗粒物(PM2.5),85,109,62,63,37,6,,56,33,44,28,8,8,0.8,0.7
2026-01-31T0000,3492A,104.5647,31.5343,绵阳市,安州区旅游局,"颗粒物(PM10),细颗粒物(PM2.5)",72,93,49,52,29,18,,45,36,25,19,9,9,1.1,1
2026-01-31T0000,4146A,104.7092,31.4972,绵阳市,科技城新区公安局,颗粒物(PM10),79,107,55,56,32,15,,66,44,51,29,6,6,0.8,0.8
2026-01-31T0000,4226A,104.765114,31.453094,绵阳市,绵阳市气象局,细颗粒物(PM2.5),79,101,56,58,31,15,,64,43,40,20,8,7,0.9,0.8
2026-01-31T0000,1784A,129.61,44.561,牡丹江市,环保大楼,,35,35,37,23,21,63,,68,66,13,14,2,3,0.3,0.3
2026-01-31T0000,1787A,129.6364,44.6075,牡丹江市,机车工厂,,42,42,40,21,20,41,,68,63,34,17,6,7,0.4,0.4
2026-01-31T0000,1788A,129.6386,44.5462,牡丹江市,第一中学,,35,35,29,20,18,22,,71,61,42,14,4,4,0.4,0.3
2026-01-31T0000,4287A,129.5992,44.5964,牡丹江市,东晓云街98号,,46,46,38,24,19,65,,72,70,11,16,4,4,0.3,0.3
2026-01-31T0000,2531A,105.0703,29.61,内江市,市监测站,,39,39,35,26,24,23,,56,45,36,20,4,4,0.9,0.9
2026-01-31T0000,2533A,105.0657,29.5807,内江市,内江二中,,38,38,38,20,21,28,,52,44,30,20,7,7,0.7,0.6
2026-01-31T0000,2534A,105.0407,29.5828,内江市,内江日报社,,45,45,32,19,23,16,,55,42,49,24,4,4,0.8,0.8
2026-01-31T0000,4147A,105.0433,29.6105,内江市,玉峰路西段888号,,48,48,34,26,23,16,,49,35,40,24,2,3,0.9,0.8
2026-01-31T0000,2628A,92.0653,31.4846,那曲市,那曲监测站,颗粒物(PM10),54,57,27,34,26,34,,79,54,35,15,9,6,1.7,0.9
2026-01-31T0000,4243A,92.0515,31.4787,那曲市,那曲市委宣传部,,25,21,19,17,15,37,,83,66,21,6,6,4,0.7,0.5
2026-01-31T0000,1291A,115.8887,28.7006,南昌市,省林业公司,,12,,20,7,21,37,,33,33,12,22,3,3,0.4,0.5
2026-01-31T0000,1292A,115.813,28.7443,南昌市,林科所,,11,6,22,3,15,33,,32,27,14,20,3,3,0.5,0.6
2026-01-31T0000,1294A,115.8518,28.687,南昌市,建工学校,,23,23,34,6,19,27,,27,22,23,30,7,7,0.8,0.9
2026-01-31T0000,1295A,115.8926,28.6425,南昌市,象湖,,12,,32,8,24,29,,26,25,18,21,8,8,0.7,0.8
2026-01-31T0000,3046A,115.9084,28.6062,南昌市,机电学校,,12,11,35,8,22,35,,29,29,18,25,4,4,0.5,0.5
2026-01-31T0000,3690A,115.9718,28.7032,南昌市,外国语学校,,12,9,34,3,24,34,,33,33,23,27,10,11,0.7,0.8
2026-01-31T0000,4106A,115.7923,28.6873,南昌市,工业二路,,16,16,31,7,18,38,,39,33,14,17,3,3,0.6,0.7
2026-01-31T0000,4192A,115.931587,28.686774,南昌市,南京东路235号,,16,16,38,7,32,37,,30,30,12,21,5,5,0.4,0.5
2026-01-31T0000,1906A,106.0791,30.8022,南充市,南充市委,,34,34,20,23,14,11,,39,20,41,26,4,4,0.7,0.8
2026-01-31T0000,1907A,106.1038,30.8215,南充市,南充炼油厂,细颗粒物(PM2.5),58,53,28,41,12,5,,44,27,41,18,5,5,0.9,0.8
2026-01-31T0000,4227A,106.108336,30.788436,南充市,梨树横街98号,,35,35,20,20,13,25,,46,33,34,20,6,6,0.7,0.7
2026-01-31T0000,4304A,106.1172,30.843,南充市,清泉寺北路188号,,34,34,14,22,11,22,,55,45,28,11,6,6,0.6,0.6
2026-01-31T0000,4305A,106.067,30.7616,南充市,同庆路1号,,39,39,20,22,11,1,,40,20,52,30,7,7,0.8,0.8
2026-01-31T0000,1151A,118.8033,32.1085,南京市,迈皋桥,,25,23,24,17,20,46,,71,52,24,22,5,5,0.2,0.3
2026-01-31T0000,1152A,118.7487,32.057,南京市,草场门,,22,22,21,14,18,51,,58,53,28,25,4,3,0.5,0.6
2026-01-31T0000,1154A,118.770105,32.004342,南京市,中华门,,19,19,19,11,15,56,,78,57,15,14,4,4,0.4,0.4
2026-01-31T0000,1155A,118.8059,32.0329,南京市,瑞金路,,20,12,18,10,16,63,,86,63,10,9,4,4,1.0,0.9
2026-01-31T0000,1156A,118.7946,32.0774,南京市,玄武湖,,25,22,27,17,17,42,,67,45,40,35,4,4,0.4,0.4
2026-01-31T0000,1157A,118.6415,32.0964,南京市,浦口,,32,32,31,13,18,57,,71,56,17,19,4,4,0.5,0.4
2026-01-31T0000,1158A,118.730129,32.000956,南京市,奥体中心,,18,18,23,12,15,57,,81,60,16,14,4,4,0.3,0.4
2026-01-31T0000,1159A,118.9072,32.1047,南京市,仙林大学城,,22,22,26,15,17,50,,77,56,21,17,4,5,0.4,0.4
2026-01-31T0000,3422A,118.8443,31.919,南京市,江宁彩虹桥,,25,25,28,11,15,46,,84,56,22,19,3,3,0.5,0.6
2026-01-31T0000,3427A,118.8497,32.3599,南京市,六合雄州,,19,19,29,6,17,59,,79,65,11,11,10,9,0.5,0.4
2026-01-31T0000,4086A,118.7641,32.0841,南京市,新模范马路66号,,27,27,26,10,16,67,,96,71,5,4,5,4,0.6,0.7
2026-01-31T0000,4249A,118.8707617,31.34017673,南京市,汶溪路181号,,22,22,29,9,12,52,,70,52,20,22,4,4,0.6,0.7
2026-01-31T0000,4312A,119.019,31.6512,南京市,中山西路1号,,22,22,22,11,11,46,,67,54,18,17,4,3,0.6,0.7
2026-01-31T0000,1401A,108.3098,22.788,南宁市,二十一中,,33,,42,23,27,22,,76,54,19,16,4,4,0.7,0.6
2026-01-31T0000,1402A,108.3135,22.8529,南宁市,北湖,,,,49,24,34,18,,80,46,,22,3,2,1.0,0.8
2026-01-31T0000,1403A,108.3205,22.8222,南宁市,市监测站,,30,23,44,21,28,18,,80,50,22,19,6,6,0.9,0.7
2026-01-31T0000,1404A,108.3828,22.8038,南宁市,大自然花园,,31,31,48,17,25,27,,88,58,13,12,6,6,0.8,0.7
2026-01-31T0000,1406A,108.2397,22.8462,南宁市,区农职院,,30,25,47,21,25,25,,83,44,17,23,4,6,1.0,0.7
2026-01-31T0000,1407A,108.3285,22.7356,南宁市,英华嘉园,,20,17,51,14,30,28,,79,50,16,21,3,3,0.7,0.5
2026-01-31T0000,3401A,108.4829,22.762,南宁市,红星社区,,22,21,43,15,26,32,,90,50,11,17,4,4,1.0,0.8
2026-01-31T0000,4132A,108.2927,23.1477,南宁市,起凤路9号,,18,18,43,12,28,39,,92,56,11,14,2,2,0.6,0.5
2026-01-31T0000,4221A,108.2177,22.7774,南宁市,乐贤路16号,,46,46,50,30,27,18,,80,40,25,27,4,2,1.0,0.8
2026-01-31T0000,2332A,118.1682,26.6371,南平市,南平市监测站,,37,37,24,20,15,7,,74,35,33,13,4,4,0.9,0.7
2026-01-31T0000,2334A,118.1757,26.6276,南平市,南平七中,,33,28,23,23,15,14,,76,40,28,11,4,3,0.7,0.5
2026-01-31T0000,1168A,120.9056,31.9669,南通市,狼山街道,,22,9,28,3,15,68,,84,68,10,10,2,3,0.3,0.4
2026-01-31T0000,1170A,120.8635,32.0231,南通市,城中,,20,15,32,6,17,63,,79,66,13,14,3,4,0.5,0.6
2026-01-31T0000,1171A,120.9376,31.9301,南通市,星湖花园,,22,11,29,3,15,68,,84,71,14,14,3,3,0.3,0.5
2026-01-31T0000,1172A,120.8053,32.046,南通市,紫琅学院,,21,8,31,3,14,66,,80,66,12,14,3,3,0.5,0.5
2026-01-31T0000,3291A,121.0631,32.0644,南通市,通州监测站,,,7,26,3,16,79,,89,88,9,14,,2,0.3,0.4
2026-01-31T0000,3432A,120.9348,31.9874,南通市,环境教育馆,,21,14,30,3,15,67,,83,70,9,10,3,3,0.4,0.5
2026-01-31T0000,4091A,120.8692,31.9885,南通市,洪江路,,20,7,25,3,16,64,,80,65,12,14,4,3,0.4,0.4
2026-01-31T0000,2404A,112.5338,33.0086,南阳市,瓦房庄,细颗粒物(PM2.5),99,104,85,74,65,34,,67,49,22,15,3,3,0.9,0.9
2026-01-31T0000,2405A,112.5002,32.9734,南阳市,汉画馆,细颗粒物(PM2.5),140,,88,107,91,34,,67,48,26,19,5,6,0.9,0.9
2026-01-31T0000,2406A,112.5778,33.0144,南阳市,气象站,细颗粒物(PM2.5),115,123,97,87,74,22,,65,43,35,18,4,4,0.9,0.9
2026-01-31T0000,2407A,112.548,32.9687,南阳市,理工学院,细颗粒物(PM2.5),123,97,84,93,71,28,,63,44,30,21,4,4,0.8,0.8
2026-01-31T0000,4008A,112.5233,32.9921,南阳市,卧龙区政府,细颗粒物(PM2.5),119,114,95,90,73,30,,64,46,29,19,4,5,0.9,0.9
2026-01-31T0000,1234A,121.8352,29.9111,宁波市,区环保大楼,,25,12,37,3,18,33,,64,,49,34,4,5,0.4,0.5
2026-01-31T0000,1235A,121.5595,29.8208,宁波市,万里学院,,22,20,52,3,17,69,,69,69,17,41,3,3,0.6,0.7
2026-01-31T0000,1236A,121.713,29.9564,宁波市,龙赛医院,,25,7,35,3,12,79,,74,72,9,26,2,3,0.3,0.5
2026-01-31T0000,1240A,121.5855,29.8635,宁波市,太古小学,,24,11,35,3,15,74,,75,73,9,23,2,2,0.4,0.4
2026-01-31T0000,1241A,121.5239,29.8673,宁波市,市环境监测中心,,25,25,40,3,16,65,,66,66,10,29,7,6,0.4,0.5
2026-01-31T0000,2871A,121.6156,29.9015,宁波市,万里国际学校,,24,20,38,3,17,74,,72,72,13,32,2,3,0.2,0.3
2026-01-31T0000,3710A,121.5593,29.8976,宁波市,白沙活动中心,,23,18,36,7,18,73,,68,68,9,28,5,4,0.2,0.3
2026-01-31T0000,4095A,121.8962,29.7529,宁波市,中科路88号,,22,8,27,3,12,70,,82,70,16,19,4,5,0.3,0.3
2026-01-31T0000,2341A,119.5387,26.6611,宁德市,宁德市监测站,,47,47,37,28,25,1,,31,3,50,35,4,4,1.0,0.8
2026-01-31T0000,3209A,119.5231,26.6562,宁德市,宁德一中,,29,28,34,20,26,2,,37,5,23,25,2,3,0.6,0.6
2026-01-31T0000,2618A,98.859,25.8541,怒江傈僳族自治州,州监测站,细颗粒物(PM2.5),62,66,43,44,29,68,,90,84,9,11,6,6,0.5,0.4
2026-01-31T0000,2619A,98.8607,25.8168,怒江傈僳族自治州,泸水一中,细颗粒物(PM2.5),62,47,34,44,26,64,,76,71,11,16,5,4,0.6,0.5
2026-01-31T0000,1888A,101.6891,26.571,攀枝花市,弄弄坪,颗粒物(PM10),63,75,72,30,26,24,,78,56,52,39,59,66,2.5,2.7
2026-01-31T0000,1889A,101.577,26.5914,攀枝花市,河门口,颗粒物(PM10),53,56,47,26,22,28,,86,63,38,25,20,18,0.8,0.8
2026-01-31T0000,1891A,101.7365,26.4986,攀枝花市,仁和,,32,32,34,20,22,50,,81,56,16,17,8,8,0.6,0.6
2026-01-31T0000,2835A,101.7222,26.567,攀枝花市,四十中小,,48,41,39,33,18,38,,80,66,42,31,10,14,1.0,0.9
2026-01-31T0000,1604A,122.0303,41.1489,盘锦市,开发区,颗粒物(PM10),54,58,49,32,36,54,,70,48,21,31,9,7,0.9,1.2
2026-01-31T0000,1605A,122.0486,41.0883,盘锦市,兴隆台,细颗粒物(PM2.5),52,40,54,36,40,27,,64,35,48,43,14,9,0.8,0.8
2026-01-31T0000,1606A,121.8297,41.1026,盘锦市,新生街道,细颗粒物(PM2.5),70,56,48,51,37,12,,71,31,64,43,14,8,0.8,0.7
2026-01-31T0000,1832A,113.3257,33.7423,平顶山市,新华旅馆,细颗粒物(PM2.5),137,117,109,104,88,28,,55,38,34,26,6,5,0.8,0.8
2026-01-31T0000,1833A,113.2917,33.737,平顶山市,规划设计院,细颗粒物(PM2.5),144,135,107,110,84,25,,57,42,32,19,6,5,0.9,0.7
2026-01-31T0000,1834A,113.182,33.7738,平顶山市,平顶山工学院,细颗粒物(PM2.5),149,115,97,114,87,32,,54,49,22,18,7,6,0.9,0.8
2026-01-31T0000,3594A,112.8736,33.9068,平顶山市,石龙区,细颗粒物(PM2.5),132,117,109,100,103,22,,59,47,24,16,5,5,1.1,1.1
2026-01-31T0000,4116A,113.284,33.7139,平顶山市,姚电大道23号,细颗粒物(PM2.5),162,143,110,123,93,10,,57,39,49,25,6,6,0.9,0.8
2026-01-31T0000,2656A,106.6633,35.5338,平凉市,聚贤嘉苑,颗粒物(PM10),106,162,146,44,42,37,,84,61,30,18,7,8,0.7,0.7
2026-01-31T0000,2657A,106.7021,35.5307,平凉市,博物馆,颗粒物(PM10),115,179,147,65,56,29,,79,55,38,19,10,9,0.8,0.6
2026-01-31T0000,2348A,113.8384,27.6436,萍乡市,中医院,,39,33,54,27,32,10,,18,14,27,29,3,5,1.1,1.1
2026-01-31T0000,2350A,113.8677,27.6438,萍乡市,市环保局,,,,41,,32,,,20,18,,24,,9,,1
2026-01-31T0000,2351A,113.8663,27.6202,萍乡市,安源区政府,,32,30,57,22,30,14,,18,16,3,14,2,4,0.5,0.7
2026-01-31T0000,4107A,113.8686,27.6668,萍乡市,联洪村委会,,36,30,49,25,33,14,,16,14,29,30,2,4,1.2,1.1
2026-01-31T0000,2319A,119.0142,25.4324,莆田市,荔城区仓后路,,47,47,28,29,16,15,,66,27,36,22,/,/,/,/
2026-01-31T0000,2320A,119.0016,25.4553,莆田市,莆田市监测站,,40,30,22,28,12,11,,72,30,30,14,3,3,0.5,0.4
2026-01-31T0000,2321A,119.112,25.4561,莆田市,涵江区六中,,32,26,24,22,12,2,,67,26,46,20,/,/,0.5,0.5
2026-01-31T0000,2322A,119.1014,25.3215,莆田市,秀屿区政府,,43,,25,30,19,42,,67,55,16,14,7,3,0.6,0.5
2026-01-31T0000,2392A,115.0312,35.7636,濮阳市,环保局,细颗粒物(PM2.5),119,,84,90,76,58,,39,39,12,23,5,5,1.0,1.2
2026-01-31T0000,3021A,115,35.7667,濮阳市,濮水河管理处,细颗粒物(PM2.5),127,111,101,96,82,54,,35,35,15,26,5,5,1.0,0.9
2026-01-31T0000,4118A,115.0552,35.7816,濮阳市,中原东路68号,细颗粒物(PM2.5),114,116,108,86,75,62,,40,40,18,30,4,4,1.3,1.1
2026-01-31T0000,4216A,115.0923632,35.76857718,濮阳市,任丘路479号,细颗粒物(PM2.5),125,118,107,95,85,60,,35,35,19,33,4,5,0.9,0.9
2026-01-31T0000,2601A,100.9801,22.7634,普洱市,市环保局,颗粒物(PM10),57,64,56,29,26,44,,98,73,12,11,4,4,0.5,0.5
2026-01-31T0000,2602A,100.9763,22.8237,普洱市,普洱第二中学,颗粒物(PM10),60,69,57,35,30,11,,98,62,44,22,5,5,0.3,0.2
2026-01-31T0000,3345A,131.0413,45.7795,七台河市,中波台,,40,33,34,28,21,50,,65,55,11,10,7,8,0.5,0.5
2026-01-31T0000,3637A,131.0136,45.7688,七台河市,人民广场,,,47,39,32,20,,,68,55,19,18,8,7,0.6,0.5
2026-01-31T0000,3684A,130.8639,45.8144,七台河市,新建矿广场,,38,31,36,26,22,48,,62,47,12,13,8,7,0.6,0.5
2026-01-31T0000,1779A,123.9307,47.3641,齐齐哈尔市,安居小区,"颗粒物(PM10),细颗粒物(PM2.5)",52,53,28,36,9,26,,69,34,44,20,12,7,0.5,0.4
2026-01-31T0000,1780A,123.9497,47.3389,齐齐哈尔市,中心广场,,44,44,20,29,11,54,,64,46,18,15,8,5,0.5,0.5
2026-01-31T0000,1781A,123.9483,47.3229,齐齐哈尔市,农牧车辆厂,,45,41,28,31,11,47,,62,41,18,14,7,4,0.4,0.4
2026-01-31T0000,1783A,123.9442,47.2994,齐齐哈尔市,市环境监测站,,36,32,29,25,11,54,,66,32,19,19,5,4,0.5,0.5
2026-01-31T0000,3662A,123.6341,47.2079,齐齐哈尔市,富区青少年活动中心,,35,34,37,24,12,59,,70,56,10,12,6,5,0.5,0.4
2026-01-31T0000,2591A,107.9765,26.5724,黔东南苗族侗族自治州,市环境监测站,,16,11,8,11,8,44,,48,47,8,8,4,4,0.7,0.8
2026-01-31T0000,2881A,107.8909,26.531,黔东南苗族侗族自治州,凯里学院,,14,,9,7,11,44,,45,45,14,15,3,3,0.8,0.9
2026-01-31T0000,2593A,107.5223,26.2371,黔南布依族苗族自治州,小围寨,,16,,8,11,9,35,,34,34,7,6,4,4,0.9,1
2026-01-31T0000,3538A,107.5175,26.2977,黔南布依族苗族自治州,沙坝,,15,14,15,8,11,45,,41,41,8,9,4,5,0.8,0.9
2026-01-31T0000,2589A,104.9022,25.0943,黔西南布依族苗族自治州,场坝街,,49,49,46,29,37,53,,47,47,12,15,2,4,0.8,0.8
2026-01-31T0000,2590A,104.8812,25.0994,黔西南布依族苗族自治州,坪东大道,,50,50,50,35,36,51,,44,44,11,14,5,5,1.0,0.9
2026-01-31T0000,2502A,108.6238,21.9667,钦州市,市环保站,细颗粒物(PM2.5),102,102,58,76,30,20,,99,61,42,18,4,3,0.9,0.6
2026-01-31T0000,2503A,108.655,21.9481,钦州市,沙埠小学,颗粒物(PM10),81,111,57,53,24,17,,104,56,43,20,4,5,0.7,0.5
2026-01-31T0000,2504A,108.5989,21.7435,钦州市,港区一小,颗粒物(PM10),68,85,60,37,23,17,,93,48,62,24,2,2,0.9,0.6
2026-01-31T0000,3404A,108.5959,21.9634,钦州市,北职校,颗粒物(PM10),76,101,48,52,24,8,,98,52,48,19,4,3,1.0,0.8
2026-01-31T0000,1046A,119.5247,39.9346,秦皇岛市,建设大厦,细颗粒物(PM2.5),105,99,84,79,57,24,,61,50,43,35,8,9,1.0,0.8
2026-01-31T0000,3132A,119.5979,39.938,秦皇岛市,文明里,细颗粒物(PM2.5),102,93,77,76,51,37,,65,59,37,39,11,12,0.8,0.6
2026-01-31T0000,4066A,119.7458,39.9952,秦皇岛市,南园路157号,细颗粒物(PM2.5),89,83,65,66,46,50,,68,58,30,45,9,11,0.8,0.7
2026-01-31T0000,4067A,119.5131,39.8858,秦皇岛市,翠岛大街1号,细颗粒物(PM2.5),99,106,73,74,50,11,,64,46,77,48,10,11,1.1,0.7
2026-01-31T0000,4198A,119.509013,39.825305,秦皇岛市,北戴河轮滑馆,细颗粒物(PM2.5),87,86,76,64,50,43,,70,61,39,43,9,8,0.9,0.8
2026-01-31T0000,1310A,120.404,36.0625,青岛市,市南区东部子站,,36,36,30,15,12,69,,77,72,14,15,9,8,0.4,0.5
2026-01-31T0000,1311A,120.362344,36.10282,青岛市,四方区子站,,39,39,42,20,17,65,,68,65,15,17,4,5,0.7,0.7
2026-01-31T0000,1312A,120.294373,36.054183,青岛市,市南区西部子站,,39,39,27,17,15,62,,72,71,21,20,4,5,0.5,0.5
2026-01-31T0000,1313A,120.4581,36.0858,青岛市,崂山区子站,,24,24,22,14,10,55,,80,68,25,16,9,10,0.4,0.4
2026-01-31T0000,1315A,120.3945,36.3083,青岛市,城阳区子站,细颗粒物(PM2.5),57,58,38,40,21,32,,76,40,48,28,7,7,0.8,0.7
2026-01-31T0000,3642A,120.3454,36.0735,青岛市,市北区南部,,30,30,32,15,13,64,,68,65,13,17,2,3,0.4,0.5
2026-01-31T0000,3643A,120.3897,36.18,青岛市,李沧区北部,,45,39,34,31,21,26,,68,40,50,24,8,8,0.7,0.5
2026-01-31T0000,4110A,120.5222,36.4089,青岛市,盟旺路653号,,34,34,35,18,16,60,,78,66,18,15,3,3,0.5,0.6
2026-01-31T0000,4290A,120.196923,35.954556,青岛市,珠江路669号,,35,31,28,24,18,57,,72,68,24,27,5,6,0.4,0.4
2026-01-31T0000,4291A,120.0424,35.8656,青岛市,黄岛区人民政府广场,,39,39,34,24,14,39,,82,65,41,23,7,8,0.9,0.7
2026-01-31T0000,1703A,113.0218,23.7086,清远市,凤城街办,颗粒物(PM10),51,51,60,29,43,34,,135,,42,37,/,/,/,/
2026-01-31T0000,3025A,113.0479,23.6343,清远市,技师学院,,34,34,65,19,37,37,,125,58,33,48,4,7,0.6,0.7
2026-01-31T0000,3318A,112.9898,23.7403,清远市,清新太和,颗粒物(PM10),51,51,60,31,37,62,,163,88,25,37,8,8,0.7,0.7
2026-01-31T0000,3455A,113.076,23.72,清远市,清城东城,,34,34,56,16,34,40,,141,68,20,30,/,/,/,/
2026-01-31T0000,2661A,107.6325,35.7357,庆阳市,庆阳五中,颗粒物(PM10),120,189,117,56,62,71,,81,77,10,16,4,4,0.4,0.7
2026-01-31T0000,2662A,107.6361,35.7067,庆阳市,市环保局,颗粒物(PM10),116,181,115,53,57,70,,80,75,11,15,4,4,0.5,0.6
2026-01-31T0000,1916A,103.7897,25.5036,曲靖市,环境监测站,颗粒物(PM10),51,52,34,34,19,42,,107,79,17,12,6,5,0.9,0.5
2026-01-31T0000,1917A,103.8013,25.5357,曲靖市,烟厂办公区,颗粒物(PM10),54,58,34,25,16,29,,101,77,18,11,6,4,1.2,0.4
2026-01-31T0000,3376A,103.7926,25.4651,曲靖市,南苑二区,,50,50,31,35,18,52,,95,76,11,7,4,4,0.7,0.4
2026-01-31T0000,3377A,103.7442,25.5259,曲靖市,曲靖师范学院,,50,50,39,33,23,35,,103,81,17,16,4,4,0.9,0.4
2026-01-31T0000,1264A,118.8694,28.94,衢州市,环保大楼,,12,11,35,8,19,38,,46,35,22,26,/,/,/,/
2026-01-31T0000,1266A,118.8622,28.9809,衢州市,衢州学院,,16,8,28,6,15,22,,48,26,31,22,3,4,0.4,0.4
2026-01-31T0000,4097A,118.9646,28.9832,衢州市,衢州三中,,15,10,29,6,16,34,,40,31,29,27,4,4,0.3,0.4
2026-01-31T0000,1611A,118.5818,24.9116,泉州市,涂山街,,39,29,26,27,20,32,,59,37,25,17,3,3,0.6,0.5
2026-01-31T0000,1612A,118.597,24.8976,泉州市,津头埔,,43,,28,30,21,31,,56,36,24,18,3,2,0.5,0.5
2026-01-31T0000,1613A,118.6669,24.9422,泉州市,万安,,42,32,30,29,18,34,,56,40,23,20,4,2,0.7,0.6
2026-01-31T0000,4105A,118.6355,24.9148,泉州市,霞新路6号,,42,34,31,29,19,30,,51,36,27,22,/,/,0.5,0.5
2026-01-31T0000,2626A,88.8873,29.2723,日喀则市,日喀则监测站,细颗粒物(PM2.5),108,95,20,81,16,16,,93,59,44,11,13,8,1.4,0.5
2026-01-31T0000,3726A,88.8775,29.2425,日喀则市,林业技术推广中心,,32,32,13,20,3,38,,83,66,16,5,7,5,0.6,0.3
2026-01-31T0000,1659A,119.4711,35.421,日照市,监测站,,48,48,50,23,26,4,,82,62,74,28,13,9,0.9,0.7
2026-01-31T0000,1660A,119.523,35.4216,日照市,市政府广场,,41,41,42,13,20,48,,86,79,37,21,8,8,0.4,0.4
2026-01-31T0000,1661A,119.5511,35.4113,日照市,港务局,,44,44,45,9,18,37,,86,74,53,24,6,7,0.5,0.5
2026-01-31T0000,3507A,119.5326,35.4627,日照市,职业技术学院,,39,39,44,27,24,9,,84,65,60,25,9,8,1.0,0.8
2026-01-31T0000,3604A,119.3267,35.1043,日照市,岚山环保分局,,25,22,45,6,15,78,,82,78,13,16,8,8,0.6,0.6
2026-01-31T0000,1835A,111.1922,34.7752,三门峡市,市政府,细颗粒物(PM2.5),168,,94,127,119,33,,68,48,39,25,7,7,1.0,1
2026-01-31T0000,1836A,111.1588,34.794,三门峡市,开发区,细颗粒物(PM2.5),158,126,131,120,111,35,,65,52,31,25,5,5,1.0,1
2026-01-31T0000,3039A,111.1911,34.7829,三门峡市,三门峡市第一小学,细颗粒物(PM2.5),153,,105,117,110,35,,66,48,35,24,6,6,1.0,1
2026-01-31T0000,3598A,111.1031,34.719,三门峡市,富达温泉假日酒店,细颗粒物(PM2.5),153,119,118,117,110,16,,64,43,57,31,8,5,1.2,1
2026-01-31T0000,2324A,117.621,26.2626,三明市,三钢,,39,27,33,27,22,14,,74,43,38,20,7,6,0.8,0.7
2026-01-31T0000,2325A,117.6352,26.2714,三明市,三明二中,,28,26,25,19,18,21,,70,45,29,16,4,3,0.8,0.8
2026-01-31T0000,2326A,117.6028,26.2377,三明市,三元区政府,,48,48,33,23,21,1,,72,30,47,24,4,6,1.1,1
2026-01-31T0000,1877A,109.4962,18.2682,三亚市,河西子站,,36,36,31,16,13,56,,88,72,15,10,3,3,0.4,0.4
2026-01-31T0000,3540A,109.7348,18.3443,三亚市,君悦子站,,24,24,46,11,13,66,,92,85,11,9,4,4,0.3,0.3
2026-01-31T0000,4135A,109.1714,18.3739,三亚市,城东小学站,,50,50,29,27,14,36,,67,,15,9,/,/,/,/
2026-01-31T0000,2624A,91.7592,29.234,山南市,山南监测站,,33,33,22,21,7,35,,95,67,25,10,5,4,0.9,0.6
2026-01-31T0000,2625A,91.7701,29.2436,山南市,山南人民医院,,21,16,22,8,10,65,,86,70,4,7,7,7,0.6,0.6
2026-01-31T0000,1674A,116.6795,23.3666,汕头市,金平子站,,49,,38,34,21,75,,81,76,19,20,7,5,0.8,0.8
2026-01-31T0000,1675A,116.7248,23.3632,汕头市,龙湖子站,,40,31,36,28,20,82,,84,82,12,15,10,10,/,/
2026-01-31T0000,1676A,116.7257,23.2774,汕头市,濠江子站,,28,22,33,19,17,80,,88,86,14,16,7,7,/,/
2026-01-31T0000,1677A,116.7518,23.4712,汕头市,澄海子站,,38,35,45,26,23,70,,80,77,14,17,7,9,0.7,0.7
2026-01-31T0000,1678A,116.6088,23.2539,汕头市,潮阳子站,,28,20,34,19,20,82,,88,86,9,12,6,6,0.5,0.5
2026-01-31T0000,3444A,116.4539,23.2684,汕头市,潮南峡山,,43,43,55,26,29,72,,95,79,16,19,6,8,0.6,0.6
2026-01-31T0000,3624A,116.4069,23.2533,汕头市,潮南子站,,49,49,67,25,29,66,,83,70,15,21,6,8,/,/
2026-01-31T0000,1693A,115.3653,22.7751,汕尾市,市环保局,,46,46,41,28,21,51,,79,63,19,14,7,7,0.8,0.7
2026-01-31T0000,1695A,115.362,22.7926,汕尾市,新城中学,,46,39,37,32,21,54,,77,59,14,14,6,6,0.6,0.6
2026-01-31T0000,2645A,109.9155,33.8714,商洛市,监测站,细颗粒物(PM2.5),65,60,43,47,39,41,,61,52,21,19,4,4,0.9,0.8
2026-01-31T0000,3045A,109.9647,33.8486,商洛市,商州区中学,,,,35,,38,,,45,,,20,,5,,1.1
2026-01-31T0000,2408A,115.6701,34.4283,商丘市,环境监测站,细颗粒物(PM2.5),176,161,138,133,108,1,,26,21,51,29,3,2,0.9,0.9
2026-01-31T0000,2409A,115.6458,34.4047,商丘市,粮食局,细颗粒物(PM2.5),183,148,121,138,108,2,,29,25,52,29,3,2,0.8,0.7
2026-01-31T0000,3171A,115.6069,34.4465,商丘市,梁园区档案局,细颗粒物(PM2.5),176,155,111,133,103,1,,27,20,44,28,3,3,0.8,0.7
2026-01-31T0000,4119A,115.6701,34.3767,商丘市,北海东路185号,细颗粒物(PM2.5),137,143,139,104,100,21,,30,26,28,26,2,2,0.9,0.8
2026-01-31T0000,4120A,115.6172,34.3704,商丘市,中山大街3号,细颗粒物(PM2.5),168,176,141,127,105,3,,33,26,47,29,5,5,0.8,0.7
2026-01-31T0000,1141A,121.401,31.2382,上海市,普陀,,21,11,31,11,21,67,,84,69,17,19,5,5,0.4,0.4
2026-01-31T0000,1142A,121.4774,31.2043,上海市,十五厂,,20,12,33,7,17,64,,86,68,22,26,7,6,0.3,0.5
2026-01-31T0000,1143A,121.4673,31.3011,上海市,虹口,,19,11,34,8,17,59,,75,65,17,17,6,6,0,0.1
2026-01-31T0000,1147A,121.4253,31.226,上海市,静安监测站,,22,10,29,7,18,70,,88,73,20,21,6,6,0.6,0.7
2026-01-31T0000,1148A,121.7029,31.1905,上海市,浦东川沙,,24,11,32,6,19,74,,82,80,10,13,7,7,0.5,0.6
2026-01-31T0000,1149A,121.5339,31.229,上海市,浦东新区监测站,,19,10,31,9,20,58,,81,63,12,10,5,5,0.4,0.5
2026-01-31T0000,1150A,121.5776,31.2038,上海市,浦东张江,,20,9,39,7,20,63,,88,74,21,17,6,6,0.2,0.3
2026-01-31T0000,3265A,121.4242,31.3303,上海市,宝山庙行,,20,11,34,7,18,62,,70,66,18,19,7,8,0.3,0.4
2026-01-31T0000,3266A,121.8789,31.4662,上海市,崇明上实东滩,,26,8,31,3,19,83,,92,84,3,4,4,4,0,0
2026-01-31T0000,3268A,121.316,31.2839,上海市,嘉定南翔,,19,15,31,11,15,58,,81,69,21,19,2,3,0.2,0.4
2026-01-31T0000,3269A,121.3357,30.7455,上海市,金山新城,,22,10,28,9,20,69,,87,70,16,18,7,7,0.5,0.6
2026-01-31T0000,3270A,121.4996,31.0741,上海市,闵行浦江,,20,11,30,7,18,63,,80,73,17,14,5,5,0.4,0.5
2026-01-31T0000,3271A,121.2886,31.1663,上海市,青浦徐泾,,22,11,30,8,19,70,,91,68,22,25,4,4,0.3,0.4
2026-01-31T0000,3272A,121.2193,31.0382,上海市,松江图书馆,,21,10,28,9,18,67,,80,66,17,22,5,5,0.3,0.4
2026-01-31T0000,3273A,121.3904,31.206,上海市,长宁仙霞,,22,10,28,7,15,70,,86,69,8,12,6,6,0,0
2026-01-31T0000,3274A,121.7964,31.0507,上海市,浦东惠南,,24,9,31,3,16,75,,82,79,14,16,4,4,0.5,0.6
2026-01-31T0000,3544A,121.4891,30.925,上海市,奉贤南桥新城,,23,10,31,9,22,73,,78,76,11,14,1,3,0.5,0.5
2026-01-31T0000,4183A,121.417401,31.16637,上海市,冠生园路458号,,21,11,30,9,19,65,,84,69,21,21,4,4,0.3,0.3
2026-01-31T0000,4205A,121.541914,31.268301,上海市,宁武路151号,,20,11,34,3,17,62,,77,69,24,26,5,5,0.3,0.4
2026-01-31T0000,2382A,117.9758,28.4439,上饶市,市监测站,,13,12,49,6,34,24,,50,29,26,24,18,8,/,/
2026-01-31T0000,2383A,117.9521,28.4637,上饶市,凤凰光学,,14,14,50,3,23,14,,40,21,27,29,11,10,1.0,0.9
2026-01-31T0000,3685A,117.897,28.4316,上饶市,双创科技城,,17,15,46,3,24,24,,49,28,34,33,24,7,1.1,0.9
2026-01-31T0000,4211A,118.190438,28.444845,上饶市,裕丰大道,,17,13,45,3,19,15,,51,28,33,31,11,11,0.8,0.7
2026-01-31T0000,1669A,113.5821,24.7733,韶关市,市八中,,18,18,64,8,40,39,,126,62,17,34,6,11,0.8,0.9
2026-01-31T0000,1671A,113.5916,24.7973,韶关市,园林处,,18,16,46,12,42,40,,129,64,16,30,4,11,/,/
2026-01-31T0000,1673A,113.5971,24.6864,韶关市,曲江监测站,,19,19,58,12,38,50,,123,73,18,36,13,13,0.9,0.8
2026-01-31T0000,2809A,113.6668,24.7756,韶关市,大学路288号,,19,19,47,13,33,38,,132,73,18,30,4,7,/,/
2026-01-31T0000,3622A,113.5556,24.8082,韶关市,碧湖山庄,,22,22,70,12,45,39,,130,60,18,24,6,8,0.8,0.9
2026-01-31T0000,2464A,111.5277,27.2442,邵阳市,市化工厂,细颗粒物(PM2.5),54,,21,38,19,41,,36,36,7,11,3,14,0.7,0.8
2026-01-31T0000,2466A,111.4327,27.2276,邵阳市,市环保局,,48,,15,33,18,42,,40,40,16,16,6,7,0.9,1
2026-01-31T0000,4218A,111.446,27.2472,邵阳市,北塔二期4-26地块,,38,,11,26,18,38,,36,36,11,11,5,5,1.0,1
2026-01-31T0000,4219A,111.4739,27.2282,邵阳市,邵水西路287号,,48,,19,33,16,42,,38,38,12,12,6,7,0.9,1.1
2026-01-31T0000,1247A,120.6053,29.9927,绍兴市,城东开发委,,24,24,34,16,16,54,,70,68,23,25,7,7,0.4,0.5
2026-01-31T0000,2921A,120.5482,30.0003,绍兴市,树下王站,,18,16,31,12,17,54,,70,66,18,19,5,6,0.2,0.2
2026-01-31T0000,3408A,120.5685,29.936,绍兴市,绍兴中专,,18,17,29,12,15,55,,68,67,9,14,6,6,0.4,0.5
2026-01-31T0000,3409A,120.4905,30.086,绍兴市,柯桥区政府,,20,20,32,10,17,58,,70,64,24,31,4,4,0.5,0.6
2026-01-31T0000,3410A,120.8751,30.0249,绍兴市,重华小学,,22,9,31,7,18,69,,72,69,18,27,6,6,0.2,0.3
2026-01-31T0000,3411A,120.837,30.0137,绍兴市,上虞中学,,24,10,28,3,14,74,,73,73,10,22,6,7,0.4,0.5
2026-01-31T0000,3560A,120.4715,30.0414,绍兴市,柯桥妇保,,20,18,34,14,18,59,,72,66,14,22,5,5,0.4,0.4
2026-01-31T0000,3658A,120.6156,30.0762,绍兴市,袍江中学,,19,12,31,11,18,59,,74,69,11,22,6,6,0.4,0.4
2026-01-31T0000,1356A,114.0948,22.5506,深圳市,通心岭子站,,46,46,36,22,22,8,,72,29,56,26,8,6,0.8,0.7
2026-01-31T0000,1357A,114.1153,22.5713,深圳市,洪湖,颗粒物(PM10),52,54,40,27,21,4,,64,27,76,35,4,5,1.1,1
2026-01-31T0000,1358A,113.9823,22.5398,深圳市,华侨城,,42,42,35,21,20,1,,69,29,68,31,/,/,/,/
2026-01-31T0000,1359A,113.9181,22.517,深圳市,南海子站,,43,43,42,23,24,4,,72,30,74,36,6,6,1.0,0.9
2026-01-31T0000,1360A,114.2345,22.565,深圳市,盐田,,39,39,36,18,16,18,,60,18,56,45,8,8,0.7,0.7
2026-01-31T0000,1363A,114.4911,22.5381,深圳市,南澳,,26,26,28,11,13,59,,91,70,14,9,/,/,/,/
2026-01-31T0000,1364A,114.41,22.6346,深圳市,葵涌,,24,24,34,13,20,21,,70,34,30,20,7,8,0.7,0.7
