timepoint,stationcode,longitude,latitude,area,positionname,primarypollutant,aqi,pm10,pm10_24h,pm2_5,pm2_5_24h,o3,o3_24h,o3_8h,o3_8h_24h,no2,no2_24h,so2,so2_24h,co,co_24h
2026-01-31T1900,2568A,102.2503,31.8896,阿坝藏族羌族自治州,马师校,,38,38,25,15,10,65,,76,76,13,10,4,5,0.5,0.5
2026-01-31T1900,3994A,102.2174,31.9016,阿坝藏族羌族自治州,马尔康中学西区,颗粒物(PM10),65,79,25,18,9,71,,75,75,12,7,7,7,0.8,0.7
2026-01-31T1900,2695A,80.2899,41.1684,阿克苏地区,电视台,颗粒物(PM10),86,122,196,54,77,93,,78,78,13,29,13,13,0.7,1.3
2026-01-31T1900,2696A,80.2592,41.1541,阿克苏地区,艺术中心,颗粒物(PM10),84,118,180,54,80,103,,86,86,14,34,5,6,0.4,0.7
2026-01-31T1900,2205A,105.699,38.8409,阿拉善盟,蒙二幼,,34,34,156,10,32,75,,75,75,9,10,10,10,0.5,0.6
2026-01-31T1900,2206A,105.7198,38.8508,阿拉善盟,环保局新楼,,33,33,146,12,35,72,,71,71,6,6,8,8,0.3,0.4
2026-01-31T1900,2708A,88.1266,47.8515,阿勒泰地区,市站,,26,6,14,3,7,82,,77,77,11,22,2,3,0.1,0.3
2026-01-31T1900,4166A,88.1198,47.7931,阿勒泰地区,阿勒泰路33号,,21,13,13,9,6,67,,83,77,26,19,8,8,0.3,0.4
2026-01-31T1900,2630A,80.1171,32.4999,阿里地区,阿里监测站,,26,6,3,3,2,83,,78,78,2,4,7,8,0.2,0.3
2026-01-31T1900,3192A,80.0906,32.5029,阿里地区,阿里藏医院,,28,14,10,3,3,87,,81,81,2,5,8,11,0.2,0.3
2026-01-31T1900,2644A,109.0088,32.6974,安康市,汉滨区检察院,颗粒物(PM10),70,89,43,49,36,45,,65,65,48,19,8,7,1.4,1.2
2026-01-31T1900,4054A,109.0324,32.6913,安康市,市邮政管理局,细颗粒物(PM2.5),73,90,52,53,36,40,,69,69,54,25,5,6,1.3,1
2026-01-31T1900,2291A,117.0806,30.5181,安庆市,环科院,,38,38,29,24,21,52,,48,48,12,10,5,5,0.5,0.5
2026-01-31T1900,2292A,117.0331,30.5118,安庆市,马山宾馆,,40,40,32,26,25,57,,51,51,13,15,4,4,0.6,0.6
2026-01-31T1900,2294A,116.9897,30.6146,安庆市,安庆大学,,37,37,25,20,20,59,,55,55,12,12,3,3,0.5,0.5
2026-01-31T1900,3173A,117.0598,30.5351,安庆市,市人大,,43,43,29,24,19,51,,49,48,15,12,4,4,0.4,0.4
2026-01-31T1900,3123A,105.9408,26.2431,安顺市,凤凰山,,39,,21,27,16,57,,48,48,14,11,16,11,0.8,0.8
2026-01-31T1900,3124A,105.9443,26.2567,安顺市,金钟山,,40,,20,28,18,56,,48,48,12,10,15,11,0.8,0.8
2026-01-31T1900,3125A,105.8983,26.248,安顺市,娄家坡,,,,22,30,19,,,44,44,12,11,10,15,1.0,0.9
2026-01-31T1900,1819A,114.3552,36.1017,安阳市,红庙街,细颗粒物(PM2.5),222,206,143,172,129,28,,29,29,39,29,1,1,1.8,1.4
2026-01-31T1900,1820A,114.361,36.0681,安阳市,银杏小区,细颗粒物(PM2.5),186,193,150,140,122,27,,31,31,41,29,3,5,1.9,1.5
2026-01-31T1900,3141A,114.3921,36.0879,安阳市,信访局,细颗粒物(PM2.5),213,,138,163,136,32,,33,33,30,25,4,4,1.6,1.3
2026-01-31T1900,3669A,114.4706,36.0634,安阳市,左辅环卫站,细颗粒物(PM2.5),236,212,143,186,129,38,,35,35,33,28,4,4,1.4,1
2026-01-31T1900,4117A,114.2918,36.0769,安阳市,钢三路198号,细颗粒物(PM2.5),268,238,187,218,162,25,,25,25,43,30,3,3,1.9,1.5
2026-01-31T1900,1748A,123.0441,41.1201,鞍山市,深沟寺,"颗粒物(PM10),细颗粒物(PM2.5)",52,53,49,36,32,56,,68,68,32,28,9,10,0.6,0.9
2026-01-31T1900,1749A,123.011,41.0931,鞍山市,太阳城,细颗粒物(PM2.5),63,62,54,45,42,45,,63,61,39,30,13,19,0.8,1.4
2026-01-31T1900,1750A,123.0483,41.1445,鞍山市,太平,颗粒物(PM10),67,84,70,47,34,40,,59,59,49,36,13,14,0.5,0.7
2026-01-31T1900,1751A,122.964,41.0968,鞍山市,铁西三道街,细颗粒物(PM2.5),63,71,94,45,56,42,,61,61,50,47,9,19,0.6,1.4
2026-01-31T1900,1753A,123.0219,41.0822,鞍山市,明达新区,细颗粒物(PM2.5),58,62,61,41,40,55,,64,63,33,29,11,17,1.0,1.5
2026-01-31T1900,4201A,122.944647,41.082639,鞍山市,兴盛南路290号,细颗粒物(PM2.5),94,104,125,70,66,36,,56,56,54,55,14,20,0.7,1.5
2026-01-31T1900,2195A,107.4206,40.7609,巴彦淖尔市,附二中,,38,38,40,16,18,60,,65,65,19,19,8,10,0.4,0.4
2026-01-31T1900,2196A,107.37,40.7372,巴彦淖尔市,市环保大楼,颗粒物(PM10),52,54,40,16,13,53,,67,67,23,16,5,5,0.5,0.4
2026-01-31T1900,1956A,86.1476,41.7529,巴音郭楞蒙古自治州,孔雀公园,颗粒物(PM10),93,136,119,36,37,77,,61,61,2,29,8,8,0.3,0.6
2026-01-31T1900,1957A,86.1971,41.7166,巴音郭楞蒙古自治州,棉纺厂,颗粒物(PM10),106,161,185,45,37,79,,69,69,2,28,/,/,/,/
2026-01-31T1900,1958A,86.236,41.7172,巴音郭楞蒙古自治州,经济开发区,颗粒物(PM10),84,117,157,24,21,71,,62,62,2,18,5,5,0.3,0.5
2026-01-31T1900,3181A,106.776805,31.852614,巴中市,市五中,,40,40,39,26,29,52,,52,52,20,20,5,5,1.0,1
2026-01-31T1900,3183A,106.7419,31.8654,巴中市,圣泉水务公司,,,37,31,34,28,52,,59,59,,25,,3,1.4,1.2
2026-01-31T1900,3616A,106.7617,31.8343,巴中市,市中心医院,,36,33,36,25,27,54,,56,56,19,22,6,5,0.9,0.9
2026-01-31T1900,2235A,122.7909,45.608,白城市,洮北区环保局,颗粒物(PM10),68,86,51,41,37,35,,72,66,49,25,4,8,0.6,0.5
2026-01-31T1900,2236A,122.8741,45.5725,白城市,市环保局,颗粒物(PM10),56,61,45,27,25,11,,74,61,51,28,7,7,0.4,0.4
2026-01-31T1900,2231A,126.4219,41.9172,白山市,喜丰,颗粒物(PM10),56,61,65,27,36,60,,70,70,35,37,18,17,1.1,1.1
2026-01-31T1900,2232A,126.4082,41.9416,白山市,环保局,,48,48,46,18,30,81,,70,70,13,25,15,13,0.9,0.9
2026-01-31T1900,2647A,104.1727,36.5448,白银市,第三小学,颗粒物(PM10),115,179,250,70,90,56,,56,56,28,34,8,28,0.8,1.2
2026-01-31T1900,2648A,104.1467,36.5482,白银市,动力公司,颗粒物(PM10),117,183,236,69,74,66,,73,73,22,23,7,15,0.5,0.7
2026-01-31T1900,2512A,106.6102,23.901,百色市,市监测站,,25,22,19,9,10,78,,76,76,17,13,15,8,0.9,0.8
2026-01-31T1900,2513A,106.6524,23.8842,百色市,市中心血站,颗粒物(PM10),73,96,31,16,10,78,,78,78,18,8,27,10,1.0,0.8
2026-01-31T1900,4133A,106.6273,23.8798,百色市,龙景西路,,37,37,21,12,10,79,,73,73,14,10,16,8,0.8,0.7
2026-01-31T1900,2270A,117.396,32.9389,蚌埠市,工人疗养院,细颗粒物(PM2.5),70,83,56,51,32,71,,66,66,25,23,3,3,0.5,0.4
2026-01-31T1900,2271A,117.3606,32.9428,蚌埠市,百货大楼,"颗粒物(PM10),细颗粒物(PM2.5)",75,99,56,55,31,65,,65,65,23,21,6,6,0.5,0.4
2026-01-31T1900,2273A,117.4183,32.8909,蚌埠市,蚌埠学院,细颗粒物(PM2.5),72,78,43,52,29,64,,70,70,27,23,3,3,0.5,0.4
2026-01-31T1900,2274A,117.3534,32.9672,蚌埠市,淮上区政府,细颗粒物(PM2.5),82,97,51,60,34,60,,70,70,36,21,4,4,0.5,0.3
2026-01-31T1900,2275A,117.3143,32.8977,蚌埠市,高新区,细颗粒物(PM2.5),85,92,49,63,34,62,,66,66,24,18,6,5,0.4,0.4
2026-01-31T1900,3715A,117.3091,32.9314,蚌埠市,蚌埠田家炳中学,细颗粒物(PM2.5),83,97,59,61,35,62,,69,69,28,21,3,3,0.4,0.3
2026-01-31T1900,1585A,109.8761,40.6533,包头市,市环境监测站,,27,27,32,12,15,65,,75,75,21,19,4,9,0.3,0.6
2026-01-31T1900,1587A,109.9992,40.5843,包头市,包头八中,,35,35,44,18,24,49,,73,73,35,25,4,9,0.5,0.7
2026-01-31T1900,1589A,109.8641,40.6288,包头市,惠龙物流,,23,22,31,10,16,71,,78,78,20,22,7,14,0.5,1
2026-01-31T1900,1590A,110.0376,40.5546,包头市,东河鸿龙湾,,33,33,33,9,16,62,,81,81,24,27,8,12,0.5,0.6
2026-01-31T1900,3283A,109.9154,40.5684,包头市,滨河大厦,,29,29,41,13,17,54,,71,71,28,28,10,12,0.6,0.8
2026-01-31T1900,3419A,109.9449,40.6259,包头市,包头市委党校,,23,23,35,15,15,69,,76,76,17,26,7,13,0.5,0.8
2026-01-31T1900,3683A,109.8332,40.6577,包头市,昆区政府,,27,27,30,10,14,70,,74,74,20,21,6,11,0.5,0.8
2026-01-31T1900,1931A,107.0802,34.3129,宝鸡市,竹园沟,细颗粒物(PM2.5),102,138,95,76,58,31,,36,36,31,25,6,6,0.8,0.8
2026-01-31T1900,1933A,107.1429,34.3549,宝鸡市,监测站,细颗粒物(PM2.5),129,144,115,98,94,27,,26,26,34,37,4,4,0.8,0.9
2026-01-31T1900,1934A,107.1172,34.3759,宝鸡市,技工学校,细颗粒物(PM2.5),109,142,111,82,79,28,,30,30,37,36,3,4,1.0,1.1
2026-01-31T1900,1936A,107.2025,34.3518,宝鸡市,文理学院,细颗粒物(PM2.5),117,134,111,88,87,28,,26,26,30,36,3,3,0.8,1
2026-01-31T1900,1937A,107.2396,34.3626,宝鸡市,三迪小学,细颗粒物(PM2.5),128,117,111,97,88,29,,27,27,34,41,3,3,1.0,1
2026-01-31T1900,4155A,107.1721,34.3558,宝鸡市,滨河北路,细颗粒物(PM2.5),105,141,114,79,77,25,,26,26,28,31,5,5,1.0,1.1
2026-01-31T1900,4308A,107.3898,34.3601,宝鸡市,陈仓区北开路21号,细颗粒物(PM2.5),132,156,115,100,85,23,,29,29,38,35,5,5,0.5,0.7
2026-01-31T1900,1051A,115.4803,38.8568,保定市,游泳馆,细颗粒物(PM2.5),160,137,123,122,117,76,,76,76,33,47,6,6,0.7,0.7
2026-01-31T1900,1052A,115.509,38.8895,保定市,华电二区,细颗粒物(PM2.5),148,123,113,113,107,72,,69,69,31,38,2,3,0.9,1
2026-01-31T1900,1053A,115.4588,38.9037,保定市,接待中心,细颗粒物(PM2.5),149,132,127,114,112,72,,68,68,22,31,3,3,0.6,0.6
2026-01-31T1900,1054A,115.4484,38.8344,保定市,地表水厂,细颗粒物(PM2.5),142,151,147,108,104,71,,73,73,33,51,6,7,0.7,0.7
2026-01-31T1900,3581A,115.3136,38.9511,保定市,满城区生态环境分局,细颗粒物(PM2.5),165,173,150,125,110,55,,67,67,50,38,6,4,0.9,0.9
2026-01-31T1900,3582A,115.4709,38.7628,保定市,清苑区第二中学,细颗粒物(PM2.5),153,168,161,117,112,77,,78,78,29,48,8,9,0.8,0.8
2026-01-31T1900,3583A,115.6231,39.0223,保定市,徐水物探局,细颗粒物(PM2.5),140,158,156,107,111,70,,72,72,31,42,6,6,0.8,0.8
2026-01-31T1900,4004A,115.4199,38.8665,保定市,双鹰农机,细颗粒物(PM2.5),162,163,159,123,112,76,,80,80,32,40,7,7,0.8,0.8
2026-01-31T1900,4034A,115.515,38.8589,保定市,植保所站,细颗粒物(PM2.5),147,141,126,112,106,61,,71,71,45,51,3,3,0.9,0.9
2026-01-31T1900,2594A,99.1589,25.1137,保山市,市环境监测站,,31,31,28,20,17,91,,91,91,7,9,6,6,0.2,0.3
2026-01-31T1900,2595A,99.1616,25.1381,保山市,市环保局,,38,38,31,17,16,88,,90,90,4,6,3,3,0.4,0.4
2026-01-31T1900,1867A,109.1435,21.4085,北海市,海滩公园,,40,40,42,17,18,90,,82,82,13,18,7,6,1.0,1
2026-01-31T1900,1868A,109.0983,21.466,北海市,新市环保局,,30,29,34,18,18,94,,84,84,13,17,6,7,0.8,0.8
2026-01-31T1900,1869A,109.1775,21.5232,北海市,北海工业园,,33,31,35,23,18,83,,81,81,15,13,8,6,0.8,0.8
2026-01-31T1900,3400A,109.1844,21.4396,北海市,龙潭自来水厂,,38,38,46,17,27,86,,82,82,11,15,10,9,1.0,1
2026-01-31T1900,1001A,116.3611,39.8786,北京市,万寿西宫,细颗粒物(PM2.5),95,104,96,71,71,34,,62,58,54,45,2,2,0.7,0.8
2026-01-31T1900,1003A,116.4174,39.9289,北京市,东四,细颗粒物(PM2.5),80,89,97,59,67,34,,57,55,43,43,5,5,0.6,0.8
2026-01-31T1900,1004A,116.4073,39.8858,北京市,天坛,细颗粒物(PM2.5),82,83,93,60,68,33,,60,58,48,47,2,2,0.6,0.8
2026-01-31T1900,1005A,116.4622,39.9364,北京市,农展馆,细颗粒物(PM2.5),78,82,95,57,71,41,,65,63,37,40,4,4,0.6,0.8
2026-01-31T1900,1006A,116.3399,39.9293,北京市,官园,细颗粒物(PM2.5),99,106,95,74,68,34,,57,54,47,50,3,3,0.7,0.8
2026-01-31T1900,1007A,116.2879,39.9613,北京市,海淀万柳,细颗粒物(PM2.5),107,109,97,80,71,33,,52,51,48,52,3,3,0.6,0.8
2026-01-31T1900,1008A,116.6635,40.1349,北京市,顺义新城,细颗粒物(PM2.5),62,72,94,44,65,37,,74,70,47,37,5,5,0.6,0.8
2026-01-31T1900,1009A,116.6275,40.327,北京市,怀柔镇,,25,25,79,16,60,50,,68,66,22,28,5,4,0.5,0.6
2026-01-31T1900,1010A,116.2295,40.217,北京市,昌平镇,细颗粒物(PM2.5),102,110,72,76,48,39,,68,63,46,36,2,3,0.8,0.7
2026-01-31T1900,1011A,116.3968,39.982,北京市,奥体中心,细颗粒物(PM2.5),97,103,98,72,70,38,,63,61,53,54,4,4,0.6,0.7
2026-01-31T1900,3418A,116.8336,40.4095,北京市,密云新城,,27,27,84,17,59,55,,72,70,19,25,3,3,0.5,0.7
2026-01-31T1900,3671A,116.0879,39.9725,北京市,门头沟三家店,细颗粒物(PM2.5),135,135,100,103,73,41,,62,58,42,39,3,3,0.9,0.8
2026-01-31T1900,3672A,116.1507,39.8246,北京市,丰台云岗,细颗粒物(PM2.5),108,117,114,81,84,38,,57,55,49,48,4,4,0.7,0.8
2026-01-31T1900,3674A,115.9578,39.7602,北京市,房山燕山,细颗粒物(PM2.5),129,123,137,98,110,43,,50,50,32,29,5,5,0.9,0.9
2026-01-31T1900,3675A,116.4669,39.7734,北京市,大兴旧宫,细颗粒物(PM2.5),68,83,95,49,58,34,,60,58,48,47,3,3,0.6,0.8
2026-01-31T1900,3694A,115.9859,40.4562,北京市,延庆石河营,,19,17,91,10,66,59,,70,70,27,37,4,4,0.5,1.1
2026-01-31T1900,3695A,116.6151,40.3052,北京市,怀柔新城,,19,17,83,10,67,59,,67,67,17,29,5,5,0.3,0.6
2026-01-31T1900,3696A,116.2542,39.8764,北京市,丰台小屯,细颗粒物(PM2.5),102,112,101,76,70,26,,48,44,53,51,3,4,0.7,0.9
2026-01-31T1900,3697A,116.8399,40.3843,北京市,密云镇,,26,26,78,15,60,32,,72,67,45,32,3,3,0.5,0.6
2026-01-31T1900,4057A,115.9423,40.4431,北京市,延庆百泉,,18,17,81,10,55,56,,68,68,25,37,4,3,0.4,0.8
2026-01-31T1900,4058A,116.6598,39.9164,北京市,通州新华,颗粒物(PM10),74,98,105,50,66,35,,60,55,52,50,3,3,0.6,0.8
2026-01-31T1900,4182A,116.1942,39.9158,北京市,石景山八角,细颗粒物(PM2.5),99,120,106,74,70,34,,50,49,45,50,4,3,0.6,0.8
2026-01-31T1900,4194A,117.078628,40.151726,北京市,平谷新城,,26,26,84,16,64,49,,72,69,28,22,3,3,0.5,0.7
2026-01-31T1900,1761A,123.8274146,41.31234549,本溪市,大峪,细颗粒物(PM2.5),214,242,100,164,59,51,,64,62,30,45,8,10,2.0,1.6
2026-01-31T1900,1763A,123.7169,41.3094,本溪市,彩屯,细颗粒物(PM2.5),127,116,99,96,69,25,,55,55,57,46,9,11,1.6,2.1
2026-01-31T1900,1764A,123.7672166,41.28649327,本溪市,东明,细颗粒物(PM2.5),85,,88,63,74,52,,60,60,39,53,9,11,1.1,1.8
2026-01-31T1900,1765A,123.799345,41.266614,本溪市,新立屯,细颗粒物(PM2.5),59,48,65,42,48,28,,56,54,59,51,11,15,1.2,2.6
2026-01-31T1900,1766A,123.829144,41.336777,本溪市,威宁,细颗粒物(PM2.5),57,,92,40,54,27,,53,52,44,45,5,8,0.8,1.2
2026-01-31T1900,2587A,105.287,27.3133,毕节市,八中,细颗粒物(PM2.5),57,54,32,40,23,41,,53,50,21,14,10,10,1.0,0.9
2026-01-31T1900,2588A,105.3079,27.2987,毕节市,师专,颗粒物(PM10),55,60,32,37,21,42,,54,51,20,14,9,9,0.8,0.8
2026-01-31T1900,4263A,105.3688,27.3598,毕节市,工业大道,细颗粒物(PM2.5),72,53,29,52,23,41,,54,52,17,13,11,10,/,/
2026-01-31T1900,1629A,117.9961,37.3604,滨州市,第二水厂,细颗粒物(PM2.5),123,129,104,93,78,41,,69,68,49,38,11,13,0.6,0.5
2026-01-31T1900,1630A,117.9789,37.3931,滨州市,北中新校,细颗粒物(PM2.5),119,129,112,90,80,42,,71,70,46,35,6,9,1.0,0.8
2026-01-31T1900,3514A,117.9379,37.3959,滨州市,中海酒店,细颗粒物(PM2.5),117,124,104,88,81,40,,60,60,45,38,9,11,1.0,0.9
2026-01-31T1900,3515A,117.9381509,37.35547456,滨州市,开发区一中,细颗粒物(PM2.5),100,127,119,75,89,44,,66,66,37,35,11,15,0.9,0.9
2026-01-31T1900,3516A,118.0914,37.6938,滨州市,金海六路,细颗粒物(PM2.5),105,120,104,79,74,53,,73,73,,52,4,17,0.9,0.9
2026-01-31T1900,4028A,117.9955,37.3752,滨州市,滨州市西街道办事处,细颗粒物(PM2.5),125,127,104,95,77,46,,73,72,40,32,9,12,0.8,0.9
2026-01-31T1900,2311A,115.8071,33.8399,亳州市,污水处理厂,细颗粒物(PM2.5),89,78,103,66,82,57,,57,57,21,26,3,4,0.5,0.6
2026-01-31T1900,2312A,115.7789,33.8519,亳州市,三国揽胜宫,细颗粒物(PM2.5),88,98,124,65,96,53,,55,55,23,27,3,3,0.5,0.7
2026-01-31T1900,3332A,115.7631,33.803,亳州市,亳州学院,细颗粒物(PM2.5),88,82,115,65,90,56,,58,58,18,24,2,3,0.5,0.7
2026-01-31T1900,2693A,82.0482,44.8553,博尔塔拉蒙古自治州,市党校,细颗粒物(PM2.5),145,154,171,111,112,87,,86,86,25,25,3,4,0.9,1
2026-01-31T1900,2694A,82.0805,44.8966,博尔塔拉蒙古自治州,市环保局,细颗粒物(PM2.5),179,172,174,135,127,76,,83,66,34,31,6,7,1.2,1.2
2026-01-31T1900,1071A,116.8733,38.2922,沧州市,沧县城建局,细颗粒物(PM2.5),105,103,93,79,65,53,,67,67,46,56,4,7,0.5,0.6
2026-01-31T1900,1072A,116.8462,38.3189,沧州市,电视转播站,细颗粒物(PM2.5),102,102,88,76,71,67,,70,70,32,52,3,3,0.7,0.8
2026-01-31T1900,1073A,116.8588,38.3161,沧州市,市环保局,细颗粒物(PM2.5),90,98,87,67,61,48,,58,58,38,50,6,8,0.7,0.8
2026-01-31T1900,3324A,116.8011,38.294,沧州市,河北水利电力学院,细颗粒物(PM2.5),110,110,96,83,75,45,,59,59,46,55,6,7,0.6,0.7
2026-01-31T1900,2622A,97.1813,31.1289,昌都市,昌都监测站,,24,24,23,15,11,62,,78,78,32,10,4,3,0.6,0.3
2026-01-31T1900,3719A,97.1707,31.1428,昌都市,昌都会议中心,,22,9,12,3,7,69,,65,65,2,3,5,5,0.1,0.2
2026-01-31T1900,2692A,87.2722,44.0298,昌吉回族自治州,新区政务中心,细颗粒物(PM2.5),196,209,117,147,82,46,,52,52,38,42,8,8,1.5,1.3
2026-01-31T1900,3613A,87.3069,44.0093,昌吉回族自治州,亚心广场,细颗粒物(PM2.5),221,224,133,171,102,48,,54,54,24,30,8,7,1.4,1.2
2026-01-31T1900,4164A,87.2057,43.9289,昌吉回族自治州,财政所,细颗粒物(PM2.5),105,109,86,79,61,76,,80,64,28,19,5,5,1.0,0.9
2026-01-31T1900,1120A,125.2874,43.9024,长春市,客车厂,细颗粒物(PM2.5),55,58,68,39,52,22,,60,56,65,51,18,11,0.7,0.8
2026-01-31T1900,1121A,125.2943,43.8508,长春市,邮电学院,,48,46,70,33,55,41,,59,58,41,43,11,10,0.7,0.9
2026-01-31T1900,1122A,125.3648,43.8745,长春市,劳动公园,,48,48,85,24,58,46,,64,64,36,39,8,6,0.8,1.3
2026-01-31T1900,1123A,125.3233,43.8781,长春市,园林处,,44,44,72,27,58,44,,62,62,34,39,11,15,0.5,0.9
2026-01-31T1900,1124A,125.4604,43.7904,长春市,净月潭,,45,37,61,31,48,57,,66,66,20,23,6,6,0.5,0.6
2026-01-31T1900,1126A,125.38,43.8422,长春市,经开区环卫处,,44,44,83,26,62,39,,60,60,43,52,5,5,0.6,1
2026-01-31T1900,1127A,125.234,43.7761,长春市,高新区管委会,细颗粒物(PM2.5),68,57,91,49,70,42,,71,69,47,49,6,7,0.6,1
2026-01-31T1900,1128A,125.1695,43.83,长春市,岱山公园,细颗粒物(PM2.5),53,,74,37,61,10,,67,61,73,52,7,8,0.5,0.8
2026-01-31T1900,4281A,125.334645,43.916281,长春市,北亚泰大街1068号,颗粒物(PM10),53,56,81,30,63,24,,56,54,55,50,10,10,0.6,0.8
2026-01-31T1900,1335A,113.082,28.2421,长沙市,经开区环保局,,32,32,41,22,32,58,,43,43,17,18,2,2,0.5,0.5
2026-01-31T1900,1336A,112.8873,28.2202,长沙市,高开区环保局,,35,29,49,24,42,55,,46,46,17,16,4,4,0.6,0.6
2026-01-31T1900,1337A,113.0785,28.2012,长沙市,马坡岭,,40,34,44,28,39,62,,48,48,17,17,4,4,0.8,0.8
2026-01-31T1900,1338A,112.9448,28.1894,长沙市,湖南师范大学,,29,28,47,20,32,61,,55,55,18,14,3,3,0.6,0.7
2026-01-31T1900,1339A,113.0177,28.1322,长沙市,雨花区环保局,,33,30,41,23,33,56,,46,46,16,17,7,6,0.6,0.6
2026-01-31T1900,1340A,112.9795,28.2593,长沙市,伍家岭,,36,,48,25,37,51,,49,49,18,17,4,4,0.7,0.6
2026-01-31T1900,1341A,113.002,28.1944,长沙市,火车新站,,39,36,44,27,38,56,,51,51,18,16,1,2,0.8,0.8
2026-01-31T1900,1342A,112.9846,28.1177,长沙市,天心区环保局,,26,26,42,3,28,63,,54,54,19,18,5,4,0.5,0.5
2026-01-31T1900,1343A,112.8906,28.1307,长沙市,湖南中医药大学,,34,34,48,20,36,66,,52,52,15,18,5,5,0.7,0.7
2026-01-31T1900,1727A,113.1146,36.1547,长治市,清华站,细颗粒物(PM2.5),89,69,78,66,87,65,,78,78,40,30,13,11,0.9,1.1
2026-01-31T1900,1730A,113.0887,36.2126,长治市,审计局,细颗粒物(PM2.5),100,77,82,75,95,75,,78,78,33,34,12,12,0.7,1
2026-01-31T1900,1731A,113.0845,36.1856,长治市,长治八中,细颗粒物(PM2.5),100,88,97,75,101,68,,77,77,27,27,13,11,0.8,1
2026-01-31T1900,2845A,113.1561,36.1912,长治市,德盛苑,细颗粒物(PM2.5),94,,78,70,94,81,,85,85,22,19,10,9,0.9,1.2
2026-01-31T1900,3568A,113.0603,36.0464,长治市,向阳小学,细颗粒物(PM2.5),80,97,106,59,90,64,,82,82,52,35,10,9,0.7,1
2026-01-31T1900,3569A,112.8788,36.315,长治市,屯留一中,细颗粒物(PM2.5),88,69,79,65,87,82,,90,90,21,25,15,9,0.8,1
2026-01-31T1900,4189A,113.113092,36.199482,长治市,英华南巷50号,细颗粒物(PM2.5),94,,90,70,95,77,,82,82,31,25,11,10,0.7,1
2026-01-31T1900,4190A,113.23666,36.33435,长治市,学府街1号,细颗粒物(PM2.5),87,68,84,64,88,79,,80,80,24,27,10,12,0.8,1.4
2026-01-31T1900,1854A,111.696,28.9725,常德市,市二中,细颗粒物(PM2.5),58,64,62,41,49,65,,80,80,26,16,4,4,0.9,0.9
2026-01-31T1900,3138A,111.7152,29.0288,常德市,武陵区永安,细颗粒物(PM2.5),67,63,64,48,51,72,,79,79,20,17,4,4,0.9,0.8
2026-01-31T1900,3139A,111.6891,28.9881,常德市,鼎城区玉霞,细颗粒物(PM2.5),55,55,58,39,45,76,,83,83,22,21,6,6,0.9,0.8
2026-01-31T1900,3140A,111.6651,29.0526,常德市,武陵区长庚,细颗粒物(PM2.5),60,57,62,43,51,78,,78,78,15,15,4,4,0.7,0.6
2026-01-31T1900,1196A,119.9524,31.7586,常州市,市监测站,,49,49,25,28,13,42,,44,44,34,22,6,6,0.3,0.3
2026-01-31T1900,1200A,119.9351,31.703,常州市,武进监测站,,40,40,26,27,12,51,,66,65,32,20,3,5,0.3,0.1
2026-01-31T1900,3002A,119.9701,31.813,常州市,行政中心,,48,48,27,25,12,55,,69,67,32,21,4,4,0.5,0.4
2026-01-31T1900,3003A,120.0434,31.7726,常州市,经开区,,49,49,27,20,10,68,,73,73,22,19,11,10,0.6,0.5
2026-01-31T1900,3010A,119.8919,31.7892,常州市,钟楼,,48,48,29,28,13,56,,67,66,24,16,7,6,0.5,0.5
2026-01-31T1900,3429A,119.8595,31.706,常州市,武进经发区,,43,43,24,30,18,39,,64,61,45,25,5,4,0.7,0.6
2026-01-31T1900,3430A,119.5812,31.7256,常州市,金坛城区,,37,37,26,24,20,56,,71,70,26,15,6,6,0.4,0.3
2026-01-31T1900,4089A,119.9551,31.863,常州市,崇义南街5-H号,,46,46,22,24,12,50,,68,67,32,17,4,4,0.4,0.4
2026-01-31T1900,2220A,120.4318,41.588,朝阳市,西梁,细颗粒物(PM2.5),99,84,92,74,55,10,,68,65,80,40,12,14,1.1,0.9
2026-01-31T1900,2221A,120.452,41.565,朝阳市,河畔小区,细颗粒物(PM2.5),53,,61,37,45,49,,70,70,30,33,8,13,0.8,1
2026-01-31T1900,2222A,120.4176,41.5648,朝阳市,八里堡,细颗粒物(PM2.5),73,55,72,53,54,24,,67,66,65,37,10,13,1.3,1
2026-01-31T1900,3026A,116.6179,23.6608,潮州市,市政府,,24,24,42,12,32,34,,38,32,8,18,2,4,0.6,0.5
2026-01-31T1900,4036A,116.646,23.676,潮州市,金山,,24,24,40,13,30,33,,39,30,14,20,2,4,0.7,0.6
2026-01-31T1900,2473A,113.0116,25.8228,郴州市,市职中,,36,28,20,25,18,35,,34,34,13,15,3,3,0.5,0.5
2026-01-31T1900,2475A,113.0381,25.8074,郴州市,市审计局,,,,20,,17,,,29,29,,15,,2,,
2026-01-31T1900,2476A,113.0348,25.7757,郴州市,市环保局,,33,26,25,23,16,33,,33,33,20,18,2,2,0.5,0.6
2026-01-31T1900,4252A,113.0138,25.8011,郴州市,好美居路49号,,50,,19,35,20,42,,41,41,13,10,4,4,/,/
2026-01-31T1900,1431A,103.9727,30.7242,成都市,金泉两河,细颗粒物(PM2.5),85,109,98,63,57,41,,40,40,42,39,2,2,0.5,0.5
2026-01-31T1900,1432A,104.1423,30.6765,成都市,十里店,颗粒物(PM10),79,108,110,49,42,54,,45,45,24,37,3,6,0.8,0.8
2026-01-31T1900,1433A,104.0594,30.5765,成都市,三瓦窑,颗粒物(PM10),75,100,103,50,53,69,,53,53,23,34,3,3,0.7,0.7
2026-01-31T1900,1434A,104.1122,30.6306,成都市,沙河铺,颗粒物(PM10),80,110,104,51,59,58,,49,49,29,35,3,3,0.7,0.7
2026-01-31T1900,2880A,104.0219,30.6561,成都市,大石西路,细颗粒物(PM2.5),85,108,101,63,60,52,,46,46,26,27,4,4,0.6,0.6
2026-01-31T1900,3136A,104.2724,30.559,成都市,龙泉驿区区政府,细颗粒物(PM2.5),68,78,79,49,50,66,,68,68,18,19,6,6,0.8,0.8
2026-01-31T1900,3357A,104.0028,30.6891,成都市,金博路,细颗粒物(PM2.5),85,103,89,63,53,37,,45,45,46,38,4,4,0.8,0.8
2026-01-31T1900,3359A,104.056,30.5228,成都市,华阳,颗粒物(PM10),68,85,93,46,50,63,,52,52,25,30,3,3,0.5,0.7
2026-01-31T1900,3488A,104.387954,30.746684,成都市,青石路225号,颗粒物(PM10),82,113,98,58,53,55,,67,67,30,33,4,4,0.9,0.8
2026-01-31T1900,3489A,104.0788,30.4054,成都市,科学城,细颗粒物(PM2.5),84,96,95,62,52,50,,48,48,16,19,6,6,0.8,0.8
2026-01-31T1900,4011A,103.8505,30.6946,成都市,光华大道三段,细颗粒物(PM2.5),89,122,105,66,55,45,,40,40,40,37,3,3,0.8,0.8
2026-01-31T1900,4144A,104.3257,30.6406,成都市,八角井街185号,颗粒物(PM10),79,107,107,52,51,56,,62,62,30,26,4,4,0.8,0.8
2026-01-31T1900,4224A,104.2433276,30.53529463,成都市,鲸龙路1057号,颗粒物(PM10),66,81,94,44,49,63,,68,68,23,24,5,5,0.7,0.7
2026-01-31T1900,1062A,117.9531,40.908,承德市,铁路,颗粒物(PM10),56,62,71,37,44,14,,69,58,55,28,8,4,0.8,0.7
2026-01-31T1900,1063A,117.9397,40.9763,承德市,中国银行,,34,34,60,16,37,41,,71,68,21,21,2,2,0.4,0.5
2026-01-31T1900,4073A,117.9462,40.95,承德市,杏林街1号,,50,42,65,35,43,20,,73,67,54,20,7,5,0.7,0.6
2026-01-31T1900,4274A,117.7994,40.9605,承德市,滨河大街98号,,39,39,44,16,38,49,,71,68,12,17,5,3,0.4,0.4
2026-01-31T1900,2314A,117.4698,30.6617,池州市,池州学院,,49,41,27,34,26,42,,44,43,29,25,3,3,0.9,0.8
2026-01-31T1900,3237A,117.4918,30.6617,池州市,展览馆,细颗粒物(PM2.5),53,48,30,37,27,37,,43,40,32,25,3,2,0.8,0.7
2026-01-31T1900,3333A,117.5626,30.695,池州市,第八中学,,49,43,29,34,25,34,,44,42,32,25,4,2,0.7,0.6
2026-01-31T1900,3334A,117.5037,30.6242,池州市,第十二中学,,33,30,22,23,20,35,,40,39,28,29,3,3,0.7,0.7
2026-01-31T1900,1744A,118.9229,42.2816,赤峰市,松山一中,,32,26,48,22,24,42,,67,65,38,31,4,10,0.8,0.9
2026-01-31T1900,1745A,118.9588,42.2733,赤峰市,哈达街,,29,28,50,20,27,52,,65,65,22,27,9,13,0.6,0.8
2026-01-31T1900,1746A,118.8792,42.2551,赤峰市,天义路,,23,20,40,16,24,44,,71,68,29,28,5,10,0.6,0.7
2026-01-31T1900,3058A,119.2656,42.0356,赤峰市,银河街,细颗粒物(PM2.5),62,56,64,44,36,45,,77,75,32,19,22,19,1.2,1
2026-01-31T1900,3286A,118.9359,42.3146,赤峰市,桥北物流园区,,30,27,41,21,29,34,,75,72,44,24,4,7,0.7,0.7
2026-01-31T1900,2521A,107.3473,22.4137,崇左市,市环保局江州分局,,31,31,41,12,22,51,,42,42,11,19,4,4,0.9,0.9
2026-01-31T1900,4256A,107.375,22.3736,崇左市,石景林东路7号,,24,24,34,7,22,58,,47,47,13,21,6,7,0.8,0.8
2026-01-31T1900,3207A,118.31131,32.3033,滁州市,市政府原办公楼,颗粒物(PM10),55,59,34,31,23,41,,77,74,44,17,4,3,0.5,0.2
2026-01-31T1900,3331A,118.3268,32.2633,滁州市,图书馆,,39,39,23,20,16,56,,75,74,25,13,6,6,0.5,0.3
2026-01-31T1900,4101A,118.3196,32.3335,滁州市,银山路666号,,44,44,26,30,26,66,,83,82,14,11,6,4,0.4,0.3
2026-01-31T1900,4102A,118.3426,32.2979,滁州市,黄山路555号,颗粒物(PM10),52,54,35,30,25,65,,85,84,25,12,2,4,0.4,0.2
2026-01-31T1900,2606A,101.5379,25.0492,楚雄彝族自治州,市经济开发区,,32,23,34,22,25,72,,74,74,8,19,2,4,0.7,0.7
2026-01-31T1900,4153A,101.5536,25.0343,楚雄彝族自治州,团结路562号,,27,27,31,12,20,76,,76,76,4,13,4,5,0.4,0.5
2026-01-31T1900,2549A,107.5087,31.2186,达州市,市环境监测站,,50,50,38,27,18,29,,29,25,28,31,6,8,0.7,0.7
2026-01-31T1900,2550A,107.4988,31.2132,达州市,凤凰小区,,39,39,33,26,17,31,,30,30,28,30,4,6,0.4,0.4
2026-01-31T1900,2551A,107.5081,31.1987,达州市,达县机关宾馆,颗粒物(PM10),59,68,40,24,20,12,,29,27,46,37,4,4,0.9,0.9
2026-01-31T1900,2552A,107.4644,31.2124,达州市,市政中心,颗粒物(PM10),53,55,41,24,16,29,,37,37,35,32,5,7,0.7,0.7
2026-01-31T1900,2614A,100.2168,25.5818,大理白族自治州,大理市环境监测站,,29,22,27,20,18,87,,80,80,7,7,7,6,0.4,0.4
2026-01-31T1900,2615A,100.1542,25.7055,大理白族自治州,大理古城,,33,27,24,23,15,66,,76,76,9,9,8,8,0.5,0.5
2026-01-31T1900,1109A,121.6119,38.974,大连市,甘井子,细颗粒物(PM2.5),88,87,78,65,57,76,,78,78,27,36,7,10,0.6,0.7
2026-01-31T1900,1110A,121.565,38.9509,大连市,周水子,细颗粒物(PM2.5),97,94,75,72,56,59,,67,67,31,38,6,9,1.0,0.8
2026-01-31T1900,1111A,121.5637,38.8849,大连市,星海三站,细颗粒物(PM2.5),97,88,60,72,53,64,,68,68,26,22,8,9,1.1,0.9
2026-01-31T1900,1112A,121.6301,38.9117,大连市,青泥洼桥,细颗粒物(PM2.5),102,97,77,76,58,65,,68,68,,31,11,13,1.1,0.9
2026-01-31T1900,1113A,121.6248,38.8643,大连市,傅家庄,细颗粒物(PM2.5),89,89,59,66,52,62,,63,63,24,23,10,12,1.2,1
2026-01-31T1900,1114A,121.5117,38.8636,大连市,七贤岭,细颗粒物(PM2.5),88,90,60,65,47,79,,75,75,18,16,9,9,1.3,0.9
2026-01-31T1900,1116A,121.7507,39.1339,大连市,金州,细颗粒物(PM2.5),95,92,71,71,57,79,,78,78,27,23,12,12,0.8,0.6
2026-01-31T1900,1117A,121.7811,39.0495,大连市,开发区,细颗粒物(PM2.5),125,96,71,95,66,68,,74,74,23,31,10,8,1.1,0.9
2026-01-31T1900,1118A,121.9762,39.0631,大连市,双D港,细颗粒物(PM2.5),102,90,65,76,53,75,,75,75,25,22,14,11,1.1,0.8
2026-01-31T1900,4082A,121.2548,38.8188,大连市,旅顺,细颗粒物(PM2.5),128,119,82,97,64,54,,64,64,34,28,10,10,1.3,1
2026-01-31T1900,1789A,124.8085,46.0381,大庆市,大同区,,44,44,53,22,34,43,,62,59,32,24,8,10,0.7,0.8
2026-01-31T1900,1790A,125.1166,46.5255,大庆市,龙凤区,颗粒物(PM10),53,55,59,31,38,42,,59,58,39,39,7,10,0.7,0.8
2026-01-31T1900,1791A,124.8894,46.4007,大庆市,红岗区,细颗粒物(PM2.5),54,45,34,38,23,38,,51,51,31,24,7,6,0.8,0.7
2026-01-31T1900,1792A,125.1391,46.578,大庆市,萨尔图区,颗粒物(PM10),54,57,48,31,24,38,,54,54,38,32,10,9,0.6,0.6
2026-01-31T1900,1793A,124.9026,46.6217,大庆市,让胡路区,,41,41,38,28,27,48,,64,62,24,21,10,9,0.5,0.5
2026-01-31T1900,3481A,125.127,46.6277,大庆市,萨区政府监测点,,34,34,39,19,21,47,,61,60,27,29,9,10,0.7,0.8
2026-01-31T1900,1723A,113.2926,40.0759,大同市,云冈宾馆,,23,23,34,10,17,61,,67,67,22,20,5,10,0.3,0.8
2026-01-31T1900,1724A,113.3437,40.0921,大同市,大同大学,,24,15,39,7,14,75,,73,73,12,16,4,9,0.4,0.8
2026-01-31T1900,1725A,113.2637,40.129,大同市,安家小村,,20,19,33,11,16,62,,69,69,19,17,8,10,0.2,0.5
2026-01-31T1900,3282A,113.3399,40.0586,大同市,大同市卫生学校,,38,28,39,26,17,67,,70,70,23,21,3,7,0.4,0.6
2026-01-31T1900,3565A,113.1371,40.1122,大同市,云冈站,,,10,48,,28,58,,76,76,19,24,5,9,0.3,0.6
2026-01-31T1900,3566A,113.1186,40.2556,大同市,图书馆,,25,19,37,17,20,68,,76,76,11,14,3,4,0.3,0.6
2026-01-31T1900,3567A,113.5931,40.0459,大同市,区一中,,30,26,47,21,23,72,,72,72,14,18,6,13,0.2,0.5
2026-01-31T1900,4199A,113.2798248,40.09972476,大同市,魏都大道141号,,28,,48,19,18,70,,75,75,21,22,4,8,0.5,0.7
2026-01-31T1900,2269A,124.1068,50.4091,大兴安岭地区,科技局,,35,32,18,24,8,59,,65,64,9,2,6,4,0.2,0.2
2026-01-31T1900,3663A,124.117,50.4279,大兴安岭地区,红旗社区,,23,7,5,7,7,72,,73,73,4,3,4,4,0.4,0.3
2026-01-31T1900,1600A,124.33,40.0625,丹东市,江湾东路,细颗粒物(PM2.5),98,112,61,73,39,33,,68,62,42,26,16,12,1.2,1.2
2026-01-31T1900,1601A,124.4242,40.1513,丹东市,临江后街,细颗粒物(PM2.5),64,60,49,46,36,41,,73,70,42,27,14,13,1.0,0.8
2026-01-31T1900,1602A,124.3935,40.1461,丹东市,元宝山,细颗粒物(PM2.5),52,44,35,36,26,55,,69,69,24,19,12,12,0.8,0.8
2026-01-31T1900,1603A,124.3634,40.1093,丹东市,民主桥,细颗粒物(PM2.5),110,137,53,83,33,26,,68,60,58,32,19,12,1.2,0.9
2026-01-31T1900,3541A,109.5726195,19.51688767,儋州市,第一中学子站,细颗粒物(PM2.5),64,65,27,46,17,63,,66,66,10,5,5,4,0.9,0.7
2026-01-31T1900,3542A,109.5567,19.5187,儋州市,东坡学校子站,细颗粒物(PM2.5),68,58,24,49,16,79,,82,82,13,6,5,3,0.9,0.8
2026-01-31T1900,2616A,98.5611,24.4273,德宏傣族景颇族自治州,德宏州监测站,颗粒物(PM10),52,53,54,30,34,91,,92,92,17,24,6,7,0.7,0.8
2026-01-31T1900,3677A,98.5887,24.4366,德宏傣族景颇族自治州,芒市人民政府综合楼,,42,42,53,21,28,82,,81,81,12,13,4,4,0.6,0.7
2026-01-31T1900,1901A,104.424,31.1209,德阳市,东山公园,细颗粒物(PM2.5),80,86,85,59,60,57,,61,61,16,18,1,1,0.7,0.7
2026-01-31T1900,1902A,104.3827,31.1318,德阳市,西小区,细颗粒物(PM2.5),83,105,104,61,67,57,,60,60,22,33,3,3,0.9,0.9
2026-01-31T1900,1904A,104.3553,31.1091,德阳市,耐火材料厂,细颗粒物(PM2.5),89,96,93,66,70,53,,50,50,23,32,2,2,0.9,0.9
2026-01-31T1900,4145A,104.4144,31.1495,德阳市,市林业局,细颗粒物(PM2.5),87,110,99,64,62,46,,57,57,30,34,4,4,0.9,0.9
2026-01-31T1900,1622A,116.3034,37.4675,德州市,儿童乐园,细颗粒物(PM2.5),182,195,164,137,123,54,,77,77,45,50,10,12,1.4,1.4
2026-01-31T1900,1624A,116.2992,37.4449,德州市,监理站,细颗粒物(PM2.5),179,200,167,135,117,50,,83,82,59,57,6,9,1.2,1.2
2026-01-31T1900,3066A,116.2722,37.438,德州市,九衢泉纯净水厂,细颗粒物(PM2.5),202,188,163,152,132,46,,70,70,48,60,3,7,1.6,1.7
2026-01-31T1900,3371A,116.3693,37.44,德州市,开发区人民医院,细颗粒物(PM2.5),182,197,169,137,124,62,,80,80,32,49,10,12,1.1,1.1
2026-01-31T1900,3511A,116.5687,37.3331,德州市,陵城艺术中心,细颗粒物(PM2.5),189,173,161,142,130,40,,68,68,49,47,12,14,1.0,1.1
2026-01-31T1900,4292A,116.352738,37.420875,德州市,新河东路,细颗粒物(PM2.5),247,219,139,197,152,43,,73,73,54,54,11,13,1.5,1.1
2026-01-31T1900,2621A,99.7054,27.8319,迪庆藏族自治州,迪庆州站,,32,32,24,13,15,79,,80,80,6,8,5,5,0.5,0.5
2026-01-31T1900,3180A,99.7122,27.8129,迪庆藏族自治州,质量技术监督局,,25,23,23,10,16,80,,84,84,8,11,6,5,0.4,0.5
2026-01-31T1900,4257A,104.6092,35.5962,定西市,将台街,颗粒物(PM10),88,126,141,47,54,83,,82,82,7,20,9,10,0.4,0.7
2026-01-31T1900,4309A,104.6159,35.5701,定西市,正龙路62号,颗粒物(PM10),101,152,142,53,56,74,,66,66,9,12,8,5,0.5,0.8
2026-01-31T1900,1390A,113.7943,23.0132,东莞市,东城石井,,22,22,37,14,27,51,,36,36,19,36,5,6,0.9,0.8
2026-01-31T1900,1391A,113.7384,22.9659,东莞市,南城西平,,20,20,33,14,26,46,,28,28,21,43,6,7,0.9,0.9
2026-01-31T1900,3319A,113.7283,23.041,东莞市,万江金泰,,,,37,,25,48,,36,36,,31,4,5,1.0,1
2026-01-31T1900,4129A,113.8666,23.1062,东莞市,裕兴路,,22,22,33,12,21,46,,35,35,15,24,4,5,1.0,1
2026-01-31T1900,4130A,114.0076,22.9739,东莞市,教育路1号,,19,18,28,13,22,49,,45,45,19,24,4,4,0.7,0.7
2026-01-31T1900,4131A,113.7981,22.8124,东莞市,长怡路1号,,29,29,48,14,25,44,,32,32,19,34,5,6,0.9,1
2026-01-31T1900,1666A,118.6612,37.4313,东营市,市环保局,细颗粒物(PM2.5),134,129,95,102,71,48,,72,70,48,36,8,12,1.0,0.9
2026-01-31T1900,3036A,118.6903,37.4337,东营市,开发区管委会,细颗粒物(PM2.5),130,135,95,99,72,50,,71,70,46,34,8,10,0.8,0.6
2026-01-31T1900,3365A,118.5721,37.5654,东营市,垦利区民丰路,细颗粒物(PM2.5),156,141,94,119,68,,,71,71,68,37,8,12,1.0,0.9
2026-01-31T1900,3498A,118.5063,37.8606,东营市,河口城区,细颗粒物(PM2.5),120,127,93,91,62,55,,66,66,54,41,5,6,1.1,0.9
2026-01-31T1900,3646A,118.4979,37.4623,东营市,胜利站,细颗粒物(PM2.5),134,143,95,102,70,42,,67,66,56,38,13,12,1.1,1
2026-01-31T1900,3734A,118.5753,37.4405,东营市,理想之城,细颗粒物(PM2.5),123,134,93,93,65,22,,67,62,75,42,5,8,1.0,0.8
2026-01-31T1900,1591A,110.0024,39.8127,鄂尔多斯市,综合楼,,24,17,30,7,9,74,,82,82,14,18,6,9,0.3,0.4
2026-01-31T1900,1592A,109.9485,39.8259,鄂尔多斯市,巴音孟克林场办事处,,24,24,29,7,10,70,,82,81,15,24,6,8,0.3,0.4
2026-01-31T1900,1593A,109.7734,39.5987,鄂尔多斯市,康泽苑,,23,22,30,11,12,71,,84,84,16,11,3,3,0.3,0.3
2026-01-31T1900,1594A,109.8121,39.5987,鄂尔多斯市,华泰汽车城,,27,27,34,12,13,83,,89,89,13,14,5,5,0.3,0.3
2026-01-31T1900,1595A,109.9734,39.7884,鄂尔多斯市,奥林花园,,,27,34,,8,72,,81,81,15,28,8,9,0.3,0.5
2026-01-31T1900,2436A,114.894,30.3989,鄂州市,市政府,细颗粒物(PM2.5),58,56,30,41,21,33,,39,34,24,21,5,5,0.6,0.5
2026-01-31T1900,2437A,114.8986,30.3714,鄂州市,赵家坝,,48,45,28,33,21,40,,45,41,16,10,8,7,0.7,0.6
2026-01-31T1900,3654A,114.8093,30.4091,鄂州市,精准医疗中心,"颗粒物(PM10),细颗粒物(PM2.5)",52,53,32,36,20,37,,48,47,20,9,11,10,0.5,0.5
2026-01-31T1900,2454A,109.4978,30.2979,恩施土家族苗族自治州,湖北民院,,43,33,32,30,28,25,,31,31,18,15,6,6,1.0,1
2026-01-31T1900,3549A,109.5061,30.3771,恩施土家族苗族自治州,龙凤新区,,38,31,32,26,25,23,,30,30,15,12,7,7,0.8,0.8
2026-01-31T1900,2499A,108.3411,21.6159,防城港市,沙万,,44,44,49,21,20,65,,63,63,16,22,6,5,1.2,1.1
2026-01-31T1900,2500A,108.3515,21.7733,防城港市,防城档案局,颗粒物(PM10),54,57,53,25,23,65,,63,63,16,16,5,5,0.9,0.9
2026-01-31T1900,2501A,108.3506,21.6414,防城港市,大海花园,,44,44,40,22,25,71,,69,69,14,20,6,7,1.1,0.9
2026-01-31T1900,1371A,113.1293,23.0065,佛山市,湾梁,,34,34,36,10,17,58,,40,40,25,35,/,/,/,/
2026-01-31T1900,1372A,113.1082,23.0477,佛山市,华材职中,,36,36,40,23,29,60,,46,46,24,33,6,6,0.9,0.9
2026-01-31T1900,1373A,113.1439,23.045,佛山市,南海气象局,,29,29,34,18,24,54,,40,40,28,36,/,/,/,/
2026-01-31T1900,1374A,113.2879,22.8094,佛山市,顺德苏岗,,28,28,35,17,20,49,,33,33,34,43,/,/,1.3,1.2
2026-01-31T1900,1376A,112.8384,22.8678,佛山市,高明孔堂,,39,39,32,20,20,76,,58,58,20,23,/,/,/,/
2026-01-31T1900,1377A,112.8835,23.1584,佛山市,三水监测站,,34,34,38,16,20,60,,56,56,23,30,3,3,0.6,0.6
2026-01-31T1900,1378A,112.8668,23.185,佛山市,三水云东海,,26,26,36,14,17,54,,57,57,28,33,/,/,/,/
2026-01-31T1900,3625A,113.2568,22.7629,佛山市,容桂街道办,颗粒物(PM10),51,51,36,18,20,37,,29,29,42,43,/,/,/,/
2026-01-31T1900,1282A,119.2681,26.0506,福州市,师大,,17,13,20,3,10,52,,55,52,23,29,2,2,0.4,0.4
2026-01-31T1900,1283A,119.2983,26.1028,福州市,五四北路,,19,12,20,3,12,58,,52,52,16,29,4,4,0.3,0.4
2026-01-31T1900,1284A,119.2648,26.0769,福州市,杨桥西路,,16,8,18,3,12,49,,56,51,24,30,3,3,/,/
2026-01-31T1900,3048A,119.5799,26.0937,福州市,九龙,,,,12,0,5,,,76,76,10,13,4,4,0.4,0.4
2026-01-31T1900,3526A,119.5188,25.9666,福州市,吴航,,25,7,12,3,7,78,,77,77,10,17,3,4,0.5,0.5
2026-01-31T1900,4104A,119.3106,26.0648,福州市,路通桥巷6号,,18,8,23,3,14,56,,53,49,16,28,/,/,/,/
2026-01-31T1900,1755A,123.7974,41.8494,抚顺市,望花区,细颗粒物(PM2.5),68,79,120,49,77,40,,62,62,51,55,14,11,1.0,1.5
2026-01-31T1900,1756A,123.9161,41.8827,抚顺市,顺城区,细颗粒物(PM2.5),133,,92,101,75,11,,65,61,92,57,18,15,1.7,1.4
2026-01-31T1900,1757A,124.0437,41.8615,抚顺市,东洲区,细颗粒物(PM2.5),72,55,91,52,64,49,,65,64,36,42,40,18,1.0,1.2
2026-01-31T1900,1758A,123.9246,41.8638,抚顺市,新抚区,细颗粒物(PM2.5),58,49,110,41,80,28,,72,65,63,56,8,10,1.2,1.4
2026-01-31T1900,1759A,124.0972,41.8961,抚顺市,大伙房水库,,45,42,72,31,53,66,,72,72,20,38,11,12,0.7,1.1
2026-01-31T1900,1760A,123.708,41.8386,抚顺市,沈抚新城,细颗粒物(PM2.5),83,78,103,61,70,35,,65,64,68,58,12,11,0.8,1.5
2026-01-31T1900,2377A,116.3544,27.9833,抚州市,市站,,29,25,17,20,10,57,,56,56,16,13,5,6,1.1,1.2
2026-01-31T1900,2378A,116.3562,27.9631,抚州市,血防站,,31,31,23,16,9,54,,51,51,22,20,4,5,1.2,1.2
2026-01-31T1900,2379A,116.3561,28.0007,抚州市,采茶剧团,,27,27,18,18,11,49,,49,49,12,8,4,4,0.8,0.8
2026-01-31T1900,2380A,116.3854,27.9648,抚州市,医学分院,,34,34,25,16,9,55,,53,53,13,13,5,4,0.9,1
2026-01-31T1900,2207A,121.6095,41.9978,阜新市,工业园区,,,96,79,,37,20,,73,66,66,31,33,16,1.3,0.7
2026-01-31T1900,2208A,121.6567,42.0188,阜新市,长青街,,30,30,57,19,47,52,,76,74,23,34,9,12,0.4,0.7
2026-01-31T1900,2209A,121.6672,42.07,阜新市,农业园区,,29,29,53,14,30,62,,70,70,13,20,7,14,0.4,0.6
2026-01-31T1900,2211A,121.6343,42.0455,阜新市,玉龙新城,颗粒物(PM10),60,69,83,41,44,24,,74,65,55,43,15,11,0.7,0.9
2026-01-31T1900,2301A,115.8276,32.8929,阜阳市,市监测站,颗粒物(PM10),64,78,64,45,39,60,,65,65,21,21,4,4,0.5,0.4
2026-01-31T1900,2303A,115.8551,32.8606,阜阳市,开发区,颗粒物(PM10),57,63,48,33,39,66,,67,67,21,19,5,4,0.3,0.3
2026-01-31T1900,2875A,115.783962,32.889217,阜阳市,阜阳职业技术学院,细颗粒物(PM2.5),64,60,52,46,37,68,,73,73,15,13,5,6,0.4,0.3
2026-01-31T1900,3468A,115.79,32.8614,阜阳市,市规划展馆,细颗粒物(PM2.5),58,55,54,41,38,70,,72,72,16,13,5,5,0.4,0.4
2026-01-31T1900,3469A,115.835101,32.918568,阜阳市,枣园社区,"颗粒物(PM10),细颗粒物(PM2.5)",60,69,62,43,43,65,,65,65,14,20,5,5,0.5,0.4
2026-01-31T1900,2669A,102.9097,34.9841,甘南藏族自治州,州政府,细颗粒物(PM2.5),87,,65,64,50,81,,78,78,8,15,6,5,0.3,0.5
2026-01-31T1900,3380A,102.8915,34.9618,甘南藏族自治州,甘肃民族师范学院,颗粒物(PM10),56,61,72,24,29,82,,80,80,10,20,6,9,0.8,0.7
2026-01-31T1900,2570A,101.96,30.048,甘孜藏族自治州,水桥子,,20,,13,14,6,64,,61,61,6,14,7,6,0.6,0.3
2026-01-31T1900,3065A,101.9534,29.9976,甘孜藏族自治州,州环保局,,24,16,15,9,6,74,,72,72,10,16,7,6,0.5,0.8
2026-01-31T1900,2363A,114.9368,25.8663,赣州市,地委,,23,23,38,10,15,34,,28,28,17,17,6,7,0.9,0.9
2026-01-31T1900,2364A,114.946,25.8483,赣州市,气象台,,32,32,38,3,17,29,,22,22,22,22,6,6,0.6,0.6
2026-01-31T1900,2365A,114.932,25.8332,赣州市,市图书馆,,18,15,23,12,17,30,,24,24,22,21,3,4,0.9,1
2026-01-31T1900,2366A,114.8905,25.8472,赣州市,华坚鞋城,,17,17,28,3,14,31,,22,22,21,20,5,5,0.6,0.7
2026-01-31T1900,3109A,115.0094,25.8614,赣州市,赣县区卫计委,,26,26,22,8,16,34,,31,31,12,14,8,8,0.9,0.9
2026-01-31T1900,2684A,106.2753,36.0057,固原市,监测站,颗粒物(PM10),77,103,179,35,50,75,,85,85,20,22,8,8,0.6,0.9
2026-01-31T1900,2685A,106.2384,36.0189,固原市,新区,颗粒物(PM10),79,107,174,42,43,72,,86,86,23,33,10,7,0.5,0.8
2026-01-31T1900,2544A,106.6307,30.4577,广安市,市委,,47,47,35,31,29,78,,72,72,21,22,6,5,0.9,0.9
2026-01-31T1900,2545A,106.6266,30.4662,广安市,友谊中学,,43,43,32,26,25,82,,70,70,21,22,5,6,0.9,0.9
2026-01-31T1900,2547A,106.6386,30.4551,广安市,广电花园,,,,28,38,30,74,,69,69,,19,6,5,0.9,0.8
2026-01-31T1900,2902A,106.6347,30.4868,广安市,北辰小学,,50,44,31,35,28,80,,67,67,15,14,5,4,1.0,0.9
2026-01-31T1900,2524A,105.8211,32.4444,广元市,老城,颗粒物(PM10),75,99,69,45,41,67,,71,71,35,37,1,3,1.0,1
2026-01-31T1900,2526A,105.8629,32.429,广元市,监测站,颗粒物(PM10),75,99,72,42,40,52,,64,64,36,30,8,7,1.0,1.1
2026-01-31T1900,3617A,105.8047,32.4167,广元市,经开区,颗粒物(PM10),66,82,73,41,44,65,,63,63,20,35,2,5,0.8,0.9
2026-01-31T1900,1345A,113.2346,23.1423,广州市,广雅中学,,16,16,33,3,18,50,,36,36,22,34,2,2,0.8,0.8
2026-01-31T1900,1346A,113.2611,23.105,广州市,市五中,,29,29,35,18,21,59,,45,45,19,31,6,6,/,/
2026-01-31T1900,1348A,113.3477,23.0916,广州市,广东商学院,,24,24,33,12,20,49,,38,38,20,34,6,5,2.2,1.1
2026-01-31T1900,1349A,113.4332,23.105,广州市,市八十六中,,33,23,27,23,22,51,,42,42,21,34,7,7,/,/
2026-01-31T1900,1350A,113.3506,22.9488,广州市,番禺中学,,34,34,43,21,22,52,,38,38,24,37,3,3,0.9,0.9
2026-01-31T1900,1351A,113.2147,23.3918,广州市,花都师范,,31,31,28,14,15,38,,43,43,29,30,5,5,1.0,0.8
2026-01-31T1900,1352A,113.2599,23.1329,广州市,市监测站,,39,39,39,22,22,53,,40,40,15,30,2,3,/,/
2026-01-31T1900,1353A,113.5618,23.3119,广州市,九龙镇镇龙,,17,17,33,11,21,42,,39,39,15,22,4,5,0.8,0.7
2026-01-31T1900,1354A,113.2764,23.1544,广州市,麓湖,,28,28,32,18,20,50,,41,41,21,36,8,8,0.9,0.8
2026-01-31T1900,2846A,113.3209,23.1323,广州市,体育西,,35,35,37,24,22,46,,38,38,19,31,7,6,1.1,1
2026-01-31T1900,3298A,113.5718,23.5493,广州市,从化街口,,22,20,30,15,21,45,,44,44,16,22,6,6,0.8,0.8
2026-01-31T1900,3299A,113.3463,23.369,广州市,白云竹料,,26,26,30,18,20,50,,49,49,17,23,3,3,0.7,0.7
2026-01-31T1900,3300A,113.2981,23.2365,广州市,白云嘉禾,,33,33,34,19,20,44,,42,42,30,35,5,5,/,/
2026-01-31T1900,3301A,113.4256,23.1716,广州市,黄埔科学城,,25,22,30,17,22,54,,45,45,13,23,2,2,1.0,0.9
2026-01-31T1900,3302A,113.3942,23.0485,广州市,番禺大学城,,28,28,41,13,19,57,,46,46,19,35,7,8,0.8,0.7
2026-01-31T1900,3303A,113.4923,22.8169,广州市,南沙黄阁,,48,48,45,20,26,30,,24,24,34,43,5,6,/,/
2026-01-31T1900,3304A,113.534,22.7893,广州市,南沙街,,42,42,44,20,25,38,,28,28,32,44,5,6,0.9,0.9
2026-01-31T1900,3443A,113.2905,23.5541,广州市,花都梯面,,26,26,24,18,16,39,,42,42,12,14,5,5,/,/
2026-01-31T1900,3445A,113.786,23.7479,广州市,从化良口,,15,13,23,10,17,37,,45,34,12,14,7,8,/,/
2026-01-31T1900,3446A,113.805,23.2614,广州市,增城荔城,,17,16,30,11,18,53,,44,44,12,16,5,5,0.9,0.8
2026-01-31T1900,2506A,109.604387,23.066791,贵港市,江南子站,,48,48,34,15,14,80,,66,66,18,11,5,4,0.8,0.9
2026-01-31T1900,2508A,109.5669,23.1065,贵港市,荷城子站,,34,34,32,18,13,77,,64,64,18,14,6,5,1.0,1
2026-01-31T1900,3405A,109.5886,23.1172,贵港市,新世纪学校,,39,39,34,15,17,86,,70,70,17,15,/,/,0.7,0.8
2026-01-31T1900,4260A,109.5933,23.095,贵港市,中山路155-3号,,30,28,27,15,15,94,,75,75,15,14,/,/,0.8,0.9
2026-01-31T1900,1439A,106.6863,26.6035,贵阳市,马鞍山,,35,,19,24,12,62,,58,58,14,13,8,5,/,/
2026-01-31T1900,1441A,106.6241,26.6266,贵阳市,鉴湖路,,41,41,28,24,16,68,,60,60,23,15,5,3,0.8,0.8
2026-01-31T1900,1442A,106.7468,26.6344,贵阳市,燕子冲,,38,31,18,26,12,72,,68,68,13,11,8,8,0.6,0.8
2026-01-31T1900,1443A,106.6556,26.4362,贵阳市,碧云窝,,39,34,29,27,14,71,,60,60,13,13,17,14,/,/
2026-01-31T1900,1445A,106.6963,26.6063,贵阳市,红边门,,34,34,20,19,14,65,,61,61,20,14,15,9,/,/
2026-01-31T1900,1446A,106.7162383,26.56964667,贵阳市,新华路,,39,39,27,16,14,64,,58,58,23,18,11,7,0.7,0.8
2026-01-31T1900,1447A,106.6742,26.542,贵阳市,太慈桥,,29,29,19,19,12,62,,54,54,23,17,6,4,/,/
2026-01-31T1900,4230A,106.688212,26.56952,贵阳市,花果园大街66号,,36,34,16,25,14,64,,53,53,20,15,7,3,/,/
2026-01-31T1900,4231A,106.687268,26.516892,贵阳市,漓江路57号,,41,41,22,24,15,63,,56,56,25,16,11,7,0.9,0.8
2026-01-31T1900,1864A,110.3091,25.2705,桂林市,龙隐路小学,,35,,10,24,9,71,,74,74,12,12,6,6,0.5,0.6
2026-01-31T1900,1865A,110.2849361,25.22909545,桂林市,八中,,21,16,13,10,7,65,,66,66,14,12,3,3,0.6,0.8
2026-01-31T1900,3531A,110.296,25.1254,桂林市,旅游学院,,34,34,21,15,8,74,,78,78,9,9,4,4,0.4,0.5
2026-01-31T1900,4222A,110.1835,25.2444,桂林市,环湖路276号,,25,24,12,17,9,63,,69,69,12,12,5,6,1.0,1.1
2026-01-31T1900,4301A,110.2803,25.2773,桂林市,信义路13号,,29,24,12,20,8,62,,70,70,14,13,4,5,0.8,0.9
2026-01-31T1900,2674A,100.2262,34.4854,果洛藏族自治州,玛沁县大武镇,颗粒物(PM10),55,59,51,20,22,87,,86,86,2,4,14,18,0.3,0.5
2026-01-31T1900,1130A,126.5557,45.8109,哈尔滨市,松北商大,细颗粒物(PM2.5),94,82,78,70,69,26,,63,58,54,34,6,7,1.0,0.9
2026-01-31T1900,1132A,126.6162,45.719,哈尔滨市,南岗学府路,细颗粒物(PM2.5),104,113,95,78,70,34,,60,58,41,36,16,10,1.1,1
2026-01-31T1900,1133A,126.6894,45.7733,哈尔滨市,太平宏伟公园,细颗粒物(PM2.5),85,78,77,63,61,54,,61,61,28,35,22,16,0.7,0.8
2026-01-31T1900,1134A,126.6361,45.7672,哈尔滨市,道外承德广场,细颗粒物(PM2.5),87,101,94,64,58,60,,59,59,30,43,9,14,0.5,0.6
2026-01-31T1900,1136A,126.644,45.7261,哈尔滨市,动力和平路,细颗粒物(PM2.5),97,102,91,72,70,43,,56,56,36,40,15,12,1.1,1.1
2026-01-31T1900,1137A,126.5933,45.7479,哈尔滨市,道里建国路,细颗粒物(PM2.5),99,,82,74,67,50,,53,53,40,46,13,18,0.8,1
2026-01-31T1900,1138A,126.6127,45.6119,哈尔滨市,平房东轻厂,细颗粒物(PM2.5),124,121,97,94,88,11,,55,46,89,48,22,10,1.1,1
2026-01-31T1900,1139A,126.5875,45.9827,哈尔滨市,呼兰师专,细颗粒物(PM2.5),125,119,71,95,54,,,62,62,54,31,18,14,1.2,0.9
2026-01-31T1900,1140A,126.6299,45.6799,哈尔滨市,省农科院,细颗粒物(PM2.5),142,125,105,108,87,16,,50,46,66,50,22,15,1.3,1.1
2026-01-31T1900,4282A,126.6769,45.7379,哈尔滨市,华山路1号,细颗粒物(PM2.5),105,100,91,79,60,48,,54,54,37,44,14,15,0.8,0.9
2026-01-31T1900,4283A,126.9717,45.5356,哈尔滨市,解放大街52号,细颗粒物(PM2.5),149,137,100,114,80,41,,64,63,44,30,13,13,1.3,1
2026-01-31T1900,2688A,93.5124,42.8176,哈密市,地区监测站,颗粒物(PM10),71,91,81,42,39,63,,64,64,18,23,16,11,0.3,0.2
2026-01-31T1900,2689A,93.5014,42.8312,哈密市,哈密师范学校,,,,47,32,31,21,,13,13,,,,6,0.6,0.8
2026-01-31T1900,2671A,100.9016,36.9464,海北藏族自治州,海晏县西海镇,,26,26,73,6,49,81,,83,83,8,11,7,9,0.3,0.8
2026-01-31T1900,3867A,102.074,36.5056,海东市,平安区公安局北苑,细颗粒物(PM2.5),99,115,130,74,75,59,,57,57,20,16,23,14,0.8,0.9
2026-01-31T1900,4163A,102.0984,36.5119,海东市,滨河路,细颗粒物(PM2.5),92,123,130,68,73,63,,63,63,33,37,21,14,0.8,0.9
2026-01-31T1900,1410A,110.3189,20.0596,海口市,海南大学,细颗粒物(PM2.5),59,63,16,42,10,70,,95,94,18,8,8,5,0.9,0.4
2026-01-31T1900,1411A,110.2827,20.0051,海口市,秀英海南医院,细颗粒物(PM2.5),73,,14,53,10,67,,94,93,20,8,9,7,0.8,0.3
2026-01-31T1900,1412A,110.3391,19.9979,海口市,海南师范大学,,,,14,42,9,76,,98,98,,15,7,6,0.9,0.3
2026-01-31T1900,1413A,110.3303,20.0359,海口市,龙华路环保局宿舍,细颗粒物(PM2.5),67,,16,48,10,74,,104,102,11,7,/,/,1.2,0.6
2026-01-31T1900,3539A,110.5111,19.9737,海口市,桂林洋子站,颗粒物(PM10),54,58,17,35,9,96,,105,105,13,7,/,/,/,/
2026-01-31T1900,4134A,110.1952,20.0451,海口市,长滨二路9号,细颗粒物(PM2.5),93,76,17,69,12,68,,93,92,16,6,/,/,/,/
2026-01-31T1900,2673A,100.6158,36.2985,海南藏族自治州,共和县恰卜恰镇,,36,36,40,8,19,96,,95,95,5,18,13,13,0.4,0.5
2026-01-31T1900,2676A,97.373,37.376,海西蒙古族藏族自治州,德令哈市,,32,32,38,10,12,101,,104,104,7,4,12,14,0.4,0.4
2026-01-31T1900,1049A,114.492,36.5712,邯郸市,矿院,细颗粒物(PM2.5),229,,138,179,131,32,,37,37,25,28,1,1,1.1,1
2026-01-31T1900,1050A,114.4839,36.6136,邯郸市,丛台公园,细颗粒物(PM2.5),218,173,152,168,139,37,,43,43,31,32,3,3,1.0,1
2026-01-31T1900,3458A,114.7893,36.5592,邯郸市,香泉濮院小区,细颗粒物(PM2.5),170,168,133,129,105,37,,40,40,33,24,2,2,1.1,0.9
2026-01-31T1900,3580A,114.1998,36.4439,邯郸市,峰峰矿区临水派出所,细颗粒物(PM2.5),224,,135,174,133,30,,35,35,33,22,4,7,1.8,1.8
2026-01-31T1900,4068A,114.5209,36.7697,邯郸市,建安街268号,细颗粒物(PM2.5),211,,125,161,132,18,,42,42,54,48,2,2,0.9,0.9
2026-01-31T1900,4069A,114.5488,36.6177,邯郸市,丛台东路558号,细颗粒物(PM2.5),233,,139,183,142,14,,42,40,46,32,3,2,1.2,1.1
2026-01-31T1900,2635A,107.0155,33.0707,汉中市,市监测站,颗粒物(PM10),64,78,60,38,48,59,,66,66,39,34,6,6,1.2,1.3
2026-01-31T1900,2636A,107.0083,33.114,汉中市,鑫源开发区,颗粒物(PM10),65,80,67,44,56,44,,68,68,53,36,6,5,1.0,1.1
2026-01-31T1900,2637A,107.0072,33.0323,汉中市,南郑大河坎水厂,颗粒物(PM10),63,75,65,38,45,51,,67,67,37,27,5,5,1.1,1.2
2026-01-31T1900,1223A,120.2073,30.2111,杭州市,滨江,,40,38,20,28,16,36,,46,44,32,30,6,6,0.6,0.4
2026-01-31T1900,1224A,120.0625,30.2737,杭州市,西溪,细颗粒物(PM2.5),52,,21,36,15,38,,46,46,28,30,8,8,1.0,1
2026-01-31T1900,1226A,120.3417,30.315,杭州市,下沙,颗粒物(PM10),72,93,43,26,17,32,,49,47,38,27,7,7,0.9,0.8
2026-01-31T1900,1227A,120.1252,30.2465,杭州市,卧龙桥,,38,32,18,26,14,32,,45,45,20,18,8,8,0.4,0.3
2026-01-31T1900,1228A,120.1902,30.2691,杭州市,浙江农大,,31,31,19,21,11,36,,50,48,42,37,5,5,0.7,0.6
2026-01-31T1900,1230A,120.1195,30.3121,杭州市,和睦小学,,40,39,20,28,15,38,,48,48,25,24,4,4,0.8,0.7
2026-01-31T1900,1231A,120.3076,30.4146,杭州市,临平镇,,49,41,21,34,17,27,,54,50,30,15,6,6,0.7,0.5
2026-01-31T1900,1232A,120.2753,30.1839,杭州市,城厢镇,,28,24,21,19,12,46,,48,48,25,22,6,7,0.4,0.3
2026-01-31T1900,1233A,120.0883,30.1808,杭州市,云栖,,32,23,15,22,8,32,,41,41,21,22,3,4,0.8,0.7
2026-01-31T1900,3557A,119.9463,30.0496,杭州市,镇二中,,36,32,12,25,10,40,,40,40,30,27,4,4,0.6,0.5
2026-01-31T1900,3558A,119.7184,30.2367,杭州市,市府大楼,,46,,9,32,10,34,,49,48,20,15,9,9,0.7,0.6
2026-01-31T1900,3656A,120.1554,30.2863,杭州市,消防大队,,40,31,22,28,14,39,,47,46,30,30,6,5,0.4,0.3
2026-01-31T1900,1270A,117.1957,31.7845,合肥市,明珠广场,,46,46,26,29,22,55,,59,42,26,19,5,5,0.5,0.5
2026-01-31T1900,1271A,117.307,31.8765,合肥市,三里街,,48,48,26,30,18,69,,55,55,20,21,4,4,0.5,0.5
2026-01-31T1900,1272A,117.2587,31.8703,合肥市,琥珀山庄,颗粒物(PM10),53,56,31,36,24,76,,63,63,17,16,7,7,0.7,0.7
2026-01-31T1900,1275A,117.2593,31.9376,合肥市,庐阳区,颗粒物(PM10),52,53,30,24,17,72,,66,66,25,24,2,2,0.7,0.6
2026-01-31T1900,1276A,117.345251,31.861615,合肥市,瑶海区,,,56,26,25,16,,,61,61,26,20,4,3,0.4,0.4
2026-01-31T1900,1277A,117.3033,31.7967,合肥市,包河区,颗粒物(PM10),52,53,29,21,19,49,,45,42,39,35,5,5,0.6,0.6
2026-01-31T1900,1278A,117.278,31.7392,合肥市,滨湖新区,,44,44,29,27,19,40,,58,40,32,21,2,2,0.6,0.5
2026-01-31T1900,1279A,117.1324,31.8395,合肥市,高新区,颗粒物(PM10),51,51,30,25,20,76,,60,54,24,27,3,3,0.6,0.5
2026-01-31T1900,3464A,117.3802,31.9148,合肥市,高教基地,,39,39,24,20,15,65,,70,70,17,16,6,6,0.5,0.4
2026-01-31T1900,4098A,117.2518,31.8404,合肥市,中国科学技术大学,,46,46,25,21,18,75,,62,60,12,13,7,7,0.6,0.6
2026-01-31T1900,3614A,79.9241,37.0878,和田地区,地区环保局,颗粒物(PM10),377,481,602,111,122,70,,60,60,10,32,2,8,0.0,0.7
2026-01-31T1900,3615A,79.9132,37.1137,和田地区,市环保局,颗粒物(PM10),353,462,582,84,98,96,,80,80,3,22,1,3,0.1,1.1
2026-01-31T1900,2517A,108.0496,24.6957,河池市,市环保站,,20,18,8,12,16,62,,67,67,9,9,10,3,0.8,0.8
2026-01-31T1900,4302A,108.0901,24.6945,河池市,上任中路54号,,20,20,14,14,4,50,,59,59,12,8,11,5,1.0,1
2026-01-31T1900,1697A,114.6962,23.7538,河源市,东埔,,16,11,26,11,22,48,,51,51,18,25,5,5,0.8,0.7
2026-01-31T1900,1698A,114.6895,23.7232,河源市,老城,,19,15,29,13,23,47,,50,50,14,20,5,5,1.0,1
2026-01-31T1900,3374A,115.5562,35.089,菏泽市,定陶老年大学,细颗粒物(PM2.5),109,100,112,82,96,61,,71,71,20,27,4,4,0.7,0.7
2026-01-31T1900,4114A,115.4239,35.2593,菏泽市,黄河路600号,细颗粒物(PM2.5),132,122,124,100,98,57,,66,66,36,28,2,3,0.9,0.8
2026-01-31T1900,4115A,115.5025,35.2727,菏泽市,菏泽市人社局,细颗粒物(PM2.5),152,134,126,116,107,46,,62,62,35,31,7,6,0.9,0.9
2026-01-31T1900,4184A,115.479691,35.244011,菏泽市,永昌路1号,细颗粒物(PM2.5),114,110,126,86,102,63,,68,68,33,31,2,2,0.7,0.7
2026-01-31T1900,4193A,115.471542,35.280012,菏泽市,长城路999号,细颗粒物(PM2.5),185,156,123,139,102,36,,60,60,37,32,4,16,1.2,1
2026-01-31T1900,2514A,111.5264,24.4178,贺州市,环保小区,,29,29,22,14,10,71,,65,65,16,16,4,3,0.6,0.7
2026-01-31T1900,2515A,111.561,24.4074,贺州市,政协大楼,,27,27,22,17,13,58,,65,65,13,11,12,11,0.7,0.8
2026-01-31T1900,3534A,111.4744,24.455,贺州市,西湾,,29,29,25,13,9,65,,60,60,19,16,9,8,0.8,0.9
2026-01-31T1900,2385A,114.17,35.9019,鹤壁市,市监测站,细颗粒物(PM2.5),249,227,154,199,140,19,,38,38,47,26,2,4,1.8,1.4
2026-01-31T1900,2386A,114.2953,35.7512,鹤壁市,市交警支队,细颗粒物(PM2.5),219,203,152,169,130,,,36,36,47,31,4,4,1.6,1.1
2026-01-31T1900,2387A,114.2877,35.7302,鹤壁市,迎宾馆,细颗粒物(PM2.5),227,184,143,177,128,12,,43,42,50,28,5,4,1.7,1.2
2026-01-31T1900,3474A,114.2616,35.6824,鹤壁市,大新区,细颗粒物(PM2.5),224,,131,174,135,9,,48,47,57,32,6,6,1.8,1.2
2026-01-31T1900,3596A,114.1573,35.9607,鹤壁市,南山宾馆,细颗粒物(PM2.5),234,202,155,184,137,23,,40,38,41,29,4,5,1.6,1.3
2026-01-31T1900,2244A,130.2537,47.3416,鹤岗市,哈啤分公司,,26,26,21,13,11,80,,82,82,5,4,6,6,0.6,0.5
2026-01-31T1900,2245A,130.2683,47.3087,鹤岗市,斯达机电,,24,16,21,10,8,75,,76,76,6,6,4,4,0.5,0.6
2026-01-31T1900,2246A,130.3114,47.3388,鹤岗市,东山纸板厂,,25,24,20,11,11,78,,78,78,4,4,7,6,0.4,0.4
2026-01-31T1900,2263A,127.4832,50.2524,黑河市,交通局,细颗粒物(PM2.5),68,74,20,49,15,40,,69,63,41,12,18,6,0.8,0.4
2026-01-31T1900,2264A,127.5146,50.2339,黑河市,环保局,细颗粒物(PM2.5),52,39,15,36,11,28,,67,60,53,13,20,6,0.7,0.4
2026-01-31T1900,1074A,115.6839,37.754,衡水市,电机北厂,细颗粒物(PM2.5),213,188,156,163,118,55,,64,64,33,58,3,6,1.1,1.1
2026-01-31T1900,1075A,115.6303,37.7318,衡水市,市监测站,细颗粒物(PM2.5),203,184,143,153,113,52,,65,65,35,51,6,8,1.2,1.1
2026-01-31T1900,3188A,115.6684,37.7216,衡水市,市城管局,细颗粒物(PM2.5),189,192,145,142,106,56,,67,67,38,57,7,9,1.2,1.1
2026-01-31T1900,3459A,115.599,37.5491,衡水市,地表水厂,细颗粒物(PM2.5),228,196,143,178,129,12,,59,59,70,60,4,8,1.1,1
2026-01-31T1900,2457A,112.6209,26.9268,衡阳市,衡阳化工总厂,细颗粒物(PM2.5),53,38,25,37,25,49,,40,40,14,16,6,6,0.9,0.9
2026-01-31T1900,2458A,112.621,26.8957,衡阳市,珠晖区环保局,细颗粒物(PM2.5),57,46,26,40,27,41,,36,36,21,20,5,3,1.1,1
2026-01-31T1900,2459A,112.628,26.8654,衡阳市,市委党校,,49,39,23,34,24,44,,37,37,11,11,10,9,1.1,1.1
2026-01-31T1900,2460A,112.6007,26.8977,衡阳市,市监测站,细颗粒物(PM2.5),60,64,36,43,24,41,,36,36,22,16,6,5,1.1,1
2026-01-31T1900,2461A,112.5658,26.9013,衡阳市,真空机电公司,细颗粒物(PM2.5),53,41,35,37,30,43,,38,38,23,19,6,5,1.0,1
2026-01-31T1900,3399A,112.6703,26.8817,衡阳市,师范学院,细颗粒物(PM2.5),55,42,31,39,24,44,,44,44,20,17,3,2,0.7,0.8
2026-01-31T1900,3038A,103.3757,23.3679,红河哈尼族彝族自治州,州图书馆,,50,41,40,35,31,77,,86,86,8,7,6,6,0.5,0.5
2026-01-31T1900,4154A,103.401,23.3561,红河哈尼族彝族自治州,蒙自市朝阳路,,35,33,28,24,28,82,,87,87,5,5,6,6,0.4,0.4
2026-01-31T1900,1090A,111.6506,40.7517,呼和浩特市,呼市一监,颗粒物(PM10),68,85,30,38,13,42,,63,59,37,16,20,9,0.9,0.5
2026-01-31T1900,1094A,111.7516,40.8369,呼和浩特市,如意水处理厂,颗粒物(PM10),61,71,25,35,12,58,,66,65,29,21,15,10,0.5,0.2
2026-01-31T1900,1095A,111.727798,40.806187,呼和浩特市,二十九中,颗粒物(PM10),65,79,27,30,11,58,,61,61,24,16,18,12,0.7,0.4
2026-01-31T1900,1097A,111.717,40.7617,呼和浩特市,化肥厂生活区,颗粒物(PM10),64,77,29,36,13,44,,64,62,41,19,10,6,0.7,0.4
2026-01-31T1900,3699A,111.6519,40.8389,呼和浩特市,海东办,颗粒物(PM10),65,80,25,29,10,47,,60,60,39,18,9,6,0.8,0.5
2026-01-31T1900,4275A,111.591512,40.827312,呼和浩特市,成吉思汗西街8号,颗粒物(PM10),64,78,32,31,11,17,,56,53,57,22,8,6,0.7,0.4
2026-01-31T1900,4276A,111.6597,40.8077,呼和浩特市,公园东路75号,颗粒物(PM10),70,90,27,38,11,51,,58,57,34,18,12,7,0.7,0.4
2026-01-31T1900,4277A,111.5427,40.7846,呼和浩特市,金海路35号,颗粒物(PM10),61,72,29,19,10,41,,56,56,46,22,11,7,0.9,0.5
2026-01-31T1900,3061A,119.7511,49.1576,呼伦贝尔市,国华电力东,细颗粒物(PM2.5),58,47,29,41,19,50,,67,64,27,19,7,6,0.7,0.3
2026-01-31T1900,4279A,119.7569,49.2222,呼伦贝尔市,伊敏大街东7号,细颗粒物(PM2.5),63,49,33,45,22,4,,63,49,62,19,9,7,0.9,0.4
2026-01-31T1900,1250A,120.075,30.867,湖州市,城西水厂,,39,32,15,27,13,46,,73,70,45,18,5,5,0.4,0.3
2026-01-31T1900,2873A,120.083,30.8929,湖州市,仁皇山新区,,35,31,15,24,12,48,,73,70,30,18,5,5,0.7,0.5
2026-01-31T1900,2907A,120.1846,30.8592,湖州市,吴兴区站,,29,29,18,19,12,53,,64,62,27,16,4,4,0.4,0.4
2026-01-31T1900,3562A,120.4146,30.8538,湖州市,南浔区站,,39,33,17,27,15,54,,62,62,27,19,6,6,0.5,0.4
2026-01-31T1900,1607A,120.904878,40.721091,葫芦岛市,龙港区,细颗粒物(PM2.5),64,63,51,46,34,77,,77,77,16,24,12,17,0.6,0.8
2026-01-31T1900,1608A,120.8382,40.7521,葫芦岛市,化工街,细颗粒物(PM2.5),85,90,51,63,33,64,,71,71,28,26,20,20,0.5,0.5
2026-01-31T1900,1609A,120.8339,40.7078,葫芦岛市,新区,细颗粒物(PM2.5),80,63,40,59,34,69,,75,75,26,24,17,15,0.7,0.7
2026-01-31T1900,1610A,120.8697,40.7679,葫芦岛市,东城区,细颗粒物(PM2.5),87,,42,64,36,65,,74,74,34,28,19,20,0.9,0.9
2026-01-31T1900,2483A,109.9297,27.5383,怀化市,河西地税局,颗粒物(PM10),51,52,40,35,31,51,,62,62,25,16,1,1,/,/
2026-01-31T1900,2484A,109.9783,27.5342,怀化市,市四医院,"颗粒物(PM10),细颗粒物(PM2.5)",52,54,41,36,35,57,,63,63,14,11,8,7,0.7,0.7
2026-01-31T1900,2485A,109.9971,27.5579,怀化市,监测楼,,50,50,36,35,32,56,,63,63,18,15,2,2,0.3,0.3
2026-01-31T1900,1210A,119.0566,33.5991,淮安市,钵池山,颗粒物(PM10),52,53,36,28,18,56,,72,71,23,17,7,7,0.5,0.3
2026-01-31T1900,1211A,119.0083,33.578,淮安市,北京南路,颗粒物(PM10),58,66,40,29,16,36,,65,62,37,18,7,7,0.7,0.5
2026-01-31T1900,1212A,118.9938,33.6083,淮安市,市监测站,,45,36,25,31,19,46,,71,68,35,22,8,8,0.6,0.6
2026-01-31T1900,1213A,119.135,33.5038,淮安市,楚州区监测站,,42,42,36,20,19,55,,67,66,19,18,8,9,0.5,0.5
2026-01-31T1900,3426A,118.8757,33.2897,淮安市,新华书店,颗粒物(PM10),51,52,36,28,18,54,,65,65,22,19,8,9,0.7,0.5
2026-01-31T1900,4092A,119.119691,33.550006,淮安市,枚皋中路89号,,42,42,38,27,22,48,,76,73,27,17,8,9,1.0,0.7
2026-01-31T1900,4206A,119.028838,33.631911,淮安市,承德北路606号,颗粒物(PM10),59,68,46,33,20,45,,69,68,32,18,6,6,0.6,0.5
2026-01-31T1900,2282A,116.8005,33.9749,淮北市,监测站,细颗粒物(PM2.5),78,80,76,57,46,61,,65,65,18,17,4,4,0.7,0.5
2026-01-31T1900,2283A,116.8094,33.9008,淮北市,烈山区政府,细颗粒物(PM2.5),84,102,57,62,43,56,,63,63,22,19,3,3,0.4,0.3
2026-01-31T1900,4017A,116.7926,33.9534,淮北市,市博物馆,细颗粒物(PM2.5),112,88,76,84,52,59,,63,63,15,13,3,3,0.7,0.7
2026-01-31T1900,4100A,116.8322,33.9884,淮北市,杜集区第一实验学校,细颗粒物(PM2.5),72,77,74,52,46,65,,64,64,14,17,3,3,0.6,0.4
2026-01-31T1900,2277A,116.8304,32.7726,淮南市,潘集区政府,颗粒物(PM10),72,93,59,46,31,58,,62,62,19,17,4,4,0.4,0.3
2026-01-31T1900,2279A,116.8569,32.5949,淮南市,谢家集区政府,颗粒物(PM10),66,82,45,40,31,52,,58,58,28,17,5,5,0.5,0.4
2026-01-31T1900,2280A,116.8279,32.6333,淮南市,八公山区政府,细颗粒物(PM2.5),65,62,48,47,36,63,,60,60,15,16,2,2,0.5,0.4
2026-01-31T1900,2894A,117.0561,32.6536,淮南市,经济技术开发区消防队,细颗粒物(PM2.5),82,82,58,60,37,50,,56,56,27,25,4,4,0.4,0.3
2026-01-31T1900,3329A,117.011,32.5891,淮南市,山南新区,细颗粒物(PM2.5),78,80,44,57,35,59,,60,60,25,21,6,6,0.4,0.3
2026-01-31T1900,4209A,117.003137,32.644456,淮南市,国庆中路369号,"颗粒物(PM10),细颗粒物(PM2.5)",72,93,52,52,34,45,,56,56,27,18,7,7,0.4,0.3
2026-01-31T1900,2446A,114.9021,30.474,黄冈市,职工中心,,48,41,29,33,22,36,,40,40,19,13,5,3,0.8,0.6
2026-01-31T1900,2929A,114.8858,30.4519,黄冈市,红卫路,,41,41,27,28,20,40,,51,50,20,12,5,4,0.5,0.5
2026-01-31T1900,3398A,114.9134,30.4446,黄冈市,市林业局,,44,44,26,30,21,35,,41,41,20,14,3,3,0.5,0.4
2026-01-31T1900,2672A,102.02,35.5101,黄南藏族自治州,同仁县隆务镇,细颗粒物(PM2.5),62,67,76,44,46,66,,65,65,5,7,8,8,0.6,0.7
2026-01-31T1900,2295A,118.2905,29.6965,黄山市,延安路89号,,19,14,7,13,5,46,,49,49,11,12,4,4,0.6,0.6
2026-01-31T1900,2297A,118.1369,30.2755,黄山市,黄山区政府5号楼,,22,22,12,15,3,40,,41,41,14,13,2,2,0.7,0.7
2026-01-31T1900,4210A,118.335445,29.720283,黄山市,滨江东路7-2号,,26,26,19,10,3,46,,54,52,17,15,/,/,/,/
2026-01-31T1900,2423A,115.0547,30.2332,黄石市,沈家营,,49,49,32,32,18,41,,40,40,9,8,6,6,0.8,0.7
2026-01-31T1900,2426A,114.899,30.211,黄石市,铁山,,13,6,30,3,19,25,,41,39,25,12,6,5,0.3,0.9
2026-01-31T1900,2427A,115.0259,30.2108,黄石市,团城山,细颗粒物(PM2.5),57,51,30,40,24,33,,35,35,16,12,6,6,0.7,0.7
2026-01-31T1900,3149A,115.0174,30.1591,黄石市,笔架山北路,细颗粒物(PM2.5),64,72,39,46,24,35,,40,40,20,16,7,7,0.7,0.7
2026-01-31T1900,4185A,115.078022,30.21118,黄石市,磁湖东路29号,细颗粒物(PM2.5),64,57,32,46,26,39,,39,37,9,7,6,6,0.9,0.8
2026-01-31T1900,1392A,114.4181,23.0528,惠州市,河南岸金山湖子站,,18,18,33,11,23,51,,54,54,15,18,3,3,0.9,0.8
2026-01-31T1900,1393A,114.4055,23.0824,惠州市,下埔横江三路子站,,18,17,34,12,25,53,,56,56,14,19,6,6,0.9,0.8
2026-01-31T1900,1395A,114.4645,22.7832,惠州市,惠阳区承修路船湖子站,,20,20,43,13,27,48,,48,48,17,25,6,6,0.8,0.8
2026-01-31T1900,1396A,114.5316,22.7423,惠州市,大亚湾管委会子站,,19,17,40,13,23,46,,44,44,12,22,5,5,0.7,0.7
2026-01-31T1900,3314A,114.4334,22.8134,惠州市,惠阳秋长,,19,19,35,12,23,60,,63,63,14,21,/,/,/,/
2026-01-31T1900,3452A,114.6521,22.7755,惠州市,大亚湾霞涌,,26,23,25,18,15,43,,44,44,14,18,/,/,/,/
2026-01-31T1900,4300A,114.4089,23.1147,惠州市,文华一路1号,,19,17,32,13,24,52,,54,54,18,21,/,/,/,/
2026-01-31T1900,2240A,130.9618,45.2926,鸡西市,环保局,,34,34,26,20,16,70,,69,69,10,8,6,6,0.3,0.3
2026-01-31T1900,2243A,130.9294,45.2959,鸡西市,第一中学,,36,36,23,17,17,74,,69,69,7,7,3,3,0.4,0.4
2026-01-31T1900,3707A,131.0069,45.2988,鸡西市,欧美日汽修厂,,30,,29,21,18,60,,65,65,16,8,7,7,0.5,0.4
2026-01-31T1900,2367A,114.9753,27.0803,吉安市,红声器材厂,,24,24,22,14,6,24,,21,21,24,22,7,6,0.5,0.5
2026-01-31T1900,2369A,114.9903,27.1313,吉安市,市环境监测站,,24,24,17,16,8,27,,24,24,17,17,6,7,/,/
2026-01-31T1900,2370A,115.009527,27.096792,吉安市,青原区法院,,27,27,19,15,9,21,,22,22,24,18,8,8,0.8,0.9
2026-01-31T1900,1772A,126.54,43.8622,吉林市,哈达湾,,,,60,,52,,,83,83,24,28,21,9,,1.1
2026-01-31T1900,1773A,126.5843,43.8358,吉林市,东局子,细颗粒物(PM2.5),85,82,58,63,46,64,,72,72,25,23,6,5,1.1,1.1
2026-01-31T1900,1774A,126.5051,43.8243,吉林市,电力学院,细颗粒物(PM2.5),90,86,79,67,66,73,,82,82,27,35,9,9,1.0,1.3
2026-01-31T1900,1775A,126.6133,43.8971,吉林市,江北,细颗粒物(PM2.5),89,83,69,66,54,59,,70,70,30,26,18,10,1.1,1.3
2026-01-31T1900,1776A,126.5549,43.8304,吉林市,江南公园,细颗粒物(PM2.5),88,80,65,65,56,69,,76,76,24,31,8,9,0.7,0.8
2026-01-31T1900,2868A,126.4737,43.953,吉林市,九站,细颗粒物(PM2.5),95,84,79,71,68,57,,75,73,43,48,6,11,1.0,1.1
2026-01-31T1900,1299A,116.9866,36.6118,济南市,科干所,细颗粒物(PM2.5),165,168,157,125,112,58,,42,42,23,42,5,9,0.9,1
2026-01-31T1900,1300A,116.9379,36.6652,济南市,农科所,细颗粒物(PM2.5),188,159,153,141,127,55,,43,43,27,46,7,9,1.0,1
2026-01-31T1900,1301A,117.1265,36.6736,济南市,开发区,细颗粒物(PM2.5),188,161,148,141,123,64,,42,34,31,53,2,4,1.1,1.2
2026-01-31T1900,1303A,117.0616,36.6865,济南市,省种子仓库,细颗粒物(PM2.5),186,175,158,140,121,41,,46,32,44,47,6,8,1.0,0.9
2026-01-31T1900,1304A,116.9495185,36.644937,济南市,机床二厂,细颗粒物(PM2.5),193,164,158,145,132,48,,43,43,33,49,7,10,0.7,0.8
2026-01-31T1900,1305A,117.0496,36.6629,济南市,市监测站,细颗粒物(PM2.5),192,171,152,144,126,56,,42,37,28,45,4,6,1.1,1.1
2026-01-31T1900,1306A,116.7674,36.5458,济南市,长清党校,细颗粒物(PM2.5),195,166,157,146,136,53,,53,53,36,38,2,6,1.1,1.1
2026-01-31T1900,1961A,117.5323,36.6865,济南市,东山小学,细颗粒物(PM2.5),175,171,167,132,124,25,,35,35,50,54,3,5,0.8,0.8
2026-01-31T1900,3059A,117.7181,36.205,济南市,泰兴公司,细颗粒物(PM2.5),156,149,168,119,119,60,,60,60,35,50,7,7,1.2,1.3
2026-01-31T1900,3064A,117.6861,36.2172,济南市,莱芜战役纪念馆,细颗粒物(PM2.5),158,149,163,120,120,60,,53,53,31,47,10,11,1.2,1.3
2026-01-31T1900,3494A,117.1673,36.9782,济南市,济阳区政府,细颗粒物(PM2.5),176,164,157,133,125,33,,60,58,49,41,3,6,1.1,1.1
2026-01-31T1900,3495A,117.1168,36.6299,济南市,锦屏中学,细颗粒物(PM2.5),186,161,135,140,114,71,,53,50,24,34,2,3,0.8,0.7
2026-01-31T1900,4108A,117.7107,36.2385,济南市,山财大街5号,细颗粒物(PM2.5),144,134,162,110,112,60,,50,50,42,67,9,11,1.2,1.4
2026-01-31T1900,4109A,116.9744,36.6889,济南市,无影山路12号,细颗粒物(PM2.5),190,171,157,143,127,46,,38,38,28,42,5,8,1.2,1.2
2026-01-31T1900,1653A,116.6229,35.4288,济宁市,火炬城,细颗粒物(PM2.5),147,132,140,112,117,38,,54,54,35,38,2,3,1.0,0.9
2026-01-31T1900,3500A,116.5808,35.3703,济宁市,北湖一中,细颗粒物(PM2.5),142,120,142,108,120,33,,55,55,42,41,3,6,1.0,1
2026-01-31T1900,3501A,116.8251,35.5592,济宁市,服务中心,细颗粒物(PM2.5),207,160,183,157,122,33,,50,50,30,35,2,5,0.8,0.9
2026-01-31T1900,3678A,116.5907,35.4054,济宁市,市第七中学,细颗粒物(PM2.5),158,129,140,120,129,41,,60,60,41,40,7,9,0.9,0.9
2026-01-31T1900,4111A,116.6075,35.4566,济宁市,任和路,细颗粒物(PM2.5),156,153,176,119,122,33,,53,53,43,45,4,6,1.1,1
2026-01-31T1900,4112A,116.5648,35.3921,济宁市,文体南路1号,细颗粒物(PM2.5),144,151,173,110,124,37,,55,55,42,47,2,5,0.9,1
2026-01-31T1900,2255A,130.2749,46.8028,佳木斯市,佳纺,,33,33,33,22,23,59,,68,65,15,10,9,5,0.5,0.4
2026-01-31T1900,2257A,130.3258,46.7975,佳木斯市,环保局,,43,,31,30,21,48,,70,66,27,13,12,7,0.3,0.2
2026-01-31T1900,4285A,130.363,46.806,佳木斯市,顺和街,,43,,28,30,23,50,,62,59,25,15,11,9,0.5,0.4
2026-01-31T1900,4286A,130.3952,46.8268,佳木斯市,长安路196号,,24,21,26,12,19,74,,71,71,6,12,4,5,0.5,0.6
2026-01-31T1900,1252A,120.7439,30.778,嘉兴市,清河小学,细颗粒物(PM2.5),52,49,21,36,16,34,,59,54,37,20,6,5,0.5,0.4
2026-01-31T1900,1253A,120.7261,30.7477,嘉兴市,嘉兴学院,,39,38,20,27,14,42,,61,58,34,20,4,4,0.6,0.4
2026-01-31T1900,2872A,120.7845,30.7524,嘉兴市,南湖区残联,,42,30,19,29,15,45,,64,62,35,21,4,4,0.4,0.3
2026-01-31T1900,3407A,120.6915,30.7741,嘉兴市,秀洲住建,,40,40,27,23,11,46,,64,60,30,21,6,6,0.6,0.4
2026-01-31T1900,1945A,98.291,39.7705,嘉峪关市,气象局,,,,177,,41,,,75,75,10,19,9,7,,0.6
2026-01-31T1900,2884A,98.2672,39.7978,嘉峪关市,酒钢宾馆,颗粒物(PM10),70,90,176,32,48,75,,67,67,12,18,17,15,0.8,0.7
2026-01-31T1900,3248A,98.2644,39.7723,嘉峪关市,雄关区,颗粒物(PM10),61,71,150,31,40,77,,73,73,11,19,10,12,0.5,0.5
2026-01-31T1900,1383A,113.1063,22.6058,江门市,北街,,41,41,36,26,25,46,,33,33,45,44,/,/,/,/
2026-01-31T1900,1384A,113.073,22.5835,江门市,西区,,50,50,29,25,24,40,,34,34,45,38,/,/,/,/
2026-01-31T1900,1385A,113.0218,22.531,江门市,圭峰西,,48,48,28,26,21,48,,39,39,36,27,/,/,/,/
2026-01-31T1900,1386A,113.0826,22.5947,江门市,东湖,,40,40,37,24,25,42,,36,36,44,36,9,8,0.8,0.7
2026-01-31T1900,3311A,113.1077,22.5647,江门市,江海富民,,35,33,44,24,26,46,,34,34,44,43,/,/,0.9,0.7
2026-01-31T1900,3449A,113.0496,22.4669,江门市,新会银湖,,38,,29,26,23,36,,30,30,33,32,7,6,0.8,0.7
2026-01-31T1900,3335A,113.3137,35.2643,焦作市,马村街道办,细颗粒物(PM2.5),156,146,144,119,123,49,,53,53,39,28,6,4,1.3,1.1
2026-01-31T1900,3336A,113.2464,35.2374,焦作市,焦作技师学院,细颗粒物(PM2.5),122,120,146,92,120,64,,61,61,32,28,6,7,1.2,1.4
2026-01-31T1900,3477A,113.1656,35.2536,焦作市,中站许衡医院,细颗粒物(PM2.5),144,135,138,110,119,43,,59,59,,29,,7,1.3,1.4
2026-01-31T1900,3981A,113.2456,35.18,焦作市,原李万街道办,细颗粒物(PM2.5),132,132,126,100,112,42,,60,60,46,27,5,4,1.0,0.9
2026-01-31T1900,4264A,113.234,35.219,焦作市,新安路1731号,细颗粒物(PM2.5),124,136,153,94,119,61,,65,65,35,24,6,6,1.2,1.2
2026-01-31T1900,4295A,113.2722,35.2121,焦作市,人民路3066号,细颗粒物(PM2.5),127,133,146,96,120,57,,59,59,36,27,6,5,1.1,1.1
2026-01-31T1900,1708A,116.3701,23.5345,揭阳市,新兴,,32,32,52,13,34,27,,38,26,20,30,7,9,0.8,0.9
2026-01-31T1900,1709A,116.3261,23.5442,揭阳市,西马,,28,28,52,11,31,28,,37,28,16,24,4,6,0.8,0.9
2026-01-31T1900,1710A,116.361,23.5627,揭阳市,东兴,,32,32,57,12,35,18,,31,21,26,31,8,10,/,/
2026-01-31T1900,1711A,116.4151,23.5295,揭阳市,渔湖,,46,46,51,15,35,25,,45,23,22,26,4,6,/,/
2026-01-31T1900,3320A,116.4028,23.5699,揭阳市,曲溪,,30,30,49,15,35,24,,41,26,25,27,4,8,0.8,0.8
2026-01-31T1900,1944A,102.1691,38.5166,金昌市,天庆家园,颗粒物(PM10),86,122,237,42,65,76,,76,76,12,14,8,10,0.8,0.9
2026-01-31T1900,4022A,102.1648,38.5369,金昌市,金川区人防中心,颗粒物(PM10),94,137,243,44,63,77,,79,79,14,11,10,13,0.6,0.6
2026-01-31T1900,4239A,102.193042,38.531887,金昌市,长春路96号,颗粒物(PM10),87,123,228,33,55,74,,71,71,13,12,10,15,0.6,0.7
2026-01-31T1900,1262A,119.6478,29.0773,金华市,十五中,,25,18,14,16,8,28,,58,40,49,26,4,3,0.5,0.4
2026-01-31T1900,1263A,119.6859,29.1032,金华市,监测站,,26,23,16,16,8,12,,40,25,52,31,3,2,0.3,0.3
2026-01-31T1900,3659A,119.656,29.1132,金华市,气象局,,29,16,10,12,7,9,,42,,57,28,3,3,0.5,0.6
2026-01-31T1900,1767A,121.1114,41.0879,锦州市,南山,细颗粒物(PM2.5),85,63,39,63,33,46,,79,76,50,39,18,25,0.9,0.8
2026-01-31T1900,1768A,121.060361,40.842794,锦州市,开发区,细颗粒物(PM2.5),72,54,49,52,34,38,,73,71,60,32,13,19,0.6,0.7
2026-01-31T1900,1769A,121.1836,41.1118,锦州市,百股街道,细颗粒物(PM2.5),84,74,45,62,39,54,,79,75,42,40,13,38,0.8,0.8
2026-01-31T1900,1770A,121.1176,41.1224,锦州市,天安街道,细颗粒物(PM2.5),77,80,41,56,33,62,,86,84,38,31,15,24,1.0,0.9
2026-01-31T1900,1771A,121.1303,41.1385,锦州市,北湖公园,细颗粒物(PM2.5),73,71,46,53,37,57,,78,76,35,33,16,20,0.8,0.8
2026-01-31T1900,2160A,112.8496,35.5051,晋城市,自来水公司,细颗粒物(PM2.5),120,139,113,91,81,64,,81,81,26,20,6,6,1.3,1.3
2026-01-31T1900,2162A,112.8509,35.4886,晋城市,市环保局,细颗粒物(PM2.5),132,126,111,100,96,56,,76,76,28,22,5,5,,0.6
2026-01-31T1900,3620A,112.8258,35.4804,晋城市,泽州一中,细颗粒物(PM2.5),120,118,103,91,82,70,,86,86,22,15,4,3,0.8,0.8
2026-01-31T1900,4078A,112.8246,35.5152,晋城市,前书院路,细颗粒物(PM2.5),103,134,112,77,71,65,,80,80,31,21,5,5,1.0,1
2026-01-31T1900,4079A,112.8864,35.4773,晋城市,祥云街666号,细颗粒物(PM2.5),152,133,117,116,100,60,,80,77,27,23,6,6,0.9,1
2026-01-31T1900,2174A,112.6992,37.6984,晋中市,榆次区政府,细颗粒物(PM2.5),128,129,160,97,136,55,,66,66,39,36,10,12,0.8,1.3
2026-01-31T1900,2865A,112.7195,37.683,晋中市,榆次三中,细颗粒物(PM2.5),112,136,162,84,131,58,,67,67,42,39,11,13,0.8,1.5
2026-01-31T1900,4080A,112.7375,37.7215,晋中市,广安街188号,,,117,183,72,136,,,70,70,32,46,10,10,0.5,1.1
2026-01-31T1900,4200A,112.7478,37.6954,晋中市,迎宾街26号,细颗粒物(PM2.5),107,110,156,80,138,72,,72,72,34,39,11,13,0.8,1.3
2026-01-31T1900,2439A,112.2012,31.048,荆门市,竹园小学,细颗粒物(PM2.5),90,79,77,67,65,56,,66,66,24,24,1,1,0.6,0.5
2026-01-31T1900,2440A,112.1968,30.9892,荆门市,掇刀,细颗粒物(PM2.5),93,73,71,69,67,72,,76,76,13,17,4,3,0.7,0.6
2026-01-31T1900,3012A,112.1849,31.0361,荆门市,西山林语,细颗粒物(PM2.5),75,71,71,55,57,58,,68,68,22,20,2,2,0.9,0.9
2026-01-31T1900,3547A,112.1631,31.0134,荆门市,龙泉中学南校,细颗粒物(PM2.5),68,73,71,49,54,68,,72,72,12,13,2,2,0.3,0.4
2026-01-31T1900,4124A,112.2213,31.0654,荆门市,新台西路6号,细颗粒物(PM2.5),92,95,82,68,74,60,,69,69,22,19,7,8,0.8,0.8
2026-01-31T1900,1844A,112.2493,30.3198,荆州市,市图书馆,细颗粒物(PM2.5),85,64,53,63,54,63,,78,78,31,19,6,6,0.9,0.7
2026-01-31T1900,1845A,112.2009,30.3543,荆州市,市委党校,细颗粒物(PM2.5),82,63,62,60,66,52,,66,66,31,23,6,6,1.0,0.9
2026-01-31T1900,3194A,112.2749,30.3124,荆州市,管委会,细颗粒物(PM2.5),73,68,53,53,60,51,,74,74,39,20,5,5,0.7,0.9
2026-01-31T1900,4268A,112.1722,30.3366,荆州市,学苑路85号,细颗粒物(PM2.5),83,,64,61,65,68,,75,75,13,17,10,8,0.7,0.7
2026-01-31T1900,2343A,117.2114,29.2931,景德镇市,老干部活动中心,,15,,6,10,3,19,,26,25,12,11,5,5,0.5,0.6
2026-01-31T1900,2344A,117.1893,29.2789,景德镇市,兽医站,,,22,19,3,8,,,28,27,18,16,4,9,0.3,0.4
2026-01-31T1900,2346A,117.246,29.2958,景德镇市,陶研所,,15,14,7,10,6,16,,29,25,20,14,3,3,0.7,0.7
2026-01-31T1900,4289A,117.154766,29.256967,景德镇市,青少年活动中心,,15,15,12,10,9,22,,27,24,17,17,6,7,/,/
2026-01-31T1900,1803A,115.9873,29.6816,九江市,十里,,46,33,18,32,18,62,,73,72,27,19,4,4,0.7,0.8
2026-01-31T1900,1804A,115.9583,29.7047,九江市,茅山头,,48,34,20,33,19,58,,60,60,16,16,4,4,0.5,0.5
2026-01-31T1900,1805A,115.9877,29.7295,九江市,西园,,46,36,20,32,20,58,,63,63,25,22,3,4,0.5,0.5
2026-01-31T1900,1808A,115.9112,29.6038,九江市,综合工业园,,,53,18,24,21,,,44,42,32,26,1,1,,0.9
2026-01-31T1900,3190A,116.0254,29.6995,九江市,外国语学校,,40,,16,28,15,42,,51,51,29,21,4,5,0.5,0.4
2026-01-31T1900,4253A,116.010205,29.659402,九江市,莲花大道8号,,41,41,18,26,14,46,,52,52,14,16,2,3,0.5,0.5
2026-01-31T1900,4240A,98.495752,39.733935,酒泉市,玉门东路5号,颗粒物(PM10),86,122,174,47,42,63,,73,72,20,14,11,10,0.6,0.5
2026-01-31T1900,4241A,98.5099,39.7506,酒泉市,北大街108号,,,,163,,38,68,,69,69,12,17,10,9,0.4,0.5
2026-01-31T1900,2698A,76.0071,39.466,喀什地区,巡警大队,颗粒物(PM10),164,277,311,91,109,75,,57,57,15,42,7,8,0.6,1.8
2026-01-31T1900,2699A,75.9756,39.4693,喀什地区,吾办,颗粒物(PM10),162,273,293,85,109,69,,58,58,22,45,26,17,0.6,1.6
2026-01-31T1900,4027A,75.9485,39.4688,喀什地区,老干局,颗粒物(PM10),168,285,317,66,99,75,,61,61,9,40,6,6,0.4,2
2026-01-31T1900,1824A,114.3389,34.778,开封市,肿瘤医院,细颗粒物(PM2.5),175,,123,132,120,51,,63,63,40,41,9,9,1.3,1.3
2026-01-31T1900,1826A,114.2884,34.7966,开封市,世纪星幼儿园,细颗粒物(PM2.5),172,,110,130,120,50,,57,57,43,45,5,5,1.1,1.1
2026-01-31T1900,3147A,114.3434,34.8101,开封市,龙亭公园,细颗粒物(PM2.5),178,,123,134,126,57,,65,65,40,38,7,7,1.2,1.3
2026-01-31T1900,3210A,114.3645,34.7955,开封市,汴京公园,细颗粒物(PM2.5),158,138,125,120,114,48,,60,60,43,38,4,4,1.0,1
2026-01-31T1900,3473A,114.2485,34.8306,开封市,技师学院,细颗粒物(PM2.5),162,,107,123,111,61,,59,59,32,40,6,6,1.2,1.1
2026-01-31T1900,3592A,114.4518,34.7503,开封市,祥符区生态环境局,细颗粒物(PM2.5),150,143,132,115,109,40,,62,62,40,38,3,5,1.3,1.3
2026-01-31T1900,1951A,84.886,45.6029,克拉玛依市,长征新村,细颗粒物(PM2.5),92,110,81,68,52,58,,50,50,27,36,6,5,0.9,0.9
2026-01-31T1900,1952A,84.8894,45.5827,克拉玛依市,南林小区,细颗粒物(PM2.5),99,114,97,74,62,57,,50,50,13,25,3,3,0.8,1
2026-01-31T1900,1954A,84.896,44.3328,克拉玛依市,独山子区,细颗粒物(PM2.5),210,254,294,160,189,80,,70,70,,68,3,2,,1.6
2026-01-31T1900,1955A,85.6888,46.0909,克拉玛依市,乌尔禾区商贸楼,细颗粒物(PM2.5),74,86,65,54,44,67,,58,58,20,30,7,7,0.9,0.8
2026-01-31T1900,3612A,85.1045,45.6895,克拉玛依市,白碱滩区新站,细颗粒物(PM2.5),120,105,81,91,54,,,44,41,26,29,8,8,1.0,0.8
2026-01-31T1900,2697A,76.1457,39.7143,克孜勒苏柯尔克孜自治州,市人民政府,颗粒物(PM10),154,257,272,86,76,85,,78,78,10,13,5,4,0.4,0.3
2026-01-31T1900,3665A,76.1654,39.7157,克孜勒苏柯尔克孜自治州,克州文化中心,颗粒物(PM10),156,262,274,70,71,82,,70,70,10,13,5,3,0.6,0.7
2026-01-31T1900,1450A,102.8203,24.889,昆明市,呈贡新区,,36,36,42,24,27,92,,87,87,10,20,3,5,0.3,0.3
2026-01-31T1900,1452A,102.7253,25.0904,昆明市,龙泉镇,,32,32,43,21,27,85,,92,92,11,24,3,3,0.4,0.5
2026-01-31T1900,1453A,102.7267,25.0378,昆明市,东风东路,,29,26,46,20,25,86,,94,94,14,22,5,7,0.3,0.3
2026-01-31T1900,1454A,102.6744,25.0671,昆明市,金鼎山,,38,38,47,13,25,84,,92,92,10,18,2,4,0.4,0.5
2026-01-31T1900,1455A,102.6643,25.0401,昆明市,碧鸡广场,,32,22,48,22,27,82,,92,92,14,27,3,4,0.4,0.5
2026-01-31T1900,3179A,102.7491,25.012,昆明市,官渡区博物馆,,40,40,50,19,26,94,,98,98,12,28,3,4,0.6,0.8
2026-01-31T1900,3375A,102.8016,24.8336,昆明市,青年创业园,,32,26,34,22,20,93,,97,96,9,15,6,6,0.5,0.4
2026-01-31T1900,3550A,102.8,24.9787,昆明市,昆明学院,,31,31,54,20,27,97,,26,,12,24,3,4,0.8,0.8
2026-01-31T1900,3551A,102.5969,24.6738,昆明市,晋宁区生态环境分局,,41,41,45,24,32,100,,98,98,7,21,2,3,0.4,0.5
2026-01-31T1900,3552A,102.6673,24.9861,昆明市,云天化总部,,29,,48,19,24,90,,96,96,8,28,5,6,0.3,0.5
2026-01-31T1900,1456A,91.132,29.6515,拉萨市,八廓街,,28,20,23,3,13,89,,85,85,8,19,7,7,0.4,0.6
2026-01-31T1900,1457A,91.1221,29.6748,拉萨市,市环保局,,27,9,26,3,13,84,,77,77,8,22,7,8,0.5,0.8
2026-01-31T1900,1458A,91.0874,29.6476,拉萨市,区监测站,,27,,15,6,8,86,,80,80,9,23,4,4,0.8,1
2026-01-31T1900,1459A,91.1774,29.6541,拉萨市,西藏大学,,27,8,17,3,8,86,,78,78,9,16,4,4,0.5,0.7
2026-01-31T1900,1460A,90.9798,29.6586,拉萨市,区辐射站,,28,6,27,3,15,89,,79,79,8,26,3,4,0.4,0.7
2026-01-31T1900,1461A,91.0831,29.6292,拉萨市,拉萨火车站,,26,6,14,3,9,81,,76,76,9,22,4,4,0.3,0.5
2026-01-31T1900,2520A,109.2203,23.7252,来宾市,来宾技工学校,,27,27,19,10,3,75,,69,69,14,10,12,10,0.9,0.8
2026-01-31T1900,3535A,109.1781,23.7293,来宾市,兴宾区政府,,25,23,18,12,6,79,,74,74,11,6,8,5,0.9,0.9
2026-01-31T1900,4002A,109.2312,23.7428,来宾市,中南小学,,40,40,20,13,5,72,,71,71,18,11,7,5,1.0,1
2026-01-31T1900,1479A,103.8309,36.0467,兰州市,铁路设计院,,,,,,,,,,,,,,,,
2026-01-31T1900,3241A,103.7439,36.0841,兰州市,百合公园,颗粒物(PM10),98,146,158,68,72,65,,50,50,20,42,7,9,0.5,1
2026-01-31T1900,3242A,103.9613,35.9985,兰州市,和平,颗粒物(PM10),104,157,153,68,58,49,,61,61,37,24,12,10,1.1,1.1
2026-01-31T1900,4236A,103.629272,36.093822,兰州市,庄浪东路808号,颗粒物(PM10),106,162,177,75,74,40,,51,51,55,44,12,11,1.0,1
2026-01-31T1900,4237A,103.7251,36.104344,兰州市,安宁西路88号,颗粒物(PM10),97,143,180,64,71,75,,54,54,16,44,7,9,0.5,0.8
2026-01-31T1900,4238A,103.846982,36.067567,兰州市,北滨河东路1号,颗粒物(PM10),97,143,166,63,73,60,,60,60,39,48,7,10,1.1,1.3
2026-01-31T1900,1067A,116.6712,39.5109,廊坊市,药材公司,颗粒物(PM10),62,73,80,41,59,46,,68,66,31,49,3,3,0.5,0.7
2026-01-31T1900,1068A,116.7215,39.5592,廊坊市,开发区,细颗粒物(PM2.5),52,46,80,36,59,48,,69,68,33,46,1,3,0.4,0.7
2026-01-31T1900,1070A,116.7246,39.5273,廊坊市,北华航天学院,细颗粒物(PM2.5),52,49,83,36,58,48,,71,69,37,46,3,3,0.5,0.7
2026-01-31T1900,2919A,116.7022,39.5454,廊坊市,河北工业大学,细颗粒物(PM2.5),64,48,85,46,58,52,,70,69,27,43,1,3,0.5,0.7
2026-01-31T1900,2536A,103.7629,29.5844,乐山市,牛耳桥,细颗粒物(PM2.5),92,96,49,68,34,53,,54,54,36,23,6,6,1.0,0.9
2026-01-31T1900,2537A,103.7501,29.6002,乐山市,市第三水厂,细颗粒物(PM2.5),103,113,43,77,35,62,,57,57,31,26,8,6,1.1,1.1
2026-01-31T1900,2538A,103.7571,29.5664,乐山市,市监测站,细颗粒物(PM2.5),80,86,48,59,32,60,,55,55,22,20,7,7,0.8,0.8
2026-01-31T1900,3361A,103.7313,29.563,乐山市,理工大学,细颗粒物(PM2.5),85,96,50,63,32,57,,54,54,20,18,2,2,0.9,0.8
2026-01-31T1900,2599A,100.2497,26.8802,丽江市,丽江古城,,31,31,24,19,14,84,,93,93,12,10,10,10,0.5,0.5
2026-01-31T1900,2600A,100.2203,26.8906,丽江市,市中心,,26,20,17,18,10,80,,91,91,15,12,6,6,0.4,0.4
2026-01-31T1900,1267A,119.9141,28.4513,丽水市,监测站大楼,,15,,7,3,6,21,,43,31,30,19,4,4,0.5,0.4
2026-01-31T1900,1268A,119.93,28.4589,丽水市,莲都小学,,18,6,10,3,4,23,,46,33,35,22,/,/,/,/
2026-01-31T1900,1269A,119.8794,28.4232,丽水市,余庄前,,14,6,10,3,4,18,,36,30,27,21,4,4,0.3,0.3
2026-01-31T1900,1173A,119.1759,34.5885,连云港市,市环境监测站,细颗粒物(PM2.5),132,127,52,100,38,59,,66,66,29,36,11,11,0.6,0.4
2026-01-31T1900,3000A,119.3577,34.6971,连云港市,德源药业,细颗粒物(PM2.5),138,144,64,105,39,45,,61,60,41,34,7,6,1.1,0.8
2026-01-31T1900,3007A,119.178,34.8442,连云港市,新城一中,细颗粒物(PM2.5),152,125,59,116,49,50,,74,74,48,45,10,10,1.1,0.8
2026-01-31T1900,3008A,119.3607,34.7519,连云港市,胡沟管理处,细颗粒物(PM2.5),134,136,59,102,40,63,,64,64,27,36,7,9,1.0,0.7
2026-01-31T1900,3009A,119.1478,34.5913,连云港市,矿山设计院,细颗粒物(PM2.5),110,114,58,83,35,68,,71,71,26,38,11,10,0.9,0.7
2026-01-31T1900,3434A,119.2414,34.6539,连云港市,工贸学校,细颗粒物(PM2.5),148,214,69,113,37,64,,72,68,34,22,12,11,0.8,0.4
2026-01-31T1900,3664A,119.4171,34.734,连云港市,连云街道,细颗粒物(PM2.5),140,151,59,107,36,44,,59,51,40,24,13,7,1.0,0.6
2026-01-31T1900,2573A,102.2629,27.8981,凉山彝族自治州,西昌市政府,,33,33,29,21,18,91,,89,89,11,10,6,6,0.5,0.7
2026-01-31T1900,2574A,102.2686,27.885,凉山彝族自治州,凉山州政府,,38,38,31,21,18,84,,80,80,15,13,8,7,0.6,0.8
2026-01-31T1900,4229A,102.2342,27.8859,凉山彝族自治州,凯乐南路30号,,33,33,38,13,14,89,,80,80,11,13,13,9,0.7,0.8
2026-01-31T1900,2212A,123.1978,41.2036,辽阳市,宏伟区,细颗粒物(PM2.5),58,59,68,41,43,44,,58,58,29,26,9,16,0.8,1
2026-01-31T1900,2213A,123.1684,41.2497,辽阳市,新华园,细颗粒物(PM2.5),166,,70,126,49,24,,61,56,76,41,12,19,1.8,1.2
2026-01-31T1900,2214A,123.2355,41.2663,辽阳市,滨河路,细颗粒物(PM2.5),70,73,58,51,38,37,,52,52,47,39,41,13,0.9,0.9
2026-01-31T1900,4083A,123.153,41.2874,辽阳市,铁西路150号,细颗粒物(PM2.5),72,64,61,52,45,47,,56,56,38,38,15,15,1.0,1.1
2026-01-31T1900,2227A,125.1359,42.8845,辽源市,环保局,细颗粒物(PM2.5),120,92,80,91,60,21,,70,67,80,46,8,6,1.5,1.3
2026-01-31T1900,4085A,125.0998,42.9134,辽源市,安宁大街333号,细颗粒物(PM2.5),80,83,80,59,63,42,,72,71,39,36,6,7,0.8,1
2026-01-31T1900,1625A,115.9789,36.4372,聊城市,区政府,细颗粒物(PM2.5),208,183,154,158,130,45,,45,37,34,34,10,11,1.3,1.1
2026-01-31T1900,3200A,115.9772,36.4986,聊城市,监控中心,细颗粒物(PM2.5),228,207,145,178,125,30,,47,44,48,36,8,8,1.6,1
2026-01-31T1900,3513A,116.0443,36.436,聊城市,九州社区,细颗粒物(PM2.5),209,171,156,159,134,60,,51,50,18,21,2,3,1.1,1
2026-01-31T1900,4018A,116.0564,36.4609,聊城市,星美广场,细颗粒物(PM2.5),213,192,161,163,140,81,,70,66,22,22,4,4,1.4,1.1
2026-01-31T1900,4113A,116.0091,36.4495,聊城市,利民路,细颗粒物(PM2.5),211,196,164,161,130,43,,46,34,35,32,8,8,1.4,1.1
2026-01-31T1900,2632A,94.3683,29.6373,林芝市,林芝监测站,,24,12,11,3,7,74,,83,83,7,2,5,5,0.4,0.4
2026-01-31T1900,2633A,94.3616,29.6634,林芝市,林芝人民医院,,24,24,19,16,8,68,,76,75,9,3,6,5,0.2,0.3
2026-01-31T1900,2603A,100.0779,23.8981,临沧市,市环保局,,40,40,33,17,23,87,,90,90,11,12,8,8,0.4,0.5
2026-01-31T1900,2604A,100.0894,23.882,临沧市,市气象局,,42,39,47,29,29,87,,84,84,6,11,9,9,0.4,0.5
2026-01-31T1900,1733A,111.5552,36.0791,临汾市,临钢医院,细颗粒物(PM2.5),163,184,157,124,128,56,,60,60,35,28,6,5,1.9,1.5
2026-01-31T1900,1734A,111.4984,36.0734,临汾市,技工学校,细颗粒物(PM2.5),172,153,152,130,152,64,,59,59,32,33,5,5,2.2,1.9
2026-01-31T1900,1736A,111.5017,36.0857,临汾市,市委,细颗粒物(PM2.5),159,177,180,121,140,65,,61,61,30,29,8,7,1.6,1.4
2026-01-31T1900,3018A,111.5048,36.1015,临汾市,唐尧大酒店,细颗粒物(PM2.5),145,156,154,111,128,68,,64,64,29,28,3,3,2.0,1.8
2026-01-31T1900,4244A,111.4879,36.053,临汾市,启星学校,细颗粒物(PM2.5),156,144,144,119,122,65,,62,62,37,35,5,5,1.5,1.3
2026-01-31T1900,4271A,103.2464,35.6123,临夏回族自治州,滨河东路1号,细颗粒物(PM2.5),113,167,171,85,88,51,,61,61,26,23,7,5,0.8,1.2
2026-01-31T1900,4310A,103.207136,35.599807,临夏回族自治州,新华街21号,颗粒物(PM10),120,190,177,79,86,54,,60,60,19,22,8,5,0.9,1.1
2026-01-31T1900,1618A,118.3429,35.0532,临沂市,沂河小区,细颗粒物(PM2.5),133,144,82,101,44,58,,64,64,28,28,11,15,0.9,0.7
2026-01-31T1900,1619A,118.2962,35.0568,临沂市,鲁南制药厂,细颗粒物(PM2.5),169,151,84,128,59,45,,58,58,45,42,13,15,0.7,0.5
2026-01-31T1900,1620A,118.2793,34.9976,临沂市,新光毛纺厂,细颗粒物(PM2.5),138,153,71,105,48,39,,61,60,51,35,17,15,0.9,0.6
2026-01-31T1900,1621A,118.3955,35.0889,临沂市,河东保险公司,细颗粒物(PM2.5),183,158,72,138,49,39,,66,63,48,32,11,12,0.9,0.7
2026-01-31T1900,3370A,118.3563,35.0215,临沂市,十里堡居委,细颗粒物(PM2.5),123,141,75,93,46,56,,67,67,38,36,11,14,0.8,0.6
2026-01-31T1900,3496A,118.359,35.1067,临沂市,南坊新区,细颗粒物(PM2.5),143,146,77,109,48,45,,62,62,47,34,10,13,1.0,0.7
2026-01-31T1900,3860A,118.3915,35.0297,临沂市,皇山花园小区,细颗粒物(PM2.5),153,151,73,117,52,45,,68,67,46,34,14,15,0.9,0.6
2026-01-31T1900,1870A,109.4854,24.3898,柳州市,柳东小学,,28,22,11,19,5,56,,61,61,8,7,8,8,0.8,0.9
2026-01-31T1900,1871A,109.4109,24.3304,柳州市,环保监测站,,38,38,13,8,4,55,,59,59,16,13,4,4,0.8,0.9
2026-01-31T1900,1872A,109.3886,24.3408,柳州市,河西水厂,,19,14,13,8,4,58,,62,62,11,13,6,8,1.0,1.4
2026-01-31T1900,1873A,109.4263,24.2951,柳州市,市四中,,,,10,,2,,,44,,,11,,5,,0.9
2026-01-31T1900,1874A,109.396,24.3658,柳州市,市九中,,24,24,12,7,4,52,,57,56,13,13,9,8,0.8,0.9
2026-01-31T1900,1875A,109.4912,24.3164,柳州市,古亭山,,36,36,13,8,4,58,,62,62,10,8,6,6,0.5,0.6
2026-01-31T1900,3402A,109.5422,24.3994,柳州市,市二中,,20,20,10,10,4,56,,64,64,12,12,9,8,0.8,0.9
2026-01-31T1900,2307A,116.5078,31.7369,六安市,监测大楼,,35,35,28,22,22,58,,53,50,19,18,2,2,0.3,0.3
2026-01-31T1900,2308A,116.4738,31.7642,六安市,皖西学院,,47,47,37,24,23,61,,57,57,17,17,4,3,0.3,0.3
2026-01-31T1900,2309A,116.4997,31.7904,六安市,朝阳厂,,40,40,29,24,23,59,,57,57,16,13,5,4,0.4,0.3
2026-01-31T1900,2310A,116.5566,31.7885,六安市,开发区,,39,39,22,22,24,56,,59,58,22,12,3,3,0.4,0.3
2026-01-31T1900,2577A,104.8293,26.592,六盘水市,黄土坡,,45,43,23,31,16,51,,51,51,21,18,9,10,1.0,1
2026-01-31T1900,2579A,104.8481,26.5898,六盘水市,民中,,49,37,23,34,14,52,,51,51,19,14,6,5,1.0,0.9
2026-01-31T1900,2580A,104.9541,26.5506,六盘水市,双水,,33,31,17,23,10,57,,51,51,14,11,4,4,0.8,0.9
2026-01-31T1900,4151A,104.8899,26.5685,六盘水市,钟山大道中段564号,,48,48,23,28,14,52,,49,49,12,12,6,6,1.1,1
2026-01-31T1900,2336A,117.022,25.1031,龙岩市,龙岩市监测站,,18,17,24,12,19,20,,28,28,19,24,9,12,0.7,0.8
2026-01-31T1900,2337A,117.0257,25.0662,龙岩市,闽西职业技术学院,,16,14,19,11,13,28,,36,35,15,17,4,4,0.7,0.6
2026-01-31T1900,2338A,117.0195,25.0306,龙岩市,龙岩学院,,15,14,17,10,13,26,,32,32,14,12,5,5,/,/
2026-01-31T1900,2885A,104.9344,33.3827,陇南市,滨江中学,颗粒物(PM10),97,143,118,58,57,52,,64,64,18,17,4,5,1.0,1
2026-01-31T1900,3247A,104.9551,33.3709,陇南市,市总工会,颗粒物(PM10),77,104,111,54,56,58,,63,63,12,15,2,2,0.9,0.9
2026-01-31T1900,2488A,111.9984,27.7346,娄底市,市监测站,细颗粒物(PM2.5),60,55,39,43,41,65,,66,66,15,16,6,8,0.7,0.8
2026-01-31T1900,2491A,111.9888,27.7035,娄底市,市政府,,50,50,35,34,31,54,,54,54,23,21,3,3,0.4,0.4
2026-01-31T1900,4127A,111.9812,27.7591,娄底市,涟钢职大,细颗粒物(PM2.5),62,60,38,44,27,64,,66,66,16,14,3,3,0.5,0.9
2026-01-31T1900,4128A,112.0303,27.7457,娄底市,娄底体校,细颗粒物(PM2.5),60,62,34,43,38,59,,58,58,8,11,2,2,0.4,0.5
2026-01-31T1900,1894A,105.4427,28.9063,泸州市,小市上码头,,34,34,20,22,13,79,,79,79,6,7,5,5,1.0,1
2026-01-31T1900,1895A,105.4241,28.8573,泸州市,兰田宪桥,,27,27,22,14,11,69,,70,70,16,13,7,7,0.8,0.8
2026-01-31T1900,1896A,105.4378,28.8833,泸州市,市环监站,,33,33,24,22,15,71,,70,70,15,14,9,9,0.7,0.7
2026-01-31T1900,4272A,105.3689,28.7783,泸州市,纳溪中医医院,,36,36,28,18,17,49,,50,50,13,14,8,8,0.9,0.9
2026-01-31T1900,2183A,111.1447,37.5212,吕梁市,环保局,细颗粒物(PM2.5),99,106,103,74,71,24,,42,42,56,44,5,4,0.7,0.8
2026-01-31T1900,2185A,111.1285,37.5338,吕梁市,自来水公司,细颗粒物(PM2.5),87,107,111,64,67,45,,37,37,27,35,4,3,0.8,0.9
2026-01-31T1900,2867A,111.1225,37.5093,吕梁市,马茂庄小学,,,112,107,72,64,14,,39,38,65,39,,6,0.7,0.7
2026-01-31T1900,1812A,112.3934,34.6517,洛阳市,市委党校,细颗粒物(PM2.5),118,123,104,89,100,55,,72,72,37,28,8,8,1.1,1.2
2026-01-31T1900,1815A,112.494,34.6883,洛阳市,河南林校,细颗粒物(PM2.5),130,128,110,99,100,40,,64,64,55,36,8,9,1.3,1.3
2026-01-31T1900,1816A,112.3843,34.623,洛阳市,开发区管委会,细颗粒物(PM2.5),134,136,123,102,104,61,,71,71,25,27,8,8,1.0,1.2
2026-01-31T1900,1817A,112.4263,34.6249,洛阳市,市委新办公区,细颗粒物(PM2.5),142,136,124,108,112,63,,71,71,36,32,8,8,0.9,1
2026-01-31T1900,3340A,112.6005,34.6323,洛阳市,伊滨,细颗粒物(PM2.5),142,138,127,108,100,50,,66,66,46,33,7,7,0.9,1.1
2026-01-31T1900,3341A,112.495,34.6338,洛阳市,中移产业园,细颗粒物(PM2.5),133,122,109,101,104,48,,63,63,45,32,9,8,1.2,1.2
2026-01-31T1900,3593A,112.5736,34.8993,洛阳市,吉利监测站,细颗粒物(PM2.5),120,105,99,91,96,57,,74,74,39,32,8,8,1.1,1.1
2026-01-31T1900,3635A,112.3678,34.6623,洛阳市,河科大西苑校区,细颗粒物(PM2.5),119,122,111,90,91,55,,72,72,40,37,7,8,1.0,1.1
2026-01-31T1900,3636A,112.4387,34.678,洛阳市,英才小学,细颗粒物(PM2.5),133,133,124,101,110,62,,73,73,40,41,10,9,1.1,1.2
2026-01-31T1900,4214A,112.460027,34.694929,洛阳市,春都路1号院,细颗粒物(PM2.5),137,152,138,104,114,34,,57,57,49,34,9,8,1.2,1.2
2026-01-31T1900,2399A,114.051,33.5721,漯河市,三五一五工厂,细颗粒物(PM2.5),119,104,116,90,90,51,,61,61,25,20,4,4,1.0,0.9
2026-01-31T1900,2400A,114.0055,33.5698,漯河市,漯河大学,细颗粒物(PM2.5),115,87,92,87,89,55,,63,63,22,20,5,5,0.9,0.9
2026-01-31T1900,2401A,114.0134,33.5826,漯河市,市水利局,细颗粒物(PM2.5),108,92,102,81,95,42,,54,53,22,21,4,4,0.9,1.2
2026-01-31T1900,2402A,114.0261,33.5697,漯河市,市广电局,细颗粒物(PM2.5),117,100,97,88,92,50,,60,60,19,16,5,5,0.7,0.6
2026-01-31T1900,3478A,113.9691,33.568,漯河市,市图书馆,细颗粒物(PM2.5),114,103,118,86,83,49,,59,59,27,20,7,5,0.7,0.7
2026-01-31T1900,4250A,114.089259,33.588274,漯河市,韶山路11号,细颗粒物(PM2.5),117,100,113,88,88,55,,59,59,23,23,5,5,0.7,0.7
2026-01-31T1900,1798A,118.5084,31.6838,马鞍山市,湖东路四小,颗粒物(PM10),60,69,28,39,24,28,,57,49,45,24,3,3,0.7,0.8
2026-01-31T1900,1799A,118.5019,31.6449,马鞍山市,开发区,颗粒物(PM10),60,69,30,38,23,16,,60,49,55,22,4,3,0.6,0.4
2026-01-31T1900,3633A,118.4914,31.681,马鞍山市,雨山,颗粒物(PM10),51,51,32,35,27,44,,59,50,33,22,4,3,0.5,0.6
2026-01-31T1900,4191A,118.527362,31.722269,马鞍山市,慈湖高新区,颗粒物(PM10),56,62,29,36,24,2,,62,51,77,25,4,4,1.1,0.5
2026-01-31T1900,1686A,111.0285,21.469,茂名市,电白南海,颗粒物(PM10),74,97,48,42,23,52,,61,60,28,16,14,11,1.2,0.9
2026-01-31T1900,1687A,110.9294,21.6533,茂名市,茂石化七小,颗粒物(PM10),57,63,46,31,24,67,,65,65,20,17,10,10,0.8,0.6
2026-01-31T1900,1688A,110.9108,21.6688,茂名市,健康路,颗粒物(PM10),53,56,42,29,24,76,,71,71,16,16,9,15,1.0,0.9
2026-01-31T1900,1689A,110.8592,21.6826,茂名市,高岭,,,75,61,34,28,65,,64,64,,14,11,15,/,/
2026-01-31T1900,3450A,111.0101,21.5165,茂名市,电白水东,颗粒物(PM10),69,88,41,42,24,58,,61,61,32,19,11,11,/,/
2026-01-31T1900,2540A,103.8414,30.0871,眉山市,气象局,颗粒物(PM10),75,100,100,46,53,69,,66,66,23,29,9,13,0.8,0.8
2026-01-31T1900,3148A,103.829,30.0563,眉山市,区人社局,颗粒物(PM10),65,80,94,46,56,63,,59,59,24,29,8,9,0.8,0.8
2026-01-31T1900,4148A,103.8836,30.0695,眉山市,眉职院,,,88,97,45,52,58,,62,62,24,24,,2,0.8,0.8
2026-01-31T1900,1690A,116.1248,24.3307,梅州市,梅江月梅,,14,10,22,6,18,43,,39,39,15,19,/,/,/,/
2026-01-31T1900,1691A,116.0798,24.2719,梅州市,梅县新城,,14,12,24,6,21,44,,37,37,16,19,7,7,0.6,0.6
2026-01-31T1900,3315A,116.1234,24.2994,梅州市,梅龙,,14,14,21,7,19,40,,37,37,14,16,8,7,0.6,0.6
2026-01-31T1900,1878A,104.7775,31.4741,绵阳市,富乐山,"颗粒物(PM10),细颗粒物(PM2.5)",68,86,87,49,53,41,,40,40,15,25,8,8,0.7,0.8
2026-01-31T1900,1880A,104.6698,31.4668,绵阳市,高新区自来水公司,细颗粒物(PM2.5),77,96,104,56,63,52,,33,33,24,36,9,9,0.8,0.9
2026-01-31T1900,3491A,104.6899,31.5324,绵阳市,西科大附属小学,细颗粒物(PM2.5),102,112,103,76,62,41,,33,33,31,34,9,9,0.7,0.9
2026-01-31T1900,3492A,104.5647,31.5343,绵阳市,安州区旅游局,细颗粒物(PM2.5),80,104,87,59,51,32,,30,30,30,24,10,11,1.1,1.1
2026-01-31T1900,4146A,104.7092,31.4972,绵阳市,科技城新区公安局,细颗粒物(PM2.5),79,103,98,58,55,49,,39,39,29,37,7,7,0.8,0.9
2026-01-31T1900,4226A,104.765114,31.453094,绵阳市,绵阳市气象局,细颗粒物(PM2.5),75,90,93,55,54,43,,38,38,27,30,9,8,0.7,0.8
2026-01-31T1900,1784A,129.61,44.561,牡丹江市,环保大楼,,29,29,40,15,26,70,,67,67,15,19,4,6,0.3,0.4
2026-01-31T1900,1787A,129.6364,44.6075,牡丹江市,机车工厂,颗粒物(PM10),53,55,44,32,28,74,,40,,11,27,6,7,0.4,0.5
2026-01-31T1900,1788A,129.6386,44.5462,牡丹江市,第一中学,,24,24,32,15,25,74,,71,71,11,20,4,5,0.3,0.4
2026-01-31T1900,4287A,129.5992,44.5964,牡丹江市,东晓云街98号,,34,34,48,19,32,76,,69,69,11,23,4,6,0.2,0.4
2026-01-31T1900,2531A,105.0703,29.61,内江市,市监测站,颗粒物(PM10),54,57,36,37,26,74,,83,83,19,24,5,4,1.0,0.9
2026-01-31T1900,2533A,105.0657,29.5807,内江市,内江二中,颗粒物(PM10),63,76,40,35,24,66,,73,73,19,24,6,7,0.7,0.6
2026-01-31T1900,2534A,105.0407,29.5828,内江市,内江日报社,颗粒物(PM10),53,56,36,32,23,65,,78,78,26,28,4,4,0.9,0.8
2026-01-31T1900,4147A,105.0433,29.6105,内江市,玉峰路西段888号,颗粒物(PM10),52,53,36,31,24,63,,73,73,23,27,3,3,0.8,0.8
2026-01-31T1900,2628A,92.0653,31.4846,那曲市,那曲监测站,,22,19,33,9,29,70,,69,69,11,20,6,7,1.2,1.2
2026-01-31T1900,4243A,92.0515,31.4787,那曲市,那曲市委宣传部,,25,7,21,3,16,80,,76,76,1,11,5,7,0.3,0.8
2026-01-31T1900,1291A,115.8887,28.7006,南昌市,省林业公司,,28,,7,19,12,43,,40,40,15,13,3,3,0.4,0.4
2026-01-31T1900,1292A,115.813,28.7443,南昌市,林科所,,24,24,9,16,9,30,,38,34,31,15,3,3,0.2,0.3
2026-01-31T1900,1294A,115.8518,28.687,南昌市,建工学校,,33,33,19,16,10,36,,36,36,27,20,7,6,0.7,0.8
2026-01-31T1900,1295A,115.8926,28.6425,南昌市,象湖,,32,26,14,22,14,42,,37,37,18,16,8,8,0.7,0.7
2026-01-31T1900,3046A,115.9084,28.6062,南昌市,机电学校,,29,29,20,19,13,45,,40,40,22,17,4,4,0.4,0.5
2026-01-31T1900,3690A,115.9718,28.7032,南昌市,外国语学校,,32,25,18,22,12,42,,37,37,23,21,10,10,0.7,0.7
2026-01-31T1900,4106A,115.7923,28.6873,南昌市,工业二路,,30,30,19,19,11,46,,46,44,20,13,3,3,0.6,0.6
2026-01-31T1900,4192A,115.931587,28.686774,南昌市,南京东路235号,,36,36,18,8,11,46,,40,40,15,17,5,5,0.3,0.3
2026-01-31T1900,1906A,106.0791,30.8022,南充市,南充市委,,45,45,39,30,29,47,,53,53,26,30,10,5,0.7,0.7
2026-01-31T1900,1907A,106.1038,30.8215,南充市,南充炼油厂,颗粒物(PM10),54,57,46,26,24,56,,59,59,17,24,10,7,0.8,0.8
2026-01-31T1900,4227A,106.108336,30.788436,南充市,梨树横街98号,颗粒物(PM10),53,55,44,34,28,61,,63,63,23,29,7,6,0.7,0.7
2026-01-31T1900,4304A,106.1172,30.843,南充市,清泉寺北路188号,,40,40,30,27,24,71,,72,72,11,16,8,8,0.5,0.6
2026-01-31T1900,4305A,106.067,30.7616,南充市,同庆路1号,,46,,36,32,24,54,,63,63,25,32,11,7,0.7,0.8
2026-01-31T1900,1151A,118.8033,32.1085,南京市,迈皋桥,,34,34,23,22,16,29,,66,63,33,24,6,5,0.4,0.3
2026-01-31T1900,1152A,118.7487,32.057,南京市,草场门,,35,34,24,24,18,57,,61,61,31,27,5,4,0.6,0.6
2026-01-31T1900,1154A,118.770105,32.004342,南京市,中华门,,48,48,24,26,14,59,,73,72,22,15,3,3,0.6,0.4
2026-01-31T1900,1155A,118.8059,32.0329,南京市,瑞金路,,34,34,22,20,14,68,,76,76,15,9,4,4,1.2,1.1
2026-01-31T1900,1156A,118.7946,32.0774,南京市,玄武湖,,38,38,26,14,15,55,,64,64,36,34,4,4,0.5,0.4
2026-01-31T1900,1157A,118.6415,32.0964,南京市,浦口,,34,34,34,9,17,63,,68,68,17,18,4,4,0.2,0.5
2026-01-31T1900,1158A,118.730129,32.000956,南京市,奥体中心,颗粒物(PM10),52,53,31,25,17,64,,72,72,25,17,4,4,0.6,0.4
2026-01-31T1900,1159A,118.9072,32.1047,南京市,仙林大学城,,34,34,26,8,10,65,,71,71,19,19,4,4,0.4,0.3
2026-01-31T1900,3422A,118.8443,31.919,南京市,江宁彩虹桥,,41,41,29,16,13,45,,70,68,49,21,4,3,0.6,0.5
2026-01-31T1900,3427A,118.8497,32.3599,南京市,六合雄州,,38,38,24,16,10,53,,76,74,38,16,9,8,0.5,0.5
2026-01-31T1900,4086A,118.7641,32.0841,南京市,新模范马路66号,,39,39,27,16,12,87,,90,90,22,5,4,4,0.8,0.7
2026-01-31T1900,4249A,118.8707617,31.34017673,南京市,汶溪路181号,,37,37,24,18,11,51,,63,63,28,19,4,4,0.6,0.6
2026-01-31T1900,4312A,119.019,31.6512,南京市,中山西路1号,,34,34,21,16,12,28,,65,62,32,18,4,4,0.7,0.6
2026-01-31T1900,1401A,108.3098,22.788,南宁市,二十一中,,38,35,24,26,18,63,,49,49,21,18,4,4,0.7,0.7
2026-01-31T1900,1402A,108.3135,22.8529,南宁市,北湖,,39,39,28,22,21,66,,55,55,17,19,2,4,0.7,0.9
2026-01-31T1900,1403A,108.3205,22.8222,南宁市,市监测站,,30,26,25,21,17,57,,49,49,26,21,6,7,0.9,0.9
2026-01-31T1900,1404A,108.3828,22.8038,南宁市,大自然花园,,36,36,28,12,14,71,,63,63,13,11,6,6,0.8,0.8
2026-01-31T1900,1406A,108.2397,22.8462,南宁市,区农职院,,44,44,27,21,19,63,,50,50,20,18,5,4,1.1,1.1
2026-01-31T1900,1407A,108.3285,22.7356,南宁市,英华嘉园,,40,37,30,28,19,65,,58,58,19,16,3,3,0.8,0.7
2026-01-31T1900,3401A,108.4829,22.762,南宁市,红星社区,,24,22,23,10,13,75,,66,66,14,14,6,5,0.9,0.9
2026-01-31T1900,4132A,108.2927,23.1477,南宁市,起凤路9号,,30,28,22,21,15,65,,59,59,20,13,2,2,0.6,0.6
2026-01-31T1900,4221A,108.2177,22.7774,南宁市,乐贤路16号,,35,35,34,24,18,59,,47,47,19,20,4,3,1.0,0.9
2026-01-31T1900,2332A,118.1682,26.6371,南平市,南平市监测站,,8,8,27,3,17,20,,28,26,14,19,3,4,0.6,0.6
2026-01-31T1900,2334A,118.1757,26.6276,南平市,南平七中,,,19,23,7,19,21,,28,26,14,18,11,4,,0.6
2026-01-31T1900,1168A,120.9056,31.9669,南通市,狼山街道,,30,30,15,16,5,68,,78,78,15,11,3,3,0.4,0.3
2026-01-31T1900,1170A,120.8635,32.0231,南通市,城中,,36,36,18,17,7,70,,80,80,17,12,4,4,0.3,0.5
2026-01-31T1900,1171A,120.9376,31.9301,南通市,星湖花园,,30,30,15,17,6,74,,81,81,18,14,4,3,0.4,0.4
2026-01-31T1900,1172A,120.8053,32.046,南通市,紫琅学院,颗粒物(PM10),55,60,16,23,5,60,,81,80,25,12,3,3,0.6,0.5
2026-01-31T1900,3291A,121.0631,32.0644,南通市,通州监测站,,29,29,11,18,7,81,,86,86,12,12,4,2,0.3,0.3
2026-01-31T1900,3432A,120.9348,31.9874,南通市,环境教育馆,,38,,17,26,7,62,,81,80,19,11,3,3,0.5,0.4
2026-01-31T1900,4091A,120.8692,31.9885,南通市,洪江路,,34,34,13,21,6,66,,76,75,17,12,3,3,0,0.4
2026-01-31T1900,2404A,112.5338,33.0086,南阳市,瓦房庄,细颗粒物(PM2.5),89,82,94,66,72,60,,50,50,16,19,3,3,0.9,0.9
2026-01-31T1900,2405A,112.5002,32.9734,南阳市,汉画馆,细颗粒物(PM2.5),117,,97,88,95,46,,50,50,29,25,6,6,0.9,0.9
2026-01-31T1900,2406A,112.5778,33.0144,南阳市,气象站,细颗粒物(PM2.5),87,96,110,64,77,58,,46,46,19,23,4,4,0.9,0.9
2026-01-31T1900,2407A,112.548,32.9687,南阳市,理工学院,细颗粒物(PM2.5),83,81,94,61,80,54,,46,46,21,24,4,4,0.8,0.8
2026-01-31T1900,4008A,112.5233,32.9921,南阳市,卧龙区政府,细颗粒物(PM2.5),102,90,106,76,81,52,,46,46,21,24,5,4,0.9,1
2026-01-31T1900,1234A,121.8352,29.9111,宁波市,区环保大楼,,36,36,13,20,6,35,,56,54,45,32,4,4,0.5,0.4
2026-01-31T1900,1235A,121.5595,29.8208,宁波市,万里学院,,33,,15,23,4,37,,70,64,40,17,2,2,0.7,0.6
2026-01-31T1900,1236A,121.713,29.9564,宁波市,龙赛医院,,26,26,12,10,3,43,,76,59,37,17,2,2,0.4,0.3
2026-01-31T1900,1240A,121.5855,29.8635,宁波市,太古小学,,35,35,11,20,4,47,,72,65,26,11,2,2,0.5,0.4
2026-01-31T1900,1241A,121.5239,29.8673,宁波市,市环境监测中心,,39,38,17,27,5,30,,63,56,35,14,6,5,0.5,0.3
2026-01-31T1900,2871A,121.6156,29.9015,宁波市,万里国际学校,,30,,15,21,6,38,,72,59,35,17,2,2,0.3,0.2
2026-01-31T1900,3710A,121.5593,29.8976,宁波市,白沙活动中心,细颗粒物(PM2.5),65,,14,47,9,38,,68,60,29,13,3,3,0.4,0.2
2026-01-31T1900,4095A,121.8962,29.7529,宁波市,中科路88号,,20,17,10,14,5,52,,68,60,28,20,4,4,0.3,0.3
2026-01-31T1900,2341A,119.5387,26.6611,宁德市,宁德市监测站,,19,18,27,3,12,58,,54,54,21,28,3,3,0.4,0.7
2026-01-31T1900,3209A,119.5231,26.6562,宁德市,宁德一中,,20,11,18,7,12,61,,58,58,14,18,2,2,0.3,0.4
2026-01-31T1900,2618A,98.859,25.8541,怒江傈僳族自治州,州监测站,颗粒物(PM10),56,61,44,33,31,73,,80,80,13,8,6,5,0.4,0.4
2026-01-31T1900,2619A,98.8607,25.8168,怒江傈僳族自治州,泸水一中,细颗粒物(PM2.5),52,45,37,36,31,55,,72,72,23,12,5,4,0.7,0.5
2026-01-31T1900,1888A,101.6891,26.571,攀枝花市,弄弄坪,,44,44,52,22,27,84,,94,94,28,31,18,26,1.5,1.2
2026-01-31T1900,1889A,101.577,26.5914,攀枝花市,河门口,,49,49,59,32,31,100,,98,98,20,27,27,23,1.3,1.1
2026-01-31T1900,1891A,101.7365,26.4986,攀枝花市,仁和,细颗粒物(PM2.5),62,70,44,44,29,78,,96,96,34,19,13,12,0.9,0.6
2026-01-31T1900,2835A,101.7222,26.567,攀枝花市,四十中小,,48,48,47,32,29,41,,86,85,73,38,15,18,1.4,1
2026-01-31T1900,1604A,122.0303,41.1489,盘锦市,开发区,细颗粒物(PM2.5),118,,76,89,59,31,,73,70,40,31,9,12,,1.9
2026-01-31T1900,1605A,122.0486,41.0883,盘锦市,兴隆台,细颗粒物(PM2.5),134,,70,102,58,28,,68,66,71,48,13,17,0.9,1
2026-01-31T1900,1606A,121.8297,41.1026,盘锦市,新生街道,颗粒物(PM10),66,82,59,44,44,46,,80,78,39,41,7,14,0.6,0.8
2026-01-31T1900,1832A,113.3257,33.7423,平顶山市,新华旅馆,细颗粒物(PM2.5),112,103,117,84,101,68,,72,72,20,27,5,6,0.8,0.8
2026-01-31T1900,1833A,113.2917,33.737,平顶山市,规划设计院,细颗粒物(PM2.5),115,123,120,87,91,,,69,69,20,20,5,6,1.1,0.9
2026-01-31T1900,1834A,113.182,33.7738,平顶山市,平顶山工学院,细颗粒物(PM2.5),122,104,99,92,92,71,,72,72,15,15,6,6,0.8,0.8
2026-01-31T1900,3594A,112.8736,33.9068,平顶山市,石龙区,细颗粒物(PM2.5),137,118,110,104,95,70,,77,76,16,20,5,5,1.0,1
2026-01-31T1900,4116A,113.284,33.7139,平顶山市,姚电大道23号,细颗粒物(PM2.5),147,126,122,112,100,48,,67,67,34,28,6,6,1.0,0.9
2026-01-31T1900,2656A,106.6633,35.5338,平凉市,聚贤嘉苑,颗粒物(PM10),111,171,187,48,44,52,,74,74,33,18,11,10,0.6,0.6
2026-01-31T1900,2657A,106.7021,35.5307,平凉市,博物馆,颗粒物(PM10),123,196,191,,63,42,,73,73,46,22,13,11,0.6,0.6
2026-01-31T1900,2348A,113.8384,27.6436,萍乡市,中医院,细颗粒物(PM2.5),64,72,42,46,27,26,,36,36,25,20,4,3,1.0,1
2026-01-31T1900,2350A,113.8677,27.6438,萍乡市,市环保局,细颗粒物(PM2.5),58,,18,41,23,26,,,,24,19,6,13,1.7,1
2026-01-31T1900,2351A,113.8663,27.6202,萍乡市,安源区政府,,,109,37,53,26,26,,30,30,,3,4,2,0.7,0.6
2026-01-31T1900,4107A,113.8686,27.6668,萍乡市,联洪村委会,细颗粒物(PM2.5),62,58,38,44,30,23,,27,26,25,24,1,2,0.7,1
2026-01-31T1900,2319A,119.0142,25.4324,莆田市,荔城区仓后路,,23,23,22,3,13,59,,59,59,16,23,/,/,/,/
2026-01-31T1900,2320A,119.0016,25.4553,莆田市,莆田市监测站,,19,17,19,3,12,58,,61,61,14,18,2,2,0.4,0.5
2026-01-31T1900,2321A,119.112,25.4561,莆田市,涵江区六中,,22,17,18,3,8,69,,67,67,9,18,/,/,0.4,0.5
2026-01-31T1900,2322A,119.1014,25.3215,莆田市,秀屿区政府,,23,18,16,3,9,73,,70,70,9,11,2,4,0.4,0.6
2026-01-31T1900,2392A,115.0312,35.7636,濮阳市,环保局,细颗粒物(PM2.5),185,,102,139,108,28,,40,35,42,23,5,5,1.6,1.2
2026-01-31T1900,3021A,115,35.7667,濮阳市,濮水河管理处,细颗粒物(PM2.5),180,161,129,136,113,14,,31,29,46,25,5,5,1.5,1.1
2026-01-31T1900,4118A,115.0552,35.7816,濮阳市,中原东路68号,细颗粒物(PM2.5),199,174,139,149,110,33,,41,36,40,28,4,4,1.4,1.3
2026-01-31T1900,4216A,115.0923632,35.76857718,濮阳市,任丘路479号,细颗粒物(PM2.5),201,169,131,151,112,33,,34,34,45,31,4,4,1.2,1
2026-01-31T1900,2601A,100.9801,22.7634,普洱市,市环保局,颗粒物(PM10),52,53,53,27,24,81,,88,88,11,10,4,4,0.5,0.4
2026-01-31T1900,2602A,100.9763,22.8237,普洱市,普洱第二中学,,,43,53,29,27,90,,93,93,,27,5,5,0.2,0.2
2026-01-31T1900,3345A,131.0413,45.7795,七台河市,中波台,,35,30,36,24,25,63,,70,69,15,10,10,9,0.5,0.5
2026-01-31T1900,3637A,131.0136,45.7688,七台河市,人民广场,,47,47,42,29,25,63,,67,67,22,19,8,8,0.6,0.5
2026-01-31T1900,3684A,130.8639,45.8144,七台河市,新建矿广场,,29,29,36,20,24,64,,64,64,10,13,3,6,0.5,0.5
2026-01-31T1900,1779A,123.9307,47.3641,齐齐哈尔市,安居小区,,48,48,34,17,15,40,,67,62,41,24,10,10,0.6,0.4
2026-01-31T1900,1780A,123.9497,47.3389,齐齐哈尔市,中心广场,,39,36,25,27,16,30,,65,58,48,18,6,7,0.8,0.5
2026-01-31T1900,1781A,123.9483,47.3229,齐齐哈尔市,农牧车辆厂,颗粒物(PM10),62,73,33,31,15,20,,64,57,52,17,7,6,0.7,0.4
2026-01-31T1900,1783A,123.9442,47.2994,齐齐哈尔市,市环境监测站,,29,29,30,12,11,53,,66,64,24,19,4,5,0.4,0.4
2026-01-31T1900,3662A,123.6341,47.2079,齐齐哈尔市,富区青少年活动中心,,40,40,37,14,13,63,,71,70,14,13,5,6,0.4,0.5
2026-01-31T1900,2591A,107.9765,26.5724,黔东南苗族侗族自治州,市环境监测站,,40,33,24,28,19,68,,67,67,9,8,4,4,0.7,0.7
2026-01-31T1900,2881A,107.8909,26.531,黔东南苗族侗族自治州,凯里学院,,49,,22,34,21,67,,67,67,17,13,3,3,0.7,0.7
2026-01-31T1900,2593A,107.5223,26.2371,黔南布依族苗族自治州,小围寨,,38,,15,26,14,62,,57,57,8,7,3,5,0.9,0.9
2026-01-31T1900,3538A,107.5175,26.2977,黔南布依族苗族自治州,沙坝,,30,29,20,21,15,72,,62,62,9,8,4,5,0.8,0.8
2026-01-31T1900,2589A,104.9022,25.0943,黔西南布依族苗族自治州,场坝街,,24,24,36,14,22,62,,51,51,11,14,4,4,1.0,0.9
2026-01-31T1900,2590A,104.8812,25.0994,黔西南布依族苗族自治州,坪东大道,,,12,30,12,22,58,,48,48,11,13,6,7,,1
2026-01-31T1900,2502A,108.6238,21.9667,钦州市,市环保站,,34,34,46,18,22,76,,69,69,11,16,3,3,0.8,0.8
2026-01-31T1900,2503A,108.655,21.9481,钦州市,沙埠小学,,36,36,48,12,17,78,,72,72,14,20,4,4,0.6,0.6
2026-01-31T1900,2504A,108.5989,21.7435,钦州市,港区一小,,50,50,58,14,20,65,,66,66,23,28,2,3,0.7,0.8
2026-01-31T1900,3404A,108.5959,21.9634,钦州市,北职校,,24,22,39,15,16,75,,69,69,10,17,2,2,0.8,0.9
2026-01-31T1900,1046A,119.5247,39.9346,秦皇岛市,建设大厦,颗粒物(PM10),56,62,81,35,58,74,,73,73,13,27,9,10,0.5,0.8
2026-01-31T1900,3132A,119.5979,39.938,秦皇岛市,文明里,,48,48,78,32,51,73,,73,73,18,28,12,14,0.3,0.6
2026-01-31T1900,4066A,119.7458,39.9952,秦皇岛市,南园路157号,细颗粒物(PM2.5),52,52,75,36,54,77,,78,78,19,36,11,10,0.4,0.8
2026-01-31T1900,4067A,119.5131,39.8858,秦皇岛市,翠岛大街1号,颗粒物(PM10),65,80,85,35,64,78,,70,70,17,44,11,12,0.4,0.9
2026-01-31T1900,4198A,119.509013,39.825305,秦皇岛市,北戴河轮滑馆,颗粒物(PM10),53,55,86,35,59,78,,72,72,19,35,8,11,0.4,0.8
2026-01-31T1900,1310A,120.404,36.0625,青岛市,市南区东部子站,细颗粒物(PM2.5),168,168,87,127,59,51,,57,57,34,32,8,10,1.0,0.7
2026-01-31T1900,1311A,120.362344,36.10282,青岛市,四方区子站,细颗粒物(PM2.5),163,180,90,124,65,42,,52,52,45,32,12,8,1.2,1
2026-01-31T1900,1312A,120.294373,36.054183,青岛市,市南区西部子站,细颗粒物(PM2.5),176,156,79,133,63,33,,52,52,52,38,3,5,1.1,0.7
2026-01-31T1900,1313A,120.4581,36.0858,青岛市,崂山区子站,细颗粒物(PM2.5),156,153,78,119,55,58,,65,65,36,31,10,11,0.9,0.7
2026-01-31T1900,1315A,120.3945,36.3083,青岛市,城阳区子站,细颗粒物(PM2.5),123,139,94,93,63,,,72,72,43,49,11,9,1.0,0.9
2026-01-31T1900,3642A,120.3454,36.0735,青岛市,市北区南部,细颗粒物(PM2.5),168,155,75,127,58,49,,54,54,32,30,2,3,1.0,0.7
2026-01-31T1900,3643A,120.3897,36.18,青岛市,李沧区北部,细颗粒物(PM2.5),133,127,81,101,64,57,,58,58,42,41,9,9,0.9,0.8
2026-01-31T1900,4110A,120.5222,36.4089,青岛市,盟旺路653号,细颗粒物(PM2.5),114,137,87,86,55,63,,81,81,41,38,6,5,1.0,0.9
2026-01-31T1900,4290A,120.196923,35.954556,青岛市,珠江路669号,细颗粒物(PM2.5),168,163,79,127,62,55,,59,57,31,26,4,5,0.9,0.6
2026-01-31T1900,4291A,120.0424,35.8656,青岛市,黄岛区人民政府广场,细颗粒物(PM2.5),185,215,96,139,62,24,,45,43,58,39,8,8,1.5,1.1
2026-01-31T1900,1703A,113.0218,23.7086,清远市,凤城街办,,23,23,27,12,15,48,,55,55,26,23,/,/,/,/
2026-01-31T1900,3025A,113.0479,23.6343,清远市,技师学院,,23,23,28,11,15,53,,51,51,23,26,5,4,0.8,0.8
2026-01-31T1900,3318A,112.9898,23.7403,清远市,清新太和,,21,20,27,12,15,65,,63,63,22,20,8,7,0.8,0.8
2026-01-31T1900,3455A,113.076,23.72,清远市,清城东城,,22,22,27,12,14,48,,54,54,18,15,/,/,/,/
2026-01-31T1900,2661A,107.6325,35.7357,庆阳市,庆阳五中,颗粒物(PM10),107,163,166,58,58,83,,88,88,18,16,6,7,0.5,0.6
2026-01-31T1900,2662A,107.6361,35.7067,庆阳市,市环保局,颗粒物(PM10),112,174,158,68,56,73,,87,86,25,15,6,6,0.8,0.6
2026-01-31T1900,1916A,103.7897,25.5036,曲靖市,环境监测站,,46,39,43,32,27,94,,82,82,12,15,4,6,0.5,0.8
2026-01-31T1900,1917A,103.8013,25.5357,曲靖市,烟厂办公区,,38,38,40,23,22,92,,75,75,10,14,4,5,0.5,0.7
2026-01-31T1900,3376A,103.7926,25.4651,曲靖市,南苑二区,,42,33,39,29,28,95,,76,76,5,10,3,4,0.4,0.7
2026-01-31T1900,3377A,103.7442,25.5259,曲靖市,曲靖师范学院,,40,35,40,28,28,99,,82,82,7,14,2,4,0.3,0.6
2026-01-31T1900,1264A,118.8694,28.94,衢州市,环保大楼,,19,18,11,13,8,36,,45,42,26,21,/,/,/,/
2026-01-31T1900,1266A,118.8622,28.9809,衢州市,衢州学院,,12,7,7,6,6,30,,45,42,23,19,4,4,0.3,0.3
2026-01-31T1900,4097A,118.9646,28.9832,衢州市,衢州三中,,14,9,8,8,5,34,,43,41,28,25,4,4,0.2,0.2
2026-01-31T1900,1611A,118.5818,24.9116,泉州市,涂山街,,,21,22,8,18,52,,56,56,18,20,3,3,,0.6
2026-01-31T1900,1612A,118.597,24.8976,泉州市,津头埔,,19,19,22,9,20,52,,53,53,17,20,2,2,0.4,0.5
2026-01-31T1900,1613A,118.6669,24.9422,泉州市,万安,,19,19,23,8,18,52,,54,54,16,18,3,3,0.6,0.7
2026-01-31T1900,4105A,118.6355,24.9148,泉州市,霞新路6号,,15,14,24,9,18,48,,51,50,23,24,/,/,0.4,0.5
2026-01-31T1900,2626A,88.8873,29.2723,日喀则市,日喀则监测站,,30,8,28,6,22,94,,87,87,2,16,8,9,0.3,0.6
2026-01-31T1900,3726A,88.8775,29.2425,日喀则市,林业技术推广中心,,28,8,15,3,8,89,,81,81,4,8,6,5,0.5,0.5
2026-01-31T1900,1659A,119.4711,35.421,日照市,监测站,细颗粒物(PM2.5),169,168,80,128,53,30,,47,45,54,46,10,10,1.2,0.9
2026-01-31T1900,1660A,119.523,35.4216,日照市,市政府广场,细颗粒物(PM2.5),162,163,72,123,48,42,,54,52,45,39,8,9,0.9,0.6
2026-01-31T1900,1661A,119.5511,35.4113,日照市,港务局,细颗粒物(PM2.5),152,161,80,116,46,45,,53,53,43,44,7,8,1.0,0.7
2026-01-31T1900,3507A,119.5326,35.4627,日照市,职业技术学院,细颗粒物(PM2.5),155,156,75,118,51,34,,51,50,50,40,8,9,1.3,1
2026-01-31T1900,3604A,119.3267,35.1043,日照市,岚山环保分局,细颗粒物(PM2.5),144,149,86,110,52,52,,64,64,40,37,9,14,1.1,1.1
2026-01-31T1900,1835A,111.1922,34.7752,三门峡市,市政府,细颗粒物(PM2.5),145,115,103,111,118,50,,56,56,31,33,7,8,0.9,1
2026-01-31T1900,1836A,111.1588,34.794,三门峡市,开发区,细颗粒物(PM2.5),134,143,128,102,110,52,,56,56,25,28,5,5,0.9,1
2026-01-31T1900,3039A,111.1911,34.7829,三门峡市,三门峡市第一小学,细颗粒物(PM2.5),142,127,110,108,110,50,,54,54,27,28,6,6,0.9,1
2026-01-31T1900,3598A,111.1031,34.719,三门峡市,富达温泉假日酒店,细颗粒物(PM2.5),150,143,134,115,115,32,,49,49,46,44,7,7,1.2,1.2
2026-01-31T1900,2324A,117.621,26.2626,三明市,三钢,,30,30,31,19,22,31,,36,36,16,20,7,9,0.9,1
2026-01-31T1900,2325A,117.6352,26.2714,三明市,三明二中,,20,20,25,13,19,29,,36,36,17,19,4,4,0.9,0.9
2026-01-31T1900,2326A,117.6028,26.2377,三明市,三元区政府,,14,13,33,6,20,42,,41,41,15,24,4,4,0.8,1
2026-01-31T1900,1877A,109.4962,18.2682,三亚市,河西子站,,35,35,31,9,13,94,,90,90,5,13,3,3,0.3,0.4
2026-01-31T1900,3540A,109.7348,18.3443,三亚市,君悦子站,,26,,26,12,8,83,,86,86,6,10,5,4,0.3,0.3
2026-01-31T1900,4135A,109.1714,18.3739,三亚市,城东小学站,,33,26,32,6,17,104,,103,103,9,11,/,/,/,/
2026-01-31T1900,2624A,91.7592,29.234,山南市,山南监测站,,30,22,19,3,9,96,,82,82,2,12,4,5,0.5,0.7
2026-01-31T1900,2625A,91.7701,29.2436,山南市,山南人民医院,,27,21,20,6,10,86,,75,75,6,10,7,7,0.5,0.6
2026-01-31T1900,1674A,116.6795,23.3666,汕头市,金平子站,,35,26,27,24,23,19,,71,44,29,19,5,12,1.1,0.9
2026-01-31T1900,1675A,116.7248,23.3632,汕头市,龙湖子站,,29,26,24,20,22,31,,59,50,22,15,9,9,/,/
2026-01-31T1900,1676A,116.7257,23.2774,汕头市,濠江子站,,26,19,23,18,18,45,,64,59,18,15,6,7,/,/
2026-01-31T1900,1677A,116.7518,23.4712,汕头市,澄海子站,,38,32,27,26,21,17,,54,38,24,16,6,6,1.0,0.8
2026-01-31T1900,1678A,116.6088,23.2539,汕头市,潮阳子站,,35,27,24,24,21,19,,63,50,26,13,6,6,0.8,0.6
2026-01-31T1900,3444A,116.4539,23.2684,汕头市,潮南峡山,,33,30,43,23,29,15,,53,32,25,18,5,6,0.9,0.7
2026-01-31T1900,3624A,116.4069,23.2533,汕头市,潮南子站,,42,39,54,29,32,13,,49,22,30,21,6,6,/,/
2026-01-31T1900,1693A,115.3653,22.7751,汕尾市,市环保局,,24,24,30,16,21,43,,46,41,11,13,6,7,0.8,0.8
2026-01-31T1900,1695A,115.362,22.7926,汕尾市,新城中学,,20,,26,14,20,45,,46,42,8,12,5,6,0.7,0.7
2026-01-31T1900,2645A,109.9155,33.8714,商洛市,监测站,,,105,74,60,47,,,72,72,18,19,5,4,0.9,0.8
2026-01-31T1900,3045A,109.9647,33.8486,商洛市,商州区中学,颗粒物(PM10),85,120,106,52,49,62,,73,73,20,19,5,4,0.9,0.8
2026-01-31T1900,2408A,115.6701,34.4283,商丘市,环境监测站,细颗粒物(PM2.5),84,62,122,62,111,65,,67,67,14,26,3,3,0.5,0.7
2026-01-31T1900,2409A,115.6458,34.4047,商丘市,粮食局,细颗粒物(PM2.5),69,50,120,50,107,57,,61,61,20,27,2,2,0.3,0.6
2026-01-31T1900,3171A,115.6069,34.4465,商丘市,梁园区档案局,细颗粒物(PM2.5),82,,109,60,101,58,,63,63,18,26,3,3,0.5,0.7
2026-01-31T1900,4119A,115.6701,34.3767,商丘市,北海东路185号,,,,135,,102,,,63,63,,27,,2,,0.8
2026-01-31T1900,4120A,115.6172,34.3704,商丘市,中山大街3号,细颗粒物(PM2.5),85,75,137,63,105,49,,61,61,29,29,4,5,0.5,0.7
2026-01-31T1900,1141A,121.401,31.2382,上海市,普陀,,25,25,16,13,13,65,,69,60,26,21,6,5,0.6,0.5
2026-01-31T1900,1142A,121.4774,31.2043,上海市,十五厂,,28,28,17,15,10,68,,70,66,25,21,6,6,0.4,0.3
2026-01-31T1900,1143A,121.4673,31.3011,上海市,虹口,,22,22,14,15,8,49,,64,61,33,15,7,6,0.1,0
2026-01-31T1900,1147A,121.4253,31.226,上海市,静安监测站,,25,25,14,16,10,62,,74,63,31,21,6,6,0.8,0.7
2026-01-31T1900,1148A,121.7029,31.1905,上海市,浦东川沙,,22,21,14,14,9,69,,70,70,18,14,7,7,0.5,0.5
2026-01-31T1900,1149A,121.5339,31.229,上海市,浦东新区监测站,,,20,13,12,12,,,64,64,28,11,6,5,0.5,0.5
2026-01-31T1900,1150A,121.5776,31.2038,上海市,浦东张江,,22,22,13,14,10,64,,73,68,26,16,6,6,0.3,0.3
2026-01-31T1900,3265A,121.4242,31.3303,上海市,宝山庙行,,23,23,15,13,12,53,,63,56,33,23,8,8,0.5,0.5
2026-01-31T1900,3266A,121.8789,31.4662,上海市,崇明上实东滩,,26,14,11,10,7,83,,86,86,4,3,4,4,0,0
2026-01-31T1900,3268A,121.316,31.2839,上海市,嘉定南翔,,25,25,16,17,13,52,,65,65,36,21,4,3,0.2,0.2
2026-01-31T1900,3269A,121.3357,30.7455,上海市,金山新城,,35,31,15,24,15,44,,58,53,32,24,7,7,0.6,0.6
2026-01-31T1900,3270A,121.4996,31.0741,上海市,闵行浦江,,25,25,13,14,10,58,,64,62,24,16,5,5,0.4,0.4
2026-01-31T1900,3271A,121.2886,31.1663,上海市,青浦徐泾,,26,26,15,18,13,46,,66,65,42,24,4,4,0.4,0.4
2026-01-31T1900,3272A,121.2193,31.0382,上海市,松江图书馆,,34,34,16,21,13,44,,62,52,32,24,5,5,0.4,0.4
2026-01-31T1900,3273A,121.3904,31.206,上海市,长宁仙霞,,,25,14,,9,,,70,61,24,13,7,6,,0
2026-01-31T1900,3274A,121.7964,31.0507,上海市,浦东惠南,,24,22,12,7,6,76,,73,73,15,19,3,4,0.5,0.5
2026-01-31T1900,3544A,121.4891,30.925,上海市,奉贤南桥新城,,40,39,14,28,12,41,,67,56,38,19,2,2,0.8,0.5
2026-01-31T1900,4183A,121.417401,31.16637,上海市,冠生园路458号,,25,25,14,16,12,59,,70,63,25,20,4,4,0.6,0.4
2026-01-31T1900,4205A,121.541914,31.268301,上海市,宁武路151号,,27,27,13,13,8,38,,66,62,52,24,5,5,0.4,0.3
2026-01-31T1900,2382A,117.9758,28.4439,上饶市,市监测站,,15,15,18,3,7,29,,35,34,21,21,8,14,/,/
2026-01-31T1900,2383A,117.9521,28.4637,上饶市,凤凰光学,,20,20,16,6,6,16,,24,22,29,24,11,15,0.9,0.9
2026-01-31T1900,3685A,117.897,28.4316,上饶市,双创科技城,,16,15,17,7,7,27,,37,35,31,28,11,14,1.1,1
2026-01-31T1900,4211A,118.190438,28.444845,上饶市,裕丰大道,,23,23,14,8,7,20,,26,23,33,29,18,17,0.8,0.8
2026-01-31T1900,1669A,113.5821,24.7733,韶关市,市八中,,23,23,18,14,9,23,,31,30,24,18,6,7,0.9,0.8
2026-01-31T1900,1671A,113.5916,24.7973,韶关市,园林处,,22,21,18,15,12,26,,31,31,20,17,5,5,/,/
2026-01-31T1900,1673A,113.5971,24.6864,韶关市,曲江监测站,,17,17,19,11,13,18,,35,28,26,18,5,7,0.8,0.8
2026-01-31T1900,2809A,113.6668,24.7756,韶关市,大学路288号,,20,20,17,13,11,24,,28,28,23,19,2,4,/,/
2026-01-31T1900,3622A,113.5556,24.8082,韶关市,碧湖山庄,,20,20,21,12,12,27,,32,32,19,18,6,6,0.8,0.8
2026-01-31T1900,2464A,111.5277,27.2442,邵阳市,市化工厂,细颗粒物(PM2.5),119,,32,90,36,52,,64,64,14,8,2,3,0.7,0.6
2026-01-31T1900,2466A,111.4327,27.2276,邵阳市,市环保局,细颗粒物(PM2.5),58,,22,41,28,58,,76,75,19,14,7,6,0.9,0.8
2026-01-31T1900,4218A,111.446,27.2472,邵阳市,北塔二期4-26地块,细颗粒物(PM2.5),78,,30,57,25,53,,69,69,19,9,10,6,1.0,0.9
2026-01-31T1900,4219A,111.4739,27.2282,邵阳市,邵水西路287号,细颗粒物(PM2.5),53,,25,37,27,57,,71,70,16,11,6,7,1.0,0.9
2026-01-31T1900,1247A,120.6053,29.9927,绍兴市,城东开发委,,30,26,19,21,15,45,,44,44,33,29,7,7,0.5,0.5
2026-01-31T1900,2921A,120.5482,30.0003,绍兴市,树下王站,,33,25,18,23,15,29,,40,39,39,27,5,6,0.3,0.2
2026-01-31T1900,3408A,120.5685,29.936,绍兴市,绍兴中专,,32,24,16,22,14,10,,40,37,45,16,7,7,0.5,0.4
2026-01-31T1900,3409A,120.4905,30.086,绍兴市,柯桥区政府,,33,33,25,23,13,41,,48,47,42,33,5,5,0.6,0.6
2026-01-31T1900,3410A,120.8751,30.0249,绍兴市,重华小学,,29,24,18,20,15,40,,48,47,42,30,6,6,0.4,0.3
