timepoint,stationcode,longitude,latitude,area,positionname,primarypollutant,aqi,pm10,pm10_24h,pm2_5,pm2_5_24h,o3,o3_24h,o3_8h,o3_8h_24h,no2,no2_24h,so2,so2_24h,co,co_24h
2026-01-31T0600,2568A,102.2503,31.8896,阿坝藏族羌族自治州,马师校,,15,13,37,6,13,47,,,,4,10,5,5,0.4,0.5
2026-01-31T0600,3994A,102.2174,31.9016,阿坝藏族羌族自治州,马尔康中学西区,,24,24,30,7,12,52,,,,6,8,7,7,0.6,0.7
2026-01-31T0600,2695A,80.2899,41.1684,阿克苏地区,电视台,颗粒物(PM10),126,202,230,77,73,40,,,,27,30,13,13,1.5,1.2
2026-01-31T0600,2696A,80.2592,41.1541,阿克苏地区,艺术中心,颗粒物(PM10),123,196,205,80,91,50,,,,28,35,4,6,0.8,0.7
2026-01-31T0600,2205A,105.699,38.8409,阿拉善盟,蒙二幼,颗粒物(PM10),106,161,182,35,42,65,,,,8,11,9,10,0.5,0.6
2026-01-31T0600,2206A,105.7198,38.8508,阿拉善盟,环保局新楼,颗粒物(PM10),106,162,169,40,44,64,,,,6,9,8,8,0.4,0.5
2026-01-31T0600,2708A,88.1266,47.8515,阿勒泰地区,市站,,24,8,24,3,12,74,,,,6,34,2,6,0.4,0.4
2026-01-31T0600,4166A,88.1198,47.7931,阿勒泰地区,阿勒泰路33号,,27,6,21,3,9,85,,,,2,26,8,12,0.2,0.4
2026-01-31T0600,2630A,80.1171,32.4999,阿里地区,阿里监测站,,21,6,3,3,3,67,,,,1,4,6,8,0.2,0.3
2026-01-31T0600,3192A,80.0906,32.5029,阿里地区,阿里藏医院,,16,12,10,3,7,51,,,,8,5,15,11,0.4,0.5
2026-01-31T0600,2644A,109.0088,32.6974,安康市,汉滨区检察院,,50,35,31,35,29,19,,,,14,17,8,7,1.2,1.2
2026-01-31T0600,4054A,109.0324,32.6913,安康市,市邮政管理局,细颗粒物(PM2.5),53,49,40,37,29,12,,,,23,25,9,5,1.0,1
2026-01-31T0600,2291A,117.0806,30.5181,安庆市,环科院,,32,25,15,22,10,48,,,,7,10,5,5,0.5,0.5
2026-01-31T0600,2292A,117.0331,30.5118,安庆市,马山宾馆,,40,30,15,28,12,49,,,,13,17,4,4,0.6,0.6
2026-01-31T0600,2294A,116.9897,30.6146,安庆市,安庆大学,,30,25,12,21,8,54,,,,10,13,3,3,0.5,0.5
2026-01-31T0600,3173A,117.0598,30.5351,安庆市,市人大,,30,28,15,21,9,49,,,,7,12,4,4,0.4,0.5
2026-01-31T0600,3123A,105.9408,26.2431,安顺市,凤凰山,,16,16,25,10,20,25,,,,10,13,8,13,0.8,0.8
2026-01-31T0600,3124A,105.9443,26.2567,安顺市,金钟山,,18,16,23,12,18,24,,,,10,11,9,12,0.8,0.8
2026-01-31T0600,3125A,105.8983,26.248,安顺市,娄家坡,,16,14,24,11,20,28,,,,10,12,18,18,0.9,0.9
2026-01-31T0600,1819A,114.3552,36.1017,安阳市,红庙街,细颗粒物(PM2.5),127,113,102,96,93,10,,,,36,24,1,2,1.0,0.9
2026-01-31T0600,1820A,114.361,36.0681,安阳市,银杏小区,细颗粒物(PM2.5),135,114,102,103,103,6,,,,30,22,2,4,0.9,0.9
2026-01-31T0600,3141A,114.3921,36.0879,安阳市,信访局,细颗粒物(PM2.5),134,108,107,102,102,8,,,,33,18,3,4,0.9,0.8
2026-01-31T0600,3669A,114.4706,36.0634,安阳市,左辅环卫站,细颗粒物(PM2.5),155,134,117,118,100,21,,,,29,23,3,4,0.7,0.7
2026-01-31T0600,4117A,114.2918,36.0769,安阳市,钢三路198号,细颗粒物(PM2.5),160,146,136,122,112,2,,,,31,23,2,3,1.0,0.8
2026-01-31T0600,1748A,123.0441,41.1201,鞍山市,深沟寺,,36,36,38,20,22,34,,,,40,25,6,9,0.6,0.7
2026-01-31T0600,1749A,123.011,41.0931,鞍山市,太阳城,,35,35,44,24,28,44,,,,22,24,19,17,1.0,1
2026-01-31T0600,1750A,123.0483,41.1445,鞍山市,太平,,47,47,54,20,27,29,,,,42,31,9,11,0.4,0.6
2026-01-31T0600,1751A,122.964,41.0968,鞍山市,铁西三道街,细颗粒物(PM2.5),90,107,74,67,42,15,,,,58,45,14,17,1.8,1.1
2026-01-31T0600,1753A,123.0219,41.0822,鞍山市,明达新区,,39,39,44,27,26,54,,,,22,27,12,15,1.1,1.1
2026-01-31T0600,4201A,122.944647,41.082639,鞍山市,兴盛南路290号,颗粒物(PM10),107,164,107,79,48,3,,,,66,52,,18,2.2,1.2
2026-01-31T0600,2195A,107.4206,40.7609,巴彦淖尔市,附二中,,34,34,51,21,24,10,,,,38,18,8,12,0.6,0.4
2026-01-31T0600,2196A,107.37,40.7372,巴彦淖尔市,市环保大楼,,28,28,56,8,24,48,,,,16,17,4,7,0.4,0.5
2026-01-31T0600,1956A,86.1476,41.7529,巴音郭楞蒙古自治州,孔雀公园,颗粒物(PM10),59,67,117,34,34,32,,,,16,22,7,7,0.6,0.6
2026-01-31T0600,1957A,86.1971,41.7166,巴音郭楞蒙古自治州,棉纺厂,颗粒物(PM10),81,111,177,36,37,23,,,,25,32,/,/,/,/
2026-01-31T0600,1958A,86.236,41.7172,巴音郭楞蒙古自治州,经济开发区,,49,49,150,14,19,35,,,,4,11,5,5,0.3,0.4
2026-01-31T0600,3181A,106.776805,31.852614,巴中市,市五中,,36,35,29,25,21,12,,,,16,20,5,5,1.1,1
2026-01-31T0600,3183A,106.7419,31.8654,巴中市,圣泉水务公司,,35,28,28,24,20,8,,,,23,27,3,3,1.1,1
2026-01-31T0600,3616A,106.7617,31.8343,巴中市,市中心医院,,40,34,27,28,21,2,,,,24,22,5,5,1.0,0.9
2026-01-31T0600,2235A,122.7909,45.608,白城市,洮北区环保局,,43,37,50,30,34,45,,,,20,26,12,8,0.8,0.6
2026-01-31T0600,2236A,122.8741,45.5725,白城市,市环保局,,44,44,44,19,23,47,,,,21,30,9,6,0.4,0.4
2026-01-31T0600,2231A,126.4219,41.9172,白山市,喜丰,颗粒物(PM10),59,68,60,38,35,23,,,,43,35,20,15,1.1,1
2026-01-31T0600,2232A,126.4082,41.9416,白山市,环保局,,44,44,44,29,34,25,,,,30,26,12,14,0.9,0.9
2026-01-31T0600,2647A,104.1727,36.5448,白银市,第三小学,颗粒物(PM10),147,243,220,72,71,33,,,,25,23,39,16,1.1,0.8
2026-01-31T0600,2648A,104.1467,36.5482,白银市,动力公司,颗粒物(PM10),140,230,215,60,65,28,,,,18,18,3,7,0.6,0.6
2026-01-31T0600,2512A,106.6102,23.901,百色市,市监测站,,16,16,35,10,27,34,,,,13,16,8,10,0.9,0.8
2026-01-31T0600,2513A,106.6524,23.8842,百色市,市中心血站,,17,9,45,3,28,52,,,,7,15,7,11,0.7,1
2026-01-31T0600,4133A,106.6273,23.8798,百色市,龙景西路,,15,13,57,3,28,46,,,,9,17,7,10,0.7,0.7
2026-01-31T0600,2270A,117.396,32.9389,蚌埠市,工人疗养院,颗粒物(PM10),53,55,48,36,29,36,,,,20,17,4,3,0.4,0.4
2026-01-31T0600,2271A,117.3606,32.9428,蚌埠市,百货大楼,颗粒物(PM10),51,51,46,31,30,44,,,,14,14,6,5,0.4,0.4
2026-01-31T0600,2273A,117.4183,32.8909,蚌埠市,蚌埠学院,,48,44,39,33,30,35,,,,22,25,2,3,0.4,0.4
2026-01-31T0600,2274A,117.3534,32.9672,蚌埠市,淮上区政府,细颗粒物(PM2.5),52,48,44,36,33,39,,,,19,16,4,4,0.3,0.4
2026-01-31T0600,2275A,117.3143,32.8977,蚌埠市,高新区,,50,41,41,35,33,43,,,,14,14,5,5,0.3,0.4
2026-01-31T0600,3715A,117.3091,32.9314,蚌埠市,蚌埠田家炳中学,,50,50,49,32,31,43,,,,16,15,3,3,0.3,0.3
2026-01-31T0600,1585A,109.8761,40.6533,包头市,市环境监测站,,18,18,43,3,16,55,,,,11,18,4,6,0.2,0.5
2026-01-31T0600,1587A,109.9992,40.5843,包头市,包头八中,,,21,53,14,22,28,,,,31,21,,7,0.7,0.6
2026-01-31T0600,1589A,109.8641,40.6288,包头市,惠龙物流,,20,15,52,8,17,64,,,,11,20,8,10,0.5,0.7
2026-01-31T0600,1590A,110.0376,40.5546,包头市,东河鸿龙湾,,,16,39,9,16,26,,,,48,28,,9,0.6,0.6
2026-01-31T0600,3283A,109.9154,40.5684,包头市,滨河大厦,,21,14,42,9,22,24,,,,42,28,6,9,0.6,0.7
2026-01-31T0600,3419A,109.9449,40.6259,包头市,包头市委党校,,,30,39,10,15,32,,,,30,21,,10,0.6,0.6
2026-01-31T0600,3683A,109.8332,40.6577,包头市,昆区政府,,19,7,40,7,17,60,,,,12,20,6,8,0.5,0.7
2026-01-31T0600,1931A,107.0802,34.3129,宝鸡市,竹园沟,细颗粒物(PM2.5),75,90,62,55,52,18,,,,25,22,6,6,0.8,0.9
2026-01-31T0600,1933A,107.1429,34.3549,宝鸡市,监测站,细颗粒物(PM2.5),113,95,78,85,81,8,,,,35,34,5,4,0.8,0.9
2026-01-31T0600,1934A,107.1172,34.3759,宝鸡市,技工学校,细颗粒物(PM2.5),107,98,74,80,65,10,,,,34,32,4,3,1.1,1.1
2026-01-31T0600,1936A,107.2025,34.3518,宝鸡市,文理学院,细颗粒物(PM2.5),109,96,76,82,73,6,,,,38,33,3,4,0.9,1
2026-01-31T0600,1937A,107.2396,34.3626,宝鸡市,三迪小学,细颗粒物(PM2.5),108,83,75,81,74,10,,,,40,38,3,3,1.0,1
2026-01-31T0600,4155A,107.1721,34.3558,宝鸡市,滨河北路,细颗粒物(PM2.5),103,103,82,77,66,8,,,,30,28,4,5,1.0,1.1
2026-01-31T0600,4308A,107.3898,34.3601,宝鸡市,陈仓区北开路21号,细颗粒物(PM2.5),117,106,87,88,82,1,,,,44,33,5,6,0.9,0.9
2026-01-31T0600,1051A,115.4803,38.8568,保定市,游泳馆,细颗粒物(PM2.5),159,126,108,121,98,6,,,,69,44,6,5,0.8,0.6
2026-01-31T0600,1052A,115.509,38.8895,保定市,华电二区,细颗粒物(PM2.5),125,109,98,95,87,12,,,,43,33,3,4,1.0,0.9
2026-01-31T0600,1053A,115.4588,38.9037,保定市,接待中心,细颗粒物(PM2.5),170,155,112,129,92,14,,,,39,26,1,2,0.6,0.5
2026-01-31T0600,1054A,115.4484,38.8344,保定市,地表水厂,细颗粒物(PM2.5),149,152,130,114,88,2,,,,66,44,6,6,0.7,0.6
2026-01-31T0600,3581A,115.3136,38.9511,保定市,满城区生态环境分局,细颗粒物(PM2.5),156,146,130,119,92,1,,,,51,34,3,3,1.2,0.8
2026-01-31T0600,3582A,115.4709,38.7628,保定市,清苑区第二中学,细颗粒物(PM2.5),149,155,139,114,93,4,,,,60,45,10,8,0.8,0.8
2026-01-31T0600,3583A,115.6231,39.0223,保定市,徐水物探局,细颗粒物(PM2.5),150,162,139,115,95,2,,,,60,41,4,4,1.0,0.7
2026-01-31T0600,4004A,115.4199,38.8665,保定市,双鹰农机,细颗粒物(PM2.5),169,175,139,128,92,13,,,,51,36,6,7,0.9,0.7
2026-01-31T0600,4034A,115.515,38.8589,保定市,植保所站,细颗粒物(PM2.5),150,128,114,115,90,5,,,,68,48,2,2,1.1,0.8
2026-01-31T0600,2594A,99.1589,25.1137,保山市,市环境监测站,,19,16,30,13,18,52,,,,6,9,5,4,0.3,0.3
2026-01-31T0600,2595A,99.1616,25.1381,保山市,市环保局,,26,26,32,10,18,62,,,,3,6,3,3,0.4,0.5
2026-01-31T0600,1867A,109.1435,21.4085,北海市,海滩公园,,44,44,44,26,21,23,,,,16,21,6,6,1.1,1
2026-01-31T0600,1868A,109.0983,21.466,北海市,新市环保局,,36,36,36,19,20,23,,,,17,17,6,7,1.0,0.7
2026-01-31T0600,1869A,109.1775,21.5232,北海市,北海工业园,,40,40,41,25,24,22,,,,14,15,6,7,0.9,0.6
2026-01-31T0600,3400A,109.1844,21.4396,北海市,龙潭自来水厂,细颗粒物(PM2.5),59,42,45,42,27,19,,,,15,14,11,5,1.1,0.8
2026-01-31T0600,1001A,116.3611,39.8786,北京市,万寿西宫,细颗粒物(PM2.5),140,145,125,107,92,1,,,,63,44,2,3,1.1,0.9
2026-01-31T0600,1003A,116.4174,39.9289,北京市,东四,细颗粒物(PM2.5),138,147,127,105,89,1,,,,54,48,5,5,1.1,0.9
2026-01-31T0600,1004A,116.4073,39.8858,北京市,天坛,细颗粒物(PM2.5),132,136,119,100,87,2,,,,57,48,2,2,1.1,1
2026-01-31T0600,1005A,116.4622,39.9364,北京市,农展馆,细颗粒物(PM2.5),139,138,121,106,90,2,,,,54,46,3,4,1.1,1
2026-01-31T0600,1006A,116.3399,39.9293,北京市,官园,细颗粒物(PM2.5),134,141,127,102,93,1,,,,62,54,3,3,1.0,0.9
2026-01-31T0600,1007A,116.2879,39.9613,北京市,海淀万柳,细颗粒物(PM2.5),135,133,131,103,92,1,,,,64,67,3,3,1.1,1
2026-01-31T0600,1008A,116.6635,40.1349,北京市,顺义新城,细颗粒物(PM2.5),143,154,149,109,99,9,,,,46,54,4,5,1.0,1.1
2026-01-31T0600,1009A,116.6275,40.327,北京市,怀柔镇,细颗粒物(PM2.5),129,126,118,98,86,14,,,,31,44,4,4,0.8,0.9
2026-01-31T0600,1010A,116.2295,40.217,北京市,昌平镇,,20,20,123,13,85,60,,,,13,55,2,3,0.4,1
2026-01-31T0600,1011A,116.3968,39.982,北京市,奥体中心,细颗粒物(PM2.5),138,142,135,105,94,1,,,,70,75,4,4,1.0,1.1
2026-01-31T0600,3418A,116.8336,40.4095,北京市,密云新城,细颗粒物(PM2.5),124,124,128,94,88,34,,,,22,38,3,4,0.8,0.9
2026-01-31T0600,3671A,116.0879,39.9725,北京市,门头沟三家店,细颗粒物(PM2.5),124,119,130,94,91,2,,,,37,48,3,3,0.9,1
2026-01-31T0600,3672A,116.1507,39.8246,北京市,丰台云岗,细颗粒物(PM2.5),145,145,138,111,97,5,,,,50,48,3,4,0.9,0.9
2026-01-31T0600,3674A,115.9578,39.7602,北京市,房山燕山,细颗粒物(PM2.5),147,136,145,112,112,12,,,,28,30,4,4,1.0,1
2026-01-31T0600,3675A,116.4669,39.7734,北京市,大兴旧宫,细颗粒物(PM2.5),122,150,117,92,73,2,,,,62,46,3,4,1.2,0.9
2026-01-31T0600,3694A,115.9859,40.4562,北京市,延庆石河营,细颗粒物(PM2.5),135,132,129,103,94,1,,,,35,50,3,3,1.9,1.1
2026-01-31T0600,3695A,116.6151,40.3052,北京市,怀柔新城,细颗粒物(PM2.5),149,134,122,114,95,14,,,,31,42,4,5,0.9,0.9
2026-01-31T0600,3696A,116.2542,39.8764,北京市,丰台小屯,细颗粒物(PM2.5),134,145,130,102,93,1,,,,62,52,3,4,1.2,0.9
2026-01-31T0600,3697A,116.8399,40.3843,北京市,密云镇,细颗粒物(PM2.5),134,119,124,102,90,30,,,,28,48,3,3,0.8,0.9
2026-01-31T0600,4057A,115.9423,40.4431,北京市,延庆百泉,细颗粒物(PM2.5),103,121,119,77,86,0,,,,43,48,2,2,1.1,0.9
2026-01-31T0600,4058A,116.6598,39.9164,北京市,通州新华,细颗粒物(PM2.5),137,156,142,104,91,1,,,,68,60,4,4,1.2,1
2026-01-31T0600,4182A,116.1942,39.9158,北京市,石景山八角,细颗粒物(PM2.5),130,142,137,99,90,4,,,,61,53,3,3,1.0,0.9
2026-01-31T0600,4194A,117.078628,40.151726,北京市,平谷新城,细颗粒物(PM2.5),145,141,140,111,104,24,,,,28,36,3,5,0.9,1.1
2026-01-31T0600,1761A,123.8274146,41.31234549,本溪市,大峪,颗粒物(PM10),65,79,93,44,58,8,,,,52,46,6,9,1.9,1.9
2026-01-31T0600,1763A,123.7169,41.3094,本溪市,彩屯,细颗粒物(PM2.5),102,121,93,76,60,1,,,,61,40,,9,2.9,1.7
2026-01-31T0600,1764A,123.7672166,41.28649327,本溪市,东明,,,,101,65,77,7,,,,59,53,6,10,1.7,2.1
2026-01-31T0600,1765A,123.799345,41.266614,本溪市,新立屯,,46,43,80,32,61,11,,,,56,53,10,12,2.2,3.8
2026-01-31T0600,1766A,123.829144,41.336777,本溪市,威宁,"颗粒物(PM10),细颗粒物(PM2.5)",68,86,101,49,62,2,,,,48,49,5,7,1.4,1.5
2026-01-31T0600,2587A,105.287,27.3133,毕节市,八中,,44,44,20,19,17,57,,,,9,11,8,8,0.8,0.9
2026-01-31T0600,2588A,105.3079,27.2987,毕节市,师专,,34,34,21,23,15,60,,,,9,13,7,7,0.7,0.8
2026-01-31T0600,4263A,105.3688,27.3598,毕节市,工业大道,,38,30,20,26,17,55,,,,9,12,9,9,/,/
2026-01-31T0600,1629A,117.9961,37.3604,滨州市,第二水厂,细颗粒物(PM2.5),172,153,64,130,39,16,,,,43,36,13,15,0.8,0.5
2026-01-31T0600,1630A,117.9789,37.3931,滨州市,北中新校,细颗粒物(PM2.5),168,156,71,127,39,9,,,,44,33,10,11,1.1,0.6
2026-01-31T0600,3514A,117.9379,37.3959,滨州市,中海酒店,细颗粒物(PM2.5),163,158,65,124,42,7,,,,55,33,12,13,1.3,0.8
2026-01-31T0600,3515A,117.9381509,37.35547456,滨州市,开发区一中,细颗粒物(PM2.5),213,175,82,163,44,5,,,,46,34,21,17,1.4,0.8
2026-01-31T0600,3516A,118.0914,37.6938,滨州市,金海六路,细颗粒物(PM2.5),120,120,60,91,33,5,,,,68,39,14,16,1.2,0.7
2026-01-31T0600,4028A,117.9955,37.3752,滨州市,滨州市西街道办事处,细颗粒物(PM2.5),149,144,63,114,44,21,,,,34,30,11,14,0.9,0.6
2026-01-31T0600,2311A,115.8071,33.8399,亳州市,污水处理厂,细颗粒物(PM2.5),133,126,95,101,72,3,,,,33,24,4,3,0.8,0.6
2026-01-31T0600,2312A,115.7789,33.8519,亳州市,三国揽胜宫,细颗粒物(PM2.5),156,153,114,119,83,4,,,,32,25,3,3,0.8,0.7
2026-01-31T0600,3332A,115.7631,33.803,亳州市,亳州学院,细颗粒物(PM2.5),140,138,104,107,81,4,,,,30,24,3,2,0.9,0.7
2026-01-31T0600,2693A,82.0482,44.8553,博尔塔拉蒙古自治州,市党校,细颗粒物(PM2.5),148,162,180,113,116,87,,,,19,27,3,5,1.0,1.1
2026-01-31T0600,2694A,82.0805,44.8966,博尔塔拉蒙古自治州,市环保局,细颗粒物(PM2.5),163,164,182,124,134,85,,,,20,29,6,8,1.2,1.2
2026-01-31T0600,1071A,116.8733,38.2922,沧州市,沧县城建局,细颗粒物(PM2.5),84,93,79,62,50,5,,,,75,50,6,7,0.8,0.5
2026-01-31T0600,1072A,116.8462,38.3189,沧州市,电视转播站,细颗粒物(PM2.5),100,86,69,75,56,2,,,,72,44,3,5,0.9,0.6
2026-01-31T0600,1073A,116.8588,38.3161,沧州市,市环保局,细颗粒物(PM2.5),83,67,75,61,48,9,,,,57,43,8,9,0.8,0.7
2026-01-31T0600,3324A,116.8011,38.294,沧州市,河北水利电力学院,细颗粒物(PM2.5),107,97,78,80,59,3,,,,78,45,6,7,0.9,0.6
2026-01-31T0600,2622A,97.1813,31.1289,昌都市,昌都监测站,,18,16,24,10,14,55,,,,3,8,2,3,0.2,0.4
2026-01-31T0600,3719A,97.1707,31.1428,昌都市,昌都会议中心,,15,10,14,6,8,47,,,,1,3,5,5,0.2,0.2
2026-01-31T0600,2692A,87.2722,44.0298,昌吉回族自治州,新区政务中心,细颗粒物(PM2.5),78,71,114,57,88,18,,,,54,34,8,8,1.1,1.3
2026-01-31T0600,3613A,87.3069,44.0093,昌吉回族自治州,亚心广场,细颗粒物(PM2.5),95,102,118,71,98,27,,,,34,23,8,7,1.0,1.2
2026-01-31T0600,4164A,87.2057,43.9289,昌吉回族自治州,财政所,细颗粒物(PM2.5),68,73,81,49,67,73,,,,10,26,4,5,0.8,1
2026-01-31T0600,1120A,125.2874,43.9024,长春市,客车厂,,,,73,69,56,22,,,,57,54,,11,0.9,0.8
2026-01-31T0600,1121A,125.2943,43.8508,长春市,邮电学院,细颗粒物(PM2.5),92,74,77,68,61,16,,,,52,47,7,11,1.1,0.9
2026-01-31T0600,1122A,125.3648,43.8745,长春市,劳动公园,细颗粒物(PM2.5),99,102,90,74,61,17,,,,51,43,3,8,1.7,1.3
2026-01-31T0600,1123A,125.3233,43.8781,长春市,园林处,细颗粒物(PM2.5),89,71,82,66,65,23,,,,47,46,14,17,1.1,0.9
2026-01-31T0600,1124A,125.4604,43.7904,长春市,净月潭,,,49,64,35,49,47,,,,16,25,,7,0.6,0.7
2026-01-31T0600,1126A,125.38,43.8422,长春市,经开区环卫处,细颗粒物(PM2.5),102,85,87,76,64,4,,,,65,54,4,6,1.2,1
2026-01-31T0600,1127A,125.234,43.7761,长春市,高新区管委会,细颗粒物(PM2.5),104,95,98,78,75,12,,,,56,52,6,8,1.3,1
2026-01-31T0600,1128A,125.1695,43.83,长春市,岱山公园,细颗粒物(PM2.5),59,47,88,42,66,23,,,,53,51,8,8,0.8,0.8
2026-01-31T0600,4281A,125.334645,43.916281,长春市,北亚泰大街1068号,细颗粒物(PM2.5),83,75,88,61,69,10,,,,60,53,9,10,1.0,0.8
2026-01-31T0600,1335A,113.082,28.2421,长沙市,经开区环保局,,43,38,28,30,22,32,,,,13,21,2,2,0.5,0.5
2026-01-31T0600,1336A,112.8873,28.2202,长沙市,高开区环保局,细颗粒物(PM2.5),59,48,38,42,33,32,,,,14,19,4,4,0.6,0.7
2026-01-31T0600,1337A,113.0785,28.2012,长沙市,马坡岭,细颗粒物(PM2.5),53,38,31,37,26,35,,,,13,20,3,4,0.7,0.8
2026-01-31T0600,1338A,112.9448,28.1894,长沙市,湖南师范大学,,48,46,37,33,25,34,,,,11,16,3,3,0.6,0.7
2026-01-31T0600,1339A,113.0177,28.1322,长沙市,雨花区环保局,,46,36,28,32,24,28,,,,13,19,6,6,0.6,0.7
2026-01-31T0600,1340A,112.9795,28.2593,长沙市,伍家岭,细颗粒物(PM2.5),59,46,38,42,31,31,,,,14,20,4,4,0.6,0.7
2026-01-31T0600,1341A,113.002,28.1944,长沙市,火车新站,细颗粒物(PM2.5),54,38,35,38,30,36,,,,11,18,3,2,0.8,0.9
2026-01-31T0600,1342A,112.9846,28.1177,长沙市,天心区环保局,,40,34,31,28,25,36,,,,14,21,5,4,0.5,0.6
2026-01-31T0600,1343A,112.8906,28.1307,长沙市,湖南中医药大学,细颗粒物(PM2.5),52,47,35,36,26,34,,,,14,19,5,5,0.7,0.8
2026-01-31T0600,1727A,113.1146,36.1547,长治市,清华站,细颗粒物(PM2.5),125,,83,95,97,47,,,,26,27,9,8,1.1,1.1
2026-01-31T0600,1730A,113.0887,36.2126,长治市,审计局,细颗粒物(PM2.5),149,,88,114,107,18,,,,41,34,14,9,1.1,0.9
2026-01-31T0600,1731A,113.0845,36.1856,长治市,长治八中,细颗粒物(PM2.5),135,,105,103,113,18,,,,35,22,9,9,1.1,1.1
2026-01-31T0600,2845A,113.1561,36.1912,长治市,德盛苑,细颗粒物(PM2.5),144,,82,110,102,52,,,,20,20,10,6,1.3,1.3
2026-01-31T0600,3568A,113.0603,36.0464,长治市,向阳小学,细颗粒物(PM2.5),122,101,119,92,106,50,,,,33,33,7,9,1.1,1.2
2026-01-31T0600,3569A,112.8788,36.315,长治市,屯留一中,细颗粒物(PM2.5),114,,99,86,109,57,,,,19,27,4,8,1.2,1.1
2026-01-31T0600,4189A,113.113092,36.199482,长治市,英华南巷50号,细颗粒物(PM2.5),142,,93,108,103,50,,,,20,22,12,7,1.1,1.2
2026-01-31T0600,4190A,113.23666,36.33435,长治市,学府街1号,细颗粒物(PM2.5),130,,88,99,92,55,,,,27,25,19,7,1.6,1.1
2026-01-31T0600,1854A,111.696,28.9725,常德市,市二中,细颗粒物(PM2.5),87,78,67,64,56,37,,,,16,19,5,4,0.9,0.9
2026-01-31T0600,3138A,111.7152,29.0288,常德市,武陵区永安,细颗粒物(PM2.5),94,85,73,70,60,42,,,,16,21,4,4,0.9,0.9
2026-01-31T0600,3139A,111.6891,28.9881,常德市,鼎城区玉霞,细颗粒物(PM2.5),80,76,62,59,55,42,,,,21,23,6,6,0.8,0.9
2026-01-31T0600,3140A,111.6651,29.0526,常德市,武陵区长庚,细颗粒物(PM2.5),87,79,68,64,59,32,,,,16,18,4,4,0.6,0.7
2026-01-31T0600,1196A,119.9524,31.7586,常州市,市监测站,,,18,28,8,15,,,,,15,22,5,5,0.2,0.3
2026-01-31T0600,1200A,119.9351,31.703,常州市,武进监测站,,22,22,29,10,14,60,,,,14,21,5,8,0,0.2
2026-01-31T0600,3002A,119.9701,31.813,常州市,行政中心,,24,24,25,8,14,62,,,,16,23,4,3,0.4,0.5
2026-01-31T0600,3003A,120.0434,31.7726,常州市,经开区,,22,22,32,8,13,62,,,,13,23,8,9,0.4,0.5
2026-01-31T0600,3010A,119.8919,31.7892,常州市,钟楼,,22,22,27,7,13,63,,,,10,17,6,6,0.5,0.6
2026-01-31T0600,3429A,119.8595,31.706,常州市,武进经发区,,25,19,23,17,19,53,,,,21,24,4,4,0.6,0.7
2026-01-31T0600,3430A,119.5812,31.7256,常州市,金坛城区,,26,23,26,18,21,62,,,,12,18,6,6,0.2,0.4
2026-01-31T0600,4089A,119.9551,31.863,常州市,崇义南街5-H号,,,16,19,6,14,64,,,,12,16,,4,0.4,0.5
2026-01-31T0600,2220A,120.4318,41.588,朝阳市,西梁,细颗粒物(PM2.5),89,109,77,66,48,3,,,,50,36,14,15,1.1,0.9
2026-01-31T0600,2221A,120.452,41.565,朝阳市,河畔小区,细颗粒物(PM2.5),73,77,57,53,37,7,,,,46,29,16,14,1.2,0.9
2026-01-31T0600,2222A,120.4176,41.5648,朝阳市,八里堡,细颗粒物(PM2.5),122,,66,92,47,4,,,,51,34,16,14,1.4,0.9
2026-01-31T0600,3026A,116.6179,23.6608,潮州市,市政府,细颗粒物(PM2.5),63,,51,45,32,40,,,,14,16,4,4,0.5,0.5
2026-01-31T0600,4036A,116.646,23.676,潮州市,金山,细颗粒物(PM2.5),60,,44,43,32,40,,,,19,18,4,4,0.6,0.6
2026-01-31T0600,2473A,113.0116,25.8228,郴州市,市职中,,,20,30,19,24,,,,,17,18,3,3,0.5,0.6
2026-01-31T0600,2475A,113.0381,25.8074,郴州市,市审计局,,30,25,32,21,22,7,,,,16,18,3,2,/,/
2026-01-31T0600,2476A,113.0348,25.7757,郴州市,市环保局,,28,27,39,19,23,10,,,,18,21,3,3,0.5,0.7
2026-01-31T0600,4252A,113.0138,25.8011,郴州市,好美居路49号,,36,,17,25,19,17,,,,11,12,4,4,/,/
2026-01-31T0600,1431A,103.9727,30.7242,成都市,金泉两河,细颗粒物(PM2.5),83,89,76,61,46,11,,,,36,34,2,2,0.6,0.5
2026-01-31T0600,1432A,104.1423,30.6765,成都市,十里店,颗粒物(PM10),83,115,94,11,45,17,,,,43,33,4,6,0.8,0.8
2026-01-31T0600,1433A,104.0594,30.5765,成都市,三瓦窑,细颗粒物(PM2.5),82,97,81,60,43,14,,,,48,30,3,3,0.8,0.7
2026-01-31T0600,1434A,104.1122,30.6306,成都市,沙河铺,细颗粒物(PM2.5),79,88,77,58,45,31,,,,30,32,3,4,0.7,0.7
2026-01-31T0600,2880A,104.0219,30.6561,成都市,大石西路,细颗粒物(PM2.5),85,91,77,63,44,17,,,,35,25,4,4,0.6,0.5
2026-01-31T0600,3136A,104.2724,30.559,成都市,龙泉驿区区政府,细颗粒物(PM2.5),70,70,67,51,42,33,,,,18,21,4,6,0.7,0.8
2026-01-31T0600,3357A,104.0028,30.6891,成都市,金博路,细颗粒物(PM2.5),75,69,70,55,41,8,,,,43,34,4,4,0.9,0.8
2026-01-31T0600,3359A,104.056,30.5228,成都市,华阳,,,97,70,54,39,25,,,,37,28,,2,0.7,0.7
2026-01-31T0600,3488A,104.387954,30.746684,成都市,青石路225号,细颗粒物(PM2.5),74,87,83,54,45,4,,,,51,32,5,4,0.7,0.8
2026-01-31T0600,3489A,104.0788,30.4054,成都市,科学城,颗粒物(PM10),73,96,75,47,43,8,,,,34,22,6,6,0.8,0.8
2026-01-31T0600,4011A,103.8505,30.6946,成都市,光华大道三段,细颗粒物(PM2.5),75,90,84,55,47,15,,,,32,33,3,3,0.8,0.8
2026-01-31T0600,4144A,104.3257,30.6406,成都市,八角井街185号,颗粒物(PM10),75,99,91,51,44,25,,,,22,26,3,3,0.8,0.8
2026-01-31T0600,4224A,104.2433276,30.53529463,成都市,鲸龙路1057号,颗粒物(PM10),71,91,76,50,41,32,,,,23,27,4,5,0.6,0.7
2026-01-31T0600,1062A,117.9531,40.908,承德市,铁路,,26,26,95,3,60,70,,,,5,39,2,5,0.2,1
2026-01-31T0600,1063A,117.9397,40.9763,承德市,中国银行,,23,16,75,11,52,72,,,,3,25,2,5,0.2,0.8
2026-01-31T0600,4073A,117.9462,40.95,承德市,杏林街1号,,28,28,91,8,59,74,,,,2,25,3,7,0.2,0.8
2026-01-31T0600,4274A,117.7994,40.9605,承德市,滨河大街98号,,39,27,72,27,59,54,,,,11,28,2,14,0.2,0.8
2026-01-31T0600,2314A,117.4698,30.6617,池州市,池州学院,,50,,17,35,17,34,,,,26,25,4,3,0.8,0.9
2026-01-31T0600,3237A,117.4918,30.6617,池州市,展览馆,细颗粒物(PM2.5),52,,20,36,19,31,,,,26,24,2,2,0.7,0.7
2026-01-31T0600,3333A,117.5626,30.695,池州市,第八中学,,33,25,23,23,20,38,,,,24,27,2,3,0.5,0.7
2026-01-31T0600,3334A,117.5037,30.6242,池州市,第十二中学,,28,20,16,19,15,42,,,,23,29,3,3,0.7,0.8
2026-01-31T0600,1744A,118.9229,42.2816,赤峰市,松山一中,,20,20,72,14,40,56,,,,14,45,4,19,0.6,1.3
2026-01-31T0600,1745A,118.9588,42.2733,赤峰市,哈达街,,36,27,68,25,41,39,,,,22,38,10,22,0.8,1.1
2026-01-31T0600,1746A,118.8792,42.2551,赤峰市,天义路,,28,20,54,19,35,39,,,,22,38,7,14,0.6,1
2026-01-31T0600,3058A,119.2656,42.0356,赤峰市,银河街,,33,33,104,17,55,58,,,,11,26,22,31,0.8,1.6
2026-01-31T0600,3286A,118.9359,42.3146,赤峰市,桥北物流园区,,25,24,64,17,46,48,,,,18,34,3,15,0.6,1
2026-01-31T0600,2521A,107.3473,22.4137,崇左市,市环保局江州分局,,31,31,59,13,39,21,,,,8,23,4,5,0.9,0.8
2026-01-31T0600,4256A,107.375,22.3736,崇左市,石景林东路7号,,30,,57,21,41,25,,,,14,28,7,8,0.8,0.7
2026-01-31T0600,3207A,118.31131,32.3033,滁州市,市政府原办公楼,,40,32,30,28,24,46,,,,15,15,3,3,0.2,0.3
2026-01-31T0600,3331A,118.3268,32.2633,滁州市,图书馆,,28,20,21,19,19,57,,,,10,12,6,6,0.3,0.4
2026-01-31T0600,4101A,118.3196,32.3335,滁州市,银山路666号,,46,,24,32,29,48,,,,9,10,3,3,0.3,0.3
2026-01-31T0600,4102A,118.3426,32.2979,滁州市,黄山路555号,,,34,36,31,27,53,,,,11,10,,4,0.2,0.2
2026-01-31T0600,2606A,101.5379,25.0492,楚雄彝族自治州,市经济开发区,,43,43,33,30,21,26,,,,19,18,3,3,0.6,0.7
2026-01-31T0600,4153A,101.5536,25.0343,楚雄彝族自治州,团结路562号,,42,33,30,29,19,15,,,,32,12,4,4,0.5,0.5
2026-01-31T0600,2549A,107.5087,31.2186,达州市,市环境监测站,,18,18,26,9,8,33,,,,19,25,7,11,0.6,0.7
2026-01-31T0600,2550A,107.4988,31.2132,达州市,凤凰小区,,22,22,20,7,8,25,,,,27,22,6,10,0.3,0.3
2026-01-31T0600,2551A,107.5081,31.1987,达州市,达县机关宾馆,,19,19,24,8,13,26,,,,26,34,5,7,0.9,0.9
2026-01-31T0600,2552A,107.4644,31.2124,达州市,市政中心,,31,31,30,8,8,31,,,,24,28,6,10,0.6,0.7
2026-01-31T0600,2614A,100.2168,25.5818,大理白族自治州,大理市环境监测站,,32,32,26,18,16,59,,,,6,8,6,6,0.5,0.4
2026-01-31T0600,2615A,100.1542,25.7055,大理白族自治州,大理古城,,18,12,21,10,15,55,,,,5,8,8,8,0.4,0.5
2026-01-31T0600,1109A,121.6119,38.974,大连市,甘井子,细颗粒物(PM2.5),82,78,47,60,31,28,,,,48,32,12,10,0.8,0.5
2026-01-31T0600,1110A,121.565,38.9509,大连市,周水子,细颗粒物(PM2.5),75,73,66,55,30,8,,,,61,35,9,11,0.9,0.6
2026-01-31T0600,1111A,121.5637,38.8849,大连市,星海三站,细颗粒物(PM2.5),74,,34,54,27,66,,,,16,21,6,10,0.8,0.7
2026-01-31T0600,1112A,121.6301,38.9117,大连市,青泥洼桥,细颗粒物(PM2.5),72,67,44,52,29,49,,,,26,25,11,12,0.7,0.6
2026-01-31T0600,1113A,121.6248,38.8643,大连市,傅家庄,,,,36,48,25,54,,,,20,18,,9,0.9,0.8
2026-01-31T0600,1114A,121.5117,38.8636,大连市,七贤岭,细颗粒物(PM2.5),60,53,37,43,25,69,,,,16,14,9,9,1.0,0.7
2026-01-31T0600,1116A,121.7507,39.1339,大连市,金州,细颗粒物(PM2.5),87,78,40,64,30,68,,,,21,19,10,12,0.6,0.5
2026-01-31T0600,1117A,121.7811,39.0495,大连市,开发区,细颗粒物(PM2.5),87,66,38,64,28,28,,,,44,23,9,7,1.0,0.7
2026-01-31T0600,1118A,121.9762,39.0631,大连市,双D港,细颗粒物(PM2.5),62,57,35,44,24,55,,,,21,16,11,10,0.7,0.6
2026-01-31T0600,4082A,121.2548,38.8188,大连市,旅顺,细颗粒物(PM2.5),72,61,53,52,39,36,,,,24,25,7,9,0.8,0.7
2026-01-31T0600,1789A,124.8085,46.0381,大庆市,大同区,颗粒物(PM10),51,52,51,27,30,25,,,,35,22,10,9,0.8,0.7
2026-01-31T0600,1790A,125.1166,46.5255,大庆市,龙凤区,细颗粒物(PM2.5),67,62,50,48,32,13,,,,50,34,9,10,1.0,0.7
2026-01-31T0600,1791A,124.8894,46.4007,大庆市,红岗区,,46,41,31,32,20,8,,,,51,23,5,5,0.8,0.7
2026-01-31T0600,1792A,125.1391,46.578,大庆市,萨尔图区,颗粒物(PM10),68,85,44,47,20,18,,,,48,30,10,9,0.7,0.6
2026-01-31T0600,1793A,124.9026,46.6217,大庆市,让胡路区,,46,36,33,32,22,53,,,,21,20,8,8,0.5,0.5
2026-01-31T0600,3481A,125.127,46.6277,大庆市,萨区政府监测点,细颗粒物(PM2.5),58,55,35,41,18,18,,,,48,26,8,10,1.1,0.7
2026-01-31T0600,1723A,113.2926,40.0759,大同市,云冈宾馆,,26,26,71,18,33,41,,,,20,31,13,13,0.6,1
2026-01-31T0600,1724A,113.3437,40.0921,大同市,大同大学,,29,29,72,9,34,48,,,,13,29,8,11,1.1,0.9
2026-01-31T0600,1725A,113.2637,40.129,大同市,安家小村,,20,20,75,6,36,52,,,,13,31,9,15,0.5,0.8
2026-01-31T0600,3282A,113.3399,40.0586,大同市,大同市卫生学校,,28,28,68,8,35,55,,,,16,32,6,9,0.7,0.7
2026-01-31T0600,3565A,113.1371,40.1122,大同市,云冈站,颗粒物(PM10),56,61,85,31,44,11,,,,30,37,12,13,0.8,0.8
2026-01-31T0600,3566A,113.1186,40.2556,大同市,图书馆,,29,27,64,20,36,19,,,,19,23,2,13,1.2,0.8
2026-01-31T0600,3567A,113.5931,40.0459,大同市,区一中,,32,,78,22,43,34,,,,14,22,5,20,0.5,0.5
2026-01-31T0600,4199A,113.2798248,40.09972476,大同市,魏都大道141号,,35,34,83,24,37,33,,,,27,34,10,12,0.7,1
2026-01-31T0600,2269A,124.1068,50.4091,大兴安岭地区,科技局,,20,16,16,9,6,62,,,,2,2,4,4,0.2,0.2
2026-01-31T0600,3663A,124.117,50.4279,大兴安岭地区,红旗社区,,22,,4,10,6,70,,,,2,2,4,4,0.3,0.3
2026-01-31T0600,1600A,124.33,40.0625,丹东市,江湾东路,细颗粒物(PM2.5),58,58,51,41,31,35,,,,29,22,20,11,1.2,1.1
2026-01-31T0600,1601A,124.4242,40.1513,丹东市,临江后街,,,46,44,41,33,18,,,,38,22,,11,1.1,0.8
2026-01-31T0600,1602A,124.3935,40.1461,丹东市,元宝山,,40,37,30,28,21,25,,,,33,16,17,12,1.1,0.7
2026-01-31T0600,1603A,124.3634,40.1093,丹东市,民主桥,,,34,43,23,26,41,,,,25,26,,10,1.1,0.8
2026-01-31T0600,3541A,109.5726195,19.51688767,儋州市,第一中学子站,,16,9,23,6,12,50,,,,4,4,4,4,0.6,0.6
2026-01-31T0600,3542A,109.5567,19.5187,儋州市,东坡学校子站,,20,14,23,3,10,63,,,,4,4,3,4,0.7,0.7
2026-01-31T0600,2616A,98.5611,24.4273,德宏傣族景颇族自治州,德宏州监测站,,48,48,54,30,38,8,,,,31,25,6,7,0.8,0.8
2026-01-31T0600,3677A,98.5887,24.4366,德宏傣族景颇族自治州,芒市人民政府综合楼,,30,29,55,21,28,20,,,,13,14,4,4,0.7,0.7
2026-01-31T0600,1901A,104.424,31.1209,德阳市,东山公园,细颗粒物(PM2.5),82,84,66,60,47,39,,,,11,20,1,1,0.7,0.7
2026-01-31T0600,1902A,104.3827,31.1318,德阳市,西小区,细颗粒物(PM2.5),114,115,83,86,56,1,,,,45,30,4,3,1.0,0.9
2026-01-31T0600,1904A,104.3553,31.1091,德阳市,耐火材料厂,细颗粒物(PM2.5),100,86,76,75,61,5,,,,38,29,2,1,0.9,0.9
2026-01-31T0600,4145A,104.4144,31.1495,德阳市,市林业局,细颗粒物(PM2.5),80,93,75,59,48,2,,,,43,35,4,4,0.9,0.9
2026-01-31T0600,1622A,116.3034,37.4675,德州市,儿童乐园,细颗粒物(PM2.5),180,166,112,136,79,34,,,,46,45,11,14,1.3,1.1
2026-01-31T0600,1624A,116.2992,37.4449,德州市,监理站,细颗粒物(PM2.5),178,173,109,134,66,16,,,,69,49,8,11,1.2,0.9
2026-01-31T0600,3066A,116.2722,37.438,德州市,九衢泉纯净水厂,细颗粒物(PM2.5),185,166,109,139,79,4,,,,70,54,6,9,1.7,1.4
2026-01-31T0600,3371A,116.3693,37.44,德州市,开发区人民医院,细颗粒物(PM2.5),186,168,114,140,74,16,,,,55,47,11,14,1.1,0.8
2026-01-31T0600,3511A,116.5687,37.3331,德州市,陵城艺术中心,细颗粒物(PM2.5),175,149,109,132,77,24,,,,43,41,11,15,1.0,0.8
2026-01-31T0600,4292A,116.352738,37.420875,德州市,新河东路,细颗粒物(PM2.5),214,,84,164,82,6,,,,65,48,11,15,1.2,0.9
2026-01-31T0600,2621A,99.7054,27.8319,迪庆藏族自治州,迪庆州站,,22,18,22,15,14,52,,,,5,8,5,5,0.4,0.5
2026-01-31T0600,3180A,99.7122,27.8129,迪庆藏族自治州,质量技术监督局,,17,17,21,9,15,51,,,,9,8,4,5,0.4,0.4
2026-01-31T0600,4257A,104.6092,35.5962,定西市,将台街,颗粒物(PM10),88,126,134,47,53,22,,,,20,20,8,9,0.7,0.6
2026-01-31T0600,4309A,104.6159,35.5701,定西市,正龙路62号,颗粒物(PM10),94,138,134,46,49,22,,,,10,13,2,5,0.8,0.7
2026-01-31T0600,1390A,113.7943,23.0132,东莞市,东城石井,,28,25,36,19,28,29,,,,25,44,5,6,0.6,0.7
2026-01-31T0600,1391A,113.7384,22.9659,东莞市,南城西平,,32,31,31,22,27,10,,,,40,49,6,6,0.7,0.8
2026-01-31T0600,3319A,113.7283,23.041,东莞市,万江金泰,颗粒物(PM10),53,56,36,31,25,19,,,,31,36,5,4,1.0,0.9
2026-01-31T0600,4129A,113.8666,23.1062,东莞市,裕兴路,,21,21,32,11,23,30,,,,12,28,4,5,0.8,0.9
2026-01-31T0600,4130A,114.0076,22.9739,东莞市,教育路1号,,,28,27,23,24,9,,,,,40,4,4,0.6,0.7
2026-01-31T0600,4131A,113.7981,22.8124,东莞市,长怡路1号,,34,34,44,16,26,28,,,,19,44,6,6,0.8,0.9
2026-01-31T0600,1666A,118.6612,37.4313,东营市,市环保局,细颗粒物(PM2.5),104,112,48,78,29,15,,,,53,28,16,11,1.0,0.6
2026-01-31T0600,3036A,118.6903,37.4337,东营市,开发区管委会,细颗粒物(PM2.5),105,121,53,79,29,15,,,,54,22,11,10,0.8,0.4
2026-01-31T0600,3365A,118.5721,37.5654,东营市,垦利区民丰路,细颗粒物(PM2.5),92,105,46,68,27,12,,,,55,27,15,11,1.0,0.6
2026-01-31T0600,3498A,118.5063,37.8606,东营市,河口城区,颗粒物(PM10),68,85,47,46,22,11,,,,75,27,6,6,0.9,0.7
2026-01-31T0600,3646A,118.4979,37.4623,东营市,胜利站,细颗粒物(PM2.5),103,105,46,77,30,4,,,,62,31,14,11,1.2,0.7
2026-01-31T0600,3734A,118.5753,37.4405,东营市,理想之城,细颗粒物(PM2.5),93,110,46,69,29,12,,,,60,32,11,7,0.9,0.5
2026-01-31T0600,1591A,110.0024,39.8127,鄂尔多斯市,综合楼,,24,24,62,3,22,41,,,,36,27,15,10,0.7,0.5
2026-01-31T0600,1592A,109.9485,39.8259,鄂尔多斯市,巴音孟克林场办事处,,24,24,58,12,23,46,,,,25,27,10,9,0.6,0.5
2026-01-31T0600,1593A,109.7734,39.5987,鄂尔多斯市,康泽苑,,22,22,51,12,27,52,,,,10,17,2,3,0.3,0.5
2026-01-31T0600,1594A,109.8121,39.5987,鄂尔多斯市,华泰汽车城,,36,36,52,13,23,38,,,,13,19,4,5,0.3,0.5
2026-01-31T0600,1595A,109.9734,39.7884,鄂尔多斯市,奥林花园,,34,34,58,12,19,9,,,,60,32,10,8,0.7,0.5
2026-01-31T0600,2436A,114.894,30.3989,鄂州市,市政府,,20,20,21,12,11,36,,,,18,22,4,4,0.5,0.5
2026-01-31T0600,2437A,114.8986,30.3714,鄂州市,赵家坝,,27,27,18,11,10,42,,,,7,8,7,7,0.5,0.6
2026-01-31T0600,3654A,114.8093,30.4091,鄂州市,精准医疗中心,,,26,19,16,10,,,,,8,9,11,7,0.6,0.5
2026-01-31T0600,2454A,109.4978,30.2979,恩施土家族苗族自治州,湖北民院,,40,32,26,28,22,15,,,,12,14,6,6,0.9,1
2026-01-31T0600,3549A,109.5061,30.3771,恩施土家族苗族自治州,龙凤新区,,35,35,24,24,20,6,,,,10,8,8,7,0.8,0.8
2026-01-31T0600,2499A,108.3411,21.6159,防城港市,沙万,,38,38,64,16,25,23,,,,13,28,6,6,1.1,1
2026-01-31T0600,2500A,108.3515,21.7733,防城港市,防城档案局,,30,30,51,13,30,28,,,,9,16,5,6,0.9,0.8
2026-01-31T0600,2501A,108.3506,21.6414,防城港市,大海花园,,30,30,47,19,32,27,,,,12,23,6,8,1.0,0.8
2026-01-31T0600,1371A,113.1293,23.0065,佛山市,湾梁,,31,31,40,16,20,31,,,,20,42,/,/,/,/
2026-01-31T0600,1372A,113.1082,23.0477,佛山市,华材职中,,,36,40,27,35,,,,,22,39,5,6,0.9,0.8
2026-01-31T0600,1373A,113.1439,23.045,佛山市,南海气象局,,29,28,37,20,29,30,,,,21,44,/,/,/,/
2026-01-31T0600,1374A,113.2879,22.8094,佛山市,顺德苏岗,,29,25,34,20,22,32,,,,25,49,/,/,1.1,1.1
2026-01-31T0600,1376A,112.8384,22.8678,佛山市,高明孔堂,,33,33,37,17,23,42,,,,16,31,/,/,/,/
2026-01-31T0600,1377A,112.8835,23.1584,佛山市,三水监测站,,27,27,57,14,32,41,,,,12,53,2,4,0.6,0.6
2026-01-31T0600,1378A,112.8668,23.185,佛山市,三水云东海,,21,21,56,14,31,38,,,,19,52,/,/,/,/
2026-01-31T0600,3625A,113.2568,22.7629,佛山市,容桂街道办,,28,22,30,19,23,28,,,,24,48,/,/,/,/
2026-01-31T0600,1282A,119.2681,26.0506,福州市,师大,,18,7,27,3,17,56,,,,13,31,4,2,0.4,0.5
2026-01-31T0600,1283A,119.2983,26.1028,福州市,五四北路,,17,7,24,7,16,53,,,,15,30,4,4,0.4,0.5
2026-01-31T0600,1284A,119.2648,26.0769,福州市,杨桥西路,,,7,24,3,18,56,,,,14,32,,4,/,/
2026-01-31T0600,3048A,119.5799,26.0937,福州市,九龙,,22,6,16,3,10,70,,,,9,17,4,4,0.4,0.5
2026-01-31T0600,3526A,119.5188,25.9666,福州市,吴航,,21,6,26,3,17,65,,,,11,33,4,4,0.4,0.6
2026-01-31T0600,4104A,119.3106,26.0648,福州市,路通桥巷6号,,18,12,34,7,21,55,,,,10,31,/,/,/,/
2026-01-31T0600,1755A,123.7974,41.8494,抚顺市,望花区,细颗粒物(PM2.5),117,129,136,88,95,6,,,,63,66,16,11,1.5,1.6
2026-01-31T0600,1756A,123.9161,41.8827,抚顺市,顺城区,细颗粒物(PM2.5),102,106,103,76,84,10,,,,65,62,13,15,1.3,1.5
2026-01-31T0600,1757A,124.0437,41.8615,抚顺市,东洲区,细颗粒物(PM2.5),84,98,99,62,70,19,,,,44,47,14,10,1.2,1.3
2026-01-31T0600,1758A,123.9246,41.8638,抚顺市,新抚区,细颗粒物(PM2.5),117,130,128,88,94,6,,,,65,61,,11,1.3,1.5
2026-01-31T0600,1759A,124.0972,41.8961,抚顺市,大伙房水库,细颗粒物(PM2.5),84,81,72,62,54,16,,,,46,39,9,13,1.2,1.1
2026-01-31T0600,1760A,123.708,41.8386,抚顺市,沈抚新城,细颗粒物(PM2.5),95,101,125,71,92,11,,,,64,68,12,11,1.4,1.5
2026-01-31T0600,2377A,116.3544,27.9833,抚州市,市站,,17,10,25,3,14,52,,,,12,16,7,6,1.3,1.1
2026-01-31T0600,2378A,116.3562,27.9631,抚州市,血防站,,21,21,30,8,14,48,,,,18,23,4,4,1.2,1.3
2026-01-31T0600,2379A,116.3561,28.0007,抚州市,采茶剧团,,20,20,26,7,15,45,,,,8,11,4,4,0.8,0.9
2026-01-31T0600,2380A,116.3854,27.9648,抚州市,医学分院,,25,25,32,3,14,47,,,,12,16,4,4,1.0,1
2026-01-31T0600,2207A,121.6095,41.9978,阜新市,工业园区,颗粒物(PM10),102,154,91,51,41,16,,,,34,33,20,17,0.8,0.7
2026-01-31T0600,2208A,121.6567,42.0188,阜新市,长青街,细颗粒物(PM2.5),75,69,58,55,44,1,,,,49,35,9,14,1.0,0.8
2026-01-31T0600,2209A,121.6672,42.07,阜新市,农业园区,细颗粒物(PM2.5),64,61,59,46,33,38,,,,23,23,14,15,0.8,0.6
2026-01-31T0600,2211A,121.6343,42.0455,阜新市,玉龙新城,细颗粒物(PM2.5),58,64,79,41,43,3,,,,48,42,6,12,1.1,0.9
2026-01-31T0600,2301A,115.8276,32.8929,阜阳市,市监测站,细颗粒物(PM2.5),63,71,54,45,34,31,,,,27,18,4,4,0.4,0.5
2026-01-31T0600,2303A,115.8551,32.8606,阜阳市,开发区,细颗粒物(PM2.5),59,47,38,42,36,38,,,,19,16,4,4,0.3,0.3
2026-01-31T0600,2875A,115.783962,32.889217,阜阳市,阜阳职业技术学院,细颗粒物(PM2.5),67,54,45,48,34,52,,,,11,13,6,6,0.3,0.4
2026-01-31T0600,3468A,115.79,32.8614,阜阳市,市规划展馆,细颗粒物(PM2.5),58,56,47,41,34,48,,,,13,13,5,4,0.4,0.5
2026-01-31T0600,3469A,115.835101,32.918568,阜阳市,枣园社区,细颗粒物(PM2.5),70,66,54,51,39,23,,,,28,19,5,4,0.4,0.4
2026-01-31T0600,2669A,102.9097,34.9841,甘南藏族自治州,州政府,颗粒物(PM10),63,75,72,40,48,34,,,,18,14,4,5,0.5,0.6
2026-01-31T0600,3380A,102.8915,34.9618,甘南藏族自治州,甘肃民族师范学院,颗粒物(PM10),69,88,81,34,34,23,,,,28,20,6,9,1.0,0.5
2026-01-31T0600,2570A,101.96,30.048,甘孜藏族自治州,水桥子,,19,14,14,13,6,39,,,,15,14,6,7,0,0.6
2026-01-31T0600,3065A,101.9534,29.9976,甘孜藏族自治州,州环保局,,15,10,13,10,6,42,,,,13,15,5,6,0.7,0.9
2026-01-31T0600,2363A,114.9368,25.8663,赣州市,地委,,18,18,77,3,36,17,,,,18,21,7,7,0.9,0.9
2026-01-31T0600,2364A,114.946,25.8483,赣州市,气象台,,27,27,58,6,41,12,,,,20,25,8,7,0.7,0.5
2026-01-31T0600,2365A,114.932,25.8332,赣州市,市图书馆,,15,13,51,10,41,15,,,,21,23,4,4,1.0,1
2026-01-31T0600,2366A,114.8905,25.8472,赣州市,华坚鞋城,,14,14,54,3,37,12,,,,21,23,5,6,0.7,0.7
2026-01-31T0600,3109A,115.0094,25.8614,赣州市,赣县区卫计委,,9,8,46,3,41,22,,,,13,21,8,8,0.9,0.8
2026-01-31T0600,2684A,106.2753,36.0057,固原市,监测站,颗粒物(PM10),124,197,182,48,51,46,,,,17,18,6,7,0.9,0.8
2026-01-31T0600,2685A,106.2384,36.0189,固原市,新区,颗粒物(PM10),121,191,179,49,49,4,,,,48,28,6,7,1.2,0.7
2026-01-31T0600,2544A,106.6307,30.4577,广安市,市委,,,27,25,25,18,,,,,22,20,5,5,0.9,0.9
2026-01-31T0600,2545A,106.6266,30.4662,广安市,友谊中学,,,25,22,21,16,,,,,22,21,6,6,0.9,0.9
2026-01-31T0600,2547A,106.6386,30.4551,广安市,广电花园,,45,,21,31,19,7,,,,20,17,6,5,0.8,0.8
2026-01-31T0600,2902A,106.6347,30.4868,广安市,北辰小学,,36,,20,25,17,15,,,,14,11,4,4,0.8,0.9
2026-01-31T0600,2524A,105.8211,32.4444,广元市,老城,颗粒物(PM10),52,54,53,34,35,18,,,,42,31,3,2,0.9,0.9
2026-01-31T0600,2526A,105.8629,32.429,广元市,监测站,颗粒物(PM10),57,64,56,32,34,22,,,,22,23,5,5,1.0,1.2
2026-01-31T0600,3617A,105.8047,32.4167,广元市,经开区,"颗粒物(PM10),细颗粒物(PM2.5)",59,68,57,42,38,4,,,,47,30,3,1,0.9,0.9
2026-01-31T0600,1345A,113.2346,23.1423,广州市,广雅中学,,40,40,40,18,21,34,,,,16,42,2,2,0.9,0.7
2026-01-31T0600,1346A,113.2611,23.105,广州市,市五中,,40,40,38,24,20,40,,,,18,39,6,6,/,/
2026-01-31T0600,1348A,113.3477,23.0916,广州市,广东商学院,,39,39,37,25,26,26,,,,25,48,4,5,1.0,0.9
2026-01-31T0600,1349A,113.4332,23.105,广州市,市八十六中,,33,33,29,23,19,33,,,,26,50,8,8,/,/
2026-01-31T0600,1350A,113.3506,22.9488,广州市,番禺中学,,44,44,49,23,20,24,,,,27,45,2,3,0.9,0.8
2026-01-31T0600,1351A,113.2147,23.3918,广州市,花都师范,,27,27,34,15,19,39,,,,19,37,5,5,0.9,0.7
2026-01-31T0600,1352A,113.2599,23.1329,广州市,市监测站,,41,41,39,22,23,34,,,,16,39,2,3,/,/
2026-01-31T0600,1353A,113.5618,23.3119,广州市,九龙镇镇龙,,45,45,31,25,22,40,,,,16,23,7,5,0.8,0.6
2026-01-31T0600,1354A,113.2764,23.1544,广州市,麓湖,,38,38,33,21,22,25,,,,28,44,8,8,0.8,0.7
2026-01-31T0600,2846A,113.3209,23.1323,广州市,体育西,,37,37,40,22,23,29,,,,21,42,5,6,1.0,0.8
2026-01-31T0600,3298A,113.5718,23.5493,广州市,从化街口,,39,39,30,26,20,41,,,,19,21,8,7,0.8,0.7
2026-01-31T0600,3299A,113.3463,23.369,广州市,白云竹料,,30,30,32,20,19,41,,,,20,28,3,2,0.7,0.6
2026-01-31T0600,3300A,113.2981,23.2365,广州市,白云嘉禾,,33,33,41,18,24,38,,,,21,42,5,5,/,/
2026-01-31T0600,3301A,113.4256,23.1716,广州市,黄埔科学城,,36,36,34,25,24,43,,,,15,36,3,2,1.0,0.6
2026-01-31T0600,3302A,113.3942,23.0485,广州市,番禺大学城,,37,37,55,18,23,33,,,,27,48,7,8,0.8,0.6
2026-01-31T0600,3303A,113.4923,22.8169,广州市,南沙黄阁,,40,37,37,28,26,17,,,,36,49,5,5,/,/
2026-01-31T0600,3304A,113.534,22.7893,广州市,南沙街,,39,37,40,27,25,19,,,,37,49,7,6,0.9,0.9
2026-01-31T0600,3443A,113.2905,23.5541,广州市,花都梯面,,26,26,28,16,19,24,,,,15,23,4,4,/,/
2026-01-31T0600,3445A,113.786,23.7479,广州市,从化良口,,49,45,21,34,17,50,,,,12,14,8,8,/,/
2026-01-31T0600,3446A,113.805,23.2614,广州市,增城荔城,,36,36,31,20,17,35,,,,14,20,5,5,0.7,0.8
2026-01-31T0600,2506A,109.604387,23.066791,贵港市,江南子站,,19,19,53,6,23,33,,,,8,13,3,8,0.8,0.8
2026-01-31T0600,2508A,109.5669,23.1065,贵港市,荷城子站,,22,22,45,8,22,31,,,,11,19,5,8,1.0,1
2026-01-31T0600,3405A,109.5886,23.1172,贵港市,新世纪学校,,24,24,50,9,27,32,,,,13,17,/,/,0.7,0.7
2026-01-31T0600,4260A,109.5933,23.095,贵港市,中山路155-3号,,14,14,41,3,26,37,,,,13,16,/,/,0.8,0.8
2026-01-31T0600,1439A,106.6863,26.6035,贵阳市,马鞍山,,14,14,18,7,14,23,,,,10,12,4,3,/,/
2026-01-31T0600,1441A,106.6241,26.6266,贵阳市,鉴湖路,,36,36,29,21,17,23,,,,14,14,1,2,0.8,0.8
2026-01-31T0600,1442A,106.7468,26.6344,贵阳市,燕子冲,,12,12,20,3,14,36,,,,8,13,6,7,0.8,0.8
2026-01-31T0600,1443A,106.6556,26.4362,贵阳市,碧云窝,,24,24,34,9,16,37,,,,9,15,11,14,/,/
2026-01-31T0600,1445A,106.6963,26.6063,贵阳市,红边门,,13,12,22,9,16,33,,,,10,17,7,9,/,/
2026-01-31T0600,1446A,106.7162383,26.56964667,贵阳市,新华路,,19,19,30,8,17,35,,,,11,19,5,6,0.7,0.8
2026-01-31T0600,1447A,106.6742,26.542,贵阳市,太慈桥,,19,19,23,9,15,32,,,,12,18,4,3,/,/
2026-01-31T0600,4230A,106.688212,26.56952,贵阳市,花果园大街66号,,18,,18,12,17,26,,,,10,16,2,2,/,/
2026-01-31T0600,4231A,106.687268,26.516892,贵阳市,漓江路57号,,22,,26,15,18,28,,,,11,18,6,7,0.7,0.8
2026-01-31T0600,1864A,110.3091,25.2705,桂林市,龙隐路小学,,10,,12,6,7,32,,,,12,14,6,6,0.7,0.7
2026-01-31T0600,1865A,110.2849361,25.22909545,桂林市,八中,,10,,10,6,5,30,,,,11,15,3,3,1.0,0.9
2026-01-31T0600,3531A,110.296,25.1254,桂林市,旅游学院,,21,21,23,7,8,36,,,,9,13,3,4,0.6,0.6
2026-01-31T0600,4222A,110.1835,25.2444,桂林市,环湖路276号,,12,9,11,6,9,28,,,,12,15,6,7,1.2,1
2026-01-31T0600,4301A,110.2803,25.2773,桂林市,信义路13号,,10,,10,7,7,31,,,,11,15,4,5,1.0,1.1
2026-01-31T0600,2674A,100.2262,34.4854,果洛藏族自治州,玛沁县大武镇,,41,41,55,10,25,52,,,,3,5,19,18,0.5,0.5
2026-01-31T0600,1130A,126.5557,45.8109,哈尔滨市,松北商大,细颗粒物(PM2.5),84,66,42,62,36,22,,,,42,26,6,8,0.9,0.7
2026-01-31T0600,1132A,126.6162,45.719,哈尔滨市,南岗学府路,细颗粒物(PM2.5),97,92,59,72,35,5,,,,51,28,7,10,1.0,0.8
2026-01-31T0600,1133A,126.6894,45.7733,哈尔滨市,太平宏伟公园,细颗粒物(PM2.5),92,71,40,68,25,11,,,,59,23,9,18,1.1,0.6
2026-01-31T0600,1134A,126.6361,45.7672,哈尔滨市,道外承德广场,细颗粒物(PM2.5),78,84,50,57,25,14,,,,62,30,14,11,0.8,0.5
2026-01-31T0600,1136A,126.644,45.7261,哈尔滨市,动力和平路,细颗粒物(PM2.5),108,90,50,81,34,7,,,,56,32,9,12,1.3,0.9
2026-01-31T0600,1137A,126.5933,45.7479,哈尔滨市,道里建国路,细颗粒物(PM2.5),94,,45,70,32,12,,,,58,35,14,10,1.0,0.9
2026-01-31T0600,1138A,126.6127,45.6119,哈尔滨市,平房东轻厂,细颗粒物(PM2.5),134,102,59,102,45,22,,,,35,42,5,10,1.1,0.8
2026-01-31T0600,1139A,126.5875,45.9827,哈尔滨市,呼兰师专,,48,45,49,33,34,32,,,,30,25,11,13,0.8,0.8
2026-01-31T0600,1140A,126.6299,45.6799,哈尔滨市,省农科院,细颗粒物(PM2.5),122,92,67,92,52,10,,,,53,38,8,14,1.1,0.9
2026-01-31T0600,4282A,126.6769,45.7379,哈尔滨市,华山路1号,细颗粒物(PM2.5),88,95,55,65,30,5,,,,61,36,12,17,1.0,0.6
2026-01-31T0600,4283A,126.9717,45.5356,哈尔滨市,解放大街52号,细颗粒物(PM2.5),110,96,70,83,56,26,,,,28,25,11,11,0.9,0.8
2026-01-31T0600,2688A,93.5124,42.8176,哈密市,地区监测站,,50,50,90,23,43,44,,,,14,28,8,10,0.0,0.3
2026-01-31T0600,2689A,93.5014,42.8312,哈密市,哈密师范学校,,,,,,,,,,,,,,,,
2026-01-31T0600,2671A,100.9016,36.9464,海北藏族自治州,海晏县西海镇,细颗粒物(PM2.5),88,105,94,65,61,52,,,,12,13,10,9,1.0,0.9
2026-01-31T0600,3867A,102.074,36.5056,海东市,平安区公安局北苑,细颗粒物(PM2.5),87,111,137,64,69,26,,,,13,14,8,17,0.9,0.8
2026-01-31T0600,4163A,102.0984,36.5119,海东市,滨河路,细颗粒物(PM2.5),87,122,134,64,68,9,,,,38,33,6,18,0.8,0.8
2026-01-31T0600,1410A,110.3189,20.0596,海口市,海南大学,,25,13,22,8,11,77,,,,7,8,5,5,0.4,0.4
2026-01-31T0600,1411A,110.2827,20.0051,海口市,秀英海南医院,,24,10,22,10,11,75,,,,8,8,7,7,0.3,0.4
2026-01-31T0600,1412A,110.3391,19.9979,海口市,海南师范大学,,,,21,11,9,75,,,,,19,5,5,0.0,0.4
2026-01-31T0600,1413A,110.3303,20.0359,海口市,龙华路环保局宿舍,,27,10,24,9,12,84,,,,7,8,/,/,0.6,0.7
2026-01-31T0600,3539A,110.5111,19.9737,海口市,桂林洋子站,,30,30,20,14,9,75,,,,7,7,/,/,/,/
2026-01-31T0600,4134A,110.1952,20.0451,海口市,长滨二路9号,,24,12,20,8,10,74,,,,6,7,/,/,/,/
2026-01-31T0600,2673A,100.6158,36.2985,海南藏族自治州,共和县恰卜恰镇,,34,34,55,15,30,48,,,,19,18,14,12,0.5,0.5
2026-01-31T0600,2676A,97.373,37.376,海西蒙古族藏族自治州,德令哈市,,30,27,58,12,20,93,,,,1,6,13,14,0.4,0.6
2026-01-31T0600,1049A,114.492,36.5712,邯郸市,矿院,细颗粒物(PM2.5),129,118,104,98,93,3,,,,38,21,1,1,0.9,0.8
2026-01-31T0600,1050A,114.4839,36.6136,邯郸市,丛台公园,细颗粒物(PM2.5),163,150,114,124,99,10,,,,50,26,2,3,1.0,0.8
2026-01-31T0600,3458A,114.7893,36.5592,邯郸市,香泉濮院小区,细颗粒物(PM2.5),112,110,107,84,80,12,,,,34,22,,3,0.9,0.7
2026-01-31T0600,3580A,114.1998,36.4439,邯郸市,峰峰矿区临水派出所,细颗粒物(PM2.5),166,140,92,126,88,17,,,,29,12,,4,2.2,1.1
2026-01-31T0600,4068A,114.5209,36.7697,邯郸市,建安街268号,细颗粒物(PM2.5),149,,99,114,98,0,,,,61,40,2,2,0.8,0.7
2026-01-31T0600,4069A,114.5488,36.6177,邯郸市,丛台东路558号,细颗粒物(PM2.5),142,109,104,108,103,1,,,,44,29,,2,1.0,0.9
2026-01-31T0600,2635A,107.0155,33.0707,汉中市,市监测站,细颗粒物(PM2.5),72,55,41,52,36,2,,,,35,29,5,5,1.4,1.1
2026-01-31T0600,2636A,107.0083,33.114,汉中市,鑫源开发区,细颗粒物(PM2.5),75,56,52,55,46,3,,,,38,29,5,5,1.2,1
2026-01-31T0600,2637A,107.0072,33.0323,汉中市,南郑大河坎水厂,细颗粒物(PM2.5),70,57,48,51,34,2,,,,25,25,5,5,1.4,1.1
2026-01-31T0600,1223A,120.2073,30.2111,杭州市,滨江,,19,15,26,13,16,30,,,,32,28,5,6,0.4,0.4
2026-01-31T0600,1224A,120.0625,30.2737,杭州市,西溪,,17,17,31,10,12,31,,,,26,29,8,8,0.9,1
2026-01-31T0600,1226A,120.3417,30.315,杭州市,下沙,,23,23,33,15,15,44,,,,21,28,7,7,0.7,0.8
2026-01-31T0600,1227A,120.1252,30.2465,杭州市,卧龙桥,,16,15,25,11,14,31,,,,17,20,8,8,0.2,0.2
2026-01-31T0600,1228A,120.1902,30.2691,杭州市,浙江农大,,19,19,27,10,12,29,,,,37,35,4,5,0.6,0.7
2026-01-31T0600,1230A,120.1195,30.3121,杭州市,和睦小学,,19,15,25,13,14,32,,,,24,23,4,4,0.6,0.7
2026-01-31T0600,1231A,120.3076,30.4146,杭州市,临平镇,,22,18,26,15,16,50,,,,10,16,6,6,0.4,0.6
2026-01-31T0600,1232A,120.2753,30.1839,杭州市,城厢镇,,17,17,35,9,13,42,,,,18,26,6,7,0.3,0.3
2026-01-31T0600,1233A,120.0883,30.1808,杭州市,云栖,,,11,25,3,9,32,,,,21,23,,4,0.7,0.7
2026-01-31T0600,3557A,119.9463,30.0496,杭州市,镇二中,,13,6,18,3,12,41,,,,22,28,4,4,0.5,0.6
2026-01-31T0600,3558A,119.7184,30.2367,杭州市,市府大楼,,13,,16,9,11,38,,,,15,18,9,10,0.5,0.6
2026-01-31T0600,3656A,120.1554,30.2863,杭州市,消防大队,,18,18,31,10,14,28,,,,31,28,5,5,0.3,0.4
2026-01-31T0600,1270A,117.1957,31.7845,合肥市,明珠广场,,32,,17,22,15,62,,,,8,14,5,5,0.4,0.5
2026-01-31T0600,1271A,117.307,31.8765,合肥市,三里街,,20,,17,14,14,55,,,,14,21,4,4,0.4,0.5
2026-01-31T0600,1272A,117.2587,31.8703,合肥市,琥珀山庄,,29,24,21,20,18,64,,,,9,14,6,7,0.6,0.7
2026-01-31T0600,1275A,117.2593,31.9376,合肥市,庐阳区,,27,27,19,14,13,59,,,,21,24,3,2,0.6,0.7
2026-01-31T0600,1276A,117.345251,31.861615,合肥市,瑶海区,,22,22,15,12,12,62,,,,14,19,2,3,0.3,0.4
2026-01-31T0600,1277A,117.3033,31.7967,合肥市,包河区,,22,,19,15,14,47,,,,24,38,5,5,0.5,0.6
2026-01-31T0600,1278A,117.278,31.7392,合肥市,滨湖新区,,23,22,17,16,13,61,,,,9,17,2,2,0.4,0.5
2026-01-31T0600,1279A,117.1324,31.8395,合肥市,高新区,,25,24,20,17,14,64,,,,19,24,2,3,0.5,0.6
2026-01-31T0600,3464A,117.3802,31.9148,合肥市,高教基地,,27,27,17,13,13,57,,,,15,15,6,6,0.4,0.4
2026-01-31T0600,4098A,117.2518,31.8404,合肥市,中国科学技术大学,,21,14,15,13,13,66,,,,6,11,7,7,0.5,0.6
2026-01-31T0600,3614A,79.9241,37.0878,和田地区,地区环保局,颗粒物(PM10),493,593,497,87,111,42,,,,12,25,3,8,0.0,0.6
2026-01-31T0600,3615A,79.9132,37.1137,和田地区,市环保局,颗粒物(PM10),460,560,487,86,88,40,,,,21,18,2,3,0.4,1.1
2026-01-31T0600,2517A,108.0496,24.6957,河池市,市环保站,,,0,12,,14,38,,,,8,10,2,2,0.8,0.9
2026-01-31T0600,4302A,108.0901,24.6945,河池市,上任中路54号,,12,9,16,3,9,36,,,,6,9,4,4,1.0,1.1
2026-01-31T0600,1697A,114.6962,23.7538,河源市,东埔,细颗粒物(PM2.5),64,62,28,46,23,45,,,,16,29,5,5,0.7,0.7
2026-01-31T0600,1698A,114.6895,23.7232,河源市,老城,细颗粒物(PM2.5),64,50,29,46,23,43,,,,12,22,6,5,0.9,1
2026-01-31T0600,3374A,115.5562,35.089,菏泽市,定陶老年大学,细颗粒物(PM2.5),82,105,135,60,111,5,,,,41,32,4,4,0.8,1
2026-01-31T0600,4114A,115.4239,35.2593,菏泽市,黄河路600号,细颗粒物(PM2.5),82,101,128,60,100,18,,,,33,26,3,3,0.8,0.8
2026-01-31T0600,4115A,115.5025,35.2727,菏泽市,菏泽市人社局,细颗粒物(PM2.5),125,107,131,95,107,8,,,,31,28,6,7,1.0,0.8
2026-01-31T0600,4184A,115.479691,35.244011,菏泽市,永昌路1号,细颗粒物(PM2.5),134,122,131,102,105,20,,,,33,28,2,3,0.7,0.5
2026-01-31T0600,4193A,115.471542,35.280012,菏泽市,长城路999号,细颗粒物(PM2.5),113,112,126,85,99,16,,,,33,30,20,19,0.9,0.9
2026-01-31T0600,2514A,111.5264,24.4178,贺州市,环保小区,,10,9,56,7,30,31,,,,16,19,3,4,0.7,0.8
2026-01-31T0600,2515A,111.561,24.4074,贺州市,政协大楼,,10,,49,7,33,28,,,,11,20,11,12,0.8,0.9
2026-01-31T0600,3534A,111.4744,24.455,贺州市,西湾,,16,16,58,6,31,27,,,,16,20,8,8,0.9,0.9
2026-01-31T0600,2385A,114.17,35.9019,鹤壁市,市监测站,细颗粒物(PM2.5),160,134,125,122,105,12,,,,22,20,4,2,1.0,1.1
2026-01-31T0600,2386A,114.2953,35.7512,鹤壁市,市交警支队,细颗粒物(PM2.5),153,151,126,117,102,25,,,,26,26,3,4,1.0,0.9
2026-01-31T0600,2387A,114.2877,35.7302,鹤壁市,迎宾馆,细颗粒物(PM2.5),170,155,121,129,104,21,,,,23,23,2,4,1.1,1
2026-01-31T0600,3474A,114.2616,35.6824,鹤壁市,大新区,细颗粒物(PM2.5),175,143,118,132,109,6,,,,46,23,5,6,1.1,1
2026-01-31T0600,3596A,114.1573,35.9607,鹤壁市,南山宾馆,细颗粒物(PM2.5),148,122,124,113,105,37,,,,16,23,4,4,0.9,1.1
2026-01-31T0600,2244A,130.2537,47.3416,鹤岗市,哈啤分公司,,,21,23,18,12,78,,,,6,5,,6,0.5,0.5
2026-01-31T0600,2245A,130.2683,47.3087,鹤岗市,斯达机电,,,15,24,12,10,72,,,,6,6,,4,0.6,0.6
2026-01-31T0600,2246A,130.3114,47.3388,鹤岗市,东山纸板厂,,29,,20,20,12,74,,,,5,5,9,6,0.6,0.4
2026-01-31T0600,2263A,127.4832,50.2524,黑河市,交通局,,22,15,17,14,13,69,,,,4,10,4,5,0.3,0.3
2026-01-31T0600,2264A,127.5146,50.2339,黑河市,环保局,,22,11,16,3,13,68,,,,7,15,5,6,0.3,0.4
2026-01-31T0600,1074A,115.6839,37.754,衡水市,电机北厂,细颗粒物(PM2.5),163,152,101,124,73,4,,,,67,48,5,7,1.1,0.7
2026-01-31T0600,1075A,115.6303,37.7318,衡水市,市监测站,细颗粒物(PM2.5),155,149,95,118,69,0,,,,70,42,8,11,1.1,0.7
2026-01-31T0600,3188A,115.6684,37.7216,衡水市,市城管局,细颗粒物(PM2.5),152,149,89,116,63,14,,,,67,49,9,11,1.2,0.8
2026-01-31T0600,3459A,115.599,37.5491,衡水市,地表水厂,细颗粒物(PM2.5),172,152,94,130,80,3,,,,62,55,8,9,1.1,0.7
2026-01-31T0600,2457A,112.6209,26.9268,衡阳市,衡阳化工总厂,,45,,16,31,14,26,,,,14,17,6,7,0.8,1
2026-01-31T0600,2458A,112.621,26.8957,衡阳市,珠晖区环保局,,45,,16,31,15,27,,,,15,21,3,4,0.9,1.1
2026-01-31T0600,2459A,112.628,26.8654,衡阳市,市委党校,,40,,16,28,14,28,,,,7,11,7,8,1.0,1.2
2026-01-31T0600,2460A,112.6007,26.8977,衡阳市,市监测站,,43,39,25,30,17,28,,,,11,16,4,5,0.8,1
2026-01-31T0600,2461A,112.5658,26.9013,衡阳市,真空机电公司,细颗粒物(PM2.5),55,,25,39,17,30,,,,14,17,5,5,0.9,1.1
2026-01-31T0600,3399A,112.6703,26.8817,衡阳市,师范学院,,42,42,20,26,18,25,,,,15,17,2,2,0.8,1
2026-01-31T0600,3038A,103.3757,23.3679,红河哈尼族彝族自治州,州图书馆,,49,36,38,34,27,72,,,,4,7,6,6,0.5,0.5
2026-01-31T0600,4154A,103.401,23.3561,红河哈尼族彝族自治州,蒙自市朝阳路,,36,33,26,25,24,71,,,,3,5,6,6,0.3,0.3
2026-01-31T0600,1090A,111.6506,40.7517,呼和浩特市,呼市一监,,18,17,30,12,16,25,,,,23,16,6,8,0.5,0.5
2026-01-31T0600,1094A,111.7516,40.8369,呼和浩特市,如意水处理厂,,24,21,34,12,18,18,,,,47,24,9,10,0.3,0.3
2026-01-31T0600,1095A,111.727798,40.806187,呼和浩特市,二十九中,,19,19,34,10,17,27,,,,28,17,10,12,0.4,0.5
2026-01-31T0600,1097A,111.717,40.7617,呼和浩特市,化肥厂生活区,,28,28,39,16,19,24,,,,23,20,4,7,0.4,0.4
2026-01-31T0600,3699A,111.6519,40.8389,呼和浩特市,海东办,,19,6,29,3,14,60,,,,12,20,3,5,0.3,0.5
2026-01-31T0600,4275A,111.591512,40.827312,呼和浩特市,成吉思汗西街8号,,16,7,30,3,15,50,,,,21,20,3,6,0.3,0.5
2026-01-31T0600,4276A,111.6597,40.8077,呼和浩特市,公园东路75号,,17,9,28,3,15,52,,,,21,20,5,7,0.4,0.5
2026-01-31T0600,4277A,111.5427,40.7846,呼和浩特市,金海路35号,,,20,34,11,15,23,,,,31,26,,10,0.5,0.6
2026-01-31T0600,3061A,119.7511,49.1576,呼伦贝尔市,国华电力东,,21,21,29,12,20,66,,,,14,21,5,6,0.2,0.3
2026-01-31T0600,4279A,119.7569,49.2222,呼伦贝尔市,伊敏大街东7号,,24,24,31,14,25,66,,,,2,22,7,7,0.2,0.4
2026-01-31T0600,1250A,120.075,30.867,湖州市,城西水厂,,23,11,18,10,13,73,,,,13,17,5,5,0.3,0.3
2026-01-31T0600,2873A,120.083,30.8929,湖州市,仁皇山新区,,22,10,17,8,12,70,,,,14,20,5,5,0.5,0.5
2026-01-31T0600,2907A,120.1846,30.8592,湖州市,吴兴区站,,,15,24,10,13,60,,,,12,16,,4,0.3,0.4
2026-01-31T0600,3562A,120.4146,30.8538,湖州市,南浔区站,,19,13,23,12,16,60,,,,14,19,6,6,0.3,0.4
2026-01-31T0600,1607A,120.904878,40.721091,葫芦岛市,龙港区,细颗粒物(PM2.5),94,,58,70,39,9,,,,68,28,21,28,1.6,0.9
2026-01-31T0600,1608A,120.8382,40.7521,葫芦岛市,化工街,,49,48,54,34,34,16,,,,60,32,19,25,0.8,0.6
2026-01-31T0600,1609A,120.8339,40.7078,葫芦岛市,新区,细颗粒物(PM2.5),62,46,37,44,28,13,,,,64,28,14,18,0.8,0.8
2026-01-31T0600,1610A,120.8697,40.7679,葫芦岛市,东城区,细颗粒物(PM2.5),55,41,58,39,41,11,,,,63,35,17,31,1.1,1.1
2026-01-31T0600,2483A,109.9297,27.5383,怀化市,河西地税局,,29,23,23,20,22,35,,,,13,15,1,2,/,/
2026-01-31T0600,2484A,109.9783,27.5342,怀化市,市四医院,,38,34,23,26,20,29,,,,10,11,6,7,0.6,0.7
2026-01-31T0600,2485A,109.9971,27.5579,怀化市,监测楼,,35,31,19,24,18,33,,,,13,15,1,2,0.2,0.3
2026-01-31T0600,1210A,119.0566,33.5991,淮安市,钵池山,,29,29,32,16,16,35,,,,22,14,7,6,0.3,0.3
2026-01-31T0600,1211A,119.0083,33.578,淮安市,北京南路,,31,31,34,14,15,37,,,,21,11,6,6,0.5,0.4
2026-01-31T0600,1212A,118.9938,33.6083,淮安市,市监测站,,29,29,24,14,17,35,,,,26,16,8,8,0.5,0.6
2026-01-31T0600,1213A,119.135,33.5038,淮安市,楚州区监测站,,,27,30,21,17,,,,,26,12,8,8,0.4,0.4
2026-01-31T0600,3426A,118.8757,33.2897,淮安市,新华书店,,41,41,36,24,20,33,,,,21,15,8,8,0.6,0.5
2026-01-31T0600,4092A,119.119691,33.550006,淮安市,枚皋中路89号,,37,37,37,23,18,41,,,,22,12,8,8,0.6,0.7
2026-01-31T0600,4206A,119.028838,33.631911,淮安市,承德北路606号,,39,39,39,16,17,34,,,,21,12,6,6,0.5,0.4
2026-01-31T0600,2282A,116.8005,33.9749,淮北市,监测站,细颗粒物(PM2.5),68,73,82,49,48,20,,,,24,16,4,4,0.6,0.6
2026-01-31T0600,2283A,116.8094,33.9008,淮北市,烈山区政府,颗粒物(PM10),60,69,66,39,40,36,,,,21,14,2,2,0.3,0.3
2026-01-31T0600,4017A,116.7926,33.9534,淮北市,市博物馆,细颗粒物(PM2.5),68,74,77,49,49,25,,,,17,10,2,2,0.7,0.7
2026-01-31T0600,4100A,116.8322,33.9884,淮北市,杜集区第一实验学校,细颗粒物(PM2.5),62,66,78,44,48,28,,,,16,14,3,3,0.4,0.4
2026-01-31T0600,2277A,116.8304,32.7726,淮南市,潘集区政府,颗粒物(PM10),52,54,46,28,28,44,,,,12,14,4,4,0.3,0.3
2026-01-31T0600,2279A,116.8569,32.5949,淮南市,谢家集区政府,,46,39,29,32,25,43,,,,12,14,6,5,0.3,0.4
2026-01-31T0600,2280A,116.8279,32.6333,淮南市,八公山区政府,,49,40,35,34,29,46,,,,14,14,2,3,0.4,0.4
2026-01-31T0600,2894A,117.0561,32.6536,淮南市,经济技术开发区消防队,颗粒物(PM10),54,58,46,36,29,36,,,,22,20,4,3,0.3,0.3
2026-01-31T0600,3329A,117.011,32.5891,淮南市,山南新区,,50,42,27,35,26,43,,,,20,18,6,6,0.3,0.3
2026-01-31T0600,4209A,117.003137,32.644456,淮南市,国庆中路369号,,50,50,40,31,27,31,,,,16,15,7,7,0.3,0.3
2026-01-31T0600,2446A,114.9021,30.474,黄冈市,职工中心,,29,23,19,20,14,40,,,,9,13,3,4,0.5,0.6
2026-01-31T0600,2929A,114.8858,30.4519,黄冈市,红卫路,,28,21,18,19,12,46,,,,11,11,4,4,0.4,0.5
2026-01-31T0600,3398A,114.9134,30.4446,黄冈市,市林业局,,21,21,16,14,13,38,,,,13,14,3,4,0.4,0.4
2026-01-31T0600,2672A,102.02,35.5101,黄南藏族自治州,同仁县隆务镇,颗粒物(PM10),62,73,85,39,47,44,,,,2,5,7,7,0.5,0.6
2026-01-31T0600,2295A,118.2905,29.6965,黄山市,延安路89号,,16,6,17,3,12,50,,,,9,16,4,4,0.6,0.7
2026-01-31T0600,2297A,118.1369,30.2755,黄山市,黄山区政府5号楼,,11,6,11,3,3,35,,,,10,15,2,2,0.6,0.6
2026-01-31T0600,4210A,118.335445,29.720283,黄山市,滨江东路7-2号,,22,22,29,3,12,54,,,,12,17,/,/,/,/
2026-01-31T0600,2423A,115.0547,30.2332,黄石市,沈家营,,24,24,21,10,9,36,,,,6,8,6,6,0.7,0.7
2026-01-31T0600,2426A,114.899,30.211,黄石市,铁山,,32,32,25,21,13,40,,,,10,12,4,5,1.1,1
2026-01-31T0600,2427A,115.0259,30.2108,黄石市,团城山,,29,20,21,20,14,30,,,,11,12,6,6,0.8,0.7
2026-01-31T0600,3149A,115.0174,30.1591,黄石市,笔架山北路,,39,39,28,22,15,38,,,,10,17,6,7,0.7,0.7
2026-01-31T0600,4185A,115.078022,30.21118,黄石市,磁湖东路29号,,25,22,18,17,16,36,,,,4,7,6,6,0.9,0.8
2026-01-31T0600,1392A,114.4181,23.0528,惠州市,河南岸金山湖子站,,33,30,33,23,24,30,,,,18,23,3,3,0.7,0.8
2026-01-31T0600,1393A,114.4055,23.0824,惠州市,下埔横江三路子站,,,29,34,23,25,30,,,,17,23,6,6,,0.8
2026-01-31T0600,1395A,114.4645,22.7832,惠州市,惠阳区承修路船湖子站,,35,35,48,23,30,23,,,,20,30,5,6,0.7,0.8
2026-01-31T0600,1396A,114.5316,22.7423,惠州市,大亚湾管委会子站,,29,29,48,18,26,28,,,,15,28,5,6,0.7,0.6
2026-01-31T0600,3314A,114.4334,22.8134,惠州市,惠阳秋长,,20,,40,14,26,49,,,,11,27,/,/,/,/
2026-01-31T0600,3452A,114.6521,22.7755,惠州市,大亚湾霞涌,,19,19,33,7,17,32,,,,14,21,/,/,/,/
2026-01-31T0600,4300A,114.4089,23.1147,惠州市,文华一路1号,,26,23,31,18,23,37,,,,14,24,/,/,/,/
2026-01-31T0600,2240A,130.9618,45.2926,鸡西市,环保局,,,27,22,20,12,64,,,,8,8,,6,0.3,0.3
2026-01-31T0600,2243A,130.9294,45.2959,鸡西市,第一中学,,,26,18,22,13,64,,,,8,7,,2,0.4,0.3
2026-01-31T0600,3707A,131.0069,45.2988,鸡西市,欧美日汽修厂,,,34,29,24,14,62,,,,7,8,,7,0.4,0.4
2026-01-31T0600,2367A,114.9753,27.0803,吉安市,红声器材厂,,,12,46,3,29,12,,,,19,24,,8,0.5,0.5
2026-01-31T0600,2369A,114.9903,27.1313,吉安市,市环境监测站,,10,10,40,3,30,14,,,,14,22,8,8,/,/
2026-01-31T0600,2370A,115.009527,27.096792,吉安市,青原区法院,,9,9,42,3,24,14,,,,16,22,8,10,0.8,0.9
2026-01-31T0600,1772A,126.54,43.8622,吉林市,哈达湾,细颗粒物(PM2.5),60,53,53,43,45,58,,,,22,26,7,9,0.9,1
2026-01-31T0600,1773A,126.5843,43.8358,吉林市,东局子,,46,40,50,32,40,51,,,,16,23,3,5,1.0,1
2026-01-31T0600,1774A,126.5051,43.8243,吉林市,电力学院,,,72,78,64,63,35,,,,36,33,,8,1.3,1.3
2026-01-31T0600,1775A,126.6133,43.8971,吉林市,江北,细颗粒物(PM2.5),67,56,62,48,43,42,,,,22,24,6,8,1.5,1.2
2026-01-31T0600,1776A,126.5549,43.8304,吉林市,江南公园,,,53,61,50,50,26,,,,39,30,,7,0.8,0.8
2026-01-31T0600,2868A,126.4737,43.953,吉林市,九站,细颗粒物(PM2.5),83,68,70,61,59,11,,,,65,45,9,9,1.1,1
2026-01-31T0600,1299A,116.9866,36.6118,济南市,科干所,细颗粒物(PM2.5),153,158,137,117,86,7,,,,55,46,6,13,0.9,0.9
2026-01-31T0600,1300A,116.9379,36.6652,济南市,农科所,细颗粒物(PM2.5),179,156,132,135,97,12,,,,47,49,9,12,0.9,1
2026-01-31T0600,1301A,117.1265,36.6736,济南市,开发区,细颗粒物(PM2.5),176,166,130,133,95,11,,,,57,56,3,6,1.1,1.1
2026-01-31T0600,1303A,117.0616,36.6865,济南市,省种子仓库,细颗粒物(PM2.5),175,156,140,132,92,36,,,,32,51,4,12,0.8,0.9
2026-01-31T0600,1304A,116.9495185,36.644937,济南市,机床二厂,细颗粒物(PM2.5),183,154,138,138,108,6,,,,55,51,4,13,0.7,0.7
2026-01-31T0600,1305A,117.0496,36.6629,济南市,市监测站,细颗粒物(PM2.5),186,166,134,140,97,15,,,,45,49,4,9,1.0,1
2026-01-31T0600,1306A,116.7674,36.5458,济南市,长清党校,细颗粒物(PM2.5),180,168,134,136,113,23,,,,43,40,3,10,1.0,1.1
2026-01-31T0600,1961A,117.5323,36.6865,济南市,东山小学,细颗粒物(PM2.5),148,156,152,113,111,8,,,,60,55,6,8,0.9,0.8
2026-01-31T0600,3059A,117.7181,36.205,济南市,泰兴公司,,,,136,,88,,,74,,,42,,8,,1.1
2026-01-31T0600,3064A,117.6861,36.2172,济南市,莱芜战役纪念馆,细颗粒物(PM2.5),156,163,134,119,87,4,,,,58,38,10,11,1.2,1
2026-01-31T0600,3494A,117.1673,36.9782,济南市,济阳区政府,细颗粒物(PM2.5),192,161,132,144,90,16,,,,49,41,4,10,1.2,1
2026-01-31T0600,3495A,117.1168,36.6299,济南市,锦屏中学,细颗粒物(PM2.5),149,149,120,114,91,6,,,,61,39,4,5,0.8,0.7
2026-01-31T0600,4108A,117.7107,36.2385,济南市,山财大街5号,细颗粒物(PM2.5),148,158,134,113,80,4,,,,68,56,11,12,1.9,1.2
2026-01-31T0600,4109A,116.9744,36.6889,济南市,无影山路12号,细颗粒物(PM2.5),180,158,137,136,100,22,,,,34,47,5,13,1.1,1.2
2026-01-31T0600,1653A,116.6229,35.4288,济宁市,火炬城,细颗粒物(PM2.5),182,147,131,137,103,6,,,,42,35,3,3,1.1,0.8
2026-01-31T0600,3500A,116.5808,35.3703,济宁市,北湖一中,细颗粒物(PM2.5),172,154,132,130,105,0,,,,45,38,9,4,1.0,0.9
2026-01-31T0600,3501A,116.8251,35.5592,济宁市,服务中心,细颗粒物(PM2.5),173,188,158,131,97,1,,,,38,29,5,5,1.1,0.8
2026-01-31T0600,3678A,116.5907,35.4054,济宁市,市第七中学,细颗粒物(PM2.5),195,147,130,146,117,0,,,,47,37,9,9,1.0,0.8
2026-01-31T0600,4111A,116.6075,35.4566,济宁市,任和路,细颗粒物(PM2.5),159,185,167,121,106,0,,,,53,42,5,7,1.1,0.9
2026-01-31T0600,4112A,116.5648,35.3921,济宁市,文体南路1号,细颗粒物(PM2.5),179,209,160,135,107,6,,,,48,43,,5,1.0,0.9
2026-01-31T0600,2255A,130.2749,46.8028,佳木斯市,佳纺,,42,30,39,29,25,54,,,,9,11,5,5,0.4,0.5
2026-01-31T0600,2257A,130.3258,46.7975,佳木斯市,环保局,,40,30,34,28,26,55,,,,12,13,6,7,0.2,0.3
2026-01-31T0600,4285A,130.363,46.806,佳木斯市,顺和街,,,31,30,31,26,52,,,,15,16,,9,0.4,0.4
2026-01-31T0600,4286A,130.3952,46.8268,佳木斯市,长安路196号,,30,26,30,21,22,56,,,,15,12,5,5,0.6,0.6
2026-01-31T0600,1252A,120.7439,30.778,嘉兴市,清河小学,,20,14,24,14,18,64,,,,12,21,5,5,0.4,0.4
2026-01-31T0600,1253A,120.7261,30.7477,嘉兴市,嘉兴学院,,21,15,26,10,14,66,,,,14,20,4,4,0.3,0.4
2026-01-31T0600,2872A,120.7845,30.7524,嘉兴市,南湖区残联,,21,12,23,10,14,65,,,,14,20,4,4,0.2,0.3
2026-01-31T0600,3407A,120.6915,30.7741,嘉兴市,秀洲住建,,23,23,37,9,13,64,,,,15,22,5,5,0.4,0.4
2026-01-31T0600,1945A,98.291,39.7705,嘉峪关市,气象局,颗粒物(PM10),119,188,264,41,57,42,,,,15,18,4,13,0.5,0.7
2026-01-31T0600,2884A,98.2672,39.7978,嘉峪关市,酒钢宾馆,颗粒物(PM10),120,190,262,44,63,42,,,,17,18,11,14,0.4,0.7
2026-01-31T0600,3248A,98.2644,39.7723,嘉峪关市,雄关区,颗粒物(PM10),107,163,219,35,51,32,,,,26,19,14,16,0.5,0.6
2026-01-31T0600,1383A,113.1063,22.6058,江门市,北街,,45,34,39,31,28,27,,,,33,48,/,/,/,/
2026-01-31T0600,1384A,113.073,22.5835,江门市,西区,,,,36,28,27,26,,,,,42,/,/,/,/
2026-01-31T0600,1385A,113.0218,22.531,江门市,圭峰西,,,21,32,21,25,30,,,,,32,/,/,/,/
2026-01-31T0600,1386A,113.0826,22.5947,江门市,东湖,,46,42,42,32,29,25,,,,28,39,7,9,0.6,0.6
2026-01-31T0600,3311A,113.1077,22.5647,江门市,江海富民,,49,49,46,31,29,26,,,,34,46,/,/,0.6,0.6
2026-01-31T0600,3449A,113.0496,22.4669,江门市,新会银湖,,38,28,30,26,27,23,,,,31,36,6,6,0.5,0.6
2026-01-31T0600,3335A,113.3137,35.2643,焦作市,马村街道办,细颗粒物(PM2.5),148,145,142,113,119,22,,,,23,25,3,3,1.2,1.1
2026-01-31T0600,3336A,113.2464,35.2374,焦作市,焦作技师学院,细颗粒物(PM2.5),168,178,147,127,117,14,,,,32,25,10,6,1.7,1.3
2026-01-31T0600,3477A,113.1656,35.2536,焦作市,中站许衡医院,细颗粒物(PM2.5),168,147,150,127,129,30,,,,27,30,7,6,1.3,1.4
2026-01-31T0600,3981A,113.2456,35.18,焦作市,原李万街道办,细颗粒物(PM2.5),144,119,124,110,103,16,,,,33,23,4,3,1.1,0.9
2026-01-31T0600,4264A,113.234,35.219,焦作市,新安路1731号,细颗粒物(PM2.5),175,207,159,132,117,17,,,,30,22,8,6,1.3,1.1
2026-01-31T0600,4295A,113.2722,35.2121,焦作市,人民路3066号,细颗粒物(PM2.5),149,151,143,114,110,11,,,,34,23,4,4,1.2,1.1
2026-01-31T0600,1708A,116.3701,23.5345,揭阳市,新兴,细颗粒物(PM2.5),60,43,67,43,39,39,,,,24,33,8,10,0.7,0.9
2026-01-31T0600,1709A,116.3261,23.5442,揭阳市,西马,细颗粒物(PM2.5),57,47,68,40,38,36,,,,22,30,7,7,0.8,0.8
2026-01-31T0600,1710A,116.361,23.5627,揭阳市,东兴,细颗粒物(PM2.5),57,60,74,40,41,33,,,,28,34,13,10,/,/
2026-01-31T0600,1711A,116.4151,23.5295,揭阳市,渔湖,细颗粒物(PM2.5),60,46,57,43,35,47,,,,18,26,5,8,/,/
2026-01-31T0600,3320A,116.4028,23.5699,揭阳市,曲溪,细颗粒物(PM2.5),59,,61,42,36,43,,,,20,28,6,7,0.6,0.7
2026-01-31T0600,1944A,102.1691,38.5166,金昌市,天庆家园,颗粒物(PM10),153,256,281,67,66,39,,,,11,11,6,11,1.0,0.8
2026-01-31T0600,4022A,102.1648,38.5369,金昌市,金川区人防中心,颗粒物(PM10),159,268,292,67,69,46,,,,9,10,10,10,0.6,0.6
2026-01-31T0600,4239A,102.193042,38.531887,金昌市,长春路96号,颗粒物(PM10),151,251,282,55,61,34,,,,11,10,6,14,0.8,0.7
2026-01-31T0600,1262A,119.6478,29.0773,金华市,十五中,,18,9,30,3,13,56,,,,16,31,3,3,0.3,0.3
2026-01-31T0600,1263A,119.6859,29.1032,金华市,监测站,,,10,29,3,12,38,,,,23,33,,2,0.3,0.3
2026-01-31T0600,3659A,119.656,29.1132,金华市,气象局,,12,6,25,3,12,37,,,,21,30,3,3,0.8,0.6
2026-01-31T0600,1767A,121.1114,41.0879,锦州市,南山,细颗粒物(PM2.5),53,44,43,37,33,10,,,,63,42,26,31,1.0,0.9
2026-01-31T0600,1768A,121.060361,40.842794,锦州市,开发区,细颗粒物(PM2.5),55,45,49,39,32,10,,,,56,32,32,25,0.9,0.7
2026-01-31T0600,1769A,121.1836,41.1118,锦州市,百股街道,细颗粒物(PM2.5),64,53,51,46,41,8,,,,65,43,22,46,1.0,0.9
2026-01-31T0600,1770A,121.1176,41.1224,锦州市,天安街道,细颗粒物(PM2.5),60,50,51,43,35,14,,,,53,39,19,31,1.1,1
2026-01-31T0600,1771A,121.1303,41.1385,锦州市,北湖公园,细颗粒物(PM2.5),58,53,54,41,39,15,,,,48,41,22,24,0.9,0.9
2026-01-31T0600,2160A,112.8496,35.5051,晋城市,自来水公司,细颗粒物(PM2.5),102,115,104,76,75,48,,,,20,19,5,4,1.8,1.1
2026-01-31T0600,2162A,112.8509,35.4886,晋城市,市环保局,细颗粒物(PM2.5),129,104,101,98,86,,,,,21,19,5,3,0.8,0.8
2026-01-31T0600,3620A,112.8258,35.4804,晋城市,泽州一中,细颗粒物(PM2.5),102,81,97,76,84,62,,,,13,14,2,2,0.8,0.7
2026-01-31T0600,4078A,112.8246,35.5152,晋城市,前书院路,细颗粒物(PM2.5),88,101,110,65,72,52,,,,16,19,4,4,1.1,0.8
2026-01-31T0600,4079A,112.8864,35.4773,晋城市,祥云街666号,细颗粒物(PM2.5),149,130,104,114,93,36,,,,28,22,5,4,1.3,0.8
2026-01-31T0600,2174A,112.6992,37.6984,晋中市,榆次区政府,细颗粒物(PM2.5),173,158,180,131,153,14,,,,44,40,11,9,1.4,1.4
2026-01-31T0600,2865A,112.7195,37.683,晋中市,榆次三中,细颗粒物(PM2.5),160,151,182,122,149,2,,,,54,42,13,11,1.4,1.5
2026-01-31T0600,4080A,112.7375,37.7215,晋中市,广安街188号,细颗粒物(PM2.5),176,169,212,133,156,13,,,,49,51,,9,1.2,1.2
2026-01-31T0600,4200A,112.7478,37.6954,晋中市,迎宾街26号,细颗粒物(PM2.5),173,146,183,131,161,8,,,,44,43,11,11,1.3,1.3
2026-01-31T0600,2439A,112.2012,31.048,荆门市,竹园小学,细颗粒物(PM2.5),93,77,87,69,74,29,,,,25,25,1,1,0.4,0.5
2026-01-31T0600,2440A,112.1968,30.9892,荆门市,掇刀,细颗粒物(PM2.5),82,65,84,60,73,49,,,,16,19,4,2,0.7,0.6
2026-01-31T0600,3012A,112.1849,31.0361,荆门市,西山林语,细颗粒物(PM2.5),67,67,84,48,68,20,,,,21,21,2,2,0.9,0.9
2026-01-31T0600,3547A,112.1631,31.0134,荆门市,龙泉中学南校,细颗粒物(PM2.5),75,66,85,55,71,50,,,,11,12,3,2,0.4,0.6
2026-01-31T0600,4124A,112.2213,31.0654,荆门市,新台西路6号,细颗粒物(PM2.5),88,65,90,65,82,36,,,,19,21,8,7,0.7,0.8
2026-01-31T0600,1844A,112.2493,30.3198,荆州市,市图书馆,细颗粒物(PM2.5),77,56,60,56,65,35,,,,20,21,6,5,0.7,0.8
2026-01-31T0600,1845A,112.2009,30.3543,荆州市,市委党校,细颗粒物(PM2.5),89,73,71,66,77,23,,,,25,25,6,6,0.9,0.9
2026-01-31T0600,3194A,112.2749,30.3124,荆州市,管委会,细颗粒物(PM2.5),72,,62,52,72,32,,,,20,20,5,5,1.0,1
2026-01-31T0600,4268A,112.1722,30.3366,荆州市,学苑路85号,细颗粒物(PM2.5),89,68,67,66,69,29,,,,16,19,7,6,0.7,0.9
2026-01-31T0600,2343A,117.2114,29.2931,景德镇市,老干部活动中心,,8,6,15,3,10,25,,,,8,13,6,5,0.6,0.6
2026-01-31T0600,2344A,117.1893,29.2789,景德镇市,兽医站,,20,20,26,6,11,28,,,,13,18,4,4,0.4,0.4
2026-01-31T0600,2346A,117.246,29.2958,景德镇市,陶研所,,8,6,16,3,12,25,,,,10,16,4,3,0.7,0.7
2026-01-31T0600,4289A,117.154766,29.256967,景德镇市,青少年活动中心,,9,6,18,3,13,28,,,,15,20,7,8,/,/
2026-01-31T0600,1803A,115.9873,29.6816,九江市,十里,,28,24,14,19,15,51,,,,18,20,4,4,0.8,0.8
2026-01-31T0600,1804A,115.9583,29.7047,九江市,茅山头,,,,16,30,15,40,,,,16,18,,4,0.5,0.5
2026-01-31T0600,1805A,115.9877,29.7295,九江市,西园,,30,30,16,19,9,43,,,,24,26,5,3,0.5,0.6
2026-01-31T0600,1808A,115.9112,29.6038,九江市,综合工业园,,40,32,12,28,15,34,,,,22,30,1,1,0.6,0.9
2026-01-31T0600,3190A,116.0254,29.6995,九江市,外国语学校,,24,24,12,12,8,38,,,,20,23,4,4,0.4,0.5
2026-01-31T0600,4253A,116.010205,29.659402,九江市,莲花大道8号,,23,23,16,14,7,37,,,,13,18,2,2,0.5,0.6
2026-01-31T0600,4240A,98.495752,39.733935,酒泉市,玉门东路5号,颗粒物(PM10),137,224,274,40,50,32,,,,10,12,9,10,0.4,0.6
2026-01-31T0600,4241A,98.5099,39.7506,酒泉市,北大街108号,颗粒物(PM10),125,200,255,44,51,32,,,,12,15,8,10,0.4,0.5
2026-01-31T0600,2698A,76.0071,39.466,喀什地区,巡警大队,颗粒物(PM10),184,317,320,117,111,1,,,,47,44,4,8,2.3,1.6
2026-01-31T0600,2699A,75.9756,39.4693,喀什地区,吾办,颗粒物(PM10),150,249,286,96,100,27,,,,32,42,13,15,1.4,1.5
2026-01-31T0600,4027A,75.9485,39.4688,喀什地区,老干局,颗粒物(PM10),191,332,325,106,98,3,,,,49,40,4,6,3.8,1.8
2026-01-31T0600,1824A,114.3389,34.778,开封市,肿瘤医院,细颗粒物(PM2.5),142,122,110,108,109,8,,,,46,39,9,9,1.3,1.1
2026-01-31T0600,1826A,114.2884,34.7966,开封市,世纪星幼儿园,细颗粒物(PM2.5),138,109,100,105,106,8,,,,50,43,5,5,1.1,0.9
2026-01-31T0600,3147A,114.3434,34.8101,开封市,龙亭公园,细颗粒物(PM2.5),153,123,108,117,109,12,,,,45,36,6,6,1.4,1.2
2026-01-31T0600,3210A,114.3645,34.7955,开封市,汴京公园,细颗粒物(PM2.5),129,123,113,98,102,9,,,,40,33,4,4,1.1,0.9
2026-01-31T0600,3473A,114.2485,34.8306,开封市,技师学院,细颗粒物(PM2.5),149,,97,114,97,10,,,,49,37,6,6,1.1,1
2026-01-31T0600,3592A,114.4518,34.7503,开封市,祥符区生态环境局,细颗粒物(PM2.5),125,114,144,95,97,10,,,,43,34,4,5,1.2,1.2
2026-01-31T0600,1951A,84.886,45.6029,克拉玛依市,长征新村,颗粒物(PM10),55,60,106,34,68,35,,,,35,42,5,5,0.8,1.1
2026-01-31T0600,1952A,84.8894,45.5827,克拉玛依市,南林小区,细颗粒物(PM2.5),73,84,119,53,79,52,,,,11,30,3,4,0.9,1.2
2026-01-31T0600,1954A,84.896,44.3328,克拉玛依市,独山子区,细颗粒物(PM2.5),247,277,364,197,230,45,,,,63,70,2,3,1.4,1.7
2026-01-31T0600,1955A,85.6888,46.0909,克拉玛依市,乌尔禾区商贸楼,细颗粒物(PM2.5),54,56,74,38,51,32,,,,33,35,6,7,0.9,0.7
2026-01-31T0600,3612A,85.1045,45.6895,克拉玛依市,白碱滩区新站,"颗粒物(PM10),细颗粒物(PM2.5)",52,54,94,36,57,48,,,,21,32,7,8,0.6,0.8
2026-01-31T0600,2697A,76.1457,39.7143,克孜勒苏柯尔克孜自治州,市人民政府,颗粒物(PM10),156,261,292,72,81,49,,,,4,14,3,4,0.2,0.3
2026-01-31T0600,3665A,76.1654,39.7157,克孜勒苏柯尔克孜自治州,克州文化中心,颗粒物(PM10),155,259,289,62,73,45,,,,4,16,3,3,0.4,0.8
2026-01-31T0600,1450A,102.8203,24.889,昆明市,呈贡新区,颗粒物(PM10),58,66,34,30,21,2,,,,38,17,4,5,0.3,0.2
2026-01-31T0600,1452A,102.7253,25.0904,昆明市,龙泉镇,,29,29,41,20,20,40,,,,15,27,2,3,0.4,0.4
2026-01-31T0600,1453A,102.7267,25.0378,昆明市,东风东路,,42,40,34,29,19,26,,,,30,20,7,6,0.3,0.2
2026-01-31T0600,1454A,102.6744,25.0671,昆明市,金鼎山,,35,33,38,24,17,46,,,,13,18,3,4,0.4,0.4
2026-01-31T0600,1455A,102.6643,25.0401,昆明市,碧鸡广场,,49,49,39,21,20,27,,,,35,26,3,4,0.4,0.4
2026-01-31T0600,3179A,102.7491,25.012,昆明市,官渡区博物馆,颗粒物(PM10),63,76,39,35,21,12,,,,47,26,3,4,0.9,0.7
2026-01-31T0600,3375A,102.8016,24.8336,昆明市,青年创业园,,,,31,,22,,,91,,,13,,8,,0.4
2026-01-31T0600,3550A,102.8,24.9787,昆明市,昆明学院,颗粒物(PM10),65,79,43,33,25,23,,,,29,20,3,4,0.8,0.5
2026-01-31T0600,3551A,102.5969,24.6738,昆明市,晋宁区生态环境分局,细颗粒物(PM2.5),69,65,38,50,26,13,,,,48,15,1,3,0.6,0.4
2026-01-31T0600,3552A,102.6673,24.9861,昆明市,云天化总部,颗粒物(PM10),54,57,35,32,18,5,,,,54,25,5,6,0.6,0.4
2026-01-31T0600,1456A,91.132,29.6515,拉萨市,八廓街,,18,14,21,6,13,55,,,,10,19,6,7,0.3,0.6
2026-01-31T0600,1457A,91.1221,29.6748,拉萨市,市环保局,,19,19,25,6,13,41,,,,17,20,7,8,0.7,0.8
2026-01-31T0600,1458A,91.0874,29.6476,拉萨市,区监测站,,15,8,14,6,8,48,,,,16,21,4,4,0.9,1
2026-01-31T0600,1459A,91.1774,29.6541,拉萨市,西藏大学,,17,12,17,3,8,52,,,,10,17,3,4,0.9,0.6
2026-01-31T0600,1460A,90.9798,29.6586,拉萨市,区辐射站,,14,11,23,3,13,44,,,,17,21,2,4,0.4,0.6
2026-01-31T0600,1461A,91.0831,29.6292,拉萨市,拉萨火车站,,18,15,13,7,9,26,,,,36,18,4,4,0.5,0.4
2026-01-31T0600,2520A,109.2203,23.7252,来宾市,来宾技工学校,,10,10,35,3,17,30,,,,8,11,9,10,0.8,0.9
2026-01-31T0600,3535A,109.1781,23.7293,来宾市,兴宾区政府,,13,13,37,3,17,34,,,,4,9,4,5,0.8,0.9
2026-01-31T0600,4002A,109.2312,23.7428,来宾市,中南小学,,10,6,34,3,19,30,,,,9,16,5,5,0.9,1
2026-01-31T0600,1479A,103.8309,36.0467,兰州市,铁路设计院,,,,,,,,,,,,,,,,
2026-01-31T0600,3241A,103.7439,36.0841,兰州市,百合公园,颗粒物(PM10),103,155,167,67,68,4,,,,38,38,1,9,1.2,0.9
2026-01-31T0600,3242A,103.9613,35.9985,兰州市,和平,颗粒物(PM10),92,134,164,44,57,44,,,,18,22,6,10,0.8,1
2026-01-31T0600,4236A,103.629272,36.093822,兰州市,庄浪东路808号,颗粒物(PM10),108,165,179,69,64,18,,,,41,35,8,10,0.8,0.7
2026-01-31T0600,4237A,103.7251,36.104344,兰州市,安宁西路88号,颗粒物(PM10),109,167,191,65,72,3,,,,49,37,6,8,0.9,0.7
2026-01-31T0600,4238A,103.846982,36.067567,兰州市,北滨河东路1号,颗粒物(PM10),107,164,167,68,57,1,,,,52,43,6,9,1.2,1
2026-01-31T0600,1067A,116.6712,39.5109,廊坊市,药材公司,细颗粒物(PM2.5),115,120,99,87,76,2,,,,68,50,3,6,1.1,0.8
2026-01-31T0600,1068A,116.7215,39.5592,廊坊市,开发区,细颗粒物(PM2.5),112,110,98,84,73,0,,,,76,47,3,5,1.0,0.8
2026-01-31T0600,1070A,116.7246,39.5273,廊坊市,北华航天学院,细颗粒物(PM2.5),114,109,100,86,70,2,,,,71,47,2,5,1.1,0.8
2026-01-31T0600,2919A,116.7022,39.5454,廊坊市,河北工业大学,细颗粒物(PM2.5),114,118,100,86,71,4,,,,71,41,2,5,1.0,0.8
2026-01-31T0600,2536A,103.7629,29.5844,乐山市,牛耳桥,,39,39,52,24,31,25,,,,15,25,5,7,0.9,0.9
2026-01-31T0600,2537A,103.7501,29.6002,乐山市,市第三水厂,,,,41,23,32,,,,,19,26,6,8,1.0,1
2026-01-31T0600,2538A,103.7571,29.5664,乐山市,市监测站,,35,35,50,24,30,20,,,,18,21,6,7,0.8,0.8
2026-01-31T0600,3361A,103.7313,29.563,乐山市,理工大学,,35,35,50,21,32,22,,,,12,18,1,12,0.8,0.9
2026-01-31T0600,2599A,100.2497,26.8802,丽江市,丽江古城,,24,16,25,14,17,75,,,,9,11,9,10,0.5,0.5
2026-01-31T0600,2600A,100.2203,26.8906,丽江市,市中心,,20,15,18,8,12,61,,,,9,11,6,6,0.4,0.4
2026-01-31T0600,1267A,119.9141,28.4513,丽水市,监测站大楼,,15,6,14,3,6,45,,,,12,15,4,4,0.4,0.4
2026-01-31T0600,1268A,119.93,28.4589,丽水市,莲都小学,,15,6,15,3,4,48,,,,14,16,/,/,/,/
2026-01-31T0600,1269A,119.8794,28.4232,丽水市,余庄前,,12,6,13,3,4,36,,,,16,16,4,4,0.3,0.3
2026-01-31T0600,1173A,119.1759,34.5885,连云港市,市环境监测站,,31,29,25,19,15,3,,,,61,23,9,9,0.4,0.3
2026-01-31T0600,3000A,119.3577,34.6971,连云港市,德源药业,,,41,33,22,14,16,,,,42,23,,6,0.7,0.6
2026-01-31T0600,3007A,119.178,34.8442,连云港市,新城一中,,43,40,38,30,16,29,,,,46,35,8,9,0.8,0.7
2026-01-31T0600,3008A,119.3607,34.7519,连云港市,胡沟管理处,,35,34,24,24,12,34,,,,36,23,6,7,0.6,0.6
2026-01-31T0600,3009A,119.1478,34.5913,连云港市,矿山设计院,,32,29,30,22,13,5,,,,60,25,8,8,0.6,0.5
2026-01-31T0600,3434A,119.2414,34.6539,连云港市,工贸学校,,,24,23,12,11,,,,,19,17,9,10,0.4,0.3
2026-01-31T0600,3664A,119.4171,34.734,连云港市,连云街道,,,21,24,10,11,,,,,10,16,4,4,0.5,0.4
2026-01-31T0600,2573A,102.2629,27.8981,凉山彝族自治州,西昌市政府,,21,21,33,14,20,46,,,,9,10,4,5,0.6,0.6
2026-01-31T0600,2574A,102.2686,27.885,凉山彝族自治州,凉山州政府,,23,23,33,13,19,39,,,,12,11,6,7,0.8,0.7
2026-01-31T0600,4229A,102.2342,27.8859,凉山彝族自治州,凯乐南路30号,,26,26,40,8,15,41,,,,12,11,7,8,0.8,0.7
2026-01-31T0600,2212A,123.1978,41.2036,辽阳市,宏伟区,,49,49,49,31,29,25,,,,23,21,17,13,1.0,0.7
2026-01-31T0600,2213A,123.1684,41.2497,辽阳市,新华园,,50,50,60,30,38,28,,,,35,34,27,12,1.0,1
2026-01-31T0600,2214A,123.2355,41.2663,辽阳市,滨河路,,37,37,53,24,33,25,,,,36,34,20,10,0.7,0.7
2026-01-31T0600,4083A,123.153,41.2874,辽阳市,铁西路150号,,46,44,50,32,36,29,,,,34,34,15,13,0.9,0.9
2026-01-31T0600,2227A,125.1359,42.8845,辽源市,环保局,,,68,78,47,59,10,,,,56,44,,5,1.1,1.2
2026-01-31T0600,4085A,125.0998,42.9134,辽源市,安宁大街333号,,,75,79,64,64,7,,,,44,35,,6,1.1,1.1
2026-01-31T0600,1625A,115.9789,36.4372,聊城市,区政府,细颗粒物(PM2.5),156,136,117,119,87,48,,,,22,35,10,13,0.9,0.9
2026-01-31T0600,3200A,115.9772,36.4986,聊城市,监控中心,细颗粒物(PM2.5),153,127,108,117,84,43,,,,28,36,6,8,0.8,0.8
2026-01-31T0600,3513A,116.0443,36.436,聊城市,九州社区,细颗粒物(PM2.5),158,141,119,120,91,44,,,,14,22,1,6,0.8,0.8
2026-01-31T0600,4018A,116.0564,36.4609,聊城市,星美广场,细颗粒物(PM2.5),163,141,126,124,98,59,,,,20,22,2,6,0.9,0.9
2026-01-31T0600,4113A,116.0091,36.4495,聊城市,利民路,细颗粒物(PM2.5),150,139,115,115,86,48,,,,18,32,7,11,0.9,0.9
2026-01-31T0600,2632A,94.3683,29.6373,林芝市,林芝监测站,,19,6,11,3,6,60,,,,2,3,5,5,0.4,0.4
2026-01-31T0600,2633A,94.3616,29.6634,林芝市,林芝人民医院,,19,10,13,3,8,60,,,,1,4,5,6,0.3,0.3
2026-01-31T0600,2603A,100.0779,23.8981,临沧市,市环保局,,33,,38,23,26,34,,,,11,15,7,8,0.5,0.5
2026-01-31T0600,2604A,100.0894,23.882,临沧市,市气象局,,41,41,52,28,35,27,,,,10,12,7,9,0.5,0.5
2026-01-31T0600,1733A,111.5552,36.0791,临汾市,临钢医院,细颗粒物(PM2.5),176,156,160,133,133,32,,,,26,28,5,5,1.6,1.5
2026-01-31T0600,1734A,111.4984,36.0734,临汾市,技工学校,细颗粒物(PM2.5),218,173,154,168,158,32,,,,30,32,5,4,2.0,1.9
2026-01-31T0600,1736A,111.5017,36.0857,临汾市,市委,细颗粒物(PM2.5),206,186,185,156,146,35,,,,22,28,7,7,1.5,1.4
2026-01-31T0600,3018A,111.5048,36.1015,临汾市,唐尧大酒店,细颗粒物(PM2.5),193,177,160,145,134,36,,,,22,28,2,3,1.9,1.8
2026-01-31T0600,4244A,111.4879,36.053,临汾市,启星学校,细颗粒物(PM2.5),188,165,146,141,127,27,,,,32,33,4,5,1.4,1.3
2026-01-31T0600,4271A,103.2464,35.6123,临夏回族自治州,滨河东路1号,细颗粒物(PM2.5),113,159,155,85,74,8,,,,20,20,4,5,1.4,0.9
2026-01-31T0600,4310A,103.207136,35.599807,临夏回族自治州,新华街21号,细颗粒物(PM2.5),122,177,160,92,70,14,,,,23,18,4,5,1.4,0.9
2026-01-31T0600,1618A,118.3429,35.0532,临沂市,沂河小区,颗粒物(PM10),56,61,56,28,24,34,,,,34,23,14,12,0.7,0.6
2026-01-31T0600,1619A,118.2962,35.0568,临沂市,鲁南制药厂,"颗粒物(PM10),细颗粒物(PM2.5)",59,68,51,42,34,10,,,,62,32,14,13,0.6,0.5
2026-01-31T0600,1620A,118.2793,34.9976,临沂市,新光毛纺厂,,49,46,46,34,33,21,,,,46,28,12,12,0.6,0.5
2026-01-31T0600,1621A,118.3955,35.0889,临沂市,河东保险公司,,46,46,50,25,30,45,,,,32,29,9,10,0.6,0.7
2026-01-31T0600,3370A,118.3563,35.0215,临沂市,十里堡居委,颗粒物(PM10),51,51,49,30,26,15,,,,54,29,13,11,0.6,0.5
2026-01-31T0600,3496A,118.359,35.1067,临沂市,南坊新区,,48,48,50,26,26,45,,,,32,28,18,11,0.6,0.6
2026-01-31T0600,3860A,118.3915,35.0297,临沂市,皇山花园小区,颗粒物(PM10),53,56,50,36,29,29,,,,43,28,14,13,0.6,0.6
2026-01-31T0600,1870A,109.4854,24.3898,柳州市,柳东小学,,10,10,30,3,18,31,,,,6,12,8,10,0.9,1
2026-01-31T0600,1871A,109.4109,24.3304,柳州市,环保监测站,,11,6,27,3,11,34,,,,11,20,4,5,0.9,1.1
2026-01-31T0600,1872A,109.3886,24.3408,柳州市,河西水厂,,15,13,24,3,11,30,,,,16,19,9,9,1.5,1.9
2026-01-31T0600,1873A,109.4263,24.2951,柳州市,市四中,,11,6,24,3,13,33,,,,9,19,5,6,0.9,1
2026-01-31T0600,1874A,109.396,24.3658,柳州市,市九中,,11,11,20,3,10,30,,,,13,18,8,9,0.9,1
2026-01-31T0600,1875A,109.4912,24.3164,柳州市,古亭山,,10,6,23,3,16,29,,,,7,16,5,7,0.7,0.7
2026-01-31T0600,3402A,109.5422,24.3994,柳州市,市二中,,10,10,32,3,19,26,,,,12,20,8,10,0.9,1
2026-01-31T0600,2307A,116.5078,31.7369,六安市,监测大楼,,30,25,18,21,13,56,,,,12,17,2,2,0.2,0.3
2026-01-31T0600,2308A,116.4738,31.7642,六安市,皖西学院,,44,44,25,24,15,59,,,,13,16,3,3,0.2,0.3
2026-01-31T0600,2309A,116.4997,31.7904,六安市,朝阳厂,,28,21,16,19,15,59,,,,10,14,6,4,0.3,0.3
2026-01-31T0600,2310A,116.5566,31.7885,六安市,开发区,,,36,25,,18,63,,,,8,9,3,3,0.3,0.3
2026-01-31T0600,2577A,104.8293,26.592,六盘水市,黄土坡,,14,11,26,8,22,42,,,,13,17,11,8,0.8,1
2026-01-31T0600,2579A,104.8481,26.5898,六盘水市,民中,,13,8,30,7,18,40,,,,10,18,4,4,0.7,0.9
2026-01-31T0600,2580A,104.9541,26.5506,六盘水市,双水,,14,9,23,3,17,44,,,,7,12,3,5,0.8,0.9
2026-01-31T0600,4151A,104.8899,26.5685,六盘水市,钟山大道中段564号,,11,9,31,3,18,35,,,,12,14,7,6,1.0,1
2026-01-31T0600,2336A,117.022,25.1031,龙岩市,龙岩市监测站,,,,25,34,17,31,,,,12,26,,10,0.7,0.8
2026-01-31T0600,2337A,117.0257,25.0662,龙岩市,闽西职业技术学院,,,,19,30,10,36,,,,9,19,,4,0.6,0.6
2026-01-31T0600,2338A,117.0195,25.0306,龙岩市,龙岩学院,,36,,15,25,10,18,,,,15,13,5,5,/,/
2026-01-31T0600,2885A,104.9344,33.3827,陇南市,滨江中学,颗粒物(PM10),79,108,116,54,58,50,,,,12,15,4,5,0.9,1
2026-01-31T0600,3247A,104.9551,33.3709,陇南市,市总工会,颗粒物(PM10),77,104,115,54,61,51,,,,11,14,2,3,0.9,0.9
2026-01-31T0600,2488A,111.9984,27.7346,娄底市,市监测站,细颗粒物(PM2.5),59,,24,42,26,29,,,,15,17,6,7,0.7,0.7
2026-01-31T0600,2491A,111.9888,27.7035,娄底市,市政府,,50,38,24,35,20,22,,,,24,25,3,3,0.5,0.5
2026-01-31T0600,4127A,111.9812,27.7591,娄底市,涟钢职大,,50,50,27,31,20,32,,,,13,16,3,3,0.4,0.6
2026-01-31T0600,4128A,112.0303,27.7457,娄底市,娄底体校,细颗粒物(PM2.5),54,,23,38,24,23,,,,12,12,2,2,0.4,0.6
2026-01-31T0600,1894A,105.4427,28.9063,泸州市,小市上码头,,,13,28,7,20,,,,,5,8,5,5,1.0,1
2026-01-31T0600,1895A,105.4241,28.8573,泸州市,兰田宪桥,,15,15,30,6,17,24,,,,11,14,7,7,0.8,0.8
2026-01-31T0600,1896A,105.4378,28.8833,泸州市,市环监站,,14,14,32,7,21,36,,,,11,16,9,9,0.7,0.8
2026-01-31T0600,4272A,105.3689,28.7783,泸州市,纳溪中医医院,,27,27,38,12,26,21,,,,12,13,7,8,1.3,0.9
2026-01-31T0600,2183A,111.1447,37.5212,吕梁市,环保局,细颗粒物(PM2.5),92,98,120,68,88,3,,,,44,41,3,4,0.7,0.9
2026-01-31T0600,2185A,111.1285,37.5338,吕梁市,自来水公司,颗粒物(PM10),93,136,124,68,83,1,,,,46,32,4,4,0.9,1
2026-01-31T0600,2867A,111.1225,37.5093,吕梁市,马茂庄小学,细颗粒物(PM2.5),82,109,121,60,83,4,,,,42,36,9,6,0.8,0.8
2026-01-31T0600,1812A,112.3934,34.6517,洛阳市,市委党校,细颗粒物(PM2.5),132,,105,100,110,23,,,,28,28,7,7,1.1,1.1
2026-01-31T0600,1815A,112.494,34.6883,洛阳市,河南林校,细颗粒物(PM2.5),127,104,108,96,104,6,,,,45,31,8,7,1.4,1.1
2026-01-31T0600,1816A,112.3843,34.623,洛阳市,开发区管委会,细颗粒物(PM2.5),119,101,127,90,111,18,,,,24,27,8,8,1.1,1.1
2026-01-31T0600,1817A,112.4263,34.6249,洛阳市,市委新办公区,细颗粒物(PM2.5),135,108,128,103,120,19,,,,30,33,7,7,1.0,1
2026-01-31T0600,3340A,112.6005,34.6323,洛阳市,伊滨,细颗粒物(PM2.5),144,126,123,110,103,20,,,,32,29,7,7,1.2,1
2026-01-31T0600,3341A,112.495,34.6338,洛阳市,中移产业园,细颗粒物(PM2.5),129,98,109,98,106,18,,,,27,31,8,8,1.2,1.1
2026-01-31T0600,3593A,112.5736,34.8993,洛阳市,吉利监测站,细颗粒物(PM2.5),125,96,111,95,115,16,,,,26,30,7,7,1.0,1.1
2026-01-31T0600,3635A,112.3678,34.6623,洛阳市,河科大西苑校区,细颗粒物(PM2.5),113,100,112,85,95,6,,,,47,36,7,7,1.2,1
2026-01-31T0600,3636A,112.4387,34.678,洛阳市,英才小学,细颗粒物(PM2.5),143,120,116,109,109,3,,,,59,36,8,7,1.3,1.1
2026-01-31T0600,4214A,112.460027,34.694929,洛阳市,春都路1号院,细颗粒物(PM2.5),147,133,131,112,110,0,,,,44,29,7,6,1.4,1
2026-01-31T0600,2399A,114.051,33.5721,漯河市,三五一五工厂,细颗粒物(PM2.5),142,139,126,108,100,12,,,,33,24,4,4,0.9,0.9
2026-01-31T0600,2400A,114.0055,33.5698,漯河市,漯河大学,细颗粒物(PM2.5),127,105,101,96,98,13,,,,30,25,5,4,0.9,0.8
2026-01-31T0600,2401A,114.0134,33.5826,漯河市,市水利局,细颗粒物(PM2.5),144,114,113,110,106,14,,,,28,25,4,4,1.2,1.4
2026-01-31T0600,2402A,114.0261,33.5697,漯河市,市广电局,细颗粒物(PM2.5),158,,108,120,102,13,,,,26,22,5,5,0.6,0.6
2026-01-31T0600,3478A,113.9691,33.568,漯河市,市图书馆,细颗粒物(PM2.5),120,143,129,91,96,17,,,,26,23,5,5,0.7,0.9
2026-01-31T0600,4250A,114.089259,33.588274,漯河市,韶山路11号,细颗粒物(PM2.5),144,126,127,110,101,10,,,,35,28,6,5,0.8,0.8
2026-01-31T0600,1798A,118.5084,31.6838,马鞍山市,湖东路四小,,32,24,19,22,19,53,,,,16,18,2,2,0.9,0.6
2026-01-31T0600,1799A,118.5019,31.6449,马鞍山市,开发区,,26,18,21,18,17,62,,,,13,17,3,3,0.3,0.4
2026-01-31T0600,3633A,118.4914,31.681,马鞍山市,雨山,,33,27,23,23,20,57,,,,14,16,2,2,0.6,0.7
2026-01-31T0600,4191A,118.527362,31.722269,马鞍山市,慈湖高新区,,30,23,22,21,20,55,,,,16,18,4,3,0.4,0.4
2026-01-31T0600,1686A,111.0285,21.469,茂名市,电白南海,,24,24,33,16,16,46,,,,12,10,8,11,0.8,0.8
2026-01-31T0600,1687A,110.9294,21.6533,茂名市,茂石化七小,,34,34,35,21,15,44,,,,16,16,18,7,0.4,0.5
2026-01-31T0600,1688A,110.9108,21.6688,茂名市,健康路,,29,27,28,20,15,47,,,,16,15,21,11,0.7,0.7
2026-01-31T0600,1689A,110.8592,21.6826,茂名市,高岭,颗粒物(PM10),52,53,56,24,21,36,,,,15,15,13,15,/,/
2026-01-31T0600,3450A,111.0101,21.5165,茂名市,电白水东,,35,,23,24,15,48,,,,16,17,10,9,/,/
2026-01-31T0600,2540A,103.8414,30.0871,眉山市,气象局,细颗粒物(PM2.5),75,95,82,55,47,15,,,,32,30,14,13,0.7,0.7
2026-01-31T0600,3148A,103.829,30.0563,眉山市,区人社局,细颗粒物(PM2.5),82,90,79,60,47,19,,,,27,30,12,8,0.8,0.8
2026-01-31T0600,4148A,103.8836,30.0695,眉山市,眉职院,,,99,80,46,44,21,,,,29,25,,2,0.7,0.8
2026-01-31T0600,1690A,116.1248,24.3307,梅州市,梅江月梅,细颗粒物(PM2.5),63,46,23,45,21,32,,,,14,20,/,/,/,/
2026-01-31T0600,1691A,116.0798,24.2719,梅州市,梅县新城,细颗粒物(PM2.5),55,40,26,39,23,32,,,,13,23,7,7,0.6,0.5
2026-01-31T0600,3315A,116.1234,24.2994,梅州市,梅龙,细颗粒物(PM2.5),55,41,23,39,22,29,,,,12,19,7,8,0.7,0.6
2026-01-31T0600,1878A,104.7775,31.4741,绵阳市,富乐山,细颗粒物(PM2.5),68,80,68,49,39,11,,,,27,21,8,8,0.7,0.7
2026-01-31T0600,1880A,104.6698,31.4668,绵阳市,高新区自来水公司,细颗粒物(PM2.5),85,95,79,63,48,0,,,,32,28,8,8,1.0,0.8
2026-01-31T0600,3491A,104.6899,31.5324,绵阳市,西科大附属小学,细颗粒物(PM2.5),75,90,80,55,48,0,,,,33,30,8,8,0.9,0.7
2026-01-31T0600,3492A,104.5647,31.5343,绵阳市,安州区旅游局,细颗粒物(PM2.5),64,62,64,46,39,5,,,,17,20,11,9,1.1,1.1
2026-01-31T0600,4146A,104.7092,31.4972,绵阳市,科技城新区公安局,细颗粒物(PM2.5),69,84,74,50,42,5,,,,41,32,6,6,0.9,0.8
2026-01-31T0600,4226A,104.765114,31.453094,绵阳市,绵阳市气象局,颗粒物(PM10),71,92,76,49,42,1,,,,36,26,8,8,0.8,0.8
2026-01-31T0600,1784A,129.61,44.561,牡丹江市,环保大楼,,49,43,36,34,22,41,,,,27,16,10,4,0.4,0.3
2026-01-31T0600,1787A,129.6364,44.6075,牡丹江市,机车工厂,,47,47,42,24,22,41,,,,25,21,6,7,0.5,0.4
2026-01-31T0600,1788A,129.6386,44.5462,牡丹江市,第一中学,,33,25,30,23,19,46,,,,20,16,5,4,0.3,0.3
2026-01-31T0600,4287A,129.5992,44.5964,牡丹江市,东晓云街98号,细颗粒物(PM2.5),64,48,40,46,22,21,,,,47,19,7,4,0.6,0.3
2026-01-31T0600,2531A,105.0703,29.61,内江市,市监测站,,33,,29,23,20,54,,,,17,23,4,4,0.8,0.9
2026-01-31T0600,2533A,105.0657,29.5807,内江市,内江二中,,32,32,34,22,18,44,,,,18,21,7,7,0.6,0.6
2026-01-31T0600,2534A,105.0407,29.5828,内江市,内江日报社,,29,,30,20,19,40,,,,20,26,4,4,0.8,0.8
2026-01-31T0600,4147A,105.0433,29.6105,内江市,玉峰路西段888号,,33,32,31,23,19,44,,,,21,26,3,3,0.8,0.8
2026-01-31T0600,2628A,92.0653,31.4846,那曲市,那曲监测站,,13,13,28,6,27,29,,,,10,16,5,6,0.9,1
2026-01-31T0600,4243A,92.0515,31.4787,那曲市,那曲市委宣传部,,22,22,20,13,16,24,,,,14,9,7,5,1.1,0.6
2026-01-31T0600,1291A,115.8887,28.7006,南昌市,省林业公司,,20,,6,14,9,37,,,,9,17,5,3,0.4,0.4
2026-01-31T0600,1292A,115.813,28.7443,南昌市,林科所,,16,,6,11,5,36,,,,17,17,3,3,0.2,0.5
2026-01-31T0600,1294A,115.8518,28.687,南昌市,建工学校,,30,30,20,12,8,33,,,,18,25,6,7,0.7,0.9
2026-01-31T0600,1295A,115.8926,28.6425,南昌市,象湖,,23,,18,16,11,33,,,,13,18,8,8,0.7,0.8
2026-01-31T0600,3046A,115.9084,28.6062,南昌市,机电学校,,25,20,18,17,10,35,,,,14,20,4,4,0.5,0.5
2026-01-31T0600,3690A,115.9718,28.7032,南昌市,外国语学校,,16,14,15,11,9,32,,,,19,23,11,11,0.7,0.7
2026-01-31T0600,4106A,115.7923,28.6873,南昌市,工业二路,,18,18,16,12,7,44,,,,12,14,3,3,0.6,0.6
2026-01-31T0600,4192A,115.931587,28.686774,南昌市,南京东路235号,,22,22,19,14,14,35,,,,19,18,6,5,0.3,0.5
2026-01-31T0600,1906A,106.0791,30.8022,南充市,南充市委,,36,36,26,25,18,11,,,,23,29,4,4,0.6,0.7
2026-01-31T0600,1907A,106.1038,30.8215,南充市,南充炼油厂,,34,34,32,20,16,9,,,,22,22,5,5,0.7,0.8
2026-01-31T0600,4227A,106.108336,30.788436,南充市,梨树横街98号,,37,37,27,25,17,6,,,,35,26,5,6,0.6,0.7
2026-01-31T0600,4304A,106.1172,30.843,南充市,清泉寺北路188号,,33,27,19,23,15,12,,,,26,14,6,6,0.6,0.6
2026-01-31T0600,4305A,106.067,30.7616,南充市,同庆路1号,,30,30,26,21,15,4,,,,38,35,6,7,0.7,0.8
2026-01-31T0600,1151A,118.8033,32.1085,南京市,迈皋桥,,17,17,21,9,18,54,,,,26,25,5,5,0.3,0.3
2026-01-31T0600,1152A,118.7487,32.057,南京市,草场门,,20,,19,14,16,55,,,,22,26,4,4,0.5,0.6
2026-01-31T0600,1154A,118.770105,32.004342,南京市,中华门,,,22,17,16,13,,,,,13,14,3,3,0.3,0.4
2026-01-31T0600,1155A,118.8059,32.0329,南京市,瑞金路,,22,17,16,15,14,56,,,,6,9,4,4,1.0,0.9
2026-01-31T0600,1156A,118.7946,32.0774,南京市,玄武湖,,20,20,23,13,15,48,,,,29,36,4,4,0.3,0.4
2026-01-31T0600,1157A,118.6415,32.0964,南京市,浦口,,30,30,28,17,17,48,,,,20,18,4,4,0.3,0.4
2026-01-31T0600,1158A,118.730129,32.000956,南京市,奥体中心,,25,24,22,17,14,60,,,,15,15,4,4,0.3,0.3
2026-01-31T0600,1159A,118.9072,32.1047,南京市,仙林大学城,,24,24,24,8,14,51,,,,20,18,4,4,0.3,0.4
2026-01-31T0600,3422A,118.8443,31.919,南京市,江宁彩虹桥,,25,25,25,13,13,57,,,,17,20,3,3,0.5,0.6
2026-01-31T0600,3427A,118.8497,32.3599,南京市,六合雄州,,25,23,24,17,13,48,,,,18,11,6,9,0.4,0.5
2026-01-31T0600,4086A,118.7641,32.0841,南京市,新模范马路66号,,25,22,23,9,13,78,,,,2,4,5,4,0.6,0.7
2026-01-31T0600,4249A,118.8707617,31.34017673,南京市,汶溪路181号,,,20,22,8,9,,,,,17,22,4,4,0.6,0.7
2026-01-31T0600,4312A,119.019,31.6512,南京市,中山西路1号,,19,14,20,7,10,58,,,,13,17,4,3,0.6,0.6
2026-01-31T0600,1401A,108.3098,22.788,南宁市,二十一中,,13,,35,9,23,24,,,,15,16,4,4,0.7,0.6
2026-01-31T0600,1402A,108.3135,22.8529,南宁市,北湖,,16,,40,11,29,30,,,,13,22,4,2,0.9,0.9
2026-01-31T0600,1403A,108.3205,22.8222,南宁市,市监测站,,13,,37,9,24,24,,,,16,20,5,6,0.9,0.8
2026-01-31T0600,1404A,108.3828,22.8038,南宁市,大自然花园,,16,16,39,9,22,33,,,,8,12,5,6,0.8,0.7
2026-01-31T0600,1406A,108.2397,22.8462,南宁市,区农职院,,23,23,38,15,23,30,,,,14,22,5,5,1.0,0.8
2026-01-31T0600,1407A,108.3285,22.7356,南宁市,英华嘉园,,9,9,42,6,26,27,,,,10,19,3,3,0.7,0.6
2026-01-31T0600,3401A,108.4829,22.762,南宁市,红星社区,,16,14,35,11,22,32,,,,11,16,5,4,0.9,0.9
2026-01-31T0600,4132A,108.2927,23.1477,南宁市,起凤路9号,,19,19,36,12,24,33,,,,10,14,2,2,0.6,0.5
2026-01-31T0600,4221A,108.2177,22.7774,南宁市,乐贤路16号,,17,17,44,10,24,28,,,,11,24,2,2,0.9,0.8
2026-01-31T0600,2332A,118.1682,26.6371,南平市,南平市监测站,颗粒物(PM10),52,54,27,29,17,34,,,,10,18,3,4,0.5,0.7
2026-01-31T0600,2334A,118.1757,26.6276,南平市,南平七中,,,45,22,38,17,35,,,,10,15,,3,0.6,0.5
2026-01-31T0600,1168A,120.9056,31.9669,南通市,狼山街道,,21,10,19,3,10,66,,,,8,11,2,2,0.3,0.3
2026-01-31T0600,1170A,120.8635,32.0231,南通市,城中,,21,12,22,3,12,66,,,,11,13,3,4,0.5,0.6
2026-01-31T0600,1171A,120.9376,31.9301,南通市,星湖花园,,,14,20,3,10,66,,,,14,15,,3,0.3,0.4
2026-01-31T0600,1172A,120.8053,32.046,南通市,紫琅学院,,21,6,20,3,9,66,,,,10,13,3,3,0.5,0.5
2026-01-31T0600,3291A,121.0631,32.0644,南通市,通州监测站,,22,,15,3,11,68,,,,14,12,2,2,0.3,0.3
2026-01-31T0600,3432A,120.9348,31.9874,南通市,环境教育馆,,22,12,22,3,9,70,,,,8,10,3,3,0.4,0.4
2026-01-31T0600,4091A,120.8692,31.9885,南通市,洪江路,,21,9,17,3,10,67,,,,9,13,3,3,0.4,0.4
2026-01-31T0600,2404A,112.5338,33.0086,南阳市,瓦房庄,细颗粒物(PM2.5),97,96,87,72,65,32,,,,19,16,3,3,0.9,0.9
2026-01-31T0600,2405A,112.5002,32.9734,南阳市,汉画馆,细颗粒物(PM2.5),122,93,90,92,91,35,,,,23,20,5,6,0.9,0.9
2026-01-31T0600,2406A,112.5778,33.0144,南阳市,气象站,细颗粒物(PM2.5),109,104,101,82,72,34,,,,20,20,4,4,0.8,0.8
2026-01-31T0600,2407A,112.548,32.9687,南阳市,理工学院,细颗粒物(PM2.5),105,89,86,79,72,27,,,,23,22,4,4,0.8,0.8
2026-01-31T0600,4008A,112.5233,32.9921,南阳市,卧龙区政府,细颗粒物(PM2.5),105,106,97,79,73,38,,,,21,21,5,4,0.9,0.9
2026-01-31T0600,1234A,121.8352,29.9111,宁波市,区环保大楼,,16,6,25,3,13,49,,,,32,35,3,5,0.4,0.4
2026-01-31T0600,1235A,121.5595,29.8208,宁波市,万里学院,,22,11,38,3,12,69,,,,11,36,2,2,0.6,0.7
2026-01-31T0600,1236A,121.713,29.9564,宁波市,龙赛医院,,24,6,24,3,8,74,,,,10,23,3,3,0.3,0.4
2026-01-31T0600,1240A,121.5855,29.8635,宁波市,太古小学,,22,6,26,3,11,70,,,,7,21,2,2,0.4,0.5
2026-01-31T0600,1241A,121.5239,29.8673,宁波市,市环境监测中心,,20,16,34,3,12,63,,,,9,28,5,6,0.3,0.5
2026-01-31T0600,2871A,121.6156,29.9015,宁波市,万里国际学校,,22,11,32,3,13,70,,,,12,31,2,3,0.2,0.3
2026-01-31T0600,3710A,121.5593,29.8976,宁波市,白沙活动中心,,21,11,30,6,15,65,,,,10,26,3,4,0.2,0.2
2026-01-31T0600,4095A,121.8962,29.7529,宁波市,中科路88号,,23,6,18,3,8,71,,,,14,18,5,5,0.3,0.3
2026-01-31T0600,2341A,119.5387,26.6611,宁德市,宁德市监测站,,15,,35,7,24,46,,,,16,37,3,4,0.5,0.8
2026-01-31T0600,3209A,119.5231,26.6562,宁德市,宁德一中,,16,,32,9,26,49,,,,10,26,3,2,0.4,0.6
2026-01-31T0600,2618A,98.859,25.8541,怒江傈僳族自治州,州监测站,细颗粒物(PM2.5),57,47,44,40,32,51,,,,8,9,6,6,0.4,0.4
2026-01-31T0600,2619A,98.8607,25.8168,怒江傈僳族自治州,泸水一中,细颗粒物(PM2.5),52,,36,36,30,47,,,,8,13,4,4,0.5,0.5
2026-01-31T0600,1888A,101.6891,26.571,攀枝花市,弄弄坪,颗粒物(PM10),52,53,63,25,25,19,,,,44,37,26,54,1.1,2.2
2026-01-31T0600,1889A,101.577,26.5914,攀枝花市,河门口,,,43,49,21,24,,,,,20,24,13,17,0.6,0.8
2026-01-31T0600,1891A,101.7365,26.4986,攀枝花市,仁和,,30,29,34,21,22,34,,,,15,17,8,8,0.6,0.6
2026-01-31T0600,2835A,101.7222,26.567,攀枝花市,四十中小,,48,48,39,31,21,10,,,,53,37,18,15,1.1,1
2026-01-31T0600,1604A,122.0303,41.1489,盘锦市,开发区,细颗粒物(PM2.5),119,99,55,90,39,7,,,,45,28,16,10,2.5,1.2
2026-01-31T0600,1605A,122.0486,41.0883,盘锦市,兴隆台,细颗粒物(PM2.5),114,109,55,86,42,0,,,,70,44,,14,2.0,0.9
2026-01-31T0600,1606A,121.8297,41.1026,盘锦市,新生街道,细颗粒物(PM2.5),85,68,46,63,33,15,,,,53,41,21,10,1.4,0.7
2026-01-31T0600,1832A,113.3257,33.7423,平顶山市,新华旅馆,细颗粒物(PM2.5),145,133,118,111,97,34,,,,19,28,,5,0.8,0.8
2026-01-31T0600,1833A,113.2917,33.737,平顶山市,规划设计院,细颗粒物(PM2.5),124,129,114,94,88,29,,,,16,20,6,5,0.8,0.8
2026-01-31T0600,1834A,113.182,33.7738,平顶山市,平顶山工学院,细颗粒物(PM2.5),124,101,101,94,94,27,,,,18,18,7,6,0.8,0.8
2026-01-31T0600,3594A,112.8736,33.9068,平顶山市,石龙区,细颗粒物(PM2.5),118,121,110,89,100,12,,,,40,17,5,5,1.0,1.1
2026-01-31T0600,4116A,113.284,33.7139,平顶山市,姚电大道23号,细颗粒物(PM2.5),129,130,118,98,98,14,,,,28,28,5,6,0.9,0.8
2026-01-31T0600,2656A,106.6633,35.5338,平凉市,聚贤嘉苑,颗粒物(PM10),113,175,156,44,41,43,,,,15,18,11,8,0.6,0.7
2026-01-31T0600,2657A,106.7021,35.5307,平凉市,博物馆,颗粒物(PM10),115,179,156,57,56,38,,,,20,20,9,9,0.6,0.6
2026-01-31T0600,2348A,113.8384,27.6436,萍乡市,中医院,,46,46,39,30,24,22,,,,18,25,3,4,0.9,1.1
2026-01-31T0600,2350A,113.8677,27.6438,萍乡市,市环保局,,,,27,,21,,,20,,,23,,8,,1.0
2026-01-31T0600,2351A,113.8663,27.6202,萍乡市,安源区政府,,36,34,38,25,20,23,,,,2,9,2,3,0.4,0.6
2026-01-31T0600,4107A,113.8686,27.6668,萍乡市,联洪村委会,,,45,37,34,26,24,,,,20,28,,3,0.9,1.1
2026-01-31T0600,2319A,119.0142,25.4324,莆田市,荔城区仓后路,,14,7,29,7,20,44,,,,17,25,/,/,/,/
2026-01-31T0600,2320A,119.0016,25.4553,莆田市,莆田市监测站,,16,,22,7,16,49,,,,12,18,3,3,0.4,0.5
2026-01-31T0600,2321A,119.112,25.4561,莆田市,涵江区六中,,15,13,24,3,15,47,,,,14,22,/,/,0.5,0.5
2026-01-31T0600,2322A,119.1014,25.3215,莆田市,秀屿区政府,,20,8,23,3,19,63,,,,8,14,4,5,0.7,0.6
2026-01-31T0600,2392A,115.0312,35.7636,濮阳市,环保局,细颗粒物(PM2.5),120,93,90,91,87,33,,,,22,21,6,5,1.1,1.2
2026-01-31T0600,3021A,115,35.7667,濮阳市,濮水河管理处,细颗粒物(PM2.5),133,127,111,101,92,25,,,,22,23,4,5,1.1,1
2026-01-31T0600,4118A,115.0552,35.7816,濮阳市,中原东路68号,细颗粒物(PM2.5),127,130,117,96,86,35,,,,24,26,4,4,1.4,1.2
2026-01-31T0600,4216A,115.0923632,35.76857718,濮阳市,任丘路479号,细颗粒物(PM2.5),128,140,119,97,95,26,,,,28,31,4,5,1.0,1
2026-01-31T0600,2601A,100.9801,22.7634,普洱市,市环保局,,48,48,56,20,26,36,,,,6,11,4,4,0.4,0.5
2026-01-31T0600,2602A,100.9763,22.8237,普洱市,普洱第二中学,,40,40,57,24,30,17,,,,22,23,5,5,0.2,0.2
2026-01-31T0600,3345A,131.0413,45.7795,七台河市,中波台,,49,46,33,34,22,46,,,,17,10,11,9,0.5,0.5
2026-01-31T0600,3637A,131.0136,45.7688,七台河市,人民广场,,47,47,38,30,22,48,,,,25,19,8,8,0.6,0.5
2026-01-31T0600,3684A,130.8639,45.8144,七台河市,新建矿广场,,39,39,35,25,23,41,,,,19,13,4,7,0.5,0.5
2026-01-31T0600,1779A,123.9307,47.3641,齐齐哈尔市,安居小区,,24,24,30,11,12,52,,,,17,22,10,8,0.3,0.4
2026-01-31T0600,1780A,123.9497,47.3389,齐齐哈尔市,中心广场,,21,21,22,12,13,63,,,,9,16,7,6,0.4,0.5
2026-01-31T0600,1781A,123.9483,47.3229,齐齐哈尔市,农牧车辆厂,,19,19,29,8,13,59,,,,7,15,5,5,0.3,0.4
2026-01-31T0600,1783A,123.9442,47.2994,齐齐哈尔市,市环境监测站,,,17,30,10,11,63,,,,10,20,,4,0.3,0.5
2026-01-31T0600,3662A,123.6341,47.2079,齐齐哈尔市,富区青少年活动中心,,20,19,38,6,13,63,,,,10,12,8,5,0.3,0.4
2026-01-31T0600,2591A,107.9765,26.5724,黔东南苗族侗族自治州,市环境监测站,,35,35,13,22,11,64,,,,5,8,4,4,0.6,0.7
2026-01-31T0600,2881A,107.8909,26.531,黔东南苗族侗族自治州,凯里学院,,38,,12,26,13,59,,,,12,14,3,3,0.6,0.8
2026-01-31T0600,2593A,107.5223,26.2371,黔南布依族苗族自治州,小围寨,,25,17,8,17,8,45,,,,6,6,6,5,0.8,1
2026-01-31T0600,3538A,107.5175,26.2977,黔南布依族苗族自治州,沙坝,,20,17,14,14,9,52,,,,8,8,4,5,0.7,0.9
2026-01-31T0600,2589A,104.9022,25.0943,黔西南布依族苗族自治州,场坝街,,24,24,44,15,33,36,,,,11,15,5,4,0.9,0.9
2026-01-31T0600,2590A,104.8812,25.0994,黔西南布依族苗族自治州,坪东大道,,21,21,43,12,31,31,,,,12,12,6,6,1.0,1
2026-01-31T0600,2502A,108.6238,21.9667,钦州市,市环保站,,24,24,58,11,32,20,,,,13,18,2,3,0.8,0.7
2026-01-31T0600,2503A,108.655,21.9481,钦州市,沙埠小学,,20,20,55,10,24,25,,,,13,21,3,5,0.7,0.5
2026-01-31T0600,2504A,108.5989,21.7435,钦州市,港区一小,,24,24,65,16,25,19,,,,20,28,2,2,0.8,0.7
2026-01-31T0600,3404A,108.5959,21.9634,钦州市,北职校,,27,27,50,3,24,21,,,,12,20,2,3,0.9,0.8
2026-01-31T0600,1046A,119.5247,39.9346,秦皇岛市,建设大厦,细颗粒物(PM2.5),117,115,87,88,60,10,,,,51,32,15,10,1.3,0.9
2026-01-31T0600,3132A,119.5979,39.938,秦皇岛市,文明里,细颗粒物(PM2.5),105,112,82,79,54,11,,,,58,35,17,14,1.2,0.7
2026-01-31T0600,4066A,119.7458,39.9952,秦皇岛市,南园路157号,细颗粒物(PM2.5),103,96,75,77,56,10,,,,60,40,12,12,1.3,0.8
2026-01-31T0600,4067A,119.5131,39.8858,秦皇岛市,翠岛大街1号,细颗粒物(PM2.5),119,105,80,90,58,17,,,,58,46,19,11,1.2,0.8
2026-01-31T0600,4198A,119.509013,39.825305,秦皇岛市,北戴河轮滑馆,细颗粒物(PM2.5),102,114,80,76,53,24,,,,46,36,15,10,1.2,0.8
2026-01-31T0600,1310A,120.404,36.0625,青岛市,市南区东部子站,,36,36,32,20,13,43,,,,38,21,11,9,0.6,0.4
2026-01-31T0600,1311A,120.362344,36.10282,青岛市,四方区子站,,44,44,44,29,19,53,,,,28,24,8,6,0.8,0.8
2026-01-31T0600,1312A,120.294373,36.054183,青岛市,市南区西部子站,,43,41,30,30,16,21,,,,56,29,4,6,0.6,0.5
2026-01-31T0600,1313A,120.4581,36.0858,青岛市,崂山区子站,,34,34,24,19,12,40,,,,36,20,10,9,0.5,0.4
2026-01-31T0600,1315A,120.3945,36.3083,青岛市,城阳区子站,细颗粒物(PM2.5),52,48,45,36,26,28,,,,56,39,6,7,0.8,0.7
2026-01-31T0600,3642A,120.3454,36.0735,青岛市,市北区南部,,41,41,32,22,14,48,,,,27,24,4,3,0.6,0.5
2026-01-31T0600,3643A,120.3897,36.18,青岛市,李沧区北部,,43,31,37,30,23,12,,,,55,33,8,9,0.7,0.6
2026-01-31T0600,4110A,120.5222,36.4089,青岛市,盟旺路653号,颗粒物(PM10),62,73,43,40,21,9,,,,69,25,4,4,1.5,0.7
2026-01-31T0600,4290A,120.196923,35.954556,青岛市,珠江路669号,,35,24,26,24,17,57,,,,20,23,5,6,0.5,0.4
2026-01-31T0600,4291A,120.0424,35.8656,青岛市,黄岛区人民政府广场,,46,46,36,23,16,48,,,,34,27,9,8,1.0,0.8
2026-01-31T0600,1703A,113.0218,23.7086,清远市,凤城街办,,18,18,47,10,32,42,,,,13,30,/,/,/,/
2026-01-31T0600,3025A,113.0479,23.6343,清远市,技师学院,,21,21,49,11,27,38,,,,15,36,4,6,0.8,0.7
2026-01-31T0600,3318A,112.9898,23.7403,清远市,清新太和,,16,16,51,9,31,45,,,,13,31,7,8,0.8,0.7
2026-01-31T0600,3455A,113.076,23.72,清远市,清城东城,,22,22,45,13,26,41,,,,9,24,/,/,/,/
2026-01-31T0600,2661A,107.6325,35.7357,庆阳市,庆阳五中,颗粒物(PM10),119,188,145,55,57,64,,,,12,14,4,5,0.7,0.6
2026-01-31T0600,2662A,107.6361,35.7067,庆阳市,市环保局,颗粒物(PM10),103,155,142,53,55,58,,,,18,14,7,4,0.5,0.6
2026-01-31T0600,1916A,103.7897,25.5036,曲靖市,环境监测站,,42,34,37,29,22,30,,,,15,13,8,5,0.9,0.6
2026-01-31T0600,1917A,103.8013,25.5357,曲靖市,烟厂办公区,,38,38,36,22,18,29,,,,16,12,6,4,0.8,0.5
2026-01-31T0600,3376A,103.7926,25.4651,曲靖市,南苑二区,,45,39,34,31,21,32,,,,12,8,5,4,0.9,0.5
2026-01-31T0600,3377A,103.7442,25.5259,曲靖市,曲靖师范学院,,46,40,39,32,24,24,,,,19,17,8,4,0.8,0.5
2026-01-31T0600,1264A,118.8694,28.94,衢州市,环保大楼,,15,8,28,7,16,46,,,,16,24,/,/,/,/
2026-01-31T0600,1266A,118.8622,28.9809,衢州市,衢州学院,,13,6,21,6,12,28,,,,26,22,4,4,0.3,0.4
2026-01-31T0600,4097A,118.9646,28.9832,衢州市,衢州三中,,12,9,21,3,12,36,,,,23,27,4,4,0.2,0.4
2026-01-31T0600,1611A,118.5818,24.9116,泉州市,涂山街,,,,25,21,23,45,,,,13,20,,3,0.7,0.6
2026-01-31T0600,1612A,118.597,24.8976,泉州市,津头埔,,30,,26,21,25,46,,,,13,21,3,2,0.6,0.5
2026-01-31T0600,1613A,118.6669,24.9422,泉州市,万安,,23,,29,16,22,48,,,,13,22,4,3,0.8,0.7
2026-01-31T0600,4105A,118.6355,24.9148,泉州市,霞新路6号,,28,21,32,19,24,45,,,,14,25,/,/,0.6,0.5
2026-01-31T0600,2626A,88.8873,29.2723,日喀则市,日喀则监测站,,22,7,26,3,22,70,,,,4,15,6,9,0.3,0.6
2026-01-31T0600,3726A,88.8775,29.2425,日喀则市,林业技术推广中心,,25,6,11,3,5,78,,,,4,6,5,5,0.5,0.4
2026-01-31T0600,1659A,119.4711,35.421,日照市,监测站,颗粒物(PM10),51,51,40,30,19,3,,,,60,34,10,9,1.0,0.7
2026-01-31T0600,1660A,119.523,35.4216,日照市,市政府广场,,31,31,35,20,15,44,,,,35,30,8,8,0.5,0.4
2026-01-31T0600,1661A,119.5511,35.4113,日照市,港务局,,41,41,40,21,13,30,,,,51,32,8,7,0.7,0.5
2026-01-31T0600,3507A,119.5326,35.4627,日照市,职业技术学院,,39,39,36,21,18,43,,,,34,30,8,9,0.8,0.8
2026-01-31T0600,3604A,119.3267,35.1043,日照市,岚山环保分局,颗粒物(PM10),73,95,42,50,14,31,,,,45,24,14,10,2.5,0.8
2026-01-31T0600,1835A,111.1922,34.7752,三门峡市,市政府,细颗粒物(PM2.5),163,,92,124,117,18,,,,41,28,7,7,1.1,1
2026-01-31T0600,1836A,111.1588,34.794,三门峡市,开发区,细颗粒物(PM2.5),150,128,122,115,107,20,,,,44,27,5,6,1.0,1
2026-01-31T0600,3039A,111.1911,34.7829,三门峡市,三门峡市第一小学,细颗粒物(PM2.5),153,,100,117,107,,,,,27,25,5,6,1.0,1
2026-01-31T0600,3598A,111.1031,34.719,三门峡市,富达温泉假日酒店,细颗粒物(PM2.5),152,132,120,116,109,,,,,46,37,7,6,1.3,1
2026-01-31T0600,2324A,117.621,26.2626,三明市,三钢,,40,36,35,28,25,32,,,,13,20,9,7,1.0,0.8
2026-01-31T0600,2325A,117.6352,26.2714,三明市,三明二中,,39,35,26,27,20,33,,,,13,18,4,4,1.0,0.9
2026-01-31T0600,2326A,117.6028,26.2377,三明市,三元区政府,,33,25,36,23,24,35,,,,12,26,4,6,0.8,1
2026-01-31T0600,1877A,109.4962,18.2682,三亚市,河西子站,,35,35,31,15,13,32,,,,17,12,1,3,0.4,0.4
2026-01-31T0600,3540A,109.7348,18.3443,三亚市,君悦子站,,14,14,43,6,10,34,,,,14,9,4,4,0.3,0.3
2026-01-31T0600,4135A,109.1714,18.3739,三亚市,城东小学站,,20,18,29,14,15,35,,,,11,10,/,/,/,/
2026-01-31T0600,2624A,91.7592,29.234,山南市,山南监测站,,16,10,23,3,9,50,,,,5,12,4,4,0.6,0.6
2026-01-31T0600,2625A,91.7701,29.2436,山南市,山南人民医院,,15,15,23,8,10,40,,,,10,9,6,7,0.6,0.6
2026-01-31T0600,1674A,116.6795,23.3666,汕头市,金平子站,,30,27,36,21,25,53,,,,13,20,5,13,0.8,0.8
2026-01-31T0600,1675A,116.7248,23.3632,汕头市,龙湖子站,,32,23,33,22,24,54,,,,10,15,9,10,/,/
2026-01-31T0600,1676A,116.7257,23.2774,汕头市,濠江子站,,,20,30,19,20,,,,,12,16,7,7,/,/
2026-01-31T0600,1677A,116.7518,23.4712,汕头市,澄海子站,,26,26,42,17,25,57,,,,7,17,6,8,0.7,0.7
2026-01-31T0600,1678A,116.6088,23.2539,汕头市,潮阳子站,,35,,32,24,23,56,,,,10,13,6,6,0.5,0.5
2026-01-31T0600,3444A,116.4539,23.2684,汕头市,潮南峡山,细颗粒物(PM2.5),53,54,58,37,34,46,,,,15,20,7,8,0.6,0.7
2026-01-31T0600,3624A,116.4069,23.2533,汕头市,潮南子站,"颗粒物(PM10),细颗粒物(PM2.5)",57,64,70,40,34,41,,,,17,22,6,8,/,/
2026-01-31T0600,1693A,115.3653,22.7751,汕尾市,市环保局,,,21,40,21,23,,,,,10,14,7,7,0.7,0.7
2026-01-31T0600,1695A,115.362,22.7926,汕尾市,新城中学,,28,28,36,19,22,46,,,,9,14,5,6,0.6,0.6
2026-01-31T0600,2645A,109.9155,33.8714,商洛市,监测站,细颗粒物(PM2.5),64,74,51,46,44,37,,,,16,19,4,4,0.8,0.9
2026-01-31T0600,3045A,109.9647,33.8486,商洛市,商州区中学,,,,41,,44,,,45,,,19,,4,,1.1
2026-01-31T0600,2408A,115.6701,34.4283,商丘市,环境监测站,细颗粒物(PM2.5),180,146,147,136,121,1,,,,40,33,3,3,0.8,0.8
2026-01-31T0600,2409A,115.6458,34.4047,商丘市,粮食局,细颗粒物(PM2.5),180,142,132,136,118,10,,,,30,33,2,2,0.7,0.8
2026-01-31T0600,3171A,115.6069,34.4465,商丘市,梁园区档案局,细颗粒物(PM2.5),160,123,120,122,110,12,,,,27,32,3,3,0.7,0.8
2026-01-31T0600,4119A,115.6701,34.3767,商丘市,北海东路185号,细颗粒物(PM2.5),153,154,149,117,110,3,,,,35,30,2,2,0.9,0.9
2026-01-31T0600,4120A,115.6172,34.3704,商丘市,中山大街3号,细颗粒物(PM2.5),148,155,150,113,115,1,,,,39,33,5,5,0.8,0.8
2026-01-31T0600,1141A,121.401,31.2382,上海市,普陀,,21,,21,12,18,65,,,,15,18,5,5,0.4,0.4
2026-01-31T0600,1142A,121.4774,31.2043,上海市,十五厂,,22,6,21,6,14,69,,,,15,23,6,6,0.3,0.5
2026-01-31T0600,1143A,121.4673,31.3011,上海市,虹口,,20,7,23,3,13,61,,,,11,16,6,6,0,0.1
2026-01-31T0600,1147A,121.4253,31.226,上海市,静安监测站,,23,6,19,6,13,72,,,,15,20,6,6,0.5,0.7
2026-01-31T0600,1148A,121.7029,31.1905,上海市,浦东川沙,,22,10,22,6,14,68,,,,14,12,8,7,0.5,0.5
2026-01-31T0600,1149A,121.5339,31.229,上海市,浦东新区监测站,,,7,21,6,16,61,,,,9,10,,5,0.4,0.5
2026-01-31T0600,1150A,121.5776,31.2038,上海市,浦东张江,,,8,24,7,14,73,,,,11,16,,6,0.2,0.3
2026-01-31T0600,3265A,121.4242,31.3303,上海市,宝山庙行,,19,7,22,6,13,59,,,,18,18,7,8,0.4,0.3
2026-01-31T0600,3266A,121.8789,31.4662,上海市,崇明上实东滩,,26,6,20,3,12,83,,,,2,4,4,4,0,0
2026-01-31T0600,3268A,121.316,31.2839,上海市,嘉定南翔,,20,10,22,8,13,61,,,,19,19,2,3,0.1,0.3
2026-01-31T0600,3269A,121.3357,30.7455,上海市,金山新城,,20,,21,14,17,55,,,,21,20,7,7,0.5,0.6
2026-01-31T0600,3270A,121.4996,31.0741,上海市,闵行浦江,,21,8,20,8,14,65,,,,13,14,6,5,0.3,0.5
2026-01-31T0600,3271A,121.2886,31.1663,上海市,青浦徐泾,,21,11,21,10,15,65,,,,19,26,4,4,0.3,0.4
2026-01-31T0600,3272A,121.2193,31.0382,上海市,松江图书馆,,20,15,19,13,14,61,,,,17,21,5,5,0.4,0.4
2026-01-31T0600,3273A,121.3904,31.206,上海市,长宁仙霞,,21,7,18,3,11,67,,,,7,12,6,6,0,0
2026-01-31T0600,3274A,121.7964,31.0507,上海市,浦东惠南,,24,,20,10,11,74,,,,16,15,4,4,0.5,0.5
2026-01-31T0600,3544A,121.4891,30.925,上海市,奉贤南桥新城,,22,,21,8,17,69,,,,11,13,2,3,0.5,0.5
2026-01-31T0600,4183A,121.417401,31.16637,上海市,冠生园路458号,,22,6,20,6,15,70,,,,15,21,4,4,0.3,0.3
2026-01-31T0600,4205A,121.541914,31.268301,上海市,宁武路151号,,20,6,23,3,13,62,,,,22,25,5,5,0.3,0.4
2026-01-31T0600,2382A,117.9758,28.4439,上饶市,市监测站,,15,15,39,6,23,37,,,,17,22,27,11,/,/
2026-01-31T0600,2383A,117.9521,28.4637,上饶市,凤凰光学,,12,12,39,6,18,26,,,,20,26,27,12,0.9,0.9
2026-01-31T0600,3685A,117.897,28.4316,上饶市,双创科技城,,15,15,38,9,19,37,,,,24,31,30,10,1.1,1
2026-01-31T0600,4211A,118.190438,28.444845,上饶市,裕丰大道,,16,16,33,3,15,28,,,,27,30,27,12,0.8,0.7
2026-01-31T0600,1669A,113.5821,24.7733,韶关市,市八中,,10,10,48,3,30,29,,,,17,23,7,10,0.8,0.8
2026-01-31T0600,1671A,113.5916,24.7973,韶关市,园林处,,15,15,36,7,30,30,,,,16,23,5,8,/,/
2026-01-31T0600,1673A,113.5971,24.6864,韶关市,曲江监测站,,11,11,43,7,29,30,,,,17,25,7,11,0.8,0.8
2026-01-31T0600,2809A,113.6668,24.7756,韶关市,大学路288号,,10,10,38,7,26,26,,,,19,23,4,8,/,/
2026-01-31T0600,3622A,113.5556,24.8082,韶关市,碧湖山庄,,14,14,52,7,32,28,,,,18,21,7,8,0.8,0.9
2026-01-31T0600,2464A,111.5277,27.2442,邵阳市,市化工厂,细颗粒物(PM2.5),53,38,21,37,22,40,,,,6,9,3,10,0.6,0.7
2026-01-31T0600,2466A,111.4327,27.2276,邵阳市,市环保局,,42,,15,29,20,52,,,,11,15,6,6,0.7,0.9
2026-01-31T0600,4218A,111.446,27.2472,邵阳市,北塔二期4-26地块,,33,,13,23,19,44,,,,4,9,5,5,0.8,1
2026-01-31T0600,4219A,111.4739,27.2282,邵阳市,邵水西路287号,,46,,20,32,19,42,,,,8,12,6,7,0.9,1
2026-01-31T0600,1247A,120.6053,29.9927,绍兴市,城东开发委,,26,22,26,18,14,33,,,,31,28,7,7,0.5,0.5
2026-01-31T0600,2921A,120.5482,30.0003,绍兴市,树下王站,,26,18,24,18,15,31,,,,27,23,6,6,0.3,0.2
2026-01-31T0600,3408A,120.5685,29.936,绍兴市,绍兴中专,,26,18,23,18,14,30,,,,18,15,7,6,0.4,0.5
2026-01-31T0600,3409A,120.4905,30.086,绍兴市,柯桥区政府,,33,33,27,15,14,32,,,,36,32,5,4,0.6,0.6
2026-01-31T0600,3410A,120.8751,30.0249,绍兴市,重华小学,,26,21,24,18,16,40,,,,31,29,6,6,0.3,0.3
2026-01-31T0600,3411A,120.837,30.0137,绍兴市,上虞中学,,,24,23,15,12,38,,,,25,22,,7,0.5,0.5
2026-01-31T0600,3560A,120.4715,30.0414,绍兴市,柯桥妇保,,35,26,27,24,17,23,,,,29,23,5,5,0.5,0.4
2026-01-31T0600,3658A,120.6156,30.0762,绍兴市,袍江中学,,25,,21,17,15,28,,,,25,22,6,6,0.5,0.4
2026-01-31T0600,1356A,114.0948,22.5506,深圳市,通心岭子站,,34,34,40,19,24,26,,,,20,32,7,7,0.6,0.7
2026-01-31T0600,1357A,114.1153,22.5713,深圳市,洪湖,,36,36,45,20,24,29,,,,22,43,5,5,0.9,1
2026-01-31T0600,1358A,113.9823,22.5398,深圳市,华侨城,,43,43,39,24,22,19,,,,31,40,/,/,/,/
2026-01-31T0600,1359A,113.9181,22.517,深圳市,南海子站,颗粒物(PM10),54,58,47,35,28,2,,,,50,48,7,6,1.0,1
2026-01-31T0600,1360A,114.2345,22.565,深圳市,盐田,,32,32,36,19,17,0,,,,63,44,10,8,0.7,0.7
2026-01-31T0600,1363A,114.4911,22.5381,深圳市,南澳,,40,40,30,22,14,42,,,,13,11,/,/,/,/
2026-01-31T0600,1364A,114.41,22.6346,深圳市,葵涌,,14,14,33,8,20,32,,,,12,23,7,7,0.7,0.7
2026-01-31T0600,1365A,114.2967,22.5978,深圳市,梅沙,,17,6,26,3,13,52,,,,9,18,/,/,/,/
2026-01-31T0600,1366A,114.0563,22.7353,深圳市,观澜,颗粒物(PM10),51,51,51,31,29,3,,,,41,36,8,8,0.9,0.9
2026-01-31T0600,3305A,114.0614,22.556,深圳市,莲花,,40,40,43,26,27,22,,,,27,43,/,/,/,/
2026-01-31T0600,3306A,114.0144,22.6163,深圳市,民治,颗粒物(PM10),52,54,52,32,31,9,,,,46,46,/,/,/,/
2026-01-31T0600,3307A,114.1756,22.6421,深圳市,横岗,,,47,57,25,34,,,,,19,40,/,/,/,/
2026-01-31T0600,3447A,114.344,22.7115,深圳市,坪山,,32,32,52,19,29,32,,,,13,40,8,8,0.8,0.9
2026-01-31T0600,3623A,113.8952,22.586,深圳市,西乡,,,51,43,31,26,,,,,37,41,6,6,0.8,0.8
2026-01-31T0600,4220A,114.214113,22.713717,深圳市,黄阁路,,27,27,40,17,25,34,,,,16,29,6,6,0.9,1
2026-01-31T0600,1099A,123.5058,41.7084,沈阳市,浑南东路,细颗粒物(PM2.5),163,150,118,124,102,7,,,,79,82,,15,2.2,1.4
2026-01-31T0600,1100A,123.4238,41.6992,沈阳市,新秀街,细颗粒物(PM2.5),138,140,101,105,77,9,,,,68,74,,12,1.9,1.4
2026-01-31T0600,1102A,123.5903,41.8412,沈阳市,东陵路,细颗粒物(PM2.5),113,102,114,85,93,14,,,,56,63,,13,1.8,1.6
2026-01-31T0600,1103A,123.4267,41.8466,沈阳市,陵东街,细颗粒物(PM2.5),156,139,102,119,75,0,,,,46,44,,15,3.5,1.7
2026-01-31T0600,1104A,123.4116,41.7654,沈阳市,文化路,细颗粒物(PM2.5),139,151,112,106,79,0,,,,68,69,,18,2.1,1.4
2026-01-31T0600,1105A,123.4673,41.787,沈阳市,小河沿,细颗粒物(PM2.5),155,132,115,118,102,3,,,,67,73,,15,3.0,1.9
2026-01-31T0600,1106A,123.4019,41.7978,沈阳市,太原街,细颗粒物(PM2.5),179,184,110,135,82,1,,,,63,62,,29,1.9,1.2
2026-01-31T0600,1108A,123.3778,41.9233,沈阳市,京沈街,细颗粒物(PM2.5),150,148,86,115,66,2,,,,73,58,,15,3.2,1.5
2026-01-31T0600,2897A,123.2429,41.7341,沈阳市,沈辽西路,细颗粒物(PM2.5),123,122,102,93,72,12,,,,78,71,12,16,1.6,1.2
2026-01-31T0600,2900A,123.5951,41.9085,沈阳市,裕农路,,,88,93,70,73,37,,,,38,45,,8,1.6,1.5
2026-01-31T0600,2429A,110.78,32.6494,十堰市,滨河新村,细颗粒物(PM2.5),72,,63,52,64,13,,,,33,32,/,/,1.1,1.2
2026-01-31T0600,2430A,110.7305,32.6408,十堰市,刘家沟,颗粒物(PM10),54,58,83,32,59,24,,,,6,20,/,/,/,/
2026-01-31T0600,2431A,110.8843,32.5712,十堰市,铁二处,细颗粒物(PM2.5),65,57,66,47,65,13,,,,14,28,7,7,1.0,1.1
2026-01-31T0600,3545A,110.8053,32.8401,十堰市,郧阳区金沙路,细颗粒物(PM2.5),60,,48,43,46,44,,,,8,14,3,5,0.8,1.1
2026-01-31T0600,2709A,86.0391,44.298,石河子市,艾青诗歌馆,细颗粒物(PM2.5),128,122,212,97,134,12,,,,64,41,7,7,1.7,1.5
2026-01-31T0600,3442A,86.047,44.2331,石河子市,南区管委会,细颗粒物(PM2.5),65,70,148,47,100,88,,,,13,23,9,9,1.2,1.6
2026-01-31T0600,4051A,86.0791,44.3018,石河子市,世纪广场,细颗粒物(PM2.5),129,121,152,98,129,21,,,,60,52,7,7,1.5,1.6
2026-01-31T0600,4167A,86.0126,44.2349,石河子市,城南景苑小区,颗粒物(PM10),64,77,163,32,96,83,,,,8,16,4,4,0.7,1.1
2026-01-31T0600,1030A,114.5919,38.0328,石家庄市,高新区,细颗粒物(PM2.5),142,137,121,108,87,,,,,51,32,4,5,1.0,0.8
2026-01-31T0600,1032A,114.4556,38.0136,石家庄市,西南高教,细颗粒物(PM2.5),159,161,132,121,99,,,,,54,38,2,3,0.9,0.7
2026-01-31T0600,1033A,114.533,38.0177,石家庄市,世纪公园,细颗粒物(PM2.5),155,157,120,118,88,4,,,,60,34,4,5,1.1,0.8
2026-01-31T0600,1034A,114.5105,38.0489,石家庄市,人民会堂,细颗粒物(PM2.5),158,149,120,120,97,,,,,52,29,3,2,1.0,0.8
2026-01-31T0600,3456A,114.2887,38.0905,石家庄市,鹿泉一中,细颗粒物(PM2.5),170,147,140,129,102,2,,,,46,35,2,3,0.9,0.8
2026-01-31T0600,4024A,114.6491,37.9014,石家庄市,栾城区星河路,细颗粒物(PM2.5),173,152,118,131,104,5,,,,62,44,5,6,1.1,0.8
2026-01-31T0600,4059A,114.4563,38.0365,石家庄市,裕华西路63号,细颗粒物(PM2.5),180,139,112,136,112,0,,,,53,35,2,3,1.1,0.9
2026-01-31T0600,4060A,114.5586,38.0581,石家庄市,和平路363号,细颗粒物(PM2.5),150,129,111,115,98,2,,,,56,39,3,2,1.1,0.9
2026-01-31T0600,4061A,114.8347,38.0213,石家庄市,廉州西路160号,细颗粒物(PM2.5),199,167,119,149,102,2,,,,46,24,1,1,1.3,1.1
2026-01-31T0600,4062A,114.4498,38.0729,石家庄市,北城路41号,细颗粒物(PM2.5),138,164,134,105,87,6,,,,52,31,,2,1.0,0.8
2026-01-31T0600,4314A,114.0494,38.059,石家庄市,矿区区委大楼,细颗粒物(PM2.5),153,162,167,117,107,2,,,,36,28,6,8,1.0,0.9
2026-01-31T0600,1948A,106.3668,39.0145,石嘴山市,大武口朝阳西街,颗粒物(PM10),126,202,230,53,70,25,,,,28,32,12,28,0.6,1
2026-01-31T0600,1949A,106.7713,39.2278,石嘴山市,惠农南大街,颗粒物(PM10),101,152,198,42,62,14,,,,36,33,10,18,0.7,1.3
2026-01-31T0600,1950A,106.7074,39.1332,石嘴山市,红果子镇惠新街,颗粒物(PM10),88,125,195,30,62,19,,,,27,29,5,19,0.4,1
2026-01-31T0600,3520A,106.3495,38.9837,石嘴山市,妇女儿童医院,颗粒物(PM10),141,232,219,52,68,25,,,,30,34,8,24,0.9,1.1
2026-01-31T0600,3521A,106.7495,39.2068,石嘴山市,石大公路,颗粒物(PM10),101,151,204,43,62,4,,,,34,31,4,18,0.8,1.4
2026-01-31T0600,2248A,131.1509,46.6936,双鸭山市,双合村,,,29,45,24,30,59,,,,10,16,,11,0.5,0.6
2026-01-31T0600,2249A,131.1651,46.6191,双鸭山市,南小市,,48,,36,33,33,46,,,,18,15,10,7,0.2,0.3
2026-01-31T0600,2250A,131.1526,46.6554,双鸭山市,环保局,颗粒物(PM10),59,67,51,35,32,45,,,,20,18,7,7,0.4,0.5
2026-01-31T0600,2166A,112.4399,39.3521,朔州市,平朔,颗粒物(PM10),76,102,119,32,54,0,,,,48,33,16,10,0.6,0.7
2026-01-31T0600,2167A,112.4574,39.362,朔州市,朔唯,,,85,116,35,63,,,,,,31,14,14,/,/
