timepoint,stationcode,longitude,latitude,area,positionname,primarypollutant,aqi,pm10,pm10_24h,pm2_5,pm2_5_24h,o3,o3_24h,o3_8h,o3_8h_24h,no2,no2_24h,so2,so2_24h,co,co_24h
2022-11-03T06:00:00,1001A,116.3621,39.8784,北京市,万寿西宫,颗粒物(PM10),70,90,100,30,40,63,14,14,14,27,40,1,2,0.7,0.6
2022-11-03T06:00:00,1002A,116.2202,40.2915,北京市,定陵(对照点),颗粒物(PM10),63,76,53,37,23,76,17,74,60,25,12,1,2,0.6,0.4
2022-11-03T06:00:00,1003A,116.4174,39.9289,北京市,东四,颗粒物(PM10),52,54,84,29,39,72,13,13,12,20,30,2,3,0.7,0.6
2022-11-03T06:00:00,1004A,116.4072,39.8863,北京市,天坛,颗粒物(PM10),55,60,83,31,41,57,16,16,16,22,33,1,3,0.6,0.7
2022-11-03T06:00:00,1005A,116.462,39.9365,北京市,农展馆,颗粒物(PM10),53,56,82,29,40,63,13,10,10,25,40,2,3,0.6,0.6
2022-11-03T06:00:00,1006A,116.3392,39.9295,北京市,官园,,48,48,72,28,38,67,14,9,9,23,39,4,4,0.7,0.6
2022-11-03T06:00:00,1007A,116.2878,39.9611,北京市,海淀万柳,颗粒物(PM10),53,55,84,33,41,60,14,8,8,31,49,3,2,0.7,0.6
2022-11-03T06:00:00,1008A,116.6636,40.135,北京市,顺义新城,,,75,75,,45,71,9,36,18,27,25,1,2,0.8,0.6
2022-11-03T06:00:00,1009A,116.6275,40.3275,北京市,怀柔镇,颗粒物(PM10),61,72,51,37,25,66,7,64,36,29,24,3,2,0.7,0.5
2022-11-03T06:00:00,1010A,116.2296,40.217,北京市,昌平镇,颗粒物(PM10),62,74,55,42,27,60,10,60,40,32,27,1,2,0.7,0.4
2022-11-03T06:00:00,1011A,116.3966,39.9821,北京市,奥体中心,颗粒物(PM10),57,63,77,35,38,64,11,10,10,27,42,1,2,0.7,0.6
2022-11-03T06:00:00,1012A,116.184,39.9136,北京市,古城,颗粒物(PM10),60,70,90,40,41,57,4,10,8,38,44,1,2,0.7,0.5
2022-11-03T06:00:00,1015A,117.1444,39.1661,天津市,勤俭道,,28,28,111,17,67,87,34,29,29,19,43,6,11,0.5,0.8
2022-11-03T06:00:00,1017A,117.237,39.1082,天津市,大直沽八号路,,24,24,107,16,68,92,33,31,31,21,45,6,11,0.7,1
2022-11-03T06:00:00,1018A,117.202,39.0927,天津市,前进道,,24,24,109,16,69,96,36,32,32,20,43,7,12,0.6,0.8
2022-11-03T06:00:00,1019A,117.1837,39.2133,天津市,淮河道,,36,36,109,22,61,72,35,29,29,19,48,9,13,0.5,0.7
2022-11-03T06:00:00,1021A,117.307,39.0877,天津市,跃进路,,23,23,107,14,66,96,35,31,31,25,46,6,12,0.6,0.9
2022-11-03T06:00:00,1023A,117.707,39.0343,天津市,第四大街,,15,15,103,8,65,74,45,40,40,14,42,4,9,0.3,0.7
2022-11-03T06:00:00,1024A,117.457,38.8394,天津市,永明路,,20,20,102,11,66,97,48,41,41,10,35,6,11,0.3,0.6
2022-11-03T06:00:00,1026A,117.764,39.1587,天津市,汉北路,,17,12,98,7,56,81,53,42,42,7,40,7,12,0.4,0.7
2022-11-03T06:00:00,1027A,117.157,38.9194,天津市,团泊洼(对照点),,24,24,118,12,73,98,36,34,34,12,34,7,12,0.8,1.2
2022-11-03T06:00:00,1029A,114.4422,38.0444,石家庄市,职工医院,细颗粒物(PM2.5),77,40,122,56,84,96,40,61,51,22,43,4,7,0.4,0.7
2022-11-03T06:00:00,1030A,114.6063,38.0266,石家庄市,高新区,细颗粒物(PM2.5),60,62,117,43,75,121,52,64,58,18,39,1,7,0.6,0.9
2022-11-03T06:00:00,1031A,114.4898,38.1328,石家庄市,西北水源,细颗粒物(PM2.5),73,89,137,53,76,96,37,52,45,23,40,3,8,0.6,0.9
2022-11-03T06:00:00,1032A,114.4586,38.0058,石家庄市,西南高教,细颗粒物(PM2.5),77,59,127,56,86,99,41,56,48,20,44,2,7,0.5,0.8
2022-11-03T06:00:00,1033A,114.5331,38.0178,石家庄市,世纪公园,细颗粒物(PM2.5),69,51,125,50,77,93,40,58,49,18,41,3,7,0.7,0.9
2022-11-03T06:00:00,1034A,114.509,38.0457,石家庄市,人民会堂,细颗粒物(PM2.5),87,70,125,64,89,109,53,67,59,18,38,5,9,0.5,0.7
2022-11-03T06:00:00,1035A,114.3524,37.8911,石家庄市,封龙山(对照点),,44,44,107,14,64,100,73,70,70,17,34,5,9,0.6,0.9
2022-11-03T06:00:00,1037A,118.131,39.6363,唐山市,雷达站,,31,31,84,7,32,43,43,34,34,13,45,5,12,0.8,1.4
2022-11-03T06:00:00,1038A,118.1725,39.6334,唐山市,物资局,,23,23,88,10,33,42,40,33,33,11,43,10,18,0.8,1.5
2022-11-03T06:00:00,1040A,118.1705,39.6506,唐山市,十二中,,33,26,84,23,29,38,36,31,31,13,45,8,16,1.0,1.5
2022-11-03T06:00:00,1041A,118.1869,39.622,唐山市,小山,,25,23,85,17,32,41,37,31,31,15,42,5,15,0.5,1.1
2022-11-03T06:00:00,1042A,119.5134,39.8207,秦皇岛市,北戴河环保局,,22,22,36,5,11,56,54,55,54,2,25,7,8,0.0,0.2
2022-11-03T06:00:00,1043A,119.7493,40.0116,秦皇岛市,第一关,,24,24,45,12,19,49,48,45,45,15,44,8,9,0.2,0.4
2022-11-03T06:00:00,1044A,119.5897,39.9499,秦皇岛市,监测站,,24,24,48,10,22,48,43,44,44,7,32,10,10,0.2,0.4
2022-11-03T06:00:00,1046A,119.5251,39.9041,秦皇岛市,建设大厦,,31,31,56,16,25,51,47,46,46,8,38,8,10,0.2,0.5
2022-11-03T06:00:00,1047A,114.5129,36.61763,邯郸市,环保局,,,,,,,,,,,,,,,,
2022-11-03T06:00:00,1048A,114.5302,36.6116,邯郸市,东污水处理厂,细颗粒物(PM2.5),78,65,126,57,90,140,61,51,51,8,30,3,8,0.3,0.5
2022-11-03T06:00:00,1049A,114.4918,36.5713,邯郸市,矿院,细颗粒物(PM2.5),85,74,120,63,93,145,66,56,56,19,36,6,12,0.6,0.8
2022-11-03T06:00:00,1050A,114.484,36.6133,邯郸市,丛台公园,细颗粒物(PM2.5),80,69,121,59,92,139,62,54,54,15,28,6,10,0.3,0.6
2022-11-03T06:00:00,1051A,115.493,38.8632,保定市,游泳馆,颗粒物(PM10),52,53,73,24,46,74,21,58,45,21,39,5,9,0.2,0.4
2022-11-03T06:00:00,1052A,115.5213,38.8959,保定市,华电二区,细颗粒物(PM2.5),59,42,79,42,47,81,22,47,40,24,45,5,8,0.7,0.6
2022-11-03T06:00:00,1053A,115.4713,38.9108,保定市,接待中心,,49,44,75,34,44,74,21,50,40,24,41,4,7,0.6,0.5
2022-11-03T06:00:00,1054A,115.4612,38.8416,保定市,地表水厂,细颗粒物(PM2.5),54,49,86,38,46,67,21,54,42,20,39,5,8,0.6,0.6
2022-11-03T06:00:00,1055A,115.4323,38.8697,保定市,胶片厂,,,,,,,,,,,,,,,,
2022-11-03T06:00:00,1056A,115.5086,38.8639,保定市,监测站,细颗粒物(PM2.5),57,53,84,40,47,73,24,61,47,28,44,2,7,0.5,0.4
2022-11-03T06:00:00,1057A,114.8883,40.8336,张家口市,人民公园,,17,17,25,2,9,84,53,61,57,6,9,11,12,0.1,0.2
2022-11-03T06:00:00,1059A,114.8687,40.8042,张家口市,五金库,,17,12,24,7,13,83,53,65,61,16,15,42,14,0.1,0.2
2022-11-03T06:00:00,1060A,114.8902,40.762,张家口市,世纪豪园,,18,17,33,9,16,82,56,63,60,1,10,3,4,0.4,0.5
2022-11-03T06:00:00,1061A,114.8916,40.8661,张家口市,北泵房(对照点),,18,18,29,11,13,84,50,62,56,9,10,8,8,0.5,0.5
2022-11-03T06:00:00,1062A,117.9531,40.9081,承德市,铁路,,30,30,47,10,18,50,27,50,37,19,32,8,9,0.3,0.4
2022-11-03T06:00:00,1063A,117.9392,40.9763,承德市,中国银行,,27,27,38,15,16,60,14,45,25,25,21,3,6,0.5,0.5
2022-11-03T06:00:00,1064A,117.9503,40.928,承德市,开发区,,29,29,50,13,21,56,30,45,33,14,27,5,8,0.4,0.6
2022-11-03T06:00:00,1065A,117.8051,40.9655,承德市,文化中心,,46,46,53,25,25,53,13,46,26,31,28,2,6,0.5,0.6
2022-11-03T06:00:00,1066A,117.9268,41.0026,承德市,离宫(对照点),,33,22,30,23,22,60,27,40,34,17,18,8,10,0.4,0.4
2022-11-03T06:00:00,1067A,116.6708,39.5111,廊坊市,药材公司,,33,33,73,23,41,56,25,27,22,18,42,7,10,0.4,0.6
2022-11-03T06:00:00,1068A,116.7214,39.5589,廊坊市,开发区,,40,29,69,28,42,67,28,32,25,27,49,7,10,0.5,0.8
2022-11-03T06:00:00,1070A,116.7244,39.5269,廊坊市,北华航天学院,,32,32,79,12,38,68,27,32,25,22,46,4,8,0.5,0.7
2022-11-03T06:00:00,1071A,116.8842,38.2991,沧州市,沧县城建局,,45,40,143,31,86,119,45,40,39,13,25,5,9,0.8,0.7
2022-11-03T06:00:00,1072A,116.8584,38.3254,沧州市,电视转播站,,42,42,127,13,76,131,54,49,49,8,20,7,11,0.7,0.8
2022-11-03T06:00:00,1073A,116.8709,38.3228,沧州市,市环保局,,41,41,124,28,82,130,54,50,50,7,20,8,11,0.6,0.8
2022-11-03T06:00:00,1074A,115.6838,37.7541,衡水市,电机北厂,,28,24,146,19,97,139,36,33,30,14,34,7,14,0.3,0.7
2022-11-03T06:00:00,1075A,115.6303,37.7316,衡水市,市监测站,,33,33,153,15,99,135,36,31,29,11,38,1,7,0.5,0.8
2022-11-03T06:00:00,1077A,114.4704,37.0886,邢台市,达活泉,细颗粒物(PM2.5),83,65,132,61,102,146,60,58,58,18,39,7,14,0.5,0.9
2022-11-03T06:00:00,1078A,114.5062,37.0349,邢台市,邢师高专,细颗粒物(PM2.5),79,56,118,58,95,141,57,57,57,14,33,5,8,0.5,0.8
2022-11-03T06:00:00,1079A,114.5237,37.0851,邢台市,路桥公司,细颗粒物(PM2.5),83,62,114,61,85,145,61,57,57,17,39,7,11,0,0.3
2022-11-03T06:00:00,1080A,114.4725,37.0719,邢台市,市环保局,细颗粒物(PM2.5),79,66,140,58,100,145,59,57,57,13,35,6,10,0.5,0.9
2022-11-03T06:00:00,1081A,112.5139,37.8873,太原市,尖草坪,细颗粒物(PM2.5),118,106,159,89,115,120,2,7,5,51,49,11,11,1.0,1.1
2022-11-03T06:00:00,1083A,112.434,38.0108,太原市,上兰(对照点),,,,,,,,,,,,,,,,
2022-11-03T06:00:00,1084A,112.469,37.7124,太原市,晋源,"颗粒物(PM10),细颗粒物(PM2.5)",57,64,149,40,105,118,12,21,20,45,50,6,10,0.8,1.2
2022-11-03T06:00:00,1085A,112.5583,37.7394,太原市,小店,细颗粒物(PM2.5),122,116,162,92,118,122,10,11,11,54,59,7,9,0.9,1.1
2022-11-03T06:00:00,1086A,112.5369,37.8692,太原市,桃园,细颗粒物(PM2.5),82,79,157,60,112,121,24,10,10,36,52,12,12,0.9,1.3
2022-11-03T06:00:00,1087A,112.57,37.8195,太原市,坞城,细颗粒物(PM2.5),67,63,147,48,110,123,35,28,28,27,40,13,14,0.7,1.2
2022-11-03T06:00:00,1088A,112.549,37.9854,太原市,南寨,细颗粒物(PM2.5),85,103,144,63,99,117,6,4,4,35,47,5,12,1.0,1.3
2022-11-03T06:00:00,1089A,112.4701,37.782,太原市,金胜,,,,,,,,,,,,,,,,
2022-11-03T06:00:00,1090A,111.6507,40.7517,呼和浩特市,呼市一监,,,,,,,,,,,,,,,,
2022-11-03T06:00:00,1091A,111.6572,40.8033,呼和浩特市,小召,,14,14,30,4,10,83,36,44,42,19,18,14,13,0.3,0.4
2022-11-03T06:00:00,1094A,111.7516,40.8369,呼和浩特市,如意水处理厂,,,,37,,11,66,,62,,,15,,6,,0.5
2022-11-03T06:00:00,1095A,111.7276,40.8062,呼和浩特市,二十九中,,14,14,27,3,5,76,36,49,41,17,15,6,7,0.7,0.7
2022-11-03T06:00:00,1096A,111.5512,40.7866,呼和浩特市,工大金川校区,,,,42,,12,65,,51,,,9,,8,,
2022-11-03T06:00:00,1097A,111.717,40.7612,呼和浩特市,化肥厂生活区,,,11,26,3,9,76,43,46,45,,,12,9,0.5,0.5
2022-11-03T06:00:00,1098A,123.6836,41.9339,沈阳市,森林路(对照点),,,,,,,,,,,,,,,,
2022-11-03T06:00:00,1099A,123.505,41.7406,沈阳市,浑南东路,,20,20,38,7,20,50,39,32,32,13,28,10,13,0.2,0.5
2022-11-03T06:00:00,1100A,123.4231,41.6989,沈阳市,新秀街,,14,14,38,8,21,51,42,42,42,16,28,10,15,0.3,0.6
2022-11-03T06:00:00,1102A,123.5903,41.8411,沈阳市,东陵路,,31,31,45,14,23,45,7,12,11,34,33,7,14,0.2,0.7
2022-11-03T06:00:00,1103A,123.4264,41.8467,沈阳市,陵东街,,15,15,39,3,16,49,40,35,35,15,33,9,15,0.3,0.7
2022-11-03T06:00:00,1104A,123.4114,41.7653,沈阳市,文化路,,17,17,37,10,21,47,32,31,31,25,33,49,27,0.4,0.7
2022-11-03T06:00:00,1105A,123.4678,41.7867,沈阳市,小河沿,,20,20,42,7,17,52,38,37,37,16,31,11,13,0.4,0.7
2022-11-03T06:00:00,1106A,123.4017,41.7972,沈阳市,太原街,,25,25,42,10,22,43,36,30,30,20,36,15,22,0.3,0.6
2022-11-03T06:00:00,1108A,123.3783,41.9228,沈阳市,京沈街,,16,15,42,11,22,53,34,37,36,16,27,9,17,0.2,0.6
2022-11-03T06:00:00,1109A,121.612,38.9741,大连市,甘井子,,15,12,42,8,24,57,46,48,47,15,36,6,8,0.6,0.6
2022-11-03T06:00:00,1110A,121.565,38.9511,大连市,周水子,,24,24,48,12,20,57,47,46,46,15,44,5,11,0.7,0.9
2022-11-03T06:00:00,1111A,121.5637,38.8845,大连市,星海三站,,13,10,42,8,26,55,40,38,38,19,37,7,7,0.9,0.9
2022-11-03T06:00:00,1112A,121.6302,38.9117,大连市,青泥洼桥,,16,16,43,9,19,68,47,45,45,26,47,8,10,0.8,0.9
2022-11-03T06:00:00,1113A,121.6251,38.8638,大连市,傅家庄,,26,26,28,13,14,67,39,35,35,23,28,7,8,0.8,0.8
2022-11-03T06:00:00,1114A,121.5213,38.8661,大连市,七贤岭,,17,15,41,11,18,66,53,50,50,14,34,9,9,0.8,0.8
2022-11-03T06:00:00,1115A,121.2529,38.8061,大连市,旅顺,,19,9,32,3,21,74,58,53,53,5,25,4,4,0.4,0.6
2022-11-03T06:00:00,1116A,121.7485,39.1311,大连市,金州,,24,24,41,13,26,61,33,39,38,29,40,10,8,1.1,1
2022-11-03T06:00:00,1117A,121.7811,39.0496,大连市,开发区,,27,27,44,13,24,60,43,54,52,24,54,7,7,1.1,1
2022-11-03T06:00:00,1118A,121.9762,39.0631,大连市,双D港,,22,19,33,15,17,61,41,47,46,11,21,9,9,0.8,0.8
2022-11-03T06:00:00,1119A,125.3325,43.9166,长春市,食品厂,,24,24,43,13,19,51,12,14,14,28,31,4,8,0.3,0.3
2022-11-03T06:00:00,1120A,125.2863,43.9027,长春市,客车厂,,20,20,37,9,17,52,12,20,18,31,34,8,8,0.4,0.4
2022-11-03T06:00:00,1121A,125.2841,43.8463,长春市,邮电学院,,34,34,36,8,15,62,14,28,23,29,28,24,13,0.2,0.3
2022-11-03T06:00:00,1122A,125.3716,43.8772,长春市,劳动公园,,22,22,36,6,13,59,16,30,26,28,29,16,13,0.3,0.4
2022-11-03T06:00:00,1123A,125.3297,43.8805,长春市,园林处,,27,27,31,8,9,57,12,28,23,34,27,28,10,0.2,0.2
2022-11-03T06:00:00,1124A,125.4605,43.79,长春市,净月潭,,24,24,28,4,7,59,18,10,10,21,24,11,7,0.3,0.3
2022-11-03T06:00:00,1125A,125.7194,43.515,长春市,甩湾子(对照点),,,,,,,,,,,,,,,,
2022-11-03T06:00:00,1126A,125.3863,43.8447,长春市,经开区环卫处,,23,23,32,7,11,61,7,30,22,39,29,50,17,0.2,0.3
2022-11-03T06:00:00,1127A,125.245,43.7783,长春市,高新区管委会,,20,20,38,6,12,58,17,26,22,24,29,5,6,0.5,0.6
2022-11-03T06:00:00,1128A,125.1761,43.8325,长春市,岱山公园,,21,21,38,5,13,60,8,18,17,28,25,8,9,0.3,0.3
2022-11-03T06:00:00,1129A,126.5422,45.755,哈尔滨市,岭北(对照点),,20,20,33,9,16,52,27,25,25,10,13,9,8,0.2,0.3
2022-11-03T06:00:00,1130A,126.561,45.8167,哈尔滨市,松北商大,,12,12,31,8,14,51,22,30,28,18,21,22,12,0.5,0.5
2022-11-03T06:00:00,1131A,126.979,45.5419,哈尔滨市,阿城会宁,,35,30,48,24,25,58,13,13,11,30,24,14,12,0.7,0.7
2022-11-03T06:00:00,1132A,126.599,45.7222,哈尔滨市,南岗学府路,,21,21,36,7,16,58,31,26,26,12,20,8,10,0.5,0.6
2022-11-03T06:00:00,1133A,126.689,45.7733,哈尔滨市,太平宏伟公园,,14,14,28,5,14,60,37,36,36,13,14,25,13,0.4,0.4
2022-11-03T06:00:00,1134A,126.635,45.7667,哈尔滨市,道外承德广场,,12,12,22,7,11,57,33,34,34,14,16,9,6,0.3,0.4
2022-11-03T06:00:00,1135A,126.685,45.7319,哈尔滨市,香坊红旗大街,,,,41,,21,41,,37,,,20,,9,,0.5
2022-11-03T06:00:00,1136A,126.6411,45.7258,哈尔滨市,动力和平路,,9,5,32,5,13,53,27,26,26,18,25,8,12,0.4,0.5
2022-11-03T06:00:00,1137A,126.593,45.7478,哈尔滨市,道里建国路,,18,11,27,12,15,53,25,26,26,18,24,2,6,0.5,0.4
2022-11-03T06:00:00,1138A,126.615,45.61,哈尔滨市,平房东轻厂,,44,44,53,19,26,58,16,14,13,22,24,11,11,0.2,0.5
2022-11-03T06:00:00,1139A,126.595,45.9855,哈尔滨市,呼兰师专,,28,13,37,19,27,52,27,28,28,16,19,6,7,0.4,0.6
2022-11-03T06:00:00,1140A,126.6206,45.6842,哈尔滨市,省农科院,,28,12,54,19,25,60,28,27,27,8,16,12,13,0.8,0.8
2022-11-03T06:00:00,1141A,121.4,31.238,上海市,普陀,,44,44,49,16,22,105,10,42,23,64,37,4,4,0.8,0.8
2022-11-03T06:00:00,1142A,121.478,31.2036,上海市,十五厂,,29,26,38,10,22,121,29,65,49,58,34,7,7,0.6,0.7
2022-11-03T06:00:00,1143A,121.467,31.3008,上海市,虹口,,35,27,44,8,20,97,1,23,7,70,36,6,8,0.6,0.6
2022-11-03T06:00:00,1144A,121.412,31.1654,上海市,徐汇上师大,,32,32,46,15,21,116,25,49,37,55,37,7,7,0.9,0.8
2022-11-03T06:00:00,1145A,121.536,31.2659,上海市,杨浦四漂,,40,34,44,10,17,108,4,36,20,80,43,8,8,0.8,0.8
2022-11-03T06:00:00,1146A,120.978,31.0935,上海市,青浦淀山湖(对照点),,,,,,,,,,,,,,,,
2022-11-03T06:00:00,1147A,121.425,31.2261,上海市,静安监测站,,34,34,48,20,24,103,26,53,38,50,33,6,6,0.7,0.7
2022-11-03T06:00:00,1148A,121.703,31.1907,上海市,浦东川沙,,38,38,41,16,20,116,13,46,33,56,25,5,5,0.6,0.5
2022-11-03T06:00:00,1149A,121.533,31.2284,上海市,浦东新区监测站,,36,31,43,18,26,100,0,50,32,72,30,6,6,0.8,0.7
2022-11-03T06:00:00,1150A,121.577,31.2071,上海市,浦东张江,,33,25,43,19,22,103,9,39,30,66,33,4,4,0.6,0.6
2022-11-03T06:00:00,1151A,118.8086,32.1065,南京市,迈皋桥,,38,38,68,17,32,143,31,52,37,23,27,3,3,0.4,0.4
2022-11-03T06:00:00,1152A,118.7538,32.0551,南京市,草场门,,46,46,62,22,31,128,44,50,48,32,33,3,3,0.7,0.7
2022-11-03T06:00:00,1153A,118.7794,32.0745,南京市,山西路,,46,46,65,17,32,147,45,67,56,25,24,4,4,0.4,0.5
2022-11-03T06:00:00,1154A,118.7752,32.0023,南京市,中华门,颗粒物(PM10),52,53,66,19,33,145,27,50,34,44,37,4,4,0.5,0.5
2022-11-03T06:00:00,1155A,118.8109,32.0309,南京市,瑞金路,,42,42,74,12,34,152,38,54,47,29,33,4,4,0.9,0.9
2022-11-03T06:00:00,1156A,118.7997,32.0754,南京市,玄武湖,颗粒物(PM10),51,52,64,27,39,139,42,61,48,16,24,4,4,0.5,0.5
2022-11-03T06:00:00,1157A,118.6414,32.0931,南京市,浦口,,45,45,63,29,35,146,14,50,34,53,38,4,4,0.3,0.4
2022-11-03T06:00:00,1158A,118.7356,31.9996,南京市,奥体中心,颗粒物(PM10),54,58,71,22,34,145,25,48,36,46,38,4,4,0.6,0.6
2022-11-03T06:00:00,1159A,118.9125,32.1028,南京市,仙林大学城,,46,46,64,17,29,146,22,56,42,42,33,4,4,0.8,0.7
2022-11-03T06:00:00,1160A,120.561,31.2472,苏州市,上方山(对照点),,44,44,52,19,26,115,4,43,19,57,31,5,6,0.5,0.5
2022-11-03T06:00:00,1161A,120.628,31.2864,苏州市,南门,,,,,,,,,,,,,,,,
2022-11-03T06:00:00,1162A,120.591,31.3019,苏州市,彩香,,46,46,47,19,24,133,0,47,20,69,34,6,6,0.7,0.7
2022-11-03T06:00:00,1163A,120.596,31.3264,苏州市,轧钢厂,,48,48,47,20,21,129,7,30,12,59,42,6,6,0.8,0.8
2022-11-03T06:00:00,1164A,120.613,31.2703,苏州市,吴中区,,47,47,45,21,22,126,10,38,22,62,37,7,6,0.7,0.7
2022-11-03T06:00:00,1165A,120.543,31.2994,苏州市,苏州新区,,36,36,42,17,23,125,2,49,18,66,36,6,6,0.7,0.7
2022-11-03T06:00:00,1166A,120.669,31.3097,苏州市,苏州工业园区,,36,36,42,14,22,130,25,39,32,41,29,6,6,0.7,0.7
2022-11-03T06:00:00,1167A,120.641,31.3708,苏州市,相城区,,38,38,42,17,20,131,18,38,30,53,38,7,6,0.6,0.6
2022-11-03T06:00:00,1168A,120.9098,31.9663,南通市,狼山街道,,33,33,39,17,17,123,9,26,22,50,25,6,6,0.3,0.4
2022-11-03T06:00:00,1169A,120.86,32.0005,南通市,虹桥,,46,46,49,26,22,116,26,55,38,42,28,6,6,0.5,0.5
2022-11-03T06:00:00,1170A,120.87,32.02,南通市,城中,,42,42,43,15,23,122,26,57,33,38,25,4,4,0.5,0.4
2022-11-03T06:00:00,1171A,120.94,31.93,南通市,星湖花园,,33,33,41,22,23,123,3,31,25,58,26,7,7,0.3,0.5
2022-11-03T06:00:00,1172A,120.81,32.0417,南通市,紫琅学院,,47,47,46,24,21,142,23,37,20,42,27,6,6,0.3,0.3
2022-11-03T06:00:00,1173A,119.176,34.5885,连云港市,市环境监测站,,29,29,43,12,17,116,26,70,55,28,23,5,7,0.4,0.4
2022-11-03T06:00:00,1177A,117.179,34.2761,徐州市,黄河新村,颗粒物(PM10),73,95,71,47,32,107,25,50,20,35,38,8,10,0.8,0.7
2022-11-03T06:00:00,1178A,117.1918,34.2384,徐州市,淮塔,颗粒物(PM10),76,101,73,48,30,120,7,25,10,54,49,7,8,0.6,0.6
2022-11-03T06:00:00,1180A,117.256,34.2153,徐州市,新城区,细颗粒物(PM2.5),70,81,68,51,31,114,12,35,16,54,45,8,10,0.6,0.5
2022-11-03T06:00:00,1181A,117.244,34.2911,徐州市,桃园路,细颗粒物(PM2.5),77,97,78,56,30,112,2,7,6,52,39,5,7,0.5,0.3
2022-11-03T06:00:00,1182A,117.2933,34.2778,徐州市,农科院,颗粒物(PM10),65,80,70,41,27,102,4,3,3,49,54,7,11,0.8,0.6
2022-11-03T06:00:00,1186A,119.389,32.3761,扬州市,邗江监测站,颗粒物(PM10),51,51,64,24,31,143,30,56,40,29,28,7,9,0.6,0.6
2022-11-03T06:00:00,1188A,120.269,31.4867,无锡市,雪浪,,44,44,54,24,24,112,13,44,24,58,36,8,7,0.9,0.9
2022-11-03T06:00:00,1189A,120.275,31.6219,无锡市,黄巷,颗粒物(PM10),54,58,63,24,27,124,11,39,22,54,38,8,7,0.6,0.6
2022-11-03T06:00:00,1190A,120.294,31.56,无锡市,曹张,,37,37,52,22,24,129,12,55,33,58,30,10,10,0.9,1
2022-11-03T06:00:00,1191A,120.242,31.5031,无锡市,漆塘,,36,36,51,19,26,135,18,46,31,47,24,10,10,0.8,0.8
2022-11-03T06:00:00,1192A,120.3489,31.5863,无锡市,东亭,,39,39,52,22,26,123,15,37,18,45,35,8,8,0.7,0.8
2022-11-03T06:00:00,1193A,120.354,31.5475,无锡市,旺庄,,34,34,51,19,26,131,10,34,17,57,40,12,11,0.7,0.7
2022-11-03T06:00:00,1194A,120.245,31.5631,无锡市,荣巷,,36,36,55,22,29,125,19,56,40,54,32,9,9,0.6,0.6
2022-11-03T06:00:00,1195A,120.299,31.6817,无锡市,堰桥,颗粒物(PM10),51,51,62,27,31,137,12,49,31,48,28,7,9,0.8,0.8
2022-11-03T06:00:00,1196A,119.9633,31.762,常州市,市监测站,颗粒物(PM10),53,56,64,34,40,130,17,44,30,60,39,7,8,0.4,0.7
2022-11-03T06:00:00,1200A,119.9468,31.7069,常州市,武进监测站,颗粒物(PM10),52,54,54,32,31,144,21,63,40,57,39,12,11,1.0,0.9
2022-11-03T06:00:00,1201A,119.9255,31.9087,常州市,安家,颗粒物(PM10),51,52,54,32,39,140,6,38,26,56,40,7,7,0.8,0.9
2022-11-03T06:00:00,1203A,119.6707,32.1875,镇江市,新区办事处,颗粒物(PM10),54,58,58,30,31,161,16,40,27,48,38,6,5,0.9,0.9
2022-11-03T06:00:00,1204A,119.4974,32.1968,镇江市,职教中心,颗粒物(PM10),51,51,56,34,35,160,4,44,21,55,38,7,6,0.6,0.6
2022-11-03T06:00:00,1205A,119.4303,32.1328,镇江市,丹徒区监测站,细颗粒物(PM2.5),58,61,61,41,43,160,26,45,36,43,32,6,6,0.7,0.6
2022-11-03T06:00:00,1206A,119.905,32.4878,泰州市,公园路,,46,46,55,29,30,132,21,55,40,30,21,8,8,0.7,0.6
2022-11-03T06:00:00,1207A,119.9189,32.4625,泰州市,莲花,细颗粒物(PM2.5),55,44,55,39,35,132,33,44,40,28,22,7,6,0.7,0.6
2022-11-03T06:00:00,1209A,119.888,32.4639,泰州市,留学生创业园,,47,47,56,20,26,140,50,55,51,21,20,7,7,0.7,0.7
2022-11-03T06:00:00,1210A,119.036,33.5981,淮安市,钵池山,,46,46,45,31,26,124,6,47,30,47,26,6,7,0.5,0.5
2022-11-03T06:00:00,1211A,119.007,33.575,淮安市,北京南路,,48,48,51,27,24,123,9,45,33,46,27,6,6,0.7,0.6
2022-11-03T06:00:00,1212A,118.989,33.6067,淮安市,市监测站,,44,44,45,29,23,126,16,65,50,52,29,4,5,0.7,0.7
2022-11-03T06:00:00,1213A,119.135,33.5039,淮安市,楚州区监测站,颗粒物(PM10),51,51,52,29,22,120,23,38,32,32,24,7,8,0.6,0.6
2022-11-03T06:00:00,1214A,119.0186,33.6297,淮安市,淮阴区监测站,颗粒物(PM10),54,57,55,32,25,125,4,57,37,58,32,7,6,0.4,0.4
2022-11-03T06:00:00,1215A,120.118,33.4022,盐城市,盐城电厂,,35,31,39,24,25,144,17,46,22,48,27,6,6,0.4,0.5
2022-11-03T06:00:00,1216A,120.156,33.3942,盐城市,市监测站,,43,43,52,21,25,128,4,25,10,46,29,3,4,0.5,0.5
2022-11-03T06:00:00,1218A,120.2144,33.38,盐城市,开发区管委会,,40,40,47,26,24,134,3,35,19,48,30,10,9,0.5,0.5
2022-11-03T06:00:00,1220A,118.293,33.9528,宿迁市,宿迁学院,颗粒物(PM10),52,54,60,27,27,115,39,46,40,22,36,6,7,0.4,0.4
2022-11-03T06:00:00,1221A,118.2442,33.9592,宿迁市,宿迁中学,颗粒物(PM10),51,51,47,24,24,115,39,59,47,22,34,5,6,0.5,0.6
2022-11-03T06:00:00,1223A,120.2072,30.2111,杭州市,滨江,,49,49,63,23,36,113,40,77,64,38,35,6,7,0.6,0.7
2022-11-03T06:00:00,1224A,120.0633,30.2747,杭州市,西溪,颗粒物(PM10),53,56,59,29,31,112,17,80,54,36,24,7,8,0.6,0.6
2022-11-03T06:00:00,1225A,119.026,29.635,杭州市,千岛湖(对照点),,,,,,,,,,,,,,,,
2022-11-03T06:00:00,1226A,120.3461,30.3153,杭州市,下沙,,44,44,53,17,27,132,4,72,33,64,43,9,9,0.6,0.7
2022-11-03T06:00:00,1227A,120.1269,30.2456,杭州市,卧龙桥,,36,36,50,25,36,115,20,87,54,17,24,6,7,0.4,0.5
2022-11-03T06:00:00,1228A,120.1903,30.2692,杭州市,浙江农大,,44,44,59,26,37,123,35,87,65,35,33,7,8,0.5,0.6
2022-11-03T06:00:00,1229A,120.157,30.2897,杭州市,朝晖五区,,,,,,,,,,,,,,,,
2022-11-03T06:00:00,1230A,120.1197,30.3119,杭州市,和睦小学,颗粒物(PM10),53,56,73,33,33,119,20,84,55,50,35,2,5,0.6,0.6
2022-11-03T06:00:00,1231A,120.3019,30.4183,杭州市,临平镇,颗粒物(PM10),57,63,71,24,29,131,23,79,42,44,29,8,7,0.7,0.7
2022-11-03T06:00:00,1232A,120.2697,30.1819,杭州市,城厢镇,颗粒物(PM10),52,54,62,29,35,125,36,85,65,45,37,6,7,0.7,0.7
2022-11-03T06:00:00,1233A,120.0883,30.1808,杭州市,云栖,,36,36,52,16,26,122,31,74,58,25,28,5,6,0.6,0.7
2022-11-03T06:00:00,1234A,121.8358,29.911,宁波市,区环保大楼,,27,27,43,14,22,127,59,43,43,15,25,6,5,0.6,0.5
2022-11-03T06:00:00,1235A,121.56,29.82,宁波市,万里学院,颗粒物(PM10),51,51,52,25,27,134,4,71,25,60,34,6,6,0.7,0.5
2022-11-03T06:00:00,1236A,121.713,29.9572,宁波市,龙赛医院,颗粒物(PM10),64,77,61,40,28,140,3,34,9,75,40,13,11,0.8,0.6
2022-11-03T06:00:00,1239A,121.633,29.7733,宁波市,钱湖水厂,,20,19,44,14,26,132,59,88,69,7,17,5,6,0.4,0.4
2022-11-03T06:00:00,1240A,121.5856,29.8635,宁波市,太古小学,颗粒物(PM10),67,83,49,42,27,133,4,63,21,58,35,14,9,1.3,0.7
2022-11-03T06:00:00,1241A,121.524,29.8674,宁波市,市环境监测中心,颗粒物(PM10),55,59,52,25,22,150,4,53,14,66,33,8,8,0.5,0.4
2022-11-03T06:00:00,1242A,120.634,28.0089,温州市,瓯海,,34,34,39,23,29,55,7,12,8,39,40,6,7,0.5,0.5
2022-11-03T06:00:00,1243A,120.6748,27.9939,温州市,南浦,,35,31,33,24,23,56,7,17,10,41,38,5,5,0.4,0.4
2022-11-03T06:00:00,1244A,120.76,27.9747,温州市,龙湾,,44,44,50,24,26,32,6,5,5,49,57,6,6,0.4,0.7
2022-11-03T06:00:00,1245A,120.6709,28.0167,温州市,市站,,49,42,35,34,28,61,14,15,15,40,39,6,6,0.6,0.6
2022-11-03T06:00:00,1246A,120.598,30.0911,绍兴市,袍江站,,,,,,,,,,,,,,,,
2022-11-03T06:00:00,1247A,120.6053,29.9928,绍兴市,城东开发委,细颗粒物(PM2.5),77,69,68,56,51,128,12,39,24,32,33,8,10,0.8,0.8
2022-11-03T06:00:00,1250A,120.0751,30.8669,湖州市,城西水厂,,,54,51,20,24,143,4,65,38,64,33,6,6,0.4,0.5
2022-11-03T06:00:00,1252A,120.7436,30.778,嘉兴市,清河小学,,34,34,38,14,19,127,13,56,30,61,32,8,7,0.5,0.4
2022-11-03T06:00:00,1253A,120.726,30.7478,嘉兴市,嘉兴学院,,40,40,47,12,20,127,32,60,44,48,29,6,6,0.4,0.5
2022-11-03T06:00:00,1255A,121.273,28.6459,台州市,黄岩环保大楼,,43,43,45,22,28,60,43,30,30,19,26,5,5,0.5,0.5
2022-11-03T06:00:00,1256A,121.419,28.6542,台州市,台州环保大楼,,39,39,46,19,29,106,100,104,103,6,18,6,6,0.5,0.6
2022-11-03T06:00:00,1257A,121.377,28.5773,台州市,路桥田洋王,颗粒物(PM10),52,53,55,30,34,78,63,59,59,19,31,6,6,0.6,0.6
2022-11-03T06:00:00,1258A,122.122,30.0203,舟山市,定海檀枫,,28,28,38,10,19,185,63,67,61,12,12,4,4,0.3,0.4
2022-11-03T06:00:00,1259A,122.3094,29.9558,舟山市,普陀东港,,25,25,34,12,16,133,79,94,88,10,8,5,5,0.3,0.4
2022-11-03T06:00:00,1260A,122.19,29.9944,舟山市,临城新区,,24,24,39,11,16,125,51,67,59,17,10,6,6,0.4,0.5
2022-11-03T06:00:00,1261A,119.649,29.1131,金华市,四中(停运161031),,,,,,,,,,,,,,,,
2022-11-03T06:00:00,1262A,119.647,29.077,金华市,十五中,细颗粒物(PM2.5),90,94,65,67,45,95,41,31,31,39,35,5,4,0.6,0.5
2022-11-03T06:00:00,1263A,119.686,29.1029,金华市,监测站,细颗粒物(PM2.5),80,78,73,59,48,101,40,29,26,40,36,5,4,0.5,0.5
2022-11-03T06:00:00,1264A,118.8692,28.9398,衢州市,环保大楼,细颗粒物(PM2.5),78,78,53,57,43,98,58,54,48,23,23,7,7,0.5,0.5
2022-11-03T06:00:00,1265A,118.8709,28.9666,衢州市,实验学校,细颗粒物(PM2.5),75,71,51,55,37,109,50,58,53,24,20,5,5,0.7,0.6
2022-11-03T06:00:00,1266A,118.8621,28.9808,衢州市,衢州学院,细颗粒物(PM2.5),77,83,59,56,36,100,35,39,38,33,26,6,7,0.6,0.4
2022-11-03T06:00:00,1267A,119.914,28.4514,丽水市,监测站大楼,,28,20,31,19,23,53,13,29,23,25,24,6,7,0.3,0.3
2022-11-03T06:00:00,1268A,119.93,28.4586,丽水市,莲都小学,,37,37,42,22,26,50,11,30,18,27,28,6,6,0.4,0.4
2022-11-03T06:00:00,1269A,119.879,28.4231,丽水市,余庄前,,34,34,36,16,15,66,6,4,4,17,22,6,6,0.4,0.4
2022-11-03T06:00:00,1270A,117.1959,31.7848,合肥市,明珠广场,细颗粒物(PM2.5),83,112,94,61,48,136,37,59,53,51,39,10,9,0.8,0.8
2022-11-03T06:00:00,1271A,117.3072,31.8764,合肥市,三里街,细颗粒物(PM2.5),85,112,92,63,41,140,23,67,54,52,43,9,9,1.2,1
2022-11-03T06:00:00,1272A,117.2588,31.8707,合肥市,琥珀山庄,细颗粒物(PM2.5),85,102,86,63,45,144,31,51,47,37,32,9,9,1.0,0.8
2022-11-03T06:00:00,1273A,117.1604,31.9052,合肥市,董铺水库(对照点),颗粒物(PM10),80,110,94,56,44,119,32,59,45,34,29,9,8,0.8,0.7
2022-11-03T06:00:00,1274A,117.25,31.8571,合肥市,长江中路,细颗粒物(PM2.5),98,105,95,73,57,145,41,67,60,30,28,10,9,0.9,0.8
2022-11-03T06:00:00,1275A,117.266,31.9436,合肥市,庐阳区,细颗粒物(PM2.5),98,122,98,73,51,136,27,64,49,42,38,5,5,0.7,0.6
2022-11-03T06:00:00,1276A,117.336,31.8586,合肥市,瑶海区,细颗粒物(PM2.5),98,110,91,73,51,140,33,64,56,38,34,12,12,1.1,1
2022-11-03T06:00:00,1277A,117.3027,31.7964,合肥市,包河区,细颗粒物(PM2.5),94,119,91,70,51,144,9,36,24,75,57,8,8,0.7,0.6
2022-11-03T06:00:00,1278A,117.2776,31.7385,合肥市,滨湖新区,细颗粒物(PM2.5),89,107,83,66,44,143,22,63,53,61,29,10,12,0.7,0.6
2022-11-03T06:00:00,1279A,117.1318,31.8403,合肥市,高新区,细颗粒物(PM2.5),94,107,91,70,51,138,36,55,50,60,44,6,7,0.9,0.7
2022-11-03T06:00:00,1280A,119.3903,26.0543,福州市,鼓山(对照点),,,,,,,,,,,,,,,,
2022-11-03T06:00:00,1282A,119.2681,26.0504,福州市,师大,,18,10,12,12,8,81,54,53,49,7,8,3,3,0.4,0.4
2022-11-03T06:00:00,1283A,119.2984,26.1028,福州市,五四北路,,20,8,11,4,7,87,61,63,60,5,8,2,2,0.5,0.4
2022-11-03T06:00:00,1284A,119.2648,26.0768,福州市,杨桥西路,,21,11,13,6,8,81,65,61,58,8,11,2,2,0.4,0.4
2022-11-03T06:00:00,1285A,119.317,26.0746,福州市,紫阳,,13,12,12,6,6,91,40,76,62,16,9,4,4,0.4,0.3
2022-11-03T06:00:00,1286A,118.1608,24.8169,厦门市,溪东(对照点),,,,,,,,,,,,,,,,
2022-11-03T06:00:00,1287A,118.1514,24.4767,厦门市,洪文,,23,10,23,3,10,82,71,79,77,10,14,1,2,0.3,0.3
2022-11-03T06:00:00,1288A,118.0661,24.4444,厦门市,鼓浪屿,,21,12,18,8,11,88,66,76,74,12,15,2,3,0.3,0.3
2022-11-03T06:00:00,1290A,115.8931,28.6843,南昌市,省外办,"颗粒物(PM10),细颗粒物(PM2.5)",69,88,63,50,30,116,65,68,63,24,26,12,10,0.7,0.6
2022-11-03T06:00:00,1291A,115.8886,28.7003,南昌市,省林业公司,"颗粒物(PM10),细颗粒物(PM2.5)",67,83,59,48,27,113,48,49,49,41,36,12,9,1.0,0.7
2022-11-03T06:00:00,1292A,115.8126,28.7442,南昌市,林科所,细颗粒物(PM2.5),58,61,42,41,23,130,82,103,89,18,17,11,9,0.7,0.6
2022-11-03T06:00:00,1294A,115.8518,28.687,南昌市,建工学校,细颗粒物(PM2.5),67,79,52,48,27,124,71,94,82,25,21,14,12,0.7,0.5
2022-11-03T06:00:00,1295A,115.8921,28.6424,南昌市,象湖,细颗粒物(PM2.5),73,68,47,53,31,116,62,72,67,22,23,9,7,0.8,0.6
2022-11-03T06:00:00,1296A,115.7423,28.7996,南昌市,武术学校(对照点),,37,37,30,22,25,75,20,23,21,10,10,11,12,0.4,0.4
2022-11-03T06:00:00,1298A,115.9314,28.6842,南昌市,省站,细颗粒物(PM2.5),73,93,65,53,37,116,60,67,62,26,29,15,10,0.9,0.7
2022-11-03T06:00:00,1299A,116.9862,36.6114,济南市,科干所,颗粒物(PM10),92,134,72,59,29,122,5,45,36,73,29,10,7,0.8,0.6
2022-11-03T06:00:00,1300A,116.9376,36.665,济南市,农科所,颗粒物(PM10),89,127,80,56,26,110,10,23,9,55,49,8,7,0.6,0.5
2022-11-03T06:00:00,1301A,117.1265,36.6734,济南市,开发区,细颗粒物(PM2.5),98,125,80,73,33,117,8,11,8,61,62,11,9,0.8,0.6
2022-11-03T06:00:00,1303A,117.0624,36.6868,济南市,省种子仓库,细颗粒物(PM2.5),92,129,80,68,39,120,10,8,7,56,58,8,4,0.7,0.7
2022-11-03T06:00:00,1304A,116.9489,36.6447,济南市,机床二厂,"颗粒物(PM10),细颗粒物(PM2.5)",89,127,94,66,34,119,10,7,7,64,53,9,7,0.7,0.7
2022-11-03T06:00:00,1305A,117.0495,36.663,济南市,市监测站,颗粒物(PM10),91,132,75,61,30,124,6,14,11,64,55,13,8,0.8,0.7
2022-11-03T06:00:00,1306A,116.7675,36.5484,济南市,长清党校,颗粒物(PM10),86,122,69,51,29,125,6,70,52,87,32,10,10,0.7,0.6
2022-11-03T06:00:00,1307A,120.6659,36.2403,青岛市,仰口(对照点),,31,31,31,14,13,115,80,107,102,11,9,4,4,0.5,0.5
2022-11-03T06:00:00,1308A,120.3905,36.1851,青岛市,李沧区子站,,,,,,,,,,,,,,,,
2022-11-03T06:00:00,1309A,120.3471,36.0699,青岛市,市北区子站,,,,,,,,,,,,,,,,
2022-11-03T06:00:00,1310A,120.4134,36.0658,青岛市,市南区东部子站,,39,39,33,14,10,110,28,104,64,56,19,7,7,0.5,0.4
2022-11-03T06:00:00,1311A,120.3664,36.1032,青岛市,四方区子站,颗粒物(PM10),51,51,42,19,12,102,6,79,30,75,41,5,5,0.6,0.6
2022-11-03T06:00:00,1312A,120.2994,36.054,青岛市,市南区西部子站,,44,44,42,10,12,124,62,93,59,31,28,8,9,0.5,0.5
2022-11-03T06:00:00,1313A,120.4581,36.0858,青岛市,崂山区子站,,48,48,32,7,7,112,46,85,66,40,19,6,6,0.2,0.2
2022-11-03T06:00:00,1314A,120.1983,35.9608,青岛市,黄岛区子站,,42,29,34,12,11,134,11,99,66,83,26,9,6,0.8,0.4
2022-11-03T06:00:00,1315A,120.3999,36.3083,青岛市,城阳区子站,,35,35,55,7,14,99,8,52,22,59,45,5,6,0.7,0.8
2022-11-03T06:00:00,1316A,113.69031,34.76122,郑州市,烟厂,细颗粒物(PM2.5),110,89,82,83,58,146,35,83,61,43,26,7,8,0.7,0.6
2022-11-03T06:00:00,1317A,113.65724,34.77134,郑州市,郑纺机,细颗粒物(PM2.5),120,103,85,91,74,152,39,71,52,39,24,12,11,0.8,0.8
2022-11-03T06:00:00,1318A,113.67526,34.80246,郑州市,银行学校,细颗粒物(PM2.5),109,111,80,82,64,167,28,74,53,49,27,7,9,1.1,1
2022-11-03T06:00:00,1319A,113.56746,34.81334,郑州市,供水公司,细颗粒物(PM2.5),93,126,84,69,47,150,22,85,50,52,20,8,9,1.1,1
2022-11-03T06:00:00,1320A,113.7329,34.7178,郑州市,经开区管委,细颗粒物(PM2.5),82,105,89,60,57,145,14,62,37,57,28,8,8,0.8,0.8
2022-11-03T06:00:00,1321A,113.73961,34.77172,郑州市,四十七中,颗粒物(PM10),71,92,90,43,41,148,18,80,59,60,27,10,11,0.8,0.8
2022-11-03T06:00:00,1322A,113.60532,34.74838,郑州市,市监测站,颗粒物(PM10),86,122,89,63,40,147,40,88,53,37,21,12,12,0.7,0.7
2022-11-03T06:00:00,1323A,113.64164,34.7525,郑州市,河医大,细颗粒物(PM2.5),103,104,86,77,65,142,36,76,52,43,26,12,12,0.9,0.8
2022-11-03T06:00:00,1324A,113.51488,34.91089,郑州市,岗李水库(对照点),,,,,,,,,,,,,,,,
2022-11-03T06:00:00,1325A,114.3677,30.5584,武汉市,东湖梨园,颗粒物(PM10),56,61,52,34,30,150,21,48,34,62,45,8,10,0.7,0.8
2022-11-03T06:00:00,1326A,114.2529,30.558,武汉市,汉阳月湖,,49,44,47,34,28,141,38,71,58,45,49,6,7,0.6,0.7
2022-11-03T06:00:00,1327A,114.282,30.6189,武汉市,汉口花桥,,40,40,54,27,27,148,85,89,86,19,36,6,8,0.6,0.8
2022-11-03T06:00:00,1328A,114.3025,30.5332,武汉市,武昌紫阳,"颗粒物(PM10),细颗粒物(PM2.5)",55,60,56,39,30,148,18,38,26,62,55,10,10,1.2,1.1
2022-11-03T06:00:00,1329A,114.3646,30.6217,武汉市,青山钢花,细颗粒物(PM2.5),55,58,59,39,33,153,50,82,68,47,49,8,11,0.7,0.8
2022-11-03T06:00:00,1330A,114.1566,30.4825,武汉市,沌口新区,细颗粒物(PM2.5),69,83,54,50,32,138,25,81,58,90,56,15,13,1.3,0.8
2022-11-03T06:00:00,1331A,114.3014,30.5944,武汉市,汉口江滩,,50,36,42,35,26,156,91,88,88,16,38,7,8,0.5,0.6
2022-11-03T06:00:00,1333A,114.135,30.6319,武汉市,吴家山,,49,49,55,27,28,154,57,98,85,41,48,7,9,0.5,0.7
2022-11-03T06:00:00,1334A,113.8454,30.2917,武汉市,沉湖七壕(对照点),颗粒物(PM10),57,64,48,33,25,162,20,79,33,44,30,8,9,0.8,0.7
2022-11-03T06:00:00,1335A,113.0833,28.2325,长沙市,经开区环保局,细颗粒物(PM2.5),67,62,56,48,36,151,6,39,33,79,42,8,8,0.7,0.7
2022-11-03T06:00:00,1336A,112.8872,28.2189,长沙市,高开区环保局,细颗粒物(PM2.5),125,120,78,95,63,147,26,39,26,50,33,9,9,0.8,0.7
2022-11-03T06:00:00,1337A,113.0792,28.2053,长沙市,马坡岭,细颗粒物(PM2.5),78,75,61,57,39,155,11,27,20,64,39,9,8,0.6,0.6
2022-11-03T06:00:00,1338A,112.9394,28.19,长沙市,湖南师范大学,细颗粒物(PM2.5),124,107,65,94,48,133,33,70,48,30,20,7,6,0.7,0.7
2022-11-03T06:00:00,1339A,113.0178,28.1322,长沙市,雨花区环保局,细颗粒物(PM2.5),70,85,58,51,33,144,4,48,17,82,45,9,8,0.4,0.4
2022-11-03T06:00:00,1340A,112.9792,28.2597,长沙市,伍家岭,细颗粒物(PM2.5),163,110,70,124,50,150,6,36,11,52,34,6,6,0.4,0.2
2022-11-03T06:00:00,1341A,113.0014,28.1944,长沙市,火车新站,细颗粒物(PM2.5),83,90,62,61,39,140,23,75,44,50,29,8,7,0.7,0.5
2022-11-03T06:00:00,1342A,112.9844,28.1178,长沙市,天心区环保局,细颗粒物(PM2.5),127,109,61,96,42,148,10,62,28,58,36,9,8,0.7,0.5
2022-11-03T06:00:00,1343A,112.8908,28.1308,长沙市,湖南中医药大学,细颗粒物(PM2.5),130,127,85,99,56,139,33,52,40,30,26,5,5,0.5,0.5
2022-11-03T06:00:00,1344A,112.9581,28.3611,长沙市,沙坪(对照点),细颗粒物(PM2.5),87,108,75,64,29,137,28,76,49,34,21,2,3,0.5,0.4
2022-11-03T06:00:00,1345A,113.2347,23.1423,广州市,广雅中学,,12,9,26,6,18,70,36,32,31,21,29,5,5,0.7,0.7
2022-11-03T06:00:00,1346A,113.2612,23.105,广州市,市五中,,14,8,24,6,19,82,43,48,47,18,22,4,5,0.6,0.6
2022-11-03T06:00:00,1348A,113.3478,23.0916,广州市,广东商学院,,14,8,22,4,16,75,43,53,48,14,19,5,5,0.5,0.5
2022-11-03T06:00:00,1349A,113.4332,23.1047,广州市,市八十六中,,15,8,26,4,12,62,25,49,36,30,20,6,6,0.5,0.5
2022-11-03T06:00:00,1350A,113.3505,22.9483,广州市,番禺中学,,11,6,22,4,14,73,34,52,45,22,20,4,4,0.6,0.6
2022-11-03T06:00:00,1351A,113.2146,23.3916,广州市,花都师范,,14,8,25,6,16,79,42,48,46,11,15,5,6,0.5,0.5
2022-11-03T06:00:00,1352A,113.2597,23.1331,广州市,市监测站,,13,8,26,5,16,78,41,44,43,17,23,5,5,0.5,0.6
2022-11-03T06:00:00,1353A,113.5618,23.312,广州市,九龙镇镇龙,,10,5,19,4,13,71,27,51,43,19,11,5,5,0.6,0.6
2022-11-03T06:00:00,1354A,113.2765,23.1544,广州市,麓湖,,12,7,25,5,15,71,37,48,43,20,22,3,3,0.4,0.4
2022-11-03T06:00:00,1355A,113.443,23.3035,广州市,帽峰山森林公园(对照点),,14,6,27,4,16,85,42,54,49,8,10,5,5,0.4,0.5
2022-11-03T06:00:00,1356A,114.1063,22.5545,深圳市,通心岭子站,,16,3,10,1,5,60,49,50,50,5,18,3,3,0.4,0.6
2022-11-03T06:00:00,1357A,114.117,22.5625,深圳市,洪湖,,12,4,13,1,6,60,32,38,37,23,22,6,6,0.7,0.6
2022-11-03T06:00:00,1358A,113.987,22.5417,深圳市,华侨城,,15,4,11,0,5,52,46,48,48,8,14,5,5,0.6,0.5
2022-11-03T06:00:00,1359A,113.9181,22.5171,深圳市,南海子站,,17,2,12,0,6,60,53,51,51,8,14,3,3,0.4,0.5
2022-11-03T06:00:00,1360A,114.2458,22.5689,深圳市,盐田,,13,10,7,0,2,64,41,54,50,5,6,5,5,0.6,0.5
2022-11-03T06:00:00,1361A,114.2283,22.7244,深圳市,龙岗,,10,3,8,0,3,58,32,36,35,13,15,3,3,0.4,0.4
2022-11-03T06:00:00,1362A,113.8953,22.5861,深圳市,西乡,,,,,,,,,,,,,,,,
2022-11-03T06:00:00,1363A,114.494,22.5422,深圳市,南澳,,24,2,2,0,0,80,76,79,78,6,6,2,4,0.6,0.6
2022-11-03T06:00:00,1364A,114.41,22.6342,深圳市,葵涌,,23,3,6,0,2,74,73,74,73,5,5,7,7,0.6,0.5
2022-11-03T06:00:00,1365A,114.297,22.5978,深圳市,梅沙,,24,12,7,1,1,77,74,76,75,4,6,6,7,0.5,0.4
2022-11-03T06:00:00,1366A,114.0678,22.738,深圳市,观澜,,12,4,10,0,4,53,38,40,39,8,12,6,6,0.4,0.4
2022-11-03T06:00:00,1367A,113.5814,22.2618,珠海市,吉大,,20,10,18,14,14,68,36,48,43,8,12,5,5,0.5,0.5
2022-11-03T06:00:00,1368A,113.4881,22.2335,珠海市,前山,,12,10,17,8,9,66,32,46,39,18,19,6,6,0.4,0.3
2022-11-03T06:00:00,1369A,113.628,22.4251,珠海市,唐家,,14,12,19,4,14,65,44,43,43,9,17,6,7,0.4,0.4
2022-11-03T06:00:00,1370A,113.299,22.2281,珠海市,斗门,,20,14,24,14,18,69,34,40,36,16,19,7,7,0.4,0.4
2022-11-03T06:00:00,1371A,113.1294,23.0067,佛山市,湾梁,,15,9,22,9,14,91,45,47,46,16,20,7,7,0.5,0.6
2022-11-03T06:00:00,1372A,113.1083,23.0478,佛山市,华材职中,,16,12,23,11,19,82,36,36,36,16,21,6,6,0.3,0.3
2022-11-03T06:00:00,1373A,113.144,23.0453,佛山市,南海气象局,,11,9,23,4,15,83,35,40,39,22,22,5,5,0.4,0.4
2022-11-03T06:00:00,1374A,113.2881,22.8094,佛山市,顺德苏岗,,11,8,14,2,12,70,32,41,40,22,24,5,5,0.6,0.6
2022-11-03T06:00:00,1375A,113.2544,22.7642,佛山市,容桂街道办,,,,,,,,,,,,,,,,
2022-11-03T06:00:00,1376A,112.8383,22.8678,佛山市,高明孔堂,,13,13,24,8,18,86,39,47,44,15,16,11,7,0.5,0.5
2022-11-03T06:00:00,1377A,112.8836,23.1588,佛山市,三水监测站,,12,7,18,8,17,77,38,39,39,16,18,6,5,0.5,0.5
2022-11-03T06:00:00,1378A,112.867,23.185,佛山市,三水云东海,,16,8,19,11,15,88,42,44,42,16,17,5,5,0.4,0.4
2022-11-03T06:00:00,1379A,113.3769,22.5211,中山市,华柏园,,18,4,19,12,18,68,36,49,42,17,23,4,5,0.4,0.4
2022-11-03T06:00:00,1380A,113.3881,22.5497,中山市,张溪,,15,3,21,10,22,71,37,51,43,14,21,5,5,0.4,0.5
2022-11-03T06:00:00,1381A,113.4075,22.5111,中山市,紫马岭,,12,8,20,0,10,67,37,45,39,10,17,6,6,0.3,0.4
2022-11-03T06:00:00,1382A,113.4411,22.4853,中山市,长江旅游区(对照点),,,,19,,21,55,,59,,,19,,7,,0.4
2022-11-03T06:00:00,1383A,113.1064,22.6058,江门市,北街,,15,12,18,10,17,86,39,48,45,17,20,6,6,0.4,0.4
2022-11-03T06:00:00,1384A,113.0731,22.5835,江门市,西区,,19,19,24,11,16,80,36,48,44,18,20,6,6,0.4,0.5
2022-11-03T06:00:00,1385A,113.0219,22.5311,江门市,圭峰西,,12,11,17,8,16,97,31,60,46,24,17,5,5,0.5,0.5
2022-11-03T06:00:00,1386A,113.0828,22.5947,江门市,东湖,,16,16,25,10,12,89,38,49,45,16,18,6,6,0.5,0.5
2022-11-03T06:00:00,1387A,113.7875,23.0457,东莞市,东城主山,,,,,,,,,,,,,,,,
2022-11-03T06:00:00,1388A,113.7533,23.0202,东莞市,南城元岭,,,,,,,,,,,,,,,,
2022-11-03T06:00:00,1389A,113.7547,23.0494,东莞市,莞城梨川,,12,4,13,3,8,68,37,55,49,20,20,7,7,0.6,0.5
2022-11-03T06:00:00,1390A,113.7944,23.0128,东莞市,东城石井,,14,5,10,3,6,62,43,41,39,8,13,8,8,0.5,0.5
2022-11-03T06:00:00,1391A,113.7383,22.9658,东莞市,南城西平,,12,6,15,8,8,58,32,25,25,19,23,6,6,0.4,0.7
2022-11-03T06:00:00,1392A,114.4183,23.0528,惠州市,河南岸金山湖子站,,15,8,10,10,10,62,34,39,37,9,11,5,6,0.5,0.5
2022-11-03T06:00:00,1393A,114.4053,23.0822,惠州市,下埔横江三路子站,,13,4,9,7,8,68,39,45,42,10,11,5,6,0.3,0.3
2022-11-03T06:00:00,1394A,114.4103,23.1142,惠州市,江北云山西路子站,,13,3,8,8,10,70,40,46,43,4,5,3,3,0.2,0.2
2022-11-03T06:00:00,1395A,114.4645,22.7833,惠州市,惠阳区承修路船湖子站,,12,8,9,8,9,64,35,41,40,13,13,3,3,0.4,0.3
2022-11-03T06:00:00,1396A,114.5317,22.7422,惠州市,大亚湾管委会子站,细颗粒物(PM2.5),90,8,7,67,22,68,60,65,64,13,10,4,3,0.8,0.7
2022-11-03T06:00:00,1397A,112.4267,23.0706,肇庆市,睦岗子站,,14,9,21,6,14,96,42,51,46,23,22,3,3,0.4,0.4
2022-11-03T06:00:00,1398A,112.4645,23.0475,肇庆市,城中子站,,18,7,20,4,13,99,55,57,56,12,14,10,9,0.5,0.5
2022-11-03T06:00:00,1399A,112.5544,23.1522,肇庆市,坑口子站,,15,10,20,7,13,100,47,59,52,20,18,8,7,0.5,0.5
2022-11-03T06:00:00,1400A,112.4753,23.1,肇庆市,七星岩子站(对照点),,15,8,19,5,11,97,45,51,47,10,10,3,3,0.5,0.5
2022-11-03T06:00:00,1401A,108.3103,22.7881,南宁市,二十一中,颗粒物(PM10),56,61,56,36,33,138,10,11,11,57,40,13,11,0.8,0.7
2022-11-03T06:00:00,1402A,108.3141,22.8528,南宁市,北湖,颗粒物(PM10),57,64,63,34,34,133,34,22,22,41,36,13,15,0.8,0.7
2022-11-03T06:00:00,1403A,108.3206,22.8225,南宁市,市监测站,颗粒物(PM10),60,69,62,37,34,130,21,14,14,50,49,13,18,0.8,0.7
2022-11-03T06:00:00,1404A,108.3829,22.8037,南宁市,大自然花园,颗粒物(PM10),61,72,51,40,33,129,10,70,26,74,37,11,9,0.8,0.7
2022-11-03T06:00:00,1405A,108.4394,22.7904,南宁市,仙葫(对照点),颗粒物(PM10),81,111,67,47,31,138,2,44,26,79,46,14,12,1.0,0.7
2022-11-03T06:00:00,1406A,108.2397,22.8467,南宁市,区农职院,颗粒物(PM10),56,61,47,34,24,143,4,38,17,63,38,10,11,0.8,0.7
2022-11-03T06:00:00,1407A,108.3275,22.735,南宁市,英华嘉园,颗粒物(PM10),57,63,53,35,33,127,32,42,37,41,38,12,10,0.6,0.6
2022-11-03T06:00:00,1408A,108.2257,22.7757,南宁市,沙井镇街道办,颗粒物(PM10),53,56,64,35,32,132,24,23,23,47,46,8,11,0.5,0.5
2022-11-03T06:00:00,1409A,110.576,19.9507,海口市,东寨港(对照点),,,9,21,15,22,78,24,38,33,,,5,10,0.4,0.3
2022-11-03T06:00:00,1410A,110.3232,20.0574,海口市,海南大学,,24,13,35,16,25,136,74,103,84,7,9,4,6,0.6,0.6
2022-11-03T06:00:00,1411A,110.283,20.0053,海口市,秀英海南医院,,21,18,41,12,20,131,65,90,79,11,12,4,7,0.7,0.7
2022-11-03T06:00:00,1412A,110.338,19.9969,海口市,海南师范大学,,28,27,42,19,23,127,68,90,80,7,10,5,7,0.6,0.6
2022-11-03T06:00:00,1413A,110.33,20.0356,海口市,龙华路环保局宿舍,,22,19,38,15,19,127,66,77,70,6,9,3,7,0.6,0.6
2022-11-03T06:00:00,1414A,106.3787,29.8279,重庆市,缙云山(对照点),,27,25,28,12,14,125,86,108,96,12,16,4,4,0.3,0.4
2022-11-03T06:00:00,1416A,106.4213,29.8253,重庆市,天生,颗粒物(PM10),82,113,62,49,34,126,3,3,3,70,51,35,14,0.7,0.7
2022-11-03T06:00:00,1417A,106.6263,29.7228,重庆市,两路,,35,35,34,24,20,111,19,66,49,69,51,13,8,0.8,0.7
2022-11-03T06:00:00,1418A,106.2953,29.5983,重庆市,虎溪,颗粒物(PM10),55,60,50,12,19,134,4,20,9,71,55,10,10,0.8,0.8
2022-11-03T06:00:00,1419A,106.5777,29.5102,重庆市,南坪,颗粒物(PM10),55,59,49,33,29,118,26,55,48,41,39,17,13,1.0,0.7
2022-11-03T06:00:00,1420A,106.6556,29.6277,重庆市,唐家沱,颗粒物(PM10),54,57,48,31,26,121,13,32,18,62,45,9,9,0.4,0.4
2022-11-03T06:00:00,1421A,106.6349,29.4906,重庆市,茶园,颗粒物(PM10),60,69,74,36,34,138,13,14,13,72,68,8,11,0.8,0.8
2022-11-03T06:00:00,1422A,106.3754,29.4572,重庆市,白市驿,,49,49,49,31,22,139,32,68,42,45,32,28,9,0.7,0.6
2022-11-03T06:00:00,1425A,106.6205,29.7166,重庆市,空港,,48,48,38,22,26,126,20,78,64,59,36,6,7,0.5,0.6
2022-11-03T06:00:00,1426A,106.4782,29.4875,重庆市,新山村,颗粒物(PM10),64,77,55,40,29,113,5,10,6,82,68,10,8,0.8,0.7
2022-11-03T06:00:00,1427A,106.5616,29.6453,重庆市,礼嘉,颗粒物(PM10),57,63,47,30,26,134,3,34,8,85,60,11,12,0.3,0.3
2022-11-03T06:00:00,1428A,106.4522,29.7091,重庆市,蔡家,,46,46,56,30,31,121,7,7,7,54,52,5,6,0.6,0.6
2022-11-03T06:00:00,1429A,106.5093,29.3917,重庆市,鱼新街,颗粒物(PM10),56,62,54,37,33,118,5,4,4,62,59,14,10,1.0,1.1
2022-11-03T06:00:00,1431A,103.9728,30.7236,成都市,金泉两河,细颗粒物(PM2.5),53,53,83,37,58,80,36,32,32,11,28,1,4,0.5,0.6
2022-11-03T06:00:00,1432A,104.1419,30.6764,成都市,十里店,细颗粒物(PM2.5),74,54,83,54,62,59,26,23,23,25,42,3,4,0.6,0.7
2022-11-03T06:00:00,1433A,104.0594,30.5767,成都市,三瓦窑,颗粒物(PM10),59,67,91,35,64,73,47,28,28,20,45,2,3,0.4,0.6
2022-11-03T06:00:00,1434A,104.1122,30.6306,成都市,沙河铺,,42,35,89,29,64,57,39,24,24,10,38,3,4,0.5,0.7
2022-11-03T06:00:00,1437A,104.0431,30.6556,成都市,君平街,细颗粒物(PM2.5),70,45,76,51,65,98,53,36,36,13,36,1,4,0.6,0.7
2022-11-03T06:00:00,1438A,103.6202,31.0201,成都市,灵岩寺(对照点),,29,14,39,11,27,103,90,92,91,6,11,1,2,0.6,0.7
2022-11-03T06:00:00,1439A,106.6899,26.5998,贵阳市,马鞍山,,29,29,28,19,16,112,22,16,16,21,21,5,5,0.7,0.7
2022-11-03T06:00:00,1440A,106.6971,26.5694,贵阳市,市环保站,,29,27,31,20,19,115,82,83,80,22,30,5,7,0.3,0.4
2022-11-03T06:00:00,1441A,106.6243,26.6266,贵阳市,鉴湖路,,36,36,36,19,15,122,59,91,82,20,16,4,5,0.4,0.5
2022-11-03T06:00:00,1442A,106.7487,26.6343,贵阳市,燕子冲,,41,41,36,24,25,124,37,33,30,16,18,4,5,0.4,0.3
2022-11-03T06:00:00,1443A,106.6555,26.4365,贵阳市,碧云窝,,41,41,67,24,25,119,15,17,16,19,22,4,6,0.5,0.6
2022-11-03T06:00:00,1444A,106.694,26.5161,贵阳市,中院村,颗粒物(PM10),51,51,48,22,25,120,82,70,70,18,41,10,9,0.4,0.5
2022-11-03T06:00:00,1445A,106.7109,26.6027,贵阳市,红边门,,32,31,36,22,21,116,77,63,63,14,27,6,7,0.4,0.5
2022-11-03T06:00:00,1446A,106.7164,26.5699,贵阳市,新华路,,35,29,39,24,21,119,89,82,82,6,26,5,5,0.3,0.4
2022-11-03T06:00:00,1447A,106.674,26.5424,贵阳市,太慈桥,,39,39,46,14,16,121,25,24,24,20,35,5,5,0.4,0.5
2022-11-03T06:00:00,1450A,102.8204,24.8886,昆明市,呈贡新区,,43,43,41,23,27,121,5,8,6,58,40,6,8,0.5,0.6
2022-11-03T06:00:00,1451A,102.6251,24.9608,昆明市,西山森林公园(对照点),,28,24,25,6,17,118,88,87,86,4,7,7,11,0.6,0.8
2022-11-03T06:00:00,1452A,102.7252,25.0902,昆明市,龙泉镇,,50,50,51,28,29,124,9,9,9,31,43,5,6,0.9,0.9
2022-11-03T06:00:00,1453A,102.7266,25.0375,昆明市,东风东路,,47,47,51,30,28,122,4,2,2,41,42,9,9,0.8,0.7
2022-11-03T06:00:00,1454A,102.6742,25.0669,昆明市,金鼎山,颗粒物(PM10),70,89,60,40,31,120,6,16,13,41,34,80,28,0.9,0.8
2022-11-03T06:00:00,1455A,102.6644,25.0401,昆明市,碧鸡广场,细颗粒物(PM2.5),64,74,52,46,30,119,8,24,13,52,42,81,18,0.7,0.7
2022-11-03T06:00:00,1456A,91.1319,29.6514,拉萨市,八廓街,,,6,10,,,104,66,63,63,7,9,8,8,0,0
2022-11-03T06:00:00,1457A,91.1221,29.6747,拉萨市,市环保局,,20,6,14,4,9,101,62,65,63,5,9,1,2,0.3,0.3
2022-11-03T06:00:00,1458A,91.0874,29.6475,拉萨市,区监测站,,22,5,6,1,3,112,70,90,78,5,5,9,9,0.4,0.3
2022-11-03T06:00:00,1459A,91.1774,29.6541,拉萨市,西藏大学,,22,11,12,1,4,105,69,72,71,7,9,10,10,0.0,0.1
2022-11-03T06:00:00,1460A,90.9798,29.6588,拉萨市,区辐射站,,19,5,6,6,8,104,58,83,67,7,8,9,9,0.2,0.3
2022-11-03T06:00:00,1461A,91.0834,29.6292,拉萨市,拉萨火车站,,22,6,7,0,3,106,69,91,76,5,5,10,10,0,0
2022-11-03T06:00:00,1462A,108.882,34.2749,西安市,高压开关厂,颗粒物(PM10),73,95,142,44,98,67,5,15,11,53,48,8,9,0.5,0.7
2022-11-03T06:00:00,1463A,108.993,34.2629,西安市,兴庆小区,颗粒物(PM10),56,62,107,28,67,73,16,26,21,38,43,6,7,0.5,0.8
2022-11-03T06:00:00,1464A,109.06,34.2572,西安市,纺织城,颗粒物(PM10),69,88,150,34,70,77,4,5,4,54,57,9,10,0.6,0.9
2022-11-03T06:00:00,1465A,108.9356,34.2173,西安市,小寨,颗粒物(PM10),60,69,144,25,65,55,23,28,26,34,51,8,9,0.9,1.3
2022-11-03T06:00:00,1466A,108.954,34.2713,西安市,市人民体育场,颗粒物(PM10),61,72,120,41,89,76,9,20,16,45,42,8,8,0.4,0.7
2022-11-03T06:00:00,1467A,108.8922,34.2322,西安市,高新西区,"颗粒物(PM10),细颗粒物(PM2.5)",60,70,131,43,73,65,16,25,21,39,49,9,9,0.7,1
2022-11-03T06:00:00,1468A,108.935,34.3474,西安市,经开区,颗粒物(PM10),64,77,106,34,70,75,9,11,10,43,42,6,8,0.5,0.8
2022-11-03T06:00:00,1469A,108.906,34.1546,西安市,长安区,颗粒物(PM10),69,88,171,27,69,63,39,33,33,25,44,7,7,0.4,0.8
2022-11-03T06:00:00,1470A,109.2,34.6575,西安市,阎良区,,,,,,,,,,,,,,,,
2022-11-03T06:00:00,1471A,109.2186,34.3731,西安市,临潼区,颗粒物(PM10),66,81,132,45,65,110,45,50,48,22,30,8,8,0.6,0.7
2022-11-03T06:00:00,1472A,108.869,34.378,西安市,草滩(对照点),颗粒物(PM10),66,81,115,37,70,93,9,14,12,46,50,9,10,0.8,1.2
2022-11-03T06:00:00,1473A,108.985,34.1978,西安市,曲江文化产业集团,颗粒物(PM10),60,70,141,40,100,58,24,29,27,40,54,6,6,0.6,0.9
2022-11-03T06:00:00,1474A,109.051,34.3213,西安市,广运潭,颗粒物(PM10),58,65,117,34,71,78,8,9,7,41,47,6,8,0.7,0.9
2022-11-03T06:00:00,1476A,103.631,36.1031,兰州市,兰炼宾馆,,49,49,66,25,33,95,60,78,71,21,20,8,12,0.4,0.4
2022-11-03T06:00:00,1477A,104.1373,35.9454,兰州市,榆中兰大校区(对照点),,,,,,,,,,,,,,,,
2022-11-03T06:00:00,1478A,103.8412,36.0726,兰州市,生物制品所,,49,49,68,26,35,95,55,53,53,23,28,5,14,0.7,0.8
2022-11-03T06:00:00,1479A,103.831,36.0464,兰州市,铁路设计院,颗粒物(PM10),52,54,63,21,29,98,69,65,62,19,23,8,18,0.6,0.6
2022-11-03T06:00:00,1480A,101.748,36.6428,西宁市,市环境监测站,,,,,,,,,,,,,,,,
2022-11-03T06:00:00,1482A,101.834,36.5819,西宁市,四陆医院,,,,,,,,,,,,,,,,
2022-11-03T06:00:00,1483A,101.524,36.6867,西宁市,第五水厂(对照点),,,,,,,,,,,,,,,,
2022-11-03T06:00:00,1484A,105.9512,38.6016,银川市,贺兰山马莲口(对照点),颗粒物(PM10),53,56,57,33,32,81,52,78,67,23,25,16,22,0.5,0.5
2022-11-03T06:00:00,1488A,106.2328,38.4975,银川市,贺兰山东路,颗粒物(PM10),81,111,99,58,62,61,5,7,6,58,61,8,15,1.0,1
2022-11-03T06:00:00,1489A,106.1358,38.5036,银川市,学院路,颗粒物(PM10),88,126,104,46,40,59,5,9,6,48,54,10,18,1.1,1.3
2022-11-03T06:00:00,1490A,87.5801,43.8303,乌鲁木齐市,监测站,颗粒物(PM10),55,59,55,30,37,52,8,7,5,47,44,6,8,1.4,1.2
2022-11-03T06:00:00,1491A,87.6046,43.768,乌鲁木齐市,收费所,,43,43,52,15,39,70,13,8,8,42,40,6,9,0.4,0.5
2022-11-03T06:00:00,1492A,87.4754,43.9469,乌鲁木齐市,新疆农科院农场(对照点),,35,20,21,24,40,60,8,2,2,40,40,7,8,1.2,1.2
2022-11-03T06:00:00,1493A,87.5525,43.8711,乌鲁木齐市,铁路局,细颗粒物(PM2.5),54,53,53,38,38,57,10,3,3,38,37,5,7,1.3,1.2
2022-11-03T06:00:00,1494A,87.6432,43.831,乌鲁木齐市,三十一中学,,,70,70,,,63,15,32,28,49,33,12,13,0.7,0.5
2022-11-03T06:00:00,1496A,87.7216,44.1747,乌鲁木齐市,米东区环保局,,43,43,52,30,28,75,32,20,20,18,20,9,9,0.4,0.5
2022-11-03T06:00:00,1508A,112.9433,27.8614,湘潭市,板塘,细颗粒物(PM2.5),145,96,60,111,40,156,14,59,40,72,35,14,10,0.5,0.3
2022-11-03T06:00:00,1511A,112.9118,27.8403,湘潭市,市监测站,颗粒物(PM10),97,144,77,53,36,150,32,53,43,40,32,10,8,0.8,0.6
2022-11-03T06:00:00,1512A,112.8937,27.8728,湘潭市,江麓,细颗粒物(PM2.5),117,120,77,88,54,154,44,67,55,37,29,8,12,0.6,0.5
2022-11-03T06:00:00,1513A,112.9227,27.8159,湘潭市,岳塘,细颗粒物(PM2.5),75,78,59,55,35,160,36,76,48,59,35,9,7,0.5,0.4
2022-11-03T06:00:00,1514A,112.9074,27.9119,湘潭市,科大,细颗粒物(PM2.5),118,90,65,89,74,154,29,48,39,56,36,11,8,,0.6
2022-11-03T06:00:00,1515A,113.135,27.8244,株洲市,天台山庄,,46,45,41,32,25,145,64,86,76,31,24,5,5,0.4,0.3
2022-11-03T06:00:00,1518A,113.095,27.8867,株洲市,株冶医院,,41,41,47,25,28,143,80,80,80,28,34,6,6,0.2,0.3
2022-11-03T06:00:00,1519A,113.167,27.8667,株洲市,市四中,细颗粒物(PM2.5),54,51,44,38,32,152,48,56,55,42,39,5,5,0.4,0.4
2022-11-03T06:00:00,1520A,113.143,27.8381,株洲市,火车站,细颗粒物(PM2.5),57,56,48,40,30,143,41,55,52,43,33,10,8,0.6,0.6
2022-11-03T06:00:00,1524A,113.13,27.8528,株洲市,市监测站,细颗粒物(PM2.5),54,48,45,38,30,144,56,91,72,45,31,9,6,0.6,0.5
2022-11-03T06:00:00,1552A,106.805,26.3003,贵阳市,桐木岭(对照点),,,,,,,,,,,,,,,,
2022-11-03T06:00:00,1559A,113.251,27.8336,株洲市,大京风景区(对照点),颗粒物(PM10),54,58,41,35,28,132,40,58,51,18,11,7,6,0.4,0.4
2022-11-03T06:00:00,1562A,113.0048,27.9153,湘潭市,昭山,颗粒物(PM10),63,75,64,42,32,146,16,6,6,61,46,5,4,0.4,0.3
2022-11-03T06:00:00,1564A,112.4876,27.9164,湘潭市,韶山(对照点),颗粒物(PM10),53,55,45,26,22,143,96,104,103,16,15,12,8,0.5,0.5
2022-11-03T06:00:00,1585A,109.8756,40.6532,包头市,市环境监测站,,14,14,30,5,12,78,36,42,41,12,15,10,10,0.5,0.3
2022-11-03T06:00:00,1587A,109.9991,40.5842,包头市,包头八中,,37,37,54,10,11,76,30,24,24,30,25,25,14,0.9,0.5
2022-11-03T06:00:00,1588A,109.8538,40.6821,包头市,青山宾馆,,21,21,34,6,10,79,38,42,40,10,15,14,13,0.4,0.5
2022-11-03T06:00:00,1589A,109.8642,40.6288,包头市,惠龙物流,,25,17,37,17,12,79,38,42,41,13,14,9,9,0.5,0.5
2022-11-03T06:00:00,1590A,110.0377,40.5546,包头市,东河鸿龙湾,,22,22,47,3,16,71,7,26,23,44,28,20,18,1.8,0.9
2022-11-03T06:00:00,1591A,110.0023,39.8129,鄂尔多斯市,综合楼,,33,33,61,6,16,59,42,38,30,26,41,9,18,0.6,0.8
2022-11-03T06:00:00,1592A,109.9486,39.8261,鄂尔多斯市,巴音孟克林场办事处,,39,39,71,19,22,63,23,36,29,45,41,17,17,0.7,0.7
2022-11-03T06:00:00,1593A,109.7736,39.5986,鄂尔多斯市,康泽苑,,34,34,46,9,16,71,28,46,38,18,19,6,8,0.6,0.6
2022-11-03T06:00:00,1594A,109.8119,39.5989,鄂尔多斯市,华泰汽车城,,31,31,43,19,21,71,31,32,23,13,25,6,9,0.5,0.6
2022-11-03T06:00:00,1595A,109.9734,39.7884,鄂尔多斯市,奥林花园,,39,39,72,9,21,60,44,37,33,22,41,8,14,0.4,0.6
2022-11-03T06:00:00,1596A,122.2414,40.6592,营口市,学府南路,,,,,,,,,,,,,,,,
2022-11-03T06:00:00,1597A,122.2703,40.7094,营口市,大庆路,,24,24,41,11,23,41,37,41,39,11,26,6,11,0.6,0.7
2022-11-03T06:00:00,1598A,122.215,40.6511,营口市,镜湖西路,,28,28,42,6,16,61,41,44,42,6,22,4,5,0.9,0.9
2022-11-03T06:00:00,1599A,122.167,40.6655,营口市,西炮台,,19,19,33,8,18,72,40,46,43,14,25,9,9,0.4,0.6
2022-11-03T06:00:00,1600A,124.3303,40.0625,丹东市,江湾东路,,18,18,39,6,24,61,48,35,35,9,22,14,16,0.4,0.8
2022-11-03T06:00:00,1601A,124.4256,40.1503,丹东市,临江后街,,16,10,29,4,17,67,51,39,39,5,16,6,11,0.4,0.7
2022-11-03T06:00:00,1602A,124.3933,40.1461,丹东市,元宝山,,20,20,38,8,26,51,46,32,32,12,25,11,15,0.7,0.9
2022-11-03T06:00:00,1603A,124.3633,40.1092,丹东市,民主桥,,21,21,33,8,18,58,49,32,32,4,22,7,12,0.3,0.7
2022-11-03T06:00:00,1604A,122.0303,41.1489,盘锦市,开发区,,15,14,41,4,17,51,45,43,43,10,25,5,12,0.4,0.7
2022-11-03T06:00:00,1605A,122.0485,41.0883,盘锦市,兴隆台,,14,14,47,5,19,49,44,43,43,7,24,6,15,0.3,0.8
2022-11-03T06:00:00,1606A,121.8297,41.1028,盘锦市,新生街道,,,,33,,23,38,,34,,,25,,10,,0.7
2022-11-03T06:00:00,1607A,120.9092,40.7136,葫芦岛市,龙港区,,29,29,53,5,17,58,46,44,44,9,21,21,75,0.5,0.7
2022-11-03T06:00:00,1608A,120.8392,40.7514,葫芦岛市,化工街,,17,17,50,5,20,56,52,50,50,6,33,5,14,0.2,0.6
2022-11-03T06:00:00,1609A,120.8341,40.7073,葫芦岛市,新区,,17,15,39,0,10,60,53,48,48,1,24,8,15,0.4,0.6
2022-11-03T06:00:00,1610A,120.8695,40.7677,葫芦岛市,东城区,,15,6,40,2,14,49,47,43,43,1,25,13,20,0.3,0.5
2022-11-03T06:00:00,1611A,118.5819,24.9117,泉州市,涂山街,,18,11,17,6,7,92,55,83,70,8,6,6,6,0.5,0.5
2022-11-03T06:00:00,1612A,118.5972,24.8978,泉州市,津头埔,,17,12,18,9,10,94,54,88,74,11,9,6,6,0.6,0.5
2022-11-03T06:00:00,1613A,118.6663,24.9424,泉州市,万安,,20,8,21,5,13,98,64,93,83,7,5,6,6,0.5,0.5
2022-11-03T06:00:00,1614A,118.6117,24.9604,泉州市,清源山(对照点),,,,,,,,,,,,,,,,
2022-11-03T06:00:00,1616A,117.6795,36.229,济南市,技术学院,颗粒物(PM10),64,78,83,42,35,124,12,49,28,80,57,6,9,0.7,0.7
2022-11-03T06:00:00,1618A,118.3429,35.0532,临沂市,沂河小区,颗粒物(PM10),53,56,54,31,30,139,47,72,59,10,13,11,10,0.4,0.4
2022-11-03T06:00:00,1619A,118.295,35.0583,临沂市,鲁南制药厂,,39,39,47,19,24,146,62,78,70,20,25,8,11,0.5,0.5
2022-11-03T06:00:00,1620A,118.2794,34.9976,临沂市,新光毛纺厂,颗粒物(PM10),51,51,53,28,28,131,25,59,50,40,32,4,6,0.6,0.7
2022-11-03T06:00:00,1621A,118.3956,35.0888,临沂市,河东保险公司,细颗粒物(PM2.5),67,58,52,48,32,142,15,54,34,48,28,5,8,0.8,0.7
2022-11-03T06:00:00,1622A,116.3032,37.4674,德州市,儿童乐园,颗粒物(PM10),59,68,97,31,46,138,52,48,39,14,29,5,10,0.5,0.6
2022-11-03T06:00:00,1624A,116.2991,37.4451,德州市,监理站,颗粒物(PM10),53,56,95,29,60,141,50,77,44,14,23,8,13,0.4,0.6
2022-11-03T06:00:00,1625A,115.9848,36.4372,聊城市,区政府,"颗粒物(PM10),细颗粒物(PM2.5)",79,108,78,58,30,125,36,62,46,29,25,12,19,0.6,0.5
2022-11-03T06:00:00,1628A,118.0062,37.3803,滨州市,市环保局,,48,48,104,29,47,116,44,34,34,9,33,11,19,0.7,1
2022-11-03T06:00:00,1629A,118.0018,37.3617,滨州市,第二水厂,,44,44,92,23,45,119,49,37,37,16,51,7,15,0.6,0.9
2022-11-03T06:00:00,1630A,117.9776,37.393,滨州市,北中新校,,39,34,85,27,43,112,48,38,38,13,46,9,15,0.4,0.7
2022-11-03T06:00:00,1631A,118.0414,36.8103,淄博市,人民公园,细颗粒物(PM2.5),92,90,95,68,49,126,38,61,41,24,51,5,16,0.6,0.8
2022-11-03T06:00:00,1632A,118.0253,36.8406,淄博市,东风化工厂,,,,,,,,,,,,,,,,
2022-11-03T06:00:00,1633A,117.8525,36.4847,淄博市,双山,颗粒物(PM10),90,129,72,66,34,119,16,103,67,61,31,22,11,0.9,0.9
2022-11-03T06:00:00,1634A,117.9592,36.6331,淄博市,气象站,颗粒物(PM10),89,128,86,61,35,127,5,84,57,73,48,15,15,0.8,0.7
2022-11-03T06:00:00,1635A,118.3092,36.8194,淄博市,莆田园,颗粒物(PM10),59,68,80,39,45,138,43,57,42,21,40,4,12,0.4,0.9
2022-11-03T06:00:00,1636A,117.8661,36.805,淄博市,三金集团,,,,,,,,,,,,,,,,
2022-11-03T06:00:00,1637A,117.558,34.8438,枣庄市,市中区政府,,,70,66,27,29,,,,,22,23,9,14,0.6,0.6
2022-11-03T06:00:00,1638A,117.2852,34.7837,枣庄市,薛城环保局,颗粒物(PM10),61,71,60,36,29,140,36,56,48,44,35,22,19,0.8,0.7
2022-11-03T06:00:00,1639A,117.5852,34.7745,枣庄市,峄城区政府,颗粒物(PM10),57,63,65,34,28,142,47,69,58,24,23,17,12,0.9,0.9
2022-11-03T06:00:00,1640A,117.7276,34.5578,枣庄市,台儿庄区环保局,,,51,56,,,136,40,50,43,28,26,11,12,0.9,0.8
2022-11-03T06:00:00,1641A,117.4518,35.0992,枣庄市,山亭区环保局,颗粒物(PM10),56,61,48,32,22,152,69,93,82,21,21,12,12,0.9,0.8
2022-11-03T06:00:00,1642A,121.2514,37.5639,烟台市,开发区,,17,14,52,9,21,84,54,48,45,9,41,8,12,0.4,0.6
2022-11-03T06:00:00,1643A,121.3719,37.5433,烟台市,轴承厂,,18,17,39,12,20,94,54,57,51,14,25,8,12,0.3,0.3
2022-11-03T06:00:00,1644A,121.3181,37.5436,烟台市,西郊化工站,,20,17,52,10,20,92,61,47,47,8,30,9,14,0.8,0.8
2022-11-03T06:00:00,1645A,121.4478,37.4822,烟台市,莱山环保局,,24,24,36,8,14,91,50,67,57,8,17,7,9,0.5,0.2
2022-11-03T06:00:00,1646A,121.2611,37.4967,烟台市,福山环保局,,22,22,66,2,25,92,52,34,34,14,45,7,10,0.3,0.5
2022-11-03T06:00:00,1648A,119.12,36.7019,潍坊市,仲裁委,,,,,,,,,,,,,,,,
2022-11-03T06:00:00,1650A,119.1437,36.7023,潍坊市,环保局,颗粒物(PM10),56,61,73,35,31,115,43,62,56,29,35,4,6,0.8,0.8
2022-11-03T06:00:00,1652A,119.1936,36.7729,潍坊市,寒亭监测站,,,,,,,,,,,,,,,,
2022-11-03T06:00:00,1653A,116.6251,35.4302,济宁市,火炬城,细颗粒物(PM2.5),64,66,48,46,27,133,36,71,55,39,23,9,10,0.5,0.5
2022-11-03T06:00:00,1655A,116.5491,35.4042,济宁市,电化厂,颗粒物(PM10),63,76,60,41,30,133,46,81,70,32,24,13,13,0.7,0.6
2022-11-03T06:00:00,1656A,117.1437,36.1937,泰安市,监测站,颗粒物(PM10),62,73,73,43,40,122,56,61,59,18,22,10,13,0.6,0.6
2022-11-03T06:00:00,1657A,117.0885,36.2017,泰安市,人口学校,颗粒物(PM10),52,53,64,32,29,114,59,91,68,23,25,9,13,0.3,0.3
2022-11-03T06:00:00,1658A,117.1089,36.1758,泰安市,电力学校,颗粒物(PM10),63,75,73,34,29,122,29,66,44,45,40,8,11,1.0,0.9
2022-11-03T06:00:00,1659A,119.471,35.4209,日照市,监测站,,41,41,38,18,18,110,0,0,0,46,35,6,7,0.8,0.8
2022-11-03T06:00:00,1660A,119.523,35.4216,日照市,市政府广场,,34,34,39,12,12,116,12,36,12,56,30,5,5,0.7,0.5
2022-11-03T06:00:00,1661A,119.5587,35.4044,日照市,港务局,,46,46,43,16,15,123,14,45,15,62,32,6,6,0.7,0.5
2022-11-03T06:00:00,1662A,122.1214,37.4236,威海市,华夏技校,,35,24,28,24,13,92,55,90,76,12,15,6,6,0.4,0.2
2022-11-03T06:00:00,1663A,122.0508,37.5236,威海市,山大分校,,27,27,29,17,8,88,61,88,71,11,20,3,4,0.4,0.3
2022-11-03T06:00:00,1664A,122.1067,37.5072,威海市,市监测站,,29,29,32,17,13,91,58,91,72,11,34,5,5,0.6,0.6
2022-11-03T06:00:00,1665A,118.5019,37.4658,东营市,西城阳光环保公司,,,,,,,,,,,,,,,,
2022-11-03T06:00:00,1666A,118.6614,37.4309,东营市,市环保局,,31,31,73,19,35,138,51,48,48,13,36,7,14,0.7,0.9
2022-11-03T06:00:00,1669A,113.5824,24.7733,韶关市,市八中,,16,8,22,9,14,99,51,55,53,5,8,7,8,0.4,0.4
2022-11-03T06:00:00,1670A,113.5556,24.8082,韶关市,碧湖山庄,,,,,,,,,,,,,,,,
2022-11-03T06:00:00,1671A,113.5917,24.7972,韶关市,园林处,,15,12,22,8,16,99,48,52,50,4,5,8,9,0.4,0.4
2022-11-03T06:00:00,1672A,113.6735,24.7791,韶关市,韶关学院,,40,21,23,28,20,93,40,47,41,11,12,7,8,0.5,0.4
2022-11-03T06:00:00,1673A,113.5971,24.6863,韶关市,曲江监测站,,14,12,24,7,17,100,44,54,52,10,10,6,8,0.5,0.5
2022-11-03T06:00:00,1674A,116.6794,23.3667,汕头市,金平子站,,23,14,21,16,14,75,59,70,63,13,20,8,9,0.4,0.4
2022-11-03T06:00:00,1675A,116.7244,23.3633,汕头市,龙湖子站,,22,21,25,15,12,80,67,75,69,10,15,9,9,0.5,0.5
2022-11-03T06:00:00,1676A,116.7258,23.2775,汕头市,濠江子站,,22,12,17,11,12,84,70,77,72,9,12,7,7,0.6,0.6
2022-11-03T06:00:00,1677A,116.7519,23.4714,汕头市,澄海子站,,18,9,17,3,11,74,55,69,59,9,16,3,12,0.6,0.6
2022-11-03T06:00:00,1678A,116.6092,23.2539,汕头市,潮阳子站,,21,13,18,8,8,82,66,74,70,10,12,8,8,0.5,0.5
2022-11-03T06:00:00,1679A,116.4069,23.2533,汕头市,潮南子站,,,,,,,,,,,,,,,,
2022-11-03T06:00:00,1680A,110.3539,21.2706,湛江市,湛江影剧院,,27,24,41,16,28,134,85,95,85,8,15,9,15,0.5,0.6
2022-11-03T06:00:00,1681A,110.3928,21.2228,湛江市,市环境监测站,,32,20,40,22,34,129,77,86,82,8,12,10,11,0.5,0.5
2022-11-03T06:00:00,1682A,110.4019,21.1997,湛江市,环保局宿舍,,24,24,39,16,31,125,75,84,80,10,12,13,11,0.4,0.5
2022-11-03T06:00:00,1683A,110.4111,21.2028,湛江市,霞山游泳场,,26,19,44,17,31,126,82,85,84,7,12,11,13,0.4,0.5
2022-11-03T06:00:00,1684A,110.3316,21.2679,湛江市,麻章区环保局,,36,36,47,22,32,129,73,93,80,10,15,14,13,0.5,0.5
2022-11-03T06:00:00,1685A,110.4558,21.2567,湛江市,坡头区环保局,,28,23,41,19,34,126,76,83,79,7,12,7,10,0.5,0.6
2022-11-03T06:00:00,1686A,111.0286,21.4688,茂名市,电白南海,,34,34,44,12,26,104,59,48,48,13,15,12,10,0.4,0.5
2022-11-03T06:00:00,1687A,110.9294,21.6533,茂名市,茂石化七小,,25,24,40,17,30,106,61,54,54,9,15,18,15,0.4,0.6
2022-11-03T06:00:00,1688A,110.9107,21.6687,茂名市,健康路,,19,17,40,11,24,109,59,58,54,12,16,31,20,0.6,0.7
2022-11-03T06:00:00,1689A,110.8592,21.6828,茂名市,高岭,,20,12,45,14,33,106,55,46,46,14,21,29,21,0,0.8
2022-11-03T06:00:00,1690A,116.1231,24.3284,梅州市,梅江月梅,,9,8,8,6,4,42,24,32,29,17,21,4,4,0.5,0.4
2022-11-03T06:00:00,1691A,116.0797,24.2719,梅州市,梅县新城,,13,11,10,9,11,46,17,24,22,25,27,8,7,0.5,0.4
2022-11-03T06:00:00,1692A,116.1248,24.2654,梅州市,环境监控中心,,12,12,6,8,7,66,38,41,39,10,10,8,7,0.3,0.3
2022-11-03T06:00:00,1693A,115.3653,22.775,汕尾市,市环保局,,21,14,8,5,5,70,66,70,64,5,6,7,7,0.7,0.7
2022-11-03T06:00:00,1694A,115.3706,22.7898,汕尾市,市政府,,19,12,8,7,12,66,60,64,61,5,6,6,6,0.5,0.6
2022-11-03T06:00:00,1695A,115.3622,22.7925,汕尾市,新城中学,,20,8,12,8,6,66,62,64,62,4,5,8,8,0.6,0.6
2022-11-03T06:00:00,1696A,114.6778,23.7569,河源市,源西(对照点),,19,7,7,13,6,64,19,36,24,24,14,3,3,0.5,0.4
2022-11-03T06:00:00,1697A,114.6944,23.7586,河源市,东埔,,10,9,9,7,8,65,28,32,28,11,10,4,4,0.5,0.5
2022-11-03T06:00:00,1698A,114.6892,23.7233,河源市,老城,,12,7,11,8,6,64,25,38,30,18,12,3,3,0.6,0.6
2022-11-03T06:00:00,1699A,111.9797,21.8593,阳江市,鸳鸯湖(对照点),,20,17,21,14,20,99,51,61,57,7,8,6,7,0.5,0.6
2022-11-03T06:00:00,1700A,111.9508,21.8536,阳江市,南恩路,,,,,,,,,,,,,,,,
2022-11-03T06:00:00,1701A,111.9491,21.8658,阳江市,马南垌,,22,14,26,15,18,100,50,61,56,12,14,7,7,0.5,0.5
2022-11-03T06:00:00,1702A,113.0426,23.691,清远市,环保大楼(对照点),,21,3,15,6,13,105,67,75,70,2,5,2,3,0.5,0.7
2022-11-03T06:00:00,1703A,113.0208,23.7106,清远市,凤城街办,,16,3,16,2,9,78,50,52,50,6,11,7,8,0.6,0.6
2022-11-03T06:00:00,1705A,116.6367,23.6719,潮州市,西园路(对照点),,16,9,11,11,10,71,33,56,40,7,7,6,6,0.7,0.7
2022-11-03T06:00:00,1706A,116.6447,23.6706,潮州市,档案局,,16,10,13,11,10,70,28,54,38,6,6,7,6,0.5,0.5
2022-11-03T06:00:00,1708A,116.3701,23.5345,揭阳市,新兴,,36,12,19,25,19,62,37,56,50,9,11,19,13,0.6,0.6
2022-11-03T06:00:00,1709A,116.3264,23.5443,揭阳市,西马,,49,27,24,34,20,53,21,52,38,13,18,15,9,0.6,0.7
2022-11-03T06:00:00,1710A,116.3611,23.5626,揭阳市,东兴,,50,28,22,35,15,57,15,52,37,25,20,14,10,0.6,0.6
2022-11-03T06:00:00,1711A,116.4151,23.5294,揭阳市,渔湖,,18,14,21,12,13,56,33,51,43,12,15,10,10,0.5,0.5
2022-11-03T06:00:00,1712A,112.0392,22.9169,云浮市,新市府(对照点),,26,20,26,18,21,101,25,44,35,28,20,32,16,0.5,0.5
2022-11-03T06:00:00,1713A,112.0369,22.9394,云浮市,市监测站,,,,,,,,,,,,,,,,
2022-11-03T06:00:00,1714A,112.0539,22.9539,云浮市,牧羊,,38,38,24,20,17,96,2,72,39,37,20,25,28,0.6,0.5
2022-11-03T06:00:00,1715A,102.575,24.3711,玉溪市,东风水库,,22,8,29,15,18,106,17,28,23,13,14,4,5,0.9,0.8
2022-11-03T06:00:00,1718A,115.4208,35.2464,菏泽市,气象局,颗粒物(PM10),80,109,88,58,42,141,29,81,68,52,26,8,6,0.5,0.5
2022-11-03T06:00:00,1719A,115.4747,35.2375,菏泽市,市政协,细颗粒物(PM2.5),100,119,83,75,44,145,28,62,48,56,33,11,6,0.4,0.4
2022-11-03T06:00:00,1720A,115.455,35.27,菏泽市,菏泽学院,,,,,,,,,,,,,,,,
2022-11-03T06:00:00,1721A,113.3819,40.1097,大同市,果树场(对照点),,,,,,,,,,,,,,,,
2022-11-03T06:00:00,1723A,113.2994,40.0758,大同市,云冈宾馆,,,13,44,,,67,39,60,51,10,19,11,11,0.9,1
2022-11-03T06:00:00,1724A,113.3444,40.0917,大同市,大同大学,,18,18,53,2,20,74,41,61,53,8,16,19,14,0.6,0.7
2022-11-03T06:00:00,1725A,113.2661,40.1269,大同市,安家小村,,,,,,,,,,,,,,,,
2022-11-03T06:00:00,1726A,113.2711,40.0844,大同市,教育学院,,21,21,53,7,31,65,40,59,51,10,16,10,12,0.3,0.4
2022-11-03T06:00:00,1727A,113.1147,36.1547,长治市,清华站,细颗粒物(PM2.5),104,90,67,78,58,145,49,117,88,37,15,8,9,0.7,0.6
2022-11-03T06:00:00,1728A,113.1031,36.1989,长治市,监测站,细颗粒物(PM2.5),117,95,74,88,59,128,61,106,88,26,22,10,10,1.1,0.9
2022-11-03T06:00:00,1730A,113.0886,36.2125,长治市,审计局,细颗粒物(PM2.5),125,80,65,95,67,136,56,105,92,28,17,6,7,0.7,0.5
2022-11-03T06:00:00,1731A,113.0844,36.1856,长治市,长治八中,细颗粒物(PM2.5),93,100,78,69,54,134,53,103,89,29,19,14,14,0.9,0.8
2022-11-03T06:00:00,1733A,111.5531,36.0783,临汾市,临钢医院,细颗粒物(PM2.5),128,89,88,97,103,123,3,3,3,59,58,2,3,0.9,0.9
2022-11-03T06:00:00,1734A,111.5028,36.0714,临汾市,技工学校,细颗粒物(PM2.5),134,117,112,102,97,125,2,2,2,47,43,5,5,0.9,0.9
2022-11-03T06:00:00,1735A,111.5169,36.0822,临汾市,工商学校,,,,,,,,,,,,,,,,
2022-11-03T06:00:00,1736A,111.5018,36.0855,临汾市,市委,细颗粒物(PM2.5),127,114,100,96,96,124,5,6,5,51,46,3,4,1.0,0.9
2022-11-03T06:00:00,1738A,113.5758,37.8572,阳泉市,市中心,细颗粒物(PM2.5),65,59,144,47,97,114,78,75,69,15,40,6,12,0.7,1.1
2022-11-03T06:00:00,1739A,113.4894,37.8731,阳泉市,赛鱼,细颗粒物(PM2.5),69,62,136,50,102,111,70,69,64,13,37,7,11,0.9,1
2022-11-03T06:00:00,1740A,113.5819,37.8486,阳泉市,南庄,细颗粒物(PM2.5),59,64,158,42,94,110,74,72,66,14,38,10,16,0.8,1.1
2022-11-03T06:00:00,1741A,113.6292,37.8531,阳泉市,白羊墅,,,,,,,,,,,,,,,,
2022-11-03T06:00:00,1742A,113.5614,37.8703,阳泉市,平坦,细颗粒物(PM2.5),62,68,155,44,104,120,86,80,77,16,42,4,11,0.7,1.1
2022-11-03T06:00:00,1743A,113.5158,37.8392,阳泉市,大阳泉,颗粒物(PM10),67,84,115,23,77,119,74,73,66,16,34,7,11,0.9,1
2022-11-03T06:00:00,1744A,118.9233,42.2816,赤峰市,松山一中,,16,14,27,3,9,55,19,43,31,32,30,16,13,0.6,0.6
2022-11-03T06:00:00,1745A,118.9576,42.2728,赤峰市,哈达街,,18,18,29,2,6,56,23,49,32,21,21,15,14,0.6,0.5
2022-11-03T06:00:00,1746A,118.8788,42.2554,赤峰市,天义路,,16,16,28,10,9,57,17,46,34,28,28,23,17,0.5,0.5
2022-11-03T06:00:00,1748A,123.044,41.1196,鞍山市,深沟寺,,17,17,44,9,29,50,40,28,28,12,34,9,9,0.5,0.9
2022-11-03T06:00:00,1749A,123.011,41.0931,鞍山市,太阳城,,16,16,43,5,27,47,47,32,32,7,29,11,13,0.3,0.8
2022-11-03T06:00:00,1750A,123.0485,41.1442,鞍山市,太平,,18,18,57,7,30,39,36,30,30,15,40,19,17,0.6,0.9
2022-11-03T06:00:00,1751A,122.9642,41.0971,鞍山市,铁西三道街,,,,,,,,,,,,,,,,
2022-11-03T06:00:00,1752A,122.9341,41.0833,鞍山市,铁西工业园区,,24,24,59,11,25,45,27,20,20,33,50,30,34,0.8,1.4
2022-11-03T06:00:00,1753A,123.022,41.0821,鞍山市,明达新区,,18,18,47,8,26,51,43,31,31,8,33,11,15,0.3,0.8
2022-11-03T06:00:00,1754A,123.1289,41.0228,鞍山市,千山(对照点),,,,,,,,,,,,,,,,
2022-11-03T06:00:00,1755A,123.7977,41.8491,抚顺市,望花区,,44,44,45,17,19,48,15,30,24,30,24,12,17,1.5,1.5
2022-11-03T06:00:00,1756A,123.9161,41.8822,抚顺市,顺城区,颗粒物(PM10),51,52,38,27,15,45,7,17,15,36,29,10,12,1.2,1
2022-11-03T06:00:00,1757A,124.0436,41.8611,抚顺市,东洲区,,27,27,32,9,12,47,36,37,26,11,18,5,9,0.3,0.4
2022-11-03T06:00:00,1758A,123.9247,41.8642,抚顺市,新抚区,,38,38,39,19,16,44,26,21,21,17,24,6,8,0.4,0.5
2022-11-03T06:00:00,1759A,124.0972,41.8961,抚顺市,大伙房水库,,38,38,42,7,12,45,26,30,18,21,19,5,6,0.3,0.4
2022-11-03T06:00:00,1760A,123.7086,41.8391,抚顺市,沈抚新城,,42,42,50,25,21,51,9,7,5,30,25,16,19,0.6,0.9
2022-11-03T06:00:00,1761A,123.8275,41.3064,本溪市,大峪,,27,27,47,10,28,36,18,34,28,32,38,10,10,0.8,1.5
2022-11-03T06:00:00,1762A,123.7567,41.3325,本溪市,溪湖,,34,34,66,7,23,50,33,49,36,20,33,10,12,0.6,1.2
2022-11-03T06:00:00,1763A,123.7169,41.3094,本溪市,彩屯,,42,42,87,9,36,40,27,40,27,27,43,11,23,0.6,1.8
2022-11-03T06:00:00,1764A,123.7669,41.2864,本溪市,东明,,26,26,57,11,29,39,33,37,35,21,38,12,14,0.4,1.3
2022-11-03T06:00:00,1765A,123.7992,41.2664,本溪市,新立屯,,30,30,48,8,33,38,33,38,35,23,38,13,11,0.5,1.3
2022-11-03T06:00:00,1766A,123.8142,41.3472,本溪市,威宁,,45,45,46,19,24,16,6,16,9,44,35,10,8,0.4,0.8
2022-11-03T06:00:00,1767A,121.1115,41.0879,锦州市,南山,,16,4,29,1,14,55,49,46,46,2,16,6,15,0.5,0.6
2022-11-03T06:00:00,1768A,121.0533,40.8434,锦州市,开发区,,24,24,41,9,16,55,35,44,41,15,23,14,17,0.5,0.6
2022-11-03T06:00:00,1769A,121.1836,41.1119,锦州市,百股街道,,15,9,38,5,16,53,48,40,40,6,23,10,17,0.5,0.6
2022-11-03T06:00:00,1770A,121.1178,41.1222,锦州市,天安街道,,17,13,31,5,15,59,53,48,48,5,18,6,15,0.2,0.4
2022-11-03T06:00:00,1771A,121.1303,41.1386,锦州市,北湖公园,,16,15,30,6,17,58,50,47,47,2,12,7,14,0.4,0.6
2022-11-03T06:00:00,1772A,126.54,43.8622,吉林市,哈达湾,,35,35,27,12,13,66,33,36,34,18,19,9,10,0.4,0.5
2022-11-03T06:00:00,1773A,126.5844,43.8358,吉林市,东局子,,27,27,29,9,14,63,30,32,30,20,25,6,7,0.5,0.6
2022-11-03T06:00:00,1774A,126.5052,43.8245,吉林市,电力学院,,28,28,34,10,17,66,25,26,23,23,19,8,8,0.6,0.6
2022-11-03T06:00:00,1775A,126.6133,43.8972,吉林市,江北,,28,28,34,12,16,64,28,31,29,15,20,10,10,0.7,0.6
2022-11-03T06:00:00,1776A,126.555,43.8306,吉林市,江南公园,,24,24,24,8,11,65,31,31,30,19,21,7,8,0.5,0.5
2022-11-03T06:00:00,1778A,126.7061,43.7133,吉林市,丰满(对照点),,,,,,,,,,,,,,,,
2022-11-03T06:00:00,1779A,123.9305,47.3636,齐齐哈尔市,安居小区,,23,19,42,16,18,53,34,32,32,8,8,4,4,0.3,0.3
2022-11-03T06:00:00,1780A,123.9488,47.3386,齐齐哈尔市,中心广场,,12,9,26,3,10,49,36,41,40,7,9,3,3,0.5,0.5
2022-11-03T06:00:00,1781A,123.9483,47.3227,齐齐哈尔市,农牧车辆厂,,24,24,34,2,17,49,32,42,38,13,10,8,6,0.4,0.3
2022-11-03T06:00:00,1783A,123.945,47.2988,齐齐哈尔市,市环境监测站,,31,31,37,15,27,49,34,39,37,13,10,4,3,0.2,0.4
2022-11-03T06:00:00,1784A,129.61,44.561,牡丹江市,环保大楼,,40,37,29,28,15,68,31,48,41,17,9,5,3,0.4,0.3
2022-11-03T06:00:00,1785A,129.6115,44.5782,牡丹江市,文化广场,,48,41,25,33,18,66,32,51,42,16,9,6,4,0.4,0.3
2022-11-03T06:00:00,1786A,129.5904,44.5963,牡丹江市,第一医院,,43,35,29,30,17,65,17,49,34,20,9,6,6,0.7,0.6
2022-11-03T06:00:00,1787A,129.6364,44.6075,牡丹江市,机车工厂,颗粒物(PM10),52,54,30,31,13,69,25,43,35,19,12,2,2,0.5,0.4
2022-11-03T06:00:00,1788A,129.6386,44.5462,牡丹江市,第一中学,,45,45,26,28,15,66,19,41,30,23,11,2,2,0.4,0.3
2022-11-03T06:00:00,1789A,124.81117,46.03138,大庆市,大同区,细颗粒物(PM2.5),60,52,37,43,19,54,28,40,34,6,8,3,3,0.3,0.3
2022-11-03T06:00:00,1790A,125.129,46.533,大庆市,龙凤区,,42,40,33,29,15,54,25,38,29,18,14,6,8,0.5,0.4
2022-11-03T06:00:00,1791A,124.902,46.408,大庆市,红岗区,细颗粒物(PM2.5),55,50,27,39,14,55,33,40,38,6,8,3,2,0.4,0.4
2022-11-03T06:00:00,1792A,125.153,46.586,大庆市,萨尔图区,,35,34,26,24,17,61,31,39,37,18,16,7,5,0.4,0.3
2022-11-03T06:00:00,1793A,124.9042,46.6215,大庆市,让胡路区,细颗粒物(PM2.5),139,89,31,106,21,65,35,40,38,11,10,4,3,0.5,0.4
2022-11-03T06:00:00,1794A,118.3606,31.3519,芜湖市,监测站,,50,43,53,35,36,126,24,58,35,36,33,9,10,0.6,0.7
2022-11-03T06:00:00,1795A,118.3714,31.4134,芜湖市,科创中心,颗粒物(PM10),60,70,66,39,38,139,7,69,26,59,36,6,7,0.7,0.6
2022-11-03T06:00:00,1796A,118.3673,31.3131,芜湖市,四水厂,,47,47,59,30,35,132,25,72,41,34,29,8,9,0.6,0.6
2022-11-03T06:00:00,1797A,118.4022,31.3839,芜湖市,济民医院(对照点),,,,,,,,,,,,,,,,
2022-11-03T06:00:00,1798A,118.5092,31.6837,马鞍山市,湖东路四小,,42,42,59,24,24,141,20,45,30,37,32,5,6,0.7,0.8
2022-11-03T06:00:00,1799A,118.5024,31.6449,马鞍山市,开发区,细颗粒物(PM2.5),62,54,63,44,42,141,8,16,14,49,41,6,7,1.0,0.9
2022-11-03T06:00:00,1800A,118.5228,31.7231,马鞍山市,慈湖,细颗粒物(PM2.5),59,47,64,42,46,151,28,31,24,41,37,28,16,0.7,0.6
2022-11-03T06:00:00,1801A,118.48,31.6928,马鞍山市,马钢动力厂,,,,,,,,,,,,,,,,
2022-11-03T06:00:00,1802A,118.6245,31.7241,马鞍山市,濮塘(对照点),,49,48,64,34,37,152,36,34,30,20,20,5,5,0.7,0.7
2022-11-03T06:00:00,1803A,115.9872,29.6815,九江市,十里,"颗粒物(PM10),细颗粒物(PM2.5)",64,78,68,46,40,136,76,69,69,19,37,14,9,0.9,0.9
2022-11-03T06:00:00,1804A,115.9584,29.7046,九江市,茅山头,细颗粒物(PM2.5),67,75,63,48,39,128,66,83,80,27,25,13,9,0.8,0.8
2022-11-03T06:00:00,1805A,115.9877,29.7295,九江市,西园,细颗粒物(PM2.5),79,83,66,58,41,116,58,79,73,26,28,14,11,0.7,0.6
2022-11-03T06:00:00,1806A,116.0172,29.6547,九江市,五七二七厂,细颗粒物(PM2.5),68,69,57,49,38,138,84,84,82,17,19,10,8,0.6,0.7
2022-11-03T06:00:00,1808A,115.9114,29.6038,九江市,综合工业园,细颗粒物(PM2.5),70,69,74,51,48,128,48,44,44,40,50,9,9,1.0,0.9
2022-11-03T06:00:00,1809A,116.0721,29.7535,九江市,石化总厂,颗粒物(PM10),67,84,69,46,34,127,32,76,66,60,35,18,11,0.8,0.7
2022-11-03T06:00:00,1810A,115.9773,29.5698,九江市,庐山气象台(对照点),,31,23,19,10,17,112,98,100,100,8,14,8,4,0.3,0.2
2022-11-03T06:00:00,1811A,112.3628,34.6692,洛阳市,中信二小,,,,,,,,,,,,,,,,
2022-11-03T06:00:00,1812A,112.3931,34.6516,洛阳市,市委党校,细颗粒物(PM2.5),165,168,187,125,123,162,19,21,21,52,46,6,9,0.8,0.8
2022-11-03T06:00:00,1814A,112.4657,34.6871,洛阳市,豫西宾馆,细颗粒物(PM2.5),149,146,168,114,127,161,0,3,2,70,56,4,5,0.6,0.7
2022-11-03T06:00:00,1815A,112.494,34.6886,洛阳市,河南林校,细颗粒物(PM2.5),152,150,156,116,122,159,7,8,8,61,41,6,8,0.7,0.7
2022-11-03T06:00:00,1816A,112.3844,34.623,洛阳市,开发区管委会,细颗粒物(PM2.5),144,141,159,110,120,155,32,31,31,21,32,3,6,0.5,0.6
2022-11-03T06:00:00,1817A,112.4267,34.6258,洛阳市,市委新办公区,细颗粒物(PM2.5),149,140,164,114,125,158,34,29,29,24,37,4,6,0.8,0.9
2022-11-03T06:00:00,1818A,114.4839,36.0621,安阳市,棉研所(对照点),,,,,,,,,,,,,,,,
2022-11-03T06:00:00,1819A,114.3551,36.1017,安阳市,红庙街,细颗粒物(PM2.5),123,120,117,93,92,136,50,47,47,24,31,6,10,0.4,0.4
2022-11-03T06:00:00,1820A,114.361,36.0681,安阳市,银杏小区,细颗粒物(PM2.5),133,82,109,101,101,147,51,56,48,20,28,6,11,0.7,0.7
2022-11-03T06:00:00,1824A,114.3389,34.7781,开封市,肿瘤医院,,,,88,66,65,149,52,77,64,33,26,7,7,0.6,0.7
2022-11-03T06:00:00,1826A,114.2885,34.7965,开封市,世纪星幼儿园,细颗粒物(PM2.5),115,104,92,87,75,149,48,87,68,33,22,8,7,0.8,0.7
2022-11-03T06:00:00,1828A,113.227,35.2125,焦作市,市环保局,细颗粒物(PM2.5),122,164,123,92,85,140,21,65,34,47,27,13,11,1.0,1
2022-11-03T06:00:00,1829A,113.2464,35.1764,焦作市,高新区政府（停运20220628）,,,,,,,,,,,,,,,,
2022-11-03T06:00:00,1830A,113.1992,35.2590,焦作市,影视城(对照点),,,,,,,,,,,,,,,,
2022-11-03T06:00:00,1832A,113.3257,33.742,平顶山市,新华旅馆,细颗粒物(PM2.5),119,136,123,90,95,142,3,47,22,58,37,7,16,0.6,0.7
2022-11-03T06:00:00,1833A,113.2919,33.737,平顶山市,规划设计院,细颗粒物(PM2.5),113,135,128,85,79,156,11,6,6,36,27,5,11,0.7,0.8
2022-11-03T06:00:00,1834A,113.182,33.774,平顶山市,平顶山工学院,细颗粒物(PM2.5),110,132,131,83,82,151,20,40,35,52,34,6,9,0.8,0.8
2022-11-03T06:00:00,1835A,111.1922,34.7752,三门峡市,市政府,细颗粒物(PM2.5),133,104,117,101,141,128,2,4,3,49,45,6,7,0.8,0.8
2022-11-03T06:00:00,1836A,111.1587,34.7942,三门峡市,开发区,细颗粒物(PM2.5),127,160,163,96,111,125,0,2,2,49,41,5,6,0.9,0.9
2022-11-03T06:00:00,1838A,111.143,34.7955,三门峡市,风景区(对照点),,,,,,,,,,,,,,,,
2022-11-03T06:00:00,1839A,111.3009,30.7157,宜昌市,四零三,,,,,,,,,,,,,,,,
2022-11-03T06:00:00,1840A,111.2992,30.6981,宜昌市,白龙岗,,42,41,49,29,31,164,40,54,49,22,27,3,4,0.7,0.8
2022-11-03T06:00:00,1841A,111.3549,30.6465,宜昌市,伍家岗,,50,50,54,29,32,152,28,65,47,33,35,3,5,0.5,0.5
2022-11-03T06:00:00,1842A,111.2628,30.6961,宜昌市,点军区,,42,38,53,29,34,156,15,28,21,16,24,7,8,0.4,0.5
2022-11-03T06:00:00,1843A,111.3275,30.7819,宜昌市,夷陵区,颗粒物(PM10),51,51,56,29,34,156,28,36,34,19,30,8,9,0.4,0.5
2022-11-03T06:00:00,1844A,112.2494,30.3197,荆州市,市图书馆,细颗粒物(PM2.5),90,80,69,67,50,149,50,70,62,40,52,10,8,0.9,0.9
2022-11-03T06:00:00,1845A,112.2008,30.3544,荆州市,市委党校,细颗粒物(PM2.5),69,77,75,50,46,147,41,32,32,30,52,12,8,0.8,0.8
2022-11-03T06:00:00,1847A,113.1094,29.3578,岳阳市,南湖风景区,细颗粒物(PM2.5),67,62,47,48,31,154,47,83,61,32,31,18,14,0.8,0.7
2022-11-03T06:00:00,1848A,113.1493,29.4251,岳阳市,城陵矶,颗粒物(PM10),71,92,66,35,31,136,36,62,41,44,56,15,12,0.8,0.7
2022-11-03T06:00:00,1849A,113.1497,29.3575,岳阳市,开发区,细颗粒物(PM2.5),55,51,46,39,30,142,37,80,41,40,31,11,10,0.6,0.5
2022-11-03T06:00:00,1850A,113.2621,29.4758,岳阳市,云溪区,颗粒物(PM10),57,63,64,34,33,140,42,90,55,29,27,7,10,0.6,0.6
2022-11-03T06:00:00,1851A,112.9943,29.4402,岳阳市,君山区,颗粒物(PM10),55,59,45,34,31,133,64,90,75,24,23,6,6,0.6,0.6
2022-11-03T06:00:00,1852A,113.2117,29.355,岳阳市,金凤水库(对照点),,48,47,46,33,28,150,57,62,55,22,22,9,8,0.8,0.7
2022-11-03T06:00:00,1854A,111.6975,28.9703,常德市,市二中,细颗粒物(PM2.5),68,69,72,49,45,152,23,17,17,30,33,8,8,0.5,0.5
2022-11-03T06:00:00,1857A,111.7158,29.1456,常德市,白鹤山(对照点),,46,46,41,30,26,141,79,113,94,10,9,3,4,0.5,0.4
2022-11-03T06:00:00,1858A,110.5319,29.1217,张家界市,永定新区,,38,37,51,26,31,138,30,58,41,18,26,3,4,0.2,0.3
2022-11-03T06:00:00,1859A,110.4697,29.1242,张家界市,电业局,,33,32,43,23,26,142,19,40,30,17,19,4,4,0.2,0.3
2022-11-03T06:00:00,1860A,110.5594,29.3547,张家界市,未央路,,43,29,38,30,24,135,26,34,30,6,9,4,4,0.2,0.2
2022-11-03T06:00:00,1861A,110.4417,29.315,张家界市,袁家界(对照点),,35,31,36,20,17,137,110,110,109,11,12,10,10,0.5,0.5
2022-11-03T06:00:00,1862A,110.4144,25.3167,桂林市,电子科大尧山校区(对照点),,44,44,40,21,20,98,85,89,88,7,7,5,5,0.6,0.6
2022-11-03T06:00:00,1863A,110.2819,25.2697,桂林市,监测站,,38,38,40,24,22,131,120,120,118,11,14,7,7,0.4,0.4
2022-11-03T06:00:00,1864A,110.3089,25.2708,桂林市,龙隐路小学,,38,35,34,26,25,128,113,112,111,10,8,8,9,0.4,0.3
2022-11-03T06:00:00,1865A,110.2869,25.2178,桂林市,八中,,39,39,36,27,21,126,111,111,108,13,12,6,7,0.4,0.4
2022-11-03T06:00:00,1866A,109.2262,21.588,北海市,牛尾岭水库(对照点),细颗粒物(PM2.5),72,52,47,52,35,129,32,72,50,11,10,10,12,0.7,0.7
2022-11-03T06:00:00,1867A,109.1436,21.4086,北海市,海滩公园,颗粒物(PM10),51,52,50,32,28,168,61,94,83,9,9,8,10,0.6,0.6
2022-11-03T06:00:00,1868A,109.0981,21.4661,北海市,新市环保局,细颗粒物(PM2.5),70,64,48,51,37,155,68,94,81,17,13,10,10,0.6,0.5
2022-11-03T06:00:00,1869A,109.1778,21.5233,北海市,北海工业园,细颗粒物(PM2.5),68,74,65,49,37,148,42,87,62,23,19,22,12,0.7,0.7
2022-11-03T06:00:00,1870A,109.4856,24.3895,柳州市,柳东小学,,39,27,36,27,27,129,87,102,97,8,7,49,13,0.5,0.4
2022-11-03T06:00:00,1871A,109.4157,24.3277,柳州市,环保监测站,颗粒物(PM10),51,52,52,23,22,126,46,62,59,37,27,25,12,0.8,0.6
2022-11-03T06:00:00,1872A,109.389,24.341,柳州市,河西水厂,颗粒物(PM10),66,82,65,43,38,114,40,43,39,34,33,15,22,0.7,1
2022-11-03T06:00:00,1873A,109.4311,24.2921,柳州市,市四中,细颗粒物(PM2.5),54,47,53,38,26,124,67,81,78,22,20,26,14,0.7,0.7
2022-11-03T06:00:00,1874A,109.4006,24.3631,柳州市,市九中,颗粒物(PM10),59,68,61,35,32,112,46,65,55,31,27,26,16,0.8,0.7
2022-11-03T06:00:00,1875A,109.4958,24.3134,柳州市,古亭山,,32,31,34,19,22,126,100,98,98,8,20,24,12,0.5,0.5
2022-11-03T06:00:00,1876A,109.5078,18.2489,三亚市,河东子站,,44,44,44,23,24,150,84,115,98,8,11,3,4,0.6,0.6
2022-11-03T06:00:00,1877A,109.4964,18.2681,三亚市,河西子站,,40,40,42,24,26,135,74,89,84,6,14,3,2,0.5,0.5
2022-11-03T06:00:00,1878A,104.7778,31.4741,绵阳市,富乐山,,42,41,38,29,27,97,24,23,16,15,18,4,4,0.6,0.7
2022-11-03T06:00:00,1879A,104.7563,31.4535,绵阳市,市人大,细颗粒物(PM2.5),52,50,52,36,35,79,10,15,9,34,34,8,4,0.8,0.8
2022-11-03T06:00:00,1880A,104.6697,31.4668,绵阳市,高新区自来水公司,颗粒物(PM10),58,65,65,33,38,96,4,16,11,31,30,5,6,0.8,0.8
2022-11-03T06:00:00,1881A,104.7287,31.5075,绵阳市,三水厂,细颗粒物(PM2.5),60,65,64,43,42,88,1,3,2,32,33,5,5,0.7,0.6
2022-11-03T06:00:00,1882A,104.563,28.793,宜宾市,石马中学(对照点),细颗粒物(PM2.5),89,78,78,66,64,118,56,74,61,13,21,4,8,0.7,0.8
2022-11-03T06:00:00,1883A,104.6201,28.7728,宜宾市,市委,细颗粒物(PM2.5),88,73,81,65,60,132,55,72,63,19,31,7,10,0.7,0.7
2022-11-03T06:00:00,1884A,104.6055,28.793,宜宾市,宜宾四中,细颗粒物(PM2.5),93,81,85,69,66,128,57,69,62,12,25,7,9,0.6,0.7
2022-11-03T06:00:00,1885A,104.639,28.7562,宜宾市,市政府,细颗粒物(PM2.5),94,82,90,70,64,143,58,78,66,14,26,8,11,0.8,0.8
2022-11-03T06:00:00,1886A,104.5742,28.7199,宜宾市,黄金嘴,细颗粒物(PM2.5),85,71,76,63,56,137,58,82,70,16,23,9,14,0.7,0.7
2022-11-03T06:00:00,1888A,101.6891,26.571,攀枝花市,弄弄坪,颗粒物(PM10),51,52,62,29,35,131,13,11,11,32,36,9,14,0.8,1.1
2022-11-03T06:00:00,1889A,101.5769,26.5928,攀枝花市,河门口,,36,36,45,22,28,134,24,26,23,21,22,12,16,1.4,1.3
2022-11-03T06:00:00,1890A,101.7169,26.585,攀枝花市,炳草岗,颗粒物(PM10),52,53,52,22,21,132,9,13,12,34,42,14,18,0.9,1.1
2022-11-03T06:00:00,1891A,101.7369,26.5008,攀枝花市,仁和,细颗粒物(PM2.5),54,46,36,38,27,125,17,37,24,19,18,6,12,0.7,0.9
2022-11-03T06:00:00,1893A,105.4324,28.9634,泸州市,九狮山(对照点),细颗粒物(PM2.5),92,78,49,68,41,103,13,22,18,27,28,6,18,0.9,0.6
2022-11-03T06:00:00,1894A,105.4427,28.9063,泸州市,小市上码头,细颗粒物(PM2.5),107,92,88,80,70,130,43,44,44,19,34,21,15,0.7,0.7
2022-11-03T06:00:00,1895A,105.4241,28.8573,泸州市,兰田宪桥,,,,66,,49,72,,62,,,26,,16,,0.7
2022-11-03T06:00:00,1896A,105.4379,28.8833,泸州市,市环监站,细颗粒物(PM2.5),94,80,79,70,64,113,43,47,46,13,30,15,16,0.7,0.7
2022-11-03T06:00:00,1897A,104.7547,29.3628,自贡市,大塘山(对照点),,,,,,,,,,,,,,,,
2022-11-03T06:00:00,1900A,104.7692,29.3411,自贡市,春华路,,,,,,,,,,,,,,,,
2022-11-03T06:00:00,1901A,104.4239,31.1208,德阳市,东山公园,颗粒物(PM10),55,60,65,32,35,97,8,19,12,41,36,8,6,0.7,0.7
2022-11-03T06:00:00,1902A,104.3826,31.1317,德阳市,西小区,颗粒物(PM10),57,64,61,31,29,97,2,27,10,42,33,7,6,0.6,0.6
2022-11-03T06:00:00,1903A,104.4053,31.1167,德阳市,市检察院,,,,,,,,,,,,,,,,
2022-11-03T06:00:00,1904A,104.3553,31.1091,德阳市,耐火材料厂,颗粒物(PM10),64,78,72,33,35,93,19,25,20,38,32,7,7,0.6,0.6
2022-11-03T06:00:00,1905A,106.056,30.8064,南充市,西山风景区(对照点),,32,24,34,22,33,126,39,52,48,6,9,3,8,0.5,0.7
2022-11-03T06:00:00,1906A,106.0789,30.8023,南充市,南充市委,,42,42,54,26,33,125,29,40,35,13,19,4,7,0.5,0.6
2022-11-03T06:00:00,1907A,106.1031,30.8217,南充市,南充炼油厂,,43,43,54,22,31,135,38,46,42,11,14,7,12,0.5,0.5
2022-11-03T06:00:00,1908A,106.1064,30.7856,南充市,高坪区监测站,,36,35,53,25,37,121,35,39,36,12,18,9,14,0.4,0.5
2022-11-03T06:00:00,1909A,106.0642,30.7636,南充市,嘉陵区环保局,,39,39,52,20,34,128,43,45,44,10,19,9,13,0.4,0.5
2022-11-03T06:00:00,1910A,106.1087,30.8388,南充市,市环境监测站,,42,36,50,29,37,125,31,39,37,12,16,9,10,0.5,0.5
2022-11-03T06:00:00,1911A,106.9222,27.6869,遵义市,丁字口,,40,25,33,28,21,117,34,30,30,22,31,9,11,0.4,0.5
2022-11-03T06:00:00,1912A,106.9242,27.7019,遵义市,凤凰山,,32,32,27,14,15,123,84,83,83,13,16,7,6,0.4,0.5
2022-11-03T06:00:00,1913A,106.8906,27.6486,遵义市,忠庄,颗粒物(PM10),62,74,41,25,21,110,25,43,40,29,22,2,2,0.4,0.5
2022-11-03T06:00:00,1914A,106.9231,27.6506,遵义市,舟水桥,,47,47,39,19,20,116,7,13,11,22,22,2,5,0.6,0.5
2022-11-03T06:00:00,1915A,106.9178,27.72,遵义市,干田坝,,28,28,31,14,17,116,30,26,26,24,30,6,7,0.5,0.5
2022-11-03T06:00:00,1916A,103.7897,25.5035,曲靖市,环境监测站,细颗粒物(PM2.5),59,60,43,42,27,141,10,52,31,28,20,8,8,1.1,0.7
2022-11-03T06:00:00,1917A,103.8,25.5364,曲靖市,烟厂办公区,颗粒物(PM10),62,74,55,40,28,135,19,14,14,30,29,20,15,1.1,0.9
2022-11-03T06:00:00,1918A,108.7197,34.3956,咸阳市,气象站(对照点),颗粒物(PM10),63,76,133,30,73,79,12,10,10,40,46,8,10,0.8,1.2
2022-11-03T06:00:00,1919A,108.673,34.3155,咸阳市,实验中学,颗粒物(PM10),70,89,154,33,69,83,8,5,5,46,51,5,6,0.7,1
2022-11-03T06:00:00,1920A,108.7233,34.3617,咸阳市,师范学院,颗粒物(PM10),64,78,132,31,75,87,15,9,9,39,48,8,8,0.6,1
2022-11-03T06:00:00,1922A,109.0656,35.0994,铜川市,党校(对照点),颗粒物(PM10),52,53,106,16,70,90,49,16,16,31,54,14,15,0.4,0.9
2022-11-03T06:00:00,1923A,109.0697,35.0697,铜川市,王益区政府,颗粒物(PM10),62,74,111,37,56,83,4,4,4,27,40,7,9,0.8,1
2022-11-03T06:00:00,1924A,108.9344,34.9058,铜川市,新区管委会,颗粒物(PM10),51,51,109,18,53,112,53,32,32,13,33,10,12,0.4,0.7
2022-11-03T06:00:00,1925A,108.9589,34.8731,铜川市,新区兰芝公司,,,,,,,,,,,,,,,,
2022-11-03T06:00:00,1926A,109.4131,36.6275,延安市,枣园(对照点),,29,29,50,1,31,92,9,8,7,24,32,4,5,0.4,0.5
2022-11-03T06:00:00,1927A,109.4761,36.6028,延安市,延大医附院,,32,32,59,10,41,78,5,5,5,26,38,5,5,1.6,1.3
2022-11-03T06:00:00,1928A,109.4824,36.5767,延安市,市监测站,,,,,,,,,,,,,,,,
2022-11-03T06:00:00,1929A,109.5056,36.6106,延安市,百米大道,,42,42,68,22,41,90,4,7,6,38,47,6,7,0.6,0.9
2022-11-03T06:00:00,1930A,107.185,34.3063,宝鸡市,庙沟村(对照点),,47,47,64,16,32,70,39,52,45,25,23,5,6,0.6,0.8
2022-11-03T06:00:00,1931A,107.0708,34.3017,宝鸡市,竹园沟,,41,41,64,17,42,55,28,36,32,17,22,6,7,0.5,0.7
2022-11-03T06:00:00,1932A,107.1906,34.3672,宝鸡市,三陆医院,颗粒物(PM10),54,57,116,26,81,34,19,11,11,18,40,6,8,0.5,1
2022-11-03T06:00:00,1933A,107.1431,34.3547,宝鸡市,监测站,颗粒物(PM10),51,52,92,24,74,45,11,20,17,28,38,6,7,0.5,0.9
2022-11-03T06:00:00,1934A,107.1186,34.3739,宝鸡市,技工学校,细颗粒物(PM2.5),63,51,95,45,87,36,22,28,23,17,36,6,9,0.6,0.9
2022-11-03T06:00:00,1935A,107.3906,34.3528,宝鸡市,陈仓区环保局家属楼,细颗粒物(PM2.5),68,69,124,49,89,43,13,13,13,27,47,7,8,0.7,1.1
2022-11-03T06:00:00,1936A,107.2058,34.3497,宝鸡市,文理学院,颗粒物(PM10),60,69,105,36,68,50,17,17,17,27,44,8,9,0.7,1
2022-11-03T06:00:00,1937A,107.2386,34.3622,宝鸡市,三迪小学,"颗粒物(PM10),细颗粒物(PM2.5)",62,74,135,44,90,38,13,11,11,25,46,8,9,0.6,1.1
2022-11-03T06:00:00,1938A,109.5293,34.5101,渭南市,农科所(对照点),细颗粒物(PM2.5),83,80,132,61,96,134,13,60,44,44,33,6,8,0.9,1
2022-11-03T06:00:00,1939A,109.4974,34.4877,渭南市,日报社,细颗粒物(PM2.5),92,85,137,68,109,128,5,54,37,60,44,9,9,0.6,0.8
2022-11-03T06:00:00,1940A,109.4636,34.493,渭南市,体育馆,细颗粒物(PM2.5),90,88,135,67,115,127,6,53,39,58,42,9,9,0.7,0.8
2022-11-03T06:00:00,1941A,109.4259,34.5023,渭南市,高新一小,细颗粒物(PM2.5),87,90,140,64,116,121,15,48,31,41,38,7,10,0.6,0.9
2022-11-03T06:00:00,1943A,102.1725,38.5339,金昌市,新川苑,颗粒物(PM10),51,52,91,14,27,88,48,46,41,10,24,10,37,0.6,0.8
2022-11-03T06:00:00,1944A,102.1692,38.5167,金昌市,天庆家园,,36,36,64,14,18,87,43,34,33,15,25,7,25,0.8,0.8
2022-11-03T06:00:00,1945A,98.2908,39.7711,嘉峪关市,气象局,颗粒物(PM10),54,58,71,22,25,96,44,49,48,22,22,5,16,0.2,0.4
2022-11-03T06:00:00,1947A,106.3394,38.817,石嘴山市,沙湖旅游区(对照点),细颗粒物(PM2.5),104,143,119,78,69,81,5,6,5,50,48,22,23,2.7,1.3
2022-11-03T06:00:00,1948A,106.3668,39.0145,石嘴山市,大武口朝阳西街,,48,48,139,20,74,58,22,13,12,38,67,16,34,0.9,1.7
2022-11-03T06:00:00,1949A,106.7704,39.2282,石嘴山市,惠农南大街,,45,45,128,23,62,62,0,1,1,44,61,43,51,0.7,1.6
2022-11-03T06:00:00,1950A,106.7099,39.1325,石嘴山市,红果子镇惠新街,,49,49,124,11,53,65,22,17,17,25,46,20,37,0.4,1.3
2022-11-03T06:00:00,1951A,84.895,45.6094,克拉玛依市,长征新村,,15,11,17,4,7,66,45,58,55,11,15,5,5,0.2,0.2
2022-11-03T06:00:00,1952A,84.8988,45.5893,克拉玛依市,南林小区,,25,10,18,17,16,72,36,58,55,14,19,1,2,0.3,0.4
2022-11-03T06:00:00,1953A,85.1186,45.6886,克拉玛依市,白碱滩区,,,,,,,,,,,,,,,,
2022-11-03T06:00:00,1954A,84.905,44.3396,克拉玛依市,独山子区,颗粒物(PM10),60,69,70,36,35,57,37,45,44,16,21,6,8,0.5,0.5
2022-11-03T06:00:00,1955A,85.6979,46.098,克拉玛依市,乌尔禾区商贸楼,,12,8,25,3,13,71,11,10,10,23,23,3,4,0.4,0.5
2022-11-03T06:00:00,1956A,86.1472,41.7538,巴音郭楞州,孔雀公园,颗粒物(PM10),64,77,82,29,24,94,66,29,29,9,26,5,4,0.3,0.3
2022-11-03T06:00:00,1957A,86.1972,41.7166,巴音郭楞州,棉纺厂,颗粒物(PM10),71,92,101,19,28,97,60,43,43,16,20,5,5,0.3,0.3
2022-11-03T06:00:00,1958A,86.2357,41.7173,巴音郭楞州,经济开发区,颗粒物(PM10),53,56,74,15,16,96,76,64,64,6,12,8,7,0.3,0.3
2022-11-03T06:00:00,1959A,118.746,36.881,寿光市,监测站,,,,,,,,,,,,,,,,
2022-11-03T06:00:00,1960A,118.780,36.864,寿光市,世纪学校,,,,,,,,,,,,,,,,
2022-11-03T06:00:00,1961A,117.532,36.6868,济南市,东山小学,细颗粒物(PM2.5),104,144,78,78,31,122,8,66,49,66,36,7,7,0.9,0.5
2022-11-03T06:00:00,1962A,117.541,36.710,章丘市,明水开发区,,,,,,,,,,,,,,,,
2022-11-03T06:00:00,1963A,120.610,36.440,即墨市,环保局子站,,,,,,,,,,,,,,,,
2022-11-03T06:00:00,1964A,120.470,36.390,即墨市,开发区子站,,,,,,,,,,,,,,,,
2022-11-03T06:00:00,1965A,120.005,35.878,胶南市,JN子站,,,,,,,,,,,,,,,,
2022-11-03T06:00:00,1966A,120.0405,35.8735,青岛市,黄岛区4号,,24,24,34,9,12,130,50,74,62,42,23,6,6,0.5,0.5
2022-11-03T06:00:00,1967A,120.008,36.283,胶州市,胶州环保局,,,,,,,,,,,,,,,,
2022-11-03T06:00:00,1968A,120.014,36.253,胶州市,胶州一中,,,,,,,,,,,,,,,,
2022-11-03T06:00:00,1969A,120.537,36.865,莱西市,环保局子站,,,,,,,,,,,,,,,,
2022-11-03T06:00:00,1970A,120.515,36.885,莱西市,人民广场子站,,,,,,,,,,,,,,,,
2022-11-03T06:00:00,1971A,119.952,36.792,平度市,1号,,,,,,,,,,,,,,,,
2022-11-03T06:00:00,1972A,119.976,36.799,平度市,2号,,,,,,,,,,,,,,,,
2022-11-03T06:00:00,1973A,120.747,37.825,蓬莱市,蓬莱环保局,,,,,,,,,,,,,,,,
2022-11-03T06:00:00,1974A,120.773,37.809,蓬莱市,蓬莱博物馆,,,,,,,,,,,,,,,,
2022-11-03T06:00:00,1975A,120.399,37.374,招远市,招远环保局,,,,,,,,,,,,,,,,
2022-11-03T06:00:00,1976A,120.394,37.364,招远市,招远教育局,,,,,,,,,,,,,,,,
2022-11-03T06:00:00,1977A,119.941,37.177,莱州市,莱州环保局,,,,,,,,,,,,,,,,
2022-11-03T06:00:00,1978A,119.959,37.180,莱州市,莱州外经委,,,,,,,,,,,,,,,,
2022-11-03T06:00:00,1979A,122.471,37.154,荣成市,荣成市环保局办公楼,,,,,,,,,,,,,,,,
2022-11-03T06:00:00,1980A,122.410,37.161,荣成市,山东成山轮胎公司,,,,,,,,,,,,,,,,
2022-11-03T06:00:00,1981A,122.038,37.197,文登市,文登市环保局,,,,,,,,,,,,,,,,
2022-11-03T06:00:00,1982A,122.0693,37.2174,威海市,文登开发区,,44,44,39,22,16,82,45,57,55,19,27,5,5,0.6,0.5
2022-11-03T06:00:00,1983A,121.531,36.913,乳山市,乳山市环保局,,,,,,,,,,,,,,,,
2022-11-03T06:00:00,1984A,121.544,36.907,乳山市,乳山市气象局,,,,,,,,,,,,,,,,
2022-11-03T06:00:00,1985A,120.636,31.155,吴江市,吴江市环保局,,,,,,,,,,,,,,,,
2022-11-03T06:00:00,1986A,120.635,31.170,吴江市,教师进修学校,,,,,,,,,,,,,,,,
2022-11-03T06:00:00,1987A,120.658,31.172,吴江市,吴江开发区,,,,,,,,,,,,,,,,
2022-11-03T06:00:00,1988A,120.953,31.388,昆山市,昆山实验小学,,,,,,,,,,,,,,,,
2022-11-03T06:00:00,1989A,120.999,31.381,昆山市,震川中学,,,,,,,,,,,,,,,,
2022-11-03T06:00:00,1990A,120.758,31.670,常熟市,海虞子站,,,,,,,,,,,,,,,,
2022-11-03T06:00:00,1991A,120.721,31.671,常熟市,兴福子站,,,,,,,,,,,,,,,,
2022-11-03T06:00:00,1992A,120.734,31.656,常熟市,菱塘子站,,,,,,,,,,,,,,,,
2022-11-03T06:00:00,1993A,120.526,31.874,张家港市,张家港市监测站,,,,,,,,,,,,,,,,
2022-11-03T06:00:00,1994A,120.550,31.882,张家港市,城北小学,,,,,,,,,,,,,,,,
2022-11-03T06:00:00,1995A,121.115,31.453,太仓市,太仓市监测站,,,,,,,,,,,,,,,,
2022-11-03T06:00:00,1996A,121.140,31.422,太仓市,科教新城实小,,,,,,,,,,,,,,,,
2022-11-03T06:00:00,1997A,119.146,31.955,句容市,消防指挥中心,,,,,,,,,,,,,,,,
2022-11-03T06:00:00,1998A,119.180,31.955,句容市,房家坝,,,,,,,,,,,,,,,,
2022-11-03T06:00:00,1999A,120.268,31.920,江阴市,虹桥邮政,,,,,,,,,,,,,,,,
2022-11-03T06:00:00,2000A,120.237,31.909,江阴市,五星公园,,,,,,,,,,,,,,,,
2022-11-03T06:00:00,2001A,120.302,31.920,江阴市,第二实验小学,,,,,,,,,,,,,,,,
2022-11-03T06:00:00,2002A,119.818,31.354,宜兴市,宜兴市环保局,,,,,,,,,,,,,,,,
2022-11-03T06:00:00,2003A,119.794,31.371,宜兴市,宜园,,,,,,,,,,,,,,,,
2022-11-03T06:00:00,2004A,119.579,31.751,金坛市,金坛市环境监测站,,,,,,,,,,,,,,,,
2022-11-03T06:00:00,2005A,119.579,31.737,金坛市,金坛市自来水公司,,,,,,,,,,,,,,,,
2022-11-03T06:00:00,2006A,119.460,31.400,溧阳市,溧阳市东门子站,,,,,,,,,,,,,,,,
2022-11-03T06:00:00,2007A,119.438,31.317,溧阳市,燕山子站,,,,,,,,,,,,,,,,
2022-11-03T06:00:00,2008A,121.173,31.896,海门市,海门市监测站,,,,,,,,,,,,,,,,
2022-11-03T06:00:00,2009A,121.1518,31.89708,海门市,社会福利院,,,,,,,,,,,,,,,,
2022-11-03T06:00:00,2010A,119.7183,30.2366,临安市,市政府,,,,,,,,,,,,,,,,
2022-11-03T06:00:00,2011A,119.6942,30.2311,临安市,四中,,,,,,,,,,,,,,,,
2022-11-03T06:00:00,2012A,119.954,30.054,富阳市,监测站,,,,,,,,,,,,,,,,
2022-11-03T06:00:00,2013A,119.946,30.049,富阳市,富春二小,,,,,,,,,,,,,,,,
2022-11-03T06:00:00,2014A,120.091,29.305,义乌市,江东,,,,,,,,,,,,,,,,
2022-11-03T06:00:00,2015A,120.040,29.334,义乌市,北苑,,,,,,,,,,,,,,,,
2022-11-03T06:00:00,2016A,120.251,29.719,诸暨市,图书馆,,,,,,,,,,,,,,,,
2022-11-03T06:00:00,2017A,120.209,29.732,诸暨市,富林印务,,,,,,,,,,,,,,,,
2022-11-03T06:00:00,2018A,121.989,39.625,瓦房店市,抱龙山庄,,,,,,,,,,,,,,,,
2022-11-03T06:00:00,2019A,122.011,39.617,瓦房店市,东山公园,,,,,,,,,,,,,,,,
2022-11-03T06:00:00,2031A,113.1817,27.9958,株洲市,云田中学,颗粒物(PM10),51,52,48,28,26,138,69,95,77,22,23,8,7,0.5,0.5
2022-11-03T06:00:00,2054A,114.1099,32.1059,信阳市,平桥分局,颗粒物(PM10),54,58,72,36,41,131,24,16,16,23,29,8,9,0.7,0.8
2022-11-03T06:00:00,2064A,113.9956,32.1271,信阳市,南湾水厂,颗粒物(PM10),55,60,63,36,36,134,59,90,79,16,20,7,7,0.8,0.8
2022-11-03T06:00:00,2065A,114.0775,32.1195,信阳市,市酿酒公司,细颗粒物(PM2.5),62,56,60,44,37,128,19,26,19,36,37,9,10,1.0,1
2022-11-03T06:00:00,2066A,114.0609,32.1399,信阳市,审计局,细颗粒物(PM2.5),88,79,70,65,52,141,52,26,26,24,37,8,8,0.8,0.8
2022-11-03T06:00:00,2067A,114.6613,33.6128,周口市,市环境监测站,细颗粒物(PM2.5),135,144,119,103,73,142,41,58,52,29,25,18,16,1.1,1
2022-11-03T06:00:00,2068A,114.6758,33.6347,周口市,周口师范,细颗粒物(PM2.5),138,152,107,105,74,146,35,73,54,41,31,22,14,0.9,0.9
2022-11-03T06:00:00,2069A,114.6546,33.5979,周口市,市运管处,细颗粒物(PM2.5),137,145,113,104,78,140,36,65,51,37,36,18,15,0.8,0.8
2022-11-03T06:00:00,2070A,114.6369,33.6406,周口市,川汇区环保局,细颗粒物(PM2.5),139,143,104,106,68,143,34,74,47,35,27,15,10,0.8,0.7
2022-11-03T06:00:00,2075A,117.6336,24.4674,漳州市,九湖(对照点),,,,,,,,,,,,,,,,
2022-11-03T06:00:00,2160A,112.85,35.5051,晋城市,自来水公司,细颗粒物(PM2.5),104,126,101,78,68,164,101,96,96,23,30,8,11,0.6,0.6
2022-11-03T06:00:00,2161A,112.8318,35.4936,晋城市,白云商贸,细颗粒物(PM2.5),104,114,106,78,62,141,63,58,58,25,29,5,7,0.9,0.8
2022-11-03T06:00:00,2162A,112.8508,35.4887,晋城市,市环保局,细颗粒物(PM2.5),107,131,103,80,69,147,80,92,78,28,33,7,9,0.8,0.7
2022-11-03T06:00:00,2163A,112.8676,35.4897,晋城市,技术学院,细颗粒物(PM2.5),125,111,86,95,74,142,95,100,85,23,29,8,10,0.6,0.3
2022-11-03T06:00:00,2164A,112.8271,35.4828,晋城市,泽州一中,,,,,,,,,,,,,,,,
2022-11-03T06:00:00,2165A,112.8453,35.546,晋城市,白马寺 (对照点),,,,,,,,,,,,,,,,
2022-11-03T06:00:00,2166A,112.4397,39.3522,朔州市,平朔,颗粒物(PM10),52,53,105,12,68,80,19,34,30,30,29,42,22,0.5,0.8
2022-11-03T06:00:00,2167A,112.4575,39.3617,朔州市,朔唯,颗粒物(PM10),51,51,112,12,70,78,9,27,17,39,31,50,24,0.6,0.8
2022-11-03T06:00:00,2168A,112.4258,39.3197,朔州市,区政府,,44,44,111,13,57,85,40,44,43,15,25,30,19,0.9,1
2022-11-03T06:00:00,2169A,112.4072,39.3278,朔州市,市环保局,颗粒物(PM10),55,60,110,33,72,78,30,41,38,18,29,20,22,0.6,0.8
2022-11-03T06:00:00,2170A,112.4272,39.3681,朔州市,市二中,颗粒物(PM10),51,51,120,13,66,77,15,36,32,37,30,37,21,0.8,1
2022-11-03T06:00:00,2171A,112.7532,37.6945,晋中市,锦纶小区,,,,146,,80,76,,56,,,33,,11,,0.7
2022-11-03T06:00:00,2173A,112.7249,37.7067,晋中市,南都小区,细颗粒物(PM2.5),160,143,148,122,105,121,44,33,28,28,40,4,8,0.9,0.9
2022-11-03T06:00:00,2174A,112.6991,37.6982,晋中市,榆次区政府,细颗粒物(PM2.5),176,146,149,133,115,121,41,24,24,26,40,6,9,0.9,0.9
2022-11-03T06:00:00,2175A,110.9956,35.0147,运城市,运城中学,细颗粒物(PM2.5),163,165,131,124,98,118,24,42,35,29,20,12,12,0.9,0.8
2022-11-03T06:00:00,2176A,111.0233,35.0611,运城市,禹都开发区,,,,,,,,,,,,,,,,
2022-11-03T06:00:00,2178A,110.9686,35.0303,运城市,地区技校,细颗粒物(PM2.5),128,166,132,97,79,117,22,39,32,29,21,11,10,0.9,0.8
2022-11-03T06:00:00,2179A,111.0414,35.1147,运城市,空港新区,细颗粒物(PM2.5),172,208,150,130,93,131,14,32,26,39,28,14,11,0.9,0.7
2022-11-03T06:00:00,2181A,112.7383,38.4519,忻州市,开发区,,48,48,120,29,84,82,38,15,15,19,48,11,14,0.4,0.9
2022-11-03T06:00:00,2182A,112.7003,38.4928,忻州市,会展中心,,42,42,114,20,74,87,39,24,24,19,43,8,12,0.3,1
2022-11-03T06:00:00,2183A,111.1406,37.5211,吕梁市,环保局,,,,,33,41,104,14,17,17,28,35,6,7,0.4,0.7
2022-11-03T06:00:00,2185A,111.1297,37.5136,吕梁市,自来水公司,颗粒物(PM10),57,64,76,27,38,99,15,42,28,25,24,9,8,0.4,0.6
2022-11-03T06:00:00,2186A,106.8288,39.6778,乌海市,聚英学校,,,,,,,,,,,,,,,,
2022-11-03T06:00:00,2187A,106.8174,39.6973,乌海市,市林业局,颗粒物(PM10),78,106,84,40,36,82,6,14,7,51,41,11,12,0.9,0.7
2022-11-03T06:00:00,2188A,106.7907,39.6667,乌海市,中海勃湾学校,颗粒物(PM10),75,99,94,51,45,81,5,6,5,56,49,13,13,0.8,0.8
2022-11-03T06:00:00,2191A,122.2532,43.6801,通辽市,艺术职业学校,,32,32,37,6,6,63,45,56,51,11,12,8,5,0.5,0.4
2022-11-03T06:00:00,2192A,119.7594,49.2261,呼伦贝尔市,区环保局,,17,17,22,11,14,54,44,43,43,7,8,5,4,0.2,0.2
2022-11-03T06:00:00,2194A,107.5936,40.916,巴彦淖尔市,秋林养殖基地(对照点),,,,,,,,,,,,,,,,
2022-11-03T06:00:00,2195A,107.4212,40.761,巴彦淖尔市,附二中,,38,38,67,19,21,63,23,48,32,17,19,11,17,0.5,0.4
2022-11-03T06:00:00,2196A,107.37,40.7372,巴彦淖尔市,市环保大楼,,40,40,62,19,27,71,29,52,36,14,19,3,8,0.3,0.4
2022-11-03T06:00:00,2197A,113.1306,40.9923,乌兰察布市,集宁新区,,23,23,35,12,18,81,48,47,46,11,6,5,11,0.3,0.3
2022-11-03T06:00:00,2200A,122.0392,46.0656,兴安盟,胜华新制药厂,,,0,20,0,13,62,,,,,13,,3,,0.2
2022-11-03T06:00:00,2201A,121.9504,46.0741,兴安盟,科右前旗环保局,,18,10,16,12,14,60,50,52,50,6,8,2,3,0.2,0.1
2022-11-03T06:00:00,2202A,116.1042,43.9317,锡林郭勒盟,市环保监测站,,11,11,24,2,5,63,19,16,12,15,12,8,11,0.2,0.2
2022-11-03T06:00:00,2203A,116.0781,43.9311,锡林郭勒盟,市政府,,,10,15,,,60,12,27,13,21,14,8,11,0.2,0.2
2022-11-03T06:00:00,2204A,105.6467,38.8363,阿拉善盟,西城区西花园(对照点),,43,43,60,8,24,103,63,62,60,12,21,8,10,0.3,0.4
2022-11-03T06:00:00,2205A,105.6985,38.8411,阿拉善盟,蒙二幼,,32,32,53,18,32,100,71,67,66,7,14,7,9,0.2,0.3
2022-11-03T06:00:00,2206A,105.724,38.8516,阿拉善盟,环保局新楼,,33,25,32,23,24,94,80,84,83,5,13,4,12,0.3,0.4
2022-11-03T06:00:00,2207A,121.6094,41.998,阜新市,工业园区,,19,19,41,9,17,59,45,48,46,9,17,5,8,0.2,0.5
2022-11-03T06:00:00,2208A,121.6697,42.0279,阜新市,长青街,,21,21,41,10,18,56,42,46,45,7,17,4,9,0.7,1
2022-11-03T06:00:00,2209A,121.6673,42.0705,阜新市,农业园区,,14,6,22,3,12,58,43,46,46,5,10,7,13,0.1,0.3
2022-11-03T06:00:00,2210A,121.6717,42.0224,阜新市,东苑,,17,17,45,5,19,61,45,51,50,4,14,6,16,0.5,0.6
2022-11-03T06:00:00,2211A,121.6506,42.0498,阜新市,玉龙新城,,11,9,37,2,12,58,33,40,38,13,21,5,8,0.6,0.6
2022-11-03T06:00:00,2212A,123.2,41.1953,辽阳市,宏伟区,,15,3,49,10,28,47,44,35,35,7,30,9,15,0.4,0.9
2022-11-03T06:00:00,2213A,123.1683,41.2495,辽阳市,新华园,,20,9,54,14,34,42,37,32,32,15,43,16,29,0.4,0.8
2022-11-03T06:00:00,2214A,123.2354,41.2639,辽阳市,滨河路,,13,12,58,8,45,41,41,32,32,13,41,5,15,0.4,1.1
2022-11-03T06:00:00,2215A,123.149,41.2991,辽阳市,铁西工业园,,23,23,48,11,37,31,26,20,20,19,41,24,21,0.6,0.8
2022-11-03T06:00:00,2216A,123.8139,42.3022,铁岭市,汇工街西,,20,20,30,9,11,62,20,26,23,20,17,32,16,0.9,0.7
2022-11-03T06:00:00,2217A,123.8649,42.2923,铁岭市,水上乐园,,14,14,36,5,14,54,28,22,17,25,28,6,9,0.7,0.8
2022-11-03T06:00:00,2218A,123.8486,42.2867,铁岭市,银州路东段,,17,17,39,10,18,46,33,24,22,13,27,5,6,0.5,0.7
2022-11-03T06:00:00,2219A,123.7153,42.2217,铁岭市,金沙江路北,,27,27,37,9,15,59,31,33,33,18,22,11,10,0.3,0.4
2022-11-03T06:00:00,2220A,120.4318,41.5881,朝阳市,西梁,,,,,,,63,37,55,46,10,11,9,14,0.4,0.6
2022-11-03T06:00:00,2221A,120.4521,41.5646,朝阳市,河畔小区,,13,6,28,8,12,58,41,49,46,6,8,9,31,0.8,0.9
2022-11-03T06:00:00,2222A,120.4176,41.5648,朝阳市,八里堡,,12,11,32,6,13,64,37,55,45,10,10,11,17,0.5,0.6
2022-11-03T06:00:00,2223A,120.3806,41.5969,朝阳市,农业园区,,16,16,28,8,13,60,32,49,41,12,12,6,12,0.6,0.7
2022-11-03T06:00:00,2225A,124.4002,43.1713,四平市,一商场,,20,20,32,2,12,54,36,43,40,7,18,3,5,0.0,0.5
2022-11-03T06:00:00,2226A,124.388,43.193,四平市,境园,,15,15,35,4,14,60,36,41,39,9,18,8,10,0.4,0.6
2022-11-03T06:00:00,2227A,125.1358,42.8845,辽源市,环保局,,28,27,33,19,25,61,48,44,44,5,17,8,14,0.3,0.4
2022-11-03T06:00:00,2229A,125.9358,41.7173,通化市,光明,,13,13,32,1,12,55,33,52,46,18,27,24,17,0.3,0.6
2022-11-03T06:00:00,2230A,125.9446,41.7325,通化市,铁路,,18,18,32,3,13,57,18,53,42,30,26,16,17,0.4,0.7
2022-11-03T06:00:00,2231A,126.4219,41.9171,白山市,喜丰,,34,34,46,10,14,64,13,56,43,32,20,9,12,0.6,0.6
2022-11-03T06:00:00,2232A,126.4077,41.9419,白山市,环保局,,41,41,56,12,17,54,30,54,46,19,24,10,13,0.9,1
2022-11-03T06:00:00,2233A,124.8006,45.1214,松原市,江南,,50,50,40,24,18,55,17,32,28,20,19,4,5,0.5,0.5
2022-11-03T06:00:00,2234A,124.7965,45.1722,松原市,江北,细颗粒物(PM2.5),59,46,25,42,10,59,29,36,33,11,11,3,3,0.4,0.3
2022-11-03T06:00:00,2235A,122.7911,45.6077,白城市,洮北区环保局,,23,23,36,6,9,69,52,59,57,10,12,5,4,0.1,0
2022-11-03T06:00:00,2236A,122.8738,45.5725,白城市,市环保局,,22,22,29,7,9,71,44,60,56,15,10,6,5,0.3,0.3
2022-11-03T06:00:00,2237A,129.47,42.8883,延边朝鲜族自治州,妇幼医院,,23,23,25,15,12,71,40,55,48,11,23,7,11,0.4,0.5
2022-11-03T06:00:00,2238A,129.5055,42.9108,延边朝鲜族自治州,延边医院,,18,18,27,10,13,69,44,52,51,13,16,7,8,0.3,0.5
2022-11-03T06:00:00,2239A,129.3964,42.8881,延边朝鲜族自治州,朝阳川镇医院,,17,17,24,4,10,76,40,55,47,11,15,4,7,0.5,0.5
2022-11-03T06:00:00,2240A,130.9762,45.3001,鸡西市,环保局,,33,33,31,17,13,59,35,39,38,12,12,3,3,0.2,0.2
2022-11-03T06:00:00,2243A,130.9429,45.3039,鸡西市,第一中学,,41,41,32,14,12,69,42,44,43,6,5,3,4,0.3,0.3
2022-11-03T06:00:00,2244A,130.2537,47.3416,鹤岗市,哈啤分公司,,16,16,16,11,10,49,38,37,37,6,6,10,7,0.3,0.2
2022-11-03T06:00:00,2245A,130.2684,47.3086,鹤岗市,斯达机电,,28,28,25,15,13,54,36,38,38,9,7,9,6,0.4,0.3
2022-11-03T06:00:00,2246A,130.3114,47.3388,鹤岗市,东山纸板厂,,27,27,23,14,13,52,40,40,40,5,6,11,8,0.6,0.4
2022-11-03T06:00:00,2247A,130.1097,47.3382,鹤岗市,五号水库(对照点),,26,18,19,18,14,55,41,41,41,5,4,10,7,0.4,0.2
2022-11-03T06:00:00,2248A,131.1511,46.6937,双鸭山市,双合村,,27,27,20,14,9,61,43,45,45,8,7,4,4,0.3,0.3
2022-11-03T06:00:00,2249A,131.1652,46.6191,双鸭山市,南小市,,41,41,37,18,10,74,45,50,48,4,6,4,5,0.3,0.3
2022-11-03T06:00:00,2250A,131.1524,46.6554,双鸭山市,环保局,颗粒物(PM10),51,52,26,34,17,72,38,56,40,16,9,7,5,0.6,0.5
2022-11-03T06:00:00,2251A,131.12,46.5656,双鸭山市,苗圃(对照点),,38,25,27,26,21,54,35,39,36,5,4,3,3,0.3,0.3
2022-11-03T06:00:00,2252A,128.5159,47.4311,伊春市,环保局,,26,26,21,18,13,48,36,38,35,4,5,4,4,0.4,0.4
2022-11-03T06:00:00,2253A,128.9102,47.7412,伊春市,电力嘉园,,45,32,24,31,18,48,36,38,36,4,3,3,4,0.5,0.4
2022-11-03T06:00:00,2254A,129.5029,48.471,伊春市,汤旺河国家公园(对照点),,28,11,31,19,16,47,43,44,44,2,3,6,6,0.1,0.2
2022-11-03T06:00:00,2255A,130.2751,46.8028,佳木斯市,佳纺,,27,27,31,17,12,55,31,38,36,11,9,2,2,0.6,0.3
2022-11-03T06:00:00,2256A,130.3995,46.8307,佳木斯市,发电厂,,31,31,20,20,9,56,35,37,37,9,7,1,2,0.4,0.3
2022-11-03T06:00:00,2257A,130.3258,46.7975,佳木斯市,环保局,,38,38,24,18,11,56,36,37,36,8,12,5,4,0.4,0.3
2022-11-03T06:00:00,2258A,130.3648,46.8032,佳木斯市,十一中,,35,32,25,24,12,55,39,41,41,10,12,1,2,0.4,0.4
2022-11-03T06:00:00,2259A,130.3794,46.7588,佳木斯市,四丰(对照点),,26,26,17,18,7,55,41,43,42,4,6,1,5,0.5,0.3
2022-11-03T06:00:00,2262A,131.0518,45.8751,七台河市,新一中(对照点),,20,20,27,10,13,69,49,49,49,5,7,8,8,0.7,0.6
2022-11-03T06:00:00,2263A,127.4833,50.2524,黑河市,交通局,,16,8,11,10,10,52,50,50,50,1,4,5,6,0.5,0.5
2022-11-03T06:00:00,2264A,127.5144,50.2341,黑河市,环保局,,18,0,7,12,10,53,53,52,52,2,3,5,5,0.3,0.3
2022-11-03T06:00:00,2265A,127.5291,50.2472,黑河市,大黑河岛(对照点),,17,3,8,2,3,52,52,52,51,2,2,2,2,0.2,0.2
2022-11-03T06:00:00,2266A,126.9785,46.6365,绥化市,人和东街,,11,8,25,5,13,61,34,31,31,2,5,3,3,0.6,0.7
2022-11-03T06:00:00,2267A,126.964,46.6528,绥化市,党政办公中心,,14,8,23,7,17,73,43,42,42,2,4,3,2,0.5,0.6
2022-11-03T06:00:00,2269A,124.1069,50.4097,大兴安岭地区,科技局,,16,6,8,11,12,52,51,51,51,4,3,7,3,0.3,0.3
2022-11-03T06:00:00,2270A,117.396,32.939,蚌埠市,工人疗养院,细颗粒物(PM2.5),104,113,83,78,49,131,44,44,24,25,42,8,9,0.4,0.4
2022-11-03T06:00:00,2271A,117.3605,32.9427,蚌埠市,百货大楼,细颗粒物(PM2.5),98,96,83,73,48,128,17,23,13,65,52,11,11,0.5,0.5
2022-11-03T06:00:00,2273A,117.4185,32.8911,蚌埠市,蚌埠学院,细颗粒物(PM2.5),83,95,92,61,48,128,9,43,37,65,50,19,14,0.6,0.5
2022-11-03T06:00:00,2274A,117.3533,32.9673,蚌埠市,淮上区政府,细颗粒物(PM2.5),89,107,87,66,44,131,32,72,43,31,27,9,10,0.4,0.4
2022-11-03T06:00:00,2275A,117.3145,32.8977,蚌埠市,高新区,细颗粒物(PM2.5),77,83,73,56,42,133,54,66,63,28,34,7,8,0.5,0.5
2022-11-03T06:00:00,2277A,116.8305,32.7727,淮南市,潘集区政府,细颗粒物(PM2.5),123,137,109,93,66,141,44,40,38,32,31,7,8,0.5,0.5
2022-11-03T06:00:00,2278A,117.0067,32.6524,淮南市,师范学院,细颗粒物(PM2.5),117,126,100,88,50,133,41,102,81,34,29,8,9,1.0,0.7
2022-11-03T06:00:00,2279A,116.8569,32.5951,淮南市,谢家集区政府,细颗粒物(PM2.5),84,113,90,62,51,133,42,95,82,41,29,10,13,0.7,0.5
2022-11-03T06:00:00,2280A,116.8281,32.633,淮南市,八公山区政府,细颗粒物(PM2.5),90,85,75,67,57,137,56,81,76,28,25,15,14,0.7,0.6
2022-11-03T06:00:00,2281A,116.6325,32.6201,淮南市,焦岗湖风景区管理处(对照点),细颗粒物(PM2.5),85,95,91,63,53,138,14,45,34,15,12,11,12,0.7,0.5
2022-11-03T06:00:00,2282A,116.8004,33.975,淮北市,监测站,细颗粒物(PM2.5),74,79,63,54,32,130,43,86,73,42,25,10,9,0.7,0.6
2022-11-03T06:00:00,2283A,116.8091,33.9007,淮北市,烈山区政府,细颗粒物(PM2.5),69,72,68,50,36,133,61,80,70,25,29,5,7,0.5,0.5
2022-11-03T06:00:00,2284A,116.7856,33.9477,淮北市,职业技术学院,细颗粒物(PM2.5),74,88,67,54,34,130,57,78,72,32,28,8,8,0.4,0.4
2022-11-03T06:00:00,2285A,117.8177,30.9412,铜陵市,市第四中学,颗粒物(PM10),75,99,87,48,41,131,12,22,14,54,36,4,5,0.6,0.5
2022-11-03T06:00:00,2286A,117.8059,30.9273,铜陵市,市公路局,细颗粒物(PM2.5),73,84,71,53,45,126,12,26,17,56,30,7,6,0.6,0.5
2022-11-03T06:00:00,2287A,117.7807,30.9413,铜陵市,市新民污水厂,颗粒物(PM10),66,81,71,43,38,136,2,27,16,64,30,3,6,0.4,0.3
2022-11-03T06:00:00,2288A,117.7439,30.8792,铜陵市,市第九中学,颗粒物(PM10),91,131,94,50,45,121,4,31,17,56,41,6,9,0.7,0.7
2022-11-03T06:00:00,2289A,117.846,30.9413,铜陵市,车站新区,,,70,61,41,37,127,,37,18,55,29,3,4,0.4,0.4
2022-11-03T06:00:00,2290A,117.8483,30.97,铜陵市,市职教基地,细颗粒物(PM2.5),69,62,64,50,38,136,5,38,25,36,18,5,6,0.7,0.7
2022-11-03T06:00:00,2291A,117.0809,30.5177,安庆市,环科院,细颗粒物(PM2.5),78,80,70,57,44,134,58,99,80,25,22,9,9,0.7,0.7
2022-11-03T06:00:00,2292A,117.0331,30.5119,安庆市,马山宾馆,,,,62,,36,101,,88,,,21,,6,,0.7
2022-11-03T06:00:00,2294A,116.9896,30.6145,安庆市,安庆大学,细颗粒物(PM2.5),69,73,70,50,46,136,61,81,76,29,24,6,6,0.6,0.8
2022-11-03T06:00:00,2295A,118.2903,29.6963,黄山市,延安路89号,,24,24,26,16,18,108,19,34,31,18,12,5,5,0.3,0.3
2022-11-03T06:00:00,2296A,118.327,29.7178,黄山市,黄山东路89号,,24,24,28,8,16,104,17,46,39,22,13,5,5,0.3,0.3
2022-11-03T06:00:00,2297A,118.1371,30.2756,黄山市,黄山区政府5号楼,,37,37,48,20,25,118,10,26,16,11,12,5,5,0.3,0.3
2022-11-03T06:00:00,2298A,118.3093,32.3153,滁州市,老年大学,细颗粒物(PM2.5),59,61,74,42,48,154,28,36,34,32,37,9,9,0.4,0.4
2022-11-03T06:00:00,2299A,118.3244,32.2786,滁州市,人大宾馆,颗粒物(PM10),57,64,78,32,35,160,28,49,39,31,34,5,5,0.5,0.5
2022-11-03T06:00:00,2301A,115.8277,32.8929,阜阳市,市监测站,细颗粒物(PM2.5),114,116,97,86,65,129,24,58,39,41,28,9,11,0.7,0.7
2022-11-03T06:00:00,2303A,115.8554,32.8605,阜阳市,开发区,细颗粒物(PM2.5),108,129,109,81,65,139,32,53,38,42,37,7,8,0.7,0.7
2022-11-03T06:00:00,2306A,116.989,33.6306,宿州市,火车站,,,,,,,,,,,,,,,,
2022-11-03T06:00:00,2307A,116.5079,31.737,六安市,监测大楼,细颗粒物(PM2.5),97,100,83,72,54,125,41,57,49,33,28,6,7,0.5,0.4
2022-11-03T06:00:00,2308A,116.4738,31.7643,六安市,皖西学院,细颗粒物(PM2.5),78,85,86,57,51,127,4,30,12,56,37,5,6,0.4,0.4
2022-11-03T06:00:00,2309A,116.4996,31.7905,六安市,朝阳厂,细颗粒物(PM2.5),87,91,82,64,51,124,1,32,15,57,40,3,5,0.7,0.7
2022-11-03T06:00:00,2310A,116.5567,31.7886,六安市,开发区,细颗粒物(PM2.5),93,121,94,69,51,128,8,22,19,41,33,5,7,0.6,0.5
2022-11-03T06:00:00,2311A,115.8072,33.8399,亳州市,污水处理厂,细颗粒物(PM2.5),82,83,80,60,53,140,34,57,43,26,23,13,12,0.6,0.5
2022-11-03T06:00:00,2312A,115.7789,33.8518,亳州市,三国揽胜宫,细颗粒物(PM2.5),88,98,86,65,53,143,50,63,56,30,26,11,7,0.7,0.7
2022-11-03T06:00:00,2314A,117.47,30.6618,池州市,池州学院,细颗粒物(PM2.5),69,80,58,50,38,135,23,75,49,38,22,6,8,1.0,0.7
2022-11-03T06:00:00,2315A,117.4974,30.6539,池州市,平天湖(对照点),,,,,,,,,,,,,,,,
2022-11-03T06:00:00,2316A,118.7581,30.9454,宣城市,鳌峰子站,细颗粒物(PM2.5),59,57,58,42,36,123,24,62,44,53,27,8,6,0.6,0.5
2022-11-03T06:00:00,2317A,118.7385,30.9743,宣城市,敬亭山子站,细颗粒物(PM2.5),59,58,55,42,31,119,30,68,45,28,27,6,7,0.4,0.5
2022-11-03T06:00:00,2318A,118.7173,30.9427,宣城市,开发区子站,细颗粒物(PM2.5),62,57,58,44,35,118,15,58,41,50,25,6,6,0.7,0.6
2022-11-03T06:00:00,2319A,119.0141,25.4325,莆田市,荔城区仓后路,,22,5,16,6,9,89,68,88,80,7,7,5,5,0.7,0.6
2022-11-03T06:00:00,2320A,119.0015,25.4553,莆田市,莆田市监测站,,25,4,11,4,8,95,78,92,86,2,5,4,5,0.6,0.5
2022-11-03T06:00:00,2321A,119.1119,25.4561,莆田市,涵江区六中,,17,11,16,8,11,95,53,92,77,16,6,7,6,0.6,0.5
2022-11-03T06:00:00,2322A,119.1013,25.3215,莆田市,秀屿区政府,,25,12,17,11,12,93,78,81,80,5,7,6,6,0.6,0.5
2022-11-03T06:00:00,2323A,118.981,25.4792,莆田市,东圳水库(对照点),,,,,,,,,,,,,,,,
2022-11-03T06:00:00,2324A,117.6211,26.2625,三明市,三钢,,22,14,10,15,10,64,39,45,43,11,12,6,5,0.2,0.3
2022-11-03T06:00:00,2325A,117.635,26.2714,三明市,三明二中,,18,11,9,12,9,60,38,45,42,9,11,5,4,0.4,0.4
2022-11-03T06:00:00,2326A,117.6028,26.2378,三明市,三元区政府,,28,19,10,19,11,59,38,44,42,15,16,5,4,0.5,0.5
2022-11-03T06:00:00,2327A,117.7275,26.3108,三明市,洋溪(对照点),,,,,,,,,,,,,,,,
2022-11-03T06:00:00,2331A,118.0966,26.6761,南平市,茫荡山(对照点),,,,,,,,,,,,,,,,
2022-11-03T06:00:00,2332A,118.1681,26.6369,南平市,南平市监测站,,13,10,11,9,9,62,31,32,30,10,11,5,6,0.5,0.5
2022-11-03T06:00:00,2333A,118.1825,26.6489,南平市,南平铝业有限公司,,16,8,8,11,9,65,29,28,28,10,10,3,4,0.5,0.5
2022-11-03T06:00:00,2334A,118.1756,26.6272,南平市,南平七中,,13,7,10,9,10,71,18,21,20,13,11,3,10,0.4,0.5
2022-11-03T06:00:00,2335A,117.0189,25.1181,龙岩市,龙岩师专(对照点),,,,,,,,,,,,,,,,
2022-11-03T06:00:00,2336A,117.0217,25.1033,龙岩市,龙岩市监测站,,28,9,6,19,8,72,49,60,57,10,9,6,6,0.4,0.3
2022-11-03T06:00:00,2337A,117.0258,25.0661,龙岩市,闽西职业技术学院,,15,8,6,10,5,72,45,63,58,10,7,5,5,0.4,0.4
2022-11-03T06:00:00,2338A,117.0196,25.0306,龙岩市,龙岩学院,,18,11,7,12,5,67,43,50,46,8,9,5,4,0.3,0.3
2022-11-03T06:00:00,2339A,119.5001,26.6946,宁德市,金涵水库(对照点),,,,,,,,,,,,,,,,
2022-11-03T06:00:00,2341A,119.5388,26.6612,宁德市,宁德市监测站,,15,7,11,7,11,72,46,35,35,7,24,5,6,0.5,0.6
2022-11-03T06:00:00,2342A,117.3102,29.3867,景德镇市,王港中学(对照点),,14,14,29,6,14,79,12,10,9,5,7,5,5,0.3,0.4
2022-11-03T06:00:00,2343A,117.2117,29.2933,景德镇市,老干部活动中心,颗粒物(PM10),51,52,51,18,21,113,42,59,55,17,16,6,6,0.6,0.6
2022-11-03T06:00:00,2344A,117.1894,29.2789,景德镇市,兽医站,,29,29,32,15,17,116,60,68,67,15,13,5,5,0.6,0.6
2022-11-03T06:00:00,2345A,117.1547,29.2617,景德镇市,台达陶瓷,,22,22,33,13,19,103,60,61,60,10,16,4,6,0.7,0.7
2022-11-03T06:00:00,2346A,117.2461,29.2956,景德镇市,陶研所,,40,40,42,14,17,106,14,44,34,23,13,4,4,0.6,0.6
2022-11-03T06:00:00,2347A,114.0997,27.5002,萍乡市,武功山(对照点),,22,22,24,12,17,129,58,44,43,10,12,22,22,0.5,0.4
2022-11-03T06:00:00,2348A,113.8385,27.6434,萍乡市,中医院,,35,31,46,24,23,136,94,110,100,24,21,9,16,2.3,0.7
2022-11-03T06:00:00,2349A,113.8493,27.6253,萍乡市,市政府车库,,43,43,48,26,27,146,104,95,95,16,22,10,18,0.8,0.8
2022-11-03T06:00:00,2350A,113.8676,27.6435,萍乡市,市环保局,,46,46,43,26,26,143,96,105,101,18,12,18,22,3.0,0.7
2022-11-03T06:00:00,2351A,113.866,27.6198,萍乡市,安源区政府,,39,30,53,27,27,141,100,86,86,14,27,11,20,0.4,1
2022-11-03T06:00:00,2352A,115.0861,27.9317,新余市,北岗(对照点),颗粒物(PM10),56,61,76,38,34,92,32,23,23,15,14,11,13,0.7,0.7
2022-11-03T06:00:00,2353A,114.9886,27.8431,新余市,飞宇,"颗粒物(PM10),细颗粒物(PM2.5)",57,64,49,40,26,112,46,69,58,22,19,9,23,0.3,0.2
2022-11-03T06:00:00,2354A,114.9231,27.8246,新余市,第二水厂,颗粒物(PM10),53,56,51,33,27,122,58,72,68,21,21,10,16,0.6,0.6
