timepoint,stationcode,longitude,latitude,area,positionname,primarypollutant,aqi,pm10,pm10_24h,pm2_5,pm2_5_24h,o3,o3_24h,o3_8h,o3_8h_24h,no2,no2_24h,so2,so2_24h,co,co_24h
2025-06-23T2300,2566A,102.1879,31.914,阿坝藏族羌族自治州,州农科所,,15,15,20,6,9,36,,74,56,9,8,12,12,0.5,0.5
2025-06-23T2300,2568A,102.2502,31.8896,阿坝藏族羌族自治州,马师校,,30,24,16,21,19,19,,84,52,12,9,6,6,0.5,0.5
2025-06-23T2300,3994A,102.2165,31.9024,阿坝藏族羌族自治州,马尔康中学西区,,23,21,18,16,15,33,,92,65,8,5,6,6,0.5,0.5
2025-06-23T2300,2695A,80.292,41.1694,阿克苏地区,电视台,,40,40,64,23,28,118,,124,124,10,9,7,6,0.6,0.6
2025-06-23T2300,2696A,80.2613,41.1551,阿克苏地区,艺术中心,,49,49,63,23,26,125,,132,132,1,5,3,3,0.3,1.1
2025-06-23T2300,2205A,105.6985,38.8411,阿拉善盟,蒙二幼,,48,42,25,13,13,153,,151,151,8,9,10,9,0.6,0.6
2025-06-23T2300,2206A,105.724,38.8516,阿拉善盟,环保局新楼,,48,32,23,11,13,152,,150,150,6,6,9,9,0.6,0.6
2025-06-23T2300,2708A,88.1264,47.8517,阿勒泰地区,市站,,29,19,24,3,5,91,,104,101,7,8,1,1,0.2,0.3
2025-06-23T2300,2630A,80.1161,32.5,阿里地区,阿里监测站,,40,11,5,3,5,125,,140,136,10,6,8,8,0.3,0.3
2025-06-23T2300,3192A,80.0903,32.5028,阿里地区,阿里藏医院,,40,12,12,3,5,128,,144,141,2,4,8,8,0.4,0.4
2025-06-23T2300,2642A,109.0318,32.6537,安康市,香溪洞,,36,22,24,3,12,115,,132,126,4,5,6,5,0.3,0.5
2025-06-23T2300,2644A,109.0072,32.6975,安康市,汉滨区检察院,,25,22,22,6,9,78,,130,112,10,8,5,7,0.5,0.4
2025-06-23T2300,4054A,109.0325,32.6913,安康市,市邮政管理局,,,,22,13,12,,,130,119,12,10,6,7,0.5,0.4
2025-06-23T2300,2291A,117.0809,30.5177,安庆市,环科院,,32,21,17,20,14,100,,90,88,6,10,3,3,0.8,0.8
2025-06-23T2300,2292A,117.0331,30.5119,安庆市,马山宾馆,,33,,18,23,17,94,,80,80,6,11,3,4,0.9,0.9
2025-06-23T2300,2294A,116.9896,30.6145,安庆市,安庆大学,,32,24,17,20,14,101,,92,92,8,7,2,2,0.7,0.7
2025-06-23T2300,3173A,117.0598,30.5351,安庆市,市人大,,35,,18,24,14,101,,89,87,9,12,3,3,0.7,0.7
2025-06-23T2300,3123A,105.9408,26.2431,安顺市,凤凰山,,30,30,35,21,32,57,,99,86,11,12,10,7,0.6,0.6
2025-06-23T2300,3124A,105.9439,26.2564,安顺市,金钟山,,35,32,32,24,32,58,,104,94,9,9,12,9,0.4,0.4
2025-06-23T2300,3125A,105.8983,26.2481,安顺市,娄家坡,,19,16,28,12,28,60,,96,86,5,7,7,7,0.5,0.5
2025-06-23T2300,1819A,114.3551,36.1017,安阳市,红庙街,,46,37,45,20,18,145,,172,163,5,6,3,7,0.5,0.5
2025-06-23T2300,1820A,114.361,36.0681,安阳市,银杏小区,颗粒物(PM10),51,52,48,23,22,146,,175,160,11,14,4,7,0.3,0.4
2025-06-23T2300,3141A,114.3922,36.0878,安阳市,信访局,,47,46,46,14,20,148,,178,168,8,12,4,4,0.5,0.5
2025-06-23T2300,3669A,114.4705,36.0637,安阳市,左辅环卫站,,50,50,52,26,22,132,,179,163,17,18,4,5,0.5,0.5
2025-06-23T2300,3703A,114.2917,36.0949,安阳市,安钢职工学校,,,43,52,27,24,112,,162,150,,12,4,5,0.5,0.3
2025-06-23T2300,1748A,123.044,41.1196,鞍山市,深沟寺,,45,45,40,27,22,135,,192,177,15,19,8,10,0.7,0.9
2025-06-23T2300,1749A,123.011,41.0931,鞍山市,太阳城,颗粒物(PM10),55,59,49,35,28,101,,195,172,19,18,8,11,1.0,1.1
2025-06-23T2300,1750A,123.0485,41.1442,鞍山市,太平,颗粒物(PM10),54,57,49,31,22,138,,181,169,14,20,8,12,0.8,1
2025-06-23T2300,1751A,122.9642,41.0971,鞍山市,铁西三道街,颗粒物(PM10),61,72,59,40,30,109,,176,,32,28,8,11,1.1,1.2
2025-06-23T2300,1753A,123.022,41.0821,鞍山市,明达新区,颗粒物(PM10),51,52,48,29,26,131,,189,172,16,18,9,11,0.7,0.9
2025-06-23T2300,4201A,122.9446,41.0826,鞍山市,兴盛南路290号,颗粒物(PM10),64,78,68,37,30,106,,193,168,41,36,9,10,0.9,1.1
2025-06-23T2300,2195A,107.4212,40.761,巴彦淖尔市,附二中,,41,41,44,21,18,124,,152,140,9,10,10,11,0.6,0.6
2025-06-23T2300,2196A,107.37,40.7372,巴彦淖尔市,市环保大楼,颗粒物(PM10),51,51,50,23,19,137,,160,153,14,13,7,8,0.5,0.5
2025-06-23T2300,1956A,86.1472,41.7538,巴音郭楞蒙古自治州,孔雀公园,颗粒物(PM10),105,160,58,56,21,90,,111,102,11,14,8,11,0.3,0.5
2025-06-23T2300,1957A,86.1972,41.7166,巴音郭楞蒙古自治州,棉纺厂,颗粒物(PM10),96,141,65,30,13,91,,118,108,16,18,3,6,0.3,0.3
2025-06-23T2300,1958A,86.2357,41.7173,巴音郭楞蒙古自治州,经济开发区,颗粒物(PM10),91,131,50,36,12,83,,115,101,20,10,9,10,0.1,0.1
2025-06-23T2300,2914A,106.7677,31.8794,巴中市,苏山坪,,34,17,12,14,10,108,,129,126,5,3,5,5,0.4,0.3
2025-06-23T2300,3181A,106.7768,31.8526,巴中市,市五中,,28,24,20,16,12,89,,143,134,13,10,8,8,0.5,0.4
2025-06-23T2300,3183A,106.7418,31.8654,巴中市,圣泉水务公司,,23,23,16,14,10,57,,142,127,39,13,6,6,0.6,0.5
2025-06-23T2300,3616A,106.7616,31.8344,巴中市,市中心医院,,25,21,15,10,13,77,,138,126,29,12,7,7,0.5,0.4
2025-06-23T2300,2235A,122.7911,45.6077,白城市,洮北区环保局,,49,,17,34,18,102,,124,110,13,13,1,2,0.3,0.3
2025-06-23T2300,2236A,122.8738,45.5725,白城市,市环保局,,32,27,22,15,11,100,,116,110,9,5,8,5,0.4,0.4
2025-06-23T2300,2231A,126.4219,41.9171,白山市,喜丰,颗粒物(PM10),85,119,48,30,15,42,,154,99,38,25,7,8,0.9,0.7
2025-06-23T2300,2232A,126.4077,41.9419,白山市,环保局,,37,37,29,18,11,57,,148,109,15,15,2,6,0.7,0.7
2025-06-23T2300,2647A,104.1724,36.5446,白银市,第三小学,,30,23,34,12,22,96,,120,116,11,14,30,66,0.6,1
2025-06-23T2300,2648A,104.1465,36.5482,白银市,动力公司,,32,19,29,12,16,101,,121,112,15,15,13,31,0.5,0.5
2025-06-23T2300,2512A,106.6103,23.9011,百色市,市监测站,,25,25,29,16,13,13,,59,40,8,11,3,7,0.3,0.4
2025-06-23T2300,2513A,106.6538,23.8859,百色市,市中心血站,,37,37,32,24,17,9,,56,36,25,16,2,6,0.8,0.6
2025-06-23T2300,3406A,106.6085,23.8798,百色市,祈福高中,,19,17,32,13,16,12,,57,32,15,14,4,7,0.6,0.7
2025-06-23T2300,2270A,117.396,32.939,蚌埠市,工人疗养院,,44,44,47,22,24,88,,117,106,18,14,4,4,0.4,0.4
2025-06-23T2300,2271A,117.3605,32.9427,蚌埠市,百货大楼,,45,45,42,20,20,91,,116,106,19,18,5,6,0.4,0.4
2025-06-23T2300,2273A,117.4185,32.8911,蚌埠市,蚌埠学院,,34,34,35,21,25,95,,116,99,20,22,6,6,0.4,0.4
2025-06-23T2300,2274A,117.3533,32.9673,蚌埠市,淮上区政府,颗粒物(PM10),52,53,41,31,24,31,,125,101,64,21,5,6,0.5,0.5
2025-06-23T2300,2275A,117.3145,32.8977,蚌埠市,高新区,颗粒物(PM10),56,61,40,27,23,51,,112,90,40,21,7,7,0.5,0.5
2025-06-23T2300,3715A,117.3092,32.9314,蚌埠市,蚌埠田家炳中学,颗粒物(PM10),67,83,54,34,28,21,,112,86,59,21,6,6,0.4,0.3
2025-06-23T2300,1585A,109.8756,40.6532,包头市,市环境监测站,,,42,39,21,18,,,161,150,46,22,17,17,1.1,0.6
2025-06-23T2300,1587A,109.9991,40.5842,包头市,包头八中,,38,38,44,25,21,108,,167,147,23,18,7,13,0.6,0.6
2025-06-23T2300,1588A,109.8538,40.6821,包头市,青山宾馆,,,42,31,37,18,,,168,,41,22,11,18,0.8,0.7
2025-06-23T2300,1589A,109.8642,40.6288,包头市,惠龙物流,,46,46,35,26,15,94,,166,142,32,20,15,14,1.0,0.5
2025-06-23T2300,1590A,110.0377,40.5546,包头市,东河鸿龙湾,,36,25,38,15,14,113,,171,150,18,20,7,11,0.6,0.5
2025-06-23T2300,3283A,109.9154,40.5685,包头市,滨河大厦,,32,28,33,19,15,102,,169,145,26,21,10,11,0.6,0.5
2025-06-23T2300,3419A,109.9447,40.6261,包头市,包头市委党校,,36,36,36,23,14,93,,170,148,33,17,18,16,0.7,0.5
2025-06-23T2300,3683A,109.8331,40.6576,包头市,昆区政府,颗粒物(PM10),51,51,39,32,22,85,,161,134,43,23,22,17,1.7,0.7
2025-06-23T2300,1930A,107.185,34.3063,宝鸡市,庙沟村,,46,24,39,12,14,147,,159,152,12,9,5,6,0.4,0.4
2025-06-23T2300,1931A,107.0708,34.3017,宝鸡市,竹园沟,,30,25,22,12,13,93,,158,130,19,11,6,6,0.3,0.4
2025-06-23T2300,1932A,107.1906,34.3672,宝鸡市,三陆医院,,32,32,23,13,14,79,,160,146,45,14,6,8,0.5,0.5
2025-06-23T2300,1933A,107.1431,34.3547,宝鸡市,监测站,颗粒物(PM10),52,53,27,27,15,82,,151,138,22,11,7,7,0.3,0.3
2025-06-23T2300,1934A,107.1186,34.3739,宝鸡市,技工学校,,46,36,23,32,16,101,,158,143,17,7,8,8,0.5,0.5
2025-06-23T2300,1935A,107.3906,34.3528,宝鸡市,陈仓区环保局家属楼,,37,37,23,14,19,39,,112,83,24,11,6,9,0.6,0.5
2025-06-23T2300,1936A,107.2058,34.3497,宝鸡市,文理学院,,42,42,23,13,13,95,,164,151,24,10,5,7,0.6,0.5
2025-06-23T2300,1937A,107.2386,34.3622,宝鸡市,三迪小学,,36,28,25,24,16,114,,160,149,29,14,6,8,0.6,0.5
2025-06-23T2300,1051A,115.493,38.8632,保定市,游泳馆,颗粒物(PM10),64,78,66,30,37,144,,253,216,28,25,8,7,0.4,0.3
2025-06-23T2300,1052A,115.5213,38.8959,保定市,华电二区,臭氧1小时,55,46,55,32,25,164,,257,217,14,22,5,4,0.5,0.5
2025-06-23T2300,1053A,115.4713,38.9108,保定市,接待中心,颗粒物(PM10),53,55,56,25,30,140,,247,204,20,20,4,3,0.6,0.5
2025-06-23T2300,1054A,115.4612,38.8416,保定市,地表水厂,颗粒物(PM10),64,78,84,26,37,122,,263,215,35,32,4,3,0.4,0.4
2025-06-23T2300,3581A,115.31981,38.95208,保定市,满城区生态环境分局,颗粒物(PM10),68,85,64,34,24,129,,248,208,24,18,5,4,0.4,0.3
2025-06-23T2300,3582A,115.47694,38.76408,保定市,清苑区第二中学,颗粒物(PM10),64,78,93,30,45,151,,276,221,19,27,6,4,0.5,0.5
2025-06-23T2300,3583A,115.62909,39.02311,保定市,徐水物探局,颗粒物(PM10),71,92,80,29,32,103,,247,181,50,29,2,3,0.5,0.4
2025-06-23T2300,4004A,115.4202,38.8656,保定市,双鹰农机,颗粒物(PM10),61,72,57,31,32,131,,264,209,32,27,7,6,0.4,0.4
2025-06-23T2300,4034A,115.5150,38.8590,保定市,植保所站,臭氧1小时,65,54,72,44,37,172,,271,228,16,30,6,6,0.5,0.5
2025-06-23T2300,2594A,99.1678,25.1081,保山市,市环境监测站,,32,,10,22,13,6,,37,24,7,9,8,8,0.4,0.4
2025-06-23T2300,2595A,99.1711,25.1328,保山市,市环保局,,19,16,11,13,8,13,,43,26,5,6,6,6,0.6,0.6
2025-06-23T2300,1867A,109.1436,21.4086,北海市,海滩公园,,16,16,34,3,7,51,,58,55,3,6,2,2,0.1,0.2
2025-06-23T2300,1868A,109.0981,21.4661,北海市,新市环保局,,18,,20,3,11,56,,64,61,4,8,2,3,0.3,0.4
2025-06-23T2300,1869A,109.1778,21.5233,北海市,北海工业园,,19,14,27,7,13,58,,63,61,5,12,3,6,0.3,0.4
2025-06-23T2300,3400A,109.1911,21.4415,北海市,龙潭自来水厂,,19,15,19,8,11,58,,71,68,4,7,4,4,0.4,0.4
2025-06-23T2300,1001A,116.3621,39.8784,北京市,万寿西宫,颗粒物(PM10),59,68,57,37,29,139,,280,232,43,34,6,6,0.8,0.6
2025-06-23T2300,1003A,116.4174,39.9289,北京市,东四,颗粒物(PM10),55,60,57,30,26,155,,290,244,33,38,4,5,0.7,0.5
2025-06-23T2300,1004A,116.4072,39.8863,北京市,天坛,,49,49,54,32,31,91,,265,186,19,25,3,5,0.8,0.7
2025-06-23T2300,1005A,116.462,39.9365,北京市,农展馆,颗粒物(PM10),55,59,57,33,29,108,,242,199,38,36,6,7,1.1,0.8
2025-06-23T2300,1006A,116.3392,39.9295,北京市,官园,颗粒物(PM10),59,68,56,41,29,147,,277,227,39,39,5,5,0.8,0.5
2025-06-23T2300,1007A,116.2878,39.9611,北京市,海淀万柳,颗粒物(PM10),65,80,62,37,29,78,,250,194,69,38,4,5,0.9,0.6
2025-06-23T2300,1008A,116.6636,40.135,北京市,顺义新城,,,85,47,56,26,,,215,201,36,21,3,4,0.8,0.5
2025-06-23T2300,1009A,116.6275,40.3275,北京市,怀柔镇,臭氧1小时,52,47,38,30,24,161,,229,212,10,13,1,2,0.5,0.4
2025-06-23T2300,1010A,116.2296,40.217,北京市,昌平镇,臭氧1小时,85,52,45,33,26,188,,254,237,9,13,5,5,0.5,0.4
2025-06-23T2300,1011A,116.3966,39.9821,北京市,奥体中心,颗粒物(PM10),52,54,51,31,26,98,,220,186,36,33,4,5,0.9,0.7
2025-06-23T2300,3281A,115.9718,40.4529,北京市,延庆夏都,颗粒物(PM10),55,59,40,30,21,109,,181,169,19,15,5,5,0.7,0.5
2025-06-23T2300,3418A,116.8336,40.4095,北京市,密云新城,颗粒物(PM10),57,64,41,28,21,118,,198,170,12,11,3,3,0.5,0.3
2025-06-23T2300,3671A,116.088,39.9726,北京市,门头沟三家店,颗粒物(PM10),55,60,52,34,28,151,,200,200,13,18,3,3,0.7,0.7
2025-06-23T2300,3672A,116.1541,39.8204,北京市,丰台云岗,颗粒物(PM10),75,100,66,36,27,147,,259,217,30,21,4,5,0.7,0.6
2025-06-23T2300,3673A,116.6804,39.9081,北京市,通州东关,颗粒物(PM10),83,115,77,57,37,142,,277,229,45,29,5,7,0.9,0.8
2025-06-23T2300,3674A,115.9577,39.7603,北京市,房山燕山,"颗粒物(PM10),臭氧1小时",52,53,52,26,29,161,,226,193,7,14,3,3,0.5,0.5
2025-06-23T2300,3675A,116.4672,39.7733,北京市,大兴旧宫,颗粒物(PM10),60,69,57,34,29,92,,250,179,27,25,2,5,0.7,0.8
2025-06-23T2300,3694A,115.986,40.4563,北京市,延庆石河营,颗粒物(PM10),56,61,39,39,23,91,,164,152,17,12,2,2,0.5,0.4
2025-06-23T2300,3695A,116.6151,40.3053,北京市,怀柔新城,臭氧1小时,63,50,39,33,24,170,,221,208,9,9,2,2,0.5,0.5
2025-06-23T2300,3696A,116.2545,39.8768,北京市,丰台小屯,颗粒物(PM10),69,87,57,41,29,77,,226,170,58,31,3,4,0.9,0.7
2025-06-23T2300,3697A,116.84,40.3844,北京市,密云镇,颗粒物(PM10),66,82,39,25,19,118,,205,183,23,18,3,2,0.6,0.4
2025-06-23T2300,4182A,116.1942,39.9158,北京市,八角北路9号,颗粒物(PM10),65,80,57,35,27,156,,241,205,18,22,3,5,0.6,0.5
2025-06-23T2300,4194A,117.0790,40.1518,北京市,洳河巡河路,细颗粒物(PM2.5),94,128,59,70,32,115,,244,207,21,14,3,5,0.8,0.7
2025-06-23T2300,1761A,123.8275,41.3064,本溪市,大峪,,36,36,32,16,16,81,,152,114,16,13,6,8,0.4,0.6
2025-06-23T2300,1762A,123.7567,41.3325,本溪市,溪湖,,43,43,46,19,20,98,,162,133,18,20,8,11,1.0,1.2
2025-06-23T2300,1763A,123.7169,41.3094,本溪市,彩屯,颗粒物(PM10),52,53,45,30,26,64,,161,115,34,31,10,15,0.8,1.4
2025-06-23T2300,1764A,123.7669,41.2864,本溪市,东明,,39,39,38,17,17,103,,159,140,28,18,8,8,0.8,0.8
2025-06-23T2300,1765A,123.7992,41.2664,本溪市,新立屯,,32,23,30,16,17,100,,159,115,33,24,6,6,0.6,0.7
2025-06-23T2300,1766A,123.8142,41.3472,本溪市,威宁,颗粒物(PM10),53,55,46,24,20,66,,160,114,23,17,5,7,0.4,0.6
2025-06-23T2300,2587A,105.2864,27.3125,毕节市,八中,,46,42,30,32,25,79,,112,102,12,10,9,6,0.5,0.6
2025-06-23T2300,2588A,105.31,27.2944,毕节市,师专,,40,40,31,27,22,80,,123,111,17,12,9,6,0.4,0.4
2025-06-23T2300,4263A,105.3688,27.3598,毕节市,工业大道,,36,36,29,25,21,60,,108,97,24,16,6,6,0.7,0.6
2025-06-23T2300,1629A,118.0018,37.3617,滨州市,第二水厂,,34,34,38,17,19,103,,209,170,22,17,6,6,0.2,0.3
2025-06-23T2300,1630A,117.9776,37.393,滨州市,北中新校,,38,29,35,14,17,120,,219,170,17,21,20,17,0.5,0.6
2025-06-23T2300,3514A,117.9378,37.3956,滨州市,中海酒店,,36,31,36,17,22,115,,209,174,17,19,14,12,0.6,0.7
2025-06-23T2300,3515A,117.9378,37.3553,滨州市,开发区一中,,36,36,37,24,18,86,,205,163,34,25,13,11,0.4,0.5
2025-06-23T2300,3516A,118.0917,37.694,滨州市,金海六路,颗粒物(PM10),51,51,48,17,19,104,,221,181,42,32,12,12,0.3,0.4
2025-06-23T2300,4028A,117.9956,37.3753,滨州市,滨州市西街道办事处,,37,31,33,17,20,117,,220,183,14,13,11,8,0.2,0.3
2025-06-23T2300,2311A,115.8072,33.8399,亳州市,污水处理厂,,48,48,41,30,23,121,,169,147,14,13,3,4,0.9,0.9
2025-06-23T2300,2312A,115.7789,33.8518,亳州市,三国揽胜宫,,38,38,36,26,21,116,,164,146,9,7,2,3,0.5,0.5
2025-06-23T2300,3332A,115.7633,33.8034,亳州市,亳州学院,,39,39,37,24,20,110,,171,146,13,8,4,4,0.5,0.4
2025-06-23T2300,2693A,82.0485,44.8556,博尔塔拉蒙古自治州,市党校,,30,19,24,11,15,94,,115,109,7,8,3,3,0,0
2025-06-23T2300,2694A,82.0806,44.8969,博尔塔拉蒙古自治州,市环保局,,35,35,33,18,14,90,,113,106,4,5,3,2,0.3,0.2
2025-06-23T2300,1071A,116.8842,38.2991,沧州市,沧县城建局,"颗粒物(PM10),细颗粒物(PM2.5)",54,58,40,38,23,128,,198,173,27,23,6,7,0.6,0.4
2025-06-23T2300,1072A,116.8584,38.3254,沧州市,电视转播站,,48,41,44,27,24,152,,195,184,17,15,1,2,0.3,0.3
2025-06-23T2300,1073A,116.8709,38.3228,沧州市,市环保局,颗粒物(PM10),54,58,59,29,26,135,,198,170,21,21,2,3,0.4,0.4
2025-06-23T2300,3324A,116.8136,38.3004,沧州市,河北水利电力学院,颗粒物(PM10),51,51,49,28,22,122,,217,183,46,28,5,6,0.4,0.4
2025-06-23T2300,2622A,97.1806,31.1273,昌都市,昌都监测站,,31,,19,7,10,97,,93,89,3,8,5,5,0.2,0.3
2025-06-23T2300,3719A,97.1714,31.1406,昌都市,昌都会议中心,,35,6,20,6,11,109,,110,102,2,7,6,6,0.1,0.1
2025-06-23T2300,2690A,88.1236,43.8886,昌吉回族自治州,天山天池,,30,29,20,10,7,95,,136,125,8,6,5,6,0.6,0.6
2025-06-23T2300,2692A,87.2717,44.0297,昌吉回族自治州,新区政务中心,,29,29,27,10,9,91,,125,110,17,12,5,6,0.3,0.3
2025-06-23T2300,3613A,87.3095,44.0142,昌吉回族自治州,亚心广场,,39,31,36,27,8,84,,116,101,19,15,7,8,0.3,0.3
2025-06-23T2300,1120A,125.2863,43.9027,长春市,客车厂,,45,45,35,28,19,121,,163,152,41,34,7,7,0.5,0.5
2025-06-23T2300,1121A,125.2841,43.8463,长春市,邮电学院,,37,37,37,14,13,108,,164,146,30,27,7,8,0.5,0.5
2025-06-23T2300,1122A,125.3716,43.8772,长春市,劳动公园,颗粒物(PM10),54,58,50,26,16,80,,165,145,45,37,3,2,0.7,0.5
2025-06-23T2300,1123A,125.3297,43.8805,长春市,园林处,,48,38,37,16,15,153,,164,160,19,26,7,7,0.5,0.5
2025-06-23T2300,1124A,125.4605,43.79,长春市,净月潭,,31,23,31,6,15,97,,162,136,11,24,8,7,0.4,0.3
2025-06-23T2300,1126A,125.3863,43.8447,长春市,经开区环卫处,颗粒物(PM10),53,55,44,20,11,53,,159,136,63,32,6,7,0.5,0.3
2025-06-23T2300,1127A,125.245,43.7783,长春市,高新区管委会,,40,40,33,26,14,100,,161,136,36,33,4,5,0.3,0.3
2025-06-23T2300,1128A,125.1761,43.8325,长春市,岱山公园,颗粒物(PM10),71,91,44,21,18,76,,161,119,75,51,4,6,0.4,0.4
2025-06-23T2300,4281A,125.3346,43.9164,长春市,北亚泰大街1068号,,49,49,44,26,19,83,,156,142,48,31,5,5,0.7,0.6
2025-06-23T2300,1335A,113.0833,28.2325,长沙市,经开区环保局,,16,12,16,7,11,50,,77,70,28,16,4,4,0.4,0.4
2025-06-23T2300,1336A,112.8872,28.2189,长沙市,高开区环保局,,23,23,21,14,11,41,,81,64,21,11,3,3,0.6,0.6
2025-06-23T2300,1337A,113.0792,28.2053,长沙市,马坡岭,,16,16,19,8,12,43,,78,64,25,16,3,3,0.7,0.7
2025-06-23T2300,1338A,112.9394,28.19,长沙市,湖南师范大学,,19,17,18,8,11,58,,85,71,13,12,2,2,0.3,0.3
2025-06-23T2300,1339A,113.0178,28.1322,长沙市,雨花区环保局,,20,16,20,9,11,62,,81,74,15,13,4,4,0.7,0.6
2025-06-23T2300,1340A,112.9792,28.2597,长沙市,伍家岭,,19,12,18,11,14,58,,79,69,12,10,2,2,0.3,0.3
2025-06-23T2300,1341A,113.0014,28.1944,长沙市,火车新站,,22,16,18,7,10,70,,80,74,10,11,6,6,0.5,0.5
2025-06-23T2300,1342A,112.9844,28.1178,长沙市,天心区环保局,,,15,20,7,12,,,86,80,14,14,1,1,1.0,0.9
2025-06-23T2300,1343A,112.8908,28.1308,长沙市,湖南中医药大学,,29,22,18,20,10,38,,78,61,18,10,3,3,0.5,0.5
2025-06-23T2300,1344A,112.9581,28.3611,长沙市,沙坪,,20,11,19,3,9,62,,81,70,8,8,4,4,0.5,0.5
2025-06-23T2300,1727A,113.1147,36.1547,长治市,清华站,,45,27,31,14,14,141,,149,149,13,12,7,6,0.5,0.5
2025-06-23T2300,1730A,113.0886,36.2125,长治市,审计局,,50,29,26,14,16,157,,153,152,13,12,9,10,0.7,0.8
2025-06-23T2300,1731A,113.0844,36.1856,长治市,长治八中,,50,21,38,18,22,160,,163,163,14,14,12,11,0.7,0.8
2025-06-23T2300,2845A,113.1569,36.1911,长治市,德盛苑,,49,29,32,14,15,156,,151,151,8,8,9,9,0.6,1
2025-06-23T2300,3568A,113.06,36.0464,长治市,向阳小学,颗粒物(PM10),52,54,53,29,22,132,,163,156,19,10,11,6,0.6,0.6
2025-06-23T2300,3569A,112.8792,36.3144,长治市,屯留一中,颗粒物(PM10),51,52,45,28,24,146,,166,145,16,14,7,7,0.4,0.4
2025-06-23T2300,4189A,113.1131,36.19948,长治市,英华南巷50号,,45,36,33,12,18,144,,145,144,14,12,7,8,0.5,0.9
2025-06-23T2300,4190A,113.2367,36.3344,长治市,学府街1号,,40,38,46,15,19,125,,155,148,34,29,4,5,0.4,0.6
2025-06-23T2300,1854A,111.6975,28.9703,常德市,市二中,,,11,12,9,9,61,,100,86,8,7,,3,0.7,0.6
2025-06-23T2300,3138A,111.7153,29.0289,常德市,武陵区永安,,18,18,14,12,10,57,,108,89,10,5,5,3,0.5,0.4
2025-06-23T2300,3139A,111.6892,28.9881,常德市,鼎城区玉霞,,21,21,13,9,9,38,,107,84,23,7,5,5,0.6,0.5
2025-06-23T2300,3140A,111.6625,29.0531,常德市,武陵区长庚,,20,14,13,7,7,64,,105,92,8,5,4,2,0.5,0.4
2025-06-23T2300,1196A,119.9633,31.762,常州市,市监测站,,39,39,25,22,17,41,,104,84,50,32,7,2,1.0,0.6
2025-06-23T2300,1200A,119.9468,31.7069,常州市,武进监测站,,38,36,24,26,19,39,,91,72,33,24,8,8,1.2,1
2025-06-23T2300,1201A,119.9255,31.9087,常州市,安家,,29,19,26,8,11,91,,115,98,14,17,7,9,0.3,0.5
2025-06-23T2300,3002A,119.9805,31.8174,常州市,行政中心,,39,39,33,19,15,49,,101,78,33,22,9,10,0.5,0.5
2025-06-23T2300,3003A,120.0522,31.7748,常州市,经开区,,48,48,28,19,14,31,,103,75,46,26,7,7,0.9,0.5
2025-06-23T2300,3010A,119.9025,31.7964,常州市,钟楼,,26,26,24,13,14,50,,98,81,31,22,6,7,0.7,0.8
2025-06-23T2300,3429A,119.8598,31.7066,常州市,武进经发区,,38,38,28,20,16,18,,89,69,54,22,5,5,1.0,0.9
2025-06-23T2300,3430A,119.5826,31.7245,常州市,金坛城区,,37,37,25,17,17,64,,114,96,26,21,6,7,0.5,0.5
2025-06-23T2300,2220A,120.4318,41.5881,朝阳市,西梁,颗粒物(PM10),56,62,44,34,20,85,,175,165,41,24,12,9,0.9,0.9
2025-06-23T2300,2221A,120.4521,41.5646,朝阳市,河畔小区,,46,46,38,32,20,111,,186,178,22,17,10,8,0.7,0.5
2025-06-23T2300,2222A,120.4176,41.5648,朝阳市,八里堡,颗粒物(PM10),51,52,47,31,22,122,,190,182,26,23,9,8,0.9,0.8
2025-06-23T2300,2223A,120.3806,41.5969,朝阳市,农业园区,细颗粒物(PM2.5),59,51,42,42,25,71,,167,150,34,23,4,8,0.6,0.7
2025-06-23T2300,1705A,116.6367,23.6719,潮州市,西园路,,36,36,22,7,11,37,,69,56,10,10,3,6,0.5,0.5
2025-06-23T2300,3026A,116.6183,23.6608,潮州市,市政府,,20,20,25,7,9,34,,64,50,10,10,4,8,0.6,0.6
2025-06-23T2300,4036A,116.6461,23.6761,潮州市,金山,,30,30,24,11,12,36,,77,62,9,8,6,7,0.5,0.6
2025-06-23T2300,2472A,113.0073,25.9061,郴州市,马头岭,,32,32,29,11,9,43,,50,44,9,12,6,8,0.4,0.4
2025-06-23T2300,2473A,113.0116,25.8226,郴州市,市职中,,46,36,24,32,17,37,,52,35,10,9,4,6,0.7,0.5
2025-06-23T2300,2475A,113.0383,25.8071,郴州市,市审计局,,33,33,25,18,14,24,,55,37,11,9,2,5,0.5,0.5
2025-06-23T2300,2476A,113.0348,25.7759,郴州市,市环保局,,,,24,,15,,,69,,17,11,11,8,0.4,0.2
2025-06-23T2300,4252A,113.0138,25.8011,郴州市,好美居路49号,,33,33,26,20,16,44,,64,48,15,10,3,6,0.6,0.5
2025-06-23T2300,1431A,103.9728,30.7236,成都市,金泉两河,,,18,26,3,14,,,92,92,12,14,3,4,0.4,0.4
2025-06-23T2300,1432A,104.176,30.6872,成都市,十里店,,38,38,30,3,17,59,,94,88,26,14,4,4,0.6,0.5
2025-06-23T2300,1433A,104.079,30.5706,成都市,三瓦窑,,31,31,34,18,20,92,,102,100,20,23,4,4,0.5,0.6
2025-06-23T2300,1434A,104.1114,30.63,成都市,沙河铺,,36,36,34,20,16,58,,91,86,25,17,5,4,0.5,0.5
2025-06-23T2300,1437A,104.0786,30.6531,成都市,君平街,,,115,39,,19,,,104,,20,17,5,5,0.8,0.9
2025-06-23T2300,2880A,104.0239,30.65639,成都市,大石西路,,31,31,34,20,20,95,,94,94,16,17,5,5,0.6,0.6
2025-06-23T2300,3136A,104.2725,30.5589,成都市,龙泉驿区区政府,,27,27,19,14,10,70,,117,98,20,12,4,4,0.6,0.6
2025-06-23T2300,3357A,104.0106,30.6931,成都市,金博路,,29,,23,15,11,90,,89,89,16,18,4,4,0.7,0.7
2025-06-23T2300,3359A,104.0578,30.5225,成都市,华阳,,25,19,28,17,22,73,,89,88,25,20,8,7,0.7,0.7
2025-06-23T2300,3488A,104.3853,30.7453,成都市,青白江技师分院,颗粒物(PM10),51,51,33,24,18,33,,118,95,51,21,7,7,0.7,0.6
2025-06-23T2300,3489A,104.0789,30.4072,成都市,科学城,,28,26,29,16,21,88,,115,110,20,15,4,3,0.7,0.7
2025-06-23T2300,4011A,103.8506,30.6947,成都市,光华大道三段,,27,23,32,13,21,84,,81,81,10,13,3,4,0.1,0.1
2025-06-23T2300,4224A,104.2433,30.5353,成都市,鲸龙路1057号,,37,37,31,20,20,80,,117,99,24,18,7,7,0.7,0.7
2025-06-23T2300,1062A,117.9531,40.9081,承德市,铁路,,49,45,31,34,16,85,,146,104,11,14,2,3,0.6,0.4
2025-06-23T2300,1063A,117.9392,40.9763,承德市,中国银行,细颗粒物(PM2.5),70,,35,51,20,39,,162,94,19,14,3,4,0.5,0.4
2025-06-23T2300,1064A,117.9503,40.928,承德市,开发区,颗粒物(PM10),52,53,39,30,19,89,,150,113,18,15,4,4,0.7,0.5
2025-06-23T2300,1065A,117.8051,40.9655,承德市,文化中心,颗粒物(PM10),59,68,59,29,22,65,,169,113,37,24,2,17,0.5,1
2025-06-23T2300,1066A,117.9268,41.0026,承德市,离宫,细颗粒物(PM2.5),57,46,32,40,23,63,,168,85,18,13,3,3,0.5,0.4
2025-06-23T2300,2314A,117.47,30.6618,池州市,池州学院,,29,26,16,20,14,89,,90,84,12,10,4,4,0.7,0.7
2025-06-23T2300,3237A,117.4918,30.6617,池州市,展览馆,,32,32,19,20,11,85,,81,79,13,11,6,4,0.9,0.9
2025-06-23T2300,3333A,117.5627,30.695,池州市,第八中学,,34,34,16,23,11,86,,84,80,15,14,5,5,0.9,0.8
2025-06-23T2300,3334A,117.5038,30.6243,池州市,第十二中学,,31,24,17,20,10,98,,94,87,12,10,3,3,1.1,1
2025-06-23T2300,1744A,118.9233,42.2816,赤峰市,松山一中,颗粒物(PM10),75,100,31,54,18,2,,140,86,78,27,7,8,1.3,0.6
2025-06-23T2300,1745A,118.9576,42.2728,赤峰市,哈达街,颗粒物(PM10),54,57,27,27,14,51,,135,106,36,20,10,11,0.6,0.5
2025-06-23T2300,1746A,118.8788,42.2554,赤峰市,天义路,颗粒物(PM10),69,87,27,42,21,55,,147,103,29,19,12,10,0.5,0.5
2025-06-23T2300,3058A,119.2658,42.0353,赤峰市,银河街,颗粒物(PM10),59,67,45,39,22,40,,132,89,26,15,45,18,0.9,0.6
2025-06-23T2300,3286A,118.9359,42.3147,赤峰市,桥北物流园区,颗粒物(PM10),69,88,36,46,31,24,,132,86,70,24,11,11,0.5,0.5
2025-06-23T2300,2521A,107.3476,22.4136,崇左市,市环保局江州分局,,31,31,27,9,10,34,,66,52,16,12,6,5,0.6,0.6
2025-06-23T2300,4256A,107.3750,22.3736,崇左市,石景林东路7号,,12,12,22,6,11,29,,72,51,22,12,3,3,0.6,0.7
2025-06-23T2300,2298A,118.3093,32.3153,滁州市,老年大学,,31,31,33,16,19,79,,116,102,10,13,9,10,0.3,0.3
2025-06-23T2300,2299A,118.3244,32.2786,滁州市,人大宾馆,,28,28,27,19,25,68,,114,102,14,12,4,4,0.3,0.3
2025-06-23T2300,3207A,118.3118,32.3038,滁州市,市政府原办公楼,,40,30,31,28,28,83,,118,106,6,8,4,4,0.4,0.4
2025-06-23T2300,3331A,118.3267,32.2634,滁州市,图书馆,,28,24,27,19,21,77,,113,100,8,8,8,9,0.4,0.4
2025-06-23T2300,2605A,101.5482,25.0441,楚雄彝族自治州,州环境监测站,,9,6,9,3,6,26,,47,28,4,10,7,6,0.4,0.5
2025-06-23T2300,2606A,101.538,25.0492,楚雄彝族自治州,市经济开发区,,18,18,13,11,6,24,,46,27,4,9,6,7,0.6,0.7
2025-06-23T2300,2548A,107.5277,31.2827,达州市,达州职业技术学院,,,26,25,3,4,,,100,,34,20,5,6,0.2,0.3
2025-06-23T2300,2549A,107.5086,31.2186,达州市,市环境监测站,,31,31,23,3,3,31,,98,65,40,28,5,5,0.4,0.3
2025-06-23T2300,2550A,107.4988,31.2132,达州市,凤凰小区,,22,22,19,7,5,32,,106,81,39,20,5,4,0.3,0.2
2025-06-23T2300,2551A,107.5082,31.1986,达州市,达县机关宾馆,,34,34,17,12,6,7,,102,68,59,26,6,6,0.4,0.3
2025-06-23T2300,2552A,107.4644,31.2124,达州市,市政中心,,35,35,26,7,3,12,,100,71,56,22,3,3,0.7,0.4
2025-06-23T2300,2614A,100.1542,25.7054,大理白族自治州,大理市环境监测站,,19,,5,13,12,31,,51,,7,8,5,5,0.5,0.4
2025-06-23T2300,2615A,100.2171,25.5811,大理白族自治州,大理古城,,13,13,12,9,8,26,,60,36,8,7,9,9,0.6,0.7
2025-06-23T2300,1109A,121.612,38.9741,大连市,甘井子,,29,29,36,20,18,88,,146,113,30,26,9,8,0.5,0.5
2025-06-23T2300,1110A,121.565,38.9511,大连市,周水子,,44,44,44,25,20,92,,155,119,27,24,14,14,0.4,0.5
2025-06-23T2300,1111A,121.5637,38.8845,大连市,星海三站,,27,22,29,18,19,85,,139,118,18,13,6,6,0.3,0.2
2025-06-23T2300,1112A,121.6302,38.9117,大连市,青泥洼桥,,38,38,24,24,15,83,,156,119,25,15,8,9,0.4,0.3
2025-06-23T2300,1113A,121.6251,38.8638,大连市,傅家庄,,40,20,26,12,16,126,,134,125,15,19,11,12,0.2,0.2
2025-06-23T2300,1114A,121.5213,38.8661,大连市,七贤岭,,27,27,34,13,17,83,,163,129,21,18,8,8,0.7,0.6
2025-06-23T2300,1115A,121.2529,38.8061,大连市,旅顺,,35,17,25,16,18,109,,136,114,19,22,6,5,0.4,0.3
2025-06-23T2300,1116A,121.7485,39.1311,大连市,金州,,29,17,25,7,13,92,,162,113,20,21,8,10,0.3,0.3
2025-06-23T2300,1117A,121.7811,39.0496,大连市,开发区,,40,35,42,28,21,68,,150,100,54,36,9,8,0.5,0.5
2025-06-23T2300,1118A,121.9762,39.0631,大连市,双D港,,29,23,25,15,21,90,,130,119,21,23,8,10,0.4,0.4
2025-06-23T2300,1789A,124.81117,46.03138,大庆市,大同区,,34,34,39,11,10,86,,114,98,10,11,6,7,0.7,0.7
2025-06-23T2300,1790A,125.129,46.533,大庆市,龙凤区,,28,28,36,9,16,80,,120,97,10,14,5,6,0.3,0.3
2025-06-23T2300,1791A,124.902,46.408,大庆市,红岗区,,45,45,31,27,16,99,,125,114,10,8,8,9,0.5,0.4
2025-06-23T2300,1792A,125.153,46.586,大庆市,萨尔图区,,30,30,39,15,16,85,,107,91,13,16,9,10,0.5,0.5
2025-06-23T2300,1793A,124.9042,46.6215,大庆市,让胡路区,,35,35,27,24,21,84,,112,105,18,14,6,5,0.3,0.3
2025-06-23T2300,3481A,125.141,46.634,大庆市,萨区政府监测点,,37,37,36,14,10,102,,124,110,9,13,8,7,0.3,0.3
2025-06-23T2300,1723A,113.2994,40.0758,大同市,云冈宾馆,,37,36,40,22,16,117,,144,133,16,20,6,7,0.5,0.9
2025-06-23T2300,1724A,113.3444,40.0917,大同市,大同大学,,43,43,30,22,15,72,,155,132,31,20,6,13,0.4,0.4
2025-06-23T2300,1725A,113.2661,40.1269,大同市,安家小村,,46,46,43,22,18,99,,152,123,18,20,4,5,0.4,0.7
2025-06-23T2300,1726A,113.2711,40.0844,大同市,教育学院,,41,41,43,17,21,125,,152,136,16,26,8,10,0.3,0.9
2025-06-23T2300,3282A,113.3397,40.0597,大同市,大同市卫生学校,颗粒物(PM10),52,53,35,25,17,94,,144,125,29,20,7,7,0.5,0.5
2025-06-23T2300,3565A,113.1367,40.1122,大同市,云冈站,颗粒物(PM10),52,54,62,24,22,33,,155,118,48,28,8,6,0.4,0.5
2025-06-23T2300,3566A,113.1186,40.2556,大同市,图书馆,,39,39,30,18,17,54,,153,115,10,10,6,8,0.6,0.6
2025-06-23T2300,3567A,113.5931,40.0461,大同市,区一中,,30,,26,21,14,71,,145,115,10,9,11,11,0.4,0.3
2025-06-23T2300,4199A,113.2798,40.0997,大同市,魏都大道141号,,36,36,48,12,19,103,,154,134,22,22,7,9,0.5,1.3
2025-06-23T2300,2269A,124.1069,50.4097,大兴安岭地区,科技局,颗粒物(PM10),52,53,37,15,15,37,,87,70,9,5,8,6,0.5,0.5
2025-06-23T2300,3663A,124.1164,50.4278,大兴安岭地区,红旗社区,,28,19,17,19,15,21,,93,71,13,7,5,5,0.4,0.3
2025-06-23T2300,1600A,124.3303,40.0625,丹东市,江湾东路,,40,40,38,27,23,76,,149,126,25,19,8,13,0.8,0.8
2025-06-23T2300,1601A,124.4256,40.1503,丹东市,临江后街,颗粒物(PM10),101,152,82,33,18,85,,146,137,26,16,9,9,1.0,0.8
2025-06-23T2300,1602A,124.3933,40.1461,丹东市,元宝山,颗粒物(PM10),65,79,44,28,20,116,,136,135,16,15,9,9,1.0,0.8
2025-06-23T2300,1603A,124.3633,40.1092,丹东市,民主桥,,48,45,43,33,22,47,,147,121,43,20,8,10,0.8,0.7
2025-06-23T2300,3541A,109.5726,19.5167,儋州市,第一中学子站,,14,14,13,8,7,36,,47,46,4,5,8,7,0.5,0.5
2025-06-23T2300,2616A,98.5842,24.428,德宏傣族景颇族自治州,德宏州监测站,,18,18,17,10,7,19,,40,33,12,9,7,10,0.8,0.7
2025-06-23T2300,3677A,98.5881,24.4368,德宏傣族景颇族自治州,芒市人民政府综合楼,,26,26,24,9,6,8,,38,26,7,6,7,8,0.5,0.5
2025-06-23T2300,1901A,104.4239,31.1208,德阳市,东山公园,,28,28,19,17,15,85,,105,90,14,10,10,9,0.7,0.7
2025-06-23T2300,1904A,104.3553,31.1091,德阳市,耐火材料厂,,31,31,27,18,16,73,,100,84,19,15,8,9,0.5,0.5
2025-06-23T2300,3639A,104.4019,31.1244,德阳市,市教育局,,30,30,24,16,14,87,,108,93,12,9,8,8,0.6,0.6
2025-06-23T2300,1622A,116.3032,37.4674,德州市,儿童乐园,,50,48,54,22,23,158,,219,201,16,16,9,10,0.4,0.4
2025-06-23T2300,1624A,116.2991,37.4451,德州市,监理站,,48,44,49,19,23,153,,221,198,25,22,10,11,0.3,0.4
2025-06-23T2300,3066A,116.2721,37.4379,德州市,九衢泉纯净水厂,颗粒物(PM10),52,53,54,24,25,102,,202,160,57,39,7,8,0.6,0.6
2025-06-23T2300,3371A,116.3728,37.4403,德州市,开发区人民医院,颗粒物(PM10),51,51,52,19,22,142,,211,190,29,24,10,11,0.6,0.6
2025-06-23T2300,3511A,116.5652,37.3319,德州市,陵城艺术中心,,44,44,49,12,19,139,,210,192,19,20,12,9,0.7,0.5
2025-06-23T2300,2621A,99.7056,27.8317,迪庆藏族自治州,迪庆州站,,19,12,15,9,12,59,,95,79,10,7,7,7,0.4,0.4
2025-06-23T2300,3180A,99.7136,27.8094,迪庆藏族自治州,质量技术监督局,,20,13,17,3,7,61,,92,78,7,9,6,7,0.5,0.5
2025-06-23T2300,4257A,104.6092,35.5962,定西市,将台街,,38,38,27,12,14,94,,116,110,14,8,5,4,0.1,0.1
2025-06-23T2300,4309A,104.6159,35.5701,定西市,正龙路62号,,38,29,23,26,15,92,,116,110,8,4,4,4,0.2,0.2
2025-06-23T2300,1389A,113.7547,23.0494,东莞市,莞城梨川,,12,11,13,6,8,38,,100,66,9,9,5,6,0.4,0.4
2025-06-23T2300,1390A,113.7944,23.0128,东莞市,东城石井,,11,11,15,3,6,29,,87,58,12,12,2,2,0.4,0.4
2025-06-23T2300,1391A,113.7383,22.9658,东莞市,南城西平,,13,11,12,3,7,40,,87,61,11,11,2,3,0.5,0.6
2025-06-23T2300,3319A,113.7338,23.0381,东莞市,万江金泰,,13,13,16,3,7,28,,88,54,11,11,2,2,0.7,0.7
2025-06-23T2300,3626A,113.7533,23.0202,东莞市,南城元岭,,11,8,13,3,6,35,,90,64,12,12,3,5,0.2,0.5
2025-06-23T2300,3627A,113.7875,23.0457,东莞市,东城主山,,16,16,19,6,6,32,,96,64,11,9,6,6,0.5,0.5
2025-06-23T2300,1666A,118.6614,37.4309,东营市,市环保局,,39,39,46,12,22,88,,219,143,34,27,6,9,0.4,0.5
2025-06-23T2300,3036A,118.6904,37.4338,东营市,开发区管委会,颗粒物(PM10),66,82,54,3,20,98,,216,157,31,26,7,8,0.4,0.5
2025-06-23T2300,3365A,118.5719,37.565,东营市,垦利区民丰路,,36,36,46,12,21,100,,218,158,31,22,8,8,0.7,0.8
2025-06-23T2300,3498A,118.5055,37.8612,东营市,河口城区,,,41,47,3,19,70,,199,166,46,25,,8,0.7,0.7
2025-06-23T2300,3646A,118.4978,37.4623,东营市,胜利站,,32,32,48,9,20,98,,208,152,32,31,9,10,0.6,0.8
2025-06-23T2300,3734A,118.35,37.26,东营市,理想之城,,39,39,47,19,25,85,,232,141,46,28,5,8,0.5,0.7
2025-06-23T2300,1591A,110.0023,39.8129,鄂尔多斯市,综合楼,,44,17,33,14,15,140,,163,148,20,18,4,4,0.7,0.6
2025-06-23T2300,1592A,109.9486,39.8261,鄂尔多斯市,巴音孟克林场办事处,,43,29,44,12,17,136,,172,151,25,19,8,8,0.8,0.7
2025-06-23T2300,1593A,109.7736,39.5986,鄂尔多斯市,康泽苑,,36,36,49,12,15,115,,179,161,27,12,8,8,0.4,0.4
2025-06-23T2300,1594A,109.8119,39.5989,鄂尔多斯市,华泰汽车城,颗粒物(PM10),53,56,51,22,16,52,,154,130,61,17,5,6,0.7,0.5
2025-06-23T2300,1595A,109.9734,39.7884,鄂尔多斯市,奥林花园,,39,27,43,12,18,123,,174,150,20,29,7,7,0.4,0.5
2025-06-23T2300,2436A,114.8938,30.3994,鄂州市,市政府,,34,34,25,8,11,59,,72,66,18,6,4,5,0.8,0.8
2025-06-23T2300,2437A,114.8989,30.3714,鄂州市,赵家坝,,22,17,19,3,5,70,,81,75,8,8,8,8,0.5,0.5
2025-06-23T2300,3654A,114.8094,30.4089,鄂州市,精准医疗中心,,16,10,16,3,3,49,,85,68,19,9,3,3,0.5,0.5
2025-06-23T2300,2454A,109.4978,30.2981,恩施土家族苗族自治州,湖北民院,,24,24,18,13,8,31,,115,88,15,4,5,4,0.5,0.4
2025-06-23T2300,2455A,109.4707,30.2798,恩施土家族苗族自治州,州电力总公司,,26,24,16,18,10,31,,91,68,12,5,7,6,0.4,0.3
2025-06-23T2300,3549A,109.5061,30.3772,恩施土家族苗族自治州,龙凤新区,,28,26,17,19,11,13,,100,67,6,3,4,4,0.5,0.4
2025-06-23T2300,2499A,108.3411,21.6158,防城港市,沙万,,19,19,20,9,8,42,,46,44,12,7,1,2,0.4,0.4
2025-06-23T2300,2500A,108.3514,21.7731,防城港市,防城档案局,,14,14,19,6,8,36,,50,45,8,6,2,2,0.4,0.4
2025-06-23T2300,2501A,108.3506,21.6414,防城港市,大海花园,,15,8,21,3,9,47,,52,50,6,4,2,2,0.4,0.4
2025-06-23T2300,1371A,113.1294,23.0067,佛山市,湾梁,,12,12,16,6,7,28,,80,59,14,16,8,8,0.4,0.4
2025-06-23T2300,1372A,113.1083,23.0478,佛山市,华材职中,,16,14,12,11,8,30,,89,69,9,7,6,6,0.4,0.4
2025-06-23T2300,1373A,113.144,23.0453,佛山市,南海气象局,,13,,15,9,8,25,,82,58,11,11,3,3,0.6,0.5
2025-06-23T2300,1374A,113.2881,22.8094,佛山市,顺德苏岗,,,21,18,7,4,,,67,,,10,,7,,0.4
2025-06-23T2300,1376A,112.8383,22.8678,佛山市,高明孔堂,,,22,14,13,8,,,57,54,8,5,5,6,0.6,0.6
2025-06-23T2300,1377A,112.8836,23.1588,佛山市,三水监测站,,17,17,21,3,11,16,,59,40,23,26,3,4,0.5,0.5
2025-06-23T2300,1378A,112.867,23.185,佛山市,三水云东海,,32,32,32,10,10,21,,84,60,26,18,2,2,0.4,0.5
2025-06-23T2300,3625A,113.2544,22.7642,佛山市,容桂街道办,,9,7,9,3,4,28,,62,45,14,14,6,6,0.6,0.6
2025-06-23T2300,1282A,119.2681,26.0504,福州市,师大,,26,26,31,15,11,50,,103,59,14,13,4,4,0.3,0.3
2025-06-23T2300,1283A,119.2984,26.1028,福州市,五四北路,,31,31,31,19,16,32,,120,82,24,17,4,4,0.3,0.3
2025-06-23T2300,1284A,119.2648,26.0768,福州市,杨桥西路,,24,24,28,11,15,39,,100,53,14,13,3,3,0.3,0.3
2025-06-23T2300,1285A,119.317,26.0746,福州市,紫阳,,34,34,37,14,15,49,,109,78,20,20,4,4,0.3,0.3
2025-06-23T2300,3048A,119.5799,26.0936,福州市,九龙,,31,31,32,16,17,60,,139,116,14,14,5,4,0.3,0.3
2025-06-23T2300,3526A,119.5189,25.9664,福州市,吴航,,30,30,32,14,17,54,,136,102,10,11,5,5,0.4,0.4
2025-06-23T2300,1755A,123.7977,41.8491,抚顺市,望花区,颗粒物(PM10),53,56,64,29,24,79,,202,160,49,35,31,13,0.8,0.9
2025-06-23T2300,1756A,123.9161,41.8822,抚顺市,顺城区,颗粒物(PM10),65,79,46,33,20,9,,196,122,104,40,8,9,0.8,0.8
2025-06-23T2300,1757A,124.0436,41.8611,抚顺市,东洲区,,33,33,30,20,16,99,,186,151,13,14,16,10,0.4,0.2
2025-06-23T2300,1758A,123.9247,41.8642,抚顺市,新抚区,颗粒物(PM10),61,71,47,25,21,24,,191,127,62,31,6,8,0.8,0.7
2025-06-23T2300,1759A,124.0972,41.8961,抚顺市,大伙房水库,,28,20,24,17,17,87,,175,145,14,16,7,9,0.4,0.5
2025-06-23T2300,1760A,123.7086,41.8391,抚顺市,沈抚新城,颗粒物(PM10),63,76,53,24,26,86,,201,153,51,39,17,10,0.7,1.1
2025-06-23T2300,2376A,116.2127,28.0814,抚州市,桐源党溪,,16,12,22,11,10,36,,55,41,3,3,4,4,0.5,0.6
2025-06-23T2300,2377A,116.3544,27.9831,抚州市,市站,,16,16,18,7,8,32,,60,50,4,5,1,2,1.1,1.1
2025-06-23T2300,2378A,116.3565,27.963,抚州市,血防站,,17,17,20,8,10,32,,59,50,8,6,3,3,0.5,0.6
2025-06-23T2300,2379A,116.3564,28.0007,抚州市,采茶剧团,,14,14,17,3,7,36,,58,50,2,2,3,3,0.3,0.5
2025-06-23T2300,2380A,116.385,27.9647,抚州市,医学分院,,22,22,19,3,7,28,,61,51,8,2,4,4,0.9,1
2025-06-23T2300,2207A,121.6094,41.998,阜新市,工业园区,细颗粒物(PM2.5),54,52,48,38,27,137,,198,170,28,30,16,14,0.6,0.6
2025-06-23T2300,2208A,121.6697,42.0279,阜新市,长青街,细颗粒物(PM2.5),52,48,45,36,24,146,,182,168,20,25,19,18,0.7,0.7
2025-06-23T2300,2209A,121.6673,42.0705,阜新市,农业园区,臭氧1小时,72,46,38,27,19,177,,190,181,15,18,13,23,0.8,0.7
2025-06-23T2300,2210A,121.6717,42.0224,阜新市,东苑,细颗粒物(PM2.5),54,51,58,38,25,150,,189,173,24,29,20,23,0.7,0.8
2025-06-23T2300,2211A,121.6506,42.0498,阜新市,玉龙新城,颗粒物(PM10),57,63,48,34,20,50,,174,135,52,30,7,12,0.7,0.8
2025-06-23T2300,2301A,115.8277,32.8929,阜阳市,市监测站,,33,33,43,16,29,104,,143,129,16,16,3,3,0.3,0.4
2025-06-23T2300,2303A,115.8554,32.8605,阜阳市,开发区,颗粒物(PM10),55,59,48,12,21,93,,143,127,20,17,6,6,0.2,0.2
2025-06-23T2300,2875A,115.784,32.8892,阜阳市,阜阳职业技术学院,,33,21,31,14,18,105,,145,134,22,13,4,4,0.2,0.3
2025-06-23T2300,3468A,115.7901,32.8613,阜阳市,市规划展馆,,35,27,41,12,25,112,,140,126,11,12,3,3,0.3,0.4
2025-06-23T2300,3469A,115.836,32.9183,阜阳市,枣园社区,,46,46,57,13,30,80,,138,127,30,19,5,5,0.4,0.4
2025-06-23T2300,2669A,102.9099,34.9841,甘南藏族自治州,州政府,,31,,30,15,18,99,,110,107,11,20,4,5,0.2,0.3
2025-06-23T2300,3380A,102.8914,34.9617,甘南藏族自治州,甘肃民族师范学院,,26,16,39,3,11,83,,117,110,13,14,8,8,0.3,0.4
2025-06-23T2300,2570A,101.9603,30.0475,甘孜藏族自治州,水桥子,,24,,21,3,12,75,,106,88,12,19,5,5,0.3,0.3
2025-06-23T2300,3065A,101.9533,29.9972,甘孜藏族自治州,州环保局,,25,,24,8,8,78,,108,92,15,16,2,2,0.5,0.4
2025-06-23T2300,3414A,115.8347,28.932,赣江新区,桑海产业园,,24,6,3,3,1,75,,89,87,10,8,6,5,0.5,0.3
2025-06-23T2300,2363A,114.9367,25.8664,赣州市,地委,,22,22,16,11,10,44,,66,57,9,9,1,3,0.6,0.7
2025-06-23T2300,2364A,114.9461,25.8481,赣州市,气象台,,29,29,17,8,5,38,,65,52,9,5,9,8,0.3,0.3
2025-06-23T2300,2365A,114.9322,25.8333,赣州市,市图书馆,,20,16,13,14,8,33,,63,50,11,7,5,4,0.5,0.5
2025-06-23T2300,2366A,114.8905,25.8471,赣州市,华坚鞋城,,25,24,21,17,8,37,,69,56,16,8,6,4,0.4,0.3
2025-06-23T2300,3109A,115.0093,25.8613,赣州市,赣县区卫计委,,18,12,14,12,7,41,,58,47,8,8,3,2,0.2,0.2
2025-06-23T2300,2683A,106.2319,36.1417,固原市,马园,,33,24,22,23,9,88,,123,111,43,21,36,16,0.7,0.7
2025-06-23T2300,2684A,106.2792,36.0022,固原市,监测站,,39,,17,27,17,118,,130,130,13,6,14,9,0.2,0.2
2025-06-23T2300,2685A,106.2375,36.0211,固原市,新区,,37,20,17,13,11,118,,129,126,11,7,4,3,0.4,0.4
2025-06-23T2300,3522A,106.2177,35.9959,固原市,原州区十五小,,36,22,20,14,13,114,,125,124,11,8,10,9,0.3,0.3
2025-06-23T2300,2544A,106.6303,30.4576,广安市,市委,,24,,12,15,10,75,,116,99,17,13,4,2,0.5,0.4
2025-06-23T2300,2545A,106.6271,30.4663,广安市,友谊中学,,28,23,15,13,8,87,,128,109,18,13,6,6,0.7,0.6
2025-06-23T2300,2547A,106.6388,30.4551,广安市,广电花园,,23,14,15,13,11,72,,121,101,17,11,10,8,0.5,0.4
2025-06-23T2300,2902A,106.6351,30.4865,广安市,北辰小学,,27,19,16,13,9,84,,120,105,12,9,7,7,0.6,0.6
2025-06-23T2300,2523A,105.8945,32.4535,广元市,黑石坡,,34,34,27,17,12,60,,124,100,18,8,14,10,0.5,0.4
2025-06-23T2300,2524A,105.821,32.4444,广元市,老城,,26,26,20,11,9,33,,132,95,46,18,2,6,0.8,0.9
2025-06-23T2300,2526A,105.8628,32.4287,广元市,监测站,,32,,17,22,12,56,,131,103,21,15,8,9,0.5,0.5
2025-06-23T2300,3617A,105.8047,32.4166,广元市,经开区,,26,26,28,18,16,72,,132,107,16,17,4,10,0.5,0.6
2025-06-23T2300,1345A,113.2347,23.1423,广州市,广雅中学,,19,19,20,7,8,30,,104,76,16,15,3,3,0.5,0.5
2025-06-23T2300,1346A,113.2612,23.105,广州市,市五中,,16,16,20,7,9,26,,99,69,17,15,5,4,0.5,0.4
2025-06-23T2300,1348A,113.3478,23.0916,广州市,广东商学院,,,21,20,16,12,,,94,,26,21,4,3,0.6,0.6
2025-06-23T2300,1349A,113.4332,23.1047,广州市,市八十六中,,21,17,18,3,7,7,,87,39,42,27,3,3,0.6,0.6
2025-06-23T2300,1350A,113.3505,22.9483,广州市,番禺中学,,17,17,17,8,8,29,,86,59,16,14,8,7,0.5,0.5
2025-06-23T2300,1351A,113.2146,23.3916,广州市,花都师范,,32,32,20,12,7,24,,118,91,33,19,4,4,0.5,0.2
2025-06-23T2300,1352A,113.2597,23.1331,广州市,市监测站,,14,14,17,8,8,27,,100,71,9,8,6,5,0.3,0.3
2025-06-23T2300,1353A,113.5618,23.312,广州市,九龙镇镇龙,,26,26,21,8,9,15,,102,72,34,21,7,6,0.4,0.4
2025-06-23T2300,1354A,113.2765,23.1544,广州市,麓湖,,15,15,17,6,6,29,,93,66,12,13,3,2,0.5,0.7
2025-06-23T2300,1355A,113.443,23.3035,广州市,帽峰山森林公园,,25,25,14,8,7,28,,114,85,32,17,9,7,0.5,0.4
2025-06-23T2300,2846A,113.3221,23.1322,广州市,体育西,,26,26,21,13,10,24,,101,67,28,21,5,5,0.4,0.4
2025-06-23T2300,3298A,113.5717,23.5491,广州市,从化街口,,21,21,21,7,10,35,,138,111,28,17,9,8,0.7,0.6
2025-06-23T2300,3299A,113.3472,23.3692,广州市,白云竹料,,20,20,22,7,10,25,,106,77,28,20,3,3,0.6,0.7
2025-06-23T2300,3300A,113.2981,23.237,广州市,白云嘉禾,,29,29,23,13,10,22,,108,73,30,21,5,5,1.0,0.9
2025-06-23T2300,3301A,113.4256,23.1716,广州市,黄埔科学城,,21,21,20,7,8,12,,83,51,28,17,3,4,0.6,0.5
2025-06-23T2300,3302A,113.3942,23.0483,广州市,番禺大学城,,25,25,15,7,7,23,,89,56,30,20,6,5,0.7,0.6
2025-06-23T2300,3303A,113.4922,22.8168,广州市,南沙黄阁,,18,18,19,3,6,19,,74,46,20,10,5,4,0.5,0.5
2025-06-23T2300,3304A,113.5342,22.7896,广州市,南沙街,,25,25,17,7,7,21,,69,44,18,12,3,3,0.5,0.5
2025-06-23T2300,3443A,113.2902,23.5544,广州市,花都梯面,,24,24,21,9,10,38,,108,92,27,18,5,5,0.7,0.6
2025-06-23T2300,3445A,113.7858,23.7478,广州市,从化良口,,20,18,19,9,10,61,,125,114,18,10,6,6,0.6,0.6
2025-06-23T2300,3446A,113.8051,23.2614,广州市,增城荔城,,16,16,21,6,10,30,,116,82,17,13,6,6,0.3,0.4
2025-06-23T2300,2506A,109.6047,23.0666,贵港市,江南子站,,19,19,30,13,15,33,,83,64,11,11,5,6,0.6,0.5
2025-06-23T2300,2508A,109.5669,23.1065,贵港市,荷城子站,,22,22,29,9,9,38,,72,59,11,14,5,6,0.2,0.3
2025-06-23T2300,3405A,109.5886,23.1172,贵港市,新世纪学校,,17,17,24,8,13,44,,80,63,10,14,6,5,0.3,0.4
2025-06-23T2300,4260A,109.5933,23.0951,贵港市,中山路155-3号,,22,21,35,15,18,45,,92,74,13,14,4,4,0.4,0.5
2025-06-23T2300,1439A,106.6899,26.5998,贵阳市,马鞍山,,14,14,23,3,7,29,,49,42,11,12,4,4,0.5,0.5
2025-06-23T2300,1441A,106.6243,26.6266,贵阳市,鉴湖路,,31,31,27,3,11,41,,76,63,12,13,7,7,0.4,0.4
2025-06-23T2300,1442A,106.7487,26.6343,贵阳市,燕子冲,,20,17,25,14,24,47,,82,66,8,13,4,4,0.1,0.2
2025-06-23T2300,1443A,106.6555,26.4365,贵阳市,碧云窝,,19,19,28,7,14,54,,97,83,10,12,4,5,0.4,0.5
2025-06-23T2300,1445A,106.7109,26.6027,贵阳市,红边门,,14,14,27,9,17,42,,84,66,5,12,4,4,0.3,0.4
2025-06-23T2300,1446A,106.7164,26.5699,贵阳市,新华路,,18,12,21,12,24,49,,82,68,15,18,3,5,0.4,0.6
2025-06-23T2300,1447A,106.674,26.5424,贵阳市,太慈桥,,14,9,26,3,16,43,,78,62,18,21,5,6,0.4,0.5
2025-06-23T2300,4230A,106.6882,26.5695,贵阳市,花果园大街66号,,19,19,30,13,26,44,,83,71,16,16,3,4,0.1,0.4
2025-06-23T2300,4231A,106.6873,26.5169,贵阳市,漓江路57号,,14,9,29,3,16,43,,90,70,17,19,6,6,0.3,0.4
2025-06-23T2300,1864A,110.3089,25.2708,桂林市,龙隐路小学,,30,30,25,16,10,24,,60,47,12,8,10,12,0.6,0.5
2025-06-23T2300,1865A,110.2869,25.2178,桂林市,八中,,33,33,23,14,8,23,,67,54,20,10,11,9,0.5,0.4
2025-06-23T2300,3531A,110.296,25.1253,桂林市,旅游学院,,20,14,12,14,8,28,,62,53,14,7,1,3,0.3,0.3
2025-06-23T2300,4222A,110.1835,25.2444,桂林市,环湖路276号,,32,27,21,22,13,25,,59,46,14,9,19,14,0.5,0.5
2025-06-23T2300,4301A,110.2803,25.2773,桂林市,信义路13号,,29,23,21,20,14,21,,62,49,16,9,3,3,0.6,0.5
2025-06-23T2300,2674A,100.2561,34.4714,果洛藏族自治州,玛沁县大武镇,,30,11,21,9,16,96,,111,107,1,5,20,20,0.4,0.5
2025-06-23T2300,1129A,126.5422,45.755,哈尔滨市,岭北,,43,25,23,15,14,136,,136,131,21,27,8,8,0.8,0.8
2025-06-23T2300,1130A,126.561,45.8167,哈尔滨市,松北商大,,31,31,27,11,11,70,,124,99,46,31,5,5,0.5,0.5
2025-06-23T2300,1131A,126.979,45.5419,哈尔滨市,阿城会宁,,36,36,34,18,16,40,,140,107,67,44,7,10,0.4,0.4
2025-06-23T2300,1132A,126.599,45.7222,哈尔滨市,南岗学府路,,37,36,44,10,16,118,,129,112,24,36,7,7,0.5,0.5
2025-06-23T2300,1133A,126.689,45.7733,哈尔滨市,太平宏伟公园,,,,49,5,19,119,,127,115,26,43,7,6,0.5,0.4
2025-06-23T2300,1134A,126.635,45.7667,哈尔滨市,道外承德广场,颗粒物(PM10),53,55,44,13,16,100,,127,105,36,41,8,8,0.5,0.5
2025-06-23T2300,1135A,126.685,45.7319,哈尔滨市,香坊红旗大街,,39,39,38,15,17,101,,132,106,40,46,7,11,0.6,0.5
2025-06-23T2300,1136A,126.6411,45.7258,哈尔滨市,动力和平路,,35,31,31,10,10,111,,134,116,33,41,14,11,0.3,0.4
2025-06-23T2300,1137A,126.593,45.7478,哈尔滨市,道里建国路,,30,22,31,9,18,94,,131,107,39,40,13,17,0.5,0.5
2025-06-23T2300,1138A,126.615,45.61,哈尔滨市,平房东轻厂,,31,15,29,6,12,69,,134,100,61,47,10,10,0.3,0.3
2025-06-23T2300,1139A,126.595,45.9855,哈尔滨市,呼兰师专,,28,25,33,3,12,87,,134,112,33,25,9,8,0.4,0.3
2025-06-23T2300,1140A,126.6206,45.6842,哈尔滨市,省农科院,颗粒物(PM10),53,55,68,16,22,68,,105,80,58,52,11,11,0.6,0.6
2025-06-23T2300,2688A,93.5128,42.8172,哈密市,地区监测站,,37,18,30,3,13,118,,129,122,9,8,16,18,0.1,0.1
2025-06-23T2300,2689A,93.4961,42.8328,哈密市,哈密师范学校,,37,31,28,11,10,117,,126,112,9,12,4,6,0.0,0.1
2025-06-23T2300,2671A,100.9048,36.9639,海北藏族自治州,海晏县西海镇,,39,12,19,7,17,122,,135,132,6,6,10,9,0.4,0.4
2025-06-23T2300,3867A,102.0738,36.5056,海东市,平安区公安北苑,,34,20,25,6,11,108,,124,111,5,8,8,12,0.5,0.6
2025-06-23T2300,1409A,110.576,19.9507,海口市,东寨港,,14,14,9,6,7,36,,45,41,3,3,11,12,0.3,0.3
2025-06-23T2300,1410A,110.3232,20.0574,海口市,海南大学,,20,20,14,9,6,40,,60,48,4,4,2,3,0.4,0.3
2025-06-23T2300,1411A,110.283,20.0053,海口市,秀英海南医院,,25,25,16,9,6,36,,59,39,6,9,5,5,0.3,0.3
2025-06-23T2300,1412A,110.338,19.9969,海口市,海南师范大学,,20,20,15,9,8,35,,60,46,6,5,4,4,0.3,0.2
2025-06-23T2300,1413A,110.33,20.0356,海口市,龙华路环保局宿舍,,24,24,15,9,8,38,,59,46,5,5,4,5,0.3,0.2
2025-06-23T2300,3539A,110.5111,19.9736,海口市,桂林洋子站,,18,18,15,7,7,36,,48,42,4,6,5,4,0.2,0.2
2025-06-23T2300,2673A,100.6188,36.2866,海南藏族自治州,共和县恰卜恰镇,,,20,29,10,13,,,138,,4,13,13,13,0.5,0.6
2025-06-23T2300,1048A,114.5302,36.6116,邯郸市,东污水处理厂,颗粒物(PM10),55,60,55,7,8,111,,183,159,44,28,5,8,0.4,0.6
2025-06-23T2300,1049A,114.4918,36.5713,邯郸市,矿院,,42,42,41,14,14,126,,197,175,34,25,8,8,0.4,0.5
2025-06-23T2300,1050A,114.484,36.6133,邯郸市,丛台公园,,44,27,41,16,17,139,,184,170,23,20,8,10,0.4,0.5
2025-06-23T2300,3458A,114.7895,36.5593,邯郸市,香泉濮院小区,颗粒物(PM10),52,53,58,9,9,132,,176,158,14,14,7,8,0.5,0.6
2025-06-23T2300,3579A,114.50634,36.77178,邯郸市,永年区实验高中,颗粒物(PM10),57,63,61,29,26,125,,187,166,24,25,5,11,0.6,0.9
2025-06-23T2300,3580A,114.20016,36.44293,邯郸市,峰峰矿区临水派出所,臭氧1小时,72,28,30,9,7,177,,182,179,11,12,6,8,0.3,0.3
2025-06-23T2300,2634A,106.9893,33.1842,汉中市,汉川机床厂子校,,44,18,18,7,11,139,,157,148,5,9,3,3,0.5,0.5
2025-06-23T2300,2635A,107.0154,33.0706,汉中市,市监测站,,33,23,26,14,17,104,,144,133,14,11,6,9,0.5,0.6
2025-06-23T2300,2636A,107.0089,33.1138,汉中市,鑫源开发区,,34,26,25,15,14,106,,151,134,13,13,6,7,0.5,0.5
2025-06-23T2300,2637A,107.007,33.0323,汉中市,南郑大河坎水厂,,30,30,23,16,13,87,,143,127,15,11,4,5,0.5,0.5
2025-06-23T2300,1223A,120.2072,30.2111,杭州市,滨江,,42,42,16,24,10,71,,98,95,26,22,6,7,0.5,0.8
2025-06-23T2300,1224A,120.0633,30.2747,杭州市,西溪,,,35,13,34,12,,,84,84,12,11,3,4,0.4,0.4
2025-06-23T2300,1226A,120.3417,30.3150,杭州市,下沙,,46,,14,32,14,50,,104,87,42,22,4,4,0.4,0.4
2025-06-23T2300,1227A,120.1269,30.2456,杭州市,卧龙桥,,35,31,17,24,10,46,,86,80,11,10,6,7,0.8,0.8
2025-06-23T2300,1228A,120.1903,30.2692,杭州市,浙江农大,细颗粒物(PM2.5),57,60,18,40,13,59,,76,73,16,19,9,10,0.7,0.7
2025-06-23T2300,1230A,120.1197,30.3119,杭州市,和睦小学,,28,28,12,14,9,70,,96,91,16,12,8,8,0.4,0.4
2025-06-23T2300,1231A,120.3019,30.4183,杭州市,临平镇,,46,46,17,18,8,64,,111,97,23,14,5,5,0.5,0.5
2025-06-23T2300,1232A,120.2753,30.1839,杭州市,城厢镇,细颗粒物(PM2.5),59,,15,42,14,66,,96,89,25,16,7,6,0.8,0.8
2025-06-23T2300,1233A,120.0883,30.1808,杭州市,云栖,,25,25,11,9,5,71,,87,85,6,7,7,6,0.6,0.6
2025-06-23T2300,3557A,119.9464,30.0494,杭州市,镇二中,,30,20,9,17,8,94,,86,86,10,18,3,3,0.6,0.6
2025-06-23T2300,3558A,119.7183,30.2367,杭州市,市府大楼,,29,,8,13,9,92,,94,94,9,11,6,6,0.5,0.5
2025-06-23T2300,3656A,120.1556,30.2864,杭州市,消防大队,,48,,12,33,10,71,,93,88,20,17,5,5,0.7,0.7
2025-06-23T2300,1270A,117.1959,31.7848,合肥市,明珠广场,,39,39,29,19,22,24,,103,83,48,23,4,4,0.7,0.6
2025-06-23T2300,1271A,117.3072,31.8764,合肥市,三里街,,36,36,26,22,18,61,,90,81,32,17,6,6,0.7,0.6
2025-06-23T2300,1272A,117.2588,31.8707,合肥市,琥珀山庄,,31,31,27,19,24,68,,97,85,26,15,7,6,0.7,0.7
2025-06-23T2300,1273A,117.1604,31.9052,合肥市,董铺水库,,44,44,27,27,16,52,,100,79,26,12,4,4,0.5,0.4
2025-06-23T2300,1274A,117.25,31.8571,合肥市,长江中路,,39,39,32,20,23,80,,106,96,21,13,6,6,0.7,0.7
2025-06-23T2300,1275A,117.266,31.9436,合肥市,庐阳区,,41,41,28,27,17,65,,104,87,26,14,8,8,0.7,0.7
2025-06-23T2300,1277A,117.3027,31.7964,合肥市,包河区,,34,34,30,22,22,46,,78,60,38,46,4,5,0.7,0.8
2025-06-23T2300,1278A,117.2776,31.7385,合肥市,滨湖新区,,32,29,28,22,24,70,,102,89,33,20,9,9,0.6,0.7
2025-06-23T2300,1279A,117.1318,31.8403,合肥市,高新区,,36,36,28,22,19,61,,94,75,21,20,7,7,0.6,0.6
2025-06-23T2300,3464A,117.3803,31.9147,合肥市,高教基地,,39,39,29,24,21,33,,82,60,19,12,7,7,0.7,0.6
2025-06-23T2300,3614A,79.924,37.0877,和田地区,地区环保局,颗粒物(PM10),328,442,527,132,123,,,116,113,22,7,1,1,0.7,0.5
2025-06-23T2300,3615A,79.9131,37.113,和田地区,市环保局,颗粒物(PM10),280,406,471,120,142,62,,114,104,26,8,1,2,0.3,0.3
2025-06-23T2300,2517A,108.0497,24.6947,河池市,市环保站,,29,29,24,14,9,6,,42,28,12,7,3,4,0.6,0.6
2025-06-23T2300,2518A,108.0983,24.6989,河池市,市疾控中心,,36,36,24,14,12,5,,48,32,18,12,3,3,0.7,0.6
2025-06-23T2300,1696A,114.6778,23.7569,河源市,源西,,20,,23,14,15,64,,103,94,22,16,4,4,0.5,0.5
2025-06-23T2300,1697A,114.6944,23.7586,河源市,东埔,,19,13,22,10,11,58,,103,91,15,14,4,4,0.4,0.4
2025-06-23T2300,1698A,114.6892,23.7233,河源市,老城,,25,20,25,17,15,47,,101,92,16,11,4,4,0.4,0.2
2025-06-23T2300,1718A,115.4208,35.2464,菏泽市,气象局,颗粒物(PM10),58,65,52,24,25,111,,173,156,30,19,5,5,0.4,0.4
2025-06-23T2300,3374A,115.5564,35.0891,菏泽市,定陶老年大学,颗粒物(PM10),51,51,38,17,16,107,,162,145,28,15,2,4,0.3,0.2
2025-06-23T2300,4184A,115.4797,35.24401,菏泽市,永昌路1号,,46,46,44,18,16,124,,172,154,19,13,4,5,0.2,0.2
2025-06-23T2300,4193A,115.4715,35.2800,菏泽市,长城路999号,,46,46,46,17,18,142,,179,167,15,16,4,5,0.3,0.3
2025-06-23T2300,2514A,111.5264,24.4172,贺州市,环保小区,,44,44,28,24,17,23,,76,54,22,12,10,11,0.7,0.6
2025-06-23T2300,2515A,111.5608,24.4078,贺州市,政协大楼,,32,31,24,22,14,23,,77,57,25,13,11,12,0.8,0.6
2025-06-23T2300,3534A,111.4744,24.4553,贺州市,西湾,,35,27,26,24,15,24,,73,60,24,12,10,10,0.5,0.5
2025-06-23T2300,2385A,114.17,35.9019,鹤壁市,市监测站,,44,42,39,24,20,140,,180,164,12,11,7,9,0.8,0.8
2025-06-23T2300,2386A,114.2956,35.7511,鹤壁市,市交警支队,细颗粒物(PM2.5),54,52,49,38,27,124,,177,159,23,29,10,6,0.7,0.7
2025-06-23T2300,2387A,114.2878,35.7306,鹤壁市,迎宾馆,,50,50,51,29,24,120,,171,153,22,26,9,6,0.6,0.6
2025-06-23T2300,3474A,114.2617,35.6822,鹤壁市,大新区,,45,45,50,25,22,96,,172,144,29,27,10,7,0.6,0.6
2025-06-23T2300,3596A,114.1572,35.9603,鹤壁市,南山宾馆,颗粒物(PM10),70,89,50,36,30,141,,191,175,15,8,6,5,0.6,0.5
2025-06-23T2300,2244A,130.2537,47.3416,鹤岗市,哈啤分公司,,28,28,20,17,14,59,,95,80,8,10,13,14,0.5,0.2
2025-06-23T2300,2245A,130.2684,47.3086,鹤岗市,斯达机电,,39,39,29,20,19,42,,93,81,14,12,13,17,0.3,0.4
2025-06-23T2300,2246A,130.3114,47.3388,鹤岗市,东山纸板厂,,43,43,34,18,17,17,,90,60,22,18,15,15,0.9,1
2025-06-23T2300,2247A,130.1097,47.3382,鹤岗市,五号水库,,16,16,13,9,6,43,,93,66,13,12,11,12,0.6,0.5
2025-06-23T2300,2263A,127.4833,50.2524,黑河市,交通局,,31,31,32,10,12,31,,76,54,12,12,7,6,0.4,0.3
2025-06-23T2300,2264A,127.5144,50.2341,黑河市,环保局,颗粒物(PM10),64,78,36,22,15,27,,84,59,26,11,13,8,0.8,0.5
2025-06-23T2300,2265A,127.5291,50.2472,黑河市,大黑河岛,,18,,6,12,12,30,,61,51,6,9,18,21,0.4,0.4
2025-06-23T2300,1074A,115.6838,37.7541,衡水市,电机北厂,颗粒物(PM10),55,59,51,21,24,152,,215,196,14,15,5,7,0.3,0.4
2025-06-23T2300,1075A,115.6303,37.7316,衡水市,市监测站,,46,46,58,22,20,138,,209,185,18,19,6,8,0.4,0.5
2025-06-23T2300,3188A,115.6683,37.7217,衡水市,市城管局,颗粒物(PM10),61,72,55,32,27,137,,220,197,24,19,6,8,0.4,0.5
2025-06-23T2300,3459A,115.5989,37.5491,衡水市,地表水厂,颗粒物(PM10),62,74,68,24,21,78,,196,154,59,38,8,8,0.3,0.3
2025-06-23T2300,2456A,112.5003,26.9167,衡阳市,原169医院,,16,13,22,3,9,49,,75,58,16,10,3,2,0.6,0.6
2025-06-23T2300,2457A,112.6194,26.9258,衡阳市,衡阳化工总厂,,22,18,30,15,19,58,,63,57,7,8,3,4,0.8,0.6
2025-06-23T2300,2458A,112.6211,26.8956,衡阳市,珠晖区环保局,,,18,25,,,52,,67,60,20,11,6,6,1.0,0.8
2025-06-23T2300,2459A,112.6197,26.8733,衡阳市,市委党校,,20,,26,13,13,64,,69,64,8,8,4,6,0.8,0.7
2025-06-23T2300,2460A,112.6006,26.8919,衡阳市,市监测站,,20,,24,11,16,61,,66,60,7,9,5,5,0.7,0.6
2025-06-23T2300,2461A,112.5664,26.9056,衡阳市,真空机电公司,,23,20,21,16,16,53,,62,54,9,7,5,6,1.3,1
2025-06-23T2300,3399A,112.6703,26.882,衡阳市,师范学院,,22,21,26,13,17,68,,71,69,8,8,5,6,1.1,0.9
2025-06-23T2300,2608A,103.3772,23.3993,红河哈尼族彝族自治州,污水处理厂,,20,20,22,7,13,38,,42,40,3,5,6,11,0.4,0.4
2025-06-23T2300,2609A,103.3861,23.35,红河哈尼族彝族自治州,监测站,,22,22,24,13,17,41,,40,38,3,6,11,16,0.3,0.4
2025-06-23T2300,3038A,103.3758,23.368,红河哈尼族彝族自治州,州图书馆,,19,,14,13,15,45,,42,42,3,6,2,9,0.1,0.2
2025-06-23T2300,1090A,111.6507,40.7517,呼和浩特市,呼市一监,颗粒物(PM10),56,61,42,32,19,89,,172,136,31,16,8,8,0.7,0.5
2025-06-23T2300,1091A,111.6572,40.8033,呼和浩特市,小召,颗粒物(PM10),52,53,35,29,18,126,,179,159,33,25,7,6,0.6,0.5
2025-06-23T2300,1094A,111.7516,40.8369,呼和浩特市,如意水处理厂,颗粒物(PM10),57,64,42,29,19,109,,190,160,25,23,7,6,0.5,0.5
2025-06-23T2300,1095A,111.7276,40.8062,呼和浩特市,二十九中,颗粒物(PM10),56,62,41,28,19,114,,187,163,25,18,6,6,0.6,0.6
2025-06-23T2300,1096A,111.5512,40.7866,呼和浩特市,工大金川校区,颗粒物(PM10),57,64,43,28,18,112,,190,161,28,20,8,8,0.7,0.5
2025-06-23T2300,1097A,111.717,40.7612,呼和浩特市,化肥厂生活区,颗粒物(PM10),66,81,42,33,17,87,,190,154,41,21,8,8,0.4,0.4
2025-06-23T2300,3698A,111.5968,40.8178,呼和浩特市,红旗小学,颗粒物(PM10),70,90,41,36,20,55,,195,149,86,24,6,5,0.6,0.4
2025-06-23T2300,3699A,111.6518,40.8389,呼和浩特市,海东办,颗粒物(PM10),57,63,38,32,19,77,,182,154,59,28,6,5,0.6,0.4
2025-06-23T2300,2192A,119.7594,49.2261,呼伦贝尔市,区环保局,颗粒物(PM10),84,118,45,50,34,2,,127,59,64,22,9,6,0.9,0.5
2025-06-23T2300,3061A,119.7512,49.1577,呼伦贝尔市,国华电力东,颗粒物(PM10),59,68,32,27,15,21,,141,94,31,11,4,4,0.6,0.4
2025-06-23T2300,1250A,120.0751,30.8669,湖州市,城西水厂,,45,41,15,31,9,73,,116,100,16,12,5,5,0.5,0.4
2025-06-23T2300,2873A,120.0830,30.8929,湖州市,仁皇山新区,,36,36,12,25,9,63,,114,93,18,10,4,4,0.6,0.5
2025-06-23T2300,2907A,120.1844,30.8596,湖州市,吴兴区站,,32,,9,22,9,68,,109,93,18,11,6,6,0.4,0.4
2025-06-23T2300,3562A,120.4148,30.8538,湖州市,南浔区站,,40,,11,28,10,51,,106,83,25,15,5,4,0.6,0.5
2025-06-23T2300,1607A,120.9049,40.7211,葫芦岛市,龙港区,,,,64,27,51,194,,198,198,7,13,7,7,0.6,0.7
2025-06-23T2300,1608A,120.8392,40.7514,葫芦岛市,化工街,臭氧1小时,90,58,60,41,36,192,,200,200,22,49,7,9,0.7,0.7
2025-06-23T2300,1609A,120.8341,40.7073,葫芦岛市,新区,臭氧1小时,101,,54,46,58,202,,202,202,9,16,6,5,0.6,0.7
2025-06-23T2300,1610A,120.8695,40.7677,葫芦岛市,东城区,细颗粒物(PM2.5),92,,58,68,47,191,,175,175,14,44,7,17,0.8,0.8
2025-06-23T2300,2482A,109.5981,27.5721,怀化市,林科所,,16,11,8,11,3,32,,77,46,6,6,4,4,0.2,0.2
2025-06-23T2300,2483A,109.9453,27.5444,怀化市,河西地税局,,27,27,20,14,6,20,,70,46,15,7,4,4,0.3,0.2
2025-06-23T2300,2484A,109.9781,27.5342,怀化市,市四医院,,19,19,9,12,8,21,,65,48,17,5,2,2,0.3,0.5
2025-06-23T2300,2485A,109.9972,27.5578,怀化市,监测楼,,,19,10,12,5,24,,63,,,20,,3,0.4,0.1
2025-06-23T2300,2486A,110.0394,27.583,怀化市,市委党校,,19,19,9,10,5,32,,67,46,7,6,5,5,0.3,0.2
2025-06-23T2300,1210A,119.036,33.5981,淮安市,钵池山,,28,17,25,15,19,88,,150,119,14,16,8,8,0.4,0.5
2025-06-23T2300,1211A,119.007,33.575,淮安市,北京南路,,26,19,26,13,17,83,,148,116,5,8,7,7,0.4,0.5
2025-06-23T2300,1212A,118.989,33.6067,淮安市,市监测站,,,19,28,12,16,,,173,,10,14,9,9,0.3,0.4
2025-06-23T2300,1213A,119.135,33.5039,淮安市,楚州区监测站,,30,,29,21,23,80,,136,105,12,10,8,8,0.6,0.6
2025-06-23T2300,3426A,118.8755,33.2894,淮安市,新华书店,,26,26,26,11,13,82,,139,121,11,9,8,8,0.4,0.4
2025-06-23T2300,4206A,119.0288,33.6319,淮安市,承德北路606号,,28,24,32,19,18,80,,141,110,9,13,5,5,0.5,0.6
2025-06-23T2300,2282A,116.8004,33.975,淮北市,监测站,颗粒物(PM10),51,52,42,30,22,120,,169,148,13,8,7,7,0.8,0.8
2025-06-23T2300,2283A,116.8091,33.9007,淮北市,烈山区政府,颗粒物(PM10),56,62,51,19,19,76,,164,129,30,11,8,8,0.7,0.6
2025-06-23T2300,3330A,116.8873,33.9836,淮北市,杜集区检察院,颗粒物(PM10),52,54,52,34,27,94,,157,131,16,11,9,9,0.8,0.8
2025-06-23T2300,4017A,116.7923,33.9535,淮北市,市博物馆,,40,39,39,28,23,120,,171,148,11,6,8,9,0.8,0.7
2025-06-23T2300,2277A,116.8305,32.7727,淮南市,潘集区政府,颗粒物(PM10),68,85,47,37,32,56,,112,95,25,12,3,5,0.5,0.5
2025-06-23T2300,2279A,116.8569,32.5951,淮南市,谢家集区政府,颗粒物(PM10),53,55,42,20,18,71,,122,112,28,12,8,7,0.4,0.3
2025-06-23T2300,2280A,116.8281,32.633,淮南市,八公山区政府,,35,35,36,18,19,99,,123,113,9,10,3,3,0.3,0.3
2025-06-23T2300,2894A,117.0566,32.6531,淮南市,经济技术开发区消防队,,39,39,39,25,20,66,,118,106,23,15,6,6,0.4,0.3
2025-06-23T2300,3329A,117.0108,32.5893,淮南市,山南新区,,35,35,31,3,10,70,,124,113,14,7,7,7,0.5,0.4
2025-06-23T2300,4209A,117.0031,32.6445,淮南市,国庆中路369号,颗粒物(PM10),60,70,44,29,27,69,,126,115,24,12,7,7,0.4,0.4
2025-06-23T2300,2446A,114.9028,30.4742,黄冈市,职工中心,,27,8,14,7,13,84,,85,80,2,3,8,8,0.6,0.6
2025-06-23T2300,2929A,114.8858,30.4519,黄冈市,红卫路,,26,20,22,10,14,83,,85,81,3,4,5,5,0.5,0.5
2025-06-23T2300,3398A,114.9136,30.4445,黄冈市,市林业局,,27,18,20,13,16,84,,80,78,2,3,6,7,0.6,0.5
2025-06-23T2300,2672A,102.0199,35.5102,黄南藏族自治州,同仁县隆务镇,,27,14,19,3,7,86,,109,103,2,2,7,7,0.2,0.2
2025-06-23T2300,2295A,118.2903,29.6963,黄山市,延安路89号,,20,20,9,9,4,42,,70,56,6,3,6,5,0.6,0.6
2025-06-23T2300,2297A,118.1371,30.2756,黄山市,黄山区政府5号楼,,22,19,11,8,5,68,,68,58,4,3,4,4,0.6,0.5
2025-06-23T2300,4210A,118.3354,29.7203,黄山市,滨江东路7-2号,,16,15,12,11,5,43,,68,57,4,4,4,4,0.5,0.5
2025-06-23T2300,2423A,115.0601,30.2313,黄石市,沈家营,,37,37,33,14,9,51,,78,72,8,15,6,7,0.7,0.8
2025-06-23T2300,2426A,114.8988,30.2019,黄石市,铁山,,30,30,23,13,11,57,,88,80,10,13,3,4,0.4,0.6
2025-06-23T2300,2427A,115.0307,30.2092,黄石市,团城山,,41,41,28,24,8,62,,86,79,9,5,7,7,0.5,0.4
2025-06-23T2300,3149A,115.0235,30.1578,黄石市,笔架山北路,,39,39,22,12,6,40,,80,70,17,14,4,5,0.7,0.6
2025-06-23T2300,4185A,115.0780,30.21118,黄石市,磁湖东路29号,,44,44,32,16,13,61,,83,80,9,14,6,7,0.4,0.5
2025-06-23T2300,1392A,114.4183,23.0528,惠州市,河南岸金山湖子站,,15,15,18,3,10,23,,76,49,21,14,7,6,0.4,0.5
2025-06-23T2300,1393A,114.4053,23.0822,惠州市,下埔横江三路子站,,17,17,22,7,10,26,,94,59,21,15,4,4,0.5,0.2
2025-06-23T2300,1394A,114.4103,23.1142,惠州市,江北云山西路子站,,20,20,24,6,10,30,,104,64,18,15,6,7,0.4,0.5
2025-06-23T2300,1395A,114.4645,22.7833,惠州市,惠阳区承修路船湖子站,,10,10,15,3,7,31,,70,54,14,12,7,7,0.4,0.4
2025-06-23T2300,1396A,114.5317,22.7422,惠州市,大亚湾管委会子站,,16,9,12,3,5,51,,63,61,9,11,9,9,0.3,0.4
2025-06-23T2300,3314A,114.4338,22.8134,惠州市,惠阳秋长,,,9,17,6,8,,,84,73,22,15,8,9,0.4,0.4
2025-06-23T2300,3452A,114.6517,22.775,惠州市,大亚湾霞涌,,14,,11,3,6,42,,63,56,10,11,5,6,0.2,0.2
2025-06-23T2300,2240A,130.9762,45.3001,鸡西市,环保局,,31,31,25,17,14,81,,102,87,15,12,4,4,0.4,0.4
2025-06-23T2300,2243A,130.9429,45.3039,鸡西市,第一中学,,36,36,23,19,15,75,,124,88,18,12,7,7,0.5,0.4
2025-06-23T2300,3707A,131.0207,45.3073,鸡西市,欧美日汽修厂,,43,43,30,23,16,68,,136,98,28,18,6,7,0.6,0.6
2025-06-23T2300,3709A,130.9967,45.3106,鸡西市,市政设施管理处,,43,43,29,22,15,72,,130,89,25,20,4,4,0.5,0.5
2025-06-23T2300,2367A,114.9754,27.0803,吉安市,红声器材厂,,24,24,23,11,11,37,,72,51,8,8,28,11,0.7,0.9
2025-06-23T2300,2368A,114.9658,27.0999,吉安市,市森林工业局,,15,14,23,8,11,48,,76,54,4,7,18,10,0.4,0.5
2025-06-23T2300,2369A,114.99,27.1312,吉安市,市环境监测站,,,18,21,10,13,,,78,,1,5,34,15,0.4,0.6
2025-06-23T2300,2370A,115.0093,27.0968,吉安市,青原区法院,,27,27,25,12,12,24,,73,44,17,11,20,10,0.2,0.4
2025-06-23T2300,1772A,126.54,43.8622,吉林市,哈达湾,颗粒物(PM10),52,54,28,19,17,81,,160,143,28,18,8,7,0.4,0.3
2025-06-23T2300,1773A,126.5844,43.8358,吉林市,东局子,,40,32,24,28,17,112,,157,144,22,20,5,6,0.6,0.6
2025-06-23T2300,1774A,126.5052,43.8245,吉林市,电力学院,颗粒物(PM10),66,82,32,40,14,29,,160,109,47,29,5,5,0.6,0.4
2025-06-23T2300,1775A,126.6133,43.8972,吉林市,江北,,37,37,32,19,14,86,,158,131,18,18,7,7,0.4,0.4
2025-06-23T2300,1776A,126.555,43.8306,吉林市,江南公园,,30,30,26,15,17,93,,157,135,21,16,6,5,0.5,0.4
2025-06-23T2300,2868A,126.4739,43.953,吉林市,九站,细颗粒物(PM2.5),62,60,33,44,18,65,,172,151,50,30,6,7,0.4,0.3
2025-06-23T2300,1299A,116.9862,36.6114,济南市,科干所,,44,44,27,24,15,99,,154,129,31,16,6,6,0.9,0.6
2025-06-23T2300,1300A,116.9376,36.665,济南市,农科所,颗粒物(PM10),52,54,34,20,14,80,,150,121,39,20,8,8,0.5,0.3
2025-06-23T2300,1301A,117.1265,36.6734,济南市,开发区,,35,32,29,20,15,112,,154,140,26,20,8,8,0.6,0.5
2025-06-23T2300,1303A,117.0624,36.6868,济南市,省种子仓库,,48,48,34,19,13,122,,170,144,33,20,8,7,0.6,0.4
2025-06-23T2300,1304A,116.9489,36.6447,济南市,机床二厂,颗粒物(PM10),55,59,40,24,14,102,,159,137,38,22,6,6,0.7,0.5
2025-06-23T2300,1305A,117.0495,36.663,济南市,市监测站,,42,32,28,20,14,134,,160,140,31,25,10,10,0.6,0.5
2025-06-23T2300,1306A,116.7675,36.5484,济南市,长清党校,,34,29,30,22,20,106,,165,149,39,23,7,7,0.5,0.5
2025-06-23T2300,1616A,117.6795,36.229,济南市,技术学院,颗粒物(PM10),53,56,39,22,24,105,,179,135,32,23,9,11,0.9,1
2025-06-23T2300,1961A,117.532,36.6868,济南市,东山小学,,42,27,32,12,15,134,,161,154,13,13,9,9,0.3,0.4
2025-06-23T2300,3059A,117.7161,36.2049,济南市,泰兴公司,,46,46,40,19,24,93,,168,131,47,31,8,10,0.7,0.8
2025-06-23T2300,3064A,117.6867,36.2171,济南市,莱芜战役纪念馆,,44,44,47,28,29,110,,172,133,27,20,8,9,1.1,1.3
2025-06-23T2300,3494A,117.1673,36.9782,济南市,济阳区政府,颗粒物(PM10),51,51,53,17,16,118,,207,173,32,34,7,8,0.5,0.4
2025-06-23T2300,3495A,117.1171,36.63,济南市,锦屏中学,,33,27,21,12,10,105,,149,128,20,13,10,10,0.7,0.6
2025-06-23T2300,3682A,116.9814,36.6819,济南市,济南四建,,41,41,30,22,17,121,,167,146,34,21,7,6,0.6,0.4
2025-06-23T2300,1653A,116.6251,35.4302,济宁市,火炬城,,47,47,38,27,19,106,,148,135,19,13,7,6,0.5,0.4
2025-06-23T2300,1655A,116.5491,35.4042,济宁市,电化厂,,47,47,44,24,24,94,,162,136,30,18,5,5,0.8,0.7
2025-06-23T2300,3500A,116.5814,35.3707,济宁市,北湖一中,,50,50,44,28,26,128,,179,158,18,16,9,9,0.4,0.3
2025-06-23T2300,3501A,116.8249,35.5593,济宁市,服务中心,,47,47,41,21,17,101,,154,135,28,21,4,3,0.4,0.3
2025-06-23T2300,3678A,116.5907,35.4054,济宁市,市第七中学,,46,46,44,24,16,122,,162,148,13,12,10,10,0.4,0.4
2025-06-23T2300,2255A,130.2751,46.8028,佳木斯市,佳纺,颗粒物(PM10),51,52,32,23,15,73,,106,94,28,19,4,4,0.4,0.4
2025-06-23T2300,2256A,130.3995,46.8307,佳木斯市,发电厂,颗粒物(PM10),61,72,36,27,17,87,,118,110,28,20,5,5,0.5,0.4
2025-06-23T2300,2257A,130.3258,46.7975,佳木斯市,环保局,,43,43,32,22,18,75,,112,103,34,18,4,4,0.5,0.5
2025-06-23T2300,2258A,130.3648,46.8032,佳木斯市,十一中,,48,48,30,28,18,93,,116,111,27,16,6,6,0.6,0.4
2025-06-23T2300,2259A,130.3794,46.7588,佳木斯市,四丰,,,21,21,,,,,,,13,10,1,1,0.5,0.5
2025-06-23T2300,1252A,120.7436,30.778,嘉兴市,清河小学,,34,34,16,15,7,62,,112,92,18,15,8,7,0.8,0.8
2025-06-23T2300,1253A,120.726,30.7478,嘉兴市,嘉兴学院,,35,,14,24,13,60,,106,90,16,16,4,4,0.6,0.6
2025-06-23T2300,2872A,120.7846,30.7525,嘉兴市,南湖区残联,,33,24,13,23,11,62,,106,89,14,13,5,5,0.7,0.6
2025-06-23T2300,3407A,120.6916,30.7739,嘉兴市,秀洲住建,,21,21,11,14,7,54,,113,88,20,15,5,5,0.7,0.7
2025-06-23T2300,1945A,98.2908,39.7711,嘉峪关市,气象局,,48,6,22,3,9,153,,141,141,5,10,7,15,0.4,0.5
2025-06-23T2300,2884A,98.2672,39.7978,嘉峪关市,酒钢宾馆,,43,9,27,7,11,135,,141,138,3,9,10,24,0.5,0.5
2025-06-23T2300,3248A,98.2643,39.7724,嘉峪关市,雄关区,,45,30,30,19,16,144,,140,140,10,14,7,13,0.2,0.4
2025-06-23T2300,1383A,113.1064,22.6058,江门市,北街,,,,24,3,7,31,,52,43,7,9,4,3,0.3,0.3
2025-06-23T2300,1384A,113.0731,22.5835,江门市,西区,,25,25,14,3,6,31,,56,46,9,8,9,8,0.4,0.4
2025-06-23T2300,1385A,113.0219,22.5311,江门市,圭峰西,,10,10,16,7,6,20,,51,42,16,7,3,3,0.4,0.4
2025-06-23T2300,1386A,113.0828,22.5947,江门市,东湖,,11,10,11,3,7,34,,55,46,9,9,7,6,0.4,0.4
2025-06-23T2300,3311A,113.1075,22.5647,江门市,江海富民,,18,18,21,7,12,34,,56,47,8,8,9,9,0.3,0.4
2025-06-23T2300,3449A,113.05,22.4667,江门市,新会银湖,,16,16,16,6,8,27,,49,41,6,6,2,2,0.3,0.3
2025-06-23T2300,3169A,113.2725,35.2067,焦作市,太极体育中心,颗粒物(PM10),59,68,55,22,22,120,,202,168,36,25,5,7,0.3,0.4
2025-06-23T2300,3335A,113.3137,35.2641,焦作市,马村街道办,颗粒物(PM10),52,53,45,24,20,110,,183,158,28,17,16,12,0.6,0.5
2025-06-23T2300,3336A,113.2465,35.2373,焦作市,焦作技师学院,颗粒物(PM10),52,54,40,19,17,109,,178,153,18,13,5,7,0.7,0.6
2025-06-23T2300,3477A,113.1656,35.2539,焦作市,中站许衡医院,颗粒物(PM10),61,71,45,28,24,76,,187,157,63,22,6,8,0.4,0.4
2025-06-23T2300,3981A,113.2449,35.1803,焦作市,原李万街道办,,40,40,45,12,14,118,,186,159,24,18,10,12,0.8,0.8
2025-06-23T2300,4264A,113.2340,35.2190,焦作市,新安路1731号,,46,46,49,23,21,129,,185,167,14,11,5,8,0.3,0.4
2025-06-23T2300,1708A,116.3701,23.5345,揭阳市,新兴,,24,24,19,10,11,38,,57,52,8,6,5,5,0.4,0.4
2025-06-23T2300,1709A,116.3264,23.5443,揭阳市,西马,,28,28,23,8,10,25,,50,42,17,9,1,2,0.6,0.5
2025-06-23T2300,1710A,116.3611,23.5626,揭阳市,东兴,,14,,22,9,8,43,,65,58,10,8,4,2,0.4,0.4
2025-06-23T2300,1711A,116.4151,23.5294,揭阳市,渔湖,,,62,30,,14,35,,57,49,8,8,6,8,0.3,0.3
2025-06-23T2300,3320A,116.403,23.5699,揭阳市,曲溪,,22,22,18,11,8,44,,68,61,5,4,3,3,0.4,0.4
2025-06-23T2300,1944A,102.1692,38.5167,金昌市,天庆家园,,36,36,31,25,18,98,,113,109,11,12,10,12,0.7,0.7
2025-06-23T2300,4022A,102.1647,38.5371,金昌市,金川区人防中心,,31,17,33,6,16,99,,124,117,9,10,12,14,0.5,0.6
2025-06-23T2300,4239A,102.1930,38.5319,金昌市,长春路96号,,32,28,31,12,13,100,,126,120,12,10,8,11,0.5,0.5
2025-06-23T2300,1262A,119.647,29.077,金华市,十五中,,15,12,14,6,12,48,,69,66,7,13,2,2,0.4,0.5
2025-06-23T2300,1263A,119.686,29.1029,金华市,监测站,,14,,14,3,10,42,,60,56,12,13,2,2,0.3,0.3
2025-06-23T2300,3659A,119.656,29.1131,金华市,气象局,,11,6,15,6,9,33,,55,52,16,18,2,2,0.3,0.4
2025-06-23T2300,1767A,121.1115,41.0879,锦州市,南山,细颗粒物(PM2.5),137,,54,104,44,196,,205,205,19,37,53,18,1.1,0.8
2025-06-23T2300,1768A,121.0604,40.8428,锦州市,开发区,臭氧1小时,80,77,78,47,45,184,,189,189,22,26,8,17,0.8,0.9
2025-06-23T2300,1769A,121.1836,41.1119,锦州市,百股街道,臭氧1小时,101,51,43,46,28,201,,206,197,14,26,11,9,0.8,0.7
2025-06-23T2300,1770A,121.1178,41.1222,锦州市,天安街道,细颗粒物(PM2.5),104,84,58,78,41,193,,193,193,19,42,46,17,1.3,1.1
2025-06-23T2300,1771A,121.1303,41.1386,锦州市,北湖公园,细颗粒物(PM2.5),120,,54,91,36,221,,210,210,15,33,44,15,1.0,0.8
2025-06-23T2300,2160A,112.85,35.5051,晋城市,自来水公司,,49,41,48,12,18,155,,188,180,12,11,1,2,0,0
2025-06-23T2300,2161A,112.8318,35.4936,晋城市,白云商贸,颗粒物(PM10),59,68,50,9,11,145,,180,172,18,16,3,2,0.4,0.4
2025-06-23T2300,2162A,112.8508,35.4887,晋城市,市环保局,颗粒物(PM10),59,67,50,19,18,148,,186,177,17,15,8,8,0,0
2025-06-23T2300,2163A,112.8676,35.4897,晋城市,技术学院,颗粒物(PM10),54,58,42,9,14,122,,167,158,22,16,7,8,0.3,0.3
2025-06-23T2300,3620A,112.8271,35.4828,晋城市,泽州一中,,49,30,40,12,15,154,,189,181,22,20,4,5,0.4,0.4
2025-06-23T2300,2173A,112.7249,37.7067,晋中市,南都小区,,40,39,41,20,19,126,,173,146,5,9,3,3,0.4,0.5
2025-06-23T2300,2174A,112.6991,37.6982,晋中市,榆次区政府,,40,29,38,18,18,128,,171,147,5,9,5,6,0.4,0.5
2025-06-23T2300,2865A,112.7195,37.6828,晋中市,榆次三中,,44,44,42,14,12,108,,178,142,19,14,5,7,0.3,0.4
2025-06-23T2300,4200A,112.7478,37.6954,晋中市,迎宾街26号,,37,31,36,17,14,118,,184,151,19,10,6,8,0.4,0.5
2025-06-23T2300,2439A,112.2014,31.0481,荆门市,竹园小学,,38,,35,26,23,91,,145,120,11,11,7,6,0.4,0.3
2025-06-23T2300,2440A,112.1969,30.9891,荆门市,掇刀,,35,,25,24,22,99,,135,119,5,7,9,7,0.6,0.5
2025-06-23T2300,2441A,112.2213,31.0386,荆门市,石化一小,,35,35,30,19,22,92,,149,123,11,11,9,10,0.4,0.3
2025-06-23T2300,3012A,112.1849,31.0362,荆门市,西山林语,,32,28,24,22,20,91,,139,120,7,3,11,10,0.5,0.4
2025-06-23T2300,3547A,112.1632,31.0138,荆门市,龙泉中学南校,,32,,24,20,18,102,,134,117,3,5,5,5,0.4,0.4
2025-06-23T2300,1844A,112.2494,30.3197,荆州市,市图书馆,,32,32,20,16,17,84,,128,115,18,11,15,3,0.6,0.5
2025-06-23T2300,1845A,112.2008,30.3544,荆州市,市委党校,,25,21,22,16,15,80,,118,107,20,14,6,6,0.5,0.4
2025-06-23T2300,3194A,112.2747,30.3122,荆州市,管委会,,33,29,21,23,18,81,,122,110,19,10,6,6,0.7,0.7
2025-06-23T2300,4268A,112.1722,30.3366,荆州市,学苑路85号,,30,21,16,21,19,55,,115,98,27,9,3,3,0.4,0.4
2025-06-23T2300,2343A,117.2117,29.2933,景德镇市,老干部活动中心,,18,,10,3,2,57,,68,53,11,14,10,6,0.7,0.8
2025-06-23T2300,2344A,117.1894,29.2789,景德镇市,兽医站,,29,29,16,3,5,57,,68,55,9,9,6,5,0.4,0.6
2025-06-23T2300,2345A,117.1547,29.2617,景德镇市,台达陶瓷,,19,,14,11,8,58,,68,56,8,15,25,32,0.7,0.7
2025-06-23T2300,2346A,117.2461,29.2956,景德镇市,陶研所,,18,18,11,3,5,46,,73,51,9,7,5,4,0.6,0.6
2025-06-23T2300,1803A,115.9872,29.6815,九江市,十里,,18,,8,11,7,57,,86,73,19,13,2,2,0.7,0.7
2025-06-23T2300,1804A,115.9584,29.7046,九江市,茅山头,,22,15,10,6,10,68,,94,79,20,16,3,5,0.5,0.5
2025-06-23T2300,1805A,115.9877,29.7295,九江市,西园,,20,16,12,3,5,64,,105,80,30,20,5,7,0.9,0.8
2025-06-23T2300,1808A,115.9114,29.6038,九江市,综合工业园,,22,12,10,3,3,25,,81,58,44,30,3,3,0.7,0.8
2025-06-23T2300,1809A,116.0721,29.7535,九江市,石化总厂,,23,15,10,3,18,72,,90,79,8,11,6,6,0.9,0.9
2025-06-23T2300,1810A,115.9773,29.5698,九江市,庐山气象台,,30,6,3,3,4,94,,90,89,3,4,7,6,0.6,0.9
2025-06-23T2300,3190A,116.0254,29.6994,九江市,外国语学校,,16,13,8,11,7,51,,85,60,26,17,2,5,0.7,0.7
2025-06-23T2300,4253A,116.0102,29.6594,九江市,莲花大道8号,,15,8,6,7,7,46,,81,66,7,6,3,4,0.6,0.6
2025-06-23T2300,4240A,98.4958,39.7339,酒泉市,玉门东路5号,,49,,29,34,22,138,,142,137,3,9,11,14,0.2,0.3
2025-06-23T2300,4241A,98.5099,39.7506,酒泉市,北大街108号,,43,,28,29,17,136,,149,144,4,7,13,16,0.3,0.3
2025-06-23T2300,2698A,76.0072,39.4467,喀什地区,巡警大队,颗粒物(PM10),68,86,71,15,17,119,,156,153,37,15,4,3,0.5,0.3
2025-06-23T2300,2699A,75.9755,39.4694,喀什地区,吾办,颗粒物(PM10),68,86,72,29,28,113,,152,148,35,16,5,6,0.6,0.4
2025-06-23T2300,4027A,75.9483,39.4689,喀什地区,老干局,,,,79,,19,,,150,150,25,9,4,3,0.6,0.3
2025-06-23T2300,1824A,114.3389,34.7781,开封市,肿瘤医院,,42,42,49,26,22,105,,172,149,24,20,2,3,0.3,0.3
2025-06-23T2300,1826A,114.2885,34.7965,开封市,世纪星幼儿园,颗粒物(PM10),51,51,49,32,27,119,,178,157,21,20,4,4,0.7,0.7
2025-06-23T2300,3147A,114.3438,34.8106,开封市,龙亭公园,臭氧1小时,101,57,41,30,18,201,,185,180,18,13,6,5,0.3,0.3
2025-06-23T2300,3210A,114.3644,34.7964,开封市,汴京公园,颗粒物(PM10),67,83,50,39,24,100,,184,156,36,21,8,6,0.4,0.4
2025-06-23T2300,3473A,114.2485,34.8306,开封市,技师学院,,45,34,36,30,23,141,,182,168,14,16,5,6,0.4,0.4
2025-06-23T2300,3592A,114.4644,34.7556,开封市,祥符区生态环境局,颗粒物(PM10),56,62,50,26,22,58,,171,128,64,31,5,8,0.5,0.5
2025-06-23T2300,1951A,84.895,45.6094,克拉玛依市,长征新村,,30,30,28,3,8,68,,96,96,23,15,4,4,0.4,0.3
2025-06-23T2300,1952A,84.8988,45.5893,克拉玛依市,南林小区,,46,46,35,11,15,30,,79,78,41,23,3,4,0.1,0.1
2025-06-23T2300,1954A,84.905,44.3396,克拉玛依市,独山子区,,31,31,31,12,11,81,,104,86,11,9,7,7,0.3,0.3
2025-06-23T2300,1955A,85.6979,46.098,克拉玛依市,乌尔禾区商贸楼,,29,26,29,11,6,90,,98,93,9,9,4,4,0.3,0.3
2025-06-23T2300,3612A,85.1045,45.6899,克拉玛依市,白碱滩区新站,颗粒物(PM10),60,70,66,30,28,78,,85,84,15,17,6,5,0.5,0.5
2025-06-23T2300,2697A,76.1454,39.7142,克孜勒苏柯尔克孜自治州,市人民政府,颗粒物(PM10),55,59,42,20,18,137,,148,148,9,5,3,12,0.2,0.2
2025-06-23T2300,3665A,76.1658,39.7157,克孜勒苏柯尔克孜自治州,克州文化中心,,46,42,36,20,15,145,,146,146,4,4,3,9,0.4,0.4
2025-06-23T2300,1450A,102.8204,24.8886,昆明市,呈贡新区,,13,9,8,8,10,7,,52,31,25,16,5,5,0.4,0.3
2025-06-23T2300,1452A,102.7252,25.0902,昆明市,龙泉镇,,15,15,12,3,6,5,,55,37,26,12,1,2,0.4,0.4
2025-06-23T2300,1453A,102.7266,25.0375,昆明市,东风东路,,19,19,19,8,8,13,,56,35,28,20,4,4,0.5,0.4
2025-06-23T2300,1454A,102.6742,25.0669,昆明市,金鼎山,,12,12,17,3,5,14,,50,34,24,16,1,2,0.4,0.4
2025-06-23T2300,1455A,102.6644,25.0401,昆明市,碧鸡广场,,18,13,15,12,9,7,,48,36,32,19,5,5,0.5,0.5
2025-06-23T2300,3179A,102.7494,25.0119,昆明市,官渡区博物馆,,19,18,16,13,7,1,,55,33,38,22,6,6,0.6,0.5
2025-06-23T2300,3375A,102.8017,24.8336,昆明市,青年创业园,,15,12,10,10,8,0,,62,33,26,15,8,7,0.4,0.4
2025-06-23T2300,3550A,102.7997,24.9786,昆明市,昆明学院,,16,16,23,8,14,5,,54,31,31,21,5,5,0.3,0.3
2025-06-23T2300,3551A,102.5967,24.6736,昆明市,晋宁区生态环境分局,,13,13,14,7,6,6,,52,26,14,7,1,2,0.5,0.5
2025-06-23T2300,3552A,102.6678,24.9856,昆明市,云天化总部,,16,6,13,3,9,3,,48,28,32,18,4,3,0.5,0.5
2025-06-23T2300,1456A,91.1319,29.6514,拉萨市,八廓街,,32,,16,10,8,101,,114,110,7,15,7,7,0.3,0.3
2025-06-23T2300,1457A,91.1221,29.6747,拉萨市,市环保局,,30,13,20,10,10,93,,116,109,12,13,6,6,0.3,0.3
2025-06-23T2300,1458A,91.0874,29.6475,拉萨市,区监测站,,33,,15,8,8,103,,111,108,10,18,6,6,0.2,0.2
2025-06-23T2300,1459A,91.1774,29.6541,拉萨市,西藏大学,,32,12,16,8,8,102,,115,111,8,14,4,4,0.3,0.3
2025-06-23T2300,1460A,90.9798,29.6588,拉萨市,区辐射站,,25,12,16,8,7,80,,101,97,18,12,6,6,0.3,0.3
2025-06-23T2300,1461A,91.0834,29.6292,拉萨市,拉萨火车站,,28,,19,11,8,89,,112,105,4,11,4,4,0.1,0.1
2025-06-23T2300,2520A,109.2203,23.7256,来宾市,来宾技工学校,,18,18,26,11,13,54,,84,79,10,9,8,8,0.4,0.4
2025-06-23T2300,3535A,109.1781,23.7297,来宾市,兴宾区政府,,31,31,23,16,12,54,,79,75,14,10,5,6,0.6,0.6
2025-06-23T2300,4002A,109.2416,23.7461,来宾市,中南小学,,20,16,25,3,11,61,,84,81,7,8,7,7,0.3,0.4
2025-06-23T2300,1479A,103.831,36.0464,兰州市,铁路设计院,,46,41,38,32,24,104,,121,110,21,29,12,14,0.5,0.6
2025-06-23T2300,3241A,103.7439,36.0842,兰州市,百合公园,,35,35,30,23,18,105,,126,117,7,20,8,5,0.4,0.4
2025-06-23T2300,3242A,103.9611,35.998,兰州市,和平,,38,,25,26,15,112,,125,119,15,13,9,11,0.8,0.8
2025-06-23T2300,4236A,103.6293,36.0938,兰州市,庄浪东路808号,,50,38,35,35,24,88,,130,111,25,24,12,12,0.4,0.3
2025-06-23T2300,4237A,103.7251,36.1043,兰州市,安宁西路88号,,36,,28,24,19,115,,140,129,3,11,5,8,0.3,0.4
2025-06-23T2300,4238A,103.8470,36.0676,兰州市,北滨河东路1号,,46,36,29,32,22,116,,131,120,17,24,11,13,0.6,0.6
2025-06-23T2300,3245A,103.6633,36.533,兰州新区,新区管委会,,40,30,37,18,29,126,,152,139,9,12,9,23,0.4,0.5
2025-06-23T2300,3246A,103.6975,36.4789,兰州新区,舟曲中学,,40,11,22,6,16,125,,148,136,7,13,8,25,0.4,0.5
2025-06-23T2300,1067A,116.6708,39.5111,廊坊市,药材公司,颗粒物(PM10),80,109,102,46,59,126,,252,180,41,32,6,7,0.6,0.7
2025-06-23T2300,1068A,116.7214,39.5589,廊坊市,开发区,颗粒物(PM10),73,95,114,45,67,84,,270,163,47,33,2,6,0.5,0.8
2025-06-23T2300,1070A,116.7244,39.5269,廊坊市,北华航天学院,颗粒物(PM10),93,136,138,48,79,106,,244,166,40,33,4,7,0.6,0.8
2025-06-23T2300,2919A,116.7022,39.5453,廊坊市,河北工业大学,颗粒物(PM10),88,125,120,45,63,153,,266,193,37,34,9,10,0.5,0.8
2025-06-23T2300,2535A,103.7723,29.5462,乐山市,花湖湾,,28,20,28,19,24,74,,80,80,18,14,3,2,0.5,0.6
2025-06-23T2300,2536A,103.7627,29.5844,乐山市,牛耳桥,,28,27,30,19,24,73,,87,84,19,15,9,7,0.7,0.8
2025-06-23T2300,2537A,103.7508,29.6006,乐山市,市第三水厂,,29,29,33,19,25,67,,80,79,23,18,6,4,0.8,0.8
2025-06-23T2300,2538A,103.7571,29.5664,乐山市,市监测站,,32,27,32,22,22,66,,80,78,12,9,6,6,0.7,0.7
2025-06-23T2300,3361A,103.7311,29.5628,乐山市,理工大学,,30,27,29,21,24,67,,89,85,20,14,6,6,0.6,0.5
2025-06-23T2300,2599A,100.2497,26.8802,丽江市,丽江古城,,18,17,17,12,9,45,,85,65,12,9,9,10,0.5,0.4
2025-06-23T2300,2600A,100.2203,26.8906,丽江市,市中心,,16,,9,11,7,40,,90,63,8,7,7,7,0.9,0.8
2025-06-23T2300,1267A,119.914,28.4514,丽水市,监测站大楼,,10,,17,3,6,13,,29,20,19,19,3,3,0.4,0.4
2025-06-23T2300,1268A,119.93,28.4586,丽水市,莲都小学,,12,9,15,3,7,38,,69,50,9,11,3,3,0.3,0.4
2025-06-23T2300,1269A,119.879,28.4231,丽水市,余庄前,,13,13,17,3,7,17,,75,38,19,10,3,3,0.4,0.5
2025-06-23T2300,1173A,119.176,34.5885,连云港市,市环境监测站,,30,29,37,9,23,94,,172,115,13,15,8,9,0.5,0.6
2025-06-23T2300,3000A,119.3581,34.6972,连云港市,德源药业,,24,24,38,3,18,65,,142,92,15,9,8,9,0.8,0.9
2025-06-23T2300,3007A,119.178,34.844,连云港市,新城一中,,30,18,52,6,29,96,,178,113,14,20,6,9,0.6,0.9
2025-06-23T2300,3008A,119.3608,34.7519,连云港市,胡沟管理处,,32,24,29,12,20,41,,168,81,64,23,11,10,0.3,0.5
2025-06-23T2300,3009A,119.1478,34.5911,连云港市,矿山设计院,,28,19,39,3,20,88,,168,110,7,9,7,8,0.5,0.6
2025-06-23T2300,3434A,119.2413,34.6539,连云港市,工贸学校,,37,19,58,10,29,116,,168,126,2,5,8,9,0.7,0.7
2025-06-23T2300,3664A,119.4172,34.7341,连云港市,连云街道,,36,10,33,3,19,114,,166,128,12,11,7,9,0.3,0.6
2025-06-23T2300,2571A,102.3431,27.8099,凉山彝族自治州,青龙寺,,29,29,20,8,5,48,,99,84,16,7,4,4,0.6,0.6
2025-06-23T2300,2572A,102.2721,27.8415,凉山彝族自治州,邛海宾馆,,27,27,21,15,12,81,,102,96,5,10,9,9,0.3,0.4
2025-06-23T2300,2573A,102.2625,27.898,凉山彝族自治州,西昌市政府,,26,12,18,10,15,81,,103,94,6,8,11,13,0.4,0.6
2025-06-23T2300,2574A,102.2685,27.8851,凉山彝族自治州,凉山州政府,,26,,15,17,16,82,,101,94,9,11,10,12,0.6,0.7
2025-06-23T2300,4229A,102.2342,27.8859,凉山彝族自治州,凯乐南路30号,,26,26,25,16,10,77,,97,90,7,14,18,14,0.6,0.8
2025-06-23T2300,2212A,123.2,41.1953,辽阳市,宏伟区,臭氧1小时,57,37,38,20,15,165,,202,185,6,10,6,7,0.8,0.8
2025-06-23T2300,2213A,123.1683,41.2495,辽阳市,新华园,臭氧1小时,53,38,45,21,19,162,,210,176,8,16,6,7,0.6,0.6
2025-06-23T2300,2214A,123.2354,41.2639,辽阳市,滨河路,,46,37,40,19,17,146,,194,164,14,16,9,11,0.6,0.6
2025-06-23T2300,2215A,123.149,41.2991,辽阳市,铁西工业园,颗粒物(PM10),61,71,58,27,23,102,,190,144,20,26,6,9,0.7,1
2025-06-23T2300,2227A,125.1358,42.8845,辽源市,环保局,,47,47,31,24,14,11,,151,99,81,33,4,5,0.4,0.3
2025-06-23T2300,3239A,125.0764,42.9078,辽源市,银鹰制药,颗粒物(PM10),54,57,28,26,16,7,,168,102,85,38,8,6,0.4,0.3
2025-06-23T2300,1625A,115.9848,36.4372,聊城市,区政府,,49,34,42,19,20,156,,174,163,14,19,9,10,0.4,0.5
2025-06-23T2300,2878A,116.0072,36.4343,聊城市,聊大东校,"颗粒物(PM10),细颗粒物(PM2.5)",54,58,51,38,30,126,,180,153,30,22,7,9,0.5,0.5
2025-06-23T2300,3200A,115.9819,36.4978,聊城市,监控中心,,45,45,41,24,20,91,,182,141,62,28,10,12,0.7,0.6
2025-06-23T2300,3513A,116.0445,36.4361,聊城市,九州社区,颗粒物(PM10),54,57,53,27,23,125,,180,159,25,18,5,7,0.4,0.7
2025-06-23T2300,4018A,116.0567,36.4608,聊城市,星美广场,颗粒物(PM10),51,51,58,20,22,127,,178,142,31,27,11,12,0.6,0.6
2025-06-23T2300,2632A,94.3681,29.6376,林芝市,林芝监测站,,,,24,6,6,78,,91,88,4,5,4,4,0.2,0.2
2025-06-23T2300,2633A,94.3616,29.6616,林芝市,林芝人民医院,,26,8,13,3,5,82,,98,94,2,3,5,5,0.4,0.1
2025-06-23T2300,2603A,100.0781,23.8982,临沧市,市环保局,,,,14,22,14,,,33,,10,7,8,3,0.6,0.4
2025-06-23T2300,2604A,100.0894,23.8822,临沧市,市气象局,,25,20,15,17,12,10,,30,22,10,7,8,8,0.4,0.4
2025-06-23T2300,1733A,111.5531,36.0783,临汾市,临钢医院,,50,42,44,18,15,159,,191,188,16,15,10,8,0.7,0.6
2025-06-23T2300,1734A,111.5028,36.0714,临汾市,技工学校,颗粒物(PM10),54,57,49,32,27,140,,197,188,26,14,10,9,0.6,0.5
2025-06-23T2300,1736A,111.5018,36.0855,临汾市,市委,颗粒物(PM10),60,70,59,17,17,154,,197,188,25,18,11,9,0.6,0.6
2025-06-23T2300,3018A,111.505,36.1014,临汾市,唐尧大酒店,颗粒物(PM10),58,65,60,13,18,143,,185,176,22,15,10,8,0.6,0.6
2025-06-23T2300,4244A,111.4879,36.0530,临汾市,启星学校,颗粒物(PM10),53,55,46,29,29,150,,197,186,20,15,8,6,0.5,0.9
2025-06-23T2300,4271A,103.2464,35.6123,临夏回族自治州,滨河东路1号,,25,16,36,9,15,78,,100,94,2,9,8,9,0.3,0.3
2025-06-23T2300,4310A,103.2093,35.5995,临夏回族自治州,新华街21号,,34,16,30,14,19,107,,106,106,5,13,5,6,0.2,0.3
2025-06-23T2300,1618A,118.3429,35.0532,临沂市,沂河小区,,33,31,57,12,32,103,,174,142,15,21,7,10,0.3,0.5
2025-06-23T2300,1619A,118.295,35.0583,临沂市,鲁南制药厂,,33,31,59,17,30,105,,178,143,23,22,8,10,0.4,0.7
2025-06-23T2300,1620A,118.2794,34.9976,临沂市,新光毛纺厂,,33,,47,23,30,101,,181,143,28,19,8,10,0.4,0.6
2025-06-23T2300,1621A,118.3956,35.0888,临沂市,河东保险公司,,33,22,52,8,31,105,,178,145,17,22,5,7,0.4,0.6
2025-06-23T2300,3370A,118.3564,35.0215,临沂市,十里堡居委,,36,17,48,14,40,115,,194,158,14,21,10,10,0.4,0.6
2025-06-23T2300,3496A,118.3604,35.1084,临沂市,南坊新区,,34,24,61,12,32,106,,186,150,19,23,8,9,0.6,0.8
2025-06-23T2300,3860A,118.3920,35.0300,临沂市,皇山花园小区,,32,22,58,15,42,101,,177,143,18,26,9,9,0.3,0.6
2025-06-23T2300,1870A,109.4856,24.3895,柳州市,柳东小学,,29,24,23,20,12,42,,74,61,10,9,10,10,0.5,0.5
2025-06-23T2300,1871A,109.4157,24.3277,柳州市,环保监测站,,50,50,30,15,15,5,,22,14,18,11,8,7,0.8,0.7
2025-06-23T2300,1872A,109.389,24.341,柳州市,河西水厂,,45,45,28,21,12,22,,74,50,24,13,18,6,0.6,0.5
2025-06-23T2300,1873A,109.4311,24.2921,柳州市,市四中,,46,46,31,18,14,15,,77,56,31,16,10,7,0.8,0.5
2025-06-23T2300,1874A,109.4006,24.3631,柳州市,市九中,颗粒物(PM10),56,61,30,23,12,19,,76,53,26,12,13,10,0.7,0.6
2025-06-23T2300,1875A,109.4958,24.3134,柳州市,古亭山,,17,17,28,11,12,23,,72,54,24,13,5,5,0.6,0.6
2025-06-23T2300,3402A,109.5422,24.3996,柳州市,市二中,,,,24,,11,23,,76,65,16,13,11,13,,0.4
2025-06-23T2300,2307A,116.5079,31.737,六安市,监测大楼,,39,,20,27,18,81,,104,101,4,4,4,4,0.3,0.3
2025-06-23T2300,2308A,116.4738,31.7643,六安市,皖西学院,,48,,16,33,17,97,,129,120,6,5,4,5,0.4,0.3
2025-06-23T2300,2309A,116.4996,31.7905,六安市,朝阳厂,,32,24,16,22,14,93,,118,109,12,11,6,6,0.4,0.4
2025-06-23T2300,2310A,116.5567,31.7886,六安市,开发区,,33,19,19,18,16,103,,115,110,3,5,2,2,0.4,0.4
2025-06-23T2300,2577A,104.83,26.5917,六盘水市,黄土坡,,25,17,19,14,10,80,,107,96,8,12,8,10,0.5,0.6
2025-06-23T2300,2578A,104.89,26.5939,六盘水市,水钢,颗粒物(PM10),51,51,36,30,20,82,,112,99,6,17,9,11,0.4,0.7
2025-06-23T2300,2579A,104.8475,26.5894,六盘水市,民中,,,17,19,,9,80,,108,97,8,15,8,10,,0.6
2025-06-23T2300,2580A,104.9544,26.5506,六盘水市,双水,,27,,15,11,10,86,,105,93,6,14,9,10,0.4,0.5
2025-06-23T2300,2336A,117.0217,25.1033,龙岩市,龙岩市监测站,,18,18,16,10,6,20,,59,47,17,9,5,4,0.5,0.4
2025-06-23T2300,2337A,117.0258,25.0661,龙岩市,闽西职业技术学院,,22,22,22,9,9,20,,54,42,18,10,24,13,0.5,0.5
2025-06-23T2300,2338A,117.0196,25.0306,龙岩市,龙岩学院,,9,,18,3,7,26,,56,46,8,6,5,4,0.4,0.3
2025-06-23T2300,2885A,104.9339,33.3826,陇南市,滨江中学,,32,32,28,12,16,67,,90,77,5,4,5,4,0.7,0.6
2025-06-23T2300,3247A,104.955,33.371,陇南市,市总工会,,39,39,35,8,7,76,,94,84,3,4,6,6,0.6,0.6
2025-06-23T2300,2487A,111.9589,27.8901,娄底市,电视发射台,,14,14,13,3,3,17,,70,39,3,3,6,6,0.4,0.4
2025-06-23T2300,2488A,111.9975,27.725,娄底市,市监测站,,16,16,16,11,8,35,,79,56,30,18,12,10,0.6,0.7
2025-06-23T2300,2489A,112.0194,27.7314,娄底市,市委党校,,22,13,13,6,8,69,,91,76,7,7,3,3,0.5,0.5
2025-06-23T2300,2490A,111.9561,27.7569,娄底市,涟钢,,15,10,15,7,7,46,,77,58,7,8,3,2,0.3,0.4
2025-06-23T2300,2491A,111.9892,27.7044,娄底市,市政府,,16,16,15,9,10,36,,91,69,7,8,5,5,0.5,0.4
2025-06-23T2300,1893A,105.4324,28.9634,泸州市,九狮山,,38,38,33,20,18,80,,126,116,30,19,6,6,0.4,0.3
2025-06-23T2300,1894A,105.4427,28.9063,泸州市,小市上码头,,,31,27,18,14,,,136,136,15,6,13,13,0.7,0.7
2025-06-23T2300,1895A,105.4241,28.8573,泸州市,兰田宪桥,,,24,21,18,16,,,124,124,16,10,8,8,0.8,0.7
2025-06-23T2300,1896A,105.4379,28.8833,泸州市,市环监站,,43,26,25,18,17,137,,121,121,15,11,8,8,0.3,0.3
2025-06-23T2300,4272A,105.3689,28.7783,泸州市,纳溪中医医院,,37,37,30,25,22,62,,131,120,35,13,4,4,1.0,0.9
2025-06-23T2300,2183A,111.1406,37.5211,吕梁市,环保局,颗粒物(PM10),63,76,66,34,27,81,,193,159,36,22,9,7,0.5,0.7
2025-06-23T2300,2185A,111.1297,37.5136,吕梁市,自来水公司,颗粒物(PM10),61,72,68,36,25,75,,185,137,23,22,10,8,0.5,0.6
2025-06-23T2300,2867A,111.1283,37.51,吕梁市,马茂庄小学,颗粒物(PM10),63,75,68,28,27,76,,188,145,32,28,12,8,0.5,0.6
2025-06-23T2300,1812A,112.3931,34.6516,洛阳市,市委党校,,47,47,32,28,21,146,,186,176,16,11,17,11,0.6,0.5
2025-06-23T2300,1815A,112.494,34.6886,洛阳市,河南林校,,50,41,40,26,19,158,,188,178,10,13,5,7,0.5,0.5
2025-06-23T2300,1816A,112.3844,34.623,洛阳市,开发区管委会,,45,45,31,28,20,137,,185,174,18,12,14,18,0.6,0.5
2025-06-23T2300,1817A,112.4267,34.6258,洛阳市,市委新办公区,,44,44,36,23,17,140,,179,168,13,9,11,11,0.4,0.3
2025-06-23T2300,3340A,112.6005,34.6326,洛阳市,伊滨,,,44,39,,22,140,,180,171,14,11,5,6,0.5,0.5
2025-06-23T2300,3341A,112.4951,34.6332,洛阳市,中移产业园,,48,44,35,21,18,152,,180,172,10,10,6,8,0.6,0.5
2025-06-23T2300,3593A,112.5736,34.8993,洛阳市,吉利监测站,,46,46,44,24,23,134,,195,170,17,17,6,8,0.4,0.4
2025-06-23T2300,3635A,112.3677,34.662,洛阳市,河科大西苑校区,,48,44,33,20,15,152,,187,179,13,11,12,11,0.5,0.4
2025-06-23T2300,3636A,112.4388,34.6781,洛阳市,英才小学,,47,40,37,29,21,148,,180,172,13,12,13,9,0.7,0.7
2025-06-23T2300,4214A,112.4600,34.6949,洛阳市,春都路1号院,,48,40,37,23,18,153,,184,175,11,12,4,5,0.6,0.6
2025-06-23T2300,2399A,114.051,33.5699,漯河市,三五一五工厂,,36,35,37,24,23,113,,188,165,18,16,4,5,0.6,0.6
2025-06-23T2300,2400A,114.0055,33.5698,漯河市,漯河大学,,37,37,37,22,21,116,,189,168,20,18,5,5,0.4,0.4
2025-06-23T2300,2401A,114.0138,33.5828,漯河市,市水利局,,38,34,34,17,23,120,,186,168,14,13,5,5,0.6,0.6
2025-06-23T2300,2402A,114.0261,33.5698,漯河市,市广电局,,38,29,31,20,22,120,,190,169,13,13,4,3,0.6,0.5
2025-06-23T2300,3478A,113.9749,33.5664,漯河市,市图书馆,,,30,45,21,25,103,,184,161,25,18,6,4,,0.4
2025-06-23T2300,4250A,114.0892,33.5882,漯河市,韶山路11号,颗粒物(PM10),71,91,43,27,24,120,,181,162,16,18,2,3,0.5,0.5
2025-06-23T2300,1798A,118.5092,31.6837,马鞍山市,湖东路四小,,36,36,36,22,24,62,,103,89,19,12,6,7,0.6,0.8
2025-06-23T2300,1799A,118.5024,31.6449,马鞍山市,开发区,,49,49,34,22,18,58,,110,91,29,16,6,6,0.6,0.9
2025-06-23T2300,1802A,118.6245,31.7241,马鞍山市,濮塘,,29,27,29,20,21,60,,92,77,10,10,8,8,0.7,0.9
2025-06-23T2300,3633A,118.4918,31.6809,马鞍山市,雨山,,27,27,26,17,18,60,,103,90,20,14,7,7,0.5,0.7
2025-06-23T2300,4191A,118.5274,31.72227,马鞍山市,慈湖高新区,,28,28,32,18,23,48,,102,88,29,15,5,6,0.5,0.8
2025-06-23T2300,1686A,111.0286,21.4688,茂名市,电白南海,,17,17,12,7,8,48,,45,45,3,4,2,2,0.5,0.5
2025-06-23T2300,1687A,110.9294,21.6533,茂名市,茂石化七小,,,12,14,3,3,37,,43,38,6,5,3,3,,0.2
2025-06-23T2300,1688A,110.9107,21.6687,茂名市,健康路,,13,12,12,7,5,41,,48,44,7,7,3,3,0.1,0.2
2025-06-23T2300,1689A,110.8592,21.6828,茂名市,高岭,,19,19,18,3,1,36,,44,41,12,9,5,4,0.3,0.2
2025-06-23T2300,3450A,111.01,21.5165,茂名市,电白水东,,15,7,8,3,2,46,,44,44,4,4,4,4,0.3,0.3
2025-06-23T2300,2539A,104.0308,30.0478,眉山市,黑龙滩水库,,33,,17,23,28,73,,93,77,16,9,2,2,0.6,0.6
2025-06-23T2300,2540A,103.8416,30.0874,眉山市,气象局,,,25,27,17,16,,,92,,26,18,3,3,0.4,0.5
2025-06-23T2300,3137A,103.8578,30.0744,眉山市,市委党校,,23,22,25,9,13,71,,91,81,23,16,5,5,0.7,0.7
2025-06-23T2300,3148A,103.8291,30.0564,眉山市,区人社局,,44,44,40,12,12,77,,94,85,20,19,8,8,0.6,0.7
2025-06-23T2300,1690A,116.1231,24.3284,梅州市,梅江月梅,,26,26,21,13,9,19,,61,46,18,8,7,6,0.6,0.6
2025-06-23T2300,1691A,116.0797,24.2719,梅州市,梅县新城,,20,20,17,3,7,22,,56,41,13,8,6,6,0.5,0.5
2025-06-23T2300,1692A,116.1248,24.2654,梅州市,环境监控中心,,21,21,23,6,9,8,,55,38,26,10,3,4,0.3,0.4
2025-06-23T2300,3315A,116.1233,24.2991,梅州市,梅龙,,24,24,14,16,10,15,,58,46,19,7,9,7,0.5,0.4
2025-06-23T2300,1878A,104.7778,31.4741,绵阳市,富乐山,,33,33,21,16,14,75,,101,88,15,12,8,8,0.5,0.4
2025-06-23T2300,1880A,104.6697,31.4668,绵阳市,高新区自来水公司,,31,31,25,3,8,55,,92,81,26,15,7,7,0.6,0.6
2025-06-23T2300,1881A,104.7287,31.5075,绵阳市,三水厂,,34,34,23,16,14,66,,95,80,20,15,8,8,0.6,0.6
2025-06-23T2300,3491A,104.69,31.5322,绵阳市,西科大附属小学,,32,32,25,18,13,44,,94,77,37,18,8,8,0.3,0.2
2025-06-23T2300,3492A,104.5648,31.5343,绵阳市,安州区旅游局,,23,23,26,14,11,70,,87,84,14,15,7,7,0.4,0.3
2025-06-23T2300,4226A,104.7651,31.4531,绵阳市,绵阳市气象局,,32,32,19,14,14,71,,100,86,17,13,12,11,0.4,0.4
2025-06-23T2300,1784A,129.61,44.561,牡丹江市,环保大楼,,34,34,26,15,12,74,,136,104,17,23,8,8,0.3,0.3
2025-06-23T2300,1785A,129.6115,44.5782,牡丹江市,文化广场,,33,28,22,23,14,74,,131,99,20,25,6,5,0.4,0.3
2025-06-23T2300,1786A,129.5904,44.5963,牡丹江市,第一医院,,,116,25,,10,,,131,,29,23,7,6,0.5,0.5
2025-06-23T2300,1787A,129.6364,44.6075,牡丹江市,机车工厂,,46,46,32,17,11,54,,126,89,23,22,8,7,0.4,0.5
2025-06-23T2300,1788A,129.6386,44.5462,牡丹江市,第一中学,,47,47,24,23,14,74,,133,104,13,19,6,6,0.4,0.4
2025-06-23T2300,2531A,105.0703,29.61,内江市,市监测站,,,20,20,12,16,109,,122,119,,8,7,7,0.6,0.6
2025-06-23T2300,2532A,105.0717,29.5947,内江市,东兴区政府,,40,27,20,8,11,126,,127,127,10,10,1,2,0.4,0.5
2025-06-23T2300,2533A,105.0653,29.5817,内江市,内江二中,,35,21,22,13,20,112,,121,121,12,11,8,4,0.5,0.5
2025-06-23T2300,2534A,105.0406,29.5822,内江市,内江日报社,,38,18,20,11,18,119,,124,122,12,9,8,10,0.3,0.3
2025-06-23T2300,2628A,92.0657,31.4846,那曲市,那曲监测站,,37,18,35,14,22,117,,111,110,12,19,6,10,0.3,0.3
2025-06-23T2300,4243A,92.0515,31.4787,那曲市,那曲市委宣传部,,39,10,23,8,10,124,,119,118,10,16,9,10,0.4,0.3
2025-06-23T2300,1290A,115.8931,28.6843,南昌市,省外办,,23,13,9,9,7,73,,80,77,16,13,2,3,0.6,0.6
2025-06-23T2300,1291A,115.8886,28.7003,南昌市,省林业公司,,22,7,2,3,4,70,,79,76,14,11,8,8,0.7,0.7
2025-06-23T2300,1292A,115.8126,28.7442,南昌市,林科所,,16,6,1,3,1,50,,73,65,12,6,4,4,0.6,0.6
2025-06-23T2300,1294A,115.8518,28.687,南昌市,建工学校,,26,,7,18,12,75,,77,75,9,6,5,6,0.5,0.5
2025-06-23T2300,1295A,115.8921,28.6424,南昌市,象湖,,25,6,9,3,5,77,,79,74,12,11,6,6,0.7,0.7
2025-06-23T2300,1296A,115.7423,28.7996,南昌市,武术学校,,17,16,12,7,10,52,,66,61,4,3,6,11,0.4,0.4
2025-06-23T2300,3046A,115.9084,28.6062,南昌市,机电学校,,24,8,8,3,5,76,,77,67,12,12,2,2,0.6,0.7
2025-06-23T2300,3690A,115.9721,28.7031,南昌市,外国语学校,,27,6,4,3,4,84,,87,81,8,6,10,8,0.7,0.7
2025-06-23T2300,4192A,115.9316,28.68677,南昌市,南京东路235号,,25,10,9,3,0,79,,78,76,14,14,3,3,0.5,0.5
2025-06-23T2300,1906A,106.0789,30.8023,南充市,南充市委,,31,16,16,7,10,98,,127,120,18,10,6,5,0.4,0.3
2025-06-23T2300,1907A,106.1031,30.8217,南充市,南充炼油厂,,30,20,18,15,13,95,,118,111,13,8,5,6,0.2,0.2
2025-06-23T2300,4227A,106.1083,30.7884,南充市,梨树横街98号,,,29,19,,10,94,,120,116,15,9,5,5,0.3,0.3
2025-06-23T2300,4304A,106.1172,30.843,南充市,清泉寺北路188号,,30,28,20,18,12,96,,120,117,11,9,3,4,0.3,0.3
2025-06-23T2300,4305A,106.067,30.7616,南充市,同庆路1号,,31,31,16,17,11,89,,117,111,14,8,4,4,0.2,0.2
2025-06-23T2300,1151A,118.8086,32.1065,南京市,迈皋桥,,25,20,28,7,19,78,,104,91,17,21,4,4,0.3,0.5
2025-06-23T2300,1152A,118.7538,32.0551,南京市,草场门,,27,24,33,9,20,84,,112,102,23,23,3,3,0.4,0.5
2025-06-23T2300,1153A,118.7794,32.0745,南京市,山西路,,30,27,36,14,17,94,,121,111,18,22,4,5,0.3,0.4
2025-06-23T2300,1154A,118.7752,32.0023,南京市,中华门,,25,22,28,17,20,74,,100,85,16,20,8,8,0.8,0.6
2025-06-23T2300,1155A,118.8109,32.0309,南京市,瑞金路,,22,22,30,14,21,67,,104,86,16,14,6,6,0.4,0.3
2025-06-23T2300,1156A,118.7997,32.0754,南京市,玄武湖,,27,27,34,6,14,85,,102,95,10,11,4,4,0.3,0.4
2025-06-23T2300,1157A,118.6414,32.0931,南京市,浦口,,37,37,32,18,17,51,,96,73,24,21,3,4,0.3,0.3
2025-06-23T2300,1158A,118.7356,31.9996,南京市,奥体中心,,32,32,31,17,20,78,,110,100,25,30,4,5,0.3,0.4
2025-06-23T2300,1159A,118.9125,32.1028,南京市,仙林大学城,,,34,39,12,15,,,113,104,14,16,6,7,0.5,0.6
2025-06-23T2300,3422A,118.8436,31.9198,南京市,江宁彩虹桥,,28,20,26,19,18,64,,112,90,25,19,3,3,0.6,0.8
2025-06-23T2300,3427A,118.8554,32.3578,南京市,六合雄州,,38,38,31,22,21,58,,121,91,39,23,3,4,0.6,0.6
2025-06-23T2300,4249A,118.8708,31.3402,南京市,汶溪路181号,,30,29,20,21,16,88,,101,95,20,20,3,3,0.8,0.8
2025-06-23T2300,4312A,119.019,31.6512,南京市,中山西路1号,,27,27,24,14,17,56,,106,89,21,13,3,4,0.6,0.8
2025-06-23T2300,1401A,108.3103,22.7881,南宁市,二十一中,,12,11,20,8,8,38,,69,56,12,10,1,3,0.6,0.5
2025-06-23T2300,1402A,108.3141,22.8528,南宁市,北湖,,26,26,21,9,9,41,,75,58,10,9,4,4,0.5,0.4
2025-06-23T2300,1403A,108.3206,22.8225,南宁市,市监测站,,17,17,18,11,10,41,,72,56,8,8,6,6,0.6,0.5
2025-06-23T2300,1404A,108.3829,22.8037,南宁市,大自然花园,,21,21,21,12,10,46,,82,72,8,6,5,4,0.6,0.4
2025-06-23T2300,1406A,108.2397,22.8467,南宁市,区农职院,,20,20,21,12,9,37,,79,54,12,11,4,4,0.4,0.4
2025-06-23T2300,1407A,108.3275,22.735,南宁市,英华嘉园,,20,20,20,6,9,39,,72,56,14,13,8,7,0.6,0.5
2025-06-23T2300,3401A,108.4834,22.7618,南宁市,红星社区,,30,30,20,10,11,40,,79,72,8,5,3,2,0.6,0.5
2025-06-23T2300,4221A,108.2177,22.7774,南宁市,乐贤路16号,,17,17,21,8,10,29,,70,43,15,15,6,6,0.5,0.5
2025-06-23T2300,2332A,118.1681,26.6369,南平市,南平市监测站,,16,16,16,10,10,26,,66,37,12,12,6,5,0.6,0.6
2025-06-23T2300,2333A,118.1825,26.6489,南平市,南平铝业有限公司,,30,30,20,3,4,9,,66,34,24,12,5,5,0.7,0.7
2025-06-23T2300,2334A,118.1756,26.6272,南平市,南平七中,,18,18,17,11,8,14,,68,36,13,9,5,5,0.5,0.5
2025-06-23T2300,1168A,120.9098,31.9663,南通市,狼山街道,,27,14,12,6,5,85,,108,99,8,7,3,3,0.5,0.6
2025-06-23T2300,1169A,120.86,32.0005,南通市,虹桥,,30,13,14,8,9,93,,104,98,11,13,1,2,0.6,0.6
2025-06-23T2300,1170A,120.87,32.02,南通市,城中,,29,17,14,6,6,92,,104,99,7,8,2,3,0.7,0.7
2025-06-23T2300,1171A,120.94,31.93,南通市,星湖花园,,28,8,9,8,10,87,,104,92,11,11,2,2,0.4,0.4
2025-06-23T2300,1172A,120.81,32.0417,南通市,紫琅学院,,29,10,15,3,2,90,,103,99,8,11,4,5,0.5,0.5
2025-06-23T2300,3291A,121.067,32.062,南通市,通州监测站,,33,,8,7,5,103,,110,105,3,5,4,5,0.5,0.6
2025-06-23T2300,3432A,120.9348,31.9883,南通市,环境教育馆,,27,19,18,8,5,86,,106,97,12,9,2,2,0.1,0.1
2025-06-23T2300,2404A,112.5224,33.0122,南阳市,瓦房庄,,41,41,37,22,17,123,,176,164,16,12,6,6,0.6,0.5
2025-06-23T2300,2405A,112.5003,32.9735,南阳市,汉画馆,,38,38,33,16,15,117,,170,157,20,14,6,6,0.6,0.6
2025-06-23T2300,2406A,112.5573,33.027,南阳市,气象站,,38,37,31,19,16,120,,177,163,18,9,4,5,0.5,0.5
2025-06-23T2300,2407A,112.5481,32.9689,南阳市,理工学院,,39,39,31,25,18,114,,168,154,19,12,5,6,0.4,0.4
2025-06-23T2300,4008A,112.5234,32.9922,南阳市,卧龙区政府,,43,43,30,17,17,127,,178,166,14,11,4,5,0.5,0.5
2025-06-23T2300,1234A,121.8358,29.911,宁波市,区环保大楼,,37,37,30,15,13,73,,101,99,34,27,4,3,0.7,0.6
2025-06-23T2300,1235A,121.56,29.82,宁波市,万里学院,,22,15,22,7,19,70,,95,93,28,18,2,2,0.8,0.7
2025-06-23T2300,1236A,121.713,29.9572,宁波市,龙赛医院,,31,28,24,11,12,99,,122,122,25,18,5,5,0.6,0.5
2025-06-23T2300,1239A,121.633,29.7733,宁波市,钱湖水厂,,29,11,20,8,15,92,,90,90,5,8,4,4,0.5,0.4
2025-06-23T2300,1240A,121.5856,29.8635,宁波市,太古小学,,27,19,23,12,13,85,,96,96,15,14,4,3,0.7,0.7
2025-06-23T2300,1241A,121.524,29.8674,宁波市,市环境监测中心,,28,28,26,12,13,85,,92,91,15,19,4,4,0.8,0.7
2025-06-23T2300,2871A,121.6147,29.9017,宁波市,万里国际学校,,28,22,18,15,13,87,,97,97,21,20,3,3,0.7,0.6
2025-06-23T2300,3710A,121.5594,29.8975,宁波市,白沙活动中心,,27,20,19,16,13,84,,95,94,18,16,3,3,0.5,0.4
2025-06-23T2300,2341A,119.5388,26.6612,宁德市,宁德市监测站,,13,,41,9,21,34,,150,87,24,17,4,6,0.6,0.7
2025-06-23T2300,3209A,119.5231,26.6562,宁德市,宁德一中,,13,13,33,3,24,39,,152,92,9,9,3,5,0.3,0.6
2025-06-23T2300,2618A,98.8601,25.8567,怒江傈僳族自治州,州监测站,,22,21,15,15,9,20,,52,41,10,6,6,7,0.5,0.4
2025-06-23T2300,2619A,98.8546,25.8417,怒江傈僳族自治州,泸水一中,,,16,10,,5,3,,39,24,17,8,5,5,0.5,0.4
2025-06-23T2300,1888A,101.6891,26.571,攀枝花市,弄弄坪,,15,15,50,3,21,37,,83,63,12,23,10,17,0.7,1.3
2025-06-23T2300,1889A,101.5769,26.5928,攀枝花市,河门口,,24,24,25,6,14,9,,88,60,34,16,3,6,0.6,1
2025-06-23T2300,1890A,101.7169,26.585,攀枝花市,炳草岗,,31,31,45,6,21,24,,86,61,26,26,19,16,1.3,1.3
2025-06-23T2300,1891A,101.7369,26.5008,攀枝花市,仁和,,12,9,17,3,9,36,,69,55,5,9,8,8,0.5,0.5
2025-06-23T2300,2835A,101.7227,26.567,攀枝花市,四十中小,,19,19,36,10,23,39,,94,74,10,17,10,24,1.0,1.2
2025-06-23T2300,1604A,122.0303,41.1489,盘锦市,开发区,臭氧1小时,84,,45,52,40,187,,240,215,22,21,5,7,0.8,0.7
2025-06-23T2300,1605A,122.0485,41.0883,盘锦市,兴隆台,臭氧1小时,57,,44,37,29,165,,232,200,35,23,4,6,0.6,0.6
2025-06-23T2300,1606A,121.8297,41.1028,盘锦市,新生街道,细颗粒物(PM2.5),63,45,38,45,34,167,,225,199,11,13,6,8,0.7,0.7
2025-06-23T2300,1832A,113.3257,33.742,平顶山市,新华旅馆,颗粒物(PM10),60,70,47,29,20,124,,174,161,19,19,5,6,0.5,0.5
2025-06-23T2300,1833A,113.2919,33.737,平顶山市,规划设计院,,50,50,45,29,24,137,,168,159,11,15,6,6,0.5,0.5
2025-06-23T2300,1834A,113.182,33.774,平顶山市,平顶山工学院,,45,45,36,22,18,132,,177,167,12,11,2,2,0.4,0.4
2025-06-23T2300,3204A,113.3025,33.73,平顶山市,规划局,,,44,41,26,19,,,180,,14,18,6,6,0.5,0.5
2025-06-23T2300,3594A,112.8867,33.9116,平顶山市,石龙区,颗粒物(PM10),68,85,55,32,24,116,,186,163,34,23,7,9,0.5,0.5
2025-06-23T2300,2656A,106.6692,35.5461,平凉市,聚贤嘉苑,,49,49,35,14,13,76,,131,117,36,15,8,8,0.8,0.8
2025-06-23T2300,2657A,106.7021,35.5307,平凉市,博物馆,,49,49,37,17,13,69,,138,120,36,13,10,10,1.0,0.7
2025-06-23T2300,2347A,114.0997,27.5002,萍乡市,武功山,,6,,4,3,2,10,,,,3,3,18,16,0.4,0.4
2025-06-23T2300,2348A,113.8385,27.6434,萍乡市,中医院,,21,21,30,9,20,57,,75,68,12,16,12,16,0.9,1.2
2025-06-23T2300,2349A,113.8493,27.6253,萍乡市,市政府车库,,31,31,19,19,18,36,,66,58,16,13,10,11,0.8,0.6
2025-06-23T2300,2350A,113.8676,27.6435,萍乡市,市环保局,颗粒物(PM10),61,72,46,17,16,43,,68,58,20,17,12,13,0.9,1.2
2025-06-23T2300,2351A,113.866,27.6198,萍乡市,安源区政府,,29,26,19,20,17,35,,69,61,14,10,8,8,0.7,0.6
2025-06-23T2300,2319A,119.0141,25.4325,莆田市,荔城区仓后路,,40,40,44,12,20,26,,136,84,23,15,4,3,0.5,0.6
2025-06-23T2300,2320A,119.0015,25.4553,莆田市,莆田市监测站,,32,32,39,20,21,37,,145,93,19,14,5,5,0.4,0.4
2025-06-23T2300,2321A,119.1119,25.4561,莆田市,涵江区六中,,27,27,37,14,20,33,,140,76,19,18,2,2,0.4,0.5
2025-06-23T2300,2322A,119.1013,25.3215,莆田市,秀屿区政府,,15,15,30,6,18,44,,126,74,12,12,6,6,0.5,0.5
2025-06-23T2300,2392A,115.0312,35.7636,濮阳市,环保局,,40,,35,20,21,127,,189,179,14,18,6,6,0.3,0.3
2025-06-23T2300,2394A,115.0574,35.7609,濮阳市,油田运输公司,,44,44,45,14,18,120,,182,164,22,18,6,6,0.6,0.5
2025-06-23T2300,3021A,115,35.7668,濮阳市,濮水河管理处,,33,33,40,23,23,105,,158,135,22,25,4,4,0.3,0.4
2025-06-23T2300,4216A,115.0924,35.7686,濮阳市,任丘路479号,,41,41,57,19,25,122,,176,158,14,15,7,7,0.7,0.7
2025-06-23T2300,2601A,100.98,22.7633,普洱市,市环保局,颗粒物(PM10),70,89,24,14,12,29,,36,32,5,4,4,4,0.6,0.6
2025-06-23T2300,2602A,100.9817,22.8322,普洱市,普洱第二中学,,25,,19,17,10,26,,38,30,7,6,6,6,0.5,0.5
2025-06-23T2300,2262A,131.0518,45.8751,七台河市,新一中,,34,24,22,15,12,108,,134,132,23,8,12,10,0.9,0.8
2025-06-23T2300,3345A,131.0577,45.7879,七台河市,中波台,,31,13,20,8,8,99,,93,89,12,15,6,7,0.3,0.3
2025-06-23T2300,3637A,131.0176,45.7761,七台河市,人民广场,,48,48,33,25,21,84,,88,79,23,16,11,12,0.6,0.5
2025-06-23T2300,3684A,130.8781,45.8222,七台河市,新建矿广场,,32,24,40,22,13,61,,96,90,30,18,11,10,0.4,0.4
2025-06-23T2300,1779A,123.9305,47.3636,齐齐哈尔市,安居小区,颗粒物(PM10),64,78,40,17,14,68,,134,108,25,22,9,10,0.6,0.6
2025-06-23T2300,1780A,123.9488,47.3386,齐齐哈尔市,中心广场,,42,42,38,7,12,86,,142,118,14,18,8,9,0.6,0.7
2025-06-23T2300,1781A,123.9483,47.3227,齐齐哈尔市,农牧车辆厂,,39,39,44,15,13,69,,132,108,19,15,7,8,0.0,0.1
2025-06-23T2300,1783A,123.945,47.2988,齐齐哈尔市,市环境监测站,,32,30,32,22,13,63,,142,114,20,13,3,5,0.3,0.3
2025-06-23T2300,3662A,123.6333,47.2075,齐齐哈尔市,富区青少年活动中心,,35,35,49,17,26,84,,129,113,14,25,4,26,0.5,1.4
2025-06-23T2300,2591A,107.9783,26.5747,黔东南苗族侗族自治州,市环境监测站,,14,7,6,3,5,44,,47,44,4,6,2,2,0.5,0.6
2025-06-23T2300,2881A,107.8908,26.5311,黔东南苗族侗族自治州,凯里学院,,13,,2,3,5,41,,56,48,10,6,2,2,0.4,0.4
2025-06-23T2300,2593A,107.5228,26.2403,黔南布依族苗族自治州,小围寨,,8,6,2,3,0,25,,41,37,6,6,4,2,0.5,0.4
2025-06-23T2300,3538A,107.5175,26.2978,黔南布依族苗族自治州,沙坝,,12,12,7,3,0,20,,46,38,10,7,5,5,0.7,0.6
2025-06-23T2300,2589A,104.9022,25.0925,黔西南布依族苗族自治州,场坝街,,11,10,16,3,6,34,,80,56,5,8,3,4,0.3,0.4
2025-06-23T2300,2590A,104.8811,25.0992,黔西南布依族苗族自治州,坪东大道,,26,26,17,7,7,23,,72,48,10,12,1,1,0.2,0.3
2025-06-23T2300,2502A,108.6236,21.9667,钦州市,市环保站,,14,14,20,3,7,39,,65,52,10,10,3,3,0.2,0.4
2025-06-23T2300,2503A,108.6549,21.9481,钦州市,沙埠小学,,33,33,33,12,12,21,,64,45,25,17,3,3,0.4,0.4
2025-06-23T2300,2504A,108.5989,21.7431,钦州市,港区一小,,26,26,29,7,9,42,,51,46,9,16,2,3,0.4,0.4
2025-06-23T2300,3404A,108.5959,21.9633,钦州市,北职校,,22,22,23,7,8,35,,64,50,10,8,4,3,0.3,0.4
2025-06-23T2300,1043A,119.7493,40.0116,秦皇岛市,第一关,臭氧1小时,92,71,62,48,30,193,,249,239,5,44,4,7,0.5,0.4
2025-06-23T2300,1044A,119.5897,39.9499,秦皇岛市,监测站,臭氧1小时,87,59,61,34,22,189,,262,247,10,32,4,7,0.6,0.5
2025-06-23T2300,1046A,119.5251,39.9041,秦皇岛市,建设大厦,臭氧1小时,89,64,59,31,21,191,,252,244,9,33,4,9,0.6,0.5
2025-06-23T2300,3132A,119.610547,39.943889,秦皇岛市,文明里,臭氧1小时,88,66,70,43,26,190,,259,249,2,32,4,7,0.4,0.4
2025-06-23T2300,4198A,119.5090,39.8253,秦皇岛市,北戴河轮滑馆,细颗粒物(PM2.5),58,53,76,41,45,157,,253,234,6,16,2,4,0.4,0.6
2025-06-23T2300,1307A,120.6659,36.2403,青岛市,仰口,,23,23,37,15,22,62,,139,84,10,11,7,7,0.5,0.7
2025-06-23T2300,1310A,120.4134,36.0658,青岛市,市南区东部子站,,20,17,39,14,30,52,,143,73,36,13,12,9,0.3,0.4
2025-06-23T2300,1311A,120.3664,36.1032,青岛市,四方区子站,,35,,46,24,31,106,,167,114,22,17,11,8,0.4,0.6
2025-06-23T2300,1312A,120.2994,36.054,青岛市,市南区西部子站,,22,22,42,12,29,43,,173,75,43,15,8,8,0.5,0.6
2025-06-23T2300,1313A,120.4581,36.0858,青岛市,崂山区子站,,30,22,37,14,29,28,,144,85,59,13,12,7,0.3,0.4
2025-06-23T2300,1315A,120.3999,36.3083,青岛市,城阳区子站,,33,31,43,15,22,104,,157,109,27,23,6,6,0.4,0.4
2025-06-23T2300,1966A,120.0405,35.8735,青岛市,黄岛区4号,,26,14,38,7,26,82,,161,100,10,13,9,9,0.6,0.8
2025-06-23T2300,3362A,120.5014,36.4034,青岛市,即墨2号,,35,25,41,7,32,112,,150,129,10,13,2,3,0.2,0.3
2025-06-23T2300,3642A,120.3503,36.0736,青岛市,市北区南部,,22,,37,14,33,70,,149,82,21,12,8,8,0.4,0.6
2025-06-23T2300,3643A,120.3948,36.1805,青岛市,李沧区北部,,34,34,47,19,31,101,,150,107,22,18,9,9,0.6,0.7
2025-06-23T2300,4290A,120.1969,35.9546,青岛市,珠江路669号,,26,7,33,7,27,82,,172,98,5,6,6,6,0.2,0.4
2025-06-23T2300,1702A,113.0426,23.691,清远市,环保大楼,,15,15,14,8,14,48,,116,103,25,18,5,7,0.6,0.3
2025-06-23T2300,1703A,113.0208,23.7106,清远市,凤城街办,,25,25,24,13,12,46,,98,90,26,22,7,8,0.4,0.4
2025-06-23T2300,3025A,113.0477,23.6344,清远市,技师学院,,29,29,27,12,13,41,,106,89,22,20,8,8,0.5,0.5
2025-06-23T2300,3318A,112.9903,23.7403,清远市,清新太和,,28,28,27,10,13,55,,90,84,27,19,7,9,0.5,0.4
2025-06-23T2300,3455A,113.076,23.7198,清远市,清城东城,,26,26,27,8,14,46,,110,98,29,15,9,9,0.4,0.3
2025-06-23T2300,2661A,107.6325,35.7357,庆阳市,庆阳五中,,37,34,25,20,15,118,,136,128,14,8,6,5,0.4,0.4
2025-06-23T2300,2662A,107.6364,35.7067,庆阳市,市环保局,,39,34,27,15,11,123,,139,133,10,7,17,9,0.5,0.5
2025-06-23T2300,1916A,103.7897,25.5035,曲靖市,环境监测站,,20,20,18,3,8,25,,83,58,10,11,3,3,0.5,0.6
2025-06-23T2300,1917A,103.8,25.5364,曲靖市,烟厂办公区,,11,10,19,7,11,34,,82,62,7,12,3,3,0.6,0.7
2025-06-23T2300,3376A,103.7947,25.462,曲靖市,南苑二区,,9,6,14,6,9,25,,87,61,9,9,3,4,0.5,0.6
2025-06-23T2300,3377A,103.7444,25.5261,曲靖市,曲靖师范学院,,12,12,17,3,13,37,,84,65,6,12,5,8,0.3,0.5
2025-06-23T2300,1264A,118.8692,28.9398,衢州市,环保大楼,,14,6,17,3,10,42,,51,50,7,10,3,3,0.2,0.3
2025-06-23T2300,1265A,118.8709,28.9666,衢州市,实验学校,,15,6,14,3,11,45,,57,52,6,9,3,4,0.2,0.2
2025-06-23T2300,1266A,118.8621,28.9808,衢州市,衢州学院,,16,6,13,3,9,49,,63,56,8,11,3,4,0.3,0.4
2025-06-23T2300,1611A,118.5819,24.9117,泉州市,涂山街,,24,24,44,11,18,36,,123,78,24,26,4,9,0.5,0.6
2025-06-23T2300,1612A,118.5972,24.8978,泉州市,津头埔,,22,22,39,9,19,41,,121,78,18,23,3,6,0.5,0.5
2025-06-23T2300,1613A,118.6663,24.9424,泉州市,万安,,21,21,39,7,16,50,,122,80,7,19,3,5,0.4,0.5
2025-06-23T2300,3529A,118.6333,24.9264,泉州市,城华南路,,18,18,34,9,17,40,,117,73,15,21,5,7,0.4,0.5
2025-06-23T2300,2626A,88.8876,29.2718,日喀则市,日喀则监测站,,38,6,8,3,3,120,,118,118,4,4,13,13,0.3,0.3
2025-06-23T2300,3726A,88.8781,29.2426,日喀则市,林业技术推广中心,,38,6,11,3,2,120,,116,116,2,3,9,9,0.4,0.4
2025-06-23T2300,1659A,119.471,35.4209,日照市,监测站,,20,19,50,10,46,64,,159,106,36,29,6,5,0.5,0.8
2025-06-23T2300,1660A,119.523,35.4216,日照市,市政府广场,,24,22,47,6,30,74,,137,102,15,12,6,8,0.4,0.8
2025-06-23T2300,1661A,119.5587,35.4044,日照市,港务局,,23,19,39,13,36,71,,135,108,14,8,7,7,0.5,0.7
2025-06-23T2300,3507A,119.5328,35.4625,日照市,职业技术学院,,25,22,47,3,28,79,,151,109,14,15,4,6,0.4,0.7
2025-06-23T2300,3604A,119.3266,35.1044,日照市,岚山环保分局,,24,22,50,3,24,75,,157,100,24,21,8,13,0.5,0.9
2025-06-23T2300,1835A,111.1922,34.7752,三门峡市,市政府,,49,40,42,27,23,156,,187,180,13,16,6,8,0.5,0.5
2025-06-23T2300,1836A,111.1587,34.7942,三门峡市,开发区,,48,48,42,21,24,152,,193,183,24,19,6,8,0.4,0.5
2025-06-23T2300,3039A,111.1911,34.7829,三门峡市,三门峡市第一小学,,50,34,44,17,18,157,,188,182,13,15,8,10,0.7,0.7
2025-06-23T2300,3598A,111.1,34.7167,三门峡市,富达温泉假日酒店,,48,32,30,23,23,152,,187,180,15,13,9,10,0.2,0.2
2025-06-23T2300,2324A,117.6211,26.2625,三明市,三钢,,29,20,21,20,17,13,,61,32,19,15,4,12,0.6,1.2
2025-06-23T2300,2325A,117.635,26.2714,三明市,三明二中,,21,21,18,13,9,16,,64,34,16,13,1,4,0.6,0.7
2025-06-23T2300,2326A,117.6028,26.2378,三明市,三元区政府,,16,14,18,11,9,30,,68,42,10,9,5,6,0,0.1
2025-06-23T2300,1876A,109.5078,18.2489,三亚市,河东子站,,20,20,10,9,4,38,,46,41,6,5,4,5,0.4,0.4
2025-06-23T2300,1877A,109.4964,18.2681,三亚市,河西子站,,19,15,13,13,7,38,,46,39,8,8,2,2,0.3,0.3
2025-06-23T2300,3540A,109.7348,18.3443,三亚市,君悦子站,,18,9,10,7,6,55,,56,,2,4,2,2,0.2,0.2
2025-06-23T2300,2624A,91.7608,29.2313,山南市,山南监测站,,25,11,11,3,5,79,,121,105,15,5,4,6,0.4,0.3
2025-06-23T2300,2625A,91.7706,29.2436,山南市,山南人民医院,,27,18,18,11,8,86,,123,106,11,7,7,7,0.2,0.2
2025-06-23T2300,1674A,116.6794,23.3667,汕头市,金平子站,,13,,13,8,9,40,,66,56,7,4,7,6,0.4,0.4
2025-06-23T2300,1675A,116.7244,23.3633,汕头市,龙湖子站,,14,10,16,3,8,44,,61,54,6,6,5,5,0.4,0.4
2025-06-23T2300,1676A,116.7258,23.2775,汕头市,濠江子站,,15,12,17,10,8,43,,53,50,7,6,5,4,0.5,0.5
2025-06-23T2300,1677A,116.7519,23.4714,汕头市,澄海子站,,18,12,21,12,10,39,,70,55,8,7,2,3,0.5,0.5
2025-06-23T2300,1678A,116.6092,23.2539,汕头市,潮阳子站,,,17,15,12,7,50,,60,58,3,3,4,4,,0.5
2025-06-23T2300,3444A,116.454,23.2684,汕头市,潮南峡山,,15,13,26,3,10,45,,56,51,6,5,6,5,0.3,0.4
2025-06-23T2300,3624A,116.4069,23.2533,汕头市,潮南子站,,15,9,15,3,8,47,,55,51,3,3,4,4,0.5,0.5
2025-06-23T2300,1693A,115.3653,22.775,汕尾市,市环保局,,16,6,9,3,5,51,,65,63,8,5,2,2,0.3,0.3
2025-06-23T2300,1694A,115.3706,22.7898,汕尾市,市政府,,17,8,9,6,4,53,,66,64,8,4,4,4,0.4,0.4
2025-06-23T2300,1695A,115.3622,22.7925,汕尾市,新城中学,,16,14,11,3,4,51,,65,63,7,4,4,3,0.5,0.5
2025-06-23T2300,2645A,109.9154,33.8715,商洛市,监测站,,26,24,30,15,18,82,,152,125,24,15,10,9,0.4,0.4
2025-06-23T2300,3045A,109.9643,33.8471,商洛市,商州区中学,,46,46,33,15,14,47,,148,112,48,19,10,8,0.5,0.5
2025-06-23T2300,2408A,115.6702,34.4285,商丘市,环境监测站,颗粒物(PM10),67,83,57,34,29,128,,169,149,11,14,3,3,0.5,0.5
2025-06-23T2300,2409A,115.6458,34.4045,商丘市,粮食局,细颗粒物(PM2.5),52,,40,36,30,132,,172,153,10,11,5,5,0.3,0.3
2025-06-23T2300,2410A,115.6293,34.3948,商丘市,睢阳区环保局,,48,44,48,33,27,115,,164,143,14,16,2,3,0.3,0.3
2025-06-23T2300,3171A,115.6071,34.4465,商丘市,梁园区档案局,细颗粒物(PM2.5),53,45,48,37,27,116,,170,147,14,14,2,3,0.5,0.5
2025-06-23T2300,1141A,121.4,31.238,上海市,普陀,,23,18,9,12,6,73,,90,82,20,17,4,4,0.3,0.3
2025-06-23T2300,1142A,121.478,31.2036,上海市,十五厂,,26,26,8,18,6,55,,95,79,34,16,7,7,0.5,0.4
2025-06-23T2300,1143A,121.467,31.3008,上海市,虹口,,22,18,8,11,7,69,,84,75,20,19,7,7,0.7,0.6
2025-06-23T2300,1147A,121.425,31.2261,上海市,静安监测站,,24,18,9,13,6,74,,89,79,18,17,4,4,0.5,0.5
2025-06-23T2300,1148A,121.703,31.1907,上海市,浦东川沙,,21,21,7,14,5,66,,96,81,22,15,7,7,0.6,0.6
2025-06-23T2300,1149A,121.533,31.2284,上海市,浦东新区监测站,,30,30,9,11,3,52,,92,73,30,14,8,7,0.4,0.4
2025-06-23T2300,1150A,121.577,31.2071,上海市,浦东张江,,23,23,12,13,6,72,,100,84,14,12,5,5,0.7,0.7
2025-06-23T2300,3265A,121.4316,31.3322,上海市,宝山庙行,,22,16,8,3,4,70,,89,77,21,19,8,8,0.3,0.3
2025-06-23T2300,3266A,121.8791,31.4662,上海市,崇明上实东滩,,30,18,9,12,6,96,,114,102,4,5,1,1,0.4,0.4
2025-06-23T2300,3268A,121.3162,31.2838,上海市,嘉定南翔,,42,42,13,19,8,54,,81,66,25,19,6,5,0.5,0.5
2025-06-23T2300,3269A,121.3359,30.7456,上海市,金山新城,,46,39,22,32,14,54,,100,77,24,20,2,2,0.5,0.5
2025-06-23T2300,3270A,121.4996,31.0739,上海市,闵行浦江,,26,26,10,17,7,70,,86,74,16,15,4,3,0.5,0.6
2025-06-23T2300,3271A,121.2886,31.1663,上海市,青浦徐泾,,38,,16,26,11,62,,82,69,20,16,6,5,0.6,0.6
2025-06-23T2300,3272A,121.2186,31.0378,上海市,松江图书馆,,50,50,14,29,11,51,,86,69,19,14,7,7,0.9,0.7
2025-06-23T2300,3273A,121.3902,31.2059,上海市,长宁仙霞,,25,,10,13,7,77,,83,78,14,15,4,5,0.5,0.6
2025-06-23T2300,3274A,121.7965,31.0507,上海市,浦东惠南,,30,30,8,19,6,45,,94,74,35,14,9,9,0.7,0.5
2025-06-23T2300,3544A,121.4891,30.925,上海市,奉贤南桥新城,,36,28,11,25,10,66,,83,76,13,13,6,5,0.6,0.6
2025-06-23T2300,4183A,121.4174,31.16637,上海市,冠生园路458号,,,14,9,14,8,58,,87,72,12,12,4,4,,0.6
2025-06-23T2300,4205A,121.5419,31.2683,上海市,宁武路151号,,21,21,10,10,6,64,,90,73,25,20,7,6,0.3,0.3
2025-06-23T2300,2382A,117.9756,28.4436,上饶市,市监测站,,17,17,24,10,13,49,,79,63,5,8,7,9,0.4,0.5
2025-06-23T2300,2383A,117.9519,28.4628,上饶市,凤凰光学,,15,,10,3,12,45,,73,58,6,7,8,10,0.7,0.7
2025-06-23T2300,3685A,117.897,28.4315,上饶市,双创科技城,,14,9,17,3,10,44,,74,54,10,12,10,11,0.7,0.3
2025-06-23T2300,4211A,118.1904,28.4448,上饶市,裕丰大道,,21,21,19,10,12,46,,78,63,7,6,9,16,0.6,0.6
2025-06-23T2300,1669A,113.5824,24.7733,韶关市,市八中,,20,20,27,6,11,62,,77,75,19,14,8,13,0.4,0.4
2025-06-23T2300,1671A,113.5917,24.7972,韶关市,园林处,,25,25,18,10,10,61,,74,72,15,10,9,11,0.6,0.6
2025-06-23T2300,1673A,113.5971,24.6863,韶关市,曲江监测站,,30,30,20,15,12,48,,80,75,24,13,8,7,0.7,0.8
2025-06-23T2300,2809A,113.6668,24.7756,韶关市,大学路288号,,22,18,20,15,9,52,,76,74,8,9,7,9,0.4,0.5
2025-06-23T2300,3622A,113.5556,24.8082,韶关市,碧湖山庄,,29,29,24,12,11,61,,79,78,18,13,7,8,0.5,0.5
2025-06-23T2300,2464A,111.5283,27.2442,邵阳市,市化工厂,,32,29,17,22,12,51,,76,51,11,11,6,5,0.7,0.5
2025-06-23T2300,2466A,111.4328,27.2272,邵阳市,市环保局,,43,,15,30,14,47,,81,58,10,8,4,3,0.6,0.5
2025-06-23T2300,4218A,111.4460,27.2472,邵阳市,北塔二期4-26地块,,32,32,17,19,12,44,,70,51,11,9,4,4,0.6,0.5
2025-06-23T2300,4219A,111.4739,27.2282,邵阳市,邵水西路287号,,35,26,16,24,13,50,,79,50,10,11,4,4,0.6,0.5
2025-06-23T2300,1247A,120.6053,29.9928,绍兴市,城东开发委,,38,29,16,26,14,88,,97,97,8,12,3,3,0.5,0.5
2025-06-23T2300,2921A,120.5483,30.0003,绍兴市,树下王站,,33,24,13,19,11,104,,104,104,10,13,6,6,0.6,0.5
2025-06-23T2300,3408A,120.5683,29.9361,绍兴市,绍兴中专,,32,32,18,21,13,96,,96,96,10,14,4,3,0.2,0.2
2025-06-23T2300,3409A,120.4906,30.0861,绍兴市,柯桥区政府,,29,29,19,19,13,87,,94,93,12,17,10,10,0.6,0.6
2025-06-23T2300,3410A,120.8752,30.0249,绍兴市,重华小学,,,21,19,19,17,102,,100,100,10,15,5,5,,0.5
2025-06-23T2300,3411A,120.8369,30.0137,绍兴市,上虞中学,,39,29,22,27,19,105,,109,109,9,19,6,6,0.5,0.5
