timepoint,stationcode,longitude,latitude,area,positionname,primarypollutant,aqi,pm10,pm10_24h,pm2_5,pm2_5_24h,o3,o3_24h,o3_8h,o3_8h_24h,no2,no2_24h,so2,so2_24h,co,co_24h
2024-08-25T1800,2566A,102.1879,31.914,阿坝藏族羌族自治州,州农科所,,27,6,30,3,10,86,,38,,2,20,14,8,0.4,0
2024-08-25T1800,2568A,102.2502,31.8896,阿坝藏族羌族自治州,马师校,,36,15,16,6,11,115,,110,110,7,11,4,3,0.3,0.4
2024-08-25T1800,3994A,102.2165,31.9024,阿坝藏族羌族自治州,马尔康中学西区,,34,25,19,10,15,108,,105,105,7,10,4,4,0.3,0.4
2024-08-25T1800,2695A,80.292,41.1694,阿克苏地区,电视台,颗粒物(PM10),70,89,48,15,19,137,,109,109,7,12,4,3,0.3,0.4
2024-08-25T1800,2696A,80.2613,41.1551,阿克苏地区,艺术中心,颗粒物(PM10),67,83,47,16,17,138,,108,108,4,11,4,4,0.3,0.5
2024-08-25T1800,2204A,105.6467,38.8363,阿拉善盟,西城区西花园,,34,,62,8,24,107,,115,88,7,10,8,8,1.2,1.2
2024-08-25T1800,2205A,105.6985,38.8411,阿拉善盟,蒙二幼,,29,6,47,3,18,90,,102,78,6,6,8,8,0.6,0.7
2024-08-25T1800,2206A,105.724,38.8516,阿拉善盟,环保局新楼,,30,6,23,3,12,96,,109,80,6,6,9,9,0.5,0.5
2024-08-25T1800,2708A,88.1264,47.8517,阿勒泰地区,市站,,36,12,28,3,10,115,,91,82,8,17,7,7,0.5,0.5
2024-08-25T1800,2630A,80.1161,32.5,阿里地区,阿里监测站,,31,6,3,3,2,98,,102,102,2,7,6,6,0.3,0.3
2024-08-25T1800,3192A,80.0903,32.5028,阿里地区,阿里藏医院,,,,7,7,4,93,,98,98,2,4,,7,0.3,0.3
2024-08-25T1800,2642A,109.0318,32.6537,安康市,香溪洞,颗粒物(PM10),74,97,23,22,12,98,,102,102,18,11,5,5,0.4,0.3
2024-08-25T1800,2643A,109.0281,32.6939,安康市,安康市监测站,,35,34,23,15,14,112,,112,112,5,7,6,7,0.5,0.5
2024-08-25T1800,2644A,109.0072,32.6975,安康市,汉滨区检察院,,38,23,15,9,11,119,,111,111,6,6,8,7,0.5,0.3
2024-08-25T1800,2291A,117.0809,30.5177,安庆市,环科院,,46,31,45,27,30,147,,163,163,15,27,8,9,0.4,0.7
2024-08-25T1800,2292A,117.0331,30.5119,安庆市,马山宾馆,臭氧1小时,69,40,43,23,30,175,,166,166,13,24,10,10,0.6,0.7
2024-08-25T1800,2294A,116.9896,30.6145,安庆市,安庆大学,,49,26,39,25,30,156,,153,153,6,14,7,8,0.6,0.7
2024-08-25T1800,3173A,117.0598,30.5351,安庆市,市人大,,50,34,41,21,30,160,,168,168,4,14,6,7,0.8,0.9
2024-08-25T1800,3122A,105.9606,26.2611,安顺市,伍家关,,,,,,,,,,,,,,,,
2024-08-25T1800,3123A,105.9408,26.2431,安顺市,凤凰山,,19,8,10,3,6,58,,61,61,3,3,8,8,0.4,0.4
2024-08-25T1800,3124A,105.9439,26.2564,安顺市,金钟山,,19,8,10,3,6,60,,62,62,2,3,5,6,0.3,0.3
2024-08-25T1800,3125A,105.8983,26.2481,安顺市,娄家坡,,19,13,8,8,5,58,,61,61,4,3,7,7,0.4,0.5
2024-08-25T1800,1818A,114.4839,36.0621,安阳市,棉研所,,,,,,,,,,,,,,,,
2024-08-25T1800,1819A,114.3551,36.1017,安阳市,红庙街,,36,33,78,16,39,113,,134,134,1,11,2,4,0.4,0.6
2024-08-25T1800,1820A,114.361,36.0681,安阳市,银杏小区,,,18,65,,14,108,,141,133,1,7,1,2,0.2,0.5
2024-08-25T1800,3141A,114.3922,36.0878,安阳市,信访局,,35,16,65,14,33,112,,139,139,2,9,1,3,0.4,0.6
2024-08-25T1800,3669A,114.4705,36.0637,安阳市,左辅环卫站,,40,40,69,17,46,114,,132,132,3,13,6,7,0.5,0.7
2024-08-25T1800,3703A,114.2917,36.0949,安阳市,安钢职工学校,,40,30,83,28,45,91,,123,123,23,17,20,7,2.2,0.9
2024-08-25T1800,1748A,123.044,41.1196,鞍山市,深沟寺,,30,22,53,11,33,96,,110,110,8,16,5,6,0.6,1.1
2024-08-25T1800,1749A,123.011,41.0931,鞍山市,太阳城,,,20,53,10,34,105,,112,112,,16,,7,0.6,1.1
2024-08-25T1800,1750A,123.0485,41.1442,鞍山市,太平,,34,20,64,9,41,108,,118,118,20,22,8,7,0.6,1.1
2024-08-25T1800,1751A,122.9642,41.0971,鞍山市,铁西三道街,,30,27,85,10,46,96,,112,112,32,37,19,11,1.8,1.6
2024-08-25T1800,1752A,122.9341,41.0833,鞍山市,铁西工业园区,,38,22,71,8,39,121,,127,127,13,28,12,11,0.6,1.3
2024-08-25T1800,1753A,123.022,41.0821,鞍山市,明达新区,,30,20,52,10,45,96,,109,109,12,17,4,6,0.5,1.1
2024-08-25T1800,1754A,123.1289,41.0228,鞍山市,千山,,,,,,,,,,,,,,,,
2024-08-25T1800,2195A,107.4212,40.761,巴彦淖尔市,附二中,,34,21,50,19,26,108,,85,85,4,11,3,4,0.5,0.6
2024-08-25T1800,2196A,107.37,40.7372,巴彦淖尔市,市环保大楼,,41,41,57,13,17,107,,88,88,4,8,3,3,0.3,0.4
2024-08-25T1800,1956A,86.1472,41.7538,巴音郭楞蒙古自治州,孔雀公园,颗粒物(PM10),92,133,101,49,32,96,,95,95,2,41,5,6,0.1,0.6
2024-08-25T1800,1957A,86.1972,41.7166,巴音郭楞蒙古自治州,棉纺厂,颗粒物(PM10),99,147,117,53,40,104,,99,99,6,36,5,5,0.1,0.3
2024-08-25T1800,1958A,86.2357,41.7173,巴音郭楞蒙古自治州,经济开发区,颗粒物(PM10),80,110,137,37,41,100,,101,101,5,17,5,6,0.1,0.2
2024-08-25T1800,2914A,106.7677,31.8794,巴中市,苏山坪,,38,22,31,16,24,120,,114,114,6,8,3,4,0.5,0.5
2024-08-25T1800,3182A,106.7656,31.8545,巴中市,丽阳花园,,39,22,35,18,28,124,,111,111,8,16,4,5,0.4,0.6
2024-08-25T1800,3183A,106.7418,31.8654,巴中市,圣泉水务公司,,39,20,31,16,24,122,,114,114,6,16,5,4,0.5,0.6
2024-08-25T1800,3616A,106.7616,31.8344,巴中市,市中心医院,,39,18,46,14,33,123,,113,113,4,17,5,5,0.5,0.7
2024-08-25T1800,2235A,122.7911,45.6077,白城市,洮北区环保局,,21,16,14,6,6,66,,73,73,6,5,7,5,0.5,0.5
2024-08-25T1800,2236A,122.8738,45.5725,白城市,市环保局,,22,22,20,3,5,61,,71,71,9,8,4,4,0.5,0.5
2024-08-25T1800,2231A,126.4219,41.9171,白山市,喜丰,,36,27,45,16,19,113,,113,113,14,14,10,9,1.0,0.8
2024-08-25T1800,2232A,126.4077,41.9419,白山市,环保局,,34,34,42,21,24,81,,96,96,13,18,13,11,0.6,0.7
2024-08-25T1800,2647A,104.1724,36.5446,白银市,第三小学,颗粒物(PM10),54,58,31,27,17,96,,87,87,10,12,12,8,0.7,0.6
2024-08-25T1800,2648A,104.1465,36.5482,白银市,动力公司,,48,48,28,27,18,88,,84,84,9,10,8,8,0.5,0.5
2024-08-25T1800,2512A,106.6103,23.9011,百色市,市监测站,,24,17,30,11,13,74,,72,72,6,14,11,9,0.6,0.8
2024-08-25T1800,2513A,106.6538,23.8859,百色市,市中心血站,,24,21,27,10,11,74,,73,73,6,11,4,7,0.6,0.7
2024-08-25T1800,3406A,106.6085,23.8798,百色市,祈福高中,,23,16,31,6,12,73,,72,72,6,12,4,6,0.7,0.8
2024-08-25T1800,2270A,117.396,32.939,蚌埠市,工人疗养院,,48,32,52,13,24,153,,183,183,3,19,7,10,0.5,0.5
2024-08-25T1800,2271A,117.3605,32.9427,蚌埠市,百货大楼,,49,38,54,21,29,154,,189,188,2,17,5,7,0.6,0.6
2024-08-25T1800,2273A,117.4185,32.8911,蚌埠市,蚌埠学院,,49,19,40,13,22,156,,186,180,6,15,6,6,0.5,0.6
2024-08-25T1800,2274A,117.3533,32.9673,蚌埠市,淮上区政府,臭氧1小时,54,34,51,21,29,163,,196,196,3,12,7,7,0.8,0.9
2024-08-25T1800,2275A,117.3145,32.8977,蚌埠市,高新区,,50,22,42,15,25,157,,181,181,3,9,5,6,0.7,0.7
2024-08-25T1800,3715A,117.3092,32.9314,蚌埠市,蚌埠田家炳中学,,46,30,49,20,28,147,,187,186,8,10,5,5,0.6,0.7
2024-08-25T1800,1585A,109.8756,40.6532,包头市,市环境监测站,,31,11,31,7,12,97,,74,74,17,37,5,12,0.4,0.6
2024-08-25T1800,1587A,109.9991,40.5842,包头市,包头八中,,41,41,45,20,21,62,,65,65,40,32,38,42,1.2,1
2024-08-25T1800,1588A,109.8538,40.6821,包头市,青山宾馆,,21,11,20,10,13,66,,71,71,31,30,4,6,0.6,0.6
2024-08-25T1800,1589A,109.8642,40.6288,包头市,惠龙物流,,31,,33,15,15,97,,73,73,16,31,7,19,0.7,0.8
2024-08-25T1800,1590A,110.0377,40.5546,包头市,东河鸿龙湾,,28,9,27,3,10,88,,74,74,19,22,9,20,0.8,0.8
2024-08-25T1800,3283A,109.9154,40.5685,包头市,滨河大厦,,25,,25,8,13,78,,72,72,25,27,14,17,0.8,0.6
2024-08-25T1800,3419A,109.9447,40.6261,包头市,包头市委党校,,29,12,31,8,14,92,,73,73,19,32,5,13,0.5,0.6
2024-08-25T1800,3683A,109.8331,40.6576,包头市,昆区政府,,27,9,23,8,13,84,,73,73,24,26,6,7,0.5,0.6
2024-08-25T1800,1930A,107.185,34.3063,宝鸡市,庙沟村,颗粒物(PM10),55,59,59,29,36,121,,124,124,18,10,7,7,0.5,0.5
2024-08-25T1800,1931A,107.0708,34.3017,宝鸡市,竹园沟,颗粒物(PM10),55,59,58,27,38,128,,143,143,12,16,9,8,0.6,0.6
2024-08-25T1800,1932A,107.1906,34.3672,宝鸡市,三陆医院,颗粒物(PM10),54,57,62,29,39,159,,148,148,14,20,10,9,0.7,0.9
2024-08-25T1800,1933A,107.1431,34.3547,宝鸡市,监测站,颗粒物(PM10),73,96,75,33,40,128,,144,144,38,21,8,8,0.5,0.6
2024-08-25T1800,1934A,107.1186,34.3739,宝鸡市,技工学校,颗粒物(PM10),55,59,65,31,46,163,,151,151,14,17,10,9,0.7,0.8
2024-08-25T1800,1935A,107.3906,34.3528,宝鸡市,陈仓区环保局家属楼,,48,45,61,18,50,152,,148,148,14,19,8,8,0.6,0.7
2024-08-25T1800,1936A,107.2058,34.3497,宝鸡市,文理学院,臭氧1小时,53,46,57,24,34,162,,152,152,13,18,10,10,0.7,0.8
2024-08-25T1800,1937A,107.2386,34.3622,宝鸡市,三迪小学,颗粒物(PM10),54,57,62,31,39,159,,149,149,10,15,10,9,0.7,0.8
2024-08-25T1800,1051A,115.493,38.8632,保定市,游泳馆,,30,21,42,7,20,93,,112,101,14,14,3,3,0.2,0.3
2024-08-25T1800,1052A,115.5213,38.8959,保定市,华电二区,,25,24,38,10,24,78,,110,96,13,13,3,4,0.2,0.2
2024-08-25T1800,1053A,115.4713,38.9108,保定市,接待中心,,26,26,48,11,17,80,,108,95,8,10,3,2,0.5,0.6
2024-08-25T1800,1054A,115.4612,38.8416,保定市,地表水厂,,36,36,56,12,19,95,,116,103,5,12,3,2,0.3,0.5
2024-08-25T1800,3581A,115.31981,38.95208,保定市,满城区生态环境分局,,26,17,38,9,20,83,,110,93,14,15,4,4,0.3,0.4
2024-08-25T1800,3582A,115.47694,38.76408,保定市,清苑区第二中学,,28,20,55,16,31,88,,113,97,16,19,4,4,0.4,0.5
2024-08-25T1800,3583A,115.62909,39.02311,保定市,徐水物探局,,30,30,36,3,16,89,,108,101,9,17,3,3,0.4,0.5
2024-08-25T1800,4004A,115.4202,38.8656,保定市,双鹰农机,,31,24,38,9,20,99,,126,113,11,9,2,2,0.3,0.4
2024-08-25T1800,4034A,115.5150,38.8590,保定市,植保所站,,34,23,38,8,22,106,,129,117,8,10,3,5,0.1,0.2
2024-08-25T1800,2594A,99.1678,25.1081,保山市,市环境监测站,,43,16,25,8,13,136,,97,97,8,9,6,6,0.4,0.5
2024-08-25T1800,2595A,99.1711,25.1328,保山市,市环保局,,44,20,26,3,9,139,,100,100,6,7,5,6,0.6,0.5
2024-08-25T1800,1866A,109.2262,21.588,北海市,牛尾岭水库,,,,,,,,,,,,,,,,
2024-08-25T1800,1867A,109.1436,21.4086,北海市,海滩公园,,25,23,18,7,6,79,,76,76,6,5,4,4,0.7,0.7
2024-08-25T1800,1868A,109.0981,21.4661,北海市,新市环保局,,27,23,16,12,10,85,,84,84,5,8,3,3,0.4,0.5
2024-08-25T1800,1869A,109.1778,21.5233,北海市,北海工业园,,38,38,23,10,13,77,,76,76,4,10,4,4,0.3,0.4
2024-08-25T1800,3400A,109.1911,21.4415,北海市,龙潭自来水厂,,29,14,17,8,11,91,,85,85,5,7,4,5,0.4,0.5
2024-08-25T1800,1001A,116.3621,39.8784,北京市,万寿西宫,,42,42,31,26,17,121,,112,112,26,20,3,3,0.7,0.6
2024-08-25T1800,1002A,116.2202,40.2915,北京市,定陵,,24,24,21,11,9,26,,67,65,3,4,2,2,0.4,0.4
2024-08-25T1800,1003A,116.4174,39.9289,北京市,东四,颗粒物(PM10),54,57,36,31,16,149,,132,132,24,24,3,3,0.6,0.6
2024-08-25T1800,1004A,116.4072,39.8863,北京市,天坛,,36,36,31,21,17,75,,104,104,20,20,3,3,0.6,0.5
2024-08-25T1800,1005A,116.462,39.9365,北京市,农展馆,颗粒物(PM10),54,58,37,32,18,124,,110,110,12,18,3,3,0.6,0.6
2024-08-25T1800,1006A,116.3392,39.9295,北京市,官园,,50,50,34,26,16,139,,118,118,17,21,4,3,0.6,0.5
2024-08-25T1800,1007A,116.2878,39.9611,北京市,海淀万柳,,40,40,34,18,16,89,,98,98,20,21,2,2,0.5,0.4
2024-08-25T1800,1008A,116.6636,40.135,北京市,顺义新城,,42,42,29,27,21,100,,104,104,8,12,3,3,0.5,0.5
2024-08-25T1800,1009A,116.6275,40.3275,北京市,怀柔镇,,27,27,23,15,13,66,,90,90,9,9,5,5,0.5,0.5
2024-08-25T1800,1010A,116.2296,40.217,北京市,昌平镇,,33,33,24,16,11,57,,77,77,10,13,4,4,0.4,0.3
2024-08-25T1800,1011A,116.3966,39.9821,北京市,奥体中心,,34,34,30,21,15,107,,106,106,22,27,3,2,0.6,0.5
2024-08-25T1800,1012A,116.184,39.9136,北京市,古城,颗粒物(PM10),52,54,32,20,13,107,,97,97,27,20,1,1,0.5,0.4
2024-08-25T1800,3281A,115.9718,40.4529,北京市,延庆夏都,,20,18,18,10,9,63,,71,71,8,11,3,3,0.4,0.4
2024-08-25T1800,3417A,117.0709,40.1465,北京市,平谷新城,,40,40,38,25,24,85,,102,101,11,7,3,3,0.9,0.6
2024-08-25T1800,3418A,116.8336,40.4095,北京市,密云新城,,26,26,22,12,11,41,,73,71,6,4,3,3,0.4,0.4
2024-08-25T1800,3671A,116.088,39.9726,北京市,门头沟三家店,,40,40,28,24,12,45,,66,65,28,12,1,1,0.5,0.4
2024-08-25T1800,3672A,116.1541,39.8204,北京市,丰台云岗,,37,37,32,17,13,61,,73,73,25,21,3,3,0.5,0.4
2024-08-25T1800,3673A,116.6804,39.9081,北京市,通州东关,,,,44,,22,,,101,,,23,,3,,0.5
2024-08-25T1800,3674A,115.9577,39.7603,北京市,房山燕山,,30,30,27,17,14,85,,81,81,11,11,3,3,0.4,0.4
2024-08-25T1800,3675A,116.4672,39.7733,北京市,大兴旧宫,,39,39,35,21,18,76,,83,83,5,15,3,3,0.6,0.6
2024-08-25T1800,3694A,115.986,40.4563,北京市,延庆石河营,,19,19,16,11,9,43,,55,55,8,10,3,3,0.3,0.3
2024-08-25T1800,3695A,116.6151,40.3053,北京市,怀柔新城,,22,22,23,14,13,66,,86,86,4,5,3,3,0.4,0.5
2024-08-25T1800,3696A,116.2545,39.8768,北京市,丰台小屯,,42,42,33,20,15,86,,86,86,19,20,6,6,0.6,0.5
2024-08-25T1800,3697A,116.84,40.3844,北京市,密云镇,,27,27,25,12,13,62,,74,74,11,12,1,2,0.4,0.5
2024-08-25T1800,1761A,123.8275,41.3064,本溪市,大峪,,39,24,46,13,20,122,,152,152,12,21,7,7,0.6,0.9
2024-08-25T1800,1762A,123.7567,41.3325,本溪市,溪湖,"颗粒物(PM10),细颗粒物(PM2.5)",57,64,60,40,26,129,,151,151,15,25,4,4,0.7,1.1
2024-08-25T1800,1763A,123.7169,41.3094,本溪市,彩屯,颗粒物(PM10),59,67,64,26,33,138,,149,148,26,25,8,8,0.8,1.4
2024-08-25T1800,1764A,123.7669,41.2864,本溪市,东明,,50,42,52,19,25,159,,159,159,19,27,6,6,0.9,1.1
2024-08-25T1800,1765A,123.7992,41.2664,本溪市,新立屯,,35,35,51,22,21,92,,156,143,20,29,4,4,0.9,0.8
2024-08-25T1800,1766A,123.8142,41.3472,本溪市,威宁,,34,32,53,14,29,107,,145,145,15,19,8,9,0.7,1.2
2024-08-25T1800,2587A,105.2864,27.3125,毕节市,八中,,34,24,26,12,20,106,,99,99,8,14,8,7,0.2,0.4
2024-08-25T1800,2588A,105.31,27.2944,毕节市,师专,,34,17,29,12,17,106,,96,96,8,17,9,8,0.4,0.5
2024-08-25T1800,3537A,105.3631,27.3533,毕节市,长征村,,31,13,26,10,22,97,,101,101,5,9,6,7,0.4,0.4
2024-08-25T1800,1629A,118.0018,37.3617,滨州市,第二水厂,,36,31,48,17,29,115,,149,149,13,18,4,5,0.7,1
2024-08-25T1800,1630A,117.9776,37.393,滨州市,北中新校,,41,41,53,19,31,125,,168,168,19,21,5,12,0.4,0.7
2024-08-25T1800,3514A,117.9378,37.3956,滨州市,中海酒店,,40,36,49,22,27,128,,168,168,17,16,5,12,0.5,0.9
2024-08-25T1800,3515A,117.9378,37.3553,滨州市,开发区一中,,41,36,53,14,30,131,,187,170,15,24,6,10,0.4,0.8
2024-08-25T1800,3516A,118.0917,37.694,滨州市,金海六路,,40,34,36,14,15,125,,146,144,7,11,2,6,0.5,0.7
2024-08-25T1800,4028A,117.9956,37.3753,滨州市,滨州市西街道办事处,,40,34,49,17,29,126,,178,176,13,15,7,10,0.6,1
2024-08-25T1800,2311A,115.8072,33.8399,亳州市,污水处理厂,,36,36,46,20,33,96,,133,131,10,11,2,32,0.8,0.8
2024-08-25T1800,2312A,115.7789,33.8518,亳州市,三国揽胜宫,,40,40,49,28,37,122,,140,140,6,7,3,28,0.7,0.7
2024-08-25T1800,3332A,115.7633,33.8034,亳州市,亳州学院,,,,38,23,29,148,,152,152,6,7,2,7,0.5,0.5
2024-08-25T1800,2693A,82.0485,44.8556,博尔塔拉蒙古自治州,市党校,,39,15,31,12,12,123,,113,113,8,9,9,7,0.4,0.4
2024-08-25T1800,2694A,82.0806,44.8969,博尔塔拉蒙古自治州,市环保局,,35,19,36,11,10,112,,104,104,8,12,5,5,0.4,0.4
2024-08-25T1800,1071A,116.8842,38.2991,沧州市,沧县城建局,,31,18,40,14,27,97,,107,107,19,16,3,3,0.7,0.8
2024-08-25T1800,1072A,116.8584,38.3254,沧州市,电视转播站,,32,25,45,7,25,102,,100,100,16,16,4,5,0.5,0.5
2024-08-25T1800,1073A,116.8709,38.3228,沧州市,市环保局,,32,25,43,13,26,100,,106,106,14,16,4,7,0.3,0.5
2024-08-25T1800,3324A,116.8136,38.3004,沧州市,河北水利电力学院,,35,24,43,9,21,110,,112,112,16,18,6,7,0.4,0.5
2024-08-25T1800,2622A,97.1806,31.1273,昌都市,昌都监测站,,35,13,16,7,9,110,,99,99,4,11,5,6,0.4,0.5
2024-08-25T1800,3719A,97.1714,31.1406,昌都市,昌都会议中心,,,13,14,9,9,118,,112,112,,4,7,7,0.4,0.4
2024-08-25T1800,2690A,88.1236,43.8886,昌吉回族自治州,天山天池,,37,22,34,10,14,118,,114,114,5,4,17,17,0.5,0.5
2024-08-25T1800,2692A,87.2717,44.0297,昌吉回族自治州,新区政务中心,,36,23,48,3,15,113,,103,103,7,22,11,11,0.5,0.6
2024-08-25T1800,3613A,87.3095,44.0142,昌吉回族自治州,亚心广场,,38,27,59,3,14,120,,107,107,11,27,8,6,0.3,0.4
2024-08-25T1800,1119A,125.3325,43.9166,长春市,食品厂,,21,21,32,9,18,67,,83,79,18,18,3,3,0.4,0.4
2024-08-25T1800,1120A,125.2863,43.9027,长春市,客车厂,,24,17,28,8,17,76,,85,82,11,17,6,6,0.5,0.5
2024-08-25T1800,1121A,125.2841,43.8463,长春市,邮电学院,,24,13,26,10,14,74,,84,82,12,12,6,6,0.4,0.4
2024-08-25T1800,1122A,125.3716,43.8772,长春市,劳动公园,,27,21,28,3,14,84,,92,91,8,14,7,7,0.4,0.5
2024-08-25T1800,1123A,125.3297,43.8805,长春市,园林处,,25,14,27,8,15,77,,85,83,10,13,3,3,0.5,0.6
2024-08-25T1800,1124A,125.4605,43.79,长春市,净月潭,,22,8,21,6,11,69,,87,84,4,4,5,5,0.3,0.4
2024-08-25T1800,1125A,125.7194,43.515,长春市,甩湾子,,,,,,,,,,,,,,,,
2024-08-25T1800,1126A,125.3863,43.8447,长春市,经开区环卫处,,25,16,26,6,12,77,,87,85,11,15,6,6,0.4,0.5
2024-08-25T1800,1127A,125.245,43.7783,长春市,高新区管委会,,25,17,27,8,14,77,,89,86,7,15,2,3,0.5,0.5
2024-08-25T1800,1128A,125.1761,43.8325,长春市,岱山公园,,24,24,30,7,18,67,,83,80,12,19,2,2,0.4,0.4
2024-08-25T1800,1335A,113.0833,28.2325,长沙市,经开区环保局,,45,37,37,24,17,143,,143,143,14,18,2,3,0.4,0.4
2024-08-25T1800,1336A,112.8872,28.2189,长沙市,高开区环保局,,47,47,35,15,13,136,,126,126,7,12,2,5,0.6,0.7
2024-08-25T1800,1337A,113.0792,28.2053,长沙市,马坡岭,,38,37,39,8,19,119,,143,143,8,16,3,4,0.6,0.6
2024-08-25T1800,1338A,112.9394,28.19,长沙市,湖南师范大学,,39,32,40,23,21,124,,140,140,7,16,5,9,0.6,0.6
2024-08-25T1800,1339A,113.0178,28.1322,长沙市,雨花区环保局,,36,36,34,19,13,115,,134,134,7,14,5,7,0.4,0.4
2024-08-25T1800,1340A,112.9792,28.2597,长沙市,伍家岭,,42,39,37,26,20,132,,129,129,10,12,2,3,0.6,0.5
2024-08-25T1800,1341A,113.0014,28.1944,长沙市,火车新站,,43,43,36,22,19,135,,138,138,12,13,4,5,0.5,0.4
2024-08-25T1800,1342A,112.9844,28.1178,长沙市,天心区环保局,,40,26,37,20,19,126,,121,121,16,19,3,4,0.0,0.2
2024-08-25T1800,1343A,112.8908,28.1308,长沙市,湖南中医药大学,,43,32,31,16,18,136,,124,124,5,18,5,8,0.3,0.1
2024-08-25T1800,1344A,112.9581,28.3611,长沙市,沙坪,,40,19,19,14,17,127,,138,138,6,8,8,8,0.6,0.6
2024-08-25T1800,1727A,113.1147,36.1547,长治市,清华站,,36,16,39,9,22,113,,121,120,5,10,6,6,0.4,0.8
2024-08-25T1800,1728A,113.1031,36.1989,长治市,监测站,颗粒物(PM10),54,58,47,12,22,95,,118,113,10,15,7,8,0.8,1.2
2024-08-25T1800,1730A,113.0886,36.2125,长治市,审计局,,34,34,41,17,22,97,,117,116,4,9,4,5,0.5,0.9
2024-08-25T1800,1731A,113.0844,36.1856,长治市,长治八中,,48,48,51,18,24,106,,120,119,9,11,4,5,0.4,1
2024-08-25T1800,2845A,113.1569,36.1911,长治市,德盛苑,,29,26,42,9,22,90,,120,116,3,8,6,7,0.7,1.1
2024-08-25T1800,3568A,113.06,36.0464,长治市,向阳小学,,40,40,62,26,37,115,,117,116,4,9,6,7,0.4,0.6
2024-08-25T1800,3569A,112.8792,36.3144,长治市,屯留一中,,38,36,51,23,36,119,,142,141,6,10,7,8,0.5,0.7
2024-08-25T1800,3570A,113.235,36.3489,长治市,潞城四中,,38,38,53,12,42,113,,138,136,6,11,6,7,0.4,0.9
2024-08-25T1800,1854A,111.6975,28.9703,常德市,市二中,,27,13,31,10,22,86,,99,99,12,10,6,10,0.4,0.5
2024-08-25T1800,1857A,111.7158,29.1456,常德市,白鹤山,,,,,,,,,,,,,,,,
2024-08-25T1800,3138A,111.7153,29.0289,常德市,武陵区永安,,29,18,33,12,19,90,,108,108,14,9,9,8,0.5,0.5
2024-08-25T1800,3139A,111.6892,28.9881,常德市,鼎城区玉霞,,27,18,35,10,24,84,,101,101,13,11,6,6,0.4,0.6
2024-08-25T1800,3140A,111.6625,29.0531,常德市,武陵区长庚,,35,18,31,13,20,111,,115,115,7,8,7,9,0.5,0.5
2024-08-25T1800,1196A,119.9633,31.762,常州市,市监测站,臭氧1小时,82,37,43,22,24,185,,202,202,10,16,6,6,0.6,0.7
2024-08-25T1800,1200A,119.9468,31.7069,常州市,武进监测站,臭氧1小时,69,36,39,20,23,175,,191,191,6,15,6,11,1.1,1.3
2024-08-25T1800,1201A,119.9255,31.9087,常州市,安家,,41,23,39,21,27,129,,150,150,11,25,7,6,0.7,1
2024-08-25T1800,3002A,119.9805,31.8174,常州市,行政中心,臭氧1小时,63,,35,31,28,170,,193,193,18,21,9,9,0.8,0.7
2024-08-25T1800,3003A,120.0522,31.7748,常州市,经开区,臭氧1小时,55,29,36,18,21,164,,179,179,8,16,8,10,0.7,0.8
2024-08-25T1800,3010A,119.9025,31.7964,常州市,钟楼,臭氧1小时,72,36,40,20,22,177,,189,189,15,20,9,9,0.8,0.8
2024-08-25T1800,3429A,119.8598,31.7066,常州市,武进经发区,臭氧1小时,70,36,44,23,23,176,,186,186,14,23,10,11,0.7,0.8
2024-08-25T1800,3430A,119.5826,31.7245,常州市,金坛城区,臭氧1小时,62,35,40,24,25,169,,200,200,13,22,9,10,0.6,0.8
2024-08-25T1800,2220A,120.4318,41.5881,朝阳市,西梁,,30,,24,11,15,93,,92,92,7,6,7,8,0.4,0.5
2024-08-25T1800,2221A,120.4521,41.5646,朝阳市,河畔小区,,21,14,20,3,6,65,,85,84,6,8,6,7,0.6,0.6
2024-08-25T1800,2222A,120.4176,41.5648,朝阳市,八里堡,,25,23,32,8,11,79,,93,93,14,14,6,6,0.7,0.7
2024-08-25T1800,2223A,120.3806,41.5969,朝阳市,农业园区,,26,26,18,6,7,53,,82,79,20,8,4,4,0.6,0.6
2024-08-25T1800,1705A,116.6367,23.6719,潮州市,西园路,,,,48,22,24,81,,109,109,16,20,4,6,0.4,0.5
2024-08-25T1800,3026A,116.6183,23.6608,潮州市,市政府,,34,34,50,20,23,100,,121,121,13,19,8,17,0.7,0.8
2024-08-25T1800,4036A,116.6461,23.6761,潮州市,金山,,29,28,42,20,22,88,,120,120,15,16,6,8,0.8,0.8
2024-08-25T1800,2472A,113.0073,25.9061,郴州市,马头岭,,39,39,31,6,12,57,,67,67,6,10,7,7,0.4,0.5
2024-08-25T1800,2473A,113.0116,25.8226,郴州市,市职中,,20,14,30,9,20,62,,85,84,9,13,7,9,0.5,0.5
2024-08-25T1800,2474A,113.0161,25.8001,郴州市,兴隆步行街,,19,,32,13,17,60,,81,80,12,13,6,7,0.5,0.5
2024-08-25T1800,2475A,113.0383,25.8071,郴州市,市审计局,,19,19,25,12,16,55,,80,80,7,12,2,3,0.4,0.4
2024-08-25T1800,2476A,113.0348,25.7759,郴州市,市环保局,,24,24,26,8,16,47,,79,78,16,15,3,4,0.5,0.4
2024-08-25T1800,1431A,103.9728,30.7236,成都市,金泉两河,臭氧1小时,63,31,47,15,30,170,,193,193,6,13,1,2,0.5,0.6
2024-08-25T1800,1432A,104.176,30.6872,成都市,十里店,,43,43,53,22,31,131,,186,186,9,20,3,3,0.7,0.8
2024-08-25T1800,1433A,104.079,30.5706,成都市,三瓦窑,臭氧1小时,55,46,47,22,32,164,,212,212,32,38,1,2,0.4,0.5
2024-08-25T1800,1434A,104.1114,30.63,成都市,沙河铺,臭氧1小时,58,37,50,23,31,166,,207,207,11,25,6,5,0.5,0.6
2024-08-25T1800,1437A,104.0786,30.6531,成都市,君平街,臭氧1小时,63,48,51,18,34,170,,229,229,25,26,4,4,0.5,0.7
2024-08-25T1800,1438A,103.613,31.0283,成都市,灵岩寺,,,,,,,,,,,,,,,,
2024-08-25T1800,2880A,104.0239,30.65639,成都市,大石西路,,45,27,48,3,33,141,,198,198,22,25,5,5,0.5,0.7
2024-08-25T1800,3136A,104.2725,30.5589,成都市,龙泉驿区区政府,,46,19,40,7,26,145,,186,186,4,15,4,4,0.5,0.7
2024-08-25T1800,3357A,104.0106,30.6931,成都市,金博路,,43,6,42,3,28,136,,184,184,1,12,1,2,0.8,0.9
2024-08-25T1800,3359A,104.0578,30.5225,成都市,华阳,臭氧1小时,67,39,47,17,25,173,,193,193,14,25,3,3,0.6,0.7
2024-08-25T1800,3487A,104.2394,30.5319,成都市,车城东七路,,,27,55,22,38,150,,187,187,,21,4,4,0.2,0.6
2024-08-25T1800,3488A,104.3853,30.7453,成都市,青白江技师分院,,41,6,39,3,28,130,,159,159,5,29,2,2,0.6,0.9
2024-08-25T1800,3489A,104.0789,30.4072,成都市,科学城,臭氧1小时,65,28,48,24,35,172,,182,182,2,15,4,4,0.4,0.6
2024-08-25T1800,4011A,103.8506,30.6947,成都市,光华大道三段,臭氧1小时,53,51,46,30,28,162,,164,164,8,10,2,3,0.6,0.6
2024-08-25T1800,1062A,117.9531,40.9081,承德市,铁路,,27,27,32,3,16,68,,84,84,22,21,8,8,0.4,0.5
2024-08-25T1800,1063A,117.9392,40.9763,承德市,中国银行,,44,44,33,3,13,63,,91,91,28,18,4,7,0.4,0.5
2024-08-25T1800,1064A,117.9503,40.928,承德市,开发区,,26,26,33,7,12,68,,90,90,21,17,6,6,0.6,0.6
2024-08-25T1800,1065A,117.8051,40.9655,承德市,文化中心,,22,22,35,7,13,56,,89,89,17,20,6,10,0.4,0.4
2024-08-25T1800,1066A,117.9268,41.0026,承德市,离宫,,20,20,29,3,8,22,,59,56,4,7,1,2,0.5,0.4
2024-08-25T1800,2314A,117.47,30.6618,池州市,池州学院,臭氧1小时,108,49,41,30,28,215,,199,199,16,14,7,7,0.8,1
2024-08-25T1800,3237A,117.4918,30.6617,池州市,展览馆,臭氧1小时,106,39,39,25,29,211,,191,191,12,11,6,5,0.8,0.9
2024-08-25T1800,3333A,117.5627,30.695,池州市,第八中学,臭氧1小时,100,39,42,21,25,200,,179,179,11,13,4,4,0.6,0.7
2024-08-25T1800,3334A,117.5038,30.6243,池州市,第十二中学,臭氧1小时,107,39,39,28,27,213,,173,173,10,17,4,4,0.8,1.2
2024-08-25T1800,1744A,118.9233,42.2816,赤峰市,松山一中,,,24,27,3,6,83,,82,82,19,27,,10,0.6,0.7
2024-08-25T1800,1745A,118.9576,42.2728,赤峰市,哈达街,,27,21,25,10,11,85,,83,83,12,16,13,12,0.4,0.6
2024-08-25T1800,1746A,118.8788,42.2554,赤峰市,天义路,,30,14,18,14,13,93,,92,92,15,20,12,11,0.2,0.3
2024-08-25T1800,3058A,119.2658,42.0353,赤峰市,银河街,,23,16,23,8,15,73,,80,80,12,13,11,14,0.4,0.5
2024-08-25T1800,3286A,118.9359,42.3147,赤峰市,桥北物流园区,,28,28,21,15,12,69,,79,79,32,27,12,9,0.6,0.6
2024-08-25T1800,2521A,107.3476,22.4136,崇左市,市环保局江州分局,,25,13,23,6,9,78,,71,71,3,5,6,6,0.4,0.5
2024-08-25T1800,2522A,107.3702,22.3707,崇左市,城南新区,,,9,20,6,9,64,,62,62,,5,4,4,,0.5
2024-08-25T1800,2298A,118.3093,32.3153,滁州市,老年大学,,45,34,45,21,29,144,,192,192,8,16,11,10,0.4,0.6
2024-08-25T1800,2299A,118.3244,32.2786,滁州市,人大宾馆,,46,40,54,22,36,146,,193,193,14,19,6,5,0.5,0.7
2024-08-25T1800,3207A,118.3118,32.3038,滁州市,市政府原办公楼,,44,28,46,21,35,139,,190,190,7,19,6,8,0.5,0.7
2024-08-25T1800,3331A,118.3267,32.2634,滁州市,图书馆,,48,31,55,19,37,152,,194,194,4,17,4,5,0.3,0.6
2024-08-25T1800,2605A,101.5482,25.0441,楚雄彝族自治州,州环境监测站,,24,18,14,14,12,74,,89,89,11,8,4,4,0.5,0.4
2024-08-25T1800,2606A,101.538,25.0492,楚雄彝族自治州,市经济开发区,,22,17,25,15,12,70,,86,86,13,10,5,6,0.6,0.6
2024-08-25T1800,2548A,107.5277,31.2827,达州市,达州职业技术学院,,27,21,106,3,82,84,,87,87,3,15,4,9,0.4,1
2024-08-25T1800,2549A,107.5086,31.2186,达州市,市环境监测站,,28,15,79,3,57,89,,93,93,9,31,6,10,0.3,0.8
2024-08-25T1800,2550A,107.4988,31.2132,达州市,凤凰小区,,29,12,77,3,59,92,,98,98,8,27,6,10,0.3,0.7
2024-08-25T1800,2551A,107.5082,31.1986,达州市,达县机关宾馆,,29,7,94,3,64,90,,95,95,14,38,4,10,0.1,0.7
2024-08-25T1800,2552A,107.4644,31.2124,达州市,市政中心,,30,15,82,3,56,95,,104,104,9,30,4,9,0.4,0.9
2024-08-25T1800,2614A,100.1542,25.7054,大理白族自治州,大理市环境监测站,,39,27,24,11,11,124,,112,112,13,12,4,4,0.4,0.5
2024-08-25T1800,2615A,100.2171,25.5811,大理白族自治州,大理古城,,43,27,24,21,14,135,,120,120,6,12,7,7,0.6,0.7
2024-08-25T1800,1109A,121.612,38.9741,大连市,甘井子,,44,30,33,25,25,139,,146,146,16,20,6,6,0.9,0.8
2024-08-25T1800,1110A,121.565,38.9511,大连市,周水子,,40,32,29,28,26,117,,143,142,16,21,5,5,0.9,0.8
2024-08-25T1800,1111A,121.5637,38.8845,大连市,星海三站,,35,29,31,24,28,107,,129,126,7,9,7,6,0.5,0.5
2024-08-25T1800,1112A,121.6302,38.9117,大连市,青泥洼桥,,36,30,33,21,29,113,,139,136,3,10,8,8,0.7,0.8
2024-08-25T1800,1113A,121.6251,38.8638,大连市,傅家庄,,39,,29,27,31,119,,130,130,8,9,8,8,0.7,0.6
2024-08-25T1800,1114A,121.5213,38.8661,大连市,七贤岭,,39,32,29,26,25,122,,134,134,8,9,7,7,0.5,0.4
2024-08-25T1800,1115A,121.2529,38.8061,大连市,旅顺,,34,24,27,19,22,106,,143,139,27,19,10,9,0.7,0.5
2024-08-25T1800,1116A,121.7485,39.1311,大连市,金州,,42,35,33,27,26,134,,135,135,17,13,8,6,0.9,0.6
2024-08-25T1800,1117A,121.7811,39.0496,大连市,开发区,,35,33,33,23,28,111,,126,124,11,12,9,9,0.5,0.5
2024-08-25T1800,1118A,121.9762,39.0631,大连市,双D港,,30,21,27,20,25,95,,112,112,9,10,5,6,0.5,0.6
2024-08-25T1800,1789A,124.81117,46.03138,大庆市,大同区,,38,33,18,26,17,70,,70,70,6,6,8,8,0.4,0.4
2024-08-25T1800,1790A,125.129,46.533,大庆市,龙凤区,颗粒物(PM10),56,62,34,14,14,65,,71,70,13,13,4,4,0.5,0.6
2024-08-25T1800,1791A,124.902,46.408,大庆市,红岗区,,28,25,27,19,18,68,,72,72,8,10,8,9,0.5,0.4
2024-08-25T1800,1792A,125.153,46.586,大庆市,萨尔图区,,24,24,22,16,10,60,,69,68,16,10,7,6,0.4,0.3
2024-08-25T1800,1793A,124.9042,46.6215,大庆市,让胡路区,,26,26,28,13,13,63,,67,67,8,9,5,5,0.3,0.3
2024-08-25T1800,3481A,125.141,46.634,大庆市,萨区政府监测点,,24,24,26,15,12,67,,72,72,10,8,7,7,0.3,0.3
2024-08-25T1800,1721A,113.3819,40.1097,大同市,果树场,,,,,,,,,,,,,,,,
2024-08-25T1800,1723A,113.2994,40.0758,大同市,云冈宾馆,,26,26,32,15,11,81,,76,76,17,25,6,11,0.7,0.7
2024-08-25T1800,1724A,113.3444,40.0917,大同市,大同大学,,22,18,29,10,12,70,,68,68,21,25,7,11,0.6,0.5
2024-08-25T1800,1725A,113.2661,40.1269,大同市,安家小村,,30,8,41,7,9,93,,74,74,12,22,8,11,0.4,0.6
2024-08-25T1800,1726A,113.2711,40.0844,大同市,教育学院,,27,13,39,12,13,85,,73,73,22,32,9,13,0.6,0.8
2024-08-25T1800,3282A,113.3397,40.0597,大同市,大同市卫生学校,,25,,29,17,14,69,,77,77,23,24,6,9,0.8,0.6
2024-08-25T1800,3565A,113.1367,40.1122,大同市,云冈站,,,11,32,,14,72,,61,61,24,29,8,12,0.5,0.7
2024-08-25T1800,3566A,113.1186,40.2556,大同市,图书馆,,26,14,27,9,15,81,,65,65,14,16,8,12,0.5,0.6
2024-08-25T1800,3567A,113.5931,40.0461,大同市,区一中,,28,16,22,6,9,87,,88,85,9,9,3,6,0.6,0.5
2024-08-25T1800,3676A,113.2802,40.0995,大同市,第二人民医院,,30,12,37,10,13,94,,71,71,11,24,9,13,0.5,0.6
2024-08-25T1800,2269A,124.1069,50.4097,大兴安岭地区,科技局,,39,39,23,27,18,47,,48,48,4,4,16,2,0.3,0.3
2024-08-25T1800,3663A,124.1164,50.4278,大兴安岭地区,红旗社区,,14,12,12,7,15,42,,41,41,4,6,8,6,0.4,0.4
2024-08-25T1800,1600A,124.3303,40.0625,丹东市,江湾东路,,28,20,22,13,13,89,,96,96,10,9,2,4,0.8,0.9
2024-08-25T1800,1601A,124.4256,40.1503,丹东市,临江后街,,33,32,25,15,13,104,,117,117,10,9,5,5,0.8,0.8
2024-08-25T1800,1602A,124.3933,40.1461,丹东市,元宝山,,33,33,23,18,13,80,,90,90,12,8,2,2,0.7,0.7
2024-08-25T1800,1603A,124.3633,40.1092,丹东市,民主桥,,32,32,25,14,11,88,,104,104,24,12,4,3,0.8,0.7
2024-08-25T1800,3541A,109.5726,19.5167,儋州市,第一中学子站,,19,14,15,8,7,59,,60,60,3,4,4,4,0.5,0.5
2024-08-25T1800,3542A,109.5567,19.5187,儋州市,东坡学校子站,,20,10,14,9,8,64,,64,64,2,3,4,4,0.5,0.5
2024-08-25T1800,2616A,98.5842,24.428,德宏傣族景颇族自治州,德宏州监测站,,,19,22,9,8,65,,65,65,6,12,18,21,,0.6
2024-08-25T1800,3677A,98.5881,24.4368,德宏傣族景颇族自治州,芒市人民政府综合楼,,21,17,17,9,9,67,,62,62,10,13,12,17,0.5,0.6
2024-08-25T1800,1901A,104.4239,31.1208,德阳市,东山公园,,42,27,43,19,28,134,,160,160,26,16,4,7,0.5,0.7
2024-08-25T1800,1902A,104.3826,31.1317,德阳市,西小区,,46,33,46,23,32,147,,169,169,15,16,3,7,0.6,0.8
2024-08-25T1800,1904A,104.3553,31.1091,德阳市,耐火材料厂,颗粒物(PM10),54,58,57,23,36,118,,162,162,41,22,4,15,0.6,0.7
2024-08-25T1800,3639A,104.4019,31.1244,德阳市,市教育局,,43,32,49,19,30,136,,167,167,23,16,3,5,0.5,0.7
2024-08-25T1800,1622A,116.3032,37.4674,德州市,儿童乐园,颗粒物(PM10),52,53,75,27,47,108,,106,106,14,21,9,9,0.8,0.9
2024-08-25T1800,1624A,116.2991,37.4451,德州市,监理站,颗粒物(PM10),51,51,80,27,47,123,,123,123,9,15,10,10,0.7,0.9
2024-08-25T1800,3066A,116.2721,37.4379,德州市,九衢泉纯净水厂,颗粒物(PM10),51,51,76,24,47,123,,123,123,13,19,9,9,0.8,1
2024-08-25T1800,3371A,116.3728,37.4403,德州市,开发区人民医院,颗粒物(PM10),51,51,74,31,41,119,,116,116,11,20,8,12,0.7,0.9
2024-08-25T1800,3372A,116.3572,37.4094,德州市,太阳城中学,颗粒物(PM10),54,58,69,31,45,125,,117,117,13,22,10,11,0.9,0.9
2024-08-25T1800,3511A,116.5652,37.3319,德州市,陵城艺术中心,颗粒物(PM10),51,51,70,34,37,119,,123,123,19,24,11,12,0.7,0.8
2024-08-25T1800,2621A,99.7056,27.8317,迪庆藏族自治州,迪庆州站,,35,31,34,15,18,111,,112,112,9,11,9,9,0.3,0.4
2024-08-25T1800,3180A,99.7136,27.8094,迪庆藏族自治州,质量技术监督局,,35,35,29,11,14,104,,105,105,12,14,14,9,0.5,0.6
2024-08-25T1800,2663A,104.6241,35.5734,定西市,东关小学,,43,,31,30,25,94,,91,86,4,7,3,2,0.2,0.2
2024-08-25T1800,2664A,104.6194,35.5934,定西市,供电公司,颗粒物(PM10),53,56,35,28,26,94,,98,87,3,5,6,6,0.2,0.3
2024-08-25T1800,1389A,113.7547,23.0494,东莞市,莞城梨川,,37,34,31,20,17,118,,127,127,17,23,4,4,0.7,0.8
2024-08-25T1800,1390A,113.7944,23.0128,东莞市,东城石井,,41,26,29,16,17,129,,147,147,14,18,4,5,0.5,0.5
2024-08-25T1800,1391A,113.7383,22.9658,东莞市,南城西平,,42,32,28,29,20,105,,137,137,22,19,6,4,0.6,0.6
2024-08-25T1800,3319A,113.7338,23.0381,东莞市,万江金泰,,36,29,30,17,17,113,,129,129,20,24,4,6,0.6,0.7
2024-08-25T1800,3626A,113.7533,23.0202,东莞市,南城元岭,,34,34,28,19,15,103,,127,127,27,23,7,7,0.6,0.6
2024-08-25T1800,3627A,113.7875,23.0457,东莞市,东城主山,,45,45,29,29,16,124,,138,138,14,20,8,8,0.6,0.6
2024-08-25T1800,1666A,118.6614,37.4309,东营市,市环保局,,46,44,31,22,19,145,,169,169,9,12,3,6,0.4,0.4
2024-08-25T1800,3036A,118.6904,37.4338,东营市,开发区管委会,,48,48,37,19,19,142,,166,164,10,11,4,7,0.3,0.4
2024-08-25T1800,3365A,118.5719,37.565,东营市,垦利区民丰路,,45,41,32,27,17,141,,153,153,5,9,6,7,0.3,0.4
2024-08-25T1800,3498A,118.5055,37.8612,东营市,河口城区,,48,48,22,22,12,130,,129,129,11,10,6,5,0.7,0.8
2024-08-25T1800,3646A,118.4978,37.4623,东营市,胜利站,,,44,31,,18,122,,162,160,20,18,7,7,0.7,0.8
2024-08-25T1800,3734A,118.35,37.26,东营市,理想之城,,44,44,32,24,23,125,,149,148,9,15,4,6,0.3,0.4
2024-08-25T1800,1591A,110.0023,39.8129,鄂尔多斯市,综合楼,,,7,43,,17,86,,95,95,12,28,6,8,0.7,0.7
2024-08-25T1800,1592A,109.9486,39.8261,鄂尔多斯市,巴音孟克林场办事处,,27,7,52,3,20,84,,86,86,12,41,6,7,0.6,0.7
2024-08-25T1800,1593A,109.7736,39.5986,鄂尔多斯市,康泽苑,,28,24,49,3,16,88,,92,92,9,31,5,6,0.7,0.8
2024-08-25T1800,1594A,109.8119,39.5989,鄂尔多斯市,华泰汽车城,,,17,48,,28,77,,86,86,8,36,7,8,0.6,0.8
2024-08-25T1800,1595A,109.9734,39.7884,鄂尔多斯市,奥林花园,,25,6,40,3,19,80,,86,86,15,26,5,7,0.7,0.7
2024-08-25T1800,2436A,114.8938,30.3994,鄂州市,市政府,臭氧1小时,77,42,44,20,18,181,,182,182,11,11,5,6,0.9,0.8
2024-08-25T1800,2437A,114.8989,30.3714,鄂州市,赵家坝,臭氧1小时,103,38,43,26,18,205,,191,191,11,17,13,13,0.4,0.6
2024-08-25T1800,3654A,114.8094,30.4089,鄂州市,精准医疗中心,,45,34,32,8,15,142,,155,155,2,14,5,8,0.5,0.6
2024-08-25T1800,2454A,109.4978,30.2981,恩施土家族苗族自治州,湖北民院,,28,17,24,8,15,89,,98,98,7,15,8,8,0.5,0.6
2024-08-25T1800,2455A,109.4707,30.2798,恩施土家族苗族自治州,州电力总公司,,25,8,20,6,14,79,,88,88,14,18,7,7,0.6,0.6
2024-08-25T1800,3549A,109.5061,30.3772,恩施土家族苗族自治州,龙凤新区,,25,19,19,3,12,78,,97,97,6,7,7,7,0.5,0.6
2024-08-25T1800,2499A,108.3411,21.6158,防城港市,沙万,,31,31,26,11,8,55,,56,56,19,20,15,12,0.6,0.7
2024-08-25T1800,2500A,108.3514,21.7731,防城港市,防城档案局,,22,22,18,15,8,55,,70,70,17,10,14,9,1.0,0.8
2024-08-25T1800,2501A,108.3506,21.6414,防城港市,大海花园,,39,39,22,8,6,48,,57,57,27,14,14,9,0.9,0.7
2024-08-25T1800,1371A,113.1294,23.0067,佛山市,湾梁,,30,24,28,20,19,93,,127,127,20,18,6,8,0.7,0.7
2024-08-25T1800,1372A,113.1083,23.0478,佛山市,华材职中,,38,34,28,20,18,120,,124,124,17,19,6,7,0.3,0.3
2024-08-25T1800,1373A,113.144,23.0453,佛山市,南海气象局,,30,27,30,21,20,92,,102,102,10,13,5,6,0.5,0.6
2024-08-25T1800,1374A,113.2881,22.8094,佛山市,顺德苏岗,,30,17,22,3,15,95,,125,125,11,14,6,7,0.5,0.6
2024-08-25T1800,1376A,112.8383,22.8678,佛山市,高明孔堂,,34,34,29,17,17,84,,95,95,9,9,7,8,0.6,0.6
2024-08-25T1800,1377A,112.8836,23.1588,佛山市,三水监测站,,29,,32,20,20,88,,111,111,18,32,4,6,0.5,0.5
2024-08-25T1800,1378A,112.867,23.185,佛山市,三水云东海,,30,30,30,12,18,74,,105,105,18,26,7,9,0.5,0.6
2024-08-25T1800,3625A,113.2544,22.7642,佛山市,容桂街道办,,30,,20,12,14,94,,121,121,18,18,5,7,0.7,0.7
2024-08-25T1800,1280A,119.3903,26.0543,福州市,鼓山,,,,,,,,,,,,,,,,
2024-08-25T1800,1282A,119.2681,26.0504,福州市,师大,,34,34,33,13,20,102,,114,114,9,9,4,4,0.4,0.4
2024-08-25T1800,1283A,119.2984,26.1028,福州市,五四北路,,,,,15,20,110,,132,132,8,8,3,3,0.4,0.5
2024-08-25T1800,1284A,119.2648,26.0768,福州市,杨桥西路,,34,27,33,18,20,107,,126,126,10,10,4,4,0.4,0.5
2024-08-25T1800,1285A,119.317,26.0746,福州市,紫阳,,29,29,30,11,18,92,,115,112,12,12,7,6,0.4,0.5
2024-08-25T1800,3048A,119.5799,26.0936,福州市,九龙,,33,23,20,12,14,105,,92,92,2,4,5,6,0.3,0.3
2024-08-25T1800,3526A,119.5189,25.9664,福州市,吴航,,33,24,26,17,16,105,,98,98,6,5,6,6,0.5,0.5
2024-08-25T1800,1755A,123.7977,41.8491,抚顺市,望花区,,26,19,38,6,19,82,,127,123,14,16,8,11,0.4,0.7
2024-08-25T1800,1756A,123.9161,41.8822,抚顺市,顺城区,,34,34,38,10,17,92,,131,131,20,22,4,5,0.4,0.6
2024-08-25T1800,1757A,124.0436,41.8611,抚顺市,东洲区,,32,12,33,8,17,102,,126,126,11,14,8,6,0.4,0.6
2024-08-25T1800,1758A,123.9247,41.8642,抚顺市,新抚区,,33,27,36,7,17,103,,131,131,13,24,7,7,0.2,0.4
2024-08-25T1800,1759A,124.0972,41.8961,抚顺市,大伙房水库,,28,19,31,8,14,89,,130,130,14,11,4,4,0.6,0.8
2024-08-25T1800,1760A,123.7086,41.8391,抚顺市,沈抚新城,,27,19,32,3,17,85,,128,125,8,14,6,7,0.3,0.5
2024-08-25T1800,2376A,116.2127,28.0814,抚州市,桐源党溪,,36,36,47,19,22,99,,115,115,3,8,5,8,0.6,0.7
2024-08-25T1800,2377A,116.3544,27.9831,抚州市,市站,,,,32,,17,73,,93,89,5,7,,6,0.5,0.5
2024-08-25T1800,2378A,116.3565,27.963,抚州市,血防站,,36,36,33,18,17,72,,90,90,5,6,4,7,0.7,0.6
2024-08-25T1800,2379A,116.3564,28.0007,抚州市,采茶剧团,,34,34,30,20,18,70,,90,90,5,6,5,5,0.6,0.6
2024-08-25T1800,2380A,116.385,27.9647,抚州市,医学分院,,43,43,34,19,19,68,,88,88,6,8,5,6,0.7,0.7
2024-08-25T1800,2207A,121.6094,41.998,阜新市,工业园区,,25,22,29,6,14,79,,94,94,17,14,5,7,0.5,0.7
2024-08-25T1800,2208A,121.6697,42.0279,阜新市,长青街,,25,19,28,9,16,78,,89,89,12,11,4,10,0.4,0.6
2024-08-25T1800,2209A,121.6673,42.0705,阜新市,农业园区,,18,17,25,3,14,56,,82,79,12,11,2,5,0.4,0.6
2024-08-25T1800,2210A,121.6717,42.0224,阜新市,东苑,,27,14,30,3,12,85,,90,90,15,14,4,13,0.3,0.5
2024-08-25T1800,2211A,121.6506,42.0498,阜新市,玉龙新城,,39,39,30,12,15,48,,89,85,30,16,5,6,1.0,0.8
2024-08-25T1800,2301A,115.8277,32.8929,阜阳市,市监测站,,43,39,44,18,27,137,,152,152,7,11,6,8,0.6,0.7
2024-08-25T1800,2303A,115.8554,32.8605,阜阳市,开发区,,45,36,53,19,29,141,,154,154,11,13,5,4,0.6,0.6
2024-08-25T1800,2875A,115.784,32.8892,阜阳市,阜阳职业技术学院,,45,38,44,15,23,143,,147,147,6,9,6,6,0.6,0.6
2024-08-25T1800,3468A,115.7901,32.8613,阜阳市,市规划展馆,,47,33,48,24,32,148,,149,149,8,10,6,6,0.7,0.7
2024-08-25T1800,3469A,115.836,32.9183,阜阳市,枣园社区,,50,50,48,27,32,138,,141,141,8,13,5,5,0.7,0.7
2024-08-25T1800,2669A,102.9099,34.9841,甘南藏族自治州,州政府,,,,,,,,,,,,,,,,
2024-08-25T1800,3380A,102.8914,34.9617,甘南藏族自治州,甘肃民族师范学院,,30,30,35,16,22,80,,92,92,7,16,4,4,0.4,0.5
2024-08-25T1800,2570A,101.9603,30.0475,甘孜藏族自治州,水桥子,,38,18,28,10,19,120,,119,119,3,13,5,4,0.3,0.3
2024-08-25T1800,3065A,101.9533,29.9972,甘孜藏族自治州,州环保局,,37,23,29,7,13,117,,120,120,10,19,3,2,0.3,0.3
2024-08-25T1800,3414A,115.8347,28.932,赣江新区,桑海产业园,,34,27,29,14,16,108,,110,110,13,21,8,10,0.2,0.2
2024-08-25T1800,2362A,114.9017,25.9149,赣州市,通天岩,,,,,,,,,,,,,,,,
2024-08-25T1800,2363A,114.9367,25.8664,赣州市,地委,,28,24,25,19,15,81,,117,117,8,10,2,4,0.8,0.9
2024-08-25T1800,2364A,114.9461,25.8481,赣州市,气象台,,43,43,27,18,14,80,,106,106,10,10,5,7,0.5,0.4
2024-08-25T1800,2365A,114.9322,25.8333,赣州市,市图书馆,,31,24,22,16,12,99,,122,122,6,8,4,4,0.9,0.8
2024-08-25T1800,2366A,114.8905,25.8471,赣州市,华坚鞋城,,,72,29,24,14,72,,112,111,,8,2,2,,0.4
2024-08-25T1800,3109A,115.0093,25.8613,赣州市,赣县区卫计委,,28,22,22,18,13,88,,108,108,7,10,5,6,0.5,0.5
2024-08-25T1800,2683A,106.2319,36.1417,固原市,马园,,23,9,76,9,17,72,,99,77,18,15,5,5,0.7,0.8
2024-08-25T1800,2684A,106.2792,36.0022,固原市,监测站,,28,21,32,12,24,87,,110,89,10,7,6,8,0.2,0.2
2024-08-25T1800,2685A,106.2375,36.0211,固原市,新区,,26,22,30,8,25,81,,101,82,8,8,7,7,0.4,0.5
2024-08-25T1800,3522A,106.2177,35.9959,固原市,原州区十五小,,30,10,26,9,19,94,,102,85,6,9,9,9,0.5,0.7
2024-08-25T1800,2543A,106.6308,30.5278,广安市,小平旧居,,,,,,,,,,,,,,,,
2024-08-25T1800,2544A,106.6303,30.4576,广安市,市委,,34,10,22,7,15,106,,106,106,7,13,9,8,0.2,0.3
2024-08-25T1800,2545A,106.6271,30.4663,广安市,友谊中学,,33,15,23,9,15,104,,103,103,9,16,7,7,0.3,0.4
2024-08-25T1800,2547A,106.6388,30.4551,广安市,广电花园,,34,10,33,7,15,107,,104,104,8,15,6,7,0.3,0.4
2024-08-25T1800,2902A,106.6351,30.4865,广安市,北辰小学,,34,18,32,6,15,106,,117,117,8,14,9,9,0.2,0.3
2024-08-25T1800,2523A,105.8945,32.4535,广元市,黑石坡,,32,16,22,9,17,101,,98,98,5,8,6,7,0.4,0.5
2024-08-25T1800,2524A,105.821,32.4444,广元市,老城,,37,24,27,13,11,118,,116,116,4,27,1,2,0.7,0.8
2024-08-25T1800,2526A,105.8628,32.4287,广元市,监测站,,38,,20,16,11,119,,117,117,5,11,2,3,0.4,0.6
2024-08-25T1800,3617A,105.8047,32.4166,广元市,经开区,,39,29,39,17,25,123,,115,115,4,24,4,7,0.3,0.5
2024-08-25T1800,1345A,113.2347,23.1423,广州市,广雅中学,,38,30,36,19,19,120,,128,128,24,26,4,6,0.6,0.6
2024-08-25T1800,1346A,113.2612,23.105,广州市,市五中,,39,31,32,27,23,106,,124,124,21,21,3,4,0.6,0.6
2024-08-25T1800,1348A,113.3478,23.0916,广州市,广东商学院,,34,28,32,19,20,107,,124,124,20,28,4,4,0.6,0.6
2024-08-25T1800,1349A,113.4332,23.1047,广州市,市八十六中,,36,36,34,20,18,96,,112,112,37,40,3,4,0.5,0.6
2024-08-25T1800,1350A,113.3505,22.9483,广州市,番禺中学,,37,18,27,12,16,118,,138,138,12,18,4,5,0.6,0.6
2024-08-25T1800,1351A,113.2146,23.3916,广州市,花都师范,,24,24,43,13,24,66,,107,107,37,34,5,8,0.4,0.5
2024-08-25T1800,1352A,113.2597,23.1331,广州市,市监测站,,35,34,32,22,18,110,,118,118,24,22,4,6,0.4,0.4
2024-08-25T1800,1353A,113.5618,23.312,广州市,九龙镇镇龙,,26,26,33,15,21,73,,88,88,19,21,6,6,0.5,0.5
2024-08-25T1800,1354A,113.2765,23.1544,广州市,麓湖,,40,32,33,23,20,126,,116,116,22,24,4,5,0.6,0.6
2024-08-25T1800,1355A,113.443,23.3035,广州市,帽峰山森林公园,,33,22,32,12,17,104,,100,100,5,16,3,4,0.4,0.5
2024-08-25T1800,2846A,113.3221,23.1322,广州市,体育西,,34,33,35,22,21,108,,122,122,18,19,4,5,0.7,0.7
2024-08-25T1800,3298A,113.5717,23.5491,广州市,从化街口,,22,15,35,8,21,70,,108,108,14,20,6,6,0.6,0.7
2024-08-25T1800,3299A,113.3472,23.3692,广州市,白云竹料,,24,20,48,12,28,75,,119,119,19,32,4,4,0.7,0.8
2024-08-25T1800,3300A,113.2981,23.237,广州市,白云嘉禾,,30,30,38,17,21,92,,115,115,31,34,4,5,0.7,0.8
2024-08-25T1800,3301A,113.4256,23.1716,广州市,黄埔科学城,,36,31,37,19,21,115,,106,106,17,28,6,6,0.6,0.7
2024-08-25T1800,3302A,113.3942,23.0483,广州市,番禺大学城,,30,27,36,15,16,94,,113,113,22,26,7,5,0.6,0.6
2024-08-25T1800,3303A,113.4922,22.8168,广州市,南沙黄阁,,,,33,6,18,94,,152,152,14,24,5,4,0.6,0.7
2024-08-25T1800,3304A,113.5342,22.7896,广州市,南沙街,,28,21,31,6,18,89,,127,127,12,17,4,5,0.6,0.6
2024-08-25T1800,3443A,113.2902,23.5544,广州市,花都梯面,,22,22,51,13,30,55,,125,125,17,28,4,5,0.6,0.7
2024-08-25T1800,3445A,113.7858,23.7478,广州市,从化良口,,20,17,26,11,16,62,,82,82,9,8,6,6,0.8,0.8
2024-08-25T1800,3446A,113.8051,23.2614,广州市,增城荔城,,34,34,29,23,17,97,,108,108,16,14,8,7,0.6,0.6
2024-08-25T1800,2505A,109.568,23.1478,贵港市,德智高中,,,,,,,,,,,,,,,,
2024-08-25T1800,2506A,109.6047,23.0666,贵港市,江南子站,,35,22,36,14,17,109,,100,100,6,18,8,8,0.6,0.6
2024-08-25T1800,2507A,109.6014,23.0948,贵港市,贵城子站,,42,42,29,20,17,102,,94,94,9,12,8,7,0.6,0.6
2024-08-25T1800,2508A,109.5669,23.1065,贵港市,荷城子站,,35,29,27,9,10,111,,96,96,7,15,11,10,0.5,0.5
2024-08-25T1800,3405A,109.5886,23.1172,贵港市,新世纪学校,,34,34,30,15,13,108,,100,100,6,13,9,9,0.6,0.7
2024-08-25T1800,1439A,106.6899,26.5998,贵阳市,马鞍山,,,5,6,,0,58,,57,57,5,5,4,4,0.2,0.3
2024-08-25T1800,1440A,106.6971,26.5694,贵阳市,市环保站,颗粒物(PM10),64,78,24,12,7,47,,51,50,25,14,4,4,0.2,0.2
2024-08-25T1800,1441A,106.6243,26.6266,贵阳市,鉴湖路,,20,9,11,3,2,62,,58,58,6,5,4,5,0.3,0.3
2024-08-25T1800,1442A,106.7487,26.6343,贵阳市,燕子冲,,19,6,2,3,5,60,,60,60,5,5,5,6,0.4,0.4
2024-08-25T1800,1443A,106.6555,26.4365,贵阳市,碧云窝,,22,22,17,3,2,50,,54,54,4,5,5,6,0.3,0.3
2024-08-25T1800,1444A,106.694,26.5161,贵阳市,中院村,,16,7,11,3,3,50,,53,52,7,7,6,7,0.3,0.3
2024-08-25T1800,1445A,106.7109,26.6027,贵阳市,红边门,,20,,11,14,12,56,,59,59,10,10,4,4,0.2,0.2
2024-08-25T1800,1446A,106.7164,26.5699,贵阳市,新华路,,16,9,12,3,3,51,,54,54,8,8,2,3,0.4,0.4
2024-08-25T1800,1447A,106.674,26.5424,贵阳市,太慈桥,,17,7,6,3,2,54,,57,57,5,5,3,4,0.4,0.3
2024-08-25T1800,1552A,106.805,26.3003,贵阳市,桐木岭,,,,,,,,,,,,,,,,
2024-08-25T1800,1862A,110.4144,25.3167,桂林市,电子科大尧山校区,,28,22,33,12,14,89,,92,92,4,8,4,10,0.4,0.5
2024-08-25T1800,1863A,110.2819,25.2697,桂林市,监测站,,26,18,26,11,14,82,,83,83,5,10,6,8,0.4,0.5
2024-08-25T1800,1864A,110.3089,25.2708,桂林市,龙隐路小学,,28,28,24,15,14,84,,88,88,5,8,6,8,0.3,0.3
2024-08-25T1800,1865A,110.2869,25.2178,桂林市,八中,,25,23,28,10,12,77,,82,82,5,9,6,8,0.3,0.4
2024-08-25T1800,3403A,110.1764,25.2381,桂林市,创业大厦,,21,17,20,9,17,66,,74,74,5,12,6,7,0.3,0.3
2024-08-25T1800,3531A,110.296,25.1253,桂林市,旅游学院,,27,,14,7,10,86,,90,90,4,8,5,6,0.3,0.4
2024-08-25T1800,2674A,100.2561,34.4714,果洛藏族自治州,玛沁县大武镇,,30,,17,21,13,96,,95,95,7,3,6,5,0.5,0.4
2024-08-25T1800,1129A,126.5422,45.755,哈尔滨市,岭北,,27,22,30,12,19,86,,98,98,6,18,13,11,0.4,0.5
2024-08-25T1800,1130A,126.561,45.8167,哈尔滨市,松北商大,,30,30,29,12,12,54,,76,76,16,17,7,8,0.7,0.7
2024-08-25T1800,1131A,126.979,45.5419,哈尔滨市,阿城会宁,,30,30,38,12,19,74,,81,81,14,19,10,6,0.6,0.7
2024-08-25T1800,1132A,126.599,45.7222,哈尔滨市,南岗学府路,,32,32,41,10,13,76,,86,86,7,17,6,6,0.5,0.5
2024-08-25T1800,1133A,126.689,45.7733,哈尔滨市,太平宏伟公园,,28,28,44,7,15,78,,84,84,10,24,6,6,0.5,0.6
2024-08-25T1800,1134A,126.635,45.7667,哈尔滨市,道外承德广场,,28,28,39,3,8,72,,81,81,12,22,11,12,0.4,0.6
2024-08-25T1800,1135A,126.685,45.7319,哈尔滨市,香坊红旗大街,,34,34,43,17,20,80,,88,88,10,29,5,6,0.8,0.8
2024-08-25T1800,1136A,126.6411,45.7258,哈尔滨市,动力和平路,细颗粒物(PM2.5),97,,37,72,35,75,,91,88,13,23,6,8,0.5,0.5
2024-08-25T1800,1137A,126.593,45.7478,哈尔滨市,道里建国路,,23,22,33,14,17,71,,83,83,10,18,13,15,0.3,1.6
2024-08-25T1800,1138A,126.615,45.61,哈尔滨市,平房东轻厂,,39,39,26,16,11,71,,86,86,20,14,6,5,0.2,0.3
2024-08-25T1800,1139A,126.595,45.9855,哈尔滨市,呼兰师专,,30,30,26,13,12,72,,82,82,9,15,10,10,0.6,0.6
2024-08-25T1800,1140A,126.6206,45.6842,哈尔滨市,省农科院,,33,33,37,13,14,62,,79,79,20,31,8,8,0.5,0.6
2024-08-25T1800,2688A,93.5128,42.8172,哈密市,地区监测站,,42,35,27,15,17,134,,124,124,4,8,3,5,0.3,0.2
2024-08-25T1800,2689A,93.4961,42.8328,哈密市,哈密师范学校,,36,32,28,15,13,115,,121,121,8,10,8,5,0.5,0.6
2024-08-25T1800,2671A,100.9048,36.9639,海北藏族自治州,海晏县西海镇,,30,30,19,13,19,73,,75,75,6,9,14,15,0.4,0.5
2024-08-25T1800,3867A,102.0738,36.5056,海东市,平安区公安北苑,,31,31,31,19,21,94,,94,94,17,15,16,6,0.6,0.7
2024-08-25T1800,1409A,110.576,19.9507,海口市,东寨港,,,,,,,,,,,,,,,,
2024-08-25T1800,1410A,110.3232,20.0574,海口市,海南大学,,23,12,17,7,9,72,,68,68,7,10,6,6,0.4,0.4
2024-08-25T1800,1411A,110.283,20.0053,海口市,秀英海南医院,,19,13,18,11,10,58,,69,69,11,12,7,7,0.2,0.2
2024-08-25T1800,1412A,110.338,19.9969,海口市,海南师范大学,,24,12,16,7,9,75,,75,75,5,8,7,7,0.4,0.4
2024-08-25T1800,1413A,110.33,20.0356,海口市,龙华路环保局宿舍,,22,11,17,8,8,68,,72,72,5,7,8,8,0.2,0.3
2024-08-25T1800,3539A,110.5111,19.9736,海口市,桂林洋子站,,25,12,22,9,7,78,,77,77,4,10,7,7,0.3,0.3
2024-08-25T1800,2673A,100.6188,36.2866,海南藏族自治州,共和县恰卜恰镇,,30,30,30,19,12,83,,87,87,11,10,12,12,0.5,0.5
2024-08-25T1800,2676A,97.3731,37.3753,海西蒙古族藏族自治州,德令哈市,,31,29,59,14,20,99,,100,100,7,7,7,8,0.4,0.5
2024-08-25T1800,1048A,114.5302,36.6116,邯郸市,东污水处理厂,,32,28,58,9,28,102,,134,134,8,11,2,2,0.5,0.6
2024-08-25T1800,1049A,114.4918,36.5713,邯郸市,矿院,,30,24,66,19,36,94,,138,136,1,10,1,2,0.5,0.5
2024-08-25T1800,1050A,114.484,36.6133,邯郸市,丛台公园,,30,16,58,16,32,93,,127,127,6,8,2,3,0.4,0.5
2024-08-25T1800,3458A,114.7895,36.5593,邯郸市,香泉濮院小区,,37,33,63,3,25,118,,139,138,4,9,3,2,0.5,0.6
2024-08-25T1800,3579A,114.50634,36.77178,邯郸市,永年区实验高中,,39,24,78,12,39,124,,149,149,4,24,2,3,0.2,0.4
2024-08-25T1800,3580A,114.20016,36.44293,邯郸市,峰峰矿区临水派出所,,33,,49,12,35,104,,138,138,4,9,3,3,0.4,0.7
2024-08-25T1800,2634A,106.9893,33.1842,汉中市,汉川机床厂子校,,35,35,24,18,15,101,,108,108,7,7,4,4,0.6,0.5
2024-08-25T1800,2635A,107.0154,33.0706,汉中市,市监测站,,34,25,28,16,17,107,,110,110,3,5,7,7,0.6,0.6
2024-08-25T1800,2636A,107.0089,33.1138,汉中市,鑫源开发区,,38,38,46,19,13,110,,112,112,4,6,9,9,0.4,0.4
2024-08-25T1800,2637A,107.007,33.0323,汉中市,南郑大河坎水厂,,34,,26,17,17,107,,110,110,3,5,8,8,0.4,0.5
2024-08-25T1800,1223A,120.2072,30.2111,杭州市,滨江,臭氧1小时,68,42,46,26,26,174,,176,176,8,14,5,5,0.6,0.7
2024-08-25T1800,1224A,120.0633,30.2747,杭州市,西溪,臭氧1小时,90,46,42,37,28,192,,184,184,15,19,6,6,0.5,0.6
2024-08-25T1800,1226A,120.3461,30.3153,杭州市,下沙,臭氧1小时,58,46,48,24,24,166,,168,168,14,16,6,6,0.7,0.8
2024-08-25T1800,1227A,120.1269,30.2456,杭州市,卧龙桥,臭氧1小时,97,43,38,34,29,197,,198,198,13,17,5,5,0.7,0.7
2024-08-25T1800,1228A,120.1903,30.2692,杭州市,浙江农大,,50,43,39,27,26,160,,166,166,20,18,8,8,0.6,0.6
2024-08-25T1800,1230A,120.1197,30.3119,杭州市,和睦小学,臭氧1小时,88,43,39,28,25,190,,192,192,13,17,6,6,0.5,0.6
2024-08-25T1800,1231A,120.3019,30.4183,杭州市,临平镇,臭氧1小时,64,36,49,17,23,171,,176,176,8,9,4,4,0.8,0.8
2024-08-25T1800,1232A,120.2697,30.1819,杭州市,城厢镇,臭氧1小时,74,44,46,25,30,179,,184,184,12,15,6,6,0.6,0.7
2024-08-25T1800,1233A,120.0883,30.1808,杭州市,云栖,臭氧1小时,83,41,33,26,22,186,,196,196,15,22,8,8,0.6,0.7
2024-08-25T1800,3557A,119.9464,30.0494,杭州市,镇二中,臭氧1小时,110,52,49,35,37,220,,209,209,16,26,8,8,0.8,0.8
2024-08-25T1800,3558A,119.7183,30.2367,杭州市,市府大楼,臭氧1小时,82,34,43,25,31,185,,181,181,10,17,6,6,0.5,0.7
2024-08-25T1800,3656A,120.1556,30.2864,杭州市,消防大队,臭氧1小时,83,49,42,30,27,186,,188,188,10,12,8,7,0.9,0.8
2024-08-25T1800,1270A,117.1959,31.7848,合肥市,明珠广场,臭氧1小时,111,44,41,31,29,221,,209,209,10,20,8,10,0.6,0.6
2024-08-25T1800,1271A,117.3072,31.8764,合肥市,三里街,臭氧1小时,94,46,44,27,27,195,,209,209,11,20,6,8,0.7,0.7
2024-08-25T1800,1272A,117.2588,31.8707,合肥市,琥珀山庄,臭氧1小时,89,46,48,34,32,191,,211,211,12,18,6,9,0.6,0.7
2024-08-25T1800,1273A,117.1604,31.9052,合肥市,董铺水库,臭氧1小时,68,56,54,29,30,174,,180,180,6,14,3,4,0.5,0.6
2024-08-25T1800,1274A,117.25,31.8571,合肥市,长江中路,臭氧1小时,94,46,50,37,33,195,,204,204,11,18,8,12,0.8,0.9
2024-08-25T1800,1275A,117.266,31.9436,合肥市,庐阳区,臭氧1小时,98,41,50,22,26,198,,215,215,10,24,4,5,0.6,0.7
2024-08-25T1800,1276A,117.336,31.8586,合肥市,瑶海区,臭氧1小时,80,48,49,29,29,184,,200,200,15,26,9,10,0.7,0.8
2024-08-25T1800,1277A,117.3027,31.7964,合肥市,包河区,臭氧1小时,107,46,51,29,31,213,,206,206,6,37,8,10,0.5,0.6
2024-08-25T1800,1278A,117.2776,31.7385,合肥市,滨湖新区,臭氧1小时,104,34,40,27,28,207,,204,204,6,15,8,10,0.7,0.8
2024-08-25T1800,1279A,117.1318,31.8403,合肥市,高新区,臭氧1小时,78,46,42,31,29,182,,190,190,13,17,9,12,0.7,0.7
2024-08-25T1800,3464A,117.3803,31.9147,合肥市,高教基地,颗粒物(PM10),51,52,46,30,29,153,,178,178,16,19,9,9,0.6,0.6
2024-08-25T1800,3614A,79.924,37.0877,和田地区,地区环保局,颗粒物(PM10),407,507,429,127,99,99,,94,94,5,11,6,8,0.5,0.6
2024-08-25T1800,3615A,79.9131,37.113,和田地区,市环保局,颗粒物(PM10),432,532,428,98,89,95,,91,91,1,16,7,8,0.4,0.5
2024-08-25T1800,2516A,108.2011,24.715,河池市,东仁乐园,,27,27,29,11,26,67,,69,69,5,9,4,4,0.6,0.7
2024-08-25T1800,2517A,108.0497,24.6947,河池市,市环保站,,20,14,29,8,15,64,,71,71,5,11,11,9,0.5,0.6
2024-08-25T1800,2518A,108.0983,24.6989,河池市,市疾控中心,,21,10,30,7,14,67,,69,69,7,16,11,8,0.6,0.7
2024-08-25T1800,1696A,114.6778,23.7569,河源市,源西,,25,18,13,3,14,78,,94,94,11,19,4,4,0.6,0.6
2024-08-25T1800,1697A,114.6944,23.7586,河源市,东埔,,28,,20,19,13,78,,96,96,12,17,2,2,0.6,0.6
2024-08-25T1800,1698A,114.6892,23.7233,河源市,老城,,27,22,22,9,10,84,,99,99,9,11,6,6,0.5,0.5
2024-08-25T1800,1718A,115.4208,35.2464,菏泽市,气象局,颗粒物(PM10),53,55,58,24,32,139,,153,153,10,14,4,5,0.5,0.5
2024-08-25T1800,1719A,115.4747,35.2375,菏泽市,市政协,,49,45,59,34,36,128,,140,140,7,9,4,6,0.4,0.4
2024-08-25T1800,3374A,115.5564,35.0891,菏泽市,定陶老年大学,,46,46,54,22,26,108,,132,132,8,11,4,6,0.6,0.6
2024-08-25T1800,3647A,115.4702,35.2706,菏泽市,菏泽医专,颗粒物(PM10),68,85,65,24,33,121,,143,143,17,16,8,7,0.7,0.7
2024-08-25T1800,2514A,111.5264,24.4172,贺州市,环保小区,,25,25,28,12,14,57,,69,69,17,13,6,8,0.6,0.6
2024-08-25T1800,2515A,111.5608,24.4078,贺州市,政协大楼,,,,30,,14,54,,73,73,,14,5,9,0.6,0.6
2024-08-25T1800,3534A,111.4744,24.4553,贺州市,西湾,,15,15,28,6,16,48,,62,62,14,15,7,8,0.5,0.6
2024-08-25T1800,2385A,114.17,35.9019,鹤壁市,市监测站,,39,29,48,27,37,95,,133,130,12,6,3,3,0.5,0.5
2024-08-25T1800,2386A,114.2956,35.7511,鹤壁市,市交警支队,,36,12,53,6,37,115,,126,126,7,13,2,4,0.6,0.6
2024-08-25T1800,2387A,114.2878,35.7306,鹤壁市,迎宾馆,,36,,46,21,34,114,,129,128,10,13,3,6,0.6,0.7
2024-08-25T1800,3474A,114.2617,35.6822,鹤壁市,大新区,,,20,48,,,89,,124,121,15,10,3,3,0.4,0.5
2024-08-25T1800,3596A,114.1572,35.9603,鹤壁市,南山宾馆,,25,,36,11,31,80,,121,116,4,3,2,3,0.5,0.5
2024-08-25T1800,2244A,130.2537,47.3416,鹤岗市,哈啤分公司,,26,21,23,18,14,22,,32,26,11,8,12,11,0.5,0.4
2024-08-25T1800,2245A,130.2684,47.3086,鹤岗市,斯达机电,,30,,19,21,13,22,,30,26,14,11,14,14,0.3,0.3
2024-08-25T1800,2246A,130.3114,47.3388,鹤岗市,东山纸板厂,,33,25,18,23,13,23,,34,28,13,8,24,15,0.2,0.1
2024-08-25T1800,2247A,130.1097,47.3382,鹤岗市,五号水库,,11,11,5,3,5,20,,35,27,6,6,11,11,0.1,0.1
2024-08-25T1800,2263A,127.4833,50.2524,黑河市,交通局,,24,24,24,12,12,31,,35,35,9,8,9,6,0.5,0.4
2024-08-25T1800,2264A,127.5144,50.2341,黑河市,环保局,,16,16,15,10,10,31,,34,34,4,5,3,3,0.4,0.2
2024-08-25T1800,2265A,127.5291,50.2472,黑河市,大黑河岛,,,,8,3,12,,,,,8,10,3,2,,
2024-08-25T1800,1074A,115.6838,37.7541,衡水市,电机北厂,,48,,55,33,38,102,,104,104,11,15,7,5,0.5,0.5
2024-08-25T1800,1075A,115.6303,37.7316,衡水市,市监测站,,46,46,56,24,35,113,,116,116,14,15,4,4,0.6,0.6
2024-08-25T1800,3188A,115.6683,37.7217,衡水市,市城管局,,40,38,60,28,37,115,,116,116,9,14,3,6,0.6,0.6
2024-08-25T1800,3459A,115.5989,37.5491,衡水市,地表水厂,,46,42,69,32,42,116,,119,119,2,20,3,2,0.6,0.6
2024-08-25T1800,2456A,112.5003,26.9167,衡阳市,原169医院,,32,32,36,19,19,88,,88,88,13,15,7,10,0.5,0.5
2024-08-25T1800,2457A,112.6194,26.9258,衡阳市,衡阳化工总厂,,,33,40,,,114,,105,105,5,12,7,10,0.5,0.6
2024-08-25T1800,2458A,112.6211,26.8956,衡阳市,珠晖区环保局,,,39,37,,,108,,107,107,8,10,6,10,0.6,0.7
2024-08-25T1800,2459A,112.6197,26.8733,衡阳市,市委党校,,42,42,38,15,18,115,,110,110,6,10,11,14,0.6,0.7
2024-08-25T1800,2460A,112.6006,26.8919,衡阳市,市监测站,,36,32,33,14,23,113,,104,104,7,9,8,10,0.7,0.7
2024-08-25T1800,2461A,112.5664,26.9056,衡阳市,真空机电公司,,35,35,40,19,21,111,,94,94,4,12,8,13,0.6,0.9
2024-08-25T1800,3399A,112.6703,26.882,衡阳市,师范学院,,35,30,34,16,16,112,,105,105,9,10,8,10,0.5,0.6
2024-08-25T1800,2608A,103.3772,23.3993,红河哈尼族彝族自治州,污水处理厂,,20,,11,9,11,64,,62,62,3,6,6,7,0.3,0.3
2024-08-25T1800,2609A,103.3861,23.35,红河哈尼族彝族自治州,监测站,,21,21,14,11,10,66,,64,64,4,6,9,12,0.3,0.3
2024-08-25T1800,3038A,103.3758,23.368,红河哈尼族彝族自治州,州图书馆,,21,12,15,7,8,65,,62,62,4,6,6,20,0.3,0.3
2024-08-25T1800,1090A,111.6507,40.7517,呼和浩特市,呼市一监,,19,,18,12,10,60,,87,74,20,14,8,8,0.6,0.6
2024-08-25T1800,1091A,111.6572,40.8033,呼和浩特市,小召,,21,,13,10,9,65,,82,73,24,20,6,6,0.6,0.5
2024-08-25T1800,1094A,111.7516,40.8369,呼和浩特市,如意水处理厂,,19,19,23,8,7,60,,65,61,27,25,6,6,0.4,0.4
2024-08-25T1800,1095A,111.7276,40.8062,呼和浩特市,二十九中,,20,14,24,9,10,64,,76,67,23,25,4,4,0.6,0.6
2024-08-25T1800,1096A,111.5512,40.7866,呼和浩特市,工大金川校区,,26,11,25,7,10,81,,60,60,19,34,2,2,0.5,0.4
2024-08-25T1800,1097A,111.717,40.7612,呼和浩特市,化肥厂生活区,,24,20,29,9,9,76,,88,77,14,15,8,8,0.4,0.4
2024-08-25T1800,3698A,111.5968,40.8178,呼和浩特市,红旗小学,,25,9,24,7,10,79,,66,66,22,31,3,3,0.4,0.4
2024-08-25T1800,3699A,111.6518,40.8389,呼和浩特市,海东办,,20,12,25,10,10,62,,66,66,31,30,5,5,0.7,0.7
2024-08-25T1800,2192A,119.7594,49.2261,呼伦贝尔市,区环保局,,29,29,27,19,21,72,,76,76,12,8,5,4,0.4,0.4
2024-08-25T1800,3061A,119.7512,49.1577,呼伦贝尔市,国华电力东,,31,31,27,14,19,77,,80,80,6,4,3,3,0.4,0.3
2024-08-25T1800,1250A,120.0751,30.8669,湖州市,城西水厂,,50,21,36,14,25,160,,162,162,8,14,4,5,0.4,0.5
2024-08-25T1800,2873A,120.0875,30.8955,湖州市,仁皇山新区,臭氧1小时,59,24,36,16,26,167,,164,164,14,17,6,7,0.6,0.7
2024-08-25T1800,2907A,120.1844,30.8596,湖州市,吴兴区站,臭氧1小时,54,20,36,14,23,163,,153,153,4,10,7,7,0.5,0.5
2024-08-25T1800,3562A,120.4148,30.8538,湖州市,南浔区站,,49,30,36,16,25,154,,151,151,8,12,4,4,0.6,0.6
2024-08-25T1800,1607A,120.9092,40.7136,葫芦岛市,龙港区,,35,24,35,13,18,111,,118,118,14,24,10,22,0.4,0.5
2024-08-25T1800,1608A,120.8392,40.7514,葫芦岛市,化工街,颗粒物(PM10),52,53,28,12,13,118,,116,116,15,22,8,23,0.4,0.5
2024-08-25T1800,1609A,120.8341,40.7073,葫芦岛市,新区,,34,30,29,10,12,108,,117,117,12,24,10,13,0.4,0.5
2024-08-25T1800,1610A,120.8695,40.7677,葫芦岛市,东城区,,35,32,27,14,13,109,,112,112,15,21,7,12,0.0,0.1
2024-08-25T1800,2482A,109.5981,27.5721,怀化市,林科所,,22,,12,11,7,69,,68,68,14,14,3,7,0.2,0.3
2024-08-25T1800,2483A,109.9453,27.5444,怀化市,河西地税局,,25,9,16,6,9,80,,74,74,3,8,3,2,0.4,0.5
2024-08-25T1800,2484A,109.9781,27.5342,怀化市,市四医院,,27,14,23,12,13,86,,76,76,4,11,4,6,0.5,0.5
2024-08-25T1800,2485A,109.9972,27.5578,怀化市,监测楼,,27,15,23,12,10,86,,76,76,3,9,3,4,0.6,0.6
2024-08-25T1800,2486A,110.0394,27.583,怀化市,市委党校,,21,14,22,3,11,66,,74,74,3,11,4,7,0.4,0.5
2024-08-25T1800,1210A,119.036,33.5981,淮安市,钵池山,,38,24,27,24,24,120,,129,129,9,19,8,7,0.7,0.7
2024-08-25T1800,1211A,119.007,33.575,淮安市,北京南路,,38,36,31,26,22,120,,132,132,5,12,4,4,0.8,0.8
2024-08-25T1800,1212A,118.989,33.6067,淮安市,市监测站,,41,31,33,27,26,130,,141,141,9,14,6,6,0.7,0.8
2024-08-25T1800,1213A,119.135,33.5039,淮安市,楚州区监测站,,39,39,41,20,20,116,,123,123,9,16,5,5,0.6,0.6
2024-08-25T1800,1214A,119.0186,33.6297,淮安市,淮阴区监测站,,38,36,38,25,26,121,,139,139,14,17,4,4,0.6,0.6
2024-08-25T1800,3426A,118.8755,33.2894,淮安市,新华书店,,41,26,32,21,23,131,,130,130,9,14,5,6,0.7,0.7
2024-08-25T1800,2282A,116.8004,33.975,淮北市,监测站,,42,42,42,24,27,126,,166,160,8,6,4,5,0.8,0.8
2024-08-25T1800,2283A,116.8091,33.9007,淮北市,烈山区政府,,48,44,49,28,30,152,,176,175,6,7,5,6,0.8,0.8
2024-08-25T1800,3330A,116.8873,33.9836,淮北市,杜集区检察院,,50,50,45,28,37,152,,170,170,5,5,2,3,0.6,0.7
2024-08-25T1800,4017A,116.7923,33.9535,淮北市,市博物馆,,42,28,42,27,29,132,,170,167,13,7,4,4,0.8,0.8
2024-08-25T1800,2277A,116.8305,32.7727,淮南市,潘集区政府,臭氧1小时,58,51,51,28,29,166,,184,184,15,12,5,4,0.8,0.8
2024-08-25T1800,2278A,117.0067,32.6524,淮南市,师范学院,臭氧1小时,62,44,54,28,26,169,,190,189,6,8,4,5,0.6,0.8
2024-08-25T1800,2279A,116.8569,32.5951,淮南市,谢家集区政府,臭氧1小时,72,42,38,29,29,177,,177,177,9,12,7,8,0.5,0.6
2024-08-25T1800,2280A,116.8281,32.633,淮南市,八公山区政府,臭氧1小时,82,45,51,25,30,185,,179,179,10,11,6,7,0.5,0.6
2024-08-25T1800,2281A,116.6325,32.6201,淮南市,焦岗湖风景区管理处,臭氧1小时,52,30,39,18,15,161,,140,140,11,15,6,6,0.4,0.4
2024-08-25T1800,2894A,117.0566,32.6531,淮南市,经济技术开发区消防队,,47,29,40,3,18,150,,188,186,7,11,4,5,0.5,0.6
2024-08-25T1800,3329A,117.0108,32.5893,淮南市,山南新区,臭氧1小时,60,47,55,28,34,168,,189,189,11,12,4,5,0.6,0.8
2024-08-25T1800,2446A,114.9028,30.4742,黄冈市,职工中心,臭氧1小时,105,46,33,29,22,209,,191,191,8,10,10,9,0.6,0.4
2024-08-25T1800,2929A,114.8858,30.4519,黄冈市,红卫路,臭氧1小时,98,43,34,31,24,198,,183,183,7,10,10,9,0.6,0.5
2024-08-25T1800,3398A,114.9136,30.4445,黄冈市,市林业局,臭氧1小时,113,44,37,12,17,225,,201,201,8,9,9,8,0.5,0.5
2024-08-25T1800,2672A,102.0199,35.5102,黄南藏族自治州,同仁县隆务镇,,39,39,23,15,12,80,,83,83,3,3,8,8,0.4,0.5
2024-08-25T1800,2295A,118.2903,29.6963,黄山市,延安路89号,,42,42,42,17,16,134,,153,153,5,6,5,5,0.6,0.6
2024-08-25T1800,2296A,118.327,29.7178,黄山市,黄山东路89号,,42,42,28,19,12,129,,146,146,7,6,5,4,0.5,0.5
2024-08-25T1800,2297A,118.1371,30.2756,黄山市,黄山区政府5号楼,,43,39,31,26,18,137,,118,118,6,7,6,6,0.4,0.5
2024-08-25T1800,2423A,115.0601,30.2313,黄石市,沈家营,臭氧1小时,68,41,58,14,21,174,,184,184,12,14,7,11,0.6,0.7
2024-08-25T1800,2424A,115.0817,30.2006,黄石市,陈家湾,臭氧1小时,59,41,57,15,22,167,,178,178,18,16,9,11,0.6,0.7
2024-08-25T1800,2426A,114.8988,30.2019,黄石市,铁山,,50,33,40,13,20,159,,170,170,2,12,7,10,0.3,0.4
2024-08-25T1800,2427A,115.0307,30.2092,黄石市,团城山,臭氧1小时,88,30,43,15,20,190,,176,176,11,16,13,16,0.5,0.6
2024-08-25T1800,3149A,115.0235,30.1578,黄石市,笔架山北路,,49,25,36,8,16,156,,150,150,6,14,7,9,0.2,0.3
2024-08-25T1800,1392A,114.4183,23.0528,惠州市,河南岸金山湖子站,,30,20,27,10,16,96,,126,126,12,13,4,4,0.6,0.6
2024-08-25T1800,1393A,114.4053,23.0822,惠州市,下埔横江三路子站,,35,17,30,11,16,112,,131,131,12,12,3,4,0.6,0.6
2024-08-25T1800,1394A,114.4103,23.1142,惠州市,江北云山西路子站,,34,19,29,10,14,107,,134,134,13,11,3,5,0.7,0.7
2024-08-25T1800,1395A,114.4645,22.7833,惠州市,惠阳区承修路船湖子站,,36,29,38,14,22,114,,103,103,16,26,4,6,0.7,0.7
2024-08-25T1800,1396A,114.5317,22.7422,惠州市,大亚湾管委会子站,,34,34,29,18,17,106,,102,102,23,28,7,7,0.3,0.3
2024-08-25T1800,3314A,114.4338,22.8134,惠州市,惠阳秋长,,39,22,34,18,22,124,,129,129,17,24,5,6,0.3,0.4
2024-08-25T1800,3452A,114.6517,22.775,惠州市,大亚湾霞涌,,29,17,26,16,16,92,,116,116,14,14,3,4,0.4,0.5
2024-08-25T1800,2240A,130.9762,45.3001,鸡西市,环保局,,22,22,25,11,13,56,,51,51,7,8,5,6,0.4,0.4
2024-08-25T1800,2243A,130.9429,45.3039,鸡西市,第一中学,,33,33,28,8,12,48,,57,57,24,12,5,5,0.3,0.3
2024-08-25T1800,3707A,131.0207,45.3073,鸡西市,欧美日汽修厂,,26,21,21,18,14,61,,56,56,9,10,4,4,0.2,0.3
2024-08-25T1800,3709A,130.9967,45.3106,鸡西市,市政设施管理处,,42,42,28,14,14,63,,59,59,9,9,7,5,0.4,0.3
2024-08-25T1800,2367A,114.9754,27.0803,吉安市,红声器材厂,,31,31,37,18,20,86,,100,100,9,11,9,10,0.5,0.5
2024-08-25T1800,2368A,114.9658,27.0999,吉安市,市森林工业局,,30,27,35,16,22,93,,106,106,9,11,6,9,0.5,0.5
2024-08-25T1800,2369A,114.99,27.1312,吉安市,市环境监测站,,30,30,33,14,18,85,,102,102,8,10,8,16,0.5,0.6
2024-08-25T1800,2370A,115.0093,27.0968,吉安市,青原区法院,,28,28,32,14,19,84,,101,101,10,12,7,11,0.5,0.5
2024-08-25T1800,1772A,126.54,43.8622,吉林市,哈达湾,,28,14,30,6,21,89,,96,96,7,16,5,5,0.5,0.6
2024-08-25T1800,1773A,126.5844,43.8358,吉林市,东局子,,29,14,28,12,18,90,,99,99,11,15,4,4,0.4,0.5
2024-08-25T1800,1774A,126.5052,43.8245,吉林市,电力学院,,27,20,33,13,21,86,,99,99,7,14,4,4,0.7,0.8
2024-08-25T1800,1775A,126.6133,43.8972,吉林市,江北,,27,15,34,12,21,86,,95,95,9,12,6,6,0.4,0.5
2024-08-25T1800,1776A,126.555,43.8306,吉林市,江南公园,,29,14,24,7,20,91,,100,100,8,14,4,4,0.6,0.7
2024-08-25T1800,1778A,126.7061,43.7133,吉林市,丰满,,,,,,,,,,,,,,,,
2024-08-25T1800,2868A,126.4739,43.953,吉林市,九站,,25,14,34,7,19,79,,96,96,11,13,5,6,0.6,0.6
2024-08-25T1800,1299A,116.9862,36.6114,济南市,科干所,细颗粒物(PM2.5),55,56,64,39,39,141,,144,144,20,23,5,6,0.9,0.9
2024-08-25T1800,1300A,116.9376,36.665,济南市,农科所,,44,44,65,27,38,112,,123,123,30,32,6,7,0.6,0.7
2024-08-25T1800,1301A,117.1265,36.6734,济南市,开发区,颗粒物(PM10),52,54,65,3,31,111,,131,126,33,29,7,8,0.6,0.7
2024-08-25T1800,1303A,117.0624,36.6868,济南市,省种子仓库,颗粒物(PM10),54,58,75,22,35,113,,126,120,36,45,5,6,0.7,0.8
2024-08-25T1800,1304A,116.9489,36.6447,济南市,机床二厂,颗粒物(PM10),53,56,73,22,30,120,,146,144,43,32,7,8,0.8,0.8
2024-08-25T1800,1305A,117.0495,36.663,济南市,市监测站,颗粒物(PM10),53,56,67,32,38,106,,134,127,37,29,8,8,0.8,0.8
2024-08-25T1800,1306A,116.7675,36.5484,济南市,长清党校,,42,39,60,27,37,132,,148,148,14,21,9,11,0.8,0.9
2024-08-25T1800,1616A,117.6795,36.229,济南市,技术学院,颗粒物(PM10),56,61,57,24,34,136,,177,176,12,18,11,13,1.0,1.3
2024-08-25T1800,1961A,117.532,36.6868,济南市,东山小学,颗粒物(PM10),72,93,64,27,35,91,,145,135,41,23,10,9,1.2,1
2024-08-25T1800,3059A,117.7161,36.2049,济南市,泰兴公司,颗粒物(PM10),58,66,55,22,33,126,,167,166,18,31,10,12,0.8,1
2024-08-25T1800,3064A,117.6867,36.2171,济南市,莱芜战役纪念馆,颗粒物(PM10),56,61,55,24,31,125,,161,160,11,19,8,11,0.8,1.1
2024-08-25T1800,3494A,117.1673,36.9782,济南市,济阳区政府,,39,37,84,17,42,122,,132,132,16,24,11,13,0.5,0.9
2024-08-25T1800,3495A,117.1171,36.63,济南市,锦屏中学,,37,32,53,20,32,117,,127,126,13,16,10,13,0.6,0.8
2024-08-25T1800,3682A,116.9814,36.6819,济南市,济南四建,颗粒物(PM10),60,70,69,32,36,103,,138,131,43,35,7,8,0.9,0.9
2024-08-25T1800,1653A,116.6251,35.4302,济宁市,火炬城,臭氧1小时,82,58,64,36,38,185,,183,183,9,14,9,11,1.1,1.2
2024-08-25T1800,1655A,116.5491,35.4042,济宁市,电化厂,臭氧1小时,90,58,62,39,41,192,,181,181,8,16,8,9,1.1,1.1
2024-08-25T1800,3500A,116.5814,35.3707,济宁市,北湖一中,臭氧1小时,79,64,58,36,37,183,,178,178,7,10,6,7,0.7,0.8
2024-08-25T1800,3501A,116.8249,35.5593,济宁市,服务中心,,47,41,56,25,34,148,,156,156,7,13,4,5,0.6,0.7
2024-08-25T1800,3678A,116.5907,35.4054,济宁市,市第七中学,臭氧1小时,74,60,58,36,37,179,,178,178,11,15,5,6,0.9,1
2024-08-25T1800,2255A,130.2751,46.8028,佳木斯市,佳纺,,31,31,18,14,9,29,,39,37,19,14,8,7,0.7,0.6
2024-08-25T1800,2256A,130.3995,46.8307,佳木斯市,发电厂,,38,38,25,17,10,21,,38,38,25,12,6,8,0.7,0.5
2024-08-25T1800,2257A,130.3258,46.7975,佳木斯市,环保局,,39,32,20,27,10,18,,35,34,29,19,11,9,0.9,0.6
2024-08-25T1800,2258A,130.3648,46.8032,佳木斯市,十一中,,36,36,20,16,11,30,,39,39,24,17,8,8,0.6,0.5
2024-08-25T1800,2259A,130.3794,46.7588,佳木斯市,四丰,,,30,12,15,7,21,,36,35,,,1,1,0.6,0.5
2024-08-25T1800,1252A,120.7436,30.778,嘉兴市,清河小学,臭氧1小时,70,30,32,18,17,176,,150,150,14,15,6,4,0.6,0.8
2024-08-25T1800,1253A,120.726,30.7478,嘉兴市,嘉兴学院,臭氧1小时,52,,2,20,19,161,,148,148,15,14,2,2,0.5,0.5
2024-08-25T1800,2872A,120.7846,30.7525,嘉兴市,南湖区残联,臭氧1小时,106,30,30,22,21,212,,194,194,10,10,4,4,0.6,0.6
2024-08-25T1800,3407A,120.6916,30.7739,嘉兴市,秀洲住建,臭氧1小时,58,34,32,20,20,166,,148,148,9,12,4,4,0.6,0.6
2024-08-25T1800,1945A,98.2908,39.7711,嘉峪关市,气象局,颗粒物(PM10),129,207,118,46,47,120,,113,113,3,17,8,18,0.3,0.7
2024-08-25T1800,2884A,98.2672,39.7978,嘉峪关市,酒钢宾馆,颗粒物(PM10),136,222,119,53,51,118,,110,110,8,19,16,39,0.2,0.6
2024-08-25T1800,3248A,98.2643,39.7724,嘉峪关市,雄关区,颗粒物(PM10),101,152,111,31,37,116,,105,105,6,22,9,14,0,0.9
2024-08-25T1800,1383A,113.1064,22.6058,江门市,北街,,26,15,19,15,12,83,,96,96,27,13,4,4,0.6,0.6
2024-08-25T1800,1384A,113.0731,22.5835,江门市,西区,,35,31,23,24,14,92,,107,107,24,12,5,5,0.6,0.4
2024-08-25T1800,1385A,113.0219,22.5311,江门市,圭峰西,,38,31,22,26,15,97,,100,100,14,10,3,3,0.7,0.6
2024-08-25T1800,1386A,113.0828,22.5947,江门市,东湖,,30,30,23,19,13,73,,96,96,20,11,4,5,0.5,0.5
2024-08-25T1800,3311A,113.1075,22.5647,江门市,江海富民,,39,39,32,12,11,92,,117,117,25,14,6,6,0.5,0.5
2024-08-25T1800,3449A,113.05,22.4667,江门市,新会银湖,,42,42,22,25,11,86,,103,103,21,6,7,7,0.6,0.5
2024-08-25T1800,1828A,113.227,35.2125,焦作市,市环保局,,37,20,50,12,32,118,,128,127,9,14,1,2,0.3,0.6
2024-08-25T1800,1830A,113.1992,35.2590,焦作市,影视城,,,,,,,,,,,,,,,,
2024-08-25T1800,3169A,113.2725,35.2067,焦作市,太极体育中心,,35,19,64,13,32,112,,123,123,9,15,1,3,0.5,0.7
2024-08-25T1800,3335A,113.3137,35.2641,焦作市,马村街道办,,35,,56,18,36,110,,127,123,9,14,3,3,0.4,0.7
2024-08-25T1800,3336A,113.2465,35.2373,焦作市,焦作技师学院,,34,26,54,14,30,107,,122,120,8,11,2,2,0.6,0.7
2024-08-25T1800,3477A,113.1656,35.2539,焦作市,中站许衡医院,,38,38,42,17,31,107,,121,118,8,10,2,2,0.4,0.6
2024-08-25T1800,3981A,113.2449,35.1803,焦作市,原李万街道办,,44,44,52,17,32,114,,120,120,9,14,8,7,0.7,0.9
2024-08-25T1800,1708A,116.3701,23.5345,揭阳市,新兴,,,,42,19,23,79,,124,124,13,22,3,6,0.7,0.8
2024-08-25T1800,1709A,116.3264,23.5443,揭阳市,西马,,23,14,44,12,21,73,,111,111,11,13,3,5,0.6,0.7
2024-08-25T1800,1710A,116.3611,23.5626,揭阳市,东兴,,,,46,15,18,70,,113,113,18,22,4,5,0.8,0.9
2024-08-25T1800,1711A,116.4151,23.5294,揭阳市,渔湖,,,,44,15,19,78,,122,122,15,26,4,6,0.5,0.7
2024-08-25T1800,3320A,116.403,23.5699,揭阳市,曲溪,,38,,33,26,20,71,,122,115,18,28,1,5,0.8,0.9
2024-08-25T1800,1944A,102.1692,38.5167,金昌市,天庆家园,颗粒物(PM10),70,89,84,43,50,93,,90,90,7,12,10,6,0.5,0.7
2024-08-25T1800,3170A,102.1864,38.5253,金昌市,市委党校,颗粒物(PM10),91,132,106,45,45,79,,77,77,11,14,8,11,0.6,0.7
2024-08-25T1800,4022A,102.1647,38.5371,金昌市,金川区人防中心,颗粒物(PM10),78,105,101,40,44,95,,97,97,4,10,8,10,0.5,0.7
2024-08-25T1800,1262A,119.647,29.077,金华市,十五中,臭氧1小时,94,39,60,26,32,195,,243,243,11,23,2,3,0.1,0.2
2024-08-25T1800,1263A,119.686,29.1029,金华市,监测站,臭氧1小时,68,39,55,25,34,174,,243,243,12,26,2,4,0.5,0.6
2024-08-25T1800,3659A,119.656,29.1131,金华市,气象局,臭氧1小时,55,39,58,16,32,164,,241,241,14,28,4,6,0.5,0.6
2024-08-25T1800,1767A,121.1115,41.0879,锦州市,南山,,28,20,26,6,18,87,,95,94,15,15,7,9,0.5,0.6
2024-08-25T1800,1768A,121.0533,40.8434,锦州市,开发区,,36,16,38,13,17,115,,118,118,7,24,5,11,0.8,0.9
2024-08-25T1800,1769A,121.1836,41.1119,锦州市,百股街道,,29,29,28,3,12,63,,91,88,18,16,7,9,0.6,0.7
2024-08-25T1800,1770A,121.1178,41.1222,锦州市,天安街道,,27,21,26,15,21,86,,95,94,15,14,10,10,0.7,0.8
2024-08-25T1800,1771A,121.1303,41.1386,锦州市,北湖公园,,26,18,27,8,15,83,,98,97,12,9,7,7,0.7,0.7
2024-08-25T1800,2160A,112.85,35.5051,晋城市,自来水公司,,43,33,58,19,28,137,,132,132,8,13,6,7,0.7,0.8
2024-08-25T1800,2161A,112.8318,35.4936,晋城市,白云商贸,,41,36,51,17,24,131,,130,130,10,14,7,8,0.8,0.8
2024-08-25T1800,2162A,112.8508,35.4887,晋城市,市环保局,,49,49,65,19,29,133,,128,128,8,13,7,8,0.7,0.7
2024-08-25T1800,2163A,112.8676,35.4897,晋城市,技术学院,,40,38,47,22,28,126,,123,123,12,18,7,8,0.7,0.8
2024-08-25T1800,2165A,112.8453,35.546,晋城市,白马寺,,,,,,,,,,,,,,,,
2024-08-25T1800,3620A,112.8271,35.4828,晋城市,泽州一中,,37,36,51,14,27,118,,116,116,10,16,7,7,0.7,0.9
2024-08-25T1800,2171A,112.7532,37.6945,晋中市,锦纶小区,颗粒物(PM10),54,58,57,29,33,114,,138,138,9,10,9,8,0.8,0.8
2024-08-25T1800,2173A,112.7249,37.7067,晋中市,南都小区,颗粒物(PM10),54,57,58,33,34,115,,139,139,12,11,4,5,1.0,1
2024-08-25T1800,2174A,112.6991,37.6982,晋中市,榆次区政府,"颗粒物(PM10),细颗粒物(PM2.5)",53,56,54,37,29,113,,136,136,12,10,7,8,0.5,0.5
2024-08-25T1800,2865A,112.7195,37.6828,晋中市,榆次三中,颗粒物(PM10),57,63,59,34,31,115,,138,138,10,10,6,6,0.8,0.8
2024-08-25T1800,2439A,112.2014,31.0481,荆门市,竹园小学,,37,32,34,17,18,116,,135,135,8,13,13,13,0.5,0.5
2024-08-25T1800,2440A,112.1969,30.9891,荆门市,掇刀,,36,32,32,18,18,115,,137,137,12,14,11,11,0.5,0.5
2024-08-25T1800,2441A,112.2213,31.0386,荆门市,石化一小,,37,22,37,14,15,118,,139,139,5,15,19,15,0.5,0.5
2024-08-25T1800,3012A,112.1849,31.0362,荆门市,西山林语,,37,24,27,17,18,117,,139,137,8,12,10,11,0.6,0.6
2024-08-25T1800,3547A,112.1632,31.0138,荆门市,龙泉中学南校,,37,26,29,14,16,116,,140,139,6,11,11,11,0.4,0.5
2024-08-25T1800,1844A,112.2494,30.3197,荆州市,市图书馆,,,18,23,11,17,,,112,,10,13,8,8,0.6,0.7
2024-08-25T1800,1845A,112.2008,30.3544,荆州市,市委党校,,40,15,24,9,18,128,,127,127,9,13,9,9,0.6,0.6
2024-08-25T1800,3194A,112.2747,30.3122,荆州市,管委会,,40,19,24,6,21,125,,128,128,6,13,6,8,0.5,0.6
2024-08-25T1800,3548A,112.1655,30.3364,荆州市,学苑路,,43,19,29,16,22,136,,138,138,8,16,7,7,0.6,0.7
2024-08-25T1800,2342A,117.3102,29.3867,景德镇市,王港中学,,,,,,,,,,,,,,,,
2024-08-25T1800,2343A,117.2117,29.2933,景德镇市,老干部活动中心,,45,37,35,31,21,128,,158,158,7,15,6,6,0.6,0.4
2024-08-25T1800,2344A,117.1894,29.2789,景德镇市,兽医站,,46,46,34,31,22,126,,144,144,5,10,9,8,0.6,0.6
2024-08-25T1800,2345A,117.1547,29.2617,景德镇市,台达陶瓷,颗粒物(PM10),51,51,40,35,24,98,,130,130,22,16,59,17,0.4,0.4
2024-08-25T1800,2346A,117.2461,29.2956,景德镇市,陶研所,,41,41,34,19,16,103,,134,134,10,12,14,14,0.4,0.3
2024-08-25T1800,1803A,115.9872,29.6815,九江市,十里,,45,36,38,26,24,144,,136,136,10,18,9,10,0.8,0.8
2024-08-25T1800,1804A,115.9584,29.7046,九江市,茅山头,臭氧1小时,53,25,36,25,28,162,,146,146,19,23,7,9,0.8,0.7
2024-08-25T1800,1805A,115.9877,29.7295,九江市,西园,,40,32,38,19,24,127,,150,150,30,27,9,14,0.5,0.4
2024-08-25T1800,1806A,116.0172,29.6547,九江市,五七二七厂,细颗粒物(PM2.5),52,,25,36,27,113,,127,125,10,14,8,8,0.5,0.5
2024-08-25T1800,1808A,115.9114,29.6038,九江市,综合工业园,,43,40,37,25,28,137,,140,140,7,32,7,10,0.5,0.6
2024-08-25T1800,1809A,116.0721,29.7535,九江市,石化总厂,颗粒物(PM10),53,55,47,22,26,133,,137,137,10,37,12,14,0.9,0.9
2024-08-25T1800,1810A,115.9773,29.5698,九江市,庐山气象台,,38,31,32,26,25,117,,125,124,5,3,9,10,0.8,0.8
2024-08-25T1800,3190A,116.0254,29.6994,九江市,外国语学校,,45,26,38,22,26,142,,148,148,11,21,11,13,0.9,0.9
2024-08-25T1800,2658A,98.5061,39.7443,酒泉市,仓门街子站,颗粒物(PM10),248,383,111,59,33,107,,113,113,7,6,8,8,0.1,0.2
2024-08-25T1800,2659A,98.4989,39.7256,酒泉市,油田生活基地,颗粒物(PM10),196,342,108,25,23,112,,112,112,5,8,7,9,0.1,0.2
2024-08-25T1800,2698A,76.0072,39.4467,喀什地区,巡警大队,,36,35,80,3,9,115,,105,105,8,16,4,4,0.3,0.3
2024-08-25T1800,2699A,75.9755,39.4694,喀什地区,吾办,,39,34,71,20,24,124,,110,110,9,13,5,5,0.4,0.5
2024-08-25T1800,4027A,75.9483,39.4689,喀什地区,老干局,,38,32,75,3,11,121,,105,105,6,10,5,5,0.4,0.5
2024-08-25T1800,1824A,114.3389,34.7781,开封市,肿瘤医院,,31,6,65,3,32,97,,120,118,7,13,4,4,0.4,0.5
2024-08-25T1800,1826A,114.2885,34.7965,开封市,世纪星幼儿园,,,11,61,,4,92,,126,122,16,19,4,4,0.6,0.7
2024-08-25T1800,3147A,114.3438,34.8106,开封市,龙亭公园,,29,,71,12,35,91,,122,119,11,20,2,2,0.6,0.8
2024-08-25T1800,3210A,114.3644,34.7964,开封市,汴京公园,,28,13,70,7,34,88,,124,120,12,17,3,4,0.4,0.6
2024-08-25T1800,3473A,114.2485,34.8306,开封市,技师学院,,,,62,,32,,,98,,,18,,2,,1.0
2024-08-25T1800,3592A,114.4644,34.7556,开封市,祥符区生态环境局,,22,21,55,15,31,65,,122,116,32,27,4,4,0.6,0.7
2024-08-25T1800,1951A,84.895,45.6094,克拉玛依市,长征新村,,36,16,24,3,4,113,,107,104,2,5,7,7,0.2,0.2
2024-08-25T1800,1952A,84.8988,45.5893,克拉玛依市,南林小区,,37,14,25,8,10,117,,109,101,3,10,9,10,0.1,0.2
2024-08-25T1800,1954A,84.905,44.3396,克拉玛依市,独山子区,,40,22,34,6,11,126,,123,123,5,6,8,8,0.3,0.3
2024-08-25T1800,1955A,85.6979,46.098,克拉玛依市,乌尔禾区商贸楼,,,,38,,12,,,99,,,14,,6,,0.2
2024-08-25T1800,3612A,85.1045,45.6899,克拉玛依市,白碱滩区新站,,38,28,28,3,8,119,,118,108,3,4,9,9,0.3,0.2
2024-08-25T1800,2697A,76.1454,39.7142,克孜勒苏柯尔克孜自治州,市人民政府,,49,43,68,12,22,154,,128,128,2,8,2,5,0.2,0.2
2024-08-25T1800,3665A,76.1658,39.7157,克孜勒苏柯尔克孜自治州,克州文化中心,,47,42,56,18,20,149,,128,128,1,5,5,5,0.2,0.3
2024-08-25T1800,1450A,102.8204,24.8886,昆明市,呈贡新区,,,24,29,12,17,79,,75,75,9,12,,6,,0.6
2024-08-25T1800,1451A,102.6251,24.9608,昆明市,西山森林公园,,,,,,,,,,,,,,,,
2024-08-25T1800,1452A,102.7252,25.0902,昆明市,龙泉镇,,26,26,25,14,13,82,,83,83,13,13,7,7,0.6,0.6
2024-08-25T1800,1453A,102.7266,25.0375,昆明市,东风东路,,24,16,24,12,14,76,,77,77,16,16,5,5,0.5,0.5
2024-08-25T1800,1454A,102.6742,25.0669,昆明市,金鼎山,,43,43,24,11,12,88,,87,87,18,12,7,8,0.4,0.3
2024-08-25T1800,1455A,102.6644,25.0401,昆明市,碧鸡广场,,26,26,30,10,14,67,,79,79,24,14,5,4,0.5,0.4
2024-08-25T1800,3179A,102.7494,25.0119,昆明市,官渡区博物馆,,26,14,26,9,13,81,,80,80,11,18,7,7,0.2,0.3
2024-08-25T1800,3375A,102.8017,24.8336,昆明市,青年创业园,,25,20,19,16,14,79,,76,76,6,11,5,4,0.5,0.4
2024-08-25T1800,3550A,102.7997,24.9786,昆明市,昆明学院,,27,16,31,8,20,86,,79,79,9,17,7,6,0.4,0.5
2024-08-25T1800,3551A,102.5967,24.6736,昆明市,晋宁区生态环境分局,,20,13,23,9,12,61,,72,71,9,11,4,5,0.4,0.5
2024-08-25T1800,3552A,102.6678,24.9856,昆明市,云天化总部,,30,12,25,9,16,95,,82,82,4,10,5,5,0.6,0.7
2024-08-25T1800,1456A,91.1319,29.6514,拉萨市,八廓街,,49,9,12,6,8,155,,142,142,7,16,7,6,0.3,0.3
2024-08-25T1800,1457A,91.1221,29.6747,拉萨市,市环保局,,48,8,15,3,7,153,,140,140,9,18,7,7,0.1,0.2
2024-08-25T1800,1458A,91.0874,29.6475,拉萨市,区监测站,,44,6,13,6,8,140,,134,134,6,23,8,8,0.4,0.3
2024-08-25T1800,1459A,91.1774,29.6541,拉萨市,西藏大学,,48,7,10,3,7,153,,139,139,5,11,7,6,0.2,0
2024-08-25T1800,1460A,90.9798,29.6588,拉萨市,区辐射站,,46,8,17,6,9,146,,129,129,7,22,8,8,0.1,0.2
2024-08-25T1800,1461A,91.0834,29.6292,拉萨市,拉萨火车站,,44,10,10,6,7,140,,127,127,6,14,6,5,0.1,0.2
2024-08-25T1800,2520A,109.2203,23.7256,来宾市,来宾技工学校,,27,19,29,15,14,84,,76,76,6,13,9,19,0.7,0.7
2024-08-25T1800,3535A,109.1781,23.7297,来宾市,兴宾区政府,,26,18,20,10,7,81,,84,84,4,6,6,7,0.6,0.7
2024-08-25T1800,4002A,109.2416,23.7461,来宾市,中南小学,,29,20,29,20,14,90,,86,86,6,14,11,12,0.8,0.8
2024-08-25T1800,1476A,103.631,36.1031,兰州市,兰炼宾馆,,32,29,30,22,20,81,,76,76,14,11,8,8,0.3,0.3
2024-08-25T1800,1477A,104.1373,35.9454,兰州市,榆中兰大校区,,,,,,,,,,,,,,,,
2024-08-25T1800,1478A,103.8412,36.0726,兰州市,生物制品所,,26,24,27,17,21,83,,79,78,17,14,7,6,0.5,0.4
2024-08-25T1800,1479A,103.831,36.0464,兰州市,铁路设计院,,39,39,29,27,24,69,,81,69,39,22,8,8,0.7,0.5
2024-08-25T1800,3186A,103.7158,36.1058,兰州市,教育港,,40,40,40,25,25,76,,76,76,19,11,5,5,0.4,0.4
2024-08-25T1800,3241A,103.7439,36.0842,兰州市,百合公园,,30,30,31,8,17,74,,78,72,16,14,9,7,0.5,0.4
2024-08-25T1800,3242A,103.9611,35.998,兰州市,和平,,30,19,28,12,15,93,,86,86,14,13,9,8,0.7,0.8
2024-08-25T1800,3245A,103.6633,36.533,兰州新区,新区管委会,,45,45,32,23,16,99,,96,94,6,6,8,11,0.6,0.5
2024-08-25T1800,3246A,103.6975,36.4789,兰州新区,舟曲中学,,35,31,24,20,14,112,,103,103,6,6,10,10,0.5,0.5
2024-08-25T1800,1067A,116.6708,39.5111,廊坊市,药材公司,,37,37,49,10,21,102,,116,116,27,22,3,3,0.4,0.5
2024-08-25T1800,1068A,116.7214,39.5589,廊坊市,开发区,,36,32,46,25,27,83,,107,106,13,24,3,2,0.5,0.5
2024-08-25T1800,1070A,116.7244,39.5269,廊坊市,北华航天学院,颗粒物(PM10),53,55,63,19,22,124,,119,119,13,22,1,2,0.4,0.5
2024-08-25T1800,2919A,116.7022,39.5453,廊坊市,河北工业大学,,42,28,49,20,26,134,,121,121,12,20,1,1,0.4,0.5
2024-08-25T1800,2535A,103.7723,29.5462,乐山市,花湖湾,,49,31,49,26,48,155,,159,159,5,18,6,5,0.4,0.7
2024-08-25T1800,2536A,103.7627,29.5844,乐山市,牛耳桥,,47,29,59,19,47,150,,166,166,11,22,2,2,0.5,0.8
2024-08-25T1800,2537A,103.7508,29.6006,乐山市,市第三水厂,,49,31,60,18,43,156,,174,174,9,22,3,3,0.6,0.9
2024-08-25T1800,2538A,103.7571,29.5664,乐山市,市监测站,,50,,54,33,43,158,,168,168,7,15,4,4,0.8,1.2
2024-08-25T1800,3361A,103.7311,29.5628,乐山市,理工大学,臭氧1小时,58,35,58,25,49,166,,181,181,4,17,5,5,0.5,0.8
2024-08-25T1800,2598A,100.2143,26.8576,丽江市,西南郊,,,,,,,,,,,,,,,,
2024-08-25T1800,2599A,100.2497,26.8802,丽江市,丽江古城,,35,22,25,12,17,110,,110,110,7,13,9,9,0.5,0.6
2024-08-25T1800,2600A,100.2203,26.8906,丽江市,市中心,,36,24,22,9,16,113,,114,114,6,13,9,8,0.5,0.9
2024-08-25T1800,1267A,119.914,28.4514,丽水市,监测站大楼,,44,34,37,27,23,138,,151,151,7,9,2,2,0.3,0.3
2024-08-25T1800,1268A,119.93,28.4586,丽水市,莲都小学,,44,39,38,17,23,140,,149,149,7,9,4,4,0.3,0.3
2024-08-25T1800,1269A,119.879,28.4231,丽水市,余庄前,,46,37,40,22,27,145,,155,155,6,9,3,3,0.4,0.5
2024-08-25T1800,1173A,119.176,34.5885,连云港市,市环境监测站,,40,39,36,17,20,126,,146,146,13,11,7,7,0.6,0.6
2024-08-25T1800,3000A,119.3581,34.6972,连云港市,德源药业,,30,17,40,9,20,96,,142,142,5,15,5,7,0.4,0.6
2024-08-25T1800,3007A,119.178,34.844,连云港市,新城一中,,32,24,37,10,21,100,,136,136,10,18,3,4,0.8,1
2024-08-25T1800,3008A,119.3608,34.7519,连云港市,胡沟管理处,,39,39,40,9,22,50,,120,114,41,18,15,11,0.8,1.1
2024-08-25T1800,3009A,119.1478,34.5911,连云港市,矿山设计院,,43,41,40,22,21,135,,146,146,15,13,4,3,0.9,0.8
2024-08-25T1800,3434A,119.2413,34.6539,连云港市,工贸学校,,41,36,34,23,24,130,,152,152,5,5,6,7,0.9,0.9
2024-08-25T1800,3664A,119.4172,34.7341,连云港市,连云街道,,34,24,38,13,22,106,,129,129,8,19,3,5,0.5,0.8
2024-08-25T1800,2571A,102.3431,27.8099,凉山彝族自治州,青龙寺,臭氧1小时,82,17,13,15,26,185,,154,154,5,7,11,9,0.4,0.3
2024-08-25T1800,2572A,102.2721,27.8415,凉山彝族自治州,邛海宾馆,臭氧1小时,69,38,34,28,24,175,,168,168,9,13,15,14,0.8,0.8
2024-08-25T1800,2573A,102.2625,27.898,凉山彝族自治州,西昌市政府,,,53,42,14,24,158,,162,162,,13,12,12,0.6,0.8
2024-08-25T1800,2574A,102.2685,27.8851,凉山彝族自治州,凉山州政府,臭氧1小时,87,47,46,29,23,189,,170,170,10,14,12,10,0.6,0.8
2024-08-25T1800,2575A,102.237,27.8914,凉山彝族自治州,长安,,49,42,44,22,25,156,,154,154,10,20,9,13,0.4,1
2024-08-25T1800,2212A,123.2,41.1953,辽阳市,宏伟区,,34,11,48,11,31,107,,128,128,11,18,8,9,0.6,1
2024-08-25T1800,2213A,123.1683,41.2495,辽阳市,新华园,,30,13,55,13,30,94,,113,113,8,25,7,8,0.5,1
2024-08-25T1800,2214A,123.2354,41.2639,辽阳市,滨河路,,29,14,45,10,27,90,,117,112,14,19,9,10,0.3,0.7
2024-08-25T1800,2215A,123.149,41.2991,辽阳市,铁西工业园,,25,24,53,7,27,80,,108,108,9,19,8,10,0.9,1.2
2024-08-25T1800,2227A,125.1358,42.8845,辽源市,环保局,,28,14,18,3,10,88,,122,112,2,6,5,5,0.5,0.5
2024-08-25T1800,3239A,125.0764,42.9078,辽源市,银鹰制药,,26,13,21,3,11,83,,116,108,9,15,4,5,0.7,0.7
2024-08-25T1800,1625A,115.9848,36.4372,聊城市,区政府,,,,,,,,,,,,,,,,
2024-08-25T1800,2878A,116.0072,36.4343,聊城市,聊大东校,,,63,64,46,46,171,,159,159,9,21,10,8,,0.7
2024-08-25T1800,3200A,115.9819,36.4978,聊城市,监控中心,"颗粒物(PM10),细颗粒物(PM2.5)",55,59,70,39,38,163,,149,149,9,31,6,6,0.6,0.7
2024-08-25T1800,3513A,116.0445,36.4361,聊城市,九州社区,细颗粒物(PM2.5),57,60,71,40,43,162,,148,148,4,18,12,11,0.5,0.5
2024-08-25T1800,4018A,116.0567,36.4608,聊城市,星美广场,颗粒物(PM10),58,66,74,36,41,142,,136,136,10,22,8,7,0.6,0.6
2024-08-25T1800,2632A,94.3681,29.6376,林芝市,林芝监测站,,33,26,10,8,6,104,,97,97,2,4,9,9,0.3,0.3
2024-08-25T1800,2633A,94.3616,29.6616,林芝市,林芝人民医院,,34,28,11,6,6,107,,100,100,4,6,7,7,0.2,0.2
2024-08-25T1800,2603A,100.0781,23.8982,临沧市,市环保局,,29,22,14,20,17,82,,63,63,8,8,5,5,0.2,0.2
2024-08-25T1800,2604A,100.0894,23.8822,临沧市,市气象局,,25,13,12,11,9,77,,63,63,8,8,4,5,0.2,0.2
2024-08-25T1800,1733A,111.5531,36.0783,临汾市,临钢医院,,47,47,55,28,26,128,,143,143,7,13,6,6,0.7,0.6
2024-08-25T1800,1734A,111.5028,36.0714,临汾市,技工学校,颗粒物(PM10),54,57,60,16,22,124,,151,151,11,14,5,4,0.7,0.7
2024-08-25T1800,1736A,111.5018,36.0855,临汾市,市委,,40,40,53,25,29,128,,156,156,12,13,4,3,1.0,0.9
2024-08-25T1800,3018A,111.505,36.1014,临汾市,唐尧大酒店,,48,48,46,19,24,123,,144,144,20,16,4,3,0.6,0.6
2024-08-25T1800,3668A,111.5036,36.0414,临汾市,城南,,48,48,51,23,23,115,,149,148,7,12,4,3,0.8,0.8
2024-08-25T1800,2667A,103.2069,35.5993,临夏回族自治州,环保局,,36,28,35,25,30,89,,81,81,3,4,7,7,0.3,0.3
2024-08-25T1800,2668A,103.2417,35.6057,临夏回族自治州,建设大厦,,31,,32,19,20,97,,84,84,5,7,5,5,0.3,0.3
2024-08-25T1800,1618A,118.3429,35.0532,临沂市,沂河小区,,48,46,56,23,35,153,,167,167,11,12,8,9,0.5,0.7
2024-08-25T1800,1619A,118.295,35.0583,临沂市,鲁南制药厂,臭氧1小时,63,36,48,18,31,170,,176,176,8,13,4,5,0.4,0.6
2024-08-25T1800,1620A,118.2794,34.9976,临沂市,新光毛纺厂,,50,31,44,20,30,160,,167,167,11,15,5,8,0.6,0.8
2024-08-25T1800,1621A,118.3956,35.0888,临沂市,河东保险公司,,46,34,49,17,33,147,,152,152,13,19,7,9,0.4,0.7
2024-08-25T1800,3370A,118.3564,35.0215,临沂市,十里堡居委,臭氧1小时,53,31,43,24,35,162,,168,168,12,13,8,8,0.7,0.9
2024-08-25T1800,3496A,118.3604,35.1084,临沂市,南坊新区,,47,36,56,19,30,149,,165,165,10,16,8,14,0.7,0.9
2024-08-25T1800,3860A,118.3920,35.0300,临沂市,皇山花园小区,,48,44,54,29,40,151,,159,159,15,19,8,8,0.6,0.8
2024-08-25T1800,1870A,109.4856,24.3895,柳州市,柳东小学,,22,13,23,7,13,70,,82,82,5,14,8,10,0.6,0.7
2024-08-25T1800,1871A,109.4157,24.3277,柳州市,环保监测站,,25,17,30,6,17,77,,91,91,6,14,8,8,0.7,0.9
2024-08-25T1800,1872A,109.389,24.341,柳州市,河西水厂,,26,,35,11,18,81,,92,92,5,15,6,7,0.7,0.9
2024-08-25T1800,1873A,109.4311,24.2921,柳州市,市四中,,25,25,31,17,18,80,,91,91,4,13,5,6,0.6,0.8
2024-08-25T1800,1874A,109.4006,24.3631,柳州市,市九中,,26,17,41,3,17,82,,96,96,5,15,6,7,0.3,0.6
2024-08-25T1800,1875A,109.4958,24.3134,柳州市,古亭山,,23,,23,12,13,72,,81,81,5,16,6,7,0.8,0.8
2024-08-25T1800,3402A,109.5422,24.3996,柳州市,市二中,,22,12,23,7,11,68,,80,80,6,16,7,9,0.6,0.6
2024-08-25T1800,2307A,116.5079,31.737,六安市,监测大楼,,50,27,29,23,19,160,,159,159,5,8,6,7,0.5,0.5
2024-08-25T1800,2308A,116.4738,31.7643,六安市,皖西学院,,49,42,37,20,18,156,,159,159,4,8,4,5,0.4,0.4
2024-08-25T1800,2309A,116.4996,31.7905,六安市,朝阳厂,臭氧1小时,57,43,30,20,18,165,,153,153,4,7,2,3,0.4,0.4
2024-08-25T1800,2310A,116.5567,31.7886,六安市,开发区,,49,38,40,24,24,154,,153,153,4,9,2,3,0.4,0.5
2024-08-25T1800,2576A,104.8,26.5892,六盘水市,窑上,,,,,,,,,,,,,,,,
2024-08-25T1800,2577A,104.83,26.5917,六盘水市,黄土坡,,25,18,16,7,11,78,,89,89,6,6,6,7,0.3,0.3
2024-08-25T1800,2578A,104.89,26.5939,六盘水市,水钢,,25,15,19,3,5,80,,84,84,4,5,7,7,0.3,0.3
2024-08-25T1800,2579A,104.8475,26.5894,六盘水市,民中,,25,14,14,3,6,78,,87,87,6,6,7,7,0.3,0.3
2024-08-25T1800,2580A,104.9544,26.5506,六盘水市,双水,,24,12,13,3,7,74,,75,75,3,5,5,6,0.3,0.3
2024-08-25T1800,2335A,117.0189,25.1181,龙岩市,龙岩师专,,,,,,,,,,,,,,,,
2024-08-25T1800,2336A,117.0217,25.1033,龙岩市,龙岩市监测站,,23,8,22,7,12,71,,102,102,10,15,4,5,0.4,0.4
2024-08-25T1800,2337A,117.0258,25.0661,龙岩市,闽西职业技术学院,,25,20,32,6,18,80,,99,99,12,23,2,11,0.5,0.4
2024-08-25T1800,2338A,117.0196,25.0306,龙岩市,龙岩学院,,29,28,25,8,13,92,,101,101,5,11,2,3,0.4,0.4
2024-08-25T1800,2665A,105.0822,33.3261,陇南市,汉王镇固水子,,,,,,,,,,,,,,,,
2024-08-25T1800,2885A,104.9339,33.3826,陇南市,滨江中学,,40,40,45,24,22,123,,136,132,6,7,6,5,0.3,0.3
2024-08-25T1800,3247A,104.955,33.371,陇南市,市总工会,,40,40,43,13,17,127,,143,135,3,5,7,7,0.2,0.2
2024-08-25T1800,2487A,111.9589,27.8901,娄底市,电视发射台,,38,38,36,15,18,66,,94,94,5,9,7,9,0.5,0.9
2024-08-25T1800,2488A,111.9975,27.725,娄底市,市监测站,,40,35,38,28,22,86,,112,112,18,11,15,9,1.1,0.7
2024-08-25T1800,2489A,112.0194,27.7314,娄底市,市委党校,,43,43,37,26,22,80,,94,94,14,9,15,11,1.0,0.6
2024-08-25T1800,2490A,111.9561,27.7569,娄底市,涟钢,,32,31,40,22,20,69,,89,89,18,18,12,12,0.9,1.2
2024-08-25T1800,2491A,111.9892,27.7044,娄底市,市政府,,32,31,32,11,25,101,,96,96,6,10,6,6,0.4,0.4
2024-08-25T1800,1893A,105.4324,28.9634,泸州市,九狮山,,32,,20,9,13,100,,107,107,2,6,5,5,0.2,0.2
2024-08-25T1800,1894A,105.4427,28.9063,泸州市,小市上码头,,37,18,20,6,10,118,,122,122,6,12,6,9,0.2,0.2
2024-08-25T1800,1895A,105.4241,28.8573,泸州市,兰田宪桥,,35,12,20,3,11,112,,115,115,10,16,7,7,0.1,0.3
2024-08-25T1800,1896A,105.4379,28.8833,泸州市,市环监站,,35,15,18,7,13,110,,112,112,9,12,7,8,0.2,0.3
2024-08-25T1800,3490A,105.3617,28.7703,泸州市,纳溪区环保局,,36,14,25,11,17,113,,119,119,8,20,5,6,0.2,0.3
2024-08-25T1800,2183A,111.1406,37.5211,吕梁市,环保局,颗粒物(PM10),55,60,73,29,39,111,,117,117,9,21,6,6,0.7,0.7
2024-08-25T1800,2185A,111.1297,37.5136,吕梁市,自来水公司,颗粒物(PM10),52,53,69,33,38,116,,123,123,10,19,4,5,0.7,0.7
2024-08-25T1800,2867A,111.1283,37.51,吕梁市,马茂庄小学,"颗粒物(PM10),细颗粒物(PM2.5)",55,60,82,39,38,95,,117,114,33,30,4,4,0.6,0.7
2024-08-25T1800,1812A,112.3931,34.6516,洛阳市,市委党校,,38,29,40,21,29,119,,117,117,5,16,3,3,0.7,0.8
2024-08-25T1800,1814A,112.4657,34.6871,洛阳市,豫西宾馆,,35,30,44,14,26,110,,115,115,8,13,4,4,0.7,0.7
2024-08-25T1800,1815A,112.494,34.6886,洛阳市,河南林校,,36,23,33,17,24,113,,112,112,8,15,4,4,0.5,0.5
2024-08-25T1800,1816A,112.3844,34.623,洛阳市,开发区管委会,,38,28,33,19,24,120,,117,117,4,10,1,3,0.5,0.5
2024-08-25T1800,1817A,112.4267,34.6258,洛阳市,市委新办公区,,39,27,31,23,28,124,,122,122,1,8,3,4,0.6,0.7
2024-08-25T1800,3340A,112.6005,34.6326,洛阳市,伊滨,,38,37,42,26,29,109,,97,97,3,11,5,5,0.6,0.7
2024-08-25T1800,3341A,112.4951,34.6332,洛阳市,中移产业园,,38,28,40,23,28,119,,112,112,4,13,3,4,0.9,0.9
2024-08-25T1800,3593A,112.5736,34.8993,洛阳市,吉利监测站,,37,36,53,15,33,116,,119,119,4,14,2,2,0.7,0.9
2024-08-25T1800,3635A,112.3677,34.662,洛阳市,河科大西苑校区,,,24,36,,22,121,,123,123,4,19,4,5,0.7,0.8
2024-08-25T1800,3636A,112.4388,34.6781,洛阳市,英才小学,,35,,31,24,31,109,,110,110,2,9,3,3,0.6,0.7
2024-08-25T1800,2399A,114.051,33.5699,漯河市,三五一五工厂,,44,44,49,23,30,85,,120,117,30,16,6,6,0.6,0.7
2024-08-25T1800,2400A,114.0055,33.5698,漯河市,漯河大学,,37,37,50,19,26,101,,124,122,10,10,10,10,0.7,0.7
2024-08-25T1800,2401A,114.0138,33.5828,漯河市,市水利局,,39,39,52,24,28,98,,116,114,11,13,7,7,0.7,0.8
2024-08-25T1800,2402A,114.0261,33.5698,漯河市,市广电局,,34,34,46,16,29,105,,124,123,8,10,8,9,0.7,0.7
2024-08-25T1800,3478A,113.9749,33.5664,漯河市,市图书馆,,36,34,48,25,30,94,,125,122,9,13,6,6,0.6,0.7
2024-08-25T1800,3479A,114.0967,33.5906,漯河市,召陵区卫健委,,35,30,55,24,33,94,,121,119,8,20,3,3,1.1,0.7
2024-08-25T1800,1798A,118.5092,31.6837,马鞍山市,湖东路四小,臭氧1小时,54,29,48,19,27,163,,177,177,13,25,7,8,0.8,0.9
2024-08-25T1800,1799A,118.5024,31.6449,马鞍山市,开发区,,49,44,57,22,31,154,,170,170,19,30,4,4,0.8,0.9
2024-08-25T1800,1800A,118.5228,31.7231,马鞍山市,慈湖,臭氧1小时,62,36,43,22,28,169,,182,182,9,18,6,6,0.7,0.8
2024-08-25T1800,1802A,118.6245,31.7241,马鞍山市,濮塘,,45,29,35,21,26,141,,162,162,11,15,5,5,0.8,0.8
2024-08-25T1800,3633A,118.4918,31.6809,马鞍山市,雨山,臭氧1小时,58,34,43,21,25,166,,190,190,7,14,6,6,0.3,0.5
2024-08-25T1800,1686A,111.0286,21.4688,茂名市,电白南海,,19,14,22,7,15,59,,63,63,4,8,8,8,0.5,0.5
2024-08-25T1800,1687A,110.9294,21.6533,茂名市,茂石化七小,,32,,26,22,23,72,,83,83,10,9,5,8,0.4,0.4
2024-08-25T1800,1688A,110.9107,21.6687,茂名市,健康路,,29,29,25,12,12,86,,99,99,9,9,10,13,0.5,0.5
2024-08-25T1800,1689A,110.8592,21.6828,茂名市,高岭,,24,24,37,12,19,74,,100,100,8,12,14,19,0.4,0.5
2024-08-25T1800,3450A,111.01,21.5165,茂名市,电白水东,,19,12,18,9,13,58,,59,59,4,9,4,6,0.3,0.5
2024-08-25T1800,2539A,104.0308,30.0478,眉山市,黑龙滩水库,,46,31,45,22,31,145,,159,159,1,7,5,5,0.4,0.5
2024-08-25T1800,2540A,103.8416,30.0874,眉山市,气象局,臭氧1小时,53,46,61,22,41,162,,181,181,8,34,8,8,0.5,0.7
2024-08-25T1800,3137A,103.8578,30.0744,眉山市,市委党校,,50,36,62,17,40,159,,184,184,8,27,9,11,0.3,0.6
2024-08-25T1800,3148A,103.8291,30.0564,眉山市,区人社局,,50,33,49,19,35,160,,186,186,14,28,8,9,0.5,0.7
2024-08-25T1800,1690A,116.1231,24.3284,梅州市,梅江月梅,,29,29,27,10,9,79,,95,95,4,7,7,6,0.4,0.4
2024-08-25T1800,1691A,116.0797,24.2719,梅州市,梅县新城,,34,34,20,18,10,91,,102,102,5,10,4,4,0.5,0.5
2024-08-25T1800,1692A,116.1248,24.2654,梅州市,环境监控中心,,30,30,21,18,13,77,,95,95,8,12,4,4,0.4,0.4
2024-08-25T1800,3315A,116.1233,24.2991,梅州市,梅龙,,30,22,13,21,12,93,,104,104,5,6,8,8,0.5,0.5
2024-08-25T1800,1878A,104.7778,31.4741,绵阳市,富乐山,,41,35,41,26,31,129,,142,142,17,13,4,3,0.6,0.7
2024-08-25T1800,1879A,104.7563,31.4535,绵阳市,市人大,,45,29,46,18,29,144,,146,146,9,19,10,11,0.4,0.6
2024-08-25T1800,1880A,104.6697,31.4668,绵阳市,高新区自来水公司,,45,27,46,14,26,143,,156,156,5,18,2,2,0.4,0.6
2024-08-25T1800,1881A,104.7287,31.5075,绵阳市,三水厂,,45,,46,25,33,142,,150,150,8,30,5,5,0.7,0.9
2024-08-25T1800,3491A,104.69,31.5322,绵阳市,西科大附属小学,,,24,45,,,135,,147,147,13,25,9,10,0.5,0.8
2024-08-25T1800,3492A,104.5648,31.5343,绵阳市,安州区旅游局,臭氧1小时,54,32,45,27,34,163,,173,173,9,14,6,7,0.6,0.7
2024-08-25T1800,1784A,129.61,44.561,牡丹江市,环保大楼,,25,23,24,17,16,57,,46,46,9,10,8,7,0.4,0.4
2024-08-25T1800,1785A,129.6115,44.5782,牡丹江市,文化广场,,42,35,32,29,24,48,,44,44,15,13,14,8,0.5,0.5
2024-08-25T1800,1786A,129.5904,44.5963,牡丹江市,第一医院,细颗粒物(PM2.5),53,43,29,37,24,52,,49,49,16,10,12,6,0.5,0.5
2024-08-25T1800,1787A,129.6364,44.6075,牡丹江市,机车工厂,,34,34,45,22,18,49,,45,45,13,11,8,6,0.4,0.4
2024-08-25T1800,1788A,129.6386,44.5462,牡丹江市,第一中学,,24,24,25,11,16,54,,48,48,11,11,6,6,0.4,0.4
2024-08-25T1800,2531A,105.0703,29.61,内江市,市监测站,,40,10,33,10,31,126,,135,135,13,24,11,13,0.3,0.4
2024-08-25T1800,2532A,105.0717,29.5947,内江市,东兴区政府,,39,16,26,9,25,122,,137,137,18,19,10,12,0.3,0.5
2024-08-25T1800,2533A,105.0653,29.5817,内江市,内江二中,,39,14,29,9,29,123,,126,126,9,19,7,8,0.1,0.3
2024-08-25T1800,2534A,105.0406,29.5822,内江市,内江日报社,,39,13,29,9,25,122,,135,135,13,30,6,9,0.1,0.3
2024-08-25T1800,2628A,92.0657,31.4846,那曲市,那曲监测站,,40,20,31,7,19,126,,111,111,5,7,6,7,0.3,0.4
2024-08-25T1800,3128A,92.0506,31.4797,那曲市,那曲会议中心,细颗粒物(PM2.5),58,,27,41,12,139,,121,121,5,13,4,4,0.3,0.4
2024-08-25T1800,1290A,115.8931,28.6843,南昌市,省外办,,43,39,40,29,25,135,,124,124,9,17,9,9,0.5,0.5
2024-08-25T1800,1291A,115.8886,28.7003,南昌市,省林业公司,,43,31,41,27,20,135,,127,127,10,24,6,6,0.7,0.7
2024-08-25T1800,1292A,115.8126,28.7442,南昌市,林科所,,45,31,27,17,14,144,,121,121,7,11,10,10,0.3,0.4
2024-08-25T1800,1294A,115.8518,28.687,南昌市,建工学校,,41,34,38,15,14,130,,126,126,11,26,8,8,0.5,0.5
2024-08-25T1800,1295A,115.8921,28.6424,南昌市,象湖,,48,26,32,25,21,151,,138,138,12,19,4,5,0.7,0.7
2024-08-25T1800,1296A,115.7423,28.7996,南昌市,武术学校,,50,43,29,35,16,35,,78,73,2,7,3,3,0.8,0.7
2024-08-25T1800,1298A,115.9314,28.6842,南昌市,省站,,42,,34,25,22,133,,125,125,18,16,7,8,0.7,0.7
2024-08-25T1800,3046A,115.9084,28.6062,南昌市,机电学校,,50,50,48,19,20,152,,128,128,11,21,7,8,0.8,0.8
2024-08-25T1800,3690A,115.9721,28.7031,南昌市,外国语学校,,43,35,37,12,18,135,,126,126,6,16,7,7,0.6,0.6
2024-08-25T1800,1905A,106.056,30.8064,南充市,西山风景区,,40,,16,14,16,125,,112,112,4,7,2,3,0.6,0.7
2024-08-25T1800,1906A,106.0789,30.8023,南充市,南充市委,,41,21,30,12,18,130,,122,122,5,15,6,8,0.2,0.3
2024-08-25T1800,1907A,106.1031,30.8217,南充市,南充炼油厂,,41,21,43,16,27,129,,127,127,6,14,6,7,0.3,0.4
2024-08-25T1800,1908A,106.1064,30.7856,南充市,高坪区监测站,,39,18,26,3,16,123,,117,117,8,16,5,7,0.3,0.4
2024-08-25T1800,1909A,106.0642,30.7636,南充市,嘉陵区环保局,,42,17,32,7,19,134,,122,122,9,17,4,6,0.3,0.3
2024-08-25T1800,1910A,106.1087,30.8388,南充市,市环境监测站,,40,27,44,12,29,125,,126,126,8,18,6,7,0.2,0.3
2024-08-25T1800,1151A,118.8086,32.1065,南京市,迈皋桥,臭氧1小时,78,30,34,19,23,182,,177,177,15,24,4,6,0.5,0.4
2024-08-25T1800,1152A,118.7538,32.0551,南京市,草场门,臭氧1小时,100,39,40,19,20,200,,192,192,13,19,7,7,0.6,0.6
2024-08-25T1800,1153A,118.7794,32.0745,南京市,山西路,臭氧1小时,101,34,41,19,22,202,,193,193,10,21,3,4,0.6,0.5
2024-08-25T1800,1154A,118.7752,32.0023,南京市,中华门,臭氧1小时,80,39,38,22,24,184,,175,175,13,12,4,4,0.7,0.6
2024-08-25T1800,1155A,118.8109,32.0309,南京市,瑞金路,臭氧1小时,90,39,40,24,24,192,,194,194,6,8,3,4,0.7,0.6
2024-08-25T1800,1156A,118.7997,32.0754,南京市,玄武湖,臭氧1小时,87,37,42,17,18,189,,182,182,9,14,4,4,0.8,0.7
2024-08-25T1800,1157A,118.6414,32.0931,南京市,浦口,臭氧1小时,78,29,38,20,22,182,,200,200,13,18,9,8,0.4,0.5
2024-08-25T1800,1158A,118.7356,31.9996,南京市,奥体中心,臭氧1小时,93,41,42,22,26,194,,191,191,10,17,4,4,0.4,0.4
2024-08-25T1800,1159A,118.9125,32.1028,南京市,仙林大学城,臭氧1小时,72,31,37,17,20,177,,184,184,10,14,8,8,0.7,0.7
2024-08-25T1800,3422A,118.8436,31.9198,南京市,江宁彩虹桥,臭氧1小时,68,40,40,22,24,174,,169,169,5,12,4,4,0.6,0.6
2024-08-25T1800,3423A,119.0138,31.6494,南京市,溧水永阳,,50,31,33,23,20,158,,166,166,10,13,4,4,0.7,0.6
2024-08-25T1800,3424A,118.879,31.3302,南京市,高淳老职中,臭氧1小时,106,35,34,19,28,212,,172,172,10,12,5,5,0.7,0.6
2024-08-25T1800,3427A,118.8554,32.3578,南京市,六合雄州,,36,27,47,19,27,115,,133,133,15,24,5,6,0.6,0.8
2024-08-25T1800,1401A,108.3103,22.7881,南宁市,二十一中,,25,25,21,17,13,70,,75,75,9,11,2,3,0.6,0.7
2024-08-25T1800,1402A,108.3141,22.8528,南宁市,北湖,,24,24,22,11,13,67,,81,81,11,14,3,3,0.7,0.8
2024-08-25T1800,1403A,108.3206,22.8225,南宁市,市监测站,,21,20,22,12,13,66,,79,79,16,15,4,6,0.5,0.6
2024-08-25T1800,1404A,108.3829,22.8037,南宁市,大自然花园,,22,17,19,14,12,68,,79,76,14,11,4,5,0.6,0.7
2024-08-25T1800,1405A,108.4394,22.7904,南宁市,仙葫,,35,35,23,14,12,66,,68,68,10,11,6,7,0.5,0.7
2024-08-25T1800,1406A,108.2397,22.8467,南宁市,区农职院,,28,28,32,15,12,67,,78,78,12,15,6,7,0.7,0.8
2024-08-25T1800,1407A,108.3275,22.735,南宁市,英华嘉园,,22,22,23,12,13,70,,70,70,14,17,6,6,0.5,0.6
2024-08-25T1800,1408A,108.2257,22.7757,南宁市,沙井镇街道办,,26,26,35,10,13,77,,75,75,13,24,3,3,0.5,0.5
2024-08-25T1800,3401A,108.4834,22.7618,南宁市,红星社区,,36,,21,25,14,63,,74,74,15,13,5,7,0.6,0.8
2024-08-25T1800,2331A,118.0966,26.6761,南平市,茫荡山,,,,,,,,,,,,,,,,
2024-08-25T1800,2332A,118.1681,26.6369,南平市,南平市监测站,,25,24,26,10,15,79,,87,86,7,11,4,5,0.5,0.8
2024-08-25T1800,2333A,118.1825,26.6489,南平市,南平铝业有限公司,,30,30,27,9,15,75,,86,85,6,13,6,7,0.5,0.7
2024-08-25T1800,2334A,118.1756,26.6272,南平市,南平七中,,24,24,27,9,16,76,,81,81,4,7,5,4,0.5,0.5
2024-08-25T1800,1168A,120.9098,31.9663,南通市,狼山街道,,33,14,15,3,10,103,,106,106,6,7,6,6,0.3,0.4
2024-08-25T1800,1169A,120.86,32.0005,南通市,虹桥,,31,21,19,6,9,98,,109,109,4,6,5,5,1.3,0.9
2024-08-25T1800,1170A,120.87,32.02,南通市,城中,,32,24,21,3,8,100,,104,104,11,10,5,5,0.6,0.6
2024-08-25T1800,1171A,120.94,31.93,南通市,星湖花园,,32,8,11,3,6,101,,108,108,10,10,4,4,0.6,0.6
2024-08-25T1800,1172A,120.81,32.0417,南通市,紫琅学院,,30,,12,12,7,93,,108,108,11,11,7,7,0.8,0.8
2024-08-25T1800,3291A,121.067,32.062,南通市,通州监测站,,27,19,19,7,9,86,,94,94,6,6,3,3,0.6,0.6
2024-08-25T1800,3432A,120.9348,31.9883,南通市,环境教育馆,,31,22,22,7,8,97,,102,102,7,7,4,4,0.4,0.4
2024-08-25T1800,2404A,112.5224,33.0122,南阳市,瓦房庄,,43,43,44,21,26,110,,120,120,11,11,6,6,0.5,0.5
2024-08-25T1800,2405A,112.5003,32.9735,南阳市,汉画馆,,41,41,41,23,26,105,,117,117,11,12,5,4,0.6,0.6
2024-08-25T1800,2406A,112.5573,33.027,南阳市,气象站,,39,39,50,17,24,106,,115,115,9,10,5,4,0.7,0.7
2024-08-25T1800,2407A,112.5481,32.9689,南阳市,理工学院,,34,31,37,20,25,106,,116,116,9,11,5,6,0.5,0.6
2024-08-25T1800,4008A,112.5234,32.9922,南阳市,卧龙区政府,,37,37,45,22,29,106,,113,113,13,13,4,4,0.7,0.7
2024-08-25T1800,1234A,121.8358,29.911,宁波市,区环保大楼,,25,25,22,15,12,75,,104,100,6,9,7,7,0.5,0.6
2024-08-25T1800,1235A,121.56,29.82,宁波市,万里学院,,28,28,33,12,18,83,,130,127,7,11,9,10,0.5,0.6
2024-08-25T1800,1236A,121.713,29.9572,宁波市,龙赛医院,,25,25,26,11,13,73,,126,122,7,12,8,9,0.5,0.6
2024-08-25T1800,1239A,121.633,29.7733,宁波市,钱湖水厂,,26,18,19,11,12,82,,119,115,5,6,7,7,0.6,0.6
2024-08-25T1800,1240A,121.5856,29.8635,宁波市,太古小学,,26,20,24,18,16,76,,127,123,11,11,6,6,0.7,0.8
2024-08-25T1800,1241A,121.524,29.8674,宁波市,市环境监测中心,,26,26,27,10,13,82,,142,137,11,11,4,4,0.5,0.6
2024-08-25T1800,2871A,121.6147,29.9017,宁波市,万里国际学校,,26,18,21,16,18,81,,142,136,7,8,6,6,0.4,0.4
2024-08-25T1800,3710A,121.5594,29.8975,宁波市,白沙活动中心,,31,31,33,10,13,84,,144,140,10,11,7,8,0.6,0.7
2024-08-25T1800,2339A,119.5001,26.6946,宁德市,金涵水库,,,,,,,,,,,,,,,,
2024-08-25T1800,2341A,119.5388,26.6612,宁德市,宁德市监测站,,30,27,34,20,23,93,,128,128,8,9,6,6,0.5,0.8
2024-08-25T1800,3209A,119.5231,26.6562,宁德市,宁德一中,,40,33,35,28,21,95,,129,129,6,6,6,6,0.5,0.7
2024-08-25T1800,2618A,98.8601,25.8567,怒江傈僳族自治州,州监测站,,29,15,25,9,16,92,,98,98,6,14,5,6,0.4,0.5
2024-08-25T1800,2619A,98.8546,25.8417,怒江傈僳族自治州,泸水一中,,25,,23,13,12,77,,89,89,12,16,5,5,0.4,0.4
2024-08-25T1800,1888A,101.6891,26.571,攀枝花市,弄弄坪,,46,40,46,28,23,147,,131,131,12,19,18,19,1.0,1.3
2024-08-25T1800,1889A,101.5769,26.5928,攀枝花市,河门口,,42,30,33,19,20,134,,121,121,11,16,6,8,0.6,0.8
2024-08-25T1800,1890A,101.7169,26.585,攀枝花市,炳草岗,,47,33,50,13,28,149,,142,142,15,28,13,23,0.5,0.7
2024-08-25T1800,1891A,101.7369,26.5008,攀枝花市,仁和,臭氧1小时,80,41,38,26,24,184,,160,160,18,15,18,12,1.3,0.9
2024-08-25T1800,2835A,101.7227,26.567,攀枝花市,四十中小,臭氧1小时,64,33,46,25,26,171,,156,156,14,29,9,22,0.7,1
2024-08-25T1800,1604A,122.0303,41.1489,盘锦市,开发区,,27,20,41,7,26,84,,110,109,15,13,5,6,0.4,0.6
2024-08-25T1800,1605A,122.0485,41.0883,盘锦市,兴隆台,,26,20,45,3,26,83,,108,107,15,16,5,5,0.5,0.8
2024-08-25T1800,1606A,121.8297,41.1028,盘锦市,新生街道,,24,10,33,7,23,75,,97,94,8,10,6,6,0.6,0.8
2024-08-25T1800,1832A,113.3257,33.742,平顶山市,新华旅馆,,34,34,54,13,33,97,,105,105,20,25,4,4,0.4,0.5
2024-08-25T1800,1833A,113.2919,33.737,平顶山市,规划设计院,,30,20,34,7,23,95,,93,93,15,27,6,6,0.9,1
2024-08-25T1800,1834A,113.182,33.774,平顶山市,平顶山工学院,,27,25,37,7,19,85,,71,71,15,19,6,6,0.8,0.9
2024-08-25T1800,3204A,113.3025,33.73,平顶山市,规划局,,30,19,44,11,29,96,,95,95,16,25,2,2,0.8,0.9
2024-08-25T1800,3594A,112.8867,33.9116,平顶山市,石龙区,颗粒物(PM10),51,51,70,13,24,95,,87,87,11,33,7,8,0.5,0.7
2024-08-25T1800,2656A,106.6692,35.5461,平凉市,聚贤嘉苑,,30,30,56,13,27,88,,91,91,16,21,8,8,0.3,0.5
2024-08-25T1800,2657A,106.7021,35.5307,平凉市,博物馆,,30,27,54,10,26,96,,98,98,23,30,8,8,0.4,0.7
2024-08-25T1800,2347A,114.0997,27.5002,萍乡市,武功山,,17,6,8,3,3,53,,91,86,4,4,8,8,0.3,0.3
2024-08-25T1800,2348A,113.8385,27.6434,萍乡市,中医院,,27,20,32,8,20,84,,102,100,13,12,7,17,1.1,0.9
2024-08-25T1800,2349A,113.8493,27.6253,萍乡市,市政府车库,,32,32,35,8,21,79,,88,88,10,12,17,22,1.8,1.6
2024-08-25T1800,2350A,113.8676,27.6435,萍乡市,市环保局,,25,22,34,3,21,77,,91,91,8,11,14,25,1.0,1
2024-08-25T1800,2351A,113.866,27.6198,萍乡市,安源区政府,,23,23,35,13,15,72,,88,88,10,17,13,22,1.4,1.4
2024-08-25T1800,2319A,119.0141,25.4325,莆田市,荔城区仓后路,,33,33,39,11,26,100,,104,104,9,10,7,7,0.6,0.6
2024-08-25T1800,2320A,119.0015,25.4553,莆田市,莆田市监测站,,35,24,38,12,23,110,,115,115,9,9,6,6,0.5,0.5
2024-08-25T1800,2321A,119.1119,25.4561,莆田市,涵江区六中,,33,26,35,3,25,103,,117,117,5,11,6,6,0.5,0.5
2024-08-25T1800,2322A,119.1013,25.3215,莆田市,秀屿区政府,,36,26,30,3,25,113,,114,114,6,7,6,6,0.6,0.6
2024-08-25T1800,2323A,118.981,25.4792,莆田市,东圳水库,,,,,,,,,,,,,,,,
2024-08-25T1800,2392A,115.0312,35.7636,濮阳市,环保局,,46,39,55,32,39,107,,117,117,9,13,5,5,0.8,0.8
2024-08-25T1800,2394A,115.0574,35.7609,濮阳市,油田运输公司,,36,34,60,12,39,115,,133,133,13,17,1,2,0.8,0.8
2024-08-25T1800,2395A,115.0866,35.7754,濮阳市,油田物探公司,,49,42,63,34,45,118,,138,138,11,13,5,5,0.7,0.7
2024-08-25T1800,3021A,115,35.7668,濮阳市,濮水河管理处,,38,38,51,25,41,96,,105,105,7,13,2,2,0.7,0.8
2024-08-25T1800,2601A,100.98,22.7633,普洱市,市环保局,,20,16,18,14,12,48,,43,43,5,6,5,6,0.4,0.4
2024-08-25T1800,2602A,100.9817,22.8322,普洱市,普洱第二中学,,18,18,20,9,10,53,,39,39,8,7,7,7,0.5,0.4
2024-08-25T1800,2262A,131.0518,45.8751,七台河市,新一中,,35,,19,24,10,73,,87,87,8,8,10,10,0.9,0.8
2024-08-25T1800,3345A,131.0577,45.7879,七台河市,中波台,,19,19,12,7,6,57,,56,56,14,17,10,10,0.7,0.7
2024-08-25T1800,3637A,131.0176,45.7761,七台河市,人民广场,,36,28,22,25,13,63,,66,66,14,13,9,8,0.4,0.4
2024-08-25T1800,3684A,130.8781,45.8222,七台河市,新建矿广场,,26,,23,18,15,48,,58,58,17,17,11,10,0.5,0.5
2024-08-25T1800,1779A,123.9305,47.3636,齐齐哈尔市,安居小区,,26,,17,18,12,68,,68,68,8,9,9,8,0.6,0.5
2024-08-25T1800,1780A,123.9488,47.3386,齐齐哈尔市,中心广场,,29,29,18,18,8,53,,64,63,22,10,2,2,0.5,0.4
2024-08-25T1800,1781A,123.9483,47.3227,齐齐哈尔市,农牧车辆厂,,46,46,26,17,10,22,,62,58,42,10,8,8,0.5,0.3
2024-08-25T1800,1783A,123.945,47.2988,齐齐哈尔市,市环境监测站,,24,24,16,16,12,68,,69,69,10,7,7,7,0.3,0.3
2024-08-25T1800,3662A,123.6333,47.2075,齐齐哈尔市,富区青少年活动中心,颗粒物(PM10),97,144,26,29,8,60,,66,66,21,9,29,7,0.8,0.7
2024-08-25T1800,2591A,107.9783,26.5747,黔东南苗族侗族自治州,市环境监测站,,,11,11,7,7,55,,51,51,10,6,,3,0.4,0.4
2024-08-25T1800,2881A,107.8908,26.5311,黔东南苗族侗族自治州,凯里学院,,17,,9,8,6,54,,48,48,5,7,3,2,0.5,0.5
2024-08-25T1800,2593A,107.5228,26.2403,黔南布依族苗族自治州,小围寨,,,2,5,,1,56,,49,49,3,4,4,11,0.4,0.4
2024-08-25T1800,3538A,107.5175,26.2978,黔南布依族苗族自治州,沙坝,,20,6,5,3,2,63,,53,53,2,3,3,3,0.4,0.4
2024-08-25T1800,2589A,104.9022,25.0925,黔西南布依族苗族自治州,场坝街,,17,13,16,3,9,52,,55,55,5,5,2,3,0.3,0.3
2024-08-25T1800,2590A,104.8811,25.0992,黔西南布依族苗族自治州,坪东大道,,16,13,16,3,9,50,,56,56,4,4,5,6,0.2,0.2
2024-08-25T1800,2502A,108.6236,21.9667,钦州市,市环保站,,36,36,28,7,8,78,,77,77,14,22,8,8,0.6,0.7
2024-08-25T1800,2503A,108.6549,21.9481,钦州市,沙埠小学,,26,24,30,14,9,83,,75,75,10,20,5,6,0.5,0.5
2024-08-25T1800,2504A,108.5989,21.7431,钦州市,港区一小,,30,30,25,13,9,60,,67,67,14,14,20,11,0.6,0.6
2024-08-25T1800,3404A,108.5959,21.9633,钦州市,北职校,,23,12,28,9,11,72,,82,82,10,20,8,7,0.5,0.6
2024-08-25T1800,1042A,119.5134,39.8207,秦皇岛市,北戴河环保局,,40,37,51,15,14,127,,124,124,7,11,2,2,0.4,0.7
2024-08-25T1800,1043A,119.7493,40.0116,秦皇岛市,第一关,,48,48,40,33,24,120,,112,112,6,29,1,2,0.4,0.6
2024-08-25T1800,1044A,119.5897,39.9499,秦皇岛市,监测站,细颗粒物(PM2.5),59,59,54,42,32,118,,109,109,19,36,3,3,0.6,0.8
2024-08-25T1800,1046A,119.5251,39.9041,秦皇岛市,建设大厦,,47,47,41,16,11,135,,124,124,7,19,4,4,0.4,0.7
2024-08-25T1800,3132A,119.610547,39.943889,秦皇岛市,文明里,,43,43,41,18,18,125,,119,119,9,18,2,2,0.4,0.7
2024-08-25T1800,1307A,120.6659,36.2403,青岛市,仰口,,45,34,39,31,32,127,,137,137,6,8,6,6,0.3,0.3
2024-08-25T1800,1310A,120.4134,36.0658,青岛市,市南区东部子站,,32,19,25,9,10,102,,114,112,9,9,5,7,0.6,0.7
2024-08-25T1800,1311A,120.3664,36.1032,青岛市,四方区子站,,36,22,26,14,19,115,,134,130,7,5,10,10,0.7,0.8
2024-08-25T1800,1312A,120.2994,36.054,青岛市,市南区西部子站,,27,27,29,12,13,65,,88,85,34,22,8,9,0.9,0.9
2024-08-25T1800,1313A,120.4581,36.0858,青岛市,崂山区子站,,35,22,26,9,15,110,,117,117,12,16,8,9,0.5,0.7
2024-08-25T1800,1314A,120.1983,35.9608,青岛市,黄岛区子站,,39,22,25,17,19,122,,122,122,13,14,8,8,0.7,0.8
2024-08-25T1800,1315A,120.3999,36.3083,青岛市,城阳区子站,,41,41,42,20,22,94,,157,151,37,20,8,8,0.8,0.9
2024-08-25T1800,1966A,120.0405,35.8735,青岛市,黄岛区4号,,31,19,27,7,18,97,,113,112,9,12,9,10,0.6,0.7
2024-08-25T1800,3362A,120.5014,36.4034,青岛市,即墨2号,,45,45,48,28,29,141,,152,152,13,14,7,6,0.6,0.7
2024-08-25T1800,3642A,120.3503,36.0736,青岛市,市北区南部,,28,21,28,17,18,87,,105,104,20,14,7,7,0.7,0.9
2024-08-25T1800,3643A,120.3948,36.1805,青岛市,李沧区北部,,40,34,38,24,23,126,,142,142,16,18,8,8,0.7,0.8
2024-08-25T1800,1702A,113.0426,23.691,清远市,环保大楼,,25,,34,16,23,79,,107,107,11,15,5,6,0.7,0.8
2024-08-25T1800,1703A,113.0208,23.7106,清远市,凤城街办,,16,16,45,11,28,50,,84,84,32,18,5,5,0.5,0.6
2024-08-25T1800,3025A,113.0477,23.6344,清远市,技师学院,,,37,59,20,29,,,126,126,25,22,8,6,0.4,0.6
2024-08-25T1800,3318A,112.9903,23.7403,清远市,清新太和,,33,33,47,17,28,62,,83,83,12,12,3,4,0.7,0.8
2024-08-25T1800,3455A,113.076,23.7198,清远市,清城东城,,30,28,44,21,26,79,,110,110,9,11,6,6,0.4,0.6
2024-08-25T1800,2661A,107.6325,35.7357,庆阳市,庆阳五中,,33,33,42,9,23,89,,98,98,5,5,5,5,0.5,0.6
2024-08-25T1800,2662A,107.6364,35.7067,庆阳市,市环保局,,30,27,35,10,22,94,,101,101,5,6,8,8,0.6,0.6
2024-08-25T1800,1916A,103.7897,25.5035,曲靖市,环境监测站,,25,22,25,3,12,78,,77,77,8,13,3,7,0.5,0.6
2024-08-25T1800,1917A,103.8,25.5364,曲靖市,烟厂办公区,,24,15,25,3,12,74,,74,74,7,12,4,4,0.3,0.5
2024-08-25T1800,3376A,103.7947,25.462,曲靖市,南苑二区,,25,8,19,3,11,78,,77,77,7,11,7,9,0.4,0.6
2024-08-25T1800,3377A,103.7444,25.5261,曲靖市,曲靖师范学院,,27,18,22,3,15,85,,86,86,7,13,6,10,0.3,0.5
2024-08-25T1800,1264A,118.8692,28.9398,衢州市,环保大楼,臭氧1小时,72,33,47,20,32,177,,190,190,11,21,4,4,0.4,0.6
2024-08-25T1800,1265A,118.8709,28.9666,衢州市,实验学校,臭氧1小时,84,31,46,20,30,187,,199,199,10,23,8,7,0.4,0.4
2024-08-25T1800,1266A,118.8621,28.9808,衢州市,衢州学院,臭氧1小时,68,32,47,20,30,174,,196,196,11,29,6,6,0.4,0.5
2024-08-25T1800,1611A,118.5819,24.9117,泉州市,涂山街,,38,27,35,12,28,120,,128,128,14,14,2,2,0.6,0.6
2024-08-25T1800,1612A,118.5972,24.8978,泉州市,津头埔,,45,45,37,11,31,111,,125,125,16,16,4,4,0.6,0.6
2024-08-25T1800,1613A,118.6663,24.9424,泉州市,万安,,35,29,32,12,28,110,,123,123,12,9,6,4,0.6,0.6
2024-08-25T1800,1614A,118.6117,24.9604,泉州市,清源山,,,,,,,,,,,,,,,,
2024-08-25T1800,3529A,118.6333,24.9264,泉州市,城华南路,,32,19,30,13,29,102,,115,115,15,8,5,3,0.6,0.5
2024-08-25T1800,2626A,88.8876,29.2718,日喀则市,日喀则监测站,,40,6,8,3,4,127,,118,118,4,5,4,5,0.3,0.3
2024-08-25T1800,3726A,88.8781,29.2426,日喀则市,林业技术推广中心,,39,6,7,3,5,123,,115,115,6,7,7,7,0.5,0.5
2024-08-25T1800,1659A,119.471,35.4209,日照市,监测站,,38,36,42,22,29,120,,128,128,14,31,9,10,0.6,0.8
2024-08-25T1800,1660A,119.523,35.4216,日照市,市政府广场,,38,24,31,11,20,120,,130,130,8,12,12,11,0.7,0.7
2024-08-25T1800,1661A,119.5587,35.4044,日照市,港务局,,32,19,31,16,24,100,,119,117,9,8,9,8,0.5,0.7
2024-08-25T1800,3507A,119.5328,35.4625,日照市,职业技术学院,,37,22,29,9,21,118,,135,133,16,17,8,9,0.7,0.8
2024-08-25T1800,3604A,119.3266,35.1044,日照市,岚山环保分局,,32,31,48,3,19,102,,115,115,16,19,11,13,0.6,0.7
2024-08-25T1800,1835A,111.1922,34.7752,三门峡市,市政府,,43,43,42,21,25,118,,112,112,10,9,8,9,0.7,0.7
2024-08-25T1800,1836A,111.1587,34.7942,三门峡市,开发区,,38,37,48,24,32,120,,115,115,12,12,8,9,0.7,0.7
2024-08-25T1800,1838A,111.143,34.7955,三门峡市,风景区,,,,,,,,,,,,,,,,
2024-08-25T1800,3039A,111.1911,34.7829,三门峡市,三门峡市第一小学,,44,44,44,27,25,120,,113,113,10,9,7,8,0.7,0.7
2024-08-25T1800,3598A,111.1,34.7167,三门峡市,富达温泉假日酒店,,40,40,29,22,26,117,,107,107,6,7,6,6,0.7,0.7
2024-08-25T1800,2324A,117.6211,26.2625,三明市,三钢,,,26,32,20,21,105,,114,114,6,14,5,12,,1.5
2024-08-25T1800,2325A,117.635,26.2714,三明市,三明二中,,34,27,32,18,19,106,,117,117,7,15,4,7,0.3,1
2024-08-25T1800,2326A,117.6028,26.2378,三明市,三元区政府,,27,23,35,10,22,86,,104,104,6,11,2,3,0.5,0.5
2024-08-25T1800,2327A,117.7275,26.3108,三明市,洋溪,,,,,,,,,,,,,,,,
2024-08-25T1800,1876A,109.5078,18.2489,三亚市,河东子站,,18,15,17,6,7,55,,51,51,7,7,3,3,0.3,0.4
2024-08-25T1800,1877A,109.4964,18.2681,三亚市,河西子站,,17,17,16,7,7,52,,48,48,6,8,2,2,0.2,0.3
2024-08-25T1800,3540A,109.7348,18.3443,三亚市,君悦子站,,18,13,17,3,6,55,,49,49,10,9,1,1,0.3,0.3
2024-08-25T1800,2624A,91.7608,29.2313,山南市,山南监测站,,,6,8,3,5,135,,122,122,2,5,,8,0.2,0.2
2024-08-25T1800,2625A,91.7706,29.2436,山南市,山南人民医院,,42,10,13,3,7,133,,118,118,6,7,7,7,0.2,0.3
2024-08-25T1800,1674A,116.6794,23.3667,汕头市,金平子站,,25,,36,11,24,78,,99,99,11,19,4,4,0.9,0.9
2024-08-25T1800,1675A,116.7244,23.3633,汕头市,龙湖子站,,28,,37,18,22,87,,113,113,12,22,6,7,0.8,0.8
2024-08-25T1800,1676A,116.7258,23.2775,汕头市,濠江子站,,22,16,31,11,28,69,,108,106,13,21,6,6,0.6,0.8
2024-08-25T1800,1677A,116.7519,23.4714,汕头市,澄海子站,,33,31,45,14,37,103,,147,147,13,25,4,8,0.8,1
2024-08-25T1800,1678A,116.6092,23.2539,汕头市,潮阳子站,,30,,34,17,18,94,,116,116,5,10,5,6,0.7,0.8
2024-08-25T1800,3444A,116.454,23.2684,汕头市,潮南峡山,,25,17,40,9,22,79,,110,110,5,9,5,5,0.7,0.8
2024-08-25T1800,3624A,116.4069,23.2533,汕头市,潮南子站,,26,23,56,11,30,81,,112,112,16,17,4,4,0.7,0.9
2024-08-25T1800,1693A,115.3653,22.775,汕尾市,市环保局,,27,20,19,10,14,84,,106,106,17,14,6,6,0.6,0.5
2024-08-25T1800,1694A,115.3706,22.7898,汕尾市,市政府,,21,16,23,3,15,67,,90,90,12,13,5,6,0.4,0.4
2024-08-25T1800,1695A,115.3622,22.7925,汕尾市,新城中学,,23,23,31,7,15,71,,92,92,12,13,6,6,0.6,0.6
2024-08-25T1800,2645A,109.9154,33.8715,商洛市,监测站,,37,37,38,20,22,93,,107,106,8,9,3,3,0.6,0.7
2024-08-25T1800,3045A,109.9643,33.8471,商洛市,商州区中学,,45,45,42,22,24,86,,98,98,9,11,4,5,0.8,0.7
2024-08-25T1800,2408A,115.6702,34.4285,商丘市,环境监测站,颗粒物(PM10),55,59,69,26,29,153,,153,153,8,18,3,4,0.7,0.7
2024-08-25T1800,2409A,115.6458,34.4045,商丘市,粮食局,,,,52,30,30,161,,160,160,6,8,5,6,,0.6
2024-08-25T1800,2410A,115.6293,34.3948,商丘市,睢阳区环保局,颗粒物(PM10),58,66,56,29,28,157,,162,162,7,10,5,5,0.6,0.6
2024-08-25T1800,3171A,115.6071,34.4465,商丘市,梁园区档案局,臭氧1小时,60,47,51,33,28,168,,162,162,5,10,6,7,0.6,0.6
2024-08-25T1800,1141A,121.4,31.238,上海市,普陀,,36,36,30,17,15,80,,124,122,26,16,6,5,0.4,0.4
2024-08-25T1800,1142A,121.478,31.2036,上海市,十五厂,,34,34,29,20,19,92,,125,125,17,15,8,8,0.4,0.4
2024-08-25T1800,1143A,121.467,31.3008,上海市,虹口,,29,29,29,16,17,86,,111,111,15,14,8,9,0.6,0.6
2024-08-25T1800,1144A,121.412,31.1654,上海市,徐汇上师大,,50,50,37,20,19,109,,142,142,16,18,5,5,0.7,0.7
2024-08-25T1800,1145A,121.536,31.2659,上海市,杨浦四漂,,45,45,35,14,16,74,,109,108,20,16,7,6,0.3,0.3
2024-08-25T1800,1147A,121.425,31.2261,上海市,静安监测站,,33,33,28,17,17,85,,124,124,22,14,6,6,0.7,0.6
2024-08-25T1800,1148A,121.703,31.1907,上海市,浦东川沙,,,21,27,,18,65,,94,92,25,20,6,6,0.6,0.6
2024-08-25T1800,1149A,121.533,31.2284,上海市,浦东新区监测站,,26,26,26,15,16,63,,102,100,26,17,6,6,0.4,0.4
2024-08-25T1800,1150A,121.577,31.2071,上海市,浦东张江,,38,33,28,26,20,60,,95,94,28,18,5,5,0.8,0.8
2024-08-25T1800,3265A,121.4316,31.3322,上海市,宝山庙行,,28,27,27,13,17,87,,121,121,18,16,7,6,0.4,0.4
