timepoint,stationcode,longitude,latitude,area,positionname,primarypollutant,aqi,pm10,pm10_24h,pm2_5,pm2_5_24h,o3,o3_24h,o3_8h,o3_8h_24h,no2,no2_24h,so2,so2_24h,co,co_24h
2024-08-25T2300,2566A,102.1879,31.914,阿坝藏族羌族自治州,州农科所,,36,36,36,13,10,32,,46,46,27,21,12,10,0,0
2024-08-25T2300,2568A,102.2502,31.8896,阿坝藏族羌族自治州,马师校,,31,31,17,15,11,53,,111,84,13,11,3,3,0.4,0.4
2024-08-25T2300,3994A,102.2165,31.9024,阿坝藏族羌族自治州,马尔康中学西区,,40,31,20,28,16,58,,107,86,9,10,4,4,0.4,0.4
2024-08-25T2300,2695A,80.292,41.1694,阿克苏地区,电视台,颗粒物(PM10),83,116,55,39,19,79,,132,124,32,14,2,3,0.6,0.4
2024-08-25T2300,2204A,105.6467,38.8363,阿拉善盟,西城区西花园,,36,27,61,8,24,115,,115,104,9,10,9,8,1.2,1.2
2024-08-25T2300,2205A,105.6985,38.8411,阿拉善盟,蒙二幼,,32,6,44,3,17,101,,102,90,4,6,8,8,0.5,0.7
2024-08-25T2300,2206A,105.724,38.8516,阿拉善盟,环保局新楼,,34,6,21,3,11,106,,109,95,4,6,9,9,0.4,0.5
2024-08-25T2300,2630A,80.1161,32.5,阿里地区,阿里监测站,,27,6,4,3,2,85,,103,96,6,7,6,6,0.3,0.3
2024-08-25T2300,3192A,80.0903,32.5028,阿里地区,阿里藏医院,,31,31,7,3,4,82,,99,92,3,4,7,7,0.3,0.3
2024-08-25T2300,2642A,109.0318,32.6537,安康市,香溪洞,,30,30,25,16,12,63,,104,88,4,11,5,5,0.4,0.3
2024-08-25T2300,2643A,109.0281,32.6939,安康市,安康市监测站,,32,32,28,18,14,47,,112,82,12,7,12,8,0.6,0.5
2024-08-25T2300,2644A,109.0072,32.6975,安康市,汉滨区检察院,,29,29,18,9,10,46,,111,88,12,9,16,9,0.7,0.4
2024-08-25T2300,2291A,117.0809,30.5177,安庆市,环科院,,45,45,44,28,30,120,,163,147,19,27,10,9,0.7,0.8
2024-08-25T2300,2292A,117.0331,30.5119,安庆市,马山宾馆,,46,46,44,30,29,121,,166,156,22,24,11,10,0.7,0.7
2024-08-25T2300,2294A,116.9896,30.6145,安庆市,安庆大学,颗粒物(PM10),55,59,43,36,32,97,,153,141,21,14,8,8,0.8,0.7
2024-08-25T2300,3173A,117.0598,30.5351,安庆市,市人大,颗粒物(PM10),56,62,43,30,30,115,,168,144,19,15,7,7,0.9,0.9
2024-08-25T2300,3123A,105.9408,26.2431,安顺市,凤凰山,,15,10,9,8,6,47,,61,52,3,3,8,8,0.4,0.4
2024-08-25T2300,3124A,105.9439,26.2564,安顺市,金钟山,,15,10,10,6,6,48,,62,54,3,3,5,5,0.3,0.3
2024-08-25T2300,3125A,105.8983,26.2481,安顺市,娄家坡,,14,6,8,3,5,44,,61,52,4,3,7,7,0.5,0.5
2024-08-25T2300,1819A,114.3551,36.1017,安阳市,红庙街,,41,41,72,24,35,77,,134,92,7,12,5,4,1.1,0.7
2024-08-25T2300,1820A,114.361,36.0681,安阳市,银杏小区,,,39,58,,14,61,,141,94,9,7,2,2,1.1,0.5
2024-08-25T2300,3141A,114.3922,36.0878,安阳市,信访局,,46,46,60,22,30,60,,139,92,11,10,2,3,0.8,0.6
2024-08-25T2300,3669A,114.4705,36.0637,安阳市,左辅环卫站,,33,33,63,21,40,83,,132,100,4,13,6,7,0.5,0.6
2024-08-25T2300,3703A,114.2917,36.0949,安阳市,安钢职工学校,细颗粒物(PM2.5),55,53,77,39,42,50,,123,85,20,18,6,7,1.6,1.1
2024-08-25T2300,1748A,123.044,41.1196,鞍山市,深沟寺,,24,24,46,10,28,49,,110,69,14,16,4,6,0.6,1
2024-08-25T2300,1749A,123.011,41.0931,鞍山市,太阳城,,23,23,44,13,28,55,,116,87,19,16,4,7,0.5,1
2024-08-25T2300,1750A,123.0485,41.1442,鞍山市,太平,,29,29,54,13,31,47,,118,79,30,25,5,6,0.6,0.9
2024-08-25T2300,1751A,122.9642,41.0971,鞍山市,铁西三道街,,34,34,68,12,36,33,,112,81,48,34,4,12,0.8,1.5
2024-08-25T2300,1752A,122.9341,41.0833,鞍山市,铁西工业园区,颗粒物(PM10),56,61,61,18,32,8,,127,77,55,30,8,12,0.7,1.2
2024-08-25T2300,1753A,123.022,41.0821,鞍山市,明达新区,,19,19,43,10,33,51,,110,81,21,18,4,6,0.4,1
2024-08-25T2300,2195A,107.4212,40.761,巴彦淖尔市,附二中,,30,28,39,21,22,90,,102,101,7,9,3,4,0.5,0.5
2024-08-25T2300,2196A,107.37,40.7372,巴彦淖尔市,市环保大楼,,33,33,46,7,14,91,,104,103,6,7,4,3,0.3,0.4
2024-08-25T2300,1956A,86.1472,41.7538,巴音郭楞蒙古自治州,孔雀公园,颗粒物(PM10),64,78,109,25,34,79,,105,90,25,38,5,6,0.2,0.5
2024-08-25T2300,1957A,86.1972,41.7166,巴音郭楞蒙古自治州,棉纺厂,颗粒物(PM10),70,90,130,29,42,97,,110,101,13,34,4,5,0.1,0.3
2024-08-25T2300,1958A,86.2357,41.7173,巴音郭楞蒙古自治州,经济开发区,,50,50,144,21,44,108,,107,100,5,16,5,6,0.1,0.2
2024-08-25T2300,2914A,106.7677,31.8794,巴中市,苏山坪,,39,18,28,14,22,123,,120,120,6,7,4,4,0.4,0.5
2024-08-25T2300,3182A,106.7656,31.8545,巴中市,丽阳花园,,40,40,34,27,26,48,,112,88,23,16,4,4,0.6,0.6
2024-08-25T2300,3183A,106.7418,31.8654,巴中市,圣泉水务公司,,38,37,30,26,22,59,,115,90,18,14,4,4,0.6,0.6
2024-08-25T2300,3616A,106.7616,31.8344,巴中市,市中心医院,细颗粒物(PM2.5),53,44,41,37,31,36,,115,88,29,16,6,5,0.8,0.7
2024-08-25T2300,2235A,122.7911,45.6077,白城市,洮北区环保局,,32,32,17,14,9,53,,73,61,5,5,7,7,0.5,0.5
2024-08-25T2300,2236A,122.8738,45.5725,白城市,市环保局,,29,29,21,7,6,53,,71,55,9,8,4,4,0.5,0.5
2024-08-25T2300,2231A,126.4219,41.9171,白山市,喜丰,颗粒物(PM10),63,76,48,35,22,19,,118,73,21,16,14,9,0.8,0.9
2024-08-25T2300,2232A,126.4077,41.9419,白山市,环保局,细颗粒物(PM2.5),72,84,47,52,27,22,,98,63,14,17,14,13,0.6,0.7
2024-08-25T2300,2647A,104.1724,36.5446,白银市,第三小学,颗粒物(PM10),62,73,43,23,19,93,,96,95,8,11,6,9,0.5,0.6
2024-08-25T2300,2648A,104.1465,36.5482,白银市,动力公司,颗粒物(PM10),57,64,37,26,21,93,,93,93,6,8,4,8,0.4,0.5
2024-08-25T2300,2512A,106.6103,23.9011,百色市,市监测站,,27,27,26,12,11,22,,76,50,15,11,7,8,0.7,0.7
2024-08-25T2300,2513A,106.6538,23.8859,百色市,市中心血站,,25,25,26,14,11,35,,76,53,15,11,7,7,0.6,0.6
2024-08-25T2300,3406A,106.6085,23.8798,百色市,祈福高中,,37,37,30,17,11,22,,74,46,14,12,4,5,0.8,0.8
2024-08-25T2300,2270A,117.396,32.939,蚌埠市,工人疗养院,,35,35,50,15,23,93,,183,148,22,18,12,10,0.4,0.6
2024-08-25T2300,2271A,117.3605,32.9427,蚌埠市,百货大楼,,38,38,53,15,28,106,,189,135,6,15,6,7,0.5,0.6
2024-08-25T2300,2273A,117.4185,32.8911,蚌埠市,蚌埠学院,,36,36,40,16,22,99,,186,130,9,15,7,6,0.5,0.6
2024-08-25T2300,2274A,117.3533,32.9673,蚌埠市,淮上区政府,,41,41,50,24,29,102,,196,144,16,11,9,7,0.8,0.9
2024-08-25T2300,2275A,117.3145,32.8977,蚌埠市,高新区,,34,34,43,20,25,96,,181,130,7,10,6,6,0.6,0.7
2024-08-25T2300,3715A,117.3092,32.9314,蚌埠市,蚌埠田家炳中学,,34,34,48,23,29,102,,187,130,2,10,4,5,0.6,0.7
2024-08-25T2300,1585A,109.8756,40.6532,包头市,市环境监测站,,25,,24,11,10,80,,88,88,14,30,5,11,0.3,0.5
2024-08-25T2300,1587A,109.9991,40.5842,包头市,包头八中,,29,16,37,6,19,91,,75,75,13,29,8,42,1.0,1
2024-08-25T2300,1588A,109.8538,40.6821,包头市,青山宾馆,,27,11,16,6,12,85,,86,86,8,24,5,6,0.5,0.6
2024-08-25T2300,1589A,109.8642,40.6288,包头市,惠龙物流,,26,10,25,3,13,81,,91,91,13,26,6,18,0.6,0.8
2024-08-25T2300,1590A,110.0377,40.5546,包头市,东河鸿龙湾,,22,22,19,8,9,58,,81,78,16,20,6,19,0.9,0.8
2024-08-25T2300,3283A,109.9154,40.5685,包头市,滨河大厦,,25,6,16,3,10,78,,82,82,10,22,7,16,0.4,0.5
2024-08-25T2300,3419A,109.9447,40.6261,包头市,包头市委党校,,26,,23,3,11,83,,90,90,10,28,4,12,0.3,0.5
2024-08-25T2300,3683A,109.8331,40.6576,包头市,昆区政府,,28,13,18,6,12,87,,86,86,9,23,5,7,0.4,0.5
2024-08-25T2300,1930A,107.185,34.3063,宝鸡市,庙沟村,,39,39,53,24,33,89,,126,109,13,11,6,7,0.4,0.5
2024-08-25T2300,1931A,107.0708,34.3017,宝鸡市,竹园沟,,26,26,52,16,33,44,,144,98,20,16,8,8,0.4,0.6
2024-08-25T2300,1932A,107.1906,34.3672,宝鸡市,三陆医院,,49,49,58,28,35,59,,152,112,24,21,9,9,0.8,0.8
2024-08-25T2300,1933A,107.1431,34.3547,宝鸡市,监测站,颗粒物(PM10),54,57,70,26,36,42,,144,96,35,23,7,8,0.5,0.6
2024-08-25T2300,1934A,107.1186,34.3739,宝鸡市,技工学校,,50,41,60,35,42,55,,155,115,19,16,8,9,0.7,0.8
2024-08-25T2300,1935A,107.3906,34.3528,宝鸡市,陈仓区环保局家属楼,,41,41,52,21,44,58,,152,109,28,19,8,8,0.6,0.6
2024-08-25T2300,1936A,107.2058,34.3497,宝鸡市,文理学院,,49,49,52,25,30,65,,154,115,26,18,9,10,0.7,0.7
2024-08-25T2300,1937A,107.2386,34.3622,宝鸡市,三迪小学,,48,48,56,23,33,61,,153,115,21,15,9,9,0.7,0.8
2024-08-25T2300,1051A,115.493,38.8632,保定市,游泳馆,,22,20,37,9,17,70,,112,79,16,15,3,3,0.3,0.3
2024-08-25T2300,1052A,115.5213,38.8959,保定市,华电二区,,32,24,33,22,20,70,,110,69,11,13,3,3,0.2,0.2
2024-08-25T2300,3581A,115.31981,38.95208,保定市,满城区生态环境分局,细颗粒物(PM2.5),55,,32,39,19,98,,110,85,10,15,4,4,0.4,0.4
2024-08-25T2300,3582A,115.47694,38.76408,保定市,清苑区第二中学,,32,25,49,22,28,100,,113,82,10,18,5,4,0.5,0.4
2024-08-25T2300,3583A,115.62909,39.02311,保定市,徐水物探局,,28,27,31,19,14,65,,108,77,15,16,3,3,0.5,0.4
2024-08-25T2300,4004A,115.4202,38.8656,保定市,双鹰农机,,29,23,34,14,16,90,,126,90,9,10,2,2,0.3,0.3
2024-08-25T2300,2594A,99.1678,25.1081,保山市,市环境监测站,,27,27,25,14,12,73,,106,98,8,10,6,6,0.5,0.5
2024-08-25T2300,2595A,99.1711,25.1328,保山市,市环保局,,31,31,25,6,9,85,,108,104,5,7,5,6,0.4,0.5
2024-08-25T2300,1867A,109.1436,21.4086,北海市,海滩公园,,22,22,19,7,6,63,,79,73,5,5,4,4,0.7,0.7
2024-08-25T2300,1868A,109.0981,21.4661,北海市,新市环保局,,22,17,17,12,10,69,,87,80,10,7,3,3,0.4,0.5
2024-08-25T2300,1869A,109.1778,21.5233,北海市,北海工业园,,25,,24,17,14,66,,78,72,9,10,4,4,0.4,0.4
2024-08-25T2300,3400A,109.1911,21.4415,北海市,龙潭自来水厂,,24,16,17,7,11,76,,90,84,6,7,6,4,0.5,0.5
2024-08-25T2300,1004A,116.4072,39.8863,北京市,天坛,,33,15,31,11,17,105,,104,84,9,19,3,3,0.7,0.5
2024-08-25T2300,1005A,116.462,39.9365,北京市,农展馆,,28,27,36,18,19,87,,117,106,6,17,3,3,0.8,0.6
2024-08-25T2300,1008A,116.6636,40.135,北京市,顺义新城,,40,36,29,28,21,90,,104,96,7,10,3,3,0.7,0.5
2024-08-25T2300,1011A,116.3966,39.9821,北京市,奥体中心,,33,33,30,20,15,99,,111,105,14,26,3,2,0.7,0.5
2024-08-25T2300,1012A,116.184,39.9136,北京市,古城,,43,43,34,16,14,94,,100,85,13,20,1,1,0.6,0.4
2024-08-25T2300,3417A,117.0709,40.1465,北京市,平谷新城,,38,38,37,25,23,61,,102,85,8,7,3,3,0.7,0.6
2024-08-25T2300,3695A,116.6151,40.3053,北京市,怀柔新城,,35,30,23,24,13,108,,86,83,4,4,3,3,0.7,0.5
2024-08-25T2300,3696A,116.2545,39.8768,北京市,丰台小屯,,33,21,33,10,14,103,,87,71,8,21,5,6,0.5,0.5
2024-08-25T2300,1761A,123.8275,41.3064,本溪市,大峪,,36,36,47,15,20,41,,152,101,19,21,7,8,0.7,0.9
2024-08-25T2300,1762A,123.7567,41.3325,本溪市,溪湖,,39,39,58,11,25,35,,151,95,26,25,3,4,0.6,1.1
2024-08-25T2300,1763A,123.7169,41.3094,本溪市,彩屯,,39,39,67,17,32,30,,149,90,28,26,7,8,0.7,1.4
2024-08-25T2300,1764A,123.7669,41.2864,本溪市,东明,颗粒物(PM10),51,52,52,17,25,52,,159,116,31,26,6,6,0.8,1.1
2024-08-25T2300,1765A,123.7992,41.2664,本溪市,新立屯,,23,23,48,8,20,49,,156,92,40,27,4,4,0.7,0.9
2024-08-25T2300,1766A,123.8142,41.3472,本溪市,威宁,,29,29,51,14,28,22,,145,73,20,20,8,9,0.9,1.1
2024-08-25T2300,2587A,105.2864,27.3125,毕节市,八中,,22,20,25,15,20,52,,101,81,14,13,6,7,0.3,0.4
2024-08-25T2300,2588A,105.31,27.2944,毕节市,师专,,25,25,27,15,16,46,,98,78,20,15,6,8,0.5,0.5
2024-08-25T2300,3537A,105.3631,27.3533,毕节市,长征村,,23,19,23,16,19,54,,102,84,10,8,11,7,0.4,0.4
2024-08-25T2300,1629A,118.0018,37.3617,滨州市,第二水厂,,31,31,51,19,30,93,,149,117,10,19,10,8,0.7,1
2024-08-25T2300,1630A,117.9776,37.393,滨州市,北中新校,,44,44,56,19,31,111,,168,129,17,21,15,12,0.5,0.7
2024-08-25T2300,3514A,117.9378,37.3956,滨州市,中海酒店,,37,36,51,19,27,118,,168,132,10,17,13,14,0.6,0.9
2024-08-25T2300,3515A,117.9378,37.3553,滨州市,开发区一中,,39,39,55,27,32,94,,187,126,19,24,11,11,0.7,0.8
2024-08-25T2300,3516A,118.0917,37.694,滨州市,金海六路,,39,39,41,24,19,114,,146,119,6,11,3,6,0.4,0.6
2024-08-25T2300,4028A,117.9956,37.3753,滨州市,滨州市西街道办事处,,39,39,51,22,30,111,,178,131,8,15,16,13,0.6,1
2024-08-25T2300,2311A,115.8072,33.8399,亳州市,污水处理厂,,40,40,44,24,30,101,,133,102,9,10,10,35,0.8,0.8
2024-08-25T2300,2312A,115.7789,33.8518,亳州市,三国揽胜宫,,49,45,48,34,36,114,,140,122,5,6,6,29,0.7,0.7
2024-08-25T2300,3332A,115.7633,33.8034,亳州市,亳州学院,,42,37,38,29,29,118,,152,135,8,7,3,7,0.6,0.6
2024-08-25T2300,2693A,82.0485,44.8556,博尔塔拉蒙古自治州,市党校,,37,37,30,12,11,82,,119,112,10,9,7,7,0.4,0.4
2024-08-25T2300,2694A,82.0806,44.8969,博尔塔拉蒙古自治州,市环保局,,41,41,30,14,10,68,,110,100,15,11,5,5,0.3,0.4
2024-08-25T2300,1072A,116.8584,38.3254,沧州市,电视转播站,,48,48,39,31,22,68,,100,86,23,17,2,4,0.6,0.6
2024-08-25T2300,1073A,116.8709,38.3228,沧州市,市环保局,,45,45,37,27,24,64,,106,87,16,17,3,7,0.4,0.5
2024-08-25T2300,3324A,116.8136,38.3004,沧州市,河北水利电力学院,,44,44,40,27,18,93,,112,100,17,18,5,7,0.5,0.5
2024-08-25T2300,2622A,97.1806,31.1273,昌都市,昌都监测站,,33,,17,17,10,105,,106,106,8,9,6,6,0.4,0.5
2024-08-25T2300,3719A,97.1714,31.1406,昌都市,昌都会议中心,,37,9,16,8,9,118,,116,116,3,4,7,7,0.4,0.4
2024-08-25T2300,2690A,88.1236,43.8886,昌吉回族自治州,天山天池,,25,25,35,12,14,59,,116,90,3,4,17,17,0.5,0.5
2024-08-25T2300,2692A,87.2717,44.0297,昌吉回族自治州,新区政务中心,,31,31,45,14,14,82,,109,106,24,19,9,11,0.7,0.6
2024-08-25T2300,3613A,87.3095,44.0142,昌吉回族自治州,亚心广场,,36,36,54,7,12,89,,114,110,24,24,3,6,0.3,0.4
2024-08-25T2300,1121A,125.2841,43.8463,长春市,邮电学院,,,51,26,20,14,,,84,65,37,13,7,6,0.5,0.4
2024-08-25T2300,1122A,125.3716,43.8772,长春市,劳动公园,,48,48,25,17,11,53,,92,73,19,11,8,7,0.5,0.5
2024-08-25T2300,1124A,125.4605,43.79,长春市,净月潭,,50,50,22,15,10,13,,87,48,15,6,5,5,0.4,0.4
2024-08-25T2300,1128A,125.1761,43.8325,长春市,岱山公园,,27,27,27,15,15,16,,83,50,45,13,3,3,0.4,0.4
2024-08-25T2300,1335A,113.0833,28.2325,长沙市,经开区环保局,,39,39,39,22,19,69,,143,101,16,18,1,3,0.4,0.4
2024-08-25T2300,1342A,112.9844,28.1178,长沙市,天心区环保局,,46,46,40,27,21,68,,121,91,18,19,3,4,0.2,0.2
2024-08-25T2300,1344A,112.9581,28.3611,长沙市,沙坪,,29,21,19,20,18,68,,138,109,13,8,7,8,0.7,0.6
2024-08-25T2300,1728A,113.1031,36.1989,长治市,监测站,,33,33,45,17,21,101,,118,100,8,15,7,8,0.8,1.2
2024-08-25T2300,1730A,113.0886,36.2125,长治市,审计局,,32,21,38,17,21,102,,117,102,2,8,4,5,0.5,0.9
2024-08-25T2300,1731A,113.0844,36.1856,长治市,长治八中,,33,20,46,20,22,103,,120,105,7,11,4,5,0.5,0.9
2024-08-25T2300,2845A,113.1569,36.1911,长治市,德盛苑,,30,30,38,19,21,88,,120,93,7,7,7,7,0.7,1.1
2024-08-25T2300,3568A,113.06,36.0464,长治市,向阳小学,,44,44,58,25,34,116,,117,111,5,8,7,7,0.5,0.6
2024-08-25T2300,3569A,112.8792,36.3144,长治市,屯留一中,,40,40,49,17,35,117,,142,123,5,9,8,8,0.5,0.6
2024-08-25T2300,3570A,113.235,36.3489,长治市,潞城四中,,39,28,47,27,37,72,,138,99,17,13,7,7,0.7,0.8
2024-08-25T2300,1854A,111.6975,28.9703,常德市,市二中,,38,26,30,26,22,54,,99,71,17,13,7,10,0.5,0.5
2024-08-25T2300,3138A,111.7153,29.0289,常德市,武陵区永安,,45,45,33,24,19,60,,108,78,16,11,8,8,0.5,0.5
2024-08-25T2300,3139A,111.6892,28.9881,常德市,鼎城区玉霞,细颗粒物(PM2.5),59,44,34,42,24,36,,101,68,23,14,7,6,0.7,0.6
2024-08-25T2300,3140A,111.6625,29.0531,常德市,武陵区长庚,细颗粒物(PM2.5),68,,34,49,24,52,,115,87,21,10,8,9,0.7,0.6
2024-08-25T2300,1200A,119.9468,31.7069,常州市,武进监测站,,30,30,37,16,22,75,,192,141,13,14,8,10,1.0,1.3
2024-08-25T2300,1201A,119.9255,31.9087,常州市,安家,,26,20,36,18,25,53,,150,100,20,21,5,6,0.8,1
2024-08-25T2300,3003A,120.0522,31.7748,常州市,经开区,,20,20,34,10,20,58,,179,120,15,16,11,10,0.5,0.8
2024-08-25T2300,3429A,119.8598,31.7066,常州市,武进经发区,,26,24,41,13,22,81,,186,139,18,22,12,12,0.7,0.9
2024-08-25T2300,3430A,119.5826,31.7245,常州市,金坛城区,,27,18,36,15,22,84,,201,132,18,22,8,10,0.5,0.7
2024-08-25T2300,2220A,120.4318,41.5881,朝阳市,西梁,,36,36,28,12,14,27,,92,62,25,13,13,9,0.6,0.5
2024-08-25T2300,2221A,120.4521,41.5646,朝阳市,河畔小区,,21,21,20,3,5,39,,85,65,14,8,10,7,0.6,0.6
2024-08-25T2300,2222A,120.4176,41.5648,朝阳市,八里堡,,39,39,35,10,11,24,,93,62,28,16,10,7,0.8,0.7
2024-08-25T2300,2223A,120.3806,41.5969,朝阳市,农业园区,,36,36,24,16,8,20,,82,37,17,12,4,4,0.7,0.6
2024-08-25T2300,1705A,116.6367,23.6719,潮州市,西园路,,15,,37,10,24,38,,109,74,10,15,3,6,0.3,0.4
2024-08-25T2300,3026A,116.6183,23.6608,潮州市,市政府,,24,24,45,14,23,62,,121,87,7,15,4,15,0.6,0.7
2024-08-25T2300,4036A,116.6461,23.6761,潮州市,金山,,16,16,35,11,22,42,,120,82,9,12,5,7,0.7,0.7
2024-08-25T2300,2472A,113.0073,25.9061,郴州市,马头岭,,40,40,28,13,11,22,,67,48,16,10,6,7,0.5,0.5
2024-08-25T2300,2473A,113.0116,25.8226,郴州市,市职中,,32,30,27,22,18,11,,85,50,31,12,8,9,0.5,0.5
2024-08-25T2300,2474A,113.0161,25.8001,郴州市,兴隆步行街,,23,23,31,7,16,32,,81,52,19,13,6,7,0.5,0.5
2024-08-25T2300,2475A,113.0383,25.8071,郴州市,市审计局,,23,23,22,12,14,19,,80,43,21,12,2,3,0.4,0.4
2024-08-25T2300,2476A,113.0348,25.7759,郴州市,市环保局,,24,24,24,13,14,20,,79,45,24,15,3,4,0.4,0.4
2024-08-25T2300,1431A,103.9728,30.7236,成都市,金泉两河,细颗粒物(PM2.5),62,63,45,44,31,105,,193,152,16,12,2,2,0.7,0.6
2024-08-25T2300,1432A,104.176,30.6872,成都市,十里店,细颗粒物(PM2.5),74,70,55,54,34,100,,186,125,13,18,3,3,0.8,0.8
2024-08-25T2300,1433A,104.079,30.5706,成都市,三瓦窑,颗粒物(PM10),52,53,49,21,33,119,,212,144,22,35,3,2,0.5,0.5
2024-08-25T2300,1437A,104.0786,30.6531,成都市,君平街,细颗粒物(PM2.5),75,72,55,55,37,120,,229,163,23,25,7,5,0.7,0.7
2024-08-25T2300,2880A,104.0239,30.65639,成都市,大石西路,细颗粒物(PM2.5),72,72,52,52,36,116,,198,141,17,22,6,5,0.6,0.6
2024-08-25T2300,3136A,104.2725,30.5589,成都市,龙泉驿区区政府,颗粒物(PM10),51,51,38,34,25,102,,186,127,19,14,7,4,0.7,0.7
2024-08-25T2300,3357A,104.0106,30.6931,成都市,金博路,细颗粒物(PM2.5),63,61,45,45,31,96,,184,133,10,9,1,2,0.9,0.9
2024-08-25T2300,3359A,104.0578,30.5225,成都市,华阳,,48,48,47,24,25,109,,194,144,22,24,4,3,0.7,0.7
2024-08-25T2300,3487A,104.2394,30.5319,成都市,车城东七路,颗粒物(PM10),60,70,53,32,36,114,,187,135,20,21,4,4,0.9,0.6
2024-08-25T2300,3488A,104.3853,30.7453,成都市,青白江技师分院,细颗粒物(PM2.5),62,71,42,44,30,67,,159,125,42,27,2,2,1.1,0.9
2024-08-25T2300,3489A,104.0789,30.4072,成都市,科学城,,45,42,47,31,35,107,,182,151,21,15,5,4,0.6,0.6
2024-08-25T2300,4011A,103.8506,30.6947,成都市,光华大道三段,,50,50,47,35,28,125,,164,143,12,10,2,3,0.7,0.6
2024-08-25T2300,2314A,117.47,30.6618,池州市,池州学院,,46,46,41,32,27,120,,200,165,11,13,6,7,0.9,0.9
2024-08-25T2300,3237A,117.4918,30.6617,池州市,展览馆,,48,48,40,29,26,107,,195,160,9,11,5,6,0.9,0.9
2024-08-25T2300,3333A,117.5627,30.695,池州市,第八中学,颗粒物(PM10),52,54,42,33,25,97,,179,155,11,12,4,4,1.0,0.7
2024-08-25T2300,3334A,117.5038,30.6243,池州市,第十二中学,细颗粒物(PM2.5),54,50,38,38,27,77,,175,152,35,17,4,4,0.9,1.1
2024-08-25T2300,1744A,118.9233,42.2816,赤峰市,松山一中,,28,28,25,3,6,38,,82,61,27,23,9,10,0.5,0.6
2024-08-25T2300,1745A,118.9576,42.2728,赤峰市,哈达街,,24,24,23,7,10,41,,83,61,17,14,11,11,0.4,0.5
2024-08-25T2300,1746A,118.8788,42.2554,赤峰市,天义路,,25,17,18,17,10,26,,93,70,34,18,7,11,0.3,0.2
2024-08-25T2300,3058A,119.2658,42.0353,赤峰市,银河街,,20,20,23,6,13,33,,80,59,16,13,11,14,0.4,0.4
2024-08-25T2300,3286A,118.9359,42.3147,赤峰市,桥北物流园区,,16,14,19,3,10,25,,79,56,31,21,8,8,0.5,0.5
2024-08-25T2300,2521A,107.3476,22.4136,崇左市,市环保局江州分局,,38,38,22,18,9,21,,73,59,24,6,6,6,0.6,0.5
2024-08-25T2300,2522A,107.3702,22.3707,崇左市,城南新区,,18,18,18,6,8,42,,64,58,8,5,4,4,0.5,0.5
2024-08-25T2300,2298A,118.3093,32.3153,滁州市,老年大学,,30,30,42,20,27,84,,192,127,10,15,10,11,0.3,0.5
2024-08-25T2300,2299A,118.3244,32.2786,滁州市,人大宾馆,,38,34,50,26,33,83,,193,130,12,17,6,5,0.4,0.6
2024-08-25T2300,3207A,118.3118,32.3038,滁州市,市政府原办公楼,,31,31,43,20,32,77,,190,122,14,17,8,8,0.4,0.7
2024-08-25T2300,3331A,118.3267,32.2634,滁州市,图书馆,,42,42,51,28,34,79,,194,130,11,15,5,5,0.2,0.5
2024-08-25T2300,2605A,101.5482,25.0441,楚雄彝族自治州,州环境监测站,,39,,16,27,15,20,,89,63,28,10,6,4,0.7,0.5
2024-08-25T2300,2606A,101.538,25.0492,楚雄彝族自治州,市经济开发区,,34,34,23,23,14,35,,86,61,14,11,6,6,0.8,0.6
2024-08-25T2300,2548A,107.5277,31.2827,达州市,达州职业技术学院,细颗粒物(PM2.5),58,58,79,41,60,17,,87,51,20,14,6,8,0.8,0.8
2024-08-25T2300,2549A,107.5086,31.2186,达州市,市环境监测站,,40,40,63,22,43,36,,93,67,38,26,8,9,0.5,0.7
2024-08-25T2300,2550A,107.4988,31.2132,达州市,凤凰小区,,39,39,61,22,45,42,,98,72,35,23,7,9,0.5,0.6
2024-08-25T2300,2551A,107.5082,31.1986,达州市,达县机关宾馆,颗粒物(PM10),65,80,72,35,46,5,,95,52,66,36,6,8,0.5,0.6
2024-08-25T2300,2552A,107.4644,31.2124,达州市,市政中心,,46,46,68,19,42,41,,104,69,40,26,6,8,0.7,0.8
2024-08-25T2300,2614A,100.1542,25.7054,大理白族自治州,大理市环境监测站,,34,22,23,15,12,106,,118,114,6,12,4,4,0.4,0.5
2024-08-25T2300,2615A,100.2171,25.5811,大理白族自治州,大理古城,,32,32,25,20,15,64,,125,104,18,11,7,7,0.7,0.7
2024-08-25T2300,1109A,121.612,38.9741,大连市,甘井子,细颗粒物(PM2.5),55,47,35,39,29,97,,148,131,24,18,6,6,1.0,0.9
2024-08-25T2300,1110A,121.565,38.9511,大连市,周水子,细颗粒物(PM2.5),59,46,32,42,29,90,,143,113,26,22,6,5,1.1,0.9
2024-08-25T2300,1111A,121.5637,38.8845,大连市,星海三站,,46,36,32,32,28,94,,129,103,12,10,7,7,0.6,0.5
2024-08-25T2300,1112A,121.6302,38.9117,大连市,青泥洼桥,,46,38,34,32,28,67,,139,99,15,11,8,8,0.9,0.8
2024-08-25T2300,1113A,121.6251,38.8638,大连市,傅家庄,,45,,28,31,31,125,,130,129,9,10,9,8,0.7,0.7
2024-08-25T2300,1114A,121.5213,38.8661,大连市,七贤岭,,36,32,29,25,26,71,,134,107,10,9,6,7,0.5,0.5
2024-08-25T2300,1116A,121.7485,39.1311,大连市,金州,,48,36,33,33,28,54,,135,101,15,13,7,7,0.6,0.6
2024-08-25T2300,1117A,121.7811,39.0496,大连市,开发区,,39,38,34,27,27,107,,126,114,15,13,8,9,0.6,0.6
2024-08-25T2300,1118A,121.9762,39.0631,大连市,双D港,,28,24,27,19,25,56,,112,74,12,10,6,6,0.6,0.6
2024-08-25T2300,1789A,124.81117,46.03138,大庆市,大同区,,32,,22,22,20,53,,70,64,4,6,9,9,0.3,0.4
2024-08-25T2300,1790A,125.129,46.533,大庆市,龙凤区,,36,36,40,16,17,48,,71,58,16,14,6,5,0.8,0.6
2024-08-25T2300,1791A,124.902,46.408,大庆市,红岗区,,31,31,29,13,18,42,,72,61,19,11,8,9,0.4,0.4
2024-08-25T2300,1792A,125.153,46.586,大庆市,萨尔图区,,35,,27,24,15,52,,69,58,11,11,6,6,0.3,0.4
2024-08-25T2300,1793A,124.9042,46.6215,大庆市,让胡路区,,30,30,29,14,14,45,,67,57,8,9,6,5,0.3,0.3
2024-08-25T2300,3481A,125.141,46.634,大庆市,萨区政府监测点,,22,16,28,15,13,52,,72,63,7,9,8,7,0.2,0.3
2024-08-25T2300,1723A,113.2994,40.0758,大同市,云冈宾馆,,28,11,29,8,11,89,,80,80,10,24,6,10,0.5,0.7
2024-08-25T2300,1724A,113.3444,40.0917,大同市,大同大学,,30,,24,7,10,93,,74,74,8,24,6,10,0.4,0.5
2024-08-25T2300,1725A,113.2661,40.1269,大同市,安家小村,,32,7,36,3,7,102,,90,90,8,21,9,10,0.5,0.6
2024-08-25T2300,1726A,113.2711,40.0844,大同市,教育学院,,30,9,33,3,12,94,,84,84,12,31,9,13,0.6,0.8
2024-08-25T2300,3566A,113.1186,40.2556,大同市,图书馆,,31,12,25,7,14,97,,78,78,10,16,7,12,0.3,0.6
2024-08-25T2300,3567A,113.5931,40.0461,大同市,区一中,,29,8,18,3,7,92,,88,82,8,9,3,6,0.6,0.5
2024-08-25T2300,3676A,113.2802,40.0995,大同市,第二人民医院,,31,,31,11,12,97,,85,85,8,24,8,12,0.4,0.6
2024-08-25T2300,3663A,124.1164,50.4278,大兴安岭地区,红旗社区,,10,6,9,3,11,32,,43,41,2,5,6,6,0.4,0.4
2024-08-25T2300,1600A,124.3303,40.0625,丹东市,江湾东路,,30,28,22,21,16,43,,96,70,11,9,2,2,0.9,0.9
2024-08-25T2300,1601A,124.4256,40.1503,丹东市,临江后街,,19,19,23,11,13,52,,117,83,9,9,6,5,0.7,0.8
2024-08-25T2300,1602A,124.3933,40.1461,丹东市,元宝山,,23,23,22,14,14,44,,90,65,10,9,2,2,0.7,0.7
2024-08-25T2300,1603A,124.3633,40.1092,丹东市,民主桥,,36,36,28,18,12,39,,104,74,20,13,2,2,0.8,0.7
2024-08-25T2300,3541A,109.5726,19.5167,儋州市,第一中学子站,,12,12,16,3,7,25,,60,47,4,4,4,4,0.6,0.5
2024-08-25T2300,3542A,109.5567,19.5187,儋州市,东坡学校子站,,21,21,14,3,8,26,,64,49,4,4,3,3,0.5,0.5
2024-08-25T2300,2616A,98.5842,24.428,德宏傣族景颇族自治州,德宏州监测站,,,6,22,3,8,,,69,63,7,10,14,18,0.6,0.6
2024-08-25T2300,3677A,98.5881,24.4368,德宏傣族景颇族自治州,芒市人民政府综合楼,,19,18,18,13,10,22,,67,53,11,12,10,15,0.6,0.6
2024-08-25T2300,1901A,104.4239,31.1208,德阳市,东山公园,细颗粒物(PM2.5),65,68,45,47,30,95,,161,130,24,17,6,7,0.8,0.7
2024-08-25T2300,1902A,104.3826,31.1317,德阳市,西小区,细颗粒物(PM2.5),55,56,48,39,34,97,,169,128,17,16,3,7,0.8,0.8
2024-08-25T2300,1904A,104.3553,31.1091,德阳市,耐火材料厂,,46,38,55,32,35,110,,162,120,8,24,3,14,0.5,0.7
2024-08-25T2300,3639A,104.4019,31.1244,德阳市,市教育局,颗粒物(PM10),55,60,50,36,31,96,,167,131,20,16,3,5,0.7,0.7
2024-08-25T2300,1622A,116.3032,37.4674,德州市,儿童乐园,,39,39,70,24,44,90,,116,108,12,21,8,9,0.8,0.9
2024-08-25T2300,1624A,116.2991,37.4451,德州市,监理站,,49,48,76,34,45,99,,132,119,10,15,10,10,0.8,0.9
2024-08-25T2300,3066A,116.2721,37.4379,德州市,九衢泉纯净水厂,颗粒物(PM10),54,58,72,29,45,99,,132,119,13,19,8,9,0.9,1
2024-08-25T2300,3371A,116.3728,37.4403,德州市,开发区人民医院,,48,48,71,24,39,94,,128,114,12,19,8,11,0.9,0.9
2024-08-25T2300,3511A,116.5652,37.3319,德州市,陵城艺术中心,,46,46,66,19,35,89,,135,118,18,23,11,11,0.7,0.8
2024-08-25T2300,2621A,99.7056,27.8317,迪庆藏族自治州,迪庆州站,,39,39,34,18,17,91,,114,107,14,11,9,9,0.5,0.4
2024-08-25T2300,3180A,99.7136,27.8094,迪庆藏族自治州,质量技术监督局,,29,29,29,15,14,86,,108,101,18,14,19,10,0.7,0.6
2024-08-25T2300,2663A,104.6241,35.5734,定西市,东关小学,颗粒物(PM10),64,78,34,38,27,96,,92,92,7,7,3,2,0.2,0.2
2024-08-25T2300,2664A,104.6194,35.5934,定西市,供电公司,颗粒物(PM10),65,80,38,35,27,97,,98,94,6,6,6,6,0.2,0.3
2024-08-25T2300,1390A,113.7944,23.0128,东莞市,东城石井,,44,44,28,24,15,21,,147,93,43,21,4,5,0.7,0.5
2024-08-25T2300,1391A,113.7383,22.9658,东莞市,南城西平,颗粒物(PM10),51,51,30,25,21,34,,137,87,44,22,4,5,0.8,0.7
2024-08-25T2300,3319A,113.7338,23.0381,东莞市,万江金泰,,47,47,31,27,16,45,,129,100,40,26,4,6,0.8,0.7
2024-08-25T2300,3626A,113.7533,23.0202,东莞市,南城元岭,颗粒物(PM10),51,52,30,30,16,31,,129,88,49,27,6,7,0.8,0.6
2024-08-25T2300,3627A,113.7875,23.0457,东莞市,东城主山,颗粒物(PM10),52,53,30,31,16,35,,139,100,43,23,8,8,0.7,0.6
2024-08-25T2300,1666A,118.6614,37.4309,东营市,市环保局,,45,44,39,31,23,136,,169,139,7,12,4,6,0.4,0.5
2024-08-25T2300,3036A,118.6904,37.4338,东营市,开发区管委会,颗粒物(PM10),55,60,45,36,23,128,,166,139,14,11,6,7,0.5,0.4
2024-08-25T2300,3365A,118.5719,37.565,东营市,垦利区民丰路,,39,31,38,24,22,123,,153,137,6,9,7,7,0.3,0.4
2024-08-25T2300,3498A,118.5055,37.8612,东营市,河口城区,,33,22,26,15,15,105,,129,120,4,7,5,5,0.7,0.8
2024-08-25T2300,3646A,118.4978,37.4623,东营市,胜利站,,42,38,38,24,24,134,,162,126,9,18,6,7,0.8,0.8
2024-08-25T2300,3734A,118.35,37.26,东营市,理想之城,,42,41,39,29,26,122,,149,120,9,14,4,6,0.4,0.4
2024-08-25T2300,1591A,110.0023,39.8129,鄂尔多斯市,综合楼,,31,9,32,3,15,99,,96,96,6,23,6,7,0.5,0.7
2024-08-25T2300,1592A,109.9486,39.8261,鄂尔多斯市,巴音孟克林场办事处,,29,6,36,3,15,91,,90,87,7,33,7,8,0.5,0.7
2024-08-25T2300,1593A,109.7736,39.5986,鄂尔多斯市,康泽苑,,28,9,38,3,13,88,,94,87,6,25,5,6,0.6,0.8
2024-08-25T2300,1594A,109.8119,39.5989,鄂尔多斯市,华泰汽车城,,27,7,37,7,25,84,,88,81,7,27,8,8,0.5,0.7
2024-08-25T2300,1595A,109.9734,39.7884,鄂尔多斯市,奥林花园,,30,9,30,3,14,93,,88,88,7,21,5,6,0.5,0.7
2024-08-25T2300,2436A,114.8938,30.3994,鄂州市,市政府,颗粒物(PM10),58,66,49,28,21,92,,186,155,20,12,7,6,1.0,0.8
2024-08-25T2300,2437A,114.8989,30.3714,鄂州市,赵家坝,颗粒物(PM10),55,60,44,29,21,100,,191,151,27,18,11,12,0.7,0.6
2024-08-25T2300,3654A,114.8094,30.4089,鄂州市,精准医疗中心,颗粒物(PM10),55,60,36,30,19,114,,155,126,15,16,10,8,0.7,0.7
2024-08-25T2300,2454A,109.4978,30.2981,恩施土家族苗族自治州,湖北民院,,42,36,23,29,14,33,,98,72,32,16,8,8,0.7,0.6
2024-08-25T2300,2455A,109.4707,30.2798,恩施土家族苗族自治州,州电力总公司,,30,24,19,21,13,39,,88,69,25,18,7,7,0.7,0.6
2024-08-25T2300,3549A,109.5061,30.3772,恩施土家族苗族自治州,龙凤新区,,32,32,20,22,14,42,,97,66,8,7,6,6,0.7,0.6
2024-08-25T2300,2499A,108.3411,21.6158,防城港市,沙万,,22,22,26,10,8,29,,58,51,36,21,11,13,0.6,0.7
2024-08-25T2300,2500A,108.3514,21.7731,防城港市,防城档案局,,14,9,18,7,9,44,,70,55,6,10,6,9,0.6,0.8
2024-08-25T2300,2501A,108.3506,21.6414,防城港市,大海花园,,20,14,21,7,6,64,,59,58,7,13,5,9,0.5,0.7
2024-08-25T2300,1377A,112.8836,23.1588,佛山市,三水监测站,,21,14,28,10,20,16,,116,72,42,26,3,6,0.5,0.5
2024-08-25T2300,3625A,113.2544,22.7642,佛山市,容桂街道办,,39,31,20,27,15,31,,121,79,47,22,7,7,0.9,0.7
2024-08-25T2300,1283A,119.2984,26.1028,福州市,五四北路,,,,,22,20,94,,132,106,11,8,4,3,0.5,0.4
2024-08-25T2300,3048A,119.5799,26.0936,福州市,九龙,,31,22,21,13,13,98,,99,99,2,3,5,5,0.3,0.3
2024-08-25T2300,1755A,123.7977,41.8491,抚顺市,望花区,颗粒物(PM10),58,65,32,37,14,8,,127,63,46,16,10,10,0.7,0.6
2024-08-25T2300,1758A,123.9247,41.8642,抚顺市,新抚区,,29,29,26,9,10,10,,131,65,37,20,9,7,0.2,0.3
2024-08-25T2300,1760A,123.7086,41.8391,抚顺市,沈抚新城,,17,17,24,9,12,5,,128,54,32,14,6,7,0.4,0.5
2024-08-25T2300,2376A,116.2127,28.0814,抚州市,桐源党溪,,28,28,39,19,22,45,,115,79,7,8,7,8,0.6,0.7
2024-08-25T2300,2377A,116.3544,27.9831,抚州市,市站,,38,36,34,26,18,55,,93,74,6,6,4,4,0.5,0.5
2024-08-25T2300,2378A,116.3565,27.963,抚州市,血防站,,43,43,34,25,18,42,,90,69,8,6,5,6,0.6,0.6
2024-08-25T2300,2379A,116.3564,28.0007,抚州市,采茶剧团,,42,35,31,29,19,60,,90,72,6,6,4,5,0.6,0.6
2024-08-25T2300,2380A,116.385,27.9647,抚州市,医学分院,,42,42,34,23,18,45,,88,60,7,8,5,5,0.8,0.7
2024-08-25T2300,2207A,121.6094,41.998,阜新市,工业园区,颗粒物(PM10),59,67,29,12,9,2,,94,46,39,19,6,6,0.7,0.7
2024-08-25T2300,2208A,121.6697,42.0279,阜新市,长青街,,36,36,24,14,12,18,,89,52,28,15,10,9,0.6,0.5
2024-08-25T2300,2209A,121.6673,42.0705,阜新市,农业园区,,22,8,17,3,7,69,,82,67,10,10,4,6,0.4,0.6
2024-08-25T2300,2210A,121.6717,42.0224,阜新市,东苑,,46,46,26,10,6,18,,90,56,30,17,17,13,0.4,0.4
2024-08-25T2300,2211A,121.6506,42.0498,阜新市,玉龙新城,,22,20,27,12,12,7,,89,34,43,21,5,6,0.6,0.7
2024-08-25T2300,2301A,115.8277,32.8929,阜阳市,市监测站,颗粒物(PM10),55,60,46,27,27,107,,152,126,12,11,7,7,0.8,0.7
2024-08-25T2300,2303A,115.8554,32.8605,阜阳市,开发区,颗粒物(PM10),65,79,53,37,29,115,,154,131,14,13,4,4,0.7,0.6
2024-08-25T2300,2875A,115.784,32.8892,阜阳市,阜阳职业技术学院,,49,49,43,29,24,114,,147,128,11,10,5,6,0.7,0.6
2024-08-25T2300,3468A,115.7901,32.8613,阜阳市,市规划展馆,细颗粒物(PM2.5),55,54,50,39,33,117,,149,137,13,10,6,6,0.8,0.7
2024-08-25T2300,3469A,115.836,32.9183,阜阳市,枣园社区,细颗粒物(PM2.5),53,48,50,37,32,112,,141,130,12,13,5,5,0.8,0.8
2024-08-25T2300,3380A,102.8914,34.9617,甘南藏族自治州,甘肃民族师范学院,,25,,30,12,19,79,,94,80,2,13,4,4,0.4,0.5
2024-08-25T2300,2570A,101.9603,30.0475,甘孜藏族自治州,水桥子,,36,29,26,21,19,115,,123,118,7,13,4,5,0.4,0.3
2024-08-25T2300,3065A,101.9533,29.9972,甘孜藏族自治州,州环保局,,33,20,29,14,12,104,,122,113,10,18,3,2,0.3,0.3
2024-08-25T2300,3414A,115.8347,28.932,赣江新区,桑海产业园,,34,34,29,21,17,16,,110,66,37,21,9,10,0.3,0.2
2024-08-25T2300,2363A,114.9367,25.8664,赣州市,地委,,36,,24,25,17,56,,117,78,15,11,8,4,0.9,0.9
2024-08-25T2300,2364A,114.9461,25.8481,赣州市,气象台,,28,24,27,19,15,47,,106,76,15,11,9,7,0.4,0.4
2024-08-25T2300,3109A,115.0093,25.8613,赣州市,赣县区卫计委,,23,22,22,16,13,44,,108,73,12,10,6,5,0.5,0.5
2024-08-25T2300,2683A,106.2319,36.1417,固原市,马园,颗粒物(PM10),56,61,72,27,16,38,,99,54,33,17,5,5,0.7,0.8
2024-08-25T2300,2684A,106.2792,36.0022,固原市,监测站,颗粒物(PM10),70,90,35,23,23,82,,110,84,10,8,5,7,0.2,0.2
2024-08-25T2300,2685A,106.2375,36.0211,固原市,新区,颗粒物(PM10),73,96,34,18,23,74,,101,77,11,8,7,7,0.4,0.4
2024-08-25T2300,3522A,106.2177,35.9959,固原市,原州区十五小,颗粒物(PM10),57,64,28,24,18,101,,102,92,6,9,8,9,0.4,0.6
2024-08-25T2300,2544A,106.6303,30.4576,广安市,市委,,22,21,20,15,14,67,,107,96,15,12,7,8,0.3,0.3
2024-08-25T2300,2545A,106.6271,30.4663,广安市,友谊中学,,28,28,23,13,14,64,,104,91,17,16,6,7,0.4,0.4
2024-08-25T2300,2547A,106.6388,30.4551,广安市,广电花园,,31,31,24,9,14,54,,105,92,23,13,10,7,0.4,0.4
2024-08-25T2300,2902A,106.6351,30.4865,广安市,北辰小学,,29,29,31,16,14,55,,117,91,18,14,8,9,0.3,0.3
2024-08-25T2300,2523A,105.8945,32.4535,广元市,黑石坡,,26,26,21,18,18,79,,99,93,7,8,7,7,0.3,0.5
2024-08-25T2300,2524A,105.821,32.4444,广元市,老城,,30,29,28,14,12,18,,116,79,59,28,1,2,0.6,0.8
2024-08-25T2300,2526A,105.8628,32.4287,广元市,监测站,,28,23,20,19,13,57,,117,93,16,11,2,3,0.6,0.6
2024-08-25T2300,3617A,105.8047,32.4166,广元市,经开区,,37,37,40,21,25,42,,116,88,32,23,3,7,0.5,0.5
2024-08-25T2300,1345A,113.2347,23.1423,广州市,广雅中学,,25,25,31,16,16,32,,130,92,48,27,4,5,0.6,0.6
2024-08-25T2300,1346A,113.2612,23.105,广州市,市五中,,29,28,27,20,20,38,,126,96,39,21,3,3,0.6,0.6
2024-08-25T2300,1351A,113.2146,23.3916,广州市,花都师范,,31,31,38,14,20,38,,110,73,40,32,6,8,0.4,0.5
2024-08-25T2300,1354A,113.2765,23.1544,广州市,麓湖,,28,28,28,19,17,23,,120,79,35,24,4,5,0.8,0.6
2024-08-25T2300,2846A,113.3221,23.1322,广州市,体育西,,26,26,30,17,18,40,,125,95,32,19,4,5,0.8,0.7
2024-08-25T2300,3298A,113.5717,23.5491,广州市,从化街口,,30,30,33,16,19,29,,108,63,21,18,6,6,0.7,0.7
2024-08-25T2300,3299A,113.3472,23.3692,广州市,白云竹料,,34,34,41,16,22,19,,119,72,43,32,5,4,0.8,0.8
2024-08-25T2300,3300A,113.2981,23.237,广州市,白云嘉禾,,27,27,31,17,18,30,,120,82,43,32,4,4,0.8,0.7
2024-08-25T2300,3301A,113.4256,23.1716,广州市,黄埔科学城,,33,33,32,17,18,30,,108,78,31,27,5,6,0.7,0.7
2024-08-25T2300,3302A,113.3942,23.0483,广州市,番禺大学城,,22,20,32,15,15,53,,116,91,28,23,7,5,0.6,0.6
2024-08-25T2300,3303A,113.4922,22.8168,广州市,南沙黄阁,,27,25,28,14,16,25,,152,80,54,25,5,4,0.8,0.7
2024-08-25T2300,3304A,113.5342,22.7896,广州市,南沙街,,27,27,28,13,16,34,,127,70,33,20,4,5,0.8,0.7
2024-08-25T2300,3443A,113.2902,23.5544,广州市,花都梯面,,39,39,47,23,28,16,,125,59,38,27,4,5,0.7,0.7
2024-08-25T2300,3445A,113.7858,23.7478,广州市,从化良口,,19,19,25,10,15,23,,82,48,14,9,6,5,0.8,0.8
2024-08-25T2300,3446A,113.8051,23.2614,广州市,增城荔城,,35,35,31,21,19,53,,108,79,20,15,10,8,0.6,0.6
2024-08-25T2300,2506A,109.6047,23.0666,贵港市,江南子站,颗粒物(PM10),64,78,43,39,19,32,,101,82,34,19,11,8,0.9,0.7
2024-08-25T2300,2507A,109.6014,23.0948,贵港市,贵城子站,细颗粒物(PM2.5),57,60,36,40,20,40,,95,76,26,15,27,9,0.8,0.7
2024-08-25T2300,2508A,109.5669,23.1065,贵港市,荷城子站,颗粒物(PM10),53,56,31,29,12,42,,98,85,25,14,24,11,0.7,0.5
2024-08-25T2300,3405A,109.5886,23.1172,贵港市,新世纪学校,,48,48,32,26,14,35,,102,85,26,13,9,10,0.7,0.7
2024-08-25T2300,1440A,106.6971,26.5694,贵阳市,市环保站,,18,,28,12,8,37,,51,40,15,14,4,4,0.2,0.2
2024-08-25T2300,1441A,106.6243,26.6266,贵阳市,鉴湖路,,17,17,10,3,3,40,,58,48,8,5,5,5,0.3,0.3
2024-08-25T2300,1447A,106.674,26.5424,贵阳市,太慈桥,,13,,5,3,2,39,,57,47,10,5,3,4,0.4,0.4
2024-08-25T2300,1862A,110.4144,25.3167,桂林市,电子科大尧山校区,颗粒物(PM10),54,58,36,20,15,22,,92,65,22,8,6,10,0.5,0.5
2024-08-25T2300,1863A,110.2819,25.2697,桂林市,监测站,,32,32,28,19,14,31,,83,66,16,10,6,8,0.6,0.5
2024-08-25T2300,1864A,110.3089,25.2708,桂林市,龙隐路小学,,34,34,26,17,14,36,,88,66,12,8,8,8,0.4,0.3
2024-08-25T2300,1865A,110.2869,25.2178,桂林市,八中,,24,24,28,13,12,19,,82,57,14,8,6,8,0.4,0.4
2024-08-25T2300,3403A,110.1764,25.2381,桂林市,创业大厦,,31,31,20,17,17,25,,74,57,21,12,6,7,0.3,0.3
2024-08-25T2300,3531A,110.296,25.1253,桂林市,旅游学院,,35,24,14,24,10,27,,90,60,15,9,10,6,0.4,0.4
2024-08-25T2300,2674A,100.2561,34.4714,果洛藏族自治州,玛沁县大武镇,,31,,15,15,13,97,,96,94,1,3,6,6,0.4,0.4
2024-08-25T2300,1129A,126.5422,45.755,哈尔滨市,岭北,,25,23,28,16,18,80,,98,84,9,14,11,11,0.4,0.5
2024-08-25T2300,1132A,126.599,45.7222,哈尔滨市,南岗学府路,,44,44,39,18,14,64,,88,70,9,14,7,6,0.5,0.5
2024-08-25T2300,1133A,126.689,45.7733,哈尔滨市,太平宏伟公园,,35,35,38,15,14,60,,86,69,16,19,6,6,0.5,0.6
2024-08-25T2300,1134A,126.635,45.7667,哈尔滨市,道外承德广场,,48,48,37,3,7,47,,82,59,26,22,12,12,0.6,0.5
2024-08-25T2300,1136A,126.6411,45.7258,哈尔滨市,动力和平路,,50,,30,35,49,54,,91,66,22,19,6,7,0.5,0.5
2024-08-25T2300,1137A,126.593,45.7478,哈尔滨市,道里建国路,,35,35,32,19,16,52,,84,61,16,16,14,14,0.3,1.2
2024-08-25T2300,1138A,126.615,45.61,哈尔滨市,平房东轻厂,,26,26,26,10,10,46,,86,57,26,17,7,6,0.2,0.2
2024-08-25T2300,1139A,126.595,45.9855,哈尔滨市,呼兰师专,,30,30,24,11,12,62,,82,63,12,15,10,10,0.6,0.6
2024-08-25T2300,1140A,126.6206,45.6842,哈尔滨市,省农科院,颗粒物(PM10),51,51,36,16,15,16,,79,40,51,31,9,8,0.6,0.6
2024-08-25T2300,2688A,93.5128,42.8172,哈密市,地区监测站,颗粒物(PM10),55,59,31,31,19,72,,129,114,37,10,3,5,0.7,0.3
2024-08-25T2300,2689A,93.4961,42.8328,哈密市,哈密师范学校,颗粒物(PM10),65,79,35,36,16,35,,121,87,69,16,5,5,1.5,0.7
2024-08-25T2300,2671A,100.9048,36.9639,海北藏族自治州,海晏县西海镇,,35,35,19,22,17,68,,79,74,13,10,18,14,0.8,0.5
2024-08-25T2300,3867A,102.0738,36.5056,海东市,平安区公安北苑,,27,20,28,10,18,84,,97,90,8,16,12,9,0.7,0.7
2024-08-25T2300,1411A,110.283,20.0053,海口市,秀英海南医院,,20,20,18,14,10,36,,70,58,13,12,8,7,0.3,0.3
2024-08-25T2300,3539A,110.5111,19.9736,海口市,桂林洋子站,,22,22,20,11,6,28,,77,53,13,9,6,6,0.3,0.3
2024-08-25T2300,2673A,100.6188,36.2866,海南藏族自治州,共和县恰卜恰镇,,25,17,29,17,13,74,,87,79,9,9,13,12,0.6,0.5
2024-08-25T2300,2676A,97.3731,37.3753,海西蒙古族藏族自治州,德令哈市,,33,33,54,11,19,76,,100,91,6,8,7,7,0.4,0.5
2024-08-25T2300,3458A,114.7895,36.5593,邯郸市,香泉濮院小区,,36,36,56,11,21,73,,139,102,9,10,1,2,0.5,0.6
2024-08-25T2300,3580A,114.20016,36.44293,邯郸市,峰峰矿区临水派出所,,24,24,46,16,32,72,,138,95,10,11,3,3,0.4,0.7
2024-08-25T2300,2634A,106.9893,33.1842,汉中市,汉川机床厂子校,,26,26,24,17,14,61,,108,88,7,7,4,4,0.6,0.5
2024-08-25T2300,2635A,107.0154,33.0706,汉中市,市监测站,,30,30,29,18,16,60,,111,91,6,6,7,7,0.6,0.6
2024-08-25T2300,2636A,107.0089,33.1138,汉中市,鑫源开发区,,49,49,47,34,15,35,,112,84,30,9,10,9,0.6,0.4
2024-08-25T2300,2637A,107.007,33.0323,汉中市,南郑大河坎水厂,,37,37,29,23,18,55,,111,84,8,7,9,8,0.5,0.5
2024-08-25T2300,1223A,120.2072,30.2111,杭州市,滨江,,48,48,47,26,27,113,,176,149,19,14,5,5,0.7,0.7
2024-08-25T2300,1224A,120.0633,30.2747,杭州市,西溪,,49,40,43,34,28,131,,189,162,16,18,6,6,0.6,0.6
2024-08-25T2300,1228A,120.1903,30.2692,杭州市,浙江农大,,40,38,39,22,27,125,,168,150,16,17,8,8,0.6,0.6
2024-08-25T2300,1231A,120.3019,30.4183,杭州市,临平镇,,33,26,49,15,22,104,,178,158,10,9,4,4,0.6,0.7
2024-08-25T2300,1233A,120.0883,30.1808,杭州市,云栖,,30,30,34,21,22,46,,197,139,33,22,8,8,0.8,0.7
2024-08-25T2300,3557A,119.9464,30.0494,杭州市,镇二中,细颗粒物(PM2.5),59,62,48,42,36,114,,212,175,22,25,8,8,0.8,0.8
2024-08-25T2300,3558A,119.7183,30.2367,杭州市,市府大楼,细颗粒物(PM2.5),55,49,40,39,30,121,,182,169,21,15,6,6,0.7,0.6
2024-08-25T2300,3656A,120.1556,30.2864,杭州市,消防大队,,43,38,43,25,28,136,,190,167,11,11,8,7,0.8,0.8
2024-08-25T2300,1272A,117.2588,31.8707,合肥市,琥珀山庄,细颗粒物(PM2.5),64,63,51,46,34,156,,211,183,20,17,7,8,0.8,0.7
2024-08-25T2300,1273A,117.1604,31.9052,合肥市,董铺水库,颗粒物(PM10),58,66,56,34,31,135,,181,162,14,14,3,4,0.7,0.6
2024-08-25T2300,1275A,117.266,31.9436,合肥市,庐阳区,,48,48,52,27,28,128,,215,180,24,22,5,5,0.7,0.7
2024-08-25T2300,3464A,117.3803,31.9147,合肥市,高教基地,,39,39,46,27,28,108,,178,148,15,16,9,9,0.6,0.6
2024-08-25T2300,3614A,79.924,37.0877,和田地区,地区环保局,颗粒物(PM10),460,560,476,135,108,51,,97,84,19,11,7,7,0.7,0.6
2024-08-25T2300,3615A,79.9131,37.113,和田地区,市环保局,颗粒物(PM10),407,507,471,101,94,30,,94,78,31,14,8,8,0.8,0.5
2024-08-25T2300,2517A,108.0497,24.6947,河池市,市环保站,,20,18,27,14,14,17,,71,52,19,11,7,9,0.6,0.5
2024-08-25T2300,2518A,108.0983,24.6989,河池市,市疾控中心,,30,30,28,14,13,13,,70,47,25,14,9,9,0.6,0.6
2024-08-25T2300,1696A,114.6778,23.7569,河源市,源西,,21,15,15,3,12,67,,95,69,10,16,4,4,0.5,0.6
2024-08-25T2300,1697A,114.6944,23.7586,河源市,东埔,,21,,20,12,14,67,,96,70,11,16,4,2,0.6,0.6
2024-08-25T2300,1718A,115.4208,35.2464,菏泽市,气象局,,45,45,56,24,31,118,,153,128,12,13,5,5,0.4,0.5
2024-08-25T2300,1719A,115.4747,35.2375,菏泽市,市政协,,42,36,57,29,35,110,,141,121,7,9,4,6,0.3,0.4
2024-08-25T2300,3374A,115.5564,35.0891,菏泽市,定陶老年大学,,39,34,52,17,25,123,,132,109,4,10,4,5,0.6,0.6
2024-08-25T2300,3647A,115.4702,35.2706,菏泽市,菏泽医专,颗粒物(PM10),55,59,62,24,31,83,,143,111,24,16,7,7,0.7,0.7
2024-08-25T2300,2514A,111.5264,24.4172,贺州市,环保小区,,34,34,30,17,15,13,,69,42,26,15,9,8,0.7,0.6
2024-08-25T2300,2515A,111.5608,24.4078,贺州市,政协大楼,,34,34,31,21,16,6,,73,39,27,16,7,9,0.6,0.6
2024-08-25T2300,3534A,111.4744,24.4553,贺州市,西湾,,32,28,30,22,16,8,,62,37,21,16,6,7,0.6,0.6
2024-08-25T2300,2385A,114.17,35.9019,鹤壁市,市监测站,,43,,44,30,33,51,,133,89,8,6,3,3,0.6,0.5
2024-08-25T2300,2386A,114.2956,35.7511,鹤壁市,市交警支队,,34,34,47,13,32,74,,126,100,12,11,5,5,0.5,0.6
2024-08-25T2300,2387A,114.2878,35.7306,鹤壁市,迎宾馆,,25,25,39,16,28,80,,129,103,15,13,4,6,0.6,0.7
2024-08-25T2300,3474A,114.2617,35.6822,鹤壁市,大新区,,,30,42,,,65,,124,88,13,9,3,3,0.4,0.5
2024-08-25T2300,3596A,114.1572,35.9603,鹤壁市,南山宾馆,,15,14,30,10,28,36,,121,65,2,3,2,2,0.4,0.5
2024-08-25T2300,2244A,130.2537,47.3416,鹤岗市,哈啤分公司,,25,20,22,17,15,15,,32,21,8,8,12,12,0.5,0.4
2024-08-25T2300,2245A,130.2684,47.3086,鹤岗市,斯达机电,,19,19,20,12,14,20,,30,22,10,10,14,14,0.3,0.3
2024-08-25T2300,2246A,130.3114,47.3388,鹤岗市,东山纸板厂,,23,16,19,16,14,20,,34,23,9,9,16,17,0.2,0.1
2024-08-25T2300,2247A,130.1097,47.3382,鹤岗市,五号水库,,12,12,6,3,5,10,,35,18,12,7,11,11,0.0,0.1
2024-08-25T2300,2263A,127.4833,50.2524,黑河市,交通局,,44,44,24,22,13,54,,49,49,9,7,8,7,0.5,0.4
2024-08-25T2300,2264A,127.5144,50.2341,黑河市,环保局,,28,28,16,18,11,58,,49,49,8,4,4,3,0.3,0.3
2024-08-25T2300,2265A,127.5291,50.2472,黑河市,大黑河岛,,,12,6,12,10,,,,,9,10,2,2,,
2024-08-25T2300,1074A,115.6838,37.7541,衡水市,电机北厂,,43,40,51,30,34,56,,108,97,21,15,4,5,0.5,0.5
2024-08-25T2300,1075A,115.6303,37.7316,衡水市,市监测站,,40,38,53,28,33,66,,120,103,16,15,4,4,0.6,0.6
2024-08-25T2300,3188A,115.6683,37.7217,衡水市,市城管局,,43,34,55,30,35,90,,120,106,11,14,5,5,0.6,0.6
2024-08-25T2300,2456A,112.5003,26.9167,衡阳市,原169医院,颗粒物(PM10),51,51,38,28,21,43,,88,66,15,14,17,11,0.7,0.6
2024-08-25T2300,2457A,112.6194,26.9258,衡阳市,衡阳化工总厂,,,53,43,,,41,,105,80,9,11,9,12,0.6,0.6
2024-08-25T2300,2458A,112.6211,26.8956,衡阳市,珠晖区环保局,,,50,42,,,42,,107,80,10,11,8,14,0.7,0.8
2024-08-25T2300,2459A,112.6197,26.8733,衡阳市,市委党校,,43,42,45,30,22,42,,110,78,14,12,13,17,0.7,0.7
2024-08-25T2300,2460A,112.6006,26.8919,衡阳市,市监测站,颗粒物(PM10),53,56,38,36,26,39,,104,80,14,10,10,12,0.8,0.8
2024-08-25T2300,2461A,112.5664,26.9056,衡阳市,真空机电公司,颗粒物(PM10),60,70,46,30,24,39,,95,76,14,14,18,14,0.9,1
2024-08-25T2300,3399A,112.6703,26.882,衡阳市,师范学院,,49,49,37,27,19,41,,105,75,11,11,8,10,0.7,0.6
2024-08-25T2300,2608A,103.3772,23.3993,红河哈尼族彝族自治州,污水处理厂,,20,,11,14,11,30,,62,50,4,6,5,7,0.3,0.3
2024-08-25T2300,2609A,103.3861,23.35,红河哈尼族彝族自治州,监测站,,24,24,15,16,12,31,,65,51,6,6,8,12,0.3,0.3
2024-08-25T2300,3038A,103.3758,23.368,红河哈尼族彝族自治州,州图书馆,,13,10,13,9,8,31,,62,48,6,6,5,20,0.3,0.3
2024-08-25T2300,1094A,111.7516,40.8369,呼和浩特市,如意水处理厂,,31,6,20,3,7,99,,77,77,8,24,6,6,0.3,0.4
2024-08-25T2300,1095A,111.7276,40.8062,呼和浩特市,二十九中,,35,,20,3,8,110,,80,80,10,24,4,4,0.5,0.6
2024-08-25T2300,1097A,111.717,40.7612,呼和浩特市,化肥厂生活区,,36,8,22,3,8,115,,91,91,6,12,7,8,0.3,0.4
2024-08-25T2300,1250A,120.0751,30.8669,湖州市,城西水厂,,32,28,33,18,23,101,,174,158,14,11,6,5,0.4,0.4
2024-08-25T2300,2873A,120.0875,30.8955,湖州市,仁皇山新区,,35,29,33,18,24,110,,175,160,21,16,8,7,0.7,0.7
2024-08-25T2300,3562A,120.4148,30.8538,湖州市,南浔区站,,20,20,34,11,23,61,,154,124,11,12,5,4,0.5,0.6
2024-08-25T2300,1607A,120.9092,40.7136,葫芦岛市,龙港区,,42,42,37,25,20,45,,118,85,37,24,10,21,0.4,0.5
2024-08-25T2300,1608A,120.8392,40.7514,葫芦岛市,化工街,,48,48,35,22,15,11,,117,80,53,25,39,25,0.5,0.5
2024-08-25T2300,1609A,120.8341,40.7073,葫芦岛市,新区,颗粒物(PM10),59,68,33,28,16,21,,118,85,53,25,15,13,0.8,0.5
2024-08-25T2300,1610A,120.8695,40.7677,葫芦岛市,东城区,,47,47,35,18,14,8,,112,70,50,25,24,12,0.1,0.1
2024-08-25T2300,2482A,109.5981,27.5721,怀化市,林科所,,15,15,13,10,9,42,,68,58,14,14,6,7,0.2,0.3
2024-08-25T2300,2483A,109.9453,27.5444,怀化市,河西地税局,,32,32,18,17,10,22,,74,63,15,9,3,2,0.5,0.5
2024-08-25T2300,2484A,109.9781,27.5342,怀化市,市四医院,,30,30,23,10,13,31,,77,64,18,10,4,6,0.6,0.6
2024-08-25T2300,2485A,109.9972,27.5578,怀化市,监测楼,,25,25,24,11,10,39,,76,64,11,8,6,4,0.6,0.6
2024-08-25T2300,2486A,110.0394,27.583,怀化市,市委党校,,15,13,19,6,10,46,,74,62,4,8,2,7,0.4,0.5
2024-08-25T2300,1210A,119.036,33.5981,淮安市,钵池山,,25,,24,17,23,52,,129,92,13,16,7,7,0.5,0.6
2024-08-25T2300,1211A,119.007,33.575,淮安市,北京南路,,18,14,28,12,19,48,,132,90,8,10,5,4,0.6,0.8
2024-08-25T2300,1214A,119.0186,33.6297,淮安市,淮阴区监测站,,26,22,33,18,23,52,,139,94,13,14,4,4,0.4,0.5
2024-08-25T2300,3426A,118.8755,33.2894,淮安市,新华书店,,19,17,28,12,20,58,,135,110,12,13,6,6,0.5,0.7
2024-08-25T2300,2282A,116.8004,33.975,淮北市,监测站,,43,36,43,30,28,128,,166,136,5,6,5,5,0.7,0.8
2024-08-25T2300,2283A,116.8091,33.9007,淮北市,烈山区政府,,43,43,49,28,31,129,,176,144,5,6,6,6,0.6,0.8
2024-08-25T2300,3330A,116.8873,33.9836,淮北市,杜集区检察院,,45,31,45,29,37,143,,170,149,4,5,2,3,0.5,0.7
2024-08-25T2300,4017A,116.7923,33.9535,淮北市,市博物馆,,42,42,42,25,29,125,,170,136,12,8,4,4,0.9,0.9
2024-08-25T2300,2277A,116.8305,32.7727,淮南市,潘集区政府,,47,47,51,31,29,98,,184,142,16,13,11,5,1.2,0.8
2024-08-25T2300,2278A,117.0067,32.6524,淮南市,师范学院,,36,35,53,16,27,113,,190,150,5,8,5,5,0.5,0.8
2024-08-25T2300,2279A,116.8569,32.5951,淮南市,谢家集区政府,,35,34,39,24,29,103,,177,148,14,12,6,8,0.5,0.6
2024-08-25T2300,2280A,116.8281,32.633,淮南市,八公山区政府,,43,43,51,25,29,111,,179,148,8,12,6,7,0.5,0.6
2024-08-25T2300,2281A,116.6325,32.6201,淮南市,焦岗湖风景区管理处,,47,47,40,18,15,103,,142,131,14,15,6,6,0.4,0.4
2024-08-25T2300,2894A,117.0566,32.6531,淮南市,经济技术开发区消防队,,33,33,40,19,19,94,,188,137,15,11,5,6,0.6,0.6
2024-08-25T2300,3329A,117.0108,32.5893,淮南市,山南新区,,47,47,56,28,34,107,,189,153,12,12,4,5,0.6,0.7
2024-08-25T2300,2446A,114.9028,30.4742,黄冈市,职工中心,颗粒物(PM10),51,51,39,32,26,110,,198,166,22,12,13,10,0.5,0.5
2024-08-25T2300,2929A,114.8858,30.4519,黄冈市,红卫路,,49,46,39,34,28,105,,190,156,21,12,13,10,0.6,0.5
2024-08-25T2300,3398A,114.9136,30.4445,黄冈市,市林业局,颗粒物(PM10),59,68,46,14,17,111,,205,168,18,12,9,8,0.5,0.5
2024-08-25T2300,2672A,102.0199,35.5102,黄南藏族自治州,同仁县隆务镇,,20,11,23,7,10,63,,86,71,1,3,8,8,0.4,0.4
2024-08-25T2300,2295A,118.2903,29.6963,黄山市,延安路89号,,44,44,43,15,17,50,,153,107,9,6,5,5,0.6,0.6
2024-08-25T2300,2296A,118.327,29.7178,黄山市,黄山东路89号,,27,27,29,15,13,69,,146,109,7,6,4,4,0.5,0.5
2024-08-25T2300,2297A,118.1371,30.2756,黄山市,黄山区政府5号楼,,50,50,33,30,19,51,,122,98,8,7,6,6,0.6,0.5
2024-08-25T2300,2423A,115.0601,30.2313,黄石市,沈家营,颗粒物(PM10),55,60,58,23,23,117,,184,159,13,14,14,13,0.7,0.7
2024-08-25T2300,2424A,115.0817,30.2006,黄石市,陈家湾,颗粒物(PM10),55,60,58,28,24,116,,181,166,11,16,21,11,0.7,0.7
2024-08-25T2300,2426A,114.8988,30.2019,黄石市,铁山,颗粒物(PM10),53,56,43,28,21,105,,170,143,28,12,12,10,0.3,0.4
2024-08-25T2300,2427A,115.0307,30.2092,黄石市,团城山,颗粒物(PM10),52,53,43,28,22,125,,179,172,14,16,17,16,0.6,0.5
2024-08-25T2300,3149A,115.0235,30.1578,黄石市,笔架山北路,颗粒物(PM10),56,61,37,15,17,123,,157,151,12,14,9,9,0.4,0.3
2024-08-25T2300,3314A,114.4338,22.8134,惠州市,惠阳秋长,,29,29,32,14,19,48,,133,88,26,23,6,6,0.5,0.4
2024-08-25T2300,3452A,114.6517,22.775,惠州市,大亚湾霞涌,,21,21,27,3,14,51,,116,68,17,14,3,4,0.5,0.5
2024-08-25T2300,2240A,130.9762,45.3001,鸡西市,环保局,颗粒物(PM10),54,57,30,36,17,37,,51,40,10,10,5,6,0.5,0.4
2024-08-25T2300,2243A,130.9429,45.3039,鸡西市,第一中学,,49,49,35,25,16,41,,57,39,12,13,5,5,0.3,0.3
2024-08-25T2300,3707A,131.0207,45.3073,鸡西市,欧美日汽修厂,,46,42,24,32,16,30,,56,41,16,11,4,4,0.3,0.3
2024-08-25T2300,3709A,130.9967,45.3106,鸡西市,市政设施管理处,颗粒物(PM10),56,61,32,36,16,24,,59,44,18,10,6,6,0.3,0.3
2024-08-25T2300,2367A,114.9754,27.0803,吉安市,红声器材厂,,29,29,34,16,18,53,,100,75,16,12,12,10,0.5,0.5
2024-08-25T2300,2368A,114.9658,27.0999,吉安市,市森林工业局,,27,27,33,14,20,56,,106,78,15,12,10,9,0.4,0.4
2024-08-25T2300,2369A,114.99,27.1312,吉安市,市环境监测站,,32,32,32,14,16,60,,102,76,14,11,12,15,0.6,0.6
2024-08-25T2300,2370A,115.0093,27.0968,吉安市,青原区法院,,27,27,30,17,19,59,,101,76,17,13,9,10,0.5,0.5
2024-08-25T2300,1772A,126.54,43.8622,吉林市,哈达湾,,42,38,24,29,16,32,,96,76,28,12,9,5,0.7,0.6
2024-08-25T2300,1773A,126.5844,43.8358,吉林市,东局子,颗粒物(PM10),61,72,28,30,17,38,,99,69,26,14,6,5,0.5,0.5
2024-08-25T2300,1775A,126.6133,43.8972,吉林市,江北,"颗粒物(PM10),细颗粒物(PM2.5)",57,64,31,40,20,35,,95,64,17,12,7,7,0.5,0.5
2024-08-25T2300,2868A,126.4739,43.953,吉林市,九站,,19,19,26,11,16,40,,96,64,27,14,6,6,0.6,0.6
2024-08-25T2300,1299A,116.9862,36.6114,济南市,科干所,颗粒物(PM10),51,51,57,29,36,115,,144,128,24,22,7,6,1.0,0.9
2024-08-25T2300,1300A,116.9376,36.665,济南市,农科所,颗粒物(PM10),55,59,63,34,37,95,,123,100,31,34,8,7,0.8,0.7
2024-08-25T2300,1304A,116.9489,36.6447,济南市,机床二厂,颗粒物(PM10),52,54,68,24,29,116,,146,118,27,33,9,8,0.9,0.9
2024-08-25T2300,1306A,116.7675,36.5484,济南市,长清党校,细颗粒物(PM2.5),59,61,53,42,35,109,,149,126,25,18,11,10,1.2,0.9
2024-08-25T2300,1961A,117.532,36.6868,济南市,东山小学,颗粒物(PM10),68,85,62,29,30,50,,145,89,50,26,9,9,1.2,1.1
2024-08-25T2300,3059A,117.7161,36.2049,济南市,泰兴公司,颗粒物(PM10),51,51,51,24,30,91,,167,110,31,30,10,12,0.9,1
2024-08-25T2300,3064A,117.6867,36.2171,济南市,莱芜战役纪念馆,,39,39,50,22,29,100,,161,113,18,18,9,10,0.8,1
2024-08-25T2300,3494A,117.1673,36.9782,济南市,济阳区政府,颗粒物(PM10),57,63,83,32,39,102,,137,114,16,26,16,13,1.0,0.9
2024-08-25T2300,3495A,117.1171,36.63,济南市,锦屏中学,,49,49,49,29,30,43,,127,91,18,15,10,12,0.9,0.8
2024-08-25T2300,3682A,116.9814,36.6819,济南市,济南四建,细颗粒物(PM2.5),62,66,68,44,36,75,,138,97,43,38,8,8,1.1,0.9
2024-08-25T2300,1653A,116.6251,35.4302,济宁市,火炬城,,46,46,64,19,39,125,,185,160,12,13,10,11,1.0,1.2
2024-08-25T2300,1655A,116.5491,35.4042,济宁市,电化厂,颗粒物(PM10),53,56,61,34,42,143,,186,172,11,12,8,9,1.0,1.1
2024-08-25T2300,3500A,116.5814,35.3707,济宁市,北湖一中,颗粒物(PM10),54,57,60,31,37,134,,179,161,10,10,7,7,0.6,0.8
2024-08-25T2300,3501A,116.8249,35.5593,济宁市,服务中心,颗粒物(PM10),51,51,55,28,33,112,,156,136,14,12,6,5,0.6,0.7
2024-08-25T2300,3678A,116.5907,35.4054,济宁市,市第七中学,颗粒物(PM10),51,52,60,34,37,126,,179,157,15,14,6,6,0.8,1
2024-08-25T2300,2255A,130.2751,46.8028,佳木斯市,佳纺,,33,33,23,22,12,27,,39,24,9,16,7,7,0.6,0.6
2024-08-25T2300,2256A,130.3995,46.8307,佳木斯市,发电厂,,43,34,24,30,14,41,,38,30,8,13,6,7,0.7,0.6
2024-08-25T2300,2257A,130.3258,46.7975,佳木斯市,环保局,,40,40,26,28,16,36,,35,24,9,18,8,9,0.7,0.7
2024-08-25T2300,2258A,130.3648,46.8032,佳木斯市,十一中,细颗粒物(PM2.5),57,48,27,40,18,39,,39,31,15,19,8,8,0.6,0.5
2024-08-25T2300,2259A,130.3794,46.7588,佳木斯市,四丰,,,23,16,13,9,35,,36,29,,,1,1,0.6,0.5
2024-08-25T2300,1252A,120.7436,30.778,嘉兴市,清河小学,,22,18,28,10,15,68,,154,124,14,14,4,4,0.6,0.7
2024-08-25T2300,1253A,120.726,30.7478,嘉兴市,嘉兴学院,,20,,2,14,18,53,,148,114,15,14,2,2,0.4,0.5
2024-08-25T2300,3407A,120.6916,30.7739,嘉兴市,秀洲住建,,20,20,30,11,18,52,,150,116,11,12,4,4,0.5,0.6
2024-08-25T2300,3248A,98.2643,39.7724,嘉峪关市,雄关区,颗粒物(PM10),53,56,112,25,35,99,,113,113,10,18,6,12,0.1,0.8
2024-08-25T2300,1384A,113.0731,22.5835,江门市,西区,,23,20,19,16,14,25,,108,73,38,15,5,5,0.6,0.4
2024-08-25T2300,3311A,113.1075,22.5647,江门市,江海富民,,49,39,31,34,13,49,,118,81,28,16,6,6,0.6,0.5
2024-08-25T2300,3449A,113.05,22.4667,江门市,新会银湖,,26,24,23,18,14,29,,103,70,19,8,6,7,0.6,0.5
2024-08-25T2300,1828A,113.227,35.2125,焦作市,市环保局,,28,27,45,19,30,84,,128,102,15,13,2,2,0.5,0.6
2024-08-25T2300,3169A,113.2725,35.2067,焦作市,太极体育中心,,48,48,57,22,29,79,,123,101,14,14,2,3,0.7,0.7
2024-08-25T2300,3335A,113.3137,35.2641,焦作市,马村街道办,,,25,46,22,31,,,127,100,17,12,3,3,0.6,0.7
2024-08-25T2300,3336A,113.2465,35.2373,焦作市,焦作技师学院,,31,31,51,17,27,80,,122,94,14,11,2,2,0.7,0.7
2024-08-25T2300,3477A,113.1656,35.2539,焦作市,中站许衡医院,,31,19,37,16,29,98,,121,104,6,8,2,2,0.4,0.5
2024-08-25T2300,3981A,113.2449,35.1803,焦作市,原李万街道办,,49,49,48,27,31,73,,120,100,16,13,15,9,1.2,0.9
2024-08-25T2300,1708A,116.3701,23.5345,揭阳市,新兴,,34,34,38,22,23,34,,124,63,21,19,3,6,0.9,0.8
2024-08-25T2300,1709A,116.3264,23.5443,揭阳市,西马,,33,33,42,17,20,41,,111,60,13,12,4,5,0.7,0.7
2024-08-25T2300,1710A,116.3611,23.5626,揭阳市,东兴,,35,35,44,18,19,32,,113,63,23,19,5,5,0.9,0.9
2024-08-25T2300,1711A,116.4151,23.5294,揭阳市,渔湖,,29,29,41,12,17,26,,122,60,26,25,4,6,0.7,0.7
2024-08-25T2300,3320A,116.403,23.5699,揭阳市,曲溪,,30,30,31,16,21,25,,122,60,28,26,2,4,0.9,0.8
2024-08-25T2300,1944A,102.1692,38.5167,金昌市,天庆家园,颗粒物(PM10),157,264,99,86,51,88,,97,94,10,11,10,7,0.5,0.6
2024-08-25T2300,3170A,102.1864,38.5253,金昌市,市委党校,颗粒物(PM10),190,330,125,82,48,75,,83,81,13,13,7,11,0.7,0.7
2024-08-25T2300,4022A,102.1647,38.5371,金昌市,金川区人防中心,颗粒物(PM10),177,303,112,77,46,86,,100,96,9,10,8,10,0.6,0.7
2024-08-25T2300,1263A,119.686,29.1029,金华市,监测站,细颗粒物(PM2.5),60,65,58,43,37,143,,243,174,22,26,3,4,0.6,0.6
2024-08-25T2300,3659A,119.656,29.1131,金华市,气象局,颗粒物(PM10),54,57,60,34,33,146,,241,168,23,28,5,6,0.8,0.7
2024-08-25T2300,1767A,121.1115,41.0879,锦州市,南山,,28,28,25,10,14,27,,95,70,35,16,5,8,0.6,0.6
2024-08-25T2300,1768A,121.0533,40.8434,锦州市,开发区,颗粒物(PM10),64,78,40,17,17,7,,118,86,80,24,6,11,0.9,1
2024-08-25T2300,1770A,121.1178,41.1222,锦州市,天安街道,,,,28,15,20,36,,95,71,33,15,8,10,1.0,0.8
2024-08-25T2300,1771A,121.1303,41.1386,锦州市,北湖公园,,36,36,27,8,13,42,,98,66,14,9,5,7,0.7,0.7
2024-08-25T2300,2160A,112.85,35.5051,晋城市,自来水公司,,38,36,52,17,26,120,,135,129,10,13,6,6,0.7,0.7
2024-08-25T2300,2161A,112.8318,35.4936,晋城市,白云商贸,,39,39,48,19,22,116,,132,127,12,13,8,8,0.8,0.8
2024-08-25T2300,2162A,112.8508,35.4887,晋城市,市环保局,,42,42,61,24,27,112,,130,124,10,12,7,7,0.7,0.7
2024-08-25T2300,2163A,112.8676,35.4897,晋城市,技术学院,,40,40,43,24,26,113,,126,120,13,17,7,7,0.7,0.7
2024-08-25T2300,3620A,112.8271,35.4828,晋城市,泽州一中,,32,25,44,22,24,100,,118,110,11,15,7,7,0.8,0.8
2024-08-25T2300,2171A,112.7532,37.6945,晋中市,锦纶小区,,31,27,56,12,33,97,,138,115,9,8,8,9,0.6,0.8
2024-08-25T2300,2173A,112.7249,37.7067,晋中市,南都小区,,32,32,58,22,36,100,,139,114,9,10,4,5,0.8,1
2024-08-25T2300,2174A,112.6991,37.6982,晋中市,榆次区政府,,30,24,54,19,30,95,,136,111,9,10,7,8,0.3,0.5
2024-08-25T2300,2865A,112.7195,37.6828,晋中市,榆次三中,,30,27,58,9,32,94,,138,114,11,9,6,6,0.6,0.8
2024-08-25T2300,3012A,112.1849,31.0362,荆门市,西山林语,,30,25,27,15,17,95,,139,112,11,12,11,11,0.6,0.6
2024-08-25T2300,3547A,112.1632,31.0138,荆门市,龙泉中学南校,,30,28,29,14,16,96,,140,114,4,12,12,11,0.4,0.5
2024-08-25T2300,3194A,112.2747,30.3122,荆州市,管委会,,36,36,24,21,21,76,,128,105,19,14,8,8,0.6,0.6
2024-08-25T2300,3548A,112.1655,30.3364,荆州市,学苑路,,43,43,28,25,22,91,,138,113,15,16,6,8,0.7,0.7
2024-08-25T2300,2343A,117.2117,29.2933,景德镇市,老干部活动中心,,49,37,35,34,23,43,,158,109,23,13,7,7,0.5,0.4
2024-08-25T2300,2344A,117.1894,29.2789,景德镇市,兽医站,细颗粒物(PM2.5),52,46,34,36,23,48,,144,102,21,11,14,9,0.9,0.6
2024-08-25T2300,2345A,117.1547,29.2617,景德镇市,台达陶瓷,细颗粒物(PM2.5),64,68,43,46,27,25,,130,77,59,21,87,29,0.6,0.4
2024-08-25T2300,2346A,117.2461,29.2956,景德镇市,陶研所,,45,45,39,22,18,48,,134,91,14,13,16,11,0.4,0.4
2024-08-25T2300,1803A,115.9872,29.6815,九江市,十里,细颗粒物(PM2.5),52,50,40,36,26,62,,136,108,27,19,8,10,0.8,0.8
2024-08-25T2300,1804A,115.9584,29.7046,九江市,茅山头,,45,45,36,31,28,62,,147,117,30,23,9,9,0.7,0.7
2024-08-25T2300,1805A,115.9877,29.7295,九江市,西园,,35,35,37,24,25,91,,150,126,15,24,7,13,0.5,0.4
2024-08-25T2300,1806A,116.0172,29.6547,九江市,五七二七厂,,48,,27,33,29,96,,127,102,9,13,7,8,0.4,0.5
2024-08-25T2300,1808A,115.9114,29.6038,九江市,综合工业园,,48,46,40,33,29,53,,140,98,32,30,6,9,0.5,0.6
2024-08-25T2300,1809A,116.0721,29.7535,九江市,石化总厂,颗粒物(PM10),53,55,48,35,25,88,,137,115,22,31,13,15,0.9,1
2024-08-25T2300,1810A,115.9773,29.5698,九江市,庐山气象台,,48,,32,24,25,151,,126,126,2,3,7,12,0.9,0.8
2024-08-25T2300,3190A,116.0254,29.6994,九江市,外国语学校,细颗粒物(PM2.5),62,65,40,44,29,85,,148,118,19,20,12,14,0.9,0.9
2024-08-25T2300,2658A,98.5061,39.7443,酒泉市,仓门街子站,颗粒物(PM10),57,63,116,21,31,112,,115,114,8,6,8,8,0.1,0.2
2024-08-25T2300,2659A,98.4989,39.7256,酒泉市,油田生活基地,颗粒物(PM10),52,53,112,14,23,113,,117,116,8,8,7,9,0.1,0.2
2024-08-25T2300,2698A,76.0072,39.4467,喀什地区,巡警大队,颗粒物(PM10),87,123,72,23,9,58,,111,101,48,18,4,4,0.5,0.4
2024-08-25T2300,2699A,75.9755,39.4694,喀什地区,吾办,颗粒物(PM10),77,104,65,33,22,62,,116,107,41,13,4,5,0.7,0.5
2024-08-25T2300,4027A,75.9483,39.4689,喀什地区,老干局,颗粒物(PM10),128,206,74,23,9,67,,112,104,32,11,5,5,0.7,0.5
2024-08-25T2300,1824A,114.3389,34.7781,开封市,肿瘤医院,,48,48,62,22,30,59,,120,78,17,13,4,4,0.6,0.6
2024-08-25T2300,1826A,114.2885,34.7965,开封市,世纪星幼儿园,,,48,56,,4,54,,126,76,22,19,4,4,0.8,0.7
2024-08-25T2300,3147A,114.3438,34.8106,开封市,龙亭公园,,34,34,64,18,31,40,,122,72,28,20,2,2,0.7,0.8
2024-08-25T2300,3210A,114.3644,34.7964,开封市,汴京公园,颗粒物(PM10),54,57,65,23,30,58,,124,74,20,18,4,4,0.5,0.6
2024-08-25T2300,3592A,114.4644,34.7556,开封市,祥符区生态环境局,,38,38,49,24,29,39,,122,64,40,25,4,4,0.6,0.7
2024-08-25T2300,1951A,84.895,45.6094,克拉玛依市,长征新村,,27,27,22,10,4,76,,109,100,2,5,6,6,0.2,0.2
2024-08-25T2300,1952A,84.8988,45.5893,克拉玛依市,南林小区,,44,44,25,29,11,77,,111,91,8,9,8,9,0.2,0.2
2024-08-25T2300,1954A,84.905,44.3396,克拉玛依市,独山子区,,42,42,30,16,10,85,,124,116,16,6,7,7,0.4,0.3
2024-08-25T2300,1955A,85.6979,46.098,克拉玛依市,乌尔禾区商贸楼,,33,33,25,3,9,81,,110,102,8,4,6,6,0.2,0.2
2024-08-25T2300,3612A,85.1045,45.6899,克拉玛依市,白碱滩区新站,,29,29,28,7,9,85,,118,111,3,3,8,9,0.3,0.2
2024-08-25T2300,2697A,76.1454,39.7142,克孜勒苏柯尔克孜自治州,市人民政府,颗粒物(PM10),66,82,60,30,20,61,,140,126,40,9,1,4,0.3,0.2
2024-08-25T2300,3665A,76.1658,39.7157,克孜勒苏柯尔克孜自治州,克州文化中心,颗粒物(PM10),68,86,53,27,18,86,,138,129,24,6,4,5,0.3,0.3
2024-08-25T2300,1452A,102.7252,25.0902,昆明市,龙泉镇,,24,24,22,8,14,42,,83,72,12,13,7,7,0.5,0.6
2024-08-25T2300,1453A,102.7266,25.0375,昆明市,东风东路,,12,8,23,8,14,38,,77,61,13,17,4,6,0.4,0.5
2024-08-25T2300,1454A,102.6742,25.0669,昆明市,金鼎山,,16,16,23,6,12,47,,87,75,8,13,6,8,0.3,0.3
2024-08-25T2300,1455A,102.6644,25.0401,昆明市,碧鸡广场,,12,12,29,8,15,38,,79,63,13,15,6,5,0.4,0.4
2024-08-25T2300,3179A,102.7494,25.0119,昆明市,官渡区博物馆,,15,10,23,10,13,39,,82,70,16,17,7,7,0.2,0.3
2024-08-25T2300,3375A,102.8017,24.8336,昆明市,青年创业园,,13,12,19,3,13,41,,77,62,7,11,2,4,0.4,0.4
2024-08-25T2300,3550A,102.7997,24.9786,昆明市,昆明学院,,12,12,28,3,18,38,,81,68,15,17,7,6,0.4,0.5
2024-08-25T2300,3551A,102.5967,24.6736,昆明市,晋宁区生态环境分局,,13,13,24,7,12,40,,72,53,9,11,3,4,0.4,0.4
2024-08-25T2300,3552A,102.6678,24.9856,昆明市,云天化总部,,15,7,25,3,17,45,,82,77,11,12,5,6,0.5,0.6
2024-08-25T2300,1460A,90.9798,29.6588,拉萨市,区辐射站,,34,16,17,8,9,108,,138,128,15,21,8,8,0.2,0.2
2024-08-25T2300,2520A,109.2203,23.7256,来宾市,来宾技工学校,,32,32,28,18,15,36,,79,69,14,12,10,17,0.7,0.7
2024-08-25T2300,3535A,109.1781,23.7297,来宾市,兴宾区政府,,24,24,20,12,8,25,,86,66,10,6,5,7,0.7,0.7
2024-08-25T2300,4002A,109.2416,23.7461,来宾市,中南小学,,29,29,29,18,15,44,,88,75,20,13,10,11,0.9,0.8
2024-08-25T2300,3241A,103.7439,36.0842,兰州市,百合公园,颗粒物(PM10),55,59,32,22,16,32,,78,62,35,16,7,7,0.6,0.5
2024-08-25T2300,3242A,103.9611,35.998,兰州市,和平,颗粒物(PM10),59,68,29,31,15,79,,89,80,19,15,10,9,0.8,0.9
2024-08-25T2300,3245A,103.6633,36.533,兰州新区,新区管委会,颗粒物(PM10),62,74,39,31,21,87,,97,94,8,6,3,6,0.4,0.5
2024-08-25T2300,3246A,103.6975,36.4789,兰州新区,舟曲中学,颗粒物(PM10),69,87,32,37,17,102,,105,105,7,6,17,9,0.6,0.5
2024-08-25T2300,2535A,103.7723,29.5462,乐山市,花湖湾,颗粒物(PM10),58,65,50,34,46,88,,165,144,31,17,6,5,0.5,0.7
2024-08-25T2300,2536A,103.7627,29.5844,乐山市,牛耳桥,细颗粒物(PM2.5),57,50,57,40,46,97,,169,137,22,21,2,2,0.6,0.7
2024-08-25T2300,2537A,103.7508,29.6006,乐山市,市第三水厂,颗粒物(PM10),51,51,59,33,42,102,,178,145,25,21,3,3,0.9,0.9
2024-08-25T2300,2538A,103.7571,29.5664,乐山市,市监测站,细颗粒物(PM2.5),54,48,52,38,42,112,,172,148,18,15,4,5,1.1,1.1
2024-08-25T2300,3361A,103.7311,29.5628,乐山市,理工大学,细颗粒物(PM2.5),58,50,56,41,47,101,,186,153,22,16,5,5,0.7,0.8
2024-08-25T2300,2599A,100.2497,26.8802,丽江市,丽江古城,,32,32,23,21,17,57,,111,92,17,12,9,9,0.7,0.6
2024-08-25T2300,2600A,100.2203,26.8906,丽江市,市中心,,26,22,20,18,17,64,,115,98,20,12,8,8,0.6,0.9
2024-08-25T2300,1269A,119.879,28.4231,丽水市,余庄前,,42,39,39,29,27,96,,155,134,12,9,3,3,0.4,0.5
2024-08-25T2300,3000A,119.3581,34.6972,连云港市,德源药业,,21,14,35,7,16,67,,142,85,6,14,5,6,0.6,0.6
2024-08-25T2300,3007A,119.178,34.844,连云港市,新城一中,,26,26,33,11,17,52,,136,83,18,17,3,4,0.9,0.9
2024-08-25T2300,3009A,119.1478,34.5911,连云港市,矿山设计院,,20,19,33,7,16,62,,146,100,10,12,3,3,0.5,0.7
2024-08-25T2300,3434A,119.2413,34.6539,连云港市,工贸学校,,23,14,29,9,19,72,,152,103,2,5,6,7,0.6,0.8
2024-08-25T2300,3664A,119.4172,34.7341,连云港市,连云街道,,26,26,35,14,20,69,,132,105,15,20,4,5,0.7,0.7
2024-08-25T2300,2571A,102.3431,27.8099,凉山彝族自治州,青龙寺,,32,,13,22,20,88,,162,135,5,7,5,9,0,0.3
2024-08-25T2300,2572A,102.2721,27.8415,凉山彝族自治州,邛海宾馆,,28,26,34,19,24,83,,170,132,12,13,9,14,0.5,0.8
2024-08-25T2300,2573A,102.2625,27.898,凉山彝族自治州,西昌市政府,,29,29,47,13,27,86,,172,132,5,13,9,13,0.6,0.8
2024-08-25T2300,2574A,102.2685,27.8851,凉山彝族自治州,凉山州政府,,38,38,46,22,24,85,,177,142,10,13,6,10,0.6,0.8
2024-08-25T2300,2575A,102.237,27.8914,凉山彝族自治州,长安,,40,40,44,21,26,88,,163,135,5,20,7,13,0.6,1
2024-08-25T2300,2212A,123.2,41.1953,辽阳市,宏伟区,,49,49,42,12,27,19,,128,79,42,19,8,9,0.8,0.9
2024-08-25T2300,2213A,123.1683,41.2495,辽阳市,新华园,,48,48,47,14,25,16,,113,66,51,24,8,8,0.6,0.9
2024-08-25T2300,2214A,123.2354,41.2639,辽阳市,滨河路,,37,37,40,12,22,22,,117,60,28,20,8,10,0.4,0.6
2024-08-25T2300,2215A,123.149,41.2991,辽阳市,铁西工业园,,45,45,45,23,22,12,,108,52,33,20,8,10,1.0,1.1
2024-08-25T2300,2227A,125.1358,42.8845,辽源市,环保局,,21,21,16,8,8,16,,122,63,19,5,6,5,0.6,0.5
2024-08-25T2300,3239A,125.0764,42.9078,辽源市,银鹰制药,,27,27,19,10,9,10,,116,57,29,13,4,4,0.7,0.7
2024-08-25T2300,1625A,115.9848,36.4372,聊城市,区政府,颗粒物(PM10),56,61,57,28,27,70,,,,34,32,26,22,0.7,0.7
2024-08-25T2300,2878A,116.0072,36.4343,聊城市,聊大东校,颗粒物(PM10),53,56,64,36,46,67,,161,129,28,20,7,8,0.5,0.7
2024-08-25T2300,3200A,115.9819,36.4978,聊城市,监控中心,颗粒物(PM10),57,63,69,29,38,56,,150,115,37,29,6,6,0.6,0.7
2024-08-25T2300,3513A,116.0445,36.4361,聊城市,九州社区,颗粒物(PM10),58,65,70,35,42,51,,148,117,26,17,12,11,0.5,0.5
2024-08-25T2300,4018A,116.0567,36.4608,聊城市,星美广场,颗粒物(PM10),59,68,72,29,39,50,,136,103,32,21,7,6,0.5,0.6
2024-08-25T2300,2632A,94.3681,29.6376,林芝市,林芝监测站,,33,19,11,10,6,103,,107,106,1,3,9,9,0.3,0.3
2024-08-25T2300,2633A,94.3616,29.6616,林芝市,林芝人民医院,,33,19,13,9,6,104,,109,107,3,5,7,7,0.2,0.2
2024-08-25T2300,2603A,100.0781,23.8982,临沧市,市环保局,,43,38,16,30,18,32,,69,61,13,9,5,5,0.4,0.2
2024-08-25T2300,2604A,100.0894,23.8822,临沧市,市气象局,,25,23,13,17,10,28,,67,56,11,9,4,4,0.3,0.2
2024-08-25T2300,1734A,111.5028,36.0714,临汾市,技工学校,,43,43,59,13,21,97,,151,119,16,14,6,4,0.7,0.7
2024-08-25T2300,1736A,111.5018,36.0855,临汾市,市委,,41,41,52,21,30,97,,156,123,16,12,4,4,0.9,1
2024-08-25T2300,3018A,111.505,36.1014,临汾市,唐尧大酒店,,42,42,46,23,26,93,,144,115,18,17,4,3,0.6,0.7
2024-08-25T2300,3668A,111.5036,36.0414,临汾市,城南,,40,40,52,22,24,90,,149,117,12,11,3,3,0.8,0.8
2024-08-25T2300,2668A,103.2417,35.6057,临夏回族自治州,建设大厦,,,,25,,17,,,89,,13,6,4,5,,0.3
2024-08-25T2300,1618A,118.3429,35.0532,临沂市,沂河小区,,34,34,53,20,33,73,,167,128,17,12,8,9,0.5,0.7
2024-08-25T2300,1619A,118.295,35.0583,临沂市,鲁南制药厂,,31,31,46,20,29,87,,176,141,14,12,5,5,0.5,0.6
2024-08-25T2300,1620A,118.2794,34.9976,临沂市,新光毛纺厂,,38,34,43,26,30,72,,167,134,23,15,8,9,0.7,0.8
2024-08-25T2300,1621A,118.3956,35.0888,临沂市,河东保险公司,,23,19,46,12,30,72,,152,125,16,18,7,9,0.4,0.7
2024-08-25T2300,3370A,118.3564,35.0215,临沂市,十里堡居委,,29,29,41,12,33,70,,168,130,14,12,8,8,0.7,0.9
2024-08-25T2300,3496A,118.3604,35.1084,临沂市,南坊新区,,34,34,54,12,29,77,,165,131,14,15,8,14,0.6,0.9
2024-08-25T2300,3860A,118.3920,35.0300,临沂市,皇山花园小区,,27,27,50,16,38,65,,159,122,23,18,7,8,0.6,0.8
2024-08-25T2300,1870A,109.4856,24.3895,柳州市,柳东小学,,26,19,22,16,13,83,,82,77,7,14,8,10,0.7,0.7
2024-08-25T2300,1871A,109.4157,24.3277,柳州市,环保监测站,,35,34,29,24,18,67,,91,73,17,13,8,8,0.9,0.9
2024-08-25T2300,1872A,109.389,24.341,柳州市,河西水厂,,40,40,35,13,17,64,,92,76,19,14,6,7,1.0,0.9
2024-08-25T2300,1873A,109.4311,24.2921,柳州市,市四中,,32,32,30,22,18,71,,91,76,16,13,6,6,0.8,0.8
2024-08-25T2300,1874A,109.4006,24.3631,柳州市,市九中,,39,39,39,17,16,70,,96,78,17,14,6,7,0.6,0.6
2024-08-25T2300,1875A,109.4958,24.3134,柳州市,古亭山,,24,24,24,13,14,32,,81,54,27,17,6,7,0.8,0.8
2024-08-25T2300,2307A,116.5079,31.737,六安市,监测大楼,,41,33,31,23,20,130,,160,151,7,8,6,7,0.5,0.5
2024-08-25T2300,2308A,116.4738,31.7643,六安市,皖西学院,颗粒物(PM10),51,51,40,24,19,138,,160,155,7,8,5,5,0.4,0.4
2024-08-25T2300,2309A,116.4996,31.7905,六安市,朝阳厂,,41,24,31,20,19,131,,158,154,5,6,2,3,0.4,0.4
2024-08-25T2300,2310A,116.5567,31.7886,六安市,开发区,,39,39,42,25,26,114,,155,143,9,9,2,3,0.5,0.5
2024-08-25T2300,2577A,104.83,26.5917,六盘水市,黄土坡,,18,,14,3,10,57,,89,74,5,6,6,6,0.3,0.3
2024-08-25T2300,2578A,104.89,26.5939,六盘水市,水钢,,18,11,18,3,5,55,,85,73,5,5,6,7,0.3,0.3
2024-08-25T2300,2579A,104.8475,26.5894,六盘水市,民中,,18,15,12,3,4,56,,87,73,7,5,7,7,0.3,0.3
2024-08-25T2300,2580A,104.9544,26.5506,六盘水市,双水,,16,,12,8,6,49,,76,67,7,4,5,6,0.3,0.3
2024-08-25T2300,2336A,117.0217,25.1033,龙岩市,龙岩市监测站,,16,16,23,11,12,46,,102,72,15,14,6,5,0.4,0.4
2024-08-25T2300,2337A,117.0258,25.0661,龙岩市,闽西职业技术学院,,33,33,30,20,18,27,,100,68,31,21,14,10,0.5,0.4
2024-08-25T2300,2338A,117.0196,25.0306,龙岩市,龙岩学院,,26,26,26,17,13,46,,102,72,6,10,2,3,0.5,0.4
2024-08-25T2300,2487A,111.9589,27.8901,娄底市,电视发射台,,44,44,39,27,21,44,,94,63,6,9,6,9,0.5,0.9
2024-08-25T2300,2488A,111.9975,27.725,娄底市,市监测站,细颗粒物(PM2.5),68,76,46,49,29,38,,112,77,34,14,17,10,2.9,0.9
2024-08-25T2300,2489A,112.0194,27.7314,娄底市,市委党校,细颗粒物(PM2.5),68,81,41,49,28,34,,94,71,26,10,9,11,1.0,0.7
2024-08-25T2300,2490A,111.9561,27.7569,娄底市,涟钢,细颗粒物(PM2.5),73,73,47,53,26,46,,89,61,12,17,13,12,0.9,1.1
2024-08-25T2300,2491A,111.9892,27.7044,娄底市,市政府,细颗粒物(PM2.5),79,59,36,58,30,32,,98,78,18,10,6,6,0.8,0.5
2024-08-25T2300,1893A,105.4324,28.9634,泸州市,九狮山,,50,48,20,35,12,33,,107,73,6,6,5,5,0.3,0.2
2024-08-25T2300,1894A,105.4427,28.9063,泸州市,小市上码头,,31,31,19,18,10,72,,122,102,17,12,11,10,0.3,0.2
2024-08-25T2300,1895A,105.4241,28.8573,泸州市,兰田宪桥,,26,26,19,14,11,42,,115,88,28,15,7,7,0.4,0.2
2024-08-25T2300,1896A,105.4379,28.8833,泸州市,市环监站,,33,30,19,23,13,72,,113,94,16,11,9,7,0.4,0.3
2024-08-25T2300,3490A,105.3617,28.7703,泸州市,纳溪区环保局,,39,39,24,23,17,35,,119,82,28,19,6,6,0.4,0.3
2024-08-25T2300,2183A,111.1406,37.5211,吕梁市,环保局,,29,18,65,13,36,90,,117,102,5,17,4,5,0.6,0.7
2024-08-25T2300,2185A,111.1297,37.5136,吕梁市,自来水公司,,30,14,65,3,35,95,,123,108,6,16,3,4,0.6,0.7
2024-08-25T2300,2867A,111.1283,37.51,吕梁市,马茂庄小学,,33,15,72,12,36,103,,117,102,8,26,2,3,0.5,0.6
2024-08-25T2300,1812A,112.3931,34.6516,洛阳市,市委党校,,32,32,40,21,28,73,,117,98,11,16,3,3,0.8,0.8
2024-08-25T2300,1814A,112.4657,34.6871,洛阳市,豫西宾馆,,31,31,42,13,24,70,,115,93,10,12,4,4,0.7,0.7
2024-08-25T2300,1815A,112.494,34.6886,洛阳市,河南林校,,32,23,32,22,24,72,,112,94,12,14,4,4,0.5,0.5
2024-08-25T2300,1816A,112.3844,34.623,洛阳市,开发区管委会,,30,30,33,21,24,75,,117,100,10,11,2,3,0.5,0.6
2024-08-25T2300,3340A,112.6005,34.6326,洛阳市,伊滨,,33,26,42,23,29,56,,97,87,7,11,5,5,0.7,0.7
2024-08-25T2300,3341A,112.4951,34.6332,洛阳市,中移产业园,,36,36,40,24,27,59,,112,92,11,12,4,4,0.9,0.9
2024-08-25T2300,3593A,112.5736,34.8993,洛阳市,吉利监测站,,30,30,46,18,29,85,,119,103,9,12,3,2,0.9,0.9
2024-08-25T2300,3635A,112.3677,34.662,洛阳市,河科大西苑校区,,25,25,35,16,21,76,,123,104,8,17,5,5,0.7,0.8
2024-08-25T2300,3636A,112.4388,34.6781,洛阳市,英才小学,,30,21,29,21,30,65,,110,90,6,8,4,3,0.7,0.7
2024-08-25T2300,2400A,114.0055,33.5698,漯河市,漯河大学,颗粒物(PM10),55,59,48,31,26,41,,124,93,30,11,10,10,0.8,0.7
2024-08-25T2300,2401A,114.0138,33.5828,漯河市,市水利局,细颗粒物(PM2.5),55,58,49,39,27,53,,116,87,19,13,7,8,0.8,0.8
2024-08-25T2300,2402A,114.0261,33.5698,漯河市,市广电局,颗粒物(PM10),55,59,44,36,26,52,,124,95,24,10,9,9,0.8,0.7
2024-08-25T2300,3478A,113.9749,33.5664,漯河市,市图书馆,颗粒物(PM10),52,53,47,29,29,25,,125,85,34,14,6,6,0.7,0.7
2024-08-25T2300,3479A,114.0967,33.5906,漯河市,召陵区卫健委,细颗粒物(PM2.5),59,58,52,42,33,28,,121,73,30,19,3,3,0.7,0.7
2024-08-25T2300,1798A,118.5092,31.6837,马鞍山市,湖东路四小,,42,30,45,29,26,94,,177,143,14,22,7,8,0.7,0.8
2024-08-25T2300,1799A,118.5024,31.6449,马鞍山市,开发区,,46,46,54,24,30,73,,170,128,26,27,5,4,0.7,0.9
2024-08-25T2300,1800A,118.5228,31.7231,马鞍山市,慈湖,,32,32,41,21,27,98,,183,151,9,15,6,6,0.7,0.8
2024-08-25T2300,1802A,118.6245,31.7241,马鞍山市,濮塘,,28,24,34,19,25,84,,164,129,16,15,5,5,0.7,0.8
2024-08-25T2300,3633A,118.4918,31.6809,马鞍山市,雨山,,38,38,42,19,23,94,,190,150,9,12,6,6,0.2,0.4
2024-08-25T2300,1686A,111.0286,21.4688,茂名市,电白南海,,17,9,21,7,14,52,,63,52,9,8,7,8,0.5,0.5
2024-08-25T2300,1687A,110.9294,21.6533,茂名市,茂石化七小,,18,14,23,12,20,22,,83,51,12,9,6,8,0.3,0.4
2024-08-25T2300,1688A,110.9107,21.6687,茂名市,健康路,,10,7,21,3,11,32,,99,62,8,9,9,13,0.4,0.5
2024-08-25T2300,1689A,110.8592,21.6828,茂名市,高岭,,9,9,35,3,18,24,,100,58,12,12,11,19,0.4,0.5
2024-08-25T2300,3450A,111.01,21.5165,茂名市,电白水东,,15,7,16,7,12,46,,59,47,6,9,4,6,0.4,0.4
2024-08-25T2300,2539A,104.0308,30.0478,眉山市,黑龙滩水库,颗粒物(PM10),52,54,44,8,29,82,,159,125,10,7,5,5,0.5,0.5
2024-08-25T2300,2540A,103.8416,30.0874,眉山市,气象局,颗粒物(PM10),68,86,62,48,41,54,,183,139,46,33,9,8,0.8,0.7
2024-08-25T2300,3137A,103.8578,30.0744,眉山市,市委党校,细颗粒物(PM2.5),70,70,61,51,39,70,,185,141,39,27,10,11,0.6,0.5
2024-08-25T2300,3148A,103.8291,30.0564,眉山市,区人社局,细颗粒物(PM2.5),67,78,54,48,38,67,,186,143,45,31,9,9,0.8,0.7
2024-08-25T2300,1690A,116.1231,24.3284,梅州市,梅江月梅,,35,35,19,17,8,40,,98,71,13,8,6,6,0.4,0.4
2024-08-25T2300,1691A,116.0797,24.2719,梅州市,梅县新城,,21,21,19,13,10,48,,104,79,12,10,6,4,0.5,0.5
2024-08-25T2300,1692A,116.1248,24.2654,梅州市,环境监控中心,,30,30,20,16,12,51,,97,73,16,12,7,4,0.4,0.4
2024-08-25T2300,3315A,116.1233,24.2991,梅州市,梅龙,,20,17,13,14,12,28,,107,77,24,7,8,8,0.6,0.5
2024-08-25T2300,1878A,104.7778,31.4741,绵阳市,富乐山,,28,28,40,18,29,66,,142,107,15,14,3,3,0.7,0.7
2024-08-25T2300,1879A,104.7563,31.4535,绵阳市,市人大,,35,35,45,24,28,56,,146,110,36,20,11,11,0.7,0.6
2024-08-25T2300,1880A,104.6697,31.4668,绵阳市,高新区自来水公司,颗粒物(PM10),53,56,46,29,26,83,,157,124,25,18,3,2,0.7,0.6
2024-08-25T2300,1881A,104.7287,31.5075,绵阳市,三水厂,颗粒物(PM10),52,53,45,33,33,54,,151,108,37,24,4,4,0.9,0.9
2024-08-25T2300,3491A,104.69,31.5322,绵阳市,西科大附属小学,细颗粒物(PM2.5),52,51,45,36,32,79,,148,118,23,20,9,10,0.8,0.8
2024-08-25T2300,3492A,104.5648,31.5343,绵阳市,安州区旅游局,颗粒物(PM10),51,52,46,29,34,116,,176,148,13,13,5,7,0.7,0.7
2024-08-25T2300,1784A,129.61,44.561,牡丹江市,环保大楼,,42,36,28,29,19,26,,46,40,8,11,8,8,0.4,0.4
2024-08-25T2300,1785A,129.6115,44.5782,牡丹江市,文化广场,,45,44,40,31,29,29,,44,35,10,14,8,9,0.4,0.5
2024-08-25T2300,1786A,129.5904,44.5963,牡丹江市,第一医院,,40,38,32,28,27,10,,49,35,14,11,6,6,0.6,0.5
2024-08-25T2300,1787A,129.6364,44.6075,牡丹江市,机车工厂,颗粒物(PM10),60,69,37,27,18,10,,45,36,10,10,6,6,0.6,0.4
2024-08-25T2300,1788A,129.6386,44.5462,牡丹江市,第一中学,,26,24,25,18,17,19,,48,35,7,10,6,6,0.4,0.4
2024-08-25T2300,2531A,105.0703,29.61,内江市,市监测站,,49,48,31,34,27,56,,136,100,35,21,15,13,0.6,0.4
2024-08-25T2300,2532A,105.0717,29.5947,内江市,东兴区政府,细颗粒物(PM2.5),54,40,27,38,24,92,,137,110,18,19,12,11,0.5,0.5
2024-08-25T2300,2533A,105.0653,29.5817,内江市,内江二中,细颗粒物(PM2.5),59,,28,42,28,71,,130,108,24,17,8,8,0.4,0.3
2024-08-25T2300,2534A,105.0406,29.5822,内江市,内江日报社,,43,43,28,28,24,68,,138,104,33,26,8,9,0.3,0.3
2024-08-25T2300,2628A,92.0657,31.4846,那曲市,那曲监测站,颗粒物(PM10),61,72,32,25,18,69,,118,109,11,7,7,7,0.7,0.5
2024-08-25T2300,3128A,92.0506,31.4797,那曲市,那曲会议中心,颗粒物(PM10),53,56,30,27,15,82,,129,115,16,12,4,4,0.4,0.4
2024-08-25T2300,1290A,115.8931,28.6843,南昌市,省外办,,49,49,41,29,26,76,,125,112,18,16,8,9,0.5,0.5
2024-08-25T2300,1292A,115.8126,28.7442,南昌市,林科所,,44,44,30,24,16,10,,121,85,35,13,10,10,0.3,0.4
2024-08-25T2300,1295A,115.8921,28.6424,南昌市,象湖,,35,35,33,24,22,74,,138,122,15,20,4,5,0.7,0.8
2024-08-25T2300,1298A,115.9314,28.6842,南昌市,省站,,42,35,35,29,23,74,,125,112,16,15,7,8,0.8,0.7
2024-08-25T2300,3690A,115.9721,28.7031,南昌市,外国语学校,,43,43,39,25,18,76,,127,115,17,15,8,7,0.7,0.6
2024-08-25T2300,1905A,106.056,30.8064,南充市,西山风景区,,38,30,17,26,16,87,,116,111,17,8,3,3,0.9,0.7
2024-08-25T2300,1906A,106.0789,30.8023,南充市,南充市委,,44,44,31,26,19,57,,125,110,32,15,8,8,0.5,0.3
2024-08-25T2300,1907A,106.1031,30.8217,南充市,南充炼油厂,细颗粒物(PM2.5),92,86,46,68,30,73,,130,112,22,13,12,8,0.7,0.4
2024-08-25T2300,1908A,106.1064,30.7856,南充市,高坪区监测站,,36,36,28,19,16,57,,119,96,32,17,7,7,0.6,0.4
2024-08-25T2300,1909A,106.0642,30.7636,南充市,嘉陵区环保局,,33,24,30,9,18,104,,125,114,13,16,4,6,0.3,0.3
2024-08-25T2300,1910A,106.1087,30.8388,南充市,市环境监测站,细颗粒物(PM2.5),89,91,44,66,30,72,,128,110,26,18,11,7,0.7,0.3
2024-08-25T2300,1156A,118.7997,32.0754,南京市,玄武湖,,42,42,41,16,17,74,,184,150,27,14,4,4,0.6,0.7
2024-08-25T2300,1157A,118.6414,32.0931,南京市,浦口,,28,28,37,19,20,55,,201,136,31,20,7,8,0.3,0.5
2024-08-25T2300,3422A,118.8436,31.9198,南京市,江宁彩虹桥,,28,28,37,14,22,66,,169,129,9,11,4,4,0.4,0.6
2024-08-25T2300,3423A,119.0138,31.6494,南京市,溧水永阳,,28,27,31,19,19,70,,166,127,15,12,4,4,0.5,0.6
2024-08-25T2300,3424A,118.879,31.3302,南京市,高淳老职中,,44,28,33,12,26,139,,189,174,13,12,4,5,0.6,0.7
2024-08-25T2300,3427A,118.8554,32.3578,南京市,六合雄州,,29,29,40,7,23,50,,133,95,18,22,5,6,0.5,0.8
2024-08-25T2300,1401A,108.3103,22.7881,南宁市,二十一中,,20,13,21,12,13,63,,76,69,17,11,4,3,0.7,0.7
2024-08-25T2300,1405A,108.4394,22.7904,南宁市,仙葫,,28,22,26,19,13,67,,68,54,8,10,7,7,0.6,0.7
2024-08-25T2300,1406A,108.2397,22.8467,南宁市,区农职院,,32,32,30,21,14,59,,78,64,18,14,8,7,0.8,0.8
2024-08-25T2300,1408A,108.2257,22.7757,南宁市,沙井镇街道办,颗粒物(PM10),52,53,34,18,12,39,,75,62,37,21,3,3,0.5,0.5
2024-08-25T2300,2332A,118.1681,26.6369,南平市,南平市监测站,,17,17,25,6,14,36,,87,61,10,10,4,5,0.6,0.7
2024-08-25T2300,2333A,118.1825,26.6489,南平市,南平铝业有限公司,,21,21,26,9,14,21,,86,58,20,12,7,7,0.6,0.6
2024-08-25T2300,2334A,118.1756,26.6272,南平市,南平七中,,22,22,26,6,14,36,,81,58,6,6,4,4,0.4,0.5
2024-08-25T2300,1169A,120.86,32.0005,南通市,虹桥,,21,10,18,7,9,67,,109,84,3,5,5,5,1.3,1
2024-08-25T2300,1170A,120.87,32.02,南通市,城中,,22,22,21,6,8,64,,104,82,13,12,5,5,0.6,0.6
2024-08-25T2300,1172A,120.81,32.0417,南通市,紫琅学院,,20,6,12,3,7,63,,108,86,9,11,7,7,0.8,0.8
2024-08-25T2300,3291A,121.067,32.062,南通市,通州监测站,,23,17,18,7,9,72,,94,84,5,6,3,3,0.6,0.6
2024-08-25T2300,3432A,120.9348,31.9883,南通市,环境教育馆,,20,14,22,8,8,64,,102,80,7,7,4,4,0.4,0.4
2024-08-25T2300,2404A,112.5224,33.0122,南阳市,瓦房庄,颗粒物(PM10),51,52,43,25,25,68,,120,96,16,11,5,6,0.5,0.5
2024-08-25T2300,2405A,112.5003,32.9735,南阳市,汉画馆,,41,41,41,23,25,70,,117,93,13,12,5,4,0.6,0.6
2024-08-25T2300,2406A,112.5573,33.027,南阳市,气象站,颗粒物(PM10),53,56,50,22,23,58,,115,89,17,10,5,5,0.7,0.7
2024-08-25T2300,2407A,112.5481,32.9689,南阳市,理工学院,,41,41,36,24,24,64,,116,93,18,12,5,5,0.6,0.6
2024-08-25T2300,4008A,112.5234,32.9922,南阳市,卧龙区政府,,43,43,45,25,28,66,,113,90,19,14,4,4,0.7,0.7
2024-08-25T2300,1234A,121.8358,29.911,宁波市,区环保大楼,,19,15,21,7,12,60,,104,71,3,8,7,7,0.6,0.6
2024-08-25T2300,1235A,121.56,29.82,宁波市,万里学院,,29,29,31,15,17,61,,130,81,11,10,10,10,0.5,0.6
2024-08-25T2300,1239A,121.633,29.7733,宁波市,钱湖水厂,,19,16,18,10,12,59,,119,80,7,5,7,7,0.5,0.6
2024-08-25T2300,1240A,121.5856,29.8635,宁波市,太古小学,,20,15,22,10,15,62,,127,77,8,10,6,6,0.8,0.8
2024-08-25T2300,1241A,121.524,29.8674,宁波市,市环境监测中心,,21,21,25,13,13,63,,142,82,10,11,4,4,0.5,0.6
2024-08-25T2300,2871A,121.6147,29.9017,宁波市,万里国际学校,,19,19,20,12,16,60,,142,81,8,8,6,6,0.4,0.4
2024-08-25T2300,2341A,119.5388,26.6612,宁德市,宁德市监测站,,23,12,32,10,22,73,,128,87,8,9,5,6,0.4,0.7
2024-08-25T2300,3209A,119.5231,26.6562,宁德市,宁德一中,,15,14,34,3,20,48,,129,83,7,7,5,6,0.4,0.7
2024-08-25T2300,2618A,98.8601,25.8567,怒江傈僳族自治州,州监测站,,32,32,24,17,16,45,,99,76,22,14,6,6,0.5,0.5
2024-08-25T2300,2619A,98.8546,25.8417,怒江傈僳族自治州,泸水一中,,23,23,22,15,11,28,,89,59,24,16,5,5,0.5,0.4
2024-08-25T2300,1888A,101.6891,26.571,攀枝花市,弄弄坪,颗粒物(PM10),53,55,45,23,22,81,,141,124,23,19,15,18,0.8,1.1
2024-08-25T2300,1889A,101.5769,26.5928,攀枝花市,河门口,,26,25,34,17,22,81,,125,110,20,16,13,8,1.1,0.8
2024-08-25T2300,1890A,101.7169,26.585,攀枝花市,炳草岗,细颗粒物(PM2.5),59,63,51,42,28,74,,147,127,33,28,26,24,0.6,0.8
2024-08-25T2300,1891A,101.7369,26.5008,攀枝花市,仁和,,30,25,38,18,24,94,,164,137,9,15,4,12,0.4,0.9
2024-08-25T2300,2835A,101.7227,26.567,攀枝花市,四十中小,,37,37,43,25,25,102,,166,144,10,23,12,22,0.4,1
2024-08-25T2300,1604A,122.0303,41.1489,盘锦市,开发区,,31,31,35,14,21,51,,110,72,25,14,6,6,0.5,0.5
2024-08-25T2300,1605A,122.0485,41.0883,盘锦市,兴隆台,,21,20,39,8,21,66,,108,71,15,17,5,5,0.5,0.7
2024-08-25T2300,1606A,121.8297,41.1028,盘锦市,新生街道,,15,15,28,8,17,45,,97,61,24,11,6,6,0.7,0.7
2024-08-25T2300,1832A,113.3257,33.742,平顶山市,新华旅馆,,49,49,51,16,29,26,,105,70,49,27,4,4,0.5,0.5
2024-08-25T2300,1833A,113.2919,33.737,平顶山市,规划设计院,,35,34,34,24,21,55,,93,75,26,26,6,6,0.9,1
2024-08-25T2300,1834A,113.182,33.774,平顶山市,平顶山工学院,,,34,36,17,19,,,80,75,18,19,6,6,0.9,0.9
2024-08-25T2300,3204A,113.3025,33.73,平顶山市,规划局,,36,36,41,20,26,47,,95,71,25,26,2,2,0.8,0.9
2024-08-25T2300,3594A,112.8867,33.9116,平顶山市,石龙区,颗粒物(PM10),55,60,63,16,22,31,,90,74,30,30,7,8,0.6,0.6
2024-08-25T2300,2656A,106.6692,35.5461,平凉市,聚贤嘉苑,,32,32,52,13,23,12,,91,63,42,24,8,9,0.3,0.5
2024-08-25T2300,2657A,106.7021,35.5307,平凉市,博物馆,,37,37,48,7,22,20,,98,70,53,32,7,7,0.5,0.6
2024-08-25T2300,2347A,114.0997,27.5002,萍乡市,武功山,,17,17,9,3,4,33,,91,49,3,4,9,8,0.3,0.3
2024-08-25T2300,2348A,113.8385,27.6434,萍乡市,中医院,,27,27,33,6,19,42,,102,64,13,13,5,15,0.7,1
2024-08-25T2300,2349A,113.8493,27.6253,萍乡市,市政府车库,,36,36,36,13,20,22,,88,55,14,13,14,22,0.7,1.6
2024-08-25T2300,2350A,113.8676,27.6435,萍乡市,市环保局,,29,26,36,20,22,42,,91,57,7,12,11,24,0.7,1
2024-08-25T2300,2351A,113.866,27.6198,萍乡市,安源区政府,,31,31,36,14,14,21,,88,52,17,17,10,20,0.5,1.4
2024-08-25T2300,2319A,119.0141,25.4325,莆田市,荔城区仓后路,,44,44,38,22,23,56,,106,89,18,11,8,7,0.7,0.6
2024-08-25T2300,2320A,119.0015,25.4553,莆田市,莆田市监测站,,33,33,38,20,22,57,,116,94,9,9,6,6,0.5,0.5
2024-08-25T2300,2321A,119.1119,25.4561,莆田市,涵江区六中,,28,27,33,19,23,68,,117,99,22,11,8,6,0.7,0.5
2024-08-25T2300,2322A,119.1013,25.3215,莆田市,秀屿区政府,,42,,29,29,24,115,,116,116,9,7,7,7,0.6,0.6
2024-08-25T2300,2392A,115.0312,35.7636,濮阳市,环保局,,40,40,50,28,37,40,,117,85,18,13,5,5,0.9,0.8
2024-08-25T2300,2394A,115.0574,35.7609,濮阳市,油田运输公司,,42,42,55,11,35,55,,133,96,16,16,2,2,0.8,0.8
2024-08-25T2300,2395A,115.0866,35.7754,濮阳市,油田物探公司,细颗粒物(PM2.5),54,40,58,38,44,58,,138,100,13,12,5,5,0.6,0.7
2024-08-25T2300,3021A,115,35.7668,濮阳市,濮水河管理处,,33,33,46,22,37,14,,105,55,15,11,2,2,0.8,0.7
2024-08-25T2300,2601A,100.98,22.7633,普洱市,市环保局,,26,,19,18,13,41,,50,48,6,6,5,6,0.4,0.4
2024-08-25T2300,2602A,100.9817,22.8322,普洱市,普洱第二中学,,30,,20,21,12,40,,48,48,7,7,7,7,0.5,0.4
2024-08-25T2300,2262A,131.0518,45.8751,七台河市,新一中,,36,32,19,25,13,23,,87,60,22,10,11,10,1.0,0.9
2024-08-25T2300,3345A,131.0577,45.7879,七台河市,中波台,,24,24,13,16,7,25,,58,46,18,17,10,10,0.7,0.7
2024-08-25T2300,3637A,131.0176,45.7761,七台河市,人民广场,,40,35,26,28,16,16,,66,43,16,14,8,8,0.5,0.4
2024-08-25T2300,3684A,130.8781,45.8222,七台河市,新建矿广场,,45,39,32,31,17,9,,58,30,31,20,9,10,0.4,0.5
2024-08-25T2300,1779A,123.9305,47.3636,齐齐哈尔市,安居小区,,21,21,28,14,16,52,,68,54,7,8,10,10,0.4,0.5
2024-08-25T2300,1780A,123.9488,47.3386,齐齐哈尔市,中心广场,细颗粒物(PM2.5),52,47,41,36,14,51,,64,53,8,10,5,4,0.3,0.4
2024-08-25T2300,1781A,123.9483,47.3227,齐齐哈尔市,农牧车辆厂,,39,,34,27,18,55,,62,46,5,11,8,10,0.2,0.3
2024-08-25T2300,1783A,123.945,47.2988,齐齐哈尔市,市环境监测站,,25,25,20,15,14,59,,69,62,5,7,7,7,0.2,0.3
2024-08-25T2300,3662A,123.6333,47.2075,齐齐哈尔市,富区青少年活动中心,细颗粒物(PM2.5),55,46,43,39,21,47,,66,57,13,11,10,12,0.7,0.7
2024-08-25T2300,2591A,107.9783,26.5747,黔东南苗族侗族自治州,市环境监测站,,16,16,11,10,7,7,,52,37,18,7,3,3,0.5,0.4
2024-08-25T2300,2881A,107.8908,26.5311,黔东南苗族侗族自治州,凯里学院,,24,24,10,8,7,5,,49,37,23,8,3,2,0.7,0.5
2024-08-25T2300,2593A,107.5228,26.2403,黔南布依族苗族自治州,小围寨,,9,6,5,3,1,28,,50,43,7,4,3,3,0.4,0.4
2024-08-25T2300,3538A,107.5175,26.2978,黔南布依族苗族自治州,沙坝,,22,22,7,9,3,13,,55,44,9,3,4,3,0.5,0.4
2024-08-25T2300,2589A,104.9022,25.0925,黔西南布依族苗族自治州,场坝街,,21,21,15,3,8,42,,55,47,4,4,3,2,0.3,0.3
2024-08-25T2300,2590A,104.8811,25.0992,黔西南布依族苗族自治州,坪东大道,,16,16,14,3,6,40,,56,45,3,3,6,6,0.2,0.2
2024-08-25T2300,2502A,108.6236,21.9667,钦州市,市环保站,,17,17,26,3,7,50,,79,62,13,20,9,8,0.6,0.6
2024-08-25T2300,2503A,108.6549,21.9481,钦州市,沙埠小学,,40,40,31,8,10,18,,77,57,41,20,5,5,0.5,0.5
2024-08-25T2300,2504A,108.5989,21.7431,钦州市,港区一小,,30,30,26,9,9,48,,68,56,18,14,8,11,0.6,0.6
2024-08-25T2300,3404A,108.5959,21.9633,钦州市,北职校,,26,26,26,7,11,36,,83,60,17,17,9,6,0.5,0.6
2024-08-25T2300,1043A,119.7493,40.0116,秦皇岛市,第一关,,33,33,40,20,23,44,,112,80,57,33,3,2,0.3,0.5
2024-08-25T2300,1046A,119.5251,39.9041,秦皇岛市,建设大厦,,45,45,42,16,11,50,,126,98,45,20,4,4,0.5,0.6
2024-08-25T2300,1310A,120.4134,36.0658,青岛市,市南区东部子站,,29,22,23,14,9,90,,114,98,14,10,7,7,0.6,0.7
2024-08-25T2300,1314A,120.1983,35.9608,青岛市,黄岛区子站,,29,17,21,15,16,90,,122,108,13,13,8,8,0.7,0.8
2024-08-25T2300,1315A,120.3999,36.3083,青岛市,城阳区子站,,41,41,45,24,24,82,,157,94,18,21,8,8,0.7,0.8
2024-08-25T2300,1966A,120.0405,35.8735,青岛市,黄岛区4号,,29,12,22,9,13,92,,113,97,6,10,10,10,0.5,0.7
2024-08-25T2300,3362A,120.5014,36.4034,青岛市,即墨2号,细颗粒物(PM2.5),74,79,53,54,33,106,,152,129,12,13,8,7,0.6,0.7
2024-08-25T2300,3642A,120.3503,36.0736,青岛市,市北区南部,,27,17,24,7,15,84,,105,90,17,14,7,7,0.7,0.8
2024-08-25T2300,3643A,120.3948,36.1805,青岛市,李沧区北部,,39,34,37,27,22,92,,142,112,18,19,8,8,0.7,0.8
2024-08-25T2300,1702A,113.0426,23.691,清远市,环保大楼,,45,45,33,19,23,38,,107,65,20,15,5,6,0.7,0.7
2024-08-25T2300,3318A,112.9903,23.7403,清远市,清新太和,,22,22,45,12,26,31,,83,43,8,13,3,4,0.8,0.8
2024-08-25T2300,3455A,113.076,23.7198,清远市,清城东城,,24,24,40,15,25,42,,110,66,11,11,8,6,0.5,0.5
2024-08-25T2300,2661A,107.6325,35.7357,庆阳市,庆阳五中,,33,33,37,14,21,66,,98,82,4,5,5,5,0.5,0.6
2024-08-25T2300,2662A,107.6364,35.7067,庆阳市,市环保局,,31,31,32,15,19,72,,101,80,4,6,7,8,0.5,0.6
2024-08-25T2300,1916A,103.7897,25.5035,曲靖市,环境监测站,,20,20,23,7,12,36,,80,65,17,13,5,6,0.6,0.6
2024-08-25T2300,1917A,103.8,25.5364,曲靖市,烟厂办公区,,16,16,23,7,12,44,,77,66,10,12,4,4,0.3,0.4
2024-08-25T2300,3376A,103.7947,25.462,曲靖市,南苑二区,,18,18,17,9,10,39,,80,66,14,11,12,9,0.6,0.6
2024-08-25T2300,3377A,103.7444,25.5261,曲靖市,曲靖师范学院,,20,20,21,10,14,44,,89,73,13,13,9,11,0.4,0.5
2024-08-25T2300,1264A,118.8692,28.9398,衢州市,环保大楼,,50,50,46,32,31,93,,190,144,25,21,4,4,0.6,0.5
2024-08-25T2300,1265A,118.8709,28.9666,衢州市,实验学校,颗粒物(PM10),54,58,47,36,31,105,,199,147,26,24,8,8,0.5,0.4
2024-08-25T2300,1266A,118.8621,28.9808,衢州市,衢州学院,颗粒物(PM10),54,57,48,36,31,90,,196,145,36,29,5,6,0.5,0.5
2024-08-25T2300,1612A,118.5972,24.8978,泉州市,津头埔,细颗粒物(PM2.5),53,52,39,37,28,63,,125,94,28,16,3,4,0.7,0.6
2024-08-25T2300,1613A,118.6663,24.9424,泉州市,万安,细颗粒物(PM2.5),55,,34,39,28,77,,123,103,16,9,4,4,0.6,0.6
2024-08-25T2300,3529A,118.6333,24.9264,泉州市,城华南路,,39,39,30,27,25,61,,115,91,10,8,3,3,0.6,0.5
2024-08-25T2300,2626A,88.8876,29.2718,日喀则市,日喀则监测站,,32,15,8,6,4,101,,123,119,10,5,6,5,0.3,0.3
2024-08-25T2300,3726A,88.8781,29.2426,日喀则市,林业技术推广中心,,34,8,7,6,5,108,,122,119,5,6,7,7,0.5,0.5
2024-08-25T2300,1659A,119.471,35.4209,日照市,监测站,,23,22,38,7,26,71,,128,96,10,27,11,10,0.3,0.6
2024-08-25T2300,1660A,119.523,35.4216,日照市,市政府广场,,23,12,25,3,16,73,,130,102,4,8,10,10,0.4,0.7
2024-08-25T2300,1661A,119.5587,35.4044,日照市,港务局,,25,,24,15,21,80,,119,96,1,5,4,7,0.3,0.6
2024-08-25T2300,3507A,119.5328,35.4625,日照市,职业技术学院,,25,14,24,12,18,78,,135,100,10,15,8,9,0.5,0.8
2024-08-25T2300,3604A,119.3266,35.1044,日照市,岚山环保分局,,20,12,42,3,15,63,,115,79,14,17,9,12,0.4,0.7
2024-08-25T2300,1835A,111.1922,34.7752,三门峡市,市政府,,49,49,44,31,26,94,,114,109,11,9,9,9,0.7,0.7
2024-08-25T2300,1836A,111.1587,34.7942,三门峡市,开发区,颗粒物(PM10),56,61,50,34,33,100,,116,111,11,12,8,9,0.7,0.7
2024-08-25T2300,3039A,111.1911,34.7829,三门峡市,三门峡市第一小学,,38,33,45,26,26,95,,114,110,10,9,5,8,0.7,0.7
2024-08-25T2300,3598A,111.1,34.7167,三门峡市,富达温泉假日酒店,,46,46,32,28,26,93,,109,107,10,7,7,6,0.8,0.7
2024-08-25T2300,2324A,117.6211,26.2625,三明市,三钢,,,35,33,21,22,,,114,74,20,14,5,10,0.5,1.3
2024-08-25T2300,2325A,117.635,26.2714,三明市,三明二中,,25,25,31,15,19,32,,117,71,20,16,3,6,0.4,0.9
2024-08-25T2300,2326A,117.6028,26.2378,三明市,三元区政府,,29,29,36,15,22,15,,104,58,24,11,1,3,0.5,0.5
2024-08-25T2300,1876A,109.5078,18.2489,三亚市,河东子站,,20,20,17,12,7,34,,52,44,6,6,3,3,0.4,0.3
2024-08-25T2300,1877A,109.4964,18.2681,三亚市,河西子站,,25,25,15,12,7,19,,49,38,19,8,2,2,0.3,0.3
2024-08-25T2300,3540A,109.7348,18.3443,三亚市,君悦子站,,32,32,18,9,5,7,,49,38,22,10,1,1,0.4,0.3
2024-08-25T2300,2624A,91.7608,29.2313,山南市,山南监测站,颗粒物(PM10),100,150,16,10,4,109,,131,127,7,5,7,8,0.3,0.2
2024-08-25T2300,2625A,91.7706,29.2436,山南市,山南人民医院,,35,17,13,10,7,112,,130,128,11,8,7,7,0.2,0.3
2024-08-25T2300,1674A,116.6794,23.3667,汕头市,金平子站,,25,25,32,8,23,48,,99,70,16,16,6,5,1.7,0.9
2024-08-25T2300,1675A,116.7244,23.3633,汕头市,龙湖子站,,22,22,34,10,22,58,,113,79,19,19,7,7,0.8,0.8
2024-08-25T2300,1676A,116.7258,23.2775,汕头市,濠江子站,,18,13,29,12,28,51,,108,72,16,19,9,6,1.4,0.8
2024-08-25T2300,1677A,116.7519,23.4714,汕头市,澄海子站,,39,34,44,27,36,50,,147,97,27,25,12,8,1.0,1
2024-08-25T2300,1678A,116.6092,23.2539,汕头市,潮阳子站,,20,19,33,7,19,63,,116,81,7,9,5,5,0.7,0.8
2024-08-25T2300,3444A,116.454,23.2684,汕头市,潮南峡山,,21,21,41,9,22,51,,110,68,8,9,5,5,0.7,0.8
2024-08-25T2300,3624A,116.4069,23.2533,汕头市,潮南子站,,29,29,53,16,29,50,,112,67,18,17,4,4,0.8,0.9
2024-08-25T2300,1693A,115.3653,22.775,汕尾市,市环保局,,20,20,20,14,14,60,,106,72,17,15,6,6,0.6,0.6
2024-08-25T2300,1694A,115.3706,22.7898,汕尾市,市政府,,26,26,22,14,15,41,,90,57,14,14,6,6,0.5,0.4
2024-08-25T2300,1695A,115.3622,22.7925,汕尾市,新城中学,,20,19,26,14,14,46,,92,59,13,13,6,6,0.7,0.6
2024-08-25T2300,2645A,109.9154,33.8715,商洛市,监测站,,35,35,36,19,21,83,,107,90,14,9,3,3,0.6,0.7
2024-08-25T2300,3045A,109.9643,33.8471,商洛市,商州区中学,,30,30,40,21,24,77,,98,82,16,12,4,4,0.7,0.7
2024-08-25T2300,2408A,115.6702,34.4285,商丘市,环境监测站,颗粒物(PM10),54,58,64,31,29,123,,153,141,11,15,4,4,0.7,0.7
2024-08-25T2300,2410A,115.6293,34.3948,商丘市,睢阳区环保局,颗粒物(PM10),56,61,57,33,29,132,,162,145,7,9,5,5,0.6,0.6
2024-08-25T2300,3171A,115.6071,34.4465,商丘市,梁园区档案局,细颗粒物(PM2.5),52,44,51,36,29,144,,162,141,5,9,6,7,0.7,0.6
2024-08-25T2300,1142A,121.478,31.2036,上海市,十五厂,,23,23,28,14,17,49,,125,77,15,15,8,8,0.4,0.4
2024-08-25T2300,1143A,121.467,31.3008,上海市,虹口,,24,24,28,13,16,45,,111,71,18,15,8,9,0.5,0.6
2024-08-25T2300,1145A,121.536,31.2659,上海市,杨浦四漂,,21,21,33,11,14,50,,109,65,15,18,6,7,0.5,0.4
2024-08-25T2300,1147A,121.425,31.2261,上海市,静安监测站,,22,22,26,11,15,50,,124,75,13,14,6,6,0.6,0.6
2024-08-25T2300,1148A,121.703,31.1907,上海市,浦东川沙,,,24,26,,16,52,,94,63,21,21,6,6,0.6,0.6
2024-08-25T2300,1149A,121.533,31.2284,上海市,浦东新区监测站,,24,24,25,13,15,50,,102,62,16,18,6,6,0.4,0.4
2024-08-25T2300,3265A,121.4316,31.3322,上海市,宝山庙行,,19,19,25,12,16,48,,121,76,19,17,7,7,0.4,0.4
2024-08-25T2300,3266A,121.8791,31.4662,上海市,崇明上实东滩,,24,12,14,7,9,74,,82,79,8,10,8,8,0.7,0.7
2024-08-25T2300,3268A,121.3162,31.2838,上海市,嘉定南翔,,18,18,28,10,16,44,,125,72,17,18,6,6,0.5,0.5
2024-08-25T2300,3269A,121.3359,30.7456,上海市,金山新城,,20,20,22,10,15,53,,148,90,11,10,7,6,0.6,0.6
2024-08-25T2300,3270A,121.4996,31.0739,上海市,闵行浦江,,24,24,25,15,18,50,,137,85,18,16,6,6,0.7,0.7
2024-08-25T2300,3271A,121.2886,31.1663,上海市,青浦徐泾,,23,23,27,12,18,47,,146,89,18,16,8,8,0.5,0.5
2024-08-25T2300,3272A,121.2186,31.0378,上海市,松江图书馆,,24,24,26,16,17,40,,152,94,25,17,6,6,0.6,0.6
2024-08-25T2300,3273A,121.3902,31.2059,上海市,长宁仙霞,,21,21,26,12,15,51,,138,87,16,14,8,8,0.6,0.6
2024-08-25T2300,3274A,121.7965,31.0507,上海市,浦东惠南,,29,29,24,15,15,60,,102,71,10,10,7,7,0.5,0.5
2024-08-25T2300,3544A,121.4891,30.925,上海市,奉贤南桥新城,,21,21,21,9,16,40,,123,77,24,17,8,8,0.4,0.5
2024-08-25T2300,2381A,118.005,28.4572,上饶市,百草园,,48,45,37,33,24,90,,149,123,14,9,58,10,1.1,0.8
2024-08-25T2300,2382A,117.9756,28.4436,上饶市,市监测站,颗粒物(PM10),53,55,43,31,26,82,,165,130,19,13,70,11,0.9,0.7
2024-08-25T2300,2383A,117.9519,28.4628,上饶市,凤凰光学,"颗粒物(PM10),细颗粒物(PM2.5)",53,55,45,37,26,86,,162,126,17,14,142,19,1.2,0.9
2024-08-25T2300,3413A,118.1953,28.4401,上饶市,广丰区教体局,,43,43,28,22,18,69,,141,114,6,7,3,3,0.7,0.7
2024-08-25T2300,3685A,117.897,28.4315,上饶市,双创科技城,颗粒物(PM10),51,52,47,31,27,67,,160,111,38,21,130,18,1.0,0.8
2024-08-25T2300,1669A,113.5824,24.7733,韶关市,市八中,,39,39,28,25,17,23,,85,42,21,9,20,15,0.9,0.6
2024-08-25T2300,1671A,113.5917,24.7972,韶关市,园林处,,44,44,24,29,17,31,,93,49,13,9,16,15,1.0,0.6
2024-08-25T2300,1672A,113.6735,24.7791,韶关市,韶关学院,,45,40,33,31,20,26,,113,53,12,13,35,14,0.7,0.7
2024-08-25T2300,1673A,113.5971,24.6863,韶关市,曲江监测站,,37,37,31,20,18,19,,95,39,16,13,11,17,0.6,0.7
2024-08-25T2300,2462A,111.5239,27.3033,邵阳市,市水土所,,50,50,38,35,26,9,,103,52,7,6,4,7,0.7,0.5
2024-08-25T2300,2463A,111.4733,27.2317,邵阳市,市一中,细颗粒物(PM2.5),55,56,40,39,24,39,,95,77,21,12,7,11,0.5,0.3
2024-08-25T2300,2464A,111.5283,27.2442,邵阳市,市化工厂,"颗粒物(PM10),细颗粒物(PM2.5)",58,65,42,41,28,32,,94,67,19,13,10,13,0.7,0.5
2024-08-25T2300,2465A,111.4503,27.2537,邵阳市,市罐头厂,,40,36,41,28,30,44,,99,77,12,9,6,8,0.5,0.4
2024-08-25T2300,2466A,111.4328,27.2272,邵阳市,市环保局,细颗粒物(PM2.5),57,46,44,40,32,39,,95,75,12,10,3,11,0.5,0.4
2024-08-25T2300,2921A,120.5483,30.0003,绍兴市,树下王站,,41,41,48,28,33,122,,185,161,12,16,5,5,0.6,0.6
2024-08-25T2300,3408A,120.5683,29.9361,绍兴市,绍兴中专,细颗粒物(PM2.5),59,50,48,42,37,112,,196,168,21,20,3,3,0.8,0.8
2024-08-25T2300,3409A,120.4906,30.0861,绍兴市,柯桥区政府,,48,48,49,29,31,93,,169,148,21,15,5,5,0.7,0.8
2024-08-25T2300,3410A,120.8752,30.0249,绍兴市,重华小学,,33,31,48,23,35,96,,206,153,12,19,6,7,0.7,0.8
2024-08-25T2300,3411A,120.8369,30.0137,绍兴市,上虞中学,细颗粒物(PM2.5),53,48,53,37,40,80,,195,140,10,21,6,13,0.8,0.8
2024-08-25T2300,3560A,120.4722,30.0415,绍兴市,柯桥妇保,颗粒物(PM10),54,58,51,36,36,96,,186,160,19,14,8,7,0.7,0.7
2024-08-25T2300,3658A,120.6153,30.0764,绍兴市,袍江中学,,45,45,47,30,30,99,,186,157,17,14,4,4,0.6,0.7
2024-08-25T2300,1358A,113.987,22.5417,深圳市,华侨城,,24,24,17,3,7,43,,70,67,24,17,7,6,0.7,0.6
2024-08-25T2300,1359A,113.9181,22.5171,深圳市,南海子站,,26,26,20,11,10,44,,79,72,40,25,8,8,0.4,0.4
2024-08-25T2300,1364A,114.41,22.6342,深圳市,葵涌,,31,31,23,18,12,23,,72,48,23,18,6,6,0.6,0.6
2024-08-25T2300,1365A,114.297,22.5978,深圳市,梅沙,,24,24,24,11,12,8,,70,45,35,25,5,6,0.4,0.4
2024-08-25T2300,1366A,114.0678,22.738,深圳市,观澜,颗粒物(PM10),73,96,32,39,14,29,,112,77,31,16,5,6,0.8,0.5
2024-08-25T2300,3305A,114.0731,22.559,深圳市,莲花,,25,25,16,14,9,42,,60,52,22,13,6,6,0.5,0.5
2024-08-25T2300,3306A,114.0261,22.6198,深圳市,民治,,32,30,20,12,8,11,,76,54,64,25,6,6,0.7,0.6
2024-08-25T2300,3307A,114.1871,22.6451,深圳市,横岗,,37,37,26,18,14,13,,110,80,60,27,7,7,0.6,0.6
2024-08-25T2300,3447A,114.3551,22.7151,深圳市,坪山,,39,39,29,19,16,38,,106,66,38,26,5,5,0.5,0.5
2024-08-25T2300,3623A,113.8953,22.5861,深圳市,西乡,,38,38,20,9,7,25,,64,54,50,23,7,8,0.5,0.4
2024-08-25T2300,1105A,123.4678,41.7867,沈阳市,小河沿,,31,26,26,12,9,10,,118,67,61,21,8,9,1.0,0.8
2024-08-25T2300,2897A,123.2444,41.7347,沈阳市,沈辽西路,颗粒物(PM10),53,56,31,16,13,13,,116,58,62,26,7,8,0.8,0.6
2024-08-25T2300,2900A,123.5953,41.9086,沈阳市,裕农路,,15,14,19,7,10,45,,109,68,18,20,6,6,0.6,0.6
2024-08-25T2300,2428A,111.0419,32.395,十堰市,武当山,,33,32,27,22,21,105,,129,125,5,5,12,12,0.8,0.8
2024-08-25T2300,2429A,110.78,32.6494,十堰市,滨河新村,,34,34,39,11,23,97,,117,114,10,8,8,9,0.6,0.6
2024-08-25T2300,2430A,110.7258,32.6389,十堰市,刘家沟,,,30,39,,22,100,,127,122,10,9,3,3,0.7,0.8
2024-08-25T2300,2431A,110.8839,32.5714,十堰市,铁二处,,,33,29,26,24,,,126,118,15,10,8,8,0.6,0.3
2024-08-25T2300,3545A,110.8054,32.8401,十堰市,郧阳区金沙路,,29,23,28,9,23,90,,108,105,9,9,8,7,0.6,0.7
2024-08-25T2300,2709A,86.0497,44.2967,石河子市,艾青诗歌馆,,33,32,37,23,20,65,,107,104,32,17,10,10,0.5,0.4
2024-08-25T2300,3442A,86.047,44.2331,石河子市,南区管委会,,31,31,33,15,13,78,,110,108,15,10,5,6,0.3,0.3
2024-08-25T2300,4051A,86.0791,44.3017,石河子市,世纪广场,,29,21,41,20,16,71,,103,101,21,16,5,6,0.6,0.7
2024-08-25T2300,1034A,114.509,38.0457,石家庄市,人民会堂,,,25,40,23,26,,,112,111,4,10,1,2,0.0,0.3
2024-08-25T2300,1035A,114.3524,37.8911,石家庄市,封龙山,,44,,28,13,25,138,,125,125,3,5,5,5,0.5,0.7
2024-08-25T2300,2862A,114.5481,38.0378,石家庄市,22中南校区,,36,26,43,16,29,114,,108,106,3,8,1,1,0.4,0.5
2024-08-25T2300,3456A,114.289,38.0906,石家庄市,鹿泉一中,,34,,38,17,25,106,,105,100,6,7,3,2,0.4,0.5
2024-08-25T2300,3573A,114.8506765,38.0322033,石家庄市,藁城区实验学校,,32,30,49,16,26,102,,102,99,3,9,2,2,0.3,0.5
2024-08-25T2300,3574A,114.0504658,38.0591645,石家庄市,井陉矿区区委大楼,,32,6,28,3,17,102,,112,105,4,8,1,2,0.3,0.5
2024-08-25T2300,4024A,114.6549,37.9020,石家庄市,栾城区星河路,,35,14,40,14,25,109,,107,107,4,11,3,2,0.5,0.6
2024-08-25T2300,1948A,106.3668,39.0145,石嘴山市,大武口朝阳西街,,32,7,14,3,13,102,,99,97,2,5,5,6,0.5,0.6
2024-08-25T2300,1949A,106.7704,39.2282,石嘴山市,惠农南大街,,28,23,22,9,16,88,,100,84,12,14,10,12,0.6,0.7
2024-08-25T2300,1950A,106.7099,39.1325,石嘴山市,红果子镇惠新街,,29,18,21,11,19,91,,99,84,11,13,8,8,0.3,0.7
2024-08-25T2300,3520A,106.3495,38.9836,石嘴山市,妇女儿童医院,,32,8,16,7,8,101,,94,91,4,7,8,9,0.3,0.6
2024-08-25T2300,3521A,106.7492,39.2069,石嘴山市,石大公路,颗粒物(PM10),71,92,39,24,28,82,,94,82,17,15,5,5,0.9,1
2024-08-25T2300,2248A,131.1511,46.6937,双鸭山市,双合村,,40,40,19,28,12,30,,46,38,16,16,12,8,0.6,0.3
2024-08-25T2300,2249A,131.1652,46.6191,双鸭山市,南小市,,14,9,20,3,11,42,,55,48,3,10,6,6,0.4,0.4
2024-08-25T2300,2250A,131.1524,46.6554,双鸭山市,环保局,,39,27,16,27,16,36,,46,40,6,9,8,8,0.4,0.3
2024-08-25T2300,2251A,131.12,46.5656,双鸭山市,苗圃,,33,,14,23,13,38,,57,50,6,7,2,3,0.3,0.3
2024-08-25T2300,2166A,112.4397,39.3522,朔州市,平朔,,21,,52,3,23,65,,52,51,12,30,6,9,0.7,0.7
2024-08-25T2300,2167A,112.4575,39.3617,朔州市,朔唯,,19,8,70,3,22,58,,48,47,10,36,7,14,0.7,0.7
2024-08-25T2300,2168A,112.4258,39.3197,朔州市,区政府,,24,14,52,6,21,74,,61,60,9,26,6,12,0.8,0.8
2024-08-25T2300,2169A,112.4072,39.3278,朔州市,市环保局,,24,13,53,3,20,75,,58,57,9,25,5,13,0.8,0.8
2024-08-25T2300,2170A,112.4272,39.3681,朔州市,市二中,,19,6,57,3,23,58,,50,48,10,29,6,10,0.6,0.6
2024-08-25T2300,3571A,112.2931,39.53,朔州市,一水厂,,22,,57,15,21,55,,60,59,20,28,4,8,0.6,0.6
2024-08-25T2300,2225A,124.4002,43.1713,四平市,一商场,细颗粒物(PM2.5),173,,41,131,25,12,,98,59,47,13,22,11,0.6,0.4
2024-08-25T2300,2226A,124.388,43.193,四平市,境园,颗粒物(PM10),68,85,23,37,13,5,,93,51,32,8,1,1,0.4,0.3
2024-08-25T2300,3486A,124.4036,43.1411,四平市,植物园,,33,33,18,21,9,0,,90,45,35,15,3,3,0.4,0.3
2024-08-25T2300,3713A,124.3419,43.1666,四平市,世纪城,细颗粒物(PM2.5),104,96,18,78,14,9,,93,50,45,10,7,3,0.3,0.2
2024-08-25T2300,2233A,124.8006,45.1214,松原市,江南,,35,31,29,24,22,44,,78,56,6,7,2,3,0.4,0.4
2024-08-25T2300,2234A,124.7965,45.1722,松原市,江北,,22,,15,15,16,51,,80,65,9,7,3,2,0.5,0.5
2024-08-25T2300,1160A,120.561,31.2472,苏州市,上方山,,33,33,39,22,24,63,,197,146,20,14,7,7,0.4,0.5
2024-08-25T2300,1162A,120.591,31.3019,苏州市,彩香,,31,31,38,16,22,64,,187,134,12,9,7,8,0.6,0.7
2024-08-25T2300,1163A,120.596,31.3264,苏州市,轧钢厂,,31,31,37,20,21,63,,189,125,20,18,8,8,0.6,0.7
2024-08-25T2300,1165A,120.543,31.2994,苏州市,苏州新区,,31,31,38,19,23,72,,195,143,17,14,9,10,0.5,0.6
2024-08-25T2300,1167A,120.641,31.3708,苏州市,相城区,,29,29,33,12,19,58,,179,105,19,17,7,7,0.7,0.8
2024-08-25T2300,3289A,120.743,31.3188,苏州市,方洲路,,27,27,33,15,22,51,,180,119,19,15,6,6,0.5,0.6
2024-08-25T2300,3290A,120.5031,31.2774,苏州市,木渎中学,,23,20,34,14,23,72,,202,155,20,15,8,8,0.6,0.7
2024-08-25T2300,3425A,120.624,31.1733,苏州市,越秀幼儿园,,31,31,35,13,21,52,,185,144,19,10,7,8,0.7,0.8
2024-08-25T2300,3431A,120.6505,31.416,苏州市,高铁新城,,25,25,29,13,17,48,,175,102,23,15,6,6,0.6,0.7
2024-08-25T2300,3191A,118.3225,33.9447,宿迁市,宿豫区政府,,26,22,34,18,29,69,,146,109,9,12,4,5,0.4,0.6
2024-08-25T2300,3187A,116.9509,33.666,宿州市,远航博物馆,,38,38,44,22,33,119,,155,133,4,5,4,4,0.1,0.2
2024-08-25T2300,3463A,116.9708,33.591,宿州市,社会福利中心,,45,41,56,31,33,95,,162,122,9,8,5,6,0.2,0.4
2024-08-25T2300,3634A,116.9884,33.6305,宿州市,宿州学院,,38,38,49,26,31,107,,157,126,8,8,4,3,0.1,0.3
2024-08-25T2300,3701A,116.9648,33.6252,宿州市,皖北煤电集团,,49,45,48,34,38,107,,161,127,7,7,4,4,0.6,0.6
2024-08-25T2300,2266A,126.9785,46.6365,绥化市,人和东街,,24,18,34,8,20,74,,91,72,5,8,5,7,0.4,0.5
2024-08-25T2300,2267A,126.964,46.6528,绥化市,党政办公中心,,24,17,37,3,12,76,,89,72,5,9,12,13,0.4,0.4
2024-08-25T2300,2451A,113.3583,31.7275,随州市,市委党校,,39,39,38,27,25,70,,146,106,13,5,5,7,0.8,0.8
2024-08-25T2300,2452A,113.3833,31.6908,随州市,市林业局,,43,37,32,30,26,58,,144,110,10,4,4,4,0.9,0.8
2024-08-25T2300,2453A,113.3983,31.7308,随州市,市立交桥水厂,,36,35,34,25,24,54,,139,92,13,10,6,6,0.8,0.8
2024-08-25T2300,2527A,105.5453,30.5678,遂宁市,石溪浩,,34,34,32,16,14,60,,110,91,24,16,9,11,0.7,0.6
2024-08-25T2300,2528A,105.5582,30.5232,遂宁市,市监测站,,42,42,30,16,16,42,,113,96,39,19,11,14,0.4,0.3
2024-08-25T2300,2529A,105.5861,30.5366,遂宁市,行政中心,,47,47,29,27,13,62,,115,100,26,14,10,16,0.4,0.3
2024-08-25T2300,2530A,105.5918,30.4728,遂宁市,美宁食品公司,颗粒物(PM10),56,61,41,29,21,31,,107,86,44,27,14,13,0.4,0.2
2024-08-25T2300,2706A,82.9994,46.7432,塔城地区,东门外小游园,,29,29,29,16,11,41,,64,54,4,5,8,8,0.0,0
2024-08-25T2300,1256A,121.419,28.6542,台州市,台州环保大楼,,24,24,30,11,18,64,,111,70,4,7,7,7,0.4,0.5
2024-08-25T2300,1257A,121.377,28.5773,台州市,路桥田洋王,,25,25,29,11,19,56,,116,69,10,9,7,7,0.4,0.4
2024-08-25T2300,3564A,121.2568,28.6681,台州市,台州科技职业学院,,23,23,29,9,15,62,,122,75,7,11,8,8,0.5,0.5
2024-08-25T2300,3618A,112.4719,37.7831,太原市,金胜,,36,36,67,23,40,84,,140,118,15,22,2,4,0.7,0.8
2024-08-25T2300,4010A,112.5608,37.8807,太原市,育英中学,,40,35,63,28,40,81,,116,90,18,26,4,7,0.9,0.9
2024-08-25T2300,1656A,117.1437,36.1937,泰安市,监测站,,46,41,75,32,54,118,,188,148,21,18,14,15,0.9,0.9
2024-08-25T2300,1657A,117.0885,36.2017,泰安市,人口学校,细颗粒物(PM2.5),54,51,61,38,40,134,,190,158,22,11,12,12,0.9,0.8
2024-08-25T2300,1658A,117.1089,36.1758,泰安市,电力学校,颗粒物(PM10),57,63,81,38,44,103,,182,140,21,20,14,15,1.0,0.9
2024-08-25T2300,3502A,117.1812,36.2275,泰安市,国网新校,,42,42,66,27,42,110,,172,135,14,11,11,10,0.9,0.9
2024-08-25T2300,3503A,117.0313,36.2018,泰安市,交通技校,,46,46,62,31,35,140,,190,167,10,14,9,8,1.0,0.9
2024-08-25T2300,3504A,117.0829,36.13,泰安市,山东第一医科大学,颗粒物(PM10),56,61,69,31,44,84,,180,134,27,21,11,8,0.9,0.7
2024-08-25T2300,2997A,119.8767,32.3289,泰州市,王营,,28,22,26,19,19,56,,99,75,12,10,4,6,0.5,0.6
2024-08-25T2300,3295A,120.1259,32.5099,泰州市,姜堰区政府广场,,24,24,26,11,18,69,,97,79,12,11,3,2,0.4,0.3
2024-08-25T2300,3435A,119.9192,32.4322,泰州市,周山河街区,,26,26,24,17,17,56,,94,72,7,6,3,3,0.5,0.5
2024-08-25T2300,1038A,118.1725,39.6334,唐山市,物资局,细颗粒物(PM2.5),54,42,50,38,37,59,,120,80,11,16,3,3,0.8,1
2024-08-25T2300,1040A,118.1705,39.6506,唐山市,十二中,细颗粒物(PM2.5),52,41,42,36,31,65,,124,82,12,18,3,3,0.8,1
2024-08-25T2300,1041A,118.1869,39.622,唐山市,小山,细颗粒物(PM2.5),53,52,52,37,30,61,,123,81,13,20,3,4,0.8,0.9
2024-08-25T2300,3575A,118.09279,39.58089,唐山市,正泰大街热力站,,25,20,39,17,22,46,,119,74,17,19,3,3,0.2,0.6
2024-08-25T2300,3576A,118.1562,39.8322,唐山市,丰润区政府,颗粒物(PM10),55,60,50,38,26,71,,118,82,12,21,3,3,0.9,1
2024-08-25T2300,3577A,118.43673,39.73809,唐山市,金山小学,细颗粒物(PM2.5),53,,40,37,29,75,,120,90,8,14,2,3,1.3,1.2
2024-08-25T2300,3578A,118.24498,39.66941,唐山市,政府服务中心,细颗粒物(PM2.5),58,,43,41,37,46,,119,78,22,25,5,5,0.5,0.8
2024-08-25T2300,3692A,118.2059,39.6585,唐山市,消防缸窑路中队,,49,49,52,34,31,64,,124,77,10,21,4,3,0.6,1
2024-08-25T2300,3693A,118.1436,39.6202,唐山市,路南电大,细颗粒物(PM2.5),57,,46,40,30,82,,126,85,6,15,3,3,0.6,0.9
2024-08-25T2300,1021A,117.307,39.0877,天津市,跃进路,颗粒物(PM10),57,63,41,36,25,34,,117,74,43,25,5,5,1.3,1
2024-08-25T2300,1023A,117.707,39.0343,天津市,第四大街,,37,37,31,3,18,37,,77,57,56,33,4,4,1.1,0.9
2024-08-25T2300,2922A,117.1941,39.1067,天津市,大理道,"颗粒物(PM10),细颗粒物(PM2.5)",52,54,46,36,29,60,,117,88,24,18,4,3,1.2,0.9
2024-08-25T2300,3020A,117.2101,39.1699,天津市,中山北路,细颗粒物(PM2.5),60,63,54,43,38,58,,114,81,22,23,4,4,1.1,1
2024-08-25T2300,3325A,117.0365,39.3828,天津市,雍阳西道,颗粒物(PM10),53,55,53,36,39,44,,108,79,22,24,5,4,1.1,0.7
2024-08-25T2300,3326A,117.0296,39.0605,天津市,辛老路,颗粒物(PM10),52,53,46,32,29,64,,115,89,31,21,7,6,1.5,1
2024-08-25T2300,3327A,116.9638,38.9375,天津市,地纬路,,42,42,35,29,24,67,,121,93,24,19,4,5,0.7,0.5
2024-08-25T2300,3460A,117.4067,40.0583,天津市,北环路,,46,46,36,29,21,87,,124,110,11,13,5,5,1.1,0.8
2024-08-25T2300,3462A,117.8199,39.3521,天津市,滨水东路,颗粒物(PM10),51,52,48,28,23,56,,107,64,8,27,2,4,0.7,0.9
2024-08-25T2300,2650A,105.7205,34.5786,天水市,公园小学,,40,,30,28,21,96,,124,106,7,11,8,8,0.6,0.6
2024-08-25T2300,2651A,105.8945,34.5538,天水市,麦积国土局,,32,24,39,17,22,100,,125,107,9,10,5,7,0.7,0.7
2024-08-25T2300,2216A,123.8139,42.3022,铁岭市,汇工街西,,50,50,20,10,14,0,,109,50,28,11,29,11,0.7,0.6
2024-08-25T2300,2217A,123.8649,42.2923,铁岭市,水上乐园,,24,24,23,3,4,25,,96,53,13,19,2,4,0.6,0.6
2024-08-25T2300,2218A,123.8486,42.2867,铁岭市,银州路东段,,22,22,20,8,7,26,,91,51,13,16,5,6,0.5,0.4
2024-08-25T2300,2219A,123.7153,42.2217,铁岭市,金沙江路北,,26,26,17,9,7,2,,105,47,36,14,6,7,0.6,0.5
2024-08-25T2300,2229A,125.9358,41.7173,通化市,光明,细颗粒物(PM2.5),67,54,35,48,24,12,,125,63,16,11,9,10,0.6,0.9
2024-08-25T2300,2230A,125.9446,41.7325,通化市,铁路,细颗粒物(PM2.5),114,111,34,86,23,15,,118,58,12,12,28,9,0.8,1
2024-08-25T2300,2191A,122.2532,43.6801,通辽市,艺术职业学校,,31,31,24,6,9,44,,76,56,18,11,4,4,0.3,0.3
2024-08-25T2300,3706A,122.2584,43.6333,通辽市,老干部活动中心,,25,25,20,16,15,46,,69,53,18,16,6,6,0.3,0.2
2024-08-25T2300,3708A,122.2922,43.6189,通辽市,东方明珠社区,,39,39,27,23,23,40,,75,51,21,12,4,5,0.4,0.3
2024-08-25T2300,1923A,109.0697,35.0697,铜川市,王益区政府,颗粒物(PM10),51,51,40,18,24,86,,120,99,9,7,5,5,0.4,0.5
2024-08-25T2300,1924A,108.9344,34.9058,铜川市,新区管委会,颗粒物(PM10),58,66,47,18,27,100,,127,105,5,13,6,6,0.5,0.6
2024-08-25T2300,2285A,117.8177,30.9412,铜陵市,市第四中学,,42,42,47,28,27,121,,178,154,11,19,3,2,0.5,0.5
2024-08-25T2300,2286A,117.8059,30.9273,铜陵市,市公路局,,41,40,56,18,24,131,,174,153,8,22,3,4,0.6,0.7
2024-08-25T2300,2287A,117.7807,30.9413,铜陵市,市新民污水厂,,46,46,45,30,30,126,,176,155,12,29,10,11,0.6,0.8
2024-08-25T2300,2288A,117.7439,30.8792,铜陵市,市第九中学,颗粒物(PM10),52,54,66,27,32,117,,166,137,26,41,9,9,0.9,1.1
2024-08-25T2300,2289A,117.846,30.9413,铜陵市,车站新区,颗粒物(PM10),52,54,54,27,32,85,,173,136,26,20,4,4,0.5,0.5
2024-08-25T2300,2290A,117.8483,30.97,铜陵市,市职教基地,细颗粒物(PM2.5),64,54,45,46,32,109,,177,145,14,13,8,7,0.7,0.6
2024-08-25T2300,2585A,109.1839,27.7344,铜仁市,铜仁卫校,,33,33,16,6,6,13,,52,32,26,10,8,8,0.3,0.2
2024-08-25T2300,2586A,109.1753,27.6944,铜仁市,铜仁七中,,20,20,13,13,7,34,,71,52,6,5,2,3,0.2,0.2
2024-08-25T2300,2687A,89.1673,42.9559,吐鲁番市,地区环保局,颗粒物(PM10),66,82,143,34,40,85,,131,122,29,20,4,5,0.6,0.5
2024-08-25T2300,1662A,122.1214,37.4236,威海市,华夏技校,,34,29,28,17,18,108,,141,122,13,15,7,7,0.6,0.6
2024-08-25T2300,1663A,122.0508,37.5236,威海市,山大分校,,41,24,29,22,22,129,,159,147,14,11,13,10,0.7,0.7
2024-08-25T2300,1982A,122.0693,37.2174,威海市,文登开发区,,35,35,32,19,19,76,,143,98,11,13,8,8,0.7,0.8
2024-08-25T2300,3505A,122.1379,37.3414,威海市,临港区管委会,,30,19,24,17,13,94,,149,120,21,15,4,4,0.6,0.7
2024-08-25T2300,1650A,119.1437,36.7023,潍坊市,环保局,细颗粒物(PM2.5),104,107,57,78,35,47,,152,95,30,21,9,8,0.7,0.8
2024-08-25T2300,2877A,119.1641,36.6523,潍坊市,坊子邮政,细颗粒物(PM2.5),73,73,61,53,37,82,,160,104,17,19,12,11,0.8,0.8
2024-08-25T2300,3178A,119.0587,36.721,潍坊市,潍坊七中,细颗粒物(PM2.5),68,73,54,49,32,54,,172,90,25,21,12,11,0.5,0.6
2024-08-25T2300,3368A,119.1977,36.6872,潍坊市,高新实验学校,细颗粒物(PM2.5),67,75,58,48,30,76,,145,98,17,18,7,8,0.6,0.7
2024-08-25T2300,3416A,119.1755,36.7149,潍坊市,潍坊学院,细颗粒物(PM2.5),58,61,55,41,31,100,,162,117,9,14,8,10,0.6,0.8
2024-08-25T2300,3861A,119.2041,36.7699,潍坊市,寒亭区实验一小,细颗粒物(PM2.5),64,68,58,46,38,82,,155,109,19,19,12,12,0.5,0.6
2024-08-25T2300,1939A,109.4974,34.4877,渭南市,日报社,,24,19,34,16,24,76,,128,92,13,13,9,8,0.3,0.4
2024-08-25T2300,1940A,109.4636,34.493,渭南市,体育馆,,26,24,35,15,20,83,,128,93,5,8,8,8,0.5,0.6
2024-08-25T2300,1941A,109.4259,34.5023,渭南市,高新一小,,31,31,45,17,19,73,,123,90,8,9,8,9,0.5,0.7
2024-08-25T2300,1243A,120.6748,27.9939,温州市,南浦,,21,19,30,11,19,67,,144,83,13,11,5,5,0.2,0.3
2024-08-25T2300,1244A,120.76,27.9747,温州市,龙湾,,18,13,28,12,17,56,,118,75,20,14,4,4,0.6,0.7
2024-08-25T2300,1245A,120.6709,28.0167,温州市,市站,,22,22,34,14,21,62,,131,75,14,20,4,4,0.5,0.6
2024-08-25T2300,3561A,120.6985,27.9251,温州市,茶山,,19,16,30,13,17,60,,126,77,10,9,5,5,0.4,0.4
2024-08-25T2300,2610A,104.2533,23.3594,文山壮族苗族自治州,州水务局,,,1,13,,6,27,,49,40,7,8,8,8,0.1,0.1
2024-08-25T2300,2611A,104.2319,23.3892,文山壮族苗族自治州,市便民服务中心,,9,8,13,3,5,28,,48,39,8,9,7,7,0.2,0.2
2024-08-25T2300,2187A,106.8174,39.6973,乌海市,市林业局,,35,35,29,16,21,82,,113,88,11,9,10,9,0.5,0.5
2024-08-25T2300,2188A,106.7907,39.6667,乌海市,中海勃湾学校,,33,33,27,7,11,82,,110,85,12,10,10,9,0.3,0.5
2024-08-25T2300,3284A,106.813,39.7274,乌海市,海北新区,,29,29,27,12,9,86,,123,90,12,10,18,8,0.5,0.5
2024-08-25T2300,3621A,106.8288,39.6778,乌海市,聚英学校,,33,27,27,23,14,82,,127,90,14,11,17,16,0.7,0.6
2024-08-25T2300,2197A,113.1306,40.9923,乌兰察布市,集宁新区,,36,,21,25,21,90,,72,72,6,16,6,8,0.3,0.4
2024-08-25T2300,3034A,113.1076,41.0385,乌兰察布市,光明街小学,,28,19,21,15,18,88,,75,75,10,21,5,11,0.4,0.4
2024-08-25T2300,3285A,113.1376,40.9509,乌兰察布市,北京八中,,30,19,27,3,8,94,,73,73,8,19,6,10,0.3,0.3
2024-08-25T2300,3421A,113.1775,40.9779,乌兰察布市,市委党校,,31,16,19,13,12,99,,79,79,3,12,6,12,0.4,0.4
2024-08-25T2300,1490A,87.5801,43.8303,乌鲁木齐市,监测站,,33,33,55,10,15,88,,118,110,25,28,6,6,0.3,0.4
2024-08-25T2300,1492A,87.4754,43.9469,乌鲁木齐市,新疆农科院农场,颗粒物(PM10),52,53,67,20,23,62,,110,100,12,25,6,8,0.6,0.6
2024-08-25T2300,1493A,87.5525,43.8711,乌鲁木齐市,铁路局,,41,41,51,18,19,86,,117,108,21,24,3,3,0.4,0.4
2024-08-25T2300,3437A,88.3118,43.3658,乌鲁木齐市,达坂城区环保局,,39,39,73,14,25,80,,125,118,14,14,4,5,0.3,0.2
2024-08-25T2300,3438A,87.6162,43.8801,乌鲁木齐市,红光山片区,,30,30,55,17,20,75,,112,103,30,27,6,6,0.4,0.4
2024-08-25T2300,3439A,87.7024,43.8004,乌鲁木齐市,新师大温泉校区,,39,39,52,13,17,95,,124,116,10,7,8,9,0.2,0.2
2024-08-25T2300,3440A,87.4921,43.8411,乌鲁木齐市,大绿谷,,49,49,50,16,19,73,,113,105,38,22,6,7,0.3,0.3
2024-08-25T2300,1189A,120.275,31.6219,无锡市,黄巷,,25,25,38,7,17,45,,181,121,27,20,5,5,0.8,0.8
2024-08-25T2300,1190A,120.294,31.56,无锡市,曹张,,28,28,30,12,21,42,,167,117,26,19,7,5,0.7,0.7
2024-08-25T2300,1191A,120.242,31.5031,无锡市,漆塘,,34,34,39,7,18,43,,167,108,20,18,4,4,0.7,0.8
2024-08-25T2300,1192A,120.3489,31.5863,无锡市,东亭,,24,24,34,12,20,32,,157,102,29,18,6,5,0.8,0.8
2024-08-25T2300,1193A,120.354,31.5475,无锡市,旺庄,,28,24,31,19,20,32,,164,107,28,16,9,8,0.6,0.7
2024-08-25T2300,3428A,120.3142,31.4753,无锡市,华庄,,25,25,33,13,22,37,,171,114,31,20,7,7,0.7,0.7
2024-08-25T2300,2677A,106.1532,37.9648,吴忠市,教育园区,,27,14,18,3,11,86,,96,84,4,4,9,9,0.3,0.4
2024-08-25T2300,2679A,106.1856,37.9956,吴忠市,新区二泵站,,24,8,19,3,12,74,,88,73,10,8,7,7,0.3,0.5
2024-08-25T2300,3648A,106.2112,37.9768,吴忠市,文卫南街,,23,22,19,9,10,72,,87,70,6,6,9,8,0.4,0.5
2024-08-25T2300,1795A,118.3714,31.4134,芜湖市,科创中心,,50,50,45,22,27,97,,184,147,28,22,6,6,0.7,0.7
2024-08-25T2300,1796A,118.3673,31.3131,芜湖市,四水厂,,49,49,48,24,27,120,,183,162,21,18,8,9,0.5,0.5
2024-08-25T2300,3328A,118.4209,31.3707,芜湖市,市气象局,,38,31,41,20,25,120,,188,161,5,6,6,6,0.6,0.7
2024-08-25T2300,3465A,118.4781,31.3225,芜湖市,清苑社区,,36,36,43,21,26,94,,180,129,28,24,6,6,0.6,0.6
2024-08-25T2300,3466A,118.2746,31.2326,芜湖市,扬子职业技术学院,颗粒物(PM10),55,59,46,29,27,131,,197,166,16,12,9,8,0.8,0.7
2024-08-25T2300,2495A,111.3014,23.4832,梧州市,市逸夫小学,,47,47,45,18,23,22,,90,48,27,24,8,13,1.0,1
