timepoint,stationcode,longitude,latitude,area,positionname,primarypollutant,aqi,pm10,pm10_24h,pm2_5,pm2_5_24h,o3,o3_24h,o3_8h,o3_8h_24h,no2,no2_24h,so2,so2_24h,co,co_24h
2024-04-23T1200,2566A,102.1879,31.914,阿坝藏族羌族自治州,州农科所,颗粒物(PM10),69,88,22,16,7,16,,18,15,31,13,3,3,0.9,0.8
2024-04-23T1200,2568A,102.2502,31.8896,阿坝藏族羌族自治州,马师校,,20,19,12,14,13,58,,46,46,18,7,5,5,0.4,0.3
2024-04-23T1200,3994A,102.2165,31.9024,阿坝藏族羌族自治州,马尔康中学西区,,21,20,21,9,16,65,,64,58,15,7,4,4,0.3,0.2
2024-04-23T1200,2695A,80.292,41.1694,阿克苏地区,电视台,颗粒物(PM10),53,56,76,27,34,74,,68,59,17,11,4,6,0.8,0.7
2024-04-23T1200,2696A,80.2613,41.1551,阿克苏地区,艺术中心,,50,50,72,23,31,68,,59,46,21,22,4,4,0.9,0.9
2024-04-23T1200,2204A,105.6467,38.8363,阿拉善盟,西城区西花园,颗粒物(PM10),58,66,273,8,48,122,,93,93,7,6,9,8,0.8,0.9
2024-04-23T1200,2205A,105.6985,38.8411,阿拉善盟,蒙二幼,颗粒物(PM10),61,72,312,22,49,117,,94,94,7,6,9,9,0.3,0.3
2024-04-23T1200,2206A,105.724,38.8516,阿拉善盟,环保局新楼,颗粒物(PM10),76,101,261,24,50,119,,99,99,6,5,8,8,0.4,0.4
2024-04-23T1200,2708A,88.1264,47.8517,阿勒泰地区,市站,,,35,19,5,6,81,,83,69,10,7,,5,0.3,0.3
2024-04-23T1200,2630A,80.1161,32.5,阿里地区,阿里监测站,,45,,15,25,12,142,,136,134,7,7,10,10,0.5,0.5
2024-04-23T1200,3192A,80.0903,32.5028,阿里地区,阿里藏医院,,50,,16,14,10,159,,148,147,4,4,10,10,0.5,0.4
2024-04-23T1200,2642A,109.0318,32.6537,安康市,香溪洞,颗粒物(PM10),70,89,60,29,32,86,,44,44,5,9,6,6,0.4,0.5
2024-04-23T1200,2643A,109.0281,32.6939,安康市,安康市监测站,颗粒物(PM10),66,82,70,32,28,84,,37,37,7,14,8,10,0.5,0.6
2024-04-23T1200,2644A,109.0072,32.6975,安康市,汉滨区检察院,颗粒物(PM10),61,72,66,29,28,79,,36,36,6,14,8,9,0.3,0.4
2024-04-23T1200,2291A,117.0809,30.5177,安庆市,环科院,细颗粒物(PM2.5),62,53,38,44,26,145,,78,78,17,22,17,8,0.7,0.6
2024-04-23T1200,2292A,117.0331,30.5119,安庆市,马山宾馆,细颗粒物(PM2.5),58,55,40,41,29,150,,87,87,18,21,10,8,0.7,0.7
2024-04-23T1200,2294A,116.9896,30.6145,安庆市,安庆大学,,,113,45,68,31,160,,87,87,21,19,25,8,,0.7
2024-04-23T1200,3173A,117.0598,30.5351,安庆市,市人大,细颗粒物(PM2.5),67,66,43,48,30,158,,86,86,16,19,10,6,0.8,0.8
2024-04-23T1200,3123A,105.9408,26.2431,安顺市,凤凰山,,,,25,,17,84,,81,81,,7,7,7,,0.4
2024-04-23T1200,3124A,105.9439,26.2564,安顺市,金钟山,,26,18,25,9,16,81,,75,75,6,7,4,4,0.1,0.2
2024-04-23T1200,3125A,105.8983,26.2481,安顺市,娄家坡,,27,20,36,13,20,84,,80,80,8,8,6,6,0.4,0.4
2024-04-23T1200,1819A,114.3551,36.1017,安阳市,红庙街,颗粒物(PM10),100,150,182,10,47,91,,81,81,2,13,4,9,0.8,1
2024-04-23T1200,1820A,114.361,36.0681,安阳市,银杏小区,颗粒物(PM10),69,87,171,7,38,94,,84,84,2,7,6,9,0.3,0.8
2024-04-23T1200,3141A,114.3922,36.0878,安阳市,信访局,,,81,189,,89,86,,80,80,3,8,2,5,0.2,0.7
2024-04-23T1200,3669A,114.4705,36.0637,安阳市,左辅环卫站,颗粒物(PM10),65,79,182,6,46,88,,79,79,2,16,6,8,0.3,0.7
2024-04-23T1200,3703A,114.2917,36.0949,安阳市,安钢职工学校,颗粒物(PM10),74,98,207,7,44,89,,78,78,6,20,5,9,0.2,0.9
2024-04-23T1200,1748A,123.044,41.1196,鞍山市,深沟寺,,48,48,37,26,18,100,,88,88,9,9,8,8,0.5,0.5
2024-04-23T1200,1749A,123.011,41.0931,鞍山市,太阳城,,44,44,40,26,18,105,,91,91,11,11,7,7,0.6,0.6
2024-04-23T1200,1750A,123.0485,41.1442,鞍山市,太平,颗粒物(PM10),52,53,47,26,23,99,,82,82,14,18,6,6,0.5,0.6
2024-04-23T1200,1751A,122.9642,41.0971,鞍山市,铁西三道街,颗粒物(PM10),52,54,51,31,22,99,,89,89,14,17,4,5,0.7,0.7
2024-04-23T1200,1752A,122.9341,41.0833,鞍山市,铁西工业园区,颗粒物(PM10),51,52,56,26,30,86,,82,82,12,22,7,7,0.5,0.6
2024-04-23T1200,1753A,123.022,41.0821,鞍山市,明达新区,,39,39,42,23,19,98,,90,90,10,11,9,9,0.5,0.6
2024-04-23T1200,2195A,107.4212,40.761,巴彦淖尔市,附二中,颗粒物(PM10),59,68,136,13,30,93,,76,76,4,9,4,4,0.4,0.4
2024-04-23T1200,2196A,107.37,40.7372,巴彦淖尔市,市环保大楼,颗粒物(PM10),58,65,159,20,28,89,,68,68,3,10,3,3,0.3,0.3
2024-04-23T1200,1956A,86.1472,41.7538,巴音郭楞蒙古自治州,孔雀公园,颗粒物(PM10),57,63,82,18,25,93,,62,62,17,34,9,8,0.3,0.4
2024-04-23T1200,1957A,86.1972,41.7166,巴音郭楞蒙古自治州,棉纺厂,颗粒物(PM10),72,94,93,34,25,100,,54,54,8,29,5,4,0.2,0.3
2024-04-23T1200,1958A,86.2357,41.7173,巴音郭楞蒙古自治州,经济开发区,,46,46,82,28,24,103,,73,73,8,14,8,7,0.3,0.3
2024-04-23T1200,2914A,106.7677,31.8794,巴中市,苏山坪,,29,29,41,15,22,64,,52,46,8,6,4,5,0.4,0.3
2024-04-23T1200,3182A,106.7656,31.8545,巴中市,丽阳花园,,31,31,44,19,23,62,,35,35,10,14,6,4,0.4,0.5
2024-04-23T1200,3183A,106.7418,31.8654,巴中市,圣泉水务公司,,31,31,39,19,22,64,,38,38,12,16,6,5,0.5,0.5
2024-04-23T1200,3616A,106.7616,31.8344,巴中市,市中心医院,,29,29,40,16,23,63,,33,33,6,12,6,5,0.4,0.4
2024-04-23T1200,2235A,122.7911,45.6077,白城市,洮北区环保局,颗粒物(PM10),51,52,46,31,18,45,,32,26,16,10,6,5,0.0,0
2024-04-23T1200,2236A,122.8738,45.5725,白城市,市环保局,颗粒物(PM10),51,52,51,31,19,44,,33,30,22,16,6,5,0.3,0.3
2024-04-23T1200,2231A,126.4219,41.9171,白山市,喜丰,,38,26,52,10,17,119,,59,59,4,20,10,14,0.9,1
2024-04-23T1200,2232A,126.4077,41.9419,白山市,环保局,细颗粒物(PM2.5),53,,44,37,18,116,,59,59,10,32,10,11,0.6,0.7
2024-04-23T1200,2647A,104.1724,36.5446,白银市,第三小学,颗粒物(PM10),188,325,333,85,87,92,,72,70,13,15,14,14,0.4,0.5
2024-04-23T1200,2648A,104.1465,36.5482,白银市,动力公司,颗粒物(PM10),176,302,287,92,85,94,,66,66,13,12,16,11,0.3,0.2
2024-04-23T1200,2512A,106.6103,23.9011,百色市,市监测站,,24,24,29,11,17,54,,37,37,14,11,5,8,0.5,0.6
2024-04-23T1200,2513A,106.6538,23.8859,百色市,市中心血站,,25,24,31,11,19,80,,38,38,9,12,4,9,0.4,0.5
2024-04-23T1200,3406A,106.6085,23.8798,百色市,祈福高中,,24,24,30,8,19,63,,37,37,5,8,6,8,0.6,0.7
2024-04-23T1200,2270A,117.396,32.939,蚌埠市,工人疗养院,,,85,66,,30,162,,90,90,16,22,10,11,0.5,0.4
2024-04-23T1200,2271A,117.3605,32.9427,蚌埠市,百货大楼,颗粒物(PM10),68,86,71,46,33,169,,96,96,14,21,7,6,0.6,0.5
2024-04-23T1200,2273A,117.4185,32.8911,蚌埠市,蚌埠学院,"颗粒物(PM10),细颗粒物(PM2.5)",54,58,47,38,30,155,,90,90,12,17,9,8,0.6,0.5
2024-04-23T1200,2274A,117.3533,32.9673,蚌埠市,淮上区政府,细颗粒物(PM2.5),70,73,62,51,39,165,,88,88,9,20,8,8,0.6,0.4
2024-04-23T1200,2275A,117.3145,32.8977,蚌埠市,高新区,臭氧1小时,65,66,54,45,34,172,,99,99,12,14,9,7,0.5,0.3
2024-04-23T1200,3715A,117.3092,32.9314,蚌埠市,蚌埠田家炳中学,颗粒物(PM10),69,88,66,48,34,166,,98,98,10,14,9,7,0.6,0.4
2024-04-23T1200,1585A,109.8756,40.6532,包头市,市环境监测站,颗粒物(PM10),54,58,218,22,34,87,,46,46,12,18,13,13,0.8,0.6
2024-04-23T1200,1587A,109.9991,40.5842,包头市,包头八中,,43,43,206,9,39,88,,40,40,11,24,15,11,0.7,0.6
2024-04-23T1200,1588A,109.8538,40.6821,包头市,青山宾馆,颗粒物(PM10),55,60,156,16,23,77,,42,42,18,18,18,13,1.3,0.9
2024-04-23T1200,1589A,109.8642,40.6288,包头市,惠龙物流,,45,45,186,18,53,76,,41,41,10,20,12,14,0.7,0.8
2024-04-23T1200,1590A,110.0377,40.5546,包头市,东河鸿龙湾,,39,29,159,27,28,87,,44,44,7,22,9,8,0.4,0.5
2024-04-23T1200,3283A,109.9154,40.5685,包头市,滨河大厦,,,28,193,14,43,86,,41,41,,20,10,13,0.4,0.5
2024-04-23T1200,3419A,109.9447,40.6261,包头市,包头市委党校,,30,30,202,11,29,86,,41,41,14,22,17,13,0.7,0.6
2024-04-23T1200,3683A,109.8331,40.6576,包头市,昆区政府,颗粒物(PM10),53,55,176,16,31,79,,46,46,18,21,18,15,1.1,0.7
2024-04-23T1200,1930A,107.185,34.3063,宝鸡市,庙沟村,颗粒物(PM10),407,507,195,120,53,83,,72,72,9,13,8,8,0.5,0.5
2024-04-23T1200,1931A,107.0708,34.3017,宝鸡市,竹园沟,颗粒物(PM10),500,618,156,149,49,105,,67,67,7,10,4,4,0.4,0.4
2024-04-23T1200,1932A,107.1906,34.3672,宝鸡市,三陆医院,颗粒物(PM10),500,600,163,157,53,90,,43,43,14,24,5,7,0.3,0.4
2024-04-23T1200,1933A,107.1431,34.3547,宝鸡市,监测站,颗粒物(PM10),464,564,149,141,49,93,,52,52,14,19,6,7,0.3,0.4
2024-04-23T1200,1934A,107.1186,34.3739,宝鸡市,技工学校,颗粒物(PM10),475,575,152,152,41,75,,48,48,16,15,,7,0.1,0.2
2024-04-23T1200,1935A,107.3906,34.3528,宝鸡市,陈仓区环保局家属楼,颗粒物(PM10),500,630,178,139,46,96,,65,65,8,15,4,4,0.3,0.4
2024-04-23T1200,1936A,107.2058,34.3497,宝鸡市,文理学院,颗粒物(PM10),500,600,164,120,44,103,,57,57,10,16,4,5,0.4,0.5
2024-04-23T1200,1937A,107.2386,34.3622,宝鸡市,三迪小学,颗粒物(PM10),500,618,156,139,45,93,,52,52,11,18,6,7,0.3,0.5
2024-04-23T1200,1051A,115.493,38.8632,保定市,游泳馆,颗粒物(PM10),53,55,143,12,64,88,,94,91,2,7,2,5,0,0.2
2024-04-23T1200,1052A,115.5213,38.8959,保定市,华电二区,,47,47,110,10,62,86,,92,86,5,16,2,5,0.1,0.6
2024-04-23T1200,1053A,115.4713,38.9108,保定市,接待中心,,43,43,123,12,50,84,,94,86,2,10,1,3,0.2,0.5
2024-04-23T1200,1054A,115.4612,38.8416,保定市,地表水厂,细颗粒物(PM2.5),108,,131,81,55,88,,99,92,4,12,3,4,0.2,0.5
2024-04-23T1200,3581A,115.31981,38.95208,保定市,满城区生态环境分局,,46,46,134,14,63,85,,93,88,2,11,2,5,0.1,0.4
2024-04-23T1200,3582A,115.47694,38.76408,保定市,清苑区第二中学,颗粒物(PM10),69,87,145,14,59,89,,98,93,9,18,4,7,0.2,0.4
2024-04-23T1200,3583A,115.62909,39.02311,保定市,徐水物探局,,48,48,112,5,55,90,,96,88,2,11,2,4,0.1,0.3
2024-04-23T1200,4004A,115.4202,38.8656,保定市,双鹰农机,颗粒物(PM10),55,59,112,26,57,93,,104,98,3,10,2,4,0.1,0.3
2024-04-23T1200,4034A,115.5150,38.8590,保定市,植保所站,颗粒物(PM10),52,54,122,18,64,92,,103,97,1,12,3,5,0.3,0.6
2024-04-23T1200,2594A,99.1678,25.1081,保山市,市环境监测站,,,79,71,40,31,127,,79,78,,10,8,7,0.8,0.8
2024-04-23T1200,2595A,99.1711,25.1328,保山市,市环保局,颗粒物(PM10),63,76,69,23,29,123,,90,84,8,6,9,8,0.6,0.6
2024-04-23T1200,1867A,109.1436,21.4086,北海市,海滩公园,,27,20,32,15,13,85,,36,36,9,12,8,9,0.8,0.7
2024-04-23T1200,1868A,109.0981,21.4661,北海市,新市环保局,,29,17,31,17,18,92,,42,42,6,13,7,8,0.7,0.6
2024-04-23T1200,1869A,109.1778,21.5233,北海市,北海工业园,,32,32,41,15,21,82,,37,37,9,14,8,11,0.6,0.6
2024-04-23T1200,3400A,109.1911,21.4415,北海市,龙潭自来水厂,,26,26,32,12,23,83,,31,31,6,11,6,6,0.7,0.6
2024-04-23T1200,1001A,116.3621,39.8784,北京市,万寿西宫,,22,11,61,3,38,70,,66,59,6,17,3,3,0.2,0.6
2024-04-23T1200,1003A,116.4174,39.9289,北京市,东四,,20,9,68,3,43,62,,67,57,10,22,1,3,0.4,0.7
2024-04-23T1200,1004A,116.4072,39.8863,北京市,天坛,,20,10,62,4,43,63,,69,57,9,19,1,2,0.3,0.6
2024-04-23T1200,1005A,116.462,39.9365,北京市,农展馆,,17,8,61,3,40,53,,65,54,15,18,3,4,0.3,0.5
2024-04-23T1200,1006A,116.3392,39.9295,北京市,官园,,24,8,72,2,45,74,,75,65,5,17,2,2,0.1,0.5
2024-04-23T1200,1007A,116.2878,39.9611,北京市,海淀万柳,,22,6,72,2,43,68,,66,61,2,14,4,4,0.3,0.7
2024-04-23T1200,1008A,116.6636,40.135,北京市,顺义新城,,20,5,55,2,33,63,,70,65,5,11,3,3,0.2,0.4
2024-04-23T1200,1009A,116.6275,40.3275,北京市,怀柔镇,,20,9,48,3,23,64,,73,70,7,9,3,3,0.1,0.2
2024-04-23T1200,1010A,116.2296,40.217,北京市,昌平镇,,21,13,64,3,28,65,,52,52,6,20,3,3,0.2,0.4
2024-04-23T1200,1011A,116.3966,39.9821,北京市,奥体中心,,19,7,64,3,39,60,,53,48,5,19,1,2,0.2,0.5
2024-04-23T1200,1012A,116.184,39.9136,北京市,古城,,23,10,63,3,39,72,,69,64,5,19,3,3,0.2,0.6
2024-04-23T1200,3281A,115.9718,40.4529,北京市,延庆夏都,,25,9,52,2,25,77,,73,72,6,6,3,3,0.2,0.3
2024-04-23T1200,3417A,117.0709,40.1465,北京市,平谷新城,,24,5,54,1,31,74,,77,73,2,5,3,3,0.2,0.4
2024-04-23T1200,3418A,116.8336,40.4095,北京市,密云新城,,22,7,46,2,20,69,,71,70,2,6,3,3,0.2,0.3
2024-04-23T1200,3672A,116.1541,39.8204,北京市,丰台云岗,,22,8,63,3,36,68,,60,57,7,15,3,3,0.2,0.5
2024-04-23T1200,3673A,116.6804,39.9081,北京市,通州东关,,18,7,60,2,38,57,,68,58,9,13,3,4,0.2,0.5
2024-04-23T1200,3674A,115.9577,39.7603,北京市,房山燕山,,22,6,57,3,38,70,,86,68,6,13,3,3,0.2,0.5
2024-04-23T1200,3675A,116.4672,39.7733,北京市,大兴旧宫,,18,7,60,3,38,55,,66,57,10,19,3,3,0.3,0.5
2024-04-23T1200,3695A,116.6151,40.3053,北京市,怀柔新城,,21,9,48,3,22,67,,77,74,8,9,3,3,0.2,0.4
2024-04-23T1200,3696A,116.2545,39.8768,北京市,丰台小屯,,21,8,69,2,40,67,,66,59,4,16,3,3,0.1,0.5
2024-04-23T1200,3697A,116.84,40.3844,北京市,密云镇,,19,9,47,3,21,60,,63,62,9,9,5,4,0.2,0.3
2024-04-23T1200,1761A,123.8275,41.3064,本溪市,大峪,,36,34,39,16,20,115,,86,86,4,9,9,9,0.5,0.5
2024-04-23T1200,1762A,123.7567,41.3325,本溪市,溪湖,,47,47,46,15,20,105,,68,68,10,15,10,12,0.5,0.8
2024-04-23T1200,1763A,123.7169,41.3094,本溪市,彩屯,颗粒物(PM10),51,51,51,22,24,90,,64,64,22,24,15,15,1.4,1.4
2024-04-23T1200,1764A,123.7669,41.2864,本溪市,东明,颗粒物(PM10),52,54,41,18,18,102,,78,78,10,13,5,4,0.6,0.6
2024-04-23T1200,1765A,123.7992,41.2664,本溪市,新立屯,,42,42,34,16,17,104,,76,76,7,16,11,11,0.7,0.6
2024-04-23T1200,1766A,123.8142,41.3472,本溪市,威宁,颗粒物(PM10),51,51,49,18,19,80,,55,55,13,19,7,7,0.6,0.6
2024-04-23T1200,2587A,105.2864,27.3125,毕节市,八中,,,19,28,13,17,,,73,71,10,8,6,5,,0.5
2024-04-23T1200,2588A,105.31,27.2944,毕节市,师专,,22,19,29,11,17,70,,78,74,13,9,5,6,0.4,0.4
2024-04-23T1200,3537A,105.3631,27.3533,毕节市,长征村,,29,21,32,13,19,90,,89,88,7,7,7,6,0.6,0.5
2024-04-23T1200,1629A,118.0018,37.3617,滨州市,第二水厂,,36,36,89,19,50,94,,82,82,14,27,4,11,0.7,1.1
2024-04-23T1200,1630A,117.9776,37.393,滨州市,北中新校,,44,44,92,19,46,87,,82,82,12,25,8,14,0.6,0.5
2024-04-23T1200,3514A,117.9378,37.3956,滨州市,中海酒店,,42,31,75,29,57,95,,95,95,10,18,9,13,0.5,0.7
2024-04-23T1200,3515A,117.9378,37.3553,滨州市,开发区一中,,41,41,90,24,51,80,,74,74,11,25,12,16,0.7,0.9
2024-04-23T1200,3516A,118.0917,37.694,滨州市,金海六路,,37,37,88,9,48,94,,87,87,10,16,7,14,0.4,0.6
2024-04-23T1200,4028A,117.9956,37.3753,滨州市,滨州市西街道办事处,,36,36,84,19,57,89,,81,81,13,24,7,14,0.7,1
2024-04-23T1200,2311A,115.8072,33.8399,亳州市,污水处理厂,颗粒物(PM10),280,406,82,50,36,110,,92,92,8,11,10,10,0.2,0.4
2024-04-23T1200,2312A,115.7789,33.8518,亳州市,三国揽胜宫,颗粒物(PM10),142,234,67,50,33,107,,92,92,8,10,9,9,0.5,0.6
2024-04-23T1200,3332A,115.7633,33.8034,亳州市,亳州学院,颗粒物(PM10),222,365,88,41,31,109,,94,94,6,9,11,11,0.4,0.5
2024-04-23T1200,2693A,82.0485,44.8556,博尔塔拉蒙古自治州,市党校,颗粒物(PM10),55,60,61,11,13,84,,64,64,7,7,7,8,0.3,0.3
2024-04-23T1200,2694A,82.0806,44.8969,博尔塔拉蒙古自治州,市环保局,颗粒物(PM10),58,65,72,17,16,80,,49,49,16,19,9,9,0.3,0.3
2024-04-23T1200,1071A,116.8842,38.2991,沧州市,沧县城建局,,26,26,76,6,45,74,,88,82,8,15,1,3,0.4,0.6
2024-04-23T1200,1072A,116.8584,38.3254,沧州市,电视转播站,,32,32,85,5,48,73,,82,78,5,11,8,10,0.1,0.4
2024-04-23T1200,1073A,116.8709,38.3228,沧州市,市环保局,,33,33,83,11,34,80,,90,85,8,13,6,8,0.2,0.4
2024-04-23T1200,3324A,116.8136,38.3004,沧州市,河北水利电力学院,,24,19,85,2,39,76,,,,4,11,6,9,0.3,0.3
2024-04-23T1200,2622A,97.1806,31.1273,昌都市,昌都监测站,,36,13,13,6,8,115,,117,108,5,8,8,8,0.5,0.5
2024-04-23T1200,3719A,97.1714,31.1406,昌都市,昌都会议中心,,35,12,11,8,7,109,,116,104,12,7,9,9,0.5,0.4
2024-04-23T1200,2690A,88.1236,43.8886,昌吉回族自治州,天山天池,,37,11,12,9,5,116,,84,84,5,6,5,5,0.5,0.4
2024-04-23T1200,2692A,87.2717,44.0297,昌吉回族自治州,新区政务中心,,,,38,,13,102,,62,62,11,23,,7,,0.4
2024-04-23T1200,3613A,87.3095,44.0142,昌吉回族自治州,亚心广场,颗粒物(PM10),60,70,48,5,7,105,,60,60,7,21,13,8,0.6,0.6
2024-04-23T1200,1119A,125.3325,43.9166,长春市,食品厂,,46,46,66,12,29,74,,42,31,19,30,8,7,0.4,0.5
2024-04-23T1200,1120A,125.2863,43.9027,长春市,客车厂,,40,40,62,22,26,73,,45,32,19,26,6,5,0.4,0.5
2024-04-23T1200,1121A,125.2841,43.8463,长春市,邮电学院,,37,37,60,20,22,76,,35,34,19,24,8,6,0.4,0.5
2024-04-23T1200,1122A,125.3716,43.8772,长春市,劳动公园,,46,46,62,26,24,82,,45,36,21,27,6,5,0.3,0.4
2024-04-23T1200,1123A,125.3297,43.8805,长春市,园林处,颗粒物(PM10),80,110,57,23,17,75,,46,41,21,25,10,8,0.3,0.5
2024-04-23T1200,1124A,125.4605,43.79,长春市,净月潭,细颗粒物(PM2.5),68,73,56,49,21,85,,48,48,16,10,10,8,0.4,0.3
2024-04-23T1200,1126A,125.3863,43.8447,长春市,经开区环卫处,颗粒物(PM10),56,61,63,30,24,79,,30,28,21,28,7,5,0.5,0.5
2024-04-23T1200,1127A,125.245,43.7783,长春市,高新区管委会,颗粒物(PM10),52,54,58,17,22,78,,30,30,20,25,7,6,0.4,0.4
2024-04-23T1200,1128A,125.1761,43.8325,长春市,岱山公园,,37,37,62,24,29,77,,34,34,20,30,7,6,0.4,0.5
2024-04-23T1200,1335A,113.0833,28.2325,长沙市,经开区环保局,,42,33,52,18,51,134,,110,110,6,13,5,6,0.3,0.6
2024-04-23T1200,1336A,112.8872,28.2189,长沙市,高开区环保局,颗粒物(PM10),72,93,59,24,37,128,,101,101,1,5,4,5,0.6,0.8
2024-04-23T1200,1337A,113.0792,28.2053,长沙市,马坡岭,,,36,54,13,34,126,,104,104,,15,6,7,,0.6
2024-04-23T1200,1338A,112.9394,28.19,长沙市,湖南师范大学,,47,47,56,18,38,131,,108,106,5,5,5,5,0.6,0.8
2024-04-23T1200,1339A,113.0178,28.1322,长沙市,雨花区环保局,,42,42,53,24,36,121,,105,104,7,11,4,4,0.5,0.6
2024-04-23T1200,1340A,112.9792,28.2597,长沙市,伍家岭,,46,46,58,18,47,121,,107,104,7,12,5,5,0.6,0.8
2024-04-23T1200,1341A,113.0014,28.1944,长沙市,火车新站,,,41,55,24,43,124,,109,107,,13,3,3,,0.9
2024-04-23T1200,1342A,112.9844,28.1178,长沙市,天心区环保局,颗粒物(PM10),51,51,57,21,33,102,,89,86,14,16,2,2,0.5,0.6
2024-04-23T1200,1343A,112.8908,28.1308,长沙市,湖南中医药大学,,46,46,53,26,45,124,,97,97,1,5,7,7,0.6,0.9
2024-04-23T1200,1344A,112.9581,28.3611,长沙市,沙坪,,39,,43,22,27,122,,103,97,24,5,8,20,0.3,0.5
2024-04-23T1200,1727A,113.1147,36.1547,长治市,清华站,,45,45,98,2,21,95,,92,92,12,16,8,8,0.3,0.4
2024-04-23T1200,1728A,113.1031,36.1989,长治市,监测站,,38,38,95,7,26,95,,92,92,14,19,12,12,0.2,0.3
2024-04-23T1200,1730A,113.0886,36.2125,长治市,审计局,,,84,103,0,26,93,,90,90,11,16,11,12,,0.1
2024-04-23T1200,1731A,113.0844,36.1856,长治市,长治八中,,40,40,133,4,31,94,,92,92,14,22,6,6,0.3,0.4
2024-04-23T1200,2845A,113.1569,36.1911,长治市,德盛苑,,32,32,101,5,27,95,,91,91,13,13,5,5,0.7,0.8
2024-04-23T1200,3568A,113.06,36.0464,长治市,向阳小学,颗粒物(PM10),76,101,131,20,38,103,,97,97,9,17,11,12,0.2,0.5
2024-04-23T1200,3569A,112.8792,36.3144,长治市,屯留一中,,32,30,101,7,28,102,,93,93,9,13,10,8,0.6,0.4
2024-04-23T1200,3570A,113.235,36.3489,长治市,潞城四中,颗粒物(PM10),57,63,150,7,31,99,,91,91,7,16,7,7,0.3,0.5
2024-04-23T1200,1854A,111.6975,28.9703,常德市,市二中,,49,49,48,22,27,104,,56,56,8,10,9,9,0.4,0.5
2024-04-23T1200,1857A,111.7158,29.1456,常德市,白鹤山,,44,44,60,14,30,109,,75,75,4,5,5,6,0.6,0.7
2024-04-23T1200,3138A,111.7153,29.0289,常德市,武陵区永安,,38,38,44,16,26,109,,57,57,7,9,7,8,0.2,0.4
2024-04-23T1200,3139A,111.6892,28.9881,常德市,鼎城区玉霞,,,35,46,21,28,100,,51,51,,11,10,10,0.4,0.5
2024-04-23T1200,3140A,111.6625,29.0531,常德市,武陵区长庚,,33,31,41,8,29,104,,50,50,5,8,8,11,0.4,0.5
2024-04-23T1200,1196A,119.9633,31.762,常州市,市监测站,细颗粒物(PM2.5),60,68,82,43,38,114,,50,50,21,27,8,9,0.7,0.7
2024-04-23T1200,1200A,119.9468,31.7069,常州市,武进监测站,颗粒物(PM10),60,70,79,29,32,105,,44,44,19,27,15,15,0.8,0.9
2024-04-23T1200,1201A,119.9255,31.9087,常州市,安家,细颗粒物(PM2.5),77,72,63,56,31,104,,41,41,25,24,8,9,1.0,0.9
2024-04-23T1200,3002A,119.9805,31.8174,常州市,行政中心,颗粒物(PM10),63,76,60,43,35,115,,48,48,25,27,8,10,0.8,0.8
2024-04-23T1200,3003A,120.0522,31.7748,常州市,经开区,颗粒物(PM10),69,88,76,49,32,96,,48,48,36,30,9,8,1.2,0.7
2024-04-23T1200,3010A,119.9025,31.7964,常州市,钟楼,,,75,66,40,33,104,,48,48,,29,7,9,1.0,1.1
2024-04-23T1200,3429A,119.8598,31.7066,常州市,武进经发区,,48,48,63,23,34,104,,41,41,16,29,6,7,0.7,1
2024-04-23T1200,3430A,119.5826,31.7245,常州市,金坛城区,,36,22,64,18,25,114,,44,44,12,25,8,8,0.7,0.8
2024-04-23T1200,2220A,120.4318,41.5881,朝阳市,西梁,,31,,35,7,22,97,,91,91,5,8,9,10,0.4,0.4
2024-04-23T1200,2221A,120.4521,41.5646,朝阳市,河畔小区,,,,90,11,46,,,92,92,9,10,8,9,0.5,0.6
2024-04-23T1200,2222A,120.4176,41.5648,朝阳市,八里堡,细颗粒物(PM2.5),52,,48,36,22,95,,88,88,8,12,8,9,0.6,0.6
2024-04-23T1200,2223A,120.3806,41.5969,朝阳市,农业园区,,,1,38,,17,95,,91,91,7,11,7,8,0.4,0.5
2024-04-23T1200,1705A,116.6367,23.6719,潮州市,西园路,,,50,30,11,13,34,,22,16,,12,7,5,0.5,0.3
2024-04-23T1200,3026A,116.6183,23.6608,潮州市,市政府,,,44,31,32,19,57,,31,31,32,20,14,9,,0.9
2024-04-23T1200,4036A,116.6461,23.6761,潮州市,金山,细颗粒物(PM2.5),59,,30,42,21,32,,22,16,31,14,9,7,1.0,0.6
2024-04-23T1200,2472A,113.0073,25.9061,郴州市,马头岭,,46,46,38,21,16,68,,65,65,9,12,4,5,0.7,0.7
2024-04-23T1200,2473A,113.0116,25.8226,郴州市,市职中,细颗粒物(PM2.5),54,41,29,38,26,77,,70,70,8,8,7,8,0.7,0.8
2024-04-23T1200,2474A,113.0161,25.8001,郴州市,兴隆步行街,颗粒物(PM10),52,53,36,30,24,73,,67,67,9,9,5,6,1.0,1
2024-04-23T1200,2475A,113.0383,25.8071,郴州市,市审计局,,50,42,32,35,26,75,,66,66,9,9,4,6,0.7,0.7
2024-04-23T1200,2476A,113.0348,25.7759,郴州市,市环保局,,49,36,35,34,31,74,,64,64,11,13,4,6,0.8,0.9
2024-04-23T1200,1431A,103.9728,30.7236,成都市,金泉两河,,43,43,46,6,17,45,,51,47,29,17,2,1,0.4,0.3
2024-04-23T1200,1432A,104.176,30.6872,成都市,十里店,,35,35,38,15,20,57,,78,72,42,22,4,4,0.7,0.6
2024-04-23T1200,1433A,104.079,30.5706,成都市,三瓦窑,,48,48,47,21,25,39,,57,52,44,27,2,3,0.5,0.4
2024-04-23T1200,1434A,104.1114,30.63,成都市,沙河铺,,41,41,46,10,19,39,,66,57,43,17,3,2,0.4,0.3
2024-04-23T1200,1437A,104.0786,30.6531,成都市,君平街,,,,48,,23,51,,69,65,35,16,,2,,0.6
2024-04-23T1200,1438A,103.613,31.0283,成都市,灵岩寺,,33,10,9,5,14,105,,99,99,8,10,6,8,0.3,0.5
2024-04-23T1200,2880A,104.0239,30.65639,成都市,大石西路,,37,37,46,17,23,39,,64,57,46,23,3,3,0.7,0.6
2024-04-23T1200,3136A,104.2725,30.5589,成都市,龙泉驿区区政府,,25,17,27,7,15,78,,80,78,16,8,3,2,0.3,0.3
2024-04-23T1200,3357A,104.0106,30.6931,成都市,金博路,,,36,45,15,24,47,,53,51,24,18,,2,0.5,0.5
2024-04-23T1200,3359A,104.0578,30.5225,成都市,华阳,,36,36,35,24,26,45,,61,59,30,16,2,1,0.5,0.5
2024-04-23T1200,3487A,104.2394,30.5319,成都市,车城东七路,,25,25,34,12,20,73,,80,80,16,10,4,4,0.4,0.4
2024-04-23T1200,3488A,104.3853,30.7453,成都市,青白江技师分院,,22,21,30,6,18,68,,67,63,26,17,2,2,0.4,0.4
2024-04-23T1200,3489A,104.0789,30.4072,成都市,科学城,,24,24,43,10,25,62,,68,68,16,16,7,3,0.5,0.4
2024-04-23T1200,4011A,103.8506,30.6947,成都市,光华大道三段,颗粒物(PM10),85,120,45,3,22,48,,54,46,22,17,3,3,0.5,0.5
2024-04-23T1200,1062A,117.9531,40.9081,承德市,铁路,,20,,40,3,14,62,,75,72,17,13,6,6,0.2,0.2
2024-04-23T1200,1063A,117.9392,40.9763,承德市,中国银行,,,,39,,12,,,76,74,,12,,8,,0.2
2024-04-23T1200,1064A,117.9503,40.928,承德市,开发区,,23,17,48,7,22,71,,80,77,11,12,6,5,0.3,0.3
2024-04-23T1200,1065A,117.8051,40.9655,承德市,文化中心,,21,15,40,2,10,66,,73,72,12,13,5,6,0.2,0.2
2024-04-23T1200,2314A,117.47,30.6618,池州市,池州学院,,49,33,30,26,23,155,,88,88,10,16,6,5,0.6,0.6
2024-04-23T1200,3237A,117.4918,30.6617,池州市,展览馆,细颗粒物(PM2.5),57,46,34,40,22,156,,84,84,20,20,5,4,0.5,0.5
2024-04-23T1200,3333A,117.5627,30.695,池州市,第八中学,,,44,34,31,22,158,,68,68,,20,,5,0.6,0.6
2024-04-23T1200,3334A,117.5038,30.6243,池州市,第十二中学,颗粒物(PM10),55,60,35,34,21,162,,75,75,10,16,4,4,0.5,0.6
2024-04-23T1200,1744A,118.9233,42.2816,赤峰市,松山一中,,19,15,33,13,13,54,,55,54,35,31,13,15,0.8,0.7
2024-04-23T1200,1745A,118.9576,42.2728,赤峰市,哈达街,,28,,47,19,23,47,,55,54,35,33,25,37,0.8,0.8
2024-04-23T1200,1746A,118.8788,42.2554,赤峰市,天义路,,19,15,31,6,14,59,,63,61,23,27,9,17,0.4,0.4
2024-04-23T1200,3058A,119.2658,42.0353,赤峰市,银河街,,,14,41,10,17,74,,68,68,,20,10,15,0.5,0.5
2024-04-23T1200,3286A,118.9359,42.3147,赤峰市,桥北物流园区,,21,15,37,10,16,65,,54,54,24,33,6,12,0.5,0.5
2024-04-23T1200,2521A,107.3476,22.4136,崇左市,市环保局江州分局,,15,,41,10,22,38,,44,31,5,9,8,8,0.7,0.8
2024-04-23T1200,2522A,107.3702,22.3707,崇左市,城南新区,,12,,34,6,25,38,,43,35,6,11,6,7,0.8,0.9
2024-04-23T1200,2298A,118.3093,32.3153,滁州市,老年大学,细颗粒物(PM2.5),64,50,47,46,32,147,,62,62,16,20,10,8,0.8,0.6
2024-04-23T1200,2299A,118.3244,32.2786,滁州市,人大宾馆,细颗粒物(PM2.5),79,58,42,58,30,143,,58,58,27,27,10,8,0.9,0.7
2024-04-23T1200,3207A,118.3118,32.3038,滁州市,市政府原办公楼,细颗粒物(PM2.5),79,61,45,58,35,151,,62,62,18,21,9,8,0.8,0.6
2024-04-23T1200,3331A,118.3267,32.2634,滁州市,图书馆,细颗粒物(PM2.5),68,,39,49,28,144,,59,59,18,19,12,11,0.9,0.7
2024-04-23T1200,2605A,101.5482,25.0441,楚雄彝族自治州,州环境监测站,,,,53,,32,132,,90,84,7,13,4,9,0.4,0.4
2024-04-23T1200,2606A,101.538,25.0492,楚雄彝族自治州,市经济开发区,颗粒物(PM10),52,53,56,24,30,127,,85,83,7,14,5,6,0.4,0.5
2024-04-23T1200,2548A,107.5277,31.2827,达州市,达州职业技术学院,,48,48,43,8,8,63,,24,24,12,19,5,5,0.6,0.7
2024-04-23T1200,2549A,107.5086,31.2186,达州市,市环境监测站,,46,46,44,19,16,58,,23,23,17,23,6,7,0.5,0.5
2024-04-23T1200,2550A,107.4988,31.2132,达州市,凤凰小区,颗粒物(PM10),54,58,42,27,19,57,,23,23,18,23,6,7,0.6,0.6
2024-04-23T1200,2551A,107.5082,31.1986,达州市,达县机关宾馆,颗粒物(PM10),52,53,39,27,21,48,,19,19,24,28,3,4,0.5,0.5
2024-04-23T1200,2552A,107.4644,31.2124,达州市,市政中心,颗粒物(PM10),55,60,46,34,19,50,,18,18,19,24,6,8,0.8,0.8
2024-04-23T1200,2614A,100.1542,25.7054,大理白族自治州,大理市环境监测站,颗粒物(PM10),58,66,75,28,25,109,,119,110,24,14,7,7,0.6,0.5
2024-04-23T1200,2615A,100.2171,25.5811,大理白族自治州,大理古城,颗粒物(PM10),56,62,58,32,30,130,,108,108,11,12,8,7,0.7,0.6
2024-04-23T1200,1109A,121.612,38.9741,大连市,甘井子,,29,29,36,19,15,80,,66,62,21,21,4,4,0.8,0.7
2024-04-23T1200,1110A,121.565,38.9511,大连市,周水子,,35,35,37,22,20,86,,55,55,19,24,5,8,0.5,0.5
2024-04-23T1200,1111A,121.5637,38.8845,大连市,星海三站,,,58,32,15,16,66,,63,54,21,16,,3,,0.5
2024-04-23T1200,1112A,121.6302,38.9117,大连市,青泥洼桥,,24,24,29,14,16,71,,60,56,20,14,8,8,0.7,0.7
2024-04-23T1200,1113A,121.6251,38.8638,大连市,傅家庄,,22,13,28,9,12,68,,65,58,18,13,6,7,0.6,0.6
2024-04-23T1200,1114A,121.5213,38.8661,大连市,七贤岭,,22,22,32,11,13,56,,58,48,26,19,8,9,0.4,0.4
2024-04-23T1200,1115A,121.2529,38.8061,大连市,旅顺,,23,20,21,16,12,68,,58,55,26,18,8,8,0.5,0.5
2024-04-23T1200,1116A,121.7485,39.1311,大连市,金州,,33,21,24,16,15,103,,87,87,13,8,10,10,0.7,0.6
2024-04-23T1200,1117A,121.7811,39.0496,大连市,开发区,,32,32,39,19,19,98,,73,73,7,12,6,7,0.7,0.6
2024-04-23T1200,1118A,121.9762,39.0631,大连市,双D港,,22,11,26,7,17,68,,79,73,14,12,7,8,0.6,0.6
2024-04-23T1200,1789A,124.81117,46.03138,大庆市,大同区,,50,43,56,35,31,48,,50,40,17,13,7,7,0.6,0.6
2024-04-23T1200,1790A,125.129,46.533,大庆市,龙凤区,,32,32,49,22,25,51,,51,45,18,15,7,6,0.3,0.4
2024-04-23T1200,1791A,124.902,46.408,大庆市,红岗区,,34,34,45,20,24,46,,48,43,18,15,6,6,0.6,0.5
2024-04-23T1200,1792A,125.153,46.586,大庆市,萨尔图区,,36,36,47,14,19,48,,46,40,16,16,8,7,0.2,0.2
2024-04-23T1200,1793A,124.9042,46.6215,大庆市,让胡路区,,30,30,45,16,24,48,,50,48,21,13,8,8,0.4,0.4
2024-04-23T1200,3481A,125.141,46.634,大庆市,萨区政府监测点,,44,44,52,14,18,55,,53,52,19,14,9,8,0.4,0.4
2024-04-23T1200,1723A,113.2994,40.0758,大同市,云冈宾馆,,30,30,146,10,33,86,,76,73,5,9,5,5,0.4,0.4
2024-04-23T1200,1724A,113.3444,40.0917,大同市,大同大学,,25,21,178,10,40,79,,69,68,4,7,8,9,0.4,0.5
2024-04-23T1200,1725A,113.2661,40.1269,大同市,安家小村,,26,17,191,4,38,81,,68,67,3,6,6,6,0.3,0.3
2024-04-23T1200,1726A,113.2711,40.0844,大同市,教育学院,,28,24,204,11,37,87,,76,72,10,12,6,6,0.3,0.3
2024-04-23T1200,3282A,113.3397,40.0597,大同市,大同市卫生学校,,27,19,169,4,30,84,,76,74,8,11,4,5,0.4,0.4
2024-04-23T1200,3565A,113.1367,40.1122,大同市,云冈站,,29,16,177,5,34,90,,71,71,3,6,5,6,0.3,0.3
2024-04-23T1200,3566A,113.1186,40.2556,大同市,图书馆,颗粒物(PM10),167,283,171,,34,,,68,,6,9,10,11,0.1,0.3
2024-04-23T1200,3567A,113.5931,40.0461,大同市,区一中,,35,24,191,24,30,83,,87,79,7,12,5,6,0.4,0.4
2024-04-23T1200,3676A,113.2802,40.0995,大同市,第二人民医院,,28,28,196,7,30,79,,70,68,5,7,7,7,0.3,0.3
2024-04-23T1200,2269A,124.1069,50.4097,大兴安岭地区,科技局,,25,8,47,6,32,78,,66,66,4,9,5,5,0.4,0.6
2024-04-23T1200,3663A,124.1164,50.4278,大兴安岭地区,红旗社区,,26,2,32,1,25,82,,69,69,5,10,8,10,0.5,0.6
2024-04-23T1200,1600A,124.3303,40.0625,丹东市,江湾东路,,46,46,55,23,28,84,,66,66,20,21,11,10,0.6,0.7
2024-04-23T1200,1601A,124.4256,40.1503,丹东市,临江后街,,41,41,52,16,23,97,,63,63,10,14,13,9,0.6,0.7
2024-04-23T1200,1602A,124.3933,40.1461,丹东市,元宝山,,41,41,58,19,25,91,,54,54,17,22,14,10,0.5,0.5
2024-04-23T1200,1603A,124.3633,40.1092,丹东市,民主桥,颗粒物(PM10),54,58,59,19,26,78,,48,48,17,24,18,13,0.7,0.7
2024-04-23T1200,3541A,109.5726,19.5167,儋州市,第一中学子站,,39,32,42,27,24,75,,58,58,3,7,6,6,0.6,0.6
2024-04-23T1200,3542A,109.5567,19.5187,儋州市,东坡学校子站,,36,,36,25,25,75,,54,54,2,6,3,3,0.5,0.5
2024-04-23T1200,2616A,98.5842,24.428,德宏傣族景颇族自治州,德宏州监测站,颗粒物(PM10),69,88,90,15,41,114,,41,41,19,26,2,3,0.7,0.7
2024-04-23T1200,3677A,98.5881,24.4368,德宏傣族景颇族自治州,芒市人民政府综合楼,细颗粒物(PM2.5),70,77,81,51,44,113,,56,54,13,16,10,9,0.7,0.7
2024-04-23T1200,1901A,104.4239,31.1208,德阳市,东山公园,,32,32,38,11,17,61,,73,63,21,7,4,2,0.5,0.4
2024-04-23T1200,1902A,104.3826,31.1317,德阳市,西小区,,,46,37,19,18,,,69,55,48,16,3,2,0.5,0.4
2024-04-23T1200,1904A,104.3553,31.1091,德阳市,耐火材料厂,,43,43,34,14,16,47,,68,49,37,15,5,2,0.4,0.4
2024-04-23T1200,3639A,104.4019,31.1244,德阳市,市教育局,,31,31,33,9,15,55,,69,60,26,10,3,2,0.4,0.4
2024-04-23T1200,1622A,116.3032,37.4674,德州市,儿童乐园,颗粒物(PM10),64,78,115,7,43,90,,97,94,10,14,6,8,0.4,0.7
2024-04-23T1200,1624A,116.2991,37.4451,德州市,监理站,颗粒物(PM10),54,58,107,12,48,94,,103,97,11,13,10,13,0.3,0.6
2024-04-23T1200,3066A,116.2721,37.4379,德州市,九衢泉纯净水厂,颗粒物(PM10),53,56,110,12,41,90,,94,94,12,15,7,8,0.5,0.7
2024-04-23T1200,3371A,116.3728,37.4403,德州市,开发区人民医院,颗粒物(PM10),60,70,110,9,38,92,,100,94,4,12,8,9,0.3,0.6
2024-04-23T1200,3372A,116.3572,37.4094,德州市,太阳城中学,颗粒物(PM10),56,61,104,12,47,89,,93,91,4,10,5,7,0.3,0.5
2024-04-23T1200,3511A,116.5652,37.3319,德州市,陵城艺术中心,颗粒物(PM10),62,73,99,12,41,93,,96,88,6,10,4,6,0.4,0.6
2024-04-23T1200,2621A,99.7056,27.8317,迪庆藏族自治州,迪庆州站,,38,36,35,21,19,119,,101,89,11,12,10,12,0.5,0.5
2024-04-23T1200,3180A,99.7136,27.8094,迪庆藏族自治州,质量技术监督局,,37,37,29,18,13,115,,107,94,11,13,7,6,0.4,0.5
2024-04-23T1200,2663A,104.6241,35.5734,定西市,东关小学,颗粒物(PM10),115,179,164,45,45,99,,53,53,8,19,4,3,0.2,0.3
2024-04-23T1200,2664A,104.6194,35.5934,定西市,供电公司,颗粒物(PM10),112,174,167,46,51,92,,42,42,6,20,4,3,0.2,0.2
2024-04-23T1200,1389A,113.7547,23.0494,东莞市,莞城梨川,,26,25,37,18,27,24,,13,13,39,43,8,8,1.0,1
2024-04-23T1200,1390A,113.7944,23.0128,东莞市,东城石井,,,27,34,19,20,22,,10,10,,31,7,6,,0.7
2024-04-23T1200,1391A,113.7383,22.9658,东莞市,南城西平,,28,24,29,19,19,18,,14,10,44,36,11,10,1.0,0.9
2024-04-23T1200,3319A,113.7338,23.0381,东莞市,万江金泰,,29,26,36,20,24,20,,10,10,35,44,7,8,1.0,1
2024-04-23T1200,3626A,113.7533,23.0202,东莞市,南城元岭,,22,20,33,15,25,24,,14,14,32,42,7,7,0.9,0.9
2024-04-23T1200,3627A,113.7875,23.0457,东莞市,东城主山,,32,30,47,22,30,18,,7,7,42,48,10,10,0.9,1
2024-04-23T1200,1666A,118.6614,37.4309,东营市,市环保局,,39,39,71,19,38,108,,86,86,12,18,6,12,0.2,0.5
2024-04-23T1200,3036A,118.6904,37.4338,东营市,开发区管委会,,,37,67,19,40,,,80,77,18,26,2,8,0.2,0.5
2024-04-23T1200,3365A,118.5719,37.565,东营市,垦利区民丰路,,46,46,70,17,36,108,,92,92,12,19,9,12,0.5,0.8
2024-04-23T1200,3498A,118.5055,37.8612,东营市,河口城区,,48,48,72,13,50,112,,92,92,6,13,4,6,0.4,0.6
2024-04-23T1200,3646A,118.4978,37.4623,东营市,胜利站,,37,37,63,17,36,104,,91,91,13,19,9,10,0.5,0.8
2024-04-23T1200,3734A,118.35,37.26,东营市,理想之城,,45,36,75,31,41,104,,84,84,13,21,8,11,0.5,0.8
2024-04-23T1200,1591A,110.0023,39.8129,鄂尔多斯市,综合楼,,28,27,263,5,39,89,,76,76,8,10,4,3,0.4,0.4
2024-04-23T1200,1592A,109.9486,39.8261,鄂尔多斯市,巴音孟克林场办事处,,28,24,264,5,37,87,,71,71,5,9,6,6,0.4,0.4
2024-04-23T1200,1593A,109.7736,39.5986,鄂尔多斯市,康泽苑,,30,24,219,7,32,95,,71,71,5,8,4,4,0.4,0.4
2024-04-23T1200,1594A,109.8119,39.5989,鄂尔多斯市,华泰汽车城,,31,31,207,9,33,93,,70,70,6,8,7,7,0.4,0.4
2024-04-23T1200,1595A,109.9734,39.7884,鄂尔多斯市,奥林花园,,29,27,253,7,35,90,,71,71,6,10,10,6,0.4,0.4
2024-04-23T1200,2436A,114.8938,30.3994,鄂州市,市政府,,50,50,69,30,36,125,,96,96,14,20,9,12,0.4,0.7
2024-04-23T1200,2437A,114.8989,30.3714,鄂州市,赵家坝,,42,32,65,24,38,133,,108,108,13,15,12,9,1.0,0.7
2024-04-23T1200,3654A,114.8094,30.4089,鄂州市,精准医疗中心,,,,91,,41,123,,97,97,13,18,5,7,0.4,0.7
2024-04-23T1200,2454A,109.4978,30.2981,恩施土家族苗族自治州,湖北民院,,,,45,,20,53,,30,30,,22,,6,0.7,0.8
2024-04-23T1200,2455A,109.4707,30.2798,恩施土家族苗族自治州,州电力总公司,,35,35,37,19,20,58,,30,30,11,16,8,8,0.6,0.7
2024-04-23T1200,3549A,109.5061,30.3772,恩施土家族苗族自治州,龙凤新区,,25,25,36,14,17,61,,35,35,10,12,6,6,0.6,0.7
2024-04-23T1200,2499A,108.3411,21.6158,防城港市,沙万,,35,35,43,19,26,53,,48,42,10,20,3,10,0.7,1
2024-04-23T1200,2500A,108.3514,21.7731,防城港市,防城档案局,,28,28,56,8,28,50,,24,24,10,21,3,5,0.7,1
2024-04-23T1200,2501A,108.3506,21.6414,防城港市,大海花园,,36,36,41,15,20,56,,48,40,9,16,5,10,0.7,0.9
2024-04-23T1200,1371A,113.1294,23.0067,佛山市,湾梁,,22,22,31,13,15,18,,12,12,43,48,8,8,0.4,0.3
2024-04-23T1200,1372A,113.1083,23.0478,佛山市,华材职中,,27,17,30,15,18,11,,10,10,54,48,9,9,0.7,0.6
2024-04-23T1200,1373A,113.144,23.0453,佛山市,南海气象局,,32,32,34,18,23,12,,6,6,44,46,7,7,0.8,0.7
2024-04-23T1200,1374A,113.2881,22.8094,佛山市,顺德苏岗,,39,,22,27,19,6,,6,6,49,47,4,4,0.7,0.7
2024-04-23T1200,1376A,112.8383,22.8678,佛山市,高明孔堂,,13,12,28,7,16,39,,22,22,23,20,7,7,0.7,0.8
2024-04-23T1200,1377A,112.8836,23.1588,佛山市,三水监测站,,22,22,48,14,27,21,,16,16,44,52,5,6,0.7,0.8
2024-04-23T1200,1378A,112.867,23.185,佛山市,三水云东海,,35,,40,24,32,26,,11,11,42,46,4,3,0.6,0.7
2024-04-23T1200,3625A,113.2544,22.7642,佛山市,容桂街道办,,,,33,29,24,8,,17,14,56,51,,6,0.8,0.7
2024-04-23T1200,1282A,119.2681,26.0504,福州市,师大,颗粒物(PM10),51,51,24,29,14,34,,60,54,36,20,3,3,0.6,0.5
2024-04-23T1200,1283A,119.2984,26.1028,福州市,五四北路,,,53,27,39,16,40,,57,51,,21,,3,0.5,0.3
2024-04-23T1200,1284A,119.2648,26.0768,福州市,杨桥西路,细颗粒物(PM2.5),52,49,23,36,15,40,,62,57,31,21,3,3,0.6,0.5
2024-04-23T1200,1285A,119.317,26.0746,福州市,紫阳,细颗粒物(PM2.5),63,60,22,45,16,32,,54,43,40,24,3,3,0.7,0.4
2024-04-23T1200,3048A,119.5799,26.0936,福州市,九龙,,28,17,16,11,9,88,,86,84,10,10,4,3,0.4,0.4
2024-04-23T1200,3526A,119.5189,25.9664,福州市,吴航,细颗粒物(PM2.5),54,46,22,38,15,74,,74,72,13,10,3,3,0.5,0.4
2024-04-23T1200,1755A,123.7977,41.8491,抚顺市,望花区,颗粒物(PM10),53,55,67,16,30,123,,67,67,8,21,6,9,0.2,0.4
2024-04-23T1200,1756A,123.9161,41.8822,抚顺市,顺城区,颗粒物(PM10),51,52,75,16,33,125,,70,70,10,28,7,9,0.4,0.5
2024-04-23T1200,1757A,124.0436,41.8611,抚顺市,东洲区,,,33,48,19,31,117,,88,88,,10,3,5,0.6,0.6
2024-04-23T1200,1758A,123.9247,41.8642,抚顺市,新抚区,颗粒物(PM10),54,58,63,16,27,112,,63,63,6,17,11,11,0.4,0.7
2024-04-23T1200,1759A,124.0972,41.8961,抚顺市,大伙房水库,,46,46,49,12,26,120,,87,87,5,11,6,8,0.5,0.6
2024-04-23T1200,1760A,123.7086,41.8391,抚顺市,沈抚新城,颗粒物(PM10),51,52,66,13,30,112,,58,58,6,21,6,8,0.5,0.6
2024-04-23T1200,2376A,116.2127,28.0814,抚州市,桐源党溪,,41,41,36,20,19,108,,88,88,5,6,5,6,0.6,0.5
2024-04-23T1200,2377A,116.3544,27.9831,抚州市,市站,,42,42,37,28,24,100,,99,99,11,12,4,8,0.8,0.7
2024-04-23T1200,2378A,116.3565,27.963,抚州市,血防站,,39,37,39,27,22,108,,108,108,12,11,2,5,0.9,0.9
2024-04-23T1200,2379A,116.3564,28.0007,抚州市,采茶剧团,,42,41,35,29,22,99,,102,101,10,10,3,6,0.9,0.8
2024-04-23T1200,2380A,116.385,27.9647,抚州市,医学分院,,48,48,39,20,18,96,,95,94,10,9,8,12,0.9,0.9
2024-04-23T1200,2207A,121.6094,41.998,阜新市,工业园区,,,,57,11,16,86,,85,85,,17,11,11,,0.7
2024-04-23T1200,2208A,121.6697,42.0279,阜新市,长青街,,23,23,50,11,20,69,,77,77,20,16,20,11,0.6,0.6
2024-04-23T1200,2209A,121.6673,42.0705,阜新市,农业园区,,35,35,51,19,20,88,,88,88,12,16,5,10,0.4,0.5
2024-04-23T1200,2210A,121.6717,42.0224,阜新市,东苑,,23,20,53,14,28,72,,83,83,24,17,22,18,0.4,0.5
2024-04-23T1200,2211A,121.6506,42.0498,阜新市,玉龙新城,,25,20,50,11,15,80,,84,84,14,15,8,12,0.5,0.6
2024-04-23T1200,2301A,115.8277,32.8929,阜阳市,市监测站,颗粒物(PM10),76,101,77,43,42,132,,93,93,12,17,10,9,0.6,0.5
2024-04-23T1200,2303A,115.8554,32.8605,阜阳市,开发区,颗粒物(PM10),81,112,81,38,39,136,,95,95,9,19,8,7,0.4,0.5
2024-04-23T1200,2875A,115.784,32.8892,阜阳市,阜阳职业技术学院,颗粒物(PM10),87,123,72,33,34,132,,104,104,11,16,8,7,0.4,0.5
2024-04-23T1200,3468A,115.7901,32.8613,阜阳市,市规划展馆,颗粒物(PM10),67,83,65,36,41,134,,96,96,8,16,7,7,0.5,0.5
2024-04-23T1200,3469A,115.836,32.9183,阜阳市,枣园社区,颗粒物(PM10),66,82,74,40,47,132,,96,96,9,15,11,7,0.4,0.4
2024-04-23T1200,2669A,102.9099,34.9841,甘南藏族自治州,州政府,,35,35,42,20,23,106,,50,50,2,14,7,8,0.4,0.4
2024-04-23T1200,3380A,102.8914,34.9617,甘南藏族自治州,甘肃民族师范学院,,33,33,45,17,16,105,,42,42,14,26,16,11,0.3,0.3
2024-04-23T1200,2570A,101.9603,30.0475,甘孜藏族自治州,水桥子,,28,6,8,6,5,88,,73,73,10,11,2,2,0.2,0.2
2024-04-23T1200,3065A,101.9533,29.9972,甘孜藏族自治州,州环保局,,27,,10,7,5,86,,69,69,14,15,2,2,0.2,0.2
2024-04-23T1200,3414A,115.8347,28.932,赣江新区,桑海产业园,,41,41,30,23,18,115,,91,90,10,23,7,7,0.7,0.6
2024-04-23T1200,2363A,114.9367,25.8664,赣州市,地委,,21,,21,10,14,66,,45,45,7,7,1,2,0.9,0.9
2024-04-23T1200,2364A,114.9461,25.8481,赣州市,气象台,,25,21,23,17,14,64,,38,38,4,8,2,7,0.8,0.8
2024-04-23T1200,2365A,114.9322,25.8333,赣州市,市图书馆,,22,12,22,7,13,69,,42,42,4,7,10,14,1.2,1.1
2024-04-23T1200,2366A,114.8905,25.8471,赣州市,华坚鞋城,,29,29,28,18,16,59,,28,28,10,11,7,9,0.6,0.6
2024-04-23T1200,3109A,115.0093,25.8613,赣州市,赣县区卫计委,,29,29,23,20,14,66,,37,37,10,12,11,11,0.7,0.7
2024-04-23T1200,2683A,106.2319,36.1417,固原市,马园,细颗粒物(PM2.5),253,366,369,203,77,96,,57,57,15,24,5,7,0.1,0.2
2024-04-23T1200,2684A,106.2792,36.0022,固原市,监测站,颗粒物(PM10),205,353,357,110,89,92,,69,69,11,16,2,4,0.2,0.2
2024-04-23T1200,2685A,106.2375,36.0211,固原市,新区,颗粒物(PM10),191,332,325,88,83,97,,68,68,10,14,3,3,0.1,0.1
2024-04-23T1200,3522A,106.2177,35.9959,固原市,原州区十五小,颗粒物(PM10),149,248,323,66,83,111,,88,88,7,13,1,2,0.0,0.1
2024-04-23T1200,2544A,106.6303,30.4576,广安市,市委,颗粒物(PM10),55,60,39,20,17,60,,34,34,10,12,6,6,0.6,0.6
2024-04-23T1200,2545A,106.6271,30.4663,广安市,友谊中学,,30,30,29,16,16,59,,38,38,11,11,5,5,0.6,0.6
2024-04-23T1200,2547A,106.6388,30.4551,广安市,广电花园,,36,36,31,18,16,58,,33,33,9,9,6,6,0.6,0.6
2024-04-23T1200,2902A,106.6351,30.4865,广安市,北辰小学,,41,41,34,18,16,56,,32,32,12,8,6,6,0.6,0.6
2024-04-23T1200,2523A,105.8945,32.4535,广元市,黑石坡,,22,14,28,6,15,69,,63,54,14,11,6,7,0.3,0.3
2024-04-23T1200,2524A,105.821,32.4444,广元市,老城,,40,40,44,3,16,73,,50,40,11,18,5,9,0.4,0.6
2024-04-23T1200,2526A,105.8628,32.4287,广元市,监测站,,,,37,11,20,,,60,42,20,12,12,8,0.5,0.5
2024-04-23T1200,3617A,105.8047,32.4166,广元市,经开区,,36,36,48,16,23,73,,52,40,14,17,16,13,0.7,0.7
2024-04-23T1200,1345A,113.2347,23.1423,广州市,广雅中学,,31,22,30,18,21,8,,7,7,61,59,5,5,1.3,1
2024-04-23T1200,1346A,113.2612,23.105,广州市,市五中,,22,20,30,15,26,24,,12,12,42,51,6,7,0.9,0.8
2024-04-23T1200,1348A,113.3478,23.0916,广州市,广东商学院,,25,23,32,17,22,12,,6,6,50,53,4,4,0.8,0.7
2024-04-23T1200,1349A,113.4332,23.1047,广州市,市八十六中,,24,23,32,16,18,9,,6,6,47,61,4,6,0.8,0.7
2024-04-23T1200,1350A,113.3505,22.9483,广州市,番禺中学,,27,25,24,18,16,13,,8,8,53,53,4,4,0.9,0.8
2024-04-23T1200,1351A,113.2146,23.3916,广州市,花都师范,,14,6,32,4,22,43,,15,15,28,51,6,6,0.8,0.9
2024-04-23T1200,1352A,113.2597,23.1331,广州市,市监测站,,28,21,32,18,21,8,,6,6,55,54,6,6,0.9,0.7
2024-04-23T1200,1353A,113.5618,23.312,广州市,九龙镇镇龙,,12,10,30,7,22,28,,19,19,24,29,6,6,0.7,0.8
2024-04-23T1200,1354A,113.2765,23.1544,广州市,麓湖,,,21,30,17,22,,,3,3,50,46,4,5,,0.8
2024-04-23T1200,1355A,113.443,23.3035,广州市,帽峰山森林公园,,15,5,29,3,18,46,,29,29,14,29,4,5,0.6,0.7
2024-04-23T1200,2846A,113.3221,23.1322,广州市,体育西,,26,23,30,18,22,14,,6,6,43,47,6,6,1.0,0.8
2024-04-23T1200,3298A,113.5717,23.5491,广州市,从化街口,,15,6,25,5,18,48,,41,41,17,23,4,4,0.5,0.6
2024-04-23T1200,3299A,113.3472,23.3692,广州市,白云竹料,,18,2,35,2,24,55,,19,19,18,35,6,6,0.7,0.8
2024-04-23T1200,3300A,113.2981,23.237,广州市,白云嘉禾,,26,21,32,13,20,14,,10,10,52,59,5,5,1.0,0.9
2024-04-23T1200,3301A,113.4256,23.1716,广州市,黄埔科学城,,28,23,33,19,24,8,,9,9,48,56,4,5,0.9,0.9
2024-04-23T1200,3302A,113.3942,23.0483,广州市,番禺大学城,,30,30,32,18,16,7,,4,4,45,50,2,3,0.8,0.6
2024-04-23T1200,3303A,113.4922,22.8168,广州市,南沙黄阁,,39,34,27,27,20,11,,19,16,61,48,6,6,0.9,0.7
2024-04-23T1200,3304A,113.5342,22.7896,广州市,南沙街,,30,21,26,21,18,12,,23,21,48,42,7,6,0.8,0.7
2024-04-23T1200,3443A,113.2902,23.5544,广州市,花都梯面,,15,2,25,1,15,46,,37,37,15,23,5,6,0.6,0.7
2024-04-23T1200,3445A,113.7858,23.7478,广州市,从化良口,,18,1,17,0,11,57,,46,46,9,11,5,4,0.6,0.6
2024-04-23T1200,3446A,113.8051,23.2614,广州市,增城荔城,,,10,37,7,26,35,,21,21,,25,6,6,0.6,0.5
2024-04-23T1200,2505A,109.568,23.1478,贵港市,德智高中,,18,14,36,11,23,56,,40,40,6,20,5,6,0.7,0.7
2024-04-23T1200,2506A,109.6047,23.0666,贵港市,江南子站,,22,22,38,12,27,56,,41,41,6,16,6,9,0.5,0.7
2024-04-23T1200,2507A,109.6014,23.0948,贵港市,贵城子站,,24,24,45,12,29,52,,38,38,7,15,6,8,0.6,0.6
2024-04-23T1200,2508A,109.5669,23.1065,贵港市,荷城子站,,24,24,38,9,24,55,,36,36,4,14,8,10,0.6,0.7
2024-04-23T1200,3405A,109.5886,23.1172,贵港市,新世纪学校,,22,22,40,10,27,55,,40,40,8,13,9,9,0.6,1
2024-04-23T1200,1439A,106.6899,26.5998,贵阳市,马鞍山,,24,24,31,5,13,55,,38,38,11,14,8,7,0.4,0.4
2024-04-23T1200,1440A,106.6971,26.5694,贵阳市,市环保站,,,,33,,24,80,,69,69,15,16,5,4,,0.4
2024-04-23T1200,1441A,106.6243,26.6266,贵阳市,鉴湖路,,27,27,31,5,14,77,,71,71,7,8,2,3,0.4,0.4
2024-04-23T1200,1442A,106.7487,26.6343,贵阳市,燕子冲,,26,17,33,12,20,81,,66,66,8,10,6,6,0.4,0.5
2024-04-23T1200,1443A,106.6555,26.4365,贵阳市,碧云窝,,27,27,35,9,16,85,,64,64,12,13,6,5,0.4,0.4
2024-04-23T1200,1444A,106.694,26.5161,贵阳市,中院村,,29,29,34,14,18,80,,69,69,9,12,8,8,0.4,0.4
2024-04-23T1200,1445A,106.7109,26.6027,贵阳市,红边门,,,27,36,,25,87,,76,76,13,16,3,5,0.3,0.4
2024-04-23T1200,1446A,106.7164,26.5699,贵阳市,新华路,,28,19,30,14,21,87,,74,74,8,11,4,3,0.3,0.4
2024-04-23T1200,1447A,106.674,26.5424,贵阳市,太慈桥,,,22,26,9,14,59,,50,50,9,13,,7,,0.3
2024-04-23T1200,1862A,110.4144,25.3167,桂林市,电子科大尧山校区,,36,,40,25,27,95,,74,74,4,6,5,5,0.8,0.9
2024-04-23T1200,1863A,110.2819,25.2697,桂林市,监测站,,41,41,44,24,19,85,,61,61,8,17,8,11,0.5,0.7
2024-04-23T1200,1864A,110.3089,25.2708,桂林市,龙隐路小学,,43,38,37,30,24,86,,63,63,5,14,6,11,0.5,0.7
2024-04-23T1200,1865A,110.2869,25.2178,桂林市,八中,,42,41,38,29,26,86,,57,57,6,18,6,8,0.7,0.8
2024-04-23T1200,3403A,110.1764,25.2381,桂林市,创业大厦,,39,36,41,27,30,92,,47,47,6,18,12,19,0.8,1
2024-04-23T1200,3531A,110.296,25.1253,桂林市,旅游学院,,35,27,26,24,20,87,,55,55,4,12,7,7,0.8,1
2024-04-23T1200,2674A,100.2561,34.4714,果洛藏族自治州,玛沁县大武镇,,31,26,30,8,17,98,,82,82,10,10,12,11,0.4,0.4
2024-04-23T1200,1129A,126.5422,45.755,哈尔滨市,岭北,颗粒物(PM10),51,51,91,34,72,79,,66,66,27,30,20,21,0.2,0.5
2024-04-23T1200,1130A,126.561,45.8167,哈尔滨市,松北商大,,49,49,93,30,67,71,,56,56,26,27,6,8,0.5,0.7
2024-04-23T1200,1131A,126.979,45.5419,哈尔滨市,阿城会宁,,41,41,120,19,83,96,,68,68,12,22,3,9,0.5,0.8
2024-04-23T1200,1132A,126.599,45.7222,哈尔滨市,南岗学府路,颗粒物(PM10),54,58,123,27,74,79,,62,62,28,27,10,13,0.5,0.7
2024-04-23T1200,1133A,126.689,45.7733,哈尔滨市,太平宏伟公园,颗粒物(PM10),57,64,112,27,67,83,,65,62,26,25,7,10,0.4,0.6
2024-04-23T1200,1134A,126.635,45.7667,哈尔滨市,道外承德广场,,,,119,,70,66,,55,55,39,37,,10,0.3,0.6
2024-04-23T1200,1135A,126.685,45.7319,哈尔滨市,香坊红旗大街,颗粒物(PM10),52,54,123,24,82,98,,53,53,13,33,8,12,0.4,0.7
2024-04-23T1200,1136A,126.6411,45.7258,哈尔滨市,动力和平路,,,,114,,66,83,,58,58,,31,7,11,,0.8
2024-04-23T1200,1137A,126.593,45.7478,哈尔滨市,道里建国路,细颗粒物(PM2.5),62,70,110,44,88,66,,55,53,37,35,10,14,0.3,0.8
2024-04-23T1200,1138A,126.615,45.61,哈尔滨市,平房东轻厂,,46,46,127,25,78,98,,68,68,11,29,6,12,0.3,0.6
2024-04-23T1200,1139A,126.595,45.9855,哈尔滨市,呼兰师专,,44,44,106,17,62,78,,61,61,23,29,6,8,0.3,0.6
2024-04-23T1200,1140A,126.6206,45.6842,哈尔滨市,省农科院,,,56,134,38,86,92,,57,57,,42,10,13,,0.7
2024-04-23T1200,2688A,93.5128,42.8172,哈密市,地区监测站,颗粒物(PM10),71,91,133,18,48,81,,52,52,12,29,6,4,0.2,0.4
2024-04-23T1200,2689A,93.4961,42.8328,哈密市,哈密师范学校,颗粒物(PM10),80,110,167,32,54,76,,40,40,13,32,9,7,0.4,0.9
2024-04-23T1200,2671A,100.9048,36.9639,海北藏族自治州,海晏县西海镇,,,28,33,16,14,,,57,57,12,15,23,14,0.4,0.4
2024-04-23T1200,3867A,102.0738,36.5056,海东市,平安区公安北苑,,48,48,32,17,13,109,,55,55,11,11,17,9,0.7,0.5
2024-04-23T1200,1410A,110.3232,20.0574,海口市,海南大学,,48,48,22,31,13,83,,46,46,13,9,6,5,0.5,0.4
2024-04-23T1200,1411A,110.283,20.0053,海口市,秀英海南医院,,48,48,27,26,13,85,,48,48,18,15,6,5,0.4,0.3
2024-04-23T1200,1412A,110.338,19.9969,海口市,海南师范大学,,39,39,23,26,13,93,,49,49,15,7,6,6,0.5,0.4
2024-04-23T1200,1413A,110.33,20.0356,海口市,龙华路环保局宿舍,,40,35,26,28,13,83,,47,47,14,8,7,6,0.4,0.3
2024-04-23T1200,3539A,110.5111,19.9736,海口市,桂林洋子站,,38,,21,26,13,80,,42,42,10,7,5,5,0.3,0.3
2024-04-23T1200,2673A,100.6188,36.2866,海南藏族自治州,共和县恰卜恰镇,,32,,51,21,19,102,,67,67,5,19,10,11,0.4,0.5
2024-04-23T1200,2676A,97.3731,37.3753,海西蒙古族藏族自治州,德令哈市,,38,30,28,11,13,120,,118,113,9,5,13,10,0.6,0.5
2024-04-23T1200,1048A,114.5302,36.6116,邯郸市,东污水处理厂,,26,19,120,9,47,82,,75,75,10,19,5,7,0.1,0.6
2024-04-23T1200,1049A,114.4918,36.5713,邯郸市,矿院,,,96,96,2,40,,,78,78,7,16,6,7,0.4,0.9
2024-04-23T1200,1050A,114.484,36.6133,邯郸市,丛台公园,,28,28,104,2,39,88,,72,72,9,16,6,9,0.2,0.7
2024-04-23T1200,3458A,114.7895,36.5593,邯郸市,香泉濮院小区,颗粒物(PM10),69,88,125,4,38,95,,76,76,8,17,5,6,0,0.3
2024-04-23T1200,3579A,114.50634,36.77178,邯郸市,永年区实验高中,,30,29,136,2,45,93,,83,83,15,22,8,10,0.2,0.7
2024-04-23T1200,3580A,114.20016,36.44293,邯郸市,峰峰矿区临水派出所,,30,26,132,0,47,93,,93,93,6,12,8,15,0.6,1.1
2024-04-23T1200,2634A,106.9893,33.1842,汉中市,汉川机床厂子校,颗粒物(PM10),54,58,51,23,21,61,,68,59,6,7,7,9,1.0,0.7
2024-04-23T1200,2635A,107.0154,33.0706,汉中市,市监测站,,50,50,61,24,30,62,,66,58,22,15,24,13,0.7,0.6
2024-04-23T1200,2636A,107.0089,33.1138,汉中市,鑫源开发区,颗粒物(PM10),52,53,61,16,24,60,,65,56,21,17,43,21,0.9,0.6
2024-04-23T1200,2637A,107.007,33.0323,汉中市,南郑大河坎水厂,,42,42,63,15,25,67,,60,50,11,13,8,9,0.5,0.6
2024-04-23T1200,1223A,120.2072,30.2111,杭州市,滨江,,22,11,37,5,18,69,,65,65,23,25,4,4,0.5,0.5
2024-04-23T1200,1224A,120.0633,30.2747,杭州市,西溪,,,11,26,8,16,,,51,51,27,24,6,6,0.7,0.7
2024-04-23T1200,1226A,120.3461,30.3153,杭州市,下沙,,25,9,27,3,16,79,,59,55,25,29,4,4,0.5,0.5
2024-04-23T1200,1227A,120.1269,30.2456,杭州市,卧龙桥,,21,13,26,9,22,67,,60,60,22,22,4,4,0.6,0.6
2024-04-23T1200,1228A,120.1903,30.2692,杭州市,浙江农大,,,8,22,5,18,56,,55,55,,29,,4,0.6,0.6
2024-04-23T1200,1230A,120.1197,30.3119,杭州市,和睦小学,,24,9,24,7,16,74,,64,64,24,26,7,8,0.7,0.7
2024-04-23T1200,1231A,120.3019,30.4183,杭州市,临平镇,,20,20,39,11,31,62,,67,61,22,18,4,4,0.6,0.5
2024-04-23T1200,1232A,120.2697,30.1819,杭州市,城厢镇,,23,14,29,6,22,73,,58,58,34,38,4,4,0.5,0.6
2024-04-23T1200,1233A,120.0883,30.1808,杭州市,云栖,,23,14,28,7,14,73,,56,56,25,22,7,7,0.6,0.6
2024-04-23T1200,3557A,119.9464,30.0494,杭州市,镇二中,,19,19,31,9,20,60,,44,44,28,25,6,6,0.7,0.7
2024-04-23T1200,3558A,119.7183,30.2367,杭州市,市府大楼,,24,11,27,10,21,75,,55,55,28,28,5,4,0.5,0.6
2024-04-23T1200,3656A,120.1556,30.2864,杭州市,消防大队,,22,7,30,6,21,68,,63,63,27,28,8,8,0.7,0.7
2024-04-23T1200,1270A,117.1959,31.7848,合肥市,明珠广场,细颗粒物(PM2.5),55,58,79,39,53,156,,98,98,20,30,7,7,0.7,0.8
2024-04-23T1200,1271A,117.3072,31.8764,合肥市,三里街,颗粒物(PM10),56,61,81,34,46,164,,90,90,21,35,6,7,0.5,0.6
2024-04-23T1200,1272A,117.2588,31.8707,合肥市,琥珀山庄,臭氧1小时,58,56,81,22,36,166,,96,96,18,35,5,5,0.6,0.7
2024-04-23T1200,1273A,117.1604,31.9052,合肥市,董铺水库,,,66,80,34,41,164,,86,86,,23,1,2,0.5,0.8
2024-04-23T1200,1274A,117.25,31.8571,合肥市,长江中路,臭氧1小时,55,48,87,37,50,164,,99,99,12,26,5,7,0.9,1.1
2024-04-23T1200,1275A,117.266,31.9436,合肥市,庐阳区,臭氧1小时,60,58,90,34,48,168,,92,92,8,33,2,4,0.3,0.5
2024-04-23T1200,1276A,117.336,31.8586,合肥市,瑶海区,"颗粒物(PM10),臭氧1小时",58,66,91,29,47,166,,86,86,18,34,8,9,0.6,0.7
2024-04-23T1200,1277A,117.3027,31.7964,合肥市,包河区,颗粒物(PM10),56,61,86,29,48,161,,90,90,16,41,6,7,0.4,0.5
2024-04-23T1200,1278A,117.2776,31.7385,合肥市,滨湖新区,,,56,68,36,42,,,102,102,13,17,8,9,0.5,0.6
2024-04-23T1200,1279A,117.1318,31.8403,合肥市,高新区,颗粒物(PM10),56,61,81,36,53,156,,99,99,12,24,7,7,0.8,0.8
2024-04-23T1200,3464A,117.3803,31.9147,合肥市,高教基地,,,73,65,19,30,172,,86,86,,29,7,5,0.5,0.6
2024-04-23T1200,3614A,79.924,37.0877,和田地区,地区环保局,颗粒物(PM10),94,138,158,35,59,94,,67,67,6,16,7,7,0.4,0.5
2024-04-23T1200,3615A,79.9131,37.113,和田地区,市环保局,颗粒物(PM10),100,149,134,51,45,88,,53,53,11,26,8,6,0.8,0.8
2024-04-23T1200,2516A,108.2011,24.715,河池市,东仁乐园,,37,37,51,17,24,28,,11,11,5,8,5,5,0.8,0.8
2024-04-23T1200,2517A,108.0497,24.6947,河池市,市环保站,,37,37,39,17,24,63,,35,35,8,13,4,6,0.5,0.5
2024-04-23T1200,2518A,108.0983,24.6989,河池市,市疾控中心,,39,39,39,12,26,66,,30,30,9,15,8,9,0.6,0.6
2024-04-23T1200,1696A,114.6778,23.7569,河源市,源西,,,,26,28,29,10,,10,10,37,32,,4,0.9,0.8
2024-04-23T1200,1697A,114.6944,23.7586,河源市,东埔,,38,38,47,20,22,13,,16,16,32,27,6,6,0.8,0.7
2024-04-23T1200,1698A,114.6892,23.7233,河源市,老城,,22,22,29,14,19,18,,17,17,20,19,5,5,0.7,0.7
2024-04-23T1200,1718A,115.4208,35.2464,菏泽市,气象局,颗粒物(PM10),155,260,134,39,44,,,85,85,12,18,6,5,0.3,0.4
2024-04-23T1200,1719A,115.4747,35.2375,菏泽市,市政协,颗粒物(PM10),171,291,116,48,45,112,,87,87,11,13,10,5,0.2,0.3
2024-04-23T1200,3374A,115.5564,35.0891,菏泽市,定陶老年大学,颗粒物(PM10),158,266,113,39,46,113,,83,83,12,16,7,5,0.2,0.5
2024-04-23T1200,3647A,115.4702,35.2706,菏泽市,菏泽医专,颗粒物(PM10),155,260,102,34,37,118,,92,92,9,13,8,5,0.2,0.4
2024-04-23T1200,2514A,111.5264,24.4172,贺州市,环保小区,,30,,28,21,14,72,,48,48,8,16,6,6,0.7,0.8
2024-04-23T1200,2515A,111.5608,24.4078,贺州市,政协大楼,,31,31,35,15,18,65,,45,45,8,19,7,6,0.6,0.8
2024-04-23T1200,3534A,111.4744,24.4553,贺州市,西湾,,23,16,20,15,13,71,,52,52,6,11,5,6,0.5,0.5
2024-04-23T1200,2385A,114.17,35.9019,鹤壁市,市监测站,,48,48,145,20,56,100,,94,94,9,16,8,7,0.3,0.5
2024-04-23T1200,2386A,114.2956,35.7511,鹤壁市,市交警支队,,48,48,127,10,51,100,,92,92,8,13,10,12,0.3,0.7
2024-04-23T1200,2387A,114.2878,35.7306,鹤壁市,迎宾馆,颗粒物(PM10),68,85,166,15,56,103,,94,94,16,15,7,12,0.3,0.4
2024-04-23T1200,3474A,114.2617,35.6822,鹤壁市,大新区,颗粒物(PM10),125,200,180,0,34,102,,94,94,7,14,9,9,0.1,0.4
2024-04-23T1200,3596A,114.1572,35.9603,鹤壁市,南山宾馆,颗粒物(PM10),51,52,152,13,46,101,,94,94,8,11,8,9,0.4,0.5
2024-04-23T1200,2244A,130.2537,47.3416,鹤岗市,哈啤分公司,颗粒物(PM10),51,51,58,26,39,64,,43,43,12,14,12,14,0.7,0.7
2024-04-23T1200,2245A,130.2684,47.3086,鹤岗市,斯达机电,,49,39,56,34,46,76,,52,52,13,17,12,13,0.6,0.7
2024-04-23T1200,2246A,130.3114,47.3388,鹤岗市,东山纸板厂,,50,50,64,30,43,73,,51,51,12,16,13,14,0.5,0.6
2024-04-23T1200,2247A,130.1097,47.3382,鹤岗市,五号水库,颗粒物(PM10),65,80,60,26,41,92,,64,64,17,14,13,11,0.2,0.2
2024-04-23T1200,2263A,127.4833,50.2524,黑河市,交通局,,,31,41,15,25,,,74,66,6,8,5,6,0.3,0.4
2024-04-23T1200,2264A,127.5144,50.2341,黑河市,环保局,,23,13,28,12,25,71,,85,74,6,10,3,4,0.3,0.3
2024-04-23T1200,2265A,127.5291,50.2472,黑河市,大黑河岛,,,,31,8,25,,,,,16,19,6,6,,
2024-04-23T1200,1074A,115.6838,37.7541,衡水市,电机北厂,,,100,106,21,49,,,92,92,4,9,3,3,0.1,0.3
2024-04-23T1200,1075A,115.6303,37.7316,衡水市,市监测站,颗粒物(PM10),67,84,110,19,49,100,,95,95,7,12,5,7,0.3,0.5
2024-04-23T1200,3188A,115.6683,37.7217,衡水市,市城管局,颗粒物(PM10),58,65,97,28,46,99,,96,96,5,11,3,3,0.1,0.4
2024-04-23T1200,3459A,115.5989,37.5491,衡水市,地表水厂,颗粒物(PM10),72,94,116,30,44,104,,99,99,5,12,2,4,0.2,0.4
2024-04-23T1200,2456A,112.5003,26.9167,衡阳市,原169医院,,41,41,45,20,26,117,,94,94,6,15,1,3,0.5,0.7
2024-04-23T1200,2457A,112.6194,26.9258,衡阳市,衡阳化工总厂,,50,50,49,21,29,121,,106,106,6,16,8,8,0.6,0.8
2024-04-23T1200,2458A,112.6211,26.8956,衡阳市,珠晖区环保局,颗粒物(PM10),54,58,52,21,31,115,,100,100,9,16,6,7,0.7,1
2024-04-23T1200,2459A,112.6197,26.8733,衡阳市,市委党校,,39,32,53,17,29,124,,108,108,6,15,8,8,0.7,1
2024-04-23T1200,2460A,112.6006,26.8919,衡阳市,市监测站,,,44,51,35,35,,,105,104,10,15,8,8,0.7,0.9
2024-04-23T1200,2461A,112.5664,26.9056,衡阳市,真空机电公司,,45,45,50,20,29,117,,103,103,7,16,8,9,0.5,0.9
2024-04-23T1200,3399A,112.6703,26.882,衡阳市,师范学院,,42,37,49,29,38,120,,107,107,7,12,7,8,0.5,0.8
2024-04-23T1200,2608A,103.3772,23.3993,红河哈尼族彝族自治州,污水处理厂,"颗粒物(PM10),细颗粒物(PM2.5)",53,55,56,37,41,141,,82,82,8,13,16,9,0.4,0.5
2024-04-23T1200,2609A,103.3861,23.35,红河哈尼族彝族自治州,监测站,,50,50,59,31,37,139,,92,92,9,12,14,10,0.5,0.5
2024-04-23T1200,3038A,103.3758,23.368,红河哈尼族彝族自治州,州图书馆,,,52,59,34,38,136,,86,86,,10,10,6,,0.4
2024-04-23T1200,1090A,111.6507,40.7517,呼和浩特市,呼市一监,,39,39,121,10,19,83,,53,53,8,12,6,4,0.3,0.3
2024-04-23T1200,1091A,111.6572,40.8033,呼和浩特市,小召,颗粒物(PM10),54,58,116,12,18,73,,54,52,11,14,7,6,0.4,0.4
2024-04-23T1200,1094A,111.7516,40.8369,呼和浩特市,如意水处理厂,,,,70,,12,75,,54,54,9,12,7,8,0.3,0.4
2024-04-23T1200,1095A,111.7276,40.8062,呼和浩特市,二十九中,,,40,98,12,17,76,,61,55,9,10,,9,0.5,0.5
2024-04-23T1200,1096A,111.5512,40.7866,呼和浩特市,工大金川校区,,49,49,90,20,23,71,,42,42,9,17,6,5,0.3,0.3
2024-04-23T1200,1097A,111.717,40.7612,呼和浩特市,化肥厂生活区,,48,48,102,15,27,76,,50,48,12,14,6,5,0.3,0.3
2024-04-23T1200,3698A,111.5968,40.8178,呼和浩特市,红旗小学,,,,117,14,18,72,,48,48,10,15,,3,0.3,0.3
2024-04-23T1200,3699A,111.6518,40.8389,呼和浩特市,海东办,颗粒物(PM10),53,56,94,14,16,72,,56,56,10,11,8,6,0.3,0.3
2024-04-23T1200,2192A,119.7594,49.2261,呼伦贝尔市,区环保局,,26,16,18,13,15,81,,63,63,6,6,4,4,0.3,0.3
2024-04-23T1200,3061A,119.7512,49.1577,呼伦贝尔市,国华电力东,,34,34,23,12,10,82,,61,61,4,4,2,2,0.2,0.2
2024-04-23T1200,1250A,120.0751,30.8669,湖州市,城西水厂,,24,15,40,10,30,74,,72,64,27,26,3,3,0.6,0.6
2024-04-23T1200,2873A,120.0875,30.8955,湖州市,仁皇山新区,,24,,36,16,30,75,,67,58,24,28,5,5,0.7,0.7
2024-04-23T1200,2907A,120.1844,30.8596,湖州市,吴兴区站,,26,13,33,11,26,83,,66,64,20,25,4,5,0.4,0.4
2024-04-23T1200,3562A,120.4148,30.8538,湖州市,南浔区站,,28,17,31,17,27,88,,67,67,17,22,5,6,0.4,0.5
2024-04-23T1200,1607A,120.9092,40.7136,葫芦岛市,龙港区,,44,44,46,22,26,89,,90,90,16,14,7,8,0.5,0.5
2024-04-23T1200,1608A,120.8392,40.7514,葫芦岛市,化工街,,34,34,48,17,20,79,,88,88,23,20,15,16,0.6,0.6
2024-04-23T1200,1609A,120.8341,40.7073,葫芦岛市,新区,,42,41,36,29,25,100,,97,97,13,13,7,8,0.7,0.7
2024-04-23T1200,1610A,120.8695,40.7677,葫芦岛市,东城区,,25,25,37,13,24,74,,90,85,20,19,8,10,0.7,0.7
2024-04-23T1200,2482A,109.5981,27.5721,怀化市,林科所,,,36,35,,19,106,,73,73,4,4,,12,0.6,0.7
2024-04-23T1200,2483A,109.9453,27.5444,怀化市,河西地税局,,,32,41,22,25,,,56,50,10,12,11,10,,0.6
2024-04-23T1200,2484A,109.9781,27.5342,怀化市,市四医院,,,34,40,22,28,93,,65,65,,10,12,14,0.5,0.6
2024-04-23T1200,2485A,109.9972,27.5578,怀化市,监测楼,,45,45,46,24,28,88,,57,57,6,10,14,20,0.5,0.5
2024-04-23T1200,2486A,110.0394,27.583,怀化市,市委党校,,32,32,44,18,25,94,,60,60,5,11,8,11,0.6,0.7
2024-04-23T1200,1210A,119.036,33.5981,淮安市,钵池山,,50,39,28,35,28,74,,60,60,16,15,7,6,0.7,0.6
2024-04-23T1200,1211A,119.007,33.575,淮安市,北京南路,细颗粒物(PM2.5),57,41,31,40,29,77,,66,63,16,14,8,7,0.6,0.5
2024-04-23T1200,1212A,118.989,33.6067,淮安市,市监测站,,48,48,32,29,21,78,,69,64,21,16,11,6,1.0,0.5
2024-04-23T1200,1213A,119.135,33.5039,淮安市,楚州区监测站,细颗粒物(PM2.5),59,42,28,42,27,75,,57,57,19,20,8,7,0.7,0.6
2024-04-23T1200,1214A,119.0186,33.6297,淮安市,淮阴区监测站,颗粒物(PM10),51,51,37,33,48,79,,64,64,24,20,9,5,0.8,0.4
2024-04-23T1200,3426A,118.8755,33.2894,淮安市,新华书店,细颗粒物(PM2.5),64,55,30,46,20,72,,53,52,16,19,4,5,0.9,0.5
2024-04-23T1200,2282A,116.8004,33.975,淮北市,监测站,颗粒物(PM10),61,72,62,29,33,127,,106,106,12,13,8,8,0.6,0.5
2024-04-23T1200,2283A,116.8091,33.9007,淮北市,烈山区政府,颗粒物(PM10),74,98,76,40,44,132,,100,100,9,13,7,7,0.5,0.5
2024-04-23T1200,3330A,116.8873,33.9836,淮北市,杜集区检察院,颗粒物(PM10),73,95,69,51,51,140,,114,110,11,12,7,5,0.6,0.5
2024-04-23T1200,4017A,116.7923,33.9535,淮北市,市博物馆,,,66,61,36,32,132,,105,102,,8,,7,0.6,0.7
2024-04-23T1200,2277A,116.8305,32.7727,淮南市,潘集区政府,颗粒物(PM10),66,81,65,42,37,168,,102,102,8,13,8,8,0.5,0.4
2024-04-23T1200,2278A,117.0067,32.6524,淮南市,师范学院,细颗粒物(PM2.5),68,76,68,49,41,162,,108,108,9,13,12,13,0.4,0.4
2024-04-23T1200,2279A,116.8569,32.5951,淮南市,谢家集区政府,颗粒物(PM10),56,62,61,25,28,163,,102,102,8,18,5,13,0.3,0.3
2024-04-23T1200,2280A,116.8281,32.633,淮南市,八公山区政府,细颗粒物(PM2.5),69,80,78,50,45,163,,100,100,8,15,2,7,0.5,0.5
2024-04-23T1200,2281A,116.6325,32.6201,淮南市,焦岗湖风景区管理处,颗粒物(PM10),62,74,60,27,24,133,,81,81,12,24,5,4,0.3,0.2
2024-04-23T1200,2894A,117.0566,32.6531,淮南市,经济技术开发区消防队,臭氧1小时,58,57,57,35,32,166,,96,96,15,22,6,7,0.5,0.5
2024-04-23T1200,3329A,117.0108,32.5893,淮南市,山南新区,臭氧1小时,63,68,59,36,27,170,,110,110,12,14,5,5,0.5,0.4
2024-04-23T1200,2446A,114.9028,30.4742,黄冈市,职工中心,颗粒物(PM10),58,65,78,37,51,141,,100,100,14,14,9,7,0.9,0.8
2024-04-23T1200,2929A,114.8858,30.4519,黄冈市,红卫路,"颗粒物(PM10),细颗粒物(PM2.5)",54,58,70,38,47,126,,93,93,10,16,11,10,0.7,0.6
2024-04-23T1200,3398A,114.9136,30.4445,黄冈市,市林业局,颗粒物(PM10),52,54,72,24,38,139,,106,106,11,13,7,5,0.8,0.6
2024-04-23T1200,2672A,102.0199,35.5102,黄南藏族自治州,同仁县隆务镇,,32,25,38,15,18,102,,67,67,5,6,6,6,0.8,0.8
2024-04-23T1200,2295A,118.2903,29.6963,黄山市,延安路89号,,31,17,26,11,5,99,,76,76,3,6,6,6,0.5,0.6
2024-04-23T1200,2296A,118.327,29.7178,黄山市,黄山东路89号,,30,21,22,5,6,94,,73,73,5,8,5,4,0.4,0.4
2024-04-23T1200,2297A,118.1371,30.2756,黄山市,黄山区政府5号楼,,,27,20,14,11,135,,66,66,,8,5,4,0.5,0.6
2024-04-23T1200,2423A,115.0601,30.2313,黄石市,沈家营,,45,38,63,18,32,141,,106,106,3,13,9,13,0.6,0.9
2024-04-23T1200,2424A,115.0817,30.2006,黄石市,陈家湾,,46,40,68,21,35,145,,114,114,2,22,11,15,0.4,0.7
2024-04-23T1200,2426A,114.8988,30.2019,黄石市,铁山,颗粒物(PM10),53,55,64,18,35,136,,104,104,4,13,4,17,0.5,0.9
2024-04-23T1200,2427A,115.0307,30.2092,黄石市,团城山,,45,45,65,15,26,136,,106,106,5,16,8,12,0.3,0.7
2024-04-23T1200,3149A,115.0235,30.1578,黄石市,笔架山北路,,50,50,56,10,26,140,,106,106,5,17,9,10,0.4,0.7
2024-04-23T1200,1392A,114.4183,23.0528,惠州市,河南岸金山湖子站,,18,16,33,12,22,18,,16,14,25,25,4,4,0.8,0.8
2024-04-23T1200,1393A,114.4053,23.0822,惠州市,下埔横江三路子站,,19,18,35,13,24,21,,17,14,26,24,5,5,0.8,0.8
2024-04-23T1200,1394A,114.4103,23.1142,惠州市,江北云山西路子站,,19,,32,13,17,30,,14,14,19,25,6,6,0.7,0.7
2024-04-23T1200,1395A,114.4645,22.7833,惠州市,惠阳区承修路船湖子站,,23,20,30,16,23,33,,18,18,29,28,3,3,0.7,0.7
2024-04-23T1200,1396A,114.5317,22.7422,惠州市,大亚湾管委会子站,,25,23,28,17,16,38,,49,39,36,28,3,3,0.8,0.7
2024-04-23T1200,3314A,114.4338,22.8134,惠州市,惠阳秋长,,27,27,38,14,22,62,,20,20,26,29,9,9,0.8,0.9
2024-04-23T1200,3452A,114.6517,22.775,惠州市,大亚湾霞涌,,19,18,19,13,15,40,,58,38,16,11,4,4,0.6,0.5
2024-04-23T1200,2240A,130.9762,45.3001,鸡西市,环保局,颗粒物(PM10),70,89,58,44,28,69,,53,53,24,15,31,9,0.8,0.7
2024-04-23T1200,2243A,130.9429,45.3039,鸡西市,第一中学,颗粒物(PM10),83,116,58,52,26,88,,74,66,27,14,29,10,0.5,0.4
2024-04-23T1200,3707A,131.0207,45.3073,鸡西市,欧美日汽修厂,颗粒物(PM10),68,86,64,38,31,85,,56,56,13,11,7,6,0.6,0.5
2024-04-23T1200,3709A,130.9967,45.3106,鸡西市,市政设施管理处,颗粒物(PM10),64,78,64,43,32,91,,52,52,18,17,9,7,0.4,0.4
2024-04-23T1200,2367A,114.9754,27.0803,吉安市,红声器材厂,,36,34,34,17,21,114,,67,67,15,18,14,14,0.5,0.6
2024-04-23T1200,2368A,114.9658,27.0999,吉安市,市森林工业局,,35,32,36,20,26,109,,68,68,14,17,14,12,0.5,0.6
2024-04-23T1200,2369A,114.99,27.1312,吉安市,市环境监测站,,,41,38,,24,110,,67,67,12,18,18,16,,0.8
2024-04-23T1200,2370A,115.0093,27.0968,吉安市,青原区法院,,39,36,37,22,26,122,,78,78,16,24,12,14,0.4,0.6
2024-04-23T1200,1772A,126.54,43.8622,吉林市,哈达湾,细颗粒物(PM2.5),92,130,138,68,69,136,,61,61,20,30,10,9,0.8,0.9
2024-04-23T1200,1773A,126.5844,43.8358,吉林市,东局子,"颗粒物(PM10),细颗粒物(PM2.5)",99,148,137,74,72,134,,57,57,26,33,7,7,0.9,0.9
2024-04-23T1200,1774A,126.5052,43.8245,吉林市,电力学院,颗粒物(PM10),97,144,140,70,75,144,,56,56,24,34,11,11,0.8,0.9
2024-04-23T1200,1775A,126.6133,43.8972,吉林市,江北,颗粒物(PM10),75,100,130,48,70,119,,54,54,14,31,10,11,0.7,0.9
2024-04-23T1200,1776A,126.555,43.8306,吉林市,江南公园,细颗粒物(PM2.5),112,150,139,84,81,139,,56,56,27,34,8,8,0.8,0.8
2024-04-23T1200,2868A,126.4739,43.953,吉林市,九站,颗粒物(PM10),79,108,127,55,68,127,,50,50,14,32,16,16,0.8,1
2024-04-23T1200,1299A,116.9862,36.6114,济南市,科干所,,48,48,74,20,40,89,,111,92,12,12,5,7,0.6,0.8
2024-04-23T1200,1300A,116.9376,36.665,济南市,农科所,颗粒物(PM10),53,56,81,24,38,90,,100,87,11,16,3,6,0.4,0.6
2024-04-23T1200,1301A,117.1265,36.6734,济南市,开发区,,,,72,,37,92,,125,105,,18,5,7,1.0,0.7
2024-04-23T1200,1303A,117.0624,36.6868,济南市,省种子仓库,颗粒物(PM10),68,85,78,12,36,89,,118,95,8,10,2,4,0.3,0.5
2024-04-23T1200,1304A,116.9489,36.6447,济南市,机床二厂,颗粒物(PM10),58,66,88,20,39,92,,104,91,7,12,4,6,0.5,0.7
2024-04-23T1200,1305A,117.0495,36.663,济南市,市监测站,,42,42,69,20,35,96,,126,102,17,19,9,11,0.5,0.7
2024-04-23T1200,1306A,116.7675,36.5484,济南市,长清党校,细颗粒物(PM2.5),53,54,78,37,50,100,,,,9,14,4,8,0.4,0.6
2024-04-23T1200,1616A,117.6795,36.229,济南市,技术学院,颗粒物(PM10),52,53,82,22,47,86,,88,84,15,20,7,11,0.6,0.9
2024-04-23T1200,1961A,117.532,36.6868,济南市,东山小学,,34,34,84,15,47,89,,115,95,11,17,4,7,0.2,0.4
2024-04-23T1200,3059A,117.7161,36.2049,济南市,泰兴公司,,39,34,78,27,47,71,,75,70,14,23,8,12,0.6,0.8
2024-04-23T1200,3064A,117.6867,36.2171,济南市,莱芜战役纪念馆,颗粒物(PM10),57,63,81,22,44,72,,74,70,15,22,6,9,0.6,0.9
2024-04-23T1200,3494A,117.1673,36.9782,济南市,济阳区政府,,,,98,,43,93,,91,91,,26,,10,0.4,0.7
2024-04-23T1200,3495A,117.1171,36.63,济南市,锦屏中学,,42,42,61,12,35,96,,126,104,8,8,5,7,0.3,0.5
2024-04-23T1200,3682A,116.9814,36.6819,济南市,济南四建,,48,48,74,22,37,90,,108,90,9,14,5,7,0.4,0.6
2024-04-23T1200,1653A,116.6251,35.4302,济宁市,火炬城,颗粒物(PM10),148,245,82,34,35,97,,104,98,5,8,6,9,0.5,0.7
2024-04-23T1200,1655A,116.5491,35.4042,济宁市,电化厂,颗粒物(PM10),131,212,100,34,33,98,,100,93,3,11,4,9,0.5,0.8
2024-04-23T1200,3500A,116.5814,35.3707,济宁市,北湖一中,颗粒物(PM10),118,185,78,29,37,98,,108,97,5,9,4,10,0.3,0.6
2024-04-23T1200,3501A,116.8249,35.5593,济宁市,服务中心,颗粒物(PM10),76,102,77,18,36,93,,80,80,6,12,2,4,0.4,0.6
2024-04-23T1200,3678A,116.5907,35.4054,济宁市,市第七中学,颗粒物(PM10),137,223,91,34,36,93,,97,91,5,8,4,9,0.4,0.5
2024-04-23T1200,2255A,130.2751,46.8028,佳木斯市,佳纺,,,87,166,51,141,108,,52,52,,39,8,11,,0.9
2024-04-23T1200,2256A,130.3995,46.8307,佳木斯市,发电厂,细颗粒物(PM2.5),80,76,160,59,142,125,,58,58,27,36,3,7,0.8,0.9
2024-04-23T1200,2257A,130.3258,46.7975,佳木斯市,环保局,细颗粒物(PM2.5),83,85,166,61,149,112,,46,46,29,48,6,10,0.6,1
2024-04-23T1200,2258A,130.3648,46.8032,佳木斯市,十一中,细颗粒物(PM2.5),84,74,159,62,157,118,,54,54,23,37,6,9,0.6,0.9
2024-04-23T1200,2259A,130.3794,46.7588,佳木斯市,四丰,细颗粒物(PM2.5),85,95,143,63,109,148,,50,50,26,41,1,1,0.9,1
2024-04-23T1200,1252A,120.7436,30.778,嘉兴市,清河小学,,27,12,24,6,13,85,,74,70,20,21,7,7,0.8,0.7
2024-04-23T1200,1253A,120.726,30.7478,嘉兴市,嘉兴学院,,28,12,23,10,18,88,,67,67,10,13,5,5,0.5,0.6
2024-04-23T1200,2872A,120.7846,30.7525,嘉兴市,南湖区残联,,31,13,26,10,20,98,,72,72,5,11,5,6,0.5,0.5
2024-04-23T1200,3407A,120.6916,30.7739,嘉兴市,秀洲住建,,28,14,23,10,16,89,,70,66,15,18,5,5,0.7,0.7
2024-04-23T1200,1945A,98.2908,39.7711,嘉峪关市,气象局,颗粒物(PM10),84,117,56,39,13,111,,88,88,41,13,70,9,2.0,0.5
2024-04-23T1200,2884A,98.2672,39.7978,嘉峪关市,酒钢宾馆,颗粒物(PM10),80,110,59,41,14,98,,83,83,41,12,33,16,2.1,0.4
2024-04-23T1200,3248A,98.2643,39.7724,嘉峪关市,雄关区,,38,38,44,12,15,116,,82,82,22,15,20,8,1.3,0.4
2024-04-23T1200,1383A,113.1064,22.6058,江门市,北街,,28,,35,19,28,24,,24,15,40,39,3,4,0.7,0.7
2024-04-23T1200,1384A,113.0731,22.5835,江门市,西区,,29,29,32,16,20,10,,36,18,44,32,6,7,0.9,0.9
2024-04-23T1200,1385A,113.0219,22.5311,江门市,圭峰西,,,18,28,7,17,36,,34,28,,25,4,4,0.6,0.8
2024-04-23T1200,1386A,113.0828,22.5947,江门市,东湖,,,28,34,28,18,15,,25,15,,28,4,5,0.6,0.7
2024-04-23T1200,3311A,113.1075,22.5647,江门市,江海富民,,,37,49,27,31,16,,38,23,42,34,6,7,,0.7
2024-04-23T1200,3449A,113.05,22.4667,江门市,新会银湖,,19,,26,10,15,60,,23,23,24,30,3,3,0.6,0.7
2024-04-23T1200,1828A,113.227,35.2125,焦作市,市环保局,,,33,140,10,50,,,92,92,8,13,1,4,0.3,0.5
2024-04-23T1200,3169A,113.2725,35.2067,焦作市,太极体育中心,,43,43,165,6,48,100,,92,92,6,13,3,3,0.1,0.3
2024-04-23T1200,3335A,113.3137,35.2641,焦作市,马村街道办,,37,37,145,6,44,94,,88,88,3,12,1,4,0,0.2
2024-04-23T1200,3336A,113.2465,35.2373,焦作市,焦作技师学院,,48,48,159,5,47,93,,87,87,9,14,2,4,0.1,0.5
2024-04-23T1200,3477A,113.1656,35.2539,焦作市,中站许衡医院,,35,35,143,10,46,99,,93,93,5,12,6,8,0.1,0.3
2024-04-23T1200,3981A,113.2449,35.1803,焦作市,原李万街道办,颗粒物(PM10),69,87,161,5,42,81,,79,79,8,12,5,6,0.4,0.6
2024-04-23T1200,1708A,116.3701,23.5345,揭阳市,新兴,颗粒物(PM10),51,51,45,35,27,52,,19,19,33,32,10,13,1.0,0.8
2024-04-23T1200,1709A,116.3264,23.5443,揭阳市,西马,颗粒物(PM10),51,51,50,30,25,56,,20,20,31,26,11,13,1.0,0.9
2024-04-23T1200,1710A,116.3611,23.5626,揭阳市,东兴,颗粒物(PM10),60,69,49,37,24,48,,20,20,28,27,8,11,1.0,0.9
2024-04-23T1200,1711A,116.4151,23.5294,揭阳市,渔湖,,40,40,50,28,22,40,,14,14,32,32,16,15,0.8,0.8
2024-04-23T1200,3320A,116.403,23.5699,揭阳市,曲溪,,,,37,,25,37,,13,13,29,27,10,14,0.8,0.7
2024-04-23T1200,1944A,102.1692,38.5167,金昌市,天庆家园,颗粒物(PM10),118,186,132,66,32,105,,78,78,32,14,64,16,0.9,0.6
2024-04-23T1200,3170A,102.1864,38.5253,金昌市,市委党校,颗粒物(PM10),126,201,164,78,47,105,,87,85,24,12,56,29,0.8,0.4
2024-04-23T1200,4022A,102.1647,38.5371,金昌市,金川区人防中心,颗粒物(PM10),120,190,149,62,31,104,,86,79,24,9,54,12,0.4,0.5
2024-04-23T1200,1262A,119.647,29.077,金华市,十五中,,,12,42,11,37,62,,34,32,,41,4,3,0.7,0.7
2024-04-23T1200,1263A,119.686,29.1029,金华市,监测站,,29,29,49,18,31,41,,28,25,32,36,2,2,0.9,0.7
2024-04-23T1200,3659A,119.656,29.1131,金华市,气象局,,29,26,47,20,36,35,,13,13,34,44,4,4,0.5,0.5
2024-04-23T1200,1767A,121.1115,41.0879,锦州市,南山,,26,,46,12,34,81,,87,78,15,18,8,19,0.5,0.5
2024-04-23T1200,1768A,121.0533,40.8434,锦州市,开发区,,29,29,49,17,27,69,,94,85,27,26,12,13,1.0,0.6
2024-04-23T1200,1769A,121.1836,41.1119,锦州市,百股街道,,27,10,45,9,25,84,,88,74,12,17,9,13,0.5,0.6
2024-04-23T1200,1770A,121.1178,41.1222,锦州市,天安街道,,25,,47,10,32,77,,78,67,17,18,9,14,0.5,0.6
2024-04-23T1200,1771A,121.1303,41.1386,锦州市,北湖公园,,25,,45,9,34,80,,72,64,7,17,6,12,0.6,0.8
2024-04-23T1200,2160A,112.85,35.5051,晋城市,自来水公司,,40,40,119,2,33,101,,93,93,23,19,4,7,0.3,0.6
2024-04-23T1200,2161A,112.8318,35.4936,晋城市,白云商贸,,47,47,135,2,33,102,,92,92,17,19,6,8,0.4,0.7
2024-04-23T1200,2162A,112.8508,35.4887,晋城市,市环保局,,,36,139,2,32,103,,91,91,,20,5,8,,0.6
2024-04-23T1200,2163A,112.8676,35.4897,晋城市,技术学院,,32,30,136,22,41,102,,90,90,20,20,6,9,0.5,0.7
2024-04-23T1200,3620A,112.8271,35.4828,晋城市,泽州一中,颗粒物(PM10),57,64,134,0,30,99,,91,91,15,17,8,10,0.4,0.7
2024-04-23T1200,2171A,112.7532,37.6945,晋中市,锦纶小区,细颗粒物(PM2.5),52,51,206,36,38,85,,95,82,12,15,8,7,0.3,0.3
2024-04-23T1200,2173A,112.7249,37.7067,晋中市,南都小区,,37,37,202,16,38,86,,93,82,10,14,7,6,0.3,0.3
2024-04-23T1200,2174A,112.6991,37.6982,晋中市,榆次区政府,,41,41,213,14,40,88,,96,84,9,13,8,8,0.3,0.2
2024-04-23T1200,2865A,112.7195,37.6828,晋中市,榆次三中,,46,46,231,19,43,88,,97,84,9,12,7,7,0.4,0.4
2024-04-23T1200,2439A,112.2014,31.0481,荆门市,竹园小学,颗粒物(PM10),60,70,81,23,44,111,,48,48,10,22,11,9,0.5,0.7
2024-04-23T1200,2440A,112.1969,30.9891,荆门市,掇刀,,,73,75,33,52,,,44,42,10,17,8,7,0.5,0.6
2024-04-23T1200,2441A,112.2213,31.0386,荆门市,石化一小,颗粒物(PM10),61,71,86,33,61,113,,48,48,12,25,21,11,0.5,0.7
2024-04-23T1200,3012A,112.1849,31.0362,荆门市,西山林语,颗粒物(PM10),57,64,64,21,39,115,,54,54,10,15,5,4,0.6,0.7
2024-04-23T1200,3547A,112.1632,31.0138,荆门市,龙泉中学南校,颗粒物(PM10),61,71,60,27,34,114,,53,53,13,20,12,10,0.5,0.6
2024-04-23T1200,1844A,112.2494,30.3197,荆州市,市图书馆,,37,37,54,20,34,108,,49,49,8,18,8,7,0.5,0.7
2024-04-23T1200,1845A,112.2008,30.3544,荆州市,市委党校,,42,42,57,13,34,104,,55,55,9,16,9,8,0.5,0.7
2024-04-23T1200,3194A,112.2747,30.3122,荆州市,管委会,,36,36,52,25,35,112,,58,58,9,16,10,10,0.5,0.7
2024-04-23T1200,3548A,112.1655,30.3364,荆州市,学苑路,,42,,49,29,44,106,,58,58,8,18,7,6,0.4,0.5
2024-04-23T1200,2343A,117.2117,29.2933,景德镇市,老干部活动中心,,32,32,36,20,26,100,,45,45,11,17,7,6,0.3,0.4
2024-04-23T1200,2344A,117.1894,29.2789,景德镇市,兽医站,,34,34,43,17,27,98,,45,45,11,15,10,9,0.3,0.4
2024-04-23T1200,2345A,117.1547,29.2617,景德镇市,台达陶瓷,,29,13,24,13,25,92,,40,40,14,26,16,19,0.4,0.5
2024-04-23T1200,2346A,117.2461,29.2956,景德镇市,陶研所,,32,32,32,15,17,73,,30,30,7,12,4,8,0.4,0.4
2024-04-23T1200,1803A,115.9872,29.6815,九江市,十里,颗粒物(PM10),55,60,44,36,28,144,,89,89,17,22,13,11,0.9,0.7
2024-04-23T1200,1804A,115.9584,29.7046,九江市,茅山头,,,65,39,32,28,140,,88,88,,25,12,13,0.9,0.7
2024-04-23T1200,1805A,115.9877,29.7295,九江市,西园,细颗粒物(PM2.5),55,51,44,39,27,124,,80,80,24,29,13,11,0.8,0.7
2024-04-23T1200,1806A,116.0172,29.6547,九江市,五七二七厂,颗粒物(PM10),54,58,36,28,29,132,,86,86,14,14,10,10,0.9,0.9
2024-04-23T1200,1808A,115.9114,29.6038,九江市,综合工业园,细颗粒物(PM2.5),53,41,41,37,30,130,,94,94,19,30,11,10,0.9,0.8
2024-04-23T1200,1809A,116.0721,29.7535,九江市,石化总厂,细颗粒物(PM2.5),62,63,50,44,31,136,,87,87,22,39,15,13,0.9,0.8
2024-04-23T1200,1810A,115.9773,29.5698,九江市,庐山气象台,,36,31,28,22,22,113,,112,111,4,6,11,11,0.6,0.8
2024-04-23T1200,3190A,116.0254,29.6994,九江市,外国语学校,细颗粒物(PM2.5),63,58,45,45,29,137,,87,87,22,28,14,13,0.9,0.8
2024-04-23T1200,2658A,98.5061,39.7443,酒泉市,仓门街子站,颗粒物(PM10),54,58,60,19,16,101,,66,66,13,14,12,8,0.4,0.3
2024-04-23T1200,2659A,98.4989,39.7256,酒泉市,油田生活基地,颗粒物(PM10),51,51,60,20,20,104,,70,70,11,12,12,11,0.3,0.2
2024-04-23T1200,2698A,76.0072,39.4467,喀什地区,巡警大队,颗粒物(PM10),111,172,484,34,99,99,,83,83,12,22,3,2,0.5,0.6
2024-04-23T1200,2699A,75.9755,39.4694,喀什地区,吾办,颗粒物(PM10),116,181,459,58,151,97,,79,79,13,22,2,3,0.2,0.3
2024-04-23T1200,4027A,75.9483,39.4689,喀什地区,老干局,颗粒物(PM10),137,223,499,43,112,96,,79,79,14,20,5,5,0.5,0.6
2024-04-23T1200,1824A,114.3389,34.7781,开封市,肿瘤医院,颗粒物(PM10),145,240,129,35,33,104,,83,82,5,11,4,3,0,0.1
2024-04-23T1200,1826A,114.2885,34.7965,开封市,世纪星幼儿园,颗粒物(PM10),131,212,118,26,31,99,,80,77,7,10,5,4,0.2,0.3
2024-04-23T1200,3147A,114.3438,34.8106,开封市,龙亭公园,颗粒物(PM10),149,247,115,24,26,101,,88,83,6,10,4,3,0.3,0.6
2024-04-23T1200,3210A,114.3644,34.7964,开封市,汴京公园,颗粒物(PM10),151,251,123,28,33,107,,92,90,8,11,3,6,0.2,0.6
2024-04-23T1200,3473A,114.2485,34.8306,开封市,技师学院,颗粒物(PM10),151,251,124,37,32,102,,83,79,8,12,8,6,0.3,0
2024-04-23T1200,3592A,114.4644,34.7556,开封市,祥符区生态环境局,颗粒物(PM10),119,187,99,24,30,102,,80,80,8,17,5,5,0.2,0.5
2024-04-23T1200,1951A,84.895,45.6094,克拉玛依市,长征新村,,50,50,27,20,6,77,,86,73,14,11,9,8,0.2,0.2
2024-04-23T1200,1952A,84.8988,45.5893,克拉玛依市,南林小区,,49,47,33,34,15,82,,75,62,12,17,8,6,0.3,0.4
2024-04-23T1200,1954A,84.905,44.3396,克拉玛依市,独山子区,,41,41,50,12,11,108,,108,104,7,10,8,9,0.2,0.2
2024-04-23T1200,1955A,85.6979,46.098,克拉玛依市,乌尔禾区商贸楼,,34,34,30,8,8,95,,53,53,1,8,9,9,0.2,0.3
2024-04-23T1200,3612A,85.1045,45.6899,克拉玛依市,白碱滩区新站,,42,42,26,20,14,92,,94,83,10,5,10,10,0.2,0.2
2024-04-23T1200,2697A,76.1454,39.7142,克孜勒苏柯尔克孜自治州,市人民政府,颗粒物(PM10),148,246,258,85,96,99,,86,85,8,16,8,8,0.3,0.3
2024-04-23T1200,3665A,76.1658,39.7157,克孜勒苏柯尔克孜自治州,克州文化中心,颗粒物(PM10),97,144,289,65,86,108,,92,92,7,10,8,7,0.3,0.3
2024-04-23T1200,1450A,102.8204,24.8886,昆明市,呈贡新区,颗粒物(PM10),54,57,55,25,33,145,,76,76,10,20,5,5,0.7,0.7
2024-04-23T1200,1452A,102.7252,25.0902,昆明市,龙泉镇,细颗粒物(PM2.5),54,55,51,38,29,129,,66,66,19,32,9,7,0.7,0.6
2024-04-23T1200,1453A,102.7266,25.0375,昆明市,东风东路,颗粒物(PM10),59,68,58,38,29,121,,81,79,22,18,10,8,0.8,0.7
2024-04-23T1200,1454A,102.6742,25.0669,昆明市,金鼎山,颗粒物(PM10),59,68,56,35,30,133,,73,73,21,20,15,13,0.5,0.5
2024-04-23T1200,1455A,102.6644,25.0401,昆明市,碧鸡广场,颗粒物(PM10),56,61,60,32,32,132,,80,80,20,22,10,9,0.7,0.6
2024-04-23T1200,3179A,102.7494,25.0119,昆明市,官渡区博物馆,颗粒物(PM10),59,68,56,33,29,126,,67,67,19,19,12,9,0.7,0.7
2024-04-23T1200,3375A,102.8017,24.8336,昆明市,青年创业园,颗粒物(PM10),54,58,57,31,30,155,,78,78,9,20,12,10,0.6,0.6
2024-04-23T1200,3550A,102.7997,24.9786,昆明市,昆明学院,颗粒物(PM10),60,69,62,35,34,132,,67,67,17,20,11,9,0.8,0.8
2024-04-23T1200,3551A,102.5967,24.6736,昆明市,晋宁区生态环境分局,颗粒物(PM10),58,65,51,31,30,136,,90,90,16,10,6,4,0.9,0.8
2024-04-23T1200,3552A,102.6678,24.9856,昆明市,云天化总部,颗粒物(PM10),55,60,54,31,29,128,,70,70,14,17,9,8,0.7,0.7
2024-04-23T1200,1456A,91.1319,29.6514,拉萨市,八廓街,,49,25,32,14,15,154,,119,119,6,13,7,8,0.3,0.4
2024-04-23T1200,1457A,91.1221,29.6747,拉萨市,市环保局,,,,38,73,18,147,,113,113,,15,7,6,0.3,0.3
2024-04-23T1200,1458A,91.0874,29.6475,拉萨市,区监测站,,49,21,30,13,15,154,,123,123,7,10,5,5,0.2,0.2
2024-04-23T1200,1459A,91.1774,29.6541,拉萨市,西藏大学,,49,22,35,12,16,154,,120,120,3,7,3,4,0.2,0.2
2024-04-23T1200,1460A,90.9798,29.6588,拉萨市,区辐射站,,45,24,38,15,16,144,,112,112,10,12,6,6,0.4,0.4
2024-04-23T1200,1461A,91.0834,29.6292,拉萨市,拉萨火车站,,47,19,31,6,15,150,,130,130,6,7,6,7,0.2,0.2
2024-04-23T1200,2520A,109.2203,23.7256,来宾市,来宾技工学校,,23,17,37,15,23,73,,51,51,3,7,8,8,0.6,0.7
2024-04-23T1200,3535A,109.1781,23.7297,来宾市,兴宾区政府,,24,24,38,14,22,68,,50,50,4,8,5,5,0.6,0.8
2024-04-23T1200,4002A,109.2416,23.7461,来宾市,中南小学,,25,22,37,6,25,78,,55,55,4,8,6,7,0.5,0.7
2024-04-23T1200,1476A,103.631,36.1031,兰州市,兰炼宾馆,颗粒物(PM10),126,201,211,86,82,126,,58,58,35,24,25,12,0.8,0.4
2024-04-23T1200,1478A,103.8412,36.0726,兰州市,生物制品所,颗粒物(PM10),191,331,262,100,88,69,,21,21,34,33,,10,0.6,0.4
2024-04-23T1200,1479A,103.831,36.0464,兰州市,铁路设计院,颗粒物(PM10),180,309,220,97,72,62,,37,28,37,37,10,9,0.6,0.4
2024-04-23T1200,3186A,103.7158,36.1058,兰州市,教育港,颗粒物(PM10),146,242,251,64,74,92,,50,48,27,20,24,11,0.7,0.4
2024-04-23T1200,3241A,103.7439,36.0842,兰州市,百合公园,颗粒物(PM10),132,213,210,63,70,87,,44,44,25,26,14,7,0.4,0.2
2024-04-23T1200,3242A,103.9611,35.998,兰州市,和平,颗粒物(PM10),238,376,251,120,76,87,,70,65,16,14,12,12,0.3,0.4
2024-04-23T1200,3245A,103.6633,36.533,兰州新区,新区管委会,颗粒物(PM10),123,196,241,58,81,94,,51,51,8,12,12,9,0.4,0.3
2024-04-23T1200,3246A,103.6975,36.4789,兰州新区,舟曲中学,颗粒物(PM10),139,227,307,64,89,95,,57,57,8,16,17,11,0.5,0.4
2024-04-23T1200,1067A,116.6708,39.5111,廊坊市,药材公司,,24,24,74,5,48,66,,74,61,11,17,3,4,0.3,0.6
2024-04-23T1200,1068A,116.7214,39.5589,廊坊市,开发区,,26,26,82,8,47,70,,72,63,11,20,1,4,0.1,0.5
2024-04-23T1200,1070A,116.7244,39.5269,廊坊市,北华航天学院,,41,41,87,11,56,70,,75,66,8,15,1,3,0.2,0.5
2024-04-23T1200,2919A,116.7022,39.5453,廊坊市,河北工业大学,,23,19,85,3,52,72,,78,67,17,24,2,4,0.2,0.5
2024-04-23T1200,2535A,103.7723,29.5462,乐山市,花湖湾,,14,9,58,1,39,42,,58,58,24,14,3,3,0.7,0.6
2024-04-23T1200,2536A,103.7627,29.5844,乐山市,牛耳桥,,17,13,65,7,39,54,,63,63,26,21,4,5,0.3,0.4
2024-04-23T1200,2537A,103.7508,29.6006,乐山市,市第三水厂,,20,14,68,7,40,63,,68,68,29,22,2,4,0.4,0.5
2024-04-23T1200,2538A,103.7571,29.5664,乐山市,市监测站,,19,13,64,8,35,58,,70,69,21,16,5,6,0.5,0.5
2024-04-23T1200,3361A,103.7311,29.5628,乐山市,理工大学,,19,19,65,10,38,46,,58,58,31,16,8,8,0.7,0.5
2024-04-23T1200,2599A,100.2497,26.8802,丽江市,丽江古城,颗粒物(PM10),69,87,68,48,28,133,,113,110,14,14,8,8,0.7,0.7
2024-04-23T1200,2600A,100.2203,26.8906,丽江市,市中心,颗粒物(PM10),67,84,59,35,23,128,,111,107,12,14,10,9,0.6,0.6
2024-04-23T1200,1267A,119.914,28.4514,丽水市,监测站大楼,,36,36,18,20,31,47,,47,46,22,14,2,2,0.6,0.6
2024-04-23T1200,1268A,119.93,28.4586,丽水市,莲都小学,,18,18,19,12,12,43,,42,38,24,17,5,5,0.4,0.4
2024-04-23T1200,1269A,119.879,28.4231,丽水市,余庄前,,20,10,21,6,13,61,,41,41,11,12,5,4,0.5,0.6
2024-04-23T1200,1173A,119.176,34.5885,连云港市,市环境监测站,,32,22,35,22,25,78,,84,65,10,13,5,6,0.2,0.3
2024-04-23T1200,3000A,119.3581,34.6972,连云港市,德源药业,,,19,25,7,15,,,77,56,3,10,5,6,0.2,0.5
2024-04-23T1200,3007A,119.178,34.844,连云港市,新城一中,,30,29,37,12,9,94,,71,71,15,26,6,7,0.6,0.6
2024-04-23T1200,3008A,119.3608,34.7519,连云港市,胡沟管理处,,29,7,25,2,10,92,,70,65,6,23,8,10,0.3,0.3
2024-04-23T1200,3009A,119.1478,34.5911,连云港市,矿山设计院,,31,31,37,19,21,78,,81,64,8,12,7,8,0.6,0.7
2024-04-23T1200,3434A,119.2413,34.6539,连云港市,工贸学校,,27,27,25,17,15,76,,104,87,5,6,6,8,0.4,0.6
2024-04-23T1200,3664A,119.4172,34.7341,连云港市,连云街道,,27,14,30,8,14,86,,82,75,9,15,2,5,0.5,0.6
2024-04-23T1200,2571A,102.3431,27.8099,凉山彝族自治州,青龙寺,,20,9,17,2,6,64,,73,71,8,6,6,7,0.5,0.6
2024-04-23T1200,2572A,102.2721,27.8415,凉山彝族自治州,邛海宾馆,,26,9,15,4,10,82,,83,81,9,8,11,12,0.6,0.6
2024-04-23T1200,2573A,102.2625,27.898,凉山彝族自治州,西昌市政府,,21,12,18,12,13,65,,85,77,12,8,6,8,0.5,0.5
2024-04-23T1200,2574A,102.2685,27.8851,凉山彝族自治州,凉山州政府,,21,18,19,10,10,66,,80,74,14,10,9,10,0.6,0.7
2024-04-23T1200,2575A,102.237,27.8914,凉山彝族自治州,长安,,26,11,20,7,12,81,,82,79,11,9,10,10,0.5,0.6
2024-04-23T1200,2212A,123.2,41.1953,辽阳市,宏伟区,,40,40,34,22,20,97,,80,80,10,11,11,10,0.6,0.6
2024-04-23T1200,2213A,123.1683,41.2495,辽阳市,新华园,,41,41,40,24,23,100,,80,80,9,14,6,6,0.6,0.6
2024-04-23T1200,2214A,123.2354,41.2639,辽阳市,滨河路,,47,47,45,24,22,93,,69,69,16,18,11,9,0.5,0.5
2024-04-23T1200,2215A,123.149,41.2991,辽阳市,铁西工业园,颗粒物(PM10),55,60,49,19,24,100,,85,85,11,16,12,13,0.2,0.3
2024-04-23T1200,2227A,125.1358,42.8845,辽源市,环保局,,43,43,39,18,16,108,,78,78,15,15,7,8,0.6,0.5
2024-04-23T1200,3239A,125.0764,42.9078,辽源市,银鹰制药,,48,48,48,19,20,98,,80,80,15,17,9,11,0.6,0.6
2024-04-23T1200,1625A,115.9848,36.4372,聊城市,区政府,颗粒物(PM10),125,199,117,25,47,95,,85,85,7,14,4,6,0.4,0.7
2024-04-23T1200,2878A,116.0072,36.4343,聊城市,聊大东校,颗粒物(PM10),150,249,123,29,47,94,,85,85,5,12,6,6,0.4,0.9
2024-04-23T1200,3200A,115.9819,36.4978,聊城市,监控中心,颗粒物(PM10),107,163,127,24,43,95,,85,84,2,8,6,7,0.2,0.5
2024-04-23T1200,3513A,116.0445,36.4361,聊城市,九州社区,颗粒物(PM10),98,145,121,25,46,98,,87,87,7,13,4,6,0.6,0.7
2024-04-23T1200,4018A,116.0567,36.4608,聊城市,星美广场,颗粒物(PM10),105,159,115,35,49,94,,84,84,6,12,,5,0.4,0.6
2024-04-23T1200,2632A,94.3681,29.6376,林芝市,林芝监测站,,28,5,5,0,7,88,,96,82,5,4,6,6,0.4,0.4
2024-04-23T1200,2633A,94.3616,29.6616,林芝市,林芝人民医院,,28,9,8,3,4,87,,94,82,8,5,6,6,0.3,0.3
2024-04-23T1200,2603A,100.0781,23.8982,临沧市,市环保局,细颗粒物(PM2.5),64,61,55,46,45,132,,74,74,12,13,8,8,0.6,0.6
2024-04-23T1200,2604A,100.0894,23.8822,临沧市,市气象局,颗粒物(PM10),60,70,62,36,36,131,,75,75,14,14,10,8,0.5,0.5
2024-04-23T1200,1733A,111.5531,36.0783,临汾市,临钢医院,,38,38,215,23,44,90,,89,82,7,12,3,6,0.3,0.4
2024-04-23T1200,1734A,111.5028,36.0714,临汾市,技工学校,,38,38,199,9,43,86,,84,78,6,12,5,8,0.3,0.4
2024-04-23T1200,1736A,111.5018,36.0855,临汾市,市委,,30,24,194,6,40,94,,92,86,2,8,3,5,0.3,0.5
2024-04-23T1200,3018A,111.505,36.1014,临汾市,唐尧大酒店,,45,45,186,1,42,90,,88,82,6,11,5,7,0.3,0.5
2024-04-23T1200,3668A,111.5036,36.0414,临汾市,城南,,30,28,212,3,41,93,,88,83,8,12,4,7,0.3,0.4
2024-04-23T1200,2667A,103.2069,35.5993,临夏回族自治州,环保局,颗粒物(PM10),59,68,63,25,27,98,,46,46,8,14,4,4,0.4,0.4
2024-04-23T1200,2668A,103.2417,35.6057,临夏回族自治州,建设大厦,,35,35,61,8,28,95,,48,48,15,19,6,6,0.4,0.4
2024-04-23T1200,1618A,118.3429,35.0532,临沂市,沂河小区,颗粒物(PM10),52,53,53,14,27,87,,77,77,11,14,8,8,0.2,0.3
2024-04-23T1200,1619A,118.295,35.0583,临沂市,鲁南制药厂,,44,44,52,12,22,89,,82,82,16,14,9,7,0.4,0.4
2024-04-23T1200,1620A,118.2794,34.9976,临沂市,新光毛纺厂,,,31,46,15,24,81,,69,69,22,19,,5,,0.5
2024-04-23T1200,1621A,118.3956,35.0888,临沂市,河东保险公司,,41,41,41,17,25,84,,73,73,9,12,5,5,0.1,0.1
2024-04-23T1200,3370A,118.3564,35.0215,临沂市,十里堡居委,,39,39,44,19,26,92,,79,79,14,17,11,10,0.5,0.6
2024-04-23T1200,3496A,118.3604,35.1084,临沂市,南坊新区,颗粒物(PM10),52,53,47,22,24,87,,87,87,13,15,8,7,0.4,0.4
2024-04-23T1200,3860A,118.3920,35.0300,临沂市,皇山花园小区,,44,44,48,30,35,93,,80,80,12,16,10,9,0.5,0.5
2024-04-23T1200,1870A,109.4856,24.3895,柳州市,柳东小学,,26,26,30,8,22,70,,52,52,5,11,7,9,0.5,0.6
2024-04-23T1200,1871A,109.4157,24.3277,柳州市,环保监测站,,25,22,41,17,25,76,,49,49,6,14,7,10,0.7,0.9
2024-04-23T1200,1872A,109.389,24.341,柳州市,河西水厂,,30,30,43,13,24,64,,43,43,12,17,14,14,1.0,0.9
2024-04-23T1200,1873A,109.4311,24.2921,柳州市,市四中,,26,26,36,13,21,80,,53,53,5,14,7,9,0.6,0.7
2024-04-23T1200,1874A,109.4006,24.3631,柳州市,市九中,,24,20,51,7,27,75,,42,42,7,21,7,12,0.5,1
2024-04-23T1200,1875A,109.4958,24.3134,柳州市,古亭山,,33,33,32,15,20,71,,54,54,4,9,6,5,0.5,0.6
2024-04-23T1200,3402A,109.5422,24.3996,柳州市,市二中,,31,31,30,17,20,69,,52,52,8,13,8,8,0.6,0.6
2024-04-23T1200,2307A,116.5079,31.737,六安市,监测大楼,颗粒物(PM10),56,61,57,16,44,141,,109,109,9,16,6,6,0.5,0.6
2024-04-23T1200,2308A,116.4738,31.7643,六安市,皖西学院,颗粒物(PM10),57,63,62,24,41,146,,109,107,8,15,4,4,0.6,0.6
2024-04-23T1200,2309A,116.4996,31.7905,六安市,朝阳厂,,48,48,57,27,45,142,,104,103,6,14,6,6,0.3,0.4
2024-04-23T1200,2310A,116.5567,31.7886,六安市,开发区,颗粒物(PM10),56,62,67,29,37,140,,101,101,10,20,7,7,0.6,0.7
2024-04-23T1200,2577A,104.83,26.5917,六盘水市,黄土坡,,28,14,25,7,19,88,,94,94,11,9,11,6,0.4,0.4
2024-04-23T1200,2578A,104.89,26.5939,六盘水市,水钢,,28,17,31,10,21,89,,94,93,16,12,8,8,0.4,0.6
2024-04-23T1200,2579A,104.8475,26.5894,六盘水市,民中,,28,13,26,5,17,88,,93,93,9,8,9,6,0.3,0.4
2024-04-23T1200,2580A,104.9544,26.5506,六盘水市,双水,,,,25,18,15,94,,84,84,,10,,6,0.2,0.1
2024-04-23T1200,2336A,117.0217,25.1033,龙岩市,龙岩市监测站,,26,24,21,18,16,69,,43,43,7,16,5,5,0.5,0.6
2024-04-23T1200,2337A,117.0258,25.0661,龙岩市,闽西职业技术学院,,21,17,19,13,12,65,,45,45,6,11,5,3,0.4,0.4
2024-04-23T1200,2338A,117.0196,25.0306,龙岩市,龙岩学院,,23,18,17,14,11,71,,49,49,3,6,3,3,0.5,0.5
2024-04-23T1200,2885A,104.9339,33.3826,陇南市,滨江中学,,49,49,51,17,16,76,,79,65,7,4,4,3,0.5,0.5
2024-04-23T1200,3247A,104.955,33.371,陇南市,市总工会,,46,46,38,5,6,67,,66,57,10,7,4,4,0.5,0.4
2024-04-23T1200,2487A,111.9589,27.8901,娄底市,电视发射台,,35,34,49,22,32,109,,59,59,5,5,4,5,0.6,0.7
2024-04-23T1200,2488A,111.9975,27.725,娄底市,市监测站,,,37,64,24,42,122,,84,84,3,13,,11,0.4,0.8
2024-04-23T1200,2489A,112.0194,27.7314,娄底市,市委党校,,38,27,53,26,39,114,,82,82,9,14,5,8,0.2,0.5
2024-04-23T1200,2490A,111.9561,27.7569,娄底市,涟钢,,34,25,56,18,35,106,,86,86,13,19,12,8,0.8,0.8
2024-04-23T1200,2491A,111.9892,27.7044,娄底市,市政府,,40,38,52,22,37,125,,94,94,5,10,6,8,0.4,0.7
2024-04-23T1200,1893A,105.4324,28.9634,泸州市,九狮山,,27,27,46,15,26,80,,38,38,8,13,5,6,0.2,0.3
2024-04-23T1200,1894A,105.4427,28.9063,泸州市,小市上码头,,39,39,54,24,31,73,,45,43,8,12,4,6,0.4,0.4
2024-04-23T1200,1895A,105.4241,28.8573,泸州市,兰田宪桥,,48,48,60,28,34,67,,41,41,10,13,6,6,0.3,0.4
2024-04-23T1200,1896A,105.4379,28.8833,泸州市,市环监站,,43,43,55,30,38,66,,40,39,12,17,5,9,0.4,0.4
2024-04-23T1200,3490A,105.3617,28.7703,泸州市,纳溪区环保局,,50,50,57,27,31,58,,40,40,10,19,6,7,0.4,0.4
2024-04-23T1200,2183A,111.1406,37.5211,吕梁市,环保局,,39,39,197,10,43,88,,78,73,5,8,3,3,0.2,0.2
2024-04-23T1200,2185A,111.1297,37.5136,吕梁市,自来水公司,,,,187,11,41,83,,76,70,6,10,,7,0.2,0.2
2024-04-23T1200,2867A,111.1283,37.51,吕梁市,马茂庄小学,,38,38,205,10,38,89,,78,72,6,11,6,6,0.4,0.3
2024-04-23T1200,1814A,112.4657,34.6871,洛阳市,豫西宾馆,颗粒物(PM10),56,62,124,19,37,96,,81,81,11,12,4,5,0.2,0.5
2024-04-23T1200,1815A,112.494,34.6886,洛阳市,河南林校,颗粒物(PM10),58,66,113,11,37,96,,78,78,10,14,4,6,0.3,0.5
2024-04-23T1200,1816A,112.3844,34.623,洛阳市,开发区管委会,,,72,114,16,38,95,,78,78,12,11,5,5,,0.4
2024-04-23T1200,1817A,112.4267,34.6258,洛阳市,市委新办公区,颗粒物(PM10),61,72,104,21,38,96,,82,82,11,10,7,7,0.1,0.3
2024-04-23T1200,3340A,112.6005,34.6326,洛阳市,伊滨,颗粒物(PM10),79,107,104,20,38,100,,75,75,10,13,5,6,0.2,0.4
2024-04-23T1200,3341A,112.4951,34.6332,洛阳市,中移产业园,颗粒物(PM10),56,62,104,13,33,96,,80,80,12,13,6,7,0.2,0.5
2024-04-23T1200,3593A,112.5736,34.8993,洛阳市,吉利监测站,颗粒物(PM10),74,97,136,12,30,105,,79,79,10,18,1,3,0.2,0.5
2024-04-23T1200,3635A,112.3677,34.662,洛阳市,河科大西苑校区,,,75,125,30,36,85,,70,70,,14,4,6,0.2,0.4
2024-04-23T1200,3636A,112.4388,34.6781,洛阳市,英才小学,颗粒物(PM10),63,76,122,17,37,93,,76,76,12,13,4,6,0.3,0.5
2024-04-23T1200,2399A,114.051,33.5699,漯河市,三五一五工厂,颗粒物(PM10),139,227,78,38,31,103,,67,67,,20,4,6,,0.6
2024-04-23T1200,2400A,114.0055,33.5698,漯河市,漯河大学,颗粒物(PM10),138,226,103,36,37,106,,72,72,8,16,6,9,0.1,0.3
2024-04-23T1200,2401A,114.0138,33.5828,漯河市,市水利局,颗粒物(PM10),144,237,107,41,35,101,,65,65,6,12,6,8,0.4,0.5
2024-04-23T1200,2402A,114.0261,33.5698,漯河市,市广电局,颗粒物(PM10),155,259,116,44,35,104,,70,70,8,15,4,7,0.3,0.5
2024-04-23T1200,3478A,113.9749,33.5664,漯河市,市图书馆,颗粒物(PM10),159,268,88,45,34,107,,69,69,10,17,6,11,0.2,0.4
2024-04-23T1200,3479A,114.0967,33.5906,漯河市,召陵区卫健委,颗粒物(PM10),208,355,102,43,31,107,,66,66,6,18,5,6,0.2,0.4
2024-04-23T1200,1798A,118.5092,31.6837,马鞍山市,湖东路四小,,49,49,62,26,37,156,,68,68,22,24,11,10,1.0,0.8
2024-04-23T1200,1799A,118.5024,31.6449,马鞍山市,开发区,细颗粒物(PM2.5),53,47,64,37,37,150,,71,71,30,36,9,8,1.2,1
2024-04-23T1200,1800A,118.5228,31.7231,马鞍山市,慈湖,颗粒物(PM10),59,68,71,38,36,137,,57,57,26,27,14,12,1.3,1.1
2024-04-23T1200,1802A,118.6245,31.7241,马鞍山市,濮塘,,50,50,51,26,30,133,,55,55,17,17,6,4,0.9,0.7
2024-04-23T1200,3633A,118.4918,31.6809,马鞍山市,雨山,颗粒物(PM10),62,74,79,32,31,156,,71,71,21,24,9,7,1.6,1.1
2024-04-23T1200,1686A,111.0286,21.4688,茂名市,电白南海,,,27,26,12,12,,,42,34,14,10,7,7,0.6,0.6
2024-04-23T1200,1687A,110.9294,21.6533,茂名市,茂石化七小,颗粒物(PM10),52,53,27,27,17,10,,28,22,26,13,14,10,1.1,0.6
2024-04-23T1200,1688A,110.9107,21.6687,茂名市,健康路,,41,41,18,22,10,8,,31,23,24,11,18,9,0.8,0.6
2024-04-23T1200,1689A,110.8592,21.6828,茂名市,高岭,,,44,28,22,16,,,32,,17,15,,41,0.8,0.9
2024-04-23T1200,3450A,111.01,21.5165,茂名市,电白水东,,24,24,17,14,11,29,,42,33,15,11,5,6,0.6,0.6
2024-04-23T1200,2539A,104.0308,30.0478,眉山市,黑龙滩水库,,23,23,47,14,27,59,,57,57,12,7,1,3,0.7,0.6
2024-04-23T1200,2540A,103.8416,30.0874,眉山市,气象局,,,37,48,2,16,79,,72,72,,17,,11,0.1,0.2
2024-04-23T1200,3137A,103.8578,30.0744,眉山市,市委党校,,25,19,40,5,18,79,,72,68,19,17,9,11,0.2,0.3
2024-04-23T1200,1690A,116.1231,24.3284,梅州市,梅江月梅,,45,34,22,31,14,42,,27,27,18,13,4,3,0.7,0.6
2024-04-23T1200,1691A,116.0797,24.2719,梅州市,梅县新城,,35,35,22,19,16,43,,21,21,10,14,4,3,0.5,0.4
2024-04-23T1200,1692A,116.1248,24.2654,梅州市,环境监控中心,,39,39,27,13,17,39,,18,18,14,18,4,4,0.6,0.5
2024-04-23T1200,3315A,116.1233,24.2991,梅州市,梅龙,,30,24,20,21,17,45,,28,28,10,11,8,7,0.7,0.6
2024-04-23T1200,1878A,104.7778,31.4741,绵阳市,富乐山,,16,16,33,10,21,44,,59,42,26,7,9,7,0.6,0.5
2024-04-23T1200,1879A,104.7563,31.4535,绵阳市,市人大,,33,33,40,16,20,52,,67,43,26,16,9,7,0.5,0.4
2024-04-23T1200,1880A,104.6697,31.4668,绵阳市,高新区自来水公司,,40,40,44,15,18,52,,68,40,28,17,10,8,0.3,0.3
2024-04-23T1200,1881A,104.7287,31.5075,绵阳市,三水厂,,23,23,38,12,24,39,,63,43,38,13,6,6,0.7,0.5
2024-04-23T1200,3491A,104.69,31.5322,绵阳市,西科大附属小学,,49,49,39,19,18,40,,57,38,38,22,7,8,0.6,0.4
2024-04-23T1200,3492A,104.5648,31.5343,绵阳市,安州区旅游局,,42,42,46,20,19,61,,62,44,18,14,10,7,0.5,0.4
2024-04-23T1200,1784A,129.61,44.561,牡丹江市,环保大楼,颗粒物(PM10),70,90,34,44,27,139,,88,88,20,11,9,5,0.6,0.4
2024-04-23T1200,1785A,129.6115,44.5782,牡丹江市,文化广场,细颗粒物(PM2.5),118,104,43,89,34,136,,84,84,22,15,11,7,0.6,0.4
2024-04-23T1200,1786A,129.5904,44.5963,牡丹江市,第一医院,,,57,43,28,32,120,,82,82,17,12,,6,0.5,0.4
2024-04-23T1200,1787A,129.6364,44.6075,牡丹江市,机车工厂,颗粒物(PM10),77,104,53,45,25,131,,83,83,20,13,8,5,0.5,0.3
2024-04-23T1200,1788A,129.6386,44.5462,牡丹江市,第一中学,细颗粒物(PM2.5),64,55,34,46,25,124,,85,85,17,13,8,6,0.4,0.3
2024-04-23T1200,2531A,105.0703,29.61,内江市,市监测站,,49,42,33,34,23,49,,44,38,19,13,8,8,0.4,0.3
2024-04-23T1200,2532A,105.0717,29.5947,内江市,东兴区政府,,28,22,31,19,14,57,,54,50,18,11,8,8,0.3,0.3
2024-04-23T1200,2533A,105.0653,29.5817,内江市,内江二中,,33,26,28,23,20,52,,53,47,15,10,5,6,0.4,0.4
2024-04-23T1200,2534A,105.0406,29.5822,内江市,内江日报社,,42,,23,29,19,50,,56,50,17,16,6,6,0.4,0.4
2024-04-23T1200,2628A,92.0657,31.4846,那曲市,那曲监测站,,38,36,31,14,12,119,,95,94,5,6,4,4,0.4,0.6
2024-04-23T1200,3128A,92.0506,31.4797,那曲市,那曲会议中心,,39,32,37,10,14,122,,98,95,3,4,2,2,0.4,0.5
2024-04-23T1200,1290A,115.8931,28.6843,南昌市,省外办,,47,47,40,29,23,122,,103,103,14,18,6,6,0.4,0.4
2024-04-23T1200,1291A,115.8886,28.7003,南昌市,省林业公司,,37,31,32,24,21,118,,96,96,10,20,4,4,0.3,0.3
2024-04-23T1200,1292A,115.8126,28.7442,南昌市,林科所,,,31,26,22,16,124,,114,113,6,11,,2,0.4,0.5
2024-04-23T1200,1294A,115.8518,28.687,南昌市,建工学校,,39,38,37,24,21,124,,109,109,8,15,4,5,0.4,0.4
2024-04-23T1200,1295A,115.8921,28.6424,南昌市,象湖,,41,40,36,24,22,130,,114,114,6,15,4,4,0.5,0.6
2024-04-23T1200,1296A,115.7423,28.7996,南昌市,武术学校,,46,,19,32,23,111,,83,83,3,5,7,7,0.3,0.3
2024-04-23T1200,1298A,115.9314,28.6842,南昌市,省站,,42,42,42,28,24,121,,106,105,9,14,8,8,0.6,0.6
2024-04-23T1200,3046A,115.9084,28.6062,南昌市,机电学校,,47,47,40,27,22,128,,111,111,10,18,6,7,0.6,0.7
2024-04-23T1200,3690A,115.9721,28.7031,南昌市,外国语学校,,46,40,35,32,24,120,,97,97,8,15,5,6,0.5,0.4
2024-04-23T1200,1906A,106.0789,30.8023,南充市,南充市委,,36,36,37,22,20,73,,38,38,13,13,7,7,0.1,0.1
2024-04-23T1200,1907A,106.1031,30.8217,南充市,南充炼油厂,,41,41,44,18,22,72,,42,42,13,8,6,6,0.2,0.1
2024-04-23T1200,1908A,106.1064,30.7856,南充市,高坪区监测站,,33,33,37,11,19,78,,41,41,16,14,6,7,0.1,0.1
2024-04-23T1200,1909A,106.0642,30.7636,南充市,嘉陵区环保局,,45,45,36,24,20,66,,36,36,16,16,7,8,0.2,0.2
2024-04-23T1200,1910A,106.1087,30.8388,南充市,市环境监测站,,50,50,40,27,25,73,,39,39,16,8,5,6,0.1,0.1
2024-04-23T1200,1151A,118.8086,32.1065,南京市,迈皋桥,细颗粒物(PM2.5),64,60,44,46,31,133,,48,48,27,26,4,4,0.8,0.6
2024-04-23T1200,1152A,118.7538,32.0551,南京市,草场门,细颗粒物(PM2.5),62,56,46,44,33,131,,52,52,31,33,4,4,0.9,0.7
2024-04-23T1200,1153A,118.7794,32.0745,南京市,山西路,细颗粒物(PM2.5),79,73,55,58,34,116,,50,50,23,21,4,4,0.7,0.5
2024-04-23T1200,1154A,118.7752,32.0023,南京市,中华门,,,63,53,39,32,123,,42,41,17,21,,7,0.8,0.7
2024-04-23T1200,1155A,118.8109,32.0309,南京市,瑞金路,,,,50,46,30,127,,48,48,17,17,5,6,0.5,0.4
2024-04-23T1200,1156A,118.7997,32.0754,南京市,玄武湖,,,,48,55,37,,,43,35,26,25,7,8,0.6,0.5
2024-04-23T1200,1157A,118.6414,32.0931,南京市,浦口,细颗粒物(PM2.5),53,49,44,37,24,117,,35,35,25,28,10,6,0.9,0.5
2024-04-23T1200,1158A,118.7356,31.9996,南京市,奥体中心,颗粒物(PM10),63,76,65,44,36,136,,53,53,21,23,10,10,0.8,0.6
2024-04-23T1200,1159A,118.9125,32.1028,南京市,仙林大学城,细颗粒物(PM2.5),62,58,47,44,28,135,,48,48,22,25,10,11,0.8,0.6
2024-04-23T1200,3422A,118.8436,31.9198,南京市,江宁彩虹桥,细颗粒物(PM2.5),58,,42,41,35,132,,52,52,15,17,4,4,0.6,0.6
2024-04-23T1200,3423A,119.0138,31.6494,南京市,溧水永阳,,37,31,54,19,27,117,,48,48,14,24,4,4,0.5,0.6
2024-04-23T1200,3424A,118.879,31.3302,南京市,高淳老职中,颗粒物(PM10),51,52,40,18,27,130,,60,60,13,21,4,6,0.4,0.4
2024-04-23T1200,3427A,118.8554,32.3578,南京市,六合雄州,细颗粒物(PM2.5),92,,38,68,24,115,,45,45,35,21,11,5,1.0,0.6
2024-04-23T1200,1401A,108.3103,22.7881,南宁市,二十一中,,19,17,41,13,23,39,,42,31,17,17,5,6,0.9,0.9
2024-04-23T1200,1402A,108.3141,22.8528,南宁市,北湖,,12,12,43,8,26,34,,41,25,18,15,6,6,0.8,0.8
2024-04-23T1200,1403A,108.3206,22.8225,南宁市,市监测站,,18,14,41,12,28,29,,43,28,23,19,6,6,1.0,1
2024-04-23T1200,1404A,108.3829,22.8037,南宁市,大自然花园,,15,14,42,10,28,28,,39,29,18,16,6,5,0.8,0.8
2024-04-23T1200,1405A,108.4394,22.7904,南宁市,仙葫,,,,44,11,26,44,,,,18,17,5,6,1.2,1.1
2024-04-23T1200,1406A,108.2397,22.8467,南宁市,区农职院,,13,8,45,7,25,41,,38,30,8,17,6,7,0.6,0.7
2024-04-23T1200,1407A,108.3275,22.735,南宁市,英华嘉园,,15,,43,10,27,27,,35,27,24,19,6,6,0.7,0.7
2024-04-23T1200,1408A,108.2257,22.7757,南宁市,沙井镇街道办,,15,14,44,10,24,42,,32,30,14,22,6,4,0.8,0.9
2024-04-23T1200,3401A,108.4834,22.7618,南宁市,红星社区,,15,8,42,5,30,48,,42,42,12,16,9,8,0.7,0.8
2024-04-23T1200,2332A,118.1681,26.6369,南平市,南平市监测站,,38,36,24,26,12,44,,29,29,15,12,4,4,0.9,0.7
2024-04-23T1200,2333A,118.1825,26.6489,南平市,南平铝业有限公司,,28,22,23,19,12,45,,31,31,12,14,5,5,1.0,0.8
2024-04-23T1200,2334A,118.1756,26.6272,南平市,南平七中,,29,29,26,20,15,43,,21,21,11,10,5,4,0.8,0.8
2024-04-23T1200,1168A,120.9098,31.9663,南通市,狼山街道,,,38,20,23,11,,,80,67,39,15,10,9,0.8,0.5
2024-04-23T1200,1169A,120.86,32.0005,南通市,虹桥,细颗粒物(PM2.5),55,46,28,39,15,50,,74,61,45,14,9,5,1.0,0.5
2024-04-23T1200,1170A,120.87,32.02,南通市,城中,细颗粒物(PM2.5),63,60,31,45,18,52,,74,62,40,12,8,5,1.3,0.6
2024-04-23T1200,1171A,120.94,31.93,南通市,星湖花园,,42,39,20,29,14,56,,71,60,32,16,7,7,0.7,0.6
2024-04-23T1200,1172A,120.81,32.0417,南通市,紫琅学院,细颗粒物(PM2.5),58,44,20,41,12,53,,76,59,45,18,12,8,1.6,0.7
2024-04-23T1200,3291A,121.067,32.062,南通市,通州监测站,,41,41,24,27,10,73,,88,80,15,5,9,8,0.8,0.7
2024-04-23T1200,3432A,120.9348,31.9883,南通市,环境教育馆,,48,41,21,33,12,68,,78,64,31,13,7,7,0.8,0.5
2024-04-23T1200,2404A,112.5224,33.0122,南阳市,瓦房庄,颗粒物(PM10),334,447,114,85,42,108,,64,64,7,21,5,6,0.4,0.6
2024-04-23T1200,2405A,112.5003,32.9735,南阳市,汉画馆,颗粒物(PM10),339,451,114,103,51,109,,57,57,7,23,4,4,0.3,0.6
2024-04-23T1200,2406A,112.5573,33.027,南阳市,气象站,颗粒物(PM10),359,467,109,78,43,106,,64,64,9,21,5,7,0.4,0.6
2024-04-23T1200,2407A,112.5481,32.9689,南阳市,理工学院,颗粒物(PM10),312,429,111,108,50,108,,59,59,7,25,2,4,0.3,0.6
2024-04-23T1200,4008A,112.5234,32.9922,南阳市,卧龙区政府,颗粒物(PM10),337,449,106,100,49,104,,59,59,,27,4,7,0.2,0.9
2024-04-23T1200,1234A,121.8358,29.911,宁波市,区环保大楼,,29,17,28,10,15,21,,36,29,57,49,9,8,0.9,0.8
2024-04-23T1200,1235A,121.56,29.82,宁波市,万里学院,,,,23,,14,,,59,52,27,25,6,7,0.6,0.5
2024-04-23T1200,1236A,121.713,29.9572,宁波市,龙赛医院,,21,15,22,8,11,33,,39,36,42,43,9,11,0.6,0.6
2024-04-23T1200,1239A,121.633,29.7733,宁波市,钱湖水厂,,19,7,14,6,10,59,,65,60,11,15,8,8,0.6,0.6
2024-04-23T1200,1240A,121.5856,29.8635,宁波市,太古小学,,15,12,22,10,13,45,,53,48,30,35,8,8,0.9,0.8
2024-04-23T1200,1241A,121.524,29.8674,宁波市,市环境监测中心,,15,13,24,6,13,48,,55,50,30,35,6,7,0.7,0.6
2024-04-23T1200,2871A,121.6147,29.9017,宁波市,万里国际学校,,,24,36,10,16,,,56,50,46,44,10,10,0.6,0.6
2024-04-23T1200,3710A,121.5594,29.8975,宁波市,白沙活动中心,,17,13,32,4,8,45,,50,47,34,36,8,8,0.5,0.5
2024-04-23T1200,2341A,119.5388,26.6612,宁德市,宁德市监测站,,32,26,21,22,20,53,,76,64,20,13,6,6,0.8,0.7
2024-04-23T1200,3209A,119.5231,26.6562,宁德市,宁德一中,,31,31,26,18,21,54,,83,67,27,18,7,7,0.7,0.6
2024-04-23T1200,2618A,98.8601,25.8567,怒江傈僳族自治州,州监测站,,40,37,36,28,22,91,,53,53,5,7,8,7,0.4,0.4
2024-04-23T1200,2619A,98.8546,25.8417,怒江傈僳族自治州,泸水一中,颗粒物(PM10),57,63,41,33,20,82,,37,37,11,14,7,6,0.4,0.4
2024-04-23T1200,1888A,101.6891,26.571,攀枝花市,弄弄坪,颗粒物(PM10),56,62,58,29,28,114,,88,83,16,20,28,26,0.5,1.1
2024-04-23T1200,1889A,101.5769,26.5928,攀枝花市,河门口,颗粒物(PM10),62,74,54,36,31,128,,87,83,18,17,29,14,0.8,0.7
2024-04-23T1200,1890A,101.7169,26.585,攀枝花市,炳草岗,颗粒物(PM10),51,52,54,25,23,121,,66,66,12,23,34,26,0.6,0.7
2024-04-23T1200,1891A,101.7369,26.5008,攀枝花市,仁和,颗粒物(PM10),59,68,52,36,28,134,,87,87,12,15,17,11,0.7,0.6
2024-04-23T1200,2835A,101.7227,26.567,攀枝花市,四十中小,颗粒物(PM10),52,53,41,29,23,124,,94,87,11,15,29,15,0.5,0.8
2024-04-23T1200,1604A,122.0303,41.1489,盘锦市,开发区,颗粒物(PM10),77,103,47,48,39,77,,66,66,29,24,10,16,0.6,0.6
2024-04-23T1200,1605A,122.0485,41.0883,盘锦市,兴隆台,颗粒物(PM10),51,51,42,19,34,108,,71,71,12,22,12,17,0.6,0.7
2024-04-23T1200,1606A,121.8297,41.1028,盘锦市,新生街道,细颗粒物(PM2.5),73,80,40,53,33,44,,45,45,35,30,8,15,0.7,0.5
2024-04-23T1200,1832A,113.3257,33.742,平顶山市,新华旅馆,颗粒物(PM10),141,231,161,52,52,104,,88,88,8,17,7,9,0.2,0.4
2024-04-23T1200,1833A,113.2919,33.737,平顶山市,规划设计院,颗粒物(PM10),143,236,136,42,45,95,,78,78,7,18,7,8,0.2,0.6
2024-04-23T1200,1834A,113.182,33.774,平顶山市,平顶山工学院,颗粒物(PM10),152,253,143,44,42,99,,85,85,4,11,6,5,0.4,0.5
2024-04-23T1200,3204A,113.3025,33.73,平顶山市,规划局,颗粒物(PM10),183,315,164,52,43,100,,83,83,3,14,9,9,0.4,0.6
2024-04-23T1200,3594A,112.8867,33.9116,平顶山市,石龙区,颗粒物(PM10),140,230,161,30,46,100,,88,88,6,18,7,9,0.3,0.4
2024-04-23T1200,2656A,106.6692,35.5461,平凉市,聚贤嘉苑,颗粒物(PM10),500,659,318,111,63,90,,71,66,21,22,9,9,0.4,0.4
2024-04-23T1200,2657A,106.7021,35.5307,平凉市,博物馆,颗粒物(PM10),498,598,301,125,67,98,,80,71,15,16,13,10,0.2,0.2
2024-04-23T1200,2347A,114.0997,27.5002,萍乡市,武功山,,30,16,13,4,3,94,,80,80,6,5,8,10,0.8,0.7
2024-04-23T1200,2348A,113.8385,27.6434,萍乡市,中医院,,41,41,29,21,21,102,,76,76,8,13,7,6,1.0,1.3
2024-04-23T1200,2349A,113.8493,27.6253,萍乡市,市政府车库,,50,,22,35,20,102,,70,70,10,15,12,12,0.9,1
2024-04-23T1200,2350A,113.8676,27.6435,萍乡市,市环保局,,45,45,26,28,17,94,,70,69,13,14,7,8,1.0,1.1
2024-04-23T1200,2351A,113.866,27.6198,萍乡市,安源区政府,,31,30,28,16,13,97,,71,71,12,14,11,11,0.8,0.8
2024-04-23T1200,2319A,119.0141,25.4325,莆田市,荔城区仓后路,细颗粒物(PM2.5),53,49,29,37,18,56,,42,40,22,14,6,5,0.8,0.8
2024-04-23T1200,2320A,119.0015,25.4553,莆田市,莆田市监测站,细颗粒物(PM2.5),62,48,31,44,15,54,,40,40,29,14,8,6,0.9,0.7
2024-04-23T1200,2321A,119.1119,25.4561,莆田市,涵江区六中,,42,31,26,29,18,55,,43,43,33,28,8,7,0.6,0.6
2024-04-23T1200,2322A,119.1013,25.3215,莆田市,秀屿区政府,细颗粒物(PM2.5),58,60,26,41,22,49,,44,44,14,14,17,9,0.8,0.8
2024-04-23T1200,2392A,115.0312,35.7636,濮阳市,环保局,颗粒物(PM10),129,207,102,23,38,100,,94,88,7,9,8,9,0.4,0.6
2024-04-23T1200,2394A,115.0574,35.7609,濮阳市,油田运输公司,颗粒物(PM10),108,166,110,41,41,100,,96,89,10,12,8,9,0.2,0.5
2024-04-23T1200,2395A,115.0866,35.7754,濮阳市,油田物探公司,颗粒物(PM10),98,146,99,48,44,102,,96,90,7,10,8,8,0.2,0.4
2024-04-23T1200,3021A,115,35.7668,濮阳市,濮水河管理处,颗粒物(PM10),118,185,98,27,37,97,,83,81,7,8,8,8,0.3,0.5
2024-04-23T1200,2601A,100.98,22.7633,普洱市,市环保局,颗粒物(PM10),60,70,67,40,45,150,,82,82,11,13,9,8,0.5,0.4
2024-04-23T1200,2602A,100.9817,22.8322,普洱市,普洱第二中学,颗粒物(PM10),57,64,60,35,34,148,,60,60,13,28,10,9,0.4,0.4
2024-04-23T1200,2262A,131.0518,45.8751,七台河市,新一中,细颗粒物(PM2.5),70,71,85,51,70,127,,81,81,17,24,10,13,1.1,1.1
2024-04-23T1200,3345A,131.0577,45.7879,七台河市,中波台,颗粒物(PM10),59,67,61,40,44,125,,81,81,20,20,11,8,0.8,0.8
2024-04-23T1200,3637A,131.0176,45.7761,七台河市,人民广场,细颗粒物(PM2.5),99,96,72,74,51,126,,80,80,19,22,13,11,0.7,0.6
2024-04-23T1200,3684A,130.8781,45.8222,七台河市,新建矿广场,,,,94,,56,,,68,68,26,34,,20,1.0,0.9
2024-04-23T1200,1779A,123.9305,47.3636,齐齐哈尔市,安居小区,,,,39,,18,,,35,34,18,14,4,3,0.3,0.5
2024-04-23T1200,1780A,123.9488,47.3386,齐齐哈尔市,中心广场,,49,49,44,10,17,49,,40,39,21,14,9,7,0.5,0.5
2024-04-23T1200,1781A,123.9483,47.3227,齐齐哈尔市,农牧车辆厂,,39,39,41,12,13,54,,39,39,16,13,9,8,0.3,0.3
2024-04-23T1200,1783A,123.945,47.2988,齐齐哈尔市,市环境监测站,,40,40,43,19,19,55,,41,41,16,13,6,4,0.4,0.4
2024-04-23T1200,3662A,123.6333,47.2075,齐齐哈尔市,富区青少年活动中心,,30,30,38,12,11,59,,41,41,15,15,7,9,0.4,0.5
2024-04-23T1200,2591A,107.9783,26.5747,黔东南苗族侗族自治州,市环境监测站,,28,27,48,19,29,67,,41,41,9,13,3,3,0.5,0.6
2024-04-23T1200,2881A,107.8908,26.5311,黔东南苗族侗族自治州,凯里学院,,24,,46,14,25,75,,46,46,3,10,2,2,0.4,0.4
2024-04-23T1200,2593A,107.5228,26.2403,黔南布依族苗族自治州,小围寨,,27,22,28,12,17,84,,56,56,6,6,9,4,0.6,0.6
2024-04-23T1200,3538A,107.5175,26.2978,黔南布依族苗族自治州,沙坝,,31,31,36,7,17,81,,54,54,7,7,7,4,0.4,0.5
2024-04-23T1200,2589A,104.9022,25.0925,黔西南布依族苗族自治州,场坝街,,24,12,28,6,20,75,,63,63,7,6,5,3,0.2,0.2
2024-04-23T1200,2590A,104.8811,25.0992,黔西南布依族苗族自治州,坪东大道,,27,11,29,7,19,85,,66,64,6,7,4,2,0.2,0.2
2024-04-23T1200,2502A,108.6236,21.9667,钦州市,市环保站,,24,14,43,9,21,44,,34,34,13,23,6,6,2.4,0.9
2024-04-23T1200,2503A,108.6549,21.9481,钦州市,沙埠小学,,,12,44,10,22,45,,35,35,10,20,4,6,,0.9
2024-04-23T1200,2504A,108.5989,21.7431,钦州市,港区一小,,48,48,55,14,21,49,,27,27,14,23,7,7,0.9,0.8
2024-04-23T1200,3404A,108.5959,21.9633,钦州市,北职校,,16,16,43,7,28,44,,21,21,12,25,7,8,0.9,0.9
2024-04-23T1200,1042A,119.5134,39.8207,秦皇岛市,北戴河环保局,,20,6,45,6,19,64,,86,74,19,21,6,7,0.3,0.3
2024-04-23T1200,1043A,119.7493,40.0116,秦皇岛市,第一关,颗粒物(PM10),51,52,50,28,40,43,,70,60,39,30,6,7,0.3,0.3
2024-04-23T1200,1044A,119.5897,39.9499,秦皇岛市,监测站,,30,30,55,16,36,52,,79,68,31,24,5,6,0.4,0.3
2024-04-23T1200,1046A,119.5251,39.9041,秦皇岛市,建设大厦,,,,45,20,27,52,,78,68,,19,3,4,,0.2
2024-04-23T1200,3132A,119.610547,39.943889,秦皇岛市,文明里,,17,,45,8,26,53,,71,59,20,25,3,3,0.4,0.4
2024-04-23T1200,1307A,120.6659,36.2403,青岛市,仰口,,31,31,20,5,13,95,,72,72,8,15,3,3,0.5,0.5
2024-04-23T1200,1310A,120.4134,36.0658,青岛市,市南区东部子站,,,5,18,5,12,76,,63,63,,23,6,7,,0.5
2024-04-23T1200,1311A,120.3664,36.1032,青岛市,四方区子站,,28,14,17,9,15,89,,78,78,13,20,3,4,0.4,0.4
2024-04-23T1200,1312A,120.2994,36.054,青岛市,市南区西部子站,,24,,17,5,13,76,,73,73,14,26,6,7,0.7,0.7
2024-04-23T1200,1313A,120.4581,36.0858,青岛市,崂山区子站,,26,14,15,5,12,81,,75,75,15,22,7,8,0.5,0.5
2024-04-23T1200,1314A,120.1983,35.9608,青岛市,黄岛区子站,,27,9,14,7,13,84,,78,73,14,21,5,6,0.6,0.6
2024-04-23T1200,1315A,120.3999,36.3083,青岛市,城阳区子站,,32,14,20,7,10,101,,89,89,15,21,6,7,0.5,0.5
2024-04-23T1200,1966A,120.0405,35.8735,青岛市,黄岛区4号,,30,9,13,0,8,93,,74,74,13,25,8,9,0.6,0.6
2024-04-23T1200,3362A,120.5014,36.4034,青岛市,即墨2号,,36,26,23,2,8,114,,90,90,6,10,4,5,0.4,0.5
2024-04-23T1200,3642A,120.3503,36.0736,青岛市,市北区南部,,27,10,16,2,9,85,,78,78,16,21,6,7,0.8,0.7
2024-04-23T1200,3643A,120.3948,36.1805,青岛市,李沧区北部,,29,9,14,7,13,91,,82,80,14,19,8,8,0.4,0.4
2024-04-23T1200,1702A,113.0426,23.691,清远市,环保大楼,,15,,21,6,19,48,,51,51,11,13,4,5,0.8,0.9
2024-04-23T1200,1703A,113.0208,23.7106,清远市,凤城街办,,18,4,30,3,25,57,,57,57,22,27,5,5,0.5,0.6
2024-04-23T1200,3025A,113.0477,23.6344,清远市,技师学院,,20,5,38,3,26,64,,56,56,24,21,4,4,0.7,0.7
2024-04-23T1200,3318A,112.9903,23.7403,清远市,清新太和,,20,,30,4,19,61,,63,63,24,23,6,6,0.7,0.7
2024-04-23T1200,3455A,113.076,23.7198,清远市,清城东城,,24,5,33,2,25,74,,70,70,18,19,4,4,0.6,0.6
2024-04-23T1200,2661A,107.6325,35.7357,庆阳市,庆阳五中,颗粒物(PM10),205,353,431,86,91,94,,94,87,12,9,5,4,0.2,0.2
2024-04-23T1200,2662A,107.6364,35.7067,庆阳市,市环保局,颗粒物(PM10),184,317,442,73,78,94,,94,86,12,10,3,3,0.3,0.3
2024-04-23T1200,1916A,103.7897,25.5035,曲靖市,环境监测站,,25,19,50,9,22,79,,58,58,9,11,7,8,0.5,0.5
2024-04-23T1200,1917A,103.8,25.5364,曲靖市,烟厂办公区,,26,19,42,5,20,83,,69,69,9,11,4,4,0.4,0.5
2024-04-23T1200,3376A,103.7947,25.462,曲靖市,南苑二区,,27,24,48,6,25,84,,73,73,13,15,10,10,0.5,0.6
2024-04-23T1200,3377A,103.7444,25.5261,曲靖市,曲靖师范学院,,27,24,43,10,24,84,,74,74,12,18,8,7,0.6,0.6
2024-04-23T1200,1264A,118.8692,28.9398,衢州市,环保大楼,,49,44,34,34,25,60,,50,45,28,20,4,5,1.1,0.6
2024-04-23T1200,1265A,118.8709,28.9666,衢州市,实验学校,,49,47,38,34,27,58,,49,46,26,17,7,4,0.6,0.4
2024-04-23T1200,1266A,118.8621,28.9808,衢州市,衢州学院,,49,40,30,34,24,51,,44,43,32,22,4,3,0.7,0.5
2024-04-23T1200,1611A,118.5819,24.9117,泉州市,涂山街,细颗粒物(PM2.5),64,69,41,46,29,77,,46,45,35,24,8,4,0.8,0.7
2024-04-23T1200,1612A,118.5972,24.8978,泉州市,津头埔,颗粒物(PM10),58,65,38,38,28,73,,40,39,37,30,6,5,0.7,0.7
2024-04-23T1200,1613A,118.6663,24.9424,泉州市,万安,细颗粒物(PM2.5),74,65,33,54,23,90,,43,43,31,28,3,2,0.7,0.5
2024-04-23T1200,3529A,118.6333,24.9264,泉州市,城华南路,细颗粒物(PM2.5),59,56,34,42,26,79,,37,37,33,30,6,4,0.6,0.4
2024-04-23T1200,2626A,88.8876,29.2718,日喀则市,日喀则监测站,,44,33,33,29,17,140,,124,120,6,6,4,5,0.4,0.4
2024-04-23T1200,3726A,88.8781,29.2426,日喀则市,林业技术推广中心,,45,21,35,13,15,142,,131,124,6,6,5,5,0.4,0.4
2024-04-23T1200,1659A,119.471,35.4209,日照市,监测站,,33,14,23,6,15,104,,71,63,20,32,9,9,0.6,0.6
2024-04-23T1200,1660A,119.523,35.4216,日照市,市政府广场,,29,29,21,10,9,88,,79,71,28,21,9,8,0.6,0.6
2024-04-23T1200,1661A,119.5587,35.4044,日照市,港务局,,27,24,16,2,7,84,,82,77,11,13,4,5,0.6,0.5
2024-04-23T1200,3507A,119.5328,35.4625,日照市,职业技术学院,,29,29,19,9,10,80,,69,68,23,18,8,8,0.7,0.7
2024-04-23T1200,3604A,119.3266,35.1044,日照市,岚山环保分局,,,63,30,44,17,100,,75,70,,22,6,7,1.1,0.7
2024-04-23T1200,1835A,111.1922,34.7752,三门峡市,市政府,,,110,171,31,40,94,,92,92,9,17,7,7,,0.5
2024-04-23T1200,1836A,111.1587,34.7942,三门峡市,开发区,颗粒物(PM10),63,75,141,13,36,96,,94,94,7,10,10,11,0.3,0.3
2024-04-23T1200,3039A,111.1911,34.7829,三门峡市,三门峡市第一小学,颗粒物(PM10),66,81,203,19,31,96,,93,93,11,15,7,6,0.3,0.3
2024-04-23T1200,3598A,111.1,34.7167,三门峡市,富达温泉假日酒店,颗粒物(PM10),59,67,191,15,36,94,,87,87,6,15,10,12,0.5,0.5
2024-04-23T1200,2324A,117.6211,26.2625,三明市,三钢,,43,31,34,30,23,55,,17,17,18,22,13,11,1.4,1.3
2024-04-23T1200,2325A,117.635,26.2714,三明市,三明二中,,38,34,31,26,20,54,,19,19,22,20,9,7,1.0,0.9
2024-04-23T1200,2326A,117.6028,26.2378,三明市,三元区政府,,49,34,42,34,26,46,,15,15,18,22,13,10,0.8,1
2024-04-23T1200,1876A,109.5078,18.2489,三亚市,河东子站,,18,18,23,10,9,50,,42,42,2,4,3,3,0.4,0.3
2024-04-23T1200,1877A,109.4964,18.2681,三亚市,河西子站,,,,20,6,8,42,,38,38,3,6,3,2,0.5,0.3
2024-04-23T1200,3540A,109.7348,18.3443,三亚市,君悦子站,,35,35,24,9,9,51,,32,32,4,7,2,2,0.5,0.5
2024-04-23T1200,2624A,91.7608,29.2313,山南市,山南监测站,,41,29,52,16,17,130,,121,113,7,4,7,6,0.4,0.4
2024-04-23T1200,2625A,91.7706,29.2436,山南市,山南人民医院,,41,29,65,20,27,131,,110,100,10,10,8,8,0.4,0.4
2024-04-23T1200,1674A,116.6794,23.3667,汕头市,金平子站,,31,17,24,14,18,97,,54,54,10,17,3,3,0.7,0.8
2024-04-23T1200,1675A,116.7244,23.3633,汕头市,龙湖子站,,,,28,13,20,104,,51,51,8,10,7,5,1.0,0.8
2024-04-23T1200,1676A,116.7258,23.2775,汕头市,濠江子站,,30,19,29,10,25,96,,46,46,10,11,4,4,0.6,0.7
2024-04-23T1200,1677A,116.7519,23.4714,汕头市,澄海子站,,30,,34,21,25,92,,48,48,17,20,6,5,1.0,1.1
2024-04-23T1200,1678A,116.6092,23.2539,汕头市,潮阳子站,,32,,30,16,22,101,,60,60,4,8,4,4,0.7,0.8
2024-04-23T1200,3444A,116.454,23.2684,汕头市,潮南峡山,,28,16,27,11,18,87,,57,57,1,4,3,4,0.8,0.8
2024-04-23T1200,3624A,116.4069,23.2533,汕头市,潮南子站,,27,23,28,15,18,84,,59,59,4,5,6,7,0.8,0.8
2024-04-23T1200,1693A,115.3653,22.775,汕尾市,市环保局,,30,12,22,11,13,95,,81,81,7,7,8,8,0.7,0.7
2024-04-23T1200,1694A,115.3706,22.7898,汕尾市,市政府,,30,,19,14,17,93,,77,77,12,8,4,4,0.8,0.7
2024-04-23T1200,1695A,115.3622,22.7925,汕尾市,新城中学,,29,12,21,9,13,92,,71,71,11,9,6,6,0.7,0.7
2024-04-23T1200,2645A,109.9154,33.8715,商洛市,监测站,颗粒物(PM10),375,480,142,101,41,95,,61,61,4,9,6,7,0.2,0.3
2024-04-23T1200,3045A,109.9643,33.8471,商洛市,商州区中学,颗粒物(PM10),410,510,173,97,44,98,,56,56,6,17,6,9,0.2,0.3
2024-04-23T1200,2408A,115.6702,34.4285,商丘市,环境监测站,颗粒物(PM10),280,406,79,46,32,112,,103,98,13,13,11,7,0.3,0.4
2024-04-23T1200,2409A,115.6458,34.4045,商丘市,粮食局,颗粒物(PM10),357,465,89,58,32,115,,103,99,6,8,13,9,0.4,0.5
2024-04-23T1200,2410A,115.6293,34.3948,商丘市,睢阳区环保局,颗粒物(PM10),460,560,118,50,32,118,,100,95,11,16,10,7,0.4,0.5
2024-04-23T1200,3171A,115.6071,34.4465,商丘市,梁园区档案局,颗粒物(PM10),452,552,94,28,30,107,,95,87,10,11,10,7,0.4,0.5
2024-04-23T1200,1141A,121.4,31.238,上海市,普陀,,46,,30,32,25,71,,58,57,31,32,4,5,0.7,0.6
2024-04-23T1200,1142A,121.478,31.2036,上海市,十五厂,,25,25,25,17,16,75,,63,63,34,28,7,8,0.5,0.5
2024-04-23T1200,1143A,121.467,31.3008,上海市,虹口,,38,27,28,26,24,79,,66,59,33,32,9,9,0.8,0.6
2024-04-23T1200,1144A,121.412,31.1654,上海市,徐汇上师大,,29,23,26,20,22,79,,64,64,30,29,7,7,0.7,0.6
2024-04-23T1200,1145A,121.536,31.2659,上海市,杨浦四漂,,29,,27,20,25,78,,66,58,38,33,8,9,0.7,0.6
2024-04-23T1200,1147A,121.425,31.2261,上海市,静安监测站,,30,26,26,21,26,74,,60,60,35,31,8,8,0.8,0.6
2024-04-23T1200,1148A,121.703,31.1907,上海市,浦东川沙,,34,,20,18,19,108,,71,71,18,25,5,6,0.6,0.6
2024-04-23T1200,1149A,121.533,31.2284,上海市,浦东新区监测站,,28,18,23,16,20,87,,70,66,21,21,7,7,0.5,0.4
2024-04-23T1200,1150A,121.577,31.2071,上海市,浦东张江,,27,16,21,13,19,85,,68,65,27,25,5,5,0.9,0.8
2024-04-23T1200,3265A,121.4316,31.3322,上海市,宝山庙行,,30,30,28,21,23,79,,62,60,28,30,7,7,0.9,0.7
2024-04-23T1200,3266A,121.8791,31.4662,上海市,崇明上实东滩,,33,7,12,6,9,103,,87,87,6,6,8,8,0.5,0.5
2024-04-23T1200,3268A,121.3162,31.2838,上海市,嘉定南翔,,32,26,28,22,24,59,,55,45,38,35,7,8,0.8,0.8
2024-04-23T1200,3269A,121.3359,30.7456,上海市,金山新城,,35,,16,21,15,112,,88,81,20,18,5,5,0.6,0.6
2024-04-23T1200,3270A,121.4996,31.0739,上海市,闵行浦江,,33,26,23,23,22,92,,72,68,22,22,4,5,0.6,0.5
2024-04-23T1200,3271A,121.2886,31.1663,上海市,青浦徐泾,,30,,28,21,25,84,,60,60,28,32,5,5,0.7,0.6
2024-04-23T1200,3272A,121.2186,31.0378,上海市,松江图书馆,,35,,31,18,26,110,,70,70,23,32,6,6,0.7,0.7
2024-04-23T1200,3273A,121.3902,31.2059,上海市,长宁仙霞,,30,25,28,21,23,68,,58,56,37,36,7,7,0.9,0.8
2024-04-23T1200,3274A,121.7965,31.0507,上海市,浦东惠南,,26,,18,18,19,79,,76,74,26,18,6,6,0.8,0.8
2024-04-23T1200,3544A,121.4891,30.925,上海市,奉贤南桥新城,,28,10,21,9,24,89,,75,75,25,25,8,8,0.6,0.6
2024-04-23T1200,2381A,118.005,28.4572,上饶市,百草园,,35,,31,24,17,44,,30,30,18,9,4,4,0.3,0.2
2024-04-23T1200,2382A,117.9756,28.4436,上饶市,市监测站,,40,40,35,25,20,48,,39,37,18,13,4,5,0.8,0.8
2024-04-23T1200,2383A,117.9519,28.4628,上饶市,凤凰光学,,38,38,33,20,20,51,,38,38,21,21,4,11,0.8,0.8
