timepoint,stationcode,longitude,latitude,area,positionname,primarypollutant,aqi,pm10,pm10_24h,pm2_5,pm2_5_24h,o3,o3_24h,o3_8h,o3_8h_24h,no2,no2_24h,so2,so2_24h,co,co_24h
2024-04-23T2000,2566A,102.1879,31.914,阿坝藏族羌族自治州,州农科所,,15,15,27,8,9,17,,20,20,6,14,3,3,0.8,0.8
2024-04-23T2000,2568A,102.2502,31.8896,阿坝藏族羌族自治州,马师校,,22,,13,15,13,53,,69,68,11,10,5,5,0.4,0.3
2024-04-23T2000,3994A,102.2165,31.9024,阿坝藏族羌族自治州,马尔康中学西区,,25,,20,17,16,67,,72,72,7,8,5,4,0.3,0.2
2024-04-23T2000,2695A,80.292,41.1694,阿克苏地区,电视台,颗粒物(PM10),76,101,68,29,28,122,,116,116,4,10,7,6,0.6,0.7
2024-04-23T2000,2696A,80.2613,41.1551,阿克苏地区,艺术中心,颗粒物(PM10),76,101,64,38,31,120,,111,111,10,19,4,4,0.9,0.9
2024-04-23T2000,2204A,105.6467,38.8363,阿拉善盟,西城区西花园,颗粒物(PM10),106,161,67,45,19,113,,127,126,15,7,9,8,0.8,0.8
2024-04-23T2000,2205A,105.6985,38.8411,阿拉善盟,蒙二幼,颗粒物(PM10),103,155,84,57,23,112,,123,123,13,7,10,9,0.4,0.3
2024-04-23T2000,2206A,105.724,38.8516,阿拉善盟,环保局新楼,颗粒物(PM10),101,152,81,49,20,116,,125,125,10,6,8,8,0.4,0.4
2024-04-23T2000,2708A,88.1264,47.8517,阿勒泰地区,市站,颗粒物(PM10),164,277,51,52,12,97,,93,93,4,6,5,5,0.2,0.3
2024-04-23T2000,2630A,80.1161,32.5,阿里地区,阿里监测站,,49,12,13,6,12,154,,147,147,6,7,9,10,0.5,0.5
2024-04-23T2000,3192A,80.0903,32.5028,阿里地区,阿里藏医院,臭氧1小时,67,,14,27,13,173,,163,163,3,4,10,10,0.4,0.4
2024-04-23T2000,2642A,109.0318,32.6537,安康市,香溪洞,颗粒物(PM10),78,106,76,24,28,119,,115,115,5,9,6,6,0.4,0.5
2024-04-23T2000,2643A,109.0281,32.6939,安康市,安康市监测站,颗粒物(PM10),83,116,79,43,30,68,,110,108,24,14,10,9,0.6,0.6
2024-04-23T2000,2644A,109.0072,32.6975,安康市,汉滨区检察院,颗粒物(PM10),72,93,71,36,29,76,,108,107,14,13,8,9,0.3,0.4
2024-04-23T2000,2291A,117.0809,30.5177,安庆市,环科院,,38,38,41,20,28,108,,151,146,27,24,7,8,0.5,0.6
2024-04-23T2000,2292A,117.0331,30.5119,安庆市,马山宾馆,,46,46,43,16,29,110,,150,142,32,24,6,8,0.5,0.7
2024-04-23T2000,2294A,116.9896,30.6145,安庆市,安庆大学,,48,48,52,21,34,99,,159,150,28,20,7,10,0.6,0.7
2024-04-23T2000,3173A,117.0598,30.5351,安庆市,市人大,,38,36,46,18,32,121,,160,155,16,19,5,6,0.6,0.7
2024-04-23T2000,3123A,105.9408,26.2431,安顺市,凤凰山,,26,25,19,18,12,83,,90,90,9,7,7,7,0.5,0.4
2024-04-23T2000,3124A,105.9439,26.2564,安顺市,金钟山,,30,26,20,21,12,82,,89,89,8,6,6,4,0.4,0.2
2024-04-23T2000,3125A,105.8983,26.2481,安顺市,娄家坡,,37,37,28,19,16,82,,90,90,9,7,8,7,0.5,0.4
2024-04-23T2000,1819A,114.3551,36.1017,安阳市,红庙街,颗粒物(PM10),59,68,156,9,32,103,,107,107,7,10,5,8,0.3,1
2024-04-23T2000,1820A,114.361,36.0681,安阳市,银杏小区,颗粒物(PM10),61,72,147,14,27,102,,109,109,5,7,6,8,0.4,0.7
2024-04-23T2000,3141A,114.3922,36.0878,安阳市,信访局,颗粒物(PM10),75,99,168,7,7,102,,104,104,9,9,3,4,0.3,0.6
2024-04-23T2000,3669A,114.4705,36.0637,安阳市,左辅环卫站,颗粒物(PM10),56,61,169,9,31,77,,98,97,16,13,7,7,0.5,0.6
2024-04-23T2000,3703A,114.2917,36.0949,安阳市,安钢职工学校,颗粒物(PM10),75,99,181,15,29,93,,103,103,18,17,6,8,0.2,0.8
2024-04-23T2000,1748A,123.044,41.1196,鞍山市,深沟寺,,31,30,39,14,21,98,,100,100,7,9,8,8,0.5,0.5
2024-04-23T2000,1749A,123.011,41.0931,鞍山市,太阳城,,33,33,39,17,19,99,,103,102,12,11,6,7,0.6,0.6
2024-04-23T2000,1750A,123.0485,41.1442,鞍山市,太平,,36,36,50,20,25,100,,98,98,18,19,5,6,0.5,0.6
2024-04-23T2000,1751A,122.9642,41.0971,鞍山市,铁西三道街,,36,36,49,17,24,98,,98,95,21,18,3,4,0.7,0.7
2024-04-23T2000,1752A,122.9341,41.0833,鞍山市,铁西工业园区,,33,33,57,19,31,97,,98,96,15,22,5,7,0.4,0.5
2024-04-23T2000,1753A,123.022,41.0821,鞍山市,明达新区,,34,33,39,16,20,106,,100,100,10,11,8,9,0.5,0.5
2024-04-23T2000,2195A,107.4212,40.761,巴彦淖尔市,附二中,颗粒物(PM10),73,96,61,37,22,102,,107,107,16,10,3,4,0.5,0.4
2024-04-23T2000,2196A,107.37,40.7372,巴彦淖尔市,市环保大楼,颗粒物(PM10),74,97,64,25,19,97,,104,104,10,10,2,3,0.4,0.3
2024-04-23T2000,1956A,86.1472,41.7538,巴音郭楞蒙古自治州,孔雀公园,颗粒物(PM10),89,128,95,26,28,110,,115,115,9,34,6,8,0.2,0.4
2024-04-23T2000,1957A,86.1972,41.7166,巴音郭楞蒙古自治州,棉纺厂,颗粒物(PM10),102,154,107,30,31,103,,111,111,10,30,3,4,0.2,0.3
2024-04-23T2000,1958A,86.2357,41.7173,巴音郭楞蒙古自治州,经济开发区,颗粒物(PM10),74,97,92,33,27,113,,114,114,6,14,6,7,0.3,0.3
2024-04-23T2000,2914A,106.7677,31.8794,巴中市,苏山坪,,47,47,38,21,19,74,,86,86,13,7,4,4,0.4,0.3
2024-04-23T2000,3182A,106.7656,31.8545,巴中市,丽阳花园,颗粒物(PM10),65,79,41,39,20,62,,82,82,22,14,4,4,0.6,0.5
2024-04-23T2000,3183A,106.7418,31.8654,巴中市,圣泉水务公司,,46,46,36,22,19,73,,88,88,13,15,5,5,0.4,0.4
2024-04-23T2000,3616A,106.7616,31.8344,巴中市,市中心医院,颗粒物(PM10),51,51,39,22,20,67,,84,84,13,12,5,5,0.4,0.4
2024-04-23T2000,2235A,122.7911,45.6077,白城市,洮北区环保局,,23,20,29,12,17,71,,71,71,9,10,5,5,0.0,0
2024-04-23T2000,2236A,122.8738,45.5725,白城市,市环保局,,30,30,38,11,18,53,,68,68,25,17,5,5,0.3,0.3
2024-04-23T2000,2231A,126.4219,41.9171,白山市,喜丰,颗粒物(PM10),58,65,55,39,17,71,,115,107,12,21,12,14,1.1,1
2024-04-23T2000,2232A,126.4077,41.9419,白山市,环保局,,34,34,43,13,17,75,,105,98,13,32,10,11,0.8,0.7
2024-04-23T2000,2647A,104.1724,36.5446,白银市,第三小学,颗粒物(PM10),65,80,327,36,88,119,,118,118,22,16,49,17,0.3,0.5
2024-04-23T2000,2648A,104.1465,36.5482,白银市,动力公司,颗粒物(PM10),58,66,286,32,86,128,,120,120,14,13,26,13,0.2,0.2
2024-04-23T2000,2512A,106.6103,23.9011,百色市,市监测站,,26,22,23,12,13,82,,86,86,11,10,5,7,0.6,0.6
2024-04-23T2000,2513A,106.6538,23.8859,百色市,市中心血站,,26,24,27,5,13,82,,89,89,14,12,4,8,0.4,0.5
2024-04-23T2000,3406A,106.6085,23.8798,百色市,祈福高中,,36,36,22,16,13,86,,85,85,13,9,7,7,0.5,0.7
2024-04-23T2000,2270A,117.396,32.939,蚌埠市,工人疗养院,颗粒物(PM10),132,213,101,46,36,112,,147,137,18,23,7,11,0.2,0.4
2024-04-23T2000,2271A,117.3605,32.9427,蚌埠市,百货大楼,颗粒物(PM10),129,208,107,43,38,117,,152,142,18,20,3,6,0.3,0.5
2024-04-23T2000,2273A,117.4185,32.8911,蚌埠市,蚌埠学院,颗粒物(PM10),141,232,87,48,35,109,,143,134,15,14,5,7,0.3,0.5
2024-04-23T2000,2274A,117.3533,32.9673,蚌埠市,淮上区政府,颗粒物(PM10),139,227,100,52,44,105,,148,136,12,18,6,8,0.3,0.4
2024-04-23T2000,2275A,117.3145,32.8977,蚌埠市,高新区,颗粒物(PM10),130,210,93,49,40,108,,151,139,15,14,4,7,0.1,0.3
2024-04-23T2000,3715A,117.3092,32.9314,蚌埠市,蚌埠田家炳中学,颗粒物(PM10),130,209,103,51,40,104,,147,135,18,12,5,7,0.3,0.4
2024-04-23T2000,1585A,109.8756,40.6532,包头市,市环境监测站,,46,46,45,21,14,96,,106,106,28,19,13,13,0.6,0.7
2024-04-23T2000,1587A,109.9991,40.5842,包头市,包头八中,颗粒物(PM10),52,54,42,23,17,92,,107,107,31,25,9,11,0.6,0.7
2024-04-23T2000,1588A,109.8538,40.6821,包头市,青山宾馆,颗粒物(PM10),52,53,33,16,11,90,,102,102,24,20,16,14,1.2,1
2024-04-23T2000,1589A,109.8642,40.6288,包头市,惠龙物流,颗粒物(PM10),55,59,43,12,18,93,,103,103,28,21,15,15,0.6,0.8
2024-04-23T2000,1590A,110.0377,40.5546,包头市,东河鸿龙湾,,42,42,30,9,11,96,,106,106,17,21,6,8,0.4,0.5
2024-04-23T2000,3283A,109.9154,40.5685,包头市,滨河大厦,,40,40,36,11,13,98,,105,105,16,20,9,13,0.4,0.5
2024-04-23T2000,3419A,109.9447,40.6261,包头市,包头市委党校,,44,44,35,9,10,107,,107,107,18,23,17,15,0.6,0.6
2024-04-23T2000,3683A,109.8331,40.6576,包头市,昆区政府,颗粒物(PM10),52,53,42,24,16,88,,98,98,40,22,15,15,1.1,0.8
2024-04-23T2000,1930A,107.185,34.3063,宝鸡市,庙沟村,颗粒物(PM10),375,480,354,125,86,23,,85,76,72,15,9,8,0.7,0.5
2024-04-23T2000,1931A,107.0708,34.3017,宝鸡市,竹园沟,颗粒物(PM10),370,476,312,164,91,75,,106,102,14,9,4,4,0.5,0.4
2024-04-23T2000,1932A,107.1906,34.3672,宝鸡市,三陆医院,颗粒物(PM10),382,485,319,187,96,80,,98,96,31,26,5,6,0.4,0.4
2024-04-23T2000,1933A,107.1431,34.3547,宝鸡市,监测站,颗粒物(PM10),447,547,312,148,88,78,,98,96,35,20,7,7,0.5,0.4
2024-04-23T2000,1934A,107.1186,34.3739,宝鸡市,技工学校,颗粒物(PM10),414,514,306,143,81,89,,65,,31,17,5,6,0.5,0.3
2024-04-23T2000,1935A,107.3906,34.3528,宝鸡市,陈仓区环保局家属楼,颗粒物(PM10),330,444,326,110,80,76,,102,99,32,17,4,4,0.4,0.3
2024-04-23T2000,1936A,107.2058,34.3497,宝鸡市,文理学院,颗粒物(PM10),454,554,330,123,74,101,,106,106,25,17,5,5,0.5,0.4
2024-04-23T2000,1937A,107.2386,34.3622,宝鸡市,三迪小学,颗粒物(PM10),343,454,297,121,80,84,,99,98,34,20,6,6,0.4,0.4
2024-04-23T2000,1051A,115.493,38.8632,保定市,游泳馆,颗粒物(PM10),76,102,114,10,42,60,,94,88,16,6,2,3,0,0.1
2024-04-23T2000,1052A,115.5213,38.8959,保定市,华电二区,颗粒物(PM10),62,73,84,19,42,62,,92,88,26,13,1,3,0.2,0.3
2024-04-23T2000,1053A,115.4713,38.9108,保定市,接待中心,颗粒物(PM10),80,110,102,9,36,63,,94,84,12,7,2,2,0.3,0.4
2024-04-23T2000,1054A,115.4612,38.8416,保定市,地表水厂,,,94,105,,35,61,,99,87,17,9,3,2,0.4,0.4
2024-04-23T2000,3581A,115.31981,38.95208,保定市,满城区生态环境分局,颗粒物(PM10),67,83,99,9,40,61,,93,85,21,8,2,3,0.2,0.2
2024-04-23T2000,3582A,115.47694,38.76408,保定市,清苑区第二中学,颗粒物(PM10),86,121,118,21,37,61,,98,88,29,15,4,5,0.2,0.3
2024-04-23T2000,3583A,115.62909,39.02311,保定市,徐水物探局,颗粒物(PM10),68,85,80,5,30,68,,96,90,15,7,2,3,0.1,0.2
2024-04-23T2000,4004A,115.4202,38.8656,保定市,双鹰农机,颗粒物(PM10),67,84,88,24,45,66,,104,93,25,8,2,2,0.1,0.2
2024-04-23T2000,4034A,115.5150,38.8590,保定市,植保所站,颗粒物(PM10),63,76,96,32,47,66,,103,93,16,8,3,3,0.3,0.4
2024-04-23T2000,2594A,99.1678,25.1081,保山市,市环境监测站,颗粒物(PM10),57,64,69,39,32,130,,129,129,7,10,8,8,0.8,0.8
2024-04-23T2000,2595A,99.1711,25.1328,保山市,市环保局,颗粒物(PM10),56,62,66,27,29,128,,126,126,5,6,8,8,0.6,0.6
2024-04-23T2000,1867A,109.1436,21.4086,北海市,海滩公园,,29,29,32,17,14,73,,80,78,10,12,8,9,0.8,0.7
2024-04-23T2000,1868A,109.0981,21.4661,北海市,新市环保局,,32,25,30,22,18,80,,80,78,7,11,6,8,0.7,0.7
2024-04-23T2000,1869A,109.1778,21.5233,北海市,北海工业园,,29,29,39,20,20,69,,70,68,12,14,8,11,0.7,0.6
2024-04-23T2000,3400A,109.1911,21.4415,北海市,龙潭自来水厂,,28,27,29,19,22,66,,73,71,9,10,6,6,0.7,0.7
2024-04-23T2000,1001A,116.3621,39.8784,北京市,万寿西宫,,26,26,19,6,9,52,,69,66,23,12,3,3,0.3,0.4
2024-04-23T2000,1003A,116.4174,39.9289,北京市,东四,,19,19,28,6,18,53,,67,62,22,17,1,1,0.5,0.5
2024-04-23T2000,1004A,116.4072,39.8863,北京市,天坛,,15,13,25,4,18,48,,69,62,22,14,1,1,0.2,0.4
2024-04-23T2000,1005A,116.462,39.9365,北京市,农展馆,,15,12,24,4,16,46,,65,59,25,15,1,3,0.3,0.4
2024-04-23T2000,1006A,116.3392,39.9295,北京市,官园,,20,16,31,5,19,61,,75,70,20,13,1,1,0.2,0.3
2024-04-23T2000,1007A,116.2878,39.9611,北京市,海淀万柳,,17,15,31,4,20,52,,73,71,32,12,3,4,0.4,0.5
2024-04-23T2000,1008A,116.6636,40.135,北京市,顺义新城,,17,11,23,3,12,54,,70,64,10,8,3,3,0.2,0.3
2024-04-23T2000,1009A,116.6275,40.3275,北京市,怀柔镇,,18,18,24,8,9,56,,73,62,14,7,3,2,0.2,0.1
2024-04-23T2000,1010A,116.2296,40.217,北京市,昌平镇,,17,17,27,3,9,51,,76,73,14,11,3,3,0.2,0.3
2024-04-23T2000,1011A,116.3966,39.9821,北京市,奥体中心,,17,17,28,6,17,43,,56,53,19,15,1,1,0.3,0.3
2024-04-23T2000,1012A,116.184,39.9136,北京市,古城,,22,22,33,6,19,57,,75,74,25,14,3,3,0.3,0.4
2024-04-23T2000,3281A,115.9718,40.4529,北京市,延庆夏都,,25,12,21,3,8,77,,91,91,13,5,3,3,0.2,0.2
2024-04-23T2000,3417A,117.0709,40.1465,北京市,平谷新城,,16,16,20,6,11,33,,77,61,21,4,1,3,0.3,0.3
2024-04-23T2000,3418A,116.8336,40.4095,北京市,密云新城,,20,10,23,3,8,61,,71,68,11,5,3,3,0.2,0.2
2024-04-23T2000,3672A,116.1541,39.8204,北京市,丰台云岗,,17,17,33,4,17,49,,73,70,25,14,3,3,0.2,0.3
2024-04-23T2000,3673A,116.6804,39.9081,北京市,通州东关,,20,13,22,4,13,25,,68,56,39,11,3,3,0.3,0.3
2024-04-23T2000,3674A,115.9577,39.7603,北京市,房山燕山,,16,16,29,4,18,43,,86,68,28,10,3,3,0.2,0.3
2024-04-23T2000,3675A,116.4672,39.7733,北京市,大兴旧宫,,17,10,24,3,14,54,,66,61,13,12,3,3,0.2,0.3
2024-04-23T2000,3694A,115.986,40.4563,北京市,延庆石河营,,22,13,28,4,12,68,,96,92,13,6,3,3,0.2,0.3
2024-04-23T2000,3695A,116.6151,40.3053,北京市,怀柔新城,,19,12,23,4,9,60,,77,64,14,8,3,3,0.2,0.2
2024-04-23T2000,3696A,116.2545,39.8768,北京市,丰台小屯,,16,13,31,4,19,41,,69,66,31,12,3,3,0.2,0.3
2024-04-23T2000,3697A,116.84,40.3844,北京市,密云镇,,18,11,23,4,8,55,,63,62,17,9,4,4,0.2,0.2
2024-04-23T2000,1761A,123.8275,41.3064,本溪市,大峪,,35,28,37,14,18,112,,114,114,8,10,10,9,0.5,0.5
2024-04-23T2000,1762A,123.7567,41.3325,本溪市,溪湖,,38,38,46,15,20,101,,104,104,13,16,9,11,0.5,0.8
2024-04-23T2000,1763A,123.7169,41.3094,本溪市,彩屯,,38,38,51,19,24,92,,91,91,24,24,20,14,1.1,1.3
2024-04-23T2000,1764A,123.7669,41.2864,本溪市,东明,,34,26,38,17,18,108,,105,105,11,14,4,4,0.6,0.6
2024-04-23T2000,1765A,123.7992,41.2664,本溪市,新立屯,,30,25,30,18,17,94,,107,106,16,17,11,11,0.7,0.6
2024-04-23T2000,1766A,123.8142,41.3472,本溪市,威宁,,44,44,49,22,21,66,,78,75,21,22,7,7,0.6,0.6
2024-04-23T2000,2587A,105.2864,27.3125,毕节市,八中,,23,18,24,16,15,67,,80,78,10,8,5,5,0.4,0.5
2024-04-23T2000,2588A,105.31,27.2944,毕节市,师专,,22,21,25,13,15,68,,78,77,10,9,6,6,0.4,0.4
2024-04-23T2000,3537A,105.3631,27.3533,毕节市,长征村,,29,28,26,20,17,70,,89,85,9,7,8,6,0.6,0.5
2024-04-23T2000,1629A,118.0018,37.3617,滨州市,第二水厂,,22,22,73,7,42,67,,96,83,20,26,7,10,0.5,1
2024-04-23T2000,1630A,117.9776,37.393,滨州市,北中新校,,19,19,75,0,36,60,,89,76,19,22,10,12,0.5,0.4
2024-04-23T2000,3514A,117.9378,37.3956,滨州市,中海酒店,,34,34,63,14,45,57,,99,84,19,16,10,11,0.5,0.7
2024-04-23T2000,3515A,117.9378,37.3553,滨州市,开发区一中,,36,36,74,9,41,60,,83,75,23,23,21,15,0.7,0.8
2024-04-23T2000,3516A,118.0917,37.694,滨州市,金海六路,,25,10,66,0,34,80,,95,78,13,14,8,11,0.5,0.6
2024-04-23T2000,4028A,117.9956,37.3753,滨州市,滨州市西街道办事处,,22,22,68,7,46,59,,93,78,19,22,9,12,0.6,0.9
2024-04-23T2000,2311A,115.8072,33.8399,亳州市,污水处理厂,颗粒物(PM10),102,153,156,29,42,108,,127,127,15,11,13,11,0.1,0.3
2024-04-23T2000,2312A,115.7789,33.8518,亳州市,三国揽胜宫,颗粒物(PM10),101,151,143,26,38,111,,125,125,13,10,8,9,0.4,0.6
2024-04-23T2000,3332A,115.7633,33.8034,亳州市,亳州学院,颗粒物(PM10),89,128,153,23,36,118,,128,128,10,10,10,11,0.3,0.4
2024-04-23T2000,2693A,82.0485,44.8556,博尔塔拉蒙古自治州,市党校,颗粒物(PM10),59,68,63,14,12,106,,115,115,6,7,7,7,0.3,0.3
2024-04-23T2000,2694A,82.0806,44.8969,博尔塔拉蒙古自治州,市环保局,颗粒物(PM10),63,75,76,10,16,104,,111,111,6,19,8,8,0.3,0.4
2024-04-23T2000,1071A,116.8842,38.2991,沧州市,沧县城建局,,47,47,53,12,34,53,,88,73,26,14,2,2,0.3,0.5
2024-04-23T2000,1072A,116.8584,38.3254,沧州市,电视转播站,,36,36,61,7,32,54,,82,74,17,10,8,8,0.2,0.3
2024-04-23T2000,1073A,116.8709,38.3228,沧州市,市环保局,,42,42,58,13,25,62,,90,80,23,13,6,7,0.3,0.3
2024-04-23T2000,3324A,116.8136,38.3004,沧州市,河北水利电力学院,,39,39,42,18,18,44,,80,74,33,11,7,8,1.7,0.7
2024-04-23T2000,2622A,97.1806,31.1273,昌都市,昌都监测站,,39,12,11,9,8,123,,127,127,8,6,8,8,0.5,0.5
2024-04-23T2000,3719A,97.1714,31.1406,昌都市,昌都会议中心,,38,10,10,9,8,120,,124,124,14,9,10,9,0.5,0.4
2024-04-23T2000,2690A,88.1236,43.8886,昌吉回族自治州,天山天池,,33,24,13,8,4,103,,122,120,6,5,4,4,0.5,0.5
2024-04-23T2000,2692A,87.2717,44.0297,昌吉回族自治州,新区政务中心,颗粒物(PM10),56,61,53,10,16,108,,127,127,12,23,6,7,0.3,0.4
2024-04-23T2000,3613A,87.3095,44.0142,昌吉回族自治州,亚心广场,颗粒物(PM10),63,75,67,5,8,111,,128,128,7,21,6,8,0.4,0.6
2024-04-23T2000,1119A,125.3325,43.9166,长春市,食品厂,细颗粒物(PM2.5),77,62,75,56,38,16,,109,102,87,34,7,7,1.1,0.5
2024-04-23T2000,1120A,125.2863,43.9027,长春市,客车厂,细颗粒物(PM2.5),70,63,69,51,33,8,,101,89,93,36,7,6,1.1,0.5
2024-04-23T2000,1121A,125.2841,43.8463,长春市,邮电学院,,45,42,62,31,28,38,,105,98,30,26,6,7,0.8,0.5
2024-04-23T2000,1122A,125.3716,43.8772,长春市,劳动公园,细颗粒物(PM2.5),67,,70,48,30,14,,113,103,80,34,6,5,1.1,0.5
2024-04-23T2000,1123A,125.3297,43.8805,长春市,园林处,细颗粒物(PM2.5),59,42,64,42,28,15,,108,98,75,31,9,9,1.1,0.5
2024-04-23T2000,1124A,125.4605,43.79,长春市,净月潭,,26,17,59,13,26,82,,119,119,7,10,8,9,0.3,0.3
2024-04-23T2000,1126A,125.3863,43.8447,长春市,经开区环卫处,,46,37,71,32,30,9,,108,99,74,33,5,5,0.9,0.5
2024-04-23T2000,1127A,125.245,43.7783,长春市,高新区管委会,,39,32,63,15,25,9,,96,86,77,33,6,6,0.6,0.5
2024-04-23T2000,1128A,125.1761,43.8325,长春市,岱山公园,二氧化氮,54,55,64,33,31,11,,100,91,108,39,6,6,0.8,0.5
2024-04-23T2000,1335A,113.0833,28.2325,长沙市,经开区环保局,,43,43,38,26,33,109,,140,137,24,10,7,6,0.3,0.4
2024-04-23T2000,1336A,112.8872,28.2189,长沙市,高开区环保局,,49,49,49,22,28,128,,139,139,5,3,5,4,0.6,0.6
2024-04-23T2000,1337A,113.0792,28.2053,长沙市,马坡岭,,43,43,43,23,24,108,,136,133,15,10,8,7,0.2,0.4
2024-04-23T2000,1338A,112.9394,28.19,长沙市,湖南师范大学,,39,39,42,17,24,123,,145,144,5,3,5,4,0.6,0.6
2024-04-23T2000,1339A,113.0178,28.1322,长沙市,雨花区环保局,,,45,39,26,28,118,,141,140,,7,5,4,0.6,0.5
2024-04-23T2000,1340A,112.9792,28.2597,长沙市,伍家岭,,46,46,43,21,28,115,,134,134,16,8,5,5,0.6,0.6
2024-04-23T2000,1341A,113.0014,28.1944,长沙市,火车新站,,43,43,40,29,28,115,,141,139,16,9,3,3,0.6,0.7
2024-04-23T2000,1342A,112.9844,28.1178,长沙市,天心区环保局,,35,35,45,20,24,98,,120,120,19,13,3,2,0.4,0.5
2024-04-23T2000,1343A,112.8908,28.1308,长沙市,湖南中医药大学,,40,40,42,23,35,103,,98,,18,3,8,7,0.8,0.7
2024-04-23T2000,1344A,112.9581,28.3611,长沙市,沙坪,,37,28,33,19,20,117,,168,167,6,4,6,20,0.4,0.4
2024-04-23T2000,1727A,113.1147,36.1547,长治市,清华站,细颗粒物(PM2.5),64,55,87,46,18,96,,113,113,31,16,11,8,0.5,0.3
2024-04-23T2000,1728A,113.1031,36.1989,长治市,监测站,细颗粒物(PM2.5),83,68,81,61,23,102,,114,114,28,18,13,12,0.5,0.3
2024-04-23T2000,1730A,113.0886,36.2125,长治市,审计局,细颗粒物(PM2.5),77,65,90,56,23,109,,114,114,20,15,12,12,0.4,0.1
2024-04-23T2000,1731A,113.0844,36.1856,长治市,长治八中,颗粒物(PM10),67,84,113,36,22,108,,114,114,33,21,8,6,0.5,0.4
2024-04-23T2000,2845A,113.1569,36.1911,长治市,德盛苑,细颗粒物(PM2.5),73,59,88,53,23,110,,116,116,23,14,6,6,0.9,0.8
2024-04-23T2000,3568A,113.06,36.0464,长治市,向阳小学,"颗粒物(PM10),细颗粒物(PM2.5)",69,87,121,50,32,108,,119,119,24,16,14,12,0.5,0.4
2024-04-23T2000,3569A,112.8792,36.3144,长治市,屯留一中,细颗粒物(PM2.5),70,59,84,51,23,108,,117,117,13,10,9,8,0.7,0.4
2024-04-23T2000,3570A,113.235,36.3489,长治市,潞城四中,,43,43,128,22,31,67,,116,112,43,14,6,7,0.4,0.5
2024-04-23T2000,1854A,111.6975,28.9703,常德市,市二中,颗粒物(PM10),51,52,38,21,19,112,,128,128,16,10,9,8,0.4,0.5
2024-04-23T2000,1857A,111.7158,29.1456,常德市,白鹤山,颗粒物(PM10),54,58,44,21,19,82,,117,114,8,5,5,6,0.6,0.6
2024-04-23T2000,3138A,111.7153,29.0289,常德市,武陵区永安,,47,47,35,24,19,119,,128,128,12,8,8,7,0.3,0.3
2024-04-23T2000,3139A,111.6892,28.9881,常德市,鼎城区玉霞,颗粒物(PM10),52,54,37,22,20,91,,122,121,38,13,9,8,0.4,0.4
2024-04-23T2000,3140A,111.6625,29.0531,常德市,武陵区长庚,,44,44,30,16,19,117,,126,126,12,7,9,10,0.5,0.5
2024-04-23T2000,1196A,119.9633,31.762,常州市,市监测站,颗粒物(PM10),65,80,80,43,39,122,,157,157,30,24,9,8,0.7,0.7
2024-04-23T2000,1200A,119.9468,31.7069,常州市,武进监测站,颗粒物(PM10),57,63,75,33,33,124,,148,148,20,25,12,14,0.7,0.9
2024-04-23T2000,1201A,119.9255,31.9087,常州市,安家,细颗粒物(PM2.5),70,76,75,51,40,104,,154,154,45,25,10,8,0.9,0.9
2024-04-23T2000,3002A,119.9805,31.8174,常州市,行政中心,细颗粒物(PM2.5),65,66,66,47,39,132,,150,150,24,23,10,8,0.7,0.7
2024-04-23T2000,3003A,120.0522,31.7748,常州市,经开区,颗粒物(PM10),60,69,80,38,35,126,,156,156,25,26,7,6,0.6,0.7
2024-04-23T2000,3010A,119.9025,31.7964,常州市,钟楼,细颗粒物(PM2.5),58,64,70,41,35,109,,147,147,35,25,9,8,1.0,1
2024-04-23T2000,3429A,119.8598,31.7066,常州市,武进经发区,颗粒物(PM10),51,51,51,26,27,104,,149,149,29,26,8,7,0.8,0.9
2024-04-23T2000,3430A,119.5826,31.7245,常州市,金坛城区,臭氧1小时,67,,50,36,26,173,,172,172,16,22,9,7,0.8,0.8
2024-04-23T2000,2220A,120.4318,41.5881,朝阳市,西梁,,23,13,15,8,13,73,,95,82,15,9,10,10,0.5,0.4
2024-04-23T2000,2221A,120.4521,41.5646,朝阳市,河畔小区,,,15,26,15,28,83,,97,90,11,9,,8,0.6,0.5
2024-04-23T2000,2222A,120.4176,41.5648,朝阳市,八里堡,,23,16,20,6,25,72,,95,84,18,12,8,8,0.7,0.6
2024-04-23T2000,2223A,120.3806,41.5969,朝阳市,农业园区,,29,,16,20,12,73,,94,78,10,10,7,7,0.5,0.4
2024-04-23T2000,1705A,116.6367,23.6719,潮州市,西园路,,35,28,27,24,11,50,,66,66,20,15,5,5,0.6,0.3
2024-04-23T2000,3026A,116.6183,23.6608,潮州市,市政府,,25,18,30,17,20,71,,79,79,18,22,6,9,0.8,0.9
2024-04-23T2000,4036A,116.6461,23.6761,潮州市,金山,,27,27,27,17,20,51,,67,67,23,17,6,6,0.8,0.7
2024-04-23T2000,2472A,113.0073,25.9061,郴州市,马头岭,,36,36,41,19,17,94,,93,93,14,10,4,4,0.6,0.7
2024-04-23T2000,2473A,113.0116,25.8226,郴州市,市职中,,43,36,36,30,29,64,,95,94,16,9,8,7,0.7,0.8
2024-04-23T2000,2474A,113.0161,25.8001,郴州市,兴隆步行街,,50,50,41,28,26,74,,86,86,20,10,6,6,1.0,1
2024-04-23T2000,2475A,113.0383,25.8071,郴州市,市审计局,,39,39,35,27,27,60,,84,78,15,9,5,5,0.7,0.7
2024-04-23T2000,2476A,113.0348,25.7759,郴州市,市环保局,,45,45,38,29,31,48,,84,80,23,12,4,4,0.8,0.8
2024-04-23T2000,1431A,103.9728,30.7236,成都市,金泉两河,,29,29,35,2,10,60,,64,64,18,20,1,1,0.2,0.3
2024-04-23T2000,1432A,104.176,30.6872,成都市,十里店,,28,28,29,8,11,86,,84,84,24,25,4,4,0.6,0.6
2024-04-23T2000,1433A,104.079,30.5706,成都市,三瓦窑,,39,37,41,27,17,48,,67,67,37,33,2,2,0.5,0.4
2024-04-23T2000,1434A,104.1114,30.63,成都市,沙河铺,,28,28,36,11,12,70,,69,69,20,21,3,2,0.3,0.3
2024-04-23T2000,1437A,104.0786,30.6531,成都市,君平街,,37,37,40,11,16,73,,76,76,20,21,3,3,0.3,0.5
2024-04-23T2000,1438A,103.613,31.0283,成都市,灵岩寺,,43,43,17,20,12,78,,103,88,19,12,3,7,0.5,0.5
2024-04-23T2000,2880A,104.0239,30.65639,成都市,大石西路,,33,33,38,7,16,66,,69,69,30,29,3,3,0.4,0.5
2024-04-23T2000,3136A,104.2725,30.5589,成都市,龙泉驿区区政府,,23,17,22,9,10,71,,80,74,18,13,4,3,0.3,0.3
2024-04-23T2000,3357A,104.0106,30.6931,成都市,金博路,,33,33,35,14,15,64,,67,67,19,22,10,5,0.4,0.5
2024-04-23T2000,3359A,104.0578,30.5225,成都市,华阳,,27,27,29,14,21,57,,72,72,19,19,2,2,0.4,0.4
2024-04-23T2000,3487A,104.2394,30.5319,成都市,车城东七路,,28,28,29,14,15,76,,80,78,17,14,4,5,0.4,0.4
2024-04-23T2000,3488A,104.3853,30.7453,成都市,青白江技师分院,,29,29,24,10,10,50,,69,67,37,24,4,2,0.4,0.4
2024-04-23T2000,3489A,104.0789,30.4072,成都市,科学城,,24,24,34,11,18,69,,73,73,21,20,3,3,0.4,0.4
2024-04-23T2000,4011A,103.8506,30.6947,成都市,光华大道三段,,30,30,37,3,14,62,,64,64,7,15,3,3,0.4,0.5
2024-04-23T2000,1062A,117.9531,40.9081,承德市,铁路,,24,24,19,10,7,39,,75,44,24,17,6,6,0.2,0.2
2024-04-23T2000,1063A,117.9392,40.9763,承德市,中国银行,,25,25,22,16,9,32,,76,61,14,11,8,7,0.3,0.2
2024-04-23T2000,1064A,117.9503,40.928,承德市,开发区,,37,37,31,19,17,38,,80,56,25,15,6,6,0.3,0.3
2024-04-23T2000,1065A,117.8051,40.9655,承德市,文化中心,,31,31,23,12,7,27,,73,52,21,14,5,5,0.3,0.2
2024-04-23T2000,1066A,117.9268,41.0026,承德市,离宫,,20,20,16,12,14,34,,69,55,8,5,2,2,0.2,0.2
2024-04-23T2000,2314A,117.47,30.6618,池州市,池州学院,,48,42,31,33,24,140,,164,162,19,15,6,5,0.5,0.6
2024-04-23T2000,3237A,117.4918,30.6617,池州市,展览馆,,48,48,37,31,24,128,,161,158,39,21,5,4,0.5,0.5
2024-04-23T2000,3333A,117.5627,30.695,池州市,第八中学,,45,45,34,28,23,103,,164,157,43,22,4,4,0.6,0.6
2024-04-23T2000,3334A,117.5038,30.6243,池州市,第十二中学,,46,46,38,29,23,108,,166,160,38,16,5,4,0.6,0.6
2024-04-23T2000,1744A,118.9233,42.2816,赤峰市,松山一中,,19,17,23,6,12,49,,63,62,37,30,8,12,0.6,0.7
2024-04-23T2000,1745A,118.9576,42.2728,赤峰市,哈达街,,25,,34,17,20,56,,60,60,31,31,14,26,0.6,0.7
2024-04-23T2000,1746A,118.8788,42.2554,赤峰市,天义路,,18,7,23,6,13,40,,63,59,36,29,6,15,0.4,0.4
2024-04-23T2000,3058A,119.2658,42.0353,赤峰市,银河街,,22,16,30,7,13,68,,74,73,19,18,15,14,0.5,0.5
2024-04-23T2000,3286A,118.9359,42.3147,赤峰市,桥北物流园区,,24,24,27,10,13,48,,71,69,30,25,6,10,0.5,0.5
2024-04-23T2000,2521A,107.3476,22.4136,崇左市,市环保局江州分局,,32,32,38,13,20,70,,72,72,9,8,8,8,0.8,0.7
2024-04-23T2000,2522A,107.3702,22.3707,崇左市,城南新区,,29,29,32,10,22,61,,65,65,10,10,7,6,0.8,0.9
2024-04-23T2000,2298A,118.3093,32.3153,滁州市,老年大学,颗粒物(PM10),120,190,58,51,36,103,,157,151,15,18,9,8,0.5,0.6
2024-04-23T2000,2299A,118.3244,32.2786,滁州市,人大宾馆,颗粒物(PM10),145,239,59,27,34,106,,156,151,9,26,5,7,0.5,0.7
2024-04-23T2000,3207A,118.3118,32.3038,滁州市,市政府原办公楼,颗粒物(PM10),130,209,63,53,41,102,,157,151,17,21,9,8,0.5,0.6
2024-04-23T2000,3331A,118.3267,32.2634,滁州市,图书馆,颗粒物(PM10),107,163,43,24,31,109,,160,156,10,18,8,10,0.5,0.7
2024-04-23T2000,2605A,101.5482,25.0441,楚雄彝族自治州,州环境监测站,,43,43,50,22,31,126,,129,128,7,13,5,8,0.3,0.4
2024-04-23T2000,2606A,101.538,25.0492,楚雄彝族自治州,市经济开发区,颗粒物(PM10),55,60,53,25,28,124,,124,123,8,14,5,6,0.4,0.5
2024-04-23T2000,2548A,107.5277,31.2827,达州市,达州职业技术学院,颗粒物(PM10),62,73,50,16,9,39,,78,75,45,21,6,6,1.0,0.7
2024-04-23T2000,2549A,107.5086,31.2186,达州市,市环境监测站,颗粒物(PM10),54,58,49,24,20,75,,82,82,21,22,6,7,0.5,0.5
2024-04-23T2000,2550A,107.4988,31.2132,达州市,凤凰小区,颗粒物(PM10),53,56,49,19,22,73,,83,83,19,23,6,7,0.6,0.7
2024-04-23T2000,2551A,107.5082,31.1986,达州市,达县机关宾馆,颗粒物(PM10),53,56,47,24,24,58,,75,75,38,28,3,4,0.5,0.5
2024-04-23T2000,2552A,107.4644,31.2124,达州市,市政中心,颗粒物(PM10),51,51,53,14,24,65,,72,72,25,27,6,12,0.6,1
2024-04-23T2000,2614A,100.1542,25.7054,大理白族自治州,大理市环境监测站,二氧化氮,68,72,63,26,26,125,,125,125,135,27,6,7,0.5,0.5
2024-04-23T2000,2615A,100.2171,25.5811,大理白族自治州,大理古城,,43,43,57,23,30,126,,130,130,8,12,6,6,0.6,0.6
2024-04-23T2000,1109A,121.612,38.9741,大连市,甘井子,,31,21,29,10,13,97,,83,83,22,22,3,4,0.8,0.8
2024-04-23T2000,1110A,121.565,38.9511,大连市,周水子,,28,22,35,7,19,89,,81,81,21,27,7,8,0.5,0.5
2024-04-23T2000,1111A,121.5637,38.8845,大连市,星海三站,,36,36,35,12,13,77,,70,70,30,21,4,3,0.6,0.5
2024-04-23T2000,1112A,121.6302,38.9117,大连市,青泥洼桥,,31,18,26,9,14,97,,81,81,14,18,8,8,0.7,0.7
2024-04-23T2000,1113A,121.6251,38.8638,大连市,傅家庄,,26,23,23,9,10,83,,77,77,22,18,6,6,0.7,0.6
2024-04-23T2000,1114A,121.5213,38.8661,大连市,七贤岭,,28,25,28,12,11,87,,72,72,22,23,9,8,0.6,0.4
2024-04-23T2000,1115A,121.2529,38.8061,大连市,旅顺,,26,,17,18,11,66,,76,76,22,20,6,7,0.8,0.6
2024-04-23T2000,1116A,121.7485,39.1311,大连市,金州,,31,19,25,11,15,99,,92,88,20,13,11,11,0.7,0.6
2024-04-23T2000,1117A,121.7811,39.0496,大连市,开发区,,30,26,34,9,17,94,,82,71,14,16,8,6,0.6,0.6
2024-04-23T2000,1118A,121.9762,39.0631,大连市,双D港,,29,17,21,7,13,92,,79,74,20,14,8,7,0.7,0.6
2024-04-23T2000,1789A,124.81117,46.03138,大庆市,大同区,,30,25,29,21,26,56,,59,59,12,14,7,6,0.6,0.6
2024-04-23T2000,1790A,125.129,46.533,大庆市,龙凤区,,39,39,30,20,20,33,,63,60,37,17,6,6,0.3,0.3
2024-04-23T2000,1791A,124.902,46.408,大庆市,红岗区,,37,37,29,18,18,44,,61,60,20,16,5,5,0.4,0.5
2024-04-23T2000,1792A,125.153,46.586,大庆市,萨尔图区,,20,20,26,12,12,53,,60,60,18,16,7,7,0.1,0.2
2024-04-23T2000,1793A,124.9042,46.6215,大庆市,让胡路区,,46,42,28,32,19,29,,63,59,49,17,8,8,0.5,0.3
2024-04-23T2000,3481A,125.141,46.634,大庆市,萨区政府监测点,,34,34,31,15,12,48,,64,62,26,17,7,8,0.4,0.3
2024-04-23T2000,1723A,113.2994,40.0758,大同市,云冈宾馆,,47,47,117,31,33,98,,102,102,14,8,5,5,0.4,0.4
2024-04-23T2000,1724A,113.3444,40.0917,大同市,大同大学,,31,31,148,13,38,98,,97,97,10,6,9,9,0.5,0.5
2024-04-23T2000,1725A,113.2661,40.1269,大同市,安家小村,,30,26,160,7,34,95,,97,97,9,6,6,6,0.3,0.3
2024-04-23T2000,1726A,113.2711,40.0844,大同市,教育学院,,39,39,171,13,33,96,,102,102,24,12,5,5,0.3,0.3
2024-04-23T2000,3282A,113.3397,40.0597,大同市,大同市卫生学校,,41,41,142,17,25,98,,99,99,17,11,5,5,0.4,0.4
2024-04-23T2000,3565A,113.1367,40.1122,大同市,云冈站,,29,27,148,5,28,90,,101,101,13,6,7,6,0.3,0.3
2024-04-23T2000,3566A,113.1186,40.2556,大同市,图书馆,,33,28,149,6,30,104,,107,107,7,9,9,11,0.1,0.3
2024-04-23T2000,3567A,113.5931,40.0461,大同市,区一中,,35,35,159,20,27,92,,101,101,21,10,7,6,0.4,0.4
2024-04-23T2000,3676A,113.2802,40.0995,大同市,第二人民医院,,35,35,165,15,25,95,,96,96,10,7,7,7,0.3,0.4
2024-04-23T2000,2269A,124.1069,50.4097,大兴安岭地区,科技局,,26,26,16,17,15,65,,77,74,7,6,5,5,0.5,0.5
2024-04-23T2000,3663A,124.1164,50.4278,大兴安岭地区,红旗社区,,22,14,7,6,3,68,,80,76,13,8,20,10,0.5,0.5
2024-04-23T2000,1600A,124.3303,40.0625,丹东市,江湾东路,细颗粒物(PM2.5),58,60,58,41,32,47,,77,46,35,33,8,9,1.0,0.8
2024-04-23T2000,1601A,124.4256,40.1503,丹东市,临江后街,颗粒物(PM10),58,65,54,40,26,49,,87,69,29,22,8,9,0.9,0.7
2024-04-23T2000,1602A,124.3933,40.1461,丹东市,元宝山,颗粒物(PM10),53,56,60,31,27,36,,76,61,40,26,8,10,0.8,0.6
2024-04-23T2000,1603A,124.3633,40.1092,丹东市,民主桥,颗粒物(PM10),57,64,63,33,28,38,,68,42,45,37,16,13,1.4,0.8
2024-04-23T2000,3541A,109.5726,19.5167,儋州市,第一中学子站,,42,42,39,25,24,96,,94,94,5,7,6,6,0.6,0.6
2024-04-23T2000,3542A,109.5567,19.5187,儋州市,东坡学校子站,,43,43,35,23,24,97,,96,96,4,6,3,3,0.6,0.5
2024-04-23T2000,2616A,98.5842,24.428,德宏傣族景颇族自治州,德宏州监测站,"颗粒物(PM10),细颗粒物(PM2.5)",75,100,89,55,40,105,,135,134,31,26,2,2,0.8,0.7
2024-04-23T2000,3677A,98.5881,24.4368,德宏傣族景颇族自治州,芒市人民政府综合楼,颗粒物(PM10),68,85,81,40,43,108,,130,129,23,16,8,8,0.7,0.7
2024-04-23T2000,1901A,104.4239,31.1208,德阳市,东山公园,颗粒物(PM10),53,56,39,19,15,64,,73,60,40,18,2,2,0.5,0.4
2024-04-23T2000,1902A,104.3826,31.1317,德阳市,西小区,颗粒物(PM10),53,56,41,23,17,58,,69,58,53,30,2,2,0.6,0.4
2024-04-23T2000,1904A,104.3553,31.1091,德阳市,耐火材料厂,颗粒物(PM10),63,75,39,22,15,30,,68,62,73,28,3,3,0.6,0.4
2024-04-23T2000,3639A,104.4019,31.1244,德阳市,市教育局,,46,46,34,18,12,51,,69,57,47,22,2,2,0.5,0.4
2024-04-23T2000,1622A,116.3032,37.4674,德州市,儿童乐园,颗粒物(PM10),69,88,95,14,27,79,,102,100,30,14,7,6,0.5,0.5
2024-04-23T2000,1624A,116.2991,37.4451,德州市,监理站,颗粒物(PM10),59,68,85,12,29,85,,103,102,25,13,12,11,0.5,0.4
2024-04-23T2000,3066A,116.2721,37.4379,德州市,九衢泉纯净水厂,颗粒物(PM10),57,63,92,14,28,61,,98,94,40,15,5,7,0.5,0.6
2024-04-23T2000,3371A,116.3728,37.4403,德州市,开发区人民医院,颗粒物(PM10),75,100,94,9,23,80,,103,101,24,11,8,7,0.4,0.4
2024-04-23T2000,3372A,116.3572,37.4094,德州市,太阳城中学,颗粒物(PM10),67,83,87,27,32,74,,98,96,26,10,6,6,0.4,0.4
2024-04-23T2000,3511A,116.5652,37.3319,德州市,陵城艺术中心,颗粒物(PM10),73,95,86,9,25,65,,96,91,13,10,4,4,0.4,0.5
2024-04-23T2000,2621A,99.7056,27.8317,迪庆藏族自治州,迪庆州站,颗粒物(PM10),52,53,38,28,21,132,,125,125,3,11,7,11,0.4,0.5
2024-04-23T2000,3180A,99.7136,27.8094,迪庆藏族自治州,质量技术监督局,颗粒物(PM10),51,51,36,23,16,130,,121,121,10,12,6,6,0.4,0.4
2024-04-23T2000,2663A,104.6241,35.5734,定西市,东关小学,颗粒物(PM10),80,109,170,30,45,111,,121,121,11,18,2,2,0.2,0.3
2024-04-23T2000,2664A,104.6194,35.5934,定西市,供电公司,颗粒物(PM10),80,109,168,36,51,102,,116,116,13,21,3,3,0.2,0.2
2024-04-23T2000,1389A,113.7547,23.0494,东莞市,莞城梨川,,23,23,34,16,24,48,,42,42,28,46,7,8,0.9,1
2024-04-23T2000,1390A,113.7944,23.0128,东莞市,东城石井,,20,20,33,10,19,17,,34,33,18,33,5,6,0.7,0.8
2024-04-23T2000,1391A,113.7383,22.9658,东莞市,南城西平,,16,13,28,7,18,49,,41,41,15,37,8,10,0.8,0.9
2024-04-23T2000,3319A,113.7338,23.0381,东莞市,万江金泰,,32,29,32,22,22,22,,31,31,42,45,8,8,1.0,1
2024-04-23T2000,3626A,113.7533,23.0202,东莞市,南城元岭,,22,21,29,15,20,39,,36,36,32,43,6,7,0.9,0.9
2024-04-23T2000,3627A,113.7875,23.0457,东莞市,东城主山,,32,32,45,21,29,22,,33,33,49,51,9,10,0.9,1
2024-04-23T2000,1666A,118.6614,37.4309,东营市,市环保局,,21,7,46,2,24,66,,100,88,23,17,7,9,0.3,0.3
2024-04-23T2000,3036A,118.6904,37.4338,东营市,开发区管委会,,22,13,43,9,26,68,,80,80,23,23,3,5,0.3,0.4
2024-04-23T2000,3365A,118.5719,37.565,东营市,垦利区民丰路,,22,9,46,5,24,70,,99,84,20,17,10,11,0.5,0.7
2024-04-23T2000,3498A,118.5055,37.8612,东营市,河口城区,,23,17,47,5,33,73,,101,85,13,12,4,5,0.3,0.5
2024-04-23T2000,3646A,118.4978,37.4623,东营市,胜利站,,21,12,48,5,26,66,,99,82,16,16,9,10,0.5,0.7
2024-04-23T2000,3734A,118.35,37.26,东营市,理想之城,,21,17,54,5,30,66,,97,85,21,18,8,10,0.6,0.7
2024-04-23T2000,1591A,110.0023,39.8129,鄂尔多斯市,综合楼,,39,39,36,14,10,89,,102,102,27,11,5,4,0.5,0.4
2024-04-23T2000,1592A,109.9486,39.8261,鄂尔多斯市,巴音孟克林场办事处,,36,36,32,9,10,86,,99,99,24,10,6,6,0.5,0.4
2024-04-23T2000,1593A,109.7736,39.5986,鄂尔多斯市,康泽苑,,39,39,27,17,8,97,,107,107,20,8,4,4,0.5,0.4
2024-04-23T2000,1594A,109.8119,39.5989,鄂尔多斯市,华泰汽车城,,36,36,28,9,10,100,,106,106,15,9,7,7,0.4,0.4
2024-04-23T2000,1595A,109.9734,39.7884,鄂尔多斯市,奥林花园,,34,34,34,5,7,78,,99,97,31,12,5,6,0.4,0.4
2024-04-23T2000,2436A,114.8938,30.3994,鄂州市,市政府,颗粒物(PM10),58,66,64,24,31,123,,146,146,12,19,8,11,0.3,0.6
2024-04-23T2000,2437A,114.8989,30.3714,鄂州市,赵家坝,颗粒物(PM10),51,51,57,26,33,132,,158,158,6,13,9,9,0.5,0.7
2024-04-23T2000,3654A,114.8094,30.4089,鄂州市,精准医疗中心,颗粒物(PM10),59,67,83,25,36,119,,146,146,6,14,5,5,0.3,0.5
2024-04-23T2000,2454A,109.4978,30.2981,恩施土家族苗族自治州,湖北民院,细颗粒物(PM2.5),55,53,43,39,20,18,,79,73,60,21,7,7,0.9,0.7
2024-04-23T2000,2455A,109.4707,30.2798,恩施土家族苗族自治州,州电力总公司,,47,47,36,26,19,32,,79,76,31,15,8,8,0.6,0.6
2024-04-23T2000,3549A,109.5061,30.3772,恩施土家族苗族自治州,龙凤新区,颗粒物(PM10),61,71,33,29,15,34,,88,84,19,11,6,6,0.6,0.6
2024-04-23T2000,2499A,108.3411,21.6158,防城港市,沙万,,28,28,34,14,21,78,,72,72,12,14,3,7,0.6,0.9
2024-04-23T2000,2500A,108.3514,21.7731,防城港市,防城档案局,,39,39,51,15,23,65,,64,64,16,19,2,4,0.7,0.9
2024-04-23T2000,2501A,108.3506,21.6414,防城港市,大海花园,,24,22,33,15,18,76,,72,72,15,14,5,9,0.6,0.8
2024-04-23T2000,1371A,113.1294,23.0067,佛山市,湾梁,,41,41,31,22,16,12,,59,58,77,50,8,8,0.4,0.3
2024-04-23T2000,1372A,113.1083,23.0478,佛山市,华材职中,,41,41,30,22,18,20,,53,53,57,49,9,9,0.7,0.6
2024-04-23T2000,1373A,113.144,23.0453,佛山市,南海气象局,,48,48,35,28,22,12,,45,45,58,45,7,7,0.7,0.6
2024-04-23T2000,1374A,113.2881,22.8094,佛山市,顺德苏岗,,35,35,24,19,21,20,,30,30,47,49,4,4,0.7,0.7
2024-04-23T2000,1376A,112.8383,22.8678,佛山市,高明孔堂,,32,32,30,17,16,38,,68,68,15,20,7,7,0.7,0.8
2024-04-23T2000,1377A,112.8836,23.1588,佛山市,三水监测站,,39,39,42,22,25,82,,96,96,32,49,6,5,0.7,0.8
2024-04-23T2000,1378A,112.867,23.185,佛山市,三水云东海,,40,32,35,28,31,47,,91,91,25,41,4,4,0.5,0.6
2024-04-23T2000,3625A,113.2544,22.7642,佛山市,容桂街道办,,46,46,34,27,25,29,,31,31,52,52,5,6,0.8,0.7
2024-04-23T2000,1282A,119.2681,26.0504,福州市,师大,,28,28,27,12,18,61,,71,71,26,23,4,3,0.7,0.5
2024-04-23T2000,1283A,119.2984,26.1028,福州市,五四北路,,25,21,35,13,23,77,,75,75,24,26,3,3,0.5,0.4
2024-04-23T2000,1284A,119.2648,26.0768,福州市,杨桥西路,,26,26,26,14,21,71,,78,78,22,23,3,3,0.6,0.5
2024-04-23T2000,1285A,119.317,26.0746,福州市,紫阳,,21,21,28,13,22,64,,70,70,27,29,3,3,0.6,0.5
2024-04-23T2000,3048A,119.5799,26.0936,福州市,九龙,,,,15,9,10,,,88,88,13,10,4,3,,0.4
2024-04-23T2000,3526A,119.5189,25.9664,福州市,吴航,,38,37,30,26,22,53,,77,74,23,13,4,3,0.8,0.5
2024-04-23T2000,1755A,123.7977,41.8491,抚顺市,望花区,,35,34,61,22,29,111,,115,114,10,19,7,9,0.4,0.4
2024-04-23T2000,1756A,123.9161,41.8822,抚顺市,顺城区,,42,42,69,19,33,118,,115,114,13,27,6,8,0.4,0.5
2024-04-23T2000,1757A,124.0436,41.8611,抚顺市,东洲区,,43,37,50,30,34,97,,110,103,12,10,4,4,0.6,0.6
2024-04-23T2000,1758A,123.9247,41.8642,抚顺市,新抚区,,41,41,61,16,28,101,,101,100,12,18,9,12,0.5,0.6
2024-04-23T2000,1759A,124.0972,41.8961,抚顺市,大伙房水库,,46,33,43,32,27,94,,114,107,11,11,7,7,0.5,0.5
2024-04-23T2000,1760A,123.7086,41.8391,抚顺市,沈抚新城,,34,32,61,12,30,106,,110,109,8,21,6,8,0.5,0.6
2024-04-23T2000,2376A,116.2127,28.0814,抚州市,桐源党溪,颗粒物(PM10),51,51,40,23,22,61,,119,112,7,6,4,5,0.5,0.5
2024-04-23T2000,2377A,116.3544,27.9831,抚州市,市站,,47,47,39,32,25,88,,116,114,19,12,4,6,0.8,0.7
2024-04-23T2000,2378A,116.3565,27.963,抚州市,血防站,,48,48,41,32,25,84,,119,116,25,12,1,5,1.1,0.9
2024-04-23T2000,2379A,116.3564,28.0007,抚州市,采茶剧团,细颗粒物(PM2.5),54,51,38,38,25,82,,116,114,19,10,3,4,1.1,0.9
2024-04-23T2000,2380A,116.385,27.9647,抚州市,医学分院,颗粒物(PM10),54,58,41,28,20,84,,110,108,26,11,4,9,1.0,0.9
2024-04-23T2000,2207A,121.6094,41.998,阜新市,工业园区,,21,18,32,12,15,65,,89,71,18,18,6,11,0.7,0.7
2024-04-23T2000,2208A,121.6697,42.0279,阜新市,长青街,,19,17,30,13,17,55,,81,67,18,16,6,11,0.7,0.7
2024-04-23T2000,2209A,121.6673,42.0705,阜新市,农业园区,,25,,29,17,17,69,,91,75,13,15,4,9,0.5,0.5
2024-04-23T2000,2210A,121.6717,42.0224,阜新市,东苑,,,7,30,,26,58,,86,70,21,18,15,20,0.6,0.5
2024-04-23T2000,2211A,121.6506,42.0498,阜新市,玉龙新城,,20,13,29,10,13,63,,88,72,15,15,8,11,0.6,0.6
2024-04-23T2000,2301A,115.8277,32.8929,阜阳市,市监测站,颗粒物(PM10),110,169,166,53,58,113,,127,123,21,18,7,9,0.3,0.5
2024-04-23T2000,2303A,115.8554,32.8605,阜阳市,开发区,颗粒物(PM10),150,249,193,55,49,113,,129,124,19,19,5,7,0.4,0.4
2024-04-23T2000,2875A,115.784,32.8892,阜阳市,阜阳职业技术学院,颗粒物(PM10),138,226,178,59,48,101,,129,122,22,17,6,7,0.3,0.4
2024-04-23T2000,3468A,115.7901,32.8613,阜阳市,市规划展馆,颗粒物(PM10),150,250,159,36,46,114,,129,125,19,17,5,7,0.3,0.5
2024-04-23T2000,3469A,115.836,32.9183,阜阳市,枣园社区,颗粒物(PM10),130,209,159,38,52,111,,128,124,17,15,6,8,0.2,0.4
2024-04-23T2000,2669A,102.9099,34.9841,甘南藏族自治州,州政府,,35,31,39,24,22,99,,112,111,5,13,8,8,0.5,0.4
2024-04-23T2000,3380A,102.8914,34.9617,甘南藏族自治州,甘肃民族师范学院,,36,36,42,7,15,102,,117,116,14,25,8,11,0.3,0.3
2024-04-23T2000,2570A,101.9603,30.0475,甘孜藏族自治州,水桥子,,27,7,8,1,5,21,,86,63,53,18,2,2,0.5,0.3
2024-04-23T2000,3065A,101.9533,29.9972,甘孜藏族自治州,州环保局,,22,14,8,6,5,34,,80,50,43,25,2,2,0.4,0.2
2024-04-23T2000,3414A,115.8347,28.932,赣江新区,桑海产业园,颗粒物(PM10),52,53,33,25,19,83,,129,125,51,23,7,7,0.6,0.6
2024-04-23T2000,2363A,114.9367,25.8664,赣州市,地委,,26,26,18,14,12,72,,83,83,12,7,1,1,0.9,0.9
2024-04-23T2000,2364A,114.9461,25.8481,赣州市,气象台,,35,35,22,19,14,70,,80,80,15,8,1,5,0.6,0.8
2024-04-23T2000,2365A,114.9322,25.8333,赣州市,市图书馆,,32,32,20,16,11,78,,84,84,7,6,12,13,1.1,1.1
2024-04-23T2000,2366A,114.8905,25.8471,赣州市,华坚鞋城,,33,28,26,23,14,77,,81,81,11,10,6,8,0.6,0.6
2024-04-23T2000,3109A,115.0093,25.8613,赣州市,赣县区卫计委,,25,19,21,13,13,77,,82,82,10,11,10,11,0.6,0.7
2024-04-23T2000,2683A,106.2319,36.1417,固原市,马园,颗粒物(PM10),142,234,376,98,87,53,,120,115,57,22,10,7,0.3,0.2
2024-04-23T2000,2684A,106.2792,36.0022,固原市,监测站,颗粒物(PM10),180,310,373,90,98,93,,111,111,15,15,3,3,0.3,0.2
2024-04-23T2000,2685A,106.2375,36.0211,固原市,新区,颗粒物(PM10),99,148,327,72,88,93,,114,114,21,15,3,3,0.2,0.1
2024-04-23T2000,3522A,106.2177,35.9959,固原市,原州区十五小,颗粒物(PM10),79,107,327,34,92,112,,124,124,16,12,1,2,0.2,0
2024-04-23T2000,2544A,106.6303,30.4576,广安市,市委,颗粒物(PM10),54,57,50,35,24,64,,78,78,21,13,7,6,0.7,0.6
2024-04-23T2000,2545A,106.6271,30.4663,广安市,友谊中学,,49,49,33,32,20,72,,80,80,20,12,5,5,0.7,0.6
2024-04-23T2000,2547A,106.6388,30.4551,广安市,广电花园,颗粒物(PM10),54,58,37,35,22,65,,75,75,17,11,7,6,0.7,0.6
2024-04-23T2000,2902A,106.6351,30.4865,广安市,北辰小学,颗粒物(PM10),52,54,39,31,20,68,,74,74,16,10,7,6,0.6,0.6
2024-04-23T2000,2523A,105.8945,32.4535,广元市,黑石坡,颗粒物(PM10),59,68,37,24,13,89,,96,96,9,11,6,6,0.3,0.3
2024-04-23T2000,2524A,105.821,32.4444,广元市,老城,颗粒物(PM10),55,59,49,15,14,77,,89,89,12,18,4,8,0.4,0.5
2024-04-23T2000,2526A,105.8628,32.4287,广元市,监测站,颗粒物(PM10),58,65,50,20,14,68,,94,91,16,11,4,7,0.4,0.4
2024-04-23T2000,3617A,105.8047,32.4166,广元市,经开区,颗粒物(PM10),58,66,46,23,19,79,,90,90,11,16,6,11,0.5,0.6
2024-04-23T2000,1345A,113.2347,23.1423,广州市,广雅中学,,49,42,28,34,21,6,,46,45,91,62,5,5,1.2,1
2024-04-23T2000,1346A,113.2612,23.105,广州市,市五中,,36,36,29,24,24,21,,52,51,70,55,7,7,0.9,0.8
2024-04-23T2000,1348A,113.3478,23.0916,广州市,广东商学院,,,,32,,22,,,30,30,,61,,4,,0.7
2024-04-23T2000,1349A,113.4332,23.1047,广州市,市八十六中,,44,36,34,24,21,3,,16,14,88,67,6,6,0.7,0.7
2024-04-23T2000,1350A,113.3505,22.9483,广州市,番禺中学,,35,32,26,23,17,12,,36,36,70,58,4,4,0.9,0.8
2024-04-23T2000,1351A,113.2146,23.3916,广州市,花都师范,,,26,26,17,18,,,79,79,44,49,6,6,0.7,0.8
2024-04-23T2000,1352A,113.2597,23.1331,广州市,市监测站,,46,40,29,29,21,3,,43,42,91,59,6,6,0.7,0.7
2024-04-23T2000,1353A,113.5618,23.312,广州市,九龙镇镇龙,,32,27,27,22,19,35,,45,45,30,30,6,6,0.8,0.8
2024-04-23T2000,1354A,113.2765,23.1544,广州市,麓湖,细颗粒物(PM2.5),54,44,29,38,23,2,,40,35,72,50,5,5,0.9,0.8
2024-04-23T2000,1355A,113.443,23.3035,广州市,帽峰山森林公园,,30,27,24,21,14,26,,52,50,18,28,5,5,0.7,0.7
2024-04-23T2000,2846A,113.3221,23.1322,广州市,体育西,,36,33,28,25,21,18,,42,42,66,52,7,6,0.8,0.8
2024-04-23T2000,3298A,113.5717,23.5491,广州市,从化街口,,36,30,22,25,16,40,,60,59,25,23,4,4,0.7,0.6
2024-04-23T2000,3299A,113.3472,23.3692,广州市,白云竹料,,36,34,28,25,20,40,,70,68,34,34,6,6,0.8,0.8
2024-04-23T2000,3300A,113.2981,23.237,广州市,白云嘉禾,细颗粒物(PM2.5),54,56,30,38,18,10,,44,43,68,60,4,4,1.1,0.9
2024-04-23T2000,3301A,113.4256,23.1716,广州市,黄埔科学城,,49,44,32,34,23,12,,32,32,62,59,4,4,1.0,0.9
2024-04-23T2000,3302A,113.3942,23.0483,广州市,番禺大学城,,32,32,33,14,17,21,,29,29,52,56,2,3,0.6,0.6
2024-04-23T2000,3303A,113.4922,22.8168,广州市,南沙黄阁,,21,21,29,11,20,47,,41,41,32,48,5,6,0.8,0.8
2024-04-23T2000,3304A,113.5342,22.7896,广州市,南沙街,,21,21,26,9,18,53,,39,39,25,39,6,6,0.6,0.7
2024-04-23T2000,3443A,113.2902,23.5544,广州市,花都梯面,,21,15,18,9,11,67,,81,81,10,20,7,6,0.8,0.7
2024-04-23T2000,3445A,113.7858,23.7478,广州市,从化良口,,10,8,11,5,6,30,,63,58,13,10,5,5,0.7,0.6
2024-04-23T2000,3446A,113.8051,23.2614,广州市,增城荔城,,30,30,30,19,20,26,,49,48,26,26,6,6,0.7,0.6
2024-04-23T2000,2505A,109.568,23.1478,贵港市,德智高中,,34,20,29,15,19,108,,90,90,8,15,5,5,0.7,0.7
2024-04-23T2000,2506A,109.6047,23.0666,贵港市,江南子站,,33,27,31,18,21,103,,96,96,9,12,7,8,0.5,0.6
2024-04-23T2000,2507A,109.6014,23.0948,贵港市,贵城子站,,38,38,38,21,22,94,,90,90,11,12,7,8,0.7,0.6
2024-04-23T2000,2508A,109.5669,23.1065,贵港市,荷城子站,,30,27,33,14,19,96,,87,87,7,12,8,9,0.7,0.7
2024-04-23T2000,3405A,109.5886,23.1172,贵港市,新世纪学校,,36,36,34,20,23,94,,93,93,8,11,8,9,0.8,0.9
2024-04-23T2000,1439A,106.6899,26.5998,贵阳市,马鞍山,,25,22,20,17,8,39,,58,52,16,13,7,7,0.4,0.4
2024-04-23T2000,1440A,106.6971,26.5694,贵阳市,市环保站,,32,29,21,22,16,68,,89,86,26,15,4,5,0.5,0.4
2024-04-23T2000,1441A,106.6243,26.6266,贵阳市,鉴湖路,,29,29,23,12,10,73,,82,81,11,8,2,2,0.4,0.4
2024-04-23T2000,1442A,106.7487,26.6343,贵阳市,燕子冲,,22,22,23,14,14,67,,85,83,12,9,6,6,0.5,0.4
2024-04-23T2000,1443A,106.6555,26.4365,贵阳市,碧云窝,,34,34,27,17,12,66,,91,88,18,13,4,4,0.8,0.4
2024-04-23T2000,1444A,106.694,26.5161,贵阳市,中院村,,39,39,25,19,14,44,,81,75,37,14,7,8,0.5,0.4
2024-04-23T2000,1445A,106.7109,26.6027,贵阳市,红边门,,31,31,25,19,19,55,,88,82,33,16,4,4,0.5,0.3
2024-04-23T2000,1446A,106.7164,26.5699,贵阳市,新华路,,27,27,20,12,16,69,,89,86,19,10,5,4,0.4,0.4
2024-04-23T2000,1447A,106.674,26.5424,贵阳市,太慈桥,,29,29,18,14,10,33,,71,66,33,14,7,7,0.4,0.3
2024-04-23T2000,1862A,110.4144,25.3167,桂林市,电子科大尧山校区,,,36,37,25,27,,,90,85,6,5,9,5,0.8,0.9
2024-04-23T2000,1863A,110.2819,25.2697,桂林市,监测站,,,50,43,16,20,53,,86,79,33,19,,10,0.6,0.7
2024-04-23T2000,1864A,110.3089,25.2708,桂林市,龙隐路小学,,43,43,37,22,26,70,,88,85,14,12,21,12,0.6,0.6
2024-04-23T2000,1865A,110.2869,25.2178,桂林市,八中,,,45,38,24,26,62,,86,82,,16,16,8,0.8,0.8
2024-04-23T2000,3403A,110.1764,25.2381,桂林市,创业大厦,,49,41,42,34,31,67,,92,88,16,17,32,24,0.9,0.9
2024-04-23T2000,3531A,110.296,25.1253,桂林市,旅游学院,,29,29,27,17,19,67,,88,85,12,12,9,7,0.8,0.9
2024-04-23T2000,2674A,100.2561,34.4714,果洛藏族自治州,玛沁县大武镇,,30,17,28,17,16,95,,101,100,19,11,24,14,0.5,0.4
2024-04-23T2000,1129A,126.5422,45.755,哈尔滨市,岭北,细颗粒物(PM2.5),118,133,39,89,29,55,,85,80,46,24,24,19,0.5,0.3
2024-04-23T2000,1130A,126.561,45.8167,哈尔滨市,松北商大,细颗粒物(PM2.5),102,122,44,76,31,40,,73,67,48,22,10,6,0.9,0.5
2024-04-23T2000,1131A,126.979,45.5419,哈尔滨市,阿城会宁,细颗粒物(PM2.5),242,214,84,192,56,82,,105,103,57,22,12,6,1.3,0.7
2024-04-23T2000,1132A,126.599,45.7222,哈尔滨市,南岗学府路,细颗粒物(PM2.5),211,168,64,161,33,48,,83,76,54,22,19,10,1.1,0.5
2024-04-23T2000,1133A,126.689,45.7733,哈尔滨市,太平宏伟公园,细颗粒物(PM2.5),175,212,59,132,33,36,,79,70,57,23,15,7,1.0,0.4
2024-04-23T2000,1134A,126.635,45.7667,哈尔滨市,道外承德广场,细颗粒物(PM2.5),160,168,57,122,34,40,,76,72,56,34,14,8,1.0,0.4
2024-04-23T2000,1135A,126.685,45.7319,哈尔滨市,香坊红旗大街,细颗粒物(PM2.5),182,191,69,137,37,38,,80,70,64,27,15,8,1.2,0.5
2024-04-23T2000,1136A,126.6411,45.7258,哈尔滨市,动力和平路,细颗粒物(PM2.5),137,174,60,104,29,72,,81,79,66,27,15,8,1.1,0.5
2024-04-23T2000,1137A,126.593,45.7478,哈尔滨市,道里建国路,颗粒物(PM10),110,170,56,72,51,47,,75,72,54,29,17,11,0.9,0.3
2024-04-23T2000,1138A,126.615,45.61,哈尔滨市,平房东轻厂,细颗粒物(PM2.5),102,131,66,76,37,36,,82,62,64,26,12,8,0.9,0.4
2024-04-23T2000,1139A,126.595,45.9855,哈尔滨市,呼兰师专,细颗粒物(PM2.5),98,96,50,73,24,42,,77,68,43,25,8,6,0.6,0.4
2024-04-23T2000,1140A,126.6206,45.6842,哈尔滨市,省农科院,细颗粒物(PM2.5),152,185,69,116,45,44,,87,76,69,34,18,10,1.1,0.6
2024-04-23T2000,2688A,93.5128,42.8172,哈密市,地区监测站,颗粒物(PM10),421,521,162,56,34,113,,120,120,8,30,3,4,0.2,0.5
2024-04-23T2000,2689A,93.4961,42.8328,哈密市,哈密师范学校,颗粒物(PM10),262,393,188,38,39,116,,91,,3,33,5,7,0.2,0.8
2024-04-23T2000,2671A,100.9048,36.9639,海北藏族自治州,海晏县西海镇,,41,41,32,15,13,108,,115,114,7,10,12,15,0.3,0.4
2024-04-23T2000,3867A,102.0738,36.5056,海东市,平安区公安北苑,,36,36,30,10,13,112,,128,128,19,11,6,10,0.4,0.5
2024-04-23T2000,1410A,110.3232,20.0574,海口市,海南大学,,31,31,27,18,15,84,,80,80,7,10,6,6,0.5,0.4
2024-04-23T2000,1411A,110.283,20.0053,海口市,秀英海南医院,,49,49,31,23,15,82,,77,76,9,14,6,6,0.4,0.4
2024-04-23T2000,1412A,110.338,19.9969,海口市,海南师范大学,,34,34,27,22,16,81,,87,86,6,8,7,6,0.5,0.4
2024-04-23T2000,1413A,110.33,20.0356,海口市,龙华路环保局宿舍,,43,,24,30,16,80,,79,78,7,8,8,7,0.4,0.3
2024-04-23T2000,3539A,110.5111,19.9736,海口市,桂林洋子站,颗粒物(PM10),54,57,29,22,19,80,,86,86,11,8,6,5,0.5,0.3
2024-04-23T2000,2673A,100.6188,36.2866,海南藏族自治州,共和县恰卜恰镇,,41,41,41,11,13,97,,114,113,21,21,9,10,0.4,0.5
2024-04-23T2000,2676A,97.3731,37.3753,海西蒙古族藏族自治州,德令哈市,,42,37,29,9,13,132,,129,129,4,5,11,10,0.5,0.5
2024-04-23T2000,1048A,114.5302,36.6116,邯郸市,东污水处理厂,,,48,94,17,30,78,,91,90,29,20,,6,,0.4
2024-04-23T2000,1049A,114.4918,36.5713,邯郸市,矿院,,37,37,81,12,24,89,,96,95,15,15,6,7,0.5,0.8
2024-04-23T2000,1050A,114.484,36.6133,邯郸市,丛台公园,,46,46,82,8,23,93,,98,98,16,16,6,8,0.3,0.6
2024-04-23T2000,3458A,114.7895,36.5593,邯郸市,香泉濮院小区,颗粒物(PM10),61,72,101,10,23,89,,106,105,20,17,6,6,0,0.2
2024-04-23T2000,3579A,114.50634,36.77178,邯郸市,永年区实验高中,颗粒物(PM10),57,63,107,19,25,83,,104,102,31,22,7,9,0.8,0.7
2024-04-23T2000,3580A,114.20016,36.44293,邯郸市,峰峰矿区临水派出所,,43,43,106,10,28,96,,107,107,15,11,6,13,0.5,0.9
2024-04-23T2000,2634A,106.9893,33.1842,汉中市,汉川机床厂子校,颗粒物(PM10),95,140,71,33,22,64,,85,85,8,6,5,5,0.7,0.7
2024-04-23T2000,2635A,107.0154,33.0706,汉中市,市监测站,颗粒物(PM10),96,141,70,40,29,95,,91,91,14,14,12,13,0.5,0.5
2024-04-23T2000,2636A,107.0089,33.1138,汉中市,鑫源开发区,颗粒物(PM10),98,146,77,36,23,78,,92,92,20,15,10,16,0.5,0.6
2024-04-23T2000,2637A,107.007,33.0323,汉中市,南郑大河坎水厂,颗粒物(PM10),87,124,67,33,22,88,,93,93,16,12,10,9,0.6,0.6
2024-04-23T2000,1223A,120.2072,30.2111,杭州市,滨江,,39,39,35,22,16,87,,93,93,23,24,4,4,0.7,0.6
2024-04-23T2000,1224A,120.0633,30.2747,杭州市,西溪,,,20,24,18,15,45,,91,85,,23,6,6,0.7,0.7
2024-04-23T2000,1226A,120.3461,30.3153,杭州市,下沙,,34,34,26,19,14,81,,95,95,38,30,4,4,0.7,0.6
2024-04-23T2000,1227A,120.1269,30.2456,杭州市,卧龙桥,,29,26,25,20,20,42,,80,76,21,21,4,4,0.7,0.6
2024-04-23T2000,1228A,120.1903,30.2692,杭州市,浙江农大,,32,29,21,22,16,73,,85,85,33,28,4,5,0.7,0.6
2024-04-23T2000,1230A,120.1197,30.3119,杭州市,和睦小学,,33,30,23,23,16,77,,96,96,32,26,7,7,0.8,0.7
2024-04-23T2000,1231A,120.3019,30.4183,杭州市,临平镇,,49,43,37,34,27,83,,94,94,36,21,4,4,0.7,0.6
2024-04-23T2000,1232A,120.2697,30.1819,杭州市,城厢镇,细颗粒物(PM2.5),57,47,31,40,23,76,,95,95,52,40,4,4,0.6,0.6
2024-04-23T2000,1233A,120.0883,30.1808,杭州市,云栖,,27,27,27,17,13,29,,79,72,23,22,7,7,0.6,0.6
2024-04-23T2000,3557A,119.9464,30.0494,杭州市,镇二中,,34,34,30,17,18,54,,92,91,50,24,6,6,0.9,0.7
2024-04-23T2000,3558A,119.7183,30.2367,杭州市,市府大楼,,24,24,21,16,17,60,,109,107,43,27,5,5,0.8,0.6
2024-04-23T2000,3656A,120.1556,30.2864,杭州市,消防大队,,,88,30,26,19,70,,89,89,,27,8,8,0.9,0.7
2024-04-23T2000,1270A,117.1959,31.7848,合肥市,明珠广场,颗粒物(PM10),152,254,101,56,57,113,,150,139,21,29,7,7,0.7,0.8
2024-04-23T2000,1271A,117.3072,31.8764,合肥市,三里街,颗粒物(PM10),156,261,103,61,51,113,,149,138,20,34,7,7,0.5,0.6
2024-04-23T2000,1272A,117.2588,31.8707,合肥市,琥珀山庄,颗粒物(PM10),161,271,108,51,42,119,,154,141,15,35,4,5,0.6,0.7
2024-04-23T2000,1273A,117.1604,31.9052,合肥市,董铺水库,颗粒物(PM10),172,294,104,51,46,108,,155,142,20,22,2,2,0.4,0.8
2024-04-23T2000,1274A,117.25,31.8571,合肥市,长江中路,颗粒物(PM10),161,271,112,58,53,114,,153,141,16,24,6,7,0.9,1.1
2024-04-23T2000,1275A,117.266,31.9436,合肥市,庐阳区,颗粒物(PM10),176,302,113,66,52,121,,156,146,12,29,3,3,0.4,0.5
2024-04-23T2000,1276A,117.336,31.8586,合肥市,瑶海区,颗粒物(PM10),157,263,114,60,52,108,,146,135,21,34,8,8,0.6,0.7
2024-04-23T2000,1277A,117.3027,31.7964,合肥市,包河区,颗粒物(PM10),162,273,107,63,51,106,,146,132,23,37,7,7,0.3,0.5
2024-04-23T2000,1278A,117.2776,31.7385,合肥市,滨湖新区,颗粒物(PM10),165,280,90,61,44,109,,143,132,18,18,8,8,0.4,0.5
2024-04-23T2000,1279A,117.1318,31.8403,合肥市,高新区,颗粒物(PM10),181,312,112,59,58,109,,146,133,20,23,7,7,0.7,0.8
2024-04-23T2000,3464A,117.3803,31.9147,合肥市,高教基地,颗粒物(PM10),149,247,87,28,30,119,,154,141,16,30,5,5,0.5,0.6
2024-04-23T2000,3614A,79.924,37.0877,和田地区,地区环保局,颗粒物(PM10),83,116,153,33,51,111,,114,114,6,16,5,7,0.5,0.5
2024-04-23T2000,3615A,79.9131,37.113,和田地区,市环保局,颗粒物(PM10),83,116,135,36,42,107,,109,109,9,26,5,6,0.5,0.8
2024-04-23T2000,2516A,108.2011,24.715,河池市,东仁乐园,,27,27,36,9,20,8,,26,22,10,8,5,5,0.8,0.8
2024-04-23T2000,2517A,108.0497,24.6947,河池市,市环保站,,20,20,30,10,19,47,,69,66,14,12,8,5,0.6,0.6
2024-04-23T2000,2518A,108.0983,24.6989,河池市,市疾控中心,细颗粒物(PM2.5),52,46,30,36,19,34,,72,68,28,16,7,8,0.6,0.6
2024-04-23T2000,1696A,114.6778,23.7569,河源市,源西,,38,,23,26,28,41,,44,44,28,31,4,4,1.1,0.9
2024-04-23T2000,1697A,114.6944,23.7586,河源市,东埔,,49,49,42,21,20,43,,47,47,27,27,6,6,0.9,0.8
2024-04-23T2000,1698A,114.6892,23.7233,河源市,老城,,27,27,26,17,16,27,,48,48,26,19,5,5,1.1,0.7
2024-04-23T2000,1718A,115.4208,35.2464,菏泽市,气象局,颗粒物(PM10),66,82,149,13,38,104,,113,112,24,19,2,5,0.3,0.4
2024-04-23T2000,1719A,115.4747,35.2375,菏泽市,市政协,颗粒物(PM10),64,78,128,14,38,94,,113,111,24,14,4,6,0.1,0.2
2024-04-23T2000,3374A,115.5564,35.0891,菏泽市,定陶老年大学,颗粒物(PM10),59,68,125,12,41,91,,117,114,23,17,6,6,0.2,0.4
2024-04-23T2000,3647A,115.4702,35.2706,菏泽市,菏泽医专,颗粒物(PM10),67,84,112,8,30,100,,120,118,23,14,4,5,0.2,0.3
2024-04-23T2000,2514A,111.5264,24.4172,贺州市,环保小区,,,22,28,,14,54,,55,,13,15,5,11,0.6,0.8
2024-04-23T2000,2515A,111.5608,24.4078,贺州市,政协大楼,,28,28,34,18,18,49,,71,67,16,18,7,6,0.6,0.7
2024-04-23T2000,3534A,111.4744,24.4553,贺州市,西湾,,46,46,22,24,12,66,,79,79,16,10,8,6,1.3,0.5
2024-04-23T2000,2385A,114.17,35.9019,鹤壁市,市监测站,,,136,132,2,42,100,,110,110,20,16,11,7,,0.4
2024-04-23T2000,2386A,114.2956,35.7511,鹤壁市,市交警支队,颗粒物(PM10),56,62,108,19,34,90,,110,108,23,13,11,11,0.3,0.5
2024-04-23T2000,2387A,114.2878,35.7306,鹤壁市,迎宾馆,颗粒物(PM10),66,81,147,36,43,88,,112,110,27,17,12,10,0.4,0.4
2024-04-23T2000,3474A,114.2617,35.6822,鹤壁市,大新区,颗粒物(PM10),81,112,173,14,20,75,,109,106,24,13,15,10,0.3,0.3
2024-04-23T2000,3596A,114.1572,35.9603,鹤壁市,南山宾馆,颗粒物(PM10),59,68,133,10,33,107,,112,112,9,10,10,9,0.5,0.5
2024-04-23T2000,2244A,130.2537,47.3416,鹤岗市,哈啤分公司,细颗粒物(PM2.5),109,105,57,82,36,88,,83,83,22,14,13,13,1.0,0.7
2024-04-23T2000,2245A,130.2684,47.3086,鹤岗市,斯达机电,细颗粒物(PM2.5),124,117,53,94,45,85,,94,94,27,16,13,12,0.9,0.7
2024-04-23T2000,2246A,130.3114,47.3388,鹤岗市,东山纸板厂,细颗粒物(PM2.5),99,113,65,74,40,94,,93,93,22,16,14,14,0.7,0.6
2024-04-23T2000,2247A,130.1097,47.3382,鹤岗市,五号水库,细颗粒物(PM2.5),65,59,59,47,40,56,,94,87,26,17,12,11,0.3,0.2
2024-04-23T2000,2263A,127.4833,50.2524,黑河市,交通局,,35,,32,24,20,62,,74,67,7,8,4,6,0.3,0.4
2024-04-23T2000,2264A,127.5144,50.2341,黑河市,环保局,,25,,19,17,19,66,,85,73,8,9,3,4,0.3,0.3
2024-04-23T2000,2265A,127.5291,50.2472,黑河市,大黑河岛,,,25,21,12,19,,,,,16,18,5,6,,
2024-04-23T2000,1074A,115.6838,37.7541,衡水市,电机北厂,颗粒物(PM10),51,51,80,20,31,80,,92,88,15,8,3,3,0.2,0.2
2024-04-23T2000,1075A,115.6303,37.7316,衡水市,市监测站,,41,41,80,17,30,80,,97,93,15,9,6,6,0.3,0.4
2024-04-23T2000,3188A,115.6683,37.7217,衡水市,市城管局,颗粒物(PM10),54,57,73,14,27,75,,97,93,17,9,1,2,0.2,0.2
2024-04-23T2000,3459A,115.5989,37.5491,衡水市,地表水厂,颗粒物(PM10),61,72,89,14,29,64,,102,97,34,10,3,3,0.3,0.3
2024-04-23T2000,2456A,112.5003,26.9167,衡阳市,原169医院,,39,39,40,22,24,89,,113,108,24,14,1,2,0.6,0.7
2024-04-23T2000,2457A,112.6194,26.9258,衡阳市,衡阳化工总厂,,43,38,44,30,24,114,,129,128,16,13,7,8,0.7,0.7
2024-04-23T2000,2458A,112.6211,26.8956,衡阳市,珠晖区环保局,,39,39,44,22,25,108,,123,122,21,14,6,7,0.8,0.8
2024-04-23T2000,2459A,112.6197,26.8733,衡阳市,市委党校,,40,39,43,20,23,127,,130,130,12,11,8,7,0.8,0.8
2024-04-23T2000,2460A,112.6006,26.8919,衡阳市,市监测站,细颗粒物(PM2.5),62,60,43,44,33,118,,132,130,20,13,7,8,0.9,0.8
2024-04-23T2000,2461A,112.5664,26.9056,衡阳市,真空机电公司,,,41,40,26,26,,,124,124,12,11,7,8,0.7,0.7
2024-04-23T2000,3399A,112.6703,26.882,衡阳市,师范学院,,39,38,41,27,31,114,,127,127,14,10,8,7,0.7,0.7
2024-04-23T2000,2608A,103.3772,23.3993,红河哈尼族彝族自治州,污水处理厂,颗粒物(PM10),60,70,60,39,41,125,,136,134,9,13,8,10,0.5,0.5
2024-04-23T2000,2609A,103.3861,23.35,红河哈尼族彝族自治州,监测站,细颗粒物(PM2.5),60,64,60,43,36,126,,134,133,10,12,10,10,0.5,0.5
2024-04-23T2000,3038A,103.3758,23.368,红河哈尼族彝族自治州,州图书馆,颗粒物(PM10),53,56,57,33,38,124,,133,131,8,10,6,6,0.4,0.4
2024-04-23T2000,1090A,111.6507,40.7517,呼和浩特市,呼市一监,颗粒物(PM10),59,68,31,11,9,92,,103,103,19,12,5,5,0.3,0.3
2024-04-23T2000,1091A,111.6572,40.8033,呼和浩特市,小召,颗粒物(PM10),52,53,37,13,9,73,,90,90,32,14,7,6,0.5,0.4
2024-04-23T2000,1094A,111.7516,40.8369,呼和浩特市,如意水处理厂,,40,40,31,10,7,92,,98,98,15,12,8,8,0.3,0.4
2024-04-23T2000,1095A,111.7276,40.8062,呼和浩特市,二十九中,,42,42,32,11,8,90,,97,97,24,12,12,9,0.3,0.5
2024-04-23T2000,1096A,111.5512,40.7866,呼和浩特市,工大金川校区,颗粒物(PM10),53,56,35,18,12,77,,91,91,26,18,9,5,0.3,0.3
2024-04-23T2000,1097A,111.717,40.7612,呼和浩特市,化肥厂生活区,颗粒物(PM10),55,59,40,18,13,82,,96,96,27,14,6,6,0.3,0.3
2024-04-23T2000,3698A,111.5968,40.8178,呼和浩特市,红旗小学,颗粒物(PM10),53,56,33,12,8,84,,94,94,28,16,6,4,0.3,0.3
2024-04-23T2000,3699A,111.6518,40.8389,呼和浩特市,海东办,,46,46,33,12,8,90,,95,95,20,11,8,6,0.3,0.3
2024-04-23T2000,2192A,119.7594,49.2261,呼伦贝尔市,区环保局,,33,30,18,23,17,73,,85,84,18,7,4,4,0.3,0.3
2024-04-23T2000,3061A,119.7512,49.1577,呼伦贝尔市,国华电力东,,34,34,21,15,9,72,,86,85,11,4,5,3,0.3,0.2
2024-04-23T2000,1250A,120.0751,30.8669,湖州市,城西水厂,,34,29,32,19,23,108,,115,115,34,25,3,3,0.7,0.6
2024-04-23T2000,2873A,120.0875,30.8955,湖州市,仁皇山新区,,33,31,30,23,26,105,,118,118,37,28,5,5,0.8,0.7
2024-04-23T2000,2907A,120.1844,30.8596,湖州市,吴兴区站,,38,35,28,21,22,121,,131,131,29,22,6,5,0.5,0.4
2024-04-23T2000,3562A,120.4148,30.8538,湖州市,南浔区站,,49,49,28,24,24,110,,130,130,30,20,5,6,0.5,0.4
2024-04-23T2000,1607A,120.9092,40.7136,葫芦岛市,龙港区,,35,29,37,16,20,59,,90,74,27,15,104,13,1.6,0.6
2024-04-23T2000,1608A,120.8392,40.7514,葫芦岛市,化工街,,22,,30,5,15,69,,88,75,19,22,13,15,0.6,0.6
2024-04-23T2000,1609A,120.8341,40.7073,葫芦岛市,新区,,21,,29,9,20,66,,97,73,18,17,6,7,0.7,0.7
2024-04-23T2000,1610A,120.8695,40.7677,葫芦岛市,东城区,,21,,29,8,17,66,,90,80,19,19,6,10,0.7,0.7
2024-04-23T2000,2482A,109.5981,27.5721,怀化市,林科所,,30,29,32,12,19,94,,106,104,4,4,9,13,0.7,0.6
2024-04-23T2000,2483A,109.9453,27.5444,怀化市,河西地税局,,48,48,37,27,22,43,,89,82,36,12,9,11,0.5,0.5
2024-04-23T2000,2484A,109.9781,27.5342,怀化市,市四医院,,32,32,36,22,25,51,,99,93,36,10,8,14,0.7,0.5
2024-04-23T2000,2485A,109.9972,27.5578,怀化市,监测楼,,49,49,40,27,24,40,,93,87,36,10,13,20,0.6,0.5
2024-04-23T2000,2486A,110.0394,27.583,怀化市,市委党校,颗粒物(PM10),51,52,37,29,20,52,,98,93,32,9,7,10,0.7,0.6
2024-04-23T2000,1210A,119.036,33.5981,淮安市,钵池山,颗粒物(PM10),89,127,38,30,33,70,,96,96,18,16,6,6,0.6,0.6
2024-04-23T2000,1211A,119.007,33.575,淮安市,北京南路,颗粒物(PM10),95,139,43,33,33,86,,106,106,14,16,7,7,0.4,0.5
2024-04-23T2000,1212A,118.989,33.6067,淮安市,市监测站,颗粒物(PM10),92,134,45,44,26,80,,106,106,19,17,5,6,0.4,0.6
2024-04-23T2000,1213A,119.135,33.5039,淮安市,楚州区监测站,颗粒物(PM10),99,147,41,32,34,80,,104,104,20,20,6,6,0.6,0.6
2024-04-23T2000,1214A,119.0186,33.6297,淮安市,淮阴区监测站,颗粒物(PM10),96,141,48,34,50,72,,103,102,26,21,4,5,0.3,0.5
2024-04-23T2000,3426A,118.8755,33.2894,淮安市,新华书店,颗粒物(PM10),101,151,50,24,22,83,,115,115,19,19,6,6,0.3,0.5
2024-04-23T2000,2282A,116.8004,33.975,淮北市,监测站,颗粒物(PM10),102,153,102,33,32,106,,123,119,15,14,5,7,0.3,0.5
2024-04-23T2000,2283A,116.8091,33.9007,淮北市,烈山区政府,颗粒物(PM10),92,133,119,41,45,111,,127,124,15,14,4,6,0.3,0.4
2024-04-23T2000,3330A,116.8873,33.9836,淮北市,杜集区检察院,颗粒物(PM10),98,146,115,57,53,108,,132,126,16,13,4,5,0.3,0.5
2024-04-23T2000,4017A,116.7923,33.9535,淮北市,市博物馆,颗粒物(PM10),96,141,115,40,36,111,,125,121,9,8,5,7,0.3,0.6
2024-04-23T2000,2277A,116.8305,32.7727,淮南市,潘集区政府,颗粒物(PM10),173,295,124,70,43,104,,147,132,13,13,6,9,0.3,0.4
2024-04-23T2000,2278A,117.0067,32.6524,淮南市,师范学院,颗粒物(PM10),175,299,116,67,47,100,,144,129,17,14,10,13,0.2,0.4
2024-04-23T2000,2279A,116.8569,32.5951,淮南市,谢家集区政府,颗粒物(PM10),169,288,107,70,33,104,,148,136,18,16,20,13,0.3,0.3
2024-04-23T2000,2280A,116.8281,32.633,淮南市,八公山区政府,颗粒物(PM10),171,291,126,56,48,99,,146,132,23,16,3,6,0.3,0.4
2024-04-23T2000,2281A,116.6325,32.6201,淮南市,焦岗湖风景区管理处,颗粒物(PM10),154,258,101,60,31,91,,122,113,25,24,4,4,0.1,0.2
2024-04-23T2000,2894A,117.0566,32.6531,淮南市,经济技术开发区消防队,颗粒物(PM10),166,282,104,88,40,96,,146,130,16,19,5,8,0.3,0.5
2024-04-23T2000,3329A,117.0108,32.5893,淮南市,山南新区,颗粒物(PM10),205,353,116,78,35,122,,150,138,10,13,4,5,0.3,0.4
2024-04-23T2000,2446A,114.9028,30.4742,黄冈市,职工中心,颗粒物(PM10),58,66,74,40,47,127,,156,154,12,12,5,6,0.5,0.6
2024-04-23T2000,2929A,114.8858,30.4519,黄冈市,红卫路,颗粒物(PM10),55,60,65,30,43,120,,148,147,4,12,7,9,0.3,0.5
2024-04-23T2000,3398A,114.9136,30.4445,黄冈市,市林业局,颗粒物(PM10),54,58,68,30,36,139,,162,162,1,12,2,4,0.4,0.5
2024-04-23T2000,2672A,102.0199,35.5102,黄南藏族自治州,同仁县隆务镇,颗粒物(PM10),57,64,32,18,16,94,,114,113,8,4,6,6,0.6,0.7
2024-04-23T2000,2295A,118.2903,29.6963,黄山市,延安路89号,颗粒物(PM10),51,52,29,8,6,67,,113,109,10,5,6,6,0.6,0.5
2024-04-23T2000,2296A,118.327,29.7178,黄山市,黄山东路89号,,47,47,26,26,9,47,,110,101,26,8,8,5,0.5,0.4
2024-04-23T2000,2297A,118.1371,30.2756,黄山市,黄山区政府5号楼,,38,38,25,16,14,88,,143,136,13,8,5,4,0.5,0.5
2024-04-23T2000,2423A,115.0601,30.2313,黄石市,沈家营,颗粒物(PM10),51,51,57,28,28,143,,168,168,8,9,8,11,0.6,0.7
2024-04-23T2000,2424A,115.0817,30.2006,黄石市,陈家湾,颗粒物(PM10),57,63,63,36,32,135,,170,169,15,18,13,12,0.5,0.6
2024-04-23T2000,2426A,114.8988,30.2019,黄石市,铁山,颗粒物(PM10),60,70,59,36,32,117,,169,163,21,12,15,16,0.6,0.8
2024-04-23T2000,2427A,115.0307,30.2092,黄石市,团城山,颗粒物(PM10),57,63,62,19,24,147,,164,164,7,13,7,10,0.4,0.5
2024-04-23T2000,3149A,115.0235,30.1578,黄石市,笔架山北路,颗粒物(PM10),55,60,56,30,25,126,,164,162,20,16,9,10,0.4,0.5
2024-04-23T2000,1392A,114.4183,23.0528,惠州市,河南岸金山湖子站,,19,18,28,13,19,48,,56,56,18,22,4,4,0.5,0.8
2024-04-23T2000,1393A,114.4053,23.0822,惠州市,下埔横江三路子站,,22,22,31,15,22,46,,54,54,20,24,4,5,0.8,0.8
2024-04-23T2000,1394A,114.4103,23.1142,惠州市,江北云山西路子站,,16,14,29,10,15,49,,54,54,15,25,6,6,0.7,0.7
2024-04-23T2000,1395A,114.4645,22.7833,惠州市,惠阳区承修路船湖子站,,21,12,26,8,20,66,,68,68,15,25,3,3,0.6,0.7
2024-04-23T2000,1396A,114.5317,22.7422,惠州市,大亚湾管委会子站,,24,12,22,8,14,76,,77,77,15,25,3,3,0.7,0.7
2024-04-23T2000,3314A,114.4338,22.8134,惠州市,惠阳秋长,,24,19,32,5,19,76,,76,76,16,28,8,9,0.8,0.9
2024-04-23T2000,3452A,114.6517,22.775,惠州市,大亚湾霞涌,,26,13,16,13,14,82,,79,79,6,10,6,4,0.5,0.5
2024-04-23T2000,2240A,130.9762,45.3001,鸡西市,环保局,颗粒物(PM10),54,58,61,25,30,69,,77,77,7,16,9,11,0.7,0.7
2024-04-23T2000,2243A,130.9429,45.3039,鸡西市,第一中学,,47,47,60,23,27,75,,92,89,10,15,11,12,0.4,0.4
2024-04-23T2000,3707A,131.0207,45.3073,鸡西市,欧美日汽修厂,,42,42,61,26,33,73,,85,83,5,11,3,6,0.5,0.5
2024-04-23T2000,3709A,130.9967,45.3106,鸡西市,市政设施管理处,颗粒物(PM10),57,64,62,30,34,71,,88,84,11,18,8,7,0.4,0.4
2024-04-23T2000,2367A,114.9754,27.0803,吉安市,红声器材厂,,47,47,35,29,21,100,,119,117,21,18,13,14,0.6,0.6
2024-04-23T2000,2368A,114.9658,27.0999,吉安市,市森林工业局,,48,47,36,33,25,73,,116,111,27,17,11,12,0.7,0.6
2024-04-23T2000,2369A,114.99,27.1312,吉安市,市环境监测站,,48,48,38,28,23,95,,117,115,22,17,11,15,0.9,0.7
2024-04-23T2000,2370A,115.0093,27.0968,吉安市,青原区法院,,44,44,36,29,25,82,,124,119,34,24,14,13,0.6,0.5
2024-04-23T2000,1772A,126.54,43.8622,吉林市,哈达湾,细颗粒物(PM2.5),165,201,182,125,92,62,,138,124,61,37,13,12,1.3,1.1
2024-04-23T2000,1773A,126.5844,43.8358,吉林市,东局子,细颗粒物(PM2.5),211,236,173,161,94,33,,132,112,85,40,11,9,1.4,1
2024-04-23T2000,1774A,126.5052,43.8245,吉林市,电力学院,细颗粒物(PM2.5),240,286,182,190,100,50,,139,122,71,40,18,13,1.5,1
2024-04-23T2000,1775A,126.6133,43.8972,吉林市,江北,细颗粒物(PM2.5),105,124,161,79,88,67,,125,117,38,35,12,13,1.0,1
2024-04-23T2000,1776A,126.555,43.8306,吉林市,江南公园,细颗粒物(PM2.5),203,224,173,153,102,40,,132,114,88,42,11,9,1.4,1
2024-04-23T2000,2868A,126.4739,43.953,吉林市,九站,细颗粒物(PM2.5),205,225,172,155,98,68,,125,115,51,39,26,21,1.4,1.1
2024-04-23T2000,1299A,116.9862,36.6114,济南市,科干所,,48,48,63,12,32,84,,111,93,16,12,6,7,0.5,0.7
2024-04-23T2000,1300A,116.9376,36.665,济南市,农科所,颗粒物(PM10),53,56,70,15,31,58,,100,86,32,16,4,5,0.5,0.6
2024-04-23T2000,1301A,117.1265,36.6734,济南市,开发区,,49,49,60,17,28,48,,125,89,41,15,5,6,0.6,0.6
2024-04-23T2000,1303A,117.0624,36.6868,济南市,省种子仓库,颗粒物(PM10),64,78,69,19,27,44,,118,87,39,11,2,3,0.4,0.4
2024-04-23T2000,1304A,116.9489,36.6447,济南市,机床二厂,颗粒物(PM10),68,85,78,17,30,59,,104,92,42,13,4,5,0.6,0.6
2024-04-23T2000,1305A,117.0495,36.663,济南市,市监测站,颗粒物(PM10),56,61,60,15,25,77,,126,98,36,18,10,10,0.6,0.6
2024-04-23T2000,1306A,116.7675,36.5484,济南市,长清党校,颗粒物(PM10),52,54,67,15,38,88,,103,101,17,13,4,6,0.4,0.5
2024-04-23T2000,1616A,117.6795,36.229,济南市,技术学院,,36,36,73,12,39,66,,96,93,29,19,7,9,0.5,0.7
2024-04-23T2000,1961A,117.532,36.6868,济南市,东山小学,,32,32,72,12,30,50,,115,88,32,17,5,6,0.2,0.3
2024-04-23T2000,3059A,117.7161,36.2049,济南市,泰兴公司,,36,36,70,12,39,46,,87,84,42,22,8,10,0.5,0.7
2024-04-23T2000,3064A,117.6867,36.2171,济南市,莱芜战役纪念馆,,29,29,81,12,37,59,,83,81,28,20,5,8,0.6,0.8
2024-04-23T2000,3494A,117.1673,36.9782,济南市,济阳区政府,,29,29,72,7,31,67,,92,86,16,22,7,8,0.5,0.6
2024-04-23T2000,3495A,117.1171,36.63,济南市,锦屏中学,颗粒物(PM10),51,51,55,10,27,71,,126,95,17,8,5,6,0.4,0.4
2024-04-23T2000,3682A,116.9814,36.6819,济南市,济南四建,颗粒物(PM10),71,92,63,22,29,70,,108,90,30,14,6,7,0.5,0.5
2024-04-23T2000,1653A,116.6251,35.4302,济宁市,火炬城,颗粒物(PM10),65,80,112,19,29,90,,104,99,10,8,6,8,0.4,0.6
2024-04-23T2000,1655A,116.5491,35.4042,济宁市,电化厂,颗粒物(PM10),63,76,108,12,28,84,,100,99,16,11,4,8,0.4,0.6
2024-04-23T2000,3500A,116.5814,35.3707,济宁市,北湖一中,颗粒物(PM10),69,87,98,7,32,67,,108,95,32,10,4,8,0.3,0.4
2024-04-23T2000,3501A,116.8249,35.5593,济宁市,服务中心,,,77,92,13,32,,,101,101,14,11,2,3,0.3,0.5
2024-04-23T2000,3678A,116.5907,35.4054,济宁市,市第七中学,颗粒物(PM10),71,91,114,27,36,89,,97,95,8,7,3,8,0.3,0.4
2024-04-23T2000,2255A,130.2751,46.8028,佳木斯市,佳纺,细颗粒物(PM2.5),242,236,135,192,112,109,,130,130,46,31,12,9,1.2,0.8
2024-04-23T2000,2256A,130.3995,46.8307,佳木斯市,发电厂,细颗粒物(PM2.5),254,218,108,204,109,95,,130,126,46,29,13,5,1.2,0.8
2024-04-23T2000,2257A,130.3258,46.7975,佳木斯市,环保局,细颗粒物(PM2.5),259,233,138,209,123,90,,122,119,59,41,12,7,1.3,0.8
2024-04-23T2000,2258A,130.3648,46.8032,佳木斯市,十一中,细颗粒物(PM2.5),276,226,127,226,128,102,,131,129,44,30,11,7,1.2,0.7
2024-04-23T2000,2259A,130.3794,46.7588,佳木斯市,四丰,细颗粒物(PM2.5),272,295,168,222,131,79,,146,137,53,43,1,1,1.6,1.1
2024-04-23T2000,1252A,120.7436,30.778,嘉兴市,清河小学,,37,37,23,24,13,102,,126,126,40,21,7,7,0.9,0.7
2024-04-23T2000,1253A,120.726,30.7478,嘉兴市,嘉兴学院,,36,31,22,25,17,93,,120,120,37,14,5,5,0.7,0.6
2024-04-23T2000,2872A,120.7846,30.7525,嘉兴市,南湖区残联,,43,30,25,30,19,110,,135,135,24,10,6,6,0.6,0.5
2024-04-23T2000,3407A,120.6916,30.7739,嘉兴市,秀洲住建,,32,32,22,20,15,86,,128,128,30,15,4,5,0.8,0.6
2024-04-23T2000,1945A,98.2908,39.7711,嘉峪关市,气象局,颗粒物(PM10),54,58,55,9,13,123,,124,124,14,14,18,14,0.4,0.5
2024-04-23T2000,2884A,98.2672,39.7978,嘉峪关市,酒钢宾馆,颗粒物(PM10),68,85,61,14,14,128,,126,126,11,13,12,21,0.3,0.5
2024-04-23T2000,3248A,98.2643,39.7724,嘉峪关市,雄关区,,41,37,43,13,13,130,,124,124,6,16,7,10,0.2,0.5
2024-04-23T2000,1383A,113.1064,22.6058,江门市,北街,,26,26,32,15,25,47,,54,54,27,36,3,4,0.6,0.7
2024-04-23T2000,1384A,113.0731,22.5835,江门市,西区,,43,43,32,17,19,54,,63,63,23,27,7,7,0.7,0.8
2024-04-23T2000,1385A,113.0219,22.5311,江门市,圭峰西,,20,,27,14,16,56,,67,67,17,20,3,4,0.7,0.8
2024-04-23T2000,1386A,113.0828,22.5947,江门市,东湖,,21,21,31,8,17,46,,57,57,21,25,5,5,0.6,0.7
2024-04-23T2000,3311A,113.1075,22.5647,江门市,江海富民,,30,28,42,21,30,54,,64,64,26,29,7,7,0.5,0.6
2024-04-23T2000,3449A,113.05,22.4667,江门市,新会银湖,,18,17,24,12,14,46,,73,71,20,26,4,3,0.7,0.7
2024-04-23T2000,1828A,113.227,35.2125,焦作市,市环保局,颗粒物(PM10),52,54,129,12,36,89,,108,105,17,11,2,3,0.2,0.4
2024-04-23T2000,3169A,113.2725,35.2067,焦作市,太极体育中心,颗粒物(PM10),74,97,159,13,34,92,,107,106,18,11,1,3,0.2,0.2
2024-04-23T2000,3335A,113.3137,35.2641,焦作市,马村街道办,颗粒物(PM10),54,58,125,13,29,90,,100,100,14,9,3,3,0,0.1
2024-04-23T2000,3336A,113.2465,35.2373,焦作市,焦作技师学院,颗粒物(PM10),52,53,143,17,33,84,,102,101,21,13,4,3,0.3,0.3
2024-04-23T2000,3477A,113.1656,35.2539,焦作市,中站许衡医院,颗粒物(PM10),79,107,132,29,34,69,,105,101,38,11,18,7,0.4,0.2
2024-04-23T2000,3981A,113.2449,35.1803,焦作市,原李万街道办,颗粒物(PM10),59,68,154,7,30,77,,92,91,20,11,5,5,0.4,0.5
2024-04-23T2000,1708A,116.3701,23.5345,揭阳市,新兴,,25,17,43,17,28,58,,57,57,20,34,8,13,0.7,0.8
2024-04-23T2000,1709A,116.3264,23.5443,揭阳市,西马,颗粒物(PM10),56,62,46,17,27,54,,57,57,21,31,8,13,0.8,0.9
2024-04-23T2000,1710A,116.3611,23.5626,揭阳市,东兴,,22,13,47,12,25,68,,64,64,11,29,6,11,0.8,1
2024-04-23T2000,1711A,116.4151,23.5294,揭阳市,渔湖,,18,18,47,9,21,53,,66,66,20,32,5,15,0.7,0.8
2024-04-23T2000,3320A,116.403,23.5699,揭阳市,曲溪,,22,15,37,11,25,69,,56,56,9,31,4,14,0.5,0.8
2024-04-23T2000,1944A,102.1692,38.5167,金昌市,天庆家园,颗粒物(PM10),51,52,99,7,28,116,,121,121,10,16,7,19,0.4,0.6
2024-04-23T2000,3170A,102.1864,38.5253,金昌市,市委党校,,49,49,126,29,48,125,,125,125,4,13,15,31,0.4,0.5
2024-04-23T2000,4022A,102.1647,38.5371,金昌市,金川区人防中心,,48,48,112,14,28,121,,124,124,6,11,5,13,0.5,0.5
2024-04-23T2000,1262A,119.647,29.077,金华市,十五中,细颗粒物(PM2.5),64,55,35,46,30,58,,86,86,47,33,4,3,1.2,0.7
2024-04-23T2000,1263A,119.686,29.1029,金华市,监测站,颗粒物(PM10),56,61,43,39,27,43,,77,77,66,33,3,2,1.1,0.7
2024-04-23T2000,3659A,119.656,29.1131,金华市,气象局,细颗粒物(PM2.5),55,55,41,39,29,34,,78,78,68,40,4,4,0.6,0.4
2024-04-23T2000,1767A,121.1115,41.0879,锦州市,南山,细颗粒物(PM2.5),54,,34,38,28,55,,87,73,23,19,8,18,0.8,0.6
2024-04-23T2000,1768A,121.0533,40.8434,锦州市,开发区,,26,,32,18,22,64,,94,71,19,26,11,11,1.0,0.6
2024-04-23T2000,1769A,121.1836,41.1119,锦州市,百股街道,,35,25,33,24,20,61,,88,78,18,17,11,13,0.8,0.6
2024-04-23T2000,1770A,121.1178,41.1222,锦州市,天安街道,,40,,34,28,25,59,,78,70,17,19,9,13,0.8,0.6
2024-04-23T2000,1771A,121.1303,41.1386,锦州市,北湖公园,,,94,38,,28,56,,77,72,15,16,6,10,1.3,0.8
2024-04-23T2000,2160A,112.85,35.5051,晋城市,自来水公司,颗粒物(PM10),51,52,98,7,20,109,,112,112,27,22,5,4,0.5,0.4
2024-04-23T2000,2161A,112.8318,35.4936,晋城市,白云商贸,颗粒物(PM10),63,76,111,2,23,108,,114,114,25,19,7,6,0.8,0.5
2024-04-23T2000,2162A,112.8508,35.4887,晋城市,市环保局,颗粒物(PM10),58,65,120,7,20,107,,113,113,26,20,7,6,0.7,0.5
2024-04-23T2000,2163A,112.8676,35.4897,晋城市,技术学院,,36,36,110,2,31,104,,112,112,29,21,7,6,0.7,0.6
2024-04-23T2000,3620A,112.8271,35.4828,晋城市,泽州一中,,42,42,110,0,16,111,,114,114,21,17,8,8,0.6,0.5
2024-04-23T2000,2171A,112.7532,37.6945,晋中市,锦纶小区,颗粒物(PM10),54,58,179,14,33,92,,103,103,26,14,7,7,0.5,0.3
2024-04-23T2000,2173A,112.7249,37.7067,晋中市,南都小区,颗粒物(PM10),60,70,174,21,32,88,,103,103,28,13,7,6,0.4,0.3
2024-04-23T2000,2174A,112.6991,37.6982,晋中市,榆次区政府,颗粒物(PM10),62,73,187,20,33,84,,106,105,31,12,7,7,0.6,0.2
2024-04-23T2000,2865A,112.7195,37.6828,晋中市,榆次三中,颗粒物(PM10),58,66,202,27,40,94,,106,106,24,12,8,7,0.6,0.4
2024-04-23T2000,2439A,112.2014,31.0481,荆门市,竹园小学,颗粒物(PM10),190,329,132,64,37,88,,120,117,31,22,9,9,0.4,0.6
2024-04-23T2000,2440A,112.1969,30.9891,荆门市,掇刀,颗粒物(PM10),174,298,130,54,46,111,,123,121,20,17,7,7,0.4,0.5
2024-04-23T2000,2441A,112.2213,31.0386,荆门市,石化一小,颗粒物(PM10),186,322,150,61,56,100,,124,122,23,23,8,11,0.4,0.6
2024-04-23T2000,3012A,112.1849,31.0362,荆门市,西山林语,颗粒物(PM10),166,281,116,51,33,110,,122,122,19,14,6,4,0.6,0.6
2024-04-23T2000,3547A,112.1632,31.0138,荆门市,龙泉中学南校,颗粒物(PM10),181,311,129,71,37,105,,122,121,24,19,9,9,0.4,0.5
2024-04-23T2000,1844A,112.2494,30.3197,荆州市,市图书馆,颗粒物(PM10),108,166,60,56,30,102,,128,128,26,17,8,8,0.5,0.6
2024-04-23T2000,1845A,112.2008,30.3544,荆州市,市委党校,颗粒物(PM10),118,186,65,52,30,96,,124,124,24,14,8,8,0.5,0.6
2024-04-23T2000,3194A,112.2747,30.3122,荆州市,管委会,颗粒物(PM10),98,145,53,58,31,97,,131,129,24,16,10,10,0.7,0.6
2024-04-23T2000,3548A,112.1655,30.3364,荆州市,学苑路,颗粒物(PM10),117,183,60,58,37,110,,137,137,18,15,6,7,0.4,0.4
2024-04-23T2000,2343A,117.2117,29.2933,景德镇市,老干部活动中心,细颗粒物(PM2.5),57,44,35,40,25,115,,119,119,14,16,5,7,0.4,0.4
2024-04-23T2000,2344A,117.1894,29.2789,景德镇市,兽医站,细颗粒物(PM2.5),52,50,39,36,24,82,,119,117,44,15,14,9,0.5,0.4
2024-04-23T2000,2345A,117.1547,29.2617,景德镇市,台达陶瓷,细颗粒物(PM2.5),54,,22,38,24,104,,113,113,22,26,22,21,0.5,0.6
2024-04-23T2000,2346A,117.2461,29.2956,景德镇市,陶研所,颗粒物(PM10),54,58,35,33,16,75,,100,100,17,11,5,7,0.6,0.4
2024-04-23T2000,1803A,115.9872,29.6815,九江市,十里,颗粒物(PM10),66,81,54,39,33,123,,167,165,36,24,13,11,0.8,0.7
2024-04-23T2000,1804A,115.9584,29.7046,九江市,茅山头,"颗粒物(PM10),细颗粒物(PM2.5)",62,74,49,44,32,125,,165,161,40,27,11,12,0.8,0.8
2024-04-23T2000,1805A,115.9877,29.7295,九江市,西园,颗粒物(PM10),61,71,48,37,32,129,,149,149,30,29,14,12,0.7,0.8
2024-04-23T2000,1806A,116.0172,29.6547,九江市,五七二七厂,颗粒物(PM10),61,72,47,31,31,141,,162,162,17,16,12,11,0.8,0.9
2024-04-23T2000,1808A,115.9114,29.6038,九江市,综合工业园,颗粒物(PM10),70,90,51,46,35,106,,159,156,48,33,13,11,0.9,0.9
2024-04-23T2000,1809A,116.0721,29.7535,九江市,石化总厂,颗粒物(PM10),64,78,59,37,37,142,,159,159,35,40,14,13,0.8,0.8
2024-04-23T2000,1810A,115.9773,29.5698,九江市,庐山气象台,细颗粒物(PM2.5),64,65,34,46,28,143,,145,145,10,6,6,12,0.7,0.6
2024-04-23T2000,3190A,116.0254,29.6994,九江市,外国语学校,颗粒物(PM10),59,67,52,35,33,141,,166,166,36,29,11,13,0.9,0.9
2024-04-23T2000,2658A,98.5061,39.7443,酒泉市,仓门街子站,颗粒物(PM10),54,58,59,18,18,123,,125,125,6,13,8,9,0.2,0.3
2024-04-23T2000,2659A,98.4989,39.7256,酒泉市,油田生活基地,,48,48,55,21,20,127,,128,128,6,12,9,12,0.3,0.3
2024-04-23T2000,2698A,76.0072,39.4467,喀什地区,巡警大队,颗粒物(PM10),104,158,369,40,79,110,,119,119,14,23,2,3,0.5,0.6
2024-04-23T2000,2699A,75.9755,39.4694,喀什地区,吾办,颗粒物(PM10),107,163,351,64,115,108,,120,120,14,23,2,2,0.3,0.3
2024-04-23T2000,4027A,75.9483,39.4689,喀什地区,老干局,颗粒物(PM10),128,205,398,,93,103,,122,122,14,21,,5,,0.6
2024-04-23T2000,1824A,114.3389,34.7781,开封市,肿瘤医院,颗粒物(PM10),80,109,129,16,27,106,,122,122,19,11,7,3,0,0.1
2024-04-23T2000,1826A,114.2885,34.7965,开封市,世纪星幼儿园,颗粒物(PM10),77,103,121,19,24,106,,114,114,17,11,5,4,0.2,0.3
2024-04-23T2000,3147A,114.3438,34.8106,开封市,龙亭公园,颗粒物(PM10),85,120,121,20,20,107,,119,119,19,11,4,3,0.4,0.4
2024-04-23T2000,3210A,114.3644,34.7964,开封市,汴京公园,,,,128,,26,109,,124,124,19,12,4,5,0.3,0.5
2024-04-23T2000,3473A,114.2485,34.8306,开封市,技师学院,颗粒物(PM10),57,64,134,26,32,113,,118,118,17,11,6,6,0.3,0.1
2024-04-23T2000,3592A,114.4644,34.7556,开封市,祥符区生态环境局,颗粒物(PM10),93,136,110,24,24,85,,116,114,32,18,5,5,0.3,0.3
2024-04-23T2000,1951A,84.895,45.6094,克拉玛依市,长征新村,,39,39,29,12,7,100,,100,100,4,10,8,8,0.2,0.2
2024-04-23T2000,1952A,84.8988,45.5893,克拉玛依市,南林小区,,35,35,35,17,18,103,,103,103,5,17,6,6,0.3,0.4
2024-04-23T2000,1954A,84.905,44.3396,克拉玛依市,独山子区,颗粒物(PM10),58,66,50,12,10,116,,123,123,8,9,7,8,0.2,0.2
2024-04-23T2000,1955A,85.6979,46.098,克拉玛依市,乌尔禾区商贸楼,颗粒物(PM10),91,132,37,6,7,110,,108,108,2,7,10,9,0.2,0.3
2024-04-23T2000,3612A,85.1045,45.6899,克拉玛依市,白碱滩区新站,,47,47,31,12,15,109,,108,108,1,5,10,10,0.2,0.2
2024-04-23T2000,2697A,76.1454,39.7142,克孜勒苏柯尔克孜自治州,市人民政府,颗粒物(PM10),85,119,228,41,84,130,,122,122,5,15,6,8,0.3,0.3
2024-04-23T2000,3665A,76.1658,39.7157,克孜勒苏柯尔克孜自治州,克州文化中心,颗粒物(PM10),98,145,227,40,69,126,,121,121,8,11,7,8,0.3,0.3
2024-04-23T2000,1450A,102.8204,24.8886,昆明市,呈贡新区,,44,44,57,17,32,115,,140,136,11,21,5,5,0.5,0.7
2024-04-23T2000,1452A,102.7252,25.0902,昆明市,龙泉镇,,48,48,54,19,30,117,,140,138,13,34,6,7,0.5,0.6
2024-04-23T2000,1453A,102.7266,25.0375,昆明市,东风东路,,,47,60,40,33,,,144,144,,20,6,9,0.3,0.7
2024-04-23T2000,1454A,102.6742,25.0669,昆明市,金鼎山,,45,45,59,22,31,120,,147,145,14,21,13,14,0.4,0.5
2024-04-23T2000,1455A,102.6644,25.0401,昆明市,碧鸡广场,,45,45,61,21,32,120,,147,145,14,23,8,10,0.5,0.6
2024-04-23T2000,3179A,102.7494,25.0119,昆明市,官渡区博物馆,,42,42,58,24,30,122,,147,146,12,19,9,10,0.5,0.7
2024-04-23T2000,3375A,102.8017,24.8336,昆明市,青年创业园,,39,39,58,23,30,124,,148,143,5,20,9,10,0.5,0.6
2024-04-23T2000,3550A,102.7997,24.9786,昆明市,昆明学院,,41,41,64,17,33,122,,143,142,10,20,8,9,0.6,0.8
2024-04-23T2000,3551A,102.5967,24.6736,昆明市,晋宁区生态环境分局,,44,44,55,22,29,120,,135,133,6,11,4,4,0.7,0.8
2024-04-23T2000,3552A,102.6678,24.9856,昆明市,云天化总部,,44,44,56,20,29,115,,136,135,6,18,8,9,0.5,0.7
2024-04-23T2000,1456A,91.1319,29.6514,拉萨市,八廓街,,47,47,33,21,15,134,,155,151,13,13,9,8,0.5,0.4
2024-04-23T2000,1457A,91.1221,29.6747,拉萨市,市环保局,,50,50,38,19,20,133,,149,147,15,14,7,6,0.3,0.3
2024-04-23T2000,1458A,91.0874,29.6475,拉萨市,区监测站,,49,49,30,24,15,140,,158,156,9,10,5,5,0.2,0.2
2024-04-23T2000,1459A,91.1774,29.6541,拉萨市,西藏大学,,45,43,35,21,17,142,,157,155,5,6,4,4,0.2,0.2
2024-04-23T2000,1460A,90.9798,29.6588,拉萨市,区辐射站,颗粒物(PM10),65,79,41,25,17,121,,143,139,18,13,6,6,0.4,0.4
2024-04-23T2000,1461A,91.0834,29.6292,拉萨市,拉萨火车站,颗粒物(PM10),54,57,30,27,15,136,,153,152,7,6,7,6,0.2,0.2
2024-04-23T2000,2520A,109.2203,23.7256,来宾市,来宾技工学校,,27,22,32,14,20,84,,94,94,8,6,9,8,0.6,0.7
2024-04-23T2000,3535A,109.1781,23.7297,来宾市,兴宾区政府,,27,20,28,11,17,85,,89,89,8,6,6,5,0.6,0.7
2024-04-23T2000,4002A,109.2416,23.7461,来宾市,中南小学,,28,20,32,15,20,87,,98,98,10,7,6,6,0.5,0.6
2024-04-23T2000,1476A,103.631,36.1031,兰州市,兰炼宾馆,,,63,233,34,95,114,,135,133,19,26,7,12,,0.5
2024-04-23T2000,1478A,103.8412,36.0726,兰州市,生物制品所,,48,48,288,33,94,93,,111,111,34,35,9,10,0.4,0.5
2024-04-23T2000,1479A,103.831,36.0464,兰州市,铁路设计院,,45,45,240,22,77,93,,105,105,34,37,7,9,0.4,0.4
2024-04-23T2000,3186A,103.7158,36.1058,兰州市,教育港,颗粒物(PM10),58,65,267,34,76,112,,122,122,20,21,7,10,0.4,0.4
2024-04-23T2000,3241A,103.7439,36.0842,兰州市,百合公园,,35,35,227,23,74,105,,113,113,24,28,5,6,0.0,0.2
2024-04-23T2000,3242A,103.9611,35.998,兰州市,和平,,40,40,273,20,82,117,,125,125,12,14,11,11,0.2,0.3
2024-04-23T2000,3245A,103.6633,36.533,兰州新区,新区管委会,颗粒物(PM10),54,58,229,25,79,118,,130,130,14,12,5,10,0.3,0.3
2024-04-23T2000,3246A,103.6975,36.4789,兰州新区,舟曲中学,颗粒物(PM10),56,62,305,18,87,109,,123,123,16,15,8,11,0.4,0.4
2024-04-23T2000,1067A,116.6708,39.5111,廊坊市,药材公司,,27,27,40,5,25,56,,74,63,17,14,3,3,0.4,0.5
2024-04-23T2000,1068A,116.7214,39.5589,廊坊市,开发区,,20,20,45,8,26,54,,72,67,22,16,3,2,0.2,0.3
2024-04-23T2000,1070A,116.7244,39.5269,廊坊市,北华航天学院,,42,42,56,20,34,57,,75,67,16,12,1,2,0.2,0.4
2024-04-23T2000,2919A,116.7022,39.5453,廊坊市,河北工业大学,,35,35,51,7,28,57,,78,68,25,21,2,2,0.2,0.4
2024-04-23T2000,2535A,103.7723,29.5462,乐山市,花湖湾,,24,8,40,1,25,74,,62,62,16,17,3,3,0.5,0.6
2024-04-23T2000,2536A,103.7627,29.5844,乐山市,牛耳桥,,21,21,41,9,27,63,,64,64,30,25,4,5,0.3,0.4
2024-04-23T2000,2537A,103.7508,29.6006,乐山市,市第三水厂,,23,22,46,10,29,72,,70,70,26,26,3,4,0.3,0.4
2024-04-23T2000,2538A,103.7571,29.5664,乐山市,市监测站,,22,18,43,12,23,70,,70,69,21,18,5,6,0.4,0.5
2024-04-23T2000,3361A,103.7311,29.5628,乐山市,理工大学,,19,19,40,10,26,58,,62,62,25,20,7,8,0.4,0.5
2024-04-23T2000,2599A,100.2497,26.8802,丽江市,丽江古城,细颗粒物(PM2.5),63,,69,45,34,118,,120,117,14,15,8,8,0.6,0.7
2024-04-23T2000,2600A,100.2203,26.8906,丽江市,市中心,,35,30,59,15,24,112,,119,116,16,14,9,9,0.5,0.5
2024-04-23T2000,1267A,119.914,28.4514,丽水市,监测站大楼,,24,24,19,16,29,69,,71,71,18,15,3,2,0.6,0.7
2024-04-23T2000,1268A,119.93,28.4586,丽水市,莲都小学,,26,26,18,17,12,69,,75,75,21,18,5,5,0.4,0.4
2024-04-23T2000,1269A,119.879,28.4231,丽水市,余庄前,,33,33,21,13,13,22,,60,51,8,12,4,4,0.5,0.6
2024-04-23T2000,1173A,119.176,34.5885,连云港市,市环境监测站,颗粒物(PM10),69,88,35,36,22,71,,86,85,27,14,7,6,0.6,0.3
2024-04-23T2000,3000A,119.3581,34.6972,连云港市,德源药业,颗粒物(PM10),68,85,29,31,17,38,,89,82,41,12,6,6,0.6,0.5
2024-04-23T2000,3007A,119.178,34.844,连云港市,新城一中,,43,43,34,16,11,70,,88,81,33,29,8,8,0.9,0.8
2024-04-23T2000,3008A,119.3608,34.7519,连云港市,胡沟管理处,颗粒物(PM10),62,73,24,24,11,65,,96,87,32,19,11,9,0.7,0.4
2024-04-23T2000,3009A,119.1478,34.5911,连云港市,矿山设计院,颗粒物(PM10),69,88,37,34,18,67,,83,82,25,13,8,8,0.9,0.7
2024-04-23T2000,3434A,119.2413,34.6539,连云港市,工贸学校,颗粒物(PM10),54,58,20,22,11,70,,104,93,10,6,8,8,0.7,0.5
2024-04-23T2000,3664A,119.4172,34.7341,连云港市,连云街道,颗粒物(PM10),53,56,21,18,9,72,,92,87,12,17,3,4,0.6,0.6
2024-04-23T2000,2571A,102.3431,27.8099,凉山彝族自治州,青龙寺,,16,11,10,2,1,51,,73,60,7,7,5,6,0.5,0.5
2024-04-23T2000,2572A,102.2721,27.8415,凉山彝族自治州,邛海宾馆,,22,18,9,15,5,50,,83,68,19,9,8,11,0.6,0.6
2024-04-23T2000,2573A,102.2625,27.898,凉山彝族自治州,西昌市政府,,18,17,10,11,8,55,,85,59,16,10,5,8,0.6,0.5
2024-04-23T2000,2574A,102.2685,27.8851,凉山彝族自治州,凉山州政府,,22,22,13,15,7,56,,80,62,16,11,9,9,0.6,0.6
2024-04-23T2000,2575A,102.237,27.8914,凉山彝族自治州,长安,,28,28,13,17,8,57,,82,70,19,10,7,10,0.7,0.6
2024-04-23T2000,2212A,123.2,41.1953,辽阳市,宏伟区,,42,42,33,26,20,51,,97,87,26,12,10,10,0.8,0.6
2024-04-23T2000,2213A,123.1683,41.2495,辽阳市,新华园,细颗粒物(PM2.5),58,44,38,41,23,64,,98,92,25,14,7,6,0.8,0.6
2024-04-23T2000,2214A,123.2354,41.2639,辽阳市,滨河路,细颗粒物(PM2.5),57,,44,40,25,56,,95,88,38,20,8,8,0.6,0.5
2024-04-23T2000,2215A,123.149,41.2991,辽阳市,铁西工业园,,45,45,47,28,23,65,,99,93,20,15,11,12,0.6,0.3
2024-04-23T2000,2227A,125.1358,42.8845,辽源市,环保局,,36,36,43,25,18,87,,113,106,18,17,10,10,0.8,0.5
2024-04-23T2000,3239A,125.0764,42.9078,辽源市,银鹰制药,颗粒物(PM10),51,51,51,28,22,52,,110,97,43,19,9,11,0.8,0.6
2024-04-23T2000,1625A,115.9848,36.4372,聊城市,区政府,颗粒物(PM10),54,57,102,7,36,72,,104,101,30,13,3,5,0.5,0.6
2024-04-23T2000,2878A,116.0072,36.4343,聊城市,聊大东校,,,66,108,5,36,70,,102,99,27,11,,5,0.5,0.7
2024-04-23T2000,3200A,115.9819,36.4978,聊城市,监控中心,颗粒物(PM10),73,95,108,7,31,34,,104,96,72,9,6,7,0.3,0.4
2024-04-23T2000,3513A,116.0445,36.4361,聊城市,九州社区,颗粒物(PM10),62,73,111,11,35,78,,107,105,24,12,4,6,0.6,0.6
2024-04-23T2000,4018A,116.0567,36.4608,聊城市,星美广场,颗粒物(PM10),74,98,104,16,37,59,,103,98,41,12,4,5,0.5,0.5
2024-04-23T2000,2632A,94.3681,29.6376,林芝市,林芝监测站,,36,4,5,0,5,115,,107,107,2,4,5,6,0.5,0.4
2024-04-23T2000,2633A,94.3616,29.6616,林芝市,林芝人民医院,,37,10,7,7,4,116,,110,110,4,5,6,6,0.3,0.3
2024-04-23T2000,2603A,100.0781,23.8982,临沧市,市环保局,细颗粒物(PM2.5),77,,53,56,46,115,,129,126,14,13,7,8,0.6,0.6
2024-04-23T2000,2604A,100.0894,23.8822,临沧市,市气象局,颗粒物(PM10),52,54,61,33,37,123,,128,128,11,14,7,8,0.4,0.5
2024-04-23T2000,1733A,111.5531,36.0783,临汾市,临钢医院,颗粒物(PM10),70,89,185,17,39,94,,107,107,18,10,7,5,0.5,0.3
2024-04-23T2000,1734A,111.5028,36.0714,临汾市,技工学校,颗粒物(PM10),68,85,175,25,32,88,,103,103,22,10,8,6,0.5,0.3
2024-04-23T2000,1736A,111.5018,36.0855,临汾市,市委,颗粒物(PM10),64,78,169,16,31,100,,112,112,14,7,6,4,0.5,0.3
2024-04-23T2000,3018A,111.505,36.1014,临汾市,唐尧大酒店,颗粒物(PM10),69,87,161,20,34,97,,106,106,14,9,8,6,0.5,0.3
2024-04-23T2000,3668A,111.5036,36.0414,临汾市,城南,颗粒物(PM10),77,103,185,23,31,85,,107,106,24,12,8,6,0.4,0.3
2024-04-23T2000,2667A,103.2069,35.5993,临夏回族自治州,环保局,颗粒物(PM10),56,62,63,21,24,92,,112,112,13,14,4,3,0.3,0.4
2024-04-23T2000,2668A,103.2417,35.6057,临夏回族自治州,建设大厦,颗粒物(PM10),63,75,56,30,25,82,,109,107,38,20,6,6,0.5,0.4
2024-04-23T2000,1618A,118.3429,35.0532,临沂市,沂河小区,颗粒物(PM10),67,83,58,24,19,84,,94,94,23,15,8,8,0.2,0.3
2024-04-23T2000,1619A,118.295,35.0583,临沂市,鲁南制药厂,颗粒物(PM10),70,90,55,20,17,83,,104,103,33,16,6,7,0.3,0.3
2024-04-23T2000,1620A,118.2794,34.9976,临沂市,新光毛纺厂,颗粒物(PM10),65,80,54,16,18,87,,100,100,24,21,4,5,0.4,0.5
2024-04-23T2000,1621A,118.3956,35.0888,临沂市,河东保险公司,,48,48,44,15,21,90,,93,93,13,13,3,4,0.0,0.1
2024-04-23T2000,3370A,118.3564,35.0215,临沂市,十里堡居委,颗粒物(PM10),63,75,50,22,22,92,,101,101,24,18,8,10,0.4,0.5
2024-04-23T2000,3496A,118.3604,35.1084,临沂市,南坊新区,颗粒物(PM10),57,63,53,14,19,86,,101,98,20,16,6,7,0.3,0.3
2024-04-23T2000,3860A,118.3920,35.0300,临沂市,皇山花园小区,颗粒物(PM10),65,80,53,26,29,91,,100,100,20,16,7,9,0.3,0.5
2024-04-23T2000,1870A,109.4856,24.3895,柳州市,柳东小学,,,,26,,16,75,,78,78,16,10,,9,0.5,0.5
2024-04-23T2000,1871A,109.4157,24.3277,柳州市,环保监测站,,22,22,33,0,22,65,,81,80,19,13,9,10,0.6,0.8
2024-04-23T2000,1872A,109.389,24.341,柳州市,河西水厂,,25,25,32,12,19,66,,79,79,17,12,8,12,0.5,0.8
2024-04-23T2000,1873A,109.4311,24.2921,柳州市,市四中,,25,20,30,17,19,75,,86,86,14,12,7,9,0.5,0.7
2024-04-23T2000,1874A,109.4006,24.3631,柳州市,市九中,,36,36,39,15,20,61,,79,78,30,20,24,12,1.3,1
2024-04-23T2000,1875A,109.4958,24.3134,柳州市,古亭山,,22,22,29,15,17,62,,81,80,6,7,5,5,0.4,0.5
2024-04-23T2000,3402A,109.5422,24.3996,柳州市,市二中,,23,19,27,9,17,72,,81,81,13,11,8,8,0.5,0.6
2024-04-23T2000,2307A,116.5079,31.737,六安市,监测大楼,颗粒物(PM10),266,396,123,88,52,115,,132,127,19,15,5,6,0.3,0.5
2024-04-23T2000,2308A,116.4738,31.7643,六安市,皖西学院,颗粒物(PM10),285,409,138,91,50,112,,137,130,20,15,3,4,0.4,0.6
2024-04-23T2000,2309A,116.4996,31.7905,六安市,朝阳厂,颗粒物(PM10),238,376,126,88,52,107,,135,128,15,12,6,6,0.2,0.4
2024-04-23T2000,2310A,116.5567,31.7886,六安市,开发区,颗粒物(PM10),358,466,147,100,48,98,,133,126,27,20,6,7,0.5,0.7
2024-04-23T2000,2577A,104.83,26.5917,六盘水市,黄土坡,,24,21,18,9,13,76,,95,90,16,9,8,6,0.5,0.4
2024-04-23T2000,2578A,104.89,26.5939,六盘水市,水钢,,31,31,24,15,15,77,,97,92,14,12,7,8,0.4,0.4
2024-04-23T2000,2579A,104.8475,26.5894,六盘水市,民中,,24,17,18,12,12,74,,94,90,14,8,6,6,0.5,0.3
2024-04-23T2000,2580A,104.9544,26.5506,六盘水市,双水,,29,29,20,9,11,76,,99,95,13,9,10,6,0.6,0.2
2024-04-23T2000,2336A,117.0217,25.1033,龙岩市,龙岩市监测站,,23,19,18,16,16,54,,76,74,22,13,2,4,0.8,0.6
2024-04-23T2000,2337A,117.0258,25.0661,龙岩市,闽西职业技术学院,,17,14,18,10,11,53,,66,65,18,12,2,3,0.6,0.4
2024-04-23T2000,2338A,117.0196,25.0306,龙岩市,龙岩学院,,16,,16,7,10,50,,72,69,11,7,3,2,0.5,0.5
2024-04-23T2000,2885A,104.9339,33.3826,陇南市,滨江中学,颗粒物(PM10),56,61,54,22,17,98,,97,97,7,6,4,4,0.5,0.5
2024-04-23T2000,3247A,104.955,33.371,陇南市,市总工会,颗粒物(PM10),52,53,42,5,5,92,,90,90,7,8,5,4,0.4,0.4
2024-04-23T2000,2487A,111.9589,27.8901,娄底市,电视发射台,,50,50,42,25,25,88,,126,123,5,5,4,4,0.6,0.6
2024-04-23T2000,2488A,111.9975,27.725,娄底市,市监测站,,49,49,48,31,31,116,,133,132,10,9,8,8,0.5,0.6
2024-04-23T2000,2489A,112.0194,27.7314,娄底市,市委党校,,48,45,37,33,30,120,,123,123,9,11,4,6,0.2,0.3
2024-04-23T2000,2490A,111.9561,27.7569,娄底市,涟钢,颗粒物(PM10),53,56,43,34,27,87,,114,112,39,15,11,8,0.9,0.7
2024-04-23T2000,2491A,111.9892,27.7044,娄底市,市政府,,49,47,41,34,29,122,,132,131,11,9,6,6,0.6,0.6
2024-04-23T2000,1893A,105.4324,28.9634,泸州市,九狮山,"颗粒物(PM10),细颗粒物(PM2.5)",58,65,45,41,26,46,,71,64,9,12,5,6,0.3,0.3
2024-04-23T2000,1894A,105.4427,28.9063,泸州市,小市上码头,细颗粒物(PM2.5),60,61,53,43,32,49,,69,66,23,12,4,6,0.5,0.4
2024-04-23T2000,1895A,105.4241,28.8573,泸州市,兰田宪桥,颗粒物(PM10),53,56,61,34,34,62,,64,63,8,13,5,6,0.3,0.4
2024-04-23T2000,1896A,105.4379,28.8833,泸州市,市环监站,细颗粒物(PM2.5),59,60,53,42,37,33,,63,58,36,18,5,9,0.5,0.4
2024-04-23T2000,3490A,105.3617,28.7703,泸州市,纳溪区环保局,,42,42,52,29,31,36,,55,51,36,22,5,7,0.5,0.5
2024-04-23T2000,2185A,111.1297,37.5136,吕梁市,自来水公司,,38,38,147,19,30,74,,98,97,28,9,2,5,0.4,0.2
2024-04-23T2000,2867A,111.1283,37.51,吕梁市,马茂庄小学,,50,50,161,22,28,47,,103,98,62,12,6,6,0.5,0.3
2024-04-23T2000,1814A,112.4657,34.6871,洛阳市,豫西宾馆,颗粒物(PM10),80,109,112,31,29,94,,106,106,25,13,4,4,0.3,0.3
2024-04-23T2000,1815A,112.494,34.6886,洛阳市,河南林校,颗粒物(PM10),72,93,105,31,26,95,,105,105,21,14,4,4,0.4,0.4
2024-04-23T2000,1816A,112.3844,34.623,洛阳市,开发区管委会,,,,108,20,29,98,,105,105,,10,2,3,0.2,0.3
2024-04-23T2000,1817A,112.4267,34.6258,洛阳市,市委新办公区,颗粒物(PM10),71,91,95,22,28,99,,107,107,16,11,4,5,0.1,0.2
2024-04-23T2000,3340A,112.6005,34.6326,洛阳市,伊滨,颗粒物(PM10),65,80,94,22,25,100,,108,108,20,13,4,4,0.2,0.3
2024-04-23T2000,3341A,112.4951,34.6332,洛阳市,中移产业园,颗粒物(PM10),66,82,95,23,23,101,,107,107,16,13,3,4,0.2,0.3
2024-04-23T2000,3593A,112.5736,34.8993,洛阳市,吉利监测站,颗粒物(PM10),75,100,122,18,20,94,,113,112,22,16,2,2,0.2,0.4
2024-04-23T2000,3635A,112.3677,34.662,洛阳市,河科大西苑校区,颗粒物(PM10),68,86,115,22,27,92,,100,100,14,13,2,4,0.2,0.3
2024-04-23T2000,3636A,112.4388,34.6781,洛阳市,英才小学,颗粒物(PM10),75,99,109,19,26,99,,106,106,18,13,4,4,0.3,0.4
2024-04-23T2000,2399A,114.051,33.5699,漯河市,三五一五工厂,颗粒物(PM10),75,100,92,27,29,84,,114,111,28,21,5,6,0.4,0.5
2024-04-23T2000,2400A,114.0055,33.5698,漯河市,漯河大学,颗粒物(PM10),74,97,115,27,32,84,,115,112,25,16,8,9,0.2,0.2
2024-04-23T2000,2401A,114.0138,33.5828,漯河市,市水利局,颗粒物(PM10),73,95,121,22,32,90,,112,110,17,13,7,8,0.5,0.5
2024-04-23T2000,2402A,114.0261,33.5698,漯河市,市广电局,颗粒物(PM10),77,103,130,21,32,85,,114,112,27,16,6,7,0.5,0.5
2024-04-23T2000,3478A,113.9749,33.5664,漯河市,市图书馆,颗粒物(PM10),67,83,102,22,32,85,,115,112,26,18,4,9,0.3,0.4
2024-04-23T2000,3479A,114.0967,33.5906,漯河市,召陵区卫健委,颗粒物(PM10),70,90,120,17,31,102,,118,118,16,18,6,6,0.3,0.3
2024-04-23T2000,1798A,118.5092,31.6837,马鞍山市,湖东路四小,颗粒物(PM10),56,61,62,21,37,133,,181,178,31,26,15,11,0.8,0.8
2024-04-23T2000,1799A,118.5024,31.6449,马鞍山市,开发区,颗粒物(PM10),60,70,63,23,36,107,,181,176,54,38,10,9,0.9,1
2024-04-23T2000,1800A,118.5228,31.7231,马鞍山市,慈湖,颗粒物(PM10),65,80,75,28,38,132,,173,172,33,29,15,15,1.0,1.2
2024-04-23T2000,1802A,118.6245,31.7241,马鞍山市,濮塘,颗粒物(PM10),57,64,55,35,33,132,,173,173,22,18,5,5,0.7,0.8
2024-04-23T2000,3633A,118.4918,31.6809,马鞍山市,雨山,颗粒物(PM10),56,61,77,21,31,134,,181,178,28,24,13,9,0.8,1.1
2024-04-23T2000,1686A,111.0286,21.4688,茂名市,电白南海,,29,29,29,12,13,35,,42,32,19,10,7,7,0.6,0.5
2024-04-23T2000,1687A,110.9294,21.6533,茂名市,茂石化七小,,32,24,29,22,20,36,,41,41,12,12,10,11,0.7,0.7
2024-04-23T2000,1688A,110.9107,21.6687,茂名市,健康路,,22,22,21,14,12,32,,40,40,14,11,8,10,0.6,0.6
2024-04-23T2000,1689A,110.8592,21.6828,茂名市,高岭,,,,30,,16,29,,47,44,15,14,9,34,,0.8
2024-04-23T2000,3450A,111.01,21.5165,茂名市,电白水东,,18,12,20,12,14,32,,42,30,23,14,5,6,0.6,0.6
2024-04-23T2000,2539A,104.0308,30.0478,眉山市,黑龙滩水库,,25,25,39,14,22,37,,65,60,10,9,3,3,0.5,0.6
2024-04-23T2000,2540A,103.8416,30.0874,眉山市,气象局,,33,33,41,17,10,43,,77,67,44,22,8,10,0.3,0.2
2024-04-23T2000,3137A,103.8578,30.0744,眉山市,市委党校,,31,31,30,19,12,38,,72,61,43,23,13,12,0.4,0.3
2024-04-23T2000,3148A,103.8291,30.0564,眉山市,区人社局,,35,35,32,14,14,52,,75,66,33,25,11,7,0.4,0.3
2024-04-23T2000,1690A,116.1231,24.3284,梅州市,梅江月梅,颗粒物(PM10),56,61,25,6,16,65,,65,65,5,13,3,3,0.5,0.6
2024-04-23T2000,1691A,116.0797,24.2719,梅州市,梅县新城,,19,15,22,13,17,37,,60,60,16,15,3,3,0.5,0.5
2024-04-23T2000,1692A,116.1248,24.2654,梅州市,环境监控中心,,16,15,26,10,17,23,,55,53,31,20,2,4,0.5,0.5
2024-04-23T2000,3315A,116.1233,24.2991,梅州市,梅龙,,19,19,20,12,16,56,,61,61,11,11,6,7,0.7,0.7
2024-04-23T2000,1878A,104.7778,31.4741,绵阳市,富乐山,,35,35,29,18,16,51,,71,71,18,12,7,8,0.6,0.5
2024-04-23T2000,1879A,104.7563,31.4535,绵阳市,市人大,,44,44,37,17,16,63,,73,73,29,20,12,9,0.5,0.4
2024-04-23T2000,1880A,104.6697,31.4668,绵阳市,高新区自来水公司,颗粒物(PM10),59,68,45,28,16,40,,70,68,58,24,10,9,0.5,0.3
2024-04-23T2000,1881A,104.7287,31.5075,绵阳市,三水厂,,46,46,34,22,20,37,,63,59,54,23,7,6,0.7,0.5
2024-04-23T2000,3491A,104.69,31.5322,绵阳市,西科大附属小学,颗粒物(PM10),60,69,40,28,17,35,,61,60,56,27,8,8,0.6,0.4
2024-04-23T2000,3492A,104.5648,31.5343,绵阳市,安州区旅游局,颗粒物(PM10),59,68,42,39,17,42,,68,66,45,21,17,8,0.7,0.5
2024-04-23T2000,1784A,129.61,44.561,牡丹江市,环保大楼,细颗粒物(PM2.5),63,48,40,45,31,90,,121,111,14,12,5,6,0.4,0.4
2024-04-23T2000,1785A,129.6115,44.5782,牡丹江市,文化广场,细颗粒物(PM2.5),73,,48,53,40,88,,120,109,18,16,7,8,0.5,0.4
2024-04-23T2000,1786A,129.5904,44.5963,牡丹江市,第一医院,细颗粒物(PM2.5),58,52,43,41,36,88,,117,110,18,13,6,6,0.5,0.4
2024-04-23T2000,1787A,129.6364,44.6075,牡丹江市,机车工厂,颗粒物(PM10),53,55,59,32,31,83,,122,113,19,15,8,6,0.4,0.4
2024-04-23T2000,1788A,129.6386,44.5462,牡丹江市,第一中学,"颗粒物(PM10),细颗粒物(PM2.5)",54,58,37,38,26,90,,120,106,18,14,6,6,0.3,0.3
2024-04-23T2000,2531A,105.0703,29.61,内江市,市监测站,颗粒物(PM10),51,51,42,32,29,54,,68,68,27,16,9,8,0.4,0.4
2024-04-23T2000,2532A,105.0717,29.5947,内江市,东兴区政府,,36,25,42,25,26,59,,64,62,27,17,9,9,0.4,0.4
2024-04-23T2000,2533A,105.0653,29.5817,内江市,内江二中,细颗粒物(PM2.5),63,54,39,45,31,51,,59,56,24,15,7,6,0.4,0.4
2024-04-23T2000,2534A,105.0406,29.5822,内江市,内江日报社,颗粒物(PM10),51,52,36,21,31,72,,64,61,15,19,8,7,0.3,0.4
2024-04-23T2000,2628A,92.0657,31.4846,那曲市,那曲监测站,,46,32,33,14,13,146,,135,135,6,7,3,4,0.6,0.6
2024-04-23T2000,3128A,92.0506,31.4797,那曲市,那曲会议中心,,,,43,,16,146,,134,134,2,4,2,2,0.4,0.5
2024-04-23T2000,1290A,115.8931,28.6843,南昌市,省外办,颗粒物(PM10),59,68,41,34,25,92,,136,132,29,18,5,6,0.4,0.4
2024-04-23T2000,1291A,115.8886,28.7003,南昌市,省林业公司,,48,48,32,27,22,112,,131,131,18,20,4,4,0.3,0.3
2024-04-23T2000,1292A,115.8126,28.7442,南昌市,林科所,,31,31,25,19,17,91,,132,127,31,11,4,3,0.5,0.5
2024-04-23T2000,1294A,115.8518,28.687,南昌市,建工学校,,49,49,39,23,21,111,,136,134,27,16,4,4,0.4,0.4
2024-04-23T2000,1295A,115.8921,28.6424,南昌市,象湖,颗粒物(PM10),51,52,37,28,24,94,,144,140,39,15,4,4,0.7,0.6
2024-04-23T2000,1296A,115.7423,28.7996,南昌市,武术学校,细颗粒物(PM2.5),63,,18,45,25,69,,116,104,3,3,7,7,0.3,0.3
2024-04-23T2000,1298A,115.9314,28.6842,南昌市,省站,细颗粒物(PM2.5),57,48,45,40,26,111,,137,136,19,14,8,8,0.7,0.6
2024-04-23T2000,3046A,115.9084,28.6062,南昌市,机电学校,颗粒物(PM10),53,55,41,29,23,112,,140,138,20,17,6,6,0.6,0.6
2024-04-23T2000,3690A,115.9721,28.7031,南昌市,外国语学校,,38,38,36,26,25,100,,137,134,19,16,4,5,0.5,0.4
2024-04-23T2000,1905A,106.056,30.8064,南充市,西山风景区,,25,,23,17,16,70,,74,74,8,6,3,3,0.4,0.3
2024-04-23T2000,1906A,106.0789,30.8023,南充市,南充市委,,37,37,37,23,22,62,,77,76,21,15,8,8,0.2,0.1
2024-04-23T2000,1907A,106.1031,30.8217,南充市,南充炼油厂,,44,44,45,25,24,80,,90,90,9,9,6,7,0.2,0.2
2024-04-23T2000,1908A,106.1064,30.7856,南充市,高坪区监测站,,,52,41,30,20,61,,83,81,26,16,11,9,,0.1
2024-04-23T2000,1909A,106.0642,30.7636,南充市,嘉陵区环保局,,49,48,39,34,22,71,,80,80,18,15,6,9,0.2,0.2
2024-04-23T2000,1910A,106.1087,30.8388,南充市,市环境监测站,,43,37,43,30,26,73,,82,82,21,13,5,6,0,0.1
2024-04-23T2000,1151A,118.8086,32.1065,南京市,迈皋桥,颗粒物(PM10),114,178,56,48,38,98,,177,172,16,24,5,4,0.4,0.7
2024-04-23T2000,1152A,118.7538,32.0551,南京市,草场门,颗粒物(PM10),142,234,57,51,40,93,,172,167,37,32,6,4,0.8,0.8
2024-04-23T2000,1153A,118.7794,32.0745,南京市,山西路,颗粒物(PM10),151,251,69,48,42,92,,155,152,18,21,4,4,0.2,0.5
2024-04-23T2000,1154A,118.7752,32.0023,南京市,中华门,颗粒物(PM10),146,241,67,51,39,94,,161,157,18,21,9,6,,0.7
2024-04-23T2000,1155A,118.8109,32.0309,南京市,瑞金路,,,,47,46,35,96,,170,166,13,17,6,5,0.2,0.5
2024-04-23T2000,1156A,118.7997,32.0754,南京市,玄武湖,颗粒物(PM10),107,163,58,51,44,96,,172,162,18,22,9,8,0.4,0.5
2024-04-23T2000,1157A,118.6414,32.0931,南京市,浦口,颗粒物(PM10),104,158,51,52,29,96,,153,150,11,26,4,6,0.3,0.6
2024-04-23T2000,1158A,118.7356,31.9996,南京市,奥体中心,颗粒物(PM10),131,211,75,51,42,98,,175,170,25,24,14,10,0.8,0.6
2024-04-23T2000,1159A,118.9125,32.1028,南京市,仙林大学城,颗粒物(PM10),145,239,61,46,36,104,,177,173,17,24,9,10,0.4,0.7
2024-04-23T2000,3422A,118.8436,31.9198,南京市,江宁彩虹桥,颗粒物(PM10),74,98,46,51,41,127,,185,184,16,19,4,4,0.5,0.6
2024-04-23T2000,3423A,119.0138,31.6494,南京市,溧水永阳,颗粒物(PM10),53,56,49,35,26,126,,158,158,25,23,4,4,0.6,0.6
2024-04-23T2000,3424A,118.879,31.3302,南京市,高淳老职中,,,61,39,45,27,159,,163,163,21,21,,5,0.4,0.4
2024-04-23T2000,3427A,118.8554,32.3578,南京市,六合雄州,颗粒物(PM10),103,156,52,21,31,95,,155,153,15,20,2,5,0.4,0.7
2024-04-23T2000,1401A,108.3103,22.7881,南宁市,二十一中,,30,30,38,14,20,61,,68,68,24,18,7,6,0.9,0.9
2024-04-23T2000,1402A,108.3141,22.8528,南宁市,北湖,,31,31,38,15,22,45,,64,64,32,16,6,8,0.9,0.8
2024-04-23T2000,1403A,108.3206,22.8225,南宁市,市监测站,,26,26,39,15,24,28,,56,56,50,21,7,7,1.0,1
2024-04-23T2000,1404A,108.3829,22.8037,南宁市,大自然花园,,17,13,35,10,22,52,,69,69,21,16,5,6,0.7,0.7
2024-04-23T2000,1405A,108.4394,22.7904,南宁市,仙葫,,32,32,38,12,21,62,,70,70,18,18,6,6,1.1,1.1
2024-04-23T2000,1406A,108.2397,22.8467,南宁市,区农职院,,30,30,40,16,22,42,,63,63,24,15,6,7,0.7,0.7
2024-04-23T2000,1407A,108.3275,22.735,南宁市,英华嘉园,,26,26,38,12,23,59,,64,64,23,20,6,6,0.7,0.7
2024-04-23T2000,1408A,108.2257,22.7757,南宁市,沙井镇街道办,,28,28,39,12,21,29,,61,59,34,21,6,5,0.8,0.8
2024-04-23T2000,3401A,108.4834,22.7618,南宁市,红星社区,,22,22,35,12,24,61,,76,76,19,16,8,8,0.7,0.8
2024-04-23T2000,2332A,118.1681,26.6369,南平市,南平市监测站,,19,11,23,10,11,60,,76,76,12,12,4,3,0.8,0.7
2024-04-23T2000,2333A,118.1825,26.6489,南平市,南平铝业有限公司,,19,12,26,4,11,59,,72,72,12,14,9,5,0.8,0.8
2024-04-23T2000,2334A,118.1756,26.6272,南平市,南平七中,,17,17,23,7,14,51,,72,72,11,9,4,3,0.8,0.8
2024-04-23T2000,1168A,120.9098,31.9663,南通市,狼山街道,细颗粒物(PM2.5),64,57,31,46,21,75,,131,123,39,23,10,10,1.1,0.7
2024-04-23T2000,1169A,120.86,32.0005,南通市,虹桥,二氧化氮,80,90,45,58,30,14,,94,90,159,36,17,7,1.3,0.7
2024-04-23T2000,1170A,120.87,32.02,南通市,城中,细颗粒物(PM2.5),94,110,53,70,34,58,,113,113,111,26,13,7,1.4,0.9
2024-04-23T2000,1171A,120.94,31.93,南通市,星湖花园,细颗粒物(PM2.5),84,93,37,62,27,90,,112,112,51,24,10,8,1.3,0.8
2024-04-23T2000,1172A,120.81,32.0417,南通市,紫琅学院,二氧化氮,89,89,41,48,26,2,,102,94,178,40,19,10,1.4,0.9
2024-04-23T2000,3291A,121.067,32.062,南通市,通州监测站,细颗粒物(PM2.5),89,102,42,66,24,97,,125,125,41,12,10,9,1.3,0.8
2024-04-23T2000,3432A,120.9348,31.9883,南通市,环境教育馆,细颗粒物(PM2.5),82,70,39,60,25,99,,116,116,46,24,10,8,1.3,0.7
2024-04-23T2000,2404A,112.5224,33.0122,南阳市,瓦房庄,颗粒物(PM10),144,237,191,56,53,97,,108,107,17,20,6,6,0.5,0.5
2024-04-23T2000,2405A,112.5003,32.9735,南阳市,汉画馆,颗粒物(PM10),156,262,199,64,58,86,,109,105,23,23,3,4,0.4,0.6
2024-04-23T2000,2406A,112.5573,33.027,南阳市,气象站,颗粒物(PM10),151,252,197,48,49,79,,110,106,33,21,6,6,0.4,0.5
2024-04-23T2000,2407A,112.5481,32.9689,南阳市,理工学院,颗粒物(PM10),153,255,191,70,65,88,,110,107,26,26,3,3,0.3,0.5
2024-04-23T2000,4008A,112.5234,32.9922,南阳市,卧龙区政府,颗粒物(PM10),164,277,201,67,64,86,,109,106,26,24,4,6,0.4,0.7
2024-04-23T2000,1234A,121.8358,29.911,宁波市,区环保大楼,,45,45,27,29,15,44,,60,60,63,44,9,8,1.1,0.8
2024-04-23T2000,1235A,121.56,29.82,宁波市,万里学院,,39,35,24,27,14,70,,66,66,33,23,7,6,0.7,0.6
2024-04-23T2000,1236A,121.713,29.9572,宁波市,龙赛医院,,31,22,20,11,10,50,,72,72,62,39,9,10,0.6,0.6
2024-04-23T2000,1239A,121.633,29.7733,宁波市,钱湖水厂,,33,33,20,20,13,59,,65,60,23,19,8,8,0.7,0.6
2024-04-23T2000,1240A,121.5856,29.8635,宁波市,太古小学,,35,35,23,20,14,29,,61,59,60,34,8,8,1.0,0.8
2024-04-23T2000,1241A,121.524,29.8674,宁波市,市环境监测中心,,42,42,25,26,14,61,,74,74,49,32,8,6,0.8,0.6
2024-04-23T2000,2871A,121.6147,29.9017,宁波市,万里国际学校,,41,41,37,18,16,23,,62,57,67,41,6,9,0.7,0.6
2024-04-23T2000,3710A,121.5594,29.8975,宁波市,白沙活动中心,,46,46,30,5,7,24,,64,61,67,34,8,8,0.7,0.5
2024-04-23T2000,2341A,119.5388,26.6612,宁德市,宁德市监测站,,38,,18,26,18,56,,76,57,26,14,6,6,0.9,0.7
2024-04-23T2000,3209A,119.5231,26.6562,宁德市,宁德一中,,40,32,23,28,19,68,,83,64,23,17,8,7,0.9,0.6
2024-04-23T2000,2618A,98.8601,25.8567,怒江傈僳族自治州,州监测站,,41,36,43,23,26,130,,131,131,4,8,6,7,0.4,0.5
2024-04-23T2000,2619A,98.8546,25.8417,怒江傈僳族自治州,泸水一中,,32,32,52,13,26,102,,113,113,18,15,6,6,0.4,0.4
2024-04-23T2000,1888A,101.6891,26.571,攀枝花市,弄弄坪,颗粒物(PM10),62,74,66,27,33,111,,137,136,24,20,18,23,0.5,0.8
2024-04-23T2000,1889A,101.5769,26.5928,攀枝花市,河门口,,49,49,66,25,36,134,,153,153,13,18,20,17,0.4,0.7
2024-04-23T2000,1890A,101.7169,26.585,攀枝花市,炳草岗,颗粒物(PM10),64,78,64,21,27,108,,140,138,26,24,17,25,0.5,0.6
2024-04-23T2000,1891A,101.7369,26.5008,攀枝花市,仁和,颗粒物(PM10),59,68,62,31,32,121,,141,140,24,16,12,10,0.7,0.6
2024-04-23T2000,2835A,101.7227,26.567,攀枝花市,四十中小,,49,49,51,25,26,127,,146,146,13,15,15,17,0.5,0.7
2024-04-23T2000,1604A,122.0303,41.1489,盘锦市,开发区,,43,,49,30,44,85,,83,83,20,26,5,17,0.6,0.6
2024-04-23T2000,1605A,122.0485,41.0883,盘锦市,兴隆台,,43,,43,30,36,71,,92,85,30,25,8,17,0.7,0.7
2024-04-23T2000,1606A,121.8297,41.1028,盘锦市,新生街道,,40,,43,28,39,80,,70,70,22,32,7,16,0.5,0.6
2024-04-23T2000,1832A,113.3257,33.742,平顶山市,新华旅馆,颗粒物(PM10),62,73,169,23,47,103,,117,117,19,17,7,9,0.3,0.3
2024-04-23T2000,1833A,113.2919,33.737,平顶山市,规划设计院,颗粒物(PM10),55,59,141,22,38,82,,107,105,27,18,7,8,0.5,0.4
2024-04-23T2000,1834A,113.182,33.774,平顶山市,平顶山工学院,颗粒物(PM10),51,52,147,12,36,102,,108,108,9,11,5,6,0.4,0.5
2024-04-23T2000,3204A,113.3025,33.73,平顶山市,规划局,颗粒物(PM10),56,61,173,16,39,87,,111,110,21,13,8,9,0.5,0.5
2024-04-23T2000,3594A,112.8867,33.9116,平顶山市,石龙区,颗粒物(PM10),66,81,166,21,38,76,,106,102,25,18,8,9,0.4,0.4
2024-04-23T2000,2656A,106.6692,35.5461,平凉市,聚贤嘉苑,颗粒物(PM10),173,295,396,76,80,100,,109,109,19,22,6,8,0.3,0.4
2024-04-23T2000,2657A,106.7021,35.5307,平凉市,博物馆,颗粒物(PM10),163,276,394,67,86,100,,112,112,19,17,10,11,0.3,0.2
2024-04-23T2000,2347A,114.0997,27.5002,萍乡市,武功山,,23,23,14,4,3,52,,100,91,5,5,7,8,0.6,0.7
2024-04-23T2000,2348A,113.8385,27.6434,萍乡市,中医院,,30,23,27,21,21,88,,116,115,17,12,1,5,0.9,1.2
2024-04-23T2000,2349A,113.8493,27.6253,萍乡市,市政府车库,,29,29,25,18,20,90,,115,114,17,14,8,11,0.8,0.8
2024-04-23T2000,2350A,113.8676,27.6435,萍乡市,市环保局,,28,23,28,14,17,89,,109,108,19,14,1,6,0.8,1
2024-04-23T2000,2351A,113.866,27.6198,萍乡市,安源区政府,,42,42,29,12,13,89,,116,115,15,13,7,10,0.7,0.8
2024-04-23T2000,2319A,119.0141,25.4325,莆田市,荔城区仓后路,,28,28,40,19,27,46,,58,54,26,18,5,5,0.9,0.8
2024-04-23T2000,2320A,119.0015,25.4553,莆田市,莆田市监测站,,32,30,43,22,24,38,,60,58,27,18,6,6,0.9,0.7
2024-04-23T2000,2321A,119.1119,25.4561,莆田市,涵江区六中,,18,18,35,12,25,46,,58,55,35,32,8,7,0.7,0.7
2024-04-23T2000,2322A,119.1013,25.3215,莆田市,秀屿区政府,,,26,35,11,33,,,54,53,17,16,,10,,0.8
2024-04-23T2000,2392A,115.0312,35.7636,濮阳市,环保局,颗粒物(PM10),67,84,102,11,25,92,,105,104,19,10,8,8,0.4,0.5
2024-04-23T2000,2394A,115.0574,35.7609,濮阳市,油田运输公司,,47,47,95,10,30,98,,104,104,18,12,8,9,0.2,0.4
2024-04-23T2000,2395A,115.0866,35.7754,濮阳市,油田物探公司,,44,44,85,13,33,89,,103,102,19,10,11,8,0.2,0.3
2024-04-23T2000,3021A,115,35.7668,濮阳市,濮水河管理处,,43,43,87,7,24,92,,102,102,16,9,8,8,0.3,0.4
2024-04-23T2000,2601A,100.98,22.7633,普洱市,市环保局,细颗粒物(PM2.5),68,56,67,49,45,107,,141,136,22,13,8,8,0.5,0.5
2024-04-23T2000,2602A,100.9817,22.8322,普洱市,普洱第二中学,颗粒物(PM10),51,51,61,30,33,127,,140,137,15,28,8,9,0.3,0.4
2024-04-23T2000,2262A,131.0518,45.8751,七台河市,新一中,细颗粒物(PM2.5),199,171,74,149,59,85,,123,118,33,20,16,12,1.4,1.1
2024-04-23T2000,3345A,131.0577,45.7879,七台河市,中波台,细颗粒物(PM2.5),172,158,67,130,48,61,,117,106,45,21,11,8,1.2,0.8
2024-04-23T2000,3637A,131.0176,45.7761,七台河市,人民广场,细颗粒物(PM2.5),206,198,88,156,62,64,,120,110,43,24,13,11,1.1,0.7
2024-04-23T2000,3684A,130.8781,45.8222,七台河市,新建矿广场,细颗粒物(PM2.5),195,210,125,146,64,71,,116,109,44,35,12,17,1.3,1
2024-04-23T2000,1779A,123.9305,47.3636,齐齐哈尔市,安居小区,,31,31,29,16,18,67,,63,63,15,16,4,3,0.3,0.4
2024-04-23T2000,1780A,123.9488,47.3386,齐齐哈尔市,中心广场,,37,37,32,19,13,63,,61,61,19,16,7,7,0.4,0.5
2024-04-23T2000,1781A,123.9483,47.3227,齐齐哈尔市,农牧车辆厂,,34,34,32,10,11,72,,67,67,11,14,7,8,0.3,0.3
2024-04-23T2000,1783A,123.945,47.2988,齐齐哈尔市,市环境监测站,,23,23,31,15,17,72,,69,69,10,13,4,4,0.3,0.3
2024-04-23T2000,3662A,123.6333,47.2075,齐齐哈尔市,富区青少年活动中心,,26,26,28,8,10,67,,70,70,14,15,6,9,0.3,0.5
2024-04-23T2000,2591A,107.9783,26.5747,黔东南苗族侗族自治州,市环境监测站,,22,22,36,14,24,40,,76,73,36,12,3,3,0.6,0.6
2024-04-23T2000,2881A,107.8908,26.5311,黔东南苗族侗族自治州,凯里学院,,19,12,30,11,20,58,,83,81,24,9,3,2,0.5,0.4
2024-04-23T2000,2593A,107.5228,26.2403,黔南布依族苗族自治州,小围寨,,24,9,21,2,13,74,,84,83,5,6,4,5,0.5,0.6
2024-04-23T2000,3538A,107.5175,26.2978,黔南布依族苗族自治州,沙坝,,22,14,28,2,13,70,,86,84,5,7,4,4,0.6,0.5
2024-04-23T2000,2589A,104.9022,25.0925,黔西南布依族苗族自治州,场坝街,,43,37,26,30,19,91,,93,93,12,7,3,4,0.3,0.2
2024-04-23T2000,2590A,104.8811,25.0992,黔西南布依族苗族自治州,坪东大道,,36,35,24,25,19,97,,102,102,9,8,3,3,0.3,0.3
2024-04-23T2000,2502A,108.6236,21.9667,钦州市,市环保站,,29,29,33,14,18,87,,77,77,12,19,8,6,0.8,0.9
2024-04-23T2000,2503A,108.6549,21.9481,钦州市,沙埠小学,,34,34,41,22,21,82,,80,80,19,19,5,6,0.9,1
2024-04-23T2000,2504A,108.5989,21.7431,钦州市,港区一小,颗粒物(PM10),53,55,48,28,20,83,,76,76,20,21,8,8,0.8,0.8
2024-04-23T2000,3404A,108.5959,21.9633,钦州市,北职校,颗粒物(PM10),51,52,39,13,24,58,,68,68,34,24,7,8,0.8,0.9
2024-04-23T2000,1042A,119.5134,39.8207,秦皇岛市,北戴河环保局,,23,21,34,10,13,73,,86,74,21,19,6,7,0.4,0.3
2024-04-23T2000,1043A,119.7493,40.0116,秦皇岛市,第一关,,26,18,42,18,28,76,,76,76,23,29,6,6,0.3,0.3
2024-04-23T2000,1044A,119.5897,39.9499,秦皇岛市,监测站,,27,22,43,15,27,86,,82,82,11,21,5,6,0.3,0.3
2024-04-23T2000,1046A,119.5251,39.9041,秦皇岛市,建设大厦,,20,17,33,14,20,41,,78,68,39,18,5,3,0.4,0.2
2024-04-23T2000,3132A,119.610547,39.943889,秦皇岛市,文明里,,25,,35,17,20,74,,74,74,16,21,3,3,0.4,0.4
2024-04-23T2000,1307A,120.6659,36.2403,青岛市,仰口,,34,34,25,22,16,90,,96,95,12,11,3,3,0.5,0.5
2024-04-23T2000,1310A,120.4134,36.0658,青岛市,市南区东部子站,,48,48,22,17,13,67,,77,75,32,21,6,6,0.5,0.5
2024-04-23T2000,1311A,120.3664,36.1032,青岛市,四方区子站,,41,41,22,22,18,65,,87,78,41,22,6,4,0.4,0.4
2024-04-23T2000,1312A,120.2994,36.054,青岛市,市南区西部子站,,36,36,18,12,10,82,,87,87,24,23,6,6,0.7,0.7
2024-04-23T2000,1313A,120.4581,36.0858,青岛市,崂山区子站,,48,48,18,22,12,70,,83,81,29,21,7,7,0.6,0.5
2024-04-23T2000,1314A,120.1983,35.9608,青岛市,黄岛区子站,,39,39,20,15,14,79,,78,72,18,21,5,6,0.6,0.6
2024-04-23T2000,1315A,120.3999,36.3083,青岛市,城阳区子站,,28,17,23,12,12,88,,92,87,20,21,6,6,0.4,0.5
2024-04-23T2000,1966A,120.0405,35.8735,青岛市,黄岛区4号,,29,29,17,9,8,79,,85,84,21,20,8,8,0.6,0.6
2024-04-23T2000,3362A,120.5014,36.4034,青岛市,即墨2号,,40,40,31,19,10,90,,102,96,16,12,5,5,0.5,0.5
2024-04-23T2000,3642A,120.3503,36.0736,青岛市,市北区南部,,49,49,20,12,11,81,,84,81,26,23,6,6,0.5,0.7
2024-04-23T2000,3643A,120.3948,36.1805,青岛市,李沧区北部,,35,34,19,24,16,75,,88,84,30,20,8,8,0.4,0.4
2024-04-23T2000,1702A,113.0426,23.691,清远市,环保大楼,,18,,11,5,11,57,,82,82,6,9,4,5,0.9,0.9
2024-04-23T2000,1703A,113.0208,23.7106,清远市,凤城街办,,23,6,17,4,14,71,,94,94,15,23,4,5,0.5,0.5
2024-04-23T2000,3025A,113.0477,23.6344,清远市,技师学院,,,7,25,4,17,80,,56,,13,18,,4,0.8,0.7
2024-04-23T2000,3318A,112.9903,23.7403,清远市,清新太和,,22,8,14,5,10,70,,89,89,16,20,5,6,0.8,0.7
2024-04-23T2000,3455A,113.076,23.7198,清远市,清城东城,,25,7,17,4,12,78,,98,98,11,16,4,4,0.6,0.6
2024-04-23T2000,2661A,107.6325,35.7357,庆阳市,庆阳五中,颗粒物(PM10),183,315,519,89,118,99,,106,106,19,9,4,4,0.2,0.2
2024-04-23T2000,2662A,107.6364,35.7067,庆阳市,市环保局,颗粒物(PM10),188,325,537,84,102,100,,106,106,15,10,2,2,0.4,0.3
2024-04-23T2000,1916A,103.7897,25.5035,曲靖市,环境监测站,颗粒物(PM10),55,59,47,21,21,106,,111,111,10,12,5,8,0.5,0.5
2024-04-23T2000,1917A,103.8,25.5364,曲靖市,烟厂办公区,,44,44,40,24,19,104,,110,110,10,11,4,4,0.5,0.5
2024-04-23T2000,3376A,103.7947,25.462,曲靖市,南苑二区,,,,48,,23,,,116,116,13,15,8,11,0.4,0.6
2024-04-23T2000,3377A,103.7444,25.5261,曲靖市,曲靖师范学院,颗粒物(PM10),55,60,40,28,26,113,,116,116,11,18,4,7,0.6,0.7
2024-04-23T2000,1264A,118.8692,28.9398,衢州市,环保大楼,,,32,34,16,24,64,,88,88,,19,7,5,,0.6
2024-04-23T2000,1265A,118.8709,28.9666,衢州市,实验学校,,28,28,38,16,26,76,,92,92,19,17,5,5,0.4,0.4
2024-04-23T2000,1266A,118.8621,28.9808,衢州市,衢州学院,,26,26,31,16,24,80,,92,92,20,22,5,3,0.5,0.5
2024-04-23T2000,1611A,118.5819,24.9117,泉州市,涂山街,,45,45,43,22,29,33,,80,74,50,27,5,5,0.9,0.8
2024-04-23T2000,1612A,118.5972,24.8978,泉州市,津头埔,,45,45,37,22,27,29,,78,72,59,33,5,5,0.9,0.7
2024-04-23T2000,1613A,118.6663,24.9424,泉州市,万安,,35,35,36,17,24,45,,87,81,40,31,2,2,0.6,0.6
2024-04-23T2000,3529A,118.6333,24.9264,泉州市,城华南路,,38,37,35,20,27,9,,78,66,75,32,5,4,0.6,0.5
2024-04-23T2000,2626A,88.8876,29.2718,日喀则市,日喀则监测站,,49,49,31,16,18,130,,146,145,4,6,6,5,0.4,0.4
2024-04-23T2000,3726A,88.8781,29.2426,日喀则市,林业技术推广中心,颗粒物(PM10),70,89,35,16,14,135,,146,145,4,6,5,5,0.3,0.4
2024-04-23T2000,1659A,119.471,35.4209,日照市,监测站,,27,27,27,12,16,75,,98,93,26,30,8,9,0.5,0.6
2024-04-23T2000,1660A,119.523,35.4216,日照市,市政府广场,,26,24,26,18,12,80,,94,93,19,20,7,8,0.5,0.5
2024-04-23T2000,1661A,119.5587,35.4044,日照市,港务局,,27,27,22,7,8,79,,93,92,14,13,4,5,0.5,0.5
2024-04-23T2000,3507A,119.5328,35.4625,日照市,职业技术学院,,27,27,25,5,12,73,,84,83,19,18,7,7,0.6,0.7
2024-04-23T2000,3604A,119.3266,35.1044,日照市,岚山环保分局,,48,48,38,27,21,24,,88,71,66,23,8,9,0.5,0.9
2024-04-23T2000,1835A,111.1922,34.7752,三门峡市,市政府,颗粒物(PM10),62,74,172,29,38,88,,107,107,38,16,6,7,0.4,0.4
2024-04-23T2000,1836A,111.1587,34.7942,三门峡市,开发区,颗粒物(PM10),71,92,152,39,36,105,,111,111,10,10,10,9,0.3,0.3
2024-04-23T2000,3039A,111.1911,34.7829,三门峡市,三门峡市第一小学,颗粒物(PM10),69,87,204,23,29,110,,112,112,19,13,5,6,0.3,0.3
2024-04-23T2000,3598A,111.1,34.7167,三门峡市,富达温泉假日酒店,细颗粒物(PM2.5),94,118,196,70,39,85,,107,106,17,12,8,10,0.5,0.5
2024-04-23T2000,2324A,117.6211,26.2625,三明市,三钢,,18,15,30,12,18,36,,75,73,28,19,5,7,0.8,1
2024-04-23T2000,2325A,117.635,26.2714,三明市,三明二中,,20,20,27,11,19,32,,71,68,28,20,4,6,1.0,0.9
2024-04-23T2000,2326A,117.6028,26.2378,三明市,三元区政府,,23,23,37,4,23,38,,75,74,28,20,7,9,0.7,0.9
2024-04-23T2000,1876A,109.5078,18.2489,三亚市,河东子站,,29,29,21,14,10,46,,52,51,4,3,3,3,0.3,0.3
2024-04-23T2000,1877A,109.4964,18.2681,三亚市,河西子站,,18,18,21,12,9,52,,49,49,6,6,2,2,0.4,0.3
2024-04-23T2000,3540A,109.7348,18.3443,三亚市,君悦子站,,30,30,24,12,10,50,,52,52,3,7,2,2,0.3,0.5
2024-04-23T2000,2624A,91.7608,29.2313,山南市,山南监测站,,50,50,37,16,15,127,,144,144,4,5,6,6,0.3,0.4
2024-04-23T2000,2625A,91.7706,29.2436,山南市,山南人民医院,颗粒物(PM10),63,75,44,19,22,125,,148,147,9,9,8,8,0.4,0.4
2024-04-23T2000,1674A,116.6794,23.3667,汕头市,金平子站,,25,,20,9,16,80,,83,81,13,18,2,3,0.7,0.8
2024-04-23T2000,1675A,116.7244,23.3633,汕头市,龙湖子站,,25,12,24,10,17,78,,85,81,6,11,4,5,0.7,0.8
2024-04-23T2000,1676A,116.7258,23.2775,汕头市,濠江子站,,24,9,26,6,21,76,,78,75,7,12,4,4,0.6,0.7
2024-04-23T2000,1678A,116.6092,23.2539,汕头市,潮阳子站,,27,11,23,8,19,84,,89,86,4,8,3,4,0.6,0.7
2024-04-23T2000,3444A,116.454,23.2684,汕头市,潮南峡山,,18,17,25,12,17,56,,79,68,16,7,3,4,0.6,0.8
2024-04-23T2000,3624A,116.4069,23.2533,汕头市,潮南子站,,23,19,25,16,19,62,,73,69,18,8,7,7,0.7,0.8
2024-04-23T2000,1693A,115.3653,22.775,汕尾市,市环保局,,23,,16,10,12,73,,93,88,15,8,8,8,0.7,0.7
2024-04-23T2000,1694A,115.3706,22.7898,汕尾市,市政府,,25,12,16,5,13,77,,95,92,16,10,4,4,0.7,0.7
2024-04-23T2000,1695A,115.3622,22.7925,汕尾市,新城中学,,27,27,17,12,11,74,,94,91,16,10,6,6,0.7,0.7
