timepoint,stationcode,longitude,latitude,area,positionname,primarypollutant,aqi,pm10,pm10_24h,pm2_5,pm2_5_24h,o3,o3_24h,o3_8h,o3_8h_24h,no2,no2_24h,so2,so2_24h,co,co_24h
2025-06-02T2300,2566A,102.1879,31.914,阿坝藏族羌族自治州,州农科所,,21,21,21,6,8,57,,65,53,5,10,11,11,0.4,0.5
2025-06-02T2300,2568A,102.2502,31.8896,阿坝藏族羌族自治州,马师校,,19,14,14,13,17,25,,65,44,8,7,5,6,0.6,0.6
2025-06-02T2300,3994A,102.2165,31.9024,阿坝藏族羌族自治州,马尔康中学西区,,29,,16,20,17,55,,71,58,4,4,5,5,0.5,0.5
2025-06-02T2300,2695A,80.292,41.1694,阿克苏地区,电视台,颗粒物(PM10),92,134,176,53,69,80,,101,98,25,18,3,6,0.2,0.2
2025-06-02T2300,2696A,80.2613,41.1551,阿克苏地区,艺术中心,颗粒物(PM10),99,147,177,55,71,68,,104,97,30,16,3,3,0.4,0.3
2025-06-02T2300,2204A,105.6467,38.8363,阿拉善盟,西城区西花园,,27,18,29,17,17,85,,110,103,14,8,5,5,0.7,0.6
2025-06-02T2300,2205A,105.6985,38.8411,阿拉善盟,蒙二幼,,24,19,30,7,10,74,,97,92,8,6,9,9,0.4,0.3
2025-06-02T2300,2206A,105.724,38.8516,阿拉善盟,环保局新楼,,28,10,25,3,8,88,,104,100,3,3,8,8,0.4,0.4
2025-06-02T2300,2708A,88.1264,47.8517,阿勒泰地区,市站,,38,38,26,10,5,70,,88,85,11,9,2,2,0.4,0.4
2025-06-02T2300,2630A,80.1161,32.5,阿里地区,阿里监测站,臭氧1小时,102,6,7,3,7,203,,192,192,4,4,5,6,0.3,0.3
2025-06-02T2300,3192A,80.0903,32.5028,阿里地区,阿里藏医院,臭氧1小时,108,24,15,3,6,216,,205,205,1,1,5,6,0.4,0.4
2025-06-02T2300,2642A,109.0318,32.6537,安康市,香溪洞,,26,26,27,12,12,74,,86,84,5,6,6,6,0.5,0.5
2025-06-02T2300,2644A,109.0072,32.6975,安康市,汉滨区检察院,,36,36,30,15,13,32,,84,68,13,9,4,5,0.6,0.5
2025-06-02T2300,4054A,109.0325,32.6913,安康市,市邮政管理局,,42,42,34,16,14,34,,85,64,13,11,10,7,0.6,0.6
2025-06-02T2300,2291A,117.0809,30.5177,安庆市,环科院,,25,13,6,13,4,80,,102,97,10,4,2,2,0.4,0.5
2025-06-02T2300,2292A,117.0331,30.5119,安庆市,马山宾馆,,27,18,7,11,4,84,,98,94,9,6,3,3,0.3,0.4
2025-06-02T2300,2294A,116.9896,30.6145,安庆市,安庆大学,,27,15,6,12,5,84,,96,92,9,5,3,3,0.3,0.4
2025-06-02T2300,3173A,117.0598,30.5351,安庆市,市人大,,27,16,7,12,4,84,,104,99,13,7,3,3,0.4,0.5
2025-06-02T2300,3122A,105.9606,26.2611,安顺市,伍家关,,24,7,7,3,3,76,,69,69,7,7,2,2,0.3,0.3
2025-06-02T2300,3123A,105.9408,26.2431,安顺市,凤凰山,,28,12,10,8,8,87,,76,76,5,6,9,8,0.4,0.5
2025-06-02T2300,3124A,105.9439,26.2564,安顺市,金钟山,,23,12,13,10,9,71,,69,69,4,5,6,6,0.3,0.4
2025-06-02T2300,3125A,105.8983,26.2481,安顺市,娄家坡,,26,15,12,13,9,82,,76,76,6,5,4,4,0.4,0.5
2025-06-02T2300,1818A,114.4839,36.0621,安阳市,棉研所,,,,,,,,,,,,,,,,
2025-06-02T2300,1819A,114.3551,36.1017,安阳市,红庙街,颗粒物(PM10),81,112,99,42,63,124,,202,164,14,9,5,6,0.6,0.8
2025-06-02T2300,1820A,114.361,36.0681,安阳市,银杏小区,颗粒物(PM10),79,107,109,37,57,128,,199,166,15,12,6,5,0.6,0.8
2025-06-02T2300,3141A,114.3922,36.0878,安阳市,信访局,颗粒物(PM10),75,100,96,33,49,127,,204,167,20,16,6,5,0.7,0.8
2025-06-02T2300,3669A,114.4705,36.0637,安阳市,左辅环卫站,颗粒物(PM10),87,124,108,41,48,108,,189,148,26,19,5,5,0.5,0.5
2025-06-02T2300,3703A,114.2917,36.0949,安阳市,安钢职工学校,颗粒物(PM10),79,107,105,38,63,126,,191,160,15,13,7,7,0.6,0.8
2025-06-02T2300,1748A,123.044,41.1196,鞍山市,深沟寺,,23,21,62,8,36,73,,147,103,10,21,6,10,0.6,1.2
2025-06-02T2300,1749A,123.011,41.0931,鞍山市,太阳城,,21,12,70,6,38,66,,151,103,9,20,6,11,0.6,1.1
2025-06-02T2300,1750A,123.0485,41.1442,鞍山市,太平,,29,11,75,8,40,91,,140,104,9,23,8,14,0.7,1.3
2025-06-02T2300,1751A,122.9642,41.0971,鞍山市,铁西三道街,,31,31,81,9,40,79,,142,103,25,31,7,11,0.8,1.1
2025-06-02T2300,1753A,123.022,41.0821,鞍山市,明达新区,,29,12,68,3,42,90,,138,108,8,20,5,10,0.4,0.8
2025-06-02T2300,1754A,123.1289,41.0228,鞍山市,千山,,,,,,,,,,,,,,,,
2025-06-02T2300,4201A,122.9446,41.0826,鞍山市,兴盛南路290号,,22,22,79,10,42,67,,137,101,31,25,9,10,1.3,1
2025-06-02T2300,2195A,107.4212,40.761,巴彦淖尔市,附二中,,29,23,23,10,13,91,,104,94,9,6,5,5,0.3,0.3
2025-06-02T2300,2196A,107.37,40.7372,巴彦淖尔市,市环保大楼,,25,25,25,3,18,77,,100,90,13,9,6,7,0.2,0.1
2025-06-02T2300,1956A,86.1472,41.7538,巴音郭楞蒙古自治州,孔雀公园,,34,29,33,10,10,107,,114,113,14,8,8,8,0.3,0.2
2025-06-02T2300,1957A,86.1972,41.7166,巴音郭楞蒙古自治州,棉纺厂,,40,40,40,10,10,88,,112,107,25,14,4,6,0.3,0.2
2025-06-02T2300,1958A,86.2357,41.7173,巴音郭楞蒙古自治州,经济开发区,,33,33,27,3,5,104,,115,113,10,5,21,10,0.4,0.3
2025-06-02T2300,2914A,106.7677,31.8794,巴中市,苏山坪,,28,25,11,19,9,59,,80,76,18,9,4,3,0.6,0.5
2025-06-02T2300,3181A,106.7768,31.8526,巴中市,市五中,,35,29,20,24,13,26,,87,67,18,12,7,7,0.6,0.6
2025-06-02T2300,3183A,106.7418,31.8654,巴中市,圣泉水务公司,,28,28,15,14,8,8,,82,58,39,15,4,4,0.7,0.6
2025-06-02T2300,3616A,106.7616,31.8344,巴中市,市中心医院,,30,30,19,14,10,15,,83,62,30,14,5,5,0.6,0.6
2025-06-02T2300,2235A,122.7911,45.6077,白城市,洮北区环保局,,38,31,24,26,12,73,,96,71,9,14,7,7,0.2,0.3
2025-06-02T2300,2236A,122.8738,45.5725,白城市,市环保局,,24,14,18,10,15,74,,90,67,6,10,5,5,0.4,0.4
2025-06-02T2300,2231A,126.4219,41.9171,白山市,喜丰,,39,39,48,8,21,113,,121,119,6,16,5,7,0.7,0.9
2025-06-02T2300,2232A,126.4077,41.9419,白山市,环保局,,37,29,39,3,21,116,,126,125,5,12,4,10,0.6,0.7
2025-06-02T2300,2647A,104.1724,36.5446,白银市,第三小学,,36,36,33,15,15,84,,116,105,12,11,20,43,0.2,0.6
2025-06-02T2300,2648A,104.1465,36.5482,白银市,动力公司,,38,38,30,14,14,70,,112,103,29,12,38,29,0.5,0.6
2025-06-02T2300,2512A,106.6103,23.9011,百色市,市监测站,,28,28,23,10,11,36,,63,56,12,14,3,5,0.6,0.6
2025-06-02T2300,2513A,106.6538,23.8859,百色市,市中心血站,,22,20,29,15,13,44,,66,60,16,16,3,5,0.7,0.8
2025-06-02T2300,3406A,106.6085,23.8798,百色市,祈福高中,颗粒物(PM10),52,54,35,19,13,20,,61,53,26,15,4,4,0.8,0.8
2025-06-02T2300,2270A,117.396,32.939,蚌埠市,工人疗养院,,38,38,21,17,7,83,,95,90,10,5,4,3,0.4,0.4
2025-06-02T2300,2271A,117.3605,32.9427,蚌埠市,百货大楼,,37,37,18,21,8,81,,98,95,11,7,6,6,0.4,0.3
2025-06-02T2300,2273A,117.4185,32.8911,蚌埠市,蚌埠学院,,32,24,10,22,10,68,,95,85,17,5,5,3,0.4,0.3
2025-06-02T2300,2274A,117.3533,32.9673,蚌埠市,淮上区政府,,29,29,14,18,9,87,,102,99,12,6,5,4,0.4,0.3
2025-06-02T2300,2275A,117.3145,32.8977,蚌埠市,高新区,,46,46,14,24,10,66,,92,86,25,12,5,7,0.4,0.4
2025-06-02T2300,3715A,117.3092,32.9314,蚌埠市,蚌埠田家炳中学,,32,32,18,20,9,68,,95,89,12,7,10,5,0.3,0.2
2025-06-02T2300,1585A,109.8756,40.6532,包头市,市环境监测站,,25,16,28,9,6,29,,93,77,50,11,10,7,0.6,0.2
2025-06-02T2300,1587A,109.9991,40.5842,包头市,包头八中,,27,27,30,10,6,53,,98,82,33,8,11,10,0.5,0.4
2025-06-02T2300,1588A,109.8538,40.6821,包头市,青山宾馆,,,33,27,14,6,,,94,,71,10,8,8,0.5,0.3
2025-06-02T2300,1589A,109.8642,40.6288,包头市,惠龙物流,,31,31,31,6,8,60,,98,87,40,9,20,6,1.7,0.3
2025-06-02T2300,1590A,110.0377,40.5546,包头市,东河鸿龙湾,,17,14,26,3,4,53,,91,78,30,16,7,7,0.3,0.2
2025-06-02T2300,3283A,109.9154,40.5685,包头市,滨河大厦,,22,22,24,6,8,63,,96,85,19,7,7,7,0.3,0.4
2025-06-02T2300,3419A,109.9447,40.6261,包头市,包头市委党校,,18,15,23,12,6,48,,95,81,33,6,15,8,0.5,0.1
2025-06-02T2300,3683A,109.8331,40.6576,包头市,昆区政府,,28,28,28,19,7,46,,94,82,47,11,50,8,2.4,0.6
2025-06-02T2300,1930A,107.185,34.3063,宝鸡市,庙沟村,,31,20,27,3,9,97,,100,100,7,8,8,8,0.3,0.6
2025-06-02T2300,1931A,107.0708,34.3017,宝鸡市,竹园沟,,24,24,28,11,11,65,,75,75,10,8,5,5,0.4,0.5
2025-06-02T2300,1932A,107.1906,34.3672,宝鸡市,三陆医院,,31,31,37,12,13,25,,89,78,41,20,7,7,0.5,0.5
2025-06-02T2300,1933A,107.1431,34.3547,宝鸡市,监测站,,42,42,36,14,14,50,,82,77,19,12,6,6,0.2,0.3
2025-06-02T2300,1934A,107.1186,34.3739,宝鸡市,技工学校,,35,35,36,16,19,40,,93,86,24,9,6,6,0.4,0.5
2025-06-02T2300,1935A,107.3906,34.3528,宝鸡市,陈仓区环保局家属楼,,37,37,40,12,20,24,,90,74,41,17,4,6,0.4,0.5
2025-06-02T2300,1936A,107.2058,34.3497,宝鸡市,文理学院,,34,34,33,12,23,38,,89,81,31,15,8,8,0.4,0.5
2025-06-02T2300,1937A,107.2386,34.3622,宝鸡市,三迪小学,,32,32,37,11,18,35,,94,86,40,14,8,8,0.4,0.4
2025-06-02T2300,1051A,115.493,38.8632,保定市,游泳馆,,33,33,96,8,50,88,,128,106,10,12,4,6,0.1,0.3
2025-06-02T2300,1052A,115.5213,38.8959,保定市,华电二区,,29,29,67,18,39,89,,133,106,2,7,3,2,0.1,0.4
2025-06-02T2300,1053A,115.4713,38.9108,保定市,接待中心,,30,30,66,6,46,86,,129,106,12,11,3,3,0.1,0.4
2025-06-02T2300,1054A,115.4612,38.8416,保定市,地表水厂,,39,39,74,3,39,79,,128,104,22,17,2,2,0,0.4
2025-06-02T2300,3581A,115.31981,38.95208,保定市,满城区生态环境分局,,31,17,57,3,34,98,,127,114,5,9,2,2,0.0,0.3
2025-06-02T2300,3582A,115.47694,38.76408,保定市,清苑区第二中学,,33,33,84,11,46,88,,137,107,15,15,3,4,0.3,0.5
2025-06-02T2300,3583A,115.62909,39.02311,保定市,徐水物探局,,36,36,80,3,41,72,,129,97,12,11,3,2,0,0.3
2025-06-02T2300,4004A,115.4202,38.8656,保定市,双鹰农机,,36,36,56,17,38,80,,135,110,21,13,2,3,0.1,0.4
2025-06-02T2300,4034A,115.5150,38.8590,保定市,植保所站,,32,32,65,15,46,92,,131,107,1,7,3,3,0.3,0.5
2025-06-02T2300,2594A,99.1678,25.1081,保山市,市环境监测站,,25,,9,17,14,41,,53,47,10,7,7,7,0.6,0.6
2025-06-02T2300,2595A,99.1711,25.1328,保山市,市环保局,,15,11,11,8,11,46,,58,48,8,5,8,8,0.4,0.4
2025-06-02T2300,1866A,109.2262,21.588,北海市,牛尾岭水库,,15,,23,10,6,32,,90,77,10,5,7,7,0.6,0.4
2025-06-02T2300,1867A,109.1436,21.4086,北海市,海滩公园,,33,33,50,15,7,47,,59,58,7,5,5,4,0.7,0.6
2025-06-02T2300,1868A,109.0981,21.4661,北海市,新市环保局,,18,18,28,12,8,41,,80,71,10,6,4,2,0.6,0.5
2025-06-02T2300,1869A,109.1778,21.5233,北海市,北海工业园,,29,,30,20,10,45,,81,74,12,6,11,8,0.8,0.6
2025-06-02T2300,3400A,109.1911,21.4415,北海市,龙潭自来水厂,,28,28,27,18,11,54,,78,74,9,4,5,4,0.5,0.3
2025-06-02T2300,1001A,116.3621,39.8784,北京市,万寿西宫,,22,6,18,3,13,68,,112,90,18,15,3,3,0.3,0.4
2025-06-02T2300,1002A,116.2202,40.2915,北京市,定陵,,,,,,,,,,,,,,,,
2025-06-02T2300,1003A,116.4174,39.9289,北京市,东四,,20,7,15,3,9,64,,112,90,28,19,2,3,0.2,0.3
2025-06-02T2300,1004A,116.4072,39.8863,北京市,天坛,,16,6,17,3,13,50,,112,84,11,12,2,2,0.2,0.3
2025-06-02T2300,1005A,116.462,39.9365,北京市,农展馆,,17,6,14,3,9,54,,101,80,21,14,4,4,0.2,0.4
2025-06-02T2300,1006A,116.3392,39.9295,北京市,官园,,20,20,17,3,11,64,,101,83,21,16,3,4,0.3,0.3
2025-06-02T2300,1007A,116.2878,39.9611,北京市,海淀万柳,,18,6,18,3,11,55,,95,78,23,18,2,2,0.3,0.4
2025-06-02T2300,1008A,116.6636,40.135,北京市,顺义新城,,17,8,16,3,10,53,,102,85,19,9,5,5,0.3,0.4
2025-06-02T2300,1009A,116.6275,40.3275,北京市,怀柔镇,,23,6,15,3,10,71,,94,83,7,5,2,1,0.3,0.5
2025-06-02T2300,1010A,116.2296,40.217,北京市,昌平镇,,19,6,12,3,9,60,,92,81,15,12,3,4,0,0.1
2025-06-02T2300,1011A,116.3966,39.9821,北京市,奥体中心,,16,6,16,3,10,51,,94,78,26,19,3,3,0.5,0.6
2025-06-02T2300,3281A,115.9718,40.4529,北京市,延庆夏都,,22,6,7,3,4,69,,95,84,15,11,3,3,0.2,0.3
2025-06-02T2300,3418A,116.8336,40.4095,北京市,密云新城,,19,11,30,3,22,60,,96,79,7,9,2,2,0.2,0.4
2025-06-02T2300,3671A,116.088,39.9726,北京市,门头沟三家店,,21,6,19,3,12,66,,104,90,12,7,2,2,0.1,0.2
2025-06-02T2300,3672A,116.1541,39.8204,北京市,丰台云岗,,25,6,28,3,19,79,,108,94,14,16,3,3,0.2,0.4
2025-06-02T2300,3673A,116.6804,39.9081,北京市,通州东关,,18,9,25,3,15,56,,109,87,28,16,1,2,0.4,0.4
2025-06-02T2300,3674A,115.9577,39.7603,北京市,房山燕山,,20,6,24,3,18,61,,104,79,19,10,2,3,0.2,0.4
2025-06-02T2300,3675A,116.4672,39.7733,北京市,大兴旧宫,,18,6,31,3,19,57,,114,88,15,19,2,3,0.5,0.6
2025-06-02T2300,3694A,115.986,40.4563,北京市,延庆石河营,,18,6,6,3,4,57,,91,81,2,6,1,1,0.3,0.3
2025-06-02T2300,3695A,116.6151,40.3053,北京市,怀柔新城,,23,6,14,3,10,73,,98,86,7,5,1,1,0.2,0.4
2025-06-02T2300,3696A,116.2545,39.8768,北京市,丰台小屯,,18,8,20,3,11,55,,99,81,19,15,2,2,0.2,0.3
2025-06-02T2300,3697A,116.84,40.3844,北京市,密云镇,,16,6,32,3,23,51,,96,78,21,13,4,5,0.3,0.4
2025-06-02T2300,4182A,116.1942,39.9158,北京市,八角北路9号,,25,6,20,3,13,77,,103,92,15,15,1,2,0.1,0.4
2025-06-02T2300,4194A,117.0790,40.1518,北京市,洳河巡河路,,23,6,48,3,30,71,,105,85,4,4,2,3,0.3,0.6
2025-06-02T2300,1761A,123.8275,41.3064,本溪市,大峪,,26,26,48,10,23,59,,144,101,10,17,6,7,0.6,0.5
2025-06-02T2300,1762A,123.7567,41.3325,本溪市,溪湖,,36,36,58,13,25,51,,140,95,12,20,6,8,1.1,1.1
2025-06-02T2300,1763A,123.7169,41.3094,本溪市,彩屯,,,34,51,18,29,,,140,110,,10,9,13,,1.2
2025-06-02T2300,1764A,123.7669,41.2864,本溪市,东明,,23,20,49,13,21,72,,147,106,17,19,6,6,0.8,0.8
2025-06-02T2300,1765A,123.7992,41.2664,本溪市,新立屯,,24,16,44,12,23,75,,143,90,17,18,4,6,0.7,0.7
2025-06-02T2300,1766A,123.8142,41.3472,本溪市,威宁,,22,22,64,14,28,50,,143,94,18,22,6,6,0.5,0.6
2025-06-02T2300,2587A,105.2864,27.3125,毕节市,八中,,24,14,9,10,7,75,,84,84,8,4,5,5,0.4,0.4
2025-06-02T2300,2588A,105.31,27.2944,毕节市,师专,,30,13,9,6,5,95,,91,91,6,7,4,3,0.4,0.4
2025-06-02T2300,4263A,105.3688,27.3598,毕节市,工业大道,,20,20,7,8,4,56,,90,86,22,9,6,5,0.5,0.6
2025-06-02T2300,1629A,118.0018,37.3617,滨州市,第二水厂,细颗粒物(PM2.5),52,44,67,36,38,124,,182,162,14,18,10,8,0.6,0.6
2025-06-02T2300,1630A,117.9776,37.393,滨州市,北中新校,"颗粒物(PM10),细颗粒物(PM2.5)",52,53,58,36,36,109,,177,154,20,16,8,11,0.8,0.8
2025-06-02T2300,3514A,117.9378,37.3956,滨州市,中海酒店,细颗粒物(PM2.5),52,44,57,36,39,135,,199,180,14,14,8,13,0.7,0.8
2025-06-02T2300,3515A,117.9378,37.3553,滨州市,开发区一中,,41,41,64,27,33,109,,169,153,20,21,10,11,0.7,0.5
2025-06-02T2300,3516A,118.0917,37.694,滨州市,金海六路,颗粒物(PM10),59,68,62,31,28,70,,192,147,65,20,9,12,0.3,0.2
2025-06-02T2300,4028A,117.9956,37.3753,滨州市,滨州市西街道办事处,,49,36,56,34,36,133,,193,172,13,15,7,10,0.6,0.7
2025-06-02T2300,2311A,115.8072,33.8399,亳州市,污水处理厂,细颗粒物(PM2.5),63,52,31,45,29,126,,151,142,16,6,4,3,0.6,0.4
2025-06-02T2300,2312A,115.7789,33.8518,亳州市,三国揽胜宫,细颗粒物(PM2.5),63,48,32,45,26,128,,154,147,10,4,7,6,0.5,0.4
2025-06-02T2300,3332A,115.7633,33.8034,亳州市,亳州学院,细颗粒物(PM2.5),63,58,30,45,28,120,,152,140,12,6,4,3,0.5,0.4
2025-06-02T2300,2693A,82.0485,44.8556,博尔塔拉蒙古自治州,市党校,,46,46,31,18,16,84,,102,99,6,9,2,3,0.3,0.1
2025-06-02T2300,2694A,82.0806,44.8969,博尔塔拉蒙古自治州,市环保局,,47,47,40,12,12,78,,104,100,7,10,1,3,0.5,0.4
2025-06-02T2300,1071A,116.8842,38.2991,沧州市,沧县城建局,,37,37,55,14,34,79,,180,119,18,17,4,4,0.1,0.3
2025-06-02T2300,1072A,116.8584,38.3254,沧州市,电视转播站,,39,39,62,7,34,70,,162,113,20,15,3,3,0.2,0.4
2025-06-02T2300,1073A,116.8709,38.3228,沧州市,市环保局,颗粒物(PM10),51,52,78,21,38,76,,167,117,17,16,1,3,0.2,0.4
2025-06-02T2300,3324A,116.8136,38.3004,沧州市,河北水利电力学院,,27,24,60,12,32,86,,187,129,23,16,5,6,0.1,0.3
2025-06-02T2300,2622A,97.1806,31.1273,昌都市,昌都监测站,,33,9,11,8,6,105,,128,124,6,4,4,5,0.3,0.3
2025-06-02T2300,3719A,97.1714,31.1406,昌都市,昌都会议中心,,32,11,11,8,7,100,,139,135,7,4,3,4,0.3,0.2
2025-06-02T2300,2690A,88.1236,43.8886,昌吉回族自治州,天山天池,,21,20,15,3,4,67,,111,101,6,6,6,7,0.5,0.5
2025-06-02T2300,2692A,87.2717,44.0297,昌吉回族自治州,新区政务中心,,33,33,22,8,11,75,,126,116,23,10,6,8,0.3,0.5
2025-06-02T2300,3613A,87.3095,44.0142,昌吉回族自治州,亚心广场,,36,36,40,17,11,65,,122,111,40,24,8,10,0.4,0.5
2025-06-02T2300,1119A,125.3325,43.9166,长春市,食品厂,,24,16,53,9,29,76,,123,99,22,42,4,6,0.4,0.7
2025-06-02T2300,1120A,125.2863,43.9027,长春市,客车厂,,25,16,47,9,31,78,,134,105,18,33,3,5,0.2,0.4
2025-06-02T2300,1121A,125.2841,43.8463,长春市,邮电学院,,25,11,39,3,21,77,,132,104,19,26,5,7,0.2,0.4
2025-06-02T2300,1122A,125.3716,43.8772,长春市,劳动公园,,24,15,45,3,28,76,,125,103,10,25,6,7,0.4,0.6
2025-06-02T2300,1123A,125.3297,43.8805,长春市,园林处,,25,6,44,3,29,77,,133,106,16,28,6,7,0.4,0.6
2025-06-02T2300,1124A,125.4605,43.79,长春市,净月潭,,20,13,34,3,20,64,,109,88,11,18,6,7,0.3,0.4
2025-06-02T2300,1125A,125.7194,43.515,长春市,甩湾子,,25,18,36,8,17,77,,126,94,12,33,2,3,0.4,0.5
2025-06-02T2300,1126A,125.3863,43.8447,长春市,经开区环卫处,,23,12,54,3,22,73,,122,100,14,34,5,7,0.3,0.5
2025-06-02T2300,1127A,125.245,43.7783,长春市,高新区管委会,,24,9,44,3,22,74,,133,99,17,32,5,8,0.2,0.4
2025-06-02T2300,1128A,125.1761,43.8325,长春市,岱山公园,,19,16,45,3,35,59,,133,94,30,34,4,6,0.2,0.4
2025-06-02T2300,1335A,113.0833,28.2325,长沙市,经开区环保局,,45,40,25,31,16,86,,105,100,20,10,5,3,0.4,0.4
2025-06-02T2300,1336A,112.8872,28.2189,长沙市,高开区环保局,,42,42,28,24,16,91,,108,103,14,6,5,5,0.6,0.6
2025-06-02T2300,1337A,113.0792,28.2053,长沙市,马坡岭,,40,39,25,28,18,81,,98,94,15,9,4,4,0.5,0.5
2025-06-02T2300,1338A,112.9394,28.19,长沙市,湖南师范大学,,48,39,27,33,19,88,,110,104,15,7,1,3,0.4,0.4
2025-06-02T2300,1339A,113.0178,28.1322,长沙市,雨花区环保局,,40,37,24,28,15,99,,111,108,12,5,6,4,0.7,0.7
2025-06-02T2300,1340A,112.9792,28.2597,长沙市,伍家岭,,41,41,28,25,13,84,,102,96,14,8,2,2,0.5,0.5
2025-06-02T2300,1341A,113.0014,28.1944,长沙市,火车新站,,37,37,26,19,15,95,,102,100,11,6,7,6,0.4,0.4
2025-06-02T2300,1342A,112.9844,28.1178,长沙市,天心区环保局,,43,43,26,30,17,98,,111,107,14,7,3,2,0.7,0.7
2025-06-02T2300,1343A,112.8908,28.1308,长沙市,湖南中医药大学,,40,40,28,27,23,62,,102,93,20,7,3,3,0.7,0.6
2025-06-02T2300,1344A,112.9581,28.3611,长沙市,沙坪,,29,29,20,16,15,87,,104,95,7,5,4,3,0.7,0.7
2025-06-02T2300,1727A,113.1147,36.1547,长治市,清华站,,31,28,46,7,23,98,,142,116,18,16,7,7,0.4,0.6
2025-06-02T2300,1730A,113.0886,36.2125,长治市,审计局,,33,26,40,9,24,103,,145,117,17,18,10,10,0.4,0.6
2025-06-02T2300,1731A,113.0844,36.1856,长治市,长治八中,,32,31,50,11,31,102,,144,117,20,17,11,12,0.3,0.5
2025-06-02T2300,2845A,113.1569,36.1911,长治市,德盛苑,,41,41,47,7,23,90,,143,111,18,13,16,10,0.7,0.7
2025-06-02T2300,3568A,113.06,36.0464,长治市,向阳小学,颗粒物(PM10),51,52,72,17,33,106,,143,122,20,16,10,7,0.5,0.7
2025-06-02T2300,3569A,112.8792,36.3144,长治市,屯留一中,,33,24,30,10,23,105,,133,114,16,15,25,12,0.2,0.1
2025-06-02T2300,4189A,113.1131,36.19948,长治市,英华南巷50号,,39,39,50,9,29,99,,146,116,14,12,11,10,0.7,0.9
2025-06-02T2300,4190A,113.2367,36.3344,长治市,学府街1号,,43,43,67,3,31,112,,157,126,10,21,2,8,0.3,0.8
2025-06-02T2300,1854A,111.6975,28.9703,常德市,市二中,细颗粒物(PM2.5),75,,33,55,28,79,,138,125,11,9,6,6,0.6,0.6
2025-06-02T2300,1857A,111.7158,29.1456,常德市,白鹤山,,,,,,,,,,,,,,,,
2025-06-02T2300,3138A,111.7153,29.0289,常德市,武陵区永安,,46,43,36,32,27,84,,143,129,16,9,3,2,0.5,0.4
2025-06-02T2300,3139A,111.6892,28.9881,常德市,鼎城区玉霞,,40,40,34,26,25,69,,149,122,16,12,4,4,0.6,0.6
2025-06-02T2300,3140A,111.6625,29.0531,常德市,武陵区长庚,,44,44,34,23,21,85,,152,136,14,8,6,6,0.7,0.6
2025-06-02T2300,1196A,119.9633,31.762,常州市,市监测站,,27,16,15,10,8,84,,105,92,18,15,10,8,0.4,0.4
2025-06-02T2300,1200A,119.9468,31.7069,常州市,武进监测站,,27,27,22,10,7,80,,103,89,20,16,8,5,0.7,0.8
2025-06-02T2300,1201A,119.9255,31.9087,常州市,安家,,29,18,21,8,6,90,,105,90,12,11,9,9,0.1,0.2
2025-06-02T2300,3002A,119.9805,31.8174,常州市,行政中心,,27,17,18,7,6,84,,108,90,14,12,9,10,0.4,0.4
2025-06-02T2300,3003A,120.0522,31.7748,常州市,经开区,,24,18,14,8,5,76,,108,92,21,16,4,3,0.5,0.5
2025-06-02T2300,3010A,119.9025,31.7964,常州市,钟楼,,24,24,15,7,5,65,,94,80,13,10,7,7,0.5,0.6
2025-06-02T2300,3429A,119.8598,31.7066,常州市,武进经发区,,26,23,14,13,7,81,,103,92,10,9,3,4,0.7,0.8
2025-06-02T2300,3430A,119.5826,31.7245,常州市,金坛城区,,27,27,19,10,6,80,,102,92,13,12,6,6,0.5,0.5
2025-06-02T2300,2220A,120.4318,41.5881,朝阳市,西梁,,17,17,38,3,22,51,,132,79,31,18,7,10,0.4,0.7
2025-06-02T2300,2221A,120.4521,41.5646,朝阳市,河畔小区,,22,16,35,3,18,68,,135,80,18,15,8,9,0.3,0.5
2025-06-02T2300,2222A,120.4176,41.5648,朝阳市,八里堡,,29,29,57,8,25,66,,137,81,17,17,5,7,0.3,0.5
2025-06-02T2300,2223A,120.3806,41.5969,朝阳市,农业园区,,43,43,47,6,31,57,,136,81,25,17,5,5,0.2,0.5
2025-06-02T2300,1705A,116.6367,23.6719,潮州市,西园路,,25,24,29,17,22,26,,68,43,15,11,6,7,0.5,0.5
2025-06-02T2300,3026A,116.6183,23.6608,潮州市,市政府,,37,37,40,15,19,24,,72,41,19,14,4,5,0.8,0.9
2025-06-02T2300,4036A,116.6461,23.6761,潮州市,金山,,38,26,36,26,27,30,,76,50,13,11,6,7,0.8,0.8
2025-06-02T2300,2472A,113.0073,25.9061,郴州市,马头岭,,31,31,16,10,6,58,,66,59,4,5,6,7,0.3,0.3
2025-06-02T2300,2473A,113.0116,25.8226,郴州市,市职中,,38,29,16,26,11,56,,73,67,8,8,3,2,0.3,0.4
2025-06-02T2300,2475A,113.0383,25.8071,郴州市,市审计局,,30,24,13,21,11,61,,77,73,6,5,3,3,0.4,0.4
2025-06-02T2300,2476A,113.0348,25.7759,郴州市,市环保局,,45,32,15,31,12,66,,75,71,9,7,4,2,0.3,0.3
2025-06-02T2300,4252A,113.0138,25.8011,郴州市,好美居路49号,,35,34,13,24,9,62,,76,73,10,8,9,9,0.4,0.5
2025-06-02T2300,1431A,103.9728,30.7236,成都市,金泉两河,,39,39,27,3,8,14,,115,86,58,21,2,2,0.8,0.4
2025-06-02T2300,1432A,104.176,30.6872,成都市,十里店,细颗粒物(PM2.5),62,67,27,44,14,36,,119,106,48,27,4,4,0.9,0.7
2025-06-02T2300,1433A,104.079,30.5706,成都市,三瓦窑,颗粒物(PM10),54,58,32,35,14,7,,106,81,86,31,5,5,0.7,0.6
2025-06-02T2300,1434A,104.1114,30.63,成都市,沙河铺,,39,39,30,20,14,17,,87,70,46,24,4,4,1.2,0.6
2025-06-02T2300,1437A,104.0786,30.6531,成都市,君平街,,42,42,35,22,17,31,,129,106,49,30,5,8,0.8,0.7
2025-06-02T2300,1438A,103.613,31.0283,成都市,灵岩寺,,,,,,,,,,,,,,,,
2025-06-02T2300,2880A,104.0239,30.65639,成都市,大石西路,颗粒物(PM10),53,56,37,32,19,3,,118,88,83,31,2,4,1.2,0.7
2025-06-02T2300,3136A,104.2725,30.5589,成都市,龙泉驿区区政府,,34,34,22,12,11,54,,101,94,22,16,4,5,0.7,0.6
2025-06-02T2300,3357A,104.0106,30.6931,成都市,金博路,,42,42,23,19,7,6,,115,88,81,26,8,8,1.9,0.6
2025-06-02T2300,3359A,104.0578,30.5225,成都市,华阳,,39,36,25,27,15,37,,96,82,36,22,7,7,1.0,0.7
2025-06-02T2300,3488A,104.3853,30.7453,成都市,青白江技师分院,颗粒物(PM10),53,55,36,28,18,12,,117,96,90,34,6,5,1.1,0.7
2025-06-02T2300,3489A,104.0789,30.4072,成都市,科学城,颗粒物(PM10),51,51,26,28,17,43,,104,90,34,21,4,4,0.5,0.4
2025-06-02T2300,4011A,103.8506,30.6947,成都市,光华大道三段,颗粒物(PM10),52,53,31,22,13,10,,110,82,61,19,4,4,1.0,0.7
2025-06-02T2300,4224A,104.2433,30.5353,成都市,鲸龙路1057号,颗粒物(PM10),51,52,26,26,15,15,,103,88,59,19,7,7,0.8,0.6
2025-06-02T2300,1062A,117.9531,40.9081,承德市,铁路,,32,32,39,6,21,50,,106,80,18,14,4,6,0.2,0.4
2025-06-02T2300,1063A,117.9392,40.9763,承德市,中国银行,,21,21,37,3,20,39,,103,74,17,8,1,4,0.1,0.4
2025-06-02T2300,1064A,117.9503,40.928,承德市,开发区,,31,31,40,8,29,62,,108,83,6,9,3,5,0.1,0.4
2025-06-02T2300,1065A,117.8051,40.9655,承德市,文化中心,,47,47,39,3,18,28,,104,76,31,12,3,6,0.2,0.4
2025-06-02T2300,1066A,117.9268,41.0026,承德市,离宫,,45,33,37,31,30,41,,103,74,12,5,3,5,0.2,0.4
2025-06-02T2300,2314A,117.47,30.6618,池州市,池州学院,,20,16,6,14,6,64,,93,88,9,6,4,4,0.5,0.5
2025-06-02T2300,3237A,117.4918,30.6617,池州市,展览馆,,,16,7,12,5,,,92,,9,6,4,4,0.5,0.5
2025-06-02T2300,3333A,117.5627,30.695,池州市,第八中学,,19,19,7,13,5,57,,98,85,8,8,4,4,0.4,0.4
2025-06-02T2300,3334A,117.5038,30.6243,池州市,第十二中学,,21,21,8,12,5,45,,97,84,13,7,2,2,0.6,0.6
2025-06-02T2300,1744A,118.9233,42.2816,赤峰市,松山一中,,26,13,43,3,16,83,,143,92,12,12,4,5,0.3,0.5
2025-06-02T2300,1745A,118.9576,42.2728,赤峰市,哈达街,,23,8,31,6,19,72,,117,77,12,14,10,10,0.4,0.5
2025-06-02T2300,1746A,118.8788,42.2554,赤峰市,天义路,,,7,31,6,19,,,128,,10,9,7,7,0.3,0.4
2025-06-02T2300,3058A,119.2658,42.0353,赤峰市,银河街,,24,19,37,12,26,75,,125,83,6,9,5,9,0.4,0.7
2025-06-02T2300,3286A,118.9359,42.3147,赤峰市,桥北物流园区,,21,9,33,6,17,65,,111,75,15,13,7,8,0.4,0.4
2025-06-02T2300,2521A,107.3476,22.4136,崇左市,市环保局江州分局,,27,27,45,12,19,56,,98,66,8,16,6,6,0.4,0.4
2025-06-02T2300,4256A,107.3750,22.3736,崇左市,石景林东路7号,,19,14,33,13,19,56,,109,69,8,15,4,3,0.5,0.5
2025-06-02T2300,2298A,118.3093,32.3153,滁州市,老年大学,,26,18,15,13,11,81,,103,92,6,6,5,5,0.2,0.2
2025-06-02T2300,2299A,118.3244,32.2786,滁州市,人大宾馆,,25,,7,12,8,79,,100,93,3,4,3,3,0.2,0.2
2025-06-02T2300,3207A,118.3118,32.3038,滁州市,市政府原办公楼,,27,15,9,12,11,86,,103,95,4,3,3,3,0.2,0.2
2025-06-02T2300,3331A,118.3267,32.2634,滁州市,图书馆,,24,,9,10,8,74,,99,90,5,4,8,8,0.3,0.3
2025-06-02T2300,2605A,101.5482,25.0441,楚雄彝族自治州,州环境监测站,,12,6,6,3,3,37,,57,51,5,4,7,7,0.3,0.3
2025-06-02T2300,2606A,101.538,25.0492,楚雄彝族自治州,市经济开发区,,21,21,10,9,5,34,,53,47,6,5,6,6,0.5,0.4
2025-06-02T2300,2548A,107.5277,31.2827,达州市,达州职业技术学院,,36,36,29,13,6,6,,84,56,39,18,5,6,0.2,0.3
2025-06-02T2300,2549A,107.5086,31.2186,达州市,市环境监测站,,32,32,28,9,6,26,,93,79,35,23,5,6,0.5,0.4
2025-06-02T2300,2550A,107.4988,31.2132,达州市,凤凰小区,,36,36,24,19,11,22,,95,82,45,20,8,7,0.6,0.5
2025-06-02T2300,2551A,107.5082,31.1986,达州市,达县机关宾馆,,27,27,26,3,7,2,,87,66,45,26,5,6,0.6,0.6
2025-06-02T2300,2552A,107.4644,31.2124,达州市,市政中心,颗粒物(PM10),57,64,33,17,8,6,,91,74,57,20,3,3,0.8,0.5
2025-06-02T2300,2614A,100.1542,25.7054,大理白族自治州,大理市环境监测站,,15,,6,8,10,48,,64,57,7,4,5,6,0.3,0.3
2025-06-02T2300,2615A,100.2171,25.5811,大理白族自治州,大理古城,,18,18,10,10,7,40,,68,55,8,7,8,8,0.7,0.6
2025-06-02T2300,1109A,121.612,38.9741,大连市,甘井子,,46,46,52,28,32,107,,147,137,19,23,6,6,0.3,0.3
2025-06-02T2300,1110A,121.565,38.9511,大连市,周水子,,40,40,49,22,29,117,,150,141,12,15,8,10,0.3,0.4
2025-06-02T2300,1111A,121.5637,38.8845,大连市,星海三站,,49,49,61,26,42,111,,150,143,13,12,3,4,0.1,0.3
2025-06-02T2300,1112A,121.6302,38.9117,大连市,青泥洼桥,,37,31,51,19,35,116,,156,147,15,17,7,8,0.2,0.3
2025-06-02T2300,1113A,121.6251,38.8638,大连市,傅家庄,,45,45,58,22,36,127,,164,158,15,18,7,8,0.1,0.2
2025-06-02T2300,1114A,121.5213,38.8661,大连市,七贤岭,,41,41,44,23,31,119,,165,155,12,11,4,4,0.3,0.3
2025-06-02T2300,1115A,121.2529,38.8061,大连市,旅顺,,34,26,48,17,31,107,,146,138,15,15,2,3,0.2,0.3
2025-06-02T2300,1116A,121.7485,39.1311,大连市,金州,,46,46,46,30,31,122,,160,153,20,23,6,6,0.2,0.3
2025-06-02T2300,1117A,121.7811,39.0496,大连市,开发区,,42,42,54,21,38,111,,153,144,21,24,3,5,0.3,0.4
2025-06-02T2300,1118A,121.9762,39.0631,大连市,双D港,,38,29,36,20,32,120,,144,137,12,19,9,10,0.3,0.4
2025-06-02T2300,1789A,124.81117,46.03138,大庆市,大同区,,26,,25,18,19,52,,68,59,12,19,4,5,0.6,0.5
2025-06-02T2300,1790A,125.129,46.533,大庆市,龙凤区,,26,20,32,18,18,79,,79,79,19,22,6,6,0.7,0.5
2025-06-02T2300,1791A,124.902,46.408,大庆市,红岗区,,30,30,27,19,17,69,,77,75,10,15,9,16,0.4,0.3
2025-06-02T2300,1792A,125.153,46.586,大庆市,萨尔图区,,22,22,32,12,16,68,,67,67,14,23,8,8,0.6,0.5
2025-06-02T2300,1793A,124.9042,46.6215,大庆市,让胡路区,,38,,29,26,29,58,,76,67,15,23,7,9,0.4,0.4
2025-06-02T2300,3481A,125.141,46.634,大庆市,萨区政府监测点,,21,20,28,9,9,67,,83,82,15,16,6,6,0.5,0.4
2025-06-02T2300,1721A,113.3819,40.1097,大同市,果树场,,,,,,,,,,,,,,,,
2025-06-02T2300,1723A,113.2994,40.0758,大同市,云冈宾馆,,24,21,12,13,8,75,,106,92,13,10,6,5,0.5,0.2
2025-06-02T2300,1724A,113.3444,40.0917,大同市,大同大学,,23,14,15,10,8,72,,105,91,13,12,7,8,0.3,0.4
2025-06-02T2300,1725A,113.2661,40.1269,大同市,安家小村,,25,17,17,3,5,78,,104,91,6,8,3,3,0.4,0.6
2025-06-02T2300,1726A,113.2711,40.0844,大同市,教育学院,,23,14,21,6,8,72,,101,88,14,12,6,6,0.3,0.4
2025-06-02T2300,3282A,113.3397,40.0597,大同市,大同市卫生学校,,23,23,17,9,7,70,,101,88,15,9,11,8,0.6,0.5
2025-06-02T2300,3565A,113.1367,40.1122,大同市,云冈站,,23,23,23,8,10,56,,100,82,17,11,8,7,0.1,0.3
2025-06-02T2300,3566A,113.1186,40.2556,大同市,图书馆,,22,22,18,7,6,43,,100,80,13,6,6,6,0.7,0.6
2025-06-02T2300,3567A,113.5931,40.0461,大同市,区一中,,18,10,16,6,5,57,,105,89,13,11,10,11,0.3,0.4
2025-06-02T2300,4199A,113.2798,40.0997,大同市,魏都大道141号,,20,15,21,10,8,62,,104,87,18,10,7,6,0.6,0.6
2025-06-02T2300,2269A,124.1069,50.4097,大兴安岭地区,科技局,,32,32,30,15,13,45,,70,63,6,5,8,8,0.2,0.2
2025-06-02T2300,3663A,124.1164,50.4278,大兴安岭地区,红旗社区,,18,12,17,6,6,57,,70,66,2,3,5,6,0.3,0.3
2025-06-02T2300,1600A,124.3303,40.0625,丹东市,江湾东路,,44,44,47,30,31,116,,136,126,5,8,10,11,0.6,0.7
2025-06-02T2300,1601A,124.4256,40.1503,丹东市,临江后街,颗粒物(PM10),73,96,105,41,49,115,,143,131,11,18,6,9,0.6,0.8
2025-06-02T2300,1602A,124.3933,40.1461,丹东市,元宝山,颗粒物(PM10),53,56,64,32,31,111,,136,130,9,14,8,9,0.5,0.6
2025-06-02T2300,1603A,124.3633,40.1092,丹东市,民主桥,,46,46,49,23,24,121,,131,123,4,11,8,10,0.7,0.8
2025-06-02T2300,3541A,109.5726,19.5167,儋州市,第一中学子站,,16,16,14,6,7,44,,55,52,6,5,7,6,0.3,0.4
2025-06-02T2300,3542A,109.5567,19.5187,儋州市,东坡学校子站,,14,14,16,7,7,43,,56,53,5,4,7,5,0.5,0.5
2025-06-02T2300,2616A,98.5842,24.428,德宏傣族景颇族自治州,德宏州监测站,,18,12,15,3,8,55,,54,54,6,9,6,7,0.6,0.7
2025-06-02T2300,3677A,98.5881,24.4368,德宏傣族景颇族自治州,芒市人民政府综合楼,,23,23,22,3,5,54,,48,48,4,6,6,7,0.4,0.4
2025-06-02T2300,1901A,104.4239,31.1208,德阳市,东山公园,颗粒物(PM10),52,53,39,28,24,64,,109,108,24,24,5,6,0.9,0.9
2025-06-02T2300,1902A,104.3826,31.1317,德阳市,西小区,颗粒物(PM10),61,72,42,36,23,23,,107,89,80,35,4,5,1.2,0.8
2025-06-02T2300,1904A,104.3553,31.1091,德阳市,耐火材料厂,颗粒物(PM10),62,74,47,38,23,11,,108,88,81,32,6,7,0.8,0.6
2025-06-02T2300,3639A,104.4019,31.1244,德阳市,市教育局,颗粒物(PM10),54,58,42,31,23,36,,106,91,54,31,6,7,1.1,1
2025-06-02T2300,1622A,116.3032,37.4674,德州市,儿童乐园,颗粒物(PM10),57,63,81,9,41,102,,194,158,17,15,7,10,0.3,0.6
2025-06-02T2300,1624A,116.2991,37.4451,德州市,监理站,颗粒物(PM10),57,63,72,3,38,111,,190,160,11,11,6,8,0.2,0.4
2025-06-02T2300,3066A,116.2721,37.4379,德州市,九衢泉纯净水厂,颗粒物(PM10),58,66,72,9,36,102,,179,152,12,15,4,6,0.3,0.6
2025-06-02T2300,3371A,116.3728,37.4403,德州市,开发区人民医院,颗粒物(PM10),62,73,77,9,34,102,,185,149,18,18,5,9,0.6,0.8
2025-06-02T2300,3372A,116.3572,37.4094,德州市,太阳城中学,颗粒物(PM10),54,58,76,9,35,112,,193,160,16,19,2,7,0.5,0.5
2025-06-02T2300,3511A,116.5652,37.3319,德州市,陵城艺术中心,颗粒物(PM10),60,70,75,12,34,101,,192,157,18,13,9,8,0.3,0.5
2025-06-02T2300,2621A,99.7056,27.8317,迪庆藏族自治州,迪庆州站,,27,19,17,11,10,84,,97,94,5,5,6,6,0.3,0.3
2025-06-02T2300,3180A,99.7136,27.8094,迪庆藏族自治州,质量技术监督局,,25,22,17,7,8,79,,92,88,8,9,5,4,0.5,0.5
2025-06-02T2300,4257A,104.6092,35.5962,定西市,将台街,,,,47,24,19,84,,131,117,25,18,4,5,0.3,0.4
2025-06-02T2300,4309A,104.6159,35.5701,定西市,正龙路62号,,41,41,43,27,20,102,,128,117,7,12,7,7,0.2,0.2
2025-06-02T2300,1389A,113.7547,23.0494,东莞市,莞城梨川,,13,13,28,6,12,41,,87,71,20,10,8,8,0.4,0.3
2025-06-02T2300,1390A,113.7944,23.0128,东莞市,东城石井,,,38,25,12,11,,,76,66,22,13,3,2,0.5,0.5
2025-06-02T2300,1391A,113.7383,22.9658,东莞市,南城西平,,28,28,18,13,11,46,,75,62,17,11,4,4,0.5,0.4
2025-06-02T2300,3319A,113.7338,23.0381,东莞市,万江金泰,,38,38,26,20,13,36,,72,61,16,10,2,2,0.5,0.5
2025-06-02T2300,3626A,113.7533,23.0202,东莞市,南城元岭,,31,31,22,13,10,38,,80,65,24,12,4,4,0.7,0.6
2025-06-02T2300,3627A,113.7875,23.0457,东莞市,东城主山,,39,39,32,15,11,42,,85,68,18,10,6,5,0.6,0.6
2025-06-02T2300,1666A,118.6614,37.4309,东营市,市环保局,,39,39,47,19,28,106,,169,135,19,19,7,8,0.5,0.5
2025-06-02T2300,3036A,118.6904,37.4338,东营市,开发区管委会,,38,30,51,19,26,120,,188,161,19,17,6,7,0.5,0.6
2025-06-02T2300,3365A,118.5719,37.565,东营市,垦利区民丰路,,46,46,54,31,30,95,,198,145,30,20,8,10,0.9,0.9
2025-06-02T2300,3498A,118.5055,37.8612,东营市,河口城区,,,56,57,32,28,129,,212,182,,18,7,10,0.7,1
2025-06-02T2300,3646A,118.4978,37.4623,东营市,胜利站,,36,36,58,22,29,109,,191,157,21,19,9,10,0.8,0.8
2025-06-02T2300,3734A,118.35,37.26,东营市,理想之城,,44,44,54,29,31,102,,202,149,32,29,4,6,0.5,0.6
2025-06-02T2300,1591A,110.0023,39.8129,鄂尔多斯市,综合楼,,21,17,32,3,9,67,,103,90,24,12,7,8,0.3,0.3
2025-06-02T2300,1592A,109.9486,39.8261,鄂尔多斯市,巴音孟克林场办事处,,25,22,45,7,11,77,,112,98,22,15,6,7,0.2,0.3
2025-06-02T2300,1593A,109.7736,39.5986,鄂尔多斯市,康泽苑,,21,17,30,3,7,66,,116,103,14,8,7,7,0.3,0.2
2025-06-02T2300,1594A,109.8119,39.5989,鄂尔多斯市,华泰汽车城,,22,22,32,7,10,52,,112,97,27,14,5,6,0.4,0.4
2025-06-02T2300,1595A,109.9734,39.7884,鄂尔多斯市,奥林花园,,36,36,39,7,9,18,,101,83,62,15,5,6,0.3,0.4
2025-06-02T2300,2436A,114.8938,30.3994,鄂州市,市政府,,39,35,14,27,8,84,,107,98,20,12,7,6,0.9,0.4
2025-06-02T2300,2437A,114.8989,30.3714,鄂州市,赵家坝,,28,26,11,19,5,81,,114,108,19,6,6,5,1.2,0.7
2025-06-02T2300,3654A,114.8094,30.4089,鄂州市,精准医疗中心,,36,36,14,17,5,103,,112,107,2,2,3,4,0.8,0.8
2025-06-02T2300,2454A,109.4978,30.2981,恩施土家族苗族自治州,湖北民院,,37,37,19,10,7,15,,74,56,18,10,5,5,0.5,0.4
2025-06-02T2300,2455A,109.4707,30.2798,恩施土家族苗族自治州,州电力总公司,,27,27,16,13,6,6,,65,51,17,10,6,6,0.5,0.4
2025-06-02T2300,3549A,109.5061,30.3772,恩施土家族苗族自治州,龙凤新区,,24,24,13,13,4,9,,48,32,9,6,6,6,0.4,0.3
2025-06-02T2300,2499A,108.3411,21.6158,防城港市,沙万,,,,47,25,17,42,,60,58,9,17,3,3,0.3,0.4
2025-06-02T2300,2500A,108.3514,21.7731,防城港市,防城档案局,,14,14,38,8,20,36,,124,84,12,11,3,4,0.6,0.5
2025-06-02T2300,2501A,108.3506,21.6414,防城港市,大海花园,,,,44,8,14,48,,89,74,8,16,3,7,0.6,0.6
2025-06-02T2300,1371A,113.1294,23.0067,佛山市,湾梁,,19,19,30,11,13,42,,97,69,15,18,7,7,0.6,0.6
2025-06-02T2300,1372A,113.1083,23.0478,佛山市,华材职中,,23,17,23,16,13,40,,114,84,16,15,5,5,0.4,0.4
2025-06-02T2300,1373A,113.144,23.0453,佛山市,南海气象局,,25,,34,17,16,28,,86,62,20,20,2,2,0.8,0.7
2025-06-02T2300,1374A,113.2881,22.8094,佛山市,顺德苏岗,,32,32,33,7,10,28,,92,50,14,16,5,6,0.6,0.6
2025-06-02T2300,1376A,112.8383,22.8678,佛山市,高明孔堂,,35,35,23,12,11,32,,72,58,11,7,5,5,0.7,0.6
2025-06-02T2300,1377A,112.8836,23.1588,佛山市,三水监测站,颗粒物(PM10),56,61,36,33,20,46,,107,87,28,28,3,3,0.7,0.5
2025-06-02T2300,1378A,112.867,23.185,佛山市,三水云东海,细颗粒物(PM2.5),65,64,47,47,16,42,,99,78,20,22,1,3,0.6,0.5
2025-06-02T2300,3625A,113.2544,22.7642,佛山市,容桂街道办,,27,27,25,17,15,23,,71,45,29,21,5,5,0.7,0.7
2025-06-02T2300,1280A,119.3903,26.0543,福州市,鼓山,,,,30,,28,,,104,,,2,,1,,0.2
2025-06-02T2300,1282A,119.2681,26.0504,福州市,师大,,19,19,43,3,21,40,,117,63,15,16,4,4,0.3,0.4
2025-06-02T2300,1283A,119.2984,26.1028,福州市,五四北路,,38,27,46,26,30,26,,125,63,30,21,3,4,0.5,0.5
2025-06-02T2300,1284A,119.2648,26.0768,福州市,杨桥西路,,,,42,22,27,30,,122,60,23,17,3,3,0.4,0.4
2025-06-02T2300,1285A,119.317,26.0746,福州市,紫阳,,42,36,47,29,31,33,,108,61,24,25,5,5,0.4,0.5
2025-06-02T2300,3048A,119.5799,26.0936,福州市,九龙,,30,30,36,19,25,67,,134,96,11,11,4,4,0.2,0.3
2025-06-02T2300,3526A,119.5189,25.9664,福州市,吴航,,32,32,34,15,22,40,,128,77,11,9,4,5,0.3,0.3
2025-06-02T2300,1755A,123.7977,41.8491,抚顺市,望花区,,26,23,71,13,32,81,,157,102,21,36,11,8,0.6,0.7
2025-06-02T2300,1756A,123.9161,41.8822,抚顺市,顺城区,,27,20,56,7,24,84,,148,97,13,36,8,10,0.5,0.7
2025-06-02T2300,1757A,124.0436,41.8611,抚顺市,东洲区,,25,10,50,3,21,78,,149,101,13,23,8,8,0.5,0.5
2025-06-02T2300,1758A,123.9247,41.8642,抚顺市,新抚区,,22,22,57,6,26,38,,150,85,13,32,6,8,0.6,0.7
2025-06-02T2300,1759A,124.0972,41.8961,抚顺市,大伙房水库,,,11,36,6,28,,,155,,8,22,7,8,0.3,0.5
2025-06-02T2300,1760A,123.7086,41.8391,抚顺市,沈抚新城,,23,11,57,3,25,73,,150,95,18,39,5,8,0.5,0.9
2025-06-02T2300,2376A,116.2127,28.0814,抚州市,桐源党溪,,19,15,19,11,10,58,,75,64,3,3,3,3,0.9,1
2025-06-02T2300,2377A,116.3544,27.9831,抚州市,市站,,27,20,17,10,7,84,,83,83,2,3,1,1,0.3,0.5
2025-06-02T2300,2378A,116.3565,27.963,抚州市,血防站,,27,24,21,14,9,84,,83,83,2,3,1,2,0.6,0.6
2025-06-02T2300,2379A,116.3564,28.0007,抚州市,采茶剧团,,25,20,15,8,7,79,,79,79,2,2,2,2,0.0,0.2
2025-06-02T2300,2380A,116.385,27.9647,抚州市,医学分院,,25,22,18,8,7,77,,78,78,2,3,6,4,1.0,1
2025-06-02T2300,2207A,121.6094,41.998,阜新市,工业园区,,35,35,53,14,27,9,,158,66,61,34,9,14,0.5,0.5
2025-06-02T2300,2208A,121.6697,42.0279,阜新市,长青街,,35,31,41,24,23,14,,152,53,53,24,6,12,0.4,0.4
2025-06-02T2300,2209A,121.6673,42.0705,阜新市,农业园区,,35,35,40,9,23,46,,154,62,21,19,6,10,0.3,0.5
2025-06-02T2300,2210A,121.6717,42.0224,阜新市,东苑,,48,48,52,31,26,22,,159,69,53,26,6,12,0.6,0.5
2025-06-02T2300,2211A,121.6506,42.0498,阜新市,玉龙新城,颗粒物(PM10),53,56,49,9,22,1,,149,46,52,31,6,10,0.6,0.7
2025-06-02T2300,2301A,115.8277,32.8929,阜阳市,市监测站,颗粒物(PM10),53,56,30,32,16,91,,121,114,16,10,7,7,0.3,0.1
2025-06-02T2300,2303A,115.8554,32.8605,阜阳市,开发区,颗粒物(PM10),59,68,27,27,9,82,,122,110,14,8,5,4,0.2,0.1
2025-06-02T2300,2875A,115.784,32.8892,阜阳市,阜阳职业技术学院,细颗粒物(PM2.5),55,53,21,39,14,105,,135,125,15,8,5,4,0.4,0.3
2025-06-02T2300,3468A,115.7901,32.8613,阜阳市,市规划展馆,细颗粒物(PM2.5),57,62,28,40,17,104,,126,119,13,8,4,5,0.5,0.5
2025-06-02T2300,3469A,115.836,32.9183,阜阳市,枣园社区,颗粒物(PM10),59,67,34,40,19,90,,121,114,17,7,6,6,0.5,0.5
2025-06-02T2300,2669A,102.9099,34.9841,甘南藏族自治州,州政府,,32,22,23,22,20,71,,92,86,6,5,2,3,0.3,0.2
2025-06-02T2300,3380A,102.8914,34.9617,甘南藏族自治州,甘肃民族师范学院,,27,27,26,12,11,69,,95,88,6,6,7,7,0.3,0.3
2025-06-02T2300,2570A,101.9603,30.0475,甘孜藏族自治州,水桥子,,24,,7,13,7,75,,102,96,14,6,5,5,0.3,0.2
2025-06-02T2300,3065A,101.9533,29.9972,甘孜藏族自治州,州环保局,,30,12,7,11,4,94,,101,100,9,8,2,2,0.3,0.3
2025-06-02T2300,3414A,115.8347,28.932,赣江新区,桑海产业园,,31,17,5,11,3,98,,106,104,9,8,4,4,0.6,0.6
2025-06-02T2300,2362A,114.9017,25.9149,赣州市,通天岩,,21,21,22,3,4,45,,56,51,5,5,3,2,1.1,1.1
2025-06-02T2300,2363A,114.9367,25.8664,赣州市,地委,,,17,20,6,10,,,64,,5,8,1,2,0.7,0.8
2025-06-02T2300,2364A,114.9461,25.8481,赣州市,气象台,,20,18,20,3,8,61,,57,57,6,9,11,8,0.7,0.6
2025-06-02T2300,2365A,114.9322,25.8333,赣州市,市图书馆,,22,15,13,10,10,68,,62,62,4,6,4,4,0.6,0.6
2025-06-02T2300,2366A,114.8905,25.8471,赣州市,华坚鞋城,,21,17,20,9,11,67,,62,62,4,8,2,4,0.3,0.3
2025-06-02T2300,3109A,115.0093,25.8613,赣州市,赣县区卫计委,,21,6,15,3,10,66,,57,57,4,9,2,2,0.4,0.4
2025-06-02T2300,2683A,106.2319,36.1417,固原市,马园,颗粒物(PM10),51,52,49,14,13,22,,121,96,66,36,7,6,0.2,0.2
2025-06-02T2300,2684A,106.2792,36.0022,固原市,监测站,颗粒物(PM10),59,68,41,19,13,60,,121,108,37,18,7,6,0.5,0.4
2025-06-02T2300,2685A,106.2375,36.0211,固原市,新区,颗粒物(PM10),54,57,40,17,11,31,,119,99,63,20,7,6,0.5,0.4
2025-06-02T2300,3522A,106.2177,35.9959,固原市,原州区十五小,,49,49,38,18,13,62,,121,109,42,13,7,8,0.3,0.2
2025-06-02T2300,2543A,106.6308,30.5278,广安市,小平旧居,,,,,,,,,,,,,,,,
2025-06-02T2300,2544A,106.6303,30.4576,广安市,市委,,32,32,23,22,14,67,,88,84,15,12,2,2,0.5,0.5
2025-06-02T2300,2545A,106.6271,30.4663,广安市,友谊中学,,35,35,22,24,12,61,,94,88,20,13,5,5,0.8,0.7
2025-06-02T2300,2547A,106.6388,30.4551,广安市,广电花园,,36,30,20,25,14,48,,85,79,22,11,6,6,0.6,0.5
2025-06-02T2300,2902A,106.6351,30.4865,广安市,北辰小学,,35,35,19,24,11,56,,95,88,14,10,13,12,0.7,0.6
2025-06-02T2300,2523A,105.8945,32.4535,广元市,黑石坡,,38,38,39,10,10,42,,76,69,13,10,4,8,0.4,0.4
2025-06-02T2300,2524A,105.821,32.4444,广元市,老城,,34,34,29,6,11,14,,82,60,42,21,1,7,0.9,0.9
2025-06-02T2300,2526A,105.8628,32.4287,广元市,监测站,,38,38,25,21,11,38,,82,69,25,16,4,8,0.4,0.5
2025-06-02T2300,3617A,105.8047,32.4166,广元市,经开区,,39,39,32,15,14,10,,82,62,52,23,4,10,0.5,0.5
2025-06-02T2300,1345A,113.2347,23.1423,广州市,广雅中学,,25,25,32,16,15,35,,105,76,35,28,2,2,0.9,0.9
2025-06-02T2300,1346A,113.2612,23.105,广州市,市五中,,22,22,32,14,15,37,,100,66,28,22,3,3,0.4,0.4
2025-06-02T2300,1348A,113.3478,23.0916,广州市,广东商学院,,42,42,31,26,16,21,,80,52,51,27,3,3,0.7,0.7
2025-06-02T2300,1349A,113.4332,23.1047,广州市,市八十六中,,41,41,32,14,12,4,,53,28,54,40,3,3,0.4,0.4
2025-06-02T2300,1350A,113.3505,22.9483,广州市,番禺中学,,25,25,30,14,14,43,,93,52,20,23,6,6,0.3,0.3
2025-06-02T2300,1351A,113.2146,23.3916,广州市,花都师范,,27,27,37,18,22,71,,113,97,19,30,3,4,0.7,0.7
2025-06-02T2300,1352A,113.2597,23.1331,广州市,市监测站,,36,36,34,17,15,27,,99,68,37,24,4,5,0.8,0.7
2025-06-02T2300,1353A,113.5618,23.312,广州市,九龙镇镇龙,,48,48,40,19,18,13,,97,73,49,27,6,6,0.6,0.5
2025-06-02T2300,1354A,113.2765,23.1544,广州市,麓湖,,36,36,31,19,16,4,,78,51,38,22,2,3,0.5,0.4
2025-06-02T2300,1355A,113.443,23.3035,广州市,帽峰山森林公园,,,31,29,16,11,,,64,,22,17,6,6,0.7,0.7
2025-06-02T2300,2846A,113.3221,23.1322,广州市,体育西,,44,44,31,24,15,2,,84,52,68,33,5,5,0.6,0.5
2025-06-02T2300,3298A,113.5717,23.5491,广州市,从化街口,,47,47,37,29,21,40,,116,93,21,16,8,7,0.7,0.6
2025-06-02T2300,3299A,113.3472,23.3692,广州市,白云竹料,,35,35,37,20,18,62,,105,90,16,21,2,3,0.7,0.7
2025-06-02T2300,3300A,113.2981,23.237,广州市,白云嘉禾,,36,36,36,18,16,32,,94,69,37,29,6,6,0.9,0.9
2025-06-02T2300,3301A,113.4256,23.1716,广州市,黄埔科学城,颗粒物(PM10),51,52,36,18,14,6,,71,44,50,30,5,4,0.6,0.6
2025-06-02T2300,3302A,113.3942,23.0483,广州市,番禺大学城,,40,40,34,17,13,10,,67,34,48,28,4,5,0.5,0.5
2025-06-02T2300,3303A,113.4922,22.8168,广州市,南沙黄阁,,37,37,30,12,11,24,,55,42,21,12,4,5,0.6,0.5
2025-06-02T2300,3304A,113.5342,22.7896,广州市,南沙街,,28,28,27,10,9,30,,60,47,18,13,1,1,0.6,0.5
2025-06-02T2300,3443A,113.2902,23.5544,广州市,花都梯面,,36,36,27,9,14,30,,95,71,12,20,4,4,0.6,0.6
2025-06-02T2300,3445A,113.7858,23.7478,广州市,从化良口,,31,31,26,20,17,47,,75,55,7,9,6,6,0.7,0.6
2025-06-02T2300,3446A,113.8051,23.2614,广州市,增城荔城,,45,45,38,20,20,19,,82,57,26,16,8,8,0.4,0.3
2025-06-02T2300,2505A,109.568,23.1478,贵港市,德智高中,,,,,,,,,,,,,,,,
2025-06-02T2300,2506A,109.6047,23.0666,贵港市,江南子站,,15,12,28,8,13,45,,63,47,8,13,4,8,0.6,0.6
2025-06-02T2300,2508A,109.5669,23.1065,贵港市,荷城子站,,15,14,32,3,10,47,,58,47,10,12,5,6,0.5,0.4
2025-06-02T2300,3405A,109.5886,23.1172,贵港市,新世纪学校,,14,9,26,6,14,44,,57,45,10,12,2,7,0.8,0.7
2025-06-02T2300,4260A,109.5933,23.0951,贵港市,中山路155-3号,,17,15,38,8,17,53,,67,53,10,13,3,4,0.6,0.5
2025-06-02T2300,1439A,106.6899,26.5998,贵阳市,马鞍山,,20,12,9,3,1,61,,55,55,8,7,2,2,0.3,0.3
2025-06-02T2300,1441A,106.6243,26.6266,贵阳市,鉴湖路,,23,22,15,12,4,71,,65,65,9,9,8,8,0.4,0.4
2025-06-02T2300,1442A,106.7487,26.6343,贵阳市,燕子冲,,27,27,16,17,13,79,,65,65,10,11,4,4,0.4,0.4
2025-06-02T2300,1443A,106.6555,26.4365,贵阳市,碧云窝,,28,22,15,7,5,88,,75,75,8,10,5,5,0.3,0.4
2025-06-02T2300,1445A,106.7109,26.6027,贵阳市,红边门,,27,14,10,9,9,85,,72,72,4,4,4,5,0.2,0.2
2025-06-02T2300,1446A,106.7164,26.5699,贵阳市,新华路,,27,17,9,3,4,84,,69,69,10,10,6,6,0.4,0.4
2025-06-02T2300,1447A,106.674,26.5424,贵阳市,太慈桥,,26,22,8,3,3,83,,69,69,11,12,4,4,0.3,0.3
2025-06-02T2300,1552A,106.805,26.3003,贵阳市,桐木岭,,27,27,25,14,12,82,,68,68,2,3,1,1,0.8,0.8
2025-06-02T2300,4230A,106.6882,26.5695,贵阳市,花果园大街66号,,24,17,8,13,9,74,,63,63,8,8,4,4,0.1,0.4
2025-06-02T2300,4231A,106.6873,26.5169,贵阳市,漓江路57号,,27,14,10,3,4,85,,69,69,8,9,1,1,0.4,0.4
2025-06-02T2300,1862A,110.4144,25.3167,桂林市,电子科大尧山校区,,,,,,,,,,,,,,,,
2025-06-02T2300,1864A,110.3089,25.2708,桂林市,龙隐路小学,,25,15,12,3,9,79,,83,82,6,8,8,8,0.5,0.6
2025-06-02T2300,1865A,110.2869,25.2178,桂林市,八中,,25,10,19,9,9,80,,79,78,7,13,6,7,0.6,0.6
2025-06-02T2300,3531A,110.296,25.1253,桂林市,旅游学院,,23,7,8,7,8,71,,69,69,6,9,1,2,0.4,0.4
2025-06-02T2300,4222A,110.1835,25.2444,桂林市,环湖路276号,,24,,12,9,10,76,,76,76,6,8,6,9,0.5,0.6
2025-06-02T2300,4301A,110.2803,25.2773,桂林市,信义路13号,,25,14,17,14,13,78,,84,82,7,11,1,3,0.4,0.4
2025-06-02T2300,2674A,100.2561,34.4714,果洛藏族自治州,玛沁县大武镇,,35,17,15,16,10,111,,113,110,2,3,19,20,0.4,0.4
2025-06-02T2300,1129A,126.5422,45.755,哈尔滨市,岭北,,30,20,35,19,20,93,,88,88,13,27,13,12,0.7,0.8
2025-06-02T2300,1130A,126.561,45.8167,哈尔滨市,松北商大,,30,,30,17,16,93,,81,81,8,26,5,6,0.6,0.7
2025-06-02T2300,1131A,126.979,45.5419,哈尔滨市,阿城会宁,,31,15,38,12,21,99,,97,97,9,25,7,8,0.5,0.4
2025-06-02T2300,1132A,126.599,45.7222,哈尔滨市,南岗学府路,,32,25,43,11,16,101,,97,97,12,32,7,8,0.6,0.7
2025-06-02T2300,1133A,126.689,45.7733,哈尔滨市,太平宏伟公园,,32,18,40,18,21,100,,86,86,12,32,5,7,0.6,0.7
2025-06-02T2300,1134A,126.635,45.7667,哈尔滨市,道外承德广场,,32,32,33,16,27,90,,81,81,14,30,6,7,0.2,0.6
2025-06-02T2300,1135A,126.685,45.7319,哈尔滨市,香坊红旗大街,,32,17,39,11,14,102,,96,96,17,37,5,10,0.7,0.9
2025-06-02T2300,1136A,126.6411,45.7258,哈尔滨市,动力和平路,,30,25,42,21,28,95,,92,92,14,33,8,10,0.5,0.7
2025-06-02T2300,1137A,126.593,45.7478,哈尔滨市,道里建国路,,33,16,37,15,17,105,,91,91,10,33,1,4,1.3,1.9
2025-06-02T2300,1138A,126.615,45.61,哈尔滨市,平房东轻厂,,34,,35,13,15,106,,106,106,6,28,7,8,0.5,0.5
2025-06-02T2300,1139A,126.595,45.9855,哈尔滨市,呼兰师专,,32,,32,22,27,89,,86,86,15,28,8,9,0.5,0.4
2025-06-02T2300,1140A,126.6206,45.6842,哈尔滨市,省农科院,,31,28,53,17,21,99,,89,89,15,41,4,8,0.7,0.8
2025-06-02T2300,2688A,93.5128,42.8172,哈密市,地区监测站,,27,26,58,3,17,84,,102,98,8,12,3,3,0.0,0
2025-06-02T2300,2689A,93.4961,42.8328,哈密市,哈密师范学校,,28,21,45,13,14,88,,104,100,10,13,4,5,0.2,0.3
2025-06-02T2300,2671A,100.9048,36.9639,海北藏族自治州,海晏县西海镇,,40,40,29,20,16,89,,133,124,22,6,15,8,0.5,0.4
2025-06-02T2300,3867A,102.0738,36.5056,海东市,平安区公安北苑,颗粒物(PM10),52,54,39,15,20,78,,117,105,6,9,8,12,0.5,0.8
2025-06-02T2300,1409A,110.576,19.9507,海口市,东寨港,,35,35,18,7,8,33,,68,57,8,5,6,9,0.6,0.4
2025-06-02T2300,1410A,110.3232,20.0574,海口市,海南大学,,,23,19,12,8,,,74,63,14,7,3,2,0.3,0.3
2025-06-02T2300,1411A,110.283,20.0053,海口市,秀英海南医院,,31,31,23,12,9,47,,63,52,12,8,5,5,0.3,0.2
2025-06-02T2300,1412A,110.338,19.9969,海口市,海南师范大学,,33,33,22,10,8,52,,71,57,9,7,4,3,0.5,0.4
2025-06-02T2300,1413A,110.33,20.0356,海口市,龙华路环保局宿舍,,23,23,20,10,8,46,,70,57,12,8,4,4,0.3,0.3
2025-06-02T2300,3539A,110.5111,19.9736,海口市,桂林洋子站,颗粒物(PM10),55,59,26,24,11,40,,77,62,17,10,4,4,0.4,0.2
2025-06-02T2300,2673A,100.6188,36.2866,海南藏族自治州,共和县恰卜恰镇,,45,45,35,23,20,91,,124,116,13,8,13,12,0.5,0.3
2025-06-02T2300,2676A,97.3731,37.3753,海西蒙古族藏族自治州,德令哈市,颗粒物(PM10),51,51,37,19,14,130,,134,133,1,1,9,9,0.5,0.5
2025-06-02T2300,1048A,114.5302,36.6116,邯郸市,东污水处理厂,颗粒物(PM10),60,70,104,24,62,131,,193,168,19,20,8,10,0.5,0.8
2025-06-02T2300,1049A,114.4918,36.5713,邯郸市,矿院,颗粒物(PM10),57,63,94,29,60,150,,204,176,11,16,5,8,0.6,0.9
2025-06-02T2300,1050A,114.484,36.6133,邯郸市,丛台公园,颗粒物(PM10),66,82,113,28,67,143,,192,173,16,19,8,10,0.6,0.9
2025-06-02T2300,3458A,114.7895,36.5593,邯郸市,香泉濮院小区,"颗粒物(PM10),臭氧1小时",52,54,125,14,55,161,,197,176,10,17,3,5,0.0,0.5
2025-06-02T2300,3579A,114.50634,36.77178,邯郸市,永年区实验高中,细颗粒物(PM2.5),87,97,116,64,78,116,,203,164,25,22,4,4,0.6,0.7
2025-06-02T2300,3580A,114.20016,36.44293,邯郸市,峰峰矿区临水派出所,颗粒物(PM10),60,70,79,31,55,143,,201,174,19,14,13,12,0.8,0.9
2025-06-02T2300,2634A,106.9893,33.1842,汉中市,汉川机床厂子校,,34,34,25,19,15,54,,95,80,13,9,3,3,0.5,0.5
2025-06-02T2300,2635A,107.0154,33.0706,汉中市,市监测站,,48,48,27,27,12,63,,90,86,15,9,5,5,0.8,0.6
2025-06-02T2300,2636A,107.0089,33.1138,汉中市,鑫源开发区,,47,47,27,29,13,23,,86,72,31,12,5,5,0.6,0.5
2025-06-02T2300,2637A,107.007,33.0323,汉中市,南郑大河坎水厂,颗粒物(PM10),53,55,31,25,14,21,,85,72,24,13,5,5,0.7,0.5
2025-06-02T2300,1223A,120.2072,30.2111,杭州市,滨江,,31,10,11,6,7,99,,111,108,14,25,6,6,0.4,0.6
2025-06-02T2300,1224A,120.0633,30.2747,杭州市,西溪,,30,7,11,7,8,94,,110,108,5,6,4,4,0.4,0.5
2025-06-02T2300,1226A,120.3417,30.3150,杭州市,下沙,,26,13,10,9,8,81,,108,101,18,18,6,5,0.4,0.4
2025-06-02T2300,1227A,120.1269,30.2456,杭州市,卧龙桥,,26,6,9,3,5,81,,103,100,8,8,6,6,0.4,0.6
2025-06-02T2300,1228A,120.1903,30.2692,杭州市,浙江农大,,25,8,8,8,8,77,,87,85,10,15,8,8,0.4,0.6
2025-06-02T2300,1230A,120.1197,30.3119,杭州市,和睦小学,,30,10,8,7,8,94,,111,108,5,7,6,6,0.4,0.5
2025-06-02T2300,1231A,120.3019,30.4183,杭州市,临平镇,,26,17,15,9,8,82,,104,96,11,10,5,5,0.4,0.5
2025-06-02T2300,1232A,120.2753,30.1839,杭州市,城厢镇,,30,12,12,6,11,95,,106,105,12,17,7,6,0.4,0.6
2025-06-02T2300,1233A,120.0883,30.1808,杭州市,云栖,,25,11,9,3,3,77,,101,98,12,13,6,6,0.5,0.6
2025-06-02T2300,3557A,119.9464,30.0494,杭州市,镇二中,,29,9,10,6,7,90,,88,88,8,13,2,3,0.5,0.7
2025-06-02T2300,3558A,119.7183,30.2367,杭州市,市府大楼,,28,7,8,3,6,87,,88,88,12,13,7,7,0.5,0.6
2025-06-02T2300,3656A,120.1556,30.2864,杭州市,消防大队,,28,12,13,6,7,89,,105,101,11,13,5,4,0.6,0.7
2025-06-02T2300,1270A,117.1959,31.7848,合肥市,明珠广场,,44,44,12,22,8,38,,94,82,43,14,4,4,0.6,0.5
2025-06-02T2300,1271A,117.3072,31.8764,合肥市,三里街,,36,36,13,19,7,52,,90,82,31,10,4,4,0.6,0.4
2025-06-02T2300,1272A,117.2588,31.8707,合肥市,琥珀山庄,,35,34,12,24,11,29,,92,80,30,12,5,5,0.8,0.5
2025-06-02T2300,1273A,117.1604,31.9052,合肥市,董铺水库,,24,24,12,14,6,68,,91,86,14,9,1,1,0.3,0.3
2025-06-02T2300,1274A,117.25,31.8571,合肥市,长江中路,,,46,38,22,18,53,,,,31,31,3,3,,0
2025-06-02T2300,1275A,117.266,31.9436,合肥市,庐阳区,,28,27,11,19,8,76,,95,90,14,6,6,6,0.5,0.5
2025-06-02T2300,1276A,117.3453,31.8616,合肥市,瑶海区,,36,36,14,22,8,66,,92,81,20,11,6,6,0.5,0.4
2025-06-02T2300,1277A,117.3027,31.7964,合肥市,包河区,,36,36,12,22,7,34,,86,70,44,20,4,4,0.5,0.4
2025-06-02T2300,1278A,117.2776,31.7385,合肥市,滨湖新区,,35,29,13,24,12,34,,90,76,50,14,7,7,0.6,0.5
2025-06-02T2300,1279A,117.1318,31.8403,合肥市,高新区,,33,29,14,23,9,62,,96,92,26,12,5,5,0.5,0.4
2025-06-02T2300,3464A,117.3803,31.9147,合肥市,高教基地,,34,34,12,23,8,30,,89,72,14,3,6,6,0.5,0.4
2025-06-02T2300,3614A,79.924,37.0877,和田地区,地区环保局,颗粒物(PM10),147,244,355,89,100,78,,104,98,16,8,3,2,0.5,0.4
2025-06-02T2300,3615A,79.9131,37.113,和田地区,市环保局,细颗粒物(PM2.5),142,214,294,108,88,83,,107,101,15,6,1,2,0.7,0.6
2025-06-02T2300,2516A,108.2011,24.715,河池市,东仁乐园,,,,,,,,,,,,,,,,
2025-06-02T2300,2517A,108.0497,24.6947,河池市,市环保站,,19,7,18,3,6,59,,61,60,4,5,7,7,0.5,0.6
2025-06-02T2300,2518A,108.0983,24.6989,河池市,市疾控中心,,19,10,13,3,5,60,,64,64,5,8,6,6,0.6,0.6
2025-06-02T2300,1696A,114.6778,23.7569,河源市,源西,,31,31,28,16,16,66,,86,69,15,11,4,4,0.5,0.4
2025-06-02T2300,1697A,114.6944,23.7586,河源市,东埔,,30,26,26,21,20,69,,95,84,16,13,4,4,0.5,0.5
2025-06-02T2300,1698A,114.6892,23.7233,河源市,老城,,,24,27,15,18,65,,88,72,,12,4,4,0.5,0.4
2025-06-02T2300,1718A,115.4208,35.2464,菏泽市,气象局,颗粒物(PM10),102,153,82,44,37,149,,211,193,20,12,5,3,0.5,0.4
2025-06-02T2300,3374A,115.5564,35.0891,菏泽市,定陶老年大学,颗粒物(PM10),85,119,68,39,28,126,,187,168,21,13,7,5,0.0,0.1
2025-06-02T2300,4184A,115.4797,35.24401,菏泽市,永昌路1号,颗粒物(PM10),89,128,71,39,26,154,,206,189,16,12,7,6,0.4,0.3
2025-06-02T2300,4193A,115.4715,35.2800,菏泽市,长城路999号,颗粒物(PM10),91,132,71,42,33,165,,214,200,19,13,9,9,0.5,0.4
2025-06-02T2300,2514A,111.5264,24.4172,贺州市,环保小区,,22,,24,6,18,68,,68,68,6,10,9,10,0.5,0.6
2025-06-02T2300,2515A,111.5608,24.4078,贺州市,政协大楼,,20,11,23,6,14,62,,66,65,9,10,8,10,0.7,0.7
2025-06-02T2300,3534A,111.4744,24.4553,贺州市,西湾,,22,8,18,3,13,69,,68,68,6,9,8,8,0.7,0.7
2025-06-02T2300,2385A,114.17,35.9019,鹤壁市,市监测站,颗粒物(PM10),77,103,100,49,60,86,,190,151,37,21,13,10,0.3,0.4
2025-06-02T2300,2386A,114.2956,35.7511,鹤壁市,市交警支队,细颗粒物(PM2.5),74,72,81,54,50,134,,181,159,25,22,9,8,0.6,0.6
2025-06-02T2300,2387A,114.2878,35.7306,鹤壁市,迎宾馆,颗粒物(PM10),89,127,105,65,57,129,,188,164,25,22,7,6,0.7,0.7
2025-06-02T2300,3474A,114.2617,35.6822,鹤壁市,大新区,细颗粒物(PM2.5),72,85,71,52,59,126,,179,148,26,24,8,8,0.8,0.8
2025-06-02T2300,3596A,114.1572,35.9603,鹤壁市,南山宾馆,颗粒物(PM10),92,134,102,60,65,106,,189,157,27,16,8,7,0.6,0.6
2025-06-02T2300,2244A,130.2537,47.3416,鹤岗市,哈啤分公司,,45,45,27,25,22,73,,105,97,13,7,15,15,0.4,0.2
2025-06-02T2300,2245A,130.2684,47.3086,鹤岗市,斯达机电,,36,35,28,25,19,79,,100,92,11,8,12,13,0.3,0.4
2025-06-02T2300,2246A,130.3114,47.3388,鹤岗市,东山纸板厂,,42,42,46,14,16,67,,102,93,19,11,14,15,0.4,0.5
2025-06-02T2300,2247A,130.1097,47.3382,鹤岗市,五号水库,,,,,,,,,,,,,,,,
2025-06-02T2300,2263A,127.4833,50.2524,黑河市,交通局,,28,28,26,14,12,45,,75,59,9,8,7,7,0.3,0.3
2025-06-02T2300,2264A,127.5144,50.2341,黑河市,环保局,,40,40,31,17,11,57,,78,67,9,9,3,3,0.4,0.3
2025-06-02T2300,2265A,127.5291,50.2472,黑河市,大黑河岛,,,,,,,64,,69,66,6,9,4,4,0.3,0.3
2025-06-02T2300,1074A,115.6838,37.7541,衡水市,电机北厂,颗粒物(PM10),56,61,106,22,65,93,,173,134,18,17,3,4,0.1,0.5
2025-06-02T2300,1075A,115.6303,37.7316,衡水市,市监测站,,44,44,96,6,60,105,,168,135,8,13,5,7,0.2,0.6
2025-06-02T2300,3188A,115.6683,37.7217,衡水市,市城管局,颗粒物(PM10),55,59,97,14,58,102,,170,135,15,16,3,4,0.2,0.6
2025-06-02T2300,3459A,115.5989,37.5491,衡水市,地表水厂,,,104,110,8,57,,,184,,36,16,4,5,0.2,0.6
2025-06-02T2300,2456A,112.5003,26.9167,衡阳市,原169医院,,30,30,18,18,13,88,,103,93,6,5,4,3,0.6,0.6
2025-06-02T2300,2457A,112.6194,26.9258,衡阳市,衡阳化工总厂,,39,35,24,27,19,65,,85,78,12,7,5,5,0.5,0.6
2025-06-02T2300,2458A,112.6211,26.8956,衡阳市,珠晖区环保局,,30,30,20,18,11,81,,92,86,8,7,6,6,0.8,0.9
2025-06-02T2300,2459A,112.6197,26.8733,衡阳市,市委党校,,38,38,20,20,11,71,,89,82,13,8,4,3,0.5,0.5
2025-06-02T2300,2460A,112.6006,26.8919,衡阳市,市监测站,,33,33,20,23,14,72,,88,79,11,8,7,6,0.5,0.5
2025-06-02T2300,2461A,112.5664,26.9056,衡阳市,真空机电公司,,30,30,21,16,10,70,,91,79,8,4,5,5,0.7,0.7
2025-06-02T2300,3399A,112.6703,26.882,衡阳市,师范学院,,37,37,20,24,15,62,,91,82,12,8,7,6,0.7,0.7
2025-06-02T2300,2608A,103.3772,23.3993,红河哈尼族彝族自治州,污水处理厂,,17,17,16,11,8,36,,50,42,10,11,6,6,0.2,0.2
2025-06-02T2300,2609A,103.3861,23.35,红河哈尼族彝族自治州,监测站,,29,29,21,15,9,35,,47,38,3,3,12,12,0.1,0.1
2025-06-02T2300,3038A,103.3758,23.368,红河哈尼族彝族自治州,州图书馆,,13,11,9,6,9,41,,52,44,4,4,2,3,0.1,0.2
2025-06-02T2300,1090A,111.6507,40.7517,呼和浩特市,呼市一监,,31,31,21,20,9,40,,89,78,33,5,10,9,0.3,0.3
2025-06-02T2300,1091A,111.6572,40.8033,呼和浩特市,小召,,24,24,23,6,3,44,,93,79,38,13,8,8,0.5,0.4
2025-06-02T2300,1094A,111.7516,40.8369,呼和浩特市,如意水处理厂,,18,18,11,9,5,46,,92,81,32,6,5,5,0.3,0.2
2025-06-02T2300,1095A,111.7276,40.8062,呼和浩特市,二十九中,,20,20,22,10,5,54,,91,83,27,11,4,4,0.5,0.4
2025-06-02T2300,1096A,111.5512,40.7866,呼和浩特市,工大金川校区,,23,23,20,8,4,36,,95,79,39,8,5,6,0.3,0.3
2025-06-02T2300,1097A,111.717,40.7612,呼和浩特市,化肥厂生活区,,29,29,13,9,3,33,,99,81,51,8,10,6,0.3,0.1
2025-06-02T2300,3698A,111.5968,40.8178,呼和浩特市,红旗小学,,21,9,19,3,4,66,,99,82,16,12,2,2,0.2,0.1
2025-06-02T2300,3699A,111.6518,40.8389,呼和浩特市,海东办,,,17,22,6,4,,,96,,39,7,3,5,0.5,0.3
2025-06-02T2300,2192A,119.7594,49.2261,呼伦贝尔市,区环保局,,32,32,27,20,24,62,,101,74,9,7,5,5,0.2,0.2
2025-06-02T2300,3061A,119.7512,49.1577,呼伦贝尔市,国华电力东,,35,35,30,18,16,67,,101,83,8,6,4,4,0.3,0.2
2025-06-02T2300,1250A,120.0751,30.8669,湖州市,城西水厂,,30,18,14,11,8,96,,91,88,17,22,5,5,0.5,0.5
2025-06-02T2300,2873A,120.0830,30.8929,湖州市,仁皇山新区,,28,16,10,12,8,89,,96,92,11,11,4,4,0.6,0.7
2025-06-02T2300,2907A,120.1844,30.8596,湖州市,吴兴区站,,27,14,13,14,9,86,,105,97,18,15,6,6,0.4,0.4
2025-06-02T2300,3562A,120.4148,30.8538,湖州市,南浔区站,,30,22,13,15,8,95,,124,112,13,12,4,4,0.6,0.6
2025-06-02T2300,1607A,120.9049,40.7211,葫芦岛市,龙港区,细颗粒物(PM2.5),62,,58,44,41,42,,156,106,40,18,12,12,0.8,0.7
2025-06-02T2300,1608A,120.8392,40.7514,葫芦岛市,化工街,细颗粒物(PM2.5),89,107,78,66,41,7,,152,101,113,37,13,14,0.9,0.7
2025-06-02T2300,1609A,120.8341,40.7073,葫芦岛市,新区,细颗粒物(PM2.5),82,81,55,60,46,33,,150,101,69,29,8,8,0.8,0.6
2025-06-02T2300,1610A,120.8695,40.7677,葫芦岛市,东城区,细颗粒物(PM2.5),117,,57,88,55,16,,146,99,98,36,6,8,1.0,0.8
2025-06-02T2300,2482A,109.5981,27.5721,怀化市,林科所,,38,38,24,22,15,27,,90,66,4,4,4,7,0.3,0.4
2025-06-02T2300,2483A,109.9453,27.5444,怀化市,河西地税局,,37,37,28,23,20,19,,91,67,17,11,1,1,0.4,0.3
2025-06-02T2300,2484A,109.9781,27.5342,怀化市,市四医院,,48,48,29,28,17,48,,95,80,13,4,1,3,0.5,0.4
2025-06-02T2300,2485A,109.9972,27.5578,怀化市,监测楼,,43,40,25,30,17,44,,93,77,14,4,4,11,0.3,0.2
2025-06-02T2300,2486A,110.0394,27.583,怀化市,市委党校,,30,30,22,20,15,27,,89,71,17,4,3,8,0.7,0.6
2025-06-02T2300,1210A,119.036,33.5981,淮安市,钵池山,,29,24,10,20,12,79,,101,94,14,9,5,5,0.6,0.5
2025-06-02T2300,1211A,119.007,33.575,淮安市,北京南路,,28,22,11,19,10,70,,110,96,19,5,6,6,0.7,0.6
2025-06-02T2300,1212A,118.989,33.6067,淮安市,市监测站,,,39,9,22,10,33,,102,85,38,9,7,7,,1
2025-06-02T2300,1213A,119.135,33.5039,淮安市,楚州区监测站,,44,44,14,26,11,39,,100,80,27,6,6,6,0.5,0.4
2025-06-02T2300,3426A,118.8755,33.2894,淮安市,新华书店,,22,22,9,14,6,39,,105,84,40,12,7,7,0.7,0.6
2025-06-02T2300,4206A,119.0288,33.6319,淮安市,承德北路606号,,31,31,12,19,12,73,,107,96,18,6,5,5,0.5,0.4
2025-06-02T2300,2282A,116.8004,33.975,淮北市,监测站,,43,43,27,25,18,95,,148,132,14,5,7,6,0.7,0.6
2025-06-02T2300,2283A,116.8091,33.9007,淮北市,烈山区政府,,42,42,17,24,17,91,,150,129,16,6,5,3,0.7,0.7
2025-06-02T2300,3330A,116.8873,33.9836,淮北市,杜集区检察院,,46,46,31,28,21,91,,150,131,16,9,8,8,0.7,0.7
2025-06-02T2300,4017A,116.7923,33.9535,淮北市,市博物馆,,41,41,25,27,19,98,,154,137,18,9,6,6,0.8,0.7
2025-06-02T2300,2277A,116.8305,32.7727,淮南市,潘集区政府,,39,39,21,25,15,81,,98,92,11,9,2,3,0.4,0.4
2025-06-02T2300,2279A,116.8569,32.5951,淮南市,谢家集区政府,,40,40,21,17,12,81,,91,87,15,12,4,5,0.2,0.2
2025-06-02T2300,2280A,116.8281,32.633,淮南市,八公山区政府,,34,34,27,20,15,84,,92,90,14,9,4,4,0.2,0.2
2025-06-02T2300,2281A,116.6325,32.6201,淮南市,焦岗湖风景区管理处,,,,,,,,,,,,,,,,
2025-06-02T2300,2894A,117.0566,32.6531,淮南市,经济技术开发区消防队,,33,30,18,23,18,70,,86,83,15,8,6,6,0.3,0.2
2025-06-02T2300,3329A,117.0108,32.5893,淮南市,山南新区,,29,29,11,18,9,84,,99,95,11,7,7,6,0.2,0.2
2025-06-02T2300,4209A,117.0031,32.6445,淮南市,国庆中路369号,,49,,19,34,14,79,,96,93,11,4,6,5,0.4,0.3
2025-06-02T2300,2446A,114.9028,30.4742,黄冈市,职工中心,,43,34,16,30,12,97,,114,108,9,3,5,6,0.6,0.6
2025-06-02T2300,2929A,114.8858,30.4519,黄冈市,红卫路,,41,41,21,24,11,82,,109,102,10,3,2,2,0.7,0.6
2025-06-02T2300,3398A,114.9136,30.4445,黄冈市,市林业局,,40,40,19,27,12,92,,108,105,9,3,7,6,0.6,0.6
2025-06-02T2300,2672A,102.0199,35.5102,黄南藏族自治州,同仁县隆务镇,,28,21,21,9,10,88,,108,102,1,2,4,4,0.2,0.2
2025-06-02T2300,2295A,118.2903,29.6963,黄山市,延安路89号,,21,10,7,6,7,66,,71,70,6,5,5,5,0.5,0.6
2025-06-02T2300,2297A,118.1371,30.2756,黄山市,黄山区政府5号楼,,15,8,8,8,8,48,,91,76,4,4,4,4,0.3,0.4
2025-06-02T2300,4210A,118.3354,29.7203,黄山市,滨江东路7-2号,,21,13,12,3,5,65,,74,65,5,5,4,4,0.4,0.4
2025-06-02T2300,2423A,115.0601,30.2313,黄石市,沈家营,,32,26,11,14,3,100,,110,104,3,2,7,6,0.8,0.6
2025-06-02T2300,2426A,114.8988,30.2019,黄石市,铁山,,43,43,17,17,7,45,,108,97,31,8,5,4,0.2,0.7
2025-06-02T2300,2427A,115.0307,30.2092,黄石市,团城山,,31,31,15,15,3,95,,110,104,6,2,12,7,0.7,0.5
2025-06-02T2300,3149A,115.0235,30.1578,黄石市,笔架山北路,,27,27,11,8,2,65,,105,94,15,9,8,7,0.8,0.7
2025-06-02T2300,4185A,115.0780,30.21118,黄石市,磁湖东路29号,,32,31,10,22,6,86,,109,103,3,2,7,6,0.5,0.4
2025-06-02T2300,1392A,114.4183,23.0528,惠州市,河南岸金山湖子站,,32,32,27,14,15,29,,83,58,15,11,7,7,0.5,0.5
2025-06-02T2300,1393A,114.4053,23.0822,惠州市,下埔横江三路子站,,41,41,29,17,15,31,,96,73,16,11,5,5,0.5,0.3
2025-06-02T2300,1394A,114.4103,23.1142,惠州市,江北云山西路子站,,35,35,28,13,13,34,,97,70,15,10,10,7,0.4,0.4
2025-06-02T2300,1395A,114.4645,22.7833,惠州市,惠阳区承修路船湖子站,,34,34,24,14,13,35,,80,65,17,11,7,7,0.5,0.5
2025-06-02T2300,1396A,114.5317,22.7422,惠州市,大亚湾管委会子站,,28,28,26,10,14,46,,70,61,10,7,7,8,0.5,0.5
2025-06-02T2300,3314A,114.4338,22.8134,惠州市,惠阳秋长,,27,27,27,13,14,43,,98,76,19,12,8,8,0.6,0.6
2025-06-02T2300,3452A,114.6517,22.775,惠州市,大亚湾霞涌,,13,13,24,3,7,41,,66,58,12,9,6,6,0.4,0.4
2025-06-02T2300,2240A,130.9762,45.3001,鸡西市,环保局,,36,14,22,13,10,115,,142,128,11,12,5,6,0.2,0.2
2025-06-02T2300,2243A,130.9429,45.3039,鸡西市,第一中学,,25,16,27,10,11,77,,131,108,13,10,6,7,0.5,0.4
2025-06-02T2300,3707A,131.0207,45.3073,鸡西市,欧美日汽修厂,,34,25,29,11,11,108,,133,120,8,12,4,5,0.4,0.4
2025-06-02T2300,3709A,130.9967,45.3106,鸡西市,市政设施管理处,,34,20,32,11,14,107,,135,118,9,16,6,7,0.5,0.4
2025-06-02T2300,2367A,114.9754,27.0803,吉安市,红声器材厂,,21,20,17,12,7,66,,66,66,7,6,10,10,0.4,0.6
2025-06-02T2300,2368A,114.9658,27.0999,吉安市,市森林工业局,,20,19,16,13,8,63,,62,62,4,4,6,6,0.5,0.5
2025-06-02T2300,2369A,114.99,27.1312,吉安市,市环境监测站,,20,20,15,6,8,62,,63,63,3,2,12,12,0.7,0.8
2025-06-02T2300,2370A,115.0093,27.0968,吉安市,青原区法院,,25,25,16,14,9,70,,68,68,2,3,4,4,0.8,0.7
2025-06-02T2300,1772A,126.54,43.8622,吉林市,哈达湾,,30,13,44,6,26,93,,131,115,10,25,5,6,0.3,0.4
2025-06-02T2300,1773A,126.5844,43.8358,吉林市,东局子,,28,28,39,6,21,88,,127,112,11,19,5,5,0.5,0.6
2025-06-02T2300,1774A,126.5052,43.8245,吉林市,电力学院,,26,18,47,9,27,82,,130,111,12,28,4,5,0.4,0.5
2025-06-02T2300,1775A,126.6133,43.8972,吉林市,江北,,25,21,44,13,23,79,,126,106,10,17,6,8,0.5,0.6
2025-06-02T2300,1776A,126.555,43.8306,吉林市,江南公园,,28,17,39,11,28,87,,120,107,9,19,4,5,0.4,0.5
2025-06-02T2300,1778A,126.7061,43.7133,吉林市,丰满,,,,,,,,,,,,,,,,
2025-06-02T2300,2868A,126.4739,43.953,吉林市,九站,,28,15,59,10,32,88,,127,108,15,31,4,10,0.3,0.4
2025-06-02T2300,1299A,116.9862,36.6114,济南市,科干所,颗粒物(PM10),60,70,53,37,32,144,,210,197,19,13,4,6,0.5,0.4
2025-06-02T2300,1300A,116.9376,36.665,济南市,农科所,颗粒物(PM10),57,63,57,34,28,57,,196,164,21,13,6,9,0.3,0.3
2025-06-02T2300,1301A,117.1265,36.6734,济南市,开发区,颗粒物(PM10),63,76,63,44,33,118,,193,173,24,15,6,8,0.9,0.8
2025-06-02T2300,1303A,117.0624,36.6868,济南市,省种子仓库,细颗粒物(PM2.5),83,78,72,61,35,120,,212,190,22,12,5,6,0.7,0.5
2025-06-02T2300,1304A,116.9489,36.6447,济南市,机床二厂,颗粒物(PM10),72,93,67,34,31,113,,190,172,21,15,4,6,0.6,0.6
2025-06-02T2300,1305A,117.0495,36.663,济南市,市监测站,细颗粒物(PM2.5),68,78,66,49,33,101,,198,174,25,12,8,9,0.8,0.7
2025-06-02T2300,1306A,116.7675,36.5484,济南市,长清党校,颗粒物(PM10),64,78,59,34,35,141,,200,186,19,13,5,7,0.7,0.6
2025-06-02T2300,1616A,117.6795,36.229,济南市,技术学院,细颗粒物(PM2.5),55,46,50,39,33,158,,190,182,19,17,12,15,0.8,1
2025-06-02T2300,1961A,117.532,36.6868,济南市,东山小学,颗粒物(PM10),61,71,56,42,29,123,,207,175,27,13,6,6,0.3,0.3
2025-06-02T2300,3059A,117.7161,36.2049,济南市,泰兴公司,颗粒物(PM10),53,56,53,34,34,158,,189,175,16,15,10,10,0.8,0.9
2025-06-02T2300,3064A,117.6867,36.2171,济南市,莱芜战役纪念馆,细颗粒物(PM2.5),58,63,57,41,38,160,,192,183,14,13,8,11,0.8,1.3
2025-06-02T2300,3494A,117.1673,36.9782,济南市,济阳区政府,颗粒物(PM10),63,76,63,39,29,142,,196,150,15,17,8,9,0.6,0.6
2025-06-02T2300,3495A,117.1171,36.63,济南市,锦屏中学,细颗粒物(PM2.5),59,61,46,42,25,68,,172,,16,11,9,11,0.9,0.8
2025-06-02T2300,3682A,116.9814,36.6819,济南市,济南四建,颗粒物(PM10),67,83,59,39,34,108,,208,184,30,18,4,6,0.6,0.4
2025-06-02T2300,1653A,116.6251,35.4302,济宁市,火炬城,细颗粒物(PM2.5),58,64,47,41,31,136,,190,176,13,8,7,6,0.4,0.4
2025-06-02T2300,1655A,116.5491,35.4042,济宁市,电化厂,颗粒物(PM10),68,86,52,36,27,122,,189,170,16,6,2,3,0.6,0.5
2025-06-02T2300,3500A,116.5814,35.3707,济宁市,北湖一中,颗粒物(PM10),62,74,50,41,33,134,,193,179,14,9,7,7,0.6,0.5
2025-06-02T2300,3501A,116.8249,35.5593,济宁市,服务中心,颗粒物(PM10),60,70,48,33,24,130,,190,178,19,12,2,2,0.4,0.3
2025-06-02T2300,3678A,116.5907,35.4054,济宁市,市第七中学,颗粒物(PM10),61,71,62,36,24,137,,190,177,11,5,8,7,0.4,0.4
2025-06-02T2300,2255A,130.2751,46.8028,佳木斯市,佳纺,,45,45,29,25,12,109,,108,105,8,15,4,4,0.3,0.3
2025-06-02T2300,2256A,130.3995,46.8307,佳木斯市,发电厂,,39,34,23,21,11,123,,111,106,11,13,4,4,0.4,0.3
2025-06-02T2300,2257A,130.3258,46.7975,佳木斯市,环保局,颗粒物(PM10),53,56,30,20,14,111,,102,96,8,17,4,4,0.3,0.3
2025-06-02T2300,2258A,130.3648,46.8032,佳木斯市,十一中,,43,43,26,23,13,109,,106,98,11,12,12,11,0.4,0.3
2025-06-02T2300,2259A,130.3794,46.7588,佳木斯市,四丰,,,20,14,15,9,,,,,9,14,1,6,0.5,0.4
2025-06-02T2300,1252A,120.7436,30.778,嘉兴市,清河小学,,27,14,11,8,6,86,,108,101,12,14,6,6,0.8,0.8
2025-06-02T2300,1253A,120.726,30.7478,嘉兴市,嘉兴学院,,26,13,16,8,9,81,,111,100,11,12,5,4,0.7,0.7
2025-06-02T2300,2872A,120.7846,30.7525,嘉兴市,南湖区残联,,27,15,11,12,8,86,,117,106,9,9,6,5,0.6,0.6
2025-06-02T2300,3407A,120.6916,30.7739,嘉兴市,秀洲住建,,29,16,11,8,6,90,,121,110,10,8,6,5,0.7,0.7
2025-06-02T2300,1945A,98.2908,39.7711,嘉峪关市,气象局,,33,29,46,9,14,105,,114,111,5,10,3,4,0,0.1
2025-06-02T2300,2884A,98.2672,39.7978,嘉峪关市,酒钢宾馆,,36,36,59,9,17,85,,106,97,27,17,26,26,1.1,0.9
2025-06-02T2300,3248A,98.2643,39.7724,嘉峪关市,雄关区,,37,37,46,23,14,102,,112,109,7,15,7,10,0.2,0.3
2025-06-02T2300,1383A,113.1064,22.6058,江门市,北街,,15,15,27,9,13,32,,73,56,14,10,2,3,0.4,0.4
2025-06-02T2300,1384A,113.0731,22.5835,江门市,西区,,28,28,30,11,13,32,,79,60,17,10,7,7,0.5,0.4
2025-06-02T2300,1385A,113.0219,22.5311,江门市,圭峰西,,19,14,32,13,13,24,,67,54,11,9,3,4,0.5,0.4
2025-06-02T2300,1386A,113.0828,22.5947,江门市,东湖,,31,31,27,11,14,22,,79,58,10,9,8,8,0.5,0.4
2025-06-02T2300,3311A,113.1075,22.5647,江门市,江海富民,,38,38,36,23,14,35,,77,58,16,12,8,8,0.4,0.4
2025-06-02T2300,3449A,113.05,22.4667,江门市,新会银湖,,27,27,30,13,12,32,,60,50,15,11,2,2,0.3,0.4
2025-06-02T2300,1830A,113.1992,35.2590,焦作市,影视城,,,,,,,,,,,,,,,,
2025-06-02T2300,3169A,113.2725,35.2067,焦作市,太极体育中心,颗粒物(PM10),56,62,80,14,44,116,,174,142,3,9,5,7,0,0.2
2025-06-02T2300,3335A,113.3137,35.2641,焦作市,马村街道办,颗粒物(PM10),62,74,84,7,42,117,,174,137,12,21,9,16,0.4,0.8
2025-06-02T2300,3336A,113.2465,35.2373,焦作市,焦作技师学院,颗粒物(PM10),58,66,74,3,37,104,,169,136,13,14,7,16,0.6,0.9
2025-06-02T2300,3477A,113.1656,35.2539,焦作市,中站许衡医院,颗粒物(PM10),59,67,65,26,42,112,,158,134,13,22,6,10,0.3,0.8
2025-06-02T2300,3981A,113.2449,35.1803,焦作市,原李万街道办,,49,49,72,3,33,115,,172,140,11,16,12,15,0.3,0.3
2025-06-02T2300,4264A,113.2340,35.2190,焦作市,新安路1731号,,40,40,78,13,40,111,,165,141,9,15,6,13,0.5,0.8
2025-06-02T2300,1708A,116.3701,23.5345,揭阳市,新兴,,34,34,32,16,18,40,,53,47,9,12,4,6,0.6,0.6
2025-06-02T2300,1709A,116.3264,23.5443,揭阳市,西马,,40,40,33,9,14,34,,58,44,10,11,8,8,0.6,0.7
2025-06-02T2300,1710A,116.3611,23.5626,揭阳市,东兴,,40,40,33,14,14,42,,71,54,8,9,2,4,0.5,0.5
2025-06-02T2300,1711A,116.4151,23.5294,揭阳市,渔湖,,35,35,30,15,14,37,,67,49,13,12,4,4,0.5,0.6
2025-06-02T2300,3320A,116.403,23.5699,揭阳市,曲溪,,28,28,29,12,16,46,,75,57,4,9,3,5,0.4,0.5
2025-06-02T2300,1944A,102.1692,38.5167,金昌市,天庆家园,,46,46,26,17,11,76,,113,104,16,8,56,19,1.3,0.7
2025-06-02T2300,4022A,102.1647,38.5371,金昌市,金川区人防中心,颗粒物(PM10),53,55,31,16,9,54,,110,94,26,7,8,9,0.5,0.4
2025-06-02T2300,4239A,102.1930,38.5319,金昌市,长春路96号,,43,43,65,3,2,80,,113,103,13,6,32,10,1.0,0.6
2025-06-02T2300,1262A,119.647,29.077,金华市,十五中,,25,13,25,13,18,79,,64,64,9,20,4,5,0.8,0.8
2025-06-02T2300,1263A,119.686,29.1029,金华市,监测站,,30,21,26,21,17,73,,62,62,14,20,2,2,0.9,0.7
2025-06-02T2300,3659A,119.656,29.1131,金华市,气象局,,21,21,24,12,14,65,,57,57,18,26,2,3,0.9,0.8
2025-06-02T2300,1767A,121.1115,41.0879,锦州市,南山,细颗粒物(PM2.5),88,,55,65,58,67,,145,111,20,26,5,9,0.8,0.8
2025-06-02T2300,1768A,121.0604,40.8428,锦州市,开发区,细颗粒物(PM2.5),82,66,73,60,55,42,,149,121,85,30,4,12,0.8,0.8
2025-06-02T2300,1769A,121.1836,41.1119,锦州市,百股街道,细颗粒物(PM2.5),55,,56,39,43,57,,143,110,18,22,8,16,0.7,0.8
2025-06-02T2300,1770A,121.1178,41.1222,锦州市,天安街道,细颗粒物(PM2.5),94,70,63,70,54,85,,157,125,32,31,5,8,0.9,0.8
2025-06-02T2300,1771A,121.1303,41.1386,锦州市,北湖公园,细颗粒物(PM2.5),90,,64,67,56,66,,150,112,21,26,6,10,0.8,0.8
2025-06-02T2300,2160A,112.85,35.5051,晋城市,自来水公司,,42,42,68,9,31,133,,155,138,8,16,1,3,0.0,0.5
2025-06-02T2300,2161A,112.8318,35.4936,晋城市,白云商贸,,,134,85,,29,123,,145,131,16,21,8,8,0.3,0.7
2025-06-02T2300,2162A,112.8508,35.4887,晋城市,市环保局,颗粒物(PM10),61,72,75,9,30,126,,149,134,14,19,8,9,0.1,0.5
2025-06-02T2300,2163A,112.8676,35.4897,晋城市,技术学院,,,61,87,3,27,127,,157,141,11,19,,9,0.6,0.7
2025-06-02T2300,2165A,112.8453,35.546,晋城市,白马寺,,43,31,55,12,33,135,,153,143,5,9,5,6,0.3,0.7
2025-06-02T2300,3620A,112.8271,35.4828,晋城市,泽州一中,,42,24,53,3,31,134,,157,143,11,18,11,12,0.2,0.6
2025-06-02T2300,2173A,112.7249,37.7067,晋中市,南都小区,,38,38,48,12,23,82,,130,112,26,16,10,8,0.3,0.5
2025-06-02T2300,2174A,112.6991,37.6982,晋中市,榆次区政府,,31,31,46,10,19,77,,125,108,38,20,9,9,0,0.3
2025-06-02T2300,2865A,112.7195,37.6828,晋中市,榆次三中,,34,34,47,3,21,82,,124,109,25,18,5,6,0.1,0.4
2025-06-02T2300,4200A,112.7478,37.6954,晋中市,迎宾街26号,,26,24,46,7,23,82,,120,105,22,16,5,5,0.3,0.5
2025-06-02T2300,2439A,112.2014,31.0481,荆门市,竹园小学,细颗粒物(PM2.5),64,54,45,46,29,84,,129,99,24,12,7,5,0.5,0.3
2025-06-02T2300,2440A,112.1969,30.9891,荆门市,掇刀,细颗粒物(PM2.5),69,62,41,50,31,75,,132,105,22,9,8,5,0.6,0.5
2025-06-02T2300,2441A,112.2213,31.0386,荆门市,石化一小,颗粒物(PM10),56,61,48,35,28,55,,124,93,30,12,8,12,0.5,0.1
2025-06-02T2300,3012A,112.1849,31.0362,荆门市,西山林语,细颗粒物(PM2.5),52,36,35,36,25,65,,123,88,11,6,8,8,0.3,0.4
2025-06-02T2300,3547A,112.1632,31.0138,荆门市,龙泉中学南校,,45,45,30,27,23,56,,125,92,15,5,5,7,0.8,0.7
2025-06-02T2300,1844A,112.2494,30.3197,荆州市,市图书馆,,40,34,34,28,25,97,,145,123,28,15,4,5,0.7,0.7
2025-06-02T2300,1845A,112.2008,30.3544,荆州市,市委党校,,49,42,36,34,25,80,,142,115,41,20,5,8,0.5,0.5
2025-06-02T2300,3194A,112.2747,30.3122,荆州市,管委会,细颗粒物(PM2.5),52,41,34,36,28,91,,137,115,26,14,9,9,0.7,0.6
2025-06-02T2300,4268A,112.1722,30.3366,荆州市,学苑路85号,细颗粒物(PM2.5),59,,27,42,37,79,,134,107,35,17,3,3,0.3,0.3
2025-06-02T2300,2342A,117.3102,29.3867,景德镇市,王港中学,,,,,,,,,,,,,,,,
2025-06-02T2300,2343A,117.2117,29.2933,景德镇市,老干部活动中心,,25,10,7,3,1,77,,94,90,7,6,4,4,0.5,0.6
2025-06-02T2300,2344A,117.1894,29.2789,景德镇市,兽医站,,23,13,14,3,4,73,,92,89,4,6,4,5,0.7,0.9
2025-06-02T2300,2345A,117.1547,29.2617,景德镇市,台达陶瓷,,26,6,12,3,7,81,,93,91,9,11,5,41,0.5,0.7
2025-06-02T2300,2346A,117.2461,29.2956,景德镇市,陶研所,,24,7,9,7,4,75,,87,85,6,7,1,2,0.3,0.4
2025-06-02T2300,1803A,115.9872,29.6815,九江市,十里,,20,19,14,11,12,64,,69,69,15,6,2,2,0.5,0.7
2025-06-02T2300,1804A,115.9584,29.7046,九江市,茅山头,,29,18,16,12,15,90,,95,92,7,10,4,4,0.6,0.6
2025-06-02T2300,1805A,115.9877,29.7295,九江市,西园,,20,18,20,14,15,57,,99,90,31,22,5,8,0.8,0.9
2025-06-02T2300,1808A,115.9114,29.6038,九江市,综合工业园,,28,,11,13,7,88,,92,91,8,15,8,7,0.6,0.7
2025-06-02T2300,1809A,116.0721,29.7535,九江市,石化总厂,,46,,17,32,21,84,,84,82,8,13,5,6,0.7,0.8
2025-06-02T2300,1810A,115.9773,29.5698,九江市,庐山气象台,,25,6,4,3,3,79,,83,83,6,7,7,7,0.7,0.8
2025-06-02T2300,3190A,116.0254,29.6994,九江市,外国语学校,,22,22,15,13,11,60,,69,64,15,16,3,3,0.8,0.9
2025-06-02T2300,4253A,116.0102,29.6594,九江市,莲花大道8号,,18,17,10,8,7,55,,80,76,1,4,3,4,0.6,0.7
2025-06-02T2300,4240A,98.4958,39.7339,酒泉市,玉门东路5号,,32,29,49,22,21,94,,108,104,4,6,8,9,0.4,0.3
2025-06-02T2300,4241A,98.5099,39.7506,酒泉市,北大街108号,,32,,50,20,17,102,,116,113,7,9,10,11,0.2,0.2
2025-06-02T2300,2698A,76.0072,39.4467,喀什地区,巡警大队,颗粒物(PM10),72,94,95,39,25,70,,105,101,35,19,5,5,0.4,0.3
2025-06-02T2300,2699A,75.9755,39.4694,喀什地区,吾办,颗粒物(PM10),78,106,103,39,42,70,,103,98,34,18,6,8,0.4,0.2
2025-06-02T2300,4027A,75.9483,39.4689,喀什地区,老干局,颗粒物(PM10),81,112,89,30,19,62,,95,90,24,9,4,4,0.2,0.2
2025-06-02T2300,1824A,114.3389,34.7781,开封市,肿瘤医院,颗粒物(PM10),72,94,67,37,37,103,,211,175,23,17,8,8,0.7,0.7
2025-06-02T2300,1826A,114.2885,34.7965,开封市,世纪星幼儿园,颗粒物(PM10),73,95,74,28,51,110,,214,181,25,23,8,7,0.8,0.7
2025-06-02T2300,3147A,114.3438,34.8106,开封市,龙亭公园,颗粒物(PM10),69,88,62,30,36,116,,221,188,23,19,7,7,0.3,0.4
2025-06-02T2300,3210A,114.3644,34.7964,开封市,汴京公园,颗粒物(PM10),73,96,72,34,39,117,,222,187,21,17,7,8,0.9,0.8
2025-06-02T2300,3473A,114.2485,34.8306,开封市,技师学院,,,,63,,37,,,152,,,16,,11,,0.8
2025-06-02T2300,3592A,114.4644,34.7556,开封市,祥符区生态环境局,,50,45,61,35,36,116,,206,179,28,25,4,7,0.5,0.6
2025-06-02T2300,1951A,84.895,45.6094,克拉玛依市,长征新村,,25,18,27,7,4,78,,102,100,5,11,6,6,0.2,0.2
2025-06-02T2300,1952A,84.8988,45.5893,克拉玛依市,南林小区,,30,30,27,13,14,88,,101,92,2,15,10,11,0.2,0.2
2025-06-02T2300,1954A,84.905,44.3396,克拉玛依市,独山子区,,28,25,27,12,10,89,,104,103,6,6,6,6,0.2,0.3
2025-06-02T2300,1955A,85.6979,46.098,克拉玛依市,乌尔禾区商贸楼,,34,34,29,3,4,85,,92,91,2,6,3,3,0.2,0.2
2025-06-02T2300,3612A,85.1045,45.6899,克拉玛依市,白碱滩区新站,,40,40,31,20,17,95,,113,112,2,6,13,13,0.5,0.5
2025-06-02T2300,2697A,76.1454,39.7142,克孜勒苏柯尔克孜自治州,市人民政府,颗粒物(PM10),121,191,127,73,48,106,,109,106,5,5,2,3,0.1,0.6
2025-06-02T2300,3665A,76.1658,39.7157,克孜勒苏柯尔克孜自治州,克州文化中心,细颗粒物(PM2.5),103,152,135,77,55,106,,108,106,3,3,2,3,0.3,0.3
2025-06-02T2300,1450A,102.8204,24.8886,昆明市,呈贡新区,,16,11,20,8,9,49,,62,47,7,10,3,4,0.6,0.5
2025-06-02T2300,1451A,102.6251,24.9608,昆明市,西山森林公园,,,,,,,,,,,,,,,,
2025-06-02T2300,1452A,102.7252,25.0902,昆明市,龙泉镇,,16,15,17,3,6,49,,62,53,7,9,3,2,0.3,0.3
2025-06-02T2300,1453A,102.7266,25.0375,昆明市,东风东路,,16,13,14,8,7,51,,68,58,14,11,5,6,0.4,0.3
2025-06-02T2300,1454A,102.6742,25.0669,昆明市,金鼎山,,17,,16,9,8,52,,60,52,8,12,3,2,0.3,0.3
2025-06-02T2300,1455A,102.6644,25.0401,昆明市,碧鸡广场,,,,19,21,7,49,,65,55,10,14,5,6,,0.5
2025-06-02T2300,3179A,102.7494,25.0119,昆明市,官渡区博物馆,,22,,15,15,8,51,,66,51,14,10,6,6,0.4,0.4
2025-06-02T2300,3375A,102.8017,24.8336,昆明市,青年创业园,,17,12,12,3,5,52,,69,58,10,9,7,7,0.5,0.4
2025-06-02T2300,3550A,102.7997,24.9786,昆明市,昆明学院,,13,13,16,7,10,41,,67,49,19,11,4,5,0.3,0.3
2025-06-02T2300,3551A,102.5967,24.6736,昆明市,晋宁区生态环境分局,,16,11,13,3,7,49,,60,52,8,8,5,6,0.5,0.4
2025-06-02T2300,3552A,102.6678,24.9856,昆明市,云天化总部,,20,16,14,14,10,38,,59,46,16,9,3,4,0.4,0.4
2025-06-02T2300,1456A,91.1319,29.6514,拉萨市,八廓街,,42,13,12,7,7,132,,148,143,9,9,7,7,0.3,0.3
2025-06-02T2300,1457A,91.1221,29.6747,拉萨市,市环保局,,41,21,16,7,7,129,,143,138,8,10,5,6,0.3,0.3
2025-06-02T2300,1458A,91.0874,29.6475,拉萨市,区监测站,,44,13,11,7,7,138,,149,146,8,9,6,6,0.3,0.3
2025-06-02T2300,1459A,91.1774,29.6541,拉萨市,西藏大学,,43,7,12,7,7,135,,147,144,6,9,7,6,0.4,0.4
2025-06-02T2300,1460A,90.9798,29.6588,拉萨市,区辐射站,,37,33,17,13,7,118,,135,130,14,11,6,6,0.4,0.3
2025-06-02T2300,1461A,91.0834,29.6292,拉萨市,拉萨火车站,,44,10,8,8,6,140,,150,147,3,4,4,4,0.2,0.2
2025-06-02T2300,2520A,109.2203,23.7256,来宾市,来宾技工学校,,19,11,19,3,7,60,,57,57,6,9,6,5,0.7,0.6
2025-06-02T2300,3535A,109.1781,23.7297,来宾市,兴宾区政府,,20,7,17,3,6,61,,57,57,5,10,4,5,0.7,0.7
2025-06-02T2300,4002A,109.2416,23.7461,来宾市,中南小学,,20,14,21,3,7,62,,57,57,6,12,9,6,0.7,0.6
2025-06-02T2300,1477A,104.1373,35.9454,兰州市,榆中兰大校区,,,,,,,,,,,,,,,,
2025-06-02T2300,1479A,103.831,36.0464,兰州市,铁路设计院,,47,47,48,23,26,100,,114,105,16,35,10,14,0.4,0.5
2025-06-02T2300,3241A,103.7439,36.0842,兰州市,百合公园,颗粒物(PM10),53,56,50,19,14,29,,123,99,71,34,8,9,0.3,0.4
2025-06-02T2300,3242A,103.9611,35.998,兰州市,和平,,42,42,48,22,22,93,,128,117,14,19,7,12,0.2,0.4
2025-06-02T2300,4236A,103.6293,36.0938,兰州市,庄浪东路808号,,47,47,43,28,28,82,,117,101,29,26,9,12,0.3,0.3
2025-06-02T2300,4237A,103.7251,36.1043,兰州市,安宁西路88号,颗粒物(PM10),60,69,54,39,32,56,,136,115,38,20,6,10,0.4,0.3
2025-06-02T2300,4238A,103.8470,36.0676,兰州市,北滨河东路1号,,50,50,47,29,22,92,,122,111,25,37,11,13,0.5,0.6
2025-06-02T2300,3245A,103.6633,36.533,兰州新区,新区管委会,,39,39,39,24,20,110,,133,125,10,9,12,12,0.3,0.3
2025-06-02T2300,3246A,103.6975,36.4789,兰州新区,舟曲中学,,49,49,31,17,15,119,,136,127,9,10,7,15,0.3,0.3
2025-06-02T2300,1067A,116.6708,39.5111,廊坊市,药材公司,,22,12,56,6,31,69,,126,94,11,15,2,4,0.3,0.4
2025-06-02T2300,1068A,116.7214,39.5589,廊坊市,开发区,,19,19,62,6,28,56,,128,92,28,20,2,3,0.3,0.4
2025-06-02T2300,1070A,116.7244,39.5269,廊坊市,北华航天学院,,27,27,69,8,39,63,,124,90,19,17,2,4,0.2,0.4
2025-06-02T2300,2919A,116.7022,39.5453,廊坊市,河北工业大学,,22,12,67,12,37,70,,130,95,14,16,3,5,0.2,0.4
2025-06-02T2300,2535A,103.7723,29.5462,乐山市,花湖湾,,32,32,17,18,10,69,,108,101,19,15,5,4,0.4,0.5
2025-06-02T2300,2536A,103.7627,29.5844,乐山市,牛耳桥,,33,33,20,17,9,9,,96,70,56,22,7,8,1.3,1.1
2025-06-02T2300,2537A,103.7508,29.6006,乐山市,市第三水厂,,37,37,19,21,10,8,,90,70,70,27,5,5,1.1,0.9
2025-06-02T2300,2538A,103.7571,29.5664,乐山市,市监测站,,35,35,15,19,10,32,,100,89,49,14,8,7,1.1,0.8
2025-06-02T2300,3361A,103.7311,29.5628,乐山市,理工大学,,27,27,18,11,8,22,,91,78,42,17,6,7,0.9,0.8
2025-06-02T2300,2598A,100.2143,26.8576,丽江市,西南郊,,21,19,15,11,9,65,,89,88,6,7,6,16,0.8,1.7
2025-06-02T2300,2599A,100.2497,26.8802,丽江市,丽江古城,,,17,17,,13,67,,66,66,12,10,10,9,0.5,0.5
2025-06-02T2300,2600A,100.2203,26.8906,丽江市,市中心,,18,12,11,11,10,57,,58,57,11,10,7,6,0.7,0.6
2025-06-02T2300,1267A,119.914,28.4514,丽水市,监测站大楼,,18,6,24,3,13,57,,53,53,10,15,3,3,0.6,0.6
2025-06-02T2300,1268A,119.93,28.4586,丽水市,莲都小学,,21,6,23,3,9,65,,61,61,7,14,3,3,0.5,0.4
2025-06-02T2300,1269A,119.879,28.4231,丽水市,余庄前,,15,15,22,3,13,16,,33,28,7,10,4,3,0.7,0.6
2025-06-02T2300,1173A,119.176,34.5885,连云港市,市环境监测站,,31,27,14,19,9,97,,126,116,12,10,5,5,0.3,0.3
2025-06-02T2300,3000A,119.3581,34.6972,连云港市,德源药业,,29,29,10,17,8,76,,126,105,23,12,9,8,0.6,0.5
2025-06-02T2300,3007A,119.178,34.844,连云港市,新城一中,,38,,17,26,11,82,,141,111,20,6,7,6,0.6,0.5
2025-06-02T2300,3008A,119.3608,34.7519,连云港市,胡沟管理处,,29,29,12,17,9,41,,134,78,54,17,10,8,1.0,1.1
2025-06-02T2300,3009A,119.1478,34.5911,连云港市,矿山设计院,,30,24,13,19,9,93,,122,110,13,12,4,4,0.2,0.1
2025-06-02T2300,3434A,119.2413,34.6539,连云港市,工贸学校,,38,37,13,26,9,99,,134,120,6,5,8,7,0.6,0.5
2025-06-02T2300,3664A,119.4172,34.7341,连云港市,连云街道,,28,26,18,14,12,87,,133,91,7,12,6,7,0.6,0.4
2025-06-02T2300,2571A,102.3431,27.8099,凉山彝族自治州,青龙寺,,23,15,14,3,2,73,,64,58,4,3,6,6,0.8,0.9
2025-06-02T2300,2572A,102.2721,27.8415,凉山彝族自治州,邛海宾馆,,25,7,7,3,3,77,,74,73,7,8,7,7,0.7,0.8
2025-06-02T2300,2573A,102.2625,27.898,凉山彝族自治州,西昌市政府,,18,6,8,3,6,55,,70,67,9,8,7,8,0.6,0.8
2025-06-02T2300,2574A,102.2685,27.8851,凉山彝族自治州,凉山州政府,,19,8,8,3,3,60,,71,68,10,9,8,8,0.7,0.8
2025-06-02T2300,4229A,102.2342,27.8859,凉山彝族自治州,凯乐南路30号,,21,12,13,6,5,65,,69,68,12,9,5,6,0.5,0.6
2025-06-02T2300,2212A,123.2,41.1953,辽阳市,宏伟区,,30,30,52,18,23,79,,156,111,13,15,7,9,0.7,0.7
2025-06-02T2300,2213A,123.1683,41.2495,辽阳市,新华园,颗粒物(PM10),54,58,73,24,31,72,,152,110,28,25,6,9,0.8,0.9
2025-06-02T2300,2214A,123.2354,41.2639,辽阳市,滨河路,,33,29,59,23,39,62,,148,104,18,18,7,9,0.6,0.5
2025-06-02T2300,2215A,123.149,41.2991,辽阳市,铁西工业园,,49,49,87,25,34,58,,140,90,23,29,5,9,0.8,0.8
2025-06-02T2300,2227A,125.1358,42.8845,辽源市,环保局,,25,18,39,3,16,80,,150,110,13,33,2,4,0.3,0.4
2025-06-02T2300,3239A,125.0764,42.9078,辽源市,银鹰制药,,32,24,36,22,21,78,,158,110,20,34,30,16,0.2,0.4
2025-06-02T2300,1625A,115.9848,36.4372,聊城市,区政府,,43,42,60,30,32,104,,198,164,19,11,6,7,0.7,0.8
2025-06-02T2300,2878A,116.0072,36.4343,聊城市,聊大东校,颗粒物(PM10),51,51,61,31,38,108,,207,174,18,8,5,7,0.6,0.6
2025-06-02T2300,3200A,115.9819,36.4978,聊城市,监控中心,颗粒物(PM10),51,51,62,24,34,85,,208,162,29,14,7,8,0.9,0.8
2025-06-02T2300,3513A,116.0445,36.4361,聊城市,九州社区,颗粒物(PM10),51,52,64,24,36,104,,200,168,13,5,3,5,0.8,0.7
2025-06-02T2300,4018A,116.0567,36.4608,聊城市,星美广场,,49,49,64,28,29,88,,205,168,15,5,8,9,0.7,0.6
2025-06-02T2300,2632A,94.3681,29.6376,林芝市,林芝监测站,,25,6,5,6,5,79,,92,92,6,5,3,3,0.4,0.4
2025-06-02T2300,2633A,94.3616,29.6616,林芝市,林芝人民医院,,22,10,7,7,4,68,,80,80,5,4,6,6,0.4,0.4
2025-06-02T2300,2603A,100.0781,23.8982,临沧市,市环保局,,30,,18,21,19,16,,41,28,7,6,2,3,0.6,0.5
2025-06-02T2300,2604A,100.0894,23.8822,临沧市,市气象局,,22,22,15,14,9,27,,46,39,10,7,2,3,0.4,0.3
2025-06-02T2300,1733A,111.5531,36.0783,临汾市,临钢医院,,,,4,7,8,,,,,51,38,5,6,0.5,0.8
2025-06-02T2300,1734A,111.5028,36.0714,临汾市,技工学校,颗粒物(PM10),53,55,59,18,34,58,,150,114,34,17,6,9,0.4,0.7
2025-06-02T2300,1736A,111.5018,36.0855,临汾市,市委,颗粒物(PM10),67,83,72,12,26,48,,148,115,51,20,5,8,0.7,0.9
2025-06-02T2300,3018A,111.505,36.1014,临汾市,唐尧大酒店,颗粒物(PM10),57,63,74,11,23,72,,157,122,24,16,6,8,0.5,0.7
2025-06-02T2300,4244A,111.4879,36.0530,临汾市,启星学校,颗粒物(PM10),51,51,59,20,35,69,,152,116,32,19,4,7,0.5,0.8
2025-06-02T2300,4271A,103.2464,35.6123,临夏回族自治州,滨河东路1号,颗粒物(PM10),52,53,43,21,20,67,,99,85,19,10,7,8,0.3,0.4
2025-06-02T2300,4310A,103.2093,35.5995,临夏回族自治州,新华街21号,,48,48,47,21,20,83,,109,96,17,14,5,5,0.2,0.3
2025-06-02T2300,1618A,118.3429,35.0532,临沂市,沂河小区,,45,41,32,31,26,89,,149,133,21,14,13,6,0.3,0.4
2025-06-02T2300,1619A,118.295,35.0583,临沂市,鲁南制药厂,,44,44,29,22,22,89,,160,143,26,16,9,6,0.5,0.5
2025-06-02T2300,1620A,118.2794,34.9976,临沂市,新光毛纺厂,,44,44,26,24,21,84,,159,140,29,17,13,7,0.4,0.5
2025-06-02T2300,1621A,118.3956,35.0888,临沂市,河东保险公司,,36,36,26,23,17,81,,154,133,36,11,10,6,0.5,0.5
2025-06-02T2300,3370A,118.3564,35.0215,临沂市,十里堡居委,,39,36,24,27,20,93,,155,138,23,16,15,7,0.5,0.6
2025-06-02T2300,3496A,118.3604,35.1084,临沂市,南坊新区,,36,36,28,22,17,94,,146,133,18,13,14,6,0.4,0.5
2025-06-02T2300,3860A,118.3920,35.0300,临沂市,皇山花园小区,,31,31,24,20,19,90,,155,136,28,20,14,9,0.7,0.7
2025-06-02T2300,1870A,109.4856,24.3895,柳州市,柳东小学,,15,15,17,6,6,48,,49,42,6,6,9,10,0.4,0.4
2025-06-02T2300,1871A,109.4157,24.3277,柳州市,环保监测站,,20,9,16,3,3,63,,54,54,8,10,8,9,0.6,0.8
2025-06-02T2300,1872A,109.389,24.341,柳州市,河西水厂,,17,8,17,3,8,47,,52,52,20,10,13,6,1.7,0.7
2025-06-02T2300,1873A,109.4311,24.2921,柳州市,市四中,,19,9,13,3,10,60,,52,52,9,10,9,9,0.6,0.6
2025-06-02T2300,1874A,109.4006,24.3631,柳州市,市九中,,18,18,17,3,5,54,,50,50,10,10,10,12,0.6,0.9
2025-06-02T2300,1875A,109.4958,24.3134,柳州市,古亭山,,12,11,14,3,5,38,,49,41,5,4,5,5,0.4,0.4
2025-06-02T2300,3402A,109.5422,24.3996,柳州市,市二中,,14,9,14,3,6,42,,47,40,8,10,10,11,0.4,0.4
2025-06-02T2300,2307A,116.5079,31.737,六安市,监测大楼,,22,22,12,14,10,54,,107,95,19,5,3,3,0.4,0.3
2025-06-02T2300,2308A,116.4738,31.7643,六安市,皖西学院,,25,19,10,14,9,77,,107,99,8,4,4,4,0.3,0.2
2025-06-02T2300,2309A,116.4996,31.7905,六安市,朝阳厂,,25,18,7,14,9,77,,103,96,15,10,4,4,0.4,0.3
2025-06-02T2300,2310A,116.5567,31.7886,六安市,开发区,,23,19,10,16,10,40,,105,89,12,4,8,6,0.4,0.3
2025-06-02T2300,2576A,104.8,26.5892,六盘水市,窑上,,29,29,20,15,12,57,,72,72,4,5,3,2,0.4,0.4
2025-06-02T2300,2577A,104.83,26.5917,六盘水市,黄土坡,,30,7,8,3,5,93,,86,86,6,7,9,8,0.3,0.4
2025-06-02T2300,2578A,104.89,26.5939,六盘水市,水钢,,32,20,10,6,5,100,,80,80,4,13,8,9,0.2,0.4
2025-06-02T2300,2579A,104.8475,26.5894,六盘水市,民中,,27,14,8,3,1,85,,77,77,11,10,8,8,0.3,0.4
2025-06-02T2300,2580A,104.9544,26.5506,六盘水市,双水,,30,9,3,8,5,96,,80,80,14,12,11,9,0.4,0.3
2025-06-02T2300,2335A,117.0189,25.1181,龙岩市,龙岩师专,,,,,,,,,,,,,,,,
2025-06-02T2300,2336A,117.0217,25.1033,龙岩市,龙岩市监测站,,15,,19,10,19,46,,63,58,10,9,3,5,0.5,0.4
2025-06-02T2300,2337A,117.0258,25.0661,龙岩市,闽西职业技术学院,,15,6,21,3,11,46,,56,50,1,4,2,4,0.4,0.4
2025-06-02T2300,2338A,117.0196,25.0306,龙岩市,龙岩学院,,18,6,19,3,13,55,,60,55,4,5,7,8,0.3,0.4
2025-06-02T2300,2665A,105.0822,33.3261,陇南市,汉王镇固水子,,,,,,,,,,,,,,,,
2025-06-02T2300,2885A,104.9339,33.3826,陇南市,滨江中学,颗粒物(PM10),54,57,49,23,21,62,,83,76,14,12,8,8,0.6,0.5
2025-06-02T2300,3247A,104.955,33.371,陇南市,市总工会,,46,46,38,19,16,67,,90,87,14,8,8,8,0.5,0.5
2025-06-02T2300,2487A,111.9589,27.8901,娄底市,电视发射台,,38,38,24,18,10,25,,96,60,1,2,6,6,0.4,0.4
2025-06-02T2300,2488A,111.9975,27.725,娄底市,市监测站,颗粒物(PM10),52,53,25,26,19,57,,92,70,25,15,18,8,1.2,0.7
2025-06-02T2300,2489A,112.0194,27.7314,娄底市,市委党校,,50,45,23,35,17,56,,102,77,21,6,9,4,1.0,0.5
2025-06-02T2300,2490A,111.9561,27.7569,娄底市,涟钢,,44,44,24,28,14,61,,92,72,11,9,8,7,0.8,0.8
2025-06-02T2300,2491A,111.9892,27.7044,娄底市,市政府,,36,36,20,25,15,48,,96,71,9,8,5,5,0.7,0.7
2025-06-02T2300,1893A,105.4324,28.9634,泸州市,九狮山,,33,28,23,23,22,78,,94,83,19,14,5,5,0.4,0.4
2025-06-02T2300,1894A,105.4427,28.9063,泸州市,小市上码头,,26,26,18,12,7,56,,66,62,13,10,10,9,0.5,0.5
2025-06-02T2300,1895A,105.4241,28.8573,泸州市,兰田宪桥,,32,32,16,18,8,55,,89,76,20,8,8,8,0.4,0.3
2025-06-02T2300,1896A,105.4379,28.8833,泸州市,市环监站,,24,24,16,13,9,66,,91,84,15,9,8,7,0.4,0.3
2025-06-02T2300,4272A,105.3689,28.7783,泸州市,纳溪中医医院,,40,40,22,20,12,32,,85,62,31,20,6,6,0.8,0.8
2025-06-02T2300,2183A,111.1406,37.5211,吕梁市,环保局,颗粒物(PM10),85,120,41,15,19,20,,129,94,62,21,4,6,0.3,0.5
2025-06-02T2300,2185A,111.1297,37.5136,吕梁市,自来水公司,颗粒物(PM10),60,70,34,9,15,43,,121,96,36,19,3,4,0.3,0.3
2025-06-02T2300,2867A,111.1283,37.51,吕梁市,马茂庄小学,颗粒物(PM10),63,76,42,14,20,24,,123,93,58,23,3,5,0.5,0.6
2025-06-02T2300,1812A,112.3931,34.6516,洛阳市,市委党校,,45,45,39,24,26,95,,138,117,17,9,9,6,0.6,0.5
2025-06-02T2300,1815A,112.494,34.6886,洛阳市,河南林校,,48,48,45,31,32,89,,154,125,30,16,11,9,0.9,0.8
2025-06-02T2300,1816A,112.3844,34.623,洛阳市,开发区管委会,,38,38,41,20,28,120,,146,132,13,9,9,7,0.5,0.5
2025-06-02T2300,1817A,112.4267,34.6258,洛阳市,市委新办公区,,47,47,45,23,29,115,,146,130,11,11,9,7,0.5,0.6
2025-06-02T2300,3340A,112.6005,34.6326,洛阳市,伊滨,颗粒物(PM10),51,51,50,23,31,100,,159,134,21,14,6,6,0.5,0.5
2025-06-02T2300,3341A,112.4951,34.6332,洛阳市,中移产业园,颗粒物(PM10),51,51,50,25,28,99,,150,127,16,10,14,7,0.8,0.7
2025-06-02T2300,3593A,112.5736,34.8993,洛阳市,吉利监测站,颗粒物(PM10),53,55,52,21,28,106,,148,135,20,11,6,5,0.6,0.6
2025-06-02T2300,3635A,112.3677,34.662,洛阳市,河科大西苑校区,,50,50,44,18,22,104,,151,129,19,13,10,8,0.7,0.7
2025-06-02T2300,3636A,112.4388,34.6781,洛阳市,英才小学,颗粒物(PM10),52,54,48,25,26,96,,153,126,23,11,14,8,0.7,0.6
2025-06-02T2300,4214A,112.4600,34.6949,洛阳市,春都路1号院,颗粒物(PM10),53,55,52,21,28,106,,171,138,26,15,12,8,0.6,0.5
2025-06-02T2300,2399A,114.051,33.5699,漯河市,三五一五工厂,颗粒物(PM10),54,58,45,27,31,101,,175,146,24,14,6,5,0.8,0.8
2025-06-02T2300,2400A,114.0055,33.5698,漯河市,漯河大学,颗粒物(PM10),54,58,59,31,33,98,,178,146,24,15,3,5,0.5,0.5
2025-06-02T2300,2401A,114.0138,33.5828,漯河市,市水利局,颗粒物(PM10),51,51,52,29,33,102,,172,146,19,15,5,6,0.9,0.9
2025-06-02T2300,2402A,114.0261,33.5698,漯河市,市广电局,颗粒物(PM10),51,51,52,28,32,108,,173,149,18,13,3,4,0.7,0.7
2025-06-02T2300,3478A,113.9749,33.5664,漯河市,市图书馆,颗粒物(PM10),57,64,55,34,33,104,,167,144,17,16,3,5,0.7,0.7
2025-06-02T2300,4250A,114.0892,33.5882,漯河市,韶山路11号,颗粒物(PM10),54,57,50,35,31,115,,179,154,16,12,5,6,0.4,0.4
2025-06-02T2300,1798A,118.5092,31.6837,马鞍山市,湖东路四小,,21,18,14,11,7,66,,90,82,18,13,7,7,0.6,0.8
2025-06-02T2300,1799A,118.5024,31.6449,马鞍山市,开发区,,22,13,14,8,7,69,,90,81,14,15,6,7,0.5,0.8
2025-06-02T2300,1802A,118.6245,31.7241,马鞍山市,濮塘,,19,15,11,8,7,58,,100,84,5,3,7,7,0.7,0.8
2025-06-02T2300,3633A,118.4918,31.6809,马鞍山市,雨山,,19,19,15,10,7,54,,87,77,25,18,11,7,1.6,1
2025-06-02T2300,4191A,118.5274,31.72227,马鞍山市,慈湖高新区,,40,30,13,28,13,58,,98,87,24,11,6,6,0.6,0.6
2025-06-02T2300,1686A,111.0286,21.4688,茂名市,电白南海,,,29,31,14,17,55,,78,63,,7,3,3,0.4,0.6
2025-06-02T2300,1687A,110.9294,21.6533,茂名市,茂石化七小,,36,36,33,12,12,47,,84,66,14,11,2,4,0.6,0.4
2025-06-02T2300,1688A,110.9107,21.6687,茂名市,健康路,,39,39,31,9,14,48,,92,76,15,10,6,5,0.5,0.4
2025-06-02T2300,1689A,110.8592,21.6828,茂名市,高岭,,44,44,45,9,9,38,,82,65,23,14,3,4,0.5,0.4
2025-06-02T2300,3450A,111.01,21.5165,茂名市,电白水东,,19,19,25,7,8,53,,74,64,10,11,3,3,0.5,0.5
2025-06-02T2300,2539A,104.0308,30.0478,眉山市,黑龙滩水库,,38,38,15,15,11,26,,96,78,27,13,3,2,0.4,0.4
2025-06-02T2300,2540A,103.8416,30.0874,眉山市,气象局,,47,47,26,17,9,26,,86,69,47,27,2,2,0.5,0.4
2025-06-02T2300,3137A,103.8578,30.0744,眉山市,市委党校,,48,48,21,19,5,2,,73,46,78,34,10,10,1.0,0.6
2025-06-02T2300,3148A,103.8291,30.0564,眉山市,区人社局,,34,34,22,9,5,18,,83,61,63,30,18,17,0.8,0.4
2025-06-02T2300,1690A,116.1231,24.3284,梅州市,梅江月梅,,31,31,24,17,19,29,,62,43,7,5,5,6,0.6,0.6
2025-06-02T2300,1691A,116.0797,24.2719,梅州市,梅县新城,,25,17,23,17,19,35,,63,47,11,9,6,7,0.6,0.6
2025-06-02T2300,1692A,116.1248,24.2654,梅州市,环境监控中心,,22,,24,15,19,18,,54,36,19,13,2,3,0.5,0.5
2025-06-02T2300,3315A,116.1233,24.2991,梅州市,梅龙,,18,12,21,12,14,41,,65,48,7,7,6,7,0.5,0.5
2025-06-02T2300,1878A,104.7778,31.4741,绵阳市,富乐山,,44,44,29,24,14,46,,68,61,38,19,8,8,0.7,0.5
2025-06-02T2300,1880A,104.6697,31.4668,绵阳市,高新区自来水公司,颗粒物(PM10),55,60,26,24,15,0,,75,50,85,33,5,4,1.1,0.8
2025-06-02T2300,1881A,104.7287,31.5075,绵阳市,三水厂,颗粒物(PM10),56,62,33,28,16,6,,66,47,60,31,9,8,0.8,0.6
2025-06-02T2300,3491A,104.69,31.5322,绵阳市,西科大附属小学,颗粒物(PM10),71,92,38,43,15,12,,70,52,59,28,8,7,0.7,0.5
2025-06-02T2300,3492A,104.5648,31.5343,绵阳市,安州区旅游局,颗粒物(PM10),62,73,33,34,17,12,,80,62,43,18,6,6,0.8,0.9
2025-06-02T2300,4226A,104.7651,31.4531,绵阳市,绵阳市气象局,颗粒物(PM10),61,72,34,32,16,2,,66,52,81,32,3,4,1.1,0.7
2025-06-02T2300,1784A,129.61,44.561,牡丹江市,环保大楼,,38,31,30,26,20,74,,137,103,18,15,9,9,0.3,0.2
2025-06-02T2300,1785A,129.6115,44.5782,牡丹江市,文化广场,,42,34,33,29,17,80,,135,104,19,18,10,10,0.6,0.5
2025-06-02T2300,1786A,129.5904,44.5963,牡丹江市,第一医院,,24,23,25,15,13,75,,145,107,23,16,5,4,0.6,0.5
2025-06-02T2300,1787A,129.6364,44.6075,牡丹江市,机车工厂,,27,27,34,12,9,68,,135,94,19,16,6,5,0.5,0.3
2025-06-02T2300,1788A,129.6386,44.5462,牡丹江市,第一中学,,27,27,24,14,9,54,,134,96,25,15,7,7,0.5,0.4
2025-06-02T2300,2531A,105.0703,29.61,内江市,市监测站,,35,,25,24,16,53,,96,84,28,19,9,9,1.0,1
2025-06-02T2300,2532A,105.0717,29.5947,内江市,东兴区政府,,26,26,19,11,10,58,,104,96,27,18,5,6,0.7,0.7
2025-06-02T2300,2533A,105.0653,29.5817,内江市,内江二中,,33,31,22,23,18,55,,100,94,15,17,6,6,0.5,0.5
2025-06-02T2300,2534A,105.0406,29.5822,内江市,内江日报社,,26,24,19,18,17,47,,95,85,30,14,9,10,0.8,0.7
2025-06-02T2300,2628A,92.0657,31.4846,那曲市,那曲监测站,,45,10,12,10,5,142,,149,146,11,8,7,7,0.2,0.3
2025-06-02T2300,4243A,92.0515,31.4787,那曲市,那曲市委宣传部,,50,6,7,3,4,158,,157,156,3,5,6,6,0.2,0.2
2025-06-02T2300,1290A,115.8931,28.6843,南昌市,省外办,,31,,8,19,7,97,,102,99,13,11,9,8,0.7,0.8
2025-06-02T2300,1291A,115.8886,28.7003,南昌市,省林业公司,,29,12,4,7,4,91,,98,96,10,5,7,8,0.5,0.6
2025-06-02T2300,1292A,115.8126,28.7442,南昌市,林科所,,23,9,2,7,3,71,,90,86,17,8,4,4,0.3,0.7
2025-06-02T2300,1294A,115.8518,28.687,南昌市,建工学校,细颗粒物(PM2.5),62,,17,44,20,87,,95,93,14,10,5,4,0.5,0.4
2025-06-02T2300,1295A,115.8921,28.6424,南昌市,象湖,,27,14,4,9,4,85,,91,90,11,9,6,6,0.6,0.7
2025-06-02T2300,1296A,115.7423,28.7996,南昌市,武术学校,,,,20,12,8,27,,76,59,2,3,3,10,0.3,0.6
2025-06-02T2300,3046A,115.9084,28.6062,南昌市,机电学校,,28,22,12,12,5,87,,92,91,11,8,4,3,0.4,0.5
2025-06-02T2300,3690A,115.9721,28.7031,南昌市,外国语学校,,29,15,8,12,8,91,,94,94,9,9,7,7,0.1,0.2
2025-06-02T2300,4192A,115.9316,28.68677,南昌市,南京东路235号,,28,28,14,10,2,87,,91,90,8,8,5,6,0.6,0.7
2025-06-02T2300,1905A,106.056,30.8064,南充市,西山风景区,,,,,,,,,,,,,,,,
2025-06-02T2300,1906A,106.0789,30.8023,南充市,南充市委,,37,37,24,25,16,83,,106,102,16,13,6,7,0.5,0.4
2025-06-02T2300,1907A,106.1031,30.8217,南充市,南充炼油厂,,38,34,25,26,15,76,,100,96,15,14,5,6,0.5,0.4
2025-06-02T2300,4227A,106.1083,30.7884,南充市,梨树横街98号,,47,47,27,30,16,76,,101,97,13,13,3,4,0.3,0.4
2025-06-02T2300,4304A,106.1172,30.843,南充市,清泉寺北路188号,,42,40,26,29,16,77,,96,94,14,13,5,5,0.4,0.4
2025-06-02T2300,4305A,106.067,30.7616,南充市,同庆路1号,,40,40,23,24,16,73,,102,98,13,13,3,3,0.4,0.3
2025-06-02T2300,1151A,118.8086,32.1065,南京市,迈皋桥,,21,12,7,7,7,67,,97,85,13,6,4,4,0.4,0.4
2025-06-02T2300,1152A,118.7538,32.0551,南京市,草场门,,26,12,9,9,7,81,,97,92,17,16,1,2,0.3,0.5
2025-06-02T2300,1153A,118.7794,32.0745,南京市,山西路,,28,9,11,3,3,89,,103,98,3,3,3,4,0.1,0.2
2025-06-02T2300,1154A,118.7752,32.0023,南京市,中华门,,25,14,9,7,6,79,,92,88,19,10,4,4,0.4,0.5
2025-06-02T2300,1155A,118.8109,32.0309,南京市,瑞金路,,26,14,8,7,6,83,,94,87,13,5,6,6,0.1,0.2
2025-06-02T2300,1156A,118.7997,32.0754,南京市,玄武湖,,,17,15,,4,78,,88,80,11,11,4,4,0.4,0.4
2025-06-02T2300,1157A,118.6414,32.0931,南京市,浦口,,25,15,10,3,3,79,,98,90,11,9,3,3,0.5,0.5
2025-06-02T2300,1158A,118.7356,31.9996,南京市,奥体中心,,27,17,8,7,6,85,,108,103,13,10,2,2,0.2,0.3
2025-06-02T2300,1159A,118.9125,32.1028,南京市,仙林大学城,,24,24,13,12,3,67,,99,87,20,10,9,7,0.5,0.5
2025-06-02T2300,3422A,118.8436,31.9198,南京市,江宁彩虹桥,,24,22,10,7,8,76,,104,94,18,10,4,4,0.5,0.4
2025-06-02T2300,3427A,118.8554,32.3578,南京市,六合雄州,,27,17,9,7,5,85,,111,97,20,12,7,5,0.4,0.4
2025-06-02T2300,4249A,118.8708,31.3402,南京市,汶溪路181号,,21,12,8,6,8,66,,101,85,12,12,2,4,0.5,0.5
2025-06-02T2300,4312A,119.019,31.6512,南京市,中山西路1号,,24,12,7,7,5,74,,110,98,9,3,4,4,0.4,0.5
2025-06-02T2300,1401A,108.3103,22.7881,南宁市,二十一中,,15,,30,10,15,36,,78,50,17,14,1,2,0.6,0.6
2025-06-02T2300,1402A,108.3141,22.8528,南宁市,北湖,,13,10,33,7,16,41,,69,50,12,12,4,6,0.7,0.7
2025-06-02T2300,1403A,108.3206,22.8225,南宁市,市监测站,,19,,28,13,17,31,,58,38,10,10,1,3,0.7,0.7
2025-06-02T2300,1404A,108.3829,22.8037,南宁市,大自然花园,,16,12,30,11,14,49,,78,54,9,8,5,5,0.6,0.6
2025-06-02T2300,1405A,108.4394,22.7904,南宁市,仙葫,,16,7,26,6,13,50,,69,51,8,9,7,7,0.9,0.8
2025-06-02T2300,1406A,108.2397,22.8467,南宁市,区农职院,,,,35,7,16,44,,68,50,9,12,8,5,0.6,0.6
2025-06-02T2300,1407A,108.3275,22.735,南宁市,英华嘉园,,15,11,29,8,14,47,,88,59,10,10,7,8,0.5,0.5
2025-06-02T2300,3401A,108.4834,22.7618,南宁市,红星社区,,19,,26,10,13,60,,81,59,4,7,2,2,0.5,0.5
2025-06-02T2300,4221A,108.2177,22.7774,南宁市,乐贤路16号,,19,,38,13,18,42,,67,46,10,17,7,7,0.5,0.6
2025-06-02T2300,2331A,118.0966,26.6761,南平市,茫荡山,,,,,,,,,,,,,,,,
2025-06-02T2300,2332A,118.1681,26.6369,南平市,南平市监测站,,14,,16,6,15,42,,76,52,5,10,4,5,0.6,0.6
2025-06-02T2300,2333A,118.1825,26.6489,南平市,南平铝业有限公司,,,,22,6,16,43,,76,52,6,10,3,4,0.7,0.6
2025-06-02T2300,2334A,118.1756,26.6272,南平市,南平七中,,12,11,20,8,15,36,,78,51,4,8,4,4,0.7,0.6
2025-06-02T2300,1168A,120.9098,31.9663,南通市,狼山街道,,31,8,2,3,1,98,,105,102,6,5,3,3,0.5,0.6
2025-06-02T2300,1169A,120.86,32.0005,南通市,虹桥,,32,13,4,7,4,102,,110,107,13,10,2,1,0.3,0.3
2025-06-02T2300,1170A,120.87,32.02,南通市,城中,,33,15,5,3,1,103,,108,105,7,8,5,2,0.6,0.5
2025-06-02T2300,1171A,120.94,31.93,南通市,星湖花园,,32,6,1,3,2,101,,102,100,6,7,3,2,0.3,0.3
2025-06-02T2300,1172A,120.81,32.0417,南通市,紫琅学院,,29,8,3,3,0,90,,99,95,8,7,4,4,0.3,0.3
2025-06-02T2300,3291A,121.067,32.062,南通市,通州监测站,,31,19,4,7,1,98,,116,110,6,3,4,5,0.4,0.5
2025-06-02T2300,3432A,120.9348,31.9883,南通市,环境教育馆,,34,17,7,3,1,107,,114,112,8,7,2,2,0.2,0.2
2025-06-02T2300,2404A,112.5224,33.0122,南阳市,瓦房庄,,44,44,48,19,25,75,,139,121,18,14,7,6,0.6,0.5
2025-06-02T2300,2405A,112.5003,32.9735,南阳市,汉画馆,,49,49,43,18,22,50,,125,101,32,18,8,6,0.5,0.5
2025-06-02T2300,2406A,112.5573,33.027,南阳市,气象站,,43,43,42,27,26,76,,132,117,14,10,6,6,0.5,0.4
2025-06-02T2300,2407A,112.5481,32.9689,南阳市,理工学院,,48,48,43,23,25,63,,132,115,22,10,6,5,0.4,0.6
2025-06-02T2300,4008A,112.5234,32.9922,南阳市,卧龙区政府,,38,38,37,26,29,64,,128,110,18,13,5,5,0.5,0.5
2025-06-02T2300,1234A,121.8358,29.911,宁波市,区环保大楼,,27,20,36,15,17,85,,99,98,16,35,11,9,0.6,0.8
2025-06-02T2300,1235A,121.56,29.82,宁波市,万里学院,,30,15,21,15,15,94,,107,106,11,23,8,9,0.5,0.7
2025-06-02T2300,1236A,121.713,29.9572,宁波市,龙赛医院,,25,21,26,12,13,80,,104,101,16,24,2,8,0.5,0.6
2025-06-02T2300,1239A,121.633,29.7733,宁波市,钱湖水厂,,29,14,18,11,14,91,,103,103,14,16,9,9,0.5,0.6
2025-06-02T2300,1240A,121.5856,29.8635,宁波市,太古小学,,30,12,26,10,14,94,,108,106,10,20,7,6,0.5,0.7
2025-06-02T2300,1241A,121.524,29.8674,宁波市,市环境监测中心,,27,,19,14,15,84,,99,97,16,25,9,9,0.5,0.7
2025-06-02T2300,2871A,121.6147,29.9017,宁波市,万里国际学校,,23,,17,9,13,73,,93,88,28,26,6,6,0.4,0.6
2025-06-02T2300,3710A,121.5594,29.8975,宁波市,白沙活动中心,,29,13,16,9,9,90,,105,103,7,13,9,8,0.5,0.6
2025-06-02T2300,2339A,119.5001,26.6946,宁德市,金涵水库,,,,,,,,,,,,,,,,
2025-06-02T2300,2341A,119.5388,26.6612,宁德市,宁德市监测站,,46,46,50,24,28,78,,124,100,15,18,4,5,0.8,0.9
2025-06-02T2300,3209A,119.5231,26.6562,宁德市,宁德一中,,48,40,49,33,35,54,,122,92,14,13,4,5,1.0,0.9
2025-06-02T2300,2618A,98.8601,25.8567,怒江傈僳族自治州,州监测站,,19,18,14,10,8,58,,65,65,4,3,10,9,0.4,0.3
2025-06-02T2300,2619A,98.8546,25.8417,怒江傈僳族自治州,泸水一中,,12,6,7,3,4,36,,47,45,8,7,5,5,0.4,0.4
2025-06-02T2300,1888A,101.6891,26.571,攀枝花市,弄弄坪,,18,13,48,3,12,56,,65,61,9,20,6,9,0.6,0.7
2025-06-02T2300,1889A,101.5769,26.5928,攀枝花市,河门口,,23,23,30,6,11,46,,71,59,13,13,12,14,1.0,0.8
2025-06-02T2300,1890A,101.7169,26.585,攀枝花市,炳草岗,,20,20,37,9,13,54,,62,58,9,19,8,12,0.7,0.7
2025-06-02T2300,1891A,101.7369,26.5008,攀枝花市,仁和,,13,13,23,7,13,32,,60,49,11,14,8,11,0.6,0.9
2025-06-02T2300,2835A,101.7227,26.567,攀枝花市,四十中小,,21,19,28,6,15,65,,72,70,5,16,7,12,0.8,0.8
2025-06-02T2300,1604A,122.0303,41.1489,盘锦市,开发区,细颗粒物(PM2.5),52,47,44,36,32,142,,155,145,11,12,9,10,0.6,0.7
2025-06-02T2300,1605A,122.0485,41.0883,盘锦市,兴隆台,细颗粒物(PM2.5),60,46,51,43,42,138,,151,144,20,20,6,8,0.5,0.5
2025-06-02T2300,1606A,121.8297,41.1028,盘锦市,新生街道,细颗粒物(PM2.5),58,,39,41,50,121,,157,150,13,17,7,9,0.4,0.5
2025-06-02T2300,1832A,113.3257,33.742,平顶山市,新华旅馆,颗粒物(PM10),53,56,46,36,25,99,,155,134,13,12,5,6,0.6,0.5
2025-06-02T2300,1833A,113.2919,33.737,平顶山市,规划设计院,细颗粒物(PM2.5),58,61,55,41,38,60,,153,126,43,16,5,6,0.9,0.7
2025-06-02T2300,1834A,113.182,33.774,平顶山市,平顶山工学院,,42,42,48,29,31,119,,150,136,11,12,4,5,0.6,0.6
2025-06-02T2300,3204A,113.3025,33.73,平顶山市,规划局,颗粒物(PM10),52,53,50,29,26,89,,146,128,25,15,6,8,0.7,0.6
2025-06-02T2300,3594A,112.8867,33.9116,平顶山市,石龙区,,44,44,52,25,33,97,,145,126,21,22,8,8,0.6,0.6
2025-06-02T2300,2656A,106.6692,35.5461,平凉市,聚贤嘉苑,,,,,,,,,,,,,,,,
2025-06-02T2300,2657A,106.7021,35.5307,平凉市,博物馆,颗粒物(PM10),56,61,50,21,16,53,,127,109,35,20,10,9,0.7,0.7
2025-06-02T2300,2347A,114.0997,27.5002,萍乡市,武功山,,19,,5,13,5,54,,76,68,4,5,10,12,0.6,0.6
2025-06-02T2300,2348A,113.8385,27.6434,萍乡市,中医院,,43,32,24,30,17,59,,85,79,20,9,20,12,0.9,1
2025-06-02T2300,2349A,113.8493,27.6253,萍乡市,市政府车库,,,19,17,,27,59,,72,68,12,11,11,8,0.4,0.6
2025-06-02T2300,2350A,113.8676,27.6435,萍乡市,市环保局,,33,33,20,16,12,61,,80,77,15,9,14,8,0.7,0.9
2025-06-02T2300,2351A,113.866,27.6198,萍乡市,安源区政府,,19,17,19,10,11,60,,69,66,8,8,4,3,0.5,0.6
2025-06-02T2300,2319A,119.0141,25.4325,莆田市,荔城区仓后路,,49,49,51,13,25,30,,122,67,22,16,3,4,0.5,0.6
2025-06-02T2300,2320A,119.0015,25.4553,莆田市,莆田市监测站,颗粒物(PM10),52,54,48,11,24,35,,142,78,22,14,3,4,0.5,0.5
2025-06-02T2300,2321A,119.1119,25.4561,莆田市,涵江区六中,,41,41,50,18,29,30,,125,64,24,20,3,3,0.3,0.4
2025-06-02T2300,2322A,119.1013,25.3215,莆田市,秀屿区政府,,32,32,35,3,20,46,,114,68,10,13,4,5,0.4,0.5
2025-06-02T2300,2323A,118.981,25.4792,莆田市,东圳水库,,,,,,,,,,,,,,,,
2025-06-02T2300,2392A,115.0312,35.7636,濮阳市,环保局,颗粒物(PM10),77,103,65,50,46,160,,186,174,25,18,8,9,1.0,0.9
2025-06-02T2300,2394A,115.0574,35.7609,濮阳市,油田运输公司,颗粒物(PM10),79,108,80,48,42,148,,190,176,27,20,7,8,0.9,0.8
2025-06-02T2300,3021A,115,35.7668,濮阳市,濮水河管理处,"颗粒物(PM10),细颗粒物(PM2.5)",68,85,79,49,50,142,,185,159,26,20,5,6,0.9,0.8
2025-06-02T2300,4216A,115.0924,35.7686,濮阳市,任丘路479号,颗粒物(PM10),77,104,85,53,47,173,,195,183,15,14,8,8,1.0,0.9
2025-06-02T2300,2601A,100.98,22.7633,普洱市,市环保局,,28,28,25,18,11,33,,44,39,3,4,4,4,0.5,0.5
2025-06-02T2300,2602A,100.9817,22.8322,普洱市,普洱第二中学,,28,22,18,19,13,29,,46,37,4,7,6,5,0.5,0.5
2025-06-02T2300,2262A,131.0518,45.8751,七台河市,新一中,,33,,23,18,12,103,,136,123,14,13,10,10,1.1,0.9
2025-06-02T2300,3345A,131.0577,45.7879,七台河市,中波台,,26,8,24,7,9,82,,101,93,14,19,7,7,0.3,0.3
2025-06-02T2300,3637A,131.0176,45.7761,七台河市,人民广场,,28,17,28,8,14,87,,111,106,16,14,12,12,0.6,0.4
2025-06-02T2300,3684A,130.8781,45.8222,七台河市,新建矿广场,,25,,38,15,13,80,,115,102,14,15,13,9,0.4,0.3
2025-06-02T2300,1779A,123.9305,47.3636,齐齐哈尔市,安居小区,,21,21,30,9,13,64,,93,78,13,22,4,3,0.5,0.5
2025-06-02T2300,1780A,123.9488,47.3386,齐齐哈尔市,中心广场,,23,23,29,7,12,64,,100,82,17,17,5,5,0.4,0.4
2025-06-02T2300,1781A,123.9483,47.3227,齐齐哈尔市,农牧车辆厂,,24,24,31,11,17,62,,92,78,10,16,5,5,0,0.1
2025-06-02T2300,1783A,123.945,47.2988,齐齐哈尔市,市环境监测站,,19,16,27,11,16,60,,94,76,9,16,3,3,0.2,0.2
2025-06-02T2300,3662A,123.6333,47.2075,齐齐哈尔市,富区青少年活动中心,,25,20,31,17,24,68,,101,84,7,11,2,3,0.3,0.3
2025-06-02T2300,2591A,107.9783,26.5747,黔东南苗族侗族自治州,市环境监测站,,22,,7,11,7,68,,76,75,7,4,1,1,0.5,0.5
2025-06-02T2300,2881A,107.8908,26.5311,黔东南苗族侗族自治州,凯里学院,,20,14,5,6,6,64,,76,74,7,5,3,2,0.4,0.4
2025-06-02T2300,2593A,107.5228,26.2403,黔南布依族苗族自治州,小围寨,,14,14,8,3,2,32,,47,42,10,6,3,2,0.3,0.4
2025-06-02T2300,3538A,107.5175,26.2978,黔南布依族苗族自治州,沙坝,,15,14,12,7,3,47,,66,56,4,5,3,3,0.4,0.5
2025-06-02T2300,2589A,104.9022,25.0925,黔西南布依族苗族自治州,场坝街,,22,17,22,7,11,70,,78,71,8,9,2,2,0.3,0.4
2025-06-02T2300,2590A,104.8811,25.0992,黔西南布依族苗族自治州,坪东大道,,17,17,22,8,12,43,,62,54,10,12,1,1,0.1,0.2
2025-06-02T2300,2502A,108.6236,21.9667,钦州市,市环保站,,22,22,38,3,12,44,,120,84,12,13,6,6,1.8,0.3
2025-06-02T2300,2503A,108.6549,21.9481,钦州市,沙埠小学,,20,14,37,14,17,48,,125,88,10,13,5,7,0.5,0.5
2025-06-02T2300,2504A,108.5989,21.7431,钦州市,港区一小,,22,22,49,11,14,34,,78,64,16,16,8,10,0.7,0.6
2025-06-02T2300,3404A,108.5959,21.9633,钦州市,北职校,,18,18,38,7,17,46,,118,81,6,13,6,12,0.5,0.7
2025-06-02T2300,1043A,119.7493,40.0116,秦皇岛市,第一关,,39,,74,27,41,80,,180,129,10,37,4,7,0.1,0.4
2025-06-02T2300,1044A,119.5897,39.9499,秦皇岛市,监测站,,27,26,77,12,35,84,,169,122,9,34,5,7,0.2,0.6
2025-06-02T2300,1046A,119.5251,39.9041,秦皇岛市,建设大厦,,34,34,69,17,34,76,,170,121,16,31,3,7,0.2,0.5
2025-06-02T2300,3132A,119.610547,39.943889,秦皇岛市,文明里,,27,27,84,15,30,78,,173,133,9,27,6,7,0.3,0.4
2025-06-02T2300,4198A,119.5090,39.8253,秦皇岛市,北戴河轮滑馆,,43,,66,30,41,75,,183,144,10,13,3,5,0.2,0.5
2025-06-02T2300,1307A,120.6659,36.2403,青岛市,仰口,,28,,16,19,19,87,,135,101,8,6,8,8,0.5,0.5
2025-06-02T2300,1310A,120.4134,36.0658,青岛市,市南区东部子站,,39,9,17,3,15,122,,142,125,2,4,8,8,0.3,0.3
2025-06-02T2300,1311A,120.3664,36.1032,青岛市,四方区子站,,40,,13,12,16,128,,151,135,6,7,3,3,0.5,0.5
2025-06-02T2300,1312A,120.2994,36.054,青岛市,市南区西部子站,,37,17,16,15,14,118,,137,125,5,10,7,7,0.6,0.6
2025-06-02T2300,1313A,120.4581,36.0858,青岛市,崂山区子站,,37,7,14,3,12,117,,143,126,5,4,6,6,0.4,0.4
2025-06-02T2300,1315A,120.3999,36.3083,青岛市,城阳区子站,,33,12,17,12,13,105,,134,116,11,10,5,5,0.4,0.4
2025-06-02T2300,1966A,120.0405,35.8735,青岛市,黄岛区4号,,36,22,15,19,12,113,,150,132,14,9,8,8,0.6,0.6
2025-06-02T2300,3362A,120.5014,36.4034,青岛市,即墨2号,,34,19,23,19,20,106,,138,122,11,7,8,7,0.2,0.2
2025-06-02T2300,3642A,120.3503,36.0736,青岛市,市北区南部,,32,18,21,7,12,102,,128,111,8,8,6,6,0.4,0.4
2025-06-02T2300,3643A,120.3948,36.1805,青岛市,李沧区北部,,33,,16,14,18,103,,133,116,14,8,7,7,0.4,0.4
2025-06-02T2300,4290A,120.1969,35.9546,青岛市,珠江路669号,,41,12,12,7,13,129,,145,135,1,4,6,6,0.5,0.5
2025-06-02T2300,1702A,113.0426,23.691,清远市,环保大楼,,17,,38,11,20,53,,84,68,6,19,5,5,0.9,0.9
2025-06-02T2300,1703A,113.0208,23.7106,清远市,凤城街办,,16,8,30,6,18,50,,82,65,9,21,8,7,0.6,0.6
2025-06-02T2300,3025A,113.0477,23.6344,清远市,技师学院,,22,22,31,11,18,35,,104,75,12,18,6,6,0.6,0.5
2025-06-02T2300,3318A,112.9903,23.7403,清远市,清新太和,,16,9,29,3,19,50,,72,58,4,13,7,6,0.6,0.6
2025-06-02T2300,3455A,113.076,23.7198,清远市,清城东城,,15,15,33,7,18,35,,88,68,8,13,7,7,0.5,0.5
2025-06-02T2300,2661A,107.6325,35.7357,庆阳市,庆阳五中,颗粒物(PM10),55,59,39,21,19,71,,108,103,33,12,19,5,0.5,0.4
2025-06-02T2300,2662A,107.6364,35.7067,庆阳市,市环保局,,40,40,39,13,15,92,,111,106,16,9,6,6,0.6,0.6
2025-06-02T2300,1916A,103.7897,25.5035,曲靖市,环境监测站,,17,17,20,6,9,54,,51,48,14,13,6,6,0.6,0.6
2025-06-02T2300,1917A,103.8,25.5364,曲靖市,烟厂办公区,,16,10,19,7,11,51,,50,47,15,12,7,7,0.9,0.8
2025-06-02T2300,3376A,103.7947,25.462,曲靖市,南苑二区,,18,10,20,6,8,57,,55,51,13,12,3,4,0.7,0.7
2025-06-02T2300,3377A,103.7444,25.5261,曲靖市,曲靖师范学院,,20,14,20,11,13,62,,59,57,8,12,5,9,0.6,0.6
2025-06-02T2300,1264A,118.8692,28.9398,衢州市,环保大楼,,18,8,21,6,14,55,,61,60,6,13,4,3,0.5,0.6
2025-06-02T2300,1265A,118.8709,28.9666,衢州市,实验学校,,17,14,20,9,13,53,,60,59,8,14,3,2,0.6,0.5
2025-06-02T2300,1266A,118.8621,28.9808,衢州市,衢州学院,,17,12,17,9,14,52,,56,56,9,17,5,5,0.6,0.5
2025-06-02T2300,1611A,118.5819,24.9117,泉州市,涂山街,,36,36,43,15,22,37,,122,71,20,20,1,4,0.6,0.7
2025-06-02T2300,1612A,118.5972,24.8978,泉州市,津头埔,,32,32,36,10,16,37,,118,70,19,20,2,4,0.6,0.6
2025-06-02T2300,1613A,118.6663,24.9424,泉州市,万安,,33,33,38,11,18,41,,122,72,9,13,3,5,0.5,0.5
2025-06-02T2300,1614A,118.6117,24.9604,泉州市,清源山,,,,,,,,,,,,,,,,
2025-06-02T2300,3529A,118.6333,24.9264,泉州市,城华南路,,30,30,31,13,19,33,,110,63,17,18,3,5,0.4,0.5
2025-06-02T2300,2626A,88.8876,29.2718,日喀则市,日喀则监测站,,45,16,14,6,5,142,,169,164,4,4,16,17,0.1,0.1
2025-06-02T2300,3726A,88.8781,29.2426,日喀则市,林业技术推广中心,,45,18,16,7,4,144,,165,162,2,3,5,5,0.1,0.1
2025-06-02T2300,1659A,119.471,35.4209,日照市,监测站,,34,17,19,17,15,108,,139,116,17,17,5,5,0.4,0.4
2025-06-02T2300,1660A,119.523,35.4216,日照市,市政府广场,,27,27,18,11,12,85,,127,110,26,7,5,4,0.5,0.5
2025-06-02T2300,1661A,119.5587,35.4044,日照市,港务局,,41,41,17,21,19,91,,151,126,32,7,8,7,0.4,0.4
2025-06-02T2300,3507A,119.5328,35.4625,日照市,职业技术学院,,31,31,17,17,10,87,,141,125,25,6,5,4,0.6,0.5
2025-06-02T2300,3604A,119.3266,35.1044,日照市,岚山环保分局,,35,17,16,14,12,112,,139,118,18,16,5,5,0.6,0.5
2025-06-02T2300,1835A,111.1922,34.7752,三门峡市,市政府,颗粒物(PM10),60,70,48,29,32,59,,151,121,45,23,6,7,0.7,0.6
2025-06-02T2300,1836A,111.1587,34.7942,三门峡市,开发区,,37,37,42,17,28,88,,149,128,21,15,6,7,0.5,0.6
2025-06-02T2300,1838A,111.143,34.7955,三门峡市,风景区,,34,34,44,11,23,96,,150,130,13,11,8,9,0.5,0.5
2025-06-02T2300,3039A,111.1911,34.7829,三门峡市,三门峡市第一小学,颗粒物(PM10),59,67,51,20,25,72,,151,124,34,16,8,8,0.8,0.6
2025-06-02T2300,3598A,111.1,34.7167,三门峡市,富达温泉假日酒店,颗粒物(PM10),62,73,67,18,30,65,,145,120,36,20,9,9,0.4,0.4
2025-06-02T2300,2324A,117.6211,26.2625,三明市,三钢,,11,,24,7,15,33,,58,35,17,17,6,11,1.1,2
2025-06-02T2300,2325A,117.635,26.2714,三明市,三明二中,,10,8,20,3,15,32,,61,36,13,13,4,6,0.5,0.6
2025-06-02T2300,2326A,117.6028,26.2378,三明市,三元区政府,,19,15,26,13,17,36,,60,,14,12,3,5,1.0,0.6
2025-06-02T2300,2327A,117.7275,26.3108,三明市,洋溪,,,,,,,,,,,,,,,,
2025-06-02T2300,1876A,109.5078,18.2489,三亚市,河东子站,,24,24,21,14,10,63,,65,62,6,3,3,3,0.3,0.3
2025-06-02T2300,1877A,109.4964,18.2681,三亚市,河西子站,,19,19,19,12,10,60,,67,64,8,4,3,3,0.1,0.1
2025-06-02T2300,3540A,109.7348,18.3443,三亚市,君悦子站,,,27,22,10,9,,,72,,,6,2,3,,0.1
2025-06-02T2300,2624A,91.7608,29.2313,山南市,山南监测站,,42,,8,7,2,132,,133,133,1,4,7,9,0.2,0.2
2025-06-02T2300,2625A,91.7706,29.2436,山南市,山南人民医院,,41,12,17,7,7,130,,146,144,2,5,5,6,0.3,0.3
2025-06-02T2300,1674A,116.6794,23.3667,汕头市,金平子站,,15,13,16,10,12,44,,68,57,7,10,3,3,0.4,0.3
2025-06-02T2300,1675A,116.7244,23.3633,汕头市,龙湖子站,,30,30,26,11,14,40,,62,49,8,9,5,5,0.4,0.5
2025-06-02T2300,1676A,116.7258,23.2775,汕头市,濠江子站,,46,46,42,14,18,38,,56,46,10,14,4,4,0.6,0.7
2025-06-02T2300,1677A,116.7519,23.4714,汕头市,澄海子站,,34,34,29,15,19,41,,70,52,7,9,1,2,0.5,0.6
2025-06-02T2300,1678A,116.6092,23.2539,汕头市,潮阳子站,,42,42,24,18,19,46,,62,54,6,6,3,4,0.4,0.5
2025-06-02T2300,3444A,116.454,23.2684,汕头市,潮南峡山,,21,21,17,12,12,45,,60,53,1,4,5,5,0.6,0.6
2025-06-02T2300,3624A,116.4069,23.2533,汕头市,潮南子站,,21,21,16,8,8,41,,52,47,2,2,3,4,0.5,0.5
2025-06-02T2300,1693A,115.3653,22.775,汕尾市,市环保局,,21,21,23,8,9,49,,68,60,7,7,2,2,0.5,0.6
2025-06-02T2300,1694A,115.3706,22.7898,汕尾市,市政府,,26,26,25,9,17,48,,66,58,8,6,5,5,0.5,0.5
2025-06-02T2300,1695A,115.3622,22.7925,汕尾市,新城中学,,26,26,28,8,9,49,,70,62,7,7,2,2,0.4,0.4
2025-06-02T2300,2645A,109.9154,33.8715,商洛市,监测站,,34,34,30,17,18,45,,113,87,31,16,11,9,0.5,0.5
2025-06-02T2300,3045A,109.9643,33.8471,商洛市,商州区中学,,30,30,36,10,16,53,,114,89,29,19,4,4,0.7,0.6
2025-06-02T2300,2408A,115.6702,34.4285,商丘市,环境监测站,颗粒物(PM10),63,76,42,36,27,134,,171,160,16,10,3,2,0.6,0.8
2025-06-02T2300,2409A,115.6458,34.4045,商丘市,粮食局,颗粒物(PM10),66,81,45,47,33,139,,176,164,12,8,4,3,0.4,0.3
2025-06-02T2300,2410A,115.6293,34.3948,商丘市,睢阳区环保局,细颗粒物(PM2.5),75,87,48,55,31,129,,172,156,14,8,1,2,0.4,0.3
2025-06-02T2300,3171A,115.6071,34.4465,商丘市,梁园区档案局,细颗粒物(PM2.5),77,101,47,56,32,119,,170,156,21,11,3,3,0.6,0.5
2025-06-02T2300,1141A,121.4,31.238,上海市,普陀,,29,11,11,8,10,92,,100,96,15,18,4,4,0.4,0.4
2025-06-02T2300,1142A,121.478,31.2036,上海市,十五厂,,34,10,13,8,10,106,,108,104,12,16,7,6,0.7,0.8
2025-06-02T2300,1143A,121.467,31.3008,上海市,虹口,,30,,11,10,11,93,,90,86,16,18,8,7,0.6,0.7
2025-06-02T2300,1147A,121.425,31.2261,上海市,静安监测站,,32,12,12,12,11,100,,106,101,17,20,8,8,0.5,0.6
2025-06-02T2300,1148A,121.703,31.1907,上海市,浦东川沙,,30,12,14,3,9,93,,98,97,14,19,6,6,0.5,0.6
2025-06-02T2300,1149A,121.533,31.2284,上海市,浦东新区监测站,,31,9,12,7,9,99,,104,100,16,17,7,6,0.6,0.6
2025-06-02T2300,1150A,121.577,31.2071,上海市,浦东张江,,32,16,23,14,13,102,,112,107,19,19,6,6,1.0,1.1
2025-06-02T2300,3265A,121.4316,31.3322,上海市,宝山庙行,,32,10,10,6,7,101,,103,100,6,8,7,7,0.4,0.4
2025-06-02T2300,3266A,121.8791,31.4662,上海市,崇明上实东滩,,37,18,9,9,4,118,,125,124,6,6,1,1,0.4,0.5
2025-06-02T2300,3268A,121.3162,31.2838,上海市,嘉定南翔,,27,12,12,12,10,84,,94,88,13,16,5,5,0.4,0.5
2025-06-02T2300,3269A,121.3359,30.7456,上海市,金山新城,,27,13,20,8,13,85,,107,101,16,15,2,2,0.6,0.7
2025-06-02T2300,3270A,121.4996,31.0739,上海市,闵行浦江,,31,10,13,7,11,97,,98,97,9,15,3,3,0.6,0.7
2025-06-02T2300,3271A,121.2886,31.1663,上海市,青浦徐泾,,27,14,14,10,10,86,,100,92,9,12,5,5,0.6,0.7
