timepoint,stationcode,longitude,latitude,area,positionname,primarypollutant,aqi,pm10,pm10_24h,pm2_5,pm2_5_24h,o3,o3_24h,o3_8h,o3_8h_24h,no2,no2_24h,so2,so2_24h,co,co_24h
2025-06-02T2100,2566A,102.1879,31.914,阿坝藏族羌族自治州,州农科所,,15,15,21,8,8,37,,65,58,10,10,11,11,0.4,0.5
2025-06-02T2100,2568A,102.2502,31.8896,阿坝藏族羌族自治州,马师校,,25,24,15,17,17,18,,65,55,16,7,6,6,0.6,0.6
2025-06-02T2100,3994A,102.2165,31.9024,阿坝藏族羌族自治州,马尔康中学西区,,25,25,16,16,17,36,,71,64,8,4,5,5,0.5,0.5
2025-06-02T2100,2695A,80.292,41.1694,阿克苏地区,电视台,颗粒物(PM10),97,143,183,51,72,99,,101,101,15,18,5,7,0.2,0.2
2025-06-02T2100,2696A,80.2613,41.1551,阿克苏地区,艺术中心,颗粒物(PM10),92,134,184,60,74,96,,104,104,12,17,3,3,0.3,0.3
2025-06-02T2100,2204A,105.6467,38.8363,阿拉善盟,西城区西花园,,31,22,30,17,17,97,,110,109,17,8,5,5,0.6,0.6
2025-06-02T2100,2205A,105.6985,38.8411,阿拉善盟,蒙二幼,,30,12,30,3,10,95,,97,97,7,6,9,9,0.4,0.3
2025-06-02T2100,2206A,105.724,38.8516,阿拉善盟,环保局新楼,,33,9,26,3,8,103,,104,103,4,3,8,8,0.4,0.4
2025-06-02T2100,2708A,88.1264,47.8517,阿勒泰地区,市站,,27,16,26,10,6,84,,88,88,11,9,2,2,0.4,0.4
2025-06-02T2100,2630A,80.1161,32.5,阿里地区,阿里监测站,臭氧1小时,105,6,8,3,7,209,,178,178,2,4,5,6,0.3,0.3
2025-06-02T2100,3192A,80.0903,32.5028,阿里地区,阿里藏医院,臭氧1小时,112,14,16,3,7,223,,191,191,1,1,5,6,0.4,0.4
2025-06-02T2100,2642A,109.0318,32.6537,安康市,香溪洞,,26,26,26,13,12,80,,86,86,5,6,6,7,0.5,0.5
2025-06-02T2100,2644A,109.0072,32.6975,安康市,汉滨区检察院,,36,36,30,13,13,43,,84,80,14,9,5,5,0.6,0.5
2025-06-02T2100,4054A,109.0325,32.6913,安康市,市邮政管理局,,42,42,34,15,14,40,,85,78,18,11,9,7,0.7,0.6
2025-06-02T2100,2291A,117.0809,30.5177,安庆市,环科院,,30,16,5,9,3,96,,102,101,5,4,2,2,0.4,0.5
2025-06-02T2100,2292A,117.0331,30.5119,安庆市,马山宾馆,,30,,5,9,3,93,,98,97,7,6,3,3,0.3,0.4
2025-06-02T2100,2294A,116.9896,30.6145,安庆市,安庆大学,,28,12,5,12,4,89,,96,95,8,5,3,3,0.3,0.4
2025-06-02T2100,3173A,117.0598,30.5351,安庆市,市人大,,30,16,6,9,3,96,,104,102,11,7,3,3,0.4,0.5
2025-06-02T2100,3122A,105.9606,26.2611,安顺市,伍家关,,24,9,7,3,3,76,,65,65,7,7,2,2,0.3,0.3
2025-06-02T2100,3123A,105.9408,26.2431,安顺市,凤凰山,,26,,11,16,10,82,,71,71,6,7,10,8,0.5,0.5
2025-06-02T2100,3124A,105.9439,26.2564,安顺市,金钟山,,24,14,15,14,10,75,,66,66,5,5,8,6,0.4,0.4
2025-06-02T2100,3125A,105.8983,26.2481,安顺市,娄家坡,,26,17,13,15,9,82,,72,72,6,6,4,5,0.5,0.5
2025-06-02T2100,1818A,114.4839,36.0621,安阳市,棉研所,,,,,,,,,,,,,,,,
2025-06-02T2100,1819A,114.3551,36.1017,安阳市,红庙街,颗粒物(PM10),71,91,99,32,66,139,,202,187,11,8,9,6,0.6,0.8
2025-06-02T2100,1820A,114.361,36.0681,安阳市,银杏小区,颗粒物(PM10),72,94,109,26,60,141,,199,184,12,13,7,5,0.6,0.8
2025-06-02T2100,3141A,114.3922,36.0878,安阳市,信访局,颗粒物(PM10),71,91,98,31,51,143,,204,189,19,16,8,5,0.7,0.8
2025-06-02T2100,3669A,114.4705,36.0637,安阳市,左辅环卫站,颗粒物(PM10),78,105,109,29,51,124,,189,172,23,18,7,4,0.5,0.5
2025-06-02T2100,3703A,114.2917,36.0949,安阳市,安钢职工学校,颗粒物(PM10),73,96,104,27,67,142,,191,178,15,13,9,7,0.6,0.9
2025-06-02T2100,1748A,123.044,41.1196,鞍山市,深沟寺,颗粒物(PM10),52,54,64,28,38,83,,147,121,22,22,6,10,0.9,1.2
2025-06-02T2100,1749A,123.011,41.0931,鞍山市,太阳城,颗粒物(PM10),56,61,74,29,40,73,,151,124,21,21,6,11,0.8,1.1
2025-06-02T2100,1750A,123.0485,41.1442,鞍山市,太平,颗粒物(PM10),54,57,81,31,42,83,,140,117,24,25,10,14,1.1,1.3
2025-06-02T2100,1751A,122.9642,41.0971,鞍山市,铁西三道街,颗粒物(PM10),58,65,85,27,42,90,,142,121,30,32,6,12,0.9,1.1
2025-06-02T2100,1753A,123.022,41.0821,鞍山市,明达新区,颗粒物(PM10),53,56,72,28,45,84,,138,120,21,22,6,10,0.6,0.9
2025-06-02T2100,1754A,123.1289,41.0228,鞍山市,千山,,,,,,,,,,,,,,,,
2025-06-02T2100,4201A,122.9446,41.0826,鞍山市,兴盛南路290号,颗粒物(PM10),57,63,86,32,45,82,,137,117,26,27,5,10,0.8,1
2025-06-02T2100,2195A,107.4212,40.761,巴彦淖尔市,附二中,,26,21,33,13,15,83,,104,100,16,6,5,6,0.3,0.3
2025-06-02T2100,2196A,107.37,40.7372,巴彦淖尔市,市环保大楼,,27,24,35,9,21,84,,100,96,13,9,6,7,0.2,0.1
2025-06-02T2100,1956A,86.1472,41.7538,巴音郭楞蒙古自治州,孔雀公园,,37,37,32,20,9,114,,114,114,10,7,8,8,0.3,0.2
2025-06-02T2100,1957A,86.1972,41.7166,巴音郭楞蒙古自治州,棉纺厂,,34,31,40,12,10,108,,112,112,12,14,8,7,0.3,0.2
2025-06-02T2100,1958A,86.2357,41.7173,巴音郭楞蒙古自治州,经济开发区,,36,14,27,3,5,114,,115,115,5,5,8,9,0.3,0.3
2025-06-02T2100,2914A,106.7677,31.8794,巴中市,苏山坪,,25,21,10,15,7,77,,80,80,12,8,3,3,0.5,0.4
2025-06-02T2100,3181A,106.7768,31.8526,巴中市,市五中,,26,26,20,18,13,46,,87,82,16,12,7,7,0.6,0.6
2025-06-02T2100,3183A,106.7418,31.8654,巴中市,圣泉水务公司,,28,28,14,14,7,38,,82,76,30,14,5,4,0.8,0.6
2025-06-02T2100,3616A,106.7616,31.8344,巴中市,市中心医院,,,23,18,10,9,,,83,82,22,14,5,5,0.6,0.6
2025-06-02T2100,2235A,122.7911,45.6077,白城市,洮北区环保局,,,31,24,22,11,,,96,72,21,14,6,7,,0.3
2025-06-02T2100,2236A,122.8738,45.5725,白城市,市环保局,,32,22,18,22,14,54,,90,68,22,11,5,5,0.4,0.4
2025-06-02T2100,2231A,126.4219,41.9171,白山市,喜丰,,38,38,47,20,22,112,,121,121,12,17,7,7,0.8,0.9
2025-06-02T2100,2232A,126.4077,41.9419,白山市,环保局,,40,33,40,18,23,125,,126,126,7,12,2,11,0.7,0.7
2025-06-02T2100,2647A,104.1724,36.5446,白银市,第三小学,,,30,33,12,15,88,,116,112,20,11,12,43,,0.7
2025-06-02T2100,2648A,104.1465,36.5482,白银市,动力公司,,32,17,31,9,15,102,,112,111,8,11,11,27,0.2,0.6
2025-06-02T2100,2512A,106.6103,23.9011,百色市,市监测站,,15,14,23,6,12,47,,63,62,10,14,3,5,0.5,0.6
2025-06-02T2100,2513A,106.6538,23.8859,百色市,市中心血站,,17,11,29,6,14,53,,66,65,9,16,3,6,0.7,0.8
2025-06-02T2100,3406A,106.6085,23.8798,百色市,祈福高中,,17,9,37,3,14,52,,61,61,5,16,4,5,0.7,0.8
2025-06-02T2100,2270A,117.396,32.939,蚌埠市,工人疗养院,,36,36,19,19,6,83,,95,92,11,4,3,3,0.4,0.4
2025-06-02T2100,2271A,117.3605,32.9427,蚌埠市,百货大楼,,33,33,16,19,6,87,,98,98,10,7,6,6,0.4,0.3
2025-06-02T2100,2273A,117.4185,32.8911,蚌埠市,蚌埠学院,,28,22,7,19,9,76,,95,91,10,4,3,3,0.3,0.3
2025-06-02T2100,2274A,117.3533,32.9673,蚌埠市,淮上区政府,,29,29,12,15,7,91,,102,102,12,5,7,4,0.4,0.3
2025-06-02T2100,2275A,117.3145,32.8977,蚌埠市,高新区,,28,27,12,19,8,74,,92,90,21,11,5,7,0.4,0.4
2025-06-02T2100,3715A,117.3092,32.9314,蚌埠市,蚌埠田家炳中学,,30,30,16,14,8,83,,95,94,12,7,6,4,0.3,0.2
2025-06-02T2100,1585A,109.8756,40.6532,包头市,市环境监测站,,24,12,30,3,7,76,,93,90,18,12,7,7,0.3,0.1
2025-06-02T2100,1587A,109.9991,40.5842,包头市,包头八中,,24,24,31,3,5,76,,98,94,14,9,9,9,0.4,0.4
2025-06-02T2100,1588A,109.8538,40.6821,包头市,青山宾馆,,,21,27,3,6,,,94,93,,10,,8,,0.4
2025-06-02T2100,1589A,109.8642,40.6288,包头市,惠龙物流,,27,22,31,3,8,86,,98,96,14,9,5,6,0.2,0.2
2025-06-02T2100,1590A,110.0377,40.5546,包头市,东河鸿龙湾,,24,10,28,6,5,75,,91,88,16,17,6,7,0.2,0.2
2025-06-02T2100,3283A,109.9154,40.5685,包头市,滨河大厦,,25,13,25,3,8,77,,96,93,15,7,8,7,0.5,0.4
2025-06-02T2100,3419A,109.9447,40.6261,包头市,包头市委党校,,23,12,25,7,5,73,,95,91,15,7,8,8,0.1,0.1
2025-06-02T2100,3683A,109.8331,40.6576,包头市,昆区政府,,26,16,29,3,7,83,,94,92,16,11,5,6,0.4,0.4
2025-06-02T2100,1930A,107.185,34.3063,宝鸡市,庙沟村,,31,21,28,3,11,98,,96,96,6,9,8,8,0.3,0.6
2025-06-02T2100,1931A,107.0708,34.3017,宝鸡市,竹园沟,,34,34,29,12,11,63,,73,73,11,8,5,5,0.4,0.5
2025-06-02T2100,1932A,107.1906,34.3672,宝鸡市,三陆医院,,46,46,36,12,14,49,,89,88,30,19,7,7,0.4,0.5
2025-06-02T2100,1933A,107.1431,34.3547,宝鸡市,监测站,,46,46,36,13,15,56,,82,82,16,12,6,6,0.3,0.3
2025-06-02T2100,1934A,107.1186,34.3739,宝鸡市,技工学校,,47,47,36,20,19,65,,93,93,11,8,6,6,0.4,0.5
2025-06-02T2100,1935A,107.3906,34.3528,宝鸡市,陈仓区环保局家属楼,颗粒物(PM10),54,58,40,15,23,38,,90,86,36,15,5,6,0.5,0.5
2025-06-02T2100,1936A,107.2058,34.3497,宝鸡市,文理学院,,44,44,34,14,27,58,,89,89,22,14,7,8,0.4,0.5
2025-06-02T2100,1937A,107.2386,34.3622,宝鸡市,三迪小学,,36,36,38,10,19,58,,94,94,23,13,8,8,0.4,0.4
2025-06-02T2100,1051A,115.493,38.8632,保定市,游泳馆,,36,36,104,6,56,98,,128,115,8,12,4,6,0.0,0.4
2025-06-02T2100,1052A,115.5213,38.8959,保定市,华电二区,,38,38,71,21,43,96,,133,115,2,8,3,2,0.0,0.5
2025-06-02T2100,1053A,115.4713,38.9108,保定市,接待中心,,37,37,72,6,52,96,,129,115,10,12,3,3,0.1,0.5
2025-06-02T2100,1054A,115.4612,38.8416,保定市,地表水厂,,48,48,79,3,44,98,,128,116,11,16,1,2,0,0.5
2025-06-02T2100,3581A,115.31981,38.95208,保定市,满城区生态环境分局,,34,19,63,3,40,107,,127,121,6,10,1,3,0,0.3
2025-06-02T2100,3582A,115.47694,38.76408,保定市,清苑区第二中学,,50,50,91,10,52,97,,137,122,15,15,3,4,0.2,0.6
2025-06-02T2100,3583A,115.62909,39.02311,保定市,徐水物探局,,28,21,86,3,48,88,,129,110,6,12,3,2,0,0.4
2025-06-02T2100,4004A,115.4202,38.8656,保定市,双鹰农机,,32,30,60,21,42,102,,135,124,11,13,2,3,0.1,0.5
2025-06-02T2100,4034A,115.5150,38.8590,保定市,植保所站,,44,44,69,12,50,97,,131,115,2,8,3,3,0.2,0.5
2025-06-02T2100,2594A,99.1678,25.1081,保山市,市环境监测站,,38,,9,26,14,38,,53,50,12,7,7,7,0.6,0.6
2025-06-02T2100,2595A,99.1711,25.1328,保山市,市环保局,,18,16,11,12,11,42,,58,52,7,5,8,8,0.5,0.4
2025-06-02T2100,1866A,109.2262,21.588,北海市,牛尾岭水库,,,46,24,,6,81,,90,90,6,4,12,7,0.4,0.4
2025-06-02T2100,1867A,109.1436,21.4086,北海市,海滩公园,颗粒物(PM10),53,56,51,3,6,60,,59,59,5,4,5,4,0.6,0.6
2025-06-02T2100,1868A,109.0981,21.4661,北海市,新市环保局,,,25,28,9,8,,,80,80,7,6,2,2,0.4,0.5
2025-06-02T2100,1869A,109.1778,21.5233,北海市,北海工业园,,44,44,30,12,9,78,,81,81,6,5,8,7,0.5,0.5
2025-06-02T2100,3400A,109.1911,21.4415,北海市,龙潭自来水厂,,27,27,27,10,10,78,,78,78,5,4,4,4,0.3,0.3
2025-06-02T2100,1001A,116.3621,39.8784,北京市,万寿西宫,,25,6,26,3,19,80,,112,98,14,16,3,3,0.3,0.4
2025-06-02T2100,1002A,116.2202,40.2915,北京市,定陵,,,,,,,,,,,,,,,,
2025-06-02T2100,1003A,116.4174,39.9289,北京市,东四,,26,6,22,3,14,81,,112,99,17,20,3,3,0.2,0.4
2025-06-02T2100,1004A,116.4072,39.8863,北京市,天坛,,25,6,24,3,19,77,,112,97,11,13,2,3,0.2,0.4
2025-06-02T2100,1005A,116.462,39.9365,北京市,农展馆,,24,6,21,3,15,74,,101,89,11,14,3,4,0.1,0.5
2025-06-02T2100,1006A,116.3392,39.9295,北京市,官园,,24,6,25,3,17,74,,101,94,18,16,3,4,0.3,0.3
2025-06-02T2100,1007A,116.2878,39.9611,北京市,海淀万柳,,23,6,25,3,16,71,,95,87,15,19,2,2,0.3,0.5
2025-06-02T2100,1008A,116.6636,40.135,北京市,顺义新城,,26,6,24,3,15,83,,102,95,7,9,4,5,0.2,0.4
2025-06-02T2100,1009A,116.6275,40.3275,北京市,怀柔镇,,25,6,20,3,15,79,,94,88,8,5,1,1,0.3,0.5
2025-06-02T2100,1010A,116.2296,40.217,北京市,昌平镇,,26,6,17,3,14,81,,92,88,8,11,4,4,0,0.1
2025-06-02T2100,1011A,116.3966,39.9821,北京市,奥体中心,,22,6,24,3,16,70,,94,87,16,20,3,3,0.5,0.6
2025-06-02T2100,3281A,115.9718,40.4529,北京市,延庆夏都,,26,6,11,3,7,81,,95,89,12,10,3,3,0.2,0.3
2025-06-02T2100,3418A,116.8336,40.4095,北京市,密云新城,,25,6,36,3,27,80,,96,85,6,10,2,2,0.2,0.5
2025-06-02T2100,3671A,116.088,39.9726,北京市,门头沟三家店,,26,6,26,3,17,82,,104,99,8,8,2,2,0.1,0.3
2025-06-02T2100,3672A,116.1541,39.8204,北京市,丰台云岗,,27,6,36,3,25,85,,108,100,16,17,3,4,0.2,0.5
2025-06-02T2100,3673A,116.6804,39.9081,北京市,通州东关,,26,7,30,3,19,81,,109,97,14,16,1,2,0.3,0.5
2025-06-02T2100,3674A,115.9577,39.7603,北京市,房山燕山,,25,6,30,3,23,77,,104,85,13,10,4,3,0.2,0.5
2025-06-02T2100,3675A,116.4672,39.7733,北京市,大兴旧宫,,25,6,34,3,21,79,,114,99,11,20,2,3,0.4,0.7
2025-06-02T2100,3694A,115.986,40.4563,北京市,延庆石河营,,25,6,9,3,7,79,,91,87,2,6,1,1,0.2,0.3
2025-06-02T2100,3695A,116.6151,40.3053,北京市,怀柔新城,,26,6,19,3,14,82,,98,92,10,5,1,1,0.2,0.5
2025-06-02T2100,3696A,116.2545,39.8768,北京市,丰台小屯,,24,6,27,3,16,75,,99,90,10,16,2,2,0.2,0.4
2025-06-02T2100,3697A,116.84,40.3844,北京市,密云镇,,25,6,39,3,28,78,,96,86,12,14,4,5,0.2,0.5
2025-06-02T2100,4182A,116.1942,39.9158,北京市,八角北路9号,,26,6,27,3,18,83,,103,99,14,16,2,2,0.1,0.5
2025-06-02T2100,4194A,117.0790,40.1518,北京市,洳河巡河路,,26,6,56,3,35,83,,105,91,2,5,2,3,0.3,0.6
2025-06-02T2100,1761A,123.8275,41.3064,本溪市,大峪,,29,17,51,7,24,91,,144,122,9,18,6,7,0.4,0.6
2025-06-02T2100,1762A,123.7567,41.3325,本溪市,溪湖,,32,32,61,8,26,77,,140,117,10,22,6,8,0.8,1.1
2025-06-02T2100,1763A,123.7169,41.3094,本溪市,彩屯,,35,35,52,17,30,71,,140,120,8,18,9,13,0.9,1.2
2025-06-02T2100,1764A,123.7669,41.2864,本溪市,东明,,26,15,54,14,23,81,,147,125,14,22,6,6,1.1,0.8
2025-06-02T2100,1765A,123.7992,41.2664,本溪市,新立屯,,24,17,46,11,24,76,,143,110,18,19,5,6,0.9,0.7
2025-06-02T2100,1766A,123.8142,41.3472,本溪市,威宁,,24,20,68,11,30,75,,143,116,16,24,6,6,0.6,0.6
2025-06-02T2100,2587A,105.2864,27.3125,毕节市,八中,,28,14,9,9,6,88,,82,82,4,4,5,5,0.4,0.4
2025-06-02T2100,2588A,105.31,27.2944,毕节市,师专,,29,16,9,8,5,92,,87,87,8,7,4,3,0.4,0.4
2025-06-02T2100,4263A,105.3688,27.3598,毕节市,工业大道,,29,15,7,7,4,90,,90,90,9,8,6,5,0.5,0.6
2025-06-02T2100,1629A,118.0018,37.3617,滨州市,第二水厂,细颗粒物(PM2.5),64,68,67,46,38,145,,182,177,15,17,5,8,0.6,0.6
2025-06-02T2100,1630A,117.9776,37.393,滨州市,北中新校,颗粒物(PM10),57,63,57,39,34,123,,177,170,23,16,8,11,0.8,0.7
2025-06-02T2100,3514A,117.9378,37.3956,滨州市,中海酒店,臭氧1小时,59,51,56,31,38,167,,199,195,16,13,10,13,0.7,0.8
2025-06-02T2100,3515A,117.9378,37.3553,滨州市,开发区一中,细颗粒物(PM2.5),58,58,64,41,33,147,,169,167,20,21,9,11,0.6,0.5
2025-06-02T2100,3516A,118.0917,37.694,滨州市,金海六路,颗粒物(PM10),63,76,60,27,28,120,,192,181,27,15,8,12,0.3,0.2
2025-06-02T2100,4028A,117.9956,37.3753,滨州市,滨州市西街道办事处,,49,44,55,34,36,156,,193,188,13,15,7,10,0.7,0.6
2025-06-02T2100,2311A,115.8072,33.8399,亳州市,污水处理厂,细颗粒物(PM2.5),59,48,29,42,27,133,,151,149,14,5,4,3,0.5,0.4
2025-06-02T2100,2312A,115.7789,33.8518,亳州市,三国揽胜宫,细颗粒物(PM2.5),53,47,31,37,25,140,,154,152,7,4,7,6,0.5,0.4
2025-06-02T2100,3332A,115.7633,33.8034,亳州市,亳州学院,细颗粒物(PM2.5),53,52,27,37,27,130,,152,149,11,5,4,3,0.6,0.4
2025-06-02T2100,2693A,82.0485,44.8556,博尔塔拉蒙古自治州,市党校,,40,35,30,28,16,96,,102,102,9,9,3,3,0.3,0.1
2025-06-02T2100,2694A,82.0806,44.8969,博尔塔拉蒙古自治州,市环保局,,,42,41,15,13,,,103,103,10,11,1,3,0.1,0.4
2025-06-02T2100,1071A,116.8842,38.2991,沧州市,沧县城建局,,49,49,55,12,36,90,,180,145,19,18,4,4,0.1,0.4
2025-06-02T2100,1072A,116.8584,38.3254,沧州市,电视转播站,颗粒物(PM10),52,53,63,7,36,87,,162,136,18,15,3,3,0.2,0.4
2025-06-02T2100,1073A,116.8709,38.3228,沧州市,市环保局,颗粒物(PM10),60,69,79,23,40,91,,167,140,15,16,3,3,0.2,0.4
2025-06-02T2100,3324A,116.8136,38.3004,沧州市,河北水利电力学院,颗粒物(PM10),54,58,61,18,34,102,,187,155,18,16,4,7,0.1,0.3
2025-06-02T2100,2622A,97.1806,31.1273,昌都市,昌都监测站,,35,,12,8,7,112,,128,126,5,6,4,5,0.3,0.3
2025-06-02T2100,3719A,97.1714,31.1406,昌都市,昌都会议中心,,41,6,13,3,7,131,,138,138,2,5,3,4,0.2,0.2
2025-06-02T2100,2690A,88.1236,43.8886,昌吉回族自治州,天山天池,,30,23,15,3,4,94,,111,111,6,6,7,7,0.5,0.5
2025-06-02T2100,2692A,87.2717,44.0297,昌吉回族自治州,新区政务中心,,36,10,21,6,11,113,,126,126,3,9,5,8,0.2,0.5
2025-06-02T2100,3613A,87.3095,44.0142,昌吉回族自治州,亚心广场,,,46,39,12,10,,,121,121,,23,,10,,0.5
2025-06-02T2100,1119A,125.3325,43.9166,长春市,食品厂,,24,19,58,10,31,76,,123,112,23,46,4,6,0.5,0.7
2025-06-02T2100,1120A,125.2863,43.9027,长春市,客车厂,,25,18,49,15,32,80,,134,121,18,37,3,5,0.3,0.4
2025-06-02T2100,1121A,125.2841,43.8463,长春市,邮电学院,,24,15,40,7,22,74,,132,120,20,27,5,7,0.2,0.4
2025-06-02T2100,1122A,125.3716,43.8772,长春市,劳动公园,,24,14,47,3,30,76,,125,118,13,27,6,7,0.5,0.6
2025-06-02T2100,1123A,125.3297,43.8805,长春市,园林处,,25,16,47,3,32,78,,133,122,15,29,6,8,0.4,0.6
2025-06-02T2100,1124A,125.4605,43.79,长春市,净月潭,,19,11,34,3,20,58,,109,93,7,18,6,7,0.3,0.4
2025-06-02T2100,1125A,125.7194,43.515,长春市,甩湾子,,26,16,36,10,17,83,,126,107,15,37,2,3,0.4,0.5
2025-06-02T2100,1126A,125.3863,43.8447,长春市,经开区环卫处,,24,17,56,3,23,74,,122,115,16,37,5,7,0.3,0.5
2025-06-02T2100,1127A,125.245,43.7783,长春市,高新区管委会,,20,13,48,3,24,63,,133,119,21,36,5,8,0.2,0.4
2025-06-02T2100,1128A,125.1761,43.8325,长春市,岱山公园,,21,13,48,3,37,65,,133,116,26,36,3,6,0.2,0.4
2025-06-02T2100,1335A,113.0833,28.2325,长沙市,经开区环保局,,35,34,23,24,14,98,,105,104,17,9,4,3,0.4,0.4
2025-06-02T2100,1336A,112.8872,28.2189,长沙市,高开区环保局,,39,39,25,22,14,104,,108,107,10,5,5,5,0.6,0.6
2025-06-02T2100,1337A,113.0792,28.2053,长沙市,马坡岭,,35,33,23,24,16,90,,98,97,16,9,4,4,0.5,0.5
2025-06-02T2100,1338A,112.9394,28.19,长沙市,湖南师范大学,,40,40,24,21,17,105,,110,110,11,6,3,3,0.4,0.4
2025-06-02T2100,1339A,113.0178,28.1322,长沙市,雨花区环保局,,35,31,22,21,13,110,,111,111,7,4,4,4,0.7,0.7
2025-06-02T2100,1340A,112.9792,28.2597,长沙市,伍家岭,,34,34,25,16,12,89,,102,101,11,7,2,2,0.5,0.5
2025-06-02T2100,1341A,113.0014,28.1944,长沙市,火车新站,,35,35,24,19,14,97,,102,102,11,6,6,6,0.4,0.4
2025-06-02T2100,1342A,112.9844,28.1178,长沙市,天心区环保局,,38,38,23,20,15,107,,111,110,9,6,2,2,0.7,0.7
2025-06-02T2100,1343A,112.8908,28.1308,长沙市,湖南中医药大学,,46,36,25,32,22,93,,102,102,12,6,3,3,0.7,0.6
2025-06-02T2100,1344A,112.9581,28.3611,长沙市,沙坪,,33,24,18,23,13,91,,104,101,6,5,5,3,0.7,0.7
2025-06-02T2100,1727A,113.1147,36.1547,长治市,清华站,,35,35,48,3,26,108,,142,130,14,16,7,7,0.4,0.6
2025-06-02T2100,1730A,113.0886,36.2125,长治市,审计局,,34,27,42,3,28,107,,145,130,15,18,8,10,0.3,0.6
2025-06-02T2100,1731A,113.0844,36.1856,长治市,长治八中,,44,44,53,10,35,108,,144,130,15,17,12,11,0.3,0.5
2025-06-02T2100,2845A,113.1569,36.1911,长治市,德盛苑,,41,41,49,3,27,101,,143,127,12,12,9,9,0.4,0.7
2025-06-02T2100,3568A,113.06,36.0464,长治市,向阳小学,颗粒物(PM10),65,80,73,25,35,113,,143,133,16,16,7,6,0.4,0.7
2025-06-02T2100,3569A,112.8792,36.3144,长治市,屯留一中,,34,16,32,15,26,107,,133,121,15,16,11,12,0.1,0.1
2025-06-02T2100,4189A,113.1131,36.19948,长治市,英华南巷50号,,34,34,52,7,33,105,,146,131,11,12,6,10,0.6,0.9
2025-06-02T2100,4190A,113.2367,36.3344,长治市,学府街1号,,,75,69,3,34,114,,157,135,12,25,4,8,,0.9
2025-06-02T2100,1854A,111.6975,28.9703,常德市,市二中,,,,31,34,24,119,,138,134,,9,6,6,,0.6
2025-06-02T2100,1857A,111.7158,29.1456,常德市,白鹤山,,,,,,,,,,,,,,,,
2025-06-02T2100,3138A,111.7153,29.0289,常德市,武陵区永安,,43,40,34,30,26,122,,143,141,15,9,1,2,0.5,0.4
2025-06-02T2100,3139A,111.6892,28.9881,常德市,鼎城区玉霞,,37,37,31,25,24,83,,149,139,28,11,3,4,0.7,0.6
2025-06-02T2100,3140A,111.6625,29.0531,常德市,武陵区长庚,,44,44,31,24,20,122,,152,150,17,7,5,5,0.7,0.6
2025-06-02T2100,1196A,119.9633,31.762,常州市,市监测站,,25,,16,14,8,78,,105,99,24,15,10,8,0.4,0.4
2025-06-02T2100,1200A,119.9468,31.7069,常州市,武进监测站,,25,25,23,17,7,75,,103,97,25,16,8,5,0.8,0.8
2025-06-02T2100,1201A,119.9255,31.9087,常州市,安家,,25,20,21,9,5,78,,105,96,20,11,9,9,0.2,0.2
2025-06-02T2100,3002A,119.9805,31.8174,常州市,行政中心,,25,19,20,9,6,79,,108,98,19,12,10,10,0.4,0.5
2025-06-02T2100,3003A,120.0522,31.7748,常州市,经开区,,25,19,13,8,5,79,,108,102,25,15,4,3,0.5,0.5
2025-06-02T2100,3010A,119.9025,31.7964,常州市,钟楼,,22,19,15,7,5,70,,94,87,16,9,8,7,0.5,0.6
2025-06-02T2100,3429A,119.8598,31.7066,常州市,武进经发区,,27,14,15,8,7,86,,103,98,11,9,3,4,0.7,0.8
2025-06-02T2100,3430A,119.5826,31.7245,常州市,金坛城区,,28,22,19,7,6,89,,102,99,13,13,5,6,0.4,0.5
2025-06-02T2100,2220A,120.4318,41.5881,朝阳市,西梁,,23,22,43,3,26,71,,132,88,17,19,8,10,0.4,0.7
2025-06-02T2100,2221A,120.4521,41.5646,朝阳市,河畔小区,,22,16,36,6,20,69,,135,87,19,15,8,9,0.3,0.5
2025-06-02T2100,2222A,120.4176,41.5648,朝阳市,八里堡,,43,43,55,13,28,67,,137,89,20,18,6,7,0.3,0.6
2025-06-02T2100,2223A,120.3806,41.5969,朝阳市,农业园区,颗粒物(PM10),57,63,49,20,36,70,,136,91,17,18,6,5,0.2,0.5
2025-06-02T2100,1705A,116.6367,23.6719,潮州市,西园路,,25,18,30,17,22,32,,68,53,13,11,6,7,0.6,0.5
2025-06-02T2100,3026A,116.6183,23.6608,潮州市,市政府,,42,42,40,15,19,30,,72,51,19,14,4,5,0.9,0.9
2025-06-02T2100,4036A,116.6461,23.6761,潮州市,金山,,30,28,36,21,27,38,,76,61,12,11,5,7,0.8,0.8
2025-06-02T2100,2472A,113.0073,25.9061,郴州市,马头岭,,31,31,15,11,6,47,,66,62,7,6,6,8,0.3,0.3
2025-06-02T2100,2473A,113.0116,25.8226,郴州市,市职中,,35,32,14,24,9,59,,73,71,12,8,3,2,0.3,0.4
2025-06-02T2100,2475A,113.0383,25.8071,郴州市,市审计局,,32,27,12,22,9,67,,77,76,5,5,2,3,0.4,0.4
2025-06-02T2100,2476A,113.0348,25.7759,郴州市,市环保局,,42,32,13,29,9,65,,75,74,8,6,3,2,0.3,0.2
2025-06-02T2100,4252A,113.0138,25.8011,郴州市,好美居路49号,,33,31,10,23,8,75,,76,76,9,8,8,9,0.4,0.5
2025-06-02T2100,1431A,103.9728,30.7236,成都市,金泉两河,,28,28,26,10,7,58,,115,111,34,18,2,2,0.5,0.4
2025-06-02T2100,1432A,104.176,30.6872,成都市,十里店,,42,42,25,28,13,84,,119,119,32,26,5,4,0.7,0.6
2025-06-02T2100,1433A,104.079,30.5706,成都市,三瓦窑,,38,34,31,26,14,55,,106,103,51,28,4,5,0.5,0.6
2025-06-02T2100,1434A,104.1114,30.63,成都市,沙河铺,,46,46,29,18,14,53,,87,85,31,22,3,4,0.9,0.5
2025-06-02T2100,1437A,104.0786,30.6531,成都市,君平街,,,62,34,27,17,92,,129,129,36,28,5,8,,0.7
2025-06-02T2100,1438A,103.613,31.0283,成都市,灵岩寺,,,,,,,,,,,,,,,,
2025-06-02T2100,2880A,104.0239,30.65639,成都市,大石西路,颗粒物(PM10),55,59,35,23,18,55,,118,116,44,27,2,4,0.8,0.7
2025-06-02T2100,3136A,104.2725,30.5589,成都市,龙泉驿区区政府,,34,34,21,14,11,81,,101,101,18,16,4,5,0.7,0.6
2025-06-02T2100,3357A,104.0106,30.6931,成都市,金博路,,34,34,21,18,6,68,,115,114,33,23,8,8,0.6,0.6
2025-06-02T2100,3359A,104.0578,30.5225,成都市,华阳,,34,34,24,22,14,65,,96,95,28,22,7,7,0.9,0.7
2025-06-02T2100,3488A,104.3853,30.7453,成都市,青白江技师分院,颗粒物(PM10),53,55,36,32,18,64,,117,117,65,28,6,4,0.8,0.6
2025-06-02T2100,3489A,104.0789,30.4072,成都市,科学城,,37,37,24,21,17,78,,104,104,23,19,4,4,0.4,0.4
2025-06-02T2100,4011A,103.8506,30.6947,成都市,光华大道三段,,37,37,28,20,12,59,,110,107,41,16,4,4,0.8,0.7
2025-06-02T2100,4224A,104.2433,30.5353,成都市,鲸龙路1057号,,45,45,24,21,14,82,,103,103,21,16,7,7,0.7,0.6
2025-06-02T2100,1062A,117.9531,40.9081,承德市,铁路,,25,17,43,3,25,80,,106,90,9,15,4,5,0.1,0.4
2025-06-02T2100,1063A,117.9392,40.9763,承德市,中国银行,,24,22,39,3,23,74,,103,86,4,8,3,4,0.1,0.4
2025-06-02T2100,1064A,117.9503,40.928,承德市,开发区,,28,28,43,12,33,82,,108,91,4,10,2,5,0.1,0.4
2025-06-02T2100,1065A,117.8051,40.9655,承德市,文化中心,,,28,41,9,21,,,104,89,18,12,3,6,0.2,0.4
2025-06-02T2100,1066A,117.9268,41.0026,承德市,离宫,,36,36,39,24,32,63,,103,87,4,5,3,5,0.2,0.4
2025-06-02T2100,2314A,117.47,30.6618,池州市,池州学院,,28,16,6,15,5,89,,93,93,6,6,4,4,0.5,0.6
2025-06-02T2100,3237A,117.4918,30.6617,池州市,展览馆,,,18,8,13,5,,,92,92,7,7,4,4,0.5,0.6
2025-06-02T2100,3333A,117.5627,30.695,池州市,第八中学,,23,18,7,12,4,73,,98,94,9,9,4,4,0.4,0.4
2025-06-02T2100,3334A,117.5038,30.6243,池州市,第十二中学,,25,18,7,12,5,79,,97,96,9,6,2,2,0.6,0.7
2025-06-02T2100,1744A,118.9233,42.2816,赤峰市,松山一中,,28,21,46,3,19,89,,143,95,12,12,5,5,0.3,0.5
2025-06-02T2100,1745A,118.9576,42.2728,赤峰市,哈达街,,25,22,35,13,22,77,,117,79,13,15,10,11,0.4,0.6
2025-06-02T2100,1746A,118.8788,42.2554,赤峰市,天义路,,,13,34,,22,,,128,79,10,10,7,7,0.4,0.5
2025-06-02T2100,3058A,119.2658,42.0353,赤峰市,银河街,,25,23,40,10,29,79,,125,87,7,9,5,9,0.4,0.7
2025-06-02T2100,3286A,118.9359,42.3147,赤峰市,桥北物流园区,,24,17,38,3,20,74,,111,77,12,14,8,8,0.4,0.5
2025-06-02T2100,2521A,107.3476,22.4136,崇左市,市环保局江州分局,,21,21,48,14,19,56,,98,79,5,16,6,6,0.5,0.4
2025-06-02T2100,4256A,107.3750,22.3736,崇左市,石景林东路7号,,22,18,33,15,19,58,,109,88,7,15,3,3,0.6,0.5
2025-06-02T2100,2298A,118.3093,32.3153,滁州市,老年大学,,25,21,14,12,11,79,,103,99,8,6,5,5,0.2,0.2
2025-06-02T2100,2299A,118.3244,32.2786,滁州市,人大宾馆,,26,11,6,11,8,83,,100,98,4,4,3,3,0.2,0.2
2025-06-02T2100,3207A,118.3118,32.3038,滁州市,市政府原办公楼,,25,14,9,14,12,80,,103,100,5,3,3,3,0.3,0.2
2025-06-02T2100,3331A,118.3267,32.2634,滁州市,图书馆,,26,,9,11,9,81,,99,96,4,4,8,8,0.3,0.3
2025-06-02T2100,2605A,101.5482,25.0441,楚雄彝族自治州,州环境监测站,,14,8,6,3,3,44,,57,56,5,4,8,7,0.3,0.3
2025-06-02T2100,2606A,101.538,25.0492,楚雄彝族自治州,市经济开发区,,24,24,11,6,6,39,,53,51,9,5,6,6,0.5,0.4
2025-06-02T2100,2548A,107.5277,31.2827,达州市,达州职业技术学院,,48,48,28,10,6,11,,84,76,60,16,6,6,0.1,0.3
2025-06-02T2100,2549A,107.5086,31.2186,达州市,市环境监测站,,42,42,26,12,6,68,,93,92,27,22,6,6,0.5,0.4
2025-06-02T2100,2550A,107.4988,31.2132,达州市,凤凰小区,,34,34,22,17,10,71,,95,95,21,19,7,7,0.5,0.5
2025-06-02T2100,2551A,107.5082,31.1986,达州市,达县机关宾馆,,39,39,25,3,7,45,,87,85,39,25,6,6,0.6,0.6
2025-06-02T2100,2552A,107.4644,31.2124,达州市,市政中心,,40,40,30,17,7,66,,91,91,19,17,2,3,0.5,0.5
2025-06-02T2100,2614A,100.1542,25.7054,大理白族自治州,大理市环境监测站,,17,,6,7,10,53,,64,60,5,4,6,6,0.4,0.3
2025-06-02T2100,2615A,100.2171,25.5811,大理白族自治州,大理古城,,16,16,8,8,6,38,,68,64,11,6,8,8,0.7,0.6
2025-06-02T2100,1109A,121.612,38.9741,大连市,甘井子,,44,44,53,25,33,133,,147,146,18,24,6,6,0.3,0.4
2025-06-02T2100,1110A,121.565,38.9511,大连市,周水子,,46,46,51,27,31,132,,150,147,19,16,23,9,0.4,0.4
2025-06-02T2100,1111A,121.5637,38.8845,大连市,星海三站,颗粒物(PM10),52,53,61,30,44,127,,150,150,16,13,4,4,0.1,0.3
2025-06-02T2100,1112A,121.6302,38.9117,大连市,青泥洼桥,,44,40,52,28,36,140,,156,156,18,17,8,8,0.2,0.3
2025-06-02T2100,1113A,121.6251,38.8638,大连市,傅家庄,颗粒物(PM10),52,53,58,27,37,154,,164,164,15,18,8,8,0.2,0.2
2025-06-02T2100,1114A,121.5213,38.8661,大连市,七贤岭,,47,,44,25,31,149,,165,164,13,12,5,5,0.3,0.3
2025-06-02T2100,1115A,121.2529,38.8061,大连市,旅顺,,42,32,51,21,32,133,,146,145,15,16,2,3,0.3,0.3
2025-06-02T2100,1116A,121.7485,39.1311,大连市,金州,,47,35,48,24,32,150,,160,158,16,24,5,6,0.2,0.3
2025-06-02T2100,1117A,121.7811,39.0496,大连市,开发区,,44,44,55,26,39,140,,153,152,17,25,3,5,0.4,0.4
2025-06-02T2100,1118A,121.9762,39.0631,大连市,双D港,,43,26,37,25,32,135,,144,144,17,19,9,10,0.3,0.4
2025-06-02T2100,1789A,124.81117,46.03138,大庆市,大同区,,28,22,31,19,21,59,,68,63,11,22,5,5,0.5,0.5
2025-06-02T2100,1790A,125.129,46.533,大庆市,龙凤区,,25,23,35,17,18,79,,79,79,18,26,5,6,0.4,0.5
2025-06-02T2100,1791A,124.902,46.408,大庆市,红岗区,,29,27,27,20,17,75,,77,76,10,15,10,16,0.3,0.3
2025-06-02T2100,1792A,125.153,46.586,大庆市,萨尔图区,,29,29,37,10,20,64,,66,66,18,27,8,9,0.6,0.6
2025-06-02T2100,1793A,124.9042,46.6215,大庆市,让胡路区,,40,,30,28,29,56,,76,71,23,24,7,10,0.4,0.4
2025-06-02T2100,3481A,125.141,46.634,大庆市,萨区政府监测点,,27,20,30,3,10,84,,83,83,8,18,6,6,0.4,0.4
2025-06-02T2100,1721A,113.3819,40.1097,大同市,果树场,,,,,,,,,,,,,,,,
2025-06-02T2100,1723A,113.2994,40.0758,大同市,云冈宾馆,,,16,11,,7,,,106,101,10,10,6,5,0.4,0.1
2025-06-02T2100,1724A,113.3444,40.0917,大同市,大同大学,,,17,15,3,8,,,105,101,12,12,6,9,0.3,0.4
2025-06-02T2100,1725A,113.2661,40.1269,大同市,安家小村,,26,18,18,3,5,83,,104,97,6,8,4,3,0.5,0.6
2025-06-02T2100,1726A,113.2711,40.0844,大同市,教育学院,,25,18,22,3,8,78,,101,95,16,12,8,6,0.4,0.4
2025-06-02T2100,3282A,113.3397,40.0597,大同市,大同市卫生学校,,26,22,17,7,7,82,,101,95,10,9,8,8,0.4,0.5
2025-06-02T2100,3565A,113.1367,40.1122,大同市,云冈站,,24,24,23,6,10,72,,100,93,14,10,10,6,0.1,0.3
2025-06-02T2100,3566A,113.1186,40.2556,大同市,图书馆,,22,22,18,7,6,70,,100,91,12,6,10,6,0.8,0.6
2025-06-02T2100,3567A,113.5931,40.0461,大同市,区一中,,27,6,17,3,5,84,,105,99,9,10,9,11,0.2,0.4
2025-06-02T2100,4199A,113.2798,40.0997,大同市,魏都大道141号,,25,17,23,8,8,79,,104,96,10,10,6,6,0.5,0.6
2025-06-02T2100,2269A,124.1069,50.4097,大兴安岭地区,科技局,,34,34,31,14,14,57,,70,70,8,6,9,9,0.2,0.2
2025-06-02T2100,3663A,124.1164,50.4278,大兴安岭地区,红旗社区,,19,19,17,6,6,60,,70,70,3,4,6,6,0.3,0.3
2025-06-02T2100,1600A,124.3303,40.0625,丹东市,江湾东路,,50,48,49,35,31,122,,136,132,7,9,16,11,0.7,0.7
2025-06-02T2100,1601A,124.4256,40.1503,丹东市,临江后街,颗粒物(PM10),89,127,107,59,50,124,,143,137,14,18,7,9,0.7,0.8
2025-06-02T2100,1602A,124.3933,40.1461,丹东市,元宝山,,,70,66,33,31,,,136,135,12,14,9,9,0.7,0.6
2025-06-02T2100,1603A,124.3633,40.1092,丹东市,民主桥,颗粒物(PM10),53,55,51,28,25,120,,131,127,7,12,11,10,0.8,0.8
2025-06-02T2100,3541A,109.5726,19.5167,儋州市,第一中学子站,,18,18,14,6,7,49,,55,55,7,4,6,6,0.3,0.4
2025-06-02T2100,3542A,109.5567,19.5187,儋州市,东坡学校子站,,17,17,16,8,7,50,,56,55,6,4,6,5,0.5,0.5
2025-06-02T2100,2616A,98.5842,24.428,德宏傣族景颇族自治州,德宏州监测站,,15,12,15,7,8,47,,53,53,6,9,6,7,0.7,0.6
2025-06-02T2100,3677A,98.5881,24.4368,德宏傣族景颇族自治州,芒市人民政府综合楼,,25,25,21,3,5,40,,46,46,6,7,6,7,0.5,0.4
2025-06-02T2100,1901A,104.4239,31.1208,德阳市,东山公园,颗粒物(PM10),53,56,38,35,24,100,,106,106,25,23,5,6,0.9,0.9
2025-06-02T2100,1902A,104.3826,31.1317,德阳市,西小区,,,53,40,30,23,,,107,107,50,30,,5,1.1,0.8
2025-06-02T2100,1904A,104.3553,31.1091,德阳市,耐火材料厂,颗粒物(PM10),62,73,46,29,22,66,,108,108,45,28,6,7,0.7,0.6
2025-06-02T2100,3639A,104.4019,31.1244,德阳市,市教育局,颗粒物(PM10),53,55,41,32,22,24,,106,103,88,28,6,7,1.4,1
2025-06-02T2100,1622A,116.3032,37.4674,德州市,儿童乐园,颗粒物(PM10),71,92,81,19,43,134,,194,178,16,16,7,10,0.4,0.6
2025-06-02T2100,1624A,116.2991,37.4451,德州市,监理站,颗粒物(PM10),65,80,72,12,40,139,,190,178,11,11,6,8,0.3,0.4
2025-06-02T2100,3066A,116.2721,37.4379,德州市,九衢泉纯净水厂,颗粒物(PM10),71,92,71,9,38,135,,179,169,11,15,4,6,0.4,0.6
2025-06-02T2100,3371A,116.3728,37.4403,德州市,开发区人民医院,颗粒物(PM10),70,90,77,14,36,127,,185,170,18,20,6,9,0.7,0.9
2025-06-02T2100,3372A,116.3572,37.4094,德州市,太阳城中学,颗粒物(PM10),79,107,76,14,38,141,,193,180,20,21,2,7,0.4,0.5
2025-06-02T2100,3511A,116.5652,37.3319,德州市,陵城艺术中心,颗粒物(PM10),73,95,76,17,36,138,,192,180,15,13,9,8,0.4,0.5
2025-06-02T2100,2621A,99.7056,27.8317,迪庆藏族自治州,迪庆州站,,29,24,16,17,10,91,,97,97,7,5,6,6,0.3,0.3
2025-06-02T2100,3180A,99.7136,27.8094,迪庆藏族自治州,质量技术监督局,,28,21,17,8,8,89,,92,92,9,9,4,4,0.8,0.5
2025-06-02T2100,4257A,104.6092,35.5962,定西市,将台街,,41,41,47,21,18,116,,131,129,9,18,4,5,0.3,0.3
2025-06-02T2100,4309A,104.6159,35.5701,定西市,正龙路62号,,43,43,43,18,20,107,,128,125,10,12,7,7,0.2,0.2
2025-06-02T2100,1389A,113.7547,23.0494,东莞市,莞城梨川,,16,14,29,6,12,51,,87,80,21,10,8,8,0.4,0.3
2025-06-02T2100,1390A,113.7944,23.0128,东莞市,东城石井,,,41,24,15,10,50,,76,71,20,12,,2,0.5,0.5
2025-06-02T2100,1391A,113.7383,22.9658,东莞市,南城西平,,25,25,17,14,11,52,,75,70,18,10,4,4,0.5,0.4
2025-06-02T2100,3319A,113.7338,23.0381,东莞市,万江金泰,,,46,24,28,12,,,72,70,17,9,5,2,0.4,0.5
2025-06-02T2100,3626A,113.7533,23.0202,东莞市,南城元岭,,33,33,21,14,9,52,,80,74,20,11,4,4,0.7,0.6
2025-06-02T2100,3627A,113.7875,23.0457,东莞市,东城主山,,47,47,30,16,11,51,,85,78,18,9,5,5,0.6,0.6
2025-06-02T2100,1666A,118.6614,37.4309,东营市,市环保局,,40,31,48,24,28,128,,169,155,22,19,5,8,0.5,0.5
2025-06-02T2100,3036A,118.6904,37.4338,东营市,开发区管委会,,50,32,52,19,26,160,,188,182,17,17,4,7,0.5,0.6
2025-06-02T2100,3365A,118.5719,37.565,东营市,垦利区民丰路,颗粒物(PM10),51,51,54,31,30,92,,198,169,36,20,8,10,0.9,0.8
2025-06-02T2100,3498A,118.5055,37.8612,东营市,河口城区,,,46,55,24,27,144,,212,196,,18,8,10,0.7,1.1
2025-06-02T2100,3646A,118.4978,37.4623,东营市,胜利站,颗粒物(PM10),51,52,57,29,29,139,,191,174,19,19,7,10,0.8,0.7
2025-06-02T2100,3734A,118.35,37.26,东营市,理想之城,,43,36,55,27,32,136,,202,175,28,30,4,6,0.6,0.6
2025-06-02T2100,1591A,110.0023,39.8129,鄂尔多斯市,综合楼,,29,29,33,12,11,78,,103,99,14,13,5,9,0.2,0.3
2025-06-02T2100,1592A,109.9486,39.8261,鄂尔多斯市,巴音孟克林场办事处,,41,41,45,12,12,84,,112,108,17,14,6,7,0.3,0.3
2025-06-02T2100,1593A,109.7736,39.5986,鄂尔多斯市,康泽苑,,30,22,31,7,8,95,,116,114,6,8,6,7,0.2,0.3
2025-06-02T2100,1594A,109.8119,39.5989,鄂尔多斯市,华泰汽车城,,28,27,32,3,11,88,,112,110,11,13,5,6,0.3,0.4
2025-06-02T2100,1595A,109.9734,39.7884,鄂尔多斯市,奥林花园,,44,44,39,9,10,79,,101,98,13,13,5,6,0.2,0.4
2025-06-02T2100,2436A,114.8938,30.3994,鄂州市,市政府,,30,30,12,21,6,90,,107,104,20,11,6,6,0.4,0.4
2025-06-02T2100,2437A,114.8989,30.3714,鄂州市,赵家坝,,34,21,9,18,3,108,,114,114,11,5,5,5,0.6,0.7
2025-06-02T2100,3654A,114.8094,30.4089,鄂州市,精准医疗中心,,32,28,13,12,3,101,,112,110,2,2,4,4,0.9,0.8
2025-06-02T2100,2454A,109.4978,30.2981,恩施土家族苗族自治州,湖北民院,,28,28,17,11,6,15,,74,69,21,9,4,5,0.5,0.4
2025-06-02T2100,2455A,109.4707,30.2798,恩施土家族苗族自治州,州电力总公司,,19,18,15,13,6,44,,65,64,13,9,6,6,0.5,0.4
2025-06-02T2100,3549A,109.5061,30.3772,恩施土家族苗族自治州,龙凤新区,,19,19,11,12,4,9,,48,43,13,5,6,6,0.4,0.3
2025-06-02T2100,2499A,108.3411,21.6158,防城港市,沙万,,,77,47,38,16,62,,60,60,,19,3,3,0.3,0.4
2025-06-02T2100,2500A,108.3514,21.7731,防城港市,防城档案局,,35,,38,24,20,47,,124,113,17,11,3,4,0.5,0.5
2025-06-02T2100,2501A,108.3506,21.6414,防城港市,大海花园,,28,22,45,19,14,66,,89,87,8,17,2,8,0.6,0.6
2025-06-02T2100,1371A,113.1294,23.0067,佛山市,湾梁,,31,31,31,18,13,42,,97,86,28,18,7,8,0.7,0.6
2025-06-02T2100,1372A,113.1083,23.0478,佛山市,华材职中,,23,,24,15,13,72,,114,107,12,15,5,5,0.4,0.4
2025-06-02T2100,1373A,113.144,23.0453,佛山市,南海气象局,,26,25,34,18,16,59,,86,78,14,20,2,2,0.7,0.7
2025-06-02T2100,1374A,113.2881,22.8094,佛山市,顺德苏岗,,30,30,33,3,11,49,,92,67,12,16,5,6,0.6,0.6
2025-06-02T2100,1376A,112.8383,22.8678,佛山市,高明孔堂,,24,24,22,11,11,43,,72,67,10,7,5,5,0.7,0.6
2025-06-02T2100,1377A,112.8836,23.1588,佛山市,三水监测站,颗粒物(PM10),62,73,34,35,19,81,,107,107,31,26,2,2,0.6,0.5
2025-06-02T2100,1378A,112.867,23.185,佛山市,三水云东海,颗粒物(PM10),63,75,46,44,13,54,,99,94,22,22,3,3,0.6,0.5
2025-06-02T2100,3625A,113.2544,22.7642,佛山市,容桂街道办,,25,,25,17,15,35,,71,57,24,19,5,5,0.6,0.7
2025-06-02T2100,1280A,119.3903,26.0543,福州市,鼓山,,,,31,,29,,,100,,,2,,1,,0.2
2025-06-02T2100,1282A,119.2681,26.0504,福州市,师大,,,31,46,3,23,,,117,92,28,16,3,4,0.4,0.4
2025-06-02T2100,1283A,119.2984,26.1028,福州市,五四北路,,42,42,47,27,31,30,,125,96,34,20,3,4,0.6,0.5
2025-06-02T2100,1284A,119.2648,26.0768,福州市,杨桥西路,,35,32,44,24,28,37,,122,90,22,16,3,3,0.4,0.4
2025-06-02T2100,1285A,119.317,26.0746,福州市,紫阳,,40,34,48,28,31,43,,108,83,27,25,5,5,0.5,0.5
2025-06-02T2100,3048A,119.5799,26.0936,福州市,九龙,,30,30,36,19,25,75,,134,116,12,11,4,4,0.3,0.3
2025-06-02T2100,3526A,119.5189,25.9664,福州市,吴航,,32,32,35,16,23,54,,128,103,10,9,4,5,0.3,0.3
2025-06-02T2100,1755A,123.7977,41.8491,抚顺市,望花区,,27,19,72,10,33,85,,157,122,18,39,10,8,0.5,0.7
2025-06-02T2100,1756A,123.9161,41.8822,抚顺市,顺城区,,25,10,60,8,26,77,,148,116,16,41,9,11,0.7,0.7
2025-06-02T2100,1757A,124.0436,41.8611,抚顺市,东洲区,,27,6,51,3,22,86,,149,120,14,25,6,8,0.5,0.5
2025-06-02T2100,1758A,123.9247,41.8642,抚顺市,新抚区,,23,23,59,7,27,58,,150,114,13,34,6,8,0.8,0.7
2025-06-02T2100,1759A,124.0972,41.8961,抚顺市,大伙房水库,,,13,39,3,30,,,155,132,10,25,6,8,0.4,0.5
2025-06-02T2100,1760A,123.7086,41.8391,抚顺市,沈抚新城,,25,17,60,3,27,78,,150,117,18,44,5,9,0.6,0.9
2025-06-02T2100,2376A,116.2127,28.0814,抚州市,桐源党溪,,21,21,20,12,11,53,,75,71,2,3,3,3,0.9,0.9
2025-06-02T2100,2377A,116.3544,27.9831,抚州市,市站,,26,16,17,7,7,83,,82,82,3,3,1,1,0.4,0.5
2025-06-02T2100,2378A,116.3565,27.963,抚州市,血防站,,27,21,22,13,10,84,,81,81,3,3,1,2,0.6,0.6
2025-06-02T2100,2379A,116.3564,28.0007,抚州市,采茶剧团,,25,18,16,9,7,79,,78,78,2,3,2,2,0.1,0.2
2025-06-02T2100,2380A,116.385,27.9647,抚州市,医学分院,,28,28,18,8,7,78,,78,78,2,3,5,4,1.0,1
2025-06-02T2100,2207A,121.6094,41.998,阜新市,工业园区,,39,39,53,10,28,49,,158,94,32,31,10,15,0.4,0.5
2025-06-02T2100,2208A,121.6697,42.0279,阜新市,长青街,,31,31,41,15,23,41,,152,75,27,23,6,13,0.4,0.4
2025-06-02T2100,2209A,121.6673,42.0705,阜新市,农业园区,,29,29,40,7,24,52,,154,79,12,20,5,12,0.2,0.5
2025-06-02T2100,2210A,121.6717,42.0224,阜新市,东苑,,48,48,51,14,25,53,,159,92,34,25,9,14,0.5,0.5
2025-06-02T2100,2211A,121.6506,42.0498,阜新市,玉龙新城,颗粒物(PM10),53,56,48,12,23,13,,149,75,58,32,6,11,0.6,0.7
2025-06-02T2100,2301A,115.8277,32.8929,阜阳市,市监测站,颗粒物(PM10),52,53,27,31,14,107,,121,120,14,9,8,7,0.2,0.1
2025-06-02T2100,2303A,115.8554,32.8605,阜阳市,开发区,颗粒物(PM10),69,88,22,23,8,94,,122,119,16,8,5,4,0.2,0.1
2025-06-02T2100,2875A,115.784,32.8892,阜阳市,阜阳职业技术学院,,49,49,17,28,12,106,,135,132,21,7,5,4,0.4,0.3
2025-06-02T2100,3468A,115.7901,32.8613,阜阳市,市规划展馆,,,52,24,34,14,106,,126,124,14,7,,5,0.6,0.5
2025-06-02T2100,3469A,115.836,32.9183,阜阳市,枣园社区,颗粒物(PM10),55,59,30,38,17,104,,121,120,14,7,6,5,0.5,0.4
2025-06-02T2100,2669A,102.9099,34.9841,甘南藏族自治州,州政府,,30,,24,21,20,88,,92,91,2,5,2,3,0.3,0.2
2025-06-02T2100,3380A,102.8914,34.9617,甘南藏族自治州,甘肃民族师范学院,,27,21,26,12,11,86,,95,93,9,6,7,7,0.3,0.3
2025-06-02T2100,2570A,101.9603,30.0475,甘孜藏族自治州,水桥子,,30,,6,15,7,96,,102,102,16,5,4,5,0.3,0.2
2025-06-02T2100,3065A,101.9533,29.9972,甘孜藏族自治州,州环保局,,29,18,7,10,4,92,,101,100,17,8,2,2,0.3,0.3
2025-06-02T2100,3414A,115.8347,28.932,赣江新区,桑海产业园,,33,14,5,6,2,103,,106,106,10,8,4,4,0.6,0.7
2025-06-02T2100,2362A,114.9017,25.9149,赣州市,通天岩,,18,18,22,3,4,41,,56,54,5,5,2,2,1.2,1.1
2025-06-02T2100,2363A,114.9367,25.8664,赣州市,地委,,,16,21,3,11,,,61,61,4,8,1,2,0.7,0.8
2025-06-02T2100,2364A,114.9461,25.8481,赣州市,气象台,,18,18,21,3,8,55,,54,54,8,9,12,8,0.7,0.6
2025-06-02T2100,2365A,114.9322,25.8333,赣州市,市图书馆,,20,,13,7,10,62,,56,56,4,6,5,4,0.6,0.6
2025-06-02T2100,2366A,114.8905,25.8471,赣州市,华坚鞋城,,21,13,20,10,11,66,,55,55,3,9,3,4,0.3,0.3
2025-06-02T2100,3109A,115.0093,25.8613,赣州市,赣县区卫计委,,21,,16,8,10,65,,53,53,6,9,2,2,0.4,0.4
2025-06-02T2100,2683A,106.2319,36.1417,固原市,马园,颗粒物(PM10),53,56,50,12,13,82,,121,116,36,35,8,6,0.2,0.3
2025-06-02T2100,2684A,106.2792,36.0022,固原市,监测站,,44,44,40,8,12,113,,121,121,14,17,6,6,0.4,0.4
2025-06-02T2100,2685A,106.2375,36.0211,固原市,新区,,43,43,39,11,11,104,,119,118,21,18,7,6,0.3,0.4
2025-06-02T2100,3522A,106.2177,35.9959,固原市,原州区十五小,,46,46,36,15,13,104,,121,120,23,11,12,8,0.3,0.2
2025-06-02T2100,2543A,106.6308,30.5278,广安市,小平旧居,,,,,,,,,,,,,,,,
2025-06-02T2100,2544A,106.6303,30.4576,广安市,市委,,42,42,21,24,13,70,,88,88,14,11,2,2,0.5,0.5
2025-06-02T2100,2545A,106.6271,30.4663,广安市,友谊中学,,37,37,20,21,11,78,,94,94,13,12,5,5,0.7,0.7
2025-06-02T2100,2547A,106.6388,30.4551,广安市,广电花园,,33,31,18,23,12,69,,85,85,12,10,6,6,0.5,0.5
2025-06-02T2100,2902A,106.6351,30.4865,广安市,北辰小学,,36,35,16,25,10,83,,95,95,10,9,13,12,0.6,0.6
2025-06-02T2100,2523A,105.8945,32.4535,广元市,黑石坡,,37,37,38,13,10,68,,76,76,4,10,4,8,0.2,0.4
2025-06-02T2100,2524A,105.821,32.4444,广元市,老城,,40,40,28,13,11,24,,82,77,45,20,3,7,0.9,0.9
2025-06-02T2100,2526A,105.8628,32.4287,广元市,监测站,,31,31,24,14,11,47,,82,81,30,16,5,8,0.5,0.5
2025-06-02T2100,3617A,105.8047,32.4166,广元市,经开区,,36,36,30,13,14,28,,82,78,48,21,4,9,0.5,0.5
2025-06-02T2100,1345A,113.2347,23.1423,广州市,广雅中学,,33,33,33,19,16,76,,105,101,31,26,2,2,0.9,0.9
2025-06-02T2100,1346A,113.2612,23.105,广州市,市五中,,41,41,32,21,15,46,,100,91,32,21,4,3,0.4,0.4
2025-06-02T2100,1348A,113.3478,23.0916,广州市,广东商学院,,,47,30,27,16,,,80,75,51,25,4,3,0.7,0.7
2025-06-02T2100,1349A,113.4332,23.1047,广州市,市八十六中,,44,44,31,15,12,7,,53,46,58,38,3,3,0.4,0.4
2025-06-02T2100,1350A,113.3505,22.9483,广州市,番禺中学,,43,43,30,19,14,26,,93,69,38,23,6,6,0.3,0.3
2025-06-02T2100,1351A,113.2146,23.3916,广州市,花都师范,颗粒物(PM10),55,59,38,33,22,69,,113,113,49,30,4,4,0.9,0.7
2025-06-02T2100,1352A,113.2597,23.1331,广州市,市监测站,,43,43,33,18,15,49,,99,95,36,22,5,5,0.7,0.6
2025-06-02T2100,1353A,113.5618,23.312,广州市,九龙镇镇龙,颗粒物(PM10),55,59,38,27,17,33,,97,93,48,25,6,6,0.6,0.5
2025-06-02T2100,1354A,113.2765,23.1544,广州市,麓湖,,42,42,30,20,15,24,,78,72,36,20,2,3,0.5,0.4
2025-06-02T2100,1355A,113.443,23.3035,广州市,帽峰山森林公园,,,42,28,14,11,,,64,64,38,16,6,6,0.7,0.7
2025-06-02T2100,2846A,113.3221,23.1322,广州市,体育西,,42,42,31,20,15,20,,84,75,59,29,5,5,0.6,0.5
2025-06-02T2100,3298A,113.5717,23.5491,广州市,从化街口,颗粒物(PM10),55,60,35,35,20,56,,116,112,31,15,7,7,0.8,0.7
2025-06-02T2100,3299A,113.3472,23.3692,广州市,白云竹料,颗粒物(PM10),57,64,36,32,17,54,,105,103,31,21,2,3,0.9,0.6
2025-06-02T2100,3300A,113.2981,23.237,广州市,白云嘉禾,,49,49,35,20,16,29,,94,89,52,27,6,6,0.9,0.8
2025-06-02T2100,3301A,113.4256,23.1716,广州市,黄埔科学城,,50,50,34,18,13,20,,71,64,44,27,4,4,0.7,0.6
2025-06-02T2100,3302A,113.3942,23.0483,广州市,番禺大学城,,42,42,34,19,13,18,,67,52,49,25,5,5,0.5,0.5
2025-06-02T2100,3303A,113.4922,22.8168,广州市,南沙黄阁,,36,36,29,14,11,37,,55,50,19,12,5,5,0.6,0.5
2025-06-02T2100,3304A,113.5342,22.7896,广州市,南沙街,,31,31,26,11,9,42,,60,56,15,12,1,2,0.6,0.5
2025-06-02T2100,3443A,113.2902,23.5544,广州市,花都梯面,,32,,29,22,15,14,,95,88,42,21,4,4,0.7,0.6
2025-06-02T2100,3445A,113.7858,23.7478,广州市,从化良口,,37,37,25,19,17,28,,75,65,8,10,6,6,0.7,0.6
2025-06-02T2100,3446A,113.8051,23.2614,广州市,增城荔城,,44,44,35,19,20,35,,82,69,17,15,8,8,0.3,0.3
2025-06-02T2100,2505A,109.568,23.1478,贵港市,德智高中,,,,,,,,,,,,,,,,
2025-06-02T2100,2506A,109.6047,23.0666,贵港市,江南子站,,15,7,29,7,14,48,,63,57,8,13,5,8,0.6,0.6
2025-06-02T2100,2508A,109.5669,23.1065,贵港市,荷城子站,,15,14,33,3,10,46,,58,53,10,12,4,6,0.5,0.4
2025-06-02T2100,3405A,109.5886,23.1172,贵港市,新世纪学校,,15,6,27,3,14,46,,57,51,10,13,3,7,0.7,0.6
2025-06-02T2100,4260A,109.5933,23.0951,贵港市,中山路155-3号,,18,18,39,7,18,56,,67,62,10,13,3,4,0.5,0.5
2025-06-02T2100,1439A,106.6899,26.5998,贵阳市,马鞍山,,20,9,9,3,2,64,,51,51,9,6,2,2,0.3,0.4
2025-06-02T2100,1441A,106.6243,26.6266,贵阳市,鉴湖路,,22,17,14,3,4,68,,60,60,9,9,7,8,0.4,0.4
2025-06-02T2100,1442A,106.7487,26.6343,贵阳市,燕子冲,,22,14,16,14,14,69,,57,57,10,11,5,4,0.4,0.4
2025-06-02T2100,1443A,106.6555,26.4365,贵阳市,碧云窝,,25,17,15,7,5,78,,69,69,10,10,5,5,0.3,0.4
2025-06-02T2100,1445A,106.7109,26.6027,贵阳市,红边门,,24,12,10,12,9,74,,66,66,4,4,4,5,0.2,0.3
2025-06-02T2100,1446A,106.7164,26.5699,贵阳市,新华路,,22,17,9,12,4,69,,64,64,13,11,5,6,0.4,0.5
2025-06-02T2100,1447A,106.674,26.5424,贵阳市,太慈桥,,24,12,8,3,3,74,,62,62,13,12,4,4,0.3,0.3
2025-06-02T2100,1552A,106.805,26.3003,贵阳市,桐木岭,,29,29,25,12,12,70,,65,65,5,3,1,1,0.8,0.8
2025-06-02T2100,4230A,106.6882,26.5695,贵阳市,花果园大街66号,,,,8,11,10,,,63,61,8,8,4,4,0.1,0.4
2025-06-02T2100,4231A,106.6873,26.5169,贵阳市,漓江路57号,,23,9,10,3,4,73,,63,63,9,9,1,1,0.4,0.4
2025-06-02T2100,1862A,110.4144,25.3167,桂林市,电子科大尧山校区,,,,,,,,,,,,,,,,
2025-06-02T2100,1864A,110.3089,25.2708,桂林市,龙隐路小学,,25,7,15,3,10,80,,82,82,6,9,8,9,0.5,0.6
2025-06-02T2100,1865A,110.2869,25.2178,桂林市,八中,,25,11,23,3,12,77,,78,78,9,14,6,7,0.6,0.7
2025-06-02T2100,3531A,110.296,25.1253,桂林市,旅游学院,,21,,10,7,9,66,,69,69,6,11,1,3,0.4,0.4
2025-06-02T2100,4222A,110.1835,25.2444,桂林市,环湖路276号,,24,9,15,3,12,76,,75,75,5,10,5,10,0.5,0.6
2025-06-02T2100,4301A,110.2803,25.2773,桂林市,信义路13号,,25,13,21,6,17,80,,83,83,8,13,2,3,0.4,0.4
2025-06-02T2100,2674A,100.2561,34.4714,果洛藏族自治州,玛沁县大武镇,,34,21,14,18,10,107,,113,111,6,2,21,20,0.5,0.4
2025-06-02T2100,1129A,126.5422,45.755,哈尔滨市,岭北,,30,20,36,17,20,95,,81,81,16,28,12,12,0.7,0.8
2025-06-02T2100,1130A,126.561,45.8167,哈尔滨市,松北商大,,29,,32,20,16,90,,68,68,10,29,5,6,0.7,0.8
2025-06-02T2100,1131A,126.979,45.5419,哈尔滨市,阿城会宁,,39,22,40,17,21,122,,91,91,9,28,7,8,0.5,0.4
2025-06-02T2100,1132A,126.599,45.7222,哈尔滨市,南岗学府路,,33,27,48,13,19,103,,90,90,15,37,7,8,0.6,0.7
2025-06-02T2100,1133A,126.689,45.7733,哈尔滨市,太平宏伟公园,,38,,47,26,21,103,,76,76,15,37,5,7,0.7,0.7
2025-06-02T2100,1134A,126.635,45.7667,哈尔滨市,道外承德广场,,38,38,34,23,28,97,,74,74,18,34,6,7,0.3,0.6
2025-06-02T2100,1135A,126.685,45.7319,哈尔滨市,香坊红旗大街,,35,24,45,17,15,109,,88,88,20,40,6,10,0.7,0.9
2025-06-02T2100,1136A,126.6411,45.7258,哈尔滨市,动力和平路,细颗粒物(PM2.5),54,,43,38,29,102,,85,85,17,36,8,10,0.5,0.7
2025-06-02T2100,1137A,126.593,45.7478,哈尔滨市,道里建国路,,32,20,40,17,17,102,,84,84,17,38,2,4,1.5,1.9
2025-06-02T2100,1138A,126.615,45.61,哈尔滨市,平房东轻厂,,33,19,38,15,15,105,,99,99,10,34,7,9,0.5,0.5
2025-06-02T2100,1139A,126.595,45.9855,哈尔滨市,呼兰师专,,33,25,36,23,28,101,,76,76,15,31,8,9,0.5,0.4
2025-06-02T2100,1140A,126.6206,45.6842,哈尔滨市,省农科院,,29,26,63,16,23,90,,81,81,26,46,3,8,0.8,0.8
2025-06-02T2100,2688A,93.5128,42.8172,哈密市,地区监测站,,40,40,58,3,18,92,,102,102,14,13,3,3,0.0,0
2025-06-02T2100,2689A,93.4961,42.8328,哈密市,哈密师范学校,,30,27,47,11,14,96,,104,104,13,16,5,5,0.3,0.4
2025-06-02T2100,2671A,100.9048,36.9639,海北藏族自治州,海晏县西海镇,,37,30,28,16,16,118,,133,132,4,5,10,7,0.4,0.4
2025-06-02T2100,3867A,102.0738,36.5056,海东市,平安区公安北苑,,38,38,38,14,20,95,,117,114,21,10,10,12,1.2,0.8
2025-06-02T2100,1409A,110.576,19.9507,海口市,东寨港,,25,25,17,6,8,54,,68,68,6,4,8,9,0.5,0.4
2025-06-02T2100,1410A,110.3232,20.0574,海口市,海南大学,,,23,20,10,9,,,74,72,,7,,2,,0.3
2025-06-02T2100,1411A,110.283,20.0053,海口市,秀英海南医院,,22,22,23,14,10,43,,63,58,16,8,5,4,0.3,0.2
2025-06-02T2100,1412A,110.338,19.9969,海口市,海南师范大学,,18,17,23,12,9,42,,71,65,17,7,4,3,0.5,0.4
2025-06-02T2100,1413A,110.33,20.0356,海口市,龙华路环保局宿舍,,24,24,21,10,9,42,,70,65,17,8,4,4,0.3,0.3
2025-06-02T2100,3539A,110.5111,19.9736,海口市,桂林洋子站,,34,34,24,14,10,55,,77,75,14,9,6,4,0.3,0.2
2025-06-02T2100,2673A,100.6188,36.2866,海南藏族自治州,共和县恰卜恰镇,,37,37,34,23,19,116,,124,122,5,8,13,12,0.4,0.3
2025-06-02T2100,2676A,97.3731,37.3753,海西蒙古族藏族自治州,德令哈市,,41,35,36,17,13,131,,134,134,2,1,8,9,0.5,0.5
2025-06-02T2100,1048A,114.5302,36.6116,邯郸市,东污水处理厂,颗粒物(PM10),67,84,107,29,67,153,,193,184,22,20,8,10,0.6,0.8
2025-06-02T2100,1049A,114.4918,36.5713,邯郸市,矿院,颗粒物(PM10),61,71,97,27,63,166,,204,189,14,17,6,8,0.6,0.9
2025-06-02T2100,1050A,114.484,36.6133,邯郸市,丛台公园,颗粒物(PM10),64,78,118,39,71,169,,192,186,18,19,9,11,0.7,0.9
2025-06-02T2100,3458A,114.7895,36.5593,邯郸市,香泉濮院小区,颗粒物(PM10),73,96,133,26,59,135,,197,187,27,18,5,5,0.2,0.6
2025-06-02T2100,3579A,114.50634,36.77178,邯郸市,永年区实验高中,"颗粒物(PM10),细颗粒物(PM2.5)",73,95,120,53,81,146,,203,188,22,22,3,4,0.6,0.7
2025-06-02T2100,3580A,114.20016,36.44293,邯郸市,峰峰矿区临水派出所,颗粒物(PM10),55,59,81,24,58,152,,201,187,16,14,10,12,0.4,0.9
2025-06-02T2100,2634A,106.9893,33.1842,汉中市,汉川机床厂子校,细颗粒物(PM2.5),58,52,23,41,14,56,,95,91,18,8,4,3,0.6,0.5
2025-06-02T2100,2635A,107.0154,33.0706,汉中市,市监测站,,40,40,24,18,11,81,,90,90,11,8,6,5,0.7,0.6
2025-06-02T2100,2636A,107.0089,33.1138,汉中市,鑫源开发区,,36,36,24,20,12,66,,86,85,15,10,5,5,0.6,0.5
2025-06-02T2100,2637A,107.007,33.0323,汉中市,南郑大河坎水厂,颗粒物(PM10),56,61,28,22,13,75,,85,85,14,12,6,5,0.6,0.5
2025-06-02T2100,1223A,120.2072,30.2111,杭州市,滨江,,33,6,13,3,8,105,,111,111,16,27,6,6,0.5,0.6
2025-06-02T2100,1224A,120.0633,30.2747,杭州市,西溪,,33,,13,7,9,103,,110,110,5,7,4,4,0.5,0.5
2025-06-02T2100,1226A,120.3417,30.3150,杭州市,下沙,,,7,10,6,8,,,108,108,16,18,5,5,0.3,0.4
2025-06-02T2100,1227A,120.1269,30.2456,杭州市,卧龙桥,,32,6,11,3,6,102,,102,102,7,8,6,6,0.5,0.6
2025-06-02T2100,1228A,120.1903,30.2692,杭州市,浙江农大,,26,,9,3,9,81,,87,87,12,16,8,8,0.5,0.6
2025-06-02T2100,1230A,120.1197,30.3119,杭州市,和睦小学,,34,,9,7,9,107,,111,111,5,7,6,6,0.4,0.5
2025-06-02T2100,1231A,120.3019,30.4183,杭州市,临平镇,,29,12,16,6,8,90,,104,103,11,9,5,5,0.4,0.5
2025-06-02T2100,1232A,120.2753,30.1839,杭州市,城厢镇,,31,8,14,3,14,98,,106,106,15,18,6,6,0.5,0.6
2025-06-02T2100,1233A,120.0883,30.1808,杭州市,云栖,,29,9,10,3,4,92,,101,101,11,13,6,6,0.6,0.7
2025-06-02T2100,3557A,119.9464,30.0494,杭州市,镇二中,,27,7,14,3,9,86,,83,83,12,14,2,3,0.6,0.7
2025-06-02T2100,3558A,119.7183,30.2367,杭州市,市府大楼,,26,8,8,3,7,83,,85,85,13,13,7,7,0.5,0.6
2025-06-02T2100,3656A,120.1556,30.2864,杭州市,消防大队,,32,10,14,3,9,100,,105,105,11,14,5,4,0.6,0.7
2025-06-02T2100,1270A,117.1959,31.7848,合肥市,明珠广场,,29,29,10,14,7,77,,94,91,25,12,4,4,0.5,0.5
2025-06-02T2100,1271A,117.3072,31.8764,合肥市,三里街,,27,27,11,12,6,83,,90,86,12,9,4,4,0.4,0.4
2025-06-02T2100,1272A,117.2588,31.8707,合肥市,琥珀山庄,,27,27,10,18,10,78,,92,90,18,12,5,5,0.5,0.4
2025-06-02T2100,1273A,117.1604,31.9052,合肥市,董铺水库,,27,27,11,14,5,85,,91,90,14,8,2,1,0.3,0.3
2025-06-02T2100,1274A,117.25,31.8571,合肥市,长江中路,,,,,,,,,,,,,,,,
2025-06-02T2100,1275A,117.266,31.9436,合肥市,庐阳区,,27,24,10,17,7,86,,95,91,9,6,6,6,0.5,0.5
2025-06-02T2100,1276A,117.3453,31.8616,合肥市,瑶海区,,31,31,12,15,7,81,,92,84,16,11,6,6,0.5,0.4
2025-06-02T2100,1277A,117.3027,31.7964,合肥市,包河区,,24,24,10,12,6,70,,86,80,29,19,4,4,0.4,0.4
2025-06-02T2100,1278A,117.2776,31.7385,合肥市,滨湖新区,,32,27,10,22,11,78,,90,86,18,12,6,7,0.5,0.5
2025-06-02T2100,1279A,117.1318,31.8403,合肥市,高新区,,32,24,12,22,8,94,,96,96,14,11,5,5,0.4,0.5
2025-06-02T2100,3464A,117.3803,31.9147,合肥市,高教基地,,23,22,10,16,7,66,,89,84,4,3,6,6,0.4,0.4
2025-06-02T2100,3614A,79.924,37.0877,和田地区,地区环保局,颗粒物(PM10),148,246,365,106,101,100,,104,103,6,8,1,2,0.4,0.4
2025-06-02T2100,3615A,79.9131,37.113,和田地区,市环保局,颗粒物(PM10),167,284,311,95,91,100,,107,106,9,6,1,2,0.6,0.6
2025-06-02T2100,2516A,108.2011,24.715,河池市,东仁乐园,,,,,,,,,,,,,,,,
2025-06-02T2100,2517A,108.0497,24.6947,河池市,市环保站,,20,8,21,3,8,61,,61,61,4,5,7,7,0.6,0.6
2025-06-02T2100,2518A,108.0983,24.6989,河池市,市疾控中心,,20,6,16,3,6,64,,63,63,5,9,6,6,0.6,0.6
2025-06-02T2100,1696A,114.6778,23.7569,河源市,源西,,45,45,26,18,17,52,,86,78,30,10,4,4,0.6,0.4
2025-06-02T2100,1697A,114.6944,23.7586,河源市,东埔,,40,40,26,24,19,71,,95,92,21,12,4,4,0.6,0.5
2025-06-02T2100,1698A,114.6892,23.7233,河源市,老城,,39,39,27,24,18,44,,88,80,21,12,3,4,0.5,0.4
2025-06-02T2100,1718A,115.4208,35.2464,菏泽市,气象局,颗粒物(PM10),98,146,77,46,36,175,,211,207,22,12,4,3,0.5,0.4
2025-06-02T2100,3374A,115.5564,35.0891,菏泽市,定陶老年大学,颗粒物(PM10),86,122,61,31,27,151,,187,183,18,12,5,4,0.0,0.2
2025-06-02T2100,4184A,115.4797,35.24401,菏泽市,永昌路1号,颗粒物(PM10),88,125,67,36,25,173,,206,202,21,12,7,6,0.3,0.3
2025-06-02T2100,4193A,115.4715,35.2800,菏泽市,长城路999号,颗粒物(PM10),93,135,66,42,31,187,,214,211,22,13,9,9,0.5,0.4
2025-06-02T2100,2514A,111.5264,24.4172,贺州市,环保小区,,21,10,26,3,20,65,,67,67,7,10,8,11,0.5,0.6
2025-06-02T2100,2515A,111.5608,24.4078,贺州市,政协大楼,,20,20,24,3,15,63,,65,65,8,10,9,11,0.7,0.7
2025-06-02T2100,3534A,111.4744,24.4553,贺州市,西湾,,21,8,20,3,14,67,,67,67,7,10,8,8,0.7,0.7
2025-06-02T2100,2385A,114.17,35.9019,鹤壁市,市监测站,颗粒物(PM10),78,105,100,48,62,126,,190,176,29,21,10,10,0.3,0.4
2025-06-02T2100,2386A,114.2956,35.7511,鹤壁市,市交警支队,颗粒物(PM10),61,72,81,33,50,148,,181,172,23,21,5,8,0.6,0.6
2025-06-02T2100,2387A,114.2878,35.7306,鹤壁市,迎宾馆,颗粒物(PM10),83,115,101,38,56,154,,188,180,23,21,6,5,0.6,0.7
2025-06-02T2100,3474A,114.2617,35.6822,鹤壁市,大新区,颗粒物(PM10),66,82,69,30,60,125,,179,165,32,23,7,8,0.8,0.8
2025-06-02T2100,3596A,114.1572,35.9603,鹤壁市,南山宾馆,颗粒物(PM10),91,131,99,54,66,130,,189,176,28,15,8,7,0.5,0.6
2025-06-02T2100,2244A,130.2537,47.3416,鹤岗市,哈啤分公司,,39,39,25,25,22,90,,105,104,10,6,14,15,0.3,0.2
2025-06-02T2100,2245A,130.2684,47.3086,鹤岗市,斯达机电,,44,44,28,26,20,79,,100,98,19,8,13,13,0.3,0.4
2025-06-02T2100,2246A,130.3114,47.3388,鹤岗市,东山纸板厂,颗粒物(PM10),54,58,46,17,17,92,,102,101,13,10,21,15,0.4,0.5
2025-06-02T2100,2247A,130.1097,47.3382,鹤岗市,五号水库,,,,,,,,,,,,,,,,
2025-06-02T2100,2263A,127.4833,50.2524,黑河市,交通局,,39,39,25,16,12,51,,75,68,11,8,6,7,0.4,0.3
2025-06-02T2100,2264A,127.5144,50.2341,黑河市,环保局,颗粒物(PM10),51,52,31,16,11,51,,78,71,17,10,4,3,0.4,0.3
2025-06-02T2100,2265A,127.5291,50.2472,黑河市,大黑河岛,,,,,,,61,,69,67,22,9,4,4,0.3,0.3
2025-06-02T2100,1074A,115.6838,37.7541,衡水市,电机北厂,颗粒物(PM10),63,75,108,26,69,112,,173,156,13,18,2,4,0.2,0.6
2025-06-02T2100,1075A,115.6303,37.7316,衡水市,市监测站,颗粒物(PM10),55,60,101,16,64,118,,168,154,8,15,5,8,0.2,0.6
2025-06-02T2100,3188A,115.6683,37.7217,衡水市,市城管局,颗粒物(PM10),70,90,100,21,62,116,,170,155,14,18,3,4,0.2,0.6
2025-06-02T2100,3459A,115.5989,37.5491,衡水市,地表水厂,,,86,110,12,61,,,184,174,14,18,4,5,0.2,0.7
2025-06-02T2100,2456A,112.5003,26.9167,衡阳市,原169医院,,30,30,17,16,12,94,,103,96,6,6,3,3,0.6,0.6
2025-06-02T2100,2457A,112.6194,26.9258,衡阳市,衡阳化工总厂,,37,37,21,24,17,73,,85,82,11,6,5,5,0.5,0.6
2025-06-02T2100,2458A,112.6211,26.8956,衡阳市,珠晖区环保局,,32,32,19,17,10,82,,92,88,7,7,6,6,0.9,0.9
2025-06-02T2100,2459A,112.6197,26.8733,衡阳市,市委党校,,31,31,17,18,10,73,,89,85,11,8,5,3,0.5,0.6
2025-06-02T2100,2460A,112.6006,26.8919,衡阳市,市监测站,,39,39,18,23,13,73,,88,83,10,7,7,6,0.5,0.5
2025-06-02T2100,2461A,112.5664,26.9056,衡阳市,真空机电公司,,35,35,19,15,10,77,,91,83,7,4,6,5,0.7,0.7
2025-06-02T2100,3399A,112.6703,26.882,衡阳市,师范学院,,32,32,18,18,14,83,,91,88,9,8,7,6,0.7,0.7
2025-06-02T2100,2608A,103.3772,23.3993,红河哈尼族彝族自治州,污水处理厂,,25,,17,17,8,38,,50,45,10,11,6,6,0.2,0.2
2025-06-02T2100,2609A,103.3861,23.35,红河哈尼族彝族自治州,监测站,,31,31,20,16,9,37,,47,41,3,3,13,12,0.1,0.1
2025-06-02T2100,3038A,103.3758,23.368,红河哈尼族彝族自治州,州图书馆,,16,,10,11,9,42,,52,46,4,4,3,3,0.2,0.2
2025-06-02T2100,1090A,111.6507,40.7517,呼和浩特市,呼市一监,,26,9,21,6,8,82,,89,87,6,4,6,9,0.2,0.3
2025-06-02T2100,1091A,111.6572,40.8033,呼和浩特市,小召,,25,12,24,3,3,80,,93,89,15,12,8,8,0.5,0.4
2025-06-02T2100,1094A,111.7516,40.8369,呼和浩特市,如意水处理厂,,26,8,11,6,4,82,,92,89,5,6,5,6,0.2,0.2
2025-06-02T2100,1095A,111.7276,40.8062,呼和浩特市,二十九中,,27,9,24,3,4,84,,91,90,5,11,4,4,0.4,0.4
2025-06-02T2100,1096A,111.5512,40.7866,呼和浩特市,工大金川校区,,29,12,21,3,4,90,,95,92,5,7,5,6,0.3,0.3
2025-06-02T2100,1097A,111.717,40.7612,呼和浩特市,化肥厂生活区,,26,10,12,3,3,83,,99,95,10,6,6,6,0.1,0.2
2025-06-02T2100,3698A,111.5968,40.8178,呼和浩特市,红旗小学,,24,9,20,3,4,75,,99,94,21,11,1,2,0.2,0.1
2025-06-02T2100,3699A,111.6518,40.8389,呼和浩特市,海东办,,,7,23,3,4,,,96,94,10,6,3,6,0.4,0.3
2025-06-02T2100,2192A,119.7594,49.2261,呼伦贝尔市,区环保局,,30,30,27,19,24,76,,101,84,9,7,5,5,0.2,0.2
2025-06-02T2100,3061A,119.7512,49.1577,呼伦贝尔市,国华电力东,,30,30,29,17,16,86,,101,90,6,6,4,4,0.2,0.2
2025-06-02T2100,1250A,120.0751,30.8669,湖州市,城西水厂,,30,14,15,8,10,95,,91,88,18,22,5,5,0.4,0.5
2025-06-02T2100,2873A,120.0830,30.8929,湖州市,仁皇山新区,,31,10,11,8,8,98,,96,95,10,11,4,4,0.6,0.7
2025-06-02T2100,2907A,120.1844,30.8596,湖州市,吴兴区站,,30,15,14,11,10,95,,105,104,13,14,6,6,0.4,0.4
2025-06-02T2100,3562A,120.4148,30.8538,湖州市,南浔区站,,32,24,14,12,10,101,,124,122,13,12,4,4,0.5,0.6
2025-06-02T2100,1607A,120.9049,40.7211,葫芦岛市,龙港区,颗粒物(PM10),57,64,57,20,40,95,,156,138,27,16,27,12,0.6,0.6
2025-06-02T2100,1608A,120.8392,40.7514,葫芦岛市,化工街,细颗粒物(PM2.5),70,88,75,51,38,86,,152,134,50,35,15,14,0.8,0.7
2025-06-02T2100,1609A,120.8341,40.7073,葫芦岛市,新区,颗粒物(PM10),60,70,51,33,44,91,,150,132,41,25,11,8,0.7,0.6
2025-06-02T2100,1610A,120.8695,40.7677,葫芦岛市,东城区,,,61,55,50,51,,,146,135,58,33,9,8,0.9,0.8
2025-06-02T2100,2482A,109.5981,27.5721,怀化市,林科所,,35,34,21,24,13,39,,90,81,2,5,4,7,0.3,0.4
2025-06-02T2100,2483A,109.9453,27.5444,怀化市,河西地税局,,45,45,24,28,17,32,,91,84,26,10,1,2,0.4,0.2
2025-06-02T2100,2484A,109.9781,27.5342,怀化市,市四医院,颗粒物(PM10),52,54,25,30,14,70,,95,91,8,4,2,3,0.4,0.5
2025-06-02T2100,2485A,109.9972,27.5578,怀化市,监测楼,,,45,22,26,14,,,93,92,9,3,3,11,0.3,0.2
2025-06-02T2100,2486A,110.0394,27.583,怀化市,市委党校,细颗粒物(PM2.5),53,54,19,37,13,52,,89,84,15,4,21,8,0.6,0.6
2025-06-02T2100,1210A,119.036,33.5981,淮安市,钵池山,,29,24,9,16,12,91,,101,99,11,8,5,5,0.6,0.5
2025-06-02T2100,1211A,119.007,33.575,淮安市,北京南路,,29,29,10,16,10,92,,110,105,9,3,6,6,0.7,0.6
2025-06-02T2100,1212A,118.989,33.6067,淮安市,市监测站,,,22,8,12,9,84,,102,95,12,7,8,7,,1.1
2025-06-02T2100,1213A,119.135,33.5039,淮安市,楚州区监测站,,28,24,11,19,10,86,,100,92,10,4,6,6,0.6,0.4
2025-06-02T2100,3426A,118.8755,33.2894,淮安市,新华书店,,28,16,8,12,6,89,,105,95,9,10,7,7,0.6,0.6
2025-06-02T2100,4206A,119.0288,33.6319,淮安市,承德北路606号,,28,27,10,16,11,88,,107,104,13,5,5,5,0.5,0.4
2025-06-02T2100,2282A,116.8004,33.975,淮北市,监测站,,45,45,25,20,17,117,,148,145,9,4,6,6,0.6,0.6
2025-06-02T2100,2283A,116.8091,33.9007,淮北市,烈山区政府,,35,24,15,20,16,110,,150,144,13,5,5,3,0.7,0.7
2025-06-02T2100,3330A,116.8873,33.9836,淮北市,杜集区检察院,,49,49,30,26,20,110,,150,145,14,9,8,7,0.7,0.8
2025-06-02T2100,4017A,116.7923,33.9535,淮北市,市博物馆,,40,40,23,20,18,122,,154,150,13,8,5,6,0.7,0.6
2025-06-02T2100,2277A,116.8305,32.7727,淮南市,潘集区政府,,40,40,19,28,14,76,,98,97,20,9,2,3,0.4,0.4
2025-06-02T2100,2279A,116.8569,32.5951,淮南市,谢家集区政府,,31,31,18,17,11,72,,91,90,28,11,5,5,0.2,0.2
2025-06-02T2100,2280A,116.8281,32.633,淮南市,八公山区政府,,32,32,25,18,14,88,,92,92,13,9,5,4,0.2,0.2
2025-06-02T2100,2281A,116.6325,32.6201,淮南市,焦岗湖风景区管理处,,,,,,,,,,,,,,,,
2025-06-02T2100,2894A,117.0566,32.6531,淮南市,经济技术开发区消防队,,40,33,16,28,16,75,,86,86,12,8,6,6,0.3,0.2
2025-06-02T2100,3329A,117.0108,32.5893,淮南市,山南新区,,25,16,10,14,8,77,,99,97,13,6,6,6,0.2,0.2
2025-06-02T2100,4209A,117.0031,32.6445,淮南市,国庆中路369号,,42,40,16,29,13,83,,96,96,11,3,5,5,0.4,0.3
2025-06-02T2100,2446A,114.9028,30.4742,黄冈市,职工中心,,33,28,14,20,10,104,,114,112,6,2,6,6,0.5,0.6
2025-06-02T2100,2929A,114.8858,30.4519,黄冈市,红卫路,,34,34,19,19,10,98,,109,108,4,2,2,2,0.5,0.6
2025-06-02T2100,3398A,114.9136,30.4445,黄冈市,市林业局,,33,31,16,22,11,104,,108,107,7,2,5,6,0.6,0.6
2025-06-02T2100,2672A,102.0199,35.5102,黄南藏族自治州,同仁县隆务镇,,31,29,21,12,10,97,,108,107,2,2,4,4,0.2,0.2
2025-06-02T2100,2295A,118.2903,29.6963,黄山市,延安路89号,,23,9,8,8,7,72,,71,71,3,5,5,5,0.6,0.6
2025-06-02T2100,2297A,118.1371,30.2756,黄山市,黄山区政府5号楼,,25,,7,14,8,78,,91,85,4,4,4,4,0.3,0.4
2025-06-02T2100,4210A,118.3354,29.7203,黄山市,滨江东路7-2号,,19,19,12,3,5,53,,74,67,6,5,4,4,0.5,0.4
2025-06-02T2100,2423A,115.0601,30.2313,黄石市,沈家营,,32,21,9,9,2,100,,110,107,6,2,6,6,0.6,0.6
2025-06-02T2100,2426A,114.8988,30.2019,黄石市,铁山,,36,29,15,15,5,114,,108,108,4,7,4,4,0.5,0.8
2025-06-02T2100,2427A,115.0307,30.2092,黄石市,团城山,,34,24,14,6,2,107,,110,108,3,2,7,7,0.4,0.5
2025-06-02T2100,3149A,115.0235,30.1578,黄石市,笔架山北路,,30,19,9,3,1,93,,105,102,10,9,7,7,0.7,0.7
2025-06-02T2100,4185A,115.0780,30.21118,黄石市,磁湖东路29号,,32,16,8,12,4,102,,109,107,3,2,6,6,0.5,0.4
2025-06-02T2100,1392A,114.4183,23.0528,惠州市,河南岸金山湖子站,,33,33,26,14,15,37,,83,72,13,11,7,6,0.5,0.5
2025-06-02T2100,1393A,114.4053,23.0822,惠州市,下埔横江三路子站,,,41,28,16,15,,,96,91,14,10,5,5,0.2,0.3
2025-06-02T2100,1394A,114.4103,23.1142,惠州市,江北云山西路子站,,32,32,28,12,13,43,,97,85,14,9,7,6,0.4,0.4
2025-06-02T2100,1395A,114.4645,22.7833,惠州市,惠阳区承修路船湖子站,,32,32,24,14,13,45,,80,75,16,11,7,7,0.5,0.5
2025-06-02T2100,1396A,114.5317,22.7422,惠州市,大亚湾管委会子站,,25,25,26,11,15,46,,70,67,11,7,7,8,0.5,0.5
2025-06-02T2100,3314A,114.4338,22.8134,惠州市,惠阳秋长,,31,31,26,15,14,54,,98,92,15,11,8,7,0.6,0.6
2025-06-02T2100,3452A,114.6517,22.775,惠州市,大亚湾霞涌,,17,17,24,3,8,47,,66,65,14,9,5,6,0.4,0.4
2025-06-02T2100,2240A,130.9762,45.3001,鸡西市,环保局,,36,24,22,12,9,114,,142,138,14,12,6,7,0.2,0.2
2025-06-02T2100,2243A,130.9429,45.3039,鸡西市,第一中学,,30,21,27,12,11,95,,131,123,12,10,7,7,0.5,0.4
2025-06-02T2100,3707A,131.0207,45.3073,鸡西市,欧美日汽修厂,,37,24,28,3,11,116,,133,130,8,13,5,5,0.4,0.4
2025-06-02T2100,3709A,130.9967,45.3106,鸡西市,市政设施管理处,,33,30,32,7,13,104,,135,130,16,16,6,7,0.5,0.4
2025-06-02T2100,2367A,114.9754,27.0803,吉安市,红声器材厂,,21,17,17,9,8,66,,63,63,6,6,10,10,0.6,0.6
2025-06-02T2100,2368A,114.9658,27.0999,吉安市,市森林工业局,,22,22,17,9,8,58,,62,61,4,4,5,6,0.6,0.5
2025-06-02T2100,2369A,114.99,27.1312,吉安市,市环境监测站,,20,15,16,8,8,63,,62,62,2,2,13,12,0.7,0.8
2025-06-02T2100,2370A,115.0093,27.0968,吉安市,青原区法院,,21,21,17,10,9,67,,66,66,2,3,4,5,1.0,0.6
2025-06-02T2100,1772A,126.54,43.8622,吉林市,哈达湾,,33,28,47,15,27,103,,131,127,11,28,6,6,0.3,0.4
2025-06-02T2100,1773A,126.5844,43.8358,吉林市,东局子,,42,42,39,20,22,100,,127,123,15,21,5,5,0.6,0.6
2025-06-02T2100,1774A,126.5052,43.8245,吉林市,电力学院,,35,35,51,20,28,102,,130,126,12,29,4,5,0.5,0.5
2025-06-02T2100,1775A,126.6133,43.8972,吉林市,江北,,41,41,45,25,24,94,,126,122,14,18,7,8,0.6,0.6
2025-06-02T2100,1776A,126.555,43.8306,吉林市,江南公园,,,40,42,26,29,,,120,118,12,23,4,5,0.5,0.5
2025-06-02T2100,1778A,126.7061,43.7133,吉林市,丰满,,,,,,,,,,,,,,,,
2025-06-02T2100,2868A,126.4739,43.953,吉林市,九站,,31,21,60,13,32,98,,127,122,11,34,4,10,0.3,0.4
2025-06-02T2100,1299A,116.9862,36.6114,济南市,科干所,臭氧1小时,85,92,50,44,30,188,,210,209,19,12,6,6,0.5,0.4
2025-06-02T2100,1300A,116.9376,36.665,济南市,农科所,颗粒物(PM10),75,100,56,49,27,160,,196,194,20,14,8,9,0.3,0.3
2025-06-02T2100,1301A,117.1265,36.6734,济南市,开发区,颗粒物(PM10),74,98,59,42,31,159,,193,188,23,14,7,8,0.9,0.8
2025-06-02T2100,1303A,117.0624,36.6868,济南市,省种子仓库,颗粒物(PM10),81,112,69,46,32,178,,212,208,20,12,6,6,0.7,0.5
2025-06-02T2100,1304A,116.9489,36.6447,济南市,机床二厂,颗粒物(PM10),88,125,65,46,30,161,,190,188,20,14,6,7,0.7,0.6
2025-06-02T2100,1305A,117.0495,36.663,济南市,市监测站,颗粒物(PM10),85,120,63,46,30,162,,198,193,22,11,8,9,0.8,0.7
2025-06-02T2100,1306A,116.7675,36.5484,济南市,长清党校,颗粒物(PM10),63,76,57,39,34,169,,200,198,16,13,4,7,0.7,0.6
2025-06-02T2100,1616A,117.6795,36.229,济南市,技术学院,臭氧1小时,62,68,49,34,31,169,,190,188,22,17,15,14,0.8,1
2025-06-02T2100,1961A,117.532,36.6868,济南市,东山小学,颗粒物(PM10),61,71,54,34,27,146,,207,197,25,12,6,6,0.3,0.3
2025-06-02T2100,3059A,117.7161,36.2049,济南市,泰兴公司,颗粒物(PM10),57,63,52,34,33,148,,189,185,30,15,8,10,0.7,0.9
2025-06-02T2100,3064A,117.6867,36.2171,济南市,莱芜战役纪念馆,颗粒物(PM10),64,78,55,41,37,169,,192,190,19,12,12,10,2.2,1.2
2025-06-02T2100,3494A,117.1673,36.9782,济南市,济阳区政府,颗粒物(PM10),70,90,61,44,28,118,,196,174,30,15,8,9,0.8,0.5
2025-06-02T2100,3495A,117.1171,36.63,济南市,锦屏中学,颗粒物(PM10),66,81,43,37,23,144,,172,,19,10,10,11,0.9,0.7
2025-06-02T2100,3682A,116.9814,36.6819,济南市,济南四建,颗粒物(PM10),82,114,58,44,33,152,,208,203,41,18,5,7,0.6,0.4
2025-06-02T2100,1653A,116.6251,35.4302,济宁市,火炬城,颗粒物(PM10),59,67,45,39,30,160,,190,188,14,7,8,6,0.5,0.4
2025-06-02T2100,1655A,116.5491,35.4042,济宁市,电化厂,颗粒物(PM10),57,64,48,31,26,152,,189,186,16,5,2,3,0.7,0.5
2025-06-02T2100,3500A,116.5814,35.3707,济宁市,北湖一中,颗粒物(PM10),56,62,48,34,32,164,,193,192,10,8,7,7,0.6,0.5
2025-06-02T2100,3501A,116.8249,35.5593,济宁市,服务中心,臭氧1小时,68,61,47,31,23,174,,190,190,15,11,3,2,0.4,0.3
2025-06-02T2100,3678A,116.5907,35.4054,济宁市,市第七中学,"颗粒物(PM10),臭氧1小时",55,59,60,27,22,164,,190,189,8,4,8,7,0.4,0.4
2025-06-02T2100,2255A,130.2751,46.8028,佳木斯市,佳纺,颗粒物(PM10),51,52,27,17,12,76,,108,104,28,15,5,4,0.3,0.3
2025-06-02T2100,2256A,130.3995,46.8307,佳木斯市,发电厂,,40,40,22,17,10,63,,111,104,31,13,5,4,0.3,0.3
2025-06-02T2100,2257A,130.3258,46.7975,佳木斯市,环保局,,49,49,28,11,13,71,,102,94,31,18,5,4,0.3,0.3
2025-06-02T2100,2258A,130.3648,46.8032,佳木斯市,十一中,,39,39,25,16,12,58,,106,97,31,12,12,11,0.3,0.3
2025-06-02T2100,2259A,130.3794,46.7588,佳木斯市,四丰,,,21,14,7,8,,,,,28,16,1,6,0.3,0.4
2025-06-02T2100,1252A,120.7436,30.778,嘉兴市,清河小学,,29,14,14,9,7,91,,108,108,14,14,7,6,0.8,0.8
2025-06-02T2100,1253A,120.726,30.7478,嘉兴市,嘉兴学院,,27,14,18,10,11,85,,111,109,13,12,5,4,0.7,0.7
2025-06-02T2100,2872A,120.7846,30.7525,嘉兴市,南湖区残联,,30,14,12,11,9,93,,117,115,10,9,5,5,0.6,0.6
2025-06-02T2100,3407A,120.6916,30.7739,嘉兴市,秀洲住建,,31,19,11,10,6,98,,121,120,9,8,6,5,0.7,0.7
2025-06-02T2100,1945A,98.2908,39.7711,嘉峪关市,气象局,颗粒物(PM10),52,53,46,14,14,108,,114,114,4,11,3,4,0.0,0.1
2025-06-02T2100,2884A,98.2672,39.7978,嘉峪关市,酒钢宾馆,颗粒物(PM10),63,75,58,24,17,89,,106,104,22,18,32,26,0.9,0.9
2025-06-02T2100,3248A,98.2643,39.7724,嘉峪关市,雄关区,颗粒物(PM10),51,51,45,22,14,105,,112,112,7,17,7,10,0.2,0.3
2025-06-02T2100,1383A,113.1064,22.6058,江门市,北街,,16,,28,6,14,51,,73,67,7,9,2,3,0.3,0.4
2025-06-02T2100,1384A,113.0731,22.5835,江门市,西区,,19,,30,13,13,55,,79,73,7,10,6,7,0.5,0.4
2025-06-02T2100,1385A,113.0219,22.5311,江门市,圭峰西,,21,21,32,13,12,47,,67,62,7,9,3,4,0.5,0.4
2025-06-02T2100,1386A,113.0828,22.5947,江门市,东湖,,19,18,26,13,14,53,,79,74,9,9,8,8,0.3,0.4
2025-06-02T2100,3311A,113.1075,22.5647,江门市,江海富民,,35,35,37,13,14,51,,77,71,13,12,7,8,0.4,0.4
2025-06-02T2100,3449A,113.05,22.4667,江门市,新会银湖,,24,24,29,14,12,38,,60,56,16,10,2,2,0.3,0.4
2025-06-02T2100,1830A,113.1992,35.2590,焦作市,影视城,,,,,,,,,,,,,,,,
2025-06-02T2100,3169A,113.2725,35.2067,焦作市,太极体育中心,颗粒物(PM10),81,112,81,30,47,112,,174,161,18,9,6,7,0.1,0.2
2025-06-02T2100,3335A,113.3137,35.2641,焦作市,马村街道办,颗粒物(PM10),78,105,86,25,45,94,,174,156,37,22,11,16,0.6,0.8
2025-06-02T2100,3336A,113.2465,35.2373,焦作市,焦作技师学院,颗粒物(PM10),67,83,74,24,39,100,,169,158,17,14,10,16,0.7,0.9
2025-06-02T2100,3477A,113.1656,35.2539,焦作市,中站许衡医院,颗粒物(PM10),64,77,68,31,43,97,,158,149,47,23,9,10,0.6,0.8
2025-06-02T2100,3981A,113.2449,35.1803,焦作市,原李万街道办,颗粒物(PM10),87,123,73,19,35,102,,172,158,25,17,13,15,0.3,0.3
2025-06-02T2100,4264A,113.2340,35.2190,焦作市,新安路1731号,,,,80,,42,,,165,162,27,15,13,13,0.7,0.8
2025-06-02T2100,1708A,116.3701,23.5345,揭阳市,新兴,,50,50,32,19,18,36,,53,53,13,12,7,6,0.6,0.6
2025-06-02T2100,1709A,116.3264,23.5443,揭阳市,西马,,32,32,32,11,14,41,,58,49,8,11,8,8,0.7,0.7
2025-06-02T2100,1710A,116.3611,23.5626,揭阳市,东兴,,37,37,31,14,14,46,,71,60,6,9,2,4,0.5,0.5
2025-06-02T2100,1711A,116.4151,23.5294,揭阳市,渔湖,,35,35,29,14,14,41,,67,56,10,12,3,4,0.5,0.6
2025-06-02T2100,3320A,116.403,23.5699,揭阳市,曲溪,,27,27,28,12,16,50,,75,64,4,10,3,5,0.4,0.5
2025-06-02T2100,1944A,102.1692,38.5167,金昌市,天庆家园,,33,31,27,12,12,104,,113,111,7,9,19,17,0.7,0.7
2025-06-02T2100,4022A,102.1647,38.5371,金昌市,金川区人防中心,,41,41,33,12,10,92,,110,107,14,6,8,9,0.6,0.4
2025-06-02T2100,4239A,102.1930,38.5319,金昌市,长春路96号,,33,31,74,7,2,104,,113,111,4,6,21,8,0.5,0.6
2025-06-02T2100,1262A,119.647,29.077,金华市,十五中,,18,10,26,10,19,57,,58,58,14,21,5,5,0.7,0.8
2025-06-02T2100,1263A,119.686,29.1029,金华市,监测站,,22,12,26,11,17,68,,56,56,9,20,2,2,0.6,0.6
2025-06-02T2100,3659A,119.656,29.1131,金华市,气象局,,20,11,25,6,15,62,,52,52,14,27,3,3,0.8,0.8
2025-06-02T2100,1767A,121.1115,41.0879,锦州市,南山,细颗粒物(PM2.5),83,,55,61,56,101,,145,133,19,27,5,10,0.8,0.8
2025-06-02T2100,1768A,121.0604,40.8428,锦州市,开发区,,47,47,73,32,54,120,,149,144,25,28,6,15,0.8,0.8
2025-06-02T2100,1769A,121.1836,41.1119,锦州市,百股街道,细颗粒物(PM2.5),52,43,56,36,42,98,,143,134,23,23,7,16,0.7,0.8
2025-06-02T2100,1770A,121.1178,41.1222,锦州市,天安街道,细颗粒物(PM2.5),80,78,61,59,51,107,,157,144,35,30,5,9,0.8,0.8
2025-06-02T2100,1771A,121.1303,41.1386,锦州市,北湖公园,细颗粒物(PM2.5),99,75,62,74,52,97,,150,135,24,26,6,10,0.9,0.8
2025-06-02T2100,2160A,112.85,35.5051,晋城市,自来水公司,颗粒物(PM10),51,52,70,3,33,120,,155,148,9,16,3,3,0.0,0.5
2025-06-02T2100,2161A,112.8318,35.4936,晋城市,白云商贸,,,,82,5,28,114,,145,140,16,22,7,8,0.3,0.7
2025-06-02T2100,2162A,112.8508,35.4887,晋城市,市环保局,,48,48,76,7,32,118,,149,143,12,19,8,9,0.1,0.5
2025-06-02T2100,2163A,112.8676,35.4897,晋城市,技术学院,,,68,88,7,30,120,,157,151,,20,3,10,0.4,0.8
2025-06-02T2100,2165A,112.8453,35.546,晋城市,白马寺,,41,41,58,19,35,126,,153,150,6,10,4,6,0.3,0.7
2025-06-02T2100,3620A,112.8271,35.4828,晋城市,泽州一中,,40,22,56,3,35,126,,157,151,10,18,11,12,0.3,0.6
2025-06-02T2100,2173A,112.7249,37.7067,晋中市,南都小区,,35,35,49,7,25,108,,130,122,12,16,7,8,0.2,0.5
2025-06-02T2100,2174A,112.6991,37.6982,晋中市,榆次区政府,,36,22,48,6,20,113,,125,118,11,20,8,9,0,0.4
2025-06-02T2100,2865A,112.7195,37.6828,晋中市,榆次三中,,35,29,49,3,23,110,,124,117,9,18,4,6,0.0,0.4
2025-06-02T2100,4200A,112.7478,37.6954,晋中市,迎宾街26号,,33,22,48,7,24,103,,120,112,10,17,6,5,0.3,0.6
2025-06-02T2100,2439A,112.2014,31.0481,荆门市,竹园小学,颗粒物(PM10),56,62,44,35,29,65,,129,113,21,10,5,5,0.5,0.3
2025-06-02T2100,2440A,112.1969,30.9891,荆门市,掇刀,颗粒物(PM10),57,64,40,39,29,74,,132,119,22,8,11,5,0.7,0.5
2025-06-02T2100,2441A,112.2213,31.0386,荆门市,石化一小,颗粒物(PM10),56,62,46,37,27,53,,124,110,41,10,16,13,0.6,0.1
2025-06-02T2100,3012A,112.1849,31.0362,荆门市,西山林语,,36,26,36,25,26,62,,123,103,10,6,8,8,0.3,0.4
2025-06-02T2100,3547A,112.1632,31.0138,荆门市,龙泉中学南校,,33,26,30,23,23,61,,125,109,9,5,7,7,0.7,0.7
2025-06-02T2100,1844A,112.2494,30.3197,荆州市,市图书馆,颗粒物(PM10),51,51,33,30,25,85,,145,136,48,14,6,5,0.8,0.7
2025-06-02T2100,1845A,112.2008,30.3544,荆州市,市委党校,,46,46,35,32,25,86,,142,131,47,18,6,8,0.5,0.5
2025-06-02T2100,3194A,112.2747,30.3122,荆州市,管委会,,48,48,33,31,27,78,,137,127,37,12,12,9,0.9,0.6
2025-06-02T2100,4268A,112.1722,30.3366,荆州市,学苑路85号,细颗粒物(PM2.5),119,,26,90,37,74,,134,121,64,16,3,3,0.3,0.3
2025-06-02T2100,2342A,117.3102,29.3867,景德镇市,王港中学,,,,,,,,,,,,,,,,
2025-06-02T2100,2343A,117.2117,29.2933,景德镇市,老干部活动中心,,27,6,7,3,1,85,,94,94,5,6,4,4,0.5,0.6
2025-06-02T2100,2344A,117.1894,29.2789,景德镇市,兽医站,,26,13,15,6,4,83,,92,92,5,6,4,5,0.8,0.8
2025-06-02T2100,2345A,117.1547,29.2617,景德镇市,台达陶瓷,,25,20,12,12,7,80,,93,93,12,11,8,41,0.5,0.7
2025-06-02T2100,2346A,117.2461,29.2956,景德镇市,陶研所,,28,14,9,6,4,87,,87,87,5,7,1,2,0.3,0.4
2025-06-02T2100,1803A,115.9872,29.6815,九江市,十里,,30,26,12,21,12,66,,68,68,19,5,2,2,0.6,0.7
2025-06-02T2100,1804A,115.9584,29.7046,九江市,茅山头,,35,,16,24,14,89,,95,95,8,10,5,4,0.7,0.6
2025-06-02T2100,1805A,115.9877,29.7295,九江市,西园,,29,24,19,16,14,92,,99,99,16,22,5,8,0.8,0.9
2025-06-02T2100,1808A,115.9114,29.6038,九江市,综合工业园,,30,29,10,8,6,93,,92,92,9,16,7,7,0.6,0.7
2025-06-02T2100,1809A,116.0721,29.7535,九江市,石化总厂,细颗粒物(PM2.5),60,,17,43,19,88,,84,84,13,13,5,6,0.7,0.9
2025-06-02T2100,1810A,115.9773,29.5698,九江市,庐山气象台,,27,6,5,3,3,84,,82,82,6,7,6,8,0.8,0.8
2025-06-02T2100,3190A,116.0254,29.6994,九江市,外国语学校,,30,27,13,21,10,56,,69,68,25,15,3,3,0.9,0.9
2025-06-02T2100,4253A,116.0102,29.6594,九江市,莲花大道8号,,24,23,9,8,7,76,,80,80,2,4,5,4,0.6,0.7
2025-06-02T2100,4240A,98.4958,39.7339,酒泉市,玉门东路5号,,46,46,49,27,21,101,,108,107,2,7,8,10,0.3,0.3
2025-06-02T2100,4241A,98.5099,39.7506,酒泉市,北大街108号,,41,41,50,20,17,110,,116,116,5,10,10,11,0.3,0.2
2025-06-02T2100,2698A,76.0072,39.4467,喀什地区,巡警大队,颗粒物(PM10),77,103,94,25,24,101,,104,104,15,18,5,5,0.3,0.3
2025-06-02T2100,2699A,75.9755,39.4694,喀什地区,吾办,颗粒物(PM10),85,119,101,48,46,98,,103,103,18,17,5,8,0.3,0.2
2025-06-02T2100,4027A,75.9483,39.4689,喀什地区,老干局,颗粒物(PM10),79,108,86,24,18,92,,95,95,13,8,5,4,0.3,0.2
2025-06-02T2100,1824A,114.3389,34.7781,开封市,肿瘤医院,颗粒物(PM10),78,105,62,43,36,144,,211,202,21,17,9,7,0.7,0.7
2025-06-02T2100,1826A,114.2885,34.7965,开封市,世纪星幼儿园,颗粒物(PM10),73,95,70,25,51,157,,214,206,22,23,9,7,0.8,0.7
2025-06-02T2100,3147A,114.3438,34.8106,开封市,龙亭公园,,,,59,37,36,157,,221,213,23,19,7,7,0.4,0.4
2025-06-02T2100,3210A,114.3644,34.7964,开封市,汴京公园,颗粒物(PM10),83,116,68,38,39,156,,222,213,23,17,8,7,0.9,0.8
2025-06-02T2100,3473A,114.2485,34.8306,开封市,技师学院,颗粒物(PM10),71,92,60,41,37,152,,207,201,18,16,13,10,0.8,0.8
2025-06-02T2100,3592A,114.4644,34.7556,开封市,祥符区生态环境局,,,,60,,35,142,,206,196,,25,6,8,0.7,0.7
2025-06-02T2100,1951A,84.895,45.6094,克拉玛依市,长征新村,,35,24,30,3,5,110,,102,102,6,14,7,6,0.2,0.2
2025-06-02T2100,1952A,84.8988,45.5893,克拉玛依市,南林小区,,23,23,30,3,16,62,,101,98,23,19,11,11,0.2,0.2
2025-06-02T2100,1954A,84.905,44.3396,克拉玛依市,独山子区,,35,34,27,11,10,109,,104,104,7,6,7,7,0.3,0.3
2025-06-02T2100,1955A,85.6979,46.098,克拉玛依市,乌尔禾区商贸楼,,38,38,29,3,5,90,,92,92,3,8,3,3,0.2,0.3
2025-06-02T2100,3612A,85.1045,45.6899,克拉玛依市,白碱滩区新站,,37,28,31,21,17,117,,112,112,6,7,13,13,0.5,0.5
2025-06-02T2100,2697A,76.1454,39.7142,克孜勒苏柯尔克孜自治州,市人民政府,颗粒物(PM10),151,251,117,86,44,100,,109,109,8,5,2,3,0.9,0.6
2025-06-02T2100,3665A,76.1658,39.7157,克孜勒苏柯尔克孜自治州,克州文化中心,颗粒物(PM10),192,334,128,94,51,103,,108,108,6,2,2,3,0.4,0.3
2025-06-02T2100,1450A,102.8204,24.8886,昆明市,呈贡新区,,23,23,21,12,9,46,,62,53,9,10,4,4,0.6,0.4
2025-06-02T2100,1451A,102.6251,24.9608,昆明市,西山森林公园,,,,,,,,,,,,,,,,
2025-06-02T2100,1452A,102.7252,25.0902,昆明市,龙泉镇,,26,26,17,3,6,52,,62,59,6,10,3,1,0.3,0.3
2025-06-02T2100,1453A,102.7266,25.0375,昆明市,东风东路,,,15,15,3,8,,,68,66,10,11,5,6,0.4,0.3
2025-06-02T2100,1454A,102.6742,25.0669,昆明市,金鼎山,,16,6,17,6,8,49,,60,57,9,13,3,2,0.3,0.3
2025-06-02T2100,1455A,102.6644,25.0401,昆明市,碧鸡广场,,,17,20,14,7,,,65,63,12,14,5,6,0.5,0.4
2025-06-02T2100,3179A,102.7494,25.0119,昆明市,官渡区博物馆,,26,,15,18,7,48,,66,59,11,10,6,7,0.4,0.4
2025-06-02T2100,3375A,102.8017,24.8336,昆明市,青年创业园,,16,15,13,6,6,49,,69,65,11,9,7,7,0.5,0.4
2025-06-02T2100,3550A,102.7997,24.9786,昆明市,昆明学院,,15,15,17,8,11,44,,67,60,18,10,4,5,0.3,0.3
2025-06-02T2100,3551A,102.5967,24.6736,昆明市,晋宁区生态环境分局,,23,23,13,9,7,42,,60,56,14,8,5,6,0.5,0.4
2025-06-02T2100,3552A,102.6678,24.9856,昆明市,云天化总部,,20,18,14,14,10,42,,59,54,15,9,3,4,0.4,0.3
2025-06-02T2100,1456A,91.1319,29.6514,拉萨市,八廓街,,43,12,11,7,7,136,,148,148,9,8,7,7,0.3,0.3
2025-06-02T2100,1457A,91.1221,29.6747,拉萨市,市环保局,,41,15,17,9,7,131,,143,143,12,10,6,6,0.3,0.3
2025-06-02T2100,1458A,91.0874,29.6475,拉萨市,区监测站,,45,15,11,7,7,142,,149,149,9,9,6,6,0.3,0.3
2025-06-02T2100,1459A,91.1774,29.6541,拉萨市,西藏大学,,44,14,13,7,7,140,,147,147,6,9,7,6,0.4,0.4
2025-06-02T2100,1460A,90.9798,29.6588,拉萨市,区辐射站,,42,42,18,11,7,126,,135,134,14,11,6,6,0.3,0.3
2025-06-02T2100,1461A,91.0834,29.6292,拉萨市,拉萨火车站,,,9,9,7,6,,,150,150,3,4,4,4,0.2,0.2
2025-06-02T2100,2520A,109.2203,23.7256,来宾市,来宾技工学校,,18,10,20,3,8,56,,57,57,8,9,5,5,0.7,0.6
2025-06-02T2100,3535A,109.1781,23.7297,来宾市,兴宾区政府,,19,6,19,3,7,58,,54,54,7,11,4,5,0.7,0.7
2025-06-02T2100,4002A,109.2416,23.7461,来宾市,中南小学,,18,11,23,3,7,55,,56,56,10,12,8,6,0.6,0.6
2025-06-02T2100,1477A,104.1373,35.9454,兰州市,榆中兰大校区,,,,,,,,,,,,,,,,
2025-06-02T2100,1479A,103.831,36.0464,兰州市,铁路设计院,颗粒物(PM10),52,54,48,25,26,95,,114,111,29,36,12,13,0.4,0.5
2025-06-02T2100,3241A,103.7439,36.0842,兰州市,百合公园,颗粒物(PM10),56,61,49,14,14,100,,123,120,14,31,8,8,0.2,0.4
2025-06-02T2100,3242A,103.9611,35.998,兰州市,和平,颗粒物(PM10),53,56,46,27,21,102,,128,126,11,19,7,12,0.1,0.4
2025-06-02T2100,4236A,103.6293,36.0938,兰州市,庄浪东路808号,颗粒物(PM10),56,62,43,30,28,89,,117,111,25,25,10,12,0.3,0.3
2025-06-02T2100,4237A,103.7251,36.1043,兰州市,安宁西路88号,"颗粒物(PM10),细颗粒物(PM2.5)",58,65,52,41,32,113,,136,133,7,20,6,10,0.3,0.3
2025-06-02T2100,4238A,103.8470,36.0676,兰州市,北滨河东路1号,颗粒物(PM10),53,55,46,26,22,107,,122,121,21,37,11,12,0.5,0.6
2025-06-02T2100,3245A,103.6633,36.533,兰州新区,新区管委会,,37,32,39,14,20,116,,133,131,7,9,5,11,0.2,0.3
2025-06-02T2100,3246A,103.6975,36.4789,兰州新区,舟曲中学,,34,28,30,9,15,107,,136,133,18,10,4,15,0.2,0.3
2025-06-02T2100,1067A,116.6708,39.5111,廊坊市,药材公司,,27,18,61,6,34,84,,126,103,9,16,2,4,0.2,0.5
2025-06-02T2100,1068A,116.7214,39.5589,廊坊市,开发区,,27,18,66,9,30,84,,128,105,12,21,2,3,0.2,0.5
2025-06-02T2100,1070A,116.7244,39.5269,廊坊市,北华航天学院,,27,27,73,11,42,82,,124,102,12,17,3,4,0.1,0.4
2025-06-02T2100,2919A,116.7022,39.5453,廊坊市,河北工业大学,,30,30,72,11,40,86,,130,106,10,17,3,5,0.2,0.4
2025-06-02T2100,2535A,103.7723,29.5462,乐山市,花湖湾,,36,36,15,22,9,84,,108,108,24,15,7,3,0.5,0.5
2025-06-02T2100,2536A,103.7627,29.5844,乐山市,牛耳桥,,37,37,18,16,8,35,,96,89,55,19,8,8,1.3,1
2025-06-02T2100,2537A,103.7508,29.6006,乐山市,市第三水厂,,33,33,17,18,8,56,,90,88,51,22,5,5,1.0,0.9
2025-06-02T2100,2538A,103.7571,29.5664,乐山市,市监测站,,29,29,13,16,9,88,,100,100,15,12,9,7,0.8,0.8
2025-06-02T2100,3361A,103.7311,29.5628,乐山市,理工大学,,26,26,17,10,7,57,,91,91,28,16,7,6,0.9,0.8
2025-06-02T2100,2598A,100.2143,26.8576,丽江市,西南郊,,21,20,15,10,9,66,,89,89,10,7,6,16,0.9,1.7
2025-06-02T2100,2599A,100.2497,26.8802,丽江市,丽江古城,,21,17,18,6,13,65,,66,66,13,11,10,9,0.5,0.5
2025-06-02T2100,2600A,100.2203,26.8906,丽江市,市中心,,18,8,11,8,10,55,,58,58,15,10,6,6,0.7,0.6
2025-06-02T2100,1267A,119.914,28.4514,丽水市,监测站大楼,,18,6,25,3,14,56,,49,49,10,16,2,3,0.7,0.6
2025-06-02T2100,1268A,119.93,28.4586,丽水市,莲都小学,,20,6,25,3,10,62,,56,56,9,16,3,3,0.5,0.4
2025-06-02T2100,1269A,119.879,28.4231,丽水市,余庄前,,12,12,23,3,14,15,,33,32,10,10,3,3,0.7,0.6
2025-06-02T2100,1173A,119.176,34.5885,连云港市,市环境监测站,,34,22,13,17,9,107,,126,123,13,10,6,5,0.3,0.3
2025-06-02T2100,3000A,119.3581,34.6972,连云港市,德源药业,,29,17,10,14,8,92,,126,116,16,11,8,8,0.5,0.5
2025-06-02T2100,3007A,119.178,34.844,连云港市,新城一中,,28,,18,15,10,88,,141,124,28,4,7,6,0.6,0.5
2025-06-02T2100,3008A,119.3608,34.7519,连云港市,胡沟管理处,,33,31,11,19,8,38,,134,104,66,13,11,8,1.0,1.1
2025-06-02T2100,3009A,119.1478,34.5911,连云港市,矿山设计院,,32,22,12,14,8,102,,122,118,18,11,4,4,0.2,0.1
2025-06-02T2100,3434A,119.2413,34.6539,连云港市,工贸学校,,35,34,11,20,8,109,,134,128,7,5,8,7,0.6,0.5
2025-06-02T2100,3664A,119.4172,34.7341,连云港市,连云街道,颗粒物(PM10),51,52,18,29,12,64,,133,103,10,12,6,7,0.7,0.4
2025-06-02T2100,2571A,102.3431,27.8099,凉山彝族自治州,青龙寺,,19,12,15,3,2,60,,64,59,6,3,6,6,0.8,0.9
2025-06-02T2100,2572A,102.2721,27.8415,凉山彝族自治州,邛海宾馆,,25,8,8,3,3,77,,74,73,7,8,8,7,0.7,0.8
2025-06-02T2100,2573A,102.2625,27.898,凉山彝族自治州,西昌市政府,,23,14,9,6,6,73,,70,70,6,8,7,8,0.6,0.8
2025-06-02T2100,2574A,102.2685,27.8851,凉山彝族自治州,凉山州政府,,22,10,8,6,4,69,,71,70,9,8,8,8,0.7,0.8
2025-06-02T2100,4229A,102.2342,27.8859,凉山彝族自治州,凯乐南路30号,,25,13,14,8,5,78,,68,68,6,9,6,6,0.5,0.6
2025-06-02T2100,2212A,123.2,41.1953,辽阳市,宏伟区,,27,,53,15,24,86,,156,130,12,16,6,9,0.8,0.7
2025-06-02T2100,2213A,123.1683,41.2495,辽阳市,新华园,,32,25,76,22,32,86,,152,129,16,30,8,9,0.9,0.8
2025-06-02T2100,2214A,123.2354,41.2639,辽阳市,滨河路,,36,,63,25,40,80,,148,124,14,21,7,10,0.5,0.5
2025-06-02T2100,2215A,123.149,41.2991,辽阳市,铁西工业园,,29,26,88,20,34,54,,140,111,20,30,4,9,0.7,0.8
2025-06-02T2100,2227A,125.1358,42.8845,辽源市,环保局,,30,19,40,3,17,94,,150,128,10,35,2,4,0.3,0.4
2025-06-02T2100,3239A,125.0764,42.9078,辽源市,银鹰制药,,28,13,38,6,21,89,,158,132,18,37,28,14,0.2,0.4
2025-06-02T2100,1625A,115.9848,36.4372,聊城市,区政府,,42,38,62,27,33,132,,198,188,14,10,6,7,0.7,0.8
2025-06-02T2100,2878A,116.0072,36.4343,聊城市,聊大东校,,46,41,63,29,38,146,,207,198,10,8,5,8,0.6,0.6
2025-06-02T2100,3200A,115.9819,36.4978,聊城市,监控中心,,37,27,66,17,36,117,,208,192,24,13,6,9,0.8,0.8
2025-06-02T2100,3513A,116.0445,36.4361,聊城市,九州社区,,47,47,66,30,37,136,,200,191,8,6,4,6,0.8,0.7
2025-06-02T2100,4018A,116.0567,36.4608,聊城市,星美广场,,45,42,68,18,31,141,,205,194,4,5,9,9,0.6,0.6
2025-06-02T2100,2632A,94.3681,29.6376,林芝市,林芝监测站,,27,,5,6,5,85,,91,91,7,5,4,3,0.4,0.4
2025-06-02T2100,2633A,94.3616,29.6616,林芝市,林芝人民医院,,24,13,7,7,4,75,,80,80,6,4,6,6,0.4,0.4
2025-06-02T2100,2603A,100.0781,23.8982,临沧市,市环保局,,39,,18,27,20,21,,41,35,11,7,2,3,0.7,0.5
2025-06-02T2100,2604A,100.0894,23.8822,临沧市,市气象局,,18,18,15,12,9,36,,46,44,8,7,2,3,0.3,0.3
2025-06-02T2100,1733A,111.5531,36.0783,临汾市,临钢医院,,,,4,7,9,86,,,,24,24,,,0.8,0.9
2025-06-02T2100,1734A,111.5028,36.0714,临汾市,技工学校,,38,38,58,11,36,112,,150,141,13,16,5,9,0.3,0.7
2025-06-02T2100,1736A,111.5018,36.0855,临汾市,市委,,46,46,72,3,27,115,,148,141,15,19,5,9,0.5,0.9
2025-06-02T2100,3018A,111.505,36.1014,临汾市,唐尧大酒店,颗粒物(PM10),53,56,76,8,24,118,,157,149,13,17,6,7,0.4,0.7
2025-06-02T2100,4244A,111.4879,36.0530,临汾市,启星学校,,36,34,60,23,37,113,,152,143,16,18,4,7,0.4,0.8
2025-06-02T2100,4271A,103.2464,35.6123,临夏回族自治州,滨河东路1号,,39,39,44,22,20,63,,99,95,27,11,8,7,0.4,0.4
2025-06-02T2100,4310A,103.2093,35.5995,临夏回族自治州,新华街21号,,46,46,47,17,21,79,,109,106,20,14,5,5,0.3,0.3
2025-06-02T2100,1618A,118.3429,35.0532,临沂市,沂河小区,,39,39,30,26,25,114,,149,147,19,13,7,5,0.3,0.4
2025-06-02T2100,1619A,118.295,35.0583,临沂市,鲁南制药厂,,46,46,27,21,22,131,,160,159,21,15,8,6,0.5,0.5
2025-06-02T2100,1620A,118.2794,34.9976,临沂市,新光毛纺厂,,39,39,24,20,21,120,,159,157,23,16,11,7,0.4,0.5
2025-06-02T2100,1621A,118.3956,35.0888,临沂市,河东保险公司,,39,39,25,20,16,101,,154,149,29,9,19,5,0.4,0.5
2025-06-02T2100,3370A,118.3564,35.0215,临沂市,十里堡居委,,49,41,22,34,20,113,,155,153,25,15,9,6,0.5,0.6
2025-06-02T2100,3496A,118.3604,35.1084,临沂市,南坊新区,,41,41,26,24,17,116,,146,145,19,12,8,6,0.5,0.5
2025-06-02T2100,3860A,118.3920,35.0300,临沂市,皇山花园小区,,35,29,23,23,19,110,,155,151,27,19,24,8,0.7,0.7
2025-06-02T2100,1870A,109.4856,24.3895,柳州市,柳东小学,,12,12,18,3,6,32,,49,43,6,6,9,10,0.5,0.4
2025-06-02T2100,1871A,109.4157,24.3277,柳州市,环保监测站,,18,12,18,3,4,56,,51,51,7,11,13,9,0.8,0.8
2025-06-02T2100,1872A,109.389,24.341,柳州市,河西水厂,,19,9,19,3,9,59,,48,48,7,11,6,5,0.4,0.7
2025-06-02T2100,1873A,109.4311,24.2921,柳州市,市四中,,16,8,15,3,11,49,,50,50,10,11,8,9,0.6,0.6
2025-06-02T2100,1874A,109.4006,24.3631,柳州市,市九中,,17,12,19,3,7,52,,46,46,7,11,9,12,0.7,0.9
2025-06-02T2100,1875A,109.4958,24.3134,柳州市,古亭山,,9,6,14,3,5,28,,49,44,9,5,5,5,0.5,0.4
2025-06-02T2100,3402A,109.5422,24.3996,柳州市,市二中,,13,13,17,3,8,31,,47,42,10,12,10,11,0.4,0.4
2025-06-02T2100,2307A,116.5079,31.737,六安市,监测大楼,,30,24,10,13,9,95,,107,107,7,3,3,3,0.4,0.3
2025-06-02T2100,2308A,116.4738,31.7643,六安市,皖西学院,,29,16,9,15,8,92,,107,106,7,3,4,4,0.2,0.2
2025-06-02T2100,2309A,116.4996,31.7905,六安市,朝阳厂,,28,14,6,14,9,89,,103,103,15,10,4,4,0.3,0.3
2025-06-02T2100,2310A,116.5567,31.7886,六安市,开发区,,26,20,9,13,9,83,,105,104,11,4,6,6,0.3,0.3
2025-06-02T2100,2576A,104.8,26.5892,六盘水市,窑上,,27,27,19,12,12,82,,70,70,5,6,2,2,0.4,0.4
2025-06-02T2100,2577A,104.83,26.5917,六盘水市,黄土坡,,30,15,7,3,6,93,,81,81,6,7,8,8,0.4,0.4
2025-06-02T2100,2578A,104.89,26.5939,六盘水市,水钢,,25,15,10,11,5,78,,74,74,22,13,8,10,0.3,0.4
2025-06-02T2100,2579A,104.8475,26.5894,六盘水市,民中,,26,14,8,3,1,83,,71,71,10,9,8,8,0.3,0.4
2025-06-02T2100,2580A,104.9544,26.5506,六盘水市,双水,,27,12,4,3,5,86,,75,75,14,12,11,9,0.4,0.3
2025-06-02T2100,2335A,117.0189,25.1181,龙岩市,龙岩师专,,,,,,,,,,,,,,,,
2025-06-02T2100,2336A,117.0217,25.1033,龙岩市,龙岩市监测站,,16,,21,10,20,50,,63,62,8,10,2,6,0.4,0.5
2025-06-02T2100,2337A,117.0258,25.0661,龙岩市,闽西职业技术学院,,16,16,23,3,13,44,,56,53,2,5,2,7,0.4,0.4
2025-06-02T2100,2338A,117.0196,25.0306,龙岩市,龙岩学院,,15,14,20,10,14,43,,60,58,7,6,8,9,0.4,0.4
2025-06-02T2100,2665A,105.0822,33.3261,陇南市,汉王镇固水子,,,,,,,,,,,,,,,,
2025-06-02T2100,2885A,104.9339,33.3826,陇南市,滨江中学,颗粒物(PM10),58,65,48,26,21,64,,83,83,22,11,8,8,0.6,0.5
2025-06-02T2100,3247A,104.955,33.371,陇南市,市总工会,,48,48,36,20,15,81,,90,90,9,8,8,8,0.5,0.5
2025-06-02T2100,2487A,111.9589,27.8901,娄底市,电视发射台,,37,37,21,15,9,39,,96,79,2,2,6,6,0.4,0.4
2025-06-02T2100,2488A,111.9975,27.725,娄底市,市监测站,细颗粒物(PM2.5),59,,22,42,18,63,,92,82,22,13,11,7,0.9,0.6
2025-06-02T2100,2489A,112.0194,27.7314,娄底市,市委党校,,43,43,20,28,14,73,,102,91,10,4,4,3,0.6,0.5
2025-06-02T2100,2490A,111.9561,27.7569,娄底市,涟钢,,41,41,21,24,12,64,,92,82,12,9,7,7,0.8,0.8
2025-06-02T2100,2491A,111.9892,27.7044,娄底市,市政府,,37,37,18,23,13,58,,96,84,8,8,4,5,0.6,0.7
2025-06-02T2100,1893A,105.4324,28.9634,泸州市,九狮山,,40,,23,28,22,50,,94,91,20,13,5,5,0.3,0.4
2025-06-02T2100,1894A,105.4427,28.9063,泸州市,小市上码头,,21,21,18,9,7,52,,66,66,22,10,9,9,0.5,0.5
2025-06-02T2100,1895A,105.4241,28.8573,泸州市,兰田宪桥,,23,23,16,11,8,43,,89,85,17,7,8,8,0.4,0.3
2025-06-02T2100,1896A,105.4379,28.8833,泸州市,市环监站,,22,21,16,12,9,68,,91,91,24,8,8,7,0.4,0.3
2025-06-02T2100,4272A,105.3689,28.7783,泸州市,纳溪中医医院,,41,41,21,24,11,13,,85,78,58,18,6,6,1.0,0.8
2025-06-02T2100,2183A,111.1406,37.5211,吕梁市,环保局,,42,38,34,29,20,67,,129,122,41,17,4,6,0.4,0.5
2025-06-02T2100,2185A,111.1297,37.5136,吕梁市,自来水公司,,32,32,33,22,16,70,,121,114,30,18,3,4,0.5,0.3
2025-06-02T2100,2867A,111.1283,37.51,吕梁市,马茂庄小学,颗粒物(PM10),51,51,41,14,21,58,,123,115,42,21,5,5,0.5,0.6
2025-06-02T2100,1812A,112.3931,34.6516,洛阳市,市委党校,,45,45,40,24,27,108,,138,129,13,9,7,6,0.5,0.5
2025-06-02T2100,1815A,112.494,34.6886,洛阳市,河南林校,颗粒物(PM10),51,51,47,31,33,112,,154,143,21,16,9,8,0.9,0.8
2025-06-02T2100,1816A,112.3844,34.623,洛阳市,开发区管委会,,,43,43,22,30,,,146,141,14,9,9,6,0.5,0.5
2025-06-02T2100,1817A,112.4267,34.6258,洛阳市,市委新办公区,,47,47,47,23,30,118,,146,139,14,11,9,7,0.6,0.6
2025-06-02T2100,3340A,112.6005,34.6326,洛阳市,伊滨,,46,46,52,21,33,119,,159,150,17,14,6,6,0.5,0.5
2025-06-02T2100,3341A,112.4951,34.6332,洛阳市,中移产业园,,48,48,51,16,29,115,,150,141,13,10,8,7,0.7,0.7
2025-06-02T2100,3593A,112.5736,34.8993,洛阳市,吉利监测站,,50,50,53,20,30,132,,148,144,12,11,6,5,0.6,0.6
2025-06-02T2100,3635A,112.3677,34.662,洛阳市,河科大西苑校区,,44,44,45,17,23,123,,151,140,15,12,9,7,0.7,0.7
2025-06-02T2100,3636A,112.4388,34.6781,洛阳市,英才小学,,48,48,49,20,27,113,,153,140,17,11,9,8,0.6,0.6
2025-06-02T2100,4214A,112.4600,34.6949,洛阳市,春都路1号院,颗粒物(PM10),57,63,52,20,29,108,,171,156,28,14,8,8,0.5,0.5
2025-06-02T2100,2399A,114.051,33.5699,漯河市,三五一五工厂,,49,49,43,30,31,135,,175,164,17,13,5,5,0.8,0.7
2025-06-02T2100,2400A,114.0055,33.5698,漯河市,漯河大学,颗粒物(PM10),62,73,57,31,33,129,,178,166,21,14,5,5,0.6,0.5
2025-06-02T2100,2401A,114.0138,33.5828,漯河市,市水利局,颗粒物(PM10),51,51,51,34,33,135,,172,164,16,14,6,6,0.9,0.9
2025-06-02T2100,2402A,114.0261,33.5698,漯河市,市广电局,颗粒物(PM10),58,66,50,27,33,131,,173,166,18,12,4,4,0.7,0.7
2025-06-02T2100,3478A,113.9749,33.5664,漯河市,市图书馆,颗粒物(PM10),56,62,53,37,32,131,,167,161,16,15,5,5,0.7,0.7
2025-06-02T2100,4250A,114.0892,33.5882,漯河市,韶山路11号,细颗粒物(PM2.5),54,55,49,38,31,140,,179,171,14,12,5,6,0.5,0.4
2025-06-02T2100,1798A,118.5092,31.6837,马鞍山市,湖东路四小,,25,19,14,8,8,79,,90,89,19,12,7,7,0.6,0.8
2025-06-02T2100,1799A,118.5024,31.6449,马鞍山市,开发区,,22,18,14,9,7,70,,90,87,17,15,6,7,0.5,0.8
2025-06-02T2100,1802A,118.6245,31.7241,马鞍山市,濮塘,,21,13,11,9,7,65,,100,95,4,2,6,7,0.7,0.8
2025-06-02T2100,3633A,118.4918,31.6809,马鞍山市,雨山,,25,19,14,10,7,77,,87,85,20,17,8,6,0.7,0.9
2025-06-02T2100,4191A,118.5274,31.72227,马鞍山市,慈湖高新区,,27,14,13,11,14,85,,98,95,16,10,5,6,0.5,0.6
2025-06-02T2100,1686A,111.0286,21.4688,茂名市,电白南海,,,29,31,12,17,58,,78,72,9,7,3,3,,0.6
2025-06-02T2100,1687A,110.9294,21.6533,茂名市,茂石化七小,,44,44,33,14,11,50,,84,78,16,10,2,4,0.6,0.4
2025-06-02T2100,1688A,110.9107,21.6687,茂名市,健康路,,34,34,30,12,14,63,,92,87,12,10,4,5,0.5,0.4
2025-06-02T2100,1689A,110.8592,21.6828,茂名市,高岭,,44,44,44,9,9,56,,82,77,12,14,3,4,0.4,0.4
2025-06-02T2100,3450A,111.01,21.5165,茂名市,电白水东,,22,22,25,7,8,57,,74,70,9,10,2,3,0.5,0.5
2025-06-02T2100,2539A,104.0308,30.0478,眉山市,黑龙滩水库,,25,25,13,10,11,60,,96,94,8,12,3,2,0.4,0.4
2025-06-02T2100,2540A,103.8416,30.0874,眉山市,气象局,颗粒物(PM10),51,51,24,17,8,57,,86,83,45,24,2,2,0.5,0.4
2025-06-02T2100,3137A,103.8578,30.0744,眉山市,市委党校,,44,44,18,12,4,27,,73,64,64,29,10,10,0.8,0.5
2025-06-02T2100,3148A,103.8291,30.0564,眉山市,区人社局,,35,35,20,17,4,43,,83,78,50,26,17,17,0.5,0.4
2025-06-02T2100,1690A,116.1231,24.3284,梅州市,梅江月梅,,26,26,24,16,19,33,,62,54,7,5,5,7,0.6,0.6
2025-06-02T2100,1691A,116.0797,24.2719,梅州市,梅县新城,,13,,24,9,19,34,,63,55,9,9,8,7,0.6,0.6
2025-06-02T2100,1692A,116.1248,24.2654,梅州市,环境监控中心,,22,,25,15,19,30,,54,45,11,13,2,3,0.5,0.5
2025-06-02T2100,3315A,116.1233,24.2991,梅州市,梅龙,,24,24,22,12,15,30,,65,56,12,7,6,7,0.6,0.5
2025-06-02T2100,1878A,104.7778,31.4741,绵阳市,富乐山,,33,33,28,20,14,54,,68,68,28,17,8,8,0.6,0.5
2025-06-02T2100,1880A,104.6697,31.4668,绵阳市,高新区自来水公司,,49,49,22,17,13,7,,75,70,90,28,4,4,1.0,0.8
2025-06-02T2100,1881A,104.7287,31.5075,绵阳市,三水厂,颗粒物(PM10),54,57,32,24,15,19,,66,63,53,27,8,8,0.8,0.6
2025-06-02T2100,3491A,104.69,31.5322,绵阳市,西科大附属小学,颗粒物(PM10),63,75,32,31,12,14,,70,65,59,24,7,7,0.7,0.5
2025-06-02T2100,3492A,104.5648,31.5343,绵阳市,安州区旅游局,颗粒物(PM10),56,62,30,29,14,35,,80,77,35,16,6,5,0.8,0.9
2025-06-02T2100,4226A,104.7651,31.4531,绵阳市,绵阳市气象局,颗粒物(PM10),52,53,31,26,15,9,,66,63,89,26,1,4,1.0,0.6
2025-06-02T2100,1784A,129.61,44.561,牡丹江市,环保大楼,,38,,28,26,19,93,,137,124,18,14,9,9,0.3,0.2
2025-06-02T2100,1785A,129.6115,44.5782,牡丹江市,文化广场,,35,28,32,24,16,90,,135,123,20,18,10,10,0.6,0.5
2025-06-02T2100,1786A,129.5904,44.5963,牡丹江市,第一医院,,30,23,25,21,14,93,,145,129,15,16,5,4,0.6,0.4
2025-06-02T2100,1787A,129.6364,44.6075,牡丹江市,机车工厂,,28,28,34,10,9,66,,135,117,28,15,6,5,0.4,0.3
2025-06-02T2100,1788A,129.6386,44.5462,牡丹江市,第一中学,,31,31,23,10,9,79,,134,120,20,15,7,7,0.5,0.4
2025-06-02T2100,2531A,105.0703,29.61,内江市,市监测站,,,,22,,16,,,46,,,17,,9,,1.0
2025-06-02T2100,2532A,105.0717,29.5947,内江市,东兴区政府,,33,33,18,13,10,88,,104,104,19,18,4,6,0.7,0.7
2025-06-02T2100,2533A,105.0653,29.5817,内江市,内江二中,,27,23,21,18,18,86,,100,100,15,17,6,6,0.5,0.5
2025-06-02T2100,2534A,105.0406,29.5822,内江市,内江日报社,,28,19,18,19,17,72,,95,95,22,13,11,10,0.8,0.7
2025-06-02T2100,2628A,92.0657,31.4846,那曲市,那曲监测站,,44,19,13,12,5,140,,149,148,19,9,8,7,0.4,0.3
2025-06-02T2100,4243A,92.0515,31.4787,那曲市,那曲市委宣传部,,50,11,8,7,4,157,,157,157,5,6,6,6,0.2,0.2
2025-06-02T2100,1290A,115.8931,28.6843,南昌市,省外办,,30,,8,17,7,93,,102,102,14,11,8,8,0.7,0.8
2025-06-02T2100,1291A,115.8886,28.7003,南昌市,省林业公司,,29,9,4,7,4,90,,98,98,10,5,7,8,0.5,0.6
2025-06-02T2100,1292A,115.8126,28.7442,南昌市,林科所,,26,,1,7,2,83,,90,90,11,7,4,4,0.4,0.7
2025-06-02T2100,1294A,115.8518,28.687,南昌市,建工学校,,,,16,68,18,,,93,93,13,10,5,4,,0.4
2025-06-02T2100,1295A,115.8921,28.6424,南昌市,象湖,,27,9,4,3,5,85,,91,91,11,8,6,6,0.6,0.7
2025-06-02T2100,1296A,115.7423,28.7996,南昌市,武术学校,,,,22,8,8,50,,76,72,3,3,2,11,0.4,0.7
2025-06-02T2100,3046A,115.9084,28.6062,南昌市,机电学校,,27,18,12,12,5,84,,92,92,13,8,3,3,0.4,0.5
2025-06-02T2100,3690A,115.9721,28.7031,南昌市,外国语学校,,30,14,8,10,8,93,,94,94,11,10,6,7,0.1,0.2
2025-06-02T2100,4192A,115.9316,28.68677,南昌市,南京东路235号,,28,26,14,6,3,88,,91,91,8,8,5,6,0.6,0.7
2025-06-02T2100,1905A,106.056,30.8064,南充市,西山风景区,,,,,,,,,,,,,,,,
2025-06-02T2100,1906A,106.0789,30.8023,南充市,南充市委,,36,33,22,25,14,93,,106,106,17,14,5,7,0.4,0.4
2025-06-02T2100,1907A,106.1031,30.8217,南充市,南充炼油厂,,43,43,24,21,13,85,,100,100,19,14,5,6,0.5,0.4
2025-06-02T2100,4227A,106.1083,30.7884,南充市,梨树横街98号,,44,44,24,24,14,88,,101,101,12,13,4,3,0.3,0.4
2025-06-02T2100,4304A,106.1172,30.843,南充市,清泉寺北路188号,,34,34,24,22,13,84,,96,96,18,12,5,5,0.4,0.4
2025-06-02T2100,4305A,106.067,30.7616,南充市,同庆路1号,,32,32,21,22,14,91,,102,102,10,14,3,3,0.3,0.3
2025-06-02T2100,1151A,118.8086,32.1065,南京市,迈皋桥,,25,12,8,3,7,78,,97,91,14,7,4,4,0.4,0.5
2025-06-02T2100,1152A,118.7538,32.0551,南京市,草场门,,30,17,9,12,7,93,,97,95,18,16,1,2,0.3,0.5
2025-06-02T2100,1153A,118.7794,32.0745,南京市,山西路,,32,17,11,7,3,100,,103,100,6,3,4,4,0.2,0.2
2025-06-02T2100,1154A,118.7752,32.0023,南京市,中华门,,29,12,9,9,6,90,,92,91,9,10,4,4,0.5,0.5
2025-06-02T2100,1155A,118.8109,32.0309,南京市,瑞金路,,24,14,7,12,6,76,,94,90,14,5,6,6,0.2,0.2
2025-06-02T2100,1156A,118.7997,32.0754,南京市,玄武湖,,23,21,15,3,4,71,,88,83,16,11,4,4,0.5,0.4
2025-06-02T2100,1157A,118.6414,32.0931,南京市,浦口,,26,15,9,3,3,81,,98,95,11,9,3,3,0.5,0.5
2025-06-02T2100,1158A,118.7356,31.9996,南京市,奥体中心,,33,13,8,9,6,104,,108,108,11,10,2,2,0.2,0.3
2025-06-02T2100,1159A,118.9125,32.1028,南京市,仙林大学城,,27,19,12,3,3,84,,99,95,15,10,7,7,0.5,0.5
2025-06-02T2100,3422A,118.8436,31.9198,南京市,江宁彩虹桥,,29,14,9,14,7,92,,104,102,12,10,5,4,0.4,0.4
2025-06-02T2100,3427A,118.8554,32.3578,南京市,六合雄州,,28,12,9,11,5,88,,111,106,22,11,6,5,0.4,0.4
2025-06-02T2100,4249A,118.8708,31.3402,南京市,汶溪路181号,,,17,8,13,7,,,101,99,14,12,3,4,0.5,0.5
2025-06-02T2100,4312A,119.019,31.6512,南京市,中山西路1号,,29,9,7,6,5,92,,110,106,6,3,4,4,0.4,0.5
2025-06-02T2100,1401A,108.3103,22.7881,南宁市,二十一中,,19,,31,13,16,39,,78,62,14,13,1,2,0.6,0.5
2025-06-02T2100,1402A,108.3141,22.8528,南宁市,北湖,,17,17,36,9,17,39,,69,57,14,12,4,6,0.7,0.7
2025-06-02T2100,1403A,108.3206,22.8225,南宁市,市监测站,,20,17,30,14,17,30,,58,45,11,9,1,3,0.7,0.7
2025-06-02T2100,1404A,108.3829,22.8037,南宁市,大自然花园,,23,23,32,12,14,51,,78,64,7,8,5,5,0.6,0.6
2025-06-02T2100,1405A,108.4394,22.7904,南宁市,仙葫,,16,9,28,6,14,51,,69,58,6,9,8,7,0.9,0.8
2025-06-02T2100,1406A,108.2397,22.8467,南宁市,区农职院,,12,8,35,7,18,38,,68,57,13,12,4,5,0.6,0.6
2025-06-02T2100,1407A,108.3275,22.735,南宁市,英华嘉园,,16,16,30,7,14,49,,88,72,9,10,8,8,0.5,0.5
2025-06-02T2100,3401A,108.4834,22.7618,南宁市,红星社区,,17,16,28,10,14,54,,81,67,7,7,2,2,0.5,0.5
2025-06-02T2100,4221A,108.2177,22.7774,南宁市,乐贤路16号,,22,,40,15,18,31,,67,52,18,18,7,7,0.6,0.6
2025-06-02T2100,2331A,118.0966,26.6761,南平市,茫荡山,,,,,,,,,,,,,,,,
2025-06-02T2100,2332A,118.1681,26.6369,南平市,南平市监测站,,17,,17,3,16,54,,76,62,3,11,4,5,0.6,0.6
2025-06-02T2100,2333A,118.1825,26.6489,南平市,南平铝业有限公司,,18,,23,7,18,57,,76,62,3,11,3,4,0.6,0.6
2025-06-02T2100,2334A,118.1756,26.6272,南平市,南平七中,,17,,20,10,15,54,,78,63,2,9,4,4,0.6,0.6
2025-06-02T2100,1168A,120.9098,31.9663,南通市,狼山街道,,32,6,2,3,1,102,,105,104,6,5,2,3,0.6,0.5
2025-06-02T2100,1169A,120.86,32.0005,南通市,虹桥,,34,,4,9,4,108,,110,109,11,10,1,1,0.3,0.3
2025-06-02T2100,1170A,120.87,32.02,南通市,城中,,33,11,4,3,1,105,,108,107,8,8,2,2,0.5,0.5
2025-06-02T2100,1171A,120.94,31.93,南通市,星湖花园,,32,,0,6,2,100,,102,100,7,7,2,2,0.3,0.3
2025-06-02T2100,1172A,120.81,32.0417,南通市,紫琅学院,,30,13,2,3,0,93,,99,97,8,7,4,4,0.3,0.3
2025-06-02T2100,3291A,121.067,32.062,南通市,通州监测站,,34,17,3,7,1,108,,116,114,3,3,4,5,0.4,0.5
2025-06-02T2100,3432A,120.9348,31.9883,南通市,环境教育馆,,35,17,6,3,1,112,,114,113,7,6,2,2,0.2,0.2
2025-06-02T2100,2404A,112.5224,33.0122,南阳市,瓦房庄,,49,49,49,20,25,100,,139,136,17,13,7,6,0.6,0.5
2025-06-02T2100,2405A,112.5003,32.9735,南阳市,汉画馆,,50,50,43,19,22,70,,125,120,33,16,8,6,0.6,0.5
2025-06-02T2100,2406A,112.5573,33.027,南阳市,气象站,,48,48,42,22,26,97,,132,130,16,9,6,5,0.5,0.4
2025-06-02T2100,2407A,112.5481,32.9689,南阳市,理工学院,,,60,43,30,25,,,132,132,20,9,5,5,0.4,0.6
2025-06-02T2100,4008A,112.5234,32.9922,南阳市,卧龙区政府,,39,39,37,27,30,86,,128,125,18,12,6,5,0.5,0.5
2025-06-02T2100,1234A,121.8358,29.911,宁波市,区环保大楼,,31,15,40,14,17,97,,98,98,18,40,10,9,0.6,0.8
2025-06-02T2100,1235A,121.56,29.82,宁波市,万里学院,,33,12,23,9,18,105,,105,105,9,25,8,9,0.6,0.7
2025-06-02T2100,1236A,121.713,29.9572,宁波市,龙赛医院,,,13,29,12,13,,,104,104,16,26,6,8,0.4,0.6
2025-06-02T2100,1239A,121.633,29.7733,宁波市,钱湖水厂,,32,8,20,7,16,102,,101,101,12,16,9,9,0.5,0.6
2025-06-02T2100,1240A,121.5856,29.8635,宁波市,太古小学,,34,8,30,7,16,107,,108,108,10,22,7,6,0.5,0.7
2025-06-02T2100,1241A,121.524,29.8674,宁波市,市环境监测中心,,31,,22,13,15,97,,99,99,15,27,9,9,0.5,0.7
2025-06-02T2100,2871A,121.6147,29.9017,宁波市,万里国际学校,,27,,19,7,14,86,,93,93,32,29,6,6,0.4,0.6
2025-06-02T2100,3710A,121.5594,29.8975,宁波市,白沙活动中心,,34,11,18,7,11,107,,104,104,6,14,8,8,0.5,0.6
2025-06-02T2100,2339A,119.5001,26.6946,宁德市,金涵水库,,,,,,,,,,,,,,,,
2025-06-02T2100,2341A,119.5388,26.6612,宁德市,宁德市监测站,颗粒物(PM10),52,53,49,25,28,91,,124,120,20,17,4,5,0.9,0.9
2025-06-02T2100,3209A,119.5231,26.6562,宁德市,宁德一中,颗粒物(PM10),52,53,48,34,36,61,,122,115,16,12,4,5,1.1,0.9
2025-06-02T2100,2618A,98.8601,25.8567,怒江傈僳族自治州,州监测站,,21,21,14,6,8,64,,65,65,5,3,10,9,0.4,0.3
2025-06-02T2100,2619A,98.8546,25.8417,怒江傈僳族自治州,泸水一中,,14,7,7,3,4,42,,47,47,10,7,5,5,0.4,0.4
2025-06-02T2100,1888A,101.6891,26.571,攀枝花市,弄弄坪,,22,22,50,3,13,56,,65,63,10,20,6,9,0.7,0.7
2025-06-02T2100,1889A,101.5769,26.5928,攀枝花市,河门口,,29,29,31,11,12,53,,71,68,11,13,10,14,0.9,0.8
2025-06-02T2100,1890A,101.7169,26.585,攀枝花市,炳草岗,,23,23,38,10,13,54,,62,59,12,20,8,12,0.7,0.7
2025-06-02T2100,1891A,101.7369,26.5008,攀枝花市,仁和,,46,46,26,30,15,36,,60,56,18,15,20,11,0.8,0.9
2025-06-02T2100,2835A,101.7227,26.567,攀枝花市,四十中小,,22,22,30,8,16,66,,72,71,7,18,7,12,0.8,0.9
2025-06-02T2100,1604A,122.0303,41.1489,盘锦市,开发区,颗粒物(PM10),51,52,43,34,32,156,,155,151,12,14,10,10,0.6,0.7
2025-06-02T2100,1605A,122.0485,41.0883,盘锦市,兴隆台,,47,42,51,30,41,149,,151,147,19,23,6,8,0.5,0.5
2025-06-02T2100,1606A,121.8297,41.1028,盘锦市,新生街道,细颗粒物(PM2.5),53,,38,37,50,145,,157,157,14,18,7,9,0.4,0.5
2025-06-02T2100,1832A,113.3257,33.742,平顶山市,新华旅馆,颗粒物(PM10),54,58,44,34,23,116,,155,150,14,12,5,6,0.6,0.5
2025-06-02T2100,1833A,113.2919,33.737,平顶山市,规划设计院,细颗粒物(PM2.5),52,52,54,36,37,114,,153,147,23,15,4,6,0.8,0.7
2025-06-02T2100,1834A,113.182,33.774,平顶山市,平顶山工学院,,40,39,49,27,31,128,,150,146,9,13,4,5,0.6,0.6
2025-06-02T2100,3204A,113.3025,33.73,平顶山市,规划局,颗粒物(PM10),54,58,49,25,25,118,,146,142,19,14,6,7,0.7,0.6
2025-06-02T2100,3594A,112.8867,33.9116,平顶山市,石龙区,,47,47,53,21,34,117,,145,137,18,23,8,9,0.6,0.6
2025-06-02T2100,2656A,106.6692,35.5461,平凉市,聚贤嘉苑,,,,,,,,,,,,,,,,
2025-06-02T2100,2657A,106.7021,35.5307,平凉市,博物馆,颗粒物(PM10),55,59,48,19,17,104,,127,126,20,21,10,9,0.9,0.7
2025-06-02T2100,2347A,114.0997,27.5002,萍乡市,武功山,,19,7,4,3,4,60,,76,73,4,5,11,12,0.6,0.6
2025-06-02T2100,2348A,113.8385,27.6434,萍乡市,中医院,,33,26,24,23,14,78,,85,84,8,8,10,11,0.9,1
2025-06-02T2100,2349A,113.8493,27.6253,萍乡市,市政府车库,,,25,16,,26,62,,72,72,12,10,8,7,0.5,0.6
2025-06-02T2100,2350A,113.8676,27.6435,萍乡市,市环保局,,32,32,19,16,12,76,,80,80,11,9,7,8,0.8,0.9
2025-06-02T2100,2351A,113.866,27.6198,萍乡市,安源区政府,,32,,19,22,11,59,,69,68,11,8,4,3,0.6,0.6
2025-06-02T2100,2319A,119.0141,25.4325,莆田市,荔城区仓后路,,49,49,52,16,26,48,,122,92,18,16,3,4,0.6,0.6
2025-06-02T2100,2320A,119.0015,25.4553,莆田市,莆田市监测站,颗粒物(PM10),52,53,48,15,26,46,,142,108,19,13,4,4,0.5,0.6
2025-06-02T2100,2321A,119.1119,25.4561,莆田市,涵江区六中,颗粒物(PM10),58,66,50,22,30,42,,125,89,24,20,2,3,0.3,0.4
2025-06-02T2100,2322A,119.1013,25.3215,莆田市,秀屿区政府,,39,39,35,6,20,49,,114,82,15,13,4,5,0.4,0.5
2025-06-02T2100,2323A,118.981,25.4792,莆田市,东圳水库,,,,,,,,,,,,,,,,
2025-06-02T2100,2392A,115.0312,35.7636,濮阳市,环保局,颗粒物(PM10),68,85,61,40,44,150,,186,181,28,18,8,9,1.0,0.9
2025-06-02T2100,2394A,115.0574,35.7609,濮阳市,油田运输公司,颗粒物(PM10),81,112,76,41,41,164,,190,186,27,19,8,8,0.9,0.8
2025-06-02T2100,3021A,115,35.7668,濮阳市,濮水河管理处,"颗粒物(PM10),细颗粒物(PM2.5)",62,73,76,44,48,124,,185,172,26,20,5,7,0.9,0.8
2025-06-02T2100,4216A,115.0924,35.7686,濮阳市,任丘路479号,颗粒物(PM10),81,112,81,49,45,168,,195,191,19,14,8,8,0.9,0.8
2025-06-02T2100,2601A,100.98,22.7633,普洱市,市环保局,,31,31,24,14,10,31,,44,42,5,4,4,4,0.5,0.5
2025-06-02T2100,2602A,100.9817,22.8322,普洱市,普洱第二中学,,32,32,17,22,13,20,,46,42,12,7,6,5,0.6,0.5
2025-06-02T2100,2262A,131.0518,45.8751,七台河市,新一中,,36,32,24,25,11,115,,136,132,13,13,11,10,1.0,0.9
2025-06-02T2100,3345A,131.0577,45.7879,七台河市,中波台,,30,22,24,7,9,93,,101,98,15,19,7,8,0.3,0.3
2025-06-02T2100,3637A,131.0176,45.7761,七台河市,人民广场,,35,28,29,10,14,110,,111,111,10,14,12,12,0.5,0.4
2025-06-02T2100,3684A,130.8781,45.8222,七台河市,新建矿广场,,46,46,38,24,13,87,,115,113,16,16,12,9,0.4,0.3
2025-06-02T2100,1779A,123.9305,47.3636,齐齐哈尔市,安居小区,,25,18,34,17,16,72,,93,85,17,27,4,3,0.5,0.6
2025-06-02T2100,1780A,123.9488,47.3386,齐齐哈尔市,中心广场,,23,20,32,9,15,73,,100,90,17,22,5,6,0.4,0.4
2025-06-02T2100,1781A,123.9483,47.3227,齐齐哈尔市,农牧车辆厂,,29,22,35,20,18,71,,92,85,11,20,5,5,0,0.2
2025-06-02T2100,1783A,123.945,47.2988,齐齐哈尔市,市环境监测站,,21,20,29,9,17,66,,94,84,12,19,4,3,0.2,0.2
2025-06-02T2100,3662A,123.6333,47.2075,齐齐哈尔市,富区青少年活动中心,,25,20,35,17,27,74,,101,92,8,12,3,3,0.3,0.3
2025-06-02T2100,2591A,107.9783,26.5747,黔东南苗族侗族自治州,市环境监测站,,25,,7,9,7,78,,76,76,5,4,1,1,0.4,0.5
2025-06-02T2100,2881A,107.8908,26.5311,黔东南苗族侗族自治州,凯里学院,,24,12,4,6,6,76,,76,76,5,5,2,2,0.4,0.4
2025-06-02T2100,2593A,107.5228,26.2403,黔南布依族苗族自治州,小围寨,,14,7,8,3,3,44,,47,45,6,6,1,2,0.3,0.4
2025-06-02T2100,3538A,107.5175,26.2978,黔南布依族苗族自治州,沙坝,,16,14,13,3,3,51,,66,61,7,5,3,3,0.4,0.5
2025-06-02T2100,2589A,104.9022,25.0925,黔西南布依族苗族自治州,场坝街,,23,23,22,6,12,70,,78,75,8,10,2,2,0.3,0.4
2025-06-02T2100,2590A,104.8811,25.0992,黔西南布依族苗族自治州,坪东大道,,20,14,24,14,12,52,,62,61,11,14,1,1,0.1,0.2
2025-06-02T2100,2502A,108.6236,21.9667,钦州市,市环保站,,22,22,39,3,12,54,,120,110,11,13,6,6,0.2,0.2
2025-06-02T2100,2503A,108.6549,21.9481,钦州市,沙埠小学,,20,,39,14,17,53,,125,112,10,13,6,7,0.5,0.5
2025-06-02T2100,2504A,108.5989,21.7431,钦州市,港区一小,,26,26,50,16,14,60,,78,76,14,16,7,10,0.6,0.6
2025-06-02T2100,3404A,108.5959,21.9633,钦州市,北职校,,28,28,39,19,18,46,,118,105,12,13,8,12,1.6,0.6
2025-06-02T2100,1043A,119.7493,40.0116,秦皇岛市,第一关,细颗粒物(PM2.5),65,72,79,47,42,54,,180,160,69,41,5,7,0.3,0.5
2025-06-02T2100,1044A,119.5897,39.9499,秦皇岛市,监测站,颗粒物(PM10),64,77,82,30,37,105,,169,154,39,36,5,7,0.6,0.6
2025-06-02T2100,1046A,119.5251,39.9041,秦皇岛市,建设大厦,颗粒物(PM10),69,87,72,42,35,82,,170,152,61,33,5,7,0.6,0.5
2025-06-02T2100,3132A,119.610547,39.943889,秦皇岛市,文明里,,,115,89,30,32,,,173,169,41,29,6,7,0.8,0.5
2025-06-02T2100,4198A,119.5090,39.8253,秦皇岛市,北戴河轮滑馆,"颗粒物(PM10),细颗粒物(PM2.5)",65,80,68,47,41,121,,183,176,20,13,3,5,0.6,0.5
2025-06-02T2100,1307A,120.6659,36.2403,青岛市,仰口,,32,,17,22,21,87,,135,112,9,6,7,8,0.5,0.5
2025-06-02T2100,1310A,120.4134,36.0658,青岛市,市南区东部子站,,39,12,19,9,15,122,,142,131,6,4,8,8,0.3,0.3
2025-06-02T2100,1311A,120.3664,36.1032,青岛市,四方区子站,,41,,15,7,17,130,,151,141,9,7,3,3,0.5,0.5
2025-06-02T2100,1312A,120.2994,36.054,青岛市,市南区西部子站,,38,14,17,12,15,121,,137,131,13,12,7,7,0.6,0.6
2025-06-02T2100,1313A,120.4581,36.0858,青岛市,崂山区子站,,39,19,15,9,13,124,,143,134,5,3,6,6,0.4,0.5
2025-06-02T2100,1315A,120.3999,36.3083,青岛市,城阳区子站,,34,14,18,12,14,108,,134,124,13,10,5,5,0.4,0.4
2025-06-02T2100,1966A,120.0405,35.8735,青岛市,黄岛区4号,,41,14,16,12,12,131,,150,139,8,8,8,8,0.6,0.6
2025-06-02T2100,3362A,120.5014,36.4034,青岛市,即墨2号,,35,21,24,15,21,112,,138,130,11,7,7,7,0.2,0.2
2025-06-02T2100,3642A,120.3503,36.0736,青岛市,市北区南部,,35,18,23,7,14,109,,128,118,8,8,6,6,0.4,0.4
2025-06-02T2100,3643A,120.3948,36.1805,青岛市,李沧区北部,,35,,18,19,20,112,,133,122,11,8,7,7,0.4,0.4
2025-06-02T2100,4290A,120.1969,35.9546,青岛市,珠江路669号,,41,,13,10,14,130,,145,138,2,4,6,6,0.5,0.5
2025-06-02T2100,1702A,113.0426,23.691,清远市,环保大楼,,28,25,43,19,21,48,,84,81,16,20,4,5,0.9,0.9
2025-06-02T2100,1703A,113.0208,23.7106,清远市,凤城街办,,19,15,34,13,20,44,,82,80,12,23,7,7,0.6,0.6
2025-06-02T2100,3025A,113.0477,23.6344,清远市,技师学院,,31,31,34,15,20,36,,104,98,18,19,6,6,0.6,0.5
2025-06-02T2100,3318A,112.9903,23.7403,清远市,清新太和,,15,13,32,8,20,48,,72,70,4,14,6,6,0.6,0.6
2025-06-02T2100,3455A,113.076,23.7198,清远市,清城东城,,30,30,36,15,20,41,,88,85,7,13,7,7,0.5,0.5
2025-06-02T2100,2661A,107.6325,35.7357,庆阳市,庆阳五中,,43,43,37,14,19,99,,108,108,20,10,4,4,0.4,0.4
2025-06-02T2100,2662A,107.6364,35.7067,庆阳市,市环保局,,38,38,38,14,16,98,,111,111,19,8,5,6,0.6,0.6
2025-06-02T2100,1916A,103.7897,25.5035,曲靖市,环境监测站,,26,26,20,10,9,46,,51,48,17,13,7,5,0.7,0.6
2025-06-02T2100,1917A,103.8,25.5364,曲靖市,烟厂办公区,,22,19,20,15,11,48,,50,48,15,13,8,7,1.0,0.8
2025-06-02T2100,3376A,103.7947,25.462,曲靖市,南苑二区,,,14,22,11,8,46,,55,54,18,12,4,4,,0.7
2025-06-02T2100,3377A,103.7444,25.5261,曲靖市,曲靖师范学院,,23,23,22,14,14,56,,59,59,11,13,6,9,0.6,0.6
2025-06-02T2100,1264A,118.8692,28.9398,衢州市,环保大楼,,22,22,22,15,14,58,,61,61,8,15,4,3,0.6,0.6
2025-06-02T2100,1265A,118.8709,28.9666,衢州市,实验学校,,25,25,20,16,13,56,,60,60,9,15,3,2,0.6,0.5
2025-06-02T2100,1266A,118.8621,28.9808,衢州市,衢州学院,,30,23,18,21,14,52,,56,56,10,18,5,5,0.6,0.5
2025-06-02T2100,1611A,118.5819,24.9117,泉州市,涂山街,,46,46,42,13,22,50,,122,93,17,20,1,4,0.6,0.7
2025-06-02T2100,1612A,118.5972,24.8978,泉州市,津头埔,,36,36,36,7,16,50,,118,91,19,20,2,4,0.5,0.6
2025-06-02T2100,1613A,118.6663,24.9424,泉州市,万安,,29,29,38,10,19,57,,122,94,6,14,4,5,0.4,0.6
2025-06-02T2100,1614A,118.6117,24.9604,泉州市,清源山,,,,,,,,,,,,,,,,
2025-06-02T2100,3529A,118.6333,24.9264,泉州市,城华南路,,25,25,30,10,19,46,,110,83,16,18,3,5,0.4,0.5
2025-06-02T2100,2626A,88.8876,29.2718,日喀则市,日喀则监测站,,49,44,15,13,6,156,,169,168,5,4,18,17,0.1,0.1
2025-06-02T2100,3726A,88.8781,29.2426,日喀则市,林业技术推广中心,,50,33,18,10,5,158,,165,165,2,3,5,5,0.0,0.1
2025-06-02T2100,1659A,119.471,35.4209,日照市,监测站,,30,24,20,18,16,94,,139,123,35,17,7,6,0.5,0.4
2025-06-02T2100,1660A,119.523,35.4216,日照市,市政府广场,,33,24,18,18,13,105,,127,117,15,5,5,4,0.5,0.5
2025-06-02T2100,1661A,119.5587,35.4044,日照市,港务局,,40,22,16,17,19,125,,151,137,10,5,8,7,0.4,0.4
2025-06-02T2100,3507A,119.5328,35.4625,日照市,职业技术学院,,40,14,17,12,10,128,,141,135,9,5,4,4,0.5,0.5
2025-06-02T2100,3604A,119.3266,35.1044,日照市,岚山环保分局,,33,17,16,16,12,104,,139,125,27,15,6,5,0.6,0.5
2025-06-02T2100,1835A,111.1922,34.7752,三门峡市,市政府,,46,46,46,11,34,112,,151,143,26,22,8,7,0.6,0.6
2025-06-02T2100,1836A,111.1587,34.7942,三门峡市,开发区,,,,43,,30,,,149,147,16,15,8,7,0.6,0.6
2025-06-02T2100,1838A,111.143,34.7955,三门峡市,风景区,颗粒物(PM10),51,52,43,24,24,120,,150,144,11,11,9,9,0.5,0.5
2025-06-02T2100,3039A,111.1911,34.7829,三门峡市,三门峡市第一小学,,47,47,49,14,25,120,,151,144,19,15,10,7,0.6,0.6
2025-06-02T2100,3598A,111.1,34.7167,三门峡市,富达温泉假日酒店,颗粒物(PM10),66,81,65,17,31,112,,145,138,24,19,12,9,0.4,0.4
2025-06-02T2100,2324A,117.6211,26.2625,三明市,三钢,,28,11,26,8,15,33,,58,41,19,17,9,11,2.8,1.9
2025-06-02T2100,2325A,117.635,26.2714,三明市,三明二中,,13,,22,9,16,34,,61,42,13,14,4,6,0.4,0.6
2025-06-02T2100,2326A,117.6028,26.2378,三明市,三元区政府,,27,27,27,11,17,32,,60,,13,12,2,5,0.9,0.6
2025-06-02T2100,2327A,117.7275,26.3108,三明市,洋溪,,,,,,,,,,,,,,,,
2025-06-02T2100,1876A,109.5078,18.2489,三亚市,河东子站,,20,16,20,11,10,61,,65,62,4,3,3,3,0.2,0.3
2025-06-02T2100,1877A,109.4964,18.2681,三亚市,河西子站,,22,22,19,12,10,61,,67,66,6,3,3,3,0.1,0.1
2025-06-02T2100,3540A,109.7348,18.3443,三亚市,君悦子站,,,19,22,9,9,,,72,,,6,2,3,0.2,0.1
2025-06-02T2100,2624A,91.7608,29.2313,山南市,山南监测站,,,9,8,3,2,,,126,126,1,4,8,9,0.2,0.2
2025-06-02T2100,2625A,91.7706,29.2436,山南市,山南人民医院,,44,17,17,8,7,139,,146,146,2,5,5,6,0.3,0.3
2025-06-02T2100,1674A,116.6794,23.3667,汕头市,金平子站,,15,,18,10,13,48,,68,64,10,10,3,3,0.4,0.3
2025-06-02T2100,1675A,116.7244,23.3633,汕头市,龙湖子站,,28,28,25,13,15,38,,62,56,11,10,5,5,0.4,0.5
2025-06-02T2100,1676A,116.7258,23.2775,汕头市,濠江子站,颗粒物(PM10),60,70,41,12,20,37,,56,53,13,14,4,4,0.6,0.7
2025-06-02T2100,1677A,116.7519,23.4714,汕头市,澄海子站,,29,29,30,17,20,42,,70,62,9,10,1,2,0.6,0.6
2025-06-02T2100,1678A,116.6092,23.2539,汕头市,潮阳子站,,,28,24,17,20,,,62,58,,6,4,4,0.3,0.5
2025-06-02T2100,3444A,116.454,23.2684,汕头市,潮南峡山,,25,25,17,14,13,48,,60,58,1,4,4,5,0.6,0.6
2025-06-02T2100,3624A,116.4069,23.2533,汕头市,潮南子站,,25,25,16,9,8,43,,52,51,2,2,4,4,0.5,0.5
2025-06-02T2100,1693A,115.3653,22.775,汕尾市,市环保局,,22,22,22,9,9,52,,68,65,9,6,2,2,0.5,0.6
2025-06-02T2100,1694A,115.3706,22.7898,汕尾市,市政府,,21,21,23,10,18,54,,66,63,8,6,5,5,0.5,0.5
2025-06-02T2100,1695A,115.3622,22.7925,汕尾市,新城中学,,34,34,28,8,9,55,,70,68,9,7,2,2,0.4,0.4
2025-06-02T2100,2645A,109.9154,33.8715,商洛市,监测站,,30,30,30,15,18,73,,113,107,27,16,8,8,0.6,0.5
2025-06-02T2100,3045A,109.9643,33.8471,商洛市,商州区中学,,40,40,36,10,16,66,,114,106,26,19,3,4,0.7,0.6
2025-06-02T2100,2408A,115.6702,34.4285,商丘市,环境监测站,颗粒物(PM10),64,77,39,45,26,148,,171,170,16,10,2,2,0.8,0.7
2025-06-02T2100,2409A,115.6458,34.4045,商丘市,粮食局,细颗粒物(PM2.5),67,75,42,48,32,146,,176,174,15,8,4,3,0.4,0.3
2025-06-02T2100,2410A,115.6293,34.3948,商丘市,睢阳区环保局,颗粒物(PM10),74,98,44,52,29,132,,172,168,21,8,2,2,0.4,0.3
2025-06-02T2100,3171A,115.6071,34.4465,商丘市,梁园区档案局,细颗粒物(PM2.5),69,84,42,50,30,138,,170,168,22,10,4,2,0.6,0.5
2025-06-02T2100,1141A,121.4,31.238,上海市,普陀,,30,6,12,3,10,94,,100,100,15,18,4,4,0.4,0.4
2025-06-02T2100,1142A,121.478,31.2036,上海市,十五厂,,30,9,13,8,10,96,,108,108,16,15,6,6,0.8,0.8
2025-06-02T2100,1143A,121.467,31.3008,上海市,虹口,,27,,12,18,13,85,,90,89,20,17,8,7,0.7,0.7
2025-06-02T2100,1147A,121.425,31.2261,上海市,静安监测站,,30,,12,13,11,96,,106,105,20,20,8,8,0.5,0.6
2025-06-02T2100,1148A,121.703,31.1907,上海市,浦东川沙,,30,8,14,3,9,95,,98,98,15,19,6,6,0.5,0.6
2025-06-02T2100,1149A,121.533,31.2284,上海市,浦东新区监测站,,30,,13,10,8,96,,104,104,15,17,6,6,0.5,0.6
2025-06-02T2100,1150A,121.577,31.2071,上海市,浦东张江,,34,,24,10,13,108,,112,112,14,19,6,6,1.0,1.1
2025-06-02T2100,3265A,121.4316,31.3322,上海市,宝山庙行,,30,6,11,3,7,96,,103,102,8,8,8,7,0.6,0.4
2025-06-02T2100,3266A,121.8791,31.4662,上海市,崇明上实东滩,,40,22,8,10,3,125,,125,125,5,7,1,1,0.4,0.5
2025-06-02T2100,3268A,121.3162,31.2838,上海市,嘉定南翔,,26,,12,8,10,82,,94,92,15,16,5,5,0.4,0.5
2025-06-02T2100,3269A,121.3359,30.7456,上海市,金山新城,,28,22,20,15,12,87,,107,107,18,14,2,2,0.8,0.7
2025-06-02T2100,3270A,121.4996,31.0739,上海市,闵行浦江,,29,,14,8,11,92,,97,97,12,14,3,3,0.6,0.7
2025-06-02T2100,3271A,121.2886,31.1663,上海市,青浦徐泾,,27,8,15,7,10,84,,100,99,9,11,5,5,0.6,0.7
